timepoint,stationcode,longitude,latitude,area,positionname,primarypollutant,aqi,pm10,pm10_24h,pm2_5,pm2_5_24h,o3,o3_24h,o3_8h,o3_8h_24h,no2,no2_24h,so2,so2_24h,co,co_24h
2025-07-04T1700,2566A,102.1879,31.914,阿坝藏族羌族自治州,州农科所,,23,23,18,9,6,48,,44,44,22,9,12,11,0.5,0.5
2025-07-04T1700,2568A,102.2502,31.8896,阿坝藏族羌族自治州,马师校,,,,16,21,17,36,,37,37,13,7,,6,0.6,0.6
2025-07-04T1700,3994A,102.2165,31.9024,阿坝藏族羌族自治州,马尔康中学西区,,23,,16,16,13,61,,44,44,4,5,6,6,0.6,0.6
2025-07-04T1700,2695A,80.292,41.1694,阿克苏地区,电视台,,,128,71,32,22,118,,107,107,,11,6,4,0.4,0.5
2025-07-04T1700,2696A,80.2613,41.1551,阿克苏地区,艺术中心,颗粒物(PM10),94,137,67,63,30,127,,116,116,2,8,3,3,0.4,0.4
2025-07-04T1700,2204A,105.6467,38.8363,阿拉善盟,西城区西花园,,39,,57,7,17,122,,124,122,7,8,4,5,0.7,0.7
2025-07-04T1700,2205A,105.6985,38.8411,阿拉善盟,蒙二幼,,34,7,68,3,17,107,,110,109,8,9,8,7,0.5,0.5
2025-07-04T1700,2206A,105.724,38.8516,阿拉善盟,环保局新楼,,34,6,55,3,15,106,,115,113,4,4,8,8,0.5,0.4
2025-07-04T1700,2708A,88.1264,47.8517,阿勒泰地区,市站,,37,9,14,3,6,117,,105,105,9,9,1,1,0.4,0.4
2025-07-04T1700,2630A,80.1161,32.5,阿里地区,阿里监测站,,,6,14,3,6,154,,151,151,4,7,,2,0.2,0.2
2025-07-04T1700,3192A,80.0903,32.5028,阿里地区,阿里藏医院,,49,22,21,3,7,156,,157,157,2,3,4,4,0.3,0.4
2025-07-04T1700,2642A,109.0318,32.6537,安康市,香溪洞,,26,15,20,11,9,81,,80,80,3,6,6,6,0.0,0.1
2025-07-04T1700,2644A,109.0072,32.6975,安康市,汉滨区检察院,,27,27,23,12,9,78,,72,72,4,8,7,7,0.2,0.4
2025-07-04T1700,4054A,109.0325,32.6913,安康市,市邮政管理局,,21,14,24,7,9,67,,62,62,2,9,6,6,0.4,0.5
2025-07-04T1700,2291A,117.0809,30.5177,安庆市,环科院,,41,,31,20,24,131,,116,116,4,19,3,3,0.6,0.6
2025-07-04T1700,2292A,117.0331,30.5119,安庆市,马山宾馆,,45,25,28,18,22,142,,129,129,2,20,5,5,0.3,0.4
2025-07-04T1700,2294A,116.9896,30.6145,安庆市,安庆大学,,,15,34,14,23,140,,133,133,7,19,3,3,,1.1
2025-07-04T1700,3173A,117.0598,30.5351,安庆市,市人大,,43,20,32,19,24,137,,130,130,4,14,2,2,0.5,0.6
2025-07-04T1700,3122A,105.9606,26.2611,安顺市,伍家关,,,,,,,61,,60,60,3,3,2,2,0.2,0.3
2025-07-04T1700,3123A,105.9408,26.2431,安顺市,凤凰山,,20,9,10,3,7,62,,61,61,3,4,3,3,0.3,0.5
2025-07-04T1700,3124A,105.9439,26.2564,安顺市,金钟山,,20,12,10,3,7,64,,63,63,3,3,4,4,0.5,0.4
2025-07-04T1700,3125A,105.8983,26.2481,安顺市,娄家坡,,18,6,7,6,4,57,,56,56,2,2,4,4,0.5,0.5
2025-07-04T1700,1818A,114.4839,36.0621,安阳市,棉研所,,,,,,,,,,,,,,,,
2025-07-04T1700,1819A,114.3551,36.1017,安阳市,红庙街,臭氧1小时,87,47,40,14,13,189,,164,164,2,7,2,4,0.3,0.7
2025-07-04T1700,1820A,114.361,36.0681,安阳市,银杏小区,臭氧1小时,95,41,41,13,18,196,,171,171,2,4,3,2,0.4,0.7
2025-07-04T1700,3141A,114.3922,36.0878,安阳市,信访局,,,90,45,53,14,,,167,167,12,12,3,3,,1.1
2025-07-04T1700,3669A,114.4705,36.0637,安阳市,左辅环卫站,臭氧1小时,55,28,31,6,9,164,,148,148,1,10,5,6,0.4,0.5
2025-07-04T1700,3703A,114.2917,36.0949,安阳市,安钢职工学校,臭氧1小时,87,46,43,16,16,189,,157,157,2,8,3,5,0.4,0.9
2025-07-04T1700,1748A,123.044,41.1196,鞍山市,深沟寺,,30,27,16,21,9,51,,55,55,10,7,5,4,1.5,0.9
2025-07-04T1700,1749A,123.011,41.0931,鞍山市,太阳城,,23,23,23,11,10,62,,69,69,12,10,6,6,1.4,1.1
2025-07-04T1700,1750A,123.0485,41.1442,鞍山市,太平,,36,36,22,21,12,83,,72,72,15,12,3,3,2.2,1.3
2025-07-04T1700,1751A,122.9642,41.0971,鞍山市,铁西三道街,,25,25,18,12,10,80,,70,70,16,17,5,5,1.0,1.2
2025-07-04T1700,1753A,123.022,41.0821,鞍山市,明达新区,,20,15,13,8,7,64,,64,64,11,8,4,4,1.5,0.9
2025-07-04T1700,1754A,123.1289,41.0228,鞍山市,千山,,,,,,,,,,,,,,,,
2025-07-04T1700,4201A,122.9446,41.0826,鞍山市,兴盛南路290号,,27,27,23,16,13,70,,65,65,16,17,4,4,0.9,1.2
2025-07-04T1700,2195A,107.4212,40.761,巴彦淖尔市,附二中,,33,,51,10,25,103,,103,103,7,24,6,8,0.5,0.5
2025-07-04T1700,2196A,107.37,40.7372,巴彦淖尔市,市环保大楼,,32,20,55,12,23,100,,99,99,9,24,8,8,0.4,0.5
2025-07-04T1700,1956A,86.1472,41.7538,巴音郭楞蒙古自治州,孔雀公园,颗粒物(PM10),90,130,56,35,17,105,,113,112,4,13,2,3,0.1,0.2
2025-07-04T1700,1957A,86.1972,41.7166,巴音郭楞蒙古自治州,棉纺厂,颗粒物(PM10),101,151,98,44,20,116,,106,106,6,20,3,4,0.2,0.2
2025-07-04T1700,1958A,86.2357,41.7173,巴音郭楞蒙古自治州,经济开发区,颗粒物(PM10),77,103,86,24,17,112,,110,110,4,6,1,2,0.1,0.1
2025-07-04T1700,2914A,106.7677,31.8794,巴中市,苏山坪,,30,10,10,7,7,94,,75,75,5,5,6,6,0.3,0.3
2025-07-04T1700,3181A,106.7768,31.8526,巴中市,市五中,,32,17,18,8,10,100,,77,77,6,11,8,8,0.5,0.6
2025-07-04T1700,3183A,106.7418,31.8654,巴中市,圣泉水务公司,,33,14,18,8,10,105,,83,83,4,13,6,6,0.5,0.6
2025-07-04T1700,3616A,106.7616,31.8344,巴中市,市中心医院,,33,21,18,8,10,103,,76,76,5,14,7,7,0.2,0.4
2025-07-04T1700,2235A,122.7911,45.6077,白城市,洮北区环保局,,32,6,21,3,15,102,,90,90,4,9,8,8,0.3,0.4
2025-07-04T1700,2236A,122.8738,45.5725,白城市,市环保局,,31,12,22,6,15,99,,89,89,1,4,3,2,0.6,0.6
2025-07-04T1700,2231A,126.4219,41.9171,白山市,喜丰,,22,15,16,3,6,70,,61,61,3,20,5,7,0.8,0.9
2025-07-04T1700,2232A,126.4077,41.9419,白山市,环保局,,25,11,11,3,3,80,,67,67,5,14,3,3,0.6,0.7
2025-07-04T1700,2647A,104.1724,36.5446,白银市,第三小学,,34,14,60,10,16,108,,105,100,5,7,9,14,0.6,0.5
2025-07-04T1700,2648A,104.1465,36.5482,白银市,动力公司,,32,12,54,12,18,100,,102,94,8,8,8,11,0.4,0.5
2025-07-04T1700,2512A,106.6103,23.9011,百色市,市监测站,,28,26,22,9,9,89,,87,87,6,7,6,5,0.4,0.4
2025-07-04T1700,2513A,106.6538,23.8859,百色市,市中心血站,,38,38,31,12,15,80,,79,79,6,12,4,4,0.5,0.5
2025-07-04T1700,3406A,106.6085,23.8798,百色市,祈福高中,,37,37,32,11,13,87,,82,82,6,10,7,6,0.5,0.6
2025-07-04T1700,2270A,117.396,32.939,蚌埠市,工人疗养院,,36,18,29,3,9,115,,124,123,2,7,4,4,0.3,0.4
2025-07-04T1700,2271A,117.3605,32.9427,蚌埠市,百货大楼,,36,27,33,6,11,114,,122,122,4,8,5,6,0.3,0.5
2025-07-04T1700,2273A,117.4185,32.8911,蚌埠市,蚌埠学院,,32,22,25,3,13,102,,110,110,11,9,5,5,0.3,0.4
2025-07-04T1700,2274A,117.3533,32.9673,蚌埠市,淮上区政府,,39,14,29,8,13,122,,128,128,4,10,5,6,0.3,0.4
2025-07-04T1700,2275A,117.3145,32.8977,蚌埠市,高新区,,39,17,33,8,14,124,,126,126,15,18,7,7,0.5,0.5
2025-07-04T1700,3715A,117.3092,32.9314,蚌埠市,蚌埠田家炳中学,,39,16,33,3,15,122,,115,115,5,11,8,9,0.3,0.3
2025-07-04T1700,1585A,109.8756,40.6532,包头市,市环境监测站,,31,22,41,3,19,97,,107,107,6,32,5,10,0.4,0.7
2025-07-04T1700,1587A,109.9991,40.5842,包头市,包头八中,,42,42,49,3,23,84,,111,108,9,27,5,14,0.5,0.9
2025-07-04T1700,1588A,109.8538,40.6821,包头市,青山宾馆,,31,13,39,3,17,98,,107,107,4,41,4,10,0.2,0.6
2025-07-04T1700,1589A,109.8642,40.6288,包头市,惠龙物流,,30,18,43,3,20,95,,106,106,6,27,4,9,0.3,0.7
2025-07-04T1700,1590A,110.0377,40.5546,包头市,东河鸿龙湾,,29,23,44,3,29,91,,120,117,8,23,6,9,0.4,0.7
2025-07-04T1700,3283A,109.9154,40.5685,包头市,滨河大厦,,30,27,40,6,25,96,,118,117,5,18,5,9,0.5,0.7
2025-07-04T1700,3419A,109.9447,40.6261,包头市,包头市委党校,,29,17,36,12,18,91,,113,111,5,25,7,14,0.4,0.8
2025-07-04T1700,3683A,109.8331,40.6576,包头市,昆区政府,,30,11,46,3,22,95,,106,106,5,34,3,10,0.4,0.9
2025-07-04T1700,1930A,107.185,34.3063,宝鸡市,庙沟村,,28,,18,3,5,87,,83,83,6,9,4,4,0.2,0.3
2025-07-04T1700,1931A,107.0708,34.3017,宝鸡市,竹园沟,,23,9,24,3,6,71,,72,72,5,8,6,6,0.3,0.4
2025-07-04T1700,1932A,107.1906,34.3672,宝鸡市,三陆医院,细颗粒物(PM2.5),58,,29,41,11,74,,72,72,14,20,6,6,0.4,0.5
2025-07-04T1700,1933A,107.1431,34.3547,宝鸡市,监测站,,25,,28,6,9,80,,77,77,7,11,7,7,0.2,0.3
2025-07-04T1700,1934A,107.1186,34.3739,宝鸡市,技工学校,,,,34,2,10,81,,72,72,3,7,8,8,0.4,0.5
2025-07-04T1700,1935A,107.3906,34.3528,宝鸡市,陈仓区环保局家属楼,,,,,14,16,83,,84,84,10,18,8,10,0.4,0.3
2025-07-04T1700,1936A,107.2058,34.3497,宝鸡市,文理学院,,25,6,26,3,8,79,,81,81,11,12,6,6,0.4,0.5
2025-07-04T1700,1937A,107.2386,34.3622,宝鸡市,三迪小学,,,,33,4,10,82,,82,82,9,15,6,7,0.3,0.5
2025-07-04T1700,1051A,115.493,38.8632,保定市,游泳馆,,45,23,25,18,15,143,,130,130,4,12,4,4,0.2,0.3
2025-07-04T1700,1052A,115.5213,38.8959,保定市,华电二区,,50,28,26,14,17,160,,157,157,5,11,4,3,0.6,0.8
2025-07-04T1700,1053A,115.4713,38.9108,保定市,接待中心,,,,31,11,11,157,,133,133,,7,2,3,0.1,0.4
2025-07-04T1700,1054A,115.4612,38.8416,保定市,地表水厂,,50,40,40,10,8,158,,140,140,4,14,3,3,0.6,0.6
2025-07-04T1700,3581A,115.31981,38.95208,保定市,满城区生态环境分局,,45,31,33,7,19,142,,109,109,1,11,3,3,0.0,0
2025-07-04T1700,3582A,115.47694,38.76408,保定市,清苑区第二中学,,48,33,27,26,16,153,,132,132,1,10,3,3,0.5,0.5
2025-07-04T1700,3583A,115.62909,39.02311,保定市,徐水物探局,,,27,25,9,13,154,,28,,6,8,,3,0.0,0.4
2025-07-04T1700,4004A,115.4202,38.8656,保定市,双鹰农机,,36,15,15,11,14,113,,99,99,4,11,3,3,0.3,0.3
2025-07-04T1700,4034A,115.5150,38.8590,保定市,植保所站,,50,25,25,12,12,158,,160,159,8,16,4,4,0.1,0.2
2025-07-04T1700,2594A,99.1678,25.1081,保山市,市环境监测站,,23,19,13,16,11,40,,42,42,6,9,7,6,0.5,0.5
2025-07-04T1700,2595A,99.1711,25.1328,保山市,市环保局,,20,20,15,3,7,48,,45,45,3,7,6,7,0.3,0.3
2025-07-04T1700,1866A,109.2262,21.588,北海市,牛尾岭水库,,25,11,21,6,12,78,,76,76,3,7,3,4,0.4,0.5
2025-07-04T1700,1867A,109.1436,21.4086,北海市,海滩公园,,24,24,28,7,12,66,,65,65,4,10,2,3,0.5,0.6
2025-07-04T1700,1868A,109.0981,21.4661,北海市,新市环保局,,20,20,26,9,17,61,,74,74,4,11,2,8,0.3,0.5
2025-07-04T1700,1869A,109.1778,21.5233,北海市,北海工业园,,26,12,34,10,19,81,,83,83,4,14,3,10,0.4,0.5
2025-07-04T1700,3400A,109.1911,21.4415,北海市,龙潭自来水厂,,26,18,28,7,19,82,,77,77,4,11,4,7,0.4,0.5
2025-07-04T1700,1001A,116.3621,39.8784,北京市,万寿西宫,,50,10,27,9,26,157,,135,135,8,18,1,1,0.5,0.5
2025-07-04T1700,1002A,116.2202,40.2915,北京市,定陵,,,22,21,19,16,,,128,128,4,2,1,4,0.5,0.4
2025-07-04T1700,1003A,116.4174,39.9289,北京市,东四,,,12,34,10,31,171,,152,152,7,19,,3,0.4,0.5
2025-07-04T1700,1004A,116.4072,39.8863,北京市,天坛,,50,15,33,9,22,159,,133,133,7,17,3,3,0.6,0.7
2025-07-04T1700,1005A,116.462,39.9365,北京市,农展馆,臭氧1小时,52,13,33,10,25,161,,135,135,6,17,2,2,0.6,0.7
2025-07-04T1700,1006A,116.3392,39.9295,北京市,官园,,48,16,28,9,18,151,,131,131,10,22,3,3,0.4,0.5
2025-07-04T1700,1007A,116.2878,39.9611,北京市,海淀万柳,,50,18,29,11,20,160,,140,140,9,23,5,5,0.5,0.6
2025-07-04T1700,1008A,116.6636,40.135,北京市,顺义新城,臭氧1小时,83,19,32,10,21,186,,153,153,7,11,4,4,0.4,0.5
2025-07-04T1700,1009A,116.6275,40.3275,北京市,怀柔镇,臭氧1小时,113,21,26,15,22,226,,137,137,12,10,3,3,0.4,0.4
2025-07-04T1700,1010A,116.2296,40.217,北京市,昌平镇,臭氧1小时,105,26,25,19,21,209,,171,171,8,10,5,5,0.6,0.4
2025-07-04T1700,1011A,116.3966,39.9821,北京市,奥体中心,,50,14,28,10,19,157,,141,141,5,15,2,3,0.4,0.6
2025-07-04T1700,3281A,115.9718,40.4529,北京市,延庆夏都,臭氧1小时,65,13,22,9,17,172,,123,123,6,9,4,5,0.5,0.5
2025-07-04T1700,3418A,116.8336,40.4095,北京市,密云新城,臭氧1小时,78,18,33,14,19,182,,128,128,1,5,1,1,0.4,0.5
2025-07-04T1700,3671A,116.088,39.9726,北京市,门头沟三家店,臭氧1小时,67,22,24,12,15,173,,133,133,6,13,3,5,0.6,0.6
2025-07-04T1700,3672A,116.1541,39.8204,北京市,丰台云岗,臭氧1小时,59,18,29,13,21,167,,136,136,4,15,1,3,0.6,0.4
2025-07-04T1700,3673A,116.6804,39.9081,北京市,通州东关,臭氧1小时,67,15,37,13,30,173,,140,140,8,13,1,2,0.6,0.7
2025-07-04T1700,3674A,115.9577,39.7603,北京市,房山燕山,,47,19,24,12,20,149,,124,124,5,8,1,2,0.5,0.5
2025-07-04T1700,3675A,116.4672,39.7733,北京市,大兴旧宫,臭氧1小时,53,,48,18,39,162,,124,124,6,11,1,2,0.6,0.7
2025-07-04T1700,3694A,115.986,40.4563,北京市,延庆石河营,臭氧1小时,70,12,20,10,16,176,,121,121,6,8,2,2,0.3,0.3
2025-07-04T1700,3695A,116.6151,40.3053,北京市,怀柔新城,臭氧1小时,111,22,27,14,20,222,,132,132,10,5,1,1,1.0,0.9
2025-07-04T1700,3696A,116.2545,39.8768,北京市,丰台小屯,,45,15,28,11,26,141,,115,115,2,9,1,1,0.4,0.5
2025-07-04T1700,3697A,116.84,40.3844,北京市,密云镇,臭氧1小时,82,,26,12,28,185,,126,126,6,9,3,2,0.4,0.6
2025-07-04T1700,4182A,116.1942,39.9158,北京市,八角北路9号,臭氧1小时,68,19,35,11,19,174,,149,149,6,21,2,2,0.5,0.5
2025-07-04T1700,4194A,117.0790,40.1518,北京市,洳河巡河路,臭氧1小时,99,24,36,19,29,199,,138,138,3,7,1,2,0.4,0.5
2025-07-04T1700,1761A,123.8275,41.3064,本溪市,大峪,,20,,13,12,5,64,,54,54,4,11,5,5,0.5,0.5
2025-07-04T1700,1762A,123.7567,41.3325,本溪市,溪湖,,18,18,13,8,6,50,,49,49,8,11,3,4,1.4,1.3
2025-07-04T1700,1763A,123.7169,41.3094,本溪市,彩屯,,22,22,20,15,11,42,,37,37,13,22,6,7,1.5,1.8
2025-07-04T1700,1764A,123.7669,41.2864,本溪市,东明,,21,21,12,8,4,56,,54,54,6,10,4,4,0.6,0.6
2025-07-04T1700,1765A,123.7992,41.2664,本溪市,新立屯,,21,15,10,6,3,66,,60,60,8,8,3,3,0.6,0.5
2025-07-04T1700,1766A,123.8142,41.3472,本溪市,威宁,,21,10,15,6,7,65,,59,59,8,11,6,6,0.3,0.5
2025-07-04T1700,2587A,105.2864,27.3125,毕节市,八中,,24,11,11,6,7,74,,63,63,5,5,4,4,0.3,0.3
2025-07-04T1700,2588A,105.31,27.2944,毕节市,师专,,24,17,13,7,6,74,,63,63,8,7,4,4,0.5,0.5
2025-07-04T1700,4263A,105.3688,27.3598,毕节市,工业大道,,25,13,12,8,7,80,,68,68,7,9,5,7,0.5,0.5
2025-07-04T1700,1629A,118.0018,37.3617,滨州市,第二水厂,臭氧1小时,65,29,30,19,14,172,,148,148,3,13,3,2,0.3,0.4
2025-07-04T1700,1630A,117.9776,37.393,滨州市,北中新校,臭氧1小时,87,31,28,19,13,189,,156,156,3,15,6,3,0.3,0.4
2025-07-04T1700,3514A,117.9378,37.3956,滨州市,中海酒店,臭氧1小时,68,27,27,19,17,174,,149,149,4,11,7,7,0.7,0.8
2025-07-04T1700,3515A,117.9378,37.3553,滨州市,开发区一中,臭氧1小时,55,29,31,19,15,164,,112,112,7,19,9,11,0.4,0.5
2025-07-04T1700,3516A,118.0917,37.694,滨州市,金海六路,,46,46,32,29,14,147,,138,138,6,12,8,9,0.3,0.2
2025-07-04T1700,4028A,117.9956,37.3753,滨州市,滨州市西街道办事处,臭氧1小时,88,19,28,12,13,190,,161,161,2,12,2,7,0.2,0.4
2025-07-04T1700,2311A,115.8072,33.8399,亳州市,污水处理厂,,47,23,16,10,7,148,,125,125,8,5,4,4,0.5,0.4
2025-07-04T1700,2312A,115.7789,33.8518,亳州市,三国揽胜宫,,44,37,22,17,5,138,,120,120,5,8,5,3,0.5,0.4
2025-07-04T1700,3332A,115.7633,33.8034,亳州市,亳州学院,,47,6,5,3,4,148,,130,130,4,7,2,3,0.4,0.5
2025-07-04T1700,2693A,82.0485,44.8556,博尔塔拉蒙古自治州,市党校,,31,17,22,7,8,98,,84,84,6,10,3,3,0.2,0.2
2025-07-04T1700,2694A,82.0806,44.8969,博尔塔拉蒙古自治州,市环保局,,39,22,27,10,11,122,,104,104,2,8,1,1,0.1,0.2
2025-07-04T1700,1071A,116.8842,38.2991,沧州市,沧县城建局,臭氧1小时,57,32,22,30,13,165,,142,142,7,21,3,3,0.5,0.6
2025-07-04T1700,1072A,116.8584,38.3254,沧州市,电视转播站,,42,22,27,17,12,134,,112,112,8,19,3,3,0.3,0.3
2025-07-04T1700,1073A,116.8709,38.3228,沧州市,市环保局,,40,33,28,20,15,128,,115,115,8,18,3,3,0.4,0.4
2025-07-04T1700,3324A,116.8136,38.3004,沧州市,河北水利电力学院,臭氧1小时,88,39,17,23,8,190,,165,165,4,21,1,3,0.3,0.2
2025-07-04T1700,2622A,97.1806,31.1273,昌都市,昌都监测站,,32,8,20,3,10,102,,99,99,5,13,6,6,0.3,0.3
2025-07-04T1700,3719A,97.1714,31.1406,昌都市,昌都会议中心,,36,6,16,3,12,114,,103,103,4,9,6,6,0.2,0.3
2025-07-04T1700,2690A,88.1236,43.8886,昌吉回族自治州,天山天池,,44,7,7,3,4,139,,115,115,6,6,5,4,0.6,0.6
2025-07-04T1700,2692A,87.2717,44.0297,昌吉回族自治州,新区政务中心,,41,38,20,3,6,130,,119,119,8,9,4,3,0.2,0.4
2025-07-04T1700,3613A,87.3095,44.0142,昌吉回族自治州,亚心广场,,41,9,22,7,8,129,,110,110,2,12,7,6,0.2,0.3
2025-07-04T1700,1120A,125.2863,43.9027,长春市,客车厂,,39,14,16,8,8,122,,107,107,8,19,3,3,0.3,0.4
2025-07-04T1700,1121A,125.2841,43.8463,长春市,邮电学院,,39,10,11,3,6,122,,103,103,5,15,2,2,0.4,0.4
2025-07-04T1700,1122A,125.3716,43.8772,长春市,劳动公园,,,,,,,,,,,,,,,,
2025-07-04T1700,1123A,125.3297,43.8805,长春市,园林处,,36,14,16,3,4,115,,101,101,6,19,3,3,0.5,0.5
2025-07-04T1700,1124A,125.4605,43.79,长春市,净月潭,,23,8,13,3,4,73,,76,76,3,8,5,5,0.3,0.3
2025-07-04T1700,1125A,125.7194,43.515,长春市,甩湾子,,,,9,3,4,113,,94,94,5,21,1,1,0.8,0.7
2025-07-04T1700,1126A,125.3863,43.8447,长春市,经开区环卫处,,33,18,15,3,5,104,,92,92,4,17,4,4,0.3,0.3
2025-07-04T1700,1127A,125.245,43.7783,长春市,高新区管委会,,37,8,14,3,5,118,,102,102,5,21,3,3,0.3,0.3
2025-07-04T1700,1128A,125.1761,43.8325,长春市,岱山公园,,34,8,25,3,7,107,,95,95,10,35,3,2,0.4,0.3
2025-07-04T1700,4281A,125.3346,43.9164,长春市,北亚泰大街1068号,,37,16,18,7,9,118,,102,102,7,19,1,2,0.5,0.5
2025-07-04T1700,1335A,113.0833,28.2325,长沙市,经开区环保局,,41,31,33,20,12,129,,123,123,7,16,4,4,0.5,0.4
2025-07-04T1700,1336A,112.8872,28.2189,长沙市,高开区环保局,,40,33,27,26,13,125,,108,108,6,9,6,6,0.5,0.5
2025-07-04T1700,1337A,113.0792,28.2053,长沙市,马坡岭,,43,27,35,20,18,135,,136,136,2,15,4,5,0.4,0.5
2025-07-04T1700,1338A,112.9394,28.19,长沙市,湖南师范大学,,45,42,32,17,15,142,,132,132,6,13,4,2,0.4,0.4
2025-07-04T1700,1339A,113.0178,28.1322,长沙市,雨花区环保局,,41,32,28,15,12,130,,134,134,2,12,6,6,0.5,0.5
2025-07-04T1700,1340A,112.9792,28.2597,长沙市,伍家岭,,47,38,39,18,16,148,,125,125,6,17,4,2,0.6,0.5
2025-07-04T1700,1341A,113.0014,28.1944,长沙市,火车新站,,43,35,27,14,13,137,,128,128,3,10,7,8,0.6,0.5
2025-07-04T1700,1342A,112.9844,28.1178,长沙市,天心区环保局,,45,35,31,16,15,142,,145,145,5,14,2,2,0.5,0.5
2025-07-04T1700,1343A,112.8908,28.1308,长沙市,湖南中医药大学,,39,32,31,16,15,122,,113,113,1,19,4,4,0.6,0.6
2025-07-04T1700,1344A,112.9581,28.3611,长沙市,沙坪,,48,35,22,18,14,153,,121,121,8,13,5,4,0.5,0.5
2025-07-04T1700,1727A,113.1147,36.1547,长治市,清华站,,32,14,19,7,6,101,,98,98,4,11,7,6,0.5,0.6
2025-07-04T1700,1730A,113.0886,36.2125,长治市,审计局,,36,21,21,3,6,114,,103,103,6,16,9,8,0.6,0.7
2025-07-04T1700,1731A,113.0844,36.1856,长治市,长治八中,,37,16,21,9,14,118,,107,107,3,12,6,5,0.3,0.4
2025-07-04T1700,2845A,113.1569,36.1911,长治市,德盛苑,,33,12,17,3,7,103,,97,97,4,6,4,4,0.4,0.5
2025-07-04T1700,3568A,113.06,36.0464,长治市,向阳小学,,,48,48,10,10,102,,94,94,,9,8,6,0.6,0.8
2025-07-04T1700,3569A,112.8792,36.3144,长治市,屯留一中,,40,,23,25,21,128,,112,112,6,17,8,8,0.3,0.3
2025-07-04T1700,4189A,113.1131,36.19948,长治市,英华南巷50号,,34,18,20,7,7,106,,105,105,7,15,4,7,0.5,0.7
2025-07-04T1700,4190A,113.2367,36.3344,长治市,学府街1号,,33,15,32,6,14,104,,110,110,9,23,3,5,0.4,1.1
2025-07-04T1700,1854A,111.6975,28.9703,常德市,市二中,,25,14,15,6,10,80,,77,77,3,8,4,4,0.6,0.7
2025-07-04T1700,1857A,111.7158,29.1456,常德市,白鹤山,,,,,,,,,,,,,,,,
2025-07-04T1700,3138A,111.7153,29.0289,常德市,武陵区永安,,23,6,16,6,10,72,,70,70,1,7,3,3,0.2,0.3
2025-07-04T1700,3139A,111.6892,28.9881,常德市,鼎城区玉霞,,,10,18,8,10,71,,70,70,,11,2,3,0.3,0.6
2025-07-04T1700,3140A,111.6625,29.0531,常德市,武陵区长庚,,22,7,14,6,10,68,,62,62,2,6,2,3,0.3,0.3
2025-07-04T1700,1196A,119.9633,31.762,常州市,市监测站,臭氧1小时,126,70,42,35,24,251,,213,213,21,21,11,10,0.6,0.5
2025-07-04T1700,1200A,119.9468,31.7069,常州市,武进监测站,臭氧1小时,120,44,36,30,20,240,,198,198,7,12,6,5,0.7,0.6
2025-07-04T1700,1201A,119.9255,31.9087,常州市,安家,臭氧1小时,136,49,45,33,22,272,,225,225,17,19,8,9,0.8,0.7
2025-07-04T1700,3002A,119.9805,31.8174,常州市,行政中心,臭氧1小时,123,43,37,34,24,245,,205,205,13,15,7,6,0.5,0.5
2025-07-04T1700,3003A,120.0522,31.7748,常州市,经开区,臭氧1小时,127,70,57,31,21,253,,224,224,15,18,7,8,1.0,0.6
2025-07-04T1700,3010A,119.9025,31.7964,常州市,钟楼,臭氧1小时,117,57,40,35,22,233,,194,194,12,13,5,6,0.3,0.3
2025-07-04T1700,3429A,119.8598,31.7066,常州市,武进经发区,臭氧1小时,114,48,43,29,24,228,,187,187,7,11,6,6,0.8,0.8
2025-07-04T1700,3430A,119.5826,31.7245,常州市,金坛城区,臭氧1小时,109,41,40,22,24,218,,164,164,10,13,7,8,0.5,0.5
2025-07-04T1700,2220A,120.4318,41.5881,朝阳市,西梁,,46,46,26,17,13,122,,104,104,8,10,5,5,0.8,0.7
2025-07-04T1700,2221A,120.4521,41.5646,朝阳市,河畔小区,,42,32,21,19,11,133,,110,110,6,8,6,7,0.7,0.6
2025-07-04T1700,2222A,120.4176,41.5648,朝阳市,八里堡,,46,46,28,23,17,140,,117,117,8,10,3,3,0.8,0.7
2025-07-04T1700,2223A,120.3806,41.5969,朝阳市,农业园区,,42,39,21,23,16,132,,110,110,8,10,3,3,0.6,0.6
2025-07-04T1700,1705A,116.6367,23.6719,潮州市,西园路,,33,24,29,23,18,94,,90,90,5,10,5,5,0.3,0.3
2025-07-04T1700,3026A,116.6183,23.6608,潮州市,市政府,,37,37,32,14,14,88,,90,90,4,6,3,4,0.4,0.4
2025-07-04T1700,4036A,116.6461,23.6761,潮州市,金山,,31,31,30,12,14,95,,92,92,6,9,7,7,0.4,0.5
2025-07-04T1700,2472A,113.0073,25.9061,郴州市,马头岭,,32,32,21,11,7,93,,79,79,4,12,8,9,0.5,0.5
2025-07-04T1700,2473A,113.0116,25.8226,郴州市,市职中,,32,22,25,19,16,102,,82,82,5,14,4,5,0.4,0.5
2025-07-04T1700,2475A,113.0383,25.8071,郴州市,市审计局,,35,23,22,12,13,112,,91,91,3,8,4,14,0.3,0.4
2025-07-04T1700,2476A,113.0348,25.7759,郴州市,市环保局,,35,26,28,24,16,99,,86,86,6,15,4,11,0.3,0.3
2025-07-04T1700,4252A,113.0138,25.8011,郴州市,好美居路49号,,35,27,27,15,15,112,,92,92,6,14,4,6,0.4,0.5
2025-07-04T1700,1431A,103.9728,30.7236,成都市,金泉两河,,45,36,17,19,5,141,,97,97,8,16,3,8,0.4,0.4
2025-07-04T1700,1432A,104.176,30.6872,成都市,十里店,臭氧1小时,68,50,24,26,13,174,,117,117,9,14,4,4,0.7,0.6
2025-07-04T1700,1433A,104.079,30.5706,成都市,三瓦窑,臭氧1小时,65,40,22,28,14,172,,110,110,12,23,3,3,0.6,0.6
2025-07-04T1700,1434A,104.1114,30.63,成都市,沙河铺,,43,42,24,30,11,133,,86,86,12,16,5,5,0.5,0.6
2025-07-04T1700,1437A,104.0786,30.6531,成都市,君平街,细颗粒物(PM2.5),62,54,22,44,13,165,,111,111,12,16,4,4,0.8,0.8
2025-07-04T1700,1438A,103.613,31.0283,成都市,灵岩寺,,,,,,,,,,,,,,,,
2025-07-04T1700,2880A,104.0239,30.65639,成都市,大石西路,,44,35,14,28,14,138,,102,102,11,16,5,4,0.8,0.8
2025-07-04T1700,3136A,104.2725,30.5589,成都市,龙泉驿区区政府,,46,34,19,27,15,146,,105,105,9,15,3,4,0.8,0.8
2025-07-04T1700,3357A,104.0106,30.6931,成都市,金博路,细颗粒物(PM2.5),52,39,12,36,8,140,,94,94,9,16,4,4,0.6,0.6
2025-07-04T1700,3359A,104.0578,30.5225,成都市,华阳,,45,36,18,31,18,132,,97,97,11,19,3,4,0.8,0.7
2025-07-04T1700,3488A,104.3853,30.7453,成都市,青白江技师分院,,50,43,31,35,18,140,,95,95,9,21,4,5,0.8,0.8
2025-07-04T1700,3489A,104.0789,30.4072,成都市,科学城,臭氧1小时,53,25,25,21,18,162,,111,111,8,15,3,4,0.5,0.5
2025-07-04T1700,4011A,103.8506,30.6947,成都市,光华大道三段,,40,39,18,28,11,128,,93,93,11,15,5,4,0.6,0.7
2025-07-04T1700,4224A,104.2433,30.5353,成都市,鲸龙路1057号,,41,32,30,20,21,130,,98,98,9,20,6,6,0.7,0.7
2025-07-04T1700,1062A,117.9531,40.9081,承德市,铁路,,37,12,23,10,13,116,,106,106,8,14,2,6,0.4,0.6
2025-07-04T1700,1063A,117.9392,40.9763,承德市,中国银行,,39,22,23,3,14,122,,117,117,2,8,1,3,0.3,0.6
2025-07-04T1700,1064A,117.9503,40.928,承德市,开发区,,38,17,25,11,11,120,,114,114,6,11,7,9,0.4,0.6
2025-07-04T1700,1065A,117.8051,40.9655,承德市,文化中心,,37,24,24,10,10,116,,112,112,4,12,2,5,0.3,0.5
2025-07-04T1700,1066A,117.9268,41.0026,承德市,离宫,,33,25,19,12,9,103,,111,111,4,6,3,3,0.4,0.5
2025-07-04T1700,2314A,117.47,30.6618,池州市,池州学院,,37,30,28,20,18,117,,109,109,4,8,7,6,0.4,0.5
2025-07-04T1700,3237A,117.4918,30.6617,池州市,展览馆,,37,28,30,17,16,116,,110,110,4,8,4,4,0.5,0.7
2025-07-04T1700,3333A,117.5627,30.695,池州市,第八中学,,43,29,28,18,17,135,,116,116,8,8,4,5,0.3,0.5
2025-07-04T1700,3334A,117.5038,30.6243,池州市,第十二中学,,36,25,29,11,16,114,,105,105,2,11,3,4,0.6,0.9
2025-07-04T1700,1744A,118.9233,42.2816,赤峰市,松山一中,,37,25,18,11,8,117,,122,122,9,13,9,9,0.6,0.6
2025-07-04T1700,1745A,118.9576,42.2728,赤峰市,哈达街,,37,33,26,3,8,118,,125,125,14,15,10,10,0.5,0.6
2025-07-04T1700,1746A,118.8788,42.2554,赤峰市,天义路,,37,,13,13,11,118,,114,114,6,8,9,9,0.4,0.4
2025-07-04T1700,3058A,119.2658,42.0353,赤峰市,银河街,,40,16,28,11,20,128,,111,111,9,12,7,13,0.5,0.7
2025-07-04T1700,3286A,118.9359,42.3147,赤峰市,桥北物流园区,,,,18,22,16,,,123,123,,8,,22,0.5,0.7
2025-07-04T1700,2521A,107.3476,22.4136,崇左市,市环保局江州分局,,29,18,23,9,8,90,,69,69,2,12,6,6,0.4,0.4
2025-07-04T1700,4256A,107.3750,22.3736,崇左市,石景林东路7号,,30,21,22,15,10,95,,87,87,6,13,5,4,0.5,0.5
2025-07-04T1700,2298A,118.3093,32.3153,滁州市,老年大学,,41,27,35,16,23,131,,100,100,4,8,12,6,0.2,0.3
2025-07-04T1700,2299A,118.3244,32.2786,滁州市,人大宾馆,,47,,24,22,24,150,,122,122,6,8,5,5,0.2,0.3
2025-07-04T1700,3207A,118.3118,32.3038,滁州市,市政府原办公楼,,42,26,34,21,29,132,,108,108,7,11,6,6,0.4,0.4
2025-07-04T1700,3331A,118.3267,32.2634,滁州市,图书馆,,44,19,26,19,22,138,,110,110,4,8,8,8,0.3,0.3
2025-07-04T1700,2605A,101.5482,25.0441,楚雄彝族自治州,州环境监测站,,11,6,6,6,3,34,,36,36,9,5,8,7,0.4,0.4
2025-07-04T1700,2606A,101.538,25.0492,楚雄彝族自治州,市经济开发区,,11,6,11,3,4,35,,37,37,7,5,7,6,0.5,0.5
2025-07-04T1700,2548A,107.5277,31.2827,达州市,达州职业技术学院,,28,14,20,3,3,88,,76,76,4,14,7,7,0.4,0.4
2025-07-04T1700,2549A,107.5086,31.2186,达州市,市环境监测站,,25,15,23,3,2,78,,64,64,15,24,6,6,0.3,0.4
2025-07-04T1700,2550A,107.4988,31.2132,达州市,凤凰小区,,27,12,18,3,4,86,,76,76,8,19,6,6,0.1,0.2
2025-07-04T1700,2551A,107.5082,31.1986,达州市,达县机关宾馆,,27,7,19,3,5,85,,77,77,14,25,7,7,0.2,0.3
2025-07-04T1700,2552A,107.4644,31.2124,达州市,市政中心,,26,16,24,3,2,81,,70,70,4,21,2,3,0.2,0.4
2025-07-04T1700,2614A,100.1542,25.7054,大理白族自治州,大理市环境监测站,,19,,6,13,15,36,,32,32,6,6,5,5,0.6,0.5
2025-07-04T1700,2615A,100.2171,25.5811,大理白族自治州,大理古城,,19,19,12,9,7,60,,54,54,9,6,4,4,0.7,0.7
2025-07-04T1700,1109A,121.612,38.9741,大连市,甘井子,,48,37,34,31,19,151,,151,151,20,19,7,6,0.5,0.4
2025-07-04T1700,1110A,121.565,38.9511,大连市,周水子,,,45,29,,23,166,,146,146,18,19,13,7,0.5,0.4
2025-07-04T1700,1111A,121.5637,38.8845,大连市,星海三站,颗粒物(PM10),59,68,41,38,22,159,,147,147,9,7,7,5,0.5,0.4
2025-07-04T1700,1112A,121.6302,38.9117,大连市,青泥洼桥,,,77,31,52,25,168,,166,166,,14,5,5,0.6,0.9
2025-07-04T1700,1113A,121.6251,38.8638,大连市,傅家庄,细颗粒物(PM2.5),60,,25,43,22,139,,125,125,16,11,11,9,0.3,0.2
2025-07-04T1700,1114A,121.5213,38.8661,大连市,七贤岭,臭氧1小时,65,,23,39,22,172,,150,150,12,10,8,7,0.3,0.4
2025-07-04T1700,1115A,121.2529,38.8061,大连市,旅顺,细颗粒物(PM2.5),52,41,27,36,22,142,,122,122,9,9,3,4,0.4,0.4
2025-07-04T1700,1116A,121.7485,39.1311,大连市,金州,臭氧1小时,77,51,20,41,16,181,,163,163,16,11,10,8,0.4,0.3
2025-07-04T1700,1117A,121.7811,39.0496,大连市,开发区,,46,38,26,32,24,132,,132,132,23,23,21,19,0.4,0.4
2025-07-04T1700,1118A,121.9762,39.0631,大连市,双D港,,36,36,20,23,14,77,,74,74,4,4,11,10,0.7,0.6
2025-07-04T1700,1789A,124.81117,46.03138,大庆市,大同区,,30,20,30,3,17,94,,87,87,9,8,7,6,0.6,0.6
2025-07-04T1700,1790A,125.129,46.533,大庆市,龙凤区,,32,,22,14,17,100,,100,100,7,10,5,5,0.4,0.5
2025-07-04T1700,1791A,124.902,46.408,大庆市,红岗区,,35,17,23,7,14,110,,112,112,6,9,9,9,0.5,0.7
2025-07-04T1700,1792A,125.153,46.586,大庆市,萨尔图区,,44,44,38,3,15,92,,90,90,12,12,8,8,0.3,0.4
2025-07-04T1700,1793A,124.9042,46.6215,大庆市,让胡路区,,32,,22,14,19,102,,104,104,6,12,6,5,0.1,0.2
2025-07-04T1700,3481A,125.141,46.634,大庆市,萨区政府监测点,,36,,9,12,13,114,,114,114,6,7,6,6,0.3,0.4
2025-07-04T1700,1721A,113.3819,40.1097,大同市,果树场,,,,,,,,,,,,,,,,
2025-07-04T1700,1723A,113.2994,40.0758,大同市,云冈宾馆,,50,16,37,16,23,160,,158,158,9,19,6,8,0.3,0.7
2025-07-04T1700,1724A,113.3444,40.0917,大同市,大同大学,臭氧1小时,70,19,42,3,21,176,,166,166,6,26,17,18,0.2,0.6
2025-07-04T1700,1725A,113.2661,40.1269,大同市,安家小村,臭氧1小时,62,29,41,3,13,169,,168,168,12,19,8,8,0.4,0.9
2025-07-04T1700,1726A,113.2711,40.0844,大同市,教育学院,臭氧1小时,55,18,43,10,21,164,,161,161,9,23,9,10,0.3,0.8
2025-07-04T1700,3282A,113.3397,40.0597,大同市,大同市卫生学校,,50,,42,8,20,160,,151,151,5,25,8,9,0.6,1.1
2025-07-04T1700,3565A,113.1367,40.1122,大同市,云冈站,,47,27,40,12,19,148,,156,156,12,16,4,7,0.4,0.6
2025-07-04T1700,3566A,113.1186,40.2556,大同市,图书馆,臭氧1小时,54,48,35,3,19,163,,162,162,8,11,8,9,0.6,0.7
2025-07-04T1700,3567A,113.5931,40.0461,大同市,区一中,,,44,37,7,17,175,,170,170,8,18,,14,0.4,0.5
2025-07-04T1700,4199A,113.2798,40.0997,大同市,魏都大道141号,臭氧1小时,55,35,51,10,21,164,,171,170,9,23,8,9,0.5,1.1
2025-07-04T1700,2269A,124.1069,50.4097,大兴安岭地区,科技局,,25,24,27,10,11,80,,64,64,3,6,4,4,0.3,0.4
2025-07-04T1700,3663A,124.1164,50.4278,大兴安岭地区,红旗社区,,27,14,11,8,8,84,,65,65,2,7,6,6,0.2,0.3
2025-07-04T1700,1600A,124.3303,40.0625,丹东市,江湾东路,,23,19,11,16,10,60,,76,66,9,8,4,5,0.6,0.6
2025-07-04T1700,1601A,124.4256,40.1503,丹东市,临江后街,,21,21,12,9,7,64,,72,67,6,6,6,6,0.7,0.7
2025-07-04T1700,1602A,124.3933,40.1461,丹东市,元宝山,,22,22,12,15,8,59,,74,63,11,8,4,4,0.6,0.6
2025-07-04T1700,1603A,124.3633,40.1092,丹东市,民主桥,,23,23,15,12,11,57,,69,62,6,5,5,6,0.6,0.5
2025-07-04T1700,3541A,109.5726,19.5167,儋州市,第一中学子站,,,12,12,6,7,34,,41,40,7,5,6,6,,0.6
2025-07-04T1700,3542A,109.5567,19.5187,儋州市,东坡学校子站,,11,,9,3,5,34,,41,41,6,4,6,7,0.5,0.5
2025-07-04T1700,2616A,98.5842,24.428,德宏傣族景颇族自治州,德宏州监测站,,14,14,19,3,8,38,,41,41,6,9,7,8,0.4,0.5
2025-07-04T1700,3677A,98.5881,24.4368,德宏傣族景颇族自治州,芒市人民政府综合楼,,,21,25,3,8,38,,42,42,5,8,6,7,,0.6
2025-07-04T1700,1901A,104.4239,31.1208,德阳市,东山公园,,42,,15,29,13,121,,86,86,5,11,5,6,0.8,0.8
2025-07-04T1700,1902A,104.3826,31.1317,德阳市,西小区,,40,37,21,28,14,107,,90,90,14,16,6,6,0.7,0.7
2025-07-04T1700,1904A,104.3553,31.1091,德阳市,耐火材料厂,,39,27,17,19,13,122,,87,87,5,13,1,1,0.5,0.5
2025-07-04T1700,3639A,104.4019,31.1244,德阳市,市教育局,,39,29,19,27,14,115,,86,86,5,10,4,4,0.7,0.7
2025-07-04T1700,1622A,116.3032,37.4674,德州市,儿童乐园,臭氧1小时,98,56,36,27,17,198,,174,174,8,14,8,9,0.7,0.6
2025-07-04T1700,1624A,116.2991,37.4451,德州市,监理站,臭氧1小时,99,44,28,24,15,199,,172,172,6,10,9,9,0.4,0.4
2025-07-04T1700,3066A,116.2721,37.4379,德州市,九衢泉纯净水厂,臭氧1小时,79,51,33,31,20,183,,159,159,10,17,6,6,0.8,0.8
2025-07-04T1700,3371A,116.3728,37.4403,德州市,开发区人民医院,,,39,32,22,16,186,,167,167,,17,6,8,0.4,0.5
2025-07-04T1700,3511A,116.5652,37.3319,德州市,陵城艺术中心,,48,39,36,19,15,153,,135,135,6,12,5,5,0.2,0.2
2025-07-04T1700,4292A,116.3525,37.4209,德州市,新河东路,臭氧1小时,90,46,33,27,18,192,,173,173,8,15,8,9,0.7,0.7
2025-07-04T1700,2621A,99.7056,27.8317,迪庆藏族自治州,迪庆州站,,22,22,16,9,11,41,,43,43,8,6,7,7,0.5,0.5
2025-07-04T1700,3180A,99.7136,27.8094,迪庆藏族自治州,质量技术监督局,,49,49,22,3,8,45,,44,44,8,8,7,7,0.4,0.4
2025-07-04T1700,4257A,104.6092,35.5962,定西市,将台街,,39,28,33,9,15,122,,116,116,6,6,5,4,0.1,0.1
2025-07-04T1700,4309A,104.6159,35.5701,定西市,正龙路62号,,40,17,22,12,12,128,,122,122,2,3,3,3,0.2,0.2
2025-07-04T1700,1389A,113.7547,23.0494,东莞市,莞城梨川,臭氧1小时,83,36,31,30,20,186,,162,162,8,27,5,7,0.5,0.5
2025-07-04T1700,1390A,113.7944,23.0128,东莞市,东城石井,臭氧1小时,52,47,35,34,20,161,,152,152,46,31,3,3,0.6,0.6
2025-07-04T1700,1391A,113.7383,22.9658,东莞市,南城西平,臭氧1小时,106,,30,43,21,212,,161,161,13,28,4,4,0.6,0.5
2025-07-04T1700,3319A,113.7338,23.0381,东莞市,万江金泰,臭氧1小时,67,48,35,44,21,173,,153,153,10,29,3,4,0.7,0.8
2025-07-04T1700,3626A,113.7533,23.0202,东莞市,南城元岭,臭氧1小时,87,48,32,36,18,189,,151,151,14,30,4,5,0.5,0.5
2025-07-04T1700,3627A,113.7875,23.0457,东莞市,东城主山,臭氧1小时,85,54,41,26,20,188,,155,155,12,26,4,4,0.6,0.6
2025-07-04T1700,1666A,118.6614,37.4309,东营市,市环保局,臭氧1小时,73,24,23,14,9,178,,152,152,13,16,8,7,0.3,0.3
2025-07-04T1700,3036A,118.6904,37.4338,东营市,开发区管委会,臭氧1小时,64,33,28,14,9,171,,155,155,14,18,6,5,0.4,0.4
2025-07-04T1700,3365A,118.5719,37.565,东营市,垦利区民丰路,臭氧1小时,68,29,25,12,7,174,,165,165,6,11,8,8,0.5,0.5
2025-07-04T1700,3498A,118.5055,37.8612,东营市,河口城区,臭氧1小时,105,46,28,29,11,209,,180,180,18,16,8,5,0.9,1
2025-07-04T1700,3646A,118.4978,37.4623,东营市,胜利站,,,38,27,19,8,170,,148,148,,13,5,5,,1.1
2025-07-04T1700,3734A,118.35,37.26,东营市,理想之城,,,27,21,17,11,190,,164,164,,20,11,8,0.2,0.3
2025-07-04T1700,1591A,110.0023,39.8129,鄂尔多斯市,综合楼,,25,9,37,7,15,79,,83,83,16,22,5,7,0.6,0.6
2025-07-04T1700,1592A,109.9486,39.8261,鄂尔多斯市,巴音孟克林场办事处,,25,14,42,3,16,80,,87,83,15,20,3,5,0.4,0.6
2025-07-04T1700,1593A,109.7736,39.5986,鄂尔多斯市,康泽苑,,27,9,45,3,11,85,,81,81,8,20,7,7,0.3,0.4
2025-07-04T1700,1594A,109.8119,39.5989,鄂尔多斯市,华泰汽车城,,25,14,46,3,16,77,,65,65,11,25,5,4,0.5,0.6
2025-07-04T1700,1595A,109.9734,39.7884,鄂尔多斯市,奥林花园,,27,9,43,9,19,84,,72,72,14,27,7,6,0.7,0.8
2025-07-04T1700,2436A,114.8938,30.3994,鄂州市,市政府,,49,35,33,20,13,156,,104,104,8,13,7,6,0.7,0.8
2025-07-04T1700,2437A,114.8989,30.3714,鄂州市,赵家坝,臭氧1小时,74,31,30,13,11,179,,137,137,3,10,13,12,0.7,0.6
2025-07-04T1700,3654A,114.8094,30.4089,鄂州市,精准医疗中心,,42,20,21,6,6,133,,115,115,6,9,4,5,0.7,0.6
2025-07-04T1700,2454A,109.4978,30.2981,恩施土家族苗族自治州,湖北民院,,23,18,21,11,8,73,,70,70,1,8,5,4,0.2,0.3
2025-07-04T1700,2455A,109.4707,30.2798,恩施土家族苗族自治州,州电力总公司,,21,9,17,3,8,66,,61,61,2,9,8,8,0.3,0.3
2025-07-04T1700,3549A,109.5061,30.3772,恩施土家族苗族自治州,龙凤新区,,30,7,13,3,8,95,,93,93,3,7,1,2,0.3,0.4
2025-07-04T1700,2499A,108.3411,21.6158,防城港市,沙万,,41,41,31,21,16,61,,67,67,20,11,4,2,0.8,0.6
2025-07-04T1700,2500A,108.3514,21.7731,防城港市,防城档案局,,26,24,33,16,11,82,,70,70,11,14,5,3,0.9,0.7
2025-07-04T1700,2501A,108.3506,21.6414,防城港市,大海花园,,46,46,30,11,11,69,,79,79,13,10,10,5,0.8,0.9
2025-07-04T1700,1371A,113.1294,23.0067,佛山市,湾梁,臭氧1小时,107,53,34,25,17,214,,144,144,25,22,8,8,0.6,0.5
2025-07-04T1700,1372A,113.1083,23.0478,佛山市,华材职中,臭氧1小时,120,51,34,26,18,240,,166,166,12,17,8,7,0.5,0.5
2025-07-04T1700,1373A,113.144,23.0453,佛山市,南海气象局,臭氧1小时,77,49,29,20,16,181,,142,142,12,15,2,3,0.5,0.4
2025-07-04T1700,1374A,113.2881,22.8094,佛山市,顺德苏岗,臭氧1小时,105,35,30,24,14,210,,150,150,12,17,7,7,0.7,0.7
2025-07-04T1700,1376A,112.8383,22.8678,佛山市,高明孔堂,,49,23,25,20,16,156,,118,118,6,8,6,6,0.5,0.6
2025-07-04T1700,1377A,112.8836,23.1588,佛山市,三水监测站,,,41,43,36,29,173,,135,135,11,26,,6,0.5,0.5
2025-07-04T1700,1378A,112.867,23.185,佛山市,三水云东海,臭氧1小时,103,69,49,33,21,205,,160,160,20,27,3,6,0.5,0.6
2025-07-04T1700,3625A,113.2544,22.7642,佛山市,容桂街道办,臭氧1小时,104,39,23,27,13,207,,148,148,17,19,6,6,0.4,0.4
2025-07-04T1700,1280A,119.3903,26.0543,福州市,鼓山,,,,,,,,,,,,,,,,
2025-07-04T1700,1282A,119.2681,26.0504,福州市,师大,,21,21,25,3,7,43,,55,55,3,5,4,4,0.2,0.2
2025-07-04T1700,1283A,119.2984,26.1028,福州市,五四北路,,23,23,23,3,6,48,,51,51,7,8,4,4,0.2,0.2
2025-07-04T1700,1284A,119.2648,26.0768,福州市,杨桥西路,,27,27,26,3,7,50,,56,56,6,7,4,4,0.1,0.3
2025-07-04T1700,1285A,119.317,26.0746,福州市,紫阳,,23,23,26,3,7,45,,49,48,5,6,4,5,0.2,0.3
2025-07-04T1700,3048A,119.5799,26.0936,福州市,九龙,,19,19,20,7,7,55,,51,51,1,4,4,5,0.2,0.2
2025-07-04T1700,3526A,119.5189,25.9664,福州市,吴航,,15,14,20,7,10,48,,50,50,2,3,5,5,0.4,0.4
2025-07-04T1700,1755A,123.7977,41.8491,抚顺市,望花区,,32,29,24,15,11,102,,88,88,13,22,8,7,0.6,0.6
2025-07-04T1700,1756A,123.9161,41.8822,抚顺市,顺城区,,32,24,15,14,7,102,,84,84,14,19,5,4,0.9,0.7
2025-07-04T1700,1757A,124.0436,41.8611,抚顺市,东洲区,,33,24,9,18,3,104,,82,82,15,7,5,4,0.9,0.5
2025-07-04T1700,1758A,123.9247,41.8642,抚顺市,新抚区,,26,20,14,11,5,82,,73,73,11,6,5,4,0.6,0.6
2025-07-04T1700,1759A,124.0972,41.8961,抚顺市,大伙房水库,,29,18,8,14,3,92,,83,83,12,6,6,6,0.8,0.4
2025-07-04T1700,1760A,123.7086,41.8391,抚顺市,沈抚新城,,49,,20,34,11,73,,64,64,12,14,3,3,0.7,0.7
2025-07-04T1700,2376A,116.2127,28.0814,抚州市,桐源党溪,,28,24,24,11,15,89,,92,92,3,3,3,3,0.4,0.5
2025-07-04T1700,2377A,116.3544,27.9831,抚州市,市站,,32,24,25,12,13,102,,99,99,2,6,2,3,0.3,0.7
2025-07-04T1700,2378A,116.3565,27.963,抚州市,血防站,,31,20,25,10,15,97,,93,93,9,13,3,3,0.4,0.4
2025-07-04T1700,2379A,116.3564,28.0007,抚州市,采茶剧团,,33,21,25,3,17,104,,99,99,2,4,5,6,0.4,0.4
2025-07-04T1700,2380A,116.385,27.9647,抚州市,医学分院,,34,18,28,10,12,106,,102,102,2,4,4,4,0.3,0.5
2025-07-04T1700,2207A,121.6094,41.998,阜新市,工业园区,,33,27,28,8,13,105,,89,89,5,11,1,4,0.5,0.5
2025-07-04T1700,2208A,121.6697,42.0279,阜新市,长青街,,29,24,23,12,15,91,,75,75,5,9,4,6,0.5,0.5
2025-07-04T1700,2209A,121.6673,42.0705,阜新市,农业园区,,33,33,30,7,13,98,,85,85,8,10,2,3,0.7,0.7
2025-07-04T1700,2210A,121.6717,42.0224,阜新市,东苑,,31,26,25,14,13,97,,82,82,11,13,4,6,0.5,0.5
2025-07-04T1700,2211A,121.6506,42.0498,阜新市,玉龙新城,,27,25,28,10,12,84,,75,75,5,10,2,3,0.7,0.7
2025-07-04T1700,2301A,115.8277,32.8929,阜阳市,市监测站,,29,18,26,8,12,92,,106,106,8,11,4,4,0.4,0.4
2025-07-04T1700,2303A,115.8554,32.8605,阜阳市,开发区,,31,16,19,6,13,97,,105,105,4,10,6,6,0.1,0.1
2025-07-04T1700,2875A,115.784,32.8892,阜阳市,阜阳职业技术学院,,32,22,17,8,10,102,,114,114,3,5,4,4,0.2,0.2
2025-07-04T1700,3468A,115.7901,32.8613,阜阳市,市规划展馆,,32,32,26,13,13,92,,102,102,2,6,2,2,0.4,0.4
2025-07-04T1700,3469A,115.836,32.9183,阜阳市,枣园社区,,39,,22,27,16,94,,105,105,9,12,3,3,0.3,0.4
2025-07-04T1700,2669A,102.9099,34.9841,甘南藏族自治州,州政府,,37,,19,11,18,118,,106,106,3,6,5,6,0.3,0.3
2025-07-04T1700,3380A,102.8914,34.9617,甘南藏族自治州,甘肃民族师范学院,,38,6,28,3,15,121,,108,108,11,21,8,8,0.3,0.4
2025-07-04T1700,2570A,101.9603,30.0475,甘孜藏族自治州,水桥子,,19,9,9,3,5,58,,50,50,7,16,5,5,0.2,0.3
2025-07-04T1700,3065A,101.9533,29.9972,甘孜藏族自治州,州环保局,,21,17,17,7,4,67,,66,66,8,14,2,2,0.3,0.5
2025-07-04T1700,3414A,115.8347,28.932,赣江新区,桑海产业园,,40,24,28,18,18,128,,128,128,5,17,9,9,0.4,0.5
2025-07-04T1700,2362A,114.9017,25.9149,赣州市,通天岩,,28,28,28,7,7,88,,77,77,3,4,1,1,0.2,0.3
2025-07-04T1700,2363A,114.9367,25.8664,赣州市,地委,,26,17,25,17,18,82,,90,90,5,8,1,2,0.8,0.9
2025-07-04T1700,2364A,114.9461,25.8481,赣州市,气象台,,30,27,27,16,16,93,,93,93,6,8,8,9,0.5,0.4
2025-07-04T1700,2365A,114.9322,25.8333,赣州市,市图书馆,,35,30,25,23,18,109,,102,102,4,7,4,5,0.4,0.4
2025-07-04T1700,2366A,114.8905,25.8471,赣州市,华坚鞋城,,28,28,31,16,22,85,,86,86,8,10,4,5,0.3,0.4
2025-07-04T1700,3109A,115.0093,25.8613,赣州市,赣县区卫计委,,27,25,52,17,19,84,,66,66,8,16,4,3,0.3,0.3
2025-07-04T1700,2683A,106.2319,36.1417,固原市,马园,,35,,38,10,10,111,,112,112,4,13,6,7,0.5,0.5
2025-07-04T1700,2684A,106.2792,36.0022,固原市,监测站,,35,,22,10,11,109,,110,110,4,5,4,4,0.2,0.2
2025-07-04T1700,2685A,106.2375,36.0211,固原市,新区,,34,,20,3,10,108,,108,108,2,5,6,6,0.3,0.3
2025-07-04T1700,3522A,106.2177,35.9959,固原市,原州区十五小,,,,17,,10,106,,106,106,3,6,6,10,0.2,0.3
2025-07-04T1700,2543A,106.6308,30.5278,广安市,小平旧居,,,,,,,,,,,,,,,,
2025-07-04T1700,2544A,106.6303,30.4576,广安市,市委,,34,9,14,6,8,108,,91,91,9,13,6,5,0.3,0.4
2025-07-04T1700,2545A,106.6271,30.4663,广安市,友谊中学,,32,14,15,12,8,101,,86,86,13,16,3,3,0.3,0.4
2025-07-04T1700,2547A,106.6388,30.4551,广安市,广电花园,,,19,17,3,8,111,,92,92,,14,5,4,0.5,0.5
2025-07-04T1700,2902A,106.6351,30.4865,广安市,北辰小学,,38,13,18,9,10,119,,102,102,5,12,3,4,0.4,0.4
2025-07-04T1700,2523A,105.8945,32.4535,广元市,黑石坡,,25,25,28,3,12,79,,59,59,5,12,10,15,0.3,0.5
2025-07-04T1700,2524A,105.821,32.4444,广元市,老城,,29,19,17,6,8,92,,74,74,11,22,18,12,0.6,1
2025-07-04T1700,2526A,105.8628,32.4287,广元市,监测站,,28,19,18,7,10,88,,68,68,8,19,9,16,0.6,0.9
2025-07-04T1700,3617A,105.8047,32.4166,广元市,经开区,,45,45,28,12,15,84,,59,59,11,21,3,3,0.5,0.7
2025-07-04T1700,1345A,113.2347,23.1423,广州市,广雅中学,臭氧1小时,133,53,38,28,20,266,,180,180,16,23,3,3,0.6,0.5
2025-07-04T1700,1346A,113.2612,23.105,广州市,市五中,臭氧1小时,120,45,36,28,20,240,,160,160,14,24,3,3,0.6,0.6
2025-07-04T1700,1348A,113.3478,23.0916,广州市,广东商学院,臭氧1小时,64,40,33,27,18,171,,120,120,10,26,4,4,0.4,0.4
2025-07-04T1700,1349A,113.4332,23.1047,广州市,市八十六中,臭氧1小时,109,45,31,28,16,217,,154,154,21,34,3,3,0.4,0.4
2025-07-04T1700,1350A,113.3505,22.9483,广州市,番禺中学,臭氧1小时,106,37,30,23,16,212,,140,140,13,21,8,8,0.4,0.4
2025-07-04T1700,1351A,113.2146,23.3916,广州市,花都师范,臭氧1小时,113,70,53,35,25,225,,184,184,16,27,5,4,0.6,0.6
2025-07-04T1700,1352A,113.2597,23.1331,广州市,市监测站,臭氧1小时,119,48,41,24,21,238,,170,170,17,28,5,6,0.5,0.5
2025-07-04T1700,1353A,113.5618,23.312,广州市,九龙镇镇龙,臭氧1小时,95,36,39,24,21,196,,144,144,14,25,6,6,0.4,0.5
2025-07-04T1700,1354A,113.2765,23.1544,广州市,麓湖,臭氧1小时,85,42,35,28,21,188,,150,150,13,26,2,3,0.6,0.6
2025-07-04T1700,1355A,113.443,23.3035,广州市,帽峰山森林公园,,47,27,22,24,12,148,,135,135,7,17,7,8,0.5,0.4
2025-07-04T1700,2846A,113.3221,23.1322,广州市,体育西,臭氧1小时,120,59,40,38,25,239,,158,158,18,31,4,5,0.5,0.5
2025-07-04T1700,3298A,113.5717,23.5491,广州市,从化街口,臭氧1小时,101,35,36,24,19,201,,148,148,12,24,7,6,0.6,0.7
2025-07-04T1700,3299A,113.3472,23.3692,广州市,白云竹料,臭氧1小时,114,72,45,36,23,227,,186,186,20,26,3,3,0.4,0.4
2025-07-04T1700,3300A,113.2981,23.237,广州市,白云嘉禾,臭氧1小时,124,60,43,34,23,248,,200,200,20,32,4,4,0.7,0.7
2025-07-04T1700,3301A,113.4256,23.1716,广州市,黄埔科学城,臭氧1小时,101,44,32,29,18,201,,132,132,11,21,2,2,0.6,0.6
2025-07-04T1700,3302A,113.3942,23.0483,广州市,番禺大学城,臭氧1小时,125,35,30,25,15,249,,162,162,16,24,6,6,0.6,0.6
2025-07-04T1700,3303A,113.4922,22.8168,广州市,南沙黄阁,臭氧1小时,122,50,28,44,16,244,,160,160,15,14,6,6,0.3,0.4
2025-07-04T1700,3304A,113.5342,22.7896,广州市,南沙街,臭氧1小时,123,43,25,30,14,245,,173,173,14,17,4,4,0.5,0.5
2025-07-04T1700,3443A,113.2902,23.5544,广州市,花都梯面,颗粒物(PM10),51,52,36,32,22,132,,129,129,14,20,5,5,0.4,0.6
2025-07-04T1700,3445A,113.7858,23.7478,广州市,从化良口,,47,36,28,25,15,149,,130,130,6,6,7,6,0.6,0.6
2025-07-04T1700,3446A,113.8051,23.2614,广州市,增城荔城,臭氧1小时,58,36,41,25,26,166,,148,148,7,20,6,6,0.4,0.4
2025-07-04T1700,2505A,109.568,23.1478,贵港市,德智高中,,,,,,,,,,,,,,,,
2025-07-04T1700,2506A,109.6047,23.0666,贵港市,江南子站,,43,24,24,14,14,136,,104,104,4,11,5,5,0.5,0.5
2025-07-04T1700,2508A,109.5669,23.1065,贵港市,荷城子站,,42,22,20,12,9,133,,99,99,8,14,6,6,0.3,0.3
2025-07-04T1700,3405A,109.5886,23.1172,贵港市,新世纪学校,,43,31,24,16,14,137,,106,106,8,13,1,2,0.5,0.4
2025-07-04T1700,4260A,109.5933,23.0951,贵港市,中山路155-3号,,46,21,28,15,13,147,,112,112,8,14,3,4,0.3,0.4
2025-07-04T1700,1439A,106.6899,26.5998,贵阳市,马鞍山,,,7,12,,0,62,,63,63,5,9,4,3,0.4,0.5
2025-07-04T1700,1441A,106.6243,26.6266,贵阳市,鉴湖路,,16,14,17,3,3,50,,51,51,6,8,4,4,0.4,0.3
2025-07-04T1700,1442A,106.7487,26.6343,贵阳市,燕子冲,,20,12,17,9,13,64,,65,65,8,10,3,5,0.1,0.2
2025-07-04T1700,1443A,106.6555,26.4365,贵阳市,碧云窝,,19,17,19,3,3,59,,60,60,3,6,4,5,0.3,0.3
2025-07-04T1700,1445A,106.7109,26.6027,贵阳市,红边门,,18,9,15,3,3,55,,58,58,9,8,21,14,0.0,0
2025-07-04T1700,1446A,106.7164,26.5699,贵阳市,新华路,,16,9,11,9,8,51,,58,58,10,13,29,13,0.2,0.3
2025-07-04T1700,1447A,106.674,26.5424,贵阳市,太慈桥,,17,14,12,3,2,53,,57,57,12,13,6,5,0.3,0.3
2025-07-04T1700,1552A,106.805,26.3003,贵阳市,桐木岭,,19,19,22,7,11,58,,56,56,6,4,5,5,0.8,0.9
2025-07-04T1700,4230A,106.6882,26.5695,贵阳市,花果园大街66号,,15,6,4,3,7,45,,48,48,7,9,3,3,0.2,0.1
2025-07-04T1700,4231A,106.6873,26.5169,贵阳市,漓江路57号,,18,7,10,3,2,57,,61,61,6,10,5,6,0.3,0.2
2025-07-04T1700,1862A,110.4144,25.3167,桂林市,电子科大尧山校区,,,,,,,,,,,,,,,,
2025-07-04T1700,1864A,110.3089,25.2708,桂林市,龙隐路小学,,,,30,,39,,,44,,,11,,11,,0.5
2025-07-04T1700,1865A,110.2869,25.2178,桂林市,八中,,30,30,26,14,10,94,,92,92,4,11,6,10,0.2,0.3
2025-07-04T1700,3531A,110.296,25.1253,桂林市,旅游学院,,35,12,15,9,9,109,,96,96,3,9,3,3,0.4,0.3
2025-07-04T1700,4222A,110.1835,25.2444,桂林市,环湖路276号,,35,19,26,14,15,110,,88,88,1,17,5,8,0.3,0.3
2025-07-04T1700,4301A,110.2803,25.2773,桂林市,信义路13号,,35,35,28,9,11,97,,100,100,4,11,4,8,0.5,0.6
2025-07-04T1700,2674A,100.2561,34.4714,果洛藏族自治州,玛沁县大武镇,,39,14,16,13,12,123,,129,129,1,2,20,19,0.3,0.3
2025-07-04T1700,1129A,126.5422,45.755,哈尔滨市,岭北,,45,6,32,3,21,143,,140,140,9,16,4,4,1.0,1.1
2025-07-04T1700,1130A,126.561,45.8167,哈尔滨市,松北商大,颗粒物(PM10),57,63,43,9,17,123,,120,120,8,14,14,14,0.4,0.6
2025-07-04T1700,1131A,126.979,45.5419,哈尔滨市,阿城会宁,,44,7,33,3,24,140,,121,121,8,20,4,4,0.4,0.5
2025-07-04T1700,1132A,126.599,45.7222,哈尔滨市,南岗学府路,,44,28,32,3,16,138,,129,129,21,24,8,8,0.2,0.3
2025-07-04T1700,1133A,126.689,45.7733,哈尔滨市,太平宏伟公园,,43,36,41,12,16,137,,124,124,11,16,6,6,0.2,0.4
2025-07-04T1700,1134A,126.635,45.7667,哈尔滨市,道外承德广场,,44,37,51,9,16,138,,119,119,10,18,6,6,0.2,0.5
2025-07-04T1700,1135A,126.685,45.7319,哈尔滨市,香坊红旗大街,,42,12,36,3,23,133,,120,120,15,23,14,7,0.4,0.7
2025-07-04T1700,1136A,126.6411,45.7258,哈尔滨市,动力和平路,,46,36,50,10,10,147,,132,132,8,18,5,5,0.3,0.5
2025-07-04T1700,1137A,126.593,45.7478,哈尔滨市,道里建国路,,42,42,46,18,16,134,,119,119,12,20,11,5,0.7,0.9
2025-07-04T1700,1138A,126.615,45.61,哈尔滨市,平房东轻厂,,40,32,51,18,14,128,,126,126,8,22,8,7,0.3,0.4
2025-07-04T1700,1139A,126.595,45.9855,哈尔滨市,呼兰师专,,45,22,35,7,15,144,,135,135,9,15,8,9,0.4,0.4
2025-07-04T1700,1140A,126.6206,45.6842,哈尔滨市,省农科院,,40,36,49,3,24,125,,122,122,15,33,2,4,0.3,0.6
2025-07-04T1700,2688A,93.5128,42.8172,哈密市,地区监测站,,43,37,40,13,18,135,,123,123,5,8,5,5,0.1,0.1
2025-07-04T1700,2689A,93.4961,42.8328,哈密市,哈密师范学校,,39,23,33,8,11,122,,109,109,2,9,4,4,0.2,0.2
2025-07-04T1700,2671A,100.9048,36.9639,海北藏族自治州,海晏县西海镇,,40,15,18,9,11,127,,136,130,1,2,8,8,0.3,0.4
2025-07-04T1700,3867A,102.0738,36.5056,海东市,平安区公安北苑,,43,6,34,3,13,136,,124,124,2,5,9,12,0.5,0.7
2025-07-04T1700,1409A,110.576,19.9507,海口市,东寨港,,14,13,11,3,6,42,,41,41,2,3,5,7,0.3,0.3
2025-07-04T1700,1410A,110.3232,20.0574,海口市,海南大学,,16,8,11,3,5,50,,47,47,2,4,3,3,0.3,0.3
2025-07-04T1700,1411A,110.283,20.0053,海口市,秀英海南医院,,14,10,18,3,7,44,,42,42,6,15,5,5,0.3,0.3
2025-07-04T1700,1412A,110.338,19.9969,海口市,海南师范大学,,15,9,13,3,5,47,,46,46,4,8,4,4,0.4,0.4
2025-07-04T1700,1413A,110.33,20.0356,海口市,龙华路环保局宿舍,,15,10,13,6,6,46,,42,42,5,6,5,4,0.2,0.2
2025-07-04T1700,3539A,110.5111,19.9736,海口市,桂林洋子站,,14,7,12,3,5,43,,44,44,6,5,4,4,0.2,0.2
2025-07-04T1700,2673A,100.6188,36.2866,海南藏族自治州,共和县恰卜恰镇,,43,20,24,7,6,135,,139,136,1,2,13,14,0.4,0.4
2025-07-04T1700,2676A,97.3731,37.3753,海西蒙古族藏族自治州,德令哈市,,,29,26,11,16,147,,145,145,10,6,,16,0.6,0.7
2025-07-04T1700,1048A,114.5302,36.6116,邯郸市,东污水处理厂,,49,43,35,3,9,156,,154,154,6,17,2,4,0.3,0.7
2025-07-04T1700,1049A,114.4918,36.5713,邯郸市,矿院,臭氧1小时,70,19,22,7,10,176,,182,182,4,14,4,5,0.4,0.7
2025-07-04T1700,1050A,114.484,36.6133,邯郸市,丛台公园,臭氧1小时,55,54,29,11,11,164,,168,168,6,17,9,11,0.4,0.8
2025-07-04T1700,3458A,114.7895,36.5593,邯郸市,香泉濮院小区,臭氧1小时,54,42,33,3,5,163,,150,150,13,17,2,4,0.6,0.7
2025-07-04T1700,3579A,114.50634,36.77178,邯郸市,永年区实验高中,臭氧1小时,72,53,41,27,19,177,,166,166,7,22,2,2,0.3,0.8
2025-07-04T1700,3580A,114.20016,36.44293,邯郸市,峰峰矿区临水派出所,臭氧1小时,59,41,38,12,7,167,,173,173,4,13,6,8,0.1,0.7
2025-07-04T1700,2634A,106.9893,33.1842,汉中市,汉川机床厂子校,颗粒物(PM10),55,59,21,16,9,88,,70,70,5,15,4,4,0.5,0.5
2025-07-04T1700,2635A,107.0154,33.0706,汉中市,市监测站,,28,28,25,7,12,87,,74,74,10,17,6,7,0.5,0.8
2025-07-04T1700,2636A,107.0089,33.1138,汉中市,鑫源开发区,,31,31,22,3,7,83,,76,76,5,18,6,8,0.4,0.5
2025-07-04T1700,2637A,107.007,33.0323,汉中市,南郑大河坎水厂,,33,33,28,13,14,80,,68,68,10,14,3,4,0.4,0.6
2025-07-04T1700,1223A,120.2072,30.2111,杭州市,滨江,臭氧1小时,95,37,34,18,18,196,,164,164,18,20,6,6,0.4,0.4
2025-07-04T1700,1224A,120.0633,30.2747,杭州市,西溪,臭氧1小时,69,27,28,19,22,175,,174,174,4,9,4,4,0.4,0.4
2025-07-04T1700,1226A,120.3417,30.3150,杭州市,下沙,臭氧1小时,64,31,33,16,16,171,,160,160,11,17,6,6,0.3,0.3
2025-07-04T1700,1227A,120.1269,30.2456,杭州市,卧龙桥,臭氧1小时,90,31,30,29,19,192,,168,168,6,12,8,8,0.4,0.4
2025-07-04T1700,1228A,120.1903,30.2692,杭州市,浙江农大,臭氧1小时,101,31,35,18,22,202,,158,158,14,18,5,4,0.2,0.3
2025-07-04T1700,1230A,120.1197,30.3119,杭州市,和睦小学,臭氧1小时,103,36,34,22,19,206,,178,178,4,8,8,8,0.4,0.5
2025-07-04T1700,1231A,120.3019,30.4183,杭州市,临平镇,臭氧1小时,106,43,47,21,21,211,,190,190,12,18,6,6,0.3,0.4
2025-07-04T1700,1232A,120.2753,30.1839,杭州市,城厢镇,臭氧1小时,68,38,45,16,20,174,,158,158,10,12,8,8,0.3,0.5
2025-07-04T1700,1233A,120.0883,30.1808,杭州市,云栖,,,32,35,13,15,165,,160,160,,20,7,7,0.6,0.6
2025-07-04T1700,3557A,119.9464,30.0494,杭州市,镇二中,,49,24,27,14,19,155,,140,140,9,19,3,3,0.4,0.5
2025-07-04T1700,3558A,119.7183,30.2367,杭州市,市府大楼,臭氧1小时,80,37,33,22,24,184,,153,153,9,14,7,8,0.3,0.4
2025-07-04T1700,3656A,120.1556,30.2864,杭州市,消防大队,臭氧1小时,104,42,33,22,21,208,,166,166,10,12,6,6,0.6,0.6
2025-07-04T1700,1270A,117.1959,31.7848,合肥市,明珠广场,,,22,27,9,16,120,,136,136,8,14,,5,0.4,0.5
2025-07-04T1700,1271A,117.3072,31.8764,合肥市,三里街,,31,14,30,12,17,97,,132,127,9,11,6,6,0.4,0.5
2025-07-04T1700,1272A,117.2588,31.8707,合肥市,琥珀山庄,,,,28,19,22,124,,138,138,7,10,6,6,,0.5
2025-07-04T1700,1273A,117.1604,31.9052,合肥市,董铺水库,,39,31,29,12,14,122,,130,130,5,10,5,4,0.3,0.4
2025-07-04T1700,1274A,117.25,31.8571,合肥市,长江中路,,39,29,32,16,18,122,,135,135,7,11,6,6,0.3,0.4
2025-07-04T1700,1275A,117.266,31.9436,合肥市,庐阳区,,45,34,28,19,15,142,,134,134,6,7,16,9,0.3,0.4
2025-07-04T1700,1276A,117.3453,31.8616,合肥市,瑶海区,,32,22,35,15,17,101,,118,118,5,20,7,6,0.4,0.6
2025-07-04T1700,1277A,117.3027,31.7964,合肥市,包河区,,35,14,26,14,14,110,,120,120,7,13,4,5,0.6,0.6
2025-07-04T1700,1278A,117.2776,31.7385,合肥市,滨湖新区,,37,24,28,14,22,118,,119,119,3,11,7,5,0.4,0.5
2025-07-04T1700,1279A,117.1318,31.8403,合肥市,高新区,,39,24,28,13,16,122,,130,130,7,11,7,7,0.4,0.4
2025-07-04T1700,3464A,117.3803,31.9147,合肥市,高教基地,,32,19,29,14,18,102,,124,124,4,10,5,5,0.6,0.6
2025-07-04T1700,3614A,79.924,37.0877,和田地区,地区环保局,颗粒物(PM10),73,95,225,22,59,148,,130,130,11,15,3,3,0.6,0.6
2025-07-04T1700,3615A,79.9131,37.113,和田地区,市环保局,细颗粒物(PM2.5),124,,205,94,88,143,,122,122,2,15,1,2,0.3,0.4
2025-07-04T1700,2516A,108.2011,24.715,河池市,东仁乐园,,,,,,,,,,,,,,,,
2025-07-04T1700,2517A,108.0497,24.6947,河池市,市环保站,,28,28,22,9,11,62,,73,73,3,6,3,4,0.7,0.7
2025-07-04T1700,2518A,108.0983,24.6989,河池市,市疾控中心,,20,,23,9,12,62,,75,75,10,13,2,3,0.7,0.7
2025-07-04T1700,1696A,114.6778,23.7569,河源市,源西,细颗粒物(PM2.5),53,,28,37,34,117,,101,101,5,10,3,3,0.6,0.7
2025-07-04T1700,1697A,114.6944,23.7586,河源市,东埔,,40,29,27,20,15,128,,112,112,8,10,4,5,0.4,0.5
2025-07-04T1700,1698A,114.6892,23.7233,河源市,老城,,42,37,29,24,18,134,,115,115,5,8,4,6,0.5,0.6
2025-07-04T1700,1718A,115.4208,35.2464,菏泽市,气象局,臭氧1小时,64,23,31,12,12,171,,145,145,5,10,2,2,0.3,0.3
2025-07-04T1700,3374A,115.5564,35.0891,菏泽市,定陶老年大学,,50,27,26,3,8,158,,136,136,12,15,1,1,0.2,0.3
2025-07-04T1700,4184A,115.4797,35.24401,菏泽市,永昌路1号,臭氧1小时,65,25,26,12,13,172,,144,144,9,12,6,5,0.1,0.1
2025-07-04T1700,4193A,115.4715,35.2800,菏泽市,长城路999号,臭氧1小时,70,25,26,9,8,176,,144,144,9,11,5,5,0.2,0.2
2025-07-04T1700,2514A,111.5264,24.4172,贺州市,环保小区,,30,15,22,3,16,93,,84,84,3,9,10,11,0.8,0.8
2025-07-04T1700,2515A,111.5608,24.4078,贺州市,政协大楼,,31,17,22,9,11,98,,96,96,5,9,12,14,0.9,0.8
2025-07-04T1700,3534A,111.4744,24.4553,贺州市,西湾,,25,19,19,8,15,78,,71,71,3,9,6,5,0.5,0.6
2025-07-04T1700,2385A,114.17,35.9019,鹤壁市,市监测站,臭氧1小时,108,28,34,16,24,216,,148,148,8,13,6,5,0.7,0.7
2025-07-04T1700,2386A,114.2956,35.7511,鹤壁市,市交警支队,臭氧1小时,67,28,34,17,18,173,,157,157,6,21,6,5,0.5,0.6
2025-07-04T1700,2387A,114.2878,35.7306,鹤壁市,迎宾馆,臭氧1小时,57,32,37,29,20,165,,161,161,6,19,5,5,0.6,0.8
2025-07-04T1700,3474A,114.2617,35.6822,鹤壁市,大新区,臭氧1小时,68,50,40,17,18,174,,163,163,7,16,5,6,0.5,0.7
2025-07-04T1700,3596A,114.1572,35.9603,鹤壁市,南山宾馆,臭氧1小时,95,41,51,17,21,196,,158,158,5,10,3,3,0.5,0.5
2025-07-04T1700,2244A,130.2537,47.3416,鹤岗市,哈啤分公司,,35,,12,14,7,112,,106,106,8,7,12,11,0.7,0.6
2025-07-04T1700,2245A,130.2684,47.3086,鹤岗市,斯达机电,,32,28,24,18,15,100,,95,95,7,6,10,11,0.5,0.4
2025-07-04T1700,2246A,130.3114,47.3388,鹤岗市,东山纸板厂,,35,31,18,24,12,108,,107,107,12,9,10,11,1.0,1
2025-07-04T1700,2247A,130.1097,47.3382,鹤岗市,五号水库,,27,,7,7,5,86,,89,89,6,7,8,8,0.2,0.1
2025-07-04T1700,2263A,127.4833,50.2524,黑河市,交通局,,30,30,24,9,7,83,,76,76,13,13,7,7,0.4,0.4
2025-07-04T1700,2264A,127.5144,50.2341,黑河市,环保局,,30,29,24,14,9,95,,86,86,8,11,4,5,0.3,0.3
2025-07-04T1700,2265A,127.5291,50.2472,黑河市,大黑河岛,,,,2,3,6,85,,71,71,,,30,29,,
2025-07-04T1700,1074A,115.6838,37.7541,衡水市,电机北厂,臭氧1小时,53,29,30,18,12,162,,144,144,4,18,3,3,0.4,0.4
2025-07-04T1700,1075A,115.6303,37.7316,衡水市,市监测站,臭氧1小时,75,40,34,8,7,180,,165,165,4,19,6,6,0.5,0.4
2025-07-04T1700,3188A,115.6683,37.7217,衡水市,市城管局,臭氧1小时,74,21,21,21,11,179,,156,156,4,17,2,3,0.9,0.8
2025-07-04T1700,3459A,115.5989,37.5491,衡水市,地表水厂,臭氧1小时,79,41,38,12,4,183,,167,167,2,14,6,6,0.5,0.3
2025-07-04T1700,2456A,112.5003,26.9167,衡阳市,原169医院,,30,16,21,3,10,94,,92,92,4,9,5,4,0.4,0.4
2025-07-04T1700,2457A,112.6194,26.9258,衡阳市,衡阳化工总厂,,37,32,34,8,14,118,,113,113,8,20,5,8,0.5,0.6
2025-07-04T1700,2458A,112.6211,26.8956,衡阳市,珠晖区环保局,,,23,30,,12,125,,112,112,6,16,6,5,0.5,0.6
2025-07-04T1700,2459A,112.6197,26.8733,衡阳市,市委党校,,35,30,25,13,11,112,,98,98,5,14,8,9,0.5,0.5
2025-07-04T1700,2460A,112.6006,26.8919,衡阳市,市监测站,,35,28,33,11,17,109,,105,105,6,16,5,7,0.3,0.5
2025-07-04T1700,2461A,112.5664,26.9056,衡阳市,真空机电公司,,30,12,23,11,9,93,,94,94,3,8,5,6,0.4,0.4
2025-07-04T1700,3399A,112.6703,26.882,衡阳市,师范学院,,38,18,33,17,17,120,,110,110,4,13,6,6,0.5,0.5
2025-07-04T1700,2608A,103.3772,23.3993,红河哈尼族彝族自治州,污水处理厂,,17,13,16,6,10,52,,56,56,4,5,6,7,0.2,0.2
2025-07-04T1700,2609A,103.3861,23.35,红河哈尼族彝族自治州,监测站,,18,12,19,6,11,55,,52,52,2,3,5,5,0.0,0.1
2025-07-04T1700,3038A,103.3758,23.368,红河哈尼族彝族自治州,州图书馆,,19,,9,9,10,59,,58,58,2,3,1,1,0.2,0.2
2025-07-04T1700,1090A,111.6507,40.7517,呼和浩特市,呼市一监,颗粒物(PM10),64,78,44,3,32,86,,144,143,8,18,11,10,0.4,0.7
2025-07-04T1700,1091A,111.6572,40.8033,呼和浩特市,小召,,34,34,43,3,30,77,,144,141,13,22,7,7,0.4,0.7
2025-07-04T1700,1094A,111.7516,40.8369,呼和浩特市,如意水处理厂,,29,17,43,3,28,92,,165,165,8,23,3,5,0.4,0.6
2025-07-04T1700,1095A,111.7276,40.8062,呼和浩特市,二十九中,,47,47,49,7,35,103,,164,164,4,14,6,6,0.5,0.7
2025-07-04T1700,1096A,111.5512,40.7866,呼和浩特市,工大金川校区,,33,33,52,3,35,90,,150,147,7,23,5,6,0.3,0.6
2025-07-04T1700,1097A,111.717,40.7612,呼和浩特市,化肥厂生活区,,31,18,45,7,41,97,,165,164,12,24,7,8,0.3,0.6
2025-07-04T1700,3698A,111.5968,40.8178,呼和浩特市,红旗小学,,39,39,49,3,33,84,,162,158,7,24,4,5,0.2,0.5
2025-07-04T1700,3699A,111.6518,40.8389,呼和浩特市,海东办,,28,22,46,3,34,87,,158,154,8,25,6,7,0.3,0.6
2025-07-04T1700,2192A,119.7594,49.2261,呼伦贝尔市,区环保局,,27,17,24,17,15,84,,97,96,28,26,5,5,0.4,0.4
2025-07-04T1700,3061A,119.7512,49.1577,呼伦贝尔市,国华电力东,,36,10,25,7,11,114,,118,118,4,6,4,4,0.4,0.4
2025-07-04T1700,1250A,120.0751,30.8669,湖州市,城西水厂,臭氧1小时,108,40,48,24,28,216,,201,201,8,18,6,7,0.4,0.4
2025-07-04T1700,2873A,120.0830,30.8929,湖州市,仁皇山新区,臭氧1小时,106,40,45,23,25,211,,196,196,9,18,4,5,0.6,0.6
2025-07-04T1700,2907A,120.1844,30.8596,湖州市,吴兴区站,臭氧1小时,107,41,41,25,25,214,,202,202,10,15,6,6,0.4,0.4
2025-07-04T1700,3562A,120.4148,30.8538,湖州市,南浔区站,,,56,40,28,25,198,,180,180,,16,6,7,0.5,0.5
2025-07-04T1700,1607A,120.9049,40.7211,葫芦岛市,龙港区,,44,33,32,21,16,138,,110,110,3,5,1,1,0.7,0.6
2025-07-04T1700,1608A,120.8392,40.7514,葫芦岛市,化工街,,41,17,16,17,12,131,,115,115,8,12,7,6,0.7,0.5
2025-07-04T1700,1609A,120.8341,40.7073,葫芦岛市,新区,,43,,24,27,24,135,,110,110,2,6,2,2,0.9,0.7
2025-07-04T1700,1610A,120.8695,40.7677,葫芦岛市,东城区,,41,,22,25,28,129,,113,113,6,10,1,2,1.0,0.8
2025-07-04T1700,2482A,109.5981,27.5721,怀化市,林科所,,19,15,15,3,3,60,,64,64,10,12,4,4,0.1,0.4
2025-07-04T1700,2483A,109.9453,27.5444,怀化市,河西地税局,,21,10,16,6,6,65,,62,62,3,9,3,3,0.1,0.2
2025-07-04T1700,2484A,109.9781,27.5342,怀化市,市四医院,,20,20,31,11,11,64,,64,64,4,14,3,3,1.0,0.7
2025-07-04T1700,2485A,109.9972,27.5578,怀化市,监测楼,,20,19,22,10,10,61,,61,61,1,9,3,3,0.1,0.1
2025-07-04T1700,2486A,110.0394,27.583,怀化市,市委党校,,,10,18,3,9,80,,76,76,,12,5,5,0.2,0.3
2025-07-04T1700,1210A,119.036,33.5981,淮安市,钵池山,,50,29,34,22,24,157,,129,129,7,12,9,11,0.5,0.5
2025-07-04T1700,1211A,119.007,33.575,淮安市,北京南路,,48,31,38,24,28,152,,124,124,9,13,8,9,0.4,0.6
2025-07-04T1700,1212A,118.989,33.6067,淮安市,市监测站,,47,34,42,19,27,148,,129,129,7,13,7,9,0.7,1.1
2025-07-04T1700,1213A,119.135,33.5039,淮安市,楚州区监测站,臭氧1小时,54,42,45,23,24,163,,138,138,2,7,7,7,0.5,0.4
2025-07-04T1700,3426A,118.8755,33.2894,淮安市,新华书店,,36,19,34,15,25,114,,137,135,5,12,8,8,0.1,0.3
2025-07-04T1700,4206A,119.0288,33.6319,淮安市,承德北路606号,,44,29,39,29,25,140,,120,120,11,13,7,8,0.2,0.4
2025-07-04T1700,2282A,116.8004,33.975,淮北市,监测站,,,39,29,23,15,157,,145,145,3,6,7,7,,0.4
2025-07-04T1700,2283A,116.8091,33.9007,淮北市,烈山区政府,,50,23,34,6,9,160,,141,141,3,19,8,7,0.6,0.7
2025-07-04T1700,3330A,116.8873,33.9836,淮北市,杜集区检察院,,49,25,26,12,14,154,,138,138,5,17,6,7,0.7,0.7
2025-07-04T1700,4017A,116.7923,33.9535,淮北市,市博物馆,臭氧1小时,53,31,28,13,15,162,,145,145,2,10,7,8,0.6,0.7
2025-07-04T1700,2277A,116.8305,32.7727,淮南市,潘集区政府,,34,14,32,9,13,106,,95,95,3,10,2,2,0.4,0.5
2025-07-04T1700,2279A,116.8569,32.5951,淮南市,谢家集区政府,,34,6,24,6,10,108,,101,101,2,9,6,5,0.1,0.1
2025-07-04T1700,2280A,116.8281,32.633,淮南市,八公山区政府,,35,17,25,7,12,110,,104,104,5,9,4,3,0.2,0.3
2025-07-04T1700,2281A,116.6325,32.6201,淮南市,焦岗湖风景区管理处,,,,,,,,,,,,,,,,
2025-07-04T1700,2894A,117.0566,32.6531,淮南市,经济技术开发区消防队,,38,16,25,3,7,119,,101,101,7,13,9,8,0.3,0.4
2025-07-04T1700,3329A,117.0108,32.5893,淮南市,山南新区,,40,12,23,3,10,128,,104,104,1,7,8,8,0.4,0.5
2025-07-04T1700,4209A,117.0031,32.6445,淮南市,国庆中路369号,,39,16,18,16,17,122,,104,104,5,7,8,8,0.2,0.2
2025-07-04T1700,2446A,114.9028,30.4742,黄冈市,职工中心,,39,24,32,18,27,124,,118,118,7,9,6,9,0.2,0.4
2025-07-04T1700,2929A,114.8858,30.4519,黄冈市,红卫路,,48,28,31,15,17,152,,130,130,2,10,8,7,0.3,0.3
2025-07-04T1700,3398A,114.9136,30.4445,黄冈市,市林业局,,49,35,36,22,22,155,,117,117,2,18,9,12,0.8,0.8
2025-07-04T1700,2672A,102.0199,35.5102,黄南藏族自治州,同仁县隆务镇,,27,20,25,3,9,86,,77,77,12,9,8,8,0.2,0.2
2025-07-04T1700,2295A,118.2903,29.6963,黄山市,延安路89号,,32,21,22,7,6,102,,114,114,2,7,3,3,0.4,0.4
2025-07-04T1700,2297A,118.1371,30.2756,黄山市,黄山区政府5号楼,,24,24,23,3,11,73,,75,75,1,4,4,4,0.4,0.5
2025-07-04T1700,4210A,118.3354,29.7203,黄山市,滨江东路7-2号,,31,24,28,3,8,97,,99,99,3,6,3,3,0.3,0.4
2025-07-04T1700,2423A,115.0601,30.2313,黄石市,沈家营,,43,39,49,14,16,135,,145,145,5,18,7,7,0.5,0.5
2025-07-04T1700,2426A,114.8988,30.2019,黄石市,铁山,,40,23,32,14,13,126,,129,129,5,10,6,9,0.5,0.5
2025-07-04T1700,2427A,115.0307,30.2092,黄石市,团城山,,45,27,35,13,8,141,,118,118,2,10,7,7,0.5,0.6
2025-07-04T1700,3149A,115.0235,30.1578,黄石市,笔架山北路,,35,19,32,3,9,111,,110,110,9,13,4,5,0.5,0.5
2025-07-04T1700,4185A,115.0780,30.21118,黄石市,磁湖东路29号,,42,25,53,19,19,133,,145,145,8,24,7,8,0.5,0.7
2025-07-04T1700,1392A,114.4183,23.0528,惠州市,河南岸金山湖子站,,,39,30,36,19,126,,109,109,,11,,8,,0.1
2025-07-04T1700,1393A,114.4053,23.0822,惠州市,下埔横江三路子站,,43,37,30,16,16,136,,116,116,5,9,4,5,0.3,0.3
2025-07-04T1700,1394A,114.4103,23.1142,惠州市,江北云山西路子站,,40,26,28,20,17,126,,122,122,3,7,7,8,0.4,0.5
2025-07-04T1700,1395A,114.4645,22.7833,惠州市,惠阳区承修路船湖子站,,39,30,28,16,16,122,,126,126,9,12,7,7,0.5,0.5
2025-07-04T1700,1396A,114.5317,22.7422,惠州市,大亚湾管委会子站,,34,28,24,19,14,107,,100,100,11,15,10,10,0.5,0.5
2025-07-04T1700,3314A,114.4338,22.8134,惠州市,惠阳秋长,,49,36,26,23,16,156,,140,140,10,11,6,7,0.6,0.5
2025-07-04T1700,3452A,114.6517,22.775,惠州市,大亚湾霞涌,,40,32,23,18,16,128,,105,105,9,10,6,6,0.5,0.6
2025-07-04T1700,2240A,130.9762,45.3001,鸡西市,环保局,,32,21,23,8,12,100,,108,108,25,11,11,5,0.3,0.4
2025-07-04T1700,2243A,130.9429,45.3039,鸡西市,第一中学,,37,18,21,3,10,117,,111,111,8,12,8,8,0.4,0.4
2025-07-04T1700,3707A,131.0207,45.3073,鸡西市,欧美日汽修厂,,40,17,25,14,14,125,,112,112,8,15,7,8,0.6,0.6
2025-07-04T1700,3709A,130.9967,45.3106,鸡西市,市政设施管理处,,38,25,28,6,14,121,,109,109,11,16,4,5,0.3,0.5
2025-07-04T1700,2367A,114.9754,27.0803,吉安市,红声器材厂,,35,35,43,16,25,107,,106,106,2,10,8,10,0.4,0.5
2025-07-04T1700,2368A,114.9658,27.0999,吉安市,市森林工业局,,36,27,38,14,21,114,,113,113,3,10,7,9,0.4,0.5
2025-07-04T1700,2369A,114.99,27.1312,吉安市,市环境监测站,,37,27,36,14,23,117,,118,118,1,8,9,16,0.3,0.5
2025-07-04T1700,2370A,115.0093,27.0968,吉安市,青原区法院,,33,29,43,18,27,104,,104,104,4,13,7,11,0.4,0.5
2025-07-04T1700,1772A,126.54,43.8622,吉林市,哈达湾,,36,,17,6,8,115,,105,105,3,12,6,6,0.3,0.4
2025-07-04T1700,1773A,126.5844,43.8358,吉林市,东局子,,34,13,19,6,7,107,,99,99,8,12,5,5,0.6,0.6
2025-07-04T1700,1774A,126.5052,43.8245,吉林市,电力学院,,36,,18,7,9,114,,104,104,6,20,4,5,0.3,0.5
2025-07-04T1700,1775A,126.6133,43.8972,吉林市,江北,,40,27,24,6,3,127,,109,109,10,10,6,7,0.2,0.5
2025-07-04T1700,1776A,126.555,43.8306,吉林市,江南公园,,35,,15,12,10,111,,101,101,6,11,3,3,0.5,0.5
2025-07-04T1700,1778A,126.7061,43.7133,吉林市,丰满,,,,,,,,,,,,,,,,
2025-07-04T1700,2868A,126.4739,43.953,吉林市,九站,,39,17,19,6,11,122,,120,120,5,18,3,5,0.3,0.4
2025-07-04T1700,1299A,116.9862,36.6114,济南市,科干所,,49,,22,22,12,154,,136,136,8,11,6,6,0.5,0.5
2025-07-04T1700,1300A,116.9376,36.665,济南市,农科所,,47,27,26,15,10,149,,132,132,10,16,8,8,0.4,0.3
2025-07-04T1700,1301A,117.1265,36.6734,济南市,开发区,,47,17,21,15,11,148,,121,121,15,12,8,6,0.5,0.5
2025-07-04T1700,1303A,117.0624,36.6868,济南市,省种子仓库,臭氧1小时,54,24,30,12,9,163,,141,141,7,14,7,6,0.5,0.5
2025-07-04T1700,1304A,116.9489,36.6447,济南市,机床二厂,,46,27,33,10,8,147,,133,133,8,16,4,5,0.3,0.4
2025-07-04T1700,1305A,117.0495,36.663,济南市,市监测站,,44,24,23,12,10,138,,117,117,10,15,8,8,0.4,0.4
2025-07-04T1700,1306A,116.7675,36.5484,济南市,长清党校,,,,26,,18,,,99,,,17,,6,,0.4
2025-07-04T1700,1616A,117.6795,36.229,济南市,技术学院,,47,12,17,9,12,149,,135,135,6,12,7,8,0.5,0.6
2025-07-04T1700,1961A,117.532,36.6868,济南市,东山小学,,45,24,25,7,11,141,,125,125,7,12,6,7,0.2,0.2
2025-07-04T1700,3059A,117.7161,36.2049,济南市,泰兴公司,,45,22,27,9,12,143,,124,124,6,17,10,10,0.4,0.4
2025-07-04T1700,3064A,117.6867,36.2171,济南市,莱芜战役纪念馆,,45,24,28,11,14,141,,126,126,5,11,11,9,0.2,0.6
2025-07-04T1700,3494A,117.1673,36.9782,济南市,济阳区政府,,47,39,36,10,12,149,,136,136,6,11,4,5,0.2,0.2
2025-07-04T1700,3495A,117.1171,36.63,济南市,锦屏中学,,50,20,18,12,8,159,,131,131,7,10,6,6,0.4,0.5
2025-07-04T1700,3682A,116.9814,36.6819,济南市,济南四建,,47,22,26,15,14,150,,135,135,7,14,5,6,0.4,0.4
2025-07-04T1700,1653A,116.6251,35.4302,济宁市,火炬城,,43,25,23,7,8,136,,120,120,6,8,7,7,0.5,0.5
2025-07-04T1700,1655A,116.5491,35.4042,济宁市,电化厂,,42,27,26,9,12,133,,120,120,5,12,4,5,0.5,0.6
2025-07-04T1700,3500A,116.5814,35.3707,济宁市,北湖一中,,47,21,24,6,9,148,,130,130,3,7,10,10,0.2,0.2
2025-07-04T1700,3501A,116.8249,35.5593,济宁市,服务中心,,42,21,26,6,5,133,,120,120,6,12,3,3,0.2,0.2
2025-07-04T1700,3678A,116.5907,35.4054,济宁市,市第七中学,,44,29,28,3,3,140,,123,123,2,3,6,5,0.4,0.3
2025-07-04T1700,2255A,130.2751,46.8028,佳木斯市,佳纺,,39,22,21,14,12,124,,113,113,5,13,5,6,0.4,0.3
2025-07-04T1700,2256A,130.3995,46.8307,佳木斯市,发电厂,,38,29,20,15,12,120,,115,115,10,13,5,5,0.5,0.4
2025-07-04T1700,2257A,130.3258,46.7975,佳木斯市,环保局,,39,26,24,15,14,123,,114,114,9,15,6,7,0.5,0.5
2025-07-04T1700,2258A,130.3648,46.8032,佳木斯市,十一中,,40,25,22,15,11,127,,123,123,11,12,8,8,0.6,0.6
2025-07-04T1700,2259A,130.3794,46.7588,佳木斯市,四丰,,,,,,,,,,,6,12,1,8,0.6,0.6
2025-07-04T1700,1252A,120.7436,30.778,嘉兴市,清河小学,臭氧1小时,80,42,40,26,18,184,,164,164,11,14,8,8,0.6,0.7
2025-07-04T1700,1253A,120.726,30.7478,嘉兴市,嘉兴学院,臭氧1小时,88,42,36,22,19,190,,180,180,9,12,6,6,0.5,0.5
2025-07-04T1700,2872A,120.7846,30.7525,嘉兴市,南湖区残联,臭氧1小时,90,30,35,26,19,192,,178,178,12,15,9,9,0.4,0.5
2025-07-04T1700,3407A,120.6916,30.7739,嘉兴市,秀洲住建,臭氧1小时,94,38,34,26,20,195,,188,188,8,15,6,7,0.7,0.8
2025-07-04T1700,1945A,98.2908,39.7711,嘉峪关市,气象局,,39,34,22,9,10,122,,126,126,16,11,8,8,0.9,0.6
2025-07-04T1700,2884A,98.2672,39.7978,嘉峪关市,酒钢宾馆,,38,34,29,17,9,120,,130,130,21,10,27,19,1.8,0.8
2025-07-04T1700,3248A,98.2643,39.7724,嘉峪关市,雄关区,,39,30,27,11,13,123,,122,122,13,16,11,11,0.7,0.5
2025-07-04T1700,1383A,113.1064,22.6058,江门市,北街,,,58,32,,22,218,,169,169,17,12,3,3,0.4,0.3
2025-07-04T1700,1384A,113.0731,22.5835,江门市,西区,臭氧1小时,105,34,32,23,16,210,,155,155,14,18,4,5,0.5,0.5
2025-07-04T1700,1385A,113.0219,22.5311,江门市,圭峰西,臭氧1小时,70,71,35,36,20,176,,120,120,11,15,4,3,0.4,0.4
2025-07-04T1700,1386A,113.0828,22.5947,江门市,东湖,臭氧1小时,87,47,29,26,17,189,,145,145,14,14,7,7,0.4,0.4
2025-07-04T1700,3311A,113.1075,22.5647,江门市,江海富民,臭氧1小时,108,,37,22,17,215,,156,156,,14,,9,0.7,0.7
2025-07-04T1700,3449A,113.05,22.4667,江门市,新会银湖,臭氧1小时,53,30,41,19,22,162,,128,128,5,14,3,2,0.5,0.5
2025-07-04T1700,1830A,113.1992,35.2590,焦作市,影视城,,,,9,,13,,,,,,7,,13,,0.4
2025-07-04T1700,3169A,113.2725,35.2067,焦作市,太极体育中心,臭氧1小时,64,23,38,18,28,171,,139,139,5,14,4,4,0.3,0.4
2025-07-04T1700,3335A,113.3137,35.2641,焦作市,马村街道办,臭氧1小时,63,,36,33,28,170,,102,102,10,17,11,9,0.6,0.7
2025-07-04T1700,3336A,113.2465,35.2373,焦作市,焦作技师学院,臭氧1小时,73,31,42,12,13,178,,128,128,12,17,1,1,0.6,0.9
2025-07-04T1700,3477A,113.1656,35.2539,焦作市,中站许衡医院,臭氧1小时,69,28,28,14,18,175,,136,136,7,16,6,6,0.5,0.6
2025-07-04T1700,3981A,113.2449,35.1803,焦作市,原李万街道办,,50,35,27,7,8,160,,132,132,7,14,11,11,0.3,0.2
2025-07-04T1700,4264A,113.2340,35.2190,焦作市,新安路1731号,臭氧1小时,84,25,31,13,16,187,,142,,6,16,4,2,0.4,0.5
2025-07-04T1700,1708A,116.3701,23.5345,揭阳市,新兴,,37,37,33,21,18,96,,107,107,9,10,7,7,0.6,0.5
2025-07-04T1700,1709A,116.3264,23.5443,揭阳市,西马,,47,47,37,20,20,104,,112,112,4,7,2,3,0.5,0.6
2025-07-04T1700,1710A,116.3611,23.5626,揭阳市,东兴,,29,29,39,17,16,91,,99,98,9,12,4,5,0.4,0.5
2025-07-04T1700,1711A,116.4151,23.5294,揭阳市,渔湖,,47,47,35,16,15,84,,95,95,13,12,10,9,0.5,0.4
2025-07-04T1700,3320A,116.403,23.5699,揭阳市,曲溪,,46,46,34,22,18,103,,116,116,7,8,6,5,0.6,0.5
2025-07-04T1700,1944A,102.1692,38.5167,金昌市,天庆家园,,45,31,22,13,8,144,,126,122,8,5,18,10,0.7,0.6
2025-07-04T1700,4022A,102.1647,38.5371,金昌市,金川区人防中心,,45,26,26,10,8,141,,119,116,7,6,22,16,0.6,0.5
2025-07-04T1700,4239A,102.1930,38.5319,金昌市,长春路96号,,45,23,24,7,9,142,,122,122,5,5,8,12,0.6,0.7
2025-07-04T1700,1262A,119.647,29.077,金华市,十五中,,45,25,32,14,14,143,,127,127,8,11,4,5,0.4,0.5
2025-07-04T1700,1263A,119.686,29.1029,金华市,监测站,,40,24,32,12,16,128,,119,119,6,10,2,2,0.5,0.5
2025-07-04T1700,3659A,119.656,29.1131,金华市,气象局,,46,32,30,10,16,145,,133,133,6,9,4,4,0.4,0.4
2025-07-04T1700,1767A,121.1115,41.0879,锦州市,南山,细颗粒物(PM2.5),80,64,27,59,24,123,,97,97,4,8,4,6,1.1,0.7
2025-07-04T1700,1768A,121.0604,40.8428,锦州市,开发区,,41,19,26,15,18,130,,107,107,14,18,5,7,1.0,0.7
2025-07-04T1700,1769A,121.1836,41.1119,锦州市,百股街道,细颗粒物(PM2.5),62,60,24,44,13,124,,113,113,5,7,2,3,1.3,0.7
2025-07-04T1700,1770A,121.1178,41.1222,锦州市,天安街道,颗粒物(PM10),54,57,29,31,21,128,,103,103,9,12,3,5,1.3,0.7
2025-07-04T1700,1771A,121.1303,41.1386,锦州市,北湖公园,细颗粒物(PM2.5),68,57,30,49,22,124,,64,,6,9,2,4,1.3,0.7
2025-07-04T1700,2160A,112.85,35.5051,晋城市,自来水公司,,,,,,,,,,,,,,,,
2025-07-04T1700,2161A,112.8318,35.4936,晋城市,白云商贸,,34,25,37,3,5,108,,106,106,8,18,4,4,0.5,1.3
2025-07-04T1700,2162A,112.8508,35.4887,晋城市,市环保局,颗粒物(PM10),58,65,52,9,14,108,,103,103,5,16,6,7,0.1,0.9
2025-07-04T1700,2163A,112.8676,35.4897,晋城市,技术学院,,30,18,33,7,12,95,,96,96,4,17,6,6,0.4,1.1
2025-07-04T1700,2165A,112.8453,35.546,晋城市,白马寺,,33,,17,13,16,105,,109,109,2,7,5,5,0.4,1.2
2025-07-04T1700,3620A,112.8271,35.4828,晋城市,泽州一中,,37,17,40,9,12,116,,111,111,3,13,4,4,0.5,1.4
2025-07-04T1700,2173A,112.7249,37.7067,晋中市,南都小区,,45,20,51,7,22,144,,136,136,2,19,5,4,0.6,0.9
2025-07-04T1700,2174A,112.6991,37.6982,晋中市,榆次区政府,,45,36,45,11,12,144,,137,137,5,20,11,8,0.8,1
2025-07-04T1700,2865A,112.7195,37.6828,晋中市,榆次三中,,50,36,35,12,12,160,,148,148,2,16,9,8,0.4,0.8
2025-07-04T1700,4200A,112.7478,37.6954,晋中市,迎宾街26号,,50,24,34,12,12,159,,147,147,3,17,8,8,0.6,0.7
2025-07-04T1700,2439A,112.2014,31.0481,荆门市,竹园小学,,29,20,21,9,11,92,,86,86,4,8,2,10,0.6,0.6
2025-07-04T1700,2440A,112.1969,30.9891,荆门市,掇刀,,30,20,21,10,11,95,,87,87,4,7,9,9,0.5,0.5
2025-07-04T1700,2441A,112.2213,31.0386,荆门市,石化一小,,31,23,20,11,10,98,,92,92,4,9,13,11,0.3,0.4
2025-07-04T1700,3012A,112.1849,31.0362,荆门市,西山林语,,29,21,21,11,11,91,,86,86,1,4,10,11,0.4,0.4
2025-07-04T1700,3547A,112.1632,31.0138,荆门市,龙泉中学南校,,28,14,18,11,12,89,,85,85,2,6,4,6,0.3,0.4
2025-07-04T1700,1844A,112.2494,30.3197,荆州市,市图书馆,,27,11,16,3,11,84,,82,82,7,9,2,3,0.3,0.5
2025-07-04T1700,1845A,112.2008,30.3544,荆州市,市委党校,,23,12,16,6,12,73,,75,75,9,14,2,3,0.2,0.3
2025-07-04T1700,3194A,112.2747,30.3122,荆州市,管委会,,25,,16,6,14,77,,78,78,4,9,3,3,0.5,0.6
2025-07-04T1700,4268A,112.1722,30.3366,荆州市,学苑路85号,,23,10,16,8,12,73,,74,74,13,12,3,4,0.3,0.4
2025-07-04T1700,2342A,117.3102,29.3867,景德镇市,王港中学,,,,,,,,,,,,,,,,
2025-07-04T1700,2343A,117.2117,29.2933,景德镇市,老干部活动中心,,38,36,40,19,24,120,,128,128,5,13,5,5,0.6,0.7
2025-07-04T1700,2344A,117.1894,29.2789,景德镇市,兽医站,颗粒物(PM10),53,55,49,28,30,129,,138,138,4,12,4,7,0.6,0.7
2025-07-04T1700,2345A,117.1547,29.2617,景德镇市,台达陶瓷,,46,46,45,30,32,130,,124,124,4,18,14,28,0.4,0.6
2025-07-04T1700,2346A,117.2461,29.2956,景德镇市,陶研所,,35,33,41,24,28,108,,125,125,5,9,5,5,0.5,0.6
2025-07-04T1700,1803A,115.9872,29.6815,九江市,十里,,39,,22,27,23,105,,120,120,4,15,4,5,0.5,0.6
2025-07-04T1700,1804A,115.9584,29.7046,九江市,茅山头,,35,,27,21,19,109,,118,118,22,22,6,6,0.4,0.5
2025-07-04T1700,1805A,115.9877,29.7295,九江市,西园,,38,19,24,13,16,120,,129,129,9,30,4,6,0.6,0.7
2025-07-04T1700,1808A,115.9114,29.6038,九江市,综合工业园,,39,18,26,15,15,122,,121,121,12,14,8,3,0.8,0.8
2025-07-04T1700,1809A,116.0721,29.7535,九江市,石化总厂,,35,27,33,22,25,111,,105,105,4,15,9,8,0.5,0.4
2025-07-04T1700,1810A,115.9773,29.5698,九江市,庐山气象台,,33,24,17,8,6,103,,94,94,5,4,6,7,0.8,0.9
2025-07-04T1700,3190A,116.0254,29.6994,九江市,外国语学校,,35,27,22,22,19,112,,114,114,4,12,3,6,0.7,0.7
2025-07-04T1700,4253A,116.0102,29.6594,九江市,莲花大道8号,,30,,13,17,14,94,,102,102,2,4,4,4,0.6,0.6
2025-07-04T1700,4240A,98.4958,39.7339,酒泉市,玉门东路5号,,44,31,30,17,21,138,,123,123,2,12,11,14,0.1,0.3
2025-07-04T1700,4241A,98.5099,39.7506,酒泉市,北大街108号,,44,36,29,19,20,140,,128,128,2,11,13,31,0.2,0.3
2025-07-04T1700,2698A,76.0072,39.4467,喀什地区,巡警大队,颗粒物(PM10),70,90,145,8,36,155,,112,112,9,40,4,4,0.3,0.5
2025-07-04T1700,2699A,75.9755,39.4694,喀什地区,吾办,颗粒物(PM10),81,111,131,28,46,144,,115,115,17,33,8,8,0.4,0.6
2025-07-04T1700,4027A,75.9483,39.4689,喀什地区,老干局,颗粒物(PM10),69,88,113,25,34,152,,120,120,7,22,6,6,0.4,0.5
2025-07-04T1700,1824A,114.3389,34.7781,开封市,肿瘤医院,臭氧1小时,79,18,28,3,10,183,,155,155,7,17,1,2,0.1,0.3
2025-07-04T1700,1826A,114.2885,34.7965,开封市,世纪星幼儿园,臭氧1小时,62,26,31,10,15,169,,149,149,8,16,3,4,0.3,0.3
2025-07-04T1700,3147A,114.3438,34.8106,开封市,龙亭公园,臭氧1小时,70,,25,23,11,176,,47,,6,14,1,1,0.5,0.4
2025-07-04T1700,3210A,114.3644,34.7964,开封市,汴京公园,,,76,45,12,15,179,,176,152,,16,2,2,0.1,0.4
2025-07-04T1700,3473A,114.2485,34.8306,开封市,技师学院,臭氧1小时,72,38,29,6,13,177,,159,159,5,12,4,4,0.4,0.5
2025-07-04T1700,3592A,114.4644,34.7556,开封市,祥符区生态环境局,臭氧1小时,64,30,28,18,13,171,,145,145,13,19,4,3,0.5,0.6
2025-07-04T1700,1951A,84.895,45.6094,克拉玛依市,长征新村,,37,22,18,3,5,117,,105,105,2,3,4,4,0.2,0.2
2025-07-04T1700,1952A,84.8988,45.5893,克拉玛依市,南林小区,,38,22,17,9,7,119,,106,106,2,4,3,3,0.1,0.1
2025-07-04T1700,1954A,84.905,44.3396,克拉玛依市,独山子区,,42,17,18,7,7,132,,116,116,8,10,9,9,0.3,0.3
2025-07-04T1700,1955A,85.6979,46.098,克拉玛依市,乌尔禾区商贸楼,,38,9,18,6,6,119,,104,104,2,6,5,5,0.3,0.3
2025-07-04T1700,3612A,85.1045,45.6899,克拉玛依市,白碱滩区新站,,,8,16,8,10,119,,111,111,1,2,8,8,,0.5
2025-07-04T1700,2697A,76.1454,39.7142,克孜勒苏柯尔克孜自治州,市人民政府,臭氧1小时,85,83,87,35,32,188,,149,149,6,13,4,4,0.3,0.1
2025-07-04T1700,3665A,76.1658,39.7157,克孜勒苏柯尔克孜自治州,克州文化中心,臭氧1小时,79,74,91,26,36,183,,140,140,5,15,4,5,0.3,0.3
2025-07-04T1700,1450A,102.8204,24.8886,昆明市,呈贡新区,,23,9,12,3,16,71,,64,64,7,15,6,7,0.2,0.3
2025-07-04T1700,1451A,102.6251,24.9608,昆明市,西山森林公园,,,,,,,,,,,,,,,,
2025-07-04T1700,1452A,102.7252,25.0902,昆明市,龙泉镇,,23,14,17,6,7,73,,57,57,6,14,1,2,0.3,0.4
2025-07-04T1700,1453A,102.7266,25.0375,昆明市,东风东路,,23,12,18,10,12,71,,60,60,9,15,3,4,0.2,0.2
2025-07-04T1700,1454A,102.6742,25.0669,昆明市,金鼎山,,32,32,17,6,6,62,,58,58,5,8,1,2,0.3,0.3
2025-07-04T1700,1455A,102.6644,25.0401,昆明市,碧鸡广场,,18,7,17,3,7,55,,53,53,9,12,5,6,0.4,0.4
2025-07-04T1700,3179A,102.7494,25.0119,昆明市,官渡区博物馆,,23,12,17,6,9,72,,62,62,5,16,7,6,0.1,0.2
2025-07-04T1700,3375A,102.8017,24.8336,昆明市,青年创业园,,20,7,15,3,10,63,,60,60,6,7,2,3,0.3,0.3
2025-07-04T1700,3550A,102.7997,24.9786,昆明市,昆明学院,,24,6,17,3,11,74,,67,67,5,16,5,5,0.3,0.4
2025-07-04T1700,3551A,102.5967,24.6736,昆明市,晋宁区生态环境分局,,19,11,15,3,8,60,,57,57,6,9,2,2,0.1,0.2
2025-07-04T1700,3552A,102.6678,24.9856,昆明市,云天化总部,,20,6,5,3,7,64,,55,55,6,8,4,4,0.2,0.3
2025-07-04T1700,1456A,91.1319,29.6514,拉萨市,八廓街,,38,17,10,3,6,120,,111,111,9,10,8,10,0.2,0.2
2025-07-04T1700,1457A,91.1221,29.6747,拉萨市,市环保局,,40,12,15,7,7,126,,106,106,9,13,6,8,0.3,0.4
2025-07-04T1700,1458A,91.0874,29.6475,拉萨市,区监测站,,36,23,10,7,7,115,,106,106,15,18,7,9,0.3,0.3
2025-07-04T1700,1459A,91.1774,29.6541,拉萨市,西藏大学,,36,17,9,3,6,113,,104,104,10,10,4,8,0.2,0.2
2025-07-04T1700,1460A,90.9798,29.6588,拉萨市,区辐射站,,32,24,17,7,8,100,,92,92,17,21,7,8,0.2,0.3
2025-07-04T1700,1461A,91.0834,29.6292,拉萨市,拉萨火车站,,38,20,9,6,6,120,,108,108,10,11,5,6,0.2,0.2
2025-07-04T1700,2520A,109.2203,23.7256,来宾市,来宾技工学校,,39,27,30,18,14,123,,109,109,6,15,9,18,0.6,0.7
2025-07-04T1700,3535A,109.1781,23.7297,来宾市,兴宾区政府,,38,17,19,12,13,119,,110,110,4,14,5,6,0.6,0.6
2025-07-04T1700,4002A,109.2416,23.7461,来宾市,中南小学,,44,32,36,17,30,139,,122,122,6,15,6,13,0.5,0.6
2025-07-04T1700,1477A,104.1373,35.9454,兰州市,榆中兰大校区,,,,,,,,,,,,,,,,
2025-07-04T1700,1479A,103.831,36.0464,兰州市,铁路设计院,,29,24,43,14,24,90,,101,98,34,21,7,7,0.4,0.4
2025-07-04T1700,3241A,103.7439,36.0842,兰州市,百合公园,,29,10,39,10,31,91,,100,91,20,9,3,3,0.2,0.2
2025-07-04T1700,3242A,103.9611,35.998,兰州市,和平,,35,18,34,11,20,110,,116,116,10,7,10,10,0.4,0.4
2025-07-04T1700,4236A,103.6293,36.0938,兰州市,庄浪东路808号,,31,25,45,19,27,99,,98,98,17,18,10,11,0.3,0.3
2025-07-04T1700,4237A,103.7251,36.1043,兰州市,安宁西路88号,,35,19,44,11,24,111,,110,110,13,8,6,6,0.1,0.2
2025-07-04T1700,4238A,103.8470,36.0676,兰州市,北滨河东路1号,,30,14,41,13,25,96,,104,102,31,18,7,7,0.5,0.4
2025-07-04T1700,3245A,103.6633,36.533,兰州新区,新区管委会,,41,11,44,9,24,129,,122,122,6,7,17,12,0.3,0.3
2025-07-04T1700,3246A,103.6975,36.4789,兰州新区,舟曲中学,,38,13,50,6,16,119,,111,111,6,9,9,9,0.4,0.4
2025-07-04T1700,1067A,116.6708,39.5111,廊坊市,药材公司,,43,35,44,22,22,135,,106,106,5,13,3,3,0.4,0.4
2025-07-04T1700,1068A,116.7214,39.5589,廊坊市,开发区,,49,37,33,20,21,155,,122,122,6,12,1,1,0.4,0.4
2025-07-04T1700,1070A,116.7244,39.5269,廊坊市,北华航天学院,,45,41,48,12,28,143,,110,110,2,10,1,2,0.4,0.4
2025-07-04T1700,2919A,116.7022,39.5453,廊坊市,河北工业大学,,46,40,46,21,19,146,,112,112,6,15,2,3,0.4,0.4
2025-07-04T1700,2535A,103.7723,29.5462,乐山市,花湖湾,,43,31,18,22,14,136,,98,98,7,13,2,2,0.6,0.5
2025-07-04T1700,2536A,103.7627,29.5844,乐山市,牛耳桥,,45,42,24,30,15,144,,96,96,9,16,6,7,0.9,0.8
2025-07-04T1700,2537A,103.7508,29.6006,乐山市,市第三水厂,细颗粒物(PM2.5),63,,22,45,16,137,,94,94,8,16,4,5,0.7,0.7
2025-07-04T1700,2538A,103.7571,29.5664,乐山市,市监测站,,46,38,24,32,17,133,,90,90,6,11,5,5,0.7,0.7
2025-07-04T1700,3361A,103.7311,29.5628,乐山市,理工大学,,43,34,18,30,12,137,,104,104,7,12,5,7,0.6,0.6
2025-07-04T1700,2598A,100.2143,26.8576,丽江市,西南郊,,15,14,14,10,8,42,,38,37,10,9,6,6,1.1,1
2025-07-04T1700,2599A,100.2497,26.8802,丽江市,丽江古城,,15,15,13,9,9,40,,36,36,12,10,9,9,0.6,0.6
2025-07-04T1700,2600A,100.2203,26.8906,丽江市,市中心,,12,,11,8,9,38,,33,33,11,11,7,8,0.7,0.7
2025-07-04T1700,1267A,119.914,28.4514,丽水市,监测站大楼,,24,23,23,11,11,74,,74,74,6,10,3,3,0.3,0.3
2025-07-04T1700,1268A,119.93,28.4586,丽水市,莲都小学,,23,22,24,3,9,73,,74,74,4,9,3,4,0.4,0.4
2025-07-04T1700,1269A,119.879,28.4231,丽水市,余庄前,,25,17,21,9,12,77,,81,81,2,7,3,3,0.3,0.3
2025-07-04T1700,1173A,119.176,34.5885,连云港市,市环境监测站,臭氧1小时,68,24,31,24,22,174,,147,147,9,14,3,3,0.1,0.1
2025-07-04T1700,3000A,119.3581,34.6972,连云港市,德源药业,,48,22,31,12,17,151,,124,124,12,11,4,3,0.3,0.6
2025-07-04T1700,3007A,119.178,34.844,连云港市,新城一中,,49,43,36,30,20,156,,141,141,8,11,6,5,0.7,0.9
2025-07-04T1700,3008A,119.3608,34.7519,连云港市,胡沟管理处,臭氧1小时,52,17,23,7,14,161,,140,140,6,9,5,4,0.9,0.9
2025-07-04T1700,3009A,119.1478,34.5911,连云港市,矿山设计院,,49,24,28,14,16,155,,128,128,4,6,3,3,0.1,0.4
2025-07-04T1700,3434A,119.2413,34.6539,连云港市,工贸学校,臭氧1小时,52,28,31,25,22,161,,141,141,8,5,7,7,0.3,0.5
2025-07-04T1700,3664A,119.4172,34.7341,连云港市,连云街道,臭氧1小时,65,29,30,23,16,172,,145,145,3,3,7,6,0.3,0.5
2025-07-04T1700,2571A,102.3431,27.8099,凉山彝族自治州,青龙寺,,16,,12,3,4,50,,50,50,2,7,5,5,0.4,0.4
2025-07-04T1700,2572A,102.2721,27.8415,凉山彝族自治州,邛海宾馆,,17,16,13,7,8,52,,47,47,6,8,15,9,0.4,0.4
2025-07-04T1700,2573A,102.2625,27.898,凉山彝族自治州,西昌市政府,,20,15,12,14,6,52,,48,48,11,7,25,14,0.9,0.5
2025-07-04T1700,2574A,102.2685,27.8851,凉山彝族自治州,凉山州政府,,19,19,14,12,9,56,,52,52,10,8,19,11,0.9,0.9
2025-07-04T1700,4229A,102.2342,27.8859,凉山彝族自治州,凯乐南路30号,,18,18,15,3,7,51,,47,47,12,9,25,18,1.3,1
2025-07-04T1700,2212A,123.2,41.1953,辽阳市,宏伟区,,20,20,10,10,3,54,,54,54,6,5,2,2,0.7,0.6
2025-07-04T1700,2213A,123.1683,41.2495,辽阳市,新华园,,29,29,14,10,6,74,,74,74,9,9,6,6,0.4,0.4
2025-07-04T1700,2214A,123.2354,41.2639,辽阳市,滨河路,,22,22,13,7,5,56,,53,53,8,7,3,3,0.5,0.4
2025-07-04T1700,2215A,123.149,41.2991,辽阳市,铁西工业园,颗粒物(PM10),75,99,28,26,8,60,,58,58,15,9,2,2,1.4,0.9
2025-07-04T1700,2227A,125.1358,42.8845,辽源市,环保局,,31,8,15,3,3,97,,85,85,2,15,6,6,0.3,0.4
2025-07-04T1700,3239A,125.0764,42.9078,辽源市,银鹰制药,,30,11,11,3,4,94,,90,90,6,16,4,4,0.4,0.3
2025-07-04T1700,1625A,115.9848,36.4372,聊城市,区政府,,48,25,32,16,15,153,,147,147,6,12,5,5,0.6,0.7
2025-07-04T1700,2878A,116.0072,36.4343,聊城市,聊大东校,,44,29,31,20,19,140,,137,137,5,11,6,4,0.8,0.7
2025-07-04T1700,3200A,115.9819,36.4978,聊城市,监控中心,,50,27,31,17,12,157,,150,150,6,13,4,4,0.6,0.6
2025-07-04T1700,3513A,116.0445,36.4361,聊城市,九州社区,,47,25,30,6,14,149,,143,143,6,14,2,4,0.3,0.4
2025-07-04T1700,4018A,116.0567,36.4608,聊城市,星美广场,,50,35,38,12,11,160,,153,153,9,14,10,10,0.8,0.8
2025-07-04T1700,2632A,94.3681,29.6376,林芝市,林芝监测站,,17,,4,9,5,54,,51,51,5,4,3,3,0.4,0.4
2025-07-04T1700,2633A,94.3616,29.6616,林芝市,林芝人民医院,,18,9,7,3,4,55,,54,54,2,2,4,5,0.5,0.2
2025-07-04T1700,2603A,100.0781,23.8982,临沧市,市环保局,,11,6,14,6,16,34,,34,34,4,6,8,6,0.3,0.4
2025-07-04T1700,2604A,100.0894,23.8822,临沧市,市气象局,,25,,12,17,10,32,,33,33,4,7,9,8,0.3,0.4
2025-07-04T1700,1733A,111.5531,36.0783,临汾市,临钢医院,,,22,31,3,8,118,,124,124,,19,6,5,0.4,0.6
2025-07-04T1700,1734A,111.5028,36.0714,临汾市,技工学校,,39,20,36,9,15,122,,123,123,7,20,6,4,0.3,0.5
2025-07-04T1700,1736A,111.5018,36.0855,临汾市,市委,,,39,51,6,8,119,,126,126,,24,8,4,0.7,1
2025-07-04T1700,3018A,111.505,36.1014,临汾市,唐尧大酒店,,42,42,55,7,12,117,,116,116,7,22,2,1,0.4,0.7
2025-07-04T1700,4244A,111.4879,36.0530,临汾市,启星学校,,44,44,40,18,21,114,,122,122,8,24,7,4,0.5,0.8
2025-07-04T1700,4271A,103.2464,35.6123,临夏回族自治州,滨河东路1号,,28,,28,3,10,88,,81,81,5,7,2,3,0.2,0.2
2025-07-04T1700,4310A,103.2093,35.5995,临夏回族自治州,新华街21号,,,54,27,22,15,107,,98,98,,4,4,5,0.2,0.3
2025-07-04T1700,1618A,118.3429,35.0532,临沂市,沂河小区,,47,,32,25,21,148,,155,155,14,17,10,11,0.3,0.4
2025-07-04T1700,1619A,118.295,35.0583,临沂市,鲁南制药厂,,49,,28,12,18,155,,160,160,7,15,9,11,0.3,0.4
2025-07-04T1700,1620A,118.2794,34.9976,临沂市,新光毛纺厂,,46,,27,18,17,147,,161,161,7,17,8,11,0.3,0.4
2025-07-04T1700,1621A,118.3956,35.0888,临沂市,河东保险公司,,49,14,25,3,10,154,,164,164,14,16,6,8,0.5,0.5
2025-07-04T1700,3370A,118.3564,35.0215,临沂市,十里堡居委,,48,6,26,3,14,152,,168,168,11,21,8,11,0.4,0.5
2025-07-04T1700,3496A,118.3604,35.1084,临沂市,南坊新区,臭氧1小时,53,19,29,3,11,162,,162,162,12,15,10,10,0.5,0.5
2025-07-04T1700,3860A,118.3920,35.0300,临沂市,皇山花园小区,,44,14,30,11,19,140,,153,153,7,16,9,12,0.3,0.4
2025-07-04T1700,1870A,109.4856,24.3895,柳州市,柳东小学,臭氧1小时,69,29,22,19,12,175,,139,139,6,10,9,7,0.6,0.5
2025-07-04T1700,1871A,109.4157,24.3277,柳州市,环保监测站,臭氧1小时,72,39,35,27,18,177,,156,156,7,18,8,9,0.4,0.5
2025-07-04T1700,1872A,109.389,24.341,柳州市,河西水厂,臭氧1小时,80,39,45,25,21,184,,162,162,10,22,7,6,0.8,0.7
2025-07-04T1700,1873A,109.4311,24.2921,柳州市,市四中,,43,38,37,8,13,136,,140,140,8,22,7,8,0.4,0.6
2025-07-04T1700,1874A,109.4006,24.3631,柳州市,市九中,臭氧1小时,83,56,53,27,25,186,,161,161,11,24,8,9,0.9,0.8
2025-07-04T1700,1875A,109.4958,24.3134,柳州市,古亭山,臭氧1小时,52,47,27,24,11,161,,134,134,6,17,5,6,0.6,0.6
2025-07-04T1700,3402A,109.5422,24.3996,柳州市,市二中,臭氧1小时,63,35,28,28,18,170,,144,144,7,19,5,8,0.6,0.6
2025-07-04T1700,2307A,116.5079,31.737,六安市,监测大楼,,30,,19,11,13,95,,102,102,3,7,5,5,0.4,0.4
2025-07-04T1700,2308A,116.4738,31.7643,六安市,皖西学院,,31,14,19,11,12,98,,102,102,4,4,3,3,0.2,0.2
2025-07-04T1700,2309A,116.4996,31.7905,六安市,朝阳厂,,28,13,17,11,12,89,,98,98,6,10,8,8,0.3,0.3
2025-07-04T1700,2310A,116.5567,31.7886,六安市,开发区,,31,,20,10,15,97,,97,97,3,7,4,4,0.3,0.4
2025-07-04T1700,2576A,104.8,26.5892,六盘水市,窑上,,21,21,19,3,7,62,,59,59,5,3,3,3,0.4,0.3
2025-07-04T1700,2577A,104.83,26.5917,六盘水市,黄土坡,,21,18,10,9,5,67,,60,60,10,7,9,8,0.4,0.3
2025-07-04T1700,2578A,104.89,26.5939,六盘水市,水钢,,23,23,16,12,7,70,,61,61,3,3,11,10,0.3,0.3
2025-07-04T1700,2579A,104.8475,26.5894,六盘水市,民中,,22,18,9,3,2,70,,61,61,4,4,8,8,0.3,0.3
2025-07-04T1700,2580A,104.9544,26.5506,六盘水市,双水,,21,,3,8,6,65,,53,53,5,5,10,9,0.4,0.3
2025-07-04T1700,2335A,117.0189,25.1181,龙岩市,龙岩师专,,,,,,,,,,,,,,,,
2025-07-04T1700,2336A,117.0217,25.1033,龙岩市,龙岩市监测站,,35,32,30,17,14,111,,98,98,7,10,4,6,0.3,0.4
2025-07-04T1700,2337A,117.0258,25.0661,龙岩市,闽西职业技术学院,,31,20,32,8,15,97,,91,91,4,9,4,12,0.5,0.6
2025-07-04T1700,2338A,117.0196,25.0306,龙岩市,龙岩学院,,34,34,28,18,16,98,,96,96,5,9,6,7,0.4,0.6
2025-07-04T1700,2665A,105.0822,33.3261,陇南市,汉王镇固水子,,,,,,,,,,,,,,,,
2025-07-04T1700,2885A,104.9339,33.3826,陇南市,滨江中学,,34,34,28,14,11,94,,62,62,3,5,4,4,0.4,0.5
2025-07-04T1700,3247A,104.955,33.371,陇南市,市总工会,,36,36,32,3,5,101,,69,69,5,6,8,8,0.4,0.4
2025-07-04T1700,2487A,111.9589,27.8901,娄底市,电视发射台,,27,25,21,6,8,84,,63,63,9,8,7,6,0.9,0.7
2025-07-04T1700,2488A,111.9975,27.725,娄底市,市监测站,,40,29,30,28,22,84,,85,85,6,17,9,13,0.2,0.5
2025-07-04T1700,2489A,112.0194,27.7314,娄底市,市委党校,,29,29,26,14,14,86,,91,91,7,12,16,12,0.2,0.3
2025-07-04T1700,2490A,111.9561,27.7569,娄底市,涟钢,,36,36,28,9,16,77,,85,85,13,17,2,6,0.8,0.8
2025-07-04T1700,2491A,111.9892,27.7044,娄底市,市政府,,29,20,24,20,16,85,,88,88,2,5,7,7,0.6,0.6
2025-07-04T1700,1893A,105.4324,28.9634,泸州市,九狮山,,33,16,36,12,25,105,,122,122,4,10,5,5,0.3,0.4
2025-07-04T1700,1894A,105.4427,28.9063,泸州市,小市上码头,,32,8,28,3,15,100,,112,112,8,14,1,2,0.3,0.5
2025-07-04T1700,1895A,105.4241,28.8573,泸州市,兰田宪桥,,30,8,29,3,17,94,,108,108,4,10,7,7,0.5,0.7
2025-07-04T1700,1896A,105.4379,28.8833,泸州市,市环监站,,30,6,30,3,20,96,,108,108,5,11,4,4,0.6,0.7
2025-07-04T1700,4272A,105.3689,28.7783,泸州市,纳溪中医医院,,33,16,34,9,26,105,,120,120,10,16,6,4,0.2,0.5
2025-07-04T1700,2183A,111.1406,37.5211,吕梁市,环保局,,39,39,37,16,14,101,,104,104,8,20,4,5,0.5,0.6
2025-07-04T1700,2185A,111.1297,37.5136,吕梁市,自来水公司,,29,21,34,17,12,90,,97,97,6,16,1,2,0.5,0.6
2025-07-04T1700,2867A,111.1283,37.51,吕梁市,马茂庄小学,,29,29,40,14,13,87,,98,98,16,23,2,4,0.4,0.5
2025-07-04T1700,1812A,112.3931,34.6516,洛阳市,市委党校,,40,25,27,13,16,125,,137,137,4,16,6,6,0.4,0.6
2025-07-04T1700,1815A,112.494,34.6886,洛阳市,河南林校,,47,30,33,18,16,148,,169,169,8,19,7,8,0.5,0.6
2025-07-04T1700,1816A,112.3844,34.623,洛阳市,开发区管委会,,48,27,28,12,14,152,,154,154,4,13,15,14,0.5,0.6
2025-07-04T1700,1817A,112.4267,34.6258,洛阳市,市委新办公区,,43,22,32,19,22,135,,137,137,6,16,10,12,0.4,0.5
2025-07-04T1700,3340A,112.6005,34.6326,洛阳市,伊滨,,44,36,36,12,13,139,,145,145,6,16,3,3,0.5,0.5
2025-07-04T1700,3341A,112.4951,34.6332,洛阳市,中移产业园,,39,23,27,14,17,124,,142,142,4,17,6,7,0.7,0.7
2025-07-04T1700,3593A,112.5736,34.8993,洛阳市,吉利监测站,臭氧1小时,100,45,34,38,20,200,,164,164,4,10,8,7,0.5,0.6
2025-07-04T1700,3635A,112.3677,34.662,洛阳市,河科大西苑校区,,45,27,27,13,16,144,,159,159,9,16,12,12,0.7,0.7
2025-07-04T1700,3636A,112.4388,34.6781,洛阳市,英才小学,,40,29,25,14,16,125,,144,144,4,15,9,9,0.6,0.6
2025-07-04T1700,4214A,112.4600,34.6949,洛阳市,春都路1号院,,43,24,29,15,11,136,,154,154,2,13,5,6,0.6,0.7
2025-07-04T1700,2399A,114.051,33.5699,漯河市,三五一五工厂,,39,16,19,10,9,123,,127,127,7,19,4,5,0.5,0.5
2025-07-04T1700,2400A,114.0055,33.5698,漯河市,漯河大学,,40,20,19,3,6,128,,128,128,8,21,4,4,0.4,0.3
2025-07-04T1700,2401A,114.0138,33.5828,漯河市,市水利局,,38,9,13,9,7,121,,121,121,5,17,3,4,0.4,0.4
2025-07-04T1700,2402A,114.0261,33.5698,漯河市,市广电局,,41,15,16,6,10,130,,133,133,4,16,2,2,0.4,0.4
2025-07-04T1700,3478A,113.9749,33.5664,漯河市,市图书馆,,38,17,18,11,12,120,,119,119,7,20,3,3,0.2,0.3
2025-07-04T1700,4250A,114.0892,33.5882,漯河市,韶山路11号,,41,28,26,10,11,129,,132,132,8,20,3,3,0.4,0.4
2025-07-04T1700,1798A,118.5092,31.6837,马鞍山市,湖东路四小,臭氧1小时,98,58,40,23,23,198,,149,149,2,6,8,9,0.6,0.6
2025-07-04T1700,1799A,118.5024,31.6449,马鞍山市,开发区,臭氧1小时,102,60,55,29,30,204,,171,171,6,14,5,6,0.7,0.7
2025-07-04T1700,1802A,118.6245,31.7241,马鞍山市,濮塘,臭氧1小时,78,47,45,27,27,182,,174,174,5,9,9,8,0.8,0.8
2025-07-04T1700,3633A,118.4918,31.6809,马鞍山市,雨山,臭氧1小时,75,67,36,31,23,180,,135,135,17,13,6,6,0.7,0.7
2025-07-04T1700,4191A,118.5274,31.72227,马鞍山市,慈湖高新区,,49,44,47,27,27,155,,146,146,39,22,6,8,0.6,0.6
2025-07-04T1700,1686A,111.0286,21.4688,茂名市,电白南海,,19,17,25,9,15,58,,57,57,6,11,1,5,0.4,0.4
2025-07-04T1700,1687A,110.9294,21.6533,茂名市,茂石化七小,,29,29,35,9,20,73,,61,61,8,15,6,12,0.3,0.5
2025-07-04T1700,1688A,110.9107,21.6687,茂名市,健康路,,27,22,32,9,17,85,,70,70,10,15,5,10,0.6,0.6
2025-07-04T1700,1689A,110.8592,21.6828,茂名市,高岭,,29,29,41,7,15,71,,63,63,9,15,6,10,0.3,0.4
2025-07-04T1700,3450A,111.01,21.5165,茂名市,电白水东,,18,7,24,7,11,57,,60,60,2,5,4,9,0.4,0.4
2025-07-04T1700,2539A,104.0308,30.0478,眉山市,黑龙滩水库,,40,40,40,6,11,95,,59,59,5,10,3,3,0.6,0.6
2025-07-04T1700,2540A,103.8416,30.0874,眉山市,气象局,,41,31,20,22,11,130,,79,79,7,16,3,3,0.5,0.5
2025-07-04T1700,3137A,103.8578,30.0744,眉山市,市委党校,,39,27,18,14,11,122,,76,76,9,17,5,7,0.5,0.5
2025-07-04T1700,3148A,103.8291,30.0564,眉山市,区人社局,,39,30,29,14,8,122,,77,77,11,20,12,13,0.7,0.6
2025-07-04T1700,1690A,116.1231,24.3284,梅州市,梅江月梅,颗粒物(PM10),63,75,37,14,21,116,,105,105,5,7,9,8,0.5,0.6
2025-07-04T1700,1691A,116.0797,24.2719,梅州市,梅县新城,,38,30,39,10,20,119,,118,118,6,10,7,8,0.6,0.7
2025-07-04T1700,1692A,116.1248,24.2654,梅州市,环境监控中心,颗粒物(PM10),53,56,39,21,22,111,,111,111,14,16,4,5,0.3,0.5
2025-07-04T1700,3315A,116.1233,24.2991,梅州市,梅龙,,37,24,34,20,23,116,,110,110,4,8,8,9,0.5,0.6
2025-07-04T1700,1878A,104.7778,31.4741,绵阳市,富乐山,,25,25,23,12,13,75,,54,54,13,17,9,8,0.6,0.5
2025-07-04T1700,1880A,104.6697,31.4668,绵阳市,高新区自来水公司,,35,30,24,24,8,74,,60,60,13,14,7,6,0.5,0.4
2025-07-04T1700,1881A,104.7287,31.5075,绵阳市,三水厂,,25,25,24,16,15,62,,49,49,20,20,6,6,0.6,0.5
2025-07-04T1700,3491A,104.69,31.5322,绵阳市,西科大附属小学,,28,28,24,18,12,69,,54,54,12,15,7,7,0.5,0.5
2025-07-04T1700,3492A,104.5648,31.5343,绵阳市,安州区旅游局,,27,18,19,7,3,86,,65,65,7,10,6,4,0.4,0.5
2025-07-04T1700,4226A,104.7651,31.4531,绵阳市,绵阳市气象局,,29,29,25,18,13,85,,58,58,12,16,10,11,0.4,0.5
2025-07-04T1700,1784A,129.61,44.561,牡丹江市,环保大楼,,44,15,20,15,13,139,,123,123,10,20,3,3,0.3,0.3
2025-07-04T1700,1785A,129.6115,44.5782,牡丹江市,文化广场,,44,,17,16,15,139,,120,120,12,22,7,5,0.4,0.4
2025-07-04T1700,1786A,129.5904,44.5963,牡丹江市,第一医院,,41,22,24,12,18,131,,118,118,10,20,6,6,0.3,0.3
2025-07-04T1700,1787A,129.6364,44.6075,牡丹江市,机车工厂,,43,19,22,3,6,137,,124,124,12,17,6,5,0.4,0.4
2025-07-04T1700,1788A,129.6386,44.5462,牡丹江市,第一中学,,45,29,20,17,10,144,,123,123,9,17,5,5,0.4,0.5
2025-07-04T1700,2531A,105.0703,29.61,内江市,市监测站,,45,16,26,12,24,143,,111,111,8,11,5,5,0.7,0.8
2025-07-04T1700,2532A,105.0717,29.5947,内江市,东兴区政府,,46,13,25,8,16,146,,122,122,8,12,4,4,0.4,0.6
2025-07-04T1700,2533A,105.0653,29.5817,内江市,内江二中,,44,,30,12,32,139,,109,109,7,13,7,6,0.5,0.6
2025-07-04T1700,2534A,105.0406,29.5822,内江市,内江日报社,,41,,23,13,21,130,,98,98,10,14,24,9,0.4,0.5
2025-07-04T1700,2628A,92.0657,31.4846,那曲市,那曲监测站,,,,19,,12,,,97,,,15,,22,,0.4
2025-07-04T1700,4243A,92.0515,31.4787,那曲市,那曲市委宣传部,,,,7,,5,,,112,,,7,,7,,0.3
2025-07-04T1700,1290A,115.8931,28.6843,南昌市,省外办,,34,26,29,19,22,107,,109,109,8,19,1,1,0.6,0.6
2025-07-04T1700,1291A,115.8886,28.7003,南昌市,省林业公司,,39,24,38,14,20,122,,124,124,6,25,10,10,0.5,0.6
2025-07-04T1700,1292A,115.8126,28.7442,南昌市,林科所,,40,24,23,19,13,126,,126,126,4,14,6,5,0.5,0.5
2025-07-04T1700,1294A,115.8518,28.687,南昌市,建工学校,,39,36,39,23,21,122,,126,126,1,21,8,8,0.5,0.7
2025-07-04T1700,1295A,115.8921,28.6424,南昌市,象湖,,35,18,29,17,16,111,,119,119,6,18,7,8,0.5,0.6
2025-07-04T1700,1296A,115.7423,28.7996,南昌市,武术学校,,50,,26,35,14,114,,122,122,4,4,9,9,0.7,0.7
2025-07-04T1700,3046A,115.9084,28.6062,南昌市,机电学校,,36,36,37,24,19,108,,113,113,8,22,5,6,0.6,0.6
2025-07-04T1700,3690A,115.9721,28.7031,南昌市,外国语学校,,34,22,38,14,16,106,,106,106,2,24,10,10,0.4,0.4
2025-07-04T1700,4192A,115.9316,28.68677,南昌市,南京东路235号,,36,36,39,19,17,105,,111,111,9,22,6,5,0.7,0.6
2025-07-04T1700,1905A,106.056,30.8064,南充市,西山风景区,,,,,,,,,,,,,,,,
2025-07-04T1700,1906A,106.0789,30.8023,南充市,南充市委,,42,,22,29,16,128,,110,110,7,10,6,6,0.3,0.3
2025-07-04T1700,1907A,106.1031,30.8217,南充市,南充炼油厂,,36,,22,14,12,114,,99,99,5,9,6,6,0.2,0.2
2025-07-04T1700,4227A,106.1083,30.7884,南充市,梨树横街98号,,40,13,18,8,9,125,,112,112,4,9,4,6,0.2,0.3
2025-07-04T1700,4304A,106.1172,30.843,南充市,清泉寺北路188号,,34,20,23,7,14,107,,92,92,8,9,2,4,0.3,0.3
2025-07-04T1700,4305A,106.067,30.7616,南充市,同庆路1号,,43,29,18,9,11,136,,108,108,6,10,5,5,0.4,0.4
2025-07-04T1700,1151A,118.8086,32.1065,南京市,迈皋桥,臭氧1小时,99,40,34,22,23,199,,166,166,9,15,4,4,0.8,0.7
2025-07-04T1700,1152A,118.7538,32.0551,南京市,草场门,臭氧1小时,101,51,36,24,22,202,,158,158,8,13,6,7,0.9,0.8
2025-07-04T1700,1153A,118.7794,32.0745,南京市,山西路,臭氧1小时,107,46,43,22,18,213,,167,167,11,3,5,4,0.5,0.3
2025-07-04T1700,1154A,118.7752,32.0023,南京市,中华门,臭氧1小时,72,34,33,22,20,177,,146,146,9,10,10,10,0.5,0.7
2025-07-04T1700,1155A,118.8109,32.0309,南京市,瑞金路,臭氧1小时,80,34,34,22,23,184,,150,150,18,16,6,6,0.2,0.2
2025-07-04T1700,1156A,118.7997,32.0754,南京市,玄武湖,臭氧1小时,77,42,39,20,17,181,,143,143,10,13,8,5,0.6,0.5
2025-07-04T1700,1157A,118.6414,32.0931,南京市,浦口,臭氧1小时,94,41,36,25,20,195,,139,139,16,12,3,3,0.6,0.3
2025-07-04T1700,1158A,118.7356,31.9996,南京市,奥体中心,臭氧1小时,105,50,38,31,23,210,,160,160,8,12,3,3,0.6,0.4
2025-07-04T1700,1159A,118.9125,32.1028,南京市,仙林大学城,,49,34,45,9,18,155,,169,169,5,9,6,7,0.6,0.6
2025-07-04T1700,3422A,118.8436,31.9198,南京市,江宁彩虹桥,,,59,43,19,25,149,,174,174,,12,,4,0.5,0.6
2025-07-04T1700,3427A,118.8554,32.3578,南京市,六合雄州,臭氧1小时,98,42,41,30,22,198,,155,155,7,13,3,4,0.9,0.8
2025-07-04T1700,4249A,118.8708,31.3402,南京市,汶溪路181号,,45,29,30,22,22,143,,155,155,8,13,5,6,0.5,0.5
2025-07-04T1700,4312A,119.019,31.6512,南京市,中山西路1号,,46,24,31,22,22,145,,144,144,8,12,4,4,0.6,0.7
2025-07-04T1700,1401A,108.3103,22.7881,南宁市,二十一中,,33,33,27,13,11,70,,66,66,4,14,3,4,0.1,0.3
2025-07-04T1700,1402A,108.3141,22.8528,南宁市,北湖,,30,16,28,8,13,93,,80,80,5,15,4,5,0.4,0.4
2025-07-04T1700,1403A,108.3206,22.8225,南宁市,市监测站,,24,14,22,13,13,76,,65,65,4,15,6,7,0.4,0.5
2025-07-04T1700,1404A,108.3829,22.8037,南宁市,大自然花园,,29,20,21,9,10,92,,78,78,3,8,4,4,0.4,0.4
2025-07-04T1700,1405A,108.4394,22.7904,南宁市,仙葫,,25,25,17,7,11,79,,69,69,5,14,4,4,0.5,0.5
2025-07-04T1700,1406A,108.2397,22.8467,南宁市,区农职院,,29,25,31,8,13,91,,98,98,9,16,2,5,0,0.3
2025-07-04T1700,1407A,108.3275,22.735,南宁市,英华嘉园,,25,,20,11,9,80,,80,80,5,14,3,6,0.4,0.4
2025-07-04T1700,3401A,108.4834,22.7618,南宁市,红星社区,,29,9,19,9,11,92,,79,79,1,6,2,2,0.3,0.4
2025-07-04T1700,4221A,108.2177,22.7774,南宁市,乐贤路16号,,31,24,23,14,12,98,,81,81,6,16,6,6,0.3,0.4
2025-07-04T1700,2331A,118.0966,26.6761,南平市,茫荡山,,,,,,,,,,,,,,,,
2025-07-04T1700,2332A,118.1681,26.6369,南平市,南平市监测站,,20,20,16,10,7,62,,70,70,3,5,4,6,0.4,0.4
2025-07-04T1700,2333A,118.1825,26.6489,南平市,南平铝业有限公司,,20,15,21,13,11,63,,70,70,3,6,4,5,0.4,0.5
2025-07-04T1700,2334A,118.1756,26.6272,南平市,南平七中,,26,26,19,9,8,62,,72,70,1,3,4,5,0.5,0.5
2025-07-04T1700,1168A,120.9098,31.9663,南通市,狼山街道,臭氧1小时,99,38,36,23,16,199,,189,189,7,26,5,6,0.7,0.7
2025-07-04T1700,1169A,120.86,32.0005,南通市,虹桥,臭氧1小时,105,33,32,21,18,209,,194,194,20,26,3,4,0.6,0.6
2025-07-04T1700,1170A,120.87,32.02,南通市,城中,臭氧1小时,88,40,43,19,16,190,,183,183,9,18,3,5,0.5,0.6
2025-07-04T1700,1171A,120.94,31.93,南通市,星湖花园,臭氧1小时,108,44,31,26,19,216,,193,193,19,29,5,5,0.5,0.5
2025-07-04T1700,1172A,120.81,32.0417,南通市,紫琅学院,臭氧1小时,100,42,36,19,12,200,,182,182,23,29,7,7,0.5,0.6
2025-07-04T1700,3291A,121.067,32.062,南通市,通州监测站,臭氧1小时,106,24,29,19,13,211,,178,178,6,12,8,7,0.7,0.7
2025-07-04T1700,3432A,120.9348,31.9883,南通市,环境教育馆,臭氧1小时,106,41,37,14,14,211,,200,200,10,22,4,5,0.3,0.3
2025-07-04T1700,2404A,112.5224,33.0122,南阳市,瓦房庄,,35,24,24,17,10,112,,111,111,10,13,5,6,0.3,0.4
2025-07-04T1700,2405A,112.5003,32.9735,南阳市,汉画馆,,34,18,21,3,4,108,,120,120,7,12,6,6,0.3,0.4
2025-07-04T1700,2406A,112.5573,33.027,南阳市,气象站,,38,,11,3,8,120,,127,127,4,10,6,6,0.2,0.3
2025-07-04T1700,2407A,112.5481,32.9689,南阳市,理工学院,,35,21,19,8,12,111,,119,119,4,15,6,6,0.2,0.3
2025-07-04T1700,4008A,112.5234,32.9922,南阳市,卧龙区政府,,35,23,24,13,10,109,,123,123,11,14,4,4,0.4,0.4
2025-07-04T1700,1234A,121.8358,29.911,宁波市,区环保大楼,,39,39,26,10,9,68,,75,75,5,5,3,3,0.4,0.4
2025-07-04T1700,1235A,121.56,29.82,宁波市,万里学院,,30,27,23,17,11,96,,88,88,3,8,2,4,0.4,0.4
2025-07-04T1700,1236A,121.713,29.9572,宁波市,龙赛医院,,30,30,24,8,8,81,,82,82,7,9,3,3,0.5,0.4
2025-07-04T1700,1239A,121.633,29.7733,宁波市,钱湖水厂,,30,30,18,17,10,92,,81,81,2,2,3,4,0.3,0.3
2025-07-04T1700,1240A,121.5856,29.8635,宁波市,太古小学,,29,29,23,20,9,90,,86,86,2,5,4,4,0.5,0.5
2025-07-04T1700,1241A,121.524,29.8674,宁波市,市环境监测中心,,30,25,24,14,8,94,,90,90,9,10,4,5,0.4,0.4
2025-07-04T1700,2871A,121.6147,29.9017,宁波市,万里国际学校,,30,25,19,14,11,94,,92,92,6,6,3,3,0.4,0.3
2025-07-04T1700,3710A,121.5594,29.8975,宁波市,白沙活动中心,,31,23,17,14,8,98,,94,94,5,5,3,4,0.4,0.4
2025-07-04T1700,2339A,119.5001,26.6946,宁德市,金涵水库,,,,,,,,,,,,,,,,
2025-07-04T1700,2341A,119.5388,26.6612,宁德市,宁德市监测站,,14,10,21,8,10,42,,67,66,4,8,4,4,0.3,0.4
2025-07-04T1700,3209A,119.5231,26.6562,宁德市,宁德一中,,19,19,19,7,7,44,,68,68,1,3,3,4,0.3,0.4
2025-07-04T1700,2618A,98.8601,25.8567,怒江傈僳族自治州,州监测站,,18,18,17,12,11,55,,49,49,6,6,7,6,0.4,0.4
2025-07-04T1700,2619A,98.8546,25.8417,怒江傈僳族自治州,泸水一中,,13,,15,9,7,35,,34,34,8,9,5,6,0.3,0.3
2025-07-04T1700,1888A,101.6891,26.571,攀枝花市,弄弄坪,,26,26,36,9,9,35,,46,46,20,18,13,17,0.5,0.9
2025-07-04T1700,1889A,101.5769,26.5928,攀枝花市,河门口,,15,13,15,8,8,48,,61,61,12,9,21,8,1.1,0.6
2025-07-04T1700,1890A,101.7169,26.585,攀枝花市,炳草岗,,20,20,36,13,11,41,,48,48,18,18,13,21,0.7,0.9
2025-07-04T1700,1891A,101.7369,26.5008,攀枝花市,仁和,,13,11,21,3,9,39,,40,40,8,17,8,22,0.5,1.5
2025-07-04T1700,2835A,101.7227,26.567,攀枝花市,四十中小,,26,26,27,13,15,46,,53,53,13,16,12,23,0.7,1
2025-07-04T1700,1604A,122.0303,41.1489,盘锦市,开发区,,,,12,,8,,,87,,,18,,6,,0.6
2025-07-04T1700,1605A,122.0485,41.0883,盘锦市,兴隆台,,32,24,13,17,6,101,,94,94,11,15,1,1,0.9,0.4
2025-07-04T1700,1606A,121.8297,41.1028,盘锦市,新生街道,细颗粒物(PM2.5),60,,12,43,12,128,,116,116,5,7,5,5,1.1,0.6
2025-07-04T1700,1832A,113.3257,33.742,平顶山市,新华旅馆,,,5,13,,15,128,,131,131,7,11,3,4,0.2,0.2
2025-07-04T1700,1833A,113.2919,33.737,平顶山市,规划设计院,,40,11,18,9,11,125,,126,126,5,12,4,5,0.5,0.5
2025-07-04T1700,1834A,113.182,33.774,平顶山市,平顶山工学院,,45,32,16,9,7,141,,141,141,7,11,5,5,0.4,0.4
2025-07-04T1700,3204A,113.3025,33.73,平顶山市,规划局,,41,12,17,6,5,129,,132,132,8,13,4,4,0.2,0.3
2025-07-04T1700,3594A,112.8867,33.9116,平顶山市,石龙区,,45,20,20,10,11,142,,132,132,7,10,8,8,0.3,0.4
2025-07-04T1700,2656A,106.6692,35.5461,平凉市,聚贤嘉苑,,33,27,32,3,8,103,,102,102,4,13,14,11,0.7,0.8
2025-07-04T1700,2657A,106.7021,35.5307,平凉市,博物馆,,33,25,32,6,9,104,,103,103,4,12,9,9,0.6,0.6
2025-07-04T1700,2347A,114.0997,27.5002,萍乡市,武功山,,24,13,7,10,7,76,,80,80,3,4,14,14,0.7,0.7
2025-07-04T1700,2348A,113.8385,27.6434,萍乡市,中医院,,43,27,30,22,16,137,,132,132,5,6,10,10,1.1,0.8
2025-07-04T1700,2349A,113.8493,27.6253,萍乡市,市政府车库,,43,,22,30,19,126,,106,106,7,8,9,8,1.3,0.5
2025-07-04T1700,2350A,113.8676,27.6435,萍乡市,市环保局,,38,31,30,15,19,119,,129,129,5,12,6,6,0.8,0.9
2025-07-04T1700,2351A,113.866,27.6198,萍乡市,安源区政府,,37,24,39,23,18,117,,109,109,4,5,8,8,0.7,0.5
2025-07-04T1700,2319A,119.0141,25.4325,莆田市,荔城区仓后路,,24,24,25,3,8,54,,71,71,5,6,4,4,0.4,0.5
2025-07-04T1700,2320A,119.0015,25.4553,莆田市,莆田市监测站,,17,16,21,3,8,52,,73,73,7,8,4,4,0.3,0.3
2025-07-04T1700,2321A,119.1119,25.4561,莆田市,涵江区六中,,24,24,23,6,10,54,,70,70,4,5,3,3,0.2,0.3
2025-07-04T1700,2322A,119.1013,25.3215,莆田市,秀屿区政府,,34,34,28,9,9,59,,68,68,6,7,6,4,0.5,0.4
2025-07-04T1700,2323A,118.981,25.4792,莆田市,东圳水库,,,,,,,,,,,,,,,,
2025-07-04T1700,2392A,115.0312,35.7636,濮阳市,环保局,,46,26,29,14,12,147,,150,150,7,12,3,5,0.4,0.5
2025-07-04T1700,2394A,115.0574,35.7609,濮阳市,油田运输公司,,44,26,33,13,13,139,,146,146,7,13,2,3,0.2,0.3
2025-07-04T1700,3021A,115,35.7668,濮阳市,濮水河管理处,,43,32,27,13,14,135,,136,136,9,15,2,3,0.4,0.4
2025-07-04T1700,4216A,115.0924,35.7686,濮阳市,任丘路479号,,43,28,40,10,14,136,,144,144,10,15,5,7,0.2,0.3
2025-07-04T1700,2601A,100.98,22.7633,普洱市,市环保局,,26,26,21,16,8,43,,41,41,5,5,4,4,0.4,0.4
2025-07-04T1700,2602A,100.9817,22.8322,普洱市,普洱第二中学,,17,17,23,7,10,40,,38,38,4,7,7,6,0.3,0.4
2025-07-04T1700,2262A,131.0518,45.8751,七台河市,新一中,,42,24,21,7,18,132,,121,121,11,12,9,10,0.7,0.9
2025-07-04T1700,3345A,131.0577,45.7879,七台河市,中波台,,31,8,9,8,8,97,,88,88,11,13,7,8,0.4,0.4
2025-07-04T1700,3637A,131.0176,45.7761,七台河市,人民广场,,33,24,27,10,13,104,,90,90,7,12,13,13,0.5,0.6
2025-07-04T1700,3684A,130.8781,45.8222,七台河市,新建矿广场,,37,34,21,3,10,118,,100,100,9,13,10,10,0.6,0.5
2025-07-04T1700,1779A,123.9305,47.3636,齐齐哈尔市,安居小区,,36,36,40,3,17,98,,110,110,16,14,4,4,0.8,0.8
2025-07-04T1700,1780A,123.9488,47.3386,齐齐哈尔市,中心广场,,37,18,23,9,15,117,,119,119,9,11,7,7,0.6,0.6
2025-07-04T1700,1781A,123.9483,47.3227,齐齐哈尔市,农牧车辆厂,,34,34,39,10,16,95,,107,107,10,12,7,6,0,0.1
2025-07-04T1700,1783A,123.945,47.2988,齐齐哈尔市,市环境监测站,,36,29,29,13,17,113,,122,122,5,8,4,5,0.4,0.4
2025-07-04T1700,3662A,123.6333,47.2075,齐齐哈尔市,富区青少年活动中心,,35,24,36,7,23,112,,116,116,7,11,4,5,0.5,0.6
2025-07-04T1700,2591A,107.9783,26.5747,黔东南苗族侗族自治州,市环境监测站,,20,13,10,8,7,61,,58,58,3,4,2,2,0.3,0.3
2025-07-04T1700,2881A,107.8908,26.5311,黔东南苗族侗族自治州,凯里学院,,22,9,6,8,6,68,,63,63,7,8,2,2,0.3,0.2
2025-07-04T1700,2593A,107.5228,26.2403,黔南布依族苗族自治州,小围寨,,16,6,6,3,1,50,,50,50,3,4,3,3,0.4,0.3
2025-07-04T1700,3538A,107.5175,26.2978,黔南布依族苗族自治州,沙坝,,,6,9,3,1,52,,49,49,3,5,4,5,,0.8
2025-07-04T1700,2589A,104.9022,25.0925,黔西南布依族苗族自治州,场坝街,,19,9,12,8,6,59,,54,54,3,4,4,4,0.2,0.2
2025-07-04T1700,2590A,104.8811,25.0992,黔西南布依族苗族自治州,坪东大道,,17,15,12,7,7,53,,48,48,7,7,2,2,0.1,0
2025-07-04T1700,2502A,108.6236,21.9667,钦州市,市环保站,,34,19,24,9,8,108,,76,76,8,13,2,2,0.3,1.1
2025-07-04T1700,2503A,108.6549,21.9481,钦州市,沙埠小学,,44,44,23,17,11,121,,78,78,7,11,2,2,0.4,0.6
2025-07-04T1700,2504A,108.5989,21.7431,钦州市,港区一小,,32,32,28,10,10,86,,92,92,6,14,2,2,0.5,0.6
2025-07-04T1700,3404A,108.5959,21.9633,钦州市,北职校,,30,16,26,16,10,96,,87,87,6,10,4,3,0.4,0.9
2025-07-04T1700,1043A,119.7493,40.0116,秦皇岛市,第一关,,,34,35,20,19,126,,124,124,5,13,,5,0.5,0.5
2025-07-04T1700,1044A,119.5897,39.9499,秦皇岛市,监测站,,45,45,48,17,18,140,,132,132,9,13,6,5,0.7,0.7
2025-07-04T1700,1046A,119.5251,39.9041,秦皇岛市,建设大厦,,42,34,42,21,21,132,,125,125,7,11,5,5,0.7,0.8
2025-07-04T1700,3132A,119.610547,39.943889,秦皇岛市,文明里,,39,39,45,14,21,123,,122,122,8,11,5,4,0.6,0.6
2025-07-04T1700,4198A,119.5090,39.8253,秦皇岛市,北戴河轮滑馆,,37,37,46,9,20,110,,116,116,6,9,2,2,0.5,0.6
2025-07-04T1700,1307A,120.6659,36.2403,青岛市,仰口,臭氧1小时,58,32,37,18,22,166,,153,153,6,6,8,7,0.7,0.7
2025-07-04T1700,1310A,120.4134,36.0658,青岛市,市南区东部子站,,,68,41,46,27,,,148,,2,4,9,9,0.5,0.3
2025-07-04T1700,1311A,120.3664,36.1032,青岛市,四方区子站,臭氧1小时,114,56,42,39,27,228,,215,215,10,10,12,12,0.5,0.3
2025-07-04T1700,1312A,120.2994,36.054,青岛市,市南区西部子站,臭氧1小时,105,63,51,39,27,210,,175,175,13,16,8,8,0.9,0.7
2025-07-04T1700,1313A,120.4581,36.0858,青岛市,崂山区子站,臭氧1小时,80,58,44,48,25,184,,158,158,5,4,7,7,0.5,0.4
2025-07-04T1700,1315A,120.3999,36.3083,青岛市,城阳区子站,臭氧1小时,102,53,42,22,20,203,,198,198,14,12,7,7,0.5,0.5
2025-07-04T1700,1966A,120.0405,35.8735,青岛市,黄岛区4号,,,61,46,29,24,,,113,,,15,,10,,0.7
2025-07-04T1700,3362A,120.5014,36.4034,青岛市,即墨2号,臭氧1小时,94,55,42,28,23,195,,184,184,10,9,2,2,0.4,0.4
2025-07-04T1700,3642A,120.3503,36.0736,青岛市,市北区南部,臭氧1小时,62,53,38,36,26,169,,144,144,8,10,5,5,0.8,0.6
2025-07-04T1700,3643A,120.3948,36.1805,青岛市,李沧区北部,臭氧1小时,98,51,35,39,28,198,,173,173,9,8,6,5,0.8,0.7
2025-07-04T1700,4290A,120.1969,35.9546,青岛市,珠江路669号,臭氧1小时,95,48,37,44,24,196,,,,8,7,1,11,1.1,0.6
2025-07-04T1700,1702A,113.0426,23.691,清远市,环保大楼,臭氧1小时,64,,52,38,23,171,,157,157,10,19,7,8,0.5,0.6
2025-07-04T1700,1703A,113.0208,23.7106,清远市,凤城街办,,39,25,37,20,22,123,,126,126,10,20,7,9,0.4,0.5
2025-07-04T1700,3025A,113.0477,23.6344,清远市,技师学院,臭氧1小时,69,42,44,24,23,175,,143,143,7,18,8,10,0.5,0.5
2025-07-04T1700,3318A,112.9903,23.7403,清远市,清新太和,,47,42,41,31,30,148,,145,145,10,12,7,8,0.4,0.5
2025-07-04T1700,3455A,113.076,23.7198,清远市,清城东城,"细颗粒物(PM2.5),臭氧1小时",57,48,34,40,20,165,,137,137,11,13,7,6,0.5,0.6
2025-07-04T1700,2661A,107.6325,35.7357,庆阳市,庆阳五中,,27,8,14,3,6,85,,83,83,5,5,5,5,0.4,0.4
2025-07-04T1700,2662A,107.6364,35.7067,庆阳市,市环保局,,31,12,16,3,7,97,,91,91,3,3,8,9,0.4,0.4
2025-07-04T1700,1916A,103.7897,25.5035,曲靖市,环境监测站,,19,,15,3,6,60,,50,50,3,9,3,5,0.2,0.3
2025-07-04T1700,1917A,103.8,25.5364,曲靖市,烟厂办公区,,,,14,2,6,65,,54,54,2,6,3,4,0.1,0.4
2025-07-04T1700,3376A,103.7947,25.462,曲靖市,南苑二区,,21,6,12,3,5,65,,56,56,3,7,3,4,0.3,0.4
2025-07-04T1700,3377A,103.7444,25.5261,曲靖市,曲靖师范学院,,20,8,12,3,8,63,,50,50,2,8,5,6,0.2,0.3
2025-07-04T1700,1264A,118.8692,28.9398,衢州市,环保大楼,,43,28,43,19,24,136,,145,145,4,15,4,5,0.4,0.4
2025-07-04T1700,1265A,118.8709,28.9666,衢州市,实验学校,,46,29,40,20,25,147,,150,150,5,13,5,5,0.2,0.2
2025-07-04T1700,1266A,118.8621,28.9808,衢州市,衢州学院,,45,27,38,20,24,142,,148,148,5,15,4,4,0.3,0.3
2025-07-04T1700,1611A,118.5819,24.9117,泉州市,涂山街,,38,38,29,12,12,94,,94,94,8,7,3,2,0.7,0.6
2025-07-04T1700,1612A,118.5972,24.8978,泉州市,津头埔,,50,50,32,12,14,86,,98,98,8,8,2,2,0.3,0.3
2025-07-04T1700,1613A,118.6663,24.9424,泉州市,万安,,38,38,32,11,12,80,,92,92,7,7,3,2,0.4,0.5
2025-07-04T1700,1614A,118.6117,24.9604,泉州市,清源山,,,,,,,,,,,,,,,,
2025-07-04T1700,3529A,118.6333,24.9264,泉州市,城华南路,,26,26,26,10,13,83,,93,93,6,4,4,4,0.5,0.4
2025-07-04T1700,2626A,88.8876,29.2718,日喀则市,日喀则监测站,,41,6,5,3,2,130,,118,118,7,6,14,13,0.3,0.3
2025-07-04T1700,3726A,88.8781,29.2426,日喀则市,林业技术推广中心,,40,7,8,3,1,126,,110,110,3,3,8,8,0.1,0.2
2025-07-04T1700,1659A,119.471,35.4209,日照市,监测站,臭氧1小时,83,31,39,21,25,186,,149,149,8,19,8,7,0.4,0.6
2025-07-04T1700,1660A,119.523,35.4216,日照市,市政府广场,臭氧1小时,83,61,44,28,23,186,,154,154,22,30,13,9,0.9,0.9
2025-07-04T1700,1661A,119.5587,35.4044,日照市,港务局,臭氧1小时,89,70,70,46,36,191,,159,159,24,38,7,7,0.9,0.9
2025-07-04T1700,3507A,119.5328,35.4625,日照市,职业技术学院,臭氧1小时,100,63,43,36,23,200,,167,167,25,22,7,7,0.8,0.8
2025-07-04T1700,3604A,119.3266,35.1044,日照市,岚山环保分局,臭氧1小时,92,36,33,21,17,193,,155,155,13,18,7,7,0.8,0.7
2025-07-04T1700,1835A,111.1922,34.7752,三门峡市,市政府,,40,30,28,6,11,126,,113,113,5,15,3,3,0.4,0.4
2025-07-04T1700,1836A,111.1587,34.7942,三门峡市,开发区,,46,28,26,10,12,146,,125,125,9,11,5,5,0.2,0.3
2025-07-04T1700,1838A,111.143,34.7955,三门峡市,风景区,,,,27,26,12,144,,124,124,5,7,4,3,0.5,0.3
2025-07-04T1700,3039A,111.1911,34.7829,三门峡市,三门峡市第一小学,,,47,27,,10,140,,118,118,9,14,5,3,0.4,0.4
2025-07-04T1700,3598A,111.1,34.7167,三门峡市,富达温泉假日酒店,,43,18,22,16,7,137,,124,124,6,11,7,7,0.4,0.4
2025-07-04T1700,2324A,117.6211,26.2625,三明市,三钢,,,,21,11,16,61,,72,72,4,8,4,5,0.5,0.5
2025-07-04T1700,2325A,117.635,26.2714,三明市,三明二中,,19,,17,9,10,58,,69,68,4,7,1,2,0.3,0.4
2025-07-04T1700,2326A,117.6028,26.2378,三明市,三元区政府,,20,15,21,10,8,63,,77,76,6,12,2,3,0.4,0.5
2025-07-04T1700,2327A,117.7275,26.3108,三明市,洋溪,,,,,,,,,,,,,,,,
2025-07-04T1700,1876A,109.5078,18.2489,三亚市,河东子站,,16,16,13,3,4,39,,46,46,8,8,2,2,0.5,0.5
2025-07-04T1700,1877A,109.4964,18.2681,三亚市,河西子站,,13,9,13,3,3,39,,48,48,8,7,2,2,0.4,0.4
2025-07-04T1700,3540A,109.7348,18.3443,三亚市,君悦子站,,14,6,16,3,5,44,,43,43,6,6,1,2,0.3,0.3
2025-07-04T1700,2624A,91.7608,29.2313,山南市,山南监测站,,34,6,5,3,3,107,,103,103,4,4,2,2,0.2,0.2
2025-07-04T1700,2625A,91.7706,29.2436,山南市,山南人民医院,,35,6,8,3,5,112,,104,104,1,3,4,4,0.2,0.2
2025-07-04T1700,1674A,116.6794,23.3667,汕头市,金平子站,,25,20,22,13,11,80,,77,77,5,8,3,4,0.6,0.6
2025-07-04T1700,1675A,116.7244,23.3633,汕头市,龙湖子站,,27,27,25,13,9,79,,75,75,4,5,6,6,0.5,0.5
2025-07-04T1700,1676A,116.7258,23.2775,汕头市,濠江子站,,35,35,26,10,11,80,,73,73,2,4,4,5,0.6,0.6
2025-07-04T1700,1677A,116.7519,23.4714,汕头市,澄海子站,,36,36,29,14,11,75,,81,81,4,7,2,4,0.5,0.5
2025-07-04T1700,1678A,116.6092,23.2539,汕头市,潮阳子站,,35,35,25,10,7,81,,80,80,2,3,4,5,0.4,0.5
2025-07-04T1700,3444A,116.454,23.2684,汕头市,潮南峡山,,40,30,25,28,13,67,,84,84,8,5,8,6,0.6,0.5
2025-07-04T1700,3624A,116.4069,23.2533,汕头市,潮南子站,,33,33,33,13,14,68,,83,83,4,7,4,5,0.4,0.5
2025-07-04T1700,1693A,115.3653,22.775,汕尾市,市环保局,,30,30,26,10,14,76,,97,97,14,10,4,3,0.5,0.5
2025-07-04T1700,1694A,115.3706,22.7898,汕尾市,市政府,,27,25,28,7,11,84,,102,102,8,9,4,4,0.5,0.5
2025-07-04T1700,1695A,115.3622,22.7925,汕尾市,新城中学,,31,31,32,9,15,80,,99,99,9,9,4,4,0.5,0.4
2025-07-04T1700,2645A,109.9154,33.8715,商洛市,监测站,,22,,22,11,11,70,,92,92,2,11,5,7,0.3,0.4
2025-07-04T1700,3045A,109.9643,33.8471,商洛市,商州区中学,,25,25,27,10,10,67,,81,81,4,14,4,4,0.3,0.4
2025-07-04T1700,2408A,115.6702,34.4285,商丘市,环境监测站,,44,24,23,9,11,140,,120,120,4,8,3,3,0.3,0.2
2025-07-04T1700,2409A,115.6458,34.4045,商丘市,粮食局,,46,19,20,8,13,147,,129,129,2,5,1,2,0.3,0.4
2025-07-04T1700,2410A,115.6293,34.3948,商丘市,睢阳区环保局,,43,20,37,10,11,135,,120,120,4,7,2,2,0.1,0.2
2025-07-04T1700,3171A,115.6071,34.4465,商丘市,梁园区档案局,,43,25,24,9,11,135,,119,119,4,8,1,1,0.4,0.4
2025-07-04T1700,1141A,121.4,31.238,上海市,普陀,臭氧1小时,74,41,32,25,15,179,,159,159,14,12,7,6,0.3,0.2
2025-07-04T1700,1142A,121.478,31.2036,上海市,十五厂,,47,42,31,24,15,148,,145,145,8,7,8,8,0.5,0.5
2025-07-04T1700,1143A,121.467,31.3008,上海市,虹口,,46,40,33,22,14,147,,147,147,9,10,9,9,0.5,0.6
2025-07-04T1700,1147A,121.425,31.2261,上海市,静安监测站,臭氧1小时,55,38,30,22,15,164,,155,155,14,14,6,5,0.7,0.5
2025-07-04T1700,1148A,121.703,31.1907,上海市,浦东川沙,臭氧1小时,53,38,33,19,13,162,,124,124,12,10,8,8,0.8,0.8
2025-07-04T1700,1149A,121.533,31.2284,上海市,浦东新区监测站,,46,30,29,16,10,146,,134,134,6,8,8,8,0.2,0.3
2025-07-04T1700,1150A,121.577,31.2071,上海市,浦东张江,,48,26,40,15,12,152,,133,133,9,10,6,6,0.7,0.7
2025-07-04T1700,3265A,121.4316,31.3322,上海市,宝山庙行,,,,32,,12,,,104,,,11,,6,,0.5
2025-07-04T1700,3266A,121.8791,31.4662,上海市,崇明上实东滩,,33,23,24,15,11,105,,122,122,9,11,2,3,0.7,0.7
2025-07-04T1700,3268A,121.3162,31.2838,上海市,嘉定南翔,臭氧1小时,64,36,36,24,14,171,,154,154,11,13,7,8,0.3,0.3
2025-07-04T1700,3269A,121.3359,30.7456,上海市,金山新城,臭氧1小时,57,38,30,20,14,165,,133,133,13,14,4,3,0.8,0.7
2025-07-04T1700,3270A,121.4996,31.0739,上海市,闵行浦江,,46,31,27,14,13,145,,126,126,6,7,4,4,0.7,0.6
2025-07-04T1700,3271A,121.2886,31.1663,上海市,青浦徐泾,,,,32,,14,159,,149,149,13,11,,6,0.4,0.4
2025-07-04T1700,3272A,121.2186,31.0378,上海市,松江图书馆,,50,32,23,18,13,160,,142,142,5,7,8,8,0.4,0.4
2025-07-04T1700,3273A,121.3902,31.2059,上海市,长宁仙霞,臭氧1小时,53,41,30,17,11,162,,142,142,16,13,6,6,0.4,0.3
