timepoint,stationcode,longitude,latitude,area,positionname,primarypollutant,aqi,pm10,pm10_24h,pm2_5,pm2_5_24h,o3,o3_24h,o3_8h,o3_8h_24h,no2,no2_24h,so2,so2_24h,co,co_24h
2025-01-01T1600,2566A,102.1879,31.914,阿坝藏族羌族自治州,州农科所,,25,20,29,3,8,77,,71,71,28,12,14,6,0.6,0.7
2025-01-01T1600,2568A,102.2502,31.8896,阿坝藏族羌族自治州,马师校,,25,6,14,3,16,80,,63,63,10,16,3,3,0.3,0.3
2025-01-01T1600,3994A,102.2165,31.9024,阿坝藏族羌族自治州,马尔康中学西区,,27,20,20,8,12,84,,68,68,7,11,5,5,0.4,0.5
2025-01-01T1600,2695A,80.292,41.1694,阿克苏地区,电视台,细颗粒物(PM2.5),108,108,135,81,96,72,,46,46,30,48,5,4,1.1,1.7
2025-01-01T1600,2696A,80.2613,41.1551,阿克苏地区,艺术中心,细颗粒物(PM2.5),125,160,156,95,103,60,,32,30,43,54,6,4,1.4,1.7
2025-01-01T1600,2204A,105.6467,38.8363,阿拉善盟,西城区西花园,,43,43,41,23,26,98,,89,87,10,13,8,11,0.7,0.7
2025-01-01T1600,2205A,105.6985,38.8411,阿拉善盟,蒙二幼,,41,41,41,12,16,91,,88,84,9,15,3,5,0.6,0.6
2025-01-01T1600,2206A,105.724,38.8516,阿拉善盟,环保局新楼,,31,31,24,11,11,92,,94,89,5,7,7,8,0.5,0.5
2025-01-01T1600,2708A,88.1264,47.8517,阿勒泰地区,市站,,23,23,41,13,32,62,,24,24,18,47,10,9,0.5,0.6
2025-01-01T1600,2630A,80.1161,32.5,阿里地区,阿里监测站,,27,27,14,8,8,79,,72,72,8,13,17,12,0.5,0.6
2025-01-01T1600,3192A,80.0903,32.5028,阿里地区,阿里藏医院,,25,15,17,7,9,80,,63,63,7,14,15,13,0.6,0.7
2025-01-01T1600,2642A,109.0318,32.6537,安康市,香溪洞,细颗粒物(PM2.5),79,64,61,58,48,88,,56,56,22,20,11,11,0.7,0.6
2025-01-01T1600,2644A,109.0072,32.6975,安康市,汉滨区检察院,细颗粒物(PM2.5),79,75,70,58,51,98,,53,53,22,32,8,6,0.8,0.8
2025-01-01T1600,4054A,109.0325,32.6913,安康市,市邮政管理局,细颗粒物(PM2.5),75,82,91,55,66,84,,48,48,27,43,8,8,0.7,1.1
2025-01-01T1600,2291A,117.0809,30.5177,安庆市,环科院,颗粒物(PM10),65,80,127,45,78,94,,52,52,28,44,10,10,0.6,0.9
2025-01-01T1600,2292A,117.0331,30.5119,安庆市,马山宾馆,细颗粒物(PM2.5),72,80,123,52,78,107,,71,71,32,47,10,11,0.6,0.8
2025-01-01T1600,2294A,116.9896,30.6145,安庆市,安庆大学,"颗粒物(PM10),细颗粒物(PM2.5)",75,100,138,55,90,113,,73,73,49,58,19,15,0.8,1.1
2025-01-01T1600,3173A,117.0598,30.5351,安庆市,市人大,细颗粒物(PM2.5),73,91,128,53,82,108,,69,69,44,61,11,10,0.6,0.9
2025-01-01T1600,3122A,105.9606,26.2611,安顺市,伍家关,,,,49,,40,,,95,,,14,,20,,1.1
2025-01-01T1600,3123A,105.9408,26.2431,安顺市,凤凰山,细颗粒物(PM2.5),52,44,49,36,42,84,,74,67,8,23,10,24,0.6,0.7
2025-01-01T1600,3124A,105.9439,26.2564,安顺市,金钟山,细颗粒物(PM2.5),54,45,49,38,40,84,,74,67,9,14,15,24,0.8,0.8
2025-01-01T1600,3125A,105.8983,26.2481,安顺市,娄家坡,细颗粒物(PM2.5),57,45,48,40,41,78,,72,66,10,13,8,15,0.7,0.7
2025-01-01T1600,1818A,114.4839,36.0621,安阳市,棉研所,颗粒物(PM10),146,242,174,105,87,60,,38,38,46,49,15,12,0.7,0.9
2025-01-01T1600,1819A,114.3551,36.1017,安阳市,红庙街,细颗粒物(PM2.5),129,188,158,98,90,56,,41,41,37,45,9,10,0.9,1.1
2025-01-01T1600,1820A,114.361,36.0681,安阳市,银杏小区,细颗粒物(PM2.5),129,189,156,98,87,56,,42,42,43,53,8,8,1.0,1.1
2025-01-01T1600,3141A,114.3922,36.0878,安阳市,信访局,细颗粒物(PM2.5),134,206,177,102,94,56,,40,40,44,54,7,8,0.9,1
2025-01-01T1600,3669A,114.4705,36.0637,安阳市,左辅环卫站,细颗粒物(PM2.5),140,217,179,107,93,60,,41,41,43,43,12,10,0.9,0.9
2025-01-01T1600,3703A,114.2917,36.0949,安阳市,安钢职工学校,细颗粒物(PM2.5),130,196,174,99,100,58,,42,42,46,48,10,12,0.8,1.3
2025-01-01T1600,1748A,123.044,41.1196,鞍山市,深沟寺,,35,35,46,10,22,56,,58,58,16,19,13,15,0.7,0.9
2025-01-01T1600,1749A,123.011,41.0931,鞍山市,太阳城,,33,33,42,20,20,65,,63,63,18,24,13,15,0.6,0.9
2025-01-01T1600,1750A,123.0485,41.1442,鞍山市,太平,,41,41,59,22,30,58,,54,54,20,30,14,17,0.7,1.1
2025-01-01T1600,1751A,122.9642,41.0971,鞍山市,铁西三道街,,46,46,49,31,24,60,,60,60,22,29,13,22,0.6,1.3
2025-01-01T1600,1752A,122.9341,41.0833,鞍山市,铁西工业园区,,43,43,53,28,28,65,,60,60,23,33,16,17,0.7,1
2025-01-01T1600,1753A,123.022,41.0821,鞍山市,明达新区,,36,36,42,21,20,62,,61,61,14,17,14,15,0.6,0.9
2025-01-01T1600,1754A,123.1289,41.0228,鞍山市,千山,,,,39,,17,,,44,,,19,,8,,0.4
2025-01-01T1600,2195A,107.4212,40.761,巴彦淖尔市,附二中,颗粒物(PM10),52,54,127,21,62,70,,55,55,12,40,4,10,0.3,0.7
2025-01-01T1600,2196A,107.37,40.7372,巴彦淖尔市,市环保大楼,颗粒物(PM10),56,62,101,22,46,70,,59,59,11,30,6,8,0.4,0.6
2025-01-01T1600,1956A,86.1472,41.7538,巴音郭楞蒙古自治州,孔雀公园,细颗粒物(PM2.5),70,80,101,51,67,63,,59,55,24,34,4,4,0.7,0.8
2025-01-01T1600,1957A,86.1972,41.7166,巴音郭楞蒙古自治州,棉纺厂,颗粒物(PM10),85,120,126,60,68,62,,46,45,32,51,5,3,0.8,0.9
2025-01-01T1600,1958A,86.2357,41.7173,巴音郭楞蒙古自治州,经济开发区,细颗粒物(PM2.5),90,85,87,67,63,72,,66,66,23,28,4,3,0.8,0.8
2025-01-01T1600,2914A,106.7677,31.8794,巴中市,苏山坪,细颗粒物(PM2.5),59,57,80,42,63,97,,84,69,17,15,3,3,0.4,0.5
2025-01-01T1600,3182A,106.7656,31.8545,巴中市,丽阳花园,细颗粒物(PM2.5),63,59,109,45,84,93,,46,46,25,43,4,3,0.6,0.9
2025-01-01T1600,3183A,106.7418,31.8654,巴中市,圣泉水务公司,细颗粒物(PM2.5),60,51,95,43,75,110,,69,69,14,40,4,3,0.3,0.7
2025-01-01T1600,3616A,106.7616,31.8344,巴中市,市中心医院,细颗粒物(PM2.5),82,,124,60,108,105,,52,52,17,42,4,3,0.4,0.8
2025-01-01T1600,2235A,122.7911,45.6077,白城市,洮北区环保局,,27,27,34,16,22,59,,60,60,21,18,8,6,0.5,0.5
2025-01-01T1600,2236A,122.8738,45.5725,白城市,市环保局,,20,19,39,9,24,64,,58,58,8,17,5,7,0.5,0.5
2025-01-01T1600,2231A,126.4219,41.9171,白山市,喜丰,,30,30,86,15,38,60,,47,47,14,33,13,18,0.7,1
2025-01-01T1600,2232A,126.4077,41.9419,白山市,环保局,颗粒物(PM10),51,52,107,10,71,61,,43,43,12,24,11,9,0.7,1.1
2025-01-01T1600,2647A,104.1724,36.5446,白银市,第三小学,,30,18,52,8,26,94,,67,67,14,38,14,40,0.5,0.9
2025-01-01T1600,2648A,104.1465,36.5482,白银市,动力公司,,31,31,44,17,34,94,,70,70,8,26,2,15,0.5,0.8
2025-01-01T1600,2512A,106.6103,23.9011,百色市,市监测站,细颗粒物(PM2.5),68,81,61,49,43,121,,61,61,20,26,24,15,1.2,1.1
2025-01-01T1600,2513A,106.6538,23.8859,百色市,市中心血站,细颗粒物(PM2.5),77,78,97,56,64,121,,62,62,17,40,15,20,1.1,1.2
2025-01-01T1600,3406A,106.6085,23.8798,百色市,祈福高中,,,96,73,51,43,119,,52,52,,31,24,13,1.1,1.2
2025-01-01T1600,2270A,117.396,32.939,蚌埠市,工人疗养院,颗粒物(PM10),64,78,111,38,60,112,,89,89,26,31,8,10,0.7,0.8
2025-01-01T1600,2271A,117.3605,32.9427,蚌埠市,百货大楼,颗粒物(PM10),65,80,121,37,68,106,,86,86,26,40,8,10,0.7,0.9
2025-01-01T1600,2273A,117.4185,32.8911,蚌埠市,蚌埠学院,颗粒物(PM10),60,70,136,36,77,115,,87,87,15,37,10,12,0.5,0.7
2025-01-01T1600,2274A,117.3533,32.9673,蚌埠市,淮上区政府,颗粒物(PM10),67,83,126,44,69,106,,81,81,21,38,11,12,0.6,0.7
2025-01-01T1600,2275A,117.3145,32.8977,蚌埠市,高新区,颗粒物(PM10),57,63,121,29,66,115,,90,90,21,38,10,13,0.6,0.8
2025-01-01T1600,3715A,117.3092,32.9314,蚌埠市,蚌埠田家炳中学,颗粒物(PM10),60,69,116,33,64,116,,91,91,19,30,9,12,0.6,0.9
2025-01-01T1600,1585A,109.8756,40.6532,包头市,市环境监测站,颗粒物(PM10),52,54,109,11,57,75,,68,68,12,50,8,29,0.4,1.5
2025-01-01T1600,1587A,109.9991,40.5842,包头市,包头八中,颗粒物(PM10),55,59,132,13,64,78,,50,50,10,58,5,18,0.5,1.6
2025-01-01T1600,1588A,109.8538,40.6821,包头市,青山宾馆,,37,37,110,14,67,76,,65,65,8,48,9,28,0.4,2
2025-01-01T1600,1589A,109.8642,40.6288,包头市,惠龙物流,颗粒物(PM10),61,72,120,13,59,73,,58,58,12,53,6,30,0.5,1.6
2025-01-01T1600,1590A,110.0377,40.5546,包头市,东河鸿龙湾,颗粒物(PM10),53,56,134,13,64,69,,44,44,12,53,11,20,0.5,1.6
2025-01-01T1600,3283A,109.9154,40.5685,包头市,滨河大厦,颗粒物(PM10),52,54,129,25,71,74,,48,48,14,57,8,23,0.4,1.7
2025-01-01T1600,3419A,109.9447,40.6261,包头市,包头市委党校,颗粒物(PM10),116,181,121,9,44,74,,56,56,12,66,7,18,0.3,1.4
2025-01-01T1600,3683A,109.8331,40.6576,包头市,昆区政府,颗粒物(PM10),55,59,128,16,76,72,,61,61,12,51,8,37,0.4,2
2025-01-01T1600,1930A,107.185,34.3063,宝鸡市,庙沟村,,34,34,66,22,53,105,,78,78,8,35,8,8,0.4,0.6
2025-01-01T1600,1931A,107.0708,34.3017,宝鸡市,竹园沟,,37,37,68,19,56,103,,69,69,10,31,8,7,0.4,0.6
2025-01-01T1600,1932A,107.1906,34.3672,宝鸡市,三陆医院,颗粒物(PM10),57,64,94,24,71,94,,58,58,20,44,6,7,0.4,0.8
2025-01-01T1600,1933A,107.1431,34.3547,宝鸡市,监测站,,,71,90,25,64,96,,52,52,19,48,8,8,,0.8
2025-01-01T1600,1934A,107.1186,34.3739,宝鸡市,技工学校,颗粒物(PM10),51,52,99,18,68,96,,58,58,18,34,6,8,0.4,0.7
2025-01-01T1600,1935A,107.3906,34.3528,宝鸡市,陈仓区环保局家属楼,,,51,116,18,83,91,,55,55,16,50,9,34,,1
2025-01-01T1600,1936A,107.2058,34.3497,宝鸡市,文理学院,,43,43,89,22,64,100,,61,61,15,41,7,7,0.5,0.7
2025-01-01T1600,1937A,107.2386,34.3622,宝鸡市,三迪小学,颗粒物(PM10),56,61,93,30,77,94,,53,53,19,51,8,8,0.4,0.7
2025-01-01T1600,1051A,115.493,38.8632,保定市,游泳馆,颗粒物(PM10),54,58,111,22,54,51,,37,37,26,54,5,5,0.7,0.7
2025-01-01T1600,1052A,115.5213,38.8959,保定市,华电二区,,47,47,97,30,62,50,,34,34,25,53,6,6,0.4,0.4
2025-01-01T1600,1053A,115.4713,38.9108,保定市,接待中心,颗粒物(PM10),54,58,97,22,54,50,,40,40,22,46,8,6,0.8,0.8
2025-01-01T1600,1054A,115.4612,38.8416,保定市,地表水厂,颗粒物(PM10),60,70,117,28,59,54,,41,41,28,56,7,7,0.7,0.6
2025-01-01T1600,3581A,115.31981,38.95208,保定市,满城区生态环境分局,颗粒物(PM10),58,66,111,24,53,57,,48,48,28,54,6,6,0.4,0.6
2025-01-01T1600,3582A,115.47694,38.76408,保定市,清苑区第二中学,颗粒物(PM10),66,82,156,30,70,46,,35,35,34,63,9,11,0.9,0.9
2025-01-01T1600,3583A,115.62909,39.02311,保定市,徐水物探局,,39,39,106,12,55,49,,33,33,22,50,5,9,0.5,0.7
2025-01-01T1600,4004A,115.4202,38.8656,保定市,双鹰农机,颗粒物(PM10),56,61,99,28,52,45,,42,42,23,49,9,4,0.8,0.5
2025-01-01T1600,4034A,115.5150,38.8590,保定市,植保所站,颗粒物(PM10),60,69,115,40,61,48,,33,33,26,53,10,9,0.8,0.8
2025-01-01T1600,2594A,99.1678,25.1081,保山市,市环境监测站,,28,22,26,3,15,87,,63,63,5,10,4,4,0.3,0.4
2025-01-01T1600,2595A,99.1711,25.1328,保山市,市环保局,,29,20,25,12,20,92,,67,67,3,6,5,6,0.4,0.5
2025-01-01T1600,1866A,109.2262,21.588,北海市,牛尾岭水库,细颗粒物(PM2.5),87,89,86,64,83,178,,117,117,17,22,9,7,0.7,0.7
2025-01-01T1600,1867A,109.1436,21.4086,北海市,海滩公园,细颗粒物(PM2.5),165,132,112,125,87,223,,150,150,32,24,14,13,1.4,1
2025-01-01T1600,1868A,109.0981,21.4661,北海市,新市环保局,臭氧1小时,93,96,100,68,81,194,,134,134,24,25,12,12,0.9,0.8
2025-01-01T1600,1869A,109.1778,21.5233,北海市,北海工业园,细颗粒物(PM2.5),119,114,114,90,93,196,,129,129,20,23,14,13,1.0,1
2025-01-01T1600,3400A,109.1911,21.4415,北海市,龙潭自来水厂,细颗粒物(PM2.5),97,86,101,72,95,176,,124,124,20,22,13,11,0.8,0.9
2025-01-01T1600,1001A,116.3621,39.8784,北京市,万寿西宫,,36,36,62,15,26,54,,50,50,24,51,5,4,0.3,0.4
2025-01-01T1600,1002A,116.2202,40.2915,北京市,定陵,,,,35,,17,,,35,,,50,,3,,0.3
2025-01-01T1600,1003A,116.4174,39.9289,北京市,东四,,36,36,63,14,27,48,,47,47,21,42,4,3,0.2,0.3
2025-01-01T1600,1004A,116.4072,39.8863,北京市,天坛,,33,33,58,19,29,60,,49,49,18,43,3,3,0.4,0.5
2025-01-01T1600,1005A,116.462,39.9365,北京市,农展馆,,34,34,55,14,24,63,,56,56,23,49,4,2,0.6,0.7
2025-01-01T1600,1006A,116.3392,39.9295,北京市,官园,,33,33,51,16,26,51,,50,50,22,42,5,5,0.5,0.5
2025-01-01T1600,1007A,116.2878,39.9611,北京市,海淀万柳,,34,34,54,15,23,57,,43,43,18,48,4,3,0.5,0.6
2025-01-01T1600,1008A,116.6636,40.135,北京市,顺义新城,,27,27,50,13,21,58,,57,57,16,37,2,2,0.3,0.4
2025-01-01T1600,1009A,116.6275,40.3275,北京市,怀柔镇,,24,24,39,11,19,60,,48,48,14,31,1,2,0.6,0.7
2025-01-01T1600,1010A,116.2296,40.217,北京市,昌平镇,,40,40,52,18,24,50,,37,37,26,42,3,3,0.5,0.7
2025-01-01T1600,1011A,116.3966,39.9821,北京市,奥体中心,,33,33,49,14,22,55,,48,48,19,39,5,5,0.7,0.7
2025-01-01T1600,1012A,116.184,39.9136,北京市,古城,,36,36,59,15,25,56,,49,49,19,41,7,7,0.6,0.7
2025-01-01T1600,3281A,115.9718,40.4529,北京市,延庆夏都,,50,50,85,28,39,52,,27,27,18,33,5,2,0.3,0.6
2025-01-01T1600,3417A,117.0709,40.1465,北京市,平谷新城,,27,27,64,13,31,61,,45,45,13,32,3,2,0.5,0.7
2025-01-01T1600,3418A,116.8336,40.4095,北京市,密云新城,,23,23,37,9,15,60,,58,58,10,21,2,2,0.2,0.3
2025-01-01T1600,3671A,116.088,39.9726,北京市,门头沟三家店,,40,40,60,14,25,45,,38,38,26,38,5,4,0.3,0.5
2025-01-01T1600,3672A,116.1541,39.8204,北京市,丰台云岗,,32,32,55,12,23,52,,40,40,17,40,4,4,0.5,0.5
2025-01-01T1600,3673A,116.6804,39.9081,北京市,通州东关,,43,43,81,20,36,49,,34,34,23,57,6,5,0.7,0.9
2025-01-01T1600,3674A,115.9577,39.7603,北京市,房山燕山,,33,33,48,12,23,59,,47,47,18,24,3,4,0.3,0.5
2025-01-01T1600,3675A,116.4672,39.7733,北京市,大兴旧宫,,36,36,75,17,34,52,,37,37,17,52,3,2,0.4,0.6
2025-01-01T1600,3694A,115.986,40.4563,北京市,延庆石河营,,50,50,122,28,38,52,,28,28,17,33,3,3,0.4,0.8
2025-01-01T1600,3695A,116.6151,40.3053,北京市,怀柔新城,,26,26,38,10,20,59,,47,47,10,22,1,2,0.1,0.3
2025-01-01T1600,3696A,116.2545,39.8768,北京市,丰台小屯,,32,32,58,16,25,48,,43,43,22,55,6,5,0.4,0.6
2025-01-01T1600,3697A,116.84,40.3844,北京市,密云镇,,27,27,46,11,20,60,,58,58,9,30,1,3,0.2,0.4
2025-01-01T1600,1761A,123.8275,41.3064,本溪市,大峪,,,27,44,19,25,62,,53,53,,27,13,14,0.7,1
2025-01-01T1600,1762A,123.7567,41.3325,本溪市,溪湖,,32,32,53,11,24,64,,53,53,13,34,13,19,0.5,1.3
2025-01-01T1600,1763A,123.7169,41.3094,本溪市,彩屯,,28,24,46,19,30,58,,54,54,21,28,9,12,0.4,0.8
2025-01-01T1600,1764A,123.7669,41.2864,本溪市,东明,,34,34,41,14,22,60,,54,54,22,29,12,12,0.7,0.7
2025-01-01T1600,1765A,123.7992,41.2664,本溪市,新立屯,,35,35,35,12,20,55,,56,56,26,31,9,8,0.7,0.6
2025-01-01T1600,1766A,123.8142,41.3472,本溪市,威宁,,35,30,70,24,28,67,,49,49,17,36,6,5,0.4,0.9
2025-01-01T1600,2587A,105.2864,27.3125,毕节市,八中,细颗粒物(PM2.5),74,65,64,54,54,111,,60,60,21,18,23,12,0.7,0.8
2025-01-01T1600,2588A,105.31,27.2944,毕节市,师专,细颗粒物(PM2.5),87,74,99,64,90,101,,53,53,23,26,33,13,0.7,0.8
2025-01-01T1600,3537A,105.3631,27.3533,毕节市,长征村,细颗粒物(PM2.5),64,53,43,46,37,116,,74,74,12,9,15,12,0.9,0.7
2025-01-01T1600,1629A,118.0018,37.3617,滨州市,第二水厂,颗粒物(PM10),111,171,162,83,76,81,,55,55,40,66,24,20,0.7,0.9
2025-01-01T1600,1630A,117.9776,37.393,滨州市,北中新校,细颗粒物(PM2.5),134,197,165,102,77,94,,57,57,46,71,23,18,1.3,1.4
2025-01-01T1600,3514A,117.9378,37.3956,滨州市,中海酒店,细颗粒物(PM2.5),110,166,141,83,72,93,,61,61,31,54,23,11,0.8,0.9
2025-01-01T1600,3515A,117.9378,37.3553,滨州市,开发区一中,颗粒物(PM10),114,178,157,75,72,86,,65,65,41,66,26,20,0.8,0.8
2025-01-01T1600,3516A,118.0917,37.694,滨州市,金海六路,颗粒物(PM10),116,181,161,78,76,72,,54,54,34,66,15,23,0.9,1.3
2025-01-01T1600,4028A,117.9956,37.3753,滨州市,滨州市西街道办事处,细颗粒物(PM2.5),138,188,162,105,83,75,,52,52,43,62,23,19,1.4,1.5
2025-01-01T1600,2311A,115.8072,33.8399,亳州市,污水处理厂,,,94,133,54,73,113,,82,82,,30,,6,0.7,0.8
2025-01-01T1600,2312A,115.7789,33.8518,亳州市,三国揽胜宫,颗粒物(PM10),73,96,146,42,77,123,,91,91,25,33,6,7,0.6,0.8
2025-01-01T1600,3332A,115.7633,33.8034,亳州市,亳州学院,颗粒物(PM10),69,87,136,44,76,124,,91,91,21,27,5,6,0.5,0.7
2025-01-01T1600,2693A,82.0485,44.8556,博尔塔拉蒙古自治州,市党校,细颗粒物(PM2.5),127,129,112,96,88,39,,30,30,34,32,23,11,1.7,1.5
2025-01-01T1600,2694A,82.0806,44.8969,博尔塔拉蒙古自治州,市环保局,细颗粒物(PM2.5),118,137,134,89,79,47,,29,29,34,38,14,9,1.8,1.8
2025-01-01T1600,1071A,116.8842,38.2991,沧州市,沧县城建局,颗粒物(PM10),99,148,175,70,95,38,,30,30,47,66,17,15,0.9,1
2025-01-01T1600,1072A,116.8584,38.3254,沧州市,电视转播站,颗粒物(PM10),104,157,175,73,90,41,,33,33,54,69,22,18,0.9,1
2025-01-01T1600,1073A,116.8709,38.3228,沧州市,市环保局,细颗粒物(PM2.5),102,132,160,76,92,41,,30,30,43,61,20,12,0.9,1
2025-01-01T1600,3324A,116.8136,38.3004,沧州市,河北水利电力学院,细颗粒物(PM2.5),117,161,193,88,84,40,,30,30,45,59,27,20,0.9,0.8
2025-01-01T1600,2622A,97.1806,31.1273,昌都市,昌都监测站,,24,15,25,10,16,76,,64,64,14,17,6,6,0.7,0.7
2025-01-01T1600,3719A,97.1714,31.1406,昌都市,昌都会议中心,,25,10,8,7,9,78,,64,64,7,6,6,5,0.7,0.7
2025-01-01T1600,2690A,88.1236,43.8886,昌吉回族自治州,天山天池,,28,6,2,3,2,89,,88,88,2,2,7,7,0.4,0.4
2025-01-01T1600,2692A,87.2717,44.0297,昌吉回族自治州,新区政务中心,细颗粒物(PM2.5),234,234,219,184,151,50,,21,21,49,64,8,8,2.0,2
2025-01-01T1600,3613A,87.3095,44.0142,昌吉回族自治州,亚心广场,细颗粒物(PM2.5),265,256,224,215,181,59,,30,30,47,69,9,9,2.0,2
2025-01-01T1600,1119A,125.3325,43.9166,长春市,食品厂,,28,23,38,19,21,48,,48,48,20,23,10,10,0.3,0.4
2025-01-01T1600,1120A,125.2863,43.9027,长春市,客车厂,,20,15,39,14,26,52,,47,47,14,24,8,16,0.3,0.4
2025-01-01T1600,1121A,125.2841,43.8463,长春市,邮电学院,,,17,38,10,22,57,,50,50,,21,12,22,,0.4
2025-01-01T1600,1122A,125.3716,43.8772,长春市,劳动公园,,20,18,42,11,20,61,,54,54,12,21,12,13,0.2,0.4
2025-01-01T1600,1123A,125.3297,43.8805,长春市,园林处,,22,16,36,15,20,55,,49,49,10,18,11,13,0.3,0.5
2025-01-01T1600,1124A,125.4605,43.79,长春市,净月潭,,20,18,31,10,17,61,,53,53,7,12,8,8,0.2,0.3
2025-01-01T1600,1125A,125.7194,43.515,长春市,甩湾子,,,,,,,,,,,,,,,,
2025-01-01T1600,1126A,125.3863,43.8447,长春市,经开区环卫处,,19,18,44,13,21,52,,48,48,15,22,20,16,0.4,0.5
2025-01-01T1600,1127A,125.245,43.7783,长春市,高新区管委会,,,,37,,22,57,,54,54,10,16,,9,0.4,0.5
2025-01-01T1600,1128A,125.1761,43.8325,长春市,岱山公园,,20,16,38,10,23,61,,56,56,8,21,7,8,0.4,0.5
2025-01-01T1600,1335A,113.0833,28.2325,长沙市,经开区环保局,,,92,160,66,101,,,79,79,21,54,8,8,0.6,0.9
2025-01-01T1600,1336A,112.8872,28.2189,长沙市,高开区环保局,细颗粒物(PM2.5),122,100,246,92,166,135,,82,82,23,61,12,9,0.9,1.3
2025-01-01T1600,1337A,113.0792,28.2053,长沙市,马坡岭,细颗粒物(PM2.5),100,86,163,75,123,144,,88,88,23,64,8,6,0.6,1
2025-01-01T1600,1338A,112.9394,28.19,长沙市,湖南师范大学,细颗粒物(PM2.5),107,111,142,80,96,135,,82,82,27,48,14,9,1.0,1
2025-01-01T1600,1339A,113.0178,28.1322,长沙市,雨花区环保局,细颗粒物(PM2.5),100,92,133,75,85,133,,86,86,29,65,11,10,0.8,0.9
2025-01-01T1600,1340A,112.9792,28.2597,长沙市,伍家岭,细颗粒物(PM2.5),103,103,192,77,124,136,,78,78,28,59,8,6,0.7,1.1
2025-01-01T1600,1341A,113.0014,28.1944,长沙市,火车新站,细颗粒物(PM2.5),92,93,233,68,152,137,,80,80,28,71,8,7,0.7,1.3
2025-01-01T1600,1342A,112.9844,28.1178,长沙市,天心区环保局,细颗粒物(PM2.5),109,109,153,82,102,140,,94,94,28,64,6,6,0.9,1.3
2025-01-01T1600,1343A,112.8908,28.1308,长沙市,湖南中医药大学,细颗粒物(PM2.5),115,126,149,87,108,135,,81,81,36,67,14,8,0.8,0.9
2025-01-01T1600,1344A,112.9581,28.3611,长沙市,沙坪,颗粒物(PM10),103,156,86,62,75,131,,91,91,26,28,11,9,0.7,0.3
2025-01-01T1600,1727A,113.1147,36.1547,长治市,清华站,,,53,74,,44,90,,48,48,24,38,15,24,0.7,1
2025-01-01T1600,1728A,113.1031,36.1989,长治市,监测站,,43,43,79,24,54,98,,52,52,19,41,13,21,0.9,1.2
2025-01-01T1600,1730A,113.0886,36.2125,长治市,审计局,,43,43,79,24,51,99,,53,53,24,47,16,22,0.8,1
2025-01-01T1600,1731A,113.0844,36.1856,长治市,长治八中,细颗粒物(PM2.5),60,53,90,43,57,98,,50,50,18,42,13,22,0.6,1
2025-01-01T1600,2845A,113.1569,36.1911,长治市,德盛苑,,48,48,71,27,40,93,,57,57,22,30,12,18,0.9,1.1
2025-01-01T1600,3568A,113.06,36.0464,长治市,向阳小学,颗粒物(PM10),55,60,76,29,40,94,,65,65,26,26,15,29,0.6,0.9
2025-01-01T1600,3569A,112.8792,36.3144,长治市,屯留一中,颗粒物(PM10),53,55,55,26,33,88,,55,55,35,48,19,22,0.8,1.1
2025-01-01T1600,3570A,113.235,36.3489,长治市,潞城四中,细颗粒物(PM2.5),74,79,97,54,55,90,,63,63,33,46,33,36,1.6,1.8
2025-01-01T1600,1854A,111.6975,28.9703,常德市,市二中,细颗粒物(PM2.5),94,76,113,70,97,125,,75,75,20,32,8,6,0.7,0.8
2025-01-01T1600,1857A,111.7158,29.1456,常德市,白鹤山,,,,,,,,,,,,,,,,
2025-01-01T1600,3138A,111.7153,29.0289,常德市,武陵区永安,细颗粒物(PM2.5),92,89,144,68,108,130,,80,80,13,36,6,5,0.7,1
2025-01-01T1600,3139A,111.6892,28.9881,常德市,鼎城区玉霞,细颗粒物(PM2.5),94,92,130,70,101,124,,70,70,16,36,8,5,0.6,0.9
2025-01-01T1600,3140A,111.6625,29.0531,常德市,武陵区长庚,细颗粒物(PM2.5),97,92,143,72,109,122,,81,81,21,39,4,4,0.6,1
2025-01-01T1600,1196A,119.9633,31.762,常州市,市监测站,颗粒物(PM10),69,88,125,44,73,86,,69,69,35,73,10,11,0.8,1.2
2025-01-01T1600,1200A,119.9468,31.7069,常州市,武进监测站,颗粒物(PM10),65,80,111,39,68,96,,84,84,25,65,8,10,0.6,1
2025-01-01T1600,1201A,119.9255,31.9087,常州市,安家,颗粒物(PM10),71,91,117,43,72,93,,67,67,31,70,10,11,0.9,0.9
2025-01-01T1600,3002A,119.9805,31.8174,常州市,行政中心,颗粒物(PM10),64,78,97,45,63,85,,66,66,27,63,13,13,0.8,0.8
2025-01-01T1600,3003A,120.0522,31.7748,常州市,经开区,颗粒物(PM10),76,102,122,37,67,90,,72,72,32,68,12,19,0.8,1
2025-01-01T1600,3010A,119.9025,31.7964,常州市,钟楼,,,78,105,34,62,95,,75,75,28,67,,10,0.7,1.1
2025-01-01T1600,3429A,119.8598,31.7066,常州市,武进经发区,,,91,162,47,97,101,,94,94,24,73,6,10,,1
2025-01-01T1600,3430A,119.5826,31.7245,常州市,金坛城区,颗粒物(PM10),60,70,131,38,85,111,,81,81,12,45,8,11,0.5,0.9
2025-01-01T1600,2220A,120.4318,41.5881,朝阳市,西梁,,29,29,45,10,23,68,,50,50,7,17,5,7,0.7,0.9
2025-01-01T1600,2221A,120.4521,41.5646,朝阳市,河畔小区,,23,18,40,10,20,72,,57,57,8,22,6,8,0.6,0.8
2025-01-01T1600,2222A,120.4176,41.5648,朝阳市,八里堡,,25,25,50,9,25,65,,48,48,10,23,10,13,0.2,0.5
2025-01-01T1600,2223A,120.3806,41.5969,朝阳市,农业园区,,23,22,40,16,26,72,,56,52,9,16,9,11,0.6,0.7
2025-01-01T1600,1705A,116.6367,23.6719,潮州市,西园路,细颗粒物(PM2.5),58,58,68,41,47,104,,82,82,20,23,17,9,0.2,0.3
2025-01-01T1600,3026A,116.6183,23.6608,潮州市,市政府,"颗粒物(PM10),细颗粒物(PM2.5)",53,56,61,37,36,100,,82,82,24,23,12,7,0.4,0.4
2025-01-01T1600,4036A,116.6461,23.6761,潮州市,金山,细颗粒物(PM2.5),54,52,59,38,42,98,,77,77,21,22,17,9,0.6,0.6
2025-01-01T1600,2472A,113.0073,25.9061,郴州市,马头岭,颗粒物(PM10),65,80,105,44,64,120,,90,90,23,28,12,11,0.8,0.9
2025-01-01T1600,2473A,113.0116,25.8226,郴州市,市职中,细颗粒物(PM2.5),85,75,101,63,81,131,,91,91,22,37,10,7,0.7,1.1
2025-01-01T1600,2474A,113.0161,25.8001,郴州市,兴隆步行街,细颗粒物(PM2.5),95,96,117,71,88,123,,86,86,30,44,11,7,0.9,1
2025-01-01T1600,2475A,113.0383,25.8071,郴州市,市审计局,细颗粒物(PM2.5),97,84,103,72,84,120,,93,93,28,42,10,7,0.9,1.4
2025-01-01T1600,2476A,113.0348,25.7759,郴州市,市环保局,细颗粒物(PM2.5),92,83,112,68,89,112,,81,81,33,49,18,8,0.9,1
2025-01-01T1600,1431A,103.9728,30.7236,成都市,金泉两河,细颗粒物(PM2.5),100,88,112,75,90,119,,69,69,28,62,5,4,0.6,1.6
2025-01-01T1600,1432A,104.176,30.6872,成都市,十里店,细颗粒物(PM2.5),92,97,123,68,98,122,,65,65,26,55,4,5,0.5,0.6
2025-01-01T1600,1433A,104.079,30.5706,成都市,三瓦窑,细颗粒物(PM2.5),109,103,123,82,96,114,,54,54,26,61,2,3,0.7,1
2025-01-01T1600,1434A,104.1114,30.63,成都市,沙河铺,细颗粒物(PM2.5),100,97,113,75,91,118,,60,60,31,67,2,2,0.5,0.6
2025-01-01T1600,1437A,104.0786,30.6531,成都市,君平街,细颗粒物(PM2.5),94,81,103,70,83,115,,60,60,25,61,5,6,0.6,0.9
2025-01-01T1600,1438A,103.613,31.0283,成都市,灵岩寺,,,,,,,,,,,,,,,,
2025-01-01T1600,2880A,104.0239,30.65639,成都市,大石西路,细颗粒物(PM2.5),100,93,105,75,80,116,,62,62,26,56,6,5,0.7,1
2025-01-01T1600,3136A,104.2725,30.5589,成都市,龙泉驿区区政府,细颗粒物(PM2.5),107,105,112,80,89,117,,72,72,26,29,5,5,0.8,0.8
2025-01-01T1600,3357A,104.0106,30.6931,成都市,金博路,细颗粒物(PM2.5),99,81,134,74,97,107,,56,56,26,59,4,3,0.8,1.1
2025-01-01T1600,3359A,104.0578,30.5225,成都市,华阳,细颗粒物(PM2.5),92,92,118,68,95,109,,45,45,26,62,2,2,0.7,1
2025-01-01T1600,3487A,104.2394,30.5319,成都市,车城东七路,细颗粒物(PM2.5),123,112,117,93,94,122,,65,65,17,45,4,4,0.7,0.7
2025-01-01T1600,3488A,104.3853,30.7453,成都市,青白江技师分院,细颗粒物(PM2.5),109,92,82,82,71,136,,80,80,18,38,1,2,0.4,0.4
2025-01-01T1600,3489A,104.0789,30.4072,成都市,科学城,细颗粒物(PM2.5),142,125,107,108,88,125,,46,46,19,44,5,5,0.7,0.7
2025-01-01T1600,4011A,103.8506,30.6947,成都市,光华大道三段,细颗粒物(PM2.5),94,85,131,70,97,116,,66,66,21,52,2,2,0.6,1
2025-01-01T1600,1062A,117.9531,40.9081,承德市,铁路,,47,47,79,13,46,41,,33,33,28,44,8,11,0.5,1
2025-01-01T1600,1063A,117.9392,40.9763,承德市,中国银行,颗粒物(PM10),58,65,68,17,43,45,,37,37,27,46,4,3,0.4,0.7
2025-01-01T1600,1064A,117.9503,40.928,承德市,开发区,,38,38,70,12,40,52,,49,49,22,35,6,8,0.5,0.9
2025-01-01T1600,1065A,117.8051,40.9655,承德市,文化中心,,50,50,91,3,41,58,,37,37,17,43,4,10,0.3,0.8
2025-01-01T1600,1066A,117.9268,41.0026,承德市,离宫,颗粒物(PM10),56,61,46,27,31,39,,41,41,27,23,8,6,0.4,0.4
2025-01-01T1600,2314A,117.47,30.6618,池州市,池州学院,颗粒物(PM10),66,82,133,45,86,114,,66,66,20,44,7,8,0.5,0.9
2025-01-01T1600,3237A,117.4918,30.6617,池州市,展览馆,颗粒物(PM10),57,63,118,32,78,109,,66,66,19,42,8,7,0.6,1
2025-01-01T1600,3333A,117.5627,30.695,池州市,第八中学,颗粒物(PM10),58,65,128,38,82,115,,70,70,22,39,7,6,0.4,0.9
2025-01-01T1600,3334A,117.5038,30.6243,池州市,第十二中学,细颗粒物(PM2.5),67,75,127,48,88,114,,69,69,27,49,10,5,0.4,1.1
2025-01-01T1600,1744A,118.9233,42.2816,赤峰市,松山一中,,27,27,33,12,14,39,,40,40,38,27,15,13,0.8,0.7
2025-01-01T1600,1745A,118.9576,42.2728,赤峰市,哈达街,,21,21,51,8,22,47,,54,46,29,26,9,10,0.7,0.7
2025-01-01T1600,1746A,118.8788,42.2554,赤峰市,天义路,,16,16,24,11,13,47,,48,46,23,19,10,9,0.8,0.6
2025-01-01T1600,3058A,119.2658,42.0353,赤峰市,银河街,,42,42,38,28,20,40,,43,43,27,19,31,18,0.8,0.7
2025-01-01T1600,3286A,118.9359,42.3147,赤峰市,桥北物流园区,,39,39,23,26,14,28,,48,42,46,26,14,11,0.9,0.8
2025-01-01T1600,2521A,107.3476,22.4136,崇左市,市环保局江州分局,细颗粒物(PM2.5),70,76,130,51,79,153,,99,99,14,34,7,6,0.3,0.6
2025-01-01T1600,2522A,107.3702,22.3707,崇左市,城南新区,细颗粒物(PM2.5),69,83,120,50,84,158,,96,96,14,37,8,6,0.7,1.1
2025-01-01T1600,2298A,118.3093,32.3153,滁州市,老年大学,细颗粒物(PM2.5),77,99,134,56,87,69,,36,36,54,62,10,7,0.7,0.9
2025-01-01T1600,2299A,118.3244,32.2786,滁州市,人大宾馆,细颗粒物(PM2.5),90,103,132,67,88,67,,40,40,56,67,13,11,0.6,1
2025-01-01T1600,3207A,118.3118,32.3038,滁州市,市政府原办公楼,细颗粒物(PM2.5),85,95,140,63,99,64,,35,35,58,69,10,8,1.0,1.5
2025-01-01T1600,3331A,118.3267,32.2634,滁州市,图书馆,,,,129,,69,65,,40,40,,60,8,9,,1
2025-01-01T1600,2605A,101.5482,25.0441,楚雄彝族自治州,州环境监测站,,28,20,45,11,36,89,,61,61,4,21,5,9,0.4,0.6
2025-01-01T1600,2606A,101.538,25.0492,楚雄彝族自治州,市经济开发区,,28,11,43,11,34,89,,60,60,6,22,6,8,0.4,0.6
2025-01-01T1600,2548A,107.5277,31.2827,达州市,达州职业技术学院,细颗粒物(PM2.5),130,122,143,99,131,78,,69,69,26,36,11,6,1.3,1.1
2025-01-01T1600,2549A,107.5086,31.2186,达州市,市环境监测站,细颗粒物(PM2.5),122,129,150,92,118,54,,38,38,69,60,9,7,1.2,1.4
2025-01-01T1600,2550A,107.4988,31.2132,达州市,凤凰小区,细颗粒物(PM2.5),125,117,147,95,121,69,,50,50,53,57,10,9,1.1,1.3
2025-01-01T1600,2551A,107.5082,31.1986,达州市,达县机关宾馆,细颗粒物(PM2.5),94,124,154,70,119,52,,36,36,70,64,8,8,1.3,1.6
2025-01-01T1600,2552A,107.4644,31.2124,达州市,市政中心,细颗粒物(PM2.5),110,119,158,83,123,64,,29,29,60,73,25,16,1.9,2.1
2025-01-01T1600,2614A,100.1542,25.7054,大理白族自治州,大理市环境监测站,,28,12,18,9,14,89,,77,77,5,8,7,7,0.5,0.5
2025-01-01T1600,2615A,100.2171,25.5811,大理白族自治州,大理古城,,30,17,24,7,18,96,,76,76,6,11,5,5,0.4,0.5
2025-01-01T1600,1109A,121.612,38.9741,大连市,甘井子,,38,38,41,16,20,63,,59,59,23,27,9,9,0.3,0.4
2025-01-01T1600,1110A,121.565,38.9511,大连市,周水子,,43,43,46,18,23,58,,47,47,26,34,16,11,0.5,0.6
2025-01-01T1600,1111A,121.5637,38.8845,大连市,星海三站,,38,38,46,17,19,57,,55,55,21,20,12,12,0.3,0.3
2025-01-01T1600,1112A,121.6302,38.9117,大连市,青泥洼桥,,38,38,43,17,22,47,,53,53,27,23,13,14,0.3,0.5
2025-01-01T1600,1113A,121.6251,38.8638,大连市,傅家庄,,37,37,44,17,21,67,,63,63,16,17,12,14,0.4,0.6
2025-01-01T1600,1114A,121.5213,38.8661,大连市,七贤岭,,34,34,39,14,17,66,,59,59,16,19,13,12,0.6,0.6
2025-01-01T1600,1115A,121.2529,38.8061,大连市,旅顺,,23,23,34,13,17,68,,70,70,16,18,11,11,0.6,0.6
2025-01-01T1600,1116A,121.7485,39.1311,大连市,金州,,23,22,43,11,22,73,,67,67,10,19,10,10,0.5,0.7
2025-01-01T1600,1117A,121.7811,39.0496,大连市,开发区,,29,29,45,15,25,62,,66,66,18,22,14,13,0.5,0.6
2025-01-01T1600,1118A,121.9762,39.0631,大连市,双D港,,27,19,37,13,19,84,,77,77,8,15,8,10,0.7,0.7
2025-01-01T1600,1789A,124.81117,46.03138,大庆市,大同区,细颗粒物(PM2.5),63,53,102,45,87,48,,36,36,18,38,6,9,0.5,0.9
2025-01-01T1600,1790A,125.129,46.533,大庆市,龙凤区,"颗粒物(PM10),细颗粒物(PM2.5)",67,83,132,48,96,37,,30,30,44,54,8,8,0.8,1.1
2025-01-01T1600,1791A,124.902,46.408,大庆市,红岗区,细颗粒物(PM2.5),59,56,104,42,84,44,,33,33,26,45,9,9,0.6,0.9
2025-01-01T1600,1792A,125.153,46.586,大庆市,萨尔图区,细颗粒物(PM2.5),70,60,132,51,109,29,,28,28,62,65,10,7,0.6,1
2025-01-01T1600,1793A,124.9042,46.6215,大庆市,让胡路区,细颗粒物(PM2.5),62,54,110,44,94,52,,46,46,24,46,8,7,0.5,0.9
2025-01-01T1600,3481A,125.141,46.634,大庆市,萨区政府监测点,细颗粒物(PM2.5),64,68,128,46,96,41,,32,32,35,45,6,5,0.7,1.1
2025-01-01T1600,1721A,113.3819,40.1097,大同市,果树场,,47,47,85,26,49,75,,50,50,20,46,11,14,0.5,1.1
2025-01-01T1600,1723A,113.2994,40.0758,大同市,云冈宾馆,,48,48,95,17,46,71,,42,42,19,44,17,29,0.5,1.7
2025-01-01T1600,1724A,113.3444,40.0917,大同市,大同大学,,45,45,81,20,40,66,,43,43,17,39,16,30,0.7,1.1
2025-01-01T1600,1725A,113.2661,40.1269,大同市,安家小村,颗粒物(PM10),51,52,98,23,42,70,,43,43,14,39,20,32,0.5,1.8
2025-01-01T1600,1726A,113.2711,40.0844,大同市,教育学院,,48,48,121,15,59,65,,38,38,22,54,14,30,0.5,1.6
2025-01-01T1600,3282A,113.3397,40.0597,大同市,大同市卫生学校,颗粒物(PM10),53,56,106,18,48,62,,38,38,23,45,14,28,0.7,1.2
2025-01-01T1600,3565A,113.1367,40.1122,大同市,云冈站,,43,43,100,15,40,78,,49,49,13,43,11,31,0.5,0.9
2025-01-01T1600,3566A,113.1186,40.2556,大同市,图书馆,,45,45,81,23,44,70,,47,47,19,26,12,18,0.6,1
2025-01-01T1600,3567A,113.5931,40.0461,大同市,区一中,,,54,86,,32,70,,45,45,16,33,18,23,0.6,1
2025-01-01T1600,3676A,113.2802,40.0995,大同市,第二人民医院,颗粒物(PM10),54,57,111,25,49,69,,43,43,21,46,19,29,0.5,1.5
2025-01-01T1600,2269A,124.1069,50.4097,大兴安岭地区,科技局,,23,23,27,16,21,52,,52,52,10,10,7,7,0.5,0.5
2025-01-01T1600,3663A,124.1164,50.4278,大兴安岭地区,红旗社区,,17,17,47,9,34,40,,38,38,15,31,3,6,0.6,0.8
2025-01-01T1600,1600A,124.3303,40.0625,丹东市,江湾东路,,32,32,57,16,41,64,,54,54,10,26,15,21,0.7,1.4
2025-01-01T1600,1601A,124.4256,40.1503,丹东市,临江后街,,32,,62,22,40,62,,54,54,14,26,7,11,0.6,1
2025-01-01T1600,1602A,124.3933,40.1461,丹东市,元宝山,,23,23,43,15,24,58,,46,46,10,19,8,10,0.8,1
2025-01-01T1600,1603A,124.3633,40.1092,丹东市,民主桥,,31,31,47,12,27,55,,51,51,19,27,10,12,0.8,1
2025-01-01T1600,3541A,109.5726,19.5167,儋州市,第一中学子站,颗粒物(PM10),53,55,66,36,46,156,,127,127,13,15,8,7,0.7,0.8
2025-01-01T1600,3542A,109.5567,19.5187,儋州市,东坡学校子站,臭氧1小时,73,50,65,39,49,178,,144,144,15,16,8,8,0.7,0.8
2025-01-01T1600,2616A,98.5842,24.428,德宏傣族景颇族自治州,德宏州监测站,,48,48,64,28,41,94,,55,55,14,24,14,9,0.4,0.6
2025-01-01T1600,3677A,98.5881,24.4368,德宏傣族景颇族自治州,芒市人民政府综合楼,颗粒物(PM10),51,52,52,22,33,86,,52,52,13,16,12,6,0.4,0.6
2025-01-01T1600,1901A,104.4239,31.1208,德阳市,东山公园,细颗粒物(PM2.5),98,88,93,73,78,121,,92,92,19,26,3,3,0.7,0.7
2025-01-01T1600,1902A,104.3826,31.1317,德阳市,西小区,细颗粒物(PM2.5),103,99,124,77,98,116,,65,65,18,56,3,3,0.6,0.8
2025-01-01T1600,1904A,104.3553,31.1091,德阳市,耐火材料厂,细颗粒物(PM2.5),97,77,109,72,99,120,,68,68,14,51,5,5,0.6,0.8
2025-01-01T1600,3639A,104.4019,31.1244,德阳市,市教育局,细颗粒物(PM2.5),100,88,99,75,87,121,,73,73,17,55,5,5,0.6,0.8
2025-01-01T1600,1622A,116.3032,37.4674,德州市,儿童乐园,细颗粒物(PM2.5),140,195,198,107,90,85,,56,56,46,48,18,16,1.0,1.1
2025-01-01T1600,1624A,116.2991,37.4451,德州市,监理站,细颗粒物(PM2.5),149,185,183,114,89,90,,61,61,50,49,23,22,1.0,0.9
2025-01-01T1600,3066A,116.2721,37.4379,德州市,九衢泉纯净水厂,细颗粒物(PM2.5),132,183,190,100,88,90,,58,58,51,53,20,19,1.0,0.9
2025-01-01T1600,3371A,116.3728,37.4403,德州市,开发区人民医院,细颗粒物(PM2.5),138,180,196,105,91,91,,58,58,38,53,18,18,0.9,1
2025-01-01T1600,3372A,116.3572,37.4094,德州市,太阳城中学,细颗粒物(PM2.5),144,180,196,110,98,88,,60,60,48,57,18,19,1.0,0.9
2025-01-01T1600,3511A,116.5652,37.3319,德州市,陵城艺术中心,细颗粒物(PM2.5),125,173,189,95,89,96,,57,57,33,46,19,20,1.0,1.1
2025-01-01T1600,2621A,99.7056,27.8317,迪庆藏族自治州,迪庆州站,,28,16,28,13,22,88,,76,76,7,12,7,8,0.4,0.6
2025-01-01T1600,3180A,99.7136,27.8094,迪庆藏族自治州,质量技术监督局,,27,15,27,3,18,84,,68,68,7,12,6,6,0.3,0.5
2025-01-01T1600,2663A,104.6241,35.5734,定西市,东关小学,,33,33,81,6,34,75,,42,42,6,32,7,22,0.4,1.5
2025-01-01T1600,2664A,104.6194,35.5934,定西市,供电公司,,41,41,84,14,39,88,,49,49,10,39,6,18,1.8,1.8
2025-01-01T1600,1389A,113.7547,23.0494,东莞市,莞城梨川,细颗粒物(PM2.5),62,66,79,44,50,145,,112,112,23,39,8,9,0.9,0.9
2025-01-01T1600,1390A,113.7944,23.0128,东莞市,东城石井,细颗粒物(PM2.5),59,65,64,42,43,131,,103,103,21,33,8,8,0.6,0.7
2025-01-01T1600,1391A,113.7383,22.9658,东莞市,南城西平,颗粒物(PM10),61,71,78,43,46,141,,112,112,25,64,6,7,0.8,0.8
2025-01-01T1600,3319A,113.7338,23.0381,东莞市,万江金泰,细颗粒物(PM2.5),65,77,87,47,61,140,,103,103,20,38,10,11,0.8,0.9
2025-01-01T1600,3626A,113.7533,23.0202,东莞市,南城元岭,细颗粒物(PM2.5),64,70,73,46,48,147,,116,116,18,35,10,10,0.8,0.9
2025-01-01T1600,3627A,113.7875,23.0457,东莞市,东城主山,细颗粒物(PM2.5),62,68,79,44,49,133,,108,108,20,46,11,12,0.7,0.8
2025-01-01T1600,1666A,118.6614,37.4309,东营市,市环保局,细颗粒物(PM2.5),113,168,136,85,72,52,,50,50,52,73,18,26,0.9,1
2025-01-01T1600,3036A,118.6904,37.4338,东营市,开发区管委会,细颗粒物(PM2.5),119,173,150,90,73,50,,50,50,63,82,16,25,1.0,1
2025-01-01T1600,3365A,118.5719,37.565,东营市,垦利区民丰路,颗粒物(PM10),81,112,144,51,66,50,,46,46,42,69,17,22,0.6,0.8
2025-01-01T1600,3498A,118.5055,37.8612,东营市,河口城区,颗粒物(PM10),52,53,161,7,66,66,,49,49,19,72,4,25,0.3,0.8
2025-01-01T1600,3646A,118.4978,37.4623,东营市,胜利站,颗粒物(PM10),112,174,147,78,74,62,,52,52,49,74,17,22,0.9,1.1
2025-01-01T1600,3734A,118.35,37.26,东营市,理想之城,"颗粒物(PM10),细颗粒物(PM2.5)",113,175,169,85,89,59,,54,54,58,76,19,25,0.9,1.1
2025-01-01T1600,1591A,110.0023,39.8129,鄂尔多斯市,综合楼,颗粒物(PM10),58,66,112,9,51,76,,65,65,14,35,5,16,0.5,0.9
2025-01-01T1600,1592A,109.9486,39.8261,鄂尔多斯市,巴音孟克林场办事处,,46,46,91,12,47,77,,64,64,9,31,5,12,0.4,0.7
2025-01-01T1600,1593A,109.7736,39.5986,鄂尔多斯市,康泽苑,,44,44,43,12,21,73,,67,67,7,22,6,7,0.5,0.6
2025-01-01T1600,1594A,109.8119,39.5989,鄂尔多斯市,华泰汽车城,,46,46,104,17,54,79,,70,70,8,35,7,9,0.3,0.8
2025-01-01T1600,1595A,109.9734,39.7884,鄂尔多斯市,奥林花园,,48,48,81,9,35,76,,64,64,11,37,7,12,0.4,0.8
2025-01-01T1600,2436A,114.8938,30.3994,鄂州市,市政府,,,,152,,102,,,52,,,88,,13,,1.9
2025-01-01T1600,2437A,114.8989,30.3714,鄂州市,赵家坝,细颗粒物(PM2.5),104,105,123,78,83,113,,85,85,37,52,14,13,1.1,1.1
2025-01-01T1600,3654A,114.8094,30.4089,鄂州市,精准医疗中心,细颗粒物(PM2.5),97,104,139,72,95,128,,82,82,33,59,18,23,1.0,1.3
2025-01-01T1600,2454A,109.4978,30.2981,恩施土家族苗族自治州,湖北民院,细颗粒物(PM2.5),97,78,103,72,116,99,,55,55,6,17,8,7,0.8,1.1
2025-01-01T1600,2455A,109.4707,30.2798,恩施土家族苗族自治州,州电力总公司,细颗粒物(PM2.5),83,73,142,61,114,100,,52,52,20,31,8,8,0.9,1.4
2025-01-01T1600,3549A,109.5061,30.3772,恩施土家族苗族自治州,龙凤新区,细颗粒物(PM2.5),89,71,98,66,85,101,,57,57,16,20,5,6,0.7,1
2025-01-01T1600,2499A,108.3411,21.6158,防城港市,沙万,细颗粒物(PM2.5),82,95,102,60,78,172,,119,119,24,27,12,12,0.9,0.8
2025-01-01T1600,2500A,108.3514,21.7731,防城港市,防城档案局,细颗粒物(PM2.5),73,83,116,53,69,157,,112,112,19,39,9,7,0.7,0.8
2025-01-01T1600,2501A,108.3506,21.6414,防城港市,大海花园,细颗粒物(PM2.5),79,86,117,58,92,177,,126,126,22,27,11,12,1.0,0.8
2025-01-01T1600,1371A,113.1294,23.0067,佛山市,湾梁,颗粒物(PM10),64,78,88,36,50,124,,87,87,29,42,9,9,0.6,0.8
2025-01-01T1600,1372A,113.1083,23.0478,佛山市,华材职中,细颗粒物(PM2.5),75,73,101,55,68,143,,96,96,35,82,10,11,0.7,0.9
2025-01-01T1600,1373A,113.144,23.0453,佛山市,南海气象局,细颗粒物(PM2.5),65,65,85,47,56,139,,99,99,32,69,9,10,0.6,0.8
2025-01-01T1600,1374A,113.2881,22.8094,佛山市,顺德苏岗,"颗粒物(PM10),细颗粒物(PM2.5)",67,83,84,48,56,134,,87,87,28,60,13,11,0.7,0.8
2025-01-01T1600,1376A,112.8383,22.8678,佛山市,高明孔堂,,,,88,,62,148,,106,106,23,35,,12,,1
2025-01-01T1600,1377A,112.8836,23.1588,佛山市,三水监测站,细颗粒物(PM2.5),74,70,92,54,64,152,,110,110,24,52,10,14,0.9,1.1
2025-01-01T1600,1378A,112.867,23.185,佛山市,三水云东海,细颗粒物(PM2.5),63,68,87,45,63,153,,112,112,25,60,11,13,0.7,1
2025-01-01T1600,3625A,113.2544,22.7642,佛山市,容桂街道办,细颗粒物(PM2.5),70,75,91,51,57,137,,89,89,30,62,9,9,0.8,0.9
2025-01-01T1600,1280A,119.3903,26.0543,福州市,鼓山,,,,45,,26,,,145,,,9,,2,,0.6
2025-01-01T1600,1282A,119.2681,26.0504,福州市,师大,细颗粒物(PM2.5),70,74,68,51,51,131,,115,115,27,25,7,5,0.6,0.5
2025-01-01T1600,1283A,119.2984,26.1028,福州市,五四北路,,,71,62,59,47,124,,105,105,31,22,,3,0.7,0.6
2025-01-01T1600,1284A,119.2648,26.0768,福州市,杨桥西路,,,76,66,53,46,133,,115,115,26,20,,3,0.8,0.7
2025-01-01T1600,1285A,119.317,26.0746,福州市,紫阳,细颗粒物(PM2.5),74,90,72,54,49,97,,96,96,54,29,6,5,0.6,0.6
2025-01-01T1600,3048A,119.5799,26.0936,福州市,九龙,颗粒物(PM10),55,59,59,36,42,134,,106,106,15,16,4,4,0.5,0.7
2025-01-01T1600,3526A,119.5189,25.9664,福州市,吴航,颗粒物(PM10),51,51,66,30,41,128,,111,111,19,20,4,4,0.3,0.5
2025-01-01T1600,1755A,123.7977,41.8491,抚顺市,望花区,,24,24,61,12,29,63,,51,51,12,29,7,11,0.5,0.8
2025-01-01T1600,1756A,123.9161,41.8822,抚顺市,顺城区,,26,26,88,9,38,68,,50,50,14,40,6,11,0.4,1.1
2025-01-01T1600,1757A,124.0436,41.8611,抚顺市,东洲区,,24,24,67,9,32,64,,52,52,13,29,7,10,0.4,0.9
2025-01-01T1600,1758A,123.9247,41.8642,抚顺市,新抚区,,22,22,73,11,36,68,,52,52,10,32,4,8,0.3,0.9
2025-01-01T1600,1759A,124.0972,41.8961,抚顺市,大伙房水库,,26,26,56,12,30,61,,51,51,11,29,9,10,0.5,0.9
2025-01-01T1600,1760A,123.7086,41.8391,抚顺市,沈抚新城,,32,32,59,7,26,70,,54,54,8,28,4,7,0.3,0.6
2025-01-01T1600,2376A,116.2127,28.0814,抚州市,桐源党溪,颗粒物(PM10),69,88,76,46,39,119,,74,74,2,6,10,3,0.4,0.3
2025-01-01T1600,2377A,116.3544,27.9831,抚州市,市站,细颗粒物(PM2.5),88,99,113,65,70,133,,78,78,27,34,48,26,0.8,1.1
2025-01-01T1600,2378A,116.3565,27.963,抚州市,血防站,细颗粒物(PM2.5),78,,155,57,68,130,,76,76,24,36,61,20,1.2,1.1
2025-01-01T1600,2379A,116.3564,28.0007,抚州市,采茶剧团,颗粒物(PM10),71,92,102,49,63,114,,64,64,23,30,23,15,1.5,1.5
2025-01-01T1600,2380A,116.385,27.9647,抚州市,医学分院,细颗粒物(PM2.5),72,88,120,52,73,116,,67,67,21,34,46,20,1.1,0.9
2025-01-01T1600,2207A,121.6094,41.998,阜新市,工业园区,,27,27,46,18,19,72,,63,63,11,21,7,8,0.3,0.3
2025-01-01T1600,2208A,121.6697,42.0279,阜新市,长青街,,23,14,32,8,18,71,,63,63,8,15,6,8,1.0,0.9
2025-01-01T1600,2209A,121.6673,42.0705,阜新市,农业园区,,22,17,28,3,7,70,,66,66,4,7,8,10,0.5,0.6
2025-01-01T1600,2210A,121.6717,42.0224,阜新市,东苑,,21,21,42,6,13,66,,60,60,8,16,3,4,0.7,0.8
2025-01-01T1600,2211A,121.6506,42.0498,阜新市,玉龙新城,,26,,53,18,23,78,,73,73,7,17,5,8,0.4,0.6
2025-01-01T1600,2301A,115.8277,32.8929,阜阳市,市监测站,细颗粒物(PM2.5),77,88,136,56,97,111,,74,74,21,41,9,9,0.5,0.6
2025-01-01T1600,2303A,115.8554,32.8605,阜阳市,开发区,颗粒物(PM10),73,95,162,52,81,117,,78,78,25,39,10,11,0.6,0.7
2025-01-01T1600,2875A,115.784,32.8892,阜阳市,阜阳职业技术学院,细颗粒物(PM2.5),87,94,132,64,89,115,,87,87,21,31,10,11,0.6,0.8
2025-01-01T1600,3468A,115.7901,32.8613,阜阳市,市规划展馆,细颗粒物(PM2.5),77,96,154,56,95,119,,85,85,20,32,8,10,0.8,0.9
2025-01-01T1600,3469A,115.836,32.9183,阜阳市,枣园社区,细颗粒物(PM2.5),73,85,142,53,95,123,,89,89,20,36,6,7,0.6,0.8
2025-01-01T1600,2669A,102.9099,34.9841,甘南藏族自治州,州政府,,24,20,82,11,41,76,,47,47,2,38,8,19,0.4,1.1
2025-01-01T1600,3380A,102.8914,34.9617,甘南藏族自治州,甘肃民族师范学院,,25,14,52,3,20,79,,48,48,9,36,5,8,0.3,0.5
2025-01-01T1600,2570A,101.9603,30.0475,甘孜藏族自治州,水桥子,,24,13,27,8,13,76,,46,46,13,31,3,3,0.5,0.6
2025-01-01T1600,3065A,101.9533,29.9972,甘孜藏族自治州,州环保局,,25,15,21,3,7,77,,72,72,16,18,4,4,0.4,0.4
2025-01-01T1600,3414A,115.8347,28.932,赣江新区,桑海产业园,"颗粒物(PM10),细颗粒物(PM2.5)",74,97,111,54,62,119,,72,72,29,54,17,17,0.5,0.6
2025-01-01T1600,2362A,114.9017,25.9149,赣州市,通天岩,细颗粒物(PM2.5),100,95,68,75,61,151,,121,121,21,10,8,5,0.7,0.7
2025-01-01T1600,2363A,114.9367,25.8664,赣州市,地委,细颗粒物(PM2.5),74,75,84,54,56,148,,104,104,13,28,17,13,1.3,1.4
2025-01-01T1600,2364A,114.9461,25.8481,赣州市,气象台,细颗粒物(PM2.5),67,75,98,48,52,155,,97,97,25,49,14,16,0.9,0.9
2025-01-01T1600,2365A,114.9322,25.8333,赣州市,市图书馆,细颗粒物(PM2.5),68,72,96,49,60,150,,90,90,23,49,5,5,1.2,1.2
2025-01-01T1600,2366A,114.8905,25.8471,赣州市,华坚鞋城,"颗粒物(PM10),细颗粒物(PM2.5)",60,70,93,43,60,132,,107,107,16,25,11,11,0.7,0.6
2025-01-01T1600,3109A,115.0093,25.8613,赣州市,赣县区卫计委,细颗粒物(PM2.5),102,100,94,76,72,134,,88,88,24,38,8,7,0.5,0.5
2025-01-01T1600,2683A,106.2319,36.1417,固原市,马园,颗粒物(PM10),58,66,88,9,46,78,,52,52,11,36,5,9,0.4,0.9
2025-01-01T1600,2684A,106.2792,36.0022,固原市,监测站,,40,40,81,17,86,84,,70,70,11,35,5,16,0.3,0.9
2025-01-01T1600,2685A,106.2375,36.0211,固原市,新区,,32,32,66,8,33,80,,64,64,11,37,5,9,0.2,0.7
2025-01-01T1600,3522A,106.2177,35.9959,固原市,原州区十五小,,31,31,58,13,31,83,,72,72,9,23,6,10,0.2,0.5
2025-01-01T1600,2543A,106.6308,30.5278,广安市,小平旧居,,,,,,,,,,,,,,,,
2025-01-01T1600,2544A,106.6303,30.4576,广安市,市委,细颗粒物(PM2.5),148,114,132,113,117,103,,69,69,26,35,4,3,0.9,1
2025-01-01T1600,2545A,106.6271,30.4663,广安市,友谊中学,细颗粒物(PM2.5),148,136,136,113,117,96,,62,62,32,34,4,3,1.0,1
2025-01-01T1600,2547A,106.6388,30.4551,广安市,广电花园,细颗粒物(PM2.5),135,114,124,103,112,99,,61,61,28,32,5,4,0.9,1
2025-01-01T1600,2902A,106.6351,30.4865,广安市,北辰小学,细颗粒物(PM2.5),150,142,133,115,112,104,,64,64,34,51,6,4,1.1,1.2
2025-01-01T1600,2523A,105.8945,32.4535,广元市,黑石坡,,30,,59,20,62,95,,59,57,6,11,8,12,0.4,0.6
2025-01-01T1600,2524A,105.821,32.4444,广元市,老城,,48,45,95,33,65,96,,47,47,20,50,1,6,0.7,1
2025-01-01T1600,2526A,105.8628,32.4287,广元市,监测站,颗粒物(PM10),54,57,89,29,66,99,,49,49,20,37,2,6,0.7,1.1
2025-01-01T1600,3617A,105.8047,32.4166,广元市,经开区,细颗粒物(PM2.5),67,66,106,48,80,98,,42,42,16,40,5,11,0.7,1.1
2025-01-01T1600,1345A,113.2347,23.1423,广州市,广雅中学,"颗粒物(PM10),细颗粒物(PM2.5)",63,76,92,45,55,133,,100,100,36,69,10,11,0.9,1
2025-01-01T1600,1346A,113.2612,23.105,广州市,市五中,细颗粒物(PM2.5),88,81,79,65,63,135,,112,112,30,47,6,6,0.7,0.9
2025-01-01T1600,1348A,113.3478,23.0916,广州市,广东商学院,细颗粒物(PM2.5),65,71,74,47,49,145,,107,107,28,43,6,6,0.7,0.7
2025-01-01T1600,1349A,113.4332,23.1047,广州市,市八十六中,颗粒物(PM10),79,107,90,54,51,122,,96,96,52,52,10,7,0.8,0.8
2025-01-01T1600,1350A,113.3505,22.9483,广州市,番禺中学,细颗粒物(PM2.5),75,80,83,55,54,153,,106,106,32,56,9,8,0.8,0.8
2025-01-01T1600,1351A,113.2146,23.3916,广州市,花都师范,细颗粒物(PM2.5),65,73,82,47,53,121,,97,97,37,41,8,10,0.6,0.7
2025-01-01T1600,1352A,113.2597,23.1331,广州市,市监测站,细颗粒物(PM2.5),69,81,81,50,50,132,,99,99,38,51,8,8,0.8,0.9
2025-01-01T1600,1353A,113.5618,23.312,广州市,九龙镇镇龙,"颗粒物(PM10),细颗粒物(PM2.5)",55,59,77,39,52,130,,96,96,29,44,7,7,0.7,0.7
2025-01-01T1600,1354A,113.2765,23.1544,广州市,麓湖,细颗粒物(PM2.5),70,74,67,51,47,140,,111,111,27,34,6,5,0.7,0.7
2025-01-01T1600,1355A,113.443,23.3035,广州市,帽峰山森林公园,细颗粒物(PM2.5),57,42,48,40,35,151,,115,115,14,18,8,9,0.5,0.6
2025-01-01T1600,2846A,113.3221,23.1322,广州市,体育西,细颗粒物(PM2.5),64,71,77,46,49,133,,103,103,20,37,7,7,0.9,0.9
2025-01-01T1600,3298A,113.5717,23.5491,广州市,从化街口,细颗粒物(PM2.5),67,63,82,48,57,154,,103,103,17,46,8,8,0.7,0.9
2025-01-01T1600,3299A,113.3472,23.3692,广州市,白云竹料,颗粒物(PM10),59,67,90,40,59,152,,112,112,20,41,10,10,0.6,0.8
2025-01-01T1600,3300A,113.2981,23.237,广州市,白云嘉禾,颗粒物(PM10),62,74,88,43,52,141,,103,103,30,63,10,10,0.8,1
2025-01-01T1600,3301A,113.4256,23.1716,广州市,黄埔科学城,细颗粒物(PM2.5),53,54,61,37,42,146,,115,115,17,29,6,9,0.7,0.9
2025-01-01T1600,3302A,113.3942,23.0483,广州市,番禺大学城,细颗粒物(PM2.5),69,78,79,50,52,143,,104,104,35,61,12,10,0.8,0.9
2025-01-01T1600,3303A,113.4922,22.8168,广州市,南沙黄阁,细颗粒物(PM2.5),70,76,100,51,61,156,,105,105,27,61,10,10,0.7,0.9
2025-01-01T1600,3304A,113.5342,22.7896,广州市,南沙街,细颗粒物(PM2.5),73,81,87,53,54,161,,111,111,30,56,8,9,0.6,0.7
2025-01-01T1600,3443A,113.2902,23.5544,广州市,花都梯面,颗粒物(PM10),51,51,57,35,42,148,,123,123,9,25,11,11,0.7,0.8
2025-01-01T1600,3445A,113.7858,23.7478,广州市,从化良口,,50,42,44,35,33,142,,98,98,8,20,7,6,0.6,0.8
2025-01-01T1600,3446A,113.8051,23.2614,广州市,增城荔城,,,60,60,42,44,151,,120,120,13,19,6,6,,0.9
2025-01-01T1600,2505A,109.568,23.1478,贵港市,德智高中,,,,,,,,,,,,,,,,
2025-01-01T1600,2506A,109.6047,23.0666,贵港市,江南子站,细颗粒物(PM2.5),74,90,154,54,107,168,,108,108,22,40,13,13,1.1,1.2
2025-01-01T1600,2507A,109.6014,23.0948,贵港市,贵城子站,细颗粒物(PM2.5),75,74,127,55,93,159,,108,108,14,35,11,14,0.8,1.1
2025-01-01T1600,2508A,109.5669,23.1065,贵港市,荷城子站,细颗粒物(PM2.5),77,85,117,56,82,155,,110,110,20,33,16,18,0.8,1
2025-01-01T1600,3405A,109.5886,23.1172,贵港市,新世纪学校,细颗粒物(PM2.5),75,78,118,55,79,166,,117,117,17,30,13,16,0.9,1
2025-01-01T1600,1439A,106.6899,26.5998,贵阳市,马鞍山,颗粒物(PM10),57,63,66,34,45,64,,45,45,24,36,11,8,0.7,0.8
2025-01-01T1600,1440A,106.6971,26.5694,贵阳市,市环保站,细颗粒物(PM2.5),70,73,92,51,67,64,,44,44,32,61,20,31,0.7,1
2025-01-01T1600,1441A,106.6243,26.6266,贵阳市,鉴湖路,细颗粒物(PM2.5),62,61,54,44,37,59,,62,58,24,25,14,14,0.7,0.7
2025-01-01T1600,1442A,106.7487,26.6343,贵阳市,燕子冲,细颗粒物(PM2.5),55,46,60,39,47,71,,44,44,24,40,16,20,0.8,0.9
2025-01-01T1600,1443A,106.6555,26.4365,贵阳市,碧云窝,颗粒物(PM10),51,51,67,29,40,84,,69,69,14,25,16,20,0.7,0.9
2025-01-01T1600,1444A,106.694,26.5161,贵阳市,中院村,颗粒物(PM10),75,100,100,51,66,62,,43,43,35,64,14,40,0.5,1.3
2025-01-01T1600,1445A,106.7109,26.6027,贵阳市,红边门,细颗粒物(PM2.5),70,61,90,51,64,63,,37,37,27,60,21,56,1.0,1.5
2025-01-01T1600,1446A,106.7164,26.5699,贵阳市,新华路,细颗粒物(PM2.5),62,56,90,44,63,74,,49,49,19,52,13,25,0.7,1.1
2025-01-01T1600,1447A,106.674,26.5424,贵阳市,太慈桥,细颗粒物(PM2.5),55,56,62,39,43,66,,49,49,21,34,14,12,0.6,0.7
2025-01-01T1600,1552A,106.805,26.3003,贵阳市,桐木岭,,,,57,,39,,,79,,,10,,22,,0.8
2025-01-01T1600,1862A,110.4144,25.3167,桂林市,电子科大尧山校区,"颗粒物(PM10),细颗粒物(PM2.5)",62,74,54,44,37,132,,96,96,14,14,10,13,0.7,0.5
2025-01-01T1600,1863A,110.2819,25.2697,桂林市,监测站,细颗粒物(PM2.5),82,80,79,60,55,125,,77,77,28,38,12,13,1.2,1.3
2025-01-01T1600,1864A,110.3089,25.2708,桂林市,龙隐路小学,细颗粒物(PM2.5),82,70,70,60,58,133,,84,84,25,33,12,18,0.7,0.8
2025-01-01T1600,1865A,110.2869,25.2178,桂林市,八中,细颗粒物(PM2.5),85,66,86,63,66,124,,75,75,20,36,11,13,0.8,0.9
2025-01-01T1600,3403A,110.1764,25.2381,桂林市,创业大厦,细颗粒物(PM2.5),83,73,90,61,67,128,,60,60,23,46,19,30,0.7,0.7
2025-01-01T1600,3531A,110.296,25.1253,桂林市,旅游学院,细颗粒物(PM2.5),89,83,94,66,67,128,,77,77,20,43,12,11,0.8,0.9
2025-01-01T1600,2674A,100.2561,34.4714,果洛藏族自治州,玛沁县大武镇,,30,27,28,16,13,96,,66,66,2,9,4,9,0.4,0.6
2025-01-01T1600,1129A,126.5422,45.755,哈尔滨市,岭北,细颗粒物(PM2.5),97,78,93,72,81,48,,39,39,34,41,18,16,0.4,0.6
2025-01-01T1600,1130A,126.561,45.8167,哈尔滨市,松北商大,细颗粒物(PM2.5),93,80,99,69,83,51,,34,34,29,44,4,5,0.9,1.1
2025-01-01T1600,1131A,126.979,45.5419,哈尔滨市,阿城会宁,细颗粒物(PM2.5),115,106,81,87,71,39,,31,31,31,31,13,12,0.9,1
2025-01-01T1600,1132A,126.599,45.7222,哈尔滨市,南岗学府路,细颗粒物(PM2.5),88,100,115,65,83,42,,27,27,31,48,8,8,0.6,0.9
2025-01-01T1600,1133A,126.689,45.7733,哈尔滨市,太平宏伟公园,细颗粒物(PM2.5),85,93,97,63,77,28,,26,26,44,47,11,8,0.8,0.9
2025-01-01T1600,1134A,126.635,45.7667,哈尔滨市,道外承德广场,细颗粒物(PM2.5),74,94,108,54,71,40,,32,32,34,43,10,10,0.6,0.9
2025-01-01T1600,1135A,126.685,45.7319,哈尔滨市,香坊红旗大街,细颗粒物(PM2.5),94,85,94,70,86,37,,28,28,37,48,14,14,0.9,1.1
2025-01-01T1600,1136A,126.6411,45.7258,哈尔滨市,动力和平路,细颗粒物(PM2.5),90,85,88,67,100,35,,22,22,32,47,11,14,0.7,0.9
2025-01-01T1600,1137A,126.593,45.7478,哈尔滨市,道里建国路,细颗粒物(PM2.5),85,84,91,63,77,31,,24,24,42,47,11,20,0.5,0.9
2025-01-01T1600,1138A,126.615,45.61,哈尔滨市,平房东轻厂,细颗粒物(PM2.5),95,78,85,71,69,43,,32,32,32,37,11,12,0.7,0.8
2025-01-01T1600,1139A,126.595,45.9855,哈尔滨市,呼兰师专,,,108,105,55,76,48,,,,,59,10,13,,1.2
2025-01-01T1600,1140A,126.6206,45.6842,哈尔滨市,省农科院,,,,118,,97,38,,31,31,32,52,9,8,0.7,1.1
2025-01-01T1600,2688A,93.5128,42.8172,哈密市,地区监测站,,,,119,,41,,,47,47,17,28,9,5,0.5,0.6
2025-01-01T1600,2689A,93.4961,42.8328,哈密市,哈密师范学校,颗粒物(PM10),79,108,112,50,40,55,,41,41,24,43,13,7,0.6,0.9
2025-01-01T1600,2671A,100.9048,36.9639,海北藏族自治州,海晏县西海镇,,29,21,22,6,11,90,,60,60,2,6,8,10,0.4,0.4
2025-01-01T1600,3867A,102.0738,36.5056,海东市,平安区公安北苑,,37,37,52,20,31,95,,56,56,16,31,17,14,0.6,0.8
2025-01-01T1600,1409A,110.576,19.9507,海口市,东寨港,细颗粒物(PM2.5),64,56,57,46,50,139,,126,126,8,8,11,9,0.7,0.8
2025-01-01T1600,1410A,110.3232,20.0574,海口市,海南大学,臭氧1小时,72,73,71,49,50,177,,148,148,23,23,5,8,0.7,0.7
2025-01-01T1600,1411A,110.283,20.0053,海口市,秀英海南医院,臭氧1小时,75,77,74,50,52,180,,152,152,18,27,6,7,0.5,0.6
2025-01-01T1600,1412A,110.338,19.9969,海口市,海南师范大学,臭氧1小时,80,76,69,46,48,184,,157,157,17,18,8,8,0.7,0.7
2025-01-01T1600,1413A,110.33,20.0356,海口市,龙华路环保局宿舍,臭氧1小时,78,75,70,48,51,182,,152,152,16,18,8,9,0.6,0.7
2025-01-01T1600,3539A,110.5111,19.9736,海口市,桂林洋子站,臭氧1小时,59,58,67,39,47,167,,149,149,14,16,7,8,0.6,0.6
2025-01-01T1600,2673A,100.6188,36.2866,海南藏族自治州,共和县恰卜恰镇,,25,22,41,16,20,77,,55,55,4,25,6,6,0.3,0.6
2025-01-01T1600,2676A,97.3731,37.3753,海西蒙古族藏族自治州,德令哈市,颗粒物(PM10),52,53,39,18,26,92,,66,66,3,12,16,18,0.4,0.7
2025-01-01T1600,1048A,114.5302,36.6116,邯郸市,东污水处理厂,细颗粒物(PM2.5),113,164,158,85,90,59,,41,41,44,60,9,9,0.7,1
2025-01-01T1600,1049A,114.4918,36.5713,邯郸市,矿院,细颗粒物(PM2.5),113,169,168,85,81,53,,41,41,45,58,8,8,0.8,1
2025-01-01T1600,1050A,114.484,36.6133,邯郸市,丛台公园,颗粒物(PM10),115,179,159,73,81,56,,39,39,,56,7,8,0.7,1
2025-01-01T1600,3458A,114.7895,36.5593,邯郸市,香泉濮院小区,颗粒物(PM10),131,212,194,98,87,62,,49,49,45,44,12,11,0.9,0.9
2025-01-01T1600,3579A,114.50634,36.77178,邯郸市,永年区实验高中,颗粒物(PM10),111,172,184,75,81,52,,33,33,41,61,11,13,0.9,1.3
2025-01-01T1600,3580A,114.20016,36.44293,邯郸市,峰峰矿区临水派出所,细颗粒物(PM2.5),115,171,160,87,82,61,,57,57,40,43,16,22,1.0,1.3
2025-01-01T1600,2634A,106.9893,33.1842,汉中市,汉川机床厂子校,细颗粒物(PM2.5),95,,62,71,62,115,,79,79,14,11,9,7,1.2,0.8
2025-01-01T1600,2635A,107.0154,33.0706,汉中市,市监测站,细颗粒物(PM2.5),127,,132,96,119,97,,54,54,35,58,9,9,1.4,2
2025-01-01T1600,2636A,107.0089,33.1138,汉中市,鑫源开发区,细颗粒物(PM2.5),108,85,108,81,104,104,,61,61,19,49,8,10,0.9,1.5
2025-01-01T1600,2637A,107.007,33.0323,汉中市,南郑大河坎水厂,细颗粒物(PM2.5),107,91,121,80,102,110,,65,65,27,35,4,5,1.3,1.5
2025-01-01T1600,1223A,120.2072,30.2111,杭州市,滨江,细颗粒物(PM2.5),94,128,132,70,70,48,,34,34,81,66,8,7,0.6,0.7
2025-01-01T1600,1224A,120.0633,30.2747,杭州市,西溪,细颗粒物(PM2.5),75,92,85,55,48,88,,58,58,45,48,9,7,0.6,0.7
2025-01-01T1600,1226A,120.3461,30.3153,杭州市,下沙,细颗粒物(PM2.5),100,147,149,75,68,84,,57,57,64,88,10,10,0.6,0.9
2025-01-01T1600,1227A,120.1269,30.2456,杭州市,卧龙桥,细颗粒物(PM2.5),89,102,80,66,49,82,,56,56,50,47,8,6,0.6,0.7
2025-01-01T1600,1228A,120.1903,30.2692,杭州市,浙江农大,细颗粒物(PM2.5),95,113,125,71,71,68,,46,46,62,72,9,8,0.6,0.7
2025-01-01T1600,1230A,120.1197,30.3119,杭州市,和睦小学,细颗粒物(PM2.5),73,84,107,53,62,97,,54,54,38,60,9,8,0.6,0.8
2025-01-01T1600,1231A,120.3019,30.4183,杭州市,临平镇,颗粒物(PM10),84,117,128,57,59,95,,64,64,46,59,10,9,0.7,0.9
2025-01-01T1600,1232A,120.2697,30.1819,杭州市,城厢镇,细颗粒物(PM2.5),102,121,128,76,69,63,,46,46,63,67,8,6,0.9,0.9
2025-01-01T1600,1233A,120.0883,30.1808,杭州市,云栖,颗粒物(PM10),74,97,87,48,40,70,,61,61,57,49,7,6,0.5,0.6
2025-01-01T1600,3557A,119.9464,30.0494,杭州市,镇二中,细颗粒物(PM2.5),84,81,94,62,66,80,,51,51,40,49,8,7,0.6,0.7
2025-01-01T1600,3558A,119.7183,30.2367,杭州市,市府大楼,,,97,110,,80,86,,77,77,45,54,9,7,0.7,1.2
2025-01-01T1600,3656A,120.1556,30.2864,杭州市,消防大队,细颗粒物(PM2.5),92,111,124,68,72,84,,54,54,50,63,10,10,0.7,0.9
2025-01-01T1600,1270A,117.1959,31.7848,合肥市,明珠广场,颗粒物(PM10),59,68,115,36,64,116,,80,80,22,50,12,11,0.6,0.8
2025-01-01T1600,1271A,117.3072,31.8764,合肥市,三里街,颗粒物(PM10),69,88,126,44,67,86,,57,57,34,63,8,10,0.6,0.9
2025-01-01T1600,1272A,117.2588,31.8707,合肥市,琥珀山庄,"颗粒物(PM10),细颗粒物(PM2.5)",69,88,116,50,66,96,,76,76,27,48,8,8,0.4,0.6
2025-01-01T1600,1273A,117.1604,31.9052,合肥市,董铺水库,"颗粒物(PM10),细颗粒物(PM2.5)",70,90,127,51,57,107,,74,74,22,47,6,6,0.5,0.6
2025-01-01T1600,1274A,117.25,31.8571,合肥市,长江中路,颗粒物(PM10),65,80,118,42,67,94,,70,70,30,46,9,10,0.6,0.8
2025-01-01T1600,1275A,117.266,31.9436,合肥市,庐阳区,颗粒物(PM10),78,105,141,48,64,93,,64,64,32,66,10,9,0.6,0.9
2025-01-01T1600,1276A,117.336,31.8586,合肥市,瑶海区,颗粒物(PM10),70,90,137,42,66,99,,65,65,29,72,8,9,0.6,0.9
2025-01-01T1600,1277A,117.3027,31.7964,合肥市,包河区,颗粒物(PM10),62,73,134,36,74,113,,73,73,20,68,7,9,0.4,0.8
2025-01-01T1600,1278A,117.2776,31.7385,合肥市,滨湖新区,,,80,121,29,55,118,,85,85,14,31,10,9,,0.7
2025-01-01T1600,1279A,117.1318,31.8403,合肥市,高新区,颗粒物(PM10),59,68,109,32,58,117,,87,87,28,52,2,3,0.7,0.9
2025-01-01T1600,3464A,117.3803,31.9147,合肥市,高教基地,颗粒物(PM10),74,98,134,45,74,114,,69,69,30,62,13,13,0.5,0.7
2025-01-01T1600,3614A,79.924,37.0877,和田地区,地区环保局,细颗粒物(PM2.5),74,,168,54,71,80,,41,41,17,37,18,20,0.7,1.1
2025-01-01T1600,3615A,79.9131,37.113,和田地区,市环保局,"颗粒物(PM10),细颗粒物(PM2.5)",75,100,137,55,54,78,,39,39,21,44,16,17,0.8,2
2025-01-01T1600,2516A,108.2011,24.715,河池市,东仁乐园,细颗粒物(PM2.5),72,89,112,52,76,62,,44,44,16,42,18,14,1.0,1.2
2025-01-01T1600,2517A,108.0497,24.6947,河池市,市环保站,细颗粒物(PM2.5),67,74,82,48,64,119,,77,77,11,34,14,9,0.8,0.9
2025-01-01T1600,2518A,108.0983,24.6989,河池市,市疾控中心,细颗粒物(PM2.5),63,56,100,45,72,123,,77,77,13,43,11,7,0.9,1.1
2025-01-01T1600,1696A,114.6778,23.7569,河源市,源西,,50,47,56,35,43,124,,98,98,16,32,8,8,0.5,0.5
2025-01-01T1600,1697A,114.6944,23.7586,河源市,东埔,细颗粒物(PM2.5),57,62,66,40,48,138,,108,108,17,26,6,8,0.7,0.8
2025-01-01T1600,1698A,114.6892,23.7233,河源市,老城,细颗粒物(PM2.5),55,53,70,39,52,130,,103,103,15,30,7,7,0.6,0.7
2025-01-01T1600,1718A,115.4208,35.2464,菏泽市,气象局,细颗粒物(PM2.5),153,199,185,117,102,100,,75,75,38,36,11,9,0.8,0.7
2025-01-01T1600,1719A,115.4747,35.2375,菏泽市,市政协,细颗粒物(PM2.5),170,207,179,129,101,99,,76,76,47,38,13,9,0.9,0.8
2025-01-01T1600,3374A,115.5564,35.0891,菏泽市,定陶老年大学,细颗粒物(PM2.5),178,207,168,134,104,108,,79,79,44,41,15,12,0.8,0.8
2025-01-01T1600,3647A,115.4702,35.2706,菏泽市,菏泽医专,细颗粒物(PM2.5),162,202,170,123,89,107,,81,81,48,36,19,13,1.5,1.2
2025-01-01T1600,2514A,111.5264,24.4172,贺州市,环保小区,细颗粒物(PM2.5),77,73,85,56,68,126,,85,85,24,27,9,8,0.8,1
2025-01-01T1600,2515A,111.5608,24.4078,贺州市,政协大楼,细颗粒物(PM2.5),69,61,90,50,59,139,,87,87,19,42,7,7,0.7,0.9
2025-01-01T1600,3534A,111.4744,24.4553,贺州市,西湾,细颗粒物(PM2.5),84,74,91,62,68,139,,88,88,19,29,9,8,0.7,0.9
2025-01-01T1600,2385A,114.17,35.9019,鹤壁市,市监测站,细颗粒物(PM2.5),112,160,158,84,77,69,,55,55,36,46,13,12,0.9,1
2025-01-01T1600,2386A,114.2956,35.7511,鹤壁市,市交警支队,细颗粒物(PM2.5),215,170,157,165,82,54,,43,43,,53,8,9,1.0,1.1
2025-01-01T1600,2387A,114.2878,35.7306,鹤壁市,迎宾馆,颗粒物(PM10),120,190,162,82,67,57,,48,48,42,48,12,14,1.2,1.1
2025-01-01T1600,3474A,114.2617,35.6822,鹤壁市,大新区,细颗粒物(PM2.5),118,172,154,89,81,59,,51,51,52,63,16,13,1.1,1
2025-01-01T1600,3596A,114.1572,35.9603,鹤壁市,南山宾馆,细颗粒物(PM2.5),133,177,152,101,83,66,,54,54,36,33,8,10,0.9,1.1
2025-01-01T1600,2244A,130.2537,47.3416,鹤岗市,哈啤分公司,,,34,40,34,33,52,,43,41,,15,18,16,,1.2
2025-01-01T1600,2245A,130.2684,47.3086,鹤岗市,斯达机电,,43,36,57,30,42,51,,36,36,9,28,14,16,0.7,0.9
2025-01-01T1600,2246A,130.3114,47.3388,鹤岗市,东山纸板厂,细颗粒物(PM2.5),70,79,120,51,65,22,,28,28,47,51,18,18,1.0,1.1
2025-01-01T1600,2247A,130.1097,47.3382,鹤岗市,五号水库,,30,30,25,20,16,73,,67,67,7,12,8,7,0.3,0.4
2025-01-01T1600,2263A,127.4833,50.2524,黑河市,交通局,颗粒物(PM10),58,65,55,33,34,16,,35,32,34,22,12,10,0.8,0.7
2025-01-01T1600,2264A,127.5144,50.2341,黑河市,环保局,颗粒物(PM10),53,56,64,35,49,19,,32,31,32,26,13,9,0.7,0.9
2025-01-01T1600,2265A,127.5291,50.2472,黑河市,大黑河岛,,,68,69,41,60,16,,12,12,29,13,1,2,,
2025-01-01T1600,1074A,115.6838,37.7541,衡水市,电机北厂,细颗粒物(PM2.5),156,209,209,119,101,45,,26,26,56,52,19,18,0.9,0.8
2025-01-01T1600,1075A,115.6303,37.7316,衡水市,市监测站,细颗粒物(PM2.5),162,184,182,123,97,45,,25,25,61,55,21,17,1.0,0.9
2025-01-01T1600,3188A,115.6683,37.7217,衡水市,市城管局,细颗粒物(PM2.5),162,192,200,123,97,46,,27,27,55,51,18,14,1.0,0.9
2025-01-01T1600,3459A,115.5989,37.5491,衡水市,地表水厂,细颗粒物(PM2.5),148,195,177,113,100,48,,32,32,60,64,17,13,0.9,0.9
2025-01-01T1600,2456A,112.5003,26.9167,衡阳市,原169医院,细颗粒物(PM2.5),98,73,110,73,91,125,,96,96,25,46,13,17,0.6,0.8
2025-01-01T1600,2457A,112.6194,26.9258,衡阳市,衡阳化工总厂,细颗粒物(PM2.5),109,88,133,82,110,148,,81,81,24,47,15,14,1.0,1.1
2025-01-01T1600,2458A,112.6211,26.8956,衡阳市,珠晖区环保局,细颗粒物(PM2.5),104,81,136,78,114,153,,82,82,20,56,14,12,1.0,1.3
2025-01-01T1600,2459A,112.6197,26.8733,衡阳市,市委党校,,,,129,,104,159,,98,98,17,42,14,11,1.0,1.4
2025-01-01T1600,2460A,112.6006,26.8919,衡阳市,市监测站,细颗粒物(PM2.5),110,101,164,83,134,146,,75,75,19,54,13,13,1.1,1.5
2025-01-01T1600,2461A,112.5664,26.9056,衡阳市,真空机电公司,细颗粒物(PM2.5),132,148,145,100,103,119,,58,58,43,57,16,9,1.8,1.4
2025-01-01T1600,3399A,112.6703,26.882,衡阳市,师范学院,细颗粒物(PM2.5),113,96,145,85,123,150,,90,90,20,39,13,12,1.0,1.2
2025-01-01T1600,2608A,103.3772,23.3993,红河哈尼族彝族自治州,污水处理厂,,39,32,41,27,38,72,,61,61,10,11,6,11,0.3,0.7
2025-01-01T1600,2609A,103.3861,23.35,红河哈尼族彝族自治州,监测站,,35,29,38,24,35,78,,65,65,10,11,10,10,0.6,0.7
2025-01-01T1600,3038A,103.3758,23.368,红河哈尼族彝族自治州,州图书馆,,37,37,40,24,36,68,,54,54,7,12,7,11,0.5,0.7
2025-01-01T1600,1090A,111.6507,40.7517,呼和浩特市,呼市一监,颗粒物(PM10),73,95,154,52,108,55,,41,41,25,43,17,15,0.6,0.9
2025-01-01T1600,1091A,111.6572,40.8033,呼和浩特市,小召,,44,44,129,18,80,74,,35,35,13,57,6,15,0.4,1.1
2025-01-01T1600,1094A,111.7516,40.8369,呼和浩特市,如意水处理厂,,37,37,105,15,55,70,,46,46,5,47,7,13,0.2,0.8
2025-01-01T1600,1095A,111.7276,40.8062,呼和浩特市,二十九中,,36,36,116,16,65,67,,38,38,14,53,7,13,0.2,0.6
2025-01-01T1600,1096A,111.5512,40.7866,呼和浩特市,工大金川校区,颗粒物(PM10),65,80,122,46,73,47,,33,33,33,55,14,14,0.6,0.8
2025-01-01T1600,1097A,111.717,40.7612,呼和浩特市,化肥厂生活区,,41,41,110,17,59,67,,37,37,18,54,6,12,0.4,1
2025-01-01T1600,3698A,111.5968,40.8178,呼和浩特市,红旗小学,颗粒物(PM10),64,78,104,44,60,46,,31,31,34,57,16,12,0.6,0.9
2025-01-01T1600,3699A,111.6518,40.8389,呼和浩特市,海东办,,31,31,152,18,104,72,,41,41,12,56,8,14,0.4,1
2025-01-01T1600,2192A,119.7594,49.2261,呼伦贝尔市,区环保局,,45,39,41,31,32,26,,34,34,39,32,8,8,0.8,0.6
2025-01-01T1600,3061A,119.7512,49.1577,呼伦贝尔市,国华电力东,,31,31,32,21,23,56,,57,57,10,11,5,4,0.4,0.3
2025-01-01T1600,1250A,120.0751,30.8669,湖州市,城西水厂,颗粒物(PM10),78,105,109,56,55,101,,65,65,36,58,9,9,0.5,0.6
2025-01-01T1600,2873A,120.0875,30.8955,湖州市,仁皇山新区,,,100,98,53,52,,,58,58,47,61,,8,0.6,0.7
2025-01-01T1600,2907A,120.1844,30.8596,湖州市,吴兴区站,,,87,96,53,51,,,62,62,24,67,8,9,0.4,0.7
2025-01-01T1600,3562A,120.4148,30.8538,湖州市,南浔区站,颗粒物(PM10),61,72,94,38,52,112,,78,78,27,57,8,9,0.3,0.6
2025-01-01T1600,1607A,120.9092,40.7136,葫芦岛市,龙港区,,24,,55,3,26,76,,64,64,6,34,16,56,0.3,0.9
2025-01-01T1600,1608A,120.8392,40.7514,葫芦岛市,化工街,,23,22,73,7,30,62,,52,52,16,49,67,37,0.4,0.9
2025-01-01T1600,1609A,120.8341,40.7073,葫芦岛市,新区,,23,23,49,3,22,69,,53,53,8,40,20,30,0.6,0.9
2025-01-01T1600,1610A,120.8695,40.7677,葫芦岛市,东城区,,28,24,78,19,44,63,,52,52,16,41,21,34,0.2,0.7
2025-01-01T1600,2482A,109.5981,27.5721,怀化市,林科所,细颗粒物(PM2.5),98,90,64,73,53,56,,42,42,46,31,13,7,1.1,1.3
2025-01-01T1600,2483A,109.9453,27.5444,怀化市,河西地税局,细颗粒物(PM2.5),119,101,88,90,79,44,,38,38,42,33,15,9,1.0,1.1
2025-01-01T1600,2484A,109.9781,27.5342,怀化市,市四医院,细颗粒物(PM2.5),89,109,139,66,100,53,,32,32,32,39,8,5,1.1,1.2
2025-01-01T1600,2485A,109.9972,27.5578,怀化市,监测楼,细颗粒物(PM2.5),77,82,121,56,90,60,,36,36,29,39,4,3,0.7,0.8
2025-01-01T1600,2486A,110.0394,27.583,怀化市,市委党校,细颗粒物(PM2.5),82,99,113,60,73,63,,35,35,32,40,10,9,1.0,1.1
2025-01-01T1600,1210A,119.036,33.5981,淮安市,钵池山,颗粒物(PM10),73,95,84,48,45,105,,75,75,29,47,10,9,0.8,0.7
2025-01-01T1600,1211A,119.007,33.575,淮安市,北京南路,"颗粒物(PM10),细颗粒物(PM2.5)",68,85,95,49,50,102,,64,64,31,56,12,10,0.4,0.6
2025-01-01T1600,1212A,118.989,33.6067,淮安市,市监测站,细颗粒物(PM2.5),79,83,75,58,45,101,,66,66,34,45,10,9,0.7,0.6
2025-01-01T1600,1213A,119.135,33.5039,淮安市,楚州区监测站,细颗粒物(PM2.5),80,103,95,59,46,89,,56,56,44,67,11,10,1.1,1
2025-01-01T1600,1214A,119.0186,33.6297,淮安市,淮阴区监测站,细颗粒物(PM2.5),80,100,120,59,67,104,,70,70,37,58,11,10,0.7,0.7
2025-01-01T1600,3426A,118.8755,33.2894,淮安市,新华书店,颗粒物(PM10),83,115,86,57,41,86,,66,66,48,45,12,10,0.7,0.6
2025-01-01T1600,2282A,116.8004,33.975,淮北市,监测站,细颗粒物(PM2.5),103,133,160,77,92,91,,72,72,31,44,12,12,0.8,0.8
2025-01-01T1600,2283A,116.8091,33.9007,淮北市,烈山区政府,细颗粒物(PM2.5),99,120,164,74,90,94,,72,72,39,49,12,14,0.8,0.8
2025-01-01T1600,3330A,116.8873,33.9836,淮北市,杜集区检察院,细颗粒物(PM2.5),84,103,138,62,82,102,,81,81,23,28,6,8,0,0.3
2025-01-01T1600,4017A,116.7923,33.9535,淮北市,市博物馆,细颗粒物(PM2.5),104,129,159,78,96,90,,73,73,36,44,12,13,0.7,0.7
2025-01-01T1600,2277A,116.8305,32.7727,淮南市,潘集区政府,颗粒物(PM10),75,100,147,53,90,103,,79,79,25,45,13,15,0.7,0.9
2025-01-01T1600,2278A,117.0067,32.6524,淮南市,师范学院,细颗粒物(PM2.5),80,88,136,59,73,95,,75,75,24,38,7,11,0.7,1
2025-01-01T1600,2279A,116.8569,32.5951,淮南市,谢家集区政府,细颗粒物(PM2.5),79,99,136,58,72,93,,72,72,22,40,10,13,0.7,0.8
2025-01-01T1600,2280A,116.8281,32.633,淮南市,八公山区政府,颗粒物(PM10),70,90,128,50,65,97,,78,78,27,44,11,10,0.7,0.9
2025-01-01T1600,2281A,116.6325,32.6201,淮南市,焦岗湖风景区管理处,颗粒物(PM10),60,69,105,37,60,75,,54,54,11,35,3,3,0.4,0.6
2025-01-01T1600,2894A,117.0566,32.6531,淮南市,经济技术开发区消防队,,,93,131,45,73,,,77,77,22,37,9,11,0.7,0.8
2025-01-01T1600,3329A,117.0108,32.5893,淮南市,山南新区,颗粒物(PM10),66,81,147,40,74,110,,83,83,20,36,10,13,0.6,0.7
2025-01-01T1600,2446A,114.9028,30.4742,黄冈市,职工中心,细颗粒物(PM2.5),75,89,125,55,81,130,,97,97,36,47,14,12,0.7,0.8
2025-01-01T1600,2929A,114.8858,30.4519,黄冈市,红卫路,细颗粒物(PM2.5),84,90,119,62,82,121,,92,92,29,42,17,11,1.3,1.1
2025-01-01T1600,3398A,114.9136,30.4445,黄冈市,市林业局,细颗粒物(PM2.5),89,92,112,66,79,121,,93,93,28,36,22,14,1.2,0.8
2025-01-01T1600,2672A,102.0199,35.5102,黄南藏族自治州,同仁县隆务镇,,38,38,36,19,15,84,,67,67,7,5,11,9,0.6,0.5
2025-01-01T1600,2295A,118.2903,29.6963,黄山市,延安路89号,颗粒物(PM10),54,57,68,23,46,129,,87,87,12,23,6,8,0.3,0.4
2025-01-01T1600,2296A,118.327,29.7178,黄山市,黄山东路89号,"颗粒物(PM10),细颗粒物(PM2.5)",59,67,131,42,97,116,,71,71,14,30,8,7,0.4,0.5
2025-01-01T1600,2297A,118.1371,30.2756,黄山市,黄山区政府5号楼,颗粒物(PM10),55,59,102,32,67,118,,87,87,12,17,10,8,0.3,0.5
2025-01-01T1600,2423A,115.0601,30.2313,黄石市,沈家营,颗粒物(PM10),82,114,124,55,77,103,,73,73,45,64,14,17,1.0,1
2025-01-01T1600,2424A,115.0817,30.2006,黄石市,陈家湾,细颗粒物(PM2.5),109,109,115,82,92,102,,67,67,40,53,20,14,1.3,1.2
2025-01-01T1600,2426A,114.8988,30.2019,黄石市,铁山,细颗粒物(PM2.5),98,87,102,73,80,129,,99,99,24,30,48,28,1.9,1.4
2025-01-01T1600,2427A,115.0307,30.2092,黄石市,团城山,细颗粒物(PM2.5),77,97,116,56,79,110,,78,78,38,52,10,14,1.1,1
2025-01-01T1600,3149A,115.0235,30.1578,黄石市,笔架山北路,细颗粒物(PM2.5),87,83,102,64,78,129,,92,92,32,43,12,17,0.9,1.1
2025-01-01T1600,1392A,114.4183,23.0528,惠州市,河南岸金山湖子站,细颗粒物(PM2.5),62,62,64,44,44,115,,100,100,15,20,9,10,0.9,0.9
2025-01-01T1600,1393A,114.4053,23.0822,惠州市,下埔横江三路子站,细颗粒物(PM2.5),59,64,67,42,44,125,,108,108,19,21,9,10,0.7,0.7
2025-01-01T1600,1394A,114.4103,23.1142,惠州市,江北云山西路子站,细颗粒物(PM2.5),59,66,65,42,42,130,,113,113,20,23,10,12,0.7,0.7
2025-01-01T1600,1395A,114.4645,22.7833,惠州市,惠阳区承修路船湖子站,颗粒物(PM10),67,83,82,47,44,98,,77,77,24,24,9,11,0.6,0.7
2025-01-01T1600,1396A,114.5317,22.7422,惠州市,大亚湾管委会子站,颗粒物(PM10),58,65,70,40,42,116,,84,84,24,33,10,12,0.6,0.6
2025-01-01T1600,3314A,114.4338,22.8134,惠州市,惠阳秋长,细颗粒物(PM2.5),65,73,63,47,42,111,,98,98,21,21,17,16,0.8,0.7
2025-01-01T1600,3452A,114.6517,22.775,惠州市,大亚湾霞涌,"颗粒物(PM10),细颗粒物(PM2.5)",55,59,63,39,44,112,,87,87,19,18,7,9,0.6,0.7
2025-01-01T1600,2240A,130.9762,45.3001,鸡西市,环保局,颗粒物(PM10),53,56,57,34,44,53,,50,50,14,24,8,8,0.4,0.8
2025-01-01T1600,2243A,130.9429,45.3039,鸡西市,第一中学,,49,49,50,31,35,57,,50,50,10,15,10,7,0.5,0.4
2025-01-01T1600,3707A,131.0207,45.3073,鸡西市,欧美日汽修厂,细颗粒物(PM2.5),65,59,83,47,65,56,,42,42,13,29,16,43,0.6,1.2
2025-01-01T1600,3709A,130.9967,45.3106,鸡西市,市政设施管理处,颗粒物(PM10),56,61,99,36,70,54,,42,42,17,38,7,10,0.8,1
2025-01-01T1600,2367A,114.9754,27.0803,吉安市,红声器材厂,,,92,118,56,79,143,,77,77,,48,24,17,0.6,0.7
2025-01-01T1600,2368A,114.9658,27.0999,吉安市,市森林工业局,细颗粒物(PM2.5),74,83,102,54,66,135,,76,76,27,44,19,18,0.6,0.7
2025-01-01T1600,2369A,114.99,27.1312,吉安市,市环境监测站,细颗粒物(PM2.5),88,75,87,65,63,142,,81,81,32,45,17,17,0.6,0.7
2025-01-01T1600,2370A,115.0093,27.0968,吉安市,青原区法院,细颗粒物(PM2.5),85,92,106,63,71,146,,86,86,30,52,16,14,0.7,0.8
2025-01-01T1600,1772A,126.54,43.8622,吉林市,哈达湾,,27,27,35,15,20,59,,56,56,13,19,8,10,0.4,0.6
2025-01-01T1600,1773A,126.5844,43.8358,吉林市,东局子,,22,22,32,13,18,62,,56,56,10,15,6,7,0.5,0.6
2025-01-01T1600,1774A,126.5052,43.8245,吉林市,电力学院,,25,24,38,17,23,62,,57,57,9,19,8,9,0.5,0.6
2025-01-01T1600,1775A,126.6133,43.8972,吉林市,江北,,30,30,33,15,17,62,,57,57,13,14,9,11,0.5,0.6
2025-01-01T1600,1776A,126.555,43.8306,吉林市,江南公园,,23,23,34,13,20,59,,56,56,12,17,10,11,0.5,0.6
2025-01-01T1600,1778A,126.7061,43.7133,吉林市,丰满,,20,19,22,12,15,61,,56,56,5,5,5,6,0.3,0.3
2025-01-01T1600,2868A,126.4739,43.953,吉林市,九站,,35,35,33,19,19,63,,56,56,11,14,4,6,0.5,0.5
2025-01-01T1600,1299A,116.9862,36.6114,济南市,科干所,细颗粒物(PM2.5),108,161,137,81,63,71,,89,89,63,32,16,12,0.9,0.8
2025-01-01T1600,1300A,116.9376,36.665,济南市,农科所,颗粒物(PM10),109,168,160,68,64,87,,66,66,56,52,17,14,0.9,0.8
2025-01-01T1600,1301A,117.1265,36.6734,济南市,开发区,细颗粒物(PM2.5),117,154,133,88,62,65,,78,61,70,42,16,12,0.9,0.8
2025-01-01T1600,1303A,117.0624,36.6868,济南市,省种子仓库,细颗粒物(PM2.5),119,173,184,90,86,72,,43,43,53,57,15,13,0.9,1.1
2025-01-01T1600,1304A,116.9489,36.6447,济南市,机床二厂,颗粒物(PM10),107,164,156,73,70,96,,82,82,48,40,14,19,1.2,1.1
2025-01-01T1600,1305A,117.0495,36.663,济南市,市监测站,细颗粒物(PM2.5),117,171,149,88,68,72,,68,45,62,49,16,12,0.9,0.9
2025-01-01T1600,1306A,116.7675,36.5484,济南市,长清党校,细颗粒物(PM2.5),104,137,157,78,73,118,,100,100,35,33,14,12,1.1,1
2025-01-01T1600,1616A,117.6795,36.229,济南市,技术学院,细颗粒物(PM2.5),113,149,168,85,89,99,,69,69,40,60,19,22,1.0,1.5
2025-01-01T1600,1961A,117.532,36.6868,济南市,东山小学,细颗粒物(PM2.5),135,171,147,103,73,92,,83,83,38,38,23,12,1.2,0.9
2025-01-01T1600,3059A,117.7161,36.2049,济南市,泰兴公司,,,144,191,,108,101,,66,66,32,64,19,20,0.7,1.2
2025-01-01T1600,3064A,117.6867,36.2171,济南市,莱芜战役纪念馆,细颗粒物(PM2.5),113,151,174,85,87,99,,65,65,39,67,15,20,0.8,1.3
2025-01-01T1600,3494A,117.1673,36.9782,济南市,济阳区政府,颗粒物(PM10),95,139,162,63,72,96,,72,72,62,76,13,16,0.9,1
2025-01-01T1600,3495A,117.1171,36.63,济南市,锦屏中学,细颗粒物(PM2.5),110,154,128,83,65,68,,89,70,70,35,15,11,0.7,0.6
2025-01-01T1600,3682A,116.9814,36.6819,济南市,济南四建,颗粒物(PM10),92,134,150,63,77,76,,51,44,56,58,16,15,1.0,1.1
2025-01-01T1600,1653A,116.6251,35.4302,济宁市,火炬城,细颗粒物(PM2.5),119,135,149,90,87,89,,69,69,41,44,15,15,1.0,0.9
2025-01-01T1600,1655A,116.5491,35.4042,济宁市,电化厂,细颗粒物(PM2.5),122,170,169,92,80,82,,67,67,48,44,16,16,1.2,1.1
2025-01-01T1600,3500A,116.5814,35.3707,济宁市,北湖一中,细颗粒物(PM2.5),147,138,146,112,95,85,,65,65,47,46,14,13,0.6,0.6
2025-01-01T1600,3501A,116.8249,35.5593,济宁市,服务中心,,,,190,,90,,,46,,,60,,19,,0.9
2025-01-01T1600,3678A,116.5907,35.4054,济宁市,市第七中学,细颗粒物(PM2.5),119,150,157,90,87,86,,67,67,46,48,10,10,1.3,1.2
2025-01-01T1600,2255A,130.2751,46.8028,佳木斯市,佳纺,细颗粒物(PM2.5),97,79,65,72,63,44,,45,45,34,28,9,9,0.9,0.8
2025-01-01T1600,2256A,130.3995,46.8307,佳木斯市,发电厂,细颗粒物(PM2.5),99,78,58,74,61,44,,41,41,32,28,6,7,0.7,1.4
2025-01-01T1600,2257A,130.3258,46.7975,佳木斯市,环保局,细颗粒物(PM2.5),89,78,68,66,58,38,,34,34,40,37,13,11,0.8,0.8
2025-01-01T1600,2258A,130.3648,46.8032,佳木斯市,十一中,细颗粒物(PM2.5),79,,61,58,60,38,,35,35,40,36,8,8,0.8,0.8
2025-01-01T1600,2259A,130.3794,46.7588,佳木斯市,四丰,细颗粒物(PM2.5),63,58,63,45,46,59,,49,49,11,12,1,1,1.0,0.8
2025-01-01T1600,1252A,120.7436,30.778,嘉兴市,清河小学,颗粒物(PM10),64,77,92,37,45,107,,80,80,28,56,10,9,0.3,0.6
2025-01-01T1600,1253A,120.726,30.7478,嘉兴市,嘉兴学院,颗粒物(PM10),69,88,100,38,47,112,,79,79,22,56,8,8,0.5,0.7
2025-01-01T1600,2872A,120.7846,30.7525,嘉兴市,南湖区残联,颗粒物(PM10),74,98,106,47,48,114,,86,86,25,58,10,10,0.6,0.7
2025-01-01T1600,3407A,120.6916,30.7739,嘉兴市,秀洲住建,颗粒物(PM10),64,78,98,38,47,114,,82,82,21,56,8,8,0.5,0.6
2025-01-01T1600,1945A,98.2908,39.7711,嘉峪关市,气象局,颗粒物(PM10),52,53,97,19,37,81,,57,57,12,29,8,58,0.2,0.7
2025-01-01T1600,2884A,98.2672,39.7978,嘉峪关市,酒钢宾馆,颗粒物(PM10),56,61,112,24,34,66,,53,53,21,28,26,46,0.8,0.8
2025-01-01T1600,3248A,98.2643,39.7724,嘉峪关市,雄关区,,41,41,71,20,26,82,,59,59,14,33,10,19,0.2,0.6
2025-01-01T1600,1383A,113.1064,22.6058,江门市,北街,细颗粒物(PM2.5),90,80,96,67,69,137,,86,86,39,70,7,8,0.8,1
2025-01-01T1600,1384A,113.0731,22.5835,江门市,西区,细颗粒物(PM2.5),73,85,118,53,65,140,,91,91,30,67,10,12,0.7,0.9
2025-01-01T1600,1385A,113.0219,22.5311,江门市,圭峰西,细颗粒物(PM2.5),79,76,78,58,59,140,,99,99,36,45,7,9,0.7,0.7
2025-01-01T1600,1386A,113.0828,22.5947,江门市,东湖,细颗粒物(PM2.5),79,89,101,58,71,137,,90,90,30,60,9,9,0.6,0.9
2025-01-01T1600,3311A,113.1075,22.5647,江门市,江海富民,细颗粒物(PM2.5),85,90,104,63,60,144,,90,90,37,70,10,12,0.6,1.2
2025-01-01T1600,3449A,113.05,22.4667,江门市,新会银湖,细颗粒物(PM2.5),80,70,95,59,76,137,,97,97,34,67,9,7,0.7,1.1
2025-01-01T1600,1828A,113.227,35.2125,焦作市,市环保局,细颗粒物(PM2.5),120,166,144,91,87,83,,44,44,40,59,17,13,1.2,1.2
2025-01-01T1600,1830A,113.1992,35.2590,焦作市,影视城,细颗粒物(PM2.5),127,,,96,80,88,,68,68,45,41,25,21,1.3,1.1
2025-01-01T1600,3169A,113.2725,35.2067,焦作市,太极体育中心,细颗粒物(PM2.5),124,173,150,94,87,77,,43,43,48,72,19,16,1.2,1.4
2025-01-01T1600,3335A,113.3137,35.2641,焦作市,马村街道办,细颗粒物(PM2.5),155,187,129,118,77,59,,41,41,57,46,38,19,1.7,1.3
2025-01-01T1600,3336A,113.2465,35.2373,焦作市,焦作技师学院,细颗粒物(PM2.5),128,188,137,97,78,72,,43,43,52,61,22,16,1.4,1.4
2025-01-01T1600,3477A,113.1656,35.2539,焦作市,中站许衡医院,细颗粒物(PM2.5),135,173,102,103,56,91,,68,68,36,33,24,17,1.3,0.7
2025-01-01T1600,3981A,113.2449,35.1803,焦作市,原李万街道办,细颗粒物(PM2.5),119,162,146,90,90,76,,42,42,39,61,18,19,1.4,1.4
2025-01-01T1600,1708A,116.3701,23.5345,揭阳市,新兴,细颗粒物(PM2.5),74,71,62,54,43,112,,93,87,34,28,10,10,0.8,0.7
2025-01-01T1600,1709A,116.3264,23.5443,揭阳市,西马,,,77,67,53,40,125,,102,102,,23,,11,0.7,0.7
2025-01-01T1600,1710A,116.3611,23.5626,揭阳市,东兴,细颗粒物(PM2.5),70,87,69,51,37,116,,93,93,31,25,14,13,0.8,0.7
2025-01-01T1600,1711A,116.4151,23.5294,揭阳市,渔湖,细颗粒物(PM2.5),64,70,65,46,39,127,,96,94,30,29,14,14,0.6,0.6
2025-01-01T1600,3320A,116.403,23.5699,揭阳市,曲溪,细颗粒物(PM2.5),75,82,76,55,44,122,,100,100,39,31,14,12,0.8,0.8
2025-01-01T1600,1944A,102.1692,38.5167,金昌市,天庆家园,颗粒物(PM10),56,61,94,19,41,80,,64,64,8,28,14,38,0.9,1.1
2025-01-01T1600,3170A,102.1864,38.5253,金昌市,市委党校,颗粒物(PM10),55,59,129,19,52,86,,78,78,8,30,8,32,0.5,1
2025-01-01T1600,4022A,102.1647,38.5371,金昌市,金川区人防中心,,47,47,119,12,59,84,,73,73,8,21,12,31,0.5,0.8
2025-01-01T1600,1262A,119.647,29.077,金华市,十五中,细颗粒物(PM2.5),93,106,136,69,85,123,,81,81,33,67,6,8,0.6,0.8
2025-01-01T1600,1263A,119.686,29.1029,金华市,监测站,细颗粒物(PM2.5),93,122,143,69,90,118,,74,74,41,76,7,7,0.6,0.7
2025-01-01T1600,3659A,119.656,29.1131,金华市,气象局,细颗粒物(PM2.5),94,115,143,70,81,125,,66,66,33,77,7,6,0.7,1
2025-01-01T1600,1767A,121.1115,41.0879,锦州市,南山,,34,34,52,17,44,78,,62,62,11,37,6,13,0.3,1
2025-01-01T1600,1768A,121.0533,40.8434,锦州市,开发区,颗粒物(PM10),51,52,72,13,32,42,,47,47,46,55,18,28,0.4,1
2025-01-01T1600,1769A,121.1836,41.1119,锦州市,百股街道,,25,18,44,7,25,78,,64,64,13,34,9,14,0.1,0.4
2025-01-01T1600,1770A,121.1178,41.1222,锦州市,天安街道,,25,25,56,13,28,72,,58,58,14,33,12,16,0.5,0.8
2025-01-01T1600,1771A,121.1303,41.1386,锦州市,北湖公园,,22,22,50,14,27,66,,59,59,13,25,11,15,0.4,0.7
2025-01-01T1600,2160A,112.85,35.5051,晋城市,自来水公司,细颗粒物(PM2.5),77,97,114,56,72,78,,55,55,38,53,16,18,1.3,1.9
2025-01-01T1600,2161A,112.8318,35.4936,晋城市,白云商贸,颗粒物(PM10),79,107,114,56,65,78,,54,54,38,47,16,14,1.2,1.6
2025-01-01T1600,2162A,112.8508,35.4887,晋城市,市环保局,细颗粒物(PM2.5),94,127,124,70,73,76,,57,57,42,54,18,18,1.2,1.7
2025-01-01T1600,2163A,112.8676,35.4897,晋城市,技术学院,"颗粒物(PM10),细颗粒物(PM2.5)",85,120,111,63,66,80,,58,58,41,58,17,18,1.4,1.7
2025-01-01T1600,2165A,112.8453,35.546,晋城市,白马寺,细颗粒物(PM2.5),62,46,80,44,47,67,,59,51,15,24,12,26,0.8,1.9
2025-01-01T1600,3620A,112.8271,35.4828,晋城市,泽州一中,细颗粒物(PM2.5),92,76,108,68,65,79,,58,58,35,40,13,15,1.4,1.7
2025-01-01T1600,2171A,112.7532,37.6945,晋中市,锦纶小区,细颗粒物(PM2.5),83,114,117,61,57,57,,45,45,53,49,28,21,1.5,0.9
2025-01-01T1600,2173A,112.7249,37.7067,晋中市,南都小区,细颗粒物(PM2.5),98,116,202,73,121,59,,44,44,56,61,34,26,1.5,1.2
2025-01-01T1600,2174A,112.6991,37.6982,晋中市,榆次区政府,颗粒物(PM10),97,144,163,66,80,51,,41,41,65,58,38,24,1.8,1.2
2025-01-01T1600,2865A,112.7195,37.6828,晋中市,榆次三中,细颗粒物(PM2.5),89,124,128,66,64,55,,42,42,55,52,34,21,1.5,1.1
2025-01-01T1600,2439A,112.2014,31.0481,荆门市,竹园小学,细颗粒物(PM2.5),132,126,160,100,124,155,,104,104,20,34,14,15,0.7,0.9
2025-01-01T1600,2440A,112.1969,30.9891,荆门市,掇刀,细颗粒物(PM2.5),129,147,165,98,125,160,,115,115,20,38,11,13,0.7,0.9
2025-01-01T1600,2441A,112.2213,31.0386,荆门市,石化一小,细颗粒物(PM2.5),123,124,164,93,120,157,,96,96,20,41,6,12,0.5,0.7
2025-01-01T1600,3012A,112.1849,31.0362,荆门市,西山林语,细颗粒物(PM2.5),119,116,143,90,115,157,,110,110,16,27,10,11,0.5,0.6
2025-01-01T1600,3547A,112.1632,31.0138,荆门市,龙泉中学南校,细颗粒物(PM2.5),128,125,160,97,130,152,,116,116,21,30,13,15,0.7,0.9
2025-01-01T1600,1844A,112.2494,30.3197,荆州市,市图书馆,细颗粒物(PM2.5),132,,115,100,103,157,,108,108,24,43,9,8,0.7,0.9
2025-01-01T1600,1845A,112.2008,30.3544,荆州市,市委党校,细颗粒物(PM2.5),134,107,135,102,123,153,,105,105,24,51,12,11,0.7,1
2025-01-01T1600,3194A,112.2747,30.3122,荆州市,管委会,细颗粒物(PM2.5),132,,150,100,125,163,,116,116,25,38,10,9,0.7,0.9
2025-01-01T1600,3548A,112.1655,30.3364,荆州市,学苑路,细颗粒物(PM2.5),119,105,128,90,117,160,,108,108,31,51,13,13,0.8,1
2025-01-01T1600,2342A,117.3102,29.3867,景德镇市,王港中学,,,,,,,,,,,,,,,,
2025-01-01T1600,2343A,117.2117,29.2933,景德镇市,老干部活动中心,,,,96,,68,,,46,,,35,,14,,0.6
2025-01-01T1600,2344A,117.1894,29.2789,景德镇市,兽医站,,,55,106,26,75,117,,86,86,6,25,4,5,,0.4
2025-01-01T1600,2345A,117.1547,29.2617,景德镇市,台达陶瓷,,49,49,111,30,60,110,,89,89,34,46,45,25,0.4,0.5
2025-01-01T1600,2346A,117.2461,29.2956,景德镇市,陶研所,,41,41,77,23,48,117,,74,74,12,31,3,5,0.6,0.7
2025-01-01T1600,1803A,115.9872,29.6815,九江市,十里,细颗粒物(PM2.5),84,100,122,62,89,105,,59,59,33,56,13,11,0.8,1.1
2025-01-01T1600,1804A,115.9584,29.7046,九江市,茅山头,细颗粒物(PM2.5),82,91,131,60,91,99,,56,56,54,72,18,9,1.1,1.1
2025-01-01T1600,1805A,115.9877,29.7295,九江市,西园,细颗粒物(PM2.5),74,85,142,54,106,96,,54,54,38,88,15,13,0.7,0.9
2025-01-01T1600,1806A,116.0172,29.6547,九江市,五七二七厂,细颗粒物(PM2.5),87,97,120,64,72,101,,63,63,34,40,15,14,0.6,1
2025-01-01T1600,1808A,115.9114,29.6038,九江市,综合工业园,细颗粒物(PM2.5),122,118,103,92,81,72,,50,50,70,74,21,11,1.0,0.8
2025-01-01T1600,1809A,116.0721,29.7535,九江市,石化总厂,颗粒物(PM10),71,91,128,42,84,94,,57,57,44,72,15,14,0.7,1
2025-01-01T1600,1810A,115.9773,29.5698,九江市,庐山气象台,细颗粒物(PM2.5),99,78,30,74,18,83,,100,91,40,10,17,7,2.0,0.9
2025-01-01T1600,3190A,116.0254,29.6994,九江市,外国语学校,细颗粒物(PM2.5),82,104,143,60,93,99,,55,55,34,47,15,17,0.6,0.9
2025-01-01T1600,2658A,98.5061,39.7443,酒泉市,仓门街子站,,,,178,,52,90,,54,54,7,24,6,21,0.4,0.8
2025-01-01T1600,2659A,98.4989,39.7256,酒泉市,油田生活基地,颗粒物(PM10),58,66,182,30,54,88,,47,47,9,28,12,22,0,0.6
2025-01-01T1600,2698A,76.0072,39.4467,喀什地区,巡警大队,颗粒物(PM10),75,100,164,53,99,63,,43,43,25,60,5,4,0.8,2.8
2025-01-01T1600,2699A,75.9755,39.4694,喀什地区,吾办,细颗粒物(PM2.5),92,105,152,68,113,53,,35,35,25,67,4,2,1.1,2.6
2025-01-01T1600,4027A,75.9483,39.4689,喀什地区,老干局,颗粒物(PM10),81,111,199,52,111,62,,32,32,28,62,4,3,1.1,4.2
2025-01-01T1600,1824A,114.3389,34.7781,开封市,肿瘤医院,细颗粒物(PM2.5),135,162,143,103,81,74,,50,50,,44,,7,1.2,0.8
2025-01-01T1600,1826A,114.2885,34.7965,开封市,世纪星幼儿园,细颗粒物(PM2.5),188,172,135,141,94,78,,54,54,49,34,13,5,1.1,0.6
2025-01-01T1600,3147A,114.3438,34.8106,开封市,龙亭公园,细颗粒物(PM2.5),152,179,140,116,90,79,,53,53,50,40,13,5,1.4,0.8
2025-01-01T1600,3210A,114.3644,34.7964,开封市,汴京公园,细颗粒物(PM2.5),160,187,161,122,95,74,,52,52,52,44,13,6,1.0,0.7
2025-01-01T1600,3473A,114.2485,34.8306,开封市,技师学院,颗粒物(PM10),124,197,158,88,72,73,,45,45,56,39,15,9,1.6,0.9
2025-01-01T1600,3592A,114.4644,34.7556,开封市,祥符区生态环境局,细颗粒物(PM2.5),149,182,165,114,90,69,,47,47,38,52,10,5,0.7,0.5
2025-01-01T1600,1951A,84.895,45.6094,克拉玛依市,长征新村,细颗粒物(PM2.5),133,138,148,101,101,56,,41,41,36,42,7,7,1.2,1.1
2025-01-01T1600,1952A,84.8988,45.5893,克拉玛依市,南林小区,细颗粒物(PM2.5),138,143,139,105,106,53,,45,45,35,34,2,2,1.4,1.3
2025-01-01T1600,1954A,84.905,44.3396,克拉玛依市,独山子区,细颗粒物(PM2.5),303,329,184,253,154,42,,44,37,64,70,5,5,1.6,1.3
2025-01-01T1600,1955A,85.6979,46.098,克拉玛依市,乌尔禾区商贸楼,细颗粒物(PM2.5),129,,114,98,113,82,,58,58,31,43,9,7,1.0,1.2
2025-01-01T1600,3612A,85.1045,45.6899,克拉玛依市,白碱滩区新站,细颗粒物(PM2.5),124,135,147,94,101,60,,44,44,39,40,10,9,1.3,1.4
2025-01-01T1600,2697A,76.1454,39.7142,克孜勒苏柯尔克孜自治州,市人民政府,细颗粒物(PM2.5),92,98,115,68,86,74,,56,56,20,28,6,5,1.2,1.7
2025-01-01T1600,3665A,76.1658,39.7157,克孜勒苏柯尔克孜自治州,克州文化中心,细颗粒物(PM2.5),83,73,102,61,81,73,,64,64,21,37,10,10,1.2,1.6
2025-01-01T1600,1450A,102.8204,24.8886,昆明市,呈贡新区,,,,25,,22,95,,70,70,,16,3,6,,0.5
2025-01-01T1600,1451A,102.6251,24.9608,昆明市,西山森林公园,,,,,,,,,,,,,,,,
2025-01-01T1600,1452A,102.7252,25.0902,昆明市,龙泉镇,,30,,39,7,25,95,,62,62,10,25,11,8,0.2,0.6
2025-01-01T1600,1453A,102.7266,25.0375,昆明市,东风东路,,29,12,32,12,26,92,,67,67,10,17,12,8,0.4,0.6
2025-01-01T1600,1454A,102.6742,25.0669,昆明市,金鼎山,,,26,33,7,20,89,,63,63,11,21,,13,0.5,0.7
2025-01-01T1600,1455A,102.6644,25.0401,昆明市,碧鸡广场,,30,10,30,9,22,94,,64,64,8,21,11,10,0.4,0.6
2025-01-01T1600,3179A,102.7494,25.0119,昆明市,官渡区博物馆,,30,17,44,9,28,94,,67,67,8,24,13,9,0.4,0.8
2025-01-01T1600,3375A,102.8017,24.8336,昆明市,青年创业园,,33,12,28,11,20,103,,69,69,4,15,8,8,0.5,0.7
2025-01-01T1600,3550A,102.7997,24.9786,昆明市,昆明学院,,31,15,53,7,26,98,,67,67,8,23,12,10,0.5,0.7
2025-01-01T1600,3551A,102.5967,24.6736,昆明市,晋宁区生态环境分局,,29,10,49,3,29,91,,76,76,2,10,2,4,0.3,0.6
2025-01-01T1600,3552A,102.6678,24.9856,昆明市,云天化总部,,32,10,26,7,17,100,,81,81,6,19,15,8,0.3,0.4
2025-01-01T1600,1456A,91.1319,29.6514,拉萨市,八廓街,,34,34,27,17,18,97,,74,74,16,26,7,7,0.3,0.4
2025-01-01T1600,1457A,91.1221,29.6747,拉萨市,市环保局,,32,18,40,7,24,101,,72,72,14,30,4,5,0.4,0.9
2025-01-01T1600,1458A,91.0874,29.6475,拉萨市,区监测站,,31,12,23,7,15,98,,71,71,12,40,6,7,0.3,0.5
2025-01-01T1600,1459A,91.1774,29.6541,拉萨市,西藏大学,,33,18,25,8,12,105,,77,77,10,18,5,5,0.6,0.6
2025-01-01T1600,1460A,90.9798,29.6588,拉萨市,区辐射站,,29,15,27,8,18,92,,64,64,12,28,7,8,0.4,0.6
2025-01-01T1600,1461A,91.0834,29.6292,拉萨市,拉萨火车站,,31,12,23,7,16,97,,63,63,14,30,4,5,0.5,0.8
2025-01-01T1600,2520A,109.2203,23.7256,来宾市,来宾技工学校,细颗粒物(PM2.5),113,103,153,85,124,169,,102,102,22,45,9,13,1.1,1.3
2025-01-01T1600,3535A,109.1781,23.7297,来宾市,兴宾区政府,细颗粒物(PM2.5),148,146,151,113,122,181,,114,114,28,31,25,10,1.2,1.3
2025-01-01T1600,4002A,109.2416,23.7461,来宾市,中南小学,细颗粒物(PM2.5),122,115,176,92,135,163,,98,98,,48,15,13,1.3,1.5
2025-01-01T1600,1476A,103.631,36.1031,兰州市,兰炼宾馆,细颗粒物(PM2.5),82,76,122,60,82,84,,54,54,48,79,40,39,0.9,1.5
2025-01-01T1600,1477A,104.1373,35.9454,兰州市,榆中兰大校区,,,,,,,,,,,,,,,,
2025-01-01T1600,1478A,103.8412,36.0726,兰州市,生物制品所,细颗粒物(PM2.5),65,61,101,47,59,57,,32,32,61,85,20,19,1.0,1.5
2025-01-01T1600,1479A,103.831,36.0464,兰州市,铁路设计院,细颗粒物(PM2.5),84,83,132,62,87,50,,28,28,70,94,18,26,0.9,2.3
2025-01-01T1600,3186A,103.7158,36.1058,兰州市,教育港,颗粒物(PM10),56,61,124,39,76,79,,45,45,48,87,33,28,1.0,1.7
2025-01-01T1600,3241A,103.7439,36.0842,兰州市,百合公园,细颗粒物(PM2.5),52,51,121,36,79,74,,45,45,47,86,21,22,1.0,2.2
2025-01-01T1600,3242A,103.9611,35.998,兰州市,和平,颗粒物(PM10),61,72,94,40,57,77,,47,47,33,51,20,26,0.9,1.3
2025-01-01T1600,3245A,103.6633,36.533,兰州新区,新区管委会,,35,32,49,24,31,97,,70,70,16,26,18,17,0.3,0.6
2025-01-01T1600,3246A,103.6975,36.4789,兰州新区,舟曲中学,,28,27,59,15,32,88,,58,58,14,38,16,20,0.2,0.8
2025-01-01T1600,1067A,116.6708,39.5111,廊坊市,药材公司,颗粒物(PM10),56,62,138,31,76,43,,31,31,42,67,10,9,1.0,1
2025-01-01T1600,1068A,116.7214,39.5589,廊坊市,开发区,颗粒物(PM10),62,73,127,34,64,51,,36,36,34,66,11,10,0.9,0.9
2025-01-01T1600,1070A,116.7244,39.5269,廊坊市,北华航天学院,颗粒物(PM10),61,72,137,34,67,47,,36,36,32,62,14,13,0.9,1
2025-01-01T1600,2919A,116.7022,39.5453,廊坊市,河北工业大学,颗粒物(PM10),60,70,132,36,68,50,,36,36,36,66,11,10,0.9,0.8
2025-01-01T1600,2535A,103.7723,29.5462,乐山市,花湖湾,细颗粒物(PM2.5),104,80,105,78,98,122,,59,59,11,27,7,6,0.4,0.6
2025-01-01T1600,2536A,103.7627,29.5844,乐山市,牛耳桥,细颗粒物(PM2.5),102,86,104,76,89,106,,49,49,22,40,7,6,0.6,0.7
2025-01-01T1600,2537A,103.7508,29.6006,乐山市,市第三水厂,细颗粒物(PM2.5),117,105,112,88,93,108,,53,53,20,43,7,5,0.8,1
2025-01-01T1600,2538A,103.7571,29.5664,乐山市,市监测站,细颗粒物(PM2.5),115,95,109,87,87,108,,53,53,,44,5,4,0.8,1
2025-01-01T1600,3361A,103.7311,29.5628,乐山市,理工大学,细颗粒物(PM2.5),104,86,101,78,88,81,,42,42,18,39,8,7,0.7,0.9
2025-01-01T1600,2598A,100.2143,26.8576,丽江市,西南郊,,36,36,29,11,16,99,,83,83,4,6,5,4,0.6,0.6
2025-01-01T1600,2599A,100.2497,26.8802,丽江市,丽江古城,,30,24,27,13,17,95,,83,83,8,10,9,9,0.4,0.5
2025-01-01T1600,2600A,100.2203,26.8906,丽江市,市中心,,29,9,16,3,12,91,,73,73,8,13,11,10,0.5,0.6
2025-01-01T1600,1267A,119.914,28.4514,丽水市,监测站大楼,细颗粒物(PM2.5),75,76,74,55,62,113,,65,65,24,43,6,5,0.5,0.5
2025-01-01T1600,1268A,119.93,28.4586,丽水市,莲都小学,,,88,87,52,56,123,,73,73,,41,8,7,0.7,0.7
2025-01-01T1600,1269A,119.879,28.4231,丽水市,余庄前,细颗粒物(PM2.5),82,92,81,60,61,114,,71,71,46,36,6,5,0.6,0.6
2025-01-01T1600,1173A,119.176,34.5885,连云港市,市环境监测站,颗粒物(PM10),75,100,109,48,61,110,,79,79,22,44,12,11,0.8,0.9
2025-01-01T1600,3000A,119.3581,34.6972,连云港市,德源药业,颗粒物(PM10),67,83,98,36,43,108,,72,72,21,55,8,9,0.3,0.4
2025-01-01T1600,3007A,119.178,34.844,连云港市,新城一中,细颗粒物(PM2.5),120,135,106,91,67,37,,52,52,67,51,12,14,0.8,0.7
2025-01-01T1600,3008A,119.3608,34.7519,连云港市,胡沟管理处,颗粒物(PM10),80,110,101,58,48,48,,44,35,46,38,8,8,0.8,0.7
2025-01-01T1600,3009A,119.1478,34.5911,连云港市,矿山设计院,颗粒物(PM10),71,92,111,39,61,110,,78,78,21,45,9,10,0.6,0.7
2025-01-01T1600,3434A,119.2413,34.6539,连云港市,工贸学校,颗粒物(PM10),73,95,93,48,47,110,,87,87,22,24,12,11,0.5,0.5
2025-01-01T1600,3664A,119.4172,34.7341,连云港市,连云街道,颗粒物(PM10),82,113,125,52,54,69,,25,25,48,50,9,11,0.5,0.5
2025-01-01T1600,2571A,102.3431,27.8099,凉山彝族自治州,青龙寺,,50,50,58,18,23,139,,84,84,8,13,12,8,1.2,1.1
2025-01-01T1600,2572A,102.2721,27.8415,凉山彝族自治州,邛海宾馆,,47,47,64,26,45,120,,74,74,9,21,16,13,0.8,1
2025-01-01T1600,2573A,102.2625,27.898,凉山彝族自治州,西昌市政府,颗粒物(PM10),51,52,51,35,39,113,,66,66,13,21,17,11,1.0,1
2025-01-01T1600,2574A,102.2685,27.8851,凉山彝族自治州,凉山州政府,,47,47,60,32,40,114,,68,68,14,23,15,9,0.8,0.8
2025-01-01T1600,2575A,102.237,27.8914,凉山彝族自治州,长安,颗粒物(PM10),72,94,89,43,45,114,,61,61,18,32,15,11,0.7,0.6
2025-01-01T1600,2212A,123.2,41.1953,辽阳市,宏伟区,,32,32,44,3,14,62,,61,61,7,14,11,13,0.3,0.5
2025-01-01T1600,2213A,123.1683,41.2495,辽阳市,新华园,,26,25,55,18,32,62,,52,52,13,33,10,14,0.4,0.8
2025-01-01T1600,2214A,123.2354,41.2639,辽阳市,滨河路,,,,42,22,22,62,,52,52,12,27,6,18,,1
2025-01-01T1600,2215A,123.149,41.2991,辽阳市,铁西工业园,,25,25,54,13,28,67,,58,58,10,28,5,11,0.4,0.9
2025-01-01T1600,2227A,125.1358,42.8845,辽源市,环保局,,21,18,33,10,17,67,,62,62,10,18,7,9,0.5,0.7
2025-01-01T1600,3239A,125.0764,42.9078,辽源市,银鹰制药,,22,19,34,13,22,68,,64,64,7,21,8,10,0.4,0.7
2025-01-01T1600,1625A,115.9848,36.4372,聊城市,区政府,细颗粒物(PM2.5),139,172,170,106,90,82,,70,70,38,37,18,17,1.0,0.9
2025-01-01T1600,2878A,116.0072,36.4343,聊城市,聊大东校,细颗粒物(PM2.5),148,185,187,113,98,81,,69,69,40,40,15,14,1.0,1
2025-01-01T1600,3200A,115.9819,36.4978,聊城市,监控中心,细颗粒物(PM2.5),180,190,174,136,94,76,,70,70,55,41,16,14,1.3,1.1
2025-01-01T1600,3513A,116.0445,36.4361,聊城市,九州社区,细颗粒物(PM2.5),130,155,158,99,88,94,,73,73,30,33,13,12,0.9,0.8
2025-01-01T1600,4018A,116.0567,36.4608,聊城市,星美广场,细颗粒物(PM2.5),139,169,166,106,90,97,,76,76,32,31,14,14,1.1,1
2025-01-01T1600,2632A,94.3681,29.6376,林芝市,林芝监测站,,29,15,17,3,10,90,,76,76,3,11,6,6,0.2,0.4
2025-01-01T1600,2633A,94.3616,29.6616,林芝市,林芝人民医院,,27,10,14,3,8,84,,70,70,4,7,6,6,0.3,0.4
2025-01-01T1600,2603A,100.0781,23.8982,临沧市,市环保局,,27,25,34,11,25,86,,55,55,9,15,10,11,0.3,0.5
2025-01-01T1600,2604A,100.0894,23.8822,临沧市,市气象局,,30,19,35,15,26,93,,54,54,9,16,8,10,0.4,0.6
2025-01-01T1600,1733A,111.5531,36.0783,临汾市,临钢医院,细颗粒物(PM2.5),107,152,101,80,48,71,,40,40,43,43,30,10,2.1,1.1
2025-01-01T1600,1734A,111.5028,36.0714,临汾市,技工学校,,,,114,,55,,,44,,,54,,9,,0.9
2025-01-01T1600,1736A,111.5018,36.0855,临汾市,市委,细颗粒物(PM2.5),114,156,128,86,59,78,,41,41,40,51,26,13,1.9,1.1
2025-01-01T1600,3018A,111.505,36.1014,临汾市,唐尧大酒店,细颗粒物(PM2.5),122,134,105,92,57,73,,39,39,40,47,28,16,1.8,0.9
2025-01-01T1600,3668A,111.5036,36.0414,临汾市,城南,细颗粒物(PM2.5),118,144,105,89,57,72,,41,41,42,46,29,10,1.6,0.9
2025-01-01T1600,2667A,103.2069,35.5993,临夏回族自治州,环保局,,39,39,64,24,48,87,,46,46,13,40,17,15,0.6,2
2025-01-01T1600,2668A,103.2417,35.6057,临夏回族自治州,建设大厦,,40,28,50,28,42,90,,50,50,13,30,20,15,0.7,1.3
2025-01-01T1600,1618A,118.3429,35.0532,临沂市,沂河小区,细颗粒物(PM2.5),93,114,164,69,97,91,,58,58,38,64,19,24,0.6,1
2025-01-01T1600,1619A,118.295,35.0583,临沂市,鲁南制药厂,颗粒物(PM10),84,117,160,55,77,90,,61,61,41,67,16,28,0.7,1.3
2025-01-01T1600,1620A,118.2794,34.9976,临沂市,新光毛纺厂,颗粒物(PM10),75,100,151,51,82,101,,67,67,27,70,14,24,0.6,1.1
2025-01-01T1600,1621A,118.3956,35.0888,临沂市,河东保险公司,颗粒物(PM10),79,107,160,54,91,100,,60,60,31,65,15,21,0.8,1.1
2025-01-01T1600,3370A,118.3564,35.0215,临沂市,十里堡居委,颗粒物(PM10),74,97,152,51,85,99,,64,64,31,57,15,26,0.9,1.3
2025-01-01T1600,3496A,118.3604,35.1084,临沂市,南坊新区,细颗粒物(PM2.5),89,112,168,66,97,88,,58,58,53,68,15,21,0.9,1.1
2025-01-01T1600,3860A,118.3920,35.0300,临沂市,皇山花园小区,颗粒物(PM10),78,105,156,52,77,97,,60,60,37,66,12,21,1.0,1.4
2025-01-01T1600,1870A,109.4856,24.3895,柳州市,柳东小学,细颗粒物(PM2.5),102,87,109,76,88,151,,96,96,19,24,13,16,0.5,0.7
2025-01-01T1600,1871A,109.4157,24.3277,柳州市,环保监测站,细颗粒物(PM2.5),90,86,154,67,107,154,,90,90,24,46,24,20,1.2,1.2
2025-01-01T1600,1872A,109.389,24.341,柳州市,河西水厂,细颗粒物(PM2.5),83,101,161,61,97,146,,82,82,27,51,20,22,1.3,1.4
2025-01-01T1600,1873A,109.4311,24.2921,柳州市,市四中,细颗粒物(PM2.5),107,95,146,80,106,162,,96,96,22,47,14,16,1.1,1.5
2025-01-01T1600,1874A,109.4006,24.3631,柳州市,市九中,细颗粒物(PM2.5),108,106,140,81,107,144,,87,87,27,44,21,19,1.5,1.4
2025-01-01T1600,1875A,109.4958,24.3134,柳州市,古亭山,,,89,86,63,63,159,,96,96,20,53,,19,1.1,1.1
2025-01-01T1600,3402A,109.5422,24.3996,柳州市,市二中,细颗粒物(PM2.5),108,108,98,81,83,134,,74,74,21,33,12,11,0.9,1
2025-01-01T1600,2307A,116.5079,31.737,六安市,监测大楼,细颗粒物(PM2.5),77,86,110,56,76,109,,79,79,26,36,9,8,0.7,0.8
2025-01-01T1600,2308A,116.4738,31.7643,六安市,皖西学院,细颗粒物(PM2.5),77,92,115,56,74,112,,84,84,26,38,8,9,0.9,1
2025-01-01T1600,2309A,116.4996,31.7905,六安市,朝阳厂,细颗粒物(PM2.5),82,84,108,60,73,107,,80,80,28,35,6,6,1.0,1.1
2025-01-01T1600,2310A,116.5567,31.7886,六安市,开发区,,,,139,,74,107,,77,77,24,41,7,3,,0.9
2025-01-01T1600,2576A,104.8,26.5892,六盘水市,窑上,,,,55,,39,,,53,,,22,,7,,1.0
2025-01-01T1600,2577A,104.83,26.5917,六盘水市,黄土坡,细颗粒物(PM2.5),78,71,66,57,50,77,,51,51,20,23,14,15,0.9,1
2025-01-01T1600,2578A,104.89,26.5939,六盘水市,水钢,细颗粒物(PM2.5),75,81,59,55,39,87,,62,62,13,14,8,9,0.9,1
2025-01-01T1600,2579A,104.8475,26.5894,六盘水市,民中,细颗粒物(PM2.5),64,55,58,46,46,84,,56,56,16,20,12,11,0.8,1
2025-01-01T1600,2580A,104.9544,26.5506,六盘水市,双水,细颗粒物(PM2.5),78,85,57,57,37,90,,66,65,14,12,10,10,0.7,0.7
2025-01-01T1600,2335A,117.0189,25.1181,龙岩市,龙岩师专,,,,,,,,,,,,,,,,
2025-01-01T1600,2336A,117.0217,25.1033,龙岩市,龙岩市监测站,细颗粒物(PM2.5),59,56,61,42,47,137,,96,96,19,33,4,9,0.6,0.7
2025-01-01T1600,2337A,117.0258,25.0661,龙岩市,闽西职业技术学院,颗粒物(PM10),56,61,79,39,48,130,,91,91,17,35,5,14,0.9,1
2025-01-01T1600,2338A,117.0196,25.0306,龙岩市,龙岩学院,"颗粒物(PM10),细颗粒物(PM2.5)",52,54,59,36,47,133,,88,88,16,23,15,14,0.6,0.6
2025-01-01T1600,2665A,105.0822,33.3261,陇南市,汉王镇固水子,,,,,,,,,,,,,,,,
2025-01-01T1600,2885A,104.9339,33.3826,陇南市,滨江中学,,43,43,92,20,50,88,,50,50,20,49,6,28,0.7,2.5
2025-01-01T1600,3247A,104.955,33.371,陇南市,市总工会,颗粒物(PM10),59,68,80,31,49,89,,55,55,25,36,7,12,0.4,0.7
2025-01-01T1600,2487A,111.9589,27.8901,娄底市,电视发射台,细颗粒物(PM2.5),94,76,56,70,57,135,,118,118,44,20,34,9,1.9,0.7
2025-01-01T1600,2488A,111.9975,27.725,娄底市,市监测站,细颗粒物(PM2.5),104,88,133,78,98,143,,77,77,15,51,13,17,0.6,1.4
2025-01-01T1600,2489A,112.0194,27.7314,娄底市,市委党校,细颗粒物(PM2.5),88,90,154,65,116,131,,84,84,22,48,12,11,0.7,1.1
2025-01-01T1600,2490A,111.9561,27.7569,娄底市,涟钢,细颗粒物(PM2.5),90,95,118,67,84,130,,72,72,29,32,33,18,1.5,1.6
2025-01-01T1600,2491A,111.9892,27.7044,娄底市,市政府,细颗粒物(PM2.5),89,84,123,66,98,136,,84,84,23,36,13,9,0.6,0.9
2025-01-01T1600,1893A,105.4324,28.9634,泸州市,九狮山,,,,,,,,,,,,,,,,
2025-01-01T1600,1894A,105.4427,28.9063,泸州市,小市上码头,细颗粒物(PM2.5),156,148,149,119,124,107,,51,51,30,34,5,3,0.9,0.9
2025-01-01T1600,1895A,105.4241,28.8573,泸州市,兰田宪桥,细颗粒物(PM2.5),173,158,103,131,110,95,,52,52,35,31,4,2,0.9,0.8
2025-01-01T1600,1896A,105.4379,28.8833,泸州市,市环监站,细颗粒物(PM2.5),162,146,142,123,116,88,,48,48,35,42,6,5,0.8,0.8
2025-01-01T1600,3490A,105.3617,28.7703,泸州市,纳溪区环保局,细颗粒物(PM2.5),150,126,107,115,89,117,,55,55,21,35,6,5,1.0,0.9
2025-01-01T1600,2183A,111.1406,37.5211,吕梁市,环保局,,48,48,94,19,32,73,,35,35,13,48,4,6,0.4,0.7
2025-01-01T1600,2185A,111.1297,37.5136,吕梁市,自来水公司,,48,48,132,24,48,72,,37,37,15,42,5,12,0.4,0.7
2025-01-01T1600,2867A,111.1283,37.51,吕梁市,马茂庄小学,颗粒物(PM10),53,56,123,11,42,79,,40,40,13,50,2,9,0.5,0.9
2025-01-01T1600,1812A,112.3931,34.6516,洛阳市,市委党校,颗粒物(PM10),74,97,137,40,79,78,,48,48,35,54,11,11,0.8,1
2025-01-01T1600,1814A,112.4657,34.6871,洛阳市,豫西宾馆,颗粒物(PM10),81,112,164,58,94,73,,49,49,38,60,13,16,0.8,1
2025-01-01T1600,1815A,112.494,34.6886,洛阳市,河南林校,细颗粒物(PM2.5),110,98,135,83,115,69,,45,45,35,53,9,6,0.9,1.1
2025-01-01T1600,1816A,112.3844,34.623,洛阳市,开发区管委会,细颗粒物(PM2.5),107,120,141,80,101,89,,52,52,24,45,12,11,0.8,1
2025-01-01T1600,1817A,112.4267,34.6258,洛阳市,市委新办公区,,,,153,69,98,84,,61,61,30,49,10,8,0.8,1
2025-01-01T1600,3340A,112.6005,34.6326,洛阳市,伊滨,颗粒物(PM10),74,97,158,45,75,91,,55,55,26,52,12,8,0.2,0.4
2025-01-01T1600,3341A,112.4951,34.6332,洛阳市,中移产业园,颗粒物(PM10),69,88,112,40,75,84,,62,62,29,48,11,10,0.9,0.9
2025-01-01T1600,3593A,112.5736,34.8993,洛阳市,吉利监测站,细颗粒物(PM2.5),110,114,98,83,60,78,,52,52,37,46,19,8,0.9,0.7
2025-01-01T1600,3635A,112.3677,34.662,洛阳市,河科大西苑校区,细颗粒物(PM2.5),79,100,159,58,95,82,,46,46,34,58,14,18,0.8,1.2
2025-01-01T1600,3636A,112.4388,34.6781,洛阳市,英才小学,细颗粒物(PM2.5),77,101,161,56,95,68,,41,41,40,66,11,16,0.9,1.2
2025-01-01T1600,2399A,114.051,33.5699,漯河市,三五一五工厂,,,,149,,90,,,74,,,47,,10,,0.7
2025-01-01T1600,2400A,114.0055,33.5698,漯河市,漯河大学,细颗粒物(PM2.5),134,122,136,102,88,149,,94,94,19,42,11,10,0.8,0.8
2025-01-01T1600,2401A,114.0138,33.5828,漯河市,市水利局,细颗粒物(PM2.5),134,127,146,102,92,144,,90,90,18,38,12,11,0.6,0.7
2025-01-01T1600,2402A,114.0261,33.5698,漯河市,市广电局,细颗粒物(PM2.5),134,122,142,102,98,141,,91,91,20,41,12,11,0.6,0.6
2025-01-01T1600,3478A,113.9749,33.5664,漯河市,市图书馆,细颗粒物(PM2.5),149,145,147,114,90,,,81,81,23,46,12,11,0.7,0.8
2025-01-01T1600,3479A,114.0967,33.5906,漯河市,召陵区卫健委,细颗粒物(PM2.5),142,141,148,108,94,139,,83,83,25,46,12,12,0.8,0.8
2025-01-01T1600,1798A,118.5092,31.6837,马鞍山市,湖东路四小,,,93,120,,46,95,,72,72,32,52,7,8,0.7,0.8
2025-01-01T1600,1799A,118.5024,31.6449,马鞍山市,开发区,细颗粒物(PM2.5),84,82,123,62,67,98,,74,74,30,43,12,10,0.8,0.9
2025-01-01T1600,1800A,118.5228,31.7231,马鞍山市,慈湖,细颗粒物(PM2.5),78,90,113,57,69,91,,64,64,34,54,10,9,0.8,1
2025-01-01T1600,1802A,118.6245,31.7241,马鞍山市,濮塘,颗粒物(PM10),64,78,91,42,51,98,,74,74,36,33,11,10,0.1,0.3
2025-01-01T1600,3633A,118.4918,31.6809,马鞍山市,雨山,细颗粒物(PM2.5),75,94,118,55,59,91,,71,71,33,50,10,10,0.7,0.9
2025-01-01T1600,1686A,111.0286,21.4688,茂名市,电白南海,颗粒物(PM10),69,88,90,48,54,171,,128,128,32,31,8,12,0.8,0.9
2025-01-01T1600,1687A,110.9294,21.6533,茂名市,茂石化七小,颗粒物(PM10),69,88,100,29,54,155,,115,115,15,30,13,19,0.6,0.8
2025-01-01T1600,1688A,110.9107,21.6687,茂名市,健康路,"颗粒物(PM10),臭氧1小时",64,78,98,44,67,171,,127,127,19,36,16,32,0.9,1.2
2025-01-01T1600,1689A,110.8592,21.6828,茂名市,高岭,细颗粒物(PM2.5),64,70,100,46,71,169,,117,117,19,42,14,25,0.9,1.1
2025-01-01T1600,3450A,111.01,21.5165,茂名市,电白水东,颗粒物(PM10),73,95,83,41,53,163,,127,127,17,22,10,19,0.7,0.8
2025-01-01T1600,2539A,104.0308,30.0478,眉山市,黑龙滩水库,细颗粒物(PM2.5),92,89,73,68,51,134,,76,76,7,10,5,4,0.7,0.7
2025-01-01T1600,2540A,103.8416,30.0874,眉山市,气象局,细颗粒物(PM2.5),125,111,94,95,87,124,,63,63,29,43,5,5,0.6,0.7
2025-01-01T1600,3137A,103.8578,30.0744,眉山市,市委党校,细颗粒物(PM2.5),113,110,109,85,81,126,,65,65,28,51,8,8,0.5,0.6
2025-01-01T1600,3148A,103.8291,30.0564,眉山市,区人社局,细颗粒物(PM2.5),113,86,85,85,80,121,,63,63,33,52,9,10,0.7,0.8
2025-01-01T1600,1690A,116.1231,24.3284,梅州市,梅江月梅,细颗粒物(PM2.5),70,56,64,51,46,140,,80,80,18,37,11,10,0.7,0.7
2025-01-01T1600,1691A,116.0797,24.2719,梅州市,梅县新城,细颗粒物(PM2.5),74,65,76,54,55,134,,87,87,22,44,8,6,0.8,0.8
2025-01-01T1600,1692A,116.1248,24.2654,梅州市,环境监控中心,细颗粒物(PM2.5),68,66,69,49,48,122,,80,80,21,40,8,7,0.8,0.9
2025-01-01T1600,3315A,116.1233,24.2991,梅州市,梅龙,细颗粒物(PM2.5),60,56,69,43,48,132,,76,76,17,35,9,7,0.7,0.9
2025-01-01T1600,1878A,104.7778,31.4741,绵阳市,富乐山,细颗粒物(PM2.5),84,87,87,62,68,112,,63,63,20,30,3,3,0.6,0.8
2025-01-01T1600,1879A,104.7563,31.4535,绵阳市,市人大,,,,124,,84,96,,42,42,,67,4,4,0.7,1
2025-01-01T1600,1880A,104.6697,31.4668,绵阳市,高新区自来水公司,细颗粒物(PM2.5),83,75,131,61,93,108,,59,59,16,47,3,6,0.6,1
2025-01-01T1600,1881A,104.7287,31.5075,绵阳市,三水厂,细颗粒物(PM2.5),102,94,125,76,94,112,,48,48,19,53,5,7,0.6,1.1
2025-01-01T1600,3491A,104.69,31.5322,绵阳市,西科大附属小学,细颗粒物(PM2.5),97,89,129,72,97,104,,53,53,12,50,5,6,0.7,1
2025-01-01T1600,3492A,104.5648,31.5343,绵阳市,安州区旅游局,细颗粒物(PM2.5),100,91,120,75,101,102,,66,66,16,44,6,7,0.8,1.1
2025-01-01T1600,1784A,129.61,44.561,牡丹江市,环保大楼,颗粒物(PM10),54,58,64,34,45,45,,40,40,25,36,9,8,0.6,0.7
2025-01-01T1600,1785A,129.6115,44.5782,牡丹江市,文化广场,细颗粒物(PM2.5),52,51,88,36,59,47,,40,40,26,43,11,13,0.8,1.3
2025-01-01T1600,1786A,129.5904,44.5963,牡丹江市,第一医院,细颗粒物(PM2.5),59,53,81,42,63,59,,44,44,12,36,8,11,0.3,1.1
2025-01-01T1600,1787A,129.6364,44.6075,牡丹江市,机车工厂,,49,49,83,34,55,64,,42,42,9,37,8,28,0.5,1
2025-01-01T1600,1788A,129.6386,44.5462,牡丹江市,第一中学,,50,50,57,35,46,48,,36,36,21,32,8,8,0.6,0.8
2025-01-01T1600,2531A,105.0703,29.61,内江市,市监测站,细颗粒物(PM2.5),108,,78,81,85,130,,75,75,18,40,7,7,0.8,1
2025-01-01T1600,2532A,105.0717,29.5947,内江市,东兴区政府,细颗粒物(PM2.5),98,82,85,73,81,125,,68,68,19,46,6,6,0.8,1
2025-01-01T1600,2533A,105.0653,29.5817,内江市,内江二中,细颗粒物(PM2.5),114,109,91,86,82,124,,64,64,18,44,10,10,0.8,1.1
2025-01-01T1600,2534A,105.0406,29.5822,内江市,内江日报社,细颗粒物(PM2.5),130,,95,99,87,124,,72,72,21,47,11,11,0.9,0.9
2025-01-01T1600,2628A,92.0657,31.4846,那曲市,那曲监测站,,,,54,,37,94,,62,62,5,26,4,11,,1.3
2025-01-01T1600,3128A,92.0506,31.4797,那曲市,那曲会议中心,,30,11,39,3,24,96,,65,65,2,16,1,5,0.3,0.8
2025-01-01T1600,1290A,115.8931,28.6843,南昌市,省外办,细颗粒物(PM2.5),100,103,142,75,94,112,,76,76,30,65,16,12,1.0,1
2025-01-01T1600,1291A,115.8886,28.7003,南昌市,省林业公司,细颗粒物(PM2.5),98,105,144,73,86,117,,74,74,38,68,17,13,0.8,0.8
2025-01-01T1600,1292A,115.8126,28.7442,南昌市,林科所,细颗粒物(PM2.5),79,92,99,58,59,132,,87,87,30,49,19,18,1.0,0.9
2025-01-01T1600,1294A,115.8518,28.687,南昌市,建工学校,细颗粒物(PM2.5),88,111,136,65,78,119,,76,76,31,61,20,14,1.2,1
2025-01-01T1600,1295A,115.8921,28.6424,南昌市,象湖,细颗粒物(PM2.5),88,94,135,65,86,127,,83,83,26,53,15,13,0.9,1
2025-01-01T1600,1296A,115.7423,28.7996,南昌市,武术学校,细颗粒物(PM2.5),72,90,50,52,37,103,,70,70,27,26,5,3,0.8,0.7
2025-01-01T1600,1298A,115.9314,28.6842,南昌市,省站,细颗粒物(PM2.5),92,112,138,68,84,116,,78,78,23,47,15,14,0.7,0.7
2025-01-01T1600,3046A,115.9084,28.6062,南昌市,机电学校,细颗粒物(PM2.5),89,102,150,66,85,127,,82,82,21,60,17,16,0.5,0.7
2025-01-01T1600,3690A,115.9721,28.7031,南昌市,外国语学校,细颗粒物(PM2.5),90,93,129,67,74,120,,78,78,24,52,12,11,0.5,0.6
2025-01-01T1600,1905A,106.056,30.8064,南充市,西山风景区,细颗粒物(PM2.5),100,76,97,75,89,111,,75,75,13,13,1,2,0.8,0.8
2025-01-01T1600,1906A,106.0789,30.8023,南充市,南充市委,细颗粒物(PM2.5),132,113,124,100,103,99,,57,57,27,43,4,3,0.7,0.8
2025-01-01T1600,1907A,106.1031,30.8217,南充市,南充炼油厂,细颗粒物(PM2.5),113,103,141,85,109,99,,55,55,26,44,4,4,0.7,0.9
2025-01-01T1600,1908A,106.1064,30.7856,南充市,高坪区监测站,细颗粒物(PM2.5),109,104,140,82,106,104,,57,57,26,49,4,3,0.6,0.9
2025-01-01T1600,1909A,106.0642,30.7636,南充市,嘉陵区环保局,细颗粒物(PM2.5),107,106,133,80,106,94,,55,55,32,59,5,4,0.8,1
2025-01-01T1600,1910A,106.1087,30.8388,南充市,市环境监测站,细颗粒物(PM2.5),93,104,129,69,95,68,,46,40,20,25,4,5,0.6,0.8
2025-01-01T1600,1151A,118.8086,32.1065,南京市,迈皋桥,颗粒物(PM10),62,73,92,36,51,93,,64,64,39,74,8,10,0.3,0.9
2025-01-01T1600,1152A,118.7538,32.0551,南京市,草场门,,,70,112,34,59,88,,59,59,,66,8,11,,0.8
2025-01-01T1600,1153A,118.7794,32.0745,南京市,山西路,颗粒物(PM10),60,70,110,31,54,98,,72,72,24,65,4,4,0.5,0.9
2025-01-01T1600,1154A,118.7752,32.0023,南京市,中华门,颗粒物(PM10),62,73,106,31,58,59,,38,38,9,58,8,11,0.7,0.9
2025-01-01T1600,1155A,118.8109,32.0309,南京市,瑞金路,颗粒物(PM10),60,70,110,24,61,93,,60,60,22,68,4,8,1.0,1.5
2025-01-01T1600,1156A,118.7997,32.0754,南京市,玄武湖,颗粒物(PM10),59,67,106,28,54,96,,64,64,18,24,8,10,0.6,0.8
2025-01-01T1600,1157A,118.6414,32.0931,南京市,浦口,颗粒物(PM10),69,87,112,47,52,79,,58,58,30,41,9,11,0.7,0.8
2025-01-01T1600,1158A,118.7356,31.9996,南京市,奥体中心,,,,117,,62,76,,55,55,34,71,10,12,,0.9
2025-01-01T1600,1159A,118.9125,32.1028,南京市,仙林大学城,颗粒物(PM10),62,73,114,39,67,97,,67,67,24,54,8,10,0.5,0.7
2025-01-01T1600,3422A,118.8436,31.9198,南京市,江宁彩虹桥,颗粒物(PM10),70,90,144,36,73,97,,62,62,22,63,8,12,0.4,0.7
2025-01-01T1600,3423A,119.0138,31.6494,南京市,溧水永阳,颗粒物(PM10),65,80,97,44,61,95,,65,65,32,52,4,5,0.3,0.5
2025-01-01T1600,3424A,118.879,31.3302,南京市,高淳老职中,细颗粒物(PM2.5),82,87,90,60,61,105,,72,72,32,43,7,8,0.5,0.4
2025-01-01T1600,3427A,118.8554,32.3578,南京市,六合雄州,颗粒物(PM10),61,71,93,35,52,85,,45,45,20,44,6,7,0.6,0.7
2025-01-01T1600,1401A,108.3103,22.7881,南宁市,二十一中,细颗粒物(PM2.5),132,111,158,100,124,135,,65,65,41,66,9,9,1.2,1.5
2025-01-01T1600,1402A,108.3141,22.8528,南宁市,北湖,细颗粒物(PM2.5),123,106,150,93,117,147,,78,78,40,69,14,17,1.2,1.5
2025-01-01T1600,1403A,108.3206,22.8225,南宁市,市监测站,细颗粒物(PM2.5),133,113,144,101,102,129,,70,70,53,70,14,17,1.2,1.4
2025-01-01T1600,1404A,108.3829,22.8037,南宁市,大自然花园,细颗粒物(PM2.5),120,102,105,91,85,146,,73,73,37,48,10,10,0.8,0.9
2025-01-01T1600,1405A,108.4394,22.7904,南宁市,仙葫,细颗粒物(PM2.5),77,73,118,56,97,155,,86,86,18,59,6,10,0.8,1
2025-01-01T1600,1406A,108.2397,22.8467,南宁市,区农职院,细颗粒物(PM2.5),93,87,111,69,80,161,,90,90,24,42,11,15,0.9,1
2025-01-01T1600,1407A,108.3275,22.735,南宁市,英华嘉园,细颗粒物(PM2.5),100,97,138,75,103,140,,68,68,33,68,12,11,1.0,1.3
2025-01-01T1600,1408A,108.2257,22.7757,南宁市,沙井镇街道办,细颗粒物(PM2.5),120,105,131,91,93,158,,92,92,38,59,9,9,1.1,1.2
2025-01-01T1600,3401A,108.4834,22.7618,南宁市,红星社区,细颗粒物(PM2.5),89,79,96,66,77,170,,104,104,19,47,10,11,0.9,1
2025-01-01T1600,2331A,118.0966,26.6761,南平市,茫荡山,,,,,,,,,,,,,,,,
2025-01-01T1600,2332A,118.1681,26.6369,南平市,南平市监测站,,,45,69,37,59,,,91,91,15,32,7,6,,0.7
2025-01-01T1600,2333A,118.1825,26.6489,南平市,南平铝业有限公司,颗粒物(PM10),51,52,60,30,47,123,,94,94,16,33,10,7,0.8,0.8
2025-01-01T1600,2334A,118.1756,26.6272,南平市,南平七中,,50,49,74,35,58,123,,93,93,8,21,4,5,0.4,0.7
2025-01-01T1600,1168A,120.9098,31.9663,南通市,狼山街道,,50,50,71,27,34,82,,67,67,22,38,7,5,0.8,0.9
2025-01-01T1600,1169A,120.86,32.0005,南通市,虹桥,颗粒物(PM10),56,61,68,37,35,55,,58,58,57,39,10,6,0.7,0.6
2025-01-01T1600,1170A,120.87,32.02,南通市,城中,,,68,84,,30,69,,65,65,48,40,11,7,0.5,0.6
2025-01-01T1600,1171A,120.94,31.93,南通市,星湖花园,,32,32,72,17,32,86,,75,75,17,35,6,5,0.5,0.7
2025-01-01T1600,1172A,120.81,32.0417,南通市,紫琅学院,颗粒物(PM10),59,68,79,31,32,59,,54,54,54,51,7,4,0.7,0.6
2025-01-01T1600,3291A,121.067,32.062,南通市,通州监测站,,48,48,76,27,27,108,,96,96,14,23,4,3,0.4,0.6
2025-01-01T1600,3432A,120.9348,31.9883,南通市,环境教育馆,,31,24,79,9,35,99,,86,86,15,48,5,5,0.5,0.6
2025-01-01T1600,2404A,112.5224,33.0122,南阳市,瓦房庄,细颗粒物(PM2.5),125,132,145,95,120,107,,79,79,28,46,12,10,0.8,1.1
2025-01-01T1600,2405A,112.5003,32.9735,南阳市,汉画馆,细颗粒物(PM2.5),112,125,137,84,97,96,,67,67,35,52,10,8,0.7,0.8
2025-01-01T1600,2406A,112.5573,33.027,南阳市,气象站,细颗粒物(PM2.5),122,143,177,92,120,118,,84,84,27,48,12,11,0.8,1.1
2025-01-01T1600,2407A,112.5481,32.9689,南阳市,理工学院,细颗粒物(PM2.5),115,116,132,87,101,102,,72,72,33,50,12,11,0.7,0.8
2025-01-01T1600,4008A,112.5234,32.9922,南阳市,卧龙区政府,细颗粒物(PM2.5),120,130,139,91,100,94,,72,72,33,49,,7,0.7,1.1
2025-01-01T1600,1234A,121.8358,29.911,宁波市,区环保大楼,,38,38,89,8,38,72,,55,55,31,59,8,10,0.4,0.9
2025-01-01T1600,1235A,121.56,29.82,宁波市,万里学院,,38,38,94,20,54,99,,70,70,23,50,5,6,0.3,0.7
2025-01-01T1600,1236A,121.713,29.9572,宁波市,龙赛医院,,45,45,119,21,52,76,,64,64,27,58,8,10,0.5,0.8
2025-01-01T1600,1239A,121.633,29.7733,宁波市,钱湖水厂,,31,30,104,16,56,98,,73,73,12,39,6,8,0.5,0.7
2025-01-01T1600,1240A,121.5856,29.8635,宁波市,太古小学,颗粒物(PM10),57,64,111,30,54,74,,64,64,41,60,10,9,0.8,0.9
2025-01-01T1600,1241A,121.524,29.8674,宁波市,市环境监测中心,,42,42,93,19,37,92,,67,67,22,51,8,10,0.7,0.9
2025-01-01T1600,2871A,121.6147,29.9017,宁波市,万里国际学校,颗粒物(PM10),61,72,106,29,56,68,,62,62,53,61,10,8,0.7,0.8
2025-01-01T1600,3710A,121.5594,29.8975,宁波市,白沙活动中心,颗粒物(PM10),61,72,100,37,54,76,,67,67,51,58,11,10,0.6,0.7
2025-01-01T1600,2339A,119.5001,26.6946,宁德市,金涵水库,,,,,,,,,,,,,,,,
2025-01-01T1600,2341A,119.5388,26.6612,宁德市,宁德市监测站,细颗粒物(PM2.5),80,71,65,59,57,152,,106,106,22,21,8,4,0.7,0.6
2025-01-01T1600,3209A,119.5231,26.6562,宁德市,宁德一中,细颗粒物(PM2.5),80,67,63,59,52,146,,106,106,21,20,6,4,0.7,0.7
2025-01-01T1600,2618A,98.8601,25.8567,怒江傈僳族自治州,州监测站,,,,,,,,,,,,,,,,
2025-01-01T1600,2619A,98.8546,25.8417,怒江傈僳族自治州,泸水一中,,40,40,32,25,21,71,,50,50,18,18,7,8,0.5,0.6
2025-01-01T1600,1888A,101.6891,26.571,攀枝花市,弄弄坪,,33,,65,20,39,103,,52,52,17,43,20,20,1.1,1.2
2025-01-01T1600,1889A,101.5769,26.5928,攀枝花市,河门口,,36,33,48,21,28,113,,75,75,17,30,24,20,1.6,1.3
2025-01-01T1600,1890A,101.7169,26.585,攀枝花市,炳草岗,,35,25,76,13,44,112,,57,57,12,46,23,20,0.7,0.8
2025-01-01T1600,1891A,101.7369,26.5008,攀枝花市,仁和,,36,29,42,19,27,115,,68,68,12,25,23,13,0.4,0.7
2025-01-01T1600,2835A,101.7227,26.567,攀枝花市,四十中小,,50,50,74,31,45,104,,56,56,17,48,19,18,0.6,0.9
2025-01-01T1600,1604A,122.0303,41.1489,盘锦市,开发区,,40,40,42,16,19,73,,60,60,13,22,10,11,0.2,1.1
2025-01-01T1600,1605A,122.0485,41.0883,盘锦市,兴隆台,,36,36,41,19,17,73,,57,57,16,22,14,13,0.4,0.5
2025-01-01T1600,1606A,121.8297,41.1028,盘锦市,新生街道,,23,18,32,10,13,73,,59,59,15,34,10,10,0.5,0.7
2025-01-01T1600,1832A,113.3257,33.742,平顶山市,新华旅馆,细颗粒物(PM2.5),103,113,164,77,97,119,,73,73,23,58,15,12,0.5,0.6
2025-01-01T1600,1833A,113.2919,33.737,平顶山市,规划设计院,细颗粒物(PM2.5),129,145,169,98,109,122,,83,83,16,43,13,10,0.6,0.7
2025-01-01T1600,1834A,113.182,33.774,平顶山市,平顶山工学院,细颗粒物(PM2.5),134,165,140,102,82,132,,87,87,18,23,5,5,0.9,0.9
2025-01-01T1600,3204A,113.3025,33.73,平顶山市,规划局,细颗粒物(PM2.5),134,134,169,102,121,124,,79,79,21,53,14,12,0.7,0.7
2025-01-01T1600,3594A,112.8867,33.9116,平顶山市,石龙区,,,125,155,,70,106,,77,77,20,48,15,11,1.1,0.9
2025-01-01T1600,2656A,106.6692,35.5461,平凉市,聚贤嘉苑,,,47,55,15,26,100,,76,76,13,47,,14,0.4,0.6
2025-01-01T1600,2657A,106.7021,35.5307,平凉市,博物馆,,50,50,67,16,40,101,,82,82,13,31,11,35,0.3,0.8
2025-01-01T1600,2347A,114.0997,27.5002,萍乡市,武功山,细颗粒物(PM2.5),80,65,65,59,55,137,,102,102,20,16,14,10,0.2,0.2
2025-01-01T1600,2348A,113.8385,27.6434,萍乡市,中医院,细颗粒物(PM2.5),69,84,149,50,93,132,,81,81,22,47,14,15,1.2,1.6
2025-01-01T1600,2349A,113.8493,27.6253,萍乡市,市政府车库,细颗粒物(PM2.5),83,80,122,61,102,141,,86,86,19,40,15,17,1.2,1.8
2025-01-01T1600,2350A,113.8676,27.6435,萍乡市,市环保局,细颗粒物(PM2.5),84,94,128,62,92,136,,85,85,24,48,19,22,1.2,1.3
2025-01-01T1600,2351A,113.866,27.6198,萍乡市,安源区政府,细颗粒物(PM2.5),77,96,128,56,89,145,,89,89,28,39,17,17,1.2,1.4
2025-01-01T1600,2319A,119.0141,25.4325,莆田市,荔城区仓后路,颗粒物(PM10),58,66,60,29,35,120,,110,110,17,15,2,2,0.6,0.6
2025-01-01T1600,2320A,119.0015,25.4553,莆田市,莆田市监测站,,,76,56,28,34,115,,114,114,,14,5,4,0.5,0.6
2025-01-01T1600,2321A,119.1119,25.4561,莆田市,涵江区六中,颗粒物(PM10),58,66,60,25,36,122,,111,111,10,11,2,2,0.3,0.4
2025-01-01T1600,2322A,119.1013,25.3215,莆田市,秀屿区政府,细颗粒物(PM2.5),59,57,62,42,40,126,,112,112,24,17,7,3,0.7,0.6
2025-01-01T1600,2323A,118.981,25.4792,莆田市,东圳水库,,,,,,,,,,,,,,,,
2025-01-01T1600,2392A,115.0312,35.7636,濮阳市,环保局,细颗粒物(PM2.5),160,182,146,122,90,68,,50,50,46,37,8,6,1.2,0.9
2025-01-01T1600,2394A,115.0574,35.7609,濮阳市,油田运输公司,细颗粒物(PM2.5),153,189,154,117,82,69,,46,46,41,39,8,6,1.0,0.9
2025-01-01T1600,2395A,115.0866,35.7754,濮阳市,油田物探公司,细颗粒物(PM2.5),150,180,154,115,91,69,,48,48,42,41,8,6,1.0,0.9
2025-01-01T1600,3021A,115,35.7668,濮阳市,濮水河管理处,细颗粒物(PM2.5),137,205,161,104,81,64,,42,42,39,31,11,9,1.0,0.8
2025-01-01T1600,2601A,100.98,22.7633,普洱市,市环保局,,,33,38,3,16,71,,54,54,,8,6,4,0.4,0.6
2025-01-01T1600,2602A,100.9817,22.8322,普洱市,普洱第二中学,,33,,32,23,17,73,,53,53,5,9,10,10,0.4,0.6
2025-01-01T1600,2262A,131.0518,45.8751,七台河市,新一中,颗粒物(PM10),55,59,51,36,39,69,,58,58,19,16,11,9,1.9,1.9
2025-01-01T1600,3345A,131.0577,45.7879,七台河市,中波台,细颗粒物(PM2.5),83,83,85,61,62,35,,38,38,47,42,15,13,1.1,1.3
2025-01-01T1600,3637A,131.0176,45.7761,七台河市,人民广场,细颗粒物(PM2.5),105,115,120,79,80,19,,30,30,66,52,10,8,1.0,1.2
2025-01-01T1600,3684A,130.8781,45.8222,七台河市,新建矿广场,细颗粒物(PM2.5),118,122,96,89,67,30,,25,25,59,54,6,11,0.9,0.8
2025-01-01T1600,1779A,123.9305,47.3636,齐齐哈尔市,安居小区,颗粒物(PM10),54,57,101,36,91,54,,52,52,19,36,12,12,0.5,0.8
2025-01-01T1600,1780A,123.9488,47.3386,齐齐哈尔市,中心广场,颗粒物(PM10),55,60,119,38,110,45,,47,47,25,36,5,5,0.7,0.9
2025-01-01T1600,1781A,123.9483,47.3227,齐齐哈尔市,农牧车辆厂,细颗粒物(PM2.5),55,51,94,39,82,46,,48,48,26,36,7,7,0.5,0.7
2025-01-01T1600,1783A,123.945,47.2988,齐齐哈尔市,市环境监测站,细颗粒物(PM2.5),62,64,114,44,97,56,,46,46,20,41,6,4,0.5,0.8
2025-01-01T1600,3662A,123.6333,47.2075,齐齐哈尔市,富区青少年活动中心,,49,49,83,23,59,57,,51,51,22,28,12,12,0.7,0.8
2025-01-01T1600,2591A,107.9783,26.5747,黔东南苗族侗族自治州,市环境监测站,细颗粒物(PM2.5),93,84,72,69,58,53,,38,38,32,33,10,8,1.1,0.9
2025-01-01T1600,2881A,107.8908,26.5311,黔东南苗族侗族自治州,凯里学院,细颗粒物(PM2.5),73,61,54,53,45,64,,46,46,21,22,5,5,0.9,0.9
2025-01-01T1600,2593A,107.5228,26.2403,黔南布依族苗族自治州,小围寨,,49,46,54,34,47,85,,49,49,13,26,8,10,0.8,0.9
2025-01-01T1600,3538A,107.5175,26.2978,黔南布依族苗族自治州,沙坝,细颗粒物(PM2.5),58,58,63,41,48,81,,39,39,14,27,6,9,0.7,0.8
2025-01-01T1600,2589A,104.9022,25.0925,黔西南布依族苗族自治州,场坝街,细颗粒物(PM2.5),67,65,59,48,46,42,,45,37,24,14,3,4,0.7,0.6
2025-01-01T1600,2590A,104.8811,25.0992,黔西南布依族苗族自治州,坪东大道,细颗粒物(PM2.5),87,,58,64,53,44,,38,34,18,14,5,5,0.7,0.7
2025-01-01T1600,2502A,108.6236,21.9667,钦州市,市环保站,颗粒物(PM10),79,107,137,53,81,153,,109,109,26,39,10,15,1.0,1.7
2025-01-01T1600,2503A,108.6549,21.9481,钦州市,沙埠小学,"颗粒物(PM10),细颗粒物(PM2.5)",74,98,128,54,81,164,,107,107,25,46,9,12,0.8,1.2
2025-01-01T1600,2504A,108.5989,21.7431,钦州市,港区一小,细颗粒物(PM2.5),85,87,127,63,76,174,,113,113,25,44,12,13,1.0,1.3
