timepoint,stationcode,longitude,latitude,area,positionname,primarypollutant,aqi,pm10,pm10_24h,pm2_5,pm2_5_24h,o3,o3_24h,o3_8h,o3_8h_24h,no2,no2_24h,so2,so2_24h,co,co_24h
2024-10-02T0900,2566A,102.1879,31.914,阿坝藏族羌族自治州,州农科所,颗粒物(PM10),56,61,26,17,9,16,,16,16,14,12,10,7,0.1,0
2024-10-02T0900,2568A,102.2502,31.8896,阿坝藏族羌族自治州,马师校,,20,,18,14,16,7,,6,6,5,6,4,4,0.3,0.3
2024-10-02T0900,3994A,102.2165,31.9024,阿坝藏族羌族自治州,马尔康中学西区,,32,,17,22,15,7,,5,5,7,8,7,7,0.5,0.5
2024-10-02T0900,2695A,80.292,41.1694,阿克苏地区,电视台,颗粒物(PM10),69,88,110,29,30,49,,29,29,17,25,5,3,0.4,0.5
2024-10-02T0900,2696A,80.2613,41.1551,阿克苏地区,艺术中心,颗粒物(PM10),75,99,106,32,28,47,,38,38,33,27,3,4,0.5,0.5
2024-10-02T0900,2204A,105.6467,38.8363,阿拉善盟,西城区西花园,,43,43,21,20,18,68,,77,75,27,12,7,6,0.9,0.7
2024-10-02T0900,2205A,105.6985,38.8411,阿拉善盟,蒙二幼,,,22,16,8,5,,,81,81,14,7,2,2,0.6,0.5
2024-10-02T0900,2206A,105.724,38.8516,阿拉善盟,环保局新楼,,27,16,14,6,5,86,,99,97,14,6,8,8,0.5,0.4
2024-10-02T0900,2708A,88.1264,47.8517,阿勒泰地区,市站,,18,15,28,7,7,26,,48,48,36,21,8,8,0.6,0.4
2024-10-02T0900,2630A,80.1161,32.5,阿里地区,阿里监测站,,28,15,9,6,4,37,,78,75,55,17,19,7,0.4,0.4
2024-10-02T0900,3192A,80.0903,32.5028,阿里地区,阿里藏医院,,24,24,11,3,2,62,,106,99,32,8,32,7,0.4,0.2
2024-10-02T0900,2642A,109.0318,32.6537,安康市,香溪洞,,23,23,25,8,8,26,,21,20,4,6,6,7,0.3,0.3
2024-10-02T0900,2643A,109.0281,32.6939,安康市,安康市监测站,,37,37,28,17,13,18,,15,15,11,12,8,10,0.5,0.4
2024-10-02T0900,2644A,109.0072,32.6975,安康市,汉滨区检察院,,24,24,43,11,9,22,,16,16,10,13,8,8,0.3,0.3
2024-10-02T0900,2291A,117.0809,30.5177,安庆市,环科院,,50,50,30,21,11,73,,82,81,19,16,9,8,0.6,0.5
2024-10-02T0900,2292A,117.0331,30.5119,安庆市,马山宾馆,,,48,33,20,12,,,90,90,,17,12,10,0.4,0.2
2024-10-02T0900,3173A,117.0598,30.5351,安庆市,市人大,颗粒物(PM10),51,51,35,20,12,72,,82,81,19,17,10,9,0.7,0.6
2024-10-02T0900,3123A,105.9408,26.2431,安顺市,凤凰山,,22,7,6,6,3,68,,72,72,5,5,5,5,0.3,0.2
2024-10-02T0900,3124A,105.9439,26.2564,安顺市,金钟山,,22,,6,15,6,69,,69,69,5,5,7,8,0.6,0.6
2024-10-02T0900,3125A,105.8983,26.2481,安顺市,娄家坡,,21,13,11,9,9,66,,72,71,9,7,7,6,0.5,0.4
2024-10-02T0900,1819A,114.3551,36.1017,安阳市,红庙街,,48,48,68,19,18,45,,29,28,12,11,5,4,0.7,0.5
2024-10-02T0900,1820A,114.361,36.0681,安阳市,银杏小区,,,55,69,,10,42,,22,22,12,12,7,4,0.8,0.5
2024-10-02T0900,3141A,114.3922,36.0878,安阳市,信访局,颗粒物(PM10),52,53,72,14,11,53,,35,35,13,12,10,5,1.0,0.6
2024-10-02T0900,3669A,114.4705,36.0637,安阳市,左辅环卫站,颗粒物(PM10),58,66,70,25,12,19,,37,32,34,17,7,6,0.8,0.4
2024-10-02T0900,3703A,114.2917,36.0949,安阳市,安钢职工学校,颗粒物(PM10),57,64,77,26,19,36,,22,22,13,13,9,7,0.7,0.4
2024-10-02T0900,1748A,123.044,41.1196,鞍山市,深沟寺,,40,40,29,25,16,39,,24,24,23,21,19,10,1.4,1.1
2024-10-02T0900,1749A,123.011,41.0931,鞍山市,太阳城,,39,39,25,26,15,34,,17,17,26,20,26,10,1.3,0.9
2024-10-02T0900,1750A,123.0485,41.1442,鞍山市,太平,,48,48,37,25,19,34,,18,18,28,28,25,13,1.5,1.1
2024-10-02T0900,1751A,122.9642,41.0971,鞍山市,铁西三道街,,,67,48,37,24,,,11,11,25,30,21,10,,0.9
2024-10-02T0900,1752A,122.9341,41.0833,鞍山市,铁西工业园区,,44,44,34,27,21,38,,20,20,21,25,19,9,1.1,0.7
2024-10-02T0900,1753A,123.022,41.0821,鞍山市,明达新区,,44,44,26,27,14,32,,20,20,24,20,28,11,1.8,1
2024-10-02T0900,2195A,107.4212,40.761,巴彦淖尔市,附二中,,42,42,40,19,17,38,,42,42,29,21,10,5,0.5,0.4
2024-10-02T0900,2196A,107.37,40.7372,巴彦淖尔市,市环保大楼,,39,36,33,27,20,35,,34,33,28,17,3,2,0.6,0.5
2024-10-02T0900,1956A,86.1472,41.7538,巴音郭楞蒙古自治州,孔雀公园,颗粒物(PM10),51,51,112,6,19,46,,49,46,10,13,5,6,0.3,0.3
2024-10-02T0900,1957A,86.1972,41.7166,巴音郭楞蒙古自治州,棉纺厂,颗粒物(PM10),70,90,182,15,28,33,,48,46,26,14,5,5,0.2,0.2
2024-10-02T0900,1958A,86.2357,41.7173,巴音郭楞蒙古自治州,经济开发区,颗粒物(PM10),51,52,152,16,30,60,,62,62,11,9,7,7,0.3,0.2
2024-10-02T0900,2914A,106.7677,31.8794,巴中市,苏山坪,,24,24,18,12,7,40,,60,57,14,11,4,4,0.2,0.1
2024-10-02T0900,3182A,106.7656,31.8545,巴中市,丽阳花园,,21,21,20,11,10,28,,38,36,19,17,5,4,0.4,0.3
2024-10-02T0900,3183A,106.7418,31.8654,巴中市,圣泉水务公司,,,,17,,8,,,39,39,11,14,,3,0.4,0.3
2024-10-02T0900,3616A,106.7616,31.8344,巴中市,市中心医院,,21,21,20,7,9,20,,26,26,21,18,5,5,0.5,0.4
2024-10-02T0900,2235A,122.7911,45.6077,白城市,洮北区环保局,,15,13,15,6,7,48,,33,33,7,7,3,2,0.5,0.5
2024-10-02T0900,2236A,122.8738,45.5725,白城市,市环保局,,19,19,15,6,8,46,,38,38,9,10,4,4,0.3,0.3
2024-10-02T0900,2231A,126.4219,41.9171,白山市,喜丰,,16,16,19,9,9,37,,26,26,4,7,7,6,0.4,0.5
2024-10-02T0900,2232A,126.4077,41.9419,白山市,环保局,,23,23,25,14,10,26,,22,22,14,8,8,8,0.6,0.7
2024-10-02T0900,2647A,104.1724,36.5446,白银市,第三小学,,43,43,34,26,20,31,,48,42,32,20,24,35,0.8,0.6
2024-10-02T0900,2648A,104.1465,36.5482,白银市,动力公司,,29,23,27,20,17,32,,39,38,21,14,7,15,0.8,0.7
2024-10-02T0900,2512A,106.6103,23.9011,百色市,市监测站,,21,11,8,3,2,65,,41,41,8,7,6,6,0.5,0.6
2024-10-02T0900,3406A,106.6085,23.8798,百色市,祈福高中,,22,7,9,6,2,68,,43,43,34,9,3,3,0.4,0.5
2024-10-02T0900,2270A,117.396,32.939,蚌埠市,工人疗养院,,45,45,51,12,13,59,,68,65,15,13,9,7,0.4,0.3
2024-10-02T0900,2271A,117.3605,32.9427,蚌埠市,百货大楼,,43,43,53,14,12,57,,63,61,17,16,8,7,0.4,0.4
2024-10-02T0900,2273A,117.4185,32.8911,蚌埠市,蚌埠学院,,,,43,,14,,,70,67,19,14,10,7,0.4,0.3
2024-10-02T0900,2274A,117.3533,32.9673,蚌埠市,淮上区政府,,46,46,52,18,16,50,,52,50,18,16,8,7,0.2,0.2
2024-10-02T0900,2275A,117.3145,32.8977,蚌埠市,高新区,,39,39,47,11,14,61,,66,63,18,17,9,8,0.3,0.3
2024-10-02T0900,3715A,117.3092,32.9314,蚌埠市,蚌埠田家炳中学,,46,46,57,17,16,56,,56,53,16,18,8,7,0.3,0.3
2024-10-02T0900,1585A,109.8756,40.6532,包头市,市环境监测站,,42,42,22,16,10,19,,11,11,37,33,15,6,0.9,0.6
2024-10-02T0900,1587A,109.9991,40.5842,包头市,包头八中,,46,46,25,18,9,24,,19,19,38,32,19,4,0.7,0.6
2024-10-02T0900,1588A,109.8538,40.6821,包头市,青山宾馆,,39,39,21,24,8,21,,7,7,40,30,21,6,1.3,0.6
2024-10-02T0900,1589A,109.8642,40.6288,包头市,惠龙物流,,32,32,24,10,9,24,,18,18,36,29,12,7,0.5,0.5
2024-10-02T0900,1590A,110.0377,40.5546,包头市,东河鸿龙湾,,34,34,25,8,8,26,,8,8,31,28,20,10,0.6,0.6
2024-10-02T0900,3283A,109.9154,40.5685,包头市,滨河大厦,,,19,23,10,7,23,,7,7,,34,,8,0.4,0.4
2024-10-02T0900,3419A,109.9447,40.6261,包头市,包头市委党校,,,,23,,7,,,18,18,39,33,20,7,0.8,0.5
2024-10-02T0900,3683A,109.8331,40.6576,包头市,昆区政府,,48,48,25,27,10,19,,8,8,40,33,18,6,0.9,0.5
2024-10-02T0900,1930A,107.185,34.3063,宝鸡市,庙沟村,,21,21,27,9,9,51,,58,56,5,10,11,11,0.4,0.4
2024-10-02T0900,1931A,107.0708,34.3017,宝鸡市,竹园沟,,13,,29,9,11,39,,32,32,10,11,6,6,0.5,0.4
2024-10-02T0900,1932A,107.1906,34.3672,宝鸡市,三陆医院,,40,40,47,16,17,27,,19,19,23,29,9,8,0.4,0.3
2024-10-02T0900,1933A,107.1431,34.3547,宝鸡市,监测站,,29,29,37,12,15,28,,33,31,14,13,6,6,0.5,0.4
2024-10-02T0900,1934A,107.1186,34.3739,宝鸡市,技工学校,,22,22,38,15,16,32,,37,36,16,18,6,7,0.4,0.3
2024-10-02T0900,1935A,107.3906,34.3528,宝鸡市,陈仓区环保局家属楼,,41,41,37,17,13,20,,30,26,28,25,26,9,0.6,0.4
2024-10-02T0900,1936A,107.2058,34.3497,宝鸡市,文理学院,,31,31,40,8,8,25,,30,28,19,19,10,8,0.5,0.4
2024-10-02T0900,1937A,107.2386,34.3622,宝鸡市,三迪小学,,34,34,41,16,16,25,,23,22,26,29,11,9,0.4,0.4
2024-10-02T0900,1051A,115.493,38.8632,保定市,游泳馆,,35,35,26,14,4,28,,26,23,15,9,3,3,0.3,0.3
2024-10-02T0900,1052A,115.5213,38.8959,保定市,华电二区,,28,28,23,11,12,37,,24,23,16,17,4,2,0,0
2024-10-02T0900,1053A,115.4713,38.9108,保定市,接待中心,,33,33,23,9,4,31,,25,23,16,14,3,2,0.1,0
2024-10-02T0900,1054A,115.4612,38.8416,保定市,地表水厂,,33,33,28,23,9,17,,13,10,21,20,3,2,0,0
2024-10-02T0900,3581A,115.31981,38.95208,保定市,满城区生态环境分局,,19,19,19,3,3,37,,18,18,19,22,3,2,0.3,0.2
2024-10-02T0900,3582A,115.47694,38.76408,保定市,清苑区第二中学,,45,45,33,24,15,14,,13,11,23,18,3,2,0.4,0.3
2024-10-02T0900,3583A,115.62909,39.02311,保定市,徐水物探局,,22,22,19,7,3,24,,6,6,24,20,3,2,0.4,0.4
2024-10-02T0900,4004A,115.4202,38.8656,保定市,双鹰农机,,42,42,32,12,12,26,,17,15,18,17,4,2,0.3,0.2
2024-10-02T0900,4034A,115.5150,38.8590,保定市,植保所站,,27,27,28,13,16,31,,30,27,15,8,4,3,0.4,0.2
2024-10-02T0900,2594A,99.1678,25.1081,保山市,市环境监测站,,16,16,16,8,10,42,,57,54,7,6,4,5,0.4,0.4
2024-10-02T0900,2595A,99.1711,25.1328,保山市,市环保局,,17,17,20,11,11,51,,61,59,5,6,6,7,0.5,0.5
2024-10-02T0900,1867A,109.1436,21.4086,北海市,海滩公园,,30,30,39,7,15,68,,60,60,6,7,8,7,0.3,0.7
2024-10-02T0900,1868A,109.0981,21.4661,北海市,新市环保局,,22,17,33,12,17,70,,62,62,6,8,6,6,0.6,0.7
2024-10-02T0900,1869A,109.1778,21.5233,北海市,北海工业园,,,18,32,17,20,,,60,60,8,7,7,7,0.5,0.6
2024-10-02T0900,3400A,109.1911,21.4415,北海市,龙潭自来水厂,,22,19,27,8,17,70,,64,64,6,6,7,7,0.5,0.6
2024-10-02T0900,1001A,116.3621,39.8784,北京市,万寿西宫,,16,16,8,8,3,25,,21,19,21,15,1,2,0.3,0.2
2024-10-02T0900,1002A,116.2202,40.2915,北京市,定陵,,9,6,5,3,2,26,,16,16,9,6,3,2,0.1,0.1
2024-10-02T0900,1003A,116.4174,39.9289,北京市,东四,,12,12,10,3,4,32,,26,26,21,13,1,2,0.4,0.3
2024-10-02T0900,1004A,116.4072,39.8863,北京市,天坛,,18,18,7,10,4,25,,12,12,28,12,3,3,0.3,0.2
2024-10-02T0900,1005A,116.462,39.9365,北京市,农展馆,,12,11,7,3,2,25,,20,20,24,15,3,2,0.3,0.2
2024-10-02T0900,1006A,116.3392,39.9295,北京市,官园,,12,12,8,6,4,28,,22,20,16,10,8,7,0.5,0.4
2024-10-02T0900,1007A,116.2878,39.9611,北京市,海淀万柳,,13,13,9,3,3,25,,19,18,23,16,3,2,0.3,0.2
2024-10-02T0900,1008A,116.6636,40.135,北京市,顺义新城,,11,11,7,3,3,28,,31,30,15,11,3,3,0.2,0.2
2024-10-02T0900,1009A,116.6275,40.3275,北京市,怀柔镇,,10,9,4,3,2,23,,28,24,19,10,3,3,0.3,0.2
2024-10-02T0900,1010A,116.2296,40.217,北京市,昌平镇,,10,10,8,3,3,31,,31,31,8,6,4,3,0.2,0.2
2024-10-02T0900,1011A,116.3966,39.9821,北京市,奥体中心,,15,11,8,3,3,25,,10,10,30,26,2,2,0.3,0.2
2024-10-02T0900,1012A,116.184,39.9136,北京市,古城,,34,34,15,10,4,14,,12,8,33,16,3,3,0.4,0.3
2024-10-02T0900,3281A,115.9718,40.4529,北京市,延庆夏都,,18,18,7,8,3,26,,20,18,9,5,1,3,0.3,0.2
2024-10-02T0900,3417A,117.0709,40.1465,北京市,平谷新城,,14,14,12,8,7,22,,8,8,9,10,3,3,0.3,0.2
2024-10-02T0900,3418A,116.8336,40.4095,北京市,密云新城,,12,12,8,3,3,21,,9,9,10,6,3,3,0.3,0.2
2024-10-02T0900,3671A,116.088,39.9726,北京市,门头沟三家店,,17,17,12,3,2,19,,7,7,16,9,2,2,0.1,0
2024-10-02T0900,3672A,116.1541,39.8204,北京市,丰台云岗,,13,13,8,3,3,32,,27,27,12,10,3,2,0.2,0.2
2024-10-02T0900,3673A,116.6804,39.9081,北京市,通州东关,,16,16,10,6,3,27,,50,30,20,12,2,3,0.2,0.2
2024-10-02T0900,3674A,115.9577,39.7603,北京市,房山燕山,,12,12,5,8,3,29,,34,33,7,7,1,2,0.2,0.2
2024-10-02T0900,3675A,116.4672,39.7733,北京市,大兴旧宫,,13,13,8,6,3,18,,12,10,25,12,3,3,0.2,0.2
2024-10-02T0900,3694A,115.986,40.4563,北京市,延庆石河营,,22,22,8,11,3,21,,14,11,16,7,3,3,0.2,0.2
2024-10-02T0900,3695A,116.6151,40.3053,北京市,怀柔新城,,10,9,4,3,3,32,,37,35,9,4,3,3,0.1,0.1
2024-10-02T0900,3696A,116.2545,39.8768,北京市,丰台小屯,,32,32,15,10,4,11,,10,8,40,18,1,1,0.4,0.3
2024-10-02T0900,3697A,116.84,40.3844,北京市,密云镇,,14,14,10,6,4,11,,2,2,15,13,2,3,0.3,0.2
2024-10-02T0900,1761A,123.8275,41.3064,本溪市,大峪,颗粒物(PM10),62,73,19,24,6,16,,11,10,33,18,15,10,2.4,0.8
2024-10-02T0900,1762A,123.7567,41.3325,本溪市,溪湖,"颗粒物(PM10),细颗粒物(PM2.5)",82,113,40,60,17,15,,6,6,42,23,17,10,4.6,1.1
2024-10-02T0900,1763A,123.7169,41.3094,本溪市,彩屯,,,,28,164,27,18,,8,8,48,23,25,11,5.3,1.2
2024-10-02T0900,1764A,123.7669,41.2864,本溪市,东明,,,65,37,,14,14,,8,8,40,31,13,7,2.1,1
2024-10-02T0900,1765A,123.7992,41.2664,本溪市,新立屯,,32,32,19,6,8,41,,24,24,20,23,10,7,0.7,0.6
2024-10-02T0900,1766A,123.8142,41.3472,本溪市,威宁,"颗粒物(PM10),细颗粒物(PM2.5)",57,64,38,40,14,16,,8,8,17,21,8,9,1.5,0.6
2024-10-02T0900,2587A,105.2864,27.3125,毕节市,八中,,27,17,12,12,10,84,,76,76,7,7,7,6,0.3,0.3
2024-10-02T0900,2588A,105.31,27.2944,毕节市,师专,,25,20,13,11,9,79,,80,79,10,6,8,7,0.4,0.4
2024-10-02T0900,3537A,105.3631,27.3533,毕节市,长征村,,27,17,13,11,8,86,,71,71,6,5,7,6,0.4,0.4
2024-10-02T0900,1629A,118.0018,37.3617,滨州市,第二水厂,,20,19,18,14,3,37,,35,33,22,17,10,6,0.2,0.1
2024-10-02T0900,1630A,117.9776,37.393,滨州市,北中新校,,22,22,19,12,4,34,,34,32,15,9,10,7,0.5,0.3
2024-10-02T0900,3514A,117.9378,37.3956,滨州市,中海酒店,,27,27,18,12,9,28,,35,33,29,14,10,5,0.6,0.4
2024-10-02T0900,3515A,117.9378,37.3553,滨州市,开发区一中,颗粒物(PM10),51,51,28,19,7,33,,31,30,25,18,45,13,1.1,0.6
2024-10-02T0900,3516A,118.0917,37.694,滨州市,金海六路,,,,22,,6,32,,13,13,16,21,,7,0.7,0.6
2024-10-02T0900,4028A,117.9956,37.3753,滨州市,滨州市西街道办事处,,25,19,14,17,9,36,,34,32,20,14,11,7,0.4,0.3
2024-10-02T0900,2311A,115.8072,33.8399,亳州市,污水处理厂,,31,31,69,14,21,56,,43,43,18,25,4,8,0.2,0.3
2024-10-02T0900,2312A,115.7789,33.8518,亳州市,三国揽胜宫,,35,35,59,24,23,52,,47,47,15,14,5,6,0.3,0.4
2024-10-02T0900,3332A,115.7633,33.8034,亳州市,亳州学院,,33,33,64,10,11,58,,60,58,14,14,3,5,0.2,0.3
2024-10-02T0900,2693A,82.0485,44.8556,博尔塔拉蒙古自治州,市党校,,32,32,37,19,20,38,,36,34,14,19,5,7,0.3,0.3
2024-10-02T0900,2694A,82.0806,44.8969,博尔塔拉蒙古自治州,市环保局,,46,46,50,14,17,21,,23,23,13,18,4,6,0.5,0.4
2024-10-02T0900,1071A,116.8842,38.2991,沧州市,沧县城建局,,34,34,27,18,11,30,,29,28,23,15,4,3,0.4,0.2
2024-10-02T0900,1072A,116.8584,38.3254,沧州市,电视转播站,,,,25,,7,,,26,24,31,24,5,4,,0.3
2024-10-02T0900,1073A,116.8709,38.3228,沧州市,市环保局,,45,45,31,19,19,25,,20,19,26,19,3,2,0.4,0.2
2024-10-02T0900,3324A,116.8136,38.3004,沧州市,河北水利电力学院,,34,34,22,19,15,25,,25,23,28,20,3,2,0.4,0.3
2024-10-02T0900,2622A,97.1806,31.1273,昌都市,昌都监测站,,12,9,11,8,6,24,,42,39,16,12,8,8,1.1,0.9
2024-10-02T0900,3719A,97.1714,31.1406,昌都市,昌都会议中心,,17,17,12,7,6,29,,53,50,12,8,8,8,0.4,0.4
2024-10-02T0900,2690A,88.1236,43.8886,昌吉回族自治州,天山天池,,18,16,17,3,5,55,,56,55,3,6,6,8,0.5,0.5
2024-10-02T0900,2692A,87.2717,44.0297,昌吉回族自治州,新区政务中心,,47,47,54,23,26,49,,51,51,26,34,8,10,0.6,0.8
2024-10-02T0900,3613A,87.3095,44.0142,昌吉回族自治州,亚心广场,颗粒物(PM10),58,66,65,17,17,32,,52,52,44,39,5,7,0.7,0.8
2024-10-02T0900,1119A,125.3325,43.9166,长春市,食品厂,,,31,37,12,14,,,27,27,18,25,,5,0.3,0.3
2024-10-02T0900,1120A,125.2863,43.9027,长春市,客车厂,,,34,23,12,14,,,26,25,16,22,8,7,0.3,0.3
2024-10-02T0900,1121A,125.2841,43.8463,长春市,邮电学院,,28,28,23,8,10,33,,23,23,15,21,8,8,0.3,0.2
2024-10-02T0900,1122A,125.3716,43.8772,长春市,劳动公园,,27,27,28,11,10,37,,29,29,18,21,8,7,0.2,0.2
2024-10-02T0900,1123A,125.3297,43.8805,长春市,园林处,,15,15,21,8,7,31,,26,26,18,18,6,5,0.3,0.3
2024-10-02T0900,1124A,125.4605,43.79,长春市,净月潭,颗粒物(PM10),55,59,21,10,6,29,,20,20,20,15,7,6,0.3,0.3
2024-10-02T0900,1126A,125.3863,43.8447,长春市,经开区环卫处,,31,31,23,12,9,27,,18,18,24,23,9,8,0.4,0.3
2024-10-02T0900,1127A,125.245,43.7783,长春市,高新区管委会,,31,31,23,11,11,36,,21,21,13,20,8,6,0.4,0.3
2024-10-02T0900,1128A,125.1761,43.8325,长春市,岱山公园,,20,20,25,12,12,35,,22,22,7,18,6,5,0.4,0.4
2024-10-02T0900,1335A,113.0833,28.2325,长沙市,经开区环保局,颗粒物(PM10),63,75,47,25,17,88,,77,77,18,17,6,5,0.4,0.3
2024-10-02T0900,1336A,112.8872,28.2189,长沙市,高开区环保局,颗粒物(PM10),74,98,62,40,23,83,,72,72,11,9,8,7,0.4,0.3
2024-10-02T0900,1337A,113.0792,28.2053,长沙市,马坡岭,颗粒物(PM10),60,70,48,26,18,94,,78,78,10,12,7,6,0.6,0.4
2024-10-02T0900,1338A,112.9394,28.19,长沙市,湖南师范大学,颗粒物(PM10),75,100,55,36,30,89,,76,76,15,12,10,8,0.4,0.4
2024-10-02T0900,1339A,113.0178,28.1322,长沙市,雨花区环保局,颗粒物(PM10),60,70,46,28,20,88,,78,78,13,12,9,8,0.5,0.5
2024-10-02T0900,1340A,112.9792,28.2597,长沙市,伍家岭,颗粒物(PM10),69,88,52,33,22,76,,66,66,17,15,8,6,0.7,0.6
2024-10-02T0900,1341A,113.0014,28.1944,长沙市,火车新站,颗粒物(PM10),66,82,52,39,27,80,,69,69,18,16,8,7,0.5,0.5
2024-10-02T0900,1342A,112.9844,28.1178,长沙市,天心区环保局,颗粒物(PM10),61,71,50,28,23,84,,71,71,16,16,7,6,0.5,0.5
2024-10-02T0900,1343A,112.8908,28.1308,长沙市,湖南中医药大学,颗粒物(PM10),73,95,58,38,25,89,,78,78,10,11,10,8,0.8,0.7
2024-10-02T0900,1344A,112.9581,28.3611,长沙市,沙坪,细颗粒物(PM2.5),67,64,42,48,30,85,,74,74,8,7,11,9,0.5,0.5
2024-10-02T0900,1727A,113.1147,36.1547,长治市,清华站,,,,60,,13,,,13,13,20,23,10,10,0.7,0.7
2024-10-02T0900,1728A,113.1031,36.1989,长治市,监测站,颗粒物(PM10),56,62,55,12,15,30,,15,15,28,23,12,13,0.7,0.7
2024-10-02T0900,1730A,113.0886,36.2125,长治市,审计局,颗粒物(PM10),54,57,53,14,12,26,,20,19,24,18,10,10,0.4,0.3
2024-10-02T0900,1731A,113.0844,36.1856,长治市,长治八中,颗粒物(PM10),64,77,68,22,14,36,,14,14,28,22,12,10,0.8,0.6
2024-10-02T0900,2845A,113.1569,36.1911,长治市,德盛苑,,43,43,50,14,13,43,,47,47,24,15,9,9,0.7,0.8
2024-10-02T0900,3568A,113.06,36.0464,长治市,向阳小学,颗粒物(PM10),57,63,65,15,19,49,,40,40,18,18,12,7,0.6,0.4
2024-10-02T0900,3569A,112.8792,36.3144,长治市,屯留一中,,40,40,44,6,11,32,,28,27,22,16,10,9,1.5,1.3
2024-10-02T0900,3570A,113.235,36.3489,长治市,潞城四中,颗粒物(PM10),61,72,62,22,18,33,,20,18,23,19,10,7,0.6,0.3
2024-10-02T0900,1854A,111.6975,28.9703,常德市,市二中,颗粒物(PM10),61,72,55,24,16,78,,78,78,16,17,15,12,0.5,0.5
2024-10-02T0900,3138A,111.7153,29.0289,常德市,武陵区永安,颗粒物(PM10),64,77,48,23,17,77,,79,79,18,16,15,11,0.6,0.5
2024-10-02T0900,3139A,111.6892,28.9881,常德市,鼎城区玉霞,颗粒物(PM10),66,82,53,21,17,86,,82,82,15,15,17,14,0.5,0.5
2024-10-02T0900,3140A,111.6625,29.0531,常德市,武陵区长庚,颗粒物(PM10),64,78,50,22,18,84,,67,67,16,18,14,11,0.3,0.3
2024-10-02T0900,1196A,119.9633,31.762,常州市,市监测站,,27,14,15,9,12,84,,81,81,8,10,9,8,0.2,0.4
2024-10-02T0900,1200A,119.9468,31.7069,常州市,武进监测站,,27,21,23,8,9,85,,76,76,7,8,9,8,0.5,0.5
2024-10-02T0900,1201A,119.9255,31.9087,常州市,安家,,26,18,20,8,11,83,,68,68,16,16,10,9,0.2,0.3
2024-10-02T0900,3002A,119.9805,31.8174,常州市,行政中心,,25,20,20,9,11,77,,75,75,10,11,5,7,0.3,0.4
2024-10-02T0900,3003A,120.0522,31.7748,常州市,经开区,,27,18,21,10,8,86,,77,77,13,13,7,7,0.1,0.1
2024-10-02T0900,3010A,119.9025,31.7964,常州市,钟楼,,25,17,10,9,10,79,,64,64,16,14,11,9,0.3,0.4
2024-10-02T0900,3429A,119.8598,31.7066,常州市,武进经发区,,27,27,22,13,12,70,,62,62,19,16,9,7,0.2,0.3
2024-10-02T0900,3430A,119.5826,31.7245,常州市,金坛城区,,26,26,24,11,13,79,,70,70,11,10,9,9,0.5,0.5
2024-10-02T0900,2220A,120.4318,41.5881,朝阳市,西梁,,32,32,28,8,15,47,,30,30,9,17,6,6,0.5,0.6
2024-10-02T0900,2221A,120.4521,41.5646,朝阳市,河畔小区,,41,41,21,10,9,42,,34,34,14,13,15,8,1.0,0.6
2024-10-02T0900,2222A,120.4176,41.5648,朝阳市,八里堡,,31,31,32,13,13,44,,25,25,15,23,11,10,0.7,0.7
2024-10-02T0900,2223A,120.3806,41.5969,朝阳市,农业园区,,25,25,16,9,10,45,,26,26,7,15,7,6,0.5,0.4
2024-10-02T0900,1705A,116.6367,23.6719,潮州市,西园路,,21,21,13,9,10,51,,56,56,8,6,3,4,0.5,0.4
2024-10-02T0900,3026A,116.6183,23.6608,潮州市,市政府,,28,28,17,7,7,53,,58,58,7,5,5,5,0.4,0.4
2024-10-02T0900,4036A,116.6461,23.6761,潮州市,金山,,16,15,15,3,7,50,,56,55,6,4,7,6,0.6,0.5
2024-10-02T0900,2472A,113.0073,25.9061,郴州市,马头岭,,42,42,28,24,10,46,,27,27,13,9,13,7,0.6,0.4
2024-10-02T0900,2473A,113.0116,25.8226,郴州市,市职中,,40,40,21,22,16,44,,36,35,14,11,8,4,0.5,0.4
2024-10-02T0900,2474A,113.0161,25.8001,郴州市,兴隆步行街,,38,38,22,23,16,50,,44,43,14,13,8,4,0.3,0.4
2024-10-02T0900,2475A,113.0383,25.8071,郴州市,市审计局,,42,42,24,27,16,50,,41,41,8,9,10,5,0.5,0.4
2024-10-02T0900,2476A,113.0348,25.7759,郴州市,市环保局,,,44,27,27,17,46,,48,47,10,9,,5,0.6,0.5
2024-10-02T0900,1431A,103.9728,30.7236,成都市,金泉两河,,24,24,23,3,4,22,,21,20,27,20,4,3,0.4,0.4
2024-10-02T0900,1432A,104.176,30.6872,成都市,十里店,,24,24,16,8,6,12,,48,43,36,19,1,2,0.6,0.5
2024-10-02T0900,1433A,104.079,30.5706,成都市,三瓦窑,,44,44,27,30,13,45,,46,46,17,24,6,4,0.6,0.5
2024-10-02T0900,1434A,104.1114,30.63,成都市,沙河铺,,42,42,30,18,14,25,,54,49,24,21,1,2,0.5,0.4
2024-10-02T0900,1437A,104.0786,30.6531,成都市,君平街,,34,34,26,18,10,45,,46,45,18,21,7,4,0.5,0.4
2024-10-02T0900,2880A,104.0239,30.65639,成都市,大石西路,,35,35,29,16,11,39,,46,45,17,18,6,4,0.3,0.3
2024-10-02T0900,3136A,104.2725,30.5589,成都市,龙泉驿区区政府,,31,31,18,17,8,42,,60,57,23,18,2,2,0.4,0.3
2024-10-02T0900,3357A,104.0106,30.6931,成都市,金博路,,33,32,23,23,7,26,,34,31,27,21,6,2,0.6,0.4
2024-10-02T0900,3359A,104.0578,30.5225,成都市,华阳,,31,31,26,17,13,50,,55,54,10,13,4,4,0.5,0.4
2024-10-02T0900,3487A,104.2394,30.5319,成都市,车城东七路,,37,37,17,21,9,52,,65,62,18,14,3,2,0.4,0.3
2024-10-02T0900,3488A,104.3853,30.7453,成都市,青白江技师分院,,26,26,14,13,7,39,,55,51,18,12,3,2,0.6,0.5
2024-10-02T0900,3489A,104.0789,30.4072,成都市,科学城,,31,31,19,18,10,50,,58,55,16,15,5,4,0.4,0.3
2024-10-02T0900,4011A,103.8506,30.6947,成都市,光华大道三段,,42,42,27,23,12,28,,49,46,19,15,5,4,0.5,0.4
2024-10-02T0900,1062A,117.9531,40.9081,承德市,铁路,,14,14,15,3,6,16,,12,12,24,15,16,9,0.9,0.3
2024-10-02T0900,1063A,117.9392,40.9763,承德市,中国银行,,17,17,21,7,5,17,,7,7,18,16,6,5,0.3,0.3
2024-10-02T0900,1064A,117.9503,40.928,承德市,开发区,,,43,21,21,11,,,2,2,26,19,16,8,0.6,0.2
2024-10-02T0900,1065A,117.8051,40.9655,承德市,文化中心,,30,30,27,3,4,21,,7,7,16,18,11,9,0.3,0.3
2024-10-02T0900,1066A,117.9268,41.0026,承德市,离宫,,25,,2,17,19,7,,8,8,14,6,4,4,0.3,0.3
2024-10-02T0900,2314A,117.47,30.6618,池州市,池州学院,,47,47,27,18,12,71,,76,76,17,18,12,10,0.4,0.3
2024-10-02T0900,3237A,117.4918,30.6617,池州市,展览馆,,50,50,27,23,15,68,,74,74,17,15,18,10,0.4,0.3
2024-10-02T0900,3333A,117.5627,30.695,池州市,第八中学,颗粒物(PM10),54,57,32,24,12,65,,71,71,17,15,9,6,0.5,0.4
2024-10-02T0900,3334A,117.5038,30.6243,池州市,第十二中学,颗粒物(PM10),52,53,30,18,11,65,,71,71,22,19,14,7,0.5,0.4
2024-10-02T0900,1744A,118.9233,42.2816,赤峰市,松山一中,,18,16,16,3,5,57,,49,49,13,16,8,9,0.2,0.2
2024-10-02T0900,1745A,118.9576,42.2728,赤峰市,哈达街,,,22,16,3,10,,,49,48,,12,,7,,0.3
2024-10-02T0900,1746A,118.8788,42.2554,赤峰市,天义路,,16,15,14,7,10,50,,44,44,13,13,6,6,0.2,0.2
2024-10-02T0900,3058A,119.2658,42.0353,赤峰市,银河街,颗粒物(PM10),53,55,23,22,12,26,,44,40,24,17,19,13,0.5,0.3
2024-10-02T0900,3286A,118.9359,42.3147,赤峰市,桥北物流园区,,27,27,22,3,9,44,,38,38,22,20,10,9,0.8,0.7
2024-10-02T0900,2521A,107.3476,22.4136,崇左市,市环保局江州分局,,19,8,6,3,3,58,,56,56,5,4,3,2,0.6,0.6
2024-10-02T0900,2522A,107.3702,22.3707,崇左市,城南新区,,20,7,7,3,4,64,,57,57,8,5,4,4,0.6,0.7
2024-10-02T0900,2298A,118.3093,32.3153,滁州市,老年大学,,44,44,33,19,15,65,,69,67,13,12,2,4,0.4,0.3
2024-10-02T0900,2299A,118.3244,32.2786,滁州市,人大宾馆,,38,38,37,16,12,69,,75,73,17,15,9,7,0.3,0.3
2024-10-02T0900,3207A,118.3118,32.3038,滁州市,市政府原办公楼,,39,39,31,22,18,65,,70,68,15,14,7,6,0.3,0.3
2024-10-02T0900,3331A,118.3267,32.2634,滁州市,图书馆,,41,41,31,14,10,70,,76,74,13,14,8,5,0.4,0.4
2024-10-02T0900,2605A,101.5482,25.0441,楚雄彝族自治州,州环境监测站,,16,13,9,11,6,47,,52,52,8,7,13,11,0.8,0.7
2024-10-02T0900,2606A,101.538,25.0492,楚雄彝族自治州,市经济开发区,,21,21,13,13,8,48,,52,52,10,9,9,7,0.9,0.6
2024-10-02T0900,2548A,107.5277,31.2827,达州市,达州职业技术学院,,39,39,30,11,8,30,,13,13,21,29,15,7,0.6,0.7
2024-10-02T0900,2549A,107.5086,31.2186,达州市,市环境监测站,,40,40,30,7,5,18,,18,18,32,27,14,9,0.3,0.5
2024-10-02T0900,2550A,107.4988,31.2132,达州市,凤凰小区,,29,29,25,9,7,30,,26,26,24,25,16,10,0.3,0.5
2024-10-02T0900,2551A,107.5082,31.1986,达州市,达县机关宾馆,,39,39,29,12,6,28,,24,24,26,32,15,6,0.3,0.3
2024-10-02T0900,2552A,107.4644,31.2124,达州市,市政中心,,,37,36,9,9,,,16,16,29,36,17,15,0.2,0.6
2024-10-02T0900,2614A,100.1542,25.7054,大理白族自治州,大理市环境监测站,,22,,15,15,13,43,,53,52,12,9,7,7,0.8,0.7
2024-10-02T0900,2615A,100.2171,25.5811,大理白族自治州,大理古城,,19,11,13,11,8,58,,57,57,6,8,8,7,0.5,0.5
2024-10-02T0900,1109A,121.612,38.9741,大连市,甘井子,,17,12,9,9,7,52,,54,52,23,16,9,8,0.7,0.7
2024-10-02T0900,1110A,121.565,38.9511,大连市,周水子,,15,12,11,7,6,48,,33,33,25,21,8,7,0.4,0.5
2024-10-02T0900,1111A,121.5637,38.8845,大连市,星海三站,,17,11,12,9,6,54,,36,36,15,8,7,6,0.3,0.2
2024-10-02T0900,1112A,121.6302,38.9117,大连市,青泥洼桥,,16,16,13,7,6,43,,40,39,26,14,8,6,0.3,0.3
2024-10-02T0900,1113A,121.6251,38.8638,大连市,傅家庄,,,11,9,8,5,,,53,53,14,9,,6,0.3,0.3
2024-10-02T0900,1114A,121.5213,38.8661,大连市,七贤岭,,17,9,12,9,5,54,,33,33,13,9,6,6,0.6,0.5
2024-10-02T0900,1115A,121.2529,38.8061,大连市,旅顺,,22,22,9,14,7,58,,66,64,14,9,6,6,0.4,0.3
2024-10-02T0900,1116A,121.7485,39.1311,大连市,金州,,18,10,11,10,6,56,,42,42,14,12,5,6,0.4,0.4
2024-10-02T0900,1117A,121.7811,39.0496,大连市,开发区,,19,11,12,10,7,59,,44,44,10,13,12,12,0.1,0.1
2024-10-02T0900,1118A,121.9762,39.0631,大连市,双D港,,22,15,13,8,5,69,,62,62,12,12,7,6,0.5,0.5
2024-10-02T0900,1789A,124.81117,46.03138,大庆市,大同区,,22,18,19,15,13,42,,27,27,7,10,3,4,0.2,0.2
2024-10-02T0900,1790A,125.129,46.533,大庆市,龙凤区,,39,39,33,22,20,43,,39,39,19,15,6,4,0.6,0.4
2024-10-02T0900,1791A,124.902,46.408,大庆市,红岗区,,18,18,21,8,13,34,,22,21,17,18,6,5,0.3,0.3
2024-10-02T0900,1792A,125.153,46.586,大庆市,萨尔图区,,,30,26,10,10,,,39,38,16,16,6,6,0.3,0.3
2024-10-02T0900,3481A,125.141,46.634,大庆市,萨区政府监测点,,15,13,14,3,7,46,,32,32,11,13,7,6,0.2,0.2
2024-10-02T0900,1721A,113.3819,40.1097,大同市,果树场,,42,34,16,29,10,23,,9,9,31,15,15,7,0.8,0.6
2024-10-02T0900,1723A,113.2994,40.0758,大同市,云冈宾馆,,38,38,20,14,7,30,,12,12,25,22,30,9,1.2,0.6
2024-10-02T0900,1724A,113.3444,40.0917,大同市,大同大学,,32,32,20,17,8,32,,13,13,24,24,30,14,0.7,0.6
2024-10-02T0900,1725A,113.2661,40.1269,大同市,安家小村,颗粒物(PM10),53,56,24,29,7,26,,12,12,22,18,20,12,2.7,0.7
2024-10-02T0900,1726A,113.2711,40.0844,大同市,教育学院,颗粒物(PM10),54,58,27,13,11,29,,12,12,24,26,43,12,0.7,0.6
2024-10-02T0900,3282A,113.3397,40.0597,大同市,大同市卫生学校,,22,22,22,9,8,35,,11,11,25,22,24,8,0.6,0.3
2024-10-02T0900,3565A,113.1367,40.1122,大同市,云冈站,,,79,25,18,9,,,11,11,18,17,49,12,0.3,0.3
2024-10-02T0900,3566A,113.1186,40.2556,大同市,图书馆,,,20,15,20,7,,,12,11,18,13,13,8,0.8,0.5
2024-10-02T0900,3567A,113.5931,40.0461,大同市,区一中,颗粒物(PM10),51,51,17,6,4,23,,20,20,29,10,25,12,1.0,0.6
2024-10-02T0900,3676A,113.2802,40.0995,大同市,第二人民医院,颗粒物(PM10),51,52,27,18,10,23,,10,10,28,21,23,12,2.3,0.8
2024-10-02T0900,2269A,124.1069,50.4097,大兴安岭地区,科技局,,36,27,39,25,33,30,,25,25,6,5,7,7,0.4,0.4
2024-10-02T0900,3663A,124.1164,50.4278,大兴安岭地区,红旗社区,,41,41,38,26,33,14,,17,16,20,14,2,3,0.7,0.6
2024-10-02T0900,1600A,124.3303,40.0625,丹东市,江湾东路,,49,38,14,34,9,25,,25,23,19,11,14,9,1.2,0.4
2024-10-02T0900,1601A,124.4256,40.1503,丹东市,临江后街,,29,29,14,14,4,29,,25,24,7,10,7,6,0.7,0.6
2024-10-02T0900,1602A,124.3933,40.1461,丹东市,元宝山,,18,18,11,10,7,23,,29,26,13,7,5,4,0.7,0.5
2024-10-02T0900,1603A,124.3633,40.1092,丹东市,民主桥,,25,25,15,12,3,19,,31,27,19,15,6,5,0.6,0.4
2024-10-02T0900,3541A,109.5726,19.5167,儋州市,第一中学子站,,22,22,35,9,18,53,,54,53,4,3,6,4,0.6,0.7
2024-10-02T0900,3542A,109.5567,19.5187,儋州市,东坡学校子站,,23,23,37,10,17,57,,58,56,6,5,6,5,0.6,0.6
2024-10-02T0900,2616A,98.5842,24.428,德宏傣族景颇族自治州,德宏州监测站,,16,16,21,3,9,50,,48,48,8,11,6,8,0.7,0.7
2024-10-02T0900,3677A,98.5881,24.4368,德宏傣族景颇族自治州,芒市人民政府综合楼,,17,10,19,3,7,52,,54,54,8,9,5,6,0.6,0.7
2024-10-02T0900,1901A,104.4239,31.1208,德阳市,东山公园,,31,31,22,16,10,24,,43,36,15,11,3,3,0.6,0.4
2024-10-02T0900,1902A,104.3826,31.1317,德阳市,西小区,,35,35,27,19,12,30,,26,26,18,21,4,2,0.5,0.4
2024-10-02T0900,1904A,104.3553,31.1091,德阳市,耐火材料厂,,38,38,26,16,13,20,,28,26,20,18,4,4,0.4,0.3
2024-10-02T0900,3639A,104.4019,31.1244,德阳市,市教育局,,34,34,25,15,12,24,,32,32,19,19,2,2,0.5,0.4
2024-10-02T0900,1622A,116.3032,37.4674,德州市,儿童乐园,,34,34,30,9,7,47,,26,26,15,20,8,8,0.4,0.4
2024-10-02T0900,1624A,116.2991,37.4451,德州市,监理站,,34,34,26,9,6,42,,22,21,25,18,8,6,0.6,0.4
2024-10-02T0900,3066A,116.2721,37.4379,德州市,九衢泉纯净水厂,,39,39,29,17,9,41,,15,15,22,19,12,10,0.3,0.3
2024-10-02T0900,3371A,116.3728,37.4403,德州市,开发区人民医院,,17,14,26,7,6,54,,33,33,13,18,8,8,0.4,0.4
2024-10-02T0900,3372A,116.3572,37.4094,德州市,太阳城中学,,39,39,28,7,6,34,,20,19,22,18,10,7,0.4,0.3
2024-10-02T0900,3511A,116.5652,37.3319,德州市,陵城艺术中心,,39,39,30,3,4,40,,30,28,25,20,12,9,0.6,0.5
2024-10-02T0900,2621A,99.7056,27.8317,迪庆藏族自治州,迪庆州站,,19,16,14,3,9,58,,54,54,8,9,9,8,0.4,0.5
2024-10-02T0900,3180A,99.7136,27.8094,迪庆藏族自治州,质量技术监督局,,16,13,13,6,7,51,,53,53,11,8,6,6,0.4,0.5
2024-10-02T0900,2663A,104.6241,35.5734,定西市,东关小学,颗粒物(PM10),55,59,39,31,25,13,,12,10,21,16,7,6,0.5,0.4
2024-10-02T0900,2664A,104.6194,35.5934,定西市,供电公司,,47,47,34,24,18,10,,8,8,24,20,9,7,0.7,0.5
2024-10-02T0900,1389A,113.7547,23.0494,东莞市,莞城梨川,,25,25,30,9,14,62,,52,52,12,10,8,7,0.7,0.7
2024-10-02T0900,1390A,113.7944,23.0128,东莞市,东城石井,,20,18,23,8,12,61,,52,52,13,10,7,6,0.7,0.7
2024-10-02T0900,1391A,113.7383,22.9658,东莞市,南城西平,,20,17,28,6,13,64,,54,54,10,10,2,3,0.8,0.8
2024-10-02T0900,3319A,113.7338,23.0381,东莞市,万江金泰,,22,22,27,8,14,61,,52,52,12,9,7,8,0.5,0.5
2024-10-02T0900,3626A,113.7533,23.0202,东莞市,南城元岭,,23,23,29,7,11,62,,52,52,9,6,8,8,0.6,0.6
2024-10-02T0900,3627A,113.7875,23.0457,东莞市,东城主山,,21,18,24,10,14,65,,55,55,12,10,7,7,0.5,0.6
2024-10-02T0900,1666A,118.6614,37.4309,东营市,市环保局,,19,19,19,3,4,56,,40,40,29,27,8,5,0.4,0.4
2024-10-02T0900,3036A,118.6904,37.4338,东营市,开发区管委会,,29,29,23,7,6,56,,37,37,19,17,6,3,0.2,0.2
2024-10-02T0900,3365A,118.5719,37.565,东营市,垦利区民丰路,,17,17,18,7,4,32,,25,24,26,23,11,9,0.1,0.1
2024-10-02T0900,3498A,118.5055,37.8612,东营市,河口城区,,19,19,16,10,4,36,,35,35,27,22,6,5,0.3,0.2
2024-10-02T0900,3646A,118.4978,37.4623,东营市,胜利站,,33,33,23,19,6,29,,26,25,35,19,13,10,0.3,0.2
2024-10-02T0900,3734A,118.35,37.26,东营市,理想之城,,27,27,21,12,8,41,,34,34,34,21,10,6,0.2,0.1
2024-10-02T0900,1591A,110.0023,39.8129,鄂尔多斯市,综合楼,,39,39,47,9,8,53,,29,29,32,32,11,11,0.4,0.4
2024-10-02T0900,1592A,109.9486,39.8261,鄂尔多斯市,巴音孟克林场办事处,,36,36,37,12,12,54,,44,44,28,28,7,9,0.3,0.4
2024-10-02T0900,1593A,109.7736,39.5986,鄂尔多斯市,康泽苑,,39,39,25,7,8,21,,18,17,24,14,8,7,0.4,0.3
2024-10-02T0900,1594A,109.8119,39.5989,鄂尔多斯市,华泰汽车城,,31,31,31,14,11,13,,7,7,27,22,8,8,0.5,0.5
2024-10-02T0900,1595A,109.9734,39.7884,鄂尔多斯市,奥林花园,,46,46,45,17,13,26,,10,10,43,35,6,5,0.5,0.5
2024-10-02T0900,2436A,114.8938,30.3994,鄂州市,市政府,,,43,26,10,8,,,80,80,14,15,10,9,0.4,0.4
2024-10-02T0900,2437A,114.8989,30.3714,鄂州市,赵家坝,颗粒物(PM10),52,53,28,11,7,95,,86,86,16,14,11,10,0.4,0.4
2024-10-02T0900,3654A,114.8094,30.4089,鄂州市,精准医疗中心,,46,46,32,14,8,91,,73,73,14,13,11,6,0.6,0.5
2024-10-02T0900,2454A,109.4978,30.2981,恩施土家族苗族自治州,湖北民院,,25,25,26,12,12,17,,17,16,16,16,9,9,0.5,0.5
2024-10-02T0900,2455A,109.4707,30.2798,恩施土家族苗族自治州,州电力总公司,,22,18,23,15,14,23,,18,18,18,18,6,7,0.6,0.6
2024-10-02T0900,3549A,109.5061,30.3772,恩施土家族苗族自治州,龙凤新区,,16,16,17,9,8,24,,21,21,13,11,6,6,0.6,0.6
2024-10-02T0900,2499A,108.3411,21.6158,防城港市,沙万,,21,6,17,3,12,66,,56,56,7,6,7,7,0.5,0.6
2024-10-02T0900,2500A,108.3514,21.7731,防城港市,防城档案局,,27,27,33,7,13,58,,48,48,10,8,8,8,0.4,0.6
2024-10-02T0900,2501A,108.3506,21.6414,防城港市,大海花园,,19,12,20,3,12,60,,50,50,7,7,6,6,0.6,0.7
2024-10-02T0900,1371A,113.1294,23.0067,佛山市,湾梁,,29,29,30,3,11,70,,64,64,17,15,8,8,0.6,0.6
2024-10-02T0900,1372A,113.1083,23.0478,佛山市,华材职中,,,41,35,8,14,,,54,54,24,18,8,8,0.5,0.5
2024-10-02T0900,1373A,113.144,23.0453,佛山市,南海气象局,,21,,25,3,12,65,,60,60,13,10,8,7,0.5,0.5
2024-10-02T0900,1374A,113.2881,22.8094,佛山市,顺德苏岗,,19,15,26,12,11,58,,52,52,12,11,8,8,0.7,0.6
2024-10-02T0900,1376A,112.8383,22.8678,佛山市,高明孔堂,,30,30,25,3,11,67,,58,58,16,12,7,8,0.4,0.4
2024-10-02T0900,1377A,112.8836,23.1588,佛山市,三水监测站,,22,22,17,3,7,65,,52,52,14,13,7,6,0.4,0.5
2024-10-02T0900,1378A,112.867,23.185,佛山市,三水云东海,,21,21,19,13,12,64,,49,49,17,16,10,10,0.5,0.6
2024-10-02T0900,3625A,113.2544,22.7642,佛山市,容桂街道办,,20,17,22,14,13,62,,55,55,18,15,8,8,0.6,0.6
2024-10-02T0900,1282A,119.2681,26.0504,福州市,师大,,20,9,6,3,2,63,,66,65,6,4,2,2,0.4,0.3
2024-10-02T0900,1283A,119.2984,26.1028,福州市,五四北路,,,10,5,3,1,,,66,65,8,4,,3,0.3,0.3
2024-10-02T0900,1284A,119.2648,26.0768,福州市,杨桥西路,,21,6,8,3,1,67,,68,68,5,4,3,3,0.4,0.3
2024-10-02T0900,1285A,119.317,26.0746,福州市,紫阳,,15,14,10,3,3,43,,62,58,30,9,6,5,0.4,0.4
2024-10-02T0900,3048A,119.5799,26.0936,福州市,九龙,,18,8,11,3,0,55,,59,57,4,3,6,6,0.7,0.4
2024-10-02T0900,3526A,119.5189,25.9664,福州市,吴航,,18,6,7,3,5,56,,56,54,6,4,7,7,0.7,0.4
2024-10-02T0900,1755A,123.7977,41.8491,抚顺市,望花区,颗粒物(PM10),53,55,38,27,20,27,,10,10,26,20,17,8,1.5,0.8
2024-10-02T0900,1756A,123.9161,41.8822,抚顺市,顺城区,,46,46,33,26,18,18,,8,8,29,18,9,6,1.2,0.5
2024-10-02T0900,1757A,124.0436,41.8611,抚顺市,东洲区,,36,,26,25,13,22,,9,9,24,15,13,7,1.1,0.5
2024-10-02T0900,1758A,123.9247,41.8642,抚顺市,新抚区,,33,,34,23,16,13,,8,8,26,20,4,4,0.7,0.4
2024-10-02T0900,1759A,124.0972,41.8961,抚顺市,大伙房水库,,32,,22,22,12,25,,8,8,14,16,10,7,1.0,0.4
2024-10-02T0900,1760A,123.7086,41.8391,抚顺市,沈抚新城,,33,33,29,23,15,26,,9,9,28,23,22,9,1.0,0.3
2024-10-02T0900,2376A,116.2127,28.0814,抚州市,桐源党溪,,46,46,42,13,12,91,,84,84,3,3,6,5,0.6,0.6
2024-10-02T0900,2377A,116.3544,27.9831,抚州市,市站,,35,35,35,9,11,74,,72,72,11,9,4,2,1.0,0.9
2024-10-02T0900,2378A,116.3565,27.963,抚州市,血防站,,32,32,34,14,10,79,,78,78,11,9,2,4,0.6,0.6
2024-10-02T0900,2379A,116.3564,28.0007,抚州市,采茶剧团,,34,34,34,15,12,79,,76,76,5,3,5,4,0.7,0.6
2024-10-02T0900,2380A,116.385,27.9647,抚州市,医学分院,,35,35,34,11,10,78,,76,76,7,6,4,4,0.5,0.5
2024-10-02T0900,2207A,121.6094,41.998,阜新市,工业园区,,33,33,31,15,21,43,,17,17,15,23,25,11,0.7,0.6
2024-10-02T0900,2208A,121.6697,42.0279,阜新市,长青街,,29,29,25,13,10,38,,17,17,14,16,28,11,0.6,0.5
2024-10-02T0900,2209A,121.6673,42.0705,阜新市,农业园区,,41,41,22,27,14,47,,33,33,22,17,16,12,0.6,0.5
2024-10-02T0900,2210A,121.6717,42.0224,阜新市,东苑,,35,35,28,12,14,37,,23,23,19,22,32,19,0.8,0.6
2024-10-02T0900,2211A,121.6506,42.0498,阜新市,玉龙新城,,44,44,32,12,12,54,,17,17,24,26,21,8,1.1,0.9
2024-10-02T0900,2301A,115.8277,32.8929,阜阳市,市监测站,,38,35,53,26,19,58,,61,59,21,19,10,8,0.3,0.3
2024-10-02T0900,2303A,115.8554,32.8605,阜阳市,开发区,颗粒物(PM10),61,71,74,22,16,59,,61,59,20,18,10,8,0.6,0.6
2024-10-02T0900,2875A,115.784,32.8892,阜阳市,阜阳职业技术学院,,,64,58,23,18,,,68,66,24,17,10,8,0.4,0.3
2024-10-02T0900,3468A,115.7901,32.8613,阜阳市,市规划展馆,颗粒物(PM10),59,68,53,22,12,68,,76,74,21,18,10,8,0.2,0.2
2024-10-02T0900,3469A,115.836,32.9183,阜阳市,枣园社区,,,68,58,23,14,50,,53,52,25,22,12,10,,0.3
2024-10-02T0900,2669A,102.9099,34.9841,甘南藏族自治州,州政府,,26,21,25,18,16,30,,13,13,14,16,9,10,0.5,0.4
2024-10-02T0900,3380A,102.8914,34.9617,甘南藏族自治州,甘肃民族师范学院,,29,29,29,16,10,25,,4,4,16,19,4,4,0.5,0.4
2024-10-02T0900,2570A,101.9603,30.0475,甘孜藏族自治州,水桥子,,12,9,8,3,6,37,,39,39,14,9,5,5,0.3,0.3
2024-10-02T0900,3065A,101.9533,29.9972,甘孜藏族自治州,州环保局,,13,13,9,3,4,40,,46,45,17,10,3,3,0.3,0.3
2024-10-02T0900,3414A,115.8347,28.932,赣江新区,桑海产业园,颗粒物(PM10),65,80,61,17,12,83,,82,82,13,9,12,11,0.6,0.5
2024-10-02T0900,2362A,114.9017,25.9149,赣州市,通天岩,,40,40,43,12,20,84,,95,93,2,3,15,15,0.3,0.3
2024-10-02T0900,2363A,114.9367,25.8664,赣州市,地委,,28,28,37,16,20,88,,82,82,10,9,8,5,1.0,1.1
2024-10-02T0900,2364A,114.9461,25.8481,赣州市,气象台,,30,30,36,17,21,83,,80,80,13,6,2,2,0.6,0.6
2024-10-02T0900,2365A,114.9322,25.8333,赣州市,市图书馆,,34,34,40,14,18,90,,85,85,8,7,6,4,0.5,0.6
2024-10-02T0900,2366A,114.8905,25.8471,赣州市,华坚鞋城,,35,35,40,9,16,86,,80,80,9,7,5,4,0.4,0.4
2024-10-02T0900,3109A,115.0093,25.8613,赣州市,赣县区卫计委,,34,34,33,8,16,85,,82,82,11,10,6,5,0.5,0.5
2024-10-02T0900,2683A,106.2319,36.1417,固原市,马园,,23,20,32,16,12,26,,19,19,25,25,6,6,0.6,0.5
2024-10-02T0900,2684A,106.2792,36.0022,固原市,监测站,,47,47,30,22,16,27,,24,24,38,24,6,5,0.8,0.5
2024-10-02T0900,2685A,106.2375,36.0211,固原市,新区,,48,48,33,13,13,25,,8,8,40,30,6,6,0.6,0.4
2024-10-02T0900,3522A,106.2177,35.9959,固原市,原州区十五小,,24,22,32,10,12,76,,59,59,18,16,4,4,0.5,0.5
2024-10-02T0900,2544A,106.6303,30.4576,广安市,市委,,31,31,25,17,12,38,,40,39,22,19,9,2,0.3,0.3
2024-10-02T0900,2545A,106.6271,30.4663,广安市,友谊中学,,34,34,24,16,12,33,,40,38,27,18,11,4,0.4,0.4
2024-10-02T0900,2547A,106.6388,30.4551,广安市,广电花园,,34,34,22,19,11,35,,36,36,20,17,5,3,0.3,0.3
2024-10-02T0900,2902A,106.6351,30.4865,广安市,北辰小学,,31,31,25,14,11,40,,43,42,24,16,12,5,0.4,0.3
2024-10-02T0900,2523A,105.8945,32.4535,广元市,黑石坡,,29,,19,20,8,26,,32,30,8,6,13,13,0.3,0.3
2024-10-02T0900,2524A,105.821,32.4444,广元市,老城,,11,11,18,6,8,20,,19,18,20,21,1,2,0.5,0.3
2024-10-02T0900,2526A,105.8628,32.4287,广元市,监测站,,40,,18,28,11,31,,31,30,15,10,1,2,0.4,0.3
2024-10-02T0900,3617A,105.8047,32.4166,广元市,经开区,,24,24,25,13,13,28,,24,24,18,23,4,3,0.5,0.4
2024-10-02T0900,1345A,113.2347,23.1423,广州市,广雅中学,,33,33,30,20,16,60,,50,50,17,16,7,7,0.7,0.7
2024-10-02T0900,1346A,113.2612,23.105,广州市,市五中,,41,41,30,13,17,68,,54,54,11,10,6,6,0.4,0.5
2024-10-02T0900,1348A,113.3478,23.0916,广州市,广东商学院,,31,31,31,11,14,58,,52,52,16,14,6,5,0.6,0.6
2024-10-02T0900,1349A,113.4332,23.1047,广州市,市八十六中,,40,40,32,10,14,61,,51,51,13,12,4,4,0.6,0.6
2024-10-02T0900,1350A,113.3505,22.9483,广州市,番禺中学,,28,28,30,3,13,49,,38,38,12,11,7,7,0.6,0.6
2024-10-02T0900,1351A,113.2146,23.3916,广州市,花都师范,,22,20,21,3,10,68,,60,60,9,8,5,5,0.9,0.8
2024-10-02T0900,1352A,113.2597,23.1331,广州市,市监测站,,31,31,28,16,14,61,,49,49,9,14,5,5,0.4,0.5
2024-10-02T0900,1353A,113.5618,23.312,广州市,九龙镇镇龙,,21,16,21,6,12,67,,54,54,11,11,8,8,0.7,0.7
2024-10-02T0900,1354A,113.2765,23.1544,广州市,麓湖,,33,33,31,14,15,65,,50,50,12,13,7,7,0.5,0.4
2024-10-02T0900,1355A,113.443,23.3035,广州市,帽峰山森林公园,,23,15,16,8,10,71,,59,59,7,7,8,8,0.8,0.7
2024-10-02T0900,2846A,113.3221,23.1322,广州市,体育西,,23,23,27,8,14,57,,49,49,12,11,4,4,0.5,0.5
2024-10-02T0900,3298A,113.5717,23.5491,广州市,从化街口,,24,20,22,9,13,74,,61,61,7,8,9,10,0.5,0.6
2024-10-02T0900,3299A,113.3472,23.3692,广州市,白云竹料,,23,23,23,14,13,62,,51,51,11,10,6,6,0.2,0.3
2024-10-02T0900,3300A,113.2981,23.237,广州市,白云嘉禾,,27,27,32,14,15,58,,52,52,19,17,8,8,0.6,0.6
2024-10-02T0900,3301A,113.4256,23.1716,广州市,黄埔科学城,,,12,22,12,12,,,50,50,15,14,,9,0.3,0.5
2024-10-02T0900,3302A,113.3942,23.0483,广州市,番禺大学城,,18,15,23,12,13,56,,49,49,17,12,10,10,0.2,0.3
2024-10-02T0900,3303A,113.4922,22.8168,广州市,南沙黄阁,,27,27,29,11,15,65,,56,56,15,14,7,7,0.5,0.5
2024-10-02T0900,3304A,113.5342,22.7896,广州市,南沙街,,26,26,30,11,15,61,,53,53,16,13,8,8,0.6,0.7
2024-10-02T0900,3443A,113.2902,23.5544,广州市,花都梯面,,22,22,21,14,14,64,,54,54,8,8,6,6,0.6,0.6
2024-10-02T0900,3445A,113.7858,23.7478,广州市,从化良口,,21,16,21,9,14,65,,59,59,8,7,10,8,0.6,0.7
2024-10-02T0900,3446A,113.8051,23.2614,广州市,增城荔城,,21,17,22,8,13,66,,62,62,13,9,7,6,0.5,0.5
2024-10-02T0900,2506A,109.6047,23.0666,贵港市,江南子站,,22,22,35,3,10,70,,66,66,8,8,8,7,0.6,0.6
2024-10-02T0900,2507A,109.6014,23.0948,贵港市,贵城子站,,28,28,31,7,12,67,,65,65,8,8,8,7,0.6,0.6
2024-10-02T0900,2508A,109.5669,23.1065,贵港市,荷城子站,,31,31,36,12,12,69,,67,67,6,5,12,11,0.6,0.6
2024-10-02T0900,3405A,109.5886,23.1172,贵港市,新世纪学校,,31,31,44,14,17,64,,,,4,5,9,8,0.5,0.6
2024-10-02T0900,1439A,106.6899,26.5998,贵阳市,马鞍山,,21,6,3,3,0,67,,78,77,7,7,4,5,0.5,0.4
2024-10-02T0900,1440A,106.6971,26.5694,贵阳市,市环保站,,28,7,2,3,4,89,,102,101,8,6,2,2,0.1,0.2
2024-10-02T0900,1441A,106.6243,26.6266,贵阳市,鉴湖路,,25,6,5,3,1,77,,82,82,4,4,3,4,0.3,0.4
2024-10-02T0900,1442A,106.7487,26.6343,贵阳市,燕子冲,,23,7,1,7,6,71,,87,86,10,5,5,5,0.3,0.3
2024-10-02T0900,1443A,106.6555,26.4365,贵阳市,碧云窝,,24,12,8,3,1,74,,92,92,8,6,4,4,0.3,0.3
2024-10-02T0900,1444A,106.694,26.5161,贵阳市,中院村,,28,6,5,3,2,88,,98,97,9,6,6,6,0.5,0.5
2024-10-02T0900,1445A,106.7109,26.6027,贵阳市,红边门,,27,7,8,7,6,84,,92,92,9,9,5,3,0,0.1
2024-10-02T0900,1446A,106.7164,26.5699,贵阳市,新华路,,28,7,3,3,3,89,,98,97,8,6,5,5,0.2,0.2
2024-10-02T0900,1447A,106.674,26.5424,贵阳市,太慈桥,,26,7,4,3,1,83,,88,88,6,6,5,5,0.2,0.2
2024-10-02T0900,1862A,110.4144,25.3167,桂林市,电子科大尧山校区,,50,50,25,6,10,105,,97,97,7,6,6,4,0.5,0.5
2024-10-02T0900,1863A,110.2819,25.2697,桂林市,监测站,,49,49,20,13,13,92,,84,84,10,8,9,8,0.6,0.6
2024-10-02T0900,1864A,110.3089,25.2708,桂林市,龙隐路小学,,,53,20,13,15,,,89,89,6,5,9,8,0.4,0.5
2024-10-02T0900,1865A,110.2869,25.2178,桂林市,八中,,44,44,19,6,6,89,,84,84,9,7,9,7,0.4,0.4
2024-10-02T0900,3403A,110.1764,25.2381,桂林市,创业大厦,颗粒物(PM10),51,51,26,24,17,70,,61,61,11,8,27,17,0.3,0.3
2024-10-02T0900,3531A,110.296,25.1253,桂林市,旅游学院,,44,44,19,12,9,96,,90,90,7,5,8,7,0.4,0.3
2024-10-02T0900,2674A,100.2561,34.4714,果洛藏族自治州,玛沁县大武镇,,27,27,31,12,15,50,,60,57,6,3,7,7,0.4,0.4
2024-10-02T0900,1129A,126.5422,45.755,哈尔滨市,岭北,,22,15,15,11,10,68,,50,50,7,12,16,14,0.2,0.2
2024-10-02T0900,1130A,126.561,45.8167,哈尔滨市,松北商大,,24,24,26,9,8,37,,13,13,15,27,9,8,0.4,0.4
2024-10-02T0900,1131A,126.979,45.5419,哈尔滨市,阿城会宁,,35,,23,24,14,21,,16,16,12,17,9,10,0.6,0.4
2024-10-02T0900,1132A,126.599,45.7222,哈尔滨市,南岗学府路,,30,30,24,10,8,30,,20,20,20,17,7,6,0.4,0.3
2024-10-02T0900,1133A,126.689,45.7733,哈尔滨市,太平宏伟公园,,24,24,29,14,10,39,,14,14,16,17,9,7,0.5,0.5
2024-10-02T0900,1134A,126.635,45.7667,哈尔滨市,道外承德广场,,40,40,23,10,6,37,,20,20,16,24,6,4,0.0,0.2
2024-10-02T0900,1135A,126.685,45.7319,哈尔滨市,香坊红旗大街,,48,48,30,12,11,33,,12,12,23,25,10,7,0.4,0.4
2024-10-02T0900,1136A,126.6411,45.7258,哈尔滨市,动力和平路,,39,39,24,13,8,25,,13,12,25,21,18,14,0.4,0.3
2024-10-02T0900,1137A,126.593,45.7478,哈尔滨市,道里建国路,,,41,21,8,10,,,15,13,16,20,9,8,0.5,0.2
2024-10-02T0900,1138A,126.615,45.61,哈尔滨市,平房东轻厂,,39,,17,27,39,36,,20,20,16,22,8,6,0.3,0.3
2024-10-02T0900,1139A,126.595,45.9855,哈尔滨市,呼兰师专,,23,23,27,12,10,35,,16,16,18,24,4,4,0.5,0.5
2024-10-02T0900,1140A,126.6206,45.6842,哈尔滨市,省农科院,,50,50,39,12,11,30,,10,10,21,32,8,6,0.7,0.5
2024-10-02T0900,2688A,93.5128,42.8172,哈密市,地区监测站,颗粒物(PM10),95,139,80,35,26,10,,26,22,76,41,4,6,0.6,0.4
2024-10-02T0900,2689A,93.4961,42.8328,哈密市,哈密师范学校,颗粒物(PM10),78,106,67,38,31,11,,11,11,61,45,5,6,0.9,0.6
2024-10-02T0900,2671A,100.9048,36.9639,海北藏族自治州,海晏县西海镇,,39,29,21,27,17,69,,59,59,13,9,10,13,0.6,0.5
2024-10-02T0900,3867A,102.0738,36.5056,海东市,平安区公安北苑,,44,44,38,24,14,24,,27,24,16,14,8,13,0.5,0.5
2024-10-02T0900,1410A,110.3232,20.0574,海口市,海南大学,,18,18,26,9,17,57,,58,56,8,9,4,3,0.4,0.5
2024-10-02T0900,1411A,110.283,20.0053,海口市,秀英海南医院,,23,23,31,9,18,57,,57,55,12,12,6,6,0.4,0.4
2024-10-02T0900,1412A,110.338,19.9969,海口市,海南师范大学,,25,25,31,9,17,60,,60,58,8,10,7,7,0.4,0.5
2024-10-02T0900,1413A,110.33,20.0356,海口市,龙华路环保局宿舍,,24,24,29,9,16,56,,58,56,9,9,6,5,0.3,0.4
2024-10-02T0900,3539A,110.5111,19.9736,海口市,桂林洋子站,,20,20,31,9,18,61,,63,59,8,8,9,8,0.3,0.4
2024-10-02T0900,2673A,100.6188,36.2866,海南藏族自治州,共和县恰卜恰镇,颗粒物(PM10),73,96,31,14,7,35,,53,50,28,13,10,9,0.7,0.4
2024-10-02T0900,2676A,97.3731,37.3753,海西蒙古族藏族自治州,德令哈市,,24,11,20,10,11,74,,75,75,8,13,9,9,0.5,0.4
2024-10-02T0900,1048A,114.5302,36.6116,邯郸市,东污水处理厂,,34,34,56,12,11,40,,20,20,16,16,4,3,0.6,0.5
2024-10-02T0900,1049A,114.4918,36.5713,邯郸市,矿院,,33,33,58,7,10,27,,7,7,17,18,4,4,0.1,0.1
2024-10-02T0900,1050A,114.484,36.6133,邯郸市,丛台公园,,24,24,50,9,12,38,,12,12,20,22,4,4,0.6,0.6
2024-10-02T0900,3458A,114.7895,36.5593,邯郸市,香泉濮院小区,,32,32,66,9,10,41,,19,19,22,18,4,4,0.4,0.4
2024-10-02T0900,3579A,114.50634,36.77178,邯郸市,永年区实验高中,颗粒物(PM10),59,68,69,26,16,29,,17,17,26,20,20,5,1.6,0.4
2024-10-02T0900,3580A,114.20016,36.44293,邯郸市,峰峰矿区临水派出所,颗粒物(PM10),51,51,70,8,10,40,,46,46,16,10,8,5,1.2,0.8
2024-10-02T0900,2634A,106.9893,33.1842,汉中市,汉川机床厂子校,,26,26,23,3,6,35,,30,30,6,11,9,7,0.5,0.6
2024-10-02T0900,2635A,107.0154,33.0706,汉中市,市监测站,,21,21,27,10,13,26,,32,31,8,12,8,9,0.5,0.5
2024-10-02T0900,2636A,107.0089,33.1138,汉中市,鑫源开发区,,30,24,30,21,16,24,,24,23,11,18,13,12,0.3,0.4
2024-10-02T0900,2637A,107.007,33.0323,汉中市,南郑大河坎水厂,,34,34,24,13,12,22,,30,28,12,11,8,8,0.4,0.4
2024-10-02T0900,1223A,120.2072,30.2111,杭州市,滨江,,38,38,19,19,9,76,,68,68,22,13,6,5,0.6,0.6
2024-10-02T0900,1224A,120.0633,30.2747,杭州市,西溪,,26,17,8,8,6,82,,73,73,17,15,7,6,0.6,0.6
2024-10-02T0900,1226A,120.3461,30.3153,杭州市,下沙,,28,28,24,3,6,87,,80,80,23,24,7,6,0.7,0.6
2024-10-02T0900,1227A,120.1269,30.2456,杭州市,卧龙桥,,26,18,11,15,8,82,,76,76,18,15,8,6,0.5,0.5
2024-10-02T0900,1228A,120.1903,30.2692,杭州市,浙江农大,,30,29,20,21,12,71,,66,66,22,18,9,8,0.5,0.5
2024-10-02T0900,1230A,120.1197,30.3119,杭州市,和睦小学,,32,32,20,3,6,81,,71,71,23,16,8,7,0.6,0.6
2024-10-02T0900,1231A,120.3019,30.4183,杭州市,临平镇,,,32,18,11,6,,,88,88,12,12,6,5,0.5,0.6
2024-10-02T0900,1232A,120.2697,30.1819,杭州市,城厢镇,,27,,13,18,9,84,,80,80,18,18,7,6,0.6,0.6
2024-10-02T0900,1233A,120.0883,30.1808,杭州市,云栖,,25,25,18,3,3,77,,63,63,10,11,7,7,0.7,0.7
2024-10-02T0900,3557A,119.9464,30.0494,杭州市,镇二中,,27,21,10,3,3,84,,74,74,18,14,10,8,0.6,0.6
2024-10-02T0900,3558A,119.7183,30.2367,杭州市,市府大楼,,31,23,10,15,8,98,,91,91,10,10,8,6,0.6,0.6
2024-10-02T0900,3656A,120.1556,30.2864,杭州市,消防大队,,26,16,16,3,7,81,,73,73,14,11,10,9,0.6,0.6
2024-10-02T0900,1270A,117.1959,31.7848,合肥市,明珠广场,,44,44,37,14,10,74,,77,73,16,15,8,7,0.4,0.6
2024-10-02T0900,1271A,117.3072,31.8764,合肥市,三里街,,46,46,38,14,12,60,,64,61,16,15,9,9,0.4,0.4
2024-10-02T0900,1272A,117.2588,31.8707,合肥市,琥珀山庄,,46,46,42,16,12,69,,72,70,19,15,10,9,0.4,0.4
2024-10-02T0900,1273A,117.1604,31.9052,合肥市,董铺水库,颗粒物(PM10),51,51,41,17,12,62,,55,54,13,12,5,4,0.4,0.4
2024-10-02T0900,1274A,117.25,31.8571,合肥市,长江中路,,46,46,46,16,16,67,,70,68,18,14,10,9,0.6,0.6
2024-10-02T0900,1275A,117.266,31.9436,合肥市,庐阳区,,48,48,45,12,13,71,,71,69,14,12,4,4,0.4,0.4
2024-10-02T0900,1276A,117.336,31.8586,合肥市,瑶海区,,48,48,46,10,12,65,,66,64,18,20,5,5,0.2,0.3
2024-10-02T0900,1277A,117.3027,31.7964,合肥市,包河区,,48,48,41,12,12,64,,64,62,18,19,4,3,0.5,0.5
2024-10-02T0900,1278A,117.2776,31.7385,合肥市,滨湖新区,,48,48,38,14,12,66,,69,67,18,16,5,5,0.5,0.5
2024-10-02T0900,1279A,117.1318,31.8403,合肥市,高新区,,,,43,,15,,,61,59,17,15,,10,0.6,0.7
2024-10-02T0900,3464A,117.3803,31.9147,合肥市,高教基地,,48,48,39,15,11,63,,60,58,12,10,5,4,0.3,0.3
2024-10-02T0900,3614A,79.924,37.0877,和田地区,地区环保局,颗粒物(PM10),179,307,353,57,88,50,,43,43,12,13,8,8,0.4,0.5
2024-10-02T0900,3615A,79.9131,37.113,和田地区,市环保局,颗粒物(PM10),198,345,308,64,81,42,,33,33,18,19,7,7,0.4,0.6
2024-10-02T0900,2516A,108.2011,24.715,河池市,东仁乐园,,22,11,6,3,3,68,,72,72,6,6,3,3,0.5,0.5
2024-10-02T0900,2517A,108.0497,24.6947,河池市,市环保站,,26,19,9,3,2,81,,81,81,8,7,10,10,0.4,0.4
2024-10-02T0900,2518A,108.0983,24.6989,河池市,市疾控中心,,26,19,7,3,2,82,,79,79,9,9,10,9,0.4,0.5
2024-10-02T0900,1696A,114.6778,23.7569,河源市,源西,,24,22,31,10,15,76,,81,79,8,7,5,5,0.4,0.5
2024-10-02T0900,1697A,114.6944,23.7586,河源市,东埔,,24,14,21,10,29,75,,78,77,14,11,4,3,0.7,0.7
2024-10-02T0900,1698A,114.6892,23.7233,河源市,老城,,24,18,31,3,13,76,,80,78,10,8,4,3,0.5,0.6
2024-10-02T0900,1718A,115.4208,35.2464,菏泽市,气象局,,39,39,68,20,11,50,,46,44,22,17,8,4,0.3,0.2
2024-10-02T0900,1719A,115.4747,35.2375,菏泽市,市政协,,18,17,67,8,12,57,,50,50,10,12,12,6,0.4,0.3
2024-10-02T0900,3374A,115.5564,35.0891,菏泽市,定陶老年大学,,31,31,61,7,10,50,,49,49,18,15,15,9,0.2,0.1
2024-10-02T0900,3647A,115.4702,35.2706,菏泽市,菏泽医专,,28,28,69,11,7,47,,42,42,21,22,13,6,0.5,0.5
2024-10-02T0900,2514A,111.5264,24.4172,贺州市,环保小区,,39,39,34,23,14,74,,72,72,12,9,7,6,0.5,0.5
2024-10-02T0900,2515A,111.5608,24.4078,贺州市,政协大楼,,36,36,42,23,16,70,,70,70,15,10,6,5,0.5,0.5
2024-10-02T0900,3534A,111.4744,24.4553,贺州市,西湾,,29,29,31,16,10,73,,73,73,12,9,9,7,0.5,0.5
2024-10-02T0900,2385A,114.17,35.9019,鹤壁市,市监测站,,22,22,60,14,15,59,,37,37,20,25,4,5,0.7,0.6
2024-10-02T0900,2386A,114.2956,35.7511,鹤壁市,市交警支队,,22,22,54,3,10,42,,31,31,19,24,3,5,0.3,0.4
2024-10-02T0900,2387A,114.2878,35.7306,鹤壁市,迎宾馆,,,21,57,3,12,,,38,37,22,24,4,5,0.5,0.5
2024-10-02T0900,3474A,114.2617,35.6822,鹤壁市,大新区,,49,49,62,10,13,36,,40,38,20,16,2,3,0.3,0.3
2024-10-02T0900,3596A,114.1572,35.9603,鹤壁市,南山宾馆,,29,29,50,12,14,49,,53,52,13,13,3,2,0.4,0.2
2024-10-02T0900,2244A,130.2537,47.3416,鹤岗市,哈啤分公司,,29,23,22,20,18,50,,40,40,5,8,16,15,0.4,0.6
2024-10-02T0900,2245A,130.2684,47.3086,鹤岗市,斯达机电,,31,31,26,16,19,40,,43,41,14,11,14,15,0.4,0.3
2024-10-02T0900,2246A,130.3114,47.3388,鹤岗市,东山纸板厂,,33,33,75,22,22,47,,25,25,14,16,19,18,0.6,0.6
2024-10-02T0900,2247A,130.1097,47.3382,鹤岗市,五号水库,,17,17,17,7,12,53,,47,47,5,5,8,9,0.1,0.2
2024-10-02T0900,2263A,127.4833,50.2524,黑河市,交通局,,,39,26,24,20,30,,32,32,19,14,,7,,0.4
2024-10-02T0900,2264A,127.5144,50.2341,黑河市,环保局,,46,46,27,32,20,29,,33,31,22,14,6,6,0.4,0.4
2024-10-02T0900,2265A,127.5291,50.2472,黑河市,大黑河岛,,,,,43,18,31,,38,38,26,15,2,2,0.2,0.1
2024-10-02T0900,1074A,115.6838,37.7541,衡水市,电机北厂,颗粒物(PM10),59,68,33,20,12,67,,36,36,16,12,12,6,0.4,0.3
2024-10-02T0900,1075A,115.6303,37.7316,衡水市,市监测站,颗粒物(PM10),51,51,31,18,7,61,,35,35,21,17,7,6,0.3,0.2
2024-10-02T0900,3188A,115.6683,37.7217,衡水市,市城管局,,49,49,25,21,12,67,,37,37,12,13,9,5,0.3,0.3
2024-10-02T0900,3459A,115.5989,37.5491,衡水市,地表水厂,,48,48,35,19,8,25,,9,9,40,20,9,7,0.4,0.3
2024-10-02T0900,2456A,112.5003,26.9167,衡阳市,原169医院,,47,47,33,23,16,91,,84,84,13,12,4,2,0.7,0.7
2024-10-02T0900,2457A,112.6194,26.9258,衡阳市,衡阳化工总厂,,,70,34,34,20,,,80,80,17,15,12,9,0.8,0.7
2024-10-02T0900,2458A,112.6211,26.8956,衡阳市,珠晖区环保局,颗粒物(PM10),53,56,34,23,17,84,,,,18,13,12,8,0.6,0.5
2024-10-02T0900,2459A,112.6197,26.8733,衡阳市,市委党校,颗粒物(PM10),53,56,33,23,14,92,,88,88,15,14,14,10,0.7,0.6
2024-10-02T0900,2460A,112.6006,26.8919,衡阳市,市监测站,颗粒物(PM10),57,63,34,39,19,93,,88,88,12,10,11,8,0.7,0.6
2024-10-02T0900,2461A,112.5664,26.9056,衡阳市,真空机电公司,颗粒物(PM10),56,61,35,25,20,91,,87,87,11,11,10,8,0.7,0.7
2024-10-02T0900,3399A,112.6703,26.882,衡阳市,师范学院,颗粒物(PM10),57,64,39,35,27,90,,74,74,13,14,12,9,0.7,0.7
2024-10-02T0900,2608A,103.3772,23.3993,红河哈尼族彝族自治州,污水处理厂,,,,14,,16,43,,49,48,,10,11,21,,0.5
2024-10-02T0900,2609A,103.3861,23.35,红河哈尼族彝族自治州,监测站,,26,,18,18,20,57,,64,62,6,8,13,18,0.5,0.5
2024-10-02T0900,3038A,103.3758,23.368,红河哈尼族彝族自治州,州图书馆,,16,15,13,11,10,42,,55,53,9,9,15,23,0.8,0.7
2024-10-02T0900,1090A,111.6507,40.7517,呼和浩特市,呼市一监,,31,31,18,6,11,42,,18,18,16,17,6,4,0.4,0.4
2024-10-02T0900,1091A,111.6572,40.8033,呼和浩特市,小召,,14,14,17,8,7,44,,20,20,19,29,7,7,0.3,0.3
2024-10-02T0900,1094A,111.7516,40.8369,呼和浩特市,如意水处理厂,,26,26,13,9,6,34,,19,19,26,24,8,6,0.3,0.2
2024-10-02T0900,1095A,111.7276,40.8062,呼和浩特市,二十九中,,38,38,15,9,5,34,,17,17,27,29,5,4,0.4,0.4
2024-10-02T0900,1096A,111.5512,40.7866,呼和浩特市,工大金川校区,,30,30,20,7,5,35,,11,11,28,29,3,3,0.5,0.4
2024-10-02T0900,1097A,111.717,40.7612,呼和浩特市,化肥厂生活区,,26,26,21,9,8,38,,13,13,19,24,9,7,0.4,0.3
2024-10-02T0900,3698A,111.5968,40.8178,呼和浩特市,红旗小学,,24,24,16,10,5,31,,9,9,28,30,5,3,0.3,0.3
2024-10-02T0900,3699A,111.6518,40.8389,呼和浩特市,海东办,,24,24,17,9,7,27,,8,8,29,30,4,3,0.5,0.4
2024-10-02T0900,2192A,119.7594,49.2261,呼伦贝尔市,区环保局,,23,23,22,12,15,48,,36,36,9,8,4,5,0.5,0.4
2024-10-02T0900,3061A,119.7512,49.1577,呼伦贝尔市,国华电力东,,19,19,17,9,14,52,,35,35,4,4,4,3,0.3,0.2
2024-10-02T0900,1250A,120.0751,30.8669,湖州市,城西水厂,,26,26,15,11,7,83,,92,91,20,19,5,5,0.6,0.4
2024-10-02T0900,2873A,120.0875,30.8955,湖州市,仁皇山新区,,27,25,14,11,8,85,,92,91,12,10,8,7,0.5,0.5
2024-10-02T0900,2907A,120.1844,30.8596,湖州市,吴兴区站,,27,23,19,9,7,86,,88,88,7,8,6,6,0.6,0.6
2024-10-02T0900,3562A,120.4148,30.8538,湖州市,南浔区站,,33,33,23,13,9,80,,84,84,15,12,8,6,0.4,0.4
2024-10-02T0900,1607A,120.9092,40.7136,葫芦岛市,龙港区,,27,27,19,8,9,50,,38,38,11,18,11,13,0.4,0.4
2024-10-02T0900,1608A,120.8392,40.7514,葫芦岛市,化工街,,16,14,17,7,9,49,,23,23,11,27,18,19,0.1,0.3
2024-10-02T0900,1609A,120.8341,40.7073,葫芦岛市,新区,,15,14,21,10,8,42,,32,32,18,27,12,10,0.4,0.3
2024-10-02T0900,1610A,120.8695,40.7677,葫芦岛市,东城区,,36,36,21,8,9,38,,26,26,17,22,22,15,0.5,0.3
2024-10-02T0900,2482A,109.5981,27.5721,怀化市,林科所,,19,18,12,13,8,31,,38,36,10,9,5,4,0.6,0.6
2024-10-02T0900,2483A,109.9453,27.5444,怀化市,河西地税局,,24,24,19,16,11,38,,44,43,7,8,11,10,0.6,0.6
2024-10-02T0900,2484A,109.9781,27.5342,怀化市,市四医院,,34,34,25,19,14,34,,48,46,4,4,10,18,0.5,0.6
2024-10-02T0900,2485A,109.9972,27.5578,怀化市,监测楼,,46,46,28,22,14,34,,47,44,7,8,3,24,0.4,0.4
2024-10-02T0900,2486A,110.0394,27.583,怀化市,市委党校,,,30,28,19,16,34,,36,36,6,7,,32,,0.5
2024-10-02T0900,1210A,119.036,33.5981,淮安市,钵池山,,24,24,31,12,14,50,,53,51,10,12,5,5,0.5,0.5
2024-10-02T0900,1211A,119.007,33.575,淮安市,北京南路,,,,46,9,11,50,,58,55,18,20,8,7,0.4,0.5
2024-10-02T0900,1212A,118.989,33.6067,淮安市,市监测站,,22,22,30,12,17,54,,59,57,15,24,8,7,0.3,0.4
2024-10-02T0900,1213A,119.135,33.5039,淮安市,楚州区监测站,,,39,37,10,14,,,57,56,18,16,8,7,0.7,0.6
2024-10-02T0900,1214A,119.0186,33.6297,淮安市,淮阴区监测站,,27,27,36,11,14,50,,54,52,21,23,4,3,0.9,0.9
2024-10-02T0900,3426A,118.8755,33.2894,淮安市,新华书店,,31,31,40,8,18,59,,60,59,18,20,10,9,0.6,0.5
2024-10-02T0900,2282A,116.8004,33.975,淮北市,监测站,,25,25,44,6,9,57,,59,59,10,14,8,8,0.4,0.4
2024-10-02T0900,2283A,116.8091,33.9007,淮北市,烈山区政府,,,11,48,7,14,58,,60,58,,13,7,6,0.3,0.3
2024-10-02T0900,3330A,116.8873,33.9836,淮北市,杜集区检察院,,32,32,56,7,13,55,,51,50,10,9,9,8,0.5,0.5
2024-10-02T0900,4017A,116.7923,33.9535,淮北市,市博物馆,,36,36,50,6,11,59,,61,60,13,16,10,9,0.4,0.4
2024-10-02T0900,2277A,116.8305,32.7727,淮南市,潘集区政府,颗粒物(PM10),51,52,63,24,22,60,,54,53,21,25,11,9,0.5,0.4
2024-10-02T0900,2278A,117.0067,32.6524,淮南市,师范学院,颗粒物(PM10),51,52,59,6,21,57,,56,55,23,16,10,7,0.8,0.6
2024-10-02T0900,2279A,116.8569,32.5951,淮南市,谢家集区政府,,50,50,51,20,19,57,,56,54,17,17,10,10,0.3,0.3
2024-10-02T0900,2280A,116.8281,32.633,淮南市,八公山区政府,颗粒物(PM10),53,56,57,19,17,58,,56,56,17,17,11,9,0.3,0.3
2024-10-02T0900,2281A,116.6325,32.6201,淮南市,焦岗湖风景区管理处,颗粒物(PM10),52,53,42,23,11,62,,54,53,16,10,8,6,0.0,0
2024-10-02T0900,2894A,117.0566,32.6531,淮南市,经济技术开发区消防队,颗粒物(PM10),59,68,66,15,20,57,,58,57,17,11,10,6,0.3,0.3
2024-10-02T0900,3329A,117.0108,32.5893,淮南市,山南新区,颗粒物(PM10),59,68,60,16,11,64,,70,68,21,15,7,4,0.4,0.3
2024-10-02T0900,2446A,114.9028,30.4742,黄冈市,职工中心,颗粒物(PM10),56,62,37,18,16,85,,71,71,12,10,9,8,0.4,0.4
2024-10-02T0900,2929A,114.8858,30.4519,黄冈市,红卫路,颗粒物(PM10),52,54,30,17,12,88,,79,79,16,11,9,8,0.3,0.3
2024-10-02T0900,3398A,114.9136,30.4445,黄冈市,市林业局,颗粒物(PM10),60,70,37,18,14,96,,80,80,9,9,9,8,0.5,0.5
2024-10-02T0900,2672A,102.0199,35.5102,黄南藏族自治州,同仁县隆务镇,,28,23,30,19,11,47,,47,47,2,3,9,7,0.5,0.5
2024-10-02T0900,2295A,118.2903,29.6963,黄山市,延安路89号,,31,30,22,21,9,98,,87,87,6,6,7,6,0.3,0.3
2024-10-02T0900,2296A,118.327,29.7178,黄山市,黄山东路89号,,38,38,18,12,10,94,,80,80,6,7,6,5,0.3,0.4
2024-10-02T0900,2297A,118.1371,30.2756,黄山市,黄山区政府5号楼,,42,42,19,20,9,70,,27,27,8,9,8,7,0.4,0.4
2024-10-02T0900,2423A,115.0601,30.2313,黄石市,沈家营,,37,37,26,11,6,100,,93,93,13,12,13,10,0.5,0.4
2024-10-02T0900,2424A,115.0817,30.2006,黄石市,陈家湾,,42,42,27,14,9,95,,93,92,13,9,7,10,0.5,0.5
2024-10-02T0900,2426A,114.8988,30.2019,黄石市,铁山,,35,34,31,10,9,110,,105,105,4,8,8,9,0.7,0.8
2024-10-02T0900,2427A,115.0307,30.2092,黄石市,团城山,,41,41,26,10,6,94,,86,86,11,10,6,6,0.5,0.5
2024-10-02T0900,3149A,115.0235,30.1578,黄石市,笔架山北路,,32,32,20,6,3,102,,102,101,10,9,8,8,0.5,0.4
2024-10-02T0900,1392A,114.4183,23.0528,惠州市,河南岸金山湖子站,,24,24,32,8,16,71,,78,77,12,6,8,6,0.5,0.5
2024-10-02T0900,1393A,114.4053,23.0822,惠州市,下埔横江三路子站,,26,22,28,10,16,82,,84,84,16,8,5,4,0.6,0.6
2024-10-02T0900,1394A,114.4103,23.1142,惠州市,江北云山西路子站,,25,22,29,3,14,77,,78,78,7,3,5,5,0.6,0.6
2024-10-02T0900,1395A,114.4645,22.7833,惠州市,惠阳区承修路船湖子站,,30,30,36,10,16,71,,74,73,14,11,7,6,0.5,0.5
2024-10-02T0900,1396A,114.5317,22.7422,惠州市,大亚湾管委会子站,,24,22,29,8,14,75,,82,81,12,8,8,7,0.5,0.4
2024-10-02T0900,3452A,114.6517,22.775,惠州市,大亚湾霞涌,,34,34,33,12,21,74,,78,77,7,6,6,5,0.7,0.6
2024-10-02T0900,2240A,130.9762,45.3001,鸡西市,环保局,,16,15,14,11,8,32,,28,28,4,6,6,6,0.2,0.2
2024-10-02T0900,2243A,130.9429,45.3039,鸡西市,第一中学,,25,25,14,13,8,32,,26,26,3,7,5,5,0.0,0.1
2024-10-02T0900,3707A,131.0207,45.3073,鸡西市,欧美日汽修厂,,16,16,14,8,10,29,,28,28,15,11,13,6,0.1,0.2
2024-10-02T0900,3709A,130.9967,45.3106,鸡西市,市政设施管理处,,19,19,17,3,9,32,,24,24,8,12,6,6,0.0,0.1
2024-10-02T0900,2367A,114.9754,27.0803,吉安市,红声器材厂,,45,45,38,11,11,98,,90,90,18,15,13,13,0.4,0.4
2024-10-02T0900,2368A,114.9658,27.0999,吉安市,市森林工业局,,31,30,33,12,13,98,,91,91,13,13,12,11,0.7,0.6
2024-10-02T0900,2369A,114.99,27.1312,吉安市,市环境监测站,,37,37,33,16,12,99,,92,92,12,10,15,14,0.4,0.4
2024-10-02T0900,2370A,115.0093,27.0968,吉安市,青原区法院,,38,38,34,12,13,100,,94,94,15,13,13,12,0.6,0.6
2024-10-02T0900,1772A,126.54,43.8622,吉林市,哈达湾,,15,15,16,6,8,39,,33,33,12,17,6,6,0.5,0.5
2024-10-02T0900,1773A,126.5844,43.8358,吉林市,东局子,,14,14,16,8,7,40,,35,35,12,14,5,5,0.5,0.4
2024-10-02T0900,1774A,126.5052,43.8245,吉林市,电力学院,,13,13,16,7,9,39,,30,30,9,14,5,4,0.5,0.5
2024-10-02T0900,1775A,126.6133,43.8972,吉林市,江北,,,21,23,6,10,,,33,33,14,17,7,7,0.6,0.6
2024-10-02T0900,1776A,126.555,43.8306,吉林市,江南公园,,15,14,17,10,9,43,,36,36,10,15,6,6,0.5,0.5
2024-10-02T0900,1778A,126.7061,43.7133,吉林市,丰满,,15,6,6,3,4,46,,40,40,6,5,6,6,0.1,0.3
2024-10-02T0900,2868A,126.4739,43.953,吉林市,九站,,18,18,20,8,10,46,,32,32,7,19,6,7,0.5,0.5
2024-10-02T0900,1299A,116.9862,36.6114,济南市,科干所,,17,17,21,3,4,42,,44,41,24,17,8,6,0.5,0.5
2024-10-02T0900,1300A,116.9376,36.665,济南市,农科所,,32,32,27,7,4,31,,29,27,39,24,8,5,0.6,0.5
2024-10-02T0900,1301A,117.1265,36.6734,济南市,开发区,,32,32,22,10,8,41,,41,38,24,16,8,4,0.4,0.3
2024-10-02T0900,1303A,117.0624,36.6868,济南市,省种子仓库,,24,24,25,7,2,47,,42,40,14,11,7,3,0.1,0.1
2024-10-02T0900,1304A,116.9489,36.6447,济南市,机床二厂,,32,32,28,3,4,36,,36,34,32,24,8,4,0.6,0.5
2024-10-02T0900,1305A,117.0495,36.663,济南市,市监测站,,17,17,22,7,4,44,,46,43,26,19,7,4,0.4,0.4
2024-10-02T0900,1306A,116.7675,36.5484,济南市,长清党校,,20,20,27,3,5,45,,38,35,22,20,6,5,0.5,0.5
2024-10-02T0900,1616A,117.6795,36.229,济南市,技术学院,,14,12,22,7,7,44,,35,33,12,13,9,7,0.3,0.3
2024-10-02T0900,1961A,117.532,36.6868,济南市,东山小学,,,29,26,3,4,,,34,33,,19,,3,,0.3
2024-10-02T0900,3059A,117.7161,36.2049,济南市,泰兴公司,,19,19,27,7,8,46,,23,21,14,18,8,6,0.2,0.2
2024-10-02T0900,3064A,117.6867,36.2171,济南市,莱芜战役纪念馆,,19,19,28,9,6,44,,35,32,16,16,7,5,0.4,0.3
2024-10-02T0900,3494A,117.1673,36.9782,济南市,济阳区政府,,32,32,29,12,3,33,,28,27,26,20,7,7,0.3,0.2
2024-10-02T0900,3495A,117.1171,36.63,济南市,锦屏中学,,16,10,17,3,4,49,,40,39,18,16,6,4,0.2,0.2
2024-10-02T0900,3682A,116.9814,36.6819,济南市,济南四建,,19,19,20,7,6,36,,36,34,31,22,6,3,0.3,0.2
2024-10-02T0900,1653A,116.6251,35.4302,济宁市,火炬城,,17,11,36,3,9,54,,46,46,14,17,8,9,0.3,0.4
2024-10-02T0900,1655A,116.5491,35.4042,济宁市,电化厂,,,28,50,3,10,,,41,39,17,16,10,11,0.4,0.3
2024-10-02T0900,3500A,116.5814,35.3707,济宁市,北湖一中,,18,13,38,3,8,55,,48,48,17,18,1,3,0.2,0.3
2024-10-02T0900,3501A,116.8249,35.5593,济宁市,服务中心,,18,18,39,3,8,46,,36,36,21,22,8,7,0.3,0.3
2024-10-02T0900,3678A,116.5907,35.4054,济宁市,市第七中学,,18,18,40,3,7,52,,50,49,15,14,7,7,0.4,0.4
2024-10-02T0900,2255A,130.2751,46.8028,佳木斯市,佳纺,,24,24,15,14,7,50,,34,34,7,10,3,4,0.3,0.3
2024-10-02T0900,2256A,130.3995,46.8307,佳木斯市,发电厂,,,35,14,13,7,,,37,36,10,9,,6,0.5,0.5
2024-10-02T0900,2257A,130.3258,46.7975,佳木斯市,环保局,,,36,19,10,7,46,,41,41,,9,12,8,,0.3
2024-10-02T0900,2258A,130.3648,46.8032,佳木斯市,十一中,,29,29,17,14,8,51,,44,44,10,13,7,6,0.3,0.3
2024-10-02T0900,2259A,130.3794,46.7588,佳木斯市,四丰,,,,0,15,5,48,,35,35,8,6,1,1,0.1,0.1
2024-10-02T0900,1252A,120.7436,30.778,嘉兴市,清河小学,,31,31,24,9,9,80,,76,76,18,17,6,5,0.9,0.8
2024-10-02T0900,1253A,120.726,30.7478,嘉兴市,嘉兴学院,,26,22,21,14,10,82,,81,81,15,13,5,4,0.7,0.4
2024-10-02T0900,2872A,120.7846,30.7525,嘉兴市,南湖区残联,,30,30,23,14,8,85,,84,84,10,9,7,6,0.7,0.5
2024-10-02T0900,3407A,120.6916,30.7739,嘉兴市,秀洲住建,,35,35,23,16,12,80,,80,80,14,12,8,6,0.5,0.4
2024-10-02T0900,1945A,98.2908,39.7711,嘉峪关市,气象局,颗粒物(PM10),62,73,33,22,9,12,,24,22,56,26,7,21,0.8,0.5
2024-10-02T0900,2884A,98.2672,39.7978,嘉峪关市,酒钢宾馆,颗粒物(PM10),52,53,40,12,11,36,,44,42,41,21,18,36,0.5,0.6
2024-10-02T0900,3248A,98.2643,39.7724,嘉峪关市,雄关区,,42,42,28,18,14,7,,10,7,59,31,10,14,0.5,0.4
2024-10-02T0900,1383A,113.1064,22.6058,江门市,北街,,27,27,27,10,14,72,,63,63,14,12,6,6,0.7,0.7
2024-10-02T0900,1384A,113.0731,22.5835,江门市,西区,,22,20,23,3,13,68,,58,58,11,11,7,7,0.4,0.4
2024-10-02T0900,1385A,113.0219,22.5311,江门市,圭峰西,,23,23,22,10,14,71,,60,60,11,10,4,4,0.7,0.7
2024-10-02T0900,1386A,113.0828,22.5947,江门市,东湖,,23,19,28,3,13,71,,62,62,9,9,6,6,0.4,0.4
2024-10-02T0900,3311A,113.1075,22.5647,江门市,江海富民,,39,39,37,10,15,73,,64,64,11,10,8,8,0.6,0.6
2024-10-02T0900,3449A,113.05,22.4667,江门市,新会银湖,,,23,24,11,15,,,61,60,9,8,,7,0.9,0.9
2024-10-02T0900,1828A,113.227,35.2125,焦作市,市环保局,,40,40,66,12,17,48,,44,42,19,16,8,4,0.2,0.1
2024-10-02T0900,1830A,113.1992,35.2590,焦作市,影视城,,43,39,53,30,27,67,,66,66,8,5,10,5,0.6,0.4
2024-10-02T0900,3169A,113.2725,35.2067,焦作市,太极体育中心,颗粒物(PM10),55,59,76,26,18,40,,44,41,21,17,7,5,0.3,0.2
2024-10-02T0900,3335A,113.3137,35.2641,焦作市,马村街道办,,45,45,62,18,14,45,,38,36,19,16,8,3,0.4,0.2
2024-10-02T0900,3336A,113.2465,35.2373,焦作市,焦作技师学院,,36,36,59,12,16,56,,47,46,17,16,5,2,0.4,0.3
2024-10-02T0900,3477A,113.1656,35.2539,焦作市,中站许衡医院,,34,34,56,12,20,66,,44,43,12,17,2,2,0.4,0.4
2024-10-02T0900,3981A,113.2449,35.1803,焦作市,原李万街道办,颗粒物(PM10),55,59,74,26,20,44,,38,36,16,14,6,3,0.2,0.1
2024-10-02T0900,1708A,116.3701,23.5345,揭阳市,新兴,,19,12,22,12,13,59,,60,60,10,9,5,4,0.6,0.6
2024-10-02T0900,1709A,116.3264,23.5443,揭阳市,西马,,,23,26,10,13,60,,64,64,6,5,,5,0.5,0.5
2024-10-02T0900,1710A,116.3611,23.5626,揭阳市,东兴,,33,33,37,8,12,59,,62,61,7,7,5,5,0.6,0.6
2024-10-02T0900,1711A,116.4151,23.5294,揭阳市,渔湖,,25,25,20,10,9,60,,61,61,8,7,5,4,0.6,0.5
2024-10-02T0900,3320A,116.403,23.5699,揭阳市,曲溪,,29,29,18,10,10,57,,61,61,12,9,2,2,0.5,0.4
2024-10-02T0900,1944A,102.1692,38.5167,金昌市,天庆家园,,43,,32,27,15,17,,44,40,86,25,31,19,0.9,0.5
2024-10-02T0900,3170A,102.1864,38.5253,金昌市,市委党校,颗粒物(PM10),58,65,40,24,18,46,,49,47,47,23,22,16,0.8,0.6
2024-10-02T0900,4022A,102.1647,38.5371,金昌市,金川区人防中心,颗粒物(PM10),66,82,41,30,17,36,,56,54,66,19,51,20,0.9,0.5
2024-10-02T0900,1262A,119.647,29.077,金华市,十五中,,30,25,16,3,5,95,,83,83,15,13,2,4,0.4,0.4
2024-10-02T0900,1263A,119.686,29.1029,金华市,监测站,,29,25,16,13,9,92,,79,79,11,12,3,2,0.5,0.5
2024-10-02T0900,3659A,119.656,29.1131,金华市,气象局,,29,24,13,3,3,92,,79,79,17,15,5,5,0.4,0.5
2024-10-02T0900,1767A,121.1115,41.0879,锦州市,南山,,20,,29,14,22,41,,24,24,13,18,9,9,0.6,1.3
2024-10-02T0900,1768A,121.0533,40.8434,锦州市,开发区,颗粒物(PM10),60,69,55,15,14,18,,7,7,38,42,13,12,0.9,0.9
2024-10-02T0900,1769A,121.1836,41.1119,锦州市,百股街道,,28,28,24,7,14,43,,30,30,14,17,12,8,0.7,0.8
2024-10-02T0900,1770A,121.1178,41.1222,锦州市,天安街道,,16,15,25,11,16,51,,43,43,13,15,22,21,0.4,0.5
2024-10-02T0900,1771A,121.1303,41.1386,锦州市,北湖公园,,21,21,22,7,15,53,,42,42,13,15,14,12,0.4,0.4
2024-10-02T0900,2160A,112.85,35.5051,晋城市,自来水公司,颗粒物(PM10),52,53,59,14,11,32,,27,25,30,28,10,7,1.0,0.7
2024-10-02T0900,2162A,112.8508,35.4887,晋城市,市环保局,颗粒物(PM10),51,52,56,12,15,31,,26,24,32,31,5,5,0.8,0.6
2024-10-02T0900,2163A,112.8676,35.4897,晋城市,技术学院,,48,48,68,14,13,34,,25,23,32,28,6,5,0.9,0.6
2024-10-02T0900,3620A,112.8271,35.4828,晋城市,泽州一中,,50,50,58,17,12,31,,37,33,31,25,7,7,1.2,0.8
2024-10-02T0900,2171A,112.7532,37.6945,晋中市,锦纶小区,,44,44,50,7,10,29,,27,27,16,19,10,5,0.4,0.3
2024-10-02T0900,2173A,112.7249,37.7067,晋中市,南都小区,,,33,50,18,20,,,31,31,17,22,11,4,0.7,0.6
2024-10-02T0900,2174A,112.6991,37.6982,晋中市,榆次区政府,,46,46,46,14,16,30,,26,26,23,24,12,4,0.4,0.3
2024-10-02T0900,2865A,112.7195,37.6828,晋中市,榆次三中,,41,41,53,7,9,28,,18,18,18,21,16,7,0.5,0.4
2024-10-02T0900,2439A,112.2014,31.0481,荆门市,竹园小学,颗粒物(PM10),51,52,52,12,13,64,,62,62,18,18,12,12,0.4,0.4
2024-10-02T0900,2440A,112.1969,30.9891,荆门市,掇刀,颗粒物(PM10),56,62,52,13,14,73,,68,68,18,19,8,9,0.4,0.4
2024-10-02T0900,2441A,112.2213,31.0386,荆门市,石化一小,,,56,50,12,14,,,57,56,18,17,17,19,0.3,0.2
2024-10-02T0900,3012A,112.1849,31.0362,荆门市,西山林语,颗粒物(PM10),55,60,47,13,12,71,,71,71,17,15,9,9,0.2,0.4
2024-10-02T0900,3547A,112.1632,31.0138,荆门市,龙泉中学南校,颗粒物(PM10),59,68,54,18,15,78,,78,78,17,15,11,11,0.4,0.4
2024-10-02T0900,1844A,112.2494,30.3197,荆州市,市图书馆,颗粒物(PM10),61,71,47,25,17,76,,63,63,18,20,12,11,0.5,0.4
2024-10-02T0900,1845A,112.2008,30.3544,荆州市,市委党校,颗粒物(PM10),58,66,44,21,15,80,,62,62,14,16,10,9,0.3,0.3
2024-10-02T0900,3194A,112.2747,30.3122,荆州市,管委会,颗粒物(PM10),52,54,40,20,16,77,,69,68,18,18,10,9,0.5,0.5
2024-10-02T0900,3548A,112.1655,30.3364,荆州市,学苑路,颗粒物(PM10),64,77,49,24,16,82,,65,65,15,17,6,8,0.5,0.5
2024-10-02T0900,2343A,117.2117,29.2933,景德镇市,老干部活动中心,,27,27,20,18,10,80,,85,84,7,7,9,8,0.6,0.5
2024-10-02T0900,2344A,117.1894,29.2789,景德镇市,兽医站,,29,29,24,11,10,82,,86,86,7,6,7,6,0.5,0.5
2024-10-02T0900,2345A,117.1547,29.2617,景德镇市,台达陶瓷,,32,32,27,15,10,85,,88,88,8,5,6,6,0.4,0.4
2024-10-02T0900,2346A,117.2461,29.2956,景德镇市,陶研所,,27,,21,15,9,86,,92,91,9,7,6,6,0.4,0.4
2024-10-02T0900,1803A,115.9872,29.6815,九江市,十里,,,,33,,9,,,93,93,,12,,9,,0.4
2024-10-02T0900,1804A,115.9584,29.7046,九江市,茅山头,,39,39,30,13,12,84,,88,87,14,12,9,8,0.5,0.5
2024-10-02T0900,1805A,115.9877,29.7295,九江市,西园,,42,42,25,15,11,94,,96,95,11,11,10,9,0.3,0.3
2024-10-02T0900,1806A,116.0172,29.6547,九江市,五七二七厂,,46,46,30,9,8,87,,88,88,13,11,10,9,0.5,0.5
2024-10-02T0900,1808A,115.9114,29.6038,九江市,综合工业园,,47,47,30,15,12,96,,100,100,16,14,9,7,0.3,0.3
2024-10-02T0900,1809A,116.0721,29.7535,九江市,石化总厂,,48,48,31,16,11,84,,88,87,13,12,8,8,0.3,0.5
2024-10-02T0900,1810A,115.9773,29.5698,九江市,庐山气象台,,,51,26,24,14,98,,106,105,6,4,,8,0.9,0.6
2024-10-02T0900,3190A,116.0254,29.6994,九江市,外国语学校,,41,41,31,11,8,87,,91,90,13,12,10,8,0.7,0.7
2024-10-02T0900,2658A,98.5061,39.7443,酒泉市,仓门街子站,颗粒物(PM10),58,66,26,14,13,20,,45,41,36,13,144,12,0.9,0.4
2024-10-02T0900,2659A,98.4989,39.7256,酒泉市,油田生活基地,颗粒物(PM10),68,85,30,22,16,11,,46,41,52,17,44,7,0.7,0.4
2024-10-02T0900,2698A,76.0072,39.4467,喀什地区,巡警大队,颗粒物(PM10),112,174,222,31,34,3,,20,17,37,25,4,3,0.6,0.6
2024-10-02T0900,2699A,75.9755,39.4694,喀什地区,吾办,颗粒物(PM10),101,151,205,35,51,3,,28,23,30,24,4,4,0.8,0.5
2024-10-02T0900,4027A,75.9483,39.4689,喀什地区,老干局,颗粒物(PM10),136,221,230,37,33,8,,24,20,32,22,4,4,0.6,0.5
2024-10-02T0900,1824A,114.3389,34.7781,开封市,肿瘤医院,,,29,70,14,20,,,42,42,19,26,7,7,0.1,0.2
2024-10-02T0900,1826A,114.2885,34.7965,开封市,世纪星幼儿园,,31,31,66,12,13,54,,45,45,17,22,9,7,0.6,0.6
2024-10-02T0900,3147A,114.3438,34.8106,开封市,龙亭公园,,32,32,71,7,15,47,,37,37,21,33,7,7,0.3,0.3
2024-10-02T0900,3210A,114.3644,34.7964,开封市,汴京公园,,28,28,72,12,19,49,,38,38,13,24,4,3,0.2,0.3
2024-10-02T0900,3473A,114.2485,34.8306,开封市,技师学院,,38,38,64,15,22,45,,32,31,22,24,22,10,0.4,0.4
2024-10-02T0900,3592A,114.4644,34.7556,开封市,祥符区生态环境局,,46,46,72,15,18,35,,28,28,28,37,15,9,0.4,0.4
2024-10-02T0900,1951A,84.895,45.6094,克拉玛依市,长征新村,,29,29,35,10,10,69,,86,82,10,13,8,7,0.3,0.3
2024-10-02T0900,1952A,84.8988,45.5893,克拉玛依市,南林小区,,26,26,35,10,19,73,,84,81,11,22,5,5,0.1,0.1
2024-10-02T0900,1954A,84.905,44.3396,克拉玛依市,独山子区,,38,38,32,13,16,34,,68,65,32,19,8,10,0.5,0.4
2024-10-02T0900,1955A,85.6979,46.098,克拉玛依市,乌尔禾区商贸楼,,30,30,31,18,10,30,,68,62,22,13,14,12,0.6,0.5
2024-10-02T0900,3612A,85.1045,45.6899,克拉玛依市,白碱滩区新站,颗粒物(PM10),71,92,37,8,8,39,,77,69,26,18,7,7,0.4,0.4
2024-10-02T0900,2697A,76.1454,39.7142,克孜勒苏柯尔克孜自治州,市人民政府,颗粒物(PM10),138,226,229,44,47,58,,57,57,8,10,3,4,0.7,0.7
2024-10-02T0900,3665A,76.1658,39.7157,克孜勒苏柯尔克孜自治州,克州文化中心,颗粒物(PM10),125,199,221,51,58,59,,67,65,12,9,5,8,0.6,0.6
2024-10-02T0900,1450A,102.8204,24.8886,昆明市,呈贡新区,,33,33,16,3,5,61,,66,65,12,6,9,5,0.5,0.4
2024-10-02T0900,1452A,102.7252,25.0902,昆明市,龙泉镇,,21,19,12,3,4,66,,59,59,7,8,8,8,0.5,0.6
2024-10-02T0900,1453A,102.7266,25.0375,昆明市,东风东路,,21,13,14,3,5,66,,60,60,8,9,5,6,0.4,0.4
2024-10-02T0900,1454A,102.6742,25.0669,昆明市,金鼎山,,,,10,10,7,67,,62,62,,6,3,3,0.4,0.4
2024-10-02T0900,1455A,102.6644,25.0401,昆明市,碧鸡广场,,20,9,11,6,14,64,,61,61,11,9,7,8,0.4,0.5
2024-10-02T0900,3179A,102.7494,25.0119,昆明市,官渡区博物馆,,19,11,12,11,8,60,,60,60,21,15,7,6,0.4,0.4
2024-10-02T0900,3375A,102.8017,24.8336,昆明市,青年创业园,,21,11,7,6,3,66,,69,69,9,6,9,4,0.5,0.4
2024-10-02T0900,3550A,102.7997,24.9786,昆明市,昆明学院,,,16,10,3,4,72,,72,71,,7,5,5,,0.3
2024-10-02T0900,3551A,102.5967,24.6736,昆明市,晋宁区生态环境分局,,24,24,16,7,7,68,,70,69,12,7,1,2,0.6,0.5
2024-10-02T0900,3552A,102.6678,24.9856,昆明市,云天化总部,,23,10,14,3,7,72,,67,67,11,12,6,5,0.2,0.4
2024-10-02T0900,1456A,91.1319,29.6514,拉萨市,八廓街,,23,19,15,16,9,57,,82,77,25,17,8,9,0.1,0.1
2024-10-02T0900,1457A,91.1221,29.6747,拉萨市,市环保局,,30,30,20,15,9,41,,77,70,28,17,7,8,0.4,0.3
2024-10-02T0900,1458A,91.0874,29.6475,拉萨市,区监测站,,28,,14,19,7,49,,75,69,29,18,6,7,0.1,0
2024-10-02T0900,1459A,91.1774,29.6541,拉萨市,西藏大学,,20,9,12,7,7,62,,81,77,10,11,12,8,0.3,0.4
2024-10-02T0900,1460A,90.9798,29.6588,拉萨市,区辐射站,,22,22,18,10,8,38,,70,61,30,20,11,9,0.3,0.2
2024-10-02T0900,1461A,91.0834,29.6292,拉萨市,拉萨火车站,,17,8,12,7,8,40,,74,68,34,16,5,6,0.4,0.3
2024-10-02T0900,2520A,109.2203,23.7256,来宾市,来宾技工学校,,28,28,24,6,10,66,,61,61,9,7,10,8,0.5,0.6
2024-10-02T0900,3535A,109.1781,23.7297,来宾市,兴宾区政府,,23,20,19,11,9,71,,66,66,5,4,7,7,1.0,0.9
2024-10-02T0900,4002A,109.2416,23.7461,来宾市,中南小学,,25,25,23,3,10,73,,66,66,4,4,9,8,0.6,0.7
2024-10-02T0900,1476A,103.631,36.1031,兰州市,兰炼宾馆,,,,55,,31,,,12,11,,42,12,10,0.7,0.6
2024-10-02T0900,1478A,103.8412,36.0726,兰州市,生物制品所,颗粒物(PM10),53,55,44,28,28,10,,3,3,37,42,13,11,1.0,0.6
2024-10-02T0900,1479A,103.831,36.0464,兰州市,铁路设计院,,47,47,52,30,32,8,,2,2,46,57,18,9,1.3,0.8
2024-10-02T0900,3186A,103.7158,36.1058,兰州市,教育港,颗粒物(PM10),52,53,51,28,30,12,,11,11,40,36,8,10,0.7,0.6
2024-10-02T0900,3241A,103.7439,36.0842,兰州市,百合公园,,49,49,43,25,23,11,,12,12,42,38,6,9,0.8,0.7
2024-10-02T0900,3242A,103.9611,35.998,兰州市,和平,,46,46,36,23,19,34,,38,36,33,24,21,14,1.1,0.6
2024-10-02T0900,3245A,103.6633,36.533,兰州新区,新区管委会,,40,40,38,22,22,28,,25,25,25,19,9,11,0.5,0.5
2024-10-02T0900,3246A,103.6975,36.4789,兰州新区,舟曲中学,颗粒物(PM10),52,54,40,23,18,20,,27,25,35,25,8,11,0.5,0.4
2024-10-02T0900,1067A,116.6708,39.5111,廊坊市,药材公司,,21,21,18,12,6,9,,24,21,31,16,2,2,0.4,0.3
2024-10-02T0900,1068A,116.7214,39.5589,廊坊市,开发区,,,,19,,5,,,26,24,29,17,,1,0.3,0.3
2024-10-02T0900,1070A,116.7244,39.5269,廊坊市,北华航天学院,,25,25,19,3,4,28,,32,31,25,13,2,2,0.3,0.2
2024-10-02T0900,2919A,116.7022,39.5453,廊坊市,河北工业大学,,14,14,20,7,7,28,,30,28,26,14,2,2,0.3,0.2
2024-10-02T0900,2535A,103.7723,29.5462,乐山市,花湖湾,,32,32,25,17,13,16,,29,27,15,10,2,2,0.7,0.5
2024-10-02T0900,2536A,103.7627,29.5844,乐山市,牛耳桥,,26,25,26,18,14,25,,36,34,18,18,5,4,0.4,0.3
2024-10-02T0900,2537A,103.7508,29.6006,乐山市,市第三水厂,,38,29,26,26,15,28,,39,37,14,14,5,4,0.5,0.4
2024-10-02T0900,2538A,103.7571,29.5664,乐山市,市监测站,,31,31,28,18,16,25,,36,34,14,14,5,4,0.5,0.5
2024-10-02T0900,3361A,103.7311,29.5628,乐山市,理工大学,,26,26,25,16,14,23,,38,34,13,14,5,4,0.5,0.4
2024-10-02T0900,2599A,100.2497,26.8802,丽江市,丽江古城,,16,11,15,6,11,49,,47,47,9,10,9,9,0.7,0.7
2024-10-02T0900,2600A,100.2203,26.8906,丽江市,市中心,,15,10,9,3,6,46,,47,47,13,11,5,6,0.8,0.8
2024-10-02T0900,1267A,119.914,28.4514,丽水市,监测站大楼,,26,20,17,3,5,82,,73,73,7,8,4,4,0.2,0.3
2024-10-02T0900,1268A,119.93,28.4586,丽水市,莲都小学,,,18,15,3,3,,,76,76,9,7,4,4,0.2,0.3
2024-10-02T0900,1269A,119.879,28.4231,丽水市,余庄前,,23,23,17,11,8,41,,45,43,15,9,4,4,0.1,0.4
2024-10-02T0900,1173A,119.176,34.5885,连云港市,市环境监测站,,31,31,33,7,10,52,,57,56,15,13,11,8,0.6,0.5
2024-10-02T0900,3000A,119.3581,34.6972,连云港市,德源药业,,24,24,26,3,8,54,,65,61,15,12,8,7,0.5,0.4
2024-10-02T0900,3007A,119.178,34.844,连云港市,新城一中,,26,26,22,8,13,52,,51,50,23,22,8,7,0.6,0.5
2024-10-02T0900,3008A,119.3608,34.7519,连云港市,胡沟管理处,,,,25,,7,60,,63,60,,12,3,10,,0.6
2024-10-02T0900,3009A,119.1478,34.5911,连云港市,矿山设计院,,,24,32,7,12,51,,55,55,16,16,10,6,,0.6
2024-10-02T0900,3434A,119.2413,34.6539,连云港市,工贸学校,,23,23,24,9,12,46,,58,56,21,15,12,9,0.9,0.8
2024-10-02T0900,3664A,119.4172,34.7341,连云港市,连云街道,,22,22,31,3,10,56,,58,55,19,21,6,8,0.2,0.5
2024-10-02T0900,2571A,102.3431,27.8099,凉山彝族自治州,青龙寺,,16,16,10,6,3,35,,32,32,5,4,5,5,0.6,0.5
2024-10-02T0900,2572A,102.2721,27.8415,凉山彝族自治州,邛海宾馆,,14,12,6,6,3,44,,46,45,10,8,9,8,0.5,0.5
2024-10-02T0900,2573A,102.2625,27.898,凉山彝族自治州,西昌市政府,,11,7,3,7,2,33,,44,42,11,5,8,7,0.5,0.4
2024-10-02T0900,2574A,102.2685,27.8851,凉山彝族自治州,凉山州政府,,,,7,,4,,,45,44,16,7,12,7,,0.5
2024-10-02T0900,2575A,102.237,27.8914,凉山彝族自治州,长安,,13,12,3,9,5,40,,45,42,10,7,13,12,0.7,0.6
2024-10-02T0900,2212A,123.2,41.1953,辽阳市,宏伟区,,40,40,26,14,9,28,,15,15,28,20,20,7,1.0,0.7
2024-10-02T0900,2213A,123.1683,41.2495,辽阳市,新华园,,47,47,32,22,10,26,,10,10,38,28,38,14,2.0,1
2024-10-02T0900,2214A,123.2354,41.2639,辽阳市,滨河路,,41,41,25,21,13,26,,16,16,30,21,25,12,1.4,0.7
2024-10-02T0900,2215A,123.149,41.2991,辽阳市,铁西工业园,,,100,47,32,21,26,,5,5,28,25,,14,2.2,1.2
2024-10-02T0900,2227A,125.1358,42.8845,辽源市,环保局,,21,21,20,9,8,50,,30,30,6,13,12,7,0.5,0.5
2024-10-02T0900,3239A,125.0764,42.9078,辽源市,银鹰制药,,,30,23,16,12,,,7,7,9,22,6,6,0.4,0.5
2024-10-02T0900,1625A,115.9848,36.4372,聊城市,区政府,,22,22,42,7,7,53,,26,26,23,26,11,8,0.4,0.4
2024-10-02T0900,2878A,116.0072,36.4343,聊城市,聊大东校,,19,14,44,9,10,60,,33,33,18,25,11,7,0.4,0.4
2024-10-02T0900,3200A,115.9819,36.4978,聊城市,监控中心,,27,27,46,7,10,42,,19,19,31,31,13,8,0.4,0.4
2024-10-02T0900,3513A,116.0445,36.4361,聊城市,九州社区,,20,19,41,3,6,62,,43,43,16,18,4,3,0.5,0.5
2024-10-02T0900,4018A,116.0567,36.4608,聊城市,星美广场,,34,34,52,7,7,48,,41,41,22,20,9,7,0.2,0.2
2024-10-02T0900,2632A,94.3681,29.6376,林芝市,林芝监测站,,11,,9,3,6,34,,29,28,6,3,10,10,0.2,0.2
2024-10-02T0900,2633A,94.3616,29.6616,林芝市,林芝人民医院,,10,7,10,3,4,30,,27,26,8,6,5,5,0.0,0
2024-10-02T0900,2603A,100.0781,23.8982,临沧市,市环保局,,18,13,12,12,11,39,,49,46,8,7,4,4,0.5,0.5
2024-10-02T0900,2604A,100.0894,23.8822,临沧市,市气象局,,11,11,13,7,10,35,,54,50,9,7,2,3,0.5,0.4
2024-10-02T0900,1733A,111.5531,36.0783,临汾市,临钢医院,,46,46,65,12,13,30,,23,23,19,23,4,3,0.5,0.4
2024-10-02T0900,1734A,111.5028,36.0714,临汾市,技工学校,颗粒物(PM10),57,63,64,13,14,34,,17,17,23,26,7,5,0.7,0.5
2024-10-02T0900,1736A,111.5018,36.0855,临汾市,市委,,43,43,57,9,11,34,,15,15,16,22,7,5,0.5,0.4
2024-10-02T0900,3018A,111.505,36.1014,临汾市,唐尧大酒店,颗粒物(PM10),53,56,61,16,13,28,,10,10,22,24,6,4,0.7,0.5
2024-10-02T0900,3668A,111.5036,36.0414,临汾市,城南,颗粒物(PM10),52,53,63,21,20,30,,9,9,19,20,9,4,0.6,0.3
2024-10-02T0900,2667A,103.2069,35.5993,临夏回族自治州,环保局,,45,45,36,23,18,11,,10,10,25,19,11,9,1.0,0.6
2024-10-02T0900,2668A,103.2417,35.6057,临夏回族自治州,建设大厦,,35,35,31,19,18,19,,15,15,15,16,3,3,0.6,0.5
2024-10-02T0900,1618A,118.3429,35.0532,临沂市,沂河小区,,34,34,30,10,13,54,,59,58,13,9,7,7,0.3,0.3
2024-10-02T0900,1619A,118.295,35.0583,临沂市,鲁南制药厂,,29,29,30,7,5,55,,56,54,16,14,6,6,0.3,0.3
2024-10-02T0900,1620A,118.2794,34.9976,临沂市,新光毛纺厂,,36,36,32,11,8,52,,49,49,22,21,6,5,0.5,0.5
2024-10-02T0900,1621A,118.3956,35.0888,临沂市,河东保险公司,,24,24,23,3,6,58,,63,61,25,22,8,7,0.6,0.7
2024-10-02T0900,3370A,118.3564,35.0215,临沂市,十里堡居委,,18,14,20,3,7,57,,62,60,18,16,8,8,0.4,0.4
2024-10-02T0900,3496A,118.3604,35.1084,临沂市,南坊新区,,,,32,,8,,,55,54,22,16,9,8,,0.4
2024-10-02T0900,3860A,118.3920,35.0300,临沂市,皇山花园小区,,18,14,25,3,9,56,,60,58,15,12,7,7,0.1,0.1
2024-10-02T0900,1870A,109.4856,24.3895,柳州市,柳东小学,,26,26,19,11,10,73,,68,68,5,4,8,7,0.5,0.6
2024-10-02T0900,1871A,109.4157,24.3277,柳州市,环保监测站,,26,26,14,8,7,69,,64,64,11,7,10,9,0.6,0.7
2024-10-02T0900,1872A,109.389,24.341,柳州市,河西水厂,,25,24,36,17,13,54,,49,49,24,23,26,26,2.5,2.2
2024-10-02T0900,1873A,109.4311,24.2921,柳州市,市四中,,25,15,8,3,8,77,,72,72,7,6,8,6,0.6,0.5
2024-10-02T0900,1874A,109.4006,24.3631,柳州市,市九中,,39,39,25,10,5,72,,66,66,9,9,8,7,1.0,0.9
2024-10-02T0900,1875A,109.4958,24.3134,柳州市,古亭山,,24,17,14,8,10,76,,70,70,8,7,8,7,0.6,0.6
2024-10-02T0900,3402A,109.5422,24.3996,柳州市,市二中,,,24,21,8,11,,,65,65,8,9,8,8,0.3,0.5
2024-10-02T0900,2307A,116.5079,31.737,六安市,监测大楼,,,43,39,15,14,,,70,69,15,11,6,6,0.3,0.3
2024-10-02T0900,2308A,116.4738,31.7643,六安市,皖西学院,颗粒物(PM10),59,68,50,15,13,70,,69,68,20,14,7,6,0.3,0.3
2024-10-02T0900,2309A,116.4996,31.7905,六安市,朝阳厂,,49,49,36,17,15,66,,66,64,16,12,3,2,0.3,0.3
2024-10-02T0900,2310A,116.5567,31.7886,六安市,开发区,颗粒物(PM10),55,60,50,22,16,62,,58,58,16,15,2,2,0.4,0.4
2024-10-02T0900,2577A,104.83,26.5917,六盘水市,黄土坡,,24,20,13,15,11,76,,77,77,7,5,11,6,0.3,0.2
2024-10-02T0900,2578A,104.89,26.5939,六盘水市,水钢,,31,31,19,8,7,77,,71,71,14,15,8,7,0.1,0.2
2024-10-02T0900,2579A,104.8475,26.5894,六盘水市,民中,,24,16,13,12,7,76,,70,70,7,7,10,7,0.3,0.3
2024-10-02T0900,2580A,104.9544,26.5506,六盘水市,双水,,23,22,15,16,8,67,,64,64,15,15,12,12,0.4,0.4
2024-10-02T0900,2336A,117.0217,25.1033,龙岩市,龙岩市监测站,,16,10,10,6,7,51,,65,62,8,7,8,6,0.4,0.3
2024-10-02T0900,2337A,117.0258,25.0661,龙岩市,闽西职业技术学院,,17,12,10,6,7,54,,68,66,4,3,4,4,0.5,0.4
2024-10-02T0900,2338A,117.0196,25.0306,龙岩市,龙岩学院,,16,16,11,3,7,51,,68,65,7,5,4,5,0.4,0.3
2024-10-02T0900,2885A,104.9339,33.3826,陇南市,滨江中学,,42,42,36,23,18,29,,31,30,14,12,17,10,0.7,0.7
2024-10-02T0900,3247A,104.955,33.371,陇南市,市总工会,,,,29,,5,,,,,,11,,2,,0.3
2024-10-02T0900,2487A,111.9589,27.8901,娄底市,电视发射台,颗粒物(PM10),62,73,43,16,15,102,,96,96,6,6,8,7,0.6,0.5
2024-10-02T0900,2488A,111.9975,27.725,娄底市,市监测站,颗粒物(PM10),60,69,42,24,17,93,,88,88,12,13,12,10,0.3,0.4
2024-10-02T0900,2489A,112.0194,27.7314,娄底市,市委党校,颗粒物(PM10),59,68,45,21,18,72,,89,88,8,7,7,7,0.6,0.6
2024-10-02T0900,2490A,111.9561,27.7569,娄底市,涟钢,颗粒物(PM10),64,77,40,24,18,70,,80,80,24,8,7,5,0.6,0.5
2024-10-02T0900,2491A,111.9892,27.7044,娄底市,市政府,颗粒物(PM10),56,61,38,21,18,90,,80,80,10,10,8,6,0.3,0.3
2024-10-02T0900,1893A,105.4324,28.9634,泸州市,九狮山,,30,30,25,12,11,27,,22,22,17,18,5,5,0.8,0.5
2024-10-02T0900,1894A,105.4427,28.9063,泸州市,小市上码头,,24,24,22,9,8,46,,48,46,12,11,4,3,0.4,0.4
2024-10-02T0900,1895A,105.4241,28.8573,泸州市,兰田宪桥,,,20,19,9,9,,,42,41,15,9,3,3,0.4,0.4
2024-10-02T0900,1896A,105.4379,28.8833,泸州市,市环监站,,28,28,19,14,12,40,,45,44,10,10,3,3,0.4,0.4
2024-10-02T0900,3490A,105.3617,28.7703,泸州市,纳溪区环保局,,36,36,26,18,14,19,,30,27,18,12,5,6,0.3,0.3
2024-10-02T0900,2183A,111.1406,37.5211,吕梁市,环保局,,36,36,57,3,13,31,,18,18,17,21,3,3,0.3,0.2
2024-10-02T0900,2185A,111.1297,37.5136,吕梁市,自来水公司,颗粒物(PM10),66,82,64,10,13,20,,9,9,21,18,6,2,0.3,0.3
2024-10-02T0900,1812A,112.3931,34.6516,洛阳市,市委党校,颗粒物(PM10),51,51,81,21,25,36,,22,20,26,22,9,10,0.4,0.4
2024-10-02T0900,1814A,112.4657,34.6871,洛阳市,豫西宾馆,颗粒物(PM10),51,52,91,16,22,51,,34,34,13,25,12,22,0.4,0.4
2024-10-02T0900,1815A,112.494,34.6886,洛阳市,河南林校,,45,45,82,16,25,46,,31,31,18,22,7,13,0.3,0.4
2024-10-02T0900,1816A,112.3844,34.623,洛阳市,开发区管委会,,47,47,76,19,26,31,,22,22,24,17,3,3,0.3,0.2
2024-10-02T0900,1817A,112.4267,34.6258,洛阳市,市委新办公区,,,49,81,28,27,,,34,31,25,13,4,2,0.1,0
2024-10-02T0900,3340A,112.6005,34.6326,洛阳市,伊滨,,44,44,68,17,21,37,,27,26,25,22,11,8,0.3,0.2
2024-10-02T0900,3341A,112.4951,34.6332,洛阳市,中移产业园,,47,47,77,20,19,40,,34,32,21,17,2,3,0.3,0.2
2024-10-02T0900,3593A,112.5736,34.8993,洛阳市,吉利监测站,颗粒物(PM10),51,52,83,18,18,39,,24,24,22,23,5,4,0.3,0.2
2024-10-02T0900,3635A,112.3677,34.662,洛阳市,河科大西苑校区,颗粒物(PM10),54,57,88,21,24,36,,17,17,24,22,6,8,0.4,0.4
2024-10-02T0900,3636A,112.4388,34.6781,洛阳市,英才小学,颗粒物(PM10),52,53,87,15,22,35,,28,28,26,25,4,15,0.3,0.3
2024-10-02T0900,2399A,114.051,33.5699,漯河市,三五一五工厂,颗粒物(PM10),55,59,108,22,34,49,,42,42,17,17,8,9,0.3,0.3
2024-10-02T0900,2400A,114.0055,33.5698,漯河市,漯河大学,颗粒物(PM10),55,60,98,24,28,48,,47,45,18,19,6,9,0.5,0.5
2024-10-02T0900,2401A,114.0138,33.5828,漯河市,市水利局,颗粒物(PM10),54,58,107,22,29,43,,39,38,17,20,7,9,0.5,0.5
2024-10-02T0900,2402A,114.0261,33.5698,漯河市,市广电局,颗粒物(PM10),53,56,99,26,31,49,,48,46,18,18,12,13,0.5,0.6
2024-10-02T0900,3478A,113.9749,33.5664,漯河市,市图书馆,颗粒物(PM10),53,55,98,18,30,53,,50,48,15,18,4,9,0.6,0.6
2024-10-02T0900,3479A,114.0967,33.5906,漯河市,召陵区卫健委,颗粒物(PM10),65,80,100,36,32,43,,30,28,14,18,10,9,0.4,0.4
2024-10-02T0900,1798A,118.5092,31.6837,马鞍山市,湖东路四小,,,66,29,15,11,71,,70,69,,17,11,8,1.0,0.7
2024-10-02T0900,1799A,118.5024,31.6449,马鞍山市,开发区,,38,38,31,17,10,63,,68,67,27,22,12,8,1.2,0.9
2024-10-02T0900,1800A,118.5228,31.7231,马鞍山市,慈湖,,28,28,27,15,14,69,,58,58,19,20,12,9,1.2,0.9
2024-10-02T0900,1802A,118.6245,31.7241,马鞍山市,濮塘,,44,44,32,21,12,62,,49,49,8,5,11,9,1.3,0.8
2024-10-02T0900,3633A,118.4918,31.6809,马鞍山市,雨山,颗粒物(PM10),51,52,31,17,12,66,,63,62,20,22,13,12,1.1,1
2024-10-02T0900,1686A,111.0286,21.4688,茂名市,电白南海,,39,39,41,17,19,62,,58,57,11,9,23,15,0.6,0.6
2024-10-02T0900,1687A,110.9294,21.6533,茂名市,茂石化七小,,19,17,30,9,16,60,,56,56,9,8,8,10,0.6,0.7
2024-10-02T0900,1688A,110.9107,21.6687,茂名市,健康路,,20,19,27,7,13,63,,59,59,6,4,16,17,0.8,0.9
2024-10-02T0900,1689A,110.8592,21.6828,茂名市,高岭,,22,22,30,9,15,60,,57,57,11,8,21,14,0.7,0.7
2024-10-02T0900,3450A,111.01,21.5165,茂名市,电白水东,,32,27,33,22,20,57,,52,52,11,9,28,20,0.9,0.9
2024-10-02T0900,2539A,104.0308,30.0478,眉山市,黑龙滩水库,,,40,30,23,18,78,,69,69,5,3,12,3,,0.3
2024-10-02T0900,2540A,103.8416,30.0874,眉山市,气象局,,25,22,29,17,13,49,,53,52,19,16,6,6,0.4,0.3
2024-10-02T0900,3137A,103.8578,30.0744,眉山市,市委党校,,,,22,,9,,,54,54,15,18,8,9,0.7,0.6
2024-10-02T0900,3148A,103.8291,30.0564,眉山市,区人社局,,36,36,27,12,9,47,,51,49,17,20,8,8,0.5,0.4
2024-10-02T0900,1690A,116.1231,24.3284,梅州市,梅江月梅,,18,8,19,3,10,56,,66,64,3,4,7,7,0.5,0.5
2024-10-02T0900,1691A,116.0797,24.2719,梅州市,梅县新城,,18,7,20,3,8,56,,68,66,8,6,4,4,0.6,0.5
2024-10-02T0900,1692A,116.1248,24.2654,梅州市,环境监控中心,,17,16,20,3,7,54,,66,63,8,7,5,5,0.5,0.5
2024-10-02T0900,3315A,116.1233,24.2991,梅州市,梅龙,,29,29,21,12,14,54,,65,63,6,5,9,9,0.6,0.5
2024-10-02T0900,1878A,104.7778,31.4741,绵阳市,富乐山,,23,22,16,16,11,30,,39,36,16,11,3,2,0.5,0.4
2024-10-02T0900,1879A,104.7563,31.4535,绵阳市,市人大,,31,31,20,14,9,38,,43,41,15,18,10,9,0.4,0.4
2024-10-02T0900,1880A,104.6697,31.4668,绵阳市,高新区自来水公司,,20,20,24,7,11,37,,37,36,22,25,4,4,0.4,0.3
2024-10-02T0900,1881A,104.7287,31.5075,绵阳市,三水厂,,20,19,24,14,11,38,,24,24,14,24,6,5,0.6,0.6
2024-10-02T0900,3491A,104.69,31.5322,绵阳市,西科大附属小学,,19,19,17,13,12,42,,27,27,17,23,2,3,0.5,0.5
2024-10-02T0900,3492A,104.5648,31.5343,绵阳市,安州区旅游局,,33,33,20,14,15,37,,47,45,20,14,6,7,0.4,0.4
2024-10-02T0900,1784A,129.61,44.561,牡丹江市,环保大楼,,30,24,19,21,16,31,,14,14,6,10,7,7,0.3,0.3
2024-10-02T0900,1785A,129.6115,44.5782,牡丹江市,文化广场,,,23,26,17,20,,,10,10,8,15,8,8,,0.4
2024-10-02T0900,1786A,129.5904,44.5963,牡丹江市,第一医院,,38,30,24,26,25,29,,11,11,8,13,6,6,0.3,0.3
2024-10-02T0900,1787A,129.6364,44.6075,牡丹江市,机车工厂,,27,27,22,11,20,25,,8,8,10,13,7,8,0.3,0.3
2024-10-02T0900,1788A,129.6386,44.5462,牡丹江市,第一中学,,18,16,18,12,14,37,,11,11,5,12,6,6,0.2,0.3
2024-10-02T0900,2531A,105.0703,29.61,内江市,市监测站,,22,18,28,15,14,44,,50,49,31,19,2,2,0.4,0.4
2024-10-02T0900,2532A,105.0717,29.5947,内江市,东兴区政府,,35,35,26,9,11,47,,52,50,30,18,2,2,0.4,0.4
2024-10-02T0900,2533A,105.0653,29.5817,内江市,内江二中,,35,35,28,12,17,45,,46,45,29,18,4,4,0.5,0.5
2024-10-02T0900,2534A,105.0406,29.5822,内江市,内江日报社,,28,28,32,3,3,38,,44,44,31,22,3,4,0.4,0.4
2024-10-02T0900,2628A,92.0657,31.4846,那曲市,那曲监测站,颗粒物(PM10),54,58,57,22,22,19,,32,31,11,14,7,8,0.6,0.7
2024-10-02T0900,3128A,92.0506,31.4797,那曲市,那曲会议中心,颗粒物(PM10),75,99,50,37,19,17,,26,26,25,19,4,4,0.7,0.5
2024-10-02T0900,1290A,115.8931,28.6843,南昌市,省外办,,41,41,55,17,20,93,,90,90,17,14,10,9,0.7,0.6
2024-10-02T0900,1291A,115.8886,28.7003,南昌市,省林业公司,,,53,68,17,15,94,,90,90,,10,,6,0.5,0.4
2024-10-02T0900,1292A,115.8126,28.7442,南昌市,林科所,颗粒物(PM10),51,51,56,9,11,100,,98,98,14,12,9,7,0.4,0.4
2024-10-02T0900,1294A,115.8518,28.687,南昌市,建工学校,,,99,70,17,19,89,,90,89,,12,10,8,,0.4
2024-10-02T0900,1295A,115.8921,28.6424,南昌市,象湖,,41,41,51,18,16,101,,97,97,18,16,10,9,0.4,0.4
2024-10-02T0900,1296A,115.7423,28.7996,南昌市,武术学校,颗粒物(PM10),51,51,22,31,18,92,,93,93,8,6,2,3,0.4,0.4
2024-10-02T0900,1298A,115.9314,28.6842,南昌市,省站,颗粒物(PM10),51,52,64,15,17,88,,85,85,21,16,11,10,0.5,0.5
2024-10-02T0900,3046A,115.9084,28.6062,南昌市,机电学校,颗粒物(PM10),52,54,75,14,15,94,,90,90,23,18,11,10,0.6,0.5
2024-10-02T0900,3690A,115.9721,28.7031,南昌市,外国语学校,,49,49,61,20,15,84,,84,84,13,11,7,7,0.4,0.5
2024-10-02T0900,1905A,106.056,30.8064,南充市,西山风景区,,29,29,21,19,16,34,,41,38,12,10,4,2,0.7,0.6
2024-10-02T0900,1906A,106.0789,30.8023,南充市,南充市委,,39,39,35,23,18,35,,44,41,23,16,8,5,0.5,0.3
2024-10-02T0900,1907A,106.1031,30.8217,南充市,南充炼油厂,颗粒物(PM10),51,52,40,26,22,38,,46,43,20,16,5,4,0.3,0.3
2024-10-02T0900,1908A,106.1064,30.7856,南充市,高坪区监测站,,,50,40,16,19,,,37,36,30,20,6,6,0.4,0.4
2024-10-02T0900,1909A,106.0642,30.7636,南充市,嘉陵区环保局,,49,49,37,22,15,35,,42,39,21,17,8,5,0.4,0.3
2024-10-02T0900,1910A,106.1087,30.8388,南充市,市环境监测站,细颗粒物(PM2.5),52,46,39,36,23,28,,36,34,27,21,5,5,0.3,0.2
2024-10-02T0900,1151A,118.8086,32.1065,南京市,迈皋桥,,28,28,23,7,12,72,,56,56,14,15,4,5,0.4,0.3
2024-10-02T0900,1152A,118.7538,32.0551,南京市,草场门,,,36,31,12,14,,,59,57,21,22,10,9,0.4,0.5
2024-10-02T0900,1153A,118.7794,32.0745,南京市,山西路,,39,39,33,12,17,92,,87,86,18,14,6,4,0.6,0.5
2024-10-02T0900,1154A,118.7752,32.0023,南京市,中华门,,39,39,33,14,14,75,,60,60,12,16,10,8,0.5,0.5
2024-10-02T0900,1155A,118.8109,32.0309,南京市,瑞金路,,39,39,29,12,14,67,,60,59,16,12,6,5,0.6,0.4
2024-10-02T0900,1156A,118.7997,32.0754,南京市,玄武湖,,,,31,,13,66,,53,52,24,25,,7,0.4,0.3
2024-10-02T0900,1157A,118.6414,32.0931,南京市,浦口,,36,36,30,15,15,58,,58,57,12,10,8,5,0.5,0.4
2024-10-02T0900,1158A,118.7356,31.9996,南京市,奥体中心,,42,42,30,19,18,78,,66,65,18,18,11,9,0.5,0.5
2024-10-02T0900,1159A,118.9125,32.1028,南京市,仙林大学城,,34,34,32,12,13,69,,59,59,17,19,7,6,0.5,0.4
2024-10-02T0900,3422A,118.8436,31.9198,南京市,江宁彩虹桥,,40,40,25,14,12,80,,73,73,17,11,5,4,0.8,0.6
2024-10-02T0900,3423A,119.0138,31.6494,南京市,溧水永阳,,29,29,23,17,14,75,,55,55,14,13,3,4,0.5,0.6
2024-10-02T0900,3424A,118.879,31.3302,南京市,高淳老职中,,42,42,33,16,16,74,,64,64,13,14,7,5,0.5,0.6
2024-10-02T0900,3427A,118.8554,32.3578,南京市,六合雄州,,32,32,25,10,12,56,,54,53,17,17,9,8,0.4,0.4
2024-10-02T0900,1401A,108.3103,22.7881,南宁市,二十一中,,19,10,9,3,5,58,,55,55,14,11,8,5,0.4,0.5
2024-10-02T0900,1402A,108.3141,22.8528,南宁市,北湖,,18,13,10,7,8,55,,52,52,16,11,18,6,0.7,0.7
2024-10-02T0900,1403A,108.3206,22.8225,南宁市,市监测站,,18,9,10,8,11,55,,54,54,15,11,18,7,0.5,0.6
2024-10-02T0900,1404A,108.3829,22.8037,南宁市,大自然花园,,19,11,11,3,8,58,,53,53,13,12,7,8,0.5,0.6
2024-10-02T0900,1405A,108.4394,22.7904,南宁市,仙葫,,18,14,9,3,4,57,,52,52,13,11,7,7,0.6,0.7
2024-10-02T0900,1406A,108.2397,22.8467,南宁市,区农职院,,21,21,10,3,5,55,,54,54,8,6,5,4,0.8,0.8
2024-10-02T0900,1407A,108.3275,22.735,南宁市,英华嘉园,,19,10,12,3,5,58,,54,54,13,12,8,5,0.5,0.6
2024-10-02T0900,1408A,108.2257,22.7757,南宁市,沙井镇街道办,,20,18,12,3,8,62,,57,57,8,7,2,5,0.5,0.6
2024-10-02T0900,3401A,108.4834,22.7618,南宁市,红星社区,,,,11,2,6,63,,54,54,7,7,3,3,0.5,0.6
2024-10-02T0900,2332A,118.1681,26.6369,南平市,南平市监测站,,21,7,11,3,4,66,,62,62,6,6,4,4,0.2,0.2
2024-10-02T0900,2333A,118.1825,26.6489,南平市,南平铝业有限公司,,22,6,12,3,5,68,,64,64,6,7,3,4,0.2,0.2
2024-10-02T0900,2334A,118.1756,26.6272,南平市,南平七中,,21,12,11,3,6,67,,62,61,7,6,4,4,0.5,0.5
2024-10-02T0900,1168A,120.9098,31.9663,南通市,狼山街道,,25,25,19,10,8,78,,83,81,10,7,7,7,0.3,0.4
2024-10-02T0900,1169A,120.86,32.0005,南通市,虹桥,,,25,20,10,8,,,79,78,9,8,,7,0.5,0.5
2024-10-02T0900,1170A,120.87,32.02,南通市,城中,,31,31,25,10,8,77,,80,78,5,4,8,7,0.4,0.4
2024-10-02T0900,1171A,120.94,31.93,南通市,星湖花园,,26,24,19,9,7,81,,83,82,13,10,6,6,0.4,0.3
2024-10-02T0900,1172A,120.81,32.0417,南通市,紫琅学院,,31,31,18,3,7,75,,76,75,8,7,8,7,0.2,0.2
2024-10-02T0900,3291A,121.067,32.062,南通市,通州监测站,,36,36,23,14,8,77,,76,75,9,7,2,2,0.5,0.5
2024-10-02T0900,3432A,120.9348,31.9883,南通市,环境教育馆,,29,29,23,9,6,80,,83,82,9,6,3,3,0.5,0.4
2024-10-02T0900,2404A,112.5224,33.0122,南阳市,瓦房庄,颗粒物(PM10),71,92,63,29,20,61,,72,68,27,18,11,6,0.7,0.5
2024-10-02T0900,2405A,112.5003,32.9735,南阳市,汉画馆,颗粒物(PM10),71,91,59,35,29,64,,60,58,23,20,11,7,0.6,0.5
2024-10-02T0900,2406A,112.5573,33.027,南阳市,气象站,颗粒物(PM10),67,83,63,22,16,67,,67,66,20,19,10,9,0.4,0.4
2024-10-02T0900,2407A,112.5481,32.9689,南阳市,理工学院,颗粒物(PM10),67,83,60,24,20,66,,68,65,18,19,10,8,0.4,0.3
2024-10-02T0900,4008A,112.5234,32.9922,南阳市,卧龙区政府,颗粒物(PM10),74,97,65,29,21,65,,73,70,23,18,11,6,0.4,0.3
2024-10-02T0900,1234A,121.8358,29.911,宁波市,区环保大楼,,28,28,21,10,11,85,,90,89,14,12,6,7,0.5,0.5
2024-10-02T0900,1235A,121.56,29.82,宁波市,万里学院,,25,18,19,13,9,77,,80,79,16,11,6,6,0.6,0.6
2024-10-02T0900,1236A,121.713,29.9572,宁波市,龙赛医院,,29,18,19,3,6,91,,90,90,10,11,8,9,0.5,0.5
2024-10-02T0900,1239A,121.633,29.7733,宁波市,钱湖水厂,,31,31,20,9,7,76,,81,79,16,11,9,8,0.5,0.6
2024-10-02T0900,1240A,121.5856,29.8635,宁波市,太古小学,,32,32,21,3,7,78,,80,78,18,13,8,7,0.7,0.7
2024-10-02T0900,1241A,121.524,29.8674,宁波市,市环境监测中心,,26,26,18,8,6,76,,79,77,17,12,5,4,0.6,0.6
2024-10-02T0900,2871A,121.6147,29.9017,宁波市,万里国际学校,,29,22,16,3,7,92,,86,86,13,13,8,7,0.5,0.6
2024-10-02T0900,3710A,121.5594,29.8975,宁波市,白沙活动中心,,26,23,20,7,7,83,,82,80,14,12,9,9,0.3,0.3
2024-10-02T0900,2341A,119.5388,26.6612,宁德市,宁德市监测站,,21,9,10,3,8,67,,53,53,9,10,6,6,0.4,0.5
2024-10-02T0900,3209A,119.5231,26.6562,宁德市,宁德一中,,21,9,11,3,6,67,,54,54,7,5,5,5,0.3,0.4
2024-10-02T0900,2618A,98.8601,25.8567,怒江傈僳族自治州,州监测站,,15,15,24,10,13,44,,32,32,10,14,6,6,0.4,0.4
2024-10-02T0900,2619A,98.8546,25.8417,怒江傈僳族自治州,泸水一中,,12,8,18,3,11,36,,25,25,13,15,6,6,0.4,0.5
2024-10-02T0900,1888A,101.6891,26.571,攀枝花市,弄弄坪,,44,44,25,10,8,17,,27,24,28,18,12,12,0.5,0.5
2024-10-02T0900,1889A,101.5769,26.5928,攀枝花市,河门口,,34,34,27,16,13,19,,18,18,18,20,7,10,0.9,0.9
2024-10-02T0900,1890A,101.7169,26.585,攀枝花市,炳草岗,颗粒物(PM10),54,57,24,21,12,13,,19,18,28,20,13,11,0.8,0.5
2024-10-02T0900,1891A,101.7369,26.5008,攀枝花市,仁和,,18,18,19,8,9,24,,23,23,19,14,4,4,0.4,0.4
2024-10-02T0900,2835A,101.7227,26.567,攀枝花市,四十中小,,27,27,24,10,8,24,,32,32,19,17,10,7,0.9,0.8
2024-10-02T0900,1604A,122.0303,41.1489,盘锦市,开发区,,,20,24,6,12,,,25,25,12,23,15,13,,0.2
2024-10-02T0900,1605A,122.0485,41.0883,盘锦市,兴隆台,,16,16,24,8,13,38,,13,13,25,33,12,7,0.3,0.3
2024-10-02T0900,1606A,121.8297,41.1028,盘锦市,新生街道,,25,25,19,9,13,47,,26,26,17,26,12,10,0.3,0.4
2024-10-02T0900,1832A,113.3257,33.742,平顶山市,新华旅馆,,47,47,99,24,28,53,,50,48,16,14,7,10,0.2,0.3
2024-10-02T0900,1833A,113.2919,33.737,平顶山市,规划设计院,,39,39,91,13,24,58,,54,54,16,18,7,11,0.4,0.5
2024-10-02T0900,1834A,113.182,33.774,平顶山市,平顶山工学院,,48,48,86,12,21,51,,50,49,15,16,9,10,0.4,0.4
2024-10-02T0900,3204A,113.3025,33.73,平顶山市,规划局,,44,44,100,26,31,57,,50,50,15,17,6,10,0.1,0.2
2024-10-02T0900,3594A,112.8867,33.9116,平顶山市,石龙区,颗粒物(PM10),56,62,119,12,22,64,,53,53,13,25,12,11,0.5,0.5
2024-10-02T0900,2656A,106.6692,35.5461,平凉市,聚贤嘉苑,,,35,37,16,14,,,35,35,32,28,7,6,0.4,0.4
2024-10-02T0900,2657A,106.7021,35.5307,平凉市,博物馆,,40,40,45,19,15,42,,40,40,32,26,11,8,0.3,0.3
2024-10-02T0900,2347A,114.0997,27.5002,萍乡市,武功山,,11,10,17,3,5,34,,22,22,5,6,9,8,0.4,0.4
2024-10-02T0900,2348A,113.8385,27.6434,萍乡市,中医院,,39,35,34,27,18,46,,24,24,14,16,9,9,0.6,0.7
2024-10-02T0900,2349A,113.8493,27.6253,萍乡市,市政府车库,细颗粒物(PM2.5),54,,29,38,20,48,,21,21,11,15,10,10,0.6,0.6
2024-10-02T0900,2350A,113.8676,27.6435,萍乡市,市环保局,颗粒物(PM10),55,59,31,22,19,58,,26,26,6,13,8,9,0.6,0.7
2024-10-02T0900,2351A,113.866,27.6198,萍乡市,安源区政府,,37,37,31,16,14,40,,20,20,20,16,8,4,0.7,0.4
2024-10-02T0900,2319A,119.0141,25.4325,莆田市,荔城区仓后路,,22,6,6,3,0,68,,70,69,9,8,7,7,0.8,0.7
2024-10-02T0900,2320A,119.0015,25.4553,莆田市,莆田市监测站,,23,12,8,3,1,72,,74,73,6,6,7,7,0.4,0.4
2024-10-02T0900,2321A,119.1119,25.4561,莆田市,涵江区六中,,25,8,7,3,0,78,,75,75,6,4,8,8,0.5,0.5
2024-10-02T0900,2322A,119.1013,25.3215,莆田市,秀屿区政府,,21,18,17,3,1,65,,72,70,8,3,7,6,0.6,0.6
2024-10-02T0900,2392A,115.0312,35.7636,濮阳市,环保局,,29,29,57,10,12,43,,36,35,20,20,5,3,0.2,0.2
2024-10-02T0900,2394A,115.0574,35.7609,濮阳市,油田运输公司,,18,17,49,9,13,56,,42,42,16,19,9,6,0.2,0.2
2024-10-02T0900,2395A,115.0866,35.7754,濮阳市,油田物探公司,,25,25,63,14,16,55,,38,38,16,20,11,6,0.2,0.2
2024-10-02T0900,3021A,115,35.7668,濮阳市,濮水河管理处,,18,18,52,10,14,38,,23,22,19,21,9,6,0.1,0.1
2024-10-02T0900,2601A,100.98,22.7633,普洱市,市环保局,,,19,17,13,16,,,40,40,10,7,4,4,0.5,0.5
2024-10-02T0900,2602A,100.9817,22.8322,普洱市,普洱第二中学,,14,14,14,7,9,35,,45,44,9,6,11,11,0.6,0.5
2024-10-02T0900,2262A,131.0518,45.8751,七台河市,新一中,,19,,11,13,6,59,,41,41,6,8,9,9,1.1,1.1
2024-10-02T0900,3345A,131.0577,45.7879,七台河市,中波台,,20,20,15,9,6,42,,23,23,19,19,6,6,0.7,0.5
2024-10-02T0900,3637A,131.0176,45.7761,七台河市,人民广场,,25,25,17,16,11,40,,26,26,25,16,11,10,0.4,0.3
2024-10-02T0900,3684A,130.8781,45.8222,七台河市,新建矿广场,,48,48,38,18,18,32,,10,10,21,22,11,7,0.5,0.4
2024-10-02T0900,1779A,123.9305,47.3636,齐齐哈尔市,安居小区,,,22,18,8,8,,,44,44,12,6,10,10,0.3,0.3
2024-10-02T0900,1780A,123.9488,47.3386,齐齐哈尔市,中心广场,,14,9,15,8,5,43,,44,44,10,8,2,1,0.2,0.1
2024-10-02T0900,1781A,123.9483,47.3227,齐齐哈尔市,农牧车辆厂,,29,29,22,3,4,46,,44,43,9,5,8,8,0.5,0.5
2024-10-02T0900,1783A,123.945,47.2988,齐齐哈尔市,市环境监测站,,21,21,18,10,7,43,,39,38,12,8,8,8,0.1,0.1
2024-10-02T0900,3662A,123.6333,47.2075,齐齐哈尔市,富区青少年活动中心,,39,39,24,20,7,26,,34,32,27,12,11,6,0.6,0.3
2024-10-02T0900,2591A,107.9783,26.5747,黔东南苗族侗族自治州,市环境监测站,,22,11,8,8,7,70,,83,80,9,8,4,4,0.3,0.4
2024-10-02T0900,2881A,107.8908,26.5311,黔东南苗族侗族自治州,凯里学院,,21,7,9,3,5,65,,78,75,10,8,2,3,0.6,0.6
2024-10-02T0900,2593A,107.5228,26.2403,黔南布依族苗族自治州,小围寨,,22,7,6,3,2,69,,78,76,3,3,4,4,0.6,0.6
2024-10-02T0900,3538A,107.5175,26.2978,黔南布依族苗族自治州,沙坝,,23,8,7,3,2,73,,87,86,5,4,4,4,0.3,0.3
2024-10-02T0900,2589A,104.9022,25.0925,黔西南布依族苗族自治州,场坝街,,30,21,18,21,10,50,,58,56,7,10,22,10,0.3,0.2
2024-10-02T0900,2590A,104.8811,25.0992,黔西南布依族苗族自治州,坪东大道,,24,24,16,8,8,51,,56,56,7,9,15,13,0.5,0.4
2024-10-02T0900,2502A,108.6236,21.9667,钦州市,市环保站,,22,22,21,3,6,64,,62,62,7,8,9,8,0.5,0.6
2024-10-02T0900,2503A,108.6549,21.9481,钦州市,沙埠小学,,23,23,26,3,11,68,,64,64,11,10,6,6,0.5,0.7
2024-10-02T0900,2504A,108.5989,21.7431,钦州市,港区一小,,35,35,39,3,9,52,,50,50,16,13,8,6,0.5,0.6
2024-10-02T0900,3404A,108.5959,21.9633,钦州市,北职校,,19,10,22,7,10,59,,59,58,9,8,6,6,0.5,0.6
2024-10-02T0900,1042A,119.5134,39.8207,秦皇岛市,北戴河环保局,,14,10,11,7,6,42,,36,36,9,11,2,2,0.4,0.4
2024-10-02T0900,1043A,119.7493,40.0116,秦皇岛市,第一关,,16,,13,8,19,49,,51,51,11,11,1,1,0.3,0.3
2024-10-02T0900,1044A,119.5897,39.9499,秦皇岛市,监测站,,,16,20,10,14,,,17,17,12,17,3,3,0.3,0.3
2024-10-02T0900,1046A,119.5251,39.9041,秦皇岛市,建设大厦,,31,31,25,11,15,24,,9,9,26,29,1,3,0.3,0.3
2024-10-02T0900,3132A,119.610547,39.943889,秦皇岛市,文明里,,25,25,17,6,10,34,,19,19,19,19,2,1,0.5,0.5
2024-10-02T0900,1307A,120.6659,36.2403,青岛市,仰口,,22,7,16,7,10,68,,68,68,4,4,7,6,0.5,0.5
2024-10-02T0900,1310A,120.4134,36.0658,青岛市,市南区东部子站,,34,34,30,9,10,40,,47,44,33,27,10,7,0.7,0.7
2024-10-02T0900,1311A,120.3664,36.1032,青岛市,四方区子站,,29,29,24,14,10,50,,52,49,23,17,12,10,0.4,0.3
2024-10-02T0900,1312A,120.2994,36.054,青岛市,市南区西部子站,,27,27,28,12,7,56,,52,51,21,18,12,9,0.6,0.5
2024-10-02T0900,1313A,120.4581,36.0858,青岛市,崂山区子站,,,24,17,3,4,,,53,49,25,16,11,9,0.7,0.5
2024-10-02T0900,1314A,120.1983,35.9608,青岛市,黄岛区子站,,24,24,21,10,10,48,,50,48,20,15,11,9,0.6,0.4
2024-10-02T0900,1315A,120.3999,36.3083,青岛市,城阳区子站,,31,31,25,12,10,43,,45,41,27,21,11,8,0.6,0.5
2024-10-02T0900,1966A,120.0405,35.8735,青岛市,黄岛区4号,,27,27,24,9,6,43,,44,41,20,16,8,7,0.4,0.4
2024-10-02T0900,3362A,120.5014,36.4034,青岛市,即墨2号,,28,28,24,14,10,33,,27,24,28,20,10,7,0.5,0.4
2024-10-02T0900,3642A,120.3503,36.0736,青岛市,市北区南部,,24,24,23,12,7,44,,48,46,25,19,11,8,0.6,0.5
2024-10-02T0900,3643A,120.3948,36.1805,青岛市,李沧区北部,,,46,30,17,14,,,45,43,26,22,11,9,0.8,0.6
2024-10-02T0900,1702A,113.0426,23.691,清远市,环保大楼,,24,24,20,3,5,70,,63,63,12,9,7,7,0.6,0.6
2024-10-02T0900,1703A,113.0208,23.7106,清远市,凤城街办,,23,21,19,11,10,71,,64,64,5,5,8,8,0.6,0.7
2024-10-02T0900,3025A,113.0477,23.6344,清远市,技师学院,,23,21,20,11,10,72,,64,64,5,5,6,6,0.6,0.5
2024-10-02T0900,3318A,112.9903,23.7403,清远市,清新太和,,24,24,17,11,9,74,,69,69,5,6,3,5,0.7,0.7
2024-10-02T0900,3455A,113.076,23.7198,清远市,清城东城,,24,7,16,3,8,74,,65,65,2,2,4,4,0.7,0.7
2024-10-02T0900,2661A,107.6325,35.7357,庆阳市,庆阳五中,,,,38,,13,,,78,78,,10,,8,,0.3
2024-10-02T0900,2662A,107.6364,35.7067,庆阳市,市环保局,颗粒物(PM10),52,53,39,18,11,75,,83,81,6,5,8,7,0.4,0.3
2024-10-02T0900,1916A,103.7897,25.5035,曲靖市,环境监测站,,20,16,10,7,5,62,,70,69,24,11,19,4,0.6,0.6
2024-10-02T0900,1917A,103.8,25.5364,曲靖市,烟厂办公区,,30,30,11,8,7,60,,70,68,23,8,18,5,0.6,0.4
2024-10-02T0900,3376A,103.7947,25.462,曲靖市,南苑二区,,23,13,10,3,5,72,,76,76,16,10,24,10,0.6,0.6
2024-10-02T0900,3377A,103.7444,25.5261,曲靖市,曲靖师范学院,,25,13,10,7,5,78,,72,72,7,5,10,6,0.7,0.4
2024-10-02T0900,1264A,118.8692,28.9398,衢州市,环保大楼,,,19,13,9,9,,,62,62,9,11,6,6,0.4,0.5
2024-10-02T0900,1265A,118.8709,28.9666,衢州市,实验学校,,29,21,16,10,9,91,,75,75,7,8,8,5,0.6,0.6
2024-10-02T0900,1266A,118.8621,28.9808,衢州市,衢州学院,,29,20,13,9,8,90,,74,74,8,10,8,8,0.5,0.6
2024-10-02T0900,1611A,118.5819,24.9117,泉州市,涂山街,,23,7,8,3,5,73,,74,74,7,6,2,2,0.6,0.6
2024-10-02T0900,1612A,118.5972,24.8978,泉州市,津头埔,,22,10,9,3,4,70,,72,72,8,6,4,3,0.7,0.7
2024-10-02T0900,1613A,118.6663,24.9424,泉州市,万安,,23,13,11,3,4,71,,73,72,6,4,2,2,0.3,0.3
2024-10-02T0900,3529A,118.6333,24.9264,泉州市,城华南路,,22,9,8,8,6,68,,71,71,7,5,3,3,0.3,0.2
2024-10-02T0900,2626A,88.8876,29.2718,日喀则市,日喀则监测站,,28,28,22,12,9,20,,22,22,22,17,6,5,0.7,0.5
2024-10-02T0900,3726A,88.8781,29.2426,日喀则市,林业技术推广中心,,16,16,12,3,2,36,,49,46,9,8,7,6,0.4,0.5
2024-10-02T0900,1659A,119.471,35.4209,日照市,监测站,,18,12,21,6,10,55,,55,54,15,14,12,11,0.4,0.4
2024-10-02T0900,1660A,119.523,35.4216,日照市,市政府广场,,22,22,23,7,8,55,,59,58,15,13,7,6,0.4,0.4
2024-10-02T0900,1661A,119.5587,35.4044,日照市,港务局,,19,14,25,11,13,59,,60,59,21,22,10,9,0.5,0.5
2024-10-02T0900,3507A,119.5328,35.4625,日照市,职业技术学院,,29,29,24,7,8,52,,58,57,16,12,11,9,0.5,0.5
2024-10-02T0900,3604A,119.3266,35.1044,日照市,岚山环保分局,,29,29,31,10,10,60,,56,56,18,16,36,20,1.3,0.7
2024-10-02T0900,1835A,111.1922,34.7752,三门峡市,市政府,,,54,78,17,18,,,15,14,15,32,12,10,0.5,0.5
2024-10-02T0900,1836A,111.1587,34.7942,三门峡市,开发区,颗粒物(PM10),53,55,91,13,25,42,,29,29,15,22,12,10,0.3,0.3
2024-10-02T0900,1838A,111.143,34.7955,三门峡市,风景区,颗粒物(PM10),61,72,87,22,23,42,,28,28,16,19,13,9,0.7,0.6
2024-10-02T0900,3039A,111.1911,34.7829,三门峡市,三门峡市第一小学,,44,44,87,8,9,41,,30,30,12,24,13,10,0.4,0.4
2024-10-02T0900,3598A,111.1,34.7167,三门峡市,富达温泉假日酒店,颗粒物(PM10),54,58,88,21,26,35,,26,26,27,23,11,10,0.6,0.5
2024-10-02T0900,2324A,117.6211,26.2625,三明市,三钢,,26,,14,18,13,41,,52,49,11,8,6,5,0.5,0.4
2024-10-02T0900,2325A,117.635,26.2714,三明市,三明二中,,15,,11,3,6,46,,53,51,7,6,3,3,0.4,0.3
2024-10-02T0900,2326A,117.6028,26.2378,三明市,三元区政府,,15,6,13,3,4,45,,55,53,10,8,2,3,0.5,0.5
2024-10-02T0900,1876A,109.5078,18.2489,三亚市,河东子站,,24,24,19,14,9,48,,41,41,6,6,4,4,0.4,0.3
2024-10-02T0900,1877A,109.4964,18.2681,三亚市,河西子站,,26,26,19,10,10,33,,29,28,9,8,3,3,0.5,0.3
2024-10-02T0900,3540A,109.7348,18.3443,三亚市,君悦子站,,37,37,21,19,10,55,,39,39,7,7,2,3,0.6,0.4
2024-10-02T0900,2624A,91.7608,29.2313,山南市,山南监测站,,24,17,17,11,6,75,,94,94,7,4,11,9,0.4,0.3
2024-10-02T0900,2625A,91.7706,29.2436,山南市,山南人民医院,,25,18,20,10,7,78,,95,95,10,7,9,9,0.2,0.2
2024-10-02T0900,1674A,116.6794,23.3667,汕头市,金平子站,,19,18,19,7,9,58,,61,60,10,8,6,6,0.9,0.8
2024-10-02T0900,1675A,116.7244,23.3633,汕头市,龙湖子站,,27,27,16,3,8,53,,56,56,7,3,8,7,0.8,0.6
2024-10-02T0900,1676A,116.7258,23.2775,汕头市,濠江子站,,19,19,17,8,12,53,,53,53,10,9,8,7,0.8,0.7
2024-10-02T0900,1677A,116.7519,23.4714,汕头市,澄海子站,,26,26,19,3,10,60,,61,61,11,9,6,6,0.8,0.7
2024-10-02T0900,1678A,116.6092,23.2539,汕头市,潮阳子站,,27,27,26,3,10,59,,62,62,8,5,6,6,0.6,0.5
2024-10-02T0900,3444A,116.454,23.2684,汕头市,潮南峡山,,26,26,31,3,9,58,,58,58,5,5,6,6,0.6,0.5
2024-10-02T0900,3624A,116.4069,23.2533,汕头市,潮南子站,,20,20,28,12,14,60,,60,60,9,10,5,5,0.6,0.6
2024-10-02T0900,1693A,115.3653,22.775,汕尾市,市环保局,,27,27,21,15,20,67,,70,70,7,5,9,8,0.7,0.7
2024-10-02T0900,1694A,115.3706,22.7898,汕尾市,市政府,,23,23,23,3,8,66,,68,68,7,6,8,8,0.5,0.5
2024-10-02T0900,1695A,115.3622,22.7925,汕尾市,新城中学,,29,29,21,3,13,62,,67,66,7,5,6,6,0.7,0.6
2024-10-02T0900,2645A,109.9154,33.8715,商洛市,监测站,,35,35,48,14,15,34,,36,35,8,15,4,4,0.4,0.4
2024-10-02T0900,3045A,109.9643,33.8471,商洛市,商州区中学,,35,35,53,9,12,29,,37,35,17,16,5,5,0.6,0.5
2024-10-02T0900,2408A,115.6702,34.4285,商丘市,环境监测站,,33,33,64,9,18,44,,45,44,22,20,5,5,0.4,0.3
2024-10-02T0900,2409A,115.6458,34.4045,商丘市,粮食局,,18,14,58,12,20,56,,54,52,12,13,2,3,0.3,0.4
2024-10-02T0900,2410A,115.6293,34.3948,商丘市,睢阳区环保局,,19,19,64,8,16,59,,54,53,14,15,6,6,0.3,0.3
2024-10-02T0900,3171A,115.6071,34.4465,商丘市,梁园区档案局,,30,30,64,10,18,45,,45,44,18,17,8,7,0.4,0.4
2024-10-02T0900,1141A,121.4,31.238,上海市,普陀,,33,33,24,14,9,80,,73,73,15,13,8,6,1.1,0.7
2024-10-02T0900,1142A,121.478,31.2036,上海市,十五厂,,29,28,22,13,10,91,,83,83,16,15,8,8,0.3,0.4
2024-10-02T0900,1143A,121.467,31.3008,上海市,虹口,,28,26,22,13,10,87,,80,80,10,12,9,10,0.4,0.5
2024-10-02T0900,1144A,121.412,31.1654,上海市,徐汇上师大,,29,27,21,17,12,91,,81,81,20,19,8,8,0.6,0.6
2024-10-02T0900,1145A,121.536,31.2659,上海市,杨浦四漂,,29,28,21,13,9,91,,86,86,7,10,7,7,0.5,0.5
2024-10-02T0900,1147A,121.425,31.2261,上海市,静安监测站,,28,28,23,13,9,88,,78,78,20,18,7,6,0.5,0.5
2024-10-02T0900,1148A,121.703,31.1907,上海市,浦东川沙,,32,32,29,10,8,90,,84,84,11,13,6,6,0.5,0.5
2024-10-02T0900,1149A,121.533,31.2284,上海市,浦东新区监测站,,28,28,20,11,10,86,,83,83,12,14,6,6,0.6,0.6
2024-10-02T0900,1150A,121.577,31.2071,上海市,浦东张江,,28,28,18,12,7,80,,78,78,19,20,5,5,0.4,0.5
2024-10-02T0900,3265A,121.4316,31.3322,上海市,宝山庙行,,,29,24,14,9,,,79,79,17,17,15,10,0.9,0.9
2024-10-02T0900,3266A,121.8791,31.4662,上海市,崇明上实东滩,,29,17,14,7,6,92,,89,88,4,4,11,12,0.6,0.6
2024-10-02T0900,3268A,121.3162,31.2838,上海市,嘉定南翔,,27,21,21,11,9,86,,78,78,10,12,8,7,0.5,0.4
2024-10-02T0900,3269A,121.3359,30.7456,上海市,金山新城,,33,33,23,17,11,71,,69,69,18,15,6,5,0.4,0.4
2024-10-02T0900,3270A,121.4996,31.0739,上海市,闵行浦江,,29,27,20,9,9,92,,83,83,10,12,6,6,0.3,0.4
2024-10-02T0900,3271A,121.2886,31.1663,上海市,青浦徐泾,,28,26,23,16,11,88,,78,78,14,17,7,6,0.4,0.4
2024-10-02T0900,3272A,121.2186,31.0378,上海市,松江图书馆,,41,41,26,15,9,79,,76,76,21,18,5,4,0.5,0.5
2024-10-02T0900,3273A,121.3902,31.2059,上海市,长宁仙霞,,27,24,18,12,9,86,,77,77,15,14,8,6,1.1,0.7
2024-10-02T0900,3274A,121.7965,31.0507,上海市,浦东惠南,,30,30,21,11,7,92,,84,84,12,14,9,9,0.6,0.6
2024-10-02T0900,3544A,121.4891,30.925,上海市,奉贤南桥新城,,32,32,16,15,9,87,,78,78,16,17,8,8,0.4,0.5
2024-10-02T0900,2381A,118.005,28.4572,上饶市,百草园,颗粒物(PM10),52,53,24,3,10,69,,62,62,8,6,12,5,0.5,0.6
2024-10-02T0900,2382A,117.9756,28.4436,上饶市,市监测站,,26,26,21,11,12,81,,72,72,6,7,3,3,0.5,0.6
2024-10-02T0900,2383A,117.9519,28.4628,上饶市,凤凰光学,,27,26,21,9,11,85,,76,76,5,6,4,5,0.6,0.7
2024-10-02T0900,3413A,118.1953,28.4401,上饶市,广丰区教体局,,27,27,19,8,12,84,,78,78,5,7,2,2,0.5,0.6
2024-10-02T0900,3685A,117.897,28.4315,上饶市,双创科技城,,26,21,23,12,12,82,,75,75,4,7,2,4,0.4,0.6
2024-10-02T0900,1669A,113.5824,24.7733,韶关市,市八中,,28,28,18,16,8,66,,62,62,2,2,12,10,0.5,0.5
2024-10-02T0900,1671A,113.5917,24.7972,韶关市,园林处,,26,26,17,18,10,66,,62,62,4,4,12,10,0.4,0.5
2024-10-02T0900,1672A,113.6735,24.7791,韶关市,韶关学院,,29,26,19,20,10,55,,52,52,9,9,9,9,0.7,0.7
2024-10-02T0900,1673A,113.5971,24.6863,韶关市,曲江监测站,,30,30,20,12,7,64,,60,60,5,4,12,9,0.5,0.5
2024-10-02T0900,3622A,113.5556,24.8082,韶关市,碧湖山庄,,32,32,19,15,8,63,,58,58,4,4,10,9,0.4,0.4
2024-10-02T0900,2463A,111.4733,27.2317,邵阳市,市一中,颗粒物(PM10),51,51,29,16,11,93,,80,80,9,10,10,9,0.4,0.4
2024-10-02T0900,2464A,111.5283,27.2442,邵阳市,市化工厂,颗粒物(PM10),58,65,33,22,15,88,,80,80,7,8,8,8,0.4,0.5
2024-10-02T0900,2465A,111.4503,27.2537,邵阳市,市罐头厂,颗粒物(PM10),57,63,31,23,13,86,,74,74,8,8,9,7,0.5,0.4
2024-10-02T0900,2466A,111.4328,27.2272,邵阳市,市环保局,颗粒物(PM10),54,57,31,16,13,90,,75,75,8,8,7,6,0.5,0.5
2024-10-02T0900,1247A,120.6053,29.9928,绍兴市,城东开发委,,36,36,21,13,10,88,,79,79,20,17,9,8,0.6,0.6
2024-10-02T0900,2921A,120.5483,30.0003,绍兴市,树下王站,,29,6,10,3,5,91,,84,84,12,12,6,5,0.7,0.7
2024-10-02T0900,3408A,120.5683,29.9361,绍兴市,绍兴中专,,31,31,18,14,10,88,,82,82,17,15,6,5,0.6,0.6
2024-10-02T0900,3409A,120.4906,30.0861,绍兴市,柯桥区政府,,36,36,24,13,10,86,,76,76,16,17,8,7,0.4,0.4
2024-10-02T0900,3410A,120.8752,30.0249,绍兴市,重华小学,,,35,24,15,11,,,77,77,21,19,10,9,0.6,0.6
2024-10-02T0900,3411A,120.8369,30.0137,绍兴市,上虞中学,,40,40,25,16,12,86,,80,80,25,17,6,5,0.7,0.6
2024-10-02T0900,3560A,120.4722,30.0415,绍兴市,柯桥妇保,,33,33,19,12,8,92,,84,84,13,13,9,8,0.5,0.6
2024-10-02T0900,3658A,120.6153,30.0764,绍兴市,袍江中学,,29,25,16,8,7,90,,78,78,18,17,5,4,0.6,0.6
2024-10-02T0900,1356A,114.1063,22.5545,深圳市,通心岭子站,,23,20,26,7,13,72,,68,68,9,7,4,4,0.5,0.5
2024-10-02T0900,1357A,114.117,22.5625,深圳市,洪湖,,27,27,36,7,14,73,,64,64,10,10,8,7,0.4,0.4
2024-10-02T0900,1358A,113.987,22.5417,深圳市,华侨城,,25,20,28,6,17,79,,65,65,4,4,8,8,0.5,0.6
2024-10-02T0900,1359A,113.9181,22.5171,深圳市,南海子站,,26,25,38,3,17,83,,64,64,11,12,6,7,0.4,0.5
2024-10-02T0900,1360A,114.2458,22.5689,深圳市,盐田,,23,23,29,8,14,68,,71,71,11,8,8,8,0.6,0.6
2024-10-02T0900,1361A,114.2283,22.7244,深圳市,龙岗,,25,19,25,9,14,77,,73,73,10,9,7,6,0.4,0.5
2024-10-02T0900,1363A,114.494,22.5422,深圳市,南澳,,25,19,29,8,18,78,,81,81,8,7,8,8,0.4,0.4
2024-10-02T0900,1364A,114.41,22.6342,深圳市,葵涌,,25,20,29,7,14,78,,82,82,9,8,8,8,0.6,0.6
2024-10-02T0900,1365A,114.297,22.5978,深圳市,梅沙,,25,23,30,8,13,78,,77,77,6,5,7,6,0.3,0.4
2024-10-02T0900,1366A,114.0678,22.738,深圳市,观澜,,25,22,32,6,13,77,,68,68,15,12,8,7,0.5,0.5
2024-10-02T0900,3305A,114.0731,22.559,深圳市,莲花,,23,21,29,10,16,71,,66,66,11,9,6,5,0.4,0.5
2024-10-02T0900,3306A,114.0261,22.6198,深圳市,民治,,25,19,28,6,13,78,,66,66,8,8,7,7,0.5,0.6
2024-10-02T0900,3307A,114.1871,22.6451,深圳市,横岗,,24,20,29,11,16,74,,70,70,9,8,6,5,0.5,0.5
2024-10-02T0900,3447A,114.3551,22.7151,深圳市,坪山,,,,30,,17,,,71,71,9,8,7,7,0.5,0.5
