timepoint,stationcode,longitude,latitude,area,positionname,primarypollutant,aqi,pm10,pm10_24h,pm2_5,pm2_5_24h,o3,o3_24h,o3_8h,o3_8h_24h,no2,no2_24h,so2,so2_24h,co,co_24h
2025-07-03T2200,2566A,102.1879,31.914,阿坝藏族羌族自治州,州农科所,,19,19,17,7,5,26,,52,44,11,12,11,11,0.5,0.5
2025-07-03T2200,2568A,102.2502,31.8896,阿坝藏族羌族自治州,马师校,,36,,16,25,19,12,,49,36,10,10,6,6,0.6,0.6
2025-07-03T2200,3994A,102.2165,31.9024,阿坝藏族羌族自治州,马尔康中学西区,,25,23,15,17,13,16,,55,46,8,6,6,6,0.7,0.6
2025-07-03T2200,2695A,80.292,41.1694,阿克苏地区,电视台,颗粒物(PM10),63,75,55,22,21,129,,133,133,11,11,4,6,0.5,0.4
2025-07-03T2200,2696A,80.2613,41.1551,阿克苏地区,艺术中心,,,,71,,26,,,141,141,1,9,3,6,0.4,0.4
2025-07-03T2200,2204A,105.6467,38.8363,阿拉善盟,西城区西花园,,48,48,46,12,16,121,,149,141,13,10,6,7,0.6,0.6
2025-07-03T2200,2205A,105.6985,38.8411,阿拉善盟,蒙二幼,颗粒物(PM10),53,55,42,25,13,108,,134,125,12,9,7,8,0.5,0.5
2025-07-03T2200,2206A,105.724,38.8516,阿拉善盟,环保局新楼,颗粒物(PM10),51,52,38,18,13,117,,140,125,5,6,8,9,0.4,0.5
2025-07-03T2200,2708A,88.1264,47.8517,阿勒泰地区,市站,,18,16,14,10,5,57,,101,94,32,8,1,1,0.5,0.4
2025-07-03T2200,2630A,80.1161,32.5,阿里地区,阿里监测站,,33,10,9,6,4,105,,106,106,9,6,3,2,0.3,0.3
2025-07-03T2200,3192A,80.0903,32.5028,阿里地区,阿里藏医院,,35,18,11,3,3,109,,107,107,4,2,5,4,0.5,0.4
2025-07-03T2200,2642A,109.0318,32.6537,安康市,香溪洞,,23,20,20,9,9,71,,82,81,4,6,5,7,0.1,0.1
2025-07-03T2200,2644A,109.0072,32.6975,安康市,汉滨区检察院,,24,24,23,12,10,30,,71,62,13,8,5,6,0.4,0.4
2025-07-03T2200,4054A,109.0325,32.6913,安康市,市邮政管理局,,30,30,18,9,9,14,,54,46,18,8,4,4,0.6,0.5
2025-07-03T2200,2291A,117.0809,30.5177,安庆市,环科院,,38,38,29,22,19,112,,124,114,10,16,3,3,0.7,0.6
2025-07-03T2200,2292A,117.0331,30.5119,安庆市,马山宾馆,,34,32,26,22,20,108,,129,122,15,15,4,4,0.4,0.4
2025-07-03T2200,2294A,116.9896,30.6145,安庆市,安庆大学,,37,37,29,20,20,55,,115,95,28,17,2,3,1.0,0.6
2025-07-03T2200,3173A,117.0598,30.5351,安庆市,市人大,,,36,27,24,19,,,127,126,8,13,2,2,0.5,0.5
2025-07-03T2200,3122A,105.9606,26.2611,安顺市,伍家关,,,,,,7,38,,49,45,5,3,3,3,0.3,0.3
2025-07-03T2200,3123A,105.9408,26.2431,安顺市,凤凰山,,16,12,9,11,6,37,,50,47,7,3,3,3,0.5,0.4
2025-07-03T2200,3124A,105.9439,26.2564,安顺市,金钟山,,13,10,7,8,6,39,,51,48,5,3,5,4,0.4,0.3
2025-07-03T2200,3125A,105.8983,26.2481,安顺市,娄家坡,,14,9,7,3,3,42,,48,45,4,2,4,4,0.5,0.5
2025-07-03T2200,1818A,114.4839,36.0621,安阳市,棉研所,,,,,,,,,,,,,,,,
2025-07-03T2200,1819A,114.3551,36.1017,安阳市,红庙街,,21,21,33,7,9,67,,128,91,2,2,2,2,0.3,0.4
2025-07-03T2200,1820A,114.361,36.0681,安阳市,银杏小区,,22,22,31,15,14,61,,141,100,8,3,3,2,0.4,0.4
2025-07-03T2200,3141A,114.3922,36.0878,安阳市,信访局,,25,20,37,8,12,80,,146,109,2,4,3,2,0.8,0.8
2025-07-03T2200,3669A,114.4705,36.0637,安阳市,左辅环卫站,,25,25,30,3,4,49,,137,98,17,6,5,5,0.5,0.4
2025-07-03T2200,3703A,114.2917,36.0949,安阳市,安钢职工学校,,20,19,34,7,14,64,,127,91,4,6,2,5,0.4,0.5
2025-07-03T2200,1748A,123.044,41.1196,鞍山市,深沟寺,,15,15,14,7,7,22,,61,38,4,5,4,5,0.6,0.8
2025-07-03T2200,1749A,123.011,41.0931,鞍山市,太阳城,,22,22,12,7,5,27,,63,48,9,8,6,5,0.7,0.8
2025-07-03T2200,1750A,123.0485,41.1442,鞍山市,太平,,18,18,15,6,7,40,,70,60,7,9,3,4,0.8,0.9
2025-07-03T2200,1751A,122.9642,41.0971,鞍山市,铁西三道街,,14,14,14,8,7,36,,64,58,12,13,5,5,0.7,1
2025-07-03T2200,1753A,123.022,41.0821,鞍山市,明达新区,,12,12,10,3,4,29,,68,54,7,6,4,4,0.7,0.7
2025-07-03T2200,1754A,123.1289,41.0228,鞍山市,千山,,,,,,,,,,,,,,,,
2025-07-03T2200,4201A,122.9446,41.0826,鞍山市,兴盛南路290号,,17,17,14,7,7,28,,63,50,20,15,5,4,0.7,0.9
2025-07-03T2200,2195A,107.4212,40.761,巴彦淖尔市,附二中,颗粒物(PM10),65,80,36,38,19,116,,169,164,32,13,19,9,0.7,0.6
2025-07-03T2200,2196A,107.37,40.7372,巴彦淖尔市,市环保大楼,颗粒物(PM10),57,64,49,32,20,84,,155,143,49,15,8,8,0.9,0.5
2025-07-03T2200,1956A,86.1472,41.7538,巴音郭楞蒙古自治州,孔雀公园,,30,29,24,9,9,93,,116,111,23,9,1,2,0.2,0.2
2025-07-03T2200,1957A,86.1972,41.7166,巴音郭楞蒙古自治州,棉纺厂,,,40,29,18,7,,,120,117,27,9,3,4,0.2,0.2
2025-07-03T2200,1958A,86.2357,41.7173,巴音郭楞蒙古自治州,经济开发区,,37,37,19,8,5,94,,120,115,8,3,1,2,0.1,0.1
2025-07-03T2200,2914A,106.7677,31.8794,巴中市,苏山坪,,22,10,9,7,6,70,,71,71,5,5,6,5,0.3,0.3
2025-07-03T2200,3181A,106.7768,31.8526,巴中市,市五中,,22,22,18,10,9,24,,70,61,15,11,8,8,0.6,0.6
2025-07-03T2200,3183A,106.7418,31.8654,巴中市,圣泉水务公司,,23,23,19,9,8,18,,28,,21,14,6,6,0.6,0.6
2025-07-03T2200,3616A,106.7616,31.8344,巴中市,市中心医院,,20,20,17,6,10,17,,69,60,32,15,7,7,0.6,0.5
2025-07-03T2200,2235A,122.7911,45.6077,白城市,洮北区环保局,,43,38,24,30,18,84,,122,112,14,9,6,7,0.5,0.4
2025-07-03T2200,2236A,122.8738,45.5725,白城市,市环保局,,39,39,37,24,21,79,,119,112,9,5,2,2,0.7,0.6
2025-07-03T2200,2231A,126.4219,41.9171,白山市,喜丰,,16,16,25,6,7,17,,71,42,22,19,5,6,1.0,0.8
2025-07-03T2200,2232A,126.4077,41.9419,白山市,环保局,,10,6,22,3,6,27,,81,52,20,14,4,3,0.7,0.6
2025-07-03T2200,2647A,104.1724,36.5446,白银市,第三小学,颗粒物(PM10),61,72,61,24,19,139,,150,149,15,13,69,27,0.9,0.5
2025-07-03T2200,2648A,104.1465,36.5482,白银市,动力公司,,50,50,51,24,19,122,,146,143,20,11,36,15,0.7,0.4
2025-07-03T2200,2512A,106.6103,23.9011,百色市,市监测站,,17,16,23,11,11,52,,70,62,8,12,4,8,0.4,0.5
2025-07-03T2200,2513A,106.6538,23.8859,百色市,市中心血站,,,16,28,16,13,,,64,60,13,15,5,8,0.6,0.6
2025-07-03T2200,3406A,106.6085,23.8798,百色市,祈福高中,,30,30,28,19,13,26,,68,57,31,13,5,8,0.6,0.6
2025-07-03T2200,2270A,117.396,32.939,蚌埠市,工人疗养院,,29,29,25,7,9,79,,120,101,10,6,4,4,0.3,0.3
2025-07-03T2200,2271A,117.3605,32.9427,蚌埠市,百货大楼,,35,35,32,7,12,75,,110,96,11,9,5,6,0.4,0.4
2025-07-03T2200,2273A,117.4185,32.8911,蚌埠市,蚌埠学院,,29,29,19,13,12,63,,114,91,14,5,5,6,0.4,0.3
2025-07-03T2200,2274A,117.3533,32.9673,蚌埠市,淮上区政府,,29,29,27,7,13,73,,120,105,16,11,6,6,0.3,0.5
2025-07-03T2200,2275A,117.3145,32.8977,蚌埠市,高新区,,31,31,30,11,13,68,,112,93,29,14,7,7,0.6,0.5
2025-07-03T2200,3715A,117.3092,32.9314,蚌埠市,蚌埠田家炳中学,,30,30,30,17,17,64,,107,90,15,10,14,10,0.3,0.3
2025-07-03T2200,1585A,109.8756,40.6532,包头市,市环境监测站,,42,42,38,11,26,74,,169,146,62,21,7,14,0.7,1
2025-07-03T2200,1587A,109.9991,40.5842,包头市,包头八中,,36,36,35,14,23,100,,160,147,40,18,9,7,0.8,0.8
2025-07-03T2200,1588A,109.8538,40.6821,包头市,青山宾馆,,36,36,39,12,26,59,,179,146,69,26,8,14,0.6,1.1
2025-07-03T2200,1589A,109.8642,40.6288,包头市,惠龙物流,,43,43,38,11,26,93,,160,150,43,17,5,13,0.6,0.9
2025-07-03T2200,1590A,110.0377,40.5546,包头市,东河鸿龙湾,,36,36,24,14,18,82,,172,150,49,13,10,6,0.6,0.7
2025-07-03T2200,3283A,109.9154,40.5685,包头市,滨河大厦,,30,28,26,10,19,95,,164,151,37,13,10,8,0.6,0.7
2025-07-03T2200,3419A,109.9447,40.6261,包头市,包头市委党校,,35,34,30,11,24,63,,171,151,70,15,9,12,0.6,0.8
2025-07-03T2200,3683A,109.8331,40.6576,包头市,昆区政府,,35,35,46,12,32,93,,171,154,46,22,6,13,0.9,1.3
2025-07-03T2200,1930A,107.185,34.3063,宝鸡市,庙沟村,,19,19,14,3,6,27,,56,45,8,9,4,4,0.2,0.3
2025-07-03T2200,1931A,107.0708,34.3017,宝鸡市,竹园沟,,23,23,19,7,8,6,,54,40,10,10,6,6,0.4,0.4
2025-07-03T2200,1932A,107.1906,34.3672,宝鸡市,三陆医院,颗粒物(PM10),62,73,20,8,6,10,,50,44,42,22,6,6,0.5,0.5
2025-07-03T2200,1933A,107.1431,34.3547,宝鸡市,监测站,,38,38,19,11,10,19,,66,56,19,13,7,7,0.5,0.3
2025-07-03T2200,1934A,107.1186,34.3739,宝鸡市,技工学校,,28,28,14,16,10,18,,63,50,20,7,8,8,0.7,0.5
2025-07-03T2200,1935A,107.3906,34.3528,宝鸡市,陈仓区环保局家属楼,,,,,13,17,12,,59,49,42,19,20,13,0.3,0.3
2025-07-03T2200,1936A,107.2058,34.3497,宝鸡市,文理学院,,29,29,16,13,7,22,,62,56,29,16,6,6,0.6,0.5
2025-07-03T2200,1937A,107.2386,34.3622,宝鸡市,三迪小学,,17,17,18,10,9,27,,60,54,21,17,6,6,0.5,0.5
2025-07-03T2200,1051A,115.493,38.8632,保定市,游泳馆,,27,27,20,17,8,61,,79,79,14,6,4,4,0.3,0.1
2025-07-03T2200,1052A,115.5213,38.8959,保定市,华电二区,,29,29,18,18,10,63,,95,93,15,7,3,2,0.7,0.6
2025-07-03T2200,1053A,115.4713,38.9108,保定市,接待中心,,29,29,23,6,4,65,,90,89,13,3,3,3,0.4,0.2
2025-07-03T2200,1054A,115.4612,38.8416,保定市,地表水厂,,44,44,31,7,4,73,,99,99,15,7,3,3,0.6,0.5
2025-07-03T2200,3581A,115.31981,38.95208,保定市,满城区生态环境分局,,36,36,18,22,11,48,,84,79,14,4,3,2,0.0,0
2025-07-03T2200,3582A,115.47694,38.76408,保定市,清苑区第二中学,,26,18,22,18,12,64,,89,89,20,6,3,3,0.4,0.4
2025-07-03T2200,3583A,115.62909,39.02311,保定市,徐水物探局,,20,20,16,9,3,52,,74,73,7,3,4,3,0.4,0.3
2025-07-03T2200,4004A,115.4202,38.8656,保定市,双鹰农机,,35,,12,24,9,53,,70,69,13,7,2,2,0.3,0.2
2025-07-03T2200,4034A,115.5150,38.8590,保定市,植保所站,,29,27,15,20,11,66,,92,91,13,9,4,4,0.1,0.1
2025-07-03T2200,2594A,99.1678,25.1081,保山市,市环境监测站,,22,,14,15,14,27,,41,36,12,10,4,6,0.5,0.5
2025-07-03T2200,2595A,99.1711,25.1328,保山市,市环保局,,16,16,13,3,7,35,,45,42,8,7,7,6,0.3,0.4
2025-07-03T2200,1866A,109.2262,21.588,北海市,牛尾岭水库,细颗粒物(PM2.5),77,,17,56,11,43,,72,65,8,6,3,4,0.5,0.5
2025-07-03T2200,1867A,109.1436,21.4086,北海市,海滩公园,,39,,17,27,6,37,,65,61,15,6,3,2,0.6,0.5
2025-07-03T2200,1868A,109.0981,21.4661,北海市,新市环保局,,35,32,18,24,10,44,,70,66,15,7,7,5,0.5,0.4
2025-07-03T2200,1869A,109.1778,21.5233,北海市,北海工业园,细颗粒物(PM2.5),83,69,26,61,12,28,,65,55,21,12,21,8,0.6,0.4
2025-07-03T2200,3400A,109.1911,21.4415,北海市,龙潭自来水厂,细颗粒物(PM2.5),58,41,16,41,11,29,,73,65,19,6,17,5,0.6,0.4
2025-07-03T2200,1001A,116.3621,39.8784,北京市,万寿西宫,,35,27,19,24,16,62,,83,82,21,12,1,2,0.6,0.5
2025-07-03T2200,1002A,116.2202,40.2915,北京市,定陵,,,,0,20,12,23,,55,46,2,2,2,2,0.4,0.4
2025-07-03T2200,1003A,116.4174,39.9289,北京市,东四,,42,34,20,29,16,56,,92,86,24,14,2,2,0.7,0.5
2025-07-03T2200,1004A,116.4072,39.8863,北京市,天坛,,25,25,18,14,11,23,,64,53,12,11,3,3,0.7,0.6
2025-07-03T2200,1005A,116.462,39.9365,北京市,农展馆,,29,29,20,15,12,47,,69,65,15,10,2,3,0.8,0.8
2025-07-03T2200,1006A,116.3392,39.9295,北京市,官园,,30,30,20,19,14,38,,72,69,28,16,3,3,0.6,0.5
2025-07-03T2200,1007A,116.2878,39.9611,北京市,海淀万柳,,34,34,24,21,16,25,,52,48,26,18,5,4,0.6,0.5
2025-07-03T2200,1008A,116.6636,40.135,北京市,顺义新城,,28,24,17,19,11,49,,77,72,12,7,4,4,0.4,0.3
2025-07-03T2200,1009A,116.6275,40.3275,北京市,怀柔镇,,25,24,15,17,11,37,,67,59,7,8,3,3,0.3,0.3
2025-07-03T2200,1010A,116.2296,40.217,北京市,昌平镇,细颗粒物(PM2.5),55,,16,39,7,2,,65,59,5,7,5,4,0.4,0.2
2025-07-03T2200,1011A,116.3966,39.9821,北京市,奥体中心,,33,32,18,23,13,45,,71,67,15,10,3,3,0.6,0.5
2025-07-03T2200,3281A,115.9718,40.4529,北京市,延庆夏都,,33,32,13,23,9,66,,74,73,8,5,4,4,0.5,0.5
2025-07-03T2200,3418A,116.8336,40.4095,北京市,密云新城,,33,33,18,19,9,40,,60,54,6,5,1,1,0.5,0.4
2025-07-03T2200,3671A,116.088,39.9726,北京市,门头沟三家店,,30,30,20,20,13,12,,52,36,23,11,2,2,0.7,0.6
2025-07-03T2200,3672A,116.1541,39.8204,北京市,丰台云岗,,36,33,24,25,17,14,,64,49,32,11,3,3,0.5,0.3
2025-07-03T2200,3673A,116.6804,39.9081,北京市,通州东关,,42,32,20,29,16,48,,79,72,15,9,1,1,0.7,0.6
2025-07-03T2200,3674A,115.9577,39.7603,北京市,房山燕山,,20,16,23,14,19,40,,79,68,11,10,1,2,0.4,0.4
2025-07-03T2200,3675A,116.4672,39.7733,北京市,大兴旧宫,,,,14,18,14,,,75,73,7,8,1,1,0.7,0.6
2025-07-03T2200,3694A,115.986,40.4563,北京市,延庆石河营,,32,26,12,22,9,52,,72,69,7,6,2,2,0.3,0.3
2025-07-03T2200,3695A,116.6151,40.3053,北京市,怀柔新城,,28,22,19,19,11,43,,63,56,3,4,1,1,0.8,0.8
2025-07-03T2200,3696A,116.2545,39.8768,北京市,丰台小屯,,39,30,21,27,18,40,,58,53,9,5,1,1,0.6,0.5
2025-07-03T2200,3697A,116.84,40.3844,北京市,密云镇,,39,39,22,27,13,40,,52,50,11,9,1,2,0.6,0.5
2025-07-03T2200,4182A,116.1942,39.9158,北京市,八角北路9号,,35,35,25,20,13,38,,68,62,43,19,2,1,0.6,0.2
2025-07-03T2200,4194A,117.0790,40.1518,北京市,洳河巡河路,,25,22,22,17,18,62,,78,71,12,4,2,2,0.5,0.5
2025-07-03T2200,1761A,123.8275,41.3064,本溪市,大峪,,19,19,9,3,3,14,,55,33,15,8,4,5,0.5,0.4
2025-07-03T2200,1762A,123.7567,41.3325,本溪市,溪湖,,13,13,13,3,6,39,,67,40,8,9,4,4,1.0,1.1
2025-07-03T2200,1763A,123.7169,41.3094,本溪市,彩屯,,25,22,19,13,10,21,,44,28,26,22,7,7,2.5,2
2025-07-03T2200,1764A,123.7669,41.2864,本溪市,东明,,12,9,12,3,6,38,,72,47,10,8,4,4,0.5,0.6
2025-07-03T2200,1765A,123.7992,41.2664,本溪市,新立屯,,13,10,10,3,3,40,,78,41,8,6,3,4,0.5,0.5
2025-07-03T2200,1766A,123.8142,41.3472,本溪市,威宁,,24,24,25,9,7,10,,42,30,15,10,6,6,0.3,0.4
2025-07-03T2200,2587A,105.2864,27.3125,毕节市,八中,,15,15,10,8,7,42,,60,56,8,5,4,4,0.4,0.3
2025-07-03T2200,2588A,105.31,27.2944,毕节市,师专,,14,14,11,6,5,43,,60,57,10,6,4,4,0.5,0.4
2025-07-03T2200,4263A,105.3688,27.3598,毕节市,工业大道,,15,14,10,7,5,45,,67,62,11,8,6,7,0.5,0.5
2025-07-03T2200,1629A,118.0018,37.3617,滨州市,第二水厂,,24,19,29,12,16,76,,124,104,9,10,1,1,0.3,0.4
2025-07-03T2200,1630A,117.9776,37.393,滨州市,北中新校,,24,19,30,9,16,76,,124,107,11,12,2,2,0.3,0.4
2025-07-03T2200,3514A,117.9378,37.3956,滨州市,中海酒店,,25,19,26,17,16,66,,117,104,11,9,7,7,0.7,0.7
2025-07-03T2200,3515A,117.9378,37.3553,滨州市,开发区一中,,,22,29,9,16,,,71,,14,17,10,10,0.4,0.5
2025-07-03T2200,3516A,118.0917,37.694,滨州市,金海六路,,24,24,26,7,13,49,,108,88,19,11,8,8,0.3,0.2
2025-07-03T2200,4028A,117.9956,37.3753,滨州市,滨州市西街道办事处,,26,19,26,3,15,83,,135,113,8,10,9,4,0.3,0.4
2025-07-03T2200,2311A,115.8072,33.8399,亳州市,污水处理厂,,27,16,20,3,7,84,,120,109,4,7,4,4,0.4,0.5
2025-07-03T2200,2312A,115.7789,33.8518,亳州市,三国揽胜宫,,28,16,24,3,6,87,,117,108,8,9,2,3,0.3,0.4
2025-07-03T2200,3332A,115.7633,33.8034,亳州市,亳州学院,,26,,10,3,6,81,,118,106,7,8,1,2,0.3,0.4
2025-07-03T2200,2693A,82.0485,44.8556,博尔塔拉蒙古自治州,市党校,,26,23,19,17,12,82,,94,93,11,9,2,3,0.2,0.2
2025-07-03T2200,2694A,82.0806,44.8969,博尔塔拉蒙古自治州,市环保局,,33,33,25,16,10,95,,115,113,8,6,1,1,0.1,0.2
2025-07-03T2200,1071A,116.8842,38.2991,沧州市,沧县城建局,,22,22,15,11,12,21,,81,48,34,13,3,3,0.6,0.4
2025-07-03T2200,1072A,116.8584,38.3254,沧州市,电视转播站,,21,21,29,3,9,29,,64,42,18,11,3,2,0.3,0.2
2025-07-03T2200,1073A,116.8709,38.3228,沧州市,市环保局,,29,29,26,11,14,29,,68,47,20,10,3,3,0.4,0.3
2025-07-03T2200,3324A,116.8136,38.3004,沧州市,河北水利电力学院,,22,9,11,3,9,20,,104,54,44,11,3,3,0.2,0.1
2025-07-03T2200,2622A,97.1806,31.1273,昌都市,昌都监测站,,48,48,15,27,8,10,,59,47,41,10,6,6,0.8,0.3
2025-07-03T2200,3719A,97.1714,31.1406,昌都市,昌都会议中心,,,38,15,37,13,,,66,62,29,6,7,6,0.4,0.2
2025-07-03T2200,2690A,88.1236,43.8886,昌吉回族自治州,天山天池,,22,13,8,3,3,68,,113,105,5,6,4,4,0.6,0.6
2025-07-03T2200,2692A,87.2717,44.0297,昌吉回族自治州,新区政务中心,,40,22,22,14,7,125,,133,133,7,7,2,3,0.2,0.3
2025-07-03T2200,3613A,87.3095,44.0142,昌吉回族自治州,亚心广场,,,,28,,4,100,,124,121,12,12,4,6,0.2,0.3
2025-07-03T2200,1120A,125.2863,43.9027,长春市,客车厂,,24,18,25,12,14,76,,106,103,21,13,3,3,0.4,0.4
2025-07-03T2200,1121A,125.2841,43.8463,长春市,邮电学院,,21,21,20,6,12,64,,108,100,25,11,2,2,0.4,0.4
2025-07-03T2200,1122A,125.3716,43.8772,长春市,劳动公园,,,,,,,,,,,,,,,,
2025-07-03T2200,1123A,125.3297,43.8805,长春市,园林处,,20,17,22,6,9,64,,105,99,28,10,3,3,0.5,0.6
2025-07-03T2200,1124A,125.4605,43.79,长春市,净月潭,,14,12,15,3,6,42,,82,69,7,7,5,5,0.3,0.4
2025-07-03T2200,1125A,125.7194,43.515,长春市,甩湾子,,25,9,14,7,6,18,,70,58,49,15,1,1,0.7,0.8
2025-07-03T2200,1126A,125.3863,43.8447,长春市,经开区环卫处,,21,13,20,3,10,66,,94,91,19,9,5,4,0.3,0.4
2025-07-03T2200,1127A,125.245,43.7783,长春市,高新区管委会,,20,8,18,3,11,38,,101,88,40,11,5,3,0.3,0.4
2025-07-03T2200,1128A,125.1761,43.8325,长春市,岱山公园,,37,37,23,7,13,18,,94,76,73,19,2,2,0.2,0.3
2025-07-03T2200,4281A,125.3346,43.9164,长春市,北亚泰大街1068号,,24,24,24,11,15,70,,107,100,26,13,2,1,0.6,0.6
2025-07-03T2200,1335A,113.0833,28.2325,长沙市,经开区环保局,,,,24,,11,,,102,100,23,13,4,5,0.4,0.4
2025-07-03T2200,1336A,112.8872,28.2189,长沙市,高开区环保局,,24,24,24,12,11,74,,90,89,6,10,4,6,0.5,0.5
2025-07-03T2200,1337A,113.0792,28.2053,长沙市,马坡岭,,39,39,27,26,13,36,,106,92,39,13,4,5,0.6,0.5
2025-07-03T2200,1338A,112.9394,28.19,长沙市,湖南师范大学,,29,29,25,16,13,53,,84,73,9,10,3,3,0.2,0.4
2025-07-03T2200,1339A,113.0178,28.1322,长沙市,雨花区环保局,,24,17,23,11,9,74,,94,88,7,10,5,6,0.5,0.4
2025-07-03T2200,1340A,112.9792,28.2597,长沙市,伍家岭,,28,28,27,12,10,72,,88,83,8,13,2,4,0.4,0.4
2025-07-03T2200,1341A,113.0014,28.1944,长沙市,火车新站,,22,21,24,12,9,69,,84,81,6,10,6,8,0.4,0.5
2025-07-03T2200,1342A,112.9844,28.1178,长沙市,天心区环保局,,32,32,24,15,11,60,,90,83,16,12,1,3,0.4,0.3
2025-07-03T2200,1343A,112.8908,28.1308,长沙市,湖南中医药大学,,29,27,25,20,12,42,,84,72,25,16,3,4,0.5,0.5
2025-07-03T2200,1344A,112.9581,28.3611,长沙市,沙坪,,22,22,18,10,10,47,,92,78,13,14,4,5,0.5,0.4
2025-07-03T2200,1727A,113.1147,36.1547,长治市,清华站,,18,11,18,3,7,57,,88,67,10,7,5,5,0.6,0.6
2025-07-03T2200,1730A,113.0886,36.2125,长治市,审计局,,15,15,16,3,7,46,,86,65,23,12,8,8,0.7,0.7
2025-07-03T2200,1731A,113.0844,36.1856,长治市,长治八中,,21,21,17,10,14,51,,90,71,17,11,5,6,0.4,0.4
2025-07-03T2200,2845A,113.1569,36.1911,长治市,德盛苑,,,6,18,3,7,,,85,74,5,6,4,7,0.4,0.8
2025-07-03T2200,3568A,113.06,36.0464,长治市,向阳小学,颗粒物(PM10),56,62,45,14,11,45,,88,65,28,7,5,7,0.7,0.7
2025-07-03T2200,3569A,112.8792,36.3144,长治市,屯留一中,,23,16,26,16,24,49,,77,66,16,12,4,6,0.1,0.1
2025-07-03T2200,4189A,113.1131,36.19948,长治市,英华南巷50号,,17,17,18,3,7,53,,86,63,17,9,7,7,0.7,0.6
2025-07-03T2200,4190A,113.2367,36.3344,长治市,学府街1号,,20,19,22,14,11,26,,87,58,37,14,3,3,1.2,0.5
2025-07-03T2200,1854A,111.6975,28.9703,常德市,市二中,,19,11,14,8,9,59,,75,72,8,6,3,4,0.7,0.7
2025-07-03T2200,1857A,111.7158,29.1456,常德市,白鹤山,,,,,,,,,,,,,,,,
2025-07-03T2200,3138A,111.7153,29.0289,常德市,武陵区永安,,19,19,15,10,9,59,,74,70,8,11,2,5,0.3,0.3
2025-07-03T2200,3139A,111.6892,28.9881,常德市,鼎城区玉霞,,,21,16,12,10,42,,72,66,,9,3,4,0.5,0.4
2025-07-03T2200,3140A,111.6625,29.0531,常德市,武陵区长庚,,18,17,14,12,11,54,,73,66,7,5,2,3,0.3,0.3
2025-07-03T2200,1196A,119.9633,31.762,常州市,市监测站,,45,23,59,22,21,141,,170,165,18,20,10,10,0.4,0.4
2025-07-03T2200,1200A,119.9468,31.7069,常州市,武进监测站,,47,35,35,16,18,148,,164,162,11,21,6,12,0.6,0.5
2025-07-03T2200,1201A,119.9255,31.9087,常州市,安家,,,,38,,19,,,166,158,15,20,9,8,,0.6
2025-07-03T2200,3002A,119.9805,31.8174,常州市,行政中心,,,,38,,22,,,155,152,,13,,12,,0.4
2025-07-03T2200,3003A,120.0522,31.7748,常州市,经开区,,50,50,51,16,17,136,,173,164,16,17,7,7,0.2,0.4
2025-07-03T2200,3010A,119.9025,31.7964,常州市,钟楼,,45,27,32,21,16,142,,139,139,11,12,6,6,0.2,0.2
2025-07-03T2200,3429A,119.8598,31.7066,常州市,武进经发区,,46,39,38,22,20,147,,147,146,10,10,6,7,0.7,0.7
2025-07-03T2200,3430A,119.5826,31.7245,常州市,金坛城区,,41,29,29,23,22,131,,148,146,13,28,8,8,0.5,0.4
2025-07-03T2200,2220A,120.4318,41.5881,朝阳市,西梁,,20,20,24,10,16,61,,76,74,10,8,4,5,0.6,0.6
2025-07-03T2200,2221A,120.4521,41.5646,朝阳市,河畔小区,,22,9,17,8,14,70,,84,82,7,6,6,6,0.4,0.5
2025-07-03T2200,2222A,120.4176,41.5648,朝阳市,八里堡,,19,15,24,13,17,60,,81,78,10,9,4,3,0.5,0.6
2025-07-03T2200,2223A,120.3806,41.5969,朝阳市,农业园区,,18,15,18,11,17,56,,77,74,12,10,4,4,0.4,0.5
2025-07-03T2200,1705A,116.6367,23.6719,潮州市,西园路,,39,39,26,11,19,50,,96,83,13,10,5,5,0.4,0.4
2025-07-03T2200,3026A,116.6183,23.6608,潮州市,市政府,,24,24,28,12,11,53,,94,81,7,8,4,5,0.4,0.4
2025-07-03T2200,4036A,116.6461,23.6761,潮州市,金山,,24,24,25,12,16,52,,101,86,12,10,8,7,0.5,0.5
2025-07-03T2200,2472A,113.0073,25.9061,郴州市,马头岭,,18,18,16,6,5,32,,66,54,13,10,7,8,0.5,0.4
2025-07-03T2200,2473A,113.0116,25.8226,郴州市,市职中,,25,24,16,17,10,20,,76,59,17,9,4,6,0.4,0.6
2025-07-03T2200,2475A,113.0383,25.8071,郴州市,市审计局,,23,23,17,16,8,36,,84,68,14,7,3,8,0.4,0.4
2025-07-03T2200,2476A,113.0348,25.7759,郴州市,市环保局,,36,36,21,19,13,26,,85,68,36,15,4,10,0.3,0.3
2025-07-03T2200,4252A,113.0138,25.8011,郴州市,好美居路49号,,32,,17,22,11,37,,84,68,24,10,5,8,0.6,0.6
2025-07-03T2200,1431A,103.9728,30.7236,成都市,金泉两河,,16,15,20,7,9,13,,41,38,31,16,2,3,0.5,0.5
2025-07-03T2200,1432A,104.176,30.6872,成都市,十里店,,23,18,27,16,13,38,,48,48,18,14,3,4,0.6,0.6
2025-07-03T2200,1433A,104.079,30.5706,成都市,三瓦窑,,28,,21,19,15,32,,44,44,25,19,3,4,0.6,0.6
2025-07-03T2200,1434A,104.1114,30.63,成都市,沙河铺,,,,27,,15,22,,35,35,24,15,5,4,0.6,0.6
2025-07-03T2200,1437A,104.0786,30.6531,成都市,君平街,,13,12,27,3,13,39,,47,46,21,16,4,5,0.8,0.8
2025-07-03T2200,1438A,103.613,31.0283,成都市,灵岩寺,,,,,,,,,,,,,,,,
2025-07-03T2200,2880A,104.0239,30.65639,成都市,大石西路,,25,,24,17,17,20,,39,38,23,16,3,3,0.9,0.8
2025-07-03T2200,3136A,104.2725,30.5589,成都市,龙泉驿区区政府,,13,,22,9,16,32,,45,37,15,20,4,4,0.7,0.8
2025-07-03T2200,3357A,104.0106,30.6931,成都市,金博路,,13,10,16,8,8,19,,38,37,25,16,4,4,0.7,0.6
2025-07-03T2200,3359A,104.0578,30.5225,成都市,华阳,,20,,18,14,17,24,,38,34,24,19,4,5,0.7,0.7
2025-07-03T2200,3488A,104.3853,30.7453,成都市,青白江技师分院,,25,25,32,11,19,27,,38,36,25,22,5,6,0.8,0.8
2025-07-03T2200,3489A,104.0789,30.4072,成都市,科学城,,15,13,27,10,17,42,,47,44,14,20,3,4,0.5,0.6
2025-07-03T2200,4011A,103.8506,30.6947,成都市,光华大道三段,,19,19,21,6,11,34,,57,49,18,14,4,5,0.6,0.7
2025-07-03T2200,4224A,104.2433,30.5353,成都市,鲸龙路1057号,,20,18,34,14,24,24,,38,27,26,23,6,7,0.6,0.6
2025-07-03T2200,1062A,117.9531,40.9081,承德市,铁路,,15,12,27,10,15,37,,63,53,19,15,1,2,0.7,0.6
2025-07-03T2200,1063A,117.9392,40.9763,承德市,中国银行,,29,22,29,20,19,22,,73,60,13,9,3,3,0.7,0.6
2025-07-03T2200,1064A,117.9503,40.928,承德市,开发区,,30,30,24,13,21,49,,73,64,14,11,5,5,0.7,0.6
2025-07-03T2200,1065A,117.8051,40.9655,承德市,文化中心,,26,26,27,17,13,26,,83,59,19,8,3,1,0.6,0.5
2025-07-03T2200,1066A,117.9268,41.0026,承德市,离宫,,24,24,22,11,14,6,,67,45,7,8,1,2,0.6,0.5
2025-07-03T2200,2314A,117.47,30.6618,池州市,池州学院,,35,35,25,20,16,63,,115,107,14,7,6,6,0.4,0.5
2025-07-03T2200,3237A,117.4918,30.6617,池州市,展览馆,,,30,27,16,15,,,111,111,15,8,4,4,0.7,0.7
2025-07-03T2200,3333A,117.5627,30.695,池州市,第八中学,,28,28,25,15,15,68,,112,105,17,7,5,5,0.6,0.4
2025-07-03T2200,3334A,117.5038,30.6243,池州市,第十二中学,,32,32,28,19,15,51,,109,96,19,11,3,4,0.7,0.9
2025-07-03T2200,1744A,118.9233,42.2816,赤峰市,松山一中,,24,19,19,7,10,74,,129,105,14,13,8,8,0.6,0.6
2025-07-03T2200,1745A,118.9576,42.2728,赤峰市,哈达街,,,25,26,9,12,,,130,116,13,15,9,15,0.5,0.7
2025-07-03T2200,1746A,118.8788,42.2554,赤峰市,天义路,,28,9,15,9,15,88,,120,106,10,10,10,10,0.5,0.5
2025-07-03T2200,3058A,119.2658,42.0353,赤峰市,银河街,,21,21,37,12,26,61,,105,86,15,12,25,16,0.7,0.8
2025-07-03T2200,3286A,118.9359,42.3147,赤峰市,桥北物流园区,,22,22,26,3,19,49,,135,111,19,9,22,15,0.7,0.7
2025-07-03T2200,2521A,107.3476,22.4136,崇左市,市环保局江州分局,,23,23,20,7,6,13,,45,33,20,10,6,7,0.5,0.6
2025-07-03T2200,4256A,107.3750,22.3736,崇左市,石景林东路7号,,15,,18,10,8,27,,51,42,21,11,4,5,0.6,0.5
2025-07-03T2200,2298A,118.3093,32.3153,滁州市,老年大学,,36,36,38,25,23,102,,120,117,10,11,4,5,0.3,0.3
2025-07-03T2200,2299A,118.3244,32.2786,滁州市,人大宾馆,,37,,25,20,26,116,,137,128,3,11,4,5,0.3,0.3
2025-07-03T2200,3207A,118.3118,32.3038,滁州市,市政府原办公楼,,38,32,34,26,28,72,,121,111,43,14,5,6,0.5,0.5
2025-07-03T2200,3331A,118.3267,32.2634,滁州市,图书馆,,31,,26,20,22,99,,118,112,7,10,8,8,0.4,0.4
2025-07-03T2200,2605A,101.5482,25.0441,楚雄彝族自治州,州环境监测站,,,10,7,3,3,,,53,44,6,4,8,7,0.4,0.4
2025-07-03T2200,2606A,101.538,25.0492,楚雄彝族自治州,市经济开发区,,22,22,9,8,4,32,,49,40,6,5,6,6,0.6,0.5
2025-07-03T2200,2548A,107.5277,31.2827,达州市,达州职业技术学院,,23,23,22,3,2,8,,70,54,32,14,6,7,0.5,0.4
2025-07-03T2200,2549A,107.5086,31.2186,达州市,市环境监测站,,,28,21,7,2,,,64,59,35,26,6,6,0.5,0.4
2025-07-03T2200,2550A,107.4988,31.2132,达州市,凤凰小区,,18,17,18,9,3,26,,74,62,36,21,5,5,0.3,0.2
2025-07-03T2200,2551A,107.5082,31.1986,达州市,达县机关宾馆,,34,34,19,7,6,2,,73,54,54,25,7,7,0.3,0.3
2025-07-03T2200,2552A,107.4644,31.2124,达州市,市政中心,,32,32,24,3,2,14,,66,56,46,20,3,3,0.6,0.4
2025-07-03T2200,2614A,100.1542,25.7054,大理白族自治州,大理市环境监测站,,22,,7,15,14,29,,36,33,8,9,5,5,0.5,0.6
2025-07-03T2200,2615A,100.2171,25.5811,大理白族自治州,大理古城,,26,,11,18,8,27,,53,48,11,7,4,4,0.7,0.7
2025-07-03T2200,1109A,121.612,38.9741,大连市,甘井子,,45,45,33,25,19,81,,82,81,23,24,5,6,0.5,0.6
2025-07-03T2200,1110A,121.565,38.9511,大连市,周水子,,42,32,22,29,16,63,,67,67,27,31,5,6,0.4,0.3
2025-07-03T2200,1111A,121.5637,38.8845,大连市,星海三站,,34,34,29,22,20,95,,88,88,6,10,5,5,0.5,0.4
2025-07-03T2200,1112A,121.6302,38.9117,大连市,青泥洼桥,细颗粒物(PM2.5),58,41,28,41,23,69,,83,82,23,16,5,5,1.0,0.8
2025-07-03T2200,1113A,121.6251,38.8638,大连市,傅家庄,,30,23,19,16,19,96,,87,87,9,14,9,9,0.3,0.2
2025-07-03T2200,1114A,121.5213,38.8661,大连市,七贤岭,,35,29,19,24,18,101,,92,92,9,14,7,7,0.4,0.3
2025-07-03T2200,1115A,121.2529,38.8061,大连市,旅顺,,39,30,27,27,20,90,,76,76,7,10,4,5,0.4,0.3
2025-07-03T2200,1116A,121.7485,39.1311,大连市,金州,,35,8,19,3,15,110,,94,94,7,13,8,7,0.2,0.2
2025-07-03T2200,1117A,121.7811,39.0496,大连市,开发区,,39,,22,27,21,86,,67,67,18,26,19,18,0.4,0.3
2025-07-03T2200,1118A,121.9762,39.0631,大连市,双D港,,22,22,16,10,16,57,,45,44,7,8,9,10,0.5,0.4
2025-07-03T2200,1789A,124.81117,46.03138,大庆市,大同区,,29,22,34,20,23,74,,112,101,10,8,6,6,0.7,0.7
2025-07-03T2200,1790A,125.129,46.533,大庆市,龙凤区,,29,29,31,20,16,76,,109,103,20,12,6,6,0.5,0.5
2025-07-03T2200,1791A,124.902,46.408,大庆市,红岗区,,29,25,28,13,16,92,,116,112,10,10,8,10,0.6,0.6
2025-07-03T2200,1792A,125.153,46.586,大庆市,萨尔图区,,45,45,39,18,13,78,,90,87,20,14,9,9,0.5,0.4
2025-07-03T2200,1793A,124.9042,46.6215,大庆市,让胡路区,,30,29,25,21,20,74,,102,96,20,11,6,6,0.3,0.2
2025-07-03T2200,3481A,125.141,46.634,大庆市,萨区政府监测点,,,9,34,,10,,,110,109,,9,,6,,0.3
2025-07-03T2200,1721A,113.3819,40.1097,大同市,果树场,,,,,,,,,,,,,,,,
2025-07-03T2200,1723A,113.2994,40.0758,大同市,云冈宾馆,,35,31,35,18,24,110,,121,121,17,17,8,6,0.5,1.1
2025-07-03T2200,1724A,113.3444,40.0917,大同市,大同大学,,39,39,27,25,21,90,,121,120,32,25,13,12,0.6,0.7
2025-07-03T2200,1725A,113.2661,40.1269,大同市,安家小村,,38,25,29,12,12,121,,126,126,12,19,6,6,0.6,1.1
2025-07-03T2200,1726A,113.2711,40.0844,大同市,教育学院,,35,35,30,19,20,107,,122,122,18,21,9,8,0.4,0.9
2025-07-03T2200,3282A,113.3397,40.0597,大同市,大同市卫生学校,,50,50,30,33,20,65,,102,100,40,25,9,7,1.1,1.1
2025-07-03T2200,3565A,113.1367,40.1122,大同市,云冈站,,33,33,26,23,16,75,,110,107,20,15,6,4,0.6,0.9
2025-07-03T2200,3566A,113.1186,40.2556,大同市,图书馆,,33,,29,23,17,75,,111,107,9,10,6,8,0.6,0.9
2025-07-03T2200,3567A,113.5931,40.0461,大同市,区一中,,23,17,24,12,18,72,,122,118,26,11,13,11,0.5,0.5
2025-07-03T2200,4199A,113.2798,40.0997,大同市,魏都大道141号,,40,33,40,28,22,85,,122,120,37,22,8,7,0.7,1.1
2025-07-03T2200,2269A,124.1069,50.4097,大兴安岭地区,科技局,,38,38,18,8,9,22,,64,54,12,5,4,5,0.4,0.3
2025-07-03T2200,3663A,124.1164,50.4278,大兴安岭地区,红旗社区,,24,24,4,10,3,6,,66,53,25,4,6,6,0.3,0.2
2025-07-03T2200,1600A,124.3303,40.0625,丹东市,江湾东路,,22,9,9,9,6,68,,57,57,5,8,4,5,0.6,0.6
2025-07-03T2200,1601A,124.4256,40.1503,丹东市,临江后街,,21,13,9,12,6,66,,58,58,6,8,6,6,0.8,0.7
2025-07-03T2200,1602A,124.3933,40.1461,丹东市,元宝山,,22,9,8,3,6,70,,58,58,6,8,4,5,0.6,0.6
2025-07-03T2200,1603A,124.3633,40.1092,丹东市,民主桥,,20,15,14,13,8,61,,53,53,3,5,6,6,0.5,0.6
2025-07-03T2200,3541A,109.5726,19.5167,儋州市,第一中学子站,,12,12,10,6,5,21,,37,34,6,3,6,5,0.6,0.6
2025-07-03T2200,3542A,109.5567,19.5187,儋州市,东坡学校子站,,10,,7,7,4,19,,40,36,5,3,7,6,0.6,0.5
2025-07-03T2200,2616A,98.5842,24.428,德宏傣族景颇族自治州,德宏州监测站,,,20,24,10,8,,,35,35,14,9,7,7,0.5,0.7
2025-07-03T2200,3677A,98.5881,24.4368,德宏傣族景颇族自治州,芒市人民政府综合楼,,19,19,25,8,7,20,,34,30,12,7,6,6,0.7,0.5
2025-07-03T2200,1901A,104.4239,31.1208,德阳市,东山公园,,15,13,15,10,12,36,,46,41,18,14,8,6,0.8,0.8
2025-07-03T2200,1902A,104.3826,31.1317,德阳市,西小区,,18,15,22,12,14,40,,43,40,19,18,6,7,0.7,0.7
2025-07-03T2200,1904A,104.3553,31.1091,德阳市,耐火材料厂,,13,12,19,9,14,32,,38,38,17,15,1,3,0.4,0.5
2025-07-03T2200,3639A,104.4019,31.1244,德阳市,市教育局,,,,18,,12,34,,43,40,20,12,4,4,,0.7
2025-07-03T2200,1622A,116.3032,37.4674,德州市,儿童乐园,,22,12,26,7,13,68,,130,96,14,12,7,8,0.5,0.6
2025-07-03T2200,1624A,116.2991,37.4451,德州市,监理站,,22,14,22,3,12,68,,130,100,14,12,10,9,0.3,0.4
2025-07-03T2200,3066A,116.2721,37.4379,德州市,九衢泉纯净水厂,,19,19,27,9,17,53,,121,86,26,17,5,4,0.8,0.8
2025-07-03T2200,3371A,116.3728,37.4403,德州市,开发区人民医院,,19,19,27,7,12,58,,129,97,21,15,5,7,0.5,0.5
2025-07-03T2200,3511A,116.5652,37.3319,德州市,陵城艺术中心,,21,17,29,9,9,67,,108,89,12,11,4,6,0.3,0.2
2025-07-03T2200,4292A,116.3525,37.4209,德州市,新河东路,,22,22,27,9,14,64,,139,106,16,15,7,7,0.5,0.6
2025-07-03T2200,2621A,99.7056,27.8317,迪庆藏族自治州,迪庆州站,,22,19,20,15,12,46,,68,60,8,6,7,7,0.5,0.5
2025-07-03T2200,3180A,99.7136,27.8094,迪庆藏族自治州,质量技术监督局,,39,39,18,12,9,47,,68,61,11,8,7,7,0.4,0.4
2025-07-03T2200,4257A,104.6092,35.5962,定西市,将台街,,43,43,29,23,14,116,,139,136,7,10,4,5,0.1,0.1
2025-07-03T2200,4309A,104.6159,35.5701,定西市,正龙路62号,,37,29,23,16,15,117,,140,136,4,4,3,4,0.2,0.2
2025-07-03T2200,1389A,113.7547,23.0494,东莞市,莞城梨川,,34,34,38,16,20,46,,152,132,37,26,7,8,0.5,0.5
2025-07-03T2200,1390A,113.7944,23.0128,东莞市,东城石井,,30,30,35,15,19,37,,147,118,32,29,3,4,0.6,0.6
2025-07-03T2200,1391A,113.7383,22.9658,东莞市,南城西平,,,28,35,14,18,,,151,137,37,30,4,3,0.5,0.6
2025-07-03T2200,3319A,113.7338,23.0381,东莞市,万江金泰,,,29,37,15,19,,,135,129,34,27,4,4,0.8,0.9
2025-07-03T2200,3626A,113.7533,23.0202,东莞市,南城元岭,,25,25,36,11,16,39,,150,127,42,30,6,5,0.5,0.5
2025-07-03T2200,3627A,113.7875,23.0457,东莞市,东城主山,,33,33,44,15,20,57,,143,127,32,28,4,4,0.6,0.6
2025-07-03T2200,1666A,118.6614,37.4309,东营市,市环保局,,26,7,29,3,15,82,,126,105,11,15,5,6,0.2,0.3
2025-07-03T2200,3036A,118.6904,37.4338,东营市,开发区管委会,,,18,37,,18,86,,133,106,9,17,5,5,0.3,0.4
2025-07-03T2200,3365A,118.5719,37.565,东营市,垦利区民丰路,,26,9,34,3,17,81,,140,112,9,11,7,3,0.5,0.6
2025-07-03T2200,3498A,118.5055,37.8612,东营市,河口城区,,24,19,25,3,10,76,,123,103,16,15,3,4,1.0,1
2025-07-03T2200,3646A,118.4978,37.4623,东营市,胜利站,,21,18,33,7,14,66,,131,107,15,18,4,5,1.0,1.1
2025-07-03T2200,3734A,118.35,37.26,东营市,理想之城,,,,30,,19,,,129,112,15,18,6,8,0.2,0.7
2025-07-03T2200,1591A,110.0023,39.8129,鄂尔多斯市,综合楼,,36,36,22,12,10,113,,143,136,28,13,5,4,0.5,0.5
2025-07-03T2200,1592A,109.9486,39.8261,鄂尔多斯市,巴音孟克林场办事处,,41,41,26,12,14,124,,152,146,25,13,6,2,0.6,0.5
2025-07-03T2200,1593A,109.7736,39.5986,鄂尔多斯市,康泽苑,,41,41,26,7,7,116,,156,149,22,8,6,6,0.4,0.4
2025-07-03T2200,1594A,109.8119,39.5989,鄂尔多斯市,华泰汽车城,颗粒物(PM10),60,70,27,17,12,63,,145,127,47,12,4,5,0.5,0.5
2025-07-03T2200,1595A,109.9734,39.7884,鄂尔多斯市,奥林花园,,34,34,23,12,14,104,,154,140,30,12,4,4,0.6,0.6
2025-07-03T2200,2436A,114.8938,30.3994,鄂州市,市政府,,46,46,36,14,14,65,,79,78,19,14,4,4,0.8,0.9
2025-07-03T2200,2437A,114.8989,30.3714,鄂州市,赵家坝,,34,34,25,14,8,39,,100,93,37,9,11,12,0.6,0.6
2025-07-03T2200,3654A,114.8094,30.4089,鄂州市,精准医疗中心,,27,27,28,3,8,65,,95,93,14,18,6,5,0.6,0.7
2025-07-03T2200,2454A,109.4978,30.2981,恩施土家族苗族自治州,湖北民院,,24,24,21,16,6,30,,63,55,13,7,4,4,0.4,0.3
2025-07-03T2200,2455A,109.4707,30.2798,恩施土家族苗族自治州,州电力总公司,,12,9,16,8,8,23,,52,42,9,8,8,8,0.3,0.3
2025-07-03T2200,3549A,109.5061,30.3772,恩施土家族苗族自治州,龙凤新区,,18,18,14,3,6,22,,81,63,10,8,2,2,0.4,0.4
2025-07-03T2200,2499A,108.3411,21.6158,防城港市,沙万,,26,26,28,16,10,37,,50,45,11,13,1,2,0.5,0.7
2025-07-03T2200,2500A,108.3514,21.7731,防城港市,防城档案局,,32,32,23,10,10,27,,59,53,19,13,3,3,0.7,0.6
2025-07-03T2200,2501A,108.3506,21.6414,防城港市,大海花园,,,20,26,7,12,48,,62,58,,12,8,6,1.0,1.1
2025-07-03T2200,1371A,113.1294,23.0067,佛山市,湾梁,,,,38,16,17,,,156,139,20,35,8,9,0.5,0.6
2025-07-03T2200,1372A,113.1083,23.0478,佛山市,华材职中,,29,29,37,20,18,69,,181,153,20,34,7,8,0.6,0.6
2025-07-03T2200,1373A,113.144,23.0453,佛山市,南海气象局,,27,27,37,16,16,64,,142,119,16,29,2,4,0.5,0.5
2025-07-03T2200,1374A,113.2881,22.8094,佛山市,顺德苏岗,,24,24,34,12,15,54,,176,152,21,27,6,7,0.8,0.8
2025-07-03T2200,1376A,112.8383,22.8678,佛山市,高明孔堂,,37,29,39,16,17,116,,203,178,8,19,6,8,0.6,0.6
2025-07-03T2200,1377A,112.8836,23.1588,佛山市,三水监测站,,,58,56,28,25,,,151,151,,31,,5,,0.7
2025-07-03T2200,1378A,112.867,23.185,佛山市,三水云东海,颗粒物(PM10),60,70,50,31,25,117,,152,142,41,31,3,4,0.6,0.6
2025-07-03T2200,3625A,113.2544,22.7642,佛山市,容桂街道办,,19,19,25,9,14,54,,158,127,19,26,5,6,0.4,0.5
2025-07-03T2200,1280A,119.3903,26.0543,福州市,鼓山,,,,,,,,,,,,,,,,
2025-07-03T2200,1282A,119.2681,26.0504,福州市,师大,,20,20,22,3,7,58,,86,69,2,4,4,5,0.2,0.2
2025-07-03T2200,1283A,119.2984,26.1028,福州市,五四北路,,32,32,21,8,9,53,,83,67,10,8,4,4,0.2,0.3
2025-07-03T2200,1284A,119.2648,26.0768,福州市,杨桥西路,,23,23,24,6,11,58,,89,72,6,5,3,4,0.3,0.3
2025-07-03T2200,1285A,119.317,26.0746,福州市,紫阳,,22,22,25,3,11,55,,81,67,5,6,4,5,0.2,0.3
2025-07-03T2200,3048A,119.5799,26.0936,福州市,九龙,,22,22,21,6,8,61,,78,73,3,4,4,4,0.2,0.2
2025-07-03T2200,3526A,119.5189,25.9664,福州市,吴航,,21,21,19,9,11,61,,76,70,1,2,4,5,0.4,0.3
2025-07-03T2200,1755A,123.7977,41.8491,抚顺市,望花区,,27,27,24,13,15,12,,71,39,29,23,6,13,0.5,0.5
2025-07-03T2200,1756A,123.9161,41.8822,抚顺市,顺城区,,14,14,15,6,9,20,,77,45,23,15,4,5,0.7,0.7
2025-07-03T2200,1757A,124.0436,41.8611,抚顺市,东洲区,,9,8,11,3,6,26,,76,45,6,7,4,6,0.4,0.6
2025-07-03T2200,1758A,123.9247,41.8642,抚顺市,新抚区,,10,10,17,3,8,18,,71,40,3,6,5,5,0.5,0.6
2025-07-03T2200,1759A,124.0972,41.8961,抚顺市,大伙房水库,,10,10,8,3,6,29,,83,47,6,6,6,6,0.4,0.4
2025-07-03T2200,1760A,123.7086,41.8391,抚顺市,沈抚新城,,44,44,20,14,10,11,,56,36,28,17,3,3,1.1,0.9
2025-07-03T2200,2376A,116.2127,28.0814,抚州市,桐源党溪,,27,27,26,16,15,26,,68,55,3,3,3,3,0.4,0.5
2025-07-03T2200,2377A,116.3544,27.9831,抚州市,市站,,20,20,24,12,12,50,,88,74,6,6,1,4,0.7,0.4
2025-07-03T2200,2378A,116.3565,27.963,抚州市,血防站,,29,29,25,17,14,45,,81,73,8,10,3,4,0.4,0.5
2025-07-03T2200,2379A,116.3564,28.0007,抚州市,采茶剧团,,30,24,24,21,16,49,,84,67,2,6,6,6,0.3,0.4
2025-07-03T2200,2380A,116.385,27.9647,抚州市,医学分院,,29,29,25,13,10,48,,88,75,3,3,4,5,0.5,0.4
2025-07-03T2200,2207A,121.6094,41.998,阜新市,工业园区,,26,13,19,3,9,81,,90,81,11,8,6,5,0.4,0.5
2025-07-03T2200,2208A,121.6697,42.0279,阜新市,长青街,,22,12,20,11,12,70,,82,74,11,7,8,6,0.5,0.5
2025-07-03T2200,2209A,121.6673,42.0705,阜新市,农业园区,,23,13,20,3,8,73,,90,77,10,8,3,3,0.6,0.7
2025-07-03T2200,2210A,121.6717,42.0224,阜新市,东苑,,22,15,19,9,12,69,,84,75,15,12,8,5,0.5,0.5
2025-07-03T2200,2211A,121.6506,42.0498,阜新市,玉龙新城,,20,18,20,9,10,63,,80,70,13,7,5,4,0.7,0.6
2025-07-03T2200,2301A,115.8277,32.8929,阜阳市,市监测站,,26,21,26,13,12,82,,101,96,12,11,4,4,0.3,0.3
2025-07-03T2200,2303A,115.8554,32.8605,阜阳市,开发区,,,,16,,10,81,,94,93,,8,5,5,0.1,0.1
2025-07-03T2200,2875A,115.784,32.8892,阜阳市,阜阳职业技术学院,,28,12,17,6,6,88,,108,101,6,5,3,4,0.2,0.2
2025-07-03T2200,3468A,115.7901,32.8613,阜阳市,市规划展馆,,30,30,22,11,12,76,,95,92,7,8,2,3,0.4,0.4
2025-07-03T2200,3469A,115.836,32.9183,阜阳市,枣园社区,,24,16,20,11,15,74,,100,94,16,12,3,3,0.4,0.4
2025-07-03T2200,2669A,102.9099,34.9841,甘南藏族自治州,州政府,,35,26,24,18,16,112,,108,108,4,11,6,6,0.2,0.3
2025-07-03T2200,3380A,102.8914,34.9617,甘南藏族自治州,甘肃民族师范学院,,43,43,34,14,16,111,,111,111,17,17,8,9,0.4,0.4
2025-07-03T2200,2570A,101.9603,30.0475,甘孜藏族自治州,水桥子,,13,11,8,6,6,33,,53,48,25,17,5,5,0.4,0.5
2025-07-03T2200,3065A,101.9533,29.9972,甘孜藏族自治州,州环保局,,18,18,12,3,4,19,,62,54,24,16,2,2,0.5,0.5
2025-07-03T2200,3414A,115.8347,28.932,赣江新区,桑海产业园,,24,24,23,15,13,68,,134,114,20,13,8,8,0.4,0.3
2025-07-03T2200,2362A,114.9017,25.9149,赣州市,通天岩,,28,28,25,11,5,29,,110,78,5,5,2,1,0.4,0.3
2025-07-03T2200,2363A,114.9367,25.8664,赣州市,地委,,29,29,25,17,15,50,,97,68,9,10,1,2,0.9,0.8
2025-07-03T2200,2364A,114.9461,25.8481,赣州市,气象台,,28,28,25,15,12,47,,106,71,7,15,8,10,0.4,0.4
2025-07-03T2200,2365A,114.9322,25.8333,赣州市,市图书馆,,29,29,24,18,14,55,,119,84,6,12,4,4,0.4,0.4
2025-07-03T2200,2366A,114.8905,25.8471,赣州市,华坚鞋城,,,33,30,26,14,,,104,77,9,15,4,5,0,0.3
2025-07-03T2200,3109A,115.0093,25.8613,赣州市,赣县区卫计委,,41,41,37,26,18,36,,,,21,17,5,5,0,0.1
2025-07-03T2200,2683A,106.2319,36.1417,固原市,马园,,27,27,21,3,8,44,,137,108,39,14,12,8,0.6,0.6
2025-07-03T2200,2684A,106.2792,36.0022,固原市,监测站,,28,28,19,3,11,79,,139,119,9,10,4,4,0.2,0.2
2025-07-03T2200,2685A,106.2375,36.0211,固原市,新区,,25,,18,9,8,80,,137,120,14,9,6,6,0.4,0.4
2025-07-03T2200,3522A,106.2177,35.9959,固原市,原州区十五小,,30,17,17,10,10,93,,138,122,10,9,12,12,0.3,0.3
2025-07-03T2200,2543A,106.6308,30.5278,广安市,小平旧居,,,,,,,,,,,,,,,,
2025-07-03T2200,2544A,106.6303,30.4576,广安市,市委,,20,19,14,10,8,61,,96,86,14,13,5,4,0.4,0.4
2025-07-03T2200,2545A,106.6271,30.4663,广安市,友谊中学,,,,12,,7,52,,89,82,,11,,2,0.5,0.8
2025-07-03T2200,2547A,106.6388,30.4551,广安市,广电花园,,19,15,15,9,8,59,,95,88,13,10,4,3,0.5,0.4
2025-07-03T2200,2902A,106.6351,30.4865,广安市,北辰小学,,20,16,14,12,8,64,,96,89,10,9,2,3,0.4,0.4
2025-07-03T2200,2523A,105.8945,32.4535,广元市,黑石坡,,30,30,25,19,12,24,,40,40,10,12,12,12,0.4,0.4
2025-07-03T2200,2524A,105.821,32.4444,广元市,老城,,24,24,26,12,8,33,,47,47,23,24,9,8,1.0,1.1
2025-07-03T2200,2526A,105.8628,32.4287,广元市,监测站,,13,13,25,3,11,39,,48,48,14,20,10,13,0.8,1
2025-07-03T2200,3617A,105.8047,32.4166,广元市,经开区,,22,22,31,14,14,34,,55,55,21,24,4,3,0.6,0.8
2025-07-03T2200,1345A,113.2347,23.1423,广州市,广雅中学,,29,29,39,14,18,82,,167,154,18,35,3,4,0.4,0.5
2025-07-03T2200,1346A,113.2612,23.105,广州市,市五中,,30,30,29,14,18,71,,163,150,22,30,3,4,0.5,0.6
2025-07-03T2200,1348A,113.3478,23.0916,广州市,广东商学院,,34,34,40,17,16,57,,122,114,32,34,4,5,0.5,0.5
2025-07-03T2200,1349A,113.4332,23.1047,广州市,市八十六中,,29,29,41,14,19,40,,138,123,38,39,2,3,0.4,0.6
2025-07-03T2200,1350A,113.3505,22.9483,广州市,番禺中学,,,30,36,17,19,,,185,178,25,32,8,8,,0.5
2025-07-03T2200,1351A,113.2146,23.3916,广州市,花都师范,,48,48,39,22,18,72,,134,110,36,29,2,4,0.6,1.2
2025-07-03T2200,1352A,113.2597,23.1331,广州市,市监测站,,,39,42,18,19,,,168,168,26,36,5,6,0.5,0.5
2025-07-03T2200,1353A,113.5618,23.312,广州市,九龙镇镇龙,颗粒物(PM10),51,52,37,27,19,84,,94,85,46,22,8,6,0.5,0.5
2025-07-03T2200,1354A,113.2765,23.1544,广州市,麓湖,,32,32,34,19,18,71,,115,108,23,30,3,3,0.6,0.7
2025-07-03T2200,1355A,113.443,23.3035,广州市,帽峰山森林公园,,37,37,27,17,11,116,,119,110,32,17,9,6,0.6,0.5
2025-07-03T2200,2846A,113.3221,23.1322,广州市,体育西,,34,34,38,20,20,80,,160,150,30,41,5,5,0.6,0.6
2025-07-03T2200,3298A,113.5717,23.5491,广州市,从化街口,,45,45,30,19,15,11,,94,60,28,19,5,6,0.7,0.6
2025-07-03T2200,3299A,113.3472,23.3692,广州市,白云竹料,颗粒物(PM10),53,55,38,32,18,99,,110,102,38,24,3,4,0.5,0.4
2025-07-03T2200,3300A,113.2981,23.237,广州市,白云嘉禾,,43,43,48,24,21,92,,140,127,32,32,4,4,0.7,0.8
2025-07-03T2200,3301A,113.4256,23.1716,广州市,黄埔科学城,,,38,38,19,18,60,,120,112,24,20,1,4,,0.7
2025-07-03T2200,3302A,113.3942,23.0483,广州市,番禺大学城,,30,30,29,15,18,67,,180,160,32,34,6,6,0.7,0.7
2025-07-03T2200,3303A,113.4922,22.8168,广州市,南沙黄阁,,22,22,37,8,19,42,,183,136,12,23,5,7,0.3,0.4
2025-07-03T2200,3304A,113.5342,22.7896,广州市,南沙街,,20,20,33,10,21,36,,193,134,19,24,4,6,0.4,0.5
2025-07-03T2200,3443A,113.2902,23.5544,广州市,花都梯面,,28,28,25,14,14,24,,97,72,26,18,4,6,0.6,0.6
2025-07-03T2200,3445A,113.7858,23.7478,广州市,从化良口,,24,24,20,10,8,32,,77,56,6,9,6,6,0.6,0.5
2025-07-03T2200,3446A,113.8051,23.2614,广州市,增城荔城,,40,40,26,20,15,87,,99,98,30,11,7,6,0.4,0.4
2025-07-03T2200,2505A,109.568,23.1478,贵港市,德智高中,,,,,,,,,,,,,,,,
2025-07-03T2200,2506A,109.6047,23.0666,贵港市,江南子站,,20,19,18,14,11,55,,84,78,10,10,4,7,0.5,0.6
2025-07-03T2200,2508A,109.5669,23.1065,贵港市,荷城子站,,,30,26,9,8,44,,75,70,17,13,,9,,0.3
2025-07-03T2200,3405A,109.5886,23.1172,贵港市,新世纪学校,,18,14,23,12,13,53,,78,72,9,11,3,5,0.4,0.4
2025-07-03T2200,4260A,109.5933,23.0951,贵港市,中山路155-3号,颗粒物(PM10),59,68,29,15,12,50,,84,77,17,13,3,7,0.4,0.4
2025-07-03T2200,1439A,106.6899,26.5998,贵阳市,马鞍山,,,12,9,,0,38,,55,51,9,7,3,3,0.6,0.4
2025-07-03T2200,1441A,106.6243,26.6266,贵阳市,鉴湖路,,34,34,18,3,2,23,,46,41,17,7,3,7,0.1,0.3
2025-07-03T2200,1442A,106.7487,26.6343,贵阳市,燕子冲,,24,24,13,14,12,35,,59,53,16,9,4,4,0.2,0.1
2025-07-03T2200,1443A,106.6555,26.4365,贵阳市,碧云窝,,24,24,16,3,2,36,,53,49,8,6,6,5,0.3,0.2
2025-07-03T2200,1445A,106.7109,26.6027,贵阳市,红边门,,17,17,11,3,2,28,,50,45,13,6,8,10,0.2,0.1
2025-07-03T2200,1446A,106.7164,26.5699,贵阳市,新华路,,,14,7,9,5,,,43,41,24,11,4,12,0.3,0.3
2025-07-03T2200,1447A,106.674,26.5424,贵阳市,太慈桥,,13,9,8,3,1,20,,50,44,25,10,5,5,0.4,0.3
2025-07-03T2200,1552A,106.805,26.3003,贵阳市,桐木岭,,22,22,19,12,8,36,,50,46,4,4,5,5,0.9,0.9
2025-07-03T2200,4230A,106.6882,26.5695,贵阳市,花果园大街66号,,10,7,1,7,5,26,,41,38,10,6,4,4,0.2,0.1
2025-07-03T2200,4231A,106.6873,26.5169,贵阳市,漓江路57号,,10,9,7,3,0,29,,54,48,14,6,6,5,0.3,0.2
2025-07-03T2200,1862A,110.4144,25.3167,桂林市,电子科大尧山校区,,,,,,,,,,,,,,,,
2025-07-03T2200,1864A,110.3089,25.2708,桂林市,龙隐路小学,细颗粒物(PM2.5),67,,21,48,9,38,,63,58,20,8,10,11,0.4,0.5
2025-07-03T2200,1865A,110.2869,25.2178,桂林市,八中,,15,15,20,3,6,33,,64,57,19,11,6,8,0.4,0.4
2025-07-03T2200,3531A,110.296,25.1253,桂林市,旅游学院,,17,17,12,7,5,37,,72,64,10,6,3,3,0.3,0.3
2025-07-03T2200,4222A,110.1835,25.2444,桂林市,环湖路276号,,25,24,26,17,17,44,,70,59,18,14,5,20,0.3,0.3
2025-07-03T2200,4301A,110.2803,25.2773,桂林市,信义路13号,,18,18,21,10,12,40,,69,62,21,10,10,8,0.5,0.5
2025-07-03T2200,2674A,100.2561,34.4714,果洛藏族自治州,玛沁县大武镇,,,,35,13,13,69,,96,90,2,4,18,18,0.2,0.3
2025-07-03T2200,1129A,126.5422,45.755,哈尔滨市,岭北,,46,41,32,32,24,104,,125,120,18,13,4,4,1.0,1.1
2025-07-03T2200,1130A,126.561,45.8167,哈尔滨市,松北商大,,46,46,41,30,17,79,,104,99,15,9,14,9,0.7,0.7
2025-07-03T2200,1131A,126.979,45.5419,哈尔滨市,阿城会宁,细颗粒物(PM2.5),55,49,37,39,28,63,,119,106,28,13,4,5,0.6,0.5
2025-07-03T2200,1132A,126.599,45.7222,哈尔滨市,南岗学府路,,48,48,37,22,17,87,,120,112,28,14,7,7,0.4,0.4
2025-07-03T2200,1133A,126.689,45.7733,哈尔滨市,太平宏伟公园,,,48,39,20,15,,,114,113,19,10,5,6,0.6,0.5
2025-07-03T2200,1134A,126.635,45.7667,哈尔滨市,道外承德广场,颗粒物(PM10),58,66,50,20,17,78,,108,101,19,14,6,6,0.7,0.6
2025-07-03T2200,1135A,126.685,45.7319,哈尔滨市,香坊红旗大街,细颗粒物(PM2.5),59,46,34,42,22,89,,115,111,21,15,5,5,0.8,0.7
2025-07-03T2200,1136A,126.6411,45.7258,哈尔滨市,动力和平路,,,65,46,,,92,,123,115,18,11,5,5,0.6,0.5
2025-07-03T2200,1137A,126.593,45.7478,哈尔滨市,道里建国路,,46,46,41,21,15,92,,115,110,21,14,4,4,0.8,0.8
2025-07-03T2200,1138A,126.615,45.61,哈尔滨市,平房东轻厂,颗粒物(PM10),57,64,50,17,15,63,,116,103,35,13,6,8,0.5,0.4
2025-07-03T2200,1139A,126.595,45.9855,哈尔滨市,呼兰师专,,38,38,31,19,17,73,,108,101,22,9,9,9,0.4,0.4
2025-07-03T2200,1140A,126.6206,45.6842,哈尔滨市,省农科院,细颗粒物(PM2.5),87,,45,64,23,45,,104,88,59,21,4,4,0.7,0.6
2025-07-03T2200,2688A,93.5128,42.8172,哈密市,地区监测站,,,74,48,,18,105,,125,122,9,12,5,7,0.1,0.2
2025-07-03T2200,2689A,93.4961,42.8328,哈密市,哈密师范学校,颗粒物(PM10),61,71,35,8,14,109,,108,108,6,13,5,6,0.2,0.4
2025-07-03T2200,2671A,100.9048,36.9639,海北藏族自治州,海晏县西海镇,,44,31,24,14,18,139,,159,157,3,5,10,11,0.4,0.5
2025-07-03T2200,3867A,102.0738,36.5056,海东市,平安区公安北苑,颗粒物(PM10),56,61,35,26,15,146,,152,151,5,7,17,14,0.9,0.6
2025-07-03T2200,1409A,110.576,19.9507,海口市,东寨港,,10,6,8,6,6,31,,41,38,3,2,6,8,0.3,0.3
2025-07-03T2200,1410A,110.3232,20.0574,海口市,海南大学,,14,13,11,3,4,43,,49,48,3,3,2,2,0.4,0.3
2025-07-03T2200,1411A,110.283,20.0053,海口市,秀英海南医院,,20,20,12,11,5,12,,45,20,27,11,5,5,0.4,0.3
2025-07-03T2200,1412A,110.338,19.9969,海口市,海南师范大学,,17,17,13,3,6,34,,47,31,5,7,3,4,0.4,0.5
2025-07-03T2200,1413A,110.33,20.0356,海口市,龙华路环保局宿舍,,18,18,12,6,5,38,,47,44,4,5,4,5,0.3,0.3
2025-07-03T2200,3539A,110.5111,19.9736,海口市,桂林洋子站,,11,10,11,3,5,35,,44,41,3,3,4,4,0.2,0.2
2025-07-03T2200,2673A,100.6188,36.2866,海南藏族自治州,共和县恰卜恰镇,,35,34,30,13,12,112,,139,125,1,7,17,12,0.4,0.5
2025-07-03T2200,2676A,97.3731,37.3753,海西蒙古族藏族自治州,德令哈市,,40,22,34,20,20,126,,125,124,3,5,11,13,0.6,0.6
2025-07-03T2200,1048A,114.5302,36.6116,邯郸市,东污水处理厂,,,16,43,,18,45,,116,76,19,17,3,4,0.4,0.4
2025-07-03T2200,1049A,114.4918,36.5713,邯郸市,矿院,,17,15,30,3,20,53,,142,94,16,12,4,4,0.4,0.4
2025-07-03T2200,1050A,114.484,36.6133,邯郸市,丛台公园,,17,17,36,3,16,51,,126,83,18,12,10,11,0.5,0.5
2025-07-03T2200,3458A,114.7895,36.5593,邯郸市,香泉濮院小区,,,23,35,,3,57,,120,89,16,12,5,4,0.8,0.5
2025-07-03T2200,3579A,114.50634,36.77178,邯郸市,永年区实验高中,,27,27,42,11,27,48,,104,69,22,15,2,2,0.8,0.5
2025-07-03T2200,3580A,114.20016,36.44293,邯郸市,峰峰矿区临水派出所,,,34,42,,10,69,,135,89,7,10,6,10,0.2,0.4
2025-07-03T2200,2634A,106.9893,33.1842,汉中市,汉川机床厂子校,,23,23,23,9,10,28,,58,55,20,14,4,4,0.6,0.5
2025-07-03T2200,2635A,107.0154,33.0706,汉中市,市监测站,,29,25,30,20,12,42,,57,56,22,20,9,7,0.9,0.8
2025-07-03T2200,2636A,107.0089,33.1138,汉中市,鑫源开发区,,16,16,30,6,8,36,,57,55,22,21,9,8,0.7,0.7
2025-07-03T2200,2637A,107.007,33.0323,汉中市,南郑大河坎水厂,,25,25,29,12,11,29,,47,45,20,15,3,3,0.7,0.6
2025-07-03T2200,1223A,120.2072,30.2111,杭州市,滨江,,37,37,33,20,16,95,,151,123,23,21,5,6,0.4,0.4
2025-07-03T2200,1224A,120.0633,30.2747,杭州市,西溪,,35,27,23,24,19,78,,153,124,11,10,4,4,0.4,0.4
2025-07-03T2200,1226A,120.3417,30.3150,杭州市,下沙,,37,37,29,17,15,68,,146,121,33,18,7,6,0.4,0.3
2025-07-03T2200,1227A,120.1269,30.2456,杭州市,卧龙桥,,29,29,25,19,17,36,,152,107,18,12,8,8,0.5,0.4
2025-07-03T2200,1228A,120.1903,30.2692,杭州市,浙江农大,,40,40,38,26,21,91,,149,123,21,22,4,5,0.2,0.2
2025-07-03T2200,1230A,120.1197,30.3119,杭州市,和睦小学,,39,39,30,21,16,102,,169,146,13,10,8,8,0.5,0.4
2025-07-03T2200,1231A,120.3019,30.4183,杭州市,临平镇,颗粒物(PM10),53,56,48,21,22,76,,169,142,27,17,6,6,0.6,0.4
2025-07-03T2200,1232A,120.2753,30.1839,杭州市,城厢镇,,,59,31,24,17,,,136,120,14,10,7,7,0.5,0.5
2025-07-03T2200,1233A,120.0883,30.1808,杭州市,云栖,,35,35,34,11,14,36,,137,90,24,18,7,7,0.6,0.6
2025-07-03T2200,3557A,119.9464,30.0494,杭州市,镇二中,,,34,29,19,21,,,131,130,15,28,4,3,0.4,0.4
2025-07-03T2200,3558A,119.7183,30.2367,杭州市,市府大楼,,39,39,24,25,15,102,,138,138,18,13,8,7,0.3,0.3
2025-07-03T2200,3656A,120.1556,30.2864,杭州市,消防大队,,35,34,30,24,18,98,,158,136,13,15,6,6,0.6,0.6
2025-07-03T2200,1270A,117.1959,31.7848,合肥市,明珠广场,,26,22,25,17,16,82,,115,108,17,12,5,5,0.5,0.5
2025-07-03T2200,1271A,117.3072,31.8764,合肥市,三里街,,,,27,,16,,,85,,,14,,6,,0.5
2025-07-03T2200,1272A,117.2588,31.8707,合肥市,琥珀山庄,,32,22,30,22,21,92,,124,114,10,10,6,6,0.5,0.5
2025-07-03T2200,1273A,117.1604,31.9052,合肥市,董铺水库,颗粒物(PM10),52,53,27,12,14,84,,93,93,11,8,4,4,0.5,0.3
2025-07-03T2200,1274A,117.25,31.8571,合肥市,长江中路,,36,36,31,18,18,83,,120,110,14,9,6,6,0.4,0.4
2025-07-03T2200,1275A,117.266,31.9436,合肥市,庐阳区,,30,27,25,17,13,94,,119,114,5,5,7,9,0.4,0.4
2025-07-03T2200,1276A,117.3453,31.8616,合肥市,瑶海区,,39,39,33,22,18,48,,106,90,35,18,5,6,0.6,0.6
2025-07-03T2200,1277A,117.3027,31.7964,合肥市,包河区,,27,27,26,9,15,85,,113,103,9,9,4,4,0.6,0.6
2025-07-03T2200,1278A,117.2776,31.7385,合肥市,滨湖新区,,,,27,,23,76,,110,102,8,6,6,10,,0.4
2025-07-03T2200,1279A,117.1318,31.8403,合肥市,高新区,,31,31,27,19,16,89,,109,105,13,9,7,7,0.5,0.4
2025-07-03T2200,3464A,117.3803,31.9147,合肥市,高教基地,,38,,26,26,22,64,,110,94,11,9,5,5,0.6,0.6
2025-07-03T2200,3614A,79.924,37.0877,和田地区,地区环保局,颗粒物(PM10),106,161,409,39,127,,,128,128,18,11,5,2,0.5,0.6
2025-07-03T2200,3615A,79.9131,37.113,和田地区,市环保局,颗粒物(PM10),98,146,355,38,94,108,,126,126,9,6,3,2,0.3,0.3
2025-07-03T2200,2516A,108.2011,24.715,河池市,东仁乐园,,,,,,,,,,,,,,,,
2025-07-03T2200,2517A,108.0497,24.6947,河池市,市环保站,,15,12,22,10,9,43,,61,59,6,6,7,6,0.8,0.7
2025-07-03T2200,2518A,108.0983,24.6989,河池市,市疾控中心,,22,22,19,11,10,30,,60,55,20,11,3,4,0.7,0.6
2025-07-03T2200,1696A,114.6778,23.7569,河源市,源西,,43,,20,30,31,38,,64,52,13,13,3,3,0.7,0.6
2025-07-03T2200,1697A,114.6944,23.7586,河源市,东埔,,32,32,18,12,8,46,,66,60,14,13,4,4,0.5,0.4
2025-07-03T2200,1698A,114.6892,23.7233,河源市,老城,,31,31,23,13,11,39,,65,56,15,12,5,4,0.7,0.5
2025-07-03T2200,1718A,115.4208,35.2464,菏泽市,气象局,,33,33,34,8,10,104,,138,134,13,9,3,2,0.3,0.3
2025-07-03T2200,3374A,115.5564,35.0891,菏泽市,定陶老年大学,,32,27,21,3,5,102,,133,125,16,14,1,2,0.3,0.1
2025-07-03T2200,4184A,115.4797,35.24401,菏泽市,永昌路1号,,36,36,25,12,9,106,,140,137,17,11,5,5,0.1,0.1
2025-07-03T2200,4193A,115.4715,35.2800,菏泽市,长城路999号,,37,30,22,7,6,118,,143,142,13,10,4,4,0.2,0.2
2025-07-03T2200,2514A,111.5264,24.4172,贺州市,环保小区,,34,34,23,16,11,36,,77,67,15,9,9,10,1.0,0.8
2025-07-03T2200,2515A,111.5608,24.4078,贺州市,政协大楼,,28,28,22,12,12,44,,89,75,17,10,16,14,0.9,0.8
2025-07-03T2200,3534A,111.4744,24.4553,贺州市,西湾,,33,,24,23,13,27,,63,52,16,10,5,5,0.6,0.5
2025-07-03T2200,2385A,114.17,35.9019,鹤壁市,市监测站,,40,,29,28,20,63,,136,109,14,11,5,5,0.7,0.6
2025-07-03T2200,2386A,114.2956,35.7511,鹤壁市,市交警支队,,32,27,26,22,15,52,,137,101,23,13,7,5,1.0,0.5
2025-07-03T2200,2387A,114.2878,35.7306,鹤壁市,迎宾馆,,28,28,28,7,17,61,,141,103,18,12,5,4,0.8,0.6
2025-07-03T2200,3474A,114.2617,35.6822,鹤壁市,大新区,,17,17,25,11,13,51,,142,103,18,13,5,6,0.8,0.6
2025-07-03T2200,3596A,114.1572,35.9603,鹤壁市,南山宾馆,,39,,39,27,20,69,,126,97,4,10,3,3,0.4,0.5
2025-07-03T2200,2244A,130.2537,47.3416,鹤岗市,哈啤分公司,,19,11,18,7,10,58,,108,82,6,6,11,12,0.5,0.6
2025-07-03T2200,2245A,130.2684,47.3086,鹤岗市,斯达机电,,35,,27,24,20,66,,102,86,7,7,11,11,0.4,0.4
2025-07-03T2200,2246A,130.3114,47.3388,鹤岗市,东山纸板厂,,26,,14,18,15,68,,112,90,6,7,12,8,0.8,0.6
2025-07-03T2200,2247A,130.1097,47.3382,鹤岗市,五号水库,,10,6,10,6,5,31,,96,71,9,8,8,8,0.1,0.1
2025-07-03T2200,2263A,127.4833,50.2524,黑河市,交通局,,35,35,18,9,6,3,,45,31,22,9,7,6,0.5,0.4
2025-07-03T2200,2264A,127.5144,50.2341,黑河市,环保局,,31,31,14,13,7,12,,52,40,21,5,5,4,0.4,0.4
2025-07-03T2200,2265A,127.5291,50.2472,黑河市,大黑河岛,,,,2,3,4,13,,44,35,,,29,28,,
2025-07-03T2200,1074A,115.6838,37.7541,衡水市,电机北厂,,26,26,21,3,11,27,,74,50,24,11,2,3,0.3,0.3
2025-07-03T2200,1075A,115.6303,37.7316,衡水市,市监测站,,27,27,26,3,8,23,,78,52,30,10,6,6,0.4,0.3
2025-07-03T2200,3188A,115.6683,37.7217,衡水市,市城管局,,,15,16,3,10,,,41,,30,10,,3,0.3,0.3
2025-07-03T2200,3459A,115.5989,37.5491,衡水市,地表水厂,,34,34,31,3,5,8,,93,52,36,8,7,6,0.3,0.2
2025-07-03T2200,2456A,112.5003,26.9167,衡阳市,原169医院,,23,16,18,16,7,58,,89,80,9,11,3,5,0.4,0.4
2025-07-03T2200,2457A,112.6194,26.9258,衡阳市,衡阳化工总厂,,43,43,24,17,10,51,,84,74,19,15,6,6,0.5,0.5
2025-07-03T2200,2458A,112.6211,26.8956,衡阳市,珠晖区环保局,,20,20,21,9,9,62,,88,81,9,11,7,10,0.9,0.6
2025-07-03T2200,2459A,112.6197,26.8733,衡阳市,市委党校,,24,24,21,10,8,30,,81,69,29,12,9,11,0.5,0.5
2025-07-03T2200,2460A,112.6006,26.8919,衡阳市,市监测站,,42,42,18,14,9,51,,82,74,17,12,5,8,0.4,0.4
2025-07-03T2200,2461A,112.5664,26.9056,衡阳市,真空机电公司,,20,16,23,8,9,61,,82,76,9,10,4,10,0.4,0.6
2025-07-03T2200,3399A,112.6703,26.882,衡阳市,师范学院,,19,18,28,13,11,45,,86,73,14,9,7,7,0.5,0.5
2025-07-03T2200,2608A,103.3772,23.3993,红河哈尼族彝族自治州,污水处理厂,,25,20,17,17,11,54,,50,50,5,4,6,6,0.3,0.2
2025-07-03T2200,2609A,103.3861,23.35,红河哈尼族彝族自治州,监测站,,28,26,21,19,11,50,,47,47,4,3,9,4,0.1,0.1
2025-07-03T2200,3038A,103.3758,23.368,红河哈尼族彝族自治州,州图书馆,,28,,10,19,11,57,,53,53,4,3,1,1,0.2,0.2
2025-07-03T2200,1090A,111.6507,40.7517,呼和浩特市,呼市一监,细颗粒物(PM2.5),52,44,23,36,22,102,,137,131,21,11,9,9,0.7,0.6
2025-07-03T2200,1091A,111.6572,40.8033,呼和浩特市,小召,,45,41,26,31,23,131,,135,135,20,18,6,7,0.6,0.6
2025-07-03T2200,1094A,111.7516,40.8369,呼和浩特市,如意水处理厂,,44,44,31,29,21,105,,145,140,30,16,3,4,0.6,0.6
2025-07-03T2200,1095A,111.7276,40.8062,呼和浩特市,二十九中,,50,48,30,35,26,128,,148,146,12,9,4,5,0.7,0.7
2025-07-03T2200,1096A,111.5512,40.7866,呼和浩特市,工大金川校区,颗粒物(PM10),58,65,32,40,24,80,,139,131,37,16,5,6,0.8,0.6
2025-07-03T2200,1097A,111.717,40.7612,呼和浩特市,化肥厂生活区,细颗粒物(PM2.5),57,53,27,40,27,100,,148,144,36,15,6,7,0.6,0.5
2025-07-03T2200,3698A,111.5968,40.8178,呼和浩特市,红旗小学,细颗粒物(PM2.5),60,63,28,43,22,66,,147,136,52,20,4,4,0.5,0.4
2025-07-03T2200,3699A,111.6518,40.8389,呼和浩特市,海东办,细颗粒物(PM2.5),54,48,26,38,25,106,,145,141,29,17,6,6,0.6,0.5
2025-07-03T2200,2192A,119.7594,49.2261,呼伦贝尔市,区环保局,,40,40,26,24,15,125,,102,102,22,19,8,5,0.4,0.4
2025-07-03T2200,3061A,119.7512,49.1577,呼伦贝尔市,国华电力东,,,44,25,20,13,,,148,148,4,8,3,4,0.4,0.4
2025-07-03T2200,1250A,120.0751,30.8669,湖州市,城西水厂,,42,42,41,23,25,111,,184,168,20,16,7,7,0.4,0.4
2025-07-03T2200,2873A,120.0830,30.8929,湖州市,仁皇山新区,,38,38,38,23,24,111,,176,163,16,18,6,5,0.6,0.6
2025-07-03T2200,2907A,120.1844,30.8596,湖州市,吴兴区站,,40,40,38,21,24,101,,183,164,15,14,6,6,0.4,0.4
2025-07-03T2200,3562A,120.4148,30.8538,湖州市,南浔区站,,37,37,34,23,25,68,,160,136,25,14,7,6,0.5,0.5
2025-07-03T2200,1607A,120.9049,40.7211,葫芦岛市,龙港区,,24,21,26,12,14,76,,95,88,7,5,1,1,0.5,0.5
2025-07-03T2200,1608A,120.8392,40.7514,葫芦岛市,化工街,,20,,9,9,8,61,,93,82,18,10,5,5,0.5,0.5
2025-07-03T2200,1609A,120.8341,40.7073,葫芦岛市,新区,,24,16,19,12,14,76,,95,87,6,4,1,2,0.6,0.6
2025-07-03T2200,1610A,120.8695,40.7677,葫芦岛市,东城区,,,,14,20,17,,,93,91,16,8,3,2,0.8,0.6
2025-07-03T2200,2482A,109.5981,27.5721,怀化市,林科所,,12,12,14,3,4,29,,64,48,12,11,3,4,0.4,0.3
2025-07-03T2200,2483A,109.9453,27.5444,怀化市,河西地税局,,34,34,14,11,7,7,,60,44,24,9,3,6,0.2,0.2
2025-07-03T2200,2484A,109.9781,27.5342,怀化市,市四医院,,33,33,28,9,10,12,,59,42,25,13,2,3,0.1,0.1
2025-07-03T2200,2485A,109.9972,27.5578,怀化市,监测楼,,26,26,17,14,10,16,,56,44,16,8,2,3,0.1,0.1
2025-07-03T2200,2486A,110.0394,27.583,怀化市,市委党校,,19,19,15,11,8,14,,67,48,27,9,4,4,0.2,0.3
2025-07-03T2200,1210A,119.036,33.5981,淮安市,钵池山,,40,29,32,21,24,125,,162,154,12,12,9,10,0.4,0.5
2025-07-03T2200,1211A,119.007,33.575,淮安市,北京南路,,50,41,36,35,26,111,,154,136,16,11,9,9,0.5,0.6
2025-07-03T2200,1212A,118.989,33.6067,淮安市,市监测站,,37,36,39,24,24,118,,155,134,8,8,8,8,0.8,0.8
2025-07-03T2200,1213A,119.135,33.5039,淮安市,楚州区监测站,,39,39,48,23,22,100,,152,129,14,13,7,7,0.4,0.6
2025-07-03T2200,3426A,118.8755,33.2894,淮安市,新华书店,,33,29,35,23,24,91,,159,125,19,13,8,8,0.3,0.4
2025-07-03T2200,4206A,119.0288,33.6319,淮安市,承德北路606号,,36,36,38,25,23,112,,144,133,14,12,7,7,0.3,0.4
2025-07-03T2200,2282A,116.8004,33.975,淮北市,监测站,,28,19,28,16,14,88,,133,119,9,10,7,7,0.4,0.4
2025-07-03T2200,2283A,116.8091,33.9007,淮北市,烈山区政府,,41,41,44,9,10,70,,125,107,14,13,6,7,0.7,0.6
2025-07-03T2200,3330A,116.8873,33.9836,淮北市,杜集区检察院,,33,33,27,13,17,79,,130,112,14,15,7,5,0.7,0.7
2025-07-03T2200,4017A,116.7923,33.9535,淮北市,市博物馆,,31,31,30,15,18,85,,135,120,10,11,7,8,0.7,0.7
2025-07-03T2200,2277A,116.8305,32.7727,淮南市,潘集区政府,,33,33,32,17,15,64,,95,86,14,9,3,3,0.5,0.4
2025-07-03T2200,2279A,116.8569,32.5951,淮南市,谢家集区政府,,22,22,23,8,11,61,,96,83,14,7,6,6,0.1,0.2
2025-07-03T2200,2280A,116.8281,32.633,淮南市,八公山区政府,,22,22,23,8,12,64,,94,83,10,8,3,6,0.3,0.3
2025-07-03T2200,2281A,116.6325,32.6201,淮南市,焦岗湖风景区管理处,,,,,,,,,,,,,,,,
2025-07-03T2200,2894A,117.0566,32.6531,淮南市,经济技术开发区消防队,,24,24,23,6,8,60,,96,88,28,11,8,8,0.5,0.4
2025-07-03T2200,3329A,117.0108,32.5893,淮南市,山南新区,,31,31,22,3,6,75,,105,95,13,6,8,8,0.5,0.4
2025-07-03T2200,4209A,117.0031,32.6445,淮南市,国庆中路369号,,,,14,19,17,87,,101,94,10,6,8,8,0.2,0.2
2025-07-03T2200,2446A,114.9028,30.4742,黄冈市,职工中心,,32,29,33,22,27,81,,102,101,7,7,6,8,0.3,0.4
2025-07-03T2200,2929A,114.8858,30.4519,黄冈市,红卫路,,28,28,29,13,17,80,,101,99,5,9,6,7,0.3,0.4
2025-07-03T2200,3398A,114.9136,30.4445,黄冈市,市林业局,,,,35,,23,,,52,,,14,,9,,0.4
2025-07-03T2200,2672A,102.0199,35.5102,黄南藏族自治州,同仁县隆务镇,,33,33,25,14,9,62,,70,68,12,9,9,9,0.2,0.2
2025-07-03T2200,2295A,118.2903,29.6963,黄山市,延安路89号,,16,16,18,9,6,41,,91,73,6,6,2,3,0.5,0.4
2025-07-03T2200,2297A,118.1371,30.2756,黄山市,黄山区政府5号楼,,25,25,21,13,10,14,,69,44,7,4,3,3,0.5,0.4
2025-07-03T2200,4210A,118.3354,29.7203,黄山市,滨江东路7-2号,,33,33,26,3,7,29,,90,67,10,6,3,3,0.4,0.4
2025-07-03T2200,2423A,115.0601,30.2313,黄石市,沈家营,,31,31,44,8,13,57,,111,89,14,13,6,7,0.4,0.4
2025-07-03T2200,2426A,114.8988,30.2019,黄石市,铁山,,28,28,24,9,9,73,,96,91,6,10,7,8,0.4,0.5
2025-07-03T2200,2427A,115.0307,30.2092,黄石市,团城山,,33,33,30,3,4,73,,116,97,7,7,7,7,0.4,0.4
2025-07-03T2200,3149A,115.0235,30.1578,黄石市,笔架山北路,,28,28,26,3,5,61,,95,79,24,9,5,5,0.4,0.4
2025-07-03T2200,4185A,115.0780,30.21118,黄石市,磁湖东路29号,,50,50,41,16,15,79,,130,112,15,15,8,7,0.7,0.6
2025-07-03T2200,1392A,114.4183,23.0528,惠州市,河南岸金山湖子站,,24,24,28,8,16,34,,87,75,20,14,7,7,0.0,0.3
2025-07-03T2200,1393A,114.4053,23.0822,惠州市,下埔横江三路子站,,25,25,29,15,16,41,,96,82,17,12,5,5,0.3,0.3
2025-07-03T2200,1394A,114.4103,23.1142,惠州市,江北云山西路子站,,27,27,26,13,14,46,,103,93,14,11,9,8,0.4,0.4
2025-07-03T2200,1395A,114.4645,22.7833,惠州市,惠阳区承修路船湖子站,,17,17,25,11,15,50,,84,69,8,12,6,7,0.4,0.5
2025-07-03T2200,1396A,114.5317,22.7422,惠州市,大亚湾管委会子站,,18,18,20,9,11,54,,72,65,8,12,9,10,0.4,0.5
2025-07-03T2200,3314A,114.4338,22.8134,惠州市,惠阳秋长,,19,19,27,12,15,59,,100,84,8,15,6,7,0.4,0.5
2025-07-03T2200,3452A,114.6517,22.775,惠州市,大亚湾霞涌,,20,,20,13,12,64,,83,76,7,11,5,5,0.5,0.5
2025-07-03T2200,2240A,130.9762,45.3001,鸡西市,环保局,,30,22,20,15,11,96,,117,107,12,8,5,4,0.4,0.4
2025-07-03T2200,2243A,130.9429,45.3039,鸡西市,第一中学,,29,25,18,17,9,90,,112,105,14,8,7,7,0.4,0.4
2025-07-03T2200,3707A,131.0207,45.3073,鸡西市,欧美日汽修厂,,35,35,24,13,12,84,,116,106,19,12,7,8,0.6,0.6
2025-07-03T2200,3709A,130.9967,45.3106,鸡西市,市政设施管理处,,30,28,24,21,10,84,,115,103,20,13,3,3,0.6,0.5
2025-07-03T2200,2367A,114.9754,27.0803,吉安市,红声器材厂,,50,50,32,32,17,58,,120,107,15,9,12,10,0.5,0.4
2025-07-03T2200,2368A,114.9658,27.0999,吉安市,市森林工业局,,32,32,30,20,15,79,,126,110,13,9,9,10,0.6,0.4
2025-07-03T2200,2369A,114.99,27.1312,吉安市,市环境监测站,,40,40,29,23,17,67,,132,106,10,8,10,12,0.5,0.4
2025-07-03T2200,2370A,115.0093,27.0968,吉安市,青原区法院,颗粒物(PM10),51,52,31,34,16,53,,121,96,16,13,12,10,0.5,0.4
2025-07-03T2200,1772A,126.54,43.8622,吉林市,哈达湾,,27,27,14,9,8,72,,89,84,17,6,6,6,0.4,0.3
2025-07-03T2200,1773A,126.5844,43.8358,吉林市,东局子,,28,24,19,19,9,46,,89,78,30,9,5,5,0.8,0.6
2025-07-03T2200,1774A,126.5052,43.8245,吉林市,电力学院,,29,29,16,14,7,44,,88,77,29,9,5,5,0.5,0.5
2025-07-03T2200,1775A,126.6133,43.8972,吉林市,江北,,,35,22,,8,,,91,87,17,8,7,7,0.5,0.5
2025-07-03T2200,1776A,126.555,43.8306,吉林市,江南公园,,21,18,16,10,10,66,,90,85,17,6,2,2,0.4,0.4
2025-07-03T2200,1778A,126.7061,43.7133,吉林市,丰满,,,,,,,,,,,,,,,,
2025-07-03T2200,2868A,126.4739,43.953,吉林市,九站,,23,13,15,11,9,73,,99,88,18,7,4,3,0.4,0.4
2025-07-03T2200,1299A,116.9862,36.6114,济南市,科干所,,31,29,16,10,9,99,,121,119,18,8,5,5,0.5,0.5
2025-07-03T2200,1300A,116.9376,36.665,济南市,农科所,,29,29,23,10,7,88,,112,107,20,10,7,8,0.3,0.2
2025-07-03T2200,1301A,117.1265,36.6734,济南市,开发区,,32,24,16,12,9,102,,113,112,17,9,7,7,0.5,0.4
2025-07-03T2200,1303A,117.0624,36.6868,济南市,省种子仓库,颗粒物(PM10),60,70,26,9,6,109,,128,126,17,8,6,6,0.5,0.4
2025-07-03T2200,1304A,116.9489,36.6447,济南市,机床二厂,,34,34,24,10,5,86,,114,111,22,12,5,5,0.4,0.3
2025-07-03T2200,1305A,117.0495,36.663,济南市,市监测站,,32,32,17,10,8,88,,108,106,21,11,8,8,0.5,0.4
2025-07-03T2200,1306A,116.7675,36.5484,济南市,长清党校,,32,32,20,12,14,92,,116,112,21,14,4,5,0.4,0.4
2025-07-03T2200,1616A,117.6795,36.229,济南市,技术学院,,33,19,18,12,12,105,,130,124,14,9,8,8,0.6,0.6
2025-07-03T2200,1961A,117.532,36.6868,济南市,东山小学,,30,22,24,10,11,96,,122,119,10,7,6,6,0.2,0.2
2025-07-03T2200,3059A,117.7161,36.2049,济南市,泰兴公司,,29,29,24,12,13,68,,119,,41,13,11,10,0.4,0.4
2025-07-03T2200,3064A,117.6867,36.2171,济南市,莱芜战役纪念馆,,33,27,27,11,14,105,,125,121,10,6,7,8,0.6,0.6
2025-07-03T2200,3494A,117.1673,36.9782,济南市,济阳区政府,,,29,30,15,8,79,,114,108,11,7,4,5,,0
2025-07-03T2200,3495A,117.1171,36.63,济南市,锦屏中学,,29,20,15,12,10,92,,123,119,15,7,6,6,0.5,0.5
2025-07-03T2200,3682A,116.9814,36.6819,济南市,济南四建,,41,41,20,20,11,88,,118,114,21,9,6,5,0.4,0.4
2025-07-03T2200,1653A,116.6251,35.4302,济宁市,火炬城,,29,28,26,9,10,91,,108,106,11,9,7,7,0.5,0.5
2025-07-03T2200,1655A,116.5491,35.4042,济宁市,电化厂,,28,28,26,17,12,76,,70,,18,12,5,5,0.5,0.7
2025-07-03T2200,3500A,116.5814,35.3707,济宁市,北湖一中,,32,20,24,8,10,101,,117,115,8,8,9,9,0.2,0.3
2025-07-03T2200,3501A,116.8249,35.5593,济宁市,服务中心,,29,29,27,7,6,90,,115,111,16,11,1,3,0.3,0.3
2025-07-03T2200,3678A,116.5907,35.4054,济宁市,市第七中学,,30,18,28,3,4,96,,113,111,2,3,5,5,0.3,0.3
2025-07-03T2200,2255A,130.2751,46.8028,佳木斯市,佳纺,,,22,21,17,13,,,102,93,15,8,5,5,,0.4
2025-07-03T2200,2256A,130.3995,46.8307,佳木斯市,发电厂,,26,26,23,18,15,63,,110,94,15,10,5,5,0.4,0.4
2025-07-03T2200,2257A,130.3258,46.7975,佳木斯市,环保局,,31,31,25,17,15,82,,107,97,15,9,7,6,0.4,0.5
2025-07-03T2200,2258A,130.3648,46.8032,佳木斯市,十一中,,28,25,25,7,14,87,,114,104,12,8,7,7,0.6,0.6
2025-07-03T2200,2259A,130.3794,46.7588,佳木斯市,四丰,,,,12,,,,,,,24,8,1,1,0.6,0.6
2025-07-03T2200,1252A,120.7436,30.778,嘉兴市,清河小学,,36,36,38,14,16,54,,144,120,28,11,8,8,0.6,0.7
2025-07-03T2200,1253A,120.726,30.7478,嘉兴市,嘉兴学院,,33,33,31,15,17,58,,157,132,22,11,7,5,0.6,0.4
2025-07-03T2200,2872A,120.7846,30.7525,嘉兴市,南湖区残联,,35,35,32,16,19,59,,151,125,26,14,11,9,0.6,0.5
2025-07-03T2200,3407A,120.6916,30.7739,嘉兴市,秀洲住建,,32,32,30,16,17,68,,162,137,22,13,9,6,0.8,0.7
2025-07-03T2200,1945A,98.2908,39.7711,嘉峪关市,气象局,,25,19,23,9,11,79,,132,113,24,9,5,6,0.7,0.6
2025-07-03T2200,2884A,98.2672,39.7978,嘉峪关市,酒钢宾馆,,34,34,28,12,11,87,,140,120,23,6,14,14,0.8,0.9
2025-07-03T2200,3248A,98.2643,39.7724,嘉峪关市,雄关区,,,32,32,10,14,,,127,116,25,14,7,8,0.6,0.5
2025-07-03T2200,1383A,113.1064,22.6058,江门市,北街,,18,,32,11,20,57,,140,99,11,22,2,3,0.3,0.4
2025-07-03T2200,1384A,113.0731,22.5835,江门市,西区,,37,37,31,16,13,54,,148,104,15,22,5,5,0.5,0.5
2025-07-03T2200,1385A,113.0219,22.5311,江门市,圭峰西,,41,41,33,19,18,55,,137,104,20,17,3,3,0.4,0.4
2025-07-03T2200,1386A,113.0828,22.5947,江门市,东湖,,25,25,29,13,15,57,,135,100,13,21,6,7,0.4,0.4
2025-07-03T2200,3311A,113.1075,22.5647,江门市,江海富民,,38,38,32,14,18,53,,136,97,15,20,9,10,0.7,0.7
2025-07-03T2200,3449A,113.05,22.4667,江门市,新会银湖,,33,33,30,13,15,46,,109,76,10,15,3,3,0.4,0.5
2025-07-03T2200,1830A,113.1992,35.2590,焦作市,影视城,,,,9,,7,,,,,,7,,13,,0.3
2025-07-03T2200,3169A,113.2725,35.2067,焦作市,太极体育中心,,38,38,41,20,25,62,,142,115,10,10,3,4,0.4,0.4
2025-07-03T2200,3335A,113.3137,35.2641,焦作市,马村街道办,,,44,35,,21,47,,139,105,16,13,8,10,0.6,0.7
2025-07-03T2200,3336A,113.2465,35.2373,焦作市,焦作技师学院,颗粒物(PM10),57,64,38,3,10,77,,139,122,12,11,3,3,0.7,0.8
2025-07-03T2200,3477A,113.1656,35.2539,焦作市,中站许衡医院,,30,30,25,20,18,60,,135,110,27,15,6,7,0.5,0.5
2025-07-03T2200,3981A,113.2449,35.1803,焦作市,原李万街道办,,19,19,31,3,7,60,,141,112,13,11,10,11,0.3,0.2
2025-07-03T2200,4264A,113.2340,35.2190,焦作市,新安路1731号,,33,33,31,8,12,84,,147,126,13,10,2,3,0.4,0.4
2025-07-03T2200,1708A,116.3701,23.5345,揭阳市,新兴,,25,,24,17,16,54,,106,88,8,9,5,6,0.6,0.5
2025-07-03T2200,1709A,116.3264,23.5443,揭阳市,西马,,20,20,29,12,15,54,,109,90,4,6,2,3,0.6,0.6
2025-07-03T2200,1710A,116.3611,23.5626,揭阳市,东兴,,25,,30,17,14,58,,123,101,10,10,4,4,0.5,0.4
2025-07-03T2200,1711A,116.4151,23.5294,揭阳市,渔湖,,25,,27,17,12,45,,100,86,9,10,8,8,0.4,0.3
2025-07-03T2200,3320A,116.403,23.5699,揭阳市,曲溪,,36,36,29,18,15,56,,119,97,7,7,4,6,0.5,0.5
2025-07-03T2200,1944A,102.1692,38.5167,金昌市,天庆家园,,40,14,57,7,16,127,,134,131,2,5,7,9,0.5,0.7
2025-07-03T2200,4022A,102.1647,38.5371,金昌市,金川区人防中心,,36,32,76,9,19,115,,121,113,3,5,11,11,0.4,0.5
2025-07-03T2200,4239A,102.1930,38.5319,金昌市,长春路96号,,37,19,75,10,19,118,,126,121,2,2,5,18,0.8,0.8
2025-07-03T2200,1262A,119.647,29.077,金华市,十五中,,39,39,34,13,15,90,,146,127,12,13,5,5,0.5,0.5
2025-07-03T2200,1263A,119.686,29.1029,金华市,监测站,,42,42,29,23,16,67,,138,115,19,12,3,2,0.6,0.5
2025-07-03T2200,3659A,119.656,29.1131,金华市,气象局,,42,42,28,22,18,73,,144,120,16,13,6,4,0.5,0.4
2025-07-03T2200,1767A,121.1115,41.0879,锦州市,南山,,49,,20,34,16,60,,80,75,10,7,5,6,0.7,0.6
2025-07-03T2200,1768A,121.0604,40.8428,锦州市,开发区,,18,12,23,9,7,56,,97,88,34,14,5,4,0.6,0.6
2025-07-03T2200,1769A,121.1836,41.1119,锦州市,百股街道,,24,23,19,14,10,76,,93,89,8,6,3,3,0.6,0.5
2025-07-03T2200,1770A,121.1178,41.1222,锦州市,天安街道,,38,35,20,26,15,64,,90,85,15,10,4,5,0.7,0.6
2025-07-03T2200,1771A,121.1303,41.1386,锦州市,北湖公园,,46,38,21,32,13,58,,80,77,13,7,3,4,0.7,0.6
2025-07-03T2200,2160A,112.85,35.5051,晋城市,自来水公司,,,,37,,12,,,95,,,9,,3,,0.4
2025-07-03T2200,2161A,112.8318,35.4936,晋城市,白云商贸,,38,38,28,3,2,50,,107,80,18,13,4,4,1.1,0.6
2025-07-03T2200,2162A,112.8508,35.4887,晋城市,市环保局,颗粒物(PM10),51,52,43,14,11,45,,111,81,19,11,6,7,0.8,0.1
2025-07-03T2200,2163A,112.8676,35.4897,晋城市,技术学院,,29,29,24,7,9,38,,103,74,23,11,6,6,1.0,0.6
2025-07-03T2200,2165A,112.8453,35.546,晋城市,白马寺,,23,13,15,3,13,73,,108,86,7,4,5,5,0.6,0.6
2025-07-03T2200,3620A,112.8271,35.4828,晋城市,泽州一中,,18,18,29,3,7,50,,115,87,17,8,3,4,1.5,0.7
2025-07-03T2200,2173A,112.7249,37.7067,晋中市,南都小区,颗粒物(PM10),63,75,28,28,14,76,,107,105,20,6,2,3,1.0,0.8
2025-07-03T2200,2174A,112.6991,37.6982,晋中市,榆次区政府,,46,46,18,10,11,66,,102,100,23,7,6,5,0.8,0.9
2025-07-03T2200,2865A,112.7195,37.6828,晋中市,榆次三中,颗粒物(PM10),54,58,13,17,4,78,,114,112,21,7,6,6,0.8,0.6
2025-07-03T2200,4200A,112.7478,37.6954,晋中市,迎宾街26号,颗粒物(PM10),64,78,14,41,6,81,,112,110,22,9,6,6,0.7,0.5
2025-07-03T2200,2439A,112.2014,31.0481,荆门市,竹园小学,,,,17,,10,79,,87,86,,7,,6,0.6,0.2
2025-07-03T2200,2440A,112.1969,30.9891,荆门市,掇刀,,34,34,21,10,12,81,,90,89,8,8,8,8,0.5,0.4
2025-07-03T2200,2441A,112.2213,31.0386,荆门市,石化一小,,,28,19,3,7,,,94,94,15,9,12,11,0.3,0.4
2025-07-03T2200,3012A,112.1849,31.0362,荆门市,西山林语,,26,20,17,10,9,82,,89,88,7,3,11,10,0.5,0.4
2025-07-03T2200,3547A,112.1632,31.0138,荆门市,龙泉中学南校,,26,26,18,13,10,81,,87,86,5,4,5,5,0.4,0.4
2025-07-03T2200,1844A,112.2494,30.3197,荆州市,市图书馆,,,25,12,19,7,,,87,85,12,7,3,3,0.5,0.5
2025-07-03T2200,1845A,112.2008,30.3544,荆州市,市委党校,,20,15,14,12,11,64,,81,78,18,13,2,3,0.3,0.3
2025-07-03T2200,3194A,112.2747,30.3122,荆州市,管委会,,24,24,14,14,12,61,,82,77,11,8,2,3,0.6,0.5
2025-07-03T2200,4268A,112.1722,30.3366,荆州市,学苑路85号,,23,,14,16,11,51,,78,72,19,10,4,4,0.4,0.2
2025-07-03T2200,2342A,117.3102,29.3867,景德镇市,王港中学,,,,,,,,,,,,,,,,
2025-07-03T2200,2343A,117.2117,29.2933,景德镇市,老干部活动中心,,35,33,37,24,24,76,,118,100,10,12,5,6,0.7,0.6
2025-07-03T2200,2344A,117.1894,29.2789,景德镇市,兽医站,细颗粒物(PM2.5),54,48,41,38,26,51,,114,86,18,13,8,6,0.8,0.7
2025-07-03T2200,2345A,117.1547,29.2617,景德镇市,台达陶瓷,细颗粒物(PM2.5),52,46,44,36,31,62,,106,85,15,20,33,54,0.6,0.6
2025-07-03T2200,2346A,117.2461,29.2956,景德镇市,陶研所,细颗粒物(PM2.5),52,47,37,36,27,70,,124,108,9,10,5,5,0.7,0.6
2025-07-03T2200,1803A,115.9872,29.6815,九江市,十里,,38,,20,26,20,78,,100,97,15,13,3,5,0.5,0.6
2025-07-03T2200,1804A,115.9584,29.7046,九江市,茅山头,,37,37,30,24,18,70,,99,99,19,21,6,5,0.4,0.4
2025-07-03T2200,1805A,115.9877,29.7295,九江市,西园,,30,27,25,18,16,93,,114,110,15,34,4,8,0.6,0.7
2025-07-03T2200,1808A,115.9114,29.6038,九江市,综合工业园,,38,38,23,18,15,59,,102,92,22,15,3,3,0.9,0.9
2025-07-03T2200,1809A,116.0721,29.7535,九江市,石化总厂,,43,37,34,30,30,57,,107,90,31,13,8,9,0.5,0.4
2025-07-03T2200,1810A,115.9773,29.5698,九江市,庐山气象台,,30,27,14,3,4,94,,89,89,5,4,7,7,1.0,0.9
2025-07-03T2200,3190A,116.0254,29.6994,九江市,外国语学校,,32,26,26,22,17,80,,95,91,8,11,3,6,0.7,0.7
2025-07-03T2200,4253A,116.0102,29.6594,九江市,莲花大道8号,,31,31,12,13,14,84,,93,93,2,4,4,4,0.5,0.6
2025-07-03T2200,4240A,98.4958,39.7339,酒泉市,玉门东路5号,,32,24,29,22,22,84,,121,102,12,8,11,12,0.5,0.3
2025-07-03T2200,4241A,98.5099,39.7506,酒泉市,北大街108号,,,17,28,14,20,,,128,115,9,6,12,15,0.3,0.2
2025-07-03T2200,2698A,76.0072,39.4467,喀什地区,巡警大队,颗粒物(PM10),55,60,111,13,27,136,,144,144,11,14,3,4,0.3,0.3
2025-07-03T2200,2699A,75.9755,39.4694,喀什地区,吾办,颗粒物(PM10),67,84,107,28,37,127,,140,138,21,14,6,7,0.5,0.4
2025-07-03T2200,4027A,75.9483,39.4689,喀什地区,老干局,颗粒物(PM10),59,68,114,20,32,128,,145,144,11,13,5,5,0.4,0.4
2025-07-03T2200,1824A,114.3389,34.7781,开封市,肿瘤医院,,35,35,22,9,7,77,,125,108,19,14,3,3,0.4,0.4
2025-07-03T2200,1826A,114.2885,34.7965,开封市,世纪星幼儿园,,37,37,25,25,12,89,,124,111,17,13,3,4,0.4,0.3
2025-07-03T2200,3147A,114.3438,34.8106,开封市,龙亭公园,,26,26,20,7,9,82,,124,109,13,8,2,2,0.4,0.3
2025-07-03T2200,3210A,114.3644,34.7964,开封市,汴京公园,,,,35,29,10,104,,125,114,17,13,3,3,0.4,0.3
2025-07-03T2200,3473A,114.2485,34.8306,开封市,技师学院,,36,23,22,14,10,113,,137,128,9,8,4,4,0.5,0.4
2025-07-03T2200,3592A,114.4644,34.7556,开封市,祥符区生态环境局,,24,24,24,13,9,75,,122,103,26,16,3,4,0.6,0.6
2025-07-03T2200,1951A,84.895,45.6094,克拉玛依市,长征新村,,35,14,22,8,6,110,,108,108,5,10,3,3,0.3,0.3
2025-07-03T2200,1952A,84.8988,45.5893,克拉玛依市,南林小区,,35,12,25,9,11,112,,108,108,5,17,3,4,0.1,0.1
2025-07-03T2200,1954A,84.905,44.3396,克拉玛依市,独山子区,,34,20,23,3,8,108,,122,118,12,11,7,8,0.3,0.3
2025-07-03T2200,1955A,85.6979,46.098,克拉玛依市,乌尔禾区商贸楼,,31,31,21,3,7,95,,113,109,10,11,4,4,0.3,0.5
2025-07-03T2200,3612A,85.1045,45.6899,克拉玛依市,白碱滩区新站,,,22,24,19,16,115,,123,122,,10,7,7,0.2,0.3
2025-07-03T2200,2697A,76.1454,39.7142,克孜勒苏柯尔克孜自治州,市人民政府,颗粒物(PM10),57,63,97,25,36,137,,148,148,8,8,3,7,0.0,0.1
2025-07-03T2200,3665A,76.1658,39.7157,克孜勒苏柯尔克孜自治州,克州文化中心,颗粒物(PM10),60,69,94,22,41,142,,147,147,9,7,4,6,0.3,0.3
2025-07-03T2200,1450A,102.8204,24.8886,昆明市,呈贡新区,,48,,7,33,13,15,,63,52,36,13,6,5,0.4,0.3
2025-07-03T2200,1451A,102.6251,24.9608,昆明市,西山森林公园,,,,,,,,,,,,,,,,
2025-07-03T2200,1452A,102.7252,25.0902,昆明市,龙泉镇,,25,25,16,7,5,18,,64,54,18,12,3,2,0.4,0.3
2025-07-03T2200,1453A,102.7266,25.0375,昆明市,东风东路,,19,19,15,10,9,50,,67,58,11,14,4,3,0.2,0.2
2025-07-03T2200,1454A,102.6742,25.0669,昆明市,金鼎山,,17,17,13,7,4,39,,61,54,14,9,1,2,0.4,0.3
2025-07-03T2200,1455A,102.6644,25.0401,昆明市,碧鸡广场,,29,29,13,15,6,35,,56,50,21,13,6,5,0.4,0.4
2025-07-03T2200,3179A,102.7494,25.0119,昆明市,官渡区博物馆,,28,28,12,16,8,8,,66,52,39,13,6,6,0.4,0.3
2025-07-03T2200,3375A,102.8017,24.8336,昆明市,青年创业园,,15,13,9,9,6,48,,61,60,8,4,2,2,0.3,0.3
2025-07-03T2200,3550A,102.7997,24.9786,昆明市,昆明学院,,25,24,14,17,9,7,,62,50,41,11,4,4,0.5,0.3
2025-07-03T2200,3551A,102.5967,24.6736,昆明市,晋宁区生态环境分局,,17,15,13,7,6,52,,57,56,10,8,2,2,0.2,0.1
2025-07-03T2200,3552A,102.6678,24.9856,昆明市,云天化总部,,,,10,6,5,,,58,58,8,7,4,4,0.4,0.4
2025-07-03T2200,1456A,91.1319,29.6514,拉萨市,八廓街,,29,7,16,6,9,90,,90,87,11,14,7,7,0.3,0.3
2025-07-03T2200,1457A,91.1221,29.6747,拉萨市,市环保局,,25,10,13,9,8,78,,89,82,17,13,6,6,0.4,0.4
2025-07-03T2200,1458A,91.0874,29.6475,拉萨市,区监测站,,27,,11,10,7,86,,88,78,20,19,6,7,0.3,0.3
2025-07-03T2200,1459A,91.1774,29.6541,拉萨市,西藏大学,,27,12,12,8,7,84,,89,83,12,14,3,6,0.2,0.3
2025-07-03T2200,1460A,90.9798,29.6588,拉萨市,区辐射站,,28,12,15,9,8,87,,85,75,17,19,6,7,0.3,0.3
2025-07-03T2200,1461A,91.0834,29.6292,拉萨市,拉萨火车站,,31,13,10,10,7,98,,95,88,10,14,4,4,0.2,0.2
2025-07-03T2200,2520A,109.2203,23.7256,来宾市,来宾技工学校,,25,25,23,12,8,38,,86,76,26,10,17,10,0.7,0.6
2025-07-03T2200,3535A,109.1781,23.7297,来宾市,兴宾区政府,,25,25,18,12,8,45,,96,86,22,10,5,6,0.6,0.6
2025-07-03T2200,4002A,109.2416,23.7461,来宾市,中南小学,,,,18,24,9,40,,94,83,28,11,7,7,0.6,0.5
2025-07-03T2200,1477A,104.1373,35.9454,兰州市,榆中兰大校区,,,,,,,,,,,,,,,,
2025-07-03T2200,1479A,103.831,36.0464,兰州市,铁路设计院,,44,44,53,26,28,104,,143,132,27,43,7,14,0.4,0.6
2025-07-03T2200,3241A,103.7439,36.0842,兰州市,百合公园,细颗粒物(PM2.5),58,48,49,41,34,113,,144,136,16,33,4,8,0.2,0.5
2025-07-03T2200,3242A,103.9611,35.998,兰州市,和平,,44,44,46,28,18,95,,150,134,22,11,9,14,0.4,0.5
2025-07-03T2200,4236A,103.6293,36.0938,兰州市,庄浪东路808号,颗粒物(PM10),54,57,53,29,30,105,,149,135,26,30,11,19,0.3,0.4
2025-07-03T2200,4237A,103.7251,36.1043,兰州市,安宁西路88号,,45,42,52,14,22,142,,161,154,5,27,6,12,0.4,0.4
2025-07-03T2200,4238A,103.8470,36.0676,兰州市,北滨河东路1号,颗粒物(PM10),56,61,55,33,29,104,,150,141,36,44,6,10,0.4,0.6
2025-07-03T2200,3245A,103.6633,36.533,兰州新区,新区管委会,细颗粒物(PM2.5),54,46,45,38,25,136,,167,164,11,9,7,10,0.2,0.3
2025-07-03T2200,3246A,103.6975,36.4789,兰州新区,舟曲中学,颗粒物(PM10),56,62,50,21,18,122,,155,150,24,18,9,12,0.4,0.4
2025-07-03T2200,1067A,116.6708,39.5111,廊坊市,药材公司,颗粒物(PM10),52,53,28,19,12,39,,66,58,20,11,2,2,0.5,0.4
2025-07-03T2200,1068A,116.7214,39.5589,廊坊市,开发区,,29,28,33,20,15,32,,67,56,16,12,1,1,0.3,0.4
2025-07-03T2200,1070A,116.7244,39.5269,廊坊市,北华航天学院,,49,49,33,25,20,43,,70,63,17,9,3,3,0.4,0.4
2025-07-03T2200,2919A,116.7022,39.5453,廊坊市,河北工业大学,,48,48,31,17,11,42,,67,59,21,14,3,3,0.4,0.3
2025-07-03T2200,2535A,103.7723,29.5462,乐山市,花湖湾,,23,19,17,16,14,58,,56,56,16,13,2,2,0.6,0.5
2025-07-03T2200,2536A,103.7627,29.5844,乐山市,牛耳桥,,23,23,20,15,14,42,,67,61,19,16,8,7,0.8,0.8
2025-07-03T2200,2537A,103.7508,29.6006,乐山市,市第三水厂,,25,25,21,11,15,40,,68,62,21,15,5,4,0.7,0.7
2025-07-03T2200,2538A,103.7571,29.5664,乐山市,市监测站,,26,26,20,18,15,44,,66,62,12,10,5,11,0.7,0.7
2025-07-03T2200,3361A,103.7311,29.5628,乐山市,理工大学,,19,19,19,10,12,46,,70,65,13,12,6,6,0.5,0.6
2025-07-03T2200,2598A,100.2143,26.8576,丽江市,西南郊,,16,16,13,11,7,49,,63,60,10,7,6,6,1.0,1
2025-07-03T2200,2599A,100.2497,26.8802,丽江市,丽江古城,,17,15,14,11,9,52,,58,57,10,9,9,9,0.6,0.6
2025-07-03T2200,2600A,100.2203,26.8906,丽江市,市中心,,15,11,13,8,9,45,,56,53,12,10,8,8,0.6,0.6
2025-07-03T2200,1267A,119.914,28.4514,丽水市,监测站大楼,,30,29,24,13,15,94,,110,110,11,10,3,3,0.4,0.4
2025-07-03T2200,1268A,119.93,28.4586,丽水市,莲都小学,,29,28,29,12,12,92,,107,107,8,9,4,3,0.4,0.4
2025-07-03T2200,1269A,119.879,28.4231,丽水市,余庄前,,32,25,24,14,15,100,,112,112,6,6,3,3,0.4,0.3
2025-07-03T2200,1173A,119.176,34.5885,连云港市,市环境监测站,,29,29,40,14,29,92,,166,144,16,15,3,4,0.1,0.2
2025-07-03T2200,3000A,119.3581,34.6972,连云港市,德源药业,,,29,38,19,22,80,,141,130,19,11,,7,0.6,0.6
2025-07-03T2200,3007A,119.178,34.844,连云港市,新城一中,,38,38,45,17,28,100,,155,147,8,11,5,5,0.8,0.9
2025-07-03T2200,3008A,119.3608,34.7519,连云港市,胡沟管理处,,35,19,28,3,20,109,,159,150,11,9,4,6,0.9,0.8
2025-07-03T2200,3009A,119.1478,34.5911,连云港市,矿山设计院,,31,19,37,14,23,99,,146,132,5,8,4,4,0.5,0.7
2025-07-03T2200,3434A,119.2413,34.6539,连云港市,工贸学校,,35,27,32,18,26,111,,160,146,2,4,7,8,0.4,0.6
2025-07-03T2200,3664A,119.4172,34.7341,连云港市,连云街道,,40,26,36,16,22,126,,159,153,5,6,6,7,0.5,0.6
2025-07-03T2200,2571A,102.3431,27.8099,凉山彝族自治州,青龙寺,,17,17,16,3,5,37,,63,56,7,8,5,5,0.4,0.5
2025-07-03T2200,2572A,102.2721,27.8415,凉山彝族自治州,邛海宾馆,,16,12,11,8,7,51,,64,63,11,7,9,10,0.4,0.4
2025-07-03T2200,2573A,102.2625,27.898,凉山彝族自治州,西昌市政府,,16,10,13,3,6,49,,63,62,10,8,11,15,0.4,0.6
2025-07-03T2200,2574A,102.2685,27.8851,凉山彝族自治州,凉山州政府,,18,17,12,12,7,56,,66,66,9,9,10,12,0.8,0.9
2025-07-03T2200,4229A,102.2342,27.8859,凉山彝族自治州,凯乐南路30号,,20,17,15,13,8,62,,65,65,6,9,12,17,0.7,1
2025-07-03T2200,2212A,123.2,41.1953,辽阳市,宏伟区,,15,11,10,3,2,46,,79,52,4,5,2,2,0.6,0.6
2025-07-03T2200,2213A,123.1683,41.2495,辽阳市,新华园,,16,6,11,3,3,49,,82,64,6,7,7,6,0.3,0.4
2025-07-03T2200,2214A,123.2354,41.2639,辽阳市,滨河路,,14,8,11,3,6,42,,68,51,5,6,4,5,0.4,0.3
2025-07-03T2200,2215A,123.149,41.2991,辽阳市,铁西工业园,,8,8,20,3,4,23,,64,40,6,6,1,2,0.7,0.8
2025-07-03T2200,2227A,125.1358,42.8845,辽源市,环保局,,20,20,14,7,4,44,,89,80,12,7,6,6,0.3,0.3
2025-07-03T2200,3239A,125.0764,42.9078,辽源市,银鹰制药,,,8,11,3,5,33,,87,75,13,16,4,4,,0.3
2025-07-03T2200,1625A,115.9848,36.4372,聊城市,区政府,,24,24,22,6,8,64,,114,99,21,8,4,4,0.7,0.6
2025-07-03T2200,2878A,116.0072,36.4343,聊城市,聊大东校,,23,22,23,7,13,72,,111,99,12,8,3,4,0.7,0.6
2025-07-03T2200,3200A,115.9819,36.4978,聊城市,监控中心,,22,19,22,9,5,69,,117,100,22,10,5,5,0.6,0.5
2025-07-03T2200,3513A,116.0445,36.4361,聊城市,九州社区,,36,36,24,13,9,68,,118,106,20,10,3,4,0.4,0.3
2025-07-03T2200,4018A,116.0567,36.4608,聊城市,星美广场,,40,40,28,6,6,75,,123,110,20,9,11,10,0.8,0.7
2025-07-03T2200,2632A,94.3681,29.6376,林芝市,林芝监测站,,13,,6,6,6,40,,45,44,2,5,4,4,0.4,0.5
2025-07-03T2200,2633A,94.3616,29.6616,林芝市,林芝人民医院,,12,8,8,3,5,38,,44,44,1,4,5,5,0.1,0.2
2025-07-03T2200,2603A,100.0781,23.8982,临沧市,市环保局,,29,20,14,20,14,16,,40,32,10,7,6,6,0.5,0.4
2025-07-03T2200,2604A,100.0894,23.8822,临沧市,市气象局,,15,14,13,10,8,16,,41,35,10,7,8,8,0.5,0.4
2025-07-03T2200,1733A,111.5531,36.0783,临汾市,临钢医院,,32,32,34,6,6,56,,78,65,23,18,4,5,0.5,0.6
2025-07-03T2200,1734A,111.5028,36.0714,临汾市,技工学校,,39,38,34,27,16,44,,76,64,29,19,4,5,0.5,0.5
2025-07-03T2200,1736A,111.5018,36.0855,临汾市,市委,颗粒物(PM10),57,63,51,8,8,45,,78,65,33,23,4,4,1.0,0.9
2025-07-03T2200,3018A,111.505,36.1014,临汾市,唐尧大酒店,颗粒物(PM10),58,65,59,9,10,47,,79,68,24,20,1,2,0.7,0.7
2025-07-03T2200,4244A,111.4879,36.0530,临汾市,启星学校,,42,42,39,19,23,22,,63,49,31,17,4,4,0.8,0.8
2025-07-03T2200,4271A,103.2464,35.6123,临夏回族自治州,滨河东路1号,颗粒物(PM10),53,55,48,9,17,47,,124,113,16,13,4,4,0.3,0.3
2025-07-03T2200,4310A,103.2093,35.5995,临夏回族自治州,新华街21号,,47,47,46,28,22,110,,131,128,8,13,6,6,0.3,0.4
2025-07-03T2200,1618A,118.3429,35.0532,临沂市,沂河小区,,39,39,31,17,20,99,,130,128,21,15,11,10,0.4,0.3
2025-07-03T2200,1619A,118.295,35.0583,临沂市,鲁南制药厂,,36,36,26,18,16,99,,132,129,22,13,11,12,0.4,0.4
2025-07-03T2200,1620A,118.2794,34.9976,临沂市,新光毛纺厂,,34,34,24,22,18,99,,136,133,26,15,9,11,0.4,0.4
2025-07-03T2200,1621A,118.3956,35.0888,临沂市,河东保险公司,,35,17,24,8,10,110,,148,146,23,15,6,7,0.5,0.5
2025-07-03T2200,3370A,118.3564,35.0215,临沂市,十里堡居委,,33,27,25,17,14,103,,149,146,27,19,10,9,0.5,0.5
2025-07-03T2200,3496A,118.3604,35.1084,临沂市,南坊新区,,36,36,28,9,9,103,,133,131,21,13,9,9,0.5,0.5
2025-07-03T2200,3860A,118.3920,35.0300,临沂市,皇山花园小区,,,27,27,17,19,96,,141,137,17,13,9,10,,0.8
2025-07-03T2200,1870A,109.4856,24.3895,柳州市,柳东小学,,23,18,15,16,9,72,,92,89,9,8,13,5,0.4,0.4
2025-07-03T2200,1871A,109.4157,24.3277,柳州市,环保监测站,,27,27,18,7,11,41,,88,77,24,10,7,9,0.4,0.3
2025-07-03T2200,1872A,109.389,24.341,柳州市,河西水厂,,30,30,20,12,11,43,,87,78,25,12,8,4,0.6,0.4
2025-07-03T2200,1873A,109.4311,24.2921,柳州市,市四中,,32,32,21,8,2,23,,91,78,35,15,8,7,0.7,0.5
2025-07-03T2200,1874A,109.4006,24.3631,柳州市,市九中,,46,46,26,12,7,44,,89,79,29,10,4,7,0.5,0.5
2025-07-03T2200,1875A,109.4958,24.3134,柳州市,古亭山,,13,10,19,9,7,25,,94,75,24,11,4,5,0.5,0.5
2025-07-03T2200,3402A,109.5422,24.3996,柳州市,市二中,,42,,19,29,12,31,,101,85,32,12,12,8,0.7,0.5
2025-07-03T2200,2307A,116.5079,31.737,六安市,监测大楼,,29,26,19,20,12,75,,82,76,6,6,4,5,0.6,0.4
2025-07-03T2200,2308A,116.4738,31.7643,六安市,皖西学院,,36,36,14,14,11,73,,85,71,3,3,2,2,0.2,0.2
2025-07-03T2200,2309A,116.4996,31.7905,六安市,朝阳厂,,23,18,14,16,11,71,,75,69,11,8,9,10,0.4,0.3
2025-07-03T2200,2310A,116.5567,31.7886,六安市,开发区,,41,41,23,19,18,71,,86,75,8,7,4,4,0.4,0.4
2025-07-03T2200,2576A,104.8,26.5892,六盘水市,窑上,,14,14,23,7,12,22,,52,46,2,3,3,3,0.3,0.3
2025-07-03T2200,2577A,104.83,26.5917,六盘水市,黄土坡,,16,16,7,3,4,44,,56,54,6,6,8,8,0.3,0.3
2025-07-03T2200,2578A,104.89,26.5939,六盘水市,水钢,,16,11,14,8,6,49,,58,57,3,3,10,9,0.3,0.3
2025-07-03T2200,2579A,104.8475,26.5894,六盘水市,民中,,14,12,7,3,1,44,,56,54,6,4,8,8,0.3,0.3
2025-07-03T2200,2580A,104.9544,26.5506,六盘水市,双水,,13,6,3,3,5,40,,54,52,6,4,9,9,0.3,0.3
2025-07-03T2200,2335A,117.0189,25.1181,龙岩市,龙岩师专,,,,,,,,,,,,,,,,
2025-07-03T2200,2336A,117.0217,25.1033,龙岩市,龙岩市监测站,,,,28,11,14,112,,110,110,18,11,12,6,0.5,0.4
2025-07-03T2200,2337A,117.0258,25.0661,龙岩市,闽西职业技术学院,,42,42,30,15,13,105,,103,103,14,8,16,10,0.6,0.5
2025-07-03T2200,2338A,117.0196,25.0306,龙岩市,龙岩学院,,34,,24,12,14,107,,109,109,11,9,10,7,0.7,0.6
2025-07-03T2200,2665A,105.0822,33.3261,陇南市,汉王镇固水子,,,,,,,,,,,,,,,,
2025-07-03T2200,2885A,104.9339,33.3826,陇南市,滨江中学,,,28,25,8,9,77,,82,80,,6,,4,0.4,0.5
2025-07-03T2200,3247A,104.955,33.371,陇南市,市总工会,,41,41,28,7,6,83,,89,88,5,6,8,8,0.4,0.4
2025-07-03T2200,2487A,111.9589,27.8901,娄底市,电视发射台,,22,22,20,12,6,20,,60,43,6,7,6,6,0.6,0.6
2025-07-03T2200,2488A,111.9975,27.725,娄底市,市监测站,,17,8,19,8,12,53,,77,73,12,11,11,11,0.2,0.3
2025-07-03T2200,2489A,112.0194,27.7314,娄底市,市委党校,,19,19,21,12,12,60,,79,74,9,9,13,11,0.3,0.3
2025-07-03T2200,2490A,111.9561,27.7569,娄底市,涟钢,,18,7,24,3,11,34,,78,72,36,16,15,5,0.8,0.9
2025-07-03T2200,2491A,111.9892,27.7044,娄底市,市政府,,20,20,19,10,15,58,,82,77,6,4,6,5,0.6,0.5
2025-07-03T2200,1893A,105.4324,28.9634,泸州市,九狮山,,46,46,24,25,20,97,,108,81,12,12,5,6,0.5,0.3
2025-07-03T2200,1894A,105.4427,28.9063,泸州市,小市上码头,,50,50,20,23,6,101,,103,88,16,11,1,2,0.5,0.4
2025-07-03T2200,1895A,105.4241,28.8573,泸州市,兰田宪桥,颗粒物(PM10),51,52,24,23,12,101,,115,101,9,11,7,7,0.8,0.5
2025-07-03T2200,1896A,105.4379,28.8833,泸州市,市环监站,细颗粒物(PM2.5),52,49,19,36,12,105,,102,87,12,11,3,4,0.8,0.6
2025-07-03T2200,4272A,105.3689,28.7783,泸州市,纳溪中医医院,,50,45,43,35,26,94,,137,126,12,18,4,5,0.5,0.5
2025-07-03T2200,2183A,111.1406,37.5211,吕梁市,环保局,颗粒物(PM10),55,59,17,16,11,23,,81,69,37,18,4,4,0.8,0.6
2025-07-03T2200,2185A,111.1297,37.5136,吕梁市,自来水公司,,47,47,16,13,8,27,,74,64,28,13,1,2,0.7,0.6
2025-07-03T2200,2867A,111.1283,37.51,吕梁市,马茂庄小学,颗粒物(PM10),61,71,22,18,10,13,,74,60,41,21,3,2,0.5,0.5
2025-07-03T2200,1812A,112.3931,34.6516,洛阳市,市委党校,,25,20,21,9,11,78,,100,80,13,9,6,7,0.5,0.5
2025-07-03T2200,1815A,112.494,34.6886,洛阳市,河南林校,,30,24,26,14,12,93,,118,103,16,11,6,8,0.5,0.4
2025-07-03T2200,1816A,112.3844,34.623,洛阳市,开发区管委会,,28,22,23,10,12,88,,113,86,9,7,12,15,0.5,0.5
2025-07-03T2200,1817A,112.4267,34.6258,洛阳市,市委新办公区,,25,24,22,16,15,78,,102,82,13,11,9,14,0.4,0.4
2025-07-03T2200,3340A,112.6005,34.6326,洛阳市,伊滨,,27,27,28,7,10,84,,111,98,10,9,3,4,0.4,0.4
2025-07-03T2200,3341A,112.4951,34.6332,洛阳市,中移产业园,,23,19,19,11,14,72,,98,80,14,8,7,8,0.6,0.6
2025-07-03T2200,3593A,112.5736,34.8993,洛阳市,吉利监测站,,35,35,29,9,15,88,,126,105,6,9,4,6,0.4,0.5
2025-07-03T2200,3635A,112.3677,34.662,洛阳市,河科大西苑校区,,27,24,21,10,12,86,,112,88,10,7,8,12,0.6,0.6
2025-07-03T2200,3636A,112.4388,34.6781,洛阳市,英才小学,,25,17,17,10,12,80,,101,83,9,7,8,9,0.5,0.5
2025-07-03T2200,4214A,112.4600,34.6949,洛阳市,春都路1号院,,25,21,24,3,7,80,,108,90,10,6,6,5,0.5,0.6
2025-07-03T2200,2399A,114.051,33.5699,漯河市,三五一五工厂,,20,19,18,14,9,48,,110,90,26,16,6,5,0.5,0.4
2025-07-03T2200,2400A,114.0055,33.5698,漯河市,漯河大学,,20,20,17,3,4,45,,104,87,29,19,5,4,0.3,0.3
2025-07-03T2200,2401A,114.0138,33.5828,漯河市,市水利局,,16,12,11,7,5,49,,98,82,19,14,4,4,0.4,0.4
2025-07-03T2200,2402A,114.0261,33.5698,漯河市,市广电局,,18,15,16,9,7,55,,110,95,20,14,2,2,0.4,0.4
2025-07-03T2200,3478A,113.9749,33.5664,漯河市,市图书馆,,14,,27,3,8,43,,98,81,24,16,4,4,0.3,0.3
2025-07-03T2200,4250A,114.0892,33.5882,漯河市,韶山路11号,颗粒物(PM10),54,57,25,9,8,44,,114,95,31,18,3,3,0.5,0.4
2025-07-03T2200,1798A,118.5092,31.6837,马鞍山市,湖东路四小,,29,26,41,19,23,92,,152,130,7,8,8,9,0.5,0.6
2025-07-03T2200,1799A,118.5024,31.6449,马鞍山市,开发区,颗粒物(PM10),68,86,81,29,28,54,,169,124,39,25,5,7,0.6,0.7
2025-07-03T2200,1802A,118.6245,31.7241,马鞍山市,濮塘,,29,28,42,19,25,92,,181,145,6,9,7,8,0.7,0.8
2025-07-03T2200,3633A,118.4918,31.6809,马鞍山市,雨山,,38,38,41,16,21,84,,132,113,10,16,6,5,0.6,0.7
2025-07-03T2200,4191A,118.5274,31.72227,马鞍山市,慈湖高新区,,46,46,40,23,23,74,,145,118,25,18,6,8,0.4,0.6
2025-07-03T2200,1686A,111.0286,21.4688,茂名市,电白南海,,35,27,21,24,12,34,,70,61,14,9,5,3,0.5,0.3
2025-07-03T2200,1687A,110.9294,21.6533,茂名市,茂石化七小,,48,48,24,27,10,19,,49,33,25,12,21,7,0.7,0.5
2025-07-03T2200,1688A,110.9107,21.6687,茂名市,健康路,,34,34,18,17,9,34,,56,40,17,12,16,9,0.6,0.5
2025-07-03T2200,1689A,110.8592,21.6828,茂名市,高岭,颗粒物(PM10),52,53,31,27,9,8,,45,23,25,15,16,12,0.5,0.5
2025-07-03T2200,3450A,111.01,21.5165,茂名市,电白水东,,,24,19,17,8,42,,67,60,,9,8,8,0.4,0.3
2025-07-03T2200,2539A,104.0308,30.0478,眉山市,黑龙滩水库,,30,30,42,7,10,24,,42,33,10,13,2,2,0.5,0.6
2025-07-03T2200,2540A,103.8416,30.0874,眉山市,气象局,,15,6,20,3,7,45,,59,50,15,18,1,3,0.4,0.5
2025-07-03T2200,3137A,103.8578,30.0744,眉山市,市委党校,,,,15,,7,,,52,43,17,18,7,6,0.4,0.6
2025-07-03T2200,3148A,103.8291,30.0564,眉山市,区人社局,,28,28,30,7,5,43,,59,48,18,22,12,11,0.6,0.6
2025-07-03T2200,1690A,116.1231,24.3284,梅州市,梅江月梅,,30,27,32,21,22,76,,96,88,7,7,8,8,0.6,0.6
2025-07-03T2200,1691A,116.0797,24.2719,梅州市,梅县新城,颗粒物(PM10),88,125,35,16,18,80,,103,97,9,7,8,7,0.6,0.6
2025-07-03T2200,1692A,116.1248,24.2654,梅州市,环境监控中心,,35,35,34,23,20,61,,94,79,20,14,5,4,0.5,0.5
2025-07-03T2200,3315A,116.1233,24.2991,梅州市,梅龙,,39,31,26,27,18,71,,98,88,10,7,8,9,0.6,0.6
2025-07-03T2200,1878A,104.7778,31.4741,绵阳市,富乐山,,22,22,23,11,14,16,,40,24,28,18,8,8,0.6,0.6
2025-07-03T2200,1880A,104.6697,31.4668,绵阳市,高新区自来水公司,,17,17,21,7,7,32,,35,34,15,15,6,6,0.4,0.4
2025-07-03T2200,1881A,104.7287,31.5075,绵阳市,三水厂,,,21,24,12,14,,,27,24,19,19,6,8,0.5,0.6
2025-07-03T2200,3491A,104.69,31.5322,绵阳市,西科大附属小学,,17,17,23,8,9,28,,33,30,20,16,7,7,0.4,0.5
2025-07-03T2200,3492A,104.5648,31.5343,绵阳市,安州区旅游局,,22,22,17,3,2,34,,44,32,12,11,3,3,0.5,0.5
2025-07-03T2200,4226A,104.7651,31.4531,绵阳市,绵阳市气象局,,21,21,25,8,11,24,,33,25,21,16,7,8,0.5,0.5
2025-07-03T2200,1784A,129.61,44.561,牡丹江市,环保大楼,,28,28,18,13,13,59,,105,77,19,12,2,1,0.3,0.3
2025-07-03T2200,1785A,129.6115,44.5782,牡丹江市,文化广场,,36,25,16,25,15,55,,107,78,21,13,5,5,0.4,0.4
2025-07-03T2200,1786A,129.5904,44.5963,牡丹江市,第一医院,,31,31,19,14,16,49,,110,80,23,12,6,6,0.3,0.5
2025-07-03T2200,1787A,129.6364,44.6075,牡丹江市,机车工厂,,18,18,18,7,5,55,,107,79,17,10,4,4,0.4,0.4
2025-07-03T2200,1788A,129.6386,44.5462,牡丹江市,第一中学,,25,25,18,9,8,57,,105,77,21,11,5,5,0.5,0.5
2025-07-03T2200,2531A,105.0703,29.61,内江市,市监测站,,,18,27,,22,93,,130,123,,12,5,6,0.8,0.8
2025-07-03T2200,2532A,105.0717,29.5947,内江市,东兴区政府,,32,32,23,16,13,74,,120,114,12,12,4,4,0.6,0.6
2025-07-03T2200,2533A,105.0653,29.5817,内江市,内江二中,细颗粒物(PM2.5),62,44,31,44,26,77,,116,110,14,14,7,7,0.6,0.6
2025-07-03T2200,2534A,105.0406,29.5822,内江市,内江日报社,,40,40,21,24,17,64,,111,102,14,15,3,9,0.5,0.5
2025-07-03T2200,2628A,92.0657,31.4846,那曲市,那曲监测站,,38,38,29,25,18,82,,99,98,36,16,28,21,0.7,0.5
2025-07-03T2200,4243A,92.0515,31.4787,那曲市,那曲市委宣传部,,36,11,14,6,7,113,,115,115,11,9,8,8,0.4,0.4
2025-07-03T2200,1290A,115.8931,28.6843,南昌市,省外办,,35,24,29,24,22,80,,121,108,10,21,1,1,0.5,0.5
2025-07-03T2200,1291A,115.8886,28.7003,南昌市,省林业公司,颗粒物(PM10),54,58,36,24,18,61,,136,108,24,26,9,9,0.5,0.5
2025-07-03T2200,1292A,115.8126,28.7442,南昌市,林科所,,22,22,23,7,12,63,,135,105,11,17,5,5,0.3,0.3
2025-07-03T2200,1294A,115.8518,28.687,南昌市,建工学校,,46,32,33,32,20,79,,124,110,20,23,8,8,0.7,0.6
2025-07-03T2200,1295A,115.8921,28.6424,南昌市,象湖,,25,22,27,12,14,78,,123,109,10,17,7,7,0.5,0.6
2025-07-03T2200,1296A,115.7423,28.7996,南昌市,武术学校,,39,39,26,9,15,33,,90,72,6,3,8,8,0.6,0.6
2025-07-03T2200,3046A,115.9084,28.6062,南昌市,机电学校,,39,39,36,12,18,34,,118,95,36,19,4,4,0.5,0.6
2025-07-03T2200,3690A,115.9721,28.7031,南昌市,外国语学校,,30,30,37,16,14,56,,106,92,17,18,9,10,0.4,0.7
2025-07-03T2200,4192A,115.9316,28.68677,南昌市,南京东路235号,,34,34,39,11,18,75,,118,105,12,21,4,5,0.5,0.6
2025-07-03T2200,1905A,106.056,30.8064,南充市,西山风景区,,,,,,,,,,,,,,,,
2025-07-03T2200,1906A,106.0789,30.8023,南充市,南充市委,,33,29,18,23,14,80,,105,102,12,9,6,5,0.4,0.3
2025-07-03T2200,1907A,106.1031,30.8217,南充市,南充炼油厂,,32,32,20,15,9,64,,97,92,16,8,8,6,0.3,0.2
2025-07-03T2200,4227A,106.1083,30.7884,南充市,梨树横街98号,,28,28,16,9,7,75,,104,98,10,9,5,4,0.3,0.2
2025-07-03T2200,4304A,106.1172,30.843,南充市,清泉寺北路188号,,42,32,17,29,10,66,,93,90,10,6,7,3,0.4,0.3
2025-07-03T2200,4305A,106.067,30.7616,南充市,同庆路1号,,23,12,16,12,8,71,,104,98,14,9,3,4,0.5,0.4
2025-07-03T2200,1151A,118.8086,32.1065,南京市,迈皋桥,,32,18,29,14,19,102,,187,159,16,14,4,4,0.6,0.8
2025-07-03T2200,1152A,118.7538,32.0551,南京市,草场门,,30,27,36,17,20,96,,172,148,15,15,6,7,0.7,0.9
2025-07-03T2200,1153A,118.7794,32.0745,南京市,山西路,,31,29,39,7,14,97,,185,158,2,4,4,5,0.3,0.4
2025-07-03T2200,1154A,118.7752,32.0023,南京市,中华门,,27,27,32,14,17,75,,173,144,18,12,9,10,0.6,0.8
2025-07-03T2200,1155A,118.8109,32.0309,南京市,瑞金路,,27,22,32,17,21,84,,180,151,28,14,6,7,0.2,0.3
2025-07-03T2200,1156A,118.7997,32.0754,南京市,玄武湖,,27,27,37,14,13,68,,165,137,15,13,5,5,0.5,0.6
2025-07-03T2200,1157A,118.6414,32.0931,南京市,浦口,,29,29,34,18,16,66,,130,105,14,13,3,5,0.2,0.3
2025-07-03T2200,1158A,118.7356,31.9996,南京市,奥体中心,,29,27,37,14,21,91,,171,147,16,17,3,6,0.3,0.5
2025-07-03T2200,1159A,118.9125,32.1028,南京市,仙林大学城,,31,31,41,7,14,83,,158,134,15,10,7,6,0.5,0.6
2025-07-03T2200,3422A,118.8436,31.9198,南京市,江宁彩虹桥,,35,,34,14,20,109,,169,146,16,12,4,4,0.5,0.6
2025-07-03T2200,3427A,118.8554,32.3578,南京市,六合雄州,,27,27,37,14,19,70,,149,114,16,18,4,5,0.7,0.8
2025-07-03T2200,4249A,118.8708,31.3402,南京市,汶溪路181号,,36,19,26,16,18,115,,122,114,13,13,6,4,0.5,0.5
2025-07-03T2200,4312A,119.019,31.6512,南京市,中山西路1号,,45,36,26,26,19,143,,125,112,17,12,4,4,0.6,0.6
2025-07-03T2200,1401A,108.3103,22.7881,南宁市,二十一中,,14,,22,9,10,44,,64,56,9,10,3,3,0.4,0.3
2025-07-03T2200,1402A,108.3141,22.8528,南宁市,北湖,,,,21,14,11,42,,77,72,14,14,4,6,0.4,0.4
2025-07-03T2200,1403A,108.3206,22.8225,南宁市,市监测站,,24,24,19,12,10,40,,64,56,11,12,6,7,0.5,0.5
2025-07-03T2200,1404A,108.3829,22.8037,南宁市,大自然花园,,20,20,22,13,11,52,,78,70,7,9,4,4,0.4,0.5
2025-07-03T2200,1405A,108.4394,22.7904,南宁市,仙葫,,23,23,22,12,13,51,,70,65,12,11,3,6,0.6,0.5
2025-07-03T2200,1406A,108.2397,22.8467,南宁市,区农职院,,23,21,23,16,10,38,,80,68,18,16,3,3,0.4,0.5
2025-07-03T2200,1407A,108.3275,22.735,南宁市,英华嘉园,,23,23,19,6,9,50,,74,63,15,12,7,7,0.4,0.4
2025-07-03T2200,3401A,108.4834,22.7618,南宁市,红星社区,,25,25,26,13,14,63,,76,71,4,10,1,2,0.4,0.5
2025-07-03T2200,4221A,108.2177,22.7774,南宁市,乐贤路16号,,20,17,22,14,11,33,,77,64,19,16,6,6,0.5,0.5
2025-07-03T2200,2331A,118.0966,26.6761,南平市,茫荡山,,,,,,,,,,,,,,,,
2025-07-03T2200,2332A,118.1681,26.6369,南平市,南平市监测站,,27,10,16,3,11,86,,85,85,3,6,5,6,0.4,0.4
2025-07-03T2200,2333A,118.1825,26.6489,南平市,南平铝业有限公司,,,25,18,11,9,,,82,82,4,8,4,5,,0.5
2025-07-03T2200,2334A,118.1756,26.6272,南平市,南平七中,,28,17,17,8,9,87,,88,88,2,5,4,5,0.4,0.5
2025-07-03T2200,1168A,120.9098,31.9663,南通市,狼山街道,,43,43,33,19,16,81,,187,161,30,22,5,6,0.7,0.7
2025-07-03T2200,1169A,120.86,32.0005,南通市,虹桥,,34,34,30,18,19,80,,194,163,42,26,3,4,0.6,0.6
2025-07-03T2200,1170A,120.87,32.02,南通市,城中,,40,40,39,12,17,81,,168,146,27,19,4,4,0.5,0.5
2025-07-03T2200,1171A,120.94,31.93,南通市,星湖花园,,41,41,30,19,19,71,,191,153,46,28,4,5,0.4,0.5
2025-07-03T2200,1172A,120.81,32.0417,南通市,紫琅学院,,41,41,36,12,14,85,,169,114,37,27,6,7,0.5,0.6
2025-07-03T2200,3291A,121.067,32.062,南通市,通州监测站,,31,31,27,14,13,80,,186,164,17,12,6,7,0.7,0.7
2025-07-03T2200,3432A,120.9348,31.9883,南通市,环境教育馆,,,36,37,13,13,,,212,203,36,22,4,4,0.2,0.3
2025-07-03T2200,2404A,112.5224,33.0122,南阳市,瓦房庄,,,,24,,6,,,113,109,,10,,6,,0.3
2025-07-03T2200,2405A,112.5003,32.9735,南阳市,汉画馆,,26,26,21,3,5,79,,108,98,12,9,5,6,0.4,0.4
2025-07-03T2200,2406A,112.5573,33.027,南阳市,气象站,,26,19,11,7,6,81,,112,105,12,8,5,6,0.3,0.3
2025-07-03T2200,2407A,112.5481,32.9689,南阳市,理工学院,,28,26,18,19,11,57,,106,94,29,15,6,6,0.3,0.3
2025-07-03T2200,4008A,112.5234,32.9922,南阳市,卧龙区政府,,25,25,23,11,8,74,,111,96,18,12,4,5,0.4,0.4
2025-07-03T2200,1234A,121.8358,29.911,宁波市,区环保大楼,,22,22,23,10,11,67,,87,76,4,5,3,3,0.4,0.4
2025-07-03T2200,1235A,121.56,29.82,宁波市,万里学院,,22,22,22,8,12,65,,95,84,11,9,3,2,0.4,0.4
2025-07-03T2200,1236A,121.713,29.9572,宁波市,龙赛医院,,24,24,24,8,9,67,,92,79,11,8,3,3,0.4,0.4
2025-07-03T2200,1239A,121.633,29.7733,宁波市,钱湖水厂,,21,17,17,9,12,66,,90,82,1,2,4,4,0.3,0.3
2025-07-03T2200,1240A,121.5856,29.8635,宁波市,太古小学,,21,18,22,10,9,67,,92,78,6,5,4,4,0.4,0.4
2025-07-03T2200,1241A,121.524,29.8674,宁波市,市环境监测中心,,24,24,24,13,8,62,,95,82,11,10,7,6,0.4,0.4
2025-07-03T2200,2871A,121.6147,29.9017,宁波市,万里国际学校,,23,20,18,11,10,72,,99,86,7,5,3,3,0.3,0.3
2025-07-03T2200,3710A,121.5594,29.8975,宁波市,白沙活动中心,,23,18,18,8,9,72,,100,86,4,5,3,3,0.3,0.3
2025-07-03T2200,2339A,119.5001,26.6946,宁德市,金涵水库,,,,,,,,,,,,,,,,
2025-07-03T2200,2341A,119.5388,26.6612,宁德市,宁德市监测站,,21,14,21,9,12,67,,87,73,6,6,4,5,0.4,0.4
2025-07-03T2200,3209A,119.5231,26.6562,宁德市,宁德一中,,22,12,20,6,12,70,,89,75,1,3,3,5,0.4,0.4
2025-07-03T2200,2618A,98.8601,25.8567,怒江傈僳族自治州,州监测站,,16,11,19,11,12,36,,57,47,7,7,6,7,0.4,0.4
2025-07-03T2200,2619A,98.8546,25.8417,怒江傈僳族自治州,泸水一中,,10,,17,7,8,15,,40,32,10,10,5,6,0.3,0.3
2025-07-03T2200,1888A,101.6891,26.571,攀枝花市,弄弄坪,颗粒物(PM10),51,52,53,11,18,24,,69,53,31,22,38,39,1.9,1
2025-07-03T2200,1889A,101.5769,26.5928,攀枝花市,河门口,,,,28,9,14,30,,72,58,6,14,4,20,,1.2
2025-07-03T2200,1890A,101.7169,26.585,攀枝花市,炳草岗,,36,36,48,7,18,48,,65,55,16,21,30,42,0.8,1
2025-07-03T2200,1891A,101.7369,26.5008,攀枝花市,仁和,,19,19,20,12,13,31,,57,51,16,10,8,15,0.6,0.5
2025-07-03T2200,2835A,101.7227,26.567,攀枝花市,四十中小,,30,30,40,15,22,46,,72,60,18,18,27,59,0.8,1
2025-07-03T2200,1604A,122.0303,41.1489,盘锦市,开发区,,24,,12,13,4,75,,95,93,18,18,6,6,0.7,0.7
2025-07-03T2200,1605A,122.0485,41.0883,盘锦市,兴隆台,,22,13,13,6,7,70,,87,84,16,15,1,1,0.4,0.4
2025-07-03T2200,1606A,121.8297,41.1028,盘锦市,新生街道,,24,13,11,6,5,76,,101,96,10,10,5,5,0.5,0.5
2025-07-03T2200,1832A,113.3257,33.742,平顶山市,新华旅馆,,25,,9,17,13,75,,117,109,17,10,3,3,0.2,0.2
2025-07-03T2200,1833A,113.2919,33.737,平顶山市,规划设计院,,26,26,17,10,8,70,,110,101,18,10,5,5,0.5,0.5
2025-07-03T2200,1834A,113.182,33.774,平顶山市,平顶山工学院,,27,22,13,9,5,84,,122,114,18,9,5,5,0.4,0.4
2025-07-03T2200,3204A,113.3025,33.73,平顶山市,规划局,,,27,16,8,6,,,116,115,20,11,4,3,0.3,0.3
2025-07-03T2200,3594A,112.8867,33.9116,平顶山市,石龙区,,31,28,15,13,10,98,,120,118,14,9,8,7,0.4,0.4
2025-07-03T2200,2656A,106.6692,35.5461,平凉市,聚贤嘉苑,,34,34,33,10,10,37,,75,67,16,14,6,10,0.8,0.9
2025-07-03T2200,2657A,106.7021,35.5307,平凉市,博物馆,,36,36,30,9,5,29,,82,69,29,13,12,11,0.7,0.8
2025-07-03T2200,2347A,114.0997,27.5002,萍乡市,武功山,,16,,4,6,4,49,,70,66,5,4,14,13,0.8,0.7
2025-07-03T2200,2348A,113.8385,27.6434,萍乡市,中医院,,24,24,24,16,10,60,,87,85,6,8,11,12,0.7,0.8
2025-07-03T2200,2349A,113.8493,27.6253,萍乡市,市政府车库,,29,29,16,3,18,41,,77,75,14,9,8,8,0.5,0.5
2025-07-03T2200,2350A,113.8676,27.6435,萍乡市,市环保局,,35,24,22,24,13,54,,86,83,12,13,6,6,0.7,0.8
2025-07-03T2200,2351A,113.866,27.6198,萍乡市,安源区政府,,,45,26,21,12,56,,84,83,,5,,8,0.5,0.6
2025-07-03T2200,2319A,119.0141,25.4325,莆田市,荔城区仓后路,,19,19,22,3,11,54,,83,70,6,5,4,4,0.5,0.4
2025-07-03T2200,2320A,119.0015,25.4553,莆田市,莆田市监测站,,22,22,20,7,9,57,,87,75,8,8,4,4,0.3,0.3
2025-07-03T2200,2321A,119.1119,25.4561,莆田市,涵江区六中,,24,24,24,9,11,56,,80,68,6,6,3,3,0.3,0.3
2025-07-03T2200,2322A,119.1013,25.3215,莆田市,秀屿区政府,,18,16,26,6,12,55,,80,70,7,6,3,4,0.4,0.4
2025-07-03T2200,2323A,118.981,25.4792,莆田市,东圳水库,,,,,,,,,,,,,,,,
2025-07-03T2200,2392A,115.0312,35.7636,濮阳市,环保局,,26,26,22,3,8,64,,124,107,19,9,4,3,0.5,0.4
2025-07-03T2200,2394A,115.0574,35.7609,濮阳市,油田运输公司,,,36,27,6,9,,,94,,,9,3,3,0.0,0.2
2025-07-03T2200,3021A,115,35.7668,濮阳市,濮水河管理处,,25,25,21,9,10,51,,116,88,25,12,3,3,0.4,0.4
2025-07-03T2200,4216A,115.0924,35.7686,濮阳市,任丘路479号,,38,38,30,10,8,60,,120,101,24,10,6,5,0.3,0.3
2025-07-03T2200,2601A,100.98,22.7633,普洱市,市环保局,,23,23,20,6,7,29,,44,41,6,4,4,4,0.5,0.4
2025-07-03T2200,2602A,100.9817,22.8322,普洱市,普洱第二中学,,22,15,28,15,11,26,,46,43,7,6,6,6,0.4,0.4
2025-07-03T2200,2262A,131.0518,45.8751,七台河市,新一中,,30,23,22,15,13,96,,120,110,16,11,12,10,0.8,0.8
2025-07-03T2200,3345A,131.0577,45.7879,七台河市,中波台,,25,12,16,7,8,78,,89,82,14,12,7,8,0.5,0.4
2025-07-03T2200,3637A,131.0176,45.7761,七台河市,人民广场,,34,34,25,16,13,75,,85,78,13,11,13,13,0.7,0.6
2025-07-03T2200,3684A,130.8781,45.8222,七台河市,新建矿广场,,24,,12,15,8,74,,94,84,15,11,9,10,0.3,0.4
2025-07-03T2200,1779A,123.9305,47.3636,齐齐哈尔市,安居小区,,38,33,23,26,10,100,,106,99,14,15,3,3,0.7,0.6
2025-07-03T2200,1780A,123.9488,47.3386,齐齐哈尔市,中心广场,,33,21,26,12,5,104,,119,108,13,12,7,7,0.5,0.4
2025-07-03T2200,1781A,123.9483,47.3227,齐齐哈尔市,农牧车辆厂,,30,29,26,13,9,95,,110,100,13,11,6,6,0.1,0.1
2025-07-03T2200,1783A,123.945,47.2988,齐齐哈尔市,市环境监测站,,32,26,20,13,6,101,,118,110,12,12,6,5,0.3,0.3
2025-07-03T2200,3662A,123.6333,47.2075,齐齐哈尔市,富区青少年活动中心,,30,24,26,17,14,96,,111,106,10,15,4,5,0.5,0.5
2025-07-03T2200,2591A,107.9783,26.5747,黔东南苗族侗族自治州,市环境监测站,,11,,9,7,7,35,,44,41,6,3,2,3,0.4,0.4
2025-07-03T2200,2881A,107.8908,26.5311,黔东南苗族侗族自治州,凯里学院,,12,7,6,7,5,37,,53,51,9,6,2,4,0.3,0.2
2025-07-03T2200,2593A,107.5228,26.2403,黔南布依族苗族自治州,小围寨,,8,7,5,3,1,23,,44,39,5,3,4,2,0.3,0.3
2025-07-03T2200,3538A,107.5175,26.2978,黔南布依族苗族自治州,沙坝,,14,7,9,3,0,22,,42,35,6,3,5,4,1.4,0.7
2025-07-03T2200,2589A,104.9022,25.0925,黔西南布依族苗族自治州,场坝街,,14,12,12,6,7,42,,48,46,5,4,4,4,0.2,0.2
2025-07-03T2200,2590A,104.8811,25.0992,黔西南布依族苗族自治州,坪东大道,,12,9,14,3,7,36,,42,40,7,7,2,1,0.0,0
2025-07-03T2200,2502A,108.6236,21.9667,钦州市,市环保站,,16,12,19,7,6,51,,77,75,13,8,3,2,0.4,0.4
2025-07-03T2200,2503A,108.6549,21.9481,钦州市,沙埠小学,,15,,25,10,13,48,,81,78,15,11,1,3,0.4,0.4
2025-07-03T2200,2504A,108.5989,21.7431,钦州市,港区一小,,37,37,32,10,10,35,,64,59,29,13,2,2,0.5,0.5
2025-07-03T2200,3404A,108.5959,21.9633,钦州市,北职校,,21,21,25,6,12,40,,72,68,13,9,3,4,0.4,0.4
2025-07-03T2200,1043A,119.7493,40.0116,秦皇岛市,第一关,,29,20,18,9,9,90,,87,78,5,7,4,4,0.3,0.2
2025-07-03T2200,1044A,119.5897,39.9499,秦皇岛市,监测站,,31,31,28,7,6,97,,94,81,13,12,3,3,0.4,0.4
2025-07-03T2200,1046A,119.5251,39.9041,秦皇岛市,建设大厦,,28,28,14,6,7,88,,84,74,9,7,3,3,0.4,0.4
2025-07-03T2200,3132A,119.610547,39.943889,秦皇岛市,文明里,,33,33,19,8,9,95,,87,79,9,10,3,3,0.1,0.2
2025-07-03T2200,4198A,119.5090,39.8253,秦皇岛市,北戴河轮滑馆,,34,34,23,11,6,99,,93,90,6,7,1,1,0.3,0.3
2025-07-03T2200,1307A,120.6659,36.2403,青岛市,仰口,,45,38,38,26,21,144,,162,162,5,6,7,8,0.7,0.6
2025-07-03T2200,1310A,120.4134,36.0658,青岛市,市南区东部子站,,35,29,31,17,17,110,,159,149,1,3,9,8,0.2,0.2
2025-07-03T2200,1311A,120.3664,36.1032,青岛市,四方区子站,,40,31,35,19,22,126,,189,170,7,8,11,11,0.2,0.3
2025-07-03T2200,1312A,120.2994,36.054,青岛市,市南区西部子站,,32,31,35,12,18,100,,143,134,13,16,7,8,0.6,0.6
2025-07-03T2200,1313A,120.4581,36.0858,青岛市,崂山区子站,,39,39,32,14,17,100,,129,124,3,3,7,7,0.3,0.3
2025-07-03T2200,1315A,120.3999,36.3083,青岛市,城阳区子站,,45,34,41,17,19,141,,195,183,9,12,6,6,0.4,0.5
2025-07-03T2200,1966A,120.0405,35.8735,青岛市,黄岛区4号,,45,31,38,14,18,142,,197,184,10,15,8,10,0.6,0.6
2025-07-03T2200,3362A,120.5014,36.4034,青岛市,即墨2号,臭氧1小时,60,34,43,24,22,168,,194,192,6,9,2,2,0.3,0.3
2025-07-03T2200,3642A,120.3503,36.0736,青岛市,市北区南部,,30,30,28,14,18,93,,132,121,8,8,5,5,0.5,0.6
2025-07-03T2200,3643A,120.3948,36.1805,青岛市,李沧区北部,,42,,35,29,25,118,,178,165,4,8,3,5,0.6,0.7
2025-07-03T2200,4290A,120.1969,35.9546,青岛市,珠江路669号,,36,31,30,20,19,115,,155,144,5,5,6,6,0.5,0.4
2025-07-03T2200,1702A,113.0426,23.691,清远市,环保大楼,,48,48,38,14,14,64,,123,111,22,15,6,6,0.7,0.6
2025-07-03T2200,1703A,113.0208,23.7106,清远市,凤城街办,,25,25,26,14,12,67,,110,98,16,20,7,6,0.5,0.4
2025-07-03T2200,3025A,113.0477,23.6344,清远市,技师学院,颗粒物(PM10),55,59,31,28,13,61,,119,109,28,19,8,7,0.5,0.5
2025-07-03T2200,3318A,112.9903,23.7403,清远市,清新太和,,,,28,,12,,,50,,,14,,8,,0.5
2025-07-03T2200,3455A,113.076,23.7198,清远市,清城东城,,,24,23,10,13,,,110,105,13,10,5,7,0.6,0.4
2025-07-03T2200,2661A,107.6325,35.7357,庆阳市,庆阳五中,,23,13,9,6,6,71,,76,75,5,5,5,5,0.4,0.4
2025-07-03T2200,2662A,107.6364,35.7067,庆阳市,市环保局,,25,13,13,6,4,77,,63,,3,3,8,8,0.4,0.4
2025-07-03T2200,1916A,103.7897,25.5035,曲靖市,环境监测站,,27,27,13,3,5,31,,56,47,10,8,3,4,0.3,0.4
2025-07-03T2200,1917A,103.8,25.5364,曲靖市,烟厂办公区,,23,,10,16,6,37,,58,52,7,5,5,4,0.4,0.3
2025-07-03T2200,3376A,103.7947,25.462,曲靖市,南苑二区,,14,11,8,6,5,42,,60,54,6,6,4,4,0.3,0.3
2025-07-03T2200,3377A,103.7444,25.5261,曲靖市,曲靖师范学院,,15,15,10,6,5,38,,51,47,5,7,5,6,0.2,0.3
2025-07-03T2200,1264A,118.8692,28.9398,衢州市,环保大楼,颗粒物(PM10),51,51,32,26,16,85,,127,120,23,15,4,4,0.4,0.4
2025-07-03T2200,1265A,118.8709,28.9666,衢州市,实验学校,,46,46,27,27,17,104,,139,132,20,13,5,5,0.2,0.1
2025-07-03T2200,1266A,118.8621,28.9808,衢州市,衢州学院,,46,46,28,25,16,96,,139,128,27,17,4,4,0.3,0.3
2025-07-03T2200,1611A,118.5819,24.9117,泉州市,涂山街,,30,30,28,11,12,54,,97,80,8,7,3,3,0.6,0.6
2025-07-03T2200,1612A,118.5972,24.8978,泉州市,津头埔,,,32,31,12,16,52,,97,78,11,8,,2,,0.5
2025-07-03T2200,1613A,118.6663,24.9424,泉州市,万安,,31,31,31,9,14,50,,92,73,9,6,4,3,0.4,0.4
2025-07-03T2200,1614A,118.6117,24.9604,泉州市,清源山,,,,,,,,,,,,,,,,
2025-07-03T2200,3529A,118.6333,24.9264,泉州市,城华南路,,22,22,34,10,14,50,,93,74,7,5,5,4,0.4,0.4
2025-07-03T2200,2626A,88.8876,29.2718,日喀则市,日喀则监测站,,32,11,7,3,2,101,,77,77,6,6,13,14,0.3,0.3
2025-07-03T2200,3726A,88.8781,29.2426,日喀则市,林业技术推广中心,,32,10,14,3,5,101,,71,71,3,3,8,9,0.2,0.3
2025-07-03T2200,1659A,119.471,35.4209,日照市,监测站,,48,48,44,26,28,96,,147,129,27,21,5,6,0.5,0.6
2025-07-03T2200,1660A,119.523,35.4216,日照市,市政府广场,颗粒物(PM10),52,53,53,23,26,90,,156,129,40,29,7,8,0.8,0.9
2025-07-03T2200,1661A,119.5587,35.4044,日照市,港务局,,,44,65,28,38,,,93,,28,30,6,5,0.7,0.8
2025-07-03T2200,3507A,119.5328,35.4625,日照市,职业技术学院,,48,48,51,22,27,114,,180,161,21,22,4,6,0.7,0.8
2025-07-03T2200,3604A,119.3266,35.1044,日照市,岚山环保分局,,38,24,36,14,18,120,,155,150,14,20,6,8,0.7,0.8
2025-07-03T2200,1835A,111.1922,34.7752,三门峡市,市政府,,16,16,29,7,11,42,,98,70,16,14,3,4,0.4,0.5
2025-07-03T2200,1836A,111.1587,34.7942,三门峡市,开发区,,24,24,28,12,15,49,,101,74,12,11,4,6,0.3,0.2
2025-07-03T2200,1838A,111.143,34.7955,三门峡市,风景区,,16,16,32,3,16,48,,93,71,5,6,3,4,0.3,0.3
2025-07-03T2200,3039A,111.1911,34.7829,三门峡市,三门峡市第一小学,,22,22,32,8,16,49,,100,75,16,14,4,5,0.4,0.5
2025-07-03T2200,3598A,111.1,34.7167,三门峡市,富达温泉假日酒店,,22,22,26,3,11,29,,107,69,9,13,6,7,0.3,0.4
2025-07-03T2200,2324A,117.6211,26.2625,三明市,三钢,,38,28,21,26,15,46,,91,76,19,12,4,5,0.7,0.8
2025-07-03T2200,2325A,117.635,26.2714,三明市,三明二中,,,23,19,13,16,60,,83,76,13,12,2,2,,0.6
2025-07-03T2200,2326A,117.6028,26.2378,三明市,三元区政府,,24,24,22,3,9,50,,94,79,20,14,2,4,0.6,0.6
2025-07-03T2200,2327A,117.7275,26.3108,三明市,洋溪,,,,,,,,,,,,,,,,
2025-07-03T2200,1876A,109.5078,18.2489,三亚市,河东子站,,11,,8,3,4,34,,43,40,7,4,2,2,0.5,0.5
2025-07-03T2200,1877A,109.4964,18.2681,三亚市,河西子站,,10,,12,3,5,31,,43,39,6,6,2,2,0.4,0.4
2025-07-03T2200,3540A,109.7348,18.3443,三亚市,君悦子站,,15,15,12,7,7,21,,49,42,10,6,2,2,0.3,0.3
2025-07-03T2200,2624A,91.7608,29.2313,山南市,山南监测站,,24,6,7,3,3,74,,64,64,6,8,3,4,0.3,0.2
2025-07-03T2200,2625A,91.7706,29.2436,山南市,山南人民医院,,25,9,10,6,5,78,,64,64,3,8,4,5,0.2,0.3
2025-07-03T2200,1674A,116.6794,23.3667,汕头市,金平子站,,20,12,19,6,8,63,,90,79,6,7,3,4,0.6,0.6
2025-07-03T2200,1675A,116.7244,23.3633,汕头市,龙湖子站,,20,11,19,3,8,63,,85,76,4,5,5,6,0.5,0.5
2025-07-03T2200,1676A,116.7258,23.2775,汕头市,濠江子站,,21,19,21,9,10,65,,83,74,3,5,4,5,0.6,0.5
2025-07-03T2200,1677A,116.7519,23.4714,汕头市,澄海子站,,21,19,21,3,10,67,,89,77,6,6,2,3,0.5,0.5
2025-07-03T2200,1678A,116.6092,23.2539,汕头市,潮阳子站,,23,15,23,3,7,72,,98,86,2,3,4,5,0.4,0.4
2025-07-03T2200,3444A,116.454,23.2684,汕头市,潮南峡山,,23,23,23,14,15,58,,98,83,7,5,5,5,0.5,0.5
2025-07-03T2200,3624A,116.4069,23.2533,汕头市,潮南子站,,31,31,29,12,13,57,,96,83,8,7,4,4,0.5,0.5
2025-07-03T2200,1693A,115.3653,22.775,汕尾市,市环保局,,27,20,24,12,12,85,,92,92,9,9,2,3,0.5,0.4
2025-07-03T2200,1694A,115.3706,22.7898,汕尾市,市政府,,,21,24,3,11,85,,96,95,,7,3,4,0.5,0.5
2025-07-03T2200,1695A,115.3622,22.7925,汕尾市,新城中学,,24,22,23,13,14,74,,91,90,10,7,4,4,0.4,0.4
2025-07-03T2200,2645A,109.9154,33.8715,商洛市,监测站,,20,20,24,10,13,20,,71,48,17,11,8,6,0.5,0.4
2025-07-03T2200,3045A,109.9643,33.8471,商洛市,商州区中学,,31,31,29,9,10,10,,64,39,29,13,6,3,0.5,0.4
2025-07-03T2200,2408A,115.6702,34.4285,商丘市,环境监测站,,29,29,23,13,10,81,,117,112,11,7,3,3,0.1,0.3
2025-07-03T2200,2409A,115.6458,34.4045,商丘市,粮食局,,28,25,27,10,13,87,,125,118,7,4,2,2,0.4,0.4
2025-07-03T2200,2410A,115.6293,34.3948,商丘市,睢阳区环保局,颗粒物(PM10),70,89,35,14,11,75,,118,108,13,8,2,2,0.2,0.2
2025-07-03T2200,3171A,115.6071,34.4465,商丘市,梁园区档案局,,25,22,25,12,11,80,,118,112,8,8,1,2,0.4,0.4
2025-07-03T2200,1141A,121.4,31.238,上海市,普陀,,31,31,32,12,15,76,,140,122,14,13,6,6,0.2,0.2
2025-07-03T2200,1142A,121.478,31.2036,上海市,十五厂,,31,31,30,13,15,67,,130,112,9,7,9,8,0.5,0.5
2025-07-03T2200,1143A,121.467,31.3008,上海市,虹口,,31,31,31,14,14,62,,126,110,16,9,11,9,0.6,0.6
2025-07-03T2200,1147A,121.425,31.2261,上海市,静安监测站,,26,26,28,12,15,64,,122,107,14,12,6,5,0.4,0.4
2025-07-03T2200,1148A,121.703,31.1907,上海市,浦东川沙,,,31,29,,13,,,123,115,,11,,8,,0.8
2025-07-03T2200,1149A,121.533,31.2284,上海市,浦东新区监测站,,28,28,26,8,10,64,,128,109,15,8,9,8,0.3,0.4
2025-07-03T2200,1150A,121.577,31.2071,上海市,浦东张江,,46,46,36,11,13,73,,132,114,13,10,7,6,0.7,0.7
2025-07-03T2200,3265A,121.4316,31.3322,上海市,宝山庙行,,,,32,,14,71,,139,125,12,10,7,6,0.5,0.2
2025-07-03T2200,3266A,121.8791,31.4662,上海市,崇明上实东滩,,25,25,25,10,12,68,,114,94,10,10,3,3,0.7,0.7
2025-07-03T2200,3268A,121.3162,31.2838,上海市,嘉定南翔,,38,38,34,10,15,64,,135,112,15,13,9,8,0.3,0.3
2025-07-03T2200,3269A,121.3359,30.7456,上海市,金山新城,,28,28,29,13,14,70,,136,109,18,16,3,4,0.7,0.7
2025-07-03T2200,3270A,121.4996,31.0739,上海市,闵行浦江,,27,27,28,11,13,67,,126,107,9,7,5,4,0.6,0.6
2025-07-03T2200,3271A,121.2886,31.1663,上海市,青浦徐泾,,32,32,28,12,14,67,,137,118,13,10,6,6,0.4,0.4
2025-07-03T2200,3272A,121.2186,31.0378,上海市,松江图书馆,,24,24,25,12,13,60,,142,119,14,7,7,7,0.4,0.4
2025-07-03T2200,3273A,121.3902,31.2059,上海市,长宁仙霞,,26,26,32,10,12,66,,131,111,12,13,5,7,0.3,0.4
2025-07-03T2200,3274A,121.7965,31.0507,上海市,浦东惠南,,27,27,28,10,13,57,,116,93,22,17,8,9,0.7,0.6
2025-07-03T2200,3544A,121.4891,30.925,上海市,奉贤南桥新城,,,26,29,10,14,,,129,110,12,8,7,7,,0.9
2025-07-03T2200,4183A,121.4174,31.16637,上海市,冠生园路458号,,,42,30,12,17,,,123,113,13,12,5,4,,0.4
2025-07-03T2200,4205A,121.5419,31.2683,上海市,宁武路151号,,32,32,37,17,15,63,,123,105,19,16,7,7,0.4,0.4
2025-07-03T2200,2381A,118.005,28.4572,上饶市,百草园,,,,,,,,,,,,,,,,
2025-07-03T2200,2382A,117.9756,28.4436,上饶市,市监测站,,22,20,29,15,17,67,,102,86,8,11,2,8,0.5,0.6
2025-07-03T2200,2383A,117.9519,28.4628,上饶市,凤凰光学,,,36,20,24,15,,,110,103,,16,7,12,1.0,0.9
2025-07-03T2200,3685A,117.897,28.4315,上饶市,双创科技城,,36,36,32,16,13,45,,112,88,52,23,6,9,0.9,0.8
2025-07-03T2200,4211A,118.1904,28.4448,上饶市,裕丰大道,,38,38,20,16,10,34,,85,65,17,8,5,6,0.6,0.6
2025-07-03T2200,1669A,113.5824,24.7733,韶关市,市八中,,28,28,29,14,13,76,,113,101,20,17,10,12,0.7,0.6
2025-07-03T2200,1671A,113.5917,24.7972,韶关市,园林处,,38,38,27,17,12,75,,114,102,16,15,13,13,0.5,0.5
2025-07-03T2200,1673A,113.5971,24.6863,韶关市,曲江监测站,,46,36,23,32,14,56,,104,93,20,19,7,10,0.8,0.7
2025-07-03T2200,2809A,113.6668,24.7756,韶关市,大学路288号,细颗粒物(PM2.5),58,,35,41,19,47,,114,90,13,13,6,12,0.7,0.9
2025-07-03T2200,3622A,113.5556,24.8082,韶关市,碧湖山庄,,32,32,26,15,13,86,,118,108,15,12,10,9,0.5,0.5
2025-07-03T2200,2462A,111.5239,27.3033,邵阳市,市水土所,,,,,,,,,,,,,,,,
