timepoint,stationcode,longitude,latitude,area,positionname,primarypollutant,aqi,pm10,pm10_24h,pm2_5,pm2_5_24h,o3,o3_24h,o3_8h,o3_8h_24h,no2,no2_24h,so2,so2_24h,co,co_24h
2025-12-11T1900,2566A,102.1879,31.914,阿坝藏族羌族自治州,州农科所,,,,,,,,,,,,,,,,
2025-12-11T1900,2568A,102.2502,31.8896,阿坝藏族羌族自治州,马师校,,38,38,16,26,14,27,27,51,49,32,17,5,5,0.7,0.5
2025-12-11T1900,3994A,102.2165,31.9024,阿坝藏族羌族自治州,马尔康中学西区,,,19,13,15,10,38,38,66,65,31,13,,6,0.8,0.6
2025-12-11T1900,2695A,80.292,41.1694,阿克苏地区,电视台,颗粒物(PM10),500,657,236,51,72,56,56,61,61,29,55,4,8,0.0,1
2025-12-11T1900,2696A,80.2613,41.1551,阿克苏地区,艺术中心,颗粒物(PM10),420,520,213,50,82,60,60,59,59,,60,4,6,0.3,1.3
2025-12-11T1900,2204A,105.6467,38.8363,阿拉善盟,西城区西花园,,,,,,,,,,,,,,,,
2025-12-11T1900,2205A,105.6985,38.8411,阿拉善盟,蒙二幼,颗粒物(PM10),500,716,103,129,26,54,54,77,65,19,15,10,10,0.7,0.6
2025-12-11T1900,2206A,105.724,38.8516,阿拉善盟,环保局新楼,颗粒物(PM10),307,425,68,113,21,66,66,84,63,11,7,10,9,0.7,0.6
2025-12-11T1900,2708A,88.1264,47.8517,阿勒泰地区,市站,,18,18,20,3,10,34,34,30,30,22,32,3,4,0.2,0.3
2025-12-11T1900,2630A,80.1161,32.5,阿里地区,阿里监测站,,,,3,,3,84,84,55,,2,12,7,10,0.4,0.6
2025-12-11T1900,3192A,80.0903,32.5028,阿里地区,阿里藏医院,,27,6,16,3,9,86,86,76,76,2,9,7,11,0.4,0.6
2025-12-11T1900,2642A,109.0318,32.6537,安康市,香溪洞,,,,,,,,,,,,,,,,
2025-12-11T1900,2644A,109.0072,32.6975,安康市,汉滨区检察院,细颗粒物(PM2.5),88,112,65,65,41,104,104,64,64,16,22,6,4,0.7,0.6
2025-12-11T1900,4054A,109.0325,32.6913,安康市,市邮政管理局,细颗粒物(PM2.5),94,110,78,70,49,67,67,52,52,37,29,6,4,1.2,0.9
2025-12-11T1900,2291A,117.0809,30.5177,安庆市,环科院,细颗粒物(PM2.5),144,136,121,110,98,122,122,132,132,22,54,7,7,0.9,0.9
2025-12-11T1900,2292A,117.0331,30.5119,安庆市,马山宾馆,细颗粒物(PM2.5),138,146,121,105,93,124,124,133,133,27,58,6,7,1.0,1.1
2025-12-11T1900,2294A,116.9896,30.6145,安庆市,安庆大学,细颗粒物(PM2.5),143,145,130,109,96,133,133,136,136,16,46,9,9,0.9,1
2025-12-11T1900,3173A,117.0598,30.5351,安庆市,市人大,细颗粒物(PM2.5),143,144,130,109,100,125,125,136,136,29,58,7,8,0.7,0.8
2025-12-11T1900,3122A,105.9606,26.2611,安顺市,伍家关,,,,43,,31,,,47,,,17,,30,,0.9
2025-12-11T1900,3123A,105.9408,26.2431,安顺市,凤凰山,细颗粒物(PM2.5),54,44,45,38,41,77,77,82,82,16,18,14,24,0.4,0.5
2025-12-11T1900,3124A,105.9439,26.2564,安顺市,金钟山,细颗粒物(PM2.5),52,43,44,36,38,77,77,82,82,16,15,23,26,0.8,0.8
2025-12-11T1900,3125A,105.8983,26.2481,安顺市,娄家坡,,48,40,43,33,39,83,83,85,85,12,14,10,18,0.6,0.7
2025-12-11T1900,1818A,114.4839,36.0621,安阳市,棉研所,,,,,,,,,,,,,,,,
2025-12-11T1900,1819A,114.3551,36.1017,安阳市,红庙街,细颗粒物(PM2.5),115,118,174,87,134,27,27,42,42,41,73,3,7,0.6,1
2025-12-11T1900,1820A,114.361,36.0681,安阳市,银杏小区,细颗粒物(PM2.5),127,120,180,96,142,27,27,43,43,31,61,1,6,0.6,1
2025-12-11T1900,3141A,114.3922,36.0878,安阳市,信访局,细颗粒物(PM2.5),129,129,183,98,136,28,28,44,44,32,66,2,7,0.7,1
2025-12-11T1900,3669A,114.4705,36.0637,安阳市,左辅环卫站,细颗粒物(PM2.5),114,138,202,86,142,34,34,45,45,30,59,3,5,0.7,1
2025-12-11T1900,3703A,114.2917,36.0949,安阳市,安钢职工学校,细颗粒物(PM2.5),127,124,197,96,139,28,28,44,44,35,72,1,9,0.9,1.3
2025-12-11T1900,1748A,123.044,41.1196,鞍山市,深沟寺,,40,40,56,21,31,29,29,51,47,27,20,8,8,0.6,0.6
2025-12-11T1900,1749A,123.011,41.0931,鞍山市,太阳城,,35,35,60,15,35,38,38,55,51,19,18,12,12,0.5,0.6
2025-12-11T1900,1750A,123.0485,41.1442,鞍山市,太平,颗粒物(PM10),63,76,57,34,32,22,22,49,43,34,18,33,10,0.9,0.7
2025-12-11T1900,1751A,122.9642,41.0971,鞍山市,铁西三道街,,,37,65,11,34,38,38,48,46,21,29,12,24,,2.4
2025-12-11T1900,1753A,123.022,41.0821,鞍山市,明达新区,,32,32,51,13,31,30,30,45,42,20,16,11,10,0.7,0.7
2025-12-11T1900,1754A,123.1289,41.0228,鞍山市,千山,,,,61,,33,,,36,,,19,,5,,0.5
2025-12-11T1900,4201A,122.9446,41.0826,鞍山市,兴盛南路290号,,34,34,63,10,32,36,36,52,48,27,26,13,12,1.5,1.4
2025-12-11T1900,2195A,107.4212,40.761,巴彦淖尔市,附二中,颗粒物(PM10),83,116,79,41,32,30,30,46,46,32,19,8,9,0.8,0.6
2025-12-11T1900,2196A,107.37,40.7372,巴彦淖尔市,市环保大楼,颗粒物(PM10),74,97,70,37,31,37,37,55,54,36,20,6,7,0.8,0.6
2025-12-11T1900,1956A,86.1472,41.7538,巴音郭楞蒙古自治州,孔雀公园,颗粒物(PM10),263,394,154,37,39,52,52,59,59,27,36,6,11,0.4,0.6
2025-12-11T1900,1957A,86.1972,41.7166,巴音郭楞蒙古自治州,棉纺厂,颗粒物(PM10),232,372,242,38,22,57,57,69,68,18,24,5,7,0.4,0.6
2025-12-11T1900,1958A,86.2357,41.7173,巴音郭楞蒙古自治州,经济开发区,颗粒物(PM10),133,215,239,8,16,60,60,70,68,12,15,4,6,0.6,0.4
2025-12-11T1900,2914A,106.7677,31.8794,巴中市,苏山坪,,,,,,,,,,,,,,,,
2025-12-11T1900,3181A,106.7768,31.8526,巴中市,市五中,细颗粒物(PM2.5),89,88,87,66,66,38,38,57,57,34,22,5,5,1.0,1.1
2025-12-11T1900,3183A,106.7418,31.8654,巴中市,圣泉水务公司,细颗粒物(PM2.5),97,84,80,72,64,6,6,57,56,67,31,6,5,1.1,0.9
2025-12-11T1900,3616A,106.7616,31.8344,巴中市,市中心医院,细颗粒物(PM2.5),98,90,83,73,68,12,12,52,52,56,25,6,6,1.5,1.3
2025-12-11T1900,2235A,122.7911,45.6077,白城市,洮北区环保局,,,,30,,13,,,48,,,11,,5,,0.1
2025-12-11T1900,2236A,122.8738,45.5725,白城市,市环保局,颗粒物(PM10),54,58,30,23,14,31,31,47,42,18,7,4,4,0.3,0.2
2025-12-11T1900,2231A,126.4219,41.9171,白山市,喜丰,,42,42,43,12,23,46,46,57,55,18,16,10,9,0.4,0.5
2025-12-11T1900,2232A,126.4077,41.9419,白山市,环保局,,33,25,28,23,28,36,36,58,55,21,14,9,7,0.6,0.7
2025-12-11T1900,2647A,104.1724,36.5446,白银市,第三小学,颗粒物(PM10),473,573,138,53,49,66,66,70,70,18,46,10,33,0.4,1
2025-12-11T1900,2648A,104.1465,36.5482,白银市,动力公司,颗粒物(PM10),435,535,122,64,44,68,68,78,78,16,32,5,17,0.6,1.4
2025-12-11T1900,2512A,106.6103,23.9011,百色市,市监测站,细颗粒物(PM2.5),84,81,74,62,53,45,45,63,63,36,25,13,10,1.1,0.9
2025-12-11T1900,2513A,106.6538,23.8859,百色市,市中心血站,细颗粒物(PM2.5),93,80,85,69,65,65,65,69,69,30,38,12,10,0.9,1.1
2025-12-11T1900,3406A,106.6085,23.8798,百色市,祈福高中,细颗粒物(PM2.5),95,113,91,71,58,30,30,50,50,53,32,11,8,1.0,0.9
2025-12-11T1900,2270A,117.396,32.939,蚌埠市,工人疗养院,细颗粒物(PM2.5),142,156,180,108,116,49,49,83,83,24,46,4,7,0.7,0.8
2025-12-11T1900,2271A,117.3605,32.9427,蚌埠市,百货大楼,细颗粒物(PM2.5),139,149,170,106,119,44,44,79,78,27,48,5,8,0.7,0.9
2025-12-11T1900,2273A,117.4185,32.8911,蚌埠市,蚌埠学院,细颗粒物(PM2.5),142,144,172,108,118,44,44,81,80,34,53,5,8,0.7,0.8
2025-12-11T1900,2274A,117.3533,32.9673,蚌埠市,淮上区政府,细颗粒物(PM2.5),134,144,174,102,120,51,51,83,83,23,47,7,11,0.7,0.8
2025-12-11T1900,2275A,117.3145,32.8977,蚌埠市,高新区,细颗粒物(PM2.5),149,153,183,114,130,50,50,85,84,22,57,6,8,0.8,0.9
2025-12-11T1900,3715A,117.3092,32.9314,蚌埠市,蚌埠田家炳中学,细颗粒物(PM2.5),165,158,199,125,132,50,50,84,83,25,62,,35,0.7,0.8
2025-12-11T1900,1585A,109.8756,40.6532,包头市,市环境监测站,颗粒物(PM10),61,72,44,33,17,25,25,59,58,61,34,18,12,1.0,0.7
2025-12-11T1900,1587A,109.9991,40.5842,包头市,包头八中,细颗粒物(PM2.5),77,89,53,56,32,31,31,61,60,56,39,17,12,1.0,0.9
2025-12-11T1900,1588A,109.8538,40.6821,包头市,青山宾馆,,46,45,30,32,24,25,25,59,58,63,30,10,9,0.8,0.6
2025-12-11T1900,1589A,109.8642,40.6288,包头市,惠龙物流,颗粒物(PM10),61,72,41,29,21,51,51,65,65,35,30,12,11,0.7,0.8
2025-12-11T1900,1590A,110.0377,40.5546,包头市,东河鸿龙湾,细颗粒物(PM2.5),64,68,53,46,23,32,32,65,64,57,37,8,9,0.6,0.7
2025-12-11T1900,3283A,109.9154,40.5685,包头市,滨河大厦,颗粒物(PM10),61,71,49,42,27,40,40,66,66,39,39,8,10,0.6,0.7
2025-12-11T1900,3419A,109.9447,40.6261,包头市,包头市委党校,颗粒物(PM10),57,64,39,36,21,14,14,60,58,76,36,16,11,1.0,0.7
2025-12-11T1900,3683A,109.8331,40.6576,包头市,昆区政府,细颗粒物(PM2.5),64,66,40,46,25,40,40,64,64,57,30,16,10,0.8,0.6
2025-12-11T1900,1930A,107.185,34.3063,宝鸡市,庙沟村,,,,,,,,,,,,,,,,
2025-12-11T1900,1931A,107.0708,34.3017,宝鸡市,竹园沟,细颗粒物(PM2.5),115,111,60,87,42,64,64,84,84,28,19,8,8,0.8,0.5
2025-12-11T1900,1932A,107.1906,34.3672,宝鸡市,三陆医院,细颗粒物(PM2.5),113,127,104,85,57,51,51,84,84,62,42,8,8,0.7,0.6
2025-12-11T1900,1933A,107.1431,34.3547,宝鸡市,监测站,细颗粒物(PM2.5),134,130,82,102,58,50,50,78,78,45,32,6,6,0.7,0.5
2025-12-11T1900,1934A,107.1186,34.3739,宝鸡市,技工学校,细颗粒物(PM2.5),110,130,89,83,55,61,61,83,83,49,26,12,9,0.9,0.7
2025-12-11T1900,1936A,107.2058,34.3497,宝鸡市,文理学院,细颗粒物(PM2.5),115,110,86,87,58,42,42,83,83,63,34,6,7,1.0,0.7
2025-12-11T1900,1937A,107.2386,34.3622,宝鸡市,三迪小学,细颗粒物(PM2.5),105,133,100,79,63,66,66,85,85,48,40,8,6,1.1,0.9
2025-12-11T1900,4308A,107.3898,34.3601,宝鸡市,陈仓区北开路21号,细颗粒物(PM2.5),120,142,118,91,67,70,70,76,76,36,41,10,30,1.0,0.9
2025-12-11T1900,1051A,115.493,38.8632,保定市,游泳馆,,,58,118,26,82,,,42,42,17,60,1,7,0.2,0.7
2025-12-11T1900,1052A,115.5213,38.8959,保定市,华电二区,,,45,112,38,95,,,43,43,20,53,2,6,0.2,0.7
2025-12-11T1900,1053A,115.4713,38.9108,保定市,接待中心,,,68,124,30,89,42,42,41,41,17,59,,4,,0.9
2025-12-11T1900,1054A,115.4612,38.8416,保定市,地表水厂,颗粒物(PM10),53,55,128,21,82,47,47,51,51,24,57,4,7,0.2,0.7
2025-12-11T1900,3581A,115.31981,38.95208,保定市,满城区生态环境分局,颗粒物(PM10),51,51,129,19,85,41,41,38,38,27,62,6,8,0.2,0.8
2025-12-11T1900,3582A,115.47694,38.76408,保定市,清苑区第二中学,颗粒物(PM10),55,59,144,24,83,35,35,38,38,25,59,2,7,0.4,1
2025-12-11T1900,3583A,115.62909,39.02311,保定市,徐水物探局,颗粒物(PM10),56,62,154,31,94,41,41,41,41,22,50,2,7,0.4,1
2025-12-11T1900,4004A,115.4202,38.8656,保定市,双鹰农机,颗粒物(PM10),53,55,145,29,84,49,49,49,49,20,55,4,7,0.2,0.7
2025-12-11T1900,4034A,115.5150,38.8590,保定市,植保所站,颗粒物(PM10),57,64,123,38,88,40,40,41,41,18,54,6,7,0.6,1.1
2025-12-11T1900,2594A,99.1678,25.1081,保山市,市环境监测站,,30,22,24,21,16,80,80,84,84,7,10,6,6,0.3,0.4
2025-12-11T1900,2595A,99.1711,25.1328,保山市,市环保局,,28,28,26,19,18,82,82,85,85,5,7,4,4,0.4,0.5
2025-12-11T1900,1866A,109.2262,21.588,北海市,牛尾岭水库,,32,,61,22,55,58,58,70,70,6,11,9,8,0.4,0.5
2025-12-11T1900,1867A,109.1436,21.4086,北海市,海滩公园,,46,46,66,29,43,79,79,93,93,17,16,11,11,0.9,0.8
2025-12-11T1900,1868A,109.0981,21.4661,北海市,新市环保局,颗粒物(PM10),51,52,67,27,50,74,74,89,89,19,22,11,14,0.8,0.9
2025-12-11T1900,1869A,109.1778,21.5233,北海市,北海工业园,,43,43,78,27,55,67,67,80,80,14,21,11,13,0.6,0.7
2025-12-11T1900,3400A,109.1911,21.4415,北海市,龙潭自来水厂,,50,50,74,33,60,66,66,86,86,18,18,9,9,1.0,1
2025-12-11T1900,1001A,116.3621,39.8784,北京市,万寿西宫,颗粒物(PM10),53,56,74,33,45,33,33,37,37,31,41,4,5,0.7,0.7
2025-12-11T1900,1002A,116.2202,40.2915,北京市,定陵,,,,,,,,,,,,,,,,
2025-12-11T1900,1003A,116.4174,39.9289,北京市,东四,,50,50,71,28,42,37,37,39,39,24,39,6,7,0.7,0.8
2025-12-11T1900,1004A,116.4072,39.8863,北京市,天坛,,50,50,72,29,45,35,35,37,37,25,42,3,3,0.6,0.7
2025-12-11T1900,1005A,116.462,39.9365,北京市,农展馆,,48,48,72,24,44,36,36,40,40,23,37,6,6,0.9,1
2025-12-11T1900,1006A,116.3392,39.9295,北京市,官园,颗粒物(PM10),51,52,71,31,44,31,31,38,31,30,41,5,5,0.7,0.7
2025-12-11T1900,1007A,116.2878,39.9611,北京市,海淀万柳,颗粒物(PM10),51,52,69,33,44,28,28,34,30,34,45,5,5,0.9,0.9
2025-12-11T1900,1008A,116.6636,40.135,北京市,顺义新城,,50,50,56,27,34,27,27,58,55,33,29,7,7,0.7,0.5
2025-12-11T1900,1009A,116.6275,40.3275,北京市,怀柔镇,,24,24,38,13,23,45,45,60,56,22,27,6,6,0.5,0.6
2025-12-11T1900,1010A,116.2296,40.217,北京市,昌平镇,,21,21,40,11,25,47,47,60,52,13,22,5,6,0.5,0.6
2025-12-11T1900,1011A,116.3966,39.9821,北京市,奥体中心,,50,50,73,28,42,38,38,38,38,33,50,6,6,0.8,0.9
2025-12-11T1900,3281A,115.9718,40.4529,北京市,延庆夏都,,18,17,84,10,57,55,55,57,57,12,34,2,3,0.3,0.9
2025-12-11T1900,3418A,116.8336,40.4095,北京市,密云新城,,19,8,37,3,22,60,60,60,60,6,18,2,4,0.3,0.4
2025-12-11T1900,3671A,116.088,39.9726,北京市,门头沟三家店,颗粒物(PM10),56,62,56,35,36,24,24,50,27,35,27,5,4,0.8,0.6
2025-12-11T1900,3672A,116.1541,39.8204,北京市,丰台云岗,细颗粒物(PM2.5),65,58,72,47,44,29,29,38,38,36,41,6,7,0.7,0.6
2025-12-11T1900,3673A,116.6804,39.9081,北京市,通州东关,,49,49,93,25,56,26,26,39,39,34,50,5,6,0.6,0.8
2025-12-11T1900,3674A,115.9577,39.7603,北京市,房山燕山,颗粒物(PM10),61,71,85,38,47,27,27,57,35,36,38,5,6,0.7,0.7
2025-12-11T1900,3675A,116.4672,39.7733,北京市,大兴旧宫,颗粒物(PM10),57,64,90,29,46,26,26,41,40,35,47,6,7,0.7,0.8
2025-12-11T1900,3694A,115.986,40.4563,北京市,延庆石河营,,19,19,84,10,54,54,54,56,56,10,34,4,4,0.3,0.8
2025-12-11T1900,3695A,116.6151,40.3053,北京市,怀柔新城,,22,22,43,14,29,41,41,60,54,26,28,3,4,0.4,0.5
2025-12-11T1900,3696A,116.2545,39.8768,北京市,丰台小屯,颗粒物(PM10),56,62,78,31,43,16,16,31,27,48,47,5,5,0.7,0.7
2025-12-11T1900,3697A,116.84,40.3844,北京市,密云镇,,17,15,40,7,24,53,53,62,61,16,23,1,3,0.3,0.5
2025-12-11T1900,4182A,116.1942,39.9158,北京市,八角北路9号,颗粒物(PM10),52,54,66,33,38,24,24,41,27,39,39,4,4,0.6,0.4
2025-12-11T1900,4194A,117.0790,40.1518,北京市,洳河巡河路,颗粒物(PM10),57,63,109,38,73,21,21,42,41,40,40,4,3,0.6,0.9
2025-12-11T1900,1761A,123.8275,41.3064,本溪市,大峪,,45,45,62,20,37,40,40,54,51,16,19,8,9,0.7,0.7
2025-12-11T1900,1762A,123.7567,41.3325,本溪市,溪湖,,41,41,75,16,37,47,47,54,53,17,19,6,7,0.7,0.8
2025-12-11T1900,1763A,123.7169,41.3094,本溪市,彩屯,颗粒物(PM10),58,66,68,39,39,21,21,50,45,39,23,7,7,1.1,1
2025-12-11T1900,1764A,123.7669,41.2864,本溪市,东明,,42,42,63,21,36,44,44,53,51,18,20,5,7,1.0,1
2025-12-11T1900,1765A,123.7992,41.2664,本溪市,新立屯,,39,39,68,16,39,38,38,49,46,12,18,6,8,0.7,0.8
2025-12-11T1900,1766A,123.8142,41.3472,本溪市,威宁,颗粒物(PM10),56,61,75,28,39,17,17,54,46,38,15,6,6,0.8,0.8
2025-12-11T1900,2587A,105.2864,27.3125,毕节市,八中,细颗粒物(PM2.5),104,90,87,78,78,71,71,77,77,23,17,13,10,1.0,0.9
2025-12-11T1900,2588A,105.31,27.2944,毕节市,师专,细颗粒物(PM2.5),97,88,84,72,66,68,68,75,75,25,20,11,10,0.8,0.9
2025-12-11T1900,4263A,105.3688,27.3598,毕节市,工业大道,细颗粒物(PM2.5),87,84,69,64,54,63,63,78,78,32,17,11,11,0.7,0.9
2025-12-11T1900,1629A,118.0018,37.3617,滨州市,第二水厂,,22,22,95,3,50,50,50,53,53,11,34,7,10,0.3,0.6
2025-12-11T1900,1630A,117.9776,37.393,滨州市,北中新校,,22,22,90,3,49,54,54,56,56,16,41,2,7,0.2,0.5
2025-12-11T1900,3514A,117.9378,37.3956,滨州市,中海酒店,,20,19,88,7,56,61,61,63,63,9,36,4,9,0.4,0.7
2025-12-11T1900,3515A,117.9378,37.3553,滨州市,开发区一中,,29,29,112,3,52,58,58,60,60,7,33,5,11,0.4,0.7
2025-12-11T1900,3516A,118.0917,37.694,滨州市,金海六路,,22,22,81,3,39,57,57,65,64,9,30,3,9,0,0.3
2025-12-11T1900,4028A,117.9956,37.3753,滨州市,滨州市西街道办事处,,19,19,92,12,55,55,55,58,58,11,31,6,9,0.2,0.5
2025-12-11T1900,2311A,115.8072,33.8399,亳州市,污水处理厂,细颗粒物(PM2.5),105,143,186,79,132,54,54,71,71,29,46,6,9,0.5,0.7
2025-12-11T1900,2312A,115.7789,33.8518,亳州市,三国揽胜宫,颗粒物(PM10),115,179,208,75,131,51,51,66,66,23,39,14,14,0.8,1
2025-12-11T1900,3332A,115.7633,33.8034,亳州市,亳州学院,细颗粒物(PM2.5),117,143,194,88,137,51,51,67,67,26,41,4,8,0.6,0.9
2025-12-11T1900,2693A,82.0485,44.8556,博尔塔拉蒙古自治州,市党校,,47,47,59,11,10,39,39,38,38,13,11,2,3,0.5,0.4
2025-12-11T1900,2694A,82.0806,44.8969,博尔塔拉蒙古自治州,市环保局,,50,50,61,14,18,36,36,38,38,19,12,3,4,0.4,0.3
2025-12-11T1900,1071A,116.8842,38.2991,沧州市,沧县城建局,,42,42,107,21,75,52,52,62,60,19,40,8,6,0.5,1
2025-12-11T1900,1072A,116.8584,38.3254,沧州市,电视转播站,,36,36,107,17,69,49,49,55,55,17,41,2,4,0.5,1.1
2025-12-11T1900,1073A,116.8709,38.3228,沧州市,市环保局,,45,45,112,27,79,42,42,49,48,10,34,2,3,0.3,0.9
2025-12-11T1900,3324A,116.8136,38.3004,沧州市,河北水利电力学院,,24,24,108,11,63,46,46,53,52,13,38,2,7,0.2,0.8
2025-12-11T1900,2622A,97.1806,31.1273,昌都市,昌都监测站,,26,22,37,8,15,81,81,68,68,10,19,4,4,0.3,0.5
2025-12-11T1900,3719A,97.1714,31.1406,昌都市,昌都会议中心,,24,8,13,3,8,76,76,68,68,1,4,1,2,0.1,0.2
2025-12-11T1900,2690A,88.1236,43.8886,昌吉回族自治州,天山天池,,,,,,,,,,,,,,,,
2025-12-11T1900,2692A,87.2717,44.0297,昌吉回族自治州,新区政务中心,,,40,24,22,14,,,44,36,35,23,8,6,,0.3
2025-12-11T1900,3613A,87.3095,44.0142,昌吉回族自治州,亚心广场,,31,31,24,12,10,23,23,44,38,29,13,8,8,0.4,0.4
2025-12-11T1900,1120A,125.2863,43.9027,长春市,客车厂,颗粒物(PM10),54,58,32,36,24,26,26,53,48,40,21,14,10,0.5,0.3
2025-12-11T1900,1121A,125.2841,43.8463,长春市,邮电学院,,39,39,34,27,22,23,23,49,44,36,21,9,10,0.5,0.4
2025-12-11T1900,1122A,125.3716,43.8772,长春市,劳动公园,,46,46,36,26,17,29,29,48,45,28,18,10,8,0.7,0.6
2025-12-11T1900,1123A,125.3297,43.8805,长春市,园林处,,,,29,,23,,,41,,,14,,8,,0.4
2025-12-11T1900,1124A,125.4605,43.79,长春市,净月潭,,40,40,29,18,21,30,30,48,46,21,15,6,7,0.4,0.3
2025-12-11T1900,1125A,125.7194,43.515,长春市,甩湾子,细颗粒物(PM2.5),84,69,36,62,27,31,31,49,44,15,12,8,6,0.8,0.5
2025-12-11T1900,1126A,125.3863,43.8447,长春市,经开区环卫处,,40,40,28,17,16,25,25,50,46,35,19,7,7,0.4,0.3
2025-12-11T1900,1127A,125.245,43.7783,长春市,高新区管委会,细颗粒物(PM2.5),53,49,34,37,19,21,21,52,47,35,21,9,7,0.7,0.5
2025-12-11T1900,1128A,125.1761,43.8325,长春市,岱山公园,细颗粒物(PM2.5),70,55,49,51,31,17,17,50,41,40,25,8,8,0.5,0.4
2025-12-11T1900,4281A,125.3346,43.9164,长春市,北亚泰大街1068号,,47,47,31,32,21,20,20,46,37,34,21,11,8,0.5,0.5
2025-12-11T1900,1335A,113.0833,28.2325,长沙市,经开区环保局,细颗粒物(PM2.5),158,128,133,120,121,109,109,128,126,36,54,7,9,0.9,1.2
2025-12-11T1900,1336A,112.8872,28.2189,长沙市,高开区环保局,细颗粒物(PM2.5),190,,154,143,149,110,110,125,125,27,64,8,8,1.2,1.7
2025-12-11T1900,1337A,113.0792,28.2053,长沙市,马坡岭,颗粒物(PM10),102,154,157,,120,110,110,132,132,33,60,7,7,0.8,1
2025-12-11T1900,1338A,112.9394,28.19,长沙市,湖南师范大学,细颗粒物(PM2.5),133,152,139,101,100,,,132,132,24,40,,3,0.7,0.9
2025-12-11T1900,1339A,113.0178,28.1322,长沙市,雨花区环保局,细颗粒物(PM2.5),160,,149,122,126,119,119,129,129,24,64,9,9,1.0,1.3
2025-12-11T1900,1340A,112.9792,28.2597,长沙市,伍家岭,细颗粒物(PM2.5),169,152,168,128,124,112,112,120,120,32,55,7,7,1.1,1.4
2025-12-11T1900,1341A,113.0014,28.1944,长沙市,火车新站,细颗粒物(PM2.5),149,164,171,114,123,122,122,132,132,30,68,9,9,1.2,1.7
2025-12-11T1900,1342A,112.9844,28.1178,长沙市,天心区环保局,细颗粒物(PM2.5),145,135,157,111,118,126,126,139,139,31,68,8,8,0.9,1.3
2025-12-11T1900,1343A,112.8908,28.1308,长沙市,湖南中医药大学,细颗粒物(PM2.5),142,148,157,108,116,105,105,137,137,31,48,8,7,1.1,1.4
2025-12-11T1900,1344A,112.9581,28.3611,长沙市,沙坪,,,,,,,,,,,,,,,,
2025-12-11T1900,1727A,113.1147,36.1547,长治市,清华站,颗粒物(PM10),57,64,80,29,60,80,80,82,82,20,37,9,14,0.5,0.9
2025-12-11T1900,1730A,113.0886,36.2125,长治市,审计局,,,51,79,36,60,79,79,80,80,,35,,14,0.5,0.8
2025-12-11T1900,1731A,113.0844,36.1856,长治市,长治八中,细颗粒物(PM2.5),73,62,101,53,74,80,80,80,80,13,32,7,12,0.6,1
2025-12-11T1900,2845A,113.1569,36.1911,长治市,德盛苑,细颗粒物(PM2.5),52,45,70,36,56,84,84,83,83,9,19,6,15,0.5,1.1
2025-12-11T1900,3568A,113.06,36.0464,长治市,向阳小学,颗粒物(PM10),65,79,116,36,69,80,80,86,86,16,32,7,14,0.6,1.1
2025-12-11T1900,3569A,112.8792,36.3144,长治市,屯留一中,,,80,86,58,54,73,73,78,78,,38,8,14,1.5,1.3
2025-12-11T1900,4189A,113.1131,36.19948,长治市,英华南巷50号,颗粒物(PM10),55,60,87,34,62,81,81,80,80,15,35,4,10,0.5,1
2025-12-11T1900,4190A,113.2367,36.3344,长治市,学府街1号,细颗粒物(PM2.5),83,67,69,61,53,64,64,79,78,20,33,6,12,1.1,1
2025-12-11T1900,1854A,111.6975,28.9703,常德市,市二中,细颗粒物(PM2.5),192,229,178,144,114,106,106,107,107,27,32,10,8,1.2,1.1
2025-12-11T1900,1857A,111.7158,29.1456,常德市,白鹤山,,,,,,,,,,,,,,,,
2025-12-11T1900,3138A,111.7153,29.0289,常德市,武陵区永安,细颗粒物(PM2.5),168,219,189,127,123,121,121,115,115,18,33,7,6,1.0,1.1
2025-12-11T1900,3139A,111.6892,28.9881,常德市,鼎城区玉霞,细颗粒物(PM2.5),221,217,174,171,135,104,104,104,104,30,36,11,9,1.0,1
2025-12-11T1900,3140A,111.6625,29.0531,常德市,武陵区长庚,细颗粒物(PM2.5),186,219,204,140,147,117,117,106,106,26,37,10,7,1.0,1.1
2025-12-11T1900,1196A,119.9633,31.762,常州市,市监测站,细颗粒物(PM2.5),143,188,143,109,83,68,68,75,75,28,64,5,11,1.1,1.1
2025-12-11T1900,1200A,119.9468,31.7069,常州市,武进监测站,细颗粒物(PM2.5),124,166,138,94,79,76,76,114,114,25,57,9,12,0.9,0.8
2025-12-11T1900,1201A,119.9255,31.9087,常州市,安家,细颗粒物(PM2.5),193,202,145,145,87,58,58,96,96,36,67,10,14,0.9,0.8
2025-12-11T1900,3002A,119.9805,31.8174,常州市,行政中心,细颗粒物(PM2.5),145,183,126,111,79,75,75,126,116,22,54,5,11,1.1,1
2025-12-11T1900,3003A,120.0522,31.7748,常州市,经开区,细颗粒物(PM2.5),133,195,149,101,78,70,70,113,113,27,54,9,15,0.9,0.9
2025-12-11T1900,3010A,119.9025,31.7964,常州市,钟楼,细颗粒物(PM2.5),140,165,131,107,85,74,74,107,107,22,56,6,11,1.1,1
2025-12-11T1900,3429A,119.8598,31.7066,常州市,武进经发区,细颗粒物(PM2.5),139,148,129,106,86,76,76,112,112,24,57,6,11,1.1,1.1
2025-12-11T1900,3430A,119.5826,31.7245,常州市,金坛城区,细颗粒物(PM2.5),145,163,125,111,89,76,76,119,119,22,39,7,12,1.1,1.1
2025-12-11T1900,2220A,120.4318,41.5881,朝阳市,西梁,,38,32,24,26,7,43,43,58,54,19,10,10,8,0.5,0.4
2025-12-11T1900,2221A,120.4521,41.5646,朝阳市,河畔小区,,18,17,23,12,6,46,46,56,54,16,10,18,6,0.5,0.4
2025-12-11T1900,2222A,120.4176,41.5648,朝阳市,八里堡,,27,27,26,16,11,43,43,56,52,18,12,10,7,0.6,0.5
2025-12-11T1900,2223A,120.3806,41.5969,朝阳市,农业园区,细颗粒物(PM2.5),79,,22,58,13,30,30,61,53,34,13,9,7,0.8,0.4
2025-12-11T1900,1705A,116.6367,23.6719,潮州市,西园路,,,,,,,,,,,,,,,,
2025-12-11T1900,3026A,116.6183,23.6608,潮州市,市政府,细颗粒物(PM2.5),55,52,53,39,35,111,111,112,112,19,16,5,7,0.5,0.5
2025-12-11T1900,4036A,116.6461,23.6761,潮州市,金山,细颗粒物(PM2.5),74,,50,54,36,115,115,116,116,19,19,5,5,0.7,0.6
2025-12-11T1900,2472A,113.0073,25.9061,郴州市,马头岭,,,,,,,,,,,,,,,,
2025-12-11T1900,2473A,113.0116,25.8226,郴州市,市职中,,,78,74,54,57,35,35,88,86,,28,10,7,,1
2025-12-11T1900,2475A,113.0383,25.8071,郴州市,市审计局,细颗粒物(PM2.5),74,67,70,54,54,47,47,92,92,40,31,9,4,1.0,0.9
2025-12-11T1900,2476A,113.0348,25.7759,郴州市,市环保局,细颗粒物(PM2.5),62,59,76,44,50,70,70,92,92,24,31,7,5,0.7,0.7
2025-12-11T1900,4252A,113.0138,25.8011,郴州市,好美居路49号,细颗粒物(PM2.5),70,,70,51,57,79,79,102,102,28,33,14,6,1.0,1.1
2025-12-11T1900,1431A,103.9728,30.7236,成都市,金泉两河,细颗粒物(PM2.5),140,118,107,107,90,18,18,33,33,57,66,4,5,0.9,1.4
2025-12-11T1900,1432A,104.176,30.6872,成都市,十里店,细颗粒物(PM2.5),134,118,119,102,89,49,49,58,58,41,60,3,3,0.9,0.9
2025-12-11T1900,1433A,104.079,30.5706,成都市,三瓦窑,细颗粒物(PM2.5),144,150,130,110,93,31,31,57,57,49,54,4,5,1.2,1.1
2025-12-11T1900,1434A,104.1114,30.63,成都市,沙河铺,细颗粒物(PM2.5),163,138,127,124,116,27,27,45,45,52,47,5,5,0.9,0.9
2025-12-11T1900,1437A,104.0786,30.6531,成都市,君平街,细颗粒物(PM2.5),163,150,148,124,110,43,43,54,54,,56,4,5,,1
2025-12-11T1900,1438A,103.613,31.0283,成都市,灵岩寺,,,,,,,,,,,,,,,,
2025-12-11T1900,2880A,104.0239,30.65639,成都市,大石西路,细颗粒物(PM2.5),144,110,100,110,91,28,28,42,41,53,59,6,6,0.9,1.1
2025-12-11T1900,3136A,104.2725,30.5589,成都市,龙泉驿区区政府,细颗粒物(PM2.5),117,117,91,88,71,26,26,62,58,40,20,5,5,0.9,0.8
2025-12-11T1900,3357A,104.0106,30.6931,成都市,金博路,细颗粒物(PM2.5),124,118,113,94,88,28,28,44,44,55,71,6,7,0.9,1.3
2025-12-11T1900,3359A,104.0578,30.5225,成都市,华阳,细颗粒物(PM2.5),122,127,114,92,86,34,34,51,51,39,49,3,4,1.0,1.1
2025-12-11T1900,3488A,104.3880,30.7467,成都市,青石路225号,细颗粒物(PM2.5),140,131,104,107,87,7,7,56,56,66,34,5,5,0.9,0.7
2025-12-11T1900,3489A,104.0789,30.4072,成都市,科学城,细颗粒物(PM2.5),149,147,106,114,83,28,28,45,45,43,38,6,6,0.9,0.8
2025-12-11T1900,4011A,103.8506,30.6947,成都市,光华大道三段,细颗粒物(PM2.5),142,129,127,108,104,46,46,55,55,40,52,3,3,1.0,1.2
2025-12-11T1900,4224A,104.2433,30.5353,成都市,鲸龙路1057号,细颗粒物(PM2.5),138,129,113,105,89,23,23,54,52,50,46,6,6,0.8,0.8
2025-12-11T1900,1062A,117.9531,40.9081,承德市,铁路,颗粒物(PM10),55,60,67,26,39,10,10,54,51,50,30,6,4,0.7,0.9
2025-12-11T1900,1063A,117.9392,40.9763,承德市,中国银行,,29,29,68,16,41,31,31,56,54,21,26,1,3,0.4,0.9
2025-12-11T1900,1064A,117.9503,40.928,承德市,开发区,,34,34,66,21,38,36,36,62,61,25,28,4,5,0.3,0.7
2025-12-11T1900,1066A,117.9268,41.0026,承德市,离宫,,,,,,,,,,,,,,,,
2025-12-11T1900,4274A,117.7994,40.9605,承德市,滨河大街98号,,25,22,62,17,39,41,41,63,59,10,24,2,3,0.3,0.8
2025-12-11T1900,2314A,117.47,30.6618,池州市,池州学院,细颗粒物(PM2.5),140,132,106,107,79,70,70,111,111,69,49,10,7,0.9,1.2
2025-12-11T1900,3237A,117.4918,30.6617,池州市,展览馆,细颗粒物(PM2.5),185,155,109,139,83,72,72,115,115,64,48,7,8,0.9,1.3
2025-12-11T1900,3333A,117.5627,30.695,池州市,第八中学,细颗粒物(PM2.5),127,138,120,96,76,62,62,112,112,75,61,7,8,1.3,1.4
2025-12-11T1900,3334A,117.5038,30.6243,池州市,第十二中学,细颗粒物(PM2.5),127,133,106,96,71,77,77,117,117,61,50,7,5,1.2,1.6
2025-12-11T1900,1744A,118.9233,42.2816,赤峰市,松山一中,,31,31,19,13,5,28,28,53,48,37,14,12,4,0.9,0.6
2025-12-11T1900,1745A,118.9576,42.2728,赤峰市,哈达街,,,95,22,7,7,34,34,56,53,26,14,20,8,,0.9
2025-12-11T1900,1746A,118.8788,42.2554,赤峰市,天义路,,,17,14,10,9,,,56,55,37,15,8,6,0.8,0.6
2025-12-11T1900,3058A,119.2658,42.0353,赤峰市,银河街,,35,35,35,12,10,33,33,62,56,28,12,13,11,0.7,0.5
2025-12-11T1900,3286A,118.9359,42.3147,赤峰市,桥北物流园区,,22,18,13,15,8,18,18,56,49,42,12,14,9,0.6,0.5
2025-12-11T1900,2521A,107.3476,22.4136,崇左市,市环保局江州分局,细颗粒物(PM2.5),103,126,85,77,51,63,63,93,89,31,28,10,8,1.0,0.8
2025-12-11T1900,4256A,107.3750,22.3736,崇左市,石景林东路7号,细颗粒物(PM2.5),105,100,67,79,55,50,50,88,88,37,28,9,9,1.2,0.9
2025-12-11T1900,2298A,118.3093,32.3153,滁州市,老年大学,细颗粒物(PM2.5),162,172,112,123,83,53,53,90,90,26,40,13,13,0.8,0.7
2025-12-11T1900,2299A,118.3244,32.2786,滁州市,人大宾馆,细颗粒物(PM2.5),172,167,130,130,100,51,51,88,88,27,45,6,7,0.8,0.8
2025-12-11T1900,3207A,118.3118,32.3038,滁州市,市政府原办公楼,细颗粒物(PM2.5),156,166,118,119,83,57,57,87,87,22,45,4,6,0.6,0.6
2025-12-11T1900,3331A,118.3267,32.2634,滁州市,图书馆,细颗粒物(PM2.5),144,173,136,110,88,54,54,87,87,21,45,6,8,0.7,0.8
2025-12-11T1900,2605A,101.5482,25.0441,楚雄彝族自治州,州环境监测站,,25,25,28,14,21,44,44,49,49,4,14,6,15,0.6,0.7
2025-12-11T1900,2606A,101.538,25.0492,楚雄彝族自治州,市经济开发区,,24,24,34,16,25,47,47,53,53,8,18,6,12,0.7,0.7
2025-12-11T1900,2548A,107.5277,31.2827,达州市,达州职业技术学院,,,,,,,,,,,,,,,,
2025-12-11T1900,2549A,107.5086,31.2186,达州市,市环境监测站,细颗粒物(PM2.5),140,163,123,107,95,,,40,40,87,37,8,7,1.7,1.1
2025-12-11T1900,2550A,107.4988,31.2132,达州市,凤凰小区,细颗粒物(PM2.5),153,193,129,117,96,6,6,40,39,92,41,8,6,2.1,1
2025-12-11T1900,2551A,107.5082,31.1986,达州市,达县机关宾馆,细颗粒物(PM2.5),172,185,131,130,99,3,3,32,30,74,40,6,4,1.9,1.2
2025-12-11T1900,2552A,107.4644,31.2124,达州市,市政中心,细颗粒物(PM2.5),138,186,140,105,95,4,4,37,37,86,37,7,7,1.7,1.1
2025-12-11T1900,2614A,100.1542,25.7054,大理白族自治州,大理市环境监测站,,29,27,20,20,19,57,57,62,61,12,9,6,6,0.5,0.6
2025-12-11T1900,2615A,100.2171,25.5811,大理白族自治州,大理古城,细颗粒物(PM2.5),73,69,28,53,18,44,44,72,71,42,18,8,7,0.8,0.5
2025-12-11T1900,1109A,121.612,38.9741,大连市,甘井子,颗粒物(PM10),52,53,103,9,46,49,49,58,56,17,33,7,10,0.3,0.4
2025-12-11T1900,1110A,121.565,38.9511,大连市,周水子,,50,50,92,12,44,46,46,57,54,18,27,3,4,0.4,0.7
2025-12-11T1900,1111A,121.5637,38.8845,大连市,星海三站,,38,38,79,9,38,46,46,54,52,16,24,6,7,0.2,0.5
2025-12-11T1900,1112A,121.6302,38.9117,大连市,青泥洼桥,,28,28,75,8,42,46,46,53,52,17,29,7,9,0.3,0.7
2025-12-11T1900,1113A,121.6251,38.8638,大连市,傅家庄,,35,35,81,8,39,45,45,51,50,12,23,7,10,0.3,0.6
2025-12-11T1900,1114A,121.5213,38.8661,大连市,七贤岭,,,,104,,49,,,55,,,23,,9,,0.8
2025-12-11T1900,1115A,121.2529,38.8061,大连市,旅顺,,20,20,70,6,40,51,51,59,57,11,20,6,6,0.2,0.5
2025-12-11T1900,1116A,121.7485,39.1311,大连市,金州,,38,38,87,10,47,44,44,55,53,16,25,9,9,0.3,0.7
2025-12-11T1900,1117A,121.7811,39.0496,大连市,开发区,,,36,85,7,41,,,52,50,15,27,10,11,0.3,0.6
2025-12-11T1900,1118A,121.9762,39.0631,大连市,双D港,,38,38,88,12,44,49,49,62,57,14,26,10,12,0.3,0.8
2025-12-11T1900,1789A,124.81117,46.03138,大庆市,大同区,,50,50,30,29,13,27,27,41,36,14,9,6,5,0.7,0.6
2025-12-11T1900,1790A,125.129,46.533,大庆市,龙凤区,,,45,37,18,17,22,22,44,39,,11,6,5,0.6,0.3
2025-12-11T1900,1791A,124.902,46.408,大庆市,红岗区,,46,46,30,16,15,35,35,50,45,22,14,6,6,0.6,0.5
2025-12-11T1900,1792A,125.153,46.586,大庆市,萨尔图区,,43,43,30,17,10,31,31,46,41,29,20,6,8,0.8,0.8
2025-12-11T1900,1793A,124.9042,46.6215,大庆市,让胡路区,,43,35,29,30,21,37,37,50,46,18,8,7,7,0.5,0.4
2025-12-11T1900,3481A,125.141,46.634,大庆市,萨区政府监测点,,46,46,29,14,8,21,21,47,40,33,16,9,8,0.5,0.3
2025-12-11T1900,1721A,113.3819,40.1097,大同市,果树场,细颗粒物(PM2.5),54,,30,38,25,65,65,72,72,13,19,7,9,0.4,0.6
2025-12-11T1900,1723A,113.2994,40.0758,大同市,云冈宾馆,,40,40,43,18,23,53,53,60,60,18,26,4,6,0.3,0.7
2025-12-11T1900,1724A,113.3444,40.0917,大同市,大同大学,颗粒物(PM10),52,54,36,22,22,62,62,67,67,16,32,3,6,0.4,0.6
2025-12-11T1900,1725A,113.2661,40.1269,大同市,安家小村,,50,50,41,22,22,45,45,58,58,24,23,8,9,0.5,0.7
2025-12-11T1900,1726A,113.2711,40.0844,大同市,教育学院,颗粒物(PM10),53,56,46,24,26,51,51,55,55,17,30,4,6,0.2,0.5
2025-12-11T1900,3282A,113.3397,40.0597,大同市,大同市卫生学校,颗粒物(PM10),51,52,34,19,21,56,56,64,64,14,21,4,6,0.2,0.6
2025-12-11T1900,3565A,113.1367,40.1122,大同市,云冈站,,47,47,72,20,37,59,59,66,66,15,34,5,9,0.3,0.8
2025-12-11T1900,3566A,113.1186,40.2556,大同市,图书馆,颗粒物(PM10),62,74,78,34,35,47,47,62,61,14,24,5,7,0.4,0.9
2025-12-11T1900,3567A,113.5931,40.0461,大同市,区一中,,43,43,39,17,24,66,66,77,76,12,14,6,7,0.4,0.6
2025-12-11T1900,4199A,113.2798,40.0997,大同市,魏都大道141号,,49,49,42,18,23,60,60,67,67,14,22,4,6,0.4,0.7
2025-12-11T1900,2269A,124.1069,50.4097,大兴安岭地区,科技局,,25,23,16,17,15,50,50,50,50,1,1,6,5,0.1,0.2
2025-12-11T1900,3663A,124.1164,50.4278,大兴安岭地区,红旗社区,,17,6,4,3,2,54,54,54,54,2,2,6,5,0.2,0.2
2025-12-11T1900,1600A,124.3303,40.0625,丹东市,江湾东路,,24,24,68,13,47,47,47,53,52,13,25,7,11,0.7,1.2
2025-12-11T1900,1601A,124.4256,40.1503,丹东市,临江后街,,29,29,60,8,33,48,48,52,52,7,19,5,7,0.4,0.8
2025-12-11T1900,1602A,124.3933,40.1461,丹东市,元宝山,,22,22,57,10,41,53,53,55,55,6,20,7,7,0.4,0.8
2025-12-11T1900,1603A,124.3633,40.1092,丹东市,民主桥,,28,28,68,3,36,47,47,54,53,11,22,8,7,0.5,0.8
2025-12-11T1900,3541A,109.5726,19.5167,儋州市,第一中学子站,颗粒物(PM10),62,73,36,35,23,72,72,62,55,11,7,3,3,0.6,0.6
2025-12-11T1900,3542A,109.5567,19.5187,儋州市,东坡学校子站,细颗粒物(PM2.5),54,,32,38,21,87,87,71,61,13,7,4,4,0.6,0.5
2025-12-11T1900,2616A,98.5842,24.428,德宏傣族景颇族自治州,德宏州监测站,颗粒物(PM10),55,59,50,36,39,60,60,78,78,32,25,9,9,1.1,0.8
2025-12-11T1900,3677A,98.5881,24.4368,德宏傣族景颇族自治州,芒市人民政府综合楼,颗粒物(PM10),55,60,47,20,26,57,57,74,74,20,15,8,8,0.6,0.6
2025-12-11T1900,1901A,104.4239,31.1208,德阳市,东山公园,细颗粒物(PM2.5),109,91,89,82,81,36,36,64,55,46,18,1,2,1.1,1
2025-12-11T1900,1902A,104.3826,31.1317,德阳市,西小区,细颗粒物(PM2.5),175,,117,132,90,6,6,43,43,46,48,5,5,1.1,1
2025-12-11T1900,1904A,104.3553,31.1091,德阳市,耐火材料厂,细颗粒物(PM2.5),192,156,111,144,93,16,16,44,44,45,50,3,3,1.2,1.2
2025-12-11T1900,3639A,104.4019,31.1244,德阳市,市教育局,细颗粒物(PM2.5),124,,89,94,83,31,31,51,51,37,50,2,2,1.0,1
2025-12-11T1900,1622A,116.3032,37.4674,德州市,儿童乐园,,44,44,155,9,95,54,54,56,56,18,53,10,12,0.6,1.2
2025-12-11T1900,1624A,116.2991,37.4451,德州市,监理站,,31,31,148,9,93,63,63,66,66,18,54,11,13,0.4,1
2025-12-11T1900,3066A,116.2721,37.4379,德州市,九衢泉纯净水厂,,34,34,147,12,92,54,54,57,57,13,52,18,14,0.8,1.5
2025-12-11T1900,3371A,116.3728,37.4403,德州市,开发区人民医院,,31,31,151,14,92,58,58,61,61,18,58,10,12,0.5,1.1
2025-12-11T1900,3511A,116.5652,37.3319,德州市,陵城艺术中心,,34,34,146,12,85,52,52,55,55,24,57,14,14,0.4,0.9
2025-12-11T1900,4292A,116.3525,37.4209,德州市,新河东路,,31,31,154,12,93,56,56,57,57,21,70,9,12,0.4,1
2025-12-11T1900,2621A,99.7056,27.8317,迪庆藏族自治州,迪庆州站,,33,33,30,16,17,82,82,88,88,14,13,5,5,0.6,0.6
2025-12-11T1900,3180A,99.7136,27.8094,迪庆藏族自治州,质量技术监督局,,25,24,35,16,23,80,80,86,86,15,20,7,7,0.4,0.6
2025-12-11T1900,4257A,104.6092,35.5962,定西市,将台街,颗粒物(PM10),60,69,79,33,38,55,55,70,70,26,30,11,14,0.3,0.6
2025-12-11T1900,4309A,104.6159,35.5701,定西市,正龙路62号,颗粒物(PM10),63,75,95,39,40,61,61,70,70,18,20,25,22,1.4,1
2025-12-11T1900,1389A,113.7547,23.0494,东莞市,莞城梨川,,44,44,74,27,46,84,84,130,130,39,50,5,6,0.5,0.6
2025-12-11T1900,1390A,113.7944,23.0128,东莞市,东城石井,,41,41,64,26,41,112,112,134,134,18,46,7,9,0.6,0.7
2025-12-11T1900,1391A,113.7383,22.9658,东莞市,南城西平,颗粒物(PM10),51,52,75,34,46,135,135,143,143,36,65,7,8,0.7,0.9
2025-12-11T1900,3319A,113.7338,23.0381,东莞市,万江金泰,,47,47,81,32,50,94,94,129,129,28,50,6,7,0.7,0.8
2025-12-11T1900,3626A,113.7533,23.0202,东莞市,南城元岭,,48,48,73,31,46,105,105,142,142,35,51,7,8,0.7,0.7
2025-12-11T1900,3627A,113.7875,23.0457,东莞市,东城主山,颗粒物(PM10),56,62,84,36,47,96,96,135,135,40,55,7,7,0.7,0.7
2025-12-11T1900,1666A,118.6614,37.4309,东营市,市环保局,,19,19,71,3,37,60,60,60,60,14,27,5,10,0.4,0.6
2025-12-11T1900,3036A,118.6904,37.4338,东营市,开发区管委会,,22,22,70,3,37,67,67,67,67,9,25,6,9,0.2,0.4
2025-12-11T1900,3365A,118.5719,37.565,东营市,垦利区民丰路,,19,19,70,7,39,59,59,61,60,12,25,3,4,0.6,0.8
2025-12-11T1900,3498A,118.5055,37.8612,东营市,河口城区,,,27,79,,37,,,65,65,14,29,6,7,0.4,0.6
2025-12-11T1900,3646A,118.4978,37.4623,东营市,胜利站,,21,21,88,7,44,57,57,57,57,15,36,8,13,0.7,0.9
2025-12-11T1900,3734A,118.35,37.26,东营市,理想之城,,22,22,81,12,43,52,52,54,54,19,32,2,6,0.4,0.6
2025-12-11T1900,1591A,110.0023,39.8129,鄂尔多斯市,综合楼,颗粒物(PM10),54,58,41,31,18,13,13,55,49,63,28,8,8,0.5,0.5
2025-12-11T1900,1592A,109.9486,39.8261,鄂尔多斯市,巴音孟克林场办事处,颗粒物(PM10),60,70,46,31,21,39,39,56,56,37,27,9,7,0.4,0.3
2025-12-11T1900,1593A,109.7736,39.5986,鄂尔多斯市,康泽苑,,48,48,40,27,20,37,37,56,56,41,24,8,8,0.5,0.4
2025-12-11T1900,1594A,109.8119,39.5989,鄂尔多斯市,华泰汽车城,,44,44,43,24,22,37,37,56,56,41,28,5,4,0.6,0.4
2025-12-11T1900,1595A,109.9734,39.7884,鄂尔多斯市,奥林花园,颗粒物(PM10),59,68,52,29,17,25,25,55,52,51,34,10,8,0.5,0.4
2025-12-11T1900,2436A,114.8938,30.3994,鄂州市,市政府,细颗粒物(PM2.5),124,97,129,94,110,77,77,98,98,45,52,12,12,1.1,1.2
2025-12-11T1900,2437A,114.8989,30.3714,鄂州市,赵家坝,细颗粒物(PM2.5),119,117,141,90,107,98,98,116,112,31,48,8,11,1.2,1.3
2025-12-11T1900,3654A,114.8094,30.4089,鄂州市,精准医疗中心,细颗粒物(PM2.5),114,113,147,86,114,72,72,105,105,75,58,22,17,1.2,1.1
2025-12-11T1900,2454A,109.4978,30.2981,恩施土家族苗族自治州,湖北民院,细颗粒物(PM2.5),120,,95,91,98,32,32,60,60,35,16,6,6,0.9,0.7
2025-12-11T1900,2455A,109.4707,30.2798,恩施土家族苗族自治州,州电力总公司,细颗粒物(PM2.5),119,110,111,90,95,43,43,60,60,47,32,6,6,0.9,0.8
2025-12-11T1900,3549A,109.5061,30.3772,恩施土家族苗族自治州,龙凤新区,细颗粒物(PM2.5),110,104,107,83,81,40,40,50,50,11,12,5,6,0.7,0.7
2025-12-11T1900,2499A,108.3411,21.6158,防城港市,沙万,细颗粒物(PM2.5),74,62,86,54,56,64,64,77,77,23,25,6,12,0.9,1
2025-12-11T1900,2500A,108.3514,21.7731,防城港市,防城档案局,细颗粒物(PM2.5),108,136,108,81,71,42,42,69,69,38,26,4,6,1.0,1
2025-12-11T1900,2501A,108.3506,21.6414,防城港市,大海花园,,,,84,52,60,77,77,84,84,23,22,7,15,0.9,0.9
2025-12-11T1900,1371A,113.1294,23.0067,佛山市,湾梁,颗粒物(PM10),52,53,85,25,43,125,125,127,127,26,61,7,9,0.7,0.8
2025-12-11T1900,1372A,113.1083,23.0478,佛山市,华材职中,颗粒物(PM10),65,80,91,43,57,111,111,123,123,45,65,7,8,0.8,0.9
2025-12-11T1900,1373A,113.144,23.0453,佛山市,南海气象局,,50,43,79,35,49,120,120,118,118,30,61,7,9,0.5,0.7
2025-12-11T1900,1374A,113.2881,22.8094,佛山市,顺德苏岗,颗粒物(PM10),52,53,77,31,48,98,98,85,,44,66,6,7,0.8,0.8
2025-12-11T1900,1376A,112.8383,22.8678,佛山市,高明孔堂,颗粒物(PM10),62,73,76,38,54,118,118,135,135,29,37,5,8,0.7,0.7
2025-12-11T1900,1377A,112.8836,23.1588,佛山市,三水监测站,,,,101,42,60,87,87,118,118,,62,6,12,,0.9
2025-12-11T1900,1378A,112.867,23.185,佛山市,三水云东海,颗粒物(PM10),57,63,90,36,59,68,68,119,117,50,55,5,9,0.7,1
2025-12-11T1900,3625A,113.2544,22.7642,佛山市,容桂街道办,颗粒物(PM10),65,80,79,44,52,86,86,114,114,75,60,7,7,0.8,0.7
2025-12-11T1900,1280A,119.3903,26.0543,福州市,鼓山,,,,29,,14,,,65,,,15,,2,,0.9
2025-12-11T1900,1282A,119.2681,26.0504,福州市,师大,,,52,35,31,19,107,107,102,102,,28,8,8,0.5,0.5
2025-12-11T1900,1283A,119.2984,26.1028,福州市,五四北路,,42,42,33,26,21,117,117,102,102,17,27,6,5,0.4,0.5
2025-12-11T1900,1284A,119.2648,26.0768,福州市,杨桥西路,,43,43,34,23,19,121,121,106,106,12,23,5,5,0.5,0.5
2025-12-11T1900,1285A,119.317,26.0746,福州市,紫阳,,50,50,39,28,22,110,110,98,98,25,33,8,8,0.6,0.6
2025-12-11T1900,3048A,119.5799,26.0936,福州市,九龙,,34,31,28,19,16,107,107,96,96,11,20,4,3,0.5,0.5
2025-12-11T1900,3526A,119.5189,25.9664,福州市,吴航,,37,37,31,22,17,109,109,99,99,13,25,7,7,0.5,0.5
2025-12-11T1900,1755A,123.7977,41.8491,抚顺市,望花区,细颗粒物(PM2.5),72,61,62,52,34,17,17,54,48,44,17,6,6,0.8,0.6
2025-12-11T1900,1756A,123.9161,41.8822,抚顺市,顺城区,细颗粒物(PM2.5),89,70,55,66,33,12,12,54,46,53,18,11,6,0.9,0.5
2025-12-11T1900,1757A,124.0436,41.8611,抚顺市,东洲区,颗粒物(PM10),51,52,54,27,32,37,37,50,47,19,14,10,6,0.7,0.6
2025-12-11T1900,1758A,123.9247,41.8642,抚顺市,新抚区,颗粒物(PM10),65,80,59,31,33,5,5,48,40,46,17,5,6,0.9,0.7
2025-12-11T1900,1759A,124.0972,41.8961,抚顺市,大伙房水库,细颗粒物(PM2.5),55,54,54,39,30,23,23,55,48,40,14,10,10,0.8,0.7
2025-12-11T1900,1760A,123.7086,41.8391,抚顺市,沈抚新城,细颗粒物(PM2.5),128,,64,97,36,27,27,61,56,50,17,14,8,1.3,0.6
2025-12-11T1900,2376A,116.2127,28.0814,抚州市,桐源党溪,,,,,,,,,,,,,,,,
2025-12-11T1900,2377A,116.3544,27.9831,抚州市,市站,细颗粒物(PM2.5),80,91,111,59,77,126,126,128,128,20,34,7,9,1.2,1.3
2025-12-11T1900,2378A,116.3565,27.963,抚州市,血防站,,,,99,,74,,,132,132,19,33,5,9,1.0,1.1
2025-12-11T1900,2379A,116.3564,28.0007,抚州市,采茶剧团,细颗粒物(PM2.5),87,91,112,64,82,124,124,127,127,12,25,7,8,0.9,1
2025-12-11T1900,2380A,116.385,27.9647,抚州市,医学分院,细颗粒物(PM2.5),87,98,114,64,75,120,120,136,136,20,32,12,8,1.3,1.4
2025-12-11T1900,2207A,121.6094,41.998,阜新市,工业园区,,,59,29,,7,15,15,59,50,52,11,25,7,1.1,0.4
2025-12-11T1900,2208A,121.6697,42.0279,阜新市,长青街,,15,12,18,10,5,41,41,58,53,13,7,5,6,0.3,0.3
2025-12-11T1900,2209A,121.6673,42.0705,阜新市,农业园区,,41,41,26,22,7,50,50,57,54,14,8,5,5,0.3,0.2
2025-12-11T1900,2210A,121.6717,42.0224,阜新市,东苑,,27,27,33,12,10,45,45,56,52,13,8,8,9,0.5,0.5
2025-12-11T1900,2211A,121.6506,42.0498,阜新市,玉龙新城,细颗粒物(PM2.5),99,,26,74,9,22,22,62,52,42,12,8,6,0.9,0.3
2025-12-11T1900,2301A,115.8277,32.8929,阜阳市,市监测站,细颗粒物(PM2.5),196,236,191,147,128,54,54,85,85,33,38,5,7,1.1,1
2025-12-11T1900,2303A,115.8554,32.8605,阜阳市,开发区,细颗粒物(PM2.5),173,243,186,131,119,64,64,94,94,31,39,5,7,0.9,0.9
2025-12-11T1900,2875A,115.784,32.8892,阜阳市,阜阳职业技术学院,细颗粒物(PM2.5),188,206,168,141,115,70,70,101,101,29,32,7,9,1.2,1
2025-12-11T1900,3468A,115.7901,32.8613,阜阳市,市规划展馆,细颗粒物(PM2.5),212,230,184,162,132,68,68,102,102,33,33,6,9,1.2,1
2025-12-11T1900,3469A,115.836,32.9183,阜阳市,枣园社区,细颗粒物(PM2.5),213,230,194,163,135,59,59,93,93,35,48,3,7,1.2,1.1
2025-12-11T1900,2669A,102.9099,34.9841,甘南藏族自治州,州政府,,,,63,28,34,9,9,68,66,64,41,20,13,1.4,1.3
2025-12-11T1900,3380A,102.8914,34.9617,甘南藏族自治州,甘肃民族师范学院,颗粒物(PM10),74,97,71,22,24,8,8,53,48,59,42,5,7,0.6,0.8
2025-12-11T1900,2570A,101.9603,30.0475,甘孜藏族自治州,水桥子,,44,44,25,19,8,39,39,65,65,40,30,9,8,0.7,0.5
2025-12-11T1900,3065A,101.9533,29.9972,甘孜藏族自治州,州环保局,颗粒物(PM10),51,51,22,3,5,36,36,67,64,40,15,7,6,0.6,0.4
2025-12-11T1900,3414A,115.8347,28.932,赣江新区,桑海产业园,细颗粒物(PM2.5),94,114,111,70,75,122,122,138,138,27,52,13,15,1.0,1
2025-12-11T1900,2362A,114.9017,25.9149,赣州市,通天岩,细颗粒物(PM2.5),57,61,57,40,41,64,64,110,108,11,11,18,17,1.3,1
2025-12-11T1900,2363A,114.9367,25.8664,赣州市,地委,细颗粒物(PM2.5),59,62,90,42,59,75,75,122,122,29,37,7,7,0.9,1
2025-12-11T1900,2364A,114.9461,25.8481,赣州市,气象台,颗粒物(PM10),73,96,106,34,59,67,67,123,123,55,55,6,7,0.9,0.9
2025-12-11T1900,2365A,114.9322,25.8333,赣州市,市图书馆,颗粒物(PM10),64,77,100,43,63,70,70,106,106,46,55,4,6,0.9,1
2025-12-11T1900,2366A,114.8905,25.8471,赣州市,华坚鞋城,颗粒物(PM10),62,74,99,33,59,55,55,99,99,61,59,5,8,0.7,0.8
2025-12-11T1900,3109A,115.0093,25.8613,赣州市,赣县区卫计委,细颗粒物(PM2.5),75,79,79,55,70,25,25,98,97,68,39,10,9,1.0,1
2025-12-11T1900,2683A,106.2319,36.1417,固原市,马园,,,,,,,,,,,,,,,,
2025-12-11T1900,2684A,106.2792,36.0022,固原市,监测站,,,133,105,65,50,,,90,90,28,26,6,6,0.7,0.6
2025-12-11T1900,2685A,106.2375,36.0211,固原市,新区,细颗粒物(PM2.5),80,87,96,59,36,81,81,93,93,34,22,5,5,0.8,0.5
2025-12-11T1900,3522A,106.2177,35.9959,固原市,原州区十五小,颗粒物(PM10),82,114,100,55,34,78,78,82,82,28,17,8,7,0.9,0.6
2025-12-11T1900,2543A,106.6308,30.5278,广安市,小平旧居,,,,,,,,,,,,,,,,
2025-12-11T1900,2544A,106.6303,30.4576,广安市,市委,细颗粒物(PM2.5),120,99,100,91,85,63,63,56,56,21,32,4,3,0.9,1
2025-12-11T1900,2545A,106.6271,30.4663,广安市,友谊中学,细颗粒物(PM2.5),113,98,101,85,85,50,50,53,53,27,25,9,8,,1.1
2025-12-11T1900,2547A,106.6388,30.4551,广安市,广电花园,细颗粒物(PM2.5),109,84,81,82,82,47,47,46,46,28,24,3,3,0.8,0.9
2025-12-11T1900,2902A,106.6351,30.4865,广安市,北辰小学,细颗粒物(PM2.5),112,100,94,84,84,50,50,52,52,21,20,19,16,1.1,1.2
2025-12-11T1900,2523A,105.8945,32.4535,广元市,黑石坡,,,,,,,,,,,,,,,,
2025-12-11T1900,2524A,105.821,32.4444,广元市,老城,细颗粒物(PM2.5),135,133,81,103,63,5,5,13,13,72,50,20,16,1.9,1.3
2025-12-11T1900,2526A,105.8628,32.4287,广元市,监测站,细颗粒物(PM2.5),129,105,71,98,62,,,11,11,69,44,24,13,2.3,1.6
2025-12-11T1900,3617A,105.8047,32.4166,广元市,经开区,细颗粒物(PM2.5),137,145,108,104,74,1,1,6,6,59,47,22,29,1.5,1.5
2025-12-11T1900,1345A,113.2347,23.1423,广州市,广雅中学,颗粒物(PM10),56,61,88,31,50,77,77,109,109,46,62,6,9,0.8,0.9
2025-12-11T1900,1346A,113.2612,23.105,广州市,市五中,颗粒物(PM10),51,52,68,32,45,108,108,132,132,41,71,7,9,0.6,0.7
2025-12-11T1900,1348A,113.3478,23.0916,广州市,广东商学院,,48,48,63,26,39,53,53,76,76,42,54,6,7,0.6,0.7
2025-12-11T1900,1349A,113.4332,23.1047,广州市,市八十六中,,47,47,52,28,32,51,51,103,101,73,59,8,8,0.9,0.9
2025-12-11T1900,1350A,113.3505,22.9483,广州市,番禺中学,颗粒物(PM10),59,68,75,34,44,102,102,111,111,44,55,4,5,0.4,0.4
2025-12-11T1900,1351A,113.2146,23.3916,广州市,花都师范,颗粒物(PM10),57,63,69,39,42,109,109,122,122,24,42,12,9,0.7,0.7
2025-12-11T1900,1352A,113.2597,23.1331,广州市,市监测站,颗粒物(PM10),52,54,70,26,19,99,99,119,119,40,61,7,9,0.7,0.7
2025-12-11T1900,1353A,113.5618,23.312,广州市,九龙镇镇龙,细颗粒物(PM2.5),62,66,77,44,50,96,96,102,102,28,36,7,6,0.5,0.6
2025-12-11T1900,1354A,113.2765,23.1544,广州市,麓湖,,38,38,62,25,41,98,98,115,115,21,54,8,9,0.9,0.8
2025-12-11T1900,1355A,113.443,23.3035,广州市,帽峰山森林公园,,,,,,,,,,,,,,,,
2025-12-11T1900,2846A,113.3221,23.1322,广州市,体育西,颗粒物(PM10),55,59,63,36,39,80,80,106,106,46,52,8,10,0.7,0.7
2025-12-11T1900,3298A,113.5717,23.5491,广州市,从化街口,,,103,81,69,57,,,115,115,48,44,9,10,1.0,1
2025-12-11T1900,3299A,113.3472,23.3692,广州市,白云竹料,细颗粒物(PM2.5),79,88,81,58,51,90,90,120,120,32,48,8,8,0.8,0.8
2025-12-11T1900,3300A,113.2981,23.237,广州市,白云嘉禾,颗粒物(PM10),53,55,72,30,44,89,89,116,116,43,56,7,9,0.7,0.8
2025-12-11T1900,3301A,113.4256,23.1716,广州市,黄埔科学城,,,,51,,33,,,64,,,37,,6,,0.6
2025-12-11T1900,3302A,113.3942,23.0483,广州市,番禺大学城,颗粒物(PM10),55,59,66,31,34,89,89,116,116,46,52,12,10,0.6,0.6
2025-12-11T1900,3303A,113.4922,22.8168,广州市,南沙黄阁,颗粒物(PM10),53,56,79,24,47,93,93,137,137,62,70,8,8,0.9,0.9
2025-12-11T1900,3304A,113.5342,22.7896,广州市,南沙街,颗粒物(PM10),53,55,90,30,49,130,130,160,160,47,62,7,9,0.6,0.7
2025-12-11T1900,3443A,113.2902,23.5544,广州市,花都梯面,细颗粒物(PM2.5),62,53,47,44,37,57,57,120,114,42,32,10,10,0.4,0.5
2025-12-11T1900,3445A,113.7858,23.7478,广州市,从化良口,,33,25,40,23,36,74,74,94,94,11,20,7,7,0.7,0.6
2025-12-11T1900,3446A,113.8051,23.2614,广州市,增城荔城,细颗粒物(PM2.5),123,119,60,93,43,51,51,96,95,32,24,6,8,0.8,0.5
2025-12-11T1900,2505A,109.568,23.1478,贵港市,德智高中,,,,,,,,,,,,,,,,
2025-12-11T1900,2506A,109.6047,23.0666,贵港市,江南子站,细颗粒物(PM2.5),93,117,111,69,78,89,89,107,107,32,35,9,14,1.0,1
2025-12-11T1900,2508A,109.5669,23.1065,贵港市,荷城子站,细颗粒物(PM2.5),92,100,82,68,59,60,60,87,87,41,30,6,9,1.2,1
2025-12-11T1900,3405A,109.5886,23.1172,贵港市,新世纪学校,细颗粒物(PM2.5),93,114,88,69,61,79,79,97,97,22,21,5,7,1.0,0.9
2025-12-11T1900,4260A,109.5933,23.0951,贵港市,中山路155-3号,细颗粒物(PM2.5),82,79,89,60,64,96,96,109,109,26,30,6,13,0.9,0.8
2025-12-11T1900,1439A,106.6899,26.5998,贵阳市,马鞍山,,42,39,47,29,31,47,47,48,48,19,22,7,6,0.5,0.7
2025-12-11T1900,1441A,106.6243,26.6266,贵阳市,鉴湖路,颗粒物(PM10),52,53,63,27,35,60,60,55,55,16,28,8,6,0.5,0.6
2025-12-11T1900,1442A,106.7487,26.6343,贵阳市,燕子冲,细颗粒物(PM2.5),52,39,50,36,46,55,55,52,52,21,22,6,7,0.2,0.6
2025-12-11T1900,1443A,106.6555,26.4365,贵阳市,碧云窝,颗粒物(PM10),56,61,70,34,46,65,65,59,59,16,22,8,10,0.3,0.5
2025-12-11T1900,1445A,106.7109,26.6027,贵阳市,红边门,颗粒物(PM10),51,51,54,31,41,49,49,49,49,34,27,9,14,0.5,0.7
2025-12-11T1900,1446A,106.7164,26.5699,贵阳市,新华路,颗粒物(PM10),53,56,61,29,39,58,58,56,56,19,26,13,10,0.5,0.8
2025-12-11T1900,1447A,106.674,26.5424,贵阳市,太慈桥,细颗粒物(PM2.5),52,51,56,36,38,63,63,57,57,19,25,7,7,0.1,0.4
2025-12-11T1900,1552A,106.805,26.3003,贵阳市,桐木岭,,,,54,,40,,,45,,,7,,3,,0.8
2025-12-11T1900,4230A,106.6882,26.5695,贵阳市,花果园大街66号,,48,36,48,33,47,46,46,49,49,34,31,6,8,0.5,0.7
2025-12-11T1900,4231A,106.6873,26.5169,贵阳市,漓江路57号,细颗粒物(PM2.5),77,61,52,56,46,40,40,50,50,36,32,13,13,0.7,0.9
2025-12-11T1900,1862A,110.4144,25.3167,桂林市,电子科大尧山校区,,,,,,,,,,,,,,,,
2025-12-11T1900,1864A,110.3089,25.2708,桂林市,龙隐路小学,细颗粒物(PM2.5),72,72,90,52,74,56,56,94,94,53,43,6,7,0.7,0.8
2025-12-11T1900,1865A,110.2869,25.2178,桂林市,八中,细颗粒物(PM2.5),123,104,99,93,79,55,55,94,94,52,38,7,7,0.9,0.9
2025-12-11T1900,3531A,110.296,25.1253,桂林市,旅游学院,,,61,86,41,73,68,68,102,102,,30,3,5,0.5,0.8
2025-12-11T1900,4222A,110.1835,25.2444,桂林市,环湖路276号,细颗粒物(PM2.5),85,97,94,63,74,44,44,82,82,44,40,5,6,0.9,0.6
2025-12-11T1900,4301A,110.2803,25.2773,桂林市,信义路13号,细颗粒物(PM2.5),72,76,104,52,74,53,53,97,97,55,43,4,4,1.1,1.2
2025-12-11T1900,2674A,100.2561,34.4714,果洛藏族自治州,玛沁县大武镇,颗粒物(PM10),59,68,50,11,10,85,85,85,85,2,11,14,20,0.3,0.5
2025-12-11T1900,1129A,126.5422,45.755,哈尔滨市,岭北,,,,,,,,,,,,,,,,
2025-12-11T1900,1130A,126.561,45.8167,哈尔滨市,松北商大,,46,46,44,25,26,25,25,45,36,30,24,10,10,0.5,0.5
2025-12-11T1900,1131A,126.979,45.5419,哈尔滨市,阿城会宁,,43,43,45,30,34,32,32,46,45,24,26,8,12,0.7,0.8
2025-12-11T1900,1132A,126.599,45.7222,哈尔滨市,南岗学府路,,37,37,41,25,24,27,27,45,43,22,20,9,15,0.6,0.6
2025-12-11T1900,1133A,126.689,45.7733,哈尔滨市,太平宏伟公园,,,28,45,19,33,40,40,37,,12,14,18,24,,0.7
2025-12-11T1900,1134A,126.635,45.7667,哈尔滨市,道外承德广场,,45,45,55,17,26,44,44,48,48,14,16,6,11,0.7,0.8
2025-12-11T1900,1135A,126.685,45.7319,哈尔滨市,香坊红旗大街,,44,44,44,24,22,36,36,48,47,15,10,8,14,0.6,0.5
2025-12-11T1900,1136A,126.6411,45.7258,哈尔滨市,动力和平路,,35,35,38,18,23,31,31,46,44,22,15,9,14,0.6,0.6
2025-12-11T1900,1137A,126.593,45.7478,哈尔滨市,道里建国路,,,,39,,30,33,33,44,42,21,17,4,9,,0.5
2025-12-11T1900,1138A,126.615,45.61,哈尔滨市,平房东轻厂,颗粒物(PM10),54,57,51,30,38,10,10,44,36,47,33,17,11,0.7,0.7
2025-12-11T1900,1139A,126.595,45.9855,哈尔滨市,呼兰师专,细颗粒物(PM2.5),57,56,61,40,47,21,21,42,38,30,21,4,5,0.8,0.8
2025-12-11T1900,1140A,126.6206,45.6842,哈尔滨市,省农科院,细颗粒物(PM2.5),73,79,55,53,38,13,13,47,40,47,27,21,14,0.9,0.6
2025-12-11T1900,2688A,93.5128,42.8172,哈密市,地区监测站,,22,21,57,15,35,51,51,52,52,10,15,3,4,0.0,0.2
2025-12-11T1900,2689A,93.4961,42.8328,哈密市,哈密师范学校,,16,11,60,10,30,50,50,52,52,11,16,5,7,0.2,0.4
2025-12-11T1900,2671A,100.9048,36.9639,海北藏族自治州,海晏县西海镇,,,34,25,23,12,,,81,81,5,5,7,10,0.6,0.4
2025-12-11T1900,3867A,102.0738,36.5056,海东市,平安区公安北苑,颗粒物(PM10),70,89,89,43,54,31,31,49,49,53,35,69,27,1.4,1.4
2025-12-11T1900,1409A,110.576,19.9507,海口市,东寨港,,,,,,,,,,,,,,,,
2025-12-11T1900,1410A,110.3232,20.0574,海口市,海南大学,细颗粒物(PM2.5),58,59,65,41,44,159,159,148,148,14,13,7,7,0.6,0.6
2025-12-11T1900,1411A,110.283,20.0053,海口市,秀英海南医院,颗粒物(PM10),56,61,57,34,39,133,133,130,130,17,15,8,8,0.4,0.4
2025-12-11T1900,1412A,110.338,19.9969,海口市,海南师范大学,细颗粒物(PM2.5),57,55,56,40,40,140,140,138,138,19,16,7,6,0.7,0.7
2025-12-11T1900,1413A,110.33,20.0356,海口市,龙华路环保局宿舍,细颗粒物(PM2.5),62,64,60,44,44,147,147,144,144,19,15,8,8,0.8,0.8
2025-12-11T1900,3539A,110.5111,19.9736,海口市,桂林洋子站,细颗粒物(PM2.5),65,66,56,47,37,138,138,131,131,14,12,8,8,0.5,0.5
2025-12-11T1900,2673A,100.6188,36.2866,海南藏族自治州,共和县恰卜恰镇,颗粒物(PM10),102,153,50,32,20,9,9,64,61,70,29,23,12,1.2,0.6
2025-12-11T1900,2676A,97.3731,37.3753,海西蒙古族藏族自治州,德令哈市,颗粒物(PM10),52,53,30,16,11,40,40,76,72,42,6,16,12,0.8,0.4
2025-12-11T1900,1048A,114.5302,36.6116,邯郸市,东污水处理厂,细颗粒物(PM2.5),69,68,152,50,131,40,40,37,37,21,62,2,8,0.5,1
2025-12-11T1900,1049A,114.4918,36.5713,邯郸市,矿院,细颗粒物(PM2.5),77,72,147,56,135,44,44,41,41,19,62,2,8,0.5,1
2025-12-11T1900,1050A,114.484,36.6133,邯郸市,丛台公园,细颗粒物(PM2.5),77,70,162,56,130,43,43,41,41,21,63,5,10,0.5,1
2025-12-11T1900,3458A,114.7895,36.5593,邯郸市,香泉濮院小区,颗粒物(PM10),70,89,192,36,137,52,52,40,40,14,58,2,7,0.3,1.2
2025-12-11T1900,3579A,114.50634,36.77178,邯郸市,永年区实验高中,,,79,151,,93,36,36,33,33,27,72,2,7,0.3,1
2025-12-11T1900,3580A,114.20016,36.44293,邯郸市,峰峰矿区临水派出所,细颗粒物(PM2.5),128,,115,97,130,45,45,62,62,21,45,3,13,0.7,1
2025-12-11T1900,2634A,106.9893,33.1842,汉中市,汉川机床厂子校,,,,,,,,,,,,,,,,
2025-12-11T1900,2635A,107.0154,33.0706,汉中市,市监测站,细颗粒物(PM2.5),108,96,96,81,81,45,45,36,36,52,42,43,7,1.6,1.3
2025-12-11T1900,2636A,107.0089,33.1138,汉中市,鑫源开发区,细颗粒物(PM2.5),118,121,83,89,63,40,40,37,37,53,42,33,8,1.5,1
2025-12-11T1900,2637A,107.007,33.0323,汉中市,南郑大河坎水厂,,,,104,,78,,,22,,,34,,6,,1.1
2025-12-11T1900,1223A,120.2072,30.2111,杭州市,滨江,细颗粒物(PM2.5),128,139,95,97,55,97,97,124,124,53,52,11,9,1.0,0.8
2025-12-11T1900,1224A,120.0633,30.2747,杭州市,西溪,颗粒物(PM10),85,119,73,60,44,61,61,111,111,46,35,8,9,0.9,0.6
2025-12-11T1900,1226A,120.3417,30.3150,杭州市,下沙,细颗粒物(PM2.5),158,164,111,120,68,76,76,117,117,70,65,10,9,1.3,1
2025-12-11T1900,1227A,120.1269,30.2456,杭州市,卧龙桥,细颗粒物(PM2.5),84,98,65,62,40,46,46,111,109,48,28,8,9,1.0,0.7
2025-12-11T1900,1228A,120.1903,30.2692,杭州市,浙江农大,细颗粒物(PM2.5),152,145,101,116,64,63,63,112,112,91,64,9,9,1.0,1
2025-12-11T1900,1230A,120.1197,30.3119,杭州市,和睦小学,细颗粒物(PM2.5),125,190,124,95,56,93,93,122,122,56,51,13,10,1.1,0.9
2025-12-11T1900,1231A,120.3019,30.4183,杭州市,临平镇,细颗粒物(PM2.5),140,177,112,107,60,26,26,108,101,42,57,7,8,1.2,1
2025-12-11T1900,1232A,120.2753,30.1839,杭州市,城厢镇,细颗粒物(PM2.5),127,130,101,96,62,96,96,128,128,56,53,12,9,1.2,1
2025-12-11T1900,1233A,120.0883,30.1808,杭州市,云栖,细颗粒物(PM2.5),98,102,65,73,42,77,77,126,126,47,38,7,6,0.8,0.5
2025-12-11T1900,3557A,119.9464,30.0494,杭州市,镇二中,细颗粒物(PM2.5),87,104,89,64,54,101,101,125,125,43,51,7,6,1.1,1
2025-12-11T1900,3558A,119.7183,30.2367,杭州市,市府大楼,细颗粒物(PM2.5),102,124,101,76,55,109,109,121,121,30,31,12,11,0.9,0.9
2025-12-11T1900,3656A,120.1556,30.2864,杭州市,消防大队,细颗粒物(PM2.5),143,148,100,109,65,101,101,125,125,54,51,8,6,1.0,0.8
2025-12-11T1900,1270A,117.1959,31.7848,合肥市,明珠广场,细颗粒物(PM2.5),138,188,142,105,93,96,96,101,101,32,67,9,8,0.9,1
2025-12-11T1900,1271A,117.3072,31.8764,合肥市,三里街,细颗粒物(PM2.5),156,166,144,119,92,83,83,102,102,40,66,7,7,1.0,1.3
2025-12-11T1900,1272A,117.2588,31.8707,合肥市,琥珀山庄,细颗粒物(PM2.5),147,190,133,112,88,95,95,107,107,31,58,8,8,0.9,1.2
2025-12-11T1900,1273A,117.1604,31.9052,合肥市,董铺水库,,,,,,,,,,,,,,,,
2025-12-11T1900,1274A,117.25,31.8571,合肥市,长江中路,细颗粒物(PM2.5),152,180,142,116,98,97,97,110,110,33,60,10,9,1.0,1.2
2025-12-11T1900,1275A,117.266,31.9436,合肥市,庐阳区,细颗粒物(PM2.5),160,205,145,122,86,85,85,113,113,45,73,13,13,1.0,1
2025-12-11T1900,1276A,117.3453,31.8616,合肥市,瑶海区,细颗粒物(PM2.5),160,193,150,122,93,84,84,108,108,42,67,6,7,1.0,1
2025-12-11T1900,1277A,117.3027,31.7964,合肥市,包河区,细颗粒物(PM2.5),170,193,142,129,96,61,61,99,95,77,80,10,11,1.1,1.2
2025-12-11T1900,1278A,117.2776,31.7385,合肥市,滨湖新区,细颗粒物(PM2.5),170,200,143,129,103,100,100,96,96,32,67,8,8,1.0,1.1
2025-12-11T1900,1279A,117.1318,31.8403,合肥市,高新区,细颗粒物(PM2.5),132,163,132,100,92,109,109,114,114,35,65,8,7,0.9,0.9
2025-12-11T1900,3464A,117.3803,31.9147,合肥市,高教基地,细颗粒物(PM2.5),189,200,129,142,94,83,83,115,115,31,42,8,8,1.0,0.9
2025-12-11T1900,3614A,79.924,37.0877,和田地区,地区环保局,颗粒物(PM10),432,532,300,69,52,84,84,77,77,1,11,,3,,1
2025-12-11T1900,3615A,79.9131,37.113,和田地区,市环保局,颗粒物(PM10),304,423,256,61,36,96,96,83,83,12,42,1,4,0.6,1.2
2025-12-11T1900,2516A,108.2011,24.715,河池市,东仁乐园,,,,,,,,,,,,,,,,
2025-12-11T1900,2517A,108.0497,24.6947,河池市,市环保站,细颗粒物(PM2.5),80,84,85,59,64,67,67,76,76,24,25,6,4,1.0,0.9
2025-12-11T1900,2518A,108.0983,24.6989,河池市,市疾控中心,细颗粒物(PM2.5),79,80,87,58,75,49,49,77,77,51,33,12,7,0.9,1.1
2025-12-11T1900,1696A,114.6778,23.7569,河源市,源西,,,,,,,,,,,,,,,,
2025-12-11T1900,1697A,114.6944,23.7586,河源市,东埔,细颗粒物(PM2.5),62,65,50,44,39,51,51,104,102,49,32,6,6,1.2,0.8
2025-12-11T1900,1698A,114.6892,23.7233,河源市,老城,颗粒物(PM10),56,62,50,29,33,70,70,105,105,14,23,6,7,0.7,0.7
2025-12-11T1900,1718A,115.4208,35.2464,菏泽市,气象局,颗粒物(PM10),85,120,225,50,153,46,46,59,59,24,54,4,7,0.5,0.9
2025-12-11T1900,3374A,115.5564,35.0891,菏泽市,定陶老年大学,细颗粒物(PM2.5),98,117,198,73,132,51,51,62,62,33,55,4,6,0.8,1
2025-12-11T1900,4184A,115.4797,35.24401,菏泽市,永昌路1号,颗粒物(PM10),86,121,216,56,135,41,41,55,55,31,56,5,8,0.6,0.9
2025-12-11T1900,4193A,115.4715,35.2800,菏泽市,长城路999号,颗粒物(PM10),86,121,213,44,144,42,42,58,58,25,53,8,7,0.5,1
2025-12-11T1900,2514A,111.5264,24.4172,贺州市,环保小区,细颗粒物(PM2.5),70,84,90,51,70,70,70,105,101,44,32,5,6,1.3,1.1
2025-12-11T1900,2515A,111.5608,24.4078,贺州市,政协大楼,颗粒物(PM10),74,97,96,43,68,22,22,96,91,66,35,6,8,1.3,1.1
2025-12-11T1900,3534A,111.4744,24.4553,贺州市,西湾,细颗粒物(PM2.5),62,61,86,44,59,47,47,100,97,49,29,4,5,0.8,0.9
2025-12-11T1900,2385A,114.17,35.9019,鹤壁市,市监测站,细颗粒物(PM2.5),132,127,182,100,138,36,36,49,49,35,60,8,12,0.8,1.4
2025-12-11T1900,2386A,114.2956,35.7511,鹤壁市,市交警支队,细颗粒物(PM2.5),139,154,194,106,139,23,23,40,40,48,65,1,7,1.0,1.2
2025-12-11T1900,2387A,114.2878,35.7306,鹤壁市,迎宾馆,细颗粒物(PM2.5),137,152,188,104,142,25,25,46,46,38,56,2,11,1.0,1.3
2025-12-11T1900,3474A,114.2617,35.6822,鹤壁市,大新区,细颗粒物(PM2.5),132,144,185,100,128,34,34,52,52,37,58,4,11,1.1,1.4
2025-12-11T1900,3596A,114.1572,35.9603,鹤壁市,南山宾馆,细颗粒物(PM2.5),147,138,192,112,139,38,38,53,53,35,58,2,10,0.9,1.3
2025-12-11T1900,2244A,130.2537,47.3416,鹤岗市,哈啤分公司,,21,18,18,14,12,66,66,68,68,4,4,6,6,0.5,0.5
2025-12-11T1900,2245A,130.2684,47.3086,鹤岗市,斯达机电,,23,19,23,16,17,69,69,70,70,6,5,6,7,0.3,0.3
2025-12-11T1900,2246A,130.3114,47.3388,鹤岗市,东山纸板厂,,36,34,21,25,19,64,64,66,66,4,5,5,5,0.6,0.6
2025-12-11T1900,2247A,130.1097,47.3382,鹤岗市,五号水库,,,,,,,,,,,,,,,,
2025-12-11T1900,2263A,127.4833,50.2524,黑河市,交通局,,22,22,14,15,14,52,52,59,56,10,6,5,4,0.4,0.4
2025-12-11T1900,2264A,127.5144,50.2341,黑河市,环保局,,32,32,16,13,14,47,47,59,54,17,8,5,5,0.5,0.3
2025-12-11T1900,2265A,127.5291,50.2472,黑河市,大黑河岛,,,,,,,,,,,,,,,,
2025-12-11T1900,1074A,115.6838,37.7541,衡水市,电机北厂,颗粒物(PM10),53,55,149,20,96,46,46,48,48,17,47,2,5,0.2,1
2025-12-11T1900,1075A,115.6303,37.7316,衡水市,市监测站,,43,43,127,26,92,48,48,49,49,17,52,4,7,0.2,1
2025-12-11T1900,3188A,115.6683,37.7217,衡水市,市城管局,,42,42,146,24,96,45,45,49,49,18,55,6,10,0.3,1.1
2025-12-11T1900,3459A,115.5989,37.5491,衡水市,地表水厂,,44,44,133,24,105,49,49,52,52,10,48,1,6,0.1,0.9
2025-12-11T1900,2456A,112.5003,26.9167,衡阳市,原169医院,,,,,,,,,,,,,,,,
2025-12-11T1900,2457A,112.6194,26.9258,衡阳市,衡阳化工总厂,细颗粒物(PM2.5),134,124,128,102,108,128,128,140,140,24,30,14,12,1.3,1.2
2025-12-11T1900,2458A,112.6211,26.8956,衡阳市,珠晖区环保局,细颗粒物(PM2.5),122,112,116,92,109,112,112,129,129,32,38,8,8,1.5,1.5
2025-12-11T1900,2459A,112.6197,26.8733,衡阳市,市委党校,细颗粒物(PM2.5),110,,113,83,88,134,134,140,140,16,28,9,9,1.4,1.5
2025-12-11T1900,2460A,112.6006,26.8919,衡阳市,市监测站,细颗粒物(PM2.5),152,129,132,116,124,122,122,134,134,30,40,12,11,1.6,1.6
2025-12-11T1900,2461A,112.5664,26.9056,衡阳市,真空机电公司,细颗粒物(PM2.5),122,100,118,92,104,114,114,132,132,33,40,13,12,1.5,1.5
2025-12-11T1900,3399A,112.6703,26.882,衡阳市,师范学院,细颗粒物(PM2.5),99,103,122,74,84,140,140,143,143,22,30,14,15,1.2,1.2
2025-12-11T1900,2608A,103.3772,23.3993,红河哈尼族彝族自治州,污水处理厂,,47,47,40,31,32,65,65,75,73,10,8,5,6,0.4,0.3
2025-12-11T1900,2609A,103.3861,23.35,红河哈尼族彝族自治州,监测站,,46,46,36,29,26,70,70,79,78,9,5,14,7,0.4,0.3
2025-12-11T1900,3038A,103.3758,23.368,红河哈尼族彝族自治州,州图书馆,,37,37,31,14,21,67,67,76,75,8,5,6,5,0.5,0.5
2025-12-11T1900,1090A,111.6507,40.7517,呼和浩特市,呼市一监,,31,31,19,12,13,52,52,64,64,18,13,6,6,0.3,0.3
2025-12-11T1900,1091A,111.6572,40.8033,呼和浩特市,小召,,29,29,19,16,14,49,49,65,62,29,17,7,6,0.4,0.3
2025-12-11T1900,1094A,111.7516,40.8369,呼和浩特市,如意水处理厂,,32,32,26,13,14,43,43,61,59,29,23,10,8,0.3,0.4
2025-12-11T1900,1095A,111.7276,40.8062,呼和浩特市,二十九中,,34,34,23,13,13,48,48,59,59,22,17,10,9,0.3,0.3
2025-12-11T1900,1096A,111.5512,40.7866,呼和浩特市,工大金川校区,,32,32,24,12,13,47,47,66,62,31,19,8,7,0.6,0.4
2025-12-11T1900,1097A,111.717,40.7612,呼和浩特市,化肥厂生活区,,37,37,26,13,14,53,53,66,66,22,18,6,6,0.3,0.3
2025-12-11T1900,3698A,111.5968,40.8178,呼和浩特市,红旗小学,,27,27,15,14,12,42,42,70,61,33,13,8,5,0.6,0.3
2025-12-11T1900,3699A,111.6518,40.8389,呼和浩特市,海东办,,29,29,16,10,11,40,40,66,60,33,17,8,4,0.6,0.4
2025-12-11T1900,3061A,119.7512,49.1577,呼伦贝尔市,国华电力东,,29,26,28,20,21,43,43,48,48,28,27,5,5,0.6,0.6
2025-12-11T1900,4279A,119.7569,49.2222,呼伦贝尔市,伊敏大街东7号,,28,28,25,19,21,44,44,48,48,10,10,6,6,0.3,0.8
2025-12-11T1900,1250A,120.0751,30.8669,湖州市,城西水厂,细颗粒物(PM2.5),117,129,109,88,72,123,123,134,134,30,57,10,12,0.8,0.8
2025-12-11T1900,2873A,120.0830,30.8929,湖州市,仁皇山新区,细颗粒物(PM2.5),117,123,109,88,71,121,121,137,137,32,57,10,11,0.8,0.9
2025-12-11T1900,2907A,120.1844,30.8596,湖州市,吴兴区站,,,,121,,65,,,46,,,56,,10,,1.1
2025-12-11T1900,3562A,120.4148,30.8538,湖州市,南浔区站,细颗粒物(PM2.5),105,122,121,79,71,96,96,98,98,20,59,7,9,1.1,1.2
2025-12-11T1900,1607A,120.9049,40.7211,葫芦岛市,龙港区,,40,,41,28,12,30,30,58,53,33,11,11,11,0.6,0.5
2025-12-11T1900,1608A,120.8392,40.7514,葫芦岛市,化工街,,41,41,49,17,14,34,34,53,48,26,11,11,10,0.6,0.4
2025-12-11T1900,1609A,120.8341,40.7073,葫芦岛市,新区,,28,28,35,16,11,41,41,58,52,23,11,10,8,0.6,0.5
2025-12-11T1900,1610A,120.8695,40.7677,葫芦岛市,东城区,,46,34,36,32,13,27,27,54,44,36,13,12,9,0.7,0.5
2025-12-11T1900,2482A,109.5981,27.5721,怀化市,林科所,,,,,,,,,,,,,,,,
2025-12-11T1900,2483A,109.9453,27.5444,怀化市,河西地税局,细颗粒物(PM2.5),72,80,86,52,63,53,53,80,80,38,28,8,8,0.8,0.7
2025-12-11T1900,2484A,109.9781,27.5342,怀化市,市四医院,细颗粒物(PM2.5),73,80,115,53,75,63,63,79,79,17,27,17,23,0.6,0.8
2025-12-11T1900,2485A,109.9972,27.5578,怀化市,监测楼,细颗粒物(PM2.5),69,78,100,50,68,68,68,88,88,20,30,6,13,0.4,0.5
2025-12-11T1900,2486A,110.0394,27.583,怀化市,市委党校,细颗粒物(PM2.5),80,76,95,59,72,55,55,82,82,25,27,18,30,0.6,0.7
2025-12-11T1900,1210A,119.036,33.5981,淮安市,钵池山,细颗粒物(PM2.5),60,46,116,43,78,59,59,54,54,15,40,5,7,0.3,0.8
2025-12-11T1900,1211A,119.007,33.575,淮安市,北京南路,颗粒物(PM10),51,51,115,30,83,58,58,52,52,11,43,6,8,0.4,0.8
2025-12-11T1900,1212A,118.989,33.6067,淮安市,市监测站,,44,44,113,17,87,58,58,55,55,14,40,7,9,0.3,0.7
2025-12-11T1900,1213A,119.135,33.5039,淮安市,楚州区监测站,,39,39,122,18,87,57,57,55,55,11,53,8,9,0.5,0.9
2025-12-11T1900,3426A,118.8755,33.2894,淮安市,新华书店,颗粒物(PM10),55,60,139,22,94,54,54,54,54,21,49,8,12,0.5,0.9
2025-12-11T1900,4206A,119.0288,33.6319,淮安市,承德北路606号,细颗粒物(PM2.5),59,53,135,42,81,58,58,54,54,8,35,6,8,0.4,0.8
2025-12-11T1900,2282A,116.8004,33.975,淮北市,监测站,颗粒物(PM10),92,133,181,65,110,59,59,61,61,25,52,8,10,0.6,0.8
2025-12-11T1900,2283A,116.8091,33.9007,淮北市,烈山区政府,细颗粒物(PM2.5),84,104,165,62,116,59,59,56,56,21,58,9,12,0.6,0.6
2025-12-11T1900,3330A,116.8873,33.9836,淮北市,杜集区检察院,细颗粒物(PM2.5),79,103,160,58,111,66,66,67,67,15,43,6,9,0.6,0.8
2025-12-11T1900,4017A,116.7923,33.9535,淮北市,市博物馆,细颗粒物(PM2.5),92,124,178,68,116,62,62,65,65,22,53,9,13,0.6,0.7
2025-12-11T1900,2277A,116.8305,32.7727,淮南市,潘集区政府,细颗粒物(PM2.5),188,187,189,141,132,48,48,88,88,20,34,5,8,0.8,1
2025-12-11T1900,2279A,116.8569,32.5951,淮南市,谢家集区政府,细颗粒物(PM2.5),159,194,167,121,106,49,49,87,86,30,39,7,10,0.6,0.6
2025-12-11T1900,2280A,116.8281,32.633,淮南市,八公山区政府,细颗粒物(PM2.5),158,174,157,120,105,51,51,92,90,24,26,5,7,0.9,0.9
2025-12-11T1900,2281A,116.6325,32.6201,淮南市,焦岗湖风景区管理处,,,,,,,,,,,,,,,,
2025-12-11T1900,2894A,117.0566,32.6531,淮南市,经济技术开发区消防队,细颗粒物(PM2.5),169,185,169,128,119,48,48,85,84,30,53,3,3,0.7,0.8
2025-12-11T1900,3329A,117.0108,32.5893,淮南市,山南新区,细颗粒物(PM2.5),188,205,181,141,127,48,48,92,89,34,40,3,5,0.8,0.8
2025-12-11T1900,4209A,117.0031,32.6445,淮南市,国庆中路369号,细颗粒物(PM2.5),175,187,161,132,118,43,43,76,76,28,42,6,9,0.7,0.7
2025-12-11T1900,2446A,114.9028,30.4742,黄冈市,职工中心,细颗粒物(PM2.5),85,90,116,63,83,116,116,124,124,30,42,8,7,1.0,1.1
2025-12-11T1900,2929A,114.8858,30.4519,黄冈市,红卫路,细颗粒物(PM2.5),110,91,115,83,91,115,115,127,126,28,36,6,8,0.8,1
2025-12-11T1900,3398A,114.9136,30.4445,黄冈市,市林业局,细颗粒物(PM2.5),98,118,126,73,95,106,106,124,124,34,43,6,6,1.0,0.9
2025-12-11T1900,2672A,102.0199,35.5102,黄南藏族自治州,同仁县隆务镇,颗粒物(PM10),55,60,39,15,16,52,52,62,62,12,9,13,12,0.5,0.5
2025-12-11T1900,2295A,118.2903,29.6963,黄山市,延安路89号,细颗粒物(PM2.5),69,68,60,50,41,76,76,116,116,29,22,5,5,0.6,0.5
2025-12-11T1900,2297A,118.1371,30.2756,黄山市,黄山区政府5号楼,细颗粒物(PM2.5),80,76,66,59,52,66,66,113,113,23,13,6,6,0.7,0.5
2025-12-11T1900,4210A,118.3354,29.7203,黄山市,滨江东路7-2号,细颗粒物(PM2.5),94,107,68,70,50,57,57,103,102,45,26,5,4,0.7,0.6
2025-12-11T1900,2423A,115.0601,30.2313,黄石市,沈家营,细颗粒物(PM2.5),84,108,158,62,87,80,80,93,93,17,43,13,10,1.1,1.2
2025-12-11T1900,2426A,114.8988,30.2019,黄石市,铁山,细颗粒物(PM2.5),100,128,111,75,99,106,106,124,124,34,41,5,5,0.7,1.1
2025-12-11T1900,2427A,115.0307,30.2092,黄石市,团城山,细颗粒物(PM2.5),90,95,138,67,102,117,117,118,118,18,53,6,8,0.6,1.2
2025-12-11T1900,3149A,115.0235,30.1578,黄石市,笔架山北路,颗粒物(PM10),88,125,182,64,104,110,110,118,118,12,38,7,7,1.3,1.7
2025-12-11T1900,4185A,115.0780,30.21118,黄石市,磁湖东路29号,细颗粒物(PM2.5),109,101,136,82,102,107,107,114,114,18,38,14,13,1.2,1.4
2025-12-11T1900,1392A,114.4183,23.0528,惠州市,河南岸金山湖子站,"颗粒物(PM10),细颗粒物(PM2.5)",55,60,51,39,36,58,58,92,91,46,27,4,4,1.0,0.8
2025-12-11T1900,1393A,114.4053,23.0822,惠州市,下埔横江三路子站,颗粒物(PM10),55,59,56,35,38,67,67,106,105,36,24,6,7,0.9,0.7
2025-12-11T1900,1394A,114.4103,23.1142,惠州市,江北云山西路子站,颗粒物(PM10),51,52,57,28,37,117,117,120,120,26,31,8,8,0.6,0.7
2025-12-11T1900,1395A,114.4645,22.7833,惠州市,惠阳区承修路船湖子站,颗粒物(PM10),55,60,53,31,37,115,115,119,119,31,23,6,6,0.6,0.6
2025-12-11T1900,1396A,114.5317,22.7422,惠州市,大亚湾管委会子站,颗粒物(PM10),53,56,52,32,35,136,136,130,130,20,25,6,6,0.6,0.6
2025-12-11T1900,3314A,114.4338,22.8134,惠州市,惠阳秋长,颗粒物(PM10),59,68,56,32,37,99,99,121,119,55,31,10,11,0.6,0.6
2025-12-11T1900,3452A,114.6517,22.775,惠州市,大亚湾霞涌,颗粒物(PM10),51,51,45,30,30,144,144,138,138,22,15,5,4,0.6,0.6
2025-12-11T1900,2240A,130.9762,45.3001,鸡西市,环保局,,26,26,32,10,14,50,50,55,54,7,6,6,6,0.4,0.4
2025-12-11T1900,2243A,130.9429,45.3039,鸡西市,第一中学,,27,27,27,17,14,52,52,55,55,6,8,4,4,0.3,0.3
2025-12-11T1900,3707A,131.0207,45.3073,鸡西市,欧美日汽修厂,,27,27,35,15,17,46,46,53,51,10,13,7,7,0.3,0.5
2025-12-11T1900,3709A,130.9967,45.3106,鸡西市,市政设施管理处,,41,41,48,13,9,52,52,56,53,9,9,8,8,0.5,0.4
2025-12-11T1900,2367A,114.9754,27.0803,吉安市,红声器材厂,细颗粒物(PM2.5),72,84,88,52,60,117,117,129,129,29,32,10,9,0.9,0.5
2025-12-11T1900,2368A,114.9658,27.0999,吉安市,市森林工业局,细颗粒物(PM2.5),80,89,92,59,64,88,88,107,107,37,34,11,11,0.9,0.7
2025-12-11T1900,2369A,114.99,27.1312,吉安市,市环境监测站,细颗粒物(PM2.5),77,77,88,56,64,128,128,127,127,16,27,19,16,0.8,0.8
2025-12-11T1900,2370A,115.0093,27.0968,吉安市,青原区法院,细颗粒物(PM2.5),83,86,89,61,63,95,95,115,115,32,35,12,11,0.9,0.8
2025-12-11T1900,1772A,126.54,43.8622,吉林市,哈达湾,,40,40,42,28,30,43,43,48,47,16,14,11,11,0.8,0.8
2025-12-11T1900,1773A,126.5844,43.8358,吉林市,东局子,,45,40,38,31,24,37,37,44,43,22,18,11,11,0.7,0.7
2025-12-11T1900,1774A,126.5052,43.8245,吉林市,电力学院,,,,43,,33,,,52,50,48,18,18,14,1.6,0.8
2025-12-11T1900,1775A,126.6133,43.8972,吉林市,江北,,48,48,35,30,24,29,29,48,46,25,15,8,10,0.8,0.7
2025-12-11T1900,1776A,126.555,43.8306,吉林市,江南公园,细颗粒物(PM2.5),52,49,33,36,28,38,38,47,46,19,16,7,12,0.8,0.7
2025-12-11T1900,1778A,126.7061,43.7133,吉林市,丰满,,49,35,35,34,33,37,37,42,42,13,13,10,8,0.1,0.1
2025-12-11T1900,2868A,126.4739,43.953,吉林市,九站,颗粒物(PM10),56,61,41,39,33,28,28,48,42,33,25,5,11,0.8,0.6
2025-12-11T1900,1299A,116.9862,36.6114,济南市,科干所,,44,44,118,12,60,50,50,53,53,15,40,2,7,0.5,0.8
2025-12-11T1900,1300A,116.9376,36.665,济南市,农科所,,49,49,132,3,64,46,46,49,49,19,47,4,6,0.5,0.8
2025-12-11T1900,1301A,117.1265,36.6734,济南市,开发区,,44,44,124,15,69,50,50,55,55,18,44,1,5,0.4,0.8
2025-12-11T1900,1303A,117.0624,36.6868,济南市,省种子仓库,,48,48,143,12,69,53,53,55,55,15,46,4,10,0.5,0.9
2025-12-11T1900,1304A,116.9489,36.6447,济南市,机床二厂,颗粒物(PM10),55,59,140,12,75,48,48,51,51,21,50,2,9,0.4,0.8
2025-12-11T1900,1305A,117.0495,36.663,济南市,市监测站,颗粒物(PM10),52,54,130,12,71,47,47,49,49,13,39,3,5,0.3,0.7
2025-12-11T1900,1306A,116.7675,36.5484,济南市,长清党校,,39,39,131,15,67,49,49,52,52,14,41,2,7,0.6,0.9
2025-12-11T1900,1616A,117.6795,36.229,济南市,技术学院,,24,24,119,14,73,52,52,56,56,17,49,3,7,0.3,0.6
2025-12-11T1900,1961A,117.532,36.6868,济南市,东山小学,,42,42,123,10,63,59,59,61,61,14,38,2,5,0.5,0.8
2025-12-11T1900,3059A,117.7161,36.2049,济南市,泰兴公司,,36,36,122,19,82,46,46,59,58,22,44,1,6,0.3,0.8
2025-12-11T1900,3064A,117.6867,36.2171,济南市,莱芜战役纪念馆,,34,34,125,23,83,54,54,60,60,18,48,4,10,0.2,0.6
2025-12-11T1900,3494A,117.1673,36.9782,济南市,济阳区政府,,37,37,129,10,65,55,55,58,58,11,42,6,11,0.4,0.8
2025-12-11T1900,3495A,117.1171,36.63,济南市,锦屏中学,,37,37,106,12,58,54,54,56,56,16,38,3,6,0.4,0.7
2025-12-11T1900,3682A,116.9814,36.6819,济南市,济南四建,颗粒物(PM10),54,58,135,17,69,44,44,45,45,20,48,3,8,0.5,0.9
2025-12-11T1900,1653A,116.6251,35.4302,济宁市,火炬城,,,78,153,27,112,51,51,63,63,14,46,5,7,,0.5
2025-12-11T1900,1655A,116.5491,35.4042,济宁市,电化厂,颗粒物(PM10),73,96,194,31,109,52,52,62,62,19,49,5,10,0.1,0.6
2025-12-11T1900,3500A,116.5814,35.3707,济宁市,北湖一中,颗粒物(PM10),52,54,138,27,107,52,52,63,63,15,43,4,10,0.3,0.8
2025-12-11T1900,3501A,116.8249,35.5593,济宁市,服务中心,颗粒物(PM10),71,91,166,21,88,49,49,57,57,12,39,7,12,0.2,0.6
2025-12-11T1900,3678A,116.5907,35.4054,济宁市,市第七中学,颗粒物(PM10),64,77,144,17,94,53,53,64,64,20,48,6,12,0.3,0.8
2025-12-11T1900,2255A,130.2751,46.8028,佳木斯市,佳纺,,33,33,22,17,14,53,53,50,50,11,14,1,3,0.3,0.4
2025-12-11T1900,2256A,130.3995,46.8307,佳木斯市,发电厂,,26,26,12,11,6,57,57,57,57,7,8,5,3,0.4,0.3
2025-12-11T1900,2257A,130.3258,46.7975,佳木斯市,环保局,细颗粒物(PM2.5),53,,18,37,18,52,52,54,54,12,13,2,3,0.3,0.3
2025-12-11T1900,2258A,130.3648,46.8032,佳木斯市,十一中,,35,27,21,24,13,52,52,52,52,13,11,4,4,0.5,0.8
2025-12-11T1900,2259A,130.3794,46.7588,佳木斯市,四丰,,,,,,,,,,,,,,,,
2025-12-11T1900,1252A,120.7436,30.778,嘉兴市,清河小学,细颗粒物(PM2.5),100,122,114,75,60,102,102,122,122,23,57,6,7,0.6,0.7
2025-12-11T1900,1253A,120.726,30.7478,嘉兴市,嘉兴学院,细颗粒物(PM2.5),98,140,114,73,60,105,105,128,128,26,59,8,9,0.2,0.8
2025-12-11T1900,2872A,120.7846,30.7525,嘉兴市,南湖区残联,细颗粒物(PM2.5),98,128,124,73,60,106,106,129,129,25,59,4,6,0.8,0.9
2025-12-11T1900,3407A,120.6916,30.7739,嘉兴市,秀洲住建,,,129,111,,63,98,98,125,125,29,54,7,8,0.7,0.8
2025-12-11T1900,1945A,98.2908,39.7711,嘉峪关市,气象局,颗粒物(PM10),53,56,102,22,28,62,62,66,66,9,14,16,22,1.4,1.1
2025-12-11T1900,2884A,98.2672,39.7978,嘉峪关市,酒钢宾馆,,,,116,,31,,,54,,,23,,41,,1.0
2025-12-11T1900,3248A,98.2643,39.7724,嘉峪关市,雄关区,,49,48,83,34,29,64,64,69,69,19,29,73,30,1.4,1.2
2025-12-11T1900,1383A,113.1064,22.6058,江门市,北街,颗粒物(PM10),55,59,85,30,56,122,122,141,141,37,58,7,9,0.8,0.7
2025-12-11T1900,1384A,113.0731,22.5835,江门市,西区,颗粒物(PM10),73,96,88,40,48,99,99,143,143,98,78,8,9,1.0,0.8
2025-12-11T1900,1385A,113.0219,22.5311,江门市,圭峰西,颗粒物(PM10),60,70,81,42,54,135,135,156,156,38,46,7,8,0.9,0.8
2025-12-11T1900,1386A,113.0828,22.5947,江门市,东湖,颗粒物(PM10),54,57,81,35,46,113,113,137,137,58,56,11,12,0.8,0.5
2025-12-11T1900,3311A,113.1075,22.5647,江门市,江海富民,颗粒物(PM10),77,103,116,40,59,136,136,152,152,61,67,8,8,0.8,0.9
2025-12-11T1900,3449A,113.05,22.4667,江门市,新会银湖,细颗粒物(PM2.5),83,114,95,61,72,84,84,134,134,10,32,7,7,0.8,0.8
2025-12-11T1900,1830A,113.1992,35.2590,焦作市,影视城,,,,125,,81,,,57,,,34,,9,,0.9
2025-12-11T1900,3335A,113.3137,35.2641,焦作市,马村街道办,细颗粒物(PM2.5),129,121,172,98,129,64,64,77,77,17,38,4,9,0.6,1.1
2025-12-11T1900,3336A,113.2465,35.2373,焦作市,焦作技师学院,细颗粒物(PM2.5),104,126,186,78,113,60,60,72,72,16,35,5,12,1.0,1.5
2025-12-11T1900,3477A,113.1656,35.2539,焦作市,中站许衡医院,细颗粒物(PM2.5),108,99,146,81,106,70,70,80,80,20,36,4,10,0.7,1.1
2025-12-11T1900,3981A,113.2449,35.1803,焦作市,原李万街道办,细颗粒物(PM2.5),113,147,157,85,109,59,59,74,74,25,43,3,9,0.9,1.2
2025-12-11T1900,4264A,113.2340,35.2190,焦作市,新安路1731号,细颗粒物(PM2.5),114,119,173,86,123,60,60,72,72,20,43,4,12,0.9,1.3
2025-12-11T1900,4295A,113.2722,35.2121,焦作市,人民路3066号,细颗粒物(PM2.5),102,146,173,76,101,57,57,73,73,22,43,8,11,0.8,1.1
2025-12-11T1900,1708A,116.3701,23.5345,揭阳市,新兴,细颗粒物(PM2.5),55,48,64,39,43,101,101,113,113,28,32,8,13,0.6,0.7
2025-12-11T1900,1709A,116.3264,23.5443,揭阳市,西马,颗粒物(PM10),52,54,74,23,44,112,112,122,122,20,32,5,12,0.3,0.5
2025-12-11T1900,1710A,116.3611,23.5626,揭阳市,东兴,,48,48,71,33,45,102,102,114,114,28,35,10,15,1.1,0.9
2025-12-11T1900,1711A,116.4151,23.5294,揭阳市,渔湖,颗粒物(PM10),57,63,65,31,30,106,106,116,116,27,28,9,12,1.2,0.8
2025-12-11T1900,3320A,116.403,23.5699,揭阳市,曲溪,颗粒物(PM10),71,92,64,38,34,107,107,120,120,29,31,6,13,1.1,0.7
2025-12-11T1900,1944A,102.1692,38.5167,金昌市,天庆家园,颗粒物(PM10),85,119,204,26,41,62,62,59,59,6,16,2,10,0.5,0.7
2025-12-11T1900,4022A,102.1647,38.5371,金昌市,金川区人防中心,颗粒物(PM10),110,170,181,36,45,78,78,73,73,4,13,2,14,0.5,0.6
2025-12-11T1900,4239A,102.1930,38.5319,金昌市,长春路96号,颗粒物(PM10),107,164,181,33,45,74,74,67,67,4,15,6,44,0.5,0.6
2025-12-11T1900,1262A,119.647,29.077,金华市,十五中,细颗粒物(PM2.5),84,100,76,62,46,87,87,125,120,56,50,4,4,0.5,0.6
2025-12-11T1900,1263A,119.686,29.1029,金华市,监测站,,,108,80,,40,36,36,51,51,103,54,4,4,0.6,0.5
2025-12-11T1900,3659A,119.656,29.1131,金华市,气象局,,,122,95,72,51,60,60,96,96,45,59,4,4,,0.7
2025-12-11T1900,1767A,121.1115,41.0879,锦州市,南山,,22,22,27,9,11,58,58,66,64,10,7,7,8,0.6,0.5
2025-12-11T1900,1768A,121.0604,40.8428,锦州市,开发区,,41,41,46,26,20,42,42,55,51,18,12,8,10,0.4,0.5
2025-12-11T1900,1769A,121.1836,41.1119,锦州市,百股街道,,,,36,,11,,,45,,,9,,15,,0.7
2025-12-11T1900,1770A,121.1178,41.1222,锦州市,天安街道,,24,24,34,15,13,55,55,62,61,7,5,9,9,0.6,0.6
2025-12-11T1900,1771A,121.1303,41.1386,锦州市,北湖公园,,26,24,31,18,10,48,48,59,56,11,7,10,10,0.5,0.4
2025-12-11T1900,2160A,112.85,35.5051,晋城市,自来水公司,颗粒物(PM10),64,78,118,34,89,82,82,82,82,15,27,5,11,0.7,1.4
2025-12-11T1900,2161A,112.8318,35.4936,晋城市,白云商贸,颗粒物(PM10),65,80,124,31,59,80,80,81,81,14,26,2,8,0.5,1.1
2025-12-11T1900,2162A,112.8508,35.4887,晋城市,市环保局,颗粒物(PM10),64,78,125,29,68,81,81,81,81,18,26,5,11,0.5,1.2
2025-12-11T1900,2163A,112.8676,35.4897,晋城市,技术学院,颗粒物(PM10),65,79,121,34,70,71,71,72,72,20,33,6,12,0.8,1.3
2025-12-11T1900,2165A,112.8453,35.546,晋城市,白马寺,细颗粒物(PM2.5),73,77,104,53,73,87,87,88,88,14,23,9,18,0.6,1.2
2025-12-11T1900,3620A,112.8271,35.4828,晋城市,泽州一中,颗粒物(PM10),61,72,116,39,69,89,89,88,88,20,31,4,9,0.6,1.2
2025-12-11T1900,2173A,112.7249,37.7067,晋中市,南都小区,细颗粒物(PM2.5),113,158,108,85,47,44,44,51,51,39,50,6,15,0.7,0.6
2025-12-11T1900,2174A,112.6991,37.6982,晋中市,榆次区政府,细颗粒物(PM2.5),135,153,114,103,51,40,40,48,48,36,43,7,16,0.5,0.4
2025-12-11T1900,2865A,112.7195,37.6828,晋中市,榆次三中,细颗粒物(PM2.5),110,144,173,83,66,49,49,51,51,33,37,7,13,0.7,0.7
2025-12-11T1900,4200A,112.7478,37.6954,晋中市,迎宾街26号,细颗粒物(PM2.5),125,136,105,95,51,46,46,50,49,36,42,7,13,0.6,0.4
2025-12-11T1900,2439A,112.2014,31.0481,荆门市,竹园小学,细颗粒物(PM2.5),163,164,192,124,146,101,101,118,118,40,36,6,4,1.1,1.2
2025-12-11T1900,2440A,112.1969,30.9891,荆门市,掇刀,细颗粒物(PM2.5),144,144,200,110,150,116,116,124,124,40,44,8,5,0.7,0.8
2025-12-11T1900,2441A,112.2213,31.0386,荆门市,石化一小,细颗粒物(PM2.5),193,202,215,145,150,91,91,116,116,46,46,10,9,1.0,1.2
2025-12-11T1900,3012A,112.1849,31.0362,荆门市,西山林语,细颗粒物(PM2.5),132,142,171,100,134,127,127,123,123,24,24,9,7,1.1,1.2
2025-12-11T1900,3547A,112.1632,31.0138,荆门市,龙泉中学南校,细颗粒物(PM2.5),148,156,196,113,149,121,121,126,126,28,25,12,11,0.8,1
2025-12-11T1900,1844A,112.2494,30.3197,荆州市,市图书馆,细颗粒物(PM2.5),170,144,157,129,148,105,105,128,128,48,57,10,9,1.4,1.5
2025-12-11T1900,1845A,112.2008,30.3544,荆州市,市委党校,,,,181,,161,,,57,,,53,,5,,1.3
2025-12-11T1900,3194A,112.2747,30.3122,荆州市,管委会,细颗粒物(PM2.5),165,143,166,125,145,99,99,115,115,37,59,7,7,1.3,1.4
2025-12-11T1900,4268A,112.1722,30.3366,荆州市,学苑路85号,细颗粒物(PM2.5),178,157,183,134,160,99,99,126,126,40,38,10,9,1.4,1.3
2025-12-11T1900,2342A,117.3102,29.3867,景德镇市,王港中学,,,,,,,,,,,,,,,,
2025-12-11T1900,2343A,117.2117,29.2933,景德镇市,老干部活动中心,细颗粒物(PM2.5),68,69,73,49,56,79,79,104,104,19,31,6,7,0.6,0.6
2025-12-11T1900,2344A,117.1894,29.2789,景德镇市,兽医站,颗粒物(PM10),67,83,83,47,50,65,65,104,104,29,17,7,8,0.8,0.8
2025-12-11T1900,2346A,117.2461,29.2956,景德镇市,陶研所,细颗粒物(PM2.5),67,68,65,48,51,62,62,100,100,22,28,4,4,1.1,1
2025-12-11T1900,4289A,117.1542,29.2566,景德镇市,青少年活动中心,颗粒物(PM10),74,98,85,48,56,12,12,101,94,94,45,21,10,0.8,0.6
2025-12-11T1900,1803A,115.9872,29.6815,九江市,十里,细颗粒物(PM2.5),109,116,133,82,96,108,108,115,115,44,42,8,12,1.2,1.4
2025-12-11T1900,1804A,115.9584,29.7046,九江市,茅山头,细颗粒物(PM2.5),100,101,137,75,99,106,106,110,110,38,58,6,6,1.1,1.2
2025-12-11T1900,1805A,115.9877,29.7295,九江市,西园,细颗粒物(PM2.5),83,98,145,61,109,121,121,116,116,45,75,10,9,1.0,1.3
2025-12-11T1900,1808A,115.9114,29.6038,九江市,综合工业园,细颗粒物(PM2.5),112,106,119,84,101,83,83,96,96,80,72,5,5,0.6,0.8
2025-12-11T1900,1809A,116.0721,29.7535,九江市,石化总厂,细颗粒物(PM2.5),110,107,171,83,131,96,96,108,108,52,77,7,11,0.9,1.3
2025-12-11T1900,1810A,115.9773,29.5698,九江市,庐山气象台,,,,,,,,,,,,,,,,
2025-12-11T1900,3190A,116.0254,29.6994,九江市,外国语学校,细颗粒物(PM2.5),98,94,158,73,106,103,103,111,110,44,76,9,10,0.8,1.2
2025-12-11T1900,4253A,116.0102,29.6594,九江市,莲花大道8号,细颗粒物(PM2.5),97,117,110,72,87,124,124,114,114,17,33,7,6,0.7,0.8
2025-12-11T1900,4240A,98.4958,39.7339,酒泉市,玉门东路5号,,46,46,110,28,36,76,76,79,78,2,13,9,11,0.4,0.5
2025-12-11T1900,4241A,98.5099,39.7506,酒泉市,北大街108号,,,,112,,37,72,72,74,73,,20,36,12,0.6,0.5
2025-12-11T1900,2698A,76.0072,39.4467,喀什地区,巡警大队,颗粒物(PM10),500,883,309,140,84,75,75,71,71,20,56,3,8,0.4,1.6
2025-12-11T1900,2699A,75.9755,39.4694,喀什地区,吾办,颗粒物(PM10),500,797,308,191,99,73,73,68,68,15,52,6,10,0.5,1.7
2025-12-11T1900,4027A,75.9483,39.4689,喀什地区,老干局,颗粒物(PM10),500,808,332,115,83,78,78,70,70,11,47,3,5,0.5,1.7
2025-12-11T1900,1824A,114.3389,34.7781,开封市,肿瘤医院,,,,214,,145,,,50,50,,56,,8,,1
2025-12-11T1900,1826A,114.2885,34.7965,开封市,世纪星幼儿园,细颗粒物(PM2.5),156,163,202,119,163,41,41,47,47,35,58,10,12,1.0,1.3
2025-12-11T1900,3147A,114.3438,34.8106,开封市,龙亭公园,细颗粒物(PM2.5),145,159,203,111,159,38,38,45,45,34,57,10,12,1.3,1.5
2025-12-11T1900,3210A,114.3644,34.7964,开封市,汴京公园,细颗粒物(PM2.5),148,174,233,113,154,37,37,43,43,37,62,9,11,1.0,1.2
2025-12-11T1900,3473A,114.2485,34.8306,开封市,技师学院,细颗粒物(PM2.5),130,159,196,99,135,35,35,44,44,36,59,9,11,1.3,1.5
2025-12-11T1900,3592A,114.4644,34.7556,开封市,祥符区生态环境局,细颗粒物(PM2.5),132,157,233,100,160,37,37,44,44,39,58,20,7,0.6,0.8
2025-12-11T1900,1951A,84.895,45.6094,克拉玛依市,长征新村,,40,40,36,15,9,30,30,59,36,14,10,4,5,0.5,0.5
2025-12-11T1900,1952A,84.8988,45.5893,克拉玛依市,南林小区,颗粒物(PM10),59,67,36,14,9,34,34,44,40,11,5,5,5,0.5,0.4
2025-12-11T1900,1954A,84.905,44.3396,克拉玛依市,独山子区,,26,26,23,12,9,33,33,49,46,25,10,5,6,0.5,0.3
2025-12-11T1900,1955A,85.6979,46.098,克拉玛依市,乌尔禾区商贸楼,,29,29,58,3,9,43,43,40,40,3,2,4,5,0.3,0.3
2025-12-11T1900,3612A,85.1045,45.6899,克拉玛依市,白碱滩区新站,颗粒物(PM10),68,85,50,12,12,42,42,50,36,6,4,6,8,0.2,0.1
2025-12-11T1900,2697A,76.1454,39.7142,克孜勒苏柯尔克孜自治州,市人民政府,颗粒物(PM10),500,627,216,82,61,81,81,84,84,17,29,6,8,0.2,0.3
2025-12-11T1900,3665A,76.1658,39.7157,克孜勒苏柯尔克孜自治州,克州文化中心,颗粒物(PM10),500,726,243,79,58,84,84,84,84,12,27,8,10,0.4,0.7
2025-12-11T1900,1450A,102.8204,24.8886,昆明市,呈贡新区,,39,39,47,8,46,67,67,83,83,27,34,4,6,1.0,1
2025-12-11T1900,1451A,102.6251,24.9608,昆明市,西山森林公园,,,,,,,,,,,,,,,,
2025-12-11T1900,1452A,102.7252,25.0902,昆明市,龙泉镇,,34,34,47,12,28,54,54,70,70,23,29,4,3,0.7,0.9
2025-12-11T1900,1453A,102.7266,25.0375,昆明市,东风东路,,23,23,48,16,33,59,59,75,75,28,32,4,4,0.4,0.6
2025-12-11T1900,1454A,102.6742,25.0669,昆明市,金鼎山,,46,46,61,17,34,58,58,72,72,24,36,4,4,0.5,0.8
2025-12-11T1900,1455A,102.6644,25.0401,昆明市,碧鸡广场,,23,20,56,16,34,54,54,71,71,25,36,3,4,0.6,0.8
2025-12-11T1900,3179A,102.7494,25.0119,昆明市,官渡区博物馆,,50,50,62,22,33,58,58,76,76,30,41,3,4,0.3,0.8
2025-12-11T1900,3375A,102.8017,24.8336,昆明市,青年创业园,,,,51,,27,80,80,82,82,,27,3,4,1.0,0.9
2025-12-11T1900,3550A,102.7997,24.9786,昆明市,昆明学院,,22,18,64,10,35,68,68,75,75,17,34,3,3,0.4,0.7
2025-12-11T1900,3551A,102.5967,24.6736,昆明市,晋宁区生态环境分局,,28,25,37,19,26,76,76,81,81,10,22,2,2,0.7,0.5
2025-12-11T1900,3552A,102.6678,24.9856,昆明市,云天化总部,,,17,36,9,24,,,81,81,15,33,5,6,,0.6
2025-12-11T1900,1456A,91.1319,29.6514,拉萨市,八廓街,,30,30,24,21,16,81,81,96,96,32,27,14,18,0.7,0.7
2025-12-11T1900,1457A,91.1221,29.6747,拉萨市,市环保局,,33,28,37,23,16,61,61,84,84,33,27,8,12,1.0,1.1
2025-12-11T1900,1458A,91.0874,29.6475,拉萨市,区监测站,,28,16,17,7,10,51,51,80,79,56,38,6,10,0.3,0.3
2025-12-11T1900,1459A,91.1774,29.6541,拉萨市,西藏大学,,30,24,20,21,11,74,74,88,88,38,25,9,13,0.6,0.5
2025-12-11T1900,1460A,90.9798,29.6588,拉萨市,区辐射站,,45,45,31,25,18,57,57,73,73,53,38,8,7,0.7,0.6
2025-12-11T1900,1461A,91.0834,29.6292,拉萨市,拉萨火车站,,28,28,23,12,13,65,65,80,80,38,34,7,8,0.6,0.8
2025-12-11T1900,2520A,109.2203,23.7256,来宾市,来宾技工学校,细颗粒物(PM2.5),103,103,124,77,97,89,89,113,113,28,26,11,13,0.9,1.4
2025-12-11T1900,3535A,109.1781,23.7297,来宾市,兴宾区政府,细颗粒物(PM2.5),104,106,114,78,85,98,98,116,116,22,22,9,11,1.0,1.2
2025-12-11T1900,4002A,109.2416,23.7461,来宾市,中南小学,细颗粒物(PM2.5),98,106,130,73,95,75,75,108,108,35,27,6,11,1.1,1.5
2025-12-11T1900,1477A,104.1373,35.9454,兰州市,榆中兰大校区,,,,,,,,,,,,,,,,
2025-12-11T1900,1479A,103.831,36.0464,兰州市,铁路设计院,,,,,,,,,,,,,,,,
2025-12-11T1900,3241A,103.7439,36.0842,兰州市,百合公园,颗粒物(PM10),85,120,119,61,51,47,47,44,44,62,62,20,24,0.8,1.2
2025-12-11T1900,3242A,103.9611,35.998,兰州市,和平,颗粒物(PM10),105,160,110,71,52,66,66,76,76,36,32,20,12,1.0,1
2025-12-11T1900,4236A,103.6293,36.0938,兰州市,庄浪东路808号,颗粒物(PM10),103,156,135,75,58,30,30,50,50,86,62,25,31,1.3,1.2
2025-12-11T1900,4237A,103.7251,36.1043,兰州市,安宁西路88号,颗粒物(PM10),114,177,152,64,52,85,85,64,64,33,69,20,23,0.8,1.1
2025-12-11T1900,4238A,103.8470,36.0676,兰州市,北滨河东路1号,颗粒物(PM10),112,173,119,61,45,81,81,70,70,43,62,18,15,0.7,1.3
2025-12-11T1900,3245A,103.6633,36.533,兰州新区,新区管委会,颗粒物(PM10),194,338,141,65,62,71,71,78,78,,35,10,21,0.3,0.9
2025-12-11T1900,3246A,103.6975,36.4789,兰州新区,舟曲中学,颗粒物(PM10),171,292,147,30,51,88,88,92,92,13,47,5,20,0.2,0.9
2025-12-11T1900,1067A,116.6708,39.5111,廊坊市,药材公司,颗粒物(PM10),56,62,87,30,54,27,27,42,40,36,46,6,8,0.8,0.9
2025-12-11T1900,1068A,116.7214,39.5589,廊坊市,开发区,,,76,92,40,56,13,13,45,39,,50,4,5,0.7,0.8
2025-12-11T1900,1070A,116.7244,39.5269,廊坊市,北华航天学院,颗粒物(PM10),61,72,96,35,56,20,20,44,40,41,43,5,6,0.7,0.8
2025-12-11T1900,2919A,116.7022,39.5453,廊坊市,河北工业大学,颗粒物(PM10),58,66,103,35,59,23,23,43,40,37,46,5,7,0.6,0.8
2025-12-11T1900,2535A,103.7723,29.5462,乐山市,花湖湾,,,,,,,,,,,,,,,,
2025-12-11T1900,2536A,103.7627,29.5844,乐山市,牛耳桥,细颗粒物(PM2.5),135,110,98,103,85,10,10,24,24,43,33,7,7,1.1,0.9
2025-12-11T1900,2537A,103.7508,29.6006,乐山市,市第三水厂,细颗粒物(PM2.5),122,109,92,92,72,22,22,30,30,38,40,6,6,1.2,1.1
2025-12-11T1900,2538A,103.7571,29.5664,乐山市,市监测站,细颗粒物(PM2.5),103,101,95,77,74,28,28,33,33,26,32,7,7,1.0,1.2
2025-12-11T1900,3361A,103.7311,29.5628,乐山市,理工大学,细颗粒物(PM2.5),104,94,86,78,69,21,21,37,37,,31,,8,1.0,1
2025-12-11T1900,2598A,100.2143,26.8576,丽江市,西南郊,,,,,,,,,,,,,,,,
2025-12-11T1900,2599A,100.2497,26.8802,丽江市,丽江古城,,40,40,31,9,16,62,62,80,80,35,16,10,9,0.7,0.5
2025-12-11T1900,2600A,100.2203,26.8906,丽江市,市中心,,27,27,22,14,13,63,63,80,80,32,19,8,7,0.5,0.4
2025-12-11T1900,1267A,119.914,28.4514,丽水市,监测站大楼,颗粒物(PM10),73,96,39,48,25,80,80,98,98,36,28,5,5,1.0,0.6
2025-12-11T1900,1268A,119.93,28.4586,丽水市,莲都小学,颗粒物(PM10),64,78,48,40,21,116,116,104,104,30,32,6,5,0.6,0.5
2025-12-11T1900,1269A,119.879,28.4231,丽水市,余庄前,颗粒物(PM10),51,52,41,33,27,67,67,87,87,15,17,4,5,0.5,0.4
2025-12-11T1900,1173A,119.176,34.5885,连云港市,市环境监测站,,46,46,116,14,81,58,58,60,60,14,37,8,11,0.3,0.5
2025-12-11T1900,3000A,119.3581,34.6972,连云港市,德源药业,颗粒物(PM10),53,56,127,14,73,56,56,59,59,18,46,5,7,0.3,0.7
2025-12-11T1900,3007A,119.178,34.844,连云港市,新城一中,,,66,121,14,92,61,61,64,64,10,38,8,11,,0.8
2025-12-11T1900,3008A,119.3608,34.7519,连云港市,胡沟管理处,,46,46,112,14,66,60,60,64,64,16,40,6,10,1.1,1.4
2025-12-11T1900,3009A,119.1478,34.5911,连云港市,矿山设计院,颗粒物(PM10),52,53,132,19,84,60,60,62,62,16,46,9,10,0.6,0.9
2025-12-11T1900,3434A,119.2413,34.6539,连云港市,工贸学校,,26,26,115,14,76,57,57,58,58,22,34,9,10,0.5,0.9
2025-12-11T1900,3664A,119.4172,34.7341,连云港市,连云街道,,30,30,110,17,67,55,55,57,57,22,33,7,9,0.6,1
2025-12-11T1900,2571A,102.3431,27.8099,凉山彝族自治州,青龙寺,,,,,,,,,,,,,,,,
2025-12-11T1900,2572A,102.2721,27.8415,凉山彝族自治州,邛海宾馆,颗粒物(PM10),54,58,43,37,34,78,78,84,84,23,20,10,10,0.8,0.9
2025-12-11T1900,2573A,102.2625,27.898,凉山彝族自治州,西昌市政府,,48,48,44,27,35,70,70,64,64,17,19,12,10,0.8,0.9
2025-12-11T1900,2574A,102.2685,27.8851,凉山彝族自治州,凉山州政府,细颗粒物(PM2.5),54,50,52,38,33,73,73,74,74,22,20,12,10,0.9,0.9
2025-12-11T1900,4229A,102.2342,27.8859,凉山彝族自治州,凯乐南路30号,细颗粒物(PM2.5),65,78,68,47,39,28,28,64,64,67,40,11,9,1.5,1.1
2025-12-11T1900,2212A,123.2,41.1953,辽阳市,宏伟区,,33,33,65,22,44,34,34,54,49,20,14,10,7,0.4,0.3
2025-12-11T1900,2213A,123.1683,41.2495,辽阳市,新华园,,43,43,66,21,32,37,37,53,48,22,17,7,7,0.3,0.3
2025-12-11T1900,2214A,123.2354,41.2639,辽阳市,滨河路,颗粒物(PM10),61,72,67,33,36,17,17,47,40,37,18,8,7,0.5,0.8
2025-12-11T1900,2215A,123.149,41.2991,辽阳市,铁西工业园,,46,46,60,30,37,0,0,47,34,46,19,6,7,0.7,0.5
2025-12-11T1900,2227A,125.1358,42.8845,辽源市,环保局,细颗粒物(PM2.5),160,193,114,122,44,22,22,54,48,46,21,6,4,1.2,0.6
2025-12-11T1900,3239A,125.0764,42.9078,辽源市,银鹰制药,细颗粒物(PM2.5),145,142,62,111,41,21,21,56,46,34,20,5,4,1.0,0.5
2025-12-11T1900,1625A,115.9848,36.4372,聊城市,区政府,颗粒物(PM10),56,61,159,25,96,51,51,57,57,23,52,9,11,0.4,0.9
2025-12-11T1900,2878A,116.0072,36.4343,聊城市,聊大东校,颗粒物(PM10),62,73,169,22,98,51,51,57,57,26,49,7,9,0.6,1
2025-12-11T1900,3200A,115.9819,36.4978,聊城市,监控中心,颗粒物(PM10),62,73,168,17,107,48,48,55,55,12,36,15,12,0.6,1
2025-12-11T1900,3513A,116.0445,36.4361,聊城市,九州社区,,,,163,,99,58,58,66,66,,41,1,5,,0.7
2025-12-11T1900,4018A,116.0567,36.4608,聊城市,星美广场,颗粒物(PM10),63,76,170,16,94,48,48,54,54,17,46,3,5,0.3,0.8
2025-12-11T1900,2632A,94.3681,29.6376,林芝市,林芝监测站,,24,14,18,7,8,75,75,80,80,10,16,6,5,0.3,0.4
2025-12-11T1900,2633A,94.3616,29.6616,林芝市,林芝人民医院,,,,,,,,,,,,,,,,
2025-12-11T1900,2603A,100.0781,23.8982,临沧市,市环保局,细颗粒物(PM2.5),58,43,31,41,40,42,42,65,65,12,10,5,6,0.6,0.5
2025-12-11T1900,2604A,100.0894,23.8822,临沧市,市气象局,,,43,32,27,20,,,67,67,6,12,7,8,0.5,0.5
2025-12-11T1900,1733A,111.5531,36.0783,临汾市,临钢医院,颗粒物(PM10),95,139,176,57,103,79,79,71,71,23,40,8,13,0.7,1.4
2025-12-11T1900,1734A,111.5028,36.0714,临汾市,技工学校,颗粒物(PM10),93,136,167,56,97,78,78,64,64,17,42,8,12,0.9,1.6
2025-12-11T1900,1736A,111.5018,36.0855,临汾市,市委,颗粒物(PM10),91,131,181,52,98,83,83,71,71,25,48,11,16,0.8,1.5
2025-12-11T1900,3018A,111.505,36.1014,临汾市,唐尧大酒店,颗粒物(PM10),93,135,174,41,100,84,84,72,72,22,49,5,9,0.6,1.5
2025-12-11T1900,4244A,111.4879,36.0530,临汾市,启星学校,细颗粒物(PM2.5),79,105,155,58,96,84,84,68,68,28,56,10,13,0.6,1.4
2025-12-11T1900,4271A,103.2464,35.6123,临夏回族自治州,滨河东路1号,细颗粒物(PM2.5),119,178,164,90,92,,,77,77,36,36,16,12,1.1,1.6
2025-12-11T1900,4310A,103.2093,35.5995,临夏回族自治州,新华街21号,细颗粒物(PM2.5),127,146,153,96,99,76,76,76,76,28,31,20,13,1.1,1.6
2025-12-11T1900,1618A,118.3429,35.0532,临沂市,沂河小区,,,,149,,109,,,53,53,,55,,12,,0.8
2025-12-11T1900,1619A,118.295,35.0583,临沂市,鲁南制药厂,颗粒物(PM10),53,56,146,22,100,49,49,54,54,25,58,9,15,0.4,0.9
2025-12-11T1900,1620A,118.2794,34.9976,临沂市,新光毛纺厂,颗粒物(PM10),51,51,132,26,90,42,42,49,49,20,48,7,11,0.6,1
2025-12-11T1900,1621A,118.3956,35.0888,临沂市,河东保险公司,,48,48,136,13,81,48,48,56,56,20,47,7,9,0.4,0.8
2025-12-11T1900,3370A,118.3564,35.0215,临沂市,十里堡居委,,,56,143,14,79,,,54,54,24,58,8,13,0.3,1.1
2025-12-11T1900,3496A,118.3604,35.1084,临沂市,南坊新区,颗粒物(PM10),51,51,128,17,85,49,49,56,56,22,50,8,12,0.7,1.1
2025-12-11T1900,3860A,118.3920,35.0300,临沂市,皇山花园小区,,,51,153,16,83,,,58,58,17,53,9,14,0.4,1
2025-12-11T1900,1870A,109.4856,24.3895,柳州市,柳东小学,细颗粒物(PM2.5),75,70,109,55,98,127,127,125,125,14,16,9,13,0.7,1
2025-12-11T1900,1871A,109.4157,24.3277,柳州市,环保监测站,细颗粒物(PM2.5),74,66,147,54,119,92,92,116,116,27,36,9,17,1.0,1.4
2025-12-11T1900,1872A,109.389,24.341,柳州市,河西水厂,细颗粒物(PM2.5),69,73,165,50,111,87,87,118,118,37,40,8,18,0.8,1.2
2025-12-11T1900,1873A,109.4311,24.2921,柳州市,市四中,细颗粒物(PM2.5),97,84,148,72,107,72,72,113,113,46,40,11,22,1.1,1.4
2025-12-11T1900,1874A,109.4006,24.3631,柳州市,市九中,细颗粒物(PM2.5),85,103,164,63,133,76,76,118,118,45,37,10,19,1.1,1.3
2025-12-11T1900,1875A,109.4958,24.3134,柳州市,古亭山,细颗粒物(PM2.5),77,87,93,56,64,64,64,107,107,37,38,9,10,1.0,1.1
2025-12-11T1900,3402A,109.5422,24.3996,柳州市,市二中,细颗粒物(PM2.5),65,60,106,47,90,95,95,112,112,24,25,10,9,0.8,0.9
2025-12-11T1900,2307A,116.5079,31.737,六安市,监测大楼,细颗粒物(PM2.5),205,184,116,155,97,69,69,98,98,53,46,4,5,1.1,1
2025-12-11T1900,2308A,116.4738,31.7643,六安市,皖西学院,细颗粒物(PM2.5),202,217,134,152,102,,,108,108,53,46,4,4,0.9,0.8
2025-12-11T1900,2309A,116.4996,31.7905,六安市,朝阳厂,细颗粒物(PM2.5),190,189,121,143,94,63,63,99,97,59,47,4,4,1.0,0.9
2025-12-11T1900,2310A,116.5567,31.7886,六安市,开发区,细颗粒物(PM2.5),173,205,145,131,93,56,56,97,95,56,46,3,4,0.9,0.9
2025-12-11T1900,2576A,104.8,26.5892,六盘水市,窑上,,,,68,,58,,,44,,,13,,2,,1.2
2025-12-11T1900,2577A,104.83,26.5917,六盘水市,黄土坡,细颗粒物(PM2.5),62,63,52,44,37,78,78,66,66,19,18,6,6,0.6,0.7
2025-12-11T1900,2578A,104.89,26.5939,六盘水市,水钢,细颗粒物(PM2.5),65,60,53,47,43,84,84,73,73,10,11,3,3,0.6,0.7
2025-12-11T1900,2579A,104.8475,26.5894,六盘水市,民中,细颗粒物(PM2.5),62,59,46,44,40,76,76,69,69,16,15,7,4,0.5,0.6
2025-12-11T1900,2580A,104.9544,26.5506,六盘水市,双水,细颗粒物(PM2.5),62,61,45,44,35,84,84,64,64,16,12,4,3,0.5,0.5
2025-12-11T1900,2335A,117.0189,25.1181,龙岩市,龙岩师专,,,,,,,,,,,,,,,,
2025-12-11T1900,2336A,117.0217,25.1033,龙岩市,龙岩市监测站,,49,49,40,33,27,33,33,92,90,65,33,18,14,1.3,0.6
2025-12-11T1900,2337A,117.0258,25.0661,龙岩市,闽西职业技术学院,颗粒物(PM10),51,51,45,26,23,49,49,98,97,42,21,13,8,0.6,0.5
2025-12-11T1900,2338A,117.0196,25.0306,龙岩市,龙岩学院,,48,44,34,33,24,64,64,94,94,16,18,7,7,0.7,0.5
2025-12-11T1900,2665A,105.0822,33.3261,陇南市,汉王镇固水子,,,,,,,,,,,,,,,,
2025-12-11T1900,2885A,104.9339,33.3826,陇南市,滨江中学,颗粒物(PM10),60,70,77,40,45,62,62,60,60,16,35,8,16,0.6,1.7
2025-12-11T1900,3247A,104.955,33.371,陇南市,市总工会,颗粒物(PM10),65,79,89,43,46,62,62,56,56,14,30,4,6,0.6,0.9
2025-12-11T1900,2487A,111.9589,27.8901,娄底市,电视发射台,,,,,,,,,,,,,,,,
2025-12-11T1900,2488A,111.9975,27.725,娄底市,市监测站,细颗粒物(PM2.5),104,113,140,78,100,128,128,124,124,28,43,7,11,0.9,1.3
2025-12-11T1900,2489A,112.0194,27.7314,娄底市,市委党校,细颗粒物(PM2.5),107,125,148,80,109,124,124,114,114,24,46,11,10,1.0,1.3
2025-12-11T1900,2490A,111.9561,27.7569,娄底市,涟钢,细颗粒物(PM2.5),113,121,143,85,110,108,108,113,113,22,28,7,9,0.7,0.9
2025-12-11T1900,2491A,111.9892,27.7044,娄底市,市政府,细颗粒物(PM2.5),103,96,133,77,107,123,123,115,115,29,38,12,12,0.8,1.1
2025-12-11T1900,1893A,105.4324,28.9634,泸州市,九狮山,,,,,,,,,,,,,,,,
2025-12-11T1900,1894A,105.4427,28.9063,泸州市,小市上码头,细颗粒物(PM2.5),115,110,93,87,75,,,20,20,38,27,9,9,,1
2025-12-11T1900,1895A,105.4241,28.8573,泸州市,兰田宪桥,细颗粒物(PM2.5),104,103,86,78,67,8,8,20,20,42,30,7,7,1.0,0.8
2025-12-11T1900,1896A,105.4379,28.8833,泸州市,市环监站,细颗粒物(PM2.5),114,111,92,86,68,8,8,16,16,43,27,8,8,1.0,0.9
2025-12-11T1900,4272A,105.3689,28.7783,泸州市,纳溪中医医院,细颗粒物(PM2.5),93,92,73,69,54,2,2,8,8,34,25,7,7,1.2,1
2025-12-11T1900,2183A,111.1406,37.5211,吕梁市,环保局,细颗粒物(PM2.5),69,81,90,50,34,62,62,67,67,33,46,12,13,0.7,0.5
2025-12-11T1900,2185A,111.1297,37.5136,吕梁市,自来水公司,颗粒物(PM10),68,86,126,42,38,63,63,66,66,26,42,10,19,0.7,0.7
2025-12-11T1900,2867A,111.1283,37.51,吕梁市,马茂庄小学,颗粒物(PM10),73,96,104,48,32,54,54,62,62,37,45,10,13,0.6,0.5
2025-12-11T1900,1812A,112.3931,34.6516,洛阳市,市委党校,细颗粒物(PM2.5),132,169,142,100,110,62,62,77,77,41,45,10,12,0.8,1
2025-12-11T1900,1815A,112.494,34.6886,洛阳市,河南林校,细颗粒物(PM2.5),149,178,153,114,106,58,58,74,74,38,52,8,12,0.7,0.8
2025-12-11T1900,1816A,112.3844,34.623,洛阳市,开发区管委会,细颗粒物(PM2.5),142,175,155,108,107,66,66,86,86,36,34,11,13,0.8,0.9
2025-12-11T1900,1817A,112.4267,34.6258,洛阳市,市委新办公区,细颗粒物(PM2.5),140,168,161,107,104,57,57,77,77,40,38,9,12,0.9,1
2025-12-11T1900,3340A,112.6005,34.6326,洛阳市,伊滨,细颗粒物(PM2.5),158,188,181,120,112,58,58,77,77,36,38,10,11,0.8,0.9
2025-12-11T1900,3341A,112.4951,34.6332,洛阳市,中移产业园,细颗粒物(PM2.5),145,175,152,111,105,58,58,78,78,41,49,8,12,0.8,0.9
2025-12-11T1900,3593A,112.5736,34.8993,洛阳市,吉利监测站,细颗粒物(PM2.5),149,146,152,114,111,58,58,76,76,34,48,8,10,0.8,0.9
2025-12-11T1900,3635A,112.3677,34.662,洛阳市,河科大西苑校区,细颗粒物(PM2.5),118,179,155,89,91,63,63,77,77,41,45,9,12,1.0,1
2025-12-11T1900,3636A,112.4388,34.6781,洛阳市,英才小学,细颗粒物(PM2.5),144,186,168,110,107,55,55,70,70,42,53,10,15,1.0,1.3
2025-12-11T1900,4214A,112.4600,34.6949,洛阳市,春都路1号院,颗粒物(PM10),137,224,177,90,84,51,51,66,66,30,39,10,16,0.9,1.2
2025-12-11T1900,2399A,114.051,33.5699,漯河市,三五一五工厂,细颗粒物(PM2.5),256,295,243,206,180,37,37,61,60,66,40,8,10,1.2,1
2025-12-11T1900,2400A,114.0055,33.5698,漯河市,漯河大学,细颗粒物(PM2.5),238,258,219,188,159,42,42,67,66,71,47,8,9,1.2,1
2025-12-11T1900,2401A,114.0138,33.5828,漯河市,市水利局,细颗粒物(PM2.5),238,254,217,188,159,38,38,62,62,60,40,8,10,1.3,1
2025-12-11T1900,2402A,114.0261,33.5698,漯河市,市广电局,细颗粒物(PM2.5),241,269,228,191,163,36,36,59,59,68,40,8,9,1.2,1
2025-12-11T1900,3478A,113.9749,33.5664,漯河市,市图书馆,细颗粒物(PM2.5),249,280,243,199,167,36,36,56,56,62,40,6,8,1.1,0.9
2025-12-11T1900,4250A,114.0892,33.5882,漯河市,韶山路11号,细颗粒物(PM2.5),246,266,205,196,153,30,30,60,56,72,44,10,11,0.8,0.6
2025-12-11T1900,1798A,118.5092,31.6837,马鞍山市,湖东路四小,细颗粒物(PM2.5),144,166,136,110,94,95,95,114,114,28,65,6,9,0.7,1.3
2025-12-11T1900,1799A,118.5024,31.6449,马鞍山市,开发区,细颗粒物(PM2.5),128,162,149,97,87,98,98,116,114,26,64,7,9,0.8,1.2
2025-12-11T1900,1802A,118.6245,31.7241,马鞍山市,濮塘,,,,,,,,,,,,,,,,
2025-12-11T1900,3633A,118.4918,31.6809,马鞍山市,雨山,细颗粒物(PM2.5),145,174,157,111,98,99,99,114,114,30,75,9,13,1.0,1.6
2025-12-11T1900,4191A,118.5274,31.72227,马鞍山市,慈湖高新区,细颗粒物(PM2.5),175,170,180,132,117,94,94,112,112,29,71,7,14,0.7,1.3
2025-12-11T1900,1686A,111.0286,21.4688,茂名市,电白南海,,,88,83,48,59,,,108,108,,22,10,21,1.3,1.2
2025-12-11T1900,1687A,110.9294,21.6533,茂名市,茂石化七小,颗粒物(PM10),71,92,82,46,54,55,55,70,70,38,27,18,18,0.7,0.7
2025-12-11T1900,1688A,110.9107,21.6687,茂名市,健康路,颗粒物(PM10),58,66,76,34,49,64,64,79,79,28,26,15,28,0.9,0.8
2025-12-11T1900,1689A,110.8592,21.6828,茂名市,高岭,颗粒物(PM10),81,112,102,48,57,48,48,65,65,32,29,15,33,0.9,0.9
2025-12-11T1900,3450A,111.01,21.5165,茂名市,电白水东,,48,48,71,27,47,101,101,95,95,18,20,8,16,0.8,0.9
2025-12-11T1900,2539A,104.0308,30.0478,眉山市,黑龙滩水库,,,,,,,,,,,,,,,,
2025-12-11T1900,2540A,103.8416,30.0874,眉山市,气象局,细颗粒物(PM2.5),170,164,112,129,99,13,13,16,16,55,42,10,11,1.0,0.9
2025-12-11T1900,3137A,103.8578,30.0744,眉山市,市委党校,细颗粒物(PM2.5),132,117,113,100,90,34,34,21,21,43,44,7,7,0.8,1
2025-12-11T1900,3148A,103.8291,30.0564,眉山市,区人社局,细颗粒物(PM2.5),149,140,119,114,96,16,16,18,18,51,47,5,5,1.3,1.4
2025-12-11T1900,1690A,116.1231,24.3284,梅州市,梅江月梅,,48,36,49,33,37,69,69,103,102,22,28,5,6,0.5,0.6
2025-12-11T1900,1691A,116.0797,24.2719,梅州市,梅县新城,细颗粒物(PM2.5),83,86,55,61,39,29,29,101,95,65,39,8,8,1.2,0.7
2025-12-11T1900,1692A,116.1248,24.2654,梅州市,环境监控中心,细颗粒物(PM2.5),58,60,46,41,32,56,56,95,93,44,35,7,10,0.7,0.5
2025-12-11T1900,3315A,116.1233,24.2991,梅州市,梅龙,颗粒物(PM10),57,63,48,31,31,52,52,92,91,37,28,10,10,1.0,0.8
2025-12-11T1900,1878A,104.7778,31.4741,绵阳市,富乐山,细颗粒物(PM2.5),112,101,92,84,77,2,2,51,43,56,28,11,10,1.2,1
2025-12-11T1900,1880A,104.6697,31.4668,绵阳市,高新区自来水公司,细颗粒物(PM2.5),125,126,134,95,95,4,4,36,36,52,50,7,8,1.0,1
2025-12-11T1900,1881A,104.7287,31.5075,绵阳市,三水厂,细颗粒物(PM2.5),127,122,126,96,98,5,5,36,36,60,43,6,6,1.0,1.1
2025-12-11T1900,3491A,104.69,31.5322,绵阳市,西科大附属小学,细颗粒物(PM2.5),147,154,138,112,96,4,4,28,27,55,48,8,8,1.0,1
2025-12-11T1900,3492A,104.5648,31.5343,绵阳市,安州区旅游局,细颗粒物(PM2.5),153,121,108,117,98,26,26,32,32,36,44,11,11,1.1,1.1
2025-12-11T1900,4226A,104.7651,31.4531,绵阳市,绵阳市气象局,细颗粒物(PM2.5),109,120,106,82,77,0,0,49,42,59,40,5,7,1.0,0.9
2025-12-11T1900,1784A,129.61,44.561,牡丹江市,环保大楼,,36,29,40,25,26,40,40,49,46,15,15,7,8,0.3,0.3
2025-12-11T1900,1785A,129.6115,44.5782,牡丹江市,文化广场,,,41,49,27,32,,,69,,15,17,5,7,0.4,0.4
2025-12-11T1900,1786A,129.5904,44.5963,牡丹江市,第一医院,,34,34,46,23,34,44,44,51,49,10,11,3,4,0.4,0.5
2025-12-11T1900,1787A,129.6364,44.6075,牡丹江市,机车工厂,,39,29,50,27,32,50,50,52,51,9,16,2,10,0.2,0.3
2025-12-11T1900,1788A,129.6386,44.5462,牡丹江市,第一中学,,33,29,33,23,28,46,46,52,50,8,12,3,5,0.3,0.4
2025-12-11T1900,2531A,105.0703,29.61,内江市,市监测站,细颗粒物(PM2.5),129,115,88,98,81,46,46,72,72,50,30,8,6,,1.1
2025-12-11T1900,2532A,105.0717,29.5947,内江市,东兴区政府,细颗粒物(PM2.5),113,110,83,85,79,50,50,61,61,50,36,4,4,0.9,0.9
2025-12-11T1900,2533A,105.0653,29.5817,内江市,内江二中,细颗粒物(PM2.5),112,131,107,84,81,40,40,59,59,62,37,4,5,1.1,1.1
2025-12-11T1900,2534A,105.0406,29.5822,内江市,内江日报社,,,109,94,73,77,,,67,67,61,51,2,4,0.8,0.9
2025-12-11T1900,2628A,92.0657,31.4846,那曲市,那曲监测站,,48,48,82,17,44,82,82,76,76,12,35,6,14,0.9,1.9
2025-12-11T1900,4243A,92.0515,31.4787,那曲市,那曲市委宣传部,,,,48,,26,,,46,,,26,,9,,1.4
2025-12-11T1900,1290A,115.8931,28.6843,南昌市,省外办,细颗粒物(PM2.5),110,126,112,83,79,98,98,122,116,32,31,10,11,1.6,1.4
2025-12-11T1900,1291A,115.8886,28.7003,南昌市,省林业公司,细颗粒物(PM2.5),110,112,109,83,82,118,118,128,128,31,58,7,7,1.2,1
2025-12-11T1900,1292A,115.8126,28.7442,南昌市,林科所,细颗粒物(PM2.5),85,85,96,63,68,103,103,122,122,27,40,7,7,0.7,0.7
2025-12-11T1900,1294A,115.8518,28.687,南昌市,建工学校,细颗粒物(PM2.5),108,122,134,81,86,106,106,120,120,39,63,14,14,1.3,1.3
2025-12-11T1900,1295A,115.8921,28.6424,南昌市,象湖,细颗粒物(PM2.5),98,85,121,73,88,101,101,131,131,41,65,10,11,1.0,1
2025-12-11T1900,1296A,115.7423,28.7996,南昌市,武术学校,,,,,,,,,,,,,,,,
2025-12-11T1900,3046A,115.9084,28.6062,南昌市,机电学校,,,110,143,68,97,98,98,136,130,,77,7,12,0.7,1.1
2025-12-11T1900,3690A,115.9721,28.7031,南昌市,外国语学校,细颗粒物(PM2.5),102,119,123,76,91,115,115,126,126,34,51,13,13,0.9,0.8
2025-12-11T1900,4192A,115.9316,28.68677,南昌市,南京东路235号,细颗粒物(PM2.5),117,105,132,88,92,116,116,136,136,48,51,9,9,1.0,0.9
2025-12-11T1900,1905A,106.056,30.8064,南充市,西山风景区,,,,,,,,,,,,,,,,
2025-12-11T1900,1906A,106.0789,30.8023,南充市,南充市委,细颗粒物(PM2.5),125,110,94,95,76,,,58,58,71,40,5,4,1.2,0.9
2025-12-11T1900,1907A,106.1031,30.8217,南充市,南充炼油厂,细颗粒物(PM2.5),122,108,102,92,80,49,49,50,50,43,37,6,6,0.9,1
2025-12-11T1900,4227A,106.1083,30.7884,南充市,梨树横街98号,细颗粒物(PM2.5),124,102,105,94,73,57,57,56,56,46,36,6,5,1.1,0.9
2025-12-11T1900,4304A,106.1172,30.843,南充市,清泉寺北路188号,细颗粒物(PM2.5),113,88,76,85,61,61,61,66,65,39,33,6,5,0.8,0.8
2025-12-11T1900,4305A,106.067,30.7616,南充市,同庆路1号,细颗粒物(PM2.5),107,110,97,80,72,9,9,49,49,88,42,6,6,1.3,1.2
2025-12-11T1900,1151A,118.8086,32.1065,南京市,迈皋桥,细颗粒物(PM2.5),128,181,134,97,80,62,62,96,96,22,49,3,4,0.4,0.6
2025-12-11T1900,1152A,118.7538,32.0551,南京市,草场门,细颗粒物(PM2.5),138,163,140,105,86,47,47,89,89,34,75,3,10,0.9,1.2
2025-12-11T1900,1153A,118.7794,32.0745,南京市,山西路,细颗粒物(PM2.5),147,180,145,112,85,52,52,97,97,30,71,4,5,0.9,1.2
2025-12-11T1900,1154A,118.7752,32.0023,南京市,中华门,细颗粒物(PM2.5),140,171,133,107,84,50,50,96,96,28,64,4,4,0.9,1.2
2025-12-11T1900,1155A,118.8109,32.0309,南京市,瑞金路,细颗粒物(PM2.5),144,171,119,110,76,52,52,92,92,41,66,4,4,0.6,1
2025-12-11T1900,1156A,118.7997,32.0754,南京市,玄武湖,细颗粒物(PM2.5),153,172,119,117,80,54,54,93,93,27,44,4,4,1.1,1.3
2025-12-11T1900,1157A,118.6414,32.0931,南京市,浦口,细颗粒物(PM2.5),170,197,155,129,89,51,51,103,96,26,45,10,10,1.0,0.9
2025-12-11T1900,1158A,118.7356,31.9996,南京市,奥体中心,细颗粒物(PM2.5),156,169,134,119,84,60,60,115,108,34,71,6,9,0.8,1.2
2025-12-11T1900,1159A,118.9125,32.1028,南京市,仙林大学城,细颗粒物(PM2.5),149,171,123,114,78,58,58,91,91,24,65,6,10,1.0,1.3
2025-12-11T1900,3422A,118.8436,31.9198,南京市,江宁彩虹桥,细颗粒物(PM2.5),113,162,120,85,69,80,80,116,116,20,63,4,5,0.8,1
2025-12-11T1900,3427A,118.8554,32.3578,南京市,六合雄州,细颗粒物(PM2.5),122,131,139,92,88,55,55,78,76,18,56,6,8,0.8,1
2025-12-11T1900,4249A,118.8708,31.3402,南京市,汶溪路181号,细颗粒物(PM2.5),172,150,114,130,95,116,116,119,119,36,48,9,9,0.9,1
2025-12-11T1900,4312A,119.019,31.6512,南京市,中山西路1号,细颗粒物(PM2.5),150,134,99,115,78,82,82,107,107,34,38,4,5,0.9,0.9
2025-12-11T1900,1401A,108.3103,22.7881,南宁市,二十一中,细颗粒物(PM2.5),124,126,95,94,73,39,39,74,74,66,41,14,7,1.0,0.9
2025-12-11T1900,1402A,108.3141,22.8528,南宁市,北湖,细颗粒物(PM2.5),112,108,116,84,86,62,62,85,85,52,56,13,16,0.9,1
2025-12-11T1900,1403A,108.3206,22.8225,南宁市,市监测站,细颗粒物(PM2.5),120,128,105,91,81,59,59,84,84,56,42,17,14,1.1,1.1
2025-12-11T1900,1404A,108.3829,22.8037,南宁市,大自然花园,细颗粒物(PM2.5),112,109,100,84,75,50,50,90,90,53,32,7,8,1.1,0.9
2025-12-11T1900,1405A,108.4394,22.7904,南宁市,仙葫,,,,,,,,,,,,,,,,
2025-12-11T1900,1406A,108.2397,22.8467,南宁市,区农职院,细颗粒物(PM2.5),132,124,124,100,100,46,46,,,50,50,16,16,1.1,1.1
2025-12-11T1900,1407A,108.3275,22.735,南宁市,英华嘉园,细颗粒物(PM2.5),160,136,113,122,90,50,50,82,82,53,53,9,5,1.0,0.9
2025-12-11T1900,3401A,108.4834,22.7618,南宁市,红星社区,细颗粒物(PM2.5),103,109,108,77,83,74,74,98,98,31,44,8,7,1.1,1
2025-12-11T1900,4221A,108.2177,22.7774,南宁市,乐贤路16号,细颗粒物(PM2.5),147,144,122,112,88,52,52,71,71,57,54,13,12,1.1,1
2025-12-11T1900,2331A,118.0966,26.6761,南平市,茫荡山,,,,30,,21,,,102,,,,,1,,
2025-12-11T1900,2332A,118.1681,26.6369,南平市,南平市监测站,细颗粒物(PM2.5),58,50,36,41,25,49,49,86,86,32,28,4,4,1.2,0.7
2025-12-11T1900,2333A,118.1825,26.6489,南平市,南平铝业有限公司,细颗粒物(PM2.5),68,,37,49,31,46,46,80,80,34,31,4,6,0.9,0.6
2025-12-11T1900,2334A,118.1756,26.6272,南平市,南平七中,,49,45,34,34,25,70,70,91,91,18,22,5,5,0.6,0.5
2025-12-11T1900,1168A,120.9098,31.9663,南通市,狼山街道,细颗粒物(PM2.5),112,139,98,84,56,81,81,104,103,16,41,3,5,0.7,0.7
2025-12-11T1900,1169A,120.86,32.0005,南通市,虹桥,细颗粒物(PM2.5),114,111,98,86,67,76,76,100,99,18,55,3,8,0.9,0.9
2025-12-11T1900,1170A,120.87,32.02,南通市,城中,细颗粒物(PM2.5),107,133,114,80,63,76,76,98,97,19,57,4,9,0.9,0.9
2025-12-11T1900,1171A,120.94,31.93,南通市,星湖花园,细颗粒物(PM2.5),110,133,110,83,65,79,79,101,100,18,53,4,6,0.9,0.9
2025-12-11T1900,1172A,120.81,32.0417,南通市,紫琅学院,细颗粒物(PM2.5),110,132,119,83,68,80,80,108,104,20,61,4,8,0.9,1.1
2025-12-11T1900,3291A,121.067,32.062,南通市,通州监测站,细颗粒物(PM2.5),107,107,94,80,66,82,82,107,106,18,59,3,6,0.9,0.9
2025-12-11T1900,3432A,120.9348,31.9883,南通市,环境教育馆,细颗粒物(PM2.5),123,122,92,93,62,82,82,109,105,18,46,5,7,0.7,0.7
2025-12-11T1900,2404A,112.5224,33.0122,南阳市,瓦房庄,细颗粒物(PM2.5),219,227,192,169,148,69,69,97,97,40,36,9,9,1.2,1.1
2025-12-11T1900,2405A,112.5003,32.9735,南阳市,汉画馆,,,,199,,144,,,59,,,37,,7,,1.0
2025-12-11T1900,2406A,112.5573,33.027,南阳市,气象站,细颗粒物(PM2.5),216,276,230,166,143,68,68,97,97,46,39,6,6,1.1,1
2025-12-11T1900,2407A,112.5481,32.9689,南阳市,理工学院,细颗粒物(PM2.5),195,236,199,146,132,67,67,97,97,47,40,8,8,1.1,1
2025-12-11T1900,4008A,112.5234,32.9922,南阳市,卧龙区政府,细颗粒物(PM2.5),210,261,220,160,142,66,66,93,93,47,42,8,8,1.1,1
2025-12-11T1900,1234A,121.8358,29.911,宁波市,区环保大楼,细颗粒物(PM2.5),97,115,66,72,36,103,103,97,97,39,49,6,7,0.8,0.7
2025-12-11T1900,1235A,121.56,29.82,宁波市,万里学院,细颗粒物(PM2.5),98,114,91,73,62,120,120,131,131,31,40,7,8,0.8,0.8
2025-12-11T1900,1236A,121.713,29.9572,宁波市,龙赛医院,颗粒物(PM10),83,116,77,54,44,108,108,101,101,22,47,5,6,0.9,0.8
2025-12-11T1900,1239A,121.633,29.7733,宁波市,钱湖水厂,细颗粒物(PM2.5),78,103,55,57,33,108,108,126,126,38,28,8,7,0.7,0.6
2025-12-11T1900,1240A,121.5856,29.8635,宁波市,太古小学,颗粒物(PM10),78,106,64,54,40,122,122,135,135,20,34,4,4,0.8,0.8
2025-12-11T1900,1241A,121.524,29.8674,宁波市,市环境监测中心,细颗粒物(PM2.5),74,88,60,54,40,117,117,126,126,21,36,7,6,0.8,0.7
2025-12-11T1900,2871A,121.6147,29.9017,宁波市,万里国际学校,细颗粒物(PM2.5),80,106,60,59,44,125,125,129,129,23,39,5,6,0.8,0.7
2025-12-11T1900,3710A,121.5594,29.8975,宁波市,白沙活动中心,颗粒物(PM10),74,98,57,51,39,118,118,128,128,27,44,6,6,0.7,0.6
2025-12-11T1900,2339A,119.5001,26.6946,宁德市,金涵水库,,,,24,,15,,,36,,,10,,1,,0.4
2025-12-11T1900,2341A,119.5388,26.6612,宁德市,宁德市监测站,,36,,24,25,15,105,105,92,92,21,21,8,8,0.5,0.5
2025-12-11T1900,3209A,119.5231,26.6562,宁德市,宁德一中,,40,40,23,25,16,96,96,87,87,21,16,9,8,0.5,0.3
2025-12-11T1900,2618A,98.8601,25.8567,怒江傈僳族自治州,州监测站,,,55,30,33,20,,,60,60,17,12,8,8,0.6,0.5
2025-12-11T1900,2619A,98.8546,25.8417,怒江傈僳族自治州,泸水一中,颗粒物(PM10),56,62,31,10,20,13,13,41,40,51,20,6,5,1.0,0.7
2025-12-11T1900,1888A,101.6891,26.571,攀枝花市,弄弄坪,颗粒物(PM10),58,66,61,36,36,42,42,45,44,49,31,7,10,1.4,1.4
2025-12-11T1900,1889A,101.5769,26.5928,攀枝花市,河门口,颗粒物(PM10),51,51,59,21,35,52,52,51,51,25,27,12,16,1.0,1.2
2025-12-11T1900,1890A,101.7169,26.585,攀枝花市,炳草岗,颗粒物(PM10),62,73,71,34,44,18,18,36,36,67,50,12,15,1.5,1.5
2025-12-11T1900,1891A,101.7369,26.5008,攀枝花市,仁和,颗粒物(PM10),72,93,60,50,37,16,16,38,37,59,32,32,28,3.6,2.4
2025-12-11T1900,2835A,101.7227,26.567,攀枝花市,四十中小,颗粒物(PM10),59,67,63,41,39,10,10,41,41,78,50,23,17,3.7,1.8
2025-12-11T1900,1604A,122.0303,41.1489,盘锦市,开发区,,46,46,38,23,15,32,32,54,49,19,7,1,2,0.5,0.5
2025-12-11T1900,1605A,122.0485,41.0883,盘锦市,兴隆台,,37,37,35,13,13,37,37,52,48,20,12,6,7,0.5,0.5
2025-12-11T1900,1606A,121.8297,41.1028,盘锦市,新生街道,,33,33,28,12,7,23,23,51,44,24,15,7,7,0.3,0.2
2025-12-11T1900,1832A,113.3257,33.742,平顶山市,新华旅馆,细颗粒物(PM2.5),215,254,202,165,134,43,43,71,69,53,40,8,12,1.1,0.9
2025-12-11T1900,1833A,113.2919,33.737,平顶山市,规划设计院,细颗粒物(PM2.5),219,262,226,169,141,49,49,77,75,56,49,6,10,0.9,0.9
2025-12-11T1900,1834A,113.182,33.774,平顶山市,平顶山工学院,细颗粒物(PM2.5),206,233,194,156,128,54,54,83,81,48,34,7,11,1.0,0.8
2025-12-11T1900,3204A,113.3025,33.73,平顶山市,规划局,细颗粒物(PM2.5),212,259,210,162,132,50,50,77,76,53,44,8,11,1.2,1.1
2025-12-11T1900,3594A,112.8867,33.9116,平顶山市,石龙区,细颗粒物(PM2.5),199,252,169,149,102,56,56,86,86,51,48,8,10,1.1,0.7
2025-12-11T1900,2656A,106.6692,35.5461,平凉市,聚贤嘉苑,细颗粒物(PM2.5),69,82,94,50,34,61,61,81,81,46,38,12,8,0.8,0.7
2025-12-11T1900,2657A,106.7021,35.5307,平凉市,博物馆,颗粒物(PM10),86,121,81,63,37,63,63,86,83,43,34,14,12,0.8,0.7
2025-12-11T1900,2347A,114.0997,27.5002,萍乡市,武功山,,,,,,,,,,,,,,,,
2025-12-11T1900,2348A,113.8385,27.6434,萍乡市,中医院,细颗粒物(PM2.5),95,101,108,71,76,107,107,121,121,35,46,7,9,1.6,2
2025-12-11T1900,2349A,113.8493,27.6253,萍乡市,市政府车库,细颗粒物(PM2.5),89,109,101,66,82,108,108,120,120,33,42,10,11,1.7,2.7
2025-12-11T1900,2350A,113.8676,27.6435,萍乡市,市环保局,细颗粒物(PM2.5),95,92,102,71,76,133,133,142,142,21,38,15,18,0.8,1.7
2025-12-11T1900,2351A,113.866,27.6198,萍乡市,安源区政府,细颗粒物(PM2.5),124,106,114,94,100,74,74,90,90,39,37,25,14,1.4,3
2025-12-11T1900,2319A,119.0141,25.4325,莆田市,荔城区仓后路,,48,48,37,23,21,111,111,104,104,15,16,4,4,0.5,0.6
2025-12-11T1900,2320A,119.0015,25.4553,莆田市,莆田市监测站,,40,40,28,26,18,99,99,106,106,21,14,5,4,0.5,0.5
2025-12-11T1900,2321A,119.1119,25.4561,莆田市,涵江区六中,,40,40,33,19,22,118,118,104,104,12,21,4,4,0.5,0.6
2025-12-11T1900,2322A,119.1013,25.3215,莆田市,秀屿区政府,,37,37,32,16,21,99,99,108,108,17,17,6,5,0.8,0.6
2025-12-11T1900,2323A,118.981,25.4792,莆田市,东圳水库,,,,25,,18,,,77,,,11,,5,,1.0
2025-12-11T1900,2392A,115.0312,35.7636,濮阳市,环保局,颗粒物(PM10),64,78,170,26,123,43,43,44,44,19,55,8,8,0.8,1.4
2025-12-11T1900,2394A,115.0574,35.7609,濮阳市,油田运输公司,颗粒物(PM10),62,73,193,30,128,45,45,48,48,21,57,8,8,0.6,1.3
2025-12-11T1900,3021A,115,35.7668,濮阳市,濮水河管理处,颗粒物(PM10),66,82,202,25,153,46,46,46,46,9,47,8,9,0.9,1.4
2025-12-11T1900,4216A,115.0924,35.7686,濮阳市,任丘路479号,颗粒物(PM10),66,82,202,28,128,40,40,46,46,18,57,7,7,0.6,1.3
2025-12-11T1900,2601A,100.98,22.7633,普洱市,市环保局,,49,49,43,31,19,44,44,67,67,17,10,4,4,0.5,0.4
2025-12-11T1900,2602A,100.9817,22.8322,普洱市,普洱第二中学,,,44,37,26,18,,,70,70,20,15,5,4,0.3,0.3
2025-12-11T1900,2262A,131.0518,45.8751,七台河市,新一中,,,,,,,,,,,,,,,,
2025-12-11T1900,3345A,131.0577,45.7879,七台河市,中波台,,49,49,40,14,16,42,42,49,47,14,15,7,7,0.4,0.5
2025-12-11T1900,3637A,131.0176,45.7761,七台河市,人民广场,,40,40,39,14,21,48,48,51,51,14,15,6,7,0.4,0.4
2025-12-11T1900,3684A,130.8781,45.8222,七台河市,新建矿广场,,,34,36,20,22,49,49,48,48,3,10,,16,0.4,0.3
2025-12-11T1900,1779A,123.9305,47.3636,齐齐哈尔市,安居小区,,29,29,23,16,10,43,43,50,48,15,8,4,5,0.7,0.5
2025-12-11T1900,1780A,123.9488,47.3386,齐齐哈尔市,中心广场,,32,32,18,7,4,42,42,45,42,16,12,5,5,0.5,0.4
2025-12-11T1900,1781A,123.9483,47.3227,齐齐哈尔市,农牧车辆厂,,29,29,28,20,9,40,40,44,41,11,7,4,4,0.6,0.6
2025-12-11T1900,1783A,123.945,47.2988,齐齐哈尔市,市环境监测站,颗粒物(PM10),52,54,34,19,6,41,41,50,46,16,7,6,5,0.6,0.4
2025-12-11T1900,3662A,123.6333,47.2075,齐齐哈尔市,富区青少年活动中心,细颗粒物(PM2.5),62,67,34,44,11,29,29,46,43,32,15,10,6,0.7,0.6
2025-12-11T1900,2591A,107.9783,26.5747,黔东南苗族侗族自治州,市环境监测站,细颗粒物(PM2.5),114,109,65,86,55,2,2,29,27,58,23,8,5,1.4,0.8
2025-12-11T1900,2881A,107.8908,26.5311,黔东南苗族侗族自治州,凯里学院,细颗粒物(PM2.5),83,83,59,61,50,22,22,34,34,24,16,4,4,0.8,0.8
2025-12-11T1900,2593A,107.5228,26.2403,黔南布依族苗族自治州,小围寨,细颗粒物(PM2.5),77,,48,56,42,50,50,34,34,6,15,6,7,0.6,0.8
2025-12-11T1900,3538A,107.5175,26.2978,黔南布依族苗族自治州,沙坝,细颗粒物(PM2.5),64,56,57,46,48,36,36,29,29,15,19,4,5,0.8,0.8
2025-12-11T1900,2589A,104.9022,25.0925,黔西南布依族苗族自治州,场坝街,,42,39,41,29,31,68,68,69,69,9,10,2,3,0.5,0.6
2025-12-11T1900,2590A,104.8811,25.0992,黔西南布依族苗族自治州,坪东大道,,45,,34,31,30,64,64,66,66,9,12,5,5,0.7,0.7
2025-12-11T1900,2502A,108.6236,21.9667,钦州市,市环保站,颗粒物(PM10),104,158,111,73,61,63,63,84,84,45,30,6,6,0.9,0.8
2025-12-11T1900,2503A,108.6549,21.9481,钦州市,沙埠小学,细颗粒物(PM2.5),109,135,106,82,67,83,83,90,90,29,35,10,12,0.9,0.8
2025-12-11T1900,2504A,108.5989,21.7431,钦州市,港区一小,颗粒物(PM10),90,129,92,61,56,45,45,63,63,64,42,9,10,0.9,0.8
2025-12-11T1900,3404A,108.5959,21.9633,钦州市,北职校,细颗粒物(PM2.5),124,125,96,94,69,67,67,81,81,29,24,10,10,0.9,1.1
2025-12-11T1900,1043A,119.7493,40.0116,秦皇岛市,第一关,细颗粒物(PM2.5),54,52,43,38,32,15,15,57,47,52,25,7,8,0.5,0.3
2025-12-11T1900,1044A,119.5897,39.9499,秦皇岛市,监测站,颗粒物(PM10),54,57,56,20,25,32,32,63,57,34,22,8,10,0.5,0.4
2025-12-11T1900,1046A,119.5251,39.9041,秦皇岛市,建设大厦,,48,48,52,24,34,39,39,60,56,23,17,6,8,0.4,0.4
