timepoint,stationcode,longitude,latitude,area,positionname,primarypollutant,aqi,pm10,pm10_24h,pm2_5,pm2_5_24h,o3,o3_24h,o3_8h,o3_8h_24h,no2,no2_24h,so2,so2_24h,co,co_24h
2025-12-11T0100,2294A,116.9896,30.6145,安庆市,安庆大学,细颗粒物(PM2.5),120,135,115,91,71,9,9,,,63,49,7,9,0.9,0.7
2025-12-11T0100,3173A,117.0598,30.5351,安庆市,市人大,细颗粒物(PM2.5),129,123,115,98,72,2,2,,,80,62,8,10,0.8,0.7
2025-12-11T0100,3122A,105.9606,26.2611,安顺市,伍家关,,48,44,35,33,24,12,12,,,41,12,34,19,1.0,0.9
2025-12-11T0100,3123A,105.9408,26.2431,安顺市,凤凰山,细颗粒物(PM2.5),80,59,36,59,31,47,47,,,23,18,25,18,0.6,0.6
2025-12-11T0100,3124A,105.9439,26.2564,安顺市,金钟山,细颗粒物(PM2.5),62,48,33,44,27,43,43,,,21,14,28,20,0.8,0.8
2025-12-11T0100,3125A,105.8983,26.2481,安顺市,娄家坡,细颗粒物(PM2.5),58,46,35,41,30,38,38,,,23,16,35,20,0.9,0.8
2025-12-11T0100,1818A,114.4839,36.0621,安阳市,棉研所,,,,,,,,,,,,,,,,
2025-12-11T0100,1819A,114.3551,36.1017,安阳市,红庙街,细颗粒物(PM2.5),225,237,193,175,142,4,4,,,104,70,10,8,1.3,1
2025-12-11T0100,1820A,114.361,36.0681,安阳市,银杏小区,细颗粒物(PM2.5),232,241,198,182,152,3,3,,,95,60,9,6,1.2,0.9
2025-12-11T0100,3141A,114.3922,36.0878,安阳市,信访局,细颗粒物(PM2.5),222,258,200,172,147,6,6,,,100,63,9,7,1.1,0.9
2025-12-11T0100,3669A,114.4705,36.0637,安阳市,左辅环卫站,细颗粒物(PM2.5),224,249,224,174,153,12,12,,,83,51,6,4,1.0,0.8
2025-12-11T0100,3703A,114.2917,36.0949,安阳市,安钢职工学校,细颗粒物(PM2.5),220,264,218,170,151,3,3,,,109,69,12,7,1.7,1.2
2025-12-11T0100,1748A,123.044,41.1196,鞍山市,深沟寺,颗粒物(PM10),53,56,150,31,105,33,33,,,24,53,8,18,0.6,1.6
2025-12-11T0100,1749A,123.011,41.0931,鞍山市,太阳城,颗粒物(PM10),56,61,142,34,105,34,34,,,20,50,11,20,0.6,1.6
2025-12-11T0100,1750A,123.0485,41.1442,鞍山市,太平,颗粒物(PM10),51,52,203,30,127,30,30,,,20,59,10,23,0.7,2.3
2025-12-11T0100,1751A,122.9642,41.0971,鞍山市,铁西三道街,,49,49,217,28,136,31,31,,,28,63,22,32,2.2,3.6
2025-12-11T0100,1753A,123.022,41.0821,鞍山市,明达新区,,48,48,134,31,96,31,31,,,17,34,10,18,0.6,1.6
2025-12-11T0100,1754A,123.1289,41.0228,鞍山市,千山,,,,97,,89,,,18,,,43,,7,,1.1
2025-12-11T0100,4201A,122.9446,41.0826,鞍山市,兴盛南路290号,颗粒物(PM10),56,62,214,35,145,18,18,,,40,66,17,35,2.2,3.5
2025-12-11T0100,2195A,107.4212,40.761,巴彦淖尔市,附二中,颗粒物(PM10),60,70,73,41,44,18,18,,,34,29,20,10,0.7,0.8
2025-12-11T0100,2196A,107.37,40.7372,巴彦淖尔市,市环保大楼,细颗粒物(PM2.5),58,58,64,41,34,43,43,,,24,27,8,5,0.6,0.7
2025-12-11T0100,1956A,86.1472,41.7538,巴音郭楞蒙古自治州,孔雀公园,颗粒物(PM10),135,220,122,54,50,62,62,,,25,39,12,12,0.6,0.7
2025-12-11T0100,1957A,86.1972,41.7166,巴音郭楞蒙古自治州,棉纺厂,颗粒物(PM10),99,148,133,44,38,57,57,,,27,41,9,9,0.8,0.8
2025-12-11T0100,1958A,86.2357,41.7173,巴音郭楞蒙古自治州,经济开发区,颗粒物(PM10),115,180,102,33,35,64,64,,,16,26,8,9,0.6,0.6
2025-12-11T0100,2914A,106.7677,31.8794,巴中市,苏山坪,,,,,,,,,,,,,,,,
2025-12-11T0100,3181A,106.7768,31.8526,巴中市,市五中,细颗粒物(PM2.5),97,95,88,72,67,5,5,,,26,22,5,5,1.0,1.1
2025-12-11T0100,3183A,106.7418,31.8654,巴中市,圣泉水务公司,细颗粒物(PM2.5),84,83,78,62,62,0,0,,,34,30,6,5,0.9,1.1
2025-12-11T0100,3616A,106.7616,31.8344,巴中市,市中心医院,细颗粒物(PM2.5),105,100,83,79,70,1,1,,,27,25,6,6,1.5,1.4
2025-12-11T0100,2235A,122.7911,45.6077,白城市,洮北区环保局,,23,23,37,9,20,50,50,,,10,13,5,6,0.2,0.2
2025-12-11T0100,2236A,122.8738,45.5725,白城市,市环保局,,19,,29,13,18,49,49,,,4,11,4,4,0.2,0.3
2025-12-11T0100,2231A,126.4219,41.9171,白山市,喜丰,,43,38,88,30,41,59,59,,,9,41,6,14,0.5,1
2025-12-11T0100,2232A,126.4077,41.9419,白山市,环保局,,,,56,,38,,,10,,,35,,12,,1.2
2025-12-11T0100,2647A,104.1724,36.5446,白银市,第三小学,颗粒物(PM10),84,117,158,45,58,20,20,,,49,51,46,36,0.8,1
2025-12-11T0100,2648A,104.1465,36.5482,白银市,动力公司,颗粒物(PM10),70,90,141,36,55,41,41,,,27,38,9,21,1.6,1.4
2025-12-11T0100,2512A,106.6103,23.9011,百色市,市监测站,细颗粒物(PM2.5),84,82,82,62,61,13,13,,,25,27,8,14,1.0,1.1
2025-12-11T0100,2513A,106.6538,23.8859,百色市,市中心血站,细颗粒物(PM2.5),80,104,96,59,75,2,2,,,47,39,8,15,1.1,1.2
2025-12-11T0100,3406A,106.6085,23.8798,百色市,祈福高中,细颗粒物(PM2.5),72,78,91,52,62,5,5,,,28,32,6,9,0.8,0.9
2025-12-11T0100,2270A,117.396,32.939,蚌埠市,工人疗养院,细颗粒物(PM2.5),147,171,126,112,66,42,42,,,56,51,7,9,0.9,0.7
2025-12-11T0100,2271A,117.3605,32.9427,蚌埠市,百货大楼,细颗粒物(PM2.5),144,149,118,110,69,62,62,,,45,55,8,9,0.8,0.8
2025-12-11T0100,2273A,117.4185,32.8911,蚌埠市,蚌埠学院,细颗粒物(PM2.5),159,171,119,121,68,37,37,,,59,51,7,9,0.8,0.7
2025-12-11T0100,2274A,117.3533,32.9673,蚌埠市,淮上区政府,细颗粒物(PM2.5),145,171,128,111,72,49,49,,,64,54,11,11,0.8,0.7
2025-12-11T0100,2275A,117.3145,32.8977,蚌埠市,高新区,细颗粒物(PM2.5),179,183,130,135,76,16,16,,,74,62,8,10,0.9,0.8
2025-12-11T0100,3715A,117.3092,32.9314,蚌埠市,蚌埠田家炳中学,细颗粒物(PM2.5),190,195,142,143,78,27,27,,,72,67,35,21,0.8,0.7
2025-12-11T0100,1585A,109.8756,40.6532,包头市,市环境监测站,,29,29,90,8,42,73,73,,,14,51,9,27,0.5,1.6
2025-12-11T0100,1587A,109.9991,40.5842,包头市,包头八中,,44,44,94,21,55,50,50,,,30,50,7,23,0.6,1.6
2025-12-11T0100,1588A,109.8538,40.6821,包头市,青山宾馆,,28,,65,19,42,73,73,,,11,42,6,15,0.4,1.3
2025-12-11T0100,1589A,109.8642,40.6288,包头市,惠龙物流,,38,29,95,26,51,72,72,,,16,53,7,29,0.5,1.9
2025-12-11T0100,1590A,110.0377,40.5546,包头市,东河鸿龙湾,,33,33,84,14,47,27,27,,,53,54,7,17,0.9,1.7
2025-12-11T0100,3283A,109.9154,40.5685,包头市,滨河大厦,颗粒物(PM10),51,52,90,34,55,25,25,,,47,50,10,20,0.8,1.4
2025-12-11T0100,3419A,109.9447,40.6261,包头市,包头市委党校,,29,29,83,18,46,64,64,,,17,50,7,26,0.5,1.5
2025-12-11T0100,3683A,109.8331,40.6576,包头市,昆区政府,,28,28,86,19,50,74,74,,,15,49,6,25,0.4,1.5
2025-12-11T0100,1930A,107.185,34.3063,宝鸡市,庙沟村,,,,,,,,,,,,,,,,
2025-12-11T0100,1931A,107.0708,34.3017,宝鸡市,竹园沟,,49,49,69,28,51,24,24,,,20,21,6,7,0.4,0.3
2025-12-11T0100,1932A,107.1906,34.3672,宝鸡市,三陆医院,颗粒物(PM10),63,76,117,43,76,18,18,,,44,45,6,8,0.6,0.7
2025-12-11T0100,1933A,107.1431,34.3547,宝鸡市,监测站,细颗粒物(PM2.5),62,55,93,44,68,21,21,,,29,34,4,6,0.3,0.5
2025-12-11T0100,1934A,107.1186,34.3739,宝鸡市,技工学校,细颗粒物(PM2.5),68,67,99,49,68,31,31,,,20,30,6,8,0.6,0.7
2025-12-11T0100,1936A,107.2058,34.3497,宝鸡市,文理学院,细颗粒物(PM2.5),75,72,96,55,68,28,28,,,31,38,6,7,0.7,0.8
2025-12-11T0100,1937A,107.2386,34.3622,宝鸡市,三迪小学,细颗粒物(PM2.5),82,79,111,60,81,18,18,,,37,46,4,6,0.8,0.9
2025-12-11T0100,4308A,107.3898,34.3601,宝鸡市,陈仓区北开路21号,颗粒物(PM10),85,120,123,53,77,14,14,,,47,44,12,27,0.7,0.9
2025-12-11T0100,1051A,115.493,38.8632,保定市,游泳馆,细颗粒物(PM2.5),140,144,117,107,85,3,3,,,82,72,10,11,0.7,0.8
2025-12-11T0100,1052A,115.5213,38.8959,保定市,华电二区,细颗粒物(PM2.5),155,132,113,118,91,1,1,,,75,66,8,8,0.8,0.7
2025-12-11T0100,1053A,115.4713,38.9108,保定市,接待中心,细颗粒物(PM2.5),155,155,121,118,87,2,2,,,80,72,4,5,1.1,0.9
2025-12-11T0100,1054A,115.4612,38.8416,保定市,地表水厂,细颗粒物(PM2.5),140,164,128,107,83,11,11,,,90,75,9,8,0.8,0.8
2025-12-11T0100,3581A,115.31981,38.95208,保定市,满城区生态环境分局,细颗粒物(PM2.5),132,144,134,100,83,2,2,,,85,70,8,7,0.8,0.8
2025-12-11T0100,3582A,115.47694,38.76408,保定市,清苑区第二中学,细颗粒物(PM2.5),140,178,150,107,85,2,2,,,83,77,10,10,1.1,1
2025-12-11T0100,3583A,115.62909,39.02311,保定市,徐水物探局,细颗粒物(PM2.5),189,204,159,142,94,6,6,,,69,61,11,10,1.3,1.1
2025-12-11T0100,4004A,115.4202,38.8656,保定市,双鹰农机,细颗粒物(PM2.5),145,182,151,111,80,11,11,,,81,70,10,8,0.8,0.8
2025-12-11T0100,4034A,115.5150,38.8590,保定市,植保所站,细颗粒物(PM2.5),148,145,129,113,89,3,3,,,82,71,7,8,1.2,1.2
2025-12-11T0100,2594A,99.1678,25.1081,保山市,市环境监测站,,38,,24,26,16,37,37,,,12,10,8,6,0.5,0.5
2025-12-11T0100,2595A,99.1711,25.1328,保山市,市环保局,,36,,26,25,19,56,56,,,4,7,4,4,0.4,0.5
2025-12-11T0100,1866A,109.2262,21.588,北海市,牛尾岭水库,细颗粒物(PM2.5),89,70,57,66,55,51,51,,,10,10,9,9,0.6,0.6
2025-12-11T0100,1867A,109.1436,21.4086,北海市,海滩公园,细颗粒物(PM2.5),89,97,72,66,48,64,64,,,22,17,16,13,0.9,0.9
2025-12-11T0100,1868A,109.0981,21.4661,北海市,新市环保局,细颗粒物(PM2.5),98,87,74,73,57,62,62,,,31,25,21,17,1.0,0.9
2025-12-11T0100,1869A,109.1778,21.5233,北海市,北海工业园,细颗粒物(PM2.5),110,112,86,83,61,48,48,,,29,23,24,20,0.8,0.9
2025-12-11T0100,3400A,109.1911,21.4415,北海市,龙潭自来水厂,细颗粒物(PM2.5),103,97,75,77,60,53,53,,,22,19,12,10,1.1,1
2025-12-11T0100,1001A,116.3621,39.8784,北京市,万寿西宫,细颗粒物(PM2.5),74,89,98,54,57,2,2,,,68,62,3,5,0.8,0.8
2025-12-11T0100,1002A,116.2202,40.2915,北京市,定陵,,,,,,,,,,,,,,,,
2025-12-11T0100,1003A,116.4174,39.9289,北京市,东四,"颗粒物(PM10),细颗粒物(PM2.5)",68,85,94,49,52,7,7,,,59,57,6,7,1.0,0.8
2025-12-11T0100,1004A,116.4072,39.8863,北京市,天坛,细颗粒物(PM2.5),74,82,89,54,54,4,4,,,51,56,1,3,0.8,0.8
2025-12-11T0100,1005A,116.462,39.9365,北京市,农展馆,细颗粒物(PM2.5),67,76,91,48,51,2,2,,,50,49,4,6,1.0,1
2025-12-11T0100,1006A,116.3392,39.9295,北京市,官园,细颗粒物(PM2.5),74,85,94,54,52,3,3,,,61,60,5,6,0.8,0.8
2025-12-11T0100,1007A,116.2878,39.9611,北京市,海淀万柳,细颗粒物(PM2.5),78,93,94,57,51,2,2,,,66,62,4,5,1.1,0.8
2025-12-11T0100,1008A,116.6636,40.135,北京市,顺义新城,细颗粒物(PM2.5),75,92,86,55,48,0,0,,,53,47,6,7,0.8,0.6
2025-12-11T0100,1009A,116.6275,40.3275,北京市,怀柔镇,细颗粒物(PM2.5),64,68,71,46,45,12,12,,,45,43,7,7,0.8,0.7
2025-12-11T0100,1010A,116.2296,40.217,北京市,昌平镇,细颗粒物(PM2.5),68,70,84,49,52,29,29,,,37,57,6,6,0.8,1
2025-12-11T0100,1011A,116.3966,39.9821,北京市,奥体中心,颗粒物(PM10),70,89,94,50,50,2,2,,,69,66,6,6,0.9,0.9
2025-12-11T0100,3281A,115.9718,40.4529,北京市,延庆夏都,细颗粒物(PM2.5),119,132,136,90,89,3,3,,,52,55,2,4,1.1,1.2
2025-12-11T0100,3418A,116.8336,40.4095,北京市,密云新城,细颗粒物(PM2.5),68,79,77,49,45,13,13,,,42,39,6,4,0.7,0.6
2025-12-11T0100,3671A,116.088,39.9726,北京市,门头沟三家店,,19,19,78,12,43,56,56,,,9,41,3,4,0.3,0.6
2025-12-11T0100,3672A,116.1541,39.8204,北京市,丰台云岗,颗粒物(PM10),75,99,100,53,54,7,7,,,67,62,6,6,0.7,0.7
2025-12-11T0100,3673A,116.6804,39.9081,北京市,通州东关,细颗粒物(PM2.5),78,99,109,57,59,1,1,,,69,65,6,6,0.8,0.8
2025-12-11T0100,3674A,115.9577,39.7603,北京市,房山燕山,,,31,100,18,56,67,67,,,10,57,,5,0.4,0.8
2025-12-11T0100,3675A,116.4672,39.7733,北京市,大兴旧宫,颗粒物(PM10),73,96,113,50,57,3,3,,,62,63,6,7,0.8,0.9
2025-12-11T0100,3694A,115.986,40.4563,北京市,延庆石河营,细颗粒物(PM2.5),145,170,142,111,91,8,8,,,47,54,4,5,1.5,1.2
2025-12-11T0100,3695A,116.6151,40.3053,北京市,怀柔新城,细颗粒物(PM2.5),67,69,71,48,48,10,10,,,41,38,4,4,0.6,0.6
2025-12-11T0100,3696A,116.2545,39.8768,北京市,丰台小屯,细颗粒物(PM2.5),87,120,104,64,55,2,2,,,73,65,4,5,1.0,0.8
2025-12-11T0100,3697A,116.84,40.3844,北京市,密云镇,细颗粒物(PM2.5),77,87,82,56,49,2,2,,,53,45,3,4,0.8,0.7
2025-12-11T0100,4182A,116.1942,39.9158,北京市,八角北路9号,细颗粒物(PM2.5),78,92,98,57,51,4,4,,,65,62,3,5,0.5,0.5
2025-12-11T0100,4194A,117.0790,40.1518,北京市,洳河巡河路,细颗粒物(PM2.5),129,146,119,98,73,1,1,,,49,48,1,3,1.0,0.8
2025-12-11T0100,1761A,123.8275,41.3064,本溪市,大峪,细颗粒物(PM2.5),112,120,139,84,84,21,21,,,31,46,8,13,0.9,1.9
2025-12-11T0100,1762A,123.7567,41.3325,本溪市,溪湖,细颗粒物(PM2.5),103,123,145,77,92,23,23,,,30,51,6,11,1.0,2.7
2025-12-11T0100,1763A,123.7169,41.3094,本溪市,彩屯,细颗粒物(PM2.5),97,106,151,72,109,20,20,,,28,50,6,16,1.1,2.9
2025-12-11T0100,1764A,123.7669,41.2864,本溪市,东明,细颗粒物(PM2.5),110,102,114,83,86,25,25,,,26,49,7,14,1.1,1.9
2025-12-11T0100,1765A,123.7992,41.2664,本溪市,新立屯,细颗粒物(PM2.5),115,130,108,87,85,22,22,,,27,49,6,14,1.0,1.8
2025-12-11T0100,1766A,123.8142,41.3472,本溪市,威宁,细颗粒物(PM2.5),110,123,157,83,88,20,20,,,23,39,5,9,1.0,1.9
2025-12-11T0100,2587A,105.2864,27.3125,毕节市,八中,细颗粒物(PM2.5),94,78,37,70,29,16,16,,,12,14,8,10,0.9,0.9
2025-12-11T0100,2588A,105.31,27.2944,毕节市,师专,细颗粒物(PM2.5),67,69,31,48,22,8,8,,,27,15,8,9,1.0,0.9
2025-12-11T0100,4263A,105.3688,27.3598,毕节市,工业大道,,48,42,26,33,20,15,15,,,15,13,10,10,1.1,0.9
2025-12-11T0100,1629A,118.0018,37.3617,滨州市,第二水厂,细颗粒物(PM2.5),144,173,146,110,84,6,6,,,80,70,16,19,0.9,0.9
2025-12-11T0100,1630A,117.9776,37.393,滨州市,北中新校,细颗粒物(PM2.5),140,168,128,107,77,1,1,,,89,71,16,14,1.0,0.9
2025-12-11T0100,3514A,117.9378,37.3956,滨州市,中海酒店,细颗粒物(PM2.5),149,171,134,114,84,14,14,,,80,83,16,17,1.0,1
2025-12-11T0100,3515A,117.9378,37.3553,滨州市,开发区一中,细颗粒物(PM2.5),138,193,154,105,84,6,6,,,80,69,20,22,1.1,1.1
2025-12-11T0100,3516A,118.0917,37.694,滨州市,金海六路,细颗粒物(PM2.5),144,171,162,110,88,10,10,,,83,80,14,19,0.7,0.8
2025-12-11T0100,4028A,117.9956,37.3753,滨州市,滨州市西街道办事处,细颗粒物(PM2.5),147,178,144,112,86,4,4,,,73,63,14,16,0.9,1
2025-12-11T0100,2311A,115.8072,33.8399,亳州市,污水处理厂,,,,126,,76,,,41,,,49,,14,,1.0
2025-12-11T0100,2312A,115.7789,33.8518,亳州市,三国揽胜宫,细颗粒物(PM2.5),170,173,145,129,79,69,69,,,30,42,12,13,0.9,0.9
2025-12-11T0100,3332A,115.7633,33.8034,亳州市,亳州学院,细颗粒物(PM2.5),183,178,132,138,87,64,64,,,39,40,9,9,0.9,0.8
2025-12-11T0100,2693A,82.0485,44.8556,博尔塔拉蒙古自治州,市党校,,,,40,,9,34,34,,,,16,11,3,,0.6
2025-12-11T0100,2694A,82.0806,44.8969,博尔塔拉蒙古自治州,市环保局,颗粒物(PM10),66,82,46,15,19,40,40,,,6,11,2,2,0.2,0.5
2025-12-11T0100,1071A,116.8842,38.2991,沧州市,沧县城建局,细颗粒物(PM2.5),190,180,187,143,137,8,8,,,72,79,8,10,2.2,1.4
2025-12-11T0100,1072A,116.8584,38.3254,沧州市,电视转播站,细颗粒物(PM2.5),185,189,187,139,135,0,0,,,71,83,5,8,2.3,1.5
2025-12-11T0100,1073A,116.8709,38.3228,沧州市,市环保局,细颗粒物(PM2.5),186,181,193,140,136,15,15,,,66,75,5,7,2.1,1.4
2025-12-11T0100,3324A,116.8136,38.3004,沧州市,河北水利电力学院,细颗粒物(PM2.5),156,193,200,119,112,4,4,,,74,79,12,12,2.2,1.2
2025-12-11T0100,2622A,97.1806,31.1273,昌都市,昌都监测站,,26,26,37,8,17,45,45,,,12,20,3,4,0.4,0.6
2025-12-11T0100,3719A,97.1714,31.1406,昌都市,昌都会议中心,,17,13,13,8,8,52,52,,,2,3,2,2,0.2,0.2
2025-12-11T0100,2690A,88.1236,43.8886,昌吉回族自治州,天山天池,,,,,,,,,,,,,,,,
2025-12-11T0100,2692A,87.2717,44.0297,昌吉回族自治州,新区政务中心,,20,14,65,14,43,46,46,,,25,23,6,5,0.3,0.7
2025-12-11T0100,3613A,87.3095,44.0142,昌吉回族自治州,亚心广场,,19,19,80,9,50,52,52,,,4,15,7,8,0.3,0.7
2025-12-11T0100,1120A,125.2863,43.9027,长春市,客车厂,细颗粒物(PM2.5),65,50,68,47,67,35,35,,,33,46,10,12,0.5,0.7
2025-12-11T0100,1121A,125.2841,43.8463,长春市,邮电学院,细颗粒物(PM2.5),54,44,82,38,63,20,20,,,45,44,11,11,0.6,0.7
2025-12-11T0100,1122A,125.3716,43.8772,长春市,劳动公园,颗粒物(PM10),52,54,86,27,57,30,30,,,26,37,10,8,0.6,0.9
2025-12-11T0100,1123A,125.3297,43.8805,长春市,园林处,细颗粒物(PM2.5),57,55,72,40,59,32,32,,,26,35,9,8,0.5,0.7
2025-12-11T0100,1124A,125.4605,43.79,长春市,净月潭,,43,36,76,30,52,26,26,,,25,23,6,8,0.4,0.5
2025-12-11T0100,1125A,125.7194,43.515,长春市,甩湾子,,44,44,79,30,64,31,31,,,17,20,6,6,0.6,0.8
2025-12-11T0100,1126A,125.3863,43.8447,长春市,经开区环卫处,,42,,78,29,56,17,17,,,42,43,8,8,0.4,0.7
2025-12-11T0100,1127A,125.245,43.7783,长春市,高新区管委会,细颗粒物(PM2.5),75,70,91,55,66,6,6,,,54,45,9,10,0.8,0.9
2025-12-11T0100,1128A,125.1761,43.8325,长春市,岱山公园,细颗粒物(PM2.5),97,89,97,72,79,8,8,,,44,53,9,12,0.8,0.9
2025-12-11T0100,4281A,125.3346,43.9164,长春市,北亚泰大街1068号,细颗粒物(PM2.5),52,45,76,36,65,16,16,,,40,41,9,10,0.7,0.9
2025-12-11T0100,1335A,113.0833,28.2325,长沙市,经开区环保局,细颗粒物(PM2.5),183,,114,138,98,7,7,,,105,46,27,11,1.3,1
2025-12-11T0100,1336A,112.8872,28.2189,长沙市,高开区环保局,细颗粒物(PM2.5),200,160,147,150,129,0,0,,,103,65,6,8,2.3,1.5
2025-12-11T0100,2566A,102.1879,31.914,阿坝藏族羌族自治州,州农科所,,,,,,,,,,,,,,,,
2025-12-11T0100,2568A,102.2502,31.8896,阿坝藏族羌族自治州,马师校,,22,,15,15,14,33,33,,,13,17,5,5,0.5,0.6
2025-12-11T0100,3994A,102.2165,31.9024,阿坝藏族羌族自治州,马尔康中学西区,,20,20,15,8,11,45,45,,,12,14,5,6,0.6,0.6
2025-12-11T0100,2695A,80.292,41.1694,阿克苏地区,电视台,细颗粒物(PM2.5),115,169,151,87,74,5,5,,,90,52,9,9,1.9,1
2025-12-11T0100,2696A,80.2613,41.1551,阿克苏地区,艺术中心,细颗粒物(PM2.5),162,201,138,123,84,9,9,,,101,54,7,6,1.9,1.2
2025-12-11T0100,2204A,105.6467,38.8363,阿拉善盟,西城区西花园,,,,,,,,,,,,,,,,
2025-12-11T0100,2205A,105.6985,38.8411,阿拉善盟,蒙二幼,,21,10,37,8,20,65,65,,,16,12,9,11,0.6,0.5
2025-12-11T0100,2206A,105.724,38.8516,阿拉善盟,环保局新楼,,26,6,29,3,17,82,82,,,3,7,8,10,0.5,0.6
2025-12-11T0100,2708A,88.1264,47.8517,阿勒泰地区,市站,,34,18,14,13,9,14,14,,,68,35,3,2,0.3,0.4
2025-12-11T0100,2630A,80.1161,32.5,阿里地区,阿里监测站,,20,6,3,3,3,64,64,,,7,7,10,9,0.5,0.5
2025-12-11T0100,3192A,80.0903,32.5028,阿里地区,阿里藏医院,,25,6,14,3,8,80,80,,,2,7,8,13,0.4,0.5
2025-12-11T0100,2642A,109.0318,32.6537,安康市,香溪洞,,,,,,,,,,,,,,,,
2025-12-11T0100,2644A,109.0072,32.6975,安康市,汉滨区检察院,颗粒物(PM10),56,62,78,38,47,17,17,,,22,27,4,5,0.6,0.7
2025-12-11T0100,4054A,109.0325,32.6913,安康市,市邮政管理局,细颗粒物(PM2.5),67,73,89,48,53,15,15,,,26,31,4,5,0.7,1.1
2025-12-11T0100,2291A,117.0809,30.5177,安庆市,环科院,细颗粒物(PM2.5),143,122,114,109,72,0,0,,,82,69,7,8,0.9,0.8
2025-12-11T0100,2292A,117.0331,30.5119,安庆市,马山宾馆,细颗粒物(PM2.5),125,119,114,95,73,2,2,,,90,66,7,9,1.1,0.9
2025-12-11T0100,1337A,113.0792,28.2053,长沙市,马坡岭,细颗粒物(PM2.5),189,185,147,142,103,1,1,,,90,62,6,7,1.3,1.1
2025-12-11T0100,1338A,112.9394,28.19,长沙市,湖南师范大学,细颗粒物(PM2.5),112,115,132,84,90,46,46,,,40,37,2,4,0.8,0.8
2025-12-11T0100,1339A,113.0178,28.1322,长沙市,雨花区环保局,细颗粒物(PM2.5),178,151,139,134,99,4,4,,,104,57,8,11,1.6,1
2025-12-11T0100,1340A,112.9792,28.2597,长沙市,伍家岭,细颗粒物(PM2.5),178,193,157,134,111,2,2,,,73,57,5,7,1.5,1.3
2025-12-11T0100,1341A,113.0014,28.1944,长沙市,火车新站,细颗粒物(PM2.5),201,220,159,151,112,11,11,,,120,66,8,9,2.9,1.4
2025-12-11T0100,1342A,112.9844,28.1178,长沙市,天心区环保局,细颗粒物(PM2.5),155,176,143,118,103,5,5,,,115,62,8,9,1.8,1.1
2025-12-11T0100,1343A,112.8908,28.1308,长沙市,湖南中医药大学,细颗粒物(PM2.5),143,139,147,109,112,3,3,,,70,51,6,8,1.5,1.3
2025-12-11T0100,1344A,112.9581,28.3611,长沙市,沙坪,,,,,,,,,,,,,,,,
2025-12-11T0100,1727A,113.1147,36.1547,长治市,清华站,细颗粒物(PM2.5),100,92,89,75,72,41,41,,,43,37,14,15,1.0,0.9
2025-12-11T0100,1730A,113.0886,36.2125,长治市,审计局,细颗粒物(PM2.5),79,68,92,58,73,56,56,,,32,37,17,15,0.8,0.9
2025-12-11T0100,1731A,113.0844,36.1856,长治市,长治八中,细颗粒物(PM2.5),109,105,119,82,90,39,39,,,33,33,11,15,1.2,1.1
2025-12-11T0100,2845A,113.1569,36.1911,长治市,德盛苑,细颗粒物(PM2.5),83,70,82,61,66,64,64,,,23,24,23,13,1.3,0.9
2025-12-11T0100,3568A,113.06,36.0464,长治市,向阳小学,细颗粒物(PM2.5),107,133,126,80,75,48,48,,,52,36,15,15,1.2,1
2025-12-11T0100,3569A,112.8792,36.3144,长治市,屯留一中,颗粒物(PM10),59,68,92,41,67,47,47,,,36,47,14,20,1.1,1.4
2025-12-11T0100,4189A,113.1131,36.19948,长治市,英华南巷50号,细颗粒物(PM2.5),100,107,100,75,75,36,36,,,43,38,12,12,1.1,0.9
2025-12-11T0100,4190A,113.2367,36.3344,长治市,学府街1号,细颗粒物(PM2.5),85,88,112,63,87,15,15,,,72,44,20,22,1.3,1.6
2025-12-11T0100,1854A,111.6975,28.9703,常德市,市二中,细颗粒物(PM2.5),162,193,162,123,108,34,34,,,59,34,8,8,1.2,0.9
2025-12-11T0100,1857A,111.7158,29.1456,常德市,白鹤山,,,,,,,,,,,,,,,,
2025-12-11T0100,3138A,111.7153,29.0289,常德市,武陵区永安,细颗粒物(PM2.5),152,197,180,116,116,29,29,,,48,35,4,6,1.1,1
2025-12-11T0100,3139A,111.6892,28.9881,常德市,鼎城区玉霞,细颗粒物(PM2.5),170,189,163,129,128,7,7,,,56,38,7,9,1.1,0.9
2025-12-11T0100,3140A,111.6625,29.0531,常德市,武陵区长庚,细颗粒物(PM2.5),176,195,184,133,138,8,8,,,64,39,5,7,1.4,1
2025-12-11T0100,1196A,119.9633,31.762,常州市,市监测站,细颗粒物(PM2.5),102,142,76,76,33,1,1,,,82,55,8,9,1.1,0.7
2025-12-11T0100,1200A,119.9468,31.7069,常州市,武进监测站,颗粒物(PM10),91,131,66,66,30,1,1,,,77,45,11,12,0.8,0.5
2025-12-11T0100,1201A,119.9255,31.9087,常州市,安家,细颗粒物(PM2.5),108,141,75,81,32,0,0,,,86,51,16,11,0.6,0.5
2025-12-11T0100,3002A,119.9805,31.8174,常州市,行政中心,细颗粒物(PM2.5),104,113,62,78,29,22,22,,,61,46,9,8,1.0,0.7
2025-12-11T0100,3003A,120.0522,31.7748,常州市,经开区,颗粒物(PM10),92,133,82,64,31,1,1,,,80,47,15,10,0.8,0.6
2025-12-11T0100,3010A,119.9025,31.7964,常州市,钟楼,细颗粒物(PM2.5),123,148,68,93,31,6,6,,,71,44,9,10,1.0,0.7
2025-12-11T0100,3429A,119.8598,31.7066,常州市,武进经发区,细颗粒物(PM2.5),102,134,68,76,34,3,3,,,76,49,9,8,1.1,0.7
2025-12-11T0100,3430A,119.5826,31.7245,常州市,金坛城区,细颗粒物(PM2.5),82,81,68,60,42,64,64,,,24,36,14,9,1.0,0.8
2025-12-11T0100,2220A,120.4318,41.5881,朝阳市,西梁,,16,16,93,6,41,51,51,,,8,31,9,19,0.3,0.8
2025-12-11T0100,2221A,120.4521,41.5646,朝阳市,河畔小区,,16,15,64,8,39,50,50,,,10,28,7,14,0.4,0.9
2025-12-11T0100,2222A,120.4176,41.5648,朝阳市,八里堡,,18,15,83,12,43,53,53,,,9,33,7,15,0.5,1.1
2025-12-11T0100,2223A,120.3806,41.5969,朝阳市,农业园区,,20,,77,14,43,40,40,,,22,33,6,20,0.4,0.7
2025-12-11T0100,1705A,116.6367,23.6719,潮州市,西园路,,,,,,,,,,,,,,,,
2025-12-11T0100,3026A,116.6183,23.6608,潮州市,市政府,颗粒物(PM10),54,57,57,37,30,57,57,,,17,13,7,7,0.5,0.5
2025-12-11T0100,4036A,116.6461,23.6761,潮州市,金山,,48,,46,33,31,57,57,,,14,13,3,4,0.6,0.6
2025-12-11T0100,2472A,113.0073,25.9061,郴州市,马头岭,,,,,,,,,,,,,,,,
2025-12-11T0100,2473A,113.0116,25.8226,郴州市,市职中,,,90,84,65,68,,,,,41,35,4,7,1.0,1
2025-12-11T0100,2475A,113.0383,25.8071,郴州市,市审计局,细颗粒物(PM2.5),78,74,88,57,68,0,0,,,45,37,2,6,1.0,0.9
2025-12-11T0100,2476A,113.0348,25.7759,郴州市,市环保局,,,91,94,56,61,4,4,,,50,34,,5,0.7,0.8
2025-12-11T0100,4252A,113.0138,25.8011,郴州市,好美居路49号,,,91,82,59,70,,,,,54,44,4,7,1.3,1.1
2025-12-11T0100,1431A,103.9728,30.7236,成都市,金泉两河,细颗粒物(PM2.5),95,97,98,71,76,0,0,,,65,47,4,3,2.1,1.1
2025-12-11T0100,1432A,104.176,30.6872,成都市,十里店,细颗粒物(PM2.5),119,122,111,90,80,10,10,,,86,53,3,3,1.0,0.8
2025-12-11T0100,1433A,104.079,30.5706,成都市,三瓦窑,细颗粒物(PM2.5),109,123,122,82,87,2,2,,,84,45,4,4,1.1,1
2025-12-11T0100,1434A,104.1114,30.63,成都市,沙河铺,细颗粒物(PM2.5),148,114,119,113,107,28,28,,,32,42,4,5,0.8,0.9
2025-12-11T0100,1437A,104.0786,30.6531,成都市,君平街,细颗粒物(PM2.5),143,137,130,109,97,22,22,,,74,42,2,4,1.1,0.9
2025-12-11T0100,1438A,103.613,31.0283,成都市,灵岩寺,,,,,,,,,,,,,,,,
2025-12-11T0100,2880A,104.0239,30.65639,成都市,大石西路,细颗粒物(PM2.5),113,98,88,85,82,0,0,,,68,47,7,6,1.5,0.9
2025-12-11T0100,3136A,104.2725,30.5589,成都市,龙泉驿区区政府,细颗粒物(PM2.5),98,85,92,73,71,47,47,,,20,24,4,6,0.8,0.8
2025-12-11T0100,3357A,104.0106,30.6931,成都市,金博路,细颗粒物(PM2.5),118,110,99,89,77,1,1,,,88,54,6,6,1.6,1
2025-12-11T0100,3359A,104.0578,30.5225,成都市,华阳,细颗粒物(PM2.5),125,119,115,95,84,2,2,,,74,47,3,4,1.6,1
2025-12-11T0100,3488A,104.3880,30.7467,成都市,青石路225号,细颗粒物(PM2.5),123,97,100,93,81,54,54,,,21,28,5,5,0.5,0.6
2025-12-11T0100,3489A,104.0789,30.4072,成都市,科学城,细颗粒物(PM2.5),93,99,109,69,86,3,3,,,44,32,6,7,0.8,0.7
2025-12-11T0100,4011A,103.8506,30.6947,成都市,光华大道三段,细颗粒物(PM2.5),117,115,114,88,88,9,9,,,74,45,4,3,1.4,1.1
2025-12-11T0100,4224A,104.2433,30.5353,成都市,鲸龙路1057号,细颗粒物(PM2.5),135,136,109,103,86,2,2,,,75,38,7,6,1.2,0.8
2025-12-11T0100,1062A,117.9531,40.9081,承德市,铁路,细颗粒物(PM2.5),74,93,86,54,49,3,3,,,40,39,5,6,1.3,1.1
2025-12-11T0100,1063A,117.9392,40.9763,承德市,中国银行,细颗粒物(PM2.5),90,100,77,67,41,2,2,,,37,34,3,3,1.3,0.9
2025-12-11T0100,1064A,117.9503,40.928,承德市,开发区,细颗粒物(PM2.5),82,92,80,60,41,6,6,,,39,38,7,7,1.1,0.9
2025-12-11T0100,1066A,117.9268,41.0026,承德市,离宫,,,,,,,,,,,,,,,,
2025-12-11T0100,4274A,117.7994,40.9605,承德市,滨河大街98号,细颗粒物(PM2.5),102,122,106,76,64,4,4,,,44,43,4,7,1.6,1.4
2025-12-11T0100,2314A,117.47,30.6618,池州市,池州学院,细颗粒物(PM2.5),77,84,107,56,72,13,13,,,57,52,4,10,1.4,1.4
2025-12-11T0100,3237A,117.4918,30.6617,池州市,展览馆,细颗粒物(PM2.5),98,110,108,73,67,2,2,,,59,58,6,10,1.4,1.4
2025-12-11T0100,3333A,117.5627,30.695,池州市,第八中学,细颗粒物(PM2.5),88,117,114,65,65,3,3,,,88,64,11,9,1.5,1.5
2025-12-11T0100,3334A,117.5038,30.6243,池州市,第十二中学,细颗粒物(PM2.5),73,79,108,53,65,9,9,,,55,64,3,8,1.9,1.6
2025-12-11T0100,1744A,118.9233,42.2816,赤峰市,松山一中,,22,22,54,7,26,26,26,,,22,31,6,10,0.6,1.1
2025-12-11T0100,1745A,118.9576,42.2728,赤峰市,哈达街,,16,16,63,3,29,35,35,,,18,31,8,16,0.9,1.4
2025-12-11T0100,1746A,118.8788,42.2554,赤峰市,天义路,,18,16,49,12,37,36,36,,,18,33,7,10,0.6,1
2025-12-11T0100,3058A,119.2658,42.0353,赤峰市,银河街,,39,39,80,14,32,38,38,,,17,25,17,15,0.5,0.8
2025-12-11T0100,3286A,118.9359,42.3147,赤峰市,桥北物流园区,,19,16,49,13,35,30,30,,,20,24,11,13,0.6,1
2025-12-11T0100,2521A,107.3476,22.4136,崇左市,市环保局江州分局,细颗粒物(PM2.5),55,55,69,39,42,19,19,,,32,23,6,7,0.7,0.8
2025-12-11T0100,4256A,107.3750,22.3736,崇左市,石景林东路7号,细颗粒物(PM2.5),57,43,53,40,41,30,30,,,29,26,7,7,0.7,0.8
2025-12-11T0100,2298A,118.3093,32.3153,滁州市,老年大学,细颗粒物(PM2.5),84,73,80,62,50,12,12,,,34,40,13,13,0.6,0.7
2025-12-11T0100,2299A,118.3244,32.2786,滁州市,人大宾馆,细颗粒物(PM2.5),114,112,91,86,61,36,36,,,38,48,6,9,0.7,0.8
2025-12-11T0100,3207A,118.3118,32.3038,滁州市,市政府原办公楼,细颗粒物(PM2.5),90,99,88,67,52,10,10,,,58,51,4,8,0.8,0.6
2025-12-11T0100,3331A,118.3267,32.2634,滁州市,图书馆,细颗粒物(PM2.5),117,132,93,88,52,30,30,,,50,50,8,10,1.0,0.7
2025-12-11T0100,2605A,101.5482,25.0441,楚雄彝族自治州,州环境监测站,颗粒物(PM10),54,57,28,26,18,1,1,,,23,18,32,15,0.8,0.7
2025-12-11T0100,2606A,101.538,25.0492,楚雄彝族自治州,市经济开发区,,38,37,28,26,21,2,2,,,26,20,8,11,0.8,0.7
2025-12-11T0100,2548A,107.5277,31.2827,达州市,达州职业技术学院,,,,,,,,,,,,,,,,
2025-12-11T0100,2549A,107.5086,31.2186,达州市,市环境监测站,细颗粒物(PM2.5),128,129,138,97,106,1,1,,,32,40,6,7,1.1,1.2
2025-12-11T0100,2550A,107.4988,31.2132,达州市,凤凰小区,细颗粒物(PM2.5),132,124,149,100,111,3,3,,,36,42,5,6,0.9,1.2
2025-12-11T0100,2551A,107.5082,31.1986,达州市,达县机关宾馆,细颗粒物(PM2.5),140,144,151,107,110,2,2,,,31,41,3,4,1.1,1.3
2025-12-11T0100,2552A,107.4644,31.2124,达州市,市政中心,细颗粒物(PM2.5),128,147,171,97,115,3,3,,,35,40,7,7,1.2,1.2
2025-12-11T0100,2614A,100.1542,25.7054,大理白族自治州,大理市环境监测站,,32,,19,22,20,59,59,,,8,10,6,6,0.6,0.7
2025-12-11T0100,2615A,100.2171,25.5811,大理白族自治州,大理古城,,19,19,24,9,16,47,47,,,14,17,7,7,0.5,0.5
2025-12-11T0100,1109A,121.612,38.9741,大连市,甘井子,细颗粒物(PM2.5),192,202,126,144,83,13,13,,,64,65,13,16,0.9,0.7
2025-12-11T0100,1110A,121.565,38.9511,大连市,周水子,细颗粒物(PM2.5),180,194,136,136,79,18,18,,,48,53,4,10,1.2,1.1
2025-12-11T0100,1111A,121.5637,38.8845,大连市,星海三站,细颗粒物(PM2.5),176,178,108,133,75,18,18,,,44,37,9,10,1.3,0.8
2025-12-11T0100,1112A,121.6302,38.9117,大连市,青泥洼桥,细颗粒物(PM2.5),198,209,123,148,74,16,16,,,54,40,13,11,1.5,1.1
2025-12-11T0100,1113A,121.6251,38.8638,大连市,傅家庄,细颗粒物(PM2.5),185,214,115,139,64,18,18,,,49,34,14,13,1.3,0.8
2025-12-11T0100,1114A,121.5213,38.8661,大连市,七贤岭,细颗粒物(PM2.5),175,211,120,132,71,24,24,,,45,38,11,10,1.3,1
2025-12-11T0100,1115A,121.2529,38.8061,大连市,旅顺,细颗粒物(PM2.5),165,170,125,125,77,30,30,,,37,36,6,8,0.9,0.7
2025-12-11T0100,1116A,121.7485,39.1311,大连市,金州,细颗粒物(PM2.5),179,199,150,135,93,13,13,,,51,55,10,14,1.3,1.1
2025-12-11T0100,1117A,121.7811,39.0496,大连市,开发区,细颗粒物(PM2.5),193,217,130,145,81,21,21,,,50,59,15,15,1.4,1.1
2025-12-11T0100,1118A,121.9762,39.0631,大连市,双D港,细颗粒物(PM2.5),180,195,120,136,78,32,32,,,49,40,16,13,1.5,1.1
2025-12-11T0100,1789A,124.81117,46.03138,大庆市,大同区,,25,25,32,11,17,41,41,,,4,12,5,6,0.6,0.7
2025-12-11T0100,1790A,125.129,46.533,大庆市,龙凤区,,24,24,35,9,16,49,49,,,5,14,4,5,0.2,0.3
2025-12-11T0100,1791A,124.902,46.408,大庆市,红岗区,,32,32,27,18,21,54,54,,,7,15,6,6,0.4,0.6
2025-12-11T0100,1792A,125.153,46.586,大庆市,萨尔图区,,20,20,32,9,12,41,41,,,18,22,12,8,0.8,0.7
2025-12-11T0100,1793A,124.9042,46.6215,大庆市,让胡路区,,23,21,29,16,21,52,52,,,2,10,6,7,0.3,0.3
2025-12-11T0100,3481A,125.141,46.634,大庆市,萨区政府监测点,,25,25,27,9,5,42,42,,,9,18,8,8,0.3,0.4
2025-12-11T0100,1721A,113.3819,40.1097,大同市,果树场,,46,,77,32,50,57,57,,,14,39,8,19,0.5,1.4
2025-12-11T0100,1723A,113.2994,40.0758,大同市,云冈宾馆,颗粒物(PM10),53,55,82,30,39,24,24,,,41,45,6,19,1.0,1.3
2025-12-11T0100,1724A,113.3444,40.0917,大同市,大同大学,,47,47,64,24,35,30,30,,,38,45,5,17,0.6,0.8
2025-12-11T0100,1725A,113.2661,40.1269,大同市,安家小村,,36,36,91,12,38,50,50,,,16,42,8,23,0.5,1.9
2025-12-11T0100,1726A,113.2711,40.0844,大同市,教育学院,细颗粒物(PM2.5),53,53,92,37,44,25,25,,,38,47,9,19,0.4,1.9
2025-12-11T0100,3282A,113.3397,40.0597,大同市,大同市卫生学校,,48,48,61,22,35,45,45,,,27,44,7,21,1.4,0.8
2025-12-11T0100,3565A,113.1367,40.1122,大同市,云冈站,颗粒物(PM10),75,99,78,50,34,3,3,,,54,39,14,20,1.0,0.8
2025-12-11T0100,3566A,113.1186,40.2556,大同市,图书馆,细颗粒物(PM2.5),68,59,71,49,39,19,19,,,29,26,4,11,1.1,1
2025-12-11T0100,3567A,113.5931,40.0461,大同市,区一中,,46,42,90,32,47,47,47,,,15,30,7,23,0.6,0.9
2025-12-11T0100,4199A,113.2798,40.0997,大同市,魏都大道141号,,50,50,100,19,43,44,44,,,27,43,6,20,0.6,2
2025-12-11T0100,2269A,124.1069,50.4097,大兴安岭地区,科技局,,20,17,15,14,15,43,43,,,2,2,5,5,0.3,0.3
2025-12-11T0100,3663A,124.1164,50.4278,大兴安岭地区,红旗社区,,16,6,7,3,3,50,50,,,1,5,5,5,0.2,0.3
2025-12-11T0100,1600A,124.3303,40.0625,丹东市,江湾东路,细颗粒物(PM2.5),132,139,100,100,68,8,8,,,50,46,11,21,2.3,2.2
2025-12-11T0100,1601A,124.4256,40.1503,丹东市,临江后街,细颗粒物(PM2.5),98,119,85,73,51,5,5,,,45,38,8,16,2.2,1.2
2025-12-11T0100,1602A,124.3933,40.1461,丹东市,元宝山,细颗粒物(PM2.5),127,124,85,96,62,7,7,,,49,37,9,11,2.3,1.3
2025-12-11T0100,1603A,124.3633,40.1092,丹东市,民主桥,细颗粒物(PM2.5),127,141,96,96,54,13,13,,,49,46,9,12,2.1,1.3
2025-12-11T0100,3541A,109.5726,19.5167,儋州市,第一中学子站,,49,48,41,34,25,78,78,,,8,8,3,3,0.6,0.5
2025-12-11T0100,3542A,109.5567,19.5187,儋州市,东坡学校子站,,45,37,34,31,22,89,89,,,7,8,3,3,0.6,0.5
2025-12-11T0100,2616A,98.5842,24.428,德宏傣族景颇族自治州,德宏州监测站,细颗粒物(PM2.5),65,61,50,47,37,17,17,,,31,23,8,10,0.7,0.7
2025-12-11T0100,3677A,98.5881,24.4368,德宏傣族景颇族自治州,芒市人民政府综合楼,,44,44,45,18,26,36,36,,,12,15,7,8,0.5,0.6
2025-12-11T0100,1901A,104.4239,31.1208,德阳市,东山公园,细颗粒物(PM2.5),103,86,85,77,70,68,68,,,11,23,1,2,1.0,1
2025-12-11T0100,1902A,104.3826,31.1317,德阳市,西小区,细颗粒物(PM2.5),114,115,112,86,81,1,1,,,61,40,6,5,1.3,0.9
2025-12-11T0100,1904A,104.3553,31.1091,德阳市,耐火材料厂,细颗粒物(PM2.5),129,115,98,98,81,8,8,,,68,40,1,3,1.2,1
2025-12-11T0100,3639A,104.4019,31.1244,德阳市,市教育局,细颗粒物(PM2.5),110,83,83,83,74,0,0,,,64,43,3,3,1.0,1
2025-12-11T0100,1622A,116.3032,37.4674,德州市,儿童乐园,细颗粒物(PM2.5),230,263,188,180,108,2,2,,,95,60,13,16,1.8,1.3
2025-12-11T0100,1624A,116.2991,37.4451,德州市,监理站,细颗粒物(PM2.5),230,263,179,180,101,13,13,,,99,63,14,17,1.6,1
2025-12-11T0100,3066A,116.2721,37.4379,德州市,九衢泉纯净水厂,细颗粒物(PM2.5),221,254,177,171,100,4,4,,,100,65,16,18,2.1,1.5
2025-12-11T0100,3371A,116.3728,37.4403,德州市,开发区人民医院,细颗粒物(PM2.5),228,268,178,178,95,10,10,,,114,66,18,16,1.7,1.1
2025-12-11T0100,3511A,116.5652,37.3319,德州市,陵城艺术中心,细颗粒物(PM2.5),225,249,167,175,90,0,0,,,114,65,19,19,1.5,1
2025-12-11T0100,4292A,116.3525,37.4209,德州市,新河东路,细颗粒物(PM2.5),221,254,176,171,97,5,5,,,128,82,17,16,1.5,0.9
2025-12-11T0100,2621A,99.7056,27.8317,迪庆藏族自治州,迪庆州站,,19,17,31,13,22,50,50,,,10,15,5,5,0.5,0.7
2025-12-11T0100,3180A,99.7136,27.8094,迪庆藏族自治州,质量技术监督局,,42,,34,29,24,47,47,,,16,20,7,7,0.7,0.6
2025-12-11T0100,4257A,104.6092,35.5962,定西市,将台街,,27,6,87,3,43,5,5,,,53,31,16,12,0.6,0.6
2025-12-11T0100,4309A,104.6159,35.5701,定西市,正龙路62号,颗粒物(PM10),81,111,109,44,50,14,14,,,32,20,21,20,1.0,1.1
2025-12-11T0100,1389A,113.7547,23.0494,东莞市,莞城梨川,细颗粒物(PM2.5),89,121,87,66,49,5,5,,,94,52,6,7,0.8,0.7
2025-12-11T0100,1390A,113.7944,23.0128,东莞市,东城石井,细颗粒物(PM2.5),69,83,71,50,44,1,1,,,86,46,8,9,0.9,0.7
2025-12-11T0100,1391A,113.7383,22.9658,东莞市,南城西平,"颗粒物(PM10),细颗粒物(PM2.5)",74,97,84,54,50,0,0,,,97,66,7,8,1.0,0.8
2025-12-11T0100,3319A,113.7338,23.0381,东莞市,万江金泰,细颗粒物(PM2.5),85,112,89,63,53,7,7,,,93,50,7,8,1.0,0.8
2025-12-11T0100,3626A,113.7533,23.0202,东莞市,南城元岭,细颗粒物(PM2.5),82,103,82,60,49,3,3,,,96,48,8,9,0.9,0.7
2025-12-11T0100,3627A,113.7875,23.0457,东莞市,东城主山,细颗粒物(PM2.5),87,121,93,64,50,5,5,,,104,55,7,8,0.9,0.7
2025-12-11T0100,1666A,118.6614,37.4309,东营市,市环保局,细颗粒物(PM2.5),117,151,136,88,73,21,21,,,52,64,13,26,1.0,1.1
2025-12-11T0100,3036A,118.6904,37.4338,东营市,开发区管委会,细颗粒物(PM2.5),117,144,134,88,72,23,23,,,48,57,12,37,0.7,0.7
2025-12-11T0100,3365A,118.5719,37.565,东营市,垦利区民丰路,细颗粒物(PM2.5),128,144,141,97,78,16,16,,,52,67,6,9,1.1,1
2025-12-11T0100,3498A,118.5055,37.8612,东营市,河口城区,颗粒物(PM10),96,141,165,71,86,37,37,,,43,72,8,12,0.9,1.1
2025-12-11T0100,3646A,118.4978,37.4623,东营市,胜利站,细颗粒物(PM2.5),140,157,135,107,82,18,18,,,62,78,21,22,1.4,1.3
2025-12-11T0100,3734A,118.35,37.26,东营市,理想之城,细颗粒物(PM2.5),134,163,148,102,76,18,18,,,52,64,10,14,1.0,1
2025-12-11T0100,1591A,110.0023,39.8129,鄂尔多斯市,综合楼,,24,24,47,12,19,72,72,,,14,25,6,13,0.4,0.6
2025-12-11T0100,1592A,109.9486,39.8261,鄂尔多斯市,巴音孟克林场办事处,,27,27,53,12,22,68,68,,,20,20,5,10,0.2,0.3
2025-12-11T0100,1593A,109.7736,39.5986,鄂尔多斯市,康泽苑,,31,31,49,17,24,53,53,,,14,22,8,9,0.3,0.5
2025-12-11T0100,1594A,109.8119,39.5989,鄂尔多斯市,华泰汽车城,,29,29,50,17,23,28,28,,,32,31,2,4,0.4,0.5
2025-12-11T0100,1595A,109.9734,39.7884,鄂尔多斯市,奥林花园,,44,44,67,9,20,22,22,,,51,36,7,10,0.4,0.5
2025-12-11T0100,2436A,114.8938,30.3994,鄂州市,市政府,细颗粒物(PM2.5),158,151,125,120,102,0,0,,,71,55,12,14,1.4,1.1
2025-12-11T0100,2437A,114.8989,30.3714,鄂州市,赵家坝,细颗粒物(PM2.5),155,154,131,118,98,5,5,,,57,49,12,14,1.4,1.3
2025-12-11T0100,3654A,114.8094,30.4089,鄂州市,精准医疗中心,细颗粒物(PM2.5),172,177,152,130,110,2,2,,,87,66,34,15,1.2,1.2
2025-12-11T0100,2454A,109.4978,30.2981,恩施土家族苗族自治州,湖北民院,细颗粒物(PM2.5),172,131,112,130,110,7,7,,,19,19,6,7,0.9,1
2025-12-11T0100,2455A,109.4707,30.2798,恩施土家族苗族自治州,州电力总公司,细颗粒物(PM2.5),169,152,114,128,96,2,2,,,30,33,6,6,0.9,0.8
2025-12-11T0100,3549A,109.5061,30.3772,恩施土家族苗族自治州,龙凤新区,细颗粒物(PM2.5),137,137,130,104,99,4,4,,,12,15,6,6,0.7,0.7
2025-12-11T0100,2499A,108.3411,21.6158,防城港市,沙万,细颗粒物(PM2.5),79,80,85,58,53,70,70,,,30,26,15,15,0.9,0.9
2025-12-11T0100,2500A,108.3514,21.7731,防城港市,防城档案局,细颗粒物(PM2.5),107,94,103,80,60,47,47,,,37,23,5,7,1.0,1
2025-12-11T0100,2501A,108.3506,21.6414,防城港市,大海花园,细颗粒物(PM2.5),80,69,81,59,54,96,96,,,17,24,23,15,0.9,0.9
2025-12-11T0100,1371A,113.1294,23.0067,佛山市,湾梁,颗粒物(PM10),76,102,95,51,50,2,2,,,104,77,8,8,0.9,0.9
2025-12-11T0100,1372A,113.1083,23.0478,佛山市,华材职中,细颗粒物(PM2.5),92,102,105,68,69,5,5,,,105,76,7,8,1.0,0.9
2025-12-11T0100,1373A,113.144,23.0453,佛山市,南海气象局,细颗粒物(PM2.5),69,79,91,50,53,17,17,,,81,71,7,8,0.7,1
2025-12-11T0100,1374A,113.2881,22.8094,佛山市,顺德苏岗,细颗粒物(PM2.5),64,71,79,46,49,23,23,,,62,61,6,8,0.8,0.8
2025-12-11T0100,1376A,112.8383,22.8678,佛山市,高明孔堂,细颗粒物(PM2.5),74,60,87,54,61,43,43,,,34,51,3,9,0.7,0.8
2025-12-11T0100,1377A,112.8836,23.1588,佛山市,三水监测站,细颗粒物(PM2.5),84,105,107,62,65,8,8,,,85,67,7,10,0.9,0.9
2025-12-11T0100,1378A,112.867,23.185,佛山市,三水云东海,细颗粒物(PM2.5),90,117,91,67,63,0,0,,,73,56,7,8,1.2,1.1
2025-12-11T0100,3625A,113.2544,22.7642,佛山市,容桂街道办,细颗粒物(PM2.5),64,75,80,46,51,28,28,,,65,54,5,8,0.8,0.7
2025-12-11T0100,1280A,119.3903,26.0543,福州市,鼓山,,,,31,,11,,,61,,,15,,1,,0.8
2025-12-11T0100,1282A,119.2681,26.0504,福州市,师大,,25,25,34,11,11,25,25,,,31,21,6,7,0.4,0.4
2025-12-11T0100,1283A,119.2984,26.1028,福州市,五四北路,,36,36,36,20,11,12,12,,,39,21,4,5,0.6,0.5
2025-12-11T0100,1284A,119.2648,26.0768,福州市,杨桥西路,,38,38,36,12,10,15,15,,,33,18,4,4,0.5,0.4
2025-12-11T0100,1285A,119.317,26.0746,福州市,紫阳,,41,41,41,25,12,2,2,,,68,27,8,8,0.8,0.5
2025-12-11T0100,3048A,119.5799,26.0936,福州市,九龙,,16,,27,11,10,20,20,,,23,14,3,5,0.6,0.5
2025-12-11T0100,3526A,119.5189,25.9664,福州市,吴航,,23,23,27,12,11,21,21,,,20,17,6,7,0.4,0.4
2025-12-11T0100,1755A,123.7977,41.8491,抚顺市,望花区,细颗粒物(PM2.5),65,58,115,47,83,32,32,,,21,42,9,12,0.8,1.2
2025-12-11T0100,1756A,123.9161,41.8822,抚顺市,顺城区,细颗粒物(PM2.5),58,56,109,41,77,34,34,,,22,41,7,12,0.6,1.1
2025-12-11T0100,1757A,124.0436,41.8611,抚顺市,东洲区,颗粒物(PM10),72,94,91,35,74,41,41,,,15,34,6,9,0.6,1.1
2025-12-11T0100,1758A,123.9247,41.8642,抚顺市,新抚区,颗粒物(PM10),61,72,115,41,84,29,29,,,23,38,7,10,0.8,1.3
2025-12-11T0100,1759A,124.0972,41.8961,抚顺市,大伙房水库,颗粒物(PM10),70,89,91,42,72,42,42,,,18,34,10,15,0.8,1.1
2025-12-11T0100,1760A,123.7086,41.8391,抚顺市,沈抚新城,细颗粒物(PM2.5),64,68,118,46,88,38,38,,,22,44,9,12,0.7,1.3
2025-12-11T0100,2376A,116.2127,28.0814,抚州市,桐源党溪,,,,,,,,,,,,,,,,
2025-12-11T0100,2377A,116.3544,27.9831,抚州市,市站,细颗粒物(PM2.5),123,134,103,93,70,39,39,,,44,30,8,11,1.3,1.4
2025-12-11T0100,2378A,116.3565,27.963,抚州市,血防站,细颗粒物(PM2.5),124,124,98,94,67,38,38,,,48,35,7,8,1.1,1
2025-12-11T0100,2379A,116.3564,28.0007,抚州市,采茶剧团,细颗粒物(PM2.5),127,129,101,96,73,32,32,,,43,20,6,11,1.1,1.3
2025-12-11T0100,2380A,116.385,27.9647,抚州市,医学分院,细颗粒物(PM2.5),129,147,108,98,71,15,15,,,74,31,5,8,1.7,1.3
2025-12-11T0100,2207A,121.6094,41.998,阜新市,工业园区,,15,8,82,8,36,48,48,,,12,27,7,12,0.3,0.7
2025-12-11T0100,2208A,121.6697,42.0279,阜新市,长青街,,16,6,64,6,38,51,51,,,7,27,6,14,0.3,1.4
2025-12-11T0100,2209A,121.6673,42.0705,阜新市,农业园区,,20,20,70,9,35,48,48,,,9,20,4,17,0.2,0.6
2025-12-11T0100,2210A,121.6717,42.0224,阜新市,东苑,,18,18,91,12,42,49,49,,,9,29,9,22,0.4,1.6
2025-12-11T0100,2211A,121.6506,42.0498,阜新市,玉龙新城,,17,17,74,7,29,38,38,,,24,26,6,10,0.3,0.7
2025-12-11T0100,2301A,115.8277,32.8929,阜阳市,市监测站,细颗粒物(PM2.5),135,136,126,103,72,92,92,,,20,44,6,7,1.0,0.8
2025-12-11T0100,2303A,115.8554,32.8605,阜阳市,开发区,细颗粒物(PM2.5),150,133,123,115,69,76,76,,,29,46,6,7,0.8,0.7
2025-12-11T0100,2875A,115.784,32.8892,阜阳市,阜阳职业技术学院,细颗粒物(PM2.5),118,140,99,89,57,87,87,,,24,32,8,9,1.0,0.8
2025-12-11T0100,3468A,115.7901,32.8613,阜阳市,市规划展馆,细颗粒物(PM2.5),147,147,111,112,69,80,80,,,32,32,9,9,1.0,0.7
2025-12-11T0100,3469A,115.836,32.9183,阜阳市,枣园社区,细颗粒物(PM2.5),150,144,131,115,79,86,86,,,27,62,6,7,1.1,0.9
2025-12-11T0100,2669A,102.9099,34.9841,甘南藏族自治州,州政府,细颗粒物(PM2.5),84,85,60,62,30,4,4,,,50,39,15,11,2.2,1
2025-12-11T0100,3380A,102.8914,34.9617,甘南藏族自治州,甘肃民族师范学院,颗粒物(PM10),65,79,74,24,18,0,0,,,54,38,8,8,1.0,0.7
2025-12-11T0100,2570A,101.9603,30.0475,甘孜藏族自治州,水桥子,,18,16,27,8,10,21,21,,,35,29,8,8,0.4,0.5
2025-12-11T0100,3065A,101.9533,29.9972,甘孜藏族自治州,州环保局,,18,11,30,3,5,55,55,,,10,23,5,6,0.3,0.4
2025-12-11T0100,3414A,115.8347,28.932,赣江新区,桑海产业园,细颗粒物(PM2.5),109,132,110,82,69,11,11,,,98,60,15,14,1.0,0.8
2025-12-11T0100,2362A,114.9017,25.9149,赣州市,通天岩,,43,40,56,30,44,28,28,,,7,12,16,17,0.9,1.2
2025-12-11T0100,2363A,114.9367,25.8664,赣州市,地委,细颗粒物(PM2.5),98,118,91,73,58,25,25,,,36,39,6,7,0.9,1
2025-12-11T0100,2364A,114.9461,25.8481,赣州市,气象台,细颗粒物(PM2.5),98,130,107,73,57,12,12,,,67,52,8,6,1.0,0.9
2025-12-11T0100,2365A,114.9322,25.8333,赣州市,市图书馆,细颗粒物(PM2.5),110,99,107,83,62,28,28,,,54,56,5,5,0.9,1
2025-12-11T0100,2366A,114.8905,25.8471,赣州市,华坚鞋城,颗粒物(PM10),95,140,100,66,58,14,14,,,78,53,7,8,0.9,0.8
2025-12-11T0100,3109A,115.0093,25.8613,赣州市,赣县区卫计委,细颗粒物(PM2.5),102,,87,76,76,12,12,,,43,41,7,9,1.1,1.1
2025-12-11T0100,2683A,106.2319,36.1417,固原市,马园,,,,,,,,,,,,,,,,
2025-12-11T0100,2684A,106.2792,36.0022,固原市,监测站,颗粒物(PM10),73,96,128,41,45,32,32,,,44,33,5,6,0.5,0.7
2025-12-11T0100,2685A,106.2375,36.0211,固原市,新区,颗粒物(PM10),63,76,121,20,30,62,62,,,24,27,6,4,0.4,0.7
2025-12-11T0100,3522A,106.2177,35.9959,固原市,原州区十五小,颗粒物(PM10),61,72,98,19,30,65,65,,,14,18,7,7,0.5,0.6
2025-12-11T0100,2543A,106.6308,30.5278,广安市,小平旧居,,,,,,,,,,,,,,,,
2025-12-11T0100,2544A,106.6303,30.4576,广安市,市委,细颗粒物(PM2.5),144,116,125,110,106,6,6,,,43,32,3,4,1.2,1.1
2025-12-11T0100,2545A,106.6271,30.4663,广安市,友谊中学,细颗粒物(PM2.5),124,110,124,94,103,5,5,,,25,26,8,9,1.1,1.1
2025-12-11T0100,2547A,106.6388,30.4551,广安市,广电花园,细颗粒物(PM2.5),132,104,98,100,105,1,1,,,25,24,3,3,1.0,1
2025-12-11T0100,2902A,106.6351,30.4865,广安市,北辰小学,细颗粒物(PM2.5),127,105,116,96,104,10,10,,,21,23,15,15,1.4,1.2
2025-12-11T0100,2523A,105.8945,32.4535,广元市,黑石坡,,,,,,,,,,,,,,,,
2025-12-11T0100,2524A,105.821,32.4444,广元市,老城,细颗粒物(PM2.5),55,54,65,39,52,5,5,,,44,40,7,11,0.9,1.2
2025-12-11T0100,2526A,105.8628,32.4287,广元市,监测站,细颗粒物(PM2.5),54,48,51,38,51,5,5,,,38,34,4,8,1.1,1.4
2025-12-11T0100,3617A,105.8047,32.4166,广元市,经开区,细颗粒物(PM2.5),62,70,80,44,55,0,0,,,41,36,3,8,1.0,1.1
2025-12-11T0100,1345A,113.2347,23.1423,广州市,广雅中学,细颗粒物(PM2.5),75,91,91,55,53,2,2,,,92,71,7,8,1.0,0.9
2025-12-11T0100,1346A,113.2612,23.105,广州市,市五中,细颗粒物(PM2.5),62,71,73,44,47,11,11,,,118,69,7,8,0.7,0.7
2025-12-11T0100,1348A,113.3478,23.0916,广州市,广东商学院,颗粒物(PM10),62,73,76,42,47,1,1,,,101,63,6,7,0.8,0.8
2025-12-11T0100,1349A,113.4332,23.1047,广州市,市八十六中,颗粒物(PM10),63,76,65,41,42,0,0,,,108,73,8,9,1.1,1
2025-12-11T0100,1350A,113.3505,22.9483,广州市,番禺中学,细颗粒物(PM2.5),75,85,81,55,48,14,14,,,67,56,4,6,0.5,0.5
2025-12-11T0100,1351A,113.2146,23.3916,广州市,花都师范,颗粒物(PM10),68,85,79,47,47,13,13,,,84,60,8,9,0.8,0.7
2025-12-11T0100,1352A,113.2597,23.1331,广州市,市监测站,颗粒物(PM10),60,70,72,8,13,3,3,,,98,67,7,8,0.8,0.7
2025-12-11T0100,1353A,113.5618,23.312,广州市,九龙镇镇龙,细颗粒物(PM2.5),85,101,78,63,49,21,21,,,45,40,6,6,0.7,0.6
2025-12-11T0100,1354A,113.2765,23.1544,广州市,麓湖,细颗粒物(PM2.5),52,52,59,36,43,2,2,,,89,57,8,8,0.8,0.8
2025-12-11T0100,1355A,113.443,23.3035,广州市,帽峰山森林公园,,,,,,,,,,,,,,,,
2025-12-11T0100,2846A,113.3221,23.1322,广州市,体育西,颗粒物(PM10),63,75,63,40,41,1,1,,,104,57,8,9,0.8,0.7
2025-12-11T0100,3298A,113.5717,23.5491,广州市,从化街口,细颗粒物(PM2.5),97,103,75,72,55,1,1,,,54,44,8,11,1.2,0.9
2025-12-11T0100,3299A,113.3472,23.3692,广州市,白云竹料,细颗粒物(PM2.5),88,110,84,65,54,12,12,,,66,52,4,6,0.9,0.8
2025-12-11T0100,3300A,113.2981,23.237,广州市,白云嘉禾,颗粒物(PM10),59,67,75,40,46,6,6,,,75,57,7,8,0.9,0.8
2025-12-11T0100,3301A,113.4256,23.1716,广州市,黄埔科学城,颗粒物(PM10),52,54,53,32,35,14,14,,,55,35,5,6,0.7,0.7
2025-12-11T0100,3302A,113.3942,23.0483,广州市,番禺大学城,颗粒物(PM10),63,76,89,40,44,21,21,,,63,64,10,12,0.6,0.7
2025-12-11T0100,3303A,113.4922,22.8168,广州市,南沙黄阁,细颗粒物(PM2.5),78,89,83,57,56,5,5,,,86,69,6,9,0.9,0.8
2025-12-11T0100,3304A,113.5342,22.7896,广州市,南沙街,细颗粒物(PM2.5),84,98,84,62,51,7,7,,,70,59,6,6,0.7,0.7
2025-12-11T0100,3443A,113.2902,23.5544,广州市,花都梯面,,40,39,50,28,38,3,3,,,51,31,4,9,0.6,0.9
2025-12-11T0100,3445A,113.7858,23.7478,广州市,从化良口,,50,42,37,35,31,30,30,,,25,22,6,7,0.7,0.7
2025-12-11T0100,3446A,113.8051,23.2614,广州市,增城荔城,细颗粒物(PM2.5),84,90,55,62,40,20,20,,,48,21,7,9,0.6,0.6
2025-12-11T0100,2505A,109.568,23.1478,贵港市,德智高中,,,,,,,,,,,,,,,,
2025-12-11T0100,2506A,109.6047,23.0666,贵港市,江南子站,细颗粒物(PM2.5),119,114,114,90,78,47,47,,,43,37,9,11,1.0,1
2025-12-11T0100,2508A,109.5669,23.1065,贵港市,荷城子站,细颗粒物(PM2.5),83,78,88,61,57,60,60,,,27,39,7,9,1.0,1
2025-12-11T0100,3405A,109.5886,23.1172,贵港市,新世纪学校,细颗粒物(PM2.5),90,97,89,67,59,44,44,,,35,29,6,9,0.9,0.8
2025-12-11T0100,4260A,109.5933,23.0951,贵港市,中山路155-3号,细颗粒物(PM2.5),100,110,87,75,62,60,60,,,36,33,13,11,0.8,0.8
2025-12-11T0100,1439A,106.6899,26.5998,贵阳市,马鞍山,,49,46,32,34,21,0,0,,,20,20,4,6,0.9,0.7
2025-12-11T0100,1441A,106.6243,26.6266,贵阳市,鉴湖路,颗粒物(PM10),53,56,46,29,22,22,22,,,25,25,3,6,0.7,0.6
2025-12-11T0100,1442A,106.7487,26.6343,贵阳市,燕子冲,细颗粒物(PM2.5),55,39,34,39,30,19,19,,,14,18,5,7,0.6,0.5
2025-12-11T0100,1443A,106.6555,26.4365,贵阳市,碧云窝,细颗粒物(PM2.5),83,97,51,61,29,3,3,,,27,18,7,8,0.9,0.5
2025-12-11T0100,1445A,106.7109,26.6027,贵阳市,红边门,,49,41,42,34,30,30,30,,,17,26,8,13,0.6,0.7
2025-12-11T0100,1446A,106.7164,26.5699,贵阳市,新华路,细颗粒物(PM2.5),58,46,49,41,29,32,32,,,17,25,7,11,0.7,0.7
2025-12-11T0100,1447A,106.674,26.5424,贵阳市,太慈桥,细颗粒物(PM2.5),67,70,40,48,26,3,3,,,28,22,4,6,0.6,0.4
2025-12-11T0100,1552A,106.805,26.3003,贵阳市,桐木岭,细颗粒物(PM2.5),58,51,46,41,33,13,13,,,6,8,5,2,0.9,0.8
2025-12-11T0100,4230A,106.6882,26.5695,贵阳市,花果园大街66号,细颗粒物(PM2.5),70,,37,51,35,24,24,,,24,28,8,7,0.8,0.6
2025-12-11T0100,4231A,106.6873,26.5169,贵阳市,漓江路57号,细颗粒物(PM2.5),58,48,39,41,35,4,4,,,44,29,16,9,1.1,0.9
2025-12-11T0100,1862A,110.4144,25.3167,桂林市,电子科大尧山校区,,,,,,,,,,,,,,,,
2025-12-11T0100,1864A,110.3089,25.2708,桂林市,龙隐路小学,细颗粒物(PM2.5),144,111,102,110,88,2,2,,,62,45,6,7,1.0,0.8
2025-12-11T0100,1865A,110.2869,25.2178,桂林市,八中,,,,102,,89,,,,,,42,6,7,,0.9
2025-12-11T0100,3531A,110.296,25.1253,桂林市,旅游学院,细颗粒物(PM2.5),117,107,100,88,78,5,5,,,37,36,4,5,0.8,0.7
2025-12-11T0100,4222A,110.1835,25.2444,桂林市,环湖路276号,细颗粒物(PM2.5),128,119,104,97,75,1,1,,,58,49,6,7,0.8,0.6
2025-12-11T0100,4301A,110.2803,25.2773,桂林市,信义路13号,细颗粒物(PM2.5),128,129,113,97,79,1,1,,,58,44,4,5,1.5,1.2
2025-12-11T0100,2674A,100.2561,34.4714,果洛藏族自治州,玛沁县大武镇,,46,46,47,9,11,22,22,,,19,7,20,16,0.5,0.4
2025-12-11T0100,1129A,126.5422,45.755,哈尔滨市,岭北,,,,,,,,,,,,,,,,
2025-12-11T0100,1130A,126.561,45.8167,哈尔滨市,松北商大,细颗粒物(PM2.5),83,111,59,61,41,29,29,,,33,32,10,9,0.7,0.6
2025-12-11T0100,1131A,126.979,45.5419,哈尔滨市,阿城会宁,细颗粒物(PM2.5),75,72,54,55,47,7,7,,,40,30,11,11,1.2,0.9
2025-12-11T0100,1132A,126.599,45.7222,哈尔滨市,南岗学府路,细颗粒物(PM2.5),90,106,57,67,36,24,24,,,28,28,21,13,0.7,0.7
2025-12-11T0100,1133A,126.689,45.7733,哈尔滨市,太平宏伟公园,细颗粒物(PM2.5),135,127,58,103,44,24,24,,,39,23,13,22,1.0,0.7
2025-12-11T0100,1134A,126.635,45.7667,哈尔滨市,道外承德广场,细颗粒物(PM2.5),88,117,73,65,37,33,33,,,28,25,11,14,1.0,0.6
2025-12-11T0100,1135A,126.685,45.7319,哈尔滨市,香坊红旗大街,细颗粒物(PM2.5),88,92,60,65,34,35,35,,,26,22,13,15,0.7,0.7
2025-12-11T0100,1136A,126.6411,45.7258,哈尔滨市,动力和平路,细颗粒物(PM2.5),80,88,53,59,36,36,36,,,25,25,18,18,0.6,0.6
2025-12-11T0100,1137A,126.593,45.7478,哈尔滨市,道里建国路,细颗粒物(PM2.5),105,106,56,79,44,27,27,,,40,28,12,9,0.8,0.7
2025-12-11T0100,1138A,126.615,45.61,哈尔滨市,平房东轻厂,细颗粒物(PM2.5),132,151,71,100,51,9,9,,,62,44,19,15,1.5,1
2025-12-11T0100,1139A,126.595,45.9855,哈尔滨市,呼兰师专,细颗粒物(PM2.5),74,82,84,54,70,30,30,,,21,32,5,9,0.8,0.9
2025-12-11T0100,1140A,126.6206,45.6842,哈尔滨市,省农科院,颗粒物(PM10),81,111,73,53,51,31,31,,,32,36,20,14,0.6,0.7
2025-12-11T0100,2688A,93.5128,42.8172,哈密市,地区监测站,颗粒物(PM10),70,89,71,48,38,34,34,,,20,20,4,10,0.3,0.2
2025-12-11T0100,2689A,93.4961,42.8328,哈密市,哈密师范学校,颗粒物(PM10),57,64,72,25,34,45,45,,,15,24,8,7,0.4,0.5
2025-12-11T0100,2671A,100.9048,36.9639,海北藏族自治州,海晏县西海镇,,28,28,23,9,11,61,61,,,3,5,9,10,0.4,0.4
2025-12-11T0100,3867A,102.0738,36.5056,海东市,平安区公安北苑,细颗粒物(PM2.5),75,87,84,55,54,34,34,,,13,29,16,27,1.0,1.4
2025-12-11T0100,1409A,110.576,19.9507,海口市,东寨港,,,,,,,,,,,,,,,,
2025-12-11T0100,1410A,110.3232,20.0574,海口市,海南大学,"颗粒物(PM10),细颗粒物(PM2.5)",55,59,57,39,33,102,102,,,11,11,6,6,0.6,0.5
2025-12-11T0100,1411A,110.283,20.0053,海口市,秀英海南医院,颗粒物(PM10),55,60,47,30,31,94,94,,,12,13,8,8,0.3,0.3
2025-12-11T0100,1412A,110.338,19.9969,海口市,海南师范大学,颗粒物(PM10),55,60,47,26,32,99,99,,,12,13,6,6,0.6,0.6
2025-12-11T0100,1413A,110.33,20.0356,海口市,龙华路环保局宿舍,颗粒物(PM10),55,59,47,34,33,102,102,,,12,13,8,8,0.7,0.7
2025-12-11T0100,3539A,110.5111,19.9736,海口市,桂林洋子站,,45,45,48,29,29,88,88,,,10,10,7,7,0.4,0.4
2025-12-11T0100,2673A,100.6188,36.2866,海南藏族自治州,共和县恰卜恰镇,,49,49,38,15,16,22,22,,,39,25,12,13,0.5,0.5
2025-12-11T0100,2676A,97.3731,37.3753,海西蒙古族藏族自治州,德令哈市,,32,32,25,12,9,77,77,,,2,7,13,10,0.4,0.5
2025-12-11T0100,1048A,114.5302,36.6116,邯郸市,东污水处理厂,细颗粒物(PM2.5),183,179,190,138,151,5,5,,,88,77,13,11,1.1,1.2
2025-12-11T0100,1049A,114.4918,36.5713,邯郸市,矿院,细颗粒物(PM2.5),188,158,175,141,154,4,4,,,92,79,12,9,1.0,1.2
2025-12-11T0100,1050A,114.484,36.6133,邯郸市,丛台公园,细颗粒物(PM2.5),178,173,188,134,144,7,7,,,91,78,13,13,1.0,1.2
2025-12-11T0100,3458A,114.7895,36.5593,邯郸市,香泉濮院小区,细颗粒物(PM2.5),219,232,215,169,154,6,6,,,81,65,9,9,1.3,1.1
2025-12-11T0100,3579A,114.50634,36.77178,邯郸市,永年区实验高中,细颗粒物(PM2.5),127,159,179,96,102,5,5,,,94,89,10,12,1.0,1.2
2025-12-11T0100,3580A,114.20016,36.44293,邯郸市,峰峰矿区临水派出所,细颗粒物(PM2.5),192,150,145,144,164,18,18,,,74,53,15,16,1.1,1.2
2025-12-11T0100,2634A,106.9893,33.1842,汉中市,汉川机床厂子校,,,,,,,,,,,,,,,,
2025-12-11T0100,2635A,107.0154,33.0706,汉中市,市监测站,细颗粒物(PM2.5),150,,97,115,80,6,6,,,48,42,4,6,1.5,1.3
2025-12-11T0100,2636A,107.0089,33.1138,汉中市,鑫源开发区,细颗粒物(PM2.5),109,108,88,82,60,12,12,,,56,40,8,7,1.5,1.1
2025-12-11T0100,2637A,107.007,33.0323,汉中市,南郑大河坎水厂,细颗粒物(PM2.5),139,,111,106,81,4,4,,,34,32,6,6,1.2,1.2
2025-12-11T0100,1223A,120.2072,30.2111,杭州市,滨江,颗粒物(PM10),71,91,73,42,27,1,1,,,73,52,8,8,0.9,0.5
2025-12-11T0100,1224A,120.0633,30.2747,杭州市,西溪,细颗粒物(PM2.5),59,58,52,42,30,0,0,,,35,37,8,8,0.5,0.4
2025-12-11T0100,1226A,120.3417,30.3150,杭州市,下沙,细颗粒物(PM2.5),88,121,66,65,31,1,1,,,90,61,8,8,1.2,0.7
2025-12-11T0100,1227A,120.1269,30.2456,杭州市,卧龙桥,,41,41,48,24,23,0,0,,,28,31,8,8,0.6,0.6
2025-12-11T0100,1228A,120.1903,30.2692,杭州市,浙江农大,颗粒物(PM10),78,105,74,56,35,2,2,,,78,65,10,8,1.3,0.7
2025-12-11T0100,1230A,120.1197,30.3119,杭州市,和睦小学,颗粒物(PM10),98,145,85,52,31,2,2,,,64,53,10,9,1.1,0.7
2025-12-11T0100,1231A,120.3019,30.4183,杭州市,临平镇,颗粒物(PM10),77,104,70,47,28,0,0,,,79,52,7,7,0.9,0.7
2025-12-11T0100,1232A,120.2753,30.1839,杭州市,城厢镇,颗粒物(PM10),73,96,71,45,31,0,0,,,76,53,8,8,1.0,0.7
2025-12-11T0100,1233A,120.0883,30.1808,杭州市,云栖,颗粒物(PM10),51,51,63,26,31,4,4,,,48,45,5,5,0.4,0.5
2025-12-11T0100,3557A,119.9464,30.0494,杭州市,镇二中,细颗粒物(PM2.5),78,94,74,57,41,2,2,,,63,58,6,6,1.0,0.8
2025-12-11T0100,3558A,119.7183,30.2367,杭州市,市府大楼,颗粒物(PM10),71,92,96,46,43,13,13,,,31,36,10,11,0.8,0.8
2025-12-11T0100,3656A,120.1556,30.2864,杭州市,消防大队,细颗粒物(PM2.5),79,97,71,58,36,0,0,,,73,48,5,5,0.8,0.6
2025-12-11T0100,1270A,117.1959,31.7848,合肥市,明珠广场,细颗粒物(PM2.5),125,163,108,95,55,1,1,,,88,61,8,8,1.2,0.9
2025-12-11T0100,1271A,117.3072,31.8764,合肥市,三里街,细颗粒物(PM2.5),107,129,112,80,53,1,1,,,84,76,7,7,1.3,0.9
2025-12-11T0100,1272A,117.2588,31.8707,合肥市,琥珀山庄,细颗粒物(PM2.5),100,119,105,75,56,3,3,,,82,64,8,8,1.5,0.9
2025-12-11T0100,1273A,117.1604,31.9052,合肥市,董铺水库,,,,,,,,,,,,,,,,
2025-12-11T0100,1274A,117.25,31.8571,合肥市,长江中路,细颗粒物(PM2.5),128,134,111,97,60,2,2,,,87,63,8,9,1.4,0.9
2025-12-11T0100,1275A,117.266,31.9436,合肥市,庐阳区,"颗粒物(PM10),细颗粒物(PM2.5)",92,134,116,68,53,3,3,,,99,77,13,13,1.1,0.9
2025-12-11T0100,1276A,117.3453,31.8616,合肥市,瑶海区,细颗粒物(PM2.5),110,144,110,83,52,1,1,,,86,71,7,7,0.9,0.8
2025-12-11T0100,1277A,117.3027,31.7964,合肥市,包河区,细颗粒物(PM2.5),107,122,102,80,55,3,3,,,74,73,8,10,1.0,0.9
2025-12-11T0100,1278A,117.2776,31.7385,合肥市,滨湖新区,细颗粒物(PM2.5),110,112,98,83,57,0,0,,,69,49,6,7,1.0,0.8
2025-12-11T0100,1279A,117.1318,31.8403,合肥市,高新区,细颗粒物(PM2.5),117,124,102,88,55,7,7,,,89,65,7,7,0.9,0.8
2025-12-11T0100,3464A,117.3803,31.9147,合肥市,高教基地,细颗粒物(PM2.5),112,119,98,84,60,4,4,,,52,43,7,7,0.9,0.7
2025-12-11T0100,3614A,79.924,37.0877,和田地区,地区环保局,颗粒物(PM10),500,686,271,88,65,59,59,,,20,16,1,4,1.1,1.3
2025-12-11T0100,3615A,79.9131,37.113,和田地区,市环保局,颗粒物(PM10),262,393,222,34,33,59,59,,,37,30,3,3,0.2,0.3
2025-12-11T0100,2516A,108.2011,24.715,河池市,东仁乐园,,,,,,,,,,,,,,,,
2025-12-11T0100,2517A,108.0497,24.6947,河池市,市环保站,细颗粒物(PM2.5),99,93,75,74,60,1,1,,,42,31,3,7,1.0,0.9
2025-12-11T0100,2518A,108.0983,24.6989,河池市,市疾控中心,细颗粒物(PM2.5),139,,81,106,69,3,3,,,44,38,6,9,1.3,1
2025-12-11T0100,1696A,114.6778,23.7569,河源市,源西,,,,,,,,,,,,,,,,
2025-12-11T0100,1697A,114.6944,23.7586,河源市,东埔,细颗粒物(PM2.5),59,54,51,42,38,20,20,,,51,31,5,6,0.8,0.7
2025-12-11T0100,1698A,114.6892,23.7233,河源市,老城,颗粒物(PM10),53,56,47,32,32,26,26,,,36,22,6,7,0.7,0.7
2025-12-11T0100,1718A,115.4208,35.2464,菏泽市,气象局,细颗粒物(PM2.5),223,256,170,173,98,20,20,,,76,41,6,7,0.9,0.7
2025-12-11T0100,3374A,115.5564,35.0891,菏泽市,定陶老年大学,细颗粒物(PM2.5),185,197,147,139,82,47,47,,,46,44,4,6,0.9,0.8
2025-12-11T0100,4184A,115.4797,35.24401,菏泽市,永昌路1号,颗粒物(PM10),145,239,162,,87,36,36,,,55,44,7,7,0.9,0.7
2025-12-11T0100,4193A,115.4715,35.2800,菏泽市,长城路999号,细颗粒物(PM2.5),211,233,158,161,87,28,28,,,62,40,5,6,0.9,0.7
2025-12-11T0100,2514A,111.5264,24.4172,贺州市,环保小区,细颗粒物(PM2.5),119,99,84,90,61,8,8,,,42,29,4,6,1.1,1.1
2025-12-11T0100,2515A,111.5608,24.4078,贺州市,政协大楼,细颗粒物(PM2.5),113,114,87,85,64,3,3,,,46,35,8,8,1.2,1
2025-12-11T0100,3534A,111.4744,24.4553,贺州市,西湾,细颗粒物(PM2.5),87,94,81,64,56,24,24,,,26,27,4,5,0.9,0.9
2025-12-11T0100,2385A,114.17,35.9019,鹤壁市,市监测站,细颗粒物(PM2.5),226,220,177,176,133,11,11,,,81,48,15,10,1.6,1.1
2025-12-11T0100,2386A,114.2956,35.7511,鹤壁市,市交警支队,细颗粒物(PM2.5),250,279,205,200,141,2,2,,,104,63,10,8,1.7,1.1
2025-12-11T0100,2387A,114.2878,35.7306,鹤壁市,迎宾馆,细颗粒物(PM2.5),239,254,205,189,140,3,3,,,95,55,18,10,1.7,1.2
2025-12-11T0100,3474A,114.2617,35.6822,鹤壁市,大新区,细颗粒物(PM2.5),219,273,202,169,145,10,10,,,92,63,16,11,1.9,1.3
2025-12-11T0100,3596A,114.1572,35.9603,鹤壁市,南山宾馆,细颗粒物(PM2.5),225,256,186,175,131,12,12,,,79,39,14,14,1.5,1.1
2025-12-11T0100,2244A,130.2537,47.3416,鹤岗市,哈啤分公司,,20,18,29,12,22,62,62,,,3,8,6,6,0.4,0.5
2025-12-11T0100,2245A,130.2684,47.3086,鹤岗市,斯达机电,,32,,28,22,19,64,64,,,4,10,7,8,0.3,0.4
2025-12-11T0100,2246A,130.3114,47.3388,鹤岗市,东山纸板厂,,26,,38,18,27,60,60,,,5,18,6,12,0.5,1.1
2025-12-11T0100,2247A,130.1097,47.3382,鹤岗市,五号水库,,,,,,,,,,,,,,,,
2025-12-11T0100,2263A,127.4833,50.2524,黑河市,交通局,,18,,15,12,14,57,57,,,2,8,4,4,0.3,0.5
2025-12-11T0100,2264A,127.5144,50.2341,黑河市,环保局,,19,,17,13,15,57,57,,,6,10,5,5,0.2,0.8
2025-12-11T0100,2265A,127.5291,50.2472,黑河市,大黑河岛,,,,,,,,,,,,,,,,
2025-12-11T0100,1074A,115.6838,37.7541,衡水市,电机北厂,细颗粒物(PM2.5),183,203,217,138,140,0,0,,,74,70,6,9,1.5,1.1
2025-12-11T0100,1075A,115.6303,37.7316,衡水市,市监测站,细颗粒物(PM2.5),185,170,183,139,133,0,0,,,81,76,10,10,1.5,1.1
2025-12-11T0100,3188A,115.6683,37.7217,衡水市,市城管局,细颗粒物(PM2.5),178,185,203,134,122,0,0,,,80,73,14,12,1.7,1
2025-12-11T0100,3459A,115.5989,37.5491,衡水市,地表水厂,细颗粒物(PM2.5),185,172,177,139,136,2,2,,,78,69,7,10,1.2,0.9
2025-12-11T0100,2456A,112.5003,26.9167,衡阳市,原169医院,,,,,,,,,,,,,,,,
2025-12-11T0100,2457A,112.6194,26.9258,衡阳市,衡阳化工总厂,细颗粒物(PM2.5),156,124,128,119,112,40,40,,,46,40,9,11,1.3,1.2
2025-12-11T0100,2458A,112.6211,26.8956,衡阳市,珠晖区环保局,细颗粒物(PM2.5),150,,124,115,117,56,56,,,44,46,7,9,1.5,1.6
2025-12-11T0100,2459A,112.6197,26.8733,衡阳市,市委党校,细颗粒物(PM2.5),109,93,121,82,103,95,95,,,19,28,11,11,1.4,1.5
2025-12-11T0100,2460A,112.6006,26.8919,衡阳市,市监测站,细颗粒物(PM2.5),150,118,152,115,126,48,48,,,42,45,9,12,1.6,1.6
2025-12-11T0100,2461A,112.5664,26.9056,衡阳市,真空机电公司,细颗粒物(PM2.5),152,126,130,116,112,37,37,,,46,44,9,14,1.5,1.5
2025-12-11T0100,3399A,112.6703,26.882,衡阳市,师范学院,细颗粒物(PM2.5),113,106,143,85,101,97,97,,,21,34,16,17,1.1,1.1
2025-12-11T0100,2608A,103.3772,23.3993,红河哈尼族彝族自治州,污水处理厂,,47,47,39,32,31,61,61,,,9,11,4,8,0.4,0.4
2025-12-11T0100,2609A,103.3861,23.35,红河哈尼族彝族自治州,监测站,,46,33,38,32,32,67,67,,,4,6,7,7,0.4,0.3
2025-12-11T0100,3038A,103.3758,23.368,红河哈尼族彝族自治州,州图书馆,,35,35,31,19,22,66,66,,,5,7,5,5,0.5,0.5
2025-12-11T0100,1090A,111.6507,40.7517,呼和浩特市,呼市一监,,23,12,80,11,46,73,73,,,5,42,5,12,0.2,0.7
2025-12-11T0100,1091A,111.6572,40.8033,呼和浩特市,小召,,24,12,80,11,41,76,76,,,8,52,6,12,0.3,0.9
2025-12-11T0100,1094A,111.7516,40.8369,呼和浩特市,如意水处理厂,,20,19,72,13,40,62,62,,,17,47,7,12,0.4,0.9
2025-12-11T0100,1095A,111.7276,40.8062,呼和浩特市,二十九中,,24,12,74,10,37,75,75,,,6,45,8,15,0.2,0.7
2025-12-11T0100,1096A,111.5512,40.7866,呼和浩特市,工大金川校区,,24,18,87,12,47,74,74,,,11,51,6,13,0.3,0.7
2025-12-11T0100,1097A,111.717,40.7612,呼和浩特市,化肥厂生活区,,23,18,78,11,43,73,73,,,14,52,5,12,0.2,0.8
2025-12-11T0100,3698A,111.5968,40.8178,呼和浩特市,红旗小学,,23,,76,12,41,73,73,,,7,47,4,14,0.2,0.7
2025-12-11T0100,3699A,111.6518,40.8389,呼和浩特市,海东办,,25,,66,10,37,80,80,,,7,43,4,9,0.4,0.9
2025-12-11T0100,3061A,119.7512,49.1577,呼伦贝尔市,国华电力东,,35,32,22,24,16,32,32,,,28,28,4,5,0.8,0.6
2025-12-11T0100,4279A,119.7569,49.2222,呼伦贝尔市,伊敏大街东7号,,40,,24,28,20,43,43,,,6,8,5,6,0.9,0.8
2025-12-11T0100,1250A,120.0751,30.8669,湖州市,城西水厂,细颗粒物(PM2.5),94,121,70,70,37,11,11,,,71,54,11,9,0.6,0.5
2025-12-11T0100,2873A,120.0830,30.8929,湖州市,仁皇山新区,细颗粒物(PM2.5),105,135,67,79,35,7,7,,,82,53,10,8,0.8,0.6
2025-12-11T0100,2907A,120.1844,30.8596,湖州市,吴兴区站,颗粒物(PM10),82,114,66,54,30,4,4,,,69,46,8,7,1.1,0.9
2025-12-11T0100,3562A,120.4148,30.8538,湖州市,南浔区站,颗粒物(PM10),76,101,52,51,23,0,0,,,76,30,6,6,0.9,0.8
2025-12-11T0100,1607A,120.9049,40.7211,葫芦岛市,龙港区,,32,,115,22,84,45,45,,,10,43,10,32,0.5,1.1
2025-12-11T0100,1608A,120.8392,40.7514,葫芦岛市,化工街,,31,31,130,12,79,48,48,,,10,37,11,34,0.3,0.9
2025-12-11T0100,1609A,120.8341,40.7073,葫芦岛市,新区,,27,27,105,8,73,53,53,,,8,46,8,28,0.5,1.2
2025-12-11T0100,1610A,120.8695,40.7677,葫芦岛市,东城区,,17,17,111,10,80,48,48,,,10,40,8,31,0.5,1.1
2025-12-11T0100,2482A,109.5981,27.5721,怀化市,林科所,,,,,,,,,,,,,,,,
2025-12-11T0100,2483A,109.9453,27.5444,怀化市,河西地税局,细颗粒物(PM2.5),92,90,87,68,60,39,39,,,23,27,6,8,0.8,0.7
2025-12-11T0100,2484A,109.9781,27.5342,怀化市,市四医院,细颗粒物(PM2.5),112,142,113,84,72,26,26,,,38,24,21,26,0.8,0.8
2025-12-11T0100,2485A,109.9972,27.5578,怀化市,监测楼,细颗粒物(PM2.5),108,111,100,81,67,25,25,,,44,28,16,13,0.7,0.5
2025-12-11T0100,2486A,110.0394,27.583,怀化市,市委党校,细颗粒物(PM2.5),105,97,97,79,71,22,22,,,32,26,21,24,0.8,0.7
2025-12-11T0100,1210A,119.036,33.5981,淮安市,钵池山,细颗粒物(PM2.5),79,90,66,58,37,59,59,,,31,33,7,8,0.8,0.7
2025-12-11T0100,1211A,119.007,33.575,淮安市,北京南路,细颗粒物(PM2.5),87,95,71,64,40,12,12,,,69,41,7,8,0.7,0.6
2025-12-11T0100,1212A,118.989,33.6067,淮安市,市监测站,细颗粒物(PM2.5),92,88,62,68,42,31,31,,,55,36,9,10,0.7,0.6
2025-12-11T0100,1213A,119.135,33.5039,淮安市,楚州区监测站,细颗粒物(PM2.5),100,98,75,75,47,0,0,,,88,49,8,10,0.8,0.7
2025-12-11T0100,3426A,118.8755,33.2894,淮安市,新华书店,细颗粒物(PM2.5),109,122,81,82,50,38,38,,,50,40,12,11,0.9,0.8
2025-12-11T0100,4206A,119.0288,33.6319,淮安市,承德北路606号,细颗粒物(PM2.5),87,117,82,64,40,58,58,,,34,33,7,9,0.7,0.7
2025-12-11T0100,2282A,116.8004,33.975,淮北市,监测站,细颗粒物(PM2.5),129,148,124,98,64,33,33,,,59,44,9,10,0.8,0.6
2025-12-11T0100,2283A,116.8091,33.9007,淮北市,烈山区政府,细颗粒物(PM2.5),153,158,127,117,72,17,17,,,94,50,12,13,0.6,0.5
2025-12-11T0100,3330A,116.8873,33.9836,淮北市,杜集区检察院,细颗粒物(PM2.5),142,147,120,108,71,51,51,,,46,35,8,8,0.7,0.7
2025-12-11T0100,4017A,116.7923,33.9535,淮北市,市博物馆,细颗粒物(PM2.5),140,142,130,107,73,16,16,,,80,45,11,12,0.7,0.5
2025-12-11T0100,2277A,116.8305,32.7727,淮南市,潘集区政府,细颗粒物(PM2.5),138,156,138,105,80,62,62,,,36,39,8,10,1.0,0.8
2025-12-11T0100,2279A,116.8569,32.5951,淮南市,谢家集区政府,细颗粒物(PM2.5),107,132,97,80,54,66,66,,,40,35,9,10,0.5,0.5
2025-12-11T0100,2280A,116.8281,32.633,淮南市,八公山区政府,细颗粒物(PM2.5),105,112,97,79,53,92,92,,,22,27,6,8,0.7,0.7
2025-12-11T0100,2281A,116.6325,32.6201,淮南市,焦岗湖风景区管理处,,,,,,,,,,,,,,,,
2025-12-11T0100,2894A,117.0566,32.6531,淮南市,经济技术开发区消防队,细颗粒物(PM2.5),128,131,114,97,66,72,72,,,40,45,2,4,0.8,0.7
2025-12-11T0100,3329A,117.0108,32.5893,淮南市,山南新区,细颗粒物(PM2.5),150,153,122,115,66,59,59,,,39,38,3,6,0.7,0.7
2025-12-11T0100,4209A,117.0031,32.6445,淮南市,国庆中路369号,细颗粒物(PM2.5),134,130,99,102,65,63,63,,,32,38,8,9,0.6,0.6
2025-12-11T0100,2446A,114.9028,30.4742,黄冈市,职工中心,细颗粒物(PM2.5),129,141,111,98,74,20,20,,,61,45,6,12,1.2,1
2025-12-11T0100,2929A,114.8858,30.4519,黄冈市,红卫路,细颗粒物(PM2.5),142,131,106,108,82,18,18,,,48,39,8,11,1.1,1
2025-12-11T0100,3398A,114.9136,30.4445,黄冈市,市林业局,细颗粒物(PM2.5),148,153,131,113,86,19,19,,,55,49,5,10,1.0,1.1
2025-12-11T0100,2672A,102.0199,35.5102,黄南藏族自治州,同仁县隆务镇,,35,35,38,10,16,52,52,,,3,8,10,10,0.4,0.5
2025-12-11T0100,2295A,118.2903,29.6963,黄山市,延安路89号,细颗粒物(PM2.5),77,73,60,56,43,19,19,,,32,27,4,5,0.6,0.5
2025-12-11T0100,2297A,118.1371,30.2756,黄山市,黄山区政府5号楼,细颗粒物(PM2.5),90,69,66,67,50,24,24,,,12,14,6,6,0.5,0.5
2025-12-11T0100,4210A,118.3354,29.7203,黄山市,滨江东路7-2号,细颗粒物(PM2.5),79,76,71,58,46,17,17,,,26,31,4,4,0.6,0.5
2025-12-11T0100,2423A,115.0601,30.2313,黄石市,沈家营,细颗粒物(PM2.5),119,143,138,90,81,6,6,,,52,53,6,9,1.3,1.2
2025-12-11T0100,2426A,114.8988,30.2019,黄石市,铁山,细颗粒物(PM2.5),107,90,101,80,95,35,35,,,14,45,4,4,0.7,1
2025-12-11T0100,2427A,115.0307,30.2092,黄石市,团城山,细颗粒物(PM2.5),149,160,124,114,91,9,9,,,68,51,8,8,1.4,1.1
2025-12-11T0100,3149A,115.0235,30.1578,黄石市,笔架山北路,细颗粒物(PM2.5),137,171,171,104,95,42,42,,,31,43,7,7,1.8,1.5
2025-12-11T0100,4185A,115.0780,30.21118,黄石市,磁湖东路29号,细颗粒物(PM2.5),138,146,134,105,97,9,9,,,50,49,9,13,1.6,1.3
2025-12-11T0100,1392A,114.4183,23.0528,惠州市,河南岸金山湖子站,"颗粒物(PM10),细颗粒物(PM2.5)",53,55,59,37,34,41,41,,,22,24,2,5,0.8,0.8
2025-12-11T0100,1393A,114.4053,23.0822,惠州市,下埔横江三路子站,细颗粒物(PM2.5),58,60,63,41,38,37,37,,,27,21,5,7,0.7,0.7
2025-12-11T0100,1394A,114.4103,23.1142,惠州市,江北云山西路子站,细颗粒物(PM2.5),62,63,61,44,38,39,39,,,32,27,6,8,0.7,0.7
2025-12-11T0100,1395A,114.4645,22.7833,惠州市,惠阳区承修路船湖子站,细颗粒物(PM2.5),53,51,68,37,38,46,46,,,22,27,5,6,0.5,0.6
2025-12-11T0100,1396A,114.5317,22.7422,惠州市,大亚湾管委会子站,细颗粒物(PM2.5),60,58,63,43,36,37,37,,,33,29,5,6,0.6,0.6
2025-12-11T0100,3314A,114.4338,22.8134,惠州市,惠阳秋长,细颗粒物(PM2.5),54,46,57,38,36,30,30,,,37,30,8,9,0.6,0.6
2025-12-11T0100,3452A,114.6517,22.775,惠州市,大亚湾霞涌,颗粒物(PM10),51,51,51,31,28,75,75,,,11,16,4,4,0.6,0.5
2025-12-11T0100,2240A,130.9762,45.3001,鸡西市,环保局,,22,21,30,15,18,54,54,,,3,12,6,7,0.4,0.4
2025-12-11T0100,2243A,130.9429,45.3039,鸡西市,第一中学,,29,21,24,20,16,54,54,,,5,9,4,5,0.3,0.4
2025-12-11T0100,3707A,131.0207,45.3073,鸡西市,欧美日汽修厂,,26,,45,18,28,50,50,,,7,22,6,10,0.5,0.7
2025-12-11T0100,3709A,130.9967,45.3106,鸡西市,市政设施管理处,,,,47,,25,,,29,,,31,,9,,0.6
2025-12-11T0100,2367A,114.9754,27.0803,吉安市,红声器材厂,细颗粒物(PM2.5),95,100,99,71,66,44,44,,,41,32,7,9,0.5,0.6
2025-12-11T0100,2368A,114.9658,27.0999,吉安市,市森林工业局,细颗粒物(PM2.5),99,98,99,74,70,42,42,,,42,36,10,11,0.8,0.6
2025-12-11T0100,2369A,114.99,27.1312,吉安市,市环境监测站,细颗粒物(PM2.5),98,99,94,73,67,34,34,,,46,26,13,14,0.8,0.8
2025-12-11T0100,2370A,115.0093,27.0968,吉安市,青原区法院,细颗粒物(PM2.5),88,92,96,65,67,8,8,,,66,35,9,11,0.8,0.8
2025-12-11T0100,1772A,126.54,43.8622,吉林市,哈达湾,细颗粒物(PM2.5),64,66,71,46,50,29,29,,,32,27,21,16,1.0,1
2025-12-11T0100,1773A,126.5844,43.8358,吉林市,东局子,,50,48,70,35,51,18,18,,,32,32,10,11,0.8,1.2
2025-12-11T0100,1774A,126.5052,43.8245,吉林市,电力学院,细颗粒物(PM2.5),83,79,76,61,59,28,28,,,33,33,29,20,0.9,1
2025-12-11T0100,1775A,126.6133,43.8972,吉林市,江北,,48,46,86,33,65,17,17,,,34,28,5,10,0.9,1.1
2025-12-11T0100,1776A,126.555,43.8306,吉林市,江南公园,细颗粒物(PM2.5),53,45,67,37,53,31,31,,,26,34,17,12,0.9,1
2025-12-11T0100,1778A,126.7061,43.7133,吉林市,丰满,,42,31,55,29,55,33,33,,,14,18,7,8,0.2,0.5
2025-12-11T0100,2868A,126.4739,43.953,吉林市,九站,细颗粒物(PM2.5),73,65,79,53,62,10,10,,,48,42,23,18,0.9,0.9
2025-12-11T0100,1299A,116.9862,36.6114,济南市,科干所,细颗粒物(PM2.5),113,,102,85,45,5,5,,,96,30,14,8,1.0,0.7
2025-12-11T0100,1300A,116.9376,36.665,济南市,农科所,细颗粒物(PM2.5),125,178,113,95,48,3,3,,,82,40,10,7,1.1,0.7
2025-12-11T0100,1301A,117.1265,36.6734,济南市,开发区,细颗粒物(PM2.5),132,181,105,100,51,4,4,,,86,42,12,6,0.9,0.7
2025-12-11T0100,1303A,117.0624,36.6868,济南市,省种子仓库,细颗粒物(PM2.5),134,190,138,102,61,5,5,,,79,63,19,11,1.0,1.1
2025-12-11T0100,1304A,116.9489,36.6447,济南市,机床二厂,细颗粒物(PM2.5),144,190,118,110,62,2,2,,,90,45,17,12,1.0,0.7
2025-12-11T0100,1305A,117.0495,36.663,济南市,市监测站,细颗粒物(PM2.5),132,178,110,100,54,2,2,,,77,42,10,6,0.9,0.7
2025-12-11T0100,1306A,116.7675,36.5484,济南市,长清党校,细颗粒物(PM2.5),129,181,118,98,53,9,9,,,84,34,12,11,1.1,0.8
2025-12-11T0100,1616A,117.6795,36.229,济南市,技术学院,细颗粒物(PM2.5),132,190,136,100,75,3,3,,,91,62,11,14,0.9,0.8
2025-12-11T0100,1961A,117.532,36.6868,济南市,东山小学,细颗粒物(PM2.5),119,173,127,90,72,12,12,,,83,38,12,9,0.9,0.8
2025-12-11T0100,3059A,117.7161,36.2049,济南市,泰兴公司,细颗粒物(PM2.5),163,166,140,124,85,4,4,,,75,62,8,11,1.1,0.9
2025-12-11T0100,3064A,117.6867,36.2171,济南市,莱芜战役纪念馆,细颗粒物(PM2.5),153,168,139,117,81,5,5,,,85,61,13,20,0.9,0.7
2025-12-11T0100,3494A,117.1673,36.9782,济南市,济阳区政府,细颗粒物(PM2.5),150,198,145,115,70,10,10,,,78,64,20,15,1.2,0.9
2025-12-11T0100,3495A,117.1171,36.63,济南市,锦屏中学,细颗粒物(PM2.5),110,156,89,83,42,4,4,,,92,28,10,7,0.9,0.6
2025-12-11T0100,3682A,116.9814,36.6819,济南市,济南四建,细颗粒物(PM2.5),138,183,117,105,56,2,2,,,82,54,16,10,1.2,0.9
2025-12-11T0100,1653A,116.6251,35.4302,济宁市,火炬城,细颗粒物(PM2.5),180,178,131,136,83,5,5,,,76,39,8,9,0.8,0.4
2025-12-11T0100,1655A,116.5491,35.4042,济宁市,电化厂,细颗粒物(PM2.5),163,213,170,124,85,17,17,,,67,43,11,11,0.7,0.5
2025-12-11T0100,3500A,116.5814,35.3707,济宁市,北湖一中,细颗粒物(PM2.5),178,165,117,134,81,7,7,,,76,39,10,10,0.9,0.7
2025-12-11T0100,3501A,116.8249,35.5593,济宁市,服务中心,细颗粒物(PM2.5),143,190,147,109,72,1,1,,,64,43,14,14,0.8,0.6
2025-12-11T0100,3678A,116.5907,35.4054,济宁市,市第七中学,细颗粒物(PM2.5),144,170,126,110,70,11,11,,,,41,12,12,1.0,0.7
2025-12-11T0100,2255A,130.2751,46.8028,佳木斯市,佳纺,,19,19,37,10,25,45,45,,,8,14,2,4,0.3,0.4
2025-12-11T0100,2256A,130.3995,46.8307,佳木斯市,发电厂,,15,8,26,6,21,47,47,,,9,14,3,3,0.3,0.4
2025-12-11T0100,2257A,130.3258,46.7975,佳木斯市,环保局,,17,17,29,11,23,48,48,,,9,14,3,3,0.3,0.3
2025-12-11T0100,2258A,130.3648,46.8032,佳木斯市,十一中,,16,13,27,7,25,51,51,,,7,14,3,5,0.9,0.6
2025-12-11T0100,2259A,130.3794,46.7588,佳木斯市,四丰,,,,,,,,,,,,,,,,
2025-12-11T0100,1252A,120.7436,30.778,嘉兴市,清河小学,颗粒物(PM10),77,103,55,41,19,1,1,,,74,39,5,5,0.6,0.4
2025-12-11T0100,1253A,120.726,30.7478,嘉兴市,嘉兴学院,颗粒物(PM10),73,95,51,44,21,0,0,,,77,38,7,7,0.7,0.5
2025-12-11T0100,2872A,120.7846,30.7525,嘉兴市,南湖区残联,颗粒物(PM10),97,143,53,62,20,2,2,,,79,40,4,4,0.9,0.5
2025-12-11T0100,3407A,120.6916,30.7739,嘉兴市,秀洲住建,颗粒物(PM10),67,84,46,38,19,2,2,,,61,35,6,6,0.8,0.5
2025-12-11T0100,1945A,98.2908,39.7711,嘉峪关市,气象局,颗粒物(PM10),68,85,145,22,35,35,35,,,18,12,5,12,0.6,0.6
2025-12-11T0100,2884A,98.2672,39.7978,嘉峪关市,酒钢宾馆,颗粒物(PM10),79,107,153,29,38,33,33,,,27,19,12,21,0.4,0.6
2025-12-11T0100,3248A,98.2643,39.7724,嘉峪关市,雄关区,颗粒物(PM10),63,76,111,19,32,35,35,,,33,27,10,16,0.7,0.8
2025-12-11T0100,1383A,113.1064,22.6058,江门市,北街,细颗粒物(PM2.5),79,86,95,58,69,32,32,,,60,77,6,8,0.8,0.8
2025-12-11T0100,1384A,113.0731,22.5835,江门市,西区,细颗粒物(PM2.5),69,86,101,50,59,29,29,,,81,84,6,8,0.7,1
2025-12-11T0100,1385A,113.0219,22.5311,江门市,圭峰西,细颗粒物(PM2.5),72,76,90,52,70,31,31,,,51,58,6,7,0.7,0.8
2025-12-11T0100,1386A,113.0828,22.5947,江门市,东湖,颗粒物(PM10),68,86,103,45,59,21,21,,,74,70,10,12,0.6,0.6
2025-12-11T0100,3311A,113.1075,22.5647,江门市,江海富民,"颗粒物(PM10),细颗粒物(PM2.5)",83,115,122,61,67,24,24,,,75,70,6,8,0.9,0.8
2025-12-11T0100,3449A,113.05,22.4667,江门市,新会银湖,细颗粒物(PM2.5),90,103,94,67,77,12,12,,,41,42,6,7,0.7,0.8
2025-12-11T0100,1830A,113.1992,35.2590,焦作市,影视城,,,,140,,84,,,69,,,38,,12,,0.9
2025-12-11T0100,3335A,113.3137,35.2641,焦作市,马村街道办,细颗粒物(PM2.5),127,123,176,96,130,75,75,,,18,41,11,12,1.1,1
2025-12-11T0100,3336A,113.2465,35.2373,焦作市,焦作技师学院,细颗粒物(PM2.5),113,129,181,85,121,67,67,,,25,42,16,14,1.5,1.4
2025-12-11T0100,3477A,113.1656,35.2539,焦作市,中站许衡医院,细颗粒物(PM2.5),123,121,150,93,105,72,72,,,27,40,11,13,1.2,1
2025-12-11T0100,3981A,113.2449,35.1803,焦作市,原李万街道办,细颗粒物(PM2.5),110,142,183,83,126,80,80,,,20,53,13,12,1.2,1.2
2025-12-11T0100,4264A,113.2340,35.2190,焦作市,新安路1731号,细颗粒物(PM2.5),124,122,187,94,134,70,70,,,24,53,16,15,1.4,1.3
2025-12-11T0100,4295A,113.2722,35.2121,焦作市,人民路3066号,细颗粒物(PM2.5),103,108,187,77,107,67,67,,,24,51,14,12,1.1,1.1
2025-12-11T0100,1708A,116.3701,23.5345,揭阳市,新兴,颗粒物(PM10),57,64,60,35,35,42,42,,,38,30,8,12,0.6,0.6
2025-12-11T0100,1709A,116.3264,23.5443,揭阳市,西马,颗粒物(PM10),64,77,69,38,34,48,48,,,29,29,8,8,0.6,0.5
2025-12-11T0100,1710A,116.3611,23.5626,揭阳市,东兴,细颗粒物(PM2.5),62,72,62,44,31,42,42,,,37,29,13,11,0.7,0.7
2025-12-11T0100,1711A,116.4151,23.5294,揭阳市,渔湖,颗粒物(PM10),58,66,58,22,27,43,43,,,34,26,8,11,0.7,0.8
2025-12-11T0100,3320A,116.403,23.5699,揭阳市,曲溪,颗粒物(PM10),56,61,62,31,31,46,46,,,37,27,11,8,0.6,0.6
2025-12-11T0100,1944A,102.1692,38.5167,金昌市,天庆家园,颗粒物(PM10),107,163,234,61,47,21,21,,,32,24,33,53,1.1,0.7
2025-12-11T0100,4022A,102.1647,38.5371,金昌市,金川区人防中心,颗粒物(PM10),89,127,208,46,50,40,40,,,19,20,26,36,0.7,0.6
2025-12-11T0100,4239A,102.1930,38.5319,金昌市,长春路96号,颗粒物(PM10),101,151,205,42,43,21,21,,,26,21,36,62,0.8,0.6
2025-12-11T0100,1262A,119.647,29.077,金华市,十五中,颗粒物(PM10),60,69,69,42,35,16,16,,,48,51,3,4,0.6,0.5
2025-12-11T0100,1263A,119.686,29.1029,金华市,监测站,颗粒物(PM10),56,62,68,30,28,16,16,,,40,55,3,6,0.3,0.4
2025-12-11T0100,3659A,119.656,29.1131,金华市,气象局,颗粒物(PM10),79,108,72,54,31,2,2,,,74,55,4,4,1.0,0.5
2025-12-11T0100,1767A,121.1115,41.0879,锦州市,南山,,19,13,115,13,76,58,58,,,6,35,9,26,0.5,1.1
2025-12-11T0100,1768A,121.0604,40.8428,锦州市,开发区,,30,,133,21,90,40,40,,,14,44,11,29,0.5,1.1
2025-12-11T0100,1769A,121.1836,41.1119,锦州市,百股街道,,17,17,114,9,82,49,49,,,8,34,17,30,0.7,1.2
2025-12-11T0100,1770A,121.1178,41.1222,锦州市,天安街道,,17,,96,11,67,53,53,,,5,30,10,30,0.6,1.2
2025-12-11T0100,1771A,121.1303,41.1386,锦州市,北湖公园,,30,30,95,8,63,50,50,,,7,26,9,24,0.4,0.8
2025-12-11T0100,2160A,112.85,35.5051,晋城市,自来水公司,,,110,139,,128,71,71,,,23,40,11,9,1.2,1.4
2025-12-11T0100,2161A,112.8318,35.4936,晋城市,白云商贸,细颗粒物(PM2.5),98,143,140,73,74,72,72,,,22,34,10,6,1.0,1
2025-12-11T0100,2162A,112.8508,35.4887,晋城市,市环保局,细颗粒物(PM2.5),113,134,143,85,79,72,72,,,20,36,12,10,1.1,1.1
2025-12-11T0100,2163A,112.8676,35.4897,晋城市,技术学院,细颗粒物(PM2.5),104,133,141,78,84,64,64,,,28,43,12,11,1.3,1.4
2025-12-11T0100,2165A,112.8453,35.546,晋城市,白马寺,细颗粒物(PM2.5),100,99,110,75,78,80,80,,,19,20,14,12,0.9,1.3
2025-12-11T0100,3620A,112.8271,35.4828,晋城市,泽州一中,细颗粒物(PM2.5),110,139,137,83,84,81,81,,,25,36,9,6,1.1,1.1
2025-12-11T0100,2173A,112.7249,37.7067,晋中市,南都小区,颗粒物(PM10),71,92,133,29,68,4,4,,,86,58,36,30,0.6,1
2025-12-11T0100,2174A,112.6991,37.6982,晋中市,榆次区政府,颗粒物(PM10),56,61,135,28,73,39,39,,,45,54,16,32,0.2,0.9
2025-12-11T0100,2865A,112.7195,37.6828,晋中市,榆次三中,,,,141,,81,,,24,,,56,,30,,1.3
2025-12-11T0100,4200A,112.7478,37.6954,晋中市,迎宾街26号,颗粒物(PM10),69,88,123,39,71,6,6,,,73,49,19,27,0.4,0.8
2025-12-11T0100,2439A,112.2014,31.0481,荆门市,竹园小学,细颗粒物(PM2.5),208,208,194,158,139,39,39,,,32,42,1,5,1.2,0.6
2025-12-11T0100,2440A,112.1969,30.9891,荆门市,掇刀,细颗粒物(PM2.5),224,230,204,174,146,93,93,,,45,57,6,7,0.7,0.9
2025-12-11T0100,2441A,112.2213,31.0386,荆门市,石化一小,细颗粒物(PM2.5),221,224,222,171,148,16,16,,,82,46,10,11,1.7,1.1
2025-12-11T0100,3012A,112.1849,31.0362,荆门市,西山林语,细颗粒物(PM2.5),211,193,169,161,130,97,97,,,21,28,7,7,1.2,1.2
2025-12-11T0100,3547A,112.1632,31.0138,荆门市,龙泉中学南校,细颗粒物(PM2.5),230,240,197,180,141,102,102,,,26,28,13,11,1.2,1.1
2025-12-11T0100,1844A,112.2494,30.3197,荆州市,市图书馆,细颗粒物(PM2.5),178,158,145,134,139,10,10,,,80,51,6,10,2.0,1.3
2025-12-11T0100,1845A,112.2008,30.3544,荆州市,市委党校,细颗粒物(PM2.5),209,188,167,159,142,2,2,,,86,61,3,6,1.5,1.2
2025-12-11T0100,3194A,112.2747,30.3122,荆州市,管委会,细颗粒物(PM2.5),185,184,153,139,139,0,0,,,99,56,6,9,1.4,1.3
2025-12-11T0100,4268A,112.1722,30.3366,荆州市,学苑路85号,细颗粒物(PM2.5),231,201,166,181,143,18,18,,,69,44,8,10,1.4,1.2
2025-12-11T0100,2342A,117.3102,29.3867,景德镇市,王港中学,,,,,,,,,,,,,,,,
2025-12-11T0100,2343A,117.2117,29.2933,景德镇市,老干部活动中心,细颗粒物(PM2.5),85,90,63,63,47,9,9,,,54,31,6,8,0.7,0.5
2025-12-11T0100,2344A,117.1894,29.2789,景德镇市,兽医站,细颗粒物(PM2.5),89,104,75,66,41,16,16,,,19,17,8,9,1.0,0.7
2025-12-11T0100,2346A,117.2461,29.2956,景德镇市,陶研所,细颗粒物(PM2.5),80,72,60,59,45,10,10,,,45,29,5,5,1.1,1
2025-12-11T0100,4289A,117.1542,29.2566,景德镇市,青少年活动中心,细颗粒物(PM2.5),99,114,77,74,44,16,16,,,66,37,15,12,0.7,0.4
2025-12-11T0100,1803A,115.9872,29.6815,九江市,十里,,,,118,,85,,,31,,,67,,8,,1.4
2025-12-11T0100,1804A,115.9584,29.7046,九江市,茅山头,细颗粒物(PM2.5),166,162,140,126,97,3,3,,,80,70,7,6,1.3,1.2
2025-12-11T0100,1805A,115.9877,29.7295,九江市,西园,细颗粒物(PM2.5),172,171,138,130,100,11,11,,,107,97,8,7,1.4,1.2
2025-12-11T0100,1808A,115.9114,29.6038,九江市,综合工业园,细颗粒物(PM2.5),137,130,130,104,113,20,20,,,115,82,4,4,0.7,0.8
2025-12-11T0100,1809A,116.0721,29.7535,九江市,石化总厂,细颗粒物(PM2.5),229,219,151,179,117,7,7,,,108,80,10,9,2.0,1.1
2025-12-11T0100,1810A,115.9773,29.5698,九江市,庐山气象台,,,,,,,,,,,,,,,,
2025-12-11T0100,3190A,116.0254,29.6994,九江市,外国语学校,细颗粒物(PM2.5),166,174,132,126,94,4,4,,,93,81,9,11,1.5,1.4
2025-12-11T0100,4253A,116.0102,29.6594,九江市,莲花大道8号,细颗粒物(PM2.5),68,74,122,49,100,72,72,,,13,51,2,6,0.6,0.9
2025-12-11T0100,4240A,98.4958,39.7339,酒泉市,玉门东路5号,颗粒物(PM10),76,102,186,35,42,32,32,,,23,20,10,12,0.6,0.6
2025-12-11T0100,4241A,98.5099,39.7506,酒泉市,北大街108号,颗粒物(PM10),84,117,200,55,40,11,11,,,35,24,12,12,0.7,0.7
2025-12-11T0100,2698A,76.0072,39.4467,喀什地区,巡警大队,颗粒物(PM10),174,297,209,116,82,19,19,,,83,59,12,9,1.9,1.4
2025-12-11T0100,2699A,75.9755,39.4694,喀什地区,吾办,细颗粒物(PM2.5),175,297,212,132,94,16,16,,,80,61,14,10,2.1,1.8
2025-12-11T0100,4027A,75.9483,39.4689,喀什地区,老干局,颗粒物(PM10),196,342,229,109,85,5,5,,,98,53,6,6,2.6,1.8
2025-12-11T0100,1824A,114.3389,34.7781,开封市,肿瘤医院,细颗粒物(PM2.5),170,177,178,129,107,31,31,,,61,53,10,7,0.9,0.7
2025-12-11T0100,1826A,114.2885,34.7965,开封市,世纪星幼儿园,细颗粒物(PM2.5),203,181,166,153,131,28,28,,,68,53,14,11,1.2,1
2025-12-11T0100,3147A,114.3438,34.8106,开封市,龙亭公园,细颗粒物(PM2.5),206,174,165,156,129,24,24,,,73,55,15,12,1.4,1.2
2025-12-11T0100,3210A,114.3644,34.7964,开封市,汴京公园,细颗粒物(PM2.5),196,233,186,147,118,21,21,,,79,63,12,11,1.1,0.9
2025-12-11T0100,3473A,114.2485,34.8306,开封市,技师学院,细颗粒物(PM2.5),169,178,161,128,111,14,14,,,80,55,13,11,1.4,1.2
2025-12-11T0100,3592A,114.4644,34.7556,开封市,祥符区生态环境局,细颗粒物(PM2.5),204,228,189,154,120,26,26,,,68,57,7,5,0.7,0.5
2025-12-11T0100,1951A,84.895,45.6094,克拉玛依市,长征新村,,42,42,39,13,23,132,132,,,33,17,5,4,0.4,0.6
2025-12-11T0100,1952A,84.8988,45.5893,克拉玛依市,南林小区,,44,44,34,3,16,47,47,,,4,12,5,3,0.3,0.5
2025-12-11T0100,1954A,84.905,44.3396,克拉玛依市,独山子区,颗粒物(PM10),54,58,27,3,18,49,49,,,7,13,5,5,0.3,0.6
2025-12-11T0100,1955A,85.6979,46.098,克拉玛依市,乌尔禾区商贸楼,颗粒物(PM10),91,132,48,11,15,42,42,,,1,2,5,6,0.2,0.2
2025-12-11T0100,3612A,85.1045,45.6899,克拉玛依市,白碱滩区新站,,46,46,46,8,23,54,54,,,2,10,8,8,0.1,0.3
2025-12-11T0100,2697A,76.1454,39.7142,克孜勒苏柯尔克孜自治州,市人民政府,颗粒物(PM10),141,232,170,70,71,82,82,,,26,30,9,12,0.3,0.5
2025-12-11T0100,3665A,76.1658,39.7157,克孜勒苏柯尔克孜自治州,克州文化中心,颗粒物(PM10),131,212,178,68,71,69,69,,,32,40,11,13,0.7,1
2025-12-11T0100,1450A,102.8204,24.8886,昆明市,呈贡新区,细颗粒物(PM2.5),134,,38,102,47,1,1,,,53,27,8,9,1.2,0.8
2025-12-11T0100,1451A,102.6251,24.9608,昆明市,西山森林公园,,,,,,,,,,,,,,,,
2025-12-11T0100,1452A,102.7252,25.0902,昆明市,龙泉镇,颗粒物(PM10),61,72,51,28,29,0,0,,,44,34,3,3,0.9,0.9
2025-12-11T0100,1453A,102.7266,25.0375,昆明市,东风东路,细颗粒物(PM2.5),64,65,46,46,34,2,2,,,50,29,4,6,0.9,0.6
2025-12-11T0100,1454A,102.6742,25.0669,昆明市,金鼎山,颗粒物(PM10),63,76,63,34,35,3,3,,,49,38,4,4,1.0,0.9
2025-12-11T0100,1455A,102.6644,25.0401,昆明市,碧鸡广场,颗粒物(PM10),61,71,56,41,37,0,0,,,49,36,3,5,0.8,0.9
2025-12-11T0100,3179A,102.7494,25.0119,昆明市,官渡区博物馆,颗粒物(PM10),52,54,50,31,27,2,2,,,60,39,3,4,0.8,0.6
2025-12-11T0100,3375A,102.8017,24.8336,昆明市,青年创业园,颗粒物(PM10),58,65,37,27,26,1,1,,,43,28,3,7,0.9,0.9
2025-12-11T0100,3550A,102.7997,24.9786,昆明市,昆明学院,细颗粒物(PM2.5),80,106,41,59,25,2,2,,,52,28,3,3,1.0,0.6
2025-12-11T0100,3551A,102.5967,24.6736,昆明市,晋宁区生态环境分局,细颗粒物(PM2.5),55,57,34,39,23,19,19,,,41,19,2,2,0.8,0.5
2025-12-11T0100,3552A,102.6678,24.9856,昆明市,云天化总部,,40,40,39,24,28,0,0,,,58,31,8,6,0.6,0.7
2025-12-11T0100,1456A,91.1319,29.6514,拉萨市,八廓街,,49,44,23,34,17,50,50,,,37,23,15,14,0.8,0.6
2025-12-11T0100,1457A,91.1221,29.6747,拉萨市,市环保局,颗粒物(PM10),54,57,34,28,14,18,18,,,37,24,9,8,1.4,1
2025-12-11T0100,1458A,91.0874,29.6475,拉萨市,区监测站,,35,31,15,18,10,18,18,,,70,31,6,6,0.7,0.3
2025-12-11T0100,1459A,91.1774,29.6541,拉萨市,西藏大学,,29,29,18,15,11,35,35,,,46,22,11,9,0.6,0.5
2025-12-11T0100,1460A,90.9798,29.6588,拉萨市,区辐射站,,26,26,22,18,13,48,48,,,33,26,4,5,0.5,0.5
2025-12-11T0100,1461A,91.0834,29.6292,拉萨市,拉萨火车站,,22,21,18,15,11,43,43,,,42,23,5,6,1.0,0.6
2025-12-11T0100,2520A,109.2203,23.7256,来宾市,来宾技工学校,细颗粒物(PM2.5),143,138,98,109,72,62,62,,,27,26,18,10,1.9,1.1
2025-12-11T0100,3535A,109.1781,23.7297,来宾市,兴宾区政府,细颗粒物(PM2.5),98,107,81,73,60,49,49,,,26,19,10,9,1.1,0.9
2025-12-11T0100,4002A,109.2416,23.7461,来宾市,中南小学,细颗粒物(PM2.5),152,137,102,116,72,51,51,,,29,32,15,7,2.1,1.2
2025-12-11T0100,1477A,104.1373,35.9454,兰州市,榆中兰大校区,,,,,,,,,,,,,,,,
2025-12-11T0100,1479A,103.831,36.0464,兰州市,铁路设计院,,,,,,,,,,,,,,,,
2025-12-11T0100,3241A,103.7439,36.0842,兰州市,百合公园,颗粒物(PM10),72,94,104,37,54,18,18,,,40,60,12,17,0.7,1.7
2025-12-11T0100,3242A,103.9611,35.998,兰州市,和平,颗粒物(PM10),71,91,112,38,58,33,33,,,33,41,4,20,0.6,1.1
2025-12-11T0100,4236A,103.6293,36.0938,兰州市,庄浪东路808号,颗粒物(PM10),73,95,115,34,58,22,22,,,42,60,12,18,0.6,1.2
2025-12-11T0100,4237A,103.7251,36.1043,兰州市,安宁西路88号,颗粒物(PM10),95,140,134,41,55,3,3,,,71,65,6,10,0.8,1.2
2025-12-11T0100,4238A,103.8470,36.0676,兰州市,北滨河东路1号,颗粒物(PM10),84,118,115,42,52,2,2,,,73,65,10,16,0.9,1.6
2025-12-11T0100,3245A,103.6633,36.533,兰州新区,新区管委会,颗粒物(PM10),90,129,138,59,62,7,7,,,43,31,13,20,0.9,0.8
2025-12-11T0100,3246A,103.6975,36.4789,兰州新区,舟曲中学,颗粒物(PM10),123,196,147,59,57,11,11,,,72,41,10,19,1.3,0.8
2025-12-11T0100,1067A,116.6708,39.5111,廊坊市,药材公司,细颗粒物(PM2.5),99,124,125,74,83,1,1,,,72,64,7,13,1.0,1.4
2025-12-11T0100,1068A,116.7214,39.5589,廊坊市,开发区,细颗粒物(PM2.5),99,114,134,74,87,0,0,,,69,65,4,10,1.1,1.4
2025-12-11T0100,1070A,116.7244,39.5269,廊坊市,北华航天学院,细颗粒物(PM2.5),107,122,140,80,90,1,1,,,68,62,6,11,0.8,1.4
2025-12-11T0100,2919A,116.7022,39.5453,廊坊市,河北工业大学,细颗粒物(PM2.5),102,125,143,76,87,0,0,,,71,65,7,13,0.9,1.4
2025-12-11T0100,2535A,103.7723,29.5462,乐山市,花湖湾,,,,,,,,,,,,,,,,
2025-12-11T0100,2536A,103.7627,29.5844,乐山市,牛耳桥,细颗粒物(PM2.5),108,95,101,81,87,1,1,,,36,30,7,7,0.9,1
2025-12-11T0100,2537A,103.7508,29.6006,乐山市,市第三水厂,细颗粒物(PM2.5),93,90,93,69,75,1,1,,,41,35,6,6,1.1,1.1
2025-12-11T0100,2538A,103.7571,29.5664,乐山市,市监测站,细颗粒物(PM2.5),98,98,97,73,77,6,6,,,46,29,7,7,1.4,1.3
2025-12-11T0100,3361A,103.7311,29.5628,乐山市,理工大学,细颗粒物(PM2.5),87,79,84,64,70,1,1,,,48,27,8,8,1.1,0.9
2025-12-11T0100,2598A,100.2143,26.8576,丽江市,西南郊,,,,,,,,,,,,,,,,
2025-12-11T0100,2599A,100.2497,26.8802,丽江市,丽江古城,,39,39,27,23,11,46,46,,,22,15,15,9,0.5,0.4
2025-12-11T0100,2600A,100.2203,26.8906,丽江市,市中心,,23,23,20,15,11,44,44,,,16,18,7,7,0.4,0.4
2025-12-11T0100,1267A,119.914,28.4514,丽水市,监测站大楼,,30,28,34,21,19,3,3,,,36,29,5,5,0.6,0.5
2025-12-11T0100,1268A,119.93,28.4586,丽水市,莲都小学,,34,34,36,13,11,3,3,,,41,34,4,4,0.4,0.4
2025-12-11T0100,1269A,119.879,28.4231,丽水市,余庄前,,28,28,31,18,14,0,0,,,14,15,4,4,0.3,0.3
2025-12-11T0100,1173A,119.176,34.5885,连云港市,市环境监测站,细颗粒物(PM2.5),122,124,70,92,39,7,7,,,72,26,10,10,0.6,0.3
2025-12-11T0100,3000A,119.3581,34.6972,连云港市,德源药业,细颗粒物(PM2.5),113,134,70,85,35,5,5,,,80,34,6,5,0.7,0.5
2025-12-11T0100,3007A,119.178,34.844,连云港市,新城一中,细颗粒物(PM2.5),140,126,68,107,35,38,38,,,39,47,13,9,0.7,0.5
2025-12-11T0100,3008A,119.3608,34.7519,连云港市,胡沟管理处,细颗粒物(PM2.5),107,136,61,80,28,1,1,,,96,42,10,9,1.3,1.1
2025-12-11T0100,3009A,119.1478,34.5911,连云港市,矿山设计院,细颗粒物(PM2.5),125,151,81,95,41,11,11,,,79,33,10,10,0.9,0.7
2025-12-11T0100,3434A,119.2413,34.6539,连云港市,工贸学校,细颗粒物(PM2.5),103,122,76,77,35,58,58,,,29,25,10,10,0.9,0.7
2025-12-11T0100,3664A,119.4172,34.7341,连云港市,连云街道,细颗粒物(PM2.5),93,119,64,69,30,75,75,,,28,32,16,8,0.9,0.7
2025-12-11T0100,2571A,102.3431,27.8099,凉山彝族自治州,青龙寺,,,,,,,,,,,,,,,,
2025-12-11T0100,2572A,102.2721,27.8415,凉山彝族自治州,邛海宾馆,,45,36,34,31,24,46,46,,,16,17,9,10,0.7,0.7
2025-12-11T0100,2573A,102.2625,27.898,凉山彝族自治州,西昌市政府,,32,32,40,20,27,50,50,,,9,20,7,9,0.6,0.7
2025-12-11T0100,2574A,102.2685,27.8851,凉山彝族自治州,凉山州政府,,39,33,43,27,28,47,47,,,11,21,9,9,0.7,0.8
2025-12-11T0100,4229A,102.2342,27.8859,凉山彝族自治州,凯乐南路30号,,50,50,52,26,30,7,7,,,50,38,7,8,1.0,0.8
2025-12-11T0100,2212A,123.2,41.1953,辽阳市,宏伟区,细颗粒物(PM2.5),80,,147,59,109,34,34,,,20,41,6,16,0.4,1.5
2025-12-11T0100,2213A,123.1683,41.2495,辽阳市,新华园,颗粒物(PM10),66,82,171,40,115,31,31,,,20,55,6,14,0.3,1.8
2025-12-11T0100,2214A,123.2354,41.2639,辽阳市,滨河路,细颗粒物(PM2.5),63,62,166,45,107,24,24,,,22,48,6,18,0.8,1.8
2025-12-11T0100,2215A,123.149,41.2991,辽阳市,铁西工业园,细颗粒物(PM2.5),59,53,196,42,146,22,22,,,20,54,8,15,0.5,2.1
2025-12-11T0100,2227A,125.1358,42.8845,辽源市,环保局,颗粒物(PM10),69,87,122,39,64,21,21,,,28,32,6,5,0.7,1.1
2025-12-11T0100,3239A,125.0764,42.9078,辽源市,银鹰制药,细颗粒物(PM2.5),55,57,91,39,66,30,30,,,19,29,4,6,0.5,0.9
2025-12-11T0100,1625A,115.9848,36.4372,聊城市,区政府,细颗粒物(PM2.5),169,200,143,128,75,12,12,,,75,46,12,14,1.0,0.8
2025-12-11T0100,2878A,116.0072,36.4343,聊城市,聊大东校,细颗粒物(PM2.5),168,222,159,127,81,14,14,,,71,43,11,12,1.1,0.9
2025-12-11T0100,3200A,115.9819,36.4978,聊城市,监控中心,细颗粒物(PM2.5),188,208,153,141,84,8,8,,,56,35,11,14,1.1,1
2025-12-11T0100,3513A,116.0445,36.4361,聊城市,九州社区,细颗粒物(PM2.5),152,194,145,116,72,20,20,,,60,34,6,7,0.8,0.6
2025-12-11T0100,4018A,116.0567,36.4608,聊城市,星美广场,细颗粒物(PM2.5),165,208,150,125,76,13,13,,,58,36,5,8,0.9,0.7
2025-12-11T0100,2632A,94.3681,29.6376,林芝市,林芝监测站,,32,32,18,7,9,40,40,,,18,16,5,5,0.4,0.4
2025-12-11T0100,2633A,94.3616,29.6616,林芝市,林芝人民医院,,,,,,,,,,,,,,,,
2025-12-11T0100,2603A,100.0781,23.8982,临沧市,市环保局,细颗粒物(PM2.5),69,,32,50,41,25,25,,,9,11,5,8,0.5,0.5
2025-12-11T0100,2604A,100.0894,23.8822,临沧市,市气象局,,29,29,30,16,20,26,26,,,11,11,7,7,0.5,0.5
2025-12-11T0100,1733A,111.5531,36.0783,临汾市,临钢医院,细颗粒物(PM2.5),202,224,197,152,118,9,9,,,52,49,7,12,1.8,1.5
2025-12-11T0100,1734A,111.5028,36.0714,临汾市,技工学校,细颗粒物(PM2.5),209,260,201,159,118,1,1,,,72,51,8,13,2.2,1.7
2025-12-11T0100,1736A,111.5018,36.0855,临汾市,市委,细颗粒物(PM2.5),229,286,213,179,121,4,4,,,69,57,10,16,2.1,1.6
2025-12-11T0100,3018A,111.505,36.1014,临汾市,唐尧大酒店,细颗粒物(PM2.5),208,242,192,158,117,4,4,,,63,57,4,10,2.0,1.5
2025-12-11T0100,4244A,111.4879,36.0530,临汾市,启星学校,细颗粒物(PM2.5),205,233,190,155,118,6,6,,,84,64,8,13,1.9,1.5
2025-12-11T0100,4271A,103.2464,35.6123,临夏回族自治州,滨河东路1号,细颗粒物(PM2.5),139,193,147,106,85,6,6,,,36,38,9,11,1.6,1.4
2025-12-11T0100,4310A,103.2093,35.5995,临夏回族自治州,新华街21号,细颗粒物(PM2.5),189,211,146,142,96,8,8,,,38,32,10,13,2.0,1.6
2025-12-11T0100,1618A,118.3429,35.0532,临沂市,沂河小区,细颗粒物(PM2.5),185,178,124,139,81,2,2,,,86,54,16,18,1.1,0.7
2025-12-11T0100,1619A,118.295,35.0583,临沂市,鲁南制药厂,细颗粒物(PM2.5),188,195,129,141,83,2,2,,,94,61,19,21,1.3,0.8
2025-12-11T0100,1620A,118.2794,34.9976,临沂市,新光毛纺厂,细颗粒物(PM2.5),159,171,106,121,69,5,5,,,86,49,16,20,1.4,0.9
2025-12-11T0100,1621A,118.3956,35.0888,临沂市,河东保险公司,细颗粒物(PM2.5),158,180,121,120,67,5,5,,,80,53,10,12,1.1,0.7
2025-12-11T0100,3370A,118.3564,35.0215,临沂市,十里堡居委,细颗粒物(PM2.5),138,168,116,105,60,2,2,,,90,58,17,20,1.5,1.1
2025-12-11T0100,3496A,118.3604,35.1084,临沂市,南坊新区,细颗粒物(PM2.5),188,197,113,141,68,3,3,,,94,55,16,16,1.4,0.9
2025-12-11T0100,3860A,118.3920,35.0300,临沂市,皇山花园小区,细颗粒物(PM2.5),166,205,125,126,65,7,7,,,90,51,16,22,1.5,0.9
2025-12-11T0100,1870A,109.4856,24.3895,柳州市,柳东小学,细颗粒物(PM2.5),117,103,88,88,73,49,49,,,25,18,15,13,1.1,0.9
2025-12-11T0100,1871A,109.4157,24.3277,柳州市,环保监测站,细颗粒物(PM2.5),159,172,121,121,86,6,6,,,61,44,25,16,1.4,1.2
2025-12-11T0100,1872A,109.389,24.341,柳州市,河西水厂,细颗粒物(PM2.5),147,182,150,112,89,12,12,,,47,48,27,20,1.1,1.2
2025-12-11T0100,1873A,109.4311,24.2921,柳州市,市四中,细颗粒物(PM2.5),150,165,114,115,76,8,8,,,62,45,21,14,1.4,1.1
2025-12-11T0100,1874A,109.4006,24.3631,柳州市,市九中,细颗粒物(PM2.5),163,194,129,124,85,19,19,,,46,41,27,16,1.3,1
2025-12-11T0100,1875A,109.4958,24.3134,柳州市,古亭山,细颗粒物(PM2.5),70,75,79,51,54,1,1,,,62,41,9,9,1.1,1
2025-12-11T0100,3402A,109.5422,24.3996,柳州市,市二中,细颗粒物(PM2.5),179,142,89,135,75,20,20,,,32,30,8,10,1.1,0.9
2025-12-11T0100,2307A,116.5079,31.737,六安市,监测大楼,细颗粒物(PM2.5),109,96,85,82,56,27,27,,,53,43,4,5,0.9,0.7
2025-12-11T0100,2308A,116.4738,31.7643,六安市,皖西学院,细颗粒物(PM2.5),138,122,99,105,60,10,10,,,62,42,2,4,0.8,0.6
2025-12-11T0100,2309A,116.4996,31.7905,六安市,朝阳厂,细颗粒物(PM2.5),100,97,87,75,56,32,32,,,49,52,4,5,0.8,0.7
2025-12-11T0100,2310A,116.5567,31.7886,六安市,开发区,细颗粒物(PM2.5),110,107,102,83,60,5,5,,,54,44,2,4,1.0,0.6
2025-12-11T0100,2576A,104.8,26.5892,六盘水市,窑上,细颗粒物(PM2.5),92,71,64,68,55,39,39,,,13,13,3,3,1.1,1.1
2025-12-11T0100,2577A,104.83,26.5917,六盘水市,黄土坡,细颗粒物(PM2.5),58,50,61,41,44,42,42,,,15,18,5,7,0.7,0.9
2025-12-11T0100,2578A,104.89,26.5939,六盘水市,水钢,细颗粒物(PM2.5),59,52,61,42,46,40,40,,,14,14,4,3,0.8,0.9
2025-12-11T0100,2579A,104.8475,26.5894,六盘水市,民中,细颗粒物(PM2.5),58,41,56,41,47,44,44,,,13,16,3,3,0.6,0.9
2025-12-11T0100,2580A,104.9544,26.5506,六盘水市,双水,细颗粒物(PM2.5),52,39,49,36,39,48,48,,,12,13,4,4,0.5,0.6
2025-12-11T0100,2335A,117.0189,25.1181,龙岩市,龙岩师专,,,,,,,,,,,,,,,,
2025-12-11T0100,2336A,117.0217,25.1033,龙岩市,龙岩市监测站,,39,36,40,27,25,23,23,,,38,30,9,19,0.5,0.6
2025-12-11T0100,2337A,117.0258,25.0661,龙岩市,闽西职业技术学院,,35,35,48,20,23,33,33,,,27,22,5,8,0.4,0.5
2025-12-11T0100,2338A,117.0196,25.0306,龙岩市,龙岩学院,,37,37,35,23,24,39,39,,,24,15,7,7,0.5,0.5
2025-12-11T0100,2665A,105.0822,33.3261,陇南市,汉王镇固水子,,,,,,,,,,,,,,,,
2025-12-11T0100,2885A,104.9339,33.3826,陇南市,滨江中学,颗粒物(PM10),62,74,86,40,50,7,7,,,42,39,11,13,2.6,2
2025-12-11T0100,3247A,104.955,33.371,陇南市,市总工会,颗粒物(PM10),68,86,91,46,47,13,13,,,36,35,5,6,0.8,0.9
2025-12-11T0100,2487A,111.9589,27.8901,娄底市,电视发射台,,,,,,,,,,,,,,,,
2025-12-11T0100,2488A,111.9975,27.725,娄底市,市监测站,细颗粒物(PM2.5),149,168,147,114,103,26,26,,,61,46,7,12,1.6,1.3
2025-12-11T0100,2489A,112.0194,27.7314,娄底市,市委党校,细颗粒物(PM2.5),155,176,151,118,111,16,16,,,63,48,8,10,1.5,1.2
2025-12-11T0100,2490A,111.9561,27.7569,娄底市,涟钢,细颗粒物(PM2.5),162,161,149,123,113,37,37,,,31,38,6,16,1.1,1.4
2025-12-11T0100,2491A,111.9892,27.7044,娄底市,市政府,细颗粒物(PM2.5),166,164,134,126,106,26,26,,,34,40,10,14,1.1,1.1
2025-12-11T0100,1893A,105.4324,28.9634,泸州市,九狮山,,,,,,,,,,,,,,,,
2025-12-11T0100,1894A,105.4427,28.9063,泸州市,小市上码头,细颗粒物(PM2.5),114,106,83,86,74,8,8,,,41,20,10,10,1.1,0.9
2025-12-11T0100,1895A,105.4241,28.8573,泸州市,兰田宪桥,细颗粒物(PM2.5),108,97,93,81,70,9,9,,,35,22,8,8,0.9,0.8
2025-12-11T0100,1896A,105.4379,28.8833,泸州市,市环监站,细颗粒物(PM2.5),105,110,86,79,64,16,16,,,37,21,8,9,0.9,0.8
2025-12-11T0100,4272A,105.3689,28.7783,泸州市,纳溪中医医院,细颗粒物(PM2.5),67,76,77,48,60,1,1,,,18,24,7,7,1.0,0.9
2025-12-11T0100,2183A,111.1406,37.5211,吕梁市,环保局,颗粒物(PM10),87,123,110,37,47,2,2,,,63,58,7,15,0.5,0.8
2025-12-11T0100,2185A,111.1297,37.5136,吕梁市,自来水公司,颗粒物(PM10),131,211,165,50,59,2,2,,,60,52,30,22,0.7,0.9
2025-12-11T0100,2867A,111.1283,37.51,吕梁市,马茂庄小学,颗粒物(PM10),94,137,151,41,49,2,2,,,60,54,10,19,0.5,0.7
2025-12-11T0100,1812A,112.3931,34.6516,洛阳市,市委党校,细颗粒物(PM2.5),153,144,160,117,120,63,63,,,37,46,12,12,0.9,1
2025-12-11T0100,1815A,112.494,34.6886,洛阳市,河南林校,细颗粒物(PM2.5),155,149,174,118,132,39,39,,,54,54,12,13,0.9,0.9
2025-12-11T0100,1816A,112.3844,34.623,洛阳市,开发区管委会,细颗粒物(PM2.5),149,150,176,114,124,69,69,,,28,37,12,14,0.9,0.9
2025-12-11T0100,1817A,112.4267,34.6258,洛阳市,市委新办公区,细颗粒物(PM2.5),147,163,189,112,122,55,55,,,36,41,11,13,1.0,1
2025-12-11T0100,3340A,112.6005,34.6326,洛阳市,伊滨,细颗粒物(PM2.5),170,184,210,129,131,50,50,,,38,47,11,15,0.9,1
2025-12-11T0100,3341A,112.4951,34.6332,洛阳市,中移产业园,细颗粒物(PM2.5),148,141,175,113,126,54,54,,,44,51,14,14,0.9,1
2025-12-11T0100,3593A,112.5736,34.8993,洛阳市,吉利监测站,细颗粒物(PM2.5),138,141,198,105,147,37,37,,,61,53,8,12,0.9,1.1
2025-12-11T0100,3635A,112.3677,34.662,洛阳市,河科大西苑校区,细颗粒物(PM2.5),145,159,172,111,109,60,60,,,39,47,13,13,1.0,1
2025-12-11T0100,3636A,112.4388,34.6781,洛阳市,英才小学,细颗粒物(PM2.5),145,160,199,111,132,49,49,,,50,57,16,16,1.2,1.3
2025-12-11T0100,4214A,112.4600,34.6949,洛阳市,春都路1号院,细颗粒物(PM2.5),120,163,199,91,106,40,40,,,39,46,20,16,1.4,1.2
2025-12-11T0100,2399A,114.051,33.5699,漯河市,三五一五工厂,细颗粒物(PM2.5),202,207,206,152,145,85,85,,,18,47,9,9,0.7,0.9
2025-12-11T0100,2400A,114.0055,33.5698,漯河市,漯河大学,细颗粒物(PM2.5),203,185,179,153,131,85,85,,,27,52,8,8,0.8,0.9
2025-12-11T0100,2401A,114.0138,33.5828,漯河市,市水利局,细颗粒物(PM2.5),178,185,181,134,129,80,80,,,24,44,9,9,0.8,1
2025-12-11T0100,2402A,114.0261,33.5698,漯河市,市广电局,细颗粒物(PM2.5),186,183,186,140,135,84,84,,,20,45,9,8,0.7,0.9
2025-12-11T0100,3478A,113.9749,33.5664,漯河市,市图书馆,细颗粒物(PM2.5),199,214,206,149,140,69,69,,,24,43,6,7,0.7,0.8
2025-12-11T0100,4250A,114.0892,33.5882,漯河市,韶山路11号,细颗粒物(PM2.5),172,192,203,130,135,89,89,,,21,50,10,10,0.4,0.6
2025-12-11T0100,1798A,118.5092,31.6837,马鞍山市,湖东路四小,细颗粒物(PM2.5),119,135,89,90,55,1,1,,,84,59,7,9,1.4,0.8
2025-12-11T0100,1799A,118.5024,31.6449,马鞍山市,开发区,细颗粒物(PM2.5),99,138,99,74,50,1,1,,,83,62,8,9,1.2,0.8
2025-12-11T0100,1802A,118.6245,31.7241,马鞍山市,濮塘,,,,,,,,,,,,,,,,
2025-12-11T0100,3633A,118.4918,31.6809,马鞍山市,雨山,细颗粒物(PM2.5),124,160,102,94,54,1,1,,,101,65,17,13,1.9,1
2025-12-11T0100,4191A,118.5274,31.72227,马鞍山市,慈湖高新区,细颗粒物(PM2.5),138,161,109,105,61,0,0,,,88,63,8,8,1.2,0.7
2025-12-11T0100,1686A,111.0286,21.4688,茂名市,电白南海,细颗粒物(PM2.5),92,88,93,68,62,66,66,,,21,24,17,16,1.3,1.2
2025-12-11T0100,1687A,110.9294,21.6533,茂名市,茂石化七小,细颗粒物(PM2.5),100,107,106,75,67,51,51,,,31,31,16,27,0.8,0.8
2025-12-11T0100,1688A,110.9107,21.6687,茂名市,健康路,细颗粒物(PM2.5),85,97,92,63,60,56,56,,,32,28,25,29,1.0,0.9
2025-12-11T0100,1689A,110.8592,21.6828,茂名市,高岭,细颗粒物(PM2.5),107,134,110,80,63,35,35,,,35,31,71,40,1.1,1
2025-12-11T0100,3450A,111.01,21.5165,茂名市,电白水东,细颗粒物(PM2.5),77,88,92,56,57,58,58,,,26,24,22,16,1.0,1
2025-12-11T0100,2539A,104.0308,30.0478,眉山市,黑龙滩水库,,,,,,,,,,,,,,,,
2025-12-11T0100,2540A,103.8416,30.0874,眉山市,气象局,细颗粒物(PM2.5),140,,122,107,100,4,4,,,49,39,11,10,0.8,1
2025-12-11T0100,3137A,103.8578,30.0744,眉山市,市委党校,细颗粒物(PM2.5),113,95,103,85,85,4,4,,,54,36,6,7,1.3,0.8
2025-12-11T0100,3148A,103.8291,30.0564,眉山市,区人社局,细颗粒物(PM2.5),144,131,117,110,97,1,1,,,54,42,7,5,1.6,1.2
2025-12-11T0100,1690A,116.1231,24.3284,梅州市,梅江月梅,细颗粒物(PM2.5),60,62,48,43,35,18,18,,,42,26,6,7,0.7,0.7
2025-12-11T0100,1691A,116.0797,24.2719,梅州市,梅县新城,颗粒物(PM10),57,64,51,36,33,3,3,,,59,32,8,10,0.6,0.7
2025-12-11T0100,1692A,116.1248,24.2654,梅州市,环境监控中心,颗粒物(PM10),57,63,47,32,31,4,4,,,64,32,6,15,0.5,0.5
2025-12-11T0100,3315A,116.1233,24.2991,梅州市,梅龙,,49,48,49,34,31,22,22,,,43,30,8,10,0.8,0.8
2025-12-11T0100,1878A,104.7778,31.4741,绵阳市,富乐山,细颗粒物(PM2.5),97,91,87,72,66,0,0,,,51,34,10,11,1.4,0.9
2025-12-11T0100,1880A,104.6697,31.4668,绵阳市,高新区自来水公司,细颗粒物(PM2.5),134,144,112,102,81,0,0,,,55,40,10,10,1.0,0.9
2025-12-11T0100,1881A,104.7287,31.5075,绵阳市,三水厂,细颗粒物(PM2.5),137,137,102,104,78,2,2,,,47,41,7,8,1.1,1
2025-12-11T0100,3491A,104.69,31.5322,绵阳市,西科大附属小学,细颗粒物(PM2.5),125,140,113,95,76,2,2,,,53,43,8,10,1.1,1
2025-12-11T0100,3492A,104.5648,31.5343,绵阳市,安州区旅游局,细颗粒物(PM2.5),128,120,91,97,77,4,4,,,45,36,10,12,1.0,1
2025-12-11T0100,4226A,104.7651,31.4531,绵阳市,绵阳市气象局,细颗粒物(PM2.5),117,128,101,88,69,0,0,,,53,42,8,9,1.0,0.9
2025-12-11T0100,1784A,129.61,44.561,牡丹江市,环保大楼,,40,28,36,28,25,44,44,,,15,21,8,10,0.3,0.4
2025-12-11T0100,1785A,129.6115,44.5782,牡丹江市,文化广场,,45,45,44,28,29,47,47,,,17,23,7,8,0.3,0.5
2025-12-11T0100,1786A,129.5904,44.5963,牡丹江市,第一医院,细颗粒物(PM2.5),57,,50,40,40,49,49,,,10,24,5,6,0.4,0.7
2025-12-11T0100,1787A,129.6364,44.6075,牡丹江市,机车工厂,,39,39,63,21,34,37,37,,,23,28,10,12,0.2,0.5
2025-12-11T0100,1788A,129.6386,44.5462,牡丹江市,第一中学,,36,31,33,25,27,43,43,,,12,19,7,7,0.4,0.5
2025-12-11T0100,2531A,105.0703,29.61,内江市,市监测站,细颗粒物(PM2.5),117,89,98,88,90,14,14,,,32,28,5,6,1.1,1.2
2025-12-11T0100,2532A,105.0717,29.5947,内江市,东兴区政府,细颗粒物(PM2.5),119,100,105,90,89,1,1,,,37,32,4,4,1.0,0.8
2025-12-11T0100,2533A,105.0653,29.5817,内江市,内江二中,细颗粒物(PM2.5),118,102,114,89,93,0,0,,,40,35,4,5,1.1,1.1
2025-12-11T0100,2534A,105.0406,29.5822,内江市,内江日报社,细颗粒物(PM2.5),113,118,105,85,86,2,2,,,68,45,5,5,1.2,1
2025-12-11T0100,2628A,92.0657,31.4846,那曲市,那曲监测站,细颗粒物(PM2.5),149,178,59,114,37,18,18,,,68,37,18,12,5.2,1.9
2025-12-11T0100,4243A,92.0515,31.4787,那曲市,那曲市委宣传部,细颗粒物(PM2.5),57,59,34,40,21,9,9,,,50,25,11,8,2.9,1.2
2025-12-11T0100,1290A,115.8931,28.6843,南昌市,省外办,,,,113,,84,,,77,,,35,,11,,1.4
2025-12-11T0100,1291A,115.8886,28.7003,南昌市,省林业公司,细颗粒物(PM2.5),104,102,107,78,77,56,56,,,64,64,7,7,1.0,1
2025-12-11T0100,1292A,115.8126,28.7442,南昌市,林科所,细颗粒物(PM2.5),104,112,95,78,63,41,41,,,79,39,7,8,0.7,0.7
2025-12-11T0100,1294A,115.8518,28.687,南昌市,建工学校,细颗粒物(PM2.5),117,141,123,88,81,27,27,,,96,69,13,14,1.4,1.2
2025-12-11T0100,1295A,115.8921,28.6424,南昌市,象湖,细颗粒物(PM2.5),128,125,112,97,85,6,6,,,113,70,11,13,1.0,1
2025-12-11T0100,1296A,115.7423,28.7996,南昌市,武术学校,,,,,,,,,,,,,,,,
2025-12-11T0100,3046A,115.9084,28.6062,南昌市,机电学校,细颗粒物(PM2.5),128,144,138,97,89,15,15,,,107,75,10,13,1.2,1.1
2025-12-11T0100,3690A,115.9721,28.7031,南昌市,外国语学校,细颗粒物(PM2.5),135,122,128,103,87,16,16,,,85,53,12,15,0.9,0.9
2025-12-11T0100,4192A,115.9316,28.68677,南昌市,南京东路235号,细颗粒物(PM2.5),125,143,126,95,88,63,63,,,49,54,9,11,1.0,0.9
2025-12-11T0100,1905A,106.056,30.8064,南充市,西山风景区,,,,,,,,,,,,,,,,
2025-12-11T0100,1906A,106.0789,30.8023,南充市,南充市委,细颗粒物(PM2.5),93,93,97,69,82,1,1,,,39,36,4,5,0.8,1
2025-12-11T0100,1907A,106.1031,30.8217,南充市,南充炼油厂,细颗粒物(PM2.5),125,109,110,95,87,0,0,,,37,34,6,6,1.0,1.1
2025-12-11T0100,4227A,106.1083,30.7884,南充市,梨树横街98号,细颗粒物(PM2.5),115,129,106,87,79,3,3,,,45,32,6,6,1.2,0.9
2025-12-11T0100,4304A,106.1172,30.843,南充市,清泉寺北路188号,细颗粒物(PM2.5),99,104,88,74,70,3,3,,,39,33,5,5,0.9,0.8
2025-12-11T0100,4305A,106.067,30.7616,南充市,同庆路1号,细颗粒物(PM2.5),104,110,99,78,75,0,0,,,42,35,6,7,0.9,1.3
2025-12-11T0100,1151A,118.8086,32.1065,南京市,迈皋桥,颗粒物(PM10),76,102,73,53,37,15,15,,,64,44,3,4,0.6,0.5
2025-12-11T0100,1152A,118.7538,32.0551,南京市,草场门,细颗粒物(PM2.5),104,132,81,78,38,5,5,,,98,60,9,6,1.5,0.9
2025-12-11T0100,1153A,118.7794,32.0745,南京市,山西路,细颗粒物(PM2.5),100,136,80,75,36,0,0,,,95,58,4,4,1.2,0.9
2025-12-11T0100,1154A,118.7752,32.0023,南京市,中华门,细颗粒物(PM2.5),98,112,73,73,37,0,0,,,71,43,4,4,1.1,0.9
2025-12-11T0100,1155A,118.8109,32.0309,南京市,瑞金路,细颗粒物(PM2.5),89,95,76,66,43,2,2,,,74,63,4,4,1.2,0.9
2025-12-11T0100,1156A,118.7997,32.0754,南京市,玄武湖,细颗粒物(PM2.5),87,96,68,64,34,6,6,,,46,33,4,4,1.4,1.1
2025-12-11T0100,1157A,118.6414,32.0931,南京市,浦口,细颗粒物(PM2.5),102,132,86,76,40,29,29,,,46,39,9,10,1.0,0.7
2025-12-11T0100,1158A,118.7356,31.9996,南京市,奥体中心,细颗粒物(PM2.5),94,122,83,70,42,5,5,,,91,63,8,10,1.3,0.9
2025-12-11T0100,1159A,118.9125,32.1028,南京市,仙林大学城,细颗粒物(PM2.5),92,110,75,68,36,1,1,,,92,56,10,10,1.4,1
2025-12-11T0100,3422A,118.8436,31.9198,南京市,江宁彩虹桥,细颗粒物(PM2.5),92,96,74,68,37,2,2,,,74,53,4,4,0.9,0.7
2025-12-11T0100,3427A,118.8554,32.3578,南京市,六合雄州,细颗粒物(PM2.5),102,132,88,76,43,12,12,,,71,57,8,10,0.9,0.9
2025-12-11T0100,4249A,118.8708,31.3402,南京市,汶溪路181号,细颗粒物(PM2.5),93,104,70,69,50,31,31,,,39,40,6,6,0.8,0.7
2025-12-11T0100,4312A,119.019,31.6512,南京市,中山西路1号,细颗粒物(PM2.5),84,88,56,62,36,24,24,,,37,29,4,4,0.7,0.6
2025-12-11T0100,1401A,108.3103,22.7881,南宁市,二十一中,细颗粒物(PM2.5),93,83,80,69,62,57,57,,,40,35,5,8,0.9,0.8
2025-12-11T0100,1402A,108.3141,22.8528,南宁市,北湖,细颗粒物(PM2.5),133,126,95,101,69,2,2,,,86,50,13,13,1.1,1
2025-12-11T0100,1403A,108.3206,22.8225,南宁市,市监测站,细颗粒物(PM2.5),122,94,90,92,66,68,68,,,36,36,19,12,1.1,1.1
2025-12-11T0100,1404A,108.3829,22.8037,南宁市,大自然花园,细颗粒物(PM2.5),97,84,85,72,63,78,78,,,27,31,7,8,0.8,0.9
2025-12-11T0100,1405A,108.4394,22.7904,南宁市,仙葫,,,,,,,,,,,,,,,,
2025-12-11T0100,1406A,108.2397,22.8467,南宁市,区农职院,,,,83,,62,,,50,,,37,,14,,0.9
2025-12-11T0100,1407A,108.3275,22.735,南宁市,英华嘉园,细颗粒物(PM2.5),125,125,100,95,80,2,2,,,94,49,5,6,0.9,0.8
2025-12-11T0100,3401A,108.4834,22.7618,南宁市,红星社区,细颗粒物(PM2.5),119,91,88,90,68,30,30,,,44,40,5,7,1.0,0.9
2025-12-11T0100,4221A,108.2177,22.7774,南宁市,乐贤路16号,细颗粒物(PM2.5),95,119,98,71,62,0,0,,,70,52,4,6,1.0,1
2025-12-11T0100,2331A,118.0966,26.6761,南平市,茫荡山,,,,20,,13,,,77,,,,,2,,
2025-12-11T0100,2332A,118.1681,26.6369,南平市,南平市监测站,,31,31,32,20,19,4,4,,,44,23,3,5,0.6,0.6
2025-12-11T0100,2333A,118.1825,26.6489,南平市,南平铝业有限公司,,38,34,34,26,24,2,2,,,45,28,5,6,0.6,0.5
2025-12-11T0100,2334A,118.1756,26.6272,南平市,南平七中,,28,21,31,19,18,17,17,,,32,17,4,5,0.4,0.4
2025-12-11T0100,1168A,120.9098,31.9663,南通市,狼山街道,,48,48,39,32,15,1,1,,,55,41,2,3,0.5,0.5
2025-12-11T0100,1169A,120.86,32.0005,南通市,虹桥,细颗粒物(PM2.5),72,92,41,52,19,0,0,,,83,48,6,5,0.8,0.5
2025-12-11T0100,1170A,120.87,32.02,南通市,城中,颗粒物(PM10),63,76,48,35,18,1,1,,,81,51,6,6,0.7,0.5
2025-12-11T0100,1171A,120.94,31.93,南通市,星湖花园,颗粒物(PM10),64,77,46,44,21,7,7,,,82,54,6,4,0.8,0.5
2025-12-11T0100,1172A,120.81,32.0417,南通市,紫琅学院,颗粒物(PM10),63,75,50,39,15,0,0,,,73,57,6,5,1.1,0.7
2025-12-11T0100,3291A,121.067,32.062,南通市,通州监测站,颗粒物(PM10),57,63,33,39,19,3,3,,,84,45,5,4,0.8,0.6
2025-12-11T0100,3432A,120.9348,31.9883,南通市,环境教育馆,颗粒物(PM10),54,58,45,32,20,2,2,,,62,51,5,5,0.5,0.3
2025-12-11T0100,2404A,112.5224,33.0122,南阳市,瓦房庄,细颗粒物(PM2.5),202,185,158,152,115,16,16,,,53,34,6,9,1.3,1
2025-12-11T0100,2405A,112.5003,32.9735,南阳市,汉画馆,细颗粒物(PM2.5),198,187,176,148,123,42,42,,,34,38,5,7,1.0,0.9
2025-12-11T0100,2406A,112.5573,33.027,南阳市,气象站,细颗粒物(PM2.5),199,236,180,149,105,20,20,,,63,34,4,6,1.0,0.8
2025-12-11T0100,2407A,112.5481,32.9689,南阳市,理工学院,细颗粒物(PM2.5),173,179,166,131,107,39,39,,,42,39,6,9,1.1,0.9
2025-12-11T0100,4008A,112.5234,32.9922,南阳市,卧龙区政府,细颗粒物(PM2.5),193,217,192,145,118,24,24,,,52,41,6,8,1.6,0.9
2025-12-11T0100,1234A,121.8358,29.911,宁波市,区环保大楼,,36,36,32,15,11,8,8,,,56,38,4,5,0.5,0.5
2025-12-11T0100,1235A,121.56,29.82,宁波市,万里学院,,,,35,,17,,,59,,,29,,6,,0.6
2025-12-11T0100,1236A,121.713,29.9572,宁波市,龙赛医院,,50,50,49,25,18,0,0,,,60,40,4,4,0.5,0.5
2025-12-11T0100,1239A,121.633,29.7733,宁波市,钱湖水厂,,33,33,33,18,16,34,34,,,14,18,6,7,0.4,0.4
2025-12-11T0100,1240A,121.5856,29.8635,宁波市,太古小学,,40,40,40,23,21,18,18,,,39,35,2,3,0.6,0.6
2025-12-11T0100,1241A,121.524,29.8674,宁波市,市环境监测中心,,37,37,42,18,17,10,10,,,46,40,4,6,0.6,0.5
2025-12-11T0100,2871A,121.6147,29.9017,宁波市,万里国际学校,,33,29,35,23,18,39,39,,,26,33,4,4,0.5,0.5
2025-12-11T0100,3710A,121.5594,29.8975,宁波市,白沙活动中心,,40,40,38,20,14,3,3,,,54,40,4,4,0.5,0.4
2025-12-11T0100,2339A,119.5001,26.6946,宁德市,金涵水库,,,,34,,16,,,38,,,15,,2,,0.4
2025-12-11T0100,2341A,119.5388,26.6612,宁德市,宁德市监测站,,16,13,36,11,17,15,15,,,21,24,7,7,0.4,0.5
2025-12-11T0100,3209A,119.5231,26.6562,宁德市,宁德一中,,15,,33,10,18,25,25,,,13,19,8,8,0.3,0.3
2025-12-11T0100,2618A,98.8601,25.8567,怒江傈僳族自治州,州监测站,,28,28,28,19,20,43,43,,,11,11,7,7,0.4,0.4
2025-12-11T0100,2619A,98.8546,25.8417,怒江傈僳族自治州,泸水一中,,36,,30,25,22,16,16,,,19,19,5,5,0.7,0.7
2025-12-11T0100,1888A,101.6891,26.571,攀枝花市,弄弄坪,细颗粒物(PM2.5),53,49,57,37,35,32,32,,,26,30,9,20,1.0,2
2025-12-11T0100,1889A,101.5769,26.5928,攀枝花市,河门口,细颗粒物(PM2.5),57,59,55,40,34,12,12,,,37,27,14,20,1.2,1.4
2025-12-11T0100,1890A,101.7169,26.585,攀枝花市,炳草岗,细颗粒物(PM2.5),64,68,62,46,37,0,0,,,62,45,8,12,1.2,1.5
2025-12-11T0100,1891A,101.7369,26.5008,攀枝花市,仁和,,46,46,49,29,31,20,20,,,16,24,6,12,0.9,1.5
2025-12-11T0100,2835A,101.7227,26.567,攀枝花市,四十中小,颗粒物(PM10),58,65,60,39,38,3,3,,,68,46,10,14,1.9,1.8
2025-12-11T0100,1604A,122.0303,41.1489,盘锦市,开发区,,20,20,128,12,101,46,46,,,7,31,2,7,0.5,1
2025-12-11T0100,1605A,122.0485,41.0883,盘锦市,兴隆台,,22,22,113,13,79,44,44,,,12,42,7,18,0.5,1
2025-12-11T0100,1606A,121.8297,41.1028,盘锦市,新生街道,,23,23,111,7,81,41,41,,,16,35,7,10,0.2,0.6
2025-12-11T0100,1832A,113.3257,33.742,平顶山市,新华旅馆,细颗粒物(PM2.5),165,179,201,125,132,64,64,,,35,48,11,10,0.8,0.9
2025-12-11T0100,1833A,113.2919,33.737,平顶山市,规划设计院,细颗粒物(PM2.5),195,228,238,146,145,39,39,,,64,59,7,8,0.8,1
2025-12-11T0100,1834A,113.182,33.774,平顶山市,平顶山工学院,细颗粒物(PM2.5),195,202,200,146,132,76,76,,,30,38,10,12,0.8,0.8
2025-12-11T0100,3204A,113.3025,33.73,平顶山市,规划局,细颗粒物(PM2.5),182,195,212,137,135,57,57,,,48,53,10,10,1.0,1.1
2025-12-11T0100,3594A,112.8867,33.9116,平顶山市,石龙区,颗粒物(PM10),80,109,186,51,106,85,85,,,30,58,7,8,0.3,0.6
2025-12-11T0100,2656A,106.6692,35.5461,平凉市,聚贤嘉苑,颗粒物(PM10),67,84,78,29,28,13,13,,,48,30,5,5,0.6,0.5
2025-12-11T0100,2657A,106.7021,35.5307,平凉市,博物馆,颗粒物(PM10),63,75,73,30,32,15,15,,,43,28,9,10,0.7,0.6
2025-12-11T0100,2347A,114.0997,27.5002,萍乡市,武功山,,,,,,,,,,,,,,,,
2025-12-11T0100,2348A,113.8385,27.6434,萍乡市,中医院,细颗粒物(PM2.5),128,124,137,97,89,2,2,,,63,54,6,15,2.3,3.3
2025-12-11T0100,2349A,113.8493,27.6253,萍乡市,市政府车库,细颗粒物(PM2.5),124,111,128,94,90,21,21,,,41,48,6,13,1.9,2.7
2025-12-11T0100,2350A,113.8676,27.6435,萍乡市,市环保局,细颗粒物(PM2.5),113,127,126,85,81,5,5,,,50,46,14,25,2.3,2.3
2025-12-11T0100,2351A,113.866,27.6198,萍乡市,安源区政府,细颗粒物(PM2.5),153,123,131,117,110,12,12,,,40,42,8,16,2.6,2.4
2025-12-11T0100,2319A,119.0141,25.4325,莆田市,荔城区仓后路,,37,37,33,24,12,38,38,,,20,13,5,4,0.8,0.5
2025-12-11T0100,2320A,119.0015,25.4553,莆田市,莆田市监测站,,32,,25,22,11,48,48,,,11,11,4,4,0.5,0.4
2025-12-11T0100,2321A,119.1119,25.4561,莆田市,涵江区六中,,38,32,31,26,14,39,39,,,22,18,4,4,0.7,0.5
2025-12-11T0100,2322A,119.1013,25.3215,莆田市,秀屿区政府,,48,,30,33,14,47,47,,,20,13,6,4,0.6,0.4
2025-12-11T0100,2323A,118.981,25.4792,莆田市,东圳水库,,,,22,,13,,,87,,,12,,4,,1.0
2025-12-11T0100,2392A,115.0312,35.7636,濮阳市,环保局,细颗粒物(PM2.5),226,220,140,176,98,13,13,,,74,41,8,9,1.6,1.1
2025-12-11T0100,2394A,115.0574,35.7609,濮阳市,油田运输公司,细颗粒物(PM2.5),217,257,162,167,99,11,11,,,80,46,9,10,1.4,1
2025-12-11T0100,3021A,115,35.7668,濮阳市,濮水河管理处,细颗粒物(PM2.5),271,275,173,221,126,8,8,,,67,36,10,12,1.6,1.2
2025-12-11T0100,4216A,115.0924,35.7686,濮阳市,任丘路479号,细颗粒物(PM2.5),230,268,175,180,101,5,5,,,81,45,6,8,1.5,1
2025-12-11T0100,2601A,100.98,22.7633,普洱市,市环保局,,44,44,42,13,16,20,20,,,8,9,4,4,0.4,0.4
2025-12-11T0100,2602A,100.9817,22.8322,普洱市,普洱第二中学,,39,35,35,27,16,6,6,,,25,14,4,4,0.4,0.3
2025-12-11T0100,2262A,131.0518,45.8751,七台河市,新一中,,,,,,,,,,,,,,,,
2025-12-11T0100,3345A,131.0577,45.7879,七台河市,中波台,,34,34,37,16,19,43,43,,,16,17,7,7,0.5,0.6
2025-12-11T0100,3637A,131.0176,45.7761,七台河市,人民广场,,39,,37,27,22,53,53,,,10,21,7,7,0.4,0.6
2025-12-11T0100,3684A,130.8781,45.8222,七台河市,新建矿广场,,32,27,41,22,23,44,44,,,9,16,16,10,0.3,0.3
2025-12-11T0100,1779A,123.9305,47.3636,齐齐哈尔市,安居小区,,15,11,24,10,14,44,44,,,6,12,5,8,0.5,0.6
2025-12-11T0100,1780A,123.9488,47.3386,齐齐哈尔市,中心广场,,17,17,16,3,5,46,46,,,7,13,6,6,0.3,0.4
2025-12-11T0100,1781A,123.9483,47.3227,齐齐哈尔市,农牧车辆厂,,19,19,29,6,8,42,42,,,3,9,4,5,0.5,0.6
2025-12-11T0100,1783A,123.945,47.2988,齐齐哈尔市,市环境监测站,,27,27,37,3,9,49,49,,,3,10,5,6,0.4,0.4
2025-12-11T0100,3662A,123.6333,47.2075,齐齐哈尔市,富区青少年活动中心,,19,19,40,3,12,40,40,,,12,21,6,7,0.5,0.6
2025-12-11T0100,2591A,107.9783,26.5747,黔东南苗族侗族自治州,市环境监测站,细颗粒物(PM2.5),75,62,55,55,46,34,34,,,19,17,7,6,0.7,0.7
2025-12-11T0100,2881A,107.8908,26.5311,黔东南苗族侗族自治州,凯里学院,细颗粒物(PM2.5),69,58,52,50,44,30,30,,,19,16,4,7,0.8,0.7
2025-12-11T0100,2593A,107.5228,26.2403,黔南布依族苗族自治州,小围寨,细颗粒物(PM2.5),64,56,37,46,33,0,0,,,22,13,11,7,0.9,0.7
2025-12-11T0100,3538A,107.5175,26.2978,黔南布依族苗族自治州,沙坝,细颗粒物(PM2.5),55,48,44,39,36,14,14,,,19,19,5,6,0.8,0.8
2025-12-11T0100,2589A,104.9022,25.0925,黔西南布依族苗族自治州,场坝街,,50,44,46,35,33,53,53,,,8,11,4,3,0.6,0.6
2025-12-11T0100,2590A,104.8811,25.0992,黔西南布依族苗族自治州,坪东大道,细颗粒物(PM2.5),52,40,44,36,34,47,47,,,10,13,5,5,0.7,0.7
2025-12-11T0100,2502A,108.6236,21.9667,钦州市,市环保站,细颗粒物(PM2.5),79,105,118,58,65,80,80,,,24,37,5,6,0.7,0.9
2025-12-11T0100,2503A,108.6549,21.9481,钦州市,沙埠小学,细颗粒物(PM2.5),92,103,110,68,74,26,26,,,54,36,5,16,0.8,0.9
2025-12-11T0100,2504A,108.5989,21.7431,钦州市,港区一小,细颗粒物(PM2.5),79,90,102,58,58,41,41,,,50,45,10,10,0.7,0.8
2025-12-11T0100,3404A,108.5959,21.9633,钦州市,北职校,细颗粒物(PM2.5),90,83,103,67,71,45,45,,,40,27,11,10,0.8,0.9
2025-12-11T0100,1043A,119.7493,40.0116,秦皇岛市,第一关,细颗粒物(PM2.5),62,47,100,44,71,26,26,,,30,55,8,13,0.4,0.7
2025-12-11T0100,1044A,119.5897,39.9499,秦皇岛市,监测站,"颗粒物(PM10),细颗粒物(PM2.5)",58,65,107,41,59,31,31,,,30,54,12,15,0.5,0.9
2025-12-11T0100,1046A,119.5251,39.9041,秦皇岛市,建设大厦,颗粒物(PM10),61,71,109,43,67,29,29,,,26,47,11,13,0.4,0.8
2025-12-11T0100,3132A,119.610547,39.943889,秦皇岛市,文明里,,46,46,114,30,56,28,28,,,44,61,12,16,0.3,0.7
2025-12-11T0100,4198A,119.5090,39.8253,秦皇岛市,北戴河轮滑馆,细颗粒物(PM2.5),53,52,99,37,57,41,41,,,20,45,8,10,0.4,0.8
2025-12-11T0100,1307A,120.6659,36.2403,青岛市,仰口,,,,,,,,,,,,,,,,
2025-12-11T0100,1310A,120.4134,36.0658,青岛市,市南区东部子站,颗粒物(PM10),58,66,40,27,10,32,32,,,32,11,10,8,0.6,0.3
2025-12-11T0100,1311A,120.3664,36.1032,青岛市,四方区子站,颗粒物(PM10),56,61,38,34,14,40,40,,,24,16,7,3,0.6,0.4
2025-12-11T0100,1312A,120.2994,36.054,青岛市,市南区西部子站,颗粒物(PM10),53,56,38,29,11,13,13,,,58,23,8,8,0.8,0.6
2025-12-11T0100,1313A,120.4581,36.0858,青岛市,崂山区子站,颗粒物(PM10),53,56,39,24,8,33,33,,,38,18,10,9,0.8,0.5
2025-12-11T0100,1315A,120.3999,36.3083,青岛市,城阳区子站,,35,34,42,24,14,25,25,,,46,28,5,6,0.6,0.4
2025-12-11T0100,3362A,120.5014,36.4034,青岛市,即墨2号,颗粒物(PM10),51,51,51,34,20,28,28,,,36,25,8,8,0.7,0.5
2025-12-11T0100,3642A,120.3503,36.0736,青岛市,市北区南部,,42,41,42,29,9,28,28,,,34,14,3,3,0.7,0.5
2025-12-11T0100,3643A,120.3948,36.1805,青岛市,李沧区北部,,44,44,41,27,16,51,51,,,24,29,7,7,0.6,0.5
2025-12-11T0100,4290A,120.1969,35.9546,青岛市,珠江路669号,颗粒物(PM10),54,58,35,34,13,30,30,,,36,10,9,9,0.5,0.2
2025-12-11T0100,4291A,120.0424,35.8656,青岛市,黄岛区人民政府广场,,41,41,48,24,17,15,15,,,45,31,6,7,0.9,0.7
2025-12-11T0100,1702A,113.0426,23.691,清远市,环保大楼,,,,,,,,,,,,,,,,
2025-12-11T0100,1703A,113.0208,23.7106,清远市,凤城街办,细颗粒物(PM2.5),59,58,60,42,44,37,37,,,36,37,7,9,0.9,0.8
2025-12-11T0100,3025A,113.0477,23.6344,清远市,技师学院,细颗粒物(PM2.5),74,86,69,54,42,5,5,,,78,49,7,9,1.0,0.8
2025-12-11T0100,3318A,112.9903,23.7403,清远市,清新太和,,42,40,55,29,39,70,70,,,15,30,9,10,0.6,0.7
2025-12-11T0100,3455A,113.076,23.7198,清远市,清城东城,细颗粒物(PM2.5),53,50,54,37,38,47,47,,,19,23,7,9,0.7,0.7
2025-12-11T0100,2661A,107.6325,35.7357,庆阳市,庆阳五中,颗粒物(PM10),83,116,96,33,42,73,73,,,14,19,6,5,0.5,0.5
2025-12-11T0100,2662A,107.6364,35.7067,庆阳市,市环保局,颗粒物(PM10),83,115,100,23,36,86,86,,,8,20,4,7,0.6,0.8
2025-12-11T0100,1916A,103.7897,25.5035,曲靖市,环境监测站,"颗粒物(PM10),细颗粒物(PM2.5)",53,56,46,37,25,43,43,,,14,15,5,5,0.6,0.7
2025-12-11T0100,1917A,103.8,25.5364,曲靖市,烟厂办公区,,50,50,41,29,25,42,42,,,18,16,7,6,0.5,0.5
2025-12-11T0100,3376A,103.7947,25.462,曲靖市,南苑二区,细颗粒物(PM2.5),59,59,43,42,25,45,45,,,12,14,4,5,0.7,0.6
2025-12-11T0100,3377A,103.7444,25.5261,曲靖市,曲靖师范学院,细颗粒物(PM2.5),65,57,44,47,35,37,37,,,14,15,3,5,0.7,0.5
2025-12-11T0100,1264A,118.8692,28.9398,衢州市,环保大楼,颗粒物(PM10),66,82,82,47,42,20,20,,,58,53,11,7,0.6,0.7
2025-12-11T0100,1265A,118.8709,28.9666,衢州市,实验学校,颗粒物(PM10),63,76,72,41,37,1,1,,,79,52,7,6,0.6,0.7
2025-12-11T0100,1266A,118.8621,28.9808,衢州市,衢州学院,颗粒物(PM10),66,81,75,43,37,2,2,,,81,53,7,7,0.8,0.7
2025-12-11T0100,1611A,118.5819,24.9117,泉州市,涂山街,,39,,36,27,19,44,44,,,19,15,4,4,0.6,0.5
2025-12-11T0100,1612A,118.5972,24.8978,泉州市,津头埔,,32,,39,22,18,49,49,,,16,16,5,4,0.5,0.5
