timepoint,stationcode,longitude,latitude,area,positionname,primarypollutant,aqi,pm10,pm10_24h,pm2_5,pm2_5_24h,o3,o3_24h,o3_8h,o3_8h_24h,no2,no2_24h,so2,so2_24h,co,co_24h
2025-12-26T2200,2568A,102.2502,31.8896,阿坝藏族羌族自治州,马师校,,49,48,18,34,17,16,16,44,33,32,14,5,5,0.8,0.6
2025-12-26T2200,3994A,102.2165,31.9024,阿坝藏族羌族自治州,马尔康中学西区,,21,21,12,14,9,24,24,52,43,34,14,6,6,0.7,0.6
2025-12-26T2200,2695A,80.292,41.1694,阿克苏地区,电视台,,45,44,75,31,40,64,64,58,58,13,28,4,4,0.4,0.6
2025-12-26T2200,2696A,80.2613,41.1551,阿克苏地区,艺术中心,"颗粒物(PM10),细颗粒物(PM2.5)",53,55,68,37,41,56,56,57,57,21,24,4,4,0.4,0.5
2025-12-26T2200,2205A,105.6985,38.8411,阿拉善盟,蒙二幼,,42,42,39,15,18,78,78,80,76,10,12,10,12,0.5,0.6
2025-12-26T2200,2206A,105.724,38.8516,阿拉善盟,环保局新楼,,27,25,31,8,16,84,84,74,74,4,8,9,10,0.6,0.6
2025-12-26T2200,2708A,88.1264,47.8517,阿勒泰地区,市站,,23,13,13,6,5,72,72,67,57,14,24,3,3,0.4,0.5
2025-12-26T2200,2630A,80.1161,32.5,阿里地区,阿里监测站,,20,6,3,3,3,64,64,76,74,8,8,12,8,0.4,0.3
2025-12-26T2200,3192A,80.0903,32.5028,阿里地区,阿里藏医院,,25,6,15,3,10,79,79,82,82,1,9,8,11,0.2,0.4
2025-12-26T2200,2644A,109.0072,32.6975,安康市,汉滨区检察院,细颗粒物(PM2.5),84,107,69,62,38,3,3,18,15,40,30,4,5,0.6,0.4
2025-12-26T2200,4054A,109.0325,32.6913,安康市,市邮政管理局,细颗粒物(PM2.5),90,109,73,67,41,3,3,18,13,42,30,4,6,1.1,0.8
2025-12-26T2200,2291A,117.0809,30.5177,安庆市,环科院,,36,36,50,23,31,43,43,67,58,22,19,6,6,0.3,0.4
2025-12-26T2200,2292A,117.0331,30.5119,安庆市,马山宾馆,,42,42,51,26,32,42,42,68,54,30,26,5,6,0.4,0.4
2025-12-26T2200,2294A,116.9896,30.6145,安庆市,安庆大学,颗粒物(PM10),62,74,57,37,35,4,4,69,50,52,30,3,4,0.9,0.7
2025-12-26T2200,3173A,117.0598,30.5351,安庆市,市人大,,47,47,56,25,32,32,32,71,46,31,27,5,6,0.4,0.5
2025-12-26T2200,3122A,105.9606,26.2611,安顺市,伍家关,颗粒物(PM10),62,74,48,38,28,45,45,54,53,24,16,43,22,0.7,0.6
2025-12-26T2200,3123A,105.9408,26.2431,安顺市,凤凰山,细颗粒物(PM2.5),73,67,51,53,36,50,50,64,62,28,18,36,25,0.8,0.7
2025-12-26T2200,3124A,105.9439,26.2564,安顺市,金钟山,细颗粒物(PM2.5),73,67,50,53,37,53,53,62,61,21,15,45,25,0.7,0.7
2025-12-26T2200,3125A,105.8983,26.2481,安顺市,娄家坡,细颗粒物(PM2.5),74,75,49,54,33,55,55,61,60,18,15,40,26,0.8,0.7
2025-12-26T2200,1819A,114.3551,36.1017,安阳市,红庙街,,,102,76,70,50,24,24,49,43,,31,2,4,0.6,0.5
2025-12-26T2200,1820A,114.361,36.0681,安阳市,银杏小区,细颗粒物(PM2.5),109,95,77,82,58,23,23,52,44,37,33,3,4,0.4,0.4
2025-12-26T2200,3141A,114.3922,36.0878,安阳市,信访局,细颗粒物(PM2.5),94,99,74,70,51,32,32,56,50,34,31,4,5,0.6,0.6
2025-12-26T2200,3669A,114.4705,36.0637,安阳市,左辅环卫站,细颗粒物(PM2.5),87,100,86,64,56,38,38,58,53,22,24,2,5,0.6,0.5
2025-12-26T2200,3703A,114.2917,36.0949,安阳市,安钢职工学校,细颗粒物(PM2.5),110,104,90,83,66,17,17,43,36,46,40,3,4,0.4,0.4
2025-12-26T2200,1748A,123.044,41.1196,鞍山市,深沟寺,,35,35,37,19,22,37,37,33,20,20,27,7,14,0.9,1.1
2025-12-26T2200,1749A,123.011,41.0931,鞍山市,太阳城,颗粒物(PM10),51,52,41,31,24,21,21,41,13,31,28,11,18,1.3,1.2
2025-12-26T2200,1750A,123.0485,41.1442,鞍山市,太平,,47,47,48,23,21,28,28,30,19,32,33,9,17,1.0,1
2025-12-26T2200,1751A,122.9642,41.0971,鞍山市,铁西三道街,细颗粒物(PM2.5),87,117,69,64,37,12,12,35,18,46,30,17,22,2.0,1.2
2025-12-26T2200,1753A,123.022,41.0821,鞍山市,明达新区,,40,40,44,22,24,39,39,42,21,20,23,14,19,0.8,0.9
2025-12-26T2200,4201A,122.9446,41.0826,鞍山市,兴盛南路290号,细颗粒物(PM2.5),93,122,83,69,43,2,2,30,10,58,50,17,19,2.2,1.9
2025-12-26T2200,2195A,107.4212,40.761,巴彦淖尔市,附二中,,49,49,67,25,36,45,45,45,45,17,31,5,8,0.3,0.5
2025-12-26T2200,2196A,107.37,40.7372,巴彦淖尔市,市环保大楼,颗粒物(PM10),52,53,59,21,27,37,37,54,54,27,30,4,6,0.5,0.6
2025-12-26T2200,1956A,86.1472,41.7538,巴音郭楞蒙古自治州,孔雀公园,,35,35,38,24,22,48,48,53,50,15,13,7,7,0.5,0.5
2025-12-26T2200,1957A,86.1972,41.7166,巴音郭楞蒙古自治州,棉纺厂,颗粒物(PM10),52,53,55,24,18,48,48,54,51,16,14,5,4,0.5,0.4
2025-12-26T2200,1958A,86.2357,41.7173,巴音郭楞蒙古自治州,经济开发区,,38,35,39,26,17,44,44,52,47,18,14,5,5,0.6,0.5
2025-12-26T2200,3181A,106.7768,31.8526,巴中市,市五中,细颗粒物(PM2.5),69,80,64,50,39,6,6,24,22,20,22,5,5,0.9,0.9
2025-12-26T2200,3183A,106.7418,31.8654,巴中市,圣泉水务公司,细颗粒物(PM2.5),75,77,62,55,42,1,1,12,7,23,27,5,5,0.7,0.6
2025-12-26T2200,3616A,106.7616,31.8344,巴中市,市中心医院,细颗粒物(PM2.5),77,82,68,56,44,1,1,21,19,29,27,6,6,1.0,0.9
2025-12-26T2200,2235A,122.7911,45.6077,白城市,洮北区环保局,,39,29,45,27,43,17,17,40,31,41,29,10,7,0.3,0.4
2025-12-26T2200,2236A,122.8738,45.5725,白城市,市环保局,,35,31,43,24,38,18,18,38,22,32,30,6,6,0.4,0.5
2025-12-26T2200,2231A,126.4219,41.9171,白山市,喜丰,颗粒物(PM10),55,59,55,37,30,7,7,47,29,49,23,18,16,1.0,0.7
2025-12-26T2200,2232A,126.4077,41.9419,白山市,环保局,颗粒物(PM10),51,51,41,35,31,15,15,40,27,26,18,11,11,0.8,0.6
2025-12-26T2200,2647A,104.1724,36.5446,白银市,第三小学,颗粒物(PM10),83,116,77,58,55,0,0,73,51,73,43,10,39,1.2,1.2
2025-12-26T2200,2648A,104.1465,36.5482,白银市,动力公司,细颗粒物(PM2.5),62,60,63,44,46,31,31,84,59,45,30,10,32,1.4,1.2
2025-12-26T2200,2512A,106.6103,23.9011,百色市,市监测站,,48,48,42,20,16,38,38,76,66,20,19,7,8,0.5,0.5
2025-12-26T2200,2513A,106.6538,23.8859,百色市,市中心血站,颗粒物(PM10),61,72,51,36,23,46,46,79,65,34,25,10,10,0.6,0.6
2025-12-26T2200,3406A,106.6085,23.8798,百色市,祈福高中,颗粒物(PM10),70,90,61,33,22,34,34,73,62,39,24,10,8,0.6,0.5
2025-12-26T2200,2270A,117.396,32.939,蚌埠市,工人疗养院,颗粒物(PM10),55,59,61,31,33,35,35,58,44,34,38,7,8,0.5,0.4
2025-12-26T2200,2271A,117.3605,32.9427,蚌埠市,百货大楼,,40,39,44,28,30,34,34,59,47,33,35,6,6,0.5,0.5
2025-12-26T2200,2273A,117.4185,32.8911,蚌埠市,蚌埠学院,,48,48,56,28,37,22,22,59,45,43,40,5,6,0.5,0.5
2025-12-26T2200,2274A,117.3533,32.9673,蚌埠市,淮上区政府,,46,46,53,29,35,38,38,60,45,34,35,4,4,0.5,0.5
2025-12-26T2200,2275A,117.3145,32.8977,蚌埠市,高新区,,49,44,54,34,37,31,31,56,45,32,36,7,8,0.4,0.4
2025-12-26T2200,3715A,117.3092,32.9314,蚌埠市,蚌埠田家炳中学,颗粒物(PM10),51,51,56,35,34,33,33,58,48,38,40,6,8,0.6,0.6
2025-12-26T2200,1585A,109.8756,40.6532,包头市,市环境监测站,颗粒物(PM10),85,120,80,46,34,1,1,22,10,75,60,13,22,1.7,2
2025-12-26T2200,1587A,109.9991,40.5842,包头市,包头八中,颗粒物(PM10),81,112,79,46,49,6,6,29,17,65,52,13,22,1.1,1.5
2025-12-26T2200,1588A,109.8538,40.6821,包头市,青山宾馆,颗粒物(PM10),86,122,75,55,49,4,4,21,12,74,62,13,20,1.5,1.8
2025-12-26T2200,1589A,109.8642,40.6288,包头市,惠龙物流,颗粒物(PM10),87,123,74,62,41,2,2,24,12,77,60,28,29,2.9,2.2
2025-12-26T2200,1590A,110.0377,40.5546,包头市,东河鸿龙湾,细颗粒物(PM2.5),78,94,58,57,32,7,7,37,23,85,57,16,16,2.0,1
2025-12-26T2200,3283A,109.9154,40.5685,包头市,滨河大厦,颗粒物(PM10),80,110,62,48,34,2,2,29,16,67,47,19,14,2.0,1.4
2025-12-26T2200,3419A,109.9447,40.6261,包头市,包头市委党校,细颗粒物(PM2.5),78,94,76,57,41,2,2,25,14,69,57,15,23,1.5,2
2025-12-26T2200,3683A,109.8331,40.6576,包头市,昆区政府,颗粒物(PM10),70,89,74,32,47,33,33,20,15,44,61,11,25,0.8,1.8
2025-12-26T2200,1931A,107.0708,34.3017,宝鸡市,竹园沟,细颗粒物(PM2.5),82,80,67,60,45,9,9,50,36,42,26,6,6,0.5,0.5
2025-12-26T2200,1932A,107.1906,34.3672,宝鸡市,三陆医院,细颗粒物(PM2.5),149,133,96,114,59,13,13,52,36,55,43,5,7,0.8,0.6
2025-12-26T2200,1933A,107.1431,34.3547,宝鸡市,监测站,细颗粒物(PM2.5),108,93,78,81,56,6,6,51,32,51,34,4,5,0.8,0.6
2025-12-26T2200,1934A,107.1186,34.3739,宝鸡市,技工学校,细颗粒物(PM2.5),104,89,86,78,53,15,15,52,38,45,31,7,9,0.8,0.6
2025-12-26T2200,1936A,107.2058,34.3497,宝鸡市,文理学院,细颗粒物(PM2.5),119,102,83,90,57,8,8,57,36,61,40,4,5,0.7,0.6
2025-12-26T2200,1937A,107.2386,34.3622,宝鸡市,三迪小学,细颗粒物(PM2.5),118,113,89,89,59,1,1,49,33,74,48,4,6,0.9,0.8
2025-12-26T2200,4308A,107.3898,34.3601,宝鸡市,陈仓区北开路21号,细颗粒物(PM2.5),175,148,103,132,58,10,10,61,46,69,46,7,7,0.8,0.6
2025-12-26T2200,1051A,115.493,38.8632,保定市,游泳馆,细颗粒物(PM2.5),69,79,63,50,41,4,4,25,12,62,39,6,8,0.5,0.5
2025-12-26T2200,1052A,115.5213,38.8959,保定市,华电二区,细颗粒物(PM2.5),90,67,53,67,42,0,0,20,10,58,39,3,4,0.4,0.4
2025-12-26T2200,1053A,115.4713,38.9108,保定市,接待中心,细颗粒物(PM2.5),77,96,68,56,45,0,0,19,8,58,36,1,3,0.6,0.5
2025-12-26T2200,1054A,115.4612,38.8416,保定市,地表水厂,细颗粒物(PM2.5),75,75,69,55,44,3,3,25,11,61,42,4,7,0.6,0.6
2025-12-26T2200,3581A,115.31981,38.95208,保定市,满城区生态环境分局,颗粒物(PM10),75,100,85,51,45,1,1,20,8,70,51,6,6,0.6,0.5
2025-12-26T2200,3582A,115.47694,38.76408,保定市,清苑区第二中学,颗粒物(PM10),77,103,79,52,39,3,3,32,14,61,40,5,7,0.6,0.5
2025-12-26T2200,3583A,115.62909,39.02311,保定市,徐水物探局,细颗粒物(PM2.5),87,108,90,64,52,2,2,16,8,63,51,6,6,0.8,0.7
2025-12-26T2200,4004A,115.4202,38.8656,保定市,双鹰农机,颗粒物(PM10),75,100,79,54,38,8,8,29,16,65,45,7,9,0.5,0.5
2025-12-26T2200,4034A,115.5150,38.8590,保定市,植保所站,细颗粒物(PM2.5),73,79,68,53,45,0,0,16,6,70,50,2,5,0.6,0.6
2025-12-26T2200,2594A,99.1678,25.1081,保山市,市环境监测站,,45,31,24,31,19,41,41,74,66,15,10,3,3,0.4,0.3
2025-12-26T2200,2595A,99.1711,25.1328,保山市,市环保局,,29,28,27,20,17,60,60,78,73,5,6,4,4,0.4,0.4
2025-12-26T2200,1866A,109.2262,21.588,北海市,牛尾岭水库,,39,,32,27,17,56,56,80,74,15,11,6,5,0.5,0.4
2025-12-26T2200,1867A,109.1436,21.4086,北海市,海滩公园,颗粒物(PM10),51,51,39,27,21,62,62,78,75,19,13,11,8,0.7,0.5
2025-12-26T2200,1868A,109.0981,21.4661,北海市,新市环保局,细颗粒物(PM2.5),58,56,38,41,24,60,60,86,80,23,13,10,4,0.8,0.6
2025-12-26T2200,1869A,109.1778,21.5233,北海市,北海工业园,细颗粒物(PM2.5),68,67,43,49,25,46,46,75,66,23,14,23,8,0.7,0.5
2025-12-26T2200,3400A,109.1911,21.4415,北海市,龙潭自来水厂,,49,45,40,34,24,59,59,76,71,17,14,10,9,1.1,0.9
2025-12-26T2200,1001A,116.3621,39.8784,北京市,万寿西宫,细颗粒物(PM2.5),88,103,64,65,35,2,2,17,7,73,56,4,3,1.0,0.7
2025-12-26T2200,1003A,116.4174,39.9289,北京市,东四,细颗粒物(PM2.5),78,,44,57,35,3,3,16,7,59,45,5,4,1.0,0.7
2025-12-26T2200,1004A,116.4072,39.8863,北京市,天坛,细颗粒物(PM2.5),72,81,55,52,30,2,2,14,7,66,49,3,3,1.0,0.7
2025-12-26T2200,1005A,116.462,39.9365,北京市,农展馆,细颗粒物(PM2.5),78,95,64,57,39,2,2,17,7,52,43,6,5,0.9,0.7
2025-12-26T2200,1006A,116.3392,39.9295,北京市,官园,细颗粒物(PM2.5),82,99,60,60,32,1,1,17,5,66,48,6,5,1.2,0.8
2025-12-26T2200,1007A,116.2878,39.9611,北京市,海淀万柳,颗粒物(PM10),63,75,48,44,26,1,1,16,5,64,52,4,4,0.8,0.5
2025-12-26T2200,1008A,116.6636,40.135,北京市,顺义新城,细颗粒物(PM2.5),89,110,55,66,29,1,1,24,8,59,41,5,5,0.9,0.6
2025-12-26T2200,1009A,116.6275,40.3275,北京市,怀柔镇,细颗粒物(PM2.5),60,61,33,43,22,9,9,27,14,41,24,6,6,0.8,0.5
2025-12-26T2200,1010A,116.2296,40.217,北京市,昌平镇,颗粒物(PM10),51,51,36,31,20,12,12,25,14,33,25,4,5,0.5,0.4
2025-12-26T2200,1011A,116.3966,39.9821,北京市,奥体中心,细颗粒物(PM2.5),75,89,54,55,32,1,1,17,6,77,57,7,6,1.0,0.7
2025-12-26T2200,3281A,115.9718,40.4529,北京市,延庆夏都,,37,37,32,21,17,11,11,26,17,40,27,2,3,0.5,0.5
2025-12-26T2200,3418A,116.8336,40.4095,北京市,密云新城,"颗粒物(PM10),细颗粒物(PM2.5)",74,97,42,54,21,2,2,32,12,60,33,3,3,1.1,0.7
2025-12-26T2200,3671A,116.088,39.9726,北京市,门头沟三家店,颗粒物(PM10),66,82,50,39,23,1,1,23,7,50,36,5,5,0.8,0.5
2025-12-26T2200,3672A,116.1541,39.8204,北京市,丰台云岗,细颗粒物(PM2.5),73,90,57,53,27,2,2,18,6,64,48,3,2,0.8,0.5
2025-12-26T2200,3673A,116.6804,39.9081,北京市,通州东关,细颗粒物(PM2.5),83,104,80,61,43,4,4,20,9,68,51,5,5,1.0,0.7
2025-12-26T2200,3674A,115.9577,39.7603,北京市,房山燕山,细颗粒物(PM2.5),70,88,55,51,30,1,1,21,6,60,36,3,3,0.5,0.4
2025-12-26T2200,3675A,116.4672,39.7733,北京市,大兴旧宫,颗粒物(PM10),73,96,70,50,32,1,1,17,7,61,49,2,2,0.9,0.7
2025-12-26T2200,3694A,115.986,40.4563,北京市,延庆石河营,,40,40,32,24,17,12,12,22,16,39,30,3,3,0.6,0.7
2025-12-26T2200,3695A,116.6151,40.3053,北京市,怀柔新城,细颗粒物(PM2.5),60,60,36,43,23,12,12,27,14,37,24,4,4,0.7,0.6
2025-12-26T2200,3696A,116.2545,39.8768,北京市,丰台小屯,颗粒物(PM10),70,90,57,43,28,2,2,17,6,68,51,4,4,0.9,0.6
2025-12-26T2200,3697A,116.84,40.3844,北京市,密云镇,细颗粒物(PM2.5),83,99,45,61,25,3,3,28,12,58,41,3,2,1.0,0.6
2025-12-26T2200,4182A,116.1942,39.9158,北京市,八角北路9号,颗粒物(PM10),68,85,57,43,25,4,4,21,8,63,45,3,3,0.8,0.5
2025-12-26T2200,1761A,123.8275,41.3064,本溪市,大峪,颗粒物(PM10),63,75,72,39,38,8,8,37,22,47,34,8,9,1.8,1.5
2025-12-26T2200,1762A,123.7567,41.3325,本溪市,溪湖,颗粒物(PM10),66,82,80,44,46,4,4,32,16,52,42,7,8,2.0,1.7
2025-12-26T2200,1763A,123.7169,41.3094,本溪市,彩屯,"颗粒物(PM10),细颗粒物(PM2.5)",53,56,72,37,45,11,11,30,21,48,43,8,9,1.4,1.9
2025-12-26T2200,1764A,123.7669,41.2864,本溪市,东明,细颗粒物(PM2.5),90,89,73,67,47,4,4,25,12,53,43,6,9,2.1,2.2
2025-12-26T2200,1765A,123.7992,41.2664,本溪市,新立屯,,36,36,68,13,39,2,2,26,6,47,36,6,10,1.1,2.3
2025-12-26T2200,1766A,123.8142,41.3472,本溪市,威宁,细颗粒物(PM2.5),75,91,84,55,47,8,8,31,18,40,30,5,7,1.6,1.5
2025-12-26T2200,2587A,105.2864,27.3125,毕节市,八中,细颗粒物(PM2.5),143,157,88,109,61,18,18,25,21,15,19,9,11,1.0,0.9
2025-12-26T2200,2588A,105.31,27.2944,毕节市,师专,细颗粒物(PM2.5),129,140,81,98,56,22,22,28,26,15,20,9,15,0.8,0.7
2025-12-26T2200,4263A,105.3688,27.3598,毕节市,工业大道,细颗粒物(PM2.5),107,117,80,80,56,28,28,29,28,13,15,12,12,0.8,0.7
2025-12-26T2200,1629A,118.0018,37.3617,滨州市,第二水厂,颗粒物(PM10),68,85,64,48,39,6,6,39,24,66,52,14,16,0.9,0.9
2025-12-26T2200,1630A,117.9776,37.393,滨州市,北中新校,细颗粒物(PM2.5),73,80,57,53,35,6,6,42,26,69,52,11,12,0.7,0.7
2025-12-26T2200,3514A,117.9378,37.3956,滨州市,中海酒店,细颗粒物(PM2.5),89,92,55,66,38,21,21,49,38,59,47,15,16,0.8,0.9
2025-12-26T2200,3515A,117.9378,37.3553,滨州市,开发区一中,细颗粒物(PM2.5),83,97,69,61,42,8,8,42,26,60,46,17,21,0.8,1
2025-12-26T2200,3516A,118.0917,37.694,滨州市,金海六路,颗粒物(PM10),73,95,52,48,26,5,5,52,34,74,46,22,18,0.9,0.7
2025-12-26T2200,4028A,117.9956,37.3753,滨州市,滨州市西街道办事处,细颗粒物(PM2.5),79,75,59,58,40,13,13,44,27,56,48,12,15,0.8,0.7
2025-12-26T2200,2312A,115.7789,33.8518,亳州市,三国揽胜宫,细颗粒物(PM2.5),58,64,66,41,40,36,36,57,49,36,34,6,5,0.4,0.4
2025-12-26T2200,3332A,115.7633,33.8034,亳州市,亳州学院,颗粒物(PM10),54,57,59,37,39,38,38,60,53,28,28,5,5,0.5,0.4
2025-12-26T2200,2693A,82.0485,44.8556,博尔塔拉蒙古自治州,市党校,"颗粒物(PM10),细颗粒物(PM2.5)",65,79,78,47,46,20,20,36,30,34,22,3,3,0.8,0.8
2025-12-26T2200,2694A,82.0806,44.8969,博尔塔拉蒙古自治州,市环保局,颗粒物(PM10),68,86,92,45,44,22,22,34,32,38,26,7,8,0.9,0.8
2025-12-26T2200,1071A,116.8842,38.2991,沧州市,沧县城建局,细颗粒物(PM2.5),83,86,62,61,41,15,15,37,26,49,40,4,6,0.7,0.6
2025-12-26T2200,1072A,116.8584,38.3254,沧州市,电视转播站,细颗粒物(PM2.5),79,76,59,58,38,17,17,36,28,43,35,6,8,0.8,0.7
2025-12-26T2200,1073A,116.8709,38.3228,沧州市,市环保局,细颗粒物(PM2.5),88,82,64,65,42,13,13,30,23,44,32,7,9,0.6,0.5
2025-12-26T2200,3324A,116.8136,38.3004,沧州市,河北水利电力学院,颗粒物(PM10),75,100,63,52,35,8,8,35,23,54,42,9,11,0.7,0.6
2025-12-26T2200,2622A,97.1806,31.1273,昌都市,昌都监测站,,,143,57,,17,8,8,66,44,66,24,10,4,2.5,0.9
2025-12-26T2200,3719A,97.1714,31.1406,昌都市,昌都会议中心,,38,32,17,26,10,39,39,74,66,24,8,5,4,0.7,0.4
2025-12-26T2200,2692A,87.2717,44.0297,昌吉回族自治州,新区政务中心,细颗粒物(PM2.5),143,141,153,109,96,18,18,37,32,48,43,6,6,0.9,1.1
2025-12-26T2200,3613A,87.3095,44.0142,昌吉回族自治州,亚心广场,细颗粒物(PM2.5),147,149,116,112,88,24,24,41,37,35,26,7,7,1.1,1
2025-12-26T2200,1120A,125.2863,43.9027,长春市,客车厂,细颗粒物(PM2.5),52,38,45,36,46,19,19,36,25,42,39,11,11,0.6,0.7
2025-12-26T2200,1121A,125.2841,43.8463,长春市,邮电学院,,45,39,53,31,40,25,25,35,26,26,27,10,10,0.6,0.8
2025-12-26T2200,1122A,125.3716,43.8772,长春市,劳动公园,,35,35,50,24,36,12,12,35,23,35,34,10,10,0.6,0.7
2025-12-26T2200,1123A,125.3297,43.8805,长春市,园林处,,42,33,47,29,38,23,23,34,26,31,32,10,9,0.7,0.8
2025-12-26T2200,1124A,125.4605,43.79,长春市,净月潭,,50,38,49,35,34,35,35,37,34,15,26,6,7,0.5,0.6
2025-12-26T2200,1125A,125.7194,43.515,长春市,甩湾子,细颗粒物(PM2.5),83,,59,61,52,25,25,45,37,19,17,4,5,1.2,1.1
2025-12-26T2200,1126A,125.3863,43.8447,长春市,经开区环卫处,,42,42,59,28,38,24,24,36,26,34,38,7,6,0.6,0.8
2025-12-26T2200,1127A,125.245,43.7783,长春市,高新区管委会,细颗粒物(PM2.5),89,,61,66,57,6,6,36,19,52,38,7,7,0.8,0.8
2025-12-26T2200,1128A,125.1761,43.8325,长春市,岱山公园,"颗粒物(PM10),细颗粒物(PM2.5)",53,56,74,37,63,4,4,38,20,56,43,11,10,0.6,0.8
2025-12-26T2200,4281A,125.3346,43.9164,长春市,北亚泰大街1068号,细颗粒物(PM2.5),55,48,49,39,45,11,11,31,20,45,39,14,10,0.7,0.8
2025-12-26T2200,1335A,113.0833,28.2325,长沙市,经开区环保局,细颗粒物(PM2.5),80,91,63,59,42,19,19,84,67,67,26,5,5,0.7,0.4
2025-12-26T2200,1336A,112.8872,28.2189,长沙市,高开区环保局,细颗粒物(PM2.5),89,82,69,66,49,29,29,75,66,46,25,6,6,1.0,0.6
2025-12-26T2200,1337A,113.0792,28.2053,长沙市,马坡岭,颗粒物(PM10),70,89,62,48,40,13,13,87,62,77,38,6,7,0.9,0.5
2025-12-26T2200,1338A,112.9394,28.19,长沙市,湖南师范大学,颗粒物(PM10),65,80,68,41,38,34,34,79,68,50,33,3,4,0.6,0.5
2025-12-26T2200,1339A,113.0178,28.1322,长沙市,雨花区环保局,细颗粒物(PM2.5),73,76,69,53,44,63,63,80,75,28,25,9,9,0.5,0.5
2025-12-26T2200,1340A,112.9792,28.2597,长沙市,伍家岭,,,,73,,40,,,80,,61,38,5,6,0.7,0.7
2025-12-26T2200,1341A,113.0014,28.1944,长沙市,火车新站,,,79,71,,47,,,80,74,51,34,8,9,0.8,0.6
2025-12-26T2200,1342A,112.9844,28.1178,长沙市,天心区环保局,细颗粒物(PM2.5),82,81,66,60,53,67,67,85,79,33,30,9,8,0.6,0.5
2025-12-26T2200,1343A,112.8908,28.1308,长沙市,湖南中医药大学,细颗粒物(PM2.5),72,86,68,52,46,3,3,81,46,74,40,6,6,0.8,0.6
2025-12-26T2200,1727A,113.1147,36.1547,长治市,清华站,细颗粒物(PM2.5),55,49,45,39,22,56,56,64,60,19,32,16,14,1.0,0.8
2025-12-26T2200,1730A,113.0886,36.2125,长治市,审计局,细颗粒物(PM2.5),55,53,50,39,26,53,53,57,53,24,32,13,14,0.8,0.9
2025-12-26T2200,1731A,113.0844,36.1856,长治市,长治八中,细颗粒物(PM2.5),62,61,62,44,32,56,56,57,54,15,25,14,14,0.6,0.9
2025-12-26T2200,2845A,113.1569,36.1911,长治市,德盛苑,细颗粒物(PM2.5),52,43,37,36,23,60,60,66,64,13,14,15,14,0.6,0.8
2025-12-26T2200,3568A,113.06,36.0464,长治市,向阳小学,颗粒物(PM10),69,88,68,48,30,53,53,60,49,30,28,13,15,0.6,0.9
2025-12-26T2200,3569A,112.8792,36.3144,长治市,屯留一中,,41,41,44,26,24,33,33,54,48,29,33,41,22,0.6,1
2025-12-26T2200,4189A,113.1131,36.19948,长治市,英华南巷50号,颗粒物(PM10),57,63,52,36,31,57,57,62,58,18,22,11,12,0.9,1.1
2025-12-26T2200,4190A,113.2367,36.3344,长治市,学府街1号,颗粒物(PM10),57,63,50,35,26,22,22,61,48,46,37,14,15,1.1,1.2
2025-12-26T2200,1854A,111.6975,28.9703,常德市,市二中,细颗粒物(PM2.5),89,84,77,66,53,77,77,89,84,23,23,6,6,0.5,0.5
2025-12-26T2200,3138A,111.7153,29.0289,常德市,武陵区永安,细颗粒物(PM2.5),98,102,85,73,52,66,66,91,86,27,22,5,5,0.7,0.6
2025-12-26T2200,3139A,111.6892,28.9881,常德市,鼎城区玉霞,细颗粒物(PM2.5),88,91,75,65,54,66,66,89,83,27,23,8,8,0.6,0.6
2025-12-26T2200,3140A,111.6625,29.0531,常德市,武陵区长庚,细颗粒物(PM2.5),88,93,87,65,55,70,70,91,88,27,23,5,5,0.6,0.5
2025-12-26T2200,1196A,119.9633,31.762,常州市,市监测站,颗粒物(PM10),63,76,33,39,20,13,13,59,37,72,36,17,6,0.7,0.4
2025-12-26T2200,1200A,119.9468,31.7069,常州市,武进监测站,颗粒物(PM10),54,57,32,33,20,39,39,58,47,42,31,11,9,0.3,0.4
2025-12-26T2200,1201A,119.9255,31.9087,常州市,安家,颗粒物(PM10),56,62,34,34,19,1,1,52,25,76,39,12,12,1.1,0.8
2025-12-26T2200,3002A,119.9805,31.8174,常州市,行政中心,颗粒物(PM10),52,54,35,31,18,27,27,63,42,55,33,22,7,0.7,0.4
2025-12-26T2200,3003A,120.0522,31.7748,常州市,经开区,颗粒物(PM10),71,92,39,40,18,18,18,58,40,58,40,4,3,1.0,0.6
2025-12-26T2200,3010A,119.9025,31.7964,常州市,钟楼,,48,47,31,33,17,20,20,60,39,57,30,10,8,0.5,0.2
2025-12-26T2200,3429A,119.8598,31.7066,常州市,武进经发区,细颗粒物(PM2.5),59,65,35,42,20,7,7,56,36,78,41,16,9,0.6,0.5
2025-12-26T2200,3430A,119.5826,31.7245,常州市,金坛城区,颗粒物(PM10),57,64,36,37,20,23,23,57,43,50,33,9,9,0.7,0.5
2025-12-26T2200,2220A,120.4318,41.5881,朝阳市,西梁,细颗粒物(PM2.5),95,85,62,71,36,3,3,47,33,49,30,37,11,1.2,0.9
2025-12-26T2200,2221A,120.4521,41.5646,朝阳市,河畔小区,细颗粒物(PM2.5),70,56,46,51,28,5,5,50,39,52,27,16,11,0.8,0.7
2025-12-26T2200,2222A,120.4176,41.5648,朝阳市,八里堡,细颗粒物(PM2.5),90,,48,67,30,20,20,46,40,37,29,13,11,1.2,0.8
2025-12-26T2200,2223A,120.3806,41.5969,朝阳市,农业园区,细颗粒物(PM2.5),79,71,54,58,38,4,4,44,31,48,31,14,14,1.1,1
2025-12-26T2200,3026A,116.6183,23.6608,潮州市,市政府,颗粒物(PM10),52,53,26,27,16,69,69,67,67,19,9,6,5,0.4,0.5
2025-12-26T2200,4036A,116.6461,23.6761,潮州市,金山,,44,44,25,28,16,73,73,68,68,15,11,4,3,0.3,0.5
2025-12-26T2200,2473A,113.0116,25.8226,郴州市,市职中,细颗粒物(PM2.5),57,51,49,40,37,4,4,76,48,37,19,3,5,0.6,0.5
2025-12-26T2200,2475A,113.0383,25.8071,郴州市,市审计局,,,,49,,36,27,27,84,69,26,17,3,7,1.0,1
2025-12-26T2200,2476A,113.0348,25.7759,郴州市,市环保局,颗粒物(PM10),62,73,58,36,36,7,7,75,53,53,25,4,7,0.6,0.6
2025-12-26T2200,4252A,113.0138,25.8011,郴州市,好美居路49号,细颗粒物(PM2.5),55,53,48,39,42,4,4,82,54,51,23,4,7,0.4,0.3
2025-12-26T2200,1431A,103.9728,30.7236,成都市,金泉两河,细颗粒物(PM2.5),103,126,100,77,55,24,24,39,36,44,46,4,5,0.6,0.6
2025-12-26T2200,1432A,104.176,30.6872,成都市,十里店,细颗粒物(PM2.5),90,104,94,67,52,26,26,47,43,41,41,4,4,0.5,0.5
2025-12-26T2200,1433A,104.079,30.5706,成都市,三瓦窑,细颗粒物(PM2.5),84,84,89,62,62,37,37,47,47,28,39,4,4,0.7,0.7
2025-12-26T2200,1434A,104.1114,30.63,成都市,沙河铺,细颗粒物(PM2.5),97,110,94,72,67,24,24,44,42,49,44,4,4,0.6,0.5
2025-12-26T2200,1437A,104.0786,30.6531,成都市,君平街,细颗粒物(PM2.5),110,115,105,83,64,32,32,39,39,34,43,4,5,0.6,0.6
2025-12-26T2200,2880A,104.0239,30.65639,成都市,大石西路,细颗粒物(PM2.5),112,119,94,84,59,19,19,35,34,45,44,5,5,0.6,0.5
2025-12-26T2200,3136A,104.2725,30.5589,成都市,龙泉驿区区政府,细颗粒物(PM2.5),70,63,66,51,45,18,18,38,29,19,19,6,6,0.5,0.5
2025-12-26T2200,3357A,104.0106,30.6931,成都市,金博路,细颗粒物(PM2.5),109,115,86,82,50,24,24,35,34,43,45,5,6,0.6,0.5
2025-12-26T2200,3359A,104.0578,30.5225,成都市,华阳,细颗粒物(PM2.5),73,92,86,53,52,30,30,44,42,41,36,3,3,0.6,0.6
2025-12-26T2200,3488A,104.3880,30.7467,成都市,青石路225号,细颗粒物(PM2.5),65,54,68,47,50,30,30,56,44,28,25,4,4,0.5,0.4
2025-12-26T2200,3489A,104.0789,30.4072,成都市,科学城,细颗粒物(PM2.5),79,81,82,58,56,37,37,54,50,22,28,6,6,0.5,0.6
2025-12-26T2200,4011A,103.8506,30.6947,成都市,光华大道三段,细颗粒物(PM2.5),107,115,92,80,60,33,33,45,41,37,38,4,5,0.7,0.6
2025-12-26T2200,4224A,104.2433,30.5353,成都市,鲸龙路1057号,细颗粒物(PM2.5),78,76,81,57,53,18,18,46,37,36,38,6,6,0.7,0.6
2025-12-26T2200,1062A,117.9531,40.9081,承德市,铁路,细颗粒物(PM2.5),64,68,50,46,27,3,3,22,10,38,31,6,5,1.2,0.8
2025-12-26T2200,1063A,117.9392,40.9763,承德市,中国银行,细颗粒物(PM2.5),57,56,45,40,23,4,4,34,16,34,25,2,3,1.0,0.7
2025-12-26T2200,1064A,117.9503,40.928,承德市,开发区,颗粒物(PM10),69,87,53,40,29,4,4,29,14,40,34,8,6,1.0,0.7
2025-12-26T2200,4274A,117.7994,40.9605,承德市,滨河大街98号,颗粒物(PM10),52,53,48,33,27,4,4,23,14,40,32,4,4,0.9,0.7
2025-12-26T2200,2314A,117.47,30.6618,池州市,池州学院,,36,35,43,25,32,52,52,65,56,24,26,4,5,0.5,0.4
2025-12-26T2200,3237A,117.4918,30.6617,池州市,展览馆,,34,34,45,20,30,52,52,64,53,24,27,3,3,0.7,0.6
2025-12-26T2200,3333A,117.5627,30.695,池州市,第八中学,,34,34,46,22,31,52,52,66,55,26,32,4,5,0.9,0.9
2025-12-26T2200,3334A,117.5038,30.6243,池州市,第十二中学,,45,45,52,23,32,40,40,67,52,37,36,3,4,0.9,0.8
2025-12-26T2200,1744A,118.9233,42.2816,赤峰市,松山一中,细颗粒物(PM2.5),92,115,71,68,37,4,4,16,12,57,48,34,37,2.2,1.5
2025-12-26T2200,1745A,118.9576,42.2728,赤峰市,哈达街,细颗粒物(PM2.5),99,119,74,74,39,10,10,18,15,53,44,55,60,2.2,1.4
2025-12-26T2200,1746A,118.8788,42.2554,赤峰市,天义路,细颗粒物(PM2.5),85,84,51,63,44,4,4,17,10,56,44,32,34,2.0,1.6
2025-12-26T2200,3058A,119.2658,42.0353,赤峰市,银河街,细颗粒物(PM2.5),123,138,85,93,52,12,12,34,19,36,28,26,30,1.5,1.7
2025-12-26T2200,3286A,118.9359,42.3147,赤峰市,桥北物流园区,细颗粒物(PM2.5),149,139,73,114,49,10,10,27,19,48,38,35,34,2.4,1.4
2025-12-26T2200,2521A,107.3476,22.4136,崇左市,市环保局江州分局,颗粒物(PM10),66,81,52,37,22,57,57,88,83,28,10,10,8,0.6,0.4
2025-12-26T2200,4256A,107.3750,22.3736,崇左市,石景林东路7号,颗粒物(PM10),61,72,45,31,18,77,77,94,92,18,12,10,9,0.4,0.3
2025-12-26T2200,2298A,118.3093,32.3153,滁州市,老年大学,颗粒物(PM10),51,51,45,30,28,34,34,52,36,39,33,7,15,0.5,0.5
2025-12-26T2200,2299A,118.3244,32.2786,滁州市,人大宾馆,细颗粒物(PM2.5),52,52,45,36,26,31,31,49,38,37,28,6,6,0.5,0.5
2025-12-26T2200,3207A,118.3118,32.3038,滁州市,市政府原办公楼,"颗粒物(PM10),细颗粒物(PM2.5)",53,56,48,37,28,34,34,56,42,46,37,5,5,0.4,0.5
2025-12-26T2200,3331A,118.3267,32.2634,滁州市,图书馆,颗粒物(PM10),52,54,39,21,21,35,35,53,42,41,35,8,8,0.4,0.4
2025-12-26T2200,2605A,101.5482,25.0441,楚雄彝族自治州,州环境监测站,细颗粒物(PM2.5),55,49,26,39,18,4,4,59,49,52,13,7,6,0.8,0.7
2025-12-26T2200,2606A,101.538,25.0492,楚雄彝族自治州,市经济开发区,,47,47,29,28,19,25,25,64,56,34,14,7,7,0.8,0.6
2025-12-26T2200,2549A,107.5086,31.2186,达州市,市环境监测站,细颗粒物(PM2.5),77,84,63,56,39,3,3,23,18,41,34,8,8,0.8,0.5
2025-12-26T2200,2550A,107.4988,31.2132,达州市,凤凰小区,,,83,65,56,40,,,27,27,40,32,6,7,0.8,0.6
2025-12-26T2200,2551A,107.5082,31.1986,达州市,达县机关宾馆,细颗粒物(PM2.5),79,95,66,58,40,4,4,22,16,34,30,4,5,0.8,0.7
2025-12-26T2200,2552A,107.4644,31.2124,达州市,市政中心,颗粒物(PM10),76,101,78,44,38,4,4,25,19,45,33,7,8,1.2,0.8
2025-12-26T2200,2614A,100.1542,25.7054,大理白族自治州,大理市环境监测站,,22,20,21,15,20,63,63,68,67,10,10,6,6,0.5,0.5
2025-12-26T2200,2615A,100.2171,25.5811,大理白族自治州,大理古城,,40,40,22,23,16,33,33,111,58,25,15,8,8,0.6,0.7
2025-12-26T2200,1109A,121.612,38.9741,大连市,甘井子,,29,29,27,19,13,42,42,56,53,23,16,8,9,0.1,0.2
2025-12-26T2200,1110A,121.565,38.9511,大连市,周水子,细颗粒物(PM2.5),67,61,34,48,14,4,4,46,27,64,28,9,7,1.0,0.4
2025-12-26T2200,1111A,121.5637,38.8845,大连市,星海三站,,33,26,23,23,11,20,20,54,47,29,16,5,7,0.6,0.4
2025-12-26T2200,1112A,121.6302,38.9117,大连市,青泥洼桥,,39,39,26,21,10,23,23,48,40,32,17,6,10,0.6,0.5
2025-12-26T2200,1113A,121.6251,38.8638,大连市,傅家庄,,25,23,22,17,10,44,44,51,49,18,12,12,9,0.3,0.2
2025-12-26T2200,1114A,121.5213,38.8661,大连市,七贤岭,,27,27,29,15,13,56,56,51,48,14,20,7,8,0.6,0.5
2025-12-26T2200,1115A,121.2529,38.8061,大连市,旅顺,,33,31,20,23,12,40,40,51,47,25,12,6,6,0.4,0.3
2025-12-26T2200,1116A,121.7485,39.1311,大连市,金州,,29,29,31,18,17,46,46,51,48,14,14,6,8,0.4,0.4
2025-12-26T2200,1117A,121.7811,39.0496,大连市,开发区,,40,40,26,27,16,25,25,40,27,33,22,5,8,0.6,0.5
2025-12-26T2200,1118A,121.9762,39.0631,大连市,双D港,,26,26,29,14,13,50,50,65,63,10,10,8,10,0.3,0.5
2025-12-26T2200,1789A,124.81117,46.03138,大庆市,大同区,细颗粒物(PM2.5),63,,42,45,29,29,29,46,36,26,22,10,7,0.6,0.4
2025-12-26T2200,1790A,125.129,46.533,大庆市,龙凤区,细颗粒物(PM2.5),70,62,39,51,31,20,20,44,30,40,31,9,11,1.0,0.8
2025-12-26T2200,1791A,124.902,46.408,大庆市,红岗区,,40,40,28,21,17,27,27,42,34,24,23,7,6,0.7,0.6
2025-12-26T2200,1792A,125.153,46.586,大庆市,萨尔图区,,49,47,30,34,19,30,30,49,42,37,23,9,8,1.1,0.9
2025-12-26T2200,1793A,124.9042,46.6215,大庆市,让胡路区,细颗粒物(PM2.5),60,45,33,43,29,26,26,52,35,32,15,7,8,0.5,0.4
2025-12-26T2200,3481A,125.141,46.634,大庆市,萨区政府监测点,,35,33,31,24,15,20,20,48,36,38,24,23,10,0.7,0.6
2025-12-26T2200,1721A,113.3819,40.1097,大同市,果树场,细颗粒物(PM2.5),127,145,87,96,57,13,13,27,20,62,47,10,14,2.2,1.5
2025-12-26T2200,1723A,113.2994,40.0758,大同市,云冈宾馆,颗粒物(PM10),119,188,109,88,46,8,8,20,12,65,52,16,15,2.3,1.4
2025-12-26T2200,1724A,113.3444,40.0917,大同市,大同大学,颗粒物(PM10),91,132,78,51,38,5,5,26,15,66,50,18,12,1.3,1
2025-12-26T2200,1725A,113.2661,40.1269,大同市,安家小村,颗粒物(PM10),103,155,107,57,45,6,6,22,11,64,49,19,20,1.6,2
2025-12-26T2200,1726A,113.2711,40.0844,大同市,教育学院,颗粒物(PM10),136,222,109,82,51,4,4,18,9,66,54,17,16,2.6,1.7
2025-12-26T2200,3282A,113.3397,40.0597,大同市,大同市卫生学校,颗粒物(PM10),107,164,85,67,40,4,4,28,17,72,55,22,12,1.6,1
2025-12-26T2200,3565A,113.1367,40.1122,大同市,云冈站,颗粒物(PM10),60,69,64,32,31,4,4,46,24,57,36,12,20,0.6,0.7
2025-12-26T2200,3566A,113.1186,40.2556,大同市,图书馆,细颗粒物(PM2.5),67,60,52,48,33,20,20,47,43,40,25,12,14,1.4,0.8
2025-12-26T2200,3567A,113.5931,40.0461,大同市,区一中,细颗粒物(PM2.5),82,110,90,60,42,21,21,44,38,52,41,24,25,1.2,1
2025-12-26T2200,4199A,113.2798,40.0997,大同市,魏都大道141号,颗粒物(PM10),126,202,128,76,51,9,9,22,14,65,56,17,17,2.5,1.9
2025-12-26T2200,2269A,124.1069,50.4097,大兴安岭地区,科技局,,36,,21,25,18,31,31,56,48,37,8,6,5,0.2,0.2
2025-12-26T2200,3663A,124.1164,50.4278,大兴安岭地区,红旗社区,,16,9,8,8,6,51,51,62,53,9,5,3,2,0.3,0.2
2025-12-26T2200,1600A,124.3303,40.0625,丹东市,江湾东路,细颗粒物(PM2.5),54,51,62,38,35,24,24,43,26,30,23,14,15,1.1,1
2025-12-26T2200,1601A,124.4256,40.1503,丹东市,临江后街,细颗粒物(PM2.5),102,111,50,76,26,12,12,45,31,43,20,13,13,1.8,1.1
2025-12-26T2200,1602A,124.3933,40.1461,丹东市,元宝山,细颗粒物(PM2.5),80,81,34,59,18,5,5,47,36,55,16,23,13,1.6,0.7
2025-12-26T2200,1603A,124.3633,40.1092,丹东市,民主桥,颗粒物(PM10),53,56,54,24,27,32,32,44,28,23,22,9,11,0.8,0.8
2025-12-26T2200,3541A,109.5726,19.5167,儋州市,第一中学子站,颗粒物(PM10),52,53,44,24,19,48,48,38,38,8,8,4,4,0.6,0.7
2025-12-26T2200,3542A,109.5567,19.5187,儋州市,东坡学校子站,,,,34,34,22,,,42,41,,8,5,6,0.6,0.8
2025-12-26T2200,2616A,98.5842,24.428,德宏傣族景颇族自治州,德宏州监测站,细颗粒物(PM2.5),67,72,48,48,34,35,35,73,64,28,23,6,6,0.9,0.6
2025-12-26T2200,3677A,98.5881,24.4368,德宏傣族景颇族自治州,芒市人民政府综合楼,颗粒物(PM10),52,53,45,28,27,42,42,68,62,15,16,8,8,0.7,0.7
2025-12-26T2200,1901A,104.4239,31.1208,德阳市,东山公园,细颗粒物(PM2.5),70,65,65,51,47,36,36,53,52,15,15,2,2,0.7,0.6
2025-12-26T2200,1902A,104.3826,31.1317,德阳市,西小区,细颗粒物(PM2.5),92,109,85,68,52,10,10,43,37,48,29,3,2,0.9,0.7
2025-12-26T2200,1904A,104.3553,31.1091,德阳市,耐火材料厂,细颗粒物(PM2.5),103,101,82,77,55,18,18,45,40,46,35,4,2,0.9,0.8
2025-12-26T2200,3639A,104.4019,31.1244,德阳市,市教育局,细颗粒物(PM2.5),77,68,63,56,51,14,14,48,37,46,33,2,2,0.8,0.7
2025-12-26T2200,1622A,116.3032,37.4674,德州市,儿童乐园,细颗粒物(PM2.5),77,100,60,56,33,26,26,44,37,44,35,15,16,1.1,1
2025-12-26T2200,1624A,116.2991,37.4451,德州市,监理站,细颗粒物(PM2.5),73,92,59,53,30,32,32,51,44,48,38,17,17,0.8,0.7
2025-12-26T2200,3066A,116.2721,37.4379,德州市,九衢泉纯净水厂,细颗粒物(PM2.5),83,102,71,61,38,14,14,45,32,58,45,18,17,0.7,0.6
2025-12-26T2200,3371A,116.3728,37.4403,德州市,开发区人民医院,颗粒物(PM10),73,95,64,48,34,20,20,47,34,55,53,15,16,0.9,0.8
2025-12-26T2200,3511A,116.5652,37.3319,德州市,陵城艺术中心,颗粒物(PM10),63,75,55,44,28,23,23,38,32,44,45,14,19,1.2,1
2025-12-26T2200,4292A,116.3525,37.4209,德州市,新河东路,细颗粒物(PM2.5),85,92,67,63,40,13,13,44,34,60,52,14,16,1.1,1
2025-12-26T2200,2621A,99.7056,27.8317,迪庆藏族自治州,迪庆州站,颗粒物(PM10),52,54,26,27,18,37,37,66,59,27,12,7,5,0.9,0.5
2025-12-26T2200,3180A,99.7136,27.8094,迪庆藏族自治州,质量技术监督局,细颗粒物(PM2.5),67,,29,48,20,41,41,72,66,34,13,8,8,1.1,0.5
2025-12-26T2200,4257A,104.6092,35.5962,定西市,将台街,颗粒物(PM10),65,79,60,46,40,10,10,82,67,66,31,23,14,1.1,0.7
2025-12-26T2200,4309A,104.6159,35.5701,定西市,正龙路62号,颗粒物(PM10),58,65,62,29,37,45,45,82,75,19,12,14,9,0.9,0.7
2025-12-26T2200,1389A,113.7547,23.0494,东莞市,莞城梨川,,47,47,41,27,23,34,34,66,41,24,19,4,4,0.7,0.6
2025-12-26T2200,1390A,113.7944,23.0128,东莞市,东城石井,,48,48,38,28,23,33,33,63,41,25,20,10,9,0.8,0.6
2025-12-26T2200,1391A,113.7383,22.9658,东莞市,南城西平,颗粒物(PM10),51,51,40,31,21,24,24,56,36,35,27,9,9,0.7,0.6
2025-12-26T2200,3319A,113.7338,23.0381,东莞市,万江金泰,,48,48,40,29,22,32,32,64,40,23,17,6,6,0.7,0.6
2025-12-26T2200,3626A,113.7533,23.0202,东莞市,南城元岭,,46,46,39,27,20,36,36,69,45,25,21,9,9,0.6,0.5
2025-12-26T2200,3627A,113.7875,23.0457,东莞市,东城主山,,48,48,42,29,23,35,35,66,40,25,24,7,6,0.5,0.4
2025-12-26T2200,1666A,118.6614,37.4309,东营市,市环保局,颗粒物(PM10),57,63,32,34,16,8,8,42,27,59,43,14,14,0.8,0.8
2025-12-26T2200,3036A,118.6904,37.4338,东营市,开发区管委会,颗粒物(PM10),58,66,36,39,15,8,8,48,34,61,37,16,16,0.8,0.8
2025-12-26T2200,3365A,118.5719,37.565,东营市,垦利区民丰路,,,56,31,31,15,2,2,46,29,62,40,9,9,,0.9
2025-12-26T2200,3498A,118.5055,37.8612,东营市,河口城区,颗粒物(PM10),53,56,40,22,18,22,22,53,40,41,40,8,6,0.7,0.7
2025-12-26T2200,3646A,118.4978,37.4623,东营市,胜利站,细颗粒物(PM2.5),58,54,37,41,20,3,3,39,23,65,45,20,15,0.8,0.6
2025-12-26T2200,3734A,118.35,37.26,东营市,理想之城,颗粒物(PM10),53,56,35,34,21,0,0,28,17,55,45,12,10,0.8,0.7
2025-12-26T2200,1591A,110.0023,39.8129,鄂尔多斯市,综合楼,颗粒物(PM10),52,53,45,17,23,46,46,52,40,26,35,5,12,0.4,0.5
2025-12-26T2200,1592A,109.9486,39.8261,鄂尔多斯市,巴音孟克林场办事处,颗粒物(PM10),54,58,49,19,23,44,44,57,38,27,31,8,14,0.5,0.5
2025-12-26T2200,1593A,109.7736,39.5986,鄂尔多斯市,康泽苑,,44,44,47,19,25,35,35,72,70,32,28,6,8,0.4,0.5
2025-12-26T2200,1594A,109.8119,39.5989,鄂尔多斯市,华泰汽车城,颗粒物(PM10),52,53,53,19,22,32,32,70,67,36,34,5,6,0.5,0.5
2025-12-26T2200,1595A,109.9734,39.7884,鄂尔多斯市,奥林花园,颗粒物(PM10),58,66,64,14,22,37,37,51,37,35,46,7,11,0.4,0.5
2025-12-26T2200,2436A,114.8938,30.3994,鄂州市,市政府,,49,47,58,34,41,38,38,68,59,36,30,9,7,0.9,0.6
2025-12-26T2200,2437A,114.8989,30.3714,鄂州市,赵家坝,颗粒物(PM10),54,57,67,36,42,32,32,64,52,26,23,9,8,1.0,0.7
2025-12-26T2200,3654A,114.8094,30.4089,鄂州市,精准医疗中心,颗粒物(PM10),59,67,74,36,48,45,45,71,60,32,29,6,5,0.9,1
2025-12-26T2200,2454A,109.4978,30.2981,恩施土家族苗族自治州,湖北民院,细颗粒物(PM2.5),79,77,49,58,35,11,11,63,55,28,14,6,6,0.9,0.7
2025-12-26T2200,2455A,109.4707,30.2798,恩施土家族苗族自治州,州电力总公司,细颗粒物(PM2.5),73,,33,53,36,6,6,50,41,33,18,6,6,0.7,0.5
2025-12-26T2200,3549A,109.5061,30.3772,恩施土家族苗族自治州,龙凤新区,颗粒物(PM10),63,75,54,42,30,18,18,49,42,9,9,6,6,0.6,0.5
2025-12-26T2200,2499A,108.3411,21.6158,防城港市,沙万,颗粒物(PM10),60,70,56,27,21,69,69,91,88,24,14,5,5,0.3,0.3
2025-12-26T2200,2500A,108.3514,21.7731,防城港市,防城档案局,颗粒物(PM10),74,97,66,26,11,63,63,87,78,24,16,5,5,0.5,0.5
2025-12-26T2200,2501A,108.3506,21.6414,防城港市,大海花园,颗粒物(PM10),51,52,49,32,23,86,86,100,97,17,13,7,7,0.6,0.5
2025-12-26T2200,1371A,113.1294,23.0067,佛山市,湾梁,颗粒物(PM10),53,56,46,22,14,26,26,63,36,36,29,6,8,0.7,0.5
2025-12-26T2200,1372A,113.1083,23.0478,佛山市,华材职中,,44,44,47,25,22,28,28,65,38,35,29,5,7,0.8,0.7
2025-12-26T2200,1373A,113.144,23.0453,佛山市,南海气象局,,43,42,40,30,16,25,25,63,34,36,30,6,8,0.6,0.5
2025-12-26T2200,1374A,113.2881,22.8094,佛山市,顺德苏岗,颗粒物(PM10),57,63,35,34,21,13,13,54,29,45,27,6,6,0.7,0.6
2025-12-26T2200,1376A,112.8383,22.8678,佛山市,高明孔堂,颗粒物(PM10),57,64,46,38,23,14,14,66,40,50,25,7,7,0.7,0.6
2025-12-26T2200,1377A,112.8836,23.1588,佛山市,三水监测站,颗粒物(PM10),52,53,44,34,32,23,23,60,43,43,26,7,6,0.7,0.7
2025-12-26T2200,1378A,112.867,23.185,佛山市,三水云东海,,45,38,39,31,24,23,23,62,43,41,27,4,4,0.4,0.3
2025-12-26T2200,3625A,113.2544,22.7642,佛山市,容桂街道办,颗粒物(PM10),52,53,39,31,22,14,14,57,33,45,26,6,6,0.7,0.5
2025-12-26T2200,1282A,119.2681,26.0504,福州市,师大,,29,29,28,12,35,80,80,80,80,22,22,7,8,0.4,0.5
2025-12-26T2200,1283A,119.2984,26.1028,福州市,五四北路,,31,31,26,12,18,81,81,81,81,19,17,5,6,0.5,0.5
2025-12-26T2200,1284A,119.2648,26.0768,福州市,杨桥西路,,28,28,27,9,13,82,82,80,80,12,13,4,5,0.5,0.5
2025-12-26T2200,1285A,119.317,26.0746,福州市,紫阳,,30,30,32,12,19,84,84,83,83,16,18,7,9,0.4,0.5
2025-12-26T2200,3048A,119.5799,26.0936,福州市,九龙,,25,24,29,8,17,78,78,90,88,18,19,4,6,0.4,0.4
2025-12-26T2200,3526A,119.5189,25.9664,福州市,吴航,,25,24,32,13,21,80,80,90,89,18,18,6,5,0.4,0.4
2025-12-26T2200,1755A,123.7977,41.8491,抚顺市,望花区,颗粒物(PM10),115,179,101,78,63,5,5,35,20,58,41,4,5,1.5,1.3
2025-12-26T2200,1756A,123.9161,41.8822,抚顺市,顺城区,细颗粒物(PM2.5),113,126,86,85,57,7,7,36,23,56,41,9,10,1.9,1.3
2025-12-26T2200,1757A,124.0436,41.8611,抚顺市,东洲区,细颗粒物(PM2.5),92,77,73,68,53,5,5,32,19,52,37,8,8,1.6,1.2
2025-12-26T2200,1758A,123.9247,41.8642,抚顺市,新抚区,细颗粒物(PM2.5),109,111,79,82,53,4,4,32,17,52,40,10,10,1.6,1.2
2025-12-26T2200,1759A,124.0972,41.8961,抚顺市,大伙房水库,细颗粒物(PM2.5),54,46,65,38,43,20,20,35,29,35,34,13,12,1.0,1.1
2025-12-26T2200,1760A,123.7086,41.8391,抚顺市,沈抚新城,细颗粒物(PM2.5),166,133,80,126,84,12,12,34,19,55,43,13,9,1.7,1.1
2025-12-26T2200,2377A,116.3544,27.9831,抚州市,市站,,,70,58,39,34,,,91,,16,15,,7,0.9,0.8
2025-12-26T2200,2378A,116.3565,27.963,抚州市,血防站,细颗粒物(PM2.5),59,65,56,42,34,86,86,88,87,16,17,5,5,0.8,0.7
2025-12-26T2200,2379A,116.3564,28.0007,抚州市,采茶剧团,细颗粒物(PM2.5),65,64,59,47,36,72,72,92,88,11,9,5,6,1.0,1
2025-12-26T2200,2380A,116.385,27.9647,抚州市,医学分院,颗粒物(PM10),65,79,63,42,32,77,77,91,88,15,12,45,10,1.0,0.9
2025-12-26T2200,2207A,121.6094,41.998,阜新市,工业园区,细颗粒物(PM2.5),75,66,45,55,27,14,14,48,35,36,20,39,17,0.7,0.5
2025-12-26T2200,2208A,121.6697,42.0279,阜新市,长青街,细颗粒物(PM2.5),70,60,34,51,22,25,25,48,38,33,17,80,17,0.7,0.5
2025-12-26T2200,2209A,121.6673,42.0705,阜新市,农业园区,,49,46,32,34,17,23,23,47,38,33,14,49,15,0.6,0.4
2025-12-26T2200,2210A,121.6717,42.0224,阜新市,东苑,,49,49,37,32,15,21,21,47,36,38,18,52,12,0.8,0.6
2025-12-26T2200,2211A,121.6506,42.0498,阜新市,玉龙新城,细颗粒物(PM2.5),93,71,47,69,24,5,5,46,31,48,29,10,12,1.1,0.7
2025-12-26T2200,2301A,115.8277,32.8929,阜阳市,市监测站,颗粒物(PM10),66,81,71,43,44,19,19,62,48,43,39,4,5,0.5,0.4
2025-12-26T2200,2303A,115.8554,32.8605,阜阳市,开发区,细颗粒物(PM2.5),62,,62,44,43,34,34,56,46,33,33,6,6,0.4,0.5
2025-12-26T2200,2875A,115.784,32.8892,阜阳市,阜阳职业技术学院,,43,43,49,30,34,45,45,70,61,28,24,7,7,0.5,0.4
2025-12-26T2200,3468A,115.7901,32.8613,阜阳市,市规划展馆,颗粒物(PM10),55,59,59,32,36,27,27,68,55,40,28,6,7,0.4,0.4
2025-12-26T2200,3469A,115.836,32.9183,阜阳市,枣园社区,颗粒物(PM10),57,64,61,39,38,27,27,63,50,42,31,6,6,0.5,0.4
2025-12-26T2200,2669A,102.9099,34.9841,甘南藏族自治州,州政府,颗粒物(PM10),60,70,49,34,29,13,13,76,,57,32,12,10,0.8,0.7
2025-12-26T2200,3380A,102.8914,34.9617,甘南藏族自治州,甘肃民族师范学院,颗粒物(PM10),74,98,66,20,21,1,1,48,32,63,34,7,7,0.8,0.8
2025-12-26T2200,2570A,101.9603,30.0475,甘孜藏族自治州,水桥子,,,35,20,15,7,,,65,65,50,20,6,7,0.5,0.7
2025-12-26T2200,3065A,101.9533,29.9972,甘孜藏族自治州,州环保局,,36,36,27,11,7,41,41,60,55,24,20,5,6,0.4,0.4
2025-12-26T2200,3414A,115.8347,28.932,赣江新区,桑海产业园,细颗粒物(PM2.5),72,90,77,52,51,3,3,89,64,69,28,9,9,0.9,0.8
2025-12-26T2200,2362A,114.9017,25.9149,赣州市,通天岩,,36,36,43,24,23,41,41,81,59,5,6,16,17,1.4,1.3
2025-12-26T2200,2363A,114.9367,25.8664,赣州市,地委,颗粒物(PM10),61,72,61,30,29,70,70,89,84,21,14,8,8,0.8,0.7
2025-12-26T2200,2364A,114.9461,25.8481,赣州市,气象台,颗粒物(PM10),60,70,69,29,27,75,75,91,83,26,18,6,6,0.8,0.7
2025-12-26T2200,2365A,114.9322,25.8333,赣州市,市图书馆,,50,50,54,26,29,69,69,79,77,25,19,4,4,0.7,0.6
2025-12-26T2200,2366A,114.8905,25.8471,赣州市,华坚鞋城,颗粒物(PM10),53,55,56,32,30,72,72,77,75,22,16,6,6,0.5,0.4
2025-12-26T2200,3109A,115.0093,25.8613,赣州市,赣县区卫计委,细颗粒物(PM2.5),63,60,62,45,42,18,18,87,70,48,12,8,8,0.5,0.5
2025-12-26T2200,2684A,106.2792,36.0022,固原市,监测站,细颗粒物(PM2.5),95,95,57,71,32,22,22,77,57,57,34,13,7,1.8,1
2025-12-26T2200,2685A,106.2375,36.0211,固原市,新区,颗粒物(PM10),70,90,63,36,38,56,56,78,49,31,39,4,4,0.7,1
2025-12-26T2200,3522A,106.2177,35.9959,固原市,原州区十五小,,25,21,47,11,23,80,80,77,67,9,22,3,4,0.4,0.6
2025-12-26T2200,2544A,106.6303,30.4576,广安市,市委,细颗粒物(PM2.5),65,57,58,47,42,25,25,36,36,24,25,3,3,0.9,0.9
2025-12-26T2200,2545A,106.6271,30.4663,广安市,友谊中学,,,62,53,47,43,,,41,40,19,20,4,3,0.6,0.7
2025-12-26T2200,2547A,106.6388,30.4551,广安市,广电花园,细颗粒物(PM2.5),68,62,51,49,43,10,10,26,20,35,25,8,5,0.8,0.7
2025-12-26T2200,2902A,106.6351,30.4865,广安市,北辰小学,细颗粒物(PM2.5),67,62,53,48,44,33,33,41,41,14,16,11,10,0.8,0.8
2025-12-26T2200,2524A,105.821,32.4444,广元市,老城,细颗粒物(PM2.5),60,59,56,43,33,6,6,59,45,58,42,5,6,0.7,0.9
2025-12-26T2200,2526A,105.8628,32.4287,广元市,监测站,颗粒物(PM10),58,65,61,37,35,19,19,51,43,38,34,4,9,0.8,0.8
2025-12-26T2200,3617A,105.8047,32.4166,广元市,经开区,颗粒物(PM10),58,65,67,38,35,11,11,36,31,47,44,3,5,0.8,0.8
2025-12-26T2200,1345A,113.2347,23.1423,广州市,广雅中学,,,61,56,34,32,,,60,34,30,25,2,4,0.5,0.5
2025-12-26T2200,1346A,113.2612,23.105,广州市,市五中,颗粒物(PM10),51,51,49,29,33,35,35,70,47,32,29,8,8,0.6,0.5
2025-12-26T2200,1348A,113.3478,23.0916,广州市,广东商学院,,43,40,43,30,27,24,24,63,40,28,17,6,6,0.7,0.6
2025-12-26T2200,1349A,113.4332,23.1047,广州市,市八十六中,,43,37,38,30,30,24,24,64,38,31,22,7,7,1.0,0.8
2025-12-26T2200,1350A,113.3505,22.9483,广州市,番禺中学,颗粒物(PM10),52,54,47,35,30,19,19,57,36,43,32,6,5,0.9,0.6
2025-12-26T2200,1351A,113.2146,23.3916,广州市,花都师范,颗粒物(PM10),52,53,49,32,27,34,34,71,47,30,19,6,7,0.6,0.5
2025-12-26T2200,1352A,113.2597,23.1331,广州市,市监测站,颗粒物(PM10),54,57,55,30,32,24,24,64,37,28,22,2,4,0.7,0.6
2025-12-26T2200,1353A,113.5618,23.312,广州市,九龙镇镇龙,,48,48,44,31,26,33,33,64,45,16,15,5,6,0.6,0.5
2025-12-26T2200,1354A,113.2765,23.1544,广州市,麓湖,颗粒物(PM10),53,55,52,35,33,19,19,58,33,37,29,8,10,0.6,0.6
2025-12-26T2200,2846A,113.3221,23.1322,广州市,体育西,颗粒物(PM10),51,51,49,32,31,32,32,62,40,22,20,5,6,0.6,0.5
2025-12-26T2200,3298A,113.5717,23.5491,广州市,从化街口,,37,37,42,24,26,32,32,74,46,23,14,7,8,0.6,0.5
2025-12-26T2200,3299A,113.3472,23.3692,广州市,白云竹料,颗粒物(PM10),51,51,42,31,27,33,33,74,50,25,16,4,6,0.7,0.6
2025-12-26T2200,3300A,113.2981,23.237,广州市,白云嘉禾,颗粒物(PM10),52,54,49,30,28,26,26,72,39,32,23,4,6,0.7,0.6
2025-12-26T2200,3301A,113.4256,23.1716,广州市,黄埔科学城,,41,41,45,25,27,32,32,71,44,23,18,6,7,0.7,0.6
2025-12-26T2200,3302A,113.3942,23.0483,广州市,番禺大学城,,48,48,38,30,24,29,29,62,41,28,19,10,7,0.6,0.6
2025-12-26T2200,3303A,113.4922,22.8168,广州市,南沙黄阁,颗粒物(PM10),55,59,45,36,27,24,24,62,36,41,31,12,9,1.0,0.9
2025-12-26T2200,3304A,113.5342,22.7896,广州市,南沙街,颗粒物(PM10),56,61,45,34,26,18,18,57,33,41,29,8,9,0.6,0.5
2025-12-26T2200,3443A,113.2902,23.5544,广州市,花都梯面,,41,41,40,24,25,35,35,73,49,17,13,7,7,0.6,0.5
2025-12-26T2200,3445A,113.7858,23.7478,广州市,从化良口,,36,34,40,25,25,20,20,74,40,28,15,8,8,0.6,0.5
2025-12-26T2200,3446A,113.8051,23.2614,广州市,增城荔城,,36,36,34,24,23,39,39,67,46,16,12,9,8,0.6,0.5
2025-12-26T2200,2506A,109.6047,23.0666,贵港市,江南子站,细颗粒物(PM2.5),59,61,58,42,28,69,69,92,88,24,20,7,8,0.6,0.5
2025-12-26T2200,2508A,109.5669,23.1065,贵港市,荷城子站,颗粒物(PM10),52,53,52,34,25,61,61,88,83,23,16,5,5,0.7,0.6
2025-12-26T2200,4260A,109.5933,23.0951,贵港市,中山路155-3号,细颗粒物(PM2.5),53,50,51,37,27,77,77,98,95,19,16,6,6,0.5,0.5
2025-12-26T2200,1439A,106.6899,26.5998,贵阳市,马鞍山,颗粒物(PM10),52,53,53,27,23,56,56,52,52,13,18,8,8,0.5,0.5
2025-12-26T2200,1441A,106.6243,26.6266,贵阳市,鉴湖路,颗粒物(PM10),58,66,66,36,26,52,52,68,56,24,22,6,6,0.4,0.5
2025-12-26T2200,1442A,106.7487,26.6343,贵阳市,燕子冲,颗粒物(PM10),57,63,57,39,35,65,65,66,64,12,13,11,10,0.5,0.6
2025-12-26T2200,1443A,106.6555,26.4365,贵阳市,碧云窝,颗粒物(PM10),68,85,74,34,30,50,50,62,58,21,18,12,10,0.4,0.3
2025-12-26T2200,1445A,106.7109,26.6027,贵阳市,红边门,颗粒物(PM10),59,68,61,41,31,62,62,60,57,16,18,16,12,0.4,0.4
2025-12-26T2200,1446A,106.7164,26.5699,贵阳市,新华路,颗粒物(PM10),63,75,72,36,28,54,54,60,56,17,16,11,7,0.5,0.4
2025-12-26T2200,1447A,106.674,26.5424,贵阳市,太慈桥,颗粒物(PM10),60,70,62,31,27,51,51,61,58,25,20,11,8,0.4,0.3
2025-12-26T2200,1552A,106.805,26.3003,贵阳市,桐木岭,颗粒物(PM10),59,68,70,31,34,66,66,78,74,7,6,18,15,0.6,0.6
2025-12-26T2200,4230A,106.6882,26.5695,贵阳市,花果园大街66号,颗粒物(PM10),57,63,53,31,24,45,45,48,47,20,19,9,5,0.5,0.3
2025-12-26T2200,4231A,106.6873,26.5169,贵阳市,漓江路57号,颗粒物(PM10),57,63,65,34,29,46,46,60,51,22,21,14,9,0.7,0.6
2025-12-26T2200,1864A,110.3089,25.2708,桂林市,龙隐路小学,细颗粒物(PM2.5),63,54,56,45,40,76,76,93,86,16,11,8,8,0.5,0.4
2025-12-26T2200,1865A,110.2869,25.2178,桂林市,八中,细颗粒物(PM2.5),63,60,56,45,38,52,52,91,82,37,19,8,9,0.4,0.4
2025-12-26T2200,3531A,110.296,25.1253,桂林市,旅游学院,细颗粒物(PM2.5),77,83,57,56,31,15,15,98,78,66,16,4,5,0.7,0.5
2025-12-26T2200,4222A,110.1835,25.2444,桂林市,环湖路276号,细颗粒物(PM2.5),62,61,65,44,36,54,54,89,76,30,15,9,7,0.4,0.4
2025-12-26T2200,4301A,110.2803,25.2773,桂林市,信义路13号,细颗粒物(PM2.5),55,54,55,39,36,70,70,94,85,22,16,6,6,0.5,0.4
2025-12-26T2200,2674A,100.2561,34.4714,果洛藏族自治州,玛沁县大武镇,,36,36,40,21,17,65,65,87,84,7,5,14,16,0.4,0.3
2025-12-26T2200,1130A,126.561,45.8167,哈尔滨市,松北商大,细颗粒物(PM2.5),64,62,40,46,31,32,32,35,30,25,26,9,7,0.7,0.6
2025-12-26T2200,1132A,126.599,45.7222,哈尔滨市,南岗学府路,颗粒物(PM10),65,80,45,46,32,22,22,39,31,29,24,8,11,0.8,0.6
2025-12-26T2200,1133A,126.689,45.7733,哈尔滨市,太平宏伟公园,细颗粒物(PM2.5),62,55,32,44,24,27,27,44,33,31,19,21,19,0.8,0.7
2025-12-26T2200,1134A,126.635,45.7667,哈尔滨市,道外承德广场,细颗粒物(PM2.5),67,78,49,48,28,17,17,41,24,45,26,10,10,1.9,1.2
2025-12-26T2200,1136A,126.6411,45.7258,哈尔滨市,动力和平路,细颗粒物(PM2.5),62,58,41,44,29,23,23,39,30,33,26,10,14,0.9,0.8
2025-12-26T2200,1137A,126.593,45.7478,哈尔滨市,道里建国路,细颗粒物(PM2.5),80,66,39,59,35,17,17,39,24,42,25,13,8,0.5,0.5
2025-12-26T2200,1138A,126.615,45.61,哈尔滨市,平房东轻厂,细颗粒物(PM2.5),97,78,54,72,44,10,10,35,25,46,33,8,10,1.1,0.9
2025-12-26T2200,1139A,126.595,45.9855,哈尔滨市,呼兰师专,细颗粒物(PM2.5),68,56,51,49,51,26,26,34,27,26,27,10,10,0.8,0.9
2025-12-26T2200,1140A,126.6206,45.6842,哈尔滨市,省农科院,细颗粒物(PM2.5),115,100,60,87,51,9,9,34,18,55,39,13,12,1.0,0.8
2025-12-26T2200,4282A,126.6769,45.7379,哈尔滨市,华山路1号,细颗粒物(PM2.5),82,75,37,60,29,19,19,39,27,41,28,12,10,0.8,0.6
2025-12-26T2200,4283A,126.9717,45.5356,哈尔滨市,解放大街52号,细颗粒物(PM2.5),144,,71,110,68,17,17,34,30,41,30,7,9,1.2,1.1
2025-12-26T2200,2688A,93.5128,42.8172,哈密市,地区监测站,颗粒物(PM10),79,107,72,49,37,22,22,50,34,41,24,5,6,0.5,0.3
2025-12-26T2200,2689A,93.4961,42.8328,哈密市,哈密师范学校,颗粒物(PM10),83,116,75,41,32,12,12,31,21,44,37,11,11,0.6,0.6
2025-12-26T2200,2671A,100.9048,36.9639,海北藏族自治州,海晏县西海镇,,32,,25,22,18,76,76,95,91,3,5,6,7,0.4,0.4
2025-12-26T2200,3867A,102.0738,36.5056,海东市,平安区公安北苑,细颗粒物(PM2.5),70,64,83,51,60,56,56,65,64,26,26,52,29,1.0,1.3
2025-12-26T2200,1410A,110.3232,20.0574,海口市,海南大学,,,40,32,23,16,,,68,,8,9,6,6,,0.5
2025-12-26T2200,1411A,110.283,20.0053,海口市,秀英海南医院,,34,34,30,22,17,80,80,72,72,11,11,8,8,0.4,0.5
2025-12-26T2200,1412A,110.338,19.9969,海口市,海南师范大学,,34,34,28,22,18,85,85,78,78,12,12,6,6,0.5,0.6
2025-12-26T2200,1413A,110.33,20.0356,海口市,龙华路环保局宿舍,,36,33,28,25,18,88,88,81,81,10,11,8,8,0.6,0.7
2025-12-26T2200,3539A,110.5111,19.9736,海口市,桂林洋子站,,38,38,33,24,17,82,82,79,79,11,12,8,8,0.4,0.5
2025-12-26T2200,2673A,100.6188,36.2866,海南藏族自治州,共和县恰卜恰镇,颗粒物(PM10),56,61,45,27,24,15,15,90,64,55,26,21,12,0.8,0.7
2025-12-26T2200,2676A,97.3731,37.3753,海西蒙古族藏族自治州,德令哈市,,39,39,26,8,12,74,74,90,86,4,5,14,13,0.4,0.3
2025-12-26T2200,1048A,114.5302,36.6116,邯郸市,东污水处理厂,细颗粒物(PM2.5),100,87,62,75,58,18,18,53,44,44,33,4,7,0.7,0.6
2025-12-26T2200,1049A,114.4918,36.5713,邯郸市,矿院,细颗粒物(PM2.5),113,,67,85,63,28,28,54,48,47,43,21,7,0.6,0.6
2025-12-26T2200,1050A,114.484,36.6133,邯郸市,丛台公园,细颗粒物(PM2.5),94,89,62,70,52,37,37,57,54,29,29,14,8,0.6,0.5
2025-12-26T2200,3458A,114.7895,36.5593,邯郸市,香泉濮院小区,细颗粒物(PM2.5),93,94,69,69,54,41,41,64,60,29,29,3,6,0.6,0.6
2025-12-26T2200,3579A,114.50634,36.77178,邯郸市,永年区实验高中,颗粒物(PM10),71,91,67,45,34,20,20,52,45,53,42,4,5,0.6,0.6
2025-12-26T2200,3580A,114.20016,36.44293,邯郸市,峰峰矿区临水派出所,细颗粒物(PM2.5),160,,66,122,75,33,33,55,49,42,28,8,9,0.8,0.9
2025-12-26T2200,2635A,107.0154,33.0706,汉中市,市监测站,细颗粒物(PM2.5),119,113,79,90,54,22,22,62,50,48,37,6,6,1.0,0.8
2025-12-26T2200,2636A,107.0089,33.1138,汉中市,鑫源开发区,细颗粒物(PM2.5),95,89,81,71,52,14,14,68,46,59,40,7,8,1.1,0.9
2025-12-26T2200,2637A,107.007,33.0323,汉中市,南郑大河坎水厂,细颗粒物(PM2.5),115,138,86,87,52,20,20,61,46,34,27,6,6,1.1,0.9
2025-12-26T2200,1223A,120.2072,30.2111,杭州市,滨江,颗粒物(PM10),59,68,38,40,22,22,22,57,40,59,37,11,10,0.3,0.4
2025-12-26T2200,1224A,120.0633,30.2747,杭州市,西溪,,45,45,38,26,19,12,12,56,39,42,36,8,9,1.1,1
2025-12-26T2200,1226A,120.3417,30.3150,杭州市,下沙,,48,48,40,25,22,5,5,58,36,80,44,10,9,0.7,0.7
2025-12-26T2200,1227A,120.1269,30.2456,杭州市,卧龙桥,,41,41,32,25,17,11,11,59,32,35,27,9,10,0.6,0.6
2025-12-26T2200,1228A,120.1903,30.2692,杭州市,浙江农大,细颗粒物(PM2.5),59,62,35,42,20,22,22,60,44,65,45,6,4,0.6,0.5
2025-12-26T2200,1230A,120.1197,30.3119,杭州市,和睦小学,颗粒物(PM10),55,59,35,33,24,25,25,60,48,59,38,7,6,0.7,0.6
2025-12-26T2200,1231A,120.3019,30.4183,杭州市,临平镇,颗粒物(PM10),65,79,38,38,20,1,1,61,32,76,30,8,8,0.7,0.6
2025-12-26T2200,1232A,120.2753,30.1839,杭州市,城厢镇,颗粒物(PM10),51,51,43,35,20,2,2,64,44,80,30,11,10,0.3,0.3
2025-12-26T2200,1233A,120.0883,30.1808,杭州市,云栖,,40,40,36,26,18,18,18,65,38,32,25,3,4,0.8,0.8
2025-12-26T2200,3557A,119.9464,30.0494,杭州市,镇二中,,33,33,34,22,27,16,16,58,42,52,40,5,5,0.6,0.6
2025-12-26T2200,3558A,119.7183,30.2367,杭州市,市府大楼,细颗粒物(PM2.5),62,67,51,44,35,3,3,57,33,49,28,9,10,0.9,0.7
2025-12-26T2200,3656A,120.1556,30.2864,杭州市,消防大队,细颗粒物(PM2.5),55,49,37,39,23,20,20,58,43,53,33,8,7,0.8,0.7
2025-12-26T2200,1270A,117.1959,31.7848,合肥市,明珠广场,,44,44,47,24,23,40,40,54,47,31,41,7,7,0.6,0.8
2025-12-26T2200,1271A,117.3072,31.8764,合肥市,三里街,颗粒物(PM10),53,56,47,27,24,16,16,50,35,61,52,8,7,0.8,0.7
2025-12-26T2200,1272A,117.2588,31.8707,合肥市,琥珀山庄,,44,44,46,25,26,35,35,55,45,41,41,10,9,0.9,0.8
2025-12-26T2200,1274A,117.25,31.8571,合肥市,长江中路,,39,39,45,23,26,39,39,52,46,35,35,10,9,0.7,0.7
2025-12-26T2200,1275A,117.266,31.9436,合肥市,庐阳区,,46,46,54,24,25,26,26,56,39,43,42,12,12,0.8,0.7
2025-12-26T2200,1276A,117.3453,31.8616,合肥市,瑶海区,,41,41,48,24,23,16,16,55,38,62,50,7,7,0.7,0.6
2025-12-26T2200,1277A,117.3027,31.7964,合肥市,包河区,,42,41,52,29,29,39,39,55,47,33,56,9,10,0.8,0.7
2025-12-26T2200,1278A,117.2776,31.7385,合肥市,滨湖新区,,45,41,41,31,28,44,44,60,52,32,32,6,6,0.9,0.8
2025-12-26T2200,1279A,117.1318,31.8403,合肥市,高新区,,39,39,45,22,24,35,35,57,47,48,45,7,6,0.6,0.6
2025-12-26T2200,3464A,117.3803,31.9147,合肥市,高教基地,,41,41,43,26,24,38,38,53,41,28,32,9,8,0.8,0.6
2025-12-26T2200,3614A,79.924,37.0877,和田地区,地区环保局,颗粒物(PM10),130,210,206,56,53,7,7,45,38,53,21,4,2,0.5,0.4
2025-12-26T2200,3615A,79.9131,37.113,和田地区,市环保局,颗粒物(PM10),131,212,233,55,48,24,24,54,42,40,22,1,2,1.8,1
2025-12-26T2200,2517A,108.0497,24.6947,河池市,市环保站,颗粒物(PM10),53,55,51,26,21,75,75,81,79,11,19,7,4,0.7,0.7
2025-12-26T2200,1697A,114.6944,23.7586,河源市,东埔,,46,34,38,32,28,33,33,64,42,26,14,6,7,0.7,0.7
2025-12-26T2200,1698A,114.6892,23.7233,河源市,老城,,39,39,38,26,27,43,43,65,46,17,11,6,7,0.7,0.7
2025-12-26T2200,1718A,115.4208,35.2464,菏泽市,气象局,细颗粒物(PM2.5),78,88,71,57,39,41,41,60,52,36,32,5,6,0.5,0.5
2025-12-26T2200,3374A,115.5564,35.0891,菏泽市,定陶老年大学,细颗粒物(PM2.5),67,68,60,48,36,40,40,54,49,28,34,5,8,0.4,0.3
2025-12-26T2200,4184A,115.4797,35.24401,菏泽市,永昌路1号,细颗粒物(PM2.5),70,73,75,51,44,40,40,42,42,29,35,5,8,0.8,0.5
2025-12-26T2200,4193A,115.4715,35.2800,菏泽市,长城路999号,颗粒物(PM10),63,75,72,44,35,46,46,57,52,28,33,4,6,0.6,0.6
2025-12-26T2200,2514A,111.5264,24.4172,贺州市,环保小区,细颗粒物(PM2.5),78,69,51,57,39,29,29,81,65,26,19,6,6,0.8,0.7
2025-12-26T2200,2515A,111.5608,24.4078,贺州市,政协大楼,,48,,43,33,30,32,32,87,69,28,16,8,8,0.6,0.7
2025-12-26T2200,3534A,111.4744,24.4553,贺州市,西湾,细颗粒物(PM2.5),62,72,60,44,38,18,18,78,56,38,21,7,7,0.7,0.5
2025-12-26T2200,2385A,114.17,35.9019,鹤壁市,市监测站,细颗粒物(PM2.5),119,100,90,90,69,19,19,45,38,33,30,3,4,0.9,0.7
2025-12-26T2200,2386A,114.2956,35.7511,鹤壁市,市交警支队,颗粒物(PM10),89,127,91,65,60,13,13,40,31,53,41,7,6,0.7,0.6
2025-12-26T2200,2387A,114.2878,35.7306,鹤壁市,迎宾馆,细颗粒物(PM2.5),110,128,98,83,63,17,17,51,40,53,39,6,5,0.8,0.7
2025-12-26T2200,3474A,114.2617,35.6822,鹤壁市,大新区,细颗粒物(PM2.5),98,120,89,73,62,8,8,46,31,58,41,7,6,0.8,0.7
2025-12-26T2200,3596A,114.1572,35.9603,鹤壁市,南山宾馆,细颗粒物(PM2.5),133,143,101,101,67,28,28,49,45,37,26,5,6,0.7,0.6
2025-12-26T2200,2244A,130.2537,47.3416,鹤岗市,哈啤分公司,,25,19,20,17,15,60,60,57,57,5,4,6,7,0.4,0.3
2025-12-26T2200,2245A,130.2684,47.3086,鹤岗市,斯达机电,,26,26,24,15,16,62,62,58,57,6,6,5,5,0.5,0.5
2025-12-26T2200,2246A,130.3114,47.3388,鹤岗市,东山纸板厂,,38,38,22,19,16,61,61,58,57,3,4,6,6,0.6,0.6
2025-12-26T2200,2263A,127.4833,50.2524,黑河市,交通局,,36,,15,25,13,54,54,62,54,12,9,4,4,0.4,0.3
2025-12-26T2200,2264A,127.5144,50.2341,黑河市,环保局,,32,,16,22,17,51,51,60,47,18,13,4,4,0.4,0.4
2025-12-26T2200,1074A,115.6838,37.7541,衡水市,电机北厂,细颗粒物(PM2.5),93,96,58,69,35,15,15,45,35,48,34,9,8,0.7,0.5
2025-12-26T2200,1075A,115.6303,37.7316,衡水市,市监测站,细颗粒物(PM2.5),85,89,60,63,36,18,18,44,36,48,36,8,8,0.7,0.6
2025-12-26T2200,3188A,115.6683,37.7217,衡水市,市城管局,细颗粒物(PM2.5),79,96,63,58,37,15,15,46,34,57,37,9,9,0.7,0.6
2025-12-26T2200,3459A,115.5989,37.5491,衡水市,地表水厂,细颗粒物(PM2.5),89,88,58,66,43,9,9,50,29,51,41,6,6,0.7,0.6
2025-12-26T2200,2457A,112.6194,26.9258,衡阳市,衡阳化工总厂,细颗粒物(PM2.5),60,61,56,43,43,49,49,87,77,28,21,6,9,0.8,0.8
2025-12-26T2200,2458A,112.6211,26.8956,衡阳市,珠晖区环保局,细颗粒物(PM2.5),62,55,54,44,42,34,34,74,62,50,29,4,5,1.0,1
2025-12-26T2200,2459A,112.6197,26.8733,衡阳市,市委党校,细颗粒物(PM2.5),64,75,53,46,42,63,63,86,77,24,19,8,8,0.8,0.8
2025-12-26T2200,2460A,112.6006,26.8919,衡阳市,市监测站,细颗粒物(PM2.5),94,92,78,70,49,60,60,83,71,22,22,8,9,0.7,0.7
2025-12-26T2200,2461A,112.5664,26.9056,衡阳市,真空机电公司,细颗粒物(PM2.5),110,120,73,83,44,23,23,84,68,65,28,62,14,1.1,0.8
2025-12-26T2200,3399A,112.6703,26.882,衡阳市,师范学院,细颗粒物(PM2.5),73,85,64,53,36,60,60,89,74,30,23,3,5,0.8,0.8
2025-12-26T2200,2608A,103.3772,23.3993,红河哈尼族彝族自治州,污水处理厂,,39,33,34,27,30,40,40,44,44,9,10,6,6,0.5,0.5
2025-12-26T2200,2609A,103.3861,23.35,红河哈尼族彝族自治州,监测站,,39,,40,27,30,47,47,48,48,5,7,7,7,0.4,0.4
2025-12-26T2200,3038A,103.3758,23.368,红河哈尼族彝族自治州,州图书馆,,22,22,26,14,18,42,42,46,46,6,7,6,6,0.5,0.5
2025-12-26T2200,1090A,111.6507,40.7517,呼和浩特市,呼市一监,细颗粒物(PM2.5),110,124,58,83,36,0,0,21,11,56,46,9,9,1.3,0.8
2025-12-26T2200,1094A,111.7516,40.8369,呼和浩特市,如意水处理厂,细颗粒物(PM2.5),78,99,63,57,35,3,3,26,14,62,52,18,15,1.0,0.8
2025-12-26T2200,1095A,111.7276,40.8062,呼和浩特市,二十九中,颗粒物(PM10),80,110,67,52,32,5,5,25,16,67,48,20,17,1.0,0.6
2025-12-26T2200,1097A,111.717,40.7612,呼和浩特市,化肥厂生活区,细颗粒物(PM2.5),95,118,64,71,35,5,5,25,15,66,51,13,13,1.3,1
2025-12-26T2200,3699A,111.6518,40.8389,呼和浩特市,海东办,颗粒物(PM10),68,85,58,48,30,4,4,22,12,61,48,9,10,1.2,0.7
2025-12-26T2200,3061A,119.7512,49.1577,呼伦贝尔市,国华电力东,细颗粒物(PM2.5),53,43,26,37,24,26,26,43,35,30,20,6,7,0.5,0.3
2025-12-26T2200,4279A,119.7569,49.2222,呼伦贝尔市,伊敏大街东7号,细颗粒物(PM2.5),60,49,28,43,23,1,1,32,8,47,23,8,8,0.4,0.2
2025-12-26T2200,1250A,120.0751,30.8669,湖州市,城西水厂,颗粒物(PM10),51,51,34,27,17,15,15,73,52,63,35,10,10,0.5,0.4
2025-12-26T2200,2873A,120.0830,30.8929,湖州市,仁皇山新区,,37,37,29,22,16,35,35,75,57,42,33,8,10,0.2,0.1
2025-12-26T2200,2907A,120.1844,30.8596,湖州市,吴兴区站,,46,46,34,32,18,32,32,70,53,49,29,7,7,0.5,0.5
2025-12-26T2200,3562A,120.4148,30.8538,湖州市,南浔区站,颗粒物(PM10),54,57,30,36,18,9,9,59,38,68,33,6,7,0.6,0.7
2025-12-26T2200,1607A,120.9049,40.7211,葫芦岛市,龙港区,,22,20,40,15,18,41,41,46,43,13,28,11,29,0.6,0.9
2025-12-26T2200,1608A,120.8392,40.7514,葫芦岛市,化工街,,22,22,43,12,23,42,42,47,44,16,29,13,29,0.4,0.7
2025-12-26T2200,1609A,120.8341,40.7073,葫芦岛市,新区,,22,22,33,15,18,46,46,51,48,15,27,8,21,0.7,1
2025-12-26T2200,1610A,120.8695,40.7677,葫芦岛市,东城区,,23,16,38,16,23,41,41,48,43,17,30,10,27,0.8,1.1
2025-12-26T2200,2483A,109.9453,27.5444,怀化市,河西地税局,细颗粒物(PM2.5),58,57,59,41,34,37,37,79,67,26,19,5,5,0.6,0.5
2025-12-26T2200,2484A,109.9781,27.5342,怀化市,市四医院,细颗粒物(PM2.5),63,65,72,45,35,39,39,84,74,28,17,10,13,0.6,0.5
2025-12-26T2200,2485A,109.9972,27.5578,怀化市,监测楼,颗粒物(PM10),54,57,64,31,33,43,43,82,72,26,19,4,5,0.2,0.2
2025-12-26T2200,2486A,110.0394,27.583,怀化市,市委党校,细颗粒物(PM2.5),78,75,71,57,40,47,47,89,77,22,20,10,12,0.4,0.2
2025-12-26T2200,1210A,119.036,33.5981,淮安市,钵池山,,30,29,32,21,20,46,46,62,55,28,36,7,8,0.3,0.3
2025-12-26T2200,1211A,119.007,33.575,淮安市,北京南路,,29,29,32,18,18,33,33,55,46,35,29,8,7,0.5,0.6
2025-12-26T2200,1212A,118.989,33.6067,淮安市,市监测站,,20,17,23,14,14,45,45,56,51,28,31,9,10,0.4,0.4
2025-12-26T2200,1213A,119.135,33.5039,淮安市,楚州区监测站,,29,22,28,15,14,14,14,58,38,58,33,11,10,0.4,0.4
2025-12-26T2200,3426A,118.8755,33.2894,淮安市,新华书店,,34,34,31,19,16,35,35,57,44,33,31,8,10,0.6,0.5
2025-12-26T2200,4206A,119.0288,33.6319,淮安市,承德北路606号,,39,39,40,24,22,35,35,58,48,38,41,8,8,0.5,0.5
2025-12-26T2200,2282A,116.8004,33.975,淮北市,监测站,,44,44,51,25,26,46,46,54,51,29,35,10,10,0.7,0.7
2025-12-26T2200,2283A,116.8091,33.9007,淮北市,烈山区政府,,47,47,52,32,29,44,44,56,54,30,34,11,12,0.4,0.4
2025-12-26T2200,3330A,116.8873,33.9836,淮北市,杜集区检察院,,45,45,50,25,26,53,53,58,57,21,32,6,7,0.4,0.4
2025-12-26T2200,4017A,116.7923,33.9535,淮北市,市博物馆,,45,45,53,25,27,43,43,54,52,30,33,12,12,0.3,0.4
2025-12-26T2200,2277A,116.8305,32.7727,淮南市,潘集区政府,细颗粒物(PM2.5),63,63,68,45,43,38,38,49,41,27,36,8,7,0.5,0.5
2025-12-26T2200,2279A,116.8569,32.5951,淮南市,谢家集区政府,,42,39,51,29,21,11,11,54,42,58,34,13,10,0.6,0.5
2025-12-26T2200,2280A,116.8281,32.633,淮南市,八公山区政府,,41,41,52,25,26,34,34,56,48,32,29,11,8,0.6,0.5
2025-12-26T2200,2894A,117.0566,32.6531,淮南市,经济技术开发区消防队,,50,50,62,27,34,39,39,57,47,29,38,7,7,0.5,0.5
2025-12-26T2200,3329A,117.0108,32.5893,淮南市,山南新区,颗粒物(PM10),52,54,54,13,20,39,39,60,53,27,26,4,4,0.5,0.4
2025-12-26T2200,4209A,117.0031,32.6445,淮南市,国庆中路369号,,43,43,43,25,30,35,35,48,43,31,32,8,5,0.6,0.7
2025-12-26T2200,2446A,114.9028,30.4742,黄冈市,职工中心,,46,46,52,30,32,42,42,72,62,36,23,8,8,0.6,0.6
2025-12-26T2200,2929A,114.8858,30.4519,黄冈市,红卫路,,48,48,53,26,32,42,42,70,62,34,23,8,7,0.6,0.5
2025-12-26T2200,3398A,114.9136,30.4445,黄冈市,市林业局,颗粒物(PM10),52,53,58,32,36,42,42,70,62,36,25,6,5,0.7,0.6
2025-12-26T2200,2672A,102.0199,35.5102,黄南藏族自治州,同仁县隆务镇,,27,27,34,10,19,70,70,76,74,1,5,9,10,0.2,0.4
2025-12-26T2200,2295A,118.2903,29.6963,黄山市,延安路89号,细颗粒物(PM2.5),64,47,51,46,44,26,26,76,63,29,20,4,4,0.6,0.6
2025-12-26T2200,2297A,118.1371,30.2756,黄山市,黄山区政府5号楼,细颗粒物(PM2.5),57,41,47,40,37,20,20,63,46,17,17,6,5,0.5,0.5
2025-12-26T2200,4210A,118.3354,29.7203,黄山市,滨江东路7-2号,颗粒物(PM10),58,66,64,40,49,16,16,72,54,34,19,4,4,0.6,0.6
2025-12-26T2200,2423A,115.0601,30.2313,黄石市,沈家营,,49,49,61,23,30,52,52,70,62,13,17,7,8,1.0,1
2025-12-26T2200,2426A,114.8988,30.2019,黄石市,铁山,,50,47,54,35,43,49,49,69,65,24,29,4,4,0.4,0.5
2025-12-26T2200,2427A,115.0307,30.2092,黄石市,团城山,,43,43,59,24,34,69,69,82,78,12,11,7,7,0.5,0.5
2025-12-26T2200,3149A,115.0235,30.1578,黄石市,笔架山北路,颗粒物(PM10),63,76,81,23,36,48,48,67,60,18,19,8,7,0.9,0.8
2025-12-26T2200,4185A,115.0780,30.21118,黄石市,磁湖东路29号,,46,44,57,32,39,54,54,67,64,21,14,11,10,0.8,0.7
2025-12-26T2200,1392A,114.4183,23.0528,惠州市,河南岸金山湖子站,,43,43,37,25,21,37,37,62,38,19,18,5,5,0.6,0.6
2025-12-26T2200,1393A,114.4053,23.0822,惠州市,下埔横江三路子站,,42,42,35,29,24,36,36,66,42,18,12,7,8,0.7,0.6
2025-12-26T2200,1395A,114.4645,22.7833,惠州市,惠阳区承修路船湖子站,,49,49,39,29,22,32,32,63,38,16,14,7,7,0.7,0.6
2025-12-26T2200,1396A,114.5317,22.7422,惠州市,大亚湾管委会子站,,44,44,35,25,16,31,31,60,36,17,14,4,6,0.5,0.5
2025-12-26T2200,3314A,114.4338,22.8134,惠州市,惠阳秋长,,46,46,37,30,24,37,37,70,44,17,12,11,11,0.6,0.6
2025-12-26T2200,3452A,114.6517,22.775,惠州市,大亚湾霞涌,,35,34,29,24,22,35,35,62,43,14,13,4,4,0.8,0.7
2025-12-26T2200,2240A,130.9762,45.3001,鸡西市,环保局,,23,17,19,16,12,47,47,46,43,8,5,6,6,0.1,0.1
2025-12-26T2200,2243A,130.9429,45.3039,鸡西市,第一中学,,28,20,17,19,12,51,51,48,47,7,5,4,3,0.3,0.3
2025-12-26T2200,3707A,131.0207,45.3073,鸡西市,欧美日汽修厂,,25,25,24,16,13,54,54,50,49,8,7,4,6,0.3,0.3
2025-12-26T2200,3709A,130.9967,45.3106,鸡西市,市政设施管理处,,23,23,23,16,13,46,46,44,42,11,8,7,7,0.1,0
2025-12-26T2200,2367A,114.9754,27.0803,吉安市,红声器材厂,细颗粒物(PM2.5),57,60,62,40,33,79,79,87,85,22,24,9,9,0.6,0.7
2025-12-26T2200,2368A,114.9658,27.0999,吉安市,市森林工业局,颗粒物(PM10),57,64,61,39,37,69,69,87,84,27,24,12,12,0.5,0.5
2025-12-26T2200,2369A,114.99,27.1312,吉安市,市环境监测站,颗粒物(PM10),54,57,57,36,35,78,78,85,84,15,17,12,14,0.5,0.6
2025-12-26T2200,2370A,115.0093,27.0968,吉安市,青原区法院,颗粒物(PM10),58,65,61,38,36,66,66,82,80,20,19,11,12,0.7,0.7
2025-12-26T2200,1772A,126.54,43.8622,吉林市,哈达湾,颗粒物(PM10),51,52,43,35,26,32,32,46,39,29,22,7,9,1.3,1
2025-12-26T2200,1773A,126.5844,43.8358,吉林市,东局子,细颗粒物(PM2.5),52,40,36,36,28,28,28,44,37,33,24,4,4,1.0,0.8
2025-12-26T2200,1774A,126.5052,43.8245,吉林市,电力学院,细颗粒物(PM2.5),100,87,54,75,52,17,17,46,32,45,30,12,11,1.6,1.1
2025-12-26T2200,1775A,126.6133,43.8972,吉林市,江北,,40,39,49,28,35,36,36,44,39,23,26,1,2,1.0,1
2025-12-26T2200,1776A,126.555,43.8306,吉林市,江南公园,细颗粒物(PM2.5),65,59,39,47,33,19,19,48,40,39,24,9,8,1.2,1
2025-12-26T2200,1778A,126.7061,43.7133,吉林市,丰满,,39,,23,27,22,40,40,42,42,8,8,7,8,0.7,0.5
2025-12-26T2200,2868A,126.4739,43.953,吉林市,九站,,40,33,44,28,33,39,39,42,39,23,29,5,7,0.9,1
2025-12-26T2200,1299A,116.9862,36.6114,济南市,科干所,颗粒物(PM10),56,61,44,37,20,59,59,65,63,22,19,7,7,0.8,0.7
2025-12-26T2200,1300A,116.9376,36.665,济南市,农科所,颗粒物(PM10),57,63,48,39,21,52,52,53,52,30,31,6,6,0.7,0.7
2025-12-26T2200,1301A,117.1265,36.6734,济南市,开发区,细颗粒物(PM2.5),55,51,40,39,24,63,63,68,61,19,19,5,4,0.6,0.6
2025-12-26T2200,1303A,117.0624,36.6868,济南市,省种子仓库,细颗粒物(PM2.5),55,56,46,39,23,65,65,65,64,21,31,6,6,0.5,0.5
2025-12-26T2200,1304A,116.9489,36.6447,济南市,机床二厂,细颗粒物(PM2.5),62,61,53,44,27,58,58,57,57,26,28,8,13,0.7,0.7
2025-12-26T2200,1305A,117.0495,36.663,济南市,市监测站,颗粒物(PM10),53,56,41,34,22,57,57,61,60,14,21,5,5,0.6,0.6
2025-12-26T2200,1306A,116.7675,36.5484,济南市,长清党校,颗粒物(PM10),57,63,43,39,23,48,48,53,52,25,30,8,8,0.7,0.6
2025-12-26T2200,1616A,117.6795,36.229,济南市,技术学院,细颗粒物(PM2.5),62,61,47,44,31,25,25,50,44,50,46,13,8,0.8,0.6
2025-12-26T2200,1961A,117.532,36.6868,济南市,东山小学,颗粒物(PM10),63,76,42,44,21,55,55,63,60,24,22,10,6,0.8,0.9
2025-12-26T2200,3059A,117.7161,36.2049,济南市,泰兴公司,细颗粒物(PM2.5),73,73,65,53,41,7,7,49,32,66,45,9,9,0.8,0.7
2025-12-26T2200,3064A,117.6867,36.2171,济南市,莱芜战役纪念馆,细颗粒物(PM2.5),69,63,56,50,38,24,24,53,45,51,42,16,10,0.4,0.2
2025-12-26T2200,3494A,117.1673,36.9782,济南市,济阳区政府,颗粒物(PM10),92,134,66,59,27,8,8,48,36,78,48,10,9,0.7,0.5
2025-12-26T2200,3495A,117.1171,36.63,济南市,锦屏中学,颗粒物(PM10),55,59,37,34,19,60,60,68,61,22,18,2,2,0.7,0.7
2025-12-26T2200,3682A,116.9814,36.6819,济南市,济南四建,颗粒物(PM10),56,61,44,39,25,53,53,57,54,22,25,6,8,0.9,0.9
2025-12-26T2200,1653A,116.6251,35.4302,济宁市,火炬城,细颗粒物(PM2.5),64,52,52,46,34,30,30,52,42,33,33,8,8,0.4,0.4
2025-12-26T2200,1655A,116.5491,35.4042,济宁市,电化厂,颗粒物(PM10),55,60,63,34,32,46,46,54,51,27,35,7,9,0.7,0.9
2025-12-26T2200,3500A,116.5814,35.3707,济宁市,北湖一中,颗粒物(PM10),54,57,51,37,35,38,38,51,47,30,34,6,7,0.4,0.6
2025-12-26T2200,3501A,116.8249,35.5593,济宁市,服务中心,颗粒物(PM10),62,74,59,40,27,21,21,48,38,42,42,12,11,0.8,0.8
2025-12-26T2200,3678A,116.5907,35.4054,济宁市,市第七中学,,47,47,52,29,25,36,36,54,47,33,34,8,8,0.5,0.6
2025-12-26T2200,2255A,130.2751,46.8028,佳木斯市,佳纺,,29,24,25,20,21,40,40,40,35,15,15,2,5,0.3,0.3
2025-12-26T2200,2257A,130.3258,46.7975,佳木斯市,环保局,,28,22,22,19,18,44,44,42,38,15,13,5,5,0.4,0.4
2025-12-26T2200,4285A,130.363,46.806,佳木斯市,顺和街,,23,22,21,16,16,42,42,38,35,11,11,6,6,0.4,0.5
2025-12-26T2200,4286A,130.3952,46.8268,佳木斯市,长安路196号,,25,20,19,17,15,43,43,44,41,14,12,4,5,0.4,1
2025-12-26T2200,1253A,120.726,30.7478,嘉兴市,嘉兴学院,颗粒物(PM10),53,56,36,28,16,19,19,63,43,51,25,7,8,0.5,0.5
2025-12-26T2200,2872A,120.7846,30.7525,嘉兴市,南湖区残联,颗粒物(PM10),51,52,29,30,17,34,34,68,55,48,28,4,5,0.5,0.5
2025-12-26T2200,3407A,120.6916,30.7739,嘉兴市,秀洲住建,颗粒物(PM10),55,60,37,37,20,19,19,63,44,50,30,6,7,0.4,0.5
2025-12-26T2200,1945A,98.2908,39.7711,嘉峪关市,气象局,,,29,60,14,25,,,74,,22,22,4,17,0.3,0.6
2025-12-26T2200,2884A,98.2672,39.7978,嘉峪关市,酒钢宾馆,颗粒物(PM10),58,66,71,27,27,57,57,75,71,20,17,15,27,0.5,0.6
2025-12-26T2200,3248A,98.2643,39.7724,嘉峪关市,雄关区,,36,36,54,21,27,58,58,80,73,24,26,11,21,0.5,0.6
2025-12-26T2200,1383A,113.1064,22.6058,江门市,北街,细颗粒物(PM2.5),52,45,45,36,30,18,18,59,35,53,34,7,8,0.6,0.5
2025-12-26T2200,1384A,113.0731,22.5835,江门市,西区,颗粒物(PM10),60,69,50,31,17,22,22,57,34,44,32,6,7,0.5,0.4
2025-12-26T2200,1385A,113.0219,22.5311,江门市,圭峰西,颗粒物(PM10),58,66,45,39,28,26,26,57,37,43,30,6,7,0.7,0.6
2025-12-26T2200,1386A,113.0828,22.5947,江门市,东湖,颗粒物(PM10),57,64,48,36,24,22,22,58,36,47,34,6,7,0.5,0.5
2025-12-26T2200,3311A,113.1075,22.5647,江门市,江海富民,颗粒物(PM10),62,73,46,34,18,12,12,57,33,60,34,10,7,0.6,0.5
2025-12-26T2200,3449A,113.05,22.4667,江门市,新会银湖,细颗粒物(PM2.5),57,52,40,40,26,9,9,52,28,51,29,10,7,0.6,0.5
2025-12-26T2200,3335A,113.3137,35.2641,焦作市,马村街道办,细颗粒物(PM2.5),103,110,99,77,63,14,14,47,31,48,33,10,9,0.9,0.6
2025-12-26T2200,3336A,113.2465,35.2373,焦作市,焦作技师学院,细颗粒物(PM2.5),107,116,89,80,62,0,0,41,21,67,39,11,10,1.1,0.7
2025-12-26T2200,3477A,113.1656,35.2539,焦作市,中站许衡医院,细颗粒物(PM2.5),90,93,81,67,59,46,46,41,34,28,32,8,8,0.8,0.9
2025-12-26T2200,3981A,113.2449,35.1803,焦作市,原李万街道办,细颗粒物(PM2.5),125,113,96,95,63,0,0,47,30,60,32,19,10,1.0,0.6
2025-12-26T2200,4264A,113.2340,35.2190,焦作市,新安路1731号,细颗粒物(PM2.5),123,136,93,93,65,1,1,45,25,61,33,13,10,1.4,0.9
2025-12-26T2200,4295A,113.2722,35.2121,焦作市,人民路3066号,细颗粒物(PM2.5),108,150,104,81,54,2,2,44,26,72,36,12,8,1.0,0.4
2025-12-26T2200,1708A,116.3701,23.5345,揭阳市,新兴,,48,48,30,32,19,66,66,46,46,26,23,8,7,0.5,0.7
2025-12-26T2200,1709A,116.3264,23.5443,揭阳市,西马,,49,49,32,31,20,67,67,34,34,24,24,5,5,0.6,0.8
2025-12-26T2200,1710A,116.3611,23.5626,揭阳市,东兴,,44,44,37,28,18,70,70,38,38,18,25,8,8,0.6,0.7
2025-12-26T2200,1711A,116.4151,23.5294,揭阳市,渔湖,,47,47,28,31,17,62,62,55,55,27,23,4,9,0.5,0.7
2025-12-26T2200,3320A,116.403,23.5699,揭阳市,曲溪,细颗粒物(PM2.5),52,51,28,36,17,78,78,65,65,17,17,2,3,0.4,0.5
2025-12-26T2200,1944A,102.1692,38.5167,金昌市,天庆家园,颗粒物(PM10),59,68,64,38,34,49,49,82,71,34,26,45,26,0.8,0.8
2025-12-26T2200,4022A,102.1647,38.5371,金昌市,金川区人防中心,细颗粒物(PM2.5),74,86,60,54,35,39,39,76,66,32,22,21,25,1.0,0.7
2025-12-26T2200,4239A,102.1930,38.5319,金昌市,长春路96号,颗粒物(PM10),53,56,60,24,29,65,65,76,71,19,21,68,41,0.7,0.8
2025-12-26T2200,1262A,119.647,29.077,金华市,十五中,细颗粒物(PM2.5),64,75,63,46,38,4,4,64,43,81,51,4,4,0.5,0.5
2025-12-26T2200,1263A,119.686,29.1029,金华市,监测站,颗粒物(PM10),59,67,65,37,40,0,0,53,28,75,47,4,3,0.4,0.4
2025-12-26T2200,3659A,119.656,29.1131,金华市,气象局,颗粒物(PM10),51,52,60,31,38,6,6,55,29,72,58,3,7,0.4,0.8
2025-12-26T2200,1767A,121.1115,41.0879,锦州市,南山,,29,20,31,20,23,30,30,53,44,30,21,11,11,0.8,0.7
2025-12-26T2200,1768A,121.0604,40.8428,锦州市,开发区,,19,,48,13,21,49,49,52,49,13,24,8,18,0.5,0.8
2025-12-26T2200,1769A,121.1836,41.1119,锦州市,百股街道,二氧化硫,52,,26,34,16,11,11,48,34,49,24,160,17,0.8,0.7
2025-12-26T2200,1770A,121.1178,41.1222,锦州市,天安街道,,26,20,27,18,17,32,32,50,45,29,19,13,13,0.8,0.6
2025-12-26T2200,1771A,121.1303,41.1386,锦州市,北湖公园,,29,24,28,20,15,23,23,46,40,32,16,11,11,0.8,0.6
2025-12-26T2200,2160A,112.85,35.5051,晋城市,自来水公司,颗粒物(PM10),88,125,66,61,36,15,15,57,53,54,34,6,8,1.1,1
2025-12-26T2200,2161A,112.8318,35.4936,晋城市,白云商贸,颗粒物(PM10),95,139,74,46,22,11,11,53,47,42,25,4,5,0.9,0.8
2025-12-26T2200,2162A,112.8508,35.4887,晋城市,市环保局,颗粒物(PM10),67,83,70,41,32,31,31,58,56,34,28,6,7,0.8,0.9
2025-12-26T2200,2163A,112.8676,35.4897,晋城市,技术学院,颗粒物(PM10),68,85,71,41,30,13,13,50,45,71,42,7,9,0.9,1
2025-12-26T2200,2165A,112.8453,35.546,晋城市,白马寺,细颗粒物(PM2.5),74,82,58,54,35,47,47,60,59,33,24,12,11,0.7,0.8
2025-12-26T2200,3620A,112.8271,35.4828,晋城市,泽州一中,"颗粒物(PM10),细颗粒物(PM2.5)",67,83,70,48,30,38,38,58,57,38,32,6,6,0.8,0.8
2025-12-26T2200,2173A,112.7249,37.7067,晋中市,南都小区,颗粒物(PM10),87,124,78,56,33,3,3,39,28,79,48,29,21,1.3,1.1
2025-12-26T2200,2174A,112.6991,37.6982,晋中市,榆次区政府,颗粒物(PM10),92,134,85,64,38,2,2,34,19,73,50,26,22,1.4,1
2025-12-26T2200,2865A,112.7195,37.6828,晋中市,榆次三中,颗粒物(PM10),101,151,78,73,34,1,1,32,20,80,47,28,19,1.5,1.3
2025-12-26T2200,4200A,112.7478,37.6954,晋中市,迎宾街26号,"颗粒物(PM10),细颗粒物(PM2.5)",89,127,72,66,34,1,1,35,20,75,43,27,21,1.2,0.9
2025-12-26T2200,2439A,112.2014,31.0481,荆门市,竹园小学,细颗粒物(PM2.5),79,92,95,58,56,50,50,90,86,52,36,4,6,0.4,0.6
2025-12-26T2200,2440A,112.1969,30.9891,荆门市,掇刀,细颗粒物(PM2.5),77,91,94,56,55,58,58,94,89,40,30,3,6,0.7,0.6
2025-12-26T2200,2441A,112.2213,31.0386,荆门市,石化一小,"颗粒物(PM10),细颗粒物(PM2.5)",77,104,103,56,57,31,31,86,72,67,41,8,9,0.6,0.6
2025-12-26T2200,3012A,112.1849,31.0362,荆门市,西山林语,细颗粒物(PM2.5),64,70,78,46,47,66,66,88,84,23,24,6,8,0.4,0.5
2025-12-26T2200,3547A,112.1632,31.0138,荆门市,龙泉中学南校,细颗粒物(PM2.5),78,87,94,57,52,75,75,90,87,16,21,11,11,0.3,0.4
2025-12-26T2200,1844A,112.2494,30.3197,荆州市,市图书馆,细颗粒物(PM2.5),80,62,66,59,59,84,84,96,92,21,31,12,10,0.7,0.8
2025-12-26T2200,1845A,112.2008,30.3544,荆州市,市委党校,细颗粒物(PM2.5),74,64,74,54,56,65,65,85,80,33,38,9,7,0.6,0.8
2025-12-26T2200,3194A,112.2747,30.3122,荆州市,管委会,细颗粒物(PM2.5),82,62,71,60,63,76,76,89,84,24,35,20,9,0.8,0.9
2025-12-26T2200,4268A,112.1722,30.3366,荆州市,学苑路85号,,,66,75,56,53,75,75,104,99,22,31,,6,0.5,0.9
2025-12-26T2200,2343A,117.2117,29.2933,景德镇市,老干部活动中心,,50,49,49,35,41,29,29,74,55,24,19,6,7,0.6,0.5
2025-12-26T2200,2344A,117.1894,29.2789,景德镇市,兽医站,颗粒物(PM10),52,54,53,27,27,39,39,80,65,22,15,7,8,0.4,0.4
2025-12-26T2200,2346A,117.2461,29.2956,景德镇市,陶研所,,,39,40,35,37,,,197,197,24,17,4,4,0.6,0.6
2025-12-26T2200,4289A,117.1542,29.2566,景德镇市,青少年活动中心,颗粒物(PM10),58,66,54,29,30,8,8,84,56,60,23,18,5,0.8,0.5
2025-12-26T2200,1803A,115.9872,29.6815,九江市,十里,细颗粒物(PM2.5),53,52,58,37,42,18,18,74,52,62,37,7,6,0.5,0.7
2025-12-26T2200,1804A,115.9584,29.7046,九江市,茅山头,,40,38,59,28,41,28,28,68,56,46,27,5,6,0.8,0.8
2025-12-26T2200,1805A,115.9877,29.7295,九江市,西园,颗粒物(PM10),51,51,54,30,33,32,32,76,63,58,38,4,5,0.7,0.7
2025-12-26T2200,1808A,115.9114,29.6038,九江市,综合工业园,细颗粒物(PM2.5),79,,61,58,52,20,20,72,48,64,50,2,4,0.8,0.8
2025-12-26T2200,1809A,116.0721,29.7535,九江市,石化总厂,,45,44,62,31,40,26,26,75,63,52,28,6,6,0.6,0.6
2025-12-26T2200,3190A,116.0254,29.6994,九江市,外国语学校,细颗粒物(PM2.5),53,46,56,37,39,42,42,60,50,23,30,8,7,0.6,0.7
2025-12-26T2200,4253A,116.0102,29.6594,九江市,莲花大道8号,,40,39,66,28,45,55,55,66,64,24,29,7,6,0.9,0.6
2025-12-26T2200,4240A,98.4958,39.7339,酒泉市,玉门东路5号,,30,27,77,21,29,61,61,72,65,7,21,11,18,0.3,0.7
2025-12-26T2200,4241A,98.5099,39.7506,酒泉市,北大街108号,,34,34,81,18,25,59,59,78,72,20,32,10,16,0.4,0.8
2025-12-26T2200,2698A,76.0072,39.4467,喀什地区,巡警大队,细颗粒物(PM2.5),64,75,66,46,40,50,50,59,51,21,17,3,3,0.7,0.6
2025-12-26T2200,2699A,75.9755,39.4694,喀什地区,吾办,细颗粒物(PM2.5),64,70,66,46,44,47,47,57,50,17,14,3,4,0.6,0.6
2025-12-26T2200,4027A,75.9483,39.4689,喀什地区,老干局,颗粒物(PM10),62,73,66,42,37,54,54,62,56,12,10,1,2,0.7,0.7
2025-12-26T2200,1824A,114.3389,34.7781,开封市,肿瘤医院,细颗粒物(PM2.5),72,75,90,52,62,39,39,61,52,29,35,4,6,0.8,0.9
2025-12-26T2200,1826A,114.2885,34.7965,开封市,世纪星幼儿园,细颗粒物(PM2.5),77,69,82,56,69,45,45,64,57,27,32,3,4,0.3,0.4
2025-12-26T2200,3147A,114.3438,34.8106,开封市,龙亭公园,细颗粒物(PM2.5),73,71,77,53,60,46,46,65,58,24,28,4,4,0.7,0.7
2025-12-26T2200,3210A,114.3644,34.7964,开封市,汴京公园,细颗粒物(PM2.5),77,88,91,56,58,38,38,62,53,32,32,4,5,0.5,0.6
2025-12-26T2200,3473A,114.2485,34.8306,开封市,技师学院,细颗粒物(PM2.5),69,73,80,50,56,49,49,62,59,23,26,5,6,0.5,0.5
2025-12-26T2200,3592A,114.4644,34.7556,开封市,祥符区生态环境局,细颗粒物(PM2.5),85,101,87,63,60,36,36,60,49,40,39,4,4,0.4,0.4
2025-12-26T2200,1951A,84.895,45.6094,克拉玛依市,长征新村,,49,47,39,34,31,36,36,51,44,34,31,5,5,0.8,0.7
2025-12-26T2200,1952A,84.8988,45.5893,克拉玛依市,南林小区,,50,50,35,26,23,48,48,50,49,11,13,2,2,0.7,0.9
2025-12-26T2200,1954A,84.905,44.3396,克拉玛依市,独山子区,细颗粒物(PM2.5),52,49,87,36,61,41,41,44,44,22,28,5,5,0.6,0.8
2025-12-26T2200,1955A,85.6979,46.098,克拉玛依市,乌尔禾区商贸楼,细颗粒物(PM2.5),55,53,24,39,35,46,46,50,49,22,19,5,5,0.5,0.5
2025-12-26T2200,3612A,85.1045,45.6899,克拉玛依市,白碱滩区新站,细颗粒物(PM2.5),52,52,55,36,33,48,48,50,50,18,25,8,8,0.5,0.6
2025-12-26T2200,2697A,76.1454,39.7142,克孜勒苏柯尔克孜自治州,市人民政府,细颗粒物(PM2.5),82,92,83,60,50,41,41,57,52,23,12,5,5,0.8,0.5
2025-12-26T2200,3665A,76.1658,39.7157,克孜勒苏柯尔克孜自治州,克州文化中心,细颗粒物(PM2.5),80,91,74,59,48,36,36,58,48,23,12,9,8,0.9,0.7
2025-12-26T2200,1450A,102.8204,24.8886,昆明市,呈贡新区,,31,31,44,16,22,46,46,72,63,28,21,3,4,0.5,0.6
2025-12-26T2200,1452A,102.7252,25.0902,昆明市,龙泉镇,颗粒物(PM10),59,67,39,40,25,1,1,64,43,52,23,2,3,0.9,0.6
2025-12-26T2200,1453A,102.7266,25.0375,昆明市,东风东路,,36,34,41,25,29,34,34,68,58,40,27,4,4,0.6,0.6
2025-12-26T2200,1454A,102.6742,25.0669,昆明市,金鼎山,细颗粒物(PM2.5),89,83,47,66,29,8,8,69,54,57,20,3,3,1.1,0.5
2025-12-26T2200,1455A,102.6644,25.0401,昆明市,碧鸡广场,颗粒物(PM10),57,63,38,39,30,6,6,69,49,60,24,5,3,1.1,0.6
2025-12-26T2200,3179A,102.7494,25.0119,昆明市,官渡区博物馆,,35,33,39,24,29,20,20,69,56,51,24,3,3,0.4,0.4
2025-12-26T2200,3375A,102.8017,24.8336,昆明市,青年创业园,,33,30,36,23,28,37,37,78,70,29,16,7,6,0.6,0.6
2025-12-26T2200,3550A,102.7997,24.9786,昆明市,昆明学院,,31,31,39,17,27,51,51,70,66,19,20,6,3,0.4,0.4
2025-12-26T2200,3551A,102.5967,24.6736,昆明市,晋宁区生态环境分局,颗粒物(PM10),51,51,43,31,30,38,38,72,65,25,15,3,2,0.6,0.5
2025-12-26T2200,3552A,102.6678,24.9856,昆明市,云天化总部,,38,38,35,20,23,10,10,67,57,56,19,6,5,0.4,0.4
2025-12-26T2200,1456A,91.1319,29.6514,拉萨市,八廓街,细颗粒物(PM2.5),68,67,30,49,19,11,11,73,53,73,26,13,12,2.0,0.8
2025-12-26T2200,1457A,91.1221,29.6747,拉萨市,市环保局,细颗粒物(PM2.5),160,142,45,122,27,19,19,73,58,60,27,18,11,3.7,1.2
2025-12-26T2200,1458A,91.0874,29.6475,拉萨市,区监测站,,45,44,21,31,12,9,9,69,52,85,35,10,13,1.6,0.9
2025-12-26T2200,1459A,91.1774,29.6541,拉萨市,西藏大学,,39,39,22,20,11,47,47,73,66,36,21,9,13,0.5,0.3
2025-12-26T2200,1460A,90.9798,29.6588,拉萨市,区辐射站,细颗粒物(PM2.5),135,131,51,103,30,16,16,65,51,80,43,13,9,2.4,1
2025-12-26T2200,1461A,91.0834,29.6292,拉萨市,拉萨火车站,颗粒物(PM10),110,169,32,77,17,25,25,70,60,59,38,8,11,1.2,0.9
2025-12-26T2200,2520A,109.2203,23.7256,来宾市,来宾技工学校,细颗粒物(PM2.5),67,68,63,48,32,68,68,94,89,22,14,14,11,1.0,0.5
2025-12-26T2200,3535A,109.1781,23.7297,来宾市,兴宾区政府,颗粒物(PM10),62,74,59,37,30,66,66,97,92,19,10,12,8,0.9,0.5
2025-12-26T2200,4002A,109.2416,23.7461,来宾市,中南小学,细颗粒物(PM2.5),69,67,63,50,33,61,61,95,85,26,17,12,8,0.9,0.5
2025-12-26T2200,3241A,103.7439,36.0842,兰州市,百合公园,颗粒物(PM10),74,97,79,52,49,1,1,39,29,83,60,21,16,1.4,1.2
2025-12-26T2200,3242A,103.9611,35.998,兰州市,和平,细颗粒物(PM2.5),72,71,72,52,50,42,42,64,57,37,33,8,12,0.9,1.4
2025-12-26T2200,4236A,103.6293,36.0938,兰州市,庄浪东路808号,细颗粒物(PM2.5),58,61,82,41,49,22,22,60,49,61,56,13,15,0.8,1
2025-12-26T2200,4237A,103.7251,36.1043,兰州市,安宁西路88号,颗粒物(PM10),68,86,88,47,45,13,13,57,44,74,62,9,10,0.8,1
2025-12-26T2200,4238A,103.8470,36.0676,兰州市,北滨河东路1号,细颗粒物(PM2.5),100,105,75,75,47,2,2,58,43,85,59,15,14,1.2,1.3
2025-12-26T2200,3245A,103.6633,36.533,兰州新区,新区管委会,细颗粒物(PM2.5),95,94,81,71,55,30,30,79,61,49,35,20,20,0.9,0.8
2025-12-26T2200,3246A,103.6975,36.4789,兰州新区,舟曲中学,细颗粒物(PM2.5),84,105,87,62,50,8,8,100,84,97,40,12,16,1.1,0.8
2025-12-26T2200,1067A,116.6708,39.5111,廊坊市,药材公司,细颗粒物(PM2.5),99,96,66,74,45,3,3,32,21,68,47,5,5,1.3,0.8
2025-12-26T2200,1068A,116.7214,39.5589,廊坊市,开发区,细颗粒物(PM2.5),97,106,75,72,49,0,0,25,16,67,50,5,5,0.9,0.6
2025-12-26T2200,1070A,116.7244,39.5269,廊坊市,北华航天学院,细颗粒物(PM2.5),104,119,79,78,47,2,2,31,20,72,49,6,5,1.0,0.6
2025-12-26T2200,2919A,116.7022,39.5453,廊坊市,河北工业大学,细颗粒物(PM2.5),92,107,76,68,45,1,1,27,19,67,47,6,5,0.9,0.6
2025-12-26T2200,2536A,103.7627,29.5844,乐山市,牛耳桥,细颗粒物(PM2.5),95,96,79,71,60,23,23,44,42,39,28,7,7,0.8,0.8
2025-12-26T2200,2537A,103.7508,29.6006,乐山市,市第三水厂,细颗粒物(PM2.5),98,99,79,73,57,9,9,43,38,52,33,6,6,1.0,0.9
2025-12-26T2200,2538A,103.7571,29.5664,乐山市,市监测站,细颗粒物(PM2.5),87,90,79,64,56,32,32,45,44,30,26,7,8,0.8,0.8
2025-12-26T2200,3361A,103.7311,29.5628,乐山市,理工大学,细颗粒物(PM2.5),77,86,77,56,53,21,21,44,41,35,26,5,6,0.7,0.7
2025-12-26T2200,2599A,100.2497,26.8802,丽江市,丽江古城,,31,31,29,15,16,50,50,70,64,18,14,8,8,0.5,0.5
2025-12-26T2200,2600A,100.2203,26.8906,丽江市,市中心,,23,18,21,16,13,53,53,68,62,15,16,6,6,0.4,0.4
2025-12-26T2200,1267A,119.914,28.4514,丽水市,监测站大楼,细颗粒物(PM2.5),52,52,43,36,30,6,6,65,50,50,26,5,6,0.4,0.4
2025-12-26T2200,1268A,119.93,28.4586,丽水市,莲都小学,,48,48,54,29,33,31,31,67,58,38,30,5,6,0.5,0.5
2025-12-26T2200,1269A,119.879,28.4231,丽水市,余庄前,,39,38,44,27,31,15,15,61,40,21,19,4,5,0.4,0.4
2025-12-26T2200,1173A,119.176,34.5885,连云港市,市环境监测站,,41,41,26,27,13,30,30,63,49,34,22,11,11,0.6,0.7
2025-12-26T2200,3000A,119.3581,34.6972,连云港市,德源药业,颗粒物(PM10),53,56,34,22,11,21,21,61,46,47,27,6,6,0.5,0.6
2025-12-26T2200,3007A,119.178,34.844,连云港市,新城一中,,39,32,35,19,16,2,2,62,43,77,36,11,13,0.3,0.4
2025-12-26T2200,3008A,119.3608,34.7519,连云港市,胡沟管理处,,27,27,18,14,6,57,57,57,55,19,21,5,7,0.8,0.8
2025-12-26T2200,3009A,119.1478,34.5911,连云港市,矿山设计院,颗粒物(PM10),53,56,29,29,13,16,16,68,54,52,27,8,9,0.9,0.9
2025-12-26T2200,3434A,119.2413,34.6539,连云港市,工贸学校,,26,26,21,16,11,55,55,67,61,13,14,10,10,0.4,0.7
2025-12-26T2200,3664A,119.4172,34.7341,连云港市,连云街道,,24,24,19,11,7,66,66,64,64,11,18,5,7,0.7,0.7
2025-12-26T2200,2572A,102.2721,27.8415,凉山彝族自治州,邛海宾馆,细颗粒物(PM2.5),205,175,62,155,51,29,29,63,60,25,18,9,9,1.0,0.9
2025-12-26T2200,2573A,102.2625,27.898,凉山彝族自治州,西昌市政府,细颗粒物(PM2.5),70,60,48,51,42,24,24,56,50,28,20,7,8,1.0,1
2025-12-26T2200,2574A,102.2685,27.8851,凉山彝族自治州,凉山州政府,颗粒物(PM10),79,108,60,56,38,19,19,52,47,30,24,9,10,1.1,1
2025-12-26T2200,4229A,102.2342,27.8859,凉山彝族自治州,凯乐南路30号,,,350,89,,49,13,13,53,47,43,35,9,10,1.7,1
2025-12-26T2200,2212A,123.2,41.1953,辽阳市,宏伟区,,29,21,37,20,22,55,55,54,46,7,16,5,8,0.6,0.7
2025-12-26T2200,2213A,123.1683,41.2495,辽阳市,新华园,细颗粒物(PM2.5),59,63,52,42,32,11,11,48,30,47,32,82,24,1.1,1
2025-12-26T2200,2214A,123.2354,41.2639,辽阳市,滨河路,,46,42,47,32,24,25,25,42,27,31,24,7,11,0.6,0.5
2025-12-26T2200,2215A,123.149,41.2991,辽阳市,铁西工业园,细颗粒物(PM2.5),145,126,61,111,42,1,1,44,18,54,36,10,12,1.8,1
2025-12-26T2200,2227A,125.1358,42.8845,辽源市,环保局,颗粒物(PM10),74,98,121,3,43,10,10,47,34,35,27,5,3,1.8,1.1
2025-12-26T2200,3239A,125.0764,42.9078,辽源市,银鹰制药,细颗粒物(PM2.5),75,76,55,55,36,12,12,45,26,42,29,7,4,1.1,0.9
2025-12-26T2200,1625A,115.9848,36.4372,聊城市,区政府,细颗粒物(PM2.5),65,69,52,47,29,38,38,47,44,37,39,12,13,0.7,0.7
2025-12-26T2200,2878A,116.0072,36.4343,聊城市,聊大东校,细颗粒物(PM2.5),73,78,59,53,33,39,39,48,46,37,39,9,11,0.7,0.8
2025-12-26T2200,3200A,115.9819,36.4978,聊城市,监控中心,细颗粒物(PM2.5),70,68,51,51,29,43,43,51,49,28,28,12,14,0.6,0.6
2025-12-26T2200,3513A,116.0445,36.4361,聊城市,九州社区,颗粒物(PM10),64,77,64,42,32,38,38,55,51,31,30,1,6,0.6,0.6
2025-12-26T2200,4018A,116.0567,36.4608,聊城市,星美广场,颗粒物(PM10),67,83,63,44,30,35,35,49,44,29,29,4,7,0.6,0.5
2025-12-26T2200,2632A,94.3681,29.6376,林芝市,林芝监测站,,20,11,10,10,7,63,63,68,68,2,4,3,4,0.3,0.3
2025-12-26T2200,2633A,94.3616,29.6616,林芝市,林芝人民医院,,37,37,20,20,8,36,36,64,56,18,7,4,3,0.6,0.3
2025-12-26T2200,2603A,100.0781,23.8982,临沧市,市环保局,细颗粒物(PM2.5),65,55,28,47,35,34,34,77,68,19,8,4,5,0.7,0.3
2025-12-26T2200,2604A,100.0894,23.8822,临沧市,市气象局,,45,44,35,31,22,36,36,74,64,16,10,8,7,0.6,0.4
2025-12-26T2200,1733A,111.5531,36.0783,临汾市,临钢医院,颗粒物(PM10),84,118,69,53,37,5,5,40,24,45,32,5,7,1.2,1
2025-12-26T2200,1734A,111.5028,36.0714,临汾市,技工学校,颗粒物(PM10),89,128,73,63,39,0,0,36,22,62,39,8,8,1.4,1
2025-12-26T2200,1736A,111.5018,36.0855,临汾市,市委,颗粒物(PM10),87,123,78,54,36,2,2,41,26,65,42,10,11,1.6,1.4
2025-12-26T2200,3018A,111.505,36.1014,临汾市,唐尧大酒店,颗粒物(PM10),76,101,79,50,36,3,3,42,28,61,41,5,7,1.2,1
2025-12-26T2200,4244A,111.4879,36.0530,临汾市,启星学校,颗粒物(PM10),69,87,65,48,37,3,3,38,24,62,45,8,9,2.2,1.5
2025-12-26T2200,4271A,103.2464,35.6123,临夏回族自治州,滨河东路1号,细颗粒物(PM2.5),193,198,150,145,93,5,5,71,56,58,32,6,6,2.1,1.5
2025-12-26T2200,4310A,103.2093,35.5995,临夏回族自治州,新华街21号,细颗粒物(PM2.5),165,174,149,125,98,17,17,72,61,52,34,10,10,2.0,1.6
2025-12-26T2200,1618A,118.3429,35.0532,临沂市,沂河小区,细颗粒物(PM2.5),58,63,41,41,25,39,39,56,46,37,32,17,14,0.6,0.6
2025-12-26T2200,1619A,118.295,35.0583,临沂市,鲁南制药厂,细颗粒物(PM2.5),58,58,36,41,25,32,32,61,45,43,33,27,17,0.5,0.4
2025-12-26T2200,1620A,118.2794,34.9976,临沂市,新光毛纺厂,"颗粒物(PM10),细颗粒物(PM2.5)",52,53,41,36,25,33,33,61,44,41,29,26,18,0.5,0.5
2025-12-26T2200,1621A,118.3956,35.0888,临沂市,河东保险公司,细颗粒物(PM2.5),79,88,47,58,27,11,11,63,43,60,32,12,12,0.8,0.7
2025-12-26T2200,3370A,118.3564,35.0215,临沂市,十里堡居委,颗粒物(PM10),65,80,38,46,18,31,31,58,44,48,38,27,15,0.6,0.6
2025-12-26T2200,3496A,118.3604,35.1084,临沂市,南坊新区,,49,46,34,34,20,45,45,62,52,32,31,17,13,0.5,0.4
2025-12-26T2200,3860A,118.3920,35.0300,临沂市,皇山花园小区,"颗粒物(PM10),细颗粒物(PM2.5)",53,56,46,37,28,33,33,63,50,42,38,28,17,0.6,0.6
2025-12-26T2200,1870A,109.4856,24.3895,柳州市,柳东小学,颗粒物(PM10),59,67,59,34,28,77,77,90,87,12,9,12,9,0.6,0.5
2025-12-26T2200,1871A,109.4157,24.3277,柳州市,环保监测站,颗粒物(PM10),73,96,63,47,30,37,37,85,72,43,15,16,8,0.5,0.3
2025-12-26T2200,1872A,109.389,24.341,柳州市,河西水厂,颗粒物(PM10),72,94,69,48,32,42,42,87,72,41,21,12,8,0.6,0.6
2025-12-26T2200,1873A,109.4311,24.2921,柳州市,市四中,颗粒物(PM10),62,73,57,32,26,13,13,87,66,65,18,11,10,0.9,0.5
2025-12-26T2200,1874A,109.4006,24.3631,柳州市,市九中,颗粒物(PM10),79,108,72,42,35,34,34,88,71,46,23,23,10,0.7,0.6
2025-12-26T2200,1875A,109.4958,24.3134,柳州市,古亭山,,50,50,55,22,21,2,2,87,58,58,16,9,10,0.6,0.6
2025-12-26T2200,3402A,109.5422,24.3996,柳州市,市二中,颗粒物(PM10),57,64,50,37,29,42,42,86,74,29,16,9,9,0.7,0.6
2025-12-26T2200,2307A,116.5079,31.737,六安市,监测大楼,,37,37,44,25,29,52,52,58,54,22,28,4,4,0.3,0.4
2025-12-26T2200,2308A,116.4738,31.7643,六安市,皖西学院,颗粒物(PM10),54,58,54,26,30,52,52,61,59,22,31,3,3,0.4,0.5
2025-12-26T2200,2309A,116.4996,31.7905,六安市,朝阳厂,,35,33,45,24,26,54,54,56,54,26,33,4,4,0.5,0.5
2025-12-26T2200,2310A,116.5567,31.7886,六安市,开发区,,48,36,56,33,34,42,42,61,55,33,35,2,2,0.3,0.4
2025-12-26T2200,2576A,104.8,26.5892,六盘水市,窑上,细颗粒物(PM2.5),114,91,73,86,56,32,32,41,33,15,12,3,2,0.6,0.5
2025-12-26T2200,2577A,104.83,26.5917,六盘水市,黄土坡,细颗粒物(PM2.5),104,109,71,78,49,25,25,39,27,29,19,10,6,0.8,0.6
2025-12-26T2200,2578A,104.89,26.5939,六盘水市,水钢,细颗粒物(PM2.5),87,97,78,64,55,37,37,41,36,20,14,6,4,0.5,0.5
2025-12-26T2200,2579A,104.8475,26.5894,六盘水市,民中,细颗粒物(PM2.5),107,107,71,80,55,27,27,40,24,27,18,7,4,0.8,0.6
2025-12-26T2200,2580A,104.9544,26.5506,六盘水市,双水,细颗粒物(PM2.5),69,78,71,50,49,42,42,39,39,17,13,7,5,0.4,0.3
2025-12-26T2200,2336A,117.0217,25.1033,龙岩市,龙岩市监测站,,43,33,17,30,12,73,73,77,76,22,13,10,10,0.3,0.4
2025-12-26T2200,2337A,117.0258,25.0661,龙岩市,闽西职业技术学院,,50,45,17,35,12,73,73,78,77,25,10,11,7,0.5,0.5
2025-12-26T2200,2338A,117.0196,25.0306,龙岩市,龙岩学院,,40,,18,28,12,70,70,72,70,18,10,10,8,0.5,0.5
2025-12-26T2200,2885A,104.9339,33.3826,陇南市,滨江中学,颗粒物(PM10),90,129,74,57,30,3,3,57,35,68,34,20,14,3.1,1.2
2025-12-26T2200,3247A,104.955,33.371,陇南市,市总工会,颗粒物(PM10),64,78,65,33,25,30,30,67,48,33,23,4,6,1.0,0.7
2025-12-26T2200,2488A,111.9975,27.725,娄底市,市监测站,细颗粒物(PM2.5),84,82,73,62,49,59,59,100,90,32,23,8,9,1.1,1
2025-12-26T2200,2489A,112.0194,27.7314,娄底市,市委党校,细颗粒物(PM2.5),78,77,70,57,42,56,56,90,82,32,23,7,7,0.5,0.4
2025-12-26T2200,2490A,111.9561,27.7569,娄底市,涟钢,细颗粒物(PM2.5),109,121,75,82,44,11,11,89,69,48,18,7,7,0.9,0.6
2025-12-26T2200,2491A,111.9892,27.7044,娄底市,市政府,细颗粒物(PM2.5),87,77,66,64,46,23,23,84,73,39,16,6,6,2.7,2.5
2025-12-26T2200,1894A,105.4427,28.9063,泸州市,小市上码头,颗粒物(PM10),63,75,53,35,32,35,35,51,50,27,22,12,14,0.6,0.6
2025-12-26T2200,1895A,105.4241,28.8573,泸州市,兰田宪桥,细颗粒物(PM2.5),54,51,44,38,36,5,5,34,27,43,24,8,8,0.9,0.8
2025-12-26T2200,1896A,105.4379,28.8833,泸州市,市环监站,"颗粒物(PM10),细颗粒物(PM2.5)",58,66,52,41,33,13,13,19,19,31,22,8,10,0.7,0.6
2025-12-26T2200,4272A,105.3689,28.7783,泸州市,纳溪中医医院,细颗粒物(PM2.5),90,105,63,67,46,4,4,27,24,37,20,8,8,1.1,0.8
2025-12-26T2200,2183A,111.1406,37.5211,吕梁市,环保局,颗粒物(PM10),71,91,54,30,23,4,4,50,33,68,41,6,5,0.6,0.5
2025-12-26T2200,2185A,111.1297,37.5136,吕梁市,自来水公司,颗粒物(PM10),73,95,83,40,27,19,19,53,46,44,36,6,7,0.6,0.9
2025-12-26T2200,2867A,111.1283,37.51,吕梁市,马茂庄小学,颗粒物(PM10),107,163,80,40,23,2,2,39,25,66,44,10,7,0.8,0.7
2025-12-26T2200,1812A,112.3931,34.6516,洛阳市,市委党校,细颗粒物(PM2.5),162,166,104,123,65,7,7,36,28,70,54,10,13,1.7,1
2025-12-26T2200,1815A,112.494,34.6886,洛阳市,河南林校,细颗粒物(PM2.5),145,151,109,111,73,5,5,34,19,64,53,7,8,1.4,1
2025-12-26T2200,1816A,112.3844,34.623,洛阳市,开发区管委会,细颗粒物(PM2.5),135,142,106,103,72,9,9,40,31,59,40,9,13,1.3,1
2025-12-26T2200,1817A,112.4267,34.6258,洛阳市,市委新办公区,细颗粒物(PM2.5),163,189,106,124,76,4,4,34,21,66,45,11,12,1.4,0.8
2025-12-26T2200,3340A,112.6005,34.6326,洛阳市,伊滨,细颗粒物(PM2.5),147,164,108,112,70,4,4,32,24,56,47,6,7,1.2,0.8
2025-12-26T2200,3341A,112.4951,34.6332,洛阳市,中移产业园,细颗粒物(PM2.5),138,138,100,105,74,0,0,25,14,72,57,12,12,1.1,0.9
2025-12-26T2200,3593A,112.5736,34.8993,洛阳市,吉利监测站,细颗粒物(PM2.5),142,153,101,108,76,3,3,50,27,63,49,7,9,1.0,0.9
2025-12-26T2200,3635A,112.3677,34.662,洛阳市,河科大西苑校区,细颗粒物(PM2.5),153,172,111,117,68,5,5,36,26,60,49,11,13,1.5,1.1
2025-12-26T2200,3636A,112.4388,34.6781,洛阳市,英才小学,细颗粒物(PM2.5),172,186,115,130,76,6,6,34,22,81,58,12,11,1.8,1.1
2025-12-26T2200,4214A,112.4600,34.6949,洛阳市,春都路1号院,细颗粒物(PM2.5),129,165,123,98,66,4,4,34,20,60,47,9,10,1.3,1
2025-12-26T2200,2399A,114.051,33.5699,漯河市,三五一五工厂,细颗粒物(PM2.5),77,81,101,56,63,40,40,66,62,29,26,7,8,0.6,0.5
2025-12-26T2200,2400A,114.0055,33.5698,漯河市,漯河大学,细颗粒物(PM2.5),70,87,87,51,57,52,52,73,68,28,23,6,7,0.4,0.4
2025-12-26T2200,2401A,114.0138,33.5828,漯河市,市水利局,细颗粒物(PM2.5),79,83,87,58,57,40,40,62,56,29,25,7,8,0.5,0.5
2025-12-26T2200,2402A,114.0261,33.5698,漯河市,市广电局,细颗粒物(PM2.5),73,85,89,53,58,38,38,74,66,37,28,7,8,0.4,0.4
2025-12-26T2200,3478A,113.9749,33.5664,漯河市,市图书馆,细颗粒物(PM2.5),83,102,101,61,63,42,42,63,57,29,26,5,6,0.7,0.7
2025-12-26T2200,4250A,114.0892,33.5882,漯河市,韶山路11号,颗粒物(PM10),76,101,102,52,63,26,26,64,52,41,33,8,9,0.6,0.7
2025-12-26T2200,1798A,118.5092,31.6837,马鞍山市,湖东路四小,颗粒物(PM10),54,57,44,30,20,26,26,58,42,52,37,5,6,0.5,0.5
2025-12-26T2200,1799A,118.5024,31.6449,马鞍山市,开发区,颗粒物(PM10),54,58,50,34,28,30,30,61,43,46,40,7,7,0.6,0.6
2025-12-26T2200,3633A,118.4918,31.6809,马鞍山市,雨山,颗粒物(PM10),54,58,44,30,20,37,37,60,47,44,35,8,8,0.5,0.5
2025-12-26T2200,4191A,118.5274,31.72227,马鞍山市,慈湖高新区,,48,48,43,28,23,39,39,56,45,42,35,6,7,0.4,0.4
2025-12-26T2200,1686A,111.0286,21.4688,茂名市,电白南海,颗粒物(PM10),56,61,41,36,23,49,49,84,79,32,18,12,13,0.6,0.5
2025-12-26T2200,1687A,110.9294,21.6533,茂名市,茂石化七小,,44,44,38,24,23,53,53,80,74,25,18,10,13,0.7,0.6
2025-12-26T2200,1688A,110.9107,21.6687,茂名市,健康路,,41,41,33,27,22,61,61,86,81,19,14,14,17,0.6,0.7
2025-12-26T2200,1689A,110.8592,21.6828,茂名市,高岭,颗粒物(PM10),62,73,46,31,22,43,43,79,72,30,21,27,17,0.7,0.7
2025-12-26T2200,3450A,111.01,21.5165,茂名市,电白水东,,,58,33,31,21,58,58,83,81,,14,15,10,0.9,0.8
2025-12-26T2200,2540A,103.8416,30.0874,眉山市,气象局,细颗粒物(PM2.5),144,145,98,110,65,14,14,57,47,54,32,13,10,1.0,0.8
2025-12-26T2200,3137A,103.8578,30.0744,眉山市,市委党校,细颗粒物(PM2.5),110,112,81,83,53,18,18,53,44,47,28,13,8,0.9,0.7
2025-12-26T2200,3148A,103.8291,30.0564,眉山市,区人社局,细颗粒物(PM2.5),113,122,89,85,57,20,20,57,48,46,31,11,7,0.8,0.7
2025-12-26T2200,1690A,116.1231,24.3284,梅州市,梅江月梅,,36,32,21,25,17,32,32,39,36,22,18,6,5,0.6,0.5
2025-12-26T2200,1691A,116.0797,24.2719,梅州市,梅县新城,,40,,21,28,22,31,31,40,36,21,17,8,7,0.6,0.6
2025-12-26T2200,1692A,116.1248,24.2654,梅州市,环境监控中心,,42,37,23,29,18,6,6,32,19,38,21,8,6,0.6,0.5
2025-12-26T2200,3315A,116.1233,24.2991,梅州市,梅龙,,42,41,25,29,15,21,21,37,30,27,17,8,8,0.6,0.6
2025-12-26T2200,1878A,104.7778,31.4741,绵阳市,富乐山,细颗粒物(PM2.5),55,48,51,39,35,25,25,48,43,14,16,10,11,0.6,0.5
2025-12-26T2200,1880A,104.6697,31.4668,绵阳市,高新区自来水公司,细颗粒物(PM2.5),64,70,76,46,41,9,9,44,32,42,35,8,8,0.8,0.7
2025-12-26T2200,1881A,104.7287,31.5075,绵阳市,三水厂,细颗粒物(PM2.5),67,61,85,48,47,24,24,41,35,31,42,7,8,0.6,0.7
2025-12-26T2200,3491A,104.69,31.5322,绵阳市,西科大附属小学,细颗粒物(PM2.5),63,72,93,45,49,14,14,41,34,39,42,8,8,0.7,0.7
2025-12-26T2200,3492A,104.5648,31.5343,绵阳市,安州区旅游局,颗粒物(PM10),69,87,73,41,49,9,9,42,34,53,34,12,13,0.9,0.7
2025-12-26T2200,4226A,104.7651,31.4531,绵阳市,绵阳市气象局,"颗粒物(PM10),细颗粒物(PM2.5)",53,56,56,37,36,25,25,46,43,18,19,9,6,0.8,0.7
2025-12-26T2200,1784A,129.61,44.561,牡丹江市,环保大楼,,41,41,32,23,22,36,36,49,46,20,10,11,8,0.5,0.2
2025-12-26T2200,1785A,129.6115,44.5782,牡丹江市,文化广场,,46,35,36,32,23,36,36,47,45,19,10,5,5,0.5,0.5
2025-12-26T2200,1787A,129.6364,44.6075,牡丹江市,机车工厂,,37,37,31,25,19,31,31,49,44,24,12,3,3,0.5,0.2
2025-12-26T2200,1788A,129.6386,44.5462,牡丹江市,第一中学,,38,38,31,19,19,29,29,46,39,15,8,5,4,0.4,0.2
2025-12-26T2200,4287A,129.5992,44.5964,牡丹江市,东晓云街98号,,45,45,35,26,30,25,25,46,42,29,9,5,4,0.7,0.5
2025-12-26T2200,2531A,105.0703,29.61,内江市,市监测站,颗粒物(PM10),63,76,51,42,42,16,16,40,36,43,21,7,6,0.9,0.7
2025-12-26T2200,2532A,105.0717,29.5947,内江市,东兴区政府,颗粒物(PM10),57,64,50,36,35,10,10,31,26,50,24,8,5,0.6,0.5
2025-12-26T2200,2533A,105.0653,29.5817,内江市,内江二中,颗粒物(PM10),71,91,62,44,42,6,6,28,25,44,25,5,5,0.8,0.8
2025-12-26T2200,2534A,105.0406,29.5822,内江市,内江日报社,颗粒物(PM10),64,78,47,41,38,4,4,32,27,49,28,4,3,0.7,0.6
2025-12-26T2200,2628A,92.0657,31.4846,那曲市,那曲监测站,细颗粒物(PM2.5),122,139,75,92,51,35,35,73,67,96,39,40,14,5.3,2.2
2025-12-26T2200,4243A,92.0515,31.4787,那曲市,那曲市委宣传部,,50,50,31,35,18,27,27,72,62,40,21,14,8,1.8,1.2
2025-12-26T2200,1290A,115.8931,28.6843,南昌市,省外办,细颗粒物(PM2.5),79,72,72,58,57,57,57,77,58,47,31,8,8,1.1,1
2025-12-26T2200,1291A,115.8886,28.7003,南昌市,省林业公司,细颗粒物(PM2.5),73,70,67,53,51,43,43,88,72,55,24,4,5,0.7,0.7
2025-12-26T2200,1292A,115.8126,28.7442,南昌市,林科所,,49,41,67,34,47,65,65,79,74,13,19,5,7,0.6,0.6
2025-12-26T2200,1294A,115.8518,28.687,南昌市,建工学校,细颗粒物(PM2.5),75,80,74,55,52,58,58,83,76,41,27,12,13,1.0,1
2025-12-26T2200,1295A,115.8921,28.6424,南昌市,象湖,细颗粒物(PM2.5),79,60,60,58,49,50,50,85,78,41,24,8,9,0.8,0.8
2025-12-26T2200,3046A,115.9084,28.6062,南昌市,机电学校,细颗粒物(PM2.5),79,81,80,58,52,38,38,84,70,54,26,6,6,0.7,0.7
2025-12-26T2200,3690A,115.9721,28.7031,南昌市,外国语学校,细颗粒物(PM2.5),65,78,71,47,49,36,36,86,76,61,23,10,11,0.6,0.6
2025-12-26T2200,4192A,115.9316,28.68677,南昌市,南京东路235号,细颗粒物(PM2.5),77,94,70,56,52,43,43,93,83,60,32,6,6,0.7,0.7
2025-12-26T2200,1906A,106.0789,30.8023,南充市,南充市委,细颗粒物(PM2.5),67,61,57,48,46,7,7,16,15,27,27,4,4,0.7,0.7
2025-12-26T2200,1907A,106.1031,30.8217,南充市,南充炼油厂,细颗粒物(PM2.5),75,61,61,55,50,9,9,21,20,23,21,6,6,0.7,0.7
2025-12-26T2200,4227A,106.1083,30.7884,南充市,梨树横街98号,细颗粒物(PM2.5),73,71,51,53,38,12,12,23,22,27,23,5,5,0.6,0.6
2025-12-26T2200,4304A,106.1172,30.843,南充市,清泉寺北路188号,细颗粒物(PM2.5),62,63,47,44,42,18,18,26,25,18,20,6,6,0.7,0.7
2025-12-26T2200,4305A,106.067,30.7616,南充市,同庆路1号,细颗粒物(PM2.5),58,64,56,41,39,12,12,20,18,23,26,6,6,0.6,0.8
2025-12-26T2200,1151A,118.8086,32.1065,南京市,迈皋桥,,46,46,34,29,18,21,21,64,48,57,31,3,4,0.2,0.2
2025-12-26T2200,1152A,118.7538,32.0551,南京市,草场门,颗粒物(PM10),56,61,36,24,19,31,31,54,48,46,37,8,7,0.5,0.4
2025-12-26T2200,1153A,118.7794,32.0745,南京市,山西路,颗粒物(PM10),57,63,36,27,15,40,40,71,64,36,32,4,4,0.5,0.4
2025-12-26T2200,1154A,118.7752,32.0023,南京市,中华门,颗粒物(PM10),53,56,31,31,17,27,27,63,51,31,23,4,4,0.6,0.4
2025-12-26T2200,1155A,118.8109,32.0309,南京市,瑞金路,,49,46,30,34,21,19,19,58,46,41,24,4,4,0.7,0.5
2025-12-26T2200,1156A,118.7997,32.0754,南京市,玄武湖,,44,44,29,25,13,43,43,65,60,17,16,4,4,0.8,0.6
2025-12-26T2200,1157A,118.6414,32.0931,南京市,浦口,颗粒物(PM10),53,55,39,30,20,30,30,54,45,46,34,9,8,0.5,0.4
2025-12-26T2200,1158A,118.7356,31.9996,南京市,奥体中心,"颗粒物(PM10),细颗粒物(PM2.5)",52,54,36,36,21,33,33,72,58,50,33,4,3,0.6,0.4
2025-12-26T2200,1159A,118.9125,32.1028,南京市,仙林大学城,,48,48,34,27,14,34,34,58,50,34,33,7,6,0.6,0.6
2025-12-26T2200,3422A,118.8436,31.9198,南京市,江宁彩虹桥,细颗粒物(PM2.5),55,48,33,39,21,21,21,68,45,49,36,4,4,0.6,0.6
2025-12-26T2200,3427A,118.8554,32.3578,南京市,六合雄州,颗粒物(PM10),51,52,38,26,21,7,7,55,31,67,38,7,9,0.5,0.4
2025-12-26T2200,4249A,118.8708,31.3402,南京市,汶溪路181号,,37,37,30,19,24,44,44,62,52,37,38,7,7,0.5,0.4
2025-12-26T2200,4312A,119.019,31.6512,南京市,中山西路1号,,46,46,32,32,21,30,30,58,46,41,35,3,4,0.7,0.6
2025-12-26T2200,1401A,108.3103,22.7881,南宁市,二十一中,,39,36,44,27,18,75,75,86,85,19,12,5,4,0.6,0.5
2025-12-26T2200,1402A,108.3141,22.8528,南宁市,北湖,颗粒物(PM10),54,57,50,25,16,73,73,91,88,27,20,5,5,0.6,0.5
2025-12-26T2200,1403A,108.3206,22.8225,南宁市,市监测站,,49,49,50,27,23,74,74,84,82,21,14,8,7,0.6,0.5
2025-12-26T2200,1404A,108.3829,22.8037,南宁市,大自然花园,颗粒物(PM10),52,54,52,30,21,87,87,95,94,20,14,7,6,0.5,0.4
2025-12-26T2200,1406A,108.2397,22.8467,南宁市,区农职院,颗粒物(PM10),55,60,54,35,24,54,54,90,84,38,20,9,8,0.7,0.5
2025-12-26T2200,1407A,108.3275,22.735,南宁市,英华嘉园,细颗粒物(PM2.5),54,52,50,38,14,67,67,90,86,26,15,5,4,0.6,0.4
2025-12-26T2200,3401A,108.4834,22.7618,南宁市,红星社区,颗粒物(PM10),56,61,50,36,21,64,64,98,90,22,8,7,6,0.6,0.3
2025-12-26T2200,4221A,108.2177,22.7774,南宁市,乐贤路16号,颗粒物(PM10),58,66,66,28,23,44,44,80,65,51,29,3,12,0.5,0.4
2025-12-26T2200,2332A,118.1681,26.6369,南平市,南平市监测站,,26,24,29,18,21,25,25,74,58,28,15,4,4,0.5,0.5
2025-12-26T2200,2333A,118.1825,26.6489,南平市,南平铝业有限公司,,29,29,30,20,25,19,19,71,53,32,16,4,4,0.5,0.6
2025-12-26T2200,2334A,118.1756,26.6272,南平市,南平七中,,22,19,29,15,21,28,28,76,60,27,16,4,6,0.5,0.6
2025-12-26T2200,1168A,120.9098,31.9663,南通市,狼山街道,,29,25,19,20,11,20,20,67,51,40,13,2,3,0.6,0.5
2025-12-26T2200,1169A,120.86,32.0005,南通市,虹桥,,16,16,19,11,9,46,46,63,52,25,19,4,4,0.6,0.5
2025-12-26T2200,1170A,120.87,32.02,南通市,城中,,27,27,22,13,9,37,37,66,54,30,15,3,4,0.5,0.4
2025-12-26T2200,1171A,120.94,31.93,南通市,星湖花园,,34,34,23,20,13,32,32,65,50,36,15,4,4,0.6,0.5
2025-12-26T2200,1172A,120.81,32.0417,南通市,紫琅学院,,21,21,24,6,9,46,46,68,54,25,18,3,4,0.4,0.4
2025-12-26T2200,3291A,121.067,32.062,南通市,通州监测站,,19,19,14,9,9,44,44,71,62,28,16,3,3,0.5,0.4
2025-12-26T2200,3432A,120.9348,31.9883,南通市,环境教育馆,,40,39,24,28,11,2,2,71,41,60,19,5,5,0.5,0.3
2025-12-26T2200,2404A,112.5224,33.0122,南阳市,瓦房庄,细颗粒物(PM2.5),132,131,106,100,72,32,32,75,64,36,31,8,8,1.1,0.8
2025-12-26T2200,2405A,112.5003,32.9735,南阳市,汉画馆,细颗粒物(PM2.5),110,130,101,83,64,4,4,74,53,66,35,6,7,1.0,0.8
2025-12-26T2200,2406A,112.5573,33.027,南阳市,气象站,细颗粒物(PM2.5),104,136,119,78,68,,,77,72,39,32,7,6,0.8,0.9
2025-12-26T2200,2407A,112.5481,32.9689,南阳市,理工学院,细颗粒物(PM2.5),95,129,98,71,54,15,15,77,63,61,34,7,7,0.9,0.7
2025-12-26T2200,4008A,112.5234,32.9922,南阳市,卧龙区政府,细颗粒物(PM2.5),105,142,114,79,63,21,21,70,58,50,39,6,7,0.9,0.8
2025-12-26T2200,1234A,121.8358,29.911,宁波市,区环保大楼,颗粒物(PM10),54,57,29,16,15,3,3,63,43,64,25,4,5,0.5,0.5
2025-12-26T2200,1235A,121.56,29.82,宁波市,万里学院,颗粒物(PM10),54,58,35,37,16,5,5,69,46,73,26,4,5,0.6,0.5
2025-12-26T2200,1236A,121.713,29.9572,宁波市,龙赛医院,颗粒物(PM10),58,66,28,29,12,1,1,65,41,72,24,3,3,0.4,0.4
2025-12-26T2200,1239A,121.633,29.7733,宁波市,钱湖水厂,,23,23,29,10,13,24,24,72,54,39,21,4,6,0.7,0.6
2025-12-26T2200,1240A,121.5856,29.8635,宁波市,太古小学,颗粒物(PM10),51,51,28,24,15,16,16,72,55,54,18,2,2,0.6,0.4
2025-12-26T2200,1241A,121.524,29.8674,宁波市,市环境监测中心,,44,44,36,22,14,4,4,68,50,61,21,5,5,0.6,0.4
2025-12-26T2200,2871A,121.6147,29.9017,宁波市,万里国际学校,,37,37,31,23,13,7,7,71,44,70,28,3,4,0.4,0.3
2025-12-26T2200,3710A,121.5594,29.8975,宁波市,白沙活动中心,,35,35,31,23,14,8,8,71,46,63,24,4,4,0.8,0.7
2025-12-26T2200,2341A,119.5388,26.6612,宁德市,宁德市监测站,,19,19,28,13,18,48,48,79,75,25,16,6,6,0.5,0.5
2025-12-26T2200,3209A,119.5231,26.6562,宁德市,宁德一中,,30,30,28,16,16,54,54,76,70,15,14,3,4,0.5,0.5
2025-12-26T2200,2618A,98.8601,25.8567,怒江傈僳族自治州,州监测站,细颗粒物(PM2.5),54,50,41,38,30,38,38,65,59,17,17,6,7,0.6,0.5
2025-12-26T2200,2619A,98.8546,25.8417,怒江傈僳族自治州,泸水一中,,43,35,38,30,27,16,16,50,38,28,21,6,6,0.7,0.6
2025-12-26T2200,1888A,101.6891,26.571,攀枝花市,弄弄坪,细颗粒物(PM2.5),62,68,65,44,39,43,43,68,66,27,28,24,42,0.9,1.1
2025-12-26T2200,1889A,101.5769,26.5928,攀枝花市,河门口,细颗粒物(PM2.5),68,82,68,49,36,37,37,75,69,25,23,28,27,1.1,1.3
2025-12-26T2200,1890A,101.7169,26.585,攀枝花市,炳草岗,细颗粒物(PM2.5),72,84,61,52,35,19,19,72,61,54,33,16,46,1.2,1.1
2025-12-26T2200,1891A,101.7369,26.5008,攀枝花市,仁和,细颗粒物(PM2.5),67,78,69,48,44,27,27,70,60,27,23,11,23,1.0,1.1
2025-12-26T2200,2835A,101.7227,26.567,攀枝花市,四十中小,颗粒物(PM10),54,58,47,37,29,57,57,70,69,24,26,19,46,1.1,1.1
2025-12-26T2200,1604A,122.0303,41.1489,盘锦市,开发区,,49,49,41,24,16,11,11,38,29,41,22,15,5,0.9,0.7
2025-12-26T2200,1605A,122.0485,41.0883,盘锦市,兴隆台,,45,45,32,27,19,4,4,40,26,58,30,16,9,1.2,0.8
2025-12-26T2200,1606A,121.8297,41.1028,盘锦市,新生街道,,43,38,28,30,16,5,5,47,28,47,30,10,7,0.9,0.6
2025-12-26T2200,1832A,113.3257,33.742,平顶山市,新华旅馆,细颗粒物(PM2.5),94,117,120,70,68,17,17,73,56,59,44,9,9,0.7,0.7
2025-12-26T2200,1833A,113.2919,33.737,平顶山市,规划设计院,细颗粒物(PM2.5),102,135,126,76,71,34,34,77,65,41,39,6,7,0.7,0.7
2025-12-26T2200,1834A,113.182,33.774,平顶山市,平顶山工学院,细颗粒物(PM2.5),94,108,102,70,65,44,44,86,71,32,29,9,8,0.6,0.6
2025-12-26T2200,3204A,113.3025,33.73,平顶山市,规划局,细颗粒物(PM2.5),103,122,119,77,70,36,36,77,67,40,35,8,8,0.7,0.7
2025-12-26T2200,3594A,112.8867,33.9116,平顶山市,石龙区,细颗粒物(PM2.5),118,159,141,89,76,12,12,76,63,66,48,11,9,0.8,0.7
2025-12-26T2200,2656A,106.6692,35.5461,平凉市,聚贤嘉苑,颗粒物(PM10),51,52,54,31,28,28,28,74,61,50,36,6,6,0.7,0.6
2025-12-26T2200,2657A,106.7021,35.5307,平凉市,博物馆,"颗粒物(PM10),细颗粒物(PM2.5)",58,66,64,41,36,28,28,73,63,43,33,14,11,1.1,0.8
2025-12-26T2200,2348A,113.8385,27.6434,萍乡市,中医院,细颗粒物(PM2.5),78,89,86,57,55,67,67,98,90,29,19,10,9,0.8,0.8
2025-12-26T2200,2349A,113.8493,27.6253,萍乡市,市政府车库,细颗粒物(PM2.5),70,75,76,51,54,66,66,96,88,22,15,13,10,0.6,0.8
2025-12-26T2200,2350A,113.8676,27.6435,萍乡市,市环保局,细颗粒物(PM2.5),82,79,75,60,56,82,82,111,102,22,17,20,18,0.3,0.3
2025-12-26T2200,2351A,113.866,27.6198,萍乡市,安源区政府,细颗粒物(PM2.5),85,100,81,63,53,59,59,84,76,29,25,15,13,1.2,1.4
2025-12-26T2200,2319A,119.0141,25.4325,莆田市,荔城区仓后路,,28,28,34,12,22,75,75,79,76,12,13,4,4,0.5,0.5
2025-12-26T2200,2320A,119.0015,25.4553,莆田市,莆田市监测站,,25,22,29,11,20,80,80,82,80,11,12,5,5,0.4,0.4
2025-12-26T2200,2321A,119.1119,25.4561,莆田市,涵江区六中,,25,25,33,12,20,76,76,80,78,13,12,4,4,0.4,0.4
2025-12-26T2200,2322A,119.1013,25.3215,莆田市,秀屿区政府,,25,16,34,9,21,79,79,84,82,14,15,4,4,0.7,0.6
2025-12-26T2200,2392A,115.0312,35.7636,濮阳市,环保局,细颗粒物(PM2.5),74,74,52,54,36,34,34,56,48,29,28,8,9,0.8,0.8
2025-12-26T2200,2394A,115.0574,35.7609,濮阳市,油田运输公司,细颗粒物(PM2.5),90,92,67,67,39,29,29,54,46,38,33,9,10,1.1,1
2025-12-26T2200,3021A,115,35.7668,濮阳市,濮水河管理处,细颗粒物(PM2.5),74,88,66,54,28,39,39,59,52,26,24,6,8,0.8,0.7
2025-12-26T2200,4216A,115.0924,35.7686,濮阳市,任丘路479号,细颗粒物(PM2.5),85,85,64,63,42,28,28,52,45,31,29,9,9,0.6,0.5
2025-12-26T2200,2601A,100.98,22.7633,普洱市,市环保局,,49,49,41,13,11,28,28,65,54,14,10,4,4,0.5,0.4
2025-12-26T2200,2602A,100.9817,22.8322,普洱市,普洱第二中学,,43,43,34,21,18,29,29,66,52,17,16,4,5,0.5,0.4
2025-12-26T2200,3345A,131.0577,45.7879,七台河市,中波台,,29,29,46,18,15,46,46,45,40,11,12,10,8,0.3,0.3
2025-12-26T2200,3637A,131.0176,45.7761,七台河市,人民广场,,33,25,41,23,23,44,44,48,41,17,13,6,6,0.4,0.4
2025-12-26T2200,3684A,130.8781,45.8222,七台河市,新建矿广场,,29,,37,20,22,47,47,45,42,6,6,5,8,0.3,0.3
2025-12-26T2200,1779A,123.9305,47.3636,齐齐哈尔市,安居小区,,33,33,21,19,15,42,42,55,48,17,16,3,3,0.7,0.6
2025-12-26T2200,1780A,123.9488,47.3386,齐齐哈尔市,中心广场,,,129,19,19,10,,,53,,8,9,9,8,0.5,0.7
2025-12-26T2200,1781A,123.9483,47.3227,齐齐哈尔市,农牧车辆厂,,36,36,27,23,14,40,40,51,43,13,14,5,6,0.7,0.6
2025-12-26T2200,1783A,123.945,47.2988,齐齐哈尔市,市环境监测站,,36,36,28,20,15,40,40,53,44,16,13,9,9,0.7,0.6
2025-12-26T2200,3662A,123.6333,47.2075,齐齐哈尔市,富区青少年活动中心,颗粒物(PM10),77,103,34,44,17,37,37,56,49,25,20,14,8,2.2,0.8
2025-12-26T2200,2591A,107.9783,26.5747,黔东南苗族侗族自治州,市环境监测站,颗粒物(PM10),53,56,54,32,32,61,61,65,64,15,17,8,7,0.5,0.6
2025-12-26T2200,2881A,107.8908,26.5311,黔东南苗族侗族自治州,凯里学院,颗粒物(PM10),54,58,61,33,28,67,67,72,70,14,16,5,6,0.5,0.5
2025-12-26T2200,2593A,107.5228,26.2403,黔南布依族苗族自治州,小围寨,颗粒物(PM10),53,56,57,34,29,50,50,65,61,11,10,6,7,0.6,0.6
2025-12-26T2200,3538A,107.5175,26.2978,黔南布依族苗族自治州,沙坝,"颗粒物(PM10),细颗粒物(PM2.5)",58,66,60,41,34,48,48,66,62,16,16,7,6,0.3,0.3
2025-12-26T2200,2589A,104.9022,25.0925,黔西南布依族苗族自治州,场坝街,细颗粒物(PM2.5),65,55,37,47,28,47,47,52,50,10,9,2,3,0.6,0.6
2025-12-26T2200,2590A,104.8811,25.0992,黔西南布依族苗族自治州,坪东大道,细颗粒物(PM2.5),53,44,36,37,27,50,50,52,51,8,8,6,6,0.5,0.5
2025-12-26T2200,2502A,108.6236,21.9667,钦州市,市环保站,颗粒物(PM10),69,88,68,31,23,73,73,92,85,26,19,3,4,0.7,0.9
2025-12-26T2200,2503A,108.6549,21.9481,钦州市,沙埠小学,细颗粒物(PM2.5),64,73,56,46,21,66,66,98,90,32,17,25,9,0.7,0.5
2025-12-26T2200,2504A,108.5989,21.7431,钦州市,港区一小,颗粒物(PM10),63,75,63,26,21,56,56,84,77,44,25,7,8,0.4,0.3
2025-12-26T2200,3404A,108.5959,21.9633,钦州市,北职校,颗粒物(PM10),64,77,53,33,26,64,64,95,86,22,10,8,8,0.6,0.5
2025-12-26T2200,1043A,119.7493,40.0116,秦皇岛市,第一关,颗粒物(PM10),60,70,32,40,21,8,8,48,20,78,36,12,9,1.2,0.3
2025-12-26T2200,1044A,119.5897,39.9499,秦皇岛市,监测站,颗粒物(PM10),55,59,42,32,18,9,9,43,23,48,36,8,9,0.8,0.6
2025-12-26T2200,1046A,119.5251,39.9041,秦皇岛市,建设大厦,细颗粒物(PM2.5),79,71,49,58,34,18,18,43,24,37,37,6,8,0.6,0.5
2025-12-26T2200,3132A,119.610547,39.943889,秦皇岛市,文明里,,46,46,37,23,17,10,10,44,22,33,21,9,11,0.6,0.3
2025-12-26T2200,4198A,119.5090,39.8253,秦皇岛市,北戴河轮滑馆,颗粒物(PM10),59,67,40,23,10,6,6,51,30,55,23,4,5,0.8,0.4
2025-12-26T2200,1310A,120.4134,36.0658,青岛市,市南区东部子站,,23,6,22,3,9,71,71,68,68,5,18,8,10,0.4,0.6
2025-12-26T2200,1311A,120.3664,36.1032,青岛市,四方区子站,,39,39,35,12,11,53,53,69,65,25,19,2,4,0.5,0.6
2025-12-26T2200,1312A,120.2994,36.054,青岛市,市南区西部子站,,22,22,20,7,10,39,39,54,47,26,18,4,4,0.5,0.4
2025-12-26T2200,1313A,120.4581,36.0858,青岛市,崂山区子站,,24,6,19,3,7,76,76,71,71,6,18,8,11,0.4,0.5
2025-12-26T2200,1315A,120.3999,36.3083,青岛市,城阳区子站,,34,34,34,12,14,29,29,57,44,47,33,6,7,0.6,0.7
2025-12-26T2200,3362A,120.5014,36.4034,青岛市,即墨2号,,36,36,46,18,22,8,8,48,29,42,23,13,11,0.7,0.8
2025-12-26T2200,3642A,120.3503,36.0736,青岛市,市北区南部,,17,15,25,3,6,52,52,59,58,15,16,3,6,0.3,0.4
2025-12-26T2200,3643A,120.3948,36.1805,青岛市,李沧区北部,,34,34,27,22,18,24,24,50,41,50,28,9,14,0.8,0.8
2025-12-26T2200,4290A,120.1969,35.9546,青岛市,珠江路669号,,19,17,15,12,10,58,58,66,64,15,20,10,11,0.5,0.4
2025-12-26T2200,4291A,120.0424,35.8656,青岛市,黄岛区人民政府广场,,22,22,25,9,10,57,57,69,66,21,26,7,7,0.6,0.7
2025-12-26T2200,1703A,113.0208,23.7106,清远市,凤城街办,,38,38,35,24,22,51,51,70,62,23,20,8,8,0.6,0.6
2025-12-26T2200,3025A,113.0477,23.6344,清远市,技师学院,,43,43,38,24,22,39,39,65,55,33,23,7,8,0.8,0.7
2025-12-26T2200,3318A,112.9903,23.7403,清远市,清新太和,,27,27,31,17,17,43,43,75,58,20,16,10,11,0.5,0.5
2025-12-26T2200,3455A,113.076,23.7198,清远市,清城东城,,39,39,38,20,21,51,51,69,60,19,18,7,7,0.5,0.5
2025-12-26T2200,2661A,107.6325,35.7357,庆阳市,庆阳五中,细颗粒物(PM2.5),70,79,72,51,39,63,63,76,71,27,24,7,7,0.6,0.5
2025-12-26T2200,2662A,107.6364,35.7067,庆阳市,市环保局,细颗粒物(PM2.5),78,78,70,57,40,72,72,78,73,16,15,4,4,0.4,0.4
2025-12-26T2200,1916A,103.7897,25.5035,曲靖市,环境监测站,,43,43,49,22,27,25,25,72,63,38,17,3,4,0.4,0.4
2025-12-26T2200,1917A,103.8,25.5364,曲靖市,烟厂办公区,,50,50,50,29,29,18,18,73,66,44,16,5,4,0.7,0.5
2025-12-26T2200,3376A,103.7947,25.462,曲靖市,南苑二区,颗粒物(PM10),59,67,50,34,30,52,52,78,72,15,12,4,5,0.5,0.5
2025-12-26T2200,3377A,103.7444,25.5261,曲靖市,曲靖师范学院,颗粒物(PM10),55,59,47,22,31,31,31,73,64,26,13,3,3,0.7,0.5
2025-12-26T2200,1264A,118.8692,28.9398,衢州市,环保大楼,,45,45,57,30,38,37,37,65,52,36,37,5,5,0.5,0.6
2025-12-26T2200,1265A,118.8709,28.9666,衢州市,实验学校,,42,42,56,28,39,33,33,65,50,38,35,6,5,0.6,0.6
2025-12-26T2200,1266A,118.8621,28.9808,衢州市,衢州学院,,36,36,52,25,36,17,17,63,45,55,40,4,4,0.6,0.7
2025-12-26T2200,1611A,118.5819,24.9117,泉州市,涂山街,,29,29,31,17,21,65,65,79,72,18,14,3,3,0.5,0.5
2025-12-26T2200,1612A,118.5972,24.8978,泉州市,津头埔,,29,29,32,19,24,60,60,74,66,23,18,4,4,0.4,0.4
2025-12-26T2200,1613A,118.6663,24.9424,泉州市,万安,,33,33,37,16,20,56,56,80,72,27,16,3,4,0.5,0.5
2025-12-26T2200,3529A,118.6333,24.9264,泉州市,城华南路,,35,35,35,18,20,53,53,80,68,27,19,5,5,0.6,0.6
2025-12-26T2200,2626A,88.8876,29.2718,日喀则市,日喀则监测站,,,126,60,,17,20,20,72,59,69,29,42,21,1.8,1.1
2025-12-26T2200,3726A,88.8781,29.2426,日喀则市,林业技术推广中心,颗粒物(PM10),52,53,26,28,9,37,37,79,72,18,8,14,10,0.6,0.4
2025-12-26T2200,1659A,119.471,35.4209,日照市,监测站,颗粒物(PM10),53,56,36,31,20,3,3,50,30,71,41,16,11,0.9,0.9
2025-12-26T2200,1660A,119.523,35.4216,日照市,市政府广场,,31,31,28,20,12,41,41,52,45,32,31,19,12,1.0,1
2025-12-26T2200,1661A,119.5587,35.4044,日照市,港务局,,40,36,35,28,19,20,20,51,32,56,35,18,10,0.8,0.7
2025-12-26T2200,3507A,119.5328,35.4625,日照市,职业技术学院,,41,41,28,19,9,36,36,53,44,40,30,16,10,1.0,0.8
2025-12-26T2200,3604A,119.3266,35.1044,日照市,岚山环保分局,,22,22,37,14,22,67,67,62,62,11,28,10,27,0.6,2
2025-12-26T2200,1835A,111.1922,34.7752,三门峡市,市政府,细颗粒物(PM2.5),107,104,63,80,46,2,2,45,20,57,38,12,13,0.9,0.6
2025-12-26T2200,1836A,111.1587,34.7942,三门峡市,开发区,细颗粒物(PM2.5),104,108,78,78,49,8,8,41,23,50,33,11,12,0.9,0.6
2025-12-26T2200,3039A,111.1911,34.7829,三门峡市,三门峡市第一小学,细颗粒物(PM2.5),105,117,77,79,45,2,2,41,22,62,33,11,12,1.0,0.7
2025-12-26T2200,3598A,111.1,34.7167,三门峡市,富达温泉假日酒店,颗粒物(PM10),87,123,84,59,43,8,8,12,11,49,46,14,18,1.0,0.7
2025-12-26T2200,2324A,117.6211,26.2625,三明市,三钢,,38,38,29,22,26,25,25,73,57,36,16,6,6,0.6,0.6
2025-12-26T2200,2325A,117.635,26.2714,三明市,三明二中,,32,22,26,22,20,30,30,71,61,26,11,8,9,0.6,0.6
2025-12-26T2200,2326A,117.6028,26.2378,三明市,三元区政府,,38,38,27,21,16,6,6,76,58,47,15,8,9,0.7,0.5
2025-12-26T2200,1876A,109.5078,18.2489,三亚市,河东子站,,25,25,16,16,11,70,70,83,81,11,9,5,5,0.7,0.8
2025-12-26T2200,1877A,109.4964,18.2681,三亚市,河西子站,,35,35,18,20,11,69,69,84,82,10,8,4,4,0.6,0.6
2025-12-26T2200,3540A,109.7348,18.3443,三亚市,君悦子站,,30,26,21,21,11,58,58,79,76,11,9,6,5,0.7,0.8
2025-12-26T2200,2624A,91.7608,29.2313,山南市,山南监测站,,33,33,28,19,15,50,50,73,67,33,20,7,6,0.7,0.4
2025-12-26T2200,2625A,91.7706,29.2436,山南市,山南人民医院,,20,17,20,8,11,63,63,68,68,12,15,8,6,0.5,0.5
2025-12-26T2200,1674A,116.6794,23.3667,汕头市,金平子站,,26,25,24,18,18,75,75,87,86,16,17,5,6,0.7,0.8
2025-12-26T2200,1675A,116.7244,23.3633,汕头市,龙湖子站,,26,26,24,15,11,73,73,83,82,14,14,9,10,0.5,0.7
2025-12-26T2200,1676A,116.7258,23.2775,汕头市,濠江子站,,26,26,24,17,16,72,72,84,83,14,16,7,8,0.5,0.7
2025-12-26T2200,1677A,116.7519,23.4714,汕头市,澄海子站,,33,33,28,19,17,74,74,84,83,17,17,6,7,0.5,0.7
2025-12-26T2200,1678A,116.6092,23.2539,汕头市,潮阳子站,,25,25,23,12,12,80,80,88,88,13,17,6,8,0.4,0.6
2025-12-26T2200,3444A,116.454,23.2684,汕头市,潮南峡山,,29,29,28,16,18,81,81,82,82,12,16,8,9,0.4,0.6
2025-12-26T2200,3624A,116.4069,23.2533,汕头市,潮南子站,,39,39,35,19,19,74,74,70,70,17,20,8,7,0.6,0.7
2025-12-26T2200,1693A,115.3653,22.775,汕尾市,市环保局,,33,27,22,23,17,34,34,53,42,15,12,7,7,0.7,0.6
2025-12-26T2200,1694A,115.3706,22.7898,汕尾市,市政府,,32,29,20,22,16,36,36,56,45,16,13,7,7,0.6,0.6
2025-12-26T2200,1695A,115.3622,22.7925,汕尾市,新城中学,,35,27,23,24,18,35,35,55,43,16,11,5,5,0.6,0.6
2025-12-26T2200,2645A,109.9154,33.8715,商洛市,监测站,细颗粒物(PM2.5),75,78,66,55,33,14,14,58,39,56,37,8,10,1.0,0.6
2025-12-26T2200,3045A,109.9643,33.8471,商洛市,商州区中学,细颗粒物(PM2.5),72,68,65,52,35,9,9,56,40,50,37,8,9,0.7,0.8
