timepoint,stationcode,longitude,latitude,area,positionname,primarypollutant,aqi,pm10,pm10_24h,pm2_5,pm2_5_24h,o3,o3_24h,o3_8h,o3_8h_24h,no2,no2_24h,so2,so2_24h,co,co_24h
2023-07-15T18:00:00,1001A,116.3621,39.8784,北京市,万寿西宫,,34,14,15,8,8,114,106,108,108,6,9,3,3,0.4,0.4
2023-07-15T18:00:00,1002A,116.2202,40.2915,北京市,定陵,,31,12,13,6,7,108,98,106,100,2,2,1,2,0.3,0.3
2023-07-15T18:00:00,1003A,116.4174,39.9289,北京市,东四,,31,18,20,8,8,108,99,101,101,7,11,3,3,0.2,0.2
2023-07-15T18:00:00,1004A,116.4072,39.8863,北京市,天坛,,33,17,17,9,10,108,103,104,104,14,16,3,3,0.2,0.2
2023-07-15T18:00:00,1005A,116.462,39.9365,北京市,农展馆,,32,14,15,7,7,108,102,103,103,4,9,3,2,0.3,0.3
2023-07-15T18:00:00,1006A,116.3392,39.9295,北京市,官园,,31,18,15,10,9,107,99,102,102,6,8,4,4,0.1,0.2
2023-07-15T18:00:00,1007A,116.2878,39.9611,北京市,海淀万柳,,33,17,16,8,8,112,104,105,104,8,11,3,3,0.2,0.2
2023-07-15T18:00:00,1008A,116.6636,40.135,北京市,顺义新城,,29,10,15,6,9,108,91,102,98,8,6,3,3,0.2,0.2
2023-07-15T18:00:00,1009A,116.6275,40.3275,北京市,怀柔镇,,29,12,8,7,4,110,92,103,97,8,7,3,3,0.5,0.5
2023-07-15T18:00:00,1010A,116.2296,40.217,北京市,昌平镇,,29,18,17,10,9,106,92,102,97,4,8,3,3,0.3,0.2
2023-07-15T18:00:00,1011A,116.3966,39.9821,北京市,奥体中心,,27,18,21,7,9,90,85,88,87,12,17,2,2,0.0,0
2023-07-15T18:00:00,1012A,116.184,39.9136,北京市,古城,,30,16,17,10,11,105,96,99,99,7,7,3,3,0.2,0.2
2023-07-15T18:00:00,1015A,117.1444,39.1661,天津市,勤俭道,,36,18,15,5,5,133,115,122,122,5,13,5,6,0.4,0.4
2023-07-15T18:00:00,1017A,117.237,39.1082,天津市,大直沽八号路,,33,14,15,5,6,122,105,114,114,4,9,1,1,0.4,0.4
2023-07-15T18:00:00,1018A,117.202,39.0927,天津市,前进道,,35,13,13,6,5,127,110,118,118,8,16,4,4,0.5,0.5
2023-07-15T18:00:00,1019A,117.1837,39.2133,天津市,淮河道,,34,14,12,5,6,126,108,117,117,11,15,4,5,0.4,0.5
2023-07-15T18:00:00,1021A,117.307,39.0877,天津市,跃进路,,34,16,15,5,5,129,108,118,118,7,11,5,6,0.4,0.4
2023-07-15T18:00:00,1023A,117.707,39.0343,天津市,第四大街,,34,10,13,2,5,127,106,115,115,11,12,4,4,0.6,0.5
2023-07-15T18:00:00,1024A,117.457,38.8394,天津市,永明路,,35,17,18,6,7,140,109,125,125,15,21,4,4,0.3,0.3
2023-07-15T18:00:00,1026A,117.764,39.1587,天津市,汉北路,,39,9,13,2,5,130,122,123,123,10,13,4,4,0.5,0.4
2023-07-15T18:00:00,1027A,117.157,38.9194,天津市,团泊洼,,34,15,14,5,6,126,108,114,114,8,14,2,3,0.3,0.3
2023-07-15T18:00:00,1029A,114.4422,38.0444,石家庄市,职工医院,,39,38,26,14,11,129,124,126,126,3,13,2,3,0.3,0.3
2023-07-15T18:00:00,1030A,114.6063,38.0266,石家庄市,高新区,,41,28,31,9,14,135,131,130,130,7,12,3,2,0.2,0.3
2023-07-15T18:00:00,1031A,114.4898,38.1328,石家庄市,西北水源,,40,39,32,12,11,130,128,124,124,7,12,1,1,0.2,0.2
2023-07-15T18:00:00,1032A,114.4586,38.0058,石家庄市,西南高教,,39,17,25,14,8,129,123,125,125,2,7,3,2,0.3,0.3
2023-07-15T18:00:00,1033A,114.5331,38.0178,石家庄市,世纪公园,,40,36,21,12,13,130,127,125,125,7,13,2,3,0.3,0.2
2023-07-15T18:00:00,1034A,114.509,38.0457,石家庄市,人民会堂,,41,31,29,7,5,136,129,130,130,11,13,2,2,0.3,0.3
2023-07-15T18:00:00,1035A,114.3524,37.8911,石家庄市,封龙山,,37,29,25,10,14,121,116,114,114,6,6,1,1,0.5,0.5
2023-07-15T18:00:00,1037A,118.131,39.6363,唐山市,雷达站,,26,21,25,8,7,130,83,114,111,19,12,1,2,0.2,0.3
2023-07-15T18:00:00,1038A,118.1725,39.6334,唐山市,物资局,,30,21,24,14,14,125,93,112,111,13,9,3,4,0.3,0.3
2023-07-15T18:00:00,1040A,118.1705,39.6506,唐山市,十二中,,29,19,17,10,18,126,90,111,110,12,8,1,2,0.3,0.3
2023-07-15T18:00:00,1041A,118.1869,39.622,唐山市,小山,,29,11,15,2,5,122,91,110,109,15,9,4,4,0.4,0.4
2023-07-15T18:00:00,1042A,119.5134,39.8207,秦皇岛市,北戴河环保局,,40,4,12,6,6,145,126,122,122,3,6,3,3,0.5,0.5
2023-07-15T18:00:00,1043A,119.7493,40.0116,秦皇岛市,第一关,,36,16,17,8,8,141,114,108,108,6,10,3,3,0.3,0.3
2023-07-15T18:00:00,1044A,119.5897,39.9499,秦皇岛市,监测站,,34,18,33,8,10,130,107,108,108,10,11,3,2,0.4,0.3
2023-07-15T18:00:00,1046A,119.5251,39.9041,秦皇岛市,建设大厦,,36,32,28,5,11,144,114,114,114,9,10,3,3,0.4,0.3
2023-07-15T18:00:00,1048A,114.5302,36.6116,邯郸市,东污水处理厂,,45,23,34,7,16,147,142,132,132,8,17,4,8,0.4,0.6
2023-07-15T18:00:00,1049A,114.4918,36.5713,邯郸市,矿院,,48,27,38,9,15,153,151,136,136,4,15,3,10,0.2,0.6
2023-07-15T18:00:00,1050A,114.484,36.6133,邯郸市,丛台公园,,47,18,34,8,14,162,150,136,136,3,12,2,12,0.3,0.7
2023-07-15T18:00:00,1051A,115.493,38.8632,保定市,游泳馆,,,,19,,4,135,108,126,125,2,7,6,6,0.1,0
2023-07-15T18:00:00,1052A,115.5213,38.8959,保定市,华电二区,,32,25,19,6,11,128,101,120,118,3,8,6,4,0.0,0.1
2023-07-15T18:00:00,1053A,115.4713,38.9108,保定市,接待中心,,30,28,27,5,7,121,93,112,110,6,8,2,2,0.1,0.1
2023-07-15T18:00:00,1054A,115.4612,38.8416,保定市,地表水厂,,33,33,37,8,11,128,102,118,117,6,16,8,8,0.2,0.2
2023-07-15T18:00:00,1056A,115.5086,38.8639,保定市,监测站,,35,28,27,11,14,137,110,128,127,6,12,3,4,0.1,0.2
2023-07-15T18:00:00,1057A,114.8883,40.8336,张家口市,人民公园,,33,18,13,14,6,112,105,107,107,2,2,3,3,0.2,0.1
2023-07-15T18:00:00,1059A,114.8687,40.8042,张家口市,五金库,,31,13,18,12,9,104,98,99,99,8,6,2,3,0.3,0.3
2023-07-15T18:00:00,1060A,114.8902,40.762,张家口市,世纪豪园,,33,13,19,20,17,111,103,105,105,5,3,2,2,0.2,0.1
2023-07-15T18:00:00,1061A,114.8916,40.8661,张家口市,北泵房,,34,8,16,7,8,113,107,109,108,5,5,6,6,0.5,0.5
2023-07-15T18:00:00,1062A,117.9531,40.9081,承德市,铁路,,22,15,9,2,6,113,68,100,91,25,9,13,7,0.3,0.2
2023-07-15T18:00:00,1063A,117.9392,40.9763,承德市,中国银行,,25,17,13,6,6,115,77,102,94,17,8,17,4,0.4,0.2
2023-07-15T18:00:00,1064A,117.9503,40.928,承德市,开发区,,25,21,15,12,12,116,78,107,101,14,5,12,6,0.3,0.2
2023-07-15T18:00:00,1065A,117.8051,40.9655,承德市,文化中心,,26,24,13,18,5,110,68,101,92,21,8,22,9,0.5,0.3
2023-07-15T18:00:00,1066A,117.9268,41.0026,承德市,离宫,,20,15,11,14,13,109,56,100,90,7,3,7,6,0.3,0.2
2023-07-15T18:00:00,1067A,116.6708,39.5111,廊坊市,药材公司,,35,20,27,12,11,123,109,113,113,6,16,3,2,0.2,0.3
2023-07-15T18:00:00,1068A,116.7214,39.5589,廊坊市,开发区,,35,21,24,18,13,127,109,116,115,4,13,2,2,0.3,0.3
2023-07-15T18:00:00,1070A,116.7244,39.5269,廊坊市,北华航天学院,,34,24,26,13,13,124,107,113,112,4,13,4,5,0.2,0.3
2023-07-15T18:00:00,1071A,116.8842,38.2991,沧州市,沧县城建局,,43,12,23,7,9,162,136,148,148,9,14,4,4,0,0
2023-07-15T18:00:00,1072A,116.8584,38.3254,沧州市,电视转播站,,43,20,28,0,6,160,137,148,148,10,16,3,4,0.2,0.2
2023-07-15T18:00:00,1073A,116.8709,38.3228,沧州市,市环保局,,46,23,32,8,14,168,145,154,154,17,22,4,3,0.1,0.1
2023-07-15T18:00:00,1074A,115.6838,37.7541,衡水市,电机北厂,臭氧1小时,57,27,26,16,9,165,165,150,150,6,7,3,4,0.2,0.2
2023-07-15T18:00:00,1075A,115.6303,37.7316,衡水市,市监测站,臭氧1小时,52,18,23,13,9,161,161,145,145,7,10,8,10,0.4,0.4
2023-07-15T18:00:00,1077A,114.4704,37.0886,邢台市,达活泉,,47,36,42,5,7,152,150,137,137,2,5,3,7,0.4,0.4
2023-07-15T18:00:00,1078A,114.5062,37.0349,邢台市,邢师高专,,47,29,43,9,11,153,150,137,137,5,15,4,6,0.0,0.3
2023-07-15T18:00:00,1079A,114.5237,37.0851,邢台市,路桥公司,,50,30,36,11,10,163,157,146,146,2,9,4,6,0.2,0.2
2023-07-15T18:00:00,1080A,114.4725,37.0719,邢台市,市环保局,,49,29,35,8,10,159,156,144,144,8,11,6,7,0.3,0.3
2023-07-15T18:00:00,1081A,112.522,37.8873,太原市,尖草坪,,44,30,25,9,11,140,138,128,128,16,15,12,7,1.3,0.5
2023-07-15T18:00:00,1083A,112.434,38.0108,太原市,上兰,,,,,,,,,,,,,,,,
2023-07-15T18:00:00,1084A,112.469,37.7124,太原市,晋源,,46,29,24,10,17,147,145,132,132,12,16,4,3,0.4,0.4
2023-07-15T18:00:00,1085A,112.5583,37.7394,太原市,小店,,45,26,29,10,11,145,142,131,131,14,21,4,4,0.3,0.4
2023-07-15T18:00:00,1086A,112.5369,37.8692,太原市,桃园,,45,28,22,9,11,144,142,130,130,9,14,6,5,0.3,0.4
2023-07-15T18:00:00,1087A,112.57,37.8195,太原市,坞城,,44,35,34,13,15,142,140,130,130,10,18,4,3,0.3,0.4
2023-07-15T18:00:00,1088A,112.549,37.9854,太原市,南寨,颗粒物(PM10),61,71,40,12,12,142,140,131,131,14,32,5,4,0.3,0.4
2023-07-15T18:00:00,1090A,111.6507,40.7517,呼和浩特市,呼市一监,,35,7,9,6,5,113,112,102,102,6,9,6,6,0.3,0.3
2023-07-15T18:00:00,1091A,111.6572,40.8033,呼和浩特市,小召,,35,9,9,6,5,112,111,102,102,9,11,7,7,0.5,0.5
2023-07-15T18:00:00,1094A,111.7516,40.8369,呼和浩特市,如意水处理厂,,37,12,10,6,5,119,118,108,108,6,9,8,8,0.3,0.3
2023-07-15T18:00:00,1095A,111.7276,40.8062,呼和浩特市,二十九中,,36,9,12,6,5,113,113,102,102,8,10,6,6,0.4,0.4
2023-07-15T18:00:00,1096A,111.5512,40.7866,呼和浩特市,工大金川校区,,33,8,11,6,4,106,104,95,95,9,11,5,6,0.3,0.3
2023-07-15T18:00:00,1097A,111.717,40.7612,呼和浩特市,化肥厂生活区,,32,22,15,8,6,101,101,93,93,9,12,5,5,0.5,0.5
2023-07-15T18:00:00,1098A,123.6836,41.9339,沈阳市,森林路,,,,,,,,,,,,,,,,
2023-07-15T18:00:00,1099A,123.505,41.7406,沈阳市,浑南东路,,24,9,25,6,12,132,76,128,68,20,19,6,9,0.5,0.7
2023-07-15T18:00:00,1100A,123.4231,41.6989,沈阳市,新秀街,,18,10,23,5,10,138,57,124,65,29,16,5,4,0.4,0.6
2023-07-15T18:00:00,1102A,123.5903,41.8411,沈阳市,东陵路,,20,10,23,2,9,128,64,119,62,8,10,6,8,0.4,0.7
2023-07-15T18:00:00,1103A,123.4264,41.8467,沈阳市,陵东街,,20,8,20,3,10,137,62,128,65,10,10,3,3,0.4,0.6
2023-07-15T18:00:00,1104A,123.4114,41.7653,沈阳市,文化路,,24,10,26,7,14,151,76,141,71,15,13,7,7,0.5,0.7
2023-07-15T18:00:00,1105A,123.4678,41.7867,沈阳市,小河沿,,22,14,25,3,12,132,70,126,65,16,16,4,4,0.5,0.7
2023-07-15T18:00:00,1106A,123.4017,41.7972,沈阳市,太原街,,24,14,26,4,13,152,75,141,67,18,15,3,4,0.5,0.7
2023-07-15T18:00:00,1108A,123.3783,41.9228,沈阳市,京沈街,,26,10,30,6,13,164,81,150,80,5,7,6,7,0.4,0.6
2023-07-15T18:00:00,1109A,121.612,38.9741,大连市,甘井子,,39,15,20,9,15,160,123,141,114,13,13,5,4,0.5,0.5
2023-07-15T18:00:00,1110A,121.565,38.9511,大连市,周水子,,40,16,24,9,13,182,126,137,114,15,15,5,5,0.4,0.5
2023-07-15T18:00:00,1111A,121.5637,38.8845,大连市,星海三站,,39,15,28,6,16,174,124,148,114,10,12,4,4,0.4,0.5
2023-07-15T18:00:00,1112A,121.6302,38.9117,大连市,青泥洼桥,,37,21,23,8,15,178,116,138,107,18,13,5,5,0.5,0.7
2023-07-15T18:00:00,1113A,121.6251,38.8638,大连市,傅家庄,,36,26,33,6,15,206,115,150,106,13,12,7,7,0.4,0.6
2023-07-15T18:00:00,1114A,121.5213,38.8661,大连市,七贤岭,,44,17,24,6,15,194,140,154,129,5,7,6,5,0.3,0.4
2023-07-15T18:00:00,1115A,121.2529,38.8061,大连市,旅顺,,39,18,26,9,14,186,122,155,120,11,13,3,4,0.2,0.3
2023-07-15T18:00:00,1116A,121.7485,39.1311,大连市,金州,,38,22,31,8,13,171,121,131,109,8,14,6,7,0.5,0.7
2023-07-15T18:00:00,1117A,121.7811,39.0496,大连市,开发区,,37,23,33,8,17,156,116,133,106,16,17,6,5,0.5,0.6
2023-07-15T18:00:00,1118A,121.9762,39.0631,大连市,双D港,,39,14,30,5,20,176,123,138,114,13,15,7,7,0.3,0.5
2023-07-15T18:00:00,1119A,125.3325,43.9166,长春市,食品厂,,15,10,15,6,9,85,46,80,50,23,27,5,5,0.5,0.5
2023-07-15T18:00:00,1120A,125.2863,43.9027,长春市,客车厂,,16,10,14,6,9,88,51,84,53,15,19,4,4,0.4,0.5
2023-07-15T18:00:00,1121A,125.2841,43.8463,长春市,邮电学院,,13,12,14,4,5,102,40,69,57,12,10,4,4,0.4,0.4
2023-07-15T18:00:00,1122A,125.3716,43.8772,长春市,劳动公园,,18,10,15,4,5,89,55,76,58,11,12,5,5,0.4,0.4
2023-07-15T18:00:00,1123A,125.3297,43.8805,长春市,园林处,,17,12,14,3,6,100,52,84,54,12,16,4,3,0.3,0.4
2023-07-15T18:00:00,1124A,125.4605,43.79,长春市,净月潭,,13,13,14,3,3,85,37,60,48,8,8,3,3,0.2,0.3
2023-07-15T18:00:00,1125A,125.7194,43.515,长春市,甩湾子,,15,9,13,4,4,100,48,98,64,4,4,4,4,0.6,0.7
2023-07-15T18:00:00,1126A,125.3863,43.8447,长春市,经开区环卫处,,19,17,14,4,6,93,59,80,61,14,15,5,5,0.4,0.4
2023-07-15T18:00:00,1127A,125.245,43.7783,长春市,高新区管委会,,19,6,11,4,5,99,58,90,59,9,11,4,4,0.3,0.3
2023-07-15T18:00:00,1128A,125.1761,43.8325,长春市,岱山公园,,17,5,11,4,5,87,53,77,60,14,18,3,3,0.4,0.4
2023-07-15T18:00:00,1129A,126.5422,45.755,哈尔滨市,岭北,,14,3,6,2,4,67,43,54,44,8,12,12,13,0.2,0.2
2023-07-15T18:00:00,1130A,126.561,45.8167,哈尔滨市,松北商大,,10,9,8,2,3,67,32,50,35,7,7,5,5,0.6,0.5
2023-07-15T18:00:00,1131A,126.979,45.5419,哈尔滨市,阿城会宁,,12,12,7,6,3,54,36,45,40,10,10,11,10,0.5,0.4
2023-07-15T18:00:00,1132A,126.599,45.7222,哈尔滨市,南岗学府路,,10,10,16,3,5,64,31,40,33,7,11,4,5,0.6,0.6
2023-07-15T18:00:00,1133A,126.689,45.7733,哈尔滨市,太平宏伟公园,,18,14,9,12,5,58,32,45,34,13,15,4,5,0.5,0.4
2023-07-15T18:00:00,1134A,126.635,45.7667,哈尔滨市,道外承德广场,,13,11,11,9,4,58,34,42,29,12,20,8,8,0.5,0.6
2023-07-15T18:00:00,1135A,126.685,45.7319,哈尔滨市,香坊红旗大街,,12,7,9,2,3,63,36,47,37,12,15,5,6,0.5,0.4
2023-07-15T18:00:00,1136A,126.6411,45.7258,哈尔滨市,动力和平路,,,4,9,,,60,34,48,36,13,15,6,7,0.5,0.5
2023-07-15T18:00:00,1137A,126.593,45.7478,哈尔滨市,道里建国路,,27,27,10,6,6,61,38,48,37,13,18,5,5,0.6,0.7
2023-07-15T18:00:00,1138A,126.615,45.61,哈尔滨市,平房东轻厂,,22,22,19,9,8,52,22,46,26,20,17,7,9,0.6,0.6
2023-07-15T18:00:00,1139A,126.595,45.9855,哈尔滨市,呼兰师专,,17,17,6,1,1,76,35,63,38,13,11,8,7,0.4,0.4
2023-07-15T18:00:00,1140A,126.6206,45.6842,哈尔滨市,省农科院,,12,11,10,4,3,65,38,54,39,14,15,10,11,0.5,0.4
2023-07-15T18:00:00,1141A,121.4,31.238,上海市,普陀,,42,17,38,10,23,243,132,204,202,34,23,4,6,0.6,0.5
2023-07-15T18:00:00,1142A,121.478,31.2036,上海市,十五厂,,41,28,37,17,22,209,130,182,182,27,18,7,8,0.4,0.3
2023-07-15T18:00:00,1143A,121.467,31.3008,上海市,虹口,,38,24,38,16,20,219,121,195,187,22,19,6,8,0.7,0.6
2023-07-15T18:00:00,1144A,121.412,31.1654,上海市,徐汇上师大,,48,38,40,21,20,220,152,195,195,24,20,4,5,0.9,0.8
2023-07-15T18:00:00,1145A,121.536,31.2659,上海市,杨浦四漂,,,22,32,,30,238,137,198,198,,15,,6,0.7,0.7
2023-07-15T18:00:00,1147A,121.425,31.2261,上海市,静安监测站,,37,27,38,25,25,222,116,181,180,40,28,2,4,0.7,0.6
2023-07-15T18:00:00,1148A,121.703,31.1907,上海市,浦东川沙,,50,50,36,24,19,206,157,176,176,24,14,6,6,0.5,0.4
2023-07-15T18:00:00,1149A,121.533,31.2284,上海市,浦东新区监测站,,43,27,36,19,22,229,135,198,198,25,16,7,8,0.6,0.5
2023-07-15T18:00:00,1150A,121.577,31.2071,上海市,浦东张江,,42,29,36,20,18,192,134,172,172,21,19,5,6,0.8,0.8
2023-07-15T18:00:00,1151A,118.8086,32.1065,南京市,迈皋桥,颗粒物(PM10),53,55,32,22,16,141,132,122,122,8,12,3,4,0.5,0.4
2023-07-15T18:00:00,1152A,118.7538,32.0551,南京市,草场门,颗粒物(PM10),54,58,33,24,17,133,124,115,115,18,19,4,5,0.6,0.6
2023-07-15T18:00:00,1153A,118.7794,32.0745,南京市,山西路,,,,40,19,14,145,132,123,123,12,14,4,3,0.3,0.2
2023-07-15T18:00:00,1154A,118.7752,32.0023,南京市,中华门,颗粒物(PM10),53,56,36,22,15,123,119,107,107,10,14,5,4,1.0,0.9
2023-07-15T18:00:00,1155A,118.8109,32.0309,南京市,瑞金路,颗粒物(PM10),58,66,38,22,18,132,130,114,114,10,11,5,6,0.4,0.2
2023-07-15T18:00:00,1156A,118.7997,32.0754,南京市,玄武湖,颗粒物(PM10),51,52,34,19,14,126,119,111,111,11,12,6,7,0.4,0.4
2023-07-15T18:00:00,1157A,118.6414,32.0931,南京市,浦口,颗粒物(PM10),51,52,31,24,16,129,126,114,114,12,9,6,4,0.6,0.8
2023-07-15T18:00:00,1158A,118.7356,31.9996,南京市,奥体中心,颗粒物(PM10),52,53,37,24,20,120,114,101,101,11,15,7,8,0.4,0.4
2023-07-15T18:00:00,1159A,118.9125,32.1028,南京市,仙林大学城,颗粒物(PM10),56,61,36,24,18,138,134,122,122,13,12,9,7,0.6,0.5
2023-07-15T18:00:00,1160A,120.561,31.2472,苏州市,上方山,,42,42,35,26,26,106,78,84,84,18,14,5,6,0.5,0.4
2023-07-15T18:00:00,1162A,120.591,31.3019,苏州市,彩香,,43,38,37,29,24,142,135,120,120,6,9,7,7,0.7,0.6
2023-07-15T18:00:00,1163A,120.596,31.3264,苏州市,轧钢厂,,43,32,41,26,25,152,136,127,127,8,12,9,9,0.7,0.6
2023-07-15T18:00:00,1164A,120.613,31.2703,苏州市,吴中区,,44,44,35,28,22,141,131,123,123,12,19,7,7,0.8,0.7
2023-07-15T18:00:00,1165A,120.543,31.2994,苏州市,苏州新区,,49,49,41,31,26,146,144,122,122,7,9,7,7,0.8,0.7
2023-07-15T18:00:00,1166A,120.669,31.3097,苏州市,苏州工业园区,,48,45,39,33,24,141,124,123,123,23,20,9,9,0.6,0.6
2023-07-15T18:00:00,1167A,120.641,31.3708,苏州市,相城区,,42,42,34,24,21,162,131,132,132,12,18,9,9,0.8,0.7
2023-07-15T18:00:00,1168A,120.9098,31.9663,南通市,狼山街道,颗粒物(PM10),51,51,39,31,24,184,75,130,129,26,29,11,13,0.9,0.6
2023-07-15T18:00:00,1169A,120.86,32.0005,南通市,虹桥,,40,36,45,28,28,184,118,128,128,20,28,9,12,1.1,1
2023-07-15T18:00:00,1170A,120.87,32.02,南通市,城中,,,,46,42,31,190,110,137,137,29,20,8,11,0.8,0.7
2023-07-15T18:00:00,1171A,120.94,31.93,南通市,星湖花园,,40,24,38,24,19,184,126,144,139,25,29,7,8,0.7,0.6
2023-07-15T18:00:00,1172A,120.81,32.0417,南通市,紫琅学院,,33,33,43,22,21,172,65,111,111,44,32,4,7,1.0,0.8
2023-07-15T18:00:00,1173A,119.176,34.5885,连云港市,市环境监测站,颗粒物(PM10),68,85,74,29,29,157,148,142,142,16,15,4,5,0.3,0.3
2023-07-15T18:00:00,1177A,117.179,34.2761,徐州市,黄河新村,颗粒物(PM10),51,51,94,19,29,164,131,146,146,18,15,8,10,0.2,0.4
2023-07-15T18:00:00,1178A,117.1918,34.2384,徐州市,淮塔,,50,40,83,22,28,181,159,161,161,8,13,10,11,0.4,0.5
2023-07-15T18:00:00,1180A,117.256,34.2153,徐州市,新城区,颗粒物(PM10),51,51,93,14,27,177,154,152,152,12,20,8,9,0.3,0.4
2023-07-15T18:00:00,1181A,117.244,34.2911,徐州市,桃园路,颗粒物(PM10),53,56,93,14,25,182,131,151,151,38,19,11,11,0.4,0.5
2023-07-15T18:00:00,1182A,117.2933,34.2778,徐州市,农科院,,47,41,78,15,26,176,150,154,154,17,16,8,9,0.3,0.5
2023-07-15T18:00:00,1186A,119.389,32.3761,扬州市,邗江监测站,颗粒物(PM10),68,85,50,30,25,149,129,111,111,24,24,6,4,0.9,0.8
2023-07-15T18:00:00,1188A,120.269,31.4867,无锡市,雪浪,,41,41,30,14,17,159,128,130,130,10,15,6,6,0.6,0.6
2023-07-15T18:00:00,1189A,120.275,31.6219,无锡市,黄巷,,46,46,39,19,18,152,108,124,124,27,21,7,8,1.0,0.8
2023-07-15T18:00:00,1190A,120.294,31.56,无锡市,曹张,,40,40,33,17,19,134,106,112,112,15,12,6,5,0.7,0.6
2023-07-15T18:00:00,1191A,120.242,31.5031,无锡市,漆塘,,40,39,30,22,19,154,125,127,127,10,15,7,7,0.8,0.7
2023-07-15T18:00:00,1192A,120.3489,31.5863,无锡市,东亭,,39,39,33,24,20,152,122,127,127,24,18,11,11,0.8,0.6
2023-07-15T18:00:00,1193A,120.354,31.5475,无锡市,旺庄,,41,31,29,19,17,163,129,134,134,12,13,7,6,0.7,0.6
2023-07-15T18:00:00,1194A,120.245,31.5631,无锡市,荣巷,,41,41,34,24,20,144,110,119,119,12,12,12,10,0.8,0.6
2023-07-15T18:00:00,1195A,120.299,31.6817,无锡市,堰桥,,41,41,39,12,19,153,101,134,134,26,21,7,7,0.7,0.8
2023-07-15T18:00:00,1196A,119.9633,31.762,常州市,市监测站,,42,34,45,29,28,158,121,122,122,21,16,7,7,0.9,0.8
2023-07-15T18:00:00,1200A,119.9468,31.7069,常州市,武进监测站,,46,46,46,20,22,166,127,130,130,10,8,7,8,0.8,0.7
2023-07-15T18:00:00,1201A,119.9255,31.9087,常州市,安家,,42,37,47,29,30,146,90,104,104,20,15,4,4,0.8,0.9
2023-07-15T18:00:00,1203A,119.6707,32.1875,镇江市,新区办事处,,50,50,46,19,32,139,121,113,113,19,23,4,5,0.6,0.7
2023-07-15T18:00:00,1204A,119.4974,32.1968,镇江市,职教中心,颗粒物(PM10),52,53,42,24,22,159,136,133,133,13,13,4,4,0.7,0.8
2023-07-15T18:00:00,1205A,119.4303,32.1328,镇江市,丹徒区监测站,颗粒物(PM10),52,53,37,25,29,155,136,131,131,15,16,9,7,0.9,0.8
2023-07-15T18:00:00,1206A,119.905,32.4878,泰州市,公园路,颗粒物(PM10),51,51,39,34,27,146,118,111,111,21,20,9,8,0.9,0.8
2023-07-15T18:00:00,1207A,119.9189,32.4625,泰州市,莲花,颗粒物(PM10),52,54,48,31,28,161,125,120,120,20,20,11,10,0.7,0.7
2023-07-15T18:00:00,1209A,119.888,32.4639,泰州市,留学生创业园,颗粒物(PM10),55,60,46,32,28,152,113,111,111,20,19,7,6,1.0,0.9
2023-07-15T18:00:00,1210A,119.036,33.5981,淮安市,钵池山,颗粒物(PM10),67,83,50,24,19,139,136,127,127,14,14,9,9,1.0,1.1
2023-07-15T18:00:00,1211A,119.007,33.575,淮安市,北京南路,颗粒物(PM10),69,88,56,25,22,129,118,116,116,29,26,15,16,2.4,2.4
2023-07-15T18:00:00,1212A,118.989,33.6067,淮安市,市监测站,颗粒物(PM10),64,78,51,22,16,137,132,124,124,11,12,8,8,0.6,0.6
2023-07-15T18:00:00,1213A,119.135,33.5039,淮安市,楚州区监测站,颗粒物(PM10),66,81,52,25,19,134,130,126,126,12,17,6,6,0.8,0.7
2023-07-15T18:00:00,1214A,119.0186,33.6297,淮安市,淮阴区监测站,颗粒物(PM10),65,80,52,22,19,137,137,127,127,12,13,8,8,0.5,0.5
2023-07-15T18:00:00,1215A,120.118,33.4022,盐城市,盐城电厂,颗粒物(PM10),58,66,44,21,19,132,122,118,118,9,8,5,5,0.6,0.6
2023-07-15T18:00:00,1216A,120.156,33.3942,盐城市,市监测站,颗粒物(PM10),55,59,35,29,24,133,124,120,120,9,7,5,5,0.5,0.4
2023-07-15T18:00:00,1218A,120.2144,33.38,盐城市,开发区管委会,颗粒物(PM10),53,56,38,32,20,120,120,111,111,11,9,6,6,0.5,0.4
2023-07-15T18:00:00,1220A,118.293,33.9528,宿迁市,宿迁学院,,,,52,,33,170,,111,111,,14,,9,,0.7
2023-07-15T18:00:00,1221A,118.2442,33.9592,宿迁市,宿迁中学,颗粒物(PM10),72,93,72,33,28,167,162,134,134,15,18,7,6,0.6,0.5
2023-07-15T18:00:00,1223A,120.2072,30.2111,杭州市,滨江,,45,28,43,16,22,187,144,167,167,19,23,6,6,0.5,0.6
2023-07-15T18:00:00,1224A,120.0633,30.2747,杭州市,西溪,颗粒物(PM10),58,66,43,24,19,186,117,168,167,20,28,5,6,0.8,0.8
2023-07-15T18:00:00,1226A,120.3461,30.3153,杭州市,下沙,,46,46,49,26,24,270,115,205,198,46,33,4,5,0.6,0.6
2023-07-15T18:00:00,1227A,120.1269,30.2456,杭州市,卧龙桥,,49,35,33,22,24,216,155,194,193,14,18,3,5,0.6,0.6
2023-07-15T18:00:00,1228A,120.1903,30.2692,杭州市,浙江农大,,38,33,33,19,22,196,120,169,166,24,23,6,7,0.6,0.5
2023-07-15T18:00:00,1230A,120.1197,30.3119,杭州市,和睦小学,,48,48,42,28,23,186,149,167,167,17,25,6,7,0.5,0.5
2023-07-15T18:00:00,1231A,120.3019,30.4183,杭州市,临平镇,,46,39,50,22,28,241,146,205,203,14,26,4,5,0.5,0.5
2023-07-15T18:00:00,1232A,120.2697,30.1819,杭州市,城厢镇,,50,33,43,26,29,177,157,158,158,20,23,6,6,0.5,0.6
2023-07-15T18:00:00,1233A,120.0883,30.1808,杭州市,云栖,臭氧1小时,68,38,37,21,19,223,174,190,190,14,21,4,4,0.7,0.7
2023-07-15T18:00:00,1234A,121.8358,29.911,宁波市,区环保大楼,,17,17,14,9,8,75,48,61,60,6,6,2,3,0.6,0.6
2023-07-15T18:00:00,1235A,121.56,29.82,宁波市,万里学院,,23,23,20,8,9,95,70,82,82,9,12,3,5,0.4,0.4
2023-07-15T18:00:00,1236A,121.713,29.9572,宁波市,龙赛医院,,20,18,16,8,7,89,62,70,70,10,10,6,6,0.4,0.4
2023-07-15T18:00:00,1239A,121.633,29.7733,宁波市,钱湖水厂,,21,17,8,10,7,91,65,71,71,2,4,2,5,0.3,0.5
2023-07-15T18:00:00,1240A,121.5856,29.8635,宁波市,太古小学,,24,18,19,14,7,96,76,86,86,5,8,6,6,0.5,0.5
2023-07-15T18:00:00,1241A,121.524,29.8674,宁波市,市环境监测中心,,25,21,18,17,6,90,64,81,81,10,7,3,4,0.5,0.5
2023-07-15T18:00:00,1242A,120.634,28.0089,温州市,瓯海,,17,17,27,9,12,80,32,63,60,9,16,7,7,0.4,0.4
2023-07-15T18:00:00,1243A,120.6748,27.9939,温州市,南浦,,23,23,25,12,10,79,35,61,60,5,8,6,6,0.2,0.3
2023-07-15T18:00:00,1244A,120.76,27.9747,温州市,龙湾,,20,20,23,7,8,66,35,64,42,2,9,6,6,0.4,0.4
2023-07-15T18:00:00,1245A,120.6709,28.0167,温州市,市站,,26,26,27,6,13,58,21,46,41,12,16,5,5,0.4,0.4
2023-07-15T18:00:00,1247A,120.6053,29.9928,绍兴市,城东开发委,,34,33,28,20,16,142,108,127,127,15,15,5,5,0.5,0.4
2023-07-15T18:00:00,1250A,120.0751,30.8669,湖州市,城西水厂,,30,14,37,21,25,139,78,109,109,22,40,2,4,0.6,0.6
2023-07-15T18:00:00,1252A,120.7436,30.778,嘉兴市,清河小学,,45,30,47,16,23,199,143,170,170,12,26,6,7,0.1,0.3
2023-07-15T18:00:00,1253A,120.726,30.7478,嘉兴市,嘉兴学院,,46,35,46,19,26,205,147,171,171,11,26,1,2,0.4,0.5
2023-07-15T18:00:00,1255A,121.273,28.6459,台州市,黄岩环保大楼,,17,17,17,7,8,71,45,58,56,5,5,3,3,0.5,0.5
2023-07-15T18:00:00,1256A,121.419,28.6542,台州市,台州环保大楼,,,23,18,17,8,70,57,60,57,6,7,3,3,,0.3
2023-07-15T18:00:00,1257A,121.377,28.5773,台州市,路桥田洋王,,21,21,20,14,8,61,48,58,48,7,9,3,3,0.4,0.4
2023-07-15T18:00:00,1258A,122.122,30.0203,舟山市,定海檀枫,,13,13,15,7,7,57,39,45,44,5,4,7,6,0.3,0.4
2023-07-15T18:00:00,1259A,122.3094,29.9558,舟山市,普陀东港,,29,29,15,3,5,52,48,42,42,11,5,4,4,0.3,0.2
2023-07-15T18:00:00,1260A,122.19,29.9944,舟山市,临城新区,,17,17,13,3,4,46,46,43,43,8,11,2,3,0.2,0.2
2023-07-15T18:00:00,1262A,119.647,29.077,金华市,十五中,,50,33,35,4,8,159,159,130,130,8,13,3,4,0.4,0.4
2023-07-15T18:00:00,1263A,119.686,29.1029,金华市,监测站,,48,38,32,18,16,153,153,129,129,12,15,4,5,0.4,0.4
2023-07-15T18:00:00,1264A,118.8692,28.9398,衢州市,环保大楼,颗粒物(PM10),59,67,44,26,26,159,155,134,133,11,17,4,3,0.6,0.6
2023-07-15T18:00:00,1265A,118.8709,28.9666,衢州市,实验学校,颗粒物(PM10),62,73,50,25,25,140,134,131,131,11,19,4,5,0.4,0.4
2023-07-15T18:00:00,1266A,118.8621,28.9808,衢州市,衢州学院,颗粒物(PM10),52,54,44,23,27,169,146,152,152,8,21,4,6,0.5,0.5
2023-07-15T18:00:00,1267A,119.914,28.4514,丽水市,监测站大楼,,38,18,21,26,16,126,60,56,56,4,6,5,5,0.3,0.3
2023-07-15T18:00:00,1268A,119.93,28.4586,丽水市,莲都小学,,34,34,24,10,6,133,65,58,58,4,5,5,5,0.3,0.3
2023-07-15T18:00:00,1269A,119.879,28.4231,丽水市,余庄前,,16,8,19,5,11,132,50,63,61,4,8,4,4,0.4,0.4
2023-07-15T18:00:00,1270A,117.1959,31.7848,合肥市,明珠广场,颗粒物(PM10),59,68,43,27,17,112,104,101,101,27,22,6,5,0.6,0.5
2023-07-15T18:00:00,1271A,117.3072,31.8764,合肥市,三里街,颗粒物(PM10),62,73,44,22,14,114,105,101,101,26,19,5,4,0.5,0.4
2023-07-15T18:00:00,1272A,117.2588,31.8707,合肥市,琥珀山庄,颗粒物(PM10),68,85,47,27,18,117,111,105,105,19,16,5,5,0.5,0.4
2023-07-15T18:00:00,1273A,117.1604,31.9052,合肥市,董铺水库,颗粒物(PM10),57,63,36,19,11,118,104,100,100,8,11,3,3,0.4,0.3
2023-07-15T18:00:00,1274A,117.25,31.8571,合肥市,长江中路,颗粒物(PM10),67,83,48,22,17,117,109,104,104,18,12,10,9,0.5,0.4
2023-07-15T18:00:00,1275A,117.266,31.9436,合肥市,庐阳区,颗粒物(PM10),63,75,43,24,17,115,100,97,97,12,13,4,4,0.6,0.6
2023-07-15T18:00:00,1276A,117.336,31.8586,合肥市,瑶海区,颗粒物(PM10),63,75,51,21,14,107,102,96,96,19,15,8,8,0.5,0.5
2023-07-15T18:00:00,1277A,117.3027,31.7964,合肥市,包河区,颗粒物(PM10),63,75,46,24,17,114,95,96,96,35,27,6,5,0.5,0.4
2023-07-15T18:00:00,1278A,117.2776,31.7385,合肥市,滨湖新区,颗粒物(PM10),65,80,43,27,19,112,79,86,86,56,27,6,5,0.4,0.4
2023-07-15T18:00:00,1279A,117.1318,31.8403,合肥市,高新区,颗粒物(PM10),65,80,43,23,16,111,105,99,99,21,16,8,8,0.4,0.3
2023-07-15T18:00:00,1280A,119.3903,26.0543,福州市,鼓山,,,,,,,,,,,,,,,,
2023-07-15T18:00:00,1282A,119.2681,26.0504,福州市,师大,,23,23,24,3,8,78,46,62,62,7,8,5,5,0.3,0.4
2023-07-15T18:00:00,1283A,119.2984,26.1028,福州市,五四北路,,30,30,20,3,7,77,44,59,59,4,6,3,4,0.3,0.4
2023-07-15T18:00:00,1284A,119.2648,26.0768,福州市,杨桥西路,,26,26,24,3,7,76,46,59,59,5,8,3,3,0.3,0.4
2023-07-15T18:00:00,1285A,119.317,26.0746,福州市,紫阳,,,23,21,3,7,69,40,56,56,,4,2,2,0.3,0.4
2023-07-15T18:00:00,1286A,118.1608,24.8169,厦门市,溪东,,,,,,,,,,,,,,,,
2023-07-15T18:00:00,1287A,118.1514,24.4767,厦门市,洪文,,35,27,33,12,16,181,110,138,138,10,13,2,3,0.4,0.4
2023-07-15T18:00:00,1288A,118.0661,24.4444,厦门市,鼓浪屿,,33,18,26,12,16,155,105,124,124,6,13,3,4,0.5,0.5
2023-07-15T18:00:00,1290A,115.8931,28.6843,南昌市,省外办,,36,36,32,14,15,113,57,92,89,20,17,6,6,0.6,0.6
2023-07-15T18:00:00,1291A,115.8886,28.7003,南昌市,省林业公司,,31,31,33,17,13,111,66,94,92,18,17,5,6,0.5,0.5
2023-07-15T18:00:00,1292A,115.8126,28.7442,南昌市,林科所,,31,31,21,12,11,93,39,73,65,21,22,7,7,0.6,0.6
2023-07-15T18:00:00,1294A,115.8518,28.687,南昌市,建工学校,,31,31,26,19,14,117,57,96,89,21,15,3,4,0.7,0.5
2023-07-15T18:00:00,1295A,115.8921,28.6424,南昌市,象湖,,19,14,21,13,16,118,48,94,88,30,16,4,4,0.7,0.6
2023-07-15T18:00:00,1296A,115.7423,28.7996,南昌市,武术学校,,29,24,18,20,17,79,18,49,43,1,2,3,5,0.4,0.3
2023-07-15T18:00:00,1298A,115.9314,28.6842,南昌市,省站,,48,48,29,19,15,117,68,95,94,17,10,6,7,0.5,0.5
2023-07-15T18:00:00,1299A,116.9862,36.6114,济南市,科干所,,50,29,62,7,18,184,158,148,148,11,24,6,6,0.2,0.4
2023-07-15T18:00:00,1300A,116.9376,36.665,济南市,农科所,,50,27,61,5,13,169,159,150,150,11,31,7,7,0.2,0.3
2023-07-15T18:00:00,1301A,117.1265,36.6734,济南市,开发区,,48,34,64,7,17,167,152,146,146,15,25,4,6,0.4,0.5
2023-07-15T18:00:00,1303A,117.0624,36.6868,济南市,省种子仓库,,50,24,65,7,17,180,160,154,154,7,18,4,6,0.4,0.5
2023-07-15T18:00:00,1304A,116.9489,36.6447,济南市,机床二厂,臭氧1小时,60,32,77,2,18,186,168,157,157,8,29,7,9,0.4,0.6
2023-07-15T18:00:00,1305A,117.0495,36.663,济南市,市监测站,臭氧1小时,53,24,58,5,15,180,162,153,153,14,22,5,6,0.3,0.4
2023-07-15T18:00:00,1306A,116.7675,36.5484,济南市,长清党校,,50,29,70,10,20,174,159,149,149,10,20,7,8,0.4,0.5
2023-07-15T18:00:00,1307A,120.6659,36.2403,青岛市,仰口,,41,34,51,5,31,130,130,118,118,20,27,3,9,1.0,1.2
2023-07-15T18:00:00,1310A,120.4134,36.0658,青岛市,市南区东部子站,臭氧1小时,92,53,63,27,31,212,193,180,180,26,23,7,8,0.6,0.7
2023-07-15T18:00:00,1311A,120.3664,36.1032,青岛市,四方区子站,臭氧1小时,58,48,59,22,31,226,166,185,185,22,33,5,8,0.7,0.8
2023-07-15T18:00:00,1312A,120.2994,36.054,青岛市,市南区西部子站,颗粒物(PM10),67,83,86,27,38,181,158,153,153,30,37,10,9,0.6,0.8
2023-07-15T18:00:00,1313A,120.4581,36.0858,青岛市,崂山区子站,臭氧1小时,65,53,69,19,34,236,172,185,185,23,22,8,9,0.5,0.6
2023-07-15T18:00:00,1314A,120.1983,35.9608,青岛市,黄岛区子站,臭氧1小时,64,48,55,17,30,200,171,182,182,27,24,8,8,0.8,0.8
2023-07-15T18:00:00,1315A,120.3999,36.3083,青岛市,城阳区子站,,44,29,66,17,28,186,140,160,160,11,27,6,8,0.5,0.8
2023-07-15T18:00:00,1316A,113.69031,34.76122,郑州市,烟厂,臭氧1小时,60,34,59,12,18,168,168,153,153,18,19,3,6,0.4,0.5
2023-07-15T18:00:00,1317A,113.65724,34.77134,郑州市,郑纺机,臭氧1小时,64,21,61,12,13,171,171,156,156,8,16,3,5,0.4,0.5
2023-07-15T18:00:00,1318A,113.67526,34.80246,郑州市,银行学校,臭氧1小时,64,18,54,14,20,171,171,152,152,6,7,4,3,0.4,0.6
2023-07-15T18:00:00,1319A,113.56746,34.81334,郑州市,供水公司,,48,24,60,12,18,167,153,151,151,15,18,6,7,0.5,0.6
2023-07-15T18:00:00,1320A,113.7329,34.7178,郑州市,经开区管委,臭氧1小时,72,38,54,6,5,177,177,156,156,9,11,3,5,0.5,0.4
2023-07-15T18:00:00,1321A,113.73961,34.77172,郑州市,四十七中,臭氧1小时,83,42,55,27,21,186,186,162,162,17,14,4,6,0.5,0.4
2023-07-15T18:00:00,1322A,113.60532,34.74838,郑州市,市监测站,臭氧1小时,88,30,65,15,20,190,190,166,166,15,22,2,4,0.4,0.4
2023-07-15T18:00:00,1323A,113.64164,34.7525,郑州市,河医大,臭氧1小时,53,28,65,10,20,171,162,147,147,7,17,5,7,0.3,0.4
2023-07-15T18:00:00,1324A,113.51488,34.91089,郑州市,岗李水库,,,,64,10,16,175,113,143,143,13,18,2,4,0.3,0.4
2023-07-15T18:00:00,1325A,114.3677,30.5584,武汉市,东湖梨园,臭氧1小时,65,60,30,24,13,172,172,128,128,19,17,6,5,0.8,0.7
2023-07-15T18:00:00,1326A,114.2529,30.558,武汉市,汉阳月湖,颗粒物(PM10),63,76,39,27,12,152,152,124,124,17,18,7,7,0.5,0.4
2023-07-15T18:00:00,1327A,114.282,30.6189,武汉市,汉口花桥,颗粒物(PM10),63,75,41,20,17,176,166,138,138,15,19,8,9,0.6,0.5
2023-07-15T18:00:00,1328A,114.3025,30.5332,武汉市,武昌紫阳,臭氧1小时,75,53,28,24,11,180,180,140,140,17,17,7,6,0.6,0.6
2023-07-15T18:00:00,1329A,114.3646,30.6217,武汉市,青山钢花,臭氧1小时,68,69,39,27,19,183,174,145,145,20,19,9,9,0.7,0.6
2023-07-15T18:00:00,1330A,114.1566,30.4825,武汉市,沌口新区,颗粒物(PM10),53,56,29,22,16,149,146,122,122,14,18,7,7,0.6,0.5
2023-07-15T18:00:00,1331A,114.3014,30.5944,武汉市,汉口江滩,颗粒物(PM10),61,71,36,25,14,164,164,120,120,12,24,6,6,0.6,0.5
2023-07-15T18:00:00,1333A,114.135,30.6319,武汉市,吴家山,颗粒物(PM10),59,67,36,20,14,149,126,123,123,13,17,6,6,0.6,0.6
2023-07-15T18:00:00,1334A,113.8454,30.2917,武汉市,沉湖七壕,颗粒物(PM10),51,51,23,22,11,126,115,102,102,2,2,6,5,0.7,0.6
2023-07-15T18:00:00,1335A,113.0833,28.2325,长沙市,经开区环保局,颗粒物(PM10),51,52,25,20,14,129,103,109,109,15,12,4,4,0.5,0.5
2023-07-15T18:00:00,1336A,112.8872,28.2189,长沙市,高开区环保局,颗粒物(PM10),52,54,28,20,21,127,115,104,104,9,7,6,5,0.5,0.5
2023-07-15T18:00:00,1337A,113.0792,28.2053,长沙市,马坡岭,颗粒物(PM10),54,57,29,12,14,133,109,113,113,19,14,5,5,0.4,0.4
2023-07-15T18:00:00,1338A,112.9394,28.19,长沙市,湖南师范大学,,44,44,27,25,23,126,104,106,106,6,5,2,2,0.7,0.6
2023-07-15T18:00:00,1339A,113.0178,28.1322,长沙市,雨花区环保局,,37,37,36,17,17,130,113,106,106,11,11,5,4,0.3,0.4
2023-07-15T18:00:00,1340A,112.9792,28.2597,长沙市,伍家岭,,44,44,27,12,14,119,109,103,103,18,13,3,3,0.5,0.4
2023-07-15T18:00:00,1341A,113.0014,28.1944,长沙市,火车新站,颗粒物(PM10),52,54,21,17,14,116,104,100,100,12,8,5,4,0.7,0.6
2023-07-15T18:00:00,1342A,112.9844,28.1178,长沙市,天心区环保局,,45,45,27,22,17,138,110,106,106,9,9,1,1,0.5,0.5
2023-07-15T18:00:00,1343A,112.8908,28.1308,长沙市,湖南中医药大学,,37,37,28,14,14,135,112,108,108,8,6,1,2,0.6,0.6
2023-07-15T18:00:00,1344A,112.9581,28.3611,长沙市,沙坪,,26,25,34,18,13,90,71,76,76,5,6,6,6,0.5,0.4
2023-07-15T18:00:00,1345A,113.2347,23.1423,广州市,广雅中学,臭氧1小时,88,59,61,36,32,232,190,208,208,11,31,5,7,0.6,1
2023-07-15T18:00:00,1346A,113.2612,23.105,广州市,市五中,臭氧1小时,105,38,55,26,34,284,210,240,240,9,29,,10,,0.6
2023-07-15T18:00:00,1348A,113.3478,23.0916,广州市,广东商学院,,50,41,60,25,31,228,157,198,198,12,35,5,7,0.6,0.7
2023-07-15T18:00:00,1349A,113.4332,23.1047,广州市,市八十六中,臭氧1小时,59,47,67,19,30,225,167,174,174,9,47,6,7,0.4,0.6
2023-07-15T18:00:00,1350A,113.3505,22.9483,广州市,番禺中学,臭氧1小时,92,41,53,21,30,263,193,230,230,13,30,8,11,0.6,0.7
2023-07-15T18:00:00,1351A,113.2146,23.3916,广州市,花都师范,,49,34,66,24,34,197,156,154,154,9,40,7,8,0.6,0.8
2023-07-15T18:00:00,1352A,113.2597,23.1331,广州市,市监测站,臭氧1小时,77,34,57,25,32,253,181,216,216,15,38,6,9,0.7,0.9
2023-07-15T18:00:00,1353A,113.5618,23.312,广州市,九龙镇镇龙,,40,40,57,27,29,196,116,133,128,8,31,6,6,0.5,0.8
2023-07-15T18:00:00,1354A,113.2765,23.1544,广州市,麓湖,,46,37,51,23,30,235,147,199,199,12,41,6,8,0.6,0.7
2023-07-15T18:00:00,1355A,113.443,23.3035,广州市,帽峰山森林公园,,43,32,44,20,27,211,136,171,170,8,17,6,8,0.4,0.5
2023-07-15T18:00:00,1356A,114.1063,22.5545,深圳市,通心岭子站,,50,40,37,21,21,216,157,182,182,16,26,4,4,0.6,0.6
2023-07-15T18:00:00,1357A,114.117,22.5625,深圳市,洪湖,,45,44,43,28,24,214,144,187,187,14,27,6,6,0.9,0.8
2023-07-15T18:00:00,1358A,113.987,22.5417,深圳市,华侨城,,48,44,36,28,21,239,153,171,171,32,26,7,7,0.8,0.7
2023-07-15T18:00:00,1359A,113.9181,22.5171,深圳市,南海子站,颗粒物(PM10),70,90,67,37,26,241,129,161,161,58,39,5,5,0.8,0.7
2023-07-15T18:00:00,1360A,114.2458,22.5689,深圳市,盐田,,35,24,29,9,18,232,111,175,175,12,28,4,4,0.8,0.8
2023-07-15T18:00:00,1361A,114.2283,22.7244,深圳市,龙岗,,49,47,44,20,22,222,155,192,192,14,37,7,7,0.9,1
2023-07-15T18:00:00,1363A,114.494,22.5422,深圳市,南澳,,45,45,30,18,16,214,85,145,145,8,24,4,5,0.6,0.6
2023-07-15T18:00:00,1364A,114.41,22.6342,深圳市,葵涌,,44,44,37,18,18,201,77,154,148,14,22,5,6,0.5,0.6
2023-07-15T18:00:00,1365A,114.297,22.5978,深圳市,梅沙,,42,42,35,18,18,201,94,126,126,4,22,5,5,0.7,0.6
2023-07-15T18:00:00,1366A,114.0678,22.738,深圳市,观澜,,,80,65,50,32,237,200,202,202,45,54,,7,0.9,0.9
2023-07-15T18:00:00,1367A,113.5814,22.2618,珠海市,吉大,,40,40,27,21,18,251,122,179,179,26,21,4,5,0.4,0.5
2023-07-15T18:00:00,1368A,113.4881,22.2335,珠海市,前山,臭氧1小时,103,63,33,31,14,232,206,192,192,32,22,8,8,0.5,0.4
2023-07-15T18:00:00,1369A,113.628,22.4251,珠海市,唐家,,35,35,28,6,18,232,96,171,171,19,14,8,10,0.3,0.4
2023-07-15T18:00:00,1370A,113.299,22.2281,珠海市,斗门,臭氧1小时,83,37,22,29,15,221,186,184,184,22,11,5,6,0.7,0.5
2023-07-15T18:00:00,1371A,113.1294,23.0067,佛山市,湾梁,臭氧1小时,114,51,50,31,26,228,228,199,199,11,21,8,11,0.4,0.4
2023-07-15T18:00:00,1372A,113.1083,23.0478,佛山市,华材职中,臭氧1小时,99,31,46,29,27,223,199,191,191,10,27,7,10,0.5,0.5
2023-07-15T18:00:00,1373A,113.144,23.0453,佛山市,南海气象局,臭氧1小时,73,49,53,26,26,178,178,164,164,13,28,6,6,0.6,0.6
2023-07-15T18:00:00,1374A,113.2881,22.8094,佛山市,顺德苏岗,臭氧1小时,98,25,39,29,27,223,198,191,191,12,24,6,8,0.8,0.8
2023-07-15T18:00:00,1376A,112.8383,22.8678,佛山市,高明孔堂,臭氧1小时,73,42,36,42,21,178,178,166,166,11,14,5,8,0.5,0.5
2023-07-15T18:00:00,1377A,112.8836,23.1588,佛山市,三水监测站,臭氧1小时,57,31,58,35,30,165,165,146,146,9,39,6,10,0.5,0.7
2023-07-15T18:00:00,1378A,112.867,23.185,佛山市,三水云东海,,43,13,50,22,34,153,137,139,139,7,35,4,9,0.5,0.5
2023-07-15T18:00:00,1379A,113.3769,22.5211,中山市,华柏园,臭氧1小时,102,69,39,26,21,267,204,226,226,23,19,6,7,0.6,0.5
2023-07-15T18:00:00,1380A,113.3881,22.5497,中山市,张溪,臭氧1小时,113,56,45,31,23,280,225,232,232,16,15,7,8,0.6,0.5
2023-07-15T18:00:00,1381A,113.4075,22.5111,中山市,紫马岭,臭氧1小时,106,71,39,49,25,236,212,209,209,20,14,9,8,0.5,0.4
2023-07-15T18:00:00,1382A,113.4411,22.4853,中山市,长江旅游区,臭氧1小时,111,49,31,33,19,247,222,204,204,20,10,12,11,0.6,0.5
2023-07-15T18:00:00,1383A,113.1064,22.6058,江门市,北街,臭氧1小时,118,56,41,37,23,263,235,218,218,16,18,6,7,0.6,0.5
2023-07-15T18:00:00,1384A,113.0731,22.5835,江门市,西区,臭氧1小时,120,57,42,37,20,254,239,209,209,18,20,7,8,0.5,0.5
2023-07-15T18:00:00,1385A,113.0219,22.5311,江门市,圭峰西,臭氧1小时,113,72,39,47,22,226,226,182,182,22,16,6,6,0.8,0.6
2023-07-15T18:00:00,1386A,113.0828,22.5947,江门市,东湖,臭氧1小时,117,68,41,27,21,254,234,210,210,13,16,6,7,0.6,0.5
2023-07-15T18:00:00,1389A,113.7547,23.0494,东莞市,莞城梨川,,41,21,49,12,26,223,130,172,171,10,28,10,10,0.6,0.7
2023-07-15T18:00:00,1390A,113.7944,23.0128,东莞市,东城石井,,42,24,41,15,20,223,133,176,173,7,20,7,8,0.6,0.7
2023-07-15T18:00:00,1391A,113.7383,22.9658,东莞市,南城西平,臭氧1小时,63,38,44,27,22,200,170,178,178,11,29,10,10,0.3,0.6
2023-07-15T18:00:00,1392A,114.4183,23.0528,惠州市,河南岸金山湖子站,颗粒物(PM10),75,99,53,14,23,193,86,144,141,12,22,3,4,0.6,0.7
2023-07-15T18:00:00,1393A,114.4053,23.0822,惠州市,下埔横江三路子站,,,,47,26,24,209,91,160,153,13,16,4,6,0.5,0.7
2023-07-15T18:00:00,1394A,114.4103,23.1142,惠州市,江北云山西路子站,颗粒物(PM10),53,56,56,27,28,206,98,170,162,10,20,4,6,0.5,0.6
2023-07-15T18:00:00,1395A,114.4645,22.7833,惠州市,惠阳区承修路船湖子站,,38,21,55,26,25,132,58,116,111,12,30,5,6,0.6,0.7
2023-07-15T18:00:00,1396A,114.5317,22.7422,惠州市,大亚湾管委会子站,,33,30,48,23,19,196,71,161,151,20,38,2,4,0.5,0.5
2023-07-15T18:00:00,1397A,112.4267,23.0706,肇庆市,睦岗子站,颗粒物(PM10),59,67,43,22,22,144,95,127,123,8,24,6,11,0.5,0.6
2023-07-15T18:00:00,1398A,112.4645,23.0475,肇庆市,城中子站,,34,34,44,20,26,141,89,123,121,22,38,9,28,0.5,0.6
2023-07-15T18:00:00,1399A,112.5544,23.1522,肇庆市,坑口子站,细颗粒物(PM2.5),57,57,28,40,19,130,99,121,120,14,18,8,10,0.4,0.4
2023-07-15T18:00:00,1400A,112.4753,23.1,肇庆市,七星岩子站,,37,37,36,17,21,144,107,119,119,6,15,8,13,0.5,0.5
2023-07-15T18:00:00,1401A,108.3103,22.7881,南宁市,二十一中,,38,35,37,16,21,128,121,117,117,7,12,4,5,0.6,0.8
2023-07-15T18:00:00,1402A,108.3141,22.8528,南宁市,北湖,,39,32,43,17,25,131,122,118,118,6,13,6,8,0.6,0.7
2023-07-15T18:00:00,1403A,108.3206,22.8225,南宁市,市监测站,,47,47,37,18,22,134,117,115,115,29,25,6,7,0.6,0.7
2023-07-15T18:00:00,1404A,108.3829,22.8037,南宁市,大自然花园,,42,24,36,18,24,136,132,123,123,10,14,6,6,0.7,0.8
2023-07-15T18:00:00,1405A,108.4394,22.7904,南宁市,仙葫,颗粒物(PM10),52,53,47,21,22,135,126,121,121,7,18,6,6,0.5,0.6
2023-07-15T18:00:00,1406A,108.2397,22.8467,南宁市,区农职院,,36,22,38,13,22,151,114,104,104,8,17,6,7,0.7,0.8
2023-07-15T18:00:00,1407A,108.3275,22.735,南宁市,英华嘉园,,36,35,40,14,21,126,115,110,110,12,19,5,6,0.5,0.7
2023-07-15T18:00:00,1408A,108.2257,22.7757,南宁市,沙井镇街道办,,45,35,41,20,24,143,143,114,114,9,21,6,6,0.7,0.8
2023-07-15T18:00:00,1409A,110.576,19.9507,海口市,东寨港,,,,,,,,,,,,,,,,
2023-07-15T18:00:00,1410A,110.3232,20.0574,海口市,海南大学,,23,18,20,7,10,101,72,84,84,7,9,6,6,0.4,0.4
2023-07-15T18:00:00,1411A,110.283,20.0053,海口市,秀英海南医院,,,,20,,11,94,63,76,76,11,13,5,5,0.3,0.3
2023-07-15T18:00:00,1412A,110.338,19.9969,海口市,海南师范大学,,24,24,20,7,10,100,68,84,84,13,9,7,7,0.3,0.4
2023-07-15T18:00:00,1413A,110.33,20.0356,海口市,龙华路环保局宿舍,,23,17,17,6,10,99,71,84,84,6,8,6,6,0.3,0.3
2023-07-15T18:00:00,1414A,106.3787,29.8279,重庆市,缙云山,臭氧1小时,53,43,23,11,9,181,162,150,150,8,9,8,7,0.3,0.2
2023-07-15T18:00:00,1416A,106.4213,29.8253,重庆市,天生,臭氧1小时,64,45,38,20,18,185,171,160,160,13,23,6,6,0.8,0.9
2023-07-15T18:00:00,1417A,106.6263,29.7228,重庆市,两路,臭氧1小时,103,43,35,27,20,214,205,171,171,20,38,8,9,0.8,1
2023-07-15T18:00:00,1418A,106.2953,29.5983,重庆市,虎溪,,49,38,32,19,21,178,154,138,138,9,22,5,5,0.3,0.4
2023-07-15T18:00:00,1419A,106.5777,29.5102,重庆市,南坪,臭氧1小时,119,65,38,21,19,241,238,172,172,23,17,8,8,,0.5
2023-07-15T18:00:00,1420A,106.6556,29.6277,重庆市,唐家沱,臭氧1小时,116,50,33,30,19,245,232,177,177,32,29,6,6,0.8,0.7
2023-07-15T18:00:00,1421A,106.6349,29.4906,重庆市,茶园,臭氧1小时,128,50,32,19,12,280,256,184,184,18,24,5,6,0.8,0.7
2023-07-15T18:00:00,1422A,106.3754,29.4572,重庆市,白市驿,臭氧1小时,103,50,34,20,17,221,205,157,157,15,21,6,6,0.5,0.6
2023-07-15T18:00:00,1425A,106.6205,29.7166,重庆市,空港,臭氧1小时,105,58,42,13,15,218,209,177,177,18,34,8,9,0.7,0.8
2023-07-15T18:00:00,1426A,106.4782,29.4875,重庆市,新山村,臭氧1小时,129,77,37,21,16,257,257,186,186,26,30,6,6,0.5,0.5
2023-07-15T18:00:00,1427A,106.5616,29.6453,重庆市,礼嘉,臭氧1小时,95,51,42,21,17,212,196,167,167,21,37,6,8,0.8,0.8
2023-07-15T18:00:00,1428A,106.4522,29.7091,重庆市,蔡家,颗粒物(PM10),52,54,43,17,18,177,158,144,144,17,25,6,5,0.7,0.7
2023-07-15T18:00:00,1429A,106.5093,29.3917,重庆市,鱼新街,臭氧1小时,121,46,31,14,16,241,241,165,165,21,25,8,7,0.9,0.9
2023-07-15T18:00:00,1431A,103.9728,30.7236,成都市,金泉两河,臭氧1小时,121,99,59,61,24,265,241,198,198,22,34,5,5,0.6,0.6
2023-07-15T18:00:00,1432A,104.176,30.6872,成都市,十里店,臭氧1小时,144,82,78,48,33,294,287,228,228,19,35,5,4,0.7,0.7
2023-07-15T18:00:00,1433A,104.079,30.5706,成都市,三瓦窑,臭氧1小时,122,86,81,32,32,263,244,191,191,36,42,3,5,0.6,0.6
2023-07-15T18:00:00,1434A,104.1114,30.63,成都市,沙河铺,臭氧1小时,139,82,72,38,29,277,277,203,203,18,33,4,3,0.6,0.7
2023-07-15T18:00:00,1437A,104.0786,30.6531,成都市,君平街,臭氧1小时,149,93,89,59,40,318,297,248,248,20,41,4,7,0.6,0.6
2023-07-15T18:00:00,1438A,103.613,31.0283,成都市,灵岩寺,臭氧1小时,62,33,28,19,15,178,169,132,132,5,9,3,9,0.7,0.7
2023-07-15T18:00:00,1439A,106.6899,26.5998,贵阳市,马鞍山,,41,41,37,12,13,126,126,118,118,6,6,5,5,0.4,0.4
2023-07-15T18:00:00,1440A,106.6971,26.5694,贵阳市,市环保站,颗粒物(PM10),52,53,44,21,21,136,132,126,126,12,9,4,4,0.3,0.2
2023-07-15T18:00:00,1441A,106.6243,26.6266,贵阳市,鉴湖路,颗粒物(PM10),56,61,46,19,15,130,130,119,119,8,9,1,3,0.3,0.3
2023-07-15T18:00:00,1442A,106.7487,26.6343,贵阳市,燕子冲,,41,29,22,27,23,131,130,124,124,9,9,6,7,0.5,0.5
2023-07-15T18:00:00,1443A,106.6555,26.4365,贵阳市,碧云窝,颗粒物(PM10),58,66,50,17,16,134,134,124,124,7,7,5,5,0.6,0.5
2023-07-15T18:00:00,1444A,106.694,26.5161,贵阳市,中院村,,,61,50,22,17,129,129,123,123,8,6,,5,0.5,0.4
2023-07-15T18:00:00,1445A,106.7109,26.6027,贵阳市,红边门,颗粒物(PM10),53,56,47,22,20,135,133,126,126,8,6,5,5,0.5,0.4
2023-07-15T18:00:00,1446A,106.7164,26.5699,贵阳市,新华路,颗粒物(PM10),52,53,45,22,17,137,133,125,125,8,8,4,5,0.6,0.5
2023-07-15T18:00:00,1447A,106.674,26.5424,贵阳市,太慈桥,颗粒物(PM10),54,58,52,14,12,125,122,116,116,9,7,4,5,0.3,0.3
2023-07-15T18:00:00,1450A,102.8204,24.8886,昆明市,呈贡新区,,,,32,14,12,121,115,110,110,9,15,4,6,0.4,0.5
2023-07-15T18:00:00,1451A,102.6251,24.9608,昆明市,西山森林公园,,49,26,18,13,11,156,154,145,145,10,10,8,10,0.6,0.6
2023-07-15T18:00:00,1452A,102.7252,25.0902,昆明市,龙泉镇,,39,26,27,4,6,125,123,116,116,8,12,9,12,0.3,0.4
2023-07-15T18:00:00,1453A,102.7266,25.0375,昆明市,东风东路,,40,27,27,7,11,133,128,121,121,11,12,4,8,0.1,0.1
2023-07-15T18:00:00,1454A,102.6742,25.0669,昆明市,金鼎山,,40,30,32,9,14,125,125,118,118,9,12,4,15,0.3,0.4
2023-07-15T18:00:00,1455A,102.6644,25.0401,昆明市,碧鸡广场,,41,22,30,4,16,131,130,122,122,10,12,8,13,0.3,0.3
2023-07-15T18:00:00,1456A,91.1319,29.6514,拉萨市,八廓街,,,15,10,8,8,125,121,114,114,,7,7,6,0.1,0.2
2023-07-15T18:00:00,1457A,91.1221,29.6747,拉萨市,市环保局,,37,7,7,7,7,121,118,112,112,9,11,7,6,0.1,0.2
2023-07-15T18:00:00,1458A,91.0874,29.6475,拉萨市,区监测站,,34,7,6,7,6,112,107,105,105,9,12,8,7,0.2,0.3
2023-07-15T18:00:00,1459A,91.1774,29.6541,拉萨市,西藏大学,,39,4,6,6,7,126,124,116,116,6,9,10,9,0.1,0.2
2023-07-15T18:00:00,1460A,90.9798,29.6588,拉萨市,区辐射站,,33,10,9,6,6,112,104,100,100,9,10,9,9,0.1,0.2
2023-07-15T18:00:00,1461A,91.0834,29.6292,拉萨市,拉萨火车站,,33,7,7,5,6,110,103,102,102,6,10,9,9,0.3,0.3
2023-07-15T18:00:00,1462A,108.882,34.2749,西安市,高压开关厂,,47,20,68,14,22,159,148,144,144,9,35,8,9,0.3,0.5
2023-07-15T18:00:00,1463A,108.993,34.2629,西安市,兴庆小区,,42,15,53,9,18,154,132,138,138,7,28,5,6,0.5,0.8
2023-07-15T18:00:00,1464A,109.06,34.2572,西安市,纺织城,,35,22,62,12,21,169,112,140,140,19,42,3,3,0.3,0.4
2023-07-15T18:00:00,1465A,108.9356,34.2173,西安市,小寨,,44,34,62,4,17,140,138,132,132,2,24,5,6,0.3,0.4
2023-07-15T18:00:00,1466A,108.954,34.2713,西安市,市人民体育场,,43,14,56,12,22,144,135,133,133,7,27,6,6,0.3,0.5
2023-07-15T18:00:00,1467A,108.8922,34.2322,西安市,高新西区,,47,18,50,10,20,152,150,143,143,2,20,7,7,0.4,0.5
2023-07-15T18:00:00,1468A,108.935,34.3474,西安市,经开区,,45,20,67,6,22,156,141,142,142,4,31,2,3,0.2,0.4
2023-07-15T18:00:00,1469A,108.906,34.1546,西安市,长安区,,44,20,54,10,18,149,139,140,140,6,18,3,4,0.1,0.3
2023-07-15T18:00:00,1471A,109.2186,34.3731,西安市,临潼区,,44,23,64,12,20,194,140,160,160,15,21,5,6,0.4,0.5
2023-07-15T18:00:00,1472A,108.869,34.378,西安市,草滩,,47,20,78,8,17,166,148,145,145,15,43,10,13,0.5,0.7
2023-07-15T18:00:00,1473A,108.985,34.1978,西安市,曲江文化产业集团,,43,10,56,8,18,153,136,139,139,9,27,4,5,0.3,0.5
2023-07-15T18:00:00,1474A,109.051,34.3213,西安市,广运潭,,41,21,62,11,23,159,130,146,146,13,39,7,7,0.3,0.5
2023-07-15T18:00:00,1476A,103.631,36.1031,兰州市,兰炼宾馆,臭氧1小时,57,19,51,16,22,165,165,138,138,12,40,4,7,0.2,0.5
2023-07-15T18:00:00,1477A,104.1373,35.9454,兰州市,榆中兰大校区,,,,,,,,,,,,,,,,
2023-07-15T18:00:00,1478A,103.8412,36.0726,兰州市,生物制品所,臭氧1小时,65,14,55,11,27,173,172,147,147,11,39,11,10,0.3,0.7
2023-07-15T18:00:00,1479A,103.831,36.0464,兰州市,铁路设计院,,50,14,61,7,22,162,160,138,138,22,54,6,13,0.2,0.8
2023-07-15T18:00:00,1483A,101.524,36.6867,西宁市,第五水厂,,,,,,,,,,,,,,,,
2023-07-15T18:00:00,1484A,105.9512,38.6016,银川市,贺兰山马莲口,臭氧1小时,84,14,16,13,8,187,187,162,162,8,8,11,7,0.6,0.4
2023-07-15T18:00:00,1488A,106.2328,38.4975,银川市,贺兰山东路,臭氧1小时,68,35,45,14,16,178,174,153,153,13,27,16,10,0.5,0.5
2023-07-15T18:00:00,1489A,106.1358,38.5036,银川市,学院路,臭氧1小时,70,29,46,15,14,176,176,150,150,11,40,17,13,0.6,0.6
2023-07-15T18:00:00,1490A,87.5801,43.8303,乌鲁木齐市,监测站,臭氧1小时,57,13,49,16,15,169,165,142,142,10,43,4,5,0.3,0.5
2023-07-15T18:00:00,1491A,87.6046,43.768,乌鲁木齐市,收费所,臭氧1小时,54,19,54,5,19,164,163,135,135,13,45,6,5,0.3,0.5
2023-07-15T18:00:00,1492A,87.4754,43.9469,乌鲁木齐市,新疆农科院农场,颗粒物(PM10),53,56,79,24,35,172,156,147,147,14,48,11,12,0.7,0.8
2023-07-15T18:00:00,1493A,87.5525,43.8711,乌鲁木齐市,铁路局,臭氧1小时,64,21,49,14,14,176,171,145,145,14,40,2,3,0.2,0.5
2023-07-15T18:00:00,1494A,87.6432,43.831,乌鲁木齐市,三十一中学,,50,17,41,18,16,167,158,144,144,35,38,3,4,0.3,0.4
2023-07-15T18:00:00,1496A,87.7216,44.1747,乌鲁木齐市,米东区环保局,臭氧1小时,69,26,69,9,23,221,175,164,164,7,31,7,7,0.3,0.4
2023-07-15T18:00:00,1508A,112.9433,27.8614,湘潭市,板塘,颗粒物(PM10),57,64,37,22,21,130,109,102,102,10,12,9,9,0.6,0.6
2023-07-15T18:00:00,1511A,112.9118,27.8403,湘潭市,市监测站,,46,46,33,16,21,129,122,108,108,8,9,4,4,0.5,0.5
2023-07-15T18:00:00,1512A,112.8937,27.8728,湘潭市,江麓,颗粒物(PM10),54,57,42,15,20,134,110,104,104,11,13,3,3,0.1,0.1
2023-07-15T18:00:00,1513A,112.9227,27.8159,湘潭市,岳塘,,,,,,,,,,,,,,,,
2023-07-15T18:00:00,1514A,112.9074,27.9119,湘潭市,科大,颗粒物(PM10),54,57,46,17,25,145,123,115,115,9,11,7,6,0.8,0.8
2023-07-15T18:00:00,1515A,113.135,27.8244,株洲市,天台山庄,颗粒物(PM10),53,56,38,18,21,162,145,123,123,9,10,5,6,0.5,0.5
2023-07-15T18:00:00,1518A,113.095,27.8867,株洲市,株冶医院,,50,50,37,17,21,147,118,111,111,15,15,3,3,0.4,0.4
2023-07-15T18:00:00,1519A,113.167,27.8667,株洲市,市四中,颗粒物(PM10),52,53,37,17,21,142,126,116,116,7,11,5,5,0.5,0.6
2023-07-15T18:00:00,1520A,113.143,27.8381,株洲市,火车站,颗粒物(PM10),53,56,38,20,21,157,142,123,123,9,10,6,5,0.5,0.5
2023-07-15T18:00:00,1524A,113.13,27.8528,株洲市,市监测站,颗粒物(PM10),57,63,46,27,26,155,139,124,124,12,14,5,6,0.5,0.6
2023-07-15T18:00:00,1552A,106.805,26.3003,贵阳市,桐木岭,颗粒物(PM10),64,77,47,24,22,137,136,127,127,4,3,2,2,0.3,0.3
2023-07-15T18:00:00,1559A,113.251,27.8336,株洲市,大京风景区,,47,47,30,9,8,136,134,115,115,7,9,4,4,0.4,0.5
2023-07-15T18:00:00,1562A,113.0048,27.9153,湘潭市,昭山,颗粒物(PM10),56,61,40,18,20,148,119,110,110,13,14,3,3,0.5,0.4
2023-07-15T18:00:00,1564A,112.4876,27.9164,湘潭市,韶山,,35,35,28,11,11,90,80,72,72,6,7,6,6,0.4,0.4
2023-07-15T18:00:00,1585A,109.8756,40.6532,包头市,市环境监测站,,40,11,12,8,8,125,125,114,114,8,13,9,8,0.3,0.4
2023-07-15T18:00:00,1587A,109.9991,40.5842,包头市,包头八中,,43,16,17,3,7,137,137,125,125,8,18,8,8,0.4,0.5
2023-07-15T18:00:00,1588A,109.8538,40.6821,包头市,青山宾馆,,38,8,11,3,5,120,120,110,110,8,17,5,5,0.4,0.4
2023-07-15T18:00:00,1589A,109.8642,40.6288,包头市,惠龙物流,,40,8,12,2,7,126,126,115,115,7,13,6,7,0.3,0.3
2023-07-15T18:00:00,1590A,110.0377,40.5546,包头市,东河鸿龙湾,,42,12,23,2,7,132,132,114,114,8,16,8,6,0.4,0.4
2023-07-15T18:00:00,1591A,110.0023,39.8129,鄂尔多斯市,综合楼,,42,27,33,5,7,132,132,119,119,13,19,11,12,0.4,0.5
2023-07-15T18:00:00,1592A,109.9486,39.8261,鄂尔多斯市,巴音孟克林场办事处,,46,27,26,12,12,148,147,130,130,10,16,12,10,0.4,0.5
2023-07-15T18:00:00,1593A,109.7736,39.5986,鄂尔多斯市,康泽苑,,44,17,16,0,2,139,139,118,118,7,10,9,8,0.4,0.4
2023-07-15T18:00:00,1594A,109.8119,39.5989,鄂尔多斯市,华泰汽车城,,43,19,20,12,8,138,137,118,118,8,15,9,9,0.4,0.4
2023-07-15T18:00:00,1595A,109.9734,39.7884,鄂尔多斯市,奥林花园,,42,31,26,9,8,136,134,120,120,9,16,13,10,0.6,0.7
2023-07-15T18:00:00,1597A,122.2703,40.7094,营口市,大庆路,,33,16,23,4,10,200,105,159,97,12,11,4,5,0.5,0.7
2023-07-15T18:00:00,1598A,122.2150,40.6511,营口市,镜湖西路,,32,14,26,4,10,208,101,165,90,9,9,6,6,0.4,0.5
2023-07-15T18:00:00,1599A,122.1658,40.6789,营口市,西炮台,,35,13,26,4,10,208,109,163,97,9,10,6,6,0.3,0.4
2023-07-15T18:00:00,1600A,124.3303,40.0625,丹东市,江湾东路,,30,7,36,3,24,152,96,147,128,10,7,3,3,0.6,0.8
2023-07-15T18:00:00,1601A,124.4256,40.1503,丹东市,临江后街,,28,9,32,4,20,148,88,145,120,10,6,5,5,0.6,0.9
2023-07-15T18:00:00,1602A,124.3933,40.1461,丹东市,元宝山,,24,6,37,6,25,148,75,139,106,7,9,6,6,0.4,0.8
2023-07-15T18:00:00,1603A,124.3633,40.1092,丹东市,民主桥,,25,15,33,8,20,144,80,137,119,20,6,5,4,0.5,0.8
2023-07-15T18:00:00,1604A,122.0303,41.1489,盘锦市,开发区,,32,10,22,8,11,196,100,100,100,15,16,3,3,0.4,0.6
2023-07-15T18:00:00,1605A,122.0485,41.0883,盘锦市,兴隆台,,30,19,23,5,10,189,93,96,96,16,16,4,5,0.4,0.6
2023-07-15T18:00:00,1606A,121.8297,41.1028,盘锦市,新生街道,,32,5,19,4,8,216,101,100,100,16,17,5,5,0.4,0.5
2023-07-15T18:00:00,1607A,120.9092,40.7136,葫芦岛市,龙港区,,32,19,23,4,9,171,100,106,105,11,10,4,3,0.2,0.3
2023-07-15T18:00:00,1608A,120.8392,40.7514,葫芦岛市,化工街,,32,17,31,7,10,144,100,103,102,12,19,6,6,0.2,0.2
2023-07-15T18:00:00,1609A,120.8341,40.7073,葫芦岛市,新区,,31,23,36,9,9,146,98,101,101,12,16,5,5,0.4,0.5
2023-07-15T18:00:00,1610A,120.8695,40.7677,葫芦岛市,东城区,,31,18,30,9,7,146,98,104,103,12,22,6,5,0.1,0.2
2023-07-15T18:00:00,1611A,118.5819,24.9117,泉州市,涂山街,颗粒物(PM10),52,54,35,15,18,106,91,84,84,9,11,10,11,0.7,0.7
2023-07-15T18:00:00,1612A,118.5972,24.8978,泉州市,津头埔,,47,47,31,18,15,106,85,84,84,11,15,8,9,0.5,0.5
2023-07-15T18:00:00,1613A,118.6663,24.9424,泉州市,万安,,50,50,35,12,15,113,82,74,74,8,14,8,8,0.6,0.6
2023-07-15T18:00:00,1614A,118.6117,24.9604,泉州市,清源山,,,,,,,,,,,,,,,,
2023-07-15T18:00:00,1616A,117.6795,36.229,济南市,技术学院,臭氧1小时,55,14,56,9,19,179,164,154,154,8,21,9,16,0.6,1.5
2023-07-15T18:00:00,1618A,118.3429,35.0532,临沂市,沂河小区,颗粒物(PM10),51,51,69,18,25,217,150,186,186,20,22,6,9,0.3,0.4
2023-07-15T18:00:00,1619A,118.295,35.0583,临沂市,鲁南制药厂,,48,48,68,17,22,229,144,184,184,20,23,6,8,0.6,0.9
2023-07-15T18:00:00,1620A,118.2794,34.9976,临沂市,新光毛纺厂,,44,44,64,16,24,185,131,168,167,16,19,6,11,0.3,0.5
2023-07-15T18:00:00,1621A,118.3956,35.0888,临沂市,河东保险公司,,44,36,51,18,22,208,140,174,174,15,13,4,6,0.4,0.6
2023-07-15T18:00:00,1622A,116.3032,37.4674,德州市,儿童乐园,臭氧1小时,60,17,34,5,9,168,168,155,155,8,15,6,8,0.3,0.3
2023-07-15T18:00:00,1624A,116.2991,37.4451,德州市,监理站,臭氧1小时,55,20,34,0,7,166,164,152,152,11,18,8,12,0.2,0.3
2023-07-15T18:00:00,1625A,115.9848,36.4372,聊城市,区政府,臭氧1小时,58,24,47,9,12,208,166,150,150,13,22,7,10,0.4,0.5
2023-07-15T18:00:00,1628A,118.0062,37.3803,滨州市,市环保局,臭氧1小时,54,18,51,5,18,170,163,146,146,8,12,5,6,0.3,0.4
2023-07-15T18:00:00,1629A,118.0018,37.3617,滨州市,第二水厂,臭氧1小时,52,17,57,5,20,171,161,148,148,8,13,4,12,0.4,0.5
2023-07-15T18:00:00,1630A,117.9776,37.393,滨州市,北中新校,臭氧1小时,60,20,49,9,15,170,168,145,145,5,11,5,5,0.3,0.3
2023-07-15T18:00:00,1631A,118.0414,36.8103,淄博市,人民公园,,50,22,70,7,21,197,159,162,162,15,30,11,15,0.3,0.5
2023-07-15T18:00:00,1633A,117.8525,36.4847,淄博市,双山,臭氧1小时,53,24,46,8,17,184,162,161,161,9,15,6,8,0.2,0.4
2023-07-15T18:00:00,1634A,117.9592,36.6331,淄博市,气象站,,50,28,64,14,24,176,157,159,159,13,24,8,11,0.2,0.4
2023-07-15T18:00:00,1635A,118.3092,36.8194,淄博市,莆田园,,42,17,72,9,25,197,134,156,156,13,25,10,16,0.3,0.6
2023-07-15T18:00:00,1637A,117.558,34.8438,枣庄市,市中区政府,臭氧1小时,59,48,67,12,24,186,167,176,176,21,23,9,14,0.4,0.5
2023-07-15T18:00:00,1638A,117.2852,34.7837,枣庄市,薛城环保局,臭氧1小时,73,59,72,7,18,186,178,179,179,20,19,12,14,0.4,0.5
2023-07-15T18:00:00,1639A,117.5852,34.7745,枣庄市,峄城区政府,,49,48,65,5,19,205,156,179,179,19,17,12,12,0.5,0.6
2023-07-15T18:00:00,1640A,117.7276,34.5578,枣庄市,台儿庄区环保局,臭氧1小时,57,44,71,12,25,205,165,178,178,23,23,10,12,0.6,0.9
2023-07-15T18:00:00,1641A,117.4518,35.0992,枣庄市,山亭区环保局,,46,31,54,7,23,180,146,163,163,17,18,7,10,0.2,0.3
2023-07-15T18:00:00,1642A,121.2514,37.5639,烟台市,开发区,,36,17,46,2,14,135,114,115,113,7,10,6,8,0.5,0.7
2023-07-15T18:00:00,1643A,121.3719,37.5433,烟台市,轴承厂,,39,17,44,6,20,149,122,143,117,5,9,3,5,0.2,0.4
2023-07-15T18:00:00,1644A,121.3181,37.5436,烟台市,西郊化工站,,39,9,44,4,21,142,123,121,116,7,15,4,5,0.2,0.4
2023-07-15T18:00:00,1645A,121.4478,37.4822,烟台市,莱山环保局,,36,7,40,2,18,150,115,111,111,9,11,3,6,0.3,0.6
2023-07-15T18:00:00,1646A,121.2611,37.4967,烟台市,福山环保局,,37,9,44,0,14,145,117,121,111,8,12,5,7,0.5,0.7
2023-07-15T18:00:00,1650A,119.1437,36.7023,潍坊市,环保局,,39,14,50,5,23,185,123,147,147,4,20,8,12,0.2,0.4
2023-07-15T18:00:00,1653A,116.6251,35.4302,济宁市,火炬城,,50,33,50,9,17,175,160,149,149,4,13,7,10,0.4,0.6
2023-07-15T18:00:00,1655A,116.5491,35.4042,济宁市,电化厂,,50,26,60,7,20,172,160,152,152,6,18,5,6,0.3,0.5
2023-07-15T18:00:00,1656A,117.1437,36.1937,泰安市,监测站,臭氧1小时,63,24,53,15,18,170,170,146,146,5,19,7,8,0.2,0.3
2023-07-15T18:00:00,1657A,117.0885,36.2017,泰安市,人口学校,臭氧1小时,55,24,42,15,18,168,164,140,140,11,21,7,8,0.4,0.4
2023-07-15T18:00:00,1658A,117.1089,36.1758,泰安市,电力学校,臭氧1小时,64,27,51,13,17,171,171,148,148,4,18,7,9,0.1,0.3
2023-07-15T18:00:00,1659A,119.471,35.4209,日照市,监测站,,,70,62,28,31,152,152,111,111,,26,5,5,0.8,0.9
2023-07-15T18:00:00,1660A,119.523,35.4216,日照市,市政府广场,臭氧1小时,90,58,58,23,28,192,192,161,161,18,16,12,10,0.6,0.8
2023-07-15T18:00:00,1661A,119.5587,35.4044,日照市,港务局,"颗粒物(PM10),臭氧1小时",69,88,68,24,28,190,175,166,166,46,27,12,11,0.9,1
2023-07-15T18:00:00,1662A,122.1214,37.4236,威海市,华夏技校,,39,12,40,7,30,157,122,130,109,8,12,5,7,0.2,0.5
2023-07-15T18:00:00,1663A,122.0508,37.5236,威海市,山大分校,,40,12,45,2,20,171,128,149,121,6,6,5,6,0.3,0.5
2023-07-15T18:00:00,1664A,122.1067,37.5072,威海市,市监测站,,37,15,45,7,22,171,118,149,111,7,11,7,8,0.4,0.6
2023-07-15T18:00:00,1666A,118.6614,37.4309,东营市,市环保局,,37,9,52,2,17,158,117,122,122,2,13,6,8,0.1,0.2
2023-07-15T18:00:00,1669A,113.5824,24.7733,韶关市,市八中,颗粒物(PM10),72,93,50,37,11,170,107,142,141,5,15,9,11,0.4,0.5
2023-07-15T18:00:00,1671A,113.5917,24.7972,韶关市,园林处,,,63,46,,29,168,107,141,139,4,17,11,19,0.4,0.6
2023-07-15T18:00:00,1672A,113.6735,24.7791,韶关市,韶关学院,颗粒物(PM10),52,54,49,29,30,178,111,144,142,7,14,8,13,0.4,0.6
2023-07-15T18:00:00,1673A,113.5971,24.6863,韶关市,曲江监测站,,50,50,46,27,31,189,118,158,158,4,14,8,10,0.7,0.8
2023-07-15T18:00:00,1674A,116.6794,23.3667,汕头市,金平子站,,29,23,25,8,11,148,91,130,114,6,13,4,5,0.6,0.7
2023-07-15T18:00:00,1675A,116.7244,23.3633,汕头市,龙湖子站,,29,24,25,14,10,157,90,134,119,7,13,4,5,0.6,0.6
2023-07-15T18:00:00,1676A,116.7258,23.2775,汕头市,濠江子站,,28,28,25,11,14,128,82,116,103,12,15,9,10,0.6,0.6
2023-07-15T18:00:00,1677A,116.7519,23.4714,汕头市,澄海子站,,45,23,32,31,17,170,92,140,130,11,16,6,7,0.6,0.6
2023-07-15T18:00:00,1678A,116.6092,23.2539,汕头市,潮阳子站,,36,36,32,13,14,161,93,135,126,6,11,10,11,0.6,0.7
2023-07-15T18:00:00,1680A,110.3539,21.2706,湛江市,湛江影剧院,,39,39,29,17,13,121,121,109,109,5,10,7,11,0.7,0.7
2023-07-15T18:00:00,1681A,110.3928,21.2228,湛江市,市环境监测站,,44,44,26,14,15,118,116,102,102,11,13,8,8,0.7,0.6
2023-07-15T18:00:00,1682A,110.4019,21.1997,湛江市,环保局宿舍,,41,41,29,19,17,126,118,104,104,10,13,3,4,0.7,0.6
2023-07-15T18:00:00,1683A,110.4111,21.2028,湛江市,霞山游泳场,,38,32,28,16,13,123,120,106,106,10,13,8,8,0.6,0.5
2023-07-15T18:00:00,1684A,110.3316,21.2679,湛江市,麻章区环保局,,40,40,31,12,15,126,124,110,110,8,12,5,9,0.8,0.7
2023-07-15T18:00:00,1685A,110.4558,21.2567,湛江市,坡头区环保局,,35,29,21,21,12,126,110,108,108,7,9,7,7,0.5,0.5
2023-07-15T18:00:00,1686A,111.0286,21.4688,茂名市,电白南海,颗粒物(PM10),96,141,31,34,18,136,96,115,115,9,7,5,6,0.7,0.6
2023-07-15T18:00:00,1687A,110.9294,21.6533,茂名市,茂石化七小,,39,36,25,27,17,108,89,99,99,12,9,7,9,0.5,0.5
2023-07-15T18:00:00,1688A,110.9107,21.6687,茂名市,健康路,,31,31,21,14,10,106,89,96,96,10,8,6,9,0.7,0.6
2023-07-15T18:00:00,1689A,110.8592,21.6828,茂名市,高岭,,44,44,31,24,21,102,84,95,95,14,9,12,9,0.7,0.6
2023-07-15T18:00:00,1690A,116.1231,24.3284,梅州市,梅江月梅,,49,44,36,23,20,158,156,143,143,10,17,4,4,0.6,0.6
2023-07-15T18:00:00,1691A,116.0797,24.2719,梅州市,梅县新城,,48,48,40,31,23,151,149,142,142,9,17,4,8,0.7,0.6
2023-07-15T18:00:00,1692A,116.1248,24.2654,梅州市,环境监控中心,细颗粒物(PM2.5),59,47,39,42,26,163,163,153,153,13,24,3,5,0.6,0.6
2023-07-15T18:00:00,1693A,115.3653,22.775,汕尾市,市环保局,,20,17,20,8,10,120,62,104,102,5,8,8,8,0.5,0.5
2023-07-15T18:00:00,1694A,115.3706,22.7898,汕尾市,市政府,,24,20,23,3,11,127,76,106,106,5,7,5,5,0.6,0.6
2023-07-15T18:00:00,1695A,115.3622,22.7925,汕尾市,新城中学,,24,24,28,7,12,119,67,99,98,4,7,7,7,0.5,0.5
2023-07-15T18:00:00,1696A,114.6778,23.7569,河源市,源西,,45,39,43,31,33,122,106,110,110,9,26,4,4,0.6,0.7
2023-07-15T18:00:00,1697A,114.6944,23.7586,河源市,东埔,,48,38,53,33,24,147,112,126,126,9,18,5,5,0.6,0.8
2023-07-15T18:00:00,1698A,114.6892,23.7233,河源市,老城,,45,45,59,21,26,125,105,116,116,6,19,4,4,0.6,0.7
2023-07-15T18:00:00,1699A,111.9797,21.8593,阳江市,鸳鸯湖,,43,38,26,24,19,135,135,107,107,8,10,6,7,0.8,0.7
2023-07-15T18:00:00,1701A,111.9491,21.8658,阳江市,马南垌,细颗粒物(PM2.5),57,48,30,40,20,128,128,105,105,14,13,13,9,0.6,0.5
2023-07-15T18:00:00,1702A,113.0426,23.691,清远市,环保大楼,,42,22,40,29,28,188,127,150,149,4,12,6,10,0.5,0.5
2023-07-15T18:00:00,1703A,113.0208,23.7106,清远市,凤城街办,,37,30,41,22,26,177,118,144,144,5,9,6,8,0.5,0.6
2023-07-15T18:00:00,1705A,116.6367,23.6719,潮州市,西园路,,38,37,42,26,22,163,109,137,136,7,10,6,6,0.2,0.3
2023-07-15T18:00:00,1706A,116.6447,23.6706,潮州市,档案局,,36,31,42,16,20,175,115,152,151,7,12,6,7,0.5,0.5
2023-07-15T18:00:00,1708A,116.3701,23.5345,揭阳市,新兴,颗粒物(PM10),51,52,47,29,23,205,116,172,171,12,16,8,12,0.5,0.6
2023-07-15T18:00:00,1709A,116.3264,23.5443,揭阳市,西马,颗粒物(PM10),55,59,46,24,25,206,131,175,175,5,12,6,10,0.7,0.8
2023-07-15T18:00:00,1710A,116.3611,23.5626,揭阳市,东兴,,44,44,49,21,19,202,137,175,170,9,14,4,11,0.9,0.8
2023-07-15T18:00:00,1711A,116.4151,23.5294,揭阳市,渔湖,,49,49,46,18,23,197,97,171,162,9,12,9,8,1.0,0.7
2023-07-15T18:00:00,1712A,112.0392,22.9169,云浮市,新市府,颗粒物(PM10),55,59,34,27,19,134,113,120,120,8,8,5,5,0.7,0.8
2023-07-15T18:00:00,1714A,112.0539,22.9539,云浮市,牧羊,颗粒物(PM10),64,78,40,30,23,146,126,137,137,6,26,9,22,0.6,0.7
2023-07-15T18:00:00,1715A,102.575,24.3711,玉溪市,东风水库,,44,31,31,10,15,139,139,106,106,9,12,6,7,0.6,1
2023-07-15T18:00:00,1718A,115.4208,35.2464,菏泽市,气象局,臭氧1小时,69,33,65,8,17,192,175,163,163,5,18,5,8,0.3,0.4
2023-07-15T18:00:00,1719A,115.4747,35.2375,菏泽市,市政协,臭氧1小时,69,34,60,9,18,188,175,159,159,6,14,6,9,0.2,0.2
2023-07-15T18:00:00,1721A,113.3819,40.1097,大同市,果树场,,43,17,17,6,14,135,135,121,121,7,11,4,8,0.3,0.5
2023-07-15T18:00:00,1723A,113.2994,40.0758,大同市,云冈宾馆,,45,9,18,10,8,144,142,132,132,11,10,6,8,0.3,0.4
2023-07-15T18:00:00,1724A,113.3444,40.0917,大同市,大同大学,,40,10,21,8,10,128,128,115,115,7,11,7,12,0.3,0.6
2023-07-15T18:00:00,1725A,113.2661,40.1269,大同市,安家小村,,42,6,18,3,6,137,134,125,125,5,8,6,8,0.2,0.4
2023-07-15T18:00:00,1726A,113.2711,40.0844,大同市,教育学院,,41,7,20,6,8,130,130,120,120,10,12,6,7,0.5,0.6
2023-07-15T18:00:00,1727A,113.1147,36.1547,长治市,清华站,,50,18,31,0,6,158,158,143,143,6,13,9,11,0.5,0.6
2023-07-15T18:00:00,1728A,113.1031,36.1989,长治市,监测站,臭氧1小时,58,17,27,5,7,166,166,149,149,12,18,11,15,0.7,0.7
2023-07-15T18:00:00,1730A,113.0886,36.2125,长治市,审计局,,49,16,24,2,8,154,154,139,139,10,14,12,15,0.6,0.7
2023-07-15T18:00:00,1731A,113.0844,36.1856,长治市,长治八中,,49,26,29,2,12,157,156,141,141,8,12,9,11,0.3,0.5
2023-07-15T18:00:00,1733A,111.5531,36.0783,临汾市,临钢医院,颗粒物(PM10),54,58,28,22,20,142,136,128,128,8,17,7,7,0.6,0.7
2023-07-15T18:00:00,1734A,111.5028,36.0714,临汾市,技工学校,,47,20,34,18,15,148,148,135,135,8,16,3,4,0.5,0.6
2023-07-15T18:00:00,1736A,111.5018,36.0855,临汾市,市委,,45,19,35,19,16,143,141,130,130,8,16,6,7,0.6,0.7
2023-07-15T18:00:00,1738A,113.5758,37.8572,阳泉市,市中心,,45,19,24,11,11,141,141,130,130,10,18,8,9,0.6,0.6
2023-07-15T18:00:00,1739A,113.4894,37.8731,阳泉市,赛鱼,,43,32,33,20,10,136,136,125,125,15,26,8,9,0.5,0.5
2023-07-15T18:00:00,1740A,113.5819,37.8486,阳泉市,南庄,,45,29,32,9,14,143,143,133,133,10,15,7,8,0.6,0.6
2023-07-15T18:00:00,1742A,113.5614,37.8703,阳泉市,平坦,,44,28,26,10,11,139,139,128,128,10,20,8,9,0.5,0.5
2023-07-15T18:00:00,1743A,113.5158,37.8392,阳泉市,大阳泉,,42,16,20,10,14,134,134,125,125,9,15,8,9,0.5,0.5
2023-07-15T18:00:00,1744A,118.9233,42.2816,赤峰市,松山一中,,28,28,10,11,4,116,57,107,84,30,14,10,10,0.5,0.3
2023-07-15T18:00:00,1745A,118.9576,42.2728,赤峰市,哈达街,,28,28,11,12,6,118,54,110,83,26,11,12,14,0.4,0.3
2023-07-15T18:00:00,1746A,118.8788,42.2554,赤峰市,天义路,,20,18,10,14,6,117,64,114,86,27,12,14,14,0.2,0.1
2023-07-15T18:00:00,1748A,123.044,41.1196,鞍山市,深沟寺,,23,18,34,6,16,164,71,156,63,9,14,8,11,0.6,1.1
2023-07-15T18:00:00,1749A,123.011,41.0931,鞍山市,太阳城,,24,16,39,6,16,162,74,162,56,13,16,10,9,1.0,1.5
2023-07-15T18:00:00,1750A,123.0485,41.1442,鞍山市,太平,,26,14,38,8,17,162,81,154,71,13,14,6,8,0.6,1
2023-07-15T18:00:00,1751A,122.9642,41.0971,鞍山市,铁西三道街,,27,19,31,6,15,161,84,160,73,13,14,5,6,0.9,1.2
2023-07-15T18:00:00,1752A,122.9341,41.0833,鞍山市,铁西工业园区,,28,16,33,6,14,163,88,155,73,7,13,3,5,0.7,1
2023-07-15T18:00:00,1753A,123.022,41.0821,鞍山市,明达新区,,21,21,31,8,15,151,67,137,55,16,18,7,6,0.9,1.3
2023-07-15T18:00:00,1754A,123.1289,41.0228,鞍山市,千山,,,,,,,,,,,,,,,,
2023-07-15T18:00:00,1755A,123.7977,41.8491,抚顺市,望花区,,24,15,27,5,12,114,76,112,68,14,18,5,3,0.4,0.5
2023-07-15T18:00:00,1756A,123.9161,41.8822,抚顺市,顺城区,,21,20,24,7,13,109,67,104,65,19,16,2,2,0.4,0.7
2023-07-15T18:00:00,1757A,124.0436,41.8611,抚顺市,东洲区,,20,18,23,14,13,104,62,91,65,17,15,3,3,0.6,0.4
2023-07-15T18:00:00,1758A,123.9247,41.8642,抚顺市,新抚区,,22,14,23,13,15,93,68,88,63,17,14,5,5,0.6,0.6
2023-07-15T18:00:00,1759A,124.0972,41.8961,抚顺市,大伙房水库,,22,16,22,15,13,100,64,91,61,10,8,4,4,0.6,0.5
2023-07-15T18:00:00,1760A,123.7086,41.8391,抚顺市,沈抚新城,,22,8,24,2,11,115,70,115,66,10,13,5,6,0.4,0.6
2023-07-15T18:00:00,1761A,123.8275,41.3064,本溪市,大峪,,21,21,26,11,14,131,62,129,63,16,13,4,4,0.6,0.6
2023-07-15T18:00:00,1762A,123.7567,41.3325,本溪市,溪湖,,20,17,35,8,18,96,63,91,59,11,18,5,5,0.5,1
2023-07-15T18:00:00,1763A,123.7169,41.3094,本溪市,彩屯,,22,14,36,8,20,80,69,75,69,12,22,6,6,0.6,1.2
2023-07-15T18:00:00,1764A,123.7669,41.2864,本溪市,东明,,29,29,38,12,14,134,69,128,66,19,16,8,8,0.9,1
2023-07-15T18:00:00,1765A,123.7992,41.2664,本溪市,新立屯,,33,33,41,11,13,115,29,113,53,22,13,7,7,1.4,1
2023-07-15T18:00:00,1766A,123.8142,41.3472,本溪市,威宁,,19,13,30,10,21,106,59,101,59,14,13,6,6,0.4,0.5
2023-07-15T18:00:00,1767A,121.1115,41.0879,锦州市,南山,,34,21,22,7,7,159,107,112,110,11,9,5,6,0.6,0.5
2023-07-15T18:00:00,1768A,121.0533,40.8434,锦州市,开发区,,31,27,36,8,8,183,97,103,101,6,19,8,10,0.5,0.6
2023-07-15T18:00:00,1769A,121.1836,41.1119,锦州市,百股街道,,34,13,20,7,6,160,108,111,109,6,6,1,2,0.4,0.5
2023-07-15T18:00:00,1770A,121.1178,41.1222,锦州市,天安街道,,32,23,20,7,10,142,100,107,104,10,8,4,5,0.6,0.7
2023-07-15T18:00:00,1771A,121.1303,41.1386,锦州市,北湖公园,,29,18,15,8,10,137,90,96,93,6,6,1,2,0.5,0.5
2023-07-15T18:00:00,1772A,126.54,43.8622,吉林市,哈达湾,,23,19,10,12,6,108,71,108,94,12,6,5,5,0.6,0.5
2023-07-15T18:00:00,1773A,126.5844,43.8358,吉林市,东局子,,21,13,9,12,8,109,65,104,92,22,9,4,4,0.7,0.8
2023-07-15T18:00:00,1774A,126.5052,43.8245,吉林市,电力学院,,24,13,9,10,7,108,76,106,96,8,8,6,6,0.6,0.6
2023-07-15T18:00:00,1775A,126.6133,43.8972,吉林市,江北,,24,24,18,12,8,121,59,98,94,16,26,6,5,0.9,0.7
2023-07-15T18:00:00,1776A,126.555,43.8306,吉林市,江南公园,,24,15,10,11,8,110,74,102,95,16,9,2,2,0.6,0.6
2023-07-15T18:00:00,1778A,126.7061,43.7133,吉林市,丰满,,,,,,,,,,,,,,,,
2023-07-15T18:00:00,1779A,123.9305,47.3636,齐齐哈尔市,安居小区,,26,14,16,14,14,97,81,92,82,7,6,5,5,0.3,0.3
2023-07-15T18:00:00,1780A,123.9488,47.3386,齐齐哈尔市,中心广场,,22,15,14,2,4,95,69,86,75,11,8,6,6,0.2,0.2
2023-07-15T18:00:00,1781A,123.9483,47.3227,齐齐哈尔市,农牧车辆厂,,,,22,2,5,99,72,87,78,9,7,6,6,0.3,0.3
2023-07-15T18:00:00,1783A,123.945,47.2988,齐齐哈尔市,市环境监测站,,22,7,12,3,6,95,69,84,78,7,7,6,6,0.2,0.2
2023-07-15T18:00:00,1784A,129.61,44.561,牡丹江市,环保大楼,,18,15,12,12,7,57,30,46,31,22,11,5,6,0.5,0.4
2023-07-15T18:00:00,1785A,129.6115,44.5782,牡丹江市,文化广场,,16,11,10,11,13,48,29,38,26,22,14,6,6,0.6,0.5
2023-07-15T18:00:00,1786A,129.5904,44.5963,牡丹江市,第一医院,,20,20,12,9,9,50,22,40,27,27,10,4,4,0.5,0.4
2023-07-15T18:00:00,1787A,129.6364,44.6075,牡丹江市,机车工厂,,19,19,13,7,6,48,24,35,27,11,7,2,2,0.5,0.4
2023-07-15T18:00:00,1788A,129.6386,44.5462,牡丹江市,第一中学,,23,23,11,12,6,54,25,38,31,20,6,3,3,0.5,0.3
2023-07-15T18:00:00,1789A,124.81117,46.03138,大庆市,大同区,,16,10,7,4,6,85,51,80,56,6,6,8,8,0.2,0.2
2023-07-15T18:00:00,1790A,125.129,46.533,大庆市,龙凤区,,17,8,7,7,7,83,52,79,57,7,5,4,4,0.3,0.3
2023-07-15T18:00:00,1791A,124.902,46.408,大庆市,红岗区,,18,12,9,6,12,90,55,83,61,6,6,2,2,0.2,0.2
2023-07-15T18:00:00,1792A,125.153,46.586,大庆市,萨尔图区,,16,5,6,1,5,88,50,82,57,6,5,3,3,0.3,0.4
2023-07-15T18:00:00,1793A,124.9042,46.6215,大庆市,让胡路区,,15,7,8,4,9,98,48,87,60,9,5,2,2,0.2,0.2
2023-07-15T18:00:00,1794A,118.3606,31.3519,芜湖市,监测站,颗粒物(PM10),60,70,46,18,27,128,92,86,86,39,46,8,10,0.8,1.1
2023-07-15T18:00:00,1795A,118.3714,31.4134,芜湖市,科创中心,,49,49,41,14,22,122,98,86,86,28,32,6,10,0.5,0.7
2023-07-15T18:00:00,1796A,118.3673,31.3131,芜湖市,四水厂,颗粒物(PM10),57,64,46,25,26,122,98,92,92,50,50,11,10,1.2,1.3
2023-07-15T18:00:00,1798A,118.5092,31.6837,马鞍山市,湖东路四小,,42,42,31,13,24,121,116,102,102,14,14,6,7,0.7,0.8
2023-07-15T18:00:00,1799A,118.5024,31.6449,马鞍山市,开发区,,45,45,42,10,21,116,98,88,88,19,22,7,7,0.6,0.7
2023-07-15T18:00:00,1800A,118.5228,31.7231,马鞍山市,慈湖,,46,46,40,20,25,120,118,100,100,18,22,13,14,0.9,1.1
2023-07-15T18:00:00,1802A,118.6245,31.7241,马鞍山市,濮塘,,45,45,26,23,23,124,72,73,73,27,14,4,4,0.8,0.8
2023-07-15T18:00:00,1803A,115.9872,29.6815,九江市,十里,臭氧1小时,75,88,42,38,22,187,180,164,164,12,19,11,12,0.7,0.9
2023-07-15T18:00:00,1804A,115.9584,29.7046,九江市,茅山头,颗粒物(PM10),67,83,40,28,18,169,168,153,153,20,21,10,9,0.8,0.9
2023-07-15T18:00:00,1805A,115.9877,29.7295,九江市,西园,颗粒物(PM10),69,87,41,24,18,179,164,158,158,49,36,14,16,0.7,0.7
2023-07-15T18:00:00,1806A,116.0172,29.6547,九江市,五七二七厂,颗粒物(PM10),65,80,34,23,20,163,154,138,138,11,11,10,9,0.7,0.7
2023-07-15T18:00:00,1808A,115.9114,29.6038,九江市,综合工业园,颗粒物(PM10),66,81,39,23,18,179,172,148,148,24,28,13,10,0.7,1
2023-07-15T18:00:00,1809A,116.0721,29.7535,九江市,石化总厂,颗粒物(PM10),64,78,47,13,18,158,154,141,141,29,21,17,10,0.7,0.8
2023-07-15T18:00:00,1810A,115.9773,29.5698,九江市,庐山气象台,颗粒物(PM10),64,77,25,30,14,162,135,127,127,9,3,6,6,0.9,0.7
2023-07-15T18:00:00,1812A,112.3931,34.6516,洛阳市,市委党校,,49,31,63,17,21,162,155,149,149,8,14,4,4,0.7,0.7
2023-07-15T18:00:00,1814A,112.4657,34.6871,洛阳市,豫西宾馆,,50,37,62,17,22,166,159,150,150,8,19,4,6,0.4,0.6
2023-07-15T18:00:00,1815A,112.494,34.6886,洛阳市,河南林校,臭氧1小时,54,29,54,14,19,168,163,150,150,8,18,6,6,0.5,0.6
2023-07-15T18:00:00,1816A,112.3844,34.623,洛阳市,开发区管委会,,48,29,51,14,18,159,153,146,146,2,8,3,2,0.4,0.3
2023-07-15T18:00:00,1817A,112.4267,34.6258,洛阳市,市委新办公区,,50,38,56,14,21,166,159,151,151,8,12,1,2,0.4,0.4
2023-07-15T18:00:00,1818A,114.4839,36.0621,安阳市,棉研所,,48,24,53,6,19,160,151,145,145,4,22,8,10,0.3,0.6
2023-07-15T18:00:00,1819A,114.3551,36.1017,安阳市,红庙街,臭氧1小时,52,32,69,3,15,169,161,151,151,2,11,4,8,0.2,0.5
2023-07-15T18:00:00,1820A,114.361,36.0681,安阳市,银杏小区,臭氧1小时,58,44,64,9,10,175,166,156,156,2,14,4,7,0.1,0.4
2023-07-15T18:00:00,1824A,114.3389,34.7781,开封市,肿瘤医院,臭氧1小时,73,45,69,10,15,178,178,148,148,7,13,12,11,0.5,0.5
2023-07-15T18:00:00,1826A,114.2885,34.7965,开封市,世纪星幼儿园,臭氧1小时,97,35,70,24,18,197,197,161,161,9,17,5,4,0.5,0.6
2023-07-15T18:00:00,1828A,113.227,35.2125,焦作市,市环保局,,46,18,33,11,16,147,147,133,133,9,10,2,3,0.2,0.3
2023-07-15T18:00:00,1830A,113.1992,35.2590,焦作市,影视城,,,,,,,,,,,,,,,,
2023-07-15T18:00:00,1832A,113.3257,33.742,平顶山市,新华旅馆,臭氧1小时,57,31,69,11,20,166,165,151,151,11,14,5,8,0.5,0.5
2023-07-15T18:00:00,1833A,113.2919,33.737,平顶山市,规划设计院,,,27,65,8,18,163,163,150,150,,12,,11,0.4,0.5
2023-07-15T18:00:00,1834A,113.182,33.774,平顶山市,平顶山工学院,,50,19,63,5,13,162,157,150,150,7,11,6,10,0.4,0.4
2023-07-15T18:00:00,1835A,111.1922,34.7752,三门峡市,市政府,,41,22,54,11,18,161,130,143,143,9,25,4,5,0.4,0.5
2023-07-15T18:00:00,1836A,111.1587,34.7942,三门峡市,开发区,,42,22,57,14,20,161,133,144,144,6,25,4,6,0.2,0.4
2023-07-15T18:00:00,1838A,111.143,34.7955,三门峡市,风景区,,43,21,49,7,16,161,137,146,146,8,16,7,8,0.2,0.2
2023-07-15T18:00:00,1840A,111.2992,30.6981,宜昌市,白龙岗,,46,46,35,12,9,108,108,90,90,18,20,5,5,0.3,0.3
2023-07-15T18:00:00,1841A,111.3549,30.6465,宜昌市,伍家岗,,36,31,32,14,11,117,114,89,89,16,28,3,2,0.4,0.4
2023-07-15T18:00:00,1842A,111.2628,30.6961,宜昌市,点军区,,44,44,36,9,8,122,122,95,95,11,11,4,4,0.4,0.4
2023-07-15T18:00:00,1843A,111.3275,30.7819,宜昌市,夷陵区,,36,34,31,9,8,114,114,92,92,13,12,2,2,0.4,0.5
2023-07-15T18:00:00,1844A,112.2494,30.3197,荆州市,市图书馆,,41,38,31,23,14,129,129,101,101,12,16,9,8,0.5,0.6
2023-07-15T18:00:00,1845A,112.2008,30.3544,荆州市,市委党校,颗粒物(PM10),51,51,34,26,14,117,117,94,94,11,14,7,8,0.6,0.7
2023-07-15T18:00:00,1847A,113.1094,29.3578,岳阳市,南湖风景区,颗粒物(PM10),51,52,30,10,13,137,137,118,118,4,10,9,8,0.5,0.6
2023-07-15T18:00:00,1848A,113.1493,29.4251,岳阳市,城陵矶,颗粒物(PM10),56,61,36,19,16,127,125,112,112,11,24,7,7,0.7,0.8
2023-07-15T18:00:00,1849A,113.1497,29.3575,岳阳市,开发区,颗粒物(PM10),51,51,32,14,12,138,136,122,122,8,16,8,9,0.4,0.6
2023-07-15T18:00:00,1850A,113.2621,29.4758,岳阳市,云溪区,颗粒物(PM10),56,62,33,18,15,135,129,122,122,8,8,9,7,0.4,0.6
2023-07-15T18:00:00,1851A,112.9943,29.4402,岳阳市,君山区,颗粒物(PM10),54,58,31,15,14,131,127,117,117,13,11,8,8,0.6,0.6
2023-07-15T18:00:00,1852A,113.2117,29.355,岳阳市,金凤水库,颗粒物(PM10),52,54,38,11,18,146,136,130,130,6,9,4,4,0.7,0.9
2023-07-15T18:00:00,1854A,111.6975,28.9703,常德市,市二中,颗粒物(PM10),56,61,27,17,13,140,133,110,110,4,6,4,6,0.3,0.3
2023-07-15T18:00:00,1857A,111.7158,29.1456,常德市,白鹤山,,38,22,16,5,7,134,120,112,112,10,9,10,4,0.2,0.3
2023-07-15T18:00:00,1858A,110.5319,29.1217,张家界市,永定新区,颗粒物(PM10),52,53,25,17,11,95,95,66,66,6,10,4,5,0.2,0.2
2023-07-15T18:00:00,1859A,110.4697,29.1242,张家界市,电业局,颗粒物(PM10),52,53,22,19,10,80,80,56,56,14,14,5,5,0.2,0.3
2023-07-15T18:00:00,1860A,110.5594,29.3547,张家界市,未央路,颗粒物(PM10),64,78,33,24,10,107,88,70,70,8,10,3,3,0.3,0.4
2023-07-15T18:00:00,1861A,110.4417,29.315,张家界市,袁家界,颗粒物(PM10),61,71,27,28,12,263,54,57,57,9,6,6,6,0.5,0.5
2023-07-15T18:00:00,1862A,110.4144,25.3167,桂林市,电子科大尧山校区,,48,48,34,16,22,116,80,100,99,12,8,5,11,0.6,0.6
2023-07-15T18:00:00,1863A,110.2819,25.2697,桂林市,监测站,,38,38,38,20,20,119,68,94,94,8,12,6,8,0.6,0.6
2023-07-15T18:00:00,1864A,110.3089,25.2708,桂林市,龙隐路小学,,32,30,37,22,22,130,73,99,98,6,11,7,22,0.4,0.5
2023-07-15T18:00:00,1865A,110.2869,25.2178,桂林市,八中,,28,28,34,14,20,127,74,100,100,8,16,3,4,0.5,0.5
2023-07-15T18:00:00,1866A,109.2262,21.588,北海市,牛尾岭水库,,29,19,17,8,9,93,92,74,74,6,9,4,4,0.6,0.5
2023-07-15T18:00:00,1867A,109.1436,21.4086,北海市,海滩公园,,44,44,23,10,4,110,102,90,90,5,4,5,4,1.3,0.6
2023-07-15T18:00:00,1868A,109.0981,21.4661,北海市,新市环保局,,36,25,18,14,12,121,113,97,97,11,6,5,3,0.6,0.4
2023-07-15T18:00:00,1869A,109.1778,21.5233,北海市,北海工业园,,34,31,24,12,12,110,108,88,88,5,9,5,5,0.6,0.5
2023-07-15T18:00:00,1870A,109.4856,24.3895,柳州市,柳东小学,,35,25,27,24,20,106,100,98,98,5,9,9,11,0.3,0.3
2023-07-15T18:00:00,1871A,109.4157,24.3277,柳州市,环保监测站,,30,24,37,14,16,100,96,96,96,8,13,6,10,0.4,0.5
2023-07-15T18:00:00,1872A,109.389,24.341,柳州市,河西水厂,,34,34,42,16,21,102,94,93,93,6,16,8,10,0.6,0.8
2023-07-15T18:00:00,1873A,109.4311,24.2921,柳州市,市四中,,37,37,34,18,16,108,99,104,104,10,17,9,10,0.7,0.9
2023-07-15T18:00:00,1874A,109.4006,24.3631,柳州市,市九中,,47,47,53,17,24,96,70,85,85,36,23,43,21,1.6,0.9
2023-07-15T18:00:00,1875A,109.4958,24.3134,柳州市,古亭山,细颗粒物(PM2.5),98,42,32,73,36,104,102,100,100,7,22,6,11,0.3,0.5
2023-07-15T18:00:00,1876A,109.5078,18.2489,三亚市,河东子站,,22,16,18,8,9,84,69,76,76,14,11,2,2,0.5,0.4
2023-07-15T18:00:00,1877A,109.4964,18.2681,三亚市,河西子站,,24,19,14,7,7,82,76,78,78,5,6,1,1,0.3,0.4
2023-07-15T18:00:00,1878A,104.7778,31.4741,绵阳市,富乐山,臭氧1小时,55,45,36,23,19,183,164,150,150,8,14,4,3,0.7,0.7
2023-07-15T18:00:00,1879A,104.7563,31.4535,绵阳市,市人大,臭氧1小时,63,44,41,26,21,182,170,144,144,8,28,12,11,0.6,0.6
2023-07-15T18:00:00,1880A,104.6697,31.4668,绵阳市,高新区自来水公司,臭氧1小时,93,55,53,26,27,195,194,166,166,11,34,7,7,0.6,0.7
2023-07-15T18:00:00,1881A,104.7287,31.5075,绵阳市,三水厂,臭氧1小时,92,48,46,17,21,197,193,158,158,15,32,6,6,0.8,0.8
2023-07-15T18:00:00,1882A,104.563,28.793,宜宾市,石马中学,颗粒物(PM10),52,53,34,23,16,159,143,128,128,10,12,5,6,0.4,0.5
2023-07-15T18:00:00,1883A,104.6201,28.7728,宜宾市,市委,颗粒物(PM10),56,62,38,28,18,202,125,130,130,21,22,8,7,0.4,0.5
2023-07-15T18:00:00,1884A,104.6055,28.793,宜宾市,宜宾四中,颗粒物(PM10),55,60,39,24,16,193,131,129,129,14,18,11,10,0.5,0.5
2023-07-15T18:00:00,1885A,104.639,28.7562,宜宾市,市政府,颗粒物(PM10),64,78,49,26,20,210,164,140,140,19,23,7,7,0.5,0.6
2023-07-15T18:00:00,1886A,104.5742,28.7199,宜宾市,黄金嘴,颗粒物(PM10),55,59,35,29,16,171,138,128,128,14,14,5,5,0.6,0.5
2023-07-15T18:00:00,1888A,101.6891,26.571,攀枝花市,弄弄坪,,32,32,37,8,12,101,89,73,73,10,20,8,11,0.5,0.7
2023-07-15T18:00:00,1889A,101.5769,26.5928,攀枝花市,河门口,,31,18,23,7,9,102,98,83,83,8,13,6,10,0.4,0.6
2023-07-15T18:00:00,1890A,101.7169,26.585,攀枝花市,炳草岗,,31,24,39,8,17,102,97,78,78,8,21,13,16,0.5,0.7
2023-07-15T18:00:00,1891A,101.7369,26.5008,攀枝花市,仁和,,33,24,27,9,13,111,105,94,94,8,13,8,15,0.4,0.6
2023-07-15T18:00:00,1893A,105.4324,28.9634,泸州市,九狮山,,45,43,27,11,8,158,144,130,130,10,21,4,5,0.5,0.5
2023-07-15T18:00:00,1894A,105.4427,28.9063,泸州市,小市上码头,颗粒物(PM10),65,79,43,24,15,190,157,155,155,10,15,6,7,0.6,0.6
2023-07-15T18:00:00,1895A,105.4241,28.8573,泸州市,兰田宪桥,颗粒物(PM10),58,65,40,24,15,178,159,143,143,8,13,10,7,0.5,0.7
2023-07-15T18:00:00,1896A,105.4379,28.8833,泸州市,市环监站,颗粒物(PM10),56,61,36,14,12,182,141,141,141,8,16,4,5,0.5,0.5
2023-07-15T18:00:00,1901A,104.4239,31.1208,德阳市,东山公园,臭氧1小时,115,65,61,26,25,229,229,169,169,12,18,3,4,0.5,0.5
2023-07-15T18:00:00,1902A,104.3826,31.1317,德阳市,西小区,臭氧1小时,127,78,70,30,25,253,253,175,175,19,31,2,2,0.7,0.6
2023-07-15T18:00:00,1904A,104.3553,31.1091,德阳市,耐火材料厂,臭氧1小时,143,88,71,32,27,286,286,188,188,12,29,2,2,0.7,0.6
2023-07-15T18:00:00,1905A,106.056,30.8064,南充市,西山风景区,臭氧1小时,53,26,31,22,20,203,162,166,166,6,6,8,9,0.4,0.4
2023-07-15T18:00:00,1906A,106.0789,30.8023,南充市,南充市委,臭氧1小时,67,48,53,31,23,217,173,175,175,15,17,12,15,0.4,0.4
2023-07-15T18:00:00,1907A,106.1031,30.8217,南充市,南充炼油厂,臭氧1小时,89,66,58,24,21,224,191,170,170,11,12,12,15,0.3,0.2
2023-07-15T18:00:00,1908A,106.1064,30.7856,南充市,高坪区监测站,臭氧1小时,69,63,52,22,24,214,175,175,175,17,21,10,35,0.4,0.4
2023-07-15T18:00:00,1909A,106.0642,30.7636,南充市,嘉陵区环保局,臭氧1小时,65,56,52,27,25,210,172,176,176,18,18,7,14,0.5,0.4
2023-07-15T18:00:00,1910A,106.1087,30.8388,南充市,市环境监测站,臭氧1小时,97,62,49,34,27,213,197,161,161,21,19,8,11,0.4,0.3
2023-07-15T18:00:00,1911A,106.9222,27.6869,遵义市,丁字口,颗粒物(PM10),53,56,39,15,11,122,122,118,118,12,12,4,4,0.3,0.4
2023-07-15T18:00:00,1912A,106.9242,27.7019,遵义市,凤凰山,,44,44,39,29,21,133,133,124,124,7,8,6,7,0.2,0.2
2023-07-15T18:00:00,1913A,106.8906,27.6486,遵义市,忠庄,,49,49,36,18,12,134,134,129,129,9,10,3,2,0.3,0.3
2023-07-15T18:00:00,1914A,106.9231,27.6506,遵义市,舟水桥,,49,49,34,20,17,136,133,129,129,8,10,2,2,0.3,0.3
2023-07-15T18:00:00,1915A,106.9178,27.72,遵义市,干田坝,细颗粒物(PM2.5),57,47,37,40,19,134,133,126,126,6,7,6,5,0.3,0.3
2023-07-15T18:00:00,1916A,103.7897,25.5035,曲靖市,环境监测站,,41,41,41,5,9,120,110,114,114,12,12,4,5,0.4,0.5
2023-07-15T18:00:00,1917A,103.8,25.5364,曲靖市,烟厂办公区,,35,26,34,7,10,114,109,110,110,5,6,4,9,0.3,0.4
2023-07-15T18:00:00,1918A,108.7197,34.3956,咸阳市,气象站,,,,,,,,,,,,,,,,
2023-07-15T18:00:00,1919A,108.673,34.3155,咸阳市,实验中学,,43,18,61,8,22,159,137,139,139,7,25,3,4,0.4,0.5
2023-07-15T18:00:00,1920A,108.7233,34.3617,咸阳市,师范学院,,44,24,73,4,22,164,138,143,143,11,30,4,4,0.7,0.9
2023-07-15T18:00:00,1922A,109.0656,35.0994,铜川市,党校,,27,20,39,8,12,144,86,121,121,16,27,6,6,0.8,0.7
2023-07-15T18:00:00,1923A,109.0697,35.0697,铜川市,王益区政府,,40,16,31,11,14,174,125,140,140,15,20,5,4,0.6,0.5
2023-07-15T18:00:00,1924A,108.9344,34.9058,铜川市,新区管委会,,40,34,35,13,16,194,128,149,149,11,18,5,6,0.5,0.5
2023-07-15T18:00:00,1926A,109.4131,36.6275,延安市,枣园,,41,17,25,4,7,132,131,122,122,6,23,7,6,0.3,0.4
2023-07-15T18:00:00,1927A,109.4761,36.6028,延安市,延大医附院,,40,16,30,4,8,128,127,120,120,7,27,5,4,0.1,0.1
2023-07-15T18:00:00,1929A,109.5056,36.6106,延安市,百米大道,,40,18,30,4,8,127,126,118,118,7,29,4,5,0.2,0.4
2023-07-15T18:00:00,1930A,107.185,34.3063,宝鸡市,庙沟村,,35,5,28,6,11,127,110,113,113,1,9,8,8,0.1,0.1
2023-07-15T18:00:00,1931A,107.0708,34.3017,宝鸡市,竹园沟,,35,13,25,4,11,135,112,117,117,8,15,5,5,0.3,0.3
2023-07-15T18:00:00,1932A,107.1906,34.3672,宝鸡市,三陆医院,,36,9,42,10,16,139,113,124,124,16,24,5,11,0.3,0.4
2023-07-15T18:00:00,1933A,107.1431,34.3547,宝鸡市,监测站,,35,25,32,6,14,133,112,119,119,9,14,8,8,0.3,0.3
2023-07-15T18:00:00,1934A,107.1186,34.3739,宝鸡市,技工学校,,36,9,38,6,13,134,115,119,119,8,14,4,5,0.3,0.3
2023-07-15T18:00:00,1935A,107.3906,34.3528,宝鸡市,陈仓区环保局家属楼,,39,22,43,6,18,149,122,133,133,9,30,5,10,0.3,0.4
2023-07-15T18:00:00,1936A,107.2058,34.3497,宝鸡市,文理学院,,38,13,35,4,16,142,119,127,127,11,17,10,10,0.3,0.3
2023-07-15T18:00:00,1937A,107.2386,34.3622,宝鸡市,三迪小学,,,,,,,,,,,,,,,,
2023-07-15T18:00:00,1938A,109.5293,34.5101,渭南市,农科所,,44,27,72,14,25,138,138,128,128,9,19,5,5,0.6,0.7
2023-07-15T18:00:00,1939A,109.4974,34.4877,渭南市,日报社,颗粒物(PM10),52,53,103,15,29,145,143,139,139,16,36,5,6,0.3,0.4
2023-07-15T18:00:00,1940A,109.4636,34.493,渭南市,体育馆,,46,22,73,7,20,154,146,145,145,8,37,4,6,0.3,0.4
2023-07-15T18:00:00,1941A,109.4259,34.5023,渭南市,高新一小,,49,25,82,9,22,161,154,150,150,9,36,4,6,0.2,0.4
2023-07-15T18:00:00,1943A,102.1725,38.5339,金昌市,新川苑,,,,49,,15,135,134,128,128,9,28,9,42,,0.7
2023-07-15T18:00:00,1944A,102.1692,38.5167,金昌市,天庆家园,,45,19,40,6,24,143,143,138,138,12,31,11,54,0.4,0.7
2023-07-15T18:00:00,1945A,98.2908,39.7711,嘉峪关市,气象局,,48,27,31,12,10,151,151,141,141,4,12,9,9,0.3,0.3
2023-07-15T18:00:00,1947A,106.3394,38.817,石嘴山市,沙湖旅游区,臭氧1小时,85,35,43,9,15,193,188,158,158,12,24,16,15,0.7,0.7
2023-07-15T18:00:00,1948A,106.3668,39.0145,石嘴山市,大武口朝阳西街,,37,24,21,3,6,158,116,132,128,5,16,7,10,0.0,0.2
2023-07-15T18:00:00,1949A,106.7704,39.2282,石嘴山市,惠农南大街,,39,33,56,8,15,133,123,119,119,12,35,7,17,0.3,1
2023-07-15T18:00:00,1950A,106.7099,39.1325,石嘴山市,红果子镇惠新街,,41,31,35,5,14,161,130,132,132,14,25,11,22,0.3,0.6
2023-07-15T18:00:00,1951A,84.895,45.6094,克拉玛依市,长征新村,,35,30,30,8,6,148,109,114,114,16,18,9,9,0.2,0.3
2023-07-15T18:00:00,1952A,84.8988,45.5893,克拉玛依市,南林小区,,,20,37,23,17,130,99,104,104,,36,4,5,,0.4
2023-07-15T18:00:00,1954A,84.905,44.3396,克拉玛依市,独山子区,臭氧1小时,53,30,31,6,11,193,162,160,160,5,10,16,8,0.3,0.4
2023-07-15T18:00:00,1955A,85.6979,46.098,克拉玛依市,乌尔禾区商贸楼,,40,21,18,1,7,134,127,111,111,3,9,8,7,0.2,0.3
2023-07-15T18:00:00,1956A,86.1472,41.7538,巴音郭楞州,孔雀公园,,43,36,72,9,19,138,137,124,124,3,36,5,5,0.2,0.4
2023-07-15T18:00:00,1957A,86.1972,41.7166,巴音郭楞州,棉纺厂,,45,30,88,15,26,146,141,129,129,3,27,4,4,0.3,0.4
2023-07-15T18:00:00,1958A,86.2357,41.7173,巴音郭楞州,经济开发区,,44,39,79,14,19,151,138,129,129,3,20,4,4,0.2,0.3
2023-07-15T18:00:00,1961A,117.532,36.6868,济南市,东山小学,臭氧1小时,65,32,67,7,17,180,172,164,164,10,20,6,6,0.3,0.4
2023-07-15T18:00:00,1966A,120.0405,35.8735,青岛市,黄岛区4号,臭氧1小时,90,58,69,27,34,209,192,178,178,21,23,8,9,0.9,0.9
2023-07-15T18:00:00,1982A,122.0693,37.2174,威海市,文登开发区,,40,17,49,5,28,173,126,134,117,6,10,6,6,0.3,0.6
2023-07-15T18:00:00,2031A,113.1817,27.9958,株洲市,云田中学,,43,40,32,26,18,163,135,125,125,12,12,6,6,0.3,0.4
2023-07-15T18:00:00,2054A,114.1099,32.1059,信阳市,平桥分局,颗粒物(PM10),51,52,37,5,12,163,154,124,124,14,9,9,7,0.4,0.3
2023-07-15T18:00:00,2064A,113.9956,32.1271,信阳市,南湾水厂,,35,35,45,11,13,133,99,102,102,6,5,9,9,0.6,0.5
2023-07-15T18:00:00,2065A,114.0775,32.1195,信阳市,市酿酒公司,,47,43,34,22,20,153,150,117,117,19,12,10,8,0.6,0.6
2023-07-15T18:00:00,2066A,114.0609,32.1399,信阳市,审计局,颗粒物(PM10),51,52,41,20,20,161,147,124,124,15,8,10,8,0.5,0.4
2023-07-15T18:00:00,2067A,114.6613,33.6128,周口市,市环境监测站,颗粒物(PM10),56,62,94,17,29,176,164,162,162,8,22,5,6,0.4,0.5
2023-07-15T18:00:00,2068A,114.6758,33.6347,周口市,周口师范,臭氧1小时,58,43,98,9,24,167,166,158,158,8,19,7,7,0.3,0.3
2023-07-15T18:00:00,2069A,114.6546,33.5979,周口市,市运管处,臭氧1小时,73,54,91,12,24,178,178,167,167,6,20,8,9,0.4,0.4
2023-07-15T18:00:00,2070A,114.6369,33.6406,周口市,川汇区环保局,臭氧1小时,53,42,91,7,20,171,162,158,158,10,25,5,4,0.4,0.5
2023-07-15T18:00:00,2075A,117.6336,24.4674,漳州市,九湖,,,,,,,,,,,,,,,,
2023-07-15T18:00:00,2160A,112.85,35.5051,晋城市,自来水公司,臭氧1小时,58,21,28,0,3,166,166,146,146,8,12,8,7,0.7,0.7
2023-07-15T18:00:00,2161A,112.8318,35.4936,晋城市,白云商贸,,50,27,27,2,2,157,157,138,138,15,16,9,8,0.7,0.6
2023-07-15T18:00:00,2162A,112.8508,35.4887,晋城市,市环保局,,48,21,28,5,7,153,153,135,135,13,16,9,8,0.8,0.7
2023-07-15T18:00:00,2163A,112.8676,35.4897,晋城市,技术学院,,50,19,36,2,4,159,159,141,141,11,14,8,8,0.7,0.8
2023-07-15T18:00:00,2165A,112.8453,35.546,晋城市,白马寺,,,,,,,,,,,,,,,,
2023-07-15T18:00:00,2166A,112.4397,39.3522,朔州市,平朔,,38,19,25,8,11,120,120,108,108,4,14,3,6,0.5,0.4
2023-07-15T18:00:00,2167A,112.4575,39.3617,朔州市,朔唯,,40,8,24,6,11,125,125,115,115,6,14,4,8,0.4,0.4
2023-07-15T18:00:00,2168A,112.4258,39.3197,朔州市,区政府,,39,23,28,5,6,122,122,109,109,7,14,3,5,0.4,0.4
2023-07-15T18:00:00,2169A,112.4072,39.3278,朔州市,市环保局,,40,31,29,12,9,127,127,115,115,6,10,4,6,0.4,0.4
2023-07-15T18:00:00,2170A,112.4272,39.3681,朔州市,市二中,,39,19,35,4,11,124,124,111,111,6,18,5,8,0.4,0.3
2023-07-15T18:00:00,2171A,112.7532,37.6945,晋中市,锦纶小区,,45,41,33,12,9,142,141,132,132,12,24,9,10,0.2,0.3
2023-07-15T18:00:00,2173A,112.7249,37.7067,晋中市,南都小区,,45,22,34,16,14,144,142,133,133,9,24,8,9,0.2,0.3
2023-07-15T18:00:00,2174A,112.6991,37.6982,晋中市,榆次区政府,,44,22,35,13,13,144,139,130,130,14,26,8,8,0.3,0.4
2023-07-15T18:00:00,2175A,110.9956,35.0147,运城市,运城中学,,48,29,60,12,22,152,152,137,137,6,12,5,9,0.4,0.6
2023-07-15T18:00:00,2178A,110.9686,35.0303,运城市,地区技校,,50,34,60,5,16,163,158,147,147,5,9,4,7,0.8,0.9
2023-07-15T18:00:00,2179A,111.0414,35.1147,运城市,空港新区,,49,38,66,15,20,155,155,144,144,11,16,9,9,0.7,0.8
2023-07-15T18:00:00,2181A,112.7383,38.4519,忻州市,开发区,,43,23,21,12,11,137,137,125,125,4,7,8,8,0.2,0.2
2023-07-15T18:00:00,2182A,112.7003,38.4928,忻州市,会展中心,,36,35,26,25,13,114,114,104,104,12,13,6,6,0.4,0.3
2023-07-15T18:00:00,2183A,111.1406,37.5211,吕梁市,环保局,,47,26,38,5,13,149,149,124,124,4,22,1,2,0.3,0.5
2023-07-15T18:00:00,2185A,111.1297,37.5136,吕梁市,自来水公司,,45,24,49,5,16,144,144,120,120,8,24,4,6,0.3,0.5
2023-07-15T18:00:00,2187A,106.8174,39.6973,乌海市,市林业局,,45,23,33,10,13,142,142,123,123,7,15,14,10,0.6,0.6
2023-07-15T18:00:00,2188A,106.7907,39.6667,乌海市,中海勃湾学校,,43,17,21,7,11,136,136,122,122,5,9,11,8,0.4,0.4
2023-07-15T18:00:00,2191A,122.2532,43.6801,通辽市,艺术职业学校,,26,14,20,11,5,129,83,94,83,7,8,5,5,0.6,0.2
2023-07-15T18:00:00,2192A,119.7594,49.2261,呼伦贝尔市,区环保局,,50,50,31,35,22,87,76,81,81,24,17,4,4,0.3,0.2
2023-07-15T18:00:00,2195A,107.4212,40.761,巴彦淖尔市,附二中,,44,11,21,8,13,145,138,128,128,7,13,2,2,0.4,0.5
2023-07-15T18:00:00,2196A,107.37,40.7372,巴彦淖尔市,市环保大楼,,47,23,29,17,14,152,148,132,132,8,12,4,5,0.3,0.4
2023-07-15T18:00:00,2197A,113.1306,40.9923,乌兰察布市,集宁新区,,39,19,20,13,12,128,123,122,122,6,6,8,10,0.4,0.4
2023-07-15T18:00:00,2200A,122.0392,46.0656,兴安盟,胜华新制药厂,,25,20,19,6,12,123,80,96,89,1,2,3,2,0.2,0.1
2023-07-15T18:00:00,2201A,121.9504,46.0741,兴安盟,科右前旗环保局,,26,13,18,11,11,127,82,97,90,1,2,2,3,0.3,0.3
2023-07-15T18:00:00,2202A,116.1042,43.9317,锡林郭勒盟,市环保监测站,,29,11,12,3,6,112,92,105,93,3,4,11,10,0.2,0.2
2023-07-15T18:00:00,2203A,116.0781,43.9311,锡林郭勒盟,市政府,,31,28,11,8,27,120,97,112,100,5,4,9,9,0.2,0.2
2023-07-15T18:00:00,2204A,105.6467,38.8363,阿拉善盟,西城区西花园,,35,15,16,10,11,110,109,106,106,7,11,8,8,0.4,0.5
2023-07-15T18:00:00,2205A,105.6985,38.8411,阿拉善盟,蒙二幼,,37,18,12,6,4,116,116,114,114,4,6,8,8,0.4,0.4
2023-07-15T18:00:00,2206A,105.724,38.8516,阿拉善盟,环保局新楼,,38,10,10,6,8,120,120,116,116,4,5,10,10,0.4,0.5
2023-07-15T18:00:00,2207A,121.6094,41.998,阜新市,工业园区,,27,24,17,3,4,105,85,91,91,13,10,4,4,0.6,0.6
2023-07-15T18:00:00,2208A,121.6697,42.0279,阜新市,长青街,,27,9,18,11,10,104,84,88,88,7,8,5,5,0.2,0.3
2023-07-15T18:00:00,2209A,121.6673,42.0705,阜新市,农业园区,,27,8,9,6,5,119,84,89,88,4,4,6,6,0.5,0.5
2023-07-15T18:00:00,2210A,121.6717,42.0224,阜新市,东苑,,27,12,13,6,6,106,86,91,91,6,6,4,5,0.3,0.4
2023-07-15T18:00:00,2211A,121.6506,42.0498,阜新市,玉龙新城,,27,13,14,5,4,108,84,88,88,8,8,2,2,0.5,0.5
2023-07-15T18:00:00,2212A,123.2,41.1953,辽阳市,宏伟区,,44,44,38,6,11,154,62,144,58,18,11,6,5,0.9,0.6
2023-07-15T18:00:00,2213A,123.1683,41.2495,辽阳市,新华园,,24,12,43,6,14,146,76,140,68,5,9,2,4,0.3,0.6
2023-07-15T18:00:00,2214A,123.2354,41.2639,辽阳市,滨河路,,26,11,32,6,13,145,81,143,72,8,11,6,7,0.5,0.7
2023-07-15T18:00:00,2215A,123.149,41.2991,辽阳市,铁西工业园,,,,48,5,15,164,80,115,72,7,12,6,8,0.4,0.9
2023-07-15T18:00:00,2216A,123.8139,42.3022,铁岭市,汇工街西,,,,,,,,,,,,,,,,
2023-07-15T18:00:00,2217A,123.8649,42.2923,铁岭市,水上乐园,,22,5,21,0,9,138,70,103,59,8,12,2,3,0.4,0.6
2023-07-15T18:00:00,2218A,123.8486,42.2867,铁岭市,银州路东段,,23,5,24,1,11,133,71,120,66,10,12,5,5,0.4,0.6
2023-07-15T18:00:00,2219A,123.7153,42.2217,铁岭市,金沙江路北,,22,5,19,0,9,136,69,96,70,8,11,4,6,0.5,0.7
2023-07-15T18:00:00,2220A,120.4318,41.5881,朝阳市,西梁,颗粒物(PM10),57,63,15,5,4,108,64,100,88,18,9,7,7,0.8,0.6
2023-07-15T18:00:00,2221A,120.4521,41.5646,朝阳市,河畔小区,颗粒物(PM10),56,62,16,4,3,111,81,102,92,9,9,5,6,0.5,0.4
2023-07-15T18:00:00,2222A,120.4176,41.5648,朝阳市,八里堡,,48,48,20,13,4,115,83,108,98,16,9,4,4,0.7,0.5
2023-07-15T18:00:00,2223A,120.3806,41.5969,朝阳市,农业园区,,43,43,12,5,2,106,57,98,83,16,6,4,4,0.6,0.5
2023-07-15T18:00:00,2225A,124.4002,43.1713,四平市,一商场,,21,8,12,5,8,112,66,109,65,6,8,7,7,0.4,0.5
2023-07-15T18:00:00,2226A,124.388,43.193,四平市,境园,,20,6,13,2,6,117,63,92,62,3,5,8,8,0.2,0.5
2023-07-15T18:00:00,2227A,125.1358,42.8845,辽源市,环保局,,22,9,10,5,7,127,68,127,73,4,9,5,7,0.5,0.6
2023-07-15T18:00:00,2229A,125.9358,41.7173,通化市,光明,,28,28,28,10,13,129,63,121,96,14,7,9,8,0.7,0.5
2023-07-15T18:00:00,2230A,125.9446,41.7325,通化市,铁路,,29,24,23,20,12,120,34,109,82,26,9,6,4,0.6,0.4
2023-07-15T18:00:00,2231A,126.4219,41.9171,白山市,喜丰,,43,43,44,16,14,115,49,86,86,23,21,8,9,0.9,0.7
2023-07-15T18:00:00,2232A,126.4077,41.9419,白山市,环保局,,36,36,32,15,12,121,63,96,96,27,21,7,7,1.5,0.9
2023-07-15T18:00:00,2233A,124.8006,45.1214,松原市,江南,,16,8,5,4,4,69,49,61,50,10,7,5,4,0.6,0.4
2023-07-15T18:00:00,2234A,124.7965,45.1722,松原市,江北,,15,11,4,6,3,67,45,60,49,8,6,3,3,0.5,0.5
2023-07-15T18:00:00,2235A,122.7911,45.6077,白城市,洮北区环保局,,22,2,4,6,7,116,70,102,79,7,7,5,4,0.0,0
2023-07-15T18:00:00,2236A,122.8738,45.5725,白城市,市环保局,,22,12,12,1,4,111,70,101,75,5,6,3,2,0.2,0.2
2023-07-15T18:00:00,2237A,129.47,42.8883,延边朝鲜族自治州,妇幼医院,,16,16,8,6,4,55,42,49,48,14,11,8,8,0.5,0.5
2023-07-15T18:00:00,2238A,129.5055,42.9108,延边朝鲜族自治州,延边医院,,15,9,6,5,4,57,48,52,50,9,10,5,5,0.6,0.6
2023-07-15T18:00:00,2239A,129.3964,42.8881,延边朝鲜族自治州,朝阳川镇医院,,15,12,7,0,1,63,47,54,54,6,8,6,6,0.5,0.5
2023-07-15T18:00:00,2240A,130.9762,45.3001,鸡西市,环保局,,10,10,7,0,2,54,19,52,34,15,6,5,4,0.2,0.1
2023-07-15T18:00:00,2243A,130.9429,45.3039,鸡西市,第一中学,,9,6,7,6,4,60,25,58,39,11,5,5,5,0.3,0.2
2023-07-15T18:00:00,2244A,130.2537,47.3416,鹤岗市,哈啤分公司,,15,7,10,9,8,63,46,52,50,6,10,11,11,0.3,0.3
2023-07-15T18:00:00,2245A,130.2684,47.3086,鹤岗市,斯达机电,,14,8,8,8,6,61,42,48,45,6,9,9,9,0.3,0.3
2023-07-15T18:00:00,2246A,130.3114,47.3388,鹤岗市,东山纸板厂,,15,7,10,10,10,56,45,50,48,4,9,9,9,0.3,0.3
2023-07-15T18:00:00,2247A,130.1097,47.3382,鹤岗市,五号水库,,15,10,9,8,7,70,47,55,50,4,8,8,8,0.0,0.2
2023-07-15T18:00:00,2248A,131.1511,46.6937,双鸭山市,双合村,,13,6,8,3,4,55,41,50,50,8,9,9,9,0.1,0.1
2023-07-15T18:00:00,2249A,131.1652,46.6191,双鸭山市,南小市,,12,7,10,0,5,53,37,53,45,6,6,6,6,0.1,0.1
2023-07-15T18:00:00,2250A,131.1524,46.6554,双鸭山市,环保局,,11,7,8,7,6,45,35,45,39,9,8,8,8,0.2,0.1
2023-07-15T18:00:00,2251A,131.12,46.5656,双鸭山市,苗圃,,16,14,11,8,6,66,50,66,56,6,5,3,3,0.3,0.3
2023-07-15T18:00:00,2252A,128.5159,47.4311,伊春市,环保局,,14,14,15,0,3,80,32,48,43,12,6,5,6,0.3,0.3
2023-07-15T18:00:00,2253A,128.9102,47.7412,伊春市,电力嘉园,,15,8,9,5,7,83,47,56,53,7,6,7,6,0.5,0.5
2023-07-15T18:00:00,2254A,129.5029,48.471,伊春市,汤旺河国家公园,,17,16,22,6,10,58,53,53,53,1,2,11,13,0.4,0.5
2023-07-15T18:00:00,2255A,130.2751,46.8028,佳木斯市,佳纺,,12,12,14,4,8,84,37,81,48,14,13,2,2,0.4,0.4
2023-07-15T18:00:00,2256A,130.3995,46.8307,佳木斯市,发电厂,,35,35,18,23,17,86,34,77,42,19,14,17,14,0.0,0.3
2023-07-15T18:00:00,2257A,130.3258,46.7975,佳木斯市,环保局,,15,15,16,6,9,76,21,73,33,23,18,3,3,0.8,0.5
2023-07-15T18:00:00,2258A,130.3648,46.8032,佳木斯市,十一中,,13,13,16,7,10,81,37,76,46,15,16,3,3,0.4,0.4
2023-07-15T18:00:00,2259A,130.3794,46.7588,佳木斯市,四丰,,18,5,9,6,6,134,56,134,76,12,13,1,1,0.3,0.3
2023-07-15T18:00:00,2262A,131.0518,45.8751,七台河市,新一中,,15,15,10,3,3,59,46,58,50,5,6,7,7,0.8,0.8
2023-07-15T18:00:00,2263A,127.4833,50.2524,黑河市,交通局,,23,12,17,12,13,86,71,67,66,10,9,3,2,0.5,0.5
2023-07-15T18:00:00,2264A,127.5144,50.2341,黑河市,环保局,,24,20,28,9,13,85,74,66,66,5,7,2,3,0.3,0.4
2023-07-15T18:00:00,2265A,127.5291,50.2472,黑河市,大黑河岛,,27,7,13,3,15,99,86,75,75,2,1,3,2,0.3,0.4
2023-07-15T18:00:00,2266A,126.9785,46.6365,绥化市,人和东街,,11,1,4,3,3,87,35,76,38,16,12,5,5,0.4,0.3
2023-07-15T18:00:00,2267A,126.964,46.6528,绥化市,党政办公中心,,12,3,5,3,3,59,38,53,40,10,9,4,5,0.5,0.4
2023-07-15T18:00:00,2269A,124.1069,50.4097,大兴安岭地区,科技局,颗粒物(PM10),58,66,36,36,21,88,76,78,78,5,5,5,4,0.5,0.4
2023-07-15T18:00:00,2270A,117.396,32.939,蚌埠市,工人疗养院,颗粒物(PM10),72,93,52,24,14,126,115,106,106,17,10,10,9,0.3,0.3
2023-07-15T18:00:00,2271A,117.3605,32.9427,蚌埠市,百货大楼,颗粒物(PM10),72,94,52,27,15,125,117,104,104,17,11,7,7,0.4,0.4
2023-07-15T18:00:00,2273A,117.4185,32.8911,蚌埠市,蚌埠学院,颗粒物(PM10),69,88,53,32,20,138,112,110,110,11,14,9,12,0.3,0.3
2023-07-15T18:00:00,2274A,117.3533,32.9673,蚌埠市,淮上区政府,颗粒物(PM10),70,90,54,27,19,125,117,106,106,19,15,6,7,0.2,0.2
2023-07-15T18:00:00,2275A,117.3145,32.8977,蚌埠市,高新区,颗粒物(PM10),70,90,53,24,16,138,123,114,114,9,11,7,7,0.3,0.3
2023-07-15T18:00:00,2277A,116.8305,32.7727,淮南市,潘集区政府,颗粒物(PM10),73,95,51,34,20,122,120,107,107,18,10,9,6,0.5,0.3
2023-07-15T18:00:00,2278A,117.0067,32.6524,淮南市,师范学院,颗粒物(PM10),80,110,57,40,21,145,126,116,116,19,9,12,10,0.4,0.3
2023-07-15T18:00:00,2279A,116.8569,32.5951,淮南市,谢家集区政府,颗粒物(PM10),66,82,38,11,8,156,149,124,124,12,10,8,5,0.3,0.3
2023-07-15T18:00:00,2280A,116.8281,32.633,淮南市,八公山区政府,颗粒物(PM10),67,84,47,30,17,150,132,121,121,11,6,8,6,0.4,0.4
2023-07-15T18:00:00,2281A,116.6325,32.6201,淮南市,焦岗湖风景区管理处,颗粒物(PM10),58,66,37,30,9,122,110,97,97,11,6,5,5,0.3,0.2
2023-07-15T18:00:00,2282A,116.8004,33.975,淮北市,监测站,,40,30,77,12,25,150,126,139,139,10,16,3,5,0.3,0.4
2023-07-15T18:00:00,2283A,116.8091,33.9007,淮北市,烈山区政府,,45,26,73,8,24,181,143,148,148,7,18,5,8,0.3,0.5
2023-07-15T18:00:00,2285A,117.8177,30.9412,铜陵市,市第四中学,,50,46,43,35,31,133,133,95,95,13,21,18,23,0.5,1.1
2023-07-15T18:00:00,2286A,117.8059,30.9273,铜陵市,市公路局,颗粒物(PM10),57,63,45,26,25,137,137,108,108,19,25,8,10,0.6,1.3
2023-07-15T18:00:00,2287A,117.7807,30.9413,铜陵市,市新民污水厂,颗粒物(PM10),52,54,42,21,20,124,124,94,94,11,25,12,9,0.4,0.5
2023-07-15T18:00:00,2288A,117.7439,30.8792,铜陵市,市第九中学,颗粒物(PM10),57,64,48,17,20,107,69,80,80,64,38,9,9,0.7,0.7
2023-07-15T18:00:00,2289A,117.846,30.9413,铜陵市,车站新区,,49,49,42,11,13,175,155,130,130,13,21,7,6,0.5,1
2023-07-15T18:00:00,2290A,117.8483,30.97,铜陵市,市职教基地,,43,43,35,11,17,136,111,100,100,11,17,6,9,0.5,1
2023-07-15T18:00:00,2291A,117.0809,30.5177,安庆市,环科院,,37,30,24,13,19,130,117,110,110,26,19,4,4,0.6,0.5
2023-07-15T18:00:00,2292A,117.0331,30.5119,安庆市,马山宾馆,,44,30,24,13,18,139,139,109,109,17,25,7,5,0.8,0.7
2023-07-15T18:00:00,2294A,116.9896,30.6145,安庆市,安庆大学,,49,36,27,19,18,168,154,134,134,12,19,13,10,0.9,0.6
2023-07-15T18:00:00,2295A,118.2903,29.6963,黄山市,延安路89号,,30,30,33,6,8,117,82,102,102,3,6,5,6,0.3,0.3
2023-07-15T18:00:00,2296A,118.327,29.7178,黄山市,黄山东路89号,,25,18,31,2,13,118,78,100,100,4,8,6,6,0.6,0.4
2023-07-15T18:00:00,2297A,118.1371,30.2756,黄山市,黄山区政府5号楼,,18,15,22,7,7,89,56,68,68,5,6,6,6,0.1,0.2
2023-07-15T18:00:00,2298A,118.3093,32.3153,滁州市,老年大学,颗粒物(PM10),57,64,34,21,14,132,93,97,97,11,10,9,11,0.3,0.3
2023-07-15T18:00:00,2299A,118.3244,32.2786,滁州市,人大宾馆,颗粒物(PM10),56,62,32,20,16,124,115,109,109,12,13,8,7,0.4,0.3
2023-07-15T18:00:00,2301A,115.8277,32.8929,阜阳市,市监测站,,43,42,38,13,13,156,135,122,122,15,11,7,6,0.5,0.5
2023-07-15T18:00:00,2303A,115.8554,32.8605,阜阳市,开发区,颗粒物(PM10),58,65,43,6,6,155,136,118,118,19,15,8,7,0.5,0.4
2023-07-15T18:00:00,2307A,116.5079,31.737,六安市,监测大楼,颗粒物(PM10),58,66,33,10,8,124,116,106,106,7,4,4,2,0.3,0.3
2023-07-15T18:00:00,2308A,116.4738,31.7643,六安市,皖西学院,颗粒物(PM10),59,68,39,19,10,115,105,96,96,13,9,9,5,0.4,0.2
2023-07-15T18:00:00,2309A,116.4996,31.7905,六安市,朝阳厂,颗粒物(PM10),57,63,31,18,11,115,112,100,100,11,7,8,7,0.4,0.4
2023-07-15T18:00:00,2310A,116.5567,31.7886,六安市,开发区,颗粒物(PM10),65,79,42,22,14,112,105,94,94,9,8,8,6,0.4,0.4
2023-07-15T18:00:00,2311A,115.8072,33.8399,亳州市,污水处理厂,,36,32,77,4,19,130,115,120,120,9,12,5,5,0.5,0.5
2023-07-15T18:00:00,2312A,115.7789,33.8518,亳州市,三国揽胜宫,,49,33,81,8,23,154,154,139,139,4,11,5,6,0.5,0.5
2023-07-15T18:00:00,2314A,117.47,30.6618,池州市,池州学院,,40,30,28,19,17,134,126,110,110,6,5,7,7,0.7,0.7
2023-07-15T18:00:00,2316A,118.7581,30.9454,宣城市,鳌峰子站,,29,29,23,12,14,94,63,81,80,16,14,6,5,0.5,0.4
2023-07-15T18:00:00,2317A,118.7385,30.9743,宣城市,敬亭山子站,,28,28,26,13,14,98,49,77,75,20,14,6,6,0.4,0.4
2023-07-15T18:00:00,2318A,118.7173,30.9427,宣城市,开发区子站,,,,17,13,9,76,58,64,61,19,13,6,6,0.4,0.3
2023-07-15T18:00:00,2319A,119.0141,25.4325,莆田市,荔城区仓后路,,39,39,24,8,8,84,59,63,63,8,9,6,6,0.6,0.7
2023-07-15T18:00:00,2320A,119.0015,25.4553,莆田市,莆田市监测站,,34,34,19,8,6,89,70,66,66,2,3,7,7,0.5,0.7
2023-07-15T18:00:00,2321A,119.1119,25.4561,莆田市,涵江区六中,,38,38,24,7,7,84,51,64,64,5,8,7,8,0.6,0.6
2023-07-15T18:00:00,2322A,119.1013,25.3215,莆田市,秀屿区政府,,39,39,28,7,10,79,50,64,64,1,4,7,7,0.7,0.7
2023-07-15T18:00:00,2323A,118.981,25.4792,莆田市,东圳水库,,,,,,,,,,,,,,,,
2023-07-15T18:00:00,2324A,117.6211,26.2625,三明市,三钢,,33,31,35,23,22,121,94,112,110,5,14,6,8,0.6,0.6
2023-07-15T18:00:00,2325A,117.635,26.2714,三明市,三明二中,,36,35,32,25,20,118,86,109,108,16,17,4,5,0.6,0.7
2023-07-15T18:00:00,2326A,117.6028,26.2378,三明市,三元区政府,,30,27,32,18,21,119,96,112,110,9,17,7,9,0.8,0.8
2023-07-15T18:00:00,2327A,117.7275,26.3108,三明市,洋溪,,,,,,,,,,,,,,,,
2023-07-15T18:00:00,2331A,118.0966,26.6761,南平市,茫荡山,,,,,,,,,,,,,,,,
2023-07-15T18:00:00,2332A,118.1681,26.6369,南平市,南平市监测站,,28,23,25,19,16,100,88,94,94,3,9,6,6,0.5,0.6
2023-07-15T18:00:00,2333A,118.1825,26.6489,南平市,南平铝业有限公司,,27,22,25,18,16,94,86,89,89,5,13,11,8,0.6,0.6
2023-07-15T18:00:00,2334A,118.1756,26.6272,南平市,南平七中,,35,35,29,17,15,100,93,95,95,2,9,4,4,0.4,0.7
2023-07-15T18:00:00,2335A,117.0189,25.1181,龙岩市,龙岩师专,,,,,,,,,,,,,,,,
2023-07-15T18:00:00,2336A,117.0217,25.1033,龙岩市,龙岩市监测站,,37,37,40,19,24,164,94,141,127,12,19,8,10,0.5,0.5
2023-07-15T18:00:00,2337A,117.0258,25.0661,龙岩市,闽西职业技术学院,,36,36,44,16,26,158,94,124,121,9,21,5,8,0.5,0.5
2023-07-15T18:00:00,2338A,117.0196,25.0306,龙岩市,龙岩学院,,44,44,33,19,20,156,92,128,123,8,8,1,4,0.5,0.4
2023-07-15T18:00:00,2339A,119.5001,26.6946,宁德市,金涵水库,,,,,,,,,,,,,,,,
2023-07-15T18:00:00,2341A,119.5388,26.6612,宁德市,宁德市监测站,,21,21,18,2,6,84,30,52,50,1,5,8,9,0.4,0.4
2023-07-15T18:00:00,2342A,117.3102,29.3867,景德镇市,王港中学,,33,31,24,23,17,151,92,125,125,5,6,5,5,1.9,1.2
2023-07-15T18:00:00,2343A,117.2117,29.2933,景德镇市,老干部活动中心,,30,30,30,12,20,113,90,97,97,4,8,3,5,0.3,0.2
2023-07-15T18:00:00,2344A,117.1894,29.2789,景德镇市,兽医站,,46,28,26,32,21,114,94,100,100,3,6,5,5,0.5,0.4
2023-07-15T18:00:00,2345A,117.1547,29.2617,景德镇市,台达陶瓷,细颗粒物(PM2.5),54,39,29,38,22,104,87,93,93,27,14,155,39,0.5,0.4
2023-07-15T18:00:00,2346A,117.2461,29.2956,景德镇市,陶研所,颗粒物(PM10),53,56,40,13,14,116,90,102,102,2,4,8,7,0.3,0.3
2023-07-15T18:00:00,2347A,114.0997,27.5002,萍乡市,武功山,,30,12,12,3,10,98,94,86,86,4,6,23,20,0.7,0.5
2023-07-15T18:00:00,2348A,113.8385,27.6434,萍乡市,中医院,颗粒物(PM10),58,66,43,17,30,105,92,89,89,9,14,7,15,0.4,0.8
2023-07-15T18:00:00,2349A,113.8493,27.6253,萍乡市,市政府车库,,39,39,33,22,18,120,101,94,94,11,11,8,12,0.4,0.4
2023-07-15T18:00:00,2350A,113.8676,27.6435,萍乡市,市环保局,,35,35,32,21,23,102,91,90,90,10,12,5,14,0.4,0.6
2023-07-15T18:00:00,2351A,113.866,27.6198,萍乡市,安源区政府,,37,37,32,14,20,115,107,95,95,9,11,9,13,0.5,0.5
2023-07-15T18:00:00,2352A,115.0861,27.9317,新余市,北岗,,16,15,37,11,27,106,48,69,66,4,12,5,18,0.7,0.7
2023-07-15T18:00:00,2353A,114.9886,27.8431,新余市,飞宇,,,,54,,28,109,50,75,70,12,20,5,6,0.5,0.7
2023-07-15T18:00:00,2354A,114.9231,27.8246,新余市,第二水厂,,32,32,50,11,20,111,68,87,83,11,12,6,6,0.4,0.4
2023-07-15T18:00:00,2355A,114.9308,27.8036,新余市,市气象局,,29,29,42,17,27,105,61,85,82,11,11,5,6,0.7,0.7
2023-07-15T18:00:00,2357A,116.9822,28.1136,鹰潭市,龙虎山,,43,43,41,19,31,149,104,138,138,4,7,3,5,1.1,0.9
2023-07-15T18:00:00,2358A,117.0564,28.2642,鹰潭市,新监测站,颗粒物(PM10),65,79,63,30,36,177,128,153,153,2,10,2,4,0.7,0.5
2023-07-15T18:00:00,2359A,117.0311,28.2475,鹰潭市,财苑宾馆,颗粒物(PM10),63,75,65,27,36,158,126,145,145,2,10,5,8,0.4,0.4
2023-07-15T18:00:00,2360A,117.0222,28.2264,鹰潭市,体育馆,颗粒物(PM10),76,102,71,28,37,156,120,144,144,4,12,2,9,0.8,0.6
2023-07-15T18:00:00,2361A,117.0017,28.2131,鹰潭市,三川水表,颗粒物(PM10),69,87,64,28,36,157,117,144,144,6,12,2,6,0.6,0.6
2023-07-15T18:00:00,2362A,114.9017,25.9149,赣州市,通天岩,,,,,,,,,,,,,,,,
2023-07-15T18:00:00,2363A,114.9367,25.8664,赣州市,地委,,40,40,52,27,28,154,101,124,124,2,13,1,3,0.9,0.9
2023-07-15T18:00:00,2364A,114.9461,25.8481,赣州市,气象台,,32,30,40,22,24,154,102,134,133,6,12,5,7,0.8,0.8
2023-07-15T18:00:00,2365A,114.9322,25.8333,赣州市,市图书馆,,40,40,46,24,27,174,118,155,154,6,13,8,12,0.7,0.8
2023-07-15T18:00:00,2366A,114.8905,25.8471,赣州市,华坚鞋城,颗粒物(PM10),55,60,46,19,28,172,110,147,141,10,15,5,9,0.4,0.6
2023-07-15T18:00:00,2367A,114.9754,27.0803,吉安市,红声器材厂,,32,29,54,14,32,118,102,105,105,6,12,9,9,0.9,0.8
2023-07-15T18:00:00,2368A,114.9658,27.0999,吉安市,市森林工业局,,30,29,48,16,31,104,93,94,94,9,15,5,4,0.8,0.8
2023-07-15T18:00:00,2369A,114.99,27.1312,吉安市,市环境监测站,,33,23,44,14,26,114,103,103,103,8,12,8,9,0.9,0.8
2023-07-15T18:00:00,2370A,115.0093,27.0968,吉安市,青原区法院,,33,26,49,17,32,115,103,106,106,11,16,12,12,0.8,0.8
2023-07-15T18:00:00,2371A,114.3408,27.8064,宜春市,槟榔水业,,24,19,38,12,25,77,76,63,63,4,9,2,2,0.1,0.3
2023-07-15T18:00:00,2373A,114.3956,27.7844,宜春市,市石油公司,,32,28,37,14,24,101,101,94,94,8,11,6,5,0.6,0.7
2023-07-15T18:00:00,2374A,114.3703,27.7914,宜春市,市气象局,,33,33,39,15,25,101,98,84,84,10,14,3,2,0.7,0.7
2023-07-15T18:00:00,2375A,114.4013,27.8074,宜春市,市广电局,,31,22,41,14,26,112,98,88,88,6,10,8,9,0.5,0.6
2023-07-15T18:00:00,2376A,116.2127,28.0814,抚州市,桐源党溪,,32,23,28,12,16,150,101,136,133,3,3,3,2,0.5,0.5
2023-07-15T18:00:00,2377A,116.3544,27.9831,抚州市,市站,,44,44,42,20,27,136,103,120,119,6,8,3,3,1.1,1
2023-07-15T18:00:00,2378A,116.3565,27.963,抚州市,血防站,,39,39,45,20,26,135,100,117,116,5,9,5,5,0.9,0.9
2023-07-15T18:00:00,2379A,116.3564,28.0007,抚州市,采茶剧团,,40,40,41,19,27,129,93,111,110,11,10,6,6,0.9,0.9
2023-07-15T18:00:00,2380A,116.385,27.9647,抚州市,医学分院,,42,42,45,20,24,131,95,115,114,8,10,5,5,1.1,1
2023-07-15T18:00:00,2381A,118.005,28.4572,上饶市,百草园,细颗粒物(PM2.5),60,37,40,43,24,154,92,131,129,3,8,4,6,0.6,0.6
2023-07-15T18:00:00,2382A,117.9756,28.4436,上饶市,市监测站,,43,43,43,24,25,162,116,146,146,9,15,8,12,0.6,0.5
2023-07-15T18:00:00,2383A,117.9519,28.4628,上饶市,凤凰光学,,40,39,46,28,24,164,98,140,138,2,10,6,17,0.8,0.7
2023-07-15T18:00:00,2385A,114.17,35.9019,鹤壁市,市监测站,臭氧1小时,77,34,51,15,22,181,181,158,158,12,15,8,7,0.6,0.7
2023-07-15T18:00:00,2386A,114.2956,35.7511,鹤壁市,市交警支队,臭氧1小时,77,32,55,7,19,181,181,156,156,17,27,8,7,0.4,0.5
2023-07-15T18:00:00,2387A,114.2878,35.7306,鹤壁市,迎宾馆,臭氧1小时,88,22,53,14,20,190,190,160,160,18,23,10,11,0.5,0.6
2023-07-15T18:00:00,2389A,113.836,35.311,新乡市,环保西院,臭氧1小时,60,26,55,8,18,185,168,164,164,10,21,8,10,0.6,0.7
2023-07-15T18:00:00,2390A,113.884,35.272,新乡市,开发区,臭氧1小时,64,18,43,2,14,195,171,175,175,9,19,4,8,0.6,0.7
2023-07-15T18:00:00,2391A,113.883,35.303,新乡市,环保东院,臭氧1小时,55,38,62,7,12,190,164,167,167,6,20,7,10,0.3,0.4
2023-07-15T18:00:00,2392A,115.0312,35.7636,濮阳市,环保局,臭氧1小时,63,30,39,13,16,170,170,148,148,10,15,4,7,0.3,0.5
2023-07-15T18:00:00,2394A,115.0574,35.7609,濮阳市,油田运输公司,臭氧1小时,65,31,49,10,15,172,172,146,146,5,17,5,7,0.4,0.6
2023-07-15T18:00:00,2395A,115.0866,35.7754,濮阳市,油田物探公司,臭氧1小时,63,34,54,14,20,170,170,147,147,4,14,3,4,0.6,0.7
2023-07-15T18:00:00,2396A,113.8276,34.0159,许昌市,监测站,,49,30,75,16,22,175,154,148,148,9,17,6,8,0.4,0.5
2023-07-15T18:00:00,2398A,113.7906,33.9953,许昌市,开发区,,46,35,73,13,19,160,146,145,145,10,16,4,7,0.5,0.5
2023-07-15T18:00:00,2399A,114.051,33.5699,漯河市,三五一五工厂,臭氧1小时,88,42,85,17,22,190,190,164,164,7,14,13,12,0.5,0.5
2023-07-15T18:00:00,2400A,114.0055,33.5698,漯河市,漯河大学,臭氧1小时,83,33,68,10,22,186,186,164,164,7,18,14,11,0.4,0.4
2023-07-15T18:00:00,2401A,114.0138,33.5828,漯河市,市水利局,臭氧1小时,78,39,80,9,18,188,182,163,163,8,15,11,10,0.5,0.4
2023-07-15T18:00:00,2402A,114.0261,33.5698,漯河市,市广电局,臭氧1小时,87,46,78,16,23,189,189,165,165,10,18,14,12,0.5,0.5
2023-07-15T18:00:00,2404A,112.5224,33.0122,南阳市,瓦房庄,,49,25,68,4,18,154,154,129,129,16,17,6,5,0.4,0.4
2023-07-15T18:00:00,2405A,112.5003,32.9735,南阳市,汉画馆,,50,25,61,9,21,158,158,135,135,7,9,10,9,0.4,0.4
2023-07-15T18:00:00,2406A,112.5573,33.027,南阳市,气象站,,48,20,67,10,25,153,153,130,130,15,22,5,4,0.3,0.4
2023-07-15T18:00:00,2407A,112.5481,32.9689,南阳市,理工学院,,49,21,60,4,20,156,156,130,130,7,12,5,5,0.3,0.3
2023-07-15T18:00:00,2408A,115.6702,34.4285,商丘市,环境监测站,臭氧1小时,77,38,71,16,21,183,181,152,152,7,15,12,11,1.0,1.1
2023-07-15T18:00:00,2409A,115.6458,34.4045,商丘市,粮食局,臭氧1小时,89,38,69,14,19,191,191,156,156,10,17,6,5,0.4,0.4
2023-07-15T18:00:00,2410A,115.6293,34.3948,商丘市,睢阳区环保局,臭氧1小时,87,39,68,14,20,190,189,160,160,10,20,6,5,0.6,0.6
2023-07-15T18:00:00,2420A,114.0189,32.9656,驻马店市,市一纸厂,臭氧1小时,83,40,45,14,13,186,186,160,160,6,7,8,6,0.6,0.4
2023-07-15T18:00:00,2421A,114.0114,33.015,驻马店市,市彩印厂,臭氧1小时,79,40,55,14,15,183,183,157,157,4,6,10,8,0.4,0.3
2023-07-15T18:00:00,2422A,113.9976,32.9771,驻马店市,天方二分厂,,,33,49,17,18,179,179,155,155,5,10,8,6,,0.6
2023-07-15T18:00:00,2423A,115.0601,30.2313,黄石市,沈家营,颗粒物(PM10),65,79,48,20,13,148,143,126,126,10,8,8,7,0.2,0.4
2023-07-15T18:00:00,2424A,115.0817,30.2006,黄石市,陈家湾,颗粒物(PM10),61,71,50,21,15,155,147,134,134,7,4,6,6,0.6,0.6
2023-07-15T18:00:00,2426A,114.8988,30.2019,黄石市,铁山,颗粒物(PM10),62,73,37,24,13,167,167,129,129,12,14,18,15,0.6,0.8
2023-07-15T18:00:00,2427A,115.0307,30.2092,黄石市,团城山,颗粒物(PM10),60,69,51,18,11,144,144,123,123,8,6,9,8,0.4,0.5
2023-07-15T18:00:00,2428A,111.0419,32.395,十堰市,武当山,,30,10,58,8,20,115,95,115,106,6,6,7,7,0.7,0.6
2023-07-15T18:00:00,2429A,110.78,32.6494,十堰市,滨河新村,,34,20,57,12,20,112,107,102,102,4,4,5,5,0.6,0.7
2023-07-15T18:00:00,2430A,110.7258,32.6389,十堰市,刘家沟,,35,22,58,10,19,114,112,104,104,4,5,5,5,0.5,0.6
2023-07-15T18:00:00,2431A,110.8839,32.5714,十堰市,铁二处,,,23,73,3,18,129,,119,119,1,5,5,5,0.3,0.4
2023-07-15T18:00:00,2432A,112.155,32.0197,襄阳市,襄城运动路,,45,40,76,14,21,141,141,128,128,16,20,7,7,0.6,0.7
2023-07-15T18:00:00,2433A,112.1392,32.0564,襄阳市,樊城新华路,,44,35,85,19,25,147,139,131,131,11,16,10,10,0.5,0.6
2023-07-15T18:00:00,2434A,112.1825,32.1142,襄阳市,高新管委会,,47,36,92,23,26,150,150,132,132,14,18,10,13,0.6,0.6
2023-07-15T18:00:00,2435A,112.2106,32.0903,襄阳市,襄州航空路,,48,41,80,12,21,152,152,133,133,11,13,8,9,0.6,0.5
2023-07-15T18:00:00,2436A,114.8938,30.3994,鄂州市,市政府,臭氧1小时,73,72,35,25,11,183,178,144,144,16,13,3,7,0.5,0.8
2023-07-15T18:00:00,2437A,114.8989,30.3714,鄂州市,赵家坝,臭氧1小时,89,81,31,23,7,191,191,152,152,15,4,7,5,0.8,0.5
2023-07-15T18:00:00,2439A,112.2014,31.0481,荆门市,竹园小学,,46,46,45,16,15,129,128,109,109,8,17,9,9,0.5,0.6
2023-07-15T18:00:00,2440A,112.1969,30.9891,荆门市,掇刀,,42,42,45,15,13,130,130,101,101,9,17,9,9,0.5,0.5
2023-07-15T18:00:00,2441A,112.2213,31.0386,荆门市,石化一小,,41,41,44,12,11,127,127,113,113,8,19,12,8,0.4,0.5
2023-07-15T18:00:00,2443A,113.9153,30.9285,孝感市,文化路,颗粒物(PM10),51,51,32,26,16,127,109,110,110,8,13,6,7,0.6,0.7
2023-07-15T18:00:00,2444A,113.942,30.9075,孝感市,东城区,颗粒物(PM10),65,79,34,21,14,122,104,104,104,8,10,48,16,0.5,0.6
2023-07-15T18:00:00,2446A,114.9028,30.4742,黄冈市,职工中心,臭氧1小时,75,70,38,28,15,188,180,149,149,22,12,9,7,0.6,0.4
2023-07-15T18:00:00,2447A,114.3175,29.8142,咸宁市,森林公园,颗粒物(PM10),63,75,31,16,12,147,139,122,122,4,4,6,5,0.8,0.8
2023-07-15T18:00:00,2448A,114.3107,29.8454,咸宁市,市发改委,,49,49,19,22,12,146,142,127,127,4,5,5,5,0.5,0.6
2023-07-15T18:00:00,2449A,114.2936,29.8566,咸宁市,咸安区政府,颗粒物(PM10),57,63,35,23,20,144,136,123,123,8,8,3,4,0.5,0.6
2023-07-15T18:00:00,2451A,113.3583,31.7275,随州市,市委党校,颗粒物(PM10),53,56,54,23,22,135,130,109,109,3,5,8,10,0.6,0.5
2023-07-15T18:00:00,2452A,113.3833,31.6908,随州市,市林业局,颗粒物(PM10),52,53,48,24,20,141,141,114,114,6,8,5,6,0.6,0.5
2023-07-15T18:00:00,2453A,113.3983,31.7308,随州市,市立交桥水厂,,,,,,,,,,,,,,,,
