timepoint,stationcode,longitude,latitude,area,positionname,primarypollutant,aqi,pm10,pm10_24h,pm2_5,pm2_5_24h,o3,o3_24h,o3_8h,o3_8h_24h,no2,no2_24h,so2,so2_24h,co,co_24h
2024-07-18T1800,2566A,102.1879,31.914,阿坝藏族羌族自治州,州农科所,,24,24,17,3,6,46,,52,52,8,7,5,5,0,0.1
2024-07-18T1800,2568A,102.2502,31.8896,阿坝藏族羌族自治州,马师校,,17,16,20,10,12,53,,48,48,9,11,4,5,0.3,0.4
2024-07-18T1800,3994A,102.2165,31.9024,阿坝藏族羌族自治州,马尔康中学西区,,17,15,18,3,11,54,,53,53,6,6,5,5,0.4,0.4
2024-07-18T1800,2695A,80.292,41.1694,阿克苏地区,电视台,,,16,71,8,20,100,,109,107,,19,1,4,0.3,0.4
2024-07-18T1800,2696A,80.2613,41.1551,阿克苏地区,艺术中心,,32,14,62,10,19,102,,102,102,14,23,4,4,0.4,0.6
2024-07-18T1800,2204A,105.6467,38.8363,阿拉善盟,西城区西花园,臭氧1小时,90,14,26,3,9,192,,190,190,13,10,10,10,0.4,0.4
2024-07-18T1800,2205A,105.6985,38.8411,阿拉善盟,蒙二幼,臭氧1小时,82,40,24,11,7,185,,175,175,10,7,24,13,0.6,0.5
2024-07-18T1800,2206A,105.724,38.8516,阿拉善盟,环保局新楼,臭氧1小时,88,23,16,3,4,190,,181,181,9,6,12,13,0.5,0.5
2024-07-18T1800,2708A,88.1264,47.8517,阿勒泰地区,市站,,38,20,18,3,5,120,,105,105,12,12,7,7,0.4,0.4
2024-07-18T1800,2630A,80.1161,32.5,阿里地区,阿里监测站,,44,14,11,3,6,139,,134,134,4,11,6,7,0.3,0.3
2024-07-18T1800,3192A,80.0903,32.5028,阿里地区,阿里藏医院,,45,19,16,3,6,143,,137,137,3,5,7,8,0.3,0.3
2024-07-18T1800,2642A,109.0318,32.6537,安康市,香溪洞,,20,,18,13,9,63,,59,59,4,4,5,5,0.6,0.6
2024-07-18T1800,2643A,109.0281,32.6939,安康市,安康市监测站,,19,16,24,11,10,60,,60,60,5,8,6,6,0.4,0.5
2024-07-18T1800,2644A,109.0072,32.6975,安康市,汉滨区检察院,,20,14,28,10,10,62,,53,53,5,9,6,6,0.4,0.5
2024-07-18T1800,2291A,117.0809,30.5177,安庆市,环科院,,24,10,18,7,9,75,,82,82,14,17,7,6,0.4,0.4
2024-07-18T1800,2292A,117.0331,30.5119,安庆市,马山宾馆,,24,19,20,7,10,75,,76,76,13,26,9,9,0.4,0.4
2024-07-18T1800,2294A,116.9896,30.6145,安庆市,安庆大学,,26,26,25,9,10,73,,85,85,13,11,7,7,0.3,0.3
2024-07-18T1800,3173A,117.0598,30.5351,安庆市,市人大,,25,15,18,8,10,78,,84,84,7,14,8,8,0.3,0.3
2024-07-18T1800,3123A,105.9408,26.2431,安顺市,凤凰山,,21,8,9,3,6,65,,63,63,8,8,4,5,0.2,0.2
2024-07-18T1800,3124A,105.9439,26.2564,安顺市,金钟山,,22,7,8,3,7,68,,64,64,2,3,4,4,0.4,0.4
2024-07-18T1800,1819A,114.3551,36.1017,安阳市,红庙街,臭氧1小时,72,45,44,14,22,177,,162,162,2,8,6,5,0.7,0.8
2024-07-18T1800,1820A,114.361,36.0681,安阳市,银杏小区,,,36,36,,19,167,,156,156,1,6,3,2,0.7,1
2024-07-18T1800,3141A,114.3922,36.0878,安阳市,信访局,臭氧1小时,59,34,39,12,17,167,,163,163,1,3,4,5,0.8,1.2
2024-07-18T1800,3669A,114.4705,36.0637,安阳市,左辅环卫站,,47,14,40,7,25,150,,142,142,1,18,6,6,0.9,1.2
2024-07-18T1800,3703A,114.2917,36.0949,安阳市,安钢职工学校,臭氧1小时,62,46,34,9,17,169,,149,149,3,9,2,2,0.5,0.8
2024-07-18T1800,1748A,123.044,41.1196,鞍山市,深沟寺,臭氧1小时,102,30,33,14,21,204,,186,186,13,11,8,6,0.8,0.9
2024-07-18T1800,1749A,123.011,41.0931,鞍山市,太阳城,,,30,37,,23,198,,182,182,13,13,,7,0.9,1.1
2024-07-18T1800,1750A,123.0485,41.1442,鞍山市,太平,臭氧1小时,98,31,45,16,25,198,,177,177,16,19,6,5,1.2,1.3
2024-07-18T1800,1751A,122.9642,41.0971,鞍山市,铁西三道街,臭氧1小时,105,31,53,18,35,209,,185,185,13,17,7,6,1.1,1.3
2024-07-18T1800,1752A,122.9341,41.0833,鞍山市,铁西工业园区,臭氧1小时,107,28,50,14,30,214,,185,185,13,21,9,5,1.0,1.4
2024-07-18T1800,1753A,123.022,41.0821,鞍山市,明达新区,臭氧1小时,83,26,36,12,19,186,,168,168,12,13,8,7,0.9,1
2024-07-18T1800,2196A,107.37,40.7372,巴彦淖尔市,市环保大楼,,46,41,60,15,16,146,,165,165,4,20,4,6,0.2,0.4
2024-07-18T1800,1956A,86.1472,41.7538,巴音郭楞蒙古自治州,孔雀公园,,41,37,59,11,16,130,,133,133,10,14,5,4,0.4,0.4
2024-07-18T1800,1957A,86.1972,41.7166,巴音郭楞蒙古自治州,棉纺厂,,40,33,62,7,17,126,,126,126,6,14,4,5,0.2,0.2
2024-07-18T1800,1958A,86.2357,41.7173,巴音郭楞蒙古自治州,经济开发区,,44,41,67,11,19,138,,137,137,3,5,4,4,0.2,0.2
2024-07-18T1800,2914A,106.7677,31.8794,巴中市,苏山坪,,18,10,14,8,9,55,,44,44,5,6,4,4,0.3,0.3
2024-07-18T1800,3182A,106.7656,31.8545,巴中市,丽阳花园,,16,11,18,7,12,50,,33,33,8,14,3,2,0.4,0.5
2024-07-18T1800,3183A,106.7418,31.8654,巴中市,圣泉水务公司,,17,10,14,7,9,52,,34,34,8,13,3,3,0.5,0.5
2024-07-18T1800,3616A,106.7616,31.8344,巴中市,市中心医院,,17,10,16,8,10,52,,35,35,6,15,4,4,0.4,0.5
2024-07-18T1800,2235A,122.7911,45.6077,白城市,洮北区环保局,,31,16,28,10,16,97,,104,104,7,8,1,3,0.1,0.3
2024-07-18T1800,2236A,122.8738,45.5725,白城市,市环保局,,30,27,34,11,19,93,,94,94,7,9,5,6,0.3,0.4
2024-07-18T1800,2231A,126.4219,41.9171,白山市,喜丰,,35,25,21,6,6,110,,121,121,8,11,8,10,0.8,0.8
2024-07-18T1800,2232A,126.4077,41.9419,白山市,环保局,颗粒物(PM10),55,60,21,15,7,110,,125,123,8,10,8,9,0.8,0.8
2024-07-18T1800,2647A,104.1724,36.5446,白银市,第三小学,,40,28,51,11,24,126,,126,126,8,21,8,62,0.2,0.7
2024-07-18T1800,2648A,104.1465,36.5482,白银市,动力公司,,,20,32,3,17,129,,124,124,,14,7,17,0.1,0.5
2024-07-18T1800,2512A,106.6103,23.9011,百色市,市监测站,,29,25,34,14,18,90,,84,84,9,14,7,12,0.6,0.7
2024-07-18T1800,2513A,106.6538,23.8859,百色市,市中心血站,,33,23,36,16,20,103,,84,84,11,14,9,11,0.6,0.6
2024-07-18T1800,3406A,106.6085,23.8798,百色市,祈福高中,,27,14,38,11,20,85,,79,79,10,15,8,13,0.6,0.7
2024-07-18T1800,2270A,117.396,32.939,蚌埠市,工人疗养院,,34,34,23,17,6,63,,58,58,2,3,6,6,0.4,0.4
2024-07-18T1800,2271A,117.3605,32.9427,蚌埠市,百货大楼,,35,35,23,11,4,75,,71,71,2,4,5,5,0.4,0.3
2024-07-18T1800,2273A,117.4185,32.8911,蚌埠市,蚌埠学院,,25,24,15,15,8,79,,77,77,3,3,6,6,0.4,0.4
2024-07-18T1800,2274A,117.3533,32.9673,蚌埠市,淮上区政府,,27,27,19,14,9,76,,84,75,8,6,6,7,0.4,0.3
2024-07-18T1800,2275A,117.3145,32.8977,蚌埠市,高新区,,29,29,19,15,8,62,,70,70,5,5,5,6,0.4,0.4
2024-07-18T1800,3715A,117.3092,32.9314,蚌埠市,蚌埠田家炳中学,,30,30,22,12,9,65,,65,65,3,4,5,5,0.3,0.3
2024-07-18T1800,1585A,109.8756,40.6532,包头市,市环境监测站,,49,22,32,6,9,154,,154,154,15,27,12,13,0.4,0.5
2024-07-18T1800,1587A,109.9991,40.5842,包头市,包头八中,臭氧1小时,59,15,31,6,10,167,,154,154,10,26,7,12,0.4,0.5
2024-07-18T1800,1588A,109.8538,40.6821,包头市,青山宾馆,,48,13,25,7,12,152,,152,152,15,24,14,11,0.8,0.6
2024-07-18T1800,1589A,109.8642,40.6288,包头市,惠龙物流,,49,14,28,8,10,154,,152,152,13,23,18,20,0.6,0.6
2024-07-18T1800,1590A,110.0377,40.5546,包头市,东河鸿龙湾,臭氧1小时,65,13,28,6,9,172,,157,157,6,19,7,9,0.4,0.5
2024-07-18T1800,3283A,109.9154,40.5685,包头市,滨河大厦,臭氧1小时,57,8,26,3,9,165,,154,154,7,26,8,12,0.5,0.6
2024-07-18T1800,3419A,109.9447,40.6261,包头市,包头市委党校,臭氧1小时,55,11,27,3,9,164,,155,155,12,26,5,10,0.4,0.6
2024-07-18T1800,3683A,109.8331,40.6576,包头市,昆区政府,,46,20,28,7,11,147,,150,150,18,20,12,13,0.9,0.8
2024-07-18T1800,1930A,107.185,34.3063,宝鸡市,庙沟村,,,,29,,13,,,26,,,9,,2,,0.3
2024-07-18T1800,1931A,107.0708,34.3017,宝鸡市,竹园沟,,,53,53,,,98,,,,,,,,0.8,0.8
2024-07-18T1800,1932A,107.1906,34.3672,宝鸡市,三陆医院,,33,19,27,3,9,104,,82,82,11,16,7,7,0.5,0.6
2024-07-18T1800,1934A,107.1186,34.3739,宝鸡市,技工学校,,35,28,28,9,11,111,,81,81,10,15,7,7,0.6,0.6
2024-07-18T1800,1935A,107.3906,34.3528,宝鸡市,陈仓区环保局家属楼,,31,8,22,7,11,98,,87,87,9,16,7,6,0.4,0.5
2024-07-18T1800,1937A,107.2386,34.3622,宝鸡市,三迪小学,,31,22,25,11,12,97,,81,81,10,17,8,8,0.5,0.6
2024-07-18T1800,1051A,115.493,38.8632,保定市,游泳馆,臭氧1小时,55,26,41,3,13,164,,152,152,9,15,5,5,0.1,0.2
2024-07-18T1800,1052A,115.5213,38.8959,保定市,华电二区,臭氧1小时,68,21,37,3,11,174,,155,155,8,12,3,3,0.1,0.3
2024-07-18T1800,1053A,115.4713,38.9108,保定市,接待中心,臭氧1小时,59,29,38,3,11,167,,148,148,5,9,1,2,0,0.1
2024-07-18T1800,1054A,115.4612,38.8416,保定市,地表水厂,,50,36,50,3,13,158,,145,145,4,13,3,2,0.1,0.3
2024-07-18T1800,3581A,115.31981,38.95208,保定市,满城区生态环境分局,,49,17,42,3,11,156,,140,140,6,11,3,3,0,0.2
2024-07-18T1800,3582A,115.47694,38.76408,保定市,清苑区第二中学,,49,26,47,11,17,154,,146,146,1,10,2,2,0.2,0.3
2024-07-18T1800,3583A,115.62909,39.02311,保定市,徐水物探局,,48,19,39,3,9,153,,139,139,8,17,3,2,0.2,0.2
2024-07-18T1800,4004A,115.4202,38.8656,保定市,双鹰农机,臭氧1小时,67,26,40,10,15,173,,149,149,9,17,6,6,0.2,0.1
2024-07-18T1800,4034A,115.5150,38.8590,保定市,植保所站,臭氧1小时,68,31,36,11,16,174,,162,162,2,10,4,4,0.1,0.2
2024-07-18T1800,2594A,99.1678,25.1081,保山市,市环境监测站,颗粒物(PM10),65,80,32,8,12,70,,48,48,6,10,6,6,0.4,0.5
2024-07-18T1800,2595A,99.1711,25.1328,保山市,市环保局,,24,22,31,6,8,74,,53,53,5,7,6,6,0.4,0.4
2024-07-18T1800,1867A,109.1436,21.4086,北海市,海滩公园,,17,15,13,3,2,52,,54,54,3,3,4,3,0.5,0.5
2024-07-18T1800,1868A,109.0981,21.4661,北海市,新市环保局,,17,16,11,3,3,53,,55,55,4,5,2,2,0.5,0.5
2024-07-18T1800,1869A,109.1778,21.5233,北海市,北海工业园,,17,15,16,7,7,52,,52,52,4,9,4,5,0.4,0.5
2024-07-18T1800,3400A,109.1911,21.4415,北海市,龙潭自来水厂,,16,15,11,8,5,51,,53,53,3,3,5,5,0.5,0.5
2024-07-18T1800,1001A,116.3621,39.8784,北京市,万寿西宫,,45,17,25,10,11,142,,118,118,11,18,3,3,0.3,0.5
2024-07-18T1800,1002A,116.2202,40.2915,北京市,定陵,,28,9,15,3,7,87,,93,93,5,7,3,3,0.2,0.3
2024-07-18T1800,1003A,116.4174,39.9289,北京市,东四,,44,18,27,6,10,140,,124,124,10,23,4,4,0.2,0.3
2024-07-18T1800,1004A,116.4072,39.8863,北京市,天坛,,42,11,21,6,10,134,,117,117,15,22,3,3,0.3,0.4
2024-07-18T1800,1005A,116.462,39.9365,北京市,农展馆,,39,15,26,6,9,123,,113,113,15,24,3,3,0.2,0.3
2024-07-18T1800,1006A,116.3392,39.9295,北京市,官园,,43,21,26,7,9,136,,119,119,15,20,1,1,0.1,0.3
2024-07-18T1800,1007A,116.2878,39.9611,北京市,海淀万柳,,43,19,25,8,8,135,,118,118,9,24,3,2,0.1,0.2
2024-07-18T1800,1008A,116.6636,40.135,北京市,顺义新城,,38,13,23,7,10,120,,109,109,11,20,3,2,0.2,0.3
2024-07-18T1800,1009A,116.6275,40.3275,北京市,怀柔镇,,37,10,17,7,8,116,,107,107,7,7,1,1,0.2,0.3
2024-07-18T1800,1010A,116.2296,40.217,北京市,昌平镇,,34,22,31,14,14,107,,93,93,10,11,2,2,0.2,0.3
2024-07-18T1800,1011A,116.3966,39.9821,北京市,奥体中心,,33,13,24,6,8,103,,96,96,14,26,3,3,0.1,0.3
2024-07-18T1800,1012A,116.184,39.9136,北京市,古城,,40,22,29,8,9,128,,106,106,11,20,1,1,0.1,0.2
2024-07-18T1800,3281A,115.9718,40.4529,北京市,延庆夏都,,31,11,18,3,8,98,,96,96,5,12,3,2,0.2,0.3
2024-07-18T1800,3417A,117.0709,40.1465,北京市,平谷新城,,30,11,19,6,9,93,,105,102,11,12,3,2,0.2,0.3
2024-07-18T1800,3418A,116.8336,40.4095,北京市,密云新城,,36,11,19,6,7,114,,107,107,18,12,3,3,0.2,0.3
2024-07-18T1800,3672A,116.1541,39.8204,北京市,丰台云岗,,44,19,23,14,9,140,,116,116,13,17,3,3,0.2,0.3
2024-07-18T1800,3673A,116.6804,39.9081,北京市,通州东关,,35,18,30,7,10,112,,117,117,14,28,1,2,0.2,0.3
2024-07-18T1800,3674A,115.9577,39.7603,北京市,房山燕山,,37,23,19,3,6,116,,90,90,18,9,3,2,0.2,0.3
2024-07-18T1800,3675A,116.4672,39.7733,北京市,大兴旧宫,,42,20,24,8,10,133,,111,111,9,17,3,3,0.2,0.4
2024-07-18T1800,3694A,115.986,40.4563,北京市,延庆石河营,,28,12,17,6,9,88,,90,90,5,14,3,3,0.2,0.3
2024-07-18T1800,3695A,116.6151,40.3053,北京市,怀柔新城,,30,10,17,3,8,96,,94,94,8,6,3,3,0.3,0.3
2024-07-18T1800,3696A,116.2545,39.8768,北京市,丰台小屯,,42,19,27,10,10,132,,114,114,5,19,1,2,0,0.1
2024-07-18T1800,3697A,116.84,40.3844,北京市,密云镇,,37,,17,7,7,116,,110,110,8,16,1,2,0.0,0.2
2024-07-18T1800,1761A,123.8275,41.3064,本溪市,大峪,臭氧1小时,105,45,32,23,16,210,,145,145,15,13,10,8,1.3,0.6
2024-07-18T1800,1762A,123.7567,41.3325,本溪市,溪湖,臭氧1小时,104,43,35,22,18,208,,150,150,16,18,9,7,1.4,1
2024-07-18T1800,1763A,123.7169,41.3094,本溪市,彩屯,臭氧1小时,69,39,31,26,21,175,,134,134,21,22,6,7,1.2,0.9
2024-07-18T1800,1764A,123.7669,41.2864,本溪市,东明,臭氧1小时,102,76,42,22,18,204,,145,145,21,25,6,6,1.3,0.8
2024-07-18T1800,1765A,123.7992,41.2664,本溪市,新立屯,颗粒物(PM10),55,59,30,18,13,163,,138,138,11,15,6,4,1.6,0.9
2024-07-18T1800,1766A,123.8142,41.3472,本溪市,威宁,臭氧1小时,102,63,37,23,22,203,,146,146,22,22,7,8,1.5,1
2024-07-18T1800,2587A,105.2864,27.3125,毕节市,八中,,31,22,21,11,12,99,,86,86,7,9,5,6,0.3,0.3
2024-07-18T1800,2588A,105.31,27.2944,毕节市,师专,,29,24,18,15,11,91,,80,80,8,9,5,5,0.4,0.4
2024-07-18T1800,3537A,105.3631,27.3533,毕节市,长征村,,33,15,15,10,11,104,,91,91,6,8,7,7,0.3,0.4
2024-07-18T1800,1629A,118.0018,37.3617,滨州市,第二水厂,臭氧1小时,72,36,51,19,23,177,,180,180,4,13,3,3,0.6,0.7
2024-07-18T1800,1630A,117.9776,37.393,滨州市,北中新校,臭氧1小时,64,29,53,17,27,171,,185,185,3,11,2,3,0.3,0.5
2024-07-18T1800,3514A,117.9378,37.3956,滨州市,中海酒店,臭氧1小时,69,29,61,19,31,175,,190,190,8,17,4,6,0.4,0.7
2024-07-18T1800,3515A,117.9378,37.3553,滨州市,开发区一中,臭氧1小时,58,34,61,17,34,166,,176,176,7,17,5,6,0.7,0.7
2024-07-18T1800,3516A,118.0917,37.694,滨州市,金海六路,臭氧1小时,77,27,44,9,20,181,,180,180,10,21,4,4,0.3,0.4
2024-07-18T1800,4028A,117.9956,37.3753,滨州市,滨州市西街道办事处,臭氧1小时,92,29,52,19,32,193,,199,199,4,9,1,2,0.5,0.7
2024-07-18T1800,2311A,115.8072,33.8399,亳州市,污水处理厂,,23,,4,16,7,69,,65,65,3,3,3,3,0.6,0.6
2024-07-18T1800,2312A,115.7789,33.8518,亳州市,三国揽胜宫,,25,16,6,9,6,79,,71,71,2,3,1,1,0.3,0.3
2024-07-18T1800,3332A,115.7633,33.8034,亳州市,亳州学院,,26,,6,11,6,82,,75,75,2,3,1,2,0.4,0.4
2024-07-18T1800,2693A,82.0485,44.8556,博尔塔拉蒙古自治州,市党校,,40,18,19,3,8,126,,113,113,6,11,10,10,0.3,0.3
2024-07-18T1800,2694A,82.0806,44.8969,博尔塔拉蒙古自治州,市环保局,,,17,29,8,11,123,,108,108,,18,10,8,0.3,0.5
2024-07-18T1800,1071A,116.8842,38.2991,沧州市,沧县城建局,臭氧1小时,88,42,40,25,19,190,,196,196,7,13,2,4,0,0.3
2024-07-18T1800,1072A,116.8584,38.3254,沧州市,电视转播站,臭氧1小时,80,40,40,7,21,184,,191,191,8,14,3,6,0.1,0.5
2024-07-18T1800,1073A,116.8709,38.3228,沧州市,市环保局,臭氧1小时,84,51,49,24,21,187,,190,190,7,14,1,6,0.2,0.5
2024-07-18T1800,3324A,116.8136,38.3004,沧州市,河北水利电力学院,臭氧1小时,95,22,38,14,27,196,,203,203,9,19,6,8,0.2,0.6
2024-07-18T1800,2622A,97.1806,31.1273,昌都市,昌都监测站,,21,19,15,8,8,67,,73,73,9,13,9,8,0.3,0.3
2024-07-18T1800,3719A,97.1714,31.1406,昌都市,昌都会议中心,,24,10,13,3,7,74,,77,77,3,8,6,7,0.2,0.3
2024-07-18T1800,2690A,88.1236,43.8886,昌吉回族自治州,天山天池,,45,15,16,3,8,141,,127,127,7,6,11,9,0.6,0.5
2024-07-18T1800,2692A,87.2717,44.0297,昌吉回族自治州,新区政务中心,,40,14,30,7,12,126,,119,119,6,20,11,10,0.4,0.5
2024-07-18T1800,3613A,87.3095,44.0142,昌吉回族自治州,亚心广场,,41,19,38,3,10,131,,125,125,12,28,9,9,0.3,0.3
2024-07-18T1800,1119A,125.3325,43.9166,长春市,食品厂,,39,27,29,20,16,123,,137,137,22,22,4,4,0.6,0.4
2024-07-18T1800,1120A,125.2863,43.9027,长春市,客车厂,,40,31,28,22,16,127,,143,143,19,16,3,4,0.5,0.4
2024-07-18T1800,1121A,125.2841,43.8463,长春市,邮电学院,,36,30,25,14,12,113,,132,132,22,15,6,6,0.4,0.4
2024-07-18T1800,1122A,125.3716,43.8772,长春市,劳动公园,,39,26,25,13,10,122,,141,141,17,14,3,3,0.6,0.6
2024-07-18T1800,1123A,125.3297,43.8805,长春市,园林处,,38,25,25,20,16,119,,136,136,18,14,3,4,0.5,0.5
2024-07-18T1800,1124A,125.4605,43.79,长春市,净月潭,,33,15,20,8,7,104,,118,118,5,7,4,4,0.3,0.3
2024-07-18T1800,1126A,125.3863,43.8447,长春市,经开区环卫处,,37,24,25,12,9,116,,130,130,13,18,2,3,0.5,0.5
2024-07-18T1800,1127A,125.245,43.7783,长春市,高新区管委会,,38,21,21,11,12,120,,135,135,10,14,4,4,0.6,0.5
2024-07-18T1800,1128A,125.1761,43.8325,长春市,岱山公园,,35,31,23,15,12,111,,132,132,19,16,3,4,0.4,0.3
2024-07-18T1800,1335A,113.0833,28.2325,长沙市,经开区环保局,,29,25,25,10,8,91,,102,102,8,9,6,7,0.3,0.3
2024-07-18T1800,1336A,112.8872,28.2189,长沙市,高开区环保局,,25,18,22,9,8,80,,90,89,3,7,5,7,0.3,0.4
2024-07-18T1800,1337A,113.0792,28.2053,长沙市,马坡岭,,30,23,24,9,9,96,,106,106,5,8,3,4,0.4,0.4
2024-07-18T1800,1338A,112.9394,28.19,长沙市,湖南师范大学,,29,29,27,10,12,90,,95,95,6,10,3,7,0.4,0.5
2024-07-18T1800,1339A,113.0178,28.1322,长沙市,雨花区环保局,,30,19,24,7,11,96,,106,106,2,6,5,6,0.4,0.4
2024-07-18T1800,1340A,112.9792,28.2597,长沙市,伍家岭,,29,20,24,10,10,90,,99,98,2,6,2,5,0.4,0.6
2024-07-18T1800,1341A,113.0014,28.1944,长沙市,火车新站,,30,21,26,7,9,93,,104,104,4,8,4,5,0.4,0.4
2024-07-18T1800,1342A,112.9844,28.1178,长沙市,天心区环保局,,28,24,29,3,3,87,,98,98,4,9,4,5,0.8,0.8
2024-07-18T1800,1343A,112.8908,28.1308,长沙市,湖南中医药大学,,29,22,30,18,14,92,,94,94,11,12,4,6,0.3,0.4
2024-07-18T1800,1344A,112.9581,28.3611,长沙市,沙坪,,30,16,16,13,12,93,,92,92,4,8,7,9,0.2,0.4
2024-07-18T1800,1727A,113.1147,36.1547,长治市,清华站,臭氧1小时,64,18,26,7,14,171,,178,178,7,13,4,5,0.3,0.5
2024-07-18T1800,1728A,113.1031,36.1989,长治市,监测站,臭氧1小时,69,30,25,3,11,175,,183,182,11,15,5,5,0.5,0.7
2024-07-18T1800,1730A,113.0886,36.2125,长治市,审计局,臭氧1小时,52,19,21,9,11,161,,172,172,16,22,4,4,0.5,0.8
2024-07-18T1800,1731A,113.0844,36.1856,长治市,长治八中,臭氧1小时,62,22,25,12,14,169,,174,174,9,14,4,4,0.3,0.7
2024-07-18T1800,3568A,113.06,36.0464,长治市,向阳小学,臭氧1小时,84,36,41,17,22,187,,172,172,10,14,7,7,0.8,1
2024-07-18T1800,3569A,112.8792,36.3144,长治市,屯留一中,臭氧1小时,80,26,31,14,15,184,,186,186,8,11,9,9,0.6,0.3
2024-07-18T1800,3570A,113.235,36.3489,长治市,潞城四中,臭氧1小时,106,17,32,7,19,211,,173,173,11,19,4,4,0.5,1.3
2024-07-18T1800,1854A,111.6975,28.9703,常德市,市二中,,26,11,18,11,9,81,,80,80,2,4,6,7,0.3,0.3
2024-07-18T1800,3138A,111.7153,29.0289,常德市,武陵区永安,,25,14,18,9,9,77,,80,80,3,6,7,9,0.2,0.2
2024-07-18T1800,3139A,111.6892,28.9881,常德市,鼎城区玉霞,,24,24,22,13,11,73,,78,78,3,4,6,6,0.4,0.5
2024-07-18T1800,3140A,111.6625,29.0531,常德市,武陵区长庚,,24,15,17,11,10,74,,74,74,1,3,8,10,0.3,0.4
2024-07-18T1800,1196A,119.9633,31.762,常州市,市监测站,,32,17,17,12,10,100,,104,104,4,8,6,8,0.3,0.4
2024-07-18T1800,1200A,119.9468,31.7069,常州市,武进监测站,,30,22,25,9,12,93,,103,102,2,7,6,8,0.5,0.6
2024-07-18T1800,1201A,119.9255,31.9087,常州市,安家,,29,29,26,14,12,52,,91,88,27,23,7,6,0.4,0.5
2024-07-18T1800,3002A,119.9805,31.8174,常州市,行政中心,,30,17,21,17,13,93,,96,96,9,11,10,10,0.3,0.4
2024-07-18T1800,3003A,120.0522,31.7748,常州市,经开区,,,15,26,10,14,89,,92,92,5,13,4,3,,0.3
2024-07-18T1800,3010A,119.9025,31.7964,常州市,钟楼,,27,20,21,6,10,84,,91,91,9,11,4,3,0.7,0.8
2024-07-18T1800,3429A,119.8598,31.7066,常州市,武进经发区,,28,28,27,9,11,86,,95,95,9,8,7,10,0.3,0.3
2024-07-18T1800,3430A,119.5826,31.7245,常州市,金坛城区,,29,16,21,6,9,92,,98,98,6,10,6,8,0.3,0.6
2024-07-18T1800,2220A,120.4318,41.5881,朝阳市,西梁,细颗粒物(PM2.5),85,,37,63,24,132,,147,145,8,16,4,11,0.5,0.6
2024-07-18T1800,2221A,120.4521,41.5646,朝阳市,河畔小区,,39,33,31,12,11,123,,148,146,4,11,8,8,0.5,0.7
2024-07-18T1800,2222A,120.4176,41.5648,朝阳市,八里堡,,40,32,35,11,13,128,,149,149,8,16,4,5,0.8,0.9
2024-07-18T1800,2223A,120.3806,41.5969,朝阳市,农业园区,,42,27,36,11,15,134,,145,145,9,17,9,8,0.4,0.6
2024-07-18T1800,1705A,116.6367,23.6719,潮州市,西园路,,,,18,,5,,,51,51,,8,,3,,0.4
2024-07-18T1800,3026A,116.6183,23.6608,潮州市,市政府,,25,25,18,6,5,41,,49,49,4,5,3,7,0.5,0.5
2024-07-18T1800,4036A,116.6461,23.6761,潮州市,金山,,19,19,17,6,6,44,,50,50,3,5,6,7,0.5,0.5
2024-07-18T1800,2472A,113.0073,25.9061,郴州市,马头岭,,21,19,17,3,6,65,,64,64,4,5,6,8,0.4,0.4
2024-07-18T1800,2473A,113.0116,25.8226,郴州市,市职中,,22,8,11,7,7,70,,67,67,5,5,6,8,0.4,0.3
2024-07-18T1800,2474A,113.0161,25.8001,郴州市,兴隆步行街,,,,14,5,9,65,,65,65,5,4,8,9,0.4,0.4
2024-07-18T1800,2475A,113.0383,25.8071,郴州市,市审计局,,23,,10,16,8,61,,64,64,7,6,7,7,0.3,0.3
2024-07-18T1800,2476A,113.0348,25.7759,郴州市,市环保局,,19,13,13,10,9,60,,67,67,11,8,10,11,0.3,0.3
2024-07-18T1800,1431A,103.9728,30.7236,成都市,金泉两河,,35,,13,20,7,109,,88,88,4,6,1,1,0.3,0.2
2024-07-18T1800,1432A,104.176,30.6872,成都市,十里店,,25,16,14,3,9,77,,72,72,4,11,2,2,0.3,0.4
2024-07-18T1800,1433A,104.079,30.5706,成都市,三瓦窑,,29,19,17,16,13,90,,82,82,4,13,3,2,0.2,0.3
2024-07-18T1800,1434A,104.1114,30.63,成都市,沙河铺,,38,38,18,24,8,83,,75,75,9,13,3,4,0.4,0.4
2024-07-18T1800,1437A,104.0786,30.6531,成都市,君平街,,,15,16,13,9,,,76,,4,9,2,2,0.3,0.5
2024-07-18T1800,2880A,104.0239,30.65639,成都市,大石西路,,32,18,16,14,7,102,,86,86,6,10,3,4,0.5,0.5
2024-07-18T1800,3136A,104.2725,30.5589,成都市,龙泉驿区区政府,,22,6,7,3,6,69,,67,67,2,11,3,3,0.4,0.4
2024-07-18T1800,3357A,104.0106,30.6931,成都市,金博路,,30,30,13,18,8,96,,78,78,6,10,2,2,0.2,0.3
2024-07-18T1800,3359A,104.0578,30.5225,成都市,华阳,,25,,13,17,15,79,,60,60,2,5,3,3,0.5,0.5
2024-07-18T1800,3487A,104.2394,30.5319,成都市,车城东七路,,23,14,22,11,15,73,,70,70,3,14,2,2,0.4,0.5
2024-07-18T1800,3488A,104.3853,30.7453,成都市,青白江技师分院,,19,,9,3,6,58,,53,53,4,7,4,4,0.6,0.5
2024-07-18T1800,3489A,104.0789,30.4072,成都市,科学城,,29,16,14,14,12,91,,82,82,2,6,1,2,0.5,0.5
2024-07-18T1800,4011A,103.8506,30.6947,成都市,光华大道三段,,41,30,19,3,7,130,,88,88,5,7,3,3,0.3,0.4
2024-07-18T1800,1062A,117.9531,40.9081,承德市,铁路,,35,11,21,3,9,109,,110,110,10,25,8,10,0.2,0.3
2024-07-18T1800,1063A,117.9392,40.9763,承德市,中国银行,,32,20,21,3,7,101,,104,104,12,20,6,6,0.2,0.2
2024-07-18T1800,1064A,117.9503,40.928,承德市,开发区,,35,19,24,14,10,111,,116,115,6,14,7,9,0.1,0.2
2024-07-18T1800,1065A,117.8051,40.9655,承德市,文化中心,,35,6,28,3,10,110,,111,109,6,19,6,12,0.2,0.3
2024-07-18T1800,1066A,117.9268,41.0026,承德市,离宫,,32,16,16,8,10,100,,105,104,2,9,5,5,0.2,0.3
2024-07-18T1800,2314A,117.47,30.6618,池州市,池州学院,,20,12,11,7,7,62,,74,73,6,7,6,6,0.3,0.3
2024-07-18T1800,3237A,117.4918,30.6617,池州市,展览馆,,20,17,18,7,6,61,,71,70,4,6,4,4,0.4,0.3
2024-07-18T1800,3333A,117.5627,30.695,池州市,第八中学,,20,17,16,7,7,64,,72,72,5,6,3,4,0.2,0.2
2024-07-18T1800,3334A,117.5038,30.6243,池州市,第十二中学,,22,22,16,9,7,59,,69,69,11,9,6,6,0.4,0.4
2024-07-18T1800,1744A,118.9233,42.2816,赤峰市,松山一中,,31,6,12,3,4,97,,106,106,14,18,9,10,0.5,0.5
2024-07-18T1800,1745A,118.9576,42.2728,赤峰市,哈达街,,31,,13,3,6,98,,107,107,9,11,8,10,0.2,0.4
2024-07-18T1800,1746A,118.8788,42.2554,赤峰市,天义路,,32,10,14,3,5,102,,110,110,15,16,5,7,0.1,0.2
2024-07-18T1800,3058A,119.2658,42.0353,赤峰市,银河街,,,,29,42,16,114,,120,120,15,16,13,16,0.4,0.4
2024-07-18T1800,3286A,118.9359,42.3147,赤峰市,桥北物流园区,,32,,16,9,10,101,,106,106,16,19,6,7,0.3,0.4
2024-07-18T1800,2521A,107.3476,22.4136,崇左市,市环保局江州分局,,15,8,14,3,5,46,,57,56,4,3,5,5,0.5,0.7
2024-07-18T1800,2522A,107.3702,22.3707,崇左市,城南新区,,,6,12,3,5,51,,58,58,3,3,,4,0.7,0.8
2024-07-18T1800,2298A,118.3093,32.3153,滁州市,老年大学,,31,31,22,16,13,99,,91,91,5,5,6,6,0.5,0.4
2024-07-18T1800,2299A,118.3244,32.2786,滁州市,人大宾馆,,32,26,26,17,12,100,,95,95,8,8,5,5,0.5,0.5
2024-07-18T1800,3207A,118.3118,32.3038,滁州市,市政府原办公楼,,30,21,19,21,14,94,,87,87,9,6,7,7,0.7,0.5
2024-07-18T1800,3331A,118.3267,32.2634,滁州市,图书馆,,34,34,28,16,14,106,,98,98,6,5,12,10,0.6,0.6
2024-07-18T1800,2605A,101.5482,25.0441,楚雄彝族自治州,州环境监测站,,22,22,18,10,14,70,,60,60,6,14,2,7,0.4,0.5
2024-07-18T1800,2606A,101.538,25.0492,楚雄彝族自治州,市经济开发区,,29,24,21,20,13,67,,56,56,8,14,5,8,0.6,0.6
2024-07-18T1800,2548A,107.5277,31.2827,达州市,达州职业技术学院,,22,22,24,10,8,18,,24,24,12,14,3,3,0.3,0.2
2024-07-18T1800,2549A,107.5086,31.2186,达州市,市环境监测站,,19,19,24,7,7,31,,46,46,21,21,7,7,0.4,0.3
2024-07-18T1800,2550A,107.4988,31.2132,达州市,凤凰小区,,14,9,15,7,10,44,,55,55,11,17,7,8,0.4,0.4
2024-07-18T1800,2551A,107.5082,31.1986,达州市,达县机关宾馆,,19,19,20,3,7,36,,49,49,18,22,5,5,0.3,0.2
2024-07-18T1800,2552A,107.4644,31.2124,达州市,市政中心,,24,24,27,9,9,35,,46,46,18,18,8,8,0.5,0.5
2024-07-18T1800,2614A,100.1542,25.7054,大理白族自治州,大理市环境监测站,,47,47,21,8,10,46,,44,44,9,6,3,3,0.5,0.5
2024-07-18T1800,2615A,100.2171,25.5811,大理白族自治州,大理古城,,28,22,15,19,10,73,,62,62,6,9,6,6,0.6,0.6
2024-07-18T1800,1109A,121.612,38.9741,大连市,甘井子,臭氧1小时,104,25,30,13,28,207,,170,170,14,18,9,8,0.5,0.7
2024-07-18T1800,1110A,121.565,38.9511,大连市,周水子,臭氧1小时,78,21,25,11,23,182,,147,147,15,20,8,8,0.5,0.7
2024-07-18T1800,1111A,121.5637,38.8845,大连市,星海三站,臭氧1小时,105,26,27,19,25,210,,164,164,14,9,11,7,0.6,0.7
2024-07-18T1800,1112A,121.6302,38.9117,大连市,青泥洼桥,臭氧1小时,102,28,30,18,26,204,,164,164,12,13,10,8,0.7,0.9
2024-07-18T1800,1113A,121.6251,38.8638,大连市,傅家庄,臭氧1小时,118,,23,47,26,235,,171,171,12,8,8,6,0.6,0.6
2024-07-18T1800,1114A,121.5213,38.8661,大连市,七贤岭,臭氧1小时,70,24,28,16,25,176,,146,146,17,13,6,6,0.7,0.8
2024-07-18T1800,1115A,121.2529,38.8061,大连市,旅顺,臭氧1小时,89,,20,16,23,191,,168,168,20,15,9,8,0.5,0.6
2024-07-18T1800,1116A,121.7485,39.1311,大连市,金州,臭氧1小时,55,35,31,24,28,164,,176,176,23,12,14,10,0.7,0.8
2024-07-18T1800,1117A,121.7811,39.0496,大连市,开发区,臭氧1小时,78,37,32,27,30,182,,154,154,14,16,6,6,0.7,0.8
2024-07-18T1800,1118A,121.9762,39.0631,大连市,双D港,臭氧1小时,59,46,34,40,26,167,,142,142,16,12,8,6,0.8,0.8
2024-07-18T1800,1789A,124.81117,46.03138,大庆市,大同区,,43,36,36,30,29,100,,103,103,12,9,8,8,0.5,0.6
2024-07-18T1800,1790A,125.129,46.533,大庆市,龙凤区,颗粒物(PM10),54,57,41,30,20,97,,103,103,16,15,5,5,0.6,0.6
2024-07-18T1800,1791A,124.902,46.408,大庆市,红岗区,,43,,23,30,22,108,,115,115,7,11,7,7,0.6,0.7
2024-07-18T1800,1792A,125.153,46.586,大庆市,萨尔图区,颗粒物(PM10),54,58,36,32,24,89,,99,99,15,12,6,6,0.6,0.5
2024-07-18T1800,1793A,124.9042,46.6215,大庆市,让胡路区,,47,47,39,27,23,93,,109,109,13,11,6,6,0.4,0.5
2024-07-18T1800,3481A,125.141,46.634,大庆市,萨区政府监测点,,48,48,35,14,20,97,,111,109,12,11,7,7,0.3,0.4
2024-07-18T1800,1723A,113.2994,40.0758,大同市,云冈宾馆,臭氧1小时,78,38,34,12,11,182,,154,154,16,19,12,10,0.4,0.6
2024-07-18T1800,1724A,113.3444,40.0917,大同市,大同大学,臭氧1小时,72,30,31,11,12,177,,146,146,12,22,14,15,0.4,0.5
2024-07-18T1800,1725A,113.2661,40.1269,大同市,安家小村,臭氧1小时,73,54,44,15,11,178,,145,145,14,22,16,12,0.2,0.7
2024-07-18T1800,1726A,113.2711,40.0844,大同市,教育学院,臭氧1小时,64,56,40,15,12,171,,146,146,24,22,14,12,0.5,0.6
2024-07-18T1800,3282A,113.3397,40.0597,大同市,大同市卫生学校,臭氧1小时,70,29,32,19,12,176,,151,151,14,21,14,14,0.4,0.7
2024-07-18T1800,3565A,113.1367,40.1122,大同市,云冈站,臭氧1小时,70,50,40,19,15,176,,146,146,15,20,15,13,0.4,0.4
2024-07-18T1800,3566A,113.1186,40.2556,大同市,图书馆,,44,13,24,3,11,138,,137,137,8,13,6,10,0.3,0.5
2024-07-18T1800,3567A,113.5931,40.0461,大同市,区一中,臭氧1小时,57,28,30,3,13,165,,138,138,13,19,10,9,0.3,0.4
2024-07-18T1800,3676A,113.2802,40.0995,大同市,第二人民医院,臭氧1小时,80,40,35,17,12,184,,151,151,14,18,14,12,0.4,0.6
2024-07-18T1800,2269A,124.1069,50.4097,大兴安岭地区,科技局,,,,13,,8,60,,80,62,4,4,9,8,0.9,0.3
2024-07-18T1800,3663A,124.1164,50.4278,大兴安岭地区,红旗社区,,20,,4,14,5,54,,76,56,7,4,6,6,1.1,0.5
2024-07-18T1800,1600A,124.3303,40.0625,丹东市,江湾东路,,46,,18,32,12,104,,112,112,12,8,4,13,0.6,0.5
2024-07-18T1800,1601A,124.4256,40.1503,丹东市,临江后街,,33,30,11,22,8,104,,106,106,6,4,8,7,0.6,0.6
2024-07-18T1800,1602A,124.3933,40.1461,丹东市,元宝山,,30,30,13,17,8,87,,92,92,18,10,4,4,0.5,0.4
2024-07-18T1800,1603A,124.3633,40.1092,丹东市,民主桥,,29,21,16,17,10,90,,95,95,8,7,3,3,0.7,0.5
2024-07-18T1800,3541A,109.5726,19.5167,儋州市,第一中学子站,,15,15,10,6,3,33,,47,43,6,2,5,6,0.5,0.4
2024-07-18T1800,3542A,109.5567,19.5187,儋州市,东坡学校子站,,11,9,9,7,4,35,,45,42,3,2,5,5,0.5,0.5
2024-07-18T1800,2616A,98.5842,24.428,德宏傣族景颇族自治州,德宏州监测站,,25,10,22,6,10,77,,61,61,6,9,19,12,0.5,0.7
2024-07-18T1800,3677A,98.5881,24.4368,德宏傣族景颇族自治州,芒市人民政府综合楼,,24,15,23,3,13,76,,62,62,7,9,5,4,0.4,0.6
2024-07-18T1800,1901A,104.4239,31.1208,德阳市,东山公园,,22,9,12,6,7,70,,73,73,2,5,2,2,0.4,0.5
2024-07-18T1800,1902A,104.3826,31.1317,德阳市,西小区,,23,8,10,8,7,73,,76,76,4,9,3,2,0.4,0.4
2024-07-18T1800,1904A,104.3553,31.1091,德阳市,耐火材料厂,,24,7,12,3,7,75,,76,76,1,9,3,8,0.5,0.5
2024-07-18T1800,3639A,104.4019,31.1244,德阳市,市教育局,,23,,14,12,7,71,,80,80,1,8,4,4,0.6,0.6
2024-07-18T1800,1622A,116.3032,37.4674,德州市,儿童乐园,臭氧1小时,72,27,40,12,22,177,,167,167,9,11,9,8,0.7,0.7
2024-07-18T1800,1624A,116.2991,37.4451,德州市,监理站,臭氧1小时,73,22,36,12,22,178,,171,171,16,17,8,9,0.5,0.5
2024-07-18T1800,3066A,116.2721,37.4379,德州市,九衢泉纯净水厂,臭氧1小时,65,27,40,12,22,172,,164,164,6,14,6,5,0.6,0.6
2024-07-18T1800,3371A,116.3728,37.4403,德州市,开发区人民医院,臭氧1小时,79,29,41,7,19,183,,173,173,13,13,11,11,0.6,0.7
2024-07-18T1800,3372A,116.3572,37.4094,德州市,太阳城中学,臭氧1小时,84,34,43,14,22,187,,177,177,6,15,8,8,0.5,0.5
2024-07-18T1800,3511A,116.5652,37.3319,德州市,陵城艺术中心,臭氧1小时,89,31,41,9,20,191,,174,174,10,19,9,8,0.6,0.6
2024-07-18T1800,2621A,99.7056,27.8317,迪庆藏族自治州,迪庆州站,,17,17,17,8,9,32,,32,32,9,10,7,8,0.3,0.4
2024-07-18T1800,3180A,99.7136,27.8094,迪庆藏族自治州,质量技术监督局,,16,16,13,3,7,33,,32,32,10,10,7,7,0.4,0.4
2024-07-18T1800,2663A,104.6241,35.5734,定西市,东关小学,,44,44,37,12,14,121,,87,87,4,11,8,6,0.3,0.3
2024-07-18T1800,2664A,104.6194,35.5934,定西市,供电公司,,40,39,37,21,21,127,,116,116,3,10,6,5,0.3,0.3
2024-07-18T1800,1389A,113.7547,23.0494,东莞市,莞城梨川,,14,14,18,3,7,31,,52,49,19,15,8,8,0.6,0.6
2024-07-18T1800,1390A,113.7944,23.0128,东莞市,东城石井,,16,16,17,3,6,28,,51,47,19,14,1,2,0.6,0.6
2024-07-18T1800,1391A,113.7383,22.9658,东莞市,南城西平,,,20,19,13,8,21,,36,,25,18,,3,0.8,0.6
2024-07-18T1800,3319A,113.7338,23.0381,东莞市,万江金泰,,15,15,17,6,7,28,,47,43,16,13,7,6,0.6,0.6
2024-07-18T1800,3626A,113.7533,23.0202,东莞市,南城元岭,,17,17,21,8,7,23,,45,41,20,13,6,6,0.6,0.6
2024-07-18T1800,3627A,113.7875,23.0457,东莞市,东城主山,,13,13,18,3,8,28,,51,48,17,12,6,6,0.6,0.6
2024-07-18T1800,1666A,118.6614,37.4309,东营市,市环保局,臭氧1小时,104,39,50,17,29,207,,202,202,12,17,15,12,0.2,0.4
2024-07-18T1800,3036A,118.6904,37.4338,东营市,开发区管委会,臭氧1小时,109,41,50,14,28,217,,214,214,18,21,16,13,0.4,0.5
2024-07-18T1800,3365A,118.5719,37.565,东营市,垦利区民丰路,臭氧1小时,106,36,53,14,33,211,,207,207,11,20,8,9,0.4,0.7
2024-07-18T1800,3498A,118.5055,37.8612,东营市,河口城区,臭氧1小时,108,34,44,15,29,216,,221,221,12,18,7,7,0.4,0.6
2024-07-18T1800,3646A,118.4978,37.4623,东营市,胜利站,臭氧1小时,78,39,44,14,29,182,,194,194,32,23,6,5,0.6,0.9
2024-07-18T1800,3734A,118.35,37.26,东营市,理想之城,臭氧1小时,110,34,48,9,31,219,,206,206,16,19,13,12,0.5,0.7
2024-07-18T1800,1591A,110.0023,39.8129,鄂尔多斯市,综合楼,臭氧1小时,93,36,44,9,12,194,,177,177,18,31,9,12,0.5,0.6
2024-07-18T1800,1592A,109.9486,39.8261,鄂尔多斯市,巴音孟克林场办事处,臭氧1小时,77,29,38,12,13,181,,161,161,8,31,8,10,0.4,0.6
2024-07-18T1800,1593A,109.7736,39.5986,鄂尔多斯市,康泽苑,,,46,34,14,12,191,,174,174,7,17,,11,0.4,0.4
2024-07-18T1800,1594A,109.8119,39.5989,鄂尔多斯市,华泰汽车城,臭氧1小时,73,24,32,9,13,178,,163,163,8,33,10,10,0.5,0.5
2024-07-18T1800,1595A,109.9734,39.7884,鄂尔多斯市,奥林花园,臭氧1小时,70,31,38,7,11,176,,160,160,9,35,7,7,0.5,0.7
2024-07-18T1800,2436A,114.8938,30.3994,鄂州市,市政府,,29,17,31,3,7,92,,88,88,9,13,6,7,0.5,0.6
2024-07-18T1800,2437A,114.8989,30.3714,鄂州市,赵家坝,,29,15,27,3,5,90,,86,86,3,8,6,7,0.1,0.2
2024-07-18T1800,3654A,114.8094,30.4089,鄂州市,精准医疗中心,,29,11,33,3,8,92,,96,96,1,14,5,7,0.4,0.4
2024-07-18T1800,2454A,109.4978,30.2981,恩施土家族苗族自治州,湖北民院,,31,20,24,10,15,99,,74,74,12,13,6,6,0.5,0.5
2024-07-18T1800,2455A,109.4707,30.2798,恩施土家族苗族自治州,州电力总公司,,29,29,24,20,13,92,,66,66,8,11,8,8,0.7,0.7
2024-07-18T1800,3549A,109.5061,30.3772,恩施土家族苗族自治州,龙凤新区,,23,19,23,9,14,71,,54,54,9,14,7,6,0.5,0.5
2024-07-18T1800,2499A,108.3411,21.6158,防城港市,沙万,,29,29,17,10,5,47,,50,50,14,16,10,8,0.5,0.6
2024-07-18T1800,2500A,108.3514,21.7731,防城港市,防城档案局,,18,,15,12,7,49,,53,53,8,12,6,6,0.5,0.5
2024-07-18T1800,2501A,108.3506,21.6414,防城港市,大海花园,,17,17,17,9,7,53,,55,55,5,11,5,7,0.4,0.7
2024-07-18T1800,1371A,113.1294,23.0067,佛山市,湾梁,,15,14,10,10,10,17,,36,34,27,21,6,6,0.6,0.6
2024-07-18T1800,1372A,113.1083,23.0478,佛山市,华材职中,,16,12,10,11,7,26,,39,38,23,20,6,6,0.4,0.4
2024-07-18T1800,1373A,113.144,23.0453,佛山市,南海气象局,,14,14,17,7,8,20,,36,35,23,18,8,8,0.4,0.4
2024-07-18T1800,1374A,113.2881,22.8094,佛山市,顺德苏岗,,11,9,8,7,5,20,,30,27,21,21,6,6,0.5,0.5
2024-07-18T1800,1376A,112.8383,22.8678,佛山市,高明孔堂,,17,17,17,6,6,32,,39,39,17,12,6,6,0.4,0.4
2024-07-18T1800,1377A,112.8836,23.1588,佛山市,三水监测站,,14,12,9,3,7,31,,48,48,28,23,6,5,0.4,0.4
2024-07-18T1800,1378A,112.867,23.185,佛山市,三水云东海,,15,15,15,10,9,32,,39,39,19,22,5,4,0.4,0.4
2024-07-18T1800,3625A,113.2544,22.7642,佛山市,容桂街道办,,14,14,10,7,6,18,,28,25,24,22,6,6,0.6,0.5
2024-07-18T1800,1282A,119.2681,26.0504,福州市,师大,,27,27,23,3,6,76,,77,77,5,8,4,4,0.2,0.2
2024-07-18T1800,1283A,119.2984,26.1028,福州市,五四北路,,,,31,3,7,81,,89,87,7,10,3,4,0.3,0.3
2024-07-18T1800,1284A,119.2648,26.0768,福州市,杨桥西路,,27,27,27,7,7,77,,86,86,5,8,3,3,0.2,0.3
2024-07-18T1800,1285A,119.317,26.0746,福州市,紫阳,,34,34,25,3,6,93,,76,76,7,9,3,3,0.2,0.2
2024-07-18T1800,3048A,119.5799,26.0936,福州市,九龙,,46,46,22,9,6,112,,96,96,5,7,5,5,0.3,0.3
2024-07-18T1800,3526A,119.5189,25.9664,福州市,吴航,,34,25,18,8,8,107,,91,91,3,5,5,5,0.3,0.3
2024-07-18T1800,1755A,123.7977,41.8491,抚顺市,望花区,臭氧1小时,68,50,39,16,21,174,,168,168,4,4,5,2,0.7,0.6
2024-07-18T1800,1756A,123.9161,41.8822,抚顺市,顺城区,臭氧1小时,68,62,38,22,22,174,,161,161,26,24,8,5,1.1,0.8
2024-07-18T1800,1757A,124.0436,41.8611,抚顺市,东洲区,臭氧1小时,63,65,25,23,16,170,,141,141,18,10,8,5,0.8,0.5
2024-07-18T1800,1758A,123.9247,41.8642,抚顺市,新抚区,,50,47,32,21,18,158,,143,143,20,17,6,3,1.2,0.7
2024-07-18T1800,1759A,124.0972,41.8961,抚顺市,大伙房水库,臭氧1小时,78,58,22,20,16,182,,140,140,15,7,9,4,0.9,0.6
2024-07-18T1800,1760A,123.7086,41.8391,抚顺市,沈抚新城,臭氧1小时,64,40,34,22,23,171,,166,166,10,14,7,5,0.4,0.4
2024-07-18T1800,2376A,116.2127,28.0814,抚州市,桐源党溪,,25,25,22,3,10,56,,59,58,3,4,5,6,0.2,0.4
2024-07-18T1800,2377A,116.3544,27.9831,抚州市,市站,,19,19,25,7,9,52,,55,55,3,4,5,4,0.6,0.6
2024-07-18T1800,2378A,116.3565,27.963,抚州市,血防站,,21,21,18,6,7,52,,54,54,4,6,1,2,0.6,0.5
2024-07-18T1800,2379A,116.3564,28.0007,抚州市,采茶剧团,,17,17,18,3,6,51,,54,53,2,3,4,4,0.6,0.6
2024-07-18T1800,2380A,116.385,27.9647,抚州市,医学分院,,29,29,24,7,7,57,,58,58,4,5,4,4,0.3,0.4
2024-07-18T1800,2207A,121.6094,41.998,阜新市,工业园区,,44,13,32,10,15,140,,163,163,20,22,4,11,0.4,0.5
2024-07-18T1800,2208A,121.6697,42.0279,阜新市,长青街,,44,16,31,7,13,139,,158,158,9,16,4,12,0.3,0.5
2024-07-18T1800,2209A,121.6673,42.0705,阜新市,农业园区,,41,13,29,3,10,131,,150,150,7,14,4,8,0.4,0.6
2024-07-18T1800,2210A,121.6717,42.0224,阜新市,东苑,,42,11,30,9,14,132,,150,150,11,17,4,13,0.3,0.5
2024-07-18T1800,2211A,121.6506,42.0498,阜新市,玉龙新城,,42,10,31,7,13,134,,157,156,7,16,4,8,0.3,0.6
2024-07-18T1800,2301A,115.8277,32.8929,阜阳市,市监测站,,28,26,15,12,7,88,,78,78,6,6,5,4,0.5,0.4
2024-07-18T1800,2303A,115.8554,32.8605,阜阳市,开发区,,28,,15,9,10,87,,79,79,5,6,5,5,0.3,0.2
2024-07-18T1800,2875A,115.784,32.8892,阜阳市,阜阳职业技术学院,,29,17,10,6,6,90,,78,76,7,7,5,5,0.5,0.4
2024-07-18T1800,3468A,115.7901,32.8613,阜阳市,市规划展馆,,33,33,17,9,10,83,,70,70,6,6,1,2,0.5,0.4
2024-07-18T1800,3469A,115.836,32.9183,阜阳市,枣园社区,,26,26,16,13,10,78,,67,67,6,6,1,2,0.4,0.4
2024-07-18T1800,2669A,102.9099,34.9841,甘南藏族自治州,州政府,,42,22,32,14,15,134,,119,119,1,12,9,8,0,0
2024-07-18T1800,3380A,102.8914,34.9617,甘南藏族自治州,甘肃民族师范学院,,,,26,,13,142,,123,123,,13,3,2,0.2,0.3
2024-07-18T1800,2570A,101.9603,30.0475,甘孜藏族自治州,水桥子,,23,11,7,8,6,71,,70,70,3,11,3,4,0.3,0.3
2024-07-18T1800,3065A,101.9533,29.9972,甘孜藏族自治州,州环保局,,21,16,8,3,5,67,,70,70,9,11,2,2,0.2,0.2
2024-07-18T1800,3414A,115.8347,28.932,赣江新区,桑海产业园,,26,22,18,6,6,82,,77,77,12,13,10,11,0.2,0.2
2024-07-18T1800,2363A,114.9367,25.8664,赣州市,地委,,22,13,11,3,6,70,,64,64,8,4,8,8,0.9,0.8
2024-07-18T1800,2364A,114.9461,25.8481,赣州市,气象台,,21,11,11,3,7,66,,61,61,6,5,10,8,0.4,0.4
2024-07-18T1800,2365A,114.9322,25.8333,赣州市,市图书馆,,23,12,10,3,5,71,,65,65,5,5,4,4,0.4,0.5
2024-07-18T1800,2366A,114.8905,25.8471,赣州市,华坚鞋城,,20,17,15,8,7,64,,57,57,6,5,21,14,0.4,0.4
2024-07-18T1800,3109A,115.0093,25.8613,赣州市,赣县区卫计委,,18,15,11,6,7,55,,51,51,5,8,8,7,0.5,0.6
2024-07-18T1800,2683A,106.2319,36.1417,固原市,马园,,38,38,34,3,5,116,,126,126,13,31,5,6,0.6,0.7
2024-07-18T1800,2684A,106.2792,36.0022,固原市,监测站,,38,13,22,7,13,121,,119,119,7,16,5,5,0.3,0.3
2024-07-18T1800,2685A,106.2375,36.0211,固原市,新区,,36,28,24,6,8,114,,119,119,9,13,5,5,0.5,0.5
2024-07-18T1800,3522A,106.2177,35.9959,固原市,原州区十五小,,40,17,23,11,13,125,,135,135,6,10,8,8,0.8,0.7
2024-07-18T1800,2544A,106.6303,30.4576,广安市,市委,,24,23,24,10,13,74,,63,63,9,8,3,3,0.3,0.3
2024-07-18T1800,2545A,106.6271,30.4663,广安市,友谊中学,,26,17,19,12,14,82,,70,70,9,9,5,6,0.4,0.4
2024-07-18T1800,2547A,106.6388,30.4551,广安市,广电花园,,27,27,27,7,13,65,,58,58,10,8,7,6,0.5,0.4
2024-07-18T1800,2902A,106.6351,30.4865,广安市,北辰小学,,28,16,22,12,13,88,,69,69,7,6,5,7,0.3,0.3
2024-07-18T1800,2523A,105.8945,32.4535,广元市,黑石坡,,15,9,13,8,7,48,,42,42,4,5,11,13,0.3,0.3
2024-07-18T1800,2524A,105.821,32.4444,广元市,老城,,20,15,20,7,9,61,,53,53,5,15,4,5,0.5,0.6
2024-07-18T1800,2526A,105.8628,32.4287,广元市,监测站,,21,14,19,8,13,66,,58,58,4,11,4,4,0.3,0.4
2024-07-18T1800,3617A,105.8047,32.4166,广元市,经开区,,19,13,20,6,12,58,,50,50,5,18,2,2,0.5,0.6
2024-07-18T1800,1345A,113.2347,23.1423,广州市,广雅中学,,13,10,13,9,9,24,,39,39,23,23,4,5,0.5,0.4
2024-07-18T1800,1346A,113.2612,23.105,广州市,市五中,,20,20,19,10,12,28,,45,42,19,19,4,4,0.6,0.5
2024-07-18T1800,1348A,113.3478,23.0916,广州市,广东商学院,,17,17,18,8,8,22,,42,41,23,22,4,4,0.4,0.4
2024-07-18T1800,1349A,113.4332,23.1047,广州市,市八十六中,,30,30,22,14,9,19,,42,40,47,31,4,4,0.6,0.5
2024-07-18T1800,1350A,113.3505,22.9483,广州市,番禺中学,,15,15,15,3,6,23,,41,38,24,22,7,8,0.7,0.6
2024-07-18T1800,1351A,113.2146,23.3916,广州市,花都师范,,18,18,31,8,17,27,,52,51,22,27,5,6,0.5,0.5
2024-07-18T1800,1352A,113.2597,23.1331,广州市,市监测站,,16,16,13,3,11,28,,40,40,18,20,4,5,0.6,0.5
2024-07-18T1800,1353A,113.5618,23.312,广州市,九龙镇镇龙,,17,17,22,8,11,28,,53,50,19,21,7,7,0.5,0.5
2024-07-18T1800,1354A,113.2765,23.1544,广州市,麓湖,,18,18,20,9,10,29,,43,43,12,17,3,4,0.5,0.5
2024-07-18T1800,1355A,113.443,23.3035,广州市,帽峰山森林公园,,10,6,12,3,8,18,,64,59,20,20,5,5,0.6,0.5
2024-07-18T1800,2846A,113.3221,23.1322,广州市,体育西,,19,19,20,9,9,26,,42,42,20,21,4,5,0.6,0.6
2024-07-18T1800,3298A,113.5717,23.5491,广州市,从化街口,,15,15,15,7,7,40,,56,55,10,9,5,5,0.6,0.5
2024-07-18T1800,3299A,113.3472,23.3692,广州市,白云竹料,,19,19,27,10,11,26,,65,56,26,29,4,4,0.6,0.6
2024-07-18T1800,3300A,113.2981,23.237,广州市,白云嘉禾,,20,20,23,9,9,20,,44,41,28,29,6,6,0.7,0.7
2024-07-18T1800,3301A,113.4256,23.1716,广州市,黄埔科学城,,26,26,25,12,11,9,,45,40,36,29,5,5,0.6,0.6
2024-07-18T1800,3302A,113.3942,23.0483,广州市,番禺大学城,,12,,16,8,8,18,,41,39,24,21,6,6,0.5,0.5
2024-07-18T1800,3303A,113.4922,22.8168,广州市,南沙黄阁,细颗粒物(PM2.5),98,,13,73,15,17,,42,36,28,18,6,6,0.7,0.6
2024-07-18T1800,3304A,113.5342,22.7896,广州市,南沙街,,21,21,14,9,8,13,,40,34,24,14,6,6,0.6,0.5
2024-07-18T1800,3443A,113.2902,23.5544,广州市,花都梯面,,12,11,18,3,9,38,,68,66,14,15,4,4,0.5,0.5
2024-07-18T1800,3445A,113.7858,23.7478,广州市,从化良口,,,,11,,5,41,,47,47,,8,6,6,0.5,0.6
2024-07-18T1800,3446A,113.8051,23.2614,广州市,增城荔城,,12,12,18,7,8,33,,49,46,16,13,6,7,0.8,0.7
2024-07-18T1800,2506A,109.6047,23.0666,贵港市,江南子站,,10,9,29,7,10,32,,49,49,13,14,8,10,0.6,0.5
2024-07-18T1800,2507A,109.6014,23.0948,贵港市,贵城子站,,12,9,23,7,9,37,,47,47,9,13,7,10,0.5,0.6
2024-07-18T1800,2508A,109.5669,23.1065,贵港市,荷城子站,,12,12,16,3,3,38,,51,50,8,10,9,11,0.4,0.5
2024-07-18T1800,3405A,109.5886,23.1172,贵港市,新世纪学校,,12,9,17,3,7,38,,49,49,6,8,6,7,0.5,0.6
2024-07-18T1800,1439A,106.6899,26.5998,贵阳市,马鞍山,,21,6,7,3,0,67,,69,69,4,4,6,6,0.4,0.5
2024-07-18T1800,1440A,106.6971,26.5694,贵阳市,市环保站,,18,9,10,9,9,56,,60,60,10,9,5,5,0.2,0.2
2024-07-18T1800,1441A,106.6243,26.6266,贵阳市,鉴湖路,,18,14,10,3,4,56,,55,55,4,4,3,4,0.3,0.3
2024-07-18T1800,1442A,106.7487,26.6343,贵阳市,燕子冲,,20,6,5,3,3,63,,65,65,6,6,7,6,0.5,0.5
2024-07-18T1800,1443A,106.6555,26.4365,贵阳市,碧云窝,,18,12,17,3,3,55,,59,59,4,6,3,6,0.2,0.2
2024-07-18T1800,1444A,106.694,26.5161,贵阳市,中院村,,16,9,18,3,3,50,,57,57,12,9,5,5,0.3,0.3
2024-07-18T1800,1445A,106.7109,26.6027,贵阳市,红边门,,18,9,14,7,12,56,,61,61,12,11,5,5,0.3,0.4
2024-07-18T1800,1447A,106.674,26.5424,贵阳市,太慈桥,,17,7,8,3,4,54,,59,59,6,7,7,7,0.3,0.3
2024-07-18T1800,1862A,110.4144,25.3167,桂林市,电子科大尧山校区,,20,20,16,6,8,61,,65,65,3,5,4,5,0.3,0.4
2024-07-18T1800,1863A,110.2819,25.2697,桂林市,监测站,,,29,17,9,10,53,,62,61,6,6,,6,0.6,0.6
2024-07-18T1800,1864A,110.3089,25.2708,桂林市,龙隐路小学,,34,34,16,12,11,50,,62,61,7,6,5,5,0.5,0.4
2024-07-18T1800,1865A,110.2869,25.2178,桂林市,八中,,26,26,16,6,8,49,,59,59,7,8,5,6,0.4,0.4
2024-07-18T1800,3403A,110.1764,25.2381,桂林市,创业大厦,,18,9,12,3,8,57,,63,63,3,4,6,6,0.3,0.3
2024-07-18T1800,3531A,110.296,25.1253,桂林市,旅游学院,,16,,6,3,7,49,,63,62,4,4,6,7,0.4,0.4
2024-07-18T1800,2674A,100.2561,34.4714,果洛藏族自治州,玛沁县大武镇,,32,20,27,8,13,101,,99,99,2,4,10,10,0.4,0.4
2024-07-18T1800,1129A,126.5422,45.755,哈尔滨市,岭北,,46,34,14,12,14,146,,126,126,13,15,10,9,0.3,0.3
2024-07-18T1800,1130A,126.561,45.8167,哈尔滨市,松北商大,,39,19,23,10,8,122,,108,108,13,15,7,7,0.5,0.5
2024-07-18T1800,1131A,126.979,45.5419,哈尔滨市,阿城会宁,,32,23,22,18,14,100,,116,116,15,12,10,9,0.7,0.7
2024-07-18T1800,1132A,126.599,45.7222,哈尔滨市,南岗学府路,,45,34,34,10,11,143,,121,121,10,12,4,6,0.6,0.6
2024-07-18T1800,1133A,126.689,45.7733,哈尔滨市,太平宏伟公园,,44,39,25,8,9,140,,118,118,19,17,7,6,0.4,0.4
2024-07-18T1800,1134A,126.635,45.7667,哈尔滨市,道外承德广场,,44,32,26,8,7,138,,114,114,21,21,8,8,0.4,0.5
2024-07-18T1800,1135A,126.685,45.7319,哈尔滨市,香坊红旗大街,,,36,27,13,14,132,,113,113,,21,8,8,0.4,0.5
2024-07-18T1800,1136A,126.6411,45.7258,哈尔滨市,动力和平路,,43,43,29,21,18,132,,114,114,21,19,6,6,0.4,0.4
2024-07-18T1800,1137A,126.593,45.7478,哈尔滨市,道里建国路,,42,33,24,12,9,134,,112,112,21,14,7,5,0.5,0.7
2024-07-18T1800,1138A,126.615,45.61,哈尔滨市,平房东轻厂,,,,21,,8,139,,118,118,12,13,6,9,0.3,0.4
2024-07-18T1800,1139A,126.595,45.9855,哈尔滨市,呼兰师专,,36,30,24,13,11,114,,106,106,16,16,8,9,0.4,0.4
2024-07-18T1800,1140A,126.6206,45.6842,哈尔滨市,省农科院,,40,37,27,10,13,128,,113,113,27,32,9,6,0.4,0.4
2024-07-18T1800,2688A,93.5128,42.8172,哈密市,地区监测站,,45,27,57,12,16,142,,137,137,5,10,3,7,0.2,0.3
2024-07-18T1800,2689A,93.4961,42.8328,哈密市,哈密师范学校,,42,35,62,3,12,134,,135,135,7,12,6,5,0.2,0.3
2024-07-18T1800,2671A,100.9048,36.9639,海北藏族自治州,海晏县西海镇,,42,16,14,13,15,134,,133,133,8,9,14,12,0.5,0.4
2024-07-18T1800,3867A,102.0738,36.5056,海东市,平安区公安北苑,臭氧1小时,62,31,36,19,21,169,,153,153,11,15,10,14,0.5,0.9
2024-07-18T1800,1410A,110.3232,20.0574,海口市,海南大学,,18,18,14,10,6,33,,46,42,12,7,5,6,0.5,0.4
2024-07-18T1800,1411A,110.283,20.0053,海口市,秀英海南医院,,11,11,13,6,5,25,,42,37,17,9,6,6,0.3,0.2
2024-07-18T1800,1412A,110.338,19.9969,海口市,海南师范大学,,11,9,11,7,5,33,,44,40,8,6,6,6,0.4,0.3
2024-07-18T1800,1413A,110.33,20.0356,海口市,龙华路环保局宿舍,,13,13,13,9,5,27,,44,38,16,8,7,7,0.3,0.2
2024-07-18T1800,3539A,110.5111,19.9736,海口市,桂林洋子站,,14,14,12,7,4,38,,42,41,5,5,6,6,0.3,0.3
2024-07-18T1800,2673A,100.6188,36.2866,海南藏族自治州,共和县恰卜恰镇,,38,27,36,11,16,119,,117,117,10,18,15,12,0.4,0.6
2024-07-18T1800,2676A,97.3731,37.3753,海西蒙古族藏族自治州,德令哈市,,41,20,24,7,10,131,,119,119,8,7,9,8,0.6,0.5
2024-07-18T1800,1048A,114.5302,36.6116,邯郸市,东污水处理厂,,50,24,45,3,20,160,,157,157,2,13,2,2,0.5,1.1
2024-07-18T1800,1049A,114.4918,36.5713,邯郸市,矿院,臭氧1小时,58,22,42,9,23,166,,165,165,13,17,4,2,0.5,1.1
2024-07-18T1800,1050A,114.484,36.6133,邯郸市,丛台公园,臭氧1小时,65,19,34,9,22,172,,170,170,4,11,4,5,0.6,1
2024-07-18T1800,3458A,114.7895,36.5593,邯郸市,香泉濮院小区,,48,34,37,8,25,152,,148,148,1,8,2,3,0.1,0.6
2024-07-18T1800,3579A,114.50634,36.77178,邯郸市,永年区实验高中,臭氧1小时,53,31,57,17,30,162,,160,160,5,12,3,3,0.6,1.5
2024-07-18T1800,3580A,114.20016,36.44293,邯郸市,峰峰矿区临水派出所,臭氧1小时,80,44,36,8,15,184,,173,173,4,3,5,4,0.3,0.6
2024-07-18T1800,2634A,106.9893,33.1842,汉中市,汉川机床厂子校,,25,25,16,12,6,50,,68,68,9,6,3,3,0.2,0.3
2024-07-18T1800,2635A,107.0154,33.0706,汉中市,市监测站,,13,12,17,9,8,38,,47,47,2,8,6,6,0.6,0.7
2024-07-18T1800,2636A,107.0089,33.1138,汉中市,鑫源开发区,,20,,26,14,14,51,,60,60,2,11,8,8,0.5,0.5
2024-07-18T1800,2637A,107.007,33.0323,汉中市,南郑大河坎水厂,,15,12,14,7,7,48,,56,56,2,8,7,7,0.4,0.5
2024-07-18T1800,1223A,120.2072,30.2111,杭州市,滨江,,34,19,28,12,16,106,,93,93,9,16,3,3,0.5,0.6
2024-07-18T1800,1224A,120.0633,30.2747,杭州市,西溪,,17,10,30,9,16,52,,69,64,8,11,6,6,0.5,0.5
2024-07-18T1800,1226A,120.3461,30.3153,杭州市,下沙,,32,32,40,16,18,81,,94,92,17,17,6,6,0.4,0.5
2024-07-18T1800,1227A,120.1269,30.2456,杭州市,卧龙桥,,26,18,24,12,16,82,,80,80,11,12,5,5,0.5,0.7
2024-07-18T1800,1228A,120.1903,30.2692,杭州市,浙江农大,,29,21,24,9,16,91,,86,85,20,17,6,6,0.5,0.5
2024-07-18T1800,1230A,120.1197,30.3119,杭州市,和睦小学,,27,25,26,16,18,86,,76,76,25,16,5,5,0.4,0.5
2024-07-18T1800,1231A,120.3019,30.4183,杭州市,临平镇,,25,24,36,3,8,80,,88,87,12,18,5,5,0.4,0.5
2024-07-18T1800,1232A,120.2697,30.1819,杭州市,城厢镇,,35,21,33,9,19,110,,98,98,11,21,4,4,0.4,0.5
2024-07-18T1800,1233A,120.0883,30.1808,杭州市,云栖,,26,21,28,9,14,83,,89,88,8,15,6,6,0.4,0.6
2024-07-18T1800,3557A,119.9464,30.0494,杭州市,镇二中,,26,18,28,9,18,81,,99,97,12,21,7,7,0.5,0.6
2024-07-18T1800,3558A,119.7183,30.2367,杭州市,市府大楼,,20,16,20,6,8,63,,65,65,9,13,8,8,0.4,0.5
2024-07-18T1800,3656A,120.1556,30.2864,杭州市,消防大队,,31,31,30,10,17,96,,83,83,15,12,7,7,0.6,0.6
2024-07-18T1800,1270A,117.1959,31.7848,合肥市,明珠广场,,31,31,30,19,14,92,,86,86,12,13,8,9,0.4,0.4
2024-07-18T1800,1271A,117.3072,31.8764,合肥市,三里街,,34,34,23,14,10,96,,91,91,18,18,4,4,0.3,0.3
2024-07-18T1800,1272A,117.2588,31.8707,合肥市,琥珀山庄,,41,41,32,14,9,98,,94,94,13,11,4,4,0.5,0.4
2024-07-18T1800,1273A,117.1604,31.9052,合肥市,董铺水库,,31,31,23,17,17,85,,84,84,7,8,2,2,0.3,0.2
2024-07-18T1800,1274A,117.25,31.8571,合肥市,长江中路,,34,34,30,20,14,96,,92,92,10,10,6,6,0.5,0.5
2024-07-18T1800,1275A,117.266,31.9436,合肥市,庐阳区,,34,34,26,12,11,96,,94,94,16,12,10,10,0.5,0.4
2024-07-18T1800,1276A,117.336,31.8586,合肥市,瑶海区,,30,27,26,15,11,93,,86,86,11,16,5,5,0.5,0.5
2024-07-18T1800,1277A,117.3027,31.7964,合肥市,包河区,,31,31,26,12,8,97,,92,92,8,11,7,6,0.3,0.3
2024-07-18T1800,1278A,117.2776,31.7385,合肥市,滨湖新区,,30,27,22,12,10,94,,88,88,8,12,6,6,0.4,0.3
2024-07-18T1800,1279A,117.1318,31.8403,合肥市,高新区,,31,31,25,14,11,84,,82,82,12,10,8,8,0.4,0.4
2024-07-18T1800,3464A,117.3803,31.9147,合肥市,高教基地,,33,33,26,13,11,87,,83,83,10,12,6,7,0.3,0.3
2024-07-18T1800,3615A,79.9131,37.113,和田地区,市环保局,颗粒物(PM10),500,1349,619,365,134,99,,112,112,12,14,7,7,0.5,0.6
2024-07-18T1800,2516A,108.2011,24.715,河池市,东仁乐园,,,,41,0,16,51,,51,51,6,10,4,4,0.7,0.8
2024-07-18T1800,2517A,108.0497,24.6947,河池市,市环保站,,,12,17,6,11,60,,61,61,,10,7,8,0.4,0.4
2024-07-18T1800,2518A,108.0983,24.6989,河池市,市疾控中心,,19,,23,6,14,59,,59,59,7,13,9,9,0.4,0.5
2024-07-18T1800,1696A,114.6778,23.7569,河源市,源西,,26,,16,18,17,27,,47,45,15,14,3,4,0.6,0.6
2024-07-18T1800,1697A,114.6944,23.7586,河源市,东埔,,16,,13,11,7,32,,49,48,14,12,6,6,0.6,0.6
2024-07-18T1800,1698A,114.6892,23.7233,河源市,老城,,10,6,18,3,5,32,,51,51,11,6,4,4,0.5,0.4
2024-07-18T1800,1718A,115.4208,35.2464,菏泽市,气象局,,33,19,40,6,24,105,,123,123,1,6,2,2,0.3,0.5
2024-07-18T1800,1719A,115.4747,35.2375,菏泽市,市政协,,32,16,32,11,30,100,,117,117,2,5,2,3,0.3,0.4
2024-07-18T1800,3374A,115.5564,35.0891,菏泽市,定陶老年大学,,33,17,29,3,16,103,,109,109,2,6,1,1,0.5,0.7
2024-07-18T1800,3647A,115.4702,35.2706,菏泽市,菏泽医专,,31,18,34,8,22,99,,117,117,2,6,4,7,0.5,0.6
2024-07-18T1800,2514A,111.5264,24.4172,贺州市,环保小区,,18,,19,12,11,40,,63,62,12,12,6,8,0.5,0.5
2024-07-18T1800,2515A,111.5608,24.4078,贺州市,政协大楼,,28,28,25,12,17,36,,63,62,12,12,7,9,0.5,0.5
2024-07-18T1800,3534A,111.4744,24.4553,贺州市,西湾,,22,,19,15,19,37,,60,59,13,13,5,6,0.5,0.6
2024-07-18T1800,2385A,114.17,35.9019,鹤壁市,市监测站,臭氧1小时,55,36,31,32,24,164,,140,140,12,7,6,5,0.9,0.9
2024-07-18T1800,2386A,114.2956,35.7511,鹤壁市,市交警支队,臭氧1小时,53,25,43,13,31,162,,158,158,10,24,4,4,0.6,0.5
2024-07-18T1800,2387A,114.2878,35.7306,鹤壁市,迎宾馆,臭氧1小时,57,,40,21,35,165,,160,160,11,21,2,3,0.6,0.9
2024-07-18T1800,3474A,114.2617,35.6822,鹤壁市,大新区,,,32,36,,,155,,154,154,11,22,2,2,0.4,0.8
2024-07-18T1800,3596A,114.1572,35.9603,鹤壁市,南山宾馆,臭氧1小时,58,,30,39,29,166,,152,152,7,6,9,9,1.2,1.3
2024-07-18T1800,2244A,130.2537,47.3416,鹤岗市,哈啤分公司,,34,34,29,21,14,98,,107,107,6,8,14,14,0.4,0.5
2024-07-18T1800,2245A,130.2684,47.3086,鹤岗市,斯达机电,,35,35,20,24,12,108,,114,114,12,9,13,13,0.2,0.3
2024-07-18T1800,2246A,130.3114,47.3388,鹤岗市,东山纸板厂,,46,46,20,28,16,95,,94,94,10,9,17,17,0.4,0.3
2024-07-18T1800,2247A,130.1097,47.3382,鹤岗市,五号水库,,31,,16,12,5,97,,106,106,7,10,6,9,0.1,0.2
2024-07-18T1800,2263A,127.4833,50.2524,黑河市,交通局,,48,38,25,33,17,96,,99,99,11,6,6,6,0.7,0.5
2024-07-18T1800,2264A,127.5144,50.2341,黑河市,环保局,,50,50,19,29,15,108,,108,108,9,5,3,4,0.7,0.4
2024-07-18T1800,2265A,127.5291,50.2472,黑河市,大黑河岛,,,,,,,,,,,10,22,2,2,,
2024-07-18T1800,1074A,115.6838,37.7541,衡水市,电机北厂,臭氧1小时,112,55,63,19,28,224,,196,196,5,7,2,5,0.7,0.9
2024-07-18T1800,1075A,115.6303,37.7316,衡水市,市监测站,臭氧1小时,104,43,52,27,25,207,,193,193,6,10,10,11,0.6,0.8
2024-07-18T1800,3188A,115.6683,37.7217,衡水市,市城管局,臭氧1小时,106,36,42,12,26,212,,205,205,4,10,8,8,0.7,0.8
2024-07-18T1800,3459A,115.5989,37.5491,衡水市,地表水厂,,,32,55,10,21,185,,194,194,,13,6,10,0.4,0.7
2024-07-18T1800,2456A,112.5003,26.9167,衡阳市,原169医院,,26,17,17,9,9,81,,70,70,4,10,9,14,0.7,0.8
2024-07-18T1800,2457A,112.6194,26.9258,衡阳市,衡阳化工总厂,,,19,18,,5,80,,75,75,6,6,6,8,0.3,0.4
2024-07-18T1800,2458A,112.6211,26.8956,衡阳市,珠晖区环保局,,,23,18,,,84,,76,76,5,4,7,9,0.4,0.5
2024-07-18T1800,2459A,112.6197,26.8733,衡阳市,市委党校,,27,18,16,6,8,85,,76,76,4,6,6,7,0.4,0.4
2024-07-18T1800,2460A,112.6006,26.8919,衡阳市,市监测站,,27,14,18,8,8,85,,78,78,5,6,7,11,0.4,0.4
2024-07-18T1800,2461A,112.5664,26.9056,衡阳市,真空机电公司,,,30,21,,9,82,,76,76,6,8,8,13,0.6,0.6
2024-07-18T1800,3399A,112.6703,26.882,衡阳市,师范学院,,27,7,16,3,8,84,,78,78,4,6,9,10,0.5,0.5
2024-07-18T1800,2608A,103.3772,23.3993,红河哈尼族彝族自治州,污水处理厂,,,26,15,12,11,53,,62,62,5,5,,4,0.4,0.4
2024-07-18T1800,2609A,103.3861,23.35,红河哈尼族彝族自治州,监测站,,18,18,11,12,8,53,,59,59,5,5,5,4,0.3,0.3
2024-07-18T1800,3038A,103.3758,23.368,红河哈尼族彝族自治州,州图书馆,,15,11,9,3,7,47,,54,54,4,5,5,5,0.4,0.3
2024-07-18T1800,1090A,111.6507,40.7517,呼和浩特市,呼市一监,,48,19,30,6,12,151,,131,131,6,21,4,7,0.3,0.4
2024-07-18T1800,1091A,111.6572,40.8033,呼和浩特市,小召,,44,22,29,8,12,140,,128,128,13,14,9,8,0.5,0.4
2024-07-18T1800,1094A,111.7516,40.8369,呼和浩特市,如意水处理厂,,,19,25,7,8,155,,136,136,,20,3,3,0.3,0.3
2024-07-18T1800,1095A,111.7276,40.8062,呼和浩特市,二十九中,,50,23,27,7,11,159,,138,138,11,20,4,5,0.3,0.4
2024-07-18T1800,1096A,111.5512,40.7866,呼和浩特市,工大金川校区,,50,25,28,7,9,157,,136,136,16,25,6,6,0.3,0.4
2024-07-18T1800,1097A,111.717,40.7612,呼和浩特市,化肥厂生活区,,48,31,38,8,11,153,,135,135,14,25,8,11,0.4,0.5
2024-07-18T1800,3698A,111.5968,40.8178,呼和浩特市,红旗小学,臭氧1小时,54,31,29,7,9,163,,142,142,16,22,5,4,0.3,0.3
2024-07-18T1800,3699A,111.6518,40.8389,呼和浩特市,海东办,臭氧1小时,53,27,27,9,9,162,,138,138,13,22,8,7,0.5,0.5
2024-07-18T1800,2192A,119.7594,49.2261,呼伦贝尔市,区环保局,,33,23,50,23,46,65,,87,79,10,8,4,4,0.9,1.1
2024-07-18T1800,3061A,119.7512,49.1577,呼伦贝尔市,国华电力东,,33,23,48,23,41,67,,87,80,6,5,4,4,0.8,0.9
2024-07-18T1800,1250A,120.0751,30.8669,湖州市,城西水厂,,21,21,24,10,12,64,,73,73,20,26,4,4,0.4,0.4
2024-07-18T1800,2873A,120.0875,30.8955,湖州市,仁皇山新区,,23,22,22,10,12,73,,71,71,11,17,6,6,0.7,0.6
2024-07-18T1800,2907A,120.1844,30.8596,湖州市,吴兴区站,,26,26,24,10,15,37,,90,83,29,20,6,7,0.3,0.4
2024-07-18T1800,3562A,120.4148,30.8538,湖州市,南浔区站,,17,15,35,8,22,53,,86,83,10,22,4,3,0.4,0.5
2024-07-18T1800,1607A,120.9092,40.7136,葫芦岛市,龙港区,臭氧1小时,93,69,38,28,25,194,,154,154,10,11,2,4,0.8,0.7
2024-07-18T1800,1608A,120.8392,40.7514,葫芦岛市,化工街,臭氧1小时,97,48,42,24,19,197,,176,176,19,34,4,12,1.0,1
2024-07-18T1800,1609A,120.8341,40.7073,葫芦岛市,新区,臭氧1小时,103,79,39,50,28,206,,170,170,12,24,1,2,0.9,0.8
2024-07-18T1800,1610A,120.8695,40.7677,葫芦岛市,东城区,臭氧1小时,132,34,41,18,19,263,,216,216,16,41,9,12,1.0,0.9
2024-07-18T1800,2482A,109.5981,27.5721,怀化市,林科所,,24,10,11,6,6,75,,71,71,4,6,5,13,0.5,0.7
2024-07-18T1800,2483A,109.9453,27.5444,怀化市,河西地税局,,21,10,15,3,9,66,,65,65,3,7,5,5,0.4,0.4
2024-07-18T1800,2484A,109.9781,27.5342,怀化市,市四医院,,,18,24,7,12,66,,65,65,6,8,,3,0.5,0.6
2024-07-18T1800,2485A,109.9972,27.5578,怀化市,监测楼,,20,12,15,3,8,61,,64,64,4,6,4,5,0.3,0.6
2024-07-18T1800,2486A,110.0394,27.583,怀化市,市委党校,,18,10,14,6,9,56,,60,59,3,6,6,7,0.3,0.4
2024-07-18T1800,1210A,119.036,33.5981,淮安市,钵池山,,25,14,10,8,11,80,,77,77,11,11,4,5,0.6,0.8
2024-07-18T1800,1211A,119.007,33.575,淮安市,北京南路,,19,,13,11,7,60,,57,57,13,13,7,8,0.5,0.9
2024-07-18T1800,1212A,118.989,33.6067,淮安市,市监测站,,23,17,12,9,9,72,,69,69,12,12,5,6,0.7,0.7
2024-07-18T1800,1213A,119.135,33.5039,淮安市,楚州区监测站,,20,20,15,7,7,62,,66,66,14,11,5,5,0.5,0.5
2024-07-18T1800,1214A,119.0186,33.6297,淮安市,淮阴区监测站,,22,19,12,8,13,69,,70,70,18,13,7,7,0.6,0.4
2024-07-18T1800,3426A,118.8755,33.2894,淮安市,新华书店,,22,14,11,12,7,68,,71,71,13,10,6,5,0.6,0.5
2024-07-18T1800,2282A,116.8004,33.975,淮北市,监测站,,23,10,20,7,6,73,,80,80,5,5,4,4,0.4,0.4
2024-07-18T1800,2283A,116.8091,33.9007,淮北市,烈山区政府,,24,21,12,11,9,74,,68,68,3,4,6,6,0.8,0.8
2024-07-18T1800,3330A,116.8873,33.9836,淮北市,杜集区检察院,,24,24,17,10,9,74,,82,82,6,4,5,5,0.5,0.5
2024-07-18T1800,4017A,116.7923,33.9535,淮北市,市博物馆,,25,9,10,9,6,78,,84,84,2,2,3,3,0.6,0.6
2024-07-18T1800,2277A,116.8305,32.7727,淮南市,潘集区政府,,41,41,18,18,12,89,,81,81,6,5,3,2,0.2,0.1
2024-07-18T1800,2278A,117.0067,32.6524,淮南市,师范学院,,43,43,24,24,9,80,,92,92,5,5,6,7,0.1,0
2024-07-18T1800,2279A,116.8569,32.5951,淮南市,谢家集区政府,,23,23,15,3,5,68,,81,81,11,11,5,5,0,0
2024-07-18T1800,2280A,116.8281,32.633,淮南市,八公山区政府,,36,36,26,20,14,74,,84,84,8,8,3,4,0.2,0.2
2024-07-18T1800,2281A,116.6325,32.6201,淮南市,焦岗湖风景区管理处,,15,15,8,7,5,37,,38,38,4,4,3,4,0.4,0.2
2024-07-18T1800,2894A,117.0566,32.6531,淮南市,经济技术开发区消防队,,33,33,18,22,6,81,,81,81,8,8,4,5,0.4,0.3
2024-07-18T1800,3329A,117.0108,32.5893,淮南市,山南新区,颗粒物(PM10),52,53,27,9,5,79,,94,94,7,7,5,5,0.4,0.4
2024-07-18T1800,2446A,114.9028,30.4742,黄冈市,职工中心,,28,22,31,9,13,89,,88,88,8,21,8,10,0.4,0.4
2024-07-18T1800,2929A,114.8858,30.4519,黄冈市,红卫路,,28,23,30,12,14,89,,89,89,10,23,5,10,0.3,0.3
2024-07-18T1800,3398A,114.9136,30.4445,黄冈市,市林业局,,30,16,32,9,14,94,,93,93,5,23,8,11,0.3,0.5
2024-07-18T1800,2672A,102.0199,35.5102,黄南藏族自治州,同仁县隆务镇,,35,28,33,12,15,110,,113,113,1,3,5,7,0.4,0.4
2024-07-18T1800,2295A,118.2903,29.6963,黄山市,延安路89号,,22,22,25,3,8,56,,59,59,4,6,7,7,0.3,0.4
2024-07-18T1800,2296A,118.327,29.7178,黄山市,黄山东路89号,,18,11,19,8,7,56,,61,61,5,6,6,6,0.3,0.4
2024-07-18T1800,2297A,118.1371,30.2756,黄山市,黄山区政府5号楼,,22,20,17,9,9,68,,64,64,4,5,6,6,0.4,0.4
2024-07-18T1800,2423A,115.0601,30.2313,黄石市,沈家营,,23,20,38,3,7,71,,86,86,9,20,7,12,0.3,0.4
2024-07-18T1800,2424A,115.0817,30.2006,黄石市,陈家湾,,27,21,24,3,4,85,,95,95,4,6,13,14,0.4,0.4
2024-07-18T1800,2426A,114.8988,30.2019,黄石市,铁山,,42,42,37,8,9,100,,93,93,15,14,8,10,0.5,0.4
2024-07-18T1800,2427A,115.0307,30.2092,黄石市,团城山,,25,16,20,3,5,78,,94,94,8,6,8,7,0.3,0.4
2024-07-18T1800,3149A,115.0235,30.1578,黄石市,笔架山北路,,31,31,33,3,4,71,,87,87,8,5,6,8,0.3,0.4
2024-07-18T1800,1392A,114.4183,23.0528,惠州市,河南岸金山湖子站,,16,16,16,7,7,39,,54,54,7,6,4,5,0.4,0.4
2024-07-18T1800,1393A,114.4053,23.0822,惠州市,下埔横江三路子站,,17,17,19,8,8,41,,58,57,10,7,6,7,0.4,0.4
2024-07-18T1800,1394A,114.4103,23.1142,惠州市,江北云山西路子站,,13,11,18,7,7,41,,59,58,6,5,2,3,0.4,0.5
2024-07-18T1800,1395A,114.4645,22.7833,惠州市,惠阳区承修路船湖子站,,16,14,12,7,6,50,,48,48,10,9,1,2,0.4,0.5
2024-07-18T1800,1396A,114.5317,22.7422,惠州市,大亚湾管委会子站,,18,14,15,7,4,56,,60,60,10,9,6,7,0.5,0.5
2024-07-18T1800,3314A,114.4338,22.8134,惠州市,惠阳秋长,,15,12,14,6,6,47,,51,50,3,7,4,5,0.5,0.6
2024-07-18T1800,3452A,114.6517,22.775,惠州市,大亚湾霞涌,,30,,14,21,9,55,,51,51,4,7,4,4,0.4,0.4
2024-07-18T1800,2240A,130.9762,45.3001,鸡西市,环保局,,15,7,15,6,6,46,,54,54,14,7,8,7,0.3,0.2
2024-07-18T1800,2243A,130.9429,45.3039,鸡西市,第一中学,,48,,17,33,7,42,,62,61,18,7,4,4,0.4,0.2
2024-07-18T1800,3707A,131.0207,45.3073,鸡西市,欧美日汽修厂,,25,25,18,3,5,44,,46,46,7,5,4,4,0.5,0.4
2024-07-18T1800,3709A,130.9967,45.3106,鸡西市,市政设施管理处,,37,6,19,3,6,116,,83,83,16,10,6,6,0.4,0.3
2024-07-18T1800,2367A,114.9754,27.0803,吉安市,红声器材厂,,18,14,20,8,7,55,,60,59,6,7,10,14,0.5,0.5
2024-07-18T1800,2368A,114.9658,27.0999,吉安市,市森林工业局,,18,16,19,7,6,56,,61,61,5,7,9,11,0.3,0.3
2024-07-18T1800,2369A,114.99,27.1312,吉安市,市环境监测站,,19,14,17,3,7,60,,64,64,6,6,12,13,0.2,0.5
2024-07-18T1800,2370A,115.0093,27.0968,吉安市,青原区法院,,18,16,19,6,6,55,,58,58,7,8,13,13,0.4,0.4
2024-07-18T1800,1772A,126.54,43.8622,吉林市,哈达湾,,42,42,22,23,28,104,,128,124,9,7,4,5,0.7,0.7
2024-07-18T1800,1773A,126.5844,43.8358,吉林市,东局子,,34,34,25,16,13,102,,130,127,16,11,4,4,0.7,0.7
2024-07-18T1800,1774A,126.5052,43.8245,吉林市,电力学院,,43,43,24,30,16,106,,126,122,12,13,7,7,0.5,0.5
2024-07-18T1800,1775A,126.6133,43.8972,吉林市,江北,,40,40,21,24,13,80,,118,115,19,9,8,7,0.8,0.7
2024-07-18T1800,1776A,126.555,43.8306,吉林市,江南公园,,35,26,19,9,8,110,,131,128,11,12,3,3,0.7,0.7
2024-07-18T1800,2868A,126.4739,43.953,吉林市,九站,,34,24,18,13,14,108,,128,126,12,9,4,4,0.6,0.6
2024-07-18T1800,1299A,116.9862,36.6114,济南市,科干所,,50,31,52,20,33,158,,155,155,8,16,8,8,0.7,0.7
2024-07-18T1800,1300A,116.9376,36.665,济南市,农科所,臭氧1小时,53,27,52,12,25,162,,159,159,14,28,9,8,0.5,0.5
2024-07-18T1800,1301A,117.1265,36.6734,济南市,开发区,臭氧1小时,59,39,45,22,23,167,,162,162,20,18,12,10,0.7,0.7
2024-07-18T1800,1303A,117.0624,36.6868,济南市,省种子仓库,臭氧1小时,59,44,58,22,30,167,,166,166,9,20,7,7,0.7,0.8
2024-07-18T1800,1304A,116.9489,36.6447,济南市,机床二厂,臭氧1小时,54,39,67,12,30,163,,165,165,13,28,10,10,0.5,0.5
2024-07-18T1800,1305A,117.0495,36.663,济南市,市监测站,臭氧1小时,64,34,49,20,32,171,,169,169,10,20,9,9,0.7,0.7
2024-07-18T1800,1306A,116.7675,36.5484,济南市,长清党校,臭氧1小时,62,29,53,22,37,169,,160,160,8,15,12,9,1.0,0.8
2024-07-18T1800,1616A,117.6795,36.229,济南市,技术学院,,49,27,45,22,35,156,,152,152,5,17,8,9,0.8,1.3
2024-07-18T1800,1961A,117.532,36.6868,济南市,东山小学,,50,37,58,20,33,159,,160,160,12,22,5,5,0.7,0.9
2024-07-18T1800,3059A,117.7161,36.2049,济南市,泰兴公司,,44,34,48,19,31,140,,136,136,4,22,7,8,0.5,1.1
2024-07-18T1800,3064A,117.6867,36.2171,济南市,莱芜战役纪念馆,,42,39,51,19,32,132,,126,126,7,16,8,8,0.7,1.1
2024-07-18T1800,3494A,117.1673,36.9782,济南市,济阳区政府,,49,29,58,10,28,155,,166,166,4,14,6,7,0.4,0.5
2024-07-18T1800,3495A,117.1171,36.63,济南市,锦屏中学,臭氧1小时,68,42,49,29,32,174,,166,166,11,13,10,10,0.7,0.7
2024-07-18T1800,3682A,116.9814,36.6819,济南市,济南四建,,50,29,53,15,32,159,,160,160,10,23,8,7,0.8,0.8
2024-07-18T1800,1653A,116.6251,35.4302,济宁市,火炬城,,29,22,54,9,32,92,,106,106,5,11,7,7,0.8,0.9
2024-07-18T1800,1655A,116.5491,35.4042,济宁市,电化厂,,40,40,43,22,33,84,,94,94,6,12,5,5,0.6,0.8
2024-07-18T1800,3500A,116.5814,35.3707,济宁市,北湖一中,,29,23,49,12,27,92,,105,105,4,10,8,8,0.6,0.7
2024-07-18T1800,3501A,116.8249,35.5593,济宁市,服务中心,,37,32,36,18,32,116,,136,136,8,13,1,1,0.4,0.5
2024-07-18T1800,3678A,116.5907,35.4054,济宁市,市第七中学,颗粒物(PM10),67,83,48,14,30,94,,103,103,7,15,4,4,0.6,0.7
2024-07-18T1800,2255A,130.2751,46.8028,佳木斯市,佳纺,,38,38,24,21,12,76,,120,117,19,7,8,7,0.6,0.5
2024-07-18T1800,2256A,130.3995,46.8307,佳木斯市,发电厂,颗粒物(PM10),51,52,28,25,14,98,,115,115,9,9,8,7,0.6,0.6
2024-07-18T1800,2257A,130.3258,46.7975,佳木斯市,环保局,,29,29,23,13,12,79,,111,109,29,8,7,7,0.8,0.6
2024-07-18T1800,2258A,130.3648,46.8032,佳木斯市,十一中,,44,44,20,19,14,87,,108,108,27,11,8,8,0.6,0.5
2024-07-18T1800,2259A,130.3794,46.7588,佳木斯市,四丰,,29,20,14,14,9,90,,101,101,11,8,1,1,0.8,0.8
2024-07-18T1800,1252A,120.7436,30.778,嘉兴市,清河小学,,41,41,41,8,18,50,,99,92,24,25,5,7,0.0,0.3
2024-07-18T1800,1253A,120.726,30.7478,嘉兴市,嘉兴学院,,37,37,40,8,22,48,,90,83,15,25,2,2,0.4,0.5
2024-07-18T1800,2872A,120.7846,30.7525,嘉兴市,南湖区残联,,44,44,38,8,25,65,,115,110,18,20,5,5,0.4,0.5
2024-07-18T1800,3407A,120.6916,30.7739,嘉兴市,秀洲住建,,15,15,31,9,20,32,,102,94,30,24,3,3,0.5,0.7
2024-07-18T1800,1945A,98.2908,39.7711,嘉峪关市,气象局,,48,48,70,12,21,132,,99,99,7,25,7,35,0.4,0.7
2024-07-18T1800,2884A,98.2672,39.7978,嘉峪关市,酒钢宾馆,颗粒物(PM10),51,51,72,12,23,135,,112,112,8,25,4,38,0.2,0.8
2024-07-18T1800,3248A,98.2643,39.7724,嘉峪关市,雄关区,,41,38,55,21,20,130,,98,98,8,24,7,16,0,0.5
2024-07-18T1800,1383A,113.1064,22.6058,江门市,北街,,28,28,19,13,8,25,,33,32,23,14,4,3,0.4,0.3
2024-07-18T1800,1384A,113.0731,22.5835,江门市,西区,,17,17,17,6,6,23,,35,34,23,12,6,6,0.5,0.3
2024-07-18T1800,1385A,113.0219,22.5311,江门市,圭峰西,,20,20,14,12,10,27,,34,33,16,11,3,3,0.4,0.3
2024-07-18T1800,1386A,113.0828,22.5947,江门市,东湖,,23,23,14,12,7,22,,34,33,22,13,7,6,0.4,0.3
2024-07-18T1800,3311A,113.1075,22.5647,江门市,江海富民,,26,26,22,17,10,21,,36,34,24,14,7,6,0.5,0.4
2024-07-18T1800,3449A,113.05,22.4667,江门市,新会银湖,,21,21,13,10,4,20,,28,27,15,15,2,3,0.6,0.5
2024-07-18T1800,1828A,113.227,35.2125,焦作市,市环保局,,50,16,30,3,18,158,,150,150,2,10,3,6,0.3,0.7
2024-07-18T1800,3169A,113.2725,35.2067,焦作市,太极体育中心,,47,26,32,10,18,149,,144,144,4,10,3,2,0.5,0.8
2024-07-18T1800,3335A,113.3137,35.2641,焦作市,马村街道办,,50,20,30,8,20,160,,159,159,6,14,1,4,0.4,0.8
2024-07-18T1800,3336A,113.2465,35.2373,焦作市,焦作技师学院,,47,16,29,7,17,148,,152,152,20,18,1,4,0.4,1
2024-07-18T1800,3477A,113.1656,35.2539,焦作市,中站许衡医院,,50,18,15,6,11,157,,153,153,10,18,5,6,0.5,0.7
2024-07-18T1800,3981A,113.2449,35.1803,焦作市,原李万街道办,,45,14,24,3,14,144,,135,135,9,18,2,3,0.2,0.5
2024-07-18T1800,1708A,116.3701,23.5345,揭阳市,新兴,,21,21,25,11,10,44,,62,60,5,13,4,5,0.6,0.7
2024-07-18T1800,1709A,116.3264,23.5443,揭阳市,西马,,37,37,27,9,10,45,,60,60,2,11,3,3,0.8,0.9
2024-07-18T1800,1710A,116.3611,23.5626,揭阳市,东兴,,28,28,22,6,7,48,,63,63,3,12,2,6,0.8,0.8
2024-07-18T1800,1711A,116.4151,23.5294,揭阳市,渔湖,,23,23,28,10,7,43,,56,56,7,14,4,5,0.7,0.8
2024-07-18T1800,3320A,116.403,23.5699,揭阳市,曲溪,,14,13,17,3,9,44,,55,55,4,12,4,8,0.6,0.6
2024-07-18T1800,1944A,102.1692,38.5167,金昌市,天庆家园,,46,38,38,17,14,147,,144,144,9,12,11,15,0.4,0.5
2024-07-18T1800,3170A,102.1864,38.5253,金昌市,市委党校,颗粒物(PM10),51,51,53,14,13,155,,145,145,4,13,10,15,0.5,0.6
2024-07-18T1800,4022A,102.1647,38.5371,金昌市,金川区人防中心,,49,36,36,18,16,154,,150,150,6,11,12,14,0.6,0.6
2024-07-18T1800,1262A,119.647,29.077,金华市,十五中,,31,25,33,9,16,98,,124,120,10,15,4,3,0.2,0.3
2024-07-18T1800,1263A,119.686,29.1029,金华市,监测站,,30,15,30,8,16,94,,125,120,8,14,4,4,0.3,0.4
2024-07-18T1800,3659A,119.656,29.1131,金华市,气象局,,27,20,32,7,14,86,,115,112,10,15,5,5,0.4,0.4
2024-07-18T1800,1767A,121.1115,41.0879,锦州市,南山,,,38,41,27,20,,,197,,13,30,7,10,0.7,0.7
2024-07-18T1800,1768A,121.0533,40.8434,锦州市,开发区,臭氧1小时,111,93,63,39,26,221,,180,180,26,27,6,12,1.2,1.1
2024-07-18T1800,1769A,121.1836,41.1119,锦州市,百股街道,臭氧1小时,105,28,33,17,14,210,,178,178,11,27,7,9,1.1,1
2024-07-18T1800,1770A,121.1178,41.1222,锦州市,天安街道,臭氧1小时,94,38,40,30,21,195,,172,172,15,33,8,11,0.9,0.8
2024-07-18T1800,1771A,121.1303,41.1386,锦州市,北湖公园,臭氧1小时,92,36,40,17,21,193,,168,168,12,27,7,9,0.9,0.9
2024-07-18T1800,2160A,112.85,35.5051,晋城市,自来水公司,臭氧1小时,64,29,34,3,25,171,,164,164,10,20,9,6,0.5,1.7
2024-07-18T1800,2161A,112.8318,35.4936,晋城市,白云商贸,臭氧1小时,60,35,55,3,20,168,,160,160,10,21,9,8,0.6,2
2024-07-18T1800,2162A,112.8508,35.4887,晋城市,市环保局,臭氧1小时,59,11,41,7,22,167,,161,161,13,23,10,7,0.6,1.8
2024-07-18T1800,2163A,112.8676,35.4897,晋城市,技术学院,臭氧1小时,60,32,32,7,21,168,,164,164,15,24,10,7,0.8,1.8
2024-07-18T1800,3620A,112.8271,35.4828,晋城市,泽州一中,臭氧1小时,57,26,40,7,19,165,,157,157,11,21,12,10,0.5,1.9
2024-07-18T1800,2171A,112.7532,37.6945,晋中市,锦纶小区,臭氧1小时,107,29,35,12,14,213,,198,198,14,19,9,10,0.4,0.6
2024-07-18T1800,2173A,112.7249,37.7067,晋中市,南都小区,臭氧1小时,109,22,34,11,16,217,,203,203,14,17,9,13,0,0.4
2024-07-18T1800,2174A,112.6991,37.6982,晋中市,榆次区政府,臭氧1小时,107,29,32,19,19,214,,196,196,12,18,8,12,0.3,0.5
2024-07-18T1800,2865A,112.7195,37.6828,晋中市,榆次三中,臭氧1小时,105,27,35,7,11,210,,197,197,12,17,9,11,0.5,0.9
2024-07-18T1800,2439A,112.2014,31.0481,荆门市,竹园小学,,27,21,24,12,12,84,,83,83,9,9,9,10,0.4,0.4
2024-07-18T1800,2440A,112.1969,30.9891,荆门市,掇刀,,33,33,27,13,13,81,,82,82,16,13,7,8,0.4,0.5
2024-07-18T1800,2441A,112.2213,31.0386,荆门市,石化一小,,30,24,26,9,8,94,,90,90,6,10,18,18,0.4,0.4
2024-07-18T1800,3012A,112.1849,31.0362,荆门市,西山林语,,28,15,23,13,14,87,,83,83,4,7,8,8,0.5,0.5
2024-07-18T1800,3547A,112.1632,31.0138,荆门市,龙泉中学南校,,27,20,23,8,13,84,,82,82,9,11,8,9,0.4,0.5
2024-07-18T1800,1844A,112.2494,30.3197,荆州市,市图书馆,,31,,17,13,11,98,,79,79,6,8,6,6,0.7,0.6
2024-07-18T1800,1845A,112.2008,30.3544,荆州市,市委党校,,30,,17,21,15,95,,80,80,15,13,4,4,0.4,0.4
2024-07-18T1800,3194A,112.2747,30.3122,荆州市,管委会,,34,20,17,11,11,106,,86,86,9,9,5,5,0.5,0.4
2024-07-18T1800,3548A,112.1655,30.3364,荆州市,学苑路,,30,27,27,12,16,94,,78,78,8,9,7,7,0.5,0.5
2024-07-18T1800,2343A,117.2117,29.2933,景德镇市,老干部活动中心,,18,18,16,10,8,56,,54,54,8,9,11,10,0.3,0.3
2024-07-18T1800,2344A,117.1894,29.2789,景德镇市,兽医站,,22,18,23,9,11,68,,71,71,4,13,9,20,0.3,0.4
2024-07-18T1800,2345A,117.1547,29.2617,景德镇市,台达陶瓷,,29,29,24,11,13,50,,52,52,9,16,18,26,0.2,0.2
2024-07-18T1800,2346A,117.2461,29.2956,景德镇市,陶研所,,19,14,16,3,6,59,,63,63,2,4,3,5,0.2,0.2
2024-07-18T1800,1803A,115.9872,29.6815,九江市,十里,,29,17,15,8,7,90,,87,87,10,11,10,10,0.6,0.5
2024-07-18T1800,1804A,115.9584,29.7046,九江市,茅山头,,35,14,17,6,8,110,,105,105,8,7,11,10,0.4,0.4
2024-07-18T1800,1805A,115.9877,29.7295,九江市,西园,,30,15,15,11,8,96,,94,94,12,12,10,10,0.6,0.6
2024-07-18T1800,1806A,116.0172,29.6547,九江市,五七二七厂,,29,,12,18,8,90,,82,82,8,9,10,10,0.7,0.7
2024-07-18T1800,1808A,115.9114,29.6038,九江市,综合工业园,,37,18,26,12,9,118,,106,106,3,7,12,10,0.5,0.4
2024-07-18T1800,1809A,116.0721,29.7535,九江市,石化总厂,,32,26,23,16,11,100,,93,93,10,12,10,13,0.6,0.6
2024-07-18T1800,1810A,115.9773,29.5698,九江市,庐山气象台,,32,15,9,12,8,100,,79,79,1,1,32,13,1.0,0.7
2024-07-18T1800,3190A,116.0254,29.6994,九江市,外国语学校,,31,15,14,9,7,98,,94,94,12,13,13,12,0.7,0.6
2024-07-18T1800,2658A,98.5061,39.7443,酒泉市,仓门街子站,颗粒物(PM10),58,66,62,22,23,113,,108,108,20,14,16,10,0.3,0.3
2024-07-18T1800,2659A,98.4989,39.7256,酒泉市,油田生活基地,颗粒物(PM10),52,53,61,23,25,133,,114,114,8,15,9,14,0.3,0.4
2024-07-18T1800,2698A,76.0072,39.4467,喀什地区,巡警大队,颗粒物(PM10),62,74,63,8,9,133,,130,130,16,16,3,3,0.2,0.3
2024-07-18T1800,2699A,75.9755,39.4694,喀什地区,吾办,,46,34,64,8,16,146,,134,134,8,14,4,4,0.3,0.3
2024-07-18T1800,4027A,75.9483,39.4689,喀什地区,老干局,,46,33,78,7,8,147,,135,135,6,12,3,3,0.2,0.3
2024-07-18T1800,1824A,114.3389,34.7781,开封市,肿瘤医院,,36,27,27,7,11,114,,112,112,3,7,2,2,0.6,0.7
2024-07-18T1800,1826A,114.2885,34.7965,开封市,世纪星幼儿园,,37,34,27,11,14,117,,118,118,1,6,3,3,0.5,0.6
2024-07-18T1800,3147A,114.3438,34.8106,开封市,龙亭公园,,35,34,28,16,12,112,,108,108,7,6,1,1,0.4,0.5
2024-07-18T1800,3210A,114.3644,34.7964,开封市,汴京公园,,36,28,29,12,23,114,,112,112,1,5,2,2,0.6,0.7
2024-07-18T1800,3473A,114.2485,34.8306,开封市,技师学院,,39,20,25,12,12,123,,126,126,3,8,4,4,0.7,1
2024-07-18T1800,3592A,114.4644,34.7556,开封市,祥符区生态环境局,,31,13,21,8,14,97,,98,98,6,7,2,2,0.4,0.5
2024-07-18T1800,1951A,84.895,45.6094,克拉玛依市,长征新村,,39,13,15,3,5,124,,116,116,4,6,9,9,0.2,0.2
2024-07-18T1800,1952A,84.8988,45.5893,克拉玛依市,南林小区,,35,16,17,16,10,112,,118,118,6,6,8,7,0.2,0.1
2024-07-18T1800,1954A,84.905,44.3396,克拉玛依市,独山子区,,45,29,29,21,11,143,,132,132,8,10,17,10,0.5,0.4
2024-07-18T1800,1955A,85.6979,46.098,克拉玛依市,乌尔禾区商贸楼,,36,26,23,3,6,114,,117,117,6,7,6,4,0.3,0.3
2024-07-18T1800,3612A,85.1045,45.6899,克拉玛依市,白碱滩区新站,,39,9,16,3,6,123,,121,121,4,4,8,7,0.2,0.2
2024-07-18T1800,2697A,76.1454,39.7142,克孜勒苏柯尔克孜自治州,市人民政府,颗粒物(PM10),61,72,72,21,22,151,,145,145,2,7,8,10,0.4,0.4
2024-07-18T1800,3665A,76.1658,39.7157,克孜勒苏柯尔克孜自治州,克州文化中心,颗粒物(PM10),52,53,46,18,17,151,,149,147,5,5,11,12,0.5,0.5
2024-07-18T1800,1450A,102.8204,24.8886,昆明市,呈贡新区,,29,6,19,6,11,92,,76,76,6,11,5,6,0.3,0.4
2024-07-18T1800,1452A,102.7252,25.0902,昆明市,龙泉镇,,32,28,18,9,8,100,,84,84,9,12,7,7,0.3,0.4
2024-07-18T1800,1453A,102.7266,25.0375,昆明市,东风东路,,28,12,17,10,8,89,,75,75,9,11,1,2,0.3,0.4
2024-07-18T1800,1454A,102.6742,25.0669,昆明市,金鼎山,,28,14,20,3,7,88,,79,79,8,10,10,11,0.2,0.2
2024-07-18T1800,1455A,102.6644,25.0401,昆明市,碧鸡广场,,28,6,16,3,7,88,,77,77,6,10,2,3,0.2,0.3
2024-07-18T1800,3179A,102.7494,25.0119,昆明市,官渡区博物馆,,30,11,15,6,6,95,,80,80,6,8,6,6,0.3,0.3
2024-07-18T1800,3375A,102.8017,24.8336,昆明市,青年创业园,,29,8,14,8,9,92,,74,74,3,7,7,7,0.3,0.4
2024-07-18T1800,3550A,102.7997,24.9786,昆明市,昆明学院,,31,12,21,7,10,99,,80,80,8,11,4,4,0.3,0.3
2024-07-18T1800,3551A,102.5967,24.6736,昆明市,晋宁区生态环境分局,,26,10,12,7,11,83,,70,70,4,7,4,6,0.4,0.4
2024-07-18T1800,3552A,102.6678,24.9856,昆明市,云天化总部,,28,6,13,3,7,89,,76,76,4,6,5,6,0.4,0.3
2024-07-18T1800,1456A,91.1319,29.6514,拉萨市,八廓街,,25,13,14,8,7,80,,79,79,8,10,6,6,0.2,0.2
2024-07-18T1800,1457A,91.1221,29.6747,拉萨市,市环保局,,28,9,9,3,6,89,,82,82,12,15,10,8,0.1,0.2
2024-07-18T1800,1458A,91.0874,29.6475,拉萨市,区监测站,,26,7,7,3,5,81,,78,78,10,12,7,7,0.3,0.2
2024-07-18T1800,1459A,91.1774,29.6541,拉萨市,西藏大学,,29,,6,8,6,92,,76,76,8,7,10,9,0.3,0.2
2024-07-18T1800,1460A,90.9798,29.6588,拉萨市,区辐射站,,27,,10,7,7,85,,75,75,10,14,8,8,0.2,0.2
2024-07-18T1800,1461A,91.0834,29.6292,拉萨市,拉萨火车站,,27,9,7,6,5,86,,78,78,11,9,9,10,0.1,0.2
2024-07-18T1800,2520A,109.2203,23.7256,来宾市,来宾技工学校,,,,21,10,12,38,,58,57,,7,,8,0.6,0.6
2024-07-18T1800,3535A,109.1781,23.7297,来宾市,兴宾区政府,,14,11,20,3,12,42,,57,57,8,8,18,8,0.8,0.8
2024-07-18T1800,4002A,109.2416,23.7461,来宾市,中南小学,,,,23,9,11,46,,62,62,6,9,5,6,0.6,0.6
2024-07-18T1800,1476A,103.631,36.1031,兰州市,兰炼宾馆,臭氧1小时,64,36,52,24,32,171,,196,196,10,32,9,15,0.3,0.5
2024-07-18T1800,1478A,103.8412,36.0726,兰州市,生物制品所,,40,30,48,15,28,125,,139,139,18,41,10,12,0.4,0.6
2024-07-18T1800,1479A,103.831,36.0464,兰州市,铁路设计院,,41,35,45,12,21,130,,144,144,20,45,6,10,0.4,0.6
2024-07-18T1800,3186A,103.7158,36.1058,兰州市,教育港,颗粒物(PM10),52,53,55,18,25,149,,171,171,9,31,4,8,0.3,0.5
2024-07-18T1800,3241A,103.7439,36.0842,兰州市,百合公园,,42,27,44,10,19,134,,157,157,12,34,1,7,0.5,0.8
2024-07-18T1800,3242A,103.9611,35.998,兰州市,和平,,40,39,46,15,17,128,,134,134,9,16,5,7,0.3,0.5
2024-07-18T1800,3245A,103.6633,36.533,兰州新区,新区管委会,臭氧1小时,84,38,42,19,22,187,,159,159,5,15,10,16,0.4,0.5
2024-07-18T1800,3246A,103.6975,36.4789,兰州新区,舟曲中学,臭氧1小时,89,34,52,15,27,191,,175,175,9,18,6,15,0.4,0.6
2024-07-18T1800,1067A,116.6708,39.5111,廊坊市,药材公司,,42,14,37,10,14,132,,131,131,4,14,2,4,0.2,0.3
2024-07-18T1800,1068A,116.7214,39.5589,廊坊市,开发区,,43,18,34,7,13,135,,130,130,7,15,1,2,0.2,0.3
2024-07-18T1800,1070A,116.7244,39.5269,廊坊市,北华航天学院,,,24,44,3,12,137,,135,135,7,16,1,3,,0.3
2024-07-18T1800,2919A,116.7022,39.5453,廊坊市,河北工业大学,,44,26,45,8,13,139,,132,132,6,15,3,4,0.2,0.3
2024-07-18T1800,2535A,103.7723,29.5462,乐山市,花湖湾,,25,15,12,9,8,80,,65,65,4,6,3,3,0.3,0.3
2024-07-18T1800,2536A,103.7627,29.5844,乐山市,牛耳桥,,31,14,11,13,10,98,,78,78,8,11,2,2,0.4,0.4
2024-07-18T1800,2537A,103.7508,29.6006,乐山市,市第三水厂,,35,16,13,8,5,110,,87,87,10,10,1,2,0.4,0.4
2024-07-18T1800,2538A,103.7571,29.5664,乐山市,市监测站,,31,18,13,13,9,97,,83,83,9,8,2,2,0.4,0.4
2024-07-18T1800,3361A,103.7311,29.5628,乐山市,理工大学,,38,13,11,13,10,119,,92,92,5,7,3,4,0.4,0.4
2024-07-18T1800,2599A,100.2497,26.8802,丽江市,丽江古城,,16,11,19,11,15,39,,38,38,9,15,6,6,0.6,0.6
2024-07-18T1800,2600A,100.2203,26.8906,丽江市,市中心,,18,,14,12,10,42,,39,39,7,12,6,7,0.6,0.6
2024-07-18T1800,1267A,119.914,28.4514,丽水市,监测站大楼,,18,18,16,3,6,57,,83,73,6,9,3,3,0.4,0.5
2024-07-18T1800,1268A,119.93,28.4586,丽水市,莲都小学,,19,9,36,3,11,60,,83,76,4,8,4,4,0.3,0.4
2024-07-18T1800,1269A,119.879,28.4231,丽水市,余庄前,,,11,16,3,10,58,,73,68,,8,3,2,0.3,0.4
2024-07-18T1800,1173A,119.176,34.5885,连云港市,市环境监测站,,28,9,10,3,6,87,,83,83,9,10,5,5,0.4,0.4
2024-07-18T1800,3000A,119.3581,34.6972,连云港市,德源药业,,33,12,11,9,8,103,,96,96,16,14,3,3,0.5,0.5
2024-07-18T1800,3007A,119.178,34.844,连云港市,新城一中,,37,21,17,10,14,116,,105,105,7,10,4,5,0.6,0.7
2024-07-18T1800,3008A,119.3608,34.7519,连云港市,胡沟管理处,,30,12,14,9,8,93,,88,88,10,10,4,4,0.6,0.7
2024-07-18T1800,3009A,119.1478,34.5911,连云港市,矿山设计院,,27,9,11,7,7,84,,80,80,5,6,4,4,0.4,0.5
2024-07-18T1800,3434A,119.2413,34.6539,连云港市,工贸学校,,32,9,11,9,10,101,,94,94,4,6,7,6,0.6,0.6
2024-07-18T1800,3664A,119.4172,34.7341,连云港市,连云街道,,34,12,15,11,12,108,,99,99,4,4,4,4,0.4,0.4
2024-07-18T1800,2571A,102.3431,27.8099,凉山彝族自治州,青龙寺,,20,,21,11,10,61,,57,57,3,8,4,4,0.5,0.5
2024-07-18T1800,2572A,102.2721,27.8415,凉山彝族自治州,邛海宾馆,,22,16,20,11,13,70,,60,60,7,13,13,10,0.5,0.7
2024-07-18T1800,2573A,102.2625,27.898,凉山彝族自治州,西昌市政府,,23,16,20,13,14,71,,59,59,6,12,13,10,0.6,0.7
2024-07-18T1800,2574A,102.2685,27.8851,凉山彝族自治州,凉山州政府,,22,14,21,10,13,70,,61,61,5,16,10,9,0.6,0.8
2024-07-18T1800,2575A,102.237,27.8914,凉山彝族自治州,长安,,22,16,25,10,13,68,,50,50,12,19,6,7,0.8,1
2024-07-18T1800,2212A,123.2,41.1953,辽阳市,宏伟区,臭氧1小时,57,42,39,12,18,165,,162,162,50,16,11,10,0.9,0.9
2024-07-18T1800,2213A,123.1683,41.2495,辽阳市,新华园,臭氧1小时,65,40,48,18,21,172,,158,158,29,24,11,10,1.8,1.2
2024-07-18T1800,2214A,123.2354,41.2639,辽阳市,滨河路,臭氧1小时,88,39,37,13,20,190,,176,176,12,18,14,11,0.7,0.8
2024-07-18T1800,2215A,123.149,41.2991,辽阳市,铁西工业园,,50,26,63,15,28,158,,141,141,51,24,13,9,1.3,1.3
2024-07-18T1800,2227A,125.1358,42.8845,辽源市,环保局,,39,27,22,16,14,124,,132,131,6,9,8,8,0.6,0.6
2024-07-18T1800,3239A,125.0764,42.9078,辽源市,银鹰制药,,39,19,17,17,13,124,,131,131,6,15,5,5,0.8,0.7
2024-07-18T1800,1625A,115.9848,36.4372,聊城市,区政府,,49,23,56,8,32,155,,150,150,9,18,10,12,0.6,0.7
2024-07-18T1800,2878A,116.0072,36.4343,聊城市,聊大东校,,50,14,46,12,34,160,,155,155,11,17,7,9,0.6,0.7
2024-07-18T1800,3200A,115.9819,36.4978,聊城市,监控中心,臭氧1小时,55,20,54,14,29,164,,148,148,8,25,4,3,0.5,0.6
2024-07-18T1800,3513A,116.0445,36.4361,聊城市,九州社区,,47,24,61,3,28,148,,143,143,6,9,6,5,0.5,0.6
2024-07-18T1800,4018A,116.0567,36.4608,聊城市,星美广场,,,35,60,9,27,155,,144,144,7,16,8,9,,0.7
2024-07-18T1800,2632A,94.3681,29.6376,林芝市,林芝监测站,,11,8,8,3,4,35,,30,30,2,3,8,8,0.3,0.4
2024-07-18T1800,2633A,94.3616,29.6616,林芝市,林芝人民医院,,11,7,9,3,6,34,,31,31,5,5,10,9,0.2,0.2
2024-07-18T1800,2603A,100.0781,23.8982,临沧市,市环保局,,24,24,19,13,13,59,,53,53,10,10,5,7,0.2,0.3
2024-07-18T1800,2604A,100.0894,23.8822,临沧市,市气象局,,18,14,16,9,12,57,,49,49,8,9,4,6,0.3,0.3
2024-07-18T1800,1733A,111.5531,36.0783,临汾市,临钢医院,臭氧1小时,106,56,26,20,8,212,,176,176,9,14,7,5,1.4,1
2024-07-18T1800,1734A,111.5028,36.0714,临汾市,技工学校,臭氧1小时,108,45,25,15,9,216,,185,185,12,19,9,7,1.1,0.9
2024-07-18T1800,1736A,111.5018,36.0855,临汾市,市委,臭氧1小时,110,33,18,19,8,220,,191,191,12,16,10,7,1.1,0.9
2024-07-18T1800,3018A,111.505,36.1014,临汾市,唐尧大酒店,臭氧1小时,101,38,22,22,6,202,,177,177,7,13,6,6,1.0,0.8
2024-07-18T1800,3668A,111.5036,36.0414,临汾市,城南,臭氧1小时,108,42,27,22,7,216,,187,187,12,18,8,6,1.4,1.1
2024-07-18T1800,2667A,103.2069,35.5993,临夏回族自治州,环保局,,43,43,43,22,20,107,,124,122,6,10,8,7,0.3,0.3
2024-07-18T1800,2668A,103.2417,35.6057,临夏回族自治州,建设大厦,,36,21,31,17,20,114,,120,120,4,8,12,11,0.3,0.3
2024-07-18T1800,1618A,118.3429,35.0532,临沂市,沂河小区,,35,19,26,10,20,110,,112,112,6,9,10,9,0.4,0.4
2024-07-18T1800,1619A,118.295,35.0583,临沂市,鲁南制药厂,,35,7,20,7,15,111,,110,110,1,7,8,9,0.5,0.6
2024-07-18T1800,1620A,118.2794,34.9976,临沂市,新光毛纺厂,,39,27,21,6,17,124,,116,116,2,9,5,6,0.6,0.7
2024-07-18T1800,1621A,118.3956,35.0888,临沂市,河东保险公司,,34,17,22,3,15,107,,111,111,7,8,7,6,0.4,0.5
2024-07-18T1800,3370A,118.3564,35.0215,临沂市,十里堡居委,,34,,17,7,20,108,,107,107,9,10,6,6,0.6,0.7
2024-07-18T1800,3496A,118.3604,35.1084,临沂市,南坊新区,,37,24,26,9,16,118,,122,122,11,17,7,7,0.8,0.8
2024-07-18T1800,3860A,118.3920,35.0300,临沂市,皇山花园小区,,34,19,22,10,19,108,,109,109,16,16,9,9,0.5,0.5
2024-07-18T1800,1870A,109.4856,24.3895,柳州市,柳东小学,,17,,15,11,11,53,,63,63,6,9,6,9,0.5,0.5
2024-07-18T1800,1871A,109.4157,24.3277,柳州市,环保监测站,,,23,20,,12,52,,66,66,7,7,6,8,0.6,0.5
2024-07-18T1800,1872A,109.389,24.341,柳州市,河西水厂,,18,18,20,3,11,51,,68,68,7,7,7,8,0.5,0.4
2024-07-18T1800,1873A,109.4311,24.2921,柳州市,市四中,,24,24,20,13,14,54,,72,72,8,8,5,6,0.4,0.4
2024-07-18T1800,1874A,109.4006,24.3631,柳州市,市九中,,40,40,26,8,11,55,,69,69,10,9,4,5,0.5,0.4
2024-07-18T1800,1875A,109.4958,24.3134,柳州市,古亭山,,,,19,8,11,54,,65,64,8,10,6,6,0.6,0.6
2024-07-18T1800,3402A,109.5422,24.3996,柳州市,市二中,,33,33,16,3,5,55,,66,66,8,10,5,7,0.3,0.3
2024-07-18T1800,2307A,116.5079,31.737,六安市,监测大楼,,26,19,17,10,11,83,,77,77,12,9,6,6,0.4,0.3
2024-07-18T1800,2308A,116.4738,31.7643,六安市,皖西学院,,32,22,26,8,10,101,,85,85,4,8,5,4,0.2,0.2
2024-07-18T1800,2309A,116.4996,31.7905,六安市,朝阳厂,,28,18,20,9,11,88,,73,73,2,6,8,8,0.2,0.2
2024-07-18T1800,2310A,116.5567,31.7886,六安市,开发区,,28,11,31,11,17,87,,74,74,8,9,9,7,0.3,0.4
2024-07-18T1800,2577A,104.83,26.5917,六盘水市,黄土坡,,27,26,13,8,8,86,,74,74,6,6,6,4,0.3,0.2
2024-07-18T1800,2578A,104.89,26.5939,六盘水市,水钢,,28,11,17,3,5,89,,76,76,3,3,10,8,0.2,0.2
2024-07-18T1800,2579A,104.8475,26.5894,六盘水市,民中,,29,17,15,12,7,90,,75,75,6,6,7,6,0.3,0.3
2024-07-18T1800,2580A,104.9544,26.5506,六盘水市,双水,,27,17,14,3,7,85,,77,77,5,4,6,6,0.2,0.2
2024-07-18T1800,2336A,117.0217,25.1033,龙岩市,龙岩市监测站,,13,,20,9,13,28,,51,48,19,15,4,6,0.4,0.4
2024-07-18T1800,2337A,117.0258,25.0661,龙岩市,闽西职业技术学院,,27,27,24,6,10,14,,46,42,25,16,18,10,0.4,0.4
2024-07-18T1800,2338A,117.0196,25.0306,龙岩市,龙岩学院,,25,24,13,17,7,14,,46,43,22,8,10,5,0.4,0.3
2024-07-18T1800,2885A,104.9339,33.3826,陇南市,滨江中学,,28,28,34,6,8,81,,84,84,6,12,4,4,0.4,0.5
2024-07-18T1800,3247A,104.955,33.371,陇南市,市总工会,,26,22,27,8,10,83,,88,88,3,9,3,4,0.4,0.4
2024-07-18T1800,2487A,111.9589,27.8901,娄底市,电视发射台,,23,21,22,6,8,71,,82,81,4,5,6,7,0.5,0.4
2024-07-18T1800,2488A,111.9975,27.725,娄底市,市监测站,,36,36,18,11,11,69,,78,77,4,4,6,8,0.5,0.5
2024-07-18T1800,2489A,112.0194,27.7314,娄底市,市委党校,,20,17,20,3,11,61,,68,67,7,9,8,10,0.6,0.6
2024-07-18T1800,2490A,111.9561,27.7569,娄底市,涟钢,,30,30,33,12,15,44,,53,52,27,38,28,20,0.9,1
2024-07-18T1800,2491A,111.9892,27.7044,娄底市,市政府,,22,11,14,6,11,69,,78,76,4,5,5,6,0.3,0.4
2024-07-18T1800,1893A,105.4324,28.9634,泸州市,九狮山,,30,20,24,3,18,95,,81,81,11,13,5,4,0.4,0.4
2024-07-18T1800,1894A,105.4427,28.9063,泸州市,小市上码头,,28,17,27,3,14,89,,80,80,6,9,4,4,0.2,0.3
2024-07-18T1800,1895A,105.4241,28.8573,泸州市,兰田宪桥,,28,13,24,13,20,89,,83,83,7,8,3,3,0.4,0.4
2024-07-18T1800,1896A,105.4379,28.8833,泸州市,市环监站,,28,12,29,7,20,87,,79,79,6,7,7,7,0.6,0.5
2024-07-18T1800,3490A,105.3617,28.7703,泸州市,纳溪区环保局,,27,18,25,9,19,86,,91,91,6,10,2,2,0.4,0.4
2024-07-18T1800,2183A,111.1406,37.5211,吕梁市,环保局,臭氧1小时,68,33,52,3,23,174,,176,176,8,22,3,3,0.4,0.7
2024-07-18T1800,2185A,111.1297,37.5136,吕梁市,自来水公司,臭氧1小时,63,20,41,6,21,170,,171,171,10,21,3,4,0.3,0.6
2024-07-18T1800,2867A,111.1283,37.51,吕梁市,马茂庄小学,臭氧1小时,72,33,51,6,25,177,,180,180,10,30,1,2,0.2,0.6
2024-07-18T1800,1812A,112.3931,34.6516,洛阳市,市委党校,,40,9,12,9,11,126,,114,114,2,10,2,2,0.5,0.6
2024-07-18T1800,1814A,112.4657,34.6871,洛阳市,豫西宾馆,颗粒物(PM10),60,70,22,9,10,137,,131,131,3,11,1,3,0.3,0.4
2024-07-18T1800,1815A,112.494,34.6886,洛阳市,河南林校,,40,,8,3,6,126,,124,124,7,13,3,3,0.4,0.5
2024-07-18T1800,1816A,112.3844,34.623,洛阳市,开发区管委会,,36,7,10,6,5,113,,106,106,2,7,2,2,0.3,0.4
2024-07-18T1800,1817A,112.4267,34.6258,洛阳市,市委新办公区,,40,,10,10,8,126,,119,119,2,6,6,5,0.4,0.5
2024-07-18T1800,3340A,112.6005,34.6326,洛阳市,伊滨,,38,32,15,6,10,120,,122,122,6,10,4,4,0.3,0.5
2024-07-18T1800,3341A,112.4951,34.6332,洛阳市,中移产业园,,39,10,11,3,8,122,,120,120,2,5,2,3,0.5,0.6
2024-07-18T1800,3593A,112.5736,34.8993,洛阳市,吉利监测站,臭氧1小时,53,18,13,8,2,162,,126,126,2,3,3,3,0.7,0.7
2024-07-18T1800,3635A,112.3677,34.662,洛阳市,河科大西苑校区,,39,,8,6,6,123,,115,115,2,7,3,4,0.5,0.6
2024-07-18T1800,3636A,112.4388,34.6781,洛阳市,英才小学,,42,6,14,3,12,132,,123,123,2,8,1,3,0.5,0.6
2024-07-18T1800,2399A,114.051,33.5699,漯河市,三五一五工厂,,24,,6,6,7,75,,75,75,4,8,6,6,0.5,0.5
2024-07-18T1800,2400A,114.0055,33.5698,漯河市,漯河大学,,24,7,7,7,4,76,,78,78,3,5,9,9,0.3,0.6
2024-07-18T1800,2401A,114.0138,33.5828,漯河市,市水利局,,22,7,5,3,2,70,,73,73,4,6,7,7,0.3,0.4
2024-07-18T1800,2402A,114.0261,33.5698,漯河市,市广电局,,23,,3,7,8,73,,75,75,2,4,3,3,0.5,0.5
2024-07-18T1800,3478A,113.9749,33.5664,漯河市,市图书馆,,24,16,9,8,6,74,,78,78,2,2,4,4,0.3,0.4
2024-07-18T1800,1798A,118.5092,31.6837,马鞍山市,湖东路四小,,32,24,29,12,11,102,,110,110,7,14,5,7,0.5,0.6
2024-07-18T1800,1799A,118.5024,31.6449,马鞍山市,开发区,,30,30,32,14,13,89,,103,103,19,24,3,9,0.6,0.3
2024-07-18T1800,1800A,118.5228,31.7231,马鞍山市,慈湖,,32,25,24,16,14,101,,109,109,14,20,5,5,0.5,0.6
2024-07-18T1800,1802A,118.6245,31.7241,马鞍山市,濮塘,,30,23,25,11,16,95,,102,102,15,19,4,4,0.6,0.8
2024-07-18T1800,3633A,118.4918,31.6809,马鞍山市,雨山,,31,22,26,12,11,97,,104,104,7,18,6,7,0.7,0.8
2024-07-18T1800,1686A,111.0286,21.4688,茂名市,电白南海,,22,22,17,12,7,36,,40,40,4,4,5,5,0.4,0.3
2024-07-18T1800,1687A,110.9294,21.6533,茂名市,茂石化七小,,,12,9,7,9,39,,40,40,3,3,9,9,,0.4
2024-07-18T1800,1688A,110.9107,21.6687,茂名市,健康路,,14,14,10,3,4,32,,45,44,5,3,9,9,0.4,0.4
2024-07-18T1800,1689A,110.8592,21.6828,茂名市,高岭,,13,12,12,7,10,40,,42,42,12,11,10,13,0.5,0.5
2024-07-18T1800,3450A,111.01,21.5165,茂名市,电白水东,,14,12,10,3,6,42,,47,45,6,5,3,4,0.5,0.5
2024-07-18T1800,2539A,104.0308,30.0478,眉山市,黑龙滩水库,,22,22,22,15,21,62,,42,42,2,5,1,6,0.2,0.5
2024-07-18T1800,2540A,103.8416,30.0874,眉山市,气象局,,33,,10,7,10,103,,80,80,5,11,6,6,0.3,0.4
2024-07-18T1800,3137A,103.8578,30.0744,眉山市,市委党校,,34,7,9,3,3,106,,83,83,3,10,5,5,0.5,0.5
2024-07-18T1800,3148A,103.8291,30.0564,眉山市,区人社局,,32,12,16,3,5,102,,84,84,12,14,5,8,0.2,0.4
2024-07-18T1800,1690A,116.1231,24.3284,梅州市,梅江月梅,,25,25,18,8,7,54,,58,58,5,6,8,9,0.5,0.4
2024-07-18T1800,1691A,116.0797,24.2719,梅州市,梅县新城,,18,16,17,3,8,55,,62,62,11,10,4,4,0.6,0.5
2024-07-18T1800,1692A,116.1248,24.2654,梅州市,环境监控中心,,26,26,18,9,8,22,,54,51,25,13,4,6,0.6,0.4
2024-07-18T1800,3315A,116.1233,24.2991,梅州市,梅龙,,19,19,12,13,7,59,,62,62,10,6,8,8,0.6,0.4
2024-07-18T1800,1878A,104.7778,31.4741,绵阳市,富乐山,,,16,15,15,10,62,,60,60,2,4,,7,0.4,0.4
2024-07-18T1800,1879A,104.7563,31.4535,绵阳市,市人大,,21,17,14,12,13,65,,63,63,6,12,7,7,0.3,0.4
2024-07-18T1800,1880A,104.6697,31.4668,绵阳市,高新区自来水公司,,21,19,19,7,8,65,,69,69,8,12,6,6,0.3,0.3
2024-07-18T1800,1881A,104.7287,31.5075,绵阳市,三水厂,,20,,14,14,14,58,,65,65,11,13,7,6,0.3,0.4
2024-07-18T1800,3491A,104.69,31.5322,绵阳市,西科大附属小学,,17,17,20,11,12,51,,48,48,5,13,6,6,0.4,0.4
2024-07-18T1800,3492A,104.5648,31.5343,绵阳市,安州区旅游局,,25,,8,12,13,78,,67,67,6,9,6,7,0.2,0.3
2024-07-18T1800,1784A,129.61,44.561,牡丹江市,环保大楼,,30,16,15,13,12,95,,100,100,10,8,7,7,0.4,0.3
2024-07-18T1800,1785A,129.6115,44.5782,牡丹江市,文化广场,,46,,20,32,25,90,,91,91,11,11,6,6,0.5,0.5
2024-07-18T1800,1786A,129.5904,44.5963,牡丹江市,第一医院,,28,22,17,19,18,88,,99,99,9,10,4,4,0.4,0.4
2024-07-18T1800,1787A,129.6364,44.6075,牡丹江市,机车工厂,,29,27,26,11,22,91,,97,97,8,11,4,3,0.4,0.5
2024-07-18T1800,1788A,129.6386,44.5462,牡丹江市,第一中学,,30,,17,12,10,95,,93,93,10,13,4,4,0.4,0.3
2024-07-18T1800,2531A,105.0703,29.61,内江市,市监测站,,30,,17,15,17,94,,65,65,9,8,10,9,0.3,0.3
2024-07-18T1800,2532A,105.0717,29.5947,内江市,东兴区政府,,27,22,21,11,6,86,,67,67,11,10,9,9,0.5,0.4
2024-07-18T1800,2533A,105.0653,29.5817,内江市,内江二中,,32,15,17,7,10,100,,69,69,8,11,10,9,0.5,0.5
2024-07-18T1800,2534A,105.0406,29.5822,内江市,内江日报社,,28,,13,15,14,88,,68,68,4,8,7,7,0.6,0.5
2024-07-18T1800,2628A,92.0657,31.4846,那曲市,那曲监测站,,18,9,21,3,9,56,,70,65,10,7,7,6,0.5,0.5
2024-07-18T1800,3128A,92.0506,31.4797,那曲市,那曲会议中心,,34,34,19,21,8,59,,76,71,16,9,5,4,0.5,0.4
2024-07-18T1800,1290A,115.8931,28.6843,南昌市,省外办,,34,34,29,12,11,74,,80,80,9,11,7,9,0.3,0.3
2024-07-18T1800,1291A,115.8886,28.7003,南昌市,省林业公司,,23,19,22,9,10,73,,82,82,10,13,6,10,0.3,0.4
2024-07-18T1800,1292A,115.8126,28.7442,南昌市,林科所,,29,22,17,3,6,90,,94,94,8,20,8,9,0.4,0.4
2024-07-18T1800,1294A,115.8518,28.687,南昌市,建工学校,,24,12,21,11,6,74,,86,86,4,9,7,13,0.2,0.3
2024-07-18T1800,1295A,115.8921,28.6424,南昌市,象湖,,26,13,17,6,7,81,,86,86,3,7,5,8,0.4,0.4
2024-07-18T1800,1296A,115.7423,28.7996,南昌市,武术学校,,25,,13,12,11,78,,77,77,3,5,6,6,0.4,0.4
2024-07-18T1800,1298A,115.9314,28.6842,南昌市,省站,,23,20,24,8,11,72,,78,78,15,15,7,10,0.4,0.4
2024-07-18T1800,3046A,115.9084,28.6062,南昌市,机电学校,,26,26,27,7,7,74,,80,80,6,9,8,11,0.3,0.4
2024-07-18T1800,3690A,115.9721,28.7031,南昌市,外国语学校,,25,25,24,7,8,75,,80,80,7,9,3,6,0.4,0.3
2024-07-18T1800,1905A,106.056,30.8064,南充市,西山风景区,,30,23,31,21,12,60,,41,41,8,4,5,5,0.5,0.4
2024-07-18T1800,1906A,106.0789,30.8023,南充市,南充市委,,36,36,22,20,13,100,,70,70,13,10,5,5,0.4,0.3
2024-07-18T1800,1907A,106.1031,30.8217,南充市,南充炼油厂,,29,25,26,16,14,92,,64,64,9,7,4,4,0.2,0.1
2024-07-18T1800,1908A,106.1064,30.7856,南充市,高坪区监测站,,35,35,24,24,12,80,,58,58,14,10,3,5,0.2,0.1
2024-07-18T1800,1909A,106.0642,30.7636,南充市,嘉陵区环保局,,30,23,19,19,14,95,,65,65,13,9,3,3,0.3,0.2
2024-07-18T1800,1910A,106.1087,30.8388,南充市,市环境监测站,,28,27,22,16,13,87,,62,62,11,7,3,3,0.5,0.4
2024-07-18T1800,1151A,118.8086,32.1065,南京市,迈皋桥,,,22,16,3,6,48,,,,,,9,9,0.4,0.3
2024-07-18T1800,1152A,118.7538,32.0551,南京市,草场门,,29,27,23,12,11,91,,95,95,19,21,5,11,0.5,0.7
2024-07-18T1800,1153A,118.7794,32.0745,南京市,山西路,,32,22,25,9,10,100,,100,100,10,14,4,6,0.4,0.6
2024-07-18T1800,1154A,118.7752,32.0023,南京市,中华门,,28,27,21,7,11,87,,94,94,12,17,7,8,0.6,0.7
2024-07-18T1800,1155A,118.8109,32.0309,南京市,瑞金路,,30,24,25,9,12,94,,100,100,7,14,1,6,0.4,0.5
2024-07-18T1800,1156A,118.7997,32.0754,南京市,玄武湖,,27,27,28,7,7,82,,84,84,10,13,3,3,0.6,0.6
2024-07-18T1800,1157A,118.6414,32.0931,南京市,浦口,,26,22,23,7,9,81,,82,82,6,8,4,6,0.5,0.6
2024-07-18T1800,1158A,118.7356,31.9996,南京市,奥体中心,,31,31,27,17,14,91,,92,92,16,22,12,12,0.6,0.6
2024-07-18T1800,1159A,118.9125,32.1028,南京市,仙林大学城,,33,24,25,7,11,104,,107,107,13,18,10,12,0.7,0.6
2024-07-18T1800,3422A,118.8436,31.9198,南京市,江宁彩虹桥,颗粒物(PM10),54,58,33,9,11,96,,112,112,5,14,3,4,0.4,0.5
2024-07-18T1800,3423A,119.0138,31.6494,南京市,溧水永阳,,29,17,16,7,10,90,,107,105,8,7,4,4,0.3,0.4
2024-07-18T1800,3424A,118.879,31.3302,南京市,高淳老职中,,30,30,18,10,11,69,,81,81,6,6,4,4,0.3,0.4
2024-07-18T1800,3427A,118.8554,32.3578,南京市,六合雄州,,21,21,17,13,9,52,,68,68,2,5,1,2,0.5,0.5
2024-07-18T1800,1401A,108.3103,22.7881,南宁市,二十一中,,,,15,8,8,46,,54,53,6,8,2,3,0.6,0.6
2024-07-18T1800,1402A,108.3141,22.8528,南宁市,北湖,,14,10,16,6,8,44,,55,55,10,9,2,3,0.7,0.6
2024-07-18T1800,1403A,108.3206,22.8225,南宁市,市监测站,,15,,15,3,7,45,,53,53,9,11,3,4,0.4,0.4
2024-07-18T1800,1404A,108.3829,22.8037,南宁市,大自然花园,,14,14,15,8,9,44,,52,52,9,9,4,4,0.6,0.6
2024-07-18T1800,1405A,108.4394,22.7904,南宁市,仙葫,,18,12,14,6,8,55,,62,62,10,15,1,1,0.3,0.3
2024-07-18T1800,1406A,108.2397,22.8467,南宁市,区农职院,,16,16,15,8,8,44,,54,54,8,7,2,3,0.5,0.5
2024-07-18T1800,1407A,108.3275,22.735,南宁市,英华嘉园,,14,,15,8,7,42,,50,50,10,10,5,5,0.6,0.5
2024-07-18T1800,1408A,108.2257,22.7757,南宁市,沙井镇街道办,,19,19,17,3,8,36,,52,51,18,14,2,2,0.4,0.4
2024-07-18T1800,3401A,108.4834,22.7618,南宁市,红星社区,,,,17,2,7,44,,54,54,7,8,5,5,0.5,0.5
2024-07-18T1800,2332A,118.1681,26.6369,南平市,南平市监测站,,27,9,12,8,8,85,,80,80,5,11,5,4,0.5,0.5
2024-07-18T1800,2333A,118.1825,26.6489,南平市,南平铝业有限公司,,25,21,19,8,7,77,,80,80,9,10,7,5,0.7,0.6
2024-07-18T1800,2334A,118.1756,26.6272,南平市,南平七中,,28,22,17,9,9,89,,85,85,4,9,6,5,0.6,0.5
2024-07-18T1800,1168A,120.9098,31.9663,南通市,狼山街道,,25,9,32,3,17,77,,100,98,5,25,5,7,0.3,0.4
2024-07-18T1800,1169A,120.86,32.0005,南通市,虹桥,,23,7,34,3,17,72,,106,104,6,31,4,6,0.5,0.6
2024-07-18T1800,1170A,120.87,32.02,南通市,城中,,24,13,40,3,16,76,,111,108,7,30,5,7,0.5,0.7
2024-07-18T1800,1171A,120.94,31.93,南通市,星湖花园,,26,6,28,3,14,81,,110,108,10,31,4,7,0.4,0.5
2024-07-18T1800,1172A,120.81,32.0417,南通市,紫琅学院,,,6,28,3,9,70,,110,110,,45,5,7,,0.6
2024-07-18T1800,3291A,121.067,32.062,南通市,通州监测站,,21,12,44,3,20,67,,99,98,3,19,2,5,0.7,0.9
2024-07-18T1800,3432A,120.9348,31.9883,南通市,环境教育馆,,26,12,41,3,19,81,,122,112,7,29,7,9,0.4,0.5
2024-07-18T1800,2404A,112.5224,33.0122,南阳市,瓦房庄,,21,8,14,3,10,67,,62,62,10,9,3,3,0.5,0.6
2024-07-18T1800,2405A,112.5003,32.9735,南阳市,汉画馆,,20,8,17,3,6,63,,54,54,8,9,3,3,0.4,0.5
2024-07-18T1800,2406A,112.5573,33.027,南阳市,气象站,,24,8,11,3,6,76,,68,68,6,7,3,3,0.5,0.5
2024-07-18T1800,4008A,112.5234,32.9922,南阳市,卧龙区政府,,21,9,14,8,11,67,,60,60,8,10,1,2,0.6,0.6
2024-07-18T1800,1234A,121.8358,29.911,宁波市,区环保大楼,,26,26,37,14,15,81,,109,108,12,14,5,7,0.5,0.6
2024-07-18T1800,1235A,121.56,29.82,宁波市,万里学院,,32,32,33,13,20,83,,108,104,14,14,7,6,0.6,0.6
2024-07-18T1800,1236A,121.713,29.9572,宁波市,龙赛医院,,27,24,28,9,15,86,,126,123,12,14,6,7,0.4,0.5
2024-07-18T1800,1239A,121.633,29.7733,宁波市,钱湖水厂,,26,15,22,9,16,83,,114,112,11,8,6,6,0.6,0.6
2024-07-18T1800,1240A,121.5856,29.8635,宁波市,太古小学,,,19,33,17,16,95,,111,110,,13,5,7,0.7,0.7
2024-07-18T1800,1241A,121.524,29.8674,宁波市,市环境监测中心,,29,26,31,20,14,89,,102,102,14,15,2,4,0.6,0.6
2024-07-18T1800,2871A,121.6147,29.9017,宁波市,万里国际学校,,32,25,25,14,15,100,,119,117,8,14,4,7,0.2,0.3
2024-07-18T1800,3710A,121.5594,29.8975,宁波市,白沙活动中心,,30,25,28,10,14,94,,109,108,9,12,4,6,0.2,0.2
2024-07-18T1800,2341A,119.5388,26.6612,宁德市,宁德市监测站,,47,47,33,19,14,123,,117,117,15,15,9,8,1.1,0.8
2024-07-18T1800,3209A,119.5231,26.6562,宁德市,宁德一中,,45,45,33,8,13,133,,121,121,10,11,8,7,0.9,0.7
2024-07-18T1800,2618A,98.8601,25.8567,怒江傈僳族自治州,州监测站,,25,25,27,17,12,64,,56,56,5,8,7,7,0.5,0.5
2024-07-18T1800,2619A,98.8546,25.8417,怒江傈僳族自治州,泸水一中,,,19,21,9,8,60,,52,52,14,11,,5,0.5,0.5
2024-07-18T1800,1888A,101.6891,26.571,攀枝花市,弄弄坪,颗粒物(PM10),52,54,61,17,20,70,,72,72,29,33,44,17,2.8,1
2024-07-18T1800,1889A,101.5769,26.5928,攀枝花市,河门口,,23,19,30,11,17,71,,77,77,8,19,5,11,0.5,0.9
2024-07-18T1800,1890A,101.7169,26.585,攀枝花市,炳草岗,,46,46,48,18,16,73,,84,84,32,25,16,14,1.3,0.8
2024-07-18T1800,1891A,101.7369,26.5008,攀枝花市,仁和,,38,38,25,13,12,99,,77,77,20,15,15,8,0.9,0.4
2024-07-18T1800,2835A,101.7227,26.567,攀枝花市,四十中小,,40,40,36,26,16,98,,92,92,24,20,15,18,1.3,0.6
2024-07-18T1800,1604A,122.0303,41.1489,盘锦市,开发区,臭氧1小时,74,59,36,25,24,179,,143,143,13,13,5,5,1.1,0.8
2024-07-18T1800,1605A,122.0485,41.0883,盘锦市,兴隆台,臭氧1小时,73,55,33,22,20,178,,144,144,16,17,1,2,0.8,0.6
2024-07-18T1800,1606A,121.8297,41.1028,盘锦市,新生街道,臭氧1小时,68,47,31,27,20,174,,146,146,42,12,2,2,0.7,0.5
2024-07-18T1800,1832A,113.3257,33.742,平顶山市,新华旅馆,,25,16,16,7,17,78,,83,83,2,9,1,2,0.4,0.6
2024-07-18T1800,1833A,113.2919,33.737,平顶山市,规划设计院,,24,15,15,11,8,74,,81,81,7,11,4,4,0.5,0.6
2024-07-18T1800,1834A,113.182,33.774,平顶山市,平顶山工学院,,24,10,13,3,5,76,,84,84,2,6,6,6,0.6,0.8
2024-07-18T1800,3204A,113.3025,33.73,平顶山市,规划局,,21,7,9,7,9,66,,73,73,5,10,1,2,0.6,0.8
2024-07-18T1800,3594A,112.8867,33.9116,平顶山市,石龙区,,22,,22,13,13,70,,91,91,3,9,6,6,0.3,0.4
2024-07-18T1800,2656A,106.6692,35.5461,平凉市,聚贤嘉苑,,34,24,32,12,15,108,,100,100,12,26,8,9,0.4,0.5
2024-07-18T1800,2657A,106.7021,35.5307,平凉市,博物馆,,34,26,36,6,12,108,,102,102,13,29,7,5,0.5,0.6
2024-07-18T1800,2347A,114.0997,27.5002,萍乡市,武功山,,19,6,4,3,3,58,,52,52,2,4,12,12,0.3,0.2
2024-07-18T1800,2348A,113.8385,27.6434,萍乡市,中医院,,26,8,14,6,8,83,,72,72,3,4,5,7,0.6,0.6
2024-07-18T1800,2349A,113.8493,27.6253,萍乡市,市政府车库,,25,17,14,16,13,78,,67,67,3,5,10,12,0.4,0.4
2024-07-18T1800,2350A,113.8676,27.6435,萍乡市,市环保局,,26,7,15,3,8,81,,70,70,2,3,9,11,0.4,0.3
2024-07-18T1800,2351A,113.866,27.6198,萍乡市,安源区政府,,25,19,19,3,4,79,,65,65,3,7,8,10,0.2,0.3
2024-07-18T1800,2319A,119.0141,25.4325,莆田市,荔城区仓后路,,41,41,26,13,7,73,,87,87,12,10,7,6,0.4,0.4
2024-07-18T1800,2320A,119.0015,25.4553,莆田市,莆田市监测站,,42,42,19,3,6,77,,83,83,9,7,6,6,0.5,0.4
2024-07-18T1800,2321A,119.1119,25.4561,莆田市,涵江区六中,,34,34,24,11,6,66,,90,90,11,10,8,7,0.6,0.6
2024-07-18T1800,2322A,119.1013,25.3215,莆田市,秀屿区政府,,28,28,19,3,5,56,,85,84,8,9,10,8,0.7,0.6
2024-07-18T1800,2392A,115.0312,35.7636,濮阳市,环保局,,39,28,35,10,32,122,,115,115,8,13,6,6,0.5,0.9
2024-07-18T1800,2394A,115.0574,35.7609,濮阳市,油田运输公司,,40,24,48,10,35,125,,122,122,9,14,4,4,0.6,1
2024-07-18T1800,3021A,115,35.7668,濮阳市,濮水河管理处,,38,26,32,18,33,120,,112,112,5,11,5,5,0.6,0.9
2024-07-18T1800,2601A,100.98,22.7633,普洱市,市环保局,,22,12,15,10,14,70,,56,56,7,6,5,5,0.4,0.4
2024-07-18T1800,2602A,100.9817,22.8322,普洱市,普洱第二中学,,20,12,17,8,12,64,,55,55,6,10,3,3,0.5,0.7
2024-07-18T1800,2262A,131.0518,45.8751,七台河市,新一中,,35,19,14,10,7,111,,103,103,7,8,10,10,0.6,0.6
2024-07-18T1800,3345A,131.0577,45.7879,七台河市,中波台,,24,,7,8,7,74,,75,75,10,11,6,8,0.2,0.2
2024-07-18T1800,3637A,131.0176,45.7761,七台河市,人民广场,,24,22,20,7,6,74,,79,79,12,8,9,9,0.4,0.3
2024-07-18T1800,3684A,130.8781,45.8222,七台河市,新建矿广场,,39,,36,27,31,85,,88,88,15,15,8,7,0.3,0.1
2024-07-18T1800,1779A,123.9305,47.3636,齐齐哈尔市,安居小区,,47,47,34,26,27,89,,103,102,19,13,12,10,0.5,0.6
2024-07-18T1800,1780A,123.9488,47.3386,齐齐哈尔市,中心广场,,50,50,32,22,15,92,,104,102,12,10,3,8,0.4,0.5
2024-07-18T1800,1781A,123.9483,47.3227,齐齐哈尔市,农牧车辆厂,颗粒物(PM10),54,58,38,23,17,89,,98,98,10,10,8,8,0.3,0.4
2024-07-18T1800,1783A,123.945,47.2988,齐齐哈尔市,市环境监测站,,44,44,30,26,22,98,,103,103,8,8,6,6,0.4,0.5
2024-07-18T1800,3662A,123.6333,47.2075,齐齐哈尔市,富区青少年活动中心,,46,46,53,21,31,102,,96,96,14,23,10,25,1.0,1.6
2024-07-18T1800,2591A,107.9783,26.5747,黔东南苗族侗族自治州,市环境监测站,,15,7,10,3,8,48,,61,49,8,6,3,3,0.5,0.4
2024-07-18T1800,2881A,107.8908,26.5311,黔东南苗族侗族自治州,凯里学院,,15,,6,7,7,47,,55,46,3,3,4,4,0.4,0.4
2024-07-18T1800,2593A,107.5228,26.2403,黔南布依族苗族自治州,小围寨,,17,6,4,3,1,54,,54,52,2,2,4,5,0.4,0.4
2024-07-18T1800,3538A,107.5175,26.2978,黔南布依族苗族自治州,沙坝,,16,6,5,3,2,49,,53,52,2,3,2,4,0.4,0.4
2024-07-18T1800,2589A,104.9022,25.0925,黔西南布依族苗族自治州,场坝街,,19,15,13,7,7,60,,58,58,3,4,3,4,0.2,0.2
2024-07-18T1800,2590A,104.8811,25.0992,黔西南布依族苗族自治州,坪东大道,,19,10,12,8,6,60,,56,56,2,3,4,4,0.2,0.2
2024-07-18T1800,2502A,108.6236,21.9667,钦州市,市环保站,,20,14,13,7,4,63,,61,61,8,8,6,6,0.5,0.5
2024-07-18T1800,2503A,108.6549,21.9481,钦州市,沙埠小学,,21,21,15,8,5,66,,64,64,7,7,5,4,0.6,0.5
2024-07-18T1800,2504A,108.5989,21.7431,钦州市,港区一小,,25,24,22,17,10,56,,61,60,10,11,8,8,0.5,0.4
2024-07-18T1800,3404A,108.5959,21.9633,钦州市,北职校,,25,25,17,6,6,62,,62,62,6,6,8,8,0.6,0.6
2024-07-18T1800,1042A,119.5134,39.8207,秦皇岛市,北戴河环保局,臭氧1小时,125,76,65,23,17,250,,240,240,13,20,7,10,0.7,1
2024-07-18T1800,1043A,119.7493,40.0116,秦皇岛市,第一关,臭氧1小时,121,90,57,30,19,241,,226,226,18,33,4,6,0.7,0.8
2024-07-18T1800,1044A,119.5897,39.9499,秦皇岛市,监测站,臭氧1小时,116,53,47,20,17,232,,194,194,20,33,7,12,0.8,1
2024-07-18T1800,1046A,119.5251,39.9041,秦皇岛市,建设大厦,臭氧1小时,104,41,46,7,12,207,,187,187,12,22,3,8,0.4,0.7
2024-07-18T1800,3132A,119.610547,39.943889,秦皇岛市,文明里,臭氧1小时,120,77,51,24,18,240,,205,205,16,19,4,8,0.6,0.9
2024-07-18T1800,1307A,120.6659,36.2403,青岛市,仰口,细颗粒物(PM2.5),55,51,22,39,18,154,,167,167,8,7,4,4,0.4,0.2
2024-07-18T1800,1310A,120.4134,36.0658,青岛市,市南区东部子站,,43,24,24,24,11,136,,148,148,15,15,8,9,0.6,0.5
2024-07-18T1800,1311A,120.3664,36.1032,青岛市,四方区子站,,44,31,27,24,18,140,,167,167,14,18,11,11,0.8,0.7
2024-07-18T1800,1312A,120.2994,36.054,青岛市,市南区西部子站,,37,36,28,17,11,117,,117,117,22,27,8,8,0.7,0.7
2024-07-18T1800,1313A,120.4581,36.0858,青岛市,崂山区子站,,42,34,26,24,14,133,,146,146,17,18,9,8,0.7,0.6
2024-07-18T1800,1314A,120.1983,35.9608,青岛市,黄岛区子站,,44,29,25,22,17,138,,152,152,16,19,7,8,0.7,0.6
2024-07-18T1800,1315A,120.3999,36.3083,青岛市,城阳区子站,臭氧1小时,62,46,28,32,19,169,,198,198,22,23,7,8,1.0,0.8
2024-07-18T1800,1966A,120.0405,35.8735,青岛市,黄岛区4号,,43,34,22,24,17,135,,148,148,24,17,8,8,0.9,0.7
2024-07-18T1800,3362A,120.5014,36.4034,青岛市,即墨2号,臭氧1小时,94,71,32,40,21,195,,203,203,20,20,7,6,0.9,0.6
2024-07-18T1800,3642A,120.3503,36.0736,青岛市,市北区南部,,43,34,23,22,17,136,,148,148,10,16,4,4,0.7,0.7
2024-07-18T1800,3643A,120.3948,36.1805,青岛市,李沧区北部,,50,44,27,31,22,159,,184,184,20,24,11,11,0.7,0.5
2024-07-18T1800,1702A,113.0426,23.691,清远市,环保大楼,,15,11,14,7,9,48,,54,54,10,17,6,6,0.6,0.6
2024-07-18T1800,1703A,113.0208,23.7106,清远市,凤城街办,,17,17,21,10,8,47,,54,54,11,16,4,4,0.4,0.3
2024-07-18T1800,3025A,113.0477,23.6344,清远市,技师学院,,20,16,24,8,10,64,,64,64,12,22,5,6,0.4,0.4
2024-07-18T1800,3318A,112.9903,23.7403,清远市,清新太和,,32,32,23,10,9,33,,51,50,13,12,8,8,0.5,0.4
2024-07-18T1800,3455A,113.076,23.7198,清远市,清城东城,,,16,13,9,6,44,,54,54,4,12,,5,0.4,0.5
2024-07-18T1800,2661A,107.6325,35.7357,庆阳市,庆阳五中,,48,27,21,13,9,151,,122,122,7,7,4,4,0.4,0.4
2024-07-18T1800,2662A,107.6364,35.7067,庆阳市,市环保局,,47,25,19,9,7,149,,120,120,5,6,3,4,0.5,0.5
2024-07-18T1800,1916A,103.7897,25.5035,曲靖市,环境监测站,,28,25,21,3,9,88,,71,71,8,10,5,6,0.4,0.4
2024-07-18T1800,1917A,103.8,25.5364,曲靖市,烟厂办公区,,30,14,17,9,9,93,,76,76,7,10,5,5,0.1,0.2
2024-07-18T1800,3376A,103.7947,25.462,曲靖市,南苑二区,,29,9,17,3,8,90,,75,75,6,9,5,8,0.4,0.5
2024-07-18T1800,3377A,103.7444,25.5261,曲靖市,曲靖师范学院,,29,16,15,6,9,90,,75,75,4,8,5,6,0.4,0.4
2024-07-18T1800,1264A,118.8692,28.9398,衢州市,环保大楼,,23,13,27,3,13,73,,85,84,7,15,4,3,0.5,0.5
2024-07-18T1800,1265A,118.8709,28.9666,衢州市,实验学校,,21,17,30,6,14,65,,81,80,6,15,4,5,0.3,0.5
2024-07-18T1800,1266A,118.8621,28.9808,衢州市,衢州学院,,20,13,29,3,14,64,,87,84,7,18,3,6,0.3,0.4
2024-07-18T1800,1611A,118.5819,24.9117,泉州市,涂山街,,26,26,33,9,11,52,,63,63,6,13,4,7,0.4,0.5
2024-07-18T1800,1612A,118.5972,24.8978,泉州市,津头埔,,,29,25,7,7,,,44,,12,15,2,4,0.4,0.4
2024-07-18T1800,1613A,118.6663,24.9424,泉州市,万安,,29,29,26,9,7,51,,65,65,7,13,2,2,0.4,0.5
2024-07-18T1800,3529A,118.6333,24.9264,泉州市,城华南路,,22,22,23,9,7,47,,61,61,10,12,3,4,0.4,0.4
2024-07-18T1800,2626A,88.8876,29.2718,日喀则市,日喀则监测站,,22,22,11,8,4,60,,64,64,5,6,5,5,0.5,0.5
2024-07-18T1800,3726A,88.8781,29.2426,日喀则市,林业技术推广中心,,19,8,6,6,5,58,,64,64,8,8,6,5,0.4,0.4
2024-07-18T1800,1659A,119.471,35.4209,日照市,监测站,,46,39,22,32,22,142,,132,132,15,17,10,9,0.7,0.7
2024-07-18T1800,1660A,119.523,35.4216,日照市,市政府广场,,,51,24,,14,154,,133,133,39,20,17,12,0.9,0.7
2024-07-18T1800,1661A,119.5587,35.4044,日照市,港务局,颗粒物(PM10),51,51,34,31,14,140,,124,124,20,18,9,7,0.8,0.7
2024-07-18T1800,3507A,119.5328,35.4625,日照市,职业技术学院,,47,46,25,31,20,149,,132,132,15,15,9,9,0.8,0.8
2024-07-18T1800,3604A,119.3266,35.1044,日照市,岚山环保分局,,34,24,24,12,16,107,,105,105,8,15,8,9,0.6,1
2024-07-18T1800,1835A,111.1922,34.7752,三门峡市,市政府,,43,16,17,6,9,136,,112,112,10,10,10,8,0.5,0.6
2024-07-18T1800,1836A,111.1587,34.7942,三门峡市,开发区,,44,,18,11,11,139,,108,108,8,12,16,9,0.7,0.6
2024-07-18T1800,3039A,111.1911,34.7829,三门峡市,三门峡市第一小学,,45,22,24,14,8,142,,115,115,9,8,12,7,0.6,0.5
2024-07-18T1800,3598A,111.1,34.7167,三门峡市,富达温泉假日酒店,,42,16,29,3,13,134,,116,116,9,13,12,11,0.6,0.6
2024-07-18T1800,2324A,117.6211,26.2625,三明市,三钢,,24,21,21,12,10,63,,71,71,19,14,27,16,2.4,1
2024-07-18T1800,2325A,117.635,26.2714,三明市,三明二中,,23,17,16,7,9,73,,76,76,9,12,7,6,0.8,0.9
2024-07-18T1800,2326A,117.6028,26.2378,三明市,三元区政府,,23,18,19,3,15,72,,72,72,9,12,6,6,0.3,0.4
2024-07-18T1800,1876A,109.5078,18.2489,三亚市,河东子站,,,13,18,6,6,36,,47,45,6,7,,3,0.4,0.5
2024-07-18T1800,1877A,109.4964,18.2681,三亚市,河西子站,,13,13,11,6,5,34,,41,41,4,5,2,2,0.4,0.4
2024-07-18T1800,3540A,109.7348,18.3443,三亚市,君悦子站,,12,12,13,7,5,33,,50,49,8,6,2,2,0.5,0.4
2024-07-18T1800,2624A,91.7608,29.2313,山南市,山南监测站,,15,9,10,6,4,48,,53,53,8,6,5,5,0.2,0.2
2024-07-18T1800,2625A,91.7706,29.2436,山南市,山南人民医院,,17,17,16,6,6,51,,50,50,9,10,6,6,0.4,0.2
2024-07-18T1800,1674A,116.6794,23.3667,汕头市,金平子站,,15,15,14,7,4,48,,48,48,6,7,7,7,0.7,0.7
2024-07-18T1800,1675A,116.7244,23.3633,汕头市,龙湖子站,,16,16,16,8,4,43,,43,43,6,6,5,5,0.6,0.7
2024-07-18T1800,1676A,116.7258,23.2775,汕头市,濠江子站,,30,,15,21,9,38,,52,51,12,10,4,4,0.6,0.6
2024-07-18T1800,1677A,116.7519,23.4714,汕头市,澄海子站,,21,21,15,3,5,40,,36,36,5,8,4,4,0.7,0.7
2024-07-18T1800,1678A,116.6092,23.2539,汕头市,潮阳子站,,14,14,12,3,3,44,,46,45,1,3,4,4,0.6,0.6
2024-07-18T1800,3444A,116.454,23.2684,汕头市,潮南峡山,,14,9,18,3,4,42,,43,43,2,5,4,4,0.7,0.8
2024-07-18T1800,3624A,116.4069,23.2533,汕头市,潮南子站,,14,13,24,3,12,43,,48,47,2,9,7,8,0.6,0.7
2024-07-18T1800,1693A,115.3653,22.775,汕尾市,市环保局,,13,6,16,3,4,41,,50,48,5,10,6,6,0.5,0.6
2024-07-18T1800,1694A,115.3706,22.7898,汕尾市,市政府,,14,13,15,3,5,43,,50,50,2,5,6,7,0.6,0.6
2024-07-18T1800,1695A,115.3622,22.7925,汕尾市,新城中学,,17,17,18,3,4,44,,51,51,2,5,6,6,0.5,0.5
2024-07-18T1800,2645A,109.9154,33.8715,商洛市,监测站,,33,,12,12,7,105,,101,101,11,10,10,9,0.7,0.7
2024-07-18T1800,3045A,109.9643,33.8471,商洛市,商州区中学,,31,31,18,15,9,98,,98,98,9,14,3,3,0.6,0.7
2024-07-18T1800,2408A,115.6702,34.4285,商丘市,环境监测站,,27,16,21,8,16,85,,89,88,2,3,8,8,0.2,0.4
2024-07-18T1800,2409A,115.6458,34.4045,商丘市,粮食局,,29,16,19,11,10,90,,92,92,1,5,4,4,0.3,0.4
2024-07-18T1800,2410A,115.6293,34.3948,商丘市,睢阳区环保局,,26,16,18,12,14,83,,88,87,2,4,4,4,0.3,0.4
2024-07-18T1800,3171A,115.6071,34.4465,商丘市,梁园区档案局,,27,19,17,10,13,86,,86,86,4,5,5,6,0.4,0.5
2024-07-18T1800,1141A,121.4,31.238,上海市,普陀,,21,21,43,11,19,54,,111,106,38,22,6,8,0.4,0.4
2024-07-18T1800,1142A,121.478,31.2036,上海市,十五厂,,27,27,40,13,22,66,,113,109,27,24,7,10,0.3,0.4
2024-07-18T1800,1143A,121.467,31.3008,上海市,虹口,,25,24,39,12,23,80,,110,109,22,22,6,8,0.5,0.6
2024-07-18T1800,1144A,121.412,31.1654,上海市,徐汇上师大,,26,26,42,13,24,57,,115,108,32,25,6,6,0.6,0.6
2024-07-18T1800,1145A,121.536,31.2659,上海市,杨浦四漂,,34,29,41,15,22,106,,129,129,20,22,7,8,0.6,0.7
2024-07-18T1800,1147A,121.425,31.2261,上海市,静安监测站,,21,21,40,9,24,66,,112,108,28,23,6,10,0.5,0.6
2024-07-18T1800,1148A,121.703,31.1907,上海市,浦东川沙,,,27,40,24,29,75,,143,128,48,26,6,6,,0.5
2024-07-18T1800,1149A,121.533,31.2284,上海市,浦东新区监测站,,24,24,37,13,20,59,,102,99,30,24,5,5,0.5,0.5
2024-07-18T1800,1150A,121.577,31.2071,上海市,浦东张江,,26,26,39,12,22,46,,99,93,35,25,5,5,0.7,0.7
2024-07-18T1800,3265A,121.4316,31.3322,上海市,宝山庙行,,,,41,,24,75,,128,121,24,24,10,13,0.5,0.6
2024-07-18T1800,3266A,121.8791,31.4662,上海市,崇明上实东滩,,38,25,36,14,19,121,,163,163,10,25,6,8,0.6,0.6
2024-07-18T1800,3268A,121.3162,31.2838,上海市,嘉定南翔,,33,25,40,23,29,46,,105,100,42,30,5,7,0.5,0.5
2024-07-18T1800,3269A,121.3359,30.7456,上海市,金山新城,,24,21,39,12,24,76,,151,145,16,17,6,9,0.5,0.5
2024-07-18T1800,3270A,121.4996,31.0739,上海市,闵行浦江,,24,24,38,15,22,65,,122,117,27,23,7,10,0.4,0.5
2024-07-18T1800,3271A,121.2886,31.1663,上海市,青浦徐泾,,21,21,39,8,25,54,,118,109,29,27,5,6,0.5,0.6
2024-07-18T1800,3272A,121.2186,31.0378,上海市,松江图书馆,,25,25,41,14,26,53,,125,115,26,21,5,5,0.6,0.7
2024-07-18T1800,3273A,121.3902,31.2059,上海市,长宁仙霞,,26,26,44,9,22,51,,108,103,37,26,8,9,0.6,0.6
2024-07-18T1800,3274A,121.7965,31.0507,上海市,浦东惠南,,41,41,39,12,23,56,,153,148,42,27,7,7,0.6,0.6
2024-07-18T1800,3544A,121.4891,30.925,上海市,奉贤南桥新城,,28,,31,19,22,76,,148,145,20,22,6,6,0.5,0.6
2024-07-18T1800,2381A,118.005,28.4572,上饶市,百草园,,24,15,26,3,17,74,,80,79,2,11,12,17,0.9,0.8
2024-07-18T1800,2382A,117.9756,28.4436,上饶市,市监测站,,25,13,30,3,15,77,,76,76,9,15,10,19,0.5,0.5
2024-07-18T1800,2383A,117.9519,28.4628,上饶市,凤凰光学,,25,15,29,13,15,78,,77,75,3,15,9,18,0.8,0.8
2024-07-18T1800,3413A,118.1953,28.4401,上饶市,广丰区教体局,,23,12,22,3,9,73,,83,83,4,5,3,8,0.4,0.5
2024-07-18T1800,3685A,117.897,28.4315,上饶市,双创科技城,,20,19,30,7,13,64,,66,66,9,19,8,15,0.6,0.6
2024-07-18T1800,1669A,113.5824,24.7733,韶关市,市八中,,18,13,22,3,8,55,,65,65,5,8,7,14,0.6,0.7
2024-07-18T1800,1671A,113.5917,24.7972,韶关市,园林处,,17,17,18,8,12,54,,65,65,4,9,9,13,0.5,0.7
2024-07-18T1800,1672A,113.6735,24.7791,韶关市,韶关学院,,19,13,15,6,10,60,,62,62,19,12,20,13,0.9,0.5
2024-07-18T1800,1673A,113.5971,24.6863,韶关市,曲江监测站,,20,19,25,12,11,61,,70,69,10,11,8,9,0.5,0.6
2024-07-18T1800,3622A,113.5556,24.8082,韶关市,碧湖山庄,,17,13,26,6,11,54,,68,68,7,7,9,11,0.3,0.4
2024-07-18T1800,2462A,111.5239,27.3033,邵阳市,市水土所,,22,15,20,12,12,70,,80,79,3,8,9,10,0.6,0.5
2024-07-18T1800,2463A,111.4733,27.2317,邵阳市,市一中,,24,18,23,6,10,76,,86,84,6,9,8,13,0.3,0.3
2024-07-18T1800,2464A,111.5283,27.2442,邵阳市,市化工厂,,23,15,20,3,11,72,,84,82,6,8,8,12,0.3,0.3
2024-07-18T1800,2465A,111.4503,27.2537,邵阳市,市罐头厂,,,29,19,18,12,72,,82,80,6,5,11,12,,0.2
2024-07-18T1800,2466A,111.4328,27.2272,邵阳市,市环保局,,,24,17,7,11,73,,80,80,,5,7,10,0.3,0.4
2024-07-18T1800,1247A,120.6053,29.9928,绍兴市,城东开发委,,,11,25,6,16,97,,97,97,,11,6,6,0.5,0.6
2024-07-18T1800,2921A,120.5483,30.0003,绍兴市,树下王站,,,,28,12,19,86,,96,95,5,12,,4,0.4,0.5
2024-07-18T1800,3408A,120.5683,29.9361,绍兴市,绍兴中专,,29,18,24,10,19,92,,96,96,8,17,2,2,0.4,0.5
2024-07-18T1800,3409A,120.4906,30.0861,绍兴市,柯桥区政府,,33,,33,9,8,103,,114,113,13,19,5,5,0.4,0.6
2024-07-18T1800,3410A,120.8752,30.0249,绍兴市,重华小学,,33,14,30,10,18,104,,112,109,7,12,9,10,0.3,0.4
2024-07-18T1800,3411A,120.8369,30.0137,绍兴市,上虞中学,,31,16,30,10,19,99,,91,91,5,16,8,11,0.4,0.5
2024-07-18T1800,3560A,120.4722,30.0415,绍兴市,柯桥妇保,,32,17,41,6,21,101,,113,112,10,19,6,6,0.2,0.4
2024-07-18T1800,3658A,120.6153,30.0764,绍兴市,袍江中学,,33,27,30,10,18,103,,114,114,14,11,10,9,0.5,0.5
2024-07-18T1800,1356A,114.1063,22.5545,深圳市,通心岭子站,,11,11,12,3,6,12,,37,31,17,7,5,5,0.6,0.5
2024-07-18T1800,1357A,114.117,22.5625,深圳市,洪湖,,,,16,,6,13,,41,34,17,9,6,6,0.4,0.4
2024-07-18T1800,1358A,113.987,22.5417,深圳市,华侨城,,22,17,12,15,5,16,,39,33,16,5,4,4,0.5,0.5
2024-07-18T1800,1359A,113.9181,22.5171,深圳市,南海子站,,14,14,15,7,7,24,,38,35,18,11,5,5,0.5,0.5
2024-07-18T1800,1360A,114.2458,22.5689,深圳市,盐田,,18,18,18,3,3,14,,38,34,24,20,6,7,0.5,0.5
2024-07-18T1800,1361A,114.2283,22.7244,深圳市,龙岗,,17,17,13,7,6,10,,47,41,26,14,5,5,0.6,0.5
2024-07-18T1800,1363A,114.494,22.5422,深圳市,南澳,,15,15,10,3,4,37,,52,50,6,4,4,4,0.4,0.4
2024-07-18T1800,1364A,114.41,22.6342,深圳市,葵涌,,12,7,12,3,4,38,,49,48,7,6,5,5,0.6,0.6
2024-07-18T1800,1365A,114.297,22.5978,深圳市,梅沙,,13,13,15,7,5,21,,52,45,13,4,4,4,0.5,0.5
2024-07-18T1800,1366A,114.0678,22.738,深圳市,观澜,,26,26,20,11,7,25,,38,37,14,13,5,8,0.5,0.5
2024-07-18T1800,3305A,114.0731,22.559,深圳市,莲花,,17,17,14,7,6,7,,34,26,20,10,2,2,0.5,0.4
2024-07-18T1800,3306A,114.0261,22.6198,深圳市,民治,,13,13,11,6,6,18,,35,29,18,10,5,5,0.6,0.5
2024-07-18T1800,3307A,114.1871,22.6451,深圳市,横岗,,19,19,13,6,6,14,,43,38,27,17,6,6,0.4,0.4
2024-07-18T1800,3447A,114.3551,22.7151,深圳市,坪山,,12,12,13,7,6,29,,45,42,12,11,4,4,0.4,0.4
2024-07-18T1800,3623A,113.8953,22.5861,深圳市,西乡,,19,19,15,6,4,6,,28,23,27,20,6,6,0.5,0.5
2024-07-18T1800,1099A,123.505,41.7406,沈阳市,浑南东路,臭氧1小时,85,27,36,15,18,188,,179,179,17,35,7,5,1.0,0.9
2024-07-18T1800,1100A,123.4231,41.6989,沈阳市,新秀街,,50,29,38,15,23,158,,159,159,28,30,7,15,1.1,1
2024-07-18T1800,1102A,123.5903,41.8411,沈阳市,东陵路,臭氧1小时,73,27,38,16,17,178,,167,167,17,25,10,10,1.0,0.9
2024-07-18T1800,1103A,123.4264,41.8467,沈阳市,陵东街,,40,27,25,18,18,128,,144,144,19,23,5,6,1.2,1.3
2024-07-18T1800,1104A,123.4114,41.7653,沈阳市,文化路,臭氧1小时,67,35,41,23,22,173,,168,168,15,21,3,8,0.9,0.9
