timepoint,stationcode,longitude,latitude,area,positionname,primarypollutant,aqi,pm10,pm10_24h,pm2_5,pm2_5_24h,o3,o3_24h,o3_8h,o3_8h_24h,no2,no2_24h,so2,so2_24h,co,co_24h
2023-01-12T13:00:00,1001A,116.3621,39.8784,北京市,万寿西宫,细颗粒物(PM2.5),122,133,130,92,87,13,2,0,0,79,87,9,8,1.0,1
2023-01-12T13:00:00,1002A,116.2202,40.2915,北京市,定陵,细颗粒物(PM2.5),134,137,99,102,70,34,12,24,15,35,40,4,4,0.7,0.6
2023-01-12T13:00:00,1003A,116.4174,39.9289,北京市,东四,细颗粒物(PM2.5),114,,148,86,84,7,7,3,3,69,66,9,8,0.9,1.1
2023-01-12T13:00:00,1004A,116.4072,39.8863,北京市,天坛,细颗粒物(PM2.5),115,127,120,87,84,9,9,6,6,73,80,9,6,0.9,1
2023-01-12T13:00:00,1005A,116.462,39.9365,北京市,农展馆,细颗粒物(PM2.5),117,128,130,88,88,6,6,3,3,71,82,9,8,1.0,1
2023-01-12T13:00:00,1006A,116.3392,39.9295,北京市,官园,细颗粒物(PM2.5),117,129,123,88,82,10,5,2,2,77,56,13,12,0.9,0.8
2023-01-12T13:00:00,1007A,116.2878,39.9611,北京市,海淀万柳,细颗粒物(PM2.5),122,137,120,92,74,9,4,3,2,73,74,10,8,0.9,0.8
2023-01-12T13:00:00,1008A,116.6636,40.135,北京市,顺义新城,细颗粒物(PM2.5),115,129,127,87,84,20,6,4,4,58,68,5,6,0.9,0.9
2023-01-12T13:00:00,1009A,116.6275,40.3275,北京市,怀柔镇,细颗粒物(PM2.5),112,159,125,84,71,41,7,14,6,57,52,6,6,0.9,0.7
2023-01-12T13:00:00,1010A,116.2296,40.217,北京市,昌平镇,细颗粒物(PM2.5),138,142,104,105,71,27,7,2,2,67,64,8,4,1.0,0.8
2023-01-12T13:00:00,1011A,116.3966,39.9821,北京市,奥体中心,细颗粒物(PM2.5),119,124,119,90,84,8,8,2,2,65,79,7,7,0.8,0.9
2023-01-12T13:00:00,1012A,116.184,39.9136,北京市,古城,细颗粒物(PM2.5),128,149,111,97,67,16,6,4,4,73,73,8,6,1.0,1
2023-01-12T13:00:00,1015A,117.1444,39.1661,天津市,勤俭道,细颗粒物(PM2.5),147,167,144,112,97,23,1,1,1,73,78,12,20,1.6,1.3
2023-01-12T13:00:00,1017A,117.237,39.1082,天津市,大直沽八号路,,,,140,,91,24,3,2,2,83,86,16,18,1.7,1.4
2023-01-12T13:00:00,1018A,117.202,39.0927,天津市,前进道,细颗粒物(PM2.5),156,169,132,119,89,26,7,5,5,85,85,11,13,1.7,1.2
2023-01-12T13:00:00,1019A,117.1837,39.2133,天津市,淮河道,细颗粒物(PM2.5),153,203,188,117,109,29,5,5,4,66,78,13,21,1.4,1.3
2023-01-12T13:00:00,1021A,117.307,39.0877,天津市,跃进路,细颗粒物(PM2.5),142,158,136,108,92,23,,2,1,76,83,14,19,1.5,1.3
2023-01-12T13:00:00,1023A,117.707,39.0343,天津市,第四大街,细颗粒物(PM2.5),117,132,145,88,88,22,0,0,0,70,88,14,16,1.2,1.2
2023-01-12T13:00:00,1024A,117.457,38.8394,天津市,永明路,细颗粒物(PM2.5),139,145,134,106,97,29,17,9,9,61,79,20,17,1.2,1.1
2023-01-12T13:00:00,1026A,117.764,39.1587,天津市,汉北路,细颗粒物(PM2.5),94,102,123,70,91,7,7,3,3,50,76,11,12,0.7,0.9
2023-01-12T13:00:00,1027A,117.157,38.9194,天津市,团泊洼,细颗粒物(PM2.5),145,159,140,111,95,20,2,0,0,74,74,16,16,1.2,1.2
2023-01-12T13:00:00,1029A,114.4422,38.0444,石家庄市,职工医院,细颗粒物(PM2.5),140,178,180,107,113,36,6,5,5,72,80,14,15,1.4,1.5
2023-01-12T13:00:00,1030A,114.6063,38.0266,石家庄市,高新区,细颗粒物(PM2.5),135,162,181,103,117,36,9,8,8,66,79,14,17,1.2,1.3
2023-01-12T13:00:00,1031A,114.4898,38.1328,石家庄市,西北水源,细颗粒物(PM2.5),158,203,211,120,141,25,2,2,2,81,89,15,17,2.0,1.8
2023-01-12T13:00:00,1032A,114.4586,38.0058,石家庄市,西南高教,细颗粒物(PM2.5),150,158,170,115,114,34,6,5,5,64,74,15,16,1.2,1.3
2023-01-12T13:00:00,1033A,114.5331,38.0178,石家庄市,世纪公园,细颗粒物(PM2.5),128,134,149,97,105,28,5,2,2,64,78,15,16,1.4,1.5
2023-01-12T13:00:00,1034A,114.509,38.0457,石家庄市,人民会堂,细颗粒物(PM2.5),163,148,165,124,123,36,9,7,7,60,72,13,15,1.4,1.5
2023-01-12T13:00:00,1035A,114.3524,37.8911,石家庄市,封龙山,细颗粒物(PM2.5),142,88,105,108,99,54,29,38,27,59,63,20,26,1.0,1.5
2023-01-12T13:00:00,1037A,118.131,39.6363,唐山市,雷达站,细颗粒物(PM2.5),128,145,155,97,102,15,15,6,6,55,87,20,30,1.7,1.9
2023-01-12T13:00:00,1038A,118.1725,39.6334,唐山市,物资局,细颗粒物(PM2.5),125,145,168,95,98,22,22,8,8,55,91,23,40,1.6,1.9
2023-01-12T13:00:00,1040A,118.1705,39.6506,唐山市,十二中,细颗粒物(PM2.5),123,130,160,93,107,19,19,4,4,57,95,22,30,1.9,1.8
2023-01-12T13:00:00,1041A,118.1869,39.622,唐山市,小山,细颗粒物(PM2.5),118,151,181,89,101,14,14,2,2,58,93,27,34,1.7,2
2023-01-12T13:00:00,1042A,119.5134,39.8207,秦皇岛市,北戴河环保局,,50,32,102,35,75,41,39,28,28,16,64,5,15,0.5,1.2
2023-01-12T13:00:00,1043A,119.7493,40.0116,秦皇岛市,第一关,细颗粒物(PM2.5),69,67,135,50,98,31,23,11,11,17,66,4,15,0.5,1.4
2023-01-12T13:00:00,1044A,119.5897,39.9499,秦皇岛市,监测站,细颗粒物(PM2.5),60,62,125,43,88,36,28,8,8,22,72,10,20,0.5,1.4
2023-01-12T13:00:00,1046A,119.5251,39.9041,秦皇岛市,建设大厦,颗粒物(PM10),53,55,128,36,69,44,38,12,12,23,75,8,22,0.5,1.6
2023-01-12T13:00:00,1048A,114.5302,36.6116,邯郸市,东污水处理厂,细颗粒物(PM2.5),156,162,173,119,127,67,6,8,6,76,57,13,10,1.0,1
2023-01-12T13:00:00,1049A,114.4918,36.5713,邯郸市,矿院,细颗粒物(PM2.5),163,157,163,124,130,71,4,15,4,74,53,15,9,1.4,1.3
2023-01-12T13:00:00,1050A,114.484,36.6133,邯郸市,丛台公园,细颗粒物(PM2.5),169,152,160,128,132,70,4,4,4,69,51,12,11,1.4,1.3
2023-01-12T13:00:00,1051A,115.493,38.8632,保定市,游泳馆,细颗粒物(PM2.5),124,118,128,94,97,16,7,6,6,84,87,19,18,1.3,1.3
2023-01-12T13:00:00,1052A,115.5213,38.8959,保定市,华电二区,细颗粒物(PM2.5),109,120,125,82,95,9,5,4,4,72,76,9,11,1.5,1.4
2023-01-12T13:00:00,1053A,115.4713,38.9108,保定市,接待中心,细颗粒物(PM2.5),102,128,129,76,81,10,3,2,2,76,78,12,11,1.4,1.3
2023-01-12T13:00:00,1054A,115.4612,38.8416,保定市,地表水厂,细颗粒物(PM2.5),95,137,147,71,81,24,18,17,17,87,90,14,13,1.1,1.1
2023-01-12T13:00:00,1056A,115.5086,38.8639,保定市,监测站,细颗粒物(PM2.5),107,129,137,80,94,5,2,2,2,71,78,16,15,1.1,1
2023-01-12T13:00:00,1057A,114.8883,40.8336,张家口市,人民公园,细颗粒物(PM2.5),117,126,112,88,75,44,32,28,28,54,54,12,14,1.1,1.2
2023-01-12T13:00:00,1059A,114.8687,40.8042,张家口市,五金库,细颗粒物(PM2.5),134,122,96,102,80,44,31,28,26,62,60,18,18,1.1,1
2023-01-12T13:00:00,1060A,114.8902,40.762,张家口市,世纪豪园,细颗粒物(PM2.5),160,161,129,122,93,40,19,20,16,58,59,11,9,,1.1
2023-01-12T13:00:00,1061A,114.8916,40.8661,张家口市,北泵房,细颗粒物(PM2.5),130,131,127,99,91,49,38,29,28,51,50,15,19,1.4,1.4
2023-01-12T13:00:00,1062A,117.9531,40.9081,承德市,铁路,细颗粒物(PM2.5),110,150,132,83,81,24,9,12,9,73,68,23,27,2.0,1.8
2023-01-12T13:00:00,1063A,117.9392,40.9763,承德市,中国银行,细颗粒物(PM2.5),99,117,115,74,74,43,8,8,7,57,57,16,13,1.6,1.6
2023-01-12T13:00:00,1064A,117.9503,40.928,承德市,开发区,细颗粒物(PM2.5),98,117,111,73,76,22,6,6,6,69,63,19,17,2.0,1.7
2023-01-12T13:00:00,1065A,117.8051,40.9655,承德市,文化中心,细颗粒物(PM2.5),105,130,143,79,88,14,7,4,4,,59,22,26,1.5,2
2023-01-12T13:00:00,1066A,117.9268,41.0026,承德市,离宫,细颗粒物(PM2.5),84,114,99,62,69,37,4,2,2,55,53,27,24,1.6,1.5
2023-01-12T13:00:00,1067A,116.6708,39.5111,廊坊市,药材公司,细颗粒物(PM2.5),132,171,171,100,110,12,6,8,6,88,93,19,18,1.7,1.4
2023-01-12T13:00:00,1068A,116.7214,39.5589,廊坊市,开发区,细颗粒物(PM2.5),135,158,159,103,106,7,,1,1,89,88,21,17,,1.4
2023-01-12T13:00:00,1070A,116.7244,39.5269,廊坊市,北华航天学院,细颗粒物(PM2.5),145,176,176,111,117,9,5,5,5,92,93,24,20,1.7,1.4
2023-01-12T13:00:00,1071A,116.8842,38.2991,沧州市,沧县城建局,细颗粒物(PM2.5),173,212,170,131,113,22,16,9,9,79,79,20,23,1.3,1.3
2023-01-12T13:00:00,1072A,116.8584,38.3254,沧州市,电视转播站,细颗粒物(PM2.5),172,196,154,130,101,27,17,11,11,92,74,17,18,1.3,1.2
2023-01-12T13:00:00,1073A,116.8709,38.3228,沧州市,市环保局,细颗粒物(PM2.5),152,210,156,116,97,19,15,6,6,97,83,15,19,1.4,1.1
2023-01-12T13:00:00,1074A,115.6838,37.7541,衡水市,电机北厂,细颗粒物(PM2.5),193,188,144,145,96,29,0,0,0,68,65,15,18,1.6,1.1
2023-01-12T13:00:00,1075A,115.6303,37.7316,衡水市,市监测站,,,,145,,88,36,3,3,2,62,59,,18,1.6,1.2
2023-01-12T13:00:00,1077A,114.4704,37.0886,邢台市,达活泉,细颗粒物(PM2.5),175,132,150,132,133,49,6,4,4,60,65,20,19,1.3,1.4
2023-01-12T13:00:00,1078A,114.5062,37.0349,邢台市,邢师高专,细颗粒物(PM2.5),139,124,135,106,112,62,7,6,6,69,66,12,12,1.0,1
2023-01-12T13:00:00,1079A,114.5237,37.0851,邢台市,路桥公司,,,,140,,112,60,6,8,7,69,69,12,13,1.2,1.1
2023-01-12T13:00:00,1080A,114.4725,37.0719,邢台市,市环保局,细颗粒物(PM2.5),160,162,174,122,126,56,6,4,4,64,70,9,10,1.3,1.4
2023-01-12T13:00:00,1081A,112.522,37.8873,太原市,尖草坪,细颗粒物(PM2.5),192,204,180,144,123,46,25,11,11,67,80,39,36,1.4,1.5
2023-01-12T13:00:00,1083A,112.434,38.0108,太原市,上兰,,,,,,,,,,,,,,,,
2023-01-12T13:00:00,1084A,112.469,37.7124,太原市,晋源,细颗粒物(PM2.5),163,183,176,124,119,41,33,26,18,60,79,39,38,1.7,1.8
2023-01-12T13:00:00,1085A,112.5583,37.7394,太原市,小店,细颗粒物(PM2.5),180,204,176,136,116,33,15,12,6,77,87,51,34,2.3,1.9
2023-01-12T13:00:00,1086A,112.5369,37.8692,太原市,桃园,细颗粒物(PM2.5),205,222,192,155,133,34,15,5,5,76,87,50,40,2.4,2.2
2023-01-12T13:00:00,1087A,112.57,37.8195,太原市,坞城,细颗粒物(PM2.5),180,196,172,136,121,44,17,30,9,76,81,62,39,3.0,2
2023-01-12T13:00:00,1088A,112.549,37.9854,太原市,南寨,细颗粒物(PM2.5),200,234,184,150,125,43,14,9,9,,74,49,36,1.5,1.6
2023-01-12T13:00:00,1089A,112.4783,37.7778,太原市,金胜,,,,,,,,,,,,,,,,
2023-01-12T13:00:00,1090A,111.6507,40.7517,呼和浩特市,呼市一监,细颗粒物(PM2.5),147,129,138,112,113,67,19,8,8,60,80,20,24,1.3,1.4
2023-01-12T13:00:00,1091A,111.6572,40.8033,呼和浩特市,小召,细颗粒物(PM2.5),127,144,133,96,96,51,14,11,11,76,84,26,22,1.6,1.4
2023-01-12T13:00:00,1094A,111.7516,40.8369,呼和浩特市,如意水处理厂,细颗粒物(PM2.5),142,184,169,108,100,58,7,8,8,,101,21,19,1.8,1.5
2023-01-12T13:00:00,1095A,111.7276,40.8062,呼和浩特市,二十九中,细颗粒物(PM2.5),133,160,141,101,99,60,14,11,11,71,76,20,18,1.4,1.1
2023-01-12T13:00:00,1096A,111.5512,40.7866,呼和浩特市,工大金川校区,细颗粒物(PM2.5),129,132,149,98,104,36,30,16,16,55,76,33,23,1.1,1.3
2023-01-12T13:00:00,1097A,111.717,40.7612,呼和浩特市,化肥厂生活区,细颗粒物(PM2.5),133,151,155,101,113,62,43,26,26,52,77,22,20,1.4,1.3
2023-01-12T13:00:00,1098A,123.6836,41.9339,沈阳市,森林路,,,,,,,,,,,,,,,,
2023-01-12T13:00:00,1099A,123.505,41.7406,沈阳市,浑南东路,,38,38,63,21,39,74,62,50,50,19,33,17,18,0.7,0.9
2023-01-12T13:00:00,1100A,123.4231,41.6989,沈阳市,新秀街,,41,41,77,23,43,72,70,55,55,15,24,11,14,0.7,1
2023-01-12T13:00:00,1102A,123.5903,41.8411,沈阳市,东陵路,,43,35,52,30,43,78,61,55,55,21,33,15,18,0.7,1.1
2023-01-12T13:00:00,1103A,123.4264,41.8467,沈阳市,陵东街,,35,35,69,22,39,68,67,54,52,23,34,16,18,0.7,0.9
2023-01-12T13:00:00,1104A,123.4114,41.7653,沈阳市,文化路,,50,50,87,29,49,75,75,59,59,18,27,13,18,0.5,0.9
2023-01-12T13:00:00,1105A,123.4678,41.7867,沈阳市,小河沿,,38,38,74,24,40,77,62,48,47,22,32,13,18,0.6,1.1
2023-01-12T13:00:00,1106A,123.4017,41.7972,沈阳市,太原街,颗粒物(PM10),51,51,91,30,49,66,66,58,57,17,24,9,15,0.5,0.8
2023-01-12T13:00:00,1108A,123.3783,41.9228,沈阳市,京沈街,,43,41,85,30,49,71,59,52,52,27,36,17,20,0.7,0.9
2023-01-12T13:00:00,1109A,121.612,38.9741,大连市,甘井子,,49,40,36,34,30,64,64,59,42,25,30,6,7,0.5,0.5
2023-01-12T13:00:00,1110A,121.565,38.9511,大连市,周水子,,48,48,42,30,27,64,64,52,38,29,36,8,9,0.8,0.8
2023-01-12T13:00:00,1111A,121.5637,38.8845,大连市,星海三站,,,,,,,,,,,,,,,,
2023-01-12T13:00:00,1112A,121.6302,38.9117,大连市,青泥洼桥,,35,35,31,23,23,69,62,58,39,37,38,14,13,0.6,0.6
2023-01-12T13:00:00,1113A,121.6251,38.8638,大连市,傅家庄,,33,33,33,20,19,71,56,69,52,31,23,6,6,0.6,0.6
2023-01-12T13:00:00,1114A,121.5213,38.8661,大连市,七贤岭,,38,38,35,23,24,67,58,67,48,34,28,6,6,0.3,0.4
2023-01-12T13:00:00,1115A,121.2529,38.8061,大连市,旅顺,,35,34,32,24,22,71,67,67,52,17,16,6,7,0.4,0.4
2023-01-12T13:00:00,1116A,121.7485,39.1311,大连市,金州,颗粒物(PM10),52,53,39,33,26,81,76,65,65,23,29,11,11,0.4,0.4
2023-01-12T13:00:00,1117A,121.7811,39.0496,大连市,开发区,,49,49,43,30,27,74,74,52,35,29,51,8,8,0.5,0.6
2023-01-12T13:00:00,1118A,121.9762,39.0631,大连市,双D港,,25,25,26,16,16,67,62,63,52,34,26,5,5,0.8,0.8
2023-01-12T13:00:00,1119A,125.3325,43.9166,长春市,食品厂,,48,44,70,33,51,64,48,40,40,36,46,12,23,0.6,0.7
2023-01-12T13:00:00,1120A,125.2863,43.9027,长春市,客车厂,,50,40,67,35,52,54,49,48,48,34,44,20,20,0.6,0.7
2023-01-12T13:00:00,1121A,125.2841,43.8463,长春市,邮电学院,,48,42,62,33,48,68,35,51,48,49,42,31,20,0.5,0.7
2023-01-12T13:00:00,1122A,125.3716,43.8772,长春市,劳动公园,,43,31,58,30,44,65,64,50,50,25,41,11,17,0.5,0.7
2023-01-12T13:00:00,1123A,125.3297,43.8805,长春市,园林处,,48,36,60,33,46,66,55,58,58,32,34,13,14,0.6,0.7
2023-01-12T13:00:00,1124A,125.4605,43.79,长春市,净月潭,,25,25,45,14,24,82,79,75,75,8,13,6,7,0.4,0.6
2023-01-12T13:00:00,1125A,125.7194,43.515,长春市,甩湾子,,,,,,,,,,,,,,,,
2023-01-12T13:00:00,1126A,125.3863,43.8447,长春市,经开区环卫处,,40,26,55,28,44,70,67,62,62,20,37,12,14,0.5,0.7
2023-01-12T13:00:00,1127A,125.245,43.7783,长春市,高新区管委会,,,,56,,55,77,61,62,62,16,36,9,10,0.4,0.7
2023-01-12T13:00:00,1128A,125.1761,43.8325,长春市,岱山公园,,40,35,62,28,48,64,58,57,54,28,43,8,11,0.5,0.8
2023-01-12T13:00:00,1129A,126.5422,45.755,哈尔滨市,岭北,细颗粒物(PM2.5),77,72,106,56,63,118,81,71,71,38,45,22,23,0.2,0.6
2023-01-12T13:00:00,1130A,126.561,45.8167,哈尔滨市,松北商大,细颗粒物(PM2.5),70,59,83,51,61,88,88,65,65,30,45,14,14,0.6,0.9
2023-01-12T13:00:00,1131A,126.979,45.5419,哈尔滨市,阿城会宁,,48,48,61,33,46,84,82,76,76,20,21,13,8,0.4,0.6
2023-01-12T13:00:00,1132A,126.599,45.7222,哈尔滨市,南岗学府路,,,69,90,53,58,71,57,57,57,,42,24,20,0.6,0.6
2023-01-12T13:00:00,1133A,126.689,45.7733,哈尔滨市,太平宏伟公园,,,60,96,43,60,83,83,61,61,,51,,30,0.5,0.8
2023-01-12T13:00:00,1134A,126.635,45.7667,哈尔滨市,道外承德广场,细颗粒物(PM2.5),60,68,90,43,57,87,87,60,60,24,44,14,18,0.7,0.9
2023-01-12T13:00:00,1135A,126.685,45.7319,哈尔滨市,香坊红旗大街,细颗粒物(PM2.5),79,73,88,58,72,74,74,53,53,33,56,30,47,0.8,1.1
2023-01-12T13:00:00,1136A,126.6411,45.7258,哈尔滨市,动力和平路,细颗粒物(PM2.5),75,59,85,55,65,72,71,46,46,38,53,20,24,0.7,0.9
2023-01-12T13:00:00,1137A,126.593,45.7478,哈尔滨市,道里建国路,细颗粒物(PM2.5),73,69,82,53,61,72,72,56,56,28,47,3,11,0.8,1
2023-01-12T13:00:00,1138A,126.615,45.61,哈尔滨市,平房东轻厂,细颗粒物(PM2.5),78,78,79,57,56,86,85,69,69,20,28,15,14,1.0,1.2
2023-01-12T13:00:00,1139A,126.595,45.9855,哈尔滨市,呼兰师专,细颗粒物(PM2.5),79,70,96,58,71,87,87,62,62,21,34,14,17,0.5,0.8
2023-01-12T13:00:00,1140A,126.6206,45.6842,哈尔滨市,省农科院,,,66,91,56,63,81,,52,52,33,52,24,27,0.5,0.7
2023-01-12T13:00:00,1141A,121.4,31.238,上海市,普陀,,29,17,32,20,18,103,74,64,55,25,32,5,5,0.6,0.6
2023-01-12T13:00:00,1142A,121.478,31.2036,上海市,十五厂,,26,26,31,11,24,80,57,34,34,29,44,5,9,0.5,0.6
2023-01-12T13:00:00,1143A,121.467,31.3008,上海市,虹口,,,29,34,19,19,80,59,56,47,,34,7,8,0.5,0.5
2023-01-12T13:00:00,1144A,121.412,31.1654,上海市,徐汇上师大,,26,22,41,18,19,83,65,41,36,18,24,9,8,0.5,0.6
2023-01-12T13:00:00,1145A,121.536,31.2659,上海市,杨浦四漂,,26,19,36,18,21,72,54,33,33,34,53,6,6,0.7,0.7
2023-01-12T13:00:00,1147A,121.425,31.2261,上海市,静安监测站,,29,29,41,18,20,90,64,52,44,29,38,7,7,0.5,0.5
2023-01-12T13:00:00,1148A,121.703,31.1907,上海市,浦东川沙,,26,15,32,18,21,74,56,33,33,15,41,4,5,0.5,0.5
2023-01-12T13:00:00,1149A,121.533,31.2284,上海市,浦东新区监测站,,32,32,38,15,17,76,52,46,38,21,28,5,5,0.7,0.6
2023-01-12T13:00:00,1150A,121.577,31.2071,上海市,浦东张江,,23,16,28,16,16,77,59,44,43,20,31,4,4,0.6,0.6
2023-01-12T13:00:00,1151A,118.8086,32.1065,南京市,迈皋桥,颗粒物(PM10),58,66,74,31,33,90,65,60,29,32,35,3,4,0.3,0.4
2023-01-12T13:00:00,1152A,118.7538,32.0551,南京市,草场门,,46,46,51,29,29,81,53,58,27,43,42,2,2,0.7,0.7
2023-01-12T13:00:00,1153A,118.7794,32.0745,南京市,山西路,,,,60,,35,105,66,70,46,35,27,4,4,,0.3
2023-01-12T13:00:00,1154A,118.7752,32.0023,南京市,中华门,颗粒物(PM10),53,56,62,31,33,89,63,58,32,30,34,5,5,0.3,0.3
2023-01-12T13:00:00,1155A,118.8109,32.0309,南京市,瑞金路,颗粒物(PM10),64,78,80,29,32,86,64,46,28,24,32,3,3,0.3,0.4
2023-01-12T13:00:00,1156A,118.7997,32.0754,南京市,玄武湖,细颗粒物(PM2.5),63,47,60,45,39,95,60,69,34,23,21,3,4,0.4,0.4
2023-01-12T13:00:00,1157A,118.6414,32.0931,南京市,浦口,颗粒物(PM10),56,62,76,36,37,85,58,61,37,38,39,6,5,0.5,0.4
2023-01-12T13:00:00,1158A,118.7356,31.9996,南京市,奥体中心,,,64,73,34,38,83,,58,34,38,43,4,4,0.5,0.5
2023-01-12T13:00:00,1159A,118.9125,32.1028,南京市,仙林大学城,,46,46,55,31,33,111,76,61,44,20,26,7,5,0.8,0.7
2023-01-12T13:00:00,1160A,120.561,31.2472,苏州市,上方山,颗粒物(PM10),52,54,41,23,24,97,77,42,30,17,29,6,6,0.4,0.4
2023-01-12T13:00:00,1162A,120.591,31.3019,苏州市,彩香,,40,34,41,28,24,105,78,54,42,17,21,6,5,0.6,0.5
2023-01-12T13:00:00,1163A,120.596,31.3264,苏州市,轧钢厂,,41,41,46,21,20,104,82,54,45,18,24,5,5,0.6,0.6
2023-01-12T13:00:00,1164A,120.613,31.2703,苏州市,吴中区,,32,32,43,22,21,108,88,51,42,16,26,6,5,0.4,0.5
2023-01-12T13:00:00,1165A,120.543,31.2994,苏州市,苏州新区,,36,33,42,25,23,100,75,54,38,20,23,6,7,0.6,0.6
2023-01-12T13:00:00,1166A,120.669,31.3097,苏州市,苏州工业园区,,42,42,41,25,20,108,81,54,46,13,21,7,6,0.5,0.6
2023-01-12T13:00:00,1167A,120.641,31.3708,苏州市,相城区,,33,33,40,23,24,96,84,50,41,16,31,6,6,0.6,0.6
2023-01-12T13:00:00,1168A,120.9098,31.9663,南通市,狼山街道,,33,33,36,23,23,83,47,52,35,32,26,9,9,0.5,0.5
2023-01-12T13:00:00,1169A,120.86,32.0005,南通市,虹桥,,49,38,37,34,25,80,46,48,38,38,30,6,5,0.6,0.5
2023-01-12T13:00:00,1170A,120.87,32.02,南通市,城中,,35,30,35,24,23,93,50,57,34,37,30,7,7,0.4,0.4
2023-01-12T13:00:00,1171A,120.94,31.93,南通市,星湖花园,,35,33,38,24,20,84,46,49,28,30,28,10,8,0.6,0.5
2023-01-12T13:00:00,1172A,120.81,32.0417,南通市,紫琅学院,,,43,43,24,20,76,41,44,30,34,29,,5,0.6,0.6
2023-01-12T13:00:00,1173A,119.176,34.5885,连云港市,市环境监测站,细颗粒物(PM2.5),62,61,38,44,27,78,30,71,40,26,20,8,8,0.2,0.3
2023-01-12T13:00:00,1177A,117.179,34.2761,徐州市,黄河新村,细颗粒物(PM2.5),103,90,91,77,64,93,9,15,8,40,37,8,8,1.1,1
2023-01-12T13:00:00,1178A,117.1918,34.2384,徐州市,淮塔,细颗粒物(PM2.5),85,92,102,63,62,98,14,18,6,36,37,6,7,1.2,1.1
2023-01-12T13:00:00,1180A,117.256,34.2153,徐州市,新城区,,,90,91,32,62,97,15,24,10,,34,10,9,,1.1
2023-01-12T13:00:00,1181A,117.244,34.2911,徐州市,桃园路,细颗粒物(PM2.5),104,100,101,78,63,101,10,19,11,38,36,7,7,1.2,1.1
2023-01-12T13:00:00,1182A,117.2933,34.2778,徐州市,农科院,细颗粒物(PM2.5),89,85,91,66,59,98,11,13,10,30,36,10,9,1.0,0.9
2023-01-12T13:00:00,1186A,119.389,32.3761,扬州市,邗江监测站,颗粒物(PM10),51,52,71,28,37,107,83,37,37,34,60,10,10,0.6,0.6
2023-01-12T13:00:00,1188A,120.269,31.4867,无锡市,雪浪,,42,24,42,29,20,87,87,50,44,9,25,7,7,0.6,0.7
2023-01-12T13:00:00,1189A,120.275,31.6219,无锡市,黄巷,,35,35,48,19,19,80,80,52,37,17,39,9,8,0.2,0.3
2023-01-12T13:00:00,1190A,120.294,31.56,无锡市,曹张,,28,24,38,19,21,84,76,46,38,16,28,8,8,0.4,0.5
2023-01-12T13:00:00,1191A,120.242,31.5031,无锡市,漆塘,,29,17,33,12,18,92,92,52,50,9,23,6,6,0.5,0.5
2023-01-12T13:00:00,1192A,120.3489,31.5863,无锡市,东亭,,41,41,41,27,21,88,60,38,25,39,46,10,8,0.6,0.7
2023-01-12T13:00:00,1193A,120.354,31.5475,无锡市,旺庄,,45,41,43,31,23,85,62,44,29,26,32,5,3,0.6,0.6
2023-01-12T13:00:00,1194A,120.245,31.5631,无锡市,荣巷,,26,24,38,12,17,82,82,44,43,18,37,10,10,0.6,0.7
2023-01-12T13:00:00,1195A,120.299,31.6817,无锡市,堰桥,,36,36,44,19,21,84,63,42,35,34,33,5,4,0.7,0.7
2023-01-12T13:00:00,1196A,119.9633,31.762,常州市,市监测站,,43,43,64,20,30,103,91,48,48,16,37,5,6,0.6,0.7
2023-01-12T13:00:00,1200A,119.9468,31.7069,常州市,武进监测站,,47,47,60,18,24,109,93,57,57,15,26,8,8,0.5,0.6
2023-01-12T13:00:00,1201A,119.9255,31.9087,常州市,安家,,36,36,59,25,33,104,94,45,45,16,38,9,7,0.6,0.7
2023-01-12T13:00:00,1203A,119.6707,32.1875,镇江市,新区办事处,,49,41,66,34,44,109,87,33,33,30,66,6,8,0.4,0.6
2023-01-12T13:00:00,1204A,119.4974,32.1968,镇江市,职教中心,,46,46,73,30,48,119,85,44,44,25,48,6,5,0.5,0.6
2023-01-12T13:00:00,1205A,119.4303,32.1328,镇江市,丹徒区监测站,颗粒物(PM10),54,57,77,30,42,118,87,41,41,22,50,2,3,0.4,0.7
2023-01-12T13:00:00,1206A,119.905,32.4878,泰州市,公园路,,35,34,59,24,39,98,74,30,30,27,39,8,7,0.8,1
2023-01-12T13:00:00,1207A,119.9189,32.4625,泰州市,莲花,,44,44,65,30,44,104,77,29,29,28,41,9,8,0.6,0.9
2023-01-12T13:00:00,1209A,119.888,32.4639,泰州市,留学生创业园,,50,50,76,31,40,98,74,33,33,27,41,10,9,0.6,0.9
2023-01-12T13:00:00,1210A,119.036,33.5981,淮安市,钵池山,细颗粒物(PM2.5),88,61,58,65,60,90,59,34,32,26,29,6,5,0.8,0.6
2023-01-12T13:00:00,1211A,119.007,33.575,淮安市,北京南路,细颗粒物(PM2.5),78,68,69,57,47,84,54,28,25,27,30,8,7,0.9,0.9
2023-01-12T13:00:00,1212A,118.989,33.6067,淮安市,市监测站,细颗粒物(PM2.5),77,70,63,56,44,89,54,41,32,34,32,8,6,1.0,0.9
2023-01-12T13:00:00,1213A,119.135,33.5039,淮安市,楚州区监测站,细颗粒物(PM2.5),83,59,57,61,47,87,51,27,21,28,28,6,7,0.9,1
2023-01-12T13:00:00,1214A,119.0186,33.6297,淮安市,淮阴区监测站,细颗粒物(PM2.5),80,66,68,59,53,88,56,40,33,29,29,9,8,0.8,0.7
2023-01-12T13:00:00,1215A,120.118,33.4022,盐城市,盐城电厂,,41,41,36,24,20,98,65,81,58,15,16,8,7,0.4,0.4
2023-01-12T13:00:00,1216A,120.156,33.3942,盐城市,市监测站,,35,35,34,23,20,90,56,63,46,15,18,13,11,0.3,0.3
2023-01-12T13:00:00,1218A,120.2144,33.38,盐城市,开发区管委会,,49,49,42,34,23,95,56,50,48,18,19,3,5,0.6,0.5
2023-01-12T13:00:00,1220A,118.293,33.9528,宿迁市,宿迁学院,颗粒物(PM10),56,61,85,19,43,99,55,30,20,32,31,7,5,0.7,0.6
2023-01-12T13:00:00,1221A,118.2442,33.9592,宿迁市,宿迁中学,颗粒物(PM10),67,83,98,41,45,91,48,40,21,37,35,10,8,0.8,0.7
2023-01-12T13:00:00,1223A,120.2072,30.2111,杭州市,滨江,,47,47,84,19,39,92,82,31,31,21,51,8,7,0.4,0.5
2023-01-12T13:00:00,1224A,120.0633,30.2747,杭州市,西溪,颗粒物(PM10),58,66,82,29,47,81,77,24,24,38,35,10,9,0.5,0.5
2023-01-12T13:00:00,1226A,120.3461,30.3153,杭州市,下沙,细颗粒物(PM2.5),69,61,70,50,50,128,68,33,33,45,49,7,6,0.6,0.7
2023-01-12T13:00:00,1227A,120.1269,30.2456,杭州市,卧龙桥,,,56,68,36,40,82,82,24,24,,34,8,7,,0.7
2023-01-12T13:00:00,1228A,120.1903,30.2692,杭州市,浙江农大,细颗粒物(PM2.5),57,39,72,40,49,100,83,36,36,23,43,9,8,0.7,0.8
2023-01-12T13:00:00,1230A,120.1197,30.3119,杭州市,和睦小学,颗粒物(PM10),65,80,95,39,53,100,81,26,26,42,59,6,5,0.6,0.6
2023-01-12T13:00:00,1231A,120.3019,30.4183,杭州市,临平镇,,,55,75,34,46,127,87,29,29,17,35,8,7,,0.7
2023-01-12T13:00:00,1232A,120.2697,30.1819,杭州市,城厢镇,颗粒物(PM10),56,62,76,38,47,106,66,26,26,38,53,8,7,0.7,0.7
2023-01-12T13:00:00,1233A,120.0883,30.1808,杭州市,云栖,,,54,64,35,37,77,77,21,21,34,34,6,6,,0.7
2023-01-12T13:00:00,1234A,121.8358,29.911,宁波市,区环保大楼,,20,4,39,8,18,70,61,21,21,13,55,6,8,0.4,0.5
2023-01-12T13:00:00,1235A,121.56,29.82,宁波市,万里学院,,25,23,36,17,21,101,65,38,29,19,38,6,6,0.4,0.4
2023-01-12T13:00:00,1236A,121.713,29.9572,宁波市,龙赛医院,,28,28,49,13,18,69,53,26,24,22,41,9,10,0.6,0.7
2023-01-12T13:00:00,1239A,121.633,29.7733,宁波市,钱湖水厂,,20,9,27,9,18,97,63,46,41,8,13,3,3,0.4,0.4
2023-01-12T13:00:00,1240A,121.5856,29.8635,宁波市,太古小学,,,16,37,14,24,92,64,56,24,12,33,7,8,,0.4
2023-01-12T13:00:00,1241A,121.524,29.8674,宁波市,市环境监测中心,,18,18,34,7,16,90,53,47,24,16,30,7,5,0.4,0.3
2023-01-12T13:00:00,1242A,120.634,28.0089,温州市,瓯海,,42,33,42,29,30,80,40,39,24,28,34,6,6,0.5,0.5
2023-01-12T13:00:00,1243A,120.6748,27.9939,温州市,南浦,,33,33,43,22,24,84,45,49,32,24,25,4,4,0.4,0.2
2023-01-12T13:00:00,1244A,120.76,27.9747,温州市,龙湾,,46,46,46,32,24,92,29,46,24,37,32,6,5,0.3,0.2
2023-01-12T13:00:00,1245A,120.6709,28.0167,温州市,市站,,43,43,50,25,24,81,35,42,34,32,30,6,5,0.7,0.6
2023-01-12T13:00:00,1247A,120.6053,29.9928,绍兴市,城东开发委,,33,33,68,19,37,114,81,33,33,15,40,4,4,0.6,0.7
2023-01-12T13:00:00,1250A,120.0751,30.8669,湖州市,城西水厂,细颗粒物(PM2.5),92,72,53,68,53,125,79,36,30,38,37,6,5,0.5,0.5
2023-01-12T13:00:00,1252A,120.7436,30.778,嘉兴市,清河小学,,27,24,35,17,18,110,86,59,41,15,26,6,6,0.3,0.6
2023-01-12T13:00:00,1253A,120.726,30.7478,嘉兴市,嘉兴学院,,30,30,55,19,23,113,84,56,47,19,27,9,8,0.4,0.4
2023-01-12T13:00:00,1255A,121.273,28.6459,台州市,黄岩环保大楼,细颗粒物(PM2.5),53,41,36,37,18,96,50,57,42,19,16,6,7,0.4,0.4
2023-01-12T13:00:00,1256A,121.419,28.6542,台州市,台州环保大楼,,46,36,29,32,22,97,54,50,40,28,20,7,7,0.5,0.5
2023-01-12T13:00:00,1257A,121.377,28.5773,台州市,路桥田洋王,,,44,35,37,24,92,55,50,40,21,19,7,6,,0.5
2023-01-12T13:00:00,1258A,122.122,30.0203,舟山市,定海檀枫,,18,2,24,12,13,92,56,62,47,20,17,4,4,0.4,0.4
2023-01-12T13:00:00,1259A,122.3094,29.9558,舟山市,普陀东港,,36,0,27,25,20,84,53,58,50,22,21,5,5,0.4,0.5
2023-01-12T13:00:00,1260A,122.19,29.9944,舟山市,临城新区,,,10,28,10,17,94,51,58,43,33,22,,5,0.2,0.3
2023-01-12T13:00:00,1262A,119.647,29.077,金华市,十五中,颗粒物(PM10),62,73,79,34,46,100,59,27,27,36,53,6,5,0.5,0.6
2023-01-12T13:00:00,1263A,119.686,29.1029,金华市,监测站,,,,66,,56,101,,67,,,23,,6,,0.5
2023-01-12T13:00:00,1264A,118.8692,28.9398,衢州市,环保大楼,颗粒物(PM10),55,60,84,36,57,96,55,24,24,31,47,4,6,0.5,0.7
2023-01-12T13:00:00,1265A,118.8709,28.9666,衢州市,实验学校,细颗粒物(PM2.5),62,58,81,44,60,93,50,20,20,35,46,6,8,0.4,0.6
2023-01-12T13:00:00,1266A,118.8621,28.9808,衢州市,衢州学院,,,59,79,51,53,96,51,19,19,24,39,,5,0.6,0.7
2023-01-12T13:00:00,1267A,119.914,28.4514,丽水市,监测站大楼,,30,30,42,14,16,92,72,64,38,10,19,8,8,0.4,0.5
2023-01-12T13:00:00,1268A,119.93,28.4586,丽水市,莲都小学,,27,27,33,14,19,102,78,64,42,12,22,8,8,0.4,0.5
2023-01-12T13:00:00,1269A,119.879,28.4231,丽水市,余庄前,,22,20,26,8,15,91,69,48,32,14,18,8,8,0.4,0.4
2023-01-12T13:00:00,1270A,117.1959,31.7848,合肥市,明珠广场,细颗粒物(PM2.5),70,85,107,51,61,89,45,28,24,39,51,5,7,0.9,0.8
2023-01-12T13:00:00,1271A,117.3072,31.8764,合肥市,三里街,细颗粒物(PM2.5),90,85,118,67,78,95,36,18,18,48,66,6,9,1.0,0.9
2023-01-12T13:00:00,1272A,117.2588,31.8707,合肥市,琥珀山庄,细颗粒物(PM2.5),67,78,107,48,60,108,59,39,39,34,49,9,11,0.8,0.7
2023-01-12T13:00:00,1273A,117.1604,31.9052,合肥市,董铺水库,颗粒物(PM10),67,83,109,46,61,95,41,35,32,29,37,3,4,0.7,0.6
2023-01-12T13:00:00,1274A,117.25,31.8571,合肥市,长江中路,细颗粒物(PM2.5),83,95,106,61,68,99,57,39,36,30,41,10,12,1.0,0.9
2023-01-12T13:00:00,1275A,117.266,31.9436,合肥市,庐阳区,细颗粒物(PM2.5),77,88,120,56,67,88,50,25,25,36,62,9,10,0.8,0.7
2023-01-12T13:00:00,1276A,117.336,31.8586,合肥市,瑶海区,细颗粒物(PM2.5),75,83,123,55,73,99,60,23,23,25,62,7,8,1.0,1
2023-01-12T13:00:00,1277A,117.3027,31.7964,合肥市,包河区,,,,106,,67,108,71,32,32,24,46,,9,,0.8
2023-01-12T13:00:00,1278A,117.2776,31.7385,合肥市,滨湖新区,细颗粒物(PM2.5),70,83,104,51,61,106,67,50,47,24,33,6,7,0.8,0.7
2023-01-12T13:00:00,1279A,117.1318,31.8403,合肥市,高新区,,,,101,,62,99,52,44,38,,44,7,9,0.9,0.7
2023-01-12T13:00:00,1280A,119.3903,26.0543,福州市,鼓山,,,,,,,,,,,,,,,,
2023-01-12T13:00:00,1282A,119.2681,26.0504,福州市,师大,,35,35,30,18,16,37,34,25,22,28,29,4,4,0.6,0.6
2023-01-12T13:00:00,1283A,119.2984,26.1028,福州市,五四北路,,26,23,23,18,15,44,33,13,13,29,30,3,3,0.5,0.5
2023-01-12T13:00:00,1284A,119.2648,26.0768,福州市,杨桥西路,,32,32,28,17,19,40,32,21,20,24,26,3,3,0.5,0.5
2023-01-12T13:00:00,1285A,119.317,26.0746,福州市,紫阳,,34,34,31,20,16,45,32,16,13,32,34,3,3,0.7,0.6
2023-01-12T13:00:00,1286A,118.1608,24.8169,厦门市,溪东,,,,,,,,,,,,,,,,
2023-01-12T13:00:00,1287A,118.1514,24.4767,厦门市,洪文,,34,34,31,20,18,66,47,18,18,34,43,2,2,0.8,0.7
2023-01-12T13:00:00,1288A,118.0661,24.4444,厦门市,鼓浪屿,细颗粒物(PM2.5),57,51,39,40,27,56,11,9,9,64,59,7,5,0.8,0.7
2023-01-12T13:00:00,1290A,115.8931,28.6843,南昌市,省外办,细颗粒物(PM2.5),108,106,137,81,92,102,11,7,7,59,62,8,9,1.3,1.3
2023-01-12T13:00:00,1291A,115.8886,28.7003,南昌市,省林业公司,细颗粒物(PM2.5),83,73,119,61,85,94,10,30,4,62,66,6,7,1.5,1.4
2023-01-12T13:00:00,1292A,115.8126,28.7442,南昌市,林科所,,39,36,90,27,58,107,21,11,11,27,52,7,8,0.6,0.8
2023-01-12T13:00:00,1294A,115.8518,28.687,南昌市,建工学校,细颗粒物(PM2.5),78,94,132,57,77,102,14,21,5,46,63,8,9,1.0,1.1
2023-01-12T13:00:00,1295A,115.8921,28.6424,南昌市,象湖,,,52,112,49,80,93,9,3,3,39,57,,7,1.0,1.2
2023-01-12T13:00:00,1296A,115.7423,28.7996,南昌市,武术学校,,45,40,50,31,46,99,37,20,20,2,11,10,9,0.6,0.6
2023-01-12T13:00:00,1298A,115.9314,28.6842,南昌市,省站,细颗粒物(PM2.5),70,81,149,51,87,102,14,8,8,36,49,11,11,1.3,1.3
2023-01-12T13:00:00,1299A,116.9862,36.6114,济南市,科干所,细颗粒物(PM2.5),132,185,115,100,67,103,9,22,21,100,57,29,16,1.4,0.9
2023-01-12T13:00:00,1300A,116.9376,36.665,济南市,农科所,细颗粒物(PM2.5),123,166,169,93,93,86,4,6,5,98,84,22,27,1.4,1.6
2023-01-12T13:00:00,1301A,117.1265,36.6734,济南市,开发区,细颗粒物(PM2.5),118,178,110,89,67,61,9,21,20,104,67,17,14,1.6,1.1
2023-01-12T13:00:00,1303A,117.0624,36.6868,济南市,省种子仓库,细颗粒物(PM2.5),153,188,171,117,102,60,7,7,6,97,69,32,31,1.4,1.3
2023-01-12T13:00:00,1304A,116.9489,36.6447,济南市,机床二厂,,,,171,,104,87,8,8,8,102,76,24,32,1.7,1.9
2023-01-12T13:00:00,1305A,117.0495,36.663,济南市,市监测站,细颗粒物(PM2.5),160,215,136,122,79,57,4,6,6,124,89,32,20,2.1,1.3
2023-01-12T13:00:00,1306A,116.7675,36.5484,济南市,长清党校,细颗粒物(PM2.5),144,164,109,110,60,92,13,24,20,87,62,13,9,1.0,0.7
2023-01-12T13:00:00,1307A,120.6659,36.2403,青岛市,仰口,,20,12,19,9,12,98,63,95,69,17,12,4,4,0.3,0.2
2023-01-12T13:00:00,1310A,120.4134,36.0658,青岛市,市南区东部子站,,34,34,21,7,10,86,64,84,67,13,14,8,8,0.5,0.4
2023-01-12T13:00:00,1311A,120.3664,36.1032,青岛市,四方区子站,,17,14,26,9,11,82,54,82,54,12,10,6,6,0.6,0.5
2023-01-12T13:00:00,1312A,120.2994,36.054,青岛市,市南区西部子站,,29,29,20,7,6,92,70,92,72,20,21,7,7,0.5,0.5
2023-01-12T13:00:00,1313A,120.4581,36.0858,青岛市,崂山区子站,,23,22,22,7,6,98,72,98,75,16,13,7,7,0.1,0.1
2023-01-12T13:00:00,1314A,120.1983,35.9608,青岛市,黄岛区子站,,20,7,23,7,11,101,64,101,64,18,10,5,4,0.4,0.4
2023-01-12T13:00:00,1315A,120.3999,36.3083,青岛市,城阳区子站,,22,17,29,15,15,92,63,88,56,24,27,6,5,0.4,0.5
2023-01-12T13:00:00,1316A,113.69031,34.76122,郑州市,烟厂,细颗粒物(PM2.5),204,180,168,154,155,58,12,39,22,42,38,4,4,0.8,0.7
2023-01-12T13:00:00,1317A,113.65724,34.77134,郑州市,郑纺机,细颗粒物(PM2.5),193,174,170,145,147,60,16,40,27,38,33,3,3,1.0,1.1
2023-01-12T13:00:00,1318A,113.67526,34.80246,郑州市,银行学校,细颗粒物(PM2.5),204,179,173,154,151,66,18,32,25,38,38,8,7,1.1,1
2023-01-12T13:00:00,1319A,113.56746,34.81334,郑州市,供水公司,细颗粒物(PM2.5),178,180,173,134,136,71,14,32,23,41,38,4,4,1.1,1
2023-01-12T13:00:00,1320A,113.7329,34.7178,郑州市,经开区管委,细颗粒物(PM2.5),196,177,172,147,149,60,15,34,23,38,34,6,6,0.9,0.9
2023-01-12T13:00:00,1321A,113.73961,34.77172,郑州市,四十七中,细颗粒物(PM2.5),214,186,177,164,159,59,17,26,21,31,32,5,4,1.1,1
2023-01-12T13:00:00,1322A,113.60532,34.74838,郑州市,市监测站,细颗粒物(PM2.5),195,176,188,146,148,68,14,40,28,36,30,5,5,1.0,0.8
2023-01-12T13:00:00,1323A,113.64164,34.7525,郑州市,河医大,细颗粒物(PM2.5),198,183,176,148,149,56,9,35,20,43,35,3,2,1.3,1.1
2023-01-12T13:00:00,1324A,113.51488,34.91089,郑州市,岗李水库,,,,,,,,,,,,,,,,
2023-01-12T13:00:00,1325A,114.3677,30.5584,武汉市,东湖梨园,颗粒物(PM10),86,121,122,51,79,124,40,32,24,29,45,8,7,1.2,1.3
2023-01-12T13:00:00,1326A,114.2529,30.558,武汉市,汉阳月湖,细颗粒物(PM2.5),67,71,119,48,86,101,24,25,17,40,66,7,7,1.2,1.4
2023-01-12T13:00:00,1327A,114.282,30.6189,武汉市,汉口花桥,细颗粒物(PM2.5),68,79,125,49,78,95,32,41,27,27,53,7,8,1.1,1.3
2023-01-12T13:00:00,1328A,114.3025,30.5332,武汉市,武昌紫阳,细颗粒物(PM2.5),77,63,120,56,85,124,24,16,16,34,64,10,10,1.4,1.9
2023-01-12T13:00:00,1329A,114.3646,30.6217,武汉市,青山钢花,细颗粒物(PM2.5),77,74,121,56,86,122,35,45,31,31,61,11,12,1.2,1.5
2023-01-12T13:00:00,1330A,114.1566,30.4825,武汉市,沌口新区,,,85,123,44,67,89,,38,20,50,76,15,14,1.0,1
2023-01-12T13:00:00,1331A,114.3014,30.5944,武汉市,汉口江滩,细颗粒物(PM2.5),59,59,103,42,68,104,33,42,27,34,59,8,9,1.3,1.4
2023-01-12T13:00:00,1333A,114.135,30.6319,武汉市,吴家山,,,98,149,56,88,107,,14,14,42,87,9,9,1.1,1.7
2023-01-12T13:00:00,1334A,113.8454,30.2917,武汉市,沉湖七壕,,49,48,106,34,67,124,31,38,32,21,26,10,10,1.1,1.1
2023-01-12T13:00:00,1335A,113.0833,28.2325,长沙市,经开区环保局,细颗粒物(PM2.5),57,45,84,40,63,135,42,58,31,14,25,3,4,0.8,0.9
2023-01-12T13:00:00,1336A,112.8872,28.2189,长沙市,高开区环保局,细颗粒物(PM2.5),78,56,93,57,86,142,44,55,35,16,23,7,7,0.7,0.8
2023-01-12T13:00:00,1337A,113.0792,28.2053,长沙市,马坡岭,细颗粒物(PM2.5),60,48,92,43,72,142,41,54,29,11,22,6,7,0.6,0.7
2023-01-12T13:00:00,1338A,112.9394,28.19,长沙市,湖南师范大学,,,47,100,44,84,129,,22,18,15,32,4,4,,0.9
2023-01-12T13:00:00,1339A,113.0178,28.1322,长沙市,雨花区环保局,细颗粒物(PM2.5),67,44,88,48,73,128,29,48,24,24,28,3,4,0.6,0.7
2023-01-12T13:00:00,1340A,112.9792,28.2597,长沙市,伍家岭,细颗粒物(PM2.5),75,55,108,55,78,135,31,55,25,28,38,6,7,0.9,1.1
2023-01-12T13:00:00,1341A,113.0014,28.1944,长沙市,火车新站,细颗粒物(PM2.5),77,64,102,56,84,122,29,49,26,27,37,6,7,0.9,1
2023-01-12T13:00:00,1342A,112.9844,28.1178,长沙市,天心区环保局,颗粒物(PM10),53,56,104,36,77,136,31,34,20,28,40,8,8,0.6,0.7
2023-01-12T13:00:00,1343A,112.8908,28.1308,长沙市,湖南中医药大学,细颗粒物(PM2.5),64,64,118,46,84,127,30,45,18,22,38,5,5,0.9,1
2023-01-12T13:00:00,1344A,112.9581,28.3611,长沙市,沙坪,细颗粒物(PM2.5),73,58,103,53,86,124,39,48,25,25,38,3,3,0.7,0.8
2023-01-12T13:00:00,1345A,113.2347,23.1423,广州市,广雅中学,,43,39,28,30,22,16,5,6,6,51,41,4,4,1.5,1.2
2023-01-12T13:00:00,1346A,113.2612,23.105,广州市,市五中,,48,33,28,33,25,23,12,8,8,44,39,5,5,1.0,1
2023-01-12T13:00:00,1348A,113.3478,23.0916,广州市,广东商学院,,39,33,28,27,21,23,12,9,9,45,36,6,5,0.7,0.7
2023-01-12T13:00:00,1349A,113.4332,23.1047,广州市,市八十六中,,40,40,33,27,23,16,9,7,7,49,38,4,4,0.8,0.8
2023-01-12T13:00:00,1350A,113.3505,22.9483,广州市,番禺中学,细颗粒物(PM2.5),58,37,34,41,36,23,19,9,9,53,44,4,5,0.8,0.9
2023-01-12T13:00:00,1351A,113.2146,23.3916,广州市,花都师范,,,13,22,9,16,35,6,4,4,32,30,5,5,,0.7
2023-01-12T13:00:00,1352A,113.2597,23.1331,广州市,市监测站,,38,38,28,26,21,21,4,6,6,51,39,6,5,1.1,0.9
2023-01-12T13:00:00,1353A,113.5618,23.312,广州市,九龙镇镇龙,,23,20,18,16,15,28,8,5,5,25,26,3,3,0.7,0.6
2023-01-12T13:00:00,1354A,113.2765,23.1544,广州市,麓湖,,30,30,24,21,19,24,4,4,4,38,32,3,3,0.9,0.8
2023-01-12T13:00:00,1355A,113.443,23.3035,广州市,帽峰山森林公园,,,,15,,12,26,,25,,,15,,3,,0.4
2023-01-12T13:00:00,1356A,114.1063,22.5545,深圳市,通心岭子站,,17,13,22,8,14,57,52,53,47,10,17,2,3,0.5,0.5
2023-01-12T13:00:00,1357A,114.117,22.5625,深圳市,洪湖,,20,20,27,10,17,61,60,54,50,13,23,7,7,0.6,0.6
2023-01-12T13:00:00,1358A,113.987,22.5417,深圳市,华侨城,,17,15,25,10,18,53,53,50,48,16,23,5,4,0.7,0.8
2023-01-12T13:00:00,1359A,113.9181,22.5171,深圳市,南海子站,,16,16,25,8,15,58,51,57,49,13,18,4,3,0.5,0.5
2023-01-12T13:00:00,1360A,114.2458,22.5689,深圳市,盐田,,22,22,22,15,14,53,26,31,31,36,36,6,6,0.6,0.6
2023-01-12T13:00:00,1361A,114.2283,22.7244,深圳市,龙岗,,17,16,28,8,17,58,54,51,36,11,23,3,3,0.7,0.8
2023-01-12T13:00:00,1363A,114.494,22.5422,深圳市,南澳,,22,17,22,10,14,72,68,68,55,9,14,3,3,0.1,0.2
2023-01-12T13:00:00,1364A,114.41,22.6342,深圳市,葵涌,,20,14,21,10,16,67,64,58,50,7,11,6,5,0.7,0.7
2023-01-12T13:00:00,1365A,114.297,22.5978,深圳市,梅沙,,16,16,20,7,11,76,49,67,40,18,12,4,3,0.5,0.6
2023-01-12T13:00:00,1366A,114.0678,22.738,深圳市,观澜,,20,20,32,10,19,48,43,48,38,25,23,6,6,0.5,0.6
2023-01-12T13:00:00,1367A,113.5814,22.2618,珠海市,吉大,,19,19,20,12,16,60,60,45,45,17,31,7,7,0.3,0.4
2023-01-12T13:00:00,1368A,113.4881,22.2335,珠海市,前山,,26,26,36,11,11,60,60,42,42,20,40,3,2,0.4,0.5
2023-01-12T13:00:00,1369A,113.628,22.4251,珠海市,唐家,,22,21,22,15,17,55,55,41,41,21,33,8,8,0.4,0.4
2023-01-12T13:00:00,1370A,113.299,22.2281,珠海市,斗门,,20,20,27,13,30,38,38,26,26,30,35,3,3,0.5,0.6
2023-01-12T13:00:00,1371A,113.1294,23.0067,佛山市,湾梁,,31,31,23,19,14,17,6,5,5,42,37,8,7,0.8,0.8
2023-01-12T13:00:00,1372A,113.1083,23.0478,佛山市,华材职中,,43,36,23,30,19,16,4,4,4,38,34,7,7,0.8,0.6
2023-01-12T13:00:00,1373A,113.144,23.0453,佛山市,南海气象局,,45,45,25,28,18,10,0,0,0,42,35,5,5,0.9,0.8
2023-01-12T13:00:00,1374A,113.2881,22.8094,佛山市,顺德苏岗,,32,15,16,22,18,17,7,2,2,48,36,6,6,0.8,1
2023-01-12T13:00:00,1376A,112.8383,22.8678,佛山市,高明孔堂,,35,35,20,22,15,37,7,14,14,44,32,2,2,0.8,0.7
2023-01-12T13:00:00,1377A,112.8836,23.1588,佛山市,三水监测站,,20,14,16,14,16,29,5,3,2,30,31,7,6,0.9,0.8
2023-01-12T13:00:00,1378A,112.867,23.185,佛山市,三水云东海,,14,2,14,7,14,30,5,5,3,28,26,4,4,0.6,0.6
2023-01-12T13:00:00,1379A,113.3769,22.5211,中山市,华柏园,,32,28,27,22,21,24,24,16,16,42,44,5,5,0.7,0.7
2023-01-12T13:00:00,1380A,113.3881,22.5497,中山市,张溪,,28,28,32,15,24,26,26,16,16,26,30,3,2,0.5,0.7
2023-01-12T13:00:00,1381A,113.4075,22.5111,中山市,紫马岭,,29,29,25,13,20,27,27,18,18,32,28,4,3,0.5,0.6
2023-01-12T13:00:00,1382A,113.4411,22.4853,中山市,长江旅游区,,,,,,,,,,,,,,,,
2023-01-12T13:00:00,1383A,113.1064,22.6058,江门市,北街,,33,31,22,23,15,18,18,9,9,45,45,6,6,0.8,0.9
2023-01-12T13:00:00,1384A,113.0731,22.5835,江门市,西区,,29,29,23,20,17,25,25,7,7,36,44,6,6,0.6,0.8
2023-01-12T13:00:00,1385A,113.0219,22.5311,江门市,圭峰西,,36,36,23,24,22,31,26,14,14,41,46,4,4,0.9,0.9
2023-01-12T13:00:00,1386A,113.0828,22.5947,江门市,东湖,,38,38,25,25,16,25,25,9,9,34,37,6,6,0.7,0.8
2023-01-12T13:00:00,1389A,113.7547,23.0494,东莞市,莞城梨川,,38,36,34,26,23,35,35,26,26,35,31,8,8,0.5,0.6
2023-01-12T13:00:00,1390A,113.7944,23.0128,东莞市,东城石井,,35,33,32,24,21,39,39,22,22,32,28,9,9,0.7,0.7
2023-01-12T13:00:00,1391A,113.7383,22.9658,东莞市,南城西平,,29,29,32,2,14,41,38,21,20,32,34,10,10,0.9,0.8
2023-01-12T13:00:00,1392A,114.4183,23.0528,惠州市,河南岸金山湖子站,,50,50,35,28,25,41,22,36,25,24,16,6,4,0.6,0.5
2023-01-12T13:00:00,1393A,114.4053,23.0822,惠州市,下埔横江三路子站,,34,34,25,21,19,48,24,41,22,24,22,4,2,0.7,0.7
2023-01-12T13:00:00,1394A,114.4103,23.1142,惠州市,江北云山西路子站,,35,34,28,24,24,50,25,43,18,16,16,5,4,0.6,0.5
2023-01-12T13:00:00,1395A,114.4645,22.7833,惠州市,惠阳区承修路船湖子站,,34,34,37,18,19,70,54,59,31,13,19,4,3,0.5,0.6
2023-01-12T13:00:00,1396A,114.5317,22.7422,惠州市,大亚湾管委会子站,,,24,40,13,16,74,50,50,33,16,24,,3,0.6,0.6
2023-01-12T13:00:00,1397A,112.4267,23.0706,肇庆市,睦岗子站,,,12,13,9,11,36,11,18,7,46,35,,6,0.6,0.6
2023-01-12T13:00:00,1398A,112.4645,23.0475,肇庆市,城中子站,,23,14,13,12,11,39,10,14,8,45,35,9,8,1.0,0.7
2023-01-12T13:00:00,1399A,112.5544,23.1522,肇庆市,坑口子站,,22,16,14,14,13,36,10,16,6,44,33,9,8,0.4,0.3
2023-01-12T13:00:00,1400A,112.4753,23.1,肇庆市,七星岩子站,,17,9,11,8,7,38,10,15,7,34,22,4,3,0.7,0.6
2023-01-12T13:00:00,1401A,108.3103,22.7881,南宁市,二十一中,,19,19,11,8,4,36,16,20,11,22,21,3,3,1.1,1
2023-01-12T13:00:00,1402A,108.3141,22.8528,南宁市,北湖,,24,24,16,14,9,37,15,16,7,22,21,6,6,1.1,0.9
2023-01-12T13:00:00,1403A,108.3206,22.8225,南宁市,市监测站,,16,14,13,11,8,33,20,22,10,26,26,8,8,0.9,0.8
2023-01-12T13:00:00,1404A,108.3829,22.8037,南宁市,大自然花园,,,21,9,7,8,33,14,21,9,21,20,5,5,,0.9
2023-01-12T13:00:00,1405A,108.4394,22.7904,南宁市,仙葫,,12,11,7,8,9,42,18,26,9,17,18,7,8,0.8,0.7
2023-01-12T13:00:00,1406A,108.2397,22.8467,南宁市,区农职院,,25,25,13,14,5,32,13,8,4,30,31,6,6,1.0,0.9
2023-01-12T13:00:00,1407A,108.3275,22.735,南宁市,英华嘉园,,25,25,17,14,6,33,12,25,10,22,19,5,5,0.9,0.8
2023-01-12T13:00:00,1408A,108.2257,22.7757,南宁市,沙井镇街道办,,26,26,16,16,11,15,13,3,3,26,39,4,5,1.0,0.8
2023-01-12T13:00:00,1409A,110.576,19.9507,海口市,东寨港,,,20,26,11,11,43,22,26,20,,,2,2,0.4,0.4
2023-01-12T13:00:00,1410A,110.3232,20.0574,海口市,海南大学,,43,43,36,22,14,85,60,65,50,11,10,4,4,0.6,0.6
2023-01-12T13:00:00,1411A,110.283,20.0053,海口市,秀英海南医院,,42,42,36,19,10,79,30,58,44,31,13,6,5,0.7,0.6
2023-01-12T13:00:00,1412A,110.338,19.9969,海口市,海南师范大学,,33,33,38,8,8,76,47,52,41,6,9,2,4,0.4,0.7
2023-01-12T13:00:00,1413A,110.33,20.0356,海口市,龙华路环保局宿舍,,46,46,34,19,12,71,39,52,40,12,8,4,4,0.6,0.6
2023-01-12T13:00:00,1414A,106.3787,29.8279,重庆市,缙云山,细颗粒物(PM2.5),130,127,120,99,85,105,55,71,71,56,41,4,5,0.9,0.8
2023-01-12T13:00:00,1416A,106.4213,29.8253,重庆市,天生,细颗粒物(PM2.5),188,193,207,141,162,40,20,6,6,56,45,,13,1.4,1.5
2023-01-12T13:00:00,1417A,106.6263,29.7228,重庆市,两路,细颗粒物(PM2.5),150,162,184,115,139,37,37,16,16,43,57,11,12,1.0,1.3
2023-01-12T13:00:00,1418A,106.2953,29.5983,重庆市,虎溪,,,,165,,157,61,61,20,20,,52,6,10,,1.1
2023-01-12T13:00:00,1419A,106.5777,29.5102,重庆市,南坪,细颗粒物(PM2.5),166,167,178,126,139,43,43,15,15,46,77,,10,1.2,1.6
2023-01-12T13:00:00,1420A,106.6556,29.6277,重庆市,唐家沱,细颗粒物(PM2.5),183,157,194,138,155,20,20,7,7,61,72,10,9,0.9,1
2023-01-12T13:00:00,1421A,106.6349,29.4906,重庆市,茶园,细颗粒物(PM2.5),153,155,189,117,142,52,52,21,21,,69,8,8,1.5,1.6
2023-01-12T13:00:00,1422A,106.3754,29.4572,重庆市,白市驿,细颗粒物(PM2.5),128,155,172,97,134,61,61,30,30,38,47,8,10,1.0,1.1
2023-01-12T13:00:00,1425A,106.6205,29.7166,重庆市,空港,细颗粒物(PM2.5),172,132,183,130,150,33,33,17,15,48,59,11,13,0.7,0.9
2023-01-12T13:00:00,1426A,106.4782,29.4875,重庆市,新山村,细颗粒物(PM2.5),159,162,190,121,145,38,38,17,16,44,65,9,9,0.4,0.6
2023-01-12T13:00:00,1427A,106.5616,29.6453,重庆市,礼嘉,细颗粒物(PM2.5),122,164,208,92,125,51,51,18,18,41,59,9,13,0.5,0.7
2023-01-12T13:00:00,1428A,106.4522,29.7091,重庆市,蔡家,细颗粒物(PM2.5),147,158,168,112,128,45,45,15,15,39,54,8,7,0.9,1.1
2023-01-12T13:00:00,1429A,106.5093,29.3917,重庆市,鱼新街,细颗粒物(PM2.5),147,145,189,112,155,52,45,15,15,34,68,14,14,1.3,1.8
2023-01-12T13:00:00,1431A,103.9728,30.7236,成都市,金泉两河,细颗粒物(PM2.5),112,97,162,84,139,65,65,16,16,26,51,2,1,0.8,1
2023-01-12T13:00:00,1432A,104.176,30.6872,成都市,十里店,,,,181,,151,8,,7,,,49,,3,,1.0
2023-01-12T13:00:00,1433A,104.079,30.5706,成都市,三瓦窑,细颗粒物(PM2.5),145,129,184,111,153,52,52,14,14,32,50,7,4,0.8,0.9
2023-01-12T13:00:00,1434A,104.1114,30.63,成都市,沙河铺,细颗粒物(PM2.5),152,139,191,116,165,50,50,11,11,40,49,4,3,1.0,1.1
2023-01-12T13:00:00,1437A,104.0786,30.6531,成都市,君平街,细颗粒物(PM2.5),160,134,204,122,181,60,60,17,17,39,60,4,4,0.9,1.1
2023-01-12T13:00:00,1438A,103.613,31.0283,成都市,灵岩寺,,45,34,119,31,94,80,80,49,49,12,23,4,8,0.6,0.8
2023-01-12T13:00:00,1439A,106.6899,26.5998,贵阳市,马鞍山,,35,29,36,24,30,95,81,62,52,7,13,8,7,0.4,0.7
2023-01-12T13:00:00,1440A,106.6971,26.5694,贵阳市,市环保站,,33,31,37,23,34,85,74,62,51,12,17,8,9,0.2,0.4
2023-01-12T13:00:00,1441A,106.6243,26.6266,贵阳市,鉴湖路,,34,34,43,22,27,96,83,68,62,7,10,5,6,0.3,0.3
2023-01-12T13:00:00,1442A,106.7487,26.6343,贵阳市,燕子冲,细颗粒物(PM2.5),52,41,44,36,39,91,77,60,51,9,12,9,7,0.3,0.4
2023-01-12T13:00:00,1443A,106.6555,26.4365,贵阳市,碧云窝,,36,36,43,19,30,99,82,70,64,6,8,7,8,0.2,0.4
2023-01-12T13:00:00,1444A,106.694,26.5161,贵阳市,中院村,,39,39,47,22,30,83,72,62,55,11,14,8,10,0.3,0.5
2023-01-12T13:00:00,1445A,106.7109,26.6027,贵阳市,红边门,,36,36,44,24,37,83,73,62,52,14,22,9,8,0.5,0.6
2023-01-12T13:00:00,1446A,106.7164,26.5699,贵阳市,新华路,,39,39,45,27,30,90,74,63,54,9,12,11,9,0.4,0.4
2023-01-12T13:00:00,1447A,106.674,26.5424,贵阳市,太慈桥,,39,39,47,19,26,96,82,68,58,8,11,7,9,0.3,0.4
2023-01-12T13:00:00,1450A,102.8204,24.8886,昆明市,呈贡新区,,,20,26,16,19,91,91,57,47,,17,,6,0.4,0.7
2023-01-12T13:00:00,1451A,102.6251,24.9608,昆明市,西山森林公园,,43,17,20,30,15,95,95,77,74,8,11,7,9,0.4,0.5
2023-01-12T13:00:00,1452A,102.7252,25.0902,昆明市,龙泉镇,,29,21,47,10,23,92,92,34,34,9,38,8,8,0.6,0.9
2023-01-12T13:00:00,1453A,102.7266,25.0375,昆明市,东风东路,,27,26,30,12,19,85,85,48,46,14,22,8,9,0.4,0.5
2023-01-12T13:00:00,1454A,102.6742,25.0669,昆明市,金鼎山,,30,22,34,12,24,96,96,57,42,5,20,8,13,0.4,0.5
2023-01-12T13:00:00,1455A,102.6644,25.0401,昆明市,碧鸡广场,,29,18,34,10,20,92,92,42,42,9,27,4,6,0.4,0.5
2023-01-12T13:00:00,1456A,91.1319,29.6514,拉萨市,八廓街,,29,29,22,16,11,95,69,52,52,17,22,6,6,0.6,0.7
2023-01-12T13:00:00,1457A,91.1221,29.6747,拉萨市,市环保局,,24,24,34,10,20,98,76,45,45,16,31,5,7,0.6,1
2023-01-12T13:00:00,1458A,91.0874,29.6475,拉萨市,区监测站,,27,27,18,16,11,103,76,55,53,14,17,6,6,0.5,0.5
2023-01-12T13:00:00,1459A,91.1774,29.6541,拉萨市,西藏大学,,24,16,15,8,8,100,74,58,58,15,15,10,10,0.4,0.3
2023-01-12T13:00:00,1460A,90.9798,29.6588,拉萨市,区辐射站,,32,32,35,15,17,108,68,44,44,19,34,6,8,0.6,1
2023-01-12T13:00:00,1461A,91.0834,29.6292,拉萨市,拉萨火车站,,27,27,18,2,5,94,68,44,36,15,25,9,9,0.4,0.5
2023-01-12T13:00:00,1462A,108.882,34.2749,西安市,高压开关厂,细颗粒物(PM2.5),265,276,220,215,170,54,28,14,14,102,79,10,11,1.7,1.3
2023-01-12T13:00:00,1463A,108.993,34.2629,西安市,兴庆小区,细颗粒物(PM2.5),254,220,186,204,173,55,31,13,13,80,66,12,10,1.9,1.5
2023-01-12T13:00:00,1464A,109.06,34.2572,西安市,纺织城,细颗粒物(PM2.5),260,254,211,210,174,46,26,9,9,86,72,16,12,1.6,1.4
2023-01-12T13:00:00,1465A,108.9356,34.2173,西安市,小寨,细颗粒物(PM2.5),256,279,243,206,176,31,23,21,8,102,78,11,11,2.0,1.6
2023-01-12T13:00:00,1466A,108.954,34.2713,西安市,市人民体育场,细颗粒物(PM2.5),246,266,201,196,165,55,,18,11,,72,,11,1.8,1.5
2023-01-12T13:00:00,1467A,108.8922,34.2322,西安市,高新西区,细颗粒物(PM2.5),304,279,209,254,178,48,29,24,17,109,77,11,11,2.1,1.6
2023-01-12T13:00:00,1468A,108.935,34.3474,西安市,经开区,细颗粒物(PM2.5),256,233,184,206,163,70,18,14,9,96,68,10,10,1.6,1.3
2023-01-12T13:00:00,1469A,108.906,34.1546,西安市,长安区,,,,256,,197,43,,10,10,70,83,7,9,,1.7
2023-01-12T13:00:00,1471A,109.2186,34.3731,西安市,临潼区,细颗粒物(PM2.5),251,271,192,201,150,62,35,12,12,73,64,13,12,1.7,1.6
2023-01-12T13:00:00,1472A,108.869,34.378,西安市,草滩,细颗粒物(PM2.5),149,214,175,114,89,64,24,11,11,77,63,14,11,0.0,0.3
2023-01-12T13:00:00,1473A,108.985,34.1978,西安市,曲江文化产业集团,细颗粒物(PM2.5),249,233,230,199,168,39,32,10,10,83,85,9,8,1.7,1.7
2023-01-12T13:00:00,1474A,109.051,34.3213,西安市,广运潭,细颗粒物(PM2.5),257,244,197,207,164,63,20,7,7,80,65,14,12,1.7,1.5
2023-01-12T13:00:00,1476A,103.631,36.1031,兰州市,兰炼宾馆,,,,171,,96,95,47,15,15,83,78,84,55,1.9,1.8
2023-01-12T13:00:00,1477A,104.1373,35.9454,兰州市,榆中兰大校区,,,,,,,,,,,,,,,,
2023-01-12T13:00:00,1478A,103.8412,36.0726,兰州市,生物制品所,细颗粒物(PM2.5),145,169,142,111,86,64,31,11,11,94,90,38,24,2.7,1.8
2023-01-12T13:00:00,1479A,103.831,36.0464,兰州市,铁路设计院,细颗粒物(PM2.5),168,191,147,127,100,76,32,16,16,115,102,39,29,3.0,3
2023-01-12T13:00:00,1483A,101.524,36.6867,西宁市,第五水厂,,,,,,,,,,,,,,,,
2023-01-12T13:00:00,1484A,105.9512,38.6016,银川市,贺兰山马莲口,细颗粒物(PM2.5),108,132,141,81,75,91,87,84,68,45,40,65,46,1.8,1.2
2023-01-12T13:00:00,1488A,106.2328,38.4975,银川市,贺兰山东路,细颗粒物(PM2.5),230,310,264,180,136,66,50,22,22,69,72,54,20,2.5,2.2
2023-01-12T13:00:00,1489A,106.1358,38.5036,银川市,学院路,颗粒物(PM10),177,303,247,129,110,62,53,16,16,,71,,27,2.9,2.3
2023-01-12T13:00:00,1490A,87.5801,43.8303,乌鲁木齐市,监测站,,28,28,33,6,24,60,49,58,45,31,27,6,5,0.5,0.5
2023-01-12T13:00:00,1491A,87.6046,43.768,乌鲁木齐市,收费所,,40,40,52,10,25,60,46,55,45,31,33,3,2,0.4,0.5
2023-01-12T13:00:00,1492A,87.4754,43.9469,乌鲁木齐市,新疆农科院农场,,,,33,49,70,73,64,71,63,17,15,5,6,0.8,0.8
2023-01-12T13:00:00,1493A,87.5525,43.8711,乌鲁木齐市,铁路局,,23,22,31,16,26,72,53,69,50,38,27,3,2,0.4,0.5
2023-01-12T13:00:00,1494A,87.6432,43.831,乌鲁木齐市,三十一中学,,17,17,34,7,24,60,50,55,43,29,24,5,4,0.4,0.4
2023-01-12T13:00:00,1496A,87.7216,44.1747,乌鲁木齐市,米东区环保局,,26,21,22,18,18,82,68,77,72,8,4,5,5,0.3,0.4
2023-01-12T13:00:00,1508A,112.9433,27.8614,湘潭市,板塘,,,53,105,50,88,117,25,52,19,15,29,16,5,,1.1
2023-01-12T13:00:00,1511A,112.9118,27.8403,湘潭市,市监测站,细颗粒物(PM2.5),82,72,112,60,93,124,33,62,23,20,28,8,10,1.0,1.2
2023-01-12T13:00:00,1512A,112.8937,27.8728,湘潭市,江麓,细颗粒物(PM2.5),64,73,109,46,90,129,39,66,29,17,24,9,9,0.8,0.9
2023-01-12T13:00:00,1513A,112.9227,27.8159,湘潭市,岳塘,细颗粒物(PM2.5),79,59,102,58,94,117,36,51,26,16,25,5,8,1.1,1.2
2023-01-12T13:00:00,1514A,112.9074,27.9119,湘潭市,科大,细颗粒物(PM2.5),59,62,89,42,68,74,42,57,30,63,53,2,2,0.8,0.9
2023-01-12T13:00:00,1515A,113.135,27.8244,株洲市,天台山庄,细颗粒物(PM2.5),82,65,87,60,69,126,35,51,29,19,27,5,5,1.0,1
2023-01-12T13:00:00,1518A,113.095,27.8867,株洲市,株冶医院,细颗粒物(PM2.5),74,51,87,54,70,125,38,45,24,17,26,4,5,0.3,0.5
2023-01-12T13:00:00,1519A,113.167,27.8667,株洲市,市四中,细颗粒物(PM2.5),90,51,91,67,84,126,37,46,25,14,25,7,8,0.6,0.8
2023-01-12T13:00:00,1520A,113.143,27.8381,株洲市,火车站,细颗粒物(PM2.5),87,58,88,64,74,128,32,48,25,21,29,6,6,0.9,1
2023-01-12T13:00:00,1524A,113.13,27.8528,株洲市,市监测站,细颗粒物(PM2.5),85,51,85,63,76,150,37,54,31,17,24,10,9,0.8,0.9
2023-01-12T13:00:00,1552A,106.805,26.3003,贵阳市,桐木岭,,,,,,,,,,,,,,,,
2023-01-12T13:00:00,1559A,113.251,27.8336,株洲市,大京风景区,细颗粒物(PM2.5),74,44,72,54,58,123,43,28,24,14,17,6,5,0.6,0.7
2023-01-12T13:00:00,1562A,113.0048,27.9153,湘潭市,昭山,细颗粒物(PM2.5),74,54,98,54,83,125,32,38,25,23,37,4,4,0.6,0.7
2023-01-12T13:00:00,1564A,112.4876,27.9164,湘潭市,韶山,细颗粒物(PM2.5),104,76,101,78,82,130,39,40,40,25,25,8,7,1.0,1
2023-01-12T13:00:00,1585A,109.8756,40.6532,包头市,市环境监测站,细颗粒物(PM2.5),156,168,143,119,106,57,45,24,24,75,81,66,39,1.8,1.9
2023-01-12T13:00:00,1587A,109.9991,40.5842,包头市,包头八中,细颗粒物(PM2.5),173,180,173,131,123,45,35,10,10,62,77,66,53,1.7,1.7
2023-01-12T13:00:00,1588A,109.8538,40.6821,包头市,青山宾馆,细颗粒物(PM2.5),200,203,169,150,135,55,29,9,9,78,82,51,29,1.9,2.1
2023-01-12T13:00:00,1589A,109.8642,40.6288,包头市,惠龙物流,细颗粒物(PM2.5),156,214,174,119,99,50,29,11,11,77,82,94,42,2.2,1.9
2023-01-12T13:00:00,1590A,110.0377,40.5546,包头市,东河鸿龙湾,细颗粒物(PM2.5),135,166,177,103,99,53,43,17,17,49,68,32,29,1.5,1.8
2023-01-12T13:00:00,1591A,110.0023,39.8129,鄂尔多斯市,综合楼,细颗粒物(PM2.5),147,175,158,112,97,86,52,68,44,53,50,27,19,1.5,1.2
2023-01-12T13:00:00,1592A,109.9486,39.8261,鄂尔多斯市,巴音孟克林场办事处,细颗粒物(PM2.5),140,158,145,107,93,86,46,69,42,59,48,38,23,1.6,1.3
2023-01-12T13:00:00,1593A,109.7736,39.5986,鄂尔多斯市,康泽苑,细颗粒物(PM2.5),128,156,168,97,97,107,,17,17,39,48,20,15,1.2,1.5
2023-01-12T13:00:00,1594A,109.8119,39.5989,鄂尔多斯市,华泰汽车城,细颗粒物(PM2.5),140,141,157,107,104,111,45,16,16,37,62,18,14,1.1,1.2
2023-01-12T13:00:00,1595A,109.9734,39.7884,鄂尔多斯市,奥林花园,细颗粒物(PM2.5),147,171,167,112,100,103,59,41,38,49,58,30,18,1.5,1.4
2023-01-12T13:00:00,1596A,122.2414,40.6592,营口市,学府南路,,,,,,,,,,,,,,,,
2023-01-12T13:00:00,1597A,122.2703,40.7094,营口市,大庆路,,43,39,67,30,52,67,67,59,55,24,36,25,20,0.6,0.8
2023-01-12T13:00:00,1598A,122.2150,40.6511,营口市,镜湖西路,,35,35,65,16,37,78,78,59,59,19,40,7,11,0.4,0.7
2023-01-12T13:00:00,1599A,122.1658,40.6789,营口市,西炮台,,45,45,62,29,44,67,67,57,57,22,31,9,10,0.6,0.7
2023-01-12T13:00:00,1600A,124.3303,40.0625,丹东市,江湾东路,,24,24,56,16,44,79,74,70,70,10,27,11,22,0.5,1.8
2023-01-12T13:00:00,1601A,124.4256,40.1503,丹东市,临江后街,,28,27,67,19,48,76,51,50,27,34,45,14,21,0.8,1.4
2023-01-12T13:00:00,1602A,124.3933,40.1461,丹东市,元宝山,,38,38,48,24,31,64,48,44,44,38,38,23,32,0.7,0.9
2023-01-12T13:00:00,1603A,124.3633,40.1092,丹东市,民主桥,,29,29,55,19,37,74,51,55,55,41,40,16,19,0.8,1.3
2023-01-12T13:00:00,1604A,122.0303,41.1489,盘锦市,开发区,,48,40,64,33,47,65,65,51,51,19,28,7,10,0.6,0.8
2023-01-12T13:00:00,1605A,122.0485,41.0883,盘锦市,兴隆台,,49,36,63,34,46,69,69,51,51,20,32,10,11,0.7,0.9
2023-01-12T13:00:00,1606A,121.8297,41.1028,盘锦市,新生街道,,50,41,52,35,46,66,66,58,58,16,27,7,9,0.6,0.8
2023-01-12T13:00:00,1607A,120.9092,40.7136,葫芦岛市,龙港区,,,32,64,33,55,60,46,58,45,26,34,6,9,,0.6
2023-01-12T13:00:00,1608A,120.8392,40.7514,葫芦岛市,化工街,细颗粒物(PM2.5),58,59,86,41,79,54,41,44,39,22,40,14,19,0.7,1.1
2023-01-12T13:00:00,1609A,120.8341,40.7073,葫芦岛市,新区,细颗粒物(PM2.5),62,45,79,44,70,55,48,48,40,17,33,15,18,0.6,0.9
2023-01-12T13:00:00,1610A,120.8695,40.7677,葫芦岛市,东城区,细颗粒物(PM2.5),60,49,86,43,70,51,45,44,35,26,42,9,16,0.6,1.1
2023-01-12T13:00:00,1611A,118.5819,24.9117,泉州市,涂山街,,32,32,34,19,17,72,52,30,30,20,22,8,8,0.6,0.6
2023-01-12T13:00:00,1612A,118.5972,24.8978,泉州市,津头埔,,40,37,35,28,19,66,46,26,26,32,30,8,8,0.7,0.8
2023-01-12T13:00:00,1613A,118.6663,24.9424,泉州市,万安,细颗粒物(PM2.5),54,36,31,38,18,79,79,44,31,25,26,9,7,0.6,0.5
2023-01-12T13:00:00,1614A,118.6117,24.9604,泉州市,清源山,,,,,,,,,,,,,,,,
2023-01-12T13:00:00,1616A,117.6795,36.229,济南市,技术学院,细颗粒物(PM2.5),104,97,83,78,62,85,33,31,31,50,22,13,9,1.4,0.8
2023-01-12T13:00:00,1618A,118.3429,35.0532,临沂市,沂河小区,细颗粒物(PM2.5),62,70,65,44,54,81,33,28,17,21,24,4,5,0.7,0.8
2023-01-12T13:00:00,1619A,118.295,35.0583,临沂市,鲁南制药厂,颗粒物(PM10),58,66,55,38,38,85,34,40,20,37,37,10,12,0.5,0.5
2023-01-12T13:00:00,1620A,118.2794,34.9976,临沂市,新光毛纺厂,细颗粒物(PM2.5),63,66,57,45,43,92,35,36,23,24,29,4,6,0.5,0.6
2023-01-12T13:00:00,1621A,118.3956,35.0888,临沂市,河东保险公司,颗粒物(PM10),57,63,58,36,46,82,35,34,16,29,32,8,7,0.6,0.7
2023-01-12T13:00:00,1622A,116.3032,37.4674,德州市,儿童乐园,细颗粒物(PM2.5),180,185,152,136,98,24,8,4,4,61,70,24,24,,1.5
2023-01-12T13:00:00,1624A,116.2991,37.4451,德州市,监理站,细颗粒物(PM2.5),195,223,163,146,107,25,11,7,7,76,72,32,30,1.5,1.3
2023-01-12T13:00:00,1625A,115.9848,36.4372,聊城市,区政府,细颗粒物(PM2.5),188,191,161,141,101,73,11,32,9,58,59,11,10,1.4,1.1
2023-01-12T13:00:00,1628A,118.0062,37.3803,滨州市,市环保局,细颗粒物(PM2.5),105,103,125,79,80,51,30,16,16,38,63,15,20,1.1,1.3
2023-01-12T13:00:00,1629A,118.0018,37.3617,滨州市,第二水厂,细颗粒物(PM2.5),100,100,116,75,78,49,31,16,16,34,60,7,16,1.1,1.4
2023-01-12T13:00:00,1630A,117.9776,37.393,滨州市,北中新校,,,,119,,76,51,33,14,14,36,61,,18,0.9,1.3
2023-01-12T13:00:00,1631A,118.0414,36.8103,淄博市,人民公园,细颗粒物(PM2.5),175,175,132,132,89,62,42,22,22,82,81,16,12,1.0,0.9
2023-01-12T13:00:00,1633A,117.8525,36.4847,淄博市,双山,,45,39,71,31,49,93,66,65,46,23,29,15,13,0.6,0.8
2023-01-12T13:00:00,1634A,117.9592,36.6331,淄博市,气象站,颗粒物(PM10),73,95,103,51,64,99,74,27,27,39,51,22,19,0.7,0.8
2023-01-12T13:00:00,1635A,118.3092,36.8194,淄博市,莆田园,细颗粒物(PM2.5),73,70,110,53,68,68,52,18,18,20,44,15,20,0.7,1.6
2023-01-12T13:00:00,1637A,117.558,34.8438,枣庄市,市中区政府,,,95,100,68,60,103,9,32,15,,46,9,11,,1
2023-01-12T13:00:00,1638A,117.2852,34.7837,枣庄市,薛城环保局,细颗粒物(PM2.5),98,81,79,73,59,98,23,56,25,41,40,10,10,1.1,0.9
2023-01-12T13:00:00,1639A,117.5852,34.7745,枣庄市,峄城区政府,细颗粒物(PM2.5),85,95,88,63,49,88,24,30,23,29,32,8,11,0.7,0.6
2023-01-12T13:00:00,1640A,117.7276,34.5578,枣庄市,台儿庄区环保局,细颗粒物(PM2.5),107,110,89,80,60,90,21,22,17,46,45,9,10,1.2,1
2023-01-12T13:00:00,1641A,117.4518,35.0992,枣庄市,山亭区环保局,细颗粒物(PM2.5),62,51,66,44,45,100,41,72,41,38,34,6,7,1.0,0.8
2023-01-12T13:00:00,1642A,121.2514,37.5639,烟台市,开发区,,21,19,21,14,18,71,65,64,46,17,24,10,9,0.6,0.6
2023-01-12T13:00:00,1643A,121.3719,37.5433,烟台市,轴承厂,,40,34,27,28,20,83,73,77,56,10,13,3,3,0.3,0.4
2023-01-12T13:00:00,1644A,121.3181,37.5436,烟台市,西郊化工站,,36,36,28,17,16,85,73,82,72,21,17,2,2,0.6,0.6
2023-01-12T13:00:00,1645A,121.4478,37.4822,烟台市,莱山环保局,,42,36,27,29,18,75,51,53,48,18,13,11,8,0.8,0.7
2023-01-12T13:00:00,1646A,121.2611,37.4967,烟台市,福山环保局,,,39,34,14,17,77,,63,40,18,25,10,8,0.1,0.2
2023-01-12T13:00:00,1650A,119.1437,36.7023,潍坊市,环保局,,46,46,44,31,31,74,58,63,48,28,26,6,5,0.6,0.7
2023-01-12T13:00:00,1653A,116.6251,35.4302,济宁市,火炬城,细颗粒物(PM2.5),132,147,87,100,72,105,11,60,10,50,44,10,10,0.9,0.7
2023-01-12T13:00:00,1655A,116.5491,35.4042,济宁市,电化厂,细颗粒物(PM2.5),122,150,109,92,73,98,20,60,22,35,30,5,7,0.8,0.6
2023-01-12T13:00:00,1656A,117.1437,36.1937,泰安市,监测站,细颗粒物(PM2.5),142,107,97,108,82,90,41,47,42,33,36,7,9,1.2,1
2023-01-12T13:00:00,1657A,117.0885,36.2017,泰安市,人口学校,细颗粒物(PM2.5),115,107,87,87,61,88,,55,45,31,26,9,11,0.9,0.6
2023-01-12T13:00:00,1658A,117.1089,36.1758,泰安市,电力学校,细颗粒物(PM2.5),128,107,96,97,78,80,32,38,34,34,38,10,12,1.2,1
2023-01-12T13:00:00,1659A,119.471,35.4209,日照市,监测站,,17,12,33,10,18,78,53,78,34,25,32,6,7,0.4,0.4
2023-01-12T13:00:00,1660A,119.523,35.4216,日照市,市政府广场,,18,9,25,7,12,82,57,68,58,14,13,4,4,0.6,0.6
2023-01-12T13:00:00,1661A,119.5587,35.4044,日照市,港务局,,20,7,24,7,12,89,61,77,61,21,22,5,5,0.4,0.4
2023-01-12T13:00:00,1662A,122.1214,37.4236,威海市,华夏技校,,41,41,29,27,21,87,61,82,59,27,19,2,2,0.5,0.4
2023-01-12T13:00:00,1663A,122.0508,37.5236,威海市,山大分校,,46,46,29,22,14,95,56,92,60,24,12,4,3,0.3,0.2
2023-01-12T13:00:00,1664A,122.1067,37.5072,威海市,市监测站,,,,27,,15,79,51,74,48,,27,1,1,0.6,0.5
2023-01-12T13:00:00,1666A,118.6614,37.4309,东营市,市环保局,细颗粒物(PM2.5),92,85,65,68,47,74,44,39,37,24,31,12,13,0.9,0.9
2023-01-12T13:00:00,1669A,113.5824,24.7733,韶关市,市八中,,32,22,24,22,20,57,17,24,17,17,14,9,8,0.7,0.5
2023-01-12T13:00:00,1671A,113.5917,24.7972,韶关市,园林处,,25,24,24,17,17,61,18,20,18,14,12,6,6,0.7,0.5
2023-01-12T13:00:00,1672A,113.6735,24.7791,韶关市,韶关学院,,23,15,23,16,22,52,15,13,13,16,18,6,6,0.6,0.6
2023-01-12T13:00:00,1673A,113.5971,24.6863,韶关市,曲江监测站,,40,27,33,28,29,70,36,22,22,22,24,11,8,0.7,0.6
2023-01-12T13:00:00,1674A,116.6794,23.3667,汕头市,金平子站,,25,25,26,11,19,81,52,40,25,18,25,12,11,0.6,0.7
2023-01-12T13:00:00,1675A,116.7244,23.3633,汕头市,龙湖子站,,23,18,27,16,23,71,56,47,32,18,24,11,11,0.6,0.6
2023-01-12T13:00:00,1676A,116.7258,23.2775,汕头市,濠江子站,,42,26,24,29,23,79,34,48,34,32,20,11,9,0.7,0.7
2023-01-12T13:00:00,1677A,116.7519,23.4714,汕头市,澄海子站,,28,27,29,19,26,81,45,34,26,24,28,6,5,0.7,0.7
2023-01-12T13:00:00,1678A,116.6092,23.2539,汕头市,潮阳子站,,20,16,25,10,18,82,61,40,36,10,17,6,6,0.5,0.6
2023-01-12T13:00:00,1680A,110.3539,21.2706,湛江市,湛江影剧院,,47,47,23,19,15,73,70,65,63,10,16,5,5,0.5,0.5
2023-01-12T13:00:00,1681A,110.3928,21.2228,湛江市,市环境监测站,,35,35,21,13,14,74,66,67,65,11,16,6,6,0.5,0.5
2023-01-12T13:00:00,1682A,110.4019,21.1997,湛江市,环保局宿舍,,28,28,22,17,18,79,71,69,66,10,16,3,3,0.5,0.5
2023-01-12T13:00:00,1683A,110.4111,21.2028,湛江市,霞山游泳场,,37,37,27,23,20,79,70,68,65,9,15,4,4,0.4,0.5
2023-01-12T13:00:00,1684A,110.3316,21.2679,湛江市,麻章区环保局,,35,35,21,18,14,73,64,66,62,14,15,5,5,0.5,0.6
2023-01-12T13:00:00,1685A,110.4558,21.2567,湛江市,坡头区环保局,,40,40,23,24,19,71,71,65,65,8,14,4,4,0.5,0.6
2023-01-12T13:00:00,1686A,111.0286,21.4688,茂名市,电白南海,,34,34,24,19,15,70,70,60,60,13,17,5,5,0.4,0.4
2023-01-12T13:00:00,1687A,110.9294,21.6533,茂名市,茂石化七小,,32,29,19,22,15,61,61,46,46,8,12,8,11,0.7,0.8
2023-01-12T13:00:00,1688A,110.9107,21.6687,茂名市,健康路,,29,29,16,13,9,67,67,50,50,9,14,10,11,0.6,0.6
2023-01-12T13:00:00,1689A,110.8592,21.6828,茂名市,高岭,,32,24,23,22,24,64,64,50,50,12,31,11,16,0.4,0.6
2023-01-12T13:00:00,1690A,116.1231,24.3284,梅州市,梅江月梅,,20,20,14,9,10,45,19,12,12,17,15,5,4,0.3,0.4
2023-01-12T13:00:00,1691A,116.0797,24.2719,梅州市,梅县新城,,,26,25,15,14,50,,7,7,20,26,7,7,0.8,1
2023-01-12T13:00:00,1692A,116.1248,24.2654,梅州市,环境监控中心,,19,18,21,13,11,49,28,14,14,17,20,8,8,0.7,0.6
2023-01-12T13:00:00,1693A,115.3653,22.775,汕尾市,市环保局,,23,23,25,7,14,73,71,53,41,7,14,9,8,0.5,0.5
2023-01-12T13:00:00,1694A,115.3706,22.7898,汕尾市,市政府,,26,26,21,16,19,74,65,54,37,12,15,8,8,0.5,0.5
2023-01-12T13:00:00,1695A,115.3622,22.7925,汕尾市,新城中学,,35,35,29,14,13,73,65,54,41,11,12,11,10,0.6,0.6
2023-01-12T13:00:00,1696A,114.6778,23.7569,河源市,源西,,26,25,17,18,11,34,9,5,5,29,22,3,3,1.0,0.7
2023-01-12T13:00:00,1697A,114.6944,23.7586,河源市,东埔,,26,20,19,18,15,31,8,3,3,26,20,4,4,0.9,0.8
2023-01-12T13:00:00,1698A,114.6892,23.7233,河源市,老城,,35,34,24,24,18,32,9,4,4,25,19,5,4,1.1,0.9
2023-01-12T13:00:00,1699A,111.9797,21.8593,阳江市,鸳鸯湖,,39,38,21,27,22,29,29,19,19,23,28,3,3,0.7,0.7
2023-01-12T13:00:00,1701A,111.9491,21.8658,阳江市,马南垌,,40,40,24,28,24,30,28,25,24,32,31,4,4,0.8,0.6
2023-01-12T13:00:00,1702A,113.0426,23.691,清远市,环保大楼,,28,15,26,19,27,45,7,15,3,47,26,3,3,1.0,0.9
2023-01-12T13:00:00,1703A,113.0208,23.7106,清远市,凤城街办,,15,12,22,10,17,35,15,7,5,24,26,5,6,0.7,0.8
2023-01-12T13:00:00,1705A,116.6367,23.6719,潮州市,西园路,细颗粒物(PM2.5),52,35,34,36,35,64,35,21,21,24,24,6,7,0.7,0.7
2023-01-12T13:00:00,1706A,116.6447,23.6706,潮州市,档案局,,50,38,34,35,33,63,31,18,18,26,25,6,7,0.6,0.7
2023-01-12T13:00:00,1708A,116.3701,23.5345,揭阳市,新兴,细颗粒物(PM2.5),58,36,41,41,43,67,60,21,21,17,29,8,7,0.6,0.7
2023-01-12T13:00:00,1709A,116.3264,23.5443,揭阳市,西马,细颗粒物(PM2.5),57,51,49,40,39,66,62,22,22,20,30,10,10,0.8,1
2023-01-12T13:00:00,1710A,116.3611,23.5626,揭阳市,东兴,颗粒物(PM10),51,52,45,35,36,67,64,24,24,22,33,8,6,0.6,0.8
2023-01-12T13:00:00,1711A,116.4151,23.5294,揭阳市,渔湖,,42,42,40,21,24,72,61,22,22,19,28,9,8,0.7,0.8
2023-01-12T13:00:00,1712A,112.0392,22.9169,云浮市,新市府,,21,6,7,8,6,22,9,8,7,41,30,7,6,1.0,0.8
2023-01-12T13:00:00,1714A,112.0539,22.9539,云浮市,牧羊,,19,10,7,6,6,28,12,16,8,38,29,5,6,0.9,0.6
2023-01-12T13:00:00,1715A,102.575,24.3711,玉溪市,东风水库,,28,19,34,8,25,87,87,33,31,6,16,4,5,0.4,0.8
2023-01-12T13:00:00,1718A,115.4208,35.2464,菏泽市,气象局,细颗粒物(PM2.5),208,233,181,158,121,85,12,17,13,50,52,4,8,1.3,1
2023-01-12T13:00:00,1719A,115.4747,35.2375,菏泽市,市政协,细颗粒物(PM2.5),188,205,170,141,124,81,6,9,8,51,58,9,9,1.4,1.1
2023-01-12T13:00:00,1721A,113.3819,40.1097,大同市,果树场,,,,,,,,,,,,,,,,
2023-01-12T13:00:00,1723A,113.2994,40.0758,大同市,云冈宾馆,细颗粒物(PM2.5),145,187,181,111,105,58,10,5,5,70,75,24,33,1.4,1.7
2023-01-12T13:00:00,1724A,113.3444,40.0917,大同市,大同大学,细颗粒物(PM2.5),124,160,161,94,95,36,11,8,8,58,67,22,34,1.3,1.5
2023-01-12T13:00:00,1725A,113.2661,40.1269,大同市,安家小村,细颗粒物(PM2.5),150,213,212,115,89,44,16,8,8,57,81,31,42,,2
2023-01-12T13:00:00,1726A,113.2711,40.0844,大同市,教育学院,细颗粒物(PM2.5),140,185,215,107,118,43,12,9,8,66,79,23,41,1.2,1.8
2023-01-12T13:00:00,1727A,113.1147,36.1547,长治市,清华站,细颗粒物(PM2.5),185,175,106,139,89,98,11,79,44,59,40,6,11,1.7,1.2
2023-01-12T13:00:00,1728A,113.1031,36.1989,长治市,监测站,细颗粒物(PM2.5),206,150,102,156,93,80,6,53,26,61,47,11,15,2.2,1.6
2023-01-12T13:00:00,1730A,113.0886,36.2125,长治市,审计局,细颗粒物(PM2.5),228,173,115,178,110,90,5,47,36,55,46,6,11,2.0,1.3
2023-01-12T13:00:00,1731A,113.0844,36.1856,长治市,长治八中,细颗粒物(PM2.5),178,168,116,134,82,92,14,66,38,46,43,3,10,1.8,1.2
2023-01-12T13:00:00,1733A,111.5531,36.0783,临汾市,临钢医院,细颗粒物(PM2.5),162,161,188,123,126,64,48,30,30,33,53,8,15,1.8,1.9
2023-01-12T13:00:00,1734A,111.5028,36.0714,临汾市,技工学校,细颗粒物(PM2.5),149,147,170,114,135,84,63,53,53,32,50,15,26,1.8,1.8
2023-01-12T13:00:00,1736A,111.5018,36.0855,临汾市,市委,细颗粒物(PM2.5),148,140,171,113,117,84,66,61,61,31,51,6,16,1.2,1.3
2023-01-12T13:00:00,1738A,113.5758,37.8572,阳泉市,市中心,细颗粒物(PM2.5),152,186,169,116,101,33,33,18,18,40,65,25,29,1.9,2.1
2023-01-12T13:00:00,1739A,113.4894,37.8731,阳泉市,赛鱼,,,,156,,97,27,27,18,18,,68,23,28,,2.1
2023-01-12T13:00:00,1740A,113.5819,37.8486,阳泉市,南庄,颗粒物(PM10),123,195,183,90,93,31,25,11,11,61,77,27,31,2.2,2.4
2023-01-12T13:00:00,1742A,113.5614,37.8703,阳泉市,平坦,细颗粒物(PM2.5),170,184,173,129,104,30,30,20,20,47,67,24,27,2.2,2.1
2023-01-12T13:00:00,1743A,113.5158,37.8392,阳泉市,大阳泉,细颗粒物(PM2.5),134,149,141,102,94,42,41,38,33,39,54,25,25,1.8,1.8
2023-01-12T13:00:00,1744A,118.9233,42.2816,赤峰市,松山一中,细颗粒物(PM2.5),69,80,90,50,54,70,64,68,53,30,37,16,22,0.9,1.1
2023-01-12T13:00:00,1745A,118.9576,42.2728,赤峰市,哈达街,细颗粒物(PM2.5),75,82,88,55,54,76,71,74,56,29,36,12,22,0.9,1.1
2023-01-12T13:00:00,1746A,118.8788,42.2554,赤峰市,天义路,细颗粒物(PM2.5),63,73,67,45,42,76,74,70,63,27,28,13,15,0.8,0.9
2023-01-12T13:00:00,1748A,123.044,41.1196,鞍山市,深沟寺,,32,32,61,22,38,83,78,68,68,12,17,7,9,0.5,0.6
2023-01-12T13:00:00,1749A,123.011,41.0931,鞍山市,太阳城,,34,34,64,23,34,86,79,76,72,10,14,12,13,0.7,0.7
2023-01-12T13:00:00,1750A,123.0485,41.1442,鞍山市,太平,,33,33,74,22,40,77,72,61,59,14,24,10,12,0.6,0.7
2023-01-12T13:00:00,1751A,122.9642,41.0971,鞍山市,铁西三道街,,49,49,87,25,42,78,56,50,42,36,42,39,39,1.2,1
2023-01-12T13:00:00,1752A,122.9341,41.0833,鞍山市,铁西工业园区,,44,44,77,25,40,78,69,60,60,15,29,10,12,0.6,1.1
2023-01-12T13:00:00,1753A,123.022,41.0821,鞍山市,明达新区,,36,36,62,21,33,71,69,62,62,8,14,10,12,0.6,0.8
2023-01-12T13:00:00,1754A,123.1289,41.0228,鞍山市,千山,,,,,,,,,,,,,,,,
2023-01-12T13:00:00,1755A,123.7977,41.8491,抚顺市,望花区,,48,18,53,33,38,87,79,67,66,10,20,21,20,0.5,0.7
2023-01-12T13:00:00,1756A,123.9161,41.8822,抚顺市,顺城区,,26,21,53,18,34,82,73,58,58,26,37,8,6,0.3,0.5
2023-01-12T13:00:00,1757A,124.0436,41.8611,抚顺市,东洲区,,27,22,43,17,28,97,84,75,74,12,16,7,10,0.3,0.4
2023-01-12T13:00:00,1758A,123.9247,41.8642,抚顺市,新抚区,,28,21,60,19,42,87,76,61,61,17,30,12,12,0.5,0.7
2023-01-12T13:00:00,1759A,124.0972,41.8961,抚顺市,大伙房水库,,26,18,38,14,28,103,81,80,80,6,10,8,8,0.4,0.5
2023-01-12T13:00:00,1760A,123.7086,41.8391,抚顺市,沈抚新城,,43,43,55,23,31,98,76,73,66,16,22,15,13,0.8,0.7
2023-01-12T13:00:00,1761A,123.8275,41.3064,本溪市,大峪,,,,42,,27,85,53,61,58,,17,,13,0.5,0.7
2023-01-12T13:00:00,1762A,123.7567,41.3325,本溪市,溪湖,,42,42,52,23,34,76,49,53,48,42,39,73,49,1.6,1.6
2023-01-12T13:00:00,1763A,123.7169,41.3094,本溪市,彩屯,,,68,94,37,62,44,44,30,30,44,62,38,50,,3.4
2023-01-12T13:00:00,1764A,123.7669,41.2864,本溪市,东明,,25,25,36,16,25,68,68,62,62,24,29,18,24,0.9,1
2023-01-12T13:00:00,1765A,123.7992,41.2664,本溪市,新立屯,,25,23,29,14,24,80,80,78,74,12,16,7,9,0.6,0.7
2023-01-12T13:00:00,1766A,123.8142,41.3472,本溪市,威宁,,23,20,42,14,29,76,73,52,52,10,24,16,11,0.4,0.5
2023-01-12T13:00:00,1767A,121.1115,41.0879,锦州市,南山,细颗粒物(PM2.5),87,57,76,64,85,61,35,50,33,32,49,11,37,0.5,1.1
2023-01-12T13:00:00,1768A,121.0533,40.8434,锦州市,开发区,细颗粒物(PM2.5),67,42,73,48,63,49,23,40,20,49,51,7,11,0.7,1.1
2023-01-12T13:00:00,1769A,121.1836,41.1119,锦州市,百股街道,细颗粒物(PM2.5),62,48,74,44,68,62,47,49,39,24,42,12,25,0.9,1.3
2023-01-12T13:00:00,1770A,121.1178,41.1222,锦州市,天安街道,细颗粒物(PM2.5),88,66,91,65,81,52,36,44,27,37,54,16,37,0.8,1.3
2023-01-12T13:00:00,1771A,121.1303,41.1386,锦州市,北湖公园,,,56,87,62,78,61,39,52,32,,54,16,34,0.9,1.3
2023-01-12T13:00:00,1772A,126.54,43.8622,吉林市,哈达湾,,26,24,53,18,38,87,74,72,66,20,24,8,10,0.6,0.7
2023-01-12T13:00:00,1773A,126.5844,43.8358,吉林市,东局子,,34,34,56,23,36,79,74,73,73,15,20,8,13,0.6,0.7
2023-01-12T13:00:00,1774A,126.5052,43.8245,吉林市,电力学院,,30,30,65,17,46,85,75,46,46,16,36,10,15,0.5,0.9
2023-01-12T13:00:00,1775A,126.6133,43.8972,吉林市,江北,,30,30,57,21,37,82,76,73,63,17,27,11,16,0.6,0.7
2023-01-12T13:00:00,1776A,126.555,43.8306,吉林市,江南公园,,42,37,52,29,40,85,63,73,60,32,28,11,14,0.7,0.7
2023-01-12T13:00:00,1778A,126.7061,43.7133,吉林市,丰满,,,,,,,,,,,,,,,,
2023-01-12T13:00:00,1779A,123.9305,47.3636,齐齐哈尔市,安居小区,细颗粒物(PM2.5),133,169,167,101,124,60,30,17,17,31,49,10,11,1.1,1.4
2023-01-12T13:00:00,1780A,123.9488,47.3386,齐齐哈尔市,中心广场,细颗粒物(PM2.5),125,179,167,95,103,55,,21,17,44,52,6,13,1.2,1.1
2023-01-12T13:00:00,1781A,123.9483,47.3227,齐齐哈尔市,农牧车辆厂,细颗粒物(PM2.5),122,166,146,92,101,49,23,13,13,44,55,7,7,1.3,1.3
2023-01-12T13:00:00,1783A,123.945,47.2988,齐齐哈尔市,市环境监测站,细颗粒物(PM2.5),147,176,159,112,125,56,33,20,20,30,42,10,8,0.8,0.9
2023-01-12T13:00:00,1784A,129.61,44.561,牡丹江市,环保大楼,细颗粒物(PM2.5),78,83,93,57,72,55,54,32,32,43,49,16,12,0.9,1.2
2023-01-12T13:00:00,1785A,129.6115,44.5782,牡丹江市,文化广场,细颗粒物(PM2.5),108,107,115,81,78,19,15,11,11,69,58,21,14,1.8,1.6
2023-01-12T13:00:00,1786A,129.5904,44.5963,牡丹江市,第一医院,细颗粒物(PM2.5),84,92,103,62,80,49,38,16,16,53,56,14,10,1.3,1.5
2023-01-12T13:00:00,1787A,129.6364,44.6075,牡丹江市,机车工厂,细颗粒物(PM2.5),97,118,131,72,83,39,34,20,20,58,58,17,10,1.3,1.6
2023-01-12T13:00:00,1788A,129.6386,44.5462,牡丹江市,第一中学,细颗粒物(PM2.5),112,156,101,84,69,44,44,19,19,48,54,19,10,0.9,1.2
2023-01-12T13:00:00,1789A,124.81117,46.03138,大庆市,大同区,细颗粒物(PM2.5),88,104,134,65,82,50,50,28,28,26,35,16,10,0.8,1
2023-01-12T13:00:00,1790A,125.129,46.533,大庆市,龙凤区,,,85,120,66,79,47,44,24,24,23,41,16,12,,0.6
2023-01-12T13:00:00,1791A,124.902,46.408,大庆市,红岗区,细颗粒物(PM2.5),74,77,101,54,69,41,21,17,17,21,37,10,9,0.9,1
2023-01-12T13:00:00,1792A,125.153,46.586,大庆市,萨尔图区,细颗粒物(PM2.5),109,104,121,82,85,45,45,24,24,32,49,11,9,0.8,1
2023-01-12T13:00:00,1793A,124.9042,46.6215,大庆市,让胡路区,细颗粒物(PM2.5),87,92,108,64,70,56,52,26,26,24,48,13,7,0.9,1.2
2023-01-12T13:00:00,1794A,118.3606,31.3519,芜湖市,监测站,细颗粒物(PM2.5),65,58,73,47,52,100,60,55,38,41,51,5,7,0.6,0.4
2023-01-12T13:00:00,1795A,118.3714,31.4134,芜湖市,科创中心,细颗粒物(PM2.5),57,54,73,40,50,107,62,36,36,37,42,5,5,0.7,0.6
2023-01-12T13:00:00,1796A,118.3673,31.3131,芜湖市,四水厂,颗粒物(PM10),56,62,77,37,51,110,71,57,43,17,25,8,7,0.7,0.8
2023-01-12T13:00:00,1798A,118.5092,31.6837,马鞍山市,湖东路四小,,48,28,54,33,50,99,62,70,47,29,33,7,7,0.7,0.7
2023-01-12T13:00:00,1799A,118.5024,31.6449,马鞍山市,开发区,细颗粒物(PM2.5),58,53,62,41,49,79,66,38,38,28,52,8,8,0.7,0.8
2023-01-12T13:00:00,1800A,118.5228,31.7231,马鞍山市,慈湖,,,36,57,33,52,98,,75,48,22,29,8,8,1.0,1.1
2023-01-12T13:00:00,1802A,118.6245,31.7241,马鞍山市,濮塘,,50,48,61,35,35,96,82,82,57,13,20,6,6,0.7,0.6
2023-01-12T13:00:00,1803A,115.9872,29.6815,九江市,十里,细颗粒物(PM2.5),62,60,115,44,76,101,15,8,8,48,53,9,10,1.2,1.3
2023-01-12T13:00:00,1804A,115.9584,29.7046,九江市,茅山头,细颗粒物(PM2.5),79,95,124,58,87,87,18,9,9,55,74,8,10,1.2,1.3
2023-01-12T13:00:00,1805A,115.9877,29.7295,九江市,西园,细颗粒物(PM2.5),74,59,100,54,86,83,14,18,15,56,56,6,8,1.2,1.1
2023-01-12T13:00:00,1806A,116.0172,29.6547,九江市,五七二七厂,细颗粒物(PM2.5),57,50,62,40,45,114,38,46,31,32,24,8,7,0.9,0.9
2023-01-12T13:00:00,1808A,115.9114,29.6038,九江市,综合工业园,,45,28,81,31,70,67,36,19,11,20,58,8,9,0.8,1.1
2023-01-12T13:00:00,1809A,116.0721,29.7535,九江市,石化总厂,颗粒物(PM10),59,68,129,27,72,98,40,43,43,25,52,11,13,0.7,1.1
2023-01-12T13:00:00,1810A,115.9773,29.5698,九江市,庐山气象台,,5,2,11,2,6,79,12,50,21,2,2,5,5,0.5,0.7
2023-01-12T13:00:00,1812A,112.3931,34.6516,洛阳市,市委党校,细颗粒物(PM2.5),212,263,214,162,126,70,12,27,17,39,37,7,7,1.2,1
2023-01-12T13:00:00,1814A,112.4657,34.6871,洛阳市,豫西宾馆,,,,200,,128,78,7,32,19,34,38,7,8,1.4,1
2023-01-12T13:00:00,1815A,112.494,34.6886,洛阳市,河南林校,细颗粒物(PM2.5),212,238,192,162,128,79,18,29,20,36,39,4,4,0.9,0.8
2023-01-12T13:00:00,1816A,112.3844,34.623,洛阳市,开发区管委会,细颗粒物(PM2.5),209,244,196,159,134,80,17,31,21,43,40,6,5,1.0,0.8
2023-01-12T13:00:00,1817A,112.4267,34.6258,洛阳市,市委新办公区,细颗粒物(PM2.5),223,249,200,173,139,77,13,24,17,42,41,4,5,1.0,0.8
2023-01-12T13:00:00,1818A,114.4839,36.0621,安阳市,棉研所,,,,,,,,,,,,,,,,
2023-01-12T13:00:00,1819A,114.3551,36.1017,安阳市,红庙街,细颗粒物(PM2.5),206,208,174,156,141,70,13,34,12,85,57,12,8,1.7,1.3
2023-01-12T13:00:00,1820A,114.361,36.0681,安阳市,银杏小区,细颗粒物(PM2.5),195,194,162,146,142,68,6,15,6,81,54,14,9,1.8,1.4
2023-01-12T13:00:00,1824A,114.3389,34.7781,开封市,肿瘤医院,细颗粒物(PM2.5),201,202,182,151,132,53,15,25,13,31,30,6,5,0.9,0.9
2023-01-12T13:00:00,1826A,114.2885,34.7965,开封市,世纪星幼儿园,细颗粒物(PM2.5),204,176,164,154,140,50,14,34,13,33,32,7,6,1.2,1.1
2023-01-12T13:00:00,1828A,113.227,35.2125,焦作市,市环保局,细颗粒物(PM2.5),221,235,184,171,129,66,4,41,8,50,35,17,9,1.9,1
2023-01-12T13:00:00,1830A,113.1992,35.2590,焦作市,影视城,,,,,,,,,,,,,,,,
2023-01-12T13:00:00,1832A,113.3257,33.742,平顶山市,新华旅馆,细颗粒物(PM2.5),226,263,237,176,142,60,12,18,14,52,46,8,13,1.2,1
2023-01-12T13:00:00,1833A,113.2919,33.737,平顶山市,规划设计院,细颗粒物(PM2.5),230,222,222,180,155,61,13,6,6,40,44,4,4,1.3,1.2
2023-01-12T13:00:00,1834A,113.182,33.774,平顶山市,平顶山工学院,细颗粒物(PM2.5),233,241,225,183,148,64,16,20,12,46,47,4,6,1.2,1.1
2023-01-12T13:00:00,1835A,111.1922,34.7752,三门峡市,市政府,细颗粒物(PM2.5),183,113,126,138,133,84,45,42,38,22,26,7,8,1.2,1
2023-01-12T13:00:00,1836A,111.1587,34.7942,三门峡市,开发区,细颗粒物(PM2.5),189,164,174,142,125,73,38,39,32,24,26,8,9,1.2,1
2023-01-12T13:00:00,1838A,111.143,34.7955,三门峡市,风景区,,,,,,,,,,,,,,,,
2023-01-12T13:00:00,1840A,111.2992,30.6981,宜昌市,白龙岗,细颗粒物(PM2.5),279,266,276,229,240,98,98,43,43,34,55,8,6,1.5,1.7
2023-01-12T13:00:00,1841A,111.3549,30.6465,宜昌市,伍家岗,细颗粒物(PM2.5),277,269,280,227,236,83,77,26,26,,72,6,4,,1.8
2023-01-12T13:00:00,1842A,111.2628,30.6961,宜昌市,点军区,细颗粒物(PM2.5),260,263,291,210,241,81,73,30,30,46,50,7,6,1.5,1.8
2023-01-12T13:00:00,1843A,111.3275,30.7819,宜昌市,夷陵区,细颗粒物(PM2.5),269,217,234,219,234,104,87,30,30,33,56,8,6,1.2,1.6
2023-01-12T13:00:00,1844A,112.2494,30.3197,荆州市,市图书馆,细颗粒物(PM2.5),242,208,230,192,234,120,15,37,20,48,53,10,10,1.4,1.5
2023-01-12T13:00:00,1845A,112.2008,30.3544,荆州市,市委党校,细颗粒物(PM2.5),240,194,232,190,229,106,22,18,18,38,55,8,11,1.4,1.5
2023-01-12T13:00:00,1847A,113.1094,29.3578,岳阳市,南湖风景区,细颗粒物(PM2.5),89,75,180,66,157,145,58,76,45,20,61,13,14,0.7,1.6
2023-01-12T13:00:00,1848A,113.1493,29.4251,岳阳市,城陵矶,细颗粒物(PM2.5),67,60,185,48,156,127,47,35,35,15,73,10,9,0.8,1.7
2023-01-12T13:00:00,1849A,113.1497,29.3575,岳阳市,开发区,,50,45,194,35,180,143,54,44,34,5,55,3,3,0.8,1.7
2023-01-12T13:00:00,1850A,113.2621,29.4758,岳阳市,云溪区,,,40,185,32,145,129,56,30,30,10,47,8,9,,1.8
2023-01-12T13:00:00,1851A,112.9943,29.4402,岳阳市,君山区,细颗粒物(PM2.5),80,43,202,59,184,129,41,26,26,19,53,7,8,0.7,1.5
2023-01-12T13:00:00,1852A,113.2117,29.355,岳阳市,金凤水库,细颗粒物(PM2.5),77,91,181,56,153,137,57,56,37,10,43,6,6,0.6,1.6
2023-01-12T13:00:00,1854A,111.6975,28.9703,常德市,市二中,细颗粒物(PM2.5),293,298,324,243,275,118,96,63,33,23,31,6,6,1.5,1.5
2023-01-12T13:00:00,1857A,111.7158,29.1456,常德市,白鹤山,细颗粒物(PM2.5),251,240,248,201,211,128,102,89,45,17,24,5,5,1.3,1.3
2023-01-12T13:00:00,1858A,110.5319,29.1217,张家界市,永定新区,细颗粒物(PM2.5),253,245,239,203,201,123,88,63,43,41,41,6,6,1.3,1.4
2023-01-12T13:00:00,1859A,110.4697,29.1242,张家界市,电业局,细颗粒物(PM2.5),241,229,211,191,180,96,80,39,36,36,48,5,5,1.1,1.2
2023-01-12T13:00:00,1860A,110.5594,29.3547,张家界市,未央路,细颗粒物(PM2.5),217,227,201,167,153,131,69,43,40,29,22,5,4,1.3,1.3
2023-01-12T13:00:00,1861A,110.4417,29.315,张家界市,袁家界,细颗粒物(PM2.5),65,61,147,47,125,150,77,124,87,19,23,10,10,0.8,1.2
2023-01-12T13:00:00,1862A,110.4144,25.3167,桂林市,电子科大尧山校区,细颗粒物(PM2.5),54,35,61,38,58,94,29,41,27,12,11,4,4,1.1,1.1
2023-01-12T13:00:00,1863A,110.2819,25.2697,桂林市,监测站,细颗粒物(PM2.5),104,100,106,78,100,98,8,30,10,41,28,2,2,1.7,1.4
2023-01-12T13:00:00,1864A,110.3089,25.2708,桂林市,龙隐路小学,细颗粒物(PM2.5),92,85,91,68,94,97,15,42,12,42,32,4,5,1.2,1.1
2023-01-12T13:00:00,1865A,110.2869,25.2178,桂林市,八中,细颗粒物(PM2.5),115,84,87,87,101,92,7,30,7,42,30,4,3,1.5,1.1
2023-01-12T13:00:00,1866A,109.2262,21.588,北海市,牛尾岭水库,,10,5,7,2,4,32,31,32,28,8,13,5,5,0.4,0.6
2023-01-12T13:00:00,1867A,109.1436,21.4086,北海市,海滩公园,,15,12,11,2,5,68,48,58,37,8,9,3,3,0.8,0.7
2023-01-12T13:00:00,1868A,109.0981,21.4661,北海市,新市环保局,,17,4,8,9,8,60,54,57,27,14,17,3,2,0.6,0.7
2023-01-12T13:00:00,1869A,109.1778,21.5233,北海市,北海工业园,,17,10,9,5,8,54,53,52,27,12,15,5,4,0.4,0.5
2023-01-12T13:00:00,1870A,109.4856,24.3895,柳州市,柳东小学,细颗粒物(PM2.5),64,33,38,46,51,71,16,34,19,26,18,5,5,1.1,1
2023-01-12T13:00:00,1871A,109.4157,24.3277,柳州市,环保监测站,,33,33,37,23,34,73,10,16,10,29,23,4,4,1.0,0.9
2023-01-12T13:00:00,1872A,109.389,24.341,柳州市,河西水厂,,28,25,40,19,37,72,7,16,6,26,20,8,8,1.4,1.2
2023-01-12T13:00:00,1873A,109.4311,24.2921,柳州市,市四中,,33,33,42,23,32,66,11,16,9,29,26,7,6,1.1,1
2023-01-12T13:00:00,1874A,109.4006,24.3631,柳州市,市九中,,43,32,35,30,33,68,13,25,14,26,20,7,7,1.0,0.9
2023-01-12T13:00:00,1875A,109.4958,24.3134,柳州市,古亭山,,45,45,38,26,30,70,8,9,6,24,26,8,8,1.0,0.9
2023-01-12T13:00:00,1876A,109.5078,18.2489,三亚市,河东子站,,18,17,26,8,10,80,55,52,46,10,7,2,8,0.4,0.5
2023-01-12T13:00:00,1877A,109.4964,18.2681,三亚市,河西子站,,22,22,20,6,7,66,53,45,43,10,9,2,2,0.4,0.4
2023-01-12T13:00:00,1878A,104.7778,31.4741,绵阳市,富乐山,细颗粒物(PM2.5),236,212,184,186,160,68,68,16,16,45,51,5,5,1.0,1
2023-01-12T13:00:00,1879A,104.7563,31.4535,绵阳市,市人大,细颗粒物(PM2.5),236,240,204,186,170,54,54,13,13,45,65,,3,,1.2
2023-01-12T13:00:00,1880A,104.6697,31.4668,绵阳市,高新区自来水公司,细颗粒物(PM2.5),254,214,238,204,164,68,68,16,16,28,49,6,7,1.0,1.2
2023-01-12T13:00:00,1881A,104.7287,31.5075,绵阳市,三水厂,细颗粒物(PM2.5),225,216,213,175,170,51,51,12,12,56,55,8,7,1.0,1.2
2023-01-12T13:00:00,1882A,104.563,28.793,宜宾市,石马中学,细颗粒物(PM2.5),129,113,161,98,128,73,73,31,26,20,26,5,5,0.9,0.9
2023-01-12T13:00:00,1883A,104.6201,28.7728,宜宾市,市委,细颗粒物(PM2.5),142,146,175,108,125,81,81,42,32,24,35,8,8,0.7,0.8
2023-01-12T13:00:00,1884A,104.6055,28.793,宜宾市,宜宾四中,细颗粒物(PM2.5),144,131,180,110,143,87,87,34,34,17,38,5,5,0.7,0.8
2023-01-12T13:00:00,1885A,104.639,28.7562,宜宾市,市政府,细颗粒物(PM2.5),153,142,164,117,128,77,77,63,32,23,30,8,8,0.8,0.8
2023-01-12T13:00:00,1886A,104.5742,28.7199,宜宾市,黄金嘴,细颗粒物(PM2.5),134,128,162,102,123,83,83,48,33,24,37,9,9,1.0,1
2023-01-12T13:00:00,1888A,101.6891,26.571,攀枝花市,弄弄坪,细颗粒物(PM2.5),72,80,102,52,58,107,68,13,13,50,50,36,28,1.9,2.4
2023-01-12T13:00:00,1889A,101.5769,26.5928,攀枝花市,河门口,,,,58,35,30,120,72,31,27,29,31,30,21,,1.4
2023-01-12T13:00:00,1890A,101.7169,26.585,攀枝花市,炳草岗,细颗粒物(PM2.5),69,85,79,50,45,106,58,15,15,54,60,53,21,2.3,1.9
2023-01-12T13:00:00,1891A,101.7369,26.5008,攀枝花市,仁和,细颗粒物(PM2.5),75,90,72,55,36,116,105,40,32,31,28,41,21,2.5,1.6
2023-01-12T13:00:00,1893A,105.4324,28.9634,泸州市,九狮山,细颗粒物(PM2.5),115,113,142,87,109,62,62,19,19,18,20,10,9,0.5,0.6
2023-01-12T13:00:00,1894A,105.4427,28.9063,泸州市,小市上码头,细颗粒物(PM2.5),162,178,183,123,133,65,65,34,33,21,32,7,8,0.9,1
2023-01-12T13:00:00,1895A,105.4241,28.8573,泸州市,兰田宪桥,细颗粒物(PM2.5),166,169,184,126,141,68,68,34,30,21,29,7,6,0.8,0.9
2023-01-12T13:00:00,1896A,105.4379,28.8833,泸州市,市环监站,细颗粒物(PM2.5),156,173,181,119,128,62,62,34,32,28,35,6,5,0.8,0.9
2023-01-12T13:00:00,1901A,104.4239,31.1208,德阳市,东山公园,细颗粒物(PM2.5),219,195,204,169,167,70,70,20,20,44,62,5,4,1.2,1.3
2023-01-12T13:00:00,1902A,104.3826,31.1317,德阳市,西小区,细颗粒物(PM2.5),215,194,204,165,174,50,50,13,13,52,60,6,4,1.0,1.2
2023-01-12T13:00:00,1904A,104.3553,31.1091,德阳市,耐火材料厂,细颗粒物(PM2.5),235,233,264,185,186,55,55,16,16,48,54,5,4,1.0,1.1
2023-01-12T13:00:00,1905A,106.056,30.8064,南充市,西山风景区,,,,,,,,,,,,,,,,
2023-01-12T13:00:00,1906A,106.0789,30.8023,南充市,南充市委,细颗粒物(PM2.5),208,192,162,158,135,22,22,10,10,33,42,8,6,1.2,1.1
2023-01-12T13:00:00,1907A,106.1031,30.8217,南充市,南充炼油厂,细颗粒物(PM2.5),204,198,166,154,129,24,21,16,9,36,42,8,7,0.9,0.9
2023-01-12T13:00:00,1908A,106.1064,30.7856,南充市,高坪区监测站,细颗粒物(PM2.5),214,207,173,164,133,21,21,11,11,38,49,16,11,1.1,1
2023-01-12T13:00:00,1909A,106.0642,30.7636,南充市,嘉陵区环保局,细颗粒物(PM2.5),199,203,161,149,119,26,18,11,11,33,44,7,6,1.1,1
2023-01-12T13:00:00,1910A,106.1087,30.8388,南充市,市环境监测站,细颗粒物(PM2.5),202,202,168,152,125,28,20,19,9,37,37,9,8,1.0,0.9
2023-01-12T13:00:00,1911A,106.9222,27.6869,遵义市,丁字口,细颗粒物(PM2.5),74,46,73,54,60,110,78,42,42,20,37,19,34,0.9,1.1
2023-01-12T13:00:00,1912A,106.9242,27.7019,遵义市,凤凰山,细颗粒物(PM2.5),72,77,71,52,38,105,73,80,49,22,18,12,11,1.0,0.8
2023-01-12T13:00:00,1913A,106.8906,27.6486,遵义市,忠庄,细颗粒物(PM2.5),67,58,72,48,50,109,74,66,33,18,23,8,10,0.7,0.7
2023-01-12T13:00:00,1914A,106.9231,27.6506,遵义市,舟水桥,细颗粒物(PM2.5),74,67,96,54,63,114,76,24,24,19,28,22,32,0.8,0.8
2023-01-12T13:00:00,1915A,106.9178,27.72,遵义市,干田坝,细颗粒物(PM2.5),74,54,72,54,55,105,77,40,40,16,28,12,15,0.9,0.9
2023-01-12T13:00:00,1916A,103.7897,25.5035,曲靖市,环境监测站,,29,19,25,14,18,110,92,68,68,6,9,5,5,0.6,0.7
2023-01-12T13:00:00,1917A,103.8,25.5364,曲靖市,烟厂办公区,,30,26,29,12,15,108,96,68,68,4,12,8,4,0.4,0.4
2023-01-12T13:00:00,1918A,108.7197,34.3956,咸阳市,气象站,细颗粒物(PM2.5),233,181,199,183,167,55,45,13,13,56,67,16,13,1.5,1.5
2023-01-12T13:00:00,1919A,108.673,34.3155,咸阳市,实验中学,细颗粒物(PM2.5),265,267,230,215,187,72,28,10,10,73,59,10,8,1.5,1.4
2023-01-12T13:00:00,1920A,108.7233,34.3617,咸阳市,师范学院,细颗粒物(PM2.5),255,258,209,205,171,67,38,17,17,82,64,14,11,1.4,1.5
2023-01-12T13:00:00,1922A,109.0656,35.0994,铜川市,党校,细颗粒物(PM2.5),98,123,125,73,63,91,91,39,39,26,38,16,14,1.4,1.3
2023-01-12T13:00:00,1923A,109.0697,35.0697,铜川市,王益区政府,细颗粒物(PM2.5),160,155,134,122,107,77,77,21,21,,54,10,8,1.2,1.3
2023-01-12T13:00:00,1924A,108.9344,34.9058,铜川市,新区管委会,细颗粒物(PM2.5),195,154,149,146,125,71,71,37,37,30,45,19,22,1.3,1.2
2023-01-12T13:00:00,1926A,109.4131,36.6275,延安市,枣园,细颗粒物(PM2.5),139,124,141,106,119,99,99,28,28,19,63,8,7,0.9,1.1
2023-01-12T13:00:00,1927A,109.4761,36.6028,延安市,延大医附院,细颗粒物(PM2.5),143,155,156,109,120,85,85,29,29,32,70,14,12,1.2,1.7
2023-01-12T13:00:00,1929A,109.5056,36.6106,延安市,百米大道,细颗粒物(PM2.5),140,131,160,107,124,98,98,41,41,22,66,12,15,1.2,1.8
2023-01-12T13:00:00,1930A,107.185,34.3063,宝鸡市,庙沟村,细颗粒物(PM2.5),202,172,174,152,147,62,57,29,24,28,47,12,9,1.5,1.5
2023-01-12T13:00:00,1931A,107.0708,34.3017,宝鸡市,竹园沟,细颗粒物(PM2.5),208,205,173,158,155,85,73,27,27,35,43,12,10,,1.5
2023-01-12T13:00:00,1932A,107.1906,34.3672,宝鸡市,三陆医院,细颗粒物(PM2.5),215,215,216,165,180,84,67,27,27,46,60,14,14,1.4,1.4
2023-01-12T13:00:00,1933A,107.1431,34.3547,宝鸡市,监测站,细颗粒物(PM2.5),214,185,186,164,162,84,75,22,22,41,59,13,9,1.3,1.4
2023-01-12T13:00:00,1934A,107.1186,34.3739,宝鸡市,技工学校,细颗粒物(PM2.5),205,192,181,155,167,86,78,29,29,43,49,13,12,1.3,1.3
2023-01-12T13:00:00,1935A,107.3906,34.3528,宝鸡市,陈仓区环保局家属楼,细颗粒物(PM2.5),238,245,199,188,180,79,66,26,26,50,68,38,18,1.8,1.9
2023-01-12T13:00:00,1936A,107.2058,34.3497,宝鸡市,文理学院,细颗粒物(PM2.5),204,192,207,154,160,85,76,25,25,39,59,16,12,1.4,1.5
2023-01-12T13:00:00,1937A,107.2386,34.3622,宝鸡市,三迪小学,,,,219,,159,76,,,,,72,,16,,1.3
2023-01-12T13:00:00,1938A,109.5293,34.5101,渭南市,农科所,细颗粒物(PM2.5),267,300,188,217,134,87,47,18,15,51,50,,11,1.4,1.3
2023-01-12T13:00:00,1939A,109.4974,34.4877,渭南市,日报社,细颗粒物(PM2.5),261,256,184,211,140,70,28,10,10,67,62,18,13,2.0,1.4
2023-01-12T13:00:00,1940A,109.4636,34.493,渭南市,体育馆,细颗粒物(PM2.5),259,261,179,209,144,69,30,10,10,57,59,10,11,1.4,1.2
2023-01-12T13:00:00,1941A,109.4259,34.5023,渭南市,高新一小,细颗粒物(PM2.5),268,252,186,218,150,81,42,12,12,48,57,14,12,1.6,1.4
2023-01-12T13:00:00,1943A,102.1725,38.5339,金昌市,新川苑,颗粒物(PM10),500,1015,234,61,44,81,81,43,43,9,29,11,27,0.6,0.9
2023-01-12T13:00:00,1944A,102.1692,38.5167,金昌市,天庆家园,颗粒物(PM10),500,1507,312,74,48,75,75,45,45,9,30,13,38,0.6,1.1
2023-01-12T13:00:00,1945A,98.2908,39.7711,嘉峪关市,气象局,颗粒物(PM10),131,212,214,22,49,77,71,70,69,13,30,8,16,0.4,0.7
2023-01-12T13:00:00,1947A,106.3394,38.817,石嘴山市,沙湖旅游区,颗粒物(PM10),322,437,314,208,154,72,39,13,13,69,58,44,27,2.9,2.3
2023-01-12T13:00:00,1948A,106.3668,39.0145,石嘴山市,大武口朝阳西街,细颗粒物(PM2.5),293,385,275,243,139,57,28,10,10,104,93,81,76,4.0,2.2
2023-01-12T13:00:00,1949A,106.7704,39.2282,石嘴山市,惠农南大街,,,,233,,121,58,25,9,9,47,73,46,59,,2.5
2023-01-12T13:00:00,1950A,106.7099,39.1325,石嘴山市,红果子镇惠新街,细颗粒物(PM2.5),219,294,290,169,124,61,34,14,14,45,60,67,60,2.2,2.2
2023-01-12T13:00:00,1951A,84.895,45.6094,克拉玛依市,长征新村,,21,9,13,3,7,66,66,63,61,2,3,7,9,0.3,0.2
2023-01-12T13:00:00,1952A,84.8988,45.5893,克拉玛依市,南林小区,,35,14,14,24,20,68,63,66,62,7,5,4,5,0.1,0.1
2023-01-12T13:00:00,1954A,84.905,44.3396,克拉玛依市,独山子区,,22,20,23,15,10,67,61,60,55,9,13,7,7,0.4,0.4
2023-01-12T13:00:00,1955A,85.6979,46.098,克拉玛依市,乌尔禾区商贸楼,,22,11,92,8,9,73,70,70,68,14,12,2,8,0.4,0.3
2023-01-12T13:00:00,1956A,86.1472,41.7538,巴音郭楞州,孔雀公园,颗粒物(PM10),190,330,606,39,52,82,62,71,63,10,12,2,3,0.3,0.4
2023-01-12T13:00:00,1957A,86.1972,41.7166,巴音郭楞州,棉纺厂,颗粒物(PM10),360,468,638,45,63,81,64,68,62,12,19,1,3,0.2,0.3
2023-01-12T13:00:00,1958A,86.2357,41.7173,巴音郭楞州,经济开发区,颗粒物(PM10),481,581,794,35,49,82,69,72,71,6,13,2,4,0.2,0.4
2023-01-12T13:00:00,1961A,117.532,36.6868,济南市,东山小学,细颗粒物(PM2.5),83,95,87,61,53,93,70,46,40,27,38,9,7,0.6,0.7
2023-01-12T13:00:00,1966A,120.0405,35.8735,青岛市,黄岛区4号,,21,5,19,2,9,92,67,90,71,12,8,5,5,0.6,0.6
2023-01-12T13:00:00,1982A,122.0693,37.2174,威海市,文登开发区,,46,46,32,24,19,86,65,82,66,24,18,4,4,0.5,0.4
2023-01-12T13:00:00,2031A,113.1817,27.9958,株洲市,云田中学,,,36,89,45,74,134,,50,22,13,26,,6,1.0,1.2
2023-01-12T13:00:00,2054A,114.1099,32.1059,信阳市,平桥分局,,,,194,,159,94,6,7,6,63,49,9,9,,1.5
2023-01-12T13:00:00,2064A,113.9956,32.1271,信阳市,南湾水厂,细颗粒物(PM2.5),240,187,179,190,155,96,13,24,14,45,38,7,7,1.3,1.1
2023-01-12T13:00:00,2065A,114.0775,32.1195,信阳市,市酿酒公司,细颗粒物(PM2.5),238,210,182,188,161,96,4,5,5,64,53,8,8,1.8,1.6
2023-01-12T13:00:00,2066A,114.0609,32.1399,信阳市,审计局,细颗粒物(PM2.5),249,222,192,199,165,100,8,6,6,48,46,10,10,1.4,1.2
2023-01-12T13:00:00,2067A,114.6613,33.6128,周口市,市环境监测站,细颗粒物(PM2.5),200,201,207,150,163,84,6,9,4,41,44,6,6,1.3,1.3
2023-01-12T13:00:00,2068A,114.6758,33.6347,周口市,周口师范,细颗粒物(PM2.5),206,196,198,156,170,97,8,11,5,46,47,8,7,1.5,1.5
2023-01-12T13:00:00,2069A,114.6546,33.5979,周口市,市运管处,,,,198,,168,93,8,12,9,45,52,6,7,,1.8
2023-01-12T13:00:00,2070A,114.6369,33.6406,周口市,川汇区环保局,细颗粒物(PM2.5),205,179,194,155,166,88,6,10,5,48,48,6,5,1.3,1.3
2023-01-12T13:00:00,2075A,117.6336,24.4674,漳州市,九湖,,,,,,,,,,,,,,,,
2023-01-12T13:00:00,2160A,112.85,35.5051,晋城市,自来水公司,细颗粒物(PM2.5),206,0,160,156,115,101,35,61,52,20,31,21,13,1.2,1.4
2023-01-12T13:00:00,2161A,112.8318,35.4936,晋城市,白云商贸,细颗粒物(PM2.5),160,185,157,122,103,90,58,67,66,34,34,6,7,1.4,1.3
2023-01-12T13:00:00,2162A,112.8508,35.4887,晋城市,市环保局,细颗粒物(PM2.5),170,189,168,129,114,98,54,70,65,34,32,13,12,1.3,1.1
2023-01-12T13:00:00,2163A,112.8676,35.4897,晋城市,技术学院,细颗粒物(PM2.5),170,178,157,129,113,98,50,51,44,24,28,5,6,1.1,1
2023-01-12T13:00:00,2165A,112.8453,35.546,晋城市,白马寺 ,,,,,,,,,,,,,,,,
2023-01-12T13:00:00,2166A,112.4397,39.3522,朔州市,平朔,细颗粒物(PM2.5),206,217,245,156,162,33,21,14,14,72,82,59,49,1.8,1.7
2023-01-12T13:00:00,2167A,112.4575,39.3617,朔州市,朔唯,细颗粒物(PM2.5),212,234,256,162,165,26,16,8,8,67,81,38,43,1.5,1.5
2023-01-12T13:00:00,2168A,112.4258,39.3197,朔州市,区政府,细颗粒物(PM2.5),143,201,251,109,148,39,20,9,9,63,81,42,48,1.3,1.5
2023-01-12T13:00:00,2169A,112.4072,39.3278,朔州市,市环保局,细颗粒物(PM2.5),196,219,254,147,166,44,,6,6,59,77,37,45,1.7,1.9
2023-01-12T13:00:00,2170A,112.4272,39.3681,朔州市,市二中,细颗粒物(PM2.5),203,240,273,153,157,27,19,9,9,70,80,43,41,1.8,1.8
2023-01-12T13:00:00,2171A,112.7532,37.6945,晋中市,锦纶小区,细颗粒物(PM2.5),135,147,157,103,104,47,22,18,17,57,70,20,23,1.5,1.4
2023-01-12T13:00:00,2173A,112.7249,37.7067,晋中市,南都小区,颗粒物(PM10),101,152,154,74,86,49,19,14,12,61,74,20,21,1.5,1.4
2023-01-12T13:00:00,2174A,112.6991,37.6982,晋中市,榆次区政府,细颗粒物(PM2.5),113,153,159,85,83,59,18,11,10,60,74,22,24,1.3,1.2
2023-01-12T13:00:00,2175A,110.9956,35.0147,运城市,运城中学,细颗粒物(PM2.5),192,191,145,144,101,78,56,65,42,27,26,16,10,1.7,1.1
2023-01-12T13:00:00,2178A,110.9686,35.0303,运城市,地区技校,细颗粒物(PM2.5),199,197,150,149,112,80,55,60,37,22,25,13,8,1.4,1.2
2023-01-12T13:00:00,2179A,111.0414,35.1147,运城市,空港新区,细颗粒物(PM2.5),198,185,146,148,108,94,67,70,46,27,29,9,9,1.3,1
2023-01-12T13:00:00,2181A,112.7383,38.4519,忻州市,开发区,细颗粒物(PM2.5),240,254,251,190,177,14,,8,8,72,69,62,37,2.2,1.8
2023-01-12T13:00:00,2182A,112.7003,38.4928,忻州市,会展中心,细颗粒物(PM2.5),221,246,240,171,177,25,15,19,14,76,74,35,30,2.0,2
2023-01-12T13:00:00,2183A,111.1406,37.5211,吕梁市,环保局,细颗粒物(PM2.5),128,176,188,97,84,60,44,10,10,60,78,35,25,1.8,1.5
2023-01-12T13:00:00,2185A,111.1297,37.5136,吕梁市,自来水公司,细颗粒物(PM2.5),118,180,187,89,87,68,32,10,10,61,67,40,28,3.1,1.5
2023-01-12T13:00:00,2187A,106.8174,39.6973,乌海市,市林业局,细颗粒物(PM2.5),166,251,167,126,92,70,37,17,13,61,60,69,29,3.3,1.8
2023-01-12T13:00:00,2188A,106.7907,39.6667,乌海市,中海勃湾学校,颗粒物(PM10),164,278,166,110,88,75,35,34,17,65,51,83,28,3.0,1.6
2023-01-12T13:00:00,2191A,122.2532,43.6801,通辽市,艺术职业学校,细颗粒物(PM2.5),99,114,132,74,80,44,44,30,30,38,50,37,31,0.5,0.7
2023-01-12T13:00:00,2192A,119.7594,49.2261,呼伦贝尔市,区环保局,,26,24,35,18,21,66,66,44,37,5,26,5,5,0.3,0.4
2023-01-12T13:00:00,2195A,107.4212,40.761,巴彦淖尔市,附二中,细颗粒物(PM2.5),207,281,236,157,123,58,57,19,19,40,57,25,25,1.5,1.7
2023-01-12T13:00:00,2196A,107.37,40.7372,巴彦淖尔市,市环保大楼,细颗粒物(PM2.5),234,260,195,184,124,61,50,24,17,57,62,25,16,1.5,1.7
2023-01-12T13:00:00,2197A,113.1306,40.9923,乌兰察布市,集宁新区,细颗粒物(PM2.5),112,131,144,84,82,33,22,18,18,47,59,23,28,1.2,1.5
2023-01-12T13:00:00,2200A,122.0392,46.0656,兴安盟,胜华新制药厂,,,,92,,69,70,61,21,21,20,39,,8,,1.2
2023-01-12T13:00:00,2201A,121.9504,46.0741,兴安盟,科右前旗环保局,细颗粒物(PM2.5),77,75,90,56,71,70,59,23,23,17,34,5,5,0.7,1.4
2023-01-12T13:00:00,2202A,116.1042,43.9317,锡林郭勒盟,市环保监测站,,,69,69,41,44,93,67,89,62,24,27,,8,0.7,0.7
2023-01-12T13:00:00,2203A,116.0781,43.9311,锡林郭勒盟,市政府,细颗粒物(PM2.5),57,55,61,40,42,93,66,67,59,27,33,9,10,0.7,0.7
2023-01-12T13:00:00,2204A,105.6467,38.8363,阿拉善盟,西城区西花园,颗粒物(PM10),70,90,121,39,44,88,84,82,74,16,19,10,8,0.8,0.7
2023-01-12T13:00:00,2205A,105.6985,38.8411,阿拉善盟,蒙二幼,颗粒物(PM10),70,90,127,49,59,91,84,77,74,12,19,12,12,0.6,0.7
2023-01-12T13:00:00,2206A,105.724,38.8516,阿拉善盟,环保局新楼,细颗粒物(PM2.5),64,64,94,46,50,93,87,88,83,12,11,12,9,0.6,0.6
2023-01-12T13:00:00,2207A,121.6094,41.998,阜新市,工业园区,细颗粒物(PM2.5),65,56,114,47,74,44,39,34,32,18,37,5,17,0.6,1.1
2023-01-12T13:00:00,2208A,121.6697,42.0279,阜新市,长青街,细颗粒物(PM2.5),73,86,124,53,69,44,40,38,37,24,46,10,19,0.8,1.3
2023-01-12T13:00:00,2209A,121.6673,42.0705,阜新市,农业园区,细颗粒物(PM2.5),78,48,117,57,80,52,46,41,41,15,36,11,24,0.8,1.3
2023-01-12T13:00:00,2210A,121.6717,42.0224,阜新市,东苑,细颗粒物(PM2.5),64,43,126,46,74,58,48,51,44,17,37,12,24,0.9,1.3
2023-01-12T13:00:00,2211A,121.6506,42.0498,阜新市,玉龙新城,细颗粒物(PM2.5),78,45,103,57,72,50,44,37,37,15,33,12,22,0.6,1
2023-01-12T13:00:00,2212A,123.2,41.1953,辽阳市,宏伟区,,,37,37,19,28,77,73,67,67,12,15,9,10,,0.7
2023-01-12T13:00:00,2213A,123.1683,41.2495,辽阳市,新华园,,44,44,50,26,42,72,67,60,60,9,13,9,9,0.4,0.6
2023-01-12T13:00:00,2214A,123.2354,41.2639,辽阳市,滨河路,,46,46,38,21,37,74,72,66,64,18,19,15,8,0.4,0.5
2023-01-12T13:00:00,2215A,123.149,41.2991,辽阳市,铁西工业园,,45,45,52,26,44,74,67,65,62,16,20,10,10,0.5,0.6
2023-01-12T13:00:00,2216A,123.8139,42.3022,铁岭市,汇工街西,,,37,62,28,42,71,59,68,62,,21,24,23,0.8,0.9
2023-01-12T13:00:00,2217A,123.8649,42.2923,铁岭市,水上乐园,,38,34,55,26,38,72,59,63,59,22,29,12,14,0.4,0.6
2023-01-12T13:00:00,2218A,123.8486,42.2867,铁岭市,银州路东段,,,31,71,21,37,74,68,72,67,25,30,9,12,,0.8
2023-01-12T13:00:00,2219A,123.7153,42.2217,铁岭市,金沙江路北,,43,39,69,30,46,66,58,59,55,25,30,14,14,0.8,0.8
2023-01-12T13:00:00,2220A,120.4318,41.5881,朝阳市,西梁,细颗粒物(PM2.5),110,117,102,83,63,69,56,46,39,33,38,25,22,1.2,1.1
2023-01-12T13:00:00,2221A,120.4521,41.5646,朝阳市,河畔小区,细颗粒物(PM2.5),102,113,97,76,61,61,49,46,37,29,34,17,15,1.2,1.2
2023-01-12T13:00:00,2222A,120.4176,41.5648,朝阳市,八里堡,细颗粒物(PM2.5),107,110,101,80,68,88,55,43,36,34,43,18,18,1.0,1.1
2023-01-12T13:00:00,2223A,120.3806,41.5969,朝阳市,农业园区,细颗粒物(PM2.5),102,102,92,76,63,73,73,59,39,18,32,14,15,1.0,1.1
2023-01-12T13:00:00,2225A,124.4002,43.1713,四平市,一商场,,42,42,63,22,36,71,62,67,65,22,30,9,10,0.5,0.6
2023-01-12T13:00:00,2226A,124.388,43.193,四平市,境园,,38,24,66,26,34,72,64,66,65,17,25,8,10,0.4,0.5
2023-01-12T13:00:00,2227A,125.1358,42.8845,辽源市,环保局,,21,20,48,14,37,83,65,65,65,22,36,12,16,0.5,0.8
2023-01-12T13:00:00,2229A,125.9358,41.7173,通化市,光明,细颗粒物(PM2.5),88,90,63,65,45,79,47,12,12,38,57,43,35,0.7,1.1
2023-01-12T13:00:00,2230A,125.9446,41.7325,通化市,铁路,颗粒物(PM10),59,68,74,40,46,78,47,19,19,36,57,41,35,0.8,1.3
2023-01-12T13:00:00,2231A,126.4219,41.9171,白山市,喜丰,细颗粒物(PM2.5),73,90,90,53,54,37,18,12,12,48,44,21,21,1.3,1.3
2023-01-12T13:00:00,2232A,126.4077,41.9419,白山市,环保局,细颗粒物(PM2.5),113,120,108,85,75,37,25,11,11,62,62,36,29,1.8,2
2023-01-12T13:00:00,2233A,124.8006,45.1214,松原市,江南,,,50,86,56,65,53,53,34,34,9,33,,12,0.7,0.8
2023-01-12T13:00:00,2234A,124.7965,45.1722,松原市,江北,,50,50,94,30,49,56,56,44,44,21,30,11,8,0.9,0.9
2023-01-12T13:00:00,2235A,122.7911,45.6077,白城市,洮北区环保局,细颗粒物(PM2.5),158,148,110,120,81,65,54,39,36,30,34,,10,1.2,1.1
2023-01-12T13:00:00,2236A,122.8738,45.5725,白城市,市环保局,细颗粒物(PM2.5),110,115,108,83,49,58,54,23,23,28,41,13,9,1.1,1
2023-01-12T13:00:00,2237A,129.47,42.8883,延边朝鲜族自治州,妇幼医院,细颗粒物(PM2.5),85,94,69,63,49,52,37,17,17,51,42,34,21,1.0,1
2023-01-12T13:00:00,2238A,129.5055,42.9108,延边朝鲜族自治州,延边医院,细颗粒物(PM2.5),112,134,99,84,78,44,25,19,19,78,55,39,20,1.7,1.6
2023-01-12T13:00:00,2239A,129.3964,42.8881,延边朝鲜族自治州,朝阳川镇医院,颗粒物(PM10),57,63,68,32,45,63,63,21,21,25,32,26,15,0.8,1
2023-01-12T13:00:00,2240A,130.9762,45.3001,鸡西市,环保局,细颗粒物(PM2.5),195,176,82,146,62,54,22,39,16,100,55,27,18,2.3,1.4
2023-01-12T13:00:00,2243A,130.9429,45.3039,鸡西市,第一中学,细颗粒物(PM2.5),84,96,60,62,38,70,52,62,56,45,22,16,12,0.8,0.6
2023-01-12T13:00:00,2244A,130.2537,47.3416,鹤岗市,哈啤分公司,细颗粒物(PM2.5),98,131,133,73,77,39,33,20,15,56,55,24,15,0.9,1.2
2023-01-12T13:00:00,2245A,130.2684,47.3086,鹤岗市,斯达机电,细颗粒物(PM2.5),89,108,112,66,75,55,46,49,34,44,50,20,18,0.9,1
2023-01-12T13:00:00,2246A,130.3114,47.3388,鹤岗市,东山纸板厂,颗粒物(PM10),86,121,154,58,95,35,35,12,12,38,49,29,24,0.6,1.6
2023-01-12T13:00:00,2247A,130.1097,47.3382,鹤岗市,五号水库,细颗粒物(PM2.5),117,147,77,88,44,45,34,28,28,42,29,12,7,0.9,0.5
2023-01-12T13:00:00,2248A,131.1511,46.6937,双鸭山市,双合村,细颗粒物(PM2.5),93,105,100,69,64,76,76,42,42,26,38,22,16,1.3,1.4
2023-01-12T13:00:00,2249A,131.1652,46.6191,双鸭山市,南小市,颗粒物(PM10),82,114,89,52,48,83,83,55,54,22,26,18,20,0.7,0.8
2023-01-12T13:00:00,2250A,131.1524,46.6554,双鸭山市,环保局,颗粒物(PM10),75,99,80,52,54,79,79,54,48,29,36,16,14,0.9,1.1
2023-01-12T13:00:00,2251A,131.12,46.5656,双鸭山市,苗圃,细颗粒物(PM2.5),69,51,51,50,46,102,102,71,71,17,20,11,9,0.7,0.7
2023-01-12T13:00:00,2252A,128.5159,47.4311,伊春市,环保局,细颗粒物(PM2.5),112,74,81,84,73,35,34,17,17,35,47,34,23,2.3,2.1
2023-01-12T13:00:00,2253A,128.9102,47.7412,伊春市,电力嘉园,"颗粒物(PM10),细颗粒物(PM2.5)",63,75,86,45,46,34,29,16,16,33,45,37,25,2.7,2.3
2023-01-12T13:00:00,2254A,129.5029,48.471,伊春市,汤旺河国家公园,细颗粒物(PM2.5),90,86,76,67,54,27,27,19,19,11,13,7,5,0.5,0.5
2023-01-12T13:00:00,2255A,130.2751,46.8028,佳木斯市,佳纺,细颗粒物(PM2.5),180,173,176,136,137,35,35,20,20,48,46,13,11,1.5,1.8
2023-01-12T13:00:00,2256A,130.3995,46.8307,佳木斯市,发电厂,细颗粒物(PM2.5),179,128,112,135,99,56,56,30,30,23,36,8,8,1.1,1.1
2023-01-12T13:00:00,2257A,130.3258,46.7975,佳木斯市,环保局,细颗粒物(PM2.5),189,161,129,142,109,62,9,6,6,82,62,16,12,2.0,1.8
2023-01-12T13:00:00,2258A,130.3648,46.8032,佳木斯市,十一中,细颗粒物(PM2.5),163,133,108,124,100,51,28,16,16,62,62,13,9,1.6,1.5
2023-01-12T13:00:00,2259A,130.3794,46.7588,佳木斯市,四丰,细颗粒物(PM2.5),144,128,73,110,61,90,60,72,62,54,35,12,2,1.1,0.8
2023-01-12T13:00:00,2262A,131.0518,45.8751,七台河市,新一中,细颗粒物(PM2.5),87,86,77,64,58,73,73,54,54,36,36,23,17,1.2,1.3
2023-01-12T13:00:00,2263A,127.4833,50.2524,黑河市,交通局,,32,32,62,14,47,50,46,42,39,13,28,15,15,0.6,0.9
2023-01-12T13:00:00,2264A,127.5144,50.2341,黑河市,环保局,,42,42,85,24,46,40,40,36,34,10,29,9,16,0.4,0.7
2023-01-12T13:00:00,2265A,127.5291,50.2472,黑河市,大黑河岛,,38,14,49,26,53,58,34,49,48,4,12,6,11,0.4,0.6
2023-01-12T13:00:00,2266A,126.9785,46.6365,绥化市,人和东街,细颗粒物(PM2.5),97,109,110,72,75,71,71,42,42,28,36,20,17,0.9,1
2023-01-12T13:00:00,2267A,126.964,46.6528,绥化市,党政办公中心,细颗粒物(PM2.5),98,93,107,73,80,78,75,49,49,24,30,14,17,0.8,0.9
2023-01-12T13:00:00,2269A,124.1069,50.4097,大兴安岭地区,科技局,细颗粒物(PM2.5),82,90,66,60,47,58,56,43,43,19,25,6,11,0.9,0.7
2023-01-12T13:00:00,2270A,117.396,32.939,蚌埠市,工人疗养院,细颗粒物(PM2.5),65,76,100,47,64,112,71,44,39,17,44,7,7,0.6,0.6
2023-01-12T13:00:00,2271A,117.3605,32.9427,蚌埠市,百货大楼,细颗粒物(PM2.5),73,72,97,53,64,103,64,49,31,17,45,15,12,0.6,0.6
2023-01-12T13:00:00,2273A,117.4185,32.8911,蚌埠市,蚌埠学院,细颗粒物(PM2.5),55,58,99,39,60,114,74,45,44,22,40,13,10,0.5,0.7
2023-01-12T13:00:00,2274A,117.3533,32.9673,蚌埠市,淮上区政府,细颗粒物(PM2.5),73,90,105,53,59,109,55,32,28,30,42,13,11,0.7,0.8
2023-01-12T13:00:00,2275A,117.3145,32.8977,蚌埠市,高新区,细颗粒物(PM2.5),70,75,100,51,65,104,59,46,42,24,32,14,10,0.7,0.6
2023-01-12T13:00:00,2277A,116.8305,32.7727,淮南市,潘集区政府,细颗粒物(PM2.5),117,105,132,88,97,92,25,35,18,35,35,6,7,0.5,0.6
2023-01-12T13:00:00,2278A,117.0067,32.6524,淮南市,师范学院,细颗粒物(PM2.5),115,107,114,87,75,96,34,47,33,40,36,11,11,0.6,0.6
2023-01-12T13:00:00,2279A,116.8569,32.5951,淮南市,谢家集区政府,细颗粒物(PM2.5),89,88,106,66,70,102,33,46,22,32,34,11,11,0.5,0.5
2023-01-12T13:00:00,2280A,116.8281,32.633,淮南市,八公山区政府,细颗粒物(PM2.5),98,92,100,73,79,99,33,50,23,30,33,12,12,0.6,0.6
2023-01-12T13:00:00,2281A,116.6325,32.6201,淮南市,焦岗湖风景区管理处,细颗粒物(PM2.5),94,91,122,70,83,104,104,104,104,5,7,3,3,0.2,0.3
2023-01-12T13:00:00,2282A,116.8004,33.975,淮北市,监测站,细颗粒物(PM2.5),124,102,104,94,72,100,27,54,18,37,33,7,8,0.9,0.7
2023-01-12T13:00:00,2283A,116.8091,33.9007,淮北市,烈山区政府,细颗粒物(PM2.5),113,77,93,85,75,106,32,62,28,41,34,6,6,0.8,0.7
2023-01-12T13:00:00,2284A,116.7856,33.9477,淮北市,职业技术学院,细颗粒物(PM2.5),118,92,106,89,76,103,28,55,26,39,34,8,9,0.9,0.7
2023-01-12T13:00:00,2285A,117.8177,30.9412,铜陵市,市第四中学,细颗粒物(PM2.5),127,187,137,96,83,84,31,10,10,65,71,43,16,1.8,1.3
2023-01-12T13:00:00,2286A,117.8059,30.9273,铜陵市,市公路局,细颗粒物(PM2.5),123,115,131,93,90,75,32,7,7,57,63,34,13,2.1,2.1
2023-01-12T13:00:00,2287A,117.7807,30.9413,铜陵市,市新民污水厂,颗粒物(PM10),87,123,115,48,62,102,41,10,10,47,63,37,18,1.3,1
2023-01-12T13:00:00,2288A,117.7439,30.8792,铜陵市,市第九中学,颗粒物(PM10),66,81,174,40,82,47,44,12,12,45,73,14,14,1.5,1.6
2023-01-12T13:00:00,2289A,117.846,30.9413,铜陵市,车站新区,细颗粒物(PM2.5),169,188,119,128,76,90,18,28,9,81,59,27,14,3.5,1.4
2023-01-12T13:00:00,2290A,117.8483,30.97,铜陵市,市职教基地,细颗粒物(PM2.5),90,104,113,67,75,87,29,8,8,43,36,22,11,1.0,0.7
2023-01-12T13:00:00,2291A,117.0809,30.5177,安庆市,环科院,细颗粒物(PM2.5),152,124,146,116,113,105,39,10,10,50,58,12,11,1.0,1.2
2023-01-12T13:00:00,2292A,117.0331,30.5119,安庆市,马山宾馆,细颗粒物(PM2.5),130,152,149,99,106,85,16,25,7,79,63,12,12,1.2,1.1
2023-01-12T13:00:00,2294A,116.9896,30.6145,安庆市,安庆大学,细颗粒物(PM2.5),87,103,122,64,90,129,48,18,18,56,66,9,9,1.2,1.1
2023-01-12T13:00:00,2295A,118.2903,29.6963,黄山市,延安路89号,颗粒物(PM10),57,63,60,29,40,109,49,14,14,21,23,5,5,0.5,0.5
2023-01-12T13:00:00,2296A,118.327,29.7178,黄山市,黄山东路89号,,45,45,53,27,39,116,68,20,20,16,26,7,6,0.6,0.8
2023-01-12T13:00:00,2297A,118.1371,30.2756,黄山市,黄山区政府5号楼,,24,15,58,5,31,98,76,25,25,12,17,6,6,0.9,1
2023-01-12T13:00:00,2298A,118.3093,32.3153,滁州市,老年大学,细颗粒物(PM2.5),80,94,87,59,61,88,35,13,13,51,57,11,9,0.9,0.8
2023-01-12T13:00:00,2299A,118.3244,32.2786,滁州市,人大宾馆,颗粒物(PM10),67,84,91,40,46,81,33,15,15,53,56,8,6,0.7,0.7
2023-01-12T13:00:00,2301A,115.8277,32.8929,阜阳市,市监测站,细颗粒物(PM2.5),149,143,155,114,120,95,9,26,9,58,47,9,10,1.0,0.8
2023-01-12T13:00:00,2303A,115.8554,32.8605,阜阳市,开发区,,,,194,,126,93,10,22,10,,51,6,7,,1
2023-01-12T13:00:00,2307A,116.5079,31.737,六安市,监测大楼,细颗粒物(PM2.5),90,77,116,67,96,95,26,65,26,30,32,8,7,0.6,0.6
2023-01-12T13:00:00,2308A,116.4738,31.7643,六安市,皖西学院,细颗粒物(PM2.5),103,95,125,77,84,102,24,69,22,36,38,4,6,,0.7
2023-01-12T13:00:00,2309A,116.4996,31.7905,六安市,朝阳厂,细颗粒物(PM2.5),94,83,110,70,87,83,20,58,25,35,34,8,6,0.8,0.8
2023-01-12T13:00:00,2310A,116.5567,31.7886,六安市,开发区,细颗粒物(PM2.5),87,87,145,64,93,104,24,51,21,25,37,10,16,0.7,0.8
2023-01-12T13:00:00,2311A,115.8072,33.8399,亳州市,污水处理厂,细颗粒物(PM2.5),147,122,123,112,97,74,15,36,16,31,29,6,7,0.9,0.8
2023-01-12T13:00:00,2312A,115.7789,33.8518,亳州市,三国揽胜宫,细颗粒物(PM2.5),147,158,146,112,95,77,12,37,14,31,31,4,6,0.9,0.7
2023-01-12T13:00:00,2314A,117.47,30.6618,池州市,池州学院,,,,125,,89,102,60,18,18,35,46,,9,1.2,1.1
2023-01-12T13:00:00,2316A,118.7581,30.9454,宣城市,鳌峰子站,细颗粒物(PM2.5),65,70,77,47,50,94,59,42,42,35,30,10,10,0.7,0.6
2023-01-12T13:00:00,2317A,118.7385,30.9743,宣城市,敬亭山子站,颗粒物(PM10),59,67,70,38,48,106,55,34,31,35,33,10,21,0.5,0.5
2023-01-12T13:00:00,2318A,118.7173,30.9427,宣城市,开发区子站,细颗粒物(PM2.5),67,77,74,48,51,101,61,56,47,27,31,6,19,0.4,0.5
2023-01-12T13:00:00,2319A,119.0141,25.4325,莆田市,荔城区仓后路,,42,42,27,17,13,68,49,46,25,22,19,7,7,0.7,0.7
2023-01-12T13:00:00,2320A,119.0015,25.4553,莆田市,莆田市监测站,,31,31,14,16,9,71,46,71,33,22,10,6,6,0.7,0.5
2023-01-12T13:00:00,2321A,119.1119,25.4561,莆田市,涵江区六中,,23,21,37,16,21,66,59,22,22,12,34,7,5,0.7,0.7
2023-01-12T13:00:00,2322A,119.1013,25.3215,莆田市,秀屿区政府,,32,32,31,21,28,71,60,48,28,13,18,4,4,0.6,0.7
2023-01-12T13:00:00,2323A,118.981,25.4792,莆田市,东圳水库,,,,,,,,,,,,,,,,
2023-01-12T13:00:00,2324A,117.6211,26.2625,三明市,三钢,,29,27,28,20,25,46,40,21,21,17,23,8,8,0.6,0.6
2023-01-12T13:00:00,2325A,117.635,26.2714,三明市,三明二中,,38,38,28,18,23,44,42,22,22,18,25,5,6,0.5,0.6
2023-01-12T13:00:00,2326A,117.6028,26.2378,三明市,三元区政府,,37,37,35,16,26,42,40,15,15,20,24,11,11,1.0,0.9
2023-01-12T13:00:00,2327A,117.7275,26.3108,三明市,洋溪,,,,,,,,,,,,,,,,
2023-01-12T13:00:00,2331A,118.0966,26.6761,南平市,茫荡山,,,,,,,,,,,,,,,,
2023-01-12T13:00:00,2332A,118.1681,26.6369,南平市,南平市监测站,,17,15,31,9,22,54,54,20,20,8,20,3,5,0.5,0.8
2023-01-12T13:00:00,2333A,118.1825,26.6489,南平市,南平铝业有限公司,,17,14,30,3,22,52,52,20,20,5,16,6,7,0.5,0.8
2023-01-12T13:00:00,2334A,118.1756,26.6272,南平市,南平七中,,,,28,,7,14,,18,,,21,,5,,0.6
2023-01-12T13:00:00,2335A,117.0189,25.1181,龙岩市,龙岩师专,,,,,,,,,,,,,,,,
2023-01-12T13:00:00,2336A,117.0217,25.1033,龙岩市,龙岩市监测站,细颗粒物(PM2.5),57,42,23,40,22,56,14,26,12,35,20,8,8,0.9,0.6
2023-01-12T13:00:00,2337A,117.0258,25.0661,龙岩市,闽西职业技术学院,颗粒物(PM10),55,59,31,38,23,52,18,12,8,34,20,7,6,1.1,0.7
2023-01-12T13:00:00,2338A,117.0196,25.0306,龙岩市,龙岩学院,,48,42,30,33,22,50,14,10,10,26,19,6,3,0.7,0.5
2023-01-12T13:00:00,2339A,119.5001,26.6946,宁德市,金涵水库,,,,,,,,,,,,,,,,
2023-01-12T13:00:00,2341A,119.5388,26.6612,宁德市,宁德市监测站,,32,32,45,11,32,49,49,20,20,14,31,5,6,0.6,1
2023-01-12T13:00:00,2342A,117.3102,29.3867,景德镇市,王港中学,,,,,,,,,,,,,,,,
2023-01-12T13:00:00,2343A,117.2117,29.2933,景德镇市,老干部活动中心,,34,34,86,20,51,92,43,32,32,16,33,6,8,0.6,0.8
2023-01-12T13:00:00,2344A,117.1894,29.2789,景德镇市,兽医站,颗粒物(PM10),53,55,71,20,48,103,41,39,39,18,33,5,9,0.8,1.1
2023-01-12T13:00:00,2345A,117.1547,29.2617,景德镇市,台达陶瓷,,36,36,77,21,48,100,37,37,37,30,44,23,17,0.8,0.9
2023-01-12T13:00:00,2346A,117.2461,29.2956,景德镇市,陶研所,,24,24,69,15,37,103,63,30,30,7,30,4,5,0.6,0.7
2023-01-12T13:00:00,2347A,114.0997,27.5002,萍乡市,武功山,细颗粒物(PM2.5),63,42,63,45,54,97,4,5,4,17,20,13,11,0.7,0.8
2023-01-12T13:00:00,2348A,113.8385,27.6434,萍乡市,中医院,细颗粒物(PM2.5),110,88,87,83,66,121,,35,21,36,29,11,8,2.1,1.4
2023-01-12T13:00:00,2349A,113.8493,27.6253,萍乡市,市政府车库,细颗粒物(PM2.5),83,76,89,61,67,130,16,23,15,24,27,14,22,1.6,2
2023-01-12T13:00:00,2350A,113.8676,27.6435,萍乡市,市环保局,细颗粒物(PM2.5),78,76,76,57,53,124,15,29,15,24,22,25,18,1.1,0.9
2023-01-12T13:00:00,2351A,113.866,27.6198,萍乡市,安源区政府,细颗粒物(PM2.5),80,80,95,59,68,114,26,35,21,26,31,23,29,1.1,1.1
2023-01-12T13:00:00,2352A,115.0861,27.9317,新余市,北岗,细颗粒物(PM2.5),97,84,80,72,59,70,30,20,20,19,17,15,9,0.6,0.4
2023-01-12T13:00:00,2353A,114.9886,27.8431,新余市,飞宇,细颗粒物(PM2.5),97,97,96,72,66,70,32,20,20,26,34,10,11,0.6,0.6
2023-01-12T13:00:00,2354A,114.9231,27.8246,新余市,第二水厂,细颗粒物(PM2.5),108,117,128,81,80,59,18,13,13,39,43,15,11,0.7,0.7
2023-01-12T13:00:00,2355A,114.9308,27.8036,新余市,市气象局,细颗粒物(PM2.5),117,126,101,88,77,68,14,31,14,39,36,11,10,1.0,0.8
2023-01-12T13:00:00,2357A,116.9822,28.1136,鹰潭市,龙虎山,,32,32,31,14,21,94,60,29,29,3,5,5,3,0.9,0.8
2023-01-12T13:00:00,2358A,117.0564,28.2642,鹰潭市,新监测站,,45,42,52,31,40,88,52,30,30,18,31,2,12,0.5,0.5
2023-01-12T13:00:00,2359A,117.0311,28.2475,鹰潭市,财苑宾馆,,44,44,52,26,38,96,54,32,32,21,31,7,15,0.5,0.7
2023-01-12T13:00:00,2360A,117.0222,28.2264,鹰潭市,体育馆,颗粒物(PM10),55,60,61,33,41,93,51,33,26,23,34,6,13,0.6,0.7
2023-01-12T13:00:00,2361A,117.0017,28.2131,鹰潭市,三川水表,颗粒物(PM10),64,78,56,39,37,88,43,22,22,31,30,7,9,0.8,0.7
2023-01-12T13:00:00,2362A,114.9017,25.9149,赣州市,通天岩,,39,39,47,24,25,56,24,13,13,29,27,6,6,1.0,1.1
2023-01-12T13:00:00,2363A,114.9367,25.8664,赣州市,地委,,46,46,43,28,26,57,19,10,10,31,27,6,9,1.2,1.2
2023-01-12T13:00:00,2364A,114.9461,25.8481,赣州市,气象台,,35,33,35,24,28,43,12,5,5,33,30,8,7,0.9,0.9
2023-01-12T13:00:00,2365A,114.9322,25.8333,赣州市,市图书馆,,38,38,38,23,27,49,10,4,4,36,32,8,5,1.3,1.2
2023-01-12T13:00:00,2366A,114.8905,25.8471,赣州市,华坚鞋城,,46,46,47,22,30,43,23,20,17,31,30,4,3,1.1,1.2
2023-01-12T13:00:00,2367A,114.9754,27.0803,吉安市,红声器材厂,细颗粒物(PM2.5),58,61,86,41,61,78,24,28,16,30,30,13,13,0.7,0.8
2023-01-12T13:00:00,2368A,114.9658,27.0999,吉安市,市森林工业局,细颗粒物(PM2.5),62,59,83,44,69,76,25,22,18,37,33,22,17,0.9,1.2
2023-01-12T13:00:00,2369A,114.99,27.1312,吉安市,市环境监测站,细颗粒物(PM2.5),68,70,97,49,78,56,25,16,15,33,38,6,7,1.0,1
2023-01-12T13:00:00,2370A,115.0093,27.0968,吉安市,青原区法院,颗粒物(PM10),54,58,90,37,66,74,39,21,14,14,27,7,9,0.6,0.8
2023-01-12T13:00:00,2371A,114.3408,27.8064,宜春市,槟榔水业,细颗粒物(PM2.5),78,79,70,57,49,85,19,39,21,27,19,16,14,0.8,0.7
2023-01-12T13:00:00,2373A,114.3956,27.7844,宜春市,市石油公司,细颗粒物(PM2.5),79,80,76,58,54,107,33,48,28,26,23,6,6,1.1,1
2023-01-12T13:00:00,2374A,114.3703,27.7914,宜春市,市气象局,细颗粒物(PM2.5),89,84,76,66,54,102,30,40,25,28,27,5,6,1.4,1.3
2023-01-12T13:00:00,2375A,114.4013,27.8074,宜春市,市广电局,细颗粒物(PM2.5),88,76,77,65,59,110,33,47,30,25,24,8,7,1.2,1.1
2023-01-12T13:00:00,2376A,116.2127,28.0814,抚州市,桐源党溪,,49,49,72,34,52,80,33,11,11,25,21,63,14,1.1,0.9
2023-01-12T13:00:00,2377A,116.3544,27.9831,抚州市,市站,颗粒物(PM10),53,56,95,13,63,70,45,24,24,12,36,3,9,0.1,0.7
2023-01-12T13:00:00,2378A,116.3565,27.963,抚州市,血防站,,29,29,87,13,63,65,38,23,23,2,29,5,5,0.6,1
2023-01-12T13:00:00,2379A,116.3564,28.0007,抚州市,采茶剧团,,21,21,87,10,64,69,45,22,22,6,34,4,5,0.1,0.5
2023-01-12T13:00:00,2380A,116.385,27.9647,抚州市,医学分院,,21,21,77,11,45,68,47,31,31,6,31,4,5,0.6,0.9
2023-01-12T13:00:00,2381A,118.005,28.4572,上饶市,百草园,,,,,,,,,,,,,,,,
2023-01-12T13:00:00,2382A,117.9756,28.4436,上饶市,市监测站,颗粒物(PM10),51,52,74,28,41,90,59,35,29,26,38,6,9,0.5,0.7
2023-01-12T13:00:00,2383A,117.9519,28.4628,上饶市,凤凰光学,颗粒物(PM10),52,54,73,33,41,90,51,30,29,25,32,13,11,0.7,0.7
2023-01-12T13:00:00,2385A,114.17,35.9019,鹤壁市,市监测站,细颗粒物(PM2.5),208,199,193,158,143,57,6,6,3,66,47,20,8,2.3,1.7
2023-01-12T13:00:00,2386A,114.2956,35.7511,鹤壁市,市交警支队,细颗粒物(PM2.5),173,197,188,131,130,60,6,7,3,,46,14,12,1.6,1.1
2023-01-12T13:00:00,2387A,114.2878,35.7306,鹤壁市,迎宾馆,细颗粒物(PM2.5),172,168,157,130,128,62,5,12,2,72,47,17,10,1.7,1.2
2023-01-12T13:00:00,2389A,113.836,35.311,新乡市,环保西院,细颗粒物(PM2.5),192,214,197,144,135,55,10,14,9,59,45,,9,2.2,1.3
2023-01-12T13:00:00,2390A,113.884,35.272,新乡市,开发区,细颗粒物(PM2.5),213,204,196,163,141,60,12,30,12,54,35,10,6,2.3,1.3
2023-01-12T13:00:00,2391A,113.883,35.303,新乡市,环保东院,细颗粒物(PM2.5),162,181,165,123,124,58,10,25,9,56,36,10,7,2.3,1.3
2023-01-12T13:00:00,2392A,115.0312,35.7636,濮阳市,环保局,细颗粒物(PM2.5),219,196,145,169,129,72,7,29,12,61,36,10,6,1.7,1.1
2023-01-12T13:00:00,2394A,115.0574,35.7609,濮阳市,油田运输公司,细颗粒物(PM2.5),235,244,192,185,137,71,8,32,12,66,40,12,10,1.6,1.1
2023-01-12T13:00:00,2395A,115.0866,35.7754,濮阳市,油田物探公司,细颗粒物(PM2.5),236,200,143,186,135,72,6,20,8,61,39,8,7,1.5,1
2023-01-12T13:00:00,2396A,113.8276,34.0159,许昌市,监测站,,,,178,,145,58,,40,18,35,26,3,2,1.1,1
2023-01-12T13:00:00,2398A,113.7906,33.9953,许昌市,开发区,细颗粒物(PM2.5),172,136,170,130,151,60,8,33,17,39,31,1,2,1.1,1
2023-01-12T13:00:00,2399A,114.051,33.5699,漯河市,三五一五工厂,细颗粒物(PM2.5),199,161,175,149,143,64,9,22,7,29,32,1,2,1.1,1.1
2023-01-12T13:00:00,2400A,114.0055,33.5698,漯河市,漯河大学,细颗粒物(PM2.5),196,182,183,147,140,69,11,36,9,35,33,9,9,1.2,1.1
2023-01-12T13:00:00,2401A,114.0138,33.5828,漯河市,市水利局,细颗粒物(PM2.5),206,171,173,156,138,69,13,32,10,37,35,8,7,0.9,0.8
2023-01-12T13:00:00,2402A,114.0261,33.5698,漯河市,市广电局,细颗粒物(PM2.5),207,166,176,157,158,65,9,30,7,35,35,7,6,1.1,1
2023-01-12T13:00:00,2404A,112.5224,33.0122,南阳市,瓦房庄,细颗粒物(PM2.5),204,186,181,154,144,58,14,48,16,50,35,6,5,1.3,1.1
2023-01-12T13:00:00,2405A,112.5003,32.9735,南阳市,汉画馆,细颗粒物(PM2.5),219,185,181,169,150,62,26,42,19,,37,6,5,1.3,1.3
2023-01-12T13:00:00,2406A,112.5573,33.027,南阳市,气象站,细颗粒物(PM2.5),219,199,190,169,147,62,13,52,20,47,34,8,7,1.3,1.1
2023-01-12T13:00:00,2407A,112.5481,32.9689,南阳市,理工学院,细颗粒物(PM2.5),219,188,181,169,155,63,20,44,19,39,32,6,5,1.0,1
