timepoint,stationcode,longitude,latitude,area,positionname,primarypollutant,aqi,pm10,pm10_24h,pm2_5,pm2_5_24h,o3,o3_24h,o3_8h,o3_8h_24h,no2,no2_24h,so2,so2_24h,co,co_24h
2026-04-22T0600,2568A,102.2503,31.8896,阿坝藏族羌族自治州,马师校,,16,16,22,3,6,35,35,NA,NA,3,5,6,6,0.2,0.2
2026-04-22T0600,3994A,102.2174,31.9016,阿坝藏族羌族自治州,马尔康中学西区,,15,11,23,3,7,45,45,NA,NA,4,5,4,4,0.3,0.3
2026-04-22T0600,2695A,80.2899,41.1684,阿克苏地区,电视台,颗粒物(PM10),102,124,250,60,99,77,77,NA,NA,8,27,2,3,0.8,1.1
2026-04-22T0600,2696A,80.2592,41.1541,阿克苏地区,艺术中心,细颗粒物(PM2.5),117,105,204,78,104,62,62,NA,NA,19,37,5,4,0.5,0.7
2026-04-22T0600,2205A,105.699,38.8409,阿拉善盟,蒙二幼,NA,NA,55,90,12,22,102,102,NA,NA,3,7,NA,10,0.4,0.4
2026-04-22T0600,2206A,105.7198,38.8508,阿拉善盟,环保局新楼,颗粒物(PM10),55,56,88,14,23,100,100,NA,NA,6,7,10,10,0.6,0.6
2026-04-22T0600,2708A,88.1266,47.8515,阿勒泰地区,市站,,33,10,22,3,3,104,104,NA,NA,1,6,5,5,0.1,0.1
2026-04-22T0600,4166A,88.1198,47.7931,阿勒泰地区,阿勒泰路33号,,30,11,26,3,3,96,96,NA,NA,2,5,6,6,0.2,0.2
2026-04-22T0600,2630A,80.1171,32.4999,阿里地区,阿里监测站,,32,12,16,3,5,102,102,NA,NA,4,5,5,6,0.4,0.4
2026-04-22T0600,3192A,80.0906,32.5029,阿里地区,阿里藏医院,,29,9,14,3,5,90,90,NA,NA,5,4,7,8,0.4,0.4
2026-04-22T0600,2644A,109.0088,32.6974,安康市,汉滨区检察院,NA,NA,27,47,13,16,NA,NA,NA,NA,7,9,9,6,0.4,0.4
2026-04-22T0600,4054A,109.0324,32.6913,安康市,市邮政管理局,NA,NA,18,52,8,18,NA,NA,NA,NA,9,9,4,4,0.5,0.5
2026-04-22T0600,2291A,117.0806,30.5181,安庆市,环科院,,15,6,18,3,11,46,46,NA,NA,12,13,5,6,0.5,0.5
2026-04-22T0600,2292A,117.0331,30.5118,安庆市,马山宾馆,,14,6,18,3,11,44,44,NA,NA,10,12,4,4,0.5,0.5
2026-04-22T0600,2294A,116.9897,30.6146,安庆市,安庆大学,,15,6,15,3,7,47,47,NA,NA,10,11,3,3,0.5,0.5
2026-04-22T0600,3173A,117.0598,30.5351,安庆市,市人大,,14,6,17,3,10,43,43,NA,NA,10,11,3,3,0.5,0.6
2026-04-22T0600,3123A,105.9408,26.2431,安顺市,凤凰山,,19,6,27,3,23,58,58,NA,NA,10,8,7,7,0.5,0.6
2026-04-22T0600,3124A,105.9443,26.2567,安顺市,金钟山,,16,NA,28,11,23,51,51,NA,NA,9,7,5,6,0.5,0.6
2026-04-22T0600,3125A,105.8983,26.248,安顺市,娄家坡,,18,12,29,12,24,56,56,NA,NA,7,6,2,4,0.5,0.6
2026-04-22T0600,1819A,114.3552,36.1017,安阳市,红庙街,,30,25,32,21,15,56,56,NA,NA,10,13,2,2,0.3,0.3
2026-04-22T0600,1820A,114.361,36.0681,安阳市,银杏小区,,38,26,42,26,17,52,52,NA,NA,11,12,3,4,0.3,0.1
2026-04-22T0600,3141A,114.3921,36.0879,安阳市,信访局,,46,NA,39,32,20,59,59,NA,NA,8,13,2,3,0.3,0.4
2026-04-22T0600,3669A,114.4706,36.0634,安阳市,左辅环卫站,NA,NA,24,37,15,15,NA,NA,NA,NA,10,14,3,2,0.2,0.3
2026-04-22T0600,4117A,114.2918,36.0769,安阳市,钢三路198号,NA,NA,53,43,21,15,50,50,NA,NA,12,13,NA,2,0.4,0.3
2026-04-22T0600,1748A,123.0441,41.1201,鞍山市,深沟寺,颗粒物(PM10),101,122,105,49,35,45,45,NA,NA,26,22,12,15,1.5,0.9
2026-04-22T0600,1749A,123.011,41.0931,鞍山市,太阳城,颗粒物(PM10),107,137,103,56,37,36,36,NA,NA,28,19,8,13,1.1,0.8
2026-04-22T0600,1750A,123.0483,41.1445,鞍山市,太平,颗粒物(PM10),107,137,107,51,37,51,51,NA,NA,24,19,11,13,1.2,0.9
2026-04-22T0600,1751A,122.964,41.0968,鞍山市,铁西三道街,颗粒物(PM10),102,124,113,52,38,46,46,NA,NA,28,22,9,11,1.0,0.8
2026-04-22T0600,1753A,123.0219,41.0822,鞍山市,明达新区,颗粒物(PM10),102,125,104,51,33,50,50,NA,NA,23,19,11,13,1.5,0.9
2026-04-22T0600,4201A,122.944647,41.082639,鞍山市,兴盛南路290号,细颗粒物(PM2.5),110,104,127,71,47,51,51,NA,NA,24,22,11,12,0.9,0.7
2026-04-22T0600,2195A,107.4206,40.7609,巴彦淖尔市,附二中,NA,NA,81,84,NA,29,61,61,NA,NA,23,21,10,9,0.5,0.5
2026-04-22T0600,2196A,107.37,40.7372,巴彦淖尔市,市环保大楼,NA,NA,71,78,27,25,46,46,NA,NA,34,20,NA,6,0.5,0.4
2026-04-22T0600,1956A,86.1476,41.7529,巴音郭楞蒙古自治州,孔雀公园,颗粒物(PM10),95,113,116,42,52,22,22,NA,NA,50,27,11,10,0.4,0.4
2026-04-22T0600,1957A,86.1971,41.7166,巴音郭楞蒙古自治州,棉纺厂,颗粒物(PM10),104,128,158,44,65,50,50,NA,NA,7,22,/,/,/,/
2026-04-22T0600,1958A,86.236,41.7172,巴音郭楞蒙古自治州,经济开发区,颗粒物(PM10),86,100,124,41,73,49,49,NA,NA,9,14,8,8,0.4,0.4
2026-04-22T0600,3181A,106.776805,31.852614,巴中市,市五中,,10,10,12,3,3,7,7,NA,NA,8,9,8,8,0.6,0.6
2026-04-22T0600,3183A,106.7419,31.8654,巴中市,圣泉水务公司,,8,6,7,3,3,13,13,NA,NA,14,12,9,9,0.8,0.8
2026-04-22T0600,3616A,106.7617,31.8343,巴中市,市中心医院,,14,14,11,3,3,5,5,NA,NA,12,9,9,9,0.6,0.6
2026-04-22T0600,2235A,122.7909,45.608,白城市,洮北区环保局,NA,NA,20,34,6,11,64,64,NA,NA,11,8,NA,10,0.3,0.2
2026-04-22T0600,2236A,122.8741,45.5725,白城市,市环保局,,23,12,32,6,7,72,72,NA,NA,11,9,6,4,0.0,0
2026-04-22T0600,2231A,126.4219,41.9172,白山市,喜丰,颗粒物(PM10),81,93,80,36,10,32,32,NA,NA,37,13,7,9,1.0,0.9
2026-04-22T0600,2232A,126.4082,41.9416,白山市,环保局,,43,43,51,18,11,51,51,NA,NA,13,9,11,9,0.6,0.7
2026-04-22T0600,2647A,104.1727,36.5448,白银市,第三小学,颗粒物(PM10),108,139,96,21,38,42,42,NA,NA,30,17,24,34,0.5,0.6
2026-04-22T0600,2648A,104.1467,36.5482,白银市,动力公司,,50,50,89,22,56,57,57,NA,NA,22,18,24,29,0.3,0.3
2026-04-22T0600,2512A,106.6102,23.901,百色市,市监测站,细颗粒物(PM2.5),58,54,50,39,35,36,36,NA,NA,20,13,15,17,1.0,0.9
2026-04-22T0600,2513A,106.6524,23.8842,百色市,市中心血站,,48,48,53,32,43,56,56,NA,NA,15,14,14,14,0.7,0.7
2026-04-22T0600,4133A,106.6273,23.8798,百色市,龙景西路,细颗粒物(PM2.5),54,45,62,37,42,53,53,NA,NA,15,13,23,18,0.9,0.8
2026-04-22T0600,2270A,117.396,32.9389,蚌埠市,工人疗养院,,21,16,59,10,14,67,67,NA,NA,8,14,4,4,0.2,0.2
2026-04-22T0600,2271A,117.3606,32.9428,蚌埠市,百货大楼,,22,11,59,10,14,70,70,NA,NA,6,13,4,5,0.3,0.3
2026-04-22T0600,2273A,117.4183,32.8909,蚌埠市,蚌埠学院,,20,NA,59,9,12,64,64,NA,NA,11,24,4,5,0.3,0.3
2026-04-22T0600,2274A,117.3534,32.9672,蚌埠市,淮上区政府,,23,NA,60,10,14,71,71,NA,NA,12,18,4,4,0.1,0.2
2026-04-22T0600,2275A,117.3143,32.8977,蚌埠市,高新区,,21,NA,54,8,13,67,67,NA,NA,6,17,6,7,0.3,0.3
2026-04-22T0600,3715A,117.3091,32.9314,蚌埠市,蚌埠田家炳中学,,22,14,62,9,15,69,69,NA,NA,9,14,4,5,0.2,0.2
2026-04-22T0600,1585A,109.8761,40.6533,包头市,市环境监测站,颗粒物(PM10),59,62,66,17,24,53,53,NA,NA,24,36,13,14,0.6,0.7
2026-04-22T0600,1587A,109.9992,40.5843,包头市,包头八中,细颗粒物(PM2.5),70,56,70,45,30,27,27,NA,NA,48,33,8,12,0.6,0.8
2026-04-22T0600,1589A,109.8641,40.6288,包头市,惠龙物流,,48,48,61,22,26,49,49,NA,NA,27,34,13,15,0.6,0.7
2026-04-22T0600,1590A,110.0376,40.5546,包头市,东河鸿龙湾,颗粒物(PM10),59,62,65,26,31,10,10,NA,NA,83,49,13,15,0.5,0.6
2026-04-22T0600,3283A,109.9154,40.5684,包头市,滨河大厦,细颗粒物(PM2.5),80,80,62,50,35,3,3,NA,NA,65,43,13,15,0.6,0.6
2026-04-22T0600,3419A,109.9449,40.6259,包头市,包头市委党校,,49,41,51,34,27,40,40,NA,NA,53,42,6,14,0.3,0.6
2026-04-22T0600,3683A,109.8332,40.6577,包头市,昆区政府,,49,49,56,15,29,72,72,NA,NA,20,25,13,13,0.7,0.8
2026-04-22T0600,1931A,107.0802,34.3129,宝鸡市,竹园沟,,8,6,10,3,5,18,18,NA,NA,4,6,7,6,0.5,0.5
2026-04-22T0600,1933A,107.1429,34.3549,宝鸡市,监测站,,18,12,11,12,8,21,21,NA,NA,6,7,5,5,0.6,0.5
2026-04-22T0600,1934A,107.1172,34.3759,宝鸡市,技工学校,,16,NA,13,11,9,26,26,NA,NA,4,7,3,3,0.3,0.5
2026-04-22T0600,1936A,107.2025,34.3518,宝鸡市,文理学院,,19,16,13,13,9,28,28,NA,NA,11,12,4,4,0.4,0.4
2026-04-22T0600,1937A,107.2396,34.3626,宝鸡市,三迪小学,,19,NA,18,13,9,28,28,NA,NA,21,17,5,4,0.4,0.4
2026-04-22T0600,4155A,107.1721,34.3558,宝鸡市,滨河北路,,24,24,16,15,10,21,21,NA,NA,12,12,6,6,0.5,0.5
2026-04-22T0600,4308A,107.3898,34.3601,宝鸡市,陈仓区北开路21号,,23,21,14,16,10,18,18,NA,NA,28,16,6,6,0.3,0.3
2026-04-22T0600,1051A,115.4803,38.8568,保定市,游泳馆,,36,36,65,15,27,54,54,NA,NA,18,18,6,4,0.3,0.3
2026-04-22T0600,1052A,115.509,38.8895,保定市,华电二区,,30,30,60,18,30,51,51,NA,NA,14,14,7,4,0.4,0.4
2026-04-22T0600,1053A,115.4588,38.9037,保定市,接待中心,,34,34,67,13,28,46,46,NA,NA,16,15,4,4,0.4,0.4
2026-04-22T0600,1054A,115.4484,38.8344,保定市,地表水厂,,45,45,78,16,22,49,49,NA,NA,21,17,4,6,0.3,0.3
2026-04-22T0600,3581A,115.3136,38.9511,保定市,满城区生态环境分局,,44,44,88,12,21,38,38,NA,NA,20,18,3,4,0.4,0.4
2026-04-22T0600,3582A,115.4709,38.7628,保定市,清苑区第二中学,,42,42,79,20,22,36,36,NA,NA,28,16,4,7,0.3,0.4
2026-04-22T0600,3583A,115.6231,39.0223,保定市,徐水物探局,,36,36,88,14,24,40,40,NA,NA,24,18,2,3,0.4,0.5
2026-04-22T0600,4004A,115.4199,38.8665,保定市,双鹰农机,,36,36,78,19,25,46,46,NA,NA,20,19,4,6,0.4,0.3
2026-04-22T0600,4034A,115.515,38.8589,保定市,植保所站,颗粒物(PM10),54,55,86,8,22,50,50,NA,NA,20,16,3,5,0.5,0.5
2026-04-22T0600,2594A,99.1589,25.1137,保山市,市环境监测站,细颗粒物(PM2.5),66,59,56,43,39,95,95,NA,NA,8,9,6,6,0.4,0.4
2026-04-22T0600,2595A,99.1616,25.1381,保山市,市环保局,细颗粒物(PM2.5),78,63,59,49,44,113,113,NA,NA,5,6,8,7,0.5,0.5
2026-04-22T0600,1867A,109.1435,21.4085,北海市,海滩公园,NA,NA,41,47,34,29,15,15,NA,NA,NA,8,10,7,0.6,0.6
2026-04-22T0600,1868A,109.0983,21.466,北海市,新市环保局,,36,34,30,25,20,28,28,NA,NA,16,9,11,8,0.5,0.5
2026-04-22T0600,1869A,109.1775,21.5232,北海市,北海工业园,,42,42,40,26,26,9,9,NA,NA,21,13,15,7,0.4,0.5
2026-04-22T0600,3400A,109.1844,21.4396,北海市,龙潭自来水厂,,42,40,33,29,26,1,1,NA,NA,22,13,9,7,0.9,0.9
2026-04-22T0600,1001A,116.3611,39.8786,北京市,万寿西宫,,39,39,84,12,30,34,34,NA,NA,35,26,3,4,0.3,0.4
2026-04-22T0600,1003A,116.4174,39.9289,北京市,东四,,41,41,77,15,28,43,43,NA,NA,29,22,2,3,0.5,0.6
2026-04-22T0600,1004A,116.4073,39.8858,北京市,天坛,,32,32,75,12,29,19,19,NA,NA,26,24,3,5,0.3,0.4
2026-04-22T0600,1005A,116.4622,39.9364,北京市,农展馆,,41,41,82,14,30,34,34,NA,NA,27,24,3,4,0.4,0.4
2026-04-22T0600,1006A,116.3399,39.9293,北京市,官园,,44,44,83,13,25,42,42,NA,NA,30,28,2,4,0.3,0.4
2026-04-22T0600,1007A,116.2879,39.9613,北京市,海淀万柳,颗粒物(PM10),66,72,81,29,32,2,2,NA,NA,57,29,4,6,0.5,0.4
2026-04-22T0600,1008A,116.6635,40.1349,北京市,顺义新城,颗粒物(PM10),61,65,84,13,21,22,22,NA,NA,25,14,3,3,0.5,0.5
2026-04-22T0600,1009A,116.6275,40.327,北京市,怀柔镇,颗粒物(PM10),66,72,75,28,27,33,33,NA,NA,13,14,4,5,0.6,0.5
2026-04-22T0600,1010A,116.2295,40.217,北京市,昌平镇,颗粒物(PM10),76,86,86,38,31,15,15,NA,NA,49,32,3,4,0.6,0.5
2026-04-22T0600,1011A,116.3968,39.982,北京市,奥体中心,,49,49,80,16,29,20,20,NA,NA,40,26,3,5,0.5,0.5
2026-04-22T0600,3418A,116.8336,40.4095,北京市,密云新城,颗粒物(PM10),75,84,83,28,25,12,12,NA,NA,22,17,2,3,0.4,0.4
2026-04-22T0600,3671A,116.0879,39.9725,北京市,门头沟三家店,颗粒物(PM10),76,86,88,35,36,4,4,NA,NA,41,25,2,3,0.5,0.4
2026-04-22T0600,3672A,116.1507,39.8246,北京市,丰台云岗,,47,47,88,11,33,32,32,NA,NA,30,24,1,3,0.4,0.4
2026-04-22T0600,3674A,115.9578,39.7602,北京市,房山燕山,颗粒物(PM10),68,75,86,35,34,13,13,NA,NA,22,21,3,4,0.7,0.6
2026-04-22T0600,3675A,116.4669,39.7734,北京市,大兴旧宫,,34,34,98,9,28,45,45,NA,NA,15,18,3,2,0.5,0.5
2026-04-22T0600,3694A,115.9859,40.4562,北京市,延庆石河营,颗粒物(PM10),63,68,59,33,22,19,19,NA,NA,27,17,1,2,0.3,0.3
2026-04-22T0600,3695A,116.6151,40.3052,北京市,怀柔新城,颗粒物(PM10),101,121,88,29,20,34,34,NA,NA,17,14,4,9,0.8,1
2026-04-22T0600,3696A,116.2542,39.8764,北京市,丰台小屯,颗粒物(PM10),58,60,80,15,38,24,24,NA,NA,39,28,2,4,0.4,0.5
2026-04-22T0600,3697A,116.8399,40.3843,北京市,密云镇,颗粒物(PM10),65,71,74,23,29,9,9,NA,NA,38,23,5,6,0.5,0.4
2026-04-22T0600,4057A,115.9423,40.4431,北京市,延庆百泉,颗粒物(PM10),68,74,58,35,23,6,6,NA,NA,41,18,3,2,0.5,0.4
2026-04-22T0600,4058A,116.6598,39.9164,北京市,通州新华,,29,29,79,10,32,50,50,NA,NA,28,28,4,5,0.4,0.5
2026-04-22T0600,4182A,116.1942,39.9158,北京市,石景山八角,颗粒物(PM10),57,59,95,15,30,3,3,NA,NA,65,31,1,3,0.4,0.4
2026-04-22T0600,4194A,117.078628,40.151726,北京市,平谷新城,颗粒物(PM10),60,63,74,24,32,39,39,NA,NA,16,21,2,3,0.4,0.4
2026-04-22T0600,1761A,123.8274146,41.31234549,本溪市,大峪,颗粒物(PM10),85,98,96,41,24,41,41,NA,NA,24,14,8,12,1.2,1.2
2026-04-22T0600,1763A,123.7169,41.3094,本溪市,彩屯,细颗粒物(PM2.5),104,121,90,64,26,41,41,NA,NA,30,14,11,12,1.0,0.8
2026-04-22T0600,1764A,123.7672166,41.28649327,本溪市,东明,颗粒物(PM10),74,83,92,45,26,41,41,NA,NA,37,24,10,14,1.2,1.5
2026-04-22T0600,1765A,123.799345,41.266614,本溪市,新立屯,细颗粒物(PM2.5),72,77,70,46,20,33,33,NA,NA,37,14,9,9,1.1,0.7
2026-04-22T0600,1766A,123.829144,41.336777,本溪市,威宁,颗粒物(PM10),84,97,96,41,25,29,29,NA,NA,34,18,6,11,1.0,1
2026-04-22T0600,2587A,105.287,27.3133,毕节市,八中,,22,6,10,3,7,70,70,NA,NA,4,6,7,7,0.5,0.5
2026-04-22T0600,2588A,105.3079,27.2987,毕节市,师专,,21,7,12,3,7,65,65,NA,NA,4,6,9,9,0.4,0.4
2026-04-22T0600,4263A,105.3688,27.3598,毕节市,工业大道,,22,10,14,3,6,68,68,NA,NA,4,5,10,13,/,/
2026-04-22T0600,1629A,117.9961,37.3604,滨州市,第二水厂,颗粒物(PM10),55,56,79,33,26,42,42,NA,NA,23,22,8,8,0.6,0.4
2026-04-22T0600,1630A,117.9789,37.3931,滨州市,北中新校,颗粒物(PM10),56,58,72,37,27,38,38,NA,NA,23,19,4,4,0.5,0.3
2026-04-22T0600,3514A,117.9379,37.3959,滨州市,中海酒店,细颗粒物(PM2.5),54,44,74,37,30,34,34,NA,NA,33,27,13,14,0.7,0.8
2026-04-22T0600,3515A,117.9381509,37.35547456,滨州市,开发区一中,细颗粒物(PM2.5),62,61,90,41,34,36,36,NA,NA,32,29,12,10,0.9,0.7
2026-04-22T0600,3516A,118.0914,37.6938,滨州市,金海六路,细颗粒物(PM2.5),70,61,77,45,31,19,19,NA,NA,42,22,7,7,0.6,0.6
2026-04-22T0600,4028A,117.9955,37.3752,滨州市,滨州市西街道办事处,颗粒物(PM10),56,58,82,34,25,43,43,NA,NA,21,19,6,7,0.5,0.3
2026-04-22T0600,2311A,115.8071,33.8399,亳州市,污水处理厂,,29,29,56,15,19,68,68,NA,NA,12,15,4,6,0.1,0.1
2026-04-22T0600,2312A,115.7789,33.8519,亳州市,三国揽胜宫,NA,NA,32,58,15,19,62,62,NA,NA,NA,12,7,9,0.2,0.2
2026-04-22T0600,3332A,115.7631,33.803,亳州市,亳州学院,,33,33,54,20,18,69,69,NA,NA,11,12,6,7,0.2,0.3
2026-04-22T0600,2693A,82.0482,44.8553,博尔塔拉蒙古自治州,市党校,颗粒物(PM10),52,52,50,7,8,56,56,NA,NA,1,3,2,2,0.4,0.4
2026-04-22T0600,2694A,82.0805,44.8966,博尔塔拉蒙古自治州,市环保局,,50,50,52,3,7,44,44,NA,NA,11,14,4,4,0.3,0.3
2026-04-22T0600,1071A,116.8733,38.2922,沧州市,沧县城建局,,29,29,62,10,19,73,73,NA,NA,18,18,4,5,0.4,0.4
2026-04-22T0600,1072A,116.8462,38.3189,沧州市,电视转播站,,28,26,59,12,19,88,88,NA,NA,13,13,6,6,0.1,0.1
2026-04-22T0600,1073A,116.8588,38.3161,沧州市,市环保局,,28,28,68,13,18,76,76,NA,NA,16,15,5,6,0.5,0.5
2026-04-22T0600,3324A,116.8011,38.294,沧州市,河北水利电力学院,,22,12,59,11,22,69,69,NA,NA,19,16,5,6,0.2,0.2
2026-04-22T0600,2622A,97.1813,31.1289,昌都市,昌都监测站,,20,8,11,3,4,64,64,NA,NA,8,8,11,10,0.2,0.3
2026-04-22T0600,3719A,97.1707,31.1428,昌都市,昌都会议中心,,22,15,12,3,4,70,70,NA,NA,4,5,6,6,0.3,0.3
2026-04-22T0600,2692A,87.2722,44.0298,昌吉回族自治州,新区政务中心,颗粒物(PM10),53,53,55,22,18,41,41,NA,NA,22,21,5,6,0.6,0.4
2026-04-22T0600,3613A,87.3069,44.0093,昌吉回族自治州,亚心广场,颗粒物(PM10),65,70,76,30,21,31,31,NA,NA,25,23,7,8,0.6,0.6
2026-04-22T0600,4164A,87.2057,43.9289,昌吉回族自治州,财政所,颗粒物(PM10),77,87,73,23,16,37,37,NA,NA,26,19,7,8,0.2,0.3
2026-04-22T0600,1120A,125.2874,43.9024,长春市,客车厂,,28,28,59,10,14,64,64,NA,NA,16,14,7,6,0.5,0.5
2026-04-22T0600,1121A,125.2943,43.8508,长春市,邮电学院,,23,22,51,9,15,72,72,NA,NA,6,7,7,6,0.3,0.3
2026-04-22T0600,1122A,125.3648,43.8745,长春市,劳动公园,,22,18,58,8,14,69,69,NA,NA,11,11,7,6,0.2,0.3
2026-04-22T0600,1123A,125.3233,43.8781,长春市,园林处,,24,23,49,9,13,74,74,NA,NA,8,9,6,6,0.2,0.2
2026-04-22T0600,1124A,125.4604,43.7904,长春市,净月潭,,33,33,48,8,12,65,65,NA,NA,12,8,5,5,0.3,0.3
2026-04-22T0600,1126A,125.38,43.8422,长春市,经开区环卫处,,23,22,56,10,17,73,73,NA,NA,10,9,4,5,0.3,0.3
2026-04-22T0600,1127A,125.234,43.7761,长春市,高新区管委会,,25,25,56,9,15,69,69,NA,NA,8,10,7,7,0.2,0.2
2026-04-22T0600,1128A,125.1695,43.83,长春市,岱山公园,,29,29,57,8,13,74,74,NA,NA,7,12,5,4,0.2,0.2
2026-04-22T0600,4281A,125.334645,43.916281,长春市,北亚泰大街1068号,,26,26,56,10,12,61,61,NA,NA,19,14,5,5,0.2,0.2
2026-04-22T0600,1335A,113.082,28.2421,长沙市,经开区环保局,,15,6,9,3,5,46,46,NA,NA,8,11,3,3,0.3,0.3
2026-04-22T0600,1336A,112.8873,28.2202,长沙市,高开区环保局,,17,9,9,3,4,54,54,NA,NA,5,8,6,5,0.4,0.4
2026-04-22T0600,1337A,113.0785,28.2012,长沙市,马坡岭,,16,6,10,3,6,51,51,NA,NA,6,11,5,5,0.7,0.7
2026-04-22T0600,1338A,112.9448,28.1894,长沙市,湖南师范大学,,19,6,7,3,4,58,58,NA,NA,5,9,5,5,0.5,0.5
2026-04-22T0600,1339A,113.0177,28.1322,长沙市,雨花区环保局,,17,6,7,3,4,54,54,NA,NA,1,6,3,3,0.6,0.5
2026-04-22T0600,1340A,112.9795,28.2593,长沙市,伍家岭,,18,7,9,3,5,56,56,NA,NA,8,11,4,4,0.4,0.4
2026-04-22T0600,1341A,113.002,28.1944,长沙市,火车新站,,17,6,9,3,6,54,54,NA,NA,3,9,3,4,0.3,0.3
2026-04-22T0600,1342A,112.9846,28.1177,长沙市,天心区环保局,,19,8,10,3,4,58,58,NA,NA,6,9,4,5,0.3,0.3
2026-04-22T0600,1343A,112.8906,28.1307,长沙市,湖南中医药大学,,19,6,7,3,3,59,59,NA,NA,5,9,5,5,0.5,0.5
2026-04-22T0600,1727A,113.1146,36.1547,长治市,清华站,,33,NA,49,23,22,26,26,NA,NA,23,19,7,8,0.6,0.6
2026-04-22T0600,1730A,113.0887,36.2126,长治市,审计局,,19,14,46,13,24,45,45,NA,NA,18,15,7,8,0.3,0.4
2026-04-22T0600,1731A,113.0845,36.1856,长治市,长治八中,,26,25,36,18,16,38,38,NA,NA,24,15,8,8,0.6,0.7
2026-04-22T0600,2845A,113.1561,36.1912,长治市,德盛苑,,33,33,48,23,25,45,45,NA,NA,17,16,10,9,0.8,0.7
2026-04-22T0600,3568A,113.0603,36.0464,长治市,向阳小学,,44,44,67,21,20,33,33,NA,NA,27,24,6,8,1.2,0.7
2026-04-22T0600,3569A,112.8788,36.315,长治市,屯留一中,,23,23,43,10,15,34,34,NA,NA,35,23,7,7,0.6,0.5
2026-04-22T0600,4189A,113.113092,36.199482,长治市,英华南巷50号,,29,24,52,20,26,53,53,NA,NA,15,15,4,4,0.6,0.7
2026-04-22T0600,4190A,113.23666,36.33435,长治市,学府街1号,,46,34,39,32,20,37,37,NA,NA,18,15,8,5,1.1,0.8
2026-04-22T0600,1854A,111.696,28.9725,常德市,市二中,,22,10,12,3,4,69,69,NA,NA,9,8,7,7,0.6,0.6
2026-04-22T0600,3138A,111.7152,29.0288,常德市,武陵区永安,,23,7,12,3,5,71,71,NA,NA,10,10,5,5,0.5,0.5
2026-04-22T0600,3139A,111.6891,28.9881,常德市,鼎城区玉霞,,23,7,11,3,4,72,72,NA,NA,4,5,9,9,0.8,0.8
2026-04-22T0600,3140A,111.6651,29.0526,常德市,武陵区长庚,,21,9,10,3,3,67,67,NA,NA,7,6,8,8,0.6,0.6
2026-04-22T0600,1196A,119.9524,31.7586,常州市,市监测站,,49,49,81,22,18,18,18,NA,NA,32,28,4,4,0.8,0.6
2026-04-22T0600,1200A,119.9351,31.703,常州市,武进监测站,,36,36,81,11,17,45,45,NA,NA,12,25,3,4,0.5,0.5
2026-04-22T0600,3002A,119.9701,31.813,常州市,行政中心,,36,NA,80,25,19,16,16,NA,NA,38,28,5,6,0.1,0.4
2026-04-22T0600,3003A,120.0434,31.7726,常州市,经开区,颗粒物(PM10),64,69,97,20,18,8,8,NA,NA,36,24,3,4,0.6,0.6
2026-04-22T0600,3010A,119.8919,31.7892,常州市,钟楼,颗粒物(PM10),58,61,82,30,22,25,25,NA,NA,32,31,7,9,0.4,0.3
2026-04-22T0600,3429A,119.8595,31.706,常州市,武进经发区,,30,30,90,13,20,25,25,NA,NA,33,29,5,6,0.5,0.4
2026-04-22T0600,3430A,119.5812,31.7256,常州市,金坛城区,,45,36,78,31,21,19,19,NA,NA,23,16,7,8,0.6,0.5
2026-04-22T0600,4089A,119.9551,31.863,常州市,崇义南街5-H号,,33,NA,80,23,20,25,25,NA,NA,21,22,5,7,0.4,0.4
2026-04-22T0600,2220A,120.4318,41.588,朝阳市,西梁,颗粒物(PM10),59,62,45,22,10,12,12,NA,NA,43,17,8,5,0.5,0.3
2026-04-22T0600,2221A,120.452,41.565,朝阳市,河畔小区,,40,40,46,3,8,35,35,NA,NA,20,12,6,9,0.4,0.5
2026-04-22T0600,2222A,120.4176,41.5648,朝阳市,八里堡,颗粒物(PM10),55,57,51,15,10,18,18,NA,NA,35,18,7,8,0.3,0.3
2026-04-22T0600,3026A,116.6179,23.6608,潮州市,市政府,,24,24,31,16,21,47,47,NA,NA,6,9,2,4,0.5,0.6
2026-04-22T0600,4036A,116.646,23.676,潮州市,金山,,28,23,29,19,19,30,30,NA,NA,10,8,2,3,0.4,0.4
2026-04-22T0600,2473A,113.0116,25.8228,郴州市,市职中,,8,6,13,3,12,16,16,NA,NA,12,15,5,6,0.6,0.6
2026-04-22T0600,2475A,113.0381,25.8074,郴州市,市审计局,,8,NA,15,3,12,24,24,NA,NA,11,15,1,2,/,/
2026-04-22T0600,2476A,113.0348,25.7757,郴州市,市环保局,,24,24,22,3,16,22,22,NA,NA,11,16,6,8,0.7,0.7
2026-04-22T0600,4252A,113.0138,25.8011,郴州市,好美居路49号,,15,NA,14,10,12,24,24,NA,NA,10,13,2,2,/,/
2026-04-22T0600,1431A,103.9727,30.7242,成都市,金泉两河,,28,20,27,19,17,20,20,NA,NA,20,16,2,2,0.3,0.3
2026-04-22T0600,1432A,104.1423,30.6765,成都市,十里店,,19,NA,19,13,14,39,39,NA,NA,14,16,3,4,0.4,0.3
2026-04-22T0600,1433A,104.0594,30.5765,成都市,三瓦窑,NA,NA,27,23,24,17,NA,NA,NA,NA,19,13,2,2,0.6,0.6
2026-04-22T0600,1434A,104.1122,30.6306,成都市,沙河铺,,18,18,23,10,13,37,37,NA,NA,16,18,2,2,0.4,0.3
2026-04-22T0600,2880A,104.0219,30.6561,成都市,大石西路,,29,29,26,13,17,31,31,NA,NA,18,17,3,4,0.4,0.4
2026-04-22T0600,3136A,104.2724,30.559,成都市,龙泉驿区区政府,,22,NA,11,15,12,29,29,NA,NA,14,10,7,6,0.4,0.4
2026-04-22T0600,3357A,104.0028,30.6891,成都市,金博路,,23,NA,17,16,17,9,9,NA,NA,34,21,6,6,0.5,0.4
2026-04-22T0600,3359A,104.056,30.5228,成都市,华阳,,39,31,21,27,15,11,11,NA,NA,28,16,3,3,0.3,0.2
2026-04-22T0600,3488A,104.387954,30.746684,成都市,青石路225号,,18,18,12,11,8,12,12,NA,NA,17,12,4,4,0.7,0.6
2026-04-22T0600,3489A,104.0788,30.4054,成都市,科学城,,39,37,20,27,14,20,20,NA,NA,19,11,5,4,0.7,0.7
2026-04-22T0600,4011A,103.8505,30.6946,成都市,光华大道三段,,39,39,26,22,19,17,17,NA,NA,24,20,3,3,0.5,0.5
2026-04-22T0600,4144A,104.3257,30.6406,成都市,八角井街185号,,29,29,18,15,8,15,15,NA,NA,19,11,5,5,0.5,0.4
2026-04-22T0600,4224A,104.2433276,30.53529463,成都市,鲸龙路1057号,,17,17,17,9,10,42,42,NA,NA,15,11,6,6,0.5,0.5
2026-04-22T0600,1062A,117.9531,40.908,承德市,铁路,颗粒物(PM10),56,58,49,24,11,51,51,NA,NA,18,16,2,5,0.4,0.4
2026-04-22T0600,1063A,117.9397,40.9763,承德市,中国银行,颗粒物(PM10),53,53,45,18,12,26,26,NA,NA,21,14,3,2,0.3,0.4
2026-04-22T0600,4073A,117.9462,40.95,承德市,杏林街1号,,46,46,43,25,16,31,31,NA,NA,26,13,1,3,0.4,0.4
2026-04-22T0600,4274A,117.7994,40.9605,承德市,滨河大街98号,颗粒物(PM10),66,72,48,30,15,40,40,NA,NA,13,11,1,7,0.4,0.6
2026-04-22T0600,2314A,117.4698,30.6617,池州市,池州学院,,11,6,23,3,13,34,34,NA,NA,20,24,2,3,0.9,0.8
2026-04-22T0600,3237A,117.4918,30.6617,池州市,展览馆,,10,6,24,3,10,32,32,NA,NA,20,20,2,2,0.5,0.5
2026-04-22T0600,3333A,117.5626,30.695,池州市,第八中学,,13,6,24,3,12,40,40,NA,NA,18,21,3,3,0.4,0.5
2026-04-22T0600,3334A,117.5037,30.6242,池州市,第十二中学,,11,6,18,3,12,33,33,NA,NA,20,20,2,2,0.7,0.7
2026-04-22T0600,1744A,118.9229,42.2816,赤峰市,松山一中,,32,32,37,11,12,5,5,NA,NA,39,22,9,5,0.6,0.5
2026-04-22T0600,1745A,118.9588,42.2733,赤峰市,哈达街,,30,30,30,9,10,25,25,NA,NA,22,12,9,6,0.6,0.6
2026-04-22T0600,1746A,118.8792,42.2551,赤峰市,天义路,,25,22,25,17,11,10,10,NA,NA,32,15,5,7,0.5,0.3
2026-04-22T0600,3058A,119.2656,42.0356,赤峰市,银河街,,39,39,40,17,11,32,32,NA,NA,19,10,22,11,0.6,0.5
2026-04-22T0600,3286A,118.9359,42.3146,赤峰市,桥北物流园区,,25,24,23,17,10,23,23,NA,NA,22,18,4,4,0.3,0.2
2026-04-22T0600,2521A,107.3473,22.4137,崇左市,市环保局江州分局,,41,41,48,23,31,66,66,NA,NA,6,9,6,5,0.6,0.6
2026-04-22T0600,4256A,107.375,22.3736,崇左市,石景林东路7号,,45,38,40,31,30,41,41,NA,NA,16,9,3,2,0.8,0.8
2026-04-22T0600,3207A,118.31131,32.3033,滁州市,市政府原办公楼,,26,NA,66,18,37,54,54,NA,NA,9,30,4,7,0.4,0.5
2026-04-22T0600,3331A,118.3268,32.2633,滁州市,图书馆,,20,NA,64,14,24,52,52,NA,NA,12,26,9,10,0.4,0.5
2026-04-22T0600,4101A,118.3196,32.3335,滁州市,银山路666号,,18,NA,73,12,26,57,57,NA,NA,8,26,5,8,0.2,0.3
2026-04-22T0600,4102A,118.3426,32.2979,滁州市,黄山路555号,,23,23,87,15,26,53,53,NA,NA,9,30,6,8,0.5,0.7
2026-04-22T0600,2606A,101.5379,25.0492,楚雄彝族自治州,市经济开发区,细颗粒物(PM2.5),56,56,53,38,36,114,114,NA,NA,11,9,2,2,0.7,0.8
2026-04-22T0600,4153A,101.5536,25.0343,楚雄彝族自治州,团结路562号,,39,37,46,26,32,124,124,NA,NA,6,6,4,4,0.4,0.4
2026-04-22T0600,2549A,107.5087,31.2186,达州市,市环境监测站,,9,6,16,3,0,10,10,NA,NA,17,15,5,6,0.3,0.4
2026-04-22T0600,2550A,107.4988,31.2132,达州市,凤凰小区,,9,9,14,3,0,12,12,NA,NA,17,14,4,5,0.2,0.1
2026-04-22T0600,2551A,107.5081,31.1987,达州市,达县机关宾馆,,14,14,15,3,1,6,6,NA,NA,25,23,4,5,0.2,0.2
2026-04-22T0600,2552A,107.4644,31.2124,达州市,市政中心,,22,22,21,3,0,27,27,NA,NA,12,16,4,5,0.3,0.3
2026-04-22T0600,2614A,100.2168,25.5818,大理白族自治州,大理市环境监测站,,45,40,45,31,37,86,86,NA,NA,12,12,4,4,0.6,0.6
2026-04-22T0600,2615A,100.1542,25.7055,大理白族自治州,大理古城,,49,49,43,32,28,129,129,NA,NA,2,7,4,4,0.5,0.5
2026-04-22T0600,1109A,121.6119,38.974,大连市,甘井子,,47,47,72,22,27,82,82,NA,NA,14,15,12,10,0.5,0.7
2026-04-22T0600,1110A,121.565,38.9509,大连市,周水子,,50,50,65,20,25,74,74,NA,NA,22,19,9,8,0.6,0.6
2026-04-22T0600,1111A,121.5637,38.8849,大连市,星海三站,颗粒物(PM10),52,52,68,21,24,80,80,NA,NA,14,16,9,7,0.4,0.5
2026-04-22T0600,1112A,121.6301,38.9117,大连市,青泥洼桥,颗粒物(PM10),52,52,73,21,29,83,83,NA,NA,17,17,13,8,0.5,0.5
2026-04-22T0600,1113A,121.6248,38.8643,大连市,傅家庄,,43,43,106,18,39,76,76,NA,NA,12,18,12,10,0.5,0.6
2026-04-22T0600,1114A,121.5117,38.8636,大连市,七贤岭,颗粒物(PM10),56,58,90,23,32,79,79,NA,NA,14,14,8,8,0.5,0.5
2026-04-22T0600,1116A,121.7507,39.1339,大连市,金州,颗粒物(PM10),70,78,81,32,31,63,63,NA,NA,20,18,4,6,0.4,0.4
2026-04-22T0600,1117A,121.7811,39.0495,大连市,开发区,颗粒物(PM10),55,56,70,22,26,73,73,NA,NA,17,18,9,10,0.4,0.4
2026-04-22T0600,1118A,121.9762,39.0631,大连市,双D港,,46,46,74,18,32,76,76,NA,NA,16,22,8,8,0.6,0.7
2026-04-22T0600,4082A,121.2548,38.8188,大连市,旅顺,颗粒物(PM10),73,81,89,41,36,50,50,NA,NA,23,17,7,7,0.5,0.5
2026-04-22T0600,1789A,124.8085,46.0381,大庆市,大同区,,25,25,71,8,12,67,67,NA,NA,6,5,2,1,0.3,0.3
2026-04-22T0600,1790A,125.1166,46.5255,大庆市,龙凤区,,30,30,44,9,9,59,59,NA,NA,12,9,5,4,0.2,0.2
2026-04-22T0600,1791A,124.8894,46.4007,大庆市,红岗区,,25,25,54,9,12,58,58,NA,NA,6,4,5,5,0.3,0.3
2026-04-22T0600,1792A,125.1391,46.578,大庆市,萨尔图区,,27,27,85,8,8,68,68,NA,NA,8,8,6,6,0.3,0.2
2026-04-22T0600,1793A,124.9026,46.6217,大庆市,让胡路区,,34,34,37,9,10,60,60,NA,NA,5,5,1,3,0.2,0.2
2026-04-22T0600,3481A,125.127,46.6277,大庆市,萨区政府监测点,,22,16,32,7,6,68,68,NA,NA,2,3,8,8,0.3,0.3
2026-04-22T0600,1723A,113.2926,40.0759,大同市,云冈宾馆,颗粒物(PM10),74,83,79,33,24,33,33,NA,NA,34,32,14,11,1.4,0.9
2026-04-22T0600,1724A,113.3437,40.0921,大同市,大同大学,颗粒物(PM10),54,55,51,21,21,52,52,NA,NA,24,29,18,9,0.6,0.5
2026-04-22T0600,1725A,113.2637,40.129,大同市,安家小村,颗粒物(PM10),88,102,76,33,21,35,35,NA,NA,25,28,12,10,2.2,1
2026-04-22T0600,3282A,113.3399,40.0586,大同市,大同市卫生学校,颗粒物(PM10),66,72,69,18,19,52,52,NA,NA,22,26,17,10,0.7,0.8
2026-04-22T0600,3565A,113.1371,40.1122,大同市,云冈站,颗粒物(PM10),65,71,64,18,17,25,25,NA,NA,32,31,10,9,0.6,0.4
2026-04-22T0600,3566A,113.1186,40.2556,大同市,图书馆,颗粒物(PM10),55,57,48,25,16,29,29,NA,NA,14,12,6,6,0.9,0.7
2026-04-22T0600,3567A,113.5931,40.0459,大同市,区一中,颗粒物(PM10),63,68,78,26,24,24,24,NA,NA,20,28,2,5,0.9,0.7
2026-04-22T0600,4199A,113.2798248,40.09972476,大同市,魏都大道141号,颗粒物(PM10),85,98,86,39,25,32,32,NA,NA,31,33,13,12,1.5,1.3
2026-04-22T0600,2269A,124.1068,50.4091,大兴安岭地区,科技局,,23,19,18,3,8,72,72,NA,NA,2,2,8,8,0.5,0.5
2026-04-22T0600,3663A,124.117,50.4279,大兴安岭地区,红旗社区,NA,NA,NA,8,6,6,74,74,NA,NA,1,2,NA,9,0.3,0.3
2026-04-22T0600,1600A,124.33,40.0625,丹东市,江湾东路,颗粒物(PM10),69,76,130,25,31,61,61,NA,NA,15,15,5,11,0.5,0.5
2026-04-22T0600,1601A,124.4242,40.1513,丹东市,临江后街,颗粒物(PM10),68,74,104,23,27,67,67,NA,NA,14,13,5,7,0.5,0.5
2026-04-22T0600,1602A,124.3935,40.1461,丹东市,元宝山,NA,NA,88,106,26,29,67,67,NA,NA,15,16,NA,9,0.6,0.6
2026-04-22T0600,1603A,124.3634,40.1093,丹东市,民主桥,颗粒物(PM10),92,108,116,36,33,59,59,NA,NA,20,17,16,10,1.1,0.7
2026-04-22T0600,3541A,109.5726195,19.51688767,儋州市,第一中学子站,,22,22,32,11,18,59,59,NA,NA,5,5,10,6,0.4,0.6
2026-04-22T0600,3542A,109.5567,19.5187,儋州市,东坡学校子站,,20,20,30,10,20,63,63,NA,NA,5,6,5,5,0.4,0.5
2026-04-22T0600,2616A,98.5611,24.4273,德宏傣族景颇族自治州,德宏州监测站,细颗粒物(PM2.5),106,75,68,66,61,38,38,NA,NA,23,20,5,6,0.8,0.8
2026-04-22T0600,3677A,98.5887,24.4366,德宏傣族景颇族自治州,芒市人民政府综合楼,细颗粒物(PM2.5),90,97,94,55,56,57,57,NA,NA,14,15,4,5,0.8,0.7
2026-04-22T0600,1901A,104.424,31.1209,德阳市,东山公园,,20,NA,8,14,8,34,34,NA,NA,10,6,4,4,0.5,0.5
2026-04-22T0600,1902A,104.3827,31.1318,德阳市,西小区,,27,27,18,10,8,41,41,NA,NA,11,10,3,3,0.4,0.4
2026-04-22T0600,1904A,104.3553,31.1091,德阳市,耐火材料厂,,18,18,15,9,7,41,41,NA,NA,13,11,2,2,0.3,0.3
2026-04-22T0600,4145A,104.4144,31.1495,德阳市,市林业局,,18,18,12,10,7,50,50,NA,NA,4,6,2,3,0.2,0.2
2026-04-22T0600,1622A,116.3034,37.4675,德州市,儿童乐园,,30,27,67,21,20,82,82,NA,NA,11,14,6,8,0.4,0.4
2026-04-22T0600,1624A,116.2992,37.4449,德州市,监理站,,26,22,66,16,17,82,82,NA,NA,17,21,9,10,0.4,0.4
2026-04-22T0600,3066A,116.2722,37.438,德州市,九衢泉纯净水厂,,29,29,64,15,21,73,73,NA,NA,22,28,8,5,0.5,0.5
2026-04-22T0600,3371A,116.3693,37.44,德州市,开发区人民医院,,29,29,66,19,18,78,78,NA,NA,16,19,8,10,0.4,0.4
2026-04-22T0600,3511A,116.5687,37.3331,德州市,陵城艺术中心,,29,NA,63,20,23,66,66,NA,NA,13,16,10,11,0.2,0.4
2026-04-22T0600,4292A,116.352738,37.420875,德州市,新河东路,,29,29,63,14,16,45,45,NA,NA,31,20,6,8,0.6,0.6
2026-04-22T0600,2621A,99.7054,27.8319,迪庆藏族自治州,迪庆州站,,21,14,22,12,15,67,67,NA,NA,12,14,8,8,0.6,0.7
2026-04-22T0600,3180A,99.7122,27.8129,迪庆藏族自治州,质量技术监督局,,24,13,16,10,12,75,75,NA,NA,8,13,8,8,0.3,0.4
2026-04-22T0600,4257A,104.6092,35.5962,定西市,将台街,颗粒物(PM10),55,56,77,20,29,23,23,NA,NA,24,11,3,4,0.0,0.1
2026-04-22T0600,4309A,104.6159,35.5701,定西市,正龙路62号,颗粒物(PM10),56,58,72,16,31,36,36,NA,NA,12,10,2,2,0.3,0.3
2026-04-22T0600,4071A,114.9883,38.5232,定州市,交通局,颗粒物(PM10),53,54,78,23,21,29,29,NA,NA,32,22,9,11,0.7,0.7
2026-04-22T0600,4072A,115.0045,38.5136,定州市,第五中学,颗粒物(PM10),57,59,90,17,19,25,25,NA,NA,32,25,6,7,0.7,0.6
2026-04-22T0600,1390A,113.7943,23.0132,东莞市,东城石井,,26,24,25,18,17,18,18,NA,NA,22,21,4,5,0.6,0.6
2026-04-22T0600,1391A,113.7384,22.9659,东莞市,南城西平,,19,17,23,11,16,58,58,NA,NA,6,13,7,7,0.3,0.4
2026-04-22T0600,3319A,113.7283,23.041,东莞市,万江金泰,,25,NA,30,17,24,46,46,NA,NA,15,19,5,6,0.6,0.6
2026-04-22T0600,4129A,113.8666,23.1062,东莞市,裕兴路,,36,36,29,22,16,32,32,NA,NA,32,18,6,6,0.8,0.8
2026-04-22T0600,4130A,114.0076,22.9739,东莞市,教育路1号,NA,NA,44,34,29,20,22,22,NA,NA,NA,26,6,7,0.6,0.6
2026-04-22T0600,4131A,113.7981,22.8124,东莞市,长怡路1号,,35,35,28,19,15,55,55,NA,NA,12,17,6,6,0.2,0.2
2026-04-22T0600,1666A,118.6612,37.4313,东营市,市环保局,,24,9,63,3,23,76,76,NA,NA,15,27,9,13,0.2,0.4
2026-04-22T0600,3036A,118.6903,37.4337,东营市,开发区管委会,,25,19,74,3,25,77,77,NA,NA,16,36,15,14,0.2,0.6
2026-04-22T0600,3365A,118.5721,37.5654,东营市,垦利区民丰路,,27,12,60,3,21,84,84,NA,NA,14,22,6,9,0.3,0.4
2026-04-22T0600,3498A,118.5063,37.8606,东营市,河口城区,,36,36,77,24,28,58,58,NA,NA,18,18,6,13,0.8,0.8
2026-04-22T0600,3646A,118.4979,37.4623,东营市,胜利站,,24,12,59,3,21,75,75,NA,NA,12,27,5,7,0.3,0.5
2026-04-22T0600,3734A,118.5753,37.4405,东营市,理想之城,,22,19,69,3,26,69,69,NA,NA,20,34,4,8,0.3,0.4
2026-04-22T0600,1591A,110.0024,39.8127,鄂尔多斯市,综合楼,颗粒物(PM10),63,68,56,18,20,46,46,NA,NA,36,31,8,9,0.4,0.5
2026-04-22T0600,1592A,109.9485,39.8259,鄂尔多斯市,巴音孟克林场办事处,颗粒物(PM10),58,61,47,23,16,44,44,NA,NA,40,30,8,9,0.5,0.5
2026-04-22T0600,1593A,109.7734,39.5987,鄂尔多斯市,康泽苑,,46,46,34,14,10,54,54,NA,NA,13,13,7,8,0.2,0.2
2026-04-22T0600,1594A,109.8121,39.5987,鄂尔多斯市,华泰汽车城,,46,46,36,14,10,25,25,NA,NA,23,20,8,9,0.3,0.3
2026-04-22T0600,1595A,109.9734,39.7884,鄂尔多斯市,奥林花园,颗粒物(PM10),74,83,57,21,17,2,2,NA,NA,72,33,5,6,0.4,0.3
2026-04-22T0600,2436A,114.894,30.3989,鄂州市,市政府,,15,8,22,3,12,45,45,NA,NA,13,16,8,8,0.3,0.4
2026-04-22T0600,2437A,114.8986,30.3714,鄂州市,赵家坝,,14,14,25,3,12,44,44,NA,NA,11,11,9,7,0.6,0.5
2026-04-22T0600,3654A,114.8093,30.4091,鄂州市,精准医疗中心,,15,6,26,3,12,48,48,NA,NA,8,12,4,5,0.4,0.6
2026-04-22T0600,2454A,109.4978,30.2979,恩施土家族苗族自治州,湖北民院,,31,31,35,13,19,31,31,NA,NA,7,12,7,7,0.4,0.3
2026-04-22T0600,3549A,109.5061,30.3771,恩施土家族苗族自治州,龙凤新区,,23,19,29,16,13,6,6,NA,NA,10,11,7,7,0.4,0.4
2026-04-22T0600,2499A,108.3411,21.6159,防城港市,沙万,,25,25,34,16,17,44,44,NA,NA,6,12,6,6,0.5,0.5
2026-04-22T0600,2500A,108.3515,21.7733,防城港市,防城档案局,,32,32,29,20,17,42,42,NA,NA,4,5,8,8,0.4,0.5
2026-04-22T0600,2501A,108.3506,21.6414,防城港市,大海花园,,27,27,32,16,20,50,50,NA,NA,4,9,8,8,0.6,0.7
2026-04-22T0600,1371A,113.1293,23.0065,佛山市,湾梁,,25,24,23,17,15,34,34,NA,NA,20,14,/,/,/,/
2026-04-22T0600,1372A,113.1082,23.0477,佛山市,华材职中,,29,27,24,20,17,42,42,NA,NA,15,14,4,4,0.4,0.3
2026-04-22T0600,1373A,113.1439,23.045,佛山市,南海气象局,,25,24,27,17,15,37,37,NA,NA,22,18,/,/,/,/
2026-04-22T0600,1374A,113.2879,22.8094,佛山市,顺德苏岗,,22,NA,16,15,13,50,50,NA,NA,7,9,/,/,0.5,0.5
2026-04-22T0600,1376A,112.8384,22.8678,佛山市,高明孔堂,,23,23,23,15,15,49,49,NA,NA,8,8,/,/,/,/
2026-04-22T0600,1377A,112.8835,23.1584,佛山市,三水监测站,,33,NA,25,23,19,21,21,NA,NA,25,24,2,4,0.4,0.4
2026-04-22T0600,1378A,112.8668,23.185,佛山市,三水云东海,,33,33,42,21,19,23,23,NA,NA,23,20,/,/,/,/
2026-04-22T0600,3625A,113.2568,22.7629,佛山市,容桂街道办,,23,NA,18,16,15,40,40,NA,NA,17,16,/,/,/,/
2026-04-22T0600,1282A,119.2681,26.0506,福州市,师大,,15,13,26,10,13,48,48,NA,NA,10,16,3,3,0.4,0.4
2026-04-22T0600,1283A,119.2983,26.1028,福州市,五四北路,,19,14,18,13,11,42,42,NA,NA,15,17,4,4,0.3,0.3
2026-04-22T0600,1284A,119.2648,26.0769,福州市,杨桥西路,,19,17,21,13,11,41,41,NA,NA,13,13,3,3,/,/
2026-04-22T0600,3048A,119.5799,26.0937,福州市,九龙,,24,24,23,15,8,28,28,NA,NA,12,12,5,5,0.4,0.3
2026-04-22T0600,3526A,119.5188,25.9666,福州市,吴航,,28,28,24,18,14,27,27,NA,NA,20,14,5,5,0.5,0.4
2026-04-22T0600,4104A,119.3106,26.0648,福州市,路通桥巷6号,,26,19,21,18,16,45,45,NA,NA,9,14,/,/,/,/
2026-04-22T0600,1755A,123.7974,41.8494,抚顺市,望花区,颗粒物(PM10),81,93,112,48,36,52,52,NA,NA,26,29,12,18,0.8,1.1
2026-04-22T0600,1756A,123.9161,41.8827,抚顺市,顺城区,细颗粒物(PM2.5),94,86,88,57,32,31,31,NA,NA,40,24,13,17,1.0,0.8
2026-04-22T0600,1757A,124.0437,41.8615,抚顺市,东洲区,细颗粒物(PM2.5),94,101,106,57,32,44,44,NA,NA,32,21,16,17,1.0,1
2026-04-22T0600,1758A,123.9246,41.8638,抚顺市,新抚区,颗粒物(PM10),84,97,106,51,34,23,23,NA,NA,48,22,11,15,1.1,0.9
2026-04-22T0600,1759A,124.0972,41.8961,抚顺市,大伙房水库,细颗粒物(PM2.5),88,80,97,54,31,39,39,NA,NA,38,19,12,13,0.8,0.8
2026-04-22T0600,1760A,123.708,41.8386,抚顺市,沈抚新城,细颗粒物(PM2.5),102,106,106,62,35,34,34,NA,NA,44,25,10,16,0.9,0.9
2026-04-22T0600,2377A,116.3544,27.9833,抚州市,市站,,14,14,26,3,19,34,34,NA,NA,11,14,4,5,1.0,1
2026-04-22T0600,2378A,116.3562,27.9631,抚州市,血防站,,16,16,27,3,19,36,36,NA,NA,10,14,6,7,1.0,1
2026-04-22T0600,2379A,116.3561,28.0007,抚州市,采茶剧团,,16,NA,28,11,20,38,38,NA,NA,10,13,14,16,0.9,0.9
2026-04-22T0600,2380A,116.3854,27.9648,抚州市,医学分院,,16,16,37,3,11,40,40,NA,NA,10,12,6,6,1.1,1.1
2026-04-22T0600,2207A,121.6095,41.9978,阜新市,工业园区,,47,47,74,6,16,63,63,NA,NA,10,19,8,11,0.3,0.4
2026-04-22T0600,2208A,121.6567,42.0188,阜新市,长青街,,37,37,56,7,14,68,68,NA,NA,11,18,7,11,0.3,0.4
2026-04-22T0600,2209A,121.6672,42.07,阜新市,农业园区,,45,45,60,3,13,77,77,NA,NA,9,13,6,11,0.3,0.4
2026-04-22T0600,2211A,121.6343,42.0455,阜新市,玉龙新城,,45,45,66,6,14,75,75,NA,NA,12,21,6,8,0.5,0.4
2026-04-22T0600,2301A,115.8276,32.8929,阜阳市,市监测站,,48,48,41,31,17,54,54,NA,NA,5,12,5,5,0.4,0.3
2026-04-22T0600,2303A,115.8551,32.8606,阜阳市,开发区,颗粒物(PM10),51,51,42,28,14,53,53,NA,NA,11,13,4,4,0.5,0.4
2026-04-22T0600,2875A,115.783962,32.889217,阜阳市,阜阳职业技术学院,,35,32,23,24,14,55,55,NA,NA,8,12,6,6,0.4,0.3
2026-04-22T0600,3468A,115.79,32.8614,阜阳市,市规划展馆,颗粒物(PM10),52,52,39,27,14,49,49,NA,NA,12,14,6,7,0.5,0.4
2026-04-22T0600,3469A,115.835101,32.918568,阜阳市,枣园社区,,46,46,41,28,15,55,55,NA,NA,8,13,4,5,0.5,0.4
2026-04-22T0600,2669A,102.9097,34.9841,甘南藏族自治州,州政府,,26,26,48,17,26,78,78,NA,NA,6,7,1,2,0.2,0.3
2026-04-22T0600,3380A,102.8915,34.9618,甘南藏族自治州,甘肃民族师范学院,,31,30,54,14,24,97,97,NA,NA,8,10,1,2,0.1,0.2
2026-04-22T0600,2570A,101.96,30.048,甘孜藏族自治州,水桥子,,16,6,10,3,4,49,49,NA,NA,7,11,6,6,0.3,0.2
2026-04-22T0600,3065A,101.9534,29.9976,甘孜藏族自治州,州环保局,,18,NA,10,3,5,57,57,NA,NA,5,11,5,5,0.2,0.3
2026-04-22T0600,2363A,114.9368,25.8663,赣州市,地委,,26,26,30,14,18,58,58,NA,NA,2,3,2,1,1.1,1.1
2026-04-22T0600,2364A,114.946,25.8483,赣州市,气象台,,28,28,26,12,19,59,59,NA,NA,4,5,6,5,0.8,0.7
2026-04-22T0600,2365A,114.932,25.8332,赣州市,市图书馆,,29,NA,23,20,17,61,61,NA,NA,4,6,4,4,0.8,0.9
2026-04-22T0600,2366A,114.8905,25.8472,赣州市,华坚鞋城,,26,26,27,18,19,54,54,NA,NA,3,6,15,6,0.9,0.9
2026-04-22T0600,3109A,115.0094,25.8614,赣州市,赣县区卫计委,,20,20,24,10,16,58,58,NA,NA,5,5,2,2,0.9,0.9
2026-04-22T0600,2684A,106.2753,36.0057,固原市,监测站,,25,NA,9,17,6,30,30,NA,NA,19,8,6,6,0.7,0.5
2026-04-22T0600,2685A,106.2384,36.0189,固原市,新区,,14,14,10,7,5,19,19,NA,NA,17,10,5,5,0.7,0.6
2026-04-22T0600,2544A,106.6307,30.4577,广安市,市委,,22,17,8,15,9,30,30,NA,NA,7,7,6,6,0.3,0.3
2026-04-22T0600,2545A,106.6266,30.4662,广安市,友谊中学,,15,12,9,10,6,31,31,NA,NA,6,6,7,6,0.4,0.4
2026-04-22T0600,2547A,106.6386,30.4551,广安市,广电花园,,16,14,8,11,7,28,28,NA,NA,10,10,6,6,0.4,0.4
2026-04-22T0600,2902A,106.6347,30.4868,广安市,北辰小学,,20,16,11,14,7,31,31,NA,NA,5,6,17,11,0.3,0.3
2026-04-22T0600,2524A,105.8211,32.4444,广元市,老城,,18,10,17,3,1,57,57,NA,NA,13,12,2,2,0.6,0.4
2026-04-22T0600,2526A,105.8629,32.429,广元市,监测站,,24,24,17,3,0,42,42,NA,NA,13,10,2,3,0.5,0.4
2026-04-22T0600,3617A,105.8047,32.4167,广元市,经开区,,15,12,9,6,5,45,45,NA,NA,20,12,2,2,0.3,0.3
2026-04-22T0600,1345A,113.2346,23.1423,广州市,广雅中学,,23,23,26,16,16,39,39,NA,NA,13,13,2,2,0.6,0.7
2026-04-22T0600,1346A,113.2611,23.105,广州市,市五中,,23,21,24,16,17,48,48,NA,NA,14,18,2,4,/,/
2026-04-22T0600,1348A,113.3477,23.0916,广州市,广东商学院,,26,24,23,18,17,15,15,NA,NA,41,21,4,5,0.8,0.7
2026-04-22T0600,1349A,113.4332,23.105,广州市,市八十六中,,22,19,22,15,14,19,19,NA,NA,36,27,6,6,/,/
2026-04-22T0600,1350A,113.3506,22.9488,广州市,番禺中学,,25,25,26,3,12,42,42,NA,NA,20,17,6,5,0.5,0.5
2026-04-22T0600,1351A,113.2147,23.3918,广州市,花都师范,,31,31,30,18,20,36,36,NA,NA,20,25,6,6,0.7,0.7
2026-04-22T0600,1352A,113.2599,23.1329,广州市,市监测站,,19,19,26,13,14,42,42,NA,NA,7,10,2,3,/,/
2026-04-22T0600,1353A,113.5618,23.3119,广州市,九龙镇镇龙,,27,27,27,15,16,22,22,NA,NA,29,22,6,6,0.4,0.4
2026-04-22T0600,1354A,113.2764,23.1544,广州市,麓湖,,23,20,25,16,17,36,36,NA,NA,20,18,5,5,0.4,0.4
2026-04-22T0600,2846A,113.3209,23.1323,广州市,体育西,,26,26,29,15,16,33,33,NA,NA,23,20,5,5,0.5,0.5
2026-04-22T0600,3298A,113.5718,23.5493,广州市,从化街口,,25,25,27,17,18,34,34,NA,NA,16,14,7,7,0.6,0.6
2026-04-22T0600,3299A,113.3463,23.369,广州市,白云竹料,,24,24,29,14,17,37,37,NA,NA,16,20,3,3,0.5,0.6
2026-04-22T0600,3300A,113.2981,23.2365,广州市,白云嘉禾,,23,23,30,16,17,29,29,NA,NA,24,22,5,6,/,/
2026-04-22T0600,3301A,113.4256,23.1716,广州市,黄埔科学城,,25,24,26,17,18,34,34,NA,NA,18,18,5,5,0.6,0.5
2026-04-22T0600,3302A,113.3942,23.0485,广州市,番禺大学城,,23,19,28,16,11,45,45,NA,NA,21,18,4,5,0.6,0.5
2026-04-22T0600,3303A,113.4923,22.8169,广州市,南沙黄阁,,22,21,26,15,13,35,35,NA,NA,14,14,6,6,/,/
2026-04-22T0600,3304A,113.534,22.7893,广州市,南沙街,,22,21,25,15,14,31,31,NA,NA,22,16,6,6,0.4,0.4
2026-04-22T0600,3443A,113.2905,23.5541,广州市,花都梯面,,25,25,28,14,17,38,38,NA,NA,13,18,7,8,/,/
2026-04-22T0600,3445A,113.786,23.7479,广州市,从化良口,,22,22,24,15,17,22,22,NA,NA,19,13,5,5,/,/
2026-04-22T0600,3446A,113.805,23.2614,广州市,增城荔城,颗粒物(PM10),54,55,32,33,19,10,10,NA,NA,35,19,7,6,0.6,0.6
2026-04-22T0600,2506A,109.604387,23.066791,贵港市,江南子站,,36,36,45,21,26,10,10,NA,NA,26,16,10,10,0.7,0.7
2026-04-22T0600,2508A,109.5669,23.1065,贵港市,荷城子站,,31,31,39,18,27,15,15,NA,NA,29,17,12,12,0.7,0.8
2026-04-22T0600,3405A,109.5886,23.1172,贵港市,新世纪学校,,32,31,40,22,31,21,21,NA,NA,24,23,/,/,0.6,0.6
2026-04-22T0600,4260A,109.5933,23.095,贵港市,中山路155-3号,,47,47,47,22,29,19,19,NA,NA,22,17,/,/,0.5,0.7
2026-04-22T0600,1439A,106.6863,26.6035,贵阳市,马鞍山,,13,7,18,3,10,41,41,NA,NA,6,12,2,2,/,/
2026-04-22T0600,1441A,106.6241,26.6266,贵阳市,鉴湖路,,19,19,32,9,12,51,51,NA,NA,6,14,5,5,0.6,0.7
2026-04-22T0600,1442A,106.7468,26.6344,贵阳市,燕子冲,,31,31,23,8,7,40,40,NA,NA,9,10,6,6,0.6,0.7
2026-04-22T0600,1443A,106.6556,26.4362,贵阳市,碧云窝,,27,27,33,6,12,40,40,NA,NA,8,13,4,4,/,/
2026-04-22T0600,1445A,106.6963,26.6063,贵阳市,红边门,,16,14,17,8,11,49,49,NA,NA,8,13,4,5,/,/
2026-04-22T0600,1446A,106.7162383,26.56964667,贵阳市,新华路,,24,24,22,3,7,42,42,NA,NA,8,12,2,2,0.3,0.3
2026-04-22T0600,1447A,106.6742,26.542,贵阳市,太慈桥,,9,9,21,3,9,23,23,NA,NA,7,15,4,3,/,/
2026-04-22T0600,4230A,106.688212,26.56952,贵阳市,花果园大街66号,,18,6,12,3,9,55,55,NA,NA,7,14,2,2,/,/
2026-04-22T0600,4231A,106.687268,26.516892,贵阳市,漓江路57号,,18,12,14,12,9,49,49,NA,NA,8,14,5,5,0.6,0.7
2026-04-22T0600,1864A,110.3091,25.2705,桂林市,龙隐路小学,,10,7,10,3,8,32,32,NA,NA,7,12,3,3,0.4,0.4
2026-04-22T0600,1865A,110.2849361,25.22909545,桂林市,八中,,9,8,12,3,6,28,28,NA,NA,8,19,3,3,0.7,0.7
2026-04-22T0600,3531A,110.296,25.1254,桂林市,旅游学院,,18,18,20,6,8,22,22,NA,NA,10,15,6,5,0.6,0.7
2026-04-22T0600,4222A,110.1835,25.2444,桂林市,环湖路276号,,12,9,9,8,9,19,19,NA,NA,11,14,5,4,0.5,0.4
2026-04-22T0600,4301A,110.2803,25.2773,桂林市,信义路13号,,10,6,11,3,6,30,30,NA,NA,8,16,4,4,0.6,0.7
2026-04-22T0600,2674A,100.2262,34.4854,果洛藏族自治州,玛沁县大武镇,颗粒物(PM10),89,104,49,42,23,90,90,NA,NA,2,2,24,18,0.2,0.3
2026-04-22T0600,1130A,126.5557,45.8109,哈尔滨市,松北商大,,17,17,40,3,10,51,51,NA,NA,13,10,6,6,0.6,0.6
2026-04-22T0600,1132A,126.6162,45.719,哈尔滨市,南岗学府路,,21,16,45,3,7,66,66,NA,NA,6,8,3,1,0.6,0.5
2026-04-22T0600,1133A,126.6894,45.7733,哈尔滨市,太平宏伟公园,,20,10,41,3,7,64,64,NA,NA,8,9,5,5,0.2,0.3
2026-04-22T0600,1134A,126.6361,45.7672,哈尔滨市,道外承德广场,,35,35,63,6,5,57,57,NA,NA,13,11,6,6,0.8,0.5
2026-04-22T0600,1136A,126.644,45.7261,哈尔滨市,动力和平路,,20,13,43,3,6,61,61,NA,NA,9,9,3,3,0.3,0.3
2026-04-22T0600,1137A,126.5933,45.7479,哈尔滨市,道里建国路,,20,6,23,3,7,61,61,NA,NA,7,9,1,2,0.2,0.2
2026-04-22T0600,1138A,126.6127,45.6119,哈尔滨市,平房东轻厂,,22,22,73,3,7,47,47,NA,NA,12,19,12,13,0.6,0.6
2026-04-22T0600,1139A,126.5875,45.9827,哈尔滨市,呼兰师专,NA,NA,NA,NA,NA,NA,NA,NA,NA,NA,NA,NA,NA,NA,NA,NA
2026-04-22T0600,1140A,126.6299,45.6799,哈尔滨市,省农科院,,27,27,65,3,13,49,49,NA,NA,12,10,6,6,0.4,0.3
2026-04-22T0600,4282A,126.6769,45.7379,哈尔滨市,华山路1号,,22,7,46,3,8,69,69,NA,NA,3,4,4,5,0.2,0.2
2026-04-22T0600,4283A,126.9717,45.5356,哈尔滨市,解放大街52号,,39,39,70,15,9,54,54,NA,NA,11,12,3,2,0.7,0.5
2026-04-22T0600,2688A,93.5124,42.8176,哈密市,地区监测站,颗粒物(PM10),73,82,83,30,34,49,49,NA,NA,19,14,7,9,0.3,0.4
2026-04-22T0600,2689A,93.5014,42.8312,哈密市,哈密师范学校,颗粒物(PM10),65,71,87,35,41,11,11,NA,NA,51,21,8,8,0.3,0.3
2026-04-22T0600,2671A,100.9016,36.9464,海北藏族自治州,海晏县西海镇,,38,38,70,26,38,57,57,NA,NA,2,3,6,8,0.4,0.4
2026-04-22T0600,3867A,102.074,36.5056,海东市,平安区公安局北苑,颗粒物(PM10),55,57,87,34,45,90,90,NA,NA,9,10,10,12,0.5,0.5
2026-04-22T0600,4163A,102.0984,36.5119,海东市,滨河路,,43,34,78,30,44,72,72,NA,NA,14,15,4,10,0.7,0.7
2026-04-22T0600,1410A,110.3189,20.0596,海口市,海南大学,,22,22,25,13,16,52,52,NA,NA,4,5,5,5,0.3,0.3
2026-04-22T0600,1411A,110.2827,20.0051,海口市,秀英海南医院,,25,20,24,17,18,48,48,NA,NA,5,6,8,8,0.3,0.2
2026-04-22T0600,1412A,110.3391,19.9979,海口市,海南师范大学,,23,20,28,16,18,46,46,NA,NA,6,6,6,6,0.4,0.4
2026-04-22T0600,1413A,110.3303,20.0359,海口市,龙华路环保局宿舍,,23,20,26,16,18,52,52,NA,NA,6,6,/,/,0.4,0.6
2026-04-22T0600,3539A,110.5111,19.9737,海口市,桂林洋子站,,26,25,25,18,16,46,46,NA,NA,5,5,/,/,/,/
2026-04-22T0600,4134A,110.1952,20.0451,海口市,长滨二路9号,,23,20,27,16,18,49,49,NA,NA,3,4,/,/,/,/
2026-04-22T0600,2673A,100.6158,36.2985,海南藏族自治州,共和县恰卜恰镇,颗粒物(PM10),73,82,78,34,36,126,126,NA,NA,1,2,11,10,0.3,0.3
2026-04-22T0600,2676A,97.373,37.376,海西蒙古族藏族自治州,德令哈市,颗粒物(PM10),112,150,143,66,58,122,122,NA,NA,1,2,15,17,0.3,0.3
2026-04-22T0600,1049A,114.492,36.5712,邯郸市,矿院,,26,26,35,16,13,49,49,NA,NA,8,10,2,4,0.3,0.5
2026-04-22T0600,1050A,114.4839,36.6136,邯郸市,丛台公园,,28,28,34,15,16,56,56,NA,NA,12,16,1,2,0.3,0.4
2026-04-22T0600,3458A,114.7893,36.5592,邯郸市,香泉濮院小区,,20,15,34,10,18,63,63,NA,NA,9,11,3,3,0.3,0.4
2026-04-22T0600,3580A,114.1998,36.4439,邯郸市,峰峰矿区临水派出所,,29,29,34,17,17,59,59,NA,NA,10,13,4,4,1.1,0.3
2026-04-22T0600,4068A,114.5209,36.7697,邯郸市,建安街268号,,26,26,46,17,18,38,38,NA,NA,15,16,3,3,0.5,0.6
2026-04-22T0600,4069A,114.5488,36.6177,邯郸市,丛台东路558号,,31,31,38,19,19,43,43,NA,NA,10,13,3,3,0.4,0.4
2026-04-22T0600,2635A,107.0155,33.0707,汉中市,市监测站,,23,23,31,14,16,20,20,NA,NA,14,8,6,4,0.4,0.3
2026-04-22T0600,2636A,107.0083,33.114,汉中市,鑫源开发区,,32,32,30,18,16,13,13,NA,NA,18,10,8,4,0.5,0.4
2026-04-22T0600,2637A,107.0072,33.0323,汉中市,南郑大河坎水厂,,18,18,33,10,15,8,8,NA,NA,8,8,4,4,0.3,0.3
2026-04-22T0600,1223A,120.2073,30.2111,杭州市,滨江,,39,39,54,24,24,15,15,NA,NA,25,23,7,7,0.9,0.8
2026-04-22T0600,1224A,120.0625,30.2737,杭州市,西溪,,28,28,50,17,23,22,22,NA,NA,7,13,4,4,0.7,0.7
2026-04-22T0600,1226A,120.3417,30.315,杭州市,下沙,NA,NA,52,70,23,22,21,21,NA,NA,28,21,NA,7,0.6,0.6
2026-04-22T0600,1227A,120.1252,30.2465,杭州市,卧龙桥,,23,22,41,16,21,11,11,NA,NA,15,23,8,8,0.4,0.4
2026-04-22T0600,1228A,120.1902,30.2691,杭州市,浙江农大,,35,30,46,24,22,12,12,NA,NA,38,32,7,7,0.4,0.4
2026-04-22T0600,1230A,120.1195,30.3121,杭州市,和睦小学,,40,28,44,28,23,16,16,NA,NA,24,23,6,6,0.6,0.5
2026-04-22T0600,1231A,120.3076,30.4146,杭州市,临平镇,,37,37,59,23,22,21,21,NA,NA,32,25,6,6,0.5,0.5
2026-04-22T0600,1232A,120.2753,30.1839,杭州市,城厢镇,,26,26,45,17,24,16,16,NA,NA,28,27,6,6,0.5,0.4
2026-04-22T0600,1233A,120.0883,30.1808,杭州市,云栖,,20,20,47,12,24,3,3,NA,NA,20,27,7,7,0.6,0.6
2026-04-22T0600,3557A,119.9463,30.0496,杭州市,镇二中,,28,20,37,19,27,22,22,NA,NA,19,21,4,4,0.4,0.5
2026-04-22T0600,3558A,119.7184,30.2367,杭州市,市府大楼,,18,15,44,12,28,7,7,NA,NA,22,25,6,6,0.7,0.6
2026-04-22T0600,3656A,120.1554,30.2863,杭州市,消防大队,,38,34,48,26,23,15,15,NA,NA,26,22,4,4,0.4,0.3
2026-04-22T0600,1270A,117.1957,31.7845,合肥市,明珠广场,,14,9,47,6,19,42,42,NA,NA,15,24,6,7,0.4,0.6
2026-04-22T0600,1271A,117.307,31.8765,合肥市,三里街,,14,9,48,6,18,42,42,NA,NA,17,26,5,6,0.4,0.5
2026-04-22T0600,1272A,117.2587,31.8703,合肥市,琥珀山庄,,16,12,49,3,17,50,50,NA,NA,13,24,6,7,0.5,0.7
2026-04-22T0600,1275A,117.2593,31.9376,合肥市,庐阳区,,15,12,55,6,19,47,47,NA,NA,10,19,5,5,0.6,0.7
2026-04-22T0600,1276A,117.345251,31.861615,合肥市,瑶海区,,14,12,50,6,18,44,44,NA,NA,14,25,6,7,0.5,0.6
2026-04-22T0600,1277A,117.3033,31.7967,合肥市,包河区,,12,9,46,3,16,38,38,NA,NA,20,39,9,9,0.4,0.6
2026-04-22T0600,1278A,117.278,31.7392,合肥市,滨湖新区,,13,7,49,3,16,39,39,NA,NA,15,19,5,6,0.4,0.6
2026-04-22T0600,1279A,117.1324,31.8395,合肥市,高新区,,15,12,51,3,18,46,46,NA,NA,8,20,4,5,0.4,0.6
2026-04-22T0600,3464A,117.3802,31.9148,合肥市,高教基地,NA,NA,9,54,8,17,38,38,NA,NA,NA,18,8,9,0.5,0.6
2026-04-22T0600,4098A,117.2518,31.8404,合肥市,中国科学技术大学,,15,9,47,3,17,46,46,NA,NA,10,17,5,6,0.5,0.6
2026-04-22T0600,3614A,79.9241,37.0878,和田地区,地区环保局,颗粒物(PM10),173,295,560,97,163,54,54,NA,NA,13,12,1,2,0.6,0.5
2026-04-22T0600,3615A,79.9132,37.1137,和田地区,市环保局,颗粒物(PM10),156,261,516,95,193,45,45,NA,NA,21,13,2,2,0.7,0.6
2026-04-22T0600,2517A,108.0496,24.6957,河池市,市环保站,,28,NA,37,19,26,27,27,NA,NA,1,5,5,6,0.6,0.7
2026-04-22T0600,4302A,108.0901,24.6945,河池市,上任中路54号,,33,NA,36,23,25,25,25,NA,NA,3,8,6,7,0.8,0.8
2026-04-22T0600,1697A,114.6962,23.7538,河源市,东埔,,30,27,19,21,16,56,56,NA,NA,5,6,8,6,0.5,0.5
2026-04-22T0600,1698A,114.6895,23.7232,河源市,老城,,46,37,26,32,16,49,49,NA,NA,6,7,6,6,0.6,0.6
2026-04-22T0600,3374A,115.5562,35.089,菏泽市,定陶老年大学,,49,46,44,34,21,60,60,NA,NA,10,12,6,5,0.2,0.3
2026-04-22T0600,4114A,115.4239,35.2593,菏泽市,黄河路600号,,43,43,47,28,18,54,54,NA,NA,10,12,4,3,0.3,0.3
2026-04-22T0600,4115A,115.5025,35.2727,菏泽市,菏泽市人社局,,43,41,41,30,18,49,49,NA,NA,13,12,15,6,0.3,0.2
2026-04-22T0600,4184A,115.479691,35.244011,菏泽市,永昌路1号,,45,45,45,25,18,64,64,NA,NA,20,16,12,3,0.6,0.5
2026-04-22T0600,4193A,115.471542,35.280012,菏泽市,长城路999号,,40,39,38,28,17,57,57,NA,NA,13,12,11,7,0.2,0.1
2026-04-22T0600,2514A,111.5264,24.4178,贺州市,环保小区,,25,NA,38,17,24,36,36,NA,NA,9,18,6,7,0.3,0.4
2026-04-22T0600,2515A,111.561,24.4074,贺州市,政协大楼,,25,24,33,17,23,46,46,NA,NA,13,14,10,10,0.4,0.4
2026-04-22T0600,3534A,111.4744,24.455,贺州市,西湾,,36,36,48,16,24,41,41,NA,NA,11,18,8,8,0.5,0.5
2026-04-22T0600,2385A,114.17,35.9019,鹤壁市,市监测站,,38,NA,33,26,18,33,33,NA,NA,12,12,3,4,0.7,0.5
2026-04-22T0600,2386A,114.2953,35.7512,鹤壁市,市交警支队,,36,32,39,25,15,44,44,NA,NA,11,17,7,6,0.4,0.4
2026-04-22T0600,2387A,114.2877,35.7302,鹤壁市,迎宾馆,,32,30,42,22,18,35,35,NA,NA,18,17,2,7,0.5,0.5
2026-04-22T0600,3474A,114.2616,35.6824,鹤壁市,大新区,,36,NA,34,25,21,35,35,NA,NA,11,14,3,3,0.5,0.4
2026-04-22T0600,3596A,114.1573,35.9607,鹤壁市,南山宾馆,,30,27,35,21,18,25,25,NA,NA,18,10,10,6,0.7,0.5
2026-04-22T0600,2244A,130.2537,47.3416,鹤岗市,哈啤分公司,,22,22,24,6,8,60,60,NA,NA,6,6,10,11,0.2,0.3
2026-04-22T0600,2245A,130.2683,47.3087,鹤岗市,斯达机电,,22,22,30,6,9,61,61,NA,NA,5,5,11,11,0.4,0.4
2026-04-22T0600,2246A,130.3114,47.3388,鹤岗市,东山纸板厂,,29,29,42,13,9,68,68,NA,NA,7,9,10,10,0.5,0.6
2026-04-22T0600,2263A,127.4832,50.2524,黑河市,交通局,,25,11,22,10,12,78,78,NA,NA,5,9,5,5,0.2,0.2
2026-04-22T0600,2264A,127.5146,50.2339,黑河市,环保局,,25,14,17,3,8,77,77,NA,NA,7,8,6,8,0.3,0.3
2026-04-22T0600,1074A,115.6839,37.754,衡水市,电机北厂,,26,20,61,15,16,82,82,NA,NA,12,15,1,6,0.2,0.3
2026-04-22T0600,1075A,115.6303,37.7318,衡水市,市监测站,,21,21,59,3,11,66,66,NA,NA,16,17,5,6,0.2,0.2
2026-04-22T0600,3188A,115.6684,37.7216,衡水市,市城管局,,23,21,60,15,17,72,72,NA,NA,12,14,3,2,0.2,0.2
2026-04-22T0600,3459A,115.599,37.5491,衡水市,地表水厂,,20,20,57,10,16,50,50,NA,NA,18,15,3,3,0.2,0.3
2026-04-22T0600,2457A,112.6209,26.9268,衡阳市,衡阳化工总厂,,13,6,9,3,3,41,41,NA,NA,7,9,4,4,0.5,0.5
2026-04-22T0600,2458A,112.621,26.8957,衡阳市,珠晖区环保局,,11,6,9,3,3,34,34,NA,NA,13,14,7,7,0.8,0.8
2026-04-22T0600,2459A,112.628,26.8654,衡阳市,市委党校,,13,6,9,3,5,39,39,NA,NA,7,8,8,8,0.7,0.8
2026-04-22T0600,2460A,112.6007,26.8977,衡阳市,市监测站,,14,6,11,3,6,44,44,NA,NA,8,12,6,6,0.6,0.7
2026-04-22T0600,2461A,112.5658,26.9013,衡阳市,真空机电公司,,15,12,10,3,5,45,45,NA,NA,6,11,6,6,0.6,0.6
2026-04-22T0600,3399A,112.6703,26.8817,衡阳市,师范学院,,15,NA,9,3,6,47,47,NA,NA,8,10,6,6,0.5,0.6
2026-04-22T0600,3038A,103.3757,23.3679,红河哈尼族彝族自治州,州图书馆,细颗粒物(PM2.5),100,80,64,60,51,106,106,NA,NA,6,6,4,4,0.6,0.5
2026-04-22T0600,4154A,103.401,23.3561,红河哈尼族彝族自治州,蒙自市朝阳路,细颗粒物(PM2.5),100,NA,51,60,47,111,111,NA,NA,6,6,5,5,0.6,0.5
2026-04-22T0600,1090A,111.6506,40.7517,呼和浩特市,呼市一监,细颗粒物(PM2.5),98,88,94,59,44,17,17,NA,NA,42,32,7,9,0.9,0.6
2026-04-22T0600,1094A,111.7516,40.8369,呼和浩特市,如意水处理厂,颗粒物(PM10),59,62,74,28,32,23,23,NA,NA,40,34,8,9,0.4,0.4
2026-04-22T0600,1095A,111.727798,40.806187,呼和浩特市,二十九中,颗粒物(PM10),58,60,80,18,32,35,35,NA,NA,30,29,9,11,0.6,0.5
2026-04-22T0600,1097A,111.717,40.7617,呼和浩特市,化肥厂生活区,,47,47,83,18,46,29,29,NA,NA,33,34,10,10,0.7,0.6
2026-04-22T0600,3699A,111.6519,40.8389,呼和浩特市,海东办,颗粒物(PM10),51,51,68,22,34,14,14,NA,NA,56,39,4,6,0.3,0.4
2026-04-22T0600,4275A,111.591512,40.827312,呼和浩特市,成吉思汗西街8号,,48,48,73,16,24,19,19,NA,NA,57,44,4,6,0.4,0.5
2026-04-22T0600,4276A,111.6597,40.8077,呼和浩特市,公园东路75号,颗粒物(PM10),56,58,73,35,33,41,41,NA,NA,30,26,4,6,0.4,0.3
2026-04-22T0600,4277A,111.5427,40.7846,呼和浩特市,金海路35号,细颗粒物(PM2.5),82,87,77,51,27,5,5,NA,NA,52,39,6,7,0.6,0.4
2026-04-22T0600,3061A,119.7511,49.1576,呼伦贝尔市,国华电力东,,30,30,26,14,11,56,56,NA,NA,5,5,5,5,0.3,0.3
2026-04-22T0600,4279A,119.7569,49.2222,呼伦贝尔市,伊敏大街东7号,,25,25,25,7,11,52,52,NA,NA,9,6,7,6,0.4,0.4
2026-04-22T0600,1250A,120.075,30.867,湖州市,城西水厂,,26,26,64,17,21,45,45,NA,NA,19,19,5,5,0.4,0.4
2026-04-22T0600,2873A,120.083,30.8929,湖州市,仁皇山新区,,23,23,63,15,20,42,42,NA,NA,20,22,5,5,0.5,0.4
2026-04-22T0600,2907A,120.1846,30.8592,湖州市,吴兴区站,,34,34,65,18,21,43,43,NA,NA,21,21,5,6,0.2,0.2
2026-04-22T0600,3562A,120.4146,30.8538,湖州市,南浔区站,,27,27,64,13,21,53,53,NA,NA,9,16,4,6,0.6,0.6
2026-04-22T0600,1607A,120.904878,40.721091,葫芦岛市,龙港区,颗粒物(PM10),55,57,78,12,22,28,28,NA,NA,30,27,19,13,0.8,0.6
2026-04-22T0600,1608A,120.8382,40.7521,葫芦岛市,化工街,颗粒物(PM10),68,75,81,28,23,10,10,NA,NA,59,32,73,18,0.4,0.4
2026-04-22T0600,1609A,120.8339,40.7078,葫芦岛市,新区,颗粒物(PM10),55,57,72,22,21,30,30,NA,NA,43,27,28,11,0.6,0.7
2026-04-22T0600,1610A,120.8697,40.7679,葫芦岛市,东城区,颗粒物(PM10),58,61,79,22,22,7,7,NA,NA,64,36,40,14,0.5,0.6
2026-04-22T0600,2483A,109.9297,27.5383,怀化市,河西地税局,,15,6,6,3,3,46,46,NA,NA,6,8,6,6,/,/
2026-04-22T0600,2484A,109.9783,27.5342,怀化市,市四医院,,15,6,13,3,4,45,45,NA,NA,4,6,3,3,0.3,0.3
2026-04-22T0600,2485A,109.9971,27.5579,怀化市,监测楼,,14,6,8,3,3,42,42,NA,NA,5,6,4,3,0.4,0.4
2026-04-22T0600,1210A,119.0566,33.5991,淮安市,钵池山,,25,6,65,3,15,79,79,NA,NA,8,18,7,8,0.3,0.3
2026-04-22T0600,1211A,119.0083,33.578,淮安市,北京南路,,24,6,68,3,15,75,75,NA,NA,4,13,6,7,0.2,0.3
2026-04-22T0600,1212A,118.9938,33.6083,淮安市,市监测站,,26,NA,62,14,16,82,82,NA,NA,9,14,4,6,0.6,0.5
2026-04-22T0600,1213A,119.135,33.5038,淮安市,楚州区监测站,,26,NA,68,3,16,81,81,NA,NA,5,14,5,6,0.3,0.3
2026-04-22T0600,3426A,118.8757,33.2897,淮安市,新华书店,,24,NA,64,8,16,76,76,NA,NA,9,15,6,7,0.3,0.3
2026-04-22T0600,4092A,119.119691,33.550006,淮安市,枚皋中路89号,,26,13,67,7,17,81,81,NA,NA,6,16,6,7,0.3,0.4
2026-04-22T0600,4206A,119.028838,33.631911,淮安市,承德北路606号,,24,7,70,3,14,75,75,NA,NA,6,17,6,8,0.3,0.4
2026-04-22T0600,2282A,116.8005,33.9749,淮北市,监测站,,33,26,71,23,20,73,73,NA,NA,11,17,6,7,0.4,0.4
2026-04-22T0600,2283A,116.8094,33.9008,淮北市,烈山区政府,,27,19,56,14,16,85,85,NA,NA,6,12,4,5,0.3,0.3
2026-04-22T0600,4017A,116.7926,33.9534,淮北市,市博物馆,,33,NA,62,23,20,74,74,NA,NA,11,15,16,9,0.3,0.3
2026-04-22T0600,4100A,116.8322,33.9884,淮北市,杜集区第一实验学校,,32,32,69,21,18,66,66,NA,NA,8,13,7,7,0.3,0.3
2026-04-22T0600,2277A,116.8304,32.7726,淮南市,潘集区政府,,19,NA,43,10,14,58,58,NA,NA,18,21,5,6,0.3,0.3
2026-04-22T0600,2279A,116.8569,32.5949,淮南市,谢家集区政府,,20,NA,40,11,18,62,62,NA,NA,6,15,9,8,0.2,0.3
2026-04-22T0600,2280A,116.8279,32.6333,淮南市,八公山区政府,,20,14,50,12,17,63,63,NA,NA,7,12,5,6,0.3,0.3
2026-04-22T0600,2894A,117.0561,32.6536,淮南市,经济技术开发区消防队,,18,NA,56,11,18,57,57,NA,NA,9,18,6,7,0,0.1
2026-04-22T0600,3329A,117.011,32.5891,淮南市,山南新区,,20,NA,60,10,18,62,62,NA,NA,11,18,7,8,0.2,0.3
2026-04-22T0600,4209A,117.003137,32.644456,淮南市,国庆中路369号,NA,NA,10,53,8,17,54,54,NA,NA,NA,15,5,6,NA,0.4
2026-04-22T0600,2446A,114.9021,30.474,黄冈市,职工中心,,15,7,24,3,13,45,45,NA,NA,5,8,6,6,0.3,0.4
2026-04-22T0600,2929A,114.8858,30.4519,黄冈市,红卫路,,15,6,22,3,12,48,48,NA,NA,4,7,5,5,0.1,0.2
2026-04-22T0600,3398A,114.9134,30.4446,黄冈市,市林业局,,17,6,22,3,13,53,53,NA,NA,5,9,4,4,0.3,0.4
2026-04-22T0600,2672A,102.02,35.5101,黄南藏族自治州,同仁县隆务镇,,28,23,47,12,27,87,87,NA,NA,2,3,9,10,0.3,0.3
2026-04-22T0600,2295A,118.2905,29.6965,黄山市,延安路89号,,12,9,16,3,9,36,36,NA,NA,9,10,4,5,0.3,0.3
2026-04-22T0600,2297A,118.1369,30.2755,黄山市,黄山区政府5号楼,,10,10,15,3,5,30,30,NA,NA,7,8,2,2,0.4,0.3
2026-04-22T0600,4210A,118.335445,29.720283,黄山市,滨江东路7-2号,,22,22,27,6,11,46,46,NA,NA,10,10,/,/,/,/
2026-04-22T0600,2423A,115.0547,30.2332,黄石市,沈家营,,11,11,29,3,15,32,32,NA,NA,4,10,4,4,0.4,1
2026-04-22T0600,2426A,114.899,30.211,黄石市,铁山,NA,NA,13,26,9,12,NA,NA,NA,NA,7,10,7,6,0.8,0.6
2026-04-22T0600,2427A,115.0259,30.2108,黄石市,团城山,,14,14,39,3,14,34,34,NA,NA,6,8,4,5,0.5,0.7
2026-04-22T0600,3149A,115.0174,30.1591,黄石市,笔架山北路,,14,14,35,3,14,44,44,NA,NA,7,9,5,7,0.6,0.7
2026-04-22T0600,4185A,115.078022,30.21118,黄石市,磁湖东路29号,,15,11,27,9,11,47,47,NA,NA,13,17,3,4,0.4,1.3
2026-04-22T0600,1392A,114.4181,23.0528,惠州市,河南岸金山湖子站,,35,35,24,22,16,25,25,NA,NA,15,12,7,7,0.6,0.6
2026-04-22T0600,1393A,114.4055,23.0824,惠州市,下埔横江三路子站,,42,42,30,21,17,47,47,NA,NA,10,9,6,6,0.8,0.7
2026-04-22T0600,1395A,114.4645,22.7832,惠州市,惠阳区承修路船湖子站,,26,26,22,18,15,60,60,NA,NA,7,8,6,5,0.4,0.5
2026-04-22T0600,1396A,114.5316,22.7423,惠州市,大亚湾管委会子站,,28,28,23,16,14,54,54,NA,NA,6,8,4,4,0.3,0.4
2026-04-22T0600,3314A,114.4334,22.8134,惠州市,惠阳秋长,,39,39,22,23,15,33,33,NA,NA,25,9,/,/,/,/
2026-04-22T0600,3452A,114.6521,22.7755,惠州市,大亚湾霞涌,,24,NA,18,13,13,75,75,NA,NA,5,6,/,/,/,/
2026-04-22T0600,4300A,114.4089,23.1147,惠州市,文华一路1号,,32,32,23,20,16,49,49,NA,NA,9,10,/,/,/,/
2026-04-22T0600,2240A,130.9618,45.2926,鸡西市,环保局,,27,24,36,3,10,86,86,NA,NA,4,6,7,7,0.2,0.2
2026-04-22T0600,2243A,130.9294,45.2959,鸡西市,第一中学,,27,20,28,11,11,84,84,NA,NA,2,3,5,5,0.3,0.2
2026-04-22T0600,3707A,131.0069,45.2988,鸡西市,欧美日汽修厂,NA,NA,35,32,NA,9,81,81,NA,NA,5,6,3,2,0.4,0.4
2026-04-22T0600,2367A,114.9753,27.0803,吉安市,红声器材厂,,13,13,28,3,12,20,20,NA,NA,13,16,5,6,0.7,0.5
2026-04-22T0600,2369A,114.9903,27.1313,吉安市,市环境监测站,,16,16,23,11,10,17,17,NA,NA,15,16,14,13,/,/
2026-04-22T0600,2370A,115.009527,27.096792,吉安市,青原区法院,,15,15,25,3,12,20,20,NA,NA,16,19,7,8,0.9,0.7
2026-04-22T0600,1772A,126.54,43.8622,吉林市,哈达湾,颗粒物(PM10),55,57,81,10,13,73,73,NA,NA,8,6,6,6,0.2,0.2
2026-04-22T0600,1773A,126.5843,43.8358,吉林市,东局子,,49,49,65,6,8,76,76,NA,NA,9,8,4,4,1.0,0.9
2026-04-22T0600,1774A,126.5051,43.8243,吉林市,电力学院,颗粒物(PM10),56,58,69,19,13,77,77,NA,NA,9,8,5,5,0.6,0.6
2026-04-22T0600,1775A,126.6133,43.8971,吉林市,江北,,46,46,74,6,11,73,73,NA,NA,13,13,10,11,0.4,0.5
2026-04-22T0600,1776A,126.5549,43.8304,吉林市,江南公园,,41,41,61,9,12,76,76,NA,NA,6,6,7,7,0.4,0.4
2026-04-22T0600,2868A,126.4737,43.953,吉林市,九站,颗粒物(PM10),59,62,101,23,20,52,52,NA,NA,16,16,8,13,0.3,0.3
2026-04-22T0600,1299A,116.9866,36.6118,济南市,科干所,,24,24,59,14,19,62,62,NA,NA,11,19,5,6,0.5,0.4
2026-04-22T0600,1300A,116.9379,36.6652,济南市,农科所,,28,22,59,19,20,38,38,NA,NA,20,22,5,6,0.2,0.3
2026-04-22T0600,1301A,117.1265,36.6736,济南市,开发区,,35,27,47,24,17,45,45,NA,NA,20,21,4,5,0.4,0.4
2026-04-22T0600,1303A,117.0616,36.6865,济南市,省种子仓库,,30,29,62,21,20,60,60,NA,NA,14,19,4,5,0.4,0.4
2026-04-22T0600,1304A,116.9495185,36.644937,济南市,机床二厂,,35,29,69,24,26,50,50,NA,NA,21,25,4,6,0.4,0.4
2026-04-22T0600,1305A,117.0496,36.6629,济南市,市监测站,,25,24,59,17,19,57,57,NA,NA,18,21,3,4,0.5,0.6
2026-04-22T0600,1306A,116.7674,36.5458,济南市,长清党校,,23,20,64,16,20,68,68,NA,NA,11,22,3,5,0.4,0.5
2026-04-22T0600,1961A,117.5323,36.6865,济南市,东山小学,,20,20,54,10,15,52,52,NA,NA,24,22,2,4,0.6,0.5
2026-04-22T0600,3059A,117.7181,36.205,济南市,泰兴公司,,24,7,57,3,14,74,74,NA,NA,10,26,5,9,0.2,0.5
2026-04-22T0600,3064A,117.6861,36.2172,济南市,莱芜战役纪念馆,,24,14,55,3,15,74,74,NA,NA,8,22,6,6,0.0,0.5
2026-04-22T0600,3494A,117.1673,36.9782,济南市,济阳区政府,,45,42,77,31,31,47,47,NA,NA,20,27,8,9,0.5,0.5
2026-04-22T0600,3495A,117.1168,36.6299,济南市,锦屏中学,,18,NA,40,12,12,37,37,NA,NA,8,11,4,5,0.3,0.3
2026-04-22T0600,4108A,117.7107,36.2385,济南市,山财大街5号,,25,6,52,3,15,77,77,NA,NA,12,23,3,6,0.4,0.7
2026-04-22T0600,4109A,116.9744,36.6889,济南市,无影山路12号,,30,NA,58,21,23,51,51,NA,NA,19,19,3,5,0.3,0.3
2026-04-22T0600,1653A,116.6229,35.4288,济宁市,火炬城,NA,NA,20,68,10,27,NA,NA,NA,NA,8,19,2,5,0.3,0.4
2026-04-22T0600,3500A,116.5808,35.3703,济宁市,北湖一中,,22,21,65,13,22,70,70,NA,NA,14,26,5,8,0.2,0.3
2026-04-22T0600,3501A,116.8251,35.5592,济宁市,服务中心,,21,21,85,10,27,59,59,NA,NA,12,22,2,4,0.5,0.5
2026-04-22T0600,3678A,116.5907,35.4054,济宁市,市第七中学,NA,NA,22,80,12,26,NA,NA,NA,NA,12,24,3,8,0.2,0.3
2026-04-22T0600,4111A,116.6075,35.4566,济宁市,任和路,,28,28,83,14,32,58,58,NA,NA,11,20,4,8,0.3,0.4
2026-04-22T0600,4112A,116.5648,35.3921,济宁市,文体南路1号,,36,36,79,11,23,63,63,NA,NA,9,19,3,6,0.4,0.5
2026-04-22T0600,4122A,112.6071,35.1015,济源市,市委党校,细颗粒物(PM2.5),88,NA,21,54,19,46,46,NA,NA,21,16,8,6,1.0,0.4
2026-04-22T0600,4123A,112.596,35.0702,济源市,沁园中路1号,,16,14,23,11,13,30,30,NA,NA,28,13,3,2,0.6,0.5
2026-04-22T0600,2255A,130.2749,46.8028,佳木斯市,佳纺,,17,17,33,6,11,52,52,NA,NA,10,8,5,4,0.3,0.3
2026-04-22T0600,2257A,130.3258,46.7975,佳木斯市,环保局,,20,NA,26,10,9,62,62,NA,NA,7,9,5,3,0.2,0.2
2026-04-22T0600,4285A,130.363,46.806,佳木斯市,顺和街,,18,9,26,8,8,57,57,NA,NA,9,10,3,3,0.2,0.2
2026-04-22T0600,4286A,130.3952,46.8268,佳木斯市,长安路196号,,20,NA,25,6,7,63,63,NA,NA,6,6,2,2,0.3,0.3
2026-04-22T0600,1252A,120.7439,30.778,嘉兴市,清河小学,,19,17,78,3,16,60,60,NA,NA,9,16,7,7,0.5,0.5
2026-04-22T0600,1253A,120.7261,30.7477,嘉兴市,嘉兴学院,,19,14,61,9,18,60,60,NA,NA,15,19,5,6,0.6,0.6
2026-04-22T0600,2872A,120.7845,30.7524,嘉兴市,南湖区残联,,23,NA,64,9,20,71,71,NA,NA,5,14,3,5,0.4,0.4
2026-04-22T0600,3407A,120.6915,30.7741,嘉兴市,秀洲住建,,18,11,69,3,16,56,56,NA,NA,15,15,5,6,0.5,0.4
2026-04-22T0600,1945A,98.291,39.7705,嘉峪关市,气象局,颗粒物(PM10),127,188,221,67,77,85,85,NA,NA,7,10,16,20,0.7,0.9
2026-04-22T0600,2884A,98.2672,39.7978,嘉峪关市,酒钢宾馆,颗粒物(PM10),131,200,234,74,71,86,86,NA,NA,7,7,14,27,0.4,0.5
2026-04-22T0600,3248A,98.2644,39.7723,嘉峪关市,雄关区,颗粒物(PM10),118,166,200,69,70,74,74,NA,NA,19,13,15,14,0.4,0.5
2026-04-22T0600,1383A,113.1063,22.6058,江门市,北街,颗粒物(PM10),66,72,25,19,15,40,40,NA,NA,11,10,/,/,/,/
2026-04-22T0600,1384A,113.073,22.5835,江门市,西区,,28,28,28,19,15,46,46,NA,NA,14,13,/,/,/,/
2026-04-22T0600,1385A,113.0218,22.531,江门市,圭峰西,NA,NA,NA,29,NA,15,NA,NA,69,NA,NA,13,NA,NA,NA,NA
2026-04-22T0600,1386A,113.0826,22.5947,江门市,东湖,,25,18,22,17,14,43,43,NA,NA,10,10,7,7,0.4,0.3
2026-04-22T0600,3311A,113.1077,22.5647,江门市,江海富民,,37,37,36,20,15,42,42,NA,NA,16,13,/,/,0.3,0.3
2026-04-22T0600,3449A,113.0496,22.4669,江门市,新会银湖,NA,NA,NA,28,NA,17,NA,NA,65,NA,NA,17,NA,7,NA,0.5
2026-04-22T0600,3335A,113.3137,35.2643,焦作市,马村街道办,,45,45,38,25,15,48,48,NA,NA,9,8,7,7,0.3,0.3
2026-04-22T0600,3336A,113.2464,35.2374,焦作市,焦作技师学院,NA,NA,40,27,24,15,NA,NA,NA,NA,9,11,7,8,0.8,0.8
2026-04-22T0600,3477A,113.1656,35.2536,焦作市,中站许衡医院,,26,26,31,13,15,35,35,NA,NA,5,8,8,9,0.5,0.4
2026-04-22T0600,3981A,113.2456,35.18,焦作市,原李万街道办,,44,44,34,22,14,45,45,NA,NA,8,10,5,5,0.3,0.3
2026-04-22T0600,4264A,113.234,35.219,焦作市,新安路1731号,,43,43,37,24,17,47,47,NA,NA,14,16,8,9,0.4,0.3
2026-04-22T0600,4295A,113.2722,35.2121,焦作市,人民路3066号,,46,36,38,32,18,41,41,NA,NA,13,12,3,4,0.3,0.3
2026-04-22T0600,1708A,116.3701,23.5345,揭阳市,新兴,,43,39,36,30,24,45,45,NA,NA,15,17,6,6,0.6,0.7
2026-04-22T0600,1709A,116.3261,23.5442,揭阳市,西马,,42,37,38,29,24,45,45,NA,NA,15,15,10,7,0.7,0.7
2026-04-22T0600,1710A,116.361,23.5627,揭阳市,东兴,,43,38,33,30,23,34,34,NA,NA,20,16,6,6,/,/
2026-04-22T0600,1711A,116.4151,23.5295,揭阳市,渔湖,,42,41,37,29,23,42,42,NA,NA,17,17,2,2,/,/
2026-04-22T0600,3320A,116.4028,23.5699,揭阳市,曲溪,,39,28,33,27,22,23,23,NA,NA,19,12,12,11,0.6,0.6
2026-04-22T0600,1944A,102.1691,38.5166,金昌市,天庆家园,颗粒物(PM10),101,122,169,38,57,59,59,NA,NA,21,10,25,8,0.4,0.3
2026-04-22T0600,4022A,102.1648,38.5369,金昌市,金川区人防中心,颗粒物(PM10),100,119,165,42,50,74,74,NA,NA,16,9,22,10,0.5,0.4
2026-04-22T0600,4239A,102.193042,38.531887,金昌市,长春路96号,颗粒物(PM10),103,127,178,49,61,74,74,NA,NA,11,5,15,10,0.3,0.4
2026-04-22T0600,1262A,119.6478,29.0773,金华市,十五中,,24,24,32,16,18,26,26,NA,NA,27,27,6,3,0.5,0.5
2026-04-22T0600,1263A,119.6859,29.1032,金华市,监测站,,42,NA,31,29,21,12,12,NA,NA,49,34,3,4,0.5,0.5
2026-04-22T0600,3659A,119.656,29.1132,金华市,气象局,,18,16,27,8,16,21,21,NA,NA,36,29,3,3,0.4,0.3
2026-04-22T0600,1767A,121.1114,41.0879,锦州市,南山,,47,47,59,21,20,14,14,NA,NA,45,20,10,17,0.6,0.6
2026-04-22T0600,1768A,121.060361,40.842794,锦州市,开发区,颗粒物(PM10),77,87,146,33,34,45,45,NA,NA,33,39,30,17,1.2,0.8
2026-04-22T0600,1769A,121.1836,41.1118,锦州市,百股街道,颗粒物(PM10),53,54,69,25,21,38,38,NA,NA,23,22,12,13,0.9,0.8
2026-04-22T0600,1770A,121.1176,41.1224,锦州市,天安街道,颗粒物(PM10),63,68,64,33,18,5,5,NA,NA,55,21,7,8,0.3,0.3
2026-04-22T0600,1771A,121.1303,41.1385,锦州市,北湖公园,,43,43,57,18,20,41,41,NA,NA,25,15,8,10,0.5,0.4
2026-04-22T0600,2160A,112.8496,35.5051,晋城市,自来水公司,,33,33,36,3,5,64,64,NA,NA,14,11,3,3,0.5,0.3
2026-04-22T0600,2162A,112.8509,35.4886,晋城市,市环保局,,32,32,33,3,6,62,62,NA,NA,11,10,3,4,0.4,0.4
2026-04-22T0600,3620A,112.8258,35.4804,晋城市,泽州一中,,19,14,23,3,6,60,60,NA,NA,13,11,3,3,0.7,0.7
2026-04-22T0600,4078A,112.8246,35.5152,晋城市,前书院路,,21,14,20,7,6,67,67,NA,NA,10,13,6,6,0.8,0.8
2026-04-22T0600,4079A,112.8864,35.4773,晋城市,祥云街666号,,35,35,21,12,10,60,60,NA,NA,10,10,6,6,1.3,0.5
2026-04-22T0600,2174A,112.6992,37.6984,晋中市,榆次区政府,颗粒物(PM10),58,61,90,33,39,16,16,NA,NA,32,30,4,11,0.7,0.8
2026-04-22T0600,2865A,112.7195,37.683,晋中市,榆次三中,颗粒物(PM10),60,63,96,26,32,15,15,NA,NA,30,27,5,11,0.3,0.7
2026-04-22T0600,4080A,112.7375,37.7215,晋中市,广安街188号,"颗粒物(PM10),细颗粒物(PM2.5)",64,69,90,42,35,8,8,NA,NA,38,27,2,9,0.6,0.6
2026-04-22T0600,4200A,112.7478,37.6954,晋中市,迎宾街26号,颗粒物(PM10),60,63,98,31,44,18,18,NA,NA,31,24,3,10,0.4,0.7
2026-04-22T0600,2439A,112.2012,31.048,荆门市,竹园小学,,25,22,23,15,8,78,78,NA,NA,9,11,2,2,0.3,0.4
2026-04-22T0600,2440A,112.1968,30.9892,荆门市,掇刀,,29,22,22,20,11,83,83,NA,NA,4,7,9,7,0.4,0.4
2026-04-22T0600,3012A,112.1849,31.0361,荆门市,西山林语,,27,27,23,9,10,83,83,NA,NA,6,7,5,5,0.4,0.4
2026-04-22T0600,3547A,112.1631,31.0134,荆门市,龙泉中学南校,,30,21,18,17,8,94,94,NA,NA,13,12,3,3,0.3,0.2
2026-04-22T0600,4124A,112.2213,31.0654,荆门市,新台西路6号,,25,23,26,17,15,66,66,NA,NA,7,8,6,6,0.5,0.5
2026-04-22T0600,1844A,112.2493,30.3198,荆州市,市图书馆,,32,NA,18,22,10,73,73,NA,NA,14,14,5,5,0.5,0.5
2026-04-22T0600,1845A,112.2009,30.3543,荆州市,市委党校,,36,NA,17,25,10,72,72,NA,NA,13,14,6,6,0.4,0.4
2026-04-22T0600,3194A,112.2749,30.3124,荆州市,管委会,,29,21,17,20,12,71,71,NA,NA,9,10,5,5,0.3,0.4
2026-04-22T0600,4268A,112.1722,30.3366,荆州市,学苑路85号,,26,26,21,11,8,80,80,NA,NA,2,6,2,3,0.4,0.4
2026-04-22T0600,2343A,117.2114,29.2931,景德镇市,老干部活动中心,,11,6,13,3,15,35,35,NA,NA,4,8,5,4,0.6,0.7
2026-04-22T0600,2344A,117.1893,29.2789,景德镇市,兽医站,,13,13,24,3,11,28,28,NA,NA,18,11,4,4,0.5,0.6
2026-04-22T0600,2346A,117.246,29.2958,景德镇市,陶研所,,14,6,15,3,12,42,42,NA,NA,4,7,4,4,0.6,0.6
2026-04-22T0600,4289A,117.154766,29.256967,景德镇市,青少年活动中心,,9,8,17,3,13,27,27,NA,NA,13,11,8,5,/,/
2026-04-22T0600,1803A,115.9873,29.6816,九江市,十里,,13,11,19,9,9,24,24,NA,NA,25,22,7,7,1.0,0.9
2026-04-22T0600,1804A,115.9583,29.7047,九江市,茅山头,,12,8,16,8,11,18,18,NA,NA,23,17,3,4,0.7,0.7
2026-04-22T0600,1805A,115.9877,29.7295,九江市,西园,,10,6,19,3,10,32,32,NA,NA,20,23,3,3,0.8,0.7
2026-04-22T0600,1808A,115.9112,29.6038,九江市,综合工业园,,12,12,12,3,10,29,29,NA,NA,21,29,7,7,0.8,0.7
2026-04-22T0600,3190A,116.0254,29.6995,九江市,外国语学校,,13,13,17,9,9,23,23,NA,NA,17,19,9,9,0.9,0.9
2026-04-22T0600,4253A,116.010205,29.659402,九江市,莲花大道8号,,22,22,17,11,9,24,24,NA,NA,20,14,4,4,0.9,0.7
2026-04-22T0600,4240A,98.495752,39.733935,酒泉市,玉门东路5号,颗粒物(PM10),130,197,235,64,71,78,78,NA,NA,5,10,14,10,0.2,0.3
2026-04-22T0600,4241A,98.5099,39.7506,酒泉市,北大街108号,颗粒物(PM10),124,180,226,69,74,69,69,NA,NA,8,9,8,11,0.2,0.3
2026-04-22T0600,2698A,76.0071,39.466,喀什地区,巡警大队,颗粒物(PM10),176,302,362,123,118,19,19,NA,NA,50,31,5,4,0.5,0.4
2026-04-22T0600,2699A,75.9756,39.4693,喀什地区,吾办,颗粒物(PM10),150,248,330,95,110,27,27,NA,NA,26,23,3,4,0.7,0.7
2026-04-22T0600,4027A,75.9485,39.4688,喀什地区,老干局,颗粒物(PM10),148,244,327,77,99,34,34,NA,NA,21,20,3,3,0.5,0.5
2026-04-22T0600,1824A,114.3389,34.778,开封市,肿瘤医院,,25,NA,32,17,17,56,56,NA,NA,12,13,6,6,0.6,0.5
2026-04-22T0600,1826A,114.2884,34.7966,开封市,世纪星幼儿园,,29,NA,30,20,15,57,57,NA,NA,18,21,6,6,0.5,0.5
2026-04-22T0600,3147A,114.3434,34.8101,开封市,龙亭公园,,29,NA,33,20,14,44,44,NA,NA,19,18,7,7,0.3,0.3
2026-04-22T0600,3210A,114.3645,34.7955,开封市,汴京公园,,29,NA,32,20,15,46,46,NA,NA,14,14,4,4,0.4,0.4
2026-04-22T0600,3473A,114.2485,34.8306,开封市,技师学院,,21,21,32,14,13,42,42,NA,NA,19,23,4,4,0.4,0.4
2026-04-22T0600,3592A,114.4518,34.7503,开封市,祥符区生态环境局,,43,43,31,21,18,37,37,NA,NA,22,17,8,7,0.5,0.5
2026-04-22T0600,1951A,84.886,45.6029,克拉玛依市,长征新村,,39,39,33,9,12,29,29,NA,NA,59,23,8,7,0.5,0.5
2026-04-22T0600,1952A,84.8894,45.5827,克拉玛依市,南林小区,,45,45,38,7,7,63,63,NA,NA,6,11,4,4,0.2,0.2
2026-04-22T0600,1954A,84.896,44.3328,克拉玛依市,独山子区,,23,19,34,3,6,72,72,NA,NA,5,8,5,6,0.3,0.4
2026-04-22T0600,1955A,85.6888,46.0909,克拉玛依市,乌尔禾区商贸楼,,47,47,64,3,13,67,67,NA,NA,11,18,4,4,0.3,0.3
2026-04-22T0600,3612A,85.1045,45.6895,克拉玛依市,白碱滩区新站,,45,45,39,15,8,92,92,NA,NA,1,7,7,8,0.2,0.2
2026-04-22T0600,2697A,76.1457,39.7143,克孜勒苏柯尔克孜自治州,市人民政府,颗粒物(PM10),151,252,266,78,89,65,65,NA,NA,17,14,10,7,0.1,0.2
2026-04-22T0600,3665A,76.1654,39.7157,克孜勒苏柯尔克孜自治州,克州文化中心,颗粒物(PM10),169,288,267,94,96,63,63,NA,NA,21,12,5,5,0.2,0.2
2026-04-22T0600,1450A,102.8203,24.889,昆明市,呈贡新区,,48,39,50,33,35,112,112,NA,NA,10,11,6,5,0.8,0.8
2026-04-22T0600,1452A,102.7253,25.0904,昆明市,龙泉镇,颗粒物(PM10),63,67,54,34,34,26,26,NA,NA,47,20,4,5,0.6,0.6
2026-04-22T0600,1453A,102.7267,25.0378,昆明市,东风东路,,48,48,49,31,33,96,96,NA,NA,14,12,7,4,0.7,0.6
2026-04-22T0600,1454A,102.6744,25.0671,昆明市,金鼎山,,45,45,54,27,32,102,102,NA,NA,10,12,2,3,0.6,0.7
2026-04-22T0600,1455A,102.6643,25.0401,昆明市,碧鸡广场,颗粒物(PM10),56,58,55,36,37,70,70,NA,NA,25,18,9,6,0.6,0.6
2026-04-22T0600,3179A,102.7491,25.012,昆明市,官渡区博物馆,,45,43,52,31,33,103,103,NA,NA,12,12,6,4,0.6,0.6
2026-04-22T0600,3375A,102.8016,24.8336,昆明市,青年创业园,细颗粒物(PM2.5),52,44,48,36,34,115,115,NA,NA,4,5,6,6,0.5,0.6
2026-04-22T0600,3550A,102.8,24.9787,昆明市,昆明学院,,44,44,52,28,29,112,112,NA,NA,8,10,6,6,0.4,0.5
2026-04-22T0600,3551A,102.5969,24.6738,昆明市,晋宁区生态环境分局,,40,39,53,28,38,115,115,NA,NA,4,7,3,4,0.3,0.5
2026-04-22T0600,3552A,102.6673,24.9861,昆明市,云天化总部,,45,45,48,25,30,102,102,NA,NA,10,10,7,5,0.6,0.6
2026-04-22T0600,1456A,91.132,29.6515,拉萨市,八廓街,,34,29,20,8,9,106,106,NA,NA,4,8,4,4,0.1,0.2
2026-04-22T0600,1457A,91.1221,29.6748,拉萨市,市环保局,,32,25,22,6,7,102,102,NA,NA,6,13,4,4,0.2,0.2
2026-04-22T0600,1458A,91.0874,29.6476,拉萨市,区监测站,,35,24,16,7,7,112,112,NA,NA,5,13,4,5,0.2,0.2
2026-04-22T0600,1459A,91.1774,29.6541,拉萨市,西藏大学,,30,22,17,6,7,93,93,NA,NA,8,11,4,4,0.2,0.2
2026-04-22T0600,1460A,90.9798,29.6586,拉萨市,区辐射站,,31,27,22,15,8,99,99,NA,NA,2,13,4,5,0.2,0.3
2026-04-22T0600,1461A,91.0831,29.6292,拉萨市,拉萨火车站,,33,25,18,12,10,105,105,NA,NA,5,11,4,4,0.2,0.2
2026-04-22T0600,2520A,109.2203,23.7252,来宾市,来宾技工学校,,32,32,40,17,24,69,69,NA,NA,3,5,20,9,1.1,1.3
2026-04-22T0600,3535A,109.1781,23.7293,来宾市,兴宾区政府,,46,46,54,12,22,58,58,NA,NA,16,8,8,7,0.5,0.6
2026-04-22T0600,4002A,109.2312,23.7428,来宾市,中南小学,,26,26,40,14,26,72,72,NA,NA,5,9,7,7,0.4,0.5
2026-04-22T0600,1479A,103.8309,36.0467,兰州市,铁路设计院,颗粒物(PM10),90,106,126,47,58,72,72,NA,NA,18,27,9,7,0.8,0.7
2026-04-22T0600,3241A,103.7439,36.0841,兰州市,百合公园,颗粒物(PM10),87,101,116,44,55,81,81,NA,NA,11,27,7,7,0.5,0.4
2026-04-22T0600,3242A,103.9613,35.9985,兰州市,和平,颗粒物(PM10),68,75,110,34,45,68,68,NA,NA,10,14,8,9,0.4,0.4
2026-04-22T0600,4236A,103.629272,36.093822,兰州市,庄浪东路808号,颗粒物(PM10),88,103,128,43,71,87,87,NA,NA,7,23,23,12,0.6,0.5
2026-04-22T0600,4237A,103.7251,36.104344,兰州市,安宁西路88号,颗粒物(PM10),80,92,125,41,56,87,87,NA,NA,18,20,12,13,0.3,0.3
2026-04-22T0600,4238A,103.846982,36.067567,兰州市,北滨河东路1号,颗粒物(PM10),84,97,112,45,50,22,22,NA,NA,53,30,10,11,0.6,0.6
2026-04-22T0600,1067A,116.6712,39.5109,廊坊市,药材公司,,31,31,67,8,25,56,56,NA,NA,13,14,3,2,0.3,0.4
2026-04-22T0600,1068A,116.7215,39.5592,廊坊市,开发区,,17,16,70,11,29,52,52,NA,NA,6,8,3,2,0.2,0.4
2026-04-22T0600,1070A,116.7246,39.5273,廊坊市,北华航天学院,,22,22,70,12,26,49,49,NA,NA,18,12,3,4,0.2,0.4
2026-04-22T0600,2919A,116.7022,39.5454,廊坊市,河北工业大学,,20,19,71,9,29,64,64,NA,NA,13,14,3,3,0.3,0.4
2026-04-22T0600,2536A,103.7629,29.5844,乐山市,牛耳桥,,20,20,30,13,14,25,25,NA,NA,12,19,3,4,0.6,0.6
2026-04-22T0600,2537A,103.7501,29.6002,乐山市,市第三水厂,,22,18,28,15,17,26,26,NA,NA,14,18,3,4,0.8,0.6
2026-04-22T0600,2538A,103.7571,29.5664,乐山市,市监测站,,20,20,30,10,15,28,28,NA,NA,11,14,3,3,0.8,0.7
2026-04-22T0600,3361A,103.7313,29.563,乐山市,理工大学,,12,12,28,7,16,20,20,NA,NA,10,15,3,4,0.7,0.6
2026-04-22T0600,2599A,100.2497,26.8802,丽江市,丽江古城,,30,14,23,3,9,95,95,NA,NA,7,7,8,8,0.7,0.8
2026-04-22T0600,2600A,100.2203,26.8906,丽江市,市中心,,31,NA,13,6,10,98,98,NA,NA,6,10,6,6,0.5,0.6
2026-04-22T0600,1267A,119.9141,28.4513,丽水市,监测站大楼,NA,NA,10,15,3,10,NA,NA,NA,NA,11,11,4,4,0.2,0.2
2026-04-22T0600,1268A,119.93,28.4589,丽水市,莲都小学,,12,9,15,3,8,37,37,NA,NA,13,11,/,/,/,/
2026-04-22T0600,1269A,119.8794,28.4232,丽水市,余庄前,,20,20,17,10,7,15,15,NA,NA,15,8,4,5,0.3,0.3
2026-04-22T0600,1173A,119.1759,34.5885,连云港市,市环境监测站,NA,NA,31,73,NA,14,95,95,NA,NA,12,17,8,8,0.4,0.5
2026-04-22T0600,3000A,119.3577,34.6971,连云港市,德源药业,,32,27,79,3,17,101,101,NA,NA,6,16,5,6,0.4,0.4
2026-04-22T0600,3007A,119.178,34.8442,连云港市,新城一中,颗粒物(PM10),60,63,85,13,21,102,102,NA,NA,11,20,4,5,0.4,0.5
2026-04-22T0600,3008A,119.3607,34.7519,连云港市,胡沟管理处,,29,14,38,7,12,92,92,NA,NA,15,17,6,11,0.4,0.3
2026-04-22T0600,3009A,119.1478,34.5913,连云港市,矿山设计院,,34,34,75,9,15,102,102,NA,NA,7,16,18,20,0.5,0.6
2026-04-22T0600,3434A,119.2414,34.6539,连云港市,工贸学校,,35,30,76,10,17,109,109,NA,NA,4,10,4,5,0.3,0.3
2026-04-22T0600,3664A,119.4171,34.734,连云港市,连云街道,,49,49,94,13,20,102,102,NA,NA,10,25,6,14,0.3,0.4
2026-04-22T0600,2573A,102.2629,27.8981,凉山彝族自治州,西昌市政府,,22,22,25,14,23,55,55,NA,NA,14,11,14,14,0.8,0.7
2026-04-22T0600,2574A,102.2686,27.885,凉山彝族自治州,凉山州政府,,17,16,27,9,20,52,52,NA,NA,12,10,9,8,0.7,0.6
2026-04-22T0600,4229A,102.2342,27.8859,凉山彝族自治州,凯乐南路30号,,19,15,30,3,17,59,59,NA,NA,11,18,4,9,0.5,0.8
2026-04-22T0600,2212A,123.1978,41.2036,辽阳市,宏伟区,细颗粒物(PM2.5),90,88,102,55,29,47,47,NA,NA,18,12,6,9,0.9,0.6
2026-04-22T0600,2213A,123.1684,41.2497,辽阳市,新华园,细颗粒物(PM2.5),107,124,108,67,36,42,42,NA,NA,30,23,13,15,1.6,0.9
2026-04-22T0600,2214A,123.2355,41.2663,辽阳市,滨河路,细颗粒物(PM2.5),96,99,106,58,35,44,44,NA,NA,28,22,8,12,1.3,0.9
2026-04-22T0600,4083A,123.153,41.2874,辽阳市,铁西路150号,细颗粒物(PM2.5),105,125,135,65,42,40,40,NA,NA,25,22,14,17,1.7,1.2
2026-04-22T0600,2227A,125.1359,42.8845,辽源市,环保局,,37,37,55,19,13,38,38,NA,NA,18,7,7,6,0.5,0.4
2026-04-22T0600,4085A,125.0998,42.9134,辽源市,安宁大街333号,,42,42,73,16,12,45,45,NA,NA,12,7,8,5,0.4,0.3
2026-04-22T0600,1625A,115.9789,36.4372,聊城市,区政府,,22,20,51,15,15,60,60,NA,NA,14,14,5,6,0.5,0.5
2026-04-22T0600,3200A,115.9772,36.4986,聊城市,监控中心,,24,24,58,15,15,45,45,NA,NA,37,21,6,8,0.5,0.4
2026-04-22T0600,3513A,116.0443,36.436,聊城市,九州社区,,33,33,56,19,16,71,71,NA,NA,18,19,4,6,0.5,0.4
2026-04-22T0600,4018A,116.0564,36.4609,聊城市,星美广场,,36,36,53,17,18,53,53,NA,NA,16,16,4,5,0.3,0.4
2026-04-22T0600,4113A,116.0091,36.4495,聊城市,利民路,,26,18,45,18,16,76,76,NA,NA,14,15,8,9,0.4,0.4
2026-04-22T0600,2632A,94.3683,29.6373,林芝市,林芝监测站,,12,6,9,3,6,38,38,NA,NA,3,7,3,4,0.4,0.4
2026-04-22T0600,2633A,94.3616,29.6634,林芝市,林芝人民医院,,11,7,12,3,6,35,35,NA,NA,1,4,5,4,0.4,0.4
2026-04-22T0600,2603A,100.0779,23.8981,临沧市,市环保局,细颗粒物(PM2.5),64,46,61,42,40,74,74,NA,NA,8,10,6,7,0.8,0.7
2026-04-22T0600,2604A,100.0894,23.882,临沧市,市气象局,细颗粒物(PM2.5),94,59,66,57,49,75,75,NA,NA,10,10,6,7,0.9,0.8
2026-04-22T0600,1733A,111.5552,36.0791,临汾市,临钢医院,颗粒物(PM10),55,57,42,33,18,20,20,NA,NA,18,14,5,5,0.8,0.6
2026-04-22T0600,1734A,111.4984,36.0734,临汾市,技工学校,细颗粒物(PM2.5),74,59,38,47,23,26,26,NA,NA,20,16,5,6,1.0,0.6
2026-04-22T0600,1736A,111.5017,36.0857,临汾市,市委,细颗粒物(PM2.5),64,54,44,42,18,28,28,NA,NA,18,14,6,6,1.0,0.7
2026-04-22T0600,3018A,111.5048,36.1015,临汾市,唐尧大酒店,,47,47,51,19,19,7,7,NA,NA,35,18,5,5,0.6,0.6
2026-04-22T0600,4244A,111.4879,36.053,临汾市,启星学校,,42,NA,35,29,22,23,23,NA,NA,20,18,4,5,1.0,0.6
2026-04-22T0600,4271A,103.2464,35.6123,临夏回族自治州,滨河东路1号,颗粒物(PM10),82,94,94,34,38,58,58,NA,NA,15,12,8,10,0.3,0.3
2026-04-22T0600,4310A,103.207136,35.599807,临夏回族自治州,新华街21号,颗粒物(PM10),70,77,95,34,36,61,61,NA,NA,6,6,6,8,0.3,0.3
2026-04-22T0600,1618A,118.3429,35.0532,临沂市,沂河小区,,46,46,95,14,29,76,76,NA,NA,9,26,9,15,0.3,0.6
2026-04-22T0600,1619A,118.2962,35.0568,临沂市,鲁南制药厂,,34,34,89,13,28,84,84,NA,NA,9,25,10,16,0.3,0.5
2026-04-22T0600,1620A,118.2793,34.9976,临沂市,新光毛纺厂,,36,36,90,20,33,77,77,NA,NA,10,27,9,17,0.4,0.6
2026-04-22T0600,1621A,118.3955,35.0889,临沂市,河东保险公司,,34,34,85,13,30,68,68,NA,NA,15,30,9,15,0.3,0.6
2026-04-22T0600,3370A,118.3563,35.0215,临沂市,十里堡居委,,34,34,92,17,34,78,78,NA,NA,16,32,7,16,0.5,0.8
2026-04-22T0600,3496A,118.359,35.1067,临沂市,南坊新区,,39,39,82,12,29,76,76,NA,NA,14,27,9,14,0.1,0.4
2026-04-22T0600,3860A,118.3915,35.0297,临沂市,皇山花园小区,,31,31,93,14,34,77,77,NA,NA,17,35,8,17,0.4,0.7
2026-04-22T0600,1870A,109.4854,24.3898,柳州市,柳东小学,,45,40,40,31,29,60,60,NA,NA,7,9,4,4,0.7,0.7
2026-04-22T0600,1871A,109.4109,24.3304,柳州市,环保监测站,,42,42,44,24,28,60,60,NA,NA,9,11,5,5,0.8,0.8
2026-04-22T0600,1872A,109.3886,24.3408,柳州市,河西水厂,,35,34,44,24,30,66,66,NA,NA,12,11,10,10,0.6,0.7
2026-04-22T0600,1873A,109.4263,24.2951,柳州市,市四中,,40,38,44,28,30,54,54,NA,NA,11,12,7,6,0.7,0.7
2026-04-22T0600,1874A,109.396,24.3658,柳州市,市九中,,36,36,44,23,28,61,61,NA,NA,9,10,5,5,0.5,0.5
2026-04-22T0600,1875A,109.4912,24.3164,柳州市,古亭山,,48,48,39,32,27,45,45,NA,NA,13,9,5,4,0.7,0.7
2026-04-22T0600,3402A,109.5422,24.3994,柳州市,市二中,,50,44,41,35,31,43,43,NA,NA,12,16,8,13,0.6,0.6
2026-04-22T0600,2307A,116.5078,31.7369,六安市,监测大楼,,16,7,39,7,24,51,51,NA,NA,8,18,4,4,0.3,0.4
2026-04-22T0600,2308A,116.4738,31.7642,六安市,皖西学院,,17,NA,46,8,21,52,52,NA,NA,8,17,4,5,0.3,0.5
2026-04-22T0600,2309A,116.4997,31.7904,六安市,朝阳厂,,16,NA,36,9,22,51,51,NA,NA,8,19,5,6,0.2,0.4
2026-04-22T0600,2310A,116.5566,31.7885,六安市,开发区,,17,NA,35,10,22,53,53,NA,NA,12,21,4,5,0.3,0.5
2026-04-22T0600,2577A,104.8293,26.592,六盘水市,黄土坡,,16,14,24,3,17,51,51,NA,NA,9,10,4,6,0.0,0.2
2026-04-22T0600,2579A,104.8481,26.5898,六盘水市,民中,,17,8,23,3,17,54,54,NA,NA,5,8,3,4,0.4,0.5
2026-04-22T0600,2580A,104.9541,26.5506,六盘水市,双水,,17,6,21,3,17,53,53,NA,NA,5,8,3,4,0.3,0.3
2026-04-22T0600,4151A,104.8899,26.5685,六盘水市,钟山大道中段564号,,18,6,28,3,17,56,56,NA,NA,6,7,2,6,0.1,0.2
2026-04-22T0600,2336A,117.022,25.1031,龙岩市,龙岩市监测站,,20,19,21,14,21,41,41,NA,NA,11,14,5,5,0.5,0.5
2026-04-22T0600,2337A,117.0257,25.0662,龙岩市,闽西职业技术学院,,25,25,24,13,18,32,32,NA,NA,8,10,6,6,0.7,0.7
2026-04-22T0600,2338A,117.0195,25.0306,龙岩市,龙岩学院,,25,25,27,11,18,31,31,NA,NA,4,10,4,4,/,/
2026-04-22T0600,2885A,104.9344,33.3827,陇南市,滨江中学,颗粒物(PM10),51,51,39,23,18,46,46,NA,NA,11,9,10,8,0.7,0.7
2026-04-22T0600,3247A,104.9551,33.3709,陇南市,市总工会,,47,47,37,16,17,43,43,NA,NA,8,8,8,8,0.5,0.5
2026-04-22T0600,2488A,111.9984,27.7346,娄底市,市监测站,,16,9,6,3,4,50,50,NA,NA,10,11,4,6,0.4,0.4
2026-04-22T0600,2491A,111.9888,27.7035,娄底市,市政府,,16,12,8,3,4,50,50,NA,NA,9,10,3,3,0.5,0.4
2026-04-22T0600,4127A,111.9812,27.7591,娄底市,涟钢职大,,16,6,8,3,4,50,50,NA,NA,8,8,1,2,0.4,0.4
2026-04-22T0600,4128A,112.0303,27.7457,娄底市,娄底体校,,14,13,8,3,2,42,42,NA,NA,9,8,3,3,0.2,0.3
2026-04-22T0600,1894A,105.4427,28.9063,泸州市,小市上码头,,36,36,25,16,14,30,30,NA,NA,12,13,6,6,0.6,0.5
2026-04-22T0600,1895A,105.4241,28.8573,泸州市,兰田宪桥,NA,NA,28,57,19,33,25,25,NA,NA,8,10,NA,6,0.8,0.8
2026-04-22T0600,1896A,105.4378,28.8833,泸州市,市环监站,,25,25,32,12,14,27,27,NA,NA,12,17,9,8,0.7,0.7
2026-04-22T0600,4272A,105.3689,28.7783,泸州市,纳溪中医医院,,20,NA,49,14,19,33,33,NA,NA,8,9,6,4,0.5,0.5
2026-04-22T0600,2183A,111.1447,37.5212,吕梁市,环保局,颗粒物(PM10),80,92,111,31,32,18,18,NA,NA,28,30,5,6,0.5,0.6
2026-04-22T0600,2185A,111.1285,37.5338,吕梁市,自来水公司,NA,NA,117,101,34,32,5,5,NA,NA,31,30,NA,5,0.5,0.6
2026-04-22T0600,2867A,111.1225,37.5093,吕梁市,马茂庄小学,颗粒物(PM10),89,104,114,24,28,9,9,NA,NA,34,32,10,10,0.6,0.6
2026-04-22T0600,1812A,112.3934,34.6517,洛阳市,市委党校,,20,20,20,14,12,53,53,NA,NA,13,15,6,6,0.7,0.5
2026-04-22T0600,1815A,112.494,34.6883,洛阳市,河南林校,,32,30,29,22,12,37,37,NA,NA,24,21,9,9,0.7,0.5
2026-04-22T0600,1816A,112.3843,34.623,洛阳市,开发区管委会,,20,14,22,14,12,37,37,NA,NA,12,12,8,8,0.8,0.7
2026-04-22T0600,1817A,112.4263,34.6249,洛阳市,市委新办公区,,22,18,23,15,12,37,37,NA,NA,15,17,7,7,0.5,0.4
2026-04-22T0600,3340A,112.6005,34.6323,洛阳市,伊滨,,29,NA,19,20,12,42,42,NA,NA,14,13,7,7,0.6,0.5
2026-04-22T0600,3341A,112.495,34.6338,洛阳市,中移产业园,,18,18,20,10,11,48,48,NA,NA,19,18,9,8,0.4,0.3
2026-04-22T0600,3593A,112.5736,34.8993,洛阳市,吉利监测站,,33,NA,21,23,9,44,44,NA,NA,11,12,6,6,0.8,0.4
2026-04-22T0600,3635A,112.3678,34.6623,洛阳市,河科大西苑校区,,30,NA,20,21,14,66,66,NA,NA,9,14,8,7,0.6,0.5
2026-04-22T0600,3636A,112.4387,34.678,洛阳市,英才小学,,33,33,28,20,13,44,44,NA,NA,22,21,11,8,0.6,0.4
2026-04-22T0600,4214A,112.460027,34.694929,洛阳市,春都路1号院,,36,36,24,24,14,34,34,NA,NA,24,17,10,8,0.6,0.4
2026-04-22T0600,2399A,114.051,33.5721,漯河市,三五一五工厂,,40,28,42,28,21,59,59,NA,NA,18,17,8,5,0.5,0.4
2026-04-22T0600,2400A,114.0055,33.5698,漯河市,漯河大学,,22,19,37,15,19,56,56,NA,NA,20,20,5,5,0.3,0.3
2026-04-22T0600,2401A,114.0134,33.5826,漯河市,市水利局,,26,19,37,18,20,54,54,NA,NA,15,15,4,4,0.4,0.4
2026-04-22T0600,2402A,114.0261,33.5697,漯河市,市广电局,,28,20,36,19,19,57,57,NA,NA,19,19,5,5,0.3,0.3
2026-04-22T0600,3478A,113.9691,33.568,漯河市,市图书馆,,23,23,44,13,18,53,53,NA,NA,15,15,7,7,0.4,0.5
2026-04-22T0600,4250A,114.089259,33.588274,漯河市,韶山路11号,,36,33,41,25,19,49,49,NA,NA,16,18,5,6,0.4,0.3
2026-04-22T0600,1798A,118.5084,31.6838,马鞍山市,湖东路四小,,22,19,48,15,20,23,23,NA,NA,24,18,5,5,0.6,0.4
2026-04-22T0600,1799A,118.5019,31.6449,马鞍山市,开发区,,15,14,49,10,17,22,22,NA,NA,27,20,6,6,0.7,0.5
2026-04-22T0600,3633A,118.4914,31.681,马鞍山市,雨山,,20,15,46,14,18,16,16,NA,NA,34,20,11,9,0.9,0.5
2026-04-22T0600,4191A,118.527362,31.722269,马鞍山市,慈湖高新区,,24,24,59,15,19,23,23,NA,NA,24,17,5,5,0.5,0.4
2026-04-22T0600,1686A,111.0285,21.469,茂名市,电白南海,,38,36,27,26,14,61,61,NA,NA,4,5,5,5,0.7,0.7
2026-04-22T0600,1687A,110.9294,21.6533,茂名市,茂石化七小,,29,29,27,15,15,55,55,NA,NA,8,8,6,5,0.4,0.5
2026-04-22T0600,1688A,110.9108,21.6688,茂名市,健康路,,20,17,18,14,14,56,56,NA,NA,6,7,4,4,0.5,0.5
2026-04-22T0600,1689A,110.8592,21.6826,茂名市,高岭,,24,24,42,14,16,55,55,NA,NA,6,8,2,2,/,/
2026-04-22T0600,3450A,111.0101,21.5165,茂名市,电白水东,,22,19,19,15,15,59,59,NA,NA,4,5,2,2,/,/
2026-04-22T0600,2540A,103.8414,30.0871,眉山市,气象局,,28,28,28,14,7,2,2,NA,NA,28,18,6,6,0.6,0.6
2026-04-22T0600,3148A,103.829,30.0563,眉山市,区人社局,,33,33,33,10,8,23,23,NA,NA,23,22,8,8,0.8,0.7
2026-04-22T0600,4148A,103.8836,30.0695,眉山市,眉职院,,41,41,23,15,7,4,4,NA,NA,23,16,8,7,0.7,0.6
2026-04-22T0600,1690A,116.1248,24.3307,梅州市,梅江月梅,,39,39,26,20,20,11,11,NA,NA,20,15,/,/,/,/
2026-04-22T0600,1691A,116.0798,24.2719,梅州市,梅县新城,,28,25,26,19,23,10,10,NA,NA,21,21,8,8,0.5,0.6
2026-04-22T0600,3315A,116.1234,24.2994,梅州市,梅龙,,31,31,24,20,21,10,10,NA,NA,20,13,6,7,0.7,0.8
2026-04-22T0600,1878A,104.7775,31.4741,绵阳市,富乐山,,14,14,12,7,4,13,13,NA,NA,11,10,6,7,0.6,0.6
2026-04-22T0600,1880A,104.6698,31.4668,绵阳市,高新区自来水公司,,18,18,12,10,3,47,47,NA,NA,9,9,7,6,0.6,0.6
2026-04-22T0600,3491A,104.6899,31.5324,绵阳市,西科大附属小学,,17,17,14,8,6,43,43,NA,NA,9,12,7,7,0.4,0.4
2026-04-22T0600,3492A,104.5647,31.5343,绵阳市,安州区旅游局,,16,15,13,11,6,48,48,NA,NA,8,7,5,5,0.3,0.2
2026-04-22T0600,4146A,104.7092,31.4972,绵阳市,科技城新区公安局,,17,17,13,6,3,41,41,NA,NA,10,10,7,6,0.4,0.4
2026-04-22T0600,4226A,104.765114,31.453094,绵阳市,绵阳市气象局,,14,14,12,8,5,44,44,NA,NA,11,11,8,6,0.4,0.4
2026-04-22T0600,1784A,129.61,44.561,牡丹江市,环保大楼,颗粒物(PM10),57,59,51,20,12,43,43,NA,NA,13,10,3,2,0.2,0.2
2026-04-22T0600,1787A,129.6364,44.6075,牡丹江市,机车工厂,颗粒物(PM10),55,57,55,23,17,31,31,NA,NA,29,15,8,9,0.2,0.2
2026-04-22T0600,1788A,129.6386,44.5462,牡丹江市,第一中学,,40,40,42,14,8,36,36,NA,NA,10,8,7,7,0.4,0.4
2026-04-22T0600,4287A,129.5992,44.5964,牡丹江市,东晓云街98号,,49,49,48,24,13,57,57,NA,NA,9,9,3,4,0.2,0.2
2026-04-22T0600,2531A,105.0703,29.61,内江市,市监测站,,22,NA,22,15,9,22,22,NA,NA,12,10,8,8,0.5,0.5
2026-04-22T0600,2533A,105.0657,29.5807,内江市,内江二中,,26,21,21,18,12,23,23,NA,NA,15,12,7,6,0.3,0.2
2026-04-22T0600,2534A,105.0407,29.5828,内江市,内江日报社,,28,28,17,18,12,16,16,NA,NA,17,10,7,8,0.4,0.3
2026-04-22T0600,4147A,105.0433,29.6105,内江市,玉峰路西段888号,,26,18,19,18,13,22,22,NA,NA,13,10,4,4,0.4,0.4
2026-04-22T0600,2628A,92.0653,31.4846,那曲市,那曲监测站,颗粒物(PM10),93,109,58,44,30,69,69,NA,NA,10,14,4,6,0.9,0.9
2026-04-22T0600,4243A,92.0515,31.4787,那曲市,那曲市委宣传部,颗粒物(PM10),90,105,48,33,21,80,80,NA,NA,6,7,6,7,0.5,0.6
2026-04-22T0600,1291A,115.8887,28.7006,南昌市,省林业公司,NA,NA,NA,8,0,7,32,32,NA,NA,8,18,3,4,0.4,0.5
2026-04-22T0600,1292A,115.813,28.7443,南昌市,林科所,NA,NA,NA,6,0,5,40,40,NA,NA,7,19,7,7,0.8,0.8
2026-04-22T0600,1294A,115.8518,28.687,南昌市,建工学校,,12,6,8,3,6,38,38,NA,NA,7,18,4,7,0.8,0.9
2026-04-22T0600,1295A,115.8926,28.6425,南昌市,象湖,NA,NA,NA,6,0,9,35,35,NA,NA,10,20,7,7,0.9,1
2026-04-22T0600,3046A,115.9084,28.6062,南昌市,机电学校,NA,NA,6,13,3,9,37,37,NA,NA,13,22,NA,4,0.6,0.7
2026-04-22T0600,3690A,115.9718,28.7032,南昌市,外国语学校,,11,6,10,3,6,35,35,NA,NA,11,23,8,8,0.7,0.7
2026-04-22T0600,4106A,115.7923,28.6873,南昌市,工业二路,,12,6,14,3,8,36,36,NA,NA,7,16,4,4,0.7,0.8
2026-04-22T0600,4192A,115.931587,28.686774,南昌市,南京东路235号,,12,6,15,3,7,38,38,NA,NA,8,17,5,5,0.6,0.6
2026-04-22T0600,1906A,106.0791,30.8022,南充市,南充市委,,12,12,9,6,4,14,14,NA,NA,10,11,7,7,0.3,0.3
2026-04-22T0600,1907A,106.1038,30.8215,南充市,南充炼油厂,,13,13,15,8,5,17,17,NA,NA,8,9,4,4,0.1,0.2
2026-04-22T0600,4227A,106.108336,30.788436,南充市,梨树横街98号,,16,16,8,8,4,21,21,NA,NA,9,7,6,6,0.4,0.3
2026-04-22T0600,4304A,106.1172,30.843,南充市,清泉寺北路188号,,16,16,13,8,4,15,15,NA,NA,8,6,6,5,0.3,0.3
2026-04-22T0600,4305A,106.067,30.7616,南充市,同庆路1号,,14,14,9,6,4,14,14,NA,NA,10,12,6,6,0.3,0.3
2026-04-22T0600,1151A,118.8033,32.1085,南京市,迈皋桥,,13,12,51,3,15,39,39,NA,NA,10,24,5,30,0.4,0.6
2026-04-22T0600,1152A,118.7487,32.057,南京市,草场门,,13,NA,55,9,20,38,38,NA,NA,20,23,3,4,0.4,0.4
2026-04-22T0600,1154A,118.770105,32.004342,南京市,中华门,,11,9,55,3,14,34,34,NA,NA,17,18,9,8,0.4,0.4
2026-04-22T0600,1155A,118.8059,32.0329,南京市,瑞金路,,17,17,59,3,11,37,37,NA,NA,17,21,5,6,0.7,0.6
2026-04-22T0600,1156A,118.7946,32.0774,南京市,玄武湖,,12,8,56,8,13,35,35,NA,NA,11,18,4,4,0.4,0.4
2026-04-22T0600,1157A,118.6415,32.0964,南京市,浦口,,12,8,61,3,16,36,36,NA,NA,13,25,4,5,0.5,0.5
2026-04-22T0600,1158A,118.730129,32.000956,南京市,奥体中心,,13,13,56,3,13,22,22,NA,NA,20,23,6,7,0.3,0.3
2026-04-22T0600,1159A,118.9072,32.1047,南京市,仙林大学城,,22,22,60,12,18,38,38,NA,NA,23,26,9,9,0.6,0.5
2026-04-22T0600,3422A,118.8443,31.919,南京市,江宁彩虹桥,,15,15,59,6,15,36,36,NA,NA,30,28,4,4,0.5,0.5
2026-04-22T0600,3427A,118.8497,32.3599,南京市,六合雄州,,23,23,85,7,18,44,44,NA,NA,26,43,4,4,0.8,0.9
2026-04-22T0600,4086A,118.7641,32.0841,南京市,新模范马路66号,,17,17,59,6,14,40,40,NA,NA,18,20,4,4,0.4,0.4
2026-04-22T0600,4249A,118.8707617,31.34017673,南京市,汶溪路181号,,15,11,38,3,15,45,45,NA,NA,16,19,4,5,0.4,0.4
2026-04-22T0600,4312A,119.019,31.6512,南京市,中山西路1号,,25,NA,47,17,13,34,34,NA,NA,18,19,4,4,0.6,0.4
2026-04-22T0600,1401A,108.3098,22.788,南宁市,二十一中,,23,19,25,16,17,40,40,NA,NA,8,7,2,2,0.5,0.5
2026-04-22T0600,1402A,108.3135,22.8529,南宁市,北湖,,29,22,27,20,21,43,43,NA,NA,7,8,2,2,0.6,0.6
2026-04-22T0600,1403A,108.3205,22.8222,南宁市,市监测站,,30,30,28,14,16,48,48,NA,NA,5,6,2,2,0.4,0.3
2026-04-22T0600,1404A,108.3828,22.8038,南宁市,大自然花园,,33,33,31,16,19,46,46,NA,NA,8,8,5,5,0.6,0.5
2026-04-22T0600,1406A,108.2397,22.8462,南宁市,区农职院,,27,27,27,13,14,38,38,NA,NA,6,5,2,2,0.5,0.5
2026-04-22T0600,1407A,108.3285,22.7356,南宁市,英华嘉园,,26,26,30,18,17,39,39,NA,NA,13,12,4,4,0.4,0.4
2026-04-22T0600,3401A,108.4829,22.762,南宁市,红星社区,,32,32,33,16,21,41,41,NA,NA,10,7,5,5,0.5,0.5
2026-04-22T0600,4132A,108.2927,23.1477,南宁市,起凤路9号,,34,34,31,22,22,38,38,NA,NA,10,6,5,4,0.5,0.5
2026-04-22T0600,4221A,108.2177,22.7774,南宁市,乐贤路16号,,28,28,29,16,16,18,18,NA,NA,28,15,4,4,0.3,0.2
2026-04-22T0600,2332A,118.1682,26.6371,南平市,南平市监测站,,14,11,20,3,11,44,44,NA,NA,7,6,4,3,0.3,0.3
2026-04-22T0600,2334A,118.1757,26.6276,南平市,南平七中,,16,15,22,6,11,50,50,NA,NA,8,6,4,2,0.4,0.4
2026-04-22T0600,1168A,120.9056,31.9669,南通市,狼山街道,,17,8,80,3,16,52,52,NA,NA,15,11,3,4,0.4,0.3
2026-04-22T0600,1170A,120.8635,32.0231,南通市,城中,,15,10,88,8,17,48,48,NA,NA,17,13,3,4,0.3,0.2
2026-04-22T0600,1171A,120.9376,31.9301,南通市,星湖花园,,17,6,80,3,17,53,53,NA,NA,17,14,3,4,0.4,0.3
2026-04-22T0600,1172A,120.8053,32.046,南通市,紫琅学院,,16,NA,77,8,13,49,49,NA,NA,24,16,4,4,0.6,0.6
2026-04-22T0600,3291A,121.0631,32.0644,南通市,通州监测站,,21,NA,86,11,18,65,65,NA,NA,12,13,3,3,0.5,0.4
2026-04-22T0600,3432A,120.9348,31.9874,南通市,环境教育馆,,16,14,85,8,17,49,49,NA,NA,25,18,4,4,0.4,0.4
2026-04-22T0600,4091A,120.8692,31.9885,南通市,洪江路,,14,9,71,6,15,39,39,NA,NA,28,15,4,5,0.7,0.6
2026-04-22T0600,2404A,112.5338,33.0086,南阳市,瓦房庄,,21,19,31,7,7,65,65,NA,NA,13,12,4,4,0.3,0.4
2026-04-22T0600,2405A,112.5002,32.9734,南阳市,汉画馆,,18,18,30,11,6,31,31,NA,NA,34,10,6,5,0.4,0.4
2026-04-22T0600,2406A,112.5778,33.0144,南阳市,气象站,,19,13,26,7,7,60,60,NA,NA,15,10,4,5,0.3,0.3
2026-04-22T0600,2407A,112.548,32.9687,南阳市,理工学院,,25,25,32,13,9,40,40,NA,NA,25,9,6,6,0.4,0.3
2026-04-22T0600,4008A,112.5233,32.9921,南阳市,卧龙区政府,,20,14,28,3,8,61,61,NA,NA,12,8,6,6,0.3,0.4
2026-04-22T0600,1234A,121.8352,29.9111,宁波市,区环保大楼,,25,25,83,9,16,45,45,NA,NA,36,25,6,6,0.4,0.3
2026-04-22T0600,1235A,121.5595,29.8208,宁波市,万里学院,,36,36,54,9,14,56,56,NA,NA,16,12,8,8,0.6,0.5
2026-04-22T0600,1236A,121.713,29.9564,宁波市,龙赛医院,颗粒物(PM10),55,56,79,25,17,37,37,NA,NA,28,20,6,6,0.5,0.4
2026-04-22T0600,1240A,121.5855,29.8635,宁波市,太古小学,,29,29,64,10,16,57,57,NA,NA,15,16,3,3,0.4,0.3
2026-04-22T0600,1241A,121.5239,29.8673,宁波市,市环境监测中心,,34,34,52,7,15,58,58,NA,NA,15,16,3,4,0.5,0.4
2026-04-22T0600,2871A,121.6156,29.9015,宁波市,万里国际学校,,31,31,59,15,17,66,66,NA,NA,8,14,4,4,0.4,0.4
2026-04-22T0600,3710A,121.5593,29.8976,宁波市,白沙活动中心,,39,39,54,9,14,62,62,NA,NA,15,17,5,5,0.4,0.4
2026-04-22T0600,4095A,121.8962,29.7529,宁波市,中科路88号,,29,13,84,3,15,90,90,NA,NA,2,12,6,7,0.4,0.3
2026-04-22T0600,2341A,119.5387,26.6611,宁德市,宁德市监测站,,29,NA,20,20,15,34,34,NA,NA,22,22,7,7,0.5,0.5
2026-04-22T0600,3209A,119.5231,26.6562,宁德市,宁德一中,,38,NA,27,26,15,37,37,NA,NA,15,13,6,6,0.1,0.1
2026-04-22T0600,2618A,98.859,25.8541,怒江傈僳族自治州,州监测站,,30,30,36,17,23,54,54,NA,NA,9,10,6,6,0.3,0.3
2026-04-22T0600,2619A,98.8607,25.8168,怒江傈僳族自治州,泸水一中,,23,21,31,16,26,35,35,NA,NA,10,13,5,5,0.6,0.6
2026-04-22T0600,1888A,101.6891,26.571,攀枝花市,弄弄坪,颗粒物(PM10),59,62,60,38,30,37,37,NA,NA,40,26,47,22,2.6,1.1
2026-04-22T0600,1889A,101.577,26.5914,攀枝花市,河门口,NA,NA,NA,NA,NA,NA,NA,NA,NA,NA,NA,NA,NA,NA,NA,NA
2026-04-22T0600,1891A,101.7365,26.4986,攀枝花市,仁和,细颗粒物(PM2.5),54,43,53,37,37,50,50,NA,NA,17,17,4,7,0.5,0.4
2026-04-22T0600,2835A,101.7222,26.567,攀枝花市,四十中小,,45,45,46,29,29,45,45,NA,NA,27,24,9,14,0.9,0.8
2026-04-22T0600,1604A,122.0303,41.1489,盘锦市,开发区,细颗粒物(PM2.5),78,72,93,49,35,29,29,NA,NA,22,16,6,8,0.5,0.4
2026-04-22T0600,1605A,122.0486,41.0883,盘锦市,兴隆台,一氧化碳(CO),103,66,76,51,36,25,25,NA,NA,43,20,9,11,11.5,3.4
2026-04-22T0600,1606A,121.8297,41.1026,盘锦市,新生街道,,40,36,64,28,30,30,30,NA,NA,21,24,5,8,0.6,0.6
2026-04-22T0600,1832A,113.3257,33.7423,平顶山市,新华旅馆,,39,39,44,20,14,63,63,NA,NA,8,10,5,4,0.4,0.3
2026-04-22T0600,1833A,113.2917,33.737,平顶山市,规划设计院,,32,28,41,22,12,54,54,NA,NA,12,12,7,7,0.4,0.3
2026-04-22T0600,1834A,113.182,33.7738,平顶山市,平顶山工学院,,26,25,28,18,15,57,57,NA,NA,9,10,9,9,0.5,0.4
2026-04-22T0600,3594A,112.8736,33.9068,平顶山市,石龙区,,21,16,25,13,12,66,66,NA,NA,7,10,8,7,0.3,0.3
2026-04-22T0600,4116A,113.284,33.7139,平顶山市,姚电大道23号,,40,40,44,19,14,61,61,NA,NA,14,14,6,5,0.4,0.4
2026-04-22T0600,2656A,106.6633,35.5338,平凉市,聚贤嘉苑,,27,27,28,10,8,46,46,NA,NA,19,15,6,5,0.5,0.4
2026-04-22T0600,2657A,106.7021,35.5307,平凉市,博物馆,,25,25,26,6,6,54,54,NA,NA,12,11,6,8,0.4,0.3
2026-04-22T0600,2348A,113.8384,27.6436,萍乡市,中医院,,12,NA,17,6,12,34,34,NA,NA,12,21,7,8,1.2,0.9
2026-04-22T0600,2350A,113.8677,27.6438,萍乡市,市环保局,,18,NA,18,12,14,31,31,NA,NA,15,22,9,10,1.1,0.9
2026-04-22T0600,2351A,113.8663,27.6202,萍乡市,安源区政府,,13,NA,15,9,10,26,26,NA,NA,8,12,8,9,0.3,0.4
2026-04-22T0600,4107A,113.8686,27.6668,萍乡市,联洪村委会,,9,NA,20,3,13,28,28,NA,NA,9,23,2,4,0.5,0.8
2026-04-22T0600,2319A,119.0142,25.4324,莆田市,荔城区仓后路,,33,NA,32,23,19,50,50,NA,NA,6,4,/,/,/,/
2026-04-22T0600,2320A,119.0016,25.4553,莆田市,莆田市监测站,,23,16,26,16,13,51,51,NA,NA,7,7,2,6,0.4,0.4
2026-04-22T0600,2321A,119.112,25.4561,莆田市,涵江区六中,,30,NA,31,21,18,38,38,NA,NA,14,7,/,/,0.5,0.5
2026-04-22T0600,2322A,119.1014,25.3215,莆田市,秀屿区政府,细颗粒物(PM2.5),70,NA,35,45,15,40,40,NA,NA,16,7,4,3,0.6,0.4
2026-04-22T0600,2392A,115.0312,35.7636,濮阳市,环保局,,23,NA,33,16,10,50,50,NA,NA,13,17,3,3,0.5,0.4
2026-04-22T0600,3021A,115,35.7667,濮阳市,濮水河管理处,,18,18,32,7,11,26,26,NA,NA,20,19,3,3,0.4,0.4
2026-04-22T0600,4118A,115.0552,35.7816,濮阳市,中原东路68号,,25,25,36,11,9,48,48,NA,NA,12,14,2,2,0.4,0.4
2026-04-22T0600,4216A,115.0923632,35.76857718,濮阳市,任丘路479号,,31,31,39,13,12,47,47,NA,NA,6,10,2,3,0.4,0.3
2026-04-22T0600,2601A,100.9801,22.7634,普洱市,市环保局,细颗粒物(PM2.5),66,71,86,43,42,62,62,NA,NA,8,11,4,5,0.9,0.9
2026-04-22T0600,2602A,100.9763,22.8237,普洱市,普洱第二中学,细颗粒物(PM2.5),68,63,80,44,44,30,30,NA,NA,29,23,6,7,0.9,0.9
2026-04-22T0600,3345A,131.0413,45.7795,七台河市,中波台,,24,10,20,6,6,74,74,NA,NA,9,11,4,4,0.4,0.4
2026-04-22T0600,3637A,131.0136,45.7688,七台河市,人民广场,,26,11,21,3,5,82,82,NA,NA,9,14,10,10,0.5,0.5
2026-04-22T0600,3684A,130.8639,45.8144,七台河市,新建矿广场,,20,9,14,3,5,64,64,NA,NA,9,9,8,8,0.1,0.2
2026-04-22T0600,1779A,123.9307,47.3641,齐齐哈尔市,安居小区,,21,21,29,3,6,51,51,NA,NA,6,2,4,5,0.4,0.4
2026-04-22T0600,1780A,123.9497,47.3389,齐齐哈尔市,中心广场,,16,11,30,3,3,50,50,NA,NA,4,2,5,5,0.2,0.2
2026-04-22T0600,1781A,123.9483,47.3229,齐齐哈尔市,农牧车辆厂,,22,22,39,3,4,58,58,NA,NA,5,3,5,4,0.4,0.4
2026-04-22T0600,1783A,123.9442,47.2994,齐齐哈尔市,市环境监测站,,25,25,46,3,5,53,53,NA,NA,7,5,3,2,0.2,0.2
2026-04-22T0600,3662A,123.6341,47.2079,齐齐哈尔市,富区青少年活动中心,,21,21,38,3,4,54,54,NA,NA,10,5,3,3,0.3,0.2
2026-04-22T0600,2591A,107.9765,26.5724,黔东南苗族侗族自治州,市环境监测站,,7,6,9,3,7,22,22,NA,NA,6,7,2,2,0.6,0.7
2026-04-22T0600,2881A,107.8909,26.531,黔东南苗族侗族自治州,凯里学院,NA,NA,NA,6,3,5,26,26,NA,NA,6,7,2,2,0.4,0.4
2026-04-22T0600,2593A,107.5223,26.2371,黔南布依族苗族自治州,小围寨,,20,14,7,14,5,11,11,NA,NA,9,7,7,5,0.3,0.3
2026-04-22T0600,3538A,107.5175,26.2977,黔南布依族苗族自治州,沙坝,,25,24,9,17,6,3,3,NA,NA,8,6,4,4,0.5,0.4
2026-04-22T0600,2589A,104.9022,25.0943,黔西南布依族苗族自治州,场坝街,细颗粒物(PM2.5),64,46,41,42,34,60,60,NA,NA,6,8,8,7,0.5,0.5
2026-04-22T0600,2590A,104.8812,25.0994,黔西南布依族苗族自治州,坪东大道,细颗粒物(PM2.5),68,58,44,44,37,55,55,NA,NA,10,11,5,4,0.6,0.6
2026-04-22T0600,2502A,108.6238,21.9667,钦州市,市环保站,,36,36,35,17,17,38,38,NA,NA,12,10,3,2,0.7,0.6
2026-04-22T0600,2503A,108.655,21.9481,钦州市,沙埠小学,,44,44,39,22,23,18,18,NA,NA,28,16,3,4,0.8,0.8
2026-04-22T0600,2504A,108.5989,21.7435,钦州市,港区一小,,46,46,45,24,26,40,40,NA,NA,12,12,3,3,0.6,0.6
2026-04-22T0600,3404A,108.5959,21.9634,钦州市,北职校,NA,NA,NA,33,NA,22,NA,NA,72,NA,NA,10,NA,1,NA,0.5
2026-04-22T0600,1046A,119.5247,39.9346,秦皇岛市,建设大厦,,49,49,120,15,22,62,62,NA,NA,15,20,8,10,0.6,0.5
2026-04-22T0600,3132A,119.5979,39.938,秦皇岛市,文明里,颗粒物(PM10),57,59,92,11,23,62,62,NA,NA,23,27,10,12,0.4,0.5
2026-04-22T0600,4066A,119.7458,39.9952,秦皇岛市,南园路157号,颗粒物(PM10),55,57,92,19,26,40,40,NA,NA,40,31,10,11,0.5,0.6
2026-04-22T0600,4067A,119.5131,39.8858,秦皇岛市,翠岛大街1号,,39,39,72,12,22,62,62,NA,NA,24,23,10,11,0.5,0.6
2026-04-22T0600,4198A,119.509013,39.825305,秦皇岛市,北戴河轮滑馆,,37,37,84,11,22,70,70,NA,NA,21,25,9,11,0.4,0.5
2026-04-22T0600,1310A,120.404,36.0625,青岛市,市南区东部子站,,31,31,83,7,27,89,89,NA,NA,11,31,5,7,0.4,0.6
2026-04-22T0600,1311A,120.362344,36.10282,青岛市,四方区子站,,30,29,78,8,22,94,94,NA,NA,11,23,5,9,0.4,0.7
2026-04-22T0600,1312A,120.294373,36.054183,青岛市,市南区西部子站,,34,34,88,9,22,76,76,NA,NA,24,36,3,5,0.5,0.8
2026-04-22T0600,1313A,120.4581,36.0858,青岛市,崂山区子站,,32,24,80,3,23,101,101,NA,NA,8,26,7,10,0.3,0.5
2026-04-22T0600,1315A,120.3945,36.3083,青岛市,城阳区子站,,36,36,78,13,21,71,71,NA,NA,20,27,6,7,0.6,0.7
2026-04-22T0600,3642A,120.3454,36.0735,青岛市,市北区南部,,43,43,87,8,24,97,97,NA,NA,7,20,2,6,0.4,0.6
2026-04-22T0600,3643A,120.3897,36.18,青岛市,李沧区北部,,28,19,85,6,19,88,88,NA,NA,13,23,7,10,0.4,0.6
2026-04-22T0600,4110A,120.5222,36.4089,青岛市,盟旺路653号,,49,49,78,14,25,74,74,NA,NA,13,18,3,5,0.7,0.7
2026-04-22T0600,4290A,120.196923,35.954556,青岛市,珠江路669号,,34,34,91,7,22,75,75,NA,NA,26,23,4,7,0.5,0.7
2026-04-22T0600,4291A,120.0424,35.8656,青岛市,黄岛区人民政府广场,NA,NA,NA,92,NA,20,NA,NA,111,NA,NA,26,NA,11,NA,0.7
2026-04-22T0600,1703A,113.0218,23.7086,清远市,凤城街办,,35,31,25,24,22,24,24,NA,NA,26,24,/,/,/,/
2026-04-22T0600,3025A,113.0479,23.6343,清远市,技师学院,,28,28,28,15,17,26,26,NA,NA,25,22,6,5,0.5,0.4
2026-04-22T0600,3318A,112.9898,23.7403,清远市,清新太和,,32,32,33,17,20,31,31,NA,NA,21,21,8,8,0.4,0.4
2026-04-22T0600,3455A,113.076,23.72,清远市,清城东城,,31,31,33,18,22,26,26,NA,NA,17,16,/,/,/,/
2026-04-22T0600,2661A,107.6325,35.7357,庆阳市,庆阳五中,,21,12,12,10,7,65,65,NA,NA,9,7,2,2,0.3,0.3
2026-04-22T0600,2662A,107.6361,35.7067,庆阳市,市环保局,,25,17,16,3,6,80,80,NA,NA,9,9,4,5,0.8,0.8
2026-04-22T0600,1916A,103.7897,25.5036,曲靖市,环境监测站,,50,46,53,35,34,98,98,NA,NA,11,9,8,7,0.5,0.5
2026-04-22T0600,1917A,103.8013,25.5357,曲靖市,烟厂办公区,,45,45,53,21,27,95,95,NA,NA,8,8,8,8,0.5,0.5
2026-04-22T0600,3376A,103.7926,25.4651,曲靖市,南苑二区,颗粒物(PM10),52,52,47,34,30,92,92,NA,NA,9,7,4,4,0.6,0.6
2026-04-22T0600,3377A,103.7442,25.5259,曲靖市,曲靖师范学院,细颗粒物(PM2.5),58,52,53,39,34,74,74,NA,NA,17,13,6,4,0.5,0.5
2026-04-22T0600,1264A,118.8694,28.94,衢州市,环保大楼,,18,18,31,12,21,43,43,NA,NA,14,17,/,/,/,/
2026-04-22T0600,1266A,118.8622,28.9809,衢州市,衢州学院,,18,17,28,12,21,34,34,NA,NA,25,23,5,6,0.4,0.4
2026-04-22T0600,4097A,118.9646,28.9832,衢州市,衢州三中,,20,20,32,12,19,34,34,NA,NA,22,20,7,7,0.3,0.4
2026-04-22T0600,1611A,118.5818,24.9116,泉州市,涂山街,细颗粒物(PM2.5),60,NA,30,40,19,32,32,NA,NA,25,14,4,3,0.7,0.7
2026-04-22T0600,1612A,118.597,24.8976,泉州市,津头埔,细颗粒物(PM2.5),66,NA,32,43,22,31,31,NA,NA,22,15,3,3,0.7,0.6
2026-04-22T0600,1613A,118.6669,24.9422,泉州市,万安,,43,NA,32,30,20,32,32,NA,NA,19,16,3,3,0.6,0.5
2026-04-22T0600,4105A,118.6355,24.9148,泉州市,霞新路6号,细颗粒物(PM2.5),52,NA,29,36,19,12,12,NA,NA,43,19,/,/,0.6,0.5
2026-04-22T0600,2626A,88.8873,29.2723,日喀则市,日喀则监测站,,34,20,31,8,9,106,106,NA,NA,2,4,7,7,0.3,0.3
2026-04-22T0600,3726A,88.8775,29.2425,日喀则市,林业技术推广中心,,32,31,30,10,4,102,102,NA,NA,3,3,6,6,0.3,0.3
2026-04-22T0600,1659A,119.4711,35.421,日照市,监测站,,36,36,83,15,25,61,61,NA,NA,22,28,7,13,0.5,0.7
2026-04-22T0600,1660A,119.523,35.4216,日照市,市政府广场,,41,41,87,8,23,98,98,NA,NA,8,25,5,12,0.4,0.8
2026-04-22T0600,1661A,119.5511,35.4113,日照市,港务局,颗粒物(PM10),51,51,100,8,25,105,105,NA,NA,9,29,4,12,0.4,0.8
2026-04-22T0600,3507A,119.5326,35.4627,日照市,职业技术学院,,34,34,69,8,24,97,97,NA,NA,11,28,6,12,0.4,0.7
2026-04-22T0600,3604A,119.3267,35.1043,日照市,岚山环保分局,,41,41,94,9,20,95,95,NA,NA,15,28,8,13,0.6,0.6
2026-04-22T0600,1835A,111.1922,34.7752,三门峡市,市政府,,23,23,22,14,10,63,63,NA,NA,14,13,11,8,0.5,0.4
2026-04-22T0600,1836A,111.1588,34.794,三门峡市,开发区,,24,24,22,12,12,63,63,NA,NA,9,12,11,10,0.5,0.5
2026-04-22T0600,3039A,111.1911,34.7829,三门峡市,三门峡市第一小学,,23,23,21,14,10,62,62,NA,NA,10,9,15,11,0.3,0.3
2026-04-22T0600,3598A,111.1031,34.719,三门峡市,富达温泉假日酒店,,26,26,26,12,15,72,72,NA,NA,8,9,16,12,0.5,0.5
2026-04-22T0600,2324A,117.621,26.2626,三明市,三钢,,26,24,29,18,21,19,19,NA,NA,16,14,6,5,0.6,0.8
2026-04-22T0600,2325A,117.6352,26.2714,三明市,三明二中,,24,24,28,16,21,20,20,NA,NA,12,12,1,1,0.7,0.6
2026-04-22T0600,2326A,117.6028,26.2377,三明市,三元区政府,,39,39,33,27,25,3,3,NA,NA,14,13,3,4,1.3,0.9
2026-04-22T0600,1877A,109.4962,18.2682,三亚市,河西子站,,23,21,24,16,16,38,38,NA,NA,7,4,4,5,0.5,0.4
2026-04-22T0600,3540A,109.7348,18.3443,三亚市,君悦子站,,25,22,27,17,14,20,20,NA,NA,10,6,3,4,0.6,0.6
2026-04-22T0600,4135A,109.1714,18.3739,三亚市,城东小学站,,30,30,25,18,16,37,37,NA,NA,8,4,/,/,/,/
2026-04-22T0600,2624A,91.7592,29.234,山南市,山南监测站,,35,10,15,3,2,112,112,NA,NA,1,5,8,8,0.2,0.2
2026-04-22T0600,2625A,91.7701,29.2436,山南市,山南人民医院,,34,12,20,3,6,108,108,NA,NA,1,4,8,9,0.2,0.2
2026-04-22T0600,1674A,116.6795,23.3666,汕头市,金平子站,,25,25,22,14,15,71,71,NA,NA,6,7,4,4,0.6,0.7
2026-04-22T0600,1675A,116.7248,23.3632,汕头市,龙湖子站,,22,19,22,14,15,68,68,NA,NA,3,4,5,5,/,/
2026-04-22T0600,1676A,116.7257,23.2774,汕头市,濠江子站,,26,26,25,15,15,49,49,NA,NA,13,9,7,7,/,/
2026-04-22T0600,1677A,116.7518,23.4712,汕头市,澄海子站,,48,48,28,25,17,62,62,NA,NA,9,9,7,6,0.8,0.8
2026-04-22T0600,1678A,116.6088,23.2539,汕头市,潮阳子站,,29,21,21,20,16,50,50,NA,NA,7,4,6,6,0.6,0.6
2026-04-22T0600,3444A,116.4539,23.2684,汕头市,潮南峡山,,37,37,25,23,17,46,46,NA,NA,9,7,6,6,0.8,0.8
2026-04-22T0600,3624A,116.4069,23.2533,汕头市,潮南子站,,40,38,28,28,21,44,44,NA,NA,8,8,5,5,/,/
2026-04-22T0600,1693A,115.3653,22.7751,汕尾市,市环保局,,35,34,27,24,19,56,56,NA,NA,4,5,4,5,0.6,0.7
2026-04-22T0600,1695A,115.362,22.7926,汕尾市,新城中学,,36,27,22,25,18,51,51,NA,NA,5,7,6,6,0.6,0.6
2026-04-22T0600,2645A,109.9155,33.8714,商洛市,监测站,,14,11,12,3,4,44,44,NA,NA,8,11,5,5,0.4,0.4
2026-04-22T0600,3045A,109.9647,33.8486,商洛市,商州区中学,,14,8,11,3,4,44,44,NA,NA,10,16,3,2,0.5,0.5
2026-04-22T0600,2408A,115.6701,34.4283,商丘市,环境监测站,,43,32,60,30,27,47,47,NA,NA,8,16,2,3,0.3,0.4
2026-04-22T0600,2409A,115.6458,34.4047,商丘市,粮食局,,42,30,59,29,25,52,52,NA,NA,10,16,3,4,0.4,0.4
2026-04-22T0600,3171A,115.6069,34.4465,商丘市,梁园区档案局,,43,32,57,30,25,47,47,NA,NA,14,21,4,5,0.2,0.3
2026-04-22T0600,4119A,115.6701,34.3767,商丘市,北海东路185号,颗粒物(PM10),56,58,70,34,25,59,59,NA,NA,11,16,4,5,0.4,0.5
2026-04-22T0600,4120A,115.6172,34.3704,商丘市,中山大街3号,颗粒物(PM10),81,93,81,35,24,53,53,NA,NA,8,13,6,7,0.4,0.3
2026-04-22T0600,1141A,121.401,31.2382,上海市,普陀,,24,13,90,9,20,74,74,NA,NA,14,19,5,5,0.3,0.3
2026-04-22T0600,1142A,121.4774,31.2043,上海市,十五厂,,20,18,95,11,23,64,64,NA,NA,13,17,4,5,0.5,0.5
2026-04-22T0600,1143A,121.4673,31.3011,上海市,虹口,,21,13,94,10,20,67,67,NA,NA,10,15,3,4,0.6,0.5
2026-04-22T0600,1147A,121.4253,31.226,上海市,静安监测站,,23,15,91,11,20,71,71,NA,NA,16,20,8,8,0.6,0.5
2026-04-22T0600,1148A,121.7029,31.1905,上海市,浦东川沙,,27,27,104,15,23,66,66,NA,NA,18,20,7,8,0.6,0.6
2026-04-22T0600,1149A,121.5339,31.229,上海市,浦东新区监测站,,21,21,92,12,20,63,63,NA,NA,15,17,5,6,0.3,0.3
2026-04-22T0600,1150A,121.5776,31.2038,上海市,浦东张江,,23,23,98,14,23,68,68,NA,NA,17,18,6,6,0.1,0.1
2026-04-22T0600,3265A,121.4242,31.3303,上海市,宝山庙行,,23,13,91,3,19,72,72,NA,NA,10,19,6,7,0.3,0.3
2026-04-22T0600,3266A,121.8789,31.4662,上海市,崇明上实东滩,,27,14,92,8,23,84,84,NA,NA,9,9,5,6,0.2,0.2
2026-04-22T0600,3268A,121.316,31.2839,上海市,嘉定南翔,,16,16,83,11,20,49,49,NA,NA,16,16,6,5,0.3,0.3
2026-04-22T0600,3269A,121.3357,30.7455,上海市,金山新城,,25,19,91,12,23,79,79,NA,NA,3,9,3,4,0.6,0.6
2026-04-22T0600,3270A,121.4996,31.0741,上海市,闵行浦江,,22,21,98,11,23,68,68,NA,NA,12,18,6,6,0.2,0.2
2026-04-22T0600,3271A,121.2886,31.1663,上海市,青浦徐泾,,21,20,88,11,21,66,66,NA,NA,9,15,4,5,0.4,0.4
2026-04-22T0600,3272A,121.2193,31.0382,上海市,松江图书馆,,28,28,89,18,23,56,56,NA,NA,12,10,6,7,0.6,0.5
2026-04-22T0600,3273A,121.3904,31.206,上海市,长宁仙霞,,22,14,91,7,20,68,68,NA,NA,10,18,5,6,0.2,0.2
2026-04-22T0600,3274A,121.7964,31.0507,上海市,浦东惠南,,26,26,98,12,21,76,76,NA,NA,14,18,6,6,0.5,0.4
2026-04-22T0600,3544A,121.4891,30.925,上海市,奉贤南桥新城,,30,30,116,13,25,71,71,NA,NA,9,12,3,3,0.4,0.4
2026-04-22T0600,4183A,121.417401,31.16637,上海市,冠生园路458号,,19,18,88,11,24,60,60,NA,NA,11,18,9,9,0.4,0.2
2026-04-22T0600,4205A,121.541914,31.268301,上海市,宁武路151号,,21,21,107,12,24,60,60,NA,NA,22,29,6,6,0.3,0.3
2026-04-22T0600,2382A,117.9758,28.4439,上饶市,市监测站,,18,18,37,11,28,27,27,NA,NA,16,18,6,6,/,/
2026-04-22T0600,2383A,117.9521,28.4637,上饶市,凤凰光学,,23,23,37,12,29,30,30,NA,NA,24,22,8,6,0.6,0.6
2026-04-22T0600,3685A,117.897,28.4316,上饶市,双创科技城,,21,21,36,9,25,42,42,NA,NA,13,13,6,7,0.6,0.5
2026-04-22T0600,4211A,118.190438,28.444845,上饶市,裕丰大道,,15,13,38,3,23,47,47,NA,NA,11,14,11,12,0.6,0.7
2026-04-22T0600,1669A,113.5821,24.7733,韶关市,市八中,,24,24,38,15,24,55,55,NA,NA,13,20,31,18,0.9,0.5
2026-04-22T0600,1671A,113.5916,24.7973,韶关市,园林处,,20,20,31,14,24,44,44,NA,NA,12,20,11,12,/,/
2026-04-22T0600,1673A,113.5971,24.6864,韶关市,曲江监测站,,29,26,33,20,22,39,39,NA,NA,15,18,9,8,0.4,0.6
2026-04-22T0600,2809A,113.6668,24.7756,韶关市,大学路288号,,24,24,37,15,25,46,46,NA,NA,10,15,6,9,/,/
2026-04-22T0600,3622A,113.5556,24.8082,韶关市,碧湖山庄,,23,23,33,13,22,48,48,NA,NA,11,16,6,8,0.4,0.5
2026-04-22T0600,2464A,111.5277,27.2442,邵阳市,市化工厂,NA,NA,6,16,6,15,37,37,NA,NA,NA,11,2,5,0.6,0.6
2026-04-22T0600,2466A,111.4327,27.2276,邵阳市,市环保局,,16,NA,12,3,14,49,49,NA,NA,6,8,5,5,0.7,0.7
2026-04-22T0600,4218A,111.446,27.2472,邵阳市,北塔二期4-26地块,,13,6,12,3,7,40,40,NA,NA,7,9,6,7,0.5,0.6
2026-04-22T0600,4219A,111.4739,27.2282,邵阳市,邵水西路287号,,15,NA,14,3,13,48,48,NA,NA,8,9,6,7,0.3,0.4
2026-04-22T0600,1247A,120.6053,29.9927,绍兴市,城东开发委,,14,14,33,6,13,32,32,NA,NA,16,15,7,7,0.6,0.6
2026-04-22T0600,2921A,120.5482,30.0003,绍兴市,树下王站,,13,9,25,3,16,39,39,NA,NA,13,17,7,7,0.4,0.3
2026-04-22T0600,3408A,120.5685,29.936,绍兴市,绍兴中专,,13,9,27,3,13,41,41,NA,NA,8,11,8,8,0.8,0.8
2026-04-22T0600,3409A,120.4905,30.086,绍兴市,柯桥区政府,,19,18,32,13,18,28,28,NA,NA,19,18,6,6,0.3,0.3
2026-04-22T0600,3410A,120.8751,30.0249,绍兴市,重华小学,,20,20,35,12,18,40,40,NA,NA,13,19,5,6,0.1,0.2
2026-04-22T0600,3411A,120.837,30.0137,绍兴市,上虞中学,,19,19,30,13,18,41,41,NA,NA,13,15,6,6,0.4,0.4
2026-04-22T0600,3560A,120.4715,30.0414,绍兴市,柯桥妇保,,15,15,35,8,16,30,30,NA,NA,18,17,5,5,0.4,0.4
2026-04-22T0600,3658A,120.6156,30.0762,绍兴市,袍江中学,,26,26,39,15,18,26,26,NA,NA,30,21,5,5,0.3,0.2
2026-04-22T0600,1356A,114.0948,22.5506,深圳市,通心岭子站,,21,21,20,14,14,22,22,NA,NA,13,14,4,6,0.5,0.5
2026-04-22T0600,1357A,114.1153,22.5713,深圳市,洪湖,,25,22,22,17,14,42,42,NA,NA,4,8,6,5,0.4,0.4
2026-04-22T0600,1358A,113.9823,22.5398,深圳市,华侨城,,20,19,20,14,15,58,58,NA,NA,5,12,/,/,/,/
2026-04-22T0600,1359A,113.9181,22.517,深圳市,南海子站,,25,22,23,17,16,61,61,NA,NA,2,8,4,4,0.5,0.5
2026-04-22T0600,1360A,114.2345,22.565,深圳市,盐田,,19,19,20,12,12,39,39,NA,NA,3,15,4,5,0.5,0.5
2026-04-22T0600,1363A,114.4911,22.5381,深圳市,南澳,,31,31,21,10,10,23,23,NA,NA,9,9,/,/,/,/
2026-04-22T0600,1364A,114.41,22.6346,深圳市,葵涌,,17,17,17,11,11,53,53,NA,NA,7,8,6,5,0.7,0.7
2026-04-22T0600,1365A,114.2967,22.5978,深圳市,梅沙,,19,19,20,12,10,16,16,NA,NA,30,10,/,/,/,/
2026-04-22T0600,1366A,114.0563,22.7353,深圳市,观澜,,36,36,32,23,19,33,33,NA,NA,21,23,5,5,0.4,0.4
2026-04-22T0600,3305A,114.0614,22.556,深圳市,莲花,,22,20,21,15,16,23,23,NA,NA,12,12,/,/,/,/
2026-04-22T0600,3306A,114.0144,22.6163,深圳市,民治,,22,20,21,15,14,34,34,NA,NA,23,16,/,/,/,/
2026-04-22T0600,3307A,114.1756,22.6421,深圳市,横岗,,26,21,21,18,16,18,18,NA,NA,35,22,/,/,/,/
2026-04-22T0600,3447A,114.344,22.7115,深圳市,坪山,,19,16,17,13,12,51,51,NA,NA,6,8,5,5,0.4,0.5
2026-04-22T0600,3623A,113.8952,22.586,深圳市,西乡,,23,23,23,15,15,45,45,NA,NA,20,16,3,3,0.4,0.4
2026-04-22T0600,4220A,114.214113,22.713717,深圳市,黄阁路,,23,23,21,13,13,36,36,NA,NA,20,16,5,5,0.8,0.8
2026-04-22T0600,1099A,123.5058,41.7084,沈阳市,浑南东路,"颗粒物(PM10),细颗粒物(PM2.5)",96,114,110,58,37,47,47,NA,NA,33,24,10,15,0.7,0.8
2026-04-22T0600,1100A,123.4238,41.6992,沈阳市,新秀街,细颗粒物(PM2.5),101,110,98,61,40,26,26,NA,NA,49,23,8,15,0.8,0.8
2026-04-22T0600,1102A,123.5903,41.8412,沈阳市,东陵路,细颗粒物(PM2.5),90,81,90,55,30,28,28,NA,NA,33,20,6,12,0.7,0.7
2026-04-22T0600,1103A,123.4267,41.8466,沈阳市,陵东街,颗粒物(PM10),80,91,101,44,35,17,17,NA,NA,55,24,8,9,0.7,0.8
2026-04-22T0600,1104A,123.4116,41.7654,沈阳市,文化路,颗粒物(PM10),88,102,110,46,35,57,57,NA,NA,27,21,5,9,0.9,0.9
2026-04-22T0600,1105A,123.4673,41.787,沈阳市,小河沿,颗粒物(PM10),80,91,99,42,32,46,46,NA,NA,33,20,5,6,0.5,0.6
2026-04-22T0600,1106A,123.4019,41.7978,沈阳市,太原街,颗粒物(PM10),85,99,104,46,35,42,42,NA,NA,36,21,6,8,0.5,0.6
