timepoint,stationcode,longitude,latitude,area,positionname,primarypollutant,aqi,pm10,pm10_24h,pm2_5,pm2_5_24h,o3,o3_24h,o3_8h,o3_8h_24h,no2,no2_24h,so2,so2_24h,co,co_24h
2026-04-22T2300,2568A,102.2503,31.8896,阿坝藏族羌族自治州,马师校,,41,41,25,14,8,64,64,109,89,6,5,6,6,0.2,0.2
2026-04-22T2300,3994A,102.2174,31.9016,阿坝藏族羌族自治州,马尔康中学西区,,41,41,27,16,9,68,68,105,90,7,5,5,4,0.3,0.3
2026-04-22T2300,2695A,80.2899,41.1684,阿克苏地区,电视台,细颗粒物(PM2.5),207,271,215,157,102,68,68,121,113,36,24,3,3,1.1,1
2026-04-22T2300,2696A,80.2592,41.1541,阿克苏地区,艺术中心,细颗粒物(PM2.5),225,242,190,175,116,44,44,124,110,63,34,5,4,1.1,0.7
2026-04-22T2300,2205A,105.699,38.8409,阿拉善盟,蒙二幼,颗粒物(PM10),74,83,71,22,17,93,93,112,102,5,6,8,10,0.3,0.4
2026-04-22T2300,2206A,105.7198,38.8508,阿拉善盟,环保局新楼,颗粒物(PM10),74,83,72,24,18,96,96,105,99,3,6,8,10,0.5,0.6
2026-04-22T2300,2708A,88.1266,47.8515,阿勒泰地区,市站,颗粒物(PM10),58,61,26,10,4,85,85,116,104,14,7,6,5,0.1,0.1
2026-04-22T2300,4166A,88.1198,47.7931,阿勒泰地区,阿勒泰路33号,颗粒物(PM10),65,70,29,14,3,79,79,113,108,18,6,6,6,0.3,0.2
2026-04-22T2300,2630A,80.1171,32.4999,阿里地区,阿里监测站,,30,16,16,3,4,96,96,121,117,16,7,9,6,0.5,0.4
2026-04-22T2300,3192A,80.0906,32.5029,阿里地区,阿里藏医院,,36,9,13,3,4,115,115,123,120,1,5,5,7,0.3,0.4
2026-04-22T2300,2644A,109.0088,32.6974,安康市,汉滨区检察院,,15,15,16,3,8,19,19,64,52,16,10,6,6,0.4,0.4
2026-04-22T2300,4054A,109.0324,32.6913,安康市,市邮政管理局,,18,18,18,6,8,27,27,67,54,12,9,6,5,0.5,0.5
2026-04-22T2300,2291A,117.0806,30.5181,安庆市,环科院,,17,6,6,3,1,54,54,60,58,10,10,5,5,0.4,0.4
2026-04-22T2300,2292A,117.0331,30.5118,安庆市,马山宾馆,,16,7,7,3,1,50,50,56,55,12,10,4,4,0.3,0.4
2026-04-22T2300,2294A,116.9897,30.6146,安庆市,安庆大学,,15,9,5,3,1,46,46,56,54,10,9,3,3,0.4,0.4
2026-04-22T2300,3173A,117.0598,30.5351,安庆市,市人大,,16,6,6,3,1,49,49,56,54,11,10,3,3,0.4,0.5
2026-04-22T2300,3123A,105.9408,26.2431,安顺市,凤凰山,,21,15,13,8,11,66,66,71,68,8,10,8,9,0.5,0.5
2026-04-22T2300,3124A,105.9443,26.2567,安顺市,金钟山,,20,NA,13,13,12,61,61,65,62,7,8,8,7,0.4,0.5
2026-04-22T2300,3125A,105.8983,26.248,安顺市,娄家坡,,26,20,18,18,14,64,64,67,64,7,9,4,5,0.4,0.5
2026-04-22T2300,1819A,114.3552,36.1017,安阳市,红庙街,,46,42,25,32,19,62,62,98,85,16,12,3,2,0.3,0.3
2026-04-22T2300,1820A,114.361,36.0681,安阳市,银杏小区,,42,38,31,29,21,70,70,100,89,15,13,4,4,0.3,0.3
2026-04-22T2300,3141A,114.3921,36.0879,安阳市,信访局,,43,34,25,30,24,81,81,105,99,14,9,2,2,0.4,0.3
2026-04-22T2300,3669A,114.4706,36.0634,安阳市,左辅环卫站,颗粒物(PM10),60,63,32,34,18,58,58,98,86,24,11,3,3,0.3,0.3
2026-04-22T2300,4117A,114.2918,36.0769,安阳市,钢三路198号,,42,38,31,29,18,59,59,97,76,14,10,2,2,0.3,0.3
2026-04-22T2300,1748A,123.0441,41.1201,鞍山市,深沟寺,,50,50,71,17,27,43,43,100,79,37,20,10,12,0.5,0.7
2026-04-22T2300,1749A,123.011,41.0931,鞍山市,太阳城,,45,45,69,17,28,58,58,102,89,27,16,9,11,0.5,0.7
2026-04-22T2300,1750A,123.0483,41.1445,鞍山市,太平,颗粒物(PM10),63,67,87,27,35,43,43,104,84,42,18,9,10,0.7,0.8
2026-04-22T2300,1751A,122.964,41.0968,鞍山市,铁西三道街,,45,45,73,17,29,61,61,95,85,29,20,8,12,0.5,0.9
2026-04-22T2300,1753A,123.0219,41.0822,鞍山市,明达新区,,42,42,68,14,25,58,58,99,85,26,17,9,12,0.6,0.8
2026-04-22T2300,4201A,122.944647,41.082639,鞍山市,兴盛南路290号,颗粒物(PM10),53,54,73,19,32,54,54,102,90,41,22,7,11,0.4,0.7
2026-04-22T2300,2195A,107.4206,40.7609,巴彦淖尔市,附二中,颗粒物(PM10),109,142,103,45,30,3,3,111,80,72,18,10,14,0.8,0.4
2026-04-22T2300,2196A,107.37,40.7372,巴彦淖尔市,市环保大楼,颗粒物(PM10),90,105,84,39,33,38,38,114,91,29,18,6,7,0.4,0.4
2026-04-22T2300,1956A,86.1476,41.7529,巴音郭楞蒙古自治州,孔雀公园,颗粒物(PM10),119,169,119,73,48,68,68,113,102,26,33,11,11,0.5,0.5
2026-04-22T2300,1957A,86.1971,41.7166,巴音郭楞蒙古自治州,棉纺厂,颗粒物(PM10),162,274,173,103,60,66,66,119,107,23,23,/,/,/,/
2026-04-22T2300,1958A,86.236,41.7172,巴音郭楞蒙古自治州,经济开发区,颗粒物(PM10),141,225,141,99,59,68,68,105,97,16,16,9,8,0.4,0.4
2026-04-22T2300,3181A,106.776805,31.852614,巴中市,市五中,,16,16,12,10,6,27,27,69,55,16,12,8,9,0.6,0.6
2026-04-22T2300,3183A,106.7419,31.8654,巴中市,圣泉水务公司,,29,29,14,12,5,2,2,71,49,44,17,9,9,0.9,0.8
2026-04-22T2300,3616A,106.7617,31.8343,巴中市,市中心医院,,26,26,14,11,6,15,15,70,53,23,12,9,9,0.7,0.6
2026-04-22T2300,2235A,122.7909,45.608,白城市,洮北区环保局,,49,49,26,32,11,33,33,102,69,51,17,6,5,0.5,0.3
2026-04-22T2300,2236A,122.8741,45.5725,白城市,市环保局,颗粒物(PM10),55,56,23,26,8,2,2,99,72,72,19,10,5,0.4,0.1
2026-04-22T2300,2231A,126.4219,41.9172,白山市,喜丰,颗粒物(PM10),56,58,62,28,15,50,50,105,87,30,15,10,8,0.8,0.8
2026-04-22T2300,2232A,126.4082,41.9416,白山市,环保局,,35,35,38,20,11,58,58,107,90,14,10,9,9,0.6,0.6
2026-04-22T2300,2647A,104.1727,36.5448,白银市,第三小学,颗粒物(PM10),99,118,76,54,28,26,26,101,83,57,21,8,20,0.6,0.6
2026-04-22T2300,2648A,104.1467,36.5482,白银市,动力公司,颗粒物(PM10),94,111,72,43,29,14,14,104,80,60,21,7,16,0.3,0.3
2026-04-22T2300,2512A,106.6102,23.901,百色市,市监测站,,18,17,36,12,27,29,29,52,38,11,14,10,13,0.8,0.8
2026-04-22T2300,2513A,106.6524,23.8842,百色市,市中心血站,,16,16,37,11,24,22,22,61,38,22,15,8,11,0.5,0.6
2026-04-22T2300,4133A,106.6273,23.8798,百色市,龙景西路,,27,27,45,16,27,25,25,61,38,16,14,10,15,0.7,0.8
2026-04-22T2300,2270A,117.396,32.9389,蚌埠市,工人疗养院,,25,20,19,3,8,77,77,73,73,7,10,3,3,0.1,0.2
2026-04-22T2300,2271A,117.3606,32.9428,蚌埠市,百货大楼,,25,10,13,3,8,79,79,72,72,6,8,4,4,0.2,0.3
2026-04-22T2300,2273A,117.4183,32.8909,蚌埠市,蚌埠学院,,24,6,9,3,7,74,74,68,67,9,10,4,4,0.3,0.3
2026-04-22T2300,2274A,117.3534,32.9672,蚌埠市,淮上区政府,,26,12,16,3,8,81,81,76,76,10,13,3,4,0.1,0.1
2026-04-22T2300,2275A,117.3143,32.8977,蚌埠市,高新区,,25,7,9,3,8,79,79,72,72,5,9,6,6,0.3,0.3
2026-04-22T2300,3715A,117.3091,32.9314,蚌埠市,蚌埠田家炳中学,,25,19,18,3,9,79,79,74,74,9,12,4,4,0.2,0.2
2026-04-22T2300,1585A,109.8761,40.6533,包头市,市环境监测站,颗粒物(PM10),68,74,67,38,25,8,8,137,99,93,38,6,11,0.6,0.6
2026-04-22T2300,1587A,109.9992,40.5843,包头市,包头八中,细颗粒物(PM2.5),113,132,72,74,43,9,9,125,85,88,37,6,9,0.7,0.6
2026-04-22T2300,1589A,109.8641,40.6288,包头市,惠龙物流,"颗粒物(PM10),细颗粒物(PM2.5)",70,77,65,45,28,24,24,130,102,79,38,7,13,0.7,0.6
2026-04-22T2300,1590A,110.0376,40.5546,包头市,东河鸿龙湾,颗粒物(PM10),80,92,67,47,33,12,12,136,103,106,54,12,15,0.9,0.5
2026-04-22T2300,3283A,109.9154,40.5684,包头市,滨河大厦,颗粒物(PM10),74,83,66,33,33,25,25,132,102,68,43,10,12,0.6,0.5
2026-04-22T2300,3419A,109.9449,40.6259,包头市,包头市委党校,颗粒物(PM10),68,74,53,22,30,26,26,135,100,78,41,6,10,0.4,0.4
2026-04-22T2300,3683A,109.8332,40.6577,包头市,昆区政府,颗粒物(PM10),70,77,57,32,24,21,21,133,102,97,29,2,10,0.8,0.6
2026-04-22T2300,1931A,107.0802,34.3129,宝鸡市,竹园沟,,22,22,22,3,6,63,63,108,87,12,8,6,7,0.4,0.5
2026-04-22T2300,1933A,107.1429,34.3549,宝鸡市,监测站,,28,28,27,16,12,48,48,118,97,21,9,5,5,0.4,0.6
2026-04-22T2300,1934A,107.1172,34.3759,宝鸡市,技工学校,,31,31,31,18,13,58,58,117,98,10,8,3,3,0.4,0.3
2026-04-22T2300,1936A,107.2025,34.3518,宝鸡市,文理学院,,39,39,24,16,12,59,59,113,94,24,15,5,5,0.4,0.4
2026-04-22T2300,1937A,107.2396,34.3626,宝鸡市,三迪小学,NA,NA,42,31,20,14,48,48,120,99,30,20,NA,5,0.4,0.4
2026-04-22T2300,4155A,107.1721,34.3558,宝鸡市,滨河北路,,44,44,25,19,12,55,55,109,91,20,14,6,6,0.5,0.5
2026-04-22T2300,4308A,107.3898,34.3601,宝鸡市,陈仓区北开路21号,颗粒物(PM10),59,62,29,27,16,35,35,109,85,34,18,7,7,0.4,0.3
2026-04-22T2300,1051A,115.4803,38.8568,保定市,游泳馆,颗粒物(PM10),55,56,56,27,27,76,76,133,120,24,18,3,4,0.2,0.3
2026-04-22T2300,1052A,115.509,38.8895,保定市,华电二区,,50,50,50,15,26,78,78,130,118,16,15,3,5,0.3,0.4
2026-04-22T2300,1053A,115.4588,38.9037,保定市,接待中心,颗粒物(PM10),56,58,61,30,29,82,82,132,123,13,14,2,4,0.3,0.4
2026-04-22T2300,1054A,115.4484,38.8344,保定市,地表水厂,颗粒物(PM10),65,71,70,30,26,59,59,132,116,32,18,3,5,0.2,0.4
2026-04-22T2300,3581A,115.3136,38.9511,保定市,满城区生态环境分局,颗粒物(PM10),101,122,79,57,25,85,85,141,131,27,17,3,4,0.5,0.4
2026-04-22T2300,3582A,115.4709,38.7628,保定市,清苑区第二中学,颗粒物(PM10),64,69,67,13,26,53,53,130,108,34,20,4,6,0.3,0.5
2026-04-22T2300,3583A,115.6231,39.0223,保定市,徐水物探局,颗粒物(PM10),95,112,79,51,30,51,51,131,114,44,20,3,4,0.5,0.5
2026-04-22T2300,4004A,115.4199,38.8665,保定市,双鹰农机,"颗粒物(PM10),细颗粒物(PM2.5)",64,69,66,42,31,69,69,138,124,25,19,2,5,0.4,0.4
2026-04-22T2300,4034A,115.515,38.8589,保定市,植保所站,颗粒物(PM10),105,131,81,26,24,76,76,130,115,21,18,4,5,0.3,0.5
2026-04-22T2300,2594A,99.1589,25.1137,保山市,市环境监测站,颗粒物(PM10),53,54,54,33,37,108,108,136,119,8,9,6,6,0.4,0.4
2026-04-22T2300,2595A,99.1616,25.1381,保山市,市环保局,颗粒物(PM10),57,59,59,36,40,116,116,136,124,4,6,7,7,0.4,0.4
2026-04-22T2300,1867A,109.1435,21.4085,北海市,海滩公园,,43,39,46,30,29,70,70,88,85,10,7,6,7,0.8,0.7
2026-04-22T2300,1868A,109.0983,21.466,北海市,新市环保局,,29,29,34,20,21,75,75,80,78,7,11,7,8,0.3,0.4
2026-04-22T2300,1869A,109.1775,21.5232,北海市,北海工业园,NA,NA,37,48,24,28,NA,NA,86,NA,20,15,5,9,0.7,0.5
2026-04-22T2300,3400A,109.1844,21.4396,北海市,龙潭自来水厂,,43,41,37,30,25,52,52,80,72,13,14,10,8,0.9,0.9
2026-04-22T2300,1001A,116.3611,39.8786,北京市,万寿西宫,细颗粒物(PM2.5),84,96,75,52,33,100,100,138,132,26,23,5,5,0.7,0.5
2026-04-22T2300,1003A,116.4174,39.9289,北京市,东四,颗粒物(PM10),87,101,75,52,33,108,108,144,140,23,20,5,4,0.7,0.6
2026-04-22T2300,1004A,116.4073,39.8858,北京市,天坛,颗粒物(PM10),78,89,67,45,27,93,93,132,123,29,23,5,5,0.6,0.4
2026-04-22T2300,1005A,116.4622,39.9364,北京市,农展馆,颗粒物(PM10),80,92,73,44,31,104,104,139,135,24,20,5,5,0.7,0.5
2026-04-22T2300,1006A,116.3399,39.9293,北京市,官园,颗粒物(PM10),90,106,78,49,31,107,107,132,130,26,26,4,4,0.6,0.4
2026-04-22T2300,1007A,116.2879,39.9613,北京市,海淀万柳,颗粒物(PM10),109,141,86,53,38,93,93,116,113,28,27,6,6,0.7,0.5
2026-04-22T2300,1008A,116.6635,40.1349,北京市,顺义新城,颗粒物(PM10),60,64,73,26,22,74,74,121,108,25,18,2,2,0.6,0.5
2026-04-22T2300,1009A,116.6275,40.327,北京市,怀柔镇,颗粒物(PM10),53,54,79,24,30,81,81,124,117,22,17,5,6,0.6,0.6
2026-04-22T2300,1010A,116.2295,40.217,北京市,昌平镇,颗粒物(PM10),78,88,82,43,36,91,91,132,122,34,26,4,4,0.6,0.5
2026-04-22T2300,1011A,116.3968,39.982,北京市,奥体中心,颗粒物(PM10),92,108,76,47,32,98,98,124,122,24,24,5,5,0.8,0.6
2026-04-22T2300,3418A,116.8336,40.4095,北京市,密云新城,,39,39,79,17,31,85,85,118,109,12,14,5,4,0.5,0.4
2026-04-22T2300,3671A,116.0879,39.9725,北京市,门头沟三家店,颗粒物(PM10),88,103,88,49,42,67,67,128,116,29,24,3,3,0.5,0.5
2026-04-22T2300,3672A,116.1507,39.8246,北京市,丰台云岗,颗粒物(PM10),90,105,78,44,33,70,70,130,117,31,24,3,3,0.7,0.5
2026-04-22T2300,3674A,115.9578,39.7602,北京市,房山燕山,细颗粒物(PM2.5),74,76,83,47,40,96,96,125,116,15,19,4,4,0.7,0.7
2026-04-22T2300,3675A,116.4669,39.7734,北京市,大兴旧宫,颗粒物(PM10),66,72,75,37,33,101,101,141,133,24,18,3,2,0.5,0.5
2026-04-22T2300,3694A,115.9859,40.4562,北京市,延庆石河营,颗粒物(PM10),82,94,71,50,32,119,119,131,131,16,20,2,2,0.3,0.2
2026-04-22T2300,3695A,116.6151,40.3052,北京市,怀柔新城,颗粒物(PM10),53,53,90,11,28,74,74,117,105,26,18,4,6,0.6,0.7
2026-04-22T2300,3696A,116.2542,39.8764,北京市,丰台小屯,颗粒物(PM10),99,118,77,48,31,76,76,122,114,34,25,4,4,0.8,0.5
2026-04-22T2300,3697A,116.8399,40.3843,北京市,密云镇,,41,41,74,9,24,97,97,123,118,14,20,7,6,0.5,0.5
2026-04-22T2300,4057A,115.9423,40.4431,北京市,延庆百泉,颗粒物(PM10),66,72,73,33,32,86,86,135,130,18,21,3,2,0.6,0.5
2026-04-22T2300,4058A,116.6598,39.9164,北京市,通州新华,颗粒物(PM10),58,60,61,24,25,62,62,124,113,32,24,4,5,0.6,0.5
2026-04-22T2300,4182A,116.1942,39.9158,北京市,石景山八角,颗粒物(PM10),101,121,83,51,33,73,73,125,117,44,29,3,2,0.7,0.5
2026-04-22T2300,4194A,117.078628,40.151726,北京市,平谷新城,,49,49,62,21,30,98,98,124,117,15,17,6,3,0.7,0.4
2026-04-22T2300,1761A,123.8274146,41.31234549,本溪市,大峪,,35,35,54,17,20,58,58,104,88,14,10,6,8,0.6,0.8
2026-04-22T2300,1763A,123.7169,41.3094,本溪市,彩屯,,41,41,66,14,25,51,51,106,79,20,17,8,11,0.6,0.6
2026-04-22T2300,1764A,123.7672166,41.28649327,本溪市,东明,,40,40,61,14,23,40,40,101,82,37,21,3,7,0.5,0.8
2026-04-22T2300,1765A,123.799345,41.266614,本溪市,新立屯,,27,27,53,10,20,34,34,104,72,37,22,7,9,0.4,0.7
2026-04-22T2300,1766A,123.829144,41.336777,本溪市,威宁,颗粒物(PM10),52,52,62,19,23,30,30,102,71,36,20,6,8,0.6,0.6
2026-04-22T2300,2587A,105.287,27.3133,毕节市,八中,,27,27,14,16,7,85,85,78,77,4,5,7,7,0.5,0.5
2026-04-22T2300,2588A,105.3079,27.2987,毕节市,师专,,28,22,12,19,7,75,75,70,69,5,5,9,9,0.4,0.4
2026-04-22T2300,4263A,105.3688,27.3598,毕节市,工业大道,,25,24,12,17,6,79,79,80,79,5,4,10,10,/,/
2026-04-22T2300,1629A,117.9961,37.3604,滨州市,第二水厂,颗粒物(PM10),60,63,50,25,21,56,56,123,96,38,20,6,8,0.5,0.5
2026-04-22T2300,1630A,117.9789,37.3931,滨州市,北中新校,,48,48,47,25,23,78,78,131,113,28,18,6,6,0.4,0.3
2026-04-22T2300,3514A,117.9379,37.3959,滨州市,中海酒店,,44,44,44,19,25,86,86,140,122,29,23,9,12,0.6,0.6
2026-04-22T2300,3515A,117.9381509,37.35547456,滨州市,开发区一中,颗粒物(PM10),60,63,56,22,26,61,61,125,100,38,23,11,12,0.7,0.7
2026-04-22T2300,3516A,118.0914,37.6938,滨州市,金海六路,,41,41,45,13,26,83,83,142,117,21,19,7,10,0.7,0.7
2026-04-22T2300,4028A,117.9955,37.3752,滨州市,滨州市西街道办事处,颗粒物(PM10),55,56,49,26,23,70,70,128,102,28,18,5,7,0.4,0.4
2026-04-22T2300,2311A,115.8071,33.8399,亳州市,污水处理厂,NA,NA,46,38,27,19,50,50,82,73,14,12,NA,4,0.2,0.1
2026-04-22T2300,2312A,115.7789,33.8519,亳州市,三国揽胜宫,,35,35,38,22,20,55,55,75,68,12,8,7,8,0.3,0.3
2026-04-22T2300,3332A,115.7631,33.803,亳州市,亳州学院,,44,44,39,24,22,62,62,78,71,10,9,6,6,0.4,0.3
2026-04-22T2300,2693A,82.0482,44.8553,博尔塔拉蒙古自治州,市党校,NA,NA,NA,58,NA,8,94,94,136,132,16,5,3,3,0.4,0.5
2026-04-22T2300,2694A,82.0805,44.8966,博尔塔拉蒙古自治州,市环保局,颗粒物(PM10),79,90,58,24,8,46,46,121,112,71,16,4,4,0.7,0.4
2026-04-22T2300,1071A,116.8733,38.2922,沧州市,沧县城建局,细颗粒物(PM2.5),102,105,38,62,20,82,82,121,106,39,19,7,4,0.7,0.4
2026-04-22T2300,1072A,116.8462,38.3189,沧州市,电视转播站,细颗粒物(PM2.5),102,93,38,62,18,89,89,127,115,33,14,12,8,NA,0.1
2026-04-22T2300,1073A,116.8588,38.3161,沧州市,市环保局,细颗粒物(PM2.5),96,92,41,58,18,84,84,122,110,34,15,9,6,0.8,0.6
2026-04-22T2300,3324A,116.8011,38.294,沧州市,河北水利电力学院,细颗粒物(PM2.5),104,88,28,64,21,88,88,110,100,31,16,12,6,0.5,0.2
2026-04-22T2300,2622A,97.1813,31.1289,昌都市,昌都监测站,,47,47,33,23,10,78,78,121,115,26,9,8,9,0.3,0.3
2026-04-22T2300,3719A,97.1707,31.1428,昌都市,昌都会议中心,NA,NA,42,30,28,12,111,111,131,129,5,4,NA,6,0.3,0.3
2026-04-22T2300,2692A,87.2722,44.0298,昌吉回族自治州,新区政务中心,,46,46,49,20,19,52,52,123,115,45,20,5,6,0.6,0.4
2026-04-22T2300,3613A,87.3069,44.0093,昌吉回族自治州,亚心广场,颗粒物(PM10),62,66,65,28,23,81,81,123,120,34,21,7,7,0.5,0.5
2026-04-22T2300,4164A,87.2057,43.9289,昌吉回族自治州,财政所,颗粒物(PM10),91,107,62,21,13,55,55,122,110,24,16,7,7,0.3,0.3
2026-04-22T2300,1120A,125.2874,43.9024,长春市,客车厂,,42,38,25,29,15,29,29,84,63,61,18,7,6,0.8,0.5
2026-04-22T2300,1121A,125.2943,43.8508,长春市,邮电学院,细颗粒物(PM2.5),52,48,24,36,14,31,31,88,68,51,12,6,6,0.5,0.3
2026-04-22T2300,1122A,125.3648,43.8745,长春市,劳动公园,,38,38,23,26,12,34,34,86,70,41,13,6,6,0.4,0.2
2026-04-22T2300,1123A,125.3233,43.8781,长春市,园林处,,36,35,26,25,11,59,59,89,76,30,10,6,6,0.4,0.3
2026-04-22T2300,1124A,125.4604,43.7904,长春市,净月潭,,32,27,18,22,10,57,57,90,78,14,8,4,5,0.4,0.3
2026-04-22T2300,1126A,125.38,43.8422,长春市,经开区环卫处,颗粒物(PM10),58,60,22,26,12,18,18,89,68,69,12,5,5,0.6,0.3
2026-04-22T2300,1127A,125.234,43.7761,长春市,高新区管委会,颗粒物(PM10),53,53,27,34,13,8,8,85,54,60,16,9,7,0.5,0.2
2026-04-22T2300,1128A,125.1695,43.83,长春市,岱山公园,颗粒物(PM10),78,88,29,29,14,3,3,91,61,78,19,5,4,0.5,0.2
2026-04-22T2300,4281A,125.334645,43.916281,长春市,北亚泰大街1068号,,38,37,27,26,11,31,31,84,60,62,20,5,5,0.3,0.2
2026-04-22T2300,1335A,113.082,28.2421,长沙市,经开区环保局,,26,23,14,17,8,81,81,76,76,14,12,3,3,0.3,0.4
2026-04-22T2300,1336A,112.8873,28.2202,长沙市,高开区环保局,,26,24,11,17,7,81,81,89,89,11,7,6,6,0.4,0.4
2026-04-22T2300,1337A,113.0785,28.2012,长沙市,马坡岭,,30,24,14,21,10,87,87,80,80,11,10,5,5,0.6,0.7
2026-04-22T2300,1338A,112.9448,28.1894,长沙市,湖南师范大学,,26,22,12,18,8,74,74,88,87,17,8,6,6,0.5,0.5
2026-04-22T2300,1339A,113.0177,28.1322,长沙市,雨花区环保局,,25,19,12,17,7,79,79,85,85,14,4,4,3,0.6,0.6
2026-04-22T2300,1340A,112.9795,28.2593,长沙市,伍家岭,,29,24,13,20,8,57,57,76,72,19,11,5,4,0.4,0.4
2026-04-22T2300,1341A,113.002,28.1944,长沙市,火车新站,,33,NA,12,23,9,65,65,81,80,22,7,6,4,0.3,0.3
2026-04-22T2300,1342A,112.9846,28.1177,长沙市,天心区环保局,,28,23,13,19,10,80,80,85,85,19,10,6,5,0.3,0.3
2026-04-22T2300,1343A,112.8906,28.1307,长沙市,湖南中医药大学,,28,23,12,19,7,77,77,89,89,15,8,6,6,0.5,0.5
2026-04-22T2300,1727A,113.1146,36.1547,长治市,清华站,,34,34,31,23,21,84,84,122,104,13,19,10,9,0.6,0.6
2026-04-22T2300,1730A,113.0887,36.2126,长治市,审计局,,42,42,34,24,22,79,79,127,105,16,16,11,10,0.7,0.6
2026-04-22T2300,1731A,113.0845,36.1856,长治市,长治八中,,48,48,38,32,19,76,76,122,100,18,17,11,10,0.8,0.7
2026-04-22T2300,2845A,113.1561,36.1912,长治市,德盛苑,,42,35,35,29,25,84,84,125,106,16,17,10,10,0.7,0.7
2026-04-22T2300,3568A,113.0603,36.0464,长治市,向阳小学,颗粒物(PM10),63,68,60,23,23,72,72,130,102,26,26,9,9,0.8,0.8
2026-04-22T2300,3569A,112.8788,36.315,长治市,屯留一中,颗粒物(PM10),53,54,36,32,18,50,50,127,99,32,21,6,9,0.7,0.6
2026-04-22T2300,4189A,113.113092,36.199482,长治市,英华南巷50号,,38,38,37,24,24,74,74,123,103,15,15,6,6,0.8,0.8
2026-04-22T2300,4190A,113.23666,36.33435,长治市,学府街1号,,40,40,44,20,29,55,55,119,94,27,18,3,7,0.7,0.9
2026-04-22T2300,1854A,111.696,28.9725,常德市,市二中,,17,11,13,11,7,52,52,91,81,19,11,8,8,0.7,0.6
2026-04-22T2300,3138A,111.7152,29.0288,常德市,武陵区永安,,22,22,11,10,4,55,55,91,82,20,12,7,6,0.6,0.5
2026-04-22T2300,3139A,111.6891,28.9881,常德市,鼎城区玉霞,,21,21,12,12,8,46,46,90,79,17,7,8,9,0.6,0.8
2026-04-22T2300,3140A,111.6651,29.0526,常德市,武陵区长庚,,20,20,12,12,8,43,43,88,74,18,10,8,8,0.7,0.6
2026-04-22T2300,1196A,119.9524,31.7586,常州市,市监测站,,28,9,30,3,9,87,87,78,78,8,21,4,4,0.5,0.7
2026-04-22T2300,1200A,119.9351,31.703,常州市,武进监测站,,28,6,30,3,9,87,87,73,73,9,21,3,3,0.4,0.6
2026-04-22T2300,3002A,119.9701,31.813,常州市,行政中心,,27,6,14,3,10,84,84,75,75,12,25,5,5,0.1,0.1
2026-04-22T2300,3003A,120.0434,31.7726,常州市,经开区,,29,11,42,3,9,90,90,80,80,5,18,1,3,0.4,0.5
2026-04-22T2300,3010A,119.8919,31.7892,常州市,钟楼,,29,9,35,3,11,90,90,79,79,14,26,7,7,0.1,0.2
2026-04-22T2300,3429A,119.8595,31.706,常州市,武进经发区,,24,10,26,6,12,74,74,64,64,22,30,5,5,0.4,0.5
2026-04-22T2300,3430A,119.5812,31.7256,常州市,金坛城区,,27,6,17,3,11,86,86,74,74,5,14,7,7,0.5,0.6
2026-04-22T2300,4089A,119.9551,31.863,常州市,崇义南街5-H号,,28,7,16,3,9,87,87,77,77,7,18,6,6,0.3,0.5
2026-04-22T2300,2220A,120.4318,41.588,朝阳市,西梁,,31,30,40,16,10,97,97,103,100,12,17,5,7,0.3,0.3
2026-04-22T2300,2221A,120.452,41.565,朝阳市,河畔小区,,34,25,37,10,8,107,107,108,107,10,10,8,8,0.3,0.3
2026-04-22T2300,2222A,120.4176,41.5648,朝阳市,八里堡,,37,37,41,15,11,89,89,104,99,18,17,6,8,0.3,0.3
2026-04-22T2300,3026A,116.6179,23.6608,潮州市,市政府,,39,34,33,27,19,37,37,90,64,24,11,14,4,0.6,0.5
2026-04-22T2300,4036A,116.646,23.676,潮州市,金山,,35,NA,30,24,19,34,34,91,70,12,7,3,3,0.6,0.4
2026-04-22T2300,2473A,113.0116,25.8228,郴州市,市职中,,16,NA,10,11,5,42,42,39,39,12,13,5,5,0.6,0.6
2026-04-22T2300,2475A,113.0381,25.8074,郴州市,市审计局,,16,16,10,11,5,48,48,49,49,13,12,2,2,/,/
2026-04-22T2300,2476A,113.0348,25.7757,郴州市,市环保局,NA,NA,28,18,15,6,36,36,44,43,NA,14,NA,6,0.8,0.7
2026-04-22T2300,4252A,113.0138,25.8011,郴州市,好美居路49号,,18,18,8,3,7,55,55,50,50,9,11,3,3,/,/
2026-04-22T2300,1431A,103.9727,30.7242,成都市,金泉两河,,50,50,32,35,22,17,17,92,69,32,20,3,3,0.6,0.4
2026-04-22T2300,1432A,104.1423,30.6765,成都市,十里店,,41,41,37,28,22,56,56,97,84,30,21,4,4,0.6,0.5
2026-04-22T2300,1433A,104.0594,30.5765,成都市,三瓦窑,,50,50,38,29,25,29,29,98,80,42,18,4,3,0.7,0.6
2026-04-22T2300,1434A,104.1122,30.6306,成都市,沙河铺,,43,43,34,26,19,50,50,93,79,32,23,2,2,0.4,0.4
2026-04-22T2300,2880A,104.0219,30.6561,成都市,大石西路,颗粒物(PM10),53,54,36,32,23,23,23,87,71,42,23,5,4,0.6,0.5
2026-04-22T2300,3136A,104.2724,30.559,成都市,龙泉驿区区政府,,44,44,26,29,20,43,43,103,87,29,16,7,7,0.6,0.5
2026-04-22T2300,3357A,104.0028,30.6891,成都市,金博路,,43,30,26,30,21,27,27,88,71,39,29,6,6,0.6,0.5
2026-04-22T2300,3359A,104.056,30.5228,成都市,华阳,,46,46,36,23,24,56,56,100,86,25,21,4,4,0.3,0.2
2026-04-22T2300,3488A,104.387954,30.746684,成都市,青石路225号,,48,48,31,27,19,12,12,99,74,52,21,5,5,0.9,0.7
2026-04-22T2300,3489A,104.0788,30.4054,成都市,科学城,,49,49,34,32,24,46,46,98,83,26,17,5,5,0.8,0.7
2026-04-22T2300,4011A,103.8505,30.6946,成都市,光华大道三段,,44,44,38,28,24,35,35,86,63,23,25,4,4,0.6,0.5
2026-04-22T2300,4144A,104.3257,30.6406,成都市,八角井街185号,颗粒物(PM10),52,52,34,29,16,36,36,96,79,25,15,6,5,0.6,0.5
2026-04-22T2300,4224A,104.2433276,30.53529463,成都市,鲸龙路1057号,颗粒物(PM10),56,58,33,31,21,38,38,106,87,45,17,6,6,0.7,0.5
2026-04-22T2300,1062A,117.9531,40.908,承德市,铁路,,48,48,46,14,16,91,91,117,114,19,14,3,3,0.5,0.4
2026-04-22T2300,1063A,117.9397,40.9763,承德市,中国银行,,44,44,46,14,14,98,98,116,114,13,12,3,2,0.4,0.4
2026-04-22T2300,4073A,117.9462,40.95,承德市,杏林街1号,,43,43,46,19,18,111,111,127,126,9,11,3,2,0.5,0.4
2026-04-22T2300,4274A,117.7994,40.9605,承德市,滨河大街98号,,34,34,45,14,16,91,91,125,120,10,9,2,3,0.4,0.3
2026-04-22T2300,2314A,117.4698,30.6617,池州市,池州学院,,16,6,4,3,4,51,51,54,53,16,18,2,2,0.7,0.8
2026-04-22T2300,3237A,117.4918,30.6617,池州市,展览馆,,16,6,5,3,4,51,51,54,53,17,18,2,2,0.4,0.4
2026-04-22T2300,3333A,117.5626,30.695,池州市,第八中学,,16,6,6,3,5,50,50,51,49,21,21,3,3,0.3,0.4
2026-04-22T2300,3334A,117.5037,30.6242,池州市,第十二中学,,17,8,6,7,5,54,54,55,54,19,20,2,2,0.5,0.5
2026-04-22T2300,1744A,118.9229,42.2816,赤峰市,松山一中,,48,48,31,23,15,45,45,92,73,42,27,60,14,0.7,0.6
2026-04-22T2300,1745A,118.9588,42.2733,赤峰市,哈达街,,38,38,32,7,13,52,52,81,59,28,23,13,26,0.7,0.8
2026-04-22T2300,1746A,118.8792,42.2551,赤峰市,天义路,,31,31,22,18,11,52,52,94,74,35,24,13,19,0.6,0.6
2026-04-22T2300,3058A,119.2656,42.0356,赤峰市,银河街,,30,30,33,15,11,73,73,101,85,13,12,10,12,0.5,0.5
2026-04-22T2300,3286A,118.9359,42.3146,赤峰市,桥北物流园区,,40,40,22,14,10,46,46,95,75,39,21,14,4,0.3,0.3
2026-04-22T2300,2521A,107.3473,22.4137,崇左市,市环保局江州分局,细颗粒物(PM2.5),52,50,53,36,33,38,38,98,89,13,8,6,6,0.7,0.7
2026-04-22T2300,4256A,107.375,22.3736,崇左市,石景林东路7号,,45,43,46,31,33,44,44,102,91,13,10,3,3,1.0,0.9
2026-04-22T2300,3207A,118.31131,32.3033,滁州市,市政府原办公楼,,24,NA,18,13,21,76,76,71,71,10,14,5,4,0.3,0.4
2026-04-22T2300,3331A,118.3268,32.2633,滁州市,图书馆,,25,9,15,3,12,79,79,76,76,9,14,9,9,0.2,0.3
2026-04-22T2300,4101A,118.3196,32.3335,滁州市,银山路666号,,23,11,20,8,14,72,72,76,76,11,13,6,5,0.2,0.2
2026-04-22T2300,4102A,118.3426,32.2979,滁州市,黄山路555号,,26,13,25,6,15,82,82,77,77,6,12,5,6,0.5,0.5
2026-04-22T2300,2606A,101.5379,25.0492,楚雄彝族自治州,市经济开发区,颗粒物(PM10),53,53,53,27,34,112,112,135,125,12,13,3,2,0.7,0.7
2026-04-22T2300,4153A,101.5536,25.0343,楚雄彝族自治州,团结路562号,,40,40,47,27,30,126,126,142,135,7,8,4,4,0.3,0.4
2026-04-22T2300,2549A,107.5087,31.2186,达州市,市环境监测站,,28,28,19,3,1,20,20,67,47,34,21,5,6,0.3,0.4
2026-04-22T2300,2550A,107.4988,31.2132,达州市,凤凰小区,,27,27,19,3,3,16,16,67,45,39,20,4,5,0.2,0.2
2026-04-22T2300,2551A,107.5081,31.1987,达州市,达县机关宾馆,,34,34,19,14,3,1,1,66,38,48,28,4,5,0.4,0.3
2026-04-22T2300,2552A,107.4644,31.2124,达州市,市政中心,NA,NA,46,24,11,3,NA,NA,68,59,41,21,4,5,0.5,0.4
2026-04-22T2300,2614A,100.2168,25.5818,大理白族自治州,大理市环境监测站,,39,33,40,27,32,90,90,114,97,13,14,4,4,0.5,0.6
2026-04-22T2300,2615A,100.1542,25.7055,大理白族自治州,大理古城,,28,25,43,19,28,78,78,119,96,16,8,3,4,0.6,0.5
2026-04-22T2300,1109A,121.6119,38.974,大连市,甘井子,颗粒物(PM10),51,51,57,26,32,86,86,120,110,25,18,9,11,0.5,0.6
2026-04-22T2300,1110A,121.565,38.9509,大连市,周水子,,48,48,54,18,26,72,72,112,92,33,25,6,8,0.5,0.6
2026-04-22T2300,1111A,121.5637,38.8849,大连市,星海三站,,35,35,51,11,21,91,91,121,115,16,17,8,8,0.4,0.5
2026-04-22T2300,1112A,121.6301,38.9117,大连市,青泥洼桥,,48,48,57,20,26,79,79,127,107,32,21,6,8,0.5,0.6
2026-04-22T2300,1113A,121.6248,38.8643,大连市,傅家庄,颗粒物(PM10),52,52,65,24,30,83,83,112,103,14,19,8,10,0.6,0.6
2026-04-22T2300,1114A,121.5117,38.8636,大连市,七贤岭,,31,20,53,8,23,98,98,130,119,8,13,6,8,0.4,0.5
2026-04-22T2300,1116A,121.7507,39.1339,大连市,金州,颗粒物(PM10),111,148,86,51,37,66,66,107,93,34,26,6,6,0.6,0.5
2026-04-22T2300,1117A,121.7811,39.0495,大连市,开发区,颗粒物(PM10),78,88,60,46,29,55,55,107,97,43,22,16,11,0.6,0.5
2026-04-22T2300,1118A,121.9762,39.0631,大连市,双D港,颗粒物(PM10),51,51,58,19,23,82,82,115,106,20,19,7,8,0.7,0.6
2026-04-22T2300,4082A,121.2548,38.8188,大连市,旅顺,细颗粒物(PM2.5),86,91,71,53,38,67,67,122,107,25,19,6,8,0.6,0.6
2026-04-22T2300,1789A,124.8085,46.0381,大庆市,大同区,"颗粒物(PM10),细颗粒物(PM2.5)",56,58,30,38,11,24,24,96,74,63,10,2,2,0.6,0.4
2026-04-22T2300,1790A,125.1166,46.5255,大庆市,龙凤区,颗粒物(PM10),53,53,39,30,12,41,41,82,61,29,13,5,4,0.3,0.2
2026-04-22T2300,1791A,124.8894,46.4007,大庆市,红岗区,,35,35,27,21,12,61,61,86,76,13,6,8,6,0.4,0.3
2026-04-22T2300,1792A,125.1391,46.578,大庆市,萨尔图区,,45,44,44,31,11,30,30,85,62,48,14,6,6,0.7,0.3
2026-04-22T2300,1793A,124.9026,46.6217,大庆市,让胡路区,颗粒物(PM10),51,51,30,27,13,26,26,81,61,47,10,2,2,0.5,0.2
2026-04-22T2300,3481A,125.127,46.6277,大庆市,萨区政府监测点,,33,33,24,17,7,62,62,88,77,18,4,9,8,0.4,0.3
2026-04-22T2300,1723A,113.2926,40.0759,大同市,云冈宾馆,颗粒物(PM10),113,153,86,44,30,7,7,86,72,87,43,8,11,0.6,0.8
2026-04-22T2300,1724A,113.3437,40.0921,大同市,大同大学,颗粒物(PM10),58,60,49,28,19,56,56,107,86,46,30,8,10,0.4,0.5
2026-04-22T2300,1725A,113.2637,40.129,大同市,安家小村,颗粒物(PM10),104,128,77,35,26,28,28,104,87,64,27,13,11,2.1,1.2
2026-04-22T2300,3282A,113.3399,40.0586,大同市,大同市卫生学校,颗粒物(PM10),81,93,70,24,22,46,46,110,89,47,28,6,10,0.5,0.7
2026-04-22T2300,3565A,113.1371,40.1122,大同市,云冈站,颗粒物(PM10),63,67,66,26,19,5,5,98,72,68,34,11,9,0.4,0.5
2026-04-22T2300,3566A,113.1186,40.2556,大同市,图书馆,颗粒物(PM10),58,60,56,17,19,41,41,100,82,15,16,4,8,0.7,0.8
2026-04-22T2300,3567A,113.5931,40.0459,大同市,区一中,颗粒物(PM10),53,54,64,19,23,71,71,112,93,17,26,1,4,0.7,0.8
2026-04-22T2300,4199A,113.2798248,40.09972476,大同市,魏都大道141号,颗粒物(PM10),109,143,81,48,27,6,6,100,73,84,35,13,12,1.1,1.2
2026-04-22T2300,2269A,124.1068,50.4091,大兴安岭地区,科技局,,34,34,18,12,5,51,51,86,74,10,3,10,8,0.6,0.5
2026-04-22T2300,3663A,124.117,50.4279,大兴安岭地区,红旗社区,,20,9,7,3,6,61,61,92,82,8,3,7,7,0.2,0.2
2026-04-22T2300,1600A,124.33,40.0625,丹东市,江湾东路,,32,25,80,7,29,102,102,128,112,11,16,6,10,0.3,0.5
2026-04-22T2300,1601A,124.4242,40.1513,丹东市,临江后街,,29,28,66,3,22,92,92,117,100,8,12,7,7,0.3,0.5
2026-04-22T2300,1602A,124.3935,40.1461,丹东市,元宝山,,29,28,72,3,23,91,91,111,99,10,14,6,9,0.3,0.5
2026-04-22T2300,1603A,124.3634,40.1093,丹东市,民主桥,,29,29,84,6,29,92,92,116,100,10,17,8,10,0.5,0.7
2026-04-22T2300,3541A,109.5726195,19.51688767,儋州市,第一中学子站,,49,49,38,30,20,90,90,108,102,7,6,5,6,0.5,0.4
2026-04-22T2300,3542A,109.5567,19.5187,儋州市,东坡学校子站,,43,43,33,28,20,98,98,118,109,6,6,4,4,0.6,0.5
2026-04-22T2300,2616A,98.5611,24.4273,德宏傣族景颇族自治州,德宏州监测站,细颗粒物(PM2.5),113,NA,64,74,58,78,78,143,118,19,17,6,6,1.0,0.7
2026-04-22T2300,3677A,98.5887,24.4366,德宏傣族景颇族自治州,芒市人民政府综合楼,颗粒物(PM10),96,114,99,54,54,84,84,145,127,18,14,3,4,1.3,0.8
2026-04-22T2300,1901A,104.424,31.1209,德阳市,东山公园,细颗粒物(PM2.5),68,50,23,44,23,21,21,77,58,36,16,4,5,0.8,0.6
2026-04-22T2300,1902A,104.3827,31.1318,德阳市,西小区,细颗粒物(PM2.5),68,72,37,44,23,16,16,69,51,35,20,4,4,0.7,0.5
2026-04-22T2300,1904A,104.3553,31.1091,德阳市,耐火材料厂,细颗粒物(PM2.5),88,64,34,54,22,9,9,80,55,33,20,2,3,0.6,0.4
2026-04-22T2300,4145A,104.4144,31.1495,德阳市,市林业局,细颗粒物(PM2.5),66,52,27,43,22,1,1,84,56,58,15,3,4,0.6,0.4
2026-04-22T2300,1622A,116.3034,37.4675,德州市,儿童乐园,,48,48,30,24,14,74,74,124,106,24,12,6,7,0.6,0.5
2026-04-22T2300,1624A,116.2992,37.4449,德州市,监理站,,39,39,25,19,15,77,77,122,108,22,15,8,9,0.4,0.4
2026-04-22T2300,3066A,116.2722,37.438,德州市,九衢泉纯净水厂,颗粒物(PM10),72,80,30,35,13,20,20,126,101,70,22,13,10,0.8,0.5
2026-04-22T2300,3371A,116.3693,37.44,德州市,开发区人民医院,,39,39,29,22,14,60,60,118,96,45,18,8,9,0.4,0.4
2026-04-22T2300,3511A,116.5687,37.3331,德州市,陵城艺术中心,细颗粒物(PM2.5),74,73,26,47,18,38,38,112,89,31,14,7,9,0.6,0.3
2026-04-22T2300,4292A,116.352738,37.420875,德州市,新河东路,,41,41,26,20,12,30,30,119,94,65,18,7,8,0.8,0.6
2026-04-22T2300,2621A,99.7054,27.8319,迪庆藏族自治州,迪庆州站,,30,19,22,10,13,93,93,103,99,8,12,8,8,0.4,0.5
2026-04-22T2300,3180A,99.7122,27.8129,迪庆藏族自治州,质量技术监督局,,31,20,17,13,10,98,98,108,104,9,11,7,8,0.4,0.3
2026-04-22T2300,4257A,104.6092,35.5962,定西市,将台街,颗粒物(PM10),79,90,81,39,28,51,51,119,104,40,15,4,4,0.3,0.1
2026-04-22T2300,4309A,104.6159,35.5701,定西市,正龙路62号,颗粒物(PM10),91,107,80,41,27,67,67,118,108,20,12,4,3,0.4,0.3
2026-04-22T2300,4071A,114.9883,38.5232,定州市,交通局,颗粒物(PM10),60,64,71,27,25,77,77,134,117,20,20,7,11,0.4,0.7
2026-04-22T2300,4072A,115.0045,38.5136,定州市,第五中学,颗粒物(PM10),58,61,75,21,22,76,76,126,112,18,22,4,7,0.4,0.6
2026-04-22T2300,1390A,113.7943,23.0132,东莞市,东城石井,,30,30,24,18,15,46,46,86,64,17,17,5,5,0.5,0.5
2026-04-22T2300,1391A,113.7384,22.9659,东莞市,南城西平,,30,30,21,18,13,42,42,80,57,17,11,6,7,0.4,0.3
2026-04-22T2300,3319A,113.7283,23.041,东莞市,万江金泰,,29,23,19,20,19,38,38,80,54,22,16,6,6,0.6,0.6
2026-04-22T2300,4129A,113.8666,23.1062,东莞市,裕兴路,NA,NA,NA,29,NA,14,50,50,84,64,14,18,5,6,0.5,0.7
2026-04-22T2300,4130A,114.0076,22.9739,东莞市,教育路1号,,37,37,33,18,17,43,43,85,61,19,20,6,7,0.6,0.6
2026-04-22T2300,4131A,113.7981,22.8124,东莞市,长怡路1号,,37,37,32,14,15,49,49,76,54,10,15,6,6,0.5,0.2
2026-04-22T2300,1666A,118.6612,37.4313,东营市,市环保局,颗粒物(PM10),108,139,22,8,4,109,109,131,121,9,11,6,9,NA,0.2
2026-04-22T2300,3036A,118.6903,37.4337,东营市,开发区管委会,,36,27,26,8,5,114,114,129,122,12,14,6,8,0.2,0.3
2026-04-22T2300,3365A,118.5721,37.5654,东营市,垦利区民丰路,,31,29,21,9,6,98,98,134,118,21,15,12,9,0.3,0.3
2026-04-22T2300,3498A,118.5063,37.8606,东营市,河口城区,,35,24,38,3,16,110,110,146,128,10,14,6,8,0.8,0.8
2026-04-22T2300,3646A,118.4979,37.4623,东营市,胜利站,,32,26,26,10,6,102,102,119,113,11,14,5,6,0.5,0.4
2026-04-22T2300,3734A,118.5753,37.4405,东营市,理想之城,,33,31,23,8,8,105,105,122,112,19,20,5,6,0.4,0.3
2026-04-22T2300,1591A,110.0024,39.8127,鄂尔多斯市,综合楼,颗粒物(PM10),56,58,63,20,21,97,97,132,122,24,27,6,8,0.4,0.5
2026-04-22T2300,1592A,109.9485,39.8259,鄂尔多斯市,巴音孟克林场办事处,颗粒物(PM10),65,70,55,22,17,82,82,134,123,34,28,5,7,0.5,0.4
2026-04-22T2300,1593A,109.7734,39.5987,鄂尔多斯市,康泽苑,颗粒物(PM10),65,70,54,18,15,89,89,138,124,13,13,7,8,0.4,0.3
2026-04-22T2300,1594A,109.8121,39.5987,鄂尔多斯市,华泰汽车城,颗粒物(PM10),72,80,57,21,16,46,46,134,103,40,22,8,8,0.6,0.4
2026-04-22T2300,1595A,109.9734,39.7884,鄂尔多斯市,奥林花园,颗粒物(PM10),70,78,67,21,19,89,89,133,108,30,38,5,6,0.2,0.3
2026-04-22T2300,2436A,114.894,30.3989,鄂州市,市政府,,21,10,12,3,5,65,65,70,70,14,15,8,8,0.3,0.4
2026-04-22T2300,2437A,114.8986,30.3714,鄂州市,赵家坝,,22,21,13,7,4,68,68,78,77,10,8,6,6,0.5,0.4
2026-04-22T2300,3654A,114.8093,30.4091,鄂州市,精准医疗中心,,23,13,13,7,5,71,71,81,79,9,7,4,7,0.5,0.5
2026-04-22T2300,2454A,109.4978,30.2979,恩施土家族苗族自治州,湖北民院,,23,23,25,16,13,17,17,41,30,12,11,8,7,0.5,0.5
2026-04-22T2300,3549A,109.5061,30.3771,恩施土家族苗族自治州,龙凤新区,,11,11,19,7,10,10,10,36,19,7,10,7,7,0.5,0.4
2026-04-22T2300,2499A,108.3411,21.6159,防城港市,沙万,,47,47,37,22,17,34,34,58,43,16,11,5,5,0.6,0.5
2026-04-22T2300,2500A,108.3515,21.7733,防城港市,防城档案局,,45,45,37,27,22,38,38,56,52,8,4,9,9,0.6,0.5
2026-04-22T2300,2501A,108.3506,21.6414,防城港市,大海花园,,36,36,34,24,20,42,42,66,54,10,6,6,7,0.7,0.6
2026-04-22T2300,1371A,113.1293,23.0065,佛山市,湾梁,,31,31,25,19,16,42,42,72,54,13,13,/,/,/,/
2026-04-22T2300,1372A,113.1082,23.0477,佛山市,华材职中,,31,31,26,21,18,44,44,73,58,14,13,3,4,0.3,0.3
2026-04-22T2300,1373A,113.1439,23.045,佛山市,南海气象局,,29,27,28,20,17,45,45,73,56,12,16,/,/,/,/
2026-04-22T2300,1374A,113.2879,22.8094,佛山市,顺德苏岗,,30,NA,17,21,16,46,46,74,55,10,9,/,/,0.5,0.5
2026-04-22T2300,1376A,112.8384,22.8678,佛山市,高明孔堂,,25,24,22,17,15,46,46,66,56,6,7,/,/,/,/
2026-04-22T2300,1377A,112.8835,23.1584,佛山市,三水监测站,,29,24,23,20,19,25,25,62,47,27,21,5,3,0.4,0.4
2026-04-22T2300,1378A,112.8668,23.185,佛山市,三水云东海,,41,41,41,19,19,28,28,66,49,18,18,/,/,/,/
2026-04-22T2300,3625A,113.2568,22.7629,佛山市,容桂街道办,,33,27,19,23,17,39,39,66,49,16,13,/,/,/,/
2026-04-22T2300,1282A,119.2681,26.0506,福州市,师大,,34,34,28,22,16,29,29,84,52,13,13,3,3,0.4,0.4
2026-04-22T2300,1283A,119.2983,26.1028,福州市,五四北路,,38,38,30,26,18,12,12,79,41,29,19,4,4,0.3,0.3
2026-04-22T2300,1284A,119.2648,26.0769,福州市,杨桥西路,,36,33,27,25,17,18,18,79,45,22,14,3,3,/,/
2026-04-22T2300,3048A,119.5799,26.0937,福州市,九龙,细颗粒物(PM2.5),52,42,31,36,20,10,10,88,42,30,13,5,5,0.4,0.4
2026-04-22T2300,3526A,119.5188,25.9666,福州市,吴航,,37,37,29,23,19,21,21,88,53,18,17,5,5,0.5,0.5
2026-04-22T2300,4104A,119.3106,26.0648,福州市,路通桥巷6号,,49,37,31,34,22,18,18,81,42,24,15,/,/,/,/
2026-04-22T2300,1755A,123.7974,41.8494,抚顺市,望花区,颗粒物(PM10),62,66,56,28,21,37,37,110,86,40,19,6,9,0.6,0.6
2026-04-22T2300,1756A,123.9161,41.8827,抚顺市,顺城区,,50,50,49,33,22,18,18,109,73,52,22,10,12,0.6,0.6
2026-04-22T2300,1757A,124.0437,41.8615,抚顺市,东洲区,,40,40,55,17,22,56,56,106,82,21,18,10,12,0.5,0.6
2026-04-22T2300,1758A,123.9246,41.8638,抚顺市,新抚区,颗粒物(PM10),65,71,56,28,22,26,26,111,82,42,19,7,9,0.5,0.6
2026-04-22T2300,1759A,124.0972,41.8961,抚顺市,大伙房水库,,27,27,63,10,20,64,64,107,91,13,16,7,9,0.4,0.5
2026-04-22T2300,1760A,123.708,41.8386,抚顺市,沈抚新城,,45,45,53,25,21,15,15,105,77,58,22,8,9,0.7,0.6
2026-04-22T2300,2377A,116.3544,27.9833,抚州市,市站,NA,NA,19,16,12,8,NA,NA,60,60,9,12,3,4,0.9,1
2026-04-22T2300,2378A,116.3562,27.9631,抚州市,血防站,,25,25,22,11,9,60,60,63,63,7,11,6,6,0.8,1
2026-04-22T2300,2379A,116.3561,28.0007,抚州市,采茶剧团,,40,NA,15,28,8,59,59,63,63,8,10,13,14,0.8,0.9
2026-04-22T2300,2380A,116.3854,27.9648,抚州市,医学分院,,30,30,23,14,5,61,61,65,65,5,9,6,6,0.9,1
2026-04-22T2300,2207A,121.6095,41.9978,阜新市,工业园区,,47,47,36,29,6,45,45,101,84,29,13,14,8,0.5,0.3
2026-04-22T2300,2208A,121.6567,42.0188,阜新市,长青街,,46,46,24,25,7,44,44,105,85,30,13,11,7,0.5,0.4
2026-04-22T2300,2209A,121.6672,42.07,阜新市,农业园区,,49,49,29,14,7,72,72,102,85,13,11,11,7,0.4,0.4
2026-04-22T2300,2211A,121.6343,42.0455,阜新市,玉龙新城,颗粒物(PM10),70,77,36,37,9,8,8,105,68,59,19,11,6,0.6,0.3
2026-04-22T2300,2301A,115.8276,32.8929,阜阳市,市监测站,,40,40,37,26,23,52,52,58,57,10,8,5,5,0.4,0.4
2026-04-22T2300,2303A,115.8551,32.8606,阜阳市,开发区,,32,NA,33,22,21,49,49,58,57,14,13,4,4,0.5,0.5
2026-04-22T2300,2875A,115.783962,32.889217,阜阳市,阜阳职业技术学院,,42,42,20,22,20,56,56,62,60,11,11,6,6,0.4,0.4
2026-04-22T2300,3468A,115.79,32.8614,阜阳市,市规划展馆,,35,34,38,24,22,52,52,58,57,16,14,6,6,0.5,0.5
2026-04-22T2300,3469A,115.835101,32.918568,阜阳市,枣园社区,,43,43,35,26,24,48,48,57,55,14,12,5,4,0.4,0.5
2026-04-22T2300,2669A,102.9097,34.9841,甘南藏族自治州,州政府,颗粒物(PM10),64,69,52,35,30,49,49,101,84,23,8,3,2,0.3,0.3
2026-04-22T2300,3380A,102.8915,34.9618,甘南藏族自治州,甘肃民族师范学院,颗粒物(PM10),70,78,60,30,26,38,38,119,98,44,14,1,1,0.3,0.2
2026-04-22T2300,2570A,101.96,30.048,甘孜藏族自治州,水桥子,,25,NA,8,12,4,79,79,65,65,4,8,6,6,0.2,0.3
2026-04-22T2300,3065A,101.9534,29.9976,甘孜藏族自治州,州环保局,,25,20,9,8,5,78,78,76,72,10,9,5,4,0.3,0.3
2026-04-22T2300,2363A,114.9368,25.8663,赣州市,地委,,21,12,21,3,10,65,65,59,48,2,5,2,1,1.0,1.1
2026-04-22T2300,2364A,114.946,25.8483,赣州市,气象台,,22,16,24,3,12,68,68,62,47,5,7,5,5,0.8,0.9
2026-04-22T2300,2365A,114.932,25.8332,赣州市,市图书馆,,28,6,19,3,14,88,88,63,63,3,7,5,4,0.8,0.9
2026-04-22T2300,2366A,114.8905,25.8472,赣州市,华坚鞋城,,17,12,22,3,13,54,54,55,44,8,10,6,8,1.0,0.9
2026-04-22T2300,3109A,115.0094,25.8614,赣州市,赣县区卫计委,,17,8,18,6,12,53,53,59,44,4,7,3,2,1.0,1
2026-04-22T2300,2684A,106.2753,36.0057,固原市,监测站,颗粒物(PM10),96,114,55,44,22,59,59,120,93,32,18,8,7,0.5,0.6
2026-04-22T2300,2685A,106.2384,36.0189,固原市,新区,颗粒物(PM10),103,127,55,39,18,12,12,120,69,66,22,5,5,0.9,0.7
2026-04-22T2300,2544A,106.6307,30.4577,广安市,市委,,29,29,14,18,10,36,36,81,68,30,10,6,6,0.5,0.3
2026-04-22T2300,2545A,106.6266,30.4662,广安市,友谊中学,,27,27,13,13,7,36,36,77,65,24,8,7,7,0.5,0.4
2026-04-22T2300,2547A,106.6386,30.4551,广安市,广电花园,,20,18,13,14,8,33,33,76,64,31,13,6,6,0.5,0.4
2026-04-22T2300,2902A,106.6347,30.4868,广安市,北辰小学,,32,32,16,16,9,45,45,77,63,18,9,9,14,0.4,0.3
2026-04-22T2300,2524A,105.8211,32.4444,广元市,老城,颗粒物(PM10),51,51,25,15,4,9,9,94,53,54,21,1,1,0.5,0.4
2026-04-22T2300,2526A,105.8629,32.429,广元市,监测站,,21,21,22,3,1,39,39,97,68,21,16,2,2,0.4,0.4
2026-04-22T2300,3617A,105.8047,32.4167,广元市,经开区,,34,34,17,16,9,8,8,90,58,48,20,4,3,0.5,0.3
2026-04-22T2300,1345A,113.2346,23.1423,广州市,广雅中学,,33,33,26,18,16,39,39,68,50,14,12,2,2,0.6,0.6
2026-04-22T2300,1346A,113.2611,23.105,广州市,市五中,,42,34,26,29,19,48,48,83,63,15,14,3,3,/,/
2026-04-22T2300,1348A,113.3477,23.0916,广州市,广东商学院,,42,41,28,29,19,32,32,80,57,30,22,6,5,0.9,0.8
2026-04-22T2300,1349A,113.4332,23.105,广州市,市八十六中,,32,32,25,20,16,12,12,76,44,45,25,8,6,/,/
2026-04-22T2300,1350A,113.3506,22.9488,广州市,番禺中学,,32,32,28,3,7,42,42,78,55,18,17,5,5,0.5,0.5
2026-04-22T2300,1351A,113.2147,23.3918,广州市,花都师范,,37,37,33,24,20,41,41,78,54,19,20,6,6,0.7,0.7
2026-04-22T2300,1352A,113.2599,23.1329,广州市,市监测站,,29,29,25,15,15,45,45,73,54,5,7,2,2,/,/
2026-04-22T2300,1353A,113.5618,23.3119,广州市,九龙镇镇龙,,37,37,31,20,17,33,33,77,50,25,23,6,6,0.4,0.4
2026-04-22T2300,1354A,113.2764,23.1544,广州市,麓湖,,28,28,25,18,17,48,48,79,60,12,15,4,4,0.3,0.3
2026-04-22T2300,2846A,113.3209,23.1323,广州市,体育西,,34,34,31,20,17,39,39,79,56,20,18,5,5,0.5,0.5
2026-04-22T2300,3298A,113.5718,23.5493,广州市,从化街口,细颗粒物(PM2.5),64,66,38,42,24,18,18,86,48,36,17,10,7,0.7,0.7
2026-04-22T2300,3299A,113.3463,23.369,广州市,白云竹料,,35,35,30,22,15,43,43,60,52,15,19,3,3,0.5,0.5
2026-04-22T2300,3300A,113.2981,23.2365,广州市,白云嘉禾,,36,36,30,20,18,38,38,78,53,23,20,6,6,/,/
2026-04-22T2300,3301A,113.4256,23.1716,广州市,黄埔科学城,,43,43,30,26,19,27,27,83,52,26,16,5,5,0.6,0.5
2026-04-22T2300,3302A,113.3942,23.0485,广州市,番禺大学城,,47,47,32,16,14,47,47,89,63,18,17,5,5,0.6,0.5
2026-04-22T2300,3303A,113.4923,22.8169,广州市,南沙黄阁,,31,31,29,18,16,39,39,73,53,16,9,6,6,/,/
2026-04-22T2300,3304A,113.534,22.7893,广州市,南沙街,,30,30,25,19,16,40,40,77,57,19,15,6,6,0.4,0.4
2026-04-22T2300,3443A,113.2905,23.5541,广州市,花都梯面,,30,30,30,19,16,20,20,69,36,20,19,7,7,/,/
2026-04-22T2300,3445A,113.786,23.7479,广州市,从化良口,,42,37,27,29,19,45,45,95,73,12,14,4,5,/,/
2026-04-22T2300,3446A,113.805,23.2614,广州市,增城荔城,,34,34,32,20,19,33,33,85,65,23,21,6,6,0.6,0.5
2026-04-22T2300,2506A,109.604387,23.066791,贵港市,江南子站,,12,12,39,6,22,15,15,52,28,12,15,7,8,0.6,0.7
2026-04-22T2300,2508A,109.5669,23.1065,贵港市,荷城子站,,14,14,34,6,23,23,23,48,30,12,18,10,10,0.7,0.7
2026-04-22T2300,3405A,109.5886,23.1172,贵港市,新世纪学校,,14,14,34,8,22,20,20,48,26,16,21,/,/,0.6,0.6
2026-04-22T2300,4260A,109.5933,23.095,贵港市,中山路155-3号,,14,14,42,6,22,22,22,53,32,11,15,/,/,0.5,0.5
2026-04-22T2300,1439A,106.6863,26.6035,贵阳市,马鞍山,,19,19,14,13,10,32,32,44,40,11,10,3,3,/,/
2026-04-22T2300,1441A,106.6241,26.6266,贵阳市,鉴湖路,,27,27,24,12,7,65,65,58,57,9,10,5,5,0.7,0.6
2026-04-22T2300,1442A,106.7468,26.6344,贵阳市,燕子冲,,27,27,25,14,10,57,57,53,52,10,11,6,6,0.6,0.6
2026-04-22T2300,1443A,106.6556,26.4362,贵阳市,碧云窝,,29,29,31,8,10,51,51,55,54,11,12,4,4,/,/
2026-04-22T2300,1445A,106.6963,26.6063,贵阳市,红边门,,19,19,19,10,13,53,53,54,53,13,12,4,5,/,/
2026-04-22T2300,1446A,106.7162383,26.56964667,贵阳市,新华路,,24,24,26,8,10,48,48,49,47,15,12,3,3,0.3,0.4
2026-04-22T2300,1447A,106.6742,26.542,贵阳市,太慈桥,,17,17,19,11,9,46,46,52,50,12,12,4,4,/,/
2026-04-22T2300,4230A,106.688212,26.56952,贵阳市,花果园大街66号,,19,NA,8,13,9,48,48,52,51,11,12,3,2,/,/
2026-04-22T2300,4231A,106.687268,26.516892,贵阳市,漓江路57号,,17,12,15,11,10,52,52,54,52,14,13,6,5,0.6,0.7
2026-04-22T2300,1864A,110.3091,25.2705,桂林市,龙隐路小学,,18,11,9,3,6,55,55,47,47,7,10,4,3,0.4,0.4
2026-04-22T2300,1865A,110.2849361,25.22909545,桂林市,八中,,15,9,12,6,4,47,47,40,40,10,13,4,3,0.6,0.6
2026-04-22T2300,3531A,110.296,25.1254,桂林市,旅游学院,,17,16,19,3,6,53,53,51,51,7,10,5,5,0.7,0.7
2026-04-22T2300,4222A,110.1835,25.2444,桂林市,环湖路276号,,16,9,7,3,8,49,49,45,45,5,9,4,5,0.5,0.5
2026-04-22T2300,4301A,110.2803,25.2773,桂林市,信义路13号,,18,15,10,7,5,55,55,47,47,9,11,4,4,0.6,0.7
2026-04-22T2300,2674A,100.2262,34.4854,果洛藏族自治州,玛沁县大武镇,颗粒物(PM10),95,113,112,54,58,71,71,123,110,5,2,21,18,0.3,0.3
2026-04-22T2300,1130A,126.5557,45.8109,哈尔滨市,松北商大,细颗粒物(PM2.5),56,56,25,38,12,5,5,78,53,65,15,5,5,0.9,0.6
2026-04-22T2300,1132A,126.6162,45.719,哈尔滨市,南岗学府路,颗粒物(PM10),70,78,28,37,8,1,1,83,58,74,14,2,1,1.1,0.6
2026-04-22T2300,1133A,126.6894,45.7733,哈尔滨市,太平宏伟公园,颗粒物(PM10),102,124,29,61,11,0,0,80,56,87,16,7,5,0.8,0.3
2026-04-22T2300,1134A,126.6361,45.7672,哈尔滨市,道外承德广场,颗粒物(PM10),58,60,40,27,8,28,28,78,59,51,17,6,6,0.4,0.5
2026-04-22T2300,1136A,126.644,45.7261,哈尔滨市,动力和平路,颗粒物(PM10),69,76,28,37,9,3,3,80,55,76,16,7,4,0.7,0.4
2026-04-22T2300,1137A,126.5933,45.7479,哈尔滨市,道里建国路,,42,42,19,28,8,14,14,79,57,68,15,1,1,1.1,0.4
2026-04-22T2300,1138A,126.6127,45.6119,哈尔滨市,平房东轻厂,细颗粒物(PM2.5),62,65,32,41,12,15,15,77,45,68,24,31,13,0.6,0.6
2026-04-22T2300,1139A,126.5875,45.9827,哈尔滨市,呼兰师专,NA,NA,NA,NA,NA,NA,NA,NA,NA,NA,NA,NA,NA,NA,NA,NA
2026-04-22T2300,1140A,126.6299,45.6799,哈尔滨市,省农科院,颗粒物(PM10),75,84,79,44,26,5,5,78,46,71,19,8,6,0.7,0.5
2026-04-22T2300,4282A,126.6769,45.7379,哈尔滨市,华山路1号,细颗粒物(PM2.5),84,95,26,52,9,6,6,85,58,77,12,11,5,0.7,0.2
2026-04-22T2300,4283A,126.9717,45.5356,哈尔滨市,解放大街52号,颗粒物(PM10),63,67,44,26,12,26,26,83,57,37,16,3,3,0.7,0.5
2026-04-22T2300,2688A,93.5124,42.8176,哈密市,地区监测站,颗粒物(PM10),58,61,78,27,33,86,86,113,103,19,17,9,10,0.2,0.3
2026-04-22T2300,2689A,93.5014,42.8312,哈密市,哈密师范学校,颗粒物(PM10),89,104,86,49,33,57,57,116,99,31,23,11,8,0.4,0.2
2026-04-22T2300,2671A,100.9016,36.9464,海北藏族自治州,海晏县西海镇,颗粒物(PM10),70,77,74,40,39,81,81,112,108,6,2,4,7,0.4,0.4
2026-04-22T2300,3867A,102.074,36.5056,海东市,平安区公安局北苑,细颗粒物(PM2.5),86,76,63,53,35,72,72,120,96,7,10,6,8,0.5,0.5
2026-04-22T2300,4163A,102.0984,36.5119,海东市,滨河路,细颗粒物(PM2.5),82,87,56,51,36,27,27,100,68,51,20,4,6,0.7,0.7
2026-04-22T2300,1410A,110.3189,20.0596,海口市,海南大学,,49,49,27,28,18,43,43,92,68,8,6,5,6,0.4,0.3
2026-04-22T2300,1411A,110.2827,20.0051,海口市,秀英海南医院,,50,50,31,31,21,42,42,88,66,9,9,8,8,0.3,0.3
2026-04-22T2300,1412A,110.3391,19.9979,海口市,海南师范大学,,42,42,28,28,20,38,38,97,73,9,6,6,6,0.6,0.5
2026-04-22T2300,1413A,110.3303,20.0359,海口市,龙华路环保局宿舍,,42,40,27,29,20,43,43,97,72,10,7,/,/,0.5,0.6
2026-04-22T2300,3539A,110.5111,19.9737,海口市,桂林洋子站,,44,44,30,30,21,37,37,78,52,9,6,/,/,/,/
2026-04-22T2300,4134A,110.1952,20.0451,海口市,长滨二路9号,NA,NA,48,31,33,20,NA,NA,99,NA,NA,10,/,/,/,/
2026-04-22T2300,2673A,100.6158,36.2985,海南藏族自治州,共和县恰卜恰镇,细颗粒物(PM2.5),124,129,102,86,58,55,55,124,111,13,5,8,10,0.4,0.3
2026-04-22T2300,2676A,97.373,37.376,海西蒙古族藏族自治州,德令哈市,NA,NA,114,142,60,64,116,116,148,142,11,6,NA,17,0.5,0.4
2026-04-22T2300,1049A,114.492,36.5712,邯郸市,矿院,"颗粒物(PM10),细颗粒物(PM2.5)",52,52,27,36,15,59,59,110,94,22,8,3,3,0.4,0.3
2026-04-22T2300,1050A,114.4839,36.6136,邯郸市,丛台公园,,41,41,22,21,14,68,68,113,98,24,12,3,3,0.4,0.3
2026-04-22T2300,3458A,114.7893,36.5592,邯郸市,香泉濮院小区,,43,37,20,30,20,74,74,108,92,15,9,3,2,0.4,0.3
2026-04-22T2300,3580A,114.1998,36.4439,邯郸市,峰峰矿区临水派出所,,39,39,30,25,18,69,69,113,93,23,14,4,4,1.0,0.7
2026-04-22T2300,4068A,114.5209,36.7697,邯郸市,建安街268号,,40,40,29,23,17,65,65,109,91,18,13,3,3,0.3,0.4
2026-04-22T2300,4069A,114.5488,36.6177,邯郸市,丛台东路558号,,38,38,28,20,16,44,44,79,76,42,15,1,2,0.3,0.4
2026-04-22T2300,2635A,107.0155,33.0707,汉中市,市监测站,,22,22,24,12,13,41,41,90,79,14,11,4,5,0.4,0.4
2026-04-22T2300,2636A,107.0083,33.114,汉中市,鑫源开发区,,38,38,24,23,13,5,5,90,70,49,15,4,5,0.5,0.4
2026-04-22T2300,2637A,107.0072,33.0323,汉中市,南郑大河坎水厂,,21,21,22,10,12,33,33,86,67,16,10,4,4,0.3,0.3
2026-04-22T2300,1223A,120.2073,30.2111,杭州市,滨江,NA,NA,7,20,3,12,48,48,39,39,NA,22,7,7,NA,1
2026-04-22T2300,1224A,120.0625,30.2737,杭州市,西溪,,13,6,16,3,8,40,40,36,36,9,12,4,4,0.8,0.8
2026-04-22T2300,1226A,120.3417,30.315,杭州市,下沙,,14,6,33,3,14,44,44,41,41,11,23,8,8,0.7,0.7
2026-04-22T2300,1227A,120.1252,30.2465,杭州市,卧龙桥,,13,7,16,3,10,40,40,40,40,15,18,8,8,0.6,0.5
2026-04-22T2300,1228A,120.1902,30.2691,杭州市,浙江农大,,13,6,14,3,11,40,40,37,37,25,32,7,7,0.5,0.5
2026-04-22T2300,1230A,120.1195,30.3121,杭州市,和睦小学,,14,6,15,3,12,44,44,37,37,14,23,6,6,0.6,0.6
2026-04-22T2300,1231A,120.3076,30.4146,杭州市,临平镇,,16,6,23,3,13,49,49,46,46,15,26,6,6,0.5,0.6
2026-04-22T2300,1232A,120.2753,30.1839,杭州市,城厢镇,,14,6,16,3,11,43,43,41,41,15,26,5,6,0.5,0.6
2026-04-22T2300,1233A,120.0883,30.1808,杭州市,云栖,,11,9,14,3,7,33,33,38,37,18,19,7,7,0.7,0.7
2026-04-22T2300,3557A,119.9463,30.0496,杭州市,镇二中,,14,6,12,3,10,43,43,42,42,10,17,4,4,0.6,0.6
2026-04-22T2300,3558A,119.7184,30.2367,杭州市,市府大楼,,12,6,17,3,11,38,38,37,37,16,20,6,6,0.7,0.8
2026-04-22T2300,3656A,120.1554,30.2863,杭州市,消防大队,,13,6,16,3,12,41,41,39,39,12,20,4,4,0.4,0.4
2026-04-22T2300,1270A,117.1957,31.7845,合肥市,明珠广场,,13,6,8,3,4,40,40,54,44,18,18,6,6,0.6,0.5
2026-04-22T2300,1271A,117.307,31.8765,合肥市,三里街,,15,NA,9,3,6,45,45,53,44,23,21,5,5,0.4,0.4
2026-04-22T2300,1272A,117.2587,31.8703,合肥市,琥珀山庄,,15,6,9,3,5,45,45,60,52,16,15,6,6,0.6,0.5
2026-04-22T2300,1275A,117.2593,31.9376,合肥市,庐阳区,,15,6,11,3,6,47,47,53,51,14,12,4,5,0.6,0.6
2026-04-22T2300,1276A,117.345251,31.861615,合肥市,瑶海区,,15,NA,9,3,5,47,47,56,48,21,17,6,6,0.5,0.5
2026-04-22T2300,1277A,117.3033,31.7967,合肥市,包河区,,18,6,15,3,3,22,22,44,30,36,26,8,8,0.5,0.4
2026-04-22T2300,1278A,117.278,31.7392,合肥市,滨湖新区,,13,6,6,3,3,31,31,47,36,26,21,5,5,0.5,0.5
2026-04-22T2300,1279A,117.1324,31.8395,合肥市,高新区,,15,6,13,3,5,46,46,56,51,5,11,4,5,0.5,0.4
2026-04-22T2300,3464A,117.3802,31.9148,合肥市,高教基地,,20,6,13,3,7,62,62,50,45,9,15,7,8,0.4,0.5
2026-04-22T2300,4098A,117.2518,31.8404,合肥市,中国科学技术大学,,14,6,7,3,4,42,42,57,49,14,12,5,5,0.6,0.5
2026-04-22T2300,3614A,79.9241,37.0878,和田地区,地区环保局,颗粒物(PM10),170,290,332,86,91,75,75,106,96,26,13,3,2,0.5,0.5
2026-04-22T2300,3615A,79.9132,37.1137,和田地区,市环保局,颗粒物(PM10),156,262,302,85,93,76,76,110,103,24,13,3,2,0.6,0.6
2026-04-22T2300,2517A,108.0496,24.6957,河池市,市环保站,,15,NA,16,10,11,24,24,42,36,5,3,7,7,0.7,0.6
2026-04-22T2300,4302A,108.0901,24.6945,河池市,上任中路54号,,18,NA,15,12,11,20,20,41,30,9,5,7,7,0.8,0.7
2026-04-22T2300,1697A,114.6962,23.7538,河源市,东埔,,34,34,27,19,21,56,56,107,84,11,8,6,6,0.4,0.5
2026-04-22T2300,1698A,114.6895,23.7232,河源市,老城,NA,NA,35,34,25,22,NA,NA,102,84,13,7,6,6,0.4,0.5
2026-04-22T2300,3374A,115.5562,35.089,菏泽市,定陶老年大学,,39,39,32,24,21,68,68,111,92,12,10,4,5,0.3,0.2
2026-04-22T2300,4114A,115.4239,35.2593,菏泽市,黄河路600号,,44,44,38,19,18,66,66,109,93,15,10,4,3,0.4,0.3
2026-04-22T2300,4115A,115.5025,35.2727,菏泽市,菏泽市人社局,,35,35,33,17,18,79,79,108,94,11,11,5,6,0.2,0.2
2026-04-22T2300,4184A,115.479691,35.244011,菏泽市,永昌路1号,,33,33,34,21,17,75,75,118,101,13,19,1,3,0.1,0.4
2026-04-22T2300,4193A,115.471542,35.280012,菏泽市,长城路999号,,30,30,30,16,17,83,83,116,104,12,12,6,7,0.3,0.2
2026-04-22T2300,2514A,111.5264,24.4178,贺州市,环保小区,,14,7,21,3,11,42,42,43,43,9,10,5,6,0.3,0.3
2026-04-22T2300,2515A,111.561,24.4074,贺州市,政协大楼,,15,15,21,3,10,41,41,44,40,12,14,9,9,0.4,0.4
2026-04-22T2300,3534A,111.4744,24.455,贺州市,西湾,,12,9,30,3,10,38,38,39,39,9,12,8,8,0.5,0.5
2026-04-22T2300,2385A,114.17,35.9019,鹤壁市,市监测站,,33,24,32,23,24,64,64,103,87,7,10,4,4,0.4,0.6
2026-04-22T2300,2386A,114.2953,35.7512,鹤壁市,市交警支队,,40,40,29,25,20,65,65,96,85,20,12,5,6,0.4,0.4
2026-04-22T2300,2387A,114.2877,35.7302,鹤壁市,迎宾馆,细颗粒物(PM2.5),88,NA,33,54,22,62,62,94,84,25,17,5,4,0.5,0.5
2026-04-22T2300,3474A,114.2616,35.6824,鹤壁市,大新区,细颗粒物(PM2.5),54,44,26,37,26,46,46,93,74,26,13,5,3,0.5,0.4
2026-04-22T2300,3596A,114.1573,35.9607,鹤壁市,南山宾馆,,45,39,27,31,25,52,52,97,80,28,13,15,8,0.7,0.7
2026-04-22T2300,2244A,130.2537,47.3416,鹤岗市,哈啤分公司,,23,19,18,3,6,71,71,77,74,5,6,10,10,0.3,0.2
2026-04-22T2300,2245A,130.2683,47.3087,鹤岗市,斯达机电,,23,15,22,3,7,73,73,77,74,3,4,10,10,0.3,0.4
2026-04-22T2300,2246A,130.3114,47.3388,鹤岗市,东山纸板厂,,24,10,31,3,7,75,75,79,77,5,7,8,9,0.3,0.5
2026-04-22T2300,2263A,127.4832,50.2524,黑河市,交通局,,22,13,17,9,12,70,70,76,72,7,9,5,5,0.2,0.2
2026-04-22T2300,2264A,127.5146,50.2339,黑河市,环保局,,24,11,14,3,6,74,74,77,74,6,8,6,8,0.3,0.3
2026-04-22T2300,1074A,115.6839,37.754,衡水市,电机北厂,,33,33,33,17,13,96,96,118,110,17,13,4,3,0.2,0.3
2026-04-22T2300,1075A,115.6303,37.7318,衡水市,市监测站,,46,46,38,18,11,76,76,116,100,27,18,6,6,0.3,0.3
2026-04-22T2300,3188A,115.6684,37.7216,衡水市,市城管局,,44,44,35,27,16,69,69,116,98,32,15,4,3,0.3,0.3
2026-04-22T2300,3459A,115.599,37.5491,衡水市,地表水厂,,50,50,30,13,13,25,25,115,82,60,19,3,3,0.4,0.3
2026-04-22T2300,2457A,112.6209,26.9268,衡阳市,衡阳化工总厂,,22,18,10,15,5,37,37,68,56,18,10,4,4,0.7,0.5
2026-04-22T2300,2458A,112.621,26.8957,衡阳市,珠晖区环保局,,19,19,10,13,4,41,41,65,55,15,11,7,7,0.8,0.7
2026-04-22T2300,2459A,112.628,26.8654,衡阳市,市委党校,,25,NA,9,17,5,30,30,67,54,18,9,9,8,0.8,0.7
2026-04-22T2300,2460A,112.6007,26.8977,衡阳市,市监测站,,20,20,10,9,4,37,37,66,54,23,12,7,6,0.7,0.6
2026-04-22T2300,2461A,112.5658,26.9013,衡阳市,真空机电公司,,23,20,10,16,4,29,29,76,63,23,9,6,6,0.7,0.6
2026-04-22T2300,3399A,112.6703,26.8817,衡阳市,师范学院,,13,12,8,9,5,39,39,63,54,14,10,6,6,0.6,0.5
2026-04-22T2300,3038A,103.3757,23.3679,红河哈尼族彝族自治州,州图书馆,细颗粒物(PM2.5),74,69,69,47,52,98,98,129,106,12,8,5,5,0.5,0.5
2026-04-22T2300,4154A,103.401,23.3561,红河哈尼族彝族自治州,蒙自市朝阳路,细颗粒物(PM2.5),80,54,55,50,49,90,90,127,103,11,8,4,5,0.4,0.5
2026-04-22T2300,1090A,111.6506,40.7517,呼和浩特市,呼市一监,细颗粒物(PM2.5),183,197,98,138,51,19,19,117,94,83,33,11,9,1.1,0.6
2026-04-22T2300,1094A,111.7516,40.8369,呼和浩特市,如意水处理厂,颗粒物(PM10),74,83,75,42,33,56,56,122,106,50,35,8,10,0.3,0.4
2026-04-22T2300,1095A,111.727798,40.806187,呼和浩特市,二十九中,细颗粒物(PM2.5),116,123,78,77,35,37,37,116,101,63,28,12,12,0.7,0.5
2026-04-22T2300,1097A,111.717,40.7617,呼和浩特市,化肥厂生活区,颗粒物(PM10),134,208,95,96,48,23,23,116,93,79,39,11,9,0.7,0.7
2026-04-22T2300,3699A,111.6519,40.8389,呼和浩特市,海东办,颗粒物(PM10),75,85,71,35,31,63,63,115,100,43,38,6,7,0.4,0.4
2026-04-22T2300,4275A,111.591512,40.827312,呼和浩特市,成吉思汗西街8号,颗粒物(PM10),83,95,80,36,30,14,14,115,86,104,49,7,8,0.6,0.5
2026-04-22T2300,4276A,111.6597,40.8077,呼和浩特市,公园东路75号,"颗粒物(PM10),细颗粒物(PM2.5)",102,124,81,62,35,58,58,114,105,44,28,7,7,0.5,0.4
2026-04-22T2300,4277A,111.5427,40.7846,呼和浩特市,金海路35号,细颗粒物(PM2.5),108,103,88,68,39,27,27,109,94,80,40,14,16,0.7,0.5
2026-04-22T2300,3061A,119.7511,49.1576,呼伦贝尔市,国华电力东,,32,28,25,22,12,56,56,88,75,10,6,5,5,0.3,0.3
2026-04-22T2300,4279A,119.7569,49.2222,呼伦贝尔市,伊敏大街东7号,,38,38,24,22,10,56,56,87,75,22,9,7,7,0.6,0.4
2026-04-22T2300,1250A,120.075,30.867,湖州市,城西水厂,,15,12,18,10,12,47,47,53,50,18,24,5,5,0.5,0.5
2026-04-22T2300,2873A,120.083,30.8929,湖州市,仁皇山新区,,12,10,18,7,12,34,34,45,34,23,28,5,5,0.6,0.6
2026-04-22T2300,2907A,120.1846,30.8592,湖州市,吴兴区站,,15,15,26,9,13,36,36,48,41,19,22,5,5,0.4,0.3
2026-04-22T2300,3562A,120.4146,30.8538,湖州市,南浔区站,,20,19,27,14,12,58,58,58,46,13,16,5,5,0.7,0.7
2026-04-22T2300,1607A,120.904878,40.721091,葫芦岛市,龙港区,,34,34,67,19,16,33,33,111,88,45,25,11,20,0.6,0.5
2026-04-22T2300,1608A,120.8382,40.7521,葫芦岛市,化工街,颗粒物(PM10),88,102,71,46,22,2,2,103,67,98,36,32,23,0.7,0.3
2026-04-22T2300,1609A,120.8339,40.7078,葫芦岛市,新区,颗粒物(PM10),70,78,58,39,18,3,3,104,76,98,32,12,16,0.8,0.6
2026-04-22T2300,1610A,120.8697,40.7679,葫芦岛市,东城区,颗粒物(PM10),117,164,73,48,23,2,2,108,71,97,36,13,19,1.0,0.5
2026-04-22T2300,2483A,109.9297,27.5383,怀化市,河西地税局,,16,16,7,3,4,30,30,60,48,13,8,7,7,/,/
2026-04-22T2300,2484A,109.9783,27.5342,怀化市,市四医院,,15,15,10,9,5,42,42,65,57,8,6,3,3,0.3,0.3
2026-04-22T2300,2485A,109.9971,27.5579,怀化市,监测楼,,12,9,8,6,3,38,38,64,53,8,7,3,4,0.5,0.5
2026-04-22T2300,1210A,119.0566,33.5991,淮安市,钵池山,,31,31,15,12,7,65,65,83,78,18,11,8,7,0.3,0.3
2026-04-22T2300,1211A,119.0083,33.578,淮安市,北京南路,,36,36,15,13,8,72,72,82,80,10,6,8,6,0.2,0.2
2026-04-22T2300,1212A,118.9938,33.6083,淮安市,市监测站,,24,22,9,12,9,74,74,94,90,16,10,5,4,0.5,0.5
2026-04-22T2300,1213A,119.135,33.5038,淮安市,楚州区监测站,,32,32,11,11,7,85,85,88,88,9,6,5,5,0.3,0.3
2026-04-22T2300,3426A,118.8757,33.2897,淮安市,新华书店,,41,41,15,13,10,78,78,83,82,15,11,9,7,0.3,0.3
2026-04-22T2300,4092A,119.119691,33.550006,淮安市,枚皋中路89号,,37,37,18,14,8,80,80,90,88,15,8,6,6,0.3,0.3
2026-04-22T2300,4206A,119.028838,33.631911,淮安市,承德北路606号,,31,31,15,10,7,64,64,82,77,15,9,8,6,0.3,0.3
2026-04-22T2300,2282A,116.8005,33.9749,淮北市,监测站,NA,NA,56,38,16,21,NA,NA,78,78,11,15,6,6,0.3,0.4
2026-04-22T2300,2283A,116.8094,33.9008,淮北市,烈山区政府,,42,42,33,13,18,91,91,84,84,6,10,5,5,0.2,0.3
2026-04-22T2300,4017A,116.7926,33.9534,淮北市,市博物馆,,42,42,34,15,22,87,87,78,78,9,14,12,9,0.3,0.4
2026-04-22T2300,4100A,116.8322,33.9884,淮北市,杜集区第一实验学校,,39,39,43,11,17,86,86,78,78,6,10,5,6,0.3,0.4
2026-04-22T2300,2277A,116.8304,32.7726,淮南市,潘集区政府,,21,9,12,7,13,65,65,61,57,14,18,5,5,0.3,0.3
2026-04-22T2300,2279A,116.8569,32.5949,淮南市,谢家集区政府,,23,8,12,6,13,73,73,64,58,6,10,7,8,0.1,0.2
2026-04-22T2300,2280A,116.8279,32.6333,淮南市,八公山区政府,,21,12,15,8,12,67,67,63,56,8,10,4,5,0.2,0.3
2026-04-22T2300,2894A,117.0561,32.6536,淮南市,经济技术开发区消防队,,20,12,13,11,13,62,62,60,57,18,13,6,6,0.1,0.1
2026-04-22T2300,3329A,117.011,32.5891,淮南市,山南新区,NA,NA,NA,9,9,11,NA,NA,64,64,12,12,7,7,0.2,0.3
2026-04-22T2300,4209A,117.003137,32.644456,淮南市,国庆中路369号,,22,22,17,7,11,64,64,56,56,7,9,5,5,0.3,0.3
2026-04-22T2300,2446A,114.9021,30.474,黄冈市,职工中心,,20,10,12,6,6,63,63,70,68,6,6,6,6,0.3,0.4
2026-04-22T2300,2929A,114.8858,30.4519,黄冈市,红卫路,,21,8,10,3,6,67,67,74,72,3,5,5,5,0.1,0.2
2026-04-22T2300,3398A,114.9134,30.4446,黄冈市,市林业局,,21,9,11,3,6,65,65,79,77,10,7,4,4,0.4,0.4
2026-04-22T2300,2672A,102.02,35.5101,黄南藏族自治州,同仁县隆务镇,颗粒物(PM10),75,84,57,41,32,82,82,117,108,2,3,10,10,0.2,0.3
2026-04-22T2300,2295A,118.2905,29.6965,黄山市,延安路89号,,15,13,10,3,3,46,46,46,46,8,10,4,4,0.3,0.4
2026-04-22T2300,2297A,118.1369,30.2755,黄山市,黄山区政府5号楼,,15,6,10,3,1,46,46,47,47,8,9,2,2,0.3,0.4
2026-04-22T2300,4210A,118.335445,29.720283,黄山市,滨江东路7-2号,,17,17,16,3,3,44,44,50,49,10,10,/,/,/,/
2026-04-22T2300,2423A,115.0547,30.2332,黄石市,沈家营,,22,15,16,3,5,70,70,74,74,7,6,4,4,0.4,0.4
2026-04-22T2300,2426A,114.899,30.211,黄石市,铁山,,21,21,20,3,6,59,59,68,67,10,7,6,7,0.7,0.7
2026-04-22T2300,2427A,115.0259,30.2108,黄石市,团城山,,30,30,24,12,7,54,54,58,58,7,7,5,5,0.7,0.7
2026-04-22T2300,3149A,115.0174,30.1591,黄石市,笔架山北路,,25,25,19,3,5,62,62,66,66,12,11,6,6,0.7,0.6
2026-04-22T2300,4185A,115.078022,30.21118,黄石市,磁湖东路29号,,22,14,15,3,6,70,70,73,73,14,14,3,4,0.3,0.4
2026-04-22T2300,1392A,114.4181,23.0528,惠州市,河南岸金山湖子站,,28,28,27,14,17,38,38,93,62,20,12,6,6,0.5,0.5
2026-04-22T2300,1393A,114.4055,23.0824,惠州市,下埔横江三路子站,,36,36,32,21,16,38,38,94,63,18,10,6,5,0.7,0.7
2026-04-22T2300,1395A,114.4645,22.7832,惠州市,惠阳区承修路船湖子站,,30,30,25,18,16,45,45,85,64,9,6,6,6,0.4,0.4
2026-04-22T2300,1396A,114.5316,22.7423,惠州市,大亚湾管委会子站,,25,25,23,15,15,53,53,86,67,5,5,4,4,0.3,0.3
2026-04-22T2300,3314A,114.4334,22.8134,惠州市,惠阳秋长,,29,NA,24,20,16,45,45,94,65,14,10,/,/,/,/
2026-04-22T2300,3452A,114.6521,22.7755,惠州市,大亚湾霞涌,,18,12,17,12,14,49,49,84,69,12,6,/,/,/,/
2026-04-22T2300,4300A,114.4089,23.1147,惠州市,文华一路1号,,31,31,26,20,16,41,41,98,67,19,10,/,/,/,/
2026-04-22T2300,2240A,130.9618,45.2926,鸡西市,环保局,,23,9,21,6,8,72,72,80,75,5,5,7,7,0.2,0.2
2026-04-22T2300,2243A,130.9294,45.2959,鸡西市,第一中学,,23,NA,19,8,11,71,71,79,74,2,3,5,5,0.2,0.3
2026-04-22T2300,3707A,131.0069,45.2988,鸡西市,欧美日汽修厂,,23,10,25,3,10,71,71,76,70,4,6,6,3,0.2,0.3
2026-04-22T2300,2367A,114.9753,27.0803,吉安市,红声器材厂,,25,25,20,3,4,55,55,53,53,9,12,6,5,0.4,0.5
2026-04-22T2300,2369A,114.9903,27.1313,吉安市,市环境监测站,,15,14,28,6,6,48,48,48,48,10,14,11,11,/,/
2026-04-22T2300,2370A,115.009527,27.096792,吉安市,青原区法院,,17,16,21,3,6,52,52,50,50,9,15,7,7,0.6,0.7
2026-04-22T2300,1772A,126.54,43.8622,吉林市,哈达湾,细颗粒物(PM2.5),70,48,49,45,15,47,47,90,77,27,7,7,6,0.4,0.2
2026-04-22T2300,1773A,126.5843,43.8358,吉林市,东局子,颗粒物(PM10),76,86,49,33,11,26,26,88,67,46,11,4,3,0.9,0.8
2026-04-22T2300,1774A,126.5051,43.8243,吉林市,电力学院,细颗粒物(PM2.5),70,73,50,45,21,32,32,95,74,33,10,6,5,1.0,0.6
2026-04-22T2300,1775A,126.6133,43.8971,吉林市,江北,颗粒物(PM10),65,70,52,36,14,28,28,94,65,33,15,12,12,0.7,0.5
2026-04-22T2300,1776A,126.5549,43.8304,吉林市,江南公园,细颗粒物(PM2.5),64,58,41,42,15,42,42,89,74,31,8,8,6,0.8,0.5
2026-04-22T2300,2868A,126.4737,43.953,吉林市,九站,,48,48,59,28,21,45,45,88,63,38,16,14,11,0.3,0.3
2026-04-22T2300,1299A,116.9866,36.6118,济南市,科干所,颗粒物(PM10),68,75,46,30,20,80,80,126,115,30,22,6,9,0.7,0.6
2026-04-22T2300,1300A,116.9379,36.6652,济南市,农科所,颗粒物(PM10),62,66,40,21,18,28,28,125,103,68,23,5,6,0.3,0.3
2026-04-22T2300,1301A,117.1265,36.6736,济南市,开发区,颗粒物(PM10),55,56,38,22,19,57,57,131,110,32,17,5,6,0.5,0.5
2026-04-22T2300,1303A,117.0616,36.6865,济南市,省种子仓库,颗粒物(PM10),74,83,50,20,19,41,41,128,107,47,20,6,5,0.6,0.5
2026-04-22T2300,1304A,116.9495185,36.644937,济南市,机床二厂,颗粒物(PM10),65,71,54,25,22,53,53,130,112,48,24,6,6,0.6,0.5
2026-04-22T2300,1305A,117.0496,36.6629,济南市,市监测站,颗粒物(PM10),55,56,46,11,17,65,65,119,107,31,23,4,4,0.7,0.6
2026-04-22T2300,1306A,116.7674,36.5458,济南市,长清党校,颗粒物(PM10),73,81,36,32,15,58,58,116,106,42,19,4,4,0.6,0.5
2026-04-22T2300,1961A,117.5323,36.6865,济南市,东山小学,颗粒物(PM10),55,56,39,16,14,69,69,139,109,35,22,7,5,0.5,0.5
2026-04-22T2300,3059A,117.7181,36.205,济南市,泰兴公司,颗粒物(PM10),51,51,18,29,6,57,57,116,96,37,14,7,6,0.4,0.3
2026-04-22T2300,3064A,117.6861,36.2172,济南市,莱芜战役纪念馆,颗粒物(PM10),51,51,19,28,6,68,68,116,100,27,11,8,4,0.5,0.1
2026-04-22T2300,3494A,117.1673,36.9782,济南市,济阳区政府,颗粒物(PM10),60,63,46,25,24,82,82,122,116,21,18,10,9,0.7,0.5
2026-04-22T2300,3495A,117.1168,36.6299,济南市,锦屏中学,,37,37,28,16,14,57,57,118,98,13,11,4,5,0.4,0.4
2026-04-22T2300,4108A,117.7107,36.2385,济南市,山财大街5号,,48,48,15,27,5,70,70,113,98,31,14,5,4,0.6,0.5
2026-04-22T2300,4109A,116.9744,36.6889,济南市,无影山路12号,颗粒物(PM10),63,68,39,27,21,24,24,121,100,80,21,5,5,0.4,0.3
2026-04-22T2300,1653A,116.6229,35.4288,济宁市,火炬城,,36,36,23,21,10,66,66,105,91,11,8,2,2,0.4,0.3
2026-04-22T2300,3500A,116.5808,35.3703,济宁市,北湖一中,,41,41,25,21,11,68,68,112,96,22,12,5,5,0.3,0.2
2026-04-22T2300,3501A,116.8251,35.5592,济宁市,服务中心,,39,36,26,27,10,60,60,107,88,17,10,4,2,0.5,0.5
2026-04-22T2300,3678A,116.5907,35.4054,济宁市,市第七中学,,36,36,35,24,11,80,80,119,105,16,11,6,3,0.3,0.2
2026-04-22T2300,4111A,116.6075,35.4566,济宁市,任和路,,41,41,30,26,13,80,80,113,102,11,8,6,5,0.4,0.3
2026-04-22T2300,4112A,116.5648,35.3921,济宁市,文体南路1号,,49,49,30,28,10,69,69,110,96,12,5,4,3,0.5,0.4
2026-04-22T2300,4122A,112.6071,35.1015,济源市,市委党校,颗粒物(PM10),57,59,52,28,21,46,46,102,86,32,19,6,9,0.5,0.6
2026-04-22T2300,4123A,112.596,35.0702,济源市,沁园中路1号,,48,48,35,29,23,32,32,103,81,36,18,2,5,0.6,0.8
2026-04-22T2300,2255A,130.2749,46.8028,佳木斯市,佳纺,,23,23,22,11,7,55,55,75,67,9,6,3,4,0.3,0.2
2026-04-22T2300,2257A,130.3258,46.7975,佳木斯市,环保局,,21,9,14,3,7,65,65,82,76,14,6,2,3,0.2,0.2
2026-04-22T2300,4285A,130.363,46.806,佳木斯市,顺和街,,23,6,13,3,6,72,72,74,73,6,7,1,2,0.2,0.2
2026-04-22T2300,4286A,130.3952,46.8268,佳木斯市,长安路196号,,21,NA,10,8,5,65,65,80,74,5,3,2,1,0.3,0.3
2026-04-22T2300,1252A,120.7439,30.778,嘉兴市,清河小学,,38,NA,22,26,7,54,54,60,47,18,19,6,6,0.6,0.6
2026-04-22T2300,1253A,120.7261,30.7477,嘉兴市,嘉兴学院,,25,20,19,17,12,57,57,65,50,19,22,5,5,0.7,0.7
2026-04-22T2300,2872A,120.7845,30.7524,嘉兴市,南湖区残联,,25,21,13,17,13,68,68,67,56,14,16,4,4,0.5,0.5
2026-04-22T2300,3407A,120.6915,30.7741,嘉兴市,秀洲住建,,25,21,16,17,9,61,61,66,54,16,18,5,5,0.6,0.6
2026-04-22T2300,1945A,98.291,39.7705,嘉峪关市,气象局,颗粒物(PM10),112,151,182,59,69,82,82,112,96,15,9,11,17,0.4,0.7
2026-04-22T2300,2884A,98.2672,39.7978,嘉峪关市,酒钢宾馆,颗粒物(PM10),118,166,194,51,67,88,88,114,107,17,7,11,20,0.4,0.4
2026-04-22T2300,3248A,98.2644,39.7723,嘉峪关市,雄关区,颗粒物(PM10),107,138,170,53,68,NA,NA,114,112,22,12,NA,11,0.5,0.4
2026-04-22T2300,1383A,113.1063,22.6058,江门市,北街,,38,38,30,22,16,40,40,68,54,15,9,/,/,/,/
2026-04-22T2300,1384A,113.073,22.5835,江门市,西区,,48,48,29,20,16,40,40,69,54,20,12,/,/,/,/
2026-04-22T2300,1385A,113.0218,22.531,江门市,圭峰西,,28,22,27,19,16,37,37,67,53,20,12,/,/,/,/
2026-04-22T2300,1386A,113.0826,22.5947,江门市,东湖,,41,41,25,25,16,38,38,68,53,16,9,7,7,0.3,0.3
2026-04-22T2300,3311A,113.1077,22.5647,江门市,江海富民,,35,35,31,18,16,40,40,72,54,19,13,/,/,0.2,0.2
2026-04-22T2300,3449A,113.0496,22.4669,江门市,新会银湖,,28,24,25,19,17,40,40,66,53,18,15,7,7,0.4,0.4
2026-04-22T2300,3335A,113.3137,35.2643,焦作市,马村街道办,颗粒物(PM10),58,61,43,31,25,27,27,97,77,17,11,8,10,0.5,0.3
2026-04-22T2300,3336A,113.2464,35.2374,焦作市,焦作技师学院,,45,45,37,27,24,45,45,100,82,19,12,7,10,0.8,0.8
2026-04-22T2300,3477A,113.1656,35.2536,焦作市,中站许衡医院,,41,41,35,25,24,46,46,102,75,19,11,8,9,0.5,0.5
2026-04-22T2300,3981A,113.2456,35.18,焦作市,原李万街道办,颗粒物(PM10),55,56,39,28,21,65,65,100,86,18,12,7,6,0.3,0.3
2026-04-22T2300,4264A,113.234,35.219,焦作市,新安路1731号,颗粒物(PM10),56,58,42,26,23,49,49,108,90,19,26,9,10,0.4,0.4
2026-04-22T2300,4295A,113.2722,35.2121,焦作市,人民路3066号,,48,48,36,28,23,56,56,88,77,17,14,4,6,0.3,0.4
2026-04-22T2300,1708A,116.3701,23.5345,揭阳市,新兴,,32,32,36,17,21,49,49,76,62,15,13,6,6,0.6,0.6
2026-04-22T2300,1709A,116.3261,23.5442,揭阳市,西马,,39,39,42,16,21,44,44,76,60,15,13,4,7,0.7,0.7
2026-04-22T2300,1710A,116.361,23.5627,揭阳市,东兴,,28,28,35,14,20,54,54,82,67,9,12,3,5,/,/
2026-04-22T2300,1711A,116.4151,23.5295,揭阳市,渔湖,,32,32,38,21,21,51,51,84,68,13,13,2,4,/,/
2026-04-22T2300,3320A,116.4028,23.5699,揭阳市,曲溪,,39,39,32,14,19,54,54,86,72,11,10,8,11,0.5,0.5
2026-04-22T2300,1944A,102.1691,38.5166,金昌市,天庆家园,颗粒物(PM10),110,144,134,66,46,61,61,116,102,21,10,6,9,0.6,0.3
2026-04-22T2300,4022A,102.1648,38.5369,金昌市,金川区人防中心,颗粒物(PM10),100,119,140,58,44,72,72,111,100,16,8,5,9,0.5,0.4
2026-04-22T2300,4239A,102.193042,38.531887,金昌市,长春路96号,颗粒物(PM10),112,150,148,61,54,55,55,108,97,21,5,7,9,0.5,0.4
2026-04-22T2300,1262A,119.6478,29.0773,金华市,十五中,,11,9,23,3,16,32,32,41,34,21,24,2,3,1.0,0.6
2026-04-22T2300,1263A,119.6859,29.1032,金华市,监测站,,15,7,19,3,19,34,34,46,36,29,33,3,3,0.9,0.7
2026-04-22T2300,3659A,119.656,29.1132,金华市,气象局,,12,7,17,3,10,26,26,40,30,24,25,3,3,0.6,0.4
2026-04-22T2300,1767A,121.1114,41.0879,锦州市,南山,细颗粒物(PM2.5),58,48,46,39,18,61,61,110,96,34,20,8,10,0.5,0.4
2026-04-22T2300,1768A,121.060361,40.842794,锦州市,开发区,颗粒物(PM10),63,68,74,36,23,9,9,114,67,97,33,16,15,0.8,0.7
2026-04-22T2300,1769A,121.1836,41.1118,锦州市,百股街道,细颗粒物(PM2.5),56,50,48,38,19,53,53,108,87,33,20,9,10,0.8,0.7
2026-04-22T2300,1770A,121.1176,41.1224,锦州市,天安街道,细颗粒物(PM2.5),82,64,48,51,19,22,22,102,85,67,22,6,7,0.8,0.2
2026-04-22T2300,1771A,121.1303,41.1385,锦州市,北湖公园,颗粒物(PM10),63,67,42,40,18,52,52,105,91,31,14,10,9,0.7,0.4
2026-04-22T2300,2160A,112.8496,35.5051,晋城市,自来水公司,颗粒物(PM10),71,79,44,16,11,37,37,103,92,34,14,5,5,0.5,0.5
2026-04-22T2300,2162A,112.8509,35.4886,晋城市,市环保局,颗粒物(PM10),55,57,41,27,14,62,62,101,91,21,14,5,6,0.6,0.5
2026-04-22T2300,3620A,112.8258,35.4804,晋城市,泽州一中,,39,38,29,27,13,72,72,102,93,18,14,5,4,0.9,0.8
2026-04-22T2300,4078A,112.8246,35.5152,晋城市,前书院路,颗粒物(PM10),59,62,28,17,10,18,18,102,82,48,17,6,7,0.9,0.9
2026-04-22T2300,4079A,112.8864,35.4773,晋城市,祥云街666号,颗粒物(PM10),52,52,36,27,19,63,63,104,96,28,14,7,9,0.7,0.8
2026-04-22T2300,2174A,112.6992,37.6984,晋中市,榆次区政府,颗粒物(PM10),84,97,84,51,40,80,80,108,100,22,28,7,8,1.0,0.9
2026-04-22T2300,2865A,112.7195,37.683,晋中市,榆次三中,颗粒物(PM10),98,117,88,42,37,84,84,118,106,19,24,7,9,1.5,0.7
2026-04-22T2300,4080A,112.7375,37.7215,晋中市,广安街188号,颗粒物(PM10),83,95,78,46,36,90,90,111,103,22,25,5,6,0.6,0.6
2026-04-22T2300,4200A,112.7478,37.6954,晋中市,迎宾街26号,细颗粒物(PM2.5),98,107,85,59,45,94,94,119,111,20,24,8,9,0.9,0.7
2026-04-22T2300,2439A,112.2012,31.048,荆门市,竹园小学,,28,28,20,15,11,49,49,96,79,27,14,1,3,0.4,0.3
2026-04-22T2300,2440A,112.1968,30.9892,荆门市,掇刀,,22,17,21,7,12,68,68,101,92,13,7,10,8,0.5,0.5
2026-04-22T2300,3012A,112.1849,31.0361,荆门市,西山林语,,21,18,23,14,10,67,67,100,85,12,9,6,5,0.4,0.4
2026-04-22T2300,3547A,112.1631,31.0134,荆门市,龙泉中学南校,,26,26,17,8,7,70,70,103,90,14,14,4,4,0.2,0.3
2026-04-22T2300,4124A,112.2213,31.0654,荆门市,新台西路6号,,27,27,24,15,14,47,47,93,73,21,10,7,7,0.5,0.5
2026-04-22T2300,1844A,112.2493,30.3198,荆州市,市图书馆,,20,20,16,10,13,49,49,77,74,19,15,6,6,0.6,0.6
2026-04-22T2300,1845A,112.2009,30.3543,荆州市,市委党校,,31,31,18,16,13,26,26,93,73,33,15,6,7,0.4,0.4
2026-04-22T2300,3194A,112.2749,30.3124,荆州市,管委会,,26,20,17,18,13,47,47,87,76,17,11,6,6,0.4,0.3
2026-04-22T2300,4268A,112.1722,30.3366,荆州市,学苑路85号,,23,23,19,16,11,15,15,105,77,35,8,3,4,0.5,0.4
2026-04-22T2300,2343A,117.2114,29.2931,景德镇市,老干部活动中心,,16,NA,8,11,9,50,50,42,42,4,7,4,5,0.6,0.7
2026-04-22T2300,2344A,117.1893,29.2789,景德镇市,兽医站,,18,16,19,3,6,55,55,43,43,7,12,4,4,0.5,0.6
2026-04-22T2300,2346A,117.246,29.2958,景德镇市,陶研所,,15,11,10,3,8,46,46,40,40,12,13,4,4,0.6,0.7
2026-04-22T2300,4289A,117.154766,29.256967,景德镇市,青少年活动中心,,17,12,13,3,9,54,54,43,43,7,14,6,20,/,/
2026-04-22T2300,1803A,115.9873,29.6816,九江市,十里,,32,30,22,22,12,63,63,57,57,17,21,7,7,0.9,0.9
2026-04-22T2300,1804A,115.9583,29.7047,九江市,茅山头,,35,29,21,24,15,61,61,54,54,14,18,3,4,0.6,0.7
2026-04-22T2300,1805A,115.9877,29.7295,九江市,西园,,29,28,19,20,10,60,60,54,54,22,21,5,4,0.7,0.7
2026-04-22T2300,1808A,115.9112,29.6038,九江市,综合工业园,,28,19,13,19,8,63,63,53,53,17,24,7,7,0.6,0.7
2026-04-22T2300,3190A,116.0254,29.6995,九江市,外国语学校,,35,30,22,24,14,52,52,48,48,20,20,9,9,0.8,0.9
2026-04-22T2300,4253A,116.010205,29.659402,九江市,莲花大道8号,,34,34,23,20,9,58,58,56,56,12,13,4,4,0.5,0.6
2026-04-22T2300,4240A,98.495752,39.733935,酒泉市,玉门东路5号,颗粒物(PM10),112,149,198,60,73,73,73,98,92,20,8,7,10,0.4,0.3
2026-04-22T2300,4241A,98.5099,39.7506,酒泉市,北大街108号,颗粒物(PM10),110,146,191,59,71,54,54,93,84,29,9,8,11,0.6,0.3
2026-04-22T2300,2698A,76.0071,39.466,喀什地区,巡警大队,颗粒物(PM10),183,316,359,120,131,15,15,112,99,97,35,5,4,0.9,0.5
2026-04-22T2300,2699A,75.9756,39.4693,喀什地区,吾办,颗粒物(PM10),191,332,329,132,122,32,32,107,96,53,27,5,4,1.1,0.7
2026-04-22T2300,4027A,75.9485,39.4688,喀什地区,老干局,颗粒物(PM10),176,301,324,102,102,48,48,109,101,48,22,3,3,0.7,0.5
2026-04-22T2300,1824A,114.3389,34.778,开封市,肿瘤医院,细颗粒物(PM2.5),56,46,27,38,22,61,61,110,95,24,13,6,6,0.7,0.6
2026-04-22T2300,1826A,114.2884,34.7966,开封市,世纪星幼儿园,,45,43,29,31,21,65,65,105,93,14,16,6,6,0.7,0.6
2026-04-22T2300,3147A,114.3434,34.8101,开封市,龙亭公园,细颗粒物(PM2.5),52,36,25,36,20,67,67,108,96,22,17,7,7,0.5,0.4
2026-04-22T2300,3210A,114.3645,34.7955,开封市,汴京公园,NA,NA,38,31,35,22,NA,NA,114,NA,14,14,4,4,0.6,0.5
2026-04-22T2300,3473A,114.2485,34.8306,开封市,技师学院,,46,45,30,32,19,79,79,105,94,14,18,4,4,0.4,0.4
2026-04-22T2300,3592A,114.4518,34.7503,开封市,祥符区生态环境局,颗粒物(PM10),54,55,31,29,25,40,40,103,83,38,17,7,8,0.5,0.5
2026-04-22T2300,1951A,84.886,45.6029,克拉玛依市,长征新村,细颗粒物(PM2.5),102,NA,42,62,17,66,66,122,113,38,32,8,8,0.9,0.6
2026-04-22T2300,1952A,84.8894,45.5827,克拉玛依市,南林小区,颗粒物(PM10),78,88,52,6,7,29,29,120,95,56,17,5,4,0.7,0.3
2026-04-22T2300,1954A,84.896,44.3328,克拉玛依市,独山子区,颗粒物(PM10),63,67,42,17,7,89,89,126,122,15,11,7,6,0.5,0.4
2026-04-22T2300,1955A,85.6888,46.0909,克拉玛依市,乌尔禾区商贸楼,颗粒物(PM10),70,78,66,24,19,88,88,117,110,17,15,4,4,0.4,0.3
2026-04-22T2300,3612A,85.1045,45.6895,克拉玛依市,白碱滩区新站,颗粒物(PM10),62,66,67,28,11,88,88,129,123,20,12,8,8,0.2,0.2
2026-04-22T2300,2697A,76.1457,39.7143,克孜勒苏柯尔克孜自治州,市人民政府,颗粒物(PM10),176,302,317,120,111,69,69,116,110,43,16,5,7,0.2,0.1
2026-04-22T2300,3665A,76.1654,39.7157,克孜勒苏柯尔克孜自治州,克州文化中心,颗粒物(PM10),178,306,335,126,132,79,79,114,109,30,15,4,4,0.2,0.2
2026-04-22T2300,1450A,102.8203,24.889,昆明市,呈贡新区,,48,46,49,33,35,99,99,150,129,27,12,3,5,0.5,0.6
2026-04-22T2300,1452A,102.7253,25.0904,昆明市,龙泉镇,颗粒物(PM10),64,69,59,37,33,61,61,138,108,41,29,5,4,0.7,0.6
2026-04-22T2300,1453A,102.7267,25.0378,昆明市,东风东路,颗粒物(PM10),55,56,52,35,32,111,111,139,122,14,14,4,5,0.5,0.6
2026-04-22T2300,1454A,102.6744,25.0671,昆明市,金鼎山,颗粒物(PM10),53,54,56,32,31,91,91,135,120,23,18,4,3,0.7,0.7
2026-04-22T2300,1455A,102.6643,25.0401,昆明市,碧鸡广场,颗粒物(PM10),62,66,55,34,35,92,92,134,116,27,22,6,7,0.5,0.6
2026-04-22T2300,3179A,102.7491,25.012,昆明市,官渡区博物馆,"颗粒物(PM10),细颗粒物(PM2.5)",56,58,54,38,34,103,103,140,121,18,15,6,5,0.6,0.6
2026-04-22T2300,3375A,102.8016,24.8336,昆明市,青年创业园,"颗粒物(PM10),细颗粒物(PM2.5)",60,64,51,40,34,103,103,147,132,17,5,6,6,0.5,0.5
2026-04-22T2300,3550A,102.8,24.9787,昆明市,昆明学院,颗粒物(PM10),60,64,53,32,28,108,108,145,129,16,11,7,6,0.4,0.4
2026-04-22T2300,3551A,102.5969,24.6738,昆明市,晋宁区生态环境分局,细颗粒物(PM2.5),62,50,52,41,38,113,113,143,128,8,7,4,4,0.4,0.4
2026-04-22T2300,3552A,102.6673,24.9861,昆明市,云天化总部,颗粒物(PM10),55,56,48,28,29,122,122,144,130,9,12,7,6,0.6,0.6
2026-04-22T2300,1456A,91.132,29.6515,拉萨市,八廓街,,44,44,37,17,14,103,103,120,118,18,9,4,4,0.2,0.2
2026-04-22T2300,1457A,91.1221,29.6748,拉萨市,市环保局,NA,NA,NA,33,NA,12,NA,NA,112,NA,NA,13,NA,4,NA,0.3
2026-04-22T2300,1458A,91.0874,29.6476,拉萨市,区监测站,,35,30,28,7,10,111,111,114,114,20,14,4,5,0.3,0.2
2026-04-22T2300,1459A,91.1774,29.6541,拉萨市,西藏大学,,39,39,36,14,14,119,119,111,111,13,13,3,3,0.3,0.3
2026-04-22T2300,1460A,90.9798,29.6586,拉萨市,区辐射站,,36,36,35,18,15,85,85,106,104,20,13,5,6,0.3,0.3
2026-04-22T2300,1461A,91.0831,29.6292,拉萨市,拉萨火车站,,36,24,30,10,13,113,113,114,114,17,13,3,4,0.3,0.3
2026-04-22T2300,2520A,109.2203,23.7252,来宾市,来宾技工学校,,11,11,25,3,10,29,29,70,42,16,6,8,8,0.7,0.9
2026-04-22T2300,3535A,109.1781,23.7293,来宾市,兴宾区政府,,17,17,32,3,9,38,38,68,46,9,8,13,8,0.8,0.6
2026-04-22T2300,4002A,109.2312,23.7428,来宾市,中南小学,,12,12,21,3,9,27,27,73,43,14,8,7,7,0.6,0.5
2026-04-22T2300,1479A,103.8309,36.0467,兰州市,铁路设计院,细颗粒物(PM2.5),101,102,107,61,53,26,26,114,84,69,31,5,7,1.0,0.8
2026-04-22T2300,3241A,103.7439,36.0841,兰州市,百合公园,颗粒物(PM10),89,104,98,48,46,20,20,116,88,65,28,7,8,0.2,0.4
2026-04-22T2300,3242A,103.9613,35.9985,兰州市,和平,颗粒物(PM10),78,89,96,38,38,94,94,127,114,9,14,7,9,0.3,0.4
2026-04-22T2300,4236A,103.629272,36.093822,兰州市,庄浪东路808号,颗粒物(PM10),74,83,99,45,47,54,54,117,94,48,19,6,13,0.4,0.4
2026-04-22T2300,4237A,103.7251,36.104344,兰州市,安宁西路88号,颗粒物(PM10),85,99,103,45,46,35,35,129,101,59,23,8,12,0.4,0.3
2026-04-22T2300,4238A,103.846982,36.067567,兰州市,北滨河东路1号,细颗粒物(PM2.5),86,88,94,53,43,34,34,117,83,60,38,8,11,0.6,0.6
2026-04-22T2300,1067A,116.6712,39.5109,廊坊市,药材公司,,40,40,45,23,24,83,83,126,119,22,14,2,3,0.4,0.4
2026-04-22T2300,1068A,116.7215,39.5592,廊坊市,开发区,细颗粒物(PM2.5),52,50,45,36,26,81,81,134,124,24,10,4,3,0.3,0.3
2026-04-22T2300,1070A,116.7246,39.5273,廊坊市,北华航天学院,颗粒物(PM10),52,52,46,18,21,79,79,130,122,28,14,3,4,0.3,0.3
2026-04-22T2300,2919A,116.7022,39.5454,廊坊市,河北工业大学,,38,38,50,19,23,88,88,134,128,26,15,3,4,0.4,0.3
2026-04-22T2300,2536A,103.7629,29.5844,乐山市,牛耳桥,颗粒物(PM10),53,54,28,33,16,36,36,79,67,33,19,5,4,0.6,0.6
2026-04-22T2300,2537A,103.7501,29.6002,乐山市,市第三水厂,颗粒物(PM10),53,54,25,33,16,33,33,77,67,34,19,5,4,0.7,0.7
2026-04-22T2300,2538A,103.7571,29.5664,乐山市,市监测站,颗粒物(PM10),51,51,28,28,14,40,40,78,69,28,15,4,3,0.8,0.8
2026-04-22T2300,3361A,103.7313,29.563,乐山市,理工大学,,47,47,22,30,13,38,38,81,67,26,15,4,4,0.6,0.6
2026-04-22T2300,2599A,100.2497,26.8802,丽江市,丽江古城,,30,22,20,7,7,96,96,111,102,7,6,8,8,0.7,0.8
2026-04-22T2300,2600A,100.2203,26.8906,丽江市,市中心,,30,12,11,7,9,96,96,109,100,7,9,6,6,0.5,0.5
2026-04-22T2300,1267A,119.9141,28.4513,丽水市,监测站大楼,,14,14,15,6,8,37,37,54,29,14,14,4,5,0.5,0.3
2026-04-22T2300,1268A,119.93,28.4589,丽水市,莲都小学,,12,8,16,3,8,38,38,52,31,14,17,/,/,/,/
2026-04-22T2300,1269A,119.8794,28.4232,丽水市,余庄前,,25,20,16,17,7,27,27,37,15,13,15,5,5,0.6,0.4
2026-04-22T2300,1173A,119.1759,34.5885,连云港市,市环境监测站,,29,29,28,7,6,88,88,99,97,22,14,8,8,0.4,0.4
2026-04-22T2300,3000A,119.3577,34.6971,连云港市,德源药业,,30,22,27,9,8,96,96,108,107,21,10,6,5,0.4,0.4
2026-04-22T2300,3007A,119.178,34.8442,连云港市,新城一中,NA,NA,NA,63,NA,12,NA,NA,104,NA,NA,12,NA,4,NA,0.5
2026-04-22T2300,3008A,119.3607,34.7519,连云港市,胡沟管理处,,34,6,13,3,5,106,106,110,110,9,9,6,6,0.3,0.4
2026-04-22T2300,3009A,119.1478,34.5913,连云港市,矿山设计院,,31,31,30,3,7,89,89,103,101,22,11,20,18,0.5,0.5
2026-04-22T2300,3434A,119.2414,34.6539,连云港市,工贸学校,,33,33,35,9,10,92,92,107,103,14,7,5,4,0.3,0.3
2026-04-22T2300,3664A,119.4171,34.734,连云港市,连云街道,,29,29,48,8,12,80,80,99,96,26,18,7,6,0.3,0.3
2026-04-22T2300,2573A,102.2629,27.8981,凉山彝族自治州,西昌市政府,,24,15,23,7,15,76,76,109,94,3,9,2,8,0.4,0.5
2026-04-22T2300,2574A,102.2686,27.885,凉山彝族自治州,凉山州政府,,21,14,22,6,13,67,67,96,83,5,9,2,6,0.4,0.5
2026-04-22T2300,4229A,102.2342,27.8859,凉山彝族自治州,凯乐南路30号,,22,16,22,3,10,70,70,98,82,4,13,2,5,0.4,0.6
2026-04-22T2300,2212A,123.1978,41.2036,辽阳市,宏伟区,颗粒物(PM10),58,61,68,16,24,71,71,109,93,12,11,6,8,0.3,0.6
2026-04-22T2300,2213A,123.1684,41.2497,辽阳市,新华园,颗粒物(PM10),56,58,73,29,30,50,50,109,92,36,19,18,11,0.6,0.7
2026-04-22T2300,2214A,123.2355,41.2663,辽阳市,滨河路,颗粒物(PM10),58,61,67,16,28,40,40,102,78,44,21,18,9,0.5,0.7
2026-04-22T2300,4083A,123.153,41.2874,辽阳市,铁西路150号,颗粒物(PM10),55,57,70,25,32,64,64,98,83,22,16,10,10,0.4,0.7
2026-04-22T2300,2227A,125.1359,42.8845,辽源市,环保局,颗粒物(PM10),60,63,39,30,11,21,21,96,71,37,11,6,6,0.6,0.4
2026-04-22T2300,4085A,125.0998,42.9134,辽源市,安宁大街333号,颗粒物(PM10),55,56,36,31,13,21,21,96,71,38,9,6,5,0.7,0.4
2026-04-22T2300,1625A,115.9789,36.4372,聊城市,区政府,颗粒物(PM10),60,64,28,34,13,30,30,116,90,36,14,6,7,1.0,0.6
2026-04-22T2300,3200A,115.9772,36.4986,聊城市,监控中心,,44,44,35,20,13,40,40,122,83,52,24,7,9,0.5,0.5
2026-04-22T2300,3513A,116.0443,36.436,聊城市,九州社区,颗粒物(PM10),55,56,33,21,13,56,56,126,103,38,17,8,6,0.6,0.5
2026-04-22T2300,4018A,116.0564,36.4609,聊城市,星美广场,颗粒物(PM10),66,72,35,32,16,43,43,111,86,38,16,9,7,0.6,0.4
2026-04-22T2300,4113A,116.0091,36.4495,聊城市,利民路,,49,49,21,29,14,40,40,124,98,50,15,10,10,0.7,0.5
2026-04-22T2300,2632A,94.3683,29.6373,林芝市,林芝监测站,,33,18,14,3,6,103,103,102,101,3,5,2,3,0.4,0.4
2026-04-22T2300,2633A,94.3616,29.6634,林芝市,林芝人民医院,,30,21,17,9,7,93,93,102,100,8,3,4,4,0.4,0.4
2026-04-22T2300,2603A,100.0779,23.8981,临沧市,市环保局,细颗粒物(PM2.5),86,67,62,53,45,95,95,134,123,14,9,8,7,0.9,0.7
2026-04-22T2300,2604A,100.0894,23.882,临沧市,市气象局,NA,NA,66,65,59,52,NA,NA,135,132,10,10,8,7,0.6,0.7
2026-04-22T2300,1733A,111.5552,36.0791,临汾市,临钢医院,颗粒物(PM10),76,86,60,40,36,32,32,91,82,29,18,7,6,1.1,1
2026-04-22T2300,1734A,111.4984,36.0734,临汾市,技工学校,细颗粒物(PM2.5),62,55,54,41,41,54,54,86,78,25,19,8,7,0.8,0.9
2026-04-22T2300,1736A,111.5017,36.0857,临汾市,市委,颗粒物(PM10),53,53,57,27,34,63,63,89,85,21,17,9,7,0.9,1
2026-04-22T2300,3018A,111.5048,36.1015,临汾市,唐尧大酒店,颗粒物(PM10),67,73,67,30,34,64,64,92,87,22,20,8,6,0.9,0.9
2026-04-22T2300,4244A,111.4879,36.053,临汾市,启星学校,颗粒物(PM10),53,53,52,31,38,44,44,83,74,35,22,7,6,1.0,1
2026-04-22T2300,4271A,103.2464,35.6123,临夏回族自治州,滨河东路1号,颗粒物(PM10),115,158,97,71,37,8,8,107,68,62,21,9,9,0.7,0.4
2026-04-22T2300,4310A,103.207136,35.599807,临夏回族自治州,新华街21号,细颗粒物(PM2.5),103,114,88,63,37,38,38,85,64,19,11,7,6,0.6,0.4
2026-04-22T2300,1618A,118.3429,35.0532,临沂市,沂河小区,颗粒物(PM10),56,58,44,18,15,71,71,86,84,21,15,10,9,0.5,0.4
2026-04-22T2300,1619A,118.2962,35.0568,临沂市,鲁南制药厂,,48,48,35,18,14,79,79,92,90,19,14,11,10,0.5,0.3
2026-04-22T2300,1620A,118.2793,34.9976,临沂市,新光毛纺厂,,39,39,38,19,20,79,79,85,84,16,16,11,9,0.4,0.4
2026-04-22T2300,1621A,118.3955,35.0889,临沂市,河东保险公司,颗粒物(PM10),58,61,41,28,16,49,49,85,74,38,22,10,9,0.6,0.4
2026-04-22T2300,3370A,118.3563,35.0215,临沂市,十里堡居委,,46,46,37,22,19,71,71,92,87,27,21,9,8,0.6,0.6
2026-04-22T2300,3496A,118.359,35.1067,临沂市,南坊新区,颗粒物(PM10),51,51,39,20,16,67,67,88,82,30,19,12,9,0.3,0.2
2026-04-22T2300,3860A,118.3915,35.0297,临沂市,皇山花园小区,颗粒物(PM10),53,53,40,21,17,60,60,92,84,36,24,9,9,0.6,0.5
2026-04-22T2300,1870A,109.4854,24.3898,柳州市,柳东小学,,16,16,25,3,14,32,32,49,34,8,7,4,4,0.8,0.7
2026-04-22T2300,1871A,109.4109,24.3304,柳州市,环保监测站,NA,NA,13,36,3,12,NA,NA,51,35,7,11,5,6,0.8,0.9
2026-04-22T2300,1872A,109.3886,24.3408,柳州市,河西水厂,,17,17,20,3,12,31,31,57,39,6,11,10,12,0.6,1
2026-04-22T2300,1873A,109.4263,24.2951,柳州市,市四中,,12,12,20,3,13,24,24,49,35,9,10,6,7,0.7,0.7
2026-04-22T2300,1874A,109.396,24.3658,柳州市,市九中,,12,12,19,3,10,27,27,52,34,5,8,4,6,0.5,0.5
2026-04-22T2300,1875A,109.4912,24.3164,柳州市,古亭山,NA,NA,NA,25,2,14,36,36,43,34,6,8,4,4,0.7,0.7
2026-04-22T2300,3402A,109.5422,24.3994,柳州市,市二中,,12,10,20,3,13,38,38,35,32,8,12,7,9,0.6,0.6
2026-04-22T2300,2307A,116.5078,31.7369,六安市,监测大楼,,15,8,10,7,6,47,47,57,55,10,11,4,4,0.4,0.3
2026-04-22T2300,2308A,116.4738,31.7642,六安市,皖西学院,,16,NA,10,7,7,50,50,60,58,10,11,4,4,0.4,0.4
2026-04-22T2300,2309A,116.4997,31.7904,六安市,朝阳厂,,15,NA,7,9,9,46,46,58,54,12,11,6,5,0.3,0.3
2026-04-22T2300,2310A,116.5566,31.7885,六安市,开发区,,16,NA,5,8,8,50,50,58,55,15,15,4,4,0.4,0.4
2026-04-22T2300,2577A,104.8293,26.592,六盘水市,黄土坡,,27,17,14,15,8,86,86,71,71,5,8,5,6,0,0.1
2026-04-22T2300,2579A,104.8481,26.5898,六盘水市,民中,,26,18,13,16,8,83,83,69,69,5,7,3,4,0.3,0.4
2026-04-22T2300,2580A,104.9541,26.5506,六盘水市,双水,,24,19,12,15,6,76,76,69,69,6,6,3,3,0.2,0.3
2026-04-22T2300,4151A,104.8899,26.5685,六盘水市,钟山大道中段564号,,27,27,18,10,7,70,70,64,64,12,8,3,2,0.9,0.3
2026-04-22T2300,2336A,117.022,25.1031,龙岩市,龙岩市监测站,,36,25,20,25,17,52,52,82,72,13,7,6,5,0.6,0.5
2026-04-22T2300,2337A,117.0257,25.0662,龙岩市,闽西职业技术学院,,36,26,24,25,16,24,24,77,57,19,6,6,6,0.6,0.6
2026-04-22T2300,2338A,117.0195,25.0306,龙岩市,龙岩学院,,29,27,25,20,14,32,32,82,61,10,4,4,4,/,/
2026-04-22T2300,2885A,104.9344,33.3827,陇南市,滨江中学,颗粒物(PM10),75,84,64,24,22,69,69,92,83,19,12,8,8,0.8,0.7
2026-04-22T2300,3247A,104.9551,33.3709,陇南市,市总工会,颗粒物(PM10),70,77,56,30,24,65,65,94,86,16,10,10,8,0.5,0.5
2026-04-22T2300,2488A,111.9984,27.7346,娄底市,市监测站,,25,22,11,17,5,56,56,79,73,20,11,8,5,0.3,0.4
2026-04-22T2300,2491A,111.9888,27.7035,娄底市,市政府,NA,NA,31,9,NA,5,43,43,75,70,12,11,3,3,NA,0.5
2026-04-22T2300,4127A,111.9812,27.7591,娄底市,涟钢职大,,24,24,8,14,5,53,53,66,64,12,8,1,2,0,0.4
2026-04-22T2300,4128A,112.0303,27.7457,娄底市,娄底体校,,36,36,10,16,4,37,37,69,59,9,7,3,3,0.3,0.2
2026-04-22T2300,1894A,105.4427,28.9063,泸州市,小市上码头,,22,22,20,10,9,59,59,85,81,27,14,7,6,0.5,0.5
2026-04-22T2300,1895A,105.4241,28.8573,泸州市,兰田宪桥,,20,20,20,13,14,51,51,84,74,24,11,7,7,0.5,0.6
2026-04-22T2300,1896A,105.4378,28.8833,泸州市,市环监站,,21,18,18,8,8,66,66,85,80,21,16,8,8,0.7,0.7
2026-04-22T2300,4272A,105.3689,28.7783,泸州市,纳溪中医医院,颗粒物(PM10),56,58,21,27,13,11,11,92,72,34,11,4,5,0.7,0.5
2026-04-22T2300,2183A,111.1447,37.5212,吕梁市,环保局,颗粒物(PM10),61,65,87,21,25,38,38,98,85,52,33,3,5,0.5,0.5
2026-04-22T2300,2185A,111.1285,37.5338,吕梁市,自来水公司,颗粒物(PM10),70,78,85,28,28,29,29,96,84,51,28,3,5,0.5,0.5
2026-04-22T2300,2867A,111.1225,37.5093,吕梁市,马茂庄小学,颗粒物(PM10),83,96,99,26,26,12,12,100,83,75,38,2,8,0.4,0.6
2026-04-22T2300,1812A,112.3934,34.6517,洛阳市,市委党校,,46,46,28,23,17,49,49,90,76,29,15,9,8,0.7,0.6
2026-04-22T2300,1815A,112.494,34.6883,洛阳市,河南林校,颗粒物(PM10),55,57,34,29,15,32,32,109,90,47,23,10,10,0.8,0.6
2026-04-22T2300,1816A,112.3843,34.623,洛阳市,开发区管委会,,38,38,28,14,15,46,46,95,78,26,13,10,10,0.8,0.7
2026-04-22T2300,1817A,112.4263,34.6249,洛阳市,市委新办公区,细颗粒物(PM2.5),58,56,25,39,14,46,46,97,82,27,15,9,9,0.6,0.5
2026-04-22T2300,3340A,112.6005,34.6323,洛阳市,伊滨,,40,40,26,21,14,46,46,99,85,23,14,8,8,0.4,0.6
2026-04-22T2300,3341A,112.495,34.6338,洛阳市,中移产业园,NA,NA,NA,24,NA,16,32,32,105,96,39,18,7,9,0.7,0.4
2026-04-22T2300,3593A,112.5736,34.8993,洛阳市,吉利监测站,,48,48,31,23,14,14,14,101,78,35,14,7,7,0.6,0.5
2026-04-22T2300,3635A,112.3678,34.6623,洛阳市,河科大西苑校区,,44,44,29,21,21,57,57,98,84,27,13,9,9,0.6,0.5
2026-04-22T2300,3636A,112.4387,34.678,洛阳市,英才小学,颗粒物(PM10),51,51,46,34,21,35,35,97,74,47,24,13,11,0.7,0.5
2026-04-22T2300,4214A,112.460027,34.694929,洛阳市,春都路1号院,颗粒物(PM10),64,69,36,40,17,9,9,111,78,52,20,9,10,0.7,0.5
2026-04-22T2300,2399A,114.051,33.5721,漯河市,三五一五工厂,颗粒物(PM10),60,63,33,38,25,65,65,88,73,23,18,5,6,0.5,0.5
2026-04-22T2300,2400A,114.0055,33.5698,漯河市,漯河大学,细颗粒物(PM2.5),56,47,24,38,21,79,79,85,74,19,21,5,6,0.4,0.4
2026-04-22T2300,2401A,114.0134,33.5826,漯河市,市水利局,细颗粒物(PM2.5),52,48,30,36,23,76,76,87,76,13,14,4,5,0.5,0.5
2026-04-22T2300,2402A,114.0261,33.5697,漯河市,市广电局,,49,49,28,34,23,79,79,90,76,21,20,5,5,0.4,0.3
2026-04-22T2300,3478A,113.9691,33.568,漯河市,市图书馆,,43,42,28,30,21,86,86,86,73,12,15,5,7,0.6,0.5
2026-04-22T2300,4250A,114.089259,33.588274,漯河市,韶山路11号,细颗粒物(PM2.5),74,70,33,47,23,36,36,81,61,38,19,9,7,0.5,0.4
2026-04-22T2300,1798A,118.5084,31.6838,马鞍山市,湖东路四小,,25,6,13,3,10,77,77,48,48,11,19,5,7,0.3,0.7
2026-04-22T2300,1799A,118.5019,31.6449,马鞍山市,开发区,,23,6,10,3,8,73,73,50,50,15,21,5,6,0.4,0.6
2026-04-22T2300,3633A,118.4914,31.681,马鞍山市,雨山,,25,6,15,3,10,79,79,47,47,13,27,9,13,0.4,0.8
2026-04-22T2300,4191A,118.527362,31.722269,马鞍山市,慈湖高新区,,24,6,18,3,11,76,76,45,45,10,22,5,7,0.3,0.7
2026-04-22T2300,1686A,111.0285,21.469,茂名市,电白南海,,29,29,33,16,15,49,49,61,52,6,5,5,5,0.8,0.7
2026-04-22T2300,1687A,110.9294,21.6533,茂名市,茂石化七小,,39,39,33,25,17,36,36,62,49,14,9,7,6,0.5,0.5
2026-04-22T2300,1688A,110.9108,21.6688,茂名市,健康路,NA,NA,NA,21,24,16,NA,NA,63,56,NA,8,NA,4,NA,0.6
2026-04-22T2300,1689A,110.8592,21.6826,茂名市,高岭,,48,48,41,22,18,44,44,63,53,9,8,6,3,/,/
2026-04-22T2300,3450A,111.0101,21.5165,茂名市,电白水东,,29,29,23,17,16,48,48,58,50,5,5,2,2,/,/
2026-04-22T2300,2540A,103.8414,30.0871,眉山市,气象局,颗粒物(PM10),51,51,40,31,14,34,34,75,62,29,21,6,8,0.7,0.6
2026-04-22T2300,3148A,103.829,30.0563,眉山市,区人社局,颗粒物(PM10),53,54,39,36,15,36,36,80,67,38,24,8,8,0.9,0.8
2026-04-22T2300,4148A,103.8836,30.0695,眉山市,眉职院,颗粒物(PM10),62,66,35,31,12,34,34,83,72,28,18,11,8,0.9,0.7
2026-04-22T2300,1690A,116.1248,24.3307,梅州市,梅江月梅,,42,42,31,26,21,4,4,76,46,33,15,/,/,/,/
2026-04-22T2300,1691A,116.0798,24.2719,梅州市,梅县新城,,32,32,30,18,17,55,55,77,53,12,17,10,8,0.4,0.5
2026-04-22T2300,3315A,116.1234,24.2994,梅州市,梅龙,,29,27,29,20,19,46,46,79,55,12,14,6,6,0.6,0.7
2026-04-22T2300,1878A,104.7775,31.4741,绵阳市,富乐山,细颗粒物(PM2.5),54,40,21,37,17,25,25,70,53,31,16,6,7,0.8,0.7
2026-04-22T2300,1880A,104.6698,31.4668,绵阳市,高新区自来水公司,颗粒物(PM10),56,58,31,34,16,10,10,71,55,47,20,6,8,0.7,0.7
2026-04-22T2300,3491A,104.6899,31.5324,绵阳市,西科大附属小学,颗粒物(PM10),55,56,32,36,19,13,13,71,54,37,21,4,6,0.4,0.4
2026-04-22T2300,3492A,104.5647,31.5343,绵阳市,安州区旅游局,颗粒物(PM10),62,66,29,39,18,15,15,78,60,27,12,5,6,0.5,0.3
2026-04-22T2300,4146A,104.7092,31.4972,绵阳市,科技城新区公安局,,50,50,25,33,16,22,22,69,55,47,19,8,8,0.6,0.5
2026-04-22T2300,4226A,104.765114,31.453094,绵阳市,绵阳市气象局,细颗粒物(PM2.5),56,52,27,38,18,40,40,62,54,31,21,10,9,0.5,0.5
2026-04-22T2300,1784A,129.61,44.561,牡丹江市,环保大楼,,45,45,42,29,13,43,43,87,73,26,10,2,2,0.4,0.2
2026-04-22T2300,1787A,129.6364,44.6075,牡丹江市,机车工厂,,43,43,51,24,21,36,36,84,70,27,13,7,7,0.4,0.3
2026-04-22T2300,1788A,129.6386,44.5462,牡丹江市,第一中学,,39,39,38,15,14,48,48,86,72,11,8,3,4,0.3,0.3
2026-04-22T2300,4287A,129.5992,44.5964,牡丹江市,东晓云街98号,,38,38,41,14,13,47,47,86,73,11,7,4,3,0.3,0.2
2026-04-22T2300,2531A,105.0703,29.61,内江市,市监测站,,48,48,24,28,15,21,21,93,78,40,13,8,8,0.7,0.5
2026-04-22T2300,2533A,105.0657,29.5807,内江市,内江二中,,37,37,25,14,16,32,32,91,80,43,16,6,6,0.4,0.3
2026-04-22T2300,2534A,105.0407,29.5828,内江市,内江日报社,,34,34,24,16,16,20,20,92,80,58,15,8,8,0.5,0.4
2026-04-22T2300,4147A,105.0433,29.6105,内江市,玉峰路西段888号,,39,39,25,22,16,43,43,94,82,31,14,3,4,0.5,0.4
2026-04-22T2300,2628A,92.0653,31.4846,那曲市,那曲监测站,细颗粒物(PM2.5),96,90,71,58,38,53,53,118,100,55,14,13,5,1.8,0.8
2026-04-22T2300,4243A,92.0515,31.4787,那曲市,那曲市委宣传部,颗粒物(PM10),69,76,62,28,25,71,71,127,116,34,4,8,5,1.2,0.5
2026-04-22T2300,1291A,115.8887,28.7006,南昌市,省林业公司,,18,9,3,9,2,55,55,49,49,7,10,4,3,0.3,0.4
2026-04-22T2300,1292A,115.813,28.7443,南昌市,林科所,,16,NA,4,11,3,51,51,47,47,8,12,7,7,0.7,0.8
2026-04-22T2300,1294A,115.8518,28.687,南昌市,建工学校,,17,NA,8,11,4,52,52,47,47,10,11,5,4,0.6,0.8
2026-04-22T2300,1295A,115.8926,28.6425,南昌市,象湖,,19,NA,6,13,5,51,51,46,46,13,14,8,7,0.8,0.9
2026-04-22T2300,3046A,115.9084,28.6062,南昌市,机电学校,,20,18,10,14,5,49,49,48,46,13,16,4,4,0.5,0.6
2026-04-22T2300,3690A,115.9718,28.7032,南昌市,外国语学校,,17,12,6,11,4,53,53,46,46,12,16,8,8,0.6,0.7
2026-04-22T2300,4106A,115.7923,28.6873,南昌市,工业二路,,16,13,10,9,4,49,49,43,43,7,11,4,4,0.5,0.7
2026-04-22T2300,4192A,115.931587,28.686774,南昌市,南京东路235号,,28,28,12,9,3,62,62,54,54,10,11,5,5,0.5,0.6
2026-04-22T2300,1906A,106.0791,30.8022,南充市,南充市委,,24,24,16,13,8,29,29,71,50,22,15,7,7,0.4,0.3
2026-04-22T2300,1907A,106.1038,30.8215,南充市,南充炼油厂,,42,42,22,16,9,17,17,70,51,39,13,4,4,0.3,0.2
2026-04-22T2300,4227A,106.108336,30.788436,南充市,梨树横街98号,,28,28,18,15,9,25,25,75,54,36,12,6,6,0.5,0.3
2026-04-22T2300,4304A,106.1172,30.843,南充市,清泉寺北路188号,,41,41,16,15,7,26,26,79,70,29,8,6,6,0.4,0.3
2026-04-22T2300,4305A,106.067,30.7616,南充市,同庆路1号,,29,29,13,14,9,32,32,74,58,32,15,6,6,0.4,0.3
2026-04-22T2300,1151A,118.8033,32.1085,南京市,迈皋桥,,27,6,9,3,5,84,84,81,81,5,14,5,5,0.6,0.4
2026-04-22T2300,1152A,118.7487,32.057,南京市,草场门,,26,6,7,3,6,81,81,73,73,14,19,3,3,0.2,0.3
2026-04-22T2300,1154A,118.770105,32.004342,南京市,中华门,,26,6,8,3,4,82,82,74,74,11,17,7,8,0.3,0.3
2026-04-22T2300,1155A,118.8059,32.0329,南京市,瑞金路,,24,6,10,3,2,75,75,71,71,13,17,5,5,0.6,0.7
2026-04-22T2300,1156A,118.7946,32.0774,南京市,玄武湖,,25,6,13,3,4,79,79,71,71,3,12,4,4,0.3,0.4
2026-04-22T2300,1157A,118.6415,32.0964,南京市,浦口,,21,8,10,3,5,66,66,69,69,11,13,4,4,0.4,0.4
2026-04-22T2300,1158A,118.730129,32.000956,南京市,奥体中心,,20,8,11,3,4,63,63,57,57,14,18,6,6,0.2,0.3
2026-04-22T2300,1159A,118.9072,32.1047,南京市,仙林大学城,,27,6,10,3,5,85,85,76,76,13,22,7,8,0.4,0.5
2026-04-22T2300,3422A,118.8443,31.919,南京市,江宁彩虹桥,,27,6,11,3,4,85,85,77,77,17,24,4,4,0.4,0.5
2026-04-22T2300,3427A,118.8497,32.3599,南京市,六合雄州,,29,6,23,3,8,90,90,83,83,19,27,4,4,0.6,0.8
2026-04-22T2300,4086A,118.7641,32.0841,南京市,新模范马路66号,,28,6,10,3,4,88,88,83,83,11,17,3,4,0.3,0.4
2026-04-22T2300,4249A,118.8707617,31.34017673,南京市,汶溪路181号,,19,6,14,3,5,60,60,56,54,15,19,5,5,0.3,0.4
2026-04-22T2300,4312A,119.019,31.6512,南京市,中山西路1号,,21,6,6,3,5,66,66,53,53,13,18,4,4,0.4,0.5
2026-04-22T2300,1401A,108.3098,22.788,南宁市,二十一中,,14,NA,29,7,19,42,42,58,43,10,11,2,2,0.5,0.5
2026-04-22T2300,1402A,108.3135,22.8529,南宁市,北湖,,21,21,30,14,23,36,36,57,41,13,12,6,3,0.6,0.7
2026-04-22T2300,1403A,108.3205,22.8222,南宁市,市监测站,,14,14,30,7,16,44,44,62,44,9,10,3,2,0.4,0.4
2026-04-22T2300,1404A,108.3828,22.8038,南宁市,大自然花园,,22,22,31,3,17,43,43,55,43,11,11,5,6,0.5,0.6
2026-04-22T2300,1406A,108.2397,22.8462,南宁市,区农职院,,25,25,35,12,20,22,22,51,36,12,11,5,3,0.5,0.5
2026-04-22T2300,1407A,108.3285,22.7356,南宁市,英华嘉园,,15,12,34,7,19,48,48,65,47,10,13,4,4,0.3,0.4
2026-04-22T2300,3401A,108.4829,22.762,南宁市,红星社区,NA,NA,NA,30,5,17,48,48,58,40,6,8,4,5,0.5,0.5
2026-04-22T2300,4132A,108.2927,23.1477,南宁市,起凤路9号,,19,19,32,10,21,49,49,50,42,6,8,4,5,0.5,0.5
2026-04-22T2300,4221A,108.2177,22.7774,南宁市,乐贤路16号,,20,20,37,14,20,26,26,62,41,16,20,5,5,0.3,0.3
2026-04-22T2300,2332A,118.1682,26.6371,南平市,南平市监测站,,36,33,20,25,13,26,26,63,42,14,9,4,4,0.6,0.4
2026-04-22T2300,2334A,118.1757,26.6276,南平市,南平七中,NA,NA,NA,26,20,12,19,19,57,35,11,8,2,3,0.6,0.5
2026-04-22T2300,1168A,120.9056,31.9669,南通市,狼山街道,,31,6,8,3,4,99,99,95,95,8,13,2,3,0.3,0.4
2026-04-22T2300,1170A,120.8635,32.0231,南通市,城中,,30,7,15,3,4,96,96,92,92,8,13,2,3,0.2,0.3
2026-04-22T2300,1171A,120.9376,31.9301,南通市,星湖花园,,32,6,8,3,6,100,100,95,95,8,15,3,3,0.3,0.4
2026-04-22T2300,1172A,120.8053,32.046,南通市,紫琅学院,NA,NA,NA,6,0,5,110,110,103,103,9,16,4,4,0.5,0.6
2026-04-22T2300,3291A,121.0631,32.0644,南通市,通州监测站,,34,6,12,3,5,108,108,106,106,6,10,3,3,0.4,0.5
2026-04-22T2300,3432A,120.9348,31.9874,南通市,环境教育馆,,31,6,12,3,6,97,97,93,93,14,19,4,4,0.4,0.4
2026-04-22T2300,4091A,120.8692,31.9885,南通市,洪江路,,31,6,11,3,5,97,97,93,93,9,16,4,4,0.6,0.7
2026-04-22T2300,2404A,112.5338,33.0086,南阳市,瓦房庄,,35,35,25,17,7,70,70,92,80,14,13,4,4,0.5,0.4
2026-04-22T2300,2405A,112.5002,32.9734,南阳市,汉画馆,,36,36,24,13,7,60,60,88,77,20,14,6,6,0.5,0.4
2026-04-22T2300,2406A,112.5778,33.0144,南阳市,气象站,,27,27,16,15,8,74,74,94,84,14,11,5,5,0.4,0.3
2026-04-22T2300,2407A,112.548,32.9687,南阳市,理工学院,,38,38,26,20,10,63,63,92,77,17,12,7,6,0.4,0.4
2026-04-22T2300,4008A,112.5233,32.9921,南阳市,卧龙区政府,,33,33,18,17,9,70,70,91,80,13,10,6,6,0.5,0.4
2026-04-22T2300,1234A,121.8352,29.9111,宁波市,区环保大楼,,19,19,36,11,13,33,33,63,36,26,38,6,7,0.6,0.5
2026-04-22T2300,1235A,121.5595,29.8208,宁波市,万里学院,,16,16,34,3,11,38,38,66,39,19,20,9,8,0.8,0.7
2026-04-22T2300,1236A,121.713,29.9564,宁波市,龙赛医院,,12,12,33,6,13,35,35,56,42,18,26,6,6,0.6,0.5
2026-04-22T2300,1240A,121.5855,29.8635,宁波市,太古小学,,14,14,33,7,11,38,38,66,42,20,20,3,3,0.6,0.5
2026-04-22T2300,1241A,121.5239,29.8673,宁波市,市环境监测中心,,18,18,33,8,11,37,37,62,36,23,24,5,4,0.4,0.5
2026-04-22T2300,2871A,121.6156,29.9015,宁波市,万里国际学校,,22,22,28,11,14,37,37,72,42,20,23,4,4,0.7,0.5
2026-04-22T2300,3710A,121.5593,29.8976,宁波市,白沙活动中心,,16,16,32,9,11,36,36,68,42,21,21,5,5,0.6,0.5
2026-04-22T2300,4095A,121.8962,29.7529,宁波市,中科路88号,,13,11,27,7,8,39,39,89,49,15,12,6,6,0.7,0.5
2026-04-22T2300,2341A,119.5387,26.6611,宁德市,宁德市监测站,,49,37,29,34,22,1,1,61,20,55,36,7,7,1.1,0.7
2026-04-22T2300,3209A,119.5231,26.6562,宁德市,宁德一中,,31,31,35,20,20,22,22,62,29,10,19,5,6,0.6,0.4
2026-04-22T2300,2618A,98.859,25.8541,怒江傈僳族自治州,州监测站,,31,15,27,9,14,97,97,99,99,5,9,6,6,0.2,0.3
2026-04-22T2300,2619A,98.8607,25.8168,怒江傈僳族自治州,泸水一中,,31,10,20,9,16,99,99,100,100,7,12,5,5,0.5,0.5
2026-04-22T2300,1888A,101.6891,26.571,攀枝花市,弄弄坪,,42,42,54,12,30,104,104,123,117,13,27,24,30,0.5,1.6
2026-04-22T2300,1889A,101.577,26.5914,攀枝花市,河门口,NA,NA,NA,NA,NA,NA,NA,NA,NA,NA,NA,NA,NA,NA,NA,NA
2026-04-22T2300,1891A,101.7365,26.4986,攀枝花市,仁和,,47,47,52,27,34,70,70,115,96,13,16,4,5,0.4,0.5
2026-04-22T2300,2835A,101.7222,26.567,攀枝花市,四十中小,,35,35,42,16,25,89,89,115,104,26,25,32,15,1.2,1.2
2026-04-22T2300,1604A,122.0303,41.1489,盘锦市,开发区,,44,44,50,21,20,71,71,112,100,18,11,7,6,0.3,0.3
2026-04-22T2300,1605A,122.0486,41.0883,盘锦市,兴隆台,颗粒物(PM10),53,54,53,29,25,70,70,110,90,28,20,10,10,0.6,4
2026-04-22T2300,1606A,121.8297,41.1026,盘锦市,新生街道,NA,NA,24,38,17,16,47,47,101,82,NA,16,5,6,0.4,0.4
2026-04-22T2300,1832A,113.3257,33.7423,平顶山市,新华旅馆,颗粒物(PM10),83,96,40,43,21,32,32,95,71,31,10,4,5,0.4,0.4
2026-04-22T2300,1833A,113.2917,33.737,平顶山市,规划设计院,颗粒物(PM10),56,58,32,32,19,60,60,95,74,20,14,6,7,0.5,0.4
2026-04-22T2300,1834A,113.182,33.7738,平顶山市,平顶山工学院,细颗粒物(PM2.5),82,NA,26,51,22,57,57,98,80,14,11,9,9,0.5,0.4
2026-04-22T2300,3594A,112.8736,33.9068,平顶山市,石龙区,细颗粒物(PM2.5),58,51,31,39,17,33,33,96,75,27,10,8,8,0.6,0.4
2026-04-22T2300,4116A,113.284,33.7139,平顶山市,姚电大道23号,颗粒物(PM10),60,63,39,33,21,61,61,98,75,20,16,7,5,0.4,0.4
2026-04-22T2300,2656A,106.6633,35.5338,平凉市,聚贤嘉苑,颗粒物(PM10),58,61,41,20,12,80,80,119,108,28,16,6,6,0.4,0.4
2026-04-22T2300,2657A,106.7021,35.5307,平凉市,博物馆,颗粒物(PM10),66,72,43,28,11,71,71,130,112,32,15,7,7,2.3,0.5
2026-04-22T2300,2348A,113.8384,27.6436,萍乡市,中医院,,30,21,13,21,8,46,46,52,51,18,15,11,7,0.8,0.8
2026-04-22T2300,2350A,113.8677,27.6438,萍乡市,市环保局,,29,26,15,20,12,47,47,53,52,20,16,12,8,0.9,0.8
2026-04-22T2300,2351A,113.8663,27.6202,萍乡市,安源区政府,,23,20,12,16,10,44,44,46,46,14,10,10,8,0.3,0.3
2026-04-22T2300,4107A,113.8686,27.6668,萍乡市,联洪村委会,,34,34,16,19,8,45,45,48,47,16,13,4,3,0.6,0.6
2026-04-22T2300,2319A,119.0142,25.4324,莆田市,荔城区仓后路,,44,44,33,30,23,19,19,78,53,16,6,/,/,/,/
2026-04-22T2300,2320A,119.0016,25.4553,莆田市,莆田市监测站,,42,42,31,24,19,24,24,79,52,8,9,2,2,0.4,0.4
2026-04-22T2300,2321A,119.112,25.4561,莆田市,涵江区六中,,39,35,34,27,25,31,31,81,53,24,14,/,/,0.5,0.5
2026-04-22T2300,2322A,119.1014,25.3215,莆田市,秀屿区政府,NA,NA,45,35,26,24,NA,NA,88,71,NA,11,NA,5,0.4,0.5
2026-04-22T2300,2392A,115.0312,35.7636,濮阳市,环保局,,35,35,20,13,13,55,55,115,92,26,13,3,4,0.7,0.5
2026-04-22T2300,3021A,115,35.7667,濮阳市,濮水河管理处,,42,42,23,22,12,21,21,111,72,32,19,3,3,0.6,0.5
2026-04-22T2300,4118A,115.0552,35.7816,濮阳市,中原东路68号,,45,45,30,19,15,69,69,117,97,22,12,3,4,0.6,0.5
2026-04-22T2300,4216A,115.0923632,35.76857718,濮阳市,任丘路479号,,47,47,32,24,16,56,56,118,97,25,9,2,7,0.4,0.3
2026-04-22T2300,2601A,100.9801,22.7634,普洱市,市环保局,细颗粒物(PM2.5),96,111,99,58,46,72,72,128,113,17,12,5,5,0.8,0.9
2026-04-22T2300,2602A,100.9763,22.8237,普洱市,普洱第二中学,细颗粒物(PM2.5),84,88,88,52,46,76,76,128,110,21,23,6,7,0.9,0.9
2026-04-22T2300,3345A,131.0413,45.7795,七台河市,中波台,,20,11,11,9,6,62,62,79,72,12,9,3,3,0.2,0.3
2026-04-22T2300,3637A,131.0136,45.7688,七台河市,人民广场,,20,17,19,3,5,64,64,84,77,19,11,9,10,0.5,0.5
2026-04-22T2300,3684A,130.8639,45.8144,七台河市,新建矿广场,,18,6,12,3,4,57,57,69,65,7,7,8,8,0.2,0.1
2026-04-22T2300,1779A,123.9307,47.3641,齐齐哈尔市,安居小区,,47,47,22,23,7,48,48,90,70,30,7,3,3,0.4,0.3
2026-04-22T2300,1780A,123.9497,47.3389,齐齐哈尔市,中心广场,,26,26,18,11,5,74,74,84,79,9,4,5,5,0.3,0.2
2026-04-22T2300,1781A,123.9483,47.3229,齐齐哈尔市,农牧车辆厂,,29,22,22,20,5,68,68,94,86,15,5,5,4,0.5,0.4
2026-04-22T2300,1783A,123.9442,47.2994,齐齐哈尔市,市环境监测站,颗粒物(PM10),63,68,24,35,7,22,22,88,73,50,8,4,3,0.4,0.2
2026-04-22T2300,3662A,123.6341,47.2079,齐齐哈尔市,富区青少年活动中心,颗粒物(PM10),60,64,28,33,9,46,46,87,69,27,8,4,3,0.5,0.3
2026-04-22T2300,2591A,107.9765,26.5724,黔东南苗族侗族自治州,市环境监测站,,26,26,16,11,11,24,24,42,36,7,8,4,3,0.5,0.6
2026-04-22T2300,2881A,107.8909,26.531,黔东南苗族侗族自治州,凯里学院,,13,NA,9,9,9,29,29,46,40,9,9,6,3,0.5,0.4
2026-04-22T2300,2593A,107.5223,26.2371,黔南布依族苗族自治州,小围寨,,25,NA,17,17,15,20,20,37,33,12,8,4,6,0.3,0.3
2026-04-22T2300,3538A,107.5175,26.2977,黔南布依族苗族自治州,沙坝,,25,17,20,17,14,20,20,33,30,6,7,4,4,0.5,0.5
2026-04-22T2300,2589A,104.9022,25.0943,黔西南布依族苗族自治州,场坝街,细颗粒物(PM2.5),56,53,46,38,34,68,68,72,72,10,10,8,8,0.5,0.5
2026-04-22T2300,2590A,104.8812,25.0994,黔西南布依族苗族自治州,坪东大道,细颗粒物(PM2.5),56,42,47,38,34,62,62,71,70,11,11,4,5,0.5,0.5
2026-04-22T2300,2502A,108.6238,21.9667,钦州市,市环保站,细颗粒物(PM2.5),52,48,40,36,19,36,36,62,56,17,12,1,3,0.6,0.7
2026-04-22T2300,2503A,108.655,21.9481,钦州市,沙埠小学,颗粒物(PM10),67,73,48,31,25,21,21,64,49,30,18,3,3,0.5,0.7
2026-04-22T2300,2504A,108.5989,21.7435,钦州市,港区一小,,45,45,46,24,22,53,53,65,63,13,11,2,3,0.5,0.5
2026-04-22T2300,3404A,108.5959,21.9634,钦州市,北职校,,42,42,40,29,20,45,45,61,55,13,11,1,2,0.4,0.5
2026-04-22T2300,1046A,119.5247,39.9346,秦皇岛市,建设大厦,颗粒物(PM10),93,109,71,36,18,6,6,110,84,89,19,7,8,0.5,0.5
2026-04-22T2300,3132A,119.5979,39.938,秦皇岛市,文明里,颗粒物(PM10),76,86,80,21,16,20,20,108,89,86,25,10,10,0.6,0.4
2026-04-22T2300,4066A,119.7458,39.9952,秦皇岛市,南园路157号,颗粒物(PM10),63,68,74,22,16,4,4,103,72,99,34,7,9,0.4,0.4
2026-04-22T2300,4067A,119.5131,39.8858,秦皇岛市,翠岛大街1号,颗粒物(PM10),67,73,49,18,14,42,42,111,92,58,21,8,9,0.4,0.4
2026-04-22T2300,4198A,119.509013,39.825305,秦皇岛市,北戴河轮滑馆,颗粒物(PM10),58,61,58,21,13,63,63,112,104,28,18,7,10,0.4,0.3
2026-04-22T2300,1310A,120.404,36.0625,青岛市,市南区东部子站,,36,36,32,11,8,68,68,107,96,35,16,4,5,0.5,0.4
2026-04-22T2300,1311A,120.362344,36.10282,青岛市,四方区子站,,24,24,26,13,7,73,73,110,100,28,12,6,5,0.5,0.5
2026-04-22T2300,1312A,120.294373,36.054183,青岛市,市南区西部子站,,37,29,32,7,9,40,40,104,80,74,26,5,3,0.5,0.5
2026-04-22T2300,1313A,120.4581,36.0858,青岛市,崂山区子站,,24,24,28,8,5,67,67,112,98,31,11,7,7,0.3,0.3
2026-04-22T2300,1315A,120.3945,36.3083,青岛市,城阳区子站,,48,48,36,20,11,60,60,116,93,34,17,7,6,0.7,0.5
2026-04-22T2300,3642A,120.3454,36.0735,青岛市,市北区南部,,30,26,35,8,7,45,45,116,100,60,11,6,2,0.5,0.4
2026-04-22T2300,3643A,120.3897,36.18,青岛市,李沧区北部,,41,41,28,15,7,60,60,105,88,31,16,8,8,0.4,0.4
2026-04-22T2300,4110A,120.5222,36.4089,青岛市,盟旺路653号,,45,45,35,20,16,73,73,115,100,24,11,4,3,0.6,0.6
2026-04-22T2300,4290A,120.196923,35.954556,青岛市,珠江路669号,颗粒物(PM10),56,58,36,18,9,25,25,114,91,77,19,5,4,0.6,0.5
2026-04-22T2300,4291A,120.0424,35.8656,青岛市,黄岛区人民政府广场,,39,39,36,16,8,63,63,108,98,35,15,8,7,0.5,0.4
2026-04-22T2300,1703A,113.0218,23.7086,清远市,凤城街办,,16,16,30,10,20,28,28,58,34,14,24,/,/,/,/
2026-04-22T2300,3025A,113.0479,23.6343,清远市,技师学院,,14,14,27,8,15,27,27,68,41,17,22,4,5,0.5,0.4
2026-04-22T2300,3318A,112.9898,23.7403,清远市,清新太和,,14,13,29,6,16,42,42,69,50,8,18,6,8,0.4,0.4
2026-04-22T2300,3455A,113.076,23.72,清远市,清城东城,,9,9,32,3,18,24,24,64,36,8,16,/,/,/,/
2026-04-22T2300,2661A,107.6325,35.7357,庆阳市,庆阳五中,,49,49,33,16,13,91,91,105,103,17,13,2,3,0.3,0.3
2026-04-22T2300,2662A,107.6361,35.7067,庆阳市,市环保局,NA,NA,47,38,22,18,92,92,110,103,NA,14,6,5,0.3,0.7
2026-04-22T2300,1916A,103.7897,25.5036,曲靖市,环境监测站,细颗粒物(PM2.5),64,64,55,42,35,46,46,141,90,13,11,8,8,0.7,0.5
2026-04-22T2300,1917A,103.8013,25.5357,曲靖市,烟厂办公区,细颗粒物(PM2.5),62,56,55,41,29,51,51,140,87,13,10,12,9,0.7,0.5
2026-04-22T2300,3376A,103.7926,25.4651,曲靖市,南苑二区,颗粒物(PM10),73,82,56,43,33,58,58,135,94,12,9,4,4,0.7,0.6
2026-04-22T2300,3377A,103.7442,25.5259,曲靖市,曲靖师范学院,细颗粒物(PM2.5),68,69,58,44,36,45,45,139,87,22,17,14,7,0.6,0.5
2026-04-22T2300,1264A,118.8694,28.94,衢州市,环保大楼,,12,NA,12,6,9,37,37,44,41,12,15,/,/,/,/
2026-04-22T2300,1266A,118.8622,28.9809,衢州市,衢州学院,,11,6,12,3,9,33,33,37,36,17,24,4,5,0.6,0.5
2026-04-22T2300,4097A,118.9646,28.9832,衢州市,衢州三中,,12,9,15,7,10,36,36,42,40,15,21,8,7,0.7,0.5
2026-04-22T2300,1611A,118.5818,24.9116,泉州市,涂山街,,42,34,34,29,26,46,46,56,48,17,17,3,4,0.7,0.7
2026-04-22T2300,1612A,118.597,24.8976,泉州市,津头埔,NA,NA,36,37,28,26,NA,NA,58,50,15,17,2,3,0.4,0.6
2026-04-22T2300,1613A,118.6669,24.9422,泉州市,万安,,39,39,35,25,24,43,43,57,50,15,16,3,3,0.6,0.6
2026-04-22T2300,4105A,118.6355,24.9148,泉州市,霞新路6号,,38,32,30,26,23,41,41,54,46,22,22,/,/,0.5,0.6
2026-04-22T2300,2626A,88.8873,29.2723,日喀则市,日喀则监测站,颗粒物(PM10),56,58,43,27,13,42,42,111,94,49,7,8,7,0.6,0.3
2026-04-22T2300,3726A,88.8775,29.2425,日喀则市,林业技术推广中心,,39,39,51,13,12,71,71,106,94,8,4,7,6,0.3,0.3
2026-04-22T2300,1659A,119.4711,35.421,日照市,监测站,,43,41,36,22,13,5,5,109,82,86,23,7,7,0.6,0.4
2026-04-22T2300,1660A,119.523,35.4216,日照市,市政府广场,,31,31,37,14,10,62,62,105,95,30,14,4,5,0.6,0.5
2026-04-22T2300,1661A,119.5511,35.4113,日照市,港务局,,34,34,41,9,8,66,66,116,105,42,14,4,4,0.4,0.4
2026-04-22T2300,3507A,119.5326,35.4627,日照市,职业技术学院,,24,24,32,10,10,61,61,113,97,32,16,7,6,0.5,0.4
2026-04-22T2300,3604A,119.3267,35.1043,日照市,岚山环保分局,颗粒物(PM10),63,68,44,24,9,65,65,105,101,49,16,37,9,3.1,0.6
2026-04-22T2300,1835A,111.1922,34.7752,三门峡市,市政府,,31,31,22,18,11,32,32,87,67,37,19,8,9,0.4,0.5
2026-04-22T2300,1836A,111.1588,34.794,三门峡市,开发区,,31,31,25,18,15,51,51,89,78,17,12,12,10,0.5,0.5
2026-04-22T2300,3039A,111.1911,34.7829,三门峡市,三门峡市第一小学,,30,30,28,10,12,34,34,89,72,37,13,12,13,0.4,0.3
2026-04-22T2300,3598A,111.1031,34.719,三门峡市,富达温泉假日酒店,,49,49,33,15,17,35,35,93,75,28,14,12,15,0.6,0.5
2026-04-22T2300,2324A,117.621,26.2626,三明市,三钢,,36,30,30,25,26,38,38,57,34,17,17,10,5,2.1,1.1
2026-04-22T2300,2325A,117.6352,26.2714,三明市,三明二中,,32,25,32,22,22,34,34,54,39,15,14,1,3,0.6,0.9
2026-04-22T2300,2326A,117.6028,26.2377,三明市,三元区政府,,29,NA,32,20,25,33,33,56,36,12,13,3,5,0.7,1
2026-04-22T2300,1877A,109.4962,18.2682,三亚市,河西子站,,36,34,28,25,19,51,51,64,55,7,5,4,4,0.4,0.4
2026-04-22T2300,3540A,109.7348,18.3443,三亚市,君悦子站,,36,NA,26,25,18,56,56,58,54,3,6,4,3,0.6,0.6
2026-04-22T2300,4135A,109.1714,18.3739,三亚市,城东小学站,细颗粒物(PM2.5),58,NA,30,39,22,49,49,63,54,7,5,/,/,/,/
2026-04-22T2300,2624A,91.7592,29.234,山南市,山南监测站,颗粒物(PM10),51,51,30,25,8,92,92,115,107,11,5,7,7,0.2,0.2
2026-04-22T2300,2625A,91.7701,29.2436,山南市,山南人民医院,颗粒物(PM10),54,55,33,19,7,89,89,114,108,10,4,9,8,0.2,0.2
2026-04-22T2300,1674A,116.6795,23.3666,汕头市,金平子站,,24,24,27,15,17,68,68,85,78,7,8,4,4,0.6,0.6
2026-04-22T2300,1675A,116.7248,23.3632,汕头市,龙湖子站,,26,26,27,16,17,66,66,82,75,1,3,5,5,/,/
2026-04-22T2300,1676A,116.7257,23.2774,汕头市,濠江子站,,26,26,29,15,16,61,61,74,68,8,10,7,8,/,/
2026-04-22T2300,1677A,116.7518,23.4712,汕头市,澄海子站,,32,32,36,17,19,66,66,86,78,7,9,6,7,0.6,0.8
2026-04-22T2300,1678A,116.6088,23.2539,汕头市,潮阳子站,,24,24,25,15,17,67,67,82,76,2,4,6,6,0.5,0.5
2026-04-22T2300,3444A,116.4539,23.2684,汕头市,潮南峡山,,25,25,25,16,17,63,63,84,73,4,5,6,6,0.7,0.8
2026-04-22T2300,3624A,116.4069,23.2533,汕头市,潮南子站,,27,27,30,16,18,59,59,78,67,2,4,6,5,/,/
2026-04-22T2300,1693A,115.3653,22.7751,汕尾市,市环保局,,27,27,27,12,16,56,56,84,68,4,4,4,4,0.6,0.6
2026-04-22T2300,1695A,115.362,22.7926,汕尾市,新城中学,,21,21,24,14,17,60,60,91,73,5,5,6,6,0.5,0.6
2026-04-22T2300,2645A,109.9155,33.8714,商洛市,监测站,,26,26,15,13,7,54,54,103,86,22,11,5,5,0.4,0.4
2026-04-22T2300,3045A,109.9647,33.8486,商洛市,商州区中学,,32,32,22,12,6,45,45,104,83,28,13,1,2,0.5,0.5
2026-04-22T2300,2408A,115.6701,34.4283,商丘市,环境监测站,,39,35,31,27,25,59,59,92,77,12,8,2,2,0.4,0.3
2026-04-22T2300,2409A,115.6458,34.4047,商丘市,粮食局,细颗粒物(PM2.5),54,38,31,37,25,58,58,87,75,15,11,3,3,0.4,0.4
2026-04-22T2300,3171A,115.6069,34.4465,商丘市,梁园区档案局,细颗粒物(PM2.5),52,50,32,36,24,24,24,94,76,44,14,4,4,0.5,0.3
2026-04-22T2300,4119A,115.6701,34.3767,商丘市,北海东路185号,,45,45,40,26,24,49,49,92,72,17,12,4,4,0.5,0.4
2026-04-22T2300,4120A,115.6172,34.3704,商丘市,中山大街3号,细颗粒物(PM2.5),52,46,49,36,25,33,33,90,71,22,9,6,6,0.4,0.4
2026-04-22T2300,1141A,121.401,31.2382,上海市,普陀,,30,NA,18,3,11,94,94,76,72,16,25,5,5,0.3,0.4
2026-04-22T2300,1142A,121.4774,31.2043,上海市,十五厂,,28,6,23,3,12,89,89,69,69,10,22,4,4,0.5,0.6
2026-04-22T2300,1143A,121.4673,31.3011,上海市,虹口,,29,6,21,3,12,91,91,72,72,9,22,4,4,0.5,0.6
2026-04-22T2300,1147A,121.4253,31.226,上海市,静安监测站,,30,NA,20,3,13,93,93,73,72,16,24,8,8,0.6,0.7
2026-04-22T2300,1148A,121.7029,31.1905,上海市,浦东川沙,,31,6,21,3,11,99,99,78,78,14,29,7,8,0.7,0.7
2026-04-22T2300,1149A,121.5339,31.229,上海市,浦东新区监测站,,26,NA,20,3,11,83,83,68,68,17,24,5,5,0.3,0.4
2026-04-22T2300,1150A,121.5776,31.2038,上海市,浦东张江,,31,NA,21,3,11,98,98,75,75,12,25,6,6,0.2,0.2
2026-04-22T2300,3265A,121.4242,31.3303,上海市,宝山庙行,,29,NA,21,7,9,91,91,70,70,13,24,6,6,0.2,0.3
2026-04-22T2300,3266A,121.8789,31.4662,上海市,崇明上实东滩,,33,10,16,6,8,104,104,102,102,5,9,5,5,0.2,0.2
2026-04-22T2300,3268A,121.316,31.2839,上海市,嘉定南翔,,26,NA,18,6,11,81,81,61,61,7,18,4,4,0.4,0.4
2026-04-22T2300,3269A,121.3357,30.7455,上海市,金山新城,,22,18,25,15,15,67,67,78,47,13,14,3,4,0.5,0.7
2026-04-22T2300,3270A,121.4996,31.0741,上海市,闵行浦江,,24,10,23,9,13,76,76,67,52,17,25,9,6,0.3,0.3
2026-04-22T2300,3271A,121.2886,31.1663,上海市,青浦徐泾,,28,6,20,6,11,89,89,69,64,7,20,4,4,0.4,0.5
2026-04-22T2300,3272A,121.2193,31.0382,上海市,松江图书馆,,24,13,22,12,15,75,75,64,58,6,15,6,6,0.5,0.7
2026-04-22T2300,3273A,121.3904,31.206,上海市,长宁仙霞,,28,7,20,6,9,87,87,68,63,12,22,6,6,0.2,0.2
2026-04-22T2300,3274A,121.7964,31.0507,上海市,浦东惠南,,30,6,21,3,11,95,95,78,67,16,27,5,6,0.5,0.5
2026-04-22T2300,3544A,121.4891,30.925,上海市,奉贤南桥新城,,24,19,36,16,17,74,74,70,51,15,23,3,3,0.3,0.5
2026-04-22T2300,4183A,121.417401,31.16637,上海市,冠生园路458号,,26,NA,20,6,13,83,83,62,61,12,23,9,9,0.4,0.4
2026-04-22T2300,4205A,121.541914,31.268301,上海市,宁武路151号,,27,6,24,3,13,86,86,73,73,21,33,6,6,0.3,0.4
2026-04-22T2300,2382A,117.9758,28.4439,上饶市,市监测站,,20,20,24,6,7,45,45,46,45,12,18,4,6,/,/
2026-04-22T2300,2383A,117.9521,28.4637,上饶市,凤凰光学,,15,15,18,3,8,40,40,41,40,13,20,4,6,0.6,0.6
2026-04-22T2300,3685A,117.897,28.4316,上饶市,双创科技城,,16,16,18,7,7,45,45,46,45,9,12,5,8,0.5,0.6
2026-04-22T2300,4211A,118.190438,28.444845,上饶市,裕丰大道,,27,27,18,12,6,45,45,51,45,16,14,22,14,0.7,0.7
2026-04-22T2300,1669A,113.5821,24.7733,韶关市,市八中,,11,7,15,3,8,33,33,48,39,15,14,5,12,0.4,0.5
2026-04-22T2300,1671A,113.5916,24.7973,韶关市,园林处,,11,11,15,3,9,27,27,44,39,16,14,7,8,/,/
2026-04-22T2300,1673A,113.5971,24.6864,韶关市,曲江监测站,,10,10,18,3,10,30,30,42,36,18,16,6,8,0.7,0.6
2026-04-22T2300,2809A,113.6668,24.7756,韶关市,大学路288号,,13,6,19,3,10,39,39,46,36,11,13,4,5,/,/
2026-04-22T2300,3622A,113.5556,24.8082,韶关市,碧湖山庄,,10,9,15,3,8,30,30,53,36,17,13,5,7,0.5,0.5
2026-04-22T2300,2464A,111.5277,27.2442,邵阳市,市化工厂,NA,NA,39,10,NA,9,36,36,64,53,NA,12,9,5,0.6,0.6
2026-04-22T2300,2466A,111.4327,27.2276,邵阳市,市环保局,,22,NA,9,15,9,53,53,72,66,10,7,9,6,0.7,0.7
2026-04-22T2300,4218A,111.446,27.2472,邵阳市,北塔二期4-26地块,,19,13,10,13,9,44,44,64,60,11,8,8,7,0.6,0.5
2026-04-22T2300,4219A,111.4739,27.2282,邵阳市,邵水西路287号,,25,NA,12,17,9,51,51,73,66,15,9,11,7,0.3,0.3
2026-04-22T2300,1247A,120.6053,29.9927,绍兴市,城东开发委,,16,16,15,10,8,35,35,40,39,22,23,7,7,0.8,0.8
2026-04-22T2300,2921A,120.5482,30.0003,绍兴市,树下王站,,13,NA,12,9,9,40,40,41,40,22,25,7,7,0.6,0.5
2026-04-22T2300,3408A,120.5685,29.936,绍兴市,绍兴中专,,15,13,11,8,5,45,45,48,48,16,17,8,8,0.7,0.8
2026-04-22T2300,3409A,120.4905,30.086,绍兴市,柯桥区政府,,13,13,17,8,13,39,39,39,38,18,25,6,6,0.5,0.5
2026-04-22T2300,3410A,120.8751,30.0249,绍兴市,重华小学,,18,17,20,12,13,36,36,38,36,24,27,5,5,0.8,0.5
2026-04-22T2300,3411A,120.837,30.0137,绍兴市,上虞中学,,19,19,16,13,12,33,33,46,35,27,25,6,6,0.7,0.5
2026-04-22T2300,3560A,120.4715,30.0414,绍兴市,柯桥妇保,,13,11,15,8,9,41,41,42,42,17,23,5,5,0.6,0.5
2026-04-22T2300,3658A,120.6156,30.0762,绍兴市,袍江中学,,18,12,19,12,12,34,34,40,38,29,30,5,5,0.5,0.4
2026-04-22T2300,1356A,114.0948,22.5506,深圳市,通心岭子站,,26,26,22,17,16,44,44,70,50,14,14,4,4,0.4,0.4
2026-04-22T2300,1357A,114.1153,22.5713,深圳市,洪湖,,26,26,24,15,15,45,45,75,52,8,6,5,6,0.3,0.4
