timepoint,stationcode,longitude,latitude,area,positionname,primarypollutant,aqi,pm10,pm10_24h,pm2_5,pm2_5_24h,o3,o3_24h,o3_8h,o3_8h_24h,no2,no2_24h,so2,so2_24h,co,co_24h
2025-12-29T0800,2566A,102.1879,31.914,阿坝藏族羌族自治州,州农科所,,,,,,,,,,,,,,,,
2025-12-29T0800,2568A,102.2502,31.8896,阿坝藏族羌族自治州,马师校,,19,,20,13,15,23,23,26,26,13,18,4,4,0.6,0.7
2025-12-29T0800,3994A,102.2165,31.9024,阿坝藏族羌族自治州,马尔康中学西区,,13,,16,9,10,28,28,30,30,11,17,6,6,0.5,0.6
2025-12-29T0800,2695A,80.292,41.1694,阿克苏地区,电视台,,50,50,45,33,30,22,22,38,38,38,20,4,4,1.4,0.6
2025-12-29T0800,2696A,80.2613,41.1551,阿克苏地区,艺术中心,细颗粒物(PM2.5),58,53,48,41,36,18,18,30,30,31,20,4,5,0.7,0.5
2025-12-29T0800,2204A,105.6467,38.8363,阿拉善盟,西城区西花园,,,,,,,,,,,,,,,,
2025-12-29T0800,2205A,105.6985,38.8411,阿拉善盟,蒙二幼,,26,26,31,13,12,57,57,68,68,21,11,10,10,0.8,0.6
2025-12-29T0800,2206A,105.724,38.8516,阿拉善盟,环保局新楼,,25,10,17,3,8,79,79,81,81,6,5,9,9,0.6,0.6
2025-12-29T0800,2708A,88.1264,47.8517,阿勒泰地区,市站,,24,,6,9,5,75,75,79,79,4,19,2,3,0.5,0.5
2025-12-29T0800,2630A,80.1161,32.5,阿里地区,阿里监测站,,21,6,3,3,3,65,65,56,56,1,7,8,9,0.2,0.4
2025-12-29T0800,3192A,80.0903,32.5028,阿里地区,阿里藏医院,,19,19,12,9,6,50,50,64,64,12,6,10,10,0.4,0.4
2025-12-29T0800,2642A,109.0318,32.6537,安康市,香溪洞,,,,,,,,,,,,,,,,
2025-12-29T0800,2644A,109.0072,32.6975,安康市,汉滨区检察院,细颗粒物(PM2.5),64,56,81,46,58,2,2,3,3,23,33,4,4,0.3,0.5
2025-12-29T0800,4054A,109.0325,32.6913,安康市,市邮政管理局,细颗粒物(PM2.5),67,60,84,48,61,4,4,4,4,21,32,5,6,0.8,1.1
2025-12-29T0800,2291A,117.0809,30.5177,安庆市,环科院,细颗粒物(PM2.5),74,67,71,54,56,5,5,14,14,49,40,6,7,0.5,0.5
2025-12-29T0800,2292A,117.0331,30.5119,安庆市,马山宾馆,细颗粒物(PM2.5),70,63,71,51,55,8,8,12,12,58,55,6,6,1.0,0.8
2025-12-29T0800,2294A,116.9896,30.6145,安庆市,安庆大学,细颗粒物(PM2.5),67,67,64,48,46,20,20,29,29,34,36,4,6,0.8,0.7
2025-12-29T0800,3173A,117.0598,30.5351,安庆市,市人大,细颗粒物(PM2.5),77,67,70,56,52,6,6,18,18,50,36,6,8,0.7,0.6
2025-12-29T0800,3122A,105.9606,26.2611,安顺市,伍家关,,,,58,21,41,23,23,31,31,17,15,11,17,0.9,0.9
2025-12-29T0800,3123A,105.9408,26.2431,安顺市,凤凰山,,26,26,49,16,37,31,31,37,37,15,19,12,17,0.8,0.8
2025-12-29T0800,3124A,105.9439,26.2564,安顺市,金钟山,,28,28,50,18,37,29,29,36,36,12,15,12,18,0.8,0.8
2025-12-29T0800,3125A,105.8983,26.2481,安顺市,娄家坡,,25,21,43,17,34,31,31,41,41,13,15,11,16,0.9,0.9
2025-12-29T0800,1818A,114.4839,36.0621,安阳市,棉研所,,,,,,,,,,,,,,,,
2025-12-29T0800,1819A,114.3551,36.1017,安阳市,红庙街,细颗粒物(PM2.5),113,119,150,85,122,0,0,14,14,53,51,9,7,2.2,1.3
2025-12-29T0800,1820A,114.361,36.0681,安阳市,银杏小区,细颗粒物(PM2.5),125,119,156,95,139,6,6,13,13,46,47,6,7,2.2,1.3
2025-12-29T0800,3141A,114.3922,36.0878,安阳市,信访局,细颗粒物(PM2.5),114,111,157,86,132,12,12,23,23,50,50,14,8,2.1,1.3
2025-12-29T0800,3669A,114.4705,36.0637,安阳市,左辅环卫站,,,,183,,146,,,41,,,42,,7,,1.0
2025-12-29T0800,3703A,114.2917,36.0949,安阳市,安钢职工学校,细颗粒物(PM2.5),127,108,164,96,131,7,7,8,8,40,53,7,10,1.8,1.4
2025-12-29T0800,1748A,123.044,41.1196,鞍山市,深沟寺,,21,21,74,8,56,33,33,50,50,30,22,8,9,0.6,0.9
2025-12-29T0800,1749A,123.011,41.0931,鞍山市,太阳城,,23,23,70,9,54,32,32,50,50,32,24,16,12,0.5,0.9
2025-12-29T0800,1750A,123.0485,41.1442,鞍山市,太平,,25,25,78,12,56,35,35,49,49,30,29,12,11,0.8,1.1
2025-12-29T0800,1751A,122.9642,41.0971,鞍山市,铁西三道街,,14,14,79,3,55,40,40,44,44,22,28,11,21,0.5,1.6
2025-12-29T0800,1753A,123.022,41.0821,鞍山市,明达新区,,16,16,70,6,53,34,34,50,50,25,18,20,13,0.4,0.7
2025-12-29T0800,1754A,123.1289,41.0228,鞍山市,千山,,,,69,,56,,,45,,,24,,4,,0.5
2025-12-29T0800,4201A,122.9446,41.0826,鞍山市,兴盛南路290号,,26,26,82,8,58,38,38,44,44,40,36,13,16,0.7,1.3
2025-12-29T0800,2195A,107.4212,40.761,巴彦淖尔市,附二中,细颗粒物(PM2.5),54,55,49,38,29,21,21,45,45,30,13,5,5,0.7,0.3
2025-12-29T0800,2196A,107.37,40.7372,巴彦淖尔市,市环保大楼,,48,42,49,33,23,28,28,43,43,28,14,4,4,0.5,0.4
2025-12-29T0800,1956A,86.1472,41.7538,巴音郭楞蒙古自治州,孔雀公园,颗粒物(PM10),53,55,51,32,30,1,1,13,13,65,34,7,7,0.6,0.6
2025-12-29T0800,1957A,86.1972,41.7166,巴音郭楞蒙古自治州,棉纺厂,颗粒物(PM10),59,68,69,14,22,34,34,22,22,20,23,4,4,0.4,0.5
2025-12-29T0800,1958A,86.2357,41.7173,巴音郭楞蒙古自治州,经济开发区,颗粒物(PM10),85,120,51,29,21,16,16,18,18,39,21,5,5,0.5,0.5
2025-12-29T0800,2914A,106.7677,31.8794,巴中市,苏山坪,,,,,,,,,,,,,,,,
2025-12-29T0800,3181A,106.7768,31.8526,巴中市,市五中,细颗粒物(PM2.5),102,96,85,76,65,1,1,2,2,20,24,5,5,1.3,1
2025-12-29T0800,3183A,106.7418,31.8654,巴中市,圣泉水务公司,细颗粒物(PM2.5),68,60,74,49,61,9,9,3,3,20,28,5,5,0.6,0.8
2025-12-29T0800,3616A,106.7616,31.8344,巴中市,市中心医院,细颗粒物(PM2.5),98,95,119,73,108,0,0,0,0,18,24,7,6,1.0,1
2025-12-29T0800,2235A,122.7911,45.6077,白城市,洮北区环保局,,18,15,29,12,16,52,52,56,56,16,13,6,6,0.2,0.2
2025-12-29T0800,2236A,122.8738,45.5725,白城市,市环保局,,18,17,24,12,18,48,48,53,53,12,10,5,5,0.3,0.4
2025-12-29T0800,2231A,126.4219,41.9171,白山市,喜丰,,25,25,64,10,38,50,50,61,61,19,19,8,13,0.6,0.9
2025-12-29T0800,2232A,126.4077,41.9419,白山市,环保局,,21,21,53,9,42,41,41,54,54,30,15,11,12,0.5,0.8
2025-12-29T0800,2647A,104.1724,36.5446,白银市,第三小学,细颗粒物(PM2.5),53,52,68,37,48,10,10,25,25,52,44,21,32,1.5,1.2
2025-12-29T0800,2648A,104.1465,36.5482,白银市,动力公司,,45,36,63,31,45,32,32,44,44,36,35,7,20,1.8,1.1
2025-12-29T0800,2512A,106.6103,23.9011,百色市,市监测站,细颗粒物(PM2.5),87,70,61,64,38,6,6,4,4,30,24,9,9,0.7,0.6
2025-12-29T0800,2513A,106.6538,23.8859,百色市,市中心血站,细颗粒物(PM2.5),79,86,88,58,59,4,4,6,6,46,36,13,12,1.1,0.9
2025-12-29T0800,3406A,106.6085,23.8798,百色市,祈福高中,颗粒物(PM10),66,81,80,42,41,1,1,3,3,30,34,6,8,0.7,0.6
2025-12-29T0800,2270A,117.396,32.939,蚌埠市,工人疗养院,细颗粒物(PM2.5),102,106,89,76,59,49,49,56,56,36,26,6,7,0.7,0.6
2025-12-29T0800,2271A,117.3605,32.9427,蚌埠市,百货大楼,细颗粒物(PM2.5),104,99,82,78,58,45,45,58,58,39,27,5,7,0.6,0.6
2025-12-29T0800,2273A,117.4185,32.8911,蚌埠市,蚌埠学院,细颗粒物(PM2.5),97,90,78,72,57,44,44,44,44,37,28,5,6,0.6,0.5
2025-12-29T0800,2274A,117.3533,32.9673,蚌埠市,淮上区政府,细颗粒物(PM2.5),108,110,85,81,62,41,41,59,59,47,27,3,4,0.7,0.6
2025-12-29T0800,2275A,117.3145,32.8977,蚌埠市,高新区,细颗粒物(PM2.5),110,107,91,83,68,26,26,33,33,49,32,7,9,0.5,0.5
2025-12-29T0800,3715A,117.3092,32.9314,蚌埠市,蚌埠田家炳中学,细颗粒物(PM2.5),107,116,97,80,70,40,40,34,34,43,37,6,11,0.7,0.6
2025-12-29T0800,1585A,109.8756,40.6532,包头市,市环境监测站,,25,25,45,7,14,16,16,38,38,41,23,13,6,0.8,0.7
2025-12-29T0800,1587A,109.9991,40.5842,包头市,包头八中,,42,35,55,29,24,2,2,6,6,56,44,7,7,1.1,0.6
2025-12-29T0800,1588A,109.8538,40.6821,包头市,青山宾馆,,22,22,37,14,16,21,21,34,34,40,24,13,9,0.7,0.7
2025-12-29T0800,1589A,109.8642,40.6288,包头市,惠龙物流,,23,15,45,10,19,13,13,38,38,46,25,14,10,1.1,0.8
2025-12-29T0800,1590A,110.0377,40.5546,包头市,东河鸿龙湾,,43,43,57,26,26,2,2,3,3,56,52,6,9,0.8,0.8
2025-12-29T0800,3283A,109.9154,40.5685,包头市,滨河大厦,颗粒物(PM10),52,53,53,31,28,0,0,4,4,47,32,5,7,1.3,0.9
2025-12-29T0800,3419A,109.9447,40.6261,包头市,包头市委党校,,40,40,45,6,19,1,1,10,10,53,34,8,8,0.8,0.7
2025-12-29T0800,3683A,109.8331,40.6576,包头市,昆区政府,,22,22,40,12,17,27,27,44,44,34,25,16,9,0.7,0.6
2025-12-29T0800,1930A,107.185,34.3063,宝鸡市,庙沟村,,,,,,,,,,,,,,,,
2025-12-29T0800,1931A,107.0708,34.3017,宝鸡市,竹园沟,细颗粒物(PM2.5),52,,63,36,56,20,20,23,23,18,25,5,6,0.4,0.5
2025-12-29T0800,1932A,107.1906,34.3672,宝鸡市,三陆医院,颗粒物(PM10),57,63,107,31,90,2,2,21,21,54,45,5,6,0.7,0.7
2025-12-29T0800,1933A,107.1431,34.3547,宝鸡市,监测站,细颗粒物(PM2.5),70,62,96,51,86,6,6,20,20,38,36,4,5,0.9,0.7
2025-12-29T0800,1934A,107.1186,34.3739,宝鸡市,技工学校,细颗粒物(PM2.5),67,50,105,48,83,24,24,34,34,24,34,4,7,0.8,0.8
2025-12-29T0800,1936A,107.2058,34.3497,宝鸡市,文理学院,细颗粒物(PM2.5),59,63,98,42,87,19,19,27,27,34,41,5,5,0.6,0.7
2025-12-29T0800,1937A,107.2386,34.3622,宝鸡市,三迪小学,颗粒物(PM10),52,54,106,35,90,4,4,15,15,55,52,4,5,0.9,0.9
2025-12-29T0800,4308A,107.3898,34.3601,宝鸡市,陈仓区北开路21号,细颗粒物(PM2.5),69,63,121,50,100,23,23,51,51,41,44,38,54,0.8,0.7
2025-12-29T0800,1051A,115.493,38.8632,保定市,游泳馆,细颗粒物(PM2.5),165,148,145,125,120,5,5,5,5,73,73,9,11,1.4,1.2
2025-12-29T0800,1052A,115.5213,38.8959,保定市,华电二区,细颗粒物(PM2.5),192,,134,144,126,1,1,0,0,73,77,3,4,1.6,1.2
2025-12-29T0800,1053A,115.4713,38.9108,保定市,接待中心,细颗粒物(PM2.5),180,165,143,136,116,1,1,0,0,54,63,1,2,1.6,1.2
2025-12-29T0800,1054A,115.4612,38.8416,保定市,地表水厂,细颗粒物(PM2.5),169,162,160,128,118,3,3,3,3,69,72,4,6,1.5,1.3
2025-12-29T0800,3581A,115.31981,38.95208,保定市,满城区生态环境分局,细颗粒物(PM2.5),140,178,151,107,102,1,1,1,1,74,72,6,8,1.6,1.2
2025-12-29T0800,3582A,115.47694,38.76408,保定市,清苑区第二中学,细颗粒物(PM2.5),201,219,191,151,126,2,2,3,3,79,73,7,8,1.5,1.4
2025-12-29T0800,3583A,115.62909,39.02311,保定市,徐水物探局,细颗粒物(PM2.5),195,214,198,146,137,2,2,2,2,73,75,8,9,1.7,1.4
2025-12-29T0800,4004A,115.4202,38.8656,保定市,双鹰农机,细颗粒物(PM2.5),170,193,173,129,108,10,10,10,10,66,68,8,9,1.4,1.2
2025-12-29T0800,4034A,115.5150,38.8590,保定市,植保所站,细颗粒物(PM2.5),179,156,153,135,128,0,0,0,0,80,87,4,5,2.1,1.4
2025-12-29T0800,2594A,99.1678,25.1081,保山市,市环境监测站,,25,21,21,17,16,29,29,44,44,10,8,3,4,0.3,0.2
2025-12-29T0800,2595A,99.1711,25.1328,保山市,市环保局,,22,22,24,6,18,36,36,49,49,5,6,4,4,0.3,0.4
2025-12-29T0800,1866A,109.2262,21.588,北海市,牛尾岭水库,细颗粒物(PM2.5),93,71,69,69,52,15,15,32,32,19,23,5,6,0.6,0.6
2025-12-29T0800,1867A,109.1436,21.4086,北海市,海滩公园,细颗粒物(PM2.5),95,90,71,71,50,28,28,53,53,34,22,23,14,1.0,0.9
2025-12-29T0800,1868A,109.0981,21.4661,北海市,新市环保局,细颗粒物(PM2.5),89,76,74,66,58,29,29,53,53,30,22,14,11,0.9,0.8
2025-12-29T0800,1869A,109.1778,21.5233,北海市,北海工业园,细颗粒物(PM2.5),83,88,85,61,59,24,24,42,42,29,24,27,17,0.8,0.8
2025-12-29T0800,3400A,109.1911,21.4415,北海市,龙潭自来水厂,细颗粒物(PM2.5),102,85,71,76,55,18,18,36,36,24,19,10,12,0.9,0.9
2025-12-29T0800,1001A,116.3621,39.8784,北京市,万寿西宫,,19,13,95,3,63,33,33,39,39,38,72,2,3,0.5,1.1
2025-12-29T0800,1002A,116.2202,40.2915,北京市,定陵,,,,,,,,,,,,,,,,
2025-12-29T0800,1003A,116.4174,39.9289,北京市,东四,,16,13,90,6,55,35,35,41,41,31,57,2,4,0.6,1.3
2025-12-29T0800,1004A,116.4072,39.8863,北京市,天坛,,13,13,95,6,63,34,34,34,34,22,63,2,3,0.5,1.2
2025-12-29T0800,1005A,116.462,39.9365,北京市,农展馆,,16,6,91,3,60,49,49,51,51,14,52,4,5,0.3,0.9
2025-12-29T0800,1006A,116.3392,39.9295,北京市,官园,,16,13,85,6,54,35,35,42,42,32,60,3,5,0.7,1.1
2025-12-29T0800,1007A,116.2878,39.9611,北京市,海淀万柳,,20,17,74,3,48,28,28,31,31,40,64,3,4,0.5,1
2025-12-29T0800,1008A,116.6636,40.135,北京市,顺义新城,,17,10,90,3,62,53,53,60,60,17,47,5,6,0.3,0.7
2025-12-29T0800,1009A,116.6275,40.3275,北京市,怀柔镇,,17,8,67,3,48,53,53,63,63,15,41,6,7,0.5,0.8
2025-12-29T0800,1010A,116.2296,40.217,北京市,昌平镇,,15,12,63,3,38,48,48,54,54,14,39,5,5,0.3,0.7
2025-12-29T0800,1011A,116.3966,39.9821,北京市,奥体中心,,18,10,74,3,48,37,37,49,49,35,62,4,5,0.4,0.9
2025-12-29T0800,3281A,115.9718,40.4529,北京市,延庆夏都,,15,15,37,7,22,34,34,53,53,23,19,2,3,0.4,0.6
2025-12-29T0800,3418A,116.8336,40.4095,北京市,密云新城,,39,39,108,27,72,5,5,3,3,43,57,2,4,0.7,1
2025-12-29T0800,3671A,116.088,39.9726,北京市,门头沟三家店,,18,18,59,6,34,39,39,49,49,22,33,4,5,0.4,0.6
2025-12-29T0800,3672A,116.1541,39.8204,北京市,丰台云岗,,20,8,71,3,42,63,63,63,63,8,44,3,4,0.3,0.7
2025-12-29T0800,3673A,116.6804,39.9081,北京市,通州东关,,14,11,125,3,86,44,44,33,33,24,75,4,6,0.3,1.1
2025-12-29T0800,3674A,115.9577,39.7603,北京市,房山燕山,,19,8,63,3,35,60,60,60,60,6,37,2,4,0.1,0.4
2025-12-29T0800,3675A,116.4672,39.7733,北京市,大兴旧宫,,21,10,125,3,78,24,24,20,20,41,74,1,3,0.5,1.1
2025-12-29T0800,3694A,115.986,40.4563,北京市,延庆石河营,,14,14,35,7,22,28,28,47,47,9,20,3,3,0.5,0.7
2025-12-29T0800,3695A,116.6151,40.3053,北京市,怀柔新城,,19,7,65,3,46,60,60,65,65,5,34,4,5,0.3,0.7
2025-12-29T0800,3696A,116.2545,39.8768,北京市,丰台小屯,,21,20,86,6,50,27,27,45,45,41,63,3,4,0.4,0.9
2025-12-29T0800,3697A,116.84,40.3844,北京市,密云镇,细颗粒物(PM2.5),53,52,113,37,81,2,2,2,2,46,56,2,3,0.7,1
2025-12-29T0800,4182A,116.1942,39.9158,北京市,八角北路9号,,16,12,68,3,37,49,49,53,53,12,41,4,4,0.1,0.5
2025-12-29T0800,4194A,117.0790,40.1518,北京市,洳河巡河路,,,,163,,132,,,10,,,56,,3,,1.2
2025-12-29T0800,1761A,123.8275,41.3064,本溪市,大峪,,13,9,65,3,48,40,40,51,51,15,26,8,10,0.6,0.8
2025-12-29T0800,1762A,123.7567,41.3325,本溪市,溪湖,,33,33,79,10,54,46,46,55,55,18,23,9,13,0.6,1.3
2025-12-29T0800,1763A,123.7169,41.3094,本溪市,彩屯,,35,35,76,18,56,23,23,50,50,43,28,9,15,1.3,1.8
2025-12-29T0800,1764A,123.7669,41.2864,本溪市,东明,,15,13,56,3,47,30,30,46,46,29,20,8,9,1.0,0.9
2025-12-29T0800,1765A,123.7992,41.2664,本溪市,新立屯,,18,,56,8,49,10,10,34,34,35,22,6,8,1.0,0.8
2025-12-29T0800,1766A,123.8142,41.3472,本溪市,威宁,,19,19,79,12,52,17,17,44,44,32,28,5,8,0.7,1
2025-12-29T0800,2587A,105.2864,27.3125,毕节市,八中,,41,41,105,28,82,38,38,33,33,9,19,8,11,1.2,1.4
2025-12-29T0800,2588A,105.31,27.2944,毕节市,师专,,38,34,108,26,78,43,43,39,39,12,22,8,10,0.7,0.9
2025-12-29T0800,4263A,105.3688,27.3598,毕节市,工业大道,,36,29,105,25,82,47,47,36,36,10,23,10,12,0.8,0.9
2025-12-29T0800,1629A,118.0018,37.3617,滨州市,第二水厂,细颗粒物(PM2.5),139,151,149,106,104,3,3,17,17,71,53,13,15,1.3,1.1
2025-12-29T0800,1630A,117.9776,37.393,滨州市,北中新校,细颗粒物(PM2.5),160,158,145,122,106,1,1,10,10,73,61,8,12,1.2,0.9
2025-12-29T0800,3514A,117.9378,37.3956,滨州市,中海酒店,细颗粒物(PM2.5),180,166,154,136,119,14,14,18,18,62,58,11,14,1.2,1.1
2025-12-29T0800,3515A,117.9378,37.3553,滨州市,开发区一中,细颗粒物(PM2.5),153,163,154,117,112,4,4,15,15,66,51,15,19,1.4,1.1
2025-12-29T0800,3516A,118.0917,37.694,滨州市,金海六路,细颗粒物(PM2.5),138,156,161,105,108,6,6,6,6,74,71,10,15,1.1,1.1
2025-12-29T0800,4028A,117.9956,37.3753,滨州市,滨州市西街道办事处,细颗粒物(PM2.5),163,158,148,124,113,3,3,14,14,68,55,11,14,1.1,0.9
2025-12-29T0800,2311A,115.8072,33.8399,亳州市,污水处理厂,细颗粒物(PM2.5),158,135,91,120,69,23,23,36,36,44,27,6,5,0.6,0.5
2025-12-29T0800,2312A,115.7789,33.8518,亳州市,三国揽胜宫,细颗粒物(PM2.5),142,155,103,108,67,25,25,34,34,30,27,5,5,0.9,0.8
2025-12-29T0800,3332A,115.7633,33.8034,亳州市,亳州学院,细颗粒物(PM2.5),138,143,100,105,73,20,20,34,34,40,29,3,4,0.8,0.6
2025-12-29T0800,2693A,82.0485,44.8556,博尔塔拉蒙古自治州,市党校,细颗粒物(PM2.5),74,96,92,54,57,24,24,24,24,29,27,3,5,0.8,0.8
2025-12-29T0800,2694A,82.0806,44.8969,博尔塔拉蒙古自治州,市环保局,颗粒物(PM10),76,102,92,52,51,29,29,30,30,25,29,9,8,1.1,0.9
2025-12-29T0800,1071A,116.8842,38.2991,沧州市,沧县城建局,细颗粒物(PM2.5),135,124,165,103,144,6,6,4,4,78,63,3,3,1.0,1.1
2025-12-29T0800,1072A,116.8584,38.3254,沧州市,电视转播站,细颗粒物(PM2.5),180,167,174,136,147,0,0,0,0,70,60,2,5,1.6,1.3
2025-12-29T0800,1073A,116.8709,38.3228,沧州市,市环保局,细颗粒物(PM2.5),148,135,176,113,147,8,8,8,8,68,56,5,7,1.1,1
2025-12-29T0800,3324A,116.8136,38.3004,沧州市,河北水利电力学院,细颗粒物(PM2.5),152,158,193,116,130,3,3,2,2,78,64,9,12,1.2,1.2
2025-12-29T0800,2622A,97.1806,31.1273,昌都市,昌都监测站,,19,19,63,3,25,42,42,39,39,4,12,2,5,0.3,0.9
2025-12-29T0800,3719A,97.1714,31.1406,昌都市,昌都会议中心,,14,11,22,6,14,42,42,43,43,3,9,4,5,0.3,0.5
2025-12-29T0800,2690A,88.1236,43.8886,昌吉回族自治州,天山天池,,,,,,,,,,,,,,,,
2025-12-29T0800,2692A,87.2717,44.0297,昌吉回族自治州,新区政务中心,细颗粒物(PM2.5),162,191,188,123,123,15,15,12,12,36,37,5,6,1.1,1.3
2025-12-29T0800,3613A,87.3095,44.0142,昌吉回族自治州,亚心广场,细颗粒物(PM2.5),170,224,184,129,135,12,12,12,12,32,31,7,7,1.3,1.5
2025-12-29T0800,1120A,125.2863,43.9027,长春市,客车厂,,26,26,50,17,60,20,20,36,36,42,27,15,11,0.6,0.6
2025-12-29T0800,1121A,125.2841,43.8463,长春市,邮电学院,,28,26,59,19,57,19,19,36,36,29,23,12,11,0.5,0.7
2025-12-29T0800,1122A,125.3716,43.8772,长春市,劳动公园,,22,20,69,7,48,16,16,37,37,43,25,14,11,0.3,0.4
2025-12-29T0800,1123A,125.3297,43.8805,长春市,园林处,,18,17,53,12,53,23,23,39,39,32,21,10,11,0.4,0.7
2025-12-29T0800,1124A,125.4605,43.79,长春市,净月潭,,23,,54,16,48,26,26,41,41,22,20,6,8,0.4,0.6
2025-12-29T0800,1125A,125.7194,43.515,长春市,甩湾子,细颗粒物(PM2.5),54,,41,38,42,36,36,45,45,13,12,4,6,0.8,0.8
2025-12-29T0800,1126A,125.3863,43.8447,长春市,经开区环卫处,,24,24,64,12,48,17,17,36,36,46,30,7,11,0.5,0.6
2025-12-29T0800,1127A,125.245,43.7783,长春市,高新区管委会,,28,20,51,19,53,7,7,33,33,56,27,6,6,0.5,0.5
2025-12-29T0800,1128A,125.1761,43.8325,长春市,岱山公园,,28,22,50,19,53,26,26,37,37,29,24,8,9,0.4,0.5
2025-12-29T0800,4281A,125.3346,43.9164,长春市,北亚泰大街1068号,,25,17,54,11,54,11,11,33,33,50,29,14,10,0.6,0.7
2025-12-29T0800,1335A,113.0833,28.2325,长沙市,经开区环保局,细颗粒物(PM2.5),75,77,78,55,55,11,11,22,22,52,39,5,7,0.7,0.6
2025-12-29T0800,1336A,112.8872,28.2189,长沙市,高开区环保局,细颗粒物(PM2.5),77,74,78,56,59,22,22,30,30,39,29,8,9,1.1,1.1
2025-12-29T0800,1337A,113.0792,28.2053,长沙市,马坡岭,细颗粒物(PM2.5),82,85,79,60,58,1,1,23,23,58,47,6,7,0.7,0.5
2025-12-29T0800,1338A,112.9394,28.19,长沙市,湖南师范大学,细颗粒物(PM2.5),60,64,72,43,46,40,40,47,47,34,34,4,6,0.8,0.8
2025-12-29T0800,1339A,113.0178,28.1322,长沙市,雨花区环保局,细颗粒物(PM2.5),72,75,70,52,42,25,25,57,57,48,30,10,11,0.9,0.7
2025-12-29T0800,1340A,112.9792,28.2597,长沙市,伍家岭,细颗粒物(PM2.5),98,101,105,73,70,0,0,0,0,28,48,5,7,1.0,0.9
2025-12-29T0800,1341A,113.0014,28.1944,长沙市,火车新站,细颗粒物(PM2.5),89,83,85,66,63,3,3,16,16,60,49,9,11,1.0,0.8
2025-12-29T0800,1342A,112.9844,28.1178,长沙市,天心区环保局,细颗粒物(PM2.5),77,70,70,56,52,39,39,58,58,51,38,11,11,0.8,0.7
2025-12-29T0800,1343A,112.8908,28.1308,长沙市,湖南中医药大学,细颗粒物(PM2.5),95,89,91,71,66,2,2,2,2,42,51,6,9,1.1,1.2
2025-12-29T0800,1344A,112.9581,28.3611,长沙市,沙坪,,,,,,,,,,,,,,,,
2025-12-29T0800,1727A,113.1147,36.1547,长治市,清华站,,50,50,56,27,34,4,4,23,23,45,36,11,14,1.0,0.9
2025-12-29T0800,1730A,113.0886,36.2125,长治市,审计局,颗粒物(PM10),60,70,61,41,42,2,2,16,16,52,42,14,17,1.2,1
2025-12-29T0800,1731A,113.0844,36.1856,长治市,长治八中,细颗粒物(PM2.5),62,69,73,44,48,2,2,10,10,47,33,12,16,1.0,0.9
2025-12-29T0800,2845A,113.1569,36.1911,长治市,德盛苑,,35,35,47,19,33,35,35,51,51,26,22,10,15,0.7,0.8
2025-12-29T0800,3568A,113.06,36.0464,长治市,向阳小学,颗粒物(PM10),55,60,68,32,35,40,40,48,48,24,28,18,16,0.9,0.8
2025-12-29T0800,3569A,112.8792,36.3144,长治市,屯留一中,细颗粒物(PM2.5),59,66,59,42,42,5,5,19,19,52,43,14,19,1.1,1
2025-12-29T0800,4189A,113.1131,36.19948,长治市,英华南巷50号,细颗粒物(PM2.5),98,85,70,73,48,2,2,12,12,49,38,10,14,1.3,1
2025-12-29T0800,4190A,113.2367,36.3344,长治市,学府街1号,颗粒物(PM10),55,60,74,34,48,6,6,9,9,48,50,19,22,1.3,1.5
2025-12-29T0800,1854A,111.6975,28.9703,常德市,市二中,细颗粒物(PM2.5),107,104,79,80,61,37,37,29,29,28,29,5,6,0.9,0.7
2025-12-29T0800,1857A,111.7158,29.1456,常德市,白鹤山,,,,,,,,,,,,,,,,
2025-12-29T0800,3138A,111.7153,29.0289,常德市,武陵区永安,细颗粒物(PM2.5),104,103,93,78,65,8,8,14,14,47,31,6,5,1.3,0.9
2025-12-29T0800,3139A,111.6892,28.9881,常德市,鼎城区玉霞,细颗粒物(PM2.5),125,124,83,95,64,5,5,6,6,32,28,8,8,1.2,0.9
2025-12-29T0800,3140A,111.6625,29.0531,常德市,武陵区长庚,细颗粒物(PM2.5),113,108,92,85,68,20,20,14,14,29,32,5,5,0.9,0.8
2025-12-29T0800,1196A,119.9633,31.762,常州市,市监测站,细颗粒物(PM2.5),94,97,94,70,64,5,5,14,14,73,56,8,6,1.0,0.7
2025-12-29T0800,1200A,119.9468,31.7069,常州市,武进监测站,细颗粒物(PM2.5),104,115,86,78,61,6,6,17,17,67,47,14,10,0.6,0.3
2025-12-29T0800,1201A,119.9255,31.9087,常州市,安家,细颗粒物(PM2.5),142,138,97,108,63,2,2,7,7,81,60,20,14,1.7,1.3
2025-12-29T0800,3002A,119.9805,31.8174,常州市,行政中心,细颗粒物(PM2.5),79,86,83,58,58,10,10,23,23,62,45,10,8,0.8,0.6
2025-12-29T0800,3003A,120.0522,31.7748,常州市,经开区,细颗粒物(PM2.5),92,108,106,68,63,8,8,24,24,64,49,8,8,0.9,1
2025-12-29T0800,3010A,119.9025,31.7964,常州市,钟楼,细颗粒物(PM2.5),85,85,83,63,57,7,7,19,19,65,48,10,10,0.7,0.4
2025-12-29T0800,3429A,119.8598,31.7066,常州市,武进经发区,细颗粒物(PM2.5),89,90,86,66,64,7,7,13,13,61,51,11,10,0.8,0.6
2025-12-29T0800,3430A,119.5826,31.7245,常州市,金坛城区,细颗粒物(PM2.5),83,82,81,61,60,18,18,17,17,40,39,8,10,0.8,0.8
2025-12-29T0800,2220A,120.4318,41.5881,朝阳市,西梁,细颗粒物(PM2.5),94,95,66,70,43,3,3,28,28,51,34,24,12,1.6,1
2025-12-29T0800,2221A,120.4521,41.5646,朝阳市,河畔小区,细颗粒物(PM2.5),63,,47,45,40,6,6,41,41,47,29,9,10,1.0,0.8
2025-12-29T0800,2222A,120.4176,41.5648,朝阳市,八里堡,细颗粒物(PM2.5),70,53,57,51,41,4,4,33,33,51,37,14,11,1.3,1
2025-12-29T0800,2223A,120.3806,41.5969,朝阳市,农业园区,细颗粒物(PM2.5),60,,38,43,38,13,13,43,43,44,26,7,11,0.9,0.8
2025-12-29T0800,1705A,116.6367,23.6719,潮州市,西园路,,,,,,,,,,,,,,,,
2025-12-29T0800,3026A,116.6183,23.6608,潮州市,市政府,,36,36,44,16,23,28,28,26,26,14,18,5,8,0.5,0.5
2025-12-29T0800,4036A,116.6461,23.6761,潮州市,金山,,29,20,33,20,24,16,16,23,23,14,14,2,4,0.5,0.4
2025-12-29T0800,2472A,113.0073,25.9061,郴州市,马头岭,,,,,,,,,,,,,,,,
2025-12-29T0800,2473A,113.0116,25.8226,郴州市,市职中,细颗粒物(PM2.5),62,58,56,44,42,0,0,0,0,18,25,5,6,0.8,0.6
2025-12-29T0800,2475A,113.0383,25.8071,郴州市,市审计局,细颗粒物(PM2.5),65,64,61,47,42,0,0,0,0,22,30,3,5,2.0,1.1
2025-12-29T0800,2476A,113.0348,25.7759,郴州市,市环保局,颗粒物(PM10),57,64,70,36,42,2,2,2,2,32,41,3,6,0.6,0.6
2025-12-29T0800,4252A,113.0138,25.8011,郴州市,好美居路49号,细颗粒物(PM2.5),65,55,57,47,45,2,2,1,1,26,36,3,6,0.6,0.5
2025-12-29T0800,1431A,103.9728,30.7236,成都市,金泉两河,细颗粒物(PM2.5),112,86,131,84,102,18,18,16,16,27,38,2,4,0.7,0.8
2025-12-29T0800,1432A,104.176,30.6872,成都市,十里店,细颗粒物(PM2.5),115,106,122,87,93,12,12,7,7,26,37,3,4,0.5,0.6
2025-12-29T0800,1433A,104.079,30.5706,成都市,三瓦窑,细颗粒物(PM2.5),143,115,128,109,107,8,8,12,12,29,27,4,4,1.0,0.9
2025-12-29T0800,1434A,104.1114,30.63,成都市,沙河铺,细颗粒物(PM2.5),142,130,136,108,115,7,7,6,6,36,44,4,4,0.8,0.8
2025-12-29T0800,1437A,104.0786,30.6531,成都市,君平街,细颗粒物(PM2.5),137,120,143,104,111,11,11,9,9,29,38,4,5,0.8,0.8
2025-12-29T0800,1438A,103.613,31.0283,成都市,灵岩寺,,,,,,,,,,,,,,,,
2025-12-29T0800,2880A,104.0239,30.65639,成都市,大石西路,细颗粒物(PM2.5),115,106,128,87,99,14,14,10,10,26,37,5,5,0.6,0.7
2025-12-29T0800,3136A,104.2725,30.5589,成都市,龙泉驿区区政府,细颗粒物(PM2.5),100,100,102,75,80,2,2,4,4,29,25,5,6,0.6,0.6
2025-12-29T0800,3357A,104.0106,30.6931,成都市,金博路,细颗粒物(PM2.5),100,97,107,75,79,10,10,9,9,32,40,5,5,0.7,0.8
2025-12-29T0800,3359A,104.0578,30.5225,成都市,华阳,细颗粒物(PM2.5),92,88,116,68,82,38,38,21,21,26,32,3,4,0.5,0.6
2025-12-29T0800,3488A,104.3880,30.7467,成都市,青石路225号,细颗粒物(PM2.5),109,113,106,82,88,4,4,5,5,30,29,5,4,0.6,0.6
2025-12-29T0800,3489A,104.0789,30.4072,成都市,科学城,细颗粒物(PM2.5),114,110,105,86,86,7,7,21,21,36,24,6,7,0.8,0.7
2025-12-29T0800,4011A,103.8506,30.6947,成都市,光华大道三段,细颗粒物(PM2.5),89,79,123,66,101,20,20,23,23,23,35,3,4,0.7,0.8
2025-12-29T0800,4224A,104.2433,30.5353,成都市,鲸龙路1057号,细颗粒物(PM2.5),110,100,103,83,84,3,3,9,9,37,29,6,6,0.9,0.8
2025-12-29T0800,1062A,117.9531,40.9081,承德市,铁路,细颗粒物(PM2.5),99,91,105,74,67,3,3,2,2,39,44,4,7,1.9,1.6
2025-12-29T0800,1063A,117.9392,40.9763,承德市,中国银行,细颗粒物(PM2.5),73,90,98,53,64,3,3,3,3,30,37,3,8,1.2,1.4
2025-12-29T0800,1064A,117.9503,40.928,承德市,开发区,细颗粒物(PM2.5),85,92,101,63,60,4,4,4,4,41,45,6,11,1.5,1.4
2025-12-29T0800,1066A,117.9268,41.0026,承德市,离宫,,,,,,,,,,,,,,,,
2025-12-29T0800,4274A,117.7994,40.9605,承德市,滨河大街98号,,38,38,83,25,64,18,18,20,20,26,43,2,12,0.4,1.5
2025-12-29T0800,2314A,117.47,30.6618,池州市,池州学院,细颗粒物(PM2.5),57,48,61,40,50,20,20,46,46,32,25,3,6,0.5,0.5
2025-12-29T0800,3237A,117.4918,30.6617,池州市,展览馆,,46,42,62,32,44,9,9,30,30,26,29,2,3,0.7,0.7
2025-12-29T0800,3333A,117.5627,30.695,池州市,第八中学,,46,44,59,32,44,42,42,47,47,24,29,3,5,0.8,0.9
2025-12-29T0800,3334A,117.5038,30.6243,池州市,第十二中学,,48,48,63,32,42,8,8,32,32,36,30,3,5,1.0,0.9
2025-12-29T0800,1744A,118.9233,42.2816,赤峰市,松山一中,,46,46,39,20,17,3,3,20,20,45,28,7,8,1.3,0.8
2025-12-29T0800,1745A,118.9576,42.2728,赤峰市,哈达街,,38,38,36,15,17,15,15,33,33,35,22,12,10,0.9,0.6
2025-12-29T0800,1746A,118.8788,42.2554,赤峰市,天义路,,42,33,30,29,21,6,6,27,27,39,21,7,7,1.2,0.7
2025-12-29T0800,3058A,119.2658,42.0353,赤峰市,银河街,颗粒物(PM10),55,59,68,38,33,6,6,25,25,35,24,17,15,1.7,1
2025-12-29T0800,3286A,118.9359,42.3147,赤峰市,桥北物流园区,,34,34,36,18,24,7,7,22,22,34,24,4,6,0.8,0.5
2025-12-29T0800,2521A,107.3476,22.4136,崇左市,市环保局江州分局,颗粒物(PM10),78,105,82,45,47,11,11,20,20,35,28,8,10,0.6,0.7
2025-12-29T0800,4256A,107.3750,22.3736,崇左市,石景林东路7号,细颗粒物(PM2.5),69,70,67,50,48,14,14,28,28,36,27,8,9,0.6,0.6
2025-12-29T0800,2298A,118.3093,32.3153,滁州市,老年大学,细颗粒物(PM2.5),75,79,78,55,56,2,2,10,10,33,36,6,7,0.8,0.8
2025-12-29T0800,2299A,118.3244,32.2786,滁州市,人大宾馆,细颗粒物(PM2.5),79,70,77,58,62,13,13,33,33,46,38,6,8,0.7,0.8
2025-12-29T0800,3207A,118.3118,32.3038,滁州市,市政府原办公楼,细颗粒物(PM2.5),83,87,77,61,54,6,6,22,22,44,41,5,7,0.9,0.6
2025-12-29T0800,3331A,118.3267,32.2634,滁州市,图书馆,细颗粒物(PM2.5),64,65,70,46,47,28,28,42,42,40,36,9,11,0.6,0.6
2025-12-29T0800,2605A,101.5482,25.0441,楚雄彝族自治州,州环境监测站,,20,16,24,14,18,5,5,7,7,21,15,8,7,0.7,0.6
2025-12-29T0800,2606A,101.538,25.0492,楚雄彝族自治州,市经济开发区,,25,20,26,17,19,5,5,8,8,20,16,8,7,0.5,0.6
2025-12-29T0800,2548A,107.5277,31.2827,达州市,达州职业技术学院,,,,,,,,,,,,,,,,
2025-12-29T0800,2549A,107.5086,31.2186,达州市,市环境监测站,细颗粒物(PM2.5),73,67,80,53,62,2,2,4,4,37,36,8,8,0.6,0.6
2025-12-29T0800,2550A,107.4988,31.2132,达州市,凤凰小区,细颗粒物(PM2.5),64,66,87,46,64,11,11,7,7,31,33,8,8,0.5,0.6
2025-12-29T0800,2551A,107.5082,31.1986,达州市,达县机关宾馆,细颗粒物(PM2.5),73,75,87,53,62,5,5,7,7,40,35,11,5,0.8,0.8
2025-12-29T0800,2552A,107.4644,31.2124,达州市,市政中心,,,,100,,60,,,24,,,37,,9,,0.9
2025-12-29T0800,2614A,100.1542,25.7054,大理白族自治州,大理市环境监测站,,29,22,21,20,22,63,63,63,63,7,9,6,6,0.7,0.6
2025-12-29T0800,2615A,100.2171,25.5811,大理白族自治州,大理古城,,27,27,24,10,13,43,43,58,58,17,9,8,8,0.5,0.4
2025-12-29T0800,1109A,121.612,38.9741,大连市,甘井子,颗粒物(PM10),54,58,114,12,88,32,32,35,35,32,35,10,12,2.6,0.7
2025-12-29T0800,1110A,121.565,38.9511,大连市,周水子,,38,38,119,11,82,35,35,36,36,31,44,15,18,0.4,0.9
2025-12-29T0800,1111A,121.5637,38.8845,大连市,星海三站,,34,34,101,12,86,39,39,38,38,24,28,8,10,0.6,0.9
2025-12-29T0800,1112A,121.6302,38.9117,大连市,青泥洼桥,,20,20,105,12,85,30,30,31,31,33,35,10,11,0.5,0.9
2025-12-29T0800,1113A,121.6251,38.8638,大连市,傅家庄,,33,33,106,13,80,32,32,34,34,28,29,12,14,0.5,0.7
2025-12-29T0800,1114A,121.5213,38.8661,大连市,七贤岭,,40,40,109,10,83,48,48,43,43,18,33,10,14,0.7,0.9
2025-12-29T0800,1115A,121.2529,38.8061,大连市,旅顺,,20,20,119,9,92,51,51,43,43,8,27,6,10,0.3,0.7
2025-12-29T0800,1116A,121.7485,39.1311,大连市,金州,,20,20,114,12,91,43,43,41,41,20,40,11,13,0.3,0.8
2025-12-29T0800,1117A,121.7811,39.0496,大连市,开发区,,48,48,108,16,82,32,32,39,39,23,36,7,8,0.5,0.9
2025-12-29T0800,1118A,121.9762,39.0631,大连市,双D港,,32,32,105,16,79,49,49,44,44,15,27,11,13,0.5,0.8
2025-12-29T0800,1789A,124.81117,46.03138,大庆市,大同区,,30,30,56,9,41,44,44,43,43,16,23,6,8,0.3,0.6
2025-12-29T0800,1790A,125.129,46.533,大庆市,龙凤区,,23,19,51,16,38,32,32,41,41,36,33,8,10,0.8,1
2025-12-29T0800,1791A,124.902,46.408,大庆市,红岗区,,25,23,47,17,33,45,45,42,42,14,24,4,7,0.5,0.8
2025-12-29T0800,1792A,125.153,46.586,大庆市,萨尔图区,,15,15,58,7,37,42,42,51,51,23,22,8,9,0.7,0.8
2025-12-29T0800,1793A,124.9042,46.6215,大庆市,让胡路区,,28,,51,19,39,40,40,53,53,20,15,7,9,0.4,0.5
2025-12-29T0800,3481A,125.141,46.634,大庆市,萨区政府监测点,,21,21,55,3,30,30,30,46,46,32,27,8,11,0.8,0.9
2025-12-29T0800,1721A,113.3819,40.1097,大同市,果树场,,32,23,49,22,34,46,46,41,41,20,33,12,13,0.7,0.8
2025-12-29T0800,1723A,113.2994,40.0758,大同市,云冈宾馆,颗粒物(PM10),59,68,64,34,28,4,4,22,22,50,33,8,9,1.6,0.9
2025-12-29T0800,1724A,113.3444,40.0917,大同市,大同大学,颗粒物(PM10),57,63,56,28,27,4,4,30,30,54,33,14,9,1.4,1
2025-12-29T0800,1725A,113.2661,40.1269,大同市,安家小村,细颗粒物(PM2.5),63,69,56,45,28,4,4,32,32,50,31,15,13,1.5,0.8
2025-12-29T0800,1726A,113.2711,40.0844,大同市,教育学院,颗粒物(PM10),57,64,65,31,30,5,5,16,16,49,35,12,10,1.0,0.8
2025-12-29T0800,3282A,113.3397,40.0597,大同市,大同市卫生学校,颗粒物(PM10),57,63,60,27,27,8,8,34,34,50,34,12,8,1.3,0.8
2025-12-29T0800,3565A,113.1367,40.1122,大同市,云冈站,颗粒物(PM10),56,61,56,34,27,3,3,7,7,41,29,11,8,0.9,0.6
2025-12-29T0800,3566A,113.1186,40.2556,大同市,图书馆,颗粒物(PM10),51,51,51,35,32,16,16,20,20,18,18,4,6,0.9,0.6
2025-12-29T0800,3567A,113.5931,40.0461,大同市,区一中,细颗粒物(PM2.5),89,85,70,66,39,23,23,28,28,32,29,7,18,1.2,0.9
2025-12-29T0800,4199A,113.2798,40.0997,大同市,魏都大道141号,颗粒物(PM10),73,96,75,42,33,9,9,22,22,54,37,9,9,1.9,1
2025-12-29T0800,2269A,124.1069,50.4097,大兴安岭地区,科技局,,30,,48,21,34,49,49,40,40,4,17,5,7,0.2,0.4
2025-12-29T0800,3663A,124.1164,50.4278,大兴安岭地区,红旗社区,,14,14,43,7,37,41,41,25,25,21,33,3,6,0.3,0.6
2025-12-29T0800,1600A,124.3303,40.0625,丹东市,江湾东路,,29,25,98,20,78,46,46,27,27,17,26,8,14,0.6,1.5
2025-12-29T0800,1601A,124.4256,40.1503,丹东市,临江后街,,25,25,103,14,71,41,41,22,22,24,42,8,16,0.9,1.8
2025-12-29T0800,1602A,124.3933,40.1461,丹东市,元宝山,,27,27,87,16,69,50,50,33,33,15,29,9,15,0.7,1.4
2025-12-29T0800,1603A,124.3633,40.1092,丹东市,民主桥,,27,27,87,9,64,45,45,29,29,20,29,8,11,0.3,0.9
2025-12-29T0800,3541A,109.5726,19.5167,儋州市,第一中学子站,,35,35,36,21,21,75,75,79,79,8,9,4,3,0.6,0.6
2025-12-29T0800,3542A,109.5567,19.5187,儋州市,东坡学校子站,,42,37,38,29,23,63,63,82,82,15,8,6,5,0.8,0.6
2025-12-29T0800,2616A,98.5842,24.428,德宏傣族景颇族自治州,德宏州监测站,细颗粒物(PM2.5),57,46,46,40,38,3,3,9,9,25,23,6,7,0.7,0.7
2025-12-29T0800,3677A,98.5881,24.4368,德宏傣族景颇族自治州,芒市人民政府综合楼,,40,40,50,28,30,4,4,15,15,21,17,7,8,0.9,0.7
2025-12-29T0800,1901A,104.4239,31.1208,德阳市,东山公园,细颗粒物(PM2.5),105,86,99,79,85,4,4,6,6,,2,2,2,0.8,0.8
2025-12-29T0800,1902A,104.3826,31.1317,德阳市,西小区,细颗粒物(PM2.5),107,100,121,80,92,26,26,13,13,26,31,3,2,0.9,1
2025-12-29T0800,1904A,104.3553,31.1091,德阳市,耐火材料厂,细颗粒物(PM2.5),100,75,107,75,97,9,9,8,8,44,35,2,2,1.0,1
2025-12-29T0800,3639A,104.4019,31.1244,德阳市,市教育局,细颗粒物(PM2.5),97,79,96,72,87,20,20,10,10,29,32,3,3,1.0,1
2025-12-29T0800,1622A,116.3032,37.4674,德州市,儿童乐园,细颗粒物(PM2.5),188,188,187,141,132,3,3,2,2,70,59,16,15,1.6,1.5
2025-12-29T0800,1624A,116.2991,37.4451,德州市,监理站,细颗粒物(PM2.5),156,153,178,119,131,15,15,13,13,77,65,17,17,1.2,1.2
2025-12-29T0800,3066A,116.2721,37.4379,德州市,九衢泉纯净水厂,细颗粒物(PM2.5),160,171,178,122,124,7,7,6,6,80,67,14,16,1.1,1
2025-12-29T0800,3371A,116.3728,37.4403,德州市,开发区人民医院,细颗粒物(PM2.5),168,175,179,127,124,11,11,9,9,77,69,14,15,1.2,1.2
2025-12-29T0800,3511A,116.5652,37.3319,德州市,陵城艺术中心,细颗粒物(PM2.5),218,210,175,168,131,0,0,4,4,84,66,11,14,1.8,1.6
2025-12-29T0800,4292A,116.3525,37.4209,德州市,新河东路,细颗粒物(PM2.5),153,151,170,117,126,8,8,10,10,85,71,13,15,1.6,1.4
2025-12-29T0800,2621A,99.7056,27.8317,迪庆藏族自治州,迪庆州站,,23,,29,16,21,28,28,34,34,12,10,5,6,0.5,0.5
2025-12-29T0800,3180A,99.7136,27.8094,迪庆藏族自治州,质量技术监督局,,24,24,29,14,18,27,27,36,36,20,13,9,9,0.6,0.5
2025-12-29T0800,4257A,104.6092,35.5962,定西市,将台街,颗粒物(PM10),69,87,84,46,58,7,7,8,8,34,37,12,17,1.0,1
2025-12-29T0800,4309A,104.6159,35.5701,定西市,正龙路62号,细颗粒物(PM2.5),65,67,88,47,59,13,13,15,15,17,20,10,14,0.9,1
2025-12-29T0800,1389A,113.7547,23.0494,东莞市,莞城梨川,颗粒物(PM10),55,60,58,38,36,14,14,14,14,51,46,10,6,0.9,0.9
2025-12-29T0800,1390A,113.7944,23.0128,东莞市,东城石井,细颗粒物(PM2.5),72,72,56,52,39,4,4,2,2,57,45,8,9,1.0,1
2025-12-29T0800,1391A,113.7383,22.9658,东莞市,南城西平,细颗粒物(PM2.5),70,82,65,51,43,1,1,4,4,69,54,10,10,1.0,0.9
2025-12-29T0800,3319A,113.7338,23.0381,东莞市,万江金泰,颗粒物(PM10),56,61,65,34,37,7,7,13,13,56,48,7,7,0.9,0.9
2025-12-29T0800,3626A,113.7533,23.0202,东莞市,南城元岭,颗粒物(PM10),64,78,64,43,40,11,11,10,10,58,50,10,9,0.9,0.9
2025-12-29T0800,3627A,113.7875,23.0457,东莞市,东城主山,细颗粒物(PM2.5),59,65,61,42,39,11,11,11,11,60,52,12,8,0.7,0.7
2025-12-29T0800,1666A,118.6614,37.4309,东营市,市环保局,细颗粒物(PM2.5),192,185,147,144,104,3,3,20,20,76,59,12,16,1.5,1.1
2025-12-29T0800,3036A,118.6904,37.4338,东营市,开发区管委会,细颗粒物(PM2.5),201,189,149,151,105,4,4,19,19,82,64,13,16,1.5,1.2
2025-12-29T0800,3365A,118.5719,37.565,东营市,垦利区民丰路,细颗粒物(PM2.5),163,166,145,124,101,2,2,17,17,79,56,6,10,1.5,1.1
2025-12-29T0800,3498A,118.5055,37.8612,东营市,河口城区,细颗粒物(PM2.5),168,183,163,127,104,6,6,10,10,81,57,8,10,1.5,1.3
2025-12-29T0800,3646A,118.4978,37.4623,东营市,胜利站,细颗粒物(PM2.5),199,204,156,149,113,1,1,8,8,83,63,12,16,1.7,1.3
2025-12-29T0800,3734A,118.35,37.26,东营市,理想之城,细颗粒物(PM2.5),180,175,148,136,106,3,3,17,17,71,58,8,13,1.5,1.3
2025-12-29T0800,1591A,110.0023,39.8129,鄂尔多斯市,综合楼,,28,24,36,19,14,61,61,64,64,16,11,4,4,0.5,0.4
2025-12-29T0800,1592A,109.9486,39.8261,鄂尔多斯市,巴音孟克林场办事处,,29,29,46,14,16,62,62,64,64,16,12,6,5,0.4,0.3
2025-12-29T0800,1593A,109.7736,39.5986,鄂尔多斯市,康泽苑,,34,34,48,22,19,30,30,43,43,23,12,7,7,0.4,0.3
2025-12-29T0800,1594A,109.8119,39.5989,鄂尔多斯市,华泰汽车城,,41,41,50,14,17,14,14,35,35,31,16,2,3,0.5,0.4
2025-12-29T0800,1595A,109.9734,39.7884,鄂尔多斯市,奥林花园,,46,46,52,19,16,6,6,45,45,57,17,2,4,0.7,0.4
2025-12-29T0800,2436A,114.8938,30.3994,鄂州市,市政府,"颗粒物(PM10),细颗粒物(PM2.5)",68,85,74,49,57,11,11,14,14,40,39,4,7,0.7,0.7
2025-12-29T0800,2437A,114.8989,30.3714,鄂州市,赵家坝,细颗粒物(PM2.5),77,76,74,56,56,4,4,31,31,41,25,7,10,0.9,0.8
2025-12-29T0800,3654A,114.8094,30.4089,鄂州市,精准医疗中心,细颗粒物(PM2.5),75,79,85,55,64,12,12,22,22,44,37,5,5,0.7,1
2025-12-29T0800,2454A,109.4978,30.2981,恩施土家族苗族自治州,湖北民院,细颗粒物(PM2.5),83,,72,61,73,5,5,5,5,12,21,6,6,1.0,1.1
2025-12-29T0800,2455A,109.4707,30.2798,恩施土家族苗族自治州,州电力总公司,细颗粒物(PM2.5),94,,59,70,69,2,2,2,2,23,25,6,6,1.0,0.9
2025-12-29T0800,3549A,109.5061,30.3772,恩施土家族苗族自治州,龙凤新区,细颗粒物(PM2.5),69,66,80,50,56,0,0,0,0,10,14,6,6,0.8,0.8
2025-12-29T0800,2499A,108.3411,21.6158,防城港市,沙万,颗粒物(PM10),70,90,79,50,48,22,22,38,38,28,24,6,6,0.6,0.6
2025-12-29T0800,2500A,108.3514,21.7731,防城港市,防城档案局,细颗粒物(PM2.5),69,78,98,50,67,23,23,7,7,19,32,3,5,0.7,0.8
2025-12-29T0800,2501A,108.3506,21.6414,防城港市,大海花园,细颗粒物(PM2.5),72,84,73,52,47,32,32,40,40,29,22,8,9,1.1,0.8
2025-12-29T0800,1371A,113.1294,23.0067,佛山市,湾梁,颗粒物(PM10),82,114,80,59,45,3,3,3,3,83,60,11,9,1.0,0.8
2025-12-29T0800,1372A,113.1083,23.0478,佛山市,华材职中,细颗粒物(PM2.5),84,112,95,62,57,4,4,4,4,73,69,7,8,1.2,1
2025-12-29T0800,1373A,113.144,23.0453,佛山市,南海气象局,细颗粒物(PM2.5),83,100,79,61,47,1,1,1,1,77,65,11,10,1.1,0.9
2025-12-29T0800,1374A,113.2881,22.8094,佛山市,顺德苏岗,细颗粒物(PM2.5),85,87,67,63,46,2,2,8,8,92,60,8,8,1.3,1
2025-12-29T0800,1376A,112.8383,22.8678,佛山市,高明孔堂,细颗粒物(PM2.5),65,62,69,47,48,15,15,30,30,32,34,6,10,0.8,0.8
2025-12-29T0800,1377A,112.8836,23.1588,佛山市,三水监测站,细颗粒物(PM2.5),118,129,88,89,58,4,4,2,2,69,65,23,13,1.2,0.9
2025-12-29T0800,1378A,112.867,23.185,佛山市,三水云东海,细颗粒物(PM2.5),95,108,74,71,48,0,0,0,0,49,49,6,8,0.7,0.6
2025-12-29T0800,3625A,113.2544,22.7642,佛山市,容桂街道办,细颗粒物(PM2.5),107,117,93,80,58,2,2,3,3,99,78,9,8,1.2,1
2025-12-29T0800,1280A,119.3903,26.0543,福州市,鼓山,,,,17,,8,,,67,,,8,,2,,0.4
2025-12-29T0800,1282A,119.2681,26.0504,福州市,师大,,32,31,28,22,13,18,18,30,30,33,29,9,7,0.5,0.4
2025-12-29T0800,1283A,119.2984,26.1028,福州市,五四北路,,26,26,24,13,12,27,27,34,34,26,24,4,4,0.7,0.5
2025-12-29T0800,1284A,119.2648,26.0768,福州市,杨桥西路,,23,16,26,16,12,21,21,26,26,24,22,4,4,0.6,0.5
2025-12-29T0800,1285A,119.317,26.0746,福州市,紫阳,,31,31,39,14,14,27,27,36,36,26,29,7,7,0.6,0.5
2025-12-29T0800,3048A,119.5799,26.0936,福州市,九龙,,20,20,17,8,7,51,51,58,58,14,15,5,5,0.5,0.4
2025-12-29T0800,3526A,119.5189,25.9664,福州市,吴航,,34,34,24,22,13,13,13,28,28,41,24,6,5,0.5,0.4
2025-12-29T0800,1755A,123.7977,41.8491,抚顺市,望花区,,31,31,75,10,52,16,16,51,51,47,26,8,15,0.9,0.9
2025-12-29T0800,1756A,123.9161,41.8822,抚顺市,顺城区,,36,35,67,25,49,15,15,47,47,52,27,14,11,0.8,0.9
2025-12-29T0800,1757A,124.0436,41.8611,抚顺市,东洲区,,23,17,64,16,45,34,34,46,46,23,20,10,11,0.9,0.9
2025-12-29T0800,1758A,123.9247,41.8642,抚顺市,新抚区,颗粒物(PM10),59,67,71,11,47,4,4,45,45,52,25,8,10,0.9,0.9
2025-12-29T0800,1759A,124.0972,41.8961,抚顺市,大伙房水库,,25,25,62,14,44,35,35,51,51,24,17,11,12,0.7,0.9
2025-12-29T0800,1760A,123.7086,41.8391,抚顺市,沈抚新城,细颗粒物(PM2.5),69,,69,50,53,35,35,53,53,32,30,8,9,0.5,0.8
2025-12-29T0800,2376A,116.2127,28.0814,抚州市,桐源党溪,,,,,,,,,,,,,,,,
2025-12-29T0800,2377A,116.3544,27.9831,抚州市,市站,细颗粒物(PM2.5),58,57,69,41,46,3,3,9,9,32,34,6,8,0.9,1
2025-12-29T0800,2378A,116.3565,27.963,抚州市,血防站,"颗粒物(PM10),细颗粒物(PM2.5)",54,58,64,38,41,1,1,6,6,39,38,4,6,1.3,1.1
2025-12-29T0800,2379A,116.3564,28.0007,抚州市,采茶剧团,细颗粒物(PM2.5),63,58,70,45,48,2,2,2,2,32,31,5,8,1.3,1.3
2025-12-29T0800,2380A,116.385,27.9647,抚州市,医学分院,颗粒物(PM10),57,63,68,31,39,9,9,14,14,32,33,6,6,1.1,1.2
2025-12-29T0800,2207A,121.6094,41.998,阜新市,工业园区,颗粒物(PM10),51,51,87,23,63,5,5,34,34,45,39,13,17,0.6,0.9
2025-12-29T0800,2208A,121.6697,42.0279,阜新市,长青街,颗粒物(PM10),53,55,69,13,54,7,7,43,43,48,36,8,13,0.6,0.9
2025-12-29T0800,2209A,121.6673,42.0705,阜新市,农业园区,,15,9,72,7,52,47,47,50,50,14,30,7,13,0.3,0.8
2025-12-29T0800,2210A,121.6717,42.0224,阜新市,东苑,颗粒物(PM10),62,74,66,16,52,15,15,44,44,45,34,7,12,0.8,0.9
2025-12-29T0800,2211A,121.6506,42.0498,阜新市,玉龙新城,颗粒物(PM10),52,53,83,35,56,3,3,25,25,50,48,8,16,0.9,0.9
2025-12-29T0800,2301A,115.8277,32.8929,阜阳市,市监测站,细颗粒物(PM2.5),107,123,86,80,55,41,41,63,63,34,25,4,5,0.8,0.6
2025-12-29T0800,2303A,115.8554,32.8605,阜阳市,开发区,细颗粒物(PM2.5),95,112,76,71,52,49,49,66,66,25,23,5,6,0.6,0.5
2025-12-29T0800,2875A,115.784,32.8892,阜阳市,阜阳职业技术学院,细颗粒物(PM2.5),102,104,72,76,49,44,44,62,62,26,20,6,7,0.7,0.5
2025-12-29T0800,3468A,115.7901,32.8613,阜阳市,市规划展馆,细颗粒物(PM2.5),107,99,79,80,56,49,49,64,64,26,22,6,6,0.6,0.5
2025-12-29T0800,3469A,115.836,32.9183,阜阳市,枣园社区,细颗粒物(PM2.5),109,108,82,82,60,41,41,65,65,33,26,6,6,0.7,0.6
2025-12-29T0800,2669A,102.9099,34.9841,甘南藏族自治州,州政府,颗粒物(PM10),57,63,52,35,31,10,10,12,12,41,33,8,12,1.2,0.8
2025-12-29T0800,3380A,102.8914,34.9617,甘南藏族自治州,甘肃民族师范学院,颗粒物(PM10),65,79,67,34,22,10,10,16,16,42,36,6,11,1.2,0.9
2025-12-29T0800,2570A,101.9603,30.0475,甘孜藏族自治州,水桥子,,20,20,19,7,9,20,20,24,24,30,28,7,7,0.5,0.5
2025-12-29T0800,3065A,101.9533,29.9972,甘孜藏族自治州,州环保局,,21,21,24,3,7,44,44,49,49,17,22,6,6,0.4,0.4
2025-12-29T0800,3414A,115.8347,28.932,赣江新区,桑海产业园,颗粒物(PM10),56,61,63,30,40,1,1,12,12,40,36,10,10,0.7,0.7
2025-12-29T0800,2362A,114.9017,25.9149,赣州市,通天岩,,37,37,38,22,24,12,12,22,22,7,9,19,18,2.2,1.9
2025-12-29T0800,2363A,114.9367,25.8664,赣州市,地委,颗粒物(PM10),55,59,63,26,34,4,4,4,4,25,37,6,7,1.0,1
2025-12-29T0800,2364A,114.9461,25.8481,赣州市,气象台,颗粒物(PM10),55,59,76,27,32,8,8,6,6,32,51,13,5,0.8,0.9
2025-12-29T0800,2365A,114.9322,25.8333,赣州市,市图书馆,,41,41,63,27,35,3,3,2,2,38,51,3,4,0.8,0.9
2025-12-29T0800,2366A,114.8905,25.8471,赣州市,华坚鞋城,颗粒物(PM10),56,62,72,38,39,9,9,5,5,43,51,18,10,0.5,0.7
2025-12-29T0800,3109A,115.0093,25.8613,赣州市,赣县区卫计委,细颗粒物(PM2.5),55,,51,39,43,1,1,2,2,25,37,8,7,0.4,0.5
2025-12-29T0800,2683A,106.2319,36.1417,固原市,马园,,,,,,,,,,,,,,,,
2025-12-29T0800,2684A,106.2792,36.0022,固原市,监测站,细颗粒物(PM2.5),53,54,55,37,31,19,19,33,33,49,26,16,8,2.2,1.1
2025-12-29T0800,2685A,106.2375,36.0211,固原市,新区,颗粒物(PM10),59,68,56,19,26,3,3,5,5,60,38,4,4,1.9,0.9
2025-12-29T0800,3522A,106.2177,35.9959,固原市,原州区十五小,,30,30,44,17,24,54,54,63,63,25,17,13,8,0.8,0.6
2025-12-29T0800,2543A,106.6308,30.5278,广安市,小平旧居,,,,,,,,,,,,,,,,
2025-12-29T0800,2544A,106.6303,30.4576,广安市,市委,细颗粒物(PM2.5),78,71,64,57,51,26,26,34,34,24,20,3,3,0.9,0.9
2025-12-29T0800,2545A,106.6271,30.4663,广安市,友谊中学,细颗粒物(PM2.5),82,69,59,60,51,28,28,39,39,25,15,4,4,0.8,0.7
2025-12-29T0800,2547A,106.6388,30.4551,广安市,广电花园,细颗粒物(PM2.5),84,,57,62,52,19,19,27,27,23,22,8,8,0.7,0.7
2025-12-29T0800,2902A,106.6351,30.4865,广安市,北辰小学,细颗粒物(PM2.5),84,64,62,62,54,32,32,33,33,17,14,16,15,0.9,0.9
2025-12-29T0800,2523A,105.8945,32.4535,广元市,黑石坡,,,,,,,,,,,,,,,,
2025-12-29T0800,2524A,105.821,32.4444,广元市,老城,细颗粒物(PM2.5),90,82,106,67,80,3,3,4,4,31,42,14,14,1.2,1.3
2025-12-29T0800,2526A,105.8628,32.4287,广元市,监测站,细颗粒物(PM2.5),83,75,97,61,74,1,1,1,1,35,41,9,12,1.3,1.4
2025-12-29T0800,3617A,105.8047,32.4166,广元市,经开区,细颗粒物(PM2.5),92,75,113,68,88,0,0,0,0,32,42,5,8,1.1,1.4
2025-12-29T0800,1345A,113.2347,23.1423,广州市,广雅中学,颗粒物(PM10),73,96,88,48,46,1,1,1,1,65,65,6,6,1.0,1
2025-12-29T0800,1346A,113.2612,23.105,广州市,市五中,细颗粒物(PM2.5),63,73,74,45,44,3,3,3,3,87,80,11,11,1.0,0.9
2025-12-29T0800,1348A,113.3478,23.0916,广州市,广东商学院,细颗粒物(PM2.5),57,56,63,40,42,1,1,1,1,71,62,8,8,1.0,1
2025-12-29T0800,1349A,113.4332,23.1047,广州市,市八十六中,细颗粒物(PM2.5),55,52,54,39,38,2,2,2,2,74,70,8,9,1.1,1.1
2025-12-29T0800,1350A,113.3505,22.9483,广州市,番禺中学,细颗粒物(PM2.5),72,81,84,52,53,3,3,4,4,79,65,7,6,1.2,1.2
2025-12-29T0800,1351A,113.2146,23.3916,广州市,花都师范,细颗粒物(PM2.5),63,72,61,45,37,3,3,12,12,72,52,8,8,0.9,0.7
2025-12-29T0800,1352A,113.2597,23.1331,广州市,市监测站,颗粒物(PM10),60,70,74,42,41,2,2,2,2,68,61,5,5,0.9,0.9
2025-12-29T0800,1353A,113.5618,23.312,广州市,九龙镇镇龙,细颗粒物(PM2.5),52,51,56,36,35,4,4,2,2,38,36,5,6,0.8,0.8
2025-12-29T0800,1354A,113.2765,23.1544,广州市,麓湖,细颗粒物(PM2.5),57,52,53,40,37,2,2,2,2,74,62,8,10,0.8,0.6
2025-12-29T0800,1355A,113.443,23.3035,广州市,帽峰山森林公园,,,,,,,,,,,,,,,,
2025-12-29T0800,2846A,113.3221,23.1322,广州市,体育西,细颗粒物(PM2.5),58,56,63,41,40,0,0,0,0,78,64,6,7,0.8,0.8
2025-12-29T0800,3298A,113.5717,23.5491,广州市,从化街口,"颗粒物(PM10),细颗粒物(PM2.5)",54,57,53,38,37,1,1,2,2,45,40,9,11,0.9,0.8
2025-12-29T0800,3299A,113.3472,23.3692,广州市,白云竹料,,50,50,60,34,38,5,5,4,4,46,42,6,7,0.8,0.9
2025-12-29T0800,3300A,113.2981,23.237,广州市,白云嘉禾,颗粒物(PM10),52,54,67,33,38,17,17,7,7,47,57,6,7,0.8,0.9
2025-12-29T0800,3301A,113.4256,23.1716,广州市,黄埔科学城,,46,46,46,32,29,16,16,24,24,41,38,4,6,0.7,0.7
2025-12-29T0800,3302A,113.3942,23.0483,广州市,番禺大学城,颗粒物(PM10),64,78,69,43,40,2,2,2,2,66,53,12,11,0.9,0.8
2025-12-29T0800,3303A,113.4922,22.8168,广州市,南沙黄阁,细颗粒物(PM2.5),83,96,83,61,48,5,5,8,8,74,69,8,8,1.8,1.4
2025-12-29T0800,3304A,113.5342,22.7896,广州市,南沙街,细颗粒物(PM2.5),82,92,79,60,50,2,2,15,15,80,53,5,7,1.1,0.8
2025-12-29T0800,3443A,113.2902,23.5544,广州市,花都梯面,,41,41,33,26,23,2,2,2,2,38,32,5,7,0.7,0.6
2025-12-29T0800,3445A,113.7858,23.7478,广州市,从化良口,,22,21,26,15,21,7,7,15,15,23,16,8,9,0.6,0.6
2025-12-29T0800,3446A,113.8051,23.2614,广州市,增城荔城,,40,35,39,28,29,22,22,31,31,27,22,10,7,0.7,0.7
2025-12-29T0800,2505A,109.568,23.1478,贵港市,德智高中,,,,,,,,,,,,,,,,
2025-12-29T0800,2506A,109.6047,23.0666,贵港市,江南子站,细颗粒物(PM2.5),109,127,113,82,71,1,1,1,1,41,41,7,9,1.0,0.9
2025-12-29T0800,2508A,109.5669,23.1065,贵港市,荷城子站,细颗粒物(PM2.5),77,73,75,56,50,21,21,8,8,32,35,6,6,1.0,1
2025-12-29T0800,3405A,109.5886,23.1172,贵港市,新世纪学校,细颗粒物(PM2.5),80,85,73,59,45,19,19,28,28,40,31,2,4,0.6,0.6
2025-12-29T0800,4260A,109.5933,23.0951,贵港市,中山路155-3号,细颗粒物(PM2.5),87,84,83,64,55,15,15,10,10,45,38,7,6,0.9,0.8
2025-12-29T0800,1439A,106.6899,26.5998,贵阳市,马鞍山,,41,41,60,24,39,24,24,31,31,13,21,5,12,0.7,0.7
2025-12-29T0800,1441A,106.6243,26.6266,贵阳市,鉴湖路,,36,36,70,19,39,38,38,43,43,19,23,3,11,0.5,0.6
2025-12-29T0800,1442A,106.7487,26.6343,贵阳市,燕子冲,细颗粒物(PM2.5),62,53,65,44,51,22,22,36,36,21,22,8,14,0.7,0.6
2025-12-29T0800,1443A,106.6555,26.4365,贵阳市,碧云窝,颗粒物(PM10),51,51,66,19,32,28,28,40,40,19,17,2,9,0.5,0.4
2025-12-29T0800,1445A,106.7109,26.6027,贵阳市,红边门,颗粒物(PM10),52,53,71,34,46,11,11,28,28,36,28,9,13,0.7,0.6
2025-12-29T0800,1446A,106.7164,26.5699,贵阳市,新华路,颗粒物(PM10),54,58,78,36,44,17,17,27,27,23,23,10,16,0.5,0.6
2025-12-29T0800,1447A,106.674,26.5424,贵阳市,太慈桥,,44,44,64,27,39,20,20,32,32,17,25,5,13,0.3,0.4
2025-12-29T0800,1552A,106.805,26.3003,贵阳市,桐木岭,,42,41,57,29,34,53,53,58,58,4,6,4,8,0.8,0.7
2025-12-29T0800,4230A,106.6882,26.5695,贵阳市,花果园大街66号,,36,36,59,18,28,17,17,29,29,26,26,1,8,0.5,0.6
2025-12-29T0800,4231A,106.6873,26.5169,贵阳市,漓江路57号,颗粒物(PM10),53,56,68,34,44,21,21,28,28,25,26,13,20,0.8,0.8
2025-12-29T0800,1862A,110.4144,25.3167,桂林市,电子科大尧山校区,,,,,,,,,,,,,,,,
2025-12-29T0800,1864A,110.3089,25.2708,桂林市,龙隐路小学,细颗粒物(PM2.5),60,56,64,43,50,8,8,24,24,43,28,8,7,0.7,0.6
2025-12-29T0800,1865A,110.2869,25.2178,桂林市,八中,细颗粒物(PM2.5),65,66,71,47,54,6,6,10,10,48,42,8,8,0.6,0.5
2025-12-29T0800,3531A,110.296,25.1253,桂林市,旅游学院,细颗粒物(PM2.5),55,58,62,39,40,3,3,6,6,48,35,4,5,0.6,0.6
2025-12-29T0800,4222A,110.1835,25.2444,桂林市,环湖路276号,细颗粒物(PM2.5),70,78,75,51,51,1,1,0,0,45,44,7,7,0.7,0.6
2025-12-29T0800,4301A,110.2803,25.2773,桂林市,信义路13号,细颗粒物(PM2.5),57,61,73,40,48,7,7,2,2,46,43,6,5,0.9,0.8
2025-12-29T0800,2674A,100.2561,34.4714,果洛藏族自治州,玛沁县大武镇,,30,30,35,3,11,26,26,27,27,4,7,19,17,0.4,0.4
2025-12-29T0800,1129A,126.5422,45.755,哈尔滨市,岭北,,,,,,,,,,,,,,,,
2025-12-29T0800,1130A,126.561,45.8167,哈尔滨市,松北商大,,18,15,65,12,55,32,32,32,32,25,29,8,12,0.4,0.8
2025-12-29T0800,1132A,126.599,45.7222,哈尔滨市,南岗学府路,,39,39,74,25,51,34,34,37,37,20,22,10,12,0.6,0.8
2025-12-29T0800,1133A,126.689,45.7733,哈尔滨市,太平宏伟公园,,23,16,68,16,55,22,22,36,36,39,25,16,20,0.7,0.8
2025-12-29T0800,1134A,126.635,45.7667,哈尔滨市,道外承德广场,,36,36,90,15,55,12,12,34,34,54,31,8,11,0.5,0.5
2025-12-29T0800,1136A,126.6411,45.7258,哈尔滨市,动力和平路,,38,38,70,17,57,32,32,36,36,26,28,11,18,0.7,1
2025-12-29T0800,1137A,126.593,45.7478,哈尔滨市,道里建国路,,26,18,68,18,60,24,24,31,31,39,28,6,16,0,0.3
2025-12-29T0800,1138A,126.615,45.61,哈尔滨市,平房东轻厂,,29,21,68,20,59,24,24,20,20,28,35,8,11,0.6,0.8
2025-12-29T0800,1139A,126.595,45.9855,哈尔滨市,呼兰师专,,35,,73,24,70,32,32,31,31,16,29,8,13,0.6,1
2025-12-29T0800,1140A,126.6206,45.6842,哈尔滨市,省农科院,,39,39,80,25,62,27,27,24,24,28,34,14,14,0.6,0.9
2025-12-29T0800,4282A,126.6769,45.7379,哈尔滨市,华山路1号,,31,31,68,13,48,26,26,36,36,34,31,7,17,0.7,0.9
2025-12-29T0800,4283A,126.9717,45.5356,哈尔滨市,解放大街52号,细颗粒物(PM2.5),70,59,64,51,53,24,24,32,32,25,24,7,8,0.8,0.8
2025-12-29T0800,2688A,93.5128,42.8172,哈密市,地区监测站,,47,47,52,20,34,45,45,48,48,14,17,4,4,0.0,0
2025-12-29T0800,2689A,93.4961,42.8328,哈密市,哈密师范学校,颗粒物(PM10),51,52,59,21,28,13,13,24,24,39,23,7,7,0.6,0.4
2025-12-29T0800,2671A,100.9048,36.9639,海北藏族自治州,海晏县西海镇,,25,,13,17,11,42,42,48,48,5,4,10,8,0.3,0.3
2025-12-29T0800,3867A,102.0738,36.5056,海东市,平安区公安北苑,细颗粒物(PM2.5),70,68,61,51,43,27,27,35,35,29,26,10,31,1.1,1.1
2025-12-29T0800,1409A,110.576,19.9507,海口市,东寨港,,,,,,,,,,,,,,,,
2025-12-29T0800,1410A,110.3232,20.0574,海口市,海南大学,,48,48,39,32,28,74,74,75,75,24,15,6,6,0.5,0.4
2025-12-29T0800,1411A,110.283,20.0053,海口市,秀英海南医院,细颗粒物(PM2.5),55,54,41,39,29,30,30,43,43,54,21,8,8,0.7,0.5
2025-12-29T0800,1412A,110.338,19.9969,海口市,海南师范大学,细颗粒物(PM2.5),62,58,41,44,30,31,31,51,51,48,19,6,6,0.8,0.6
2025-12-29T0800,1413A,110.33,20.0356,海口市,龙华路环保局宿舍,,50,41,36,35,28,58,58,78,78,29,15,8,8,1.0,0.7
2025-12-29T0800,3539A,110.5111,19.9736,海口市,桂林洋子站,细颗粒物(PM2.5),55,54,47,39,33,63,63,47,47,34,22,8,8,0.5,0.5
2025-12-29T0800,2673A,100.6188,36.2866,海南藏族自治州,共和县恰卜恰镇,,26,26,27,6,11,25,25,36,36,33,18,14,13,0.8,0.7
2025-12-29T0800,2676A,97.3731,37.3753,海西蒙古族藏族自治州,德令哈市,,23,12,22,10,11,71,71,70,70,2,8,12,11,0.5,0.7
2025-12-29T0800,1048A,114.5302,36.6116,邯郸市,东污水处理厂,细颗粒物(PM2.5),119,108,162,90,150,17,17,10,10,45,55,7,9,1.1,1.4
2025-12-29T0800,1049A,114.4918,36.5713,邯郸市,矿院,细颗粒物(PM2.5),138,118,151,105,151,6,6,10,10,61,60,8,8,1.5,1.3
2025-12-29T0800,1050A,114.484,36.6133,邯郸市,丛台公园,细颗粒物(PM2.5),110,107,164,83,144,16,16,14,14,49,53,8,9,1.2,1.4
2025-12-29T0800,3458A,114.7895,36.5593,邯郸市,香泉濮院小区,细颗粒物(PM2.5),213,208,193,163,160,13,13,11,11,69,53,10,8,1.9,1.3
2025-12-29T0800,3579A,114.50634,36.77178,邯郸市,永年区实验高中,细颗粒物(PM2.5),117,132,161,88,108,5,5,5,5,61,72,7,8,1.6,1.6
2025-12-29T0800,3580A,114.20016,36.44293,邯郸市,峰峰矿区临水派出所,细颗粒物(PM2.5),83,,91,61,103,53,53,56,56,22,35,27,19,1.0,1.4
2025-12-29T0800,2634A,106.9893,33.1842,汉中市,汉川机床厂子校,,,,,,,,,,,,,,,,
2025-12-29T0800,2635A,107.0154,33.0706,汉中市,市监测站,细颗粒物(PM2.5),114,89,120,86,105,5,5,7,7,29,41,5,7,1.8,1.9
2025-12-29T0800,2636A,107.0089,33.1138,汉中市,鑫源开发区,细颗粒物(PM2.5),119,,115,90,99,0,0,2,2,28,38,5,9,1.7,1.8
2025-12-29T0800,2637A,107.007,33.0323,汉中市,南郑大河坎水厂,细颗粒物(PM2.5),145,123,139,111,112,2,2,2,2,19,32,5,6,2.0,1.8
2025-12-29T0800,1223A,120.2072,30.2111,杭州市,滨江,细颗粒物(PM2.5),58,64,85,41,56,10,10,11,11,52,61,9,10,0.4,0.4
2025-12-29T0800,1224A,120.0633,30.2747,杭州市,西溪,,47,47,63,27,41,0,0,0,0,30,40,8,8,1.3,1.2
2025-12-29T0800,1226A,120.3417,30.3150,杭州市,下沙,细颗粒物(PM2.5),69,78,90,50,64,11,11,14,14,55,69,8,10,1.1,0.9
2025-12-29T0800,1227A,120.1269,30.2456,杭州市,卧龙桥,细颗粒物(PM2.5),52,51,61,36,44,3,3,3,3,25,34,9,9,0.8,0.5
2025-12-29T0800,1228A,120.1903,30.2692,杭州市,浙江农大,细颗粒物(PM2.5),85,88,97,63,68,2,2,1,1,60,66,3,4,0.8,0.8
2025-12-29T0800,1230A,120.1197,30.3119,杭州市,和睦小学,细颗粒物(PM2.5),69,65,89,50,60,6,6,3,3,53,64,5,6,1.0,0.9
2025-12-29T0800,1231A,120.3019,30.4183,杭州市,临平镇,细颗粒物(PM2.5),75,83,104,55,69,2,2,1,1,64,73,8,8,0.9,0.8
2025-12-29T0800,1232A,120.2753,30.1839,杭州市,城厢镇,细颗粒物(PM2.5),64,71,84,46,55,15,15,14,14,49,60,9,10,0.5,0.5
2025-12-29T0800,1233A,120.0883,30.1808,杭州市,云栖,颗粒物(PM10),52,53,67,34,43,4,4,9,9,23,36,3,4,0.9,0.9
2025-12-29T0800,3557A,119.9464,30.0494,杭州市,镇二中,细颗粒物(PM2.5),63,48,66,45,56,4,4,2,2,40,50,6,7,0.9,0.8
2025-12-29T0800,3558A,119.7183,30.2367,杭州市,市府大楼,细颗粒物(PM2.5),55,55,72,39,46,11,11,22,22,30,33,10,11,0.8,0.8
2025-12-29T0800,3656A,120.1556,30.2864,杭州市,消防大队,细颗粒物(PM2.5),72,69,80,52,60,5,5,2,2,47,55,5,6,0.8,0.8
2025-12-29T0800,1270A,117.1959,31.7848,合肥市,明珠广场,细颗粒物(PM2.5),73,66,69,53,48,12,12,21,21,66,36,6,7,0.8,0.7
2025-12-29T0800,1271A,117.3072,31.8764,合肥市,三里街,颗粒物(PM10),86,122,74,53,49,2,2,4,4,62,49,8,6,1.9,1
2025-12-29T0800,1272A,117.2588,31.8707,合肥市,琥珀山庄,颗粒物(PM10),68,85,68,48,52,4,4,3,3,49,41,8,8,1.6,1.1
2025-12-29T0800,1273A,117.1604,31.9052,合肥市,董铺水库,,,,,,,,,,,,,,,,
2025-12-29T0800,1274A,117.25,31.8571,合肥市,长江中路,,,,73,,55,,,59,,,35,,8,,1.0
2025-12-29T0800,1275A,117.266,31.9436,合肥市,庐阳区,,,68,72,39,44,,,27,27,47,36,11,11,0.9,0.8
2025-12-29T0800,1276A,117.3453,31.8616,合肥市,瑶海区,细颗粒物(PM2.5),59,63,68,42,45,3,3,24,24,70,42,5,6,1.0,0.7
2025-12-29T0800,1277A,117.3027,31.7964,合肥市,包河区,细颗粒物(PM2.5),73,75,64,53,50,2,2,4,4,129,52,18,9,1.1,0.9
2025-12-29T0800,1278A,117.2776,31.7385,合肥市,滨湖新区,细颗粒物(PM2.5),67,61,64,48,53,2,2,14,14,84,40,10,6,1.5,1
2025-12-29T0800,1279A,117.1318,31.8403,合肥市,高新区,细颗粒物(PM2.5),70,63,67,51,46,31,31,42,42,45,32,5,5,0.8,0.8
2025-12-29T0800,3464A,117.3803,31.9147,合肥市,高教基地,,48,44,62,33,49,8,8,26,26,34,27,6,8,0.6,0.7
2025-12-29T0800,3614A,79.924,37.0877,和田地区,地区环保局,颗粒物(PM10),68,85,106,25,36,53,53,60,60,8,17,1,2,0.2,0.5
2025-12-29T0800,3615A,79.9131,37.113,和田地区,市环保局,颗粒物(PM10),58,66,106,20,31,51,51,60,60,17,19,1,1,0.7,1.2
2025-12-29T0800,2516A,108.2011,24.715,河池市,东仁乐园,,,,,,,,,,,,,,,,
2025-12-29T0800,2517A,108.0497,24.6947,河池市,市环保站,细颗粒物(PM2.5),84,79,70,62,45,13,13,15,15,28,26,8,9,1.0,0.9
2025-12-29T0800,2518A,108.0983,24.6989,河池市,市疾控中心,,,,,,,,,,,,,,,,
2025-12-29T0800,1696A,114.6778,23.7569,河源市,源西,,,,,,,,,,,,,,,,
2025-12-29T0800,1697A,114.6944,23.7586,河源市,东埔,,43,38,39,30,29,9,9,8,8,34,36,6,6,0.9,0.8
2025-12-29T0800,1698A,114.6892,23.7233,河源市,老城,,36,36,35,19,22,7,7,15,15,26,22,6,6,1.0,0.8
2025-12-29T0800,1718A,115.4208,35.2464,菏泽市,气象局,细颗粒物(PM2.5),229,225,165,179,119,20,20,36,36,44,36,5,6,1.0,0.7
2025-12-29T0800,3374A,115.5564,35.0891,菏泽市,定陶老年大学,细颗粒物(PM2.5),208,197,137,158,100,24,24,28,28,44,36,8,6,1.1,0.9
2025-12-29T0800,4184A,115.4797,35.24401,菏泽市,永昌路1号,细颗粒物(PM2.5),229,,148,179,115,16,16,31,31,44,34,9,8,1.3,1
2025-12-29T0800,4193A,115.4715,35.2800,菏泽市,长城路999号,细颗粒物(PM2.5),221,224,157,171,112,20,20,30,30,44,36,4,4,1.3,1
2025-12-29T0800,2514A,111.5264,24.4172,贺州市,环保小区,细颗粒物(PM2.5),55,47,62,39,47,1,1,2,2,26,29,6,7,0.9,0.9
2025-12-29T0800,2515A,111.5608,24.4078,贺州市,政协大楼,,40,36,57,28,39,1,1,1,1,27,32,7,9,0.8,0.8
2025-12-29T0800,3534A,111.4744,24.4553,贺州市,西湾,细颗粒物(PM2.5),55,48,55,39,39,1,1,1,1,25,28,7,8,0.7,0.7
2025-12-29T0800,2385A,114.17,35.9019,鹤壁市,市监测站,细颗粒物(PM2.5),68,66,120,49,97,36,36,39,39,21,28,33,10,0.9,1.2
2025-12-29T0800,2386A,114.2956,35.7511,鹤壁市,市交警支队,细颗粒物(PM2.5),89,104,150,66,114,19,19,20,20,36,43,5,8,1.0,1.2
2025-12-29T0800,2387A,114.2878,35.7306,鹤壁市,迎宾馆,细颗粒物(PM2.5),78,85,151,57,112,27,27,33,33,31,40,8,10,1.1,1.3
2025-12-29T0800,3474A,114.2617,35.6822,鹤壁市,大新区,细颗粒物(PM2.5),62,61,141,44,99,36,36,39,39,24,46,8,11,1.0,1.4
2025-12-29T0800,3596A,114.1572,35.9603,鹤壁市,南山宾馆,细颗粒物(PM2.5),78,72,115,57,90,49,49,44,44,18,26,9,11,1.0,1
2025-12-29T0800,2244A,130.2537,47.3416,鹤岗市,哈啤分公司,细颗粒物(PM2.5),52,,53,36,55,54,54,48,48,13,28,9,11,0.4,0.7
2025-12-29T0800,2245A,130.2684,47.3086,鹤岗市,斯达机电,,46,46,59,21,40,54,54,49,49,14,24,7,10,0.6,0.8
2025-12-29T0800,2246A,130.3114,47.3388,鹤岗市,东山纸板厂,细颗粒物(PM2.5),55,,60,39,40,24,24,37,37,40,34,10,14,1.9,1.1
2025-12-29T0800,2247A,130.1097,47.3382,鹤岗市,五号水库,,,,,,,,,,,,,,,,
2025-12-29T0800,2263A,127.4833,50.2524,黑河市,交通局,细颗粒物(PM2.5),68,66,72,49,54,20,20,30,30,36,29,6,7,1.2,0.9
2025-12-29T0800,2264A,127.5144,50.2341,黑河市,环保局,细颗粒物(PM2.5),79,80,69,58,53,8,8,10,10,52,38,23,10,1.1,0.9
2025-12-29T0800,2265A,127.5291,50.2472,黑河市,大黑河岛,,,,,,,,,,,,,,,,
2025-12-29T0800,1074A,115.6838,37.7541,衡水市,电机北厂,细颗粒物(PM2.5),286,281,214,236,165,0,0,0,0,70,61,17,6,1.7,1.3
2025-12-29T0800,1075A,115.6303,37.7316,衡水市,市监测站,细颗粒物(PM2.5),210,174,185,160,156,4,4,2,2,61,62,8,8,1.5,1.3
2025-12-29T0800,3188A,115.6683,37.7217,衡水市,市城管局,细颗粒物(PM2.5),229,210,188,179,144,1,1,3,3,70,63,13,11,1.7,1.4
2025-12-29T0800,3459A,115.5989,37.5491,衡水市,地表水厂,细颗粒物(PM2.5),255,212,176,205,166,3,3,4,4,69,57,8,7,1.4,1.1
2025-12-29T0800,2456A,112.5003,26.9167,衡阳市,原169医院,,,,,,,,,,,,,,,,
2025-12-29T0800,2457A,112.6194,26.9258,衡阳市,衡阳化工总厂,细颗粒物(PM2.5),85,80,84,63,64,0,0,1,1,31,38,7,15,1.1,1.1
2025-12-29T0800,2458A,112.6211,26.8956,衡阳市,珠晖区环保局,细颗粒物(PM2.5),98,75,78,73,64,2,2,1,1,32,43,6,6,1.4,1.3
2025-12-29T0800,2459A,112.6197,26.8733,衡阳市,市委党校,细颗粒物(PM2.5),100,92,84,75,71,2,2,2,2,30,35,8,9,1.3,1.2
2025-12-29T0800,2460A,112.6006,26.8919,衡阳市,市监测站,细颗粒物(PM2.5),79,89,118,58,75,0,0,0,0,36,39,8,9,1.0,1.3
2025-12-29T0800,2461A,112.5664,26.9056,衡阳市,真空机电公司,细颗粒物(PM2.5),100,102,106,75,76,2,2,3,3,39,48,8,10,1.3,1.3
2025-12-29T0800,3399A,112.6703,26.882,衡阳市,师范学院,细颗粒物(PM2.5),73,67,79,53,53,2,2,4,4,36,35,2,3,1.1,1.1
2025-12-29T0800,2608A,103.3772,23.3993,红河哈尼族彝族自治州,污水处理厂,,41,41,33,28,25,35,35,39,39,13,10,8,7,0.5,0.4
2025-12-29T0800,2609A,103.3861,23.35,红河哈尼族彝族自治州,监测站,,40,29,31,28,25,38,38,54,54,11,6,7,8,0.3,0.3
2025-12-29T0800,3038A,103.3758,23.368,红河哈尼族彝族自治州,州图书馆,,26,24,19,18,14,28,28,44,44,15,6,7,6,0.5,0.4
2025-12-29T0800,1090A,111.6507,40.7517,呼和浩特市,呼市一监,"颗粒物(PM10),细颗粒物(PM2.5)",58,66,70,41,50,0,0,0,0,52,43,13,8,1.1,0.8
2025-12-29T0800,1091A,111.6572,40.8033,呼和浩特市,小召,颗粒物(PM10),56,61,38,11,14,14,14,32,32,50,30,48,18,0.7,0.5
2025-12-29T0800,1094A,111.7516,40.8369,呼和浩特市,如意水处理厂,,33,33,52,16,30,3,3,28,28,66,38,9,11,0.7,0.5
2025-12-29T0800,1095A,111.7276,40.8062,呼和浩特市,二十九中,,28,28,56,9,29,13,13,39,39,46,32,10,12,0.6,0.5
2025-12-29T0800,1096A,111.5512,40.7866,呼和浩特市,工大金川校区,,,,,,,,,,,,,,,,
2025-12-29T0800,1097A,111.717,40.7612,呼和浩特市,化肥厂生活区,,38,38,63,19,36,8,8,31,31,49,40,6,8,1.2,0.8
2025-12-29T0800,3698A,111.5968,40.8178,呼和浩特市,红旗小学,,,,,,,,,,,,,,,,
2025-12-29T0800,3699A,111.6518,40.8389,呼和浩特市,海东办,,48,48,53,24,31,4,4,34,34,51,33,7,7,0.8,0.5
2025-12-29T0800,3061A,119.7512,49.1577,呼伦贝尔市,国华电力东,,28,20,21,19,14,50,50,56,56,17,17,6,7,0.2,0.2
2025-12-29T0800,4279A,119.7569,49.2222,呼伦贝尔市,伊敏大街东7号,,28,28,24,16,19,48,48,54,54,10,9,7,8,0.2,0.1
2025-12-29T0800,1250A,120.0751,30.8669,湖州市,城西水厂,细颗粒物(PM2.5),87,87,80,64,57,10,10,10,10,57,61,10,10,0.6,0.4
2025-12-29T0800,2873A,120.0830,30.8929,湖州市,仁皇山新区,细颗粒物(PM2.5),87,89,81,64,58,9,9,9,9,60,62,10,10,0.5,0.4
2025-12-29T0800,2907A,120.1844,30.8596,湖州市,吴兴区站,,,95,86,,55,6,6,3,3,62,63,7,9,0.8,0.7
2025-12-29T0800,3562A,120.4148,30.8538,湖州市,南浔区站,细颗粒物(PM2.5),107,110,103,80,63,2,2,5,5,79,66,8,7,0.7,0.6
2025-12-29T0800,1607A,120.9049,40.7211,葫芦岛市,龙港区,细颗粒物(PM2.5),72,,114,52,97,11,11,38,38,47,46,23,20,1.0,1.3
2025-12-29T0800,1608A,120.8392,40.7514,葫芦岛市,化工街,,41,41,121,19,83,23,23,47,47,42,47,32,25,0.8,1.1
2025-12-29T0800,1609A,120.8341,40.7073,葫芦岛市,新区,,32,32,99,12,87,14,14,49,49,57,49,24,17,1.2,1.4
2025-12-29T0800,1610A,120.8695,40.7677,葫芦岛市,东城区,,34,34,100,21,91,14,14,44,44,53,48,36,23,1.2,1.4
2025-12-29T0800,2482A,109.5981,27.5721,怀化市,林科所,,,,,,,,,,,,,,,,
2025-12-29T0800,2483A,109.9453,27.5444,怀化市,河西地税局,细颗粒物(PM2.5),65,59,63,47,46,13,13,16,16,22,23,10,6,0.6,0.6
2025-12-29T0800,2484A,109.9781,27.5342,怀化市,市四医院,细颗粒物(PM2.5),85,83,79,63,51,2,2,4,4,37,33,12,12,0.6,0.6
2025-12-29T0800,2485A,109.9972,27.5578,怀化市,监测楼,细颗粒物(PM2.5),70,74,80,51,51,0,0,0,0,32,34,3,5,0.4,0.4
2025-12-29T0800,2486A,110.0394,27.583,怀化市,市委党校,细颗粒物(PM2.5),88,84,84,65,60,4,4,4,4,32,30,22,11,0.7,0.5
2025-12-29T0800,1210A,119.036,33.5981,淮安市,钵池山,细颗粒物(PM2.5),88,97,78,65,57,4,4,30,30,62,37,9,11,1.2,0.7
2025-12-29T0800,1211A,119.007,33.575,淮安市,北京南路,细颗粒物(PM2.5),93,112,81,69,62,0,0,7,7,61,43,9,10,1.5,0.8
2025-12-29T0800,1212A,118.989,33.6067,淮安市,市监测站,细颗粒物(PM2.5),89,83,79,66,61,9,9,22,22,56,47,10,17,1.0,1.2
2025-12-29T0800,1213A,119.135,33.5039,淮安市,楚州区监测站,细颗粒物(PM2.5),94,93,84,70,65,8,8,10,10,55,46,11,12,0.8,0.8
2025-12-29T0800,3426A,118.8755,33.2894,淮安市,新华书店,细颗粒物(PM2.5),97,97,84,72,64,20,20,26,26,48,45,9,10,0.9,0.9
2025-12-29T0800,4206A,119.0288,33.6319,淮安市,承德北路606号,细颗粒物(PM2.5),85,105,89,63,60,4,4,26,26,67,41,9,13,1.3,1.1
2025-12-29T0800,2282A,116.8004,33.975,淮北市,监测站,细颗粒物(PM2.5),100,114,94,75,61,8,8,27,27,58,39,8,9,1.2,0.9
2025-12-29T0800,2283A,116.8091,33.9007,淮北市,烈山区政府,细颗粒物(PM2.5),89,85,90,66,61,12,12,19,19,48,47,8,11,0.5,0.5
2025-12-29T0800,3330A,116.8873,33.9836,淮北市,杜集区检察院,细颗粒物(PM2.5),100,95,86,75,61,29,29,38,38,38,28,6,7,0.6,0.5
2025-12-29T0800,4017A,116.7923,33.9535,淮北市,市博物馆,细颗粒物(PM2.5),100,103,95,75,61,10,10,25,25,53,37,9,11,0.7,0.6
2025-12-29T0800,2277A,116.8305,32.7727,淮南市,潘集区政府,细颗粒物(PM2.5),102,106,85,76,63,53,53,58,58,28,28,6,7,0.7,0.5
2025-12-29T0800,2279A,116.8569,32.5951,淮南市,谢家集区政府,细颗粒物(PM2.5),78,83,75,57,47,61,61,58,58,30,30,9,9,0.6,0.5
2025-12-29T0800,2280A,116.8281,32.633,淮南市,八公山区政府,细颗粒物(PM2.5),89,90,67,66,47,74,74,81,81,16,21,9,8,0.6,0.5
2025-12-29T0800,2281A,116.6325,32.6201,淮南市,焦岗湖风景区管理处,,,,,,,,,,,,,,,,
2025-12-29T0800,2894A,117.0566,32.6531,淮南市,经济技术开发区消防队,细颗粒物(PM2.5),108,118,84,81,59,42,42,39,39,44,34,6,7,0.6,0.5
2025-12-29T0800,3329A,117.0108,32.5893,淮南市,山南新区,细颗粒物(PM2.5),97,100,84,72,53,33,33,49,49,43,30,3,6,0.7,0.6
2025-12-29T0800,4209A,117.0031,32.6445,淮南市,国庆中路369号,细颗粒物(PM2.5),92,91,69,68,57,33,33,46,46,46,32,8,9,0.6,0.5
2025-12-29T0800,2446A,114.9028,30.4742,黄冈市,职工中心,细颗粒物(PM2.5),60,56,67,43,49,20,20,29,29,30,31,5,9,0.8,0.8
2025-12-29T0800,2929A,114.8858,30.4519,黄冈市,红卫路,细颗粒物(PM2.5),64,51,66,46,52,24,24,34,34,25,28,5,8,0.6,0.6
2025-12-29T0800,3398A,114.9136,30.4445,黄冈市,市林业局,细颗粒物(PM2.5),72,68,72,52,52,25,25,35,35,28,31,4,6,0.9,0.8
2025-12-29T0800,2672A,102.0199,35.5102,黄南藏族自治州,同仁县隆务镇,,17,17,28,7,12,44,44,46,46,1,5,10,10,0.2,0.3
2025-12-29T0800,2295A,118.2903,29.6963,黄山市,延安路89号,,43,30,33,30,23,4,4,4,4,16,19,4,4,0.5,0.5
2025-12-29T0800,2297A,118.1371,30.2756,黄山市,黄山区政府5号楼,,36,,30,25,20,6,6,8,8,8,12,6,6,0.4,0.4
2025-12-29T0800,4210A,118.3354,29.7203,黄山市,滨江东路7-2号,,45,40,50,31,34,4,4,5,5,16,22,3,4,0.5,0.5
2025-12-29T0800,2423A,115.0601,30.2313,黄石市,沈家营,细颗粒物(PM2.5),64,72,88,46,53,4,4,14,14,44,44,6,9,1.1,1.3
2025-12-29T0800,2426A,114.8988,30.2019,黄石市,铁山,颗粒物(PM10),56,61,67,38,54,21,21,35,35,25,30,4,9,0.5,0.6
2025-12-29T0800,2427A,115.0307,30.2092,黄石市,团城山,细颗粒物(PM2.5),78,86,83,57,60,10,10,22,22,44,36,6,8,0.8,1
2025-12-29T0800,3149A,115.0235,30.1578,黄石市,笔架山北路,细颗粒物(PM2.5),85,113,104,63,59,13,13,29,29,37,29,10,12,1.2,1.1
2025-12-29T0800,4185A,115.0780,30.21118,黄石市,磁湖东路29号,细颗粒物(PM2.5),78,77,88,57,66,10,10,9,9,42,45,8,11,0.9,1.2
2025-12-29T0800,1392A,114.4183,23.0528,惠州市,河南岸金山湖子站,细颗粒物(PM2.5),54,55,52,38,33,9,9,14,14,34,34,4,5,1.0,0.7
2025-12-29T0800,1393A,114.4053,23.0822,惠州市,下埔横江三路子站,细颗粒物(PM2.5),59,62,57,42,35,12,12,23,23,40,36,9,8,0.9,0.9
2025-12-29T0800,1394A,114.4103,23.1142,惠州市,江北云山西路子站,,,,,,,,,,,,,,,,
2025-12-29T0800,1395A,114.4645,22.7833,惠州市,惠阳区承修路船湖子站,颗粒物(PM10),56,62,56,38,31,10,10,18,18,45,33,8,7,0.9,0.7
2025-12-29T0800,1396A,114.5317,22.7422,惠州市,大亚湾管委会子站,颗粒物(PM10),61,72,48,42,26,2,2,14,14,49,41,7,7,0.9,0.6
2025-12-29T0800,3314A,114.4338,22.8134,惠州市,惠阳秋长,细颗粒物(PM2.5),57,61,70,40,39,34,34,27,27,36,42,12,14,0.6,0.7
2025-12-29T0800,3452A,114.6517,22.775,惠州市,大亚湾霞涌,,22,22,35,15,18,33,33,50,50,22,22,3,5,0.6,0.6
2025-12-29T0800,2240A,130.9762,45.3001,鸡西市,环保局,细颗粒物(PM2.5),79,66,90,58,61,38,38,27,27,22,34,8,14,0.4,0.7
2025-12-29T0800,2243A,130.9429,45.3039,鸡西市,第一中学,细颗粒物(PM2.5),52,45,66,36,48,48,48,46,46,14,27,6,8,0.5,0.7
2025-12-29T0800,3707A,131.0207,45.3073,鸡西市,欧美日汽修厂,细颗粒物(PM2.5),64,64,147,46,90,41,41,20,20,28,40,10,23,0.5,1.1
2025-12-29T0800,3709A,130.9967,45.3106,鸡西市,市政设施管理处,颗粒物(PM10),65,80,116,41,74,38,38,13,13,26,46,11,20,0.1,0.6
2025-12-29T0800,2367A,114.9754,27.0803,吉安市,红声器材厂,细颗粒物(PM2.5),64,68,71,46,44,1,1,5,5,36,42,7,7,0.8,0.9
2025-12-29T0800,2368A,114.9658,27.0999,吉安市,市森林工业局,细颗粒物(PM2.5),68,73,77,49,50,0,0,0,0,41,47,11,12,0.6,0.7
2025-12-29T0800,2369A,114.99,27.1312,吉安市,市环境监测站,细颗粒物(PM2.5),62,60,67,44,46,2,2,2,2,38,43,10,12,0.7,0.6
2025-12-29T0800,2370A,115.0093,27.0968,吉安市,青原区法院,细颗粒物(PM2.5),59,57,74,42,52,0,0,1,1,33,40,9,11,1.0,0.8
2025-12-29T0800,1772A,126.54,43.8622,吉林市,哈达湾,,30,30,56,19,43,39,39,45,45,19,18,7,8,1.3,1.3
2025-12-29T0800,1773A,126.5844,43.8358,吉林市,东局子,,25,25,53,7,41,28,28,41,41,28,15,4,7,0.8,1
2025-12-29T0800,1774A,126.5052,43.8245,吉林市,电力学院,,35,32,53,24,45,28,28,46,46,32,18,9,11,0.7,0.7
2025-12-29T0800,1775A,126.6133,43.8972,吉林市,江北,,18,17,62,12,49,32,32,38,38,24,18,3,2,0.6,0.9
2025-12-29T0800,1776A,126.555,43.8306,吉林市,江南公园,,19,16,54,13,51,37,37,44,44,18,17,6,9,0.7,0.8
2025-12-29T0800,1778A,126.7061,43.7133,吉林市,丰满,,24,24,44,11,45,35,35,40,40,13,13,11,6,0.6,0.9
2025-12-29T0800,2868A,126.4739,43.953,吉林市,九站,,29,,55,20,44,29,29,38,38,29,23,6,7,0.9,1.1
2025-12-29T0800,1299A,116.9862,36.6114,济南市,科干所,细颗粒物(PM2.5),110,117,117,83,72,27,27,15,15,48,42,7,8,1.1,0.9
2025-12-29T0800,1300A,116.9376,36.665,济南市,农科所,细颗粒物(PM2.5),165,173,134,125,86,3,3,2,2,71,56,3,6,1.4,1
2025-12-29T0800,1301A,117.1265,36.6734,济南市,开发区,细颗粒物(PM2.5),153,151,114,117,81,17,17,7,7,47,43,4,4,1.2,0.9
2025-12-29T0800,1303A,117.0624,36.6868,济南市,省种子仓库,细颗粒物(PM2.5),168,188,140,127,89,7,7,6,6,64,52,8,8,1.4,1
2025-12-29T0800,1304A,116.9489,36.6447,济南市,机床二厂,细颗粒物(PM2.5),175,171,137,132,96,9,9,6,6,67,52,5,9,1.2,1
2025-12-29T0800,1305A,117.0495,36.663,济南市,市监测站,细颗粒物(PM2.5),135,144,123,103,83,7,7,4,4,52,38,5,6,1.1,0.8
2025-12-29T0800,1306A,116.7675,36.5484,济南市,长清党校,细颗粒物(PM2.5),165,173,131,125,90,3,3,7,7,67,43,8,8,,0.8
2025-12-29T0800,1616A,117.6795,36.229,济南市,技术学院,细颗粒物(PM2.5),113,114,123,85,89,29,29,13,13,41,55,14,9,0.9,1.1
2025-12-29T0800,1961A,117.532,36.6868,济南市,东山小学,细颗粒物(PM2.5),160,164,126,122,87,7,7,11,11,55,40,3,5,1.3,1
2025-12-29T0800,3059A,117.7161,36.2049,济南市,泰兴公司,细颗粒物(PM2.5),223,239,138,173,102,6,6,5,5,59,53,11,10,1.7,1.1
2025-12-29T0800,3064A,117.6867,36.2171,济南市,莱芜战役纪念馆,细颗粒物(PM2.5),119,119,132,90,97,37,37,14,14,38,54,15,11,0.7,1
2025-12-29T0800,3494A,117.1673,36.9782,济南市,济阳区政府,细颗粒物(PM2.5),178,168,152,134,104,18,18,16,16,55,54,8,10,1.1,0.9
2025-12-29T0800,3495A,117.1171,36.63,济南市,锦屏中学,细颗粒物(PM2.5),125,129,99,95,69,34,34,29,29,36,27,4,3,1.2,0.9
2025-12-29T0800,3682A,116.9814,36.6819,济南市,济南四建,细颗粒物(PM2.5),168,171,131,127,90,3,3,2,2,63,45,9,9,1.6,1.2
2025-12-29T0800,1653A,116.6251,35.4302,济宁市,火炬城,细颗粒物(PM2.5),178,161,124,134,107,6,6,8,8,56,44,8,8,1.1,0.8
2025-12-29T0800,1655A,116.5491,35.4042,济宁市,电化厂,细颗粒物(PM2.5),180,208,157,136,103,5,5,9,9,71,53,13,10,1.0,0.7
2025-12-29T0800,3500A,116.5814,35.3707,济宁市,北湖一中,细颗粒物(PM2.5),176,156,113,133,101,9,9,12,12,57,43,9,9,1.2,0.8
2025-12-29T0800,3501A,116.8249,35.5593,济宁市,服务中心,细颗粒物(PM2.5),149,174,149,114,98,2,2,1,1,64,53,12,13,1.3,1.2
2025-12-29T0800,3678A,116.5907,35.4054,济宁市,市第七中学,细颗粒物(PM2.5),156,157,123,119,93,8,8,10,10,61,49,13,10,1.2,0.9
2025-12-29T0800,2255A,130.2751,46.8028,佳木斯市,佳纺,,39,36,56,27,42,39,39,34,34,27,16,8,5,0.3,0.4
2025-12-29T0800,2257A,130.3258,46.7975,佳木斯市,环保局,,29,25,45,20,39,40,40,38,38,27,18,8,8,0.5,0.6
2025-12-29T0800,2259A,130.3794,46.7588,佳木斯市,四丰,,,,,,,,,,,,,,,,
2025-12-29T0800,4285A,130.363,46.806,佳木斯市,顺和街,,33,29,47,23,44,36,36,34,34,29,20,8,9,0.4,0.4
2025-12-29T0800,4286A,130.3952,46.8268,佳木斯市,长安路196号,,38,30,48,26,40,44,44,36,36,25,25,6,8,0.3,0.5
2025-12-29T0800,1252A,120.7436,30.778,嘉兴市,清河小学,细颗粒物(PM2.5),113,118,118,85,84,7,7,20,20,77,66,6,6,0.7,0.6
2025-12-29T0800,1253A,120.726,30.7478,嘉兴市,嘉兴学院,细颗粒物(PM2.5),123,132,117,93,79,1,1,18,18,77,61,7,8,1.1,0.7
2025-12-29T0800,2872A,120.7846,30.7525,嘉兴市,南湖区残联,细颗粒物(PM2.5),122,125,106,92,80,10,10,25,25,71,61,5,6,0.8,0.6
2025-12-29T0800,3407A,120.6916,30.7739,嘉兴市,秀洲住建,细颗粒物(PM2.5),132,128,114,100,86,4,4,16,16,75,68,7,8,0.9,0.6
2025-12-29T0800,1945A,98.2908,39.7711,嘉峪关市,气象局,,29,29,48,14,25,18,18,36,36,52,31,29,13,0.9,0.5
2025-12-29T0800,2884A,98.2672,39.7978,嘉峪关市,酒钢宾馆,颗粒物(PM10),81,112,68,19,28,33,33,43,43,31,24,44,25,0.6,0.7
2025-12-29T0800,3248A,98.2643,39.7724,嘉峪关市,雄关区,,33,33,53,20,31,17,17,27,27,53,41,36,18,0.9,0.8
2025-12-29T0800,1383A,113.1064,22.6058,江门市,北街,细颗粒物(PM2.5),92,77,82,68,59,4,4,6,6,88,73,12,10,1.0,1.1
2025-12-29T0800,1384A,113.0731,22.5835,江门市,西区,细颗粒物(PM2.5),75,95,96,55,57,1,1,1,1,76,73,13,11,1.3,0.9
2025-12-29T0800,1385A,113.0219,22.5311,江门市,圭峰西,细颗粒物(PM2.5),100,88,78,75,63,10,10,37,37,55,50,6,9,1.2,0.9
2025-12-29T0800,1386A,113.0828,22.5947,江门市,东湖,细颗粒物(PM2.5),79,100,92,58,55,3,3,1,1,78,75,10,10,0.8,0.9
2025-12-29T0800,3311A,113.1075,22.5647,江门市,江海富民,细颗粒物(PM2.5),95,113,99,71,54,4,4,5,5,93,83,16,11,1.1,0.9
2025-12-29T0800,3449A,113.05,22.4667,江门市,新会银湖,细颗粒物(PM2.5),112,86,93,84,79,2,2,6,6,36,46,6,9,0.9,0.8
2025-12-29T0800,1830A,113.1992,35.2590,焦作市,影视城,,,,82,,49,,,59,,,26,,13,,1.0
2025-12-29T0800,3335A,113.3137,35.2641,焦作市,马村街道办,细颗粒物(PM2.5),65,66,105,47,73,35,35,55,55,27,29,12,13,1.0,1
2025-12-29T0800,3336A,113.2465,35.2373,焦作市,焦作技师学院,细颗粒物(PM2.5),58,60,97,41,69,12,12,45,45,51,38,13,15,1.2,1.1
2025-12-29T0800,3477A,113.1656,35.2539,焦作市,中站许衡医院,,49,49,86,34,62,48,48,59,59,21,34,9,15,0.9,1.2
2025-12-29T0800,3981A,113.2449,35.1803,焦作市,原李万街道办,细颗粒物(PM2.5),94,81,105,70,70,17,17,50,50,44,24,9,11,1.0,0.9
2025-12-29T0800,4264A,113.2340,35.2190,焦作市,新安路1731号,颗粒物(PM10),58,65,105,39,74,19,19,48,48,38,30,9,13,1.2,1.2
2025-12-29T0800,4295A,113.2722,35.2121,焦作市,人民路3066号,颗粒物(PM10),65,79,106,36,61,22,22,49,49,34,29,8,11,0.7,0.7
2025-12-29T0800,1708A,116.3701,23.5345,揭阳市,新兴,细颗粒物(PM2.5),59,51,57,42,33,12,12,12,12,41,38,11,9,0.8,0.7
2025-12-29T0800,1709A,116.3264,23.5443,揭阳市,西马,细颗粒物(PM2.5),54,50,55,38,31,7,7,16,16,41,33,10,8,0.7,0.8
2025-12-29T0800,1710A,116.3611,23.5626,揭阳市,东兴,细颗粒物(PM2.5),59,60,55,42,33,4,4,8,8,40,33,11,11,1.1,0.8
2025-12-29T0800,1711A,116.4151,23.5294,揭阳市,渔湖,细颗粒物(PM2.5),62,58,58,44,30,4,4,15,15,57,36,16,7,0.9,0.7
2025-12-29T0800,3320A,116.403,23.5699,揭阳市,曲溪,颗粒物(PM10),52,53,56,29,31,10,10,23,23,44,32,5,7,0.7,0.5
2025-12-29T0800,1944A,102.1692,38.5167,金昌市,天庆家园,细颗粒物(PM2.5),73,70,67,53,36,20,20,36,36,43,25,10,17,1.2,0.9
2025-12-29T0800,4022A,102.1647,38.5371,金昌市,金川区人防中心,细颗粒物(PM2.5),53,52,67,37,40,19,19,34,34,35,23,13,24,1.2,0.9
2025-12-29T0800,4239A,102.1930,38.5319,金昌市,长春路96号,颗粒物(PM10),53,55,69,26,33,30,30,33,33,29,22,15,31,1.1,0.9
2025-12-29T0800,1262A,119.647,29.077,金华市,十五中,细颗粒物(PM2.5),79,82,80,58,55,7,7,8,8,54,59,4,4,0.8,0.8
2025-12-29T0800,1263A,119.686,29.1029,金华市,监测站,细颗粒物(PM2.5),79,93,83,58,55,0,0,0,0,49,61,4,4,0.7,0.5
2025-12-29T0800,3659A,119.656,29.1131,金华市,气象局,细颗粒物(PM2.5),75,91,86,55,57,0,0,0,0,54,68,5,4,0.8,0.6
2025-12-29T0800,1767A,121.1115,41.0879,锦州市,南山,,33,25,90,23,93,27,27,57,57,40,49,13,17,1.2,1.2
2025-12-29T0800,1768A,121.0604,40.8428,锦州市,开发区,,26,20,112,18,91,37,37,50,50,25,47,16,17,0.5,1.1
2025-12-29T0800,1769A,121.1836,41.1119,锦州市,百股街道,,35,35,101,24,85,13,13,43,43,49,49,71,18,1.3,1.4
2025-12-29T0800,1770A,121.1178,41.1222,锦州市,天安街道,,44,44,90,18,85,4,4,48,48,62,44,16,19,0.9,1.4
2025-12-29T0800,1771A,121.1303,41.1386,锦州市,北湖公园,,39,39,94,27,84,7,7,46,46,52,44,22,18,1.1,1.4
2025-12-29T0800,2160A,112.85,35.5051,晋城市,自来水公司,颗粒物(PM10),64,77,83,40,50,13,13,46,46,42,28,11,10,1.5,1.5
2025-12-29T0800,2161A,112.8318,35.4936,晋城市,白云商贸,颗粒物(PM10),64,78,93,27,38,11,11,41,41,38,24,8,8,1.3,1.2
2025-12-29T0800,2162A,112.8508,35.4887,晋城市,市环保局,颗粒物(PM10),74,97,84,39,42,11,11,36,36,34,23,10,9,1.3,1.3
2025-12-29T0800,2163A,112.8676,35.4897,晋城市,技术学院,颗粒物(PM10),60,69,86,29,43,9,9,30,30,52,34,12,10,1.4,1.4
2025-12-29T0800,2165A,112.8453,35.546,晋城市,白马寺,颗粒物(PM10),52,53,62,35,46,60,60,70,70,18,18,11,12,0.8,1
2025-12-29T0800,3620A,112.8271,35.4828,晋城市,泽州一中,颗粒物(PM10),67,84,90,39,48,17,17,53,53,46,29,6,8,1.3,1.4
2025-12-29T0800,2173A,112.7249,37.7067,晋中市,南都小区,颗粒物(PM10),57,64,89,35,46,15,15,10,10,40,47,13,20,0.9,1.1
2025-12-29T0800,2174A,112.6991,37.6982,晋中市,榆次区政府,颗粒物(PM10),59,68,91,36,49,7,7,5,5,46,50,11,19,0.7,0.9
2025-12-29T0800,2865A,112.7195,37.6828,晋中市,榆次三中,颗粒物(PM10),58,66,87,27,44,3,3,2,2,47,44,12,18,1.1,1.2
2025-12-29T0800,4200A,112.7478,37.6954,晋中市,迎宾街26号,颗粒物(PM10),54,58,82,29,41,19,19,11,11,31,44,12,20,0.6,0.8
2025-12-29T0800,2439A,112.2014,31.0481,荆门市,竹园小学,细颗粒物(PM2.5),119,117,116,90,88,37,37,39,39,28,33,3,3,0.6,0.5
2025-12-29T0800,2440A,112.1969,30.9891,荆门市,掇刀,细颗粒物(PM2.5),114,111,119,86,87,71,71,59,59,22,31,3,4,0.6,0.7
2025-12-29T0800,2441A,112.2213,31.0386,荆门市,石化一小,细颗粒物(PM2.5),134,135,126,102,87,31,31,24,24,26,43,8,9,0.9,1
2025-12-29T0800,3012A,112.1849,31.0362,荆门市,西山林语,细颗粒物(PM2.5),108,101,105,81,79,45,45,52,52,31,26,4,5,0.9,0.7
2025-12-29T0800,3547A,112.1632,31.0138,荆门市,龙泉中学南校,细颗粒物(PM2.5),115,115,122,87,91,54,54,59,59,18,20,8,9,0.5,0.4
2025-12-29T0800,1844A,112.2494,30.3197,荆州市,市图书馆,细颗粒物(PM2.5),130,,82,99,91,15,15,31,31,51,31,8,9,1.1,0.9
2025-12-29T0800,1845A,112.2008,30.3544,荆州市,市委党校,细颗粒物(PM2.5),130,106,90,99,88,6,6,13,13,50,39,4,6,0.9,0.8
2025-12-29T0800,3194A,112.2747,30.3122,荆州市,管委会,细颗粒物(PM2.5),122,98,83,92,88,7,7,23,23,46,31,6,8,1.2,1
2025-12-29T0800,4268A,112.1722,30.3366,荆州市,学苑路85号,细颗粒物(PM2.5),124,100,92,94,85,7,7,15,15,42,32,1,6,0.8,0.8
2025-12-29T0800,2342A,117.3102,29.3867,景德镇市,王港中学,,,,,,,,,,,,,,,,
2025-12-29T0800,2343A,117.2117,29.2933,景德镇市,老干部活动中心,细颗粒物(PM2.5),52,50,59,36,42,2,2,0,0,20,31,6,11,0.7,0.7
2025-12-29T0800,2344A,117.1894,29.2789,景德镇市,兽医站,,45,43,59,31,36,4,4,2,2,24,33,7,11,0.6,0.6
2025-12-29T0800,2346A,117.2461,29.2956,景德镇市,陶研所,细颗粒物(PM2.5),55,47,55,39,45,1,1,0,0,18,32,3,5,0.8,0.9
2025-12-29T0800,4289A,117.1542,29.2566,景德镇市,青少年活动中心,,48,44,60,33,36,5,5,2,2,27,36,18,15,0.9,0.7
2025-12-29T0800,1803A,115.9872,29.6815,九江市,十里,细颗粒物(PM2.5),52,47,57,36,41,5,5,5,5,46,49,5,5,1.0,0.8
2025-12-29T0800,1804A,115.9584,29.7046,九江市,茅山头,细颗粒物(PM2.5),64,63,62,46,43,5,5,3,3,56,46,5,6,0.8,0.9
2025-12-29T0800,1805A,115.9877,29.7295,九江市,西园,细颗粒物(PM2.5),62,57,59,44,42,10,10,8,8,73,69,4,5,0.8,0.9
2025-12-29T0800,1808A,115.9114,29.6038,九江市,综合工业园,细颗粒物(PM2.5),80,70,48,59,44,8,8,31,31,68,49,4,2,0.9,0.8
2025-12-29T0800,1809A,116.0721,29.7535,九江市,石化总厂,细颗粒物(PM2.5),92,81,66,68,45,5,5,36,36,62,33,10,10,2.9,0.7
2025-12-29T0800,1810A,115.9773,29.5698,九江市,庐山气象台,,,,,,,,,,,,,,,,
2025-12-29T0800,3190A,116.0254,29.6994,九江市,外国语学校,细颗粒物(PM2.5),67,48,52,48,41,6,6,29,29,63,39,7,8,0.9,0.8
2025-12-29T0800,4253A,116.0102,29.6594,九江市,莲花大道8号,,49,46,46,34,37,17,17,46,46,37,32,3,4,0.6,0.5
2025-12-29T0800,4240A,98.4958,39.7339,酒泉市,玉门东路5号,颗粒物(PM10),51,51,74,21,32,33,33,33,33,19,18,14,13,0.6,0.8
2025-12-29T0800,4241A,98.5099,39.7506,酒泉市,北大街108号,颗粒物(PM10),70,90,72,22,28,23,23,30,30,35,24,13,11,0.8,0.7
2025-12-29T0800,2698A,76.0072,39.4467,喀什地区,巡警大队,细颗粒物(PM2.5),93,89,81,69,59,23,23,29,29,26,21,2,2,1.0,0.8
2025-12-29T0800,2699A,75.9755,39.4694,喀什地区,吾办,细颗粒物(PM2.5),95,86,84,71,65,24,24,28,28,19,16,4,5,0.9,0.8
2025-12-29T0800,4027A,75.9483,39.4689,喀什地区,老干局,细颗粒物(PM2.5),79,87,89,58,58,29,29,34,34,16,14,1,1,1.0,0.9
2025-12-29T0800,1824A,114.3389,34.7781,开封市,肿瘤医院,细颗粒物(PM2.5),168,176,148,127,106,18,18,27,27,48,44,7,6,1.6,1.2
2025-12-29T0800,1826A,114.2885,34.7965,开封市,世纪星幼儿园,细颗粒物(PM2.5),192,157,138,144,134,22,22,31,31,46,43,5,5,1.1,0.7
2025-12-29T0800,3147A,114.3438,34.8106,开封市,龙亭公园,细颗粒物(PM2.5),205,163,147,155,124,12,12,23,23,52,46,5,5,1.6,1.1
2025-12-29T0800,3210A,114.3644,34.7964,开封市,汴京公园,细颗粒物(PM2.5),182,188,161,137,113,14,14,22,22,51,47,5,6,1.2,0.9
2025-12-29T0800,3473A,114.2485,34.8306,开封市,技师学院,细颗粒物(PM2.5),159,145,134,121,107,23,23,19,19,39,44,10,8,1.4,0.9
2025-12-29T0800,3592A,114.4644,34.7556,开封市,祥符区生态环境局,细颗粒物(PM2.5),195,175,168,146,115,16,16,18,18,49,50,11,6,1.1,0.7
2025-12-29T0800,1951A,84.895,45.6094,克拉玛依市,长征新村,细颗粒物(PM2.5),114,116,66,86,51,32,32,32,32,33,33,7,5,1.2,0.7
2025-12-29T0800,1952A,84.8988,45.5893,克拉玛依市,南林小区,细颗粒物(PM2.5),88,106,65,65,36,36,36,35,35,16,19,2,2,1.4,0.9
2025-12-29T0800,1954A,84.905,44.3396,克拉玛依市,独山子区,细颗粒物(PM2.5),180,238,225,136,135,20,20,25,25,33,37,5,5,1.1,1.1
2025-12-29T0800,1955A,85.6979,46.098,克拉玛依市,乌尔禾区商贸楼,,48,37,49,33,49,46,46,36,36,22,24,6,5,1.0,0.7
2025-12-29T0800,3612A,85.1045,45.6899,克拉玛依市,白碱滩区新站,细颗粒物(PM2.5),122,132,78,92,49,24,24,32,32,39,28,9,8,1.3,0.8
2025-12-29T0800,2697A,76.1454,39.7142,克孜勒苏柯尔克孜自治州,市人民政府,细颗粒物(PM2.5),90,95,93,67,65,31,31,30,30,18,17,5,5,0.6,0.5
2025-12-29T0800,3665A,76.1658,39.7157,克孜勒苏柯尔克孜自治州,克州文化中心,细颗粒物(PM2.5),93,87,83,69,63,29,29,29,29,18,15,4,4,1.0,0.8
2025-12-29T0800,1450A,102.8204,24.8886,昆明市,呈贡新区,,23,22,31,16,16,52,52,53,53,13,17,4,5,0.6,0.6
2025-12-29T0800,1451A,102.6251,24.9608,昆明市,西山森林公园,,,,,,,,,,,,,,,,
2025-12-29T0800,1452A,102.7252,25.0902,昆明市,龙泉镇,,42,42,27,23,16,0,0,35,35,42,20,2,3,0.6,0.5
2025-12-29T0800,1453A,102.7266,25.0375,昆明市,东风东路,,33,27,30,23,20,41,41,54,54,28,23,4,4,0.5,0.5
2025-12-29T0800,1454A,102.6742,25.0669,昆明市,金鼎山,,37,37,33,16,15,21,21,36,36,36,18,4,4,0.5,0.4
2025-12-29T0800,1455A,102.6644,25.0401,昆明市,碧鸡广场,,39,38,30,27,20,11,11,31,31,43,23,3,4,0.7,0.5
2025-12-29T0800,3179A,102.7494,25.0119,昆明市,官渡区博物馆,,32,28,29,22,24,6,6,35,35,49,23,2,3,0.6,0.5
2025-12-29T0800,3375A,102.8017,24.8336,昆明市,青年创业园,,32,32,29,19,20,10,10,42,42,31,11,4,4,0.8,0.7
2025-12-29T0800,3550A,102.7997,24.9786,昆明市,昆明学院,,42,42,30,27,18,8,8,46,46,46,16,3,3,0.6,0.5
2025-12-29T0800,3551A,102.5967,24.6736,昆明市,晋宁区生态环境分局,,31,31,25,17,16,27,27,39,39,18,11,1,2,0.6,0.5
2025-12-29T0800,3552A,102.6678,24.9856,昆明市,云天化总部,,34,34,30,20,16,17,17,50,50,35,15,5,6,0.7,0.5
2025-12-29T0800,1456A,91.1319,29.6514,拉萨市,八廓街,,20,14,25,3,16,63,63,68,68,11,20,18,14,0.3,0.6
2025-12-29T0800,1457A,91.1221,29.6747,拉萨市,市环保局,,36,36,46,24,35,22,22,19,19,36,33,6,9,1.2,1.3
2025-12-29T0800,1458A,91.0874,29.6475,拉萨市,区监测站,,17,10,19,8,12,41,41,59,59,34,27,14,10,0.7,0.8
2025-12-29T0800,1459A,91.1774,29.6541,拉萨市,西藏大学,,19,12,18,6,9,59,59,67,67,14,17,14,12,0.4,0.4
2025-12-29T0800,1460A,90.9798,29.6588,拉萨市,区辐射站,,29,29,36,19,24,27,27,59,59,38,32,5,7,0.7,0.8
2025-12-29T0800,1461A,91.0834,29.6292,拉萨市,拉萨火车站,,17,17,22,9,13,34,34,42,42,33,32,7,8,1.0,0.8
2025-12-29T0800,2520A,109.2203,23.7256,来宾市,来宾技工学校,细颗粒物(PM2.5),75,76,74,55,48,0,0,4,4,37,32,9,10,1.1,0.8
2025-12-29T0800,3535A,109.1781,23.7297,来宾市,兴宾区政府,细颗粒物(PM2.5),60,66,60,43,37,13,13,24,24,19,16,4,7,0.7,0.7
2025-12-29T0800,4002A,109.2416,23.7461,来宾市,中南小学,细颗粒物(PM2.5),93,81,72,69,46,3,3,1,1,39,36,6,7,1.2,0.8
2025-12-29T0800,1477A,104.1373,35.9454,兰州市,榆中兰大校区,,,,,,,,,,,,,,,,
2025-12-29T0800,1479A,103.831,36.0464,兰州市,铁路设计院,,,,,,,,,,,,,,,,
2025-12-29T0800,3241A,103.7439,36.0842,兰州市,百合公园,细颗粒物(PM2.5),95,99,106,71,74,1,1,3,3,55,71,33,23,1.9,1.6
2025-12-29T0800,3242A,103.9611,35.998,兰州市,和平,细颗粒物(PM2.5),75,78,107,55,94,27,27,37,37,36,40,10,18,1.4,1.6
2025-12-29T0800,4236A,103.6293,36.0938,兰州市,庄浪东路808号,细颗粒物(PM2.5),90,98,105,67,68,6,6,21,21,67,63,15,23,1.5,1.3
2025-12-29T0800,4237A,103.7251,36.1043,兰州市,安宁西路88号,颗粒物(PM10),85,120,123,61,73,3,3,3,3,66,77,28,22,1.5,1.4
2025-12-29T0800,4238A,103.8470,36.0676,兰州市,北滨河东路1号,细颗粒物(PM2.5),102,111,111,76,69,1,1,1,1,66,70,14,19,2.6,1.8
2025-12-29T0800,3245A,103.6633,36.533,兰州新区,新区管委会,"颗粒物(PM10),细颗粒物(PM2.5)",60,70,66,43,41,14,14,33,33,32,25,8,19,0.8,0.7
2025-12-29T0800,3246A,103.6975,36.4789,兰州新区,舟曲中学,细颗粒物(PM2.5),73,83,71,53,45,11,11,32,32,52,30,6,24,0.9,0.7
2025-12-29T0800,1067A,116.6708,39.5111,廊坊市,药材公司,,22,22,147,3,124,56,56,43,43,18,64,1,7,0.3,1
2025-12-29T0800,1068A,116.7214,39.5589,廊坊市,开发区,,21,21,160,6,126,39,39,34,34,36,74,2,6,0.3,1.1
2025-12-29T0800,1070A,116.7244,39.5269,廊坊市,北华航天学院,,,19,173,3,127,,,37,37,27,67,1,5,0.3,1.1
2025-12-29T0800,2919A,116.7022,39.5453,廊坊市,河北工业大学,,18,18,171,6,117,42,42,33,33,29,67,2,7,0.3,1
2025-12-29T0800,2535A,103.7723,29.5462,乐山市,花湖湾,,,,,,,,,,,,,,,,
2025-12-29T0800,2536A,103.7627,29.5844,乐山市,牛耳桥,细颗粒物(PM2.5),113,95,96,85,81,4,4,7,7,31,36,7,8,1.2,1
2025-12-29T0800,2537A,103.7508,29.6006,乐山市,市第三水厂,细颗粒物(PM2.5),105,97,97,79,77,3,3,7,7,37,40,6,6,1.2,1.2
2025-12-29T0800,2538A,103.7571,29.5664,乐山市,市监测站,细颗粒物(PM2.5),120,107,103,91,85,14,14,5,5,31,36,6,6,1.1,1.2
2025-12-29T0800,3361A,103.7311,29.5628,乐山市,理工大学,细颗粒物(PM2.5),108,98,105,81,83,12,12,4,4,37,35,4,5,0.9,1
2025-12-29T0800,2598A,100.2143,26.8576,丽江市,西南郊,,,,,,,,,,,,,,,,
2025-12-29T0800,2599A,100.2497,26.8802,丽江市,丽江古城,,20,20,23,7,12,54,54,59,59,11,12,8,8,0.5,0.5
2025-12-29T0800,2600A,100.2203,26.8906,丽江市,市中心,,15,,14,10,8,38,38,57,57,20,13,6,6,0.4,0.3
2025-12-29T0800,1267A,119.914,28.4514,丽水市,监测站大楼,,43,38,48,30,34,4,4,1,1,30,39,7,8,0.5,0.6
2025-12-29T0800,1268A,119.93,28.4586,丽水市,莲都小学,,49,49,46,27,25,4,4,0,0,37,42,5,6,0.5,0.5
2025-12-29T0800,1269A,119.879,28.4231,丽水市,余庄前,,42,40,44,29,31,1,1,0,0,20,27,4,4,0.4,0.4
2025-12-29T0800,1173A,119.176,34.5885,连云港市,市环境监测站,细颗粒物(PM2.5),117,114,97,88,72,2,2,12,12,70,43,11,12,1.2,0.9
2025-12-29T0800,3000A,119.3581,34.6972,连云港市,德源药业,细颗粒物(PM2.5),122,127,101,92,66,3,3,10,10,77,47,8,8,1.1,0.9
2025-12-29T0800,3007A,119.178,34.844,连云港市,新城一中,细颗粒物(PM2.5),152,139,108,116,88,1,1,6,6,66,55,25,13,1.1,0.7
2025-12-29T0800,3008A,119.3608,34.7519,连云港市,胡沟管理处,细颗粒物(PM2.5),110,110,84,83,56,11,11,39,39,61,36,10,7,1.4,1.1
2025-12-29T0800,3009A,119.1478,34.5911,连云港市,矿山设计院,细颗粒物(PM2.5),107,136,96,80,63,3,3,11,11,68,43,8,8,1.4,1.1
2025-12-29T0800,3434A,119.2413,34.6539,连云港市,工贸学校,细颗粒物(PM2.5),122,108,93,92,75,4,4,39,39,60,30,11,13,1.1,0.8
2025-12-29T0800,3664A,119.4172,34.7341,连云港市,连云街道,细颗粒物(PM2.5),117,131,93,88,58,40,40,52,52,38,38,15,10,1.4,1.1
2025-12-29T0800,2571A,102.3431,27.8099,凉山彝族自治州,青龙寺,,,,,,,,,,,,,,,,
2025-12-29T0800,2572A,102.2721,27.8415,凉山彝族自治州,邛海宾馆,细颗粒物(PM2.5),109,91,99,82,83,16,16,21,21,22,26,9,12,1.6,1.4
2025-12-29T0800,2573A,102.2625,27.898,凉山彝族自治州,西昌市政府,细颗粒物(PM2.5),65,63,78,47,63,23,23,29,29,19,25,6,10,0.9,1.1
2025-12-29T0800,2574A,102.2685,27.8851,凉山彝族自治州,凉山州政府,细颗粒物(PM2.5),75,60,90,55,64,8,8,19,19,30,28,8,11,1.1,1.1
2025-12-29T0800,4229A,102.2342,27.8859,凉山彝族自治州,凯乐南路30号,细颗粒物(PM2.5),129,131,131,98,94,0,0,2,2,43,50,8,10,1.6,1.3
2025-12-29T0800,2212A,123.2,41.1953,辽阳市,宏伟区,,32,,56,22,62,51,51,56,56,13,15,9,7,0.5,0.8
2025-12-29T0800,2213A,123.1683,41.2495,辽阳市,新华园,,23,19,61,16,49,33,33,51,51,28,21,8,9,0.9,0.9
2025-12-29T0800,2214A,123.2354,41.2639,辽阳市,滨河路,,29,29,69,16,54,41,41,47,47,17,24,7,9,0.6,0.9
2025-12-29T0800,2215A,123.149,41.2991,辽阳市,铁西工业园,,45,35,66,31,52,11,11,39,39,40,23,10,11,0.7,0.7
2025-12-29T0800,2227A,125.1358,42.8845,辽源市,环保局,颗粒物(PM10),61,72,71,24,34,20,20,46,46,40,18,5,6,1.5,0.5
2025-12-29T0800,3239A,125.0764,42.9078,辽源市,银鹰制药,,33,33,51,22,36,27,27,45,45,35,18,4,6,0.6,0.5
2025-12-29T0800,1625A,115.9848,36.4372,聊城市,区政府,细颗粒物(PM2.5),193,197,156,145,111,19,19,21,21,57,49,19,12,1.5,1.1
2025-12-29T0800,2878A,116.0072,36.4343,聊城市,聊大东校,细颗粒物(PM2.5),203,205,166,153,118,22,22,21,21,52,46,16,11,1.3,1.1
2025-12-29T0800,3200A,115.9819,36.4978,聊城市,监控中心,细颗粒物(PM2.5),218,204,165,168,130,9,9,11,11,49,47,12,12,1.2,0.9
2025-12-29T0800,3513A,116.0445,36.4361,聊城市,九州社区,细颗粒物(PM2.5),205,192,162,155,117,26,26,24,24,40,38,8,6,1.1,0.9
2025-12-29T0800,4018A,116.0567,36.4608,聊城市,星美广场,细颗粒物(PM2.5),213,228,180,163,122,14,14,14,14,54,47,13,5,1.4,1
2025-12-29T0800,2632A,94.3681,29.6376,林芝市,林芝监测站,,14,11,14,7,7,43,43,52,52,4,4,5,4,0.3,0.3
2025-12-29T0800,2633A,94.3616,29.6616,林芝市,林芝人民医院,,16,16,19,10,8,41,41,44,44,3,5,4,4,0.5,0.4
2025-12-29T0800,2603A,100.0781,23.8982,临沧市,市环保局,,38,29,33,26,40,9,9,21,21,12,10,3,5,0.5,0.4
2025-12-29T0800,2604A,100.0894,23.8822,临沧市,市气象局,,40,35,39,28,27,10,10,20,20,14,12,6,8,0.6,0.4
2025-12-29T0800,1733A,111.5531,36.0783,临汾市,临钢医院,细颗粒物(PM2.5),142,159,171,108,111,4,4,12,12,36,43,5,12,2.2,2.4
2025-12-29T0800,1734A,111.5028,36.0714,临汾市,技工学校,细颗粒物(PM2.5),149,168,171,114,110,0,0,0,0,47,54,5,13,2.2,2.5
2025-12-29T0800,1736A,111.5018,36.0855,临汾市,市委,细颗粒物(PM2.5),155,185,187,118,119,1,1,1,1,49,57,8,17,2.6,2.9
2025-12-29T0800,3018A,111.505,36.1014,临汾市,唐尧大酒店,细颗粒物(PM2.5),140,165,170,107,112,0,0,1,1,45,57,4,13,2.2,2.5
2025-12-29T0800,4244A,111.4879,36.0530,临汾市,启星学校,细颗粒物(PM2.5),150,149,155,115,111,4,4,4,4,47,59,5,14,3.1,3.1
2025-12-29T0800,4271A,103.2464,35.6123,临夏回族自治州,滨河东路1号,细颗粒物(PM2.5),145,154,158,111,96,6,6,14,14,35,37,5,9,1.9,1.7
2025-12-29T0800,4310A,103.2093,35.5995,临夏回族自治州,新华街21号,细颗粒物(PM2.5),124,139,140,94,96,13,13,15,15,38,38,8,15,1.8,1.7
2025-12-29T0800,1618A,118.3429,35.0532,临沂市,沂河小区,细颗粒物(PM2.5),179,151,138,135,116,17,17,4,4,56,67,14,21,1.1,1.1
2025-12-29T0800,1619A,118.295,35.0583,临沂市,鲁南制药厂,细颗粒物(PM2.5),160,139,146,122,113,24,24,7,7,51,70,16,27,0.9,1.2
2025-12-29T0800,1620A,118.2794,34.9976,临沂市,新光毛纺厂,细颗粒物(PM2.5),178,158,153,134,118,8,8,6,6,72,68,18,29,1.4,1.2
2025-12-29T0800,1621A,118.3956,35.0888,临沂市,河东保险公司,细颗粒物(PM2.5),144,146,139,110,98,10,10,5,5,50,57,9,17,1.2,1.1
2025-12-29T0800,3370A,118.3564,35.0215,临沂市,十里堡居委,细颗粒物(PM2.5),132,146,131,100,87,17,17,5,5,59,68,14,23,1.3,1.1
2025-12-29T0800,3496A,118.3604,35.1084,临沂市,南坊新区,细颗粒物(PM2.5),140,146,128,107,94,9,9,4,4,61,65,13,18,1.1,1
2025-12-29T0800,3860A,118.3920,35.0300,临沂市,皇山花园小区,细颗粒物(PM2.5),139,151,137,106,93,17,17,9,9,54,62,16,22,1.3,1.2
2025-12-29T0800,1870A,109.4856,24.3895,柳州市,柳东小学,细颗粒物(PM2.5),54,49,74,38,43,19,19,31,31,20,19,7,10,0.8,0.7
2025-12-29T0800,1871A,109.4157,24.3277,柳州市,环保监测站,细颗粒物(PM2.5),74,91,94,54,59,1,1,3,3,40,42,13,14,1.0,0.9
2025-12-29T0800,1872A,109.389,24.341,柳州市,河西水厂,颗粒物(PM10),73,96,114,52,62,6,6,3,3,34,43,14,14,1.0,1.2
2025-12-29T0800,1873A,109.4311,24.2921,柳州市,市四中,细颗粒物(PM2.5),78,74,88,57,60,0,0,0,0,44,46,12,15,1.1,1.1
2025-12-29T0800,1874A,109.4006,24.3631,柳州市,市九中,细颗粒物(PM2.5),79,92,99,58,60,2,2,5,5,39,39,13,16,1.1,1.1
2025-12-29T0800,1875A,109.4958,24.3134,柳州市,古亭山,细颗粒物(PM2.5),62,53,56,44,38,1,1,0,0,41,31,10,10,0.7,0.5
2025-12-29T0800,3402A,109.5422,24.3996,柳州市,市二中,细颗粒物(PM2.5),57,42,53,40,40,5,5,14,14,31,27,8,8,0.8,0.8
2025-12-29T0800,2307A,116.5079,31.737,六安市,监测大楼,细颗粒物(PM2.5),70,74,61,51,49,5,5,32,32,49,33,4,4,0.8,0.5
2025-12-29T0800,2308A,116.4738,31.7643,六安市,皖西学院,细颗粒物(PM2.5),65,64,72,47,50,3,3,13,13,44,38,2,2,0.5,0.5
2025-12-29T0800,2309A,116.4996,31.7905,六安市,朝阳厂,细颗粒物(PM2.5),73,67,64,53,50,3,3,27,27,51,36,6,4,0.7,0.6
2025-12-29T0800,2310A,116.5567,31.7886,六安市,开发区,细颗粒物(PM2.5),79,93,82,58,56,3,3,10,10,43,36,3,2,0.8,0.5
2025-12-29T0800,2576A,104.8,26.5892,六盘水市,窑上,,39,38,64,27,49,27,27,34,34,11,13,2,3,0.6,0.6
2025-12-29T0800,2577A,104.83,26.5917,六盘水市,黄土坡,,35,33,56,24,46,19,19,32,32,25,19,7,7,0.9,0.7
2025-12-29T0800,2578A,104.89,26.5939,六盘水市,水钢,,28,28,59,16,52,24,24,32,32,13,15,2,6,0.6,0.6
2025-12-29T0800,2579A,104.8475,26.5894,六盘水市,民中,,35,27,56,24,48,23,23,32,32,16,18,4,5,0.7,0.8
2025-12-29T0800,2580A,104.9544,26.5506,六盘水市,双水,,28,,66,19,51,30,30,35,35,13,16,3,5,0.2,0.3
2025-12-29T0800,2335A,117.0189,25.1181,龙岩市,龙岩师专,,,,,,,,,,,,,,,,
2025-12-29T0800,2336A,117.0217,25.1033,龙岩市,龙岩市监测站,,32,32,35,22,25,7,7,17,17,25,27,15,18,0.7,0.6
2025-12-29T0800,2337A,117.0258,25.0661,龙岩市,闽西职业技术学院,,47,47,41,28,24,3,3,2,2,19,29,17,15,0.8,0.6
2025-12-29T0800,2338A,117.0196,25.0306,龙岩市,龙岩学院,,38,31,33,26,23,8,8,8,8,17,21,6,9,0.6,0.6
2025-12-29T0800,2665A,105.0822,33.3261,陇南市,汉王镇固水子,,,,,,,,,,,,,,,,
2025-12-29T0800,2885A,104.9339,33.3826,陇南市,滨江中学,颗粒物(PM10),78,105,88,41,45,4,4,12,12,41,38,13,15,1.6,1.5
2025-12-29T0800,3247A,104.955,33.371,陇南市,市总工会,颗粒物(PM10),61,71,78,40,44,12,12,24,24,29,27,3,6,1.0,1
2025-12-29T0800,2487A,111.9589,27.8901,娄底市,电视发射台,,,,,,,,,,,,,,,,
2025-12-29T0800,2488A,111.9975,27.725,娄底市,市监测站,细颗粒物(PM2.5),105,99,100,79,77,4,4,6,6,46,47,8,11,1.4,1.4
2025-12-29T0800,2489A,112.0194,27.7314,娄底市,市委党校,细颗粒物(PM2.5),98,90,93,73,67,8,8,15,15,38,44,6,8,0.9,0.8
2025-12-29T0800,2490A,111.9561,27.7569,娄底市,涟钢,细颗粒物(PM2.5),114,108,108,86,76,14,14,21,21,25,32,8,18,0.8,1.5
2025-12-29T0800,2491A,111.9892,27.7044,娄底市,市政府,细颗粒物(PM2.5),92,74,85,68,66,14,14,16,16,19,29,5,8,0.8,0.9
2025-12-29T0800,1893A,105.4324,28.9634,泸州市,九狮山,,,,,,,,,,,,,,,,
2025-12-29T0800,1894A,105.4427,28.9063,泸州市,小市上码头,细颗粒物(PM2.5),93,89,92,69,65,17,17,44,44,38,22,12,12,0.9,0.8
2025-12-29T0800,1895A,105.4241,28.8573,泸州市,兰田宪桥,细颗粒物(PM2.5),107,99,89,80,70,16,16,28,28,29,25,8,8,1.0,1
2025-12-29T0800,1896A,105.4379,28.8833,泸州市,市环监站,细颗粒物(PM2.5),88,87,85,65,63,18,18,34,34,33,21,8,8,0.8,0.7
2025-12-29T0800,4272A,105.3689,28.7783,泸州市,纳溪中医医院,细颗粒物(PM2.5),127,99,94,96,76,2,2,2,2,25,27,8,8,1.1,1
2025-12-29T0800,2183A,111.1406,37.5211,吕梁市,环保局,颗粒物(PM10),63,76,79,32,30,4,4,3,3,38,42,5,8,0.7,0.6
2025-12-29T0800,2185A,111.1297,37.5136,吕梁市,自来水公司,颗粒物(PM10),67,84,86,28,35,2,2,2,2,41,40,10,10,0.8,0.9
2025-12-29T0800,2867A,111.1283,37.51,吕梁市,马茂庄小学,颗粒物(PM10),67,84,92,24,32,1,1,0,0,41,44,6,8,0.8,0.7
2025-12-29T0800,1812A,112.3931,34.6516,洛阳市,市委党校,细颗粒物(PM2.5),119,116,95,90,71,11,11,33,33,64,37,8,10,1.4,1
2025-12-29T0800,1815A,112.494,34.6886,洛阳市,河南林校,细颗粒物(PM2.5),98,109,105,73,74,3,3,18,18,57,43,6,10,1.6,1.1
2025-12-29T0800,1816A,112.3844,34.623,洛阳市,开发区管委会,细颗粒物(PM2.5),118,115,105,89,79,24,24,38,38,36,23,8,10,1.1,0.9
2025-12-29T0800,1817A,112.4267,34.6258,洛阳市,市委新办公区,细颗粒物(PM2.5),82,77,104,60,77,38,38,46,46,28,30,9,11,0.6,0.8
2025-12-29T0800,3340A,112.6005,34.6326,洛阳市,伊滨,细颗粒物(PM2.5),87,88,107,64,73,24,24,45,45,32,28,7,10,0.7,0.8
2025-12-29T0800,3341A,112.4951,34.6332,洛阳市,中移产业园,细颗粒物(PM2.5),84,76,89,62,73,33,33,44,44,37,34,10,12,0.7,0.8
2025-12-29T0800,3593A,112.5736,34.8993,洛阳市,吉利监测站,细颗粒物(PM2.5),74,70,87,54,73,4,4,18,18,52,38,7,10,1.0,1
2025-12-29T0800,3635A,112.3677,34.662,洛阳市,河科大西苑校区,细颗粒物(PM2.5),84,95,108,62,72,2,2,20,20,54,39,9,11,1.4,1.2
2025-12-29T0800,3636A,112.4388,34.6781,洛阳市,英才小学,细颗粒物(PM2.5),125,130,124,95,90,5,5,29,29,66,48,11,14,1.7,1.4
2025-12-29T0800,4214A,112.4600,34.6949,洛阳市,春都路1号院,细颗粒物(PM2.5),110,146,131,83,76,3,3,22,22,56,39,12,15,1.7,1.2
2025-12-29T0800,2399A,114.051,33.5699,漯河市,三五一五工厂,细颗粒物(PM2.5),109,96,110,82,76,36,36,51,51,34,22,10,9,0.9,0.7
2025-12-29T0800,2400A,114.0055,33.5698,漯河市,漯河大学,细颗粒物(PM2.5),104,102,98,78,71,36,36,50,50,38,23,10,7,0.8,0.6
2025-12-29T0800,2401A,114.0138,33.5828,漯河市,市水利局,细颗粒物(PM2.5),110,110,94,83,71,30,30,42,42,40,25,10,8,0.9,0.7
2025-12-29T0800,2402A,114.0261,33.5698,漯河市,市广电局,细颗粒物(PM2.5),114,117,95,86,72,38,38,52,52,33,20,10,8,0.8,0.5
2025-12-29T0800,3478A,113.9749,33.5664,漯河市,市图书馆,细颗粒物(PM2.5),92,102,109,68,79,34,34,45,45,33,21,8,7,1.1,0.8
2025-12-29T0800,4250A,114.0892,33.5882,漯河市,韶山路11号,细颗粒物(PM2.5),84,99,103,62,71,26,26,47,47,38,23,11,10,1.0,0.8
2025-12-29T0800,1798A,118.5092,31.6837,马鞍山市,湖东路四小,细颗粒物(PM2.5),78,74,73,57,50,11,11,24,24,69,41,7,6,0.8,0.7
2025-12-29T0800,1799A,118.5024,31.6449,马鞍山市,开发区,细颗粒物(PM2.5),108,106,82,81,61,3,3,9,9,77,47,12,7,1.2,0.8
2025-12-29T0800,1802A,118.6245,31.7241,马鞍山市,濮塘,,,,,,,,,,,,,,,,
2025-12-29T0800,3633A,118.4918,31.6809,马鞍山市,雨山,细颗粒物(PM2.5),99,83,81,74,57,5,5,12,12,77,48,12,8,0.9,0.9
2025-12-29T0800,4191A,118.5274,31.72227,马鞍山市,慈湖高新区,细颗粒物(PM2.5),82,84,88,60,62,12,12,28,28,67,43,7,6,0.8,0.7
2025-12-29T0800,1686A,111.0286,21.4688,茂名市,电白南海,细颗粒物(PM2.5),58,56,63,41,35,54,54,54,54,24,27,21,15,0.8,0.8
2025-12-29T0800,1687A,110.9294,21.6533,茂名市,茂石化七小,细颗粒物(PM2.5),67,80,64,48,37,25,25,47,47,43,30,35,13,1.0,1.1
2025-12-29T0800,1688A,110.9107,21.6687,茂名市,健康路,细颗粒物(PM2.5),67,58,57,48,37,34,34,55,55,34,22,18,17,0.9,0.8
2025-12-29T0800,1689A,110.8592,21.6828,茂名市,高岭,颗粒物(PM10),75,100,85,51,43,10,10,31,31,44,31,53,24,0.8,0.8
2025-12-29T0800,3450A,111.01,21.5165,茂名市,电白水东,颗粒物(PM10),52,53,58,29,35,65,65,72,72,23,21,23,12,0.7,0.6
2025-12-29T0800,2539A,104.0308,30.0478,眉山市,黑龙滩水库,,,,,,,,,,,,,,,,
2025-12-29T0800,2540A,103.8416,30.0874,眉山市,气象局,细颗粒物(PM2.5),147,115,110,112,91,4,4,20,20,38,28,10,10,1.0,0.9
2025-12-29T0800,3137A,103.8578,30.0744,眉山市,市委党校,细颗粒物(PM2.5),128,112,100,97,82,1,1,26,26,40,28,8,7,0.9,0.9
2025-12-29T0800,3148A,103.8291,30.0564,眉山市,区人社局,细颗粒物(PM2.5),138,130,109,105,87,3,3,18,18,37,30,7,8,0.9,0.8
2025-12-29T0800,1690A,116.1231,24.3284,梅州市,梅江月梅,,44,44,40,26,25,2,2,3,3,23,28,5,6,0.6,0.5
2025-12-29T0800,1691A,116.0797,24.2719,梅州市,梅县新城,,33,33,47,22,35,7,7,11,11,25,31,7,8,0.7,0.7
2025-12-29T0800,1692A,116.1248,24.2654,梅州市,环境监控中心,,36,28,37,25,27,7,7,8,8,31,32,25,14,0.5,0.5
2025-12-29T0800,3315A,116.1233,24.2991,梅州市,梅龙,,32,29,37,22,24,8,8,12,12,20,23,7,9,0.6,0.6
2025-12-29T0800,1878A,104.7778,31.4741,绵阳市,富乐山,细颗粒物(PM2.5),95,83,97,71,80,2,2,9,9,26,20,11,11,0.8,0.7
2025-12-29T0800,1880A,104.6697,31.4668,绵阳市,高新区自来水公司,细颗粒物(PM2.5),98,97,107,73,82,1,1,6,6,34,33,8,8,1.0,1
2025-12-29T0800,1881A,104.7287,31.5075,绵阳市,三水厂,细颗粒物(PM2.5),115,115,121,87,94,1,1,2,2,28,32,8,7,1.1,0.8
2025-12-29T0800,3491A,104.69,31.5322,绵阳市,西科大附属小学,细颗粒物(PM2.5),95,102,119,71,88,7,7,6,6,25,28,8,8,1.1,1
2025-12-29T0800,3492A,104.5648,31.5343,绵阳市,安州区旅游局,细颗粒物(PM2.5),113,93,92,85,91,3,3,15,15,30,28,14,12,1.2,0.9
2025-12-29T0800,4226A,104.7651,31.4531,绵阳市,绵阳市气象局,细颗粒物(PM2.5),112,109,98,84,77,2,2,10,10,27,21,13,8,1.5,1.3
2025-12-29T0800,1784A,129.61,44.561,牡丹江市,环保大楼,,46,44,49,32,35,34,34,53,53,41,23,9,12,0.6,0.6
2025-12-29T0800,1785A,129.6115,44.5782,牡丹江市,文化广场,,49,42,57,34,41,23,23,48,48,49,27,8,9,0.8,0.7
2025-12-29T0800,1787A,129.6364,44.6075,牡丹江市,机车工厂,颗粒物(PM10),68,86,61,46,42,15,15,34,34,51,35,8,8,0.6,0.6
2025-12-29T0800,1788A,129.6386,44.5462,牡丹江市,第一中学,,46,,45,32,39,20,20,43,43,42,21,7,8,0.5,0.5
2025-12-29T0800,4287A,129.5992,44.5964,牡丹江市,东晓云街98号,细颗粒物(PM2.5),73,92,62,53,58,12,12,42,42,59,33,13,7,1.3,0.8
2025-12-29T0800,2531A,105.0703,29.61,内江市,市监测站,细颗粒物(PM2.5),83,64,67,61,61,40,40,51,51,18,18,6,6,0.8,0.8
2025-12-29T0800,2532A,105.0717,29.5947,内江市,东兴区政府,细颗粒物(PM2.5),77,62,66,56,54,27,27,42,42,27,23,5,5,0.6,0.6
2025-12-29T0800,2533A,105.0653,29.5817,内江市,内江二中,细颗粒物(PM2.5),82,83,79,60,58,26,26,42,42,31,21,5,5,0.9,0.8
2025-12-29T0800,2534A,105.0406,29.5822,内江市,内江日报社,细颗粒物(PM2.5),82,62,70,60,59,36,36,41,41,24,27,3,3,0.6,0.7
2025-12-29T0800,2628A,92.0657,31.4846,那曲市,那曲监测站,细颗粒物(PM2.5),58,45,60,41,38,34,34,32,32,28,32,10,12,1.3,1.5
2025-12-29T0800,4243A,92.0515,31.4787,那曲市,那曲市委宣传部,,20,20,24,13,14,28,28,25,25,18,17,6,7,1.1,1
2025-12-29T0800,1290A,115.8931,28.6843,南昌市,省外办,细颗粒物(PM2.5),89,80,88,66,74,6,6,5,5,64,58,10,9,1.3,1.8
2025-12-29T0800,1291A,115.8886,28.7003,南昌市,省林业公司,细颗粒物(PM2.5),79,73,68,58,53,3,3,1,1,70,60,6,5,0.9,1
2025-12-29T0800,1292A,115.8126,28.7442,南昌市,林科所,细颗粒物(PM2.5),64,61,62,46,46,3,3,18,18,57,56,6,8,0.3,0.6
2025-12-29T0800,1294A,115.8518,28.687,南昌市,建工学校,,,72,82,53,59,2,2,1,1,69,67,,14,1.1,1.3
2025-12-29T0800,1295A,115.8921,28.6424,南昌市,象湖,细颗粒物(PM2.5),85,77,72,63,52,1,1,0,0,66,62,10,12,1.1,1.4
2025-12-29T0800,1296A,115.7423,28.7996,南昌市,武术学校,,,,,,,,,,,,,,,,
2025-12-29T0800,3046A,115.9084,28.6062,南昌市,机电学校,细颗粒物(PM2.5),100,107,94,75,68,3,3,3,3,69,62,6,7,1.1,0.9
2025-12-29T0800,3690A,115.9721,28.7031,南昌市,外国语学校,细颗粒物(PM2.5),108,111,90,81,68,3,3,8,8,61,52,12,13,0.8,0.8
2025-12-29T0800,4192A,115.9316,28.68677,南昌市,南京东路235号,细颗粒物(PM2.5),115,93,106,87,79,6,6,5,5,58,66,7,8,0.4,0.8
2025-12-29T0800,1905A,106.056,30.8064,南充市,西山风景区,,,,,,,,,,,,,,,,
2025-12-29T0800,1906A,106.0789,30.8023,南充市,南充市委,细颗粒物(PM2.5),83,71,71,61,60,2,2,13,13,36,32,5,5,0.8,0.8
2025-12-29T0800,1907A,106.1031,30.8217,南充市,南充炼油厂,细颗粒物(PM2.5),105,84,78,79,63,1,1,20,20,36,26,7,7,1.0,0.9
2025-12-29T0800,4227A,106.1083,30.7884,南充市,梨树横街98号,细颗粒物(PM2.5),89,77,70,66,56,5,5,18,18,38,30,6,6,1.0,0.8
2025-12-29T0800,4304A,106.1172,30.843,南充市,清泉寺北路188号,细颗粒物(PM2.5),74,79,56,54,49,14,14,26,26,32,20,6,6,0.8,0.7
2025-12-29T0800,4305A,106.067,30.7616,南充市,同庆路1号,细颗粒物(PM2.5),83,82,72,61,55,7,7,14,14,33,32,7,6,0.8,0.8
2025-12-29T0800,1151A,118.8086,32.1065,南京市,迈皋桥,细颗粒物(PM2.5),67,73,63,48,44,13,13,22,22,62,37,4,4,0.3,0.1
2025-12-29T0800,1152A,118.7538,32.0551,南京市,草场门,细颗粒物(PM2.5),67,73,66,48,44,3,3,8,8,81,54,10,8,0.9,0.6
2025-12-29T0800,1153A,118.7794,32.0745,南京市,山西路,颗粒物(PM10),68,85,73,46,44,7,7,22,22,82,54,4,4,0.9,0.7
2025-12-29T0800,1154A,118.7752,32.0023,南京市,中华门,细颗粒物(PM2.5),70,80,60,51,42,0,0,8,8,49,36,4,4,1.0,0.6
2025-12-29T0800,1155A,118.8109,32.0309,南京市,瑞金路,细颗粒物(PM2.5),70,88,69,51,50,2,2,1,1,92,56,4,4,1.2,0.8
2025-12-29T0800,1156A,118.7997,32.0754,南京市,玄武湖,细颗粒物(PM2.5),67,70,69,48,43,6,6,22,22,23,21,4,4,1.1,0.9
2025-12-29T0800,1157A,118.6414,32.0931,南京市,浦口,"颗粒物(PM10),细颗粒物(PM2.5)",58,66,76,41,47,25,25,23,23,46,49,9,12,0.6,0.8
2025-12-29T0800,1158A,118.7356,31.9996,南京市,奥体中心,"颗粒物(PM10),细颗粒物(PM2.5)",67,83,66,48,45,6,6,5,5,65,53,3,4,1.0,0.7
2025-12-29T0800,1159A,118.9125,32.1028,南京市,仙林大学城,细颗粒物(PM2.5),73,78,66,53,42,4,4,21,21,68,40,9,9,1.0,0.8
2025-12-29T0800,3422A,118.8436,31.9198,南京市,江宁彩虹桥,细颗粒物(PM2.5),70,84,73,51,47,1,1,2,2,62,48,3,5,0.6,0.5
2025-12-29T0800,3427A,118.8554,32.3578,南京市,六合雄州,细颗粒物(PM2.5),69,76,83,50,50,8,8,14,14,60,54,11,12,0.8,0.8
2025-12-29T0800,4249A,118.8708,31.3402,南京市,汶溪路181号,细颗粒物(PM2.5),70,54,53,51,45,20,20,28,28,40,34,8,7,0.7,0.6
2025-12-29T0800,4312A,119.019,31.6512,南京市,中山西路1号,,,,51,,45,,,38,,,31,,4,,0.7
2025-12-29T0800,1401A,108.3103,22.7881,南宁市,二十一中,细颗粒物(PM2.5),89,79,68,66,54,38,38,47,47,31,27,5,7,0.9,0.8
2025-12-29T0800,1402A,108.3141,22.8528,南宁市,北湖,细颗粒物(PM2.5),74,75,73,54,50,25,25,24,24,44,43,4,8,0.8,0.8
2025-12-29T0800,1403A,108.3206,22.8225,南宁市,市监测站,细颗粒物(PM2.5),69,72,73,50,48,11,11,36,36,52,33,7,11,0.9,0.8
2025-12-29T0800,1404A,108.3829,22.8037,南宁市,大自然花园,细颗粒物(PM2.5),73,73,72,53,48,30,30,40,40,40,32,6,8,0.7,0.7
2025-12-29T0800,1405A,108.4394,22.7904,南宁市,仙葫,,,,,,,,,,,,,,,,
2025-12-29T0800,1406A,108.2397,22.8467,南宁市,区农职院,"颗粒物(PM10),细颗粒物(PM2.5)",60,70,73,43,49,7,7,14,14,46,40,8,10,0.9,0.9
2025-12-29T0800,1407A,108.3275,22.735,南宁市,英华嘉园,细颗粒物(PM2.5),94,85,71,70,58,38,38,48,48,33,35,5,7,0.8,0.7
2025-12-29T0800,3401A,108.4834,22.7618,南宁市,红星社区,细颗粒物(PM2.5),74,74,72,54,40,28,28,39,39,31,27,6,8,0.8,0.7
2025-12-29T0800,4221A,108.2177,22.7774,南宁市,乐贤路16号,细颗粒物(PM2.5),82,105,87,60,52,20,20,21,21,50,50,5,5,0.8,0.7
2025-12-29T0800,2331A,118.0966,26.6761,南平市,茫荡山,,,,12,,8,,,73,,,,,2,,
2025-12-29T0800,2332A,118.1681,26.6369,南平市,南平市监测站,,43,40,31,30,24,3,3,1,1,25,25,4,7,0.6,0.6
2025-12-29T0800,2333A,118.1825,26.6489,南平市,南平铝业有限公司,,45,36,30,31,25,0,0,0,0,27,27,21,12,1.0,0.8
2025-12-29T0800,2334A,118.1756,26.6272,南平市,南平七中,,38,27,32,26,25,3,3,2,2,25,22,4,6,0.6,0.6
2025-12-29T0800,1168A,120.9098,31.9663,南通市,狼山街道,细颗粒物(PM2.5),97,96,80,72,60,7,7,15,15,36,54,2,4,1.2,0.9
2025-12-29T0800,1169A,120.86,32.0005,南通市,虹桥,细颗粒物(PM2.5),133,124,77,101,60,11,11,24,24,69,67,10,7,1.3,0.9
2025-12-29T0800,1170A,120.87,32.02,南通市,城中,细颗粒物(PM2.5),127,125,88,96,60,14,14,22,22,66,67,8,7,0.8,0.7
2025-12-29T0800,1171A,120.94,31.93,南通市,星湖花园,细颗粒物(PM2.5),118,116,86,89,65,9,9,21,21,68,68,6,7,1.1,0.9
2025-12-29T0800,1172A,120.81,32.0417,南通市,紫琅学院,细颗粒物(PM2.5),132,135,93,100,63,5,5,20,20,74,69,6,8,0.8,0.9
2025-12-29T0800,3291A,121.067,32.062,南通市,通州监测站,细颗粒物(PM2.5),128,119,86,97,64,13,13,27,27,75,71,5,7,0.9,0.8
2025-12-29T0800,3432A,120.9348,31.9883,南通市,环境教育馆,细颗粒物(PM2.5),114,102,84,86,65,7,7,6,6,58,75,5,7,0.7,0.7
2025-12-29T0800,2404A,112.5224,33.0122,南阳市,瓦房庄,细颗粒物(PM2.5),123,126,125,93,105,5,5,16,16,38,27,6,7,1.2,0.9
2025-12-29T0800,2405A,112.5003,32.9735,南阳市,汉画馆,细颗粒物(PM2.5),130,129,129,99,101,2,2,5,5,36,32,5,7,1.2,1
2025-12-29T0800,2406A,112.5573,33.027,南阳市,气象站,细颗粒物(PM2.5),107,125,140,80,94,23,23,24,24,27,27,5,6,0.7,0.7
2025-12-29T0800,2407A,112.5481,32.9689,南阳市,理工学院,细颗粒物(PM2.5),115,127,124,87,83,4,4,16,16,38,30,5,7,1.2,1
2025-12-29T0800,4008A,112.5234,32.9922,南阳市,卧龙区政府,细颗粒物(PM2.5),123,133,142,93,98,5,5,17,17,43,32,5,7,1.2,0.9
2025-12-29T0800,1234A,121.8358,29.911,宁波市,区环保大楼,,37,37,49,24,29,4,4,25,25,67,62,7,7,1.0,0.7
2025-12-29T0800,1235A,121.56,29.82,宁波市,万里学院,,46,46,58,30,38,8,8,12,12,54,54,5,6,0.6,0.6
2025-12-29T0800,1236A,121.713,29.9572,宁波市,龙赛医院,颗粒物(PM10),55,60,63,37,46,1,1,17,17,62,58,5,4,0.5,0.5
2025-12-29T0800,1239A,121.633,29.7733,宁波市,钱湖水厂,,29,29,36,19,26,39,39,54,54,19,22,5,6,0.7,0.6
2025-12-29T0800,1240A,121.5856,29.8635,宁波市,太古小学,,41,41,55,27,38,4,4,24,24,61,45,4,3,0.8,0.6
2025-12-29T0800,1241A,121.524,29.8674,宁波市,市环境监测中心,"颗粒物(PM10),细颗粒物(PM2.5)",52,54,68,36,48,5,5,21,21,38,49,6,7,0.9,0.8
2025-12-29T0800,2871A,121.6147,29.9017,宁波市,万里国际学校,颗粒物(PM10),54,58,60,36,38,2,2,28,28,64,49,4,5,0.9,0.5
2025-12-29T0800,3710A,121.5594,29.8975,宁波市,白沙活动中心,,47,47,66,25,47,6,6,9,9,52,58,4,5,0.7,0.5
2025-12-29T0800,2339A,119.5001,26.6946,宁德市,金涵水库,,,,19,,11,,,44,,,10,,2,,0.3
2025-12-29T0800,2341A,119.5388,26.6612,宁德市,宁德市监测站,,18,13,21,12,13,26,26,29,29,18,18,6,6,0.7,0.6
2025-12-29T0800,3209A,119.5231,26.6562,宁德市,宁德一中,,15,15,21,3,16,20,20,33,33,25,16,4,4,0.7,0.5
2025-12-29T0800,2618A,98.8601,25.8567,怒江傈僳族自治州,州监测站,,29,25,32,20,22,24,24,26,26,10,12,7,7,0.4,0.4
2025-12-29T0800,2619A,98.8546,25.8417,怒江傈僳族自治州,泸水一中,,25,,28,17,21,9,9,14,14,16,19,6,5,0.5,0.6
2025-12-29T0800,1888A,101.6891,26.571,攀枝花市,弄弄坪,颗粒物(PM10),52,54,60,30,39,5,5,15,15,29,26,7,14,1.0,1.1
2025-12-29T0800,1889A,101.5769,26.5928,攀枝花市,河门口,"颗粒物(PM10),细颗粒物(PM2.5)",54,57,60,38,40,8,8,12,12,24,25,11,22,1.3,1.4
2025-12-29T0800,1890A,101.7169,26.585,攀枝花市,炳草岗,细颗粒物(PM2.5),95,95,73,71,48,0,0,1,1,33,39,8,13,1.0,1.1
2025-12-29T0800,1891A,101.7369,26.5008,攀枝花市,仁和,,39,38,55,27,37,5,5,14,14,22,22,6,10,0.8,0.9
2025-12-29T0800,2835A,101.7227,26.567,攀枝花市,四十中小,细颗粒物(PM2.5),62,72,67,44,45,2,2,4,4,35,43,9,14,1.2,1.3
2025-12-29T0800,1604A,122.0303,41.1489,盘锦市,开发区,,12,,72,8,68,36,36,49,49,15,18,5,6,0.6,0.9
2025-12-29T0800,1605A,122.0485,41.0883,盘锦市,兴隆台,,21,21,59,8,64,39,39,51,51,27,28,8,7,0.6,0.9
2025-12-29T0800,1606A,121.8297,41.1028,盘锦市,新生街道,,12,11,70,8,67,37,37,48,48,22,37,6,6,0.2,0.5
2025-12-29T0800,1832A,113.3257,33.742,平顶山市,新华旅馆,"颗粒物(PM10),细颗粒物(PM2.5)",69,87,105,50,70,46,46,66,66,32,28,16,10,0.9,0.8
2025-12-29T0800,1833A,113.2919,33.737,平顶山市,规划设计院,颗粒物(PM10),75,99,129,52,77,33,33,45,45,48,40,10,8,0.8,0.8
2025-12-29T0800,1834A,113.182,33.774,平顶山市,平顶山工学院,"颗粒物(PM10),细颗粒物(PM2.5)",62,74,99,44,68,54,54,57,57,23,24,14,9,0.6,0.6
2025-12-29T0800,3204A,113.3025,33.73,平顶山市,规划局,"颗粒物(PM10),细颗粒物(PM2.5)",68,85,114,49,76,42,42,54,54,37,32,13,9,0.9,0.8
2025-12-29T0800,3594A,112.8867,33.9116,平顶山市,石龙区,颗粒物(PM10),54,58,101,33,61,57,57,63,63,22,41,7,7,0.5,0.6
2025-12-29T0800,2656A,106.6692,35.5461,平凉市,聚贤嘉苑,,25,25,39,14,22,46,46,48,48,25,22,8,6,0.5,0.5
2025-12-29T0800,2657A,106.7021,35.5307,平凉市,博物馆,,34,34,43,20,26,39,39,48,48,29,22,11,11,0.6,0.7
2025-12-29T0800,2347A,114.0997,27.5002,萍乡市,武功山,,,,,,,,,,,,,,,,
2025-12-29T0800,2348A,113.8385,27.6434,萍乡市,中医院,颗粒物(PM10),81,112,109,56,72,2,2,3,3,35,47,9,10,1.4,1.5
2025-12-29T0800,2349A,113.8493,27.6253,萍乡市,市政府车库,细颗粒物(PM2.5),78,103,92,57,74,5,5,10,10,32,35,8,10,1.7,1.6
2025-12-29T0800,2350A,113.8676,27.6435,萍乡市,市环保局,细颗粒物(PM2.5),79,74,82,58,62,7,7,18,18,46,40,23,20,0.7,0.8
2025-12-29T0800,2351A,113.866,27.6198,萍乡市,安源区政府,细颗粒物(PM2.5),107,110,94,80,78,4,4,7,7,39,39,14,15,1.7,1.6
2025-12-29T0800,2319A,119.0141,25.4325,莆田市,荔城区仓后路,,28,27,28,19,10,29,29,55,55,29,15,3,3,0.9,0.5
2025-12-29T0800,2320A,119.0015,25.4553,莆田市,莆田市监测站,,20,13,19,10,6,62,62,56,56,7,10,4,4,0.4,0.4
2025-12-29T0800,2321A,119.1119,25.4561,莆田市,涵江区六中,,23,23,24,16,12,37,37,46,46,30,21,5,4,0.5,0.4
2025-12-29T0800,2322A,119.1013,25.3215,莆田市,秀屿区政府,,26,25,24,18,11,47,47,54,54,24,18,4,5,0.6,0.5
2025-12-29T0800,2323A,118.981,25.4792,莆田市,东圳水库,,,,16,,9,,,79,,,2,,4,,0.3
2025-12-29T0800,2392A,115.0312,35.7636,濮阳市,环保局,细颗粒物(PM2.5),201,169,133,151,114,4,4,18,18,54,39,7,8,1.6,1.2
2025-12-29T0800,2394A,115.0574,35.7609,濮阳市,油田运输公司,细颗粒物(PM2.5),206,208,170,156,118,7,7,18,18,61,49,8,9,1.7,1.3
2025-12-29T0800,3021A,115,35.7668,濮阳市,濮水河管理处,细颗粒物(PM2.5),203,198,169,153,119,5,5,8,8,47,39,5,7,1.5,1.2
2025-12-29T0800,4216A,115.0924,35.7686,濮阳市,任丘路479号,细颗粒物(PM2.5),224,214,167,174,134,3,3,4,4,75,60,9,10,1.4,0.9
2025-12-29T0800,2601A,100.98,22.7633,普洱市,市环保局,,38,38,43,9,13,11,11,17,17,11,10,6,4,0.4,0.4
2025-12-29T0800,2602A,100.9817,22.8322,普洱市,普洱第二中学,,32,32,37,16,18,3,3,4,4,15,16,4,5,0.5,0.4
2025-12-29T0800,2262A,131.0518,45.8751,七台河市,新一中,,,,,,,,,,,,,,,,
2025-12-29T0800,3345A,131.0577,45.7879,七台河市,中波台,,43,39,52,30,34,45,45,50,50,23,19,9,10,0.5,0.5
2025-12-29T0800,3637A,131.0176,45.7761,七台河市,人民广场,细颗粒物(PM2.5),54,39,48,38,37,44,44,55,55,28,19,15,8,0.6,0.6
2025-12-29T0800,3684A,130.8781,45.8222,七台河市,新建矿广场,颗粒物(PM10),53,56,59,34,32,34,34,48,48,29,20,23,8,0.4,0.6
2025-12-29T0800,1779A,123.9305,47.3636,齐齐哈尔市,安居小区,,19,15,42,13,34,40,40,52,52,24,21,5,6,0.9,0.8
2025-12-29T0800,1780A,123.9488,47.3386,齐齐哈尔市,中心广场,,18,18,40,7,27,38,38,50,50,17,16,7,8,0.6,0.7
2025-12-29T0800,1781A,123.9483,47.3227,齐齐哈尔市,农牧车辆厂,,14,14,43,8,27,37,37,46,46,18,21,5,5,0.7,0.8
2025-12-29T0800,1783A,123.945,47.2988,齐齐哈尔市,市环境监测站,,23,23,48,10,32,38,38,47,47,16,19,6,7,0.7,0.8
2025-12-29T0800,3662A,123.6333,47.2075,齐齐哈尔市,富区青少年活动中心,颗粒物(PM10),66,82,58,36,37,35,35,46,46,28,27,22,11,1.8,1.1
2025-12-29T0800,2591A,107.9783,26.5747,黔东南苗族侗族自治州,市环境监测站,细颗粒物(PM2.5),68,66,69,49,50,1,1,5,5,35,36,6,7,1.0,0.8
2025-12-29T0800,2881A,107.8908,26.5311,黔东南苗族侗族自治州,凯里学院,细颗粒物(PM2.5),63,61,76,45,51,0,0,5,5,31,32,5,6,0.7,0.8
2025-12-29T0800,2593A,107.5228,26.2403,黔南布依族苗族自治州,小围寨,,45,31,50,31,35,25,25,22,22,7,12,8,8,0.5,0.7
2025-12-29T0800,3538A,107.5175,26.2978,黔南布依族苗族自治州,沙坝,,49,46,56,34,40,32,32,28,28,11,17,4,6,0.7,0.8
2025-12-29T0800,2589A,104.9022,25.0925,黔西南布依族苗族自治州,场坝街,,23,23,39,12,28,33,33,35,35,8,10,2,2,0.6,0.6
2025-12-29T0800,2590A,104.8811,25.0992,黔西南布依族苗族自治州,坪东大道,,28,28,41,17,32,32,32,34,34,7,9,4,5,0.6,0.6
2025-12-29T0800,2502A,108.6236,21.9667,钦州市,市环保站,细颗粒物(PM2.5),98,112,113,73,67,31,31,32,32,34,35,6,5,1.0,1.1
2025-12-29T0800,2503A,108.6549,21.9481,钦州市,沙埠小学,细颗粒物(PM2.5),113,86,104,85,77,15,15,14,14,42,44,12,10,1.0,1
2025-12-29T0800,2504A,108.5989,21.7431,钦州市,港区一小,细颗粒物(PM2.5),84,85,95,62,59,36,36,24,24,37,44,9,9,0.7,0.8
2025-12-29T0800,3404A,108.5959,21.9633,钦州市,北职校,细颗粒物(PM2.5),112,102,96,84,68,18,18,21,21,36,32,10,9,0.9,1
2025-12-29T0800,1043A,119.7493,40.0116,秦皇岛市,第一关,颗粒物(PM10),52,53,162,24,125,26,26,13,13,44,64,10,14,0.3,1.4
2025-12-29T0800,1044A,119.5897,39.9499,秦皇岛市,监测站,颗粒物(PM10),55,59,159,35,118,11,11,13,13,59,68,11,17,1.0,1.7
2025-12-29T0800,1046A,119.5251,39.9041,秦皇岛市,建设大厦,细颗粒物(PM2.5),55,51,171,39,122,22,22,13,13,42,65,9,15,0.6,1.6
2025-12-29T0800,3132A,119.610547,39.943889,秦皇岛市,文明里,颗粒物(PM10),51,52,165,31,104,23,23,15,15,37,60,14,18,0.2,1.2
2025-12-29T0800,4198A,119.5090,39.8253,秦皇岛市,北戴河轮滑馆,,47,47,171,15,119,48,48,33,33,25,69,10,11,0.3,1.7
2025-12-29T0800,1307A,120.6659,36.2403,青岛市,仰口,,,,,,,,,,,,,,,,
2025-12-29T0800,1310A,120.4134,36.0658,青岛市,市南区东部子站,细颗粒物(PM2.5),163,195,108,124,66,7,7,24,24,65,45,12,13,1.3,1
2025-12-29T0800,1311A,120.3664,36.1032,青岛市,四方区子站,细颗粒物(PM2.5),178,197,115,134,76,12,12,23,23,64,44,7,8,1.5,1.1
2025-12-29T0800,1312A,120.2994,36.054,青岛市,市南区西部子站,细颗粒物(PM2.5),160,183,105,122,67,3,3,6,6,54,49,6,8,1.2,1
2025-12-29T0800,1313A,120.4581,36.0858,青岛市,崂山区子站,细颗粒物(PM2.5),163,185,101,124,63,13,13,32,32,66,43,14,14,1.4,1
2025-12-29T0800,1315A,120.3999,36.3083,青岛市,城阳区子站,细颗粒物(PM2.5),144,193,124,110,67,12,12,12,12,66,59,11,11,1.7,1.2
2025-12-29T0800,3362A,120.5014,36.4034,青岛市,即墨2号,细颗粒物(PM2.5),226,190,129,176,107,5,5,11,11,53,44,13,13,1.7,1.2
2025-12-29T0800,3642A,120.3503,36.0736,青岛市,市北区南部,细颗粒物(PM2.5),168,162,103,127,66,5,5,16,16,55,37,8,7,1.1,0.9
2025-12-29T0800,3643A,120.3948,36.1805,青岛市,李沧区北部,细颗粒物(PM2.5),199,190,114,149,83,8,8,26,26,69,52,12,12,1.7,1.3
2025-12-29T0800,4290A,120.1969,35.9546,青岛市,珠江路669号,细颗粒物(PM2.5),185,178,97,139,75,17,17,44,44,55,38,12,15,1.2,0.9
2025-12-29T0800,4291A,120.0424,35.8656,青岛市,黄岛区人民政府广场,细颗粒物(PM2.5),170,183,118,129,76,21,21,30,30,60,59,14,13,1.4,1.3
