timepoint,stationcode,longitude,latitude,area,positionname,primarypollutant,aqi,pm10,pm10_24h,pm2_5,pm2_5_24h,o3,o3_24h,o3_8h,o3_8h_24h,no2,no2_24h,so2,so2_24h,co,co_24h
2025-06-08T1200,2566A,102.1879,31.914,阿坝藏族羌族自治州,州农科所,颗粒物(PM10),56,62,23,12,9,66,,53,53,14,11,12,12,0.5,0.5
2025-06-08T1200,2568A,102.2502,31.8896,阿坝藏族羌族自治州,马师校,,32,,18,22,16,64,,49,49,11,9,6,6,0.6,0.6
2025-06-08T1200,3994A,102.2165,31.9024,阿坝藏族羌族自治州,马尔康中学西区,,23,,15,15,17,73,,56,56,5,4,5,5,0.5,0.6
2025-06-08T1200,2695A,80.292,41.1694,阿克苏地区,电视台,颗粒物(PM10),138,225,85,49,33,97,,66,66,7,17,4,5,0.2,0.3
2025-06-08T1200,2696A,80.2613,41.1551,阿克苏地区,艺术中心,颗粒物(PM10),154,257,89,61,34,100,,70,70,6,23,4,4,0.4,0.5
2025-06-08T1200,2204A,105.6467,38.8363,阿拉善盟,西城区西花园,,41,28,33,14,22,129,,119,119,7,9,5,6,0.5,0.5
2025-06-08T1200,2205A,105.6985,38.8411,阿拉善盟,蒙二幼,,34,30,41,16,16,108,,102,102,5,6,10,10,0.4,0.3
2025-06-08T1200,2206A,105.724,38.8516,阿拉善盟,环保局新楼,,37,36,37,15,14,117,,113,113,3,4,9,9,0.3,0.3
2025-06-08T1200,2708A,88.1264,47.8517,阿勒泰地区,市站,,,,25,,5,90,,79,77,8,6,1,2,0.5,0.4
2025-06-08T1200,2630A,80.1161,32.5,阿里地区,阿里监测站,,40,17,14,12,10,128,,125,121,6,8,7,7,0.3,0.3
2025-06-08T1200,3192A,80.0903,32.5028,阿里地区,阿里藏医院,,44,24,29,12,11,139,,132,128,2,5,6,6,0.3,0.4
2025-06-08T1200,2642A,109.0318,32.6537,安康市,香溪洞,,27,27,16,8,5,62,,61,59,4,4,6,6,0.6,0.5
2025-06-08T1200,2644A,109.0072,32.6975,安康市,汉滨区检察院,,40,40,28,13,11,45,,39,36,9,7,7,7,0.6,0.5
2025-06-08T1200,4054A,109.0325,32.6913,安康市,市邮政管理局,,38,38,25,14,10,59,,43,43,11,11,5,5,0.7,0.7
2025-06-08T1200,2291A,117.0809,30.5177,安庆市,环科院,,28,10,12,8,10,87,,73,73,4,9,2,2,0.7,0.8
2025-06-08T1200,2292A,117.0331,30.5119,安庆市,马山宾馆,,27,8,12,7,10,86,,72,72,4,8,3,4,0.7,0.7
2025-06-08T1200,2294A,116.9896,30.6145,安庆市,安庆大学,,28,9,12,3,8,89,,81,81,4,7,3,4,0.5,0.6
2025-06-08T1200,3173A,117.0598,30.5351,安庆市,市人大,,30,8,12,7,9,93,,79,79,4,9,2,3,0.6,0.6
2025-06-08T1200,3122A,105.9606,26.2611,安顺市,伍家关,,27,22,38,16,21,86,,79,75,8,7,2,3,0.3,0.4
2025-06-08T1200,3123A,105.9408,26.2431,安顺市,凤凰山,细颗粒物(PM2.5),54,,48,38,43,106,,104,102,11,8,10,7,0.6,0.5
2025-06-08T1200,3124A,105.9439,26.2564,安顺市,金钟山,,50,43,49,35,40,96,,96,86,8,6,7,5,0.5,0.5
2025-06-08T1200,3125A,105.8983,26.2481,安顺市,娄家坡,,49,36,39,34,34,89,,104,102,13,7,3,5,0.5,0.5
2025-06-08T1200,1818A,114.4839,36.0621,安阳市,棉研所,,,,,,,,,,,,,,,,
2025-06-08T1200,1819A,114.3551,36.1017,安阳市,红庙街,臭氧1小时,108,111,126,40,35,216,,141,141,2,5,6,6,0.6,0.6
2025-06-08T1200,1820A,114.361,36.0681,安阳市,银杏小区,臭氧1小时,107,107,131,42,42,213,,144,144,1,5,6,7,0.6,0.7
2025-06-08T1200,3141A,114.3922,36.0878,安阳市,信访局,臭氧1小时,110,105,124,47,43,220,,144,144,3,6,6,7,1.0,1
2025-06-08T1200,3669A,114.4705,36.0637,安阳市,左辅环卫站,臭氧1小时,109,125,148,34,45,218,,139,139,8,14,5,7,0.7,0.8
2025-06-08T1200,3703A,114.2917,36.0949,安阳市,安钢职工学校,臭氧1小时,105,122,127,42,42,209,,139,139,4,11,9,11,0.7,0.8
2025-06-08T1200,1748A,123.044,41.1196,鞍山市,深沟寺,,46,22,21,10,11,147,,112,112,12,17,10,8,0.7,0.8
2025-06-08T1200,1749A,123.011,41.0931,鞍山市,太阳城,,46,19,28,3,13,145,,111,111,19,17,12,11,0.6,0.8
2025-06-08T1200,1750A,123.0485,41.1442,鞍山市,太平,,45,29,33,10,12,141,,109,109,12,18,12,10,0.9,1
2025-06-08T1200,1751A,122.9642,41.0971,鞍山市,铁西三道街,,46,41,42,14,17,145,,98,98,17,34,14,13,0.7,1
2025-06-08T1200,1753A,123.022,41.0821,鞍山市,明达新区,,44,21,26,8,12,138,,110,110,10,16,11,10,0.6,0.7
2025-06-08T1200,1754A,123.1289,41.0228,鞍山市,千山,,,,15,,6,,,94,,,10,,4,,0.4
2025-06-08T1200,4201A,122.9446,41.0826,鞍山市,兴盛南路290号,,45,30,47,10,15,143,,98,98,18,31,16,13,0.6,0.9
2025-06-08T1200,2195A,107.4212,40.761,巴彦淖尔市,附二中,,38,31,34,16,14,121,,68,68,8,16,9,10,0.4,0.4
2025-06-08T1200,2196A,107.37,40.7372,巴彦淖尔市,市环保大楼,,41,41,33,6,15,131,,74,74,10,16,8,7,0.3,0.3
2025-06-08T1200,1956A,86.1472,41.7538,巴音郭楞蒙古自治州,孔雀公园,颗粒物(PM10),76,101,100,30,34,97,,77,75,6,13,8,11,0.2,0.2
2025-06-08T1200,1957A,86.1972,41.7166,巴音郭楞蒙古自治州,棉纺厂,颗粒物(PM10),72,94,118,14,30,109,,74,74,5,14,4,5,0.2,0.2
2025-06-08T1200,1958A,86.2357,41.7173,巴音郭楞蒙古自治州,经济开发区,颗粒物(PM10),58,65,96,11,24,108,,90,90,3,5,8,9,0.1,0.2
2025-06-08T1200,2914A,106.7677,31.8794,巴中市,苏山坪,,30,26,14,21,10,76,,99,85,15,6,4,4,0.5,0.3
2025-06-08T1200,3181A,106.7768,31.8526,巴中市,市五中,,31,31,24,20,14,75,,37,37,23,14,7,7,0.7,0.5
2025-06-08T1200,3183A,106.7418,31.8654,巴中市,圣泉水务公司,,27,24,18,14,12,86,,48,48,16,18,6,5,0.5,0.5
2025-06-08T1200,3616A,106.7616,31.8344,巴中市,市中心医院,,35,25,22,24,16,79,,31,31,15,20,6,6,0.5,0.5
2025-06-08T1200,2235A,122.7911,45.6077,白城市,洮北区环保局,,35,32,24,14,6,110,,71,71,9,10,1,2,0.3,0.3
2025-06-08T1200,2236A,122.8738,45.5725,白城市,市环保局,,32,29,15,22,9,101,,67,67,6,6,9,5,0.4,0.4
2025-06-08T1200,2231A,126.4219,41.9171,白山市,喜丰,,37,21,50,3,11,118,,57,57,9,23,7,8,0.4,0.5
2025-06-08T1200,2232A,126.4077,41.9419,白山市,环保局,,38,20,23,9,9,119,,62,62,7,14,6,6,0.4,0.4
2025-06-08T1200,2647A,104.1724,36.5446,白银市,第三小学,颗粒物(PM10),51,51,52,21,21,123,,107,107,3,4,75,18,0.4,0.3
2025-06-08T1200,2648A,104.1465,36.5482,白银市,动力公司,颗粒物(PM10),51,51,44,29,20,122,,104,104,9,7,62,14,0.4,0.2
2025-06-08T1200,2512A,106.6103,23.9011,百色市,市监测站,,19,10,47,6,24,59,,33,33,6,15,3,10,0.4,0.6
2025-06-08T1200,2513A,106.6538,23.8859,百色市,市中心血站,,19,18,53,8,33,58,,34,34,11,16,2,13,0.6,0.8
2025-06-08T1200,3406A,106.6085,23.8798,百色市,祈福高中,,20,20,54,10,25,60,,30,30,7,18,4,10,0.6,0.7
2025-06-08T1200,2270A,117.396,32.939,蚌埠市,工人疗养院,,43,38,37,16,14,135,,84,84,4,13,3,3,0.5,0.5
2025-06-08T1200,2271A,117.3605,32.9427,蚌埠市,百货大楼,,42,33,30,18,15,132,,88,88,6,15,7,7,0.5,0.5
2025-06-08T1200,2273A,117.4185,32.8911,蚌埠市,蚌埠学院,,41,29,22,19,17,131,,87,87,5,12,4,4,0.5,0.5
2025-06-08T1200,2274A,117.3533,32.9673,蚌埠市,淮上区政府,,45,31,28,20,19,141,,94,94,4,15,5,5,0.5,0.5
2025-06-08T1200,2275A,117.3145,32.8977,蚌埠市,高新区,,42,31,29,26,22,133,,93,93,14,18,7,5,0.7,0.6
2025-06-08T1200,3715A,117.3092,32.9314,蚌埠市,蚌埠田家炳中学,,41,34,32,26,21,131,,84,84,7,13,6,5,0.5,0.3
2025-06-08T1200,1585A,109.8756,40.6532,包头市,市环境监测站,,37,24,24,6,11,117,,56,56,13,21,19,10,0.6,0.4
2025-06-08T1200,1587A,109.9991,40.5842,包头市,包头八中,,38,21,32,8,12,121,,62,62,5,19,10,12,0.4,0.7
2025-06-08T1200,1588A,109.8538,40.6821,包头市,青山宾馆,,38,24,19,10,11,120,,64,64,14,15,27,12,0.8,0.5
2025-06-08T1200,1589A,109.8642,40.6288,包头市,惠龙物流,,38,26,23,7,6,119,,60,60,13,18,14,8,0.4,0.3
2025-06-08T1200,1590A,110.0377,40.5546,包头市,东河鸿龙湾,,37,23,26,3,6,116,,57,57,9,18,9,8,0.6,0.7
2025-06-08T1200,3283A,109.9154,40.5685,包头市,滨河大厦,,40,18,19,6,8,127,,59,59,8,18,9,10,0.4,0.6
2025-06-08T1200,3419A,109.9447,40.6261,包头市,包头市委党校,,40,25,25,6,7,126,,58,58,5,17,10,12,0.5,0.6
2025-06-08T1200,3683A,109.8331,40.6576,包头市,昆区政府,,37,22,18,12,10,117,,67,67,16,16,24,10,0.7,0.4
2025-06-08T1200,1930A,107.185,34.3063,宝鸡市,庙沟村,,50,30,27,16,14,160,,118,118,6,10,9,8,0.5,0.5
2025-06-08T1200,1931A,107.0708,34.3017,宝鸡市,竹园沟,,49,29,25,19,17,154,,94,94,7,10,6,5,0.7,0.7
2025-06-08T1200,1932A,107.1906,34.3672,宝鸡市,三陆医院,,,,,,,,,,,,,,,,
2025-06-08T1200,1933A,107.1431,34.3547,宝鸡市,监测站,,49,32,34,17,18,156,,94,94,9,15,7,6,0.3,0.3
2025-06-08T1200,1934A,107.1186,34.3739,宝鸡市,技工学校,颗粒物(PM10),52,53,35,16,23,159,,97,97,6,11,8,7,0.5,0.5
2025-06-08T1200,1935A,107.3906,34.3528,宝鸡市,陈仓区环保局家属楼,,49,42,36,16,21,154,,89,89,7,18,6,13,0.5,0.5
2025-06-08T1200,1936A,107.2058,34.3497,宝鸡市,文理学院,臭氧1小时,53,33,32,13,19,162,,100,100,9,15,6,6,0.5,0.5
2025-06-08T1200,1937A,107.2386,34.3622,宝鸡市,三迪小学,颗粒物(PM10),72,94,37,20,21,158,,90,90,10,17,9,9,0.5,0.5
2025-06-08T1200,1051A,115.493,38.8632,保定市,游泳馆,"颗粒物(PM10),臭氧1小时",62,74,59,22,28,169,,114,114,8,15,3,4,0,0
2025-06-08T1200,1052A,115.5213,38.8959,保定市,华电二区,臭氧1小时,60,46,52,10,17,168,,94,94,2,12,3,5,0,0.1
2025-06-08T1200,1053A,115.4713,38.9108,保定市,接待中心,臭氧1小时,67,44,56,22,26,173,,95,95,8,18,2,3,0.2,0.2
2025-06-08T1200,1054A,115.4612,38.8416,保定市,地表水厂,臭氧1小时,60,52,73,24,26,168,,118,118,8,19,3,5,0.2,0.3
2025-06-08T1200,3581A,115.31981,38.95208,保定市,满城区生态环境分局,臭氧1小时,72,51,72,7,22,177,,95,95,7,19,5,5,0.3,0.4
2025-06-08T1200,3582A,115.47694,38.76408,保定市,清苑区第二中学,臭氧1小时,58,56,87,21,36,166,,115,115,3,18,3,4,0.3,0.4
2025-06-08T1200,3583A,115.62909,39.02311,保定市,徐水物探局,臭氧1小时,75,43,74,17,18,180,,90,90,5,20,3,2,0.2,0.2
2025-06-08T1200,4004A,115.4202,38.8656,保定市,双鹰农机,臭氧1小时,83,45,54,23,26,186,,106,106,9,19,4,5,0.3,0.4
2025-06-08T1200,4034A,115.5150,38.8590,保定市,植保所站,臭氧1小时,59,57,71,26,28,167,,106,106,6,15,6,8,0.3,0.4
2025-06-08T1200,2594A,99.1678,25.1081,保山市,市环境监测站,,31,31,29,17,19,87,,44,44,7,7,8,6,0.4,0.4
2025-06-08T1200,2595A,99.1711,25.1328,保山市,市环保局,,36,36,26,11,16,95,,51,51,6,4,6,5,0.5,0.4
2025-06-08T1200,1866A,109.2262,21.588,北海市,牛尾岭水库,,25,18,15,12,6,80,,48,48,3,6,2,4,0.5,0.4
2025-06-08T1200,1867A,109.1436,21.4086,北海市,海滩公园,,26,26,26,10,6,61,,36,36,4,5,2,2,0.5,0.5
2025-06-08T1200,1868A,109.0981,21.4661,北海市,新市环保局,,22,22,21,9,11,56,,32,32,4,6,2,2,0.6,0.5
2025-06-08T1200,1869A,109.1778,21.5233,北海市,北海工业园,,32,32,23,15,12,62,,37,37,6,6,2,3,0.5,0.5
2025-06-08T1200,3400A,109.1911,21.4415,北海市,龙潭自来水厂,,25,23,18,17,11,68,,41,41,4,4,3,2,0.4,0.4
2025-06-08T1200,1001A,116.3621,39.8784,北京市,万寿西宫,臭氧1小时,78,40,47,22,21,182,,89,89,17,27,5,4,0.4,0.4
2025-06-08T1200,1002A,116.2202,40.2915,北京市,定陵,,,,,,,,,,,,,,,,
2025-06-08T1200,1003A,116.4174,39.9289,北京市,东四,臭氧1小时,83,42,50,19,23,186,,89,89,10,20,5,5,0.5,0.5
2025-06-08T1200,1004A,116.4072,39.8863,北京市,天坛,臭氧1小时,80,40,46,15,22,184,,82,82,9,22,4,3,0.3,0.3
2025-06-08T1200,1005A,116.462,39.9365,北京市,农展馆,臭氧1小时,62,41,41,16,17,169,,78,78,12,27,6,6,0.3,0.3
2025-06-08T1200,1006A,116.3392,39.9295,北京市,官园,臭氧1小时,60,56,49,16,16,168,,82,82,21,26,6,5,0.3,0.3
2025-06-08T1200,1007A,116.2878,39.9611,北京市,海淀万柳,臭氧1小时,57,46,48,20,18,165,,78,78,12,21,5,4,0.4,0.4
2025-06-08T1200,1008A,116.6636,40.135,北京市,顺义新城,臭氧1小时,60,45,46,15,17,168,,92,92,13,19,9,8,0.4,0.4
2025-06-08T1200,1009A,116.6275,40.3275,北京市,怀柔镇,臭氧1小时,64,43,36,18,17,171,,111,111,5,8,5,4,0.6,0.5
2025-06-08T1200,1010A,116.2296,40.217,北京市,昌平镇,臭氧1小时,84,61,40,22,17,187,,122,122,19,15,7,5,0.4,0.3
2025-06-08T1200,1011A,116.3966,39.9821,北京市,奥体中心,颗粒物(PM10),52,54,46,25,20,155,,74,74,23,29,5,5,0.4,0.4
2025-06-08T1200,3281A,115.9718,40.4529,北京市,延庆夏都,臭氧1小时,59,39,33,23,19,167,,100,100,16,14,5,4,0.4,0.3
2025-06-08T1200,3418A,116.8336,40.4095,北京市,密云新城,臭氧1小时,58,37,34,17,14,166,,110,110,8,10,5,3,0.3,0.3
2025-06-08T1200,3671A,116.088,39.9726,北京市,门头沟三家店,臭氧1小时,64,54,48,13,15,171,,102,102,12,19,4,3,0.3,0.2
2025-06-08T1200,3672A,116.1541,39.8204,北京市,丰台云岗,臭氧1小时,62,48,51,18,15,169,,103,103,5,15,7,6,0.4,0.4
2025-06-08T1200,3673A,116.6804,39.9081,北京市,通州东关,臭氧1小时,63,33,52,15,21,170,,99,99,6,18,3,4,0.4,0.5
2025-06-08T1200,3674A,115.9577,39.7603,北京市,房山燕山,,50,48,45,21,20,157,,107,107,7,11,3,4,0.4,0.4
2025-06-08T1200,3675A,116.4672,39.7733,北京市,大兴旧宫,臭氧1小时,54,25,50,11,20,163,,94,94,6,18,4,3,0.4,0.5
2025-06-08T1200,3694A,115.986,40.4563,北京市,延庆石河营,,50,38,30,13,12,160,,90,90,13,11,3,2,0.4,0.3
2025-06-08T1200,3695A,116.6151,40.3053,北京市,怀柔新城,臭氧1小时,64,40,32,20,17,171,,112,112,6,9,5,3,0.5,0.3
2025-06-08T1200,3696A,116.2545,39.8768,北京市,丰台小屯,臭氧1小时,54,44,45,18,15,163,,82,82,6,20,4,3,0.3,0.3
2025-06-08T1200,3697A,116.84,40.3844,北京市,密云镇,臭氧1小时,62,33,36,15,13,169,,96,96,7,16,8,7,0.4,0.3
2025-06-08T1200,4182A,116.1942,39.9158,北京市,八角北路9号,臭氧1小时,54,47,52,18,18,163,,80,80,9,19,2,2,0.3,0.3
2025-06-08T1200,4194A,117.0790,40.1518,北京市,洳河巡河路,臭氧1小时,69,42,42,23,22,175,,106,106,6,10,10,5,0.5,0.5
2025-06-08T1200,1761A,123.8275,41.3064,本溪市,大峪,,39,10,23,3,8,124,,77,77,4,15,8,8,0.3,0.6
2025-06-08T1200,1762A,123.7567,41.3325,本溪市,溪湖,,42,32,41,9,18,133,,68,68,10,26,10,13,0.7,1.1
2025-06-08T1200,1763A,123.7169,41.3094,本溪市,彩屯,,43,23,31,10,15,136,,73,73,11,28,12,14,0.7,1
2025-06-08T1200,1764A,123.7669,41.2864,本溪市,东明,,43,21,30,13,10,136,,80,80,7,24,6,9,0.5,0.9
2025-06-08T1200,1765A,123.7992,41.2664,本溪市,新立屯,,41,18,21,3,10,129,,89,89,6,25,6,8,0.4,0.6
2025-06-08T1200,1766A,123.8142,41.3472,本溪市,威宁,,42,24,36,6,13,132,,67,67,11,24,9,7,0.6,0.6
2025-06-08T1200,2587A,105.2864,27.3125,毕节市,八中,,41,20,52,16,38,130,,96,96,4,7,1,3,0.4,0.5
2025-06-08T1200,2588A,105.31,27.2944,毕节市,师专,,44,21,55,12,35,139,,96,96,6,9,3,3,0.4,0.5
2025-06-08T1200,4263A,105.3688,27.3598,毕节市,工业大道,,46,25,49,16,32,146,,106,106,8,13,6,6,0.6,0.7
2025-06-08T1200,1629A,118.0018,37.3617,滨州市,第二水厂,臭氧1小时,94,70,60,41,32,195,,118,118,10,14,4,6,0.9,0.7
2025-06-08T1200,1630A,117.9776,37.393,滨州市,北中新校,臭氧1小时,89,61,56,36,32,191,,115,115,11,14,8,9,0.5,0.4
2025-06-08T1200,3514A,117.9378,37.3956,滨州市,中海酒店,臭氧1小时,108,66,55,46,35,216,,131,131,12,15,10,9,1.0,0.8
2025-06-08T1200,3515A,117.9378,37.3553,滨州市,开发区一中,臭氧1小时,95,78,62,46,32,196,,122,122,14,16,12,9,0.5,0.5
2025-06-08T1200,3516A,118.0917,37.694,滨州市,金海六路,臭氧1小时,88,63,56,29,27,190,,132,132,10,12,12,11,0.4,0.4
2025-06-08T1200,4028A,117.9956,37.3753,滨州市,滨州市西街道办事处,臭氧1小时,104,73,55,39,32,208,,127,127,10,11,8,8,0.9,0.5
2025-06-08T1200,2311A,115.8072,33.8399,亳州市,污水处理厂,臭氧1小时,72,55,40,20,26,177,,92,92,25,14,8,4,0.8,0.6
2025-06-08T1200,2312A,115.7789,33.8518,亳州市,三国揽胜宫,臭氧1小时,65,71,35,32,30,172,,95,95,6,11,6,4,0.6,0.5
2025-06-08T1200,3332A,115.7633,33.8034,亳州市,亳州学院,臭氧1小时,70,57,38,27,28,176,,111,111,4,9,7,2,0.5,0.6
2025-06-08T1200,2693A,82.0485,44.8556,博尔塔拉蒙古自治州,市党校,颗粒物(PM10),58,65,42,22,18,97,,68,62,11,11,6,3,0.3,0.2
2025-06-08T1200,2694A,82.0806,44.8969,博尔塔拉蒙古自治州,市环保局,颗粒物(PM10),67,83,46,22,17,101,,62,62,4,10,2,2,0.4,0.5
2025-06-08T1200,1071A,116.8842,38.2991,沧州市,沧县城建局,臭氧1小时,85,32,49,17,25,188,,133,133,8,14,2,3,0.4,0.4
2025-06-08T1200,1072A,116.8584,38.3254,沧州市,电视转播站,臭氧1小时,67,45,55,27,30,173,,107,107,11,19,4,5,0.4,0.4
2025-06-08T1200,1073A,116.8709,38.3228,沧州市,市环保局,臭氧1小时,73,57,66,22,30,178,,123,123,9,16,5,6,0.3,0.4
2025-06-08T1200,3324A,116.8136,38.3004,沧州市,河北水利电力学院,臭氧1小时,102,61,57,29,27,203,,144,144,11,15,3,3,0.3,0.3
2025-06-08T1200,2622A,97.1806,31.1273,昌都市,昌都监测站,,19,,7,3,6,60,,64,47,4,3,5,4,0.2,0.2
2025-06-08T1200,3719A,97.1714,31.1406,昌都市,昌都会议中心,,32,11,13,3,7,100,,92,88,3,4,4,4,0.1,0.1
2025-06-08T1200,2690A,88.1236,43.8886,昌吉回族自治州,天山天池,,36,34,22,10,8,113,,88,88,5,6,3,3,0.5,0.5
2025-06-08T1200,2692A,87.2717,44.0297,昌吉回族自治州,新区政务中心,,44,36,23,14,10,138,,85,85,8,11,15,6,0.6,0.3
2025-06-08T1200,3613A,87.3095,44.0142,昌吉回族自治州,亚心广场,,48,48,35,14,8,127,,78,78,10,16,15,8,0.4,0.3
2025-06-08T1200,1119A,125.3325,43.9166,长春市,食品厂,,,,,,,,,,,,,,,,
2025-06-08T1200,1120A,125.2863,43.9027,长春市,客车厂,,47,47,32,3,13,112,,76,76,16,40,7,6,0.3,0.4
2025-06-08T1200,1121A,125.2841,43.8463,长春市,邮电学院,,50,50,31,9,14,114,,83,83,15,31,8,6,0.4,0.3
2025-06-08T1200,1122A,125.3716,43.8772,长春市,劳动公园,颗粒物(PM10),51,52,30,7,17,113,,75,75,14,30,8,7,0.4,0.4
2025-06-08T1200,1123A,125.3297,43.8805,长春市,园林处,,48,48,27,11,8,113,,80,80,14,28,8,7,0.4,0.4
2025-06-08T1200,1124A,125.4605,43.79,长春市,净月潭,,40,40,17,10,8,112,,62,62,11,22,7,6,0.2,0.2
2025-06-08T1200,1125A,125.7194,43.515,长春市,甩湾子,,,,,,,,,,,,,,,,
2025-06-08T1200,1126A,125.3863,43.8447,长春市,经开区环卫处,,42,42,26,8,10,109,,69,69,15,31,7,6,0.2,0.2
2025-06-08T1200,1127A,125.245,43.7783,长春市,高新区管委会,,,103,29,10,12,112,,76,76,,34,,6,0.2,0.3
2025-06-08T1200,1128A,125.1761,43.8325,长春市,岱山公园,,37,37,24,22,13,111,,73,73,15,38,6,5,0.3,0.2
2025-06-08T1200,1335A,113.0833,28.2325,长沙市,经开区环保局,,38,38,24,15,13,80,,76,76,11,8,3,3,0.4,0.4
2025-06-08T1200,1336A,112.8872,28.2189,长沙市,高开区环保局,,28,28,25,11,11,83,,80,80,4,4,3,3,0.6,0.6
2025-06-08T1200,1337A,113.0792,28.2053,长沙市,马坡岭,,33,33,25,17,14,83,,77,77,7,6,3,3,0.6,0.6
2025-06-08T1200,1338A,112.9394,28.19,长沙市,湖南师范大学,,28,26,20,14,13,87,,83,83,4,5,3,3,0.4,0.4
2025-06-08T1200,1339A,113.0178,28.1322,长沙市,雨花区环保局,,29,29,21,13,12,83,,80,80,2,2,4,4,0.6,0.6
2025-06-08T1200,1340A,112.9792,28.2597,长沙市,伍家岭,,28,28,24,11,16,85,,81,81,4,5,2,2,0.5,0.5
2025-06-08T1200,1341A,113.0014,28.1944,长沙市,火车新站,,32,32,24,12,9,81,,79,79,5,4,6,6,0.5,0.4
2025-06-08T1200,1342A,112.9844,28.1178,长沙市,天心区环保局,,31,31,21,16,14,89,,84,84,5,6,2,2,0.4,0.3
2025-06-08T1200,1343A,112.8908,28.1308,长沙市,湖南中医药大学,,25,24,24,14,15,78,,72,72,2,4,2,2,0.5,0.5
2025-06-08T1200,1344A,112.9581,28.3611,长沙市,沙坪,,45,45,30,16,15,78,,76,76,4,2,2,2,0.2,0.2
2025-06-08T1200,1727A,113.1147,36.1547,长治市,清华站,臭氧1小时,88,60,56,24,30,190,,124,124,10,18,8,10,0.6,0.9
2025-06-08T1200,1730A,113.0886,36.2125,长治市,审计局,臭氧1小时,88,49,52,27,30,190,,109,109,11,19,12,12,0.6,0.9
2025-06-08T1200,1731A,113.0844,36.1856,长治市,长治八中,臭氧1小时,84,63,62,31,38,187,,113,113,6,16,12,14,0.5,0.8
2025-06-08T1200,2845A,113.1569,36.1911,长治市,德盛苑,臭氧1小时,78,52,57,24,28,182,,133,133,10,15,9,10,0.7,1
2025-06-08T1200,3568A,113.06,36.0464,长治市,向阳小学,臭氧1小时,75,85,88,26,37,180,,134,134,10,18,8,10,0.7,1
2025-06-08T1200,3569A,112.8792,36.3144,长治市,屯留一中,臭氧1小时,83,48,41,38,33,186,,122,122,14,20,10,10,0.6,0.8
2025-06-08T1200,4189A,113.1131,36.19948,长治市,英华南巷50号,臭氧1小时,79,60,61,29,33,183,,114,114,3,12,9,11,0.7,1.1
2025-06-08T1200,4190A,113.2367,36.3344,长治市,学府街1号,臭氧1小时,105,77,90,32,38,209,,129,129,10,20,7,12,0.6,1.1
2025-06-08T1200,1854A,111.6975,28.9703,常德市,市二中,,37,27,27,21,22,116,,117,116,6,6,6,6,0.6,0.6
2025-06-08T1200,1857A,111.7158,29.1456,常德市,白鹤山,,,,,,,,,,,,,,,,
2025-06-08T1200,3138A,111.7153,29.0289,常德市,武陵区永安,,36,30,29,19,20,113,,122,120,6,5,3,2,0.1,0.1
2025-06-08T1200,3139A,111.6892,28.9881,常德市,鼎城区玉霞,,38,26,29,17,18,121,,125,123,6,5,4,4,0.3,0.3
2025-06-08T1200,3140A,111.6625,29.0531,常德市,武陵区长庚,,38,26,25,21,18,119,,127,124,6,5,3,2,0.4,0.4
2025-06-08T1200,1196A,119.9633,31.762,常州市,市监测站,,27,,51,9,23,84,,50,50,6,24,10,10,0.4,0.8
2025-06-08T1200,1200A,119.9468,31.7069,常州市,武进监测站,,29,25,74,3,23,91,,54,54,10,26,15,19,0.6,0.8
2025-06-08T1200,1201A,119.9255,31.9087,常州市,安家,,,12,44,6,21,87,,57,57,,21,6,5,0.5,0.5
2025-06-08T1200,3002A,119.9805,31.8174,常州市,行政中心,,30,14,46,6,22,94,,54,54,8,24,7,7,0.4,0.6
2025-06-08T1200,3003A,120.0522,31.7748,常州市,经开区,,29,15,34,3,20,90,,56,56,9,25,3,3,0.2,0.5
2025-06-08T1200,3010A,119.9025,31.7964,常州市,钟楼,,29,7,41,3,21,92,,55,55,6,20,7,7,0.6,0.9
2025-06-08T1200,3429A,119.8598,31.7066,常州市,武进经发区,,28,6,39,3,23,89,,50,50,6,23,4,4,0.8,1.2
2025-06-08T1200,3430A,119.5826,31.7245,常州市,金坛城区,,27,10,76,3,20,86,,49,49,13,22,5,6,0.7,0.8
2025-06-08T1200,2220A,120.4318,41.5881,朝阳市,西梁,,45,40,29,8,14,143,,84,84,10,21,8,7,0.5,0.5
2025-06-08T1200,2221A,120.4521,41.5646,朝阳市,河畔小区,,45,44,26,10,10,142,,93,93,12,16,12,10,0.6,0.4
2025-06-08T1200,2222A,120.4176,41.5648,朝阳市,八里堡,颗粒物(PM10),55,60,39,12,13,146,,90,90,12,20,8,8,0.5,0.5
2025-06-08T1200,2223A,120.3806,41.5969,朝阳市,农业园区,,45,31,30,16,15,142,,82,82,10,27,8,6,0.5,0.4
2025-06-08T1200,1705A,116.6367,23.6719,潮州市,西园路,颗粒物(PM10),53,55,39,28,30,84,,45,45,10,13,5,7,0.4,0.4
2025-06-08T1200,3026A,116.6183,23.6608,潮州市,市政府,,,,46,,27,93,,52,52,11,12,,10,0.9,0.9
2025-06-08T1200,4036A,116.6461,23.6761,潮州市,金山,,50,50,44,29,31,99,,48,48,7,12,9,11,0.8,0.8
2025-06-08T1200,2472A,113.0073,25.9061,郴州市,马头岭,,31,31,22,11,8,65,,35,35,3,9,8,7,0.4,0.3
2025-06-08T1200,2473A,113.0116,25.8226,郴州市,市职中,,30,28,22,21,14,86,,59,59,6,9,2,3,0.3,0.4
2025-06-08T1200,2475A,113.0383,25.8071,郴州市,市审计局,,27,20,20,10,12,84,,54,54,3,5,2,2,0.3,0.3
2025-06-08T1200,2476A,113.0348,25.7759,郴州市,市环保局,,28,28,22,16,8,81,,64,64,9,8,4,3,0.1,0
2025-06-08T1200,4252A,113.0138,25.8011,郴州市,好美居路49号,,50,50,22,20,13,95,,73,73,6,7,2,3,0.5,0.4
2025-06-08T1200,1431A,103.9728,30.7236,成都市,金泉两河,,44,44,54,21,31,134,,83,83,23,21,6,4,0.6,0.6
2025-06-08T1200,1432A,104.176,30.6872,成都市,十里店,细颗粒物(PM2.5),82,81,56,60,39,132,,72,72,27,29,8,6,0.7,0.7
2025-06-08T1200,1433A,104.079,30.5706,成都市,三瓦窑,,43,29,51,13,34,136,,79,79,16,31,6,6,0.5,0.5
2025-06-08T1200,1434A,104.1114,30.63,成都市,沙河铺,,44,44,51,20,37,112,,63,63,21,21,6,5,0.6,0.6
2025-06-08T1200,1437A,104.0786,30.6531,成都市,君平街,颗粒物(PM10),52,53,56,22,33,108,,68,68,22,27,7,5,0.8,0.8
2025-06-08T1200,1438A,103.613,31.0283,成都市,灵岩寺,,,,,,,,,,,,,,,,
2025-06-08T1200,2880A,104.0239,30.65639,成都市,大石西路,,42,42,52,21,32,134,,88,88,17,23,7,5,0.6,0.8
2025-06-08T1200,3136A,104.2725,30.5589,成都市,龙泉驿区区政府,,43,36,46,24,33,135,,74,74,8,16,6,5,0.6,0.7
2025-06-08T1200,3357A,104.0106,30.6931,成都市,金博路,颗粒物(PM10),52,54,45,30,28,132,,80,80,20,24,12,9,0.7,0.7
2025-06-08T1200,3359A,104.0578,30.5225,成都市,华阳,,44,44,45,24,34,123,,68,68,25,21,8,8,0.6,0.6
2025-06-08T1200,3488A,104.3853,30.7453,成都市,青白江技师分院,,44,12,62,10,43,139,,51,51,13,37,4,5,0.6,0.7
2025-06-08T1200,3489A,104.0789,30.4072,成都市,科学城,,41,30,69,23,52,129,,52,52,17,21,5,4,0.5,0.6
2025-06-08T1200,4011A,103.8506,30.6947,成都市,光华大道三段,颗粒物(PM10),54,57,53,24,36,134,,101,101,15,15,6,5,0.7,0.8
2025-06-08T1200,4224A,104.2433,30.5353,成都市,鲸龙路1057号,,46,33,64,23,45,145,,63,63,10,26,10,9,0.7,0.7
2025-06-08T1200,1062A,117.9531,40.9081,承德市,铁路,臭氧1小时,68,36,27,15,11,174,,83,83,11,15,13,8,0.7,0.5
2025-06-08T1200,1063A,117.9392,40.9763,承德市,中国银行,臭氧1小时,73,42,30,9,10,178,,77,77,9,11,31,4,1.0,0.4
2025-06-08T1200,1064A,117.9503,40.928,承德市,开发区,臭氧1小时,82,42,32,14,17,185,,94,94,12,14,14,7,0.7,0.4
2025-06-08T1200,1065A,117.8051,40.9655,承德市,文化中心,臭氧1小时,73,48,39,14,13,178,,96,96,18,20,62,15,1.4,0.5
2025-06-08T1200,1066A,117.9268,41.0026,承德市,离宫,臭氧1小时,77,58,30,17,20,181,,80,80,11,12,34,6,0.6,0.3
2025-06-08T1200,2314A,117.47,30.6618,池州市,池州学院,,28,10,14,6,9,89,,69,69,6,13,5,5,0.5,0.6
2025-06-08T1200,3237A,117.4918,30.6617,池州市,展览馆,,28,10,14,9,8,89,,66,66,6,13,4,4,0.7,0.7
2025-06-08T1200,3333A,117.5627,30.695,池州市,第八中学,,27,13,15,10,9,84,,68,68,8,10,6,5,0.7,0.7
2025-06-08T1200,3334A,117.5038,30.6243,池州市,第十二中学,,26,15,16,8,8,83,,65,65,9,12,4,3,1.0,1
2025-06-08T1200,1744A,118.9233,42.2816,赤峰市,松山一中,,37,12,17,8,7,118,,70,70,7,21,5,7,0.4,0.5
2025-06-08T1200,1745A,118.9576,42.2728,赤峰市,哈达街,,33,13,14,13,9,103,,70,70,10,19,9,10,0.4,0.4
2025-06-08T1200,1746A,118.8788,42.2554,赤峰市,天义路,,32,8,10,7,12,102,,71,71,5,13,7,9,0.4,0.5
2025-06-08T1200,3058A,119.2658,42.0353,赤峰市,银河街,,32,28,39,10,13,100,,52,52,5,15,12,13,0.4,0.6
2025-06-08T1200,3286A,118.9359,42.3147,赤峰市,桥北物流园区,,30,,28,12,11,95,,60,60,6,22,8,10,0.4,0.6
2025-06-08T1200,2521A,107.3476,22.4136,崇左市,市环保局江州分局,,39,39,36,24,20,91,,55,55,4,7,6,6,0.5,0.5
2025-06-08T1200,4256A,107.3750,22.3736,崇左市,石景林东路7号,,30,28,30,21,16,91,,49,49,4,10,2,2,0.4,0.4
2025-06-08T1200,2298A,118.3093,32.3153,滁州市,老年大学,,32,31,32,10,24,101,,75,75,5,13,6,6,0.3,0.6
2025-06-08T1200,2299A,118.3244,32.2786,滁州市,人大宾馆,,30,19,20,10,30,95,,65,65,3,12,4,4,0.4,0.5
2025-06-08T1200,3207A,118.3118,32.3038,滁州市,市政府原办公楼,,45,,24,31,34,102,,72,72,1,9,4,4,0.4,0.6
2025-06-08T1200,3331A,118.3267,32.2634,滁州市,图书馆,,28,26,23,18,26,87,,61,61,2,8,8,8,0.5,0.6
2025-06-08T1200,2605A,101.5482,25.0441,楚雄彝族自治州,州环境监测站,,26,,24,14,17,83,,45,45,5,13,8,8,0.4,0.4
2025-06-08T1200,2606A,101.538,25.0492,楚雄彝族自治州,市经济开发区,,25,,27,12,15,80,,42,42,5,13,6,6,0.5,0.5
2025-06-08T1200,2548A,107.5277,31.2827,达州市,达州职业技术学院,,20,15,23,3,4,64,,52,52,12,14,6,7,0.1,0.1
2025-06-08T1200,2549A,107.5086,31.2186,达州市,市环境监测站,,25,12,22,3,6,77,,51,51,18,24,5,6,0.3,0.4
2025-06-08T1200,2550A,107.4988,31.2132,达州市,凤凰小区,,25,7,18,3,6,80,,63,63,12,18,7,7,0.4,0.5
2025-06-08T1200,2551A,107.5082,31.1986,达州市,达县机关宾馆,,22,9,19,3,4,70,,42,42,18,26,5,6,0.5,0.5
2025-06-08T1200,2552A,107.4644,31.2124,达州市,市政中心,,22,18,27,3,5,68,,60,60,14,16,2,3,0.5,0.5
2025-06-08T1200,2614A,100.1542,25.7054,大理白族自治州,大理市环境监测站,,,,19,26,18,72,,66,66,6,5,6,6,,0.3
2025-06-08T1200,2615A,100.2171,25.5811,大理白族自治州,大理古城,,26,20,20,6,12,83,,61,61,4,7,9,8,0.6,0.6
2025-06-08T1200,1109A,121.612,38.9741,大连市,甘井子,,49,49,42,34,20,129,,89,89,19,25,5,5,0.5,0.3
2025-06-08T1200,1110A,121.565,38.9511,大连市,周水子,,50,44,35,35,18,138,,99,99,25,21,11,9,0.5,0.4
2025-06-08T1200,1111A,121.5637,38.8845,大连市,星海三站,,50,40,36,35,22,115,,76,67,7,10,3,5,0.4,0.4
2025-06-08T1200,1112A,121.6302,38.9117,大连市,青泥洼桥,,46,43,38,29,23,146,,94,94,13,20,8,8,0.7,0.6
2025-06-08T1200,1113A,121.6251,38.8638,大连市,傅家庄,,43,34,36,30,22,132,,94,91,10,16,7,8,0.2,0.2
2025-06-08T1200,1114A,121.5213,38.8661,大连市,七贤岭,细颗粒物(PM2.5),69,,39,50,25,116,,86,80,18,16,7,7,0.5,0.4
2025-06-08T1200,1115A,121.2529,38.8061,大连市,旅顺,,37,37,27,24,23,83,,100,76,18,15,5,5,0.3,0.3
2025-06-08T1200,1116A,121.7485,39.1311,大连市,金州,臭氧1小时,59,26,35,16,17,167,,119,119,15,21,8,9,0.3,0.3
2025-06-08T1200,1117A,121.7811,39.0496,大连市,开发区,细颗粒物(PM2.5),59,52,45,42,28,132,,73,73,26,28,4,5,0.4,0.3
2025-06-08T1200,1118A,121.9762,39.0631,大连市,双D港,,46,,33,32,27,122,,90,90,7,13,7,8,0.5,0.4
2025-06-08T1200,1789A,124.81117,46.03138,大庆市,大同区,,28,25,21,6,11,88,,64,64,6,9,5,5,0.5,0.4
2025-06-08T1200,1790A,125.129,46.533,大庆市,龙凤区,,,25,24,,15,100,,74,74,5,9,5,6,0.6,0.6
2025-06-08T1200,1791A,124.902,46.408,大庆市,红岗区,,32,25,18,14,11,102,,76,76,4,6,10,9,0.3,0.3
2025-06-08T1200,1792A,125.153,46.586,大庆市,萨尔图区,,29,28,27,17,10,91,,67,67,5,10,8,8,0.1,0.3
2025-06-08T1200,1793A,124.9042,46.6215,大庆市,让胡路区,,33,29,20,23,19,99,,72,72,4,7,2,2,0.4,0.4
2025-06-08T1200,3481A,125.141,46.634,大庆市,萨区政府监测点,,30,29,23,17,5,96,,72,72,3,6,5,6,0.3,0.4
2025-06-08T1200,1721A,113.3819,40.1097,大同市,果树场,,,,,,,,,,,,,,,,
2025-06-08T1200,1723A,113.2994,40.0758,大同市,云冈宾馆,细颗粒物(PM2.5),68,,34,49,13,140,,82,82,9,17,7,7,1.0,1.1
2025-06-08T1200,1724A,113.3444,40.0917,大同市,大同大学,,44,22,30,3,11,140,,75,75,11,23,13,12,0.8,0.6
2025-06-08T1200,1725A,113.2661,40.1269,大同市,安家小村,,41,30,41,10,12,130,,69,69,6,18,6,6,0.3,0.6
2025-06-08T1200,1726A,113.2711,40.0844,大同市,教育学院,,42,28,40,16,16,133,,72,72,10,22,8,9,0.6,0.8
2025-06-08T1200,3282A,113.3397,40.0597,大同市,大同市卫生学校,,43,13,28,7,10,136,,74,74,9,19,11,11,0.8,0.7
2025-06-08T1200,3565A,113.1367,40.1122,大同市,云冈站,,42,24,55,20,21,132,,63,63,7,22,8,11,0.5,0.6
2025-06-08T1200,3566A,113.1186,40.2556,大同市,图书馆,,38,21,27,6,11,120,,66,66,6,11,8,7,0.5,0.6
2025-06-08T1200,3567A,113.5931,40.0461,大同市,区一中,,45,44,26,8,11,142,,105,105,7,8,12,11,0.3,0.3
2025-06-08T1200,4199A,113.2798,40.0997,大同市,魏都大道141号,,41,34,48,8,15,131,,69,69,9,21,8,8,0.7,1
2025-06-08T1200,2269A,124.1069,50.4097,大兴安岭地区,科技局,,28,13,20,6,10,87,,56,56,3,3,9,9,0.2,0.2
2025-06-08T1200,3663A,124.1164,50.4278,大兴安岭地区,红旗社区,,27,7,5,3,4,86,,56,56,1,3,6,6,0.2,0.3
2025-06-08T1200,1600A,124.3303,40.0625,丹东市,江湾东路,,32,23,31,17,17,100,,95,95,8,7,6,12,0.5,0.6
2025-06-08T1200,1601A,124.4256,40.1503,丹东市,临江后街,,35,35,44,12,14,101,,82,82,9,13,7,7,0.8,0.8
2025-06-08T1200,1602A,124.3933,40.1461,丹东市,元宝山,,30,21,36,14,19,94,,85,85,8,8,7,7,0.5,0.5
2025-06-08T1200,1603A,124.3633,40.1092,丹东市,民主桥,,32,18,31,12,15,100,,90,90,3,5,8,8,0.7,0.8
2025-06-08T1200,3541A,109.5726,19.5167,儋州市,第一中学子站,,22,20,19,15,12,63,,34,34,3,4,6,6,0.5,0.4
2025-06-08T1200,3542A,109.5567,19.5187,儋州市,东坡学校子站,,22,22,19,13,10,63,,32,32,2,3,6,6,0.5,0.5
2025-06-08T1200,2616A,98.5842,24.428,德宏傣族景颇族自治州,德宏州监测站,,32,32,31,17,18,71,,28,28,8,9,14,9,0.6,0.6
2025-06-08T1200,3677A,98.5881,24.4368,德宏傣族景颇族自治州,芒市人民政府综合楼,颗粒物(PM10),51,52,40,26,19,71,,29,29,8,8,13,8,0.4,0.5
2025-06-08T1200,1901A,104.4239,31.1208,德阳市,东山公园,颗粒物(PM10),62,73,60,31,36,113,,64,64,8,18,5,7,0.8,0.9
2025-06-08T1200,1902A,104.3826,31.1317,德阳市,西小区,颗粒物(PM10),54,58,60,29,39,116,,66,66,12,23,4,7,0.7,0.8
2025-06-08T1200,1904A,104.3553,31.1091,德阳市,耐火材料厂,,50,50,66,27,43,123,,52,52,10,25,6,8,0.6,0.7
2025-06-08T1200,3639A,104.4019,31.1244,德阳市,市教育局,颗粒物(PM10),53,55,56,25,37,127,,69,69,6,19,8,10,0.8,0.9
2025-06-08T1200,1622A,116.3032,37.4674,德州市,儿童乐园,臭氧1小时,111,78,87,36,37,221,,134,134,8,13,14,12,0.6,0.7
2025-06-08T1200,1624A,116.2991,37.4451,德州市,监理站,臭氧1小时,104,68,78,34,35,208,,133,133,7,11,12,11,0.4,0.4
2025-06-08T1200,3066A,116.2721,37.4379,德州市,九衢泉纯净水厂,臭氧1小时,101,75,79,34,34,202,,130,130,11,13,12,11,0.7,0.7
2025-06-08T1200,3371A,116.3728,37.4403,德州市,开发区人民医院,臭氧1小时,98,70,79,31,29,198,,122,122,13,16,12,11,0.7,0.7
2025-06-08T1200,3372A,116.3572,37.4094,德州市,太阳城中学,臭氧1小时,106,80,82,36,34,212,,134,134,11,12,10,9,0.7,0.6
2025-06-08T1200,3511A,116.5652,37.3319,德州市,陵城艺术中心,臭氧1小时,100,107,97,34,35,200,,122,122,12,14,13,13,0.8,0.7
2025-06-08T1200,2621A,99.7056,27.8317,迪庆藏族自治州,迪庆州站,,34,14,24,11,13,107,,72,72,4,6,6,6,0.4,0.4
2025-06-08T1200,3180A,99.7136,27.8094,迪庆藏族自治州,质量技术监督局,,33,23,22,3,8,105,,72,72,8,8,6,5,0.4,0.4
2025-06-08T1200,4257A,104.6092,35.5962,定西市,将台街,颗粒物(PM10),51,51,64,17,22,130,,68,68,4,19,6,5,0.2,0.3
2025-06-08T1200,4309A,104.6159,35.5701,定西市,正龙路62号,,47,47,60,16,25,134,,87,87,6,10,8,8,0.3,0.3
2025-06-08T1200,1389A,113.7547,23.0494,东莞市,莞城梨川,,35,14,24,12,13,111,,60,60,7,10,8,8,0.3,0.3
2025-06-08T1200,1390A,113.7944,23.0128,东莞市,东城石井,,35,27,21,12,11,112,,45,45,13,13,2,2,0.5,0.5
2025-06-08T1200,1391A,113.7383,22.9658,东莞市,南城西平,,33,15,18,12,10,104,,56,56,9,12,7,8,0.5,0.5
2025-06-08T1200,3319A,113.7338,23.0381,东莞市,万江金泰,,32,22,21,13,13,102,,47,47,8,11,4,3,0.4,0.5
2025-06-08T1200,3626A,113.7533,23.0202,东莞市,南城元岭,,35,26,19,14,11,110,,53,53,9,13,5,5,0.6,0.6
2025-06-08T1200,3627A,113.7875,23.0457,东莞市,东城主山,,42,42,27,15,11,105,,56,56,5,9,6,6,0.6,0.6
2025-06-08T1200,1666A,118.6614,37.4309,东营市,市环保局,颗粒物(PM10),56,61,47,27,25,161,,114,114,15,16,8,7,0.5,0.4
2025-06-08T1200,3036A,118.6904,37.4338,东营市,开发区管委会,臭氧1小时,90,54,52,27,24,192,,131,131,17,13,10,6,0.5,0.5
2025-06-08T1200,3365A,118.5719,37.565,东营市,垦利区民丰路,臭氧1小时,80,58,52,22,26,184,,117,117,16,15,9,9,0.6,0.7
2025-06-08T1200,3498A,118.5055,37.8612,东营市,河口城区,臭氧1小时,67,44,43,20,22,173,,134,134,12,14,9,8,0.7,0.8
2025-06-08T1200,3646A,118.4978,37.4623,东营市,胜利站,臭氧1小时,60,54,52,36,25,168,,113,113,14,13,10,9,0.8,0.8
2025-06-08T1200,3734A,118.35,37.26,东营市,理想之城,臭氧1小时,75,53,53,27,27,180,,124,124,23,27,9,6,0.7,0.7
2025-06-08T1200,1591A,110.0023,39.8129,鄂尔多斯市,综合楼,,37,19,32,12,12,118,,82,82,9,21,5,5,0.5,0.5
2025-06-08T1200,1592A,109.9486,39.8261,鄂尔多斯市,巴音孟克林场办事处,,40,34,43,12,14,128,,90,90,8,25,5,9,0.2,0.3
2025-06-08T1200,1593A,109.7736,39.5986,鄂尔多斯市,康泽苑,,,31,41,,10,132,,80,80,5,14,8,9,0.2,0.3
2025-06-08T1200,1594A,109.8119,39.5989,鄂尔多斯市,华泰汽车城,,39,27,40,14,15,123,,60,60,7,26,4,5,0.3,0.5
2025-06-08T1200,1595A,109.9734,39.7884,鄂尔多斯市,奥林花园,,36,19,40,7,12,113,,74,74,7,21,4,6,0.4,0.5
2025-06-08T1200,2436A,114.8938,30.3994,鄂州市,市政府,,26,8,19,3,6,82,,58,58,11,20,5,6,0.0,0.1
2025-06-08T1200,2437A,114.8989,30.3714,鄂州市,赵家坝,,,6,17,,3,79,,57,57,5,8,7,7,0.9,0.9
2025-06-08T1200,3654A,114.8094,30.4089,鄂州市,精准医疗中心,,,5,18,,1,68,,54,54,1,11,3,5,0.7,1
2025-06-08T1200,2454A,109.4978,30.2981,恩施土家族苗族自治州,湖北民院,,33,27,19,15,12,105,,104,104,2,4,5,5,0.5,0.6
2025-06-08T1200,2455A,109.4707,30.2798,恩施土家族苗族自治州,州电力总公司,,31,13,15,8,10,99,,99,99,3,4,6,6,0.4,0.4
2025-06-08T1200,3549A,109.5061,30.3772,恩施土家族苗族自治州,龙凤新区,,42,17,15,7,7,132,,106,106,3,5,6,6,0.3,0.4
2025-06-08T1200,2499A,108.3411,21.6158,防城港市,沙万,,30,30,25,21,18,46,,43,43,5,9,3,3,0.8,0.4
2025-06-08T1200,2500A,108.3514,21.7731,防城港市,防城档案局,,20,16,20,14,10,37,,40,40,4,5,2,3,0.5,0.5
2025-06-08T1200,2501A,108.3506,21.6414,防城港市,大海花园,,31,31,22,11,9,54,,53,53,5,8,2,3,0.5,0.5
2025-06-08T1200,1371A,113.1294,23.0067,佛山市,湾梁,,26,19,20,10,11,83,,42,42,9,13,7,8,0.6,0.6
2025-06-08T1200,1372A,113.1083,23.0478,佛山市,华材职中,,34,19,17,7,10,107,,53,53,6,8,6,6,0.3,0.3
2025-06-08T1200,1373A,113.144,23.0453,佛山市,南海气象局,,27,23,22,8,13,85,,42,42,9,12,2,2,0.6,0.7
2025-06-08T1200,1374A,113.2881,22.8094,佛山市,顺德苏岗,,35,28,20,12,9,111,,50,50,9,10,8,7,0.8,0.8
2025-06-08T1200,1376A,112.8383,22.8678,佛山市,高明孔堂,,19,,16,7,10,58,,33,33,4,5,5,5,0.5,0.6
2025-06-08T1200,1377A,112.8836,23.1588,佛山市,三水监测站,,27,27,24,10,17,65,,26,26,9,21,4,4,0.4,0.5
2025-06-08T1200,1378A,112.867,23.185,佛山市,三水云东海,,41,41,36,13,13,89,,38,38,8,17,2,2,0.4,0.4
2025-06-08T1200,3625A,113.2544,22.7642,佛山市,容桂街道办,,30,22,16,12,13,95,,43,43,13,15,12,8,0.6,0.7
2025-06-08T1200,1280A,119.3903,26.0543,福州市,鼓山,,,,24,,22,,,92,,,3,,1,,0.2
2025-06-08T1200,1282A,119.2681,26.0504,福州市,师大,,50,49,31,27,12,158,,76,76,6,10,4,4,0.4,0.3
2025-06-08T1200,1283A,119.2984,26.1028,福州市,五四北路,,49,40,26,34,14,154,,78,78,10,12,4,4,0.5,0.4
2025-06-08T1200,1284A,119.2648,26.0768,福州市,杨桥西路,细颗粒物(PM2.5),58,48,30,41,14,156,,76,76,8,11,4,4,0.4,0.3
2025-06-08T1200,1285A,119.317,26.0746,福州市,紫阳,颗粒物(PM10),52,53,30,29,13,149,,70,70,10,12,5,5,0.4,0.3
2025-06-08T1200,3048A,119.5799,26.0936,福州市,九龙,,50,42,27,35,15,155,,74,74,6,11,4,4,0.4,0.3
2025-06-08T1200,3526A,119.5189,25.9664,福州市,吴航,,43,37,25,29,16,135,,78,78,5,7,5,5,0.6,0.5
2025-06-08T1200,1755A,123.7977,41.8491,抚顺市,望花区,,50,47,46,11,20,158,,82,82,16,36,12,10,0.5,0.6
2025-06-08T1200,1756A,123.9161,41.8822,抚顺市,顺城区,,45,32,36,10,15,144,,76,76,15,38,10,9,0.5,0.6
2025-06-08T1200,1757A,124.0436,41.8611,抚顺市,东洲区,,45,30,22,7,11,142,,95,95,13,22,8,9,0.4,0.4
2025-06-08T1200,1758A,123.9247,41.8642,抚顺市,新抚区,,46,42,32,11,11,145,,74,74,11,31,9,7,0.5,0.5
2025-06-08T1200,1759A,124.0972,41.8961,抚顺市,大伙房水库,,45,30,17,6,13,144,,84,84,9,21,9,9,0.2,0.2
2025-06-08T1200,1760A,123.7086,41.8391,抚顺市,沈抚新城,,49,40,28,12,15,156,,82,82,16,39,13,9,0.7,0.9
2025-06-08T1200,2376A,116.2127,28.0814,抚州市,桐源党溪,,42,42,37,23,20,77,,46,46,3,2,9,6,0.9,0.8
2025-06-08T1200,2377A,116.3544,27.9831,抚州市,市站,,36,36,31,19,19,88,,51,51,2,5,1,2,0.7,0.7
2025-06-08T1200,2378A,116.3565,27.963,抚州市,血防站,,36,36,32,23,20,82,,45,45,3,6,4,3,0.5,0.5
2025-06-08T1200,2379A,116.3564,28.0007,抚州市,采茶剧团,,37,37,29,19,18,76,,46,46,2,3,3,4,0.7,0.6
2025-06-08T1200,2380A,116.385,27.9647,抚州市,医学分院,,35,35,30,17,14,80,,47,47,1,5,5,6,0.4,0.5
2025-06-08T1200,2207A,121.6094,41.998,阜新市,工业园区,颗粒物(PM10),52,54,33,17,19,159,,88,88,18,43,24,20,0.6,0.5
2025-06-08T1200,2208A,121.6697,42.0279,阜新市,长青街,,,,22,9,13,145,,100,100,,26,21,18,0.5,0.4
2025-06-08T1200,2209A,121.6673,42.0705,阜新市,农业园区,,50,46,27,17,12,160,,99,99,14,25,22,16,0.6,0.5
2025-06-08T1200,2210A,121.6717,42.0224,阜新市,东苑,颗粒物(PM10),53,56,32,17,17,154,,104,104,17,27,21,19,0.6,0.5
2025-06-08T1200,2211A,121.6506,42.0498,阜新市,玉龙新城,,50,49,41,17,16,158,,82,82,14,38,24,14,0.7,0.6
2025-06-08T1200,2301A,115.8277,32.8929,阜阳市,市监测站,,41,36,30,20,18,129,,77,77,11,16,9,8,0.4,0.4
2025-06-08T1200,2303A,115.8554,32.8605,阜阳市,开发区,颗粒物(PM10),52,54,30,13,12,131,,76,76,9,12,5,5,0.3,0.3
2025-06-08T1200,2875A,115.784,32.8892,阜阳市,阜阳职业技术学院,,43,37,23,17,13,135,,90,90,9,12,4,4,0.5,0.5
2025-06-08T1200,3468A,115.7901,32.8613,阜阳市,市规划展馆,颗粒物(PM10),51,51,32,19,25,127,,80,80,9,12,2,2,0.5,0.5
2025-06-08T1200,3469A,115.836,32.9183,阜阳市,枣园社区,,45,45,58,24,26,115,,66,66,10,15,3,4,0.6,0.6
2025-06-08T1200,2669A,102.9099,34.9841,甘南藏族自治州,州政府,颗粒物(PM10),52,53,41,19,26,131,,55,55,2,12,5,3,0.3,0.4
2025-06-08T1200,3380A,102.8914,34.9617,甘南藏族自治州,甘肃民族师范学院,,50,50,58,21,24,123,,43,43,3,20,9,8,0.4,0.4
2025-06-08T1200,2570A,101.9603,30.0475,甘孜藏族自治州,水桥子,,25,25,16,13,10,51,,80,49,36,14,5,5,0.4,0.3
2025-06-08T1200,3065A,101.9533,29.9972,甘孜藏族自治州,州环保局,,28,28,19,10,7,70,,81,66,28,13,2,2,0.4,0.3
2025-06-08T1200,3414A,115.8347,28.932,赣江新区,桑海产业园,,25,19,16,14,10,79,,54,54,12,12,7,7,1.0,0.7
2025-06-08T1200,2362A,114.9017,25.9149,赣州市,通天岩,,33,32,31,10,6,103,,88,88,5,5,1,3,0.6,0.6
2025-06-08T1200,2363A,114.9367,25.8664,赣州市,地委,,34,26,26,22,18,108,,87,87,8,8,1,1,0.7,0.7
2025-06-08T1200,2364A,114.9461,25.8481,赣州市,气象台,,32,31,27,16,14,102,,86,86,4,4,8,8,0.3,0.2
2025-06-08T1200,2365A,114.9322,25.8333,赣州市,市图书馆,,32,23,24,22,19,93,,73,73,6,6,3,5,0.6,0.5
2025-06-08T1200,2366A,114.8905,25.8471,赣州市,华坚鞋城,,34,34,28,14,15,106,,81,81,8,6,4,5,0.2,0.2
2025-06-08T1200,3109A,115.0093,25.8613,赣州市,赣县区卫计委,,49,49,24,12,16,102,,90,90,6,8,2,2,0.1,0.2
2025-06-08T1200,2683A,106.2319,36.1417,固原市,马园,颗粒物(PM10),62,74,52,27,17,131,,71,71,6,29,8,7,0.2,0.3
2025-06-08T1200,2684A,106.2792,36.0022,固原市,监测站,颗粒物(PM10),56,62,45,24,16,134,,88,88,7,14,7,6,0.2,0.2
2025-06-08T1200,2685A,106.2375,36.0211,固原市,新区,颗粒物(PM10),58,65,43,16,15,133,,80,80,5,14,8,6,0.3,0.4
2025-06-08T1200,3522A,106.2177,35.9959,固原市,原州区十五小,颗粒物(PM10),57,63,48,24,19,134,,100,100,6,13,10,8,0.3,0.3
2025-06-08T1200,2543A,106.6308,30.5278,广安市,小平旧居,,,,,,,,,,,,,,,,
2025-06-08T1200,2544A,106.6303,30.4576,广安市,市委,,25,23,29,9,20,77,,45,45,8,14,1,1,0.4,0.5
2025-06-08T1200,2545A,106.6271,30.4663,广安市,友谊中学,,27,17,27,9,18,84,,48,48,7,13,5,5,0.7,0.7
2025-06-08T1200,2547A,106.6388,30.4551,广安市,广电花园,,23,18,29,6,18,71,,37,37,5,13,7,7,0.4,0.5
2025-06-08T1200,2902A,106.6351,30.4865,广安市,北辰小学,,26,21,28,11,18,83,,47,47,5,11,7,7,0.6,0.7
2025-06-08T1200,2523A,105.8945,32.4535,广元市,黑石坡,,34,32,25,9,10,106,,76,76,4,7,6,6,0.3,0.3
2025-06-08T1200,2524A,105.821,32.4444,广元市,老城,,,,29,,8,124,,107,107,5,12,8,4,0.5,0.6
2025-06-08T1200,2526A,105.8628,32.4287,广元市,监测站,,37,14,16,6,12,116,,71,71,6,15,4,4,0.4,0.5
2025-06-08T1200,3617A,105.8047,32.4166,广元市,经开区,,38,32,29,16,15,119,,99,99,8,17,3,3,0.4,0.4
2025-06-08T1200,1345A,113.2347,23.1423,广州市,广雅中学,,28,20,25,9,11,88,,44,44,4,10,2,2,0.6,0.7
2025-06-08T1200,1346A,113.2612,23.105,广州市,市五中,,31,22,23,10,11,97,,43,43,9,14,3,4,0.4,0.4
2025-06-08T1200,1348A,113.3478,23.0916,广州市,广东商学院,,32,21,23,12,12,100,,46,46,9,17,3,3,0.6,0.7
2025-06-08T1200,1349A,113.4332,23.1047,广州市,市八十六中,,29,24,24,11,10,92,,35,35,10,22,3,3,0.3,0.4
2025-06-08T1200,1350A,113.3505,22.9483,广州市,番禺中学,,32,26,21,12,11,100,,49,49,8,13,7,7,0.5,0.5
2025-06-08T1200,1351A,113.2146,23.3916,广州市,花都师范,,31,31,25,18,14,99,,46,46,7,12,4,3,0.7,0.7
2025-06-08T1200,1352A,113.2597,23.1331,广州市,市监测站,,29,20,24,11,11,92,,43,43,9,14,4,5,0.5,0.6
2025-06-08T1200,1353A,113.5618,23.312,广州市,九龙镇镇龙,,27,23,27,11,13,86,,34,34,12,22,6,6,0.4,0.5
2025-06-08T1200,1354A,113.2765,23.1544,广州市,麓湖,,26,20,21,9,11,83,,40,40,8,13,2,2,0.4,0.4
2025-06-08T1200,1355A,113.443,23.3035,广州市,帽峰山森林公园,,30,12,20,6,11,94,,,,5,14,7,7,0.6,0.7
2025-06-08T1200,2846A,113.3221,23.1322,广州市,体育西,,,,24,,10,,,113,,,17,,6,,0.5
2025-06-08T1200,3298A,113.5717,23.5491,广州市,从化街口,,30,17,25,9,14,95,,42,42,6,15,7,8,0.4,0.5
2025-06-08T1200,3299A,113.3472,23.3692,广州市,白云竹料,,35,25,28,10,14,112,,48,48,10,21,3,3,0.5,0.6
2025-06-08T1200,3300A,113.2981,23.237,广州市,白云嘉禾,,28,22,27,10,13,87,,40,40,9,17,5,5,0.6,0.7
2025-06-08T1200,3301A,113.4256,23.1716,广州市,黄埔科学城,,28,26,25,15,12,89,,36,36,9,20,4,4,0.5,0.5
2025-06-08T1200,3302A,113.3942,23.0483,广州市,番禺大学城,,31,24,26,10,12,98,,44,44,8,17,4,4,0.4,0.5
2025-06-08T1200,3303A,113.4922,22.8168,广州市,南沙黄阁,,28,28,25,15,10,89,,46,46,3,8,5,6,0.5,0.5
2025-06-08T1200,3304A,113.5342,22.7896,广州市,南沙街,,32,28,23,13,8,101,,47,47,10,12,3,4,0.2,0.2
2025-06-08T1200,3443A,113.2902,23.5544,广州市,花都梯面,,29,18,27,11,12,91,,37,37,10,17,4,4,0.5,0.5
2025-06-08T1200,3445A,113.7858,23.7478,广州市,从化良口,,30,17,29,12,18,96,,47,44,6,11,6,6,0.6,0.7
2025-06-08T1200,3446A,113.8051,23.2614,广州市,增城荔城,,35,28,25,15,14,110,,46,46,10,14,10,9,0.3,0.3
2025-06-08T1200,2505A,109.568,23.1478,贵港市,德智高中,,,,,,,,,,,,,,,,
2025-06-08T1200,2506A,109.6047,23.0666,贵港市,江南子站,,22,17,27,10,14,70,,35,35,3,12,5,5,0.5,0.5
2025-06-08T1200,2508A,109.5669,23.1065,贵港市,荷城子站,,25,25,25,7,10,67,,38,38,9,12,5,6,0.3,0.3
2025-06-08T1200,3405A,109.5886,23.1172,贵港市,新世纪学校,,28,22,25,19,15,70,,36,36,7,13,6,8,0.5,0.5
2025-06-08T1200,4260A,109.5933,23.0951,贵港市,中山路155-3号,,25,20,30,16,14,80,,42,42,7,13,3,4,0.4,0.4
2025-06-08T1200,1439A,106.6899,26.5998,贵阳市,马鞍山,,28,27,40,19,21,61,,76,57,10,9,3,3,0.5,0.5
2025-06-08T1200,1441A,106.6243,26.6266,贵阳市,鉴湖路,,49,44,45,34,28,78,,75,71,15,9,5,5,0.4,0.4
2025-06-08T1200,1442A,106.7487,26.6343,贵阳市,燕子冲,,49,34,44,34,36,105,,96,84,17,12,4,5,0.5,0.5
2025-06-08T1200,1443A,106.6555,26.4365,贵阳市,碧云窝,,44,44,46,27,27,117,,94,86,10,9,4,5,0.5,0.5
2025-06-08T1200,1445A,106.7109,26.6027,贵阳市,红边门,,45,34,49,31,39,112,,101,93,8,6,5,7,0.3,0.4
2025-06-08T1200,1446A,106.7164,26.5699,贵阳市,新华路,,45,39,39,31,29,115,,102,93,17,13,7,15,0.6,0.5
2025-06-08T1200,1447A,106.674,26.5424,贵阳市,太慈桥,,39,34,41,27,27,106,,90,76,14,13,6,6,0.3,0.4
2025-06-08T1200,1552A,106.805,26.3003,贵阳市,桐木岭,细颗粒物(PM2.5),58,61,55,41,37,101,,114,114,7,4,5,3,1.0,0.9
2025-06-08T1200,4230A,106.6882,26.5695,贵阳市,花果园大街66号,细颗粒物(PM2.5),54,41,44,38,39,105,,100,92,14,10,3,5,0.3,0.3
2025-06-08T1200,4231A,106.6873,26.5169,贵阳市,漓江路57号,,39,36,43,27,29,110,,95,86,9,10,1,2,0.4,0.4
2025-06-08T1200,1862A,110.4144,25.3167,桂林市,电子科大尧山校区,,,,,,,,,,,,,,,,
2025-06-08T1200,1864A,110.3089,25.2708,桂林市,龙隐路小学,,27,27,28,16,17,64,,51,51,6,10,8,9,0.3,0.3
2025-06-08T1200,1865A,110.2869,25.2178,桂林市,八中,,28,28,29,12,16,64,,50,50,4,9,7,7,0.5,0.6
2025-06-08T1200,3531A,110.296,25.1253,桂林市,旅游学院,,23,19,21,7,16,71,,48,48,5,9,3,4,0.3,0.3
2025-06-08T1200,4222A,110.1835,25.2444,桂林市,环湖路276号,,23,19,28,9,17,71,,51,51,2,15,5,7,0.3,0.4
2025-06-08T1200,4301A,110.2803,25.2773,桂林市,信义路13号,,22,20,30,9,17,68,,53,53,4,10,2,2,0.5,0.6
2025-06-08T1200,2674A,100.2561,34.4714,果洛藏族自治州,玛沁县大武镇,,38,19,20,15,16,119,,96,96,2,2,18,14,0.5,0.5
2025-06-08T1200,1129A,126.5422,45.755,哈尔滨市,岭北,,35,13,22,6,14,112,,57,57,9,29,11,12,0.6,0.7
2025-06-08T1200,1130A,126.561,45.8167,哈尔滨市,松北商大,,32,29,24,3,14,102,,38,38,7,27,7,6,0.4,0.5
2025-06-08T1200,1131A,126.979,45.5419,哈尔滨市,阿城会宁,,29,29,28,11,14,89,,44,44,21,25,6,6,0.4,0.4
2025-06-08T1200,1132A,126.599,45.7222,哈尔滨市,南岗学府路,,36,36,34,16,12,107,,38,38,9,36,8,9,0.5,0.6
2025-06-08T1200,1133A,126.689,45.7733,哈尔滨市,太平宏伟公园,颗粒物(PM10),67,84,33,8,16,106,,40,40,9,32,5,5,0.3,0.5
2025-06-08T1200,1134A,126.635,45.7667,哈尔滨市,道外承德广场,颗粒物(PM10),51,51,43,9,13,101,,39,39,10,32,6,6,0.3,0.5
2025-06-08T1200,1135A,126.685,45.7319,哈尔滨市,香坊红旗大街,颗粒物(PM10),51,51,30,7,16,107,,39,39,14,35,8,7,0.6,0.6
2025-06-08T1200,1136A,126.6411,45.7258,哈尔滨市,动力和平路,,,54,33,12,23,87,,35,35,18,36,,10,0.4,0.4
2025-06-08T1200,1137A,126.593,45.7478,哈尔滨市,道里建国路,,48,48,28,10,12,108,,43,43,9,36,10,8,0.5,1.2
2025-06-08T1200,1138A,126.615,45.61,哈尔滨市,平房东轻厂,颗粒物(PM10),52,54,27,15,11,105,,41,41,9,32,8,8,0.3,0.4
2025-06-08T1200,1139A,126.595,45.9855,哈尔滨市,呼兰师专,,33,33,43,7,16,99,,42,42,10,30,8,8,0.3,0.4
2025-06-08T1200,1140A,126.6206,45.6842,哈尔滨市,省农科院,颗粒物(PM10),83,115,51,8,16,97,,36,36,10,39,7,7,0.3,0.4
2025-06-08T1200,2688A,93.5128,42.8172,哈密市,地区监测站,细颗粒物(PM2.5),63,54,41,45,24,101,,86,86,5,12,6,3,0.1,0.1
2025-06-08T1200,2689A,93.4961,42.8328,哈密市,哈密师范学校,颗粒物(PM10),54,57,52,23,24,99,,80,80,10,23,6,5,0.2,0.5
2025-06-08T1200,2671A,100.9048,36.9639,海北藏族自治州,海晏县西海镇,,40,14,25,14,19,128,,108,108,2,4,8,6,0.4,0.4
2025-06-08T1200,3867A,102.0738,36.5056,海东市,平安区公安北苑,,36,35,45,20,23,114,,82,82,6,6,16,12,0.7,0.6
2025-06-08T1200,1409A,110.576,19.9507,海口市,东寨港,,,,,,,,,,,,,,,,
2025-06-08T1200,1410A,110.3232,20.0574,海口市,海南大学,,21,15,20,11,12,66,,47,47,5,4,2,2,0.3,0.4
2025-06-08T1200,1411A,110.283,20.0053,海口市,秀英海南医院,,19,19,24,12,12,58,,36,36,4,11,4,4,0.3,0.3
2025-06-08T1200,1412A,110.338,19.9969,海口市,海南师范大学,,20,18,22,9,12,62,,37,37,2,4,3,3,0.4,0.5
2025-06-08T1200,1413A,110.33,20.0356,海口市,龙华路环保局宿舍,,18,15,19,10,11,57,,43,43,4,5,4,4,0.2,0.3
2025-06-08T1200,3539A,110.5111,19.9736,海口市,桂林洋子站,,16,16,27,9,12,48,,33,33,4,7,4,4,0.2,0.2
2025-06-08T1200,2673A,100.6188,36.2866,海南藏族自治州,共和县恰卜恰镇,,39,23,33,12,16,124,,110,110,4,11,13,14,0.4,0.4
2025-06-08T1200,2676A,97.3731,37.3753,海西蒙古族藏族自治州,德令哈市,,39,22,22,8,16,124,,87,87,2,7,11,10,0.8,0.8
2025-06-08T1200,1048A,114.5302,36.6116,邯郸市,东污水处理厂,臭氧1小时,108,84,98,24,21,216,,132,132,13,17,7,7,0.5,0.6
2025-06-08T1200,1049A,114.4918,36.5713,邯郸市,矿院,臭氧1小时,109,58,75,19,23,217,,140,140,11,14,8,8,0.7,0.7
2025-06-08T1200,1050A,114.484,36.6133,邯郸市,丛台公园,臭氧1小时,110,73,90,36,30,220,,138,138,12,15,12,12,0.7,0.7
2025-06-08T1200,3458A,114.7895,36.5593,邯郸市,香泉濮院小区,臭氧1小时,105,116,139,19,23,209,,129,129,14,18,6,6,0.6,0.6
2025-06-08T1200,3579A,114.50634,36.77178,邯郸市,永年区实验高中,臭氧1小时,117,103,118,46,46,233,,137,137,17,19,9,8,0.5,0.5
2025-06-08T1200,3580A,114.20016,36.44293,邯郸市,峰峰矿区临水派出所,臭氧1小时,114,78,84,31,24,228,,148,148,6,9,17,14,0.9,0.7
2025-06-08T1200,2634A,106.9893,33.1842,汉中市,汉川机床厂子校,,33,20,27,12,15,104,,63,63,5,11,3,3,0.4,0.5
2025-06-08T1200,2635A,107.0154,33.0706,汉中市,市监测站,,31,15,33,12,18,99,,35,35,3,11,4,4,0.6,0.7
2025-06-08T1200,2636A,107.0089,33.1138,汉中市,鑫源开发区,,32,27,31,10,17,101,,41,41,5,15,5,5,0.4,0.5
2025-06-08T1200,2637A,107.007,33.0323,汉中市,南郑大河坎水厂,,34,26,32,12,18,108,,33,33,5,13,6,6,0.5,0.6
2025-06-08T1200,1223A,120.2072,30.2111,杭州市,滨江,,19,7,50,7,28,18,,40,32,38,34,6,6,0.6,0.5
2025-06-08T1200,1224A,120.0633,30.2747,杭州市,西溪,,9,8,46,6,27,26,,35,34,14,15,4,4,0.5,0.5
2025-06-08T1200,1226A,120.3417,30.3150,杭州市,下沙,,45,45,70,6,24,29,,44,30,38,33,6,6,0.5,0.4
2025-06-08T1200,1227A,120.1269,30.2456,杭州市,卧龙桥,,11,8,46,3,30,34,,30,30,17,21,7,7,0.5,0.5
2025-06-08T1200,1228A,120.1903,30.2692,杭州市,浙江农大,,18,7,38,6,29,20,,40,32,35,30,9,8,0.7,0.6
2025-06-08T1200,1230A,120.1197,30.3119,杭州市,和睦小学,,18,,44,12,28,34,,46,40,19,25,7,7,0.6,0.6
2025-06-08T1200,1231A,120.3019,30.4183,杭州市,临平镇,,14,8,49,3,23,34,,41,31,27,22,5,5,0.6,0.6
2025-06-08T1200,1232A,120.2753,30.1839,杭州市,城厢镇,,17,8,49,3,35,22,,38,28,34,26,6,7,1.0,0.9
2025-06-08T1200,1233A,120.0883,30.1808,杭州市,云栖,,15,6,27,3,24,27,,17,17,29,25,6,6,0.7,0.6
2025-06-08T1200,3557A,119.9464,30.0494,杭州市,镇二中,,16,,48,3,31,30,,45,34,32,27,3,3,0.7,0.7
2025-06-08T1200,3558A,119.7183,30.2367,杭州市,市府大楼,,11,9,41,3,32,34,,40,40,20,22,7,7,0.7,0.6
2025-06-08T1200,3656A,120.1556,30.2864,杭州市,消防大队,,19,16,46,8,32,21,,42,34,37,31,5,5,0.9,0.8
2025-06-08T1200,1270A,117.1959,31.7848,合肥市,明珠广场,,35,27,12,24,9,75,,76,71,19,13,4,4,0.9,0.7
2025-06-08T1200,1271A,117.3072,31.8764,合肥市,三里街,,42,36,14,29,12,75,,66,60,7,10,5,5,0.9,0.7
2025-06-08T1200,1272A,117.2588,31.8707,合肥市,琥珀山庄,,49,,14,34,21,78,,66,65,12,13,5,5,0.9,0.7
2025-06-08T1200,1273A,117.1604,31.9052,合肥市,董铺水库,,39,31,16,27,12,87,,68,68,2,2,2,2,0.6,0.4
2025-06-08T1200,1274A,117.25,31.8571,合肥市,长江中路,细颗粒物(PM2.5),57,46,20,40,16,88,,74,72,10,11,3,3,0.9,0.6
2025-06-08T1200,1275A,117.266,31.9436,合肥市,庐阳区,,45,36,16,31,14,91,,72,72,9,10,10,9,1.0,0.8
2025-06-08T1200,1276A,117.3453,31.8616,合肥市,瑶海区,,42,34,15,29,13,79,,71,65,12,12,6,6,1.1,0.9
2025-06-08T1200,1277A,117.3027,31.7964,合肥市,包河区,,39,27,14,27,12,63,,52,50,27,28,4,4,0.9,0.7
2025-06-08T1200,1278A,117.2776,31.7385,合肥市,滨湖新区,,25,,8,12,13,80,,71,71,6,9,8,8,0.7,0.7
2025-06-08T1200,1279A,117.1318,31.8403,合肥市,高新区,,43,31,17,30,14,84,,69,69,12,14,5,6,0.9,0.7
2025-06-08T1200,3464A,117.3803,31.9147,合肥市,高教基地,,34,34,17,23,14,80,,62,62,8,9,6,6,0.8,0.7
2025-06-08T1200,3614A,79.924,37.0877,和田地区,地区环保局,颗粒物(PM10),151,251,131,56,33,112,,86,86,8,10,2,3,0.6,0.6
2025-06-08T1200,3615A,79.9131,37.113,和田地区,市环保局,颗粒物(PM10),123,196,117,48,30,111,,75,75,6,18,2,2,0.2,0.3
2025-06-08T1200,2516A,108.2011,24.715,河池市,东仁乐园,,,,,,,,,,,,,,,,
2025-06-08T1200,2517A,108.0497,24.6947,河池市,市环保站,,15,7,27,7,16,47,,24,24,7,9,7,7,0.6,0.5
2025-06-08T1200,2518A,108.0983,24.6989,河池市,市疾控中心,,14,12,34,8,20,42,,22,22,14,19,7,7,0.6,0.6
2025-06-08T1200,1696A,114.6778,23.7569,河源市,源西,,34,31,28,16,20,106,,63,63,10,12,4,4,0.4,0.4
2025-06-08T1200,1697A,114.6944,23.7586,河源市,东埔,,35,25,23,16,19,112,,65,65,12,13,4,4,0.4,0.4
2025-06-08T1200,1698A,114.6892,23.7233,河源市,老城,,30,27,31,16,20,95,,59,59,11,15,3,4,0.4,0.5
2025-06-08T1200,1718A,115.4208,35.2464,菏泽市,气象局,颗粒物(PM10),128,205,159,73,47,247,,126,126,15,20,13,6,0.7,0.6
2025-06-08T1200,3374A,115.5564,35.0891,菏泽市,定陶老年大学,臭氧1小时,128,171,132,53,38,256,,115,115,17,19,2,3,0.5,0.5
2025-06-08T1200,4184A,115.4797,35.24401,菏泽市,永昌路1号,颗粒物(PM10),126,202,154,58,37,237,,115,115,15,17,5,3,0.4,0.3
2025-06-08T1200,4193A,115.4715,35.2800,菏泽市,长城路999号,颗粒物(PM10),129,207,164,59,40,220,,98,98,17,20,8,4,0.7,0.6
2025-06-08T1200,2514A,111.5264,24.4172,贺州市,环保小区,,40,,29,28,18,77,,43,43,4,10,10,14,0.6,0.8
2025-06-08T1200,2515A,111.5608,24.4078,贺州市,政协大楼,,26,15,24,13,20,82,,42,42,7,12,8,16,0.5,0.5
2025-06-08T1200,3534A,111.4744,24.4553,贺州市,西湾,,32,32,27,12,18,67,,34,34,9,13,9,10,0.5,0.5
2025-06-08T1200,2385A,114.17,35.9019,鹤壁市,市监测站,臭氧1小时,114,82,104,39,49,227,,147,147,16,23,16,14,0.7,0.9
2025-06-08T1200,2386A,114.2956,35.7511,鹤壁市,市交警支队,臭氧1小时,107,98,109,36,41,214,,134,134,13,18,7,11,0.8,1.2
2025-06-08T1200,2387A,114.2878,35.7306,鹤壁市,迎宾馆,臭氧1小时,110,116,137,32,46,220,,144,144,14,22,8,9,0.8,0.9
2025-06-08T1200,3474A,114.2617,35.6822,鹤壁市,大新区,臭氧1小时,109,69,86,33,41,217,,143,143,12,19,10,12,0.8,0.9
2025-06-08T1200,3596A,114.1572,35.9603,鹤壁市,南山宾馆,臭氧1小时,115,102,139,38,55,229,,146,146,11,18,11,10,0.8,1
2025-06-08T1200,2244A,130.2537,47.3416,鹤岗市,哈啤分公司,,42,,20,29,24,70,,39,39,10,8,17,15,0.5,0.4
2025-06-08T1200,2245A,130.2684,47.3086,鹤岗市,斯达机电,,25,25,28,14,18,74,,44,44,8,9,13,13,0.3,0.4
2025-06-08T1200,2246A,130.3114,47.3388,鹤岗市,东山纸板厂,,23,23,39,8,13,61,,30,30,14,16,15,15,0.4,0.9
2025-06-08T1200,2247A,130.1097,47.3382,鹤岗市,五号水库,,,,,,,,,,,,,,,,
2025-06-08T1200,2263A,127.4833,50.2524,黑河市,交通局,,22,22,22,9,11,67,,44,44,6,11,6,6,0.3,0.4
2025-06-08T1200,2264A,127.5144,50.2341,黑河市,环保局,,,,18,,9,,,49,,,8,,5,,0.2
2025-06-08T1200,2265A,127.5291,50.2472,黑河市,大黑河岛,,,,,,,43,,49,49,5,7,22,20,0.3,0.3
2025-06-08T1200,1074A,115.6838,37.7541,衡水市,电机北厂,臭氧1小时,65,60,85,16,32,172,,121,121,8,14,7,7,0.3,0.4
2025-06-08T1200,1075A,115.6303,37.7316,衡水市,市监测站,臭氧1小时,77,58,77,21,29,181,,126,126,7,12,4,9,0.4,0.4
2025-06-08T1200,3188A,115.6683,37.7217,衡水市,市城管局,臭氧1小时,83,53,85,14,34,186,,130,130,10,14,4,7,0.4,0.5
2025-06-08T1200,3459A,115.5989,37.5491,衡水市,地表水厂,臭氧1小时,94,75,94,27,27,195,,128,128,9,15,7,7,0.4,0.4
2025-06-08T1200,2456A,112.5003,26.9167,衡阳市,原169医院,,,,24,,15,,,81,,,13,,3,,0.6
2025-06-08T1200,2457A,112.6194,26.9258,衡阳市,衡阳化工总厂,,23,21,26,16,15,72,,46,46,8,10,5,6,0.4,0.5
2025-06-08T1200,2458A,112.6211,26.8956,衡阳市,珠晖区环保局,,,22,24,,,66,,43,43,8,8,5,7,0.5,0.5
2025-06-08T1200,2459A,112.6197,26.8733,衡阳市,市委党校,,24,24,26,14,14,66,,44,44,8,12,5,10,0.5,0.6
2025-06-08T1200,2460A,112.6006,26.8919,衡阳市,市监测站,,23,18,25,16,12,73,,50,50,7,10,7,9,0.4,0.4
2025-06-08T1200,2461A,112.5664,26.9056,衡阳市,真空机电公司,,25,,24,17,17,67,,46,46,6,9,6,7,0.7,0.9
2025-06-08T1200,3399A,112.6703,26.882,衡阳市,师范学院,,25,21,26,3,13,78,,47,47,7,9,6,8,0.7,0.8
2025-06-08T1200,2608A,103.3772,23.3993,红河哈尼族彝族自治州,污水处理厂,,24,24,29,16,20,50,,51,51,9,5,7,6,0.6,0.5
2025-06-08T1200,2609A,103.3861,23.35,红河哈尼族彝族自治州,监测站,,18,18,31,8,16,48,,52,50,5,4,3,3,0.2,0.2
2025-06-08T1200,3038A,103.3758,23.368,红河哈尼族彝族自治州,州图书馆,,19,13,24,7,16,59,,63,60,6,4,2,2,0.2,0.2
2025-06-08T1200,1090A,111.6507,40.7517,呼和浩特市,呼市一监,,37,12,15,3,8,118,,79,79,4,9,7,6,0.3,0.3
2025-06-08T1200,1091A,111.6572,40.8033,呼和浩特市,小召,,36,17,11,6,5,114,,81,81,12,15,4,4,0.4,0.3
2025-06-08T1200,1094A,111.7516,40.8369,呼和浩特市,如意水处理厂,,37,20,17,9,8,118,,74,74,6,14,5,5,0.2,0.2
2025-06-08T1200,1095A,111.7276,40.8062,呼和浩特市,二十九中,,35,15,19,10,10,112,,74,74,7,11,4,4,0.5,0.5
2025-06-08T1200,1096A,111.5512,40.7866,呼和浩特市,工大金川校区,,36,26,19,10,7,114,,69,69,13,17,12,6,0.5,0.4
2025-06-08T1200,1097A,111.717,40.7612,呼和浩特市,化肥厂生活区,,39,20,24,6,10,122,,80,80,5,10,6,6,0.2,0.3
2025-06-08T1200,3698A,111.5968,40.8178,呼和浩特市,红旗小学,,36,29,12,9,7,114,,77,77,11,12,6,3,0.3,0.2
2025-06-08T1200,3699A,111.6518,40.8389,呼和浩特市,海东办,,35,14,11,9,8,112,,73,73,5,12,4,4,0.5,0.4
2025-06-08T1200,2192A,119.7594,49.2261,呼伦贝尔市,区环保局,,28,23,31,19,22,58,,61,61,6,9,5,5,0.2,0.2
2025-06-08T1200,3061A,119.7512,49.1577,呼伦贝尔市,国华电力东,,26,26,29,12,17,61,,64,64,4,6,4,4,0.2,0.3
2025-06-08T1200,1250A,120.0751,30.8669,湖州市,城西水厂,,15,11,46,6,31,31,,38,30,29,26,5,6,0.6,0.7
2025-06-08T1200,2873A,120.0830,30.8929,湖州市,仁皇山新区,,15,6,41,3,26,40,,34,32,30,29,3,4,0.8,0.9
2025-06-08T1200,2907A,120.1844,30.8596,湖州市,吴兴区站,,15,12,35,3,28,31,,32,27,29,26,6,6,0.4,0.5
2025-06-08T1200,3562A,120.4148,30.8538,湖州市,南浔区站,,17,6,34,3,34,52,,33,33,21,27,3,4,0.6,0.7
2025-06-08T1200,1607A,120.9049,40.7211,葫芦岛市,龙港区,颗粒物(PM10),54,58,25,15,10,145,,89,89,12,22,11,11,0.6,0.4
2025-06-08T1200,1608A,120.8392,40.7514,葫芦岛市,化工街,,44,44,29,12,11,136,,72,72,21,46,9,9,0.6,0.4
2025-06-08T1200,1609A,120.8341,40.7073,葫芦岛市,新区,,41,41,23,13,9,130,,71,71,17,28,8,7,0.7,0.5
2025-06-08T1200,1610A,120.8695,40.7677,葫芦岛市,东城区,颗粒物(PM10),56,62,45,16,18,134,,64,64,19,47,8,29,0.7,0.5
2025-06-08T1200,2482A,109.5981,27.5721,怀化市,林科所,,21,21,21,14,5,60,,60,60,2,2,4,5,0.3,0.3
2025-06-08T1200,2483A,109.9453,27.5444,怀化市,河西地税局,,23,22,18,16,11,55,,52,52,6,5,3,2,0.3,0.3
2025-06-08T1200,2484A,109.9781,27.5342,怀化市,市四医院,,38,38,41,22,12,57,,49,49,4,3,1,2,0.5,0.5
2025-06-08T1200,2485A,109.9972,27.5578,怀化市,监测楼,,35,35,20,23,13,55,,53,53,3,3,8,7,0.2,0.1
2025-06-08T1200,2486A,110.0394,27.583,怀化市,市委党校,,28,19,18,19,11,58,,55,55,2,2,5,6,0.6,0.5
2025-06-08T1200,1210A,119.036,33.5981,淮安市,钵池山,,47,36,35,20,30,150,,97,97,7,13,7,7,0.4,0.6
2025-06-08T1200,1211A,119.007,33.575,淮安市,北京南路,,49,34,36,16,30,156,,106,106,2,9,7,7,0.3,0.4
2025-06-08T1200,1212A,118.989,33.6067,淮安市,市监测站,,46,31,40,14,29,145,,98,98,5,11,8,8,0.3,0.5
2025-06-08T1200,1213A,119.135,33.5039,淮安市,楚州区监测站,,40,39,46,17,21,125,,84,84,2,7,8,7,0.5,0.5
2025-06-08T1200,3426A,118.8755,33.2894,淮安市,新华书店,,40,25,29,8,21,125,,89,89,4,12,8,8,0.4,0.6
2025-06-08T1200,4206A,119.0288,33.6319,淮安市,承德北路606号,,47,36,43,22,29,148,,96,96,4,11,6,6,0.5,0.6
2025-06-08T1200,2282A,116.8004,33.975,淮北市,监测站,臭氧1小时,79,74,40,37,24,183,,113,113,3,7,7,7,0.7,0.7
2025-06-08T1200,2283A,116.8091,33.9007,淮北市,烈山区政府,臭氧1小时,60,45,33,31,24,168,,109,109,7,9,6,6,0.9,0.9
2025-06-08T1200,3330A,116.8873,33.9836,淮北市,杜集区检察院,臭氧1小时,67,81,52,28,31,173,,110,110,2,7,9,8,0.9,0.9
2025-06-08T1200,4017A,116.7923,33.9535,淮北市,市博物馆,臭氧1小时,77,59,39,37,24,181,,120,120,6,10,8,8,0.9,0.9
2025-06-08T1200,2277A,116.8305,32.7727,淮南市,潘集区政府,,41,33,20,23,15,131,,72,72,5,13,3,3,0.6,0.6
2025-06-08T1200,2279A,116.8569,32.5951,淮南市,谢家集区政府,,39,22,31,22,13,122,,70,70,6,11,5,6,0.2,0.2
2025-06-08T1200,2280A,116.8281,32.633,淮南市,八公山区政府,,43,43,31,27,18,130,,77,77,9,12,6,6,0.2,0.3
2025-06-08T1200,2281A,116.6325,32.6201,淮南市,焦岗湖风景区管理处,,,,,,,,,,,,,,,,
2025-06-08T1200,2894A,117.0566,32.6531,淮南市,经济技术开发区消防队,,45,,22,31,24,109,,68,68,7,15,6,6,0.4,0.5
2025-06-08T1200,3329A,117.0108,32.5893,淮南市,山南新区,,39,28,18,27,11,111,,68,68,4,7,7,7,0.5,0.5
2025-06-08T1200,4209A,117.0031,32.6445,淮南市,国庆中路369号,,37,,20,21,29,117,,68,68,6,11,6,5,0.3,0.3
2025-06-08T1200,2446A,114.9028,30.4742,黄冈市,职工中心,,,,10,,8,,,53,,,2,,5,,0.4
2025-06-08T1200,2929A,114.8858,30.4519,黄冈市,红卫路,,28,14,15,3,8,88,,64,64,2,2,1,1,0.7,0.7
2025-06-08T1200,3398A,114.9136,30.4445,黄冈市,市林业局,,25,16,18,9,11,77,,58,58,1,4,6,6,0.6,0.6
2025-06-08T1200,2672A,102.0199,35.5102,黄南藏族自治州,同仁县隆务镇,,40,26,38,22,17,127,,91,91,2,2,5,5,0.3,0.3
2025-06-08T1200,2295A,118.2903,29.6963,黄山市,延安路89号,,16,,19,3,12,49,,41,41,4,7,5,5,0.5,0.6
2025-06-08T1200,2297A,118.1371,30.2756,黄山市,黄山区政府5号楼,,20,12,14,8,10,62,,36,36,4,5,3,3,0.5,0.4
2025-06-08T1200,4210A,118.3354,29.7203,黄山市,滨江东路7-2号,,17,14,21,3,10,53,,42,42,3,7,4,4,0.3,0.4
2025-06-08T1200,2423A,115.0601,30.2313,黄石市,沈家营,,30,30,35,3,6,60,,29,29,8,15,7,6,0.6,0.7
2025-06-08T1200,2426A,114.8988,30.2019,黄石市,铁山,,21,8,18,3,6,65,,45,45,4,12,4,3,0.5,0.5
2025-06-08T1200,2427A,115.0307,30.2092,黄石市,团城山,,27,27,32,3,5,60,,50,50,6,8,6,7,0.5,0.5
2025-06-08T1200,3149A,115.0235,30.1578,黄石市,笔架山北路,,21,21,23,3,3,60,,42,42,4,7,4,5,0.6,0.7
2025-06-08T1200,4185A,115.0780,30.21118,黄石市,磁湖东路29号,,35,35,43,6,10,40,,31,31,23,20,6,7,0.8,0.8
2025-06-08T1200,1392A,114.4183,23.0528,惠州市,河南岸金山湖子站,,25,15,22,10,12,79,,39,39,7,12,7,6,0.4,0.5
2025-06-08T1200,1393A,114.4053,23.0822,惠州市,下埔横江三路子站,,30,14,23,7,13,93,,50,50,5,11,5,4,0.3,0.3
2025-06-08T1200,1394A,114.4103,23.1142,惠州市,江北云山西路子站,,,,,,,,,88,,,6,,6,,0.3
2025-06-08T1200,1395A,114.4645,22.7833,惠州市,惠阳区承修路船湖子站,,28,16,15,8,9,89,,45,45,12,12,7,7,0.4,0.5
2025-06-08T1200,1396A,114.5317,22.7422,惠州市,大亚湾管委会子站,,29,21,17,11,8,92,,39,39,12,12,9,8,0.5,0.5
2025-06-08T1200,3314A,114.4338,22.8134,惠州市,惠阳秋长,,35,24,21,11,12,109,,44,44,9,12,2,4,0.5,0.6
2025-06-08T1200,3452A,114.6517,22.775,惠州市,大亚湾霞涌,,26,26,19,10,7,75,,46,46,7,8,5,6,0.3,0.4
2025-06-08T1200,2240A,130.9762,45.3001,鸡西市,环保局,,34,15,25,3,11,107,,68,68,9,19,6,6,0.2,0.3
2025-06-08T1200,2243A,130.9429,45.3039,鸡西市,第一中学,,,,,,,,,,,,,,,,
2025-06-08T1200,3707A,131.0207,45.3073,鸡西市,欧美日汽修厂,,34,,33,15,14,106,,60,60,6,17,5,6,0.5,0.5
2025-06-08T1200,3709A,130.9967,45.3106,鸡西市,市政设施管理处,,34,17,26,3,11,107,,64,64,11,21,7,6,0.4,0.4
2025-06-08T1200,2367A,114.9754,27.0803,吉安市,红声器材厂,,32,26,25,16,13,102,,64,64,7,12,9,9,0.8,0.6
2025-06-08T1200,2368A,114.9658,27.0999,吉安市,市森林工业局,,31,31,24,15,14,96,,62,62,3,6,5,6,0.6,0.5
2025-06-08T1200,2369A,114.99,27.1312,吉安市,市环境监测站,,32,31,22,14,11,101,,66,66,1,3,11,11,0.6,0.7
2025-06-08T1200,2370A,115.0093,27.0968,吉安市,青原区法院,,32,29,24,18,16,100,,64,64,4,7,8,7,0.5,0.5
2025-06-08T1200,1772A,126.54,43.8622,吉林市,哈达湾,,42,16,19,10,12,134,,82,82,7,18,6,6,0.2,0.3
2025-06-08T1200,1773A,126.5844,43.8358,吉林市,东局子,,43,21,28,7,8,135,,85,85,11,14,7,6,0.5,0.6
2025-06-08T1200,1774A,126.5052,43.8245,吉林市,电力学院,,40,11,29,3,12,128,,70,70,8,25,6,5,0.4,0.4
2025-06-08T1200,1775A,126.6133,43.8972,吉林市,江北,,42,17,24,7,12,132,,79,79,9,15,8,8,0.5,0.5
2025-06-08T1200,1776A,126.555,43.8306,吉林市,江南公园,,41,15,19,10,11,131,,80,80,8,13,6,5,0.3,0.3
2025-06-08T1200,1778A,126.7061,43.7133,吉林市,丰满,,,,,,,,,,,,,,,,
2025-06-08T1200,2868A,126.4739,43.953,吉林市,九站,,43,20,26,6,14,135,,80,80,7,30,6,8,0.3,0.4
2025-06-08T1200,1299A,116.9862,36.6114,济南市,科干所,臭氧1小时,106,83,81,39,34,212,,119,119,22,27,8,7,0.7,0.7
2025-06-08T1200,1300A,116.9376,36.665,济南市,农科所,臭氧1小时,102,93,87,32,32,203,,95,95,20,28,9,10,0.4,0.4
2025-06-08T1200,1301A,117.1265,36.6734,济南市,开发区,臭氧1小时,104,90,84,34,35,208,,130,130,23,26,11,10,1.0,0.9
2025-06-08T1200,1303A,117.0624,36.6868,济南市,省种子仓库,臭氧1小时,111,92,94,31,38,221,,137,137,15,22,8,9,0.8,0.7
2025-06-08T1200,1304A,116.9489,36.6447,济南市,机床二厂,臭氧1小时,95,93,101,32,37,196,,101,101,22,29,8,8,0.7,0.7
2025-06-08T1200,1305A,117.0495,36.663,济南市,市监测站,臭氧1小时,106,98,92,39,38,211,,128,128,22,27,12,12,0.8,0.8
2025-06-08T1200,1306A,116.7675,36.5484,济南市,长清党校,臭氧1小时,108,103,91,46,40,216,,108,108,18,34,9,8,0.9,0.8
2025-06-08T1200,1616A,117.6795,36.229,济南市,技术学院,臭氧1小时,122,83,76,39,41,243,,152,152,14,24,16,16,1.4,1.1
2025-06-08T1200,1961A,117.532,36.6868,济南市,东山小学,臭氧1小时,97,71,80,32,34,197,,126,126,11,19,6,6,0.3,0.4
2025-06-08T1200,3059A,117.7161,36.2049,济南市,泰兴公司,臭氧1小时,116,88,72,36,38,231,,146,146,12,22,12,12,0.9,1
2025-06-08T1200,3064A,117.6867,36.2171,济南市,莱芜战役纪念馆,臭氧1小时,119,80,78,35,42,237,,158,158,8,18,11,11,1.3,1.4
2025-06-08T1200,3494A,117.1673,36.9782,济南市,济阳区政府,臭氧1小时,110,115,85,42,37,220,,120,120,14,13,10,8,0.5,0.5
2025-06-08T1200,3495A,117.1171,36.63,济南市,锦屏中学,臭氧1小时,94,85,74,34,33,195,,126,126,22,20,10,10,1.0,0.9
2025-06-08T1200,3682A,116.9814,36.6819,济南市,济南四建,臭氧1小时,107,78,93,34,39,213,,126,126,21,31,7,9,0.6,0.6
2025-06-08T1200,1653A,116.6251,35.4302,济宁市,火炬城,颗粒物(PM10),70,90,66,39,27,161,,86,86,7,17,6,6,0.8,0.7
2025-06-08T1200,1655A,116.5491,35.4042,济宁市,电化厂,颗粒物(PM10),71,91,66,34,26,174,,107,107,1,9,4,3,0.8,0.7
2025-06-08T1200,3500A,116.5814,35.3707,济宁市,北湖一中,臭氧1小时,69,78,65,37,28,175,,100,100,9,12,12,8,0.3,0.3
2025-06-08T1200,3501A,116.8249,35.5593,济宁市,服务中心,臭氧1小时,92,70,56,25,20,193,,104,104,15,18,3,2,0.6,0.4
2025-06-08T1200,3678A,116.5907,35.4054,济宁市,市第七中学,颗粒物(PM10),93,135,76,29,21,178,,107,107,5,10,10,9,0.6,0.5
2025-06-08T1200,2255A,130.2751,46.8028,佳木斯市,佳纺,,28,,15,7,7,87,,58,58,7,13,6,5,0.2,0.2
2025-06-08T1200,2256A,130.3995,46.8307,佳木斯市,发电厂,,29,17,15,12,11,90,,56,56,8,16,4,4,0.4,0.4
2025-06-08T1200,2257A,130.3258,46.7975,佳木斯市,环保局,,28,16,16,12,9,89,,58,58,7,12,4,4,0.3,0.2
2025-06-08T1200,2258A,130.3648,46.8032,佳木斯市,十一中,,26,15,16,10,16,83,,52,52,9,16,4,4,0.3,0.3
2025-06-08T1200,2259A,130.3794,46.7588,佳木斯市,四丰,,,11,13,,0,,,,,6,10,1,1,0.4,0.4
2025-06-08T1200,1252A,120.7436,30.778,嘉兴市,清河小学,,19,,32,3,20,60,,37,37,18,26,6,6,0.7,0.7
2025-06-08T1200,1253A,120.726,30.7478,嘉兴市,嘉兴学院,,15,10,34,3,24,48,,34,34,22,24,4,5,0.5,0.6
2025-06-08T1200,2872A,120.7846,30.7525,嘉兴市,南湖区残联,,20,6,36,3,21,62,,40,40,16,24,5,5,0.6,0.7
2025-06-08T1200,3407A,120.6916,30.7739,嘉兴市,秀洲住建,,17,6,23,3,16,52,,33,33,20,26,5,6,0.7,0.8
2025-06-08T1200,1945A,98.2908,39.7711,嘉峪关市,气象局,颗粒物(PM10),51,51,46,22,21,120,,106,106,5,7,25,12,0.5,0.3
2025-06-08T1200,2884A,98.2672,39.7978,嘉峪关市,酒钢宾馆,细颗粒物(PM2.5),64,56,51,46,21,119,,103,103,2,5,15,9,0.4,0.3
2025-06-08T1200,3248A,98.2643,39.7724,嘉峪关市,雄关区,,38,38,48,15,20,120,,104,104,5,11,9,11,0.4,0.4
2025-06-08T1200,1383A,113.1064,22.6058,江门市,北街,,30,30,23,10,9,68,,38,38,7,10,3,3,0.3,0.3
2025-06-08T1200,1384A,113.0731,22.5835,江门市,西区,,20,14,20,13,11,63,,35,35,5,9,7,8,0.3,0.4
2025-06-08T1200,1385A,113.0219,22.5311,江门市,圭峰西,,36,36,20,8,8,58,,35,35,3,6,4,4,0.3,0.4
2025-06-08T1200,1386A,113.0828,22.5947,江门市,东湖,,20,16,16,9,9,62,,34,34,6,10,9,9,0.3,0.3
2025-06-08T1200,3311A,113.1075,22.5647,江门市,江海富民,,29,29,31,6,13,76,,39,39,8,11,8,8,0.4,0.4
2025-06-08T1200,3449A,113.05,22.4667,江门市,新会银湖,,26,26,22,9,11,65,,27,27,4,9,3,2,0.3,0.3
2025-06-08T1200,1830A,113.1992,35.2590,焦作市,影视城,,,,80,,32,,,,,,12,,19,,0.9
2025-06-08T1200,3169A,113.2725,35.2067,焦作市,太极体育中心,臭氧1小时,131,142,162,64,66,262,,134,134,16,30,16,12,0.7,0.6
2025-06-08T1200,3335A,113.3137,35.2641,焦作市,马村街道办,臭氧1小时,129,139,149,66,59,258,,167,167,19,26,24,22,1.0,0.9
2025-06-08T1200,3336A,113.2465,35.2373,焦作市,焦作技师学院,臭氧1小时,128,129,133,48,47,256,,169,169,14,15,18,14,1.3,1.2
2025-06-08T1200,3477A,113.1656,35.2539,焦作市,中站许衡医院,臭氧1小时,117,123,142,44,42,233,,160,160,17,28,16,14,1.1,0.9
2025-06-08T1200,3981A,113.2449,35.1803,焦作市,原李万街道办,臭氧1小时,133,164,153,58,51,265,,131,131,16,32,25,20,0.4,0.3
2025-06-08T1200,4264A,113.2340,35.2190,焦作市,新安路1731号,臭氧1小时,129,130,162,51,53,258,,133,133,11,25,18,14,1.2,1.1
2025-06-08T1200,1708A,116.3701,23.5345,揭阳市,新兴,,29,21,35,20,23,85,,60,60,5,10,5,8,0.8,0.8
2025-06-08T1200,1709A,116.3264,23.5443,揭阳市,西马,,26,24,36,18,19,81,,55,55,5,8,4,4,0.7,0.7
2025-06-08T1200,1710A,116.3611,23.5626,揭阳市,东兴,,30,28,31,13,20,96,,68,68,4,8,2,6,0.4,0.5
2025-06-08T1200,1711A,116.4151,23.5294,揭阳市,渔湖,,35,35,27,12,17,81,,58,58,20,16,1,5,0.6,0.7
2025-06-08T1200,3320A,116.403,23.5699,揭阳市,曲溪,,30,26,32,12,21,95,,69,69,5,8,3,7,0.5,0.6
2025-06-08T1200,1944A,102.1692,38.5167,金昌市,天庆家园,,39,22,31,10,16,123,,80,80,5,8,13,14,0.7,0.8
2025-06-08T1200,4022A,102.1647,38.5371,金昌市,金川区人防中心,,39,16,41,10,16,124,,79,79,5,7,15,25,0.5,0.6
2025-06-08T1200,4239A,102.1930,38.5319,金昌市,长春路96号,,39,21,37,11,14,123,,82,82,3,7,15,34,0.3,0.9
2025-06-08T1200,1262A,119.647,29.077,金华市,十五中,细颗粒物(PM2.5),169,,50,128,50,26,,43,30,43,20,2,2,1.0,0.7
2025-06-08T1200,1263A,119.686,29.1029,金华市,监测站,颗粒物(PM10),58,65,57,38,37,4,,32,13,38,20,3,4,0.8,0.6
2025-06-08T1200,3659A,119.656,29.1131,金华市,气象局,颗粒物(PM10),61,71,69,35,41,16,,24,14,43,29,3,3,1.0,0.8
2025-06-08T1200,1767A,121.1115,41.0879,锦州市,南山,颗粒物(PM10),52,53,34,20,20,144,,71,71,25,39,14,23,0.8,0.8
2025-06-08T1200,1768A,121.0604,40.8428,锦州市,开发区,颗粒物(PM10),66,82,53,14,13,126,,81,81,22,44,8,33,0.7,0.7
2025-06-08T1200,1769A,121.1836,41.1119,锦州市,百股街道,颗粒物(PM10),54,57,30,14,12,137,,85,85,23,23,12,19,0.7,0.7
2025-06-08T1200,1770A,121.1178,41.1222,锦州市,天安街道,颗粒物(PM10),51,51,39,17,19,155,,80,80,27,37,14,20,0.7,0.6
2025-06-08T1200,1771A,121.1303,41.1386,锦州市,北湖公园,颗粒物(PM10),55,60,33,16,17,151,,92,92,25,27,17,34,0.7,0.8
2025-06-08T1200,2160A,112.85,35.5051,晋城市,自来水公司,臭氧1小时,113,90,109,36,40,226,,159,159,13,19,7,9,0.6,0.8
2025-06-08T1200,2161A,112.8318,35.4936,晋城市,白云商贸,臭氧1小时,93,107,109,31,34,194,,134,134,16,23,13,13,0.8,0.9
2025-06-08T1200,2162A,112.8508,35.4887,晋城市,市环保局,臭氧1小时,106,91,124,34,39,211,,148,148,12,20,12,13,0.5,0.7
2025-06-08T1200,2163A,112.8676,35.4897,晋城市,技术学院,臭氧1小时,109,67,111,34,37,217,,146,146,12,21,12,13,1.0,1.1
2025-06-08T1200,2165A,112.8453,35.546,晋城市,白马寺,臭氧1小时,119,96,86,53,45,237,,166,166,12,16,12,13,1.2,1.5
2025-06-08T1200,3620A,112.8271,35.4828,晋城市,泽州一中,臭氧1小时,111,99,111,31,41,221,,155,155,15,21,3,5,0.3,0.5
2025-06-08T1200,2173A,112.7249,37.7067,晋中市,南都小区,臭氧1小时,100,58,75,26,27,200,,134,134,7,15,6,7,0.7,0.7
2025-06-08T1200,2174A,112.6991,37.6982,晋中市,榆次区政府,,,66,71,26,25,200,,133,133,,15,7,6,0.8,0.7
2025-06-08T1200,2865A,112.7195,37.6828,晋中市,榆次三中,臭氧1小时,101,61,69,27,21,201,,132,132,8,16,8,8,0.5,0.5
2025-06-08T1200,4200A,112.7478,37.6954,晋中市,迎宾街26号,臭氧1小时,102,58,72,27,23,203,,132,132,9,16,8,8,0.5,0.5
2025-06-08T1200,2439A,112.2014,31.0481,荆门市,竹园小学,,42,,16,29,18,107,,98,98,10,9,6,6,0.4,0.4
2025-06-08T1200,2440A,112.1969,30.9891,荆门市,掇刀,,37,32,25,23,18,117,,108,108,8,9,6,6,0.6,0.5
2025-06-08T1200,2441A,112.2213,31.0386,荆门市,石化一小,,34,30,42,17,12,107,,97,96,10,10,16,15,0.3,0.3
2025-06-08T1200,3012A,112.1849,31.0362,荆门市,西山林语,,35,23,22,21,19,112,,105,105,4,5,9,9,0.4,0.4
2025-06-08T1200,3547A,112.1632,31.0138,荆门市,龙泉中学南校,,37,,20,20,14,117,,112,112,2,3,3,2,0.4,0.4
2025-06-08T1200,1844A,112.2494,30.3197,荆州市,市图书馆,,35,,25,24,16,97,,106,85,12,11,2,3,0.6,0.6
2025-06-08T1200,1845A,112.2008,30.3544,荆州市,市委党校,,28,20,25,15,16,87,,94,77,11,13,6,6,0.5,0.4
2025-06-08T1200,3194A,112.2747,30.3122,荆州市,管委会,,29,28,29,20,18,87,,100,82,10,9,4,5,0.7,0.6
2025-06-08T1200,4268A,112.1722,30.3366,荆州市,学苑路85号,,30,,24,21,20,87,,93,78,1,6,3,3,0.2,0.2
2025-06-08T1200,2342A,117.3102,29.3867,景德镇市,王港中学,,,,,,,,,,,,,,,,
2025-06-08T1200,2343A,117.2117,29.2933,景德镇市,老干部活动中心,,,,28,26,20,82,,35,35,,12,19,6,,0.7
2025-06-08T1200,2344A,117.1894,29.2789,景德镇市,兽医站,,25,25,44,17,25,71,,25,25,10,15,5,5,0.6,0.7
2025-06-08T1200,2345A,117.1547,29.2617,景德镇市,台达陶瓷,颗粒物(PM10),57,64,47,35,29,78,,28,28,14,21,8,34,0.3,0.5
2025-06-08T1200,2346A,117.2461,29.2956,景德镇市,陶研所,,30,30,35,21,24,82,,32,32,10,12,6,4,0.4,0.4
2025-06-08T1200,1803A,115.9872,29.6815,九江市,十里,,28,,18,19,18,68,,62,62,10,11,6,3,0.8,0.7
2025-06-08T1200,1804A,115.9584,29.7046,九江市,茅山头,,21,9,17,3,12,66,,56,56,13,14,4,3,0.6,0.5
2025-06-08T1200,1805A,115.9877,29.7295,九江市,西园,,26,6,15,3,10,83,,69,69,15,23,4,4,1.0,1
2025-06-08T1200,1808A,115.9114,29.6038,九江市,综合工业园,,26,16,22,3,12,82,,60,60,9,21,7,7,0.9,1
2025-06-08T1200,1809A,116.0721,29.7535,九江市,石化总厂,,22,13,23,9,23,68,,52,52,11,17,5,6,0.9,0.9
2025-06-08T1200,1810A,115.9773,29.5698,九江市,庐山气象台,,19,12,12,3,3,59,,63,60,6,4,6,18,1.3,0.8
2025-06-08T1200,3190A,116.0254,29.6994,九江市,外国语学校,,23,,15,16,14,62,,55,55,10,10,6,6,1.0,1
2025-06-08T1200,4253A,116.0102,29.6594,九江市,莲花大道8号,,19,,14,13,13,60,,44,44,2,3,4,4,0.8,0.7
2025-06-08T1200,4240A,98.4958,39.7339,酒泉市,玉门东路5号,,48,48,54,22,28,116,,95,95,2,5,9,15,0.2,0.3
2025-06-08T1200,4241A,98.5099,39.7506,酒泉市,北大街108号,,48,48,53,20,23,132,,108,108,2,10,9,16,0.2,0.3
2025-06-08T1200,2698A,76.0072,39.4467,喀什地区,巡警大队,颗粒物(PM10),86,121,125,30,30,79,,100,75,34,11,8,6,0.4,0.3
2025-06-08T1200,2699A,75.9755,39.4694,喀什地区,吾办,颗粒物(PM10),79,108,131,56,49,86,,102,84,21,14,4,3,0.5,0.4
2025-06-08T1200,4027A,75.9483,39.4689,喀什地区,老干局,颗粒物(PM10),77,103,126,21,25,48,,101,74,10,6,5,5,0.2,0.3
2025-06-08T1200,1824A,114.3389,34.7781,开封市,肿瘤医院,臭氧1小时,113,130,114,38,45,225,,147,147,8,15,8,6,0.6,0.7
2025-06-08T1200,1826A,114.2885,34.7965,开封市,世纪星幼儿园,,,,115,,56,97,,109,109,24,23,,6,0.7,0.7
2025-06-08T1200,3147A,114.3438,34.8106,开封市,龙亭公园,臭氧1小时,113,130,112,30,45,225,,144,144,12,19,7,4,0.4,0.4
2025-06-08T1200,3210A,114.3644,34.7964,开封市,汴京公园,臭氧1小时,117,140,152,34,53,234,,145,145,12,19,11,8,0.9,1
2025-06-08T1200,3473A,114.2485,34.8306,开封市,技师学院,臭氧1小时,112,122,128,30,58,224,,139,139,13,24,9,6,0.9,1
2025-06-08T1200,3592A,114.4644,34.7556,开封市,祥符区生态环境局,臭氧1小时,120,167,101,58,42,239,,136,136,13,24,11,7,0.7,0.5
2025-06-08T1200,1951A,84.895,45.6094,克拉玛依市,长征新村,颗粒物(PM10),57,64,44,26,9,100,,93,93,3,6,3,3,0.2,0.2
2025-06-08T1200,1952A,84.8988,45.5893,克拉玛依市,南林小区,颗粒物(PM10),53,56,43,20,14,112,,104,104,5,16,11,11,0.2,0.1
2025-06-08T1200,1954A,84.905,44.3396,克拉玛依市,独山子区,颗粒物(PM10),58,66,40,20,17,106,,95,95,10,11,7,10,0.2,0.3
2025-06-08T1200,1955A,85.6979,46.098,克拉玛依市,乌尔禾区商贸楼,颗粒物(PM10),54,57,46,10,9,98,,92,92,2,8,4,4,0.2,0.3
2025-06-08T1200,3612A,85.1045,45.6899,克拉玛依市,白碱滩区新站,颗粒物(PM10),64,77,61,38,28,117,,110,110,2,5,14,14,0.2,0.2
2025-06-08T1200,2697A,76.1454,39.7142,克孜勒苏柯尔克孜自治州,市人民政府,颗粒物(PM10),76,102,116,45,42,114,,120,106,4,5,6,6,0.5,0.4
2025-06-08T1200,3665A,76.1658,39.7157,克孜勒苏柯尔克孜自治州,克州文化中心,颗粒物(PM10),72,94,127,42,43,109,,120,105,5,4,6,8,0.4,0.3
2025-06-08T1200,1450A,102.8204,24.8886,昆明市,呈贡新区,,38,34,25,26,21,98,,68,68,12,13,6,6,0.6,0.6
2025-06-08T1200,1451A,102.6251,24.9608,昆明市,西山森林公园,,,,,,,,,,,,,,,,
2025-06-08T1200,1452A,102.7252,25.0902,昆明市,龙泉镇,,38,26,32,26,19,80,,35,35,14,22,1,2,0.5,0.4
2025-06-08T1200,1453A,102.7266,25.0375,昆明市,东风东路,,45,45,34,30,21,105,,64,64,18,16,6,6,0.5,0.4
2025-06-08T1200,1454A,102.6742,25.0669,昆明市,金鼎山,,42,35,33,29,21,107,,48,48,13,16,2,2,0.5,0.4
2025-06-08T1200,1455A,102.6644,25.0401,昆明市,碧鸡广场,,34,27,34,14,19,107,,56,56,9,16,6,6,0.6,0.6
2025-06-08T1200,3179A,102.7494,25.0119,昆明市,官渡区博物馆,,40,32,31,28,19,99,,60,60,14,11,7,6,0.4,0.4
2025-06-08T1200,3375A,102.8017,24.8336,昆明市,青年创业园,,32,26,31,21,21,101,,55,55,5,16,9,9,0.6,0.7
2025-06-08T1200,3550A,102.7997,24.9786,昆明市,昆明学院,颗粒物(PM10),53,56,35,34,21,98,,63,63,16,12,6,6,0.3,0.3
2025-06-08T1200,3551A,102.5967,24.6736,昆明市,晋宁区生态环境分局,,45,,28,31,19,101,,59,59,8,9,3,2,0.5,0.4
2025-06-08T1200,3552A,102.6678,24.9856,昆明市,云天化总部,,30,20,30,15,22,96,,59,59,6,12,4,4,0.5,0.4
2025-06-08T1200,1456A,91.1319,29.6514,拉萨市,八廓街,,45,23,11,10,7,142,,94,94,6,8,7,9,0.3,0.2
2025-06-08T1200,1457A,91.1221,29.6747,拉萨市,市环保局,,45,27,15,8,7,144,,91,91,8,12,5,7,0.3,0.3
2025-06-08T1200,1458A,91.0874,29.6475,拉萨市,区监测站,,45,15,9,8,7,143,,92,92,11,12,6,8,0.3,0.3
2025-06-08T1200,1459A,91.1774,29.6541,拉萨市,西藏大学,,44,16,9,7,6,140,,94,94,6,9,2,5,0.1,0.1
2025-06-08T1200,1460A,90.9798,29.6588,拉萨市,区辐射站,,40,28,19,12,9,125,,72,71,11,14,6,6,0.3,0.3
2025-06-08T1200,1461A,91.0834,29.6292,拉萨市,拉萨火车站,,45,13,10,7,7,144,,82,82,5,11,4,4,0.2,0.2
2025-06-08T1200,2520A,109.2203,23.7256,来宾市,来宾技工学校,,33,33,27,13,12,70,,42,42,6,10,6,6,0.6,0.6
2025-06-08T1200,3535A,109.1781,23.7297,来宾市,兴宾区政府,,29,23,22,20,15,65,,40,40,6,12,4,4,0.7,0.7
2025-06-08T1200,4002A,109.2416,23.7461,来宾市,中南小学,细颗粒物(PM2.5),52,,26,36,22,76,,47,47,6,8,6,6,0.5,0.5
2025-06-08T1200,1477A,104.1373,35.9454,兰州市,榆中兰大校区,,,,,,,,,,,,,,,,
2025-06-08T1200,1479A,103.831,36.0464,兰州市,铁路设计院,颗粒物(PM10),52,54,65,26,30,127,,69,69,18,45,16,12,0.4,0.5
2025-06-08T1200,3241A,103.7439,36.0842,兰州市,百合公园,,50,50,55,13,20,131,,60,60,6,35,10,6,0.5,0.4
2025-06-08T1200,3242A,103.9611,35.998,兰州市,和平,,,60,61,32,24,129,,91,,,8,19,11,0.5,0.3
2025-06-08T1200,4236A,103.6293,36.0938,兰州市,庄浪东路808号,,50,50,60,29,32,134,,74,74,11,29,16,16,0.3,0.3
2025-06-08T1200,4237A,103.7251,36.1043,兰州市,安宁西路88号,颗粒物(PM10),54,58,74,22,33,140,,69,69,6,24,10,8,0.3,0.3
2025-06-08T1200,4238A,103.8470,36.0676,兰州市,北滨河东路1号,,47,47,62,16,25,132,,69,69,9,41,17,11,0.5,0.6
2025-06-08T1200,3245A,103.6633,36.533,兰州新区,新区管委会,,41,36,46,22,27,131,,96,96,4,6,3,3,0.3,0.3
2025-06-08T1200,3246A,103.6975,36.4789,兰州新区,舟曲中学,,44,36,93,20,22,138,,97,97,5,12,17,7,0.3,0.3
2025-06-08T1200,1067A,116.6708,39.5111,廊坊市,药材公司,臭氧1小时,65,38,51,18,25,172,,108,108,9,18,4,5,0.4,0.4
2025-06-08T1200,1068A,116.7214,39.5589,廊坊市,开发区,臭氧1小时,63,37,52,17,21,170,,97,97,8,18,4,4,0.3,0.4
2025-06-08T1200,1070A,116.7244,39.5269,廊坊市,北华航天学院,臭氧1小时,62,50,62,32,30,169,,95,95,9,22,5,5,0.4,0.4
2025-06-08T1200,2919A,116.7022,39.5453,廊坊市,河北工业大学,臭氧1小时,65,35,59,23,29,172,,97,97,8,20,5,6,0.3,0.4
2025-06-08T1200,2535A,103.7723,29.5462,乐山市,花湖湾,,37,30,41,20,28,116,,61,61,21,22,7,6,0.7,0.9
2025-06-08T1200,2536A,103.7627,29.5844,乐山市,牛耳桥,,34,34,42,20,29,96,,57,57,28,26,11,9,1.1,0.8
2025-06-08T1200,2537A,103.7508,29.6006,乐山市,市第三水厂,,35,30,43,15,31,109,,58,58,30,34,13,8,1.3,1
2025-06-08T1200,2538A,103.7571,29.5664,乐山市,市监测站,,37,37,42,22,28,111,,57,57,21,23,9,7,0.9,0.8
2025-06-08T1200,3361A,103.7311,29.5628,乐山市,理工大学,,,46,42,,29,96,,44,44,23,26,10,9,0.9,0.9
2025-06-08T1200,2598A,100.2143,26.8576,丽江市,西南郊,,31,31,18,15,9,95,,72,72,5,6,6,6,0.3,0.5
2025-06-08T1200,2599A,100.2497,26.8802,丽江市,丽江古城,,29,20,22,7,12,92,,71,71,9,11,9,9,0.3,0.4
2025-06-08T1200,2600A,100.2203,26.8906,丽江市,市中心,,25,20,14,7,8,80,,58,58,7,10,4,4,0.6,0.6
2025-06-08T1200,1267A,119.914,28.4514,丽水市,监测站大楼,,50,50,32,24,18,86,,46,46,12,11,3,3,0.7,0.6
2025-06-08T1200,1268A,119.93,28.4586,丽水市,莲都小学,,47,47,33,19,12,84,,42,42,10,12,3,3,0.5,0.4
2025-06-08T1200,1269A,119.879,28.4231,丽水市,余庄前,,42,32,25,29,20,77,,41,41,10,10,3,3,0.7,0.6
2025-06-08T1200,1173A,119.176,34.5885,连云港市,市环境监测站,细颗粒物(PM2.5),73,92,88,53,50,142,,91,91,13,21,7,8,0.6,0.6
2025-06-08T1200,3000A,119.3581,34.6972,连云港市,德源药业,颗粒物(PM10),67,83,70,41,38,127,,80,80,2,14,10,11,0.9,1
2025-06-08T1200,3007A,119.178,34.844,连云港市,新城一中,,40,40,63,28,33,104,,81,81,3,17,6,9,0.9,1.1
2025-06-08T1200,3008A,119.3608,34.7519,连云港市,胡沟管理处,颗粒物(PM10),62,73,53,34,36,101,,86,86,11,26,8,13,0.5,0.6
2025-06-08T1200,3009A,119.1478,34.5911,连云港市,矿山设计院,颗粒物(PM10),68,85,84,44,43,133,,89,89,12,21,6,7,0.6,0.6
2025-06-08T1200,3434A,119.2413,34.6539,连云港市,工贸学校,颗粒物(PM10),59,67,64,39,37,149,,94,94,8,13,9,9,0.8,0.8
2025-06-08T1200,3664A,119.4172,34.7341,连云港市,连云街道,颗粒物(PM10),58,65,77,30,33,86,,73,73,30,38,14,13,0.7,0.8
2025-06-08T1200,2571A,102.3431,27.8099,凉山彝族自治州,青龙寺,,26,14,21,3,6,82,,81,71,2,3,6,6,1.0,1
2025-06-08T1200,2572A,102.2721,27.8415,凉山彝族自治州,邛海宾馆,,32,16,18,8,11,101,,92,85,4,6,8,7,0.5,0.5
2025-06-08T1200,2573A,102.2625,27.898,凉山彝族自治州,西昌市政府,,34,17,20,15,11,108,,97,93,6,6,8,8,0.4,0.4
2025-06-08T1200,2574A,102.2685,27.8851,凉山彝族自治州,凉山州政府,,34,14,18,9,12,107,,96,92,10,9,8,7,0.5,0.5
2025-06-08T1200,4229A,102.2342,27.8859,凉山彝族自治州,凯乐南路30号,,,19,23,10,11,108,,102,95,,9,,7,0.4,0.4
2025-06-08T1200,2212A,123.2,41.1953,辽阳市,宏伟区,,49,45,22,15,8,155,,117,117,7,12,9,9,0.6,0.5
2025-06-08T1200,2213A,123.1683,41.2495,辽阳市,新华园,,49,40,33,14,15,154,,106,106,7,26,8,6,0.5,0.5
2025-06-08T1200,2214A,123.2354,41.2639,辽阳市,滨河路,,45,30,22,8,9,144,,100,100,6,15,9,8,0.4,0.3
2025-06-08T1200,2215A,123.149,41.2991,辽阳市,铁西工业园,,44,37,44,15,23,139,,94,94,13,26,13,8,0.8,0.6
2025-06-08T1200,2227A,125.1358,42.8845,辽源市,环保局,,48,25,26,7,5,151,,99,99,8,32,5,4,0.5,0.4
2025-06-08T1200,3239A,125.0764,42.9078,辽源市,银鹰制药,,48,26,19,6,10,153,,98,98,9,35,6,12,0.2,0.2
2025-06-08T1200,1625A,115.9848,36.4372,聊城市,区政府,臭氧1小时,114,102,126,41,42,228,,122,122,8,21,11,11,0.8,0.9
2025-06-08T1200,2878A,116.0072,36.4343,聊城市,聊大东校,臭氧1小时,120,102,121,40,43,240,,128,128,8,17,11,10,0.9,0.9
2025-06-08T1200,3200A,115.9819,36.4978,聊城市,监控中心,臭氧1小时,117,107,130,31,38,233,,122,122,9,21,11,12,0.6,0.7
2025-06-08T1200,3513A,116.0445,36.4361,聊城市,九州社区,臭氧1小时,114,99,127,34,39,227,,121,121,2,13,9,8,0.7,0.8
2025-06-08T1200,4018A,116.0567,36.4608,聊城市,星美广场,臭氧1小时,115,104,131,36,37,230,,118,118,12,21,,9,0.9,0.8
2025-06-08T1200,2632A,94.3681,29.6376,林芝市,林芝监测站,,30,6,5,3,5,94,,77,70,5,7,4,3,0.4,0.4
2025-06-08T1200,2633A,94.3616,29.6616,林芝市,林芝人民医院,,31,6,8,3,5,97,,74,74,3,3,5,4,0.3,0.4
2025-06-08T1200,2603A,100.0781,23.8982,临沧市,市环保局,,37,37,31,12,22,69,,33,33,5,8,7,6,0.7,0.7
2025-06-08T1200,2604A,100.0894,23.8822,临沧市,市气象局,,29,26,26,20,20,84,,39,39,7,9,6,7,0.5,0.6
2025-06-08T1200,1733A,111.5531,36.0783,临汾市,临钢医院,,,71,76,,17,195,,119,119,13,16,12,8,1.1,0.8
2025-06-08T1200,1734A,111.5028,36.0714,临汾市,技工学校,臭氧1小时,103,81,70,36,34,205,,129,129,12,14,14,9,1.3,0.8
2025-06-08T1200,1736A,111.5018,36.0855,临汾市,市委,臭氧1小时,103,87,83,24,23,205,,131,131,14,16,12,8,1.4,0.9
2025-06-08T1200,3018A,111.505,36.1014,临汾市,唐尧大酒店,臭氧1小时,101,82,78,27,25,202,,121,121,10,12,12,9,1.3,0.9
2025-06-08T1200,4244A,111.4879,36.0530,临汾市,启星学校,臭氧1小时,100,71,67,31,33,200,,126,126,12,14,13,7,1.4,0.8
2025-06-08T1200,4271A,103.2464,35.6123,临夏回族自治州,滨河东路1号,颗粒物(PM10),55,59,64,29,33,117,,72,72,3,14,12,9,0.3,0.4
2025-06-08T1200,4310A,103.2093,35.5995,临夏回族自治州,新华街21号,颗粒物(PM10),58,65,61,28,30,126,,78,78,6,12,8,6,0.3,0.4
2025-06-08T1200,1618A,118.3429,35.0532,临沂市,沂河小区,臭氧1小时,106,132,105,61,57,211,,114,114,22,27,15,11,0.9,0.9
2025-06-08T1200,1619A,118.295,35.0583,临沂市,鲁南制药厂,臭氧1小时,111,129,102,58,54,221,,124,124,21,27,13,12,1.0,1
2025-06-08T1200,1620A,118.2794,34.9976,临沂市,新光毛纺厂,臭氧1小时,104,132,102,67,57,208,,120,120,22,26,13,13,1.1,1
2025-06-08T1200,1621A,118.3956,35.0888,临沂市,河东保险公司,臭氧1小时,103,117,96,63,51,206,,112,112,20,32,12,9,0.9,0.9
2025-06-08T1200,3370A,118.3564,35.0215,临沂市,十里堡居委,臭氧1小时,106,122,108,70,68,211,,121,121,26,33,15,13,1.3,1.2
2025-06-08T1200,3496A,118.3604,35.1084,临沂市,南坊新区,臭氧1小时,106,132,95,56,47,211,,108,108,23,32,14,11,0.8,0.9
2025-06-08T1200,3860A,118.3920,35.0300,临沂市,皇山花园小区,臭氧1小时,101,129,116,69,60,201,,115,115,27,35,18,15,1.6,1.4
2025-06-08T1200,1870A,109.4856,24.3895,柳州市,柳东小学,,20,20,22,12,15,64,,44,44,6,9,10,11,0.4,0.4
2025-06-08T1200,1871A,109.4157,24.3277,柳州市,环保监测站,,26,25,28,18,17,65,,41,40,8,11,6,6,0.6,0.5
2025-06-08T1200,1872A,109.389,24.341,柳州市,河西水厂,,27,27,28,12,14,65,,42,40,7,11,4,4,0.5,0.5
2025-06-08T1200,1873A,109.4311,24.2921,柳州市,市四中,,32,32,30,3,13,70,,41,41,10,16,7,7,0.5,0.4
2025-06-08T1200,1874A,109.4006,24.3631,柳州市,市九中,,26,26,29,9,9,66,,44,40,7,11,10,10,0.5,0.5
2025-06-08T1200,1875A,109.4958,24.3134,柳州市,古亭山,,30,30,29,14,15,70,,42,42,6,10,6,6,0.3,0.3
2025-06-08T1200,3402A,109.5422,24.3996,柳州市,市二中,,30,30,26,15,13,70,,48,48,8,14,12,12,0.2,0.3
2025-06-08T1200,2307A,116.5079,31.737,六安市,监测大楼,,29,,10,20,10,64,,64,64,9,5,3,3,0.7,0.5
2025-06-08T1200,2308A,116.4738,31.7643,六安市,皖西学院,,24,12,7,11,8,74,,71,71,6,4,5,5,0.4,0.3
2025-06-08T1200,2309A,116.4996,31.7905,六安市,朝阳厂,,23,20,9,16,9,63,,67,60,16,12,5,5,0.6,0.4
2025-06-08T1200,2310A,116.5567,31.7886,六安市,开发区,,20,,4,11,9,63,,55,55,10,11,5,5,0.7,0.5
2025-06-08T1200,2576A,104.8,26.5892,六盘水市,窑上,,41,41,45,8,4,88,,75,74,8,7,3,3,0.6,0.6
2025-06-08T1200,2577A,104.83,26.5917,六盘水市,黄土坡,,31,23,33,17,19,98,,106,101,15,9,9,10,0.5,0.4
2025-06-08T1200,2578A,104.89,26.5939,六盘水市,水钢,,43,43,39,22,23,96,,107,87,26,17,23,12,1.1,1
2025-06-08T1200,2579A,104.8475,26.5894,六盘水市,民中,,33,20,28,14,17,103,,105,103,11,8,9,8,0.4,0.5
2025-06-08T1200,2580A,104.9544,26.5506,六盘水市,双水,,29,27,30,16,20,90,,96,89,27,13,12,10,0.7,0.5
2025-06-08T1200,2335A,117.0189,25.1181,龙岩市,龙岩师专,,,,,,,,,,,,,,,,
2025-06-08T1200,2336A,117.0217,25.1033,龙岩市,龙岩市监测站,,40,40,32,28,24,114,,63,63,8,13,3,7,0.5,0.6
2025-06-08T1200,2337A,117.0258,25.0661,龙岩市,闽西职业技术学院,,31,24,41,18,26,98,,63,63,3,12,2,24,0.4,0.6
2025-06-08T1200,2338A,117.0196,25.0306,龙岩市,龙岩学院,,50,50,31,23,22,106,,76,76,4,7,2,2,0.4,0.4
2025-06-08T1200,2665A,105.0822,33.3261,陇南市,汉王镇固水子,,,,,,,,,,,,,,,,
2025-06-08T1200,2885A,104.9339,33.3826,陇南市,滨江中学,,32,28,42,19,19,100,,69,69,5,9,9,9,0.6,0.6
2025-06-08T1200,3247A,104.955,33.371,陇南市,市总工会,,34,34,35,18,15,99,,78,78,6,6,5,4,0.6,0.6
2025-06-08T1200,2487A,111.9589,27.8901,娄底市,电视发射台,,26,,26,6,7,83,,51,49,2,2,5,6,0.7,0.6
2025-06-08T1200,2488A,111.9975,27.725,娄底市,市监测站,,27,15,16,3,17,86,,66,65,11,16,7,7,0,0.1
2025-06-08T1200,2489A,112.0194,27.7314,娄底市,市委党校,,31,17,17,16,12,98,,80,79,3,5,3,4,0.6,0.6
2025-06-08T1200,2490A,111.9561,27.7569,娄底市,涟钢,,26,23,20,18,12,68,,60,55,6,12,20,19,0.3,0.4
2025-06-08T1200,2491A,111.9892,27.7044,娄底市,市政府,,27,,18,17,12,86,,69,65,5,6,4,5,0.6,0.6
2025-06-08T1200,1893A,105.4324,28.9634,泸州市,九狮山,细颗粒物(PM2.5),52,46,68,36,55,123,,57,57,19,25,6,7,0.4,0.5
2025-06-08T1200,1894A,105.4427,28.9063,泸州市,小市上码头,,35,32,68,23,50,109,,67,67,12,16,12,13,0.6,0.7
2025-06-08T1200,1895A,105.4241,28.8573,泸州市,兰田宪桥,,39,34,78,27,50,117,,52,52,9,16,9,10,0.5,0.6
2025-06-08T1200,1896A,105.4379,28.8833,泸州市,市环监站,,37,33,72,25,53,118,,65,65,8,14,11,11,0.5,0.4
2025-06-08T1200,4272A,105.3689,28.7783,泸州市,纳溪中医医院,,38,38,73,26,53,112,,49,49,12,24,13,11,0.9,1
2025-06-08T1200,2183A,111.1406,37.5211,吕梁市,环保局,臭氧1小时,98,43,58,19,21,198,,116,116,12,17,8,7,0.5,0.5
2025-06-08T1200,2185A,111.1297,37.5136,吕梁市,自来水公司,臭氧1小时,74,41,58,16,20,179,,90,90,11,18,6,5,0.6,0.6
2025-06-08T1200,2867A,111.1283,37.51,吕梁市,马茂庄小学,臭氧1小时,69,45,58,19,21,175,,99,99,16,23,6,5,0.5,0.6
2025-06-08T1200,1812A,112.3931,34.6516,洛阳市,市委党校,颗粒物(PM10),67,84,45,32,21,167,,94,94,13,14,12,8,0.6,0.5
2025-06-08T1200,1815A,112.494,34.6886,洛阳市,河南林校,臭氧1小时,101,110,44,30,22,202,,100,100,13,17,11,8,0.7,0.7
2025-06-08T1200,1816A,112.3844,34.623,洛阳市,开发区管委会,臭氧1小时,90,71,38,30,21,192,,97,97,14,16,14,8,0.7,0.5
2025-06-08T1200,1817A,112.4267,34.6258,洛阳市,市委新办公区,臭氧1小时,82,67,44,34,23,185,,100,100,15,15,13,9,0.7,0.5
2025-06-08T1200,3340A,112.6005,34.6326,洛阳市,伊滨,臭氧1小时,104,124,52,42,24,208,,108,108,16,14,12,9,0.7,0.6
2025-06-08T1200,3341A,112.4951,34.6332,洛阳市,中移产业园,臭氧1小时,83,95,48,36,25,186,,99,99,10,12,13,9,0.8,0.6
2025-06-08T1200,3593A,112.5736,34.8993,洛阳市,吉利监测站,臭氧1小时,109,115,87,56,32,218,,105,105,11,23,14,9,0.8,0.6
2025-06-08T1200,3635A,112.3677,34.662,洛阳市,河科大西苑校区,臭氧1小时,95,101,51,28,17,196,,110,110,16,17,15,11,0.7,0.5
2025-06-08T1200,3636A,112.4388,34.6781,洛阳市,英才小学,臭氧1小时,94,101,58,33,24,195,,104,104,12,16,14,10,0.8,0.7
2025-06-08T1200,4214A,112.4600,34.6949,洛阳市,春都路1号院,臭氧1小时,113,119,62,35,25,225,,114,114,14,20,12,10,0.8,0.6
2025-06-08T1200,2399A,114.051,33.5699,漯河市,三五一五工厂,臭氧1小时,65,54,53,25,35,172,,86,86,8,21,6,6,0.6,0.6
2025-06-08T1200,2400A,114.0055,33.5698,漯河市,漯河大学,臭氧1小时,77,55,56,29,27,181,,84,84,9,23,5,5,0.6,0.5
2025-06-08T1200,2401A,114.0138,33.5828,漯河市,市水利局,臭氧1小时,64,53,57,31,31,171,,82,82,6,18,7,7,0.5,0.5
2025-06-08T1200,2402A,114.0261,33.5698,漯河市,市广电局,臭氧1小时,70,59,54,28,34,176,,91,91,6,18,5,5,0.6,0.6
2025-06-08T1200,3478A,113.9749,33.5664,漯河市,市图书馆,臭氧1小时,55,57,59,11,30,164,,75,75,9,19,5,6,0.5,0.5
2025-06-08T1200,4250A,114.0892,33.5882,漯河市,韶山路11号,臭氧1小时,69,41,57,25,33,175,,84,84,6,19,6,7,0.6,0.6
2025-06-08T1200,1798A,118.5092,31.6837,马鞍山市,湖东路四小,,23,17,17,12,15,73,,83,83,7,6,6,6,0.7,0.7
2025-06-08T1200,1799A,118.5024,31.6449,马鞍山市,开发区,,25,14,17,7,10,80,,86,86,7,9,5,5,0.8,0.8
2025-06-08T1200,1802A,118.6245,31.7241,马鞍山市,濮塘,,21,,15,13,13,66,,73,71,3,3,7,7,0.9,0.9
2025-06-08T1200,3633A,118.4918,31.6809,马鞍山市,雨山,,24,,14,11,11,74,,83,83,7,7,4,4,0.8,0.8
2025-06-08T1200,4191A,118.5274,31.72227,马鞍山市,慈湖高新区,,22,21,23,15,14,70,,82,81,9,9,6,5,0.7,0.6
2025-06-08T1200,1686A,111.0286,21.4688,茂名市,电白南海,,,29,18,17,13,51,,44,44,,5,3,2,0.3,0.4
2025-06-08T1200,1687A,110.9294,21.6533,茂名市,茂石化七小,,29,29,22,7,8,57,,32,32,5,9,2,2,0.4,0.4
2025-06-08T1200,1688A,110.9107,21.6687,茂名市,健康路,,22,22,17,12,11,61,,40,40,6,8,3,3,0.4,0.4
2025-06-08T1200,1689A,110.8592,21.6828,茂名市,高岭,颗粒物(PM10),59,68,27,17,5,49,,36,36,6,8,3,3,0.4,0.4
2025-06-08T1200,3450A,111.01,21.5165,茂名市,电白水东,,15,14,13,7,5,45,,40,40,7,7,2,3,0.4,0.4
2025-06-08T1200,2539A,104.0308,30.0478,眉山市,黑龙滩水库,,49,36,51,34,41,134,,45,45,10,26,6,3,0.5,0.7
2025-06-08T1200,2540A,103.8416,30.0874,眉山市,气象局,细颗粒物(PM2.5),52,40,65,36,48,91,,30,30,38,46,13,6,0.7,0.7
2025-06-08T1200,3137A,103.8578,30.0744,眉山市,市委党校,,46,46,66,22,42,87,,30,30,37,46,16,7,0.6,0.7
2025-06-08T1200,3148A,103.8291,30.0564,眉山市,区人社局,,47,47,60,17,41,105,,35,35,28,40,16,15,0.4,0.6
2025-06-08T1200,1690A,116.1231,24.3284,梅州市,梅江月梅,,35,,36,24,27,91,,52,52,3,8,6,6,0.7,0.7
2025-06-08T1200,1691A,116.0797,24.2719,梅州市,梅县新城,,38,27,34,26,25,97,,49,49,4,13,6,7,0.5,0.5
2025-06-08T1200,1692A,116.1248,24.2654,梅州市,环境监控中心,,30,26,34,21,25,92,,52,52,8,16,2,4,0.7,0.7
2025-06-08T1200,3315A,116.1233,24.2991,梅州市,梅龙,,31,22,32,16,22,97,,60,60,3,7,6,7,0.5,0.6
2025-06-08T1200,1878A,104.7778,31.4741,绵阳市,富乐山,,45,43,57,31,38,102,,62,62,8,18,8,9,0.6,0.7
2025-06-08T1200,1880A,104.6697,31.4668,绵阳市,高新区自来水公司,,32,32,54,19,29,98,,58,58,11,22,5,5,0.5,0.6
2025-06-08T1200,1881A,104.7287,31.5075,绵阳市,三水厂,,,,65,35,44,106,,54,54,9,29,9,10,0.6,0.7
2025-06-08T1200,3491A,104.69,31.5322,绵阳市,西科大附属小学,颗粒物(PM10),51,52,62,29,36,99,,44,44,14,27,8,9,0.7,0.7
2025-06-08T1200,3492A,104.5648,31.5343,绵阳市,安州区旅游局,,39,37,52,27,33,105,,52,52,11,19,6,9,0.7,0.8
2025-06-08T1200,4226A,104.7651,31.4531,绵阳市,绵阳市气象局,,48,38,58,33,37,90,,55,55,12,24,8,10,0.5,0.6
2025-06-08T1200,1784A,129.61,44.561,牡丹江市,环保大楼,,35,15,15,7,12,111,,57,57,9,16,8,8,0.2,0.2
2025-06-08T1200,1785A,129.6115,44.5782,牡丹江市,文化广场,,35,16,21,6,18,109,,58,58,10,19,9,9,0.2,0.3
2025-06-08T1200,1786A,129.5904,44.5963,牡丹江市,第一医院,,35,8,16,8,9,112,,56,56,10,17,5,4,0.2,0.3
2025-06-08T1200,1787A,129.6364,44.6075,牡丹江市,机车工厂,,35,17,24,3,10,109,,56,56,10,17,5,6,0.3,0.3
2025-06-08T1200,1788A,129.6386,44.5462,牡丹江市,第一中学,,34,18,20,3,12,108,,56,56,7,14,7,7,0.3,0.3
2025-06-08T1200,2531A,105.0703,29.61,内江市,市监测站,,,,30,,24,,,115,,,11,,10,,0.7
2025-06-08T1200,2532A,105.0717,29.5947,内江市,东兴区政府,,41,24,27,23,21,130,,79,79,11,14,6,6,0.3,0.3
2025-06-08T1200,2533A,105.0653,29.5817,内江市,内江二中,,,,31,32,30,,,65,,10,13,8,8,0.5,0.5
2025-06-08T1200,2534A,105.0406,29.5822,内江市,内江日报社,,41,28,32,28,27,129,,76,76,12,18,5,4,0.4,0.3
2025-06-08T1200,2628A,92.0657,31.4846,那曲市,那曲监测站,,47,47,21,22,13,120,,78,78,13,14,6,7,0.3,0.5
2025-06-08T1200,4243A,92.0515,31.4787,那曲市,那曲市委宣传部,,40,26,17,15,10,127,,87,87,4,9,6,6,0.1,0.3
2025-06-08T1200,1290A,115.8931,28.6843,南昌市,省外办,,35,33,20,24,16,82,,65,65,13,12,6,6,0.6,0.4
2025-06-08T1200,1291A,115.8886,28.7003,南昌市,省林业公司,,32,22,17,22,12,54,,45,45,10,11,8,8,0.8,0.6
2025-06-08T1200,1292A,115.8126,28.7442,南昌市,林科所,,16,,15,7,12,49,,39,39,10,8,4,4,0.7,0.4
2025-06-08T1200,1294A,115.8518,28.687,南昌市,建工学校,,41,41,21,7,12,53,,45,45,7,8,6,6,0.7,0.5
2025-06-08T1200,1295A,115.8921,28.6424,南昌市,象湖,,28,22,14,19,9,57,,50,50,10,10,6,6,0.9,0.8
2025-06-08T1200,1296A,115.7423,28.7996,南昌市,武术学校,,40,35,39,28,14,32,,25,25,5,4,11,10,0.6,0.4
2025-06-08T1200,3046A,115.9084,28.6062,南昌市,机电学校,,36,36,25,22,13,62,,51,51,9,9,4,4,0.6,0.5
2025-06-08T1200,3690A,115.9721,28.7031,南昌市,外国语学校,,30,30,20,14,11,53,,45,45,10,9,9,9,0.6,0.4
2025-06-08T1200,4192A,115.9316,28.68677,南昌市,南京东路235号,,46,42,27,32,14,55,,48,48,12,11,8,8,0.9,0.6
2025-06-08T1200,1905A,106.056,30.8064,南充市,西山风景区,,,,,,,,,,,,,,,,
2025-06-08T1200,1906A,106.0789,30.8023,南充市,南充市委,,40,13,20,8,13,126,,62,62,7,12,5,5,0.3,0.4
2025-06-08T1200,1907A,106.1031,30.8217,南充市,南充炼油厂,,37,16,25,3,16,117,,52,52,4,10,5,5,0.4,0.4
2025-06-08T1200,4227A,106.1083,30.7884,南充市,梨树横街98号,,35,14,19,3,15,112,,59,59,5,10,4,4,0.3,0.3
2025-06-08T1200,4304A,106.1172,30.843,南充市,清泉寺北路188号,,37,12,21,7,11,117,,52,52,4,9,6,5,0.3,0.4
2025-06-08T1200,4305A,106.067,30.7616,南充市,同庆路1号,,36,16,22,9,18,114,,58,58,6,11,4,3,0.2,0.3
2025-06-08T1200,1151A,118.8086,32.1065,南京市,迈皋桥,,25,20,26,17,18,76,,34,34,13,13,4,4,0.6,0.6
2025-06-08T1200,1152A,118.7538,32.0551,南京市,草场门,,29,29,17,14,14,92,,53,53,13,14,1,1,0.5,0.7
2025-06-08T1200,1153A,118.7794,32.0745,南京市,山西路,,32,24,21,12,10,101,,53,53,29,28,3,3,0.3,0.4
2025-06-08T1200,1154A,118.7752,32.0023,南京市,中华门,,24,12,12,9,10,76,,47,47,14,21,5,6,0.4,0.5
2025-06-08T1200,1155A,118.8109,32.0309,南京市,瑞金路,,27,14,12,7,13,84,,51,51,7,9,6,6,0.2,0.2
2025-06-08T1200,1156A,118.7997,32.0754,南京市,玄武湖,,28,28,23,7,9,70,,40,40,12,10,4,4,0.3,0.4
2025-06-08T1200,1157A,118.6414,32.0931,南京市,浦口,,42,42,20,19,13,78,,40,40,11,18,3,3,0.5,0.6
2025-06-08T1200,1158A,118.7356,31.9996,南京市,奥体中心,,28,26,15,12,13,87,,60,60,10,12,3,2,0.3,0.5
2025-06-08T1200,1159A,118.9125,32.1028,南京市,仙林大学城,,27,27,24,12,14,82,,46,46,11,11,8,8,0.6,0.8
2025-06-08T1200,3422A,118.8436,31.9198,南京市,江宁彩虹桥,,27,15,15,12,12,85,,62,58,10,16,4,4,0.4,0.6
2025-06-08T1200,3427A,118.8554,32.3578,南京市,六合雄州,,31,16,45,10,26,98,,62,62,10,20,7,6,0.6,1
2025-06-08T1200,4249A,118.8708,31.3402,南京市,汶溪路181号,,25,7,12,6,9,78,,63,63,13,16,2,2,0.7,0.7
2025-06-08T1200,4312A,119.019,31.6512,南京市,中山西路1号,,24,7,12,6,12,76,,70,70,7,11,4,4,0.6,0.7
2025-06-08T1200,1401A,108.3103,22.7881,南宁市,二十一中,颗粒物(PM10),53,56,25,14,13,80,,51,51,2,3,3,3,0.3,0.4
2025-06-08T1200,1402A,108.3141,22.8528,南宁市,北湖,,32,32,25,18,13,87,,52,52,10,9,4,4,0.5,0.4
2025-06-08T1200,1403A,108.3206,22.8225,南宁市,市监测站,,34,34,22,14,13,72,,44,44,3,4,1,1,0.3,0.4
2025-06-08T1200,1404A,108.3829,22.8037,南宁市,大自然花园,,30,29,23,12,12,93,,55,55,4,6,5,5,0.4,0.5
2025-06-08T1200,1405A,108.4394,22.7904,南宁市,仙葫,,33,33,22,14,12,78,,54,54,3,6,8,9,0.4,0.6
2025-06-08T1200,1406A,108.2397,22.8467,南宁市,区农职院,,29,29,26,11,13,84,,50,50,9,12,4,5,0.6,0.6
2025-06-08T1200,1407A,108.3275,22.735,南宁市,英华嘉园,,26,21,24,13,12,81,,48,48,5,10,6,7,0.5,0.5
2025-06-08T1200,3401A,108.4834,22.7618,南宁市,红星社区,,27,17,23,15,15,84,,47,47,1,6,1,2,0.4,0.5
2025-06-08T1200,4221A,108.2177,22.7774,南宁市,乐贤路16号,,25,24,26,9,13,80,,42,42,6,13,8,7,0.5,0.5
2025-06-08T1200,2331A,118.0966,26.6761,南平市,茫荡山,,,,,,,,,,,,,,,,
2025-06-08T1200,2332A,118.1681,26.6369,南平市,南平市监测站,,34,30,36,23,29,106,,50,50,5,13,5,5,0.6,0.7
2025-06-08T1200,2333A,118.1825,26.6489,南平市,南平铝业有限公司,,33,27,39,22,28,104,,52,52,4,13,4,5,0.7,0.8
2025-06-08T1200,2334A,118.1756,26.6272,南平市,南平七中,,35,32,37,24,27,109,,49,49,3,9,4,4,0.7,0.7
2025-06-08T1200,1168A,120.9098,31.9663,南通市,狼山街道,,31,11,13,3,10,97,,72,72,2,7,3,3,0.6,0.7
2025-06-08T1200,1169A,120.86,32.0005,南通市,虹桥,,33,13,17,8,14,105,,76,76,8,12,2,2,0.3,0.5
2025-06-08T1200,1170A,120.87,32.02,南通市,城中,,31,13,18,8,11,97,,70,70,6,10,3,3,0.5,0.7
2025-06-08T1200,1171A,120.94,31.93,南通市,星湖花园,,27,,12,9,13,86,,66,66,7,10,2,2,0.1,0.3
2025-06-08T1200,1172A,120.81,32.0417,南通市,紫琅学院,,29,7,15,3,8,92,,69,69,8,12,4,4,0.4,0.6
2025-06-08T1200,3291A,121.067,32.062,南通市,通州监测站,,33,7,10,3,10,105,,82,82,2,4,5,5,0.5,0.6
2025-06-08T1200,3432A,120.9348,31.9883,南通市,环境教育馆,,32,17,21,3,10,100,,75,75,4,11,2,2,0.2,0.2
2025-06-08T1200,2404A,112.5224,33.0122,南阳市,瓦房庄,颗粒物(PM10),52,53,44,16,14,126,,79,79,16,16,7,7,0.6,0.6
2025-06-08T1200,2405A,112.5003,32.9735,南阳市,汉画馆,,44,44,38,18,13,91,,55,55,21,21,8,7,0.6,0.6
2025-06-08T1200,2406A,112.5573,33.027,南阳市,气象站,颗粒物(PM10),51,52,40,22,19,136,,74,74,12,14,8,7,0.4,0.4
2025-06-08T1200,2407A,112.5481,32.9689,南阳市,理工学院,,40,40,38,24,19,97,,59,59,17,19,6,7,0.5,0.5
2025-06-08T1200,4008A,112.5234,32.9922,南阳市,卧龙区政府,,36,36,30,22,19,99,,65,65,16,17,5,5,0.6,0.6
2025-06-08T1200,1234A,121.8358,29.911,宁波市,区环保大楼,,30,30,56,20,23,20,,12,7,44,65,10,12,0.9,0.6
2025-06-08T1200,1235A,121.56,29.82,宁波市,万里学院,,22,22,44,9,32,29,,29,24,41,32,9,10,0.8,0.7
2025-06-08T1200,1236A,121.713,29.9572,宁波市,龙赛医院,,20,,56,14,19,15,,8,8,40,47,7,10,0.3,0.5
2025-06-08T1200,1239A,121.633,29.7733,宁波市,钱湖水厂,,,19,39,13,25,31,,28,28,,19,,9,0.7,0.5
2025-06-08T1200,1240A,121.5856,29.8635,宁波市,太古小学,,24,19,53,12,26,15,,28,18,47,32,8,9,0.8,0.7
2025-06-08T1200,1241A,121.524,29.8674,宁波市,市环境监测中心,,22,,43,15,20,34,,30,21,38,32,11,11,0.6,0.6
2025-06-08T1200,2871A,121.6147,29.9017,宁波市,万里国际学校,,23,13,45,11,24,14,,19,7,45,41,7,8,0.6,0.6
2025-06-08T1200,3710A,121.5594,29.8975,宁波市,白沙活动中心,,19,19,43,8,24,38,,25,14,28,32,8,10,0.6,0.6
2025-06-08T1200,2339A,119.5001,26.6946,宁德市,金涵水库,,,,,,,,,,,,,,,,
2025-06-08T1200,2341A,119.5388,26.6612,宁德市,宁德市监测站,,37,37,27,18,14,113,,52,52,5,12,4,5,0.7,0.8
2025-06-08T1200,3209A,119.5231,26.6562,宁德市,宁德一中,,36,36,28,21,21,111,,48,48,7,12,3,5,0.6,0.8
2025-06-08T1200,2618A,98.8601,25.8567,怒江傈僳族自治州,州监测站,,24,24,27,12,18,73,,43,43,3,6,7,6,0.3,0.3
2025-06-08T1200,2619A,98.8546,25.8417,怒江傈僳族自治州,泸水一中,,39,29,24,27,16,60,,27,27,6,10,5,5,0.3,0.3
2025-06-08T1200,1888A,101.6891,26.571,攀枝花市,弄弄坪,,32,32,40,3,15,83,,67,67,12,17,5,11,0.6,0.6
2025-06-08T1200,1889A,101.5769,26.5928,攀枝花市,河门口,,33,33,40,13,17,79,,58,58,12,15,13,13,0.9,0.8
2025-06-08T1200,1890A,101.7169,26.585,攀枝花市,炳草岗,,30,30,37,12,17,78,,64,64,18,19,5,11,0.7,0.7
2025-06-08T1200,1891A,101.7369,26.5008,攀枝花市,仁和,,29,25,28,9,15,91,,59,59,5,11,7,8,0.5,0.5
2025-06-08T1200,2835A,101.7227,26.567,攀枝花市,四十中小,,30,28,32,10,16,94,,78,78,6,16,6,18,0.7,0.9
2025-06-08T1200,1604A,122.0303,41.1489,盘锦市,开发区,,48,48,21,12,10,141,,92,92,13,22,11,16,0.3,0.3
2025-06-08T1200,1605A,122.0485,41.0883,盘锦市,兴隆台,,44,33,24,11,11,138,,96,96,16,29,7,9,0.3,0.3
2025-06-08T1200,1606A,121.8297,41.1028,盘锦市,新生街道,,,47,18,8,14,136,,82,82,9,17,9,12,,0.3
2025-06-08T1200,1832A,113.3257,33.742,平顶山市,新华旅馆,颗粒物(PM10),69,88,53,25,21,174,,94,94,12,12,6,6,0.7,0.6
2025-06-08T1200,1833A,113.2919,33.737,平顶山市,规划设计院,臭氧1小时,74,82,52,46,29,179,,96,96,13,18,7,6,0.9,0.7
2025-06-08T1200,1834A,113.182,33.774,平顶山市,平顶山工学院,臭氧1小时,93,80,45,51,24,194,,96,96,12,14,8,5,0.7,0.5
2025-06-08T1200,3204A,113.3025,33.73,平顶山市,规划局,臭氧1小时,82,90,48,30,19,185,,98,98,12,17,8,6,0.7,0.6
2025-06-08T1200,3594A,112.8867,33.9116,平顶山市,石龙区,臭氧1小时,78,81,66,33,25,182,,98,98,13,35,10,6,0.8,0.5
2025-06-08T1200,2656A,106.6692,35.5461,平凉市,聚贤嘉苑,臭氧1小时,53,46,43,19,20,162,,94,94,9,31,14,11,0.7,0.7
2025-06-08T1200,2657A,106.7021,35.5307,平凉市,博物馆,臭氧1小时,59,45,50,15,20,167,,90,90,8,27,12,10,0.7,0.8
2025-06-08T1200,2347A,114.0997,27.5002,萍乡市,武功山,,16,,5,6,4,50,,36,36,5,4,13,13,0.6,0.6
2025-06-08T1200,2348A,113.8385,27.6434,萍乡市,中医院,,33,26,19,23,14,55,,42,42,9,10,13,10,0.8,0.8
2025-06-08T1200,2349A,113.8493,27.6253,萍乡市,市政府车库,,35,35,17,24,16,38,,34,34,12,10,11,8,0.8,0.5
2025-06-08T1200,2350A,113.8676,27.6435,萍乡市,市环保局,,33,27,20,23,13,46,,39,39,19,9,7,6,0.7,0.7
2025-06-08T1200,2351A,113.866,27.6198,萍乡市,安源区政府,,41,41,22,26,11,37,,31,31,11,9,1,2,0.7,0.5
2025-06-08T1200,2319A,119.0141,25.4325,莆田市,荔城区仓后路,颗粒物(PM10),59,68,39,39,18,134,,62,62,10,14,2,3,0.6,0.5
2025-06-08T1200,2320A,119.0015,25.4553,莆田市,莆田市监测站,细颗粒物(PM2.5),70,86,37,51,17,150,,64,64,15,14,5,4,0.5,0.4
2025-06-08T1200,2321A,119.1119,25.4561,莆田市,涵江区六中,颗粒物(PM10),51,52,34,34,22,154,,74,74,8,14,2,4,0.5,0.4
2025-06-08T1200,2322A,119.1013,25.3215,莆田市,秀屿区政府,,39,35,23,12,15,122,,78,78,9,11,5,5,0.5,0.4
2025-06-08T1200,2323A,118.981,25.4792,莆田市,东圳水库,,,,,,,,,,,,,,,,
2025-06-08T1200,2392A,115.0312,35.7636,濮阳市,环保局,臭氧1小时,118,102,133,41,46,235,,140,140,14,20,10,9,1.1,1.2
2025-06-08T1200,2394A,115.0574,35.7609,濮阳市,油田运输公司,臭氧1小时,117,115,144,38,42,234,,139,139,13,19,11,10,0.9,1
2025-06-08T1200,3021A,115,35.7668,濮阳市,濮水河管理处,臭氧1小时,110,113,131,39,47,220,,130,130,18,26,9,9,0.9,0.9
2025-06-08T1200,4216A,115.0924,35.7686,濮阳市,任丘路479号,臭氧1小时,110,135,167,41,52,220,,130,130,12,18,12,11,1.0,1
2025-06-08T1200,2601A,100.98,22.7633,普洱市,市环保局,,42,42,40,11,20,77,,41,41,5,6,5,4,0.5,0.5
2025-06-08T1200,2602A,100.9817,22.8322,普洱市,普洱第二中学,,42,42,43,10,19,77,,40,40,6,9,6,6,0.5,0.5
2025-06-08T1200,2262A,131.0518,45.8751,七台河市,新一中,,36,16,14,7,8,114,,71,71,7,10,10,10,0.7,0.8
2025-06-08T1200,3345A,131.0577,45.7879,七台河市,中波台,,26,,12,6,8,81,,42,42,10,15,6,6,0.3,0.3
2025-06-08T1200,3637A,131.0176,45.7761,七台河市,人民广场,,26,11,33,8,15,82,,46,46,8,17,9,9,0.4,0.5
2025-06-08T1200,3684A,130.8781,45.8222,七台河市,新建矿广场,,26,9,18,7,12,81,,51,51,10,20,8,11,0.1,0.4
2025-06-08T1200,1779A,123.9305,47.3636,齐齐哈尔市,安居小区,,32,32,20,17,8,98,,60,60,7,12,3,2,0.4,0.4
2025-06-08T1200,1780A,123.9488,47.3386,齐齐哈尔市,中心广场,,37,37,23,17,6,100,,64,64,11,13,6,5,0.4,0.4
2025-06-08T1200,1781A,123.9483,47.3227,齐齐哈尔市,农牧车辆厂,,34,34,24,19,8,95,,61,61,6,9,6,5,0.2,0.1
2025-06-08T1200,1783A,123.945,47.2988,齐齐哈尔市,市环境监测站,,40,40,17,23,7,100,,66,66,5,8,4,4,0.1,0.1
2025-06-08T1200,3662A,123.6333,47.2075,齐齐哈尔市,富区青少年活动中心,,45,35,17,31,14,96,,58,58,5,10,2,2,0.3,0.3
2025-06-08T1200,2591A,107.9783,26.5747,黔东南苗族侗族自治州,市环境监测站,,36,31,33,25,26,102,,65,65,6,6,4,2,0.5,0.5
2025-06-08T1200,2881A,107.8908,26.5311,黔东南苗族侗族自治州,凯里学院,,39,29,30,27,23,104,,62,62,5,5,5,2,0.4,0.4
2025-06-08T1200,2593A,107.5228,26.2403,黔南布依族苗族自治州,小围寨,,22,22,24,14,15,62,,64,51,6,5,1,2,0.4,0.4
2025-06-08T1200,3538A,107.5175,26.2978,黔南布依族苗族自治州,沙坝,,24,24,31,14,18,75,,72,59,6,5,4,4,0.4,0.6
2025-06-08T1200,2589A,104.9022,25.0925,黔西南布依族苗族自治州,场坝街,,34,34,26,16,13,103,,86,86,9,7,2,2,0.4,0.3
2025-06-08T1200,2590A,104.8811,25.0992,黔西南布依族苗族自治州,坪东大道,,37,37,28,21,15,71,,72,72,19,8,1,1,0.2,0.1
2025-06-08T1200,2502A,108.6236,21.9667,钦州市,市环保站,,22,22,22,7,7,64,,52,52,8,9,6,7,0.4,0.4
2025-06-08T1200,2503A,108.6549,21.9481,钦州市,沙埠小学,,36,36,28,17,12,58,,38,38,11,14,6,7,0.4,0.4
2025-06-08T1200,2504A,108.5989,21.7431,钦州市,港区一小,,,,32,,10,,,52,,,11,,2,,0.5
2025-06-08T1200,3404A,108.5959,21.9633,钦州市,北职校,,26,26,25,16,10,55,,48,48,6,9,8,9,0.5,0.5
2025-06-08T1200,1043A,119.7493,40.0116,秦皇岛市,第一关,颗粒物(PM10),56,61,32,13,16,163,,86,86,21,37,14,6,0.9,0.3
2025-06-08T1200,1044A,119.5897,39.9499,秦皇岛市,监测站,臭氧1小时,79,43,40,7,12,183,,93,93,16,31,10,5,0.7,0.4
2025-06-08T1200,1046A,119.5251,39.9041,秦皇岛市,建设大厦,臭氧1小时,84,45,35,8,16,187,,93,93,15,33,8,5,0.5,0.3
2025-06-08T1200,3132A,119.610547,39.943889,秦皇岛市,文明里,颗粒物(PM10),51,52,32,17,11,158,,92,92,19,23,14,6,0.9,0.4
2025-06-08T1200,4198A,119.5090,39.8253,秦皇岛市,北戴河轮滑馆,,47,35,26,17,14,150,,95,95,11,14,15,7,1.1,0.5
2025-06-08T1200,1307A,120.6659,36.2403,青岛市,仰口,,36,35,25,25,20,89,,94,93,7,7,8,8,0.6,0.6
2025-06-08T1200,1310A,120.4134,36.0658,青岛市,市南区东部子站,,28,27,26,19,16,84,,117,105,2,3,7,8,0.3,0.4
2025-06-08T1200,1311A,120.3664,36.1032,青岛市,四方区子站,,45,27,37,17,23,143,,147,128,12,15,6,8,0.4,0.6
2025-06-08T1200,1312A,120.2994,36.054,青岛市,市南区西部子站,,32,27,21,22,15,80,,107,94,7,9,7,7,0.6,0.6
2025-06-08T1200,1313A,120.4581,36.0858,青岛市,崂山区子站,,27,17,20,9,13,86,,125,110,2,2,6,7,0.3,0.3
2025-06-08T1200,1315A,120.3999,36.3083,青岛市,城阳区子站,,50,27,28,12,19,159,,122,122,17,19,5,6,0.3,0.4
2025-06-08T1200,1966A,120.0405,35.8735,青岛市,黄岛区4号,,30,19,27,14,14,93,,104,103,6,9,8,9,0.6,0.7
2025-06-08T1200,3362A,120.5014,36.4034,青岛市,即墨2号,,44,22,32,8,25,140,,120,120,4,7,8,8,0.2,0.2
2025-06-08T1200,3642A,120.3503,36.0736,青岛市,市北区南部,,29,29,35,19,18,89,,117,102,6,10,6,6,0.4,0.5
2025-06-08T1200,3643A,120.3948,36.1805,青岛市,李沧区北部,,42,41,46,22,27,132,,88,88,14,17,9,8,0.6,0.6
2025-06-08T1200,4290A,120.1969,35.9546,青岛市,珠江路669号,,30,19,24,10,15,95,,102,99,5,8,6,7,0.4,0.4
2025-06-08T1200,1702A,113.0426,23.691,清远市,环保大楼,,46,46,55,20,22,84,,42,42,7,15,9,6,0.6,0.7
2025-06-08T1200,1703A,113.0208,23.7106,清远市,凤城街办,,25,24,26,17,16,74,,34,34,8,17,14,10,0.4,0.5
2025-06-08T1200,3025A,113.0477,23.6344,清远市,技师学院,,30,30,28,16,14,88,,37,37,9,17,9,8,0.3,0.4
2025-06-08T1200,3318A,112.9903,23.7403,清远市,清新太和,,24,24,28,16,15,73,,34,34,8,13,8,6,0.4,0.5
2025-06-08T1200,3455A,113.076,23.7198,清远市,清城东城,,25,23,27,13,14,79,,37,37,4,10,7,8,0.4,0.5
2025-06-08T1200,2661A,107.6325,35.7357,庆阳市,庆阳五中,,43,38,36,16,15,136,,124,124,6,11,10,6,0.4,0.5
2025-06-08T1200,2662A,107.6364,35.7067,庆阳市,市环保局,,46,40,81,14,14,145,,130,130,4,8,8,8,0.4,0.4
2025-06-08T1200,1916A,103.7897,25.5035,曲靖市,环境监测站,,34,20,35,10,17,106,,78,78,16,11,14,5,0.6,0.5
2025-06-08T1200,1917A,103.8,25.5364,曲靖市,烟厂办公区,,32,24,33,11,17,102,,81,81,17,8,22,5,0.9,0.6
2025-06-08T1200,3376A,103.7947,25.462,曲靖市,南苑二区,,38,16,32,9,16,119,,79,79,8,9,4,4,0.7,0.7
2025-06-08T1200,3377A,103.7444,25.5261,曲靖市,曲靖师范学院,,31,20,32,19,22,99,,74,74,8,12,6,7,0.5,0.5
2025-06-08T1200,1264A,118.8692,28.9398,衢州市,环保大楼,细颗粒物(PM2.5),88,96,61,65,39,36,,47,32,25,16,4,4,0.6,0.4
2025-06-08T1200,1265A,118.8709,28.9666,衢州市,实验学校,细颗粒物(PM2.5),79,83,57,58,38,37,,50,32,24,17,4,4,0.7,0.5
2025-06-08T1200,1266A,118.8621,28.9808,衢州市,衢州学院,,,62,47,53,38,33,,46,30,23,19,6,6,,0.5
2025-06-08T1200,1611A,118.5819,24.9117,泉州市,涂山街,,48,48,35,17,25,144,,80,80,6,13,3,3,0.7,0.7
2025-06-08T1200,1612A,118.5972,24.8978,泉州市,津头埔,,44,37,29,16,20,138,,84,84,6,11,5,3,0.5,0.5
2025-06-08T1200,1613A,118.6663,24.9424,泉州市,万安,,42,36,30,14,19,132,,83,83,6,10,6,5,0.5,0.5
2025-06-08T1200,1614A,118.6117,24.9604,泉州市,清源山,,,,,,,,,,,,,,,,
2025-06-08T1200,3529A,118.6333,24.9264,泉州市,城华南路,,40,26,28,15,21,127,,80,80,8,13,6,4,0.5,0.5
2025-06-08T1200,2626A,88.8876,29.2718,日喀则市,日喀则监测站,,44,27,29,15,10,140,,90,90,3,7,6,8,0.2,0.3
2025-06-08T1200,3726A,88.8781,29.2426,日喀则市,林业技术推广中心,,43,29,33,13,10,135,,88,88,3,4,3,3,0.1,0.2
2025-06-08T1200,1659A,119.471,35.4209,日照市,监测站,,35,17,52,11,33,110,,95,95,10,26,5,10,0.5,0.8
2025-06-08T1200,1660A,119.523,35.4216,日照市,市政府广场,,28,,47,11,26,87,,80,80,4,12,5,8,0.6,0.8
2025-06-08T1200,1661A,119.5587,35.4044,日照市,港务局,,30,,38,18,27,96,,93,93,4,10,5,6,0.5,0.5
2025-06-08T1200,3507A,119.5328,35.4625,日照市,职业技术学院,,33,14,48,9,25,105,,92,92,5,12,4,7,0.6,0.8
2025-06-08T1200,3604A,119.3266,35.1044,日照市,岚山环保分局,,35,31,66,14,38,110,,80,80,11,20,5,13,0.5,1.1
2025-06-08T1200,1835A,111.1922,34.7752,三门峡市,市政府,,49,37,43,21,22,156,,75,75,8,27,8,6,0.6,0.7
2025-06-08T1200,1836A,111.1587,34.7942,三门峡市,开发区,臭氧1小时,52,47,48,26,25,161,,81,81,12,21,10,6,0.4,0.4
2025-06-08T1200,1838A,111.143,34.7955,三门峡市,风景区,臭氧1小时,55,58,40,27,21,164,,94,94,11,10,15,9,0.5,0.4
2025-06-08T1200,3039A,111.1911,34.7829,三门峡市,三门峡市第一小学,,50,49,45,28,24,158,,83,83,9,20,7,8,0.6,0.6
2025-06-08T1200,3598A,111.1,34.7167,三门峡市,富达温泉假日酒店,颗粒物(PM10),60,69,56,28,28,151,,62,62,19,23,30,14,0.7,0.7
2025-06-08T1200,2324A,117.6211,26.2625,三明市,三钢,,31,29,33,20,29,99,,61,61,10,15,4,8,2.8,1.6
2025-06-08T1200,2325A,117.635,26.2714,三明市,三明二中,,32,28,31,20,23,100,,59,59,3,11,3,3,0.7,0.8
2025-06-08T1200,2326A,117.6028,26.2378,三明市,三元区政府,,38,30,32,26,23,107,,60,60,5,13,3,3,0.3,0.4
2025-06-08T1200,2327A,117.7275,26.3108,三明市,洋溪,,,,,,,,,,,,,,,,
2025-06-08T1200,1876A,109.5078,18.2489,三亚市,河东子站,,20,13,22,12,11,64,,50,50,2,3,3,3,0.5,0.4
2025-06-08T1200,1877A,109.4964,18.2681,三亚市,河西子站,,20,20,20,10,12,64,,48,48,3,5,2,2,0.3,0.3
2025-06-08T1200,3540A,109.7348,18.3443,三亚市,君悦子站,,23,20,20,10,11,72,,42,42,3,6,2,1,0.3,0.2
2025-06-08T1200,2624A,91.7608,29.2313,山南市,山南监测站,,41,13,8,3,4,131,,121,110,2,3,6,6,0.2,0.2
2025-06-08T1200,2625A,91.7706,29.2436,山南市,山南人民医院,,43,16,16,11,8,135,,128,113,3,3,6,6,0.2,0.2
2025-06-08T1200,1674A,116.6794,23.3667,汕头市,金平子站,,30,18,21,11,18,93,,65,65,7,11,3,6,0.4,0.5
2025-06-08T1200,1675A,116.7244,23.3633,汕头市,龙湖子站,,26,20,22,10,15,83,,58,58,6,7,5,8,0.4,0.5
2025-06-08T1200,1676A,116.7258,23.2775,汕头市,濠江子站,,24,24,25,9,15,69,,52,52,6,7,4,6,0.6,0.6
2025-06-08T1200,1677A,116.7519,23.4714,汕头市,澄海子站,,40,40,31,16,19,104,,69,69,9,10,5,6,0.7,0.7
2025-06-08T1200,1678A,116.6092,23.2539,汕头市,潮阳子站,,30,18,23,15,16,93,,62,62,1,3,4,7,0.5,0.5
2025-06-08T1200,3444A,116.454,23.2684,汕头市,潮南峡山,,28,21,26,17,18,88,,61,61,2,2,5,8,0.6,0.6
2025-06-08T1200,3624A,116.4069,23.2533,汕头市,潮南子站,,29,29,28,13,15,84,,59,59,5,4,4,6,0.5,0.5
2025-06-08T1200,1693A,115.3653,22.775,汕尾市,市环保局,,24,9,12,6,5,75,,57,57,5,7,2,2,0.6,0.6
2025-06-08T1200,1694A,115.3706,22.7898,汕尾市,市政府,,22,18,11,11,12,70,,56,56,5,6,5,4,0.5,0.5
2025-06-08T1200,1695A,115.3622,22.7925,汕尾市,新城中学,,24,17,14,6,6,76,,58,58,5,6,3,2,0.4,0.4
2025-06-08T1200,2645A,109.9154,33.8715,商洛市,监测站,,34,30,32,16,17,106,,45,45,10,16,6,6,0.4,0.4
2025-06-08T1200,3045A,109.9643,33.8471,商洛市,商州区中学,,35,31,36,15,17,112,,45,45,10,22,4,4,0.6,0.5
2025-06-08T1200,2408A,115.6702,34.4285,商丘市,环境监测站,颗粒物(PM10),68,86,87,11,32,152,,100,100,6,14,4,3,0.5,0.6
2025-06-08T1200,2409A,115.6458,34.4045,商丘市,粮食局,臭氧1小时,57,46,72,36,40,165,,90,90,8,14,3,2,0.5,0.6
2025-06-08T1200,2410A,115.6293,34.3948,商丘市,睢阳区环保局,臭氧1小时,64,64,79,22,29,171,,,,4,13,2,1,0.5,0.5
2025-06-08T1200,3171A,115.6071,34.4465,商丘市,梁园区档案局,颗粒物(PM10),64,78,70,24,30,160,,80,80,9,19,2,2,0.5,0.6
2025-06-08T1200,1141A,121.4,31.238,上海市,普陀,,31,6,26,3,22,98,,63,63,12,28,4,5,0.4,0.4
2025-06-08T1200,1142A,121.478,31.2036,上海市,十五厂,,32,,22,9,20,102,,65,65,12,28,7,7,0.7,0.7
2025-06-08T1200,1143A,121.467,31.3008,上海市,虹口,,29,,25,6,20,92,,54,54,9,32,7,8,0.2,0.4
2025-06-08T1200,1147A,121.425,31.2261,上海市,静安监测站,,33,6,25,3,22,104,,64,64,11,28,8,8,0.5,0.7
2025-06-08T1200,1148A,121.703,31.1907,上海市,浦东川沙,,33,6,23,3,13,104,,64,64,9,31,6,7,0.6,0.7
2025-06-08T1200,1149A,121.533,31.2284,上海市,浦东新区监测站,,32,6,23,3,17,100,,63,63,7,24,6,6,0.5,0.6
2025-06-08T1200,1150A,121.577,31.2071,上海市,浦东张江,,33,9,48,3,19,105,,68,68,7,24,6,6,1.0,1
2025-06-08T1200,3265A,121.4316,31.3322,上海市,宝山庙行,,31,6,25,3,19,98,,55,55,14,35,7,7,0.3,0.4
