timepoint,stationcode,longitude,latitude,area,positionname,primarypollutant,aqi,pm10,pm10_24h,pm2_5,pm2_5_24h,o3,o3_24h,o3_8h,o3_8h_24h,no2,no2_24h,so2,so2_24h,co,co_24h
2023-01-23T15:00:00,1001A,116.3621,39.8784,北京市,万寿西宫,,22,13,94,6,53,70,69,63,63,4,16,3,3,0.2,0.6
2023-01-23T15:00:00,1002A,116.2202,40.2915,北京市,定陵,,,,,,,,,,,,,,,,
2023-01-23T15:00:00,1003A,116.4174,39.9289,北京市,东四,,22,19,96,7,51,68,68,64,64,2,12,2,2,0.2,0.5
2023-01-23T15:00:00,1004A,116.4072,39.8863,北京市,天坛,,21,18,88,7,52,68,65,60,60,2,12,2,2,0.2,0.5
2023-01-23T15:00:00,1005A,116.462,39.9365,北京市,农展馆,,21,18,94,6,42,72,67,62,62,2,13,3,3,0.2,0.4
2023-01-23T15:00:00,1006A,116.3392,39.9295,北京市,官园,,25,13,99,11,58,79,77,70,70,2,13,3,3,0.2,0.5
2023-01-23T15:00:00,1007A,116.2878,39.9611,北京市,海淀万柳,,18,11,102,6,56,55,55,52,52,5,18,5,5,0.1,0.6
2023-01-23T15:00:00,1008A,116.6636,40.135,北京市,顺义新城,,24,12,99,5,59,80,74,65,65,2,10,2,2,0.2,0.6
2023-01-23T15:00:00,1009A,116.6275,40.3275,北京市,怀柔镇,,21,12,111,5,54,70,65,60,60,2,15,3,3,0.2,0.6
2023-01-23T15:00:00,1010A,116.2296,40.217,北京市,昌平镇,,20,18,97,7,51,66,62,58,58,2,12,1,2,0.2,0.5
2023-01-23T15:00:00,1011A,116.3966,39.9821,北京市,奥体中心,,20,17,97,7,57,67,63,59,59,2,14,4,4,0.3,0.6
2023-01-23T15:00:00,1012A,116.184,39.9136,北京市,古城,,23,16,111,7,64,75,72,68,68,2,15,1,2,0.1,0.6
2023-01-23T15:00:00,1015A,117.1444,39.1661,天津市,勤俭道,细颗粒物(PM2.5),72,87,130,52,86,81,48,47,45,11,16,5,9,0.9,1.1
2023-01-23T15:00:00,1017A,117.237,39.1082,天津市,大直沽八号路,颗粒物(PM10),70,90,168,48,114,52,46,48,46,13,14,6,7,1.0,1
2023-01-23T15:00:00,1018A,117.202,39.0927,天津市,前进道,细颗粒物(PM2.5),73,89,125,53,82,91,54,54,52,11,16,3,7,1.0,1.1
2023-01-23T15:00:00,1019A,117.1837,39.2133,天津市,淮河道,颗粒物(PM10),85,120,154,60,86,87,51,50,47,10,16,5,9,1.1,1.2
2023-01-23T15:00:00,1021A,117.307,39.0877,天津市,跃进路,细颗粒物(PM2.5),79,104,126,58,83,91,49,50,48,14,18,10,11,1.2,1.1
2023-01-23T15:00:00,1023A,117.707,39.0343,天津市,第四大街,颗粒物(PM10),66,82,127,46,79,52,44,45,41,11,17,9,8,0.9,1
2023-01-23T15:00:00,1024A,117.457,38.8394,天津市,永明路,细颗粒物(PM2.5),72,78,120,52,81,58,44,50,47,14,16,7,10,0.9,0.8
2023-01-23T15:00:00,1026A,117.764,39.1587,天津市,汉北路,细颗粒物(PM2.5),69,80,114,50,75,61,51,54,50,10,11,12,9,1.0,1
2023-01-23T15:00:00,1027A,117.157,38.9194,天津市,团泊洼,细颗粒物(PM2.5),67,76,124,48,82,79,43,45,43,16,19,8,9,0.9,1
2023-01-23T15:00:00,1029A,114.4422,38.0444,石家庄市,职工医院,细颗粒物(PM2.5),77,85,153,56,108,92,65,55,54,11,26,2,9,0.6,1
2023-01-23T15:00:00,1030A,114.6063,38.0266,石家庄市,高新区,细颗粒物(PM2.5),78,84,176,57,115,104,65,62,48,5,21,4,11,0.4,0.9
2023-01-23T15:00:00,1031A,114.4898,38.1328,石家庄市,西北水源,细颗粒物(PM2.5),89,100,171,66,111,88,56,52,43,7,25,4,10,0.6,1.1
2023-01-23T15:00:00,1032A,114.4586,38.0058,石家庄市,西南高教,"颗粒物(PM10),细颗粒物(PM2.5)",74,97,169,54,119,90,65,63,54,10,26,2,10,0.6,1
2023-01-23T15:00:00,1033A,114.5331,38.0178,石家庄市,世纪公园,细颗粒物(PM2.5),97,101,169,72,124,87,61,48,47,4,22,2,13,0.6,1
2023-01-23T15:00:00,1034A,114.509,38.0457,石家庄市,人民会堂,,,,169,,129,96,66,56,53,7,21,2,9,0.6,1
2023-01-23T15:00:00,1035A,114.3524,37.8911,石家庄市,封龙山,细颗粒物(PM2.5),94,128,141,70,90,113,64,89,61,13,18,12,21,0.6,0.9
2023-01-23T15:00:00,1037A,118.131,39.6363,唐山市,雷达站,颗粒物(PM10),53,55,110,34,54,85,62,52,48,4,10,4,10,0.5,0.9
2023-01-23T15:00:00,1038A,118.1725,39.6334,唐山市,物资局,颗粒物(PM10),51,52,109,31,58,86,66,58,54,9,14,6,13,0.5,0.9
2023-01-23T15:00:00,1040A,118.1705,39.6506,唐山市,十二中,细颗粒物(PM2.5),67,50,110,48,66,75,58,44,44,7,16,4,11,0.5,1
2023-01-23T15:00:00,1041A,118.1869,39.622,唐山市,小山,,47,47,113,28,53,84,61,56,48,1,9,10,16,0.5,0.8
2023-01-23T15:00:00,1042A,119.5134,39.8207,秦皇岛市,北戴河环保局,,,,67,,35,64,,64,56,2,3,4,6,0.8,0.8
2023-01-23T15:00:00,1043A,119.7493,40.0116,秦皇岛市,第一关,,33,26,68,23,41,69,69,64,62,2,6,5,7,0.3,0.4
2023-01-23T15:00:00,1044A,119.5897,39.9499,秦皇岛市,监测站,,43,43,77,19,42,65,65,60,59,2,4,7,9,0.3,0.4
2023-01-23T15:00:00,1046A,119.5251,39.9041,秦皇岛市,建设大厦,,37,37,67,13,33,68,67,62,62,4,9,6,9,0.3,0.4
2023-01-23T15:00:00,1048A,114.5302,36.6116,邯郸市,东污水处理厂,颗粒物(PM10),101,151,205,68,146,109,72,65,47,2,25,6,17,0.2,1.2
2023-01-23T15:00:00,1049A,114.4918,36.5713,邯郸市,矿院,颗粒物(PM10),97,143,199,70,151,102,69,52,46,9,33,3,14,0.5,1.2
2023-01-23T15:00:00,1050A,114.484,36.6133,邯郸市,丛台公园,颗粒物(PM10),85,120,183,58,146,103,68,61,41,6,25,5,15,0.5,1.3
2023-01-23T15:00:00,1051A,115.493,38.8632,保定市,游泳馆,,37,37,124,3,91,91,72,51,51,2,23,4,9,0.2,0.7
2023-01-23T15:00:00,1052A,115.5213,38.8959,保定市,华电二区,,36,36,120,19,97,77,63,44,44,5,23,4,9,0.8,1.4
2023-01-23T15:00:00,1053A,115.4713,38.9108,保定市,接待中心,,35,35,129,15,95,75,60,42,42,2,15,4,7,0.4,1
2023-01-23T15:00:00,1054A,115.4612,38.8416,保定市,地表水厂,,47,47,146,19,84,87,68,49,49,6,31,4,8,0.3,0.8
2023-01-23T15:00:00,1056A,115.5086,38.8639,保定市,监测站,,40,40,139,13,106,85,72,52,52,4,30,5,9,0.3,0.9
2023-01-23T15:00:00,1057A,114.8883,40.8336,张家口市,人民公园,,22,19,58,2,20,81,70,76,66,2,4,4,4,0.4,0.4
2023-01-23T15:00:00,1059A,114.8687,40.8042,张家口市,五金库,,27,27,41,12,20,78,66,75,62,5,6,9,9,0.3,0.4
2023-01-23T15:00:00,1060A,114.8902,40.762,张家口市,世纪豪园,,42,42,70,14,28,78,68,73,63,1,5,1,3,0.3,0.3
2023-01-23T15:00:00,1061A,114.8916,40.8661,张家口市,北泵房,,29,27,65,20,32,86,75,81,70,3,9,7,11,0.6,0.8
2023-01-23T15:00:00,1062A,117.9531,40.9081,承德市,铁路,,28,28,74,17,41,71,71,63,63,3,12,8,11,0.2,0.5
2023-01-23T15:00:00,1063A,117.9392,40.9763,承德市,中国银行,,23,23,60,3,33,63,63,54,54,4,13,7,9,0.2,0.5
2023-01-23T15:00:00,1064A,117.9503,40.928,承德市,开发区,,27,27,64,14,38,76,75,67,67,4,15,4,7,0.3,0.5
2023-01-23T15:00:00,1065A,117.8051,40.9655,承德市,文化中心,颗粒物(PM10),56,61,93,14,42,76,76,69,69,2,11,8,12,0.3,0.5
2023-01-23T15:00:00,1066A,117.9268,41.0026,承德市,离宫,,32,19,54,22,40,68,67,58,58,2,9,10,12,0.2,0.4
2023-01-23T15:00:00,1067A,116.6708,39.5111,廊坊市,药材公司,,24,24,107,4,59,79,71,59,59,1,12,4,7,0.3,0.7
2023-01-23T15:00:00,1068A,116.7214,39.5589,廊坊市,开发区,,26,26,99,9,57,85,74,62,62,11,19,6,9,0.4,0.8
2023-01-23T15:00:00,1070A,116.7244,39.5269,廊坊市,北华航天学院,,30,30,118,5,63,83,71,58,58,2,15,8,12,0.3,0.7
2023-01-23T15:00:00,1071A,116.8842,38.2991,沧州市,沧县城建局,颗粒物(PM10),62,73,128,39,87,100,59,62,58,11,16,7,9,0.8,1.1
2023-01-23T15:00:00,1072A,116.8584,38.3254,沧州市,电视转播站,颗粒物(PM10),56,62,126,36,74,102,61,60,60,10,15,10,13,0.7,0.9
2023-01-23T15:00:00,1073A,116.8709,38.3228,沧州市,市环保局,颗粒物(PM10),52,53,127,26,79,92,52,50,50,10,21,6,7,0.5,0.8
2023-01-23T15:00:00,1074A,115.6838,37.7541,衡水市,电机北厂,颗粒物(PM10),53,56,188,23,129,113,61,47,47,10,21,3,11,0.4,0.9
2023-01-23T15:00:00,1075A,115.6303,37.7316,衡水市,市监测站,颗粒物(PM10),59,68,211,22,131,112,62,48,48,5,17,13,21,0.4,0.9
2023-01-23T15:00:00,1077A,114.4704,37.0886,邢台市,达活泉,细颗粒物(PM2.5),95,121,159,71,139,104,60,74,47,6,25,3,15,0.7,1.2
2023-01-23T15:00:00,1078A,114.5062,37.0349,邢台市,邢师高专,细颗粒物(PM2.5),83,112,162,61,133,106,62,69,47,3,22,3,11,0.6,1.2
2023-01-23T15:00:00,1079A,114.5237,37.0851,邢台市,路桥公司,颗粒物(PM10),80,109,162,57,130,117,66,88,51,3,17,3,12,0.5,1.1
2023-01-23T15:00:00,1080A,114.4725,37.0719,邢台市,市环保局,,,,172,,142,105,62,82,48,,19,3,12,,1.1
2023-01-23T15:00:00,1081A,112.522,37.8873,太原市,尖草坪,颗粒物(PM10),54,58,73,14,36,105,76,82,80,3,7,7,9,0.3,0.4
2023-01-23T15:00:00,1083A,112.434,38.0108,太原市,上兰,,,,,,,,,,,,,,,,
2023-01-23T15:00:00,1084A,112.469,37.7124,太原市,晋源,颗粒物(PM10),51,52,64,13,33,97,76,79,78,4,14,2,10,0.3,0.5
2023-01-23T15:00:00,1085A,112.5583,37.7394,太原市,小店,颗粒物(PM10),65,79,85,17,36,109,79,83,81,4,10,4,10,0.3,0.4
2023-01-23T15:00:00,1086A,112.5369,37.8692,太原市,桃园,颗粒物(PM10),57,64,77,14,35,103,75,81,78,3,8,3,8,0.3,0.4
2023-01-23T15:00:00,1087A,112.57,37.8195,太原市,坞城,,48,48,79,15,39,107,75,84,79,5,10,3,8,0.3,0.4
2023-01-23T15:00:00,1088A,112.549,37.9854,太原市,南寨,颗粒物(PM10),58,65,84,14,33,98,73,80,79,5,13,4,6,0.3,0.4
2023-01-23T15:00:00,1089A,112.4783,37.7778,太原市,金胜,,,,,,,,,,,,,,,,
2023-01-23T15:00:00,1090A,111.6507,40.7517,呼和浩特市,呼市一监,,20,12,75,9,40,73,64,58,58,4,9,10,12,0.3,0.4
2023-01-23T15:00:00,1091A,111.6572,40.8033,呼和浩特市,小召,,20,14,75,8,32,71,64,58,58,2,8,4,9,0.3,0.5
2023-01-23T15:00:00,1094A,111.7516,40.8369,呼和浩特市,如意水处理厂,,25,25,67,9,28,77,69,64,64,2,7,9,14,0.4,0.4
2023-01-23T15:00:00,1095A,111.7276,40.8062,呼和浩特市,二十九中,,35,35,79,13,35,74,64,60,60,5,9,9,12,0.4,0.4
2023-01-23T15:00:00,1096A,111.5512,40.7866,呼和浩特市,工大金川校区,,22,16,80,11,36,74,68,62,62,2,5,7,9,0.4,0.5
2023-01-23T15:00:00,1097A,111.717,40.7612,呼和浩特市,化肥厂生活区,,23,21,73,8,35,80,73,67,67,2,6,8,12,0.3,0.4
2023-01-23T15:00:00,1098A,123.6836,41.9339,沈阳市,森林路,,,,,,,,,,,,,,,,
2023-01-23T15:00:00,1099A,123.505,41.7406,沈阳市,浑南东路,,24,24,74,13,56,54,54,49,49,3,7,10,11,0.2,0.4
2023-01-23T15:00:00,1100A,123.4231,41.6989,沈阳市,新秀街,,20,20,75,10,53,60,59,53,53,5,12,11,13,0.5,0.7
2023-01-23T15:00:00,1102A,123.5903,41.8411,沈阳市,东陵路,,29,25,64,20,62,63,63,56,56,5,11,6,9,0.5,0.7
2023-01-23T15:00:00,1103A,123.4264,41.8467,沈阳市,陵东街,,21,21,63,8,40,64,63,59,59,5,10,8,9,0.6,0.8
2023-01-23T15:00:00,1104A,123.4114,41.7653,沈阳市,文化路,,24,24,74,14,54,59,57,54,54,12,14,14,11,0.4,0.6
2023-01-23T15:00:00,1105A,123.4678,41.7867,沈阳市,小河沿,,19,13,57,8,43,60,59,54,54,2,9,7,8,0.4,0.6
2023-01-23T15:00:00,1106A,123.4017,41.7972,沈阳市,太原街,,45,45,111,18,60,54,53,49,49,9,8,12,11,0.3,0.7
2023-01-23T15:00:00,1108A,123.3783,41.9228,沈阳市,京沈街,,30,30,60,16,51,60,60,56,56,4,8,11,11,0.4,0.6
2023-01-23T15:00:00,1109A,121.612,38.9741,大连市,甘井子,,25,25,107,16,99,68,68,60,60,7,15,5,7,0.1,0.6
2023-01-23T15:00:00,1110A,121.565,38.9511,大连市,周水子,,29,29,124,13,83,67,67,57,57,4,17,5,11,0.3,1
2023-01-23T15:00:00,1111A,121.5637,38.8845,大连市,星海三站,,33,33,114,14,81,55,55,48,48,16,28,9,8,0.5,1
2023-01-23T15:00:00,1112A,121.6302,38.9117,大连市,青泥洼桥,颗粒物(PM10),58,66,120,12,84,66,66,57,57,5,22,7,12,0.4,1.1
2023-01-23T15:00:00,1113A,121.6251,38.8638,大连市,傅家庄,颗粒物(PM10),53,55,115,14,82,66,66,58,58,8,25,9,13,0.9,1.4
2023-01-23T15:00:00,1114A,121.5213,38.8661,大连市,七贤岭,,36,36,114,10,63,72,72,62,62,3,18,7,14,0.6,1.1
2023-01-23T15:00:00,1115A,121.2529,38.8061,大连市,旅顺,,32,32,102,15,76,66,66,60,60,6,13,10,11,0.7,1.1
2023-01-23T15:00:00,1116A,121.7485,39.1311,大连市,金州,,30,30,128,13,89,63,63,54,54,5,20,10,12,0.6,1.2
2023-01-23T15:00:00,1117A,121.7811,39.0496,大连市,开发区,颗粒物(PM10),53,56,126,15,93,61,61,52,52,5,23,8,15,0.6,1.2
2023-01-23T15:00:00,1118A,121.9762,39.0631,大连市,双D港,,38,38,107,14,79,64,64,55,55,9,22,7,9,0.6,1.1
2023-01-23T15:00:00,1119A,125.3325,43.9166,长春市,食品厂,,39,28,55,27,60,58,58,52,52,8,14,4,9,0.3,0.5
2023-01-23T15:00:00,1120A,125.2863,43.9027,长春市,客车厂,,36,24,50,25,53,59,59,49,49,6,16,6,13,0.2,0.3
2023-01-23T15:00:00,1121A,125.2841,43.8463,长春市,邮电学院,,25,23,56,17,48,60,60,49,49,5,19,10,18,0.3,0.4
2023-01-23T15:00:00,1122A,125.3716,43.8772,长春市,劳动公园,,34,34,49,14,43,60,60,53,53,6,13,10,14,0.5,0.7
2023-01-23T15:00:00,1123A,125.3297,43.8805,长春市,园林处,,28,28,56,19,43,57,57,49,49,7,15,8,11,0.4,0.5
2023-01-23T15:00:00,1124A,125.4605,43.79,长春市,净月潭,,25,25,56,14,39,62,62,54,53,4,9,6,12,0.4,0.6
2023-01-23T15:00:00,1125A,125.7194,43.515,长春市,甩湾子,,,,,,,,,,,,,,,,
2023-01-23T15:00:00,1126A,125.3863,43.8447,长春市,经开区环卫处,,26,22,60,18,47,55,53,48,48,11,15,25,22,0.4,0.6
2023-01-23T15:00:00,1127A,125.245,43.7783,长春市,高新区管委会,,21,21,53,6,44,62,62,51,51,3,20,7,26,0.5,0.7
2023-01-23T15:00:00,1128A,125.1761,43.8325,长春市,岱山公园,,24,24,50,11,43,60,60,54,54,1,6,5,8,0.3,0.4
2023-01-23T15:00:00,1129A,126.5422,45.755,哈尔滨市,岭北,,22,10,47,7,38,69,68,64,64,4,8,6,11,0.7,0.5
2023-01-23T15:00:00,1130A,126.561,45.8167,哈尔滨市,松北商大,,26,26,38,11,40,64,64,58,58,7,9,14,14,0.7,0.8
2023-01-23T15:00:00,1131A,126.979,45.5419,哈尔滨市,阿城会宁,,28,28,49,13,38,60,60,50,50,6,14,3,13,0.5,0.7
2023-01-23T15:00:00,1132A,126.599,45.7222,哈尔滨市,南岗学府路,,25,25,49,10,32,65,65,58,58,3,14,3,30,0.7,0.6
2023-01-23T15:00:00,1133A,126.689,45.7733,哈尔滨市,太平宏伟公园,,32,32,36,9,23,63,63,56,56,5,15,11,26,0.7,0.5
2023-01-23T15:00:00,1134A,126.635,45.7667,哈尔滨市,道外承德广场,,28,28,37,7,24,65,64,59,59,5,9,9,16,0.3,0.5
2023-01-23T15:00:00,1135A,126.685,45.7319,哈尔滨市,香坊红旗大街,,,25,38,11,35,57,,,,5,23,3,24,0.7,0.8
2023-01-23T15:00:00,1136A,126.6411,45.7258,哈尔滨市,动力和平路,,,12,38,6,28,62,60,56,56,4,15,,15,0.7,0.7
2023-01-23T15:00:00,1137A,126.593,45.7478,哈尔滨市,道里建国路,,23,17,36,16,39,58,58,52,52,5,12,5,24,0.5,0.6
2023-01-23T15:00:00,1138A,126.615,45.61,哈尔滨市,平房东轻厂,,,18,45,12,45,62,62,52,52,4,17,,23,0.3,0.5
2023-01-23T15:00:00,1139A,126.595,45.9855,哈尔滨市,呼兰师专,,34,34,37,18,38,59,58,50,50,10,12,6,7,0.5,0.7
2023-01-23T15:00:00,1140A,126.6206,45.6842,哈尔滨市,省农科院,,,,47,16,46,66,65,56,56,5,13,16,24,0.4,0.7
2023-01-23T15:00:00,1141A,121.4,31.238,上海市,普陀,,29,26,19,10,14,90,90,79,79,11,14,4,4,0.6,0.7
2023-01-23T15:00:00,1142A,121.478,31.2036,上海市,十五厂,,23,23,14,12,12,73,72,66,66,18,19,4,4,0.5,0.6
2023-01-23T15:00:00,1143A,121.467,31.3008,上海市,虹口,,27,27,22,10,15,77,75,68,68,9,12,8,8,0.7,0.8
2023-01-23T15:00:00,1144A,121.412,31.1654,上海市,徐汇上师大,,24,24,18,11,14,75,74,66,66,12,15,7,7,0.7,0.8
2023-01-23T15:00:00,1145A,121.536,31.2659,上海市,杨浦四漂,,24,24,15,13,12,75,74,69,69,15,15,6,5,0.7,0.7
2023-01-23T15:00:00,1147A,121.425,31.2261,上海市,静安监测站,,27,27,22,9,13,80,80,72,72,16,19,6,6,0.6,0.7
2023-01-23T15:00:00,1148A,121.703,31.1907,上海市,浦东川沙,,26,26,16,12,13,78,77,68,68,11,12,4,4,0.6,0.6
2023-01-23T15:00:00,1149A,121.533,31.2284,上海市,浦东新区监测站,,,25,19,,13,69,,66,63,16,16,5,5,0.4,0.4
2023-01-23T15:00:00,1150A,121.577,31.2071,上海市,浦东张江,,28,28,18,7,9,75,73,66,66,12,14,4,4,0.6,0.7
2023-01-23T15:00:00,1151A,118.8086,32.1065,南京市,迈皋桥,,30,30,30,14,20,66,66,63,63,8,5,5,4,0.3,0.2
2023-01-23T15:00:00,1152A,118.7538,32.0551,南京市,草场门,,30,30,34,12,22,63,54,56,54,15,11,1,3,1.0,0.8
2023-01-23T15:00:00,1153A,118.7794,32.0745,南京市,山西路,,32,27,27,22,25,68,63,62,62,8,5,3,3,0.3,0.2
2023-01-23T15:00:00,1154A,118.7752,32.0023,南京市,中华门,,22,22,29,9,20,64,62,59,59,11,10,4,4,0.2,0.2
2023-01-23T15:00:00,1155A,118.8109,32.0309,南京市,瑞金路,,35,35,43,14,21,65,59,56,55,11,10,2,2,0.2,0.2
2023-01-23T15:00:00,1156A,118.7997,32.0754,南京市,玄武湖,,30,30,35,18,23,57,51,51,51,10,7,3,4,0.5,0.4
2023-01-23T15:00:00,1157A,118.6414,32.0931,南京市,浦口,,28,26,35,19,22,72,66,64,64,8,7,3,2,0.5,0.5
2023-01-23T15:00:00,1158A,118.7356,31.9996,南京市,奥体中心,,32,29,38,22,26,65,61,57,57,16,14,2,2,0.5,0.5
2023-01-23T15:00:00,1159A,118.9125,32.1028,南京市,仙林大学城,,29,29,27,17,23,71,71,64,64,6,7,4,4,0.7,0.6
2023-01-23T15:00:00,1160A,120.561,31.2472,苏州市,上方山,,32,25,34,22,32,64,61,52,52,10,10,5,5,0.6,0.8
2023-01-23T15:00:00,1162A,120.591,31.3019,苏州市,彩香,,21,15,34,9,28,67,67,54,53,4,5,4,4,0.5,0.8
2023-01-23T15:00:00,1163A,120.596,31.3264,苏州市,轧钢厂,,23,16,35,9,27,71,71,59,58,6,7,4,4,0.4,0.6
2023-01-23T15:00:00,1164A,120.613,31.2703,苏州市,吴中区,,22,15,33,10,28,69,68,58,58,10,9,4,4,0.4,0.7
2023-01-23T15:00:00,1165A,120.543,31.2994,苏州市,苏州新区,,23,13,35,10,32,72,72,56,56,6,7,6,6,0.4,0.8
2023-01-23T15:00:00,1166A,120.669,31.3097,苏州市,苏州工业园区,,23,17,35,9,27,74,72,63,63,5,6,5,5,0.4,0.7
2023-01-23T15:00:00,1167A,120.641,31.3708,苏州市,相城区,,24,16,33,9,28,77,76,64,64,1,3,6,6,0.5,0.7
2023-01-23T15:00:00,1168A,120.9098,31.9663,南通市,狼山街道,,27,21,20,17,12,85,85,78,78,5,5,8,7,0.3,0.3
2023-01-23T15:00:00,1169A,120.86,32.0005,南通市,虹桥,,31,31,27,18,15,78,78,71,71,6,6,3,3,0.4,0.4
2023-01-23T15:00:00,1170A,120.87,32.02,南通市,城中,,31,31,27,18,17,87,87,78,78,5,5,4,4,0.2,0.3
2023-01-23T15:00:00,1171A,120.94,31.93,南通市,星湖花园,,25,25,22,14,12,77,77,70,70,4,4,7,7,0.5,0.5
2023-01-23T15:00:00,1172A,120.81,32.0417,南通市,紫琅学院,,32,32,29,14,16,75,75,66,66,4,4,4,4,0.3,0.3
2023-01-23T15:00:00,1173A,119.176,34.5885,连云港市,市环境监测站,细颗粒物(PM2.5),113,112,82,85,59,79,51,50,44,12,18,7,10,0.7,0.4
2023-01-23T15:00:00,1177A,117.179,34.2761,徐州市,黄河新村,细颗粒物(PM2.5),260,334,126,210,91,93,76,56,49,20,18,19,10,1.5,0.9
2023-01-23T15:00:00,1178A,117.1918,34.2384,徐州市,淮塔,,,,106,237,82,99,77,52,52,24,16,19,8,1.6,0.8
2023-01-23T15:00:00,1180A,117.256,34.2153,徐州市,新城区,细颗粒物(PM2.5),282,327,119,232,87,94,76,50,50,23,14,21,10,1.5,0.8
2023-01-23T15:00:00,1181A,117.244,34.2911,徐州市,桃园路,细颗粒物(PM2.5),274,342,129,224,88,93,73,52,49,20,15,18,8,1.5,0.8
2023-01-23T15:00:00,1182A,117.2933,34.2778,徐州市,农科院,细颗粒物(PM2.5),272,332,120,222,84,94,72,59,54,18,10,17,8,1.5,0.8
2023-01-23T15:00:00,1186A,119.389,32.3761,扬州市,邗江监测站,,40,40,36,22,28,70,69,65,63,14,12,5,4,0.5,0.4
2023-01-23T15:00:00,1188A,120.269,31.4867,无锡市,雪浪,,22,22,31,14,25,66,66,54,54,8,8,6,6,0.8,0.9
2023-01-23T15:00:00,1189A,120.275,31.6219,无锡市,黄巷,,29,29,33,17,23,76,72,63,63,8,11,5,5,0.6,0.7
2023-01-23T15:00:00,1190A,120.294,31.56,无锡市,曹张,,26,26,32,12,26,70,70,58,56,1,4,9,9,1.1,1.2
2023-01-23T15:00:00,1191A,120.242,31.5031,无锡市,漆塘,,28,22,28,19,26,72,72,59,59,5,7,6,6,0.5,0.6
2023-01-23T15:00:00,1192A,120.3489,31.5863,无锡市,东亭,,22,22,29,9,23,69,69,58,57,6,8,7,7,0.8,0.9
2023-01-23T15:00:00,1193A,120.354,31.5475,无锡市,旺庄,,24,24,30,9,26,66,66,56,54,8,9,2,2,0.6,0.7
2023-01-23T15:00:00,1194A,120.245,31.5631,无锡市,荣巷,,24,24,29,14,21,71,68,60,60,10,11,8,8,0.4,0.6
2023-01-23T15:00:00,1195A,120.299,31.6817,无锡市,堰桥,,24,24,29,12,22,72,67,60,60,4,4,2,2,0.6,0.7
2023-01-23T15:00:00,1196A,119.9633,31.762,常州市,市监测站,,23,23,33,14,22,66,63,66,56,11,10,4,4,0.3,0.3
2023-01-23T15:00:00,1200A,119.9468,31.7069,常州市,武进监测站,,24,24,30,14,19,68,65,64,57,6,6,6,5,0.4,0.4
2023-01-23T15:00:00,1201A,119.9255,31.9087,常州市,安家,,24,19,32,15,23,76,76,66,62,6,8,5,5,0.4,0.4
2023-01-23T15:00:00,1203A,119.6707,32.1875,镇江市,新区办事处,,29,28,38,20,32,66,64,64,51,19,20,3,3,0,0.1
2023-01-23T15:00:00,1204A,119.4974,32.1968,镇江市,职教中心,,42,42,39,24,32,72,71,67,63,10,9,4,2,0.3,0.3
2023-01-23T15:00:00,1205A,119.4303,32.1328,镇江市,丹徒区监测站,,29,29,31,20,26,68,67,66,61,15,14,2,2,0.3,0.3
2023-01-23T15:00:00,1206A,119.905,32.4878,泰州市,公园路,,41,41,33,19,24,68,68,57,57,8,8,7,6,0.7,0.7
2023-01-23T15:00:00,1207A,119.9189,32.4625,泰州市,莲花,,42,42,33,28,29,69,69,60,60,12,11,12,6,0.4,0.4
2023-01-23T15:00:00,1209A,119.888,32.4639,泰州市,留学生创业园,,39,39,41,22,29,69,69,59,58,7,7,9,10,0.4,0.4
2023-01-23T15:00:00,1210A,119.036,33.5981,淮安市,钵池山,细颗粒物(PM2.5),212,63,36,162,41,80,51,63,61,14,10,5,5,1.0,0.5
2023-01-23T15:00:00,1211A,119.007,33.575,淮安市,北京南路,颗粒物(PM10),108,166,48,63,32,81,52,63,62,15,13,7,6,1.0,0.5
2023-01-23T15:00:00,1212A,118.989,33.6067,淮安市,市监测站,细颗粒物(PM2.5),180,175,43,136,34,84,57,65,64,15,13,5,5,1.1,0.6
2023-01-23T15:00:00,1213A,119.135,33.5039,淮安市,楚州区监测站,细颗粒物(PM2.5),138,171,41,105,33,85,59,65,65,17,12,5,5,1.1,0.6
2023-01-23T15:00:00,1214A,119.0186,33.6297,淮安市,淮阴区监测站,细颗粒物(PM2.5),240,73,51,190,55,78,51,60,60,12,9,7,7,1.0,0.5
2023-01-23T15:00:00,1215A,120.118,33.4022,盐城市,盐城电厂,细颗粒物(PM2.5),92,124,41,68,29,88,71,74,74,12,8,6,6,0.9,0.4
2023-01-23T15:00:00,1216A,120.156,33.3942,盐城市,市监测站,细颗粒物(PM2.5),87,106,37,64,33,84,68,68,68,9,7,6,6,0.7,0.3
2023-01-23T15:00:00,1218A,120.2144,33.38,盐城市,开发区管委会,,,94,45,63,22,88,,71,71,13,9,3,6,0.8,0.5
2023-01-23T15:00:00,1220A,118.293,33.9528,宿迁市,宿迁学院,细颗粒物(PM2.5),199,197,85,149,59,82,54,62,62,8,6,7,5,1.1,0.7
2023-01-23T15:00:00,1221A,118.2442,33.9592,宿迁市,宿迁中学,细颗粒物(PM2.5),180,189,93,136,64,79,55,54,54,12,11,6,6,1.1,0.7
2023-01-23T15:00:00,1223A,120.2072,30.2111,杭州市,滨江,,12,11,50,6,33,47,38,43,40,10,7,5,6,0.6,0.5
2023-01-23T15:00:00,1224A,120.0633,30.2747,杭州市,西溪,,29,11,64,20,52,48,35,47,37,10,11,6,6,0.6,0.6
2023-01-23T15:00:00,1226A,120.3461,30.3153,杭州市,下沙,,15,10,55,7,40,50,46,47,46,11,9,4,5,0.6,0.6
2023-01-23T15:00:00,1227A,120.1269,30.2456,杭州市,卧龙桥,,17,17,53,11,43,46,37,45,39,9,9,5,5,0.4,0.4
2023-01-23T15:00:00,1228A,120.1903,30.2692,杭州市,浙江农大,,15,9,45,10,41,48,38,44,41,12,10,4,4,0.7,0.7
2023-01-23T15:00:00,1230A,120.1197,30.3119,杭州市,和睦小学,,16,14,55,11,43,47,41,44,41,10,10,4,4,0.7,0.6
2023-01-23T15:00:00,1231A,120.3019,30.4183,杭州市,临平镇,,15,11,45,8,35,50,45,47,45,7,6,6,6,0.6,0.6
2023-01-23T15:00:00,1232A,120.2697,30.1819,杭州市,城厢镇,,21,21,53,10,41,54,43,44,43,14,12,6,6,0.5,0.5
2023-01-23T15:00:00,1233A,120.0883,30.1808,杭州市,云栖,,13,8,47,7,35,51,39,44,39,6,7,5,5,0.6,0.6
2023-01-23T15:00:00,1234A,121.8358,29.911,宁波市,区环保大楼,,23,6,25,2,25,71,71,50,46,11,9,6,6,0.5,0.7
2023-01-23T15:00:00,1235A,121.56,29.82,宁波市,万里学院,,14,12,35,9,27,62,42,44,44,13,11,4,4,0.7,0.7
2023-01-23T15:00:00,1236A,121.713,29.9572,宁波市,龙赛医院,,24,14,30,8,23,75,75,50,47,8,10,7,8,0.5,0.7
2023-01-23T15:00:00,1239A,121.633,29.7733,宁波市,钱湖水厂,,13,7,30,9,26,55,38,40,39,12,9,4,4,0.8,0.8
2023-01-23T15:00:00,1240A,121.5856,29.8635,宁波市,太古小学,,13,11,32,9,27,49,30,32,31,13,10,8,8,0.7,0.6
2023-01-23T15:00:00,1241A,121.524,29.8674,宁波市,市环境监测中心,,13,13,34,9,26,54,34,34,34,13,11,4,4,0.4,0.4
2023-01-23T15:00:00,1242A,120.634,28.0089,温州市,瓯海,,16,13,29,11,26,76,38,44,39,13,14,5,5,0.4,0.3
2023-01-23T15:00:00,1243A,120.6748,27.9939,温州市,南浦,,15,12,34,10,24,78,41,45,43,12,11,5,5,0.5,0.4
2023-01-23T15:00:00,1244A,120.76,27.9747,温州市,龙湾,,18,18,31,10,19,79,42,47,46,12,12,5,5,0.3,0.2
2023-01-23T15:00:00,1245A,120.6709,28.0167,温州市,市站,,18,18,32,11,22,80,43,46,44,14,13,4,4,0.6,0.5
2023-01-23T15:00:00,1247A,120.6053,29.9928,绍兴市,城东开发委,,15,12,42,10,35,49,37,44,38,17,13,3,3,0.6,0.5
2023-01-23T15:00:00,1250A,120.0751,30.8669,湖州市,城西水厂,,23,23,30,15,33,64,64,50,45,16,17,4,4,0.8,0.7
2023-01-23T15:00:00,1252A,120.7436,30.778,嘉兴市,清河小学,,20,12,38,12,33,62,62,50,50,11,12,6,6,0.5,0.8
2023-01-23T15:00:00,1253A,120.726,30.7478,嘉兴市,嘉兴学院,,22,22,43,10,34,70,70,56,56,10,10,6,6,0.3,0.5
2023-01-23T15:00:00,1255A,121.273,28.6459,台州市,黄岩环保大楼,,26,24,37,18,32,68,39,53,40,6,5,6,7,0.6,0.5
2023-01-23T15:00:00,1256A,121.419,28.6542,台州市,台州环保大楼,,,24,41,17,31,64,34,46,34,10,7,8,8,,0.6
2023-01-23T15:00:00,1257A,121.377,28.5773,台州市,路桥田洋王,,29,25,41,20,35,67,41,49,43,8,8,6,6,0.6,0.4
2023-01-23T15:00:00,1258A,122.122,30.0203,舟山市,定海檀枫,,,5,24,2,18,72,72,61,60,,12,,4,0.3,0.4
2023-01-23T15:00:00,1259A,122.3094,29.9558,舟山市,普陀东港,,23,10,24,5,23,72,72,64,60,10,11,4,4,0.4,0.4
2023-01-23T15:00:00,1260A,122.19,29.9944,舟山市,临城新区,,,9,25,12,15,72,64,62,59,,12,5,4,0.7,0.4
2023-01-23T15:00:00,1262A,119.647,29.077,金华市,十五中,,35,26,44,24,44,57,37,56,36,9,8,4,4,0.6,0.6
2023-01-23T15:00:00,1263A,119.686,29.1029,金华市,监测站,,33,17,41,23,45,56,37,55,34,7,8,4,4,0.8,0.7
2023-01-23T15:00:00,1264A,118.8692,28.9398,衢州市,环保大楼,,,23,43,28,37,46,39,43,41,11,8,3,4,,0.6
2023-01-23T15:00:00,1265A,118.8709,28.9666,衢州市,实验学校,,38,30,47,26,38,48,42,44,43,3,3,4,4,0.7,0.6
2023-01-23T15:00:00,1266A,118.8621,28.9808,衢州市,衢州学院,,40,34,47,28,38,46,41,44,42,6,5,3,3,0.6,0.5
2023-01-23T15:00:00,1267A,119.914,28.4514,丽水市,监测站大楼,,13,7,26,9,22,50,36,46,42,6,6,7,7,0.5,0.4
2023-01-23T15:00:00,1268A,119.93,28.4586,丽水市,莲都小学,,13,11,24,9,20,59,40,52,48,3,3,6,6,0.5,0.4
2023-01-23T15:00:00,1269A,119.879,28.4231,丽水市,余庄前,颗粒物(PM10),61,72,30,12,22,50,36,42,40,5,6,8,8,0.5,0.4
2023-01-23T15:00:00,1270A,117.1959,31.7848,合肥市,明珠广场,,25,22,44,17,33,85,58,74,64,15,13,4,4,0.5,0.6
2023-01-23T15:00:00,1271A,117.3072,31.8764,合肥市,三里街,,23,22,40,16,35,80,58,70,58,14,14,3,3,0.4,0.4
2023-01-23T15:00:00,1272A,117.2588,31.8707,合肥市,琥珀山庄,,20,19,41,14,32,83,60,76,66,14,12,4,4,0.5,0.5
2023-01-23T15:00:00,1273A,117.1604,31.9052,合肥市,董铺水库,,31,31,40,19,28,85,61,74,64,5,2,2,2,0.3,0.3
2023-01-23T15:00:00,1274A,117.25,31.8571,合肥市,长江中路,,28,17,38,19,32,81,56,73,63,13,9,8,8,0.8,0.8
2023-01-23T15:00:00,1275A,117.266,31.9436,合肥市,庐阳区,,27,27,41,12,28,80,60,72,65,9,6,5,5,0.4,0.4
2023-01-23T15:00:00,1276A,117.336,31.8586,合肥市,瑶海区,,24,24,39,13,30,81,56,72,61,12,8,5,5,0.4,0.4
2023-01-23T15:00:00,1277A,117.3027,31.7964,合肥市,包河区,,19,17,43,9,30,81,59,73,62,12,11,6,6,0.4,0.5
2023-01-23T15:00:00,1278A,117.2776,31.7385,合肥市,滨湖新区,,19,12,42,9,31,79,59,73,61,16,16,10,9,0.4,0.5
2023-01-23T15:00:00,1279A,117.1318,31.8403,合肥市,高新区,,29,29,42,19,31,86,58,74,63,13,11,6,5,0.6,0.7
2023-01-23T15:00:00,1280A,119.3903,26.0543,福州市,鼓山,,,,,,,,,,,,,,,,
2023-01-23T15:00:00,1282A,119.2681,26.0504,福州市,师大,,36,28,32,25,32,72,59,65,57,8,10,4,4,0.4,0.4
2023-01-23T15:00:00,1283A,119.2984,26.1028,福州市,五四北路,,42,25,38,29,41,79,54,61,51,6,12,2,3,0.4,0.4
2023-01-23T15:00:00,1284A,119.2648,26.0768,福州市,杨桥西路,,43,28,41,30,39,71,58,60,56,8,10,3,3,0.5,0.5
2023-01-23T15:00:00,1285A,119.317,26.0746,福州市,紫阳,,40,28,51,28,47,68,53,51,51,6,11,3,4,0.4,0.4
2023-01-23T15:00:00,1286A,118.1608,24.8169,厦门市,溪东,,,,,,,,,,,,,,,,
2023-01-23T15:00:00,1287A,118.1514,24.4767,厦门市,洪文,,29,20,52,15,44,90,90,65,65,11,18,1,1,0.5,0.6
2023-01-23T15:00:00,1288A,118.0661,24.4444,厦门市,鼓浪屿,,28,18,46,18,42,88,88,57,57,15,25,2,3,1.0,1
2023-01-23T15:00:00,1290A,115.8931,28.6843,南昌市,省外办,细颗粒物(PM2.5),78,73,81,57,62,61,55,59,56,8,10,6,5,0.7,0.8
2023-01-23T15:00:00,1291A,115.8886,28.7003,南昌市,省林业公司,细颗粒物(PM2.5),85,56,66,63,62,61,55,59,54,1,3,3,3,0.8,0.9
2023-01-23T15:00:00,1292A,115.8126,28.7442,南昌市,林科所,细颗粒物(PM2.5),85,78,75,63,61,69,56,67,59,5,4,4,4,0.6,0.6
2023-01-23T15:00:00,1294A,115.8518,28.687,南昌市,建工学校,细颗粒物(PM2.5),69,85,82,50,57,65,55,64,56,10,11,7,7,0.7,0.8
2023-01-23T15:00:00,1295A,115.8921,28.6424,南昌市,象湖,细颗粒物(PM2.5),80,74,71,59,65,60,52,59,54,8,8,5,5,0.6,0.7
2023-01-23T15:00:00,1296A,115.7423,28.7996,南昌市,武术学校,细颗粒物(PM2.5),84,82,62,62,53,52,50,50,50,7,5,8,8,0.5,0.6
2023-01-23T15:00:00,1298A,115.9314,28.6842,南昌市,省站,细颗粒物(PM2.5),87,80,86,64,72,58,53,55,53,3,5,7,7,0.6,0.7
2023-01-23T15:00:00,1299A,116.9862,36.6114,济南市,科干所,颗粒物(PM10),70,90,258,44,173,87,61,50,44,6,21,5,14,0.4,0.9
2023-01-23T15:00:00,1300A,116.9376,36.665,济南市,农科所,颗粒物(PM10),80,110,236,44,140,96,58,44,44,8,25,7,15,0.5,0.9
2023-01-23T15:00:00,1301A,117.1265,36.6734,济南市,开发区,颗粒物(PM10),64,78,231,41,162,92,62,45,45,8,23,9,14,0.7,1.1
2023-01-23T15:00:00,1303A,117.0624,36.6868,济南市,省种子仓库,颗粒物(PM10),64,78,236,39,155,97,59,46,46,2,14,8,16,0.3,0.7
2023-01-23T15:00:00,1304A,116.9489,36.6447,济南市,机床二厂,颗粒物(PM10),74,98,251,46,163,97,61,46,46,8,28,6,16,0.4,1
2023-01-23T15:00:00,1305A,117.0495,36.663,济南市,市监测站,颗粒物(PM10),64,78,245,41,162,92,60,44,44,11,29,5,14,0.6,1.1
2023-01-23T15:00:00,1306A,116.7675,36.5484,济南市,长清党校,细颗粒物(PM2.5),85,100,259,63,169,102,63,48,48,9,27,4,14,0.5,1
2023-01-23T15:00:00,1307A,120.6659,36.2403,青岛市,仰口,颗粒物(PM10),53,56,133,29,78,94,69,90,52,5,12,7,7,0.5,1
2023-01-23T15:00:00,1310A,120.4134,36.0658,青岛市,市南区东部子站,颗粒物(PM10),59,68,150,39,89,81,64,53,46,2,24,8,9,0.5,0.9
2023-01-23T15:00:00,1311A,120.3664,36.1032,青岛市,四方区子站,颗粒物(PM10),62,73,153,36,96,91,59,53,42,10,30,9,8,0.6,1.1
2023-01-23T15:00:00,1312A,120.2994,36.054,青岛市,市南区西部子站,颗粒物(PM10),59,68,148,29,87,106,70,61,53,6,30,8,9,0.6,1.1
2023-01-23T15:00:00,1313A,120.4581,36.0858,青岛市,崂山区子站,颗粒物(PM10),62,73,149,24,84,84,70,57,49,11,30,8,9,0.5,0.7
2023-01-23T15:00:00,1314A,120.1983,35.9608,青岛市,黄岛区子站,颗粒物(PM10),65,80,145,27,92,101,72,59,54,4,17,7,8,0.3,0.8
2023-01-23T15:00:00,1315A,120.3999,36.3083,青岛市,城阳区子站,颗粒物(PM10),54,58,152,27,77,101,66,62,46,5,20,5,9,0.6,1.2
2023-01-23T15:00:00,1316A,113.69031,34.76122,郑州市,烟厂,细颗粒物(PM2.5),150,229,238,115,185,105,102,68,68,10,35,12,20,0.9,1.4
2023-01-23T15:00:00,1317A,113.65724,34.77134,郑州市,郑纺机,细颗粒物(PM2.5),153,201,245,117,190,105,102,66,66,16,48,11,18,0.8,1.4
2023-01-23T15:00:00,1318A,113.67526,34.80246,郑州市,银行学校,细颗粒物(PM2.5),170,209,237,129,196,111,107,74,74,16,31,13,21,0.7,1.2
2023-01-23T15:00:00,1319A,113.56746,34.81334,郑州市,供水公司,细颗粒物(PM2.5),145,192,205,111,145,101,101,64,64,15,25,13,16,1.2,1.5
2023-01-23T15:00:00,1320A,113.7329,34.7178,郑州市,经开区管委,细颗粒物(PM2.5),155,194,215,118,169,102,101,70,70,12,32,12,16,1.1,1.6
2023-01-23T15:00:00,1321A,113.73961,34.77172,郑州市,四十七中,细颗粒物(PM2.5),168,214,242,127,196,110,100,70,70,12,25,13,19,0.7,1.2
2023-01-23T15:00:00,1322A,113.60532,34.74838,郑州市,市监测站,细颗粒物(PM2.5),147,194,216,112,160,104,104,66,66,10,27,13,18,1.2,1.6
2023-01-23T15:00:00,1323A,113.64164,34.7525,郑州市,河医大,细颗粒物(PM2.5),155,214,220,118,173,99,99,64,64,10,30,11,17,0.9,1.4
2023-01-23T15:00:00,1324A,113.51488,34.91089,郑州市,岗李水库,,,,,,,,,,,,,,,,
2023-01-23T15:00:00,1325A,114.3677,30.5584,武汉市,东湖梨园,细颗粒物(PM2.5),102,101,138,76,107,84,77,80,80,15,23,6,6,0.7,0.8
2023-01-23T15:00:00,1326A,114.2529,30.558,武汉市,汉阳月湖,细颗粒物(PM2.5),110,107,162,83,119,73,71,70,70,16,25,6,7,0.8,0.8
2023-01-23T15:00:00,1327A,114.282,30.6189,武汉市,汉口花桥,细颗粒物(PM2.5),110,102,150,83,115,78,73,73,73,12,21,6,7,0.7,0.8
2023-01-23T15:00:00,1328A,114.3025,30.5332,武汉市,武昌紫阳,细颗粒物(PM2.5),114,100,139,86,117,78,74,75,75,7,16,8,8,0.8,0.9
2023-01-23T15:00:00,1329A,114.3646,30.6217,武汉市,青山钢花,细颗粒物(PM2.5),104,101,149,78,115,82,77,78,78,15,26,7,8,0.7,0.8
2023-01-23T15:00:00,1330A,114.1566,30.4825,武汉市,沌口新区,细颗粒物(PM2.5),118,107,147,89,129,70,66,63,63,13,16,6,8,0.7,0.7
2023-01-23T15:00:00,1331A,114.3014,30.5944,武汉市,汉口江滩,细颗粒物(PM2.5),112,105,150,84,109,91,86,87,87,7,16,6,7,0.8,0.8
2023-01-23T15:00:00,1333A,114.135,30.6319,武汉市,吴家山,细颗粒物(PM2.5),105,115,161,79,125,82,82,77,77,14,21,7,8,0.7,0.7
2023-01-23T15:00:00,1334A,113.8454,30.2917,武汉市,沉湖七壕,细颗粒物(PM2.5),134,129,168,102,126,74,74,57,57,10,12,9,9,0.9,0.9
2023-01-23T15:00:00,1335A,113.0833,28.2325,长沙市,经开区环保局,细颗粒物(PM2.5),160,138,168,122,133,44,30,38,27,11,10,2,2,0.5,0.5
2023-01-23T15:00:00,1336A,112.8872,28.2189,长沙市,高开区环保局,细颗粒物(PM2.5),155,129,147,118,120,56,41,53,38,9,7,6,7,0.8,0.8
2023-01-23T15:00:00,1337A,113.0792,28.2053,长沙市,马坡岭,颗粒物(PM10),104,158,165,,120,45,29,41,25,12,11,6,6,0.7,0.7
2023-01-23T15:00:00,1338A,112.9394,28.19,长沙市,湖南师范大学,细颗粒物(PM2.5),142,119,154,108,125,51,35,45,30,11,10,3,4,1.0,1
2023-01-23T15:00:00,1339A,113.0178,28.1322,长沙市,雨花区环保局,细颗粒物(PM2.5),139,137,153,106,129,46,32,43,25,11,10,2,2,0.6,0.6
2023-01-23T15:00:00,1340A,112.9792,28.2597,长沙市,伍家岭,细颗粒物(PM2.5),147,147,167,112,121,56,35,48,30,15,14,6,6,1.0,1
2023-01-23T15:00:00,1341A,113.0014,28.1944,长沙市,火车新站,细颗粒物(PM2.5),156,145,164,119,123,48,32,45,27,14,12,6,6,1.0,0.9
2023-01-23T15:00:00,1342A,112.9844,28.1178,长沙市,天心区环保局,细颗粒物(PM2.5),149,144,161,114,121,48,31,41,25,14,12,6,6,0.6,0.6
2023-01-23T15:00:00,1343A,112.8908,28.1308,长沙市,湖南中医药大学,细颗粒物(PM2.5),155,154,162,118,120,52,36,44,32,12,11,4,5,0.8,0.8
2023-01-23T15:00:00,1344A,112.9581,28.3611,长沙市,沙坪,细颗粒物(PM2.5),135,143,156,103,115,43,29,39,26,14,12,3,5,0.8,0.8
2023-01-23T15:00:00,1345A,113.2347,23.1423,广州市,广雅中学,细颗粒物(PM2.5),102,96,74,76,64,108,61,37,34,11,31,6,5,1.0,1
2023-01-23T15:00:00,1346A,113.2612,23.105,广州市,市五中,细颗粒物(PM2.5),105,81,80,79,76,104,68,42,42,10,24,7,6,0.8,0.9
2023-01-23T15:00:00,1348A,113.3478,23.0916,广州市,广东商学院,细颗粒物(PM2.5),79,75,71,58,60,101,75,46,46,12,19,7,6,0.8,0.8
2023-01-23T15:00:00,1349A,113.4332,23.1047,广州市,市八十六中,细颗粒物(PM2.5),88,87,74,65,59,96,68,48,44,11,17,6,4,0.8,0.7
2023-01-23T15:00:00,1350A,113.3505,22.9483,广州市,番禺中学,细颗粒物(PM2.5),83,73,64,61,56,110,74,51,51,15,17,5,5,0.8,0.8
2023-01-23T15:00:00,1351A,113.2146,23.3916,广州市,花都师范,细颗粒物(PM2.5),100,85,106,75,92,107,60,50,50,10,21,7,8,0.5,0.5
2023-01-23T15:00:00,1352A,113.2597,23.1331,广州市,市监测站,细颗粒物(PM2.5),103,84,76,77,64,107,62,40,37,9,26,8,6,0.8,0.9
2023-01-23T15:00:00,1353A,113.5618,23.312,广州市,九龙镇镇龙,细颗粒物(PM2.5),103,88,92,77,81,86,70,45,45,8,14,6,6,0.8,0.7
2023-01-23T15:00:00,1354A,113.2765,23.1544,广州市,麓湖,细颗粒物(PM2.5),95,85,65,71,55,114,68,41,41,9,16,6,4,0.7,0.5
2023-01-23T15:00:00,1355A,113.443,23.3035,广州市,帽峰山森林公园,细颗粒物(PM2.5),85,80,59,63,47,93,66,46,46,8,9,6,5,1.0,0.9
2023-01-23T15:00:00,1356A,114.1063,22.5545,深圳市,通心岭子站,,,40,33,34,29,90,90,51,51,,12,3,3,0.7,0.7
2023-01-23T15:00:00,1357A,114.117,22.5625,深圳市,洪湖,,46,31,40,32,32,102,102,61,61,9,17,7,7,0.5,0.5
2023-01-23T15:00:00,1358A,113.987,22.5417,深圳市,华侨城,细颗粒物(PM2.5),79,60,43,58,35,84,84,47,47,24,21,6,6,0.7,0.8
2023-01-23T15:00:00,1359A,113.9181,22.5171,深圳市,南海子站,,,,47,,38,83,70,46,46,24,21,,4,0.7,0.7
2023-01-23T15:00:00,1360A,114.2458,22.5689,深圳市,盐田,,42,34,26,29,22,65,65,42,42,28,25,7,6,0.6,0.6
2023-01-23T15:00:00,1361A,114.2283,22.7244,深圳市,龙岗,,35,32,50,24,41,94,94,57,57,1,7,4,4,0.7,0.7
2023-01-23T15:00:00,1363A,114.494,22.5422,深圳市,南澳,细颗粒物(PM2.5),58,44,32,41,26,87,54,47,47,10,10,4,4,0.7,0.6
2023-01-23T15:00:00,1364A,114.41,22.6342,深圳市,葵涌,,45,37,51,31,44,78,78,49,49,7,14,6,7,0.6,0.6
2023-01-23T15:00:00,1365A,114.297,22.5978,深圳市,梅沙,细颗粒物(PM2.5),54,54,33,38,22,74,62,46,46,14,13,3,4,0.5,0.5
2023-01-23T15:00:00,1366A,114.0678,22.738,深圳市,观澜,,45,38,60,31,47,88,88,53,53,7,12,8,7,0.6,0.7
2023-01-23T15:00:00,1367A,113.5814,22.2618,珠海市,吉大,细颗粒物(PM2.5),64,41,40,46,32,109,86,59,59,11,12,7,7,0.4,0.4
2023-01-23T15:00:00,1368A,113.4881,22.2335,珠海市,前山,颗粒物(PM10),52,53,56,34,29,97,84,64,64,11,19,3,4,0.4,0.4
2023-01-23T15:00:00,1369A,113.628,22.4251,珠海市,唐家,细颗粒物(PM2.5),83,46,45,61,32,103,82,56,56,12,13,8,8,0.3,0.3
2023-01-23T15:00:00,1370A,113.299,22.2281,珠海市,斗门,,42,42,50,29,43,111,95,75,75,8,10,2,3,0.3,0.3
2023-01-23T15:00:00,1371A,113.1294,23.0067,佛山市,湾梁,细颗粒物(PM2.5),82,80,74,60,61,110,69,67,53,9,14,15,13,0.7,0.7
2023-01-23T15:00:00,1372A,113.1083,23.0478,佛山市,华材职中,细颗粒物(PM2.5),102,75,64,76,61,112,65,61,48,7,14,14,11,0.5,0.5
2023-01-23T15:00:00,1373A,113.144,23.0453,佛山市,南海气象局,细颗粒物(PM2.5),89,82,70,66,61,92,53,41,41,11,18,7,6,0.4,0.4
2023-01-23T15:00:00,1374A,113.2881,22.8094,佛山市,顺德苏岗,细颗粒物(PM2.5),62,49,67,44,62,70,68,60,60,7,11,7,8,0.7,0.7
2023-01-23T15:00:00,1376A,112.8383,22.8678,佛山市,高明孔堂,细颗粒物(PM2.5),107,101,75,80,64,109,62,76,39,6,7,4,3,0.4,0.4
2023-01-23T15:00:00,1377A,112.8836,23.1588,佛山市,三水监测站,细颗粒物(PM2.5),93,73,90,69,76,104,59,43,43,9,23,5,5,0.7,0.7
2023-01-23T15:00:00,1378A,112.867,23.185,佛山市,三水云东海,细颗粒物(PM2.5),93,63,64,69,58,103,58,42,42,10,13,6,4,0.6,0.6
2023-01-23T15:00:00,1379A,113.3769,22.5211,中山市,华柏园,细颗粒物(PM2.5),59,54,44,42,40,106,82,62,62,11,17,6,5,0.4,0.3
2023-01-23T15:00:00,1380A,113.3881,22.5497,中山市,张溪,细颗粒物(PM2.5),73,62,50,53,53,112,83,64,64,7,11,3,3,0.4,0.5
2023-01-23T15:00:00,1381A,113.4075,22.5111,中山市,紫马岭,细颗粒物(PM2.5),57,48,36,40,34,101,83,56,56,5,7,4,4,0.5,0.5
2023-01-23T15:00:00,1382A,113.4411,22.4853,中山市,长江旅游区,,,,,,,,,,,,,,,,
2023-01-23T15:00:00,1383A,113.1064,22.6058,江门市,北街,细颗粒物(PM2.5),72,41,34,52,32,115,87,73,73,12,11,7,7,0.6,0.6
2023-01-23T15:00:00,1384A,113.0731,22.5835,江门市,西区,细颗粒物(PM2.5),54,38,41,38,32,112,90,72,72,12,13,6,7,0.5,0.5
2023-01-23T15:00:00,1385A,113.0219,22.5311,江门市,圭峰西,细颗粒物(PM2.5),62,56,35,44,32,108,86,73,73,11,11,4,5,0.7,0.7
2023-01-23T15:00:00,1386A,113.0828,22.5947,江门市,东湖,,50,50,45,35,30,111,89,72,72,10,11,7,6,0.5,0.5
2023-01-23T15:00:00,1389A,113.7547,23.0494,东莞市,莞城梨川,细颗粒物(PM2.5),79,70,82,58,67,109,109,81,81,12,18,11,10,0.7,0.7
2023-01-23T15:00:00,1390A,113.7944,23.0128,东莞市,东城石井,细颗粒物(PM2.5),67,58,59,48,49,116,116,61,61,6,8,12,12,0.8,0.7
2023-01-23T15:00:00,1391A,113.7383,22.9658,东莞市,南城西平,细颗粒物(PM2.5),73,70,63,53,42,109,109,62,56,11,14,11,9,0.7,0.7
2023-01-23T15:00:00,1392A,114.4183,23.0528,惠州市,河南岸金山湖子站,细颗粒物(PM2.5),63,65,67,45,62,73,70,40,40,6,9,5,5,0.5,0.6
2023-01-23T15:00:00,1393A,114.4053,23.0822,惠州市,下埔横江三路子站,细颗粒物(PM2.5),52,47,69,36,55,80,79,47,47,6,15,4,4,0.7,0.8
2023-01-23T15:00:00,1394A,114.4103,23.1142,惠州市,江北云山西路子站,颗粒物(PM10),52,53,69,33,64,86,83,46,46,2,6,3,4,0.6,0.6
2023-01-23T15:00:00,1395A,114.4645,22.7833,惠州市,惠阳区承修路船湖子站,,,,56,,54,112,67,56,42,11,10,4,5,,0.6
2023-01-23T15:00:00,1396A,114.5317,22.7422,惠州市,大亚湾管委会子站,细颗粒物(PM2.5),54,47,40,38,38,90,76,50,38,15,12,4,4,0.6,0.5
2023-01-23T15:00:00,1397A,112.4267,23.0706,肇庆市,睦岗子站,细颗粒物(PM2.5),94,90,69,70,53,99,32,42,42,10,17,8,9,0.5,0.4
2023-01-23T15:00:00,1398A,112.4645,23.0475,肇庆市,城中子站,细颗粒物(PM2.5),93,89,83,69,67,99,35,48,46,8,13,9,11,0.8,0.8
2023-01-23T15:00:00,1399A,112.5544,23.1522,肇庆市,坑口子站,细颗粒物(PM2.5),105,98,63,79,51,110,54,48,43,7,10,11,10,0.5,0.4
2023-01-23T15:00:00,1400A,112.4753,23.1,肇庆市,七星岩子站,细颗粒物(PM2.5),92,86,57,68,44,102,47,74,41,5,5,5,5,0.8,0.7
2023-01-23T15:00:00,1401A,108.3103,22.7881,南宁市,二十一中,细颗粒物(PM2.5),68,52,54,49,41,61,36,38,34,10,12,6,6,0.8,0.9
2023-01-23T15:00:00,1402A,108.3141,22.8528,南宁市,北湖,细颗粒物(PM2.5),72,54,60,52,47,67,37,36,36,7,9,6,6,1.0,1
2023-01-23T15:00:00,1403A,108.3206,22.8225,南宁市,市监测站,细颗粒物(PM2.5),70,57,56,51,47,62,34,39,34,12,14,7,8,1.0,1
2023-01-23T15:00:00,1404A,108.3829,22.8037,南宁市,大自然花园,细颗粒物(PM2.5),67,49,49,48,43,59,35,37,30,10,12,5,5,0.9,0.9
2023-01-23T15:00:00,1405A,108.4394,22.7904,南宁市,仙葫,细颗粒物(PM2.5),60,54,42,43,48,61,35,39,35,8,9,8,8,0.9,0.8
2023-01-23T15:00:00,1406A,108.2397,22.8467,南宁市,区农职院,细颗粒物(PM2.5),64,49,55,46,43,73,32,35,34,10,9,6,6,1.0,0.8
2023-01-23T15:00:00,1407A,108.3275,22.735,南宁市,英华嘉园,细颗粒物(PM2.5),73,57,50,53,42,58,30,36,29,15,14,5,5,0.9,0.8
2023-01-23T15:00:00,1408A,108.2257,22.7757,南宁市,沙井镇街道办,细颗粒物(PM2.5),72,57,59,52,49,65,30,30,30,12,14,6,6,1.0,1
2023-01-23T15:00:00,1409A,110.576,19.9507,海口市,东寨港,,,23,43,14,26,31,26,19,19,,,6,6,0.5,0.5
2023-01-23T15:00:00,1410A,110.3232,20.0574,海口市,海南大学,,26,22,53,16,35,90,81,73,73,5,10,4,4,0.4,0.5
2023-01-23T15:00:00,1411A,110.283,20.0053,海口市,秀英海南医院,,30,30,56,18,30,87,84,72,72,6,7,6,6,0.7,0.7
2023-01-23T15:00:00,1412A,110.338,19.9969,海口市,海南师范大学,,35,35,59,16,30,85,83,70,70,5,6,3,3,0.6,0.6
2023-01-23T15:00:00,1413A,110.33,20.0356,海口市,龙华路环保局宿舍,,30,30,54,16,28,88,84,73,73,4,5,5,5,0.4,0.5
2023-01-23T15:00:00,1414A,106.3787,29.8279,重庆市,缙云山,细颗粒物(PM2.5),70,88,91,51,61,74,64,69,68,16,17,5,5,0.5,0.5
2023-01-23T15:00:00,1416A,106.4213,29.8253,重庆市,天生,细颗粒物(PM2.5),113,,104,85,81,90,52,30,30,15,21,8,6,0.7,0.6
2023-01-23T15:00:00,1417A,106.6263,29.7228,重庆市,两路,细颗粒物(PM2.5),114,133,118,86,92,61,44,40,18,22,27,9,8,1.0,1.1
2023-01-23T15:00:00,1418A,106.2953,29.5983,重庆市,虎溪,细颗粒物(PM2.5),120,108,111,91,95,64,41,35,22,14,19,6,5,0.8,0.8
2023-01-23T15:00:00,1419A,106.5777,29.5102,重庆市,南坪,细颗粒物(PM2.5),159,125,128,121,99,69,38,44,28,19,12,12,10,1.1,0.9
2023-01-23T15:00:00,1420A,106.6556,29.6277,重庆市,唐家沱,细颗粒物(PM2.5),133,131,130,101,105,82,38,49,29,34,20,5,5,0.7,0.6
2023-01-23T15:00:00,1421A,106.6349,29.4906,重庆市,茶园,细颗粒物(PM2.5),152,137,144,116,113,57,20,27,18,32,23,5,5,1.2,1.1
2023-01-23T15:00:00,1422A,106.3754,29.4572,重庆市,白市驿,细颗粒物(PM2.5),113,128,125,85,91,83,61,48,48,16,18,9,9,0.7,0.7
2023-01-23T15:00:00,1425A,106.6205,29.7166,重庆市,空港,细颗粒物(PM2.5),128,107,116,97,95,60,39,40,17,17,18,10,10,0.4,0.5
2023-01-23T15:00:00,1426A,106.4782,29.4875,重庆市,新山村,细颗粒物(PM2.5),128,152,138,97,93,78,39,41,23,32,33,10,9,0.9,0.8
2023-01-23T15:00:00,1427A,106.5616,29.6453,重庆市,礼嘉,细颗粒物(PM2.5),135,151,139,103,91,74,26,48,16,43,31,5,6,0.8,0.7
2023-01-23T15:00:00,1428A,106.4522,29.7091,重庆市,蔡家,细颗粒物(PM2.5),105,103,113,79,83,78,46,32,24,17,18,7,6,0.8,0.8
2023-01-23T15:00:00,1429A,106.5093,29.3917,重庆市,鱼新街,细颗粒物(PM2.5),145,144,132,111,102,78,48,48,32,25,21,14,12,1.2,1.2
2023-01-23T15:00:00,1431A,103.9728,30.7236,成都市,金泉两河,细颗粒物(PM2.5),77,86,84,56,69,90,87,49,48,4,15,2,2,0.4,0.5
2023-01-23T15:00:00,1432A,104.176,30.6872,成都市,十里店,细颗粒物(PM2.5),80,86,89,59,69,91,83,63,50,7,12,1,3,0.5,0.6
2023-01-23T15:00:00,1433A,104.079,30.5706,成都市,三瓦窑,细颗粒物(PM2.5),89,77,94,66,80,92,85,68,46,7,14,2,2,0.4,0.7
2023-01-23T15:00:00,1434A,104.1114,30.63,成都市,沙河铺,细颗粒物(PM2.5),70,84,95,51,77,98,91,60,48,8,13,3,2,0.5,0.6
2023-01-23T15:00:00,1437A,104.0786,30.6531,成都市,君平街,细颗粒物(PM2.5),85,75,88,63,78,98,92,68,52,13,24,2,2,0.6,0.7
2023-01-23T15:00:00,1438A,103.613,31.0283,成都市,灵岩寺,细颗粒物(PM2.5),53,50,66,37,48,90,78,81,65,8,9,4,5,0.5,0.5
2023-01-23T15:00:00,1439A,106.6899,26.5998,贵阳市,马鞍山,细颗粒物(PM2.5),55,39,32,39,32,59,59,34,34,8,9,6,5,0.4,0.5
2023-01-23T15:00:00,1440A,106.6971,26.5694,贵阳市,市环保站,细颗粒物(PM2.5),63,29,30,45,39,58,58,34,34,10,13,10,5,0.4,0.5
2023-01-23T15:00:00,1441A,106.6243,26.6266,贵阳市,鉴湖路,细颗粒物(PM2.5),55,58,40,39,30,62,62,41,41,6,8,6,5,0.5,0.6
2023-01-23T15:00:00,1442A,106.7487,26.6343,贵阳市,燕子冲,细颗粒物(PM2.5),62,46,42,44,42,52,52,26,26,6,8,8,6,0.5,0.6
2023-01-23T15:00:00,1443A,106.6555,26.4365,贵阳市,碧云窝,,46,46,44,27,32,56,56,34,34,8,10,18,13,0.7,0.7
2023-01-23T15:00:00,1444A,106.694,26.5161,贵阳市,中院村,,46,46,44,31,35,54,54,33,33,10,12,12,12,0.6,0.7
2023-01-23T15:00:00,1445A,106.7109,26.6027,贵阳市,红边门,细颗粒物(PM2.5),62,46,40,44,39,56,56,35,35,7,9,12,11,0.6,0.7
2023-01-23T15:00:00,1446A,106.7164,26.5699,贵阳市,新华路,,42,41,42,29,32,54,54,33,33,6,7,9,7,0.5,0.6
2023-01-23T15:00:00,1447A,106.674,26.5424,贵阳市,太慈桥,,48,48,45,31,31,55,55,38,38,10,11,6,4,0.5,0.5
2023-01-23T15:00:00,1450A,102.8204,24.8886,昆明市,呈贡新区,,33,2,22,13,19,103,103,82,82,3,4,7,7,0.4,0.4
2023-01-23T15:00:00,1451A,102.6251,24.9608,昆明市,西山森林公园,,33,14,17,12,12,104,104,94,94,2,3,8,8,0.5,0.5
2023-01-23T15:00:00,1452A,102.7252,25.0902,昆明市,龙泉镇,,33,1,30,14,25,105,105,70,70,7,11,7,7,0.5,0.5
2023-01-23T15:00:00,1453A,102.7266,25.0375,昆明市,东风东路,,31,19,29,15,24,98,98,75,75,7,11,9,10,0.3,0.4
2023-01-23T15:00:00,1454A,102.6742,25.0669,昆明市,金鼎山,,34,14,29,10,31,108,108,76,73,2,7,8,10,0.3,0.3
2023-01-23T15:00:00,1455A,102.6644,25.0401,昆明市,碧鸡广场,,32,16,28,9,21,101,101,77,77,5,10,5,5,0.3,0.3
2023-01-23T15:00:00,1456A,91.1319,29.6514,拉萨市,八廓街,,33,27,41,3,3,112,105,110,97,10,13,6,7,0.4,0.5
2023-01-23T15:00:00,1457A,91.1221,29.6747,拉萨市,市环保局,,34,16,25,0,10,112,106,104,102,6,10,3,5,0.3,0.4
2023-01-23T15:00:00,1458A,91.0874,29.6475,拉萨市,区监测站,,39,39,45,1,7,115,104,115,106,4,5,6,6,0.0,0
2023-01-23T15:00:00,1459A,91.1774,29.6541,拉萨市,西藏大学,,32,6,35,2,7,110,102,109,99,6,9,6,6,0.2,0.3
2023-01-23T15:00:00,1460A,90.9798,29.6588,拉萨市,区辐射站,,38,31,43,12,15,125,119,114,100,5,9,5,6,0.6,0.6
2023-01-23T15:00:00,1461A,91.0834,29.6292,拉萨市,拉萨火车站,,34,33,49,5,10,113,107,112,110,6,7,8,9,0.2,0.2
2023-01-23T15:00:00,1462A,108.882,34.2749,西安市,高压开关厂,颗粒物(PM10),83,116,214,38,159,96,96,61,61,6,27,9,14,0.7,1.2
2023-01-23T15:00:00,1463A,108.993,34.2629,西安市,兴庆小区,颗粒物(PM10),77,104,184,47,151,114,95,61,61,9,26,9,13,0.5,1
2023-01-23T15:00:00,1464A,109.06,34.2572,西安市,纺织城,颗粒物(PM10),85,120,195,45,152,108,95,51,51,11,33,11,14,0.4,1
2023-01-23T15:00:00,1465A,108.9356,34.2173,西安市,小寨,颗粒物(PM10),71,91,231,36,156,104,96,58,58,11,32,9,13,0.6,1.2
2023-01-23T15:00:00,1466A,108.954,34.2713,西安市,市人民体育场,颗粒物(PM10),84,117,212,44,161,112,96,53,53,9,45,10,12,0.4,1
2023-01-23T15:00:00,1467A,108.8922,34.2322,西安市,高新西区,颗粒物(PM10),76,102,191,37,162,109,96,70,63,10,31,9,13,0.8,1.4
2023-01-23T15:00:00,1468A,108.935,34.3474,西安市,经开区,颗粒物(PM10),76,102,211,41,170,111,94,68,55,6,25,9,13,0.4,1
2023-01-23T15:00:00,1469A,108.906,34.1546,西安市,长安区,颗粒物(PM10),85,120,220,28,173,99,92,58,58,6,26,5,11,0.5,1.2
2023-01-23T15:00:00,1471A,109.2186,34.3731,西安市,临潼区,颗粒物(PM10),80,110,153,36,118,107,89,70,70,3,29,11,14,0.6,1.1
2023-01-23T15:00:00,1472A,108.869,34.378,西安市,草滩,颗粒物(PM10),80,110,199,39,99,88,71,48,46,5,19,16,14,0.0,0.4
2023-01-23T15:00:00,1473A,108.985,34.1978,西安市,曲江文化产业集团,颗粒物(PM10),83,116,219,37,168,106,92,55,55,10,33,8,13,0.5,1.1
2023-01-23T15:00:00,1474A,109.051,34.3213,西安市,广运潭,颗粒物(PM10),87,124,195,49,146,107,90,50,50,8,21,9,12,0.5,1
2023-01-23T15:00:00,1476A,103.631,36.1031,兰州市,兰炼宾馆,颗粒物(PM10),90,129,147,33,52,88,79,79,74,10,12,7,13,0.4,0.4
2023-01-23T15:00:00,1477A,104.1373,35.9454,兰州市,榆中兰大校区,,,,,,,,,,,,,,,,
2023-01-23T15:00:00,1478A,103.8412,36.0726,兰州市,生物制品所,颗粒物(PM10),109,167,151,48,43,84,74,74,72,11,13,16,9,0.4,0.5
2023-01-23T15:00:00,1479A,103.831,36.0464,兰州市,铁路设计院,颗粒物(PM10),102,153,141,42,51,85,82,82,71,8,15,16,11,0.9,1
2023-01-23T15:00:00,1483A,101.524,36.6867,西宁市,第五水厂,,,,,,,,,,,,,,,,
2023-01-23T15:00:00,1484A,105.9512,38.6016,银川市,贺兰山马莲口,,32,32,41,8,13,88,75,88,78,5,6,8,8,0.5,0.4
2023-01-23T15:00:00,1488A,106.2328,38.4975,银川市,贺兰山东路,颗粒物(PM10),62,73,93,19,32,94,83,94,84,5,11,3,3,0.5,0.5
2023-01-23T15:00:00,1489A,106.1358,38.5036,银川市,学院路,,44,44,76,13,22,85,73,85,75,4,8,3,4,0.6,0.6
2023-01-23T15:00:00,1490A,87.5801,43.8303,乌鲁木齐市,监测站,细颗粒物(PM2.5),69,65,36,50,23,74,30,22,22,62,60,5,6,1.1,0.6
2023-01-23T15:00:00,1491A,87.6046,43.768,乌鲁木齐市,收费所,,28,28,38,7,20,67,58,58,57,26,33,5,4,0.6,0.5
2023-01-23T15:00:00,1492A,87.4754,43.9469,乌鲁木齐市,新疆农科院农场,细颗粒物(PM2.5),243,150,46,193,90,84,67,40,40,25,56,7,7,1.4,1.1
2023-01-23T15:00:00,1493A,87.5525,43.8711,乌鲁木齐市,铁路局,细颗粒物(PM2.5),155,121,44,118,37,78,54,47,34,30,44,2,3,0.9,0.7
2023-01-23T15:00:00,1494A,87.6432,43.831,乌鲁木齐市,三十一中学,,50,45,39,35,26,78,56,59,59,41,41,5,5,0.7,0.5
2023-01-23T15:00:00,1496A,87.7216,44.1747,乌鲁木齐市,米东区环保局,细颗粒物(PM2.5),158,113,93,120,74,83,64,50,50,28,46,6,6,1.0,0.9
2023-01-23T15:00:00,1508A,112.9433,27.8614,湘潭市,板塘,细颗粒物(PM2.5),155,153,169,118,133,47,37,38,30,10,8,2,2,0.8,0.8
2023-01-23T15:00:00,1511A,112.9118,27.8403,湘潭市,市监测站,细颗粒物(PM2.5),168,140,171,127,135,46,35,42,28,13,11,6,6,0.9,0.8
2023-01-23T15:00:00,1512A,112.8937,27.8728,湘潭市,江麓,细颗粒物(PM2.5),153,146,173,117,126,50,40,42,33,15,14,5,5,0.9,0.9
2023-01-23T15:00:00,1513A,112.9227,27.8159,湘潭市,岳塘,细颗粒物(PM2.5),160,151,173,122,131,45,35,40,30,18,16,5,4,0.6,0.6
2023-01-23T15:00:00,1514A,112.9074,27.9119,湘潭市,科大,细颗粒物(PM2.5),155,145,173,118,127,49,38,39,31,14,11,6,6,1.2,1.2
2023-01-23T15:00:00,1515A,113.135,27.8244,株洲市,天台山庄,细颗粒物(PM2.5),162,141,164,123,138,40,30,34,30,14,13,4,4,0.8,0.8
2023-01-23T15:00:00,1518A,113.095,27.8867,株洲市,株冶医院,细颗粒物(PM2.5),155,141,170,118,132,36,29,29,26,12,12,3,3,0.8,0.7
2023-01-23T15:00:00,1519A,113.167,27.8667,株洲市,市四中,细颗粒物(PM2.5),158,129,168,120,140,38,30,29,29,9,10,5,6,0.7,0.7
2023-01-23T15:00:00,1520A,113.143,27.8381,株洲市,火车站,细颗粒物(PM2.5),163,141,179,124,143,39,28,34,30,14,12,4,4,0.9,0.9
2023-01-23T15:00:00,1524A,113.13,27.8528,株洲市,市监测站,细颗粒物(PM2.5),178,139,176,134,150,39,30,34,30,15,14,8,6,1.0,0.9
2023-01-23T15:00:00,1552A,106.805,26.3003,贵阳市,桐木岭,,,,,,,,,,,,,,,,
2023-01-23T15:00:00,1559A,113.251,27.8336,株洲市,大京风景区,细颗粒物(PM2.5),144,149,183,110,136,35,29,28,26,8,9,3,4,0.8,0.7
2023-01-23T15:00:00,1562A,113.0048,27.9153,湘潭市,昭山,细颗粒物(PM2.5),170,159,186,129,136,45,35,36,30,9,8,1,1,1.0,1
2023-01-23T15:00:00,1564A,112.4876,27.9164,湘潭市,韶山,细颗粒物(PM2.5),105,152,169,79,83,58,53,57,46,16,16,6,6,0.9,1
2023-01-23T15:00:00,1585A,109.8756,40.6532,包头市,市环境监测站,,37,37,60,2,13,80,66,73,62,3,4,9,9,0.5,0.5
2023-01-23T15:00:00,1587A,109.9991,40.5842,包头市,包头八中,,39,39,83,7,22,77,65,72,61,5,7,8,8,0.4,0.4
2023-01-23T15:00:00,1588A,109.8538,40.6821,包头市,青山宾馆,,36,36,64,11,18,82,67,74,64,4,5,5,5,0.5,0.5
2023-01-23T15:00:00,1589A,109.8642,40.6288,包头市,惠龙物流,,32,32,82,4,20,80,68,78,64,4,7,5,5,0.7,0.7
2023-01-23T15:00:00,1590A,110.0377,40.5546,包头市,东河鸿龙湾,,24,24,72,9,12,81,67,74,61,3,6,10,11,0.4,0.4
2023-01-23T15:00:00,1591A,110.0023,39.8129,鄂尔多斯市,综合楼,,27,27,92,7,18,82,66,79,60,5,6,7,7,0.4,0.4
2023-01-23T15:00:00,1592A,109.9486,39.8261,鄂尔多斯市,巴音孟克林场办事处,颗粒物(PM10),52,53,82,14,22,83,66,79,59,4,5,7,8,0.6,0.6
2023-01-23T15:00:00,1593A,109.7736,39.5986,鄂尔多斯市,康泽苑,,48,48,80,7,17,79,68,75,59,8,9,7,5,0.6,0.6
2023-01-23T15:00:00,1594A,109.8119,39.5989,鄂尔多斯市,华泰汽车城,,39,39,80,14,25,84,72,81,62,5,4,7,6,0.5,0.5
2023-01-23T15:00:00,1595A,109.9734,39.7884,鄂尔多斯市,奥林花园,,44,44,79,9,16,83,69,82,61,2,4,7,7,0.4,0.4
2023-01-23T15:00:00,1596A,122.2414,40.6592,营口市,学府南路,,,,,,,,,,,,,,,,
2023-01-23T15:00:00,1597A,122.2703,40.7094,营口市,大庆路,,48,48,84,12,57,66,66,61,61,5,9,9,9,0.3,0.6
2023-01-23T15:00:00,1598A,122.2150,40.6511,营口市,镜湖西路,颗粒物(PM10),53,55,100,7,45,67,67,62,62,7,12,7,7,0.5,0.7
2023-01-23T15:00:00,1599A,122.1658,40.6789,营口市,西炮台,,41,41,76,9,47,63,63,49,49,4,9,6,5,0.3,0.7
2023-01-23T15:00:00,1600A,124.3303,40.0625,丹东市,江湾东路,,33,29,114,23,100,68,68,52,52,5,20,11,16,0.5,1.2
2023-01-23T15:00:00,1601A,124.4256,40.1503,丹东市,临江后街,,,29,129,18,102,62,60,45,45,4,25,8,15,,1.1
2023-01-23T15:00:00,1602A,124.3933,40.1461,丹东市,元宝山,,30,24,110,21,88,64,64,48,48,7,18,12,16,0.8,1.3
2023-01-23T15:00:00,1603A,124.3633,40.1092,丹东市,民主桥,,30,30,131,19,109,63,63,47,47,6,22,9,12,0.4,1.1
2023-01-23T15:00:00,1604A,122.0303,41.1489,盘锦市,开发区,,28,28,55,7,29,65,65,61,61,2,5,7,7,0.6,0.7
2023-01-23T15:00:00,1605A,122.0485,41.0883,盘锦市,兴隆台,,,27,57,8,32,68,68,64,64,,7,7,10,0.4,0.5
2023-01-23T15:00:00,1606A,121.8297,41.1028,盘锦市,新生街道,,32,32,54,6,33,68,67,62,62,6,9,7,8,0.6,0.7
2023-01-23T15:00:00,1607A,120.9092,40.7136,葫芦岛市,龙港区,,21,20,69,12,48,67,67,60,60,2,11,7,34,0.4,0.7
2023-01-23T15:00:00,1608A,120.8392,40.7514,葫芦岛市,化工街,,21,17,64,7,32,65,65,60,60,2,2,7,11,0.9,1
2023-01-23T15:00:00,1609A,120.8341,40.7073,葫芦岛市,新区,,,22,57,11,42,64,64,61,61,,7,14,15,,0.5
2023-01-23T15:00:00,1610A,120.8695,40.7677,葫芦岛市,东城区,,21,21,53,7,39,63,63,59,59,2,4,6,11,0.7,0.8
2023-01-23T15:00:00,1611A,118.5819,24.9117,泉州市,涂山街,,26,18,49,17,54,83,83,62,62,6,10,8,9,0.4,0.5
2023-01-23T15:00:00,1612A,118.5972,24.8978,泉州市,津头埔,,28,14,46,16,54,88,88,63,63,9,14,8,8,0.5,0.7
2023-01-23T15:00:00,1613A,118.6663,24.9424,泉州市,万安,,30,16,47,16,51,93,93,65,65,6,9,8,8,0.5,0.5
2023-01-23T15:00:00,1614A,118.6117,24.9604,泉州市,清源山,,,,,,,,,,,,,,,,
2023-01-23T15:00:00,1616A,117.6795,36.229,济南市,技术学院,颗粒物(PM10),68,85,214,45,160,108,63,55,48,14,30,4,14,0.5,1.1
2023-01-23T15:00:00,1618A,118.3429,35.0532,临沂市,沂河小区,细颗粒物(PM2.5),93,90,126,69,110,95,55,52,52,6,12,4,9,0.8,0.9
2023-01-23T15:00:00,1619A,118.295,35.0583,临沂市,鲁南制药厂,细颗粒物(PM2.5),87,85,129,64,104,95,56,52,50,13,24,10,22,0.4,0.6
2023-01-23T15:00:00,1620A,118.2794,34.9976,临沂市,新光毛纺厂,细颗粒物(PM2.5),89,90,135,66,104,91,47,41,41,9,20,4,13,0.7,0.8
2023-01-23T15:00:00,1621A,118.3956,35.0888,临沂市,河东保险公司,细颗粒物(PM2.5),83,88,126,61,100,103,59,52,52,8,16,6,11,0.8,0.9
2023-01-23T15:00:00,1622A,116.3032,37.4674,德州市,儿童乐园,颗粒物(PM10),56,61,181,29,119,122,65,52,52,4,16,3,12,0.3,0.8
2023-01-23T15:00:00,1624A,116.2991,37.4451,德州市,监理站,颗粒物(PM10),57,63,187,29,120,115,66,54,54,8,18,4,13,0.6,1
2023-01-23T15:00:00,1625A,115.9848,36.4372,聊城市,区政府,颗粒物(PM10),94,138,240,68,149,105,62,65,45,8,21,8,15,0.7,1.2
2023-01-23T15:00:00,1628A,118.0062,37.3803,滨州市,市环保局,颗粒物(PM10),57,63,137,28,82,83,58,52,52,10,18,4,6,0.4,0.7
2023-01-23T15:00:00,1629A,118.0018,37.3617,滨州市,第二水厂,颗粒物(PM10),58,66,131,29,75,85,60,53,53,6,15,2,5,0.6,0.8
2023-01-23T15:00:00,1630A,117.9776,37.393,滨州市,北中新校,颗粒物(PM10),60,70,134,28,79,88,62,56,56,7,15,5,6,0.4,0.6
2023-01-23T15:00:00,1631A,118.0414,36.8103,淄博市,人民公园,细颗粒物(PM2.5),52,48,179,36,142,91,62,53,53,11,21,2,6,0.3,0.7
2023-01-23T15:00:00,1633A,117.8525,36.4847,淄博市,双山,颗粒物(PM10),62,74,232,35,170,78,59,44,44,5,24,9,19,0.6,1.2
2023-01-23T15:00:00,1634A,117.9592,36.6331,淄博市,气象站,,48,48,227,24,158,88,64,49,49,1,18,7,18,0.4,1.1
2023-01-23T15:00:00,1635A,118.3092,36.8194,淄博市,莆田园,,39,34,145,27,100,100,41,52,36,74,21,5,8,0.6,0.9
2023-01-23T15:00:00,1637A,117.558,34.8438,枣庄市,市中区政府,细颗粒物(PM2.5),228,268,200,178,138,94,45,36,36,23,35,10,14,1.6,1.6
2023-01-23T15:00:00,1638A,117.2852,34.7837,枣庄市,薛城环保局,细颗粒物(PM2.5),178,198,141,134,99,96,76,74,52,26,27,12,13,1.3,1.2
2023-01-23T15:00:00,1639A,117.5852,34.7745,枣庄市,峄城区政府,细颗粒物(PM2.5),218,254,190,168,132,96,48,46,46,19,31,9,16,1.0,1
2023-01-23T15:00:00,1640A,117.7276,34.5578,枣庄市,台儿庄区环保局,细颗粒物(PM2.5),180,222,181,136,114,91,41,38,38,24,33,8,10,1.1,1
2023-01-23T15:00:00,1641A,117.4518,35.0992,枣庄市,山亭区环保局,细颗粒物(PM2.5),150,149,166,115,119,92,71,52,52,19,21,11,17,1.2,1.2
2023-01-23T15:00:00,1642A,121.2514,37.5639,烟台市,开发区,,36,36,96,9,68,64,59,58,51,4,12,9,8,0.4,0.8
2023-01-23T15:00:00,1643A,121.3719,37.5433,烟台市,轴承厂,颗粒物(PM10),51,51,110,10,78,78,63,72,52,7,15,5,5,0.4,0.7
2023-01-23T15:00:00,1644A,121.3181,37.5436,烟台市,西郊化工站,颗粒物(PM10),51,51,112,14,71,80,68,69,56,3,13,6,6,0.6,0.9
2023-01-23T15:00:00,1645A,121.4478,37.4822,烟台市,莱山环保局,,44,44,102,14,65,84,65,73,52,4,12,8,8,0.7,1
2023-01-23T15:00:00,1646A,121.2611,37.4967,烟台市,福山环保局,,41,41,117,12,73,69,60,48,48,7,17,7,8,0.4,0.7
2023-01-23T15:00:00,1650A,119.1437,36.7023,潍坊市,环保局,,44,44,137,23,89,92,59,56,56,4,14,2,6,0.7,1
2023-01-23T15:00:00,1653A,116.6251,35.4302,济宁市,火炬城,细颗粒物(PM2.5),144,155,275,110,211,103,81,61,55,13,25,8,21,0.7,1.3
2023-01-23T15:00:00,1655A,116.5491,35.4042,济宁市,电化厂,颗粒物(PM10),110,169,282,80,208,103,82,58,54,9,24,5,23,0.6,1.3
2023-01-23T15:00:00,1656A,117.1437,36.1937,泰安市,监测站,"颗粒物(PM10),细颗粒物(PM2.5)",73,95,287,53,250,106,77,57,57,6,30,5,13,0.9,1.6
2023-01-23T15:00:00,1657A,117.0885,36.2017,泰安市,人口学校,颗粒物(PM10),74,97,257,46,202,103,73,49,49,10,33,9,17,0.5,1.1
2023-01-23T15:00:00,1658A,117.1089,36.1758,泰安市,电力学校,细颗粒物(PM2.5),98,102,296,73,240,102,71,48,48,8,37,10,18,0.8,1.5
2023-01-23T15:00:00,1659A,119.471,35.4209,日照市,监测站,颗粒物(PM10),60,70,98,35,61,63,63,46,46,12,31,5,10,0.4,0.8
2023-01-23T15:00:00,1660A,119.523,35.4216,日照市,市政府广场,,,68,96,34,62,77,56,46,46,3,25,3,6,,0.9
2023-01-23T15:00:00,1661A,119.5587,35.4044,日照市,港务局,颗粒物(PM10),62,73,100,35,60,85,67,50,50,6,43,3,6,0.7,0.9
2023-01-23T15:00:00,1662A,122.1214,37.4236,威海市,华夏技校,,41,41,108,22,68,88,69,72,53,6,16,2,2,0.3,0.6
2023-01-23T15:00:00,1663A,122.0508,37.5236,威海市,山大分校,,32,32,105,12,64,80,69,74,52,5,14,4,4,0.3,0.6
2023-01-23T15:00:00,1664A,122.1067,37.5072,威海市,市监测站,,39,39,111,20,67,91,68,74,52,4,15,3,3,0.3,0.6
2023-01-23T15:00:00,1666A,118.6614,37.4309,东营市,市环保局,,29,29,113,12,76,96,68,62,62,6,11,9,9,0.4,0.6
2023-01-23T15:00:00,1669A,113.5824,24.7733,韶关市,市八中,细颗粒物(PM2.5),69,69,88,50,78,84,31,36,30,5,7,10,11,0.7,0.7
2023-01-23T15:00:00,1671A,113.5917,24.7972,韶关市,园林处,细颗粒物(PM2.5),82,73,91,60,82,86,31,34,29,3,5,9,10,0.5,0.5
2023-01-23T15:00:00,1672A,113.6735,24.7791,韶关市,韶关学院,细颗粒物(PM2.5),110,93,96,83,94,90,39,44,44,8,11,8,9,0.7,0.7
2023-01-23T15:00:00,1673A,113.5971,24.6863,韶关市,曲江监测站,细颗粒物(PM2.5),92,85,89,68,85,84,35,37,37,5,8,10,15,0.6,0.6
2023-01-23T15:00:00,1674A,116.6794,23.3667,汕头市,金平子站,,26,21,63,18,56,69,42,47,47,7,14,10,11,0.6,0.7
2023-01-23T15:00:00,1675A,116.7244,23.3633,汕头市,龙湖子站,,23,19,52,16,54,74,53,53,53,10,16,10,11,0.6,0.7
2023-01-23T15:00:00,1676A,116.7258,23.2775,汕头市,濠江子站,,32,28,71,22,73,72,54,54,54,9,16,8,10,0.8,1
2023-01-23T15:00:00,1677A,116.7519,23.4714,汕头市,澄海子站,,28,17,53,19,50,72,45,51,51,8,13,4,4,0.6,0.6
2023-01-23T15:00:00,1678A,116.6092,23.2539,汕头市,潮阳子站,,20,20,98,12,86,74,44,52,52,8,14,5,7,0.8,1
2023-01-23T15:00:00,1680A,110.3539,21.2706,湛江市,湛江影剧院,,35,35,36,21,29,94,83,75,75,4,7,6,6,0.5,0.6
2023-01-23T15:00:00,1681A,110.3928,21.2228,湛江市,市环境监测站,,26,26,34,13,28,92,77,72,70,5,9,7,6,0.4,0.4
2023-01-23T15:00:00,1682A,110.4019,21.1997,湛江市,环保局宿舍,,28,28,34,18,27,92,79,72,68,6,10,7,4,0.7,0.5
2023-01-23T15:00:00,1683A,110.4111,21.2028,湛江市,霞山游泳场,,25,24,39,12,31,99,80,77,67,8,13,5,5,0.5,0.5
2023-01-23T15:00:00,1684A,110.3316,21.2679,湛江市,麻章区环保局,,30,30,36,21,28,94,86,76,72,6,7,7,7,0.6,0.6
2023-01-23T15:00:00,1685A,110.4558,21.2567,湛江市,坡头区环保局,,24,24,34,14,28,90,74,70,70,6,7,5,5,0.6,0.7
2023-01-23T15:00:00,1686A,111.0286,21.4688,茂名市,电白南海,,39,39,38,27,25,98,83,75,70,6,8,6,6,0.5,0.5
2023-01-23T15:00:00,1687A,110.9294,21.6533,茂名市,茂石化七小,,,51,38,48,33,101,84,78,72,,5,6,4,,0.6
2023-01-23T15:00:00,1688A,110.9107,21.6687,茂名市,健康路,,48,48,36,30,26,105,91,86,80,6,6,14,10,0.6,0.6
2023-01-23T15:00:00,1689A,110.8592,21.6828,茂名市,高岭,细颗粒物(PM2.5),55,39,33,39,33,98,76,80,70,6,9,12,12,0.3,0.4
2023-01-23T15:00:00,1690A,116.1231,24.3284,梅州市,梅江月梅,细颗粒物(PM2.5),74,47,53,54,51,62,27,16,16,5,6,5,5,0.6,0.5
2023-01-23T15:00:00,1691A,116.0797,24.2719,梅州市,梅县新城,细颗粒物(PM2.5),80,60,74,59,70,56,23,18,18,4,10,7,6,0.7,0.7
2023-01-23T15:00:00,1692A,116.1248,24.2654,梅州市,环境监控中心,细颗粒物(PM2.5),72,57,47,52,47,55,23,17,17,4,8,6,6,0.7,0.6
2023-01-23T15:00:00,1693A,115.3653,22.775,汕尾市,市环保局,,48,34,53,33,44,75,32,43,30,8,8,8,8,0.7,0.7
2023-01-23T15:00:00,1694A,115.3706,22.7898,汕尾市,市政府,细颗粒物(PM2.5),57,30,46,40,45,74,35,47,30,8,8,7,8,0.7,0.6
2023-01-23T15:00:00,1695A,115.3622,22.7925,汕尾市,新城中学,,48,30,50,33,43,77,34,47,30,8,7,6,6,0.6,0.6
2023-01-23T15:00:00,1696A,114.6778,23.7569,河源市,源西,细颗粒物(PM2.5),104,101,79,78,72,97,71,55,55,6,13,5,5,0.7,0.6
2023-01-23T15:00:00,1697A,114.6944,23.7586,河源市,东埔,细颗粒物(PM2.5),114,111,99,86,87,74,53,42,42,5,12,5,6,0.7,0.7
2023-01-23T15:00:00,1698A,114.6892,23.7233,河源市,老城,细颗粒物(PM2.5),119,125,92,90,70,75,55,42,42,7,9,5,5,0.8,0.7
2023-01-23T15:00:00,1699A,111.9797,21.8593,阳江市,鸳鸯湖,,29,23,26,20,30,100,80,80,64,3,5,4,4,0.5,0.5
2023-01-23T15:00:00,1701A,111.9491,21.8658,阳江市,马南垌,,27,23,36,13,29,104,86,84,75,4,6,5,5,0.6,0.6
2023-01-23T15:00:00,1702A,113.0426,23.691,清远市,环保大楼,细颗粒物(PM2.5),92,72,74,68,73,107,54,46,45,5,13,4,4,0.8,0.8
2023-01-23T15:00:00,1703A,113.0208,23.7106,清远市,凤城街办,细颗粒物(PM2.5),82,77,80,60,61,86,40,32,32,5,12,7,8,0.7,0.7
2023-01-23T15:00:00,1705A,116.6367,23.6719,潮州市,西园路,,13,5,23,9,28,42,36,34,28,5,7,6,6,0.7,0.7
2023-01-23T15:00:00,1706A,116.6447,23.6706,潮州市,档案局,,20,19,24,14,29,41,35,32,27,5,6,6,5,0.6,0.8
2023-01-23T15:00:00,1708A,116.3701,23.5345,揭阳市,新兴,,33,33,53,19,57,51,44,46,39,2,8,6,6,0.6,0.9
2023-01-23T15:00:00,1709A,116.3264,23.5443,揭阳市,西马,,20,16,69,14,64,54,44,38,38,1,8,8,9,0.5,0.7
2023-01-23T15:00:00,1710A,116.3611,23.5626,揭阳市,东兴,,30,30,59,20,57,52,50,42,42,8,12,4,5,0.8,1
2023-01-23T15:00:00,1711A,116.4151,23.5294,揭阳市,渔湖,,22,22,56,13,51,53,44,48,41,2,6,6,6,0.5,0.7
2023-01-23T15:00:00,1712A,112.0392,22.9169,云浮市,新市府,细颗粒物(PM2.5),133,113,61,101,60,53,28,27,27,9,7,6,6,0.7,0.5
2023-01-23T15:00:00,1714A,112.0539,22.9539,云浮市,牧羊,细颗粒物(PM2.5),119,100,56,90,48,77,24,46,24,10,8,7,8,,0.6
2023-01-23T15:00:00,1715A,102.575,24.3711,玉溪市,东风水库,,,,25,12,22,97,94,70,70,5,6,6,6,0.5,0.6
2023-01-23T15:00:00,1718A,115.4208,35.2464,菏泽市,气象局,颗粒物(PM10),131,211,298,80,192,125,82,88,68,11,25,6,23,0.6,1.2
2023-01-23T15:00:00,1719A,115.4747,35.2375,菏泽市,市政协,颗粒物(PM10),123,196,281,80,181,115,80,80,68,12,24,6,19,0.6,1.2
2023-01-23T15:00:00,1721A,113.3819,40.1097,大同市,果树场,,,,,,,,,,,,,,,,
2023-01-23T15:00:00,1723A,113.2994,40.0758,大同市,云冈宾馆,,31,31,68,7,19,88,68,84,65,4,3,20,11,0.7,0.5
2023-01-23T15:00:00,1724A,113.3444,40.0917,大同市,大同大学,,25,25,79,4,21,80,62,66,58,4,7,7,9,0.3,0.6
2023-01-23T15:00:00,1725A,113.2661,40.1269,大同市,安家小村,,24,24,73,12,16,88,68,82,62,4,3,9,5,0.5,0.3
2023-01-23T15:00:00,1726A,113.2711,40.0844,大同市,教育学院,,23,23,70,6,24,75,60,72,55,6,8,9,8,0.3,0.3
2023-01-23T15:00:00,1727A,113.1147,36.1547,长治市,清华站,颗粒物(PM10),69,87,80,14,41,93,82,69,69,2,18,6,18,0.3,0.7
2023-01-23T15:00:00,1728A,113.1031,36.1989,长治市,监测站,颗粒物(PM10),62,73,71,9,38,90,77,65,65,4,18,2,16,0.5,0.9
2023-01-23T15:00:00,1730A,113.0886,36.2125,长治市,审计局,颗粒物(PM10),58,65,68,9,37,92,78,67,64,3,14,6,20,0.2,0.6
2023-01-23T15:00:00,1731A,113.0844,36.1856,长治市,长治八中,颗粒物(PM10),60,69,79,14,36,93,79,70,67,1,12,3,17,0.3,0.6
2023-01-23T15:00:00,1733A,111.5531,36.0783,临汾市,临钢医院,颗粒物(PM10),72,93,211,23,109,95,80,74,74,1,14,2,8,0.5,1.7
2023-01-23T15:00:00,1734A,111.5028,36.0714,临汾市,技工学校,颗粒物(PM10),82,114,220,15,121,92,80,76,76,4,15,5,16,0.0,1.4
2023-01-23T15:00:00,1736A,111.5018,36.0855,临汾市,市委,颗粒物(PM10),78,105,208,16,109,93,82,78,78,3,18,2,11,0.5,1.6
2023-01-23T15:00:00,1738A,113.5758,37.8572,阳泉市,市中心,颗粒物(PM10),75,99,98,20,40,93,76,76,76,5,22,8,14,0.4,0.6
2023-01-23T15:00:00,1739A,113.4894,37.8731,阳泉市,赛鱼,颗粒物(PM10),61,72,84,18,30,92,74,74,74,11,21,8,16,0.5,0.5
2023-01-23T15:00:00,1740A,113.5819,37.8486,阳泉市,南庄,颗粒物(PM10),66,81,89,22,44,91,75,76,76,7,16,8,14,0.4,0.6
2023-01-23T15:00:00,1742A,113.5614,37.8703,阳泉市,平坦,颗粒物(PM10),62,74,96,23,40,93,75,75,75,6,20,7,15,0.5,0.6
2023-01-23T15:00:00,1743A,113.5158,37.8392,阳泉市,大阳泉,颗粒物(PM10),54,58,64,18,28,96,77,82,79,6,10,8,13,0.4,0.5
2023-01-23T15:00:00,1744A,118.9233,42.2816,赤峰市,松山一中,颗粒物(PM10),54,57,57,8,24,73,73,67,67,6,8,8,9,0.3,0.4
2023-01-23T15:00:00,1745A,118.9576,42.2728,赤峰市,哈达街,,48,48,44,12,24,76,75,69,69,3,8,10,15,0.4,0.6
2023-01-23T15:00:00,1746A,118.8788,42.2554,赤峰市,天义路,,30,30,43,2,21,72,72,65,65,5,10,14,15,0.4,0.6
2023-01-23T15:00:00,1748A,123.044,41.1196,鞍山市,深沟寺,,24,24,76,11,57,60,59,54,54,3,10,6,8,0.7,0.9
2023-01-23T15:00:00,1749A,123.011,41.0931,鞍山市,太阳城,,29,29,82,8,53,65,64,58,58,4,11,9,11,0.3,0.5
2023-01-23T15:00:00,1750A,123.0485,41.1442,鞍山市,太平,,20,20,75,10,56,57,57,51,51,4,11,8,12,0.3,0.9
2023-01-23T15:00:00,1751A,122.9642,41.0971,鞍山市,铁西三道街,,34,34,100,15,68,58,58,47,47,10,25,16,24,1.0,2
2023-01-23T15:00:00,1752A,122.9341,41.0833,鞍山市,铁西工业园区,,26,26,96,11,56,57,57,50,50,9,23,15,24,0.4,1
2023-01-23T15:00:00,1753A,123.022,41.0821,鞍山市,明达新区,,27,27,85,13,62,52,51,46,46,6,13,8,10,0.5,0.7
2023-01-23T15:00:00,1754A,123.1289,41.0228,鞍山市,千山,,,,,,,,,,,,,,,,
2023-01-23T15:00:00,1755A,123.7977,41.8491,抚顺市,望花区,,24,24,74,10,64,70,70,60,60,2,6,6,10,0.8,1
2023-01-23T15:00:00,1756A,123.9161,41.8822,抚顺市,顺城区,,22,22,90,8,60,70,70,59,59,2,9,4,5,0.4,0.6
2023-01-23T15:00:00,1757A,124.0436,41.8611,抚顺市,东洲区,,35,35,90,11,75,68,67,58,58,5,11,7,8,0.5,0.8
2023-01-23T15:00:00,1758A,123.9247,41.8642,抚顺市,新抚区,,31,31,90,10,76,66,66,57,57,4,12,9,9,0.3,0.6
2023-01-23T15:00:00,1759A,124.0972,41.8961,抚顺市,大伙房水库,,36,36,109,9,75,71,70,58,58,1,10,5,6,0.5,0.8
2023-01-23T15:00:00,1760A,123.7086,41.8391,抚顺市,沈抚新城,,24,24,67,8,47,71,71,63,63,1,8,6,8,0.5,0.7
2023-01-23T15:00:00,1761A,123.8275,41.3064,本溪市,大峪,,25,25,107,14,91,50,50,40,40,5,16,8,11,0.3,0.9
2023-01-23T15:00:00,1762A,123.7567,41.3325,本溪市,溪湖,颗粒物(PM10),55,60,138,17,88,68,65,54,54,7,14,6,10,0.4,0.8
2023-01-23T15:00:00,1763A,123.7169,41.3094,本溪市,彩屯,颗粒物(PM10),52,54,126,17,81,63,60,51,51,11,18,9,10,0.4,1
2023-01-23T15:00:00,1764A,123.7669,41.2864,本溪市,东明,,35,28,103,24,96,62,59,48,48,8,16,13,16,0.5,1
2023-01-23T15:00:00,1765A,123.7992,41.2664,本溪市,新立屯,,38,38,133,20,111,66,64,51,51,9,19,9,10,0.5,0.9
2023-01-23T15:00:00,1766A,123.8142,41.3472,本溪市,威宁,,25,24,145,17,81,60,58,46,46,6,17,6,8,0.5,1
2023-01-23T15:00:00,1767A,121.1115,41.0879,锦州市,南山,,28,28,45,7,36,78,78,70,70,2,4,5,9,0.5,0.6
2023-01-23T15:00:00,1768A,121.0533,40.8434,锦州市,开发区,,,25,60,5,35,80,80,72,72,,3,5,9,0.5,0.6
2023-01-23T15:00:00,1769A,121.1836,41.1119,锦州市,百股街道,,39,39,72,7,37,77,77,70,70,5,8,6,12,0.3,0.6
2023-01-23T15:00:00,1770A,121.1178,41.1222,锦州市,天安街道,,24,18,50,6,32,74,74,66,66,5,9,5,9,0.2,0.4
2023-01-23T15:00:00,1771A,121.1303,41.1386,锦州市,北湖公园,,28,28,48,9,36,79,79,72,72,3,3,5,10,0.4,0.5
2023-01-23T15:00:00,1772A,126.54,43.8622,吉林市,哈达湾,,40,40,82,28,65,60,59,53,53,8,22,9,21,0.6,1
2023-01-23T15:00:00,1773A,126.5844,43.8358,吉林市,东局子,细颗粒物(PM2.5),53,47,86,37,70,52,50,46,46,12,21,10,29,0.7,0.9
2023-01-23T15:00:00,1774A,126.5052,43.8245,吉林市,电力学院,,39,32,91,27,76,62,62,52,52,6,23,9,24,0.7,1.1
2023-01-23T15:00:00,1775A,126.6133,43.8972,吉林市,江北,,48,48,76,32,63,62,59,58,58,8,10,15,16,0.8,0.9
2023-01-23T15:00:00,1776A,126.555,43.8306,吉林市,江南公园,,47,47,98,31,75,54,54,48,48,14,25,9,24,0.5,1
2023-01-23T15:00:00,1778A,126.7061,43.7133,吉林市,丰满,,,,,,,,,,,,,,,,
2023-01-23T15:00:00,1779A,123.9305,47.3636,齐齐哈尔市,安居小区,,21,21,30,9,26,67,67,62,62,1,5,4,7,0.2,0.3
2023-01-23T15:00:00,1780A,123.9488,47.3386,齐齐哈尔市,中心广场,,22,5,20,2,11,69,69,63,63,2,4,2,4,0.2,0.3
2023-01-23T15:00:00,1781A,123.9483,47.3227,齐齐哈尔市,农牧车辆厂,,21,14,22,5,19,66,66,60,60,2,6,1,4,0.2,0.3
2023-01-23T15:00:00,1783A,123.945,47.2988,齐齐哈尔市,市环境监测站,,22,13,31,2,22,68,68,63,63,4,8,4,14,0.2,0.4
2023-01-23T15:00:00,1784A,129.61,44.561,牡丹江市,环保大楼,,40,40,61,17,43,65,65,58,58,4,13,5,12,0.3,0.5
2023-01-23T15:00:00,1785A,129.6115,44.5782,牡丹江市,文化广场,,38,38,69,18,51,62,54,53,53,10,15,16,13,0.4,0.6
2023-01-23T15:00:00,1786A,129.5904,44.5963,牡丹江市,第一医院,,44,44,61,30,48,65,63,58,58,4,12,3,8,0.5,0.7
2023-01-23T15:00:00,1787A,129.6364,44.6075,牡丹江市,机车工厂,,34,34,66,22,48,67,66,59,59,2,13,2,2,0.3,0.5
2023-01-23T15:00:00,1788A,129.6386,44.5462,牡丹江市,第一中学,,44,44,57,20,45,63,63,56,56,4,9,4,6,0.3,0.6
2023-01-23T15:00:00,1789A,124.81117,46.03138,大庆市,大同区,,20,18,31,9,26,62,62,56,56,2,7,3,5,0.3,0.4
2023-01-23T15:00:00,1790A,125.129,46.533,大庆市,龙凤区,,28,28,35,9,23,56,54,53,53,9,12,16,11,0.6,0.5
2023-01-23T15:00:00,1791A,124.902,46.408,大庆市,红岗区,,,37,34,13,27,64,,57,57,6,10,4,7,0.1,0.2
2023-01-23T15:00:00,1792A,125.153,46.586,大庆市,萨尔图区,,22,22,24,10,19,61,59,57,57,6,8,8,9,0.2,0.2
2023-01-23T15:00:00,1793A,124.9042,46.6215,大庆市,让胡路区,,26,19,36,18,35,64,64,59,59,2,5,3,8,0.3,0.4
2023-01-23T15:00:00,1794A,118.3606,31.3519,芜湖市,监测站,,25,20,53,17,54,59,54,59,45,20,22,4,3,0.7,0.7
2023-01-23T15:00:00,1795A,118.3714,31.4134,芜湖市,科创中心,,25,21,56,17,50,62,53,60,47,16,14,4,4,0.6,0.6
2023-01-23T15:00:00,1796A,118.3673,31.3131,芜湖市,四水厂,,23,23,61,16,52,62,46,62,41,21,18,4,4,0.7,0.7
2023-01-23T15:00:00,1798A,118.5092,31.6837,马鞍山市,湖东路四小,,32,16,38,22,42,62,56,54,54,12,10,6,6,0.6,0.7
2023-01-23T15:00:00,1799A,118.5024,31.6449,马鞍山市,开发区,,25,14,43,17,40,65,59,55,55,18,17,6,6,0.4,0.5
2023-01-23T15:00:00,1800A,118.5228,31.7231,马鞍山市,慈湖,,36,26,41,25,43,63,58,56,56,11,10,6,6,0.6,0.6
2023-01-23T15:00:00,1802A,118.6245,31.7241,马鞍山市,濮塘,,19,19,45,13,31,64,57,53,53,9,9,5,5,0.6,0.6
2023-01-23T15:00:00,1803A,115.9872,29.6815,九江市,十里,细颗粒物(PM2.5),62,52,109,44,87,57,57,54,54,10,13,6,6,0.7,0.8
2023-01-23T15:00:00,1804A,115.9584,29.7046,九江市,茅山头,细颗粒物(PM2.5),74,50,111,54,93,52,51,49,49,6,10,6,7,0.8,0.9
2023-01-23T15:00:00,1805A,115.9877,29.7295,九江市,西园,细颗粒物(PM2.5),67,58,107,48,88,55,55,52,52,14,18,6,6,0.8,1
2023-01-23T15:00:00,1806A,116.0172,29.6547,九江市,五七二七厂,,,,92,42,60,54,54,50,50,12,9,5,5,0.6,0.7
2023-01-23T15:00:00,1808A,115.9114,29.6038,九江市,综合工业园,细颗粒物(PM2.5),64,51,106,46,89,52,49,50,50,11,15,7,6,0.8,0.8
2023-01-23T15:00:00,1809A,116.0721,29.7535,九江市,石化总厂,颗粒物(PM10),52,54,110,30,80,57,56,52,52,10,13,7,7,0.7,0.8
2023-01-23T15:00:00,1810A,115.9773,29.5698,九江市,庐山气象台,,20,16,26,7,23,89,61,82,66,7,7,6,6,0.6,0.6
2023-01-23T15:00:00,1812A,112.3931,34.6516,洛阳市,市委党校,颗粒物(PM10),85,119,201,22,123,104,78,58,58,4,23,7,15,0.2,1
2023-01-23T15:00:00,1814A,112.4657,34.6871,洛阳市,豫西宾馆,颗粒物(PM10),107,163,221,27,137,105,82,55,55,1,25,7,20,0.5,1.4
2023-01-23T15:00:00,1815A,112.494,34.6886,洛阳市,河南林校,颗粒物(PM10),113,176,201,24,127,120,80,74,59,2,23,2,11,0.3,1.1
2023-01-23T15:00:00,1816A,112.3844,34.623,洛阳市,开发区管委会,颗粒物(PM10),67,84,171,24,113,116,86,69,66,2,15,4,11,0.2,0.9
2023-01-23T15:00:00,1817A,112.4267,34.6258,洛阳市,市委新办公区,颗粒物(PM10),91,131,174,23,112,110,86,66,66,9,22,5,10,0.2,1
2023-01-23T15:00:00,1818A,114.4839,36.0621,安阳市,棉研所,,,,,,,,,,,,,,,,
2023-01-23T15:00:00,1819A,114.3551,36.1017,安阳市,红庙街,细颗粒物(PM2.5),183,229,227,138,157,110,61,62,54,16,35,4,20,1.1,2.1
2023-01-23T15:00:00,1820A,114.361,36.0681,安阳市,银杏小区,细颗粒物(PM2.5),209,212,202,159,169,113,60,55,55,13,28,6,20,0.9,1.9
2023-01-23T15:00:00,1824A,114.3389,34.7781,开封市,肿瘤医院,细颗粒物(PM2.5),156,238,250,119,159,107,85,78,78,12,27,9,18,0.5,1.1
2023-01-23T15:00:00,1826A,114.2885,34.7965,开封市,世纪星幼儿园,细颗粒物(PM2.5),155,228,238,118,190,106,88,80,80,12,31,12,20,0.9,1.6
2023-01-23T15:00:00,1828A,113.227,35.2125,焦作市,市环保局,颗粒物(PM10),91,131,196,63,133,108,93,71,67,12,28,14,22,0.9,1.3
2023-01-23T15:00:00,1830A,113.1992,35.2590,焦作市,影视城,,,,,,,,,,,,,,,,
2023-01-23T15:00:00,1832A,113.3257,33.742,平顶山市,新华旅馆,颗粒物(PM10),72,94,202,24,117,106,86,72,72,10,37,9,16,0.5,1.1
2023-01-23T15:00:00,1833A,113.2919,33.737,平顶山市,规划设计院,颗粒物(PM10),76,102,191,29,114,113,90,72,72,4,20,6,11,0.7,1.3
2023-01-23T15:00:00,1834A,113.182,33.774,平顶山市,平顶山工学院,颗粒物(PM10),81,112,197,31,104,117,90,71,71,2,13,7,13,0.5,0.9
2023-01-23T15:00:00,1835A,111.1922,34.7752,三门峡市,市政府,颗粒物(PM10),80,110,154,32,95,100,81,71,71,8,23,7,14,0.4,1
2023-01-23T15:00:00,1836A,111.1587,34.7942,三门峡市,开发区,颗粒物(PM10),69,88,175,41,109,101,84,75,75,6,22,8,13,0.4,0.9
2023-01-23T15:00:00,1838A,111.143,34.7955,三门峡市,风景区,,,,,,,,,,,,,,,,
2023-01-23T15:00:00,1840A,111.2992,30.6981,宜昌市,白龙岗,细颗粒物(PM2.5),89,107,117,66,81,72,72,34,34,17,26,7,5,0.8,1
2023-01-23T15:00:00,1841A,111.3549,30.6465,宜昌市,伍家岗,细颗粒物(PM2.5),83,108,134,61,85,91,91,34,34,14,27,13,8,0.8,0.9
2023-01-23T15:00:00,1842A,111.2628,30.6961,宜昌市,点军区,细颗粒物(PM2.5),79,98,136,58,86,82,82,36,36,18,19,9,6,0.8,0.9
2023-01-23T15:00:00,1843A,111.3275,30.7819,宜昌市,夷陵区,细颗粒物(PM2.5),94,114,113,70,83,104,104,43,43,11,20,11,7,0.7,0.8
2023-01-23T15:00:00,1844A,112.2494,30.3197,荆州市,市图书馆,细颗粒物(PM2.5),207,208,157,157,117,89,89,67,67,17,22,8,8,1.0,0.9
2023-01-23T15:00:00,1845A,112.2008,30.3544,荆州市,市委党校,细颗粒物(PM2.5),205,197,156,155,119,95,95,68,68,14,20,10,8,1.0,1
2023-01-23T15:00:00,1847A,113.1094,29.3578,岳阳市,南湖风景区,细颗粒物(PM2.5),162,161,165,123,115,69,69,49,40,11,16,10,12,0.8,0.9
2023-01-23T15:00:00,1848A,113.1493,29.4251,岳阳市,城陵矶,细颗粒物(PM2.5),142,161,178,108,113,63,63,39,38,14,19,10,11,1.1,1.1
2023-01-23T15:00:00,1849A,113.1497,29.3575,岳阳市,开发区,细颗粒物(PM2.5),143,156,183,109,138,64,64,38,34,14,18,7,8,0.5,0.6
2023-01-23T15:00:00,1850A,113.2621,29.4758,岳阳市,云溪区,细颗粒物(PM2.5),147,161,201,112,137,64,64,32,32,15,18,8,10,0.9,1
2023-01-23T15:00:00,1851A,112.9943,29.4402,岳阳市,君山区,细颗粒物(PM2.5),165,167,170,125,124,70,70,42,42,10,14,8,10,0.7,0.8
2023-01-23T15:00:00,1852A,113.2117,29.355,岳阳市,金凤水库,细颗粒物(PM2.5),160,184,191,122,132,57,57,30,30,12,15,6,6,0.7,0.9
2023-01-23T15:00:00,1854A,111.6975,28.9703,常德市,市二中,细颗粒物(PM2.5),137,150,217,104,167,66,66,30,30,6,11,7,6,0.7,1.1
2023-01-23T15:00:00,1857A,111.7158,29.1456,常德市,白鹤山,细颗粒物(PM2.5),132,144,148,100,101,77,77,56,48,5,7,6,5,0.8,0.8
2023-01-23T15:00:00,1858A,110.5319,29.1217,张家界市,永定新区,细颗粒物(PM2.5),145,141,136,111,111,59,38,18,18,21,15,5,5,0.9,0.9
2023-01-23T15:00:00,1859A,110.4697,29.1242,张家界市,电业局,细颗粒物(PM2.5),107,102,116,80,94,63,57,33,19,14,12,5,5,0.5,0.6
2023-01-23T15:00:00,1860A,110.5594,29.3547,张家界市,未央路,细颗粒物(PM2.5),100,112,124,75,94,65,65,23,23,9,10,6,6,0.7,0.8
2023-01-23T15:00:00,1861A,110.4417,29.315,张家界市,袁家界,细颗粒物(PM2.5),75,93,89,55,61,90,78,88,84,15,10,9,9,0.7,0.7
2023-01-23T15:00:00,1862A,110.4144,25.3167,桂林市,电子科大尧山校区,,,,,,,,,,,,,,,,
2023-01-23T15:00:00,1863A,110.2819,25.2697,桂林市,监测站,细颗粒物(PM2.5),77,67,71,56,64,46,38,44,43,8,9,2,2,0.8,0.9
2023-01-23T15:00:00,1864A,110.3089,25.2708,桂林市,龙隐路小学,细颗粒物(PM2.5),87,64,62,64,64,49,43,48,47,9,10,5,5,0.8,0.8
2023-01-23T15:00:00,1865A,110.2869,25.2178,桂林市,八中,细颗粒物(PM2.5),94,68,64,70,65,46,39,44,44,9,9,4,4,0.7,0.7
2023-01-23T15:00:00,1866A,109.2262,21.588,北海市,牛尾岭水库,细颗粒物(PM2.5),67,50,52,48,42,71,26,53,14,10,10,6,6,0.6,0.5
2023-01-23T15:00:00,1867A,109.1436,21.4086,北海市,海滩公园,细颗粒物(PM2.5),74,69,55,54,40,97,38,75,22,8,8,5,4,0.8,0.7
2023-01-23T15:00:00,1868A,109.0981,21.4661,北海市,新市环保局,细颗粒物(PM2.5),79,64,59,58,47,84,40,72,25,8,10,2,2,0.7,0.5
2023-01-23T15:00:00,1869A,109.1778,21.5233,北海市,北海工业园,细颗粒物(PM2.5),80,75,62,59,50,89,37,68,21,7,7,8,5,0.6,0.5
2023-01-23T15:00:00,1870A,109.4856,24.3895,柳州市,柳东小学,细颗粒物(PM2.5),65,50,45,47,38,43,40,38,33,5,5,6,7,1.1,1.1
2023-01-23T15:00:00,1871A,109.4157,24.3277,柳州市,环保监测站,,48,44,45,33,32,47,37,41,29,7,10,5,5,0.9,0.9
2023-01-23T15:00:00,1872A,109.389,24.341,柳州市,河西水厂,细颗粒物(PM2.5),62,52,48,44,45,30,19,27,23,21,22,14,11,1.5,1.5
2023-01-23T15:00:00,1873A,109.4311,24.2921,柳州市,市四中,细颗粒物(PM2.5),55,54,42,39,44,52,43,47,38,7,8,6,7,0.7,0.7
2023-01-23T15:00:00,1874A,109.4006,24.3631,柳州市,市九中,细颗粒物(PM2.5),59,44,46,42,42,41,31,37,27,14,13,7,6,1.0,1.1
2023-01-23T15:00:00,1875A,109.4958,24.3134,柳州市,古亭山,细颗粒物(PM2.5),52,44,38,36,36,43,38,39,32,4,4,9,9,0.8,0.8
2023-01-23T15:00:00,1876A,109.5078,18.2489,三亚市,河东子站,,24,24,32,16,18,74,65,69,60,4,5,4,2,0.4,0.5
2023-01-23T15:00:00,1877A,109.4964,18.2681,三亚市,河西子站,,24,24,32,15,20,76,70,72,62,4,5,4,4,0.4,0.4
2023-01-23T15:00:00,1878A,104.7778,31.4741,绵阳市,富乐山,细颗粒物(PM2.5),89,85,106,66,93,96,86,52,51,6,11,3,3,0.5,0.7
2023-01-23T15:00:00,1879A,104.7563,31.4535,绵阳市,市人大,颗粒物(PM10),70,89,113,38,87,90,79,42,37,11,25,4,2,0.6,0.8
2023-01-23T15:00:00,1880A,104.6697,31.4668,绵阳市,高新区自来水公司,细颗粒物(PM2.5),109,68,114,82,97,97,87,50,48,2,12,4,4,0.6,0.8
2023-01-23T15:00:00,1881A,104.7287,31.5075,绵阳市,三水厂,细颗粒物(PM2.5),80,82,114,59,92,91,84,50,42,6,19,3,3,0.6,0.9
2023-01-23T15:00:00,1882A,104.563,28.793,宜宾市,石马中学,细颗粒物(PM2.5),134,119,101,102,87,85,68,36,36,12,12,8,7,0.7,0.7
2023-01-23T15:00:00,1883A,104.6201,28.7728,宜宾市,市委,细颗粒物(PM2.5),137,128,109,104,91,92,74,42,42,18,18,9,9,0.7,0.7
2023-01-23T15:00:00,1884A,104.6055,28.793,宜宾市,宜宾四中,细颗粒物(PM2.5),143,123,108,109,94,93,78,47,47,17,21,9,7,0.7,0.7
2023-01-23T15:00:00,1885A,104.639,28.7562,宜宾市,市政府,细颗粒物(PM2.5),134,119,111,102,95,88,75,35,35,17,24,9,8,0.7,0.7
2023-01-23T15:00:00,1886A,104.5742,28.7199,宜宾市,黄金嘴,细颗粒物(PM2.5),137,122,113,104,94,89,77,38,38,15,22,12,11,0.6,0.6
2023-01-23T15:00:00,1888A,101.6891,26.571,攀枝花市,弄弄坪,,30,20,66,17,37,96,94,45,45,11,39,6,39,0.3,2.5
2023-01-23T15:00:00,1889A,101.5769,26.5928,攀枝花市,河门口,,31,23,43,16,30,99,97,56,56,11,18,22,27,1.0,1.2
2023-01-23T15:00:00,1890A,101.7169,26.585,攀枝花市,炳草岗,,29,10,39,7,21,94,91,50,50,4,27,14,15,0.5,1
2023-01-23T15:00:00,1891A,101.7369,26.5008,攀枝花市,仁和,,30,12,34,10,23,101,95,67,67,5,16,11,9,0.3,0.5
2023-01-23T15:00:00,1893A,105.4324,28.9634,泸州市,九狮山,细颗粒物(PM2.5),128,118,101,97,75,66,51,23,23,13,13,12,8,0.5,0.5
2023-01-23T15:00:00,1894A,105.4427,28.9063,泸州市,小市上码头,细颗粒物(PM2.5),160,160,136,122,101,82,43,42,18,30,24,13,8,1.0,0.8
2023-01-23T15:00:00,1895A,105.4241,28.8573,泸州市,兰田宪桥,细颗粒物(PM2.5),152,147,128,116,100,82,52,35,28,22,20,11,7,0.9,0.8
2023-01-23T15:00:00,1896A,105.4379,28.8833,泸州市,市环监站,细颗粒物(PM2.5),140,148,134,107,97,82,42,31,19,27,23,11,7,0.8,0.7
2023-01-23T15:00:00,1901A,104.4239,31.1208,德阳市,东山公园,细颗粒物(PM2.5),88,89,99,65,80,89,89,70,56,7,13,2,2,0.7,0.8
2023-01-23T15:00:00,1902A,104.3826,31.1317,德阳市,西小区,细颗粒物(PM2.5),83,87,100,61,82,87,87,50,49,11,25,2,3,0.7,0.9
2023-01-23T15:00:00,1904A,104.3553,31.1091,德阳市,耐火材料厂,细颗粒物(PM2.5),89,87,115,66,85,88,88,54,54,8,17,3,3,0.5,0.7
2023-01-23T15:00:00,1905A,106.056,30.8064,南充市,西山风景区,,,,,,,,,,,,,,,,
2023-01-23T15:00:00,1906A,106.0789,30.8023,南充市,南充市委,细颗粒物(PM2.5),130,129,150,99,131,57,51,20,20,26,21,8,8,0.8,0.9
2023-01-23T15:00:00,1907A,106.1031,30.8217,南充市,南充炼油厂,细颗粒物(PM2.5),132,128,159,100,133,60,60,28,20,14,16,8,8,0.8,1
2023-01-23T15:00:00,1908A,106.1064,30.7856,南充市,高坪区监测站,细颗粒物(PM2.5),115,108,156,87,137,68,68,27,22,8,18,10,8,0.7,1
2023-01-23T15:00:00,1909A,106.0642,30.7636,南充市,嘉陵区环保局,细颗粒物(PM2.5),125,111,151,95,135,68,63,26,22,17,22,7,6,0.9,1
2023-01-23T15:00:00,1910A,106.1087,30.8388,南充市,市环境监测站,细颗粒物(PM2.5),123,131,160,93,128,62,62,26,22,12,18,10,9,0.7,0.9
2023-01-23T15:00:00,1911A,106.9222,27.6869,遵义市,丁字口,细颗粒物(PM2.5),60,45,72,43,62,50,50,37,37,17,17,29,23,0.9,0.9
2023-01-23T15:00:00,1912A,106.9242,27.7019,遵义市,凤凰山,颗粒物(PM10),51,52,70,31,38,56,56,38,38,13,16,7,8,0.7,0.8
2023-01-23T15:00:00,1913A,106.8906,27.6486,遵义市,忠庄,细颗粒物(PM2.5),59,40,66,42,50,60,60,36,36,10,11,7,5,0.3,0.4
2023-01-23T15:00:00,1914A,106.9231,27.6506,遵义市,舟水桥,细颗粒物(PM2.5),62,51,71,44,54,53,53,38,38,13,12,18,13,0.6,0.6
2023-01-23T15:00:00,1915A,106.9178,27.72,遵义市,干田坝,颗粒物(PM10),52,53,71,31,60,61,61,39,39,9,13,9,13,0.7,0.8
2023-01-23T15:00:00,1916A,103.7897,25.5035,曲靖市,环境监测站,,34,34,41,13,25,108,107,72,64,4,7,6,6,0.6,0.6
2023-01-23T15:00:00,1917A,103.8,25.5364,曲靖市,烟厂办公区,,36,36,42,23,26,107,107,77,65,6,7,4,5,0.4,0.3
2023-01-23T15:00:00,1918A,108.7197,34.3956,咸阳市,气象站,颗粒物(PM10),73,96,193,14,136,101,81,58,57,5,28,10,16,0.0,0.8
2023-01-23T15:00:00,1919A,108.673,34.3155,咸阳市,实验中学,颗粒物(PM10),84,118,212,25,153,106,83,54,54,11,28,6,10,0.2,0.8
2023-01-23T15:00:00,1920A,108.7233,34.3617,咸阳市,师范学院,颗粒物(PM10),75,100,210,23,147,107,87,64,61,2,20,5,10,0.7,1.3
2023-01-23T15:00:00,1922A,109.0656,35.0994,铜川市,党校,颗粒物(PM10),66,82,94,16,38,103,86,80,80,5,10,11,15,0.5,0.7
2023-01-23T15:00:00,1923A,109.0697,35.0697,铜川市,王益区政府,颗粒物(PM10),66,82,98,25,52,99,84,74,74,2,18,5,10,0.3,0.6
2023-01-23T15:00:00,1924A,108.9344,34.9058,铜川市,新区管委会,颗粒物(PM10),66,82,108,22,64,107,88,82,82,2,9,6,17,0.3,0.6
2023-01-23T15:00:00,1926A,109.4131,36.6275,延安市,枣园,颗粒物(PM10),67,84,78,14,28,94,86,76,76,6,22,6,7,0.6,0.8
2023-01-23T15:00:00,1927A,109.4761,36.6028,延安市,延大医附院,颗粒物(PM10),72,94,81,15,37,90,81,67,67,4,30,6,8,0.4,0.8
2023-01-23T15:00:00,1929A,109.5056,36.6106,延安市,百米大道,颗粒物(PM10),73,96,98,16,44,92,85,81,81,5,32,7,10,0.6,0.9
2023-01-23T15:00:00,1930A,107.185,34.3063,宝鸡市,庙沟村,颗粒物(PM10),82,113,103,30,46,90,76,70,70,2,7,4,6,0.5,0.7
2023-01-23T15:00:00,1931A,107.0708,34.3017,宝鸡市,竹园沟,颗粒物(PM10),80,109,98,22,42,103,90,75,75,9,13,6,6,0.4,0.6
2023-01-23T15:00:00,1932A,107.1906,34.3672,宝鸡市,三陆医院,颗粒物(PM10),84,118,129,29,58,102,89,77,77,7,19,9,12,0.3,0.6
2023-01-23T15:00:00,1933A,107.1431,34.3547,宝鸡市,监测站,颗粒物(PM10),82,113,119,28,52,96,85,72,72,6,14,4,6,0.3,0.7
2023-01-23T15:00:00,1934A,107.1186,34.3739,宝鸡市,技工学校,颗粒物(PM10),84,118,119,30,64,97,83,69,69,6,17,5,8,0.3,0.6
2023-01-23T15:00:00,1935A,107.3906,34.3528,宝鸡市,陈仓区环保局家属楼,颗粒物(PM10),68,85,142,18,78,107,89,74,74,5,22,8,13,0.4,0.8
2023-01-23T15:00:00,1936A,107.2058,34.3497,宝鸡市,文理学院,颗粒物(PM10),80,109,122,27,50,102,87,77,77,7,18,7,9,0.5,0.8
2023-01-23T15:00:00,1937A,107.2386,34.3622,宝鸡市,三迪小学,颗粒物(PM10),84,118,138,27,59,97,87,77,77,5,17,7,10,0.6,0.8
2023-01-23T15:00:00,1938A,109.5293,34.5101,渭南市,农科所,颗粒物(PM10),85,119,205,36,133,92,82,60,60,7,21,8,11,0.6,1.1
2023-01-23T15:00:00,1939A,109.4974,34.4877,渭南市,日报社,,,,196,37,132,142,142,66,66,,36,9,11,,1
2023-01-23T15:00:00,1940A,109.4636,34.493,渭南市,体育馆,颗粒物(PM10),85,119,202,36,141,111,91,71,71,9,26,10,13,0.4,0.9
2023-01-23T15:00:00,1941A,109.4259,34.5023,渭南市,高新一小,颗粒物(PM10),94,137,242,35,177,105,86,55,55,9,27,12,14,0.3,1
2023-01-23T15:00:00,1943A,102.1725,38.5339,金昌市,新川苑,颗粒物(PM10),67,83,102,7,18,81,75,75,75,4,5,6,8,0.6,0.5
2023-01-23T15:00:00,1944A,102.1692,38.5167,金昌市,天庆家园,颗粒物(PM10),58,66,87,11,26,82,76,76,75,3,4,6,10,0.5,0.5
2023-01-23T15:00:00,1945A,98.2908,39.7711,嘉峪关市,气象局,,34,34,116,14,33,82,82,73,70,4,14,6,32,0.3,0.7
2023-01-23T15:00:00,1947A,106.3394,38.817,石嘴山市,沙湖旅游区,,,137,124,16,30,90,53,70,64,,38,3,4,0.6,0.7
2023-01-23T15:00:00,1948A,106.3668,39.0145,石嘴山市,大武口朝阳西街,,32,32,74,13,26,86,74,83,76,2,2,2,3,0.3,0.3
2023-01-23T15:00:00,1949A,106.7704,39.2282,石嘴山市,惠农南大街,,,,123,,28,80,65,73,63,7,10,9,12,0.4,0.5
2023-01-23T15:00:00,1950A,106.7099,39.1325,石嘴山市,红果子镇惠新街,,49,49,105,10,27,81,71,81,66,2,6,8,13,0.6,0.7
2023-01-23T15:00:00,1951A,84.895,45.6094,克拉玛依市,长征新村,,24,24,22,0,14,78,63,78,52,13,12,6,6,0.3,0.3
2023-01-23T15:00:00,1952A,84.8988,45.5893,克拉玛依市,南林小区,,28,25,24,19,20,74,60,74,50,15,15,2,3,0.2,0.2
2023-01-23T15:00:00,1954A,84.905,44.3396,克拉玛依市,独山子区,颗粒物(PM10),55,60,70,36,46,97,97,77,77,15,30,7,7,0.7,0.8
2023-01-23T15:00:00,1955A,85.6979,46.098,克拉玛依市,乌尔禾区商贸楼,,22,3,19,8,17,78,70,52,52,16,24,19,11,0.4,0.4
2023-01-23T15:00:00,1956A,86.1472,41.7538,巴音郭楞州,孔雀公园,颗粒物(PM10),153,256,222,58,69,77,68,64,49,25,31,9,7,0.6,0.7
2023-01-23T15:00:00,1957A,86.1972,41.7166,巴音郭楞州,棉纺厂,颗粒物(PM10),99,148,237,63,73,82,71,76,50,17,33,5,4,0.4,0.5
2023-01-23T15:00:00,1958A,86.2357,41.7173,巴音郭楞州,经济开发区,颗粒物(PM10),95,140,193,41,61,87,78,86,67,12,16,5,5,0.6,0.9
2023-01-23T15:00:00,1961A,117.532,36.6868,济南市,东山小学,颗粒物(PM10),57,63,219,37,143,89,58,46,44,5,19,4,9,0.5,1
2023-01-23T15:00:00,1966A,120.0405,35.8735,青岛市,黄岛区4号,颗粒物(PM10),60,70,139,36,90,96,64,56,49,1,13,6,7,0.6,1.1
2023-01-23T15:00:00,1982A,122.0693,37.2174,威海市,文登开发区,,48,48,117,27,73,98,62,58,47,9,16,4,5,0.3,0.6
2023-01-23T15:00:00,2031A,113.1817,27.9958,株洲市,云田中学,细颗粒物(PM2.5),159,136,172,121,136,37,31,33,28,14,14,4,5,0.9,0.9
2023-01-23T15:00:00,2054A,114.1099,32.1059,信阳市,平桥分局,细颗粒物(PM2.5),224,289,255,174,165,108,108,72,72,16,19,18,13,1.2,1.3
2023-01-23T15:00:00,2064A,113.9956,32.1271,信阳市,南湾水厂,细颗粒物(PM2.5),201,217,241,151,170,118,118,79,79,16,15,18,12,1.5,1.4
2023-01-23T15:00:00,2065A,114.0775,32.1195,信阳市,市酿酒公司,细颗粒物(PM2.5),218,231,232,168,184,114,114,82,82,15,21,17,12,1.1,1.1
2023-01-23T15:00:00,2066A,114.0609,32.1399,信阳市,审计局,细颗粒物(PM2.5),220,253,239,170,182,115,115,80,80,14,18,17,12,1.2,1.1
2023-01-23T15:00:00,2067A,114.6613,33.6128,周口市,市环境监测站,细颗粒物(PM2.5),195,259,270,146,213,111,111,78,78,18,24,17,15,1.2,1.3
2023-01-23T15:00:00,2068A,114.6758,33.6347,周口市,周口师范,细颗粒物(PM2.5),192,255,268,144,204,115,115,87,78,26,27,18,15,0.9,1
2023-01-23T15:00:00,2069A,114.6546,33.5979,周口市,市运管处,细颗粒物(PM2.5),204,253,279,154,212,117,117,83,83,20,26,18,17,1.0,1.1
2023-01-23T15:00:00,2070A,114.6369,33.6406,周口市,川汇区环保局,细颗粒物(PM2.5),186,246,273,140,206,107,107,80,72,26,31,16,13,0.8,0.9
2023-01-23T15:00:00,2075A,117.6336,24.4674,漳州市,九湖,,,,,,,,,,,,,,,,
2023-01-23T15:00:00,2160A,112.85,35.5051,晋城市,自来水公司,颗粒物(PM10),72,94,116,17,62,93,78,70,70,6,20,4,11,0.3,0.9
2023-01-23T15:00:00,2161A,112.8318,35.4936,晋城市,白云商贸,颗粒物(PM10),62,73,103,17,56,94,82,76,76,6,18,5,11,0.5,1
2023-01-23T15:00:00,2162A,112.8508,35.4887,晋城市,市环保局,颗粒物(PM10),70,89,123,17,67,100,86,79,79,6,23,4,13,0.2,0.8
2023-01-23T15:00:00,2163A,112.8676,35.4897,晋城市,技术学院,颗粒物(PM10),80,110,115,19,65,97,83,76,76,6,23,5,14,0.3,0.9
2023-01-23T15:00:00,2165A,112.8453,35.546,晋城市,白马寺 ,,,,,,,,,,,,,,,,
2023-01-23T15:00:00,2166A,112.4397,39.3522,朔州市,平朔,,44,44,80,8,27,82,64,73,62,4,6,4,6,0.3,0.4
2023-01-23T15:00:00,2167A,112.4575,39.3617,朔州市,朔唯,颗粒物(PM10),56,61,85,8,26,88,68,76,65,2,3,4,6,0.2,0.3
2023-01-23T15:00:00,2168A,112.4258,39.3197,朔州市,区政府,,46,46,87,2,25,91,72,80,67,1,4,4,6,0.4,0.5
2023-01-23T15:00:00,2169A,112.4072,39.3278,朔州市,市环保局,,35,35,85,9,27,86,70,76,65,2,3,7,10,0.4,0.5
2023-01-23T15:00:00,2170A,112.4272,39.3681,朔州市,市二中,,25,25,83,8,26,89,69,77,68,2,3,5,5,0.4,0.5
2023-01-23T15:00:00,2171A,112.7532,37.6945,晋中市,锦纶小区,颗粒物(PM10),54,58,91,14,40,109,79,81,81,3,11,3,10,0.2,0.4
2023-01-23T15:00:00,2173A,112.7249,37.7067,晋中市,南都小区,颗粒物(PM10),54,58,87,19,35,106,76,79,78,2,10,5,11,0.2,0.3
2023-01-23T15:00:00,2174A,112.6991,37.6982,晋中市,榆次区政府,,,,95,,40,80,,82,,,13,,14,,0.4
2023-01-23T15:00:00,2175A,110.9956,35.0147,运城市,运城中学,颗粒物(PM10),86,121,217,26,140,109,80,70,70,5,25,5,14,0.3,1.4
2023-01-23T15:00:00,2178A,110.9686,35.0303,运城市,地区技校,颗粒物(PM10),107,164,243,29,141,94,80,70,70,7,36,5,12,0.3,1.3
2023-01-23T15:00:00,2179A,111.0414,35.1147,运城市,空港新区,颗粒物(PM10),97,144,232,27,149,105,85,69,69,5,22,5,12,0.3,1.5
2023-01-23T15:00:00,2181A,112.7383,38.4519,忻州市,开发区,颗粒物(PM10),79,108,94,12,37,88,63,66,62,3,7,3,5,0.5,0.7
2023-01-23T15:00:00,2182A,112.7003,38.4928,忻州市,会展中心,颗粒物(PM10),80,110,96,7,38,85,63,60,57,3,10,3,9,0.2,0.4
2023-01-23T15:00:00,2183A,111.1406,37.5211,吕梁市,环保局,颗粒物(PM10),69,88,106,15,38,78,72,72,72,4,18,8,14,0.3,0.5
2023-01-23T15:00:00,2185A,111.1297,37.5136,吕梁市,自来水公司,颗粒物(PM10),78,105,99,14,32,76,69,70,70,4,14,6,13,0.2,0.4
2023-01-23T15:00:00,2187A,106.8174,39.6973,乌海市,市林业局,,24,23,102,13,30,88,74,80,62,3,5,9,9,0.5,0.6
2023-01-23T15:00:00,2188A,106.7907,39.6667,乌海市,中海勃湾学校,,24,24,113,11,26,88,74,82,65,4,4,9,8,0.4,0.4
2023-01-23T15:00:00,2191A,122.2532,43.6801,通辽市,艺术职业学校,颗粒物(PM10),67,84,49,3,22,64,64,59,59,6,9,5,6,0.5,0.6
2023-01-23T15:00:00,2192A,119.7594,49.2261,呼伦贝尔市,区环保局,,22,13,32,13,23,68,68,61,61,2,8,5,5,0.1,0.2
2023-01-23T15:00:00,2195A,107.4212,40.761,巴彦淖尔市,附二中,,39,39,75,9,24,87,71,68,68,3,3,5,5,0.4,0.4
2023-01-23T15:00:00,2196A,107.37,40.7372,巴彦淖尔市,市环保大楼,,33,33,66,12,26,88,70,71,68,5,6,5,4,0.5,0.5
2023-01-23T15:00:00,2197A,113.1306,40.9923,乌兰察布市,集宁新区,,30,30,55,8,21,70,62,60,60,2,4,12,9,0.4,0.4
2023-01-23T15:00:00,2200A,122.0392,46.0656,兴安盟,胜华新制药厂,,22,18,36,12,31,70,70,64,64,7,11,3,5,0.3,0.5
2023-01-23T15:00:00,2201A,121.9504,46.0741,兴安盟,科右前旗环保局,,28,9,35,19,33,70,70,66,66,5,11,2,3,0.0,0.5
2023-01-23T15:00:00,2202A,116.1042,43.9317,锡林郭勒盟,市环保监测站,,22,18,35,11,11,72,69,64,60,3,3,10,8,0.3,0.3
2023-01-23T15:00:00,2203A,116.0781,43.9311,锡林郭勒盟,市政府,,38,30,32,26,9,70,67,63,58,2,4,10,9,0.2,0.2
2023-01-23T15:00:00,2204A,105.6467,38.8363,阿拉善盟,西城区西花园,颗粒物(PM10),62,73,96,19,31,84,76,81,75,5,6,6,6,0.5,0.5
2023-01-23T15:00:00,2205A,105.6985,38.8411,阿拉善盟,蒙二幼,颗粒物(PM10),68,86,91,23,41,88,77,83,76,5,5,7,7,0.4,0.4
2023-01-23T15:00:00,2206A,105.724,38.8516,阿拉善盟,环保局新楼,颗粒物(PM10),64,77,77,13,36,88,77,85,78,3,4,8,6,0.5,0.5
2023-01-23T15:00:00,2207A,121.6094,41.998,阜新市,工业园区,,32,32,47,8,30,56,55,53,49,2,4,4,4,0.4,0.6
2023-01-23T15:00:00,2208A,121.6697,42.0279,阜新市,长青街,,32,32,52,9,30,66,65,64,64,3,6,6,7,0.5,0.5
2023-01-23T15:00:00,2209A,121.6673,42.0705,阜新市,农业园区,,27,27,38,8,26,62,62,60,60,3,5,8,8,0.5,0.5
2023-01-23T15:00:00,2210A,121.6717,42.0224,阜新市,东苑,,,,62,16,34,63,61,59,59,2,3,6,6,0.5,0.6
2023-01-23T15:00:00,2211A,121.6506,42.0498,阜新市,玉龙新城,,31,31,39,9,25,63,62,60,60,2,3,1,3,0.3,0.4
2023-01-23T15:00:00,2212A,123.2,41.1953,辽阳市,宏伟区,,22,9,87,15,66,60,59,51,51,2,12,7,12,0.5,0.7
2023-01-23T15:00:00,2213A,123.1683,41.2495,辽阳市,新华园,,31,31,69,17,63,65,65,58,58,4,11,8,12,0.5,0.7
2023-01-23T15:00:00,2214A,123.2354,41.2639,辽阳市,滨河路,,22,17,65,15,68,59,59,52,52,5,13,4,6,0.4,0.7
2023-01-23T15:00:00,2215A,123.149,41.2991,辽阳市,铁西工业园,,25,25,65,10,59,58,57,52,52,3,11,5,8,0.4,0.6
2023-01-23T15:00:00,2216A,123.8139,42.3022,铁岭市,汇工街西,,39,39,58,8,44,64,64,57,57,5,9,3,5,0.5,0.6
2023-01-23T15:00:00,2217A,123.8649,42.2923,铁岭市,水上乐园,颗粒物(PM10),55,60,85,11,49,61,61,55,55,3,8,4,5,0.3,0.5
2023-01-23T15:00:00,2218A,123.8486,42.2867,铁岭市,银州路东段,颗粒物(PM10),53,56,72,13,58,66,66,59,59,6,10,5,6,0.2,0.4
2023-01-23T15:00:00,2219A,123.7153,42.2217,铁岭市,金沙江路北,,45,45,60,10,45,65,65,57,57,4,8,7,7,0.4,0.6
2023-01-23T15:00:00,2220A,120.4318,41.5881,朝阳市,西梁,,38,38,45,5,33,77,75,72,72,3,5,9,9,0.4,0.4
2023-01-23T15:00:00,2221A,120.4521,41.5646,朝阳市,河畔小区,,40,40,43,6,28,66,65,61,61,2,4,7,7,0.6,0.7
2023-01-23T15:00:00,2222A,120.4176,41.5648,朝阳市,八里堡,颗粒物(PM10),51,51,47,19,30,75,74,70,70,2,5,10,9,0.5,0.6
2023-01-23T15:00:00,2223A,120.3806,41.5969,朝阳市,农业园区,,26,26,38,7,31,74,73,70,70,2,4,3,5,0.6,0.7
2023-01-23T15:00:00,2225A,124.4002,43.1713,四平市,一商场,,37,37,59,25,50,60,60,51,51,1,6,5,7,0.2,0.4
2023-01-23T15:00:00,2226A,124.388,43.193,四平市,境园,,22,22,60,10,43,65,65,58,58,2,5,6,9,0.4,0.4
2023-01-23T15:00:00,2227A,125.1358,42.8845,辽源市,环保局,,38,35,95,26,75,64,64,54,54,3,17,7,17,0.5,0.8
2023-01-23T15:00:00,2229A,125.9358,41.7173,通化市,光明,,26,25,81,18,59,70,69,56,56,10,15,10,14,0.2,0.6
2023-01-23T15:00:00,2230A,125.9446,41.7325,通化市,铁路,,22,17,86,13,63,74,68,57,57,4,12,8,11,0.4,0.8
2023-01-23T15:00:00,2231A,126.4219,41.9171,白山市,喜丰,,34,34,103,16,68,70,70,59,59,6,15,7,13,0.6,1
2023-01-23T15:00:00,2232A,126.4077,41.9419,白山市,环保局,,46,46,111,18,74,65,65,54,54,3,14,9,15,0.7,1.1
2023-01-23T15:00:00,2233A,124.8006,45.1214,松原市,江南,,25,25,43,15,38,57,57,54,46,5,12,6,9,0.5,0.6
2023-01-23T15:00:00,2234A,124.7965,45.1722,松原市,江北,,24,24,48,14,29,57,56,48,48,3,8,5,6,0.5,0.6
2023-01-23T15:00:00,2235A,122.7911,45.6077,白城市,洮北区环保局,,23,16,40,8,34,73,73,64,64,7,11,1,3,0.4,0.5
2023-01-23T15:00:00,2236A,122.8738,45.5725,白城市,市环保局,,45,26,34,31,15,78,74,65,65,8,11,4,7,0.5,0.6
2023-01-23T15:00:00,2237A,129.47,42.8883,延边朝鲜族自治州,妇幼医院,,19,17,51,10,37,72,60,63,63,14,18,23,27,0.6,0.7
2023-01-23T15:00:00,2238A,129.5055,42.9108,延边朝鲜族自治州,延边医院,,25,25,51,12,42,69,67,65,64,7,13,10,14,0.5,0.6
2023-01-23T15:00:00,2239A,129.3964,42.8881,延边朝鲜族自治州,朝阳川镇医院,,22,15,53,9,39,72,70,69,69,3,14,5,14,0.4,0.6
2023-01-23T15:00:00,2240A,130.9762,45.3001,鸡西市,环保局,,25,20,82,17,67,63,61,51,51,2,22,4,14,0.6,1
2023-01-23T15:00:00,2243A,130.9429,45.3039,鸡西市,第一中学,,19,9,79,4,59,61,60,50,50,1,17,3,12,0.3,0.7
2023-01-23T15:00:00,2244A,130.2537,47.3416,鹤岗市,哈啤分公司,,28,21,32,19,25,56,56,51,51,4,7,10,11,0.2,0.3
2023-01-23T15:00:00,2245A,130.2684,47.3086,鹤岗市,斯达机电,颗粒物(PM10),57,63,34,15,26,61,60,56,54,5,11,12,14,0.2,0.2
2023-01-23T15:00:00,2246A,130.3114,47.3388,鹤岗市,东山纸板厂,颗粒物(PM10),71,92,46,14,24,59,59,52,52,2,7,8,14,0.3,0.4
2023-01-23T15:00:00,2247A,130.1097,47.3382,鹤岗市,五号水库,,30,16,24,21,19,61,60,56,56,3,5,7,6,0.4,0.4
2023-01-23T15:00:00,2248A,131.1511,46.6937,双鸭山市,双合村,,48,25,101,33,79,60,60,46,46,4,23,5,12,0.3,1
2023-01-23T15:00:00,2249A,131.1652,46.6191,双鸭山市,南小市,颗粒物(PM10),53,56,75,19,51,59,59,46,46,4,21,7,18,0.5,0.9
2023-01-23T15:00:00,2250A,131.1524,46.6554,双鸭山市,环保局,,37,37,81,23,63,63,63,46,46,5,30,5,18,0.4,1
2023-01-23T15:00:00,2251A,131.12,46.5656,双鸭山市,苗圃,,50,43,53,35,41,70,70,63,63,8,22,6,13,0.2,0.4
2023-01-23T15:00:00,2252A,128.5159,47.4311,伊春市,环保局,,29,29,29,6,18,54,54,44,44,3,7,8,6,0.5,0.6
2023-01-23T15:00:00,2253A,128.9102,47.7412,伊春市,电力嘉园,,20,18,47,14,29,58,58,46,46,1,6,14,10,0.7,1
2023-01-23T15:00:00,2254A,129.5029,48.471,伊春市,汤旺河国家公园,,,,17,,7,38,,40,,,3,,8,,0.1
2023-01-23T15:00:00,2255A,130.2751,46.8028,佳木斯市,佳纺,细颗粒物(PM2.5),52,38,86,36,79,57,56,45,45,6,22,1,7,0.5,1.1
2023-01-23T15:00:00,2256A,130.3995,46.8307,佳木斯市,发电厂,,32,30,56,22,53,58,56,44,44,7,17,8,8,0.5,0.8
2023-01-23T15:00:00,2257A,130.3258,46.7975,佳木斯市,环保局,细颗粒物(PM2.5),63,48,94,45,81,53,53,39,39,6,30,6,13,0.4,0.9
2023-01-23T15:00:00,2258A,130.3648,46.8032,佳木斯市,十一中,,43,40,72,30,68,53,53,40,40,8,32,3,6,0.5,0.8
2023-01-23T15:00:00,2259A,130.3794,46.7588,佳木斯市,四丰,,35,26,47,22,42,110,110,92,92,3,10,1,1,0.5,0.8
2023-01-23T15:00:00,2262A,131.0518,45.8751,七台河市,新一中,,22,16,40,4,34,70,70,61,61,4,7,6,8,0.7,1.1
2023-01-23T15:00:00,2263A,127.4833,50.2524,黑河市,交通局,,21,12,25,12,18,65,65,57,57,4,8,6,9,0.4,0.5
2023-01-23T15:00:00,2264A,127.5144,50.2341,黑河市,环保局,,20,10,43,9,30,64,64,60,60,3,10,6,17,0.3,0.4
2023-01-23T15:00:00,2265A,127.5291,50.2472,黑河市,大黑河岛,,24,12,17,8,19,76,76,70,70,2,3,1,8,0.3,0.4
2023-01-23T15:00:00,2266A,126.9785,46.6365,绥化市,人和东街,,21,12,38,9,28,65,65,59,59,2,5,3,4,0.5,0.5
2023-01-23T15:00:00,2267A,126.964,46.6528,绥化市,党政办公中心,,19,10,32,8,28,62,58,54,54,2,4,3,3,0.4,0.5
2023-01-23T15:00:00,2269A,124.1069,50.4097,大兴安岭地区,科技局,,20,9,21,5,22,63,63,56,56,2,6,2,6,0.3,0.4
2023-01-23T15:00:00,2270A,117.396,32.939,蚌埠市,工人疗养院,,27,27,45,17,36,80,80,61,61,5,22,2,5,0.3,0.4
2023-01-23T15:00:00,2271A,117.3605,32.9427,蚌埠市,百货大楼,,30,30,57,15,43,80,80,60,60,4,25,8,8,0.3,0.5
2023-01-23T15:00:00,2273A,117.4185,32.8911,蚌埠市,蚌埠学院,,26,14,45,14,35,81,81,63,63,7,15,5,5,0.3,0.4
2023-01-23T15:00:00,2274A,117.3533,32.9673,蚌埠市,淮上区政府,,32,31,50,22,36,82,82,61,61,4,12,7,7,0.4,0.5
2023-01-23T15:00:00,2275A,117.3145,32.8977,蚌埠市,高新区,,29,29,51,19,43,78,78,55,55,7,17,7,6,0.4,0.4
2023-01-23T15:00:00,2277A,116.8305,32.7727,淮南市,潘集区政府,细颗粒物(PM2.5),60,41,74,43,63,74,71,44,38,7,11,5,4,0.4,0.4
2023-01-23T15:00:00,2278A,117.0067,32.6524,淮南市,师范学院,细颗粒物(PM2.5),52,42,61,36,50,72,70,54,48,6,12,7,8,0.2,0.4
2023-01-23T15:00:00,2279A,116.8569,32.5951,淮南市,谢家集区政府,,32,32,59,20,45,73,73,55,52,10,12,6,6,0.2,0.3
2023-01-23T15:00:00,2280A,116.8281,32.633,淮南市,八公山区政府,颗粒物(PM10),54,57,69,34,51,82,76,62,54,7,8,10,9,0.3,0.4
2023-01-23T15:00:00,2281A,116.6325,32.6201,淮南市,焦岗湖风景区管理处,,,,,,,,,,,,,,,,
2023-01-23T15:00:00,2282A,116.8004,33.975,淮北市,监测站,细颗粒物(PM2.5),202,299,131,152,87,101,93,56,52,16,16,17,9,1.2,0.8
2023-01-23T15:00:00,2283A,116.8091,33.9007,淮北市,烈山区政府,细颗粒物(PM2.5),218,248,115,168,97,105,97,52,52,21,18,12,6,1.2,0.6
2023-01-23T15:00:00,2284A,116.7856,33.9477,淮北市,职业技术学院,细颗粒物(PM2.5),218,305,138,168,99,103,95,50,47,17,20,16,10,1.0,0.5
2023-01-23T15:00:00,2285A,117.8177,30.9412,铜陵市,市第四中学,细颗粒物(PM2.5),52,37,81,36,58,68,35,51,37,33,21,6,7,0.3,0.5
2023-01-23T15:00:00,2286A,117.8059,30.9273,铜陵市,市公路局,,42,42,71,20,56,64,44,45,36,21,21,8,8,0.4,0.6
2023-01-23T15:00:00,2287A,117.7807,30.9413,铜陵市,市新民污水厂,,31,31,76,17,45,75,50,47,43,13,15,5,4,0.3,0.5
2023-01-23T15:00:00,2288A,117.7439,30.8792,铜陵市,市第九中学,,28,28,75,10,52,76,53,46,42,10,11,5,6,0.4,0.7
2023-01-23T15:00:00,2289A,117.846,30.9413,铜陵市,车站新区,,40,36,77,28,50,72,54,51,45,7,9,8,9,0.3,0.5
2023-01-23T15:00:00,2290A,117.8483,30.97,铜陵市,市职教基地,,34,34,71,21,55,70,54,51,45,13,14,7,7,0.3,0.5
2023-01-23T15:00:00,2291A,117.0809,30.5177,安庆市,环科院,,38,30,75,26,63,69,59,58,58,9,11,5,6,0.5,0.5
2023-01-23T15:00:00,2292A,117.0331,30.5119,安庆市,马山宾馆,,36,34,75,25,57,67,58,62,57,7,9,5,5,0.5,0.5
2023-01-23T15:00:00,2294A,116.9896,30.6145,安庆市,安庆大学,,28,27,69,19,56,77,64,64,64,7,8,6,7,0.5,0.6
2023-01-23T15:00:00,2295A,118.2903,29.6963,黄山市,延安路89号,,23,19,43,16,28,51,43,46,39,5,5,5,5,0.5,0.6
2023-01-23T15:00:00,2296A,118.327,29.7178,黄山市,黄山东路89号,,13,12,38,4,31,48,40,43,36,7,8,5,6,0.6,0.7
2023-01-23T15:00:00,2297A,118.1371,30.2756,黄山市,黄山区政府5号楼,,21,21,59,1,34,65,43,49,43,8,9,6,6,0.5,0.7
2023-01-23T15:00:00,2298A,118.3093,32.3153,滁州市,老年大学,,23,19,33,16,32,75,69,64,64,12,10,4,4,0.4,0.4
2023-01-23T15:00:00,2299A,118.3244,32.2786,滁州市,人大宾馆,,25,24,34,17,29,73,68,60,60,13,12,4,4,0.3,0.3
2023-01-23T15:00:00,2301A,115.8277,32.8929,阜阳市,市监测站,细颗粒物(PM2.5),239,249,142,189,118,98,63,42,42,17,19,11,10,1.0,0.7
2023-01-23T15:00:00,2303A,115.8554,32.8605,阜阳市,开发区,颗粒物(PM10),164,278,161,95,103,101,65,48,48,17,18,8,7,1.0,0.8
2023-01-23T15:00:00,2307A,116.5079,31.737,六安市,监测大楼,,36,25,52,25,45,88,60,57,55,6,8,4,5,0.3,0.4
2023-01-23T15:00:00,2308A,116.4738,31.7643,六安市,皖西学院,,33,17,63,23,43,92,69,56,56,2,7,3,3,0.2,0.3
2023-01-23T15:00:00,2309A,116.4996,31.7905,六安市,朝阳厂,,23,18,49,14,44,96,72,63,63,2,9,2,3,0.3,0.4
2023-01-23T15:00:00,2310A,116.5567,31.7886,六安市,开发区,,32,22,64,22,45,92,64,56,56,6,6,5,6,0.3,0.4
2023-01-23T15:00:00,2311A,115.8072,33.8399,亳州市,污水处理厂,细颗粒物(PM2.5),147,206,302,112,228,101,97,61,61,9,17,11,8,0.8,1.1
2023-01-23T15:00:00,2312A,115.7789,33.8518,亳州市,三国揽胜宫,细颗粒物(PM2.5),216,270,375,166,261,102,102,61,61,7,16,13,10,1.0,1.3
2023-01-23T15:00:00,2314A,117.47,30.6618,池州市,池州学院,,19,16,79,13,64,70,58,57,46,4,9,5,5,0.4,0.5
2023-01-23T15:00:00,2316A,118.7581,30.9454,宣城市,鳌峰子站,,20,9,58,7,49,65,61,65,54,12,14,7,7,0.5,0.6
2023-01-23T15:00:00,2317A,118.7385,30.9743,宣城市,敬亭山子站,,19,7,62,8,48,62,60,62,54,15,15,4,4,0.3,0.5
2023-01-23T15:00:00,2318A,118.7173,30.9427,宣城市,开发区子站,,20,7,55,8,50,65,63,65,58,8,11,6,5,0.4,0.5
2023-01-23T15:00:00,2319A,119.0141,25.4325,莆田市,荔城区仓后路,,,,34,,36,68,,53,53,8,12,7,7,0.6,0.7
2023-01-23T15:00:00,2320A,119.0015,25.4553,莆田市,莆田市监测站,,25,25,32,14,34,73,73,50,50,6,10,6,6,0.5,0.6
2023-01-23T15:00:00,2321A,119.1119,25.4561,莆田市,涵江区六中,,26,22,27,18,29,70,70,58,58,4,11,5,5,0.5,0.5
2023-01-23T15:00:00,2322A,119.1013,25.3215,莆田市,秀屿区政府,,29,27,18,20,21,75,75,66,66,8,8,5,4,0.8,0.7
2023-01-23T15:00:00,2323A,118.981,25.4792,莆田市,东圳水库,,,,,,,,,,,,,,,,
2023-01-23T15:00:00,2324A,117.6211,26.2625,三明市,三钢,细颗粒物(PM2.5),64,43,38,46,41,61,15,14,14,10,9,7,7,0.8,0.4
2023-01-23T15:00:00,2325A,117.635,26.2714,三明市,三明二中,细颗粒物(PM2.5),54,44,40,38,37,58,17,16,16,11,10,4,4,0.8,0.5
2023-01-23T15:00:00,2326A,117.6028,26.2378,三明市,三元区政府,细颗粒物(PM2.5),64,42,40,46,40,62,18,11,11,9,8,3,3,1.0,0.8
2023-01-23T15:00:00,2327A,117.7275,26.3108,三明市,洋溪,,,,,,,,,,,,,,,,
2023-01-23T15:00:00,2331A,118.0966,26.6761,南平市,茫荡山,,,,,,,,,,,,,,,,
2023-01-23T15:00:00,2332A,118.1681,26.6369,南平市,南平市监测站,,29,17,54,20,56,61,25,25,25,3,7,2,5,0.4,0.4
2023-01-23T15:00:00,2333A,118.1825,26.6489,南平市,南平铝业有限公司,,19,19,77,13,67,61,24,24,24,2,6,6,7,0.4,0.5
2023-01-23T15:00:00,2334A,118.1756,26.6272,南平市,南平七中,,26,26,47,14,40,67,24,20,20,6,8,3,4,0.5,0.5
2023-01-23T15:00:00,2335A,117.0189,25.1181,龙岩市,龙岩师专,,,,,,,,,,,,,,,,
2023-01-23T15:00:00,2336A,117.0217,25.1033,龙岩市,龙岩市监测站,,29,24,58,20,44,69,52,25,25,5,13,5,6,0.5,0.5
2023-01-23T15:00:00,2337A,117.0258,25.0661,龙岩市,闽西职业技术学院,,36,36,29,18,23,70,55,27,27,2,4,5,6,0.5,0.4
2023-01-23T15:00:00,2338A,117.0196,25.0306,龙岩市,龙岩学院,,24,24,27,16,24,75,54,30,30,8,6,4,3,0.4,0.3
2023-01-23T15:00:00,2339A,119.5001,26.6946,宁德市,金涵水库,,,,,,,,,,,,,,,,
2023-01-23T15:00:00,2341A,119.5388,26.6612,宁德市,宁德市监测站,,43,34,29,30,30,77,54,73,54,7,8,4,5,0.4,0.4
2023-01-23T15:00:00,2342A,117.3102,29.3867,景德镇市,王港中学,,26,26,37,17,36,47,39,45,35,4,4,4,4,0.2,0.2
2023-01-23T15:00:00,2343A,117.2117,29.2933,景德镇市,老干部活动中心,,42,34,66,29,43,41,32,39,32,7,7,5,6,0.7,0.7
2023-01-23T15:00:00,2344A,117.1894,29.2789,景德镇市,兽医站,,25,22,39,17,39,47,39,46,39,4,7,5,5,0.5,0.5
2023-01-23T15:00:00,2345A,117.1547,29.2617,景德镇市,台达陶瓷,,32,21,39,22,33,50,40,48,40,5,5,5,10,0.7,0.8
2023-01-23T15:00:00,2346A,117.2461,29.2956,景德镇市,陶研所,,44,44,62,26,36,44,38,42,37,3,4,3,4,0.6,0.6
2023-01-23T15:00:00,2347A,114.0997,27.5002,萍乡市,武功山,细颗粒物(PM2.5),63,32,43,45,43,36,12,28,15,16,11,11,13,1.0,0.7
2023-01-23T15:00:00,2348A,113.8385,27.6434,萍乡市,中医院,细颗粒物(PM2.5),90,80,119,67,90,34,8,20,8,10,10,4,3,1.6,1.2
2023-01-23T15:00:00,2349A,113.8493,27.6253,萍乡市,市政府车库,细颗粒物(PM2.5),128,129,139,97,110,38,6,22,6,12,12,1,2,1.1,1.1
2023-01-23T15:00:00,2350A,113.8676,27.6435,萍乡市,市环保局,细颗粒物(PM2.5),122,113,116,92,95,37,6,24,9,14,13,13,12,1.1,0.9
2023-01-23T15:00:00,2351A,113.866,27.6198,萍乡市,安源区政府,细颗粒物(PM2.5),129,96,119,98,103,37,10,25,9,14,14,10,10,0.7,0.7
2023-01-23T15:00:00,2352A,115.0861,27.9317,新余市,北岗,细颗粒物(PM2.5),68,66,52,49,48,42,41,31,31,9,11,6,5,0.7,0.8
2023-01-23T15:00:00,2353A,114.9886,27.8431,新余市,飞宇,细颗粒物(PM2.5),64,76,66,46,45,46,44,40,40,8,10,12,9,0.8,0.9
2023-01-23T15:00:00,2354A,114.9231,27.8246,新余市,第二水厂,细颗粒物(PM2.5),63,71,64,45,85,54,39,39,39,9,9,8,7,0.3,0.4
2023-01-23T15:00:00,2355A,114.9308,27.8036,新余市,市气象局,细颗粒物(PM2.5),63,66,58,45,47,47,44,42,42,8,8,8,7,0.3,0.7
2023-01-23T15:00:00,2357A,116.9822,28.1136,鹰潭市,龙虎山,,39,24,60,27,50,65,49,59,48,1,2,1,2,0.5,0.6
2023-01-23T15:00:00,2358A,117.0564,28.2642,鹰潭市,新监测站,细颗粒物(PM2.5),54,38,59,38,52,61,42,61,46,4,3,4,6,0.6,0.5
2023-01-23T15:00:00,2359A,117.0311,28.2475,鹰潭市,财苑宾馆,,46,38,61,32,51,59,41,58,46,7,6,7,10,0.6,0.5
2023-01-23T15:00:00,2360A,117.0222,28.2264,鹰潭市,体育馆,,45,36,62,31,56,61,43,59,47,5,5,8,11,0.4,0.4
2023-01-23T15:00:00,2361A,117.0017,28.2131,鹰潭市,三川水表,细颗粒物(PM2.5),55,38,63,39,55,61,43,59,47,1,3,1,2,0.9,0.7
2023-01-23T15:00:00,2362A,114.9017,25.9149,赣州市,通天岩,,35,35,89,21,62,75,41,48,42,5,6,5,7,1.2,1.2
2023-01-23T15:00:00,2363A,114.9367,25.8664,赣州市,地委,,37,37,89,23,63,75,40,49,43,7,8,15,13,1.2,1.2
2023-01-23T15:00:00,2364A,114.9461,25.8481,赣州市,气象台,,43,28,83,30,67,68,35,44,37,7,7,7,8,1.0,0.9
2023-01-23T15:00:00,2365A,114.9322,25.8333,赣州市,市图书馆,,36,29,86,25,67,69,34,43,37,10,9,14,8,1.3,1.3
2023-01-23T15:00:00,2366A,114.8905,25.8471,赣州市,华坚鞋城,,33,33,87,23,61,62,39,46,42,8,7,5,8,1.2,1.1
2023-01-23T15:00:00,2367A,114.9754,27.0803,吉安市,红声器材厂,细颗粒物(PM2.5),78,73,86,57,63,59,48,45,42,12,13,14,14,0.7,0.8
2023-01-23T15:00:00,2368A,114.9658,27.0999,吉安市,市森林工业局,细颗粒物(PM2.5),77,71,83,56,69,57,52,47,44,16,18,8,9,0.8,0.9
2023-01-23T15:00:00,2369A,114.99,27.1312,吉安市,市环境监测站,细颗粒物(PM2.5),74,70,82,54,63,59,51,45,42,11,14,5,7,0.6,0.6
2023-01-23T15:00:00,2370A,115.0093,27.0968,吉安市,青原区法院,细颗粒物(PM2.5),78,69,83,57,64,60,52,46,44,6,8,8,10,0.7,0.7
2023-01-23T15:00:00,2371A,114.3408,27.8064,宜春市,槟榔水业,细颗粒物(PM2.5),84,83,84,62,66,26,26,17,17,9,12,12,11,1.0,1.2
2023-01-23T15:00:00,2373A,114.3956,27.7844,宜春市,市石油公司,细颗粒物(PM2.5),97,85,94,72,74,37,37,25,25,12,15,4,4,1.2,1.4
2023-01-23T15:00:00,2374A,114.3703,27.7914,宜春市,市气象局,细颗粒物(PM2.5),89,78,86,66,69,33,33,21,21,13,17,4,5,1.0,1.1
2023-01-23T15:00:00,2375A,114.4013,27.8074,宜春市,市广电局,细颗粒物(PM2.5),89,90,99,66,73,36,36,26,25,14,17,2,4,1.2,1.4
2023-01-23T15:00:00,2376A,116.2127,28.0814,抚州市,桐源党溪,细颗粒物(PM2.5),115,110,90,87,65,53,45,43,43,10,18,1,3,0.6,0.6
2023-01-23T15:00:00,2377A,116.3544,27.9831,抚州市,市站,细颗粒物(PM2.5),83,90,82,61,62,61,43,54,46,8,7,2,2,0.8,0.8
2023-01-23T15:00:00,2378A,116.3565,27.963,抚州市,血防站,细颗粒物(PM2.5),84,97,87,62,63,58,40,51,43,9,9,5,5,1.1,1.1
2023-01-23T15:00:00,2379A,116.3564,28.0007,抚州市,采茶剧团,细颗粒物(PM2.5),87,84,78,64,63,55,38,49,42,6,5,4,4,1.2,1
2023-01-23T15:00:00,2380A,116.385,27.9647,抚州市,医学分院,细颗粒物(PM2.5),74,95,81,54,57,55,40,50,44,6,6,3,4,1.1,1.1
2023-01-23T15:00:00,2381A,118.005,28.4572,上饶市,百草园,,,,79,,62,16,,16,,,9,,3,,1.4
2023-01-23T15:00:00,2382A,117.9756,28.4436,上饶市,市监测站,,39,39,85,27,68,31,27,29,25,9,10,12,8,0.7,0.8
2023-01-23T15:00:00,2383A,117.9519,28.4628,上饶市,凤凰光学,,29,29,72,19,57,35,27,32,28,11,9,12,10,0.5,0.5
2023-01-23T15:00:00,2385A,114.17,35.9019,鹤壁市,市监测站,细颗粒物(PM2.5),182,190,192,137,141,110,56,67,56,17,22,5,18,1.4,2.1
2023-01-23T15:00:00,2386A,114.2956,35.7511,鹤壁市,市交警支队,细颗粒物(PM2.5),186,201,223,140,165,113,58,61,61,13,31,8,28,0.8,1.9
2023-01-23T15:00:00,2387A,114.2878,35.7306,鹤壁市,迎宾馆,细颗粒物(PM2.5),192,173,189,144,162,114,58,66,65,15,32,4,26,0.9,1.9
2023-01-23T15:00:00,2389A,113.836,35.311,新乡市,环保西院,细颗粒物(PM2.5),175,209,245,132,176,109,72,64,64,9,27,7,20,1.2,2
2023-01-23T15:00:00,2390A,113.884,35.272,新乡市,开发区,细颗粒物(PM2.5),170,215,241,129,172,105,71,63,63,9,28,8,18,1.2,1.9
2023-01-23T15:00:00,2391A,113.883,35.303,新乡市,环保东院,细颗粒物(PM2.5),148,168,222,113,166,109,72,68,68,9,34,8,24,0.8,1.6
2023-01-23T15:00:00,2392A,115.0312,35.7636,濮阳市,环保局,细颗粒物(PM2.5),130,182,234,99,194,126,73,69,56,10,31,7,18,0.7,1.3
2023-01-23T15:00:00,2394A,115.0574,35.7609,濮阳市,油田运输公司,细颗粒物(PM2.5),134,212,284,102,204,136,81,90,62,8,26,11,23,0.6,1.2
2023-01-23T15:00:00,2395A,115.0866,35.7754,濮阳市,油田物探公司,细颗粒物(PM2.5),128,173,244,97,201,127,74,72,53,8,25,8,19,0.4,1.1
2023-01-23T15:00:00,2396A,113.8276,34.0159,许昌市,监测站,细颗粒物(PM2.5),162,212,222,123,166,114,112,80,80,11,23,14,14,1.1,1.4
2023-01-23T15:00:00,2398A,113.7906,33.9953,许昌市,开发区,细颗粒物(PM2.5),138,198,203,105,145,111,108,79,79,15,20,14,13,1.0,1.2
2023-01-23T15:00:00,2399A,114.051,33.5699,漯河市,三五一五工厂,细颗粒物(PM2.5),175,237,259,132,174,126,126,94,94,12,17,20,15,1.3,1.2
2023-01-23T15:00:00,2400A,114.0055,33.5698,漯河市,漯河大学,细颗粒物(PM2.5),183,242,258,138,163,131,131,98,98,19,26,23,18,1.0,1
2023-01-23T15:00:00,2401A,114.0138,33.5828,漯河市,市水利局,细颗粒物(PM2.5),185,237,253,139,175,128,128,94,94,15,26,24,19,1.2,1.1
2023-01-23T15:00:00,2402A,114.0261,33.5698,漯河市,市广电局,细颗粒物(PM2.5),204,249,253,154,184,123,123,90,90,17,26,22,17,1.3,1.3
2023-01-23T15:00:00,2404A,112.5224,33.0122,南阳市,瓦房庄,颗粒物(PM10),66,82,191,34,138,107,92,74,74,8,28,8,9,0.5,0.9
2023-01-23T15:00:00,2405A,112.5003,32.9735,南阳市,汉画馆,颗粒物(PM10),64,78,198,33,148,112,91,67,67,9,25,8,8,0.5,1
2023-01-23T15:00:00,2406A,112.5573,33.027,南阳市,气象站,颗粒物(PM10),62,73,189,34,136,112,91,82,77,7,14,8,11,0.3,0.7
2023-01-23T15:00:00,2407A,112.5481,32.9689,南阳市,理工学院,颗粒物(PM10),61,71,179,29,129,115,98,78,78,9,20,9,10,0.3,0.9
2023-01-23T15:00:00,2408A,115.6702,34.4285,商丘市,环境监测站,细颗粒物(PM2.5),202,266,342,152,246,99,67,72,72,14,27,6,16,0.6,1.1
2023-01-23T15:00:00,2409A,115.6458,34.4045,商丘市,粮食局,细颗粒物(PM2.5),210,246,304,160,228,102,69,78,78,12,24,5,15,0.8,1.1
2023-01-23T15:00:00,2410A,115.6293,34.3948,商丘市,睢阳区环保局,细颗粒物(PM2.5),209,280,315,159,240,102,69,78,78,14,26,7,17,0.6,1
2023-01-23T15:00:00,2420A,114.0189,32.9656,驻马店市,市一纸厂,细颗粒物(PM2.5),153,239,292,117,185,129,129,84,84,18,28,21,12,1.3,1.1
2023-01-23T15:00:00,2421A,114.0114,33.015,驻马店市,市彩印厂,细颗粒物(PM2.5),168,229,246,127,167,127,127,82,82,21,22,21,13,1.6,1.3
2023-01-23T15:00:00,2422A,113.9976,32.9771,驻马店市,天方二分厂,细颗粒物(PM2.5),168,226,269,127,184,123,123,84,84,24,32,20,10,1.4,1.2
2023-01-23T15:00:00,2423A,115.0601,30.2313,黄石市,沈家营,细颗粒物(PM2.5),110,153,177,83,139,50,50,28,28,20,18,7,8,0.7,0.9
2023-01-23T15:00:00,2424A,115.0817,30.2006,黄石市,陈家湾,细颗粒物(PM2.5),128,143,195,97,153,43,42,26,26,10,7,6,8,0.9,1
2023-01-23T15:00:00,2426A,114.8988,30.2019,黄石市,铁山,细颗粒物(PM2.5),99,104,206,74,170,60,60,33,33,12,19,12,10,1.0,1.3
2023-01-23T15:00:00,2427A,115.0307,30.2092,黄石市,团城山,颗粒物(PM10),107,164,202,77,149,58,58,32,32,14,17,10,11,0.7,0.9
2023-01-23T15:00:00,2428A,111.0419,32.395,十堰市,武当山,,,,,,,,,,,,,,,,
2023-01-23T15:00:00,2429A,110.78,32.6494,十堰市,滨河新村,颗粒物(PM10),63,76,91,41,51,94,94,65,65,1,13,10,8,0.6,0.8
2023-01-23T15:00:00,2430A,110.7258,32.6389,十堰市,刘家沟,颗粒物(PM10),76,102,95,34,44,95,94,63,63,4,8,10,7,0.8,1
2023-01-23T15:00:00,2431A,110.8839,32.5714,十堰市,铁二处,颗粒物(PM10),69,88,92,40,51,105,105,64,64,3,12,11,7,0.6,0.8
2023-01-23T15:00:00,2432A,112.155,32.0197,襄阳市,襄城运动路,颗粒物(PM10),113,176,175,62,115,104,101,77,77,10,20,14,11,0.8,1
2023-01-23T15:00:00,2433A,112.1392,32.0564,襄阳市,樊城新华路,颗粒物(PM10),94,137,176,62,135,101,100,75,75,10,22,16,12,0.6,0.8
2023-01-23T15:00:00,2434A,112.1825,32.1142,襄阳市,高新管委会,颗粒物(PM10),106,161,177,56,133,106,106,75,75,8,20,16,13,0.9,1.1
