timepoint,stationcode,longitude,latitude,area,positionname,primarypollutant,aqi,pm10,pm10_24h,pm2_5,pm2_5_24h,o3,o3_24h,o3_8h,o3_8h_24h,no2,no2_24h,so2,so2_24h,co,co_24h
2025-01-09T0800,2566A,102.1879,31.914,阿坝藏族羌族自治州,州农科所,,13,12,32,3,12,39,,47,47,14,12,6,6,0.9,0.9
2025-01-09T0800,2568A,102.2502,31.8896,阿坝藏族羌族自治州,马师校,,,,16,,19,,,,,,16,,6,,0.7
2025-01-09T0800,3994A,102.2165,31.9024,阿坝藏族羌族自治州,马尔康中学西区,,28,28,30,13,19,37,,44,44,6,10,5,5,0.6,0.7
2025-01-09T0800,2695A,80.292,41.1694,阿克苏地区,电视台,细颗粒物(PM2.5),87,87,111,64,72,48,,61,61,25,40,3,4,0.8,1.1
2025-01-09T0800,2696A,80.2613,41.1551,阿克苏地区,艺术中心,细颗粒物(PM2.5),88,96,107,65,71,37,,49,49,18,28,5,5,1.1,1.2
2025-01-09T0800,2204A,105.6467,38.8363,阿拉善盟,西城区西花园,,33,33,35,19,20,52,,53,53,26,22,7,8,0.8,0.7
2025-01-09T0800,2205A,105.6985,38.8411,阿拉善盟,蒙二幼,,16,15,16,8,6,35,,52,52,32,15,4,4,0.7,0.5
2025-01-09T0800,2206A,105.724,38.8516,阿拉善盟,环保局新楼,,23,6,8,3,2,72,,70,70,5,8,7,7,0.4,0.4
2025-01-09T0800,2708A,88.1264,47.8517,阿勒泰地区,市站,,38,38,31,25,26,48,,23,23,24,50,8,11,0.4,0.5
2025-01-09T0800,2630A,80.1161,32.5,阿里地区,阿里监测站,,24,6,15,3,5,75,,69,69,2,5,6,8,0.4,0.5
2025-01-09T0800,3192A,80.0903,32.5028,阿里地区,阿里藏医院,,19,12,15,6,4,59,,70,70,8,4,9,8,0.6,0.6
2025-01-09T0800,2642A,109.0318,32.6537,安康市,香溪洞,,45,45,46,30,31,35,,42,42,20,19,9,10,0.6,0.6
2025-01-09T0800,2644A,109.0072,32.6975,安康市,汉滨区检察院,,47,47,60,30,35,15,,24,24,30,33,5,6,0.5,0.6
2025-01-09T0800,4054A,109.0325,32.6913,安康市,市邮政管理局,,48,48,67,33,42,12,,14,14,33,40,6,7,0.7,0.9
2025-01-09T0800,2291A,117.0809,30.5177,安庆市,环科院,颗粒物(PM10),55,59,69,27,30,34,,37,37,27,24,7,8,0.4,0.5
2025-01-09T0800,2292A,117.0331,30.5119,安庆市,马山宾馆,颗粒物(PM10),52,53,62,32,36,29,,35,35,29,31,9,10,0.6,0.6
2025-01-09T0800,2294A,116.9896,30.6145,安庆市,安庆大学,颗粒物(PM10),62,73,65,36,34,38,,36,36,20,21,6,8,0.7,0.7
2025-01-09T0800,3173A,117.0598,30.5351,安庆市,市人大,颗粒物(PM10),53,56,65,32,36,28,,35,35,36,35,7,8,0.7,0.7
2025-01-09T0800,3122A,105.9606,26.2611,安顺市,伍家关,,16,6,21,3,16,49,,54,54,12,14,8,8,0.7,0.7
2025-01-09T0800,3123A,105.9408,26.2431,安顺市,凤凰山,,14,9,21,6,22,43,,47,47,13,14,12,15,0.5,0.6
2025-01-09T0800,3124A,105.9439,26.2564,安顺市,金钟山,,14,13,25,6,20,43,,46,46,12,12,14,15,0.6,0.6
2025-01-09T0800,3125A,105.8983,26.2481,安顺市,娄家坡,,18,14,23,12,22,39,,43,43,16,16,26,17,0.6,0.6
2025-01-09T0800,1818A,114.4839,36.0621,安阳市,棉研所,颗粒物(PM10),68,85,57,45,26,4,,6,6,44,32,11,9,1.4,0.6
2025-01-09T0800,1819A,114.3551,36.1017,安阳市,红庙街,颗粒物(PM10),85,119,63,61,28,4,,6,6,36,18,22,5,2.2,0.8
2025-01-09T0800,1820A,114.361,36.0681,安阳市,银杏小区,颗粒物(PM10),74,97,59,42,24,4,,4,4,40,23,4,2,1.4,0.6
2025-01-09T0800,3141A,114.3922,36.0878,安阳市,信访局,颗粒物(PM10),86,121,60,56,26,4,,5,5,44,25,14,4,1.6,0.4
2025-01-09T0800,3669A,114.4705,36.0637,安阳市,左辅环卫站,细颗粒物(PM2.5),73,92,66,53,33,7,,11,11,41,24,8,6,1.0,0.5
2025-01-09T0800,3703A,114.2917,36.0949,安阳市,安钢职工学校,细颗粒物(PM2.5),100,134,72,75,33,8,,6,6,36,24,5,4,1.1,0.6
2025-01-09T0800,1748A,123.044,41.1196,鞍山市,深沟寺,,43,43,36,26,19,26,,40,40,24,11,8,7,1.1,0.6
2025-01-09T0800,1749A,123.011,41.0931,鞍山市,太阳城,细颗粒物(PM2.5),52,51,47,36,19,30,,41,41,24,17,9,9,0.9,0.8
2025-01-09T0800,1750A,123.0485,41.1442,鞍山市,太平,颗粒物(PM10),57,64,44,39,18,23,,37,37,34,19,19,10,1.5,0.7
2025-01-09T0800,1751A,122.9642,41.0971,鞍山市,铁西三道街,细颗粒物(PM2.5),62,70,53,44,24,20,,20,20,36,26,10,20,0.9,1.4
2025-01-09T0800,1752A,122.9341,41.0833,鞍山市,铁西工业园区,细颗粒物(PM2.5),95,85,44,71,21,16,,32,32,52,26,9,9,1.3,0.6
2025-01-09T0800,1753A,123.022,41.0821,鞍山市,明达新区,,47,47,35,28,15,27,,42,42,22,12,13,9,1.1,0.8
2025-01-09T0800,1754A,123.1289,41.0228,鞍山市,千山,,,,52,,15,,,45,,,17,,6,,0.5
2025-01-09T0800,2195A,107.4212,40.761,巴彦淖尔市,附二中,,41,41,37,23,19,24,,23,23,30,22,34,9,0.7,0.5
2025-01-09T0800,2196A,107.37,40.7372,巴彦淖尔市,市环保大楼,,42,42,34,12,21,5,,14,14,54,27,4,5,0.6,0.5
2025-01-09T0800,1956A,86.1472,41.7538,巴音郭楞蒙古自治州,孔雀公园,细颗粒物(PM2.5),67,78,76,48,51,10,,58,58,74,38,5,6,1.2,0.8
2025-01-09T0800,1957A,86.1972,41.7166,巴音郭楞蒙古自治州,棉纺厂,颗粒物(PM10),69,88,92,44,44,18,,53,53,65,45,2,3,0.9,0.8
2025-01-09T0800,1958A,86.2357,41.7173,巴音郭楞蒙古自治州,经济开发区,颗粒物(PM10),56,61,63,38,42,47,,65,65,34,28,3,4,0.5,0.7
2025-01-09T0800,2914A,106.7677,31.8794,巴中市,苏山坪,,50,46,43,35,33,39,,58,58,14,13,2,3,0.5,0.5
2025-01-09T0800,3182A,106.7656,31.8545,巴中市,丽阳花园,细颗粒物(PM2.5),68,69,66,49,47,3,,4,4,33,36,3,3,0.8,0.7
2025-01-09T0800,3183A,106.7418,31.8654,巴中市,圣泉水务公司,细颗粒物(PM2.5),52,46,64,36,49,14,,10,10,30,36,3,3,0.5,0.6
2025-01-09T0800,3616A,106.7616,31.8344,巴中市,市中心医院,细颗粒物(PM2.5),69,60,57,50,51,2,,2,2,30,34,4,4,0.7,0.7
2025-01-09T0800,2235A,122.7911,45.6077,白城市,洮北区环保局,,36,,28,25,30,45,,46,46,27,18,6,6,0.5,0.5
2025-01-09T0800,2236A,122.8738,45.5725,白城市,市环保局,,18,12,26,12,23,49,,33,33,20,22,8,6,0.3,0.4
2025-01-09T0800,2231A,126.4219,41.9171,白山市,喜丰,颗粒物(PM10),55,60,30,33,19,23,,37,37,41,18,10,8,0.8,0.6
2025-01-09T0800,2232A,126.4077,41.9419,白山市,环保局,颗粒物(PM10),63,75,53,38,20,23,,40,40,27,11,12,6,1.0,0.8
2025-01-09T0800,2647A,104.1724,36.5446,白银市,第三小学,细颗粒物(PM2.5),73,75,53,53,35,30,,40,40,50,35,296,140,2.0,1.3
2025-01-09T0800,2648A,104.1465,36.5482,白银市,动力公司,,46,36,42,32,30,42,,44,44,26,29,57,78,1.1,0.9
2025-01-09T0800,2512A,106.6103,23.9011,百色市,市监测站,细颗粒物(PM2.5),70,58,81,51,60,32,,42,42,22,23,15,12,1.0,1
2025-01-09T0800,2513A,106.6538,23.8859,百色市,市中心血站,细颗粒物(PM2.5),60,54,81,43,61,31,,48,48,34,29,8,9,0.9,0.9
2025-01-09T0800,3406A,106.6085,23.8798,百色市,祈福高中,细颗粒物(PM2.5),67,76,93,48,60,27,,42,42,25,29,8,8,0.9,0.9
2025-01-09T0800,2270A,117.396,32.939,蚌埠市,工人疗养院,颗粒物(PM10),54,57,74,30,37,26,,35,35,34,32,6,8,0.6,0.6
2025-01-09T0800,2271A,117.3605,32.9427,蚌埠市,百货大楼,颗粒物(PM10),56,61,74,25,36,11,,31,31,42,26,6,8,0.7,0.7
2025-01-09T0800,2273A,117.4185,32.8911,蚌埠市,蚌埠学院,颗粒物(PM10),60,70,74,31,38,14,,31,31,37,26,6,10,0.4,0.5
2025-01-09T0800,2274A,117.3533,32.9673,蚌埠市,淮上区政府,颗粒物(PM10),58,66,82,31,42,10,,27,27,45,32,8,10,0.5,0.5
2025-01-09T0800,2275A,117.3145,32.8977,蚌埠市,高新区,颗粒物(PM10),64,78,80,30,41,6,,28,28,56,37,13,11,0.6,0.6
2025-01-09T0800,3715A,117.3092,32.9314,蚌埠市,蚌埠田家炳中学,颗粒物(PM10),68,85,88,36,42,4,,22,22,48,32,7,9,0.6,0.6
2025-01-09T0800,1585A,109.8756,40.6532,包头市,市环境监测站,,27,22,18,17,7,8,,42,42,54,17,12,9,0.9,0.5
2025-01-09T0800,1587A,109.9991,40.5842,包头市,包头八中,细颗粒物(PM2.5),78,71,27,57,14,8,,9,9,54,29,48,14,4.3,1
2025-01-09T0800,1588A,109.8538,40.6821,包头市,青山宾馆,,30,28,12,21,6,7,,38,38,55,14,11,10,1.1,0.5
2025-01-09T0800,1589A,109.8642,40.6288,包头市,惠龙物流,,28,19,10,7,6,10,,42,42,55,17,12,8,0.9,0.4
2025-01-09T0800,1590A,110.0377,40.5546,包头市,东河鸿龙湾,颗粒物(PM10),58,65,26,30,10,9,,17,17,52,26,24,13,1.7,0.8
2025-01-09T0800,3283A,109.9154,40.5685,包头市,滨河大厦,,32,32,17,16,9,6,,14,14,59,31,8,8,0.9,0.6
2025-01-09T0800,3419A,109.9447,40.6261,包头市,包头市委党校,,30,28,29,16,12,9,,12,12,59,32,8,7,0.8,0.6
2025-01-09T0800,3683A,109.8331,40.6576,包头市,昆区政府,,23,16,11,12,7,14,,45,45,46,15,11,10,0.8,0.5
2025-01-09T0800,1930A,107.185,34.3063,宝鸡市,庙沟村,细颗粒物(PM2.5),72,,41,52,33,22,,39,39,40,29,15,9,0.7,0.6
2025-01-09T0800,1931A,107.0708,34.3017,宝鸡市,竹园沟,细颗粒物(PM2.5),58,,44,41,34,8,,25,25,39,23,6,7,0.6,0.5
2025-01-09T0800,1932A,107.1906,34.3672,宝鸡市,三陆医院,细颗粒物(PM2.5),70,68,67,51,48,8,,20,20,61,43,15,9,0.8,0.7
2025-01-09T0800,1933A,107.1431,34.3547,宝鸡市,监测站,细颗粒物(PM2.5),58,54,58,41,39,9,,18,18,44,37,7,8,0.8,0.7
2025-01-09T0800,1934A,107.1186,34.3739,宝鸡市,技工学校,细颗粒物(PM2.5),72,62,65,52,44,24,,31,31,28,28,22,11,0.8,0.7
2025-01-09T0800,1935A,107.3906,34.3528,宝鸡市,陈仓区环保局家属楼,细颗粒物(PM2.5),70,77,75,51,50,7,,12,12,55,47,10,17,1.1,0.8
2025-01-09T0800,1936A,107.2058,34.3497,宝鸡市,文理学院,细颗粒物(PM2.5),59,59,59,42,40,10,,23,23,47,37,8,8,0.9,0.7
2025-01-09T0800,1937A,107.2386,34.3622,宝鸡市,三迪小学,细颗粒物(PM2.5),67,65,62,48,49,15,,22,22,49,45,13,10,0.7,0.6
2025-01-09T0800,1051A,115.493,38.8632,保定市,游泳馆,,31,31,26,6,7,12,,46,46,45,8,3,3,0.6,0.4
2025-01-09T0800,1052A,115.5213,38.8959,保定市,华电二区,,32,25,25,22,13,2,,48,48,59,13,7,2,0.3,0.1
2025-01-09T0800,1053A,115.4713,38.9108,保定市,接待中心,细颗粒物(PM2.5),54,39,29,38,9,25,,47,47,38,11,1,2,0.6,0.4
2025-01-09T0800,1054A,115.4612,38.8416,保定市,地表水厂,,36,36,33,8,11,21,,42,42,41,16,3,3,0.3,0.2
2025-01-09T0800,3581A,115.31981,38.95208,保定市,满城区生态环境分局,,39,39,19,12,5,13,,58,58,63,8,3,3,0.5,0.2
2025-01-09T0800,3582A,115.47694,38.76408,保定市,清苑区第二中学,,35,32,33,24,14,33,,46,46,38,23,3,4,0.3,0.3
2025-01-09T0800,3583A,115.62909,39.02311,保定市,徐水物探局,,23,7,16,3,3,13,,37,37,46,18,1,3,0.5,0.2
2025-01-09T0800,4004A,115.4202,38.8656,保定市,双鹰农机,,,33,28,16,11,31,,55,55,32,10,2,2,,0.3
2025-01-09T0800,4034A,115.5150,38.8590,保定市,植保所站,,39,39,28,23,14,4,,48,48,63,10,6,2,0.7,0.4
2025-01-09T0800,2594A,99.1678,25.1081,保山市,市环境监测站,,26,,22,18,19,22,,34,34,12,10,3,4,0.5,0.5
2025-01-09T0800,2595A,99.1711,25.1328,保山市,市环保局,,35,,25,24,25,34,,46,46,4,7,5,6,0.3,0.4
2025-01-09T0800,1866A,109.2262,21.588,北海市,牛尾岭水库,细颗粒物(PM2.5),85,71,87,63,81,44,,60,60,20,18,7,8,0.7,0.7
2025-01-09T0800,1867A,109.1436,21.4086,北海市,海滩公园,细颗粒物(PM2.5),98,102,109,73,74,65,,88,88,16,17,12,13,0.9,1
2025-01-09T0800,1868A,109.0981,21.4661,北海市,新市环保局,细颗粒物(PM2.5),92,93,107,68,83,59,,83,83,25,30,14,12,0.8,0.9
2025-01-09T0800,1869A,109.1778,21.5233,北海市,北海工业园,细颗粒物(PM2.5),98,103,118,73,86,56,,77,77,23,27,17,15,0.8,0.9
2025-01-09T0800,3400A,109.1911,21.4415,北海市,龙潭自来水厂,细颗粒物(PM2.5),114,108,110,86,90,57,,74,74,26,26,13,13,0.9,0.9
2025-01-09T0800,1001A,116.3621,39.8784,北京市,万寿西宫,,15,13,16,3,4,47,,48,48,14,8,4,2,0.3,0.2
2025-01-09T0800,1002A,116.2202,40.2915,北京市,定陵,,,,,,,,,,,,,,,,
2025-01-09T0800,1003A,116.4174,39.9289,北京市,东四,,18,12,18,6,6,56,,50,50,10,7,1,1,0.2,0.2
2025-01-09T0800,1004A,116.4072,39.8863,北京市,天坛,,18,12,15,3,4,55,,55,55,13,7,3,3,0.2,0.2
2025-01-09T0800,1005A,116.462,39.9365,北京市,农展馆,,21,8,15,3,4,66,,61,61,8,8,1,1,0.4,0.4
2025-01-09T0800,1006A,116.3392,39.9295,北京市,官园,,13,13,15,3,6,39,,43,43,19,7,4,3,0.5,0.4
2025-01-09T0800,1007A,116.2878,39.9611,北京市,海淀万柳,,16,16,13,6,5,43,,39,39,19,12,2,2,0.4,0.3
2025-01-09T0800,1008A,116.6636,40.135,北京市,顺义新城,,14,9,13,3,7,42,,50,50,16,6,3,4,0.2,0.4
2025-01-09T0800,1009A,116.6275,40.3275,北京市,怀柔镇,,17,13,8,6,4,53,,54,54,12,5,1,2,0.3,0.2
2025-01-09T0800,1010A,116.2296,40.217,北京市,昌平镇,,17,11,16,3,6,52,,53,53,11,6,1,1,0.5,0.5
2025-01-09T0800,1011A,116.3966,39.9821,北京市,奥体中心,,18,10,15,3,5,56,,46,46,14,14,3,3,0.1,0
2025-01-09T0800,1012A,116.184,39.9136,北京市,古城,,14,14,14,3,4,39,,41,41,21,11,3,3,0.4,0.2
2025-01-09T0800,3281A,115.9718,40.4529,北京市,延庆夏都,颗粒物(PM10),54,58,48,6,5,49,,54,54,10,3,1,2,0.2,0.2
2025-01-09T0800,3417A,117.0709,40.1465,北京市,平谷新城,,20,7,9,3,4,64,,56,56,2,2,3,3,0.1,0.1
2025-01-09T0800,3418A,116.8336,40.4095,北京市,密云新城,,21,7,8,3,4,66,,64,64,2,3,1,3,0.1,0.2
2025-01-09T0800,3671A,116.088,39.9726,北京市,门头沟三家店,,17,9,16,3,6,53,,50,50,6,6,3,3,0.2,0.2
2025-01-09T0800,3672A,116.1541,39.8204,北京市,丰台云岗,,16,16,17,3,3,35,,47,47,24,6,2,2,0.2,0.2
2025-01-09T0800,3673A,116.6804,39.9081,北京市,通州东关,,15,13,26,3,5,46,,54,54,11,4,1,1,0.2,0.1
2025-01-09T0800,3674A,115.9577,39.7603,北京市,房山燕山,,16,14,9,11,5,46,,62,62,17,4,3,3,0.4,0.2
2025-01-09T0800,3675A,116.4672,39.7733,北京市,大兴旧宫,,15,11,16,3,5,47,,42,42,4,5,3,2,0.2,0.3
2025-01-09T0800,3694A,115.986,40.4563,北京市,延庆石河营,,15,13,12,7,5,47,,51,51,10,4,3,2,0.2,0.3
2025-01-09T0800,3695A,116.6151,40.3053,北京市,怀柔新城,,22,22,17,6,4,55,,49,49,4,5,3,1,0.1,0.1
2025-01-09T0800,3696A,116.2545,39.8768,北京市,丰台小屯,,19,19,17,3,5,43,,43,43,19,10,4,3,0.3,0.2
2025-01-09T0800,3697A,116.84,40.3844,北京市,密云镇,,21,8,11,3,3,67,,62,62,2,5,3,3,0.3,0.2
2025-01-09T0800,1761A,123.8275,41.3064,本溪市,大峪,颗粒物(PM10),53,56,38,35,20,30,,32,32,25,20,4,5,1.3,0.8
2025-01-09T0800,1762A,123.7567,41.3325,本溪市,溪湖,细颗粒物(PM2.5),90,93,59,67,24,10,,29,29,38,18,10,10,1.0,0.5
2025-01-09T0800,1763A,123.7169,41.3094,本溪市,彩屯,细颗粒物(PM2.5),88,90,44,65,27,10,,25,25,47,22,6,5,1.4,0.8
2025-01-09T0800,1764A,123.7669,41.2864,本溪市,东明,细颗粒物(PM2.5),69,,38,50,27,28,,35,35,30,21,6,8,0.9,0.5
2025-01-09T0800,1765A,123.7992,41.2664,本溪市,新立屯,,44,44,40,26,21,45,,44,44,19,19,1,2,0.8,0.6
2025-01-09T0800,1766A,123.8142,41.3472,本溪市,威宁,细颗粒物(PM2.5),79,68,47,58,22,14,,14,14,40,28,2,3,0.9,0.6
2025-01-09T0800,2587A,105.2864,27.3125,毕节市,八中,,26,21,18,18,15,51,,51,51,9,9,6,6,0.5,0.5
2025-01-09T0800,2588A,105.31,27.2944,毕节市,师专,,28,21,17,19,14,54,,50,50,11,12,4,5,0.5,0.6
2025-01-09T0800,3537A,105.3631,27.3533,毕节市,长征村,,21,12,12,10,11,67,,61,61,4,6,6,7,0.5,0.6
2025-01-09T0800,1629A,118.0018,37.3617,滨州市,第二水厂,,31,31,40,12,9,42,,38,38,21,17,7,8,0.3,0.3
2025-01-09T0800,1630A,117.9776,37.393,滨州市,北中新校,,29,29,43,17,13,36,,30,30,28,25,6,7,0.2,0.2
2025-01-09T0800,3514A,117.9378,37.3956,滨州市,中海酒店,,35,34,40,24,20,20,,21,21,37,28,9,8,0.6,0.5
2025-01-09T0800,3515A,117.9378,37.3553,滨州市,开发区一中,,41,41,45,19,14,30,,34,34,39,28,13,17,0.5,0.4
2025-01-09T0800,3516A,118.0917,37.694,滨州市,金海六路,,32,32,36,14,12,12,,12,12,46,31,2,3,0.4,0.3
2025-01-09T0800,4028A,117.9956,37.3753,滨州市,滨州市西街道办事处,,,34,37,14,16,,,,,21,20,5,6,0.8,0.7
2025-01-09T0800,2311A,115.8072,33.8399,亳州市,污水处理厂,颗粒物(PM10),54,58,68,25,24,28,,27,27,27,24,5,5,0.3,0.3
2025-01-09T0800,2312A,115.7789,33.8518,亳州市,三国揽胜宫,颗粒物(PM10),52,53,63,21,25,29,,40,40,34,24,6,6,0.4,0.3
2025-01-09T0800,3332A,115.7633,33.8034,亳州市,亳州学院,,48,48,61,16,19,39,,46,46,16,13,4,5,0.5,0.5
2025-01-09T0800,2693A,82.0485,44.8556,博尔塔拉蒙古自治州,市党校,颗粒物(PM10),53,56,71,34,51,55,,40,40,19,25,7,7,1.0,1.1
2025-01-09T0800,2694A,82.0806,44.8969,博尔塔拉蒙古自治州,市环保局,颗粒物(PM10),52,54,74,35,43,27,,22,22,37,36,8,8,1.7,1.3
2025-01-09T0800,1071A,116.8842,38.2991,沧州市,沧县城建局,,41,41,54,23,21,36,,35,35,32,20,6,4,0.2,0.1
2025-01-09T0800,1072A,116.8584,38.3254,沧州市,电视转播站,颗粒物(PM10),51,51,45,24,14,12,,18,18,58,31,10,4,0.4,0.4
2025-01-09T0800,1073A,116.8709,38.3228,沧州市,市环保局,,,48,46,30,27,17,,21,21,,15,5,3,0.3,0.2
2025-01-09T0800,3324A,116.8136,38.3004,沧州市,河北水利电力学院,细颗粒物(PM2.5),62,58,51,44,23,5,,15,15,55,25,7,6,0.6,0.2
2025-01-09T0800,2622A,97.1806,31.1273,昌都市,昌都监测站,,21,16,15,3,9,65,,69,69,3,9,7,7,0.4,0.5
2025-01-09T0800,3719A,97.1714,31.1406,昌都市,昌都会议中心,,21,6,7,6,7,65,,71,71,2,3,5,5,0.6,0.6
2025-01-09T0800,2690A,88.1236,43.8886,昌吉回族自治州,天山天池,,20,6,7,3,5,63,,75,75,2,3,6,7,0.6,0.6
2025-01-09T0800,2692A,87.2717,44.0297,昌吉回族自治州,新区政务中心,细颗粒物(PM2.5),59,60,123,42,80,20,,18,18,47,44,6,5,1.1,1.6
2025-01-09T0800,3613A,87.3095,44.0142,昌吉回族自治州,亚心广场,细颗粒物(PM2.5),55,46,118,39,98,32,,33,33,50,46,8,8,1.0,1.5
2025-01-09T0800,1119A,125.3325,43.9166,长春市,食品厂,细颗粒物(PM2.5),73,68,48,53,40,11,,19,19,41,31,10,10,1.2,0.6
2025-01-09T0800,1120A,125.2863,43.9027,长春市,客车厂,细颗粒物(PM2.5),70,,44,51,44,17,,24,24,41,34,10,12,0.7,0.5
2025-01-09T0800,1121A,125.2841,43.8463,长春市,邮电学院,细颗粒物(PM2.5),67,61,54,48,42,10,,20,20,48,36,17,14,0.6,0.5
2025-01-09T0800,1122A,125.3716,43.8772,长春市,劳动公园,,46,42,44,32,33,16,,30,30,48,32,18,14,0.9,0.8
2025-01-09T0800,1123A,125.3297,43.8805,长春市,园林处,细颗粒物(PM2.5),77,80,41,56,34,13,,24,24,43,30,12,12,0.7,0.5
2025-01-09T0800,1124A,125.4605,43.79,长春市,净月潭,细颗粒物(PM2.5),70,62,53,51,40,10,,10,10,38,31,6,10,0.7,0.5
2025-01-09T0800,1125A,125.7194,43.515,长春市,甩湾子,,,,,,,,,,,,,,,,
2025-01-09T0800,1126A,125.3863,43.8447,长春市,经开区环卫处,细颗粒物(PM2.5),52,46,53,36,34,7,,19,19,47,33,28,16,1.0,0.7
2025-01-09T0800,1127A,125.245,43.7783,长春市,高新区管委会,细颗粒物(PM2.5),78,,51,57,48,14,,17,17,43,43,8,13,1.1,0.7
2025-01-09T0800,1128A,125.1761,43.8325,长春市,岱山公园,细颗粒物(PM2.5),93,,58,69,55,13,,17,17,51,41,8,12,1.1,0.8
2025-01-09T0800,1335A,113.0833,28.2325,长沙市,经开区环保局,细颗粒物(PM2.5),69,80,78,50,46,17,,27,27,34,39,2,2,0.5,0.5
2025-01-09T0800,1336A,112.8872,28.2189,长沙市,高开区环保局,细颗粒物(PM2.5),74,76,71,54,46,22,,38,38,24,26,5,6,0.5,0.5
2025-01-09T0800,1337A,113.0792,28.2053,长沙市,马坡岭,细颗粒物(PM2.5),72,73,75,52,49,28,,32,32,27,34,4,4,0.7,0.7
2025-01-09T0800,1338A,112.9394,28.19,长沙市,湖南师范大学,细颗粒物(PM2.5),78,83,70,57,46,27,,44,44,26,26,6,6,0.7,0.6
2025-01-09T0800,1339A,113.0178,28.1322,长沙市,雨花区环保局,细颗粒物(PM2.5),77,67,68,56,44,31,,37,37,28,31,6,6,0.6,0.6
2025-01-09T0800,1340A,112.9792,28.2597,长沙市,伍家岭,细颗粒物(PM2.5),69,77,70,50,42,15,,35,35,32,30,4,4,0.3,0.3
2025-01-09T0800,1341A,113.0014,28.1944,长沙市,火车新站,细颗粒物(PM2.5),85,77,68,63,47,27,,40,40,31,31,4,4,0.5,0.5
2025-01-09T0800,1342A,112.9844,28.1178,长沙市,天心区环保局,细颗粒物(PM2.5),78,78,72,57,49,24,,36,36,28,32,2,2,0.5,0.5
2025-01-09T0800,1343A,112.8908,28.1308,长沙市,湖南中医药大学,颗粒物(PM10),64,77,75,28,48,25,,36,36,25,36,5,10,0.6,0.6
2025-01-09T0800,1344A,112.9581,28.3611,长沙市,沙坪,细颗粒物(PM2.5),84,72,73,62,49,19,,35,35,24,22,6,7,0.9,0.9
2025-01-09T0800,1727A,113.1147,36.1547,长治市,清华站,,44,44,32,19,10,5,,7,7,40,26,21,15,1.0,0.8
2025-01-09T0800,1728A,113.1031,36.1989,长治市,监测站,颗粒物(PM10),52,53,35,19,15,6,,5,5,48,31,19,16,1.2,1
2025-01-09T0800,1730A,113.0886,36.2125,长治市,审计局,,38,38,33,12,14,12,,4,4,37,28,17,17,0.7,0.6
2025-01-09T0800,1731A,113.0844,36.1856,长治市,长治八中,颗粒物(PM10),63,75,50,33,22,4,,4,4,44,28,19,16,1.1,0.8
2025-01-09T0800,2845A,113.1569,36.1911,长治市,德盛苑,,48,48,32,19,13,8,,12,12,48,26,27,16,1.1,0.9
2025-01-09T0800,3568A,113.06,36.0464,长治市,向阳小学,,41,41,49,21,20,26,,28,28,21,22,27,23,0.8,0.6
2025-01-09T0800,3569A,112.8792,36.3144,长治市,屯留一中,,39,39,29,13,10,18,,17,17,41,36,9,14,0.9,0.8
2025-01-09T0800,3570A,113.235,36.3489,长治市,潞城四中,,,,,,,,,,,,,,,,
2025-01-09T0800,1854A,111.6975,28.9703,常德市,市二中,细颗粒物(PM2.5),74,59,60,54,50,28,,24,24,23,23,5,2,0.7,0.7
2025-01-09T0800,1857A,111.7158,29.1456,常德市,白鹤山,,,,,,,,,,,,,,,,
2025-01-09T0800,3138A,111.7153,29.0289,常德市,武陵区永安,细颗粒物(PM2.5),64,67,50,46,38,30,,40,40,21,12,6,2,0.7,0.6
2025-01-09T0800,3139A,111.6892,28.9881,常德市,鼎城区玉霞,细颗粒物(PM2.5),69,65,68,50,48,25,,12,12,20,22,6,4,0.8,0.7
2025-01-09T0800,3140A,111.6625,29.0531,常德市,武陵区长庚,细颗粒物(PM2.5),64,63,54,46,40,26,,33,33,22,14,3,2,0.7,0.6
2025-01-09T0800,1196A,119.9633,31.762,常州市,市监测站,,30,30,60,17,37,39,,47,47,26,30,9,12,0.3,0.5
2025-01-09T0800,1200A,119.9468,31.7069,常州市,武进监测站,,37,37,59,13,34,33,,47,47,29,29,2,5,0.5,0.7
2025-01-09T0800,1201A,119.9255,31.9087,常州市,安家,,40,40,67,18,38,26,,37,37,43,41,8,13,0.5,0.6
2025-01-09T0800,3002A,119.9805,31.8174,常州市,行政中心,,24,24,50,14,35,44,,44,44,20,31,7,11,0.4,0.6
2025-01-09T0800,3003A,120.0522,31.7748,常州市,经开区,,47,47,70,18,32,29,,38,38,36,34,11,16,0.4,0.5
2025-01-09T0800,3010A,119.9025,31.7964,常州市,钟楼,,38,38,61,20,36,16,,38,38,47,34,12,11,0.7,0.7
2025-01-09T0800,3429A,119.8598,31.7066,常州市,武进经发区,颗粒物(PM10),51,51,69,23,40,18,,32,32,42,38,7,9,0.6,0.6
2025-01-09T0800,3430A,119.5826,31.7245,常州市,金坛城区,,42,42,72,19,44,35,,42,42,20,24,7,10,0.6,0.7
2025-01-09T0800,2220A,120.4318,41.5881,朝阳市,西梁,,21,21,33,12,5,40,,63,63,36,8,11,3,0.6,0.5
2025-01-09T0800,2221A,120.4521,41.5646,朝阳市,河畔小区,,20,8,38,8,6,64,,69,69,10,5,6,6,0.4,0.3
2025-01-09T0800,2222A,120.4176,41.5648,朝阳市,八里堡,,19,19,48,8,7,52,,65,65,16,3,7,6,0.6,0.3
2025-01-09T0800,2223A,120.3806,41.5969,朝阳市,农业园区,,35,,33,24,13,58,,74,74,16,2,5,4,0.5,0.4
2025-01-09T0800,1705A,116.6367,23.6719,潮州市,西园路,细颗粒物(PM2.5),55,49,76,39,42,58,,55,55,17,22,5,6,0.2,0.2
2025-01-09T0800,3026A,116.6183,23.6608,潮州市,市政府,,48,48,69,30,36,59,,64,64,15,21,4,6,0.4,0.4
2025-01-09T0800,4036A,116.6461,23.6761,潮州市,金山,细颗粒物(PM2.5),52,50,65,36,42,47,,50,50,18,20,5,7,0.5,0.5
2025-01-09T0800,2472A,113.0073,25.9061,郴州市,马头岭,细颗粒物(PM2.5),67,74,114,48,61,38,,45,45,29,33,10,13,0.6,0.8
2025-01-09T0800,2473A,113.0116,25.8226,郴州市,市职中,细颗粒物(PM2.5),63,64,97,45,67,21,,29,29,28,32,6,9,0.7,0.9
2025-01-09T0800,2474A,113.0161,25.8001,郴州市,兴隆步行街,细颗粒物(PM2.5),80,77,113,59,76,22,,30,30,29,33,6,9,0.6,0.8
2025-01-09T0800,2475A,113.0383,25.8071,郴州市,市审计局,细颗粒物(PM2.5),72,70,104,52,72,22,,30,30,25,28,4,8,0.9,1
2025-01-09T0800,2476A,113.0348,25.7759,郴州市,市环保局,细颗粒物(PM2.5),80,70,110,59,76,27,,34,34,24,31,7,10,0.5,0.7
2025-01-09T0800,1431A,103.9728,30.7236,成都市,金泉两河,细颗粒物(PM2.5),97,97,58,72,32,1,,4,4,54,47,2,2,1.2,0.8
2025-01-09T0800,1432A,104.176,30.6872,成都市,十里店,细颗粒物(PM2.5),69,67,58,50,39,4,,13,13,58,47,2,2,0.5,0.5
2025-01-09T0800,1433A,104.079,30.5706,成都市,三瓦窑,颗粒物(PM10),59,68,56,37,34,1,,2,2,54,47,3,2,0.6,0.5
2025-01-09T0800,1434A,104.1114,30.63,成都市,沙河铺,细颗粒物(PM2.5),59,62,56,42,34,3,,10,10,40,37,3,4,0.6,0.5
2025-01-09T0800,1437A,104.0786,30.6531,成都市,君平街,,,,48,,30,,,51,,,37,,5,,0.7
2025-01-09T0800,1438A,103.613,31.0283,成都市,灵岩寺,,,,,,,,,,,,,,,,
2025-01-09T0800,2880A,104.0239,30.65639,成都市,大石西路,颗粒物(PM10),56,62,53,29,30,0,,16,16,48,39,3,4,0.9,0.6
2025-01-09T0800,3136A,104.2725,30.5589,成都市,龙泉驿区区政府,细颗粒物(PM2.5),58,53,47,41,35,18,,32,32,29,27,3,2,0.5,0.4
2025-01-09T0800,3357A,104.0106,30.6931,成都市,金博路,细颗粒物(PM2.5),87,99,51,64,30,2,,8,8,51,40,2,2,1.0,0.6
2025-01-09T0800,3359A,104.0578,30.5225,成都市,华阳,细颗粒物(PM2.5),58,53,53,41,38,4,,15,15,48,36,3,2,0.8,0.6
2025-01-09T0800,3487A,104.2394,30.5319,成都市,车城东七路,细颗粒物(PM2.5),53,54,52,37,37,4,,22,22,42,31,1,1,0.6,0.4
2025-01-09T0800,3488A,104.3853,30.7453,成都市,青白江技师分院,细颗粒物(PM2.5),65,59,47,47,33,2,,14,14,40,32,1,2,0.5,0.4
2025-01-09T0800,3489A,104.0789,30.4072,成都市,科学城,,50,47,56,35,42,6,,16,16,21,23,4,4,0.5,0.6
2025-01-09T0800,4011A,103.8506,30.6947,成都市,光华大道三段,细颗粒物(PM2.5),89,82,54,66,31,0,,11,11,39,31,1,1,0.8,0.5
2025-01-09T0800,1062A,117.9531,40.9081,承德市,铁路,,35,35,30,3,5,64,,67,67,7,3,5,4,0.2,0.2
2025-01-09T0800,1063A,117.9392,40.9763,承德市,中国银行,,20,18,27,3,6,63,,66,66,2,2,2,2,0.2,0.2
2025-01-09T0800,1064A,117.9503,40.928,承德市,开发区,,31,31,34,17,14,72,,73,73,2,1,3,2,0.3,0.3
2025-01-09T0800,1065A,117.8051,40.9655,承德市,文化中心,,22,12,25,6,4,70,,71,71,4,3,3,2,0.2,0.2
2025-01-09T0800,1066A,117.9268,41.0026,承德市,离宫,,32,25,23,22,20,65,,66,66,4,2,5,5,0.2,0.2
2025-01-09T0800,2314A,117.47,30.6618,池州市,池州学院,,49,49,69,26,41,31,,31,31,28,32,7,10,0.4,0.5
2025-01-09T0800,3237A,117.4918,30.6617,池州市,展览馆,,,,64,,39,,,38,,,36,,10,,0.7
2025-01-09T0800,3333A,117.5627,30.695,池州市,第八中学,颗粒物(PM10),52,54,78,29,44,24,,25,25,33,35,6,8,0.4,0.5
2025-01-09T0800,3334A,117.5038,30.6243,池州市,第十二中学,细颗粒物(PM2.5),58,64,71,41,43,12,,12,12,47,40,5,7,0.5,0.5
2025-01-09T0800,1744A,118.9233,42.2816,赤峰市,松山一中,,18,10,27,8,4,56,,65,65,16,8,8,7,0.7,0.6
2025-01-09T0800,1745A,118.9576,42.2728,赤峰市,哈达街,,20,20,21,12,13,47,,57,57,23,18,4,4,0.7,0.6
2025-01-09T0800,1746A,118.8788,42.2554,赤峰市,天义路,,15,9,24,3,5,38,,57,57,30,11,8,8,0.6,0.6
2025-01-09T0800,3058A,119.2658,42.0353,赤峰市,银河街,,17,17,42,6,12,50,,56,56,17,11,20,15,0.8,0.5
2025-01-09T0800,3286A,118.9359,42.3147,赤峰市,桥北物流园区,,18,12,14,6,6,55,,67,67,23,18,8,5,0.7,0.6
2025-01-09T0800,2521A,107.3476,22.4136,崇左市,市环保局江州分局,细颗粒物(PM2.5),75,96,115,55,63,48,,60,60,15,20,15,11,0.8,0.9
2025-01-09T0800,2522A,107.3702,22.3707,崇左市,城南新区,细颗粒物(PM2.5),67,76,98,48,60,46,,59,59,25,25,9,10,0.8,0.9
2025-01-09T0800,2298A,118.3093,32.3153,滁州市,老年大学,颗粒物(PM10),52,53,72,20,40,18,,24,24,40,38,3,6,0.5,0.5
2025-01-09T0800,2299A,118.3244,32.2786,滁州市,人大宾馆,颗粒物(PM10),53,55,76,25,41,24,,32,32,31,31,8,11,0.6,0.6
2025-01-09T0800,3207A,118.3118,32.3038,滁州市,市政府原办公楼,颗粒物(PM10),53,56,68,26,43,23,,28,28,39,38,11,8,0.2,0.3
2025-01-09T0800,3331A,118.3267,32.2634,滁州市,图书馆,颗粒物(PM10),52,54,75,20,36,27,,33,33,30,30,6,8,0.3,0.4
2025-01-09T0800,2605A,101.5482,25.0441,楚雄彝族自治州,州环境监测站,,45,42,29,31,25,4,,27,27,32,17,10,7,0.8,0.5
2025-01-09T0800,2606A,101.538,25.0492,楚雄彝族自治州,市经济开发区,,30,30,31,13,23,6,,26,26,26,18,6,7,0.5,0.5
2025-01-09T0800,2548A,107.5277,31.2827,达州市,达州职业技术学院,细颗粒物(PM2.5),88,84,80,65,61,6,,6,6,15,21,6,5,0.7,0.5
2025-01-09T0800,2549A,107.5086,31.2186,达州市,市环境监测站,细颗粒物(PM2.5),83,82,87,61,54,9,,5,5,30,40,6,6,0.9,0.8
2025-01-09T0800,2550A,107.4988,31.2132,达州市,凤凰小区,细颗粒物(PM2.5),85,78,80,63,58,4,,4,4,28,38,7,7,0.8,0.8
2025-01-09T0800,2551A,107.5082,31.1986,达州市,达县机关宾馆,细颗粒物(PM2.5),79,70,82,58,57,3,,3,3,31,41,6,6,1.0,0.8
2025-01-09T0800,2552A,107.4644,31.2124,达州市,市政中心,"颗粒物(PM10),细颗粒物(PM2.5)",70,89,91,51,54,4,,4,4,37,46,4,4,1.2,1
2025-01-09T0800,2614A,100.1542,25.7054,大理白族自治州,大理市环境监测站,,33,,12,23,17,51,,54,54,6,10,7,6,0.5,0.5
2025-01-09T0800,2615A,100.2171,25.5811,大理白族自治州,大理古城,,20,20,11,11,15,19,,41,41,27,12,5,5,0.7,0.7
2025-01-09T0800,1109A,121.612,38.9741,大连市,甘井子,,32,32,38,3,7,69,,70,70,12,12,5,6,0.6,0.6
2025-01-09T0800,1110A,121.565,38.9511,大连市,周水子,,38,38,36,8,9,59,,60,60,16,15,18,13,0.5,0.5
2025-01-09T0800,1111A,121.5637,38.8845,大连市,星海三站,,39,39,36,6,9,62,,63,63,6,7,6,8,0.4,0.4
2025-01-09T0800,1112A,121.6302,38.9117,大连市,青泥洼桥,,24,24,34,3,7,60,,59,59,5,11,10,10,0.4,0.4
2025-01-09T0800,1113A,121.6251,38.8638,大连市,傅家庄,,29,29,32,3,8,64,,64,64,6,8,7,9,0.5,0.5
2025-01-09T0800,1114A,121.5213,38.8661,大连市,七贤岭,颗粒物(PM10),56,61,51,6,8,62,,64,64,12,9,7,8,0.6,0.6
2025-01-09T0800,1115A,121.2529,38.8061,大连市,旅顺,,42,42,32,6,6,68,,70,70,8,7,9,9,0.8,0.5
2025-01-09T0800,1116A,121.7485,39.1311,大连市,金州,,30,30,40,6,11,68,,68,68,8,10,6,7,0.4,0.5
2025-01-09T0800,1117A,121.7811,39.0496,大连市,开发区,,26,26,30,3,8,63,,64,64,11,11,12,12,0.4,0.4
2025-01-09T0800,1118A,121.9762,39.0631,大连市,双D港,,24,17,40,3,9,75,,71,71,5,7,8,8,0.6,0.6
2025-01-09T0800,1789A,124.81117,46.03138,大庆市,大同区,,50,,46,35,41,36,,30,30,19,20,6,5,0.5,0.5
2025-01-09T0800,1790A,125.129,46.533,大庆市,龙凤区,,43,43,49,28,32,27,,32,32,42,34,6,5,0.8,0.7
2025-01-09T0800,1791A,124.902,46.408,大庆市,红岗区,,26,26,34,17,23,35,,33,33,19,22,6,6,0.5,0.5
2025-01-09T0800,1792A,125.153,46.586,大庆市,萨尔图区,,36,,41,25,34,23,,35,35,59,35,4,5,0.6,0.5
2025-01-09T0800,1793A,124.9042,46.6215,大庆市,让胡路区,,50,40,40,35,37,30,,47,47,39,21,7,7,0.6,0.5
2025-01-09T0800,3481A,125.141,46.634,大庆市,萨区政府监测点,,38,38,47,24,33,23,,34,34,41,30,4,5,0.6,0.6
2025-01-09T0800,1721A,113.3819,40.1097,大同市,果树场,,40,,19,28,11,31,,30,30,33,23,10,9,0.4,0.5
2025-01-09T0800,1723A,113.2994,40.0758,大同市,云冈宾馆,,29,29,21,15,7,25,,33,33,32,14,17,11,0.8,0.7
2025-01-09T0800,1724A,113.3444,40.0917,大同市,大同大学,,20,20,19,8,7,38,,38,38,13,10,14,14,0.5,0.5
2025-01-09T0800,1725A,113.2661,40.1269,大同市,安家小村,,19,13,18,13,5,40,,37,37,17,13,18,15,0.8,0.6
2025-01-09T0800,1726A,113.2711,40.0844,大同市,教育学院,颗粒物(PM10),56,62,25,26,9,6,,19,19,50,23,26,11,1.1,0.6
2025-01-09T0800,3282A,113.3397,40.0597,大同市,大同市卫生学校,,24,24,17,8,9,41,,41,41,16,13,8,8,1.1,0.7
2025-01-09T0800,3565A,113.1367,40.1122,大同市,云冈站,,50,50,33,26,12,7,,6,6,44,30,34,21,0.8,0.6
2025-01-09T0800,3566A,113.1186,40.2556,大同市,图书馆,,30,30,21,19,12,11,,25,25,27,13,14,10,0.6,0.5
2025-01-09T0800,3567A,113.5931,40.0461,大同市,区一中,,43,43,22,30,11,14,,32,32,44,14,17,9,1.2,0.5
2025-01-09T0800,3676A,113.2802,40.0995,大同市,第二人民医院,,30,30,23,14,9,19,,30,30,42,20,19,13,1.0,0.7
2025-01-09T0800,2269A,124.1069,50.4097,大兴安岭地区,科技局,,23,12,16,12,15,72,,74,74,4,4,6,5,0.3,0.2
2025-01-09T0800,3663A,124.1164,50.4278,大兴安岭地区,红旗社区,,22,6,13,3,8,68,,70,70,4,8,1,3,0.2,0.3
2025-01-09T0800,1600A,124.3303,40.0625,丹东市,江湾东路,,30,30,30,21,14,43,,57,57,21,11,9,6,0.6,0.5
2025-01-09T0800,1601A,124.4256,40.1503,丹东市,临江后街,,35,35,27,18,11,51,,58,58,15,12,5,6,0.7,0.6
2025-01-09T0800,1602A,124.3933,40.1461,丹东市,元宝山,,30,30,28,15,14,43,,50,50,16,10,9,6,0.9,0.8
2025-01-09T0800,1603A,124.3633,40.1092,丹东市,民主桥,,33,33,35,18,13,36,,53,53,25,14,10,8,0.8,0.6
2025-01-09T0800,3541A,109.5726,19.5167,儋州市,第一中学子站,颗粒物(PM10),61,72,53,30,24,88,,92,92,9,7,5,6,0.6,0.6
2025-01-09T0800,3542A,109.5567,19.5187,儋州市,东坡学校子站,颗粒物(PM10),58,66,51,31,23,98,,104,104,8,6,6,6,0.6,0.6
2025-01-09T0800,2616A,98.5842,24.428,德宏傣族景颇族自治州,德宏州监测站,,45,42,50,31,26,10,,19,19,25,22,8,13,0.7,0.6
2025-01-09T0800,3677A,98.5881,24.4368,德宏傣族景颇族自治州,芒市人民政府综合楼,,41,41,49,24,29,6,,19,19,24,17,7,9,0.7,0.6
2025-01-09T0800,1901A,104.4239,31.1208,德阳市,东山公园,细颗粒物(PM2.5),65,59,46,47,35,25,,34,34,33,25,2,2,0.5,0.5
2025-01-09T0800,1902A,104.3826,31.1317,德阳市,西小区,细颗粒物(PM2.5),73,76,63,53,42,2,,9,9,53,41,2,3,1.1,0.7
2025-01-09T0800,1904A,104.3553,31.1091,德阳市,耐火材料厂,细颗粒物(PM2.5),77,70,59,56,41,2,,8,8,41,40,6,5,1.1,0.7
2025-01-09T0800,3639A,104.4019,31.1244,德阳市,市教育局,细颗粒物(PM2.5),68,56,52,49,39,2,,8,8,49,42,4,4,1.0,0.7
2025-01-09T0800,1622A,116.3032,37.4674,德州市,儿童乐园,颗粒物(PM10),62,73,67,34,16,10,,11,11,55,34,8,6,0.9,0.7
2025-01-09T0800,1624A,116.2991,37.4451,德州市,监理站,,29,29,57,19,12,31,,29,29,40,27,10,9,0.6,0.5
2025-01-09T0800,3066A,116.2721,37.4379,德州市,九衢泉纯净水厂,颗粒物(PM10),68,85,77,29,22,24,,14,14,42,30,12,10,0.6,0.6
2025-01-09T0800,3371A,116.3728,37.4403,德州市,开发区人民医院,,48,48,66,22,18,21,,16,16,48,37,11,9,0.5,0.5
2025-01-09T0800,3372A,116.3572,37.4094,德州市,太阳城中学,,39,39,72,22,21,36,,20,20,36,41,8,8,0.5,0.6
2025-01-09T0800,3511A,116.5652,37.3319,德州市,陵城艺术中心,颗粒物(PM10),63,75,74,31,21,6,,8,8,53,27,15,9,0.8,0.7
2025-01-09T0800,2621A,99.7056,27.8317,迪庆藏族自治州,迪庆州站,,18,15,19,12,15,8,,8,8,8,10,9,9,0.4,0.5
2025-01-09T0800,3180A,99.7136,27.8094,迪庆藏族自治州,质量技术监督局,,29,,16,20,13,53,,65,65,10,10,8,7,0.5,0.5
2025-01-09T0800,2663A,104.6241,35.5734,定西市,东关小学,细颗粒物(PM2.5),94,92,75,70,45,14,,14,14,22,26,13,15,1.2,1
2025-01-09T0800,2664A,104.6194,35.5934,定西市,供电公司,细颗粒物(PM2.5),88,96,73,65,47,2,,4,4,39,35,11,14,2.0,1.5
2025-01-09T0800,1389A,113.7547,23.0494,东莞市,莞城梨川,颗粒物(PM10),61,72,86,41,50,71,,60,60,37,48,10,8,0.7,0.8
2025-01-09T0800,1390A,113.7944,23.0128,东莞市,东城石井,颗粒物(PM10),58,65,72,38,44,62,,58,58,40,36,11,8,0.7,0.7
2025-01-09T0800,1391A,113.7383,22.9658,东莞市,南城西平,颗粒物(PM10),62,74,91,40,50,47,,18,18,63,80,7,7,0.6,0.7
2025-01-09T0800,3319A,113.7338,23.0381,东莞市,万江金泰,颗粒物(PM10),59,67,77,38,47,69,,62,62,34,44,8,10,0.7,0.8
2025-01-09T0800,3626A,113.7533,23.0202,东莞市,南城元岭,,,69,85,40,51,65,,60,60,,48,11,10,0.8,0.9
2025-01-09T0800,3627A,113.7875,23.0457,东莞市,东城主山,颗粒物(PM10),58,66,81,38,46,65,,45,45,35,50,13,12,0.8,0.8
2025-01-09T0800,1666A,118.6614,37.4309,东营市,市环保局,,29,29,27,14,9,25,,34,34,40,20,14,8,0.6,0.5
2025-01-09T0800,3036A,118.6904,37.4338,东营市,开发区管委会,,37,37,31,14,9,23,,33,33,49,25,12,6,0.6,0.5
2025-01-09T0800,3365A,118.5719,37.565,东营市,垦利区民丰路,,27,27,24,9,7,19,,23,23,35,26,16,12,0.4,0.3
2025-01-09T0800,3498A,118.5055,37.8612,东营市,河口城区,,21,17,22,3,1,65,,68,68,11,11,1,2,0.4,0.4
2025-01-09T0800,3646A,118.4978,37.4623,东营市,胜利站,,40,40,34,14,12,20,,22,22,37,24,19,8,0.6,0.4
2025-01-09T0800,3734A,118.35,37.26,东营市,理想之城,,31,31,32,12,9,24,,32,32,43,26,18,8,0.5,0.4
2025-01-09T0800,1591A,110.0023,39.8129,鄂尔多斯市,综合楼,颗粒物(PM10),53,56,35,19,10,10,,37,37,59,29,15,13,0.9,0.7
2025-01-09T0800,1592A,109.9486,39.8261,鄂尔多斯市,巴音孟克林场办事处,,41,41,36,22,13,17,,29,29,47,32,14,13,0.6,0.5
2025-01-09T0800,1593A,109.7736,39.5986,鄂尔多斯市,康泽苑,,27,27,18,9,9,27,,31,31,22,17,6,8,0.8,0.5
2025-01-09T0800,1594A,109.8119,39.5989,鄂尔多斯市,华泰汽车城,,27,27,24,12,10,10,,14,14,33,27,7,9,0.5,0.6
2025-01-09T0800,1595A,109.9734,39.7884,鄂尔多斯市,奥林花园,,44,44,36,17,11,6,,32,32,56,29,8,10,0.9,0.7
2025-01-09T0800,2436A,114.8938,30.3994,鄂州市,市政府,颗粒物(PM10),56,61,61,37,35,37,,39,39,28,32,9,11,0.7,0.7
2025-01-09T0800,2437A,114.8989,30.3714,鄂州市,赵家坝,颗粒物(PM10),60,70,65,32,36,40,,44,44,26,32,8,11,0.5,0.6
2025-01-09T0800,3654A,114.8094,30.4089,鄂州市,精准医疗中心,颗粒物(PM10),65,80,66,41,38,24,,24,24,32,34,11,12,0.5,0.6
2025-01-09T0800,2454A,109.4978,30.2981,恩施土家族苗族自治州,湖北民院,细颗粒物(PM2.5),65,54,59,47,69,31,,8,8,5,14,8,7,0.6,0.8
2025-01-09T0800,2455A,109.4707,30.2798,恩施土家族苗族自治州,州电力总公司,细颗粒物(PM2.5),64,56,72,46,63,25,,11,11,23,29,8,8,0.7,0.9
2025-01-09T0800,3549A,109.5061,30.3772,恩施土家族苗族自治州,龙凤新区,细颗粒物(PM2.5),64,61,68,46,52,6,,6,6,11,19,5,6,0.8,0.8
2025-01-09T0800,2499A,108.3411,21.6158,防城港市,沙万,细颗粒物(PM2.5),87,84,98,64,73,66,,82,82,26,30,11,10,0.6,0.7
2025-01-09T0800,2500A,108.3514,21.7731,防城港市,防城档案局,颗粒物(PM10),87,124,123,60,68,61,,67,67,27,33,9,9,0.7,0.8
2025-01-09T0800,2501A,108.3506,21.6414,防城港市,大海花园,细颗粒物(PM2.5),89,95,102,66,75,67,,84,84,20,24,10,9,0.8,0.8
2025-01-09T0800,1371A,113.1294,23.0067,佛山市,湾梁,颗粒物(PM10),60,70,90,39,43,63,,46,46,50,62,8,8,0.6,0.7
2025-01-09T0800,1372A,113.1083,23.0478,佛山市,华材职中,颗粒物(PM10),76,102,100,55,60,21,,31,31,97,83,9,10,0.9,0.9
2025-01-09T0800,1373A,113.144,23.0453,佛山市,南海气象局,细颗粒物(PM2.5),59,66,79,42,50,52,,39,39,54,62,9,10,0.7,0.8
2025-01-09T0800,1374A,113.2881,22.8094,佛山市,顺德苏岗,细颗粒物(PM2.5),70,82,88,51,60,13,,8,8,85,75,8,8,0.8,0.8
2025-01-09T0800,1376A,112.8383,22.8678,佛山市,高明孔堂,细颗粒物(PM2.5),82,95,99,60,64,39,,49,49,47,46,12,11,0.9,0.8
2025-01-09T0800,1377A,112.8836,23.1588,佛山市,三水监测站,细颗粒物(PM2.5),94,114,97,70,65,54,,64,64,42,44,16,17,1.0,0.9
2025-01-09T0800,1378A,112.867,23.185,佛山市,三水云东海,细颗粒物(PM2.5),90,94,79,67,55,50,,58,58,41,43,13,14,0.8,0.8
2025-01-09T0800,3625A,113.2544,22.7642,佛山市,容桂街道办,颗粒物(PM10),67,83,107,44,62,46,,19,19,59,83,10,10,0.7,0.9
2025-01-09T0800,1280A,119.3903,26.0543,福州市,鼓山,,,,43,,19,,,90,,,15,,2,,0.4
2025-01-09T0800,1282A,119.2681,26.0504,福州市,师大,,48,48,48,28,26,13,,40,40,48,27,3,4,0.5,0.4
2025-01-09T0800,1283A,119.2984,26.1028,福州市,五四北路,,47,47,50,31,26,28,,37,37,41,28,1,2,0.5,0.4
2025-01-09T0800,1284A,119.2648,26.0768,福州市,杨桥西路,颗粒物(PM10),51,52,52,28,26,14,,35,35,43,26,1,2,0.6,0.5
2025-01-09T0800,1285A,119.317,26.0746,福州市,紫阳,颗粒物(PM10),56,62,58,33,29,9,,36,36,56,40,3,4,0.5,0.4
2025-01-09T0800,3048A,119.5799,26.0936,福州市,九龙,,35,35,35,22,20,63,,54,54,19,16,2,2,0.4,0.4
2025-01-09T0800,3526A,119.5189,25.9664,福州市,吴航,,46,46,44,26,23,37,,52,52,42,27,2,3,0.6,0.5
2025-01-09T0800,1755A,123.7977,41.8491,抚顺市,望花区,,,,39,,18,,,,,,12,,2,,0.5
2025-01-09T0800,1756A,123.9161,41.8822,抚顺市,顺城区,细颗粒物(PM2.5),87,90,44,64,27,13,,28,28,45,20,6,4,1.4,0.6
2025-01-09T0800,1757A,124.0436,41.8611,抚顺市,东洲区,细颗粒物(PM2.5),103,98,51,77,29,21,,37,37,28,12,5,3,1.3,0.7
2025-01-09T0800,1758A,123.9247,41.8642,抚顺市,新抚区,细颗粒物(PM2.5),98,92,45,73,30,15,,30,30,45,22,3,3,1.1,0.5
2025-01-09T0800,1759A,124.0972,41.8961,抚顺市,大伙房水库,细颗粒物(PM2.5),90,80,43,67,28,14,,27,27,33,17,6,7,0.8,0.5
2025-01-09T0800,1760A,123.7086,41.8391,抚顺市,沈抚新城,细颗粒物(PM2.5),70,,42,51,25,14,,16,16,39,21,5,4,0.7,0.5
2025-01-09T0800,2376A,116.2127,28.0814,抚州市,桐源党溪,颗粒物(PM10),58,66,65,23,33,39,,22,22,2,16,3,4,0.4,0.6
2025-01-09T0800,2377A,116.3544,27.9831,抚州市,市站,颗粒物(PM10),52,54,79,30,43,39,,24,24,21,38,5,11,1.2,1.2
2025-01-09T0800,2378A,116.3565,27.963,抚州市,血防站,颗粒物(PM10),58,65,81,33,41,39,,28,28,20,34,8,12,0.6,0.8
2025-01-09T0800,2379A,116.3564,28.0007,抚州市,采茶剧团,颗粒物(PM10),53,55,77,32,41,31,,17,17,12,32,1,5,1.0,1.2
2025-01-09T0800,2380A,116.385,27.9647,抚州市,医学分院,颗粒物(PM10),56,62,86,30,40,29,,16,16,15,32,18,14,0.6,0.9
2025-01-09T0800,2207A,121.6094,41.998,阜新市,工业园区,,22,22,45,14,8,39,,56,56,28,7,4,2,0.5,0.4
2025-01-09T0800,2208A,121.6697,42.0279,阜新市,长青街,,18,7,28,6,6,57,,62,62,10,5,5,11,0.3,0.3
2025-01-09T0800,2209A,121.6673,42.0705,阜新市,农业园区,,19,6,23,3,4,58,,61,61,4,3,8,7,0.7,0.6
2025-01-09T0800,2210A,121.6717,42.0224,阜新市,东苑,,17,17,38,3,6,54,,58,58,8,5,8,19,0.5,0.3
2025-01-09T0800,2211A,121.6506,42.0498,阜新市,玉龙新城,,22,22,38,8,7,41,,61,61,28,8,4,3,0.6,0.5
2025-01-09T0800,2301A,115.8277,32.8929,阜阳市,市监测站,,45,45,60,22,33,23,,32,32,34,28,7,9,0.4,0.4
2025-01-09T0800,2303A,115.8554,32.8605,阜阳市,开发区,颗粒物(PM10),62,74,72,23,27,20,,32,32,35,24,9,10,0.5,0.5
2025-01-09T0800,2875A,115.784,32.8892,阜阳市,阜阳职业技术学院,颗粒物(PM10),52,54,60,31,31,27,,38,38,27,21,9,11,0.5,0.5
2025-01-09T0800,3468A,115.7901,32.8613,阜阳市,市规划展馆,,45,45,61,19,26,30,,40,40,29,23,9,10,0.7,0.7
2025-01-09T0800,3469A,115.836,32.9183,阜阳市,枣园社区,颗粒物(PM10),51,51,58,21,27,22,,32,32,32,26,6,9,0.4,0.3
2025-01-09T0800,2669A,102.9099,34.9841,甘南藏族自治州,州政府,细颗粒物(PM2.5),64,67,62,46,44,7,,16,16,36,28,8,9,0.9,0.8
2025-01-09T0800,3380A,102.8914,34.9617,甘南藏族自治州,甘肃民族师范学院,颗粒物(PM10),65,79,81,37,41,9,,12,12,42,39,4,7,0.6,0.6
2025-01-09T0800,2570A,101.9603,30.0475,甘孜藏族自治州,水桥子,,23,18,12,16,7,34,,57,57,21,15,2,2,0.8,0.7
2025-01-09T0800,3065A,101.9533,29.9972,甘孜藏族自治州,州环保局,,15,9,16,7,6,47,,61,61,10,12,4,4,0.5,0.5
2025-01-09T0800,3414A,115.8347,28.932,赣江新区,桑海产业园,颗粒物(PM10),82,114,102,52,51,26,,28,28,33,48,16,15,0.8,0.7
2025-01-09T0800,2362A,114.9017,25.9149,赣州市,通天岩,细颗粒物(PM2.5),59,42,70,42,37,31,,45,45,12,9,2,4,0.6,0.6
2025-01-09T0800,2363A,114.9367,25.8664,赣州市,地委,颗粒物(PM10),60,69,67,38,36,40,,47,47,22,19,1,3,1.3,1.2
2025-01-09T0800,2364A,114.9461,25.8481,赣州市,气象台,颗粒物(PM10),67,84,80,33,31,42,,54,54,35,27,16,13,0.9,0.8
2025-01-09T0800,2365A,114.9322,25.8333,赣州市,市图书馆,颗粒物(PM10),61,72,77,35,36,43,,51,51,27,25,7,7,0.8,0.8
2025-01-09T0800,2366A,114.8905,25.8471,赣州市,华坚鞋城,颗粒物(PM10),58,65,73,35,32,46,,54,54,21,18,11,9,0.5,0.5
2025-01-09T0800,3109A,115.0093,25.8613,赣州市,赣县区卫计委,细颗粒物(PM2.5),69,77,83,50,49,38,,45,45,25,19,7,9,0.6,0.5
2025-01-09T0800,2683A,106.2319,36.1417,固原市,马园,,49,49,68,25,35,14,,10,10,35,43,7,8,1.2,1.1
2025-01-09T0800,2684A,106.2792,36.0022,固原市,监测站,,36,36,44,23,32,20,,28,28,41,31,10,13,1.0,1.1
2025-01-09T0800,2685A,106.2375,36.0211,固原市,新区,,50,50,47,30,22,10,,8,8,57,44,8,8,1.3,0.9
2025-01-09T0800,3522A,106.2177,35.9959,固原市,原州区十五小,,27,27,36,15,19,54,,46,46,20,23,8,10,0.6,0.8
2025-01-09T0800,2543A,106.6308,30.5278,广安市,小平旧居,,,,,,,,,,,,,,,,
2025-01-09T0800,2544A,106.6303,30.4576,广安市,市委,细颗粒物(PM2.5),74,54,50,54,44,23,,17,17,19,23,2,2,0.7,0.7
2025-01-09T0800,2545A,106.6271,30.4663,广安市,友谊中学,细颗粒物(PM2.5),70,,50,51,42,20,,12,12,21,24,2,2,0.8,0.8
2025-01-09T0800,2547A,106.6388,30.4551,广安市,广电花园,细颗粒物(PM2.5),68,,47,49,41,15,,12,12,21,24,2,2,0.4,0.5
2025-01-09T0800,2902A,106.6351,30.4865,广安市,北辰小学,细颗粒物(PM2.5),59,47,46,42,41,20,,18,18,22,21,2,2,0.8,0.8
2025-01-09T0800,2523A,105.8945,32.4535,广元市,黑石坡,颗粒物(PM10),53,56,43,35,32,23,,43,43,21,16,5,6,0.7,0.5
2025-01-09T0800,2524A,105.821,32.4444,广元市,老城,颗粒物(PM10),57,63,53,31,25,3,,3,3,51,50,3,3,1.2,0.9
2025-01-09T0800,2526A,105.8628,32.4287,广元市,监测站,"颗粒物(PM10),细颗粒物(PM2.5)",57,64,47,40,40,7,,23,23,42,32,3,3,0.7,0.7
2025-01-09T0800,3617A,105.8047,32.4166,广元市,经开区,细颗粒物(PM2.5),62,70,61,44,28,4,,4,4,44,47,5,8,1.0,0.9
2025-01-09T0800,1345A,113.2347,23.1423,广州市,广雅中学,颗粒物(PM10),65,79,96,44,53,68,,45,45,47,70,10,11,0.5,0.8
2025-01-09T0800,1346A,113.2612,23.105,广州市,市五中,细颗粒物(PM2.5),72,72,86,52,61,72,,78,78,39,41,5,6,0.7,0.8
2025-01-09T0800,1348A,113.3478,23.0916,广州市,广东商学院,细颗粒物(PM2.5),60,68,75,43,47,72,,75,75,42,44,5,6,0.6,0.7
2025-01-09T0800,1349A,113.4332,23.1047,广州市,市八十六中,细颗粒物(PM2.5),70,85,91,51,52,50,,51,51,61,68,7,8,0.8,0.8
2025-01-09T0800,1350A,113.3505,22.9483,广州市,番禺中学,细颗粒物(PM2.5),68,83,98,49,55,38,,47,47,77,72,6,7,0.9,1
2025-01-09T0800,1351A,113.2146,23.3916,广州市,花都师范,颗粒物(PM10),61,72,73,40,46,78,,90,90,25,30,11,10,0.6,0.7
2025-01-09T0800,1352A,113.2597,23.1331,广州市,市监测站,颗粒物(PM10),61,72,81,42,46,76,,68,68,42,46,7,8,0.7,0.8
2025-01-09T0800,1353A,113.5618,23.312,广州市,九龙镇镇龙,"颗粒物(PM10),细颗粒物(PM2.5)",57,63,80,40,52,83,,62,62,22,41,6,7,0.7,0.7
2025-01-09T0800,1354A,113.2765,23.1544,广州市,麓湖,细颗粒物(PM2.5),63,68,72,45,48,73,,40,40,34,50,5,6,0.7,0.8
2025-01-09T0800,1355A,113.443,23.3035,广州市,帽峰山森林公园,颗粒物(PM10),57,63,57,21,28,82,,86,86,23,22,7,9,0.6,0.6
2025-01-09T0800,2846A,113.3221,23.1322,广州市,体育西,颗粒物(PM10),61,72,82,43,49,64,,65,65,34,35,6,7,0.7,0.8
2025-01-09T0800,3298A,113.5717,23.5491,广州市,从化街口,颗粒物(PM10),56,62,78,38,55,73,,53,53,25,46,8,8,0.6,0.8
2025-01-09T0800,3299A,113.3472,23.3692,广州市,白云竹料,颗粒物(PM10),61,71,80,42,50,68,,62,62,31,37,8,10,0.8,0.9
2025-01-09T0800,3300A,113.2981,23.237,广州市,白云嘉禾,颗粒物(PM10),63,76,90,44,51,62,,58,58,51,65,9,10,0.7,0.9
2025-01-09T0800,3301A,113.4256,23.1716,广州市,黄埔科学城,细颗粒物(PM2.5),59,65,67,42,45,74,,73,73,30,30,7,7,0.7,0.8
2025-01-09T0800,3302A,113.3942,23.0483,广州市,番禺大学城,"颗粒物(PM10),细颗粒物(PM2.5)",63,75,83,45,46,33,,40,40,79,66,10,11,1.0,0.9
2025-01-09T0800,3303A,113.4922,22.8168,广州市,南沙黄阁,"颗粒物(PM10),细颗粒物(PM2.5)",63,75,102,45,59,34,,32,32,69,68,8,9,0.9,0.9
2025-01-09T0800,3304A,113.5342,22.7896,广州市,南沙街,颗粒物(PM10),64,78,93,42,56,55,,49,49,53,56,8,7,0.7,0.7
2025-01-09T0800,3443A,113.2902,23.5544,广州市,花都梯面,,,70,69,,45,70,,79,79,24,36,17,14,0.8,0.8
2025-01-09T0800,3445A,113.7858,23.7478,广州市,从化良口,,50,49,51,35,38,57,,66,66,20,18,5,6,0.7,0.7
2025-01-09T0800,3446A,113.8051,23.2614,广州市,增城荔城,颗粒物(PM10),55,60,61,35,41,85,,99,99,18,19,7,7,0.7,0.7
2025-01-09T0800,2505A,109.568,23.1478,贵港市,德智高中,,,,,,,,,,,,,,,,
2025-01-09T0800,2506A,109.6047,23.0666,贵港市,江南子站,细颗粒物(PM2.5),83,95,106,61,65,54,,58,58,24,25,8,8,0.9,0.8
2025-01-09T0800,2507A,109.6014,23.0948,贵港市,贵城子站,细颗粒物(PM2.5),87,83,95,64,67,48,,50,50,21,21,12,12,0.9,0.9
2025-01-09T0800,2508A,109.5669,23.1065,贵港市,荷城子站,细颗粒物(PM2.5),77,92,105,56,60,47,,53,53,24,25,14,14,0.8,0.8
2025-01-09T0800,3405A,109.5886,23.1172,贵港市,新世纪学校,细颗粒物(PM2.5),80,107,118,59,64,45,,49,49,25,26,14,15,0.8,0.8
2025-01-09T0800,1439A,106.6899,26.5998,贵阳市,马鞍山,,22,22,34,9,22,16,,24,24,14,22,3,4,0.5,0.5
2025-01-09T0800,1440A,106.6971,26.5694,贵阳市,市环保站,,11,,32,3,29,35,,39,39,15,25,5,9,0.6,0.8
2025-01-09T0800,1441A,106.6243,26.6266,贵阳市,鉴湖路,,22,22,29,14,22,13,,19,19,14,17,5,6,0.9,0.7
2025-01-09T0800,1442A,106.7487,26.6343,贵阳市,燕子冲,,10,,23,3,26,29,,29,29,15,18,5,9,0.5,0.6
2025-01-09T0800,1443A,106.6555,26.4365,贵阳市,碧云窝,,14,14,37,3,22,23,,34,34,18,24,7,14,0.6,0.7
2025-01-09T0800,1444A,106.694,26.5161,贵阳市,中院村,,14,14,33,3,24,28,,35,35,19,22,11,13,0.6,0.7
2025-01-09T0800,1445A,106.7109,26.6027,贵阳市,红边门,,13,9,31,9,27,22,,31,31,26,26,8,13,0.7,0.8
2025-01-09T0800,1446A,106.7164,26.5699,贵阳市,新华路,,11,9,28,3,21,33,,35,35,14,18,6,6,0.6,0.6
2025-01-09T0800,1447A,106.674,26.5424,贵阳市,太慈桥,,9,6,29,3,21,27,,30,30,15,23,5,9,0.5,0.7
2025-01-09T0800,1552A,106.805,26.3003,贵阳市,桐木岭,,15,14,31,9,20,45,,34,34,2,2,6,8,0.3,0.2
2025-01-09T0800,1862A,110.4144,25.3167,桂林市,电子科大尧山校区,,45,34,87,31,55,86,,77,77,9,16,6,10,0.6,0.8
2025-01-09T0800,1863A,110.2819,25.2697,桂林市,监测站,"颗粒物(PM10),细颗粒物(PM2.5)",53,55,98,37,63,80,,73,73,22,25,12,15,0.8,0.9
2025-01-09T0800,1864A,110.3089,25.2708,桂林市,龙隐路小学,细颗粒物(PM2.5),70,53,94,51,68,88,,79,79,17,21,14,16,0.6,0.7
2025-01-09T0800,1865A,110.2869,25.2178,桂林市,八中,细颗粒物(PM2.5),65,56,93,47,67,76,,71,71,18,20,12,14,0.6,0.8
2025-01-09T0800,3403A,110.1764,25.2381,桂林市,创业大厦,细颗粒物(PM2.5),58,61,109,41,68,82,,74,74,18,23,9,13,0.7,0.8
2025-01-09T0800,3531A,110.296,25.1253,桂林市,旅游学院,,42,39,95,29,62,78,,70,70,22,24,7,11,0.9,1
2025-01-09T0800,2674A,100.2561,34.4714,果洛藏族自治州,玛沁县大武镇,,26,26,37,10,19,48,,55,55,2,2,10,13,0.5,0.5
2025-01-09T0800,1129A,126.5422,45.755,哈尔滨市,岭北,细颗粒物(PM2.5),90,72,74,67,68,29,,20,20,38,35,22,13,0.7,0.9
2025-01-09T0800,1130A,126.561,45.8167,哈尔滨市,松北商大,细颗粒物(PM2.5),84,86,60,62,47,25,,16,16,29,32,4,14,0.9,0.8
2025-01-09T0800,1131A,126.979,45.5419,哈尔滨市,阿城会宁,细颗粒物(PM2.5),128,,89,97,83,13,,16,16,34,31,7,5,1.3,1.1
2025-01-09T0800,1132A,126.599,45.7222,哈尔滨市,南岗学府路,细颗粒物(PM2.5),100,92,58,75,42,19,,19,19,43,31,9,9,0.7,0.4
2025-01-09T0800,1133A,126.689,45.7733,哈尔滨市,太平宏伟公园,,48,47,62,33,45,11,,16,16,46,33,4,17,0.7,0.7
2025-01-09T0800,1134A,126.635,45.7667,哈尔滨市,道外承德广场,细颗粒物(PM2.5),63,73,56,45,30,12,,25,25,62,24,9,10,1.1,0.7
2025-01-09T0800,1135A,126.685,45.7319,哈尔滨市,香坊红旗大街,细颗粒物(PM2.5),70,68,51,51,42,12,,23,23,48,26,15,13,1.0,0.9
2025-01-09T0800,1136A,126.6411,45.7258,哈尔滨市,动力和平路,细颗粒物(PM2.5),88,85,44,65,39,12,,17,17,41,26,11,12,0.8,0.5
2025-01-09T0800,1137A,126.593,45.7478,哈尔滨市,道里建国路,细颗粒物(PM2.5),82,69,50,60,40,14,,17,17,44,26,3,4,0.8,0.5
2025-01-09T0800,1138A,126.615,45.61,哈尔滨市,平房东轻厂,细颗粒物(PM2.5),93,98,87,69,70,8,,7,7,47,50,11,12,0.8,1
2025-01-09T0800,1139A,126.595,45.9855,哈尔滨市,呼兰师专,细颗粒物(PM2.5),82,77,102,60,95,15,,8,8,34,35,9,9,0.9,1.1
2025-01-09T0800,1140A,126.6206,45.6842,哈尔滨市,省农科院,细颗粒物(PM2.5),145,120,101,111,82,10,,8,8,44,41,8,7,1.3,1.1
2025-01-09T0800,2688A,93.5128,42.8172,哈密市,地区监测站,颗粒物(PM10),97,144,127,38,35,42,,39,39,23,23,3,7,0.5,0.5
2025-01-09T0800,2689A,93.4961,42.8328,哈密市,哈密师范学校,颗粒物(PM10),80,109,105,43,37,16,,24,24,61,35,4,6,0.9,0.7
2025-01-09T0800,2671A,100.9048,36.9639,海北藏族自治州,海晏县西海镇,细颗粒物(PM2.5),58,60,49,41,35,44,,49,49,17,15,18,16,1.1,1.1
2025-01-09T0800,3867A,102.0738,36.5056,海东市,平安区公安北苑,细颗粒物(PM2.5),93,77,77,69,53,29,,38,38,24,29,10,18,1.1,1.1
2025-01-09T0800,1409A,110.576,19.9507,海口市,东寨港,,40,40,48,20,22,106,,109,109,5,5,15,13,0.6,0.6
2025-01-09T0800,1410A,110.3232,20.0574,海口市,海南大学,颗粒物(PM10),59,68,65,34,28,127,,132,132,13,11,6,6,0.5,0.5
2025-01-09T0800,1411A,110.283,20.0053,海口市,秀英海南医院,颗粒物(PM10),54,57,62,29,26,123,,129,129,16,12,4,4,0.4,0.4
2025-01-09T0800,1412A,110.338,19.9969,海口市,海南师范大学,颗粒物(PM10),53,55,61,30,27,130,,134,134,10,8,6,5,0.5,0.5
2025-01-09T0800,1413A,110.33,20.0356,海口市,龙华路环保局宿舍,颗粒物(PM10),52,54,59,32,27,128,,133,133,10,8,6,6,0.5,0.5
2025-01-09T0800,3539A,110.5111,19.9736,海口市,桂林洋子站,颗粒物(PM10),51,52,56,25,25,123,,127,127,7,7,5,5,0.4,0.4
2025-01-09T0800,2673A,100.6188,36.2866,海南藏族自治州,共和县恰卜恰镇,,,,54,,45,,,51,,,21,,12,,1.1
2025-01-09T0800,2676A,97.3731,37.3753,海西蒙古族藏族自治州,德令哈市,,30,30,50,9,10,76,,72,72,3,11,14,16,0.4,0.5
2025-01-09T0800,1048A,114.5302,36.6116,邯郸市,东污水处理厂,,42,42,45,19,19,7,,5,5,49,28,8,3,0.7,0.5
2025-01-09T0800,1049A,114.4918,36.5713,邯郸市,矿院,颗粒物(PM10),66,81,47,24,16,2,,1,1,54,34,6,3,1.1,0.5
2025-01-09T0800,1050A,114.484,36.6133,邯郸市,丛台公园,颗粒物(PM10),78,105,53,36,17,4,,4,4,54,30,11,4,1.1,0.4
2025-01-09T0800,3458A,114.7895,36.5593,邯郸市,香泉濮院小区,,47,47,50,30,18,33,,18,18,50,30,8,5,0.8,0.5
2025-01-09T0800,3579A,114.50634,36.77178,邯郸市,永年区实验高中,颗粒物(PM10),80,110,72,48,27,9,,6,6,56,34,9,7,1.4,0.4
2025-01-09T0800,3580A,114.20016,36.44293,邯郸市,峰峰矿区临水派出所,,29,29,48,17,18,42,,35,35,18,19,9,8,0.9,0.7
2025-01-09T0800,2634A,106.9893,33.1842,汉中市,汉川机床厂子校,细颗粒物(PM2.5),57,43,50,40,42,36,,46,46,9,8,6,7,0.5,0.5
2025-01-09T0800,2635A,107.0154,33.0706,汉中市,市监测站,细颗粒物(PM2.5),108,95,116,81,94,9,,11,11,48,57,6,8,1.9,2
2025-01-09T0800,2636A,107.0089,33.1138,汉中市,鑫源开发区,细颗粒物(PM2.5),89,76,102,66,87,5,,12,12,47,42,6,7,1.4,1.3
2025-01-09T0800,2637A,107.007,33.0323,汉中市,南郑大河坎水厂,细颗粒物(PM2.5),120,113,136,91,106,12,,17,17,33,43,8,10,1.4,1.6
2025-01-09T0800,1223A,120.2072,30.2111,杭州市,滨江,,41,41,82,19,45,40,,39,39,26,43,7,8,0.6,0.7
2025-01-09T0800,1224A,120.0633,30.2747,杭州市,西溪,颗粒物(PM10),51,51,74,34,50,32,,38,38,38,43,8,8,0.9,0.9
2025-01-09T0800,1226A,120.3461,30.3153,杭州市,下沙,,41,41,88,18,49,27,,25,25,36,48,8,9,0.9,0.9
2025-01-09T0800,1227A,120.1269,30.2456,杭州市,卧龙桥,,42,40,68,29,48,29,,36,36,38,42,7,8,0.5,0.6
2025-01-09T0800,1228A,120.1903,30.2692,杭州市,浙江农大,,37,37,75,17,46,34,,35,35,32,46,8,9,0.6,0.7
2025-01-09T0800,1230A,120.1197,30.3119,杭州市,和睦小学,细颗粒物(PM2.5),52,49,75,36,50,21,,31,31,45,47,8,9,0.8,0.8
2025-01-09T0800,1231A,120.3019,30.4183,杭州市,临平镇,,40,40,86,16,47,40,,40,40,21,39,9,8,1.1,1
2025-01-09T0800,1232A,120.2697,30.1819,杭州市,城厢镇,,39,39,87,22,52,40,,37,37,32,53,6,7,0.9,0.9
2025-01-09T0800,1233A,120.0883,30.1808,杭州市,云栖,颗粒物(PM10),57,63,85,35,50,14,,23,23,33,45,6,7,0.7,0.7
2025-01-09T0800,3557A,119.9464,30.0494,杭州市,镇二中,细颗粒物(PM2.5),75,63,76,55,61,16,,30,30,45,51,8,8,0.8,0.8
2025-01-09T0800,3558A,119.7183,30.2367,杭州市,市府大楼,细颗粒物(PM2.5),87,81,81,64,61,30,,25,25,37,45,8,8,0.7,0.7
2025-01-09T0800,3656A,120.1556,30.2864,杭州市,消防大队,,50,50,78,29,49,26,,36,36,37,40,8,9,0.7,0.8
2025-01-09T0800,1270A,117.1959,31.7848,合肥市,明珠广场,颗粒物(PM10),54,58,67,29,32,5,,28,28,50,36,10,11,0.8,0.7
2025-01-09T0800,1271A,117.3072,31.8764,合肥市,三里街,颗粒物(PM10),52,53,73,29,34,15,,28,28,40,35,5,7,0.6,0.7
2025-01-09T0800,1272A,117.2588,31.8707,合肥市,琥珀山庄,颗粒物(PM10),62,73,75,33,35,16,,33,33,42,30,6,8,0.8,0.7
2025-01-09T0800,1273A,117.1604,31.9052,合肥市,董铺水库,颗粒物(PM10),54,58,79,17,30,10,,22,22,42,31,5,5,0.4,0.4
2025-01-09T0800,1274A,117.25,31.8571,合肥市,长江中路,颗粒物(PM10),58,66,73,33,36,11,,29,29,44,32,6,8,0.6,0.6
2025-01-09T0800,1275A,117.266,31.9436,合肥市,庐阳区,颗粒物(PM10),58,66,72,27,31,14,,31,31,34,25,3,5,0.8,0.7
2025-01-09T0800,1276A,117.336,31.8586,合肥市,瑶海区,颗粒物(PM10),60,70,83,27,34,15,,31,31,45,40,7,8,0.5,0.5
2025-01-09T0800,1277A,117.3027,31.7964,合肥市,包河区,颗粒物(PM10),58,66,74,29,33,5,,21,21,55,45,5,6,0.6,0.6
2025-01-09T0800,1278A,117.2776,31.7385,合肥市,滨湖新区,颗粒物(PM10),51,51,73,22,27,22,,31,31,30,31,8,10,0.4,0.4
2025-01-09T0800,1279A,117.1318,31.8403,合肥市,高新区,颗粒物(PM10),54,58,72,24,32,11,,23,23,39,35,8,8,0.4,0.5
2025-01-09T0800,3464A,117.3803,31.9147,合肥市,高教基地,颗粒物(PM10),53,55,81,25,39,19,,28,28,28,32,7,9,0.4,0.5
2025-01-09T0800,3614A,79.924,37.0877,和田地区,地区环保局,颗粒物(PM10),81,112,185,19,52,63,,54,54,14,27,10,22,0.2,0.4
2025-01-09T0800,3615A,79.9131,37.113,和田地区,市环保局,一氧化碳,67,73,162,28,48,51,,36,36,34,46,20,22,6.7,3.3
2025-01-09T0800,2516A,108.2011,24.715,河池市,东仁乐园,,50,,57,35,47,68,,68,68,13,16,10,11,0.7,0.7
2025-01-09T0800,2517A,108.0497,24.6947,河池市,市环保站,,45,,47,31,43,63,,62,62,5,7,7,8,0.6,0.7
2025-01-09T0800,2518A,108.0983,24.6989,河池市,市疾控中心,,49,,50,34,42,68,,65,65,6,9,7,6,0.5,0.6
2025-01-09T0800,1696A,114.6778,23.7569,河源市,源西,颗粒物(PM10),55,59,66,38,42,41,,68,68,30,26,8,8,0.5,0.6
2025-01-09T0800,1697A,114.6944,23.7586,河源市,东埔,颗粒物(PM10),63,75,70,41,46,57,,79,79,30,26,8,7,0.7,0.7
2025-01-09T0800,1698A,114.6892,23.7233,河源市,老城,颗粒物(PM10),56,62,66,36,42,60,,72,72,22,24,7,6,0.8,0.7
2025-01-09T0800,1718A,115.4208,35.2464,菏泽市,气象局,颗粒物(PM10),70,89,69,33,24,8,,11,11,53,26,6,5,0.7,0.5
2025-01-09T0800,1719A,115.4747,35.2375,菏泽市,市政协,颗粒物(PM10),55,59,62,33,26,18,,21,21,51,34,10,8,1.0,0.8
2025-01-09T0800,3374A,115.5564,35.0891,菏泽市,定陶老年大学,颗粒物(PM10),69,88,60,44,19,6,,7,7,50,33,9,9,0.9,0.3
2025-01-09T0800,3647A,115.4702,35.2706,菏泽市,菏泽医专,,,90,81,31,22,8,,9,9,54,39,,8,0.3,0.3
2025-01-09T0800,2514A,111.5264,24.4172,贺州市,环保小区,细颗粒物(PM2.5),102,105,115,76,79,41,,50,50,28,24,10,10,0.9,0.9
2025-01-09T0800,2515A,111.5608,24.4078,贺州市,政协大楼,细颗粒物(PM2.5),89,105,107,66,65,44,,51,51,21,20,10,9,0.8,0.9
2025-01-09T0800,3534A,111.4744,24.4553,贺州市,西湾,细颗粒物(PM2.5),107,110,111,80,74,50,,54,54,19,20,10,10,0.8,0.9
2025-01-09T0800,2385A,114.17,35.9019,鹤壁市,市监测站,颗粒物(PM10),61,72,73,29,26,7,,4,4,34,25,7,4,0.5,0.4
2025-01-09T0800,2386A,114.2956,35.7511,鹤壁市,市交警支队,颗粒物(PM10),63,75,63,33,24,2,,4,4,45,34,3,3,0.6,0.4
2025-01-09T0800,2387A,114.2878,35.7306,鹤壁市,迎宾馆,颗粒物(PM10),53,56,60,18,19,5,,8,8,41,32,1,3,0.5,0.4
2025-01-09T0800,3474A,114.2617,35.6822,鹤壁市,大新区,,41,41,55,17,23,21,,15,15,25,29,3,4,0.4,0.4
2025-01-09T0800,3596A,114.1572,35.9603,鹤壁市,南山宾馆,,49,37,56,34,35,42,,35,35,10,12,1,4,0.5,0.6
2025-01-09T0800,2244A,130.2537,47.3416,鹤岗市,哈啤分公司,,23,21,25,16,21,57,,53,53,4,7,15,15,0.4,0.5
2025-01-09T0800,2245A,130.2684,47.3086,鹤岗市,斯达机电,,25,17,29,17,22,58,,58,58,8,10,13,14,0.2,0.2
2025-01-09T0800,2246A,130.3114,47.3388,鹤岗市,东山纸板厂,,22,22,12,15,19,60,,53,53,6,13,15,17,0.2,0.3
2025-01-09T0800,2247A,130.1097,47.3382,鹤岗市,五号水库,,25,12,24,8,14,77,,72,72,8,8,9,8,0.3,0.4
2025-01-09T0800,2263A,127.4833,50.2524,黑河市,交通局,,24,20,15,12,15,75,,74,74,5,7,5,6,0.3,0.3
2025-01-09T0800,2264A,127.5144,50.2341,黑河市,环保局,,30,30,18,11,17,68,,69,69,7,7,5,5,0.3,0.4
2025-01-09T0800,2265A,127.5291,50.2472,黑河市,大黑河岛,,,25,16,3,9,14,,24,24,11,9,2,2,,
2025-01-09T0800,1074A,115.6838,37.7541,衡水市,电机北厂,,28,28,43,8,20,49,,34,34,15,22,9,9,0.3,0.4
2025-01-09T0800,1075A,115.6303,37.7316,衡水市,市监测站,,23,23,39,14,19,52,,34,34,13,23,8,9,0.3,0.4
2025-01-09T0800,3188A,115.6683,37.7217,衡水市,市城管局,,23,22,39,16,21,54,,39,39,10,22,9,7,0.3,0.4
2025-01-09T0800,3459A,115.5989,37.5491,衡水市,地表水厂,,26,26,30,14,16,47,,36,36,13,25,5,6,0.5,0.4
2025-01-09T0800,2456A,112.5003,26.9167,衡阳市,原169医院,细颗粒物(PM2.5),54,39,51,38,46,20,,25,25,23,26,8,27,0.4,0.5
2025-01-09T0800,2457A,112.6194,26.9258,衡阳市,衡阳化工总厂,细颗粒物(PM2.5),64,,71,46,53,26,,31,31,24,25,6,8,0.7,0.7
2025-01-09T0800,2458A,112.6211,26.8956,衡阳市,珠晖区环保局,细颗粒物(PM2.5),72,,68,52,53,29,,32,32,22,26,9,10,0.8,0.8
2025-01-09T0800,2459A,112.6197,26.8733,衡阳市,市委党校,细颗粒物(PM2.5),74,66,67,54,50,27,,35,35,23,22,9,10,0.8,0.8
2025-01-09T0800,2460A,112.6006,26.8919,衡阳市,市监测站,细颗粒物(PM2.5),70,68,79,51,55,26,,36,36,24,30,7,9,0.7,0.6
2025-01-09T0800,2461A,112.5664,26.9056,衡阳市,真空机电公司,细颗粒物(PM2.5),75,56,78,55,66,20,,35,35,28,25,4,6,0.7,0.7
2025-01-09T0800,3399A,112.6703,26.882,衡阳市,师范学院,细颗粒物(PM2.5),74,71,77,54,55,22,,34,34,26,25,8,11,0.8,0.7
2025-01-09T0800,2608A,103.3772,23.3993,红河哈尼族彝族自治州,污水处理厂,细颗粒物(PM2.5),97,,61,72,62,79,,84,84,13,12,8,7,0.5,0.5
2025-01-09T0800,2609A,103.3861,23.35,红河哈尼族彝族自治州,监测站,细颗粒物(PM2.5),75,55,64,55,64,78,,86,86,10,10,6,7,0.5,0.5
2025-01-09T0800,3038A,103.3758,23.368,红河哈尼族彝族自治州,州图书馆,细颗粒物(PM2.5),63,47,57,45,57,78,,82,82,12,12,9,8,0.5,0.5
2025-01-09T0800,1090A,111.6507,40.7517,呼和浩特市,呼市一监,,27,27,15,17,8,18,,29,29,39,15,12,8,0.6,0.4
2025-01-09T0800,1091A,111.6572,40.8033,呼和浩特市,小召,,22,22,11,6,5,28,,38,38,43,20,7,6,1.1,0.4
2025-01-09T0800,1094A,111.7516,40.8369,呼和浩特市,如意水处理厂,,31,31,12,14,5,5,,20,20,60,17,11,7,0.8,0.4
2025-01-09T0800,1095A,111.7276,40.8062,呼和浩特市,二十九中,,25,23,14,11,7,9,,15,15,50,20,8,7,0.7,0.4
2025-01-09T0800,1096A,111.5512,40.7866,呼和浩特市,工大金川校区,,27,16,14,6,4,11,,46,46,53,14,6,5,0.6,0.3
2025-01-09T0800,1097A,111.717,40.7612,呼和浩特市,化肥厂生活区,,35,35,17,22,8,9,,17,17,45,23,6,5,1.1,0.5
2025-01-09T0800,3698A,111.5968,40.8178,呼和浩特市,红旗小学,,18,12,11,11,5,32,,40,40,35,14,5,4,0.5,0.3
2025-01-09T0800,3699A,111.6518,40.8389,呼和浩特市,海东办,,,6,6,3,4,42,,42,42,26,17,,7,0.5,0.5
2025-01-09T0800,2192A,119.7594,49.2261,呼伦贝尔市,区环保局,,29,29,31,15,17,61,,68,68,18,12,5,5,0.3,0.3
2025-01-09T0800,3061A,119.7512,49.1577,呼伦贝尔市,国华电力东,,29,22,23,20,16,72,,73,73,6,6,5,4,0.2,0.2
2025-01-09T0800,1250A,120.0751,30.8669,湖州市,城西水厂,,44,44,67,20,39,36,,46,46,30,37,8,10,0.6,0.6
2025-01-09T0800,2873A,120.0875,30.8955,湖州市,仁皇山新区,,35,35,68,20,43,40,,48,48,30,41,7,11,0.6,0.7
2025-01-09T0800,2907A,120.1844,30.8596,湖州市,吴兴区站,,31,31,65,18,41,40,,46,46,26,37,6,9,0.7,0.7
2025-01-09T0800,3562A,120.4148,30.8538,湖州市,南浔区站,,31,31,63,19,44,34,,40,40,28,43,9,12,0.6,0.7
2025-01-09T0800,1607A,120.9092,40.7136,葫芦岛市,龙港区,,24,11,43,11,13,75,,69,69,8,10,3,19,0.1,0.1
2025-01-09T0800,1608A,120.8392,40.7514,葫芦岛市,化工街,,29,29,41,9,5,46,,60,60,28,12,11,4,0.8,0.7
2025-01-09T0800,1609A,120.8341,40.7073,葫芦岛市,新区,,23,23,36,6,7,54,,65,65,24,10,4,4,0.3,0.3
2025-01-09T0800,1610A,120.8695,40.7677,葫芦岛市,东城区,,21,16,24,3,6,65,,63,63,10,10,5,8,0.0,0.1
2025-01-09T0800,2482A,109.5981,27.5721,怀化市,林科所,,20,16,31,13,24,61,,45,45,8,11,6,12,0.7,0.7
2025-01-09T0800,2483A,109.9453,27.5444,怀化市,河西地税局,,19,16,50,13,38,57,,43,43,3,8,2,5,0.7,0.8
2025-01-09T0800,2484A,109.9781,27.5342,怀化市,市四医院,,23,17,49,16,36,50,,42,42,9,10,1,2,0.8,0.8
2025-01-09T0800,2485A,109.9972,27.5578,怀化市,监测楼,,16,13,44,11,32,49,,40,40,12,13,3,4,0.4,0.5
2025-01-09T0800,2486A,110.0394,27.583,怀化市,市委党校,,23,22,44,16,34,50,,37,37,12,13,3,2,0.7,0.7
2025-01-09T0800,1210A,119.036,33.5981,淮安市,钵池山,,36,36,64,20,37,45,,39,39,24,31,7,10,0.5,0.7
2025-01-09T0800,1211A,119.007,33.575,淮安市,北京南路,,39,39,66,18,35,39,,41,41,30,30,9,12,0.4,0.8
2025-01-09T0800,1212A,118.989,33.6067,淮安市,市监测站,,36,36,59,17,36,37,,39,39,33,31,7,9,0.5,0.7
2025-01-09T0800,1213A,119.135,33.5039,淮安市,楚州区监测站,,39,39,66,22,57,42,,39,39,30,31,8,9,0.6,0.6
2025-01-09T0800,1214A,119.0186,33.6297,淮安市,淮阴区监测站,颗粒物(PM10),51,51,71,21,36,27,,34,34,41,35,7,9,0.7,0.8
2025-01-09T0800,3426A,118.8755,33.2894,淮安市,新华书店,,44,44,78,14,39,38,,30,30,32,36,9,12,0.5,0.7
2025-01-09T0800,2282A,116.8004,33.975,淮北市,监测站,颗粒物(PM10),52,54,68,26,29,20,,25,25,36,25,6,8,0.2,0.7
2025-01-09T0800,2283A,116.8091,33.9007,淮北市,烈山区政府,颗粒物(PM10),58,65,70,31,30,19,,23,23,34,27,7,6,0.5,0.6
2025-01-09T0800,3330A,116.8873,33.9836,淮北市,杜集区检察院,颗粒物(PM10),63,76,77,36,32,14,,17,17,29,24,5,4,0.4,0.4
2025-01-09T0800,4017A,116.7923,33.9535,淮北市,市博物馆,颗粒物(PM10),52,54,63,19,21,20,,28,28,42,28,8,8,0.5,0.4
2025-01-09T0800,2277A,116.8305,32.7727,淮南市,潘集区政府,颗粒物(PM10),58,66,81,40,46,16,,24,24,38,30,8,11,0.4,0.4
2025-01-09T0800,2278A,117.0067,32.6524,淮南市,师范学院,颗粒物(PM10),62,73,80,21,34,5,,20,20,41,27,4,6,0.5,0.5
2025-01-09T0800,2279A,116.8569,32.5951,淮南市,谢家集区政府,颗粒物(PM10),61,71,73,27,33,16,,24,24,26,23,8,9,0.6,0.6
2025-01-09T0800,2280A,116.8281,32.633,淮南市,八公山区政府,颗粒物(PM10),53,56,70,27,32,15,,25,25,35,26,4,7,0.5,0.5
2025-01-09T0800,2281A,116.6325,32.6201,淮南市,焦岗湖风景区管理处,,37,37,54,18,29,8,,22,22,25,14,1,2,0.3,0.3
2025-01-09T0800,2894A,117.0566,32.6531,淮南市,经济技术开发区消防队,颗粒物(PM10),64,78,88,36,41,13,,23,23,30,22,6,7,0.4,0.5
2025-01-09T0800,3329A,117.0108,32.5893,淮南市,山南新区,颗粒物(PM10),64,78,87,31,36,25,,34,34,32,25,11,10,0.6,0.5
2025-01-09T0800,2446A,114.9028,30.4742,黄冈市,职工中心,颗粒物(PM10),60,70,64,36,37,14,,32,32,50,37,8,10,0.3,0.3
2025-01-09T0800,2929A,114.8858,30.4519,黄冈市,红卫路,"颗粒物(PM10),细颗粒物(PM2.5)",54,58,60,38,37,24,,38,38,39,30,8,8,0.9,0.8
2025-01-09T0800,3398A,114.9136,30.4445,黄冈市,市林业局,"颗粒物(PM10),细颗粒物(PM2.5)",54,58,57,38,38,31,,38,38,23,23,11,12,0.8,0.7
2025-01-09T0800,2672A,102.0199,35.5102,黄南藏族自治州,同仁县隆务镇,细颗粒物(PM2.5),80,,62,59,53,52,,56,56,7,9,7,8,0.6,0.7
2025-01-09T0800,2295A,118.2903,29.6963,黄山市,延安路89号,,46,39,63,32,39,5,,12,12,20,23,4,5,0.4,0.4
2025-01-09T0800,2296A,118.327,29.7178,黄山市,黄山东路89号,颗粒物(PM10),57,63,77,38,42,10,,22,22,27,28,6,7,0.5,0.5
2025-01-09T0800,2297A,118.1371,30.2756,黄山市,黄山区政府5号楼,细颗粒物(PM2.5),58,64,51,41,32,14,,21,21,13,12,7,8,0.5,0.4
2025-01-09T0800,2423A,115.0601,30.2313,黄石市,沈家营,,49,49,61,31,30,19,,23,23,38,33,13,16,0.7,0.7
2025-01-09T0800,2426A,114.8988,30.2019,黄石市,铁山,,49,45,61,34,36,46,,41,41,15,28,6,7,0.7,1.2
2025-01-09T0800,2427A,115.0307,30.2092,黄石市,团城山,,47,47,58,29,28,29,,35,35,29,26,10,10,0.8,0.9
2025-01-09T0800,3149A,115.0235,30.1578,黄石市,笔架山北路,,40,40,61,23,35,26,,34,34,30,31,9,18,0.7,0.9
2025-01-09T0800,4185A,115.0780,30.21118,黄石市,磁湖东路29号,颗粒物(PM10),52,54,50,30,31,16,,18,18,45,40,5,18,0.9,0.8
2025-01-09T0800,1392A,114.4183,23.0528,惠州市,河南岸金山湖子站,颗粒物(PM10),58,65,73,36,43,73,,86,86,19,22,10,10,0.7,0.7
2025-01-09T0800,1393A,114.4053,23.0822,惠州市,下埔横江三路子站,颗粒物(PM10),60,69,74,40,44,73,,88,88,22,24,10,10,0.8,0.8
2025-01-09T0800,1394A,114.4103,23.1142,惠州市,江北云山西路子站,颗粒物(PM10),60,69,72,39,43,75,,91,91,25,29,11,12,0.7,0.8
2025-01-09T0800,1395A,114.4645,22.7833,惠州市,惠阳区承修路船湖子站,颗粒物(PM10),60,70,88,33,39,62,,53,53,25,28,11,9,0.6,0.5
2025-01-09T0800,1396A,114.5317,22.7422,惠州市,大亚湾管委会子站,颗粒物(PM10),57,64,78,39,40,71,,64,64,32,36,12,12,0.6,0.7
2025-01-09T0800,3314A,114.4338,22.8134,惠州市,惠阳秋长,颗粒物(PM10),60,70,86,36,40,81,,74,74,23,30,9,8,0.7,0.8
2025-01-09T0800,3452A,114.6517,22.775,惠州市,大亚湾霞涌,细颗粒物(PM2.5),58,54,69,41,37,82,,84,84,17,21,8,8,0.6,0.5
2025-01-09T0800,2240A,130.9762,45.3001,鸡西市,环保局,,29,29,39,14,28,44,,47,47,8,7,6,7,0.2,0.3
2025-01-09T0800,2243A,130.9429,45.3039,鸡西市,第一中学,颗粒物(PM10),56,61,40,14,26,55,,56,56,3,5,6,6,0.2,0.2
2025-01-09T0800,3707A,131.0207,45.3073,鸡西市,欧美日汽修厂,颗粒物(PM10),84,117,69,22,38,49,,52,52,12,12,17,20,0.4,0.3
2025-01-09T0800,3709A,130.9967,45.3106,鸡西市,市政设施管理处,颗粒物(PM10),51,52,48,18,29,51,,55,55,9,13,3,5,0.7,0.7
2025-01-09T0800,2367A,114.9754,27.0803,吉安市,红声器材厂,细颗粒物(PM2.5),77,97,83,56,41,12,,20,20,57,41,18,17,0.8,0.7
2025-01-09T0800,2368A,114.9658,27.0999,吉安市,市森林工业局,细颗粒物(PM2.5),72,92,79,52,42,14,,22,22,52,38,24,22,0.9,0.7
2025-01-09T0800,2369A,114.99,27.1312,吉安市,市环境监测站,细颗粒物(PM2.5),82,92,81,60,47,13,,16,16,45,34,23,22,0.7,0.6
2025-01-09T0800,2370A,115.0093,27.0968,吉安市,青原区法院,细颗粒物(PM2.5),80,98,78,59,45,14,,20,20,58,47,18,18,0.7,0.6
2025-01-09T0800,1772A,126.54,43.8622,吉林市,哈达湾,细颗粒物(PM2.5),72,68,66,52,48,19,,24,24,35,28,10,12,0.8,0.8
2025-01-09T0800,1773A,126.5844,43.8358,吉林市,东局子,细颗粒物(PM2.5),69,62,64,50,49,15,,19,19,40,28,9,11,0.9,0.8
2025-01-09T0800,1774A,126.5052,43.8245,吉林市,电力学院,细颗粒物(PM2.5),75,65,60,55,52,17,,15,15,34,28,9,12,1.0,0.9
2025-01-09T0800,1775A,126.6133,43.8972,吉林市,江北,细颗粒物(PM2.5),110,98,90,83,67,19,,24,24,45,43,11,14,1.2,1
2025-01-09T0800,1776A,126.555,43.8306,吉林市,江南公园,细颗粒物(PM2.5),67,57,60,48,48,19,,21,21,37,30,12,12,0.9,1.5
2025-01-09T0800,1778A,126.7061,43.7133,吉林市,丰满,细颗粒物(PM2.5),57,42,50,40,49,38,,35,35,15,18,9,14,0.6,0.7
2025-01-09T0800,2868A,126.4739,43.953,吉林市,九站,细颗粒物(PM2.5),79,72,64,58,51,18,,17,17,38,31,7,9,0.9,0.8
2025-01-09T0800,1299A,116.9862,36.6114,济南市,科干所,,48,48,35,17,7,18,,13,13,48,34,11,8,0.7,0.6
2025-01-09T0800,1300A,116.9376,36.665,济南市,农科所,颗粒物(PM10),63,76,59,17,10,9,,8,8,52,36,13,10,0.8,0.5
2025-01-09T0800,1301A,117.1265,36.6734,济南市,开发区,颗粒物(PM10),51,51,40,15,11,10,,23,23,58,29,6,5,0.6,0.4
2025-01-09T0800,1303A,117.0624,36.6868,济南市,省种子仓库,颗粒物(PM10),57,63,50,17,10,7,,10,10,66,36,12,7,0.8,0.5
2025-01-09T0800,1304A,116.9489,36.6447,济南市,机床二厂,颗粒物(PM10),72,93,59,22,12,10,,8,8,52,29,22,14,1.2,0.9
2025-01-09T0800,1305A,117.0495,36.663,济南市,市监测站,颗粒物(PM10),56,61,38,15,7,10,,22,22,65,29,9,6,0.8,0.5
2025-01-09T0800,1306A,116.7675,36.5484,济南市,长清党校,颗粒物(PM10),52,54,51,20,10,8,,7,7,62,41,9,8,0.9,0.8
2025-01-09T0800,1616A,117.6795,36.229,济南市,技术学院,颗粒物(PM10),69,88,38,39,14,6,,14,14,47,29,9,9,1.2,0.7
2025-01-09T0800,1961A,117.532,36.6868,济南市,东山小学,,42,42,45,12,13,18,,14,14,46,32,6,7,0.7,0.6
2025-01-09T0800,3059A,117.7161,36.2049,济南市,泰兴公司,颗粒物(PM10),62,73,47,39,19,9,,8,8,59,34,16,11,1.0,0.5
2025-01-09T0800,3064A,117.6867,36.2171,济南市,莱芜战役纪念馆,颗粒物(PM10),75,100,52,48,17,11,,9,9,58,35,10,8,1.1,0.6
2025-01-09T0800,3494A,117.1673,36.9782,济南市,济阳区政府,颗粒物(PM10),62,73,52,24,12,12,,20,20,46,25,16,12,0.7,0.4
2025-01-09T0800,3495A,117.1171,36.63,济南市,锦屏中学,,39,39,30,10,6,17,,32,32,49,24,6,5,0.6,0.3
2025-01-09T0800,3682A,116.9814,36.6819,济南市,济南四建,颗粒物(PM10),62,73,48,22,12,5,,6,6,64,42,21,9,1.1,0.6
2025-01-09T0800,1653A,116.6251,35.4302,济宁市,火炬城,,50,50,39,12,7,12,,27,27,48,26,8,8,0.6,0.4
2025-01-09T0800,1655A,116.5491,35.4042,济宁市,电化厂,颗粒物(PM10),67,84,67,29,19,5,,10,10,59,34,11,11,0.8,0.6
2025-01-09T0800,3500A,116.5814,35.3707,济宁市,北湖一中,颗粒物(PM10),51,52,44,19,14,7,,25,25,58,28,5,5,1.4,1
2025-01-09T0800,3501A,116.8249,35.5593,济宁市,服务中心,颗粒物(PM10),57,63,51,20,14,9,,14,14,64,35,16,13,0.8,0.6
2025-01-09T0800,3678A,116.5907,35.4054,济宁市,市第七中学,颗粒物(PM10),55,60,50,22,9,17,,32,32,57,30,4,4,0.9,0.7
2025-01-09T0800,2255A,130.2751,46.8028,佳木斯市,佳纺,,31,31,45,21,37,44,,48,48,12,12,7,6,0.7,0.7
2025-01-09T0800,2256A,130.3995,46.8307,佳木斯市,发电厂,,22,17,37,15,38,40,,45,45,13,13,6,7,0.6,0.6
2025-01-09T0800,2257A,130.3258,46.7975,佳木斯市,环保局,,20,19,42,14,33,37,,44,44,18,17,8,9,0.7,0.7
2025-01-09T0800,2258A,130.3648,46.8032,佳木斯市,十一中,,25,23,31,17,30,40,,46,46,20,16,5,6,0.6,0.6
2025-01-09T0800,2259A,130.3794,46.7588,佳木斯市,四丰,,49,49,41,17,24,40,,43,43,10,8,1,1,0.8,0.7
2025-01-09T0800,1252A,120.7436,30.778,嘉兴市,清河小学,,21,21,44,13,38,28,,35,35,36,43,11,12,1.2,0.5
2025-01-09T0800,1253A,120.726,30.7478,嘉兴市,嘉兴学院,,38,38,68,18,42,33,,39,39,29,39,8,9,0.8,0.7
2025-01-09T0800,2872A,120.7846,30.7525,嘉兴市,南湖区残联,颗粒物(PM10),51,51,79,15,26,35,,41,41,26,37,9,11,0.9,0.8
2025-01-09T0800,3407A,120.6916,30.7739,嘉兴市,秀洲住建,,30,30,52,14,43,27,,36,36,35,44,7,9,0.8,0.9
2025-01-09T0800,1945A,98.2908,39.7711,嘉峪关市,气象局,,34,34,62,14,27,58,,61,61,23,28,34,19,0.2,0.3
2025-01-09T0800,2884A,98.2672,39.7978,嘉峪关市,酒钢宾馆,,41,41,73,22,27,53,,58,58,27,32,31,30,0.6,0.7
2025-01-09T0800,3248A,98.2643,39.7724,嘉峪关市,雄关区,,40,40,55,23,29,52,,61,61,33,33,18,12,0.4,0.5
2025-01-09T0800,1383A,113.1064,22.6058,江门市,北街,细颗粒物(PM2.5),72,77,107,52,74,27,,20,20,88,96,7,7,0.8,1.1
2025-01-09T0800,1384A,113.0731,22.5835,江门市,西区,颗粒物(PM10),76,102,147,44,69,22,,15,15,83,97,11,10,0.9,1
2025-01-09T0800,1385A,113.0219,22.5311,江门市,圭峰西,细颗粒物(PM2.5),67,66,107,48,79,43,,36,36,70,78,10,8,0.8,1
2025-01-09T0800,1386A,113.0828,22.5947,江门市,东湖,细颗粒物(PM2.5),83,84,120,61,80,23,,17,17,76,86,8,9,0.8,1
2025-01-09T0800,3311A,113.1075,22.5647,江门市,江海富民,颗粒物(PM10),79,107,134,52,72,22,,33,33,84,81,10,10,1.1,1.1
2025-01-09T0800,3449A,113.05,22.4667,江门市,新会银湖,细颗粒物(PM2.5),83,74,107,61,90,6,,8,8,83,70,6,8,0.8,0.9
2025-01-09T0800,1828A,113.227,35.2125,焦作市,市环保局,颗粒物(PM10),58,65,75,28,23,26,,30,30,27,20,9,7,0.9,0.7
2025-01-09T0800,1830A,113.1992,35.2590,焦作市,影视城,,49,49,58,33,29,42,,47,47,14,15,7,7,0.9,0.8
2025-01-09T0800,3169A,113.2725,35.2067,焦作市,太极体育中心,颗粒物(PM10),68,85,90,21,15,20,,25,25,45,29,13,9,0.5,0.4
2025-01-09T0800,3335A,113.3137,35.2641,焦作市,马村街道办,颗粒物(PM10),60,69,77,26,23,20,,24,24,31,23,8,8,1.2,0.9
2025-01-09T0800,3336A,113.2465,35.2373,焦作市,焦作技师学院,颗粒物(PM10),59,68,75,27,21,29,,36,36,30,23,7,7,0.8,0.6
2025-01-09T0800,3477A,113.1656,35.2539,焦作市,中站许衡医院,颗粒物(PM10),55,60,64,30,27,13,,29,29,38,19,6,5,0.7,0.5
2025-01-09T0800,3981A,113.2449,35.1803,焦作市,原李万街道办,颗粒物(PM10),60,69,87,36,22,17,,24,24,37,22,8,7,0.8,0.7
2025-01-09T0800,1708A,116.3701,23.5345,揭阳市,新兴,细颗粒物(PM2.5),87,89,88,64,48,32,,50,50,46,33,12,11,0.8,0.7
2025-01-09T0800,1709A,116.3264,23.5443,揭阳市,西马,细颗粒物(PM2.5),92,96,92,68,47,23,,46,46,56,32,14,12,0.8,0.7
2025-01-09T0800,1710A,116.3611,23.5626,揭阳市,东兴,细颗粒物(PM2.5),79,102,94,58,44,12,,35,35,62,37,12,15,1.1,1
2025-01-09T0800,1711A,116.4151,23.5294,揭阳市,渔湖,细颗粒物(PM2.5),69,74,82,50,36,48,,57,57,42,32,23,16,0.7,0.7
2025-01-09T0800,3320A,116.403,23.5699,揭阳市,曲溪,颗粒物(PM10),65,80,86,46,44,12,,40,40,69,40,8,12,0.9,0.8
2025-01-09T0800,1944A,102.1692,38.5167,金昌市,天庆家园,,48,33,49,33,33,37,,55,55,27,18,12,23,1.2,0.9
2025-01-09T0800,3170A,102.1864,38.5253,金昌市,市委党校,,24,24,56,12,28,46,,53,53,15,18,5,12,0.7,0.7
2025-01-09T0800,4022A,102.1647,38.5371,金昌市,金川区人防中心,,35,,53,24,32,48,,56,56,17,15,10,14,1.0,0.7
2025-01-09T0800,1262A,119.647,29.077,金华市,十五中,"颗粒物(PM10),细颗粒物(PM2.5)",84,118,139,62,78,18,,13,13,52,70,6,6,1.0,0.9
2025-01-09T0800,1263A,119.686,29.1029,金华市,监测站,细颗粒物(PM2.5),97,127,143,72,85,14,,8,8,53,75,7,7,0.8,0.9
2025-01-09T0800,3659A,119.656,29.1131,金华市,气象局,颗粒物(PM10),83,116,148,59,82,13,,6,6,52,80,7,8,1.1,1.1
2025-01-09T0800,1767A,121.1115,41.0879,锦州市,南山,,21,15,26,3,4,65,,71,71,12,6,5,5,0.5,0.5
2025-01-09T0800,1768A,121.0533,40.8434,锦州市,开发区,,26,26,50,8,9,48,,60,60,28,15,40,11,0.7,0.5
2025-01-09T0800,1769A,121.1836,41.1119,锦州市,百股街道,,19,18,31,12,7,60,,67,67,12,4,7,7,0.4,0.2
2025-01-09T0800,1770A,121.1178,41.1222,锦州市,天安街道,,23,13,33,6,6,71,,74,74,10,6,8,8,0.5,0.4
2025-01-09T0800,1771A,121.1303,41.1386,锦州市,北湖公园,,20,20,31,11,10,60,,65,65,10,5,8,7,0.5,0.4
2025-01-09T0800,2160A,112.85,35.5051,晋城市,自来水公司,颗粒物(PM10),59,68,50,34,17,5,,15,15,43,31,21,11,2.2,0.8
2025-01-09T0800,2161A,112.8318,35.4936,晋城市,白云商贸,颗粒物(PM10),80,109,58,39,14,8,,14,14,47,30,20,9,2.3,0.6
2025-01-09T0800,2162A,112.8508,35.4887,晋城市,市环保局,颗粒物(PM10),60,70,54,34,20,6,,18,18,45,31,22,10,1.7,0.7
2025-01-09T0800,2163A,112.8676,35.4897,晋城市,技术学院,颗粒物(PM10),69,87,53,34,16,6,,20,20,47,35,20,9,1.6,0.7
2025-01-09T0800,2165A,112.8453,35.546,晋城市,白马寺,细颗粒物(PM2.5),62,50,47,44,23,20,,21,21,27,18,32,19,1.3,0.9
2025-01-09T0800,3620A,112.8271,35.4828,晋城市,泽州一中,颗粒物(PM10),61,72,41,22,13,8,,22,22,47,32,12,8,1.3,0.7
2025-01-09T0800,2171A,112.7532,37.6945,晋中市,锦纶小区,,34,34,38,12,9,20,,18,18,25,27,4,6,0.4,0.3
2025-01-09T0800,2173A,112.7249,37.7067,晋中市,南都小区,,46,46,43,19,18,14,,12,12,35,29,6,6,0.5,0.3
2025-01-09T0800,2174A,112.6991,37.6982,晋中市,榆次区政府,颗粒物(PM10),52,53,44,28,18,10,,18,18,44,30,8,6,0.5,0.4
2025-01-09T0800,2865A,112.7195,37.6828,晋中市,榆次三中,,46,46,40,12,7,7,,8,8,35,28,6,7,0.6,0.4
2025-01-09T0800,2439A,112.2014,31.0481,荆门市,竹园小学,颗粒物(PM10),73,95,95,46,55,18,,13,13,36,41,11,13,0.7,0.7
2025-01-09T0800,2440A,112.1969,30.9891,荆门市,掇刀,颗粒物(PM10),69,88,100,44,57,30,,36,36,36,40,13,14,0.7,0.7
2025-01-09T0800,2441A,112.2213,31.0386,荆门市,石化一小,颗粒物(PM10),80,110,104,55,58,18,,24,24,40,46,11,10,0.6,0.7
2025-01-09T0800,3012A,112.1849,31.0362,荆门市,西山林语,颗粒物(PM10),67,84,90,41,52,18,,34,34,42,30,9,11,0.6,0.6
2025-01-09T0800,3547A,112.1632,31.0138,荆门市,龙泉中学南校,细颗粒物(PM2.5),70,86,99,51,61,25,,34,34,29,27,13,15,1.0,0.8
2025-01-09T0800,1844A,112.2494,30.3197,荆州市,市图书馆,细颗粒物(PM2.5),85,69,86,63,78,35,,35,35,30,31,10,7,0.8,0.8
2025-01-09T0800,1845A,112.2008,30.3544,荆州市,市委党校,细颗粒物(PM2.5),85,76,95,63,79,33,,35,35,31,32,9,8,0.6,0.7
2025-01-09T0800,3194A,112.2747,30.3122,荆州市,管委会,细颗粒物(PM2.5),93,84,90,69,74,30,,30,30,26,25,9,6,0.8,0.8
2025-01-09T0800,3548A,112.1655,30.3364,荆州市,学苑路,颗粒物(PM10),62,74,88,43,71,36,,41,41,41,43,13,11,0.8,0.8
2025-01-09T0800,2342A,117.3102,29.3867,景德镇市,王港中学,,,,,,,,,,,,,,,,
2025-01-09T0800,2343A,117.2117,29.2933,景德镇市,老干部活动中心,细颗粒物(PM2.5),57,53,56,40,35,22,,20,20,29,28,8,7,0.9,0.8
2025-01-09T0800,2344A,117.1894,29.2789,景德镇市,兽医站,颗粒物(PM10),58,66,61,28,26,35,,36,36,24,20,5,5,0.6,0.5
2025-01-09T0800,2345A,117.1547,29.2617,景德镇市,台达陶瓷,颗粒物(PM10),54,58,68,29,34,28,,33,33,26,41,7,48,0.4,0.6
2025-01-09T0800,2346A,117.2461,29.2956,景德镇市,陶研所,,40,40,55,26,28,15,,12,12,24,29,3,4,0.5,0.5
2025-01-09T0800,1803A,115.9872,29.6815,九江市,十里,细颗粒物(PM2.5),68,77,71,49,44,28,,33,33,28,35,9,12,0.6,0.8
2025-01-09T0800,1804A,115.9584,29.7046,九江市,茅山头,颗粒物(PM10),63,76,88,29,44,39,,39,39,28,37,7,11,0.7,0.8
2025-01-09T0800,1805A,115.9877,29.7295,九江市,西园,颗粒物(PM10),61,71,82,40,51,29,,28,28,32,48,8,14,0.6,0.7
2025-01-09T0800,1806A,116.0172,29.6547,九江市,五七二七厂,颗粒物(PM10),65,79,86,41,40,32,,35,35,32,38,9,11,0.7,0.8
2025-01-09T0800,1808A,115.9114,29.6038,九江市,综合工业园,颗粒物(PM10),68,85,89,46,53,38,,40,40,32,46,11,15,0.0,0.4
2025-01-09T0800,1809A,116.0721,29.7535,九江市,石化总厂,细颗粒物(PM2.5),88,79,90,65,62,33,,29,29,19,37,10,14,0.6,0.8
2025-01-09T0800,1810A,115.9773,29.5698,九江市,庐山气象台,,46,46,44,32,29,65,,57,57,13,14,6,11,0.7,1
2025-01-09T0800,3190A,116.0254,29.6994,九江市,外国语学校,颗粒物(PM10),69,87,89,48,50,32,,34,34,26,34,9,14,0.2,0.5
2025-01-09T0800,2658A,98.5061,39.7443,酒泉市,仓门街子站,颗粒物(PM10),51,51,93,29,44,67,,41,41,12,26,11,24,0.5,0.9
2025-01-09T0800,2659A,98.4989,39.7256,酒泉市,油田生活基地,颗粒物(PM10),56,61,94,25,40,62,,34,34,16,29,10,33,0.5,0.8
2025-01-09T0800,2698A,76.0072,39.4467,喀什地区,巡警大队,颗粒物(PM10),78,106,176,25,76,15,,25,25,68,66,4,7,2.0,2.1
2025-01-09T0800,2699A,75.9755,39.4694,喀什地区,吾办,颗粒物(PM10),81,112,162,42,99,23,,16,16,57,67,1,2,1.7,2.3
2025-01-09T0800,4027A,75.9483,39.4689,喀什地区,老干局,颗粒物(PM10),88,125,184,32,85,37,,22,22,29,60,2,5,1.9,2.6
2025-01-09T0800,1824A,114.3389,34.7781,开封市,肿瘤医院,颗粒物(PM10),80,110,73,54,32,6,,14,14,61,28,4,3,1.2,0.5
2025-01-09T0800,1826A,114.2885,34.7965,开封市,世纪星幼儿园,细颗粒物(PM2.5),73,75,60,53,29,10,,20,20,72,25,3,3,1.1,0.5
2025-01-09T0800,3147A,114.3438,34.8106,开封市,龙亭公园,颗粒物(PM10),54,57,62,36,22,6,,14,14,56,33,4,3,0.8,0.7
2025-01-09T0800,3210A,114.3644,34.7964,开封市,汴京公园,细颗粒物(PM2.5),67,76,73,48,31,5,,9,9,57,35,4,4,0.8,0.4
2025-01-09T0800,3473A,114.2485,34.8306,开封市,技师学院,颗粒物(PM10),53,56,64,36,23,4,,8,8,56,39,3,2,0.4,0.2
2025-01-09T0800,3592A,114.4644,34.7556,开封市,祥符区生态环境局,颗粒物(PM10),81,111,79,58,32,8,,7,7,51,40,8,15,0.5,0.4
2025-01-09T0800,1951A,84.895,45.6094,克拉玛依市,长征新村,颗粒物(PM10),55,60,60,37,43,34,,45,45,34,29,4,5,0.9,0.8
2025-01-09T0800,1952A,84.8988,45.5893,克拉玛依市,南林小区,细颗粒物(PM2.5),65,62,55,47,46,37,,47,47,20,14,5,5,1.1,1
2025-01-09T0800,1954A,84.905,44.3396,克拉玛依市,独山子区,,22,,56,11,61,70,,76,76,14,25,5,5,0.2,0.5
2025-01-09T0800,1955A,85.6979,46.098,克拉玛依市,乌尔禾区商贸楼,细颗粒物(PM2.5),67,50,54,48,57,59,,60,60,29,33,3,4,0.9,1
2025-01-09T0800,3612A,85.1045,45.6899,克拉玛依市,白碱滩区新站,颗粒物(PM10),53,55,62,36,45,29,,52,52,36,23,4,5,1.1,1.2
2025-01-09T0800,2697A,76.1454,39.7142,克孜勒苏柯尔克孜自治州,市人民政府,,28,17,104,3,37,88,,88,88,6,16,3,4,0.3,0.6
2025-01-09T0800,3665A,76.1658,39.7157,克孜勒苏柯尔克孜自治州,克州文化中心,,26,12,94,3,42,83,,87,87,4,20,6,8,0.2,0.6
2025-01-09T0800,1450A,102.8204,24.8886,昆明市,呈贡新区,,39,30,28,27,22,43,,51,51,21,17,7,7,0.6,0.5
2025-01-09T0800,1451A,102.6251,24.9608,昆明市,西山森林公园,,,,,,,,,,,,,,,,
2025-01-09T0800,1452A,102.7252,25.0902,昆明市,龙泉镇,,23,,23,16,15,16,,29,29,25,21,6,6,0.7,0.5
2025-01-09T0800,1453A,102.7266,25.0375,昆明市,东风东路,,30,26,26,21,18,43,,59,59,22,13,10,6,0.6,0.5
2025-01-09T0800,1454A,102.6742,25.0669,昆明市,金鼎山,,25,25,29,14,17,33,,56,56,29,16,8,7,0.7,0.5
2025-01-09T0800,1455A,102.6644,25.0401,昆明市,碧鸡广场,,38,38,27,25,18,35,,46,46,32,20,8,7,0.7,0.6
2025-01-09T0800,3179A,102.7494,25.0119,昆明市,官渡区博物馆,,38,35,27,26,18,6,,51,51,46,13,7,7,0.9,0.5
2025-01-09T0800,3375A,102.8017,24.8336,昆明市,青年创业园,,33,33,29,23,18,44,,49,49,17,11,9,7,0.4,0.3
2025-01-09T0800,3550A,102.7997,24.9786,昆明市,昆明学院,,32,30,27,22,18,8,,54,54,32,13,8,8,0.8,0.5
2025-01-09T0800,3551A,102.5967,24.6736,昆明市,晋宁区生态环境分局,颗粒物(PM10),52,53,35,29,24,18,,45,45,33,15,2,2,0.9,0.7
2025-01-09T0800,3552A,102.6678,24.9856,昆明市,云天化总部,,32,28,25,22,18,24,,61,61,38,10,7,7,0.5,0.5
2025-01-09T0800,1456A,91.1319,29.6514,拉萨市,八廓街,,23,11,19,7,12,72,,80,80,10,15,5,6,0.1,0.3
2025-01-09T0800,1457A,91.1221,29.6747,拉萨市,市环保局,,21,19,22,8,13,67,,73,73,16,20,4,5,0.4,0.6
2025-01-09T0800,1458A,91.0874,29.6475,拉萨市,区监测站,,20,,14,9,10,61,,78,78,25,19,6,6,0.4,0.4
2025-01-09T0800,1459A,91.1774,29.6541,拉萨市,西藏大学,,23,13,20,7,8,72,,78,78,7,10,4,5,0.3,0.4
2025-01-09T0800,1460A,90.9798,29.6588,拉萨市,区辐射站,,15,13,27,9,20,46,,49,49,25,31,7,8,0.5,0.6
2025-01-09T0800,1461A,91.0834,29.6292,拉萨市,拉萨火车站,,21,15,13,11,10,41,,58,58,41,21,4,4,0.8,0.6
2025-01-09T0800,2520A,109.2203,23.7256,来宾市,来宾技工学校,细颗粒物(PM2.5),80,76,84,59,59,53,,58,58,22,20,7,7,0.8,0.8
2025-01-09T0800,3535A,109.1781,23.7297,来宾市,兴宾区政府,细颗粒物(PM2.5),72,84,96,52,61,53,,59,59,22,20,8,7,0.8,0.8
2025-01-09T0800,4002A,109.2416,23.7461,来宾市,中南小学,颗粒物(PM10),81,112,91,56,58,51,,55,55,17,17,11,11,0.8,0.8
2025-01-09T0800,1476A,103.631,36.1031,兰州市,兰炼宾馆,细颗粒物(PM2.5),69,86,78,50,47,9,,9,9,59,63,40,27,1.3,1.1
2025-01-09T0800,1477A,104.1373,35.9454,兰州市,榆中兰大校区,,,,,,,,,,,,,,,,
2025-01-09T0800,1478A,103.8412,36.0726,兰州市,生物制品所,细颗粒物(PM2.5),67,69,66,48,43,4,,4,4,64,64,14,17,1.0,1.1
2025-01-09T0800,1479A,103.831,36.0464,兰州市,铁路设计院,细颗粒物(PM2.5),77,94,86,56,54,4,,4,4,71,73,14,20,1.5,1.7
2025-01-09T0800,3186A,103.7158,36.1058,兰州市,教育港,颗粒物(PM10),71,91,83,49,45,1,,3,3,63,65,17,22,1.3,1.1
2025-01-09T0800,3241A,103.7439,36.0842,兰州市,百合公园,细颗粒物(PM2.5),68,77,66,49,40,6,,11,11,53,56,15,18,1.4,1.4
2025-01-09T0800,3242A,103.9611,35.998,兰州市,和平,细颗粒物(PM2.5),85,91,88,63,57,10,,16,16,60,50,20,21,1.4,1.3
2025-01-09T0800,3245A,103.6633,36.533,兰州新区,新区管委会,颗粒物(PM10),56,61,59,39,38,10,,15,15,32,28,13,15,1.0,0.7
2025-01-09T0800,3246A,103.6975,36.4789,兰州新区,舟曲中学,细颗粒物(PM2.5),74,78,71,54,44,8,,10,10,43,38,10,17,0.9,0.7
2025-01-09T0800,1067A,116.6708,39.5111,廊坊市,药材公司,,25,25,20,3,4,59,,54,54,15,13,2,3,0.4,0.4
2025-01-09T0800,1068A,116.7214,39.5589,廊坊市,开发区,,20,9,14,6,3,63,,55,55,8,8,3,3,0.2,0.2
2025-01-09T0800,1070A,116.7244,39.5269,廊坊市,北华航天学院,,20,18,21,3,4,62,,57,57,5,7,2,3,0.3,0.3
2025-01-09T0800,2919A,116.7022,39.5453,廊坊市,河北工业大学,,20,11,23,3,5,64,,58,58,15,13,2,2,0.2,0.2
2025-01-09T0800,2535A,103.7723,29.5462,乐山市,花湖湾,细颗粒物(PM2.5),79,81,65,58,45,5,,9,9,29,38,4,6,0.5,0.4
2025-01-09T0800,2536A,103.7627,29.5844,乐山市,牛耳桥,细颗粒物(PM2.5),64,56,59,46,45,2,,2,2,22,37,5,5,0.6,0.6
2025-01-09T0800,2537A,103.7508,29.6006,乐山市,市第三水厂,细颗粒物(PM2.5),65,59,61,47,43,3,,4,4,25,39,3,4,0.7,0.6
2025-01-09T0800,2538A,103.7571,29.5664,乐山市,市监测站,细颗粒物(PM2.5),60,59,52,43,37,2,,2,2,26,29,4,5,0.7,0.6
2025-01-09T0800,3361A,103.7311,29.5628,乐山市,理工大学,细颗粒物(PM2.5),73,63,56,53,42,4,,5,5,30,35,7,8,0.7,0.7
2025-01-09T0800,2598A,100.2143,26.8576,丽江市,西南郊,,40,34,27,28,19,60,,53,53,7,13,4,4,1.1,1.1
2025-01-09T0800,2599A,100.2497,26.8802,丽江市,丽江古城,,20,18,27,12,22,61,,54,54,11,13,7,8,0.8,0.8
2025-01-09T0800,2600A,100.2203,26.8906,丽江市,市中心,,26,26,16,7,11,56,,64,64,14,13,9,9,0.5,0.6
2025-01-09T0800,1267A,119.914,28.4514,丽水市,监测站大楼,颗粒物(PM10),57,64,88,31,59,44,,20,20,28,46,8,7,0.6,0.8
2025-01-09T0800,1268A,119.93,28.4586,丽水市,莲都小学,颗粒物(PM10),57,63,110,32,60,43,,21,21,30,51,9,8,0.7,0.8
2025-01-09T0800,1269A,119.879,28.4231,丽水市,余庄前,细颗粒物(PM2.5),58,58,94,41,65,34,,9,9,33,40,6,4,0.5,0.6
2025-01-09T0800,1173A,119.176,34.5885,连云港市,市环境监测站,,46,46,49,22,17,17,,43,43,45,25,11,11,0.9,0.9
2025-01-09T0800,3000A,119.3581,34.6972,连云港市,德源药业,颗粒物(PM10),51,51,42,22,14,4,,37,37,56,24,7,9,0.4,0.4
2025-01-09T0800,3007A,119.178,34.844,连云港市,新城一中,,44,44,54,23,18,25,,35,35,44,39,11,12,1.0,0.9
2025-01-09T0800,3008A,119.3608,34.7519,连云港市,胡沟管理处,,34,34,35,12,10,40,,54,54,21,14,6,7,0.8,0.8
2025-01-09T0800,3009A,119.1478,34.5911,连云港市,矿山设计院,颗粒物(PM10),52,53,49,17,18,10,,34,34,50,27,8,9,0.7,0.7
2025-01-09T0800,3434A,119.2413,34.6539,连云港市,工贸学校,颗粒物(PM10),54,57,41,25,17,18,,36,36,45,25,10,11,0.6,0.6
2025-01-09T0800,3664A,119.4172,34.7341,连云港市,连云街道,颗粒物(PM10),55,59,41,21,14,39,,46,46,30,26,23,9,0.6,0.7
2025-01-09T0800,2571A,102.3431,27.8099,凉山彝族自治州,青龙寺,,13,13,23,3,7,35,,36,36,7,10,6,6,0.6,0.7
2025-01-09T0800,2572A,102.2721,27.8415,凉山彝族自治州,邛海宾馆,,16,15,20,11,12,39,,48,48,14,13,10,9,0.7,0.7
2025-01-09T0800,2573A,102.2625,27.898,凉山彝族自治州,西昌市政府,,23,22,27,16,21,28,,30,30,16,15,10,10,1.0,0.9
2025-01-09T0800,2574A,102.2685,27.8851,凉山彝族自治州,凉山州政府,,22,21,25,15,18,33,,36,36,15,14,9,9,0.6,0.6
2025-01-09T0800,2575A,102.237,27.8914,凉山彝族自治州,长安,,26,26,31,14,16,28,,42,42,25,17,8,9,0.2,0.4
2025-01-09T0800,2212A,123.2,41.1953,辽阳市,宏伟区,,49,39,29,34,16,15,,33,33,30,11,10,10,0.7,0.2
2025-01-09T0800,2213A,123.1683,41.2495,辽阳市,新华园,,45,45,41,30,19,16,,34,34,46,19,9,8,1.3,0.8
2025-01-09T0800,2214A,123.2354,41.2639,辽阳市,滨河路,,46,35,30,32,19,29,,35,35,26,15,5,5,0.8,0.6
2025-01-09T0800,2215A,123.149,41.2991,辽阳市,铁西工业园,细颗粒物(PM2.5),64,64,39,46,20,3,,20,20,40,19,4,4,1.0,0.5
2025-01-09T0800,2227A,125.1358,42.8845,辽源市,环保局,细颗粒物(PM2.5),64,60,46,46,30,12,,17,17,45,26,11,9,2.1,0.8
2025-01-09T0800,3239A,125.0764,42.9078,辽源市,银鹰制药,细颗粒物(PM2.5),103,86,49,77,39,10,,12,12,41,26,7,7,1.1,0.6
2025-01-09T0800,1625A,115.9848,36.4372,聊城市,区政府,颗粒物(PM10),73,95,54,48,19,13,,13,13,53,33,20,12,1.6,0.7
2025-01-09T0800,2878A,116.0072,36.4343,聊城市,聊大东校,颗粒物(PM10),76,102,66,42,22,10,,9,9,60,41,16,9,1.1,0.6
2025-01-09T0800,3200A,115.9819,36.4978,聊城市,监控中心,细颗粒物(PM2.5),83,113,82,61,36,11,,15,15,62,42,21,13,1.4,0.8
2025-01-09T0800,3513A,116.0445,36.4361,聊城市,九州社区,,,,59,,20,,,11,11,,33,,9,,0.5
2025-01-09T0800,4018A,116.0567,36.4608,聊城市,星美广场,颗粒物(PM10),92,134,68,67,22,17,,22,22,47,31,17,13,1.0,0.6
2025-01-09T0800,2632A,94.3681,29.6376,林芝市,林芝监测站,,22,,8,3,7,68,,69,69,1,8,6,6,0.3,0.4
2025-01-09T0800,2633A,94.3616,29.6616,林芝市,林芝人民医院,,19,8,12,6,8,58,,63,63,2,7,6,6,0.4,0.5
2025-01-09T0800,2603A,100.0781,23.8982,临沧市,市环保局,,25,25,32,17,23,28,,34,34,13,12,9,9,0.4,0.4
2025-01-09T0800,2604A,100.0894,23.8822,临沧市,市气象局,,43,32,33,30,26,21,,27,27,17,15,8,8,0.5,0.5
2025-01-09T0800,1733A,111.5531,36.0783,临汾市,临钢医院,,30,30,29,12,12,8,,17,17,32,22,4,4,0.7,0.5
2025-01-09T0800,1734A,111.5028,36.0714,临汾市,技工学校,,46,38,38,32,23,7,,15,15,32,23,7,7,0.8,0.6
2025-01-09T0800,1736A,111.5018,36.0855,临汾市,市委,,40,40,41,10,12,8,,17,17,36,24,6,5,0.6,0.5
2025-01-09T0800,3018A,111.505,36.1014,临汾市,唐尧大酒店,,50,50,38,11,13,6,,16,16,37,23,6,6,1.0,0.8
2025-01-09T0800,3668A,111.5036,36.0414,临汾市,城南,,49,43,43,34,20,2,,12,12,40,26,4,5,0.7,0.5
2025-01-09T0800,2667A,103.2069,35.5993,临夏回族自治州,环保局,,,,99,,56,,,48,,,25,,19,,1.0
2025-01-09T0800,2668A,103.2417,35.6057,临夏回族自治州,建设大厦,细颗粒物(PM2.5),94,124,108,70,65,20,,26,26,26,27,11,17,1.4,1.3
2025-01-09T0800,1618A,118.3429,35.0532,临沂市,沂河小区,颗粒物(PM10),57,63,45,28,27,20,,27,27,56,32,18,13,0.6,0.4
2025-01-09T0800,1619A,118.295,35.0583,临沂市,鲁南制药厂,颗粒物(PM10),58,66,49,35,22,9,,17,17,62,31,24,12,0.4,0.2
2025-01-09T0800,1620A,118.2794,34.9976,临沂市,新光毛纺厂,颗粒物(PM10),52,53,42,21,18,18,,17,17,52,32,13,11,1.0,0.5
2025-01-09T0800,1621A,118.3956,35.0888,临沂市,河东保险公司,颗粒物(PM10),53,56,40,23,15,14,,23,23,55,29,11,8,0.9,0.6
2025-01-09T0800,3370A,118.3564,35.0215,临沂市,十里堡居委,颗粒物(PM10),59,68,43,34,16,10,,19,19,57,28,19,11,0.8,0.4
2025-01-09T0800,3496A,118.3604,35.1084,临沂市,南坊新区,颗粒物(PM10),52,53,41,24,14,19,,22,22,52,35,10,8,0.4,0.3
2025-01-09T0800,3860A,118.3920,35.0300,临沂市,皇山花园小区,颗粒物(PM10),52,53,44,18,13,21,,24,24,54,32,11,7,0.3,0.2
2025-01-09T0800,1870A,109.4856,24.3895,柳州市,柳东小学,细颗粒物(PM2.5),69,76,85,50,52,51,,56,56,16,18,12,12,0.6,0.6
2025-01-09T0800,1871A,109.4157,24.3277,柳州市,环保监测站,细颗粒物(PM2.5),69,84,99,50,54,44,,52,52,26,24,16,18,0.9,0.9
2025-01-09T0800,1872A,109.389,24.341,柳州市,河西水厂,颗粒物(PM10),71,92,99,51,55,48,,51,51,19,24,36,28,0.9,1.1
2025-01-09T0800,1873A,109.4311,24.2921,柳州市,市四中,细颗粒物(PM2.5),60,61,77,43,49,48,,56,56,22,22,13,14,1.5,1.4
2025-01-09T0800,1874A,109.4006,24.3631,柳州市,市九中,细颗粒物(PM2.5),77,84,90,56,56,46,,53,53,22,22,13,17,1.1,1
2025-01-09T0800,1875A,109.4958,24.3134,柳州市,古亭山,细颗粒物(PM2.5),63,59,74,45,49,52,,60,60,15,15,12,13,0.8,0.8
2025-01-09T0800,3402A,109.5422,24.3996,柳州市,市二中,细颗粒物(PM2.5),68,61,76,49,50,46,,52,52,18,18,10,11,0.7,0.7
2025-01-09T0800,2307A,116.5079,31.737,六安市,监测大楼,,41,41,60,19,31,26,,36,36,32,27,5,7,0.6,0.6
2025-01-09T0800,2308A,116.4738,31.7643,六安市,皖西学院,,48,48,67,20,32,23,,32,32,33,28,4,6,0.8,0.8
2025-01-09T0800,2309A,116.4996,31.7905,六安市,朝阳厂,,33,33,53,22,32,20,,32,32,34,25,1,4,0.8,0.8
2025-01-09T0800,2310A,116.5567,31.7886,六安市,开发区,颗粒物(PM10),58,66,87,29,42,10,,27,27,47,33,4,6,0.6,0.7
2025-01-09T0800,2576A,104.8,26.5892,六盘水市,窑上,,30,30,30,10,17,64,,56,56,6,9,9,9,0.5,0.7
2025-01-09T0800,2577A,104.83,26.5917,六盘水市,黄土坡,,20,13,20,3,16,63,,53,53,10,14,9,12,0.6,0.8
2025-01-09T0800,2578A,104.89,26.5939,六盘水市,水钢,,32,32,22,14,13,43,,45,45,35,16,12,7,0.9,0.8
2025-01-09T0800,2579A,104.8475,26.5894,六盘水市,民中,,20,10,18,7,13,63,,50,50,7,15,8,10,0.6,0.8
2025-01-09T0800,2580A,104.9544,26.5506,六盘水市,双水,,25,,15,17,13,54,,46,46,5,8,8,8,0.6,0.7
2025-01-09T0800,2335A,117.0189,25.1181,龙岩市,龙岩师专,,,,,,,,,,,,,,,,
2025-01-09T0800,2336A,117.0217,25.1033,龙岩市,龙岩市监测站,细颗粒物(PM2.5),60,50,64,43,45,23,,34,34,36,35,5,6,0.9,0.7
2025-01-09T0800,2337A,117.0258,25.0661,龙岩市,闽西职业技术学院,细颗粒物(PM2.5),77,85,74,56,40,5,,12,12,38,38,17,10,0.8,0.7
2025-01-09T0800,2338A,117.0196,25.0306,龙岩市,龙岩学院,细颗粒物(PM2.5),65,59,60,47,43,19,,24,24,27,26,7,10,0.7,0.6
2025-01-09T0800,2665A,105.0822,33.3261,陇南市,汉王镇固水子,,,,,,,,,,,,,,,,
2025-01-09T0800,2885A,104.9339,33.3826,陇南市,滨江中学,颗粒物(PM10),52,53,64,30,36,19,,35,35,45,34,138,65,1.2,1.3
2025-01-09T0800,3247A,104.955,33.371,陇南市,市总工会,颗粒物(PM10),55,59,64,31,33,22,,42,42,44,26,43,17,0.8,0.6
2025-01-09T0800,2487A,111.9589,27.8901,娄底市,电视发射台,细颗粒物(PM2.5),65,54,30,47,27,70,,54,54,16,15,8,7,0.5,0.5
2025-01-09T0800,2488A,111.9975,27.725,娄底市,市监测站,细颗粒物(PM2.5),59,58,54,42,38,66,,42,42,14,22,10,11,0.4,0.4
2025-01-09T0800,2489A,112.0194,27.7314,娄底市,市委党校,颗粒物(PM10),62,74,54,35,34,63,,42,42,21,28,8,8,0.5,0.5
2025-01-09T0800,2490A,111.9561,27.7569,娄底市,涟钢,细颗粒物(PM2.5),62,64,62,44,42,60,,37,37,12,20,2,5,0.4,0.5
2025-01-09T0800,2491A,111.9892,27.7044,娄底市,市政府,"颗粒物(PM10),细颗粒物(PM2.5)",55,59,54,39,34,61,,40,40,25,26,6,6,0.6,0.6
2025-01-09T0800,1893A,105.4324,28.9634,泸州市,九狮山,,,,,,,,,,,,,,,,
2025-01-09T0800,1894A,105.4427,28.9063,泸州市,小市上码头,细颗粒物(PM2.5),65,54,46,47,40,16,,22,22,29,25,2,2,0.6,0.5
2025-01-09T0800,1895A,105.4241,28.8573,泸州市,兰田宪桥,细颗粒物(PM2.5),67,58,45,48,41,27,,25,25,15,18,2,2,0.6,0.6
2025-01-09T0800,1896A,105.4379,28.8833,泸州市,市环监站,细颗粒物(PM2.5),64,56,45,46,38,17,,23,23,26,24,4,4,0.5,0.5
2025-01-09T0800,3490A,105.3617,28.7703,泸州市,纳溪区环保局,细颗粒物(PM2.5),63,46,46,45,40,13,,14,14,33,25,5,4,0.6,0.5
2025-01-09T0800,2183A,111.1406,37.5211,吕梁市,环保局,,46,46,47,16,14,4,,3,3,41,31,3,3,0.4,0.3
2025-01-09T0800,2185A,111.1297,37.5136,吕梁市,自来水公司,颗粒物(PM10),64,78,63,24,16,3,,4,4,36,27,7,6,0.5,0.5
2025-01-09T0800,2867A,111.1283,37.51,吕梁市,马茂庄小学,,,,58,,12,,,34,,,33,,5,,0.4
2025-01-09T0800,1812A,112.3931,34.6516,洛阳市,市委党校,颗粒物(PM10),64,77,66,35,24,2,,3,3,50,40,6,7,0.7,0.5
2025-01-09T0800,1814A,112.4657,34.6871,洛阳市,豫西宾馆,颗粒物(PM10),70,90,74,35,29,0,,10,10,45,34,4,7,0.9,0.7
2025-01-09T0800,1815A,112.494,34.6886,洛阳市,河南林校,"颗粒物(PM10),细颗粒物(PM2.5)",57,64,62,40,35,4,,11,11,42,35,2,4,0.7,0.6
2025-01-09T0800,1816A,112.3844,34.623,洛阳市,开发区管委会,颗粒物(PM10),59,68,62,37,34,2,,4,4,41,33,3,7,0.7,0.6
2025-01-09T0800,1817A,112.4267,34.6258,洛阳市,市委新办公区,颗粒物(PM10),64,77,63,42,33,6,,12,12,42,35,4,5,0.7,0.6
2025-01-09T0800,3340A,112.6005,34.6326,洛阳市,伊滨,颗粒物(PM10),68,85,69,32,26,5,,5,5,41,38,2,5,0.7,0.5
2025-01-09T0800,3341A,112.4951,34.6332,洛阳市,中移产业园,颗粒物(PM10),59,67,60,34,24,5,,11,11,40,33,4,5,0.5,0.5
2025-01-09T0800,3593A,112.5736,34.8993,洛阳市,吉利监测站,颗粒物(PM10),59,67,70,32,25,2,,3,3,53,37,4,4,0.8,0.5
2025-01-09T0800,3635A,112.3677,34.662,洛阳市,河科大西苑校区,颗粒物(PM10),68,85,68,45,32,8,,4,4,40,32,9,6,0.7,0.6
2025-01-09T0800,3636A,112.4388,34.6781,洛阳市,英才小学,颗粒物(PM10),65,80,65,34,29,0,,4,4,43,39,3,7,0.5,0.5
2025-01-09T0800,2399A,114.051,33.5699,漯河市,三五一五工厂,颗粒物(PM10),57,63,72,30,29,16,,30,30,37,23,7,8,0.6,0.5
2025-01-09T0800,2400A,114.0055,33.5698,漯河市,漯河大学,颗粒物(PM10),54,57,70,29,25,23,,37,37,38,23,6,7,0.5,0.4
2025-01-09T0800,2401A,114.0138,33.5828,漯河市,市水利局,颗粒物(PM10),56,61,70,31,27,13,,33,33,41,22,7,8,0.6,0.4
2025-01-09T0800,2402A,114.0261,33.5698,漯河市,市广电局,颗粒物(PM10),52,54,67,30,29,32,,36,36,25,20,6,8,0.6,0.6
2025-01-09T0800,3478A,113.9749,33.5664,漯河市,市图书馆,颗粒物(PM10),51,51,64,28,24,22,,37,37,40,25,6,6,0.5,0.4
2025-01-09T0800,3479A,114.0967,33.5906,漯河市,召陵区卫健委,颗粒物(PM10),55,60,62,38,37,5,,9,9,52,41,7,8,0.5,0.4
2025-01-09T0800,1798A,118.5092,31.6837,马鞍山市,湖东路四小,,50,50,79,17,35,28,,35,35,32,38,4,7,0.7,0.8
2025-01-09T0800,1799A,118.5024,31.6449,马鞍山市,开发区,,50,50,82,21,44,35,,36,36,19,31,7,10,0.9,0.9
2025-01-09T0800,1800A,118.5228,31.7231,马鞍山市,慈湖,,39,34,66,27,52,36,,37,37,25,44,6,11,0.6,1
2025-01-09T0800,1802A,118.6245,31.7241,马鞍山市,濮塘,,39,39,72,19,44,36,,30,30,18,31,7,8,0.3,0.5
2025-01-09T0800,3633A,118.4918,31.6809,马鞍山市,雨山,,50,50,81,20,42,33,,35,35,23,38,6,11,0.9,1
2025-01-09T0800,1686A,111.0286,21.4688,茂名市,电白南海,细颗粒物(PM2.5),125,151,95,95,52,38,,82,82,46,33,20,11,1.2,0.7
2025-01-09T0800,1687A,110.9294,21.6533,茂名市,茂石化七小,细颗粒物(PM2.5),113,134,106,85,52,61,,88,88,31,24,32,16,1.1,0.8
2025-01-09T0800,1688A,110.9107,21.6687,茂名市,健康路,细颗粒物(PM2.5),128,134,101,97,62,61,,87,87,34,28,29,15,1.2,0.9
2025-01-09T0800,1689A,110.8592,21.6828,茂名市,高岭,细颗粒物(PM2.5),128,136,114,97,70,55,,76,76,28,30,32,21,1.1,0.9
2025-01-09T0800,3450A,111.01,21.5165,茂名市,电白水东,细颗粒物(PM2.5),122,156,98,92,53,51,,84,84,37,22,36,18,1.1,0.8
2025-01-09T0800,2539A,104.0308,30.0478,眉山市,黑龙滩水库,细颗粒物(PM2.5),55,48,52,39,37,25,,25,25,5,9,3,3,0.7,0.7
2025-01-09T0800,2540A,103.8416,30.0874,眉山市,气象局,细颗粒物(PM2.5),70,83,75,51,48,6,,8,8,27,34,4,4,0.7,0.5
2025-01-09T0800,3137A,103.8578,30.0744,眉山市,市委党校,细颗粒物(PM2.5),77,66,57,56,40,3,,7,7,30,35,5,5,0.7,0.5
2025-01-09T0800,3148A,103.8291,30.0564,眉山市,区人社局,细颗粒物(PM2.5),70,73,53,51,44,4,,9,9,34,42,8,7,0.9,0.6
2025-01-09T0800,1690A,116.1231,24.3284,梅州市,梅江月梅,颗粒物(PM10),57,63,67,37,44,12,,22,22,41,36,9,10,0.7,0.7
2025-01-09T0800,1691A,116.0797,24.2719,梅州市,梅县新城,细颗粒物(PM2.5),52,52,73,36,46,13,,15,15,36,46,5,6,0.7,0.8
2025-01-09T0800,1692A,116.1248,24.2654,梅州市,环境监控中心,细颗粒物(PM2.5),63,61,73,45,47,10,,10,10,33,39,15,12,0.7,0.8
2025-01-09T0800,3315A,116.1233,24.2991,梅州市,梅龙,细颗粒物(PM2.5),60,61,67,43,44,10,,28,28,46,33,8,8,0.8,0.9
2025-01-09T0800,1878A,104.7778,31.4741,绵阳市,富乐山,细颗粒物(PM2.5),52,41,47,36,32,5,,21,21,43,30,2,3,0.8,0.7
2025-01-09T0800,1879A,104.7563,31.4535,绵阳市,市人大,颗粒物(PM10),57,63,59,39,34,2,,9,9,43,44,3,3,1.0,0.8
2025-01-09T0800,1880A,104.6697,31.4668,绵阳市,高新区自来水公司,细颗粒物(PM2.5),85,89,64,63,42,2,,4,4,34,35,6,4,1.0,0.7
2025-01-09T0800,1881A,104.7287,31.5075,绵阳市,三水厂,细颗粒物(PM2.5),67,74,61,48,40,3,,2,2,36,45,7,6,1.1,0.8
2025-01-09T0800,3491A,104.69,31.5322,绵阳市,西科大附属小学,细颗粒物(PM2.5),69,76,61,50,42,6,,6,6,36,45,6,6,0.9,0.9
2025-01-09T0800,3492A,104.5648,31.5343,绵阳市,安州区旅游局,细颗粒物(PM2.5),89,80,73,66,52,5,,5,5,30,36,5,9,0.8,0.7
2025-01-09T0800,1784A,129.61,44.561,牡丹江市,环保大楼,,40,40,33,17,23,30,,41,41,27,15,10,7,0.5,0.4
2025-01-09T0800,1785A,129.6115,44.5782,牡丹江市,文化广场,细颗粒物(PM2.5),52,49,39,36,30,36,,44,44,25,15,10,8,0.8,0.7
2025-01-09T0800,1786A,129.5904,44.5963,牡丹江市,第一医院,细颗粒物(PM2.5),55,44,34,39,34,46,,42,42,14,12,7,8,0.4,0.3
2025-01-09T0800,1787A,129.6364,44.6075,牡丹江市,机车工厂,,44,44,41,20,30,44,,41,41,18,14,9,11,0.6,0.6
2025-01-09T0800,1788A,129.6386,44.5462,牡丹江市,第一中学,,27,27,29,17,28,41,,41,41,14,13,6,6,0.5,0.4
2025-01-09T0800,2531A,105.0703,29.61,内江市,市监测站,细颗粒物(PM2.5),59,,39,42,45,9,,20,20,25,20,5,4,0.8,0.7
2025-01-09T0800,2532A,105.0717,29.5947,内江市,东兴区政府,细颗粒物(PM2.5),58,,36,41,40,18,,31,31,26,20,1,1,0.8,0.8
2025-01-09T0800,2533A,105.0653,29.5817,内江市,内江二中,细颗粒物(PM2.5),62,48,49,44,44,10,,21,21,36,25,7,7,0.9,0.8
2025-01-09T0800,2534A,105.0406,29.5822,内江市,内江日报社,细颗粒物(PM2.5),58,41,46,41,40,12,,18,18,27,24,8,9,0.9,0.8
2025-01-09T0800,2628A,92.0657,31.4846,那曲市,那曲监测站,,41,41,42,22,26,32,,55,55,19,21,8,9,1.3,1
2025-01-09T0800,3128A,92.0506,31.4797,那曲市,那曲会议中心,,34,34,29,16,18,37,,57,57,14,12,4,4,0.9,0.9
2025-01-09T0800,1290A,115.8931,28.6843,南昌市,省外办,颗粒物(PM10),78,105,107,56,64,31,,26,26,37,58,10,9,0.7,0.8
2025-01-09T0800,1291A,115.8886,28.7003,南昌市,省林业公司,细颗粒物(PM2.5),79,102,114,58,58,29,,25,25,42,63,12,11,0.6,0.6
2025-01-09T0800,1292A,115.8126,28.7442,南昌市,林科所,细颗粒物(PM2.5),77,92,91,56,50,37,,40,40,34,50,15,12,0.7,0.6
2025-01-09T0800,1294A,115.8518,28.687,南昌市,建工学校,颗粒物(PM10),71,91,113,50,59,29,,28,28,38,55,14,14,0.9,0.9
2025-01-09T0800,1295A,115.8921,28.6424,南昌市,象湖,细颗粒物(PM2.5),72,74,100,52,60,32,,30,30,37,57,12,12,0.6,0.6
2025-01-09T0800,1296A,115.7423,28.7996,南昌市,武术学校,颗粒物(PM10),65,79,54,38,27,28,,28,28,28,22,4,3,0.9,0.8
2025-01-09T0800,1298A,115.9314,28.6842,南昌市,省站,细颗粒物(PM2.5),77,89,131,56,61,28,,27,27,29,39,13,12,0.7,0.7
2025-01-09T0800,3046A,115.9084,28.6062,南昌市,机电学校,颗粒物(PM10),78,105,126,48,60,28,,26,26,32,50,16,17,0.6,0.7
2025-01-09T0800,3690A,115.9721,28.7031,南昌市,外国语学校,颗粒物(PM10),77,104,116,40,53,28,,29,29,32,48,11,10,0.7,0.7
2025-01-09T0800,1905A,106.056,30.8064,南充市,西山风景区,细颗粒物(PM2.5),52,47,37,36,35,5,,17,17,21,13,3,3,1.0,0.9
2025-01-09T0800,1906A,106.0789,30.8023,南充市,南充市委,细颗粒物(PM2.5),59,51,52,42,43,2,,4,4,24,28,3,3,0.7,0.6
2025-01-09T0800,1907A,106.1031,30.8217,南充市,南充炼油厂,颗粒物(PM10),54,57,54,35,44,10,,6,6,29,32,3,3,0.6,0.7
2025-01-09T0800,1908A,106.1064,30.7856,南充市,高坪区监测站,细颗粒物(PM2.5),62,62,55,44,43,2,,5,5,31,29,3,2,0.7,0.5
2025-01-09T0800,1909A,106.0642,30.7636,南充市,嘉陵区环保局,细颗粒物(PM2.5),64,53,56,46,43,2,,2,2,30,30,4,4,0.8,0.6
2025-01-09T0800,1910A,106.1087,30.8388,南充市,市环境监测站,细颗粒物(PM2.5),60,64,59,43,42,7,,6,6,26,27,4,5,0.5,0.5
2025-01-09T0800,1151A,118.8086,32.1065,南京市,迈皋桥,,32,32,57,9,30,35,,38,38,31,40,4,5,0.3,0.6
2025-01-09T0800,1152A,118.7538,32.0551,南京市,草场门,,44,44,63,9,28,40,,38,38,25,33,7,9,0.3,0.4
2025-01-09T0800,1153A,118.7794,32.0745,南京市,山西路,,46,46,68,14,30,50,,54,54,31,39,4,7,0.6,0.9
2025-01-09T0800,1154A,118.7752,32.0023,南京市,中华门,,36,36,62,12,30,36,,35,35,28,39,21,25,0.5,0.8
2025-01-09T0800,1155A,118.8109,32.0309,南京市,瑞金路,,48,48,67,19,33,33,,37,37,27,35,5,8,1.1,1.2
2025-01-09T0800,1156A,118.7997,32.0754,南京市,玄武湖,,38,38,63,10,28,31,,33,33,17,20,8,10,0.7,0.8
2025-01-09T0800,1157A,118.6414,32.0931,南京市,浦口,颗粒物(PM10),52,54,74,16,34,26,,26,26,23,24,9,10,0.3,0.5
2025-01-09T0800,1158A,118.7356,31.9996,南京市,奥体中心,,41,41,66,12,31,42,,42,42,26,37,9,12,0.4,0.6
2025-01-09T0800,1159A,118.9125,32.1028,南京市,仙林大学城,,41,41,68,14,34,30,,36,36,29,36,6,9,0.4,0.6
2025-01-09T0800,3422A,118.8436,31.9198,南京市,江宁彩虹桥,,47,47,71,17,32,32,,35,35,33,30,8,11,0.6,0.7
2025-01-09T0800,3423A,119.0138,31.6494,南京市,溧水永阳,,34,34,60,18,44,35,,40,40,24,34,4,6,0.4,0.5
2025-01-09T0800,3424A,118.879,31.3302,南京市,高淳老职中,,44,44,63,23,47,38,,32,32,23,33,6,9,0.4,0.5
2025-01-09T0800,3427A,118.8554,32.3578,南京市,六合雄州,,26,26,62,13,36,32,,23,23,15,24,3,5,0.7,0.8
2025-01-09T0800,1401A,108.3103,22.7881,南宁市,二十一中,细颗粒物(PM2.5),84,83,82,62,61,52,,68,68,34,30,6,8,0.9,0.9
2025-01-09T0800,1402A,108.3141,22.8528,南宁市,北湖,细颗粒物(PM2.5),84,86,90,62,59,37,,53,53,40,34,9,13,1.0,1
2025-01-09T0800,1403A,108.3206,22.8225,南宁市,市监测站,细颗粒物(PM2.5),92,93,106,68,68,44,,61,61,38,36,12,13,0.9,0.9
2025-01-09T0800,1404A,108.3829,22.8037,南宁市,大自然花园,细颗粒物(PM2.5),82,77,86,60,64,58,,66,66,29,28,8,10,0.9,1
2025-01-09T0800,1405A,108.4394,22.7904,南宁市,仙葫,细颗粒物(PM2.5),80,70,84,59,64,60,,63,63,20,24,8,9,0.7,0.8
2025-01-09T0800,1406A,108.2397,22.8467,南宁市,区农职院,细颗粒物(PM2.5),87,90,90,64,62,45,,54,54,25,28,10,14,0.8,0.9
2025-01-09T0800,1407A,108.3275,22.735,南宁市,英华嘉园,细颗粒物(PM2.5),79,87,86,58,56,44,,63,63,31,27,10,10,0.8,0.8
2025-01-09T0800,1408A,108.2257,22.7757,南宁市,沙井镇街道办,细颗粒物(PM2.5),90,118,101,67,64,16,,40,40,49,36,7,9,0.8,0.8
2025-01-09T0800,3401A,108.4834,22.7618,南宁市,红星社区,细颗粒物(PM2.5),78,78,81,57,61,60,,68,68,21,23,12,12,0.8,0.9
2025-01-09T0800,2331A,118.0966,26.6761,南平市,茫荡山,,,,,,,,,,,,,,,,
2025-01-09T0800,2332A,118.1681,26.6369,南平市,南平市监测站,颗粒物(PM10),53,55,57,32,34,8,,42,42,47,21,4,6,0.6,0.5
2025-01-09T0800,2333A,118.1825,26.6489,南平市,南平铝业有限公司,,44,44,57,29,34,24,,49,49,35,19,6,6,0.7,0.6
2025-01-09T0800,2334A,118.1756,26.6272,南平市,南平七中,,48,45,55,33,34,16,,29,29,33,23,2,4,0.6,0.6
2025-01-09T0800,1168A,120.9098,31.9663,南通市,狼山街道,,31,31,55,11,30,50,,53,53,12,26,6,9,0.5,0.8
2025-01-09T0800,1169A,120.86,32.0005,南通市,虹桥,,28,28,53,18,32,43,,49,49,18,29,6,9,0.4,0.6
2025-01-09T0800,1170A,120.87,32.02,南通市,城中,,37,37,64,9,31,46,,50,50,18,32,6,11,0.9,0.9
2025-01-09T0800,1171A,120.94,31.93,南通市,星湖花园,,36,36,53,18,31,50,,52,52,14,33,5,9,0.3,0.7
2025-01-09T0800,1172A,120.81,32.0417,南通市,紫琅学院,,34,34,52,15,28,40,,48,48,23,30,3,7,0.3,0.8
2025-01-09T0800,3291A,121.067,32.062,南通市,通州监测站,,31,31,55,14,28,48,,51,51,17,30,2,7,0.4,0.7
2025-01-09T0800,3432A,120.9348,31.9883,南通市,环境教育馆,,41,41,57,9,28,54,,56,56,15,31,6,9,0.5,0.8
2025-01-09T0800,2404A,112.5224,33.0122,南阳市,瓦房庄,颗粒物(PM10),59,68,87,31,42,37,,45,45,20,24,7,8,0.6,0.6
2025-01-09T0800,2405A,112.5003,32.9735,南阳市,汉画馆,颗粒物(PM10),57,63,80,32,42,34,,46,46,28,29,7,8,0.5,0.6
2025-01-09T0800,2406A,112.5573,33.027,南阳市,气象站,颗粒物(PM10),62,73,95,22,35,40,,45,45,21,26,7,8,0.6,0.6
2025-01-09T0800,2407A,112.5481,32.9689,南阳市,理工学院,颗粒物(PM10),57,63,81,37,44,34,,42,42,24,27,6,7,0.5,0.6
2025-01-09T0800,4008A,112.5234,32.9922,南阳市,卧龙区政府,颗粒物(PM10),57,63,84,29,41,31,,42,42,28,29,6,7,0.5,0.5
2025-01-09T0800,1234A,121.8358,29.911,宁波市,区环保大楼,,38,38,89,11,51,43,,44,44,25,61,10,14,0.5,0.8
2025-01-09T0800,1235A,121.56,29.82,宁波市,万里学院,,30,30,74,20,51,38,,34,34,25,46,5,6,0.5,0.6
2025-01-09T0800,1236A,121.713,29.9572,宁波市,龙赛医院,,37,37,97,21,54,43,,44,44,34,52,10,12,0.6,0.7
2025-01-09T0800,1239A,121.633,29.7733,宁波市,钱湖水厂,,34,34,87,18,56,46,,36,36,19,43,5,7,0.5,0.7
2025-01-09T0800,1240A,121.5856,29.8635,宁波市,太古小学,,32,32,80,18,50,46,,37,37,22,43,8,10,0.8,1
2025-01-09T0800,1241A,121.524,29.8674,宁波市,市环境监测中心,,39,39,75,18,48,30,,29,29,27,45,9,10,0.6,0.8
2025-01-09T0800,2871A,121.6147,29.9017,宁波市,万里国际学校,,44,44,83,17,53,38,,32,32,27,52,6,8,0.4,0.7
2025-01-09T0800,3710A,121.5594,29.8975,宁波市,白沙活动中心,,40,40,76,16,49,49,,38,38,24,50,8,10,0.4,0.7
2025-01-09T0800,2339A,119.5001,26.6946,宁德市,金涵水库,,,,,,,,,,,,,,,,
2025-01-09T0800,2341A,119.5388,26.6612,宁德市,宁德市监测站,,39,29,52,27,33,36,,55,55,12,9,2,3,0.7,0.6
2025-01-09T0800,3209A,119.5231,26.6562,宁德市,宁德一中,,33,28,45,23,29,45,,66,66,16,12,2,3,0.5,0.5
2025-01-09T0800,2618A,98.8601,25.8567,怒江傈僳族自治州,州监测站,,20,20,28,10,17,13,,22,22,8,11,3,3,0.5,0.5
2025-01-09T0800,2619A,98.8546,25.8417,怒江傈僳族自治州,泸水一中,,18,,21,12,19,5,,8,8,13,18,7,7,0.4,0.4
2025-01-09T0800,1888A,101.6891,26.571,攀枝花市,弄弄坪,颗粒物(PM10),61,71,44,38,24,5,,16,16,38,27,10,20,1.8,0.9
2025-01-09T0800,1889A,101.5769,26.5928,攀枝花市,河门口,,34,34,31,22,18,14,,20,20,23,21,7,13,0.7,0.9
2025-01-09T0800,1890A,101.7169,26.585,攀枝花市,炳草岗,细颗粒物(PM2.5),92,92,51,68,31,5,,5,5,33,36,11,16,1.0,0.8
2025-01-09T0800,1891A,101.7369,26.5008,攀枝花市,仁和,,39,,22,27,18,7,,11,11,26,23,10,11,1.6,0.8
2025-01-09T0800,2835A,101.7227,26.567,攀枝花市,四十中小,颗粒物(PM10),54,58,42,37,24,5,,6,6,41,32,13,24,2.1,1.1
2025-01-09T0800,1604A,122.0303,41.1489,盘锦市,开发区,,50,,33,35,14,26,,50,50,41,11,8,6,1.1,0.8
2025-01-09T0800,1605A,122.0485,41.0883,盘锦市,兴隆台,,17,14,32,11,10,35,,50,50,34,13,11,10,0.5,0.4
2025-01-09T0800,1606A,121.8297,41.1028,盘锦市,新生街道,,28,11,26,3,8,15,,34,34,55,23,8,7,0.8,0.6
2025-01-09T0800,1832A,113.3257,33.742,平顶山市,新华旅馆,颗粒物(PM10),67,84,85,41,31,22,,19,19,39,31,10,9,0.4,0.4
2025-01-09T0800,1833A,113.2919,33.737,平顶山市,规划设计院,颗粒物(PM10),57,64,65,33,27,29,,34,34,33,24,6,7,0.3,0.2
2025-01-09T0800,1834A,113.182,33.774,平顶山市,平顶山工学院,颗粒物(PM10),67,84,75,31,25,10,,23,23,46,26,4,6,0.7,0.7
2025-01-09T0800,3204A,113.3025,33.73,平顶山市,规划局,颗粒物(PM10),59,68,78,32,29,31,,33,33,26,21,7,8,0.3,0.2
2025-01-09T0800,3594A,112.8867,33.9116,平顶山市,石龙区,颗粒物(PM10),104,157,102,45,36,4,,4,4,47,27,9,9,0.8,0.8
2025-01-09T0800,2656A,106.6692,35.5461,平凉市,聚贤嘉苑,,44,44,44,28,24,9,,20,20,62,43,25,16,0.8,0.7
2025-01-09T0800,2657A,106.7021,35.5307,平凉市,博物馆,颗粒物(PM10),59,68,56,34,33,14,,24,24,40,37,18,20,0.8,0.6
2025-01-09T0800,2347A,114.0997,27.5002,萍乡市,武功山,细颗粒物(PM2.5),69,54,76,50,56,20,,28,28,16,24,7,9,0.8,0.9
2025-01-09T0800,2348A,113.8385,27.6434,萍乡市,中医院,,49,46,93,34,51,31,,33,33,17,27,11,12,0.8,1
2025-01-09T0800,2349A,113.8493,27.6253,萍乡市,市政府车库,细颗粒物(PM2.5),59,54,84,42,63,36,,32,32,20,29,19,14,0.7,0.9
2025-01-09T0800,2350A,113.8676,27.6435,萍乡市,市环保局,"颗粒物(PM10),细颗粒物(PM2.5)",54,58,97,38,62,35,,42,42,19,28,22,15,0.8,0.9
2025-01-09T0800,2351A,113.866,27.6198,萍乡市,安源区政府,颗粒物(PM10),61,71,100,36,62,34,,26,26,22,32,16,12,0.6,0.8
2025-01-09T0800,2319A,119.0141,25.4325,莆田市,荔城区仓后路,,43,40,43,30,20,56,,67,67,19,15,2,2,0.8,0.7
2025-01-09T0800,2320A,119.0015,25.4553,莆田市,莆田市监测站,,33,,37,23,18,52,,57,57,12,14,3,3,0.6,0.6
2025-01-09T0800,2321A,119.1119,25.4561,莆田市,涵江区六中,,49,49,42,34,19,60,,71,71,27,17,1,1,0.5,0.5
2025-01-09T0800,2322A,119.1013,25.3215,莆田市,秀屿区政府,,46,44,41,32,21,70,,68,68,23,18,2,3,0.5,0.5
2025-01-09T0800,2323A,118.981,25.4792,莆田市,东圳水库,,,,,,,,,,,,,,,,
2025-01-09T0800,2392A,115.0312,35.7636,濮阳市,环保局,颗粒物(PM10),54,57,41,24,14,14,,16,16,44,24,4,3,0.6,0.3
2025-01-09T0800,2394A,115.0574,35.7609,濮阳市,油田运输公司,颗粒物(PM10),60,69,43,24,14,17,,14,14,34,23,4,2,0.6,0.4
2025-01-09T0800,2395A,115.0866,35.7754,濮阳市,油田物探公司,颗粒物(PM10),56,62,48,30,17,9,,13,13,44,24,6,4,0.7,0.4
2025-01-09T0800,3021A,115,35.7668,濮阳市,濮水河管理处,颗粒物(PM10),61,71,45,31,14,4,,5,5,46,27,6,4,0.6,0.3
2025-01-09T0800,2601A,100.98,22.7633,普洱市,市环保局,,39,39,44,15,15,16,,26,26,14,10,5,4,0.6,0.5
2025-01-09T0800,2602A,100.9817,22.8322,普洱市,普洱第二中学,,41,41,39,25,21,10,,13,13,22,18,4,5,0.7,0.6
2025-01-09T0800,2262A,131.0518,45.8751,七台河市,新一中,,28,28,28,15,22,60,,60,60,8,8,12,11,1.8,1.8
2025-01-09T0800,3345A,131.0577,45.7879,七台河市,中波台,,44,44,45,15,29,45,,44,44,15,19,14,14,0.9,1
2025-01-09T0800,3637A,131.0176,45.7761,七台河市,人民广场,,38,35,54,26,45,44,,49,49,21,23,8,7,0.7,0.8
2025-01-09T0800,3684A,130.8781,45.8222,七台河市,新建矿广场,,,,32,,36,,,36,,,19,,12,,0.6
2025-01-09T0800,1779A,123.9305,47.3636,齐齐哈尔市,安居小区,,20,15,37,3,28,62,,53,53,12,18,6,7,0.2,0.4
2025-01-09T0800,1780A,123.9488,47.3386,齐齐哈尔市,中心广场,,20,14,28,6,19,62,,60,60,11,15,3,3,0.4,0.6
2025-01-09T0800,1781A,123.9483,47.3227,齐齐哈尔市,农牧车辆厂,,19,,29,10,20,59,,58,58,15,17,6,5,0.3,0.5
2025-01-09T0800,1783A,123.945,47.2988,齐齐哈尔市,市环境监测站,,19,16,39,3,24,59,,55,55,18,22,5,3,0.4,0.5
2025-01-09T0800,3662A,123.6333,47.2075,齐齐哈尔市,富区青少年活动中心,,19,19,35,3,18,53,,55,55,23,16,8,9,0.6,0.6
2025-01-09T0800,2591A,107.9783,26.5747,黔东南苗族侗族自治州,市环境监测站,,25,19,33,17,25,32,,43,43,15,14,2,2,0.5,0.5
2025-01-09T0800,2881A,107.8908,26.5311,黔东南苗族侗族自治州,凯里学院,,22,,23,15,26,30,,39,39,11,14,2,3,0.5,0.6
2025-01-09T0800,2593A,107.5228,26.2403,黔南布依族苗族自治州,小围寨,,13,7,20,7,19,39,,42,42,9,12,3,4,0.5,0.6
2025-01-09T0800,3538A,107.5175,26.2978,黔南布依族苗族自治州,沙坝,,12,7,28,7,23,36,,38,38,9,14,4,4,0.5,0.6
2025-01-09T0800,2589A,104.9022,25.0925,黔西南布依族苗族自治州,场坝街,,45,36,31,31,20,26,,34,34,16,18,39,6,0.6,0.6
2025-01-09T0800,2590A,104.8811,25.0992,黔西南布依族苗族自治州,坪东大道,,29,,29,20,22,29,,34,34,12,16,6,5,0.6,0.7
2025-01-09T0800,2502A,108.6236,21.9667,钦州市,市环保站,颗粒物(PM10),85,119,136,58,72,53,,64,64,30,37,23,13,1.0,1
2025-01-09T0800,2503A,108.6549,21.9481,钦州市,沙埠小学,颗粒物(PM10),75,100,118,51,63,58,,70,70,24,29,10,12,0.7,0.8
2025-01-09T0800,2504A,108.5989,21.7431,钦州市,港区一小,颗粒物(PM10),79,107,138,56,71,41,,64,64,47,42,11,14,0.9,0.9
2025-01-09T0800,3404A,108.5959,21.9633,钦州市,北职校,细颗粒物(PM2.5),97,94,113,72,91,57,,63,63,22,34,9,12,0.9,1
2025-01-09T0800,1042A,119.5134,39.8207,秦皇岛市,北戴河环保局,,18,14,14,9,8,57,,54,54,11,10,1,1,0.2,0.2
2025-01-09T0800,1043A,119.7493,40.0116,秦皇岛市,第一关,,20,20,24,14,20,62,,36,36,12,31,2,4,0.2,0.3
2025-01-09T0800,1044A,119.5897,39.9499,秦皇岛市,监测站,,37,37,37,11,10,61,,51,51,9,21,2,4,0.3,0.3
2025-01-09T0800,1046A,119.5251,39.9041,秦皇岛市,建设大厦,,32,31,32,22,19,57,,44,44,6,11,3,2,0.2,0.3
2025-01-09T0800,3132A,119.610547,39.943889,秦皇岛市,文明里,,35,35,30,22,16,59,,56,56,13,14,3,4,0.2,0.3
2025-01-09T0800,1307A,120.6659,36.2403,青岛市,仰口,,24,24,24,11,15,62,,60,60,10,10,4,3,0.9,0.6
2025-01-09T0800,1310A,120.4134,36.0658,青岛市,市南区东部子站,,34,34,41,17,12,45,,47,47,24,20,11,10,0.6,0.5
2025-01-09T0800,1311A,120.3664,36.1032,青岛市,四方区子站,,25,22,32,17,13,44,,50,50,29,22,12,11,0.7,0.7
2025-01-09T0800,1312A,120.2994,36.054,青岛市,市南区西部子站,,22,22,31,7,10,44,,42,42,22,13,10,10,0.8,0.7
2025-01-09T0800,1313A,120.4581,36.0858,青岛市,崂山区子站,,24,24,24,9,9,45,,49,49,23,15,10,9,0.8,0.7
2025-01-09T0800,1314A,120.1983,35.9608,青岛市,黄岛区子站,,27,27,34,15,13,36,,42,42,32,24,9,8,0.8,0.7
2025-01-09T0800,1315A,120.3999,36.3083,青岛市,城阳区子站,,39,39,34,22,14,22,,35,35,44,25,10,9,1.0,0.8
2025-01-09T0800,1966A,120.0405,35.8735,青岛市,黄岛区4号,,34,34,35,12,8,33,,42,42,34,19,12,9,0.7,0.7
2025-01-09T0800,3362A,120.5014,36.4034,青岛市,即墨2号,颗粒物(PM10),53,55,35,28,17,14,,26,26,45,26,11,9,0.9,0.7
2025-01-09T0800,3642A,120.3503,36.0736,青岛市,市北区南部,,40,40,40,9,9,39,,45,45,34,24,8,8,0.5,0.5
2025-01-09T0800,3643A,120.3948,36.1805,青岛市,李沧区北部,,31,31,39,17,18,38,,40,40,30,22,12,12,0.7,0.6
2025-01-09T0800,1702A,113.0426,23.691,清远市,环保大楼,细颗粒物(PM2.5),72,79,72,52,48,62,,83,83,23,19,8,8,0.9,1
2025-01-09T0800,1703A,113.0208,23.7106,清远市,凤城街办,细颗粒物(PM2.5),74,84,73,54,48,69,,86,86,21,25,12,12,0.9,0.9
2025-01-09T0800,3025A,113.0477,23.6344,清远市,技师学院,颗粒物(PM10),65,80,72,44,43,59,,80,80,33,28,12,11,1.0,0.9
2025-01-09T0800,3318A,112.9903,23.7403,清远市,清新太和,细颗粒物(PM2.5),67,81,75,48,45,68,,85,85,28,28,12,12,0.9,0.8
2025-01-09T0800,3455A,113.076,23.7198,清远市,清城东城,颗粒物(PM10),66,82,68,46,42,68,,86,86,22,19,16,15,1.1,1
2025-01-09T0800,2661A,107.6325,35.7357,庆阳市,庆阳五中,,36,36,37,19,21,53,,56,56,15,16,15,12,0.6,0.5
2025-01-09T0800,2662A,107.6364,35.7067,庆阳市,市环保局,,34,34,36,10,15,59,,62,62,13,14,5,6,0.5,0.5
2025-01-09T0800,1916A,103.7897,25.5035,曲靖市,环境监测站,,21,21,43,9,25,14,,19,19,21,22,7,6,1.0,1.1
2025-01-09T0800,1917A,103.8,25.5364,曲靖市,烟厂办公区,,23,,40,16,23,16,,18,18,20,20,4,4,0.7,0.9
2025-01-09T0800,3376A,103.7947,25.462,曲靖市,南苑二区,,25,24,39,17,30,17,,25,25,23,21,6,6,1.1,1.1
2025-01-09T0800,3377A,103.7444,25.5261,曲靖市,曲靖师范学院,,16,16,37,10,26,22,,23,23,17,21,5,6,0.8,1
2025-01-09T0800,1264A,118.8692,28.9398,衢州市,环保大楼,"颗粒物(PM10),细颗粒物(PM2.5)",67,84,159,48,87,29,,18,18,48,69,7,8,0.7,1
2025-01-09T0800,1265A,118.8709,28.9666,衢州市,实验学校,颗粒物(PM10),64,78,137,41,82,20,,8,8,46,67,9,11,0.6,0.9
2025-01-09T0800,1266A,118.8621,28.9808,衢州市,衢州学院,细颗粒物(PM2.5),62,67,138,44,81,9,,5,5,60,69,6,8,1.0,1.1
2025-01-09T0800,1611A,118.5819,24.9117,泉州市,涂山街,,45,45,46,30,23,41,,50,50,27,18,2,2,0.6,0.4
2025-01-09T0800,1612A,118.5972,24.8978,泉州市,津头埔,,47,47,75,27,23,52,,59,59,29,21,2,3,0.4,0.4
2025-01-09T0800,1613A,118.6663,24.9424,泉州市,万安,颗粒物(PM10),51,51,46,27,19,71,,68,68,26,20,2,2,0.4,0.4
2025-01-09T0800,1614A,118.6117,24.9604,泉州市,清源山,,,,25,,19,,,,,,11,,2,,0.5
2025-01-09T0800,3529A,118.6333,24.9264,泉州市,城华南路,颗粒物(PM10),51,52,57,27,20,66,,73,73,28,20,4,4,0.4,0.4
2025-01-09T0800,2626A,88.8876,29.2718,日喀则市,日喀则监测站,,29,29,24,18,17,5,,20,20,45,25,5,5,0.5,0.5
2025-01-09T0800,3726A,88.8781,29.2426,日喀则市,林业技术推广中心,,24,24,20,13,8,26,,42,42,13,6,7,8,0.7,0.5
2025-01-09T0800,1659A,119.471,35.4209,日照市,监测站,,29,29,35,10,11,30,,44,44,44,22,7,8,0.5,0.4
2025-01-09T0800,1660A,119.523,35.4216,日照市,市政府广场,,19,19,32,7,8,56,,57,57,12,9,3,5,0.6,0.7
