timepoint,stationcode,longitude,latitude,area,positionname,primarypollutant,aqi,pm10,pm10_24h,pm2_5,pm2_5_24h,o3,o3_24h,o3_8h,o3_8h_24h,no2,no2_24h,so2,so2_24h,co,co_24h
2024-12-31T0000,2566A,102.1879,31.914,阿坝藏族羌族自治州,州农科所,,23,11,29,9,10,72,,57,,4,13,5,8,0.6,0.9
2024-12-31T0000,2568A,102.2502,31.8896,阿坝藏族羌族自治州,马师校,,31,31,27,16,16,71,,73,58,5,21,4,4,0.3,0.4
2024-12-31T0000,3994A,102.2165,31.9024,阿坝藏族羌族自治州,马尔康中学西区,,30,29,35,21,17,77,,87,77,4,13,6,6,0.5,0.5
2024-12-31T0000,2695A,80.292,41.1694,阿克苏地区,电视台,细颗粒物(PM2.5),203,202,148,153,103,6,,50,43,83,58,3,4,3.3,2.2
2024-12-31T0000,2696A,80.2613,41.1551,阿克苏地区,艺术中心,细颗粒物(PM2.5),112,138,129,84,79,42,,53,46,41,47,4,4,1.1,1.3
2024-12-31T0000,2204A,105.6467,38.8363,阿拉善盟,西城区西花园,,31,19,59,10,27,97,,88,84,9,13,9,9,0.6,0.7
2024-12-31T0000,2205A,105.6985,38.8411,阿拉善盟,蒙二幼,,29,6,54,3,15,92,,82,75,10,14,3,4,0.5,0.6
2024-12-31T0000,2206A,105.724,38.8516,阿拉善盟,环保局新楼,,32,6,46,3,15,100,,93,86,4,8,7,7,0.5,0.5
2024-12-31T0000,2708A,88.1264,47.8517,阿勒泰地区,市站,,33,25,17,23,11,26,,52,30,36,32,8,9,0.7,0.5
2024-12-31T0000,2630A,80.1161,32.5,阿里地区,阿里监测站,,30,28,15,21,10,39,,91,77,47,15,22,13,0.9,0.6
2024-12-31T0000,3192A,80.0903,32.5028,阿里地区,阿里藏医院,,21,16,13,9,9,66,,89,83,16,10,14,13,0.7,0.7
2024-12-31T0000,2642A,109.0318,32.6537,安康市,香溪洞,细颗粒物(PM2.5),65,61,52,47,43,52,,81,75,19,16,12,10,0.6,0.6
2024-12-31T0000,2644A,109.0072,32.6975,安康市,汉滨区检察院,细颗粒物(PM2.5),64,68,67,46,49,23,,63,38,37,33,5,6,0.7,0.7
2024-12-31T0000,4054A,109.0325,32.6913,安康市,市邮政管理局,细颗粒物(PM2.5),70,74,78,51,52,14,,50,20,47,41,6,7,0.9,1.1
2024-12-31T0000,2291A,117.0809,30.5177,安庆市,环科院,细颗粒物(PM2.5),114,111,106,86,74,2,,70,32,98,63,10,10,1.0,0.8
2024-12-31T0000,2292A,117.0331,30.5119,安庆市,马山宾馆,细颗粒物(PM2.5),112,107,106,84,73,1,,55,22,93,65,10,12,1.0,0.8
2024-12-31T0000,2294A,116.9896,30.6145,安庆市,安庆大学,细颗粒物(PM2.5),107,115,116,80,78,14,,72,31,67,64,12,15,0.9,0.9
2024-12-31T0000,3173A,117.0598,30.5351,安庆市,市人大,细颗粒物(PM2.5),124,113,106,94,76,2,,66,30,94,68,13,11,1.3,0.9
2024-12-31T0000,3122A,105.9606,26.2611,安顺市,伍家关,,42,32,21,29,16,57,,64,59,11,14,13,14,1.1,1.1
2024-12-31T0000,3123A,105.9408,26.2431,安顺市,凤凰山,,46,,19,32,15,48,,54,50,21,22,20,15,0.8,0.8
2024-12-31T0000,3124A,105.9439,26.2564,安顺市,金钟山,细颗粒物(PM2.5),53,40,15,37,16,51,,58,54,12,14,22,17,0.9,0.9
2024-12-31T0000,3125A,105.8983,26.2481,安顺市,娄家坡,细颗粒物(PM2.5),52,,22,36,22,41,,52,47,23,18,30,21,0.8,0.8
2024-12-31T0000,1818A,114.4839,36.0621,安阳市,棉研所,颗粒物(PM10),97,144,121,70,60,23,,60,32,49,45,12,14,0.8,0.8
2024-12-31T0000,1819A,114.3551,36.1017,安阳市,红庙街,细颗粒物(PM2.5),122,156,113,92,60,9,,62,26,60,46,8,10,1.4,1.3
2024-12-31T0000,1820A,114.361,36.0681,安阳市,银杏小区,细颗粒物(PM2.5),123,167,111,93,63,6,,59,23,64,50,8,7,1.5,1.2
2024-12-31T0000,3141A,114.3922,36.0878,安阳市,信访局,颗粒物(PM10),110,169,112,78,56,11,,62,25,67,50,7,8,1.0,1
2024-12-31T0000,3669A,114.4705,36.0637,安阳市,左辅环卫站,细颗粒物(PM2.5),107,152,123,80,62,20,,65,41,52,38,10,12,0.8,0.9
2024-12-31T0000,3703A,114.2917,36.0949,安阳市,安钢职工学校,细颗粒物(PM2.5),134,212,129,102,71,12,,59,28,64,47,13,10,1.8,1.1
2024-12-31T0000,1748A,123.044,41.1196,鞍山市,深沟寺,颗粒物(PM10),54,58,88,29,46,54,,61,50,12,33,14,22,0.8,1.5
2024-12-31T0000,1749A,123.011,41.0931,鞍山市,太阳城,颗粒物(PM10),54,57,88,20,45,32,,63,47,41,39,47,25,2.6,1.7
2024-12-31T0000,1750A,123.0485,41.1442,鞍山市,太平,颗粒物(PM10),53,56,97,19,46,47,,64,48,22,38,18,21,0.9,1.5
2024-12-31T0000,1751A,122.9642,41.0971,鞍山市,铁西三道街,,40,40,105,10,54,55,,61,40,15,38,14,16,0.8,1.5
2024-12-31T0000,1752A,122.9341,41.0833,鞍山市,铁西工业园区,颗粒物(PM10),52,53,111,17,62,46,,59,35,29,45,23,18,1.0,1.6
2024-12-31T0000,1753A,123.022,41.0821,鞍山市,明达新区,,50,50,92,17,45,37,,62,48,29,28,36,25,2.2,1.6
2024-12-31T0000,1754A,123.1289,41.0228,鞍山市,千山,,,,75,,39,,,55,,,28,,10,,0.7
2024-12-31T0000,2195A,107.4212,40.761,巴彦淖尔市,附二中,颗粒物(PM10),86,122,100,37,29,10,,68,36,72,25,7,9,0.5,0.5
2024-12-31T0000,2196A,107.37,40.7372,巴彦淖尔市,市环保大楼,颗粒物(PM10),75,100,121,22,30,46,,66,53,22,16,4,4,0.4,0.4
2024-12-31T0000,1956A,86.1472,41.7538,巴音郭楞蒙古自治州,孔雀公园,细颗粒物(PM2.5),72,77,102,52,57,68,,65,65,19,27,5,5,0.6,0.6
2024-12-31T0000,1957A,86.1972,41.7166,巴音郭楞蒙古自治州,棉纺厂,"颗粒物(PM10),细颗粒物(PM2.5)",83,115,123,61,52,45,,59,48,41,37,3,3,0.7,0.7
2024-12-31T0000,1958A,86.2357,41.7173,巴音郭楞蒙古自治州,经济开发区,细颗粒物(PM2.5),74,95,94,54,48,72,,71,66,18,22,3,3,0.7,0.7
2024-12-31T0000,2914A,106.7677,31.8794,巴中市,苏山坪,细颗粒物(PM2.5),103,93,106,77,86,70,,86,80,16,31,3,3,0.4,0.6
2024-12-31T0000,3182A,106.7656,31.8545,巴中市,丽阳花园,细颗粒物(PM2.5),119,123,122,90,93,6,,57,22,51,43,3,4,0.9,1
2024-12-31T0000,3183A,106.7418,31.8654,巴中市,圣泉水务公司,细颗粒物(PM2.5),115,115,112,87,88,4,,66,21,57,42,3,3,0.8,0.7
2024-12-31T0000,3616A,106.7616,31.8344,巴中市,市中心医院,细颗粒物(PM2.5),160,148,121,122,104,4,,67,21,54,38,3,3,1.0,0.9
2024-12-31T0000,2235A,122.7911,45.6077,白城市,洮北区环保局,,35,33,65,24,58,53,,46,40,13,25,5,6,0.4,0.7
2024-12-31T0000,2236A,122.8738,45.5725,白城市,市环保局,,29,29,78,18,55,44,,43,22,17,27,7,8,0.4,0.7
2024-12-31T0000,2231A,126.4219,41.9171,白山市,喜丰,,37,37,75,8,26,69,,68,68,5,22,3,18,0.6,0.9
2024-12-31T0000,2232A,126.4077,41.9419,白山市,环保局,颗粒物(PM10),51,52,126,8,33,68,,67,67,6,22,6,13,0.7,1.1
2024-12-31T0000,2647A,104.1724,36.5446,白银市,第三小学,细颗粒物(PM2.5),73,84,59,53,35,12,,66,34,63,44,39,35,1.3,1.1
2024-12-31T0000,2648A,104.1465,36.5482,白银市,动力公司,细颗粒物(PM2.5),90,78,49,67,36,14,,70,30,48,36,6,19,1.2,1
2024-12-31T0000,2512A,106.6103,23.9011,百色市,市监测站,细颗粒物(PM2.5),84,70,95,62,77,53,,84,74,21,33,9,14,1.0,1.1
2024-12-31T0000,2513A,106.6538,23.8859,百色市,市中心血站,细颗粒物(PM2.5),113,108,125,85,93,13,,81,62,76,50,9,16,1.1,1.2
2024-12-31T0000,3406A,106.6085,23.8798,百色市,祈福高中,细颗粒物(PM2.5),102,134,121,76,73,11,,69,47,54,50,8,10,1.2,1.2
2024-12-31T0000,2270A,117.396,32.939,蚌埠市,工人疗养院,细颗粒物(PM2.5),112,163,115,84,69,37,,82,55,45,42,10,10,0.8,0.8
2024-12-31T0000,2271A,117.3605,32.9427,蚌埠市,百货大楼,细颗粒物(PM2.5),119,177,118,90,69,21,,80,45,54,40,9,10,0.8,0.8
2024-12-31T0000,2273A,117.4185,32.8911,蚌埠市,蚌埠学院,颗粒物(PM10),112,173,121,81,67,42,,92,63,41,38,11,12,0.7,0.7
2024-12-31T0000,2274A,117.3533,32.9673,蚌埠市,淮上区政府,细颗粒物(PM2.5),124,185,123,94,71,14,,83,42,63,39,12,12,0.7,0.7
2024-12-31T0000,2275A,117.3145,32.8977,蚌埠市,高新区,细颗粒物(PM2.5),112,166,127,84,73,30,,82,51,50,49,11,12,0.8,0.8
2024-12-31T0000,3715A,117.3092,32.9314,蚌埠市,蚌埠田家炳中学,细颗粒物(PM2.5),119,178,129,90,74,20,,82,44,55,44,12,12,0.8,0.8
2024-12-31T0000,1585A,109.8756,40.6532,包头市,市环境监测站,,50,50,101,21,22,6,,70,22,63,34,11,9,0.8,0.7
2024-12-31T0000,1587A,109.9991,40.5842,包头市,包头八中,颗粒物(PM10),69,88,118,37,33,8,,70,22,58,36,10,8,1.3,0.8
2024-12-31T0000,1588A,109.8538,40.6821,包头市,青山宾馆,细颗粒物(PM2.5),55,55,80,39,22,6,,69,20,61,30,16,10,1.2,0.6
2024-12-31T0000,1589A,109.8642,40.6288,包头市,惠龙物流,,48,48,98,11,24,4,,68,22,63,35,10,10,0.7,0.9
2024-12-31T0000,1590A,110.0377,40.5546,包头市,东河鸿龙湾,颗粒物(PM10),67,83,136,30,28,8,,62,,67,45,16,13,1.8,1.1
2024-12-31T0000,3283A,109.9154,40.5685,包头市,滨河大厦,颗粒物(PM10),54,57,103,26,27,7,,69,32,66,34,15,12,2.0,0.9
2024-12-31T0000,3419A,109.9447,40.6261,包头市,包头市委党校,颗粒物(PM10),55,60,112,27,25,7,,68,24,75,39,12,8,0.9,0.6
2024-12-31T0000,3683A,109.8331,40.6576,包头市,昆区政府,颗粒物(PM10),54,58,99,23,28,4,,68,21,63,32,12,10,1.1,0.8
2024-12-31T0000,1930A,107.185,34.3063,宝鸡市,庙沟村,,17,16,23,9,16,52,,82,69,28,18,6,6,0.4,0.4
2024-12-31T0000,1931A,107.0708,34.3017,宝鸡市,竹园沟,,21,21,32,14,22,30,,78,55,25,21,5,5,0.5,0.5
2024-12-31T0000,1932A,107.1906,34.3672,宝鸡市,三陆医院,细颗粒物(PM2.5),65,53,60,47,42,29,,62,26,33,42,6,5,0.8,0.8
2024-12-31T0000,1933A,107.1431,34.3547,宝鸡市,监测站,,40,40,55,28,35,16,,69,34,41,34,6,6,0.6,0.7
2024-12-31T0000,1934A,107.1186,34.3739,宝鸡市,技工学校,细颗粒物(PM2.5),53,38,62,37,36,33,,70,40,23,28,4,6,0.5,0.6
2024-12-31T0000,1935A,107.3906,34.3528,宝鸡市,陈仓区环保局家属楼,细颗粒物(PM2.5),99,105,78,74,53,12,,65,27,60,46,8,56,0.9,0.9
2024-12-31T0000,1936A,107.2058,34.3497,宝鸡市,文理学院,细颗粒物(PM2.5),52,52,51,36,32,30,,67,32,36,35,6,6,0.5,0.6
2024-12-31T0000,1937A,107.2386,34.3622,宝鸡市,三迪小学,细颗粒物(PM2.5),57,45,60,40,41,21,,64,27,43,43,6,6,0.8,0.8
2024-12-31T0000,1051A,115.493,38.8632,保定市,游泳馆,颗粒物(PM10),77,103,116,36,53,5,,67,27,66,50,3,5,0.5,0.8
2024-12-31T0000,1052A,115.5213,38.8959,保定市,华电二区,颗粒物(PM10),53,55,100,24,58,6,,60,24,69,62,3,3,0.3,0.5
2024-12-31T0000,1053A,115.4713,38.9108,保定市,接待中心,颗粒物(PM10),54,57,110,23,52,20,,67,30,54,45,3,3,0.5,0.8
2024-12-31T0000,1054A,115.4612,38.8416,保定市,地表水厂,颗粒物(PM10),81,111,130,50,55,7,,74,27,71,51,2,4,0.4,0.5
2024-12-31T0000,3581A,115.31981,38.95208,保定市,满城区生态环境分局,,34,27,97,14,36,18,,84,67,68,40,3,3,0.1,0.4
2024-12-31T0000,3582A,115.47694,38.76408,保定市,清苑区第二中学,颗粒物(PM10),69,87,134,30,50,18,,69,30,58,51,2,5,0.4,0.7
2024-12-31T0000,3583A,115.62909,39.02311,保定市,徐水物探局,颗粒物(PM10),65,80,118,34,57,2,,48,20,66,51,4,8,0.6,0.7
2024-12-31T0000,4004A,115.4202,38.8656,保定市,双鹰农机,颗粒物(PM10),79,107,106,41,48,18,,83,48,56,35,3,3,0.2,0.4
2024-12-31T0000,4034A,115.5150,38.8590,保定市,植保所站,颗粒物(PM10),72,94,124,36,59,4,,58,20,72,57,6,6,0.5,0.8
2024-12-31T0000,2594A,99.1678,25.1081,保山市,市环境监测站,,21,21,19,10,9,58,,78,67,6,9,5,5,0.4,0.4
2024-12-31T0000,2595A,99.1711,25.1328,保山市,市环保局,,33,,20,23,16,69,,80,74,3,5,6,6,0.4,0.4
2024-12-31T0000,1866A,109.2262,21.588,北海市,牛尾岭水库,细颗粒物(PM2.5),124,,65,94,63,65,,117,84,,14,6,8,0.8,0.8
2024-12-31T0000,1867A,109.1436,21.4086,北海市,海滩公园,细颗粒物(PM2.5),125,107,80,95,61,96,,133,108,23,23,11,10,1.1,0.9
2024-12-31T0000,1868A,109.0981,21.4661,北海市,新市环保局,细颗粒物(PM2.5),147,119,84,112,67,87,,133,109,29,24,13,11,0.9,0.9
2024-12-31T0000,1869A,109.1778,21.5233,北海市,北海工业园,细颗粒物(PM2.5),135,123,96,103,75,87,,134,109,27,22,17,17,1.2,1
2024-12-31T0000,3400A,109.1911,21.4415,北海市,龙潭自来水厂,细颗粒物(PM2.5),130,112,78,99,69,78,,116,93,23,19,10,9,0.9,0.9
2024-12-31T0000,1001A,116.3621,39.8784,北京市,万寿西宫,,26,26,86,12,23,44,,74,56,31,24,3,4,0.2,0.2
2024-12-31T0000,1002A,116.2202,40.2915,北京市,定陵,,21,21,87,9,22,59,,76,75,5,6,2,3,0.1,0.5
2024-12-31T0000,1003A,116.4174,39.9289,北京市,东四,,28,28,97,11,25,51,,70,57,21,23,2,2,0.1,0.2
2024-12-31T0000,1004A,116.4072,39.8863,北京市,天坛,,27,27,91,10,23,36,,81,58,20,17,3,2,0.2,0.2
2024-12-31T0000,1005A,116.462,39.9365,北京市,农展馆,,20,20,86,7,24,61,,76,63,16,23,1,2,0.4,0.5
2024-12-31T0000,1006A,116.3392,39.9295,北京市,官园,,27,27,80,10,24,44,,72,51,28,18,4,4,0.3,0.3
2024-12-31T0000,1007A,116.2878,39.9611,北京市,海淀万柳,,30,30,87,9,21,34,,68,49,38,18,2,3,0.4,0.3
2024-12-31T0000,1008A,116.6636,40.135,北京市,顺义新城,,20,15,72,3,24,64,,71,67,8,26,3,2,0.2,0.3
2024-12-31T0000,1009A,116.6275,40.3275,北京市,怀柔镇,,24,13,59,3,18,75,,78,74,2,12,3,2,0.4,0.5
2024-12-31T0000,1010A,116.2296,40.217,北京市,昌平镇,,26,26,97,10,20,64,,80,73,7,11,1,2,0.3,0.4
2024-12-31T0000,1011A,116.3966,39.9821,北京市,奥体中心,,24,24,95,8,23,53,,72,60,16,18,3,4,0.5,0.5
2024-12-31T0000,1012A,116.184,39.9136,北京市,古城,,21,20,99,7,22,67,,79,71,5,7,6,7,0.3,0.4
2024-12-31T0000,3281A,115.9718,40.4529,北京市,延庆夏都,,35,35,98,14,19,52,,73,55,12,8,2,2,0.2,0.2
2024-12-31T0000,3417A,117.0709,40.1465,北京市,平谷新城,,20,20,61,7,32,49,,74,52,13,26,3,3,0.4,0.6
2024-12-31T0000,3418A,116.8336,40.4095,北京市,密云新城,,23,23,52,9,20,42,,75,57,16,21,3,3,0.2,0.3
2024-12-31T0000,3671A,116.088,39.9726,北京市,门头沟三家店,,27,27,112,15,23,55,,65,56,8,9,5,5,0.2,0.3
2024-12-31T0000,3672A,116.1541,39.8204,北京市,丰台云岗,,29,29,96,8,24,44,,68,60,20,11,2,3,0.3,0.3
2024-12-31T0000,3673A,116.6804,39.9081,北京市,通州东关,,26,26,114,7,30,43,,72,57,26,23,2,3,0.4,0.4
2024-12-31T0000,3674A,115.9577,39.7603,北京市,房山燕山,,21,15,62,7,23,66,,78,71,3,13,4,3,0.2,0.3
2024-12-31T0000,3675A,116.4672,39.7733,北京市,大兴旧宫,,29,29,79,8,23,35,,72,52,21,23,3,2,0.2,0.3
2024-12-31T0000,3694A,115.986,40.4563,北京市,延庆石河营,,33,33,96,15,20,48,,73,48,14,11,1,2,0.2,0.2
2024-12-31T0000,3695A,116.6151,40.3053,北京市,怀柔新城,,23,12,65,3,17,73,,76,74,2,7,3,2,0.1,0.2
2024-12-31T0000,3696A,116.2545,39.8768,北京市,丰台小屯,,32,32,98,11,21,32,,66,48,35,14,4,4,0.3,0.3
2024-12-31T0000,3697A,116.84,40.3844,北京市,密云镇,,41,41,55,17,25,1,,74,36,63,37,3,3,0.5,0.4
2024-12-31T0000,1761A,123.8275,41.3064,本溪市,大峪,颗粒物(PM10),55,60,68,19,34,50,,64,48,22,27,12,13,0.7,1.2
2024-12-31T0000,1762A,123.7567,41.3325,本溪市,溪湖,颗粒物(PM10),58,66,84,16,39,52,,67,45,17,35,12,17,0.5,1.7
2024-12-31T0000,1763A,123.7169,41.3094,本溪市,彩屯,,30,30,64,15,40,58,,68,55,13,26,9,11,0.4,0.9
2024-12-31T0000,1764A,123.7669,41.2864,本溪市,东明,颗粒物(PM10),58,65,74,13,35,54,,64,52,16,32,9,12,0.4,0.9
2024-12-31T0000,1765A,123.7992,41.2664,本溪市,新立屯,颗粒物(PM10),55,60,66,13,15,58,,66,44,19,36,8,11,0.4,0.7
2024-12-31T0000,1766A,123.8142,41.3472,本溪市,威宁,颗粒物(PM10),69,88,89,8,32,37,,70,33,38,37,5,5,0.6,0.9
2024-12-31T0000,2587A,105.2864,27.3125,毕节市,八中,,45,44,28,31,20,29,,68,39,13,16,7,8,0.7,0.8
2024-12-31T0000,2588A,105.31,27.2944,毕节市,师专,细颗粒物(PM2.5),52,47,29,36,23,21,,61,33,21,20,6,6,0.8,0.8
2024-12-31T0000,3537A,105.3631,27.3533,毕节市,长征村,,35,29,15,24,12,43,,77,58,10,9,7,8,0.6,0.7
2024-12-31T0000,1629A,118.0018,37.3617,滨州市,第二水厂,,41,41,130,12,47,54,,63,60,21,43,8,12,0.5,0.8
2024-12-31T0000,1630A,117.9776,37.393,滨州市,北中新校,,39,39,124,14,50,49,,65,57,31,43,6,10,0.6,0.7
2024-12-31T0000,3514A,117.9378,37.3956,滨州市,中海酒店,,36,36,115,9,53,43,,60,48,28,38,6,13,0.3,0.6
2024-12-31T0000,3515A,117.9378,37.3553,滨州市,开发区一中,,39,39,131,3,52,54,,52,52,26,51,5,14,0.2,0.5
2024-12-31T0000,3516A,118.0917,37.694,滨州市,金海六路,颗粒物(PM10),51,51,129,19,56,26,,59,29,45,53,11,12,0.8,0.9
2024-12-31T0000,4028A,117.9956,37.3753,滨州市,滨州市西街道办事处,,34,34,125,14,54,50,,59,56,24,41,6,9,0.6,0.9
2024-12-31T0000,2311A,115.8072,33.8399,亳州市,污水处理厂,颗粒物(PM10),101,152,123,59,57,38,,58,46,36,29,8,7,0.7,0.7
2024-12-31T0000,2312A,115.7789,33.8518,亳州市,三国揽胜宫,颗粒物(PM10),106,161,130,65,63,39,,60,49,41,33,7,7,0.7,0.7
2024-12-31T0000,3332A,115.7633,33.8034,亳州市,亳州学院,颗粒物(PM10),107,164,125,58,58,33,,61,47,41,29,8,7,0.7,0.6
2024-12-31T0000,2693A,82.0485,44.8556,博尔塔拉蒙古自治州,市党校,细颗粒物(PM2.5),114,96,92,86,70,16,,41,27,43,31,9,10,1.4,1.3
2024-12-31T0000,2694A,82.0806,44.8969,博尔塔拉蒙古自治州,市环保局,细颗粒物(PM2.5),92,122,102,68,55,18,,51,31,50,31,10,8,1.8,1.4
2024-12-31T0000,1071A,116.8842,38.2991,沧州市,沧县城建局,,50,50,126,22,64,41,,52,48,32,47,4,7,0.8,1.1
2024-12-31T0000,1072A,116.8584,38.3254,沧州市,电视转播站,颗粒物(PM10),51,52,124,19,55,28,,55,47,49,54,8,11,0.4,0.7
2024-12-31T0000,1073A,116.8709,38.3228,沧州市,市环保局,颗粒物(PM10),51,52,116,34,63,27,,51,40,43,46,3,7,0.4,0.7
2024-12-31T0000,3324A,116.8136,38.3004,沧州市,河北水利电力学院,,34,34,140,22,57,39,,52,47,25,45,8,13,0.2,0.6
2024-12-31T0000,2622A,97.1806,31.1273,昌都市,昌都监测站,,20,16,26,9,14,61,,84,61,24,31,6,6,0.7,0.7
2024-12-31T0000,3719A,97.1714,31.1406,昌都市,昌都会议中心,,25,10,9,6,8,80,,94,90,5,8,6,6,0.6,0.6
2024-12-31T0000,2690A,88.1236,43.8886,昌吉回族自治州,天山天池,,24,6,2,3,1,74,,78,76,2,2,10,10,0.2,0.2
2024-12-31T0000,2692A,87.2717,44.0297,昌吉回族自治州,新区政务中心,细颗粒物(PM2.5),275,281,308,225,220,2,,30,9,81,70,7,8,2.3,2.3
2024-12-31T0000,3613A,87.3095,44.0142,昌吉回族自治州,亚心广场,细颗粒物(PM2.5),284,283,297,234,245,8,,33,17,86,74,8,9,2.1,2.1
2024-12-31T0000,1119A,125.3325,43.9166,长春市,食品厂,颗粒物(PM10),56,61,70,31,39,28,,43,28,27,29,8,12,0.4,0.6
2024-12-31T0000,1120A,125.2863,43.9027,长春市,客车厂,颗粒物(PM10),56,61,66,35,43,32,,47,35,26,26,12,14,0.4,0.6
2024-12-31T0000,1121A,125.2841,43.8463,长春市,邮电学院,细颗粒物(PM2.5),55,58,66,39,41,20,,50,34,39,27,14,19,0.5,0.6
2024-12-31T0000,1122A,125.3716,43.8772,长春市,劳动公园,颗粒物(PM10),57,63,65,31,36,30,,54,43,34,26,14,16,0.4,0.5
2024-12-31T0000,1123A,125.3297,43.8805,长春市,园林处,颗粒物(PM10),58,65,68,33,38,27,,47,35,30,24,11,12,0.5,0.7
2024-12-31T0000,1124A,125.4605,43.79,长春市,净月潭,,47,47,59,27,30,30,,54,43,20,18,8,10,0.3,0.5
2024-12-31T0000,1125A,125.7194,43.515,长春市,甩湾子,,,,,,,,,,,,,,,,
2024-12-31T0000,1126A,125.3863,43.8447,长春市,经开区环卫处,颗粒物(PM10),56,62,63,29,30,22,,46,32,30,26,21,20,0.5,0.6
2024-12-31T0000,1127A,125.245,43.7783,长春市,高新区管委会,细颗粒物(PM2.5),69,66,60,50,36,9,,52,35,49,24,7,9,0.7,0.6
2024-12-31T0000,1128A,125.1761,43.8325,长春市,岱山公园,细颗粒物(PM2.5),64,64,60,46,38,21,,50,29,35,27,7,8,0.6,0.7
2024-12-31T0000,1335A,113.0833,28.2325,长沙市,经开区环保局,细颗粒物(PM2.5),163,174,140,124,86,5,,37,28,95,78,6,8,1.3,1
2024-12-31T0000,1336A,112.8872,28.2189,长沙市,高开区环保局,细颗粒物(PM2.5),162,177,152,123,105,6,,52,36,93,83,8,9,1.2,1.4
2024-12-31T0000,1337A,113.0792,28.2053,长沙市,马坡岭,细颗粒物(PM2.5),166,170,140,126,94,3,,35,11,97,82,6,8,1.3,1
2024-12-31T0000,1338A,112.9394,28.19,长沙市,湖南师范大学,细颗粒物(PM2.5),149,154,136,114,92,38,,38,38,53,71,8,10,1.1,1.2
2024-12-31T0000,1339A,113.0178,28.1322,长沙市,雨花区环保局,细颗粒物(PM2.5),139,139,124,106,86,26,,46,32,79,73,8,12,1.2,1
2024-12-31T0000,1340A,112.9792,28.2597,长沙市,伍家岭,细颗粒物(PM2.5),196,222,172,147,110,2,,22,11,86,90,5,6,1.6,1.3
2024-12-31T0000,1341A,113.0014,28.1944,长沙市,火车新站,细颗粒物(PM2.5),147,138,136,112,92,18,,39,35,91,86,5,8,1.2,1.1
2024-12-31T0000,1342A,112.9844,28.1178,长沙市,天心区环保局,细颗粒物(PM2.5),150,157,140,115,84,14,,46,26,88,74,4,8,1.3,1.2
2024-12-31T0000,1343A,112.8908,28.1308,长沙市,湖南中医药大学,细颗粒物(PM2.5),183,204,172,138,108,4,,39,12,85,86,7,10,1.3,1.3
2024-12-31T0000,1344A,112.9581,28.3611,长沙市,沙坪,颗粒物(PM10),127,203,183,30,78,59,,40,,20,42,7,10,0.8,1
2024-12-31T0000,1727A,113.1147,36.1547,长治市,清华站,颗粒物(PM10),64,78,69,31,32,11,,71,42,46,33,14,16,0.7,0.9
2024-12-31T0000,1728A,113.1031,36.1989,长治市,监测站,"颗粒物(PM10),细颗粒物(PM2.5)",64,78,66,46,37,13,,74,45,49,32,15,14,1.0,1.1
2024-12-31T0000,1730A,113.0886,36.2125,长治市,审计局,颗粒物(PM10),61,72,69,34,36,36,,71,53,37,34,19,14,0.6,0.9
2024-12-31T0000,1731A,113.0844,36.1856,长治市,长治八中,颗粒物(PM10),70,89,91,50,45,29,,71,46,43,36,17,15,0.5,0.8
2024-12-31T0000,2845A,113.1569,36.1911,长治市,德盛苑,颗粒物(PM10),63,76,65,29,30,42,,78,66,31,21,14,10,0.8,1
2024-12-31T0000,3568A,113.06,36.0464,长治市,向阳小学,颗粒物(PM10),77,103,90,51,44,34,,73,51,34,30,26,17,0.7,0.9
2024-12-31T0000,3569A,112.8792,36.3144,长治市,屯留一中,颗粒物(PM10),57,64,66,32,35,25,,79,46,58,37,17,18,0.8,1.1
2024-12-31T0000,3570A,113.235,36.3489,长治市,潞城四中,颗粒物(PM10),68,85,86,36,47,9,,72,18,52,36,17,23,0.9,1.2
2024-12-31T0000,1854A,111.6975,28.9703,常德市,市二中,细颗粒物(PM2.5),199,192,154,149,132,7,,61,31,51,38,4,5,1.3,1.1
2024-12-31T0000,1857A,111.7158,29.1456,常德市,白鹤山,,,,,,,,,,,,,,,,
2024-12-31T0000,3138A,111.7153,29.0289,常德市,武陵区永安,细颗粒物(PM2.5),221,220,166,171,132,4,,56,31,61,37,4,6,2.4,1.2
2024-12-31T0000,3139A,111.6892,28.9881,常德市,鼎城区玉霞,细颗粒物(PM2.5),193,191,169,145,132,4,,52,24,38,38,4,5,1.4,1.1
2024-12-31T0000,3140A,111.6625,29.0531,常德市,武陵区长庚,细颗粒物(PM2.5),234,248,179,184,135,6,,46,,48,41,3,6,1.8,1.2
2024-12-31T0000,1196A,119.9633,31.762,常州市,市监测站,细颗粒物(PM2.5),123,139,116,93,76,7,,42,26,91,65,13,12,1.3,1
2024-12-31T0000,1200A,119.9468,31.7069,常州市,武进监测站,细颗粒物(PM2.5),112,130,101,84,69,19,,45,27,66,67,9,12,1.1,1
2024-12-31T0000,1201A,119.9255,31.9087,常州市,安家,细颗粒物(PM2.5),132,152,112,100,74,4,,59,14,92,66,12,14,1.2,1
2024-12-31T0000,3002A,119.9805,31.8174,常州市,行政中心,细颗粒物(PM2.5),118,119,100,89,70,34,,43,35,49,47,16,13,1.0,0.8
2024-12-31T0000,3003A,120.0522,31.7748,常州市,经开区,细颗粒物(PM2.5),113,121,109,85,71,37,,45,38,58,58,20,18,1.2,1.2
2024-12-31T0000,3010A,119.9025,31.7964,常州市,钟楼,细颗粒物(PM2.5),127,138,107,96,71,8,,46,26,84,60,14,12,1.3,1
2024-12-31T0000,3429A,119.8598,31.7066,常州市,武进经发区,细颗粒物(PM2.5),125,134,114,95,79,38,,50,42,50,53,6,7,1.1,0.9
2024-12-31T0000,3430A,119.5826,31.7245,常州市,金坛城区,细颗粒物(PM2.5),123,124,104,93,74,27,,74,52,63,44,13,12,1.1,1
2024-12-31T0000,2220A,120.4318,41.5881,朝阳市,西梁,,30,30,84,18,30,54,,69,53,11,24,4,9,0.7,1.2
2024-12-31T0000,2221A,120.4521,41.5646,朝阳市,河畔小区,,21,21,76,10,24,61,,71,63,13,24,5,9,0.5,0.9
2024-12-31T0000,2222A,120.4176,41.5648,朝阳市,八里堡,,19,19,84,8,28,57,,67,57,10,29,9,13,0.2,0.7
2024-12-31T0000,2223A,120.3806,41.5969,朝阳市,农业园区,,23,14,70,7,29,72,,84,68,5,20,7,11,0.5,0.9
2024-12-31T0000,1705A,116.6367,23.6719,潮州市,西园路,细颗粒物(PM2.5),104,103,75,78,51,44,,116,78,37,26,5,6,0.6,0.5
2024-12-31T0000,3026A,116.6183,23.6608,潮州市,市政府,细颗粒物(PM2.5),133,162,80,101,47,14,,122,71,82,35,26,8,1.2,0.8
2024-12-31T0000,4036A,116.6461,23.6761,潮州市,金山,细颗粒物(PM2.5),93,75,63,69,50,36,,105,67,32,24,6,6,0.8,0.7
2024-12-31T0000,2472A,113.0073,25.9061,郴州市,马头岭,细颗粒物(PM2.5),99,108,104,74,58,53,,84,65,43,40,14,13,1.0,0.9
2024-12-31T0000,2473A,113.0116,25.8226,郴州市,市职中,细颗粒物(PM2.5),109,122,96,82,70,25,,88,28,46,46,8,10,1.1,1
2024-12-31T0000,2474A,113.0161,25.8001,郴州市,兴隆步行街,细颗粒物(PM2.5),110,124,104,83,74,30,,86,50,53,46,7,10,1.0,0.9
2024-12-31T0000,2475A,113.0383,25.8071,郴州市,市审计局,细颗粒物(PM2.5),112,111,93,84,71,11,,85,41,62,42,7,10,1.7,1.1
2024-12-31T0000,2476A,113.0348,25.7759,郴州市,市环保局,细颗粒物(PM2.5),119,123,103,90,75,23,,77,39,64,55,8,10,1.3,1
2024-12-31T0000,1431A,103.9728,30.7236,成都市,金泉两河,细颗粒物(PM2.5),62,54,66,44,41,1,,62,22,81,45,4,3,3.8,1.2
2024-12-31T0000,1432A,104.176,30.6872,成都市,十里店,细颗粒物(PM2.5),80,75,73,59,49,6,,72,35,89,50,3,3,0.8,0.6
2024-12-31T0000,1433A,104.079,30.5706,成都市,三瓦窑,细颗粒物(PM2.5),64,70,76,46,50,6,,57,17,82,48,1,6,0.7,0.8
2024-12-31T0000,1434A,104.1114,30.63,成都市,沙河铺,细颗粒物(PM2.5),58,58,67,41,48,10,,67,32,69,41,2,3,0.8,0.6
2024-12-31T0000,1437A,104.0786,30.6531,成都市,君平街,细颗粒物(PM2.5),79,66,71,58,51,23,,70,36,74,44,4,5,0.8,0.8
2024-12-31T0000,1438A,103.613,31.0283,成都市,灵岩寺,,,,,,,,,,,,,,,,
2024-12-31T0000,2880A,104.0239,30.65639,成都市,大石西路,细颗粒物(PM2.5),62,60,72,44,46,5,,61,23,83,43,5,3,1.1,0.7
2024-12-31T0000,3136A,104.2725,30.5589,成都市,龙泉驿区区政府,细颗粒物(PM2.5),58,56,56,41,38,80,,83,77,24,26,4,3,0.7,0.7
2024-12-31T0000,3357A,104.0106,30.6931,成都市,金博路,颗粒物(PM10),69,87,69,48,42,3,,55,24,106,53,2,1,2.0,1
2024-12-31T0000,3359A,104.0578,30.5225,成都市,华阳,细颗粒物(PM2.5),77,75,76,56,53,4,,59,27,80,43,1,2,1.4,0.8
2024-12-31T0000,3487A,104.2394,30.5319,成都市,车城东七路,细颗粒物(PM2.5),67,73,63,48,43,87,,80,66,15,26,2,2,0.6,0.6
2024-12-31T0000,3488A,104.3853,30.7453,成都市,青白江技师分院,细颗粒物(PM2.5),70,60,61,51,46,78,,80,73,25,35,1,2,0.3,0.5
2024-12-31T0000,3489A,104.0789,30.4072,成都市,科学城,细颗粒物(PM2.5),63,64,69,45,50,38,,78,44,44,28,4,4,0.5,0.6
2024-12-31T0000,4011A,103.8506,30.6947,成都市,光华大道三段,细颗粒物(PM2.5),84,84,70,62,46,1,,76,19,65,39,1,2,1.5,0.9
2024-12-31T0000,1062A,117.9531,40.9081,承德市,铁路,,34,34,67,17,32,24,,73,63,54,28,8,7,0.4,0.8
2024-12-31T0000,1063A,117.9392,40.9763,承德市,中国银行,,48,48,73,23,37,22,,66,38,29,36,1,2,0.5,0.8
2024-12-31T0000,1064A,117.9503,40.928,承德市,开发区,,23,23,68,13,36,68,,80,75,5,23,3,6,0.3,0.9
2024-12-31T0000,1065A,117.8051,40.9655,承德市,文化中心,,46,46,86,3,28,36,,70,49,26,33,4,5,0.3,0.6
2024-12-31T0000,1066A,117.9268,41.0026,承德市,离宫,,43,30,62,30,48,60,,67,62,7,23,4,6,0.2,0.6
2024-12-31T0000,2314A,117.47,30.6618,池州市,池州学院,细颗粒物(PM2.5),98,110,101,73,66,50,,79,61,34,36,8,10,0.6,0.7
2024-12-31T0000,3237A,117.4918,30.6617,池州市,展览馆,细颗粒物(PM2.5),114,111,98,86,70,8,,71,34,60,43,6,9,0.9,0.9
2024-12-31T0000,3333A,117.5627,30.695,池州市,第八中学,细颗粒物(PM2.5),98,110,100,73,63,42,,80,61,58,41,20,10,0.7,0.7
2024-12-31T0000,3334A,117.5038,30.6243,池州市,第十二中学,细颗粒物(PM2.5),79,89,93,58,59,34,,79,54,44,39,6,8,1.1,1
2024-12-31T0000,1744A,118.9233,42.2816,赤峰市,松山一中,,26,26,80,6,17,52,,69,58,19,16,17,10,0.6,0.6
2024-12-31T0000,1745A,118.9576,42.2728,赤峰市,哈达街,,22,17,72,3,15,69,,76,70,12,16,8,6,0.6,0.6
2024-12-31T0000,1746A,118.8788,42.2554,赤峰市,天义路,,17,16,80,7,16,54,,65,56,13,15,7,8,0.6,0.5
2024-12-31T0000,3058A,119.2658,42.0353,赤峰市,银河街,,17,13,93,6,24,53,,62,56,11,15,14,14,0.5,0.5
2024-12-31T0000,3286A,118.9359,42.3147,赤峰市,桥北物流园区,,19,,65,8,31,60,,70,60,16,21,11,9,0.7,0.7
2024-12-31T0000,2521A,107.3476,22.4136,崇左市,市环保局江州分局,细颗粒物(PM2.5),135,154,123,103,75,44,,84,60,36,37,7,7,1.2,1.1
2024-12-31T0000,2522A,107.3702,22.3707,崇左市,城南新区,细颗粒物(PM2.5),169,130,109,128,99,51,,111,76,36,34,8,10,1.2,1.1
2024-12-31T0000,2298A,118.3093,32.3153,滁州市,老年大学,细颗粒物(PM2.5),112,125,86,84,57,46,,110,86,38,40,8,7,0.8,0.8
2024-12-31T0000,2299A,118.3244,32.2786,滁州市,人大宾馆,细颗粒物(PM2.5),129,146,90,98,62,50,,107,86,35,36,10,11,0.7,0.7
2024-12-31T0000,3207A,118.3118,32.3038,滁州市,市政府原办公楼,细颗粒物(PM2.5),122,123,80,92,57,45,,107,83,40,41,8,8,1.1,1.1
2024-12-31T0000,3331A,118.3267,32.2634,滁州市,图书馆,细颗粒物(PM2.5),100,130,86,75,49,50,,108,87,34,38,8,10,0.7,0.9
2024-12-31T0000,2605A,101.5482,25.0441,楚雄彝族自治州,州环境监测站,,42,32,29,29,20,10,,78,57,49,25,8,13,0.6,0.5
2024-12-31T0000,2606A,101.538,25.0492,楚雄彝族自治州,市经济开发区,颗粒物(PM10),52,53,27,31,18,14,,72,51,40,22,9,22,0.7,0.6
2024-12-31T0000,2548A,107.5277,31.2827,达州市,达州职业技术学院,细颗粒物(PM2.5),260,231,177,210,155,9,,36,18,28,34,6,8,1.4,1.2
2024-12-31T0000,2549A,107.5086,31.2186,达州市,市环境监测站,细颗粒物(PM2.5),203,201,171,153,128,7,,36,22,58,54,6,9,1.7,1.7
2024-12-31T0000,2550A,107.4988,31.2132,达州市,凤凰小区,细颗粒物(PM2.5),206,190,171,156,132,6,,39,21,55,51,7,11,1.6,1.6
2024-12-31T0000,2551A,107.5082,31.1986,达州市,达县机关宾馆,细颗粒物(PM2.5),199,193,177,149,130,5,,32,12,57,57,6,8,1.5,1.6
2024-12-31T0000,2552A,107.4644,31.2124,达州市,市政中心,细颗粒物(PM2.5),208,195,171,158,127,5,,37,20,67,61,7,11,1.7,1.7
2024-12-31T0000,2614A,100.1542,25.7054,大理白族自治州,大理市环境监测站,,29,,13,20,17,67,,82,73,13,9,7,7,0.6,0.6
2024-12-31T0000,2615A,100.2171,25.5811,大理白族自治州,大理古城,,23,20,16,16,11,58,,80,72,13,8,5,5,0.5,0.4
2024-12-31T0000,1109A,121.612,38.9741,大连市,甘井子,颗粒物(PM10),66,82,93,20,42,57,,55,48,26,43,8,12,0.4,0.7
2024-12-31T0000,1110A,121.565,38.9511,大连市,周水子,颗粒物(PM10),64,77,90,23,46,46,,48,33,34,48,14,10,0.5,0.8
2024-12-31T0000,1111A,121.5637,38.8845,大连市,星海三站,颗粒物(PM10),63,75,91,23,40,59,,59,53,19,34,10,12,0.9,1.1
2024-12-31T0000,1112A,121.6302,38.9117,大连市,青泥洼桥,颗粒物(PM10),58,65,97,21,43,53,,48,38,18,38,12,14,0.4,0.8
2024-12-31T0000,1113A,121.6251,38.8638,大连市,傅家庄,颗粒物(PM10),61,71,94,19,35,56,,60,49,18,28,13,16,0.6,0.8
2024-12-31T0000,1114A,121.5213,38.8661,大连市,七贤岭,颗粒物(PM10),60,69,94,22,37,61,,66,64,17,27,11,13,0.6,0.7
2024-12-31T0000,1115A,121.2529,38.8061,大连市,旅顺,,37,37,88,12,41,78,,67,66,8,28,10,12,0.5,0.8
2024-12-31T0000,1116A,121.7485,39.1311,大连市,金州,颗粒物(PM10),66,82,100,30,47,62,,60,55,14,30,12,12,0.6,0.9
2024-12-31T0000,1117A,121.7811,39.0496,大连市,开发区,颗粒物(PM10),62,73,93,19,46,66,,58,55,11,37,14,17,0.4,0.9
2024-12-31T0000,1118A,121.9762,39.0631,大连市,双D港,颗粒物(PM10),61,72,111,22,43,72,,73,67,13,28,11,13,0.6,0.9
2024-12-31T0000,1789A,124.81117,46.03138,大庆市,大同区,细颗粒物(PM2.5),129,116,119,98,82,25,,36,31,32,35,5,6,0.8,1
2024-12-31T0000,1790A,125.129,46.533,大庆市,龙凤区,细颗粒物(PM2.5),139,133,85,106,59,28,,35,31,48,41,9,9,1.0,0.8
2024-12-31T0000,1791A,124.902,46.408,大庆市,红岗区,细颗粒物(PM2.5),152,119,99,116,73,15,,35,30,48,37,6,7,0.9,1
2024-12-31T0000,1792A,125.153,46.586,大庆市,萨尔图区,细颗粒物(PM2.5),142,120,88,108,68,29,,35,34,51,39,6,7,1.0,0.7
2024-12-31T0000,1793A,124.9042,46.6215,大庆市,让胡路区,细颗粒物(PM2.5),149,140,97,114,83,35,,45,41,38,39,6,7,0.9,0.8
2024-12-31T0000,3481A,125.141,46.634,大庆市,萨区政府监测点,细颗粒物(PM2.5),140,138,90,107,67,20,,41,35,50,31,4,5,1.2,0.8
2024-12-31T0000,1721A,113.3819,40.1097,大同市,果树场,,49,49,144,31,40,10,,72,40,58,33,14,14,1.2,0.7
2024-12-31T0000,1723A,113.2994,40.0758,大同市,云冈宾馆,颗粒物(PM10),51,51,176,15,32,25,,78,49,37,17,15,13,0.7,0.5
2024-12-31T0000,1724A,113.3444,40.0917,大同市,大同大学,,36,36,189,20,36,29,,72,44,31,19,23,16,0.8,0.6
2024-12-31T0000,1725A,113.2661,40.1269,大同市,安家小村,颗粒物(PM10),59,67,191,22,37,15,,73,41,45,19,25,18,2.3,1
2024-12-31T0000,1726A,113.2711,40.0844,大同市,教育学院,颗粒物(PM10),51,52,192,31,31,8,,70,42,59,23,16,10,1.1,0.5
2024-12-31T0000,3282A,113.3397,40.0597,大同市,大同市卫生学校,,41,41,181,13,30,36,,71,47,29,20,23,11,0.7,0.5
2024-12-31T0000,3565A,113.1367,40.1122,大同市,云冈站,颗粒物(PM10),61,72,169,16,35,6,,74,31,50,24,38,15,0.7,0.5
2024-12-31T0000,3566A,113.1186,40.2556,大同市,图书馆,,19,19,157,9,32,33,,74,50,9,10,8,11,0.4,0.5
2024-12-31T0000,3567A,113.5931,40.0461,大同市,区一中,颗粒物(PM10),56,62,181,19,22,8,,67,39,57,27,31,23,1.2,0.7
2024-12-31T0000,3676A,113.2802,40.0995,大同市,第二人民医院,,48,48,191,24,41,17,,73,45,50,21,18,16,1.6,0.8
2024-12-31T0000,2269A,124.1069,50.4097,大兴安岭地区,科技局,,23,19,30,16,23,42,,43,27,7,16,5,7,0.5,0.6
2024-12-31T0000,3663A,124.1164,50.4278,大兴安岭地区,红旗社区,细颗粒物(PM2.5),54,44,44,38,34,6,,23,7,38,33,7,8,0.9,0.8
2024-12-31T0000,1600A,124.3303,40.0625,丹东市,江湾东路,颗粒物(PM10),59,67,89,23,56,61,,54,54,12,31,13,25,0.7,1.6
2024-12-31T0000,1601A,124.4256,40.1503,丹东市,临江后街,,33,32,74,23,52,69,,59,59,8,37,5,15,0.4,1.1
2024-12-31T0000,1602A,124.3933,40.1461,丹东市,元宝山,,38,38,70,15,40,64,,57,57,6,23,6,12,0.5,0.9
2024-12-31T0000,1603A,124.3633,40.1092,丹东市,民主桥,颗粒物(PM10),56,62,83,12,43,61,,45,45,12,40,7,14,0.4,1.2
2024-12-31T0000,3541A,109.5726,19.5167,儋州市,第一中学子站,颗粒物(PM10),55,59,41,34,23,103,,102,102,10,9,5,5,0.7,0.6
2024-12-31T0000,3542A,109.5567,19.5187,儋州市,东坡学校子站,,49,47,42,34,23,116,,116,116,9,7,6,6,0.6,0.6
2024-12-31T0000,2616A,98.5842,24.428,德宏傣族景颇族自治州,德宏州监测站,细颗粒物(PM2.5),59,65,53,42,32,38,,76,52,20,25,6,10,0.6,0.6
2024-12-31T0000,3677A,98.5881,24.4368,德宏傣族景颇族自治州,芒市人民政府综合楼,细颗粒物(PM2.5),59,59,47,42,28,35,,74,59,13,17,6,9,0.6,0.6
2024-12-31T0000,1901A,104.4239,31.1208,德阳市,东山公园,细颗粒物(PM2.5),83,73,80,61,59,8,,90,75,100,41,4,3,0.8,0.6
2024-12-31T0000,1902A,104.3826,31.1317,德阳市,西小区,细颗粒物(PM2.5),110,107,96,83,68,3,,63,37,90,55,4,3,0.9,0.9
2024-12-31T0000,1904A,104.3553,31.1091,德阳市,耐火材料厂,细颗粒物(PM2.5),118,124,98,89,72,6,,63,34,78,54,6,6,1.0,0.9
2024-12-31T0000,3639A,104.4019,31.1244,德阳市,市教育局,细颗粒物(PM2.5),78,73,90,57,63,3,,66,32,97,59,6,5,1.1,1
2024-12-31T0000,1622A,116.3032,37.4674,德州市,儿童乐园,颗粒物(PM10),82,114,170,31,61,25,,62,38,59,46,8,11,0.8,0.9
2024-12-31T0000,1624A,116.2991,37.4451,德州市,监理站,颗粒物(PM10),60,70,158,22,61,51,,66,53,34,46,10,16,0.7,1
2024-12-31T0000,3066A,116.2721,37.4379,德州市,九衢泉纯净水厂,颗粒物(PM10),60,70,157,19,65,54,,65,54,31,46,11,13,0.5,0.7
2024-12-31T0000,3371A,116.3728,37.4403,德州市,开发区人民医院,颗粒物(PM10),67,83,162,22,60,45,,64,46,35,40,13,12,0.5,0.8
2024-12-31T0000,3372A,116.3572,37.4094,德州市,太阳城中学,颗粒物(PM10),59,68,162,24,65,52,,66,53,29,44,12,12,0.5,0.8
2024-12-31T0000,3511A,116.5652,37.3319,德州市,陵城艺术中心,颗粒物(PM10),71,92,168,24,65,58,,58,49,19,37,11,14,0.6,1
2024-12-31T0000,2621A,99.7056,27.8317,迪庆藏族自治州,迪庆州站,,26,26,22,15,17,71,,84,80,11,12,8,8,0.7,0.7
2024-12-31T0000,3180A,99.7136,27.8094,迪庆藏族自治州,质量技术监督局,,23,12,21,3,14,71,,77,74,6,11,7,8,0.6,0.7
2024-12-31T0000,2663A,104.6241,35.5734,定西市,东关小学,颗粒物(PM10),61,71,67,34,28,10,,65,35,38,28,13,18,0.9,0.9
2024-12-31T0000,2664A,104.6194,35.5934,定西市,供电公司,颗粒物(PM10),61,72,64,42,29,6,,73,34,50,38,16,16,1.4,1.3
2024-12-31T0000,1389A,113.7547,23.0494,东莞市,莞城梨川,细颗粒物(PM2.5),97,131,107,72,63,29,,120,73,102,60,10,9,1.3,1
2024-12-31T0000,1390A,113.7944,23.0128,东莞市,东城石井,"颗粒物(PM10),细颗粒物(PM2.5)",64,78,91,46,56,39,,116,82,53,49,6,7,0.9,0.8
2024-12-31T0000,1391A,113.7383,22.9658,东莞市,南城西平,细颗粒物(PM2.5),98,141,108,73,61,21,,118,72,134,76,9,6,1.0,0.9
2024-12-31T0000,3319A,113.7338,23.0381,东莞市,万江金泰,细颗粒物(PM2.5),102,147,98,76,62,2,,113,50,126,65,10,10,1.5,1.1
2024-12-31T0000,3626A,113.7533,23.0202,东莞市,南城元岭,细颗粒物(PM2.5),94,131,108,70,63,24,,125,63,106,62,12,10,1.4,1.1
2024-12-31T0000,3627A,113.7875,23.0457,东莞市,东城主山,细颗粒物(PM2.5),90,113,99,67,60,21,,108,63,92,57,11,12,1.1,0.9
2024-12-31T0000,1666A,118.6614,37.4309,东营市,市环保局,,39,39,111,12,45,49,,59,51,26,51,6,13,0.5,0.8
2024-12-31T0000,3036A,118.6904,37.4338,东营市,开发区管委会,,44,44,120,9,48,46,,57,50,33,60,5,12,0.5,0.7
2024-12-31T0000,3365A,118.5719,37.565,东营市,垦利区民丰路,,39,39,121,12,48,43,,54,49,24,49,9,20,0.4,0.7
2024-12-31T0000,3498A,118.5055,37.8612,东营市,河口城区,,34,34,135,7,45,60,,65,62,22,51,3,9,0.1,0.4
2024-12-31T0000,3646A,118.4978,37.4623,东营市,胜利站,颗粒物(PM10),54,57,129,19,53,31,,58,41,44,56,21,24,0.5,0.8
2024-12-31T0000,3734A,118.35,37.26,东营市,理想之城,,48,48,127,17,51,48,,60,49,26,55,8,13,0.6,0.7
2024-12-31T0000,1591A,110.0023,39.8129,鄂尔多斯市,综合楼,,29,29,88,9,15,45,,84,61,34,15,9,6,0.6,0.5
2024-12-31T0000,1592A,109.9486,39.8261,鄂尔多斯市,巴音孟克林场办事处,,27,27,83,9,19,63,,78,60,21,14,10,7,0.4,0.5
2024-12-31T0000,1593A,109.7736,39.5986,鄂尔多斯市,康泽苑,,29,29,88,7,22,36,,73,46,19,12,5,5,0.4,0.4
2024-12-31T0000,1594A,109.8119,39.5989,鄂尔多斯市,华泰汽车城,,27,27,93,7,27,7,,78,27,47,18,7,6,0.6,0.5
2024-12-31T0000,1595A,109.9734,39.7884,鄂尔多斯市,奥林花园,颗粒物(PM10),52,53,101,9,17,14,,79,28,60,25,8,6,0.5,0.5
2024-12-31T0000,2436A,114.8938,30.3994,鄂州市,市政府,细颗粒物(PM2.5),123,123,114,93,79,4,,49,29,79,61,9,14,2.0,1.7
2024-12-31T0000,2437A,114.8989,30.3714,鄂州市,赵家坝,细颗粒物(PM2.5),113,118,104,85,74,12,,61,42,75,55,6,11,1.0,1
2024-12-31T0000,3654A,114.8094,30.4089,鄂州市,精准医疗中心,细颗粒物(PM2.5),135,137,117,103,84,47,,66,54,52,58,16,15,0.8,0.8
2024-12-31T0000,2454A,109.4978,30.2981,恩施土家族苗族自治州,湖北民院,,,,112,,128,28,,74,51,22,21,7,8,1.1,1.1
2024-12-31T0000,2455A,109.4707,30.2798,恩施土家族苗族自治州,州电力总公司,细颗粒物(PM2.5),190,164,129,143,116,10,,64,32,40,36,7,7,1.7,1.3
2024-12-31T0000,3549A,109.5061,30.3772,恩施土家族苗族自治州,龙凤新区,细颗粒物(PM2.5),132,116,125,100,109,16,,65,40,18,21,6,6,1.0,1.1
2024-12-31T0000,2499A,108.3411,21.6158,防城港市,沙万,细颗粒物(PM2.5),92,73,85,68,70,104,,109,99,19,30,9,14,0.7,1.1
2024-12-31T0000,2500A,108.3514,21.7731,防城港市,防城档案局,细颗粒物(PM2.5),115,116,119,87,81,98,,102,93,26,40,10,7,0.9,1
2024-12-31T0000,2501A,108.3506,21.6414,防城港市,大海花园,细颗粒物(PM2.5),109,,87,82,76,106,,111,101,18,29,8,12,0.8,1.2
2024-12-31T0000,1371A,113.1294,23.0067,佛山市,湾梁,颗粒物(PM10),84,117,122,58,56,12,,134,83,127,90,10,9,1.2,1.2
2024-12-31T0000,1372A,113.1083,23.0478,佛山市,华材职中,细颗粒物(PM2.5),114,149,148,86,89,0,,132,56,138,104,9,10,1.4,1.3
2024-12-31T0000,1373A,113.144,23.0453,佛山市,南海气象局,细颗粒物(PM2.5),97,121,115,72,69,2,,145,81,152,97,14,10,1.2,1
2024-12-31T0000,1374A,113.2881,22.8094,佛山市,顺德苏岗,细颗粒物(PM2.5),110,104,114,83,78,42,,127,88,69,71,11,10,1.1,1.1
2024-12-31T0000,1376A,112.8383,22.8678,佛山市,高明孔堂,细颗粒物(PM2.5),85,70,115,63,72,59,,148,106,27,52,7,12,0.9,1
2024-12-31T0000,1377A,112.8836,23.1588,佛山市,三水监测站,细颗粒物(PM2.5),105,107,131,79,89,42,,133,71,84,82,14,20,1.1,1.1
2024-12-31T0000,1378A,112.867,23.185,佛山市,三水云东海,细颗粒物(PM2.5),85,77,114,63,86,25,,126,64,83,90,13,18,0.9,1
2024-12-31T0000,3625A,113.2544,22.7642,佛山市,容桂街道办,细颗粒物(PM2.5),134,178,132,102,80,2,,120,84,175,119,10,10,1.4,1
2024-12-31T0000,1280A,119.3903,26.0543,福州市,鼓山,,,,31,,15,,,113,,,10,,2,,0.5
2024-12-31T0000,1282A,119.2681,26.0504,福州市,师大,,46,40,42,32,24,87,,106,93,20,22,4,5,0.4,0.4
2024-12-31T0000,1283A,119.2984,26.1028,福州市,五四北路,颗粒物(PM10),56,61,43,37,21,6,,101,56,81,30,1,2,0.7,0.5
2024-12-31T0000,1284A,119.2648,26.0768,福州市,杨桥西路,,49,45,44,34,24,80,,107,86,23,23,2,2,0.6,0.6
2024-12-31T0000,1285A,119.317,26.0746,福州市,紫阳,细颗粒物(PM2.5),53,48,46,37,23,64,,88,67,32,32,4,4,0.6,0.6
2024-12-31T0000,3048A,119.5799,26.0936,福州市,九龙,,30,30,35,19,12,10,,84,55,46,20,3,2,0.5,0.5
2024-12-31T0000,3526A,119.5189,25.9664,福州市,吴航,,47,47,40,25,17,31,,90,54,35,29,1,3,0.4,0.4
2024-12-31T0000,1755A,123.7977,41.8491,抚顺市,望花区,,49,49,86,14,38,54,,62,42,14,32,5,11,0.4,0.9
2024-12-31T0000,1756A,123.9161,41.8822,抚顺市,顺城区,,49,49,94,16,40,51,,64,42,21,38,7,8,0.5,1.1
2024-12-31T0000,1757A,124.0436,41.8611,抚顺市,东洲区,颗粒物(PM10),51,51,82,17,34,54,,64,46,18,28,9,8,0.5,0.7
2024-12-31T0000,1758A,123.9247,41.8642,抚顺市,新抚区,,48,48,78,21,35,53,,64,48,17,31,6,6,0.4,0.7
2024-12-31T0000,1759A,124.0972,41.8961,抚顺市,大伙房水库,颗粒物(PM10),68,85,75,23,36,34,,63,38,31,26,8,10,0.6,0.7
2024-12-31T0000,1760A,123.7086,41.8391,抚顺市,沈抚新城,,43,43,79,9,33,55,,67,48,14,32,6,7,0.3,0.6
2024-12-31T0000,2376A,116.2127,28.0814,抚州市,桐源党溪,细颗粒物(PM2.5),75,94,77,55,58,11,,61,28,34,20,4,7,0.5,0.5
2024-12-31T0000,2377A,116.3544,27.9831,抚州市,市站,细颗粒物(PM2.5),114,119,98,86,64,10,,71,38,72,46,9,14,1.4,1.3
2024-12-31T0000,2378A,116.3565,27.963,抚州市,血防站,细颗粒物(PM2.5),107,130,99,80,60,9,,65,42,84,43,8,11,1.2,1
2024-12-31T0000,2379A,116.3564,28.0007,抚州市,采茶剧团,细颗粒物(PM2.5),112,118,99,84,66,15,,53,27,62,46,8,10,1.6,1.5
2024-12-31T0000,2380A,116.385,27.9647,抚州市,医学分院,细颗粒物(PM2.5),99,118,101,74,60,18,,58,44,58,39,19,16,1.6,1.3
2024-12-31T0000,2207A,121.6094,41.998,阜新市,工业园区,,49,49,129,12,44,54,,74,65,20,27,12,13,0.6,1
2024-12-31T0000,2208A,121.6697,42.0279,阜新市,长青街,,19,15,97,13,46,52,,71,63,13,25,6,8,0.8,1.5
2024-12-31T0000,2209A,121.6673,42.0705,阜新市,农业园区,,19,15,75,3,25,58,,73,66,7,17,8,13,0.8,1
2024-12-31T0000,2210A,121.6717,42.0224,阜新市,东苑,,23,23,113,3,48,54,,72,64,13,23,3,11,0.7,1.5
2024-12-31T0000,2211A,121.6506,42.0498,阜新市,玉龙新城,,43,43,104,13,45,50,,79,68,21,25,5,7,0.5,1
2024-12-31T0000,2301A,115.8277,32.8929,阜阳市,市监测站,细颗粒物(PM2.5),90,122,98,67,63,36,,75,42,39,31,10,10,0.6,0.6
2024-12-31T0000,2303A,115.8554,32.8605,阜阳市,开发区,颗粒物(PM10),109,168,126,53,56,42,,80,49,36,32,12,11,0.6,0.7
2024-12-31T0000,2875A,115.784,32.8892,阜阳市,阜阳职业技术学院,颗粒物(PM10),99,148,112,72,65,22,,79,34,50,32,12,11,0.8,0.8
2024-12-31T0000,3468A,115.7901,32.8613,阜阳市,市规划展馆,颗粒物(PM10),95,140,109,60,61,41,,82,48,34,29,11,9,0.8,0.8
2024-12-31T0000,3469A,115.836,32.9183,阜阳市,枣园社区,颗粒物(PM10),106,161,103,64,62,49,,85,51,29,28,8,8,0.7,0.7
2024-12-31T0000,2669A,102.9099,34.9841,甘南藏族自治州,州政府,颗粒物(PM10),60,69,44,26,18,8,,77,40,53,26,15,11,1.5,0.8
2024-12-31T0000,3380A,102.8914,34.9617,甘南藏族自治州,甘肃民族师范学院,颗粒物(PM10),51,51,41,12,11,8,,85,45,59,31,6,6,0.8,0.5
2024-12-31T0000,2570A,101.9603,30.0475,甘孜藏族自治州,水桥子,,17,17,14,10,7,44,,65,55,24,17,2,2,0.7,0.7
2024-12-31T0000,3065A,101.9533,29.9972,甘孜藏族自治州,州环保局,,26,26,15,8,7,53,,65,59,20,16,4,4,0.6,0.6
2024-12-31T0000,3414A,115.8347,28.932,赣江新区,桑海产业园,细颗粒物(PM2.5),115,132,108,87,66,0,,78,35,80,58,13,16,0.7,0.8
2024-12-31T0000,2362A,114.9017,25.9149,赣州市,通天岩,细颗粒物(PM2.5),65,47,58,47,48,56,,130,82,4,13,1,4,0.5,0.5
2024-12-31T0000,2363A,114.9367,25.8664,赣州市,地委,"颗粒物(PM10),细颗粒物(PM2.5)",60,70,74,43,46,61,,130,100,38,33,25,19,1.3,1.2
2024-12-31T0000,2364A,114.9461,25.8481,赣州市,气象台,颗粒物(PM10),67,83,81,40,38,66,,128,93,50,53,21,18,0.8,0.8
2024-12-31T0000,2365A,114.9322,25.8333,赣州市,市图书馆,细颗粒物(PM2.5),62,70,76,44,45,73,,127,104,36,49,8,6,1.0,1.1
2024-12-31T0000,2366A,114.8905,25.8471,赣州市,华坚鞋城,细颗粒物(PM2.5),59,65,83,42,45,73,,114,92,18,32,10,9,0.6,0.6
2024-12-31T0000,3109A,115.0093,25.8613,赣州市,赣县区卫计委,细颗粒物(PM2.5),64,64,75,46,52,45,,109,68,44,34,6,7,0.6,0.5
2024-12-31T0000,2683A,106.2319,36.1417,固原市,马园,颗粒物(PM10),68,86,71,40,25,9,,69,27,63,41,10,9,1.3,0.7
2024-12-31T0000,2684A,106.2792,36.0022,固原市,监测站,细颗粒物(PM2.5),112,86,42,84,23,16,,85,35,67,26,24,10,2.5,0.7
2024-12-31T0000,2685A,106.2375,36.0211,固原市,新区,颗粒物(PM10),70,90,48,49,20,7,,80,23,70,30,8,8,1.7,0.8
2024-12-31T0000,3522A,106.2177,35.9959,固原市,原州区十五小,,28,28,35,16,16,67,,82,47,20,20,8,9,0.4,0.3
2024-12-31T0000,2543A,106.6308,30.5278,广安市,小平旧居,,,,,,,,,,,,,,,,
2024-12-31T0000,2544A,106.6303,30.4576,广安市,市委,细颗粒物(PM2.5),156,137,133,119,117,8,,59,26,85,58,4,4,1.4,1
2024-12-31T0000,2545A,106.6271,30.4663,广安市,友谊中学,细颗粒物(PM2.5),139,118,133,106,111,5,,50,24,45,40,2,4,0.9,0.9
2024-12-31T0000,2547A,106.6388,30.4551,广安市,广电花园,细颗粒物(PM2.5),149,132,129,114,113,3,,52,19,54,38,4,4,1.1,0.7
2024-12-31T0000,2902A,106.6351,30.4865,广安市,北辰小学,细颗粒物(PM2.5),135,116,122,103,108,13,,52,33,32,33,5,8,1.0,1
2024-12-31T0000,2523A,105.8945,32.4535,广元市,黑石坡,细颗粒物(PM2.5),60,,53,43,40,70,,73,73,2,26,12,13,0.4,0.8
2024-12-31T0000,2524A,105.821,32.4444,广元市,老城,颗粒物(PM10),60,69,68,35,36,2,,56,22,72,50,6,9,0.7,0.8
2024-12-31T0000,2526A,105.8628,32.4287,广元市,监测站,细颗粒物(PM2.5),67,64,53,48,34,24,,67,50,46,41,6,5,0.9,0.9
2024-12-31T0000,3617A,105.8047,32.4166,广元市,经开区,颗粒物(PM10),57,63,67,38,41,4,,59,27,61,44,5,6,0.8,0.9
2024-12-31T0000,1345A,113.2347,23.1423,广州市,广雅中学,细颗粒物(PM2.5),127,173,132,96,74,4,,118,47,163,103,11,12,1.4,1.1
2024-12-31T0000,1346A,113.2612,23.105,广州市,市五中,细颗粒物(PM2.5),143,149,120,109,95,4,,123,62,145,79,6,6,1.6,1.2
2024-12-31T0000,1348A,113.3478,23.0916,广州市,广东商学院,细颗粒物(PM2.5),110,144,125,83,80,7,,132,58,130,90,6,6,1.2,0.9
2024-12-31T0000,1349A,113.4332,23.1047,广州市,市八十六中,细颗粒物(PM2.5),114,162,128,86,71,4,,120,58,141,93,7,7,1.2,0.9
2024-12-31T0000,1350A,113.3505,22.9483,广州市,番禺中学,细颗粒物(PM2.5),133,158,134,101,84,14,,130,73,,87,5,8,,1
2024-12-31T0000,1351A,113.2146,23.3916,广州市,花都师范,细颗粒物(PM2.5),88,111,109,65,66,37,,134,73,84,75,12,10,1.0,0.9
2024-12-31T0000,1352A,113.2597,23.1331,广州市,市监测站,细颗粒物(PM2.5),109,150,116,82,62,5,,119,54,163,95,9,9,1.7,1
2024-12-31T0000,1353A,113.5618,23.312,广州市,九龙镇镇龙,细颗粒物(PM2.5),89,106,102,66,62,36,,122,78,81,60,10,8,0.8,0.8
2024-12-31T0000,1354A,113.2765,23.1544,广州市,麓湖,细颗粒物(PM2.5),88,95,93,65,64,4,,127,50,126,84,3,6,1.1,0.9
2024-12-31T0000,1355A,113.443,23.3035,广州市,帽峰山森林公园,颗粒物(PM10),51,52,63,34,36,111,,148,132,21,25,11,9,0.6,0.6
2024-12-31T0000,2846A,113.3221,23.1322,广州市,体育西,细颗粒物(PM2.5),98,112,117,73,72,14,,122,70,110,66,8,7,1.1,1
2024-12-31T0000,3298A,113.5717,23.5491,广州市,从化街口,细颗粒物(PM2.5),97,116,93,72,61,5,,125,54,100,59,10,11,1.1,0.9
2024-12-31T0000,3299A,113.3472,23.3692,广州市,白云竹料,细颗粒物(PM2.5),97,120,112,72,69,13,,132,64,88,64,8,10,1.2,1
2024-12-31T0000,3300A,113.2981,23.237,广州市,白云嘉禾,细颗粒物(PM2.5),103,141,120,77,66,5,,122,51,121,84,9,9,1.4,1.2
2024-12-31T0000,3301A,113.4256,23.1716,广州市,黄埔科学城,细颗粒物(PM2.5),70,86,88,51,55,32,,139,77,72,55,6,8,1.2,1.1
2024-12-31T0000,3302A,113.3942,23.0483,广州市,番禺大学城,细颗粒物(PM2.5),93,123,111,69,64,22,,139,87,122,84,10,10,1.2,1
2024-12-31T0000,3303A,113.4922,22.8168,广州市,南沙黄阁,细颗粒物(PM2.5),110,136,126,83,76,36,,109,47,100,81,8,8,1.0,0.9
2024-12-31T0000,3304A,113.5342,22.7896,广州市,南沙街,细颗粒物(PM2.5),105,111,108,79,68,59,,129,107,67,62,7,8,0.9,0.7
2024-12-31T0000,3443A,113.2902,23.5544,广州市,花都梯面,细颗粒物(PM2.5),60,61,67,43,47,3,,135,44,74,54,8,12,0.9,0.8
2024-12-31T0000,3445A,113.7858,23.7478,广州市,从化良口,细颗粒物(PM2.5),52,48,47,36,36,49,,121,90,30,22,5,6,0.8,0.7
2024-12-31T0000,3446A,113.8051,23.2614,广州市,增城荔城,细颗粒物(PM2.5),80,82,67,59,50,66,,125,75,35,32,5,6,0.8,0.8
2024-12-31T0000,2505A,109.568,23.1478,贵港市,德智高中,,,,,,,,,,,,,,,,
2024-12-31T0000,2506A,109.6047,23.0666,贵港市,江南子站,细颗粒物(PM2.5),139,153,126,106,85,87,,108,90,33,34,17,14,1.1,1
2024-12-31T0000,2507A,109.6014,23.0948,贵港市,贵城子站,细颗粒物(PM2.5),155,132,109,118,85,77,,98,82,32,33,18,16,1.2,1
2024-12-31T0000,2508A,109.5669,23.1065,贵港市,荷城子站,细颗粒物(PM2.5),147,146,114,112,79,80,,91,83,32,32,23,19,1.2,0.9
2024-12-31T0000,3405A,109.5886,23.1172,贵港市,新世纪学校,细颗粒物(PM2.5),156,178,128,119,82,77,,96,84,34,33,21,17,1.3,1
2024-12-31T0000,1439A,106.6899,26.5998,贵阳市,马鞍山,,39,34,34,27,25,35,,41,38,23,24,8,7,0.5,0.7
2024-12-31T0000,1440A,106.6971,26.5694,贵阳市,市环保站,,40,29,34,28,30,57,,57,46,22,28,12,10,0.6,0.7
2024-12-31T0000,1441A,106.6243,26.6266,贵阳市,鉴湖路,,28,27,26,19,18,50,,48,48,20,19,7,6,0.7,0.7
2024-12-31T0000,1442A,106.7487,26.6343,贵阳市,燕子冲,,35,27,32,24,36,44,,52,44,23,22,10,9,0.7,0.8
2024-12-31T0000,1443A,106.6555,26.4365,贵阳市,碧云窝,,36,36,41,24,26,48,,56,38,29,27,21,16,0.7,0.8
2024-12-31T0000,1444A,106.694,26.5161,贵阳市,中院村,,39,34,40,27,30,53,,53,38,28,35,18,16,0.9,0.9
2024-12-31T0000,1445A,106.7109,26.6027,贵阳市,红边门,,35,34,39,24,37,60,,55,47,22,26,13,12,0.8,1
2024-12-31T0000,1446A,106.7164,26.5699,贵阳市,新华路,,42,36,38,29,28,54,,54,43,21,24,13,10,0.7,0.8
2024-12-31T0000,1447A,106.674,26.5424,贵阳市,太慈桥,,34,34,30,22,23,51,,49,47,22,24,11,8,0.6,0.7
2024-12-31T0000,1552A,106.805,26.3003,贵阳市,桐木岭,,49,46,47,34,32,60,,44,44,6,13,8,11,0.8,0.9
2024-12-31T0000,1862A,110.4144,25.3167,桂林市,电子科大尧山校区,细颗粒物(PM2.5),85,102,85,63,59,47,,91,68,27,20,8,18,0.9,0.7
2024-12-31T0000,1863A,110.2819,25.2697,桂林市,监测站,细颗粒物(PM2.5),185,186,123,139,100,6,,71,32,92,54,12,16,2.5,1.5
2024-12-31T0000,1864A,110.3089,25.2708,桂林市,龙隐路小学,细颗粒物(PM2.5),134,122,105,102,88,61,,80,53,46,45,15,18,1.0,1
2024-12-31T0000,1865A,110.2869,25.2178,桂林市,八中,细颗粒物(PM2.5),153,150,122,117,98,28,,76,49,69,44,16,17,1.5,1.1
2024-12-31T0000,3403A,110.1764,25.2381,桂林市,创业大厦,细颗粒物(PM2.5),156,156,129,119,92,4,,62,36,83,63,45,20,1.3,1
2024-12-31T0000,3531A,110.296,25.1253,桂林市,旅游学院,细颗粒物(PM2.5),168,156,124,127,100,9,,95,60,,52,12,16,1.3,1
2024-12-31T0000,2674A,100.2561,34.4714,果洛藏族自治州,玛沁县大武镇,,29,29,24,14,12,50,,94,79,8,3,6,9,0.5,0.5
2024-12-31T0000,1129A,126.5422,45.755,哈尔滨市,岭北,细颗粒物(PM2.5),162,137,96,123,78,26,,42,30,43,46,13,14,0.6,0.9
2024-12-31T0000,1130A,126.561,45.8167,哈尔滨市,松北商大,细颗粒物(PM2.5),143,118,97,109,73,19,,35,22,53,45,10,7,1.1,1.1
2024-12-31T0000,1131A,126.979,45.5419,哈尔滨市,阿城会宁,细颗粒物(PM2.5),162,,106,123,86,26,,41,26,37,36,8,13,1.2,1.1
2024-12-31T0000,1132A,126.599,45.7222,哈尔滨市,南岗学府路,细颗粒物(PM2.5),142,146,115,108,80,23,,36,24,45,48,5,10,0.8,0.9
2024-12-31T0000,1133A,126.689,45.7733,哈尔滨市,太平宏伟公园,细颗粒物(PM2.5),139,120,116,106,85,11,,24,16,48,52,11,10,0.9,1.1
2024-12-31T0000,1134A,126.635,45.7667,哈尔滨市,道外承德广场,细颗粒物(PM2.5),149,148,115,114,84,19,,30,23,46,48,8,10,0.9,1
2024-12-31T0000,1135A,126.685,45.7319,哈尔滨市,香坊红旗大街,细颗粒物(PM2.5),162,127,110,123,92,17,,32,22,49,50,14,17,1.0,1.1
2024-12-31T0000,1136A,126.6411,45.7258,哈尔滨市,动力和平路,,,,100,,82,,,24,,,48,,15,,1.1
2024-12-31T0000,1137A,126.593,45.7478,哈尔滨市,道里建国路,细颗粒物(PM2.5),163,,90,124,78,14,,29,21,48,48,14,20,0.7,1
2024-12-31T0000,1138A,126.615,45.61,哈尔滨市,平房东轻厂,细颗粒物(PM2.5),170,,86,129,67,16,,46,16,47,34,9,13,1.0,0.8
2024-12-31T0000,1139A,126.595,45.9855,哈尔滨市,呼兰师专,细颗粒物(PM2.5),123,113,89,93,80,19,,35,19,47,42,5,8,1.0,0.9
2024-12-31T0000,1140A,126.6206,45.6842,哈尔滨市,省农科院,,,,116,,90,,,33,,,49,,11,,1.1
2024-12-31T0000,2688A,93.5128,42.8172,哈密市,地区监测站,颗粒物(PM10),123,196,175,47,34,17,,51,30,50,25,3,4,0.7,0.5
2024-12-31T0000,2689A,93.4961,42.8328,哈密市,哈密师范学校,颗粒物(PM10),134,217,162,56,39,7,,46,27,56,32,4,6,1.2,0.7
2024-12-31T0000,2671A,100.9048,36.9639,海北藏族自治州,海晏县西海镇,,22,19,42,6,24,69,,93,86,8,12,11,13,0.4,0.9
2024-12-31T0000,3867A,102.0738,36.5056,海东市,平安区公安北苑,细颗粒物(PM2.5),63,51,83,45,59,43,,68,46,14,37,11,25,1.0,1.3
2024-12-31T0000,1409A,110.576,19.9507,海口市,东寨港,,46,38,36,32,31,92,,121,113,5,5,5,6,0.6,0.6
2024-12-31T0000,1410A,110.3232,20.0574,海口市,海南大学,颗粒物(PM10),53,56,55,33,30,133,,146,140,20,20,5,5,0.5,0.5
2024-12-31T0000,1411A,110.283,20.0053,海口市,秀英海南医院,,49,49,49,30,27,126,,141,136,16,13,4,4,0.5,0.4
2024-12-31T0000,1412A,110.338,19.9969,海口市,海南师范大学,,50,50,51,30,28,136,,147,143,14,13,5,5,0.5,0.5
2024-12-31T0000,1413A,110.33,20.0356,海口市,龙华路环保局宿舍,,49,49,49,32,27,137,,148,142,15,15,6,6,0.5,0.5
2024-12-31T0000,3539A,110.5111,19.9736,海口市,桂林洋子站,,,52,44,33,25,124,,137,133,11,11,5,5,,0.4
2024-12-31T0000,2673A,100.6188,36.2866,海南藏族自治州,共和县恰卜恰镇,,31,31,39,21,20,46,,88,74,29,18,6,7,0.6,0.6
2024-12-31T0000,2676A,97.3731,37.3753,海西蒙古族藏族自治州,德令哈市,,,,,,,,,,,,,,,,
2024-12-31T0000,1048A,114.5302,36.6116,邯郸市,东污水处理厂,颗粒物(PM10),71,91,102,34,44,23,,52,29,54,56,5,8,0.6,1
2024-12-31T0000,1049A,114.4918,36.5713,邯郸市,矿院,颗粒物(PM10),75,99,117,31,47,21,,44,25,49,53,4,9,0.8,1.1
2024-12-31T0000,1050A,114.484,36.6133,邯郸市,丛台公园,颗粒物(PM10),73,95,117,32,47,25,,49,30,41,49,4,9,0.6,1
2024-12-31T0000,3458A,114.7895,36.5593,邯郸市,香泉濮院小区,颗粒物(PM10),103,155,124,47,44,16,,72,48,66,34,12,11,0.2,0.5
2024-12-31T0000,3579A,114.50634,36.77178,邯郸市,永年区实验高中,颗粒物(PM10),86,121,139,24,55,9,,44,20,51,45,10,15,0.8,1.1
2024-12-31T0000,3580A,114.20016,36.44293,邯郸市,峰峰矿区临水派出所,颗粒物(PM10),69,88,91,20,36,58,,65,51,23,28,10,18,0.5,0.8
2024-12-31T0000,2634A,106.9893,33.1842,汉中市,汉川机床厂子校,,35,35,79,23,70,55,,78,64,5,16,6,8,0.7,1.2
2024-12-31T0000,2635A,107.0154,33.0706,汉中市,市监测站,细颗粒物(PM2.5),208,161,148,158,128,16,,63,33,79,56,8,9,2.0,2
2024-12-31T0000,2636A,107.0089,33.1138,汉中市,鑫源开发区,细颗粒物(PM2.5),189,151,133,142,122,12,,70,38,69,40,12,8,1.9,1.6
2024-12-31T0000,2637A,107.007,33.0323,汉中市,南郑大河坎水厂,细颗粒物(PM2.5),195,170,153,146,128,14,,75,39,50,40,,7,2.3,1.9
2024-12-31T0000,1223A,120.2072,30.2111,杭州市,滨江,细颗粒物(PM2.5),97,114,100,72,59,4,,25,7,81,71,6,6,1.0,0.8
2024-12-31T0000,1224A,120.0633,30.2747,杭州市,西溪,细颗粒物(PM2.5),82,85,83,60,56,7,,32,14,49,56,6,7,0.8,0.7
2024-12-31T0000,1226A,120.3461,30.3153,杭州市,下沙,颗粒物(PM10),109,167,119,81,61,2,,36,4,109,86,8,8,1.3,1
2024-12-31T0000,1227A,120.1269,30.2456,杭州市,卧龙桥,细颗粒物(PM2.5),65,60,72,47,52,7,,32,10,50,55,5,6,1.0,0.8
2024-12-31T0000,1228A,120.1903,30.2692,杭州市,浙江农大,细颗粒物(PM2.5),110,124,95,83,66,3,,36,8,87,71,8,8,1.4,0.9
2024-12-31T0000,1230A,120.1197,30.3119,杭州市,和睦小学,细颗粒物(PM2.5),97,117,91,72,60,4,,31,8,82,74,7,7,1.4,1.1
2024-12-31T0000,1231A,120.3019,30.4183,杭州市,临平镇,细颗粒物(PM2.5),97,131,111,72,58,4,,28,11,94,79,8,8,1.1,1
2024-12-31T0000,1232A,120.2697,30.1819,杭州市,城厢镇,细颗粒物(PM2.5),100,133,104,75,61,3,,30,6,90,76,6,6,1.3,1
2024-12-31T0000,1233A,120.0883,30.1808,杭州市,云栖,颗粒物(PM10),60,69,85,40,48,23,,17,17,44,62,5,6,0.5,0.6
2024-12-31T0000,3557A,119.9464,30.0494,杭州市,镇二中,细颗粒物(PM2.5),107,96,101,80,67,3,,34,8,56,56,6,8,1.1,1.1
2024-12-31T0000,3558A,119.7183,30.2367,杭州市,市府大楼,细颗粒物(PM2.5),109,98,101,82,73,12,,36,10,52,66,6,8,1.2,1.2
2024-12-31T0000,3656A,120.1556,30.2864,杭州市,消防大队,细颗粒物(PM2.5),102,121,99,76,63,4,,40,11,76,64,8,9,1.0,0.8
2024-12-31T0000,1270A,117.1959,31.7848,合肥市,明珠广场,颗粒物(PM10),90,129,92,56,55,48,,87,63,29,46,12,11,0.7,0.8
2024-12-31T0000,1271A,117.3072,31.8764,合肥市,三里街,颗粒物(PM10),95,139,104,63,58,38,,88,64,39,52,8,7,0.7,0.9
2024-12-31T0000,1272A,117.2588,31.8707,合肥市,琥珀山庄,颗粒物(PM10),97,144,97,66,57,39,,86,62,32,48,8,7,0.6,0.9
2024-12-31T0000,1273A,117.1604,31.9052,合肥市,董铺水库,颗粒物(PM10),97,144,93,66,48,35,,94,66,34,39,6,5,0.4,0.6
2024-12-31T0000,1274A,117.25,31.8571,合肥市,长江中路,颗粒物(PM10),92,134,96,66,60,31,,90,63,43,48,9,8,0.6,0.8
2024-12-31T0000,1275A,117.266,31.9436,合肥市,庐阳区,颗粒物(PM10),101,151,98,58,49,40,,100,72,30,39,7,6,0.8,0.7
2024-12-31T0000,1276A,117.336,31.8586,合肥市,瑶海区,颗粒物(PM10),91,132,102,55,52,40,,89,67,45,54,7,6,0.6,0.7
2024-12-31T0000,1277A,117.3027,31.7964,合肥市,包河区,颗粒物(PM10),100,149,96,63,55,40,,86,60,39,51,8,6,0.6,0.5
2024-12-31T0000,1278A,117.2776,31.7385,合肥市,滨湖新区,颗粒物(PM10),97,144,97,53,47,41,,90,60,33,45,10,9,0.6,0.6
2024-12-31T0000,1279A,117.1318,31.8403,合肥市,高新区,颗粒物(PM10),98,146,93,59,54,43,,99,70,32,41,3,3,0.8,0.8
2024-12-31T0000,3464A,117.3803,31.9147,合肥市,高教基地,颗粒物(PM10),96,142,96,56,53,49,,95,71,33,45,11,9,0.6,0.6
2024-12-31T0000,3614A,79.924,37.0877,和田地区,地区环保局,颗粒物(PM10),105,160,155,74,74,32,,64,44,37,35,23,17,1.1,1.2
2024-12-31T0000,3615A,79.9131,37.113,和田地区,市环保局,颗粒物(PM10),85,120,115,43,59,27,,64,40,54,48,16,15,1.1,1.7
2024-12-31T0000,2516A,108.2011,24.715,河池市,东仁乐园,细颗粒物(PM2.5),163,170,150,124,103,16,,42,32,77,58,13,15,1.4,1.2
2024-12-31T0000,2517A,108.0497,24.6947,河池市,市环保站,细颗粒物(PM2.5),139,118,108,106,86,20,,76,55,60,43,8,11,1.2,1.1
2024-12-31T0000,2518A,108.0983,24.6989,河池市,市疾控中心,细颗粒物(PM2.5),145,131,130,111,94,9,,80,53,69,52,7,10,1.2,1.1
2024-12-31T0000,1696A,114.6778,23.7569,河源市,源西,细颗粒物(PM2.5),63,66,55,45,72,6,,100,30,70,32,5,6,0.7,0.8
2024-12-31T0000,1697A,114.6944,23.7586,河源市,东埔,细颗粒物(PM2.5),74,89,71,54,51,6,,100,38,83,47,4,5,1.3,1
2024-12-31T0000,1698A,114.6892,23.7233,河源市,老城,细颗粒物(PM2.5),64,66,59,46,42,19,,97,55,58,34,3,4,0.7,0.7
2024-12-31T0000,1718A,115.4208,35.2464,菏泽市,气象局,颗粒物(PM10),127,204,171,61,72,25,,67,42,63,41,8,10,0.8,0.7
2024-12-31T0000,1719A,115.4747,35.2375,菏泽市,市政协,颗粒物(PM10),128,205,173,64,71,24,,76,33,60,45,10,10,0.9,0.9
2024-12-31T0000,3374A,115.5564,35.0891,菏泽市,定陶老年大学,颗粒物(PM10),124,197,152,83,70,24,,63,44,59,40,12,12,0.9,0.7
2024-12-31T0000,3647A,115.4702,35.2706,菏泽市,菏泽医专,颗粒物(PM10),127,204,166,58,64,50,,71,56,39,38,15,15,1.1,1.1
2024-12-31T0000,2514A,111.5264,24.4172,贺州市,环保小区,细颗粒物(PM2.5),185,182,127,139,94,11,,60,35,55,46,9,9,1.3,1.1
2024-12-31T0000,2515A,111.5608,24.4078,贺州市,政协大楼,细颗粒物(PM2.5),143,144,113,109,75,13,,66,38,59,52,7,9,1.2,0.9
2024-12-31T0000,3534A,111.4744,24.4553,贺州市,西湾,细颗粒物(PM2.5),168,173,128,127,95,12,,78,47,43,40,6,8,1.1,1.1
2024-12-31T0000,2385A,114.17,35.9019,鹤壁市,市监测站,颗粒物(PM10),89,128,116,63,53,21,,61,23,35,35,10,9,0.7,0.6
2024-12-31T0000,2386A,114.2956,35.7511,鹤壁市,市交警支队,细颗粒物(PM2.5),97,136,111,72,54,3,,44,15,60,52,11,6,1.0,1
2024-12-31T0000,2387A,114.2878,35.7306,鹤壁市,迎宾馆,颗粒物(PM10),88,126,110,51,42,8,,51,18,55,46,10,9,0.9,0.9
2024-12-31T0000,3474A,114.2617,35.6822,鹤壁市,大新区,颗粒物(PM10),80,110,101,54,52,10,,26,10,45,44,5,5,0.7,0.7
2024-12-31T0000,3596A,114.1572,35.9603,鹤壁市,南山宾馆,颗粒物(PM10),98,145,92,69,56,40,,70,40,26,17,14,6,1.4,0.6
2024-12-31T0000,2244A,130.2537,47.3416,鹤岗市,哈啤分公司,,40,30,32,28,26,43,,47,46,9,10,14,15,1.1,1.1
2024-12-31T0000,2245A,130.2684,47.3086,鹤岗市,斯达机电,,48,44,41,33,32,34,,47,41,29,23,20,20,0.8,0.7
2024-12-31T0000,2246A,130.3114,47.3388,鹤岗市,东山纸板厂,细颗粒物(PM2.5),57,46,37,40,32,38,,45,39,19,27,16,16,0.5,1
2024-12-31T0000,2247A,130.1097,47.3382,鹤岗市,五号水库,,34,34,24,15,14,55,,66,62,10,10,5,5,0.3,0.3
2024-12-31T0000,2263A,127.4833,50.2524,黑河市,交通局,,35,34,68,24,41,36,,27,21,11,27,7,7,0.5,0.9
2024-12-31T0000,2264A,127.5144,50.2341,黑河市,环保局,,32,26,56,22,42,38,,22,18,12,30,4,6,0.4,0.8
2024-12-31T0000,2265A,127.5291,50.2472,黑河市,大黑河岛,,,46,62,32,49,31,,17,17,15,20,2,2,,
2024-12-31T0000,1074A,115.6838,37.7541,衡水市,电机北厂,颗粒物(PM10),78,105,162,49,61,33,,71,30,38,42,18,18,0.4,0.7
2024-12-31T0000,1075A,115.6303,37.7316,衡水市,市监测站,颗粒物(PM10),87,123,133,47,52,32,,64,44,44,45,13,14,0.4,0.6
2024-12-31T0000,3188A,115.6683,37.7217,衡水市,市城管局,颗粒物(PM10),57,63,148,32,50,50,,70,39,29,40,11,13,0.4,0.7
2024-12-31T0000,3459A,115.5989,37.5491,衡水市,地表水厂,颗粒物(PM10),88,126,140,57,54,28,,71,36,48,45,8,11,0.6,0.7
2024-12-31T0000,2456A,112.5003,26.9167,衡阳市,原169医院,细颗粒物(PM2.5),102,76,101,76,82,37,,83,48,38,41,20,36,0.6,0.6
2024-12-31T0000,2457A,112.6194,26.9258,衡阳市,衡阳化工总厂,细颗粒物(PM2.5),138,132,117,105,93,57,,99,79,32,45,25,15,1.3,1
2024-12-31T0000,2458A,112.6211,26.8956,衡阳市,珠晖区环保局,细颗粒物(PM2.5),115,,107,87,89,39,,99,74,64,45,14,13,1.1,1.2
2024-12-31T0000,2459A,112.6197,26.8733,衡阳市,市委党校,细颗粒物(PM2.5),107,85,115,80,89,67,,106,91,30,39,14,13,1.1,1.3
2024-12-31T0000,2460A,112.6006,26.8919,衡阳市,市监测站,细颗粒物(PM2.5),124,124,126,94,98,63,,100,81,25,38,13,12,1.1,1.1
2024-12-31T0000,2461A,112.5664,26.9056,衡阳市,真空机电公司,细颗粒物(PM2.5),115,127,129,87,89,53,,101,76,39,38,11,9,1.1,1
2024-12-31T0000,3399A,112.6703,26.882,衡阳市,师范学院,细颗粒物(PM2.5),122,108,139,92,105,67,,99,86,29,42,15,13,1.1,1.2
2024-12-31T0000,2608A,103.3772,23.3993,红河哈尼族彝族自治州,污水处理厂,,36,34,39,25,34,50,,61,50,9,11,10,10,0.8,0.7
2024-12-31T0000,2609A,103.3861,23.35,红河哈尼族彝族自治州,监测站,,48,37,40,33,34,58,,68,63,7,12,7,8,0.7,0.7
2024-12-31T0000,3038A,103.3758,23.368,红河哈尼族彝族自治州,州图书馆,,40,,36,28,32,48,,59,51,7,11,7,10,0.7,0.6
2024-12-31T0000,1090A,111.6507,40.7517,呼和浩特市,呼市一监,,34,34,200,20,46,30,,44,41,30,24,9,9,0.5,0.6
2024-12-31T0000,1091A,111.6572,40.8033,呼和浩特市,小召,,34,34,183,16,37,18,,68,43,55,37,8,7,1.5,0.7
2024-12-31T0000,1094A,111.7516,40.8369,呼和浩特市,如意水处理厂,,41,41,181,15,33,4,,63,24,54,33,9,8,0.5,0.5
2024-12-31T0000,1095A,111.7276,40.8062,呼和浩特市,二十九中,,41,41,188,17,36,5,,60,27,59,31,11,8,0.7,0.6
2024-12-31T0000,1096A,111.5512,40.7866,呼和浩特市,工大金川校区,颗粒物(PM10),59,68,206,18,43,3,,55,24,63,42,7,7,0.5,0.6
2024-12-31T0000,1097A,111.717,40.7612,呼和浩特市,化肥厂生活区,颗粒物(PM10),54,57,197,26,43,6,,61,32,56,35,7,6,0.8,0.7
2024-12-31T0000,3698A,111.5968,40.8178,呼和浩特市,红旗小学,,27,27,198,13,41,12,,58,20,46,44,5,6,0.5,0.7
2024-12-31T0000,3699A,111.6518,40.8389,呼和浩特市,海东办,,44,44,182,27,45,4,,63,23,61,43,8,8,0.8,0.9
2024-12-31T0000,2192A,119.7594,49.2261,呼伦贝尔市,区环保局,,35,34,34,24,24,15,,50,26,46,27,7,7,0.8,0.6
2024-12-31T0000,3061A,119.7512,49.1577,呼伦贝尔市,国华电力东,,30,30,36,17,30,53,,54,51,8,17,4,5,0.4,0.5
2024-12-31T0000,1250A,120.0751,30.8669,湖州市,城西水厂,细颗粒物(PM2.5),104,129,106,78,66,14,,40,18,79,76,11,10,0.8,0.6
2024-12-31T0000,2873A,120.0875,30.8955,湖州市,仁皇山新区,细颗粒物(PM2.5),97,100,100,72,68,32,,62,41,69,60,10,11,0.8,0.7
2024-12-31T0000,2907A,120.1844,30.8596,湖州市,吴兴区站,细颗粒物(PM2.5),84,87,94,62,63,53,,56,41,40,67,10,10,0.8,0.8
2024-12-31T0000,3562A,120.4148,30.8538,湖州市,南浔区站,细颗粒物(PM2.5),93,87,98,69,69,36,,60,40,59,68,12,11,0.8,0.8
2024-12-31T0000,1607A,120.9092,40.7136,葫芦岛市,龙港区,,45,45,84,19,39,40,,80,53,49,47,110,24,1.3,1
2024-12-31T0000,1608A,120.8392,40.7514,葫芦岛市,化工街,,,44,123,22,48,34,,63,34,36,46,,16,0.6,1.2
2024-12-31T0000,1609A,120.8341,40.7073,葫芦岛市,新区,,27,27,80,11,34,55,,74,56,23,50,16,19,0.6,1.2
2024-12-31T0000,1610A,120.8695,40.7677,葫芦岛市,东城区,,35,,108,24,44,12,,64,31,62,44,15,29,0.6,0.8
2024-12-31T0000,2482A,109.5981,27.5721,怀化市,林科所,细颗粒物(PM2.5),68,58,78,49,71,64,,100,83,19,22,24,9,1.3,1.4
2024-12-31T0000,2483A,109.9453,27.5444,怀化市,河西地税局,细颗粒物(PM2.5),77,98,113,56,77,22,,91,46,30,31,4,8,1.3,1.2
2024-12-31T0000,2484A,109.9781,27.5342,怀化市,市四医院,细颗粒物(PM2.5),103,97,97,77,73,18,,92,50,37,28,3,9,1.8,1.3
2024-12-31T0000,2485A,109.9972,27.5578,怀化市,监测楼,细颗粒物(PM2.5),108,124,102,81,73,19,,89,45,39,37,1,5,1.0,0.8
2024-12-31T0000,2486A,110.0394,27.583,怀化市,市委党校,细颗粒物(PM2.5),93,89,99,69,78,7,,93,49,50,33,8,12,1.3,1.1
2024-12-31T0000,1210A,119.036,33.5981,淮安市,钵池山,细颗粒物(PM2.5),155,173,109,118,72,24,,78,51,63,44,12,13,0.8,0.8
2024-12-31T0000,1211A,119.007,33.575,淮安市,北京南路,细颗粒物(PM2.5),143,180,115,109,70,12,,66,37,73,54,13,14,,1
2024-12-31T0000,1212A,118.989,33.6067,淮安市,市监测站,细颗粒物(PM2.5),170,168,115,129,84,5,,78,41,87,55,12,16,0.9,1
2024-12-31T0000,1213A,119.135,33.5039,淮安市,楚州区监测站,细颗粒物(PM2.5),165,181,121,125,76,24,,76,47,60,52,11,10,1.2,0.9
2024-12-31T0000,1214A,119.0186,33.6297,淮安市,淮阴区监测站,细颗粒物(PM2.5),147,202,129,112,73,7,,75,32,83,56,12,16,1.0,1.2
2024-12-31T0000,3426A,118.8755,33.2894,淮安市,新华书店,细颗粒物(PM2.5),159,175,115,121,78,32,,91,66,49,42,13,15,1.0,0.7
2024-12-31T0000,2282A,116.8004,33.975,淮北市,监测站,颗粒物(PM10),106,161,133,64,81,39,,63,52,34,35,9,9,0.7,0.7
2024-12-31T0000,2283A,116.8091,33.9007,淮北市,烈山区政府,颗粒物(PM10),122,194,138,79,80,27,,64,46,48,45,7,8,0.9,0.7
2024-12-31T0000,3330A,116.8873,33.9836,淮北市,杜集区检察院,颗粒物(PM10),121,192,144,91,89,27,,65,36,36,34,6,6,0.7,0.6
2024-12-31T0000,4017A,116.7923,33.9535,淮北市,市博物馆,颗粒物(PM10),106,162,137,52,81,43,,64,49,32,38,10,10,0.8,0.9
2024-12-31T0000,2277A,116.8305,32.7727,淮南市,潘集区政府,颗粒物(PM10),114,178,133,72,76,28,,85,49,53,40,13,13,0.8,0.8
2024-12-31T0000,2278A,117.0067,32.6524,淮南市,师范学院,颗粒物(PM10),110,169,120,59,66,33,,86,51,41,40,9,9,0.9,0.9
2024-12-31T0000,2279A,116.8569,32.5951,淮南市,谢家集区政府,颗粒物(PM10),107,164,117,55,61,48,,90,61,22,36,9,9,0.8,0.8
2024-12-31T0000,2280A,116.8281,32.633,淮南市,八公山区政府,颗粒物(PM10),98,146,109,54,60,49,,92,60,24,29,9,9,0.7,0.8
2024-12-31T0000,2281A,116.6325,32.6201,淮南市,焦岗湖风景区管理处,颗粒物(PM10),81,111,88,51,51,20,,64,35,47,40,3,2,0.5,0.5
2024-12-31T0000,2894A,117.0566,32.6531,淮南市,经济技术开发区消防队,颗粒物(PM10),112,174,120,67,65,34,,93,52,41,42,10,10,0.7,0.8
2024-12-31T0000,3329A,117.0108,32.5893,淮南市,山南新区,颗粒物(PM10),118,185,152,67,67,44,,86,61,33,37,12,11,0.6,0.7
2024-12-31T0000,2446A,114.9028,30.4742,黄冈市,职工中心,细颗粒物(PM2.5),129,141,109,98,73,4,,54,31,101,62,10,12,1.0,0.9
2024-12-31T0000,2929A,114.8858,30.4519,黄冈市,红卫路,细颗粒物(PM2.5),132,133,106,100,76,4,,51,26,82,51,9,10,1.4,1
2024-12-31T0000,3398A,114.9136,30.4445,黄冈市,市林业局,细颗粒物(PM2.5),129,132,101,98,73,4,,53,31,89,52,13,14,1.1,0.9
2024-12-31T0000,2672A,102.0199,35.5102,黄南藏族自治州,同仁县隆务镇,,32,30,50,22,30,67,,84,75,3,8,7,8,0.6,0.8
2024-12-31T0000,2295A,118.2903,29.6963,黄山市,延安路89号,细颗粒物(PM2.5),60,56,60,43,43,46,,55,44,19,26,8,8,0.4,0.4
2024-12-31T0000,2296A,118.327,29.7178,黄山市,黄山东路89号,细颗粒物(PM2.5),78,77,77,57,48,20,,45,26,24,31,6,7,0.6,0.5
2024-12-31T0000,2297A,118.1371,30.2756,黄山市,黄山区政府5号楼,细颗粒物(PM2.5),75,77,61,55,43,32,,72,68,15,16,7,8,0.5,0.5
2024-12-31T0000,2423A,115.0601,30.2313,黄石市,沈家营,细颗粒物(PM2.5),105,100,101,79,69,38,,76,63,42,46,16,16,1.0,0.9
2024-12-31T0000,2424A,115.0817,30.2006,黄石市,陈家湾,细颗粒物(PM2.5),102,93,92,76,73,50,,72,60,23,40,13,16,0.8,0.9
2024-12-31T0000,2426A,114.8988,30.2019,黄石市,铁山,细颗粒物(PM2.5),99,78,90,74,72,40,,84,44,24,39,12,18,0.6,0.8
2024-12-31T0000,2427A,115.0307,30.2092,黄石市,团城山,细颗粒物(PM2.5),99,106,95,74,68,48,,85,67,46,46,17,14,1.0,0.9
2024-12-31T0000,3149A,115.0235,30.1578,黄石市,笔架山北路,细颗粒物(PM2.5),110,113,97,83,76,71,,86,68,31,46,22,17,1.2,1.1
2024-12-31T0000,1392A,114.4183,23.0528,惠州市,河南岸金山湖子站,细颗粒物(PM2.5),93,113,89,69,58,12,,106,61,80,42,6,8,1.2,1.1
2024-12-31T0000,1393A,114.4053,23.0822,惠州市,下埔横江三路子站,细颗粒物(PM2.5),92,126,92,68,58,8,,116,53,102,46,7,8,1.1,0.9
2024-12-31T0000,1394A,114.4103,23.1142,惠州市,江北云山西路子站,细颗粒物(PM2.5),95,128,94,71,59,3,,123,68,118,54,7,9,1.2,0.9
2024-12-31T0000,1395A,114.4645,22.7833,惠州市,惠阳区承修路船湖子站,颗粒物(PM10),97,144,100,65,49,6,,111,50,83,42,11,10,1.1,0.8
2024-12-31T0000,1396A,114.5317,22.7422,惠州市,大亚湾管委会子站,颗粒物(PM10),101,151,79,74,44,5,,112,32,112,64,12,12,1.1,0.6
2024-12-31T0000,3314A,114.4338,22.8134,惠州市,惠阳秋长,细颗粒物(PM2.5),88,119,97,65,48,30,,126,56,66,45,15,14,1.1,0.9
2024-12-31T0000,3452A,114.6517,22.775,惠州市,大亚湾霞涌,细颗粒物(PM2.5),67,56,60,48,39,67,,127,93,33,22,7,7,0.8,0.8
2024-12-31T0000,2240A,130.9762,45.3001,鸡西市,环保局,细颗粒物(PM2.5),93,102,81,69,55,15,,32,16,45,38,15,14,1.1,0.9
2024-12-31T0000,2243A,130.9429,45.3039,鸡西市,第一中学,细颗粒物(PM2.5),84,92,75,62,47,2,,19,3,41,37,10,8,0.7,0.6
2024-12-31T0000,3707A,131.0207,45.3073,鸡西市,欧美日汽修厂,细颗粒物(PM2.5),139,135,119,106,78,5,,26,8,31,31,55,34,1.9,1.3
2024-12-31T0000,3709A,130.9967,45.3106,鸡西市,市政设施管理处,细颗粒物(PM2.5),104,92,95,78,66,8,,24,10,44,36,19,17,1.3,1.1
2024-12-31T0000,2367A,114.9754,27.0803,吉安市,红声器材厂,细颗粒物(PM2.5),89,95,94,66,55,73,,90,79,36,45,26,21,0.7,0.6
2024-12-31T0000,2368A,114.9658,27.0999,吉安市,市森林工业局,细颗粒物(PM2.5),85,92,90,63,58,74,,83,75,29,44,30,23,0.9,0.7
2024-12-31T0000,2369A,114.99,27.1312,吉安市,市环境监测站,细颗粒物(PM2.5),83,74,90,61,61,79,,88,81,32,53,19,19,0.7,0.7
2024-12-31T0000,2370A,115.0093,27.0968,吉安市,青原区法院,细颗粒物(PM2.5),94,105,94,70,60,71,,91,72,42,48,31,23,0.9,0.8
2024-12-31T0000,1772A,126.54,43.8622,吉林市,哈达湾,颗粒物(PM10),60,69,60,38,31,48,,60,50,17,17,8,9,0.6,0.6
2024-12-31T0000,1773A,126.5844,43.8358,吉林市,东局子,颗粒物(PM10),63,76,66,39,30,49,,62,50,13,15,6,7,0.6,0.7
2024-12-31T0000,1774A,126.5052,43.8245,吉林市,电力学院,颗粒物(PM10),60,70,62,33,30,46,,60,49,14,15,7,9,0.7,0.7
2024-12-31T0000,1775A,126.6133,43.8972,吉林市,江北,颗粒物(PM10),70,89,72,46,32,46,,61,49,17,18,10,12,0.6,0.6
2024-12-31T0000,1776A,126.555,43.8306,吉林市,江南公园,颗粒物(PM10),61,72,65,37,31,46,,60,48,15,16,9,11,0.6,0.6
2024-12-31T0000,1778A,126.7061,43.7133,吉林市,丰满,颗粒物(PM10),62,73,53,43,33,45,,61,50,10,8,5,6,0.4,0.4
2024-12-31T0000,2868A,126.4739,43.953,吉林市,九站,细颗粒物(PM2.5),60,68,63,43,34,43,,62,49,19,18,6,6,0.7,0.8
2024-12-31T0000,1299A,116.9862,36.6114,济南市,科干所,颗粒物(PM10),79,107,136,27,55,47,,70,37,40,49,7,12,0.6,0.8
2024-12-31T0000,1300A,116.9376,36.665,济南市,农科所,颗粒物(PM10),100,149,152,44,53,14,,64,18,83,63,13,14,0.7,0.8
2024-12-31T0000,1301A,117.1265,36.6734,济南市,开发区,颗粒物(PM10),78,105,131,34,59,35,,69,24,54,55,10,10,0.7,0.8
2024-12-31T0000,1303A,117.0624,36.6868,济南市,省种子仓库,颗粒物(PM10),89,127,154,29,56,34,,56,28,47,50,9,11,0.6,0.8
2024-12-31T0000,1304A,116.9489,36.6447,济南市,机床二厂,,,0,78,,61,23,,66,,52,44,26,17,0.5,1
2024-12-31T0000,1305A,117.0495,36.663,济南市,市监测站,颗粒物(PM10),80,110,142,29,54,41,,66,30,47,52,8,10,0.6,0.8
2024-12-31T0000,1306A,116.7675,36.5484,济南市,长清党校,颗粒物(PM10),106,161,151,49,63,14,,69,25,79,53,12,11,1.0,1
2024-12-31T0000,1616A,117.6795,36.229,济南市,技术学院,颗粒物(PM10),103,156,142,48,69,27,,60,33,52,56,11,18,0.9,1.4
2024-12-31T0000,1961A,117.532,36.6868,济南市,东山小学,颗粒物(PM10),62,73,132,29,58,44,,63,35,33,40,7,10,0.6,0.8
2024-12-31T0000,3059A,117.7161,36.2049,济南市,泰兴公司,颗粒物(PM10),126,202,153,83,75,9,,60,25,77,60,18,17,1.1,1.2
2024-12-31T0000,3064A,117.6867,36.2171,济南市,莱芜战役纪念馆,颗粒物(PM10),114,178,152,56,69,12,,63,33,80,66,12,17,0.9,1.3
2024-12-31T0000,3494A,117.1673,36.9782,济南市,济阳区政府,颗粒物(PM10),73,95,132,20,49,40,,24,,46,68,29,63,1.1,1.1
2024-12-31T0000,3495A,117.1171,36.63,济南市,锦屏中学,颗粒物(PM10),81,112,123,42,54,24,,77,30,54,44,6,8,0.6,0.6
2024-12-31T0000,3682A,116.9814,36.6819,济南市,济南四建,颗粒物(PM10),80,110,137,32,59,29,,60,19,57,60,10,13,0.7,1
2024-12-31T0000,1653A,116.6251,35.4302,济宁市,火炬城,颗粒物(PM10),103,155,111,58,56,26,,62,46,59,40,18,12,0.8,0.8
2024-12-31T0000,1655A,116.5491,35.4042,济宁市,电化厂,颗粒物(PM10),121,191,139,56,61,20,,56,32,69,46,18,15,1.0,0.9
2024-12-31T0000,3500A,116.5814,35.3707,济宁市,北湖一中,细颗粒物(PM2.5),104,150,110,78,66,37,,62,49,47,40,12,11,0.6,0.6
2024-12-31T0000,3501A,116.8249,35.5593,济宁市,服务中心,颗粒物(PM10),118,185,134,67,60,13,,60,36,78,51,21,16,1.3,1.3
2024-12-31T0000,3678A,116.5907,35.4054,济宁市,市第七中学,颗粒物(PM10),105,160,120,61,61,29,,64,45,55,42,10,8,1.1,1
2024-12-31T0000,2255A,130.2751,46.8028,佳木斯市,佳纺,细颗粒物(PM2.5),53,43,56,37,43,36,,43,38,20,28,12,11,0.7,0.7
2024-12-31T0000,2256A,130.3995,46.8307,佳木斯市,发电厂,,45,32,38,31,38,39,,50,48,16,18,6,7,1.3,1.3
2024-12-31T0000,2257A,130.3258,46.7975,佳木斯市,环保局,细颗粒物(PM2.5),62,51,58,44,46,20,,35,29,39,37,15,12,0.8,1
2024-12-31T0000,2258A,130.3648,46.8032,佳木斯市,十一中,细颗粒物(PM2.5),53,38,44,37,39,27,,42,38,32,29,8,7,0.8,0.8
2024-12-31T0000,2259A,130.3794,46.7588,佳木斯市,四丰,细颗粒物(PM2.5),55,55,55,39,39,31,,28,20,20,31,1,1,0.6,0.7
2024-12-31T0000,1252A,120.7436,30.778,嘉兴市,清河小学,细颗粒物(PM2.5),93,94,81,69,56,26,,58,28,67,58,9,9,0.7,0.7
2024-12-31T0000,1253A,120.726,30.7478,嘉兴市,嘉兴学院,细颗粒物(PM2.5),89,101,93,66,57,23,,55,25,76,66,10,10,0.7,0.7
2024-12-31T0000,2872A,120.7846,30.7525,嘉兴市,南湖区残联,细颗粒物(PM2.5),92,105,91,68,58,26,,65,40,75,52,11,12,0.8,0.7
2024-12-31T0000,3407A,120.6916,30.7739,嘉兴市,秀洲住建,细颗粒物(PM2.5),99,101,93,74,61,14,,55,24,75,61,9,9,0.8,0.7
2024-12-31T0000,1945A,98.2908,39.7711,嘉峪关市,气象局,,29,29,55,17,30,27,,64,34,42,42,10,24,0.4,0.9
2024-12-31T0000,2884A,98.2672,39.7978,嘉峪关市,酒钢宾馆,颗粒物(PM10),68,85,73,17,32,28,,51,36,43,39,26,37,0.2,0.9
2024-12-31T0000,3248A,98.2643,39.7724,嘉峪关市,雄关区,,41,41,48,19,26,28,,62,34,45,48,16,14,0.1,0.6
2024-12-31T0000,1383A,113.1064,22.6058,江门市,北街,细颗粒物(PM2.5),92,108,112,68,89,56,,155,97,80,86,7,7,1.3,1.2
2024-12-31T0000,1384A,113.0731,22.5835,江门市,西区,颗粒物(PM10),114,178,155,76,81,35,,148,69,100,92,11,11,1.3,1.2
2024-12-31T0000,1385A,113.0219,22.5311,江门市,圭峰西,细颗粒物(PM2.5),85,74,87,63,70,96,,155,132,41,51,4,4,0.8,0.8
2024-12-31T0000,1386A,113.0828,22.5947,江门市,东湖,细颗粒物(PM2.5),109,125,127,82,84,12,,148,72,114,81,8,9,1.4,1.1
2024-12-31T0000,3311A,113.1075,22.5647,江门市,江海富民,细颗粒物(PM2.5),108,147,142,81,80,27,,157,81,114,104,12,12,1.9,1.4
2024-12-31T0000,3449A,113.05,22.4667,江门市,新会银湖,细颗粒物(PM2.5),135,112,105,103,89,10,,137,63,78,66,6,7,1.2,1.1
2024-12-31T0000,1828A,113.227,35.2125,焦作市,市环保局,颗粒物(PM10),82,113,98,54,38,37,,69,49,40,23,11,10,1.0,0.9
2024-12-31T0000,1830A,113.1992,35.2590,焦作市,影视城,,,,73,,36,,,77,,,17,,12,,0.7
2024-12-31T0000,3169A,113.2725,35.2067,焦作市,太极体育中心,颗粒物(PM10),86,121,104,42,32,37,,66,44,49,30,23,14,1.1,0.9
2024-12-31T0000,3335A,113.3137,35.2641,焦作市,马村街道办,颗粒物(PM10),81,111,92,48,42,34,,67,40,44,26,14,13,1.5,1
2024-12-31T0000,3336A,113.2465,35.2373,焦作市,焦作技师学院,颗粒物(PM10),86,122,98,61,38,45,,63,34,38,35,14,11,1.2,1
2024-12-31T0000,3477A,113.1656,35.2539,焦作市,中站许衡医院,颗粒物(PM10),74,98,85,35,34,42,,67,60,33,18,14,12,0.9,0.7
2024-12-31T0000,3981A,113.2449,35.1803,焦作市,原李万街道办,颗粒物(PM10),79,108,98,53,36,23,,70,52,56,22,16,12,1.1,0.9
2024-12-31T0000,1708A,116.3701,23.5345,揭阳市,新兴,细颗粒物(PM2.5),104,98,91,78,58,27,,137,83,71,45,11,11,1.5,1.1
2024-12-31T0000,1709A,116.3264,23.5443,揭阳市,西马,细颗粒物(PM2.5),123,93,92,93,55,21,,145,96,79,43,13,13,1.5,1
2024-12-31T0000,1710A,116.3611,23.5626,揭阳市,东兴,细颗粒物(PM2.5),103,133,105,77,57,27,,142,75,69,49,14,14,1.2,1
2024-12-31T0000,1711A,116.4151,23.5294,揭阳市,渔湖,颗粒物(PM10),81,111,90,44,48,19,,151,89,81,46,11,14,1.0,0.9
2024-12-31T0000,3320A,116.403,23.5699,揭阳市,曲溪,细颗粒物(PM2.5),94,126,96,70,57,27,,162,85,74,54,4,5,1.2,1
2024-12-31T0000,1944A,102.1692,38.5167,金昌市,天庆家园,颗粒物(PM10),57,63,76,30,48,37,,77,40,28,34,47,57,1.0,1.2
2024-12-31T0000,3170A,102.1864,38.5253,金昌市,市委党校,细颗粒物(PM2.5),115,147,99,87,46,50,,95,58,55,38,49,43,2.3,1.2
2024-12-31T0000,4022A,102.1647,38.5371,金昌市,金川区人防中心,细颗粒物(PM2.5),58,63,77,41,42,51,,78,50,15,22,21,39,0.7,0.8
2024-12-31T0000,1262A,119.647,29.077,金华市,十五中,细颗粒物(PM2.5),105,130,109,79,68,4,,38,9,82,78,5,5,1.1,1
2024-12-31T0000,1263A,119.686,29.1029,金华市,监测站,细颗粒物(PM2.5),113,131,115,85,71,2,,37,8,81,76,6,6,1.2,1
2024-12-31T0000,3659A,119.656,29.1131,金华市,气象局,细颗粒物(PM2.5),124,160,121,94,69,2,,32,8,82,77,6,6,1.2,1
2024-12-31T0000,1767A,121.1115,41.0879,锦州市,南山,,36,36,78,13,52,66,,75,66,15,35,2,11,0.4,1.2
2024-12-31T0000,1768A,121.0533,40.8434,锦州市,开发区,,46,46,119,27,61,23,,53,24,58,67,12,31,0.7,1.1
2024-12-31T0000,1769A,121.1836,41.1119,锦州市,百股街道,颗粒物(PM10),52,53,89,19,45,49,,77,56,29,37,9,15,0.4,1.1
2024-12-31T0000,1770A,121.1178,41.1222,锦州市,天安街道,,36,36,82,13,40,62,,75,65,13,29,9,17,0.7,1.1
2024-12-31T0000,1771A,121.1303,41.1386,锦州市,北湖公园,,29,29,72,13,38,62,,75,66,10,28,7,15,0.5,1
2024-12-31T0000,2160A,112.85,35.5051,晋城市,自来水公司,颗粒物(PM10),57,64,76,14,26,68,,76,72,19,23,6,9,0.6,0.8
2024-12-31T0000,2161A,112.8318,35.4936,晋城市,白云商贸,颗粒物(PM10),56,62,77,12,19,70,,76,73,17,20,5,8,0.4,0.7
2024-12-31T0000,2162A,112.8508,35.4887,晋城市,市环保局,,47,47,77,17,26,67,,78,74,19,20,5,8,0.5,0.7
2024-12-31T0000,2163A,112.8676,35.4897,晋城市,技术学院,颗粒物(PM10),51,52,87,9,25,76,,80,76,13,21,5,8,0.5,0.7
2024-12-31T0000,2165A,112.8453,35.546,晋城市,白马寺,,49,49,69,16,26,62,,67,64,10,12,10,13,0.5,0.7
2024-12-31T0000,3620A,112.8271,35.4828,晋城市,泽州一中,,38,38,68,12,25,74,,81,78,12,16,4,8,0.5,0.7
2024-12-31T0000,2171A,112.7532,37.6945,晋中市,锦纶小区,颗粒物(PM10),71,92,122,27,33,10,,72,40,47,39,14,14,0.4,0.7
2024-12-31T0000,2173A,112.7249,37.7067,晋中市,南都小区,颗粒物(PM10),68,85,109,28,38,8,,76,45,61,39,11,13,0.5,0.7
2024-12-31T0000,2174A,112.6991,37.6982,晋中市,榆次区政府,颗粒物(PM10),75,100,118,26,34,4,,72,34,62,42,8,11,0.6,0.7
2024-12-31T0000,2865A,112.7195,37.6828,晋中市,榆次三中,颗粒物(PM10),69,88,124,27,38,9,,73,38,52,42,13,17,0.6,0.9
2024-12-31T0000,2439A,112.2014,31.0481,荆门市,竹园小学,细颗粒物(PM2.5),87,87,122,64,90,60,,95,79,41,40,11,14,0.8,0.8
2024-12-31T0000,2440A,112.1969,30.9891,荆门市,掇刀,细颗粒物(PM2.5),155,154,131,118,92,82,,95,78,28,40,11,12,0.8,0.8
2024-12-31T0000,2441A,112.2213,31.0386,荆门市,石化一小,细颗粒物(PM2.5),92,98,130,68,91,88,,99,88,22,37,9,10,0.7,0.8
2024-12-31T0000,3012A,112.1849,31.0362,荆门市,西山林语,细颗粒物(PM2.5),72,79,108,52,83,93,,105,96,14,26,7,9,0.5,0.6
2024-12-31T0000,3547A,112.1632,31.0138,荆门市,龙泉中学南校,细颗粒物(PM2.5),130,121,120,99,91,94,,99,90,21,32,11,13,0.6,0.7
2024-12-31T0000,1844A,112.2494,30.3197,荆州市,市图书馆,细颗粒物(PM2.5),266,,146,216,144,9,,60,29,97,70,6,8,1.4,1
2024-12-31T0000,1845A,112.2008,30.3544,荆州市,市委党校,细颗粒物(PM2.5),272,233,159,222,135,,,83,,83,68,8,11,1.6,1.2
2024-12-31T0000,3194A,112.2747,30.3122,荆州市,管委会,细颗粒物(PM2.5),268,219,168,218,146,5,,55,25,88,69,5,8,2.1,1.4
2024-12-31T0000,3548A,112.1655,30.3364,荆州市,学苑路,细颗粒物(PM2.5),257,215,152,207,141,43,,85,71,64,58,10,13,1.4,1.1
2024-12-31T0000,2342A,117.3102,29.3867,景德镇市,王港中学,,,,,,,,,,,,,,,,
2024-12-31T0000,2343A,117.2117,29.2933,景德镇市,老干部活动中心,细颗粒物(PM2.5),93,102,81,69,58,5,,62,30,53,44,8,12,0.9,0.7
2024-12-31T0000,2344A,117.1894,29.2789,景德镇市,兽医站,细颗粒物(PM2.5),88,111,81,65,43,18,,74,45,39,32,6,10,0.2,0.2
2024-12-31T0000,2345A,117.1547,29.2617,景德镇市,台达陶瓷,细颗粒物(PM2.5),94,130,90,70,50,5,,65,25,72,57,23,56,0.8,0.7
2024-12-31T0000,2346A,117.2461,29.2956,景德镇市,陶研所,细颗粒物(PM2.5),70,87,75,51,45,8,,64,30,50,45,3,5,0.9,0.7
2024-12-31T0000,1803A,115.9872,29.6815,九江市,十里,细颗粒物(PM2.5),107,118,88,80,59,4,,58,24,78,53,10,11,1.1,0.9
2024-12-31T0000,1804A,115.9584,29.7046,九江市,茅山头,细颗粒物(PM2.5),108,143,93,81,54,6,,48,16,84,69,2,7,1.2,1.1
2024-12-31T0000,1805A,115.9877,29.7295,九江市,西园,细颗粒物(PM2.5),114,121,90,86,66,24,,37,26,92,79,16,13,0.8,0.8
2024-12-31T0000,1806A,116.0172,29.6547,九江市,五七二七厂,颗粒物(PM10),88,125,83,62,50,61,,79,68,33,31,16,10,0.6,0.7
2024-12-31T0000,1808A,115.9114,29.6038,九江市,综合工业园,细颗粒物(PM2.5),82,90,84,60,67,35,,72,29,64,62,11,11,0.7,0.9
2024-12-31T0000,1809A,116.0721,29.7535,九江市,石化总厂,细颗粒物(PM2.5),115,134,104,87,74,26,,48,26,75,63,16,17,0.9,0.9
2024-12-31T0000,1810A,115.9773,29.5698,九江市,庐山气象台,细颗粒物(PM2.5),53,45,48,37,39,94,,106,101,11,11,8,6,0.6,0.9
2024-12-31T0000,3190A,116.0254,29.6994,九江市,外国语学校,细颗粒物(PM2.5),127,146,99,96,64,32,,52,36,56,44,13,14,1.0,0.9
2024-12-31T0000,2658A,98.5061,39.7443,酒泉市,仓门街子站,,46,36,93,32,43,27,,71,45,32,32,8,25,0.7,1.1
2024-12-31T0000,2659A,98.4989,39.7256,酒泉市,油田生活基地,颗粒物(PM10),51,51,94,22,37,28,,66,40,29,32,5,20,0.6,0.9
2024-12-31T0000,2698A,76.0072,39.4467,喀什地区,巡警大队,细颗粒物(PM2.5),105,124,167,79,101,58,,65,65,41,61,2,4,1.3,3.1
2024-12-31T0000,2699A,75.9755,39.4694,喀什地区,吾办,细颗粒物(PM2.5),110,120,152,83,114,64,,63,63,40,66,1,2,1.3,2.6
2024-12-31T0000,4027A,75.9483,39.4689,喀什地区,老干局,细颗粒物(PM2.5),109,153,192,82,106,38,,63,59,61,59,2,3,2.3,3.7
2024-12-31T0000,1824A,114.3389,34.7781,开封市,肿瘤医院,细颗粒物(PM2.5),117,156,106,88,51,2,,58,18,87,47,10,7,1.0,0.8
2024-12-31T0000,1826A,114.2885,34.7965,开封市,世纪星幼儿园,细颗粒物(PM2.5),119,131,95,90,58,12,,60,29,68,39,7,7,0.8,0.6
2024-12-31T0000,3147A,114.3438,34.8106,开封市,龙亭公园,细颗粒物(PM2.5),137,178,105,104,55,9,,64,26,81,45,7,7,1.3,0.8
2024-12-31T0000,3210A,114.3644,34.7964,开封市,汴京公园,细颗粒物(PM2.5),124,183,121,94,57,5,,62,18,85,49,8,8,1.1,0.7
2024-12-31T0000,3473A,114.2485,34.8306,开封市,技师学院,颗粒物(PM10),92,134,95,61,40,26,,60,43,60,40,10,9,0.9,0.8
2024-12-31T0000,3592A,114.4644,34.7556,开封市,祥符区生态环境局,"颗粒物(PM10),细颗粒物(PM2.5)",103,155,110,77,58,9,,63,24,75,46,10,8,0.7,0.7
2024-12-31T0000,1951A,84.895,45.6094,克拉玛依市,长征新村,细颗粒物(PM2.5),114,118,110,86,78,41,,45,44,38,42,7,7,0.9,1
2024-12-31T0000,1952A,84.8988,45.5893,克拉玛依市,南林小区,细颗粒物(PM2.5),114,107,105,86,84,50,,50,48,26,36,1,2,1.1,1.2
2024-12-31T0000,1954A,84.905,44.3396,克拉玛依市,独山子区,细颗粒物(PM2.5),127,114,131,96,95,80,,75,69,31,47,4,4,0.9,1.1
2024-12-31T0000,1955A,85.6979,46.098,克拉玛依市,乌尔禾区商贸楼,细颗粒物(PM2.5),130,123,111,99,89,30,,52,46,53,50,4,5,1.4,1.3
2024-12-31T0000,3612A,85.1045,45.6899,克拉玛依市,白碱滩区新站,细颗粒物(PM2.5),122,133,121,92,83,60,,58,58,26,41,9,9,1.3,1.5
2024-12-31T0000,2697A,76.1454,39.7142,克孜勒苏柯尔克孜自治州,市人民政府,细颗粒物(PM2.5),105,106,96,79,70,61,,80,77,32,24,6,4,1.6,1.5
2024-12-31T0000,3665A,76.1658,39.7157,克孜勒苏柯尔克孜自治州,克州文化中心,细颗粒物(PM2.5),89,96,88,66,71,75,,78,77,22,29,9,8,1.3,1.4
2024-12-31T0000,1450A,102.8204,24.8886,昆明市,呈贡新区,,32,31,22,22,15,35,,79,59,34,17,9,7,0.6,0.5
2024-12-31T0000,1451A,102.6251,24.9608,昆明市,西山森林公园,,,,,,,,,,,,,,,,
2024-12-31T0000,1452A,102.7252,25.0902,昆明市,龙泉镇,,46,46,34,28,18,2,,83,45,61,34,7,8,0.6,0.6
2024-12-31T0000,1453A,102.7266,25.0375,昆明市,东风东路,,39,39,27,22,18,37,,78,,26,19,8,9,0.6,0.6
2024-12-31T0000,1454A,102.6742,25.0669,昆明市,金鼎山,,43,31,32,30,17,27,,77,56,41,27,13,14,0.7,0.7
2024-12-31T0000,1455A,102.6644,25.0401,昆明市,碧鸡广场,,39,39,31,22,20,27,,78,46,40,30,10,12,0.5,0.6
2024-12-31T0000,3179A,102.7494,25.0119,昆明市,官渡区博物馆,,38,38,29,20,18,34,,83,59,29,20,7,9,0.5,0.6
2024-12-31T0000,3375A,102.8017,24.8336,昆明市,青年创业园,,34,34,23,16,14,14,,89,59,47,16,7,7,0.6,0.5
2024-12-31T0000,3550A,102.7997,24.9786,昆明市,昆明学院,,33,33,27,19,17,44,,84,66,28,18,13,9,0.8,0.6
2024-12-31T0000,3551A,102.5967,24.6736,昆明市,晋宁区生态环境分局,,35,34,27,24,19,51,,85,67,17,11,3,4,0.5,0.6
2024-12-31T0000,3552A,102.6678,24.9856,昆明市,云天化总部,,29,29,22,19,14,40,,86,66,20,17,7,8,0.4,0.4
2024-12-31T0000,1456A,91.1319,29.6514,拉萨市,八廓街,,26,26,20,15,11,64,,100,80,29,18,6,6,0.6,0.4
2024-12-31T0000,1457A,91.1221,29.6747,拉萨市,市环保局,,38,38,26,26,15,49,,105,74,33,21,5,4,1.0,0.5
2024-12-31T0000,1458A,91.0874,29.6475,拉萨市,区监测站,,20,20,13,12,7,62,,103,86,34,16,6,6,0.4,0.2
2024-12-31T0000,1459A,91.1774,29.6541,拉萨市,西藏大学,,25,24,19,7,8,77,,104,88,12,11,6,5,0.6,0.5
2024-12-31T0000,1460A,90.9798,29.6588,拉萨市,区辐射站,,24,22,19,9,10,76,,100,79,20,18,9,7,0.8,0.7
2024-12-31T0000,1461A,91.0834,29.6292,拉萨市,拉萨火车站,,24,13,12,7,10,75,,119,110,23,10,4,4,0.6,0.4
2024-12-31T0000,2520A,109.2203,23.7256,来宾市,来宾技工学校,细颗粒物(PM2.5),124,123,150,94,116,59,,89,78,39,50,6,42,1.2,1.2
2024-12-31T0000,3535A,109.1781,23.7297,来宾市,兴宾区政府,细颗粒物(PM2.5),128,137,155,97,114,87,,104,87,24,34,8,10,1.2,1.3
2024-12-31T0000,4002A,109.2416,23.7461,来宾市,中南小学,细颗粒物(PM2.5),124,129,162,94,117,64,,86,58,35,49,13,18,1.3,1.5
2024-12-31T0000,1476A,103.631,36.1031,兰州市,兰炼宾馆,细颗粒物(PM2.5),94,109,101,70,63,9,,62,25,86,72,25,35,1.4,1.2
2024-12-31T0000,1477A,104.1373,35.9454,兰州市,榆中兰大校区,,,,,,,,,,,,,,,,
2024-12-31T0000,1478A,103.8412,36.0726,兰州市,生物制品所,细颗粒物(PM2.5),84,97,94,62,60,3,,33,10,94,85,15,20,1.4,1.3
2024-12-31T0000,1479A,103.831,36.0464,兰州市,铁路设计院,细颗粒物(PM2.5),88,121,107,65,68,4,,29,8,94,91,30,21,2.2,1.6
2024-12-31T0000,3186A,103.7158,36.1058,兰州市,教育港,细颗粒物(PM2.5),98,108,104,73,59,1,,53,15,91,80,18,25,1.5,1.3
2024-12-31T0000,3241A,103.7439,36.0842,兰州市,百合公园,细颗粒物(PM2.5),87,88,91,64,58,7,,44,14,81,77,15,22,1.9,1.6
2024-12-31T0000,3242A,103.9611,35.998,兰州市,和平,细颗粒物(PM2.5),67,65,90,48,58,34,,57,39,57,61,15,26,1.1,1.6
2024-12-31T0000,3245A,103.6633,36.533,兰州新区,新区管委会,细颗粒物(PM2.5),118,129,83,89,58,10,,86,39,53,40,25,22,1.6,0.9
2024-12-31T0000,3246A,103.6975,36.4789,兰州新区,舟曲中学,细颗粒物(PM2.5),124,166,95,94,55,6,,77,37,83,53,16,21,1.6,1
2024-12-31T0000,1067A,116.6708,39.5111,廊坊市,药材公司,,22,22,91,11,36,42,,77,54,40,46,2,4,0.4,0.6
2024-12-31T0000,1068A,116.7214,39.5589,廊坊市,开发区,,18,18,95,3,33,41,,78,51,36,41,4,5,0.3,0.5
2024-12-31T0000,1070A,116.7244,39.5269,廊坊市,北华航天学院,,17,17,90,3,29,54,,81,60,23,35,6,8,0.4,0.6
2024-12-31T0000,2919A,116.7022,39.5453,廊坊市,河北工业大学,,20,20,105,7,31,47,,80,59,37,42,4,5,0.3,0.5
2024-12-31T0000,2535A,103.7723,29.5462,乐山市,花湖湾,细颗粒物(PM2.5),110,,53,83,51,67,,88,75,19,18,4,4,0.6,0.5
2024-12-31T0000,2536A,103.7627,29.5844,乐山市,牛耳桥,细颗粒物(PM2.5),80,77,65,59,50,35,,62,34,37,32,6,5,0.7,0.7
2024-12-31T0000,2537A,103.7508,29.6006,乐山市,市第三水厂,细颗粒物(PM2.5),92,89,75,68,56,28,,60,31,44,35,4,4,0.8,1
2024-12-31T0000,2538A,103.7571,29.5664,乐山市,市监测站,细颗粒物(PM2.5),79,80,58,58,46,63,,74,56,22,22,2,3,0.8,0.8
2024-12-31T0000,3361A,103.7311,29.5628,乐山市,理工大学,细颗粒物(PM2.5),83,73,58,61,49,39,,59,43,31,24,6,6,0.8,0.7
2024-12-31T0000,2598A,100.2143,26.8576,丽江市,西南郊,,25,17,27,16,12,80,,86,84,3,8,4,4,0.6,0.7
2024-12-31T0000,2599A,100.2497,26.8802,丽江市,丽江古城,,41,41,29,21,15,52,,83,70,19,14,9,9,0.5,0.4
2024-12-31T0000,2600A,100.2203,26.8906,丽江市,市中心,,20,13,11,9,9,63,,82,69,13,12,10,10,0.5,0.5
2024-12-31T0000,1267A,119.914,28.4514,丽水市,监测站大楼,颗粒物(PM10),55,59,58,38,39,16,,61,30,50,39,6,6,0.4,0.5
2024-12-31T0000,1268A,119.93,28.4586,丽水市,莲都小学,细颗粒物(PM2.5),64,72,62,46,35,8,,68,43,67,48,8,7,0.9,0.7
2024-12-31T0000,1269A,119.879,28.4231,丽水市,余庄前,颗粒物(PM10),51,51,50,34,35,19,,72,41,33,36,4,5,0.5,0.5
2024-12-31T0000,1173A,119.176,34.5885,连云港市,市环境监测站,颗粒物(PM10),104,158,134,51,82,34,,52,30,50,63,14,14,1.2,1
2024-12-31T0000,3000A,119.3581,34.6972,连云港市,德源药业,颗粒物(PM10),95,139,122,31,68,38,,58,30,47,60,14,11,1.2,0.6
2024-12-31T0000,3007A,119.178,34.844,连云港市,新城一中,颗粒物(PM10),78,105,119,40,86,24,,57,33,60,62,19,16,0.8,0.9
2024-12-31T0000,3008A,119.3608,34.7519,连云港市,胡沟管理处,颗粒物(PM10),87,124,105,24,60,45,,60,50,29,34,10,9,1.4,0.9
2024-12-31T0000,3009A,119.1478,34.5911,连云港市,矿山设计院,颗粒物(PM10),114,178,134,56,79,36,,53,27,40,56,12,12,0.8,0.8
2024-12-31T0000,3434A,119.2413,34.6539,连云港市,工贸学校,颗粒物(PM10),73,96,121,35,81,46,,61,45,40,46,12,16,0.8,0.8
2024-12-31T0000,3664A,119.4172,34.7341,连云港市,连云街道,颗粒物(PM10),61,72,105,25,60,31,,73,30,50,45,10,16,1.0,0.8
2024-12-31T0000,2571A,102.3431,27.8099,凉山彝族自治州,青龙寺,,41,41,33,13,11,48,,89,66,10,12,5,6,0.9,0.9
2024-12-31T0000,2572A,102.2721,27.8415,凉山彝族自治州,邛海宾馆,,33,33,42,20,30,51,,83,63,16,18,11,11,0.8,0.9
2024-12-31T0000,2573A,102.2625,27.898,凉山彝族自治州,西昌市政府,,32,32,35,20,19,62,,82,71,8,14,8,11,0.8,0.9
2024-12-31T0000,2574A,102.2685,27.8851,凉山彝族自治州,凉山州政府,,31,31,34,20,20,55,,83,68,10,15,7,11,0.7,0.8
2024-12-31T0000,2575A,102.237,27.8914,凉山彝族自治州,长安,颗粒物(PM10),52,54,64,26,27,50,,82,60,15,16,15,11,0.6,0.7
2024-12-31T0000,2212A,123.2,41.1953,辽阳市,宏伟区,,47,47,91,7,48,50,,56,45,6,21,10,22,0.3,0.9
2024-12-31T0000,2213A,123.1683,41.2495,辽阳市,新华园,,47,47,94,20,47,50,,64,37,12,40,10,18,0.3,1.3
2024-12-31T0000,2214A,123.2354,41.2639,辽阳市,滨河路,,38,38,67,14,41,59,,61,54,11,28,6,27,0.6,1
2024-12-31T0000,2215A,123.149,41.2991,辽阳市,铁西工业园,,41,41,104,16,56,51,,58,35,16,38,5,15,0.4,1.3
2024-12-31T0000,2227A,125.1358,42.8845,辽源市,环保局,,32,32,48,10,19,60,,63,59,9,18,7,9,0.4,0.8
2024-12-31T0000,3239A,125.0764,42.9078,辽源市,银鹰制药,,37,37,59,18,31,48,,58,46,17,25,12,12,0.5,0.7
2024-12-31T0000,1625A,115.9848,36.4372,聊城市,区政府,颗粒物(PM10),114,178,138,63,57,13,,66,49,68,40,14,13,1.1,0.9
2024-12-31T0000,2878A,116.0072,36.4343,聊城市,聊大东校,颗粒物(PM10),115,180,158,58,64,16,,66,48,63,39,12,12,1.0,0.9
2024-12-31T0000,3200A,115.9819,36.4978,聊城市,监控中心,颗粒物(PM10),129,207,157,75,68,13,,64,35,69,50,16,12,1.1,1
2024-12-31T0000,3513A,116.0445,36.4361,聊城市,九州社区,颗粒物(PM10),105,160,139,56,59,21,,69,46,49,35,14,11,0.8,0.7
2024-12-31T0000,4018A,116.0567,36.4608,聊城市,星美广场,颗粒物(PM10),118,186,146,56,60,34,,68,45,42,35,16,13,0.9,0.9
2024-12-31T0000,2632A,94.3681,29.6376,林芝市,林芝监测站,,21,21,13,10,6,65,,95,82,12,5,7,6,0.4,0.3
2024-12-31T0000,2633A,94.3616,29.6616,林芝市,林芝人民医院,,20,18,16,8,8,62,,88,77,6,4,5,6,0.4,0.3
2024-12-31T0000,2603A,100.0781,23.8982,临沧市,市环保局,,31,31,31,21,22,33,,75,51,15,16,11,8,0.5,0.5
2024-12-31T0000,2604A,100.0894,23.8822,临沧市,市气象局,细颗粒物(PM2.5),52,38,34,36,25,37,,73,54,14,17,7,7,0.6,0.6
2024-12-31T0000,1733A,111.5531,36.0783,临汾市,临钢医院,颗粒物(PM10),66,82,116,22,55,15,,73,58,44,37,2,8,0.3,1.3
2024-12-31T0000,1734A,111.5028,36.0714,临汾市,技工学校,颗粒物(PM10),65,79,135,28,69,27,,72,59,38,38,4,10,0.5,1.4
2024-12-31T0000,1736A,111.5018,36.0855,临汾市,市委,颗粒物(PM10),66,81,137,18,62,30,,75,64,43,42,2,9,0.4,1.3
2024-12-31T0000,3018A,111.505,36.1014,临汾市,唐尧大酒店,颗粒物(PM10),61,72,115,22,63,29,,71,61,31,36,5,11,0.4,1.3
2024-12-31T0000,3668A,111.5036,36.0414,临汾市,城南,颗粒物(PM10),62,73,129,27,69,11,,72,57,47,40,2,8,0.3,1.2
2024-12-31T0000,2667A,103.2069,35.5993,临夏回族自治州,环保局,细颗粒物(PM2.5),120,108,126,91,83,16,,79,41,48,42,12,16,2.5,2.1
2024-12-31T0000,2668A,103.2417,35.6057,临夏回族自治州,建设大厦,细颗粒物(PM2.5),107,137,120,80,75,33,,77,48,31,32,12,15,1.5,1.6
2024-12-31T0000,1618A,118.3429,35.0532,临沂市,沂河小区,颗粒物(PM10),100,149,140,55,86,33,,56,43,48,68,16,22,0.6,0.8
2024-12-31T0000,1619A,118.295,35.0583,临沂市,鲁南制药厂,颗粒物(PM10),103,156,145,42,78,30,,45,35,52,74,15,24,0.7,1
2024-12-31T0000,1620A,118.2794,34.9976,临沂市,新光毛纺厂,颗粒物(PM10),103,156,152,48,90,20,,40,34,64,78,20,25,0.8,1
2024-12-31T0000,1621A,118.3956,35.0888,临沂市,河东保险公司,颗粒物(PM10),95,139,162,56,94,34,,56,36,41,79,12,15,0.7,1
2024-12-31T0000,3370A,118.3564,35.0215,临沂市,十里堡居委,颗粒物(PM10),98,146,136,46,85,37,,58,44,41,60,14,22,0.8,1.1
2024-12-31T0000,3496A,118.3604,35.1084,临沂市,南坊新区,颗粒物(PM10),97,144,139,48,84,33,,53,41,51,76,11,14,0.9,1.1
2024-12-31T0000,3860A,118.3920,35.0300,临沂市,皇山花园小区,颗粒物(PM10),103,156,139,42,75,37,,54,38,47,73,12,16,1.0,1
2024-12-31T0000,1870A,109.4856,24.3895,柳州市,柳东小学,细颗粒物(PM2.5),104,93,120,78,96,76,,82,79,24,32,18,21,0.7,0.8
2024-12-31T0000,1871A,109.4157,24.3277,柳州市,环保监测站,细颗粒物(PM2.5),113,103,143,85,94,70,,75,72,33,44,22,27,1.2,1.3
2024-12-31T0000,1872A,109.389,24.341,柳州市,河西水厂,细颗粒物(PM2.5),94,116,167,70,106,66,,77,71,27,45,29,37,1.3,1.2
2024-12-31T0000,1873A,109.4311,24.2921,柳州市,市四中,细颗粒物(PM2.5),90,81,108,67,85,77,,84,80,29,38,16,23,0.9,1.1
2024-12-31T0000,1874A,109.4006,24.3631,柳州市,市九中,细颗粒物(PM2.5),109,96,126,82,99,74,,78,76,29,39,23,25,1.1,1.2
2024-12-31T0000,1875A,109.4958,24.3134,柳州市,古亭山,细颗粒物(PM2.5),89,81,102,66,72,81,,90,66,21,37,16,23,1.0,1.1
2024-12-31T0000,3402A,109.5422,24.3996,柳州市,市二中,细颗粒物(PM2.5),99,94,122,74,99,63,,64,61,27,48,15,15,0.9,1
2024-12-31T0000,2307A,116.5079,31.737,六安市,监测大楼,颗粒物(PM10),79,108,69,55,46,48,,104,77,30,27,9,7,0.7,0.6
2024-12-31T0000,2308A,116.4738,31.7643,六安市,皖西学院,细颗粒物(PM2.5),89,124,87,66,51,42,,104,72,36,34,7,6,0.9,0.9
2024-12-31T0000,2309A,116.4996,31.7905,六安市,朝阳厂,细颗粒物(PM2.5),89,103,72,66,49,45,,105,72,30,28,5,4,1.0,0.9
2024-12-31T0000,2310A,116.5567,31.7886,六安市,开发区,颗粒物(PM10),97,143,101,63,55,44,,104,70,37,33,3,3,0.8,0.7
2024-12-31T0000,2576A,104.8,26.5892,六盘水市,窑上,颗粒物(PM10),51,52,41,22,26,62,,46,44,9,17,6,7,0.7,0.9
2024-12-31T0000,2577A,104.83,26.5917,六盘水市,黄土坡,,40,40,27,24,19,66,,52,52,10,16,11,12,0.8,1
2024-12-31T0000,2578A,104.89,26.5939,六盘水市,水钢,,50,50,28,28,17,49,,56,52,31,18,11,8,1.1,1.1
2024-12-31T0000,2579A,104.8475,26.5894,六盘水市,民中,,38,38,22,22,16,61,,47,46,11,17,9,10,0.8,0.9
2024-12-31T0000,2580A,104.9544,26.5506,六盘水市,双水,,44,44,23,22,14,71,,68,68,8,10,8,8,0.7,0.8
2024-12-31T0000,2335A,117.0189,25.1181,龙岩市,龙岩师专,,,,,,,,,,,,,,,,
2024-12-31T0000,2336A,117.0217,25.1033,龙岩市,龙岩市监测站,,49,42,57,34,41,22,,95,40,48,39,4,6,0.9,0.9
2024-12-31T0000,2337A,117.0258,25.0661,龙岩市,闽西职业技术学院,颗粒物(PM10),62,74,71,34,38,2,,90,25,63,45,36,21,0.7,0.9
2024-12-31T0000,2338A,117.0196,25.0306,龙岩市,龙岩学院,,42,35,45,29,33,30,,96,60,35,22,12,11,0.5,0.5
2024-12-31T0000,2665A,105.0822,33.3261,陇南市,汉王镇固水子,,,,,,,,,,,,,,,,
2024-12-31T0000,2885A,104.9339,33.3826,陇南市,滨江中学,颗粒物(PM10),71,91,79,51,41,6,,57,24,66,45,35,34,3.5,1.7
2024-12-31T0000,3247A,104.955,33.371,陇南市,市总工会,颗粒物(PM10),56,61,65,35,34,23,,76,43,48,33,11,17,0.7,0.6
2024-12-31T0000,2487A,111.9589,27.8901,娄底市,电视发射台,细颗粒物(PM2.5),88,65,75,65,74,62,,98,77,20,22,7,10,0.7,0.8
2024-12-31T0000,2488A,111.9975,27.725,娄底市,市监测站,细颗粒物(PM2.5),142,144,145,108,110,9,,86,63,75,42,12,16,1.7,1.2
2024-12-31T0000,2489A,112.0194,27.7314,娄底市,市委党校,细颗粒物(PM2.5),142,139,146,108,106,38,,85,67,50,47,8,11,1.3,1.3
2024-12-31T0000,2490A,111.9561,27.7569,娄底市,涟钢,细颗粒物(PM2.5),148,146,138,113,105,26,,87,61,30,27,6,12,1.1,1.1
2024-12-31T0000,2491A,111.9892,27.7044,娄底市,市政府,细颗粒物(PM2.5),140,128,128,107,99,26,,81,61,44,37,6,12,1.1,1.1
2024-12-31T0000,1893A,105.4324,28.9634,泸州市,九狮山,,,,,,,,,,,,,,,,
2024-12-31T0000,1894A,105.4427,28.9063,泸州市,小市上码头,细颗粒物(PM2.5),122,116,85,92,66,52,,91,76,25,21,2,2,0.7,0.6
2024-12-31T0000,1895A,105.4241,28.8573,泸州市,兰田宪桥,细颗粒物(PM2.5),110,110,82,83,65,30,,84,60,41,23,2,2,0.9,0.7
2024-12-31T0000,1896A,105.4379,28.8833,泸州市,市环监站,颗粒物(PM10),79,108,82,56,61,33,,77,52,35,26,4,4,0.7,0.5
2024-12-31T0000,3490A,105.3617,28.7703,泸州市,纳溪区环保局,细颗粒物(PM2.5),109,109,81,82,66,4,,85,44,45,29,4,5,0.8,0.7
2024-12-31T0000,2183A,111.1406,37.5211,吕梁市,环保局,颗粒物(PM10),80,110,121,28,36,5,,47,16,50,43,3,4,0.3,0.6
2024-12-31T0000,2185A,111.1297,37.5136,吕梁市,自来水公司,颗粒物(PM10),123,195,164,44,43,4,,48,25,51,36,10,8,0.6,0.7
2024-12-31T0000,2867A,111.1283,37.51,吕梁市,马茂庄小学,颗粒物(PM10),82,113,129,32,36,3,,51,22,56,44,1,4,0.5,0.6
2024-12-31T0000,1812A,112.3931,34.6516,洛阳市,市委党校,颗粒物(PM10),60,69,77,21,28,50,,71,65,26,24,5,6,0.5,0.4
2024-12-31T0000,1814A,112.4657,34.6871,洛阳市,豫西宾馆,颗粒物(PM10),73,96,98,42,40,7,,72,47,68,31,7,9,1.0,0.8
2024-12-31T0000,1815A,112.494,34.6886,洛阳市,河南林校,细颗粒物(PM2.5),80,90,87,59,49,4,,67,39,61,29,1,3,0.8,0.5
2024-12-31T0000,1816A,112.3844,34.623,洛阳市,开发区管委会,颗粒物(PM10),60,70,78,35,39,54,,74,67,15,15,6,6,0.5,0.5
2024-12-31T0000,1817A,112.4267,34.6258,洛阳市,市委新办公区,颗粒物(PM10),62,74,79,38,40,43,,80,70,34,18,4,5,0.6,0.4
2024-12-31T0000,3340A,112.6005,34.6326,洛阳市,伊滨,颗粒物(PM10),67,84,85,26,31,39,,74,61,32,22,4,4,0,0.2
2024-12-31T0000,3341A,112.4951,34.6332,洛阳市,中移产业园,颗粒物(PM10),58,66,72,28,27,39,,81,66,40,21,5,5,0.5,0.4
2024-12-31T0000,3593A,112.5736,34.8993,洛阳市,吉利监测站,颗粒物(PM10),71,92,86,43,47,6,,69,49,63,37,6,8,0.6,0.7
2024-12-31T0000,3635A,112.3677,34.662,洛阳市,河科大西苑校区,颗粒物(PM10),64,78,87,31,36,56,,78,71,22,20,7,8,0.5,0.5
2024-12-31T0000,3636A,112.4388,34.6781,洛阳市,英才小学,颗粒物(PM10),72,94,85,41,38,0,,70,50,75,30,9,7,0.7,0.5
2024-12-31T0000,2399A,114.051,33.5699,漯河市,三五一五工厂,细颗粒物(PM2.5),118,151,122,89,78,4,,70,23,71,37,9,10,1.0,0.7
2024-12-31T0000,2400A,114.0055,33.5698,漯河市,漯河大学,细颗粒物(PM2.5),100,141,116,75,69,13,,74,30,62,40,9,9,0.8,0.7
2024-12-31T0000,2401A,114.0138,33.5828,漯河市,市水利局,细颗粒物(PM2.5),117,156,117,88,69,8,,69,25,76,38,12,10,1.3,0.9
2024-12-31T0000,2402A,114.0261,33.5698,漯河市,市广电局,细颗粒物(PM2.5),110,142,115,83,74,3,,71,26,77,37,10,10,1.1,0.6
2024-12-31T0000,3478A,113.9749,33.5664,漯河市,市图书馆,细颗粒物(PM2.5),114,138,119,86,73,36,,71,39,48,38,11,9,0.7,0.7
2024-12-31T0000,3479A,114.0967,33.5906,漯河市,召陵区卫健委,细颗粒物(PM2.5),103,149,117,77,69,7,,69,31,76,41,12,11,0.8,0.7
2024-12-31T0000,1798A,118.5092,31.6837,马鞍山市,湖东路四小,颗粒物(PM10),89,128,99,50,50,42,,86,61,49,53,17,8,1.1,0.8
2024-12-31T0000,1799A,118.5024,31.6449,马鞍山市,开发区,细颗粒物(PM2.5),104,122,114,78,79,44,,71,38,44,54,16,10,1.4,1
2024-12-31T0000,1800A,118.5228,31.7231,马鞍山市,慈湖,细颗粒物(PM2.5),105,124,91,79,68,44,,77,52,45,56,25,14,1.1,1.3
2024-12-31T0000,1802A,118.6245,31.7241,马鞍山市,濮塘,细颗粒物(PM2.5),99,132,94,74,64,59,,91,72,36,46,11,12,0.4,0.5
2024-12-31T0000,3633A,118.4918,31.6809,马鞍山市,雨山,细颗粒物(PM2.5),97,128,103,72,67,39,,87,58,49,50,41,11,2.5,1.1
2024-12-31T0000,1686A,111.0286,21.4688,茂名市,电白南海,细颗粒物(PM2.5),89,124,91,66,54,117,,174,152,45,31,10,9,1.2,1.1
2024-12-31T0000,1687A,110.9294,21.6533,茂名市,茂石化七小,,,92,90,48,53,,,142,113,22,26,21,13,0.9,0.9
2024-12-31T0000,1688A,110.9107,21.6687,茂名市,健康路,细颗粒物(PM2.5),85,110,91,63,57,81,,147,108,33,28,33,22,1.4,1
2024-12-31T0000,1689A,110.8592,21.6828,茂名市,高岭,细颗粒物(PM2.5),85,100,91,63,58,77,,139,103,28,31,31,22,1.0,1
2024-12-31T0000,3450A,111.01,21.5165,茂名市,电白水东,细颗粒物(PM2.5),128,144,90,97,59,89,,167,148,51,26,18,13,1.1,0.8
2024-12-31T0000,2539A,104.0308,30.0478,眉山市,黑龙滩水库,细颗粒物(PM2.5),65,57,70,47,54,59,,86,71,13,11,3,3,0.7,0.7
2024-12-31T0000,2540A,103.8416,30.0874,眉山市,气象局,细颗粒物(PM2.5),83,77,79,61,58,25,,72,30,54,39,5,4,0.8,0.8
2024-12-31T0000,3137A,103.8578,30.0744,眉山市,市委党校,细颗粒物(PM2.5),70,68,76,51,54,22,,67,27,52,43,5,6,0.8,0.7
2024-12-31T0000,3148A,103.8291,30.0564,眉山市,区人社局,细颗粒物(PM2.5),79,,61,58,56,41,,63,27,39,46,6,8,0.7,0.8
2024-12-31T0000,1690A,116.1231,24.3284,梅州市,梅江月梅,细颗粒物(PM2.5),63,66,65,45,45,10,,108,63,67,38,9,9,0.7,0.7
2024-12-31T0000,1691A,116.0797,24.2719,梅州市,梅县新城,细颗粒物(PM2.5),67,73,72,48,47,29,,103,41,50,44,4,6,0.8,0.9
2024-12-31T0000,1692A,116.1248,24.2654,梅州市,环境监控中心,"颗粒物(PM10),细颗粒物(PM2.5)",63,75,63,45,44,8,,98,42,58,40,6,6,0.9,0.9
2024-12-31T0000,3315A,116.1233,24.2991,梅州市,梅龙,"颗粒物(PM10),细颗粒物(PM2.5)",54,58,64,38,42,28,,94,46,39,39,5,7,0.9,0.9
2024-12-31T0000,1878A,104.7778,31.4741,绵阳市,富乐山,细颗粒物(PM2.5),58,57,75,41,51,61,,75,67,34,43,4,3,0.7,0.7
2024-12-31T0000,1879A,104.7563,31.4535,绵阳市,市人大,细颗粒物(PM2.5),78,102,96,57,56,5,,59,26,87,56,7,3,1.1,1
2024-12-31T0000,1880A,104.6697,31.4668,绵阳市,高新区自来水公司,颗粒物(PM10),102,153,100,75,62,2,,69,27,63,41,11,5,1.3,1
2024-12-31T0000,1881A,104.7287,31.5075,绵阳市,三水厂,细颗粒物(PM2.5),87,102,94,64,67,4,,60,28,70,46,8,7,1.4,1.1
2024-12-31T0000,3491A,104.69,31.5322,绵阳市,西科大附属小学,细颗粒物(PM2.5),82,98,88,60,60,7,,55,30,76,41,6,6,0.9,0.8
2024-12-31T0000,3492A,104.5648,31.5343,绵阳市,安州区旅游局,细颗粒物(PM2.5),125,134,109,95,71,4,,58,18,77,52,8,8,1.1,1.1
2024-12-31T0000,1784A,129.61,44.561,牡丹江市,环保大楼,细颗粒物(PM2.5),63,64,82,45,55,46,,18,16,16,44,8,13,0.6,1
2024-12-31T0000,1785A,129.6115,44.5782,牡丹江市,文化广场,颗粒物(PM10),56,62,103,29,59,50,,20,20,15,47,11,19,0.7,1.3
2024-12-31T0000,1786A,129.5904,44.5963,牡丹江市,第一医院,,,,88,,66,,,16,,,41,,16,,1.1
2024-12-31T0000,1787A,129.6364,44.6075,牡丹江市,机车工厂,细颗粒物(PM2.5),73,61,98,53,55,54,,20,20,11,43,9,17,0.6,1
2024-12-31T0000,1788A,129.6386,44.5462,牡丹江市,第一中学,颗粒物(PM10),58,66,71,37,49,38,,18,10,24,40,8,11,0.6,1
2024-12-31T0000,2531A,105.0703,29.61,内江市,市监测站,细颗粒物(PM2.5),117,99,71,88,71,31,,88,60,44,30,5,5,0.9,0.8
2024-12-31T0000,2532A,105.0717,29.5947,内江市,东兴区政府,细颗粒物(PM2.5),109,,76,82,62,46,,92,70,30,25,3,3,0.8,0.8
2024-12-31T0000,2533A,105.0653,29.5817,内江市,内江二中,细颗粒物(PM2.5),112,,79,84,70,12,,94,62,59,25,7,8,0.9,0.8
2024-12-31T0000,2534A,105.0406,29.5822,内江市,内江日报社,细颗粒物(PM2.5),102,102,75,76,66,7,,85,49,72,32,8,8,1.0,0.8
2024-12-31T0000,2628A,92.0657,31.4846,那曲市,那曲监测站,细颗粒物(PM2.5),62,58,28,44,20,29,,100,73,49,18,15,8,2.1,0.8
2024-12-31T0000,3128A,92.0506,31.4797,那曲市,那曲会议中心,,30,30,22,21,19,45,,104,87,30,10,6,3,0.9,0.7
2024-12-31T0000,1290A,115.8931,28.6843,南昌市,省外办,细颗粒物(PM2.5),125,126,131,95,91,17,,70,40,82,81,14,13,0.9,1
2024-12-31T0000,1291A,115.8886,28.7003,南昌市,省林业公司,细颗粒物(PM2.5),117,149,139,88,82,3,,70,34,99,81,16,14,1.0,1
2024-12-31T0000,1292A,115.8126,28.7442,南昌市,林科所,细颗粒物(PM2.5),98,100,109,73,72,61,,76,53,34,77,15,13,0.9,0.9
2024-12-31T0000,1294A,115.8518,28.687,南昌市,建工学校,细颗粒物(PM2.5),134,148,128,102,76,4,,72,39,104,82,16,16,1.3,1
2024-12-31T0000,1295A,115.8921,28.6424,南昌市,象湖,细颗粒物(PM2.5),134,144,120,102,87,3,,72,34,80,67,12,14,1.0,0.9
2024-12-31T0000,1296A,115.7423,28.7996,南昌市,武术学校,细颗粒物(PM2.5),73,56,49,53,39,28,,70,39,24,22,2,4,0.8,0.8
2024-12-31T0000,1298A,115.9314,28.6842,南昌市,省站,细颗粒物(PM2.5),123,163,164,93,92,16,,66,34,62,64,15,15,0.8,0.8
2024-12-31T0000,3046A,115.9084,28.6062,南昌市,机电学校,细颗粒物(PM2.5),140,179,147,107,89,5,,76,33,92,70,23,19,0.8,0.7
2024-12-31T0000,3690A,115.9721,28.7031,南昌市,外国语学校,细颗粒物(PM2.5),124,141,137,94,81,4,,68,33,86,72,13,12,0.9,0.8
2024-12-31T0000,1905A,106.056,30.8064,南充市,西山风景区,细颗粒物(PM2.5),130,100,82,99,75,23,,70,61,52,24,1,2,1.1,0.8
2024-12-31T0000,1906A,106.0789,30.8023,南充市,南充市委,细颗粒物(PM2.5),170,169,116,129,94,4,,52,26,53,39,3,5,1.1,0.8
2024-12-31T0000,1907A,106.1031,30.8217,南充市,南充炼油厂,细颗粒物(PM2.5),168,153,113,127,92,2,,55,33,57,40,3,5,1.0,0.8
2024-12-31T0000,1908A,106.1064,30.7856,南充市,高坪区监测站,细颗粒物(PM2.5),122,124,116,92,86,1,,50,28,65,42,3,4,1.1,0.7
2024-12-31T0000,1909A,106.0642,30.7636,南充市,嘉陵区环保局,细颗粒物(PM2.5),138,141,118,105,87,2,,45,21,60,39,4,5,1.1,0.9
2024-12-31T0000,1910A,106.1087,30.8388,南充市,市环境监测站,细颗粒物(PM2.5),145,154,118,111,82,5,,49,29,58,43,5,6,1.0,0.8
2024-12-31T0000,1151A,118.8086,32.1065,南京市,迈皋桥,细颗粒物(PM2.5),107,114,72,80,45,49,,84,72,47,52,21,9,1.7,0.7
2024-12-31T0000,1152A,118.7538,32.0551,南京市,草场门,细颗粒物(PM2.5),107,129,82,80,49,44,,79,68,36,44,13,9,0.3,0.2
2024-12-31T0000,1153A,118.7794,32.0745,南京市,山西路,细颗粒物(PM2.5),113,129,91,85,51,55,,82,73,42,53,5,4,0.9,0.8
2024-12-31T0000,1154A,118.7752,32.0023,南京市,中华门,细颗粒物(PM2.5),110,119,82,83,49,35,,62,49,4,19,12,9,1.0,0.9
2024-12-31T0000,1155A,118.8109,32.0309,南京市,瑞金路,细颗粒物(PM2.5),110,129,85,83,52,41,,68,47,40,56,10,7,1.2,1.2
2024-12-31T0000,1156A,118.7997,32.0754,南京市,玄武湖,细颗粒物(PM2.5),105,123,81,79,49,41,,82,70,36,42,15,10,0.7,0.5
2024-12-31T0000,1157A,118.6414,32.0931,南京市,浦口,细颗粒物(PM2.5),103,133,84,77,46,42,,89,77,21,28,14,9,0.8,0.6
2024-12-31T0000,1158A,118.7356,31.9996,南京市,奥体中心,细颗粒物(PM2.5),107,132,83,80,49,46,,72,56,38,59,15,11,0.8,0.7
2024-12-31T0000,1159A,118.9125,32.1028,南京市,仙林大学城,细颗粒物(PM2.5),110,122,82,83,50,43,,82,63,42,46,14,9,0.7,0.5
2024-12-31T0000,3422A,118.8436,31.9198,南京市,江宁彩虹桥,细颗粒物(PM2.5),104,123,87,78,49,55,,78,62,28,49,12,11,0.7,0.6
2024-12-31T0000,3423A,119.0138,31.6494,南京市,溧水永阳,细颗粒物(PM2.5),105,117,93,79,68,43,,50,46,44,48,11,7,0.8,0.8
2024-12-31T0000,3424A,118.879,31.3302,南京市,高淳老职中,细颗粒物(PM2.5),112,87,81,84,72,33,,66,52,47,44,7,8,0.8,0.6
2024-12-31T0000,3427A,118.8554,32.3578,南京市,六合雄州,细颗粒物(PM2.5),113,130,89,85,50,41,,85,64,16,30,10,7,0.7,0.6
2024-12-31T0000,1401A,108.3103,22.7881,南宁市,二十一中,细颗粒物(PM2.5),168,136,100,127,84,34,,110,72,64,37,10,9,1.4,1.1
2024-12-31T0000,1402A,108.3141,22.8528,南宁市,北湖,细颗粒物(PM2.5),162,175,120,123,92,8,,86,49,101,59,14,14,1.6,1.2
2024-12-31T0000,1403A,108.3206,22.8225,南宁市,市监测站,细颗粒物(PM2.5),140,143,106,107,75,17,,99,62,90,47,15,14,1.5,1.2
2024-12-31T0000,1404A,108.3829,22.8037,南宁市,大自然花园,细颗粒物(PM2.5),129,115,99,98,81,46,,98,80,50,34,12,11,1.1,0.9
2024-12-31T0000,1405A,108.4394,22.7904,南宁市,仙葫,细颗粒物(PM2.5),199,,102,149,100,4,,88,70,98,46,11,8,1.4,1.1
2024-12-31T0000,1406A,108.2397,22.8467,南宁市,区农职院,细颗粒物(PM2.5),115,130,122,87,80,31,,83,45,48,57,11,16,1.1,1
2024-12-31T0000,1407A,108.3275,22.735,南宁市,英华嘉园,细颗粒物(PM2.5),138,124,105,105,90,43,,90,77,45,40,11,10,1.2,0.9
2024-12-31T0000,1408A,108.2257,22.7757,南宁市,沙井镇街道办,细颗粒物(PM2.5),115,139,117,87,76,4,,79,42,84,77,9,11,1.2,1.1
2024-12-31T0000,3401A,108.4834,22.7618,南宁市,红星社区,细颗粒物(PM2.5),156,139,109,119,88,68,,98,78,42,42,17,12,1.3,1.1
2024-12-31T0000,2331A,118.0966,26.6761,南平市,茫荡山,,,,,,,,,,,,,,,,
2024-12-31T0000,2332A,118.1681,26.6369,南平市,南平市监测站,细颗粒物(PM2.5),52,49,42,36,31,20,,88,45,50,31,4,5,0.6,0.6
2024-12-31T0000,2333A,118.1825,26.6489,南平市,南平铝业有限公司,细颗粒物(PM2.5),57,42,44,40,33,28,,84,46,41,32,4,6,0.8,0.8
2024-12-31T0000,2334A,118.1756,26.6272,南平市,南平七中,细颗粒物(PM2.5),54,38,41,38,30,17,,83,52,38,19,2,3,0.6,0.5
2024-12-31T0000,1168A,120.9098,31.9663,南通市,狼山街道,细颗粒物(PM2.5),120,116,93,91,67,3,,49,12,87,64,8,8,1.6,1.4
2024-12-31T0000,1169A,120.86,32.0005,南通市,虹桥,细颗粒物(PM2.5),115,113,91,87,66,5,,38,4,96,74,13,12,1.0,1
2024-12-31T0000,1170A,120.87,32.02,南通市,城中,细颗粒物(PM2.5),114,140,107,86,64,9,,49,12,100,77,13,13,1.2,1.1
2024-12-31T0000,1171A,120.94,31.93,南通市,星湖花园,细颗粒物(PM2.5),117,128,99,88,63,0,,47,9,97,70,10,10,1.3,1.1
2024-12-31T0000,1172A,120.81,32.0417,南通市,紫琅学院,细颗粒物(PM2.5),112,127,99,84,61,3,,46,11,99,72,9,10,1.1,1.2
2024-12-31T0000,3291A,121.067,32.062,南通市,通州监测站,细颗粒物(PM2.5),113,124,97,85,62,5,,56,14,98,70,7,9,1.4,1.3
2024-12-31T0000,3432A,120.9348,31.9883,南通市,环境教育馆,细颗粒物(PM2.5),113,117,100,85,62,4,,54,11,91,72,9,10,1.4,1.1
2024-12-31T0000,2404A,112.5224,33.0122,南阳市,瓦房庄,细颗粒物(PM2.5),178,174,153,134,112,11,,62,25,64,57,8,8,1.2,1.1
2024-12-31T0000,2405A,112.5003,32.9735,南阳市,汉画馆,细颗粒物(PM2.5),159,164,132,121,94,5,,56,20,72,58,7,7,1.2,0.9
2024-12-31T0000,2406A,112.5573,33.027,南阳市,气象站,细颗粒物(PM2.5),138,157,160,105,103,42,,74,55,50,55,7,8,0.8,1
2024-12-31T0000,2407A,112.5481,32.9689,南阳市,理工学院,细颗粒物(PM2.5),138,143,131,105,100,9,,68,37,82,58,8,9,1.2,0.9
2024-12-31T0000,4008A,112.5234,32.9922,南阳市,卧龙区政府,细颗粒物(PM2.5),162,166,144,123,98,4,,64,31,78,61,6,6,1.4,1.3
2024-12-31T0000,1234A,121.8358,29.911,宁波市,区环保大楼,细颗粒物(PM2.5),92,103,77,68,46,4,,62,26,98,68,10,12,0.9,0.8
2024-12-31T0000,1235A,121.56,29.82,宁波市,万里学院,细颗粒物(PM2.5),80,103,77,59,45,30,,67,40,72,58,8,6,0.7,0.6
2024-12-31T0000,1236A,121.713,29.9572,宁波市,龙赛医院,"颗粒物(PM10),细颗粒物(PM2.5)",70,90,80,51,41,37,,64,27,54,57,10,9,0.8,0.7
2024-12-31T0000,1239A,121.633,29.7733,宁波市,钱湖水厂,细颗粒物(PM2.5),88,108,66,65,40,4,,72,26,87,44,8,7,0.8,0.6
2024-12-31T0000,1240A,121.5856,29.8635,宁波市,太古小学,细颗粒物(PM2.5),100,116,74,75,48,15,,64,32,82,56,11,9,0.9,0.9
2024-12-31T0000,1241A,121.524,29.8674,宁波市,市环境监测中心,细颗粒物(PM2.5),112,120,82,84,52,4,,57,27,84,53,11,10,1.0,0.9
2024-12-31T0000,2871A,121.6147,29.9017,宁波市,万里国际学校,细颗粒物(PM2.5),94,112,69,70,46,7,,52,11,85,61,10,8,0.9,0.8
2024-12-31T0000,3710A,121.5594,29.8975,宁波市,白沙活动中心,细颗粒物(PM2.5),102,105,68,76,47,8,,68,32,90,54,11,10,0.7,0.7
2024-12-31T0000,2339A,119.5001,26.6946,宁德市,金涵水库,,,,,,,,,,,,,,,,
2024-12-31T0000,2341A,119.5388,26.6612,宁德市,宁德市监测站,,49,40,46,34,31,41,,76,49,20,31,2,4,0.7,0.6
2024-12-31T0000,3209A,119.5231,26.6562,宁德市,宁德一中,,45,45,41,28,27,49,,84,64,19,20,2,3,0.7,0.6
2024-12-31T0000,2618A,98.8601,25.8567,怒江傈僳族自治州,州监测站,,,,,,,,,,,,,,,,
2024-12-31T0000,2619A,98.8546,25.8417,怒江傈僳族自治州,泸水一中,,50,,34,35,22,19,,54,26,27,26,8,7,0.8,0.7
2024-12-31T0000,1888A,101.6891,26.571,攀枝花市,弄弄坪,颗粒物(PM10),92,134,94,45,44,4,,80,48,72,51,92,63,3.0,3.3
2024-12-31T0000,1889A,101.5769,26.5928,攀枝花市,河门口,颗粒物(PM10),53,56,49,32,32,10,,90,50,46,31,8,13,1.0,1.5
2024-12-31T0000,1890A,101.7169,26.585,攀枝花市,炳草岗,颗粒物(PM10),53,56,73,23,39,6,,81,44,66,51,11,25,0.8,1.7
2024-12-31T0000,1891A,101.7369,26.5008,攀枝花市,仁和,,34,34,48,21,31,40,,86,51,22,32,7,16,0.4,1.8
2024-12-31T0000,2835A,101.7227,26.567,攀枝花市,四十中小,,50,50,77,26,45,38,,81,58,41,52,18,48,0.9,3.2
2024-12-31T0000,1604A,122.0303,41.1489,盘锦市,开发区,,29,29,80,11,36,59,,70,61,13,32,10,14,1.0,1.3
2024-12-31T0000,1605A,122.0485,41.0883,盘锦市,兴隆台,,24,24,80,3,36,66,,70,64,7,33,9,15,0.5,1
2024-12-31T0000,1606A,121.8297,41.1028,盘锦市,新生街道,,32,32,75,12,33,38,,64,32,39,48,8,12,0.5,0.9
2024-12-31T0000,1832A,113.3257,33.742,平顶山市,新华旅馆,颗粒物(PM10),67,84,98,40,48,70,,85,79,17,19,15,9,0.3,0.3
2024-12-31T0000,1833A,113.2919,33.737,平顶山市,规划设计院,颗粒物(PM10),61,72,100,29,46,75,,84,77,11,23,9,7,0.2,0.3
2024-12-31T0000,1834A,113.182,33.774,平顶山市,平顶山工学院,颗粒物(PM10),71,92,97,39,39,60,,84,68,22,18,4,5,0.7,0.7
2024-12-31T0000,3204A,113.3025,33.73,平顶山市,规划局,颗粒物(PM10),62,73,97,33,50,71,,79,74,10,21,10,8,0.3,0.4
2024-12-31T0000,3594A,112.8867,33.9116,平顶山市,石龙区,颗粒物(PM10),52,53,95,24,26,69,,81,70,17,18,6,7,0.6,0.6
2024-12-31T0000,2656A,106.6692,35.5461,平凉市,聚贤嘉苑,,47,47,40,22,20,18,,89,44,68,45,14,14,0.6,0.6
2024-12-31T0000,2657A,106.7021,35.5307,平凉市,博物馆,,,,,,,,,,,,,,,,
2024-12-31T0000,2347A,114.0997,27.5002,萍乡市,武功山,细颗粒物(PM2.5),97,,64,72,46,54,,87,69,14,15,11,14,0.3,0.7
2024-12-31T0000,2348A,113.8385,27.6434,萍乡市,中医院,细颗粒物(PM2.5),129,157,136,98,83,20,,63,40,55,46,13,24,1.9,1.6
2024-12-31T0000,2349A,113.8493,27.6253,萍乡市,市政府车库,细颗粒物(PM2.5),199,,123,149,101,15,,71,38,58,47,13,21,1.9,1.7
2024-12-31T0000,2350A,113.8676,27.6435,萍乡市,市环保局,细颗粒物(PM2.5),213,205,138,163,99,14,,62,37,62,51,16,25,2.2,1.6
2024-12-31T0000,2351A,113.866,27.6198,萍乡市,安源区政府,细颗粒物(PM2.5),173,168,129,131,92,23,,74,53,48,44,14,19,1.7,1.4
2024-12-31T0000,2319A,119.0141,25.4325,莆田市,荔城区仓后路,颗粒物(PM10),63,75,51,40,17,13,,92,60,50,23,2,3,0.9,0.6
2024-12-31T0000,2320A,119.0015,25.4553,莆田市,莆田市监测站,细颗粒物(PM2.5),57,,41,40,20,50,,92,68,20,19,3,4,0.6,0.5
2024-12-31T0000,2321A,119.1119,25.4561,莆田市,涵江区六中,颗粒物(PM10),56,62,44,32,17,9,,94,60,58,22,1,2,0.5,0.3
2024-12-31T0000,2322A,119.1013,25.3215,莆田市,秀屿区政府,,35,35,51,21,30,45,,100,69,38,25,2,5,0.5,0.5
2024-12-31T0000,2323A,118.981,25.4792,莆田市,东圳水库,,,,,,,,,,,,,,,,
2024-12-31T0000,2392A,115.0312,35.7636,濮阳市,环保局,颗粒物(PM10),88,126,108,45,49,19,,58,27,63,47,5,6,1.3,1.1
2024-12-31T0000,2394A,115.0574,35.7609,濮阳市,油田运输公司,颗粒物(PM10),92,134,118,41,45,13,,53,17,63,51,5,5,1.0,1
2024-12-31T0000,2395A,115.0866,35.7754,濮阳市,油田物探公司,颗粒物(PM10),96,142,114,51,50,10,,62,27,69,52,6,6,1.1,0.8
2024-12-31T0000,3021A,115,35.7668,濮阳市,濮水河管理处,颗粒物(PM10),100,150,129,65,57,11,,51,20,51,40,6,7,0.9,0.8
2024-12-31T0000,2601A,100.98,22.7633,普洱市,市环保局,,38,38,37,8,9,19,,64,40,13,11,4,4,0.6,0.6
2024-12-31T0000,2602A,100.9817,22.8322,普洱市,普洱第二中学,细颗粒物(PM2.5),57,43,34,40,19,5,,64,35,31,15,10,10,0.7,0.7
2024-12-31T0000,2262A,131.0518,45.8751,七台河市,新一中,细颗粒物(PM2.5),55,,30,39,23,39,,51,37,23,16,12,12,1.9,1.8
2024-12-31T0000,3345A,131.0577,45.7879,七台河市,中波台,细颗粒物(PM2.5),72,71,34,52,23,17,,41,24,44,24,15,11,0.9,0.8
2024-12-31T0000,3637A,131.0176,45.7761,七台河市,人民广场,细颗粒物(PM2.5),69,70,47,50,35,27,,36,24,35,29,8,8,0.8,0.7
2024-12-31T0000,3684A,130.8781,45.8222,七台河市,新建矿广场,细颗粒物(PM2.5),59,,56,42,40,33,,18,18,26,48,13,14,0.6,0.7
2024-12-31T0000,1779A,123.9305,47.3636,齐齐哈尔市,安居小区,细颗粒物(PM2.5),160,143,109,122,97,20,,41,28,30,33,10,12,0.9,0.8
2024-12-31T0000,1780A,123.9488,47.3386,齐齐哈尔市,中心广场,细颗粒物(PM2.5),155,140,127,118,91,20,,36,25,32,37,3,4,1.3,1
2024-12-31T0000,1781A,123.9483,47.3227,齐齐哈尔市,农牧车辆厂,细颗粒物(PM2.5),133,132,102,101,87,19,,40,29,30,36,5,7,0.9,0.8
2024-12-31T0000,1783A,123.945,47.2988,齐齐哈尔市,市环境监测站,细颗粒物(PM2.5),189,186,128,142,100,10,,40,25,48,43,4,5,1.0,1
2024-12-31T0000,3662A,123.6333,47.2075,齐齐哈尔市,富区青少年活动中心,细颗粒物(PM2.5),132,124,109,100,80,29,,41,24,28,30,9,10,1.0,1.1
2024-12-31T0000,2591A,107.9783,26.5747,黔东南苗族侗族自治州,市环境监测站,,,,,,,,,,,,,,,,
2024-12-31T0000,2881A,107.8908,26.5311,黔东南苗族侗族自治州,凯里学院,细颗粒物(PM2.5),63,51,76,45,58,19,,77,32,29,22,6,6,1.0,0.9
2024-12-31T0000,2593A,107.5228,26.2403,黔南布依族苗族自治州,小围寨,,35,29,51,24,42,48,,67,49,16,18,10,8,0.7,0.7
2024-12-31T0000,3538A,107.5175,26.2978,黔南布依族苗族自治州,沙坝,,39,27,56,27,43,51,,73,49,16,20,6,7,0.7,0.7
2024-12-31T0000,2589A,104.9022,25.0925,黔西南布依族苗族自治州,场坝街,,46,44,57,32,45,48,,58,40,10,19,5,9,0.6,0.6
2024-12-31T0000,2590A,104.8811,25.0992,黔西南布依族苗族自治州,坪东大道,,50,,49,35,43,39,,58,36,13,17,4,8,0.7,0.7
2024-12-31T0000,2502A,108.6236,21.9667,钦州市,市环保站,细颗粒物(PM2.5),122,146,156,92,87,76,,99,89,33,49,18,13,1.8,1.2
