timepoint,stationcode,longitude,latitude,area,positionname,primarypollutant,aqi,pm10,pm10_24h,pm2_5,pm2_5_24h,o3,o3_24h,o3_8h,o3_8h_24h,no2,no2_24h,so2,so2_24h,co,co_24h
2023-01-05T13:00:00,1001A,116.3621,39.8784,北京市,万寿西宫,细颗粒物(PM2.5),102,119,109,76,75,38,38,15,15,50,69,7,4,0.8,0.8
2023-01-05T13:00:00,1002A,116.2202,40.2915,北京市,定陵(对照点),细颗粒物(PM2.5),77,90,63,56,37,39,26,22,22,42,32,8,4,0.7,0.5
2023-01-05T13:00:00,1003A,116.4174,39.9289,北京市,东四,细颗粒物(PM2.5),89,106,103,66,66,38,23,13,13,43,46,5,5,0.8,0.8
2023-01-05T13:00:00,1004A,116.4072,39.8863,北京市,天坛,细颗粒物(PM2.5),113,126,101,85,72,38,17,10,10,2,58,5,2,0.9,0.9
2023-01-05T13:00:00,1005A,116.462,39.9365,北京市,农展馆,细颗粒物(PM2.5),92,104,114,68,75,42,24,15,10,47,60,4,4,0.5,0.6
2023-01-05T13:00:00,1006A,116.3392,39.9295,北京市,官园,细颗粒物(PM2.5),90,104,104,67,71,33,25,8,8,49,61,8,7,0.8,0.8
2023-01-05T13:00:00,1007A,116.2878,39.9611,北京市,海淀万柳,细颗粒物(PM2.5),83,109,109,61,66,25,18,7,7,58,68,6,4,0.8,0.8
2023-01-05T13:00:00,1008A,116.6636,40.135,北京市,顺义新城,细颗粒物(PM2.5),103,124,75,77,44,47,35,15,15,40,51,5,2,0.8,0.7
2023-01-05T13:00:00,1009A,116.6275,40.3275,北京市,怀柔镇,细颗粒物(PM2.5),88,118,61,65,36,50,38,21,20,32,31,4,2,0.5,0.4
2023-01-05T13:00:00,1010A,116.2296,40.217,北京市,昌平镇,细颗粒物(PM2.5),82,90,70,60,43,37,19,16,9,47,43,8,3,0.7,0.7
2023-01-05T13:00:00,1011A,116.3966,39.9821,北京市,奥体中心,细颗粒物(PM2.5),89,99,95,66,63,43,23,8,8,50,68,5,4,0.7,0.8
2023-01-05T13:00:00,1012A,116.184,39.9136,北京市,古城,细颗粒物(PM2.5),94,123,105,70,64,37,24,13,13,59,59,5,3,1.0,0.9
2023-01-05T13:00:00,1015A,117.1444,39.1661,天津市,勤俭道,细颗粒物(PM2.5),245,255,161,195,116,44,44,12,12,61,71,21,11,1.4,1.3
2023-01-05T13:00:00,1017A,117.237,39.1082,天津市,大直沽八号路,细颗粒物(PM2.5),229,242,149,179,102,57,57,19,19,60,72,23,13,1.6,1.4
2023-01-05T13:00:00,1018A,117.202,39.0927,天津市,前进道,细颗粒物(PM2.5),231,242,148,181,105,50,49,20,20,69,70,19,12,1.2,1.1
2023-01-05T13:00:00,1019A,117.1837,39.2133,天津市,淮河道,细颗粒物(PM2.5),247,256,172,197,123,48,48,14,14,62,79,21,12,1.4,1.4
2023-01-05T13:00:00,1021A,117.307,39.0877,天津市,跃进路,细颗粒物(PM2.5),222,216,165,172,110,55,55,18,18,57,62,21,12,1.3,1.1
2023-01-05T13:00:00,1023A,117.707,39.0343,天津市,第四大街,细颗粒物(PM2.5),216,210,143,166,101,33,16,9,9,95,71,25,11,2.0,1.2
2023-01-05T13:00:00,1024A,117.457,38.8394,天津市,永明路,细颗粒物(PM2.5),215,203,120,165,92,43,29,11,11,61,67,30,19,1.2,1.2
2023-01-05T13:00:00,1026A,117.764,39.1587,天津市,汉北路,细颗粒物(PM2.5),216,207,125,166,89,24,24,5,5,83,63,27,11,2.4,1.1
2023-01-05T13:00:00,1027A,117.157,38.9194,天津市,团泊洼(对照点),细颗粒物(PM2.5),238,214,130,188,100,33,30,5,5,65,60,16,10,1.3,1.1
2023-01-05T13:00:00,1029A,114.4422,38.0444,石家庄市,职工医院,细颗粒物(PM2.5),223,252,169,173,112,37,34,15,15,81,82,19,15,,1.8
2023-01-05T13:00:00,1030A,114.6063,38.0266,石家庄市,高新区,颗粒物(PM10),135,219,187,,126,51,40,14,14,,73,20,14,1.7,1.7
2023-01-05T13:00:00,1031A,114.4898,38.1328,石家庄市,西北水源,细颗粒物(PM2.5),188,218,161,141,102,40,20,5,5,102,88,19,17,1.9,1.8
2023-01-05T13:00:00,1032A,114.4586,38.0058,石家庄市,西南高教,细颗粒物(PM2.5),233,232,173,183,129,36,30,10,10,73,80,21,16,1.6,1.5
2023-01-05T13:00:00,1033A,114.5331,38.0178,石家庄市,世纪公园,细颗粒物(PM2.5),188,195,171,141,129,38,30,8,8,69,80,21,15,1.8,1.8
2023-01-05T13:00:00,1034A,114.509,38.0457,石家庄市,人民会堂,细颗粒物(PM2.5),230,208,164,180,130,43,42,15,15,70,78,20,15,2.1,2
2023-01-05T13:00:00,1035A,114.3524,37.8911,石家庄市,封龙山(对照点),细颗粒物(PM2.5),103,92,123,77,84,80,80,60,60,39,58,31,26,0.9,1.1
2023-01-05T13:00:00,1037A,118.131,39.6363,唐山市,雷达站,细颗粒物(PM2.5),168,159,136,127,97,42,42,12,12,55,77,14,11,1.2,1.3
2023-01-05T13:00:00,1038A,118.1725,39.6334,唐山市,物资局,细颗粒物(PM2.5),130,150,135,99,87,33,33,9,9,63,77,16,13,1.2,1.5
2023-01-05T13:00:00,1040A,118.1705,39.6506,唐山市,十二中,细颗粒物(PM2.5),145,141,129,111,98,45,45,13,13,65,84,14,11,1.1,1.5
2023-01-05T13:00:00,1041A,118.1869,39.622,唐山市,小山,细颗粒物(PM2.5),150,151,160,115,102,44,44,9,9,68,89,19,15,1.2,1.7
2023-01-05T13:00:00,1042A,119.5134,39.8207,秦皇岛市,北戴河环保局,细颗粒物(PM2.5),143,162,103,109,70,48,21,10,10,74,59,21,15,2.1,1.7
2023-01-05T13:00:00,1043A,119.7493,40.0116,秦皇岛市,第一关,细颗粒物(PM2.5),114,166,102,86,66,58,58,22,22,48,61,,9,1.5,1.5
2023-01-05T13:00:00,1044A,119.5897,39.9499,秦皇岛市,监测站,细颗粒物(PM2.5),130,159,110,99,70,34,34,14,14,45,49,28,21,2.1,1.7
2023-01-05T13:00:00,1046A,119.5251,39.9041,秦皇岛市,建设大厦,细颗粒物(PM2.5),114,155,110,86,59,45,45,18,18,62,60,30,17,2.5,1.7
2023-01-05T13:00:00,1048A,114.5302,36.6116,邯郸市,东污水处理厂,细颗粒物(PM2.5),285,277,220,235,173,44,20,7,7,102,95,37,21,,1.5
2023-01-05T13:00:00,1049A,114.4918,36.5713,邯郸市,矿院,细颗粒物(PM2.5),279,253,207,229,169,38,17,6,6,93,85,44,18,2.7,2.2
2023-01-05T13:00:00,1050A,114.484,36.6133,邯郸市,丛台公园,细颗粒物(PM2.5),274,255,196,224,168,40,25,10,10,84,78,39,21,2.9,2.2
2023-01-05T13:00:00,1051A,115.493,38.8632,保定市,游泳馆,细颗粒物(PM2.5),193,162,166,145,140,52,19,10,10,85,98,18,16,1.8,1.5
2023-01-05T13:00:00,1052A,115.5213,38.8959,保定市,华电二区,细颗粒物(PM2.5),149,157,154,114,129,53,18,9,9,83,79,17,14,2.1,1.8
2023-01-05T13:00:00,1053A,115.4713,38.9108,保定市,接待中心,细颗粒物(PM2.5),145,164,168,111,121,41,21,7,7,71,78,15,12,1.6,1.5
2023-01-05T13:00:00,1054A,115.4612,38.8416,保定市,地表水厂,细颗粒物(PM2.5),160,214,200,122,121,41,20,12,12,82,88,14,16,1.7,1.3
2023-01-05T13:00:00,1056A,115.5086,38.8639,保定市,监测站,,,,171,,140,43,13,7,7,,90,115,19,1.6,1.4
2023-01-05T13:00:00,1057A,114.8883,40.8336,张家口市,人民公园,,49,49,40,23,21,72,49,47,41,25,17,10,9,0.8,0.6
2023-01-05T13:00:00,1059A,114.8687,40.8042,张家口市,五金库,细颗粒物(PM2.5),58,49,35,41,28,70,41,50,39,35,25,19,12,0.9,0.6
2023-01-05T13:00:00,1060A,114.8902,40.762,张家口市,世纪豪园,颗粒物(PM10),72,94,52,50,29,67,35,46,36,46,28,13,5,0.9,0.5
2023-01-05T13:00:00,1061A,114.8916,40.8661,张家口市,北泵房(对照点),,48,46,46,33,33,76,57,51,46,22,18,16,16,1.0,0.8
2023-01-05T13:00:00,1062A,117.9531,40.9081,承德市,铁路,,48,48,81,33,49,32,25,12,12,38,47,14,16,0.9,1.3
2023-01-05T13:00:00,1063A,117.9392,40.9763,承德市,中国银行,颗粒物(PM10),53,55,68,21,40,48,43,22,22,26,41,11,10,0.6,0.9
2023-01-05T13:00:00,1064A,117.9503,40.928,承德市,开发区,颗粒物(PM10),56,61,74,29,45,37,26,14,14,38,47,10,11,0.8,1.1
2023-01-05T13:00:00,1065A,117.8051,40.9655,承德市,文化中心,细颗粒物(PM2.5),145,214,96,111,53,55,11,6,6,48,41,34,17,2.5,1.3
2023-01-05T13:00:00,1066A,117.9268,41.0026,承德市,离宫(对照点),颗粒物(PM10),55,59,48,35,35,36,27,14,14,29,36,13,12,0.7,0.7
2023-01-05T13:00:00,1067A,116.6708,39.5111,廊坊市,药材公司,细颗粒物(PM2.5),198,198,147,148,106,41,36,12,12,87,90,18,13,1.3,1.2
2023-01-05T13:00:00,1068A,116.7214,39.5589,廊坊市,开发区,细颗粒物(PM2.5),204,212,143,154,98,42,19,8,8,123,90,17,11,1.9,1.4
2023-01-05T13:00:00,1070A,116.7244,39.5269,廊坊市,北华航天学院,细颗粒物(PM2.5),218,219,161,168,112,38,31,10,10,101,94,22,15,1.5,1.4
2023-01-05T13:00:00,1071A,116.8842,38.2991,沧州市,沧县城建局,细颗粒物(PM2.5),269,266,162,219,125,68,50,18,18,59,66,24,18,1.6,1.3
2023-01-05T13:00:00,1072A,116.8584,38.3254,沧州市,电视转播站,细颗粒物(PM2.5),238,212,142,188,110,74,59,22,22,58,64,25,16,1.4,1.1
2023-01-05T13:00:00,1073A,116.8709,38.3228,沧州市,市环保局,细颗粒物(PM2.5),231,221,146,181,110,67,42,16,16,76,73,25,17,1.3,0.9
2023-01-05T13:00:00,1074A,115.6838,37.7541,衡水市,电机北厂,细颗粒物(PM2.5),301,305,284,251,228,60,60,15,15,59,98,27,29,1.5,1.8
2023-01-05T13:00:00,1075A,115.6303,37.7316,衡水市,市监测站,细颗粒物(PM2.5),306,333,298,256,218,50,,4,4,,87,,21,,1.8
2023-01-05T13:00:00,1077A,114.4704,37.0886,邢台市,达活泉,细颗粒物(PM2.5),270,266,195,220,151,51,35,11,11,65,63,34,13,2.5,1.7
2023-01-05T13:00:00,1078A,114.5062,37.0349,邢台市,邢师高专,,,,152,,135,51,25,8,8,78,71,29,11,,1.4
2023-01-05T13:00:00,1079A,114.5237,37.0851,邢台市,路桥公司,细颗粒物(PM2.5),251,213,163,201,150,54,26,8,8,79,73,26,12,2.1,1.4
2023-01-05T13:00:00,1080A,114.4725,37.0719,邢台市,市环保局,细颗粒物(PM2.5),257,262,191,207,149,50,33,11,11,74,72,34,11,2.6,1.7
2023-01-05T13:00:00,1081A,112.522,37.8873,太原市,尖草坪,细颗粒物(PM2.5),82,105,82,60,57,69,30,13,13,65,69,47,26,1.5,1
2023-01-05T13:00:00,1083A,112.434,38.0108,太原市,上兰(对照点),,,,,,,,,,,,,,,,
2023-01-05T13:00:00,1084A,112.469,37.7124,太原市,晋源,细颗粒物(PM2.5),102,126,121,76,79,80,19,9,9,73,77,,26,1.8,1.9
2023-01-05T13:00:00,1085A,112.5583,37.7394,太原市,小店,细颗粒物(PM2.5),112,154,140,84,77,69,23,7,7,69,79,48,23,1.7,1.5
2023-01-05T13:00:00,1086A,112.5369,37.8692,太原市,桃园,细颗粒物(PM2.5),100,129,95,75,59,74,23,10,10,75,68,45,24,1.6,1
2023-01-05T13:00:00,1087A,112.57,37.8195,太原市,坞城,细颗粒物(PM2.5),112,142,95,84,60,73,30,12,12,78,77,64,26,1.7,1.2
2023-01-05T13:00:00,1088A,112.549,37.9854,太原市,南寨,,,112,101,58,55,62,14,8,8,66,63,,19,2.3,1.1
2023-01-05T13:00:00,1089A,112.4783,37.7778,太原市,金胜(停运211219),,,,,,,,,,,,,,,,
2023-01-05T13:00:00,1090A,111.6507,40.7517,呼和浩特市,呼市一监,,,92,92,57,68,62,34,10,10,42,54,,21,1.2,1.5
2023-01-05T13:00:00,1091A,111.6572,40.8033,呼和浩特市,小召,细颗粒物(PM2.5),80,100,106,59,59,52,32,16,16,53,64,18,13,1.1,1.4
2023-01-05T13:00:00,1094A,111.7516,40.8369,呼和浩特市,如意水处理厂,颗粒物(PM10),75,99,101,51,54,67,42,18,18,48,61,28,19,0.9,1.1
2023-01-05T13:00:00,1095A,111.7276,40.8062,呼和浩特市,二十九中,"颗粒物(PM10),细颗粒物(PM2.5)",72,94,85,52,53,63,32,12,12,49,59,33,26,1.0,1.1
2023-01-05T13:00:00,1096A,111.5512,40.7866,呼和浩特市,工大金川校区,细颗粒物(PM2.5),87,116,118,64,51,52,22,9,9,52,53,53,22,1.2,1
2023-01-05T13:00:00,1097A,111.717,40.7612,呼和浩特市,化肥厂生活区,颗粒物(PM10),67,83,100,46,61,61,37,17,17,47,57,29,24,0.8,1.2
2023-01-05T13:00:00,1098A,123.6836,41.9339,沈阳市,森林路(对照点),,,,,,,,,,,,,,,,
2023-01-05T13:00:00,1099A,123.505,41.7406,沈阳市,浑南东路,细颗粒物(PM2.5),118,126,120,89,90,48,22,10,10,54,55,28,23,2.1,1.9
2023-01-05T13:00:00,1100A,123.4231,41.6989,沈阳市,新秀街,细颗粒物(PM2.5),105,121,128,79,85,50,30,9,9,45,64,26,22,1.7,1.9
2023-01-05T13:00:00,1102A,123.5903,41.8411,沈阳市,东陵路,细颗粒物(PM2.5),113,109,108,85,77,40,25,14,14,51,52,31,25,2.6,2.2
2023-01-05T13:00:00,1103A,123.4264,41.8467,沈阳市,陵东街,细颗粒物(PM2.5),114,138,137,86,83,45,16,10,10,75,70,41,31,2.9,2.3
2023-01-05T13:00:00,1104A,123.4114,41.7653,沈阳市,文化路,细颗粒物(PM2.5),132,143,124,100,86,56,18,9,9,65,73,38,35,2.4,2.1
2023-01-05T13:00:00,1105A,123.4678,41.7867,沈阳市,小河沿,细颗粒物(PM2.5),118,142,120,89,78,48,17,10,10,71,63,27,21,2.7,1.9
2023-01-05T13:00:00,1106A,123.4017,41.7972,沈阳市,太原街,细颗粒物(PM2.5),143,180,153,109,90,48,12,6,6,73,64,53,54,2.7,2.2
2023-01-05T13:00:00,1108A,123.3783,41.9228,沈阳市,京沈街,细颗粒物(PM2.5),124,147,142,94,97,48,29,12,12,58,74,37,45,2.0,2.2
2023-01-05T13:00:00,1109A,121.612,38.9741,大连市,甘井子,细颗粒物(PM2.5),127,99,59,96,54,64,37,25,24,63,45,22,19,1.5,1
2023-01-05T13:00:00,1110A,121.565,38.9511,大连市,周水子,细颗粒物(PM2.5),99,101,91,74,58,61,49,25,25,39,53,36,23,1.6,1.5
2023-01-05T13:00:00,1111A,121.5637,38.8845,大连市,星海三站,,,,,,,,,,,,,,,,
2023-01-05T13:00:00,1112A,121.6302,38.9117,大连市,青泥洼桥,细颗粒物(PM2.5),103,79,57,77,51,68,68,28,28,37,52,22,19,1.4,1.2
2023-01-05T13:00:00,1113A,121.6251,38.8638,大连市,傅家庄,细颗粒物(PM2.5),95,76,54,71,47,69,69,54,35,23,26,16,18,1.5,1.1
2023-01-05T13:00:00,1114A,121.5213,38.8661,大连市,七贤岭,细颗粒物(PM2.5),82,74,60,60,41,77,77,40,36,24,30,15,8,1.2,0.9
2023-01-05T13:00:00,1115A,121.2529,38.8061,大连市,旅顺,细颗粒物(PM2.5),95,84,74,71,60,72,69,60,40,26,27,14,13,1.0,0.9
2023-01-05T13:00:00,1116A,121.7485,39.1311,大连市,金州,细颗粒物(PM2.5),130,147,97,99,52,64,54,38,33,,44,19,12,1.5,1.1
2023-01-05T13:00:00,1117A,121.7811,39.0496,大连市,开发区,细颗粒物(PM2.5),130,108,66,99,56,48,35,15,15,70,71,26,14,1.4,1.4
2023-01-05T13:00:00,1118A,121.9762,39.0631,大连市,双D港,细颗粒物(PM2.5),63,65,37,45,29,68,57,66,44,27,19,12,7,1.4,1.1
2023-01-05T13:00:00,1119A,125.3325,43.9166,长春市,食品厂,细颗粒物(PM2.5),100,113,93,75,72,53,53,28,28,44,59,28,25,1.3,1.1
2023-01-05T13:00:00,1120A,125.2863,43.9027,长春市,客车厂,细颗粒物(PM2.5),102,90,82,76,65,50,50,24,24,44,63,31,31,1.3,1
2023-01-05T13:00:00,1121A,125.2841,43.8463,长春市,邮电学院,,,,75,,58,51,51,27,27,44,57,32,19,,1.1
2023-01-05T13:00:00,1122A,125.3716,43.8772,长春市,劳动公园,细颗粒物(PM2.5),79,92,75,58,56,53,53,28,28,45,59,35,22,1.2,1
2023-01-05T13:00:00,1123A,125.3297,43.8805,长春市,园林处,细颗粒物(PM2.5),93,97,81,69,61,43,42,27,27,58,63,41,28,1.4,1.1
2023-01-05T13:00:00,1124A,125.4605,43.79,长春市,净月潭,颗粒物(PM10),66,81,61,45,36,74,65,49,49,27,22,18,8,1.2,0.8
2023-01-05T13:00:00,1125A,125.7194,43.515,长春市,甩湾子(对照点),,,,,,,,,,,,,,,,
2023-01-05T13:00:00,1126A,125.3863,43.8447,长春市,经开区环卫处,细颗粒物(PM2.5),83,95,76,61,54,53,50,22,22,43,55,29,15,1.3,1
2023-01-05T13:00:00,1127A,125.245,43.7783,长春市,高新区管委会,,,104,80,50,72,58,58,28,28,38,55,29,12,,1.2
2023-01-05T13:00:00,1128A,125.1761,43.8325,长春市,岱山公园,细颗粒物(PM2.5),99,84,81,74,62,66,61,32,32,36,54,27,18,1.6,1.2
2023-01-05T13:00:00,1129A,126.5422,45.755,哈尔滨市,岭北(对照点),细颗粒物(PM2.5),127,120,127,96,102,71,59,48,43,45,49,51,29,1.1,1
2023-01-05T13:00:00,1130A,126.561,45.8167,哈尔滨市,松北商大,细颗粒物(PM2.5),102,122,118,76,96,54,52,45,24,41,53,21,18,1.1,1.2
2023-01-05T13:00:00,1131A,126.979,45.5419,哈尔滨市,阿城会宁,细颗粒物(PM2.5),114,113,98,86,77,69,62,44,43,37,32,34,22,1.1,0.9
2023-01-05T13:00:00,1132A,126.599,45.7222,哈尔滨市,南岗学府路,,,137,135,,57,57,57,33,33,45,56,27,20,0.7,0.7
2023-01-05T13:00:00,1133A,126.689,45.7733,哈尔滨市,太平宏伟公园,细颗粒物(PM2.5),102,114,124,76,92,52,52,28,28,42,60,26,35,1.2,1
2023-01-05T13:00:00,1134A,126.635,45.7667,哈尔滨市,道外承德广场,细颗粒物(PM2.5),104,133,122,78,92,43,43,28,24,53,61,31,18,1.1,1
2023-01-05T13:00:00,1135A,126.685,45.7319,哈尔滨市,香坊红旗大街,细颗粒物(PM2.5),133,116,131,101,113,49,49,27,27,51,74,28,117,0.9,1.3
2023-01-05T13:00:00,1136A,126.6411,45.7258,哈尔滨市,动力和平路,细颗粒物(PM2.5),122,119,122,92,106,53,52,30,30,50,63,31,23,1.2,1.1
2023-01-05T13:00:00,1137A,126.593,45.7478,哈尔滨市,道里建国路,细颗粒物(PM2.5),128,146,124,97,104,46,,32,21,51,61,28,21,1.1,0.6
2023-01-05T13:00:00,1138A,126.615,45.61,哈尔滨市,平房东轻厂,细颗粒物(PM2.5),129,147,127,98,102,62,61,36,36,40,50,26,16,0.8,1
2023-01-05T13:00:00,1139A,126.595,45.9855,哈尔滨市,呼兰师专,细颗粒物(PM2.5),107,87,102,80,93,70,55,47,32,26,31,21,16,1.1,1.1
2023-01-05T13:00:00,1140A,126.6206,45.6842,哈尔滨市,省农科院,细颗粒物(PM2.5),117,132,139,88,110,57,57,26,26,44,66,32,26,1.2,1.4
2023-01-05T13:00:00,1141A,121.4,31.238,上海市,普陀,,35,35,41,19,40,98,46,84,50,54,42,5,6,0.6,0.7
2023-01-05T13:00:00,1142A,121.478,31.2036,上海市,十五厂,,43,40,43,30,48,96,19,53,17,79,62,12,11,0.6,0.7
2023-01-05T13:00:00,1143A,121.467,31.3008,上海市,虹口,颗粒物(PM10),53,56,73,30,53,95,27,39,24,69,67,10,10,0.6,0.7
2023-01-05T13:00:00,1144A,121.412,31.1654,上海市,徐汇上师大,,45,45,46,27,42,87,29,55,22,63,56,7,8,0.8,0.8
2023-01-05T13:00:00,1145A,121.536,31.2659,上海市,杨浦四漂,,41,41,76,26,53,90,22,30,9,74,88,7,7,0.8,1
2023-01-05T13:00:00,1147A,121.425,31.2261,上海市,静安监测站,,48,48,63,27,42,97,34,74,41,70,52,8,8,0.6,0.6
2023-01-05T13:00:00,1148A,121.703,31.1907,上海市,浦东川沙,,44,44,52,20,52,102,12,8,8,73,69,9,7,0.5,0.7
2023-01-05T13:00:00,1149A,121.533,31.2284,上海市,浦东新区监测站,颗粒物(PM10),51,52,69,26,46,92,18,39,19,71,62,7,6,0.6,0.7
2023-01-05T13:00:00,1150A,121.577,31.2071,上海市,浦东张江,,38,38,47,21,42,94,15,46,14,73,62,6,6,0.9,0.9
2023-01-05T13:00:00,1151A,118.8086,32.1065,南京市,迈皋桥,细颗粒物(PM2.5),92,109,93,68,53,113,113,78,37,62,50,8,4,0.6,0.5
2023-01-05T13:00:00,1152A,118.7538,32.0551,南京市,草场门,细颗粒物(PM2.5),104,132,81,78,55,105,56,77,34,80,44,39,10,2.1,0.7
2023-01-05T13:00:00,1153A,118.7794,32.0745,南京市,山西路,,,,83,68,52,113,72,88,36,,35,19,5,1.4,0.6
2023-01-05T13:00:00,1154A,118.7752,32.0023,南京市,中华门,细颗粒物(PM2.5),83,97,81,61,50,111,83,67,36,39,43,20,8,1.2,0.7
2023-01-05T13:00:00,1155A,118.8109,32.0309,南京市,瑞金路,,,128,96,61,52,114,70,78,33,,44,23,8,1.5,0.6
2023-01-05T13:00:00,1156A,118.7997,32.0754,南京市,玄武湖,细颗粒物(PM2.5),99,109,84,74,57,107,96,71,37,54,35,14,7,0.8,0.6
2023-01-05T13:00:00,1157A,118.6414,32.0931,南京市,浦口,细颗粒物(PM2.5),92,130,87,68,54,105,74,70,50,65,50,21,10,1.4,0.9
2023-01-05T13:00:00,1158A,118.7356,31.9996,南京市,奥体中心,,,,89,,56,117,67,77,40,60,53,12,7,1.0,0.6
2023-01-05T13:00:00,1159A,118.9125,32.1028,南京市,仙林大学城,细颗粒物(PM2.5),83,95,77,61,55,116,86,84,37,67,41,13,8,0.9,0.8
2023-01-05T13:00:00,1160A,120.561,31.2472,苏州市,上方山(对照点),细颗粒物(PM2.5),74,53,70,54,58,85,85,49,45,22,38,8,8,0.7,0.8
2023-01-05T13:00:00,1162A,120.591,31.3019,苏州市,彩香,细颗粒物(PM2.5),59,51,69,42,54,92,86,69,42,21,38,7,7,0.7,0.8
2023-01-05T13:00:00,1163A,120.596,31.3264,苏州市,轧钢厂,颗粒物(PM10),54,57,76,35,46,90,85,69,42,26,43,8,7,0.6,0.8
2023-01-05T13:00:00,1164A,120.613,31.2703,苏州市,吴中区,细颗粒物(PM2.5),53,50,73,37,54,94,91,57,37,23,45,10,10,0.5,0.7
2023-01-05T13:00:00,1165A,120.543,31.2994,苏州市,苏州新区,细颗粒物(PM2.5),64,59,66,46,51,91,82,72,44,30,39,9,9,0.7,0.7
2023-01-05T13:00:00,1166A,120.669,31.3097,苏州市,苏州工业园区,细颗粒物(PM2.5),74,67,74,54,53,94,66,68,43,41,42,9,8,0.6,0.8
2023-01-05T13:00:00,1167A,120.641,31.3708,苏州市,相城区,细颗粒物(PM2.5),65,75,81,47,53,83,60,78,35,47,55,10,8,0.7,0.7
2023-01-05T13:00:00,1168A,120.9098,31.9663,南通市,狼山街道,,49,49,81,29,65,102,65,91,47,23,29,10,9,0.4,0.6
2023-01-05T13:00:00,1169A,120.86,32.0005,南通市,虹桥,颗粒物(PM10),53,56,80,32,57,103,66,90,50,31,36,8,7,0.5,0.6
2023-01-05T13:00:00,1170A,120.87,32.02,南通市,城中,,50,50,85,32,62,108,74,96,55,26,36,9,8,0.1,0.3
2023-01-05T13:00:00,1171A,120.94,31.93,南通市,星湖花园,颗粒物(PM10),54,58,78,29,54,111,66,96,52,23,26,10,9,0.3,0.5
2023-01-05T13:00:00,1172A,120.81,32.0417,南通市,紫琅学院,,,60,89,34,56,82,59,82,44,,38,6,6,0.7,0.7
2023-01-05T13:00:00,1173A,119.176,34.5885,连云港市,市环境监测站,细颗粒物(PM2.5),128,127,127,97,96,98,92,61,50,38,52,18,14,1.2,1.1
2023-01-05T13:00:00,1177A,117.179,34.2761,徐州市,黄河新村,细颗粒物(PM2.5),158,158,168,120,122,112,66,35,17,73,80,19,13,1.3,1.4
2023-01-05T13:00:00,1178A,117.1918,34.2384,徐州市,淮塔,细颗粒物(PM2.5),153,155,167,117,123,118,84,25,25,64,72,13,10,1.1,1.3
2023-01-05T13:00:00,1180A,117.256,34.2153,徐州市,新城区,细颗粒物(PM2.5),153,149,163,117,120,112,79,20,20,54,68,16,13,1.3,1.3
2023-01-05T13:00:00,1181A,117.244,34.2911,徐州市,桃园路,细颗粒物(PM2.5),160,178,196,122,136,113,69,19,19,80,87,16,11,1.1,1.1
2023-01-05T13:00:00,1182A,117.2933,34.2778,徐州市,农科院,,,,196,,136,108,70,20,20,58,72,17,14,1.0,1.3
2023-01-05T13:00:00,1186A,119.389,32.3761,扬州市,邗江监测站,细颗粒物(PM2.5),138,107,111,105,87,107,84,29,29,49,74,,10,0.9,0.9
2023-01-05T13:00:00,1188A,120.269,31.4867,无锡市,雪浪,颗粒物(PM10),56,61,69,34,44,92,92,55,55,12,35,8,8,0.5,0.6
2023-01-05T13:00:00,1189A,120.275,31.6219,无锡市,黄巷,颗粒物(PM10),65,79,88,46,47,83,83,37,37,24,65,10,11,0.9,1
2023-01-05T13:00:00,1190A,120.294,31.56,无锡市,曹张,细颗粒物(PM2.5),58,59,84,41,44,92,92,54,39,15,48,10,11,0.4,0.7
2023-01-05T13:00:00,1191A,120.242,31.5031,无锡市,漆塘,细颗粒物(PM2.5),70,58,59,51,42,101,101,60,57,13,30,9,9,0.8,0.8
2023-01-05T13:00:00,1192A,120.3489,31.5863,无锡市,东亭,细颗粒物(PM2.5),58,58,72,41,49,87,87,36,36,30,69,12,11,0.8,0.9
2023-01-05T13:00:00,1193A,120.354,31.5475,无锡市,旺庄,细颗粒物(PM2.5),62,61,71,44,47,91,91,36,36,18,59,5,5,0.7,0.8
2023-01-05T13:00:00,1194A,120.245,31.5631,无锡市,荣巷,细颗粒物(PM2.5),70,61,65,51,50,92,92,55,50,23,48,12,12,0.9,0.9
2023-01-05T13:00:00,1195A,120.299,31.6817,无锡市,堰桥,"颗粒物(PM10),细颗粒物(PM2.5)",58,66,93,41,57,86,71,38,30,34,66,9,8,1.0,1.1
2023-01-05T13:00:00,1196A,119.9633,31.762,常州市,市监测站,细颗粒物(PM2.5),103,115,105,77,64,91,74,44,44,39,57,8,8,0.8,0.9
2023-01-05T13:00:00,1200A,119.9468,31.7069,常州市,武进监测站,细颗粒物(PM2.5),93,102,88,69,55,94,79,50,50,39,47,6,5,0.7,0.7
2023-01-05T13:00:00,1201A,119.9255,31.9087,常州市,安家,细颗粒物(PM2.5),107,115,103,80,69,78,72,38,32,49,64,9,9,1.0,1
2023-01-05T13:00:00,1203A,119.6707,32.1875,镇江市,新区办事处,细颗粒物(PM2.5),138,132,123,105,89,106,85,30,30,42,78,10,11,0.7,1
2023-01-05T13:00:00,1204A,119.4974,32.1968,镇江市,职教中心,细颗粒物(PM2.5),114,107,118,86,86,99,89,29,29,44,70,7,6,0.6,0.8
2023-01-05T13:00:00,1205A,119.4303,32.1328,镇江市,丹徒区监测站,,,,109,,77,98,,34,34,,70,7,6,0.8,0.8
2023-01-05T13:00:00,1206A,119.905,32.4878,泰州市,公园路,细颗粒物(PM2.5),119,92,107,90,89,94,79,40,40,,41,8,8,1.3,1.1
2023-01-05T13:00:00,1207A,119.9189,32.4625,泰州市,莲花,细颗粒物(PM2.5),129,95,111,98,97,96,85,48,48,33,44,12,11,0.9,1
2023-01-05T13:00:00,1209A,119.888,32.4639,泰州市,留学生创业园,细颗粒物(PM2.5),119,126,125,90,83,96,82,46,46,34,43,11,11,0.8,0.9
2023-01-05T13:00:00,1210A,119.036,33.5981,淮安市,钵池山,细颗粒物(PM2.5),113,114,105,85,93,113,98,50,50,23,47,13,12,0.8,0.9
2023-01-05T13:00:00,1211A,119.007,33.575,淮安市,北京南路,细颗粒物(PM2.5),119,100,124,90,88,110,92,35,35,25,55,12,9,1.0,1.1
2023-01-05T13:00:00,1212A,118.989,33.6067,淮安市,市监测站,细颗粒物(PM2.5),117,102,114,88,85,116,92,46,46,31,50,11,9,1.0,1
2023-01-05T13:00:00,1213A,119.135,33.5039,淮安市,楚州区监测站,细颗粒物(PM2.5),125,85,114,95,87,105,104,54,54,20,40,13,11,0.8,0.9
2023-01-05T13:00:00,1214A,119.0186,33.6297,淮安市,淮阴区监测站,细颗粒物(PM2.5),122,122,126,92,107,106,94,43,43,26,53,13,11,0.8,0.9
2023-01-05T13:00:00,1215A,120.118,33.4022,盐城市,盐城电厂,颗粒物(PM10),56,61,88,34,41,114,102,88,60,21,41,10,9,0.8,0.9
2023-01-05T13:00:00,1216A,120.156,33.3942,盐城市,市监测站,细颗粒物(PM2.5),64,63,85,46,60,111,94,84,57,23,38,6,5,0.5,0.8
2023-01-05T13:00:00,1218A,120.2144,33.38,盐城市,开发区管委会,细颗粒物(PM2.5),64,66,96,46,66,110,96,79,68,24,38,9,7,0.7,0.8
2023-01-05T13:00:00,1220A,118.293,33.9528,宿迁市,宿迁学院,细颗粒物(PM2.5),166,130,144,126,111,112,77,49,28,,65,12,8,1.0,0.9
2023-01-05T13:00:00,1221A,118.2442,33.9592,宿迁市,宿迁中学,细颗粒物(PM2.5),166,180,147,126,105,109,72,49,26,48,53,12,9,1.1,1
2023-01-05T13:00:00,1223A,120.2072,30.2111,杭州市,滨江,细颗粒物(PM2.5),95,105,81,71,48,98,46,18,18,54,60,8,8,0.8,0.7
2023-01-05T13:00:00,1224A,120.0633,30.2747,杭州市,西溪,细颗粒物(PM2.5),100,111,90,75,61,102,49,17,17,50,44,11,9,0.7,0.6
2023-01-05T13:00:00,1226A,120.3461,30.3153,杭州市,下沙,细颗粒物(PM2.5),109,123,86,82,60,129,37,18,11,66,55,8,7,0.7,0.6
2023-01-05T13:00:00,1227A,120.1269,30.2456,杭州市,卧龙桥,细颗粒物(PM2.5),92,93,70,68,50,108,58,21,21,39,39,9,8,0.7,0.6
2023-01-05T13:00:00,1228A,120.1903,30.2692,杭州市,浙江农大,细颗粒物(PM2.5),105,110,80,79,54,108,40,14,14,,48,,9,0.6,0.5
2023-01-05T13:00:00,1230A,120.1197,30.3119,杭州市,和睦小学,细颗粒物(PM2.5),119,124,90,90,62,112,36,13,13,,61,,6,0.7,0.7
2023-01-05T13:00:00,1231A,120.3019,30.4183,杭州市,临平镇,细颗粒物(PM2.5),94,112,76,70,51,118,27,35,16,65,37,10,8,0.8,0.6
2023-01-05T13:00:00,1232A,120.2697,30.1819,杭州市,城厢镇,细颗粒物(PM2.5),94,98,78,70,53,105,53,18,18,51,62,7,7,0.9,0.8
2023-01-05T13:00:00,1233A,120.0883,30.1808,杭州市,云栖,细颗粒物(PM2.5),83,99,73,61,50,92,43,18,18,56,48,11,10,0.8,0.7
2023-01-05T13:00:00,1234A,121.8358,29.911,宁波市,区环保大楼,细颗粒物(PM2.5),67,65,53,48,41,77,7,4,4,84,63,20,8,0.9,0.9
2023-01-05T13:00:00,1235A,121.56,29.82,宁波市,万里学院,,35,34,67,24,38,80,49,14,14,39,62,8,9,0.4,0.5
2023-01-05T13:00:00,1236A,121.713,29.9572,宁波市,龙赛医院,颗粒物(PM10),59,68,67,37,44,77,24,9,9,61,61,14,11,0.6,0.7
2023-01-05T13:00:00,1239A,121.633,29.7733,宁波市,钱湖水厂,,40,35,42,28,34,96,55,31,29,31,25,10,7,0.7,0.6
2023-01-05T13:00:00,1240A,121.5856,29.8635,宁波市,太古小学,,,38,69,22,43,82,41,12,12,,71,8,9,,0.7
2023-01-05T13:00:00,1241A,121.524,29.8674,宁波市,市环境监测中心,,,38,53,19,28,81,38,8,8,,63,6,6,0.5,0.6
2023-01-05T13:00:00,1242A,120.634,28.0089,温州市,瓯海,,49,49,74,28,43,62,53,19,19,30,57,8,8,0.4,0.6
2023-01-05T13:00:00,1243A,120.6748,27.9939,温州市,南浦,,49,49,68,25,45,58,47,23,23,34,53,6,6,0.4,0.5
2023-01-05T13:00:00,1244A,120.76,27.9747,温州市,龙湾,颗粒物(PM10),52,53,69,27,37,64,36,20,20,45,60,7,6,0.5,0.5
2023-01-05T13:00:00,1245A,120.6709,28.0167,温州市,市站,,47,47,66,21,37,71,56,30,30,30,55,7,6,0.5,0.7
2023-01-05T13:00:00,1247A,120.6053,29.9928,绍兴市,城东开发委,,,66,77,41,49,105,63,21,20,,57,4,5,,0.5
2023-01-05T13:00:00,1250A,120.0751,30.8669,湖州市,城西水厂,细颗粒物(PM2.5),98,84,52,73,56,108,47,50,19,62,49,7,6,0.5,0.5
2023-01-05T13:00:00,1252A,120.7436,30.778,嘉兴市,清河小学,,49,46,63,34,46,115,76,50,49,20,32,6,7,0.1,0.3
2023-01-05T13:00:00,1253A,120.726,30.7478,嘉兴市,嘉兴学院,细颗粒物(PM2.5),55,57,62,39,46,117,70,81,52,30,34,9,10,0.7,0.8
2023-01-05T13:00:00,1255A,121.273,28.6459,台州市,黄岩环保大楼,,28,28,34,15,22,104,79,61,58,18,20,8,8,0.3,0.3
2023-01-05T13:00:00,1256A,121.419,28.6542,台州市,台州环保大楼,,28,18,45,12,28,107,88,50,50,14,26,8,9,0.4,0.5
2023-01-05T13:00:00,1257A,121.377,28.5773,台州市,路桥田洋王,,,31,45,19,27,103,78,41,41,19,32,8,7,,0.5
2023-01-05T13:00:00,1258A,122.122,30.0203,舟山市,定海檀枫,,24,24,44,12,27,103,52,39,21,21,30,4,4,0.4,0.6
2023-01-05T13:00:00,1259A,122.3094,29.9558,舟山市,普陀东港,,24,14,38,7,24,103,74,76,47,15,21,5,5,0.4,0.5
2023-01-05T13:00:00,1260A,122.19,29.9944,舟山市,临城新区,,28,28,46,16,28,105,48,58,24,35,28,4,4,0.3,0.4
2023-01-05T13:00:00,1262A,119.647,29.077,金华市,十五中,颗粒物(PM10),62,74,83,40,53,69,46,15,15,42,65,5,6,0.6,0.7
2023-01-05T13:00:00,1263A,119.686,29.1029,金华市,监测站,细颗粒物(PM2.5),57,60,87,40,62,70,49,11,11,34,73,6,7,0.6,0.7
2023-01-05T13:00:00,1264A,118.8692,28.9398,衢州市,环保大楼,细颗粒物(PM2.5),69,60,76,50,61,46,45,17,17,37,51,4,4,0.7,0.8
2023-01-05T13:00:00,1265A,118.8709,28.9666,衢州市,实验学校,细颗粒物(PM2.5),65,66,84,47,61,52,48,16,16,25,40,12,9,0.7,0.7
2023-01-05T13:00:00,1266A,118.8621,28.9808,衢州市,衢州学院,,,57,78,,49,57,57,18,18,16,43,6,5,,0.7
2023-01-05T13:00:00,1267A,119.914,28.4514,丽水市,监测站大楼,,45,45,57,22,34,68,68,27,27,16,36,8,9,0.4,0.8
2023-01-05T13:00:00,1268A,119.93,28.4586,丽水市,莲都小学,,33,33,62,19,32,82,82,31,31,12,43,8,8,0.4,0.7
2023-01-05T13:00:00,1269A,119.879,28.4231,丽水市,余庄前,,34,34,48,16,30,68,68,26,26,22,31,7,7,0.3,0.4
2023-01-05T13:00:00,1270A,117.1959,31.7848,合肥市,明珠广场,颗粒物(PM10),109,168,121,80,70,76,17,5,5,80,81,11,10,0.9,1
2023-01-05T13:00:00,1271A,117.3072,31.8764,合肥市,三里街,细颗粒物(PM2.5),129,132,114,98,81,86,35,12,12,76,80,13,11,1.0,1
2023-01-05T13:00:00,1272A,117.2588,31.8707,合肥市,琥珀山庄,细颗粒物(PM2.5),104,129,114,78,68,66,44,13,13,57,75,11,9,0.9,1
2023-01-05T13:00:00,1273A,117.1604,31.9052,合肥市,董铺水库(对照点),细颗粒物(PM2.5),104,119,116,78,67,81,60,28,28,39,56,6,4,0.6,0.6
2023-01-05T13:00:00,1274A,117.25,31.8571,合肥市,长江中路,细颗粒物(PM2.5),119,127,110,90,74,78,58,17,17,46,71,15,12,0.9,1
2023-01-05T13:00:00,1275A,117.266,31.9436,合肥市,庐阳区,细颗粒物(PM2.5),110,132,121,83,69,91,50,21,21,49,67,12,9,0.7,0.7
2023-01-05T13:00:00,1276A,117.336,31.8586,合肥市,瑶海区,细颗粒物(PM2.5),125,168,131,95,79,88,42,13,13,74,82,14,9,1.0,0.9
2023-01-05T13:00:00,1277A,117.3027,31.7964,合肥市,包河区,细颗粒物(PM2.5),119,146,130,90,81,79,21,10,10,,78,13,12,,1
2023-01-05T13:00:00,1278A,117.2776,31.7385,合肥市,滨湖新区,细颗粒物(PM2.5),110,162,112,83,68,90,18,8,8,104,84,11,8,0.6,0.5
2023-01-05T13:00:00,1279A,117.1318,31.8403,合肥市,高新区,细颗粒物(PM2.5),119,158,112,90,70,79,,8,8,72,77,,9,0.7,0.8
2023-01-05T13:00:00,1280A,119.3903,26.0543,福州市,鼓山(对照点),,,,,,,,,,,,,,,,
2023-01-05T13:00:00,1282A,119.2681,26.0504,福州市,师大,,,38,43,19,21,77,77,52,52,,21,,5,0.5,0.5
2023-01-05T13:00:00,1283A,119.2984,26.1028,福州市,五四北路,,25,22,42,12,20,78,78,57,57,8,19,3,4,0.5,0.6
2023-01-05T13:00:00,1284A,119.2648,26.0768,福州市,杨桥西路,,39,39,46,20,20,78,78,52,52,9,21,3,4,0.5,0.6
2023-01-05T13:00:00,1285A,119.317,26.0746,福州市,紫阳,,27,27,43,8,19,77,77,54,54,9,17,4,4,0.4,0.5
2023-01-05T13:00:00,1286A,118.1608,24.8169,厦门市,溪东(对照点),,,,,,,,,,,,,,,,
2023-01-05T13:00:00,1287A,118.1514,24.4767,厦门市,洪文,,25,19,31,10,20,106,78,73,58,18,23,1,1,0.5,0.5
2023-01-05T13:00:00,1288A,118.0661,24.4444,厦门市,鼓浪屿,,27,16,28,10,16,108,85,70,44,18,30,2,4,0.5,0.5
2023-01-05T13:00:00,1290A,115.8931,28.6843,南昌市,省外办,颗粒物(PM10),58,65,55,38,35,86,57,30,30,27,41,9,9,0.6,0.6
2023-01-05T13:00:00,1291A,115.8886,28.7003,南昌市,省林业公司,细颗粒物(PM2.5),58,48,52,41,36,80,55,20,20,27,49,7,7,0.8,0.8
2023-01-05T13:00:00,1292A,115.8126,28.7442,南昌市,林科所,细颗粒物(PM2.5),55,51,36,39,25,79,53,32,32,26,35,7,6,0.5,0.5
2023-01-05T13:00:00,1294A,115.8518,28.687,南昌市,建工学校,,43,43,50,29,28,88,51,25,25,24,39,9,8,0.7,0.7
2023-01-05T13:00:00,1295A,115.8921,28.6424,南昌市,象湖,细颗粒物(PM2.5),59,44,43,42,36,83,52,26,26,25,40,7,6,0.7,0.5
2023-01-05T13:00:00,1296A,115.7423,28.7996,南昌市,武术学校(对照点),,38,22,22,26,25,71,65,31,31,20,17,6,4,0.8,0.8
2023-01-05T13:00:00,1298A,115.9314,28.6842,南昌市,省站,细颗粒物(PM2.5),58,62,57,41,40,87,62,25,25,16,31,9,10,0.7,0.7
2023-01-05T13:00:00,1299A,116.9862,36.6114,济南市,科干所,细颗粒物(PM2.5),206,222,235,156,171,54,54,32,32,67,85,23,18,1.0,1.2
2023-01-05T13:00:00,1300A,116.9376,36.665,济南市,农科所,细颗粒物(PM2.5),214,234,290,164,196,36,18,9,9,100,104,22,24,1.2,1.8
2023-01-05T13:00:00,1301A,117.1265,36.6734,济南市,开发区,细颗粒物(PM2.5),211,234,240,161,175,31,31,13,13,104,93,22,15,1.7,1.5
2023-01-05T13:00:00,1303A,117.0624,36.6868,济南市,省种子仓库,细颗粒物(PM2.5),216,227,303,166,222,35,35,15,15,86,95,23,25,1.4,2.3
2023-01-05T13:00:00,1304A,116.9489,36.6447,济南市,机床二厂,细颗粒物(PM2.5),226,242,281,176,200,39,31,17,17,81,88,23,32,1.3,1.9
2023-01-05T13:00:00,1305A,117.0495,36.663,济南市,市监测站,细颗粒物(PM2.5),185,198,250,139,183,62,62,16,16,73,98,20,18,1.2,1.6
2023-01-05T13:00:00,1306A,116.7675,36.5484,济南市,长清党校,细颗粒物(PM2.5),270,293,265,220,196,71,33,14,14,83,90,18,15,1.7,1.6
2023-01-05T13:00:00,1307A,120.6659,36.2403,青岛市,仰口(对照点),细颗粒物(PM2.5),122,119,131,92,103,80,70,56,56,46,40,5,4,0.9,0.8
2023-01-05T13:00:00,1310A,120.4134,36.0658,青岛市,市南区东部子站,细颗粒物(PM2.5),170,175,154,129,113,65,34,59,16,67,56,14,13,1.4,1.3
2023-01-05T13:00:00,1311A,120.3664,36.1032,青岛市,四方区子站,细颗粒物(PM2.5),272,300,185,222,141,55,13,40,8,104,67,33,20,2.2,1.6
2023-01-05T13:00:00,1312A,120.2994,36.054,青岛市,市南区西部子站,细颗粒物(PM2.5),260,263,178,210,134,75,21,75,11,119,74,16,14,2.1,1.7
2023-01-05T13:00:00,1313A,120.4581,36.0858,青岛市,崂山区子站,细颗粒物(PM2.5),192,200,150,144,108,77,29,62,22,87,56,13,10,1.5,1.1
2023-01-05T13:00:00,1314A,120.1983,35.9608,青岛市,黄岛区子站,细颗粒物(PM2.5),211,205,182,161,135,70,54,47,19,75,61,19,16,1.3,1.2
2023-01-05T13:00:00,1315A,120.3999,36.3083,青岛市,城阳区子站,细颗粒物(PM2.5),170,211,193,129,113,39,27,11,11,110,85,21,14,1.9,2.1
2023-01-05T13:00:00,1316A,113.69031,34.76122,郑州市,烟厂,细颗粒物(PM2.5),346,350,284,296,248,77,31,35,12,107,79,20,17,2.0,1.6
2023-01-05T13:00:00,1317A,113.65724,34.77134,郑州市,郑纺机,细颗粒物(PM2.5),339,323,291,289,249,86,40,26,18,102,79,26,22,2.5,2.2
2023-01-05T13:00:00,1318A,113.67526,34.80246,郑州市,银行学校,细颗粒物(PM2.5),351,344,296,301,254,86,65,28,21,72,78,28,23,2.5,2.3
2023-01-05T13:00:00,1319A,113.56746,34.81334,郑州市,供水公司,细颗粒物(PM2.5),341,359,305,291,251,81,54,15,15,74,83,24,21,2.1,2
2023-01-05T13:00:00,1320A,113.7329,34.7178,郑州市,经开区管委,细颗粒物(PM2.5),337,351,294,287,248,79,32,18,9,97,75,20,17,2.3,2
2023-01-05T13:00:00,1321A,113.73961,34.77172,郑州市,四十七中,细颗粒物(PM2.5),361,341,298,311,262,78,26,18,11,100,68,20,16,2.5,2
2023-01-05T13:00:00,1322A,113.60532,34.74838,郑州市,市监测站,细颗粒物(PM2.5),349,366,341,299,267,89,62,15,15,63,68,24,16,1.9,1.7
2023-01-05T13:00:00,1323A,113.64164,34.7525,郑州市,河医大,细颗粒物(PM2.5),347,347,309,297,258,74,52,19,14,80,78,21,13,2.1,1.8
2023-01-05T13:00:00,1324A,113.51488,34.91089,郑州市,岗李水库(对照点),,,,,,,,,,,,,,,,
2023-01-05T13:00:00,1325A,114.3677,30.5584,武汉市,东湖梨园,细颗粒物(PM2.5),68,74,69,49,51,101,29,14,14,48,51,15,9,0.9,1.1
2023-01-05T13:00:00,1326A,114.2529,30.558,武汉市,汉阳月湖,细颗粒物(PM2.5),70,58,70,51,60,90,31,14,14,47,55,9,7,0.9,1.1
2023-01-05T13:00:00,1327A,114.282,30.6189,武汉市,汉口花桥,细颗粒物(PM2.5),77,65,70,56,52,93,33,20,16,45,52,12,10,1.0,1
2023-01-05T13:00:00,1328A,114.3025,30.5332,武汉市,武昌紫阳,细颗粒物(PM2.5),73,58,69,53,56,100,35,22,18,51,54,13,10,1.2,1.1
2023-01-05T13:00:00,1329A,114.3646,30.6217,武汉市,青山钢花,细颗粒物(PM2.5),79,73,72,58,54,97,59,32,18,40,60,11,13,1.1,1.3
2023-01-05T13:00:00,1330A,114.1566,30.4825,武汉市,沌口新区,细颗粒物(PM2.5),64,65,72,46,71,86,32,23,19,57,67,14,11,0.8,0.9
2023-01-05T13:00:00,1331A,114.3014,30.5944,武汉市,汉口江滩,细颗粒物(PM2.5),70,66,64,51,44,102,26,31,18,56,47,14,11,1.3,1
2023-01-05T13:00:00,1333A,114.135,30.6319,武汉市,吴家山,细颗粒物(PM2.5),74,79,86,54,60,89,18,11,11,70,75,11,8,1.1,1
2023-01-05T13:00:00,1334A,113.8454,30.2917,武汉市,沉湖七壕(对照点),颗粒物(PM10),55,60,78,35,46,109,35,36,21,37,32,10,9,1.1,1.1
2023-01-05T13:00:00,1335A,113.0833,28.2325,长沙市,经开区环保局,,,,137,,125,98,73,51,32,37,43,10,6,1.1,1
2023-01-05T13:00:00,1336A,112.8872,28.2189,长沙市,高开区环保局,细颗粒物(PM2.5),206,166,134,156,123,93,92,67,45,25,29,11,8,1.1,0.9
2023-01-05T13:00:00,1337A,113.0792,28.2053,长沙市,马坡岭,细颗粒物(PM2.5),214,190,132,164,129,96,79,33,32,29,38,10,7,0.8,0.8
2023-01-05T13:00:00,1338A,112.9394,28.19,长沙市,湖南师范大学,,,,138,,131,85,,53,29,,32,8,5,1.1,0.8
2023-01-05T13:00:00,1339A,113.0178,28.1322,长沙市,雨花区环保局,细颗粒物(PM2.5),195,168,123,146,114,85,83,38,38,34,41,5,3,0.7,0.8
2023-01-05T13:00:00,1340A,112.9792,28.2597,长沙市,伍家岭,细颗粒物(PM2.5),216,218,160,166,136,91,91,44,44,24,32,9,7,1.0,1
2023-01-05T13:00:00,1341A,113.0014,28.1944,长沙市,火车新站,细颗粒物(PM2.5),225,186,128,175,121,93,93,51,51,29,36,10,6,1.0,0.9
2023-01-05T13:00:00,1342A,112.9844,28.1178,长沙市,天心区环保局,细颗粒物(PM2.5),192,161,131,144,110,101,101,42,42,34,46,9,6,0.8,0.8
2023-01-05T13:00:00,1343A,112.8908,28.1308,长沙市,湖南中医药大学,细颗粒物(PM2.5),192,188,140,144,131,96,96,47,44,23,31,8,5,1.0,0.9
2023-01-05T13:00:00,1344A,112.9581,28.3611,长沙市,沙坪(对照点),细颗粒物(PM2.5),196,175,142,147,119,89,86,54,38,21,22,7,5,0.8,0.7
2023-01-05T13:00:00,1345A,113.2347,23.1423,广州市,广雅中学,颗粒物(PM10),58,65,68,35,39,51,51,19,19,35,52,6,5,1.3,1.3
2023-01-05T13:00:00,1346A,113.2612,23.105,广州市,市五中,细颗粒物(PM2.5),70,62,65,51,48,74,74,35,35,30,47,7,6,0.9,1
2023-01-05T13:00:00,1348A,113.3478,23.0916,广州市,广东商学院,,38,37,54,26,35,66,66,35,35,23,44,6,6,0.8,0.9
2023-01-05T13:00:00,1349A,113.4332,23.1047,广州市,市八十六中,,39,37,62,27,40,58,58,22,22,16,45,3,3,0.3,0.5
2023-01-05T13:00:00,1350A,113.3505,22.9483,广州市,番禺中学,细颗粒物(PM2.5),55,52,62,39,46,58,58,24,24,34,60,8,8,0.9,1
2023-01-05T13:00:00,1351A,113.2146,23.3916,广州市,花都师范,,45,41,48,31,37,80,80,49,49,18,27,10,7,0.8,0.8
2023-01-05T13:00:00,1352A,113.2597,23.1331,广州市,市监测站,细颗粒物(PM2.5),57,62,71,40,42,65,65,24,24,30,52,7,6,0.9,0.9
2023-01-05T13:00:00,1353A,113.5618,23.312,广州市,九龙镇镇龙,,36,36,52,25,35,70,70,27,27,15,36,5,5,0.8,0.9
2023-01-05T13:00:00,1354A,113.2765,23.1544,广州市,麓湖,细颗粒物(PM2.5),57,59,58,40,39,68,68,29,29,29,43,5,4,0.8,0.8
2023-01-05T13:00:00,1355A,113.443,23.3035,广州市,帽峰山森林公园(对照点),,43,36,36,30,34,192,74,43,43,14,16,5,4,0.7,0.7
2023-01-05T13:00:00,1356A,114.1063,22.5545,深圳市,通心岭子站,,45,45,48,28,30,79,79,78,41,19,26,3,2,0.6,0.6
2023-01-05T13:00:00,1357A,114.117,22.5625,深圳市,洪湖,颗粒物(PM10),54,57,54,32,35,90,90,84,42,21,33,7,7,0.7,0.7
2023-01-05T13:00:00,1358A,113.987,22.5417,深圳市,华侨城,细颗粒物(PM2.5),60,54,51,43,33,82,77,73,42,36,36,5,5,0.9,0.9
2023-01-05T13:00:00,1359A,113.9181,22.5171,深圳市,南海子站,颗粒物(PM10),58,66,58,39,34,77,73,73,42,38,34,4,4,0.7,0.6
2023-01-05T13:00:00,1360A,114.2458,22.5689,深圳市,盐田,,42,40,38,29,24,97,85,62,34,18,33,6,7,0.7,0.7
2023-01-05T13:00:00,1361A,114.2283,22.7244,深圳市,龙岗,,45,45,58,25,34,81,81,72,39,10,30,4,4,0.9,0.9
2023-01-05T13:00:00,1363A,114.494,22.5422,深圳市,南澳,细颗粒物(PM2.5),58,61,35,41,20,97,94,77,72,23,14,6,5,0.7,0.6
2023-01-05T13:00:00,1364A,114.41,22.6342,深圳市,葵涌,,47,47,46,28,29,91,75,52,40,15,20,8,8,0.8,0.8
2023-01-05T13:00:00,1365A,114.297,22.5978,深圳市,梅沙,,37,37,43,24,26,108,94,94,59,13,17,6,6,0.7,0.7
2023-01-05T13:00:00,1366A,114.0678,22.738,深圳市,观澜,,,73,82,42,44,97,97,36,36,,46,8,8,0.6,0.7
2023-01-05T13:00:00,1367A,113.5814,22.2618,珠海市,吉大,"颗粒物(PM10),细颗粒物(PM2.5)",63,75,71,45,46,103,98,35,35,22,50,8,8,0.6,0.6
2023-01-05T13:00:00,1368A,113.4881,22.2335,珠海市,前山,,,43,74,27,34,89,89,24,24,,62,3,4,,0.7
2023-01-05T13:00:00,1369A,113.628,22.4251,珠海市,唐家,细颗粒物(PM2.5),84,78,70,62,49,112,100,34,34,39,48,10,9,0.5,0.5
2023-01-05T13:00:00,1370A,113.299,22.2281,珠海市,斗门,细颗粒物(PM2.5),70,69,81,51,57,90,90,30,30,33,60,4,6,0.6,0.7
2023-01-05T13:00:00,1371A,113.1294,23.0067,佛山市,湾梁,颗粒物(PM10),54,58,66,31,34,63,63,24,24,32,46,7,3,0.7,0.8
2023-01-05T13:00:00,1372A,113.1083,23.0478,佛山市,华材职中,,48,48,65,28,40,66,66,23,23,30,50,12,10,0.5,0.7
2023-01-05T13:00:00,1373A,113.144,23.0453,佛山市,南海气象局,颗粒物(PM10),53,56,52,29,35,52,52,15,15,35,53,6,5,0.6,0.7
2023-01-05T13:00:00,1374A,113.2881,22.8094,佛山市,顺德苏岗,,42,33,57,29,35,51,51,14,14,34,55,11,7,0.8,0.8
2023-01-05T13:00:00,1376A,112.8383,22.8678,佛山市,高明孔堂,细颗粒物(PM2.5),67,82,64,48,41,84,84,34,34,26,36,7,5,0.7,0.7
2023-01-05T13:00:00,1377A,112.8836,23.1588,佛山市,三水监测站,,,48,57,39,40,81,81,35,35,19,38,7,8,,0.8
2023-01-05T13:00:00,1378A,112.867,23.185,佛山市,三水云东海,细颗粒物(PM2.5),58,44,47,41,40,85,85,35,35,23,37,9,6,0.7,0.7
2023-01-05T13:00:00,1379A,113.3769,22.5211,中山市,华柏园,细颗粒物(PM2.5),73,58,65,53,49,67,66,22,22,44,62,9,8,0.6,0.7
2023-01-05T13:00:00,1380A,113.3881,22.5497,中山市,张溪,细颗粒物(PM2.5),75,75,67,55,53,70,70,24,24,39,59,8,6,0.7,0.7
2023-01-05T13:00:00,1381A,113.4075,22.5111,中山市,紫马岭,细颗粒物(PM2.5),62,59,64,44,45,76,76,27,27,37,54,5,5,0.6,0.7
2023-01-05T13:00:00,1382A,113.4411,22.4853,中山市,长江旅游区(对照点),,,,,,,,,,,,,,,,
2023-01-05T13:00:00,1383A,113.1064,22.6058,江门市,北街,细颗粒物(PM2.5),62,63,59,44,38,59,59,26,26,60,58,11,9,0.8,0.8
2023-01-05T13:00:00,1384A,113.0731,22.5835,江门市,西区,细颗粒物(PM2.5),59,59,70,42,39,65,65,26,26,49,54,9,8,0.7,0.7
2023-01-05T13:00:00,1385A,113.0219,22.5311,江门市,圭峰西,细颗粒物(PM2.5),63,52,54,45,45,72,72,35,35,42,49,6,5,0.8,0.8
2023-01-05T13:00:00,1386A,113.0828,22.5947,江门市,东湖,颗粒物(PM10),60,69,66,39,39,65,65,26,26,50,50,8,7,0.8,0.8
2023-01-05T13:00:00,1389A,113.7547,23.0494,东莞市,莞城梨川,,43,42,47,30,34,75,75,30,30,27,39,8,8,0.7,0.7
2023-01-05T13:00:00,1390A,113.7944,23.0128,东莞市,东城石井,,46,44,47,32,32,83,83,33,33,22,29,9,9,0.7,0.7
2023-01-05T13:00:00,1391A,113.7383,22.9658,东莞市,南城西平,,,48,54,31,32,88,88,32,32,25,47,10,10,,0.7
2023-01-05T13:00:00,1392A,114.4183,23.0528,惠州市,河南岸金山湖子站,,50,40,58,35,43,68,68,33,33,13,29,7,6,0.6,0.6
2023-01-05T13:00:00,1393A,114.4053,23.0822,惠州市,下埔横江三路子站,,43,43,57,30,40,75,75,45,45,15,26,8,9,0.7,0.7
2023-01-05T13:00:00,1394A,114.4103,23.1142,惠州市,江北云山西路子站,,42,39,49,29,43,73,73,47,47,13,25,6,6,0.8,0.9
2023-01-05T13:00:00,1395A,114.4645,22.7833,惠州市,惠阳区承修路船湖子站,细颗粒物(PM2.5),54,50,66,38,44,67,66,35,30,14,21,4,4,0.5,0.5
2023-01-05T13:00:00,1396A,114.5317,22.7422,惠州市,大亚湾管委会子站,,48,48,58,29,30,86,81,75,34,17,28,4,4,0.8,0.8
2023-01-05T13:00:00,1397A,112.4267,23.0706,肇庆市,睦岗子站,,,42,52,29,36,70,70,25,25,,44,8,8,0.6,0.7
2023-01-05T13:00:00,1398A,112.4645,23.0475,肇庆市,城中子站,,45,45,58,30,39,82,82,35,35,14,33,9,8,0.6,0.7
2023-01-05T13:00:00,1399A,112.5544,23.1522,肇庆市,坑口子站,细颗粒物(PM2.5),54,48,49,38,37,69,69,33,33,24,31,9,8,0.4,0.4
2023-01-05T13:00:00,1400A,112.4753,23.1,肇庆市,七星岩子站(对照点),,42,40,45,29,30,64,64,36,36,15,20,3,2,0.7,0.7
2023-01-05T13:00:00,1401A,108.3103,22.7881,南宁市,二十一中,细颗粒物(PM2.5),58,56,69,41,51,89,58,57,45,24,21,10,6,1.2,1.1
2023-01-05T13:00:00,1402A,108.3141,22.8528,南宁市,北湖,,,51,74,50,55,93,49,67,42,22,19,,9,,1
2023-01-05T13:00:00,1403A,108.3206,22.8225,南宁市,市监测站,细颗粒物(PM2.5),65,58,66,47,53,85,57,63,42,30,30,16,11,1.1,1
2023-01-05T13:00:00,1404A,108.3829,22.8037,南宁市,大自然花园,细颗粒物(PM2.5),54,48,63,38,52,83,63,61,47,21,23,10,7,1.0,1
2023-01-05T13:00:00,1405A,108.4394,22.7904,南宁市,仙葫(对照点),,,45,60,43,49,83,70,59,47,,17,,9,1.1,1
2023-01-05T13:00:00,1406A,108.2397,22.8467,南宁市,区农职院,细颗粒物(PM2.5),87,78,67,64,52,93,35,62,32,33,31,10,10,1.0,0.9
2023-01-05T13:00:00,1407A,108.3275,22.735,南宁市,英华嘉园,细颗粒物(PM2.5),57,43,64,40,57,84,63,50,43,23,22,7,6,1.0,0.9
2023-01-05T13:00:00,1408A,108.2257,22.7757,南宁市,沙井镇街道办,细颗粒物(PM2.5),74,65,70,54,54,82,42,32,26,39,42,8,7,1.0,0.9
2023-01-05T13:00:00,1409A,110.576,19.9507,海口市,东寨港(对照点),,,44,37,27,27,50,50,40,33,,,3,2,0.6,0.6
2023-01-05T13:00:00,1410A,110.3232,20.0574,海口市,海南大学,细颗粒物(PM2.5),63,62,51,45,36,94,84,76,62,17,13,6,5,0.8,0.8
2023-01-05T13:00:00,1411A,110.283,20.0053,海口市,秀英海南医院,细颗粒物(PM2.5),75,65,52,55,34,88,83,77,63,23,16,7,6,0.8,0.8
2023-01-05T13:00:00,1412A,110.338,19.9969,海口市,海南师范大学,颗粒物(PM10),60,69,52,24,24,91,86,78,65,21,16,7,6,0.7,0.6
2023-01-05T13:00:00,1413A,110.33,20.0356,海口市,龙华路环保局宿舍,颗粒物(PM10),56,61,47,36,31,91,82,77,61,23,16,6,5,0.8,0.7
2023-01-05T13:00:00,1414A,106.3787,29.8279,重庆市,缙云山(对照点),细颗粒物(PM2.5),57,61,56,40,37,56,46,44,35,24,26,6,5,0.6,0.6
2023-01-05T13:00:00,1416A,106.4213,29.8253,重庆市,天生,细颗粒物(PM2.5),98,115,97,73,69,17,11,4,4,37,36,14,9,1.1,1.1
2023-01-05T13:00:00,1417A,106.6263,29.7228,重庆市,两路,细颗粒物(PM2.5),87,109,69,64,50,32,24,11,10,38,43,12,10,1.0,1
2023-01-05T13:00:00,1418A,106.2953,29.5983,重庆市,虎溪,细颗粒物(PM2.5),120,88,72,91,65,23,17,7,7,36,41,17,7,0.8,0.8
2023-01-05T13:00:00,1419A,106.5777,29.5102,重庆市,南坪,,,84,74,54,55,41,11,22,4,42,43,9,8,,0.9
2023-01-05T13:00:00,1420A,106.6556,29.6277,重庆市,唐家沱,细颗粒物(PM2.5),112,86,75,84,57,9,6,3,3,58,45,8,8,0.7,0.4
2023-01-05T13:00:00,1421A,106.6349,29.4906,重庆市,茶园,细颗粒物(PM2.5),110,112,98,83,63,21,17,9,9,,47,8,9,,0.9
2023-01-05T13:00:00,1422A,106.3754,29.4572,重庆市,白市驿,细颗粒物(PM2.5),82,105,73,60,51,47,14,7,7,49,45,16,7,1.1,1
2023-01-05T13:00:00,1425A,106.6205,29.7166,重庆市,空港,细颗粒物(PM2.5),100,70,71,75,58,45,20,14,8,39,40,13,10,1.0,1
2023-01-05T13:00:00,1426A,106.4782,29.4875,重庆市,新山村,细颗粒物(PM2.5),103,99,87,77,59,43,10,6,6,49,57,7,7,0.7,0.7
2023-01-05T13:00:00,1427A,106.5616,29.6453,重庆市,礼嘉,颗粒物(PM10),86,121,97,52,59,22,5,4,4,60,54,9,7,1.1,0.6
2023-01-05T13:00:00,1428A,106.4522,29.7091,重庆市,蔡家,细颗粒物(PM2.5),100,105,83,75,57,25,21,8,8,35,38,10,6,0.9,0.8
2023-01-05T13:00:00,1429A,106.5093,29.3917,重庆市,鱼新街,细颗粒物(PM2.5),108,106,84,81,60,24,9,6,6,51,48,17,15,1.2,1
2023-01-05T13:00:00,1431A,103.9728,30.7236,成都市,金泉两河,细颗粒物(PM2.5),70,58,99,51,82,51,51,11,11,35,38,2,1,0.6,0.9
2023-01-05T13:00:00,1432A,104.176,30.6872,成都市,十里店,细颗粒物(PM2.5),103,89,101,77,83,40,33,12,12,61,57,4,4,0.8,0.8
2023-01-05T13:00:00,1433A,104.079,30.5706,成都市,三瓦窑,细颗粒物(PM2.5),125,107,111,95,81,45,38,8,8,44,47,4,2,0.8,0.9
2023-01-05T13:00:00,1434A,104.1114,30.63,成都市,沙河铺,细颗粒物(PM2.5),93,86,103,69,82,47,40,9,9,45,45,1,2,0.7,0.8
2023-01-05T13:00:00,1437A,104.0786,30.6531,成都市,君平街,细颗粒物(PM2.5),105,86,103,79,87,50,47,13,13,52,54,3,2,0.9,1
2023-01-05T13:00:00,1438A,103.613,31.0283,成都市,灵岩寺(对照点),,50,47,70,35,49,69,69,56,46,16,16,5,6,0.5,0.5
2023-01-05T13:00:00,1439A,106.6899,26.5998,贵阳市,马鞍山,,45,29,41,31,39,25,23,24,18,17,24,6,6,0.9,0.9
2023-01-05T13:00:00,1440A,106.6971,26.5694,贵阳市,市环保站,细颗粒物(PM2.5),52,39,43,36,42,24,18,23,17,28,27,11,5,0.7,0.7
2023-01-05T13:00:00,1441A,106.6243,26.6266,贵阳市,鉴湖路,,34,34,35,22,25,145,22,22,22,19,20,10,5,0.6,0.6
2023-01-05T13:00:00,1442A,106.7487,26.6343,贵阳市,燕子冲,细颗粒物(PM2.5),58,46,54,41,47,19,10,17,11,26,21,15,7,0.8,0.7
2023-01-05T13:00:00,1443A,106.6555,26.4365,贵阳市,碧云窝,细颗粒物(PM2.5),104,102,69,78,52,26,20,17,16,27,34,24,17,0.5,1.3
2023-01-05T13:00:00,1444A,106.694,26.5161,贵阳市,中院村,,,53,56,34,39,27,18,23,17,,29,23,14,1.0,0.8
2023-01-05T13:00:00,1445A,106.7109,26.6027,贵阳市,红边门,细颗粒物(PM2.5),55,44,52,39,44,28,18,27,20,27,26,26,16,0.9,0.8
2023-01-05T13:00:00,1446A,106.7164,26.5699,贵阳市,新华路,,42,39,53,29,36,25,21,25,17,22,22,13,9,0.7,0.7
2023-01-05T13:00:00,1447A,106.674,26.5424,贵阳市,太慈桥,,48,48,55,27,34,28,27,25,25,22,28,9,6,0.8,0.7
2023-01-05T13:00:00,1450A,102.8204,24.8886,昆明市,呈贡新区,,29,19,24,20,20,80,74,44,44,9,21,6,7,0.5,0.6
2023-01-05T13:00:00,1451A,102.6251,24.9608,昆明市,西山森林公园(对照点),,45,15,10,31,13,84,81,68,66,16,15,7,7,0.7,0.5
2023-01-05T13:00:00,1452A,102.7252,25.0902,昆明市,龙泉镇,"颗粒物(PM10),细颗粒物(PM2.5)",54,57,41,38,23,78,55,16,16,25,27,11,8,1.1,1
2023-01-05T13:00:00,1453A,102.7266,25.0375,昆明市,东风东路,,40,40,37,25,23,79,66,16,16,15,31,9,9,0.5,0.8
2023-01-05T13:00:00,1454A,102.6742,25.0669,昆明市,金鼎山,,42,42,40,28,24,82,68,39,24,13,22,7,10,0.5,0.5
2023-01-05T13:00:00,1455A,102.6644,25.0401,昆明市,碧鸡广场,,46,46,33,26,19,81,67,28,28,17,27,4,4,0.5,0.4
2023-01-05T13:00:00,1456A,91.1319,29.6514,拉萨市,八廓街,,29,14,70,4,12,95,91,90,78,10,15,6,7,0.4,0.6
2023-01-05T13:00:00,1457A,91.1221,29.6747,拉萨市,市环保局,,29,22,59,4,13,99,90,90,77,9,16,3,5,0.3,0.5
2023-01-05T13:00:00,1458A,91.0874,29.6475,拉萨市,区监测站,,30,11,67,6,15,100,95,93,85,8,9,5,6,0.2,0.2
2023-01-05T13:00:00,1459A,91.1774,29.6541,拉萨市,西藏大学,,29,11,67,4,20,97,92,88,80,7,13,8,9,0.4,0.5
2023-01-05T13:00:00,1460A,90.9798,29.6588,拉萨市,区辐射站,,32,11,52,6,17,108,101,103,89,7,13,8,8,0.4,0.5
2023-01-05T13:00:00,1461A,91.0834,29.6292,拉萨市,拉萨火车站,,28,7,64,6,9,95,88,87,81,7,9,8,9,0.2,0.2
2023-01-05T13:00:00,1462A,108.882,34.2749,西安市,高压开关厂,细颗粒物(PM2.5),416,464,364,373,307,46,19,13,13,145,123,9,9,2.6,2.2
2023-01-05T13:00:00,1463A,108.993,34.2629,西安市,兴庆小区,细颗粒物(PM2.5),337,297,261,287,257,87,33,13,13,95,79,9,9,2.1,1.7
2023-01-05T13:00:00,1464A,109.06,34.2572,西安市,纺织城,细颗粒物(PM2.5),378,339,280,328,255,69,50,12,12,91,74,12,12,1.9,1.7
2023-01-05T13:00:00,1465A,108.9356,34.2173,西安市,小寨,细颗粒物(PM2.5),381,388,362,331,306,40,36,12,12,108,108,9,10,2.3,2.1
2023-01-05T13:00:00,1466A,108.954,34.2713,西安市,市人民体育场,细颗粒物(PM2.5),356,342,310,306,273,76,28,13,13,118,102,10,9,2.2,1.8
2023-01-05T13:00:00,1467A,108.8922,34.2322,西安市,高新西区,细颗粒物(PM2.5),394,385,352,344,315,33,33,21,21,106,118,9,9,2.5,2.4
2023-01-05T13:00:00,1468A,108.935,34.3474,西安市,经开区,细颗粒物(PM2.5),336,312,300,286,288,105,12,8,8,117,105,,10,2.1,1.7
2023-01-05T13:00:00,1469A,108.906,34.1546,西安市,长安区,细颗粒物(PM2.5),365,363,307,315,274,60,60,18,18,56,80,7,8,1.9,2.1
2023-01-05T13:00:00,1471A,109.2186,34.3731,西安市,临潼区,,,,297,,261,41,,30,6,,83,,12,,2
2023-01-05T13:00:00,1472A,108.869,34.378,西安市,草滩(对照点),细颗粒物(PM2.5),206,263,285,156,167,36,21,11,11,96,87,14,11,0.8,0.7
2023-01-05T13:00:00,1473A,108.985,34.1978,西安市,曲江文化产业集团,细颗粒物(PM2.5),373,372,324,323,272,56,56,14,14,97,98,8,8,2.0,1.9
2023-01-05T13:00:00,1474A,109.051,34.3213,西安市,广运潭,细颗粒物(PM2.5),294,269,264,244,252,74,14,6,6,87,78,11,10,2.0,2
2023-01-05T13:00:00,1476A,103.631,36.1031,兰州市,兰炼宾馆,细颗粒物(PM2.5),125,152,140,95,95,63,34,12,12,78,74,90,49,2.1,1.8
2023-01-05T13:00:00,1477A,104.1373,35.9454,兰州市,榆中兰大校区(对照点),,,,,,,,,,,,,,,,
2023-01-05T13:00:00,1478A,103.8412,36.0726,兰州市,生物制品所,细颗粒物(PM2.5),142,142,117,108,76,78,26,11,11,83,72,51,25,2.8,1.9
2023-01-05T13:00:00,1479A,103.831,36.0464,兰州市,铁路设计院,细颗粒物(PM2.5),144,152,130,110,92,66,33,15,15,88,85,58,31,2.0,2.2
2023-01-05T13:00:00,1483A,101.524,36.6867,西宁市,第五水厂(对照点),,,,,,,,,,,,,,,,
2023-01-05T13:00:00,1484A,105.9512,38.6016,银川市,贺兰山马莲口(对照点),细颗粒物(PM2.5),145,144,88,111,73,72,55,60,53,58,43,31,28,4.9,3.3
2023-01-05T13:00:00,1488A,106.2328,38.4975,银川市,贺兰山东路,,,,185,,144,63,37,16,16,84,84,,20,2.5,2.3
2023-01-05T13:00:00,1489A,106.1358,38.5036,银川市,学院路,细颗粒物(PM2.5),251,,221,201,137,72,36,14,14,72,82,34,26,2.9,2.4
2023-01-05T13:00:00,1490A,87.5801,43.8303,乌鲁木齐市,监测站,,43,43,80,26,48,66,22,36,36,58,67,10,6,1.4,1.2
2023-01-05T13:00:00,1491A,87.6046,43.768,乌鲁木齐市,收费所,,41,41,83,14,42,82,82,56,56,12,49,3,3,0.4,0.7
2023-01-05T13:00:00,1492A,87.4754,43.9469,乌鲁木齐市,新疆农科院农场(对照点),细颗粒物(PM2.5),129,101,65,98,83,52,22,8,8,66,71,6,6,2.1,1.4
2023-01-05T13:00:00,1493A,87.5525,43.8711,乌鲁木齐市,铁路局,,39,39,76,27,64,57,30,14,14,55,80,8,3,1.2,1.4
2023-01-05T13:00:00,1494A,87.6432,43.831,乌鲁木齐市,三十一中学,,37,37,77,21,45,70,65,55,55,13,41,7,5,0.6,0.7
2023-01-05T13:00:00,1496A,87.7216,44.1747,乌鲁木齐市,米东区环保局,细颗粒物(PM2.5),159,143,149,121,125,70,43,34,34,43,56,6,7,1.3,1.3
2023-01-05T13:00:00,1508A,112.9433,27.8614,湘潭市,板塘,细颗粒物(PM2.5),119,113,119,90,119,94,91,42,42,25,45,,9,1.1,1.1
2023-01-05T13:00:00,1511A,112.9118,27.8403,湘潭市,市监测站,细颗粒物(PM2.5),142,131,129,108,112,94,87,44,44,34,46,8,7,1.0,1
2023-01-05T13:00:00,1512A,112.8937,27.8728,湘潭市,江麓,细颗粒物(PM2.5),113,71,121,85,100,108,106,56,56,20,35,14,13,0.7,0.8
2023-01-05T13:00:00,1513A,112.9227,27.8159,湘潭市,岳塘,细颗粒物(PM2.5),117,109,123,88,107,86,80,41,41,26,40,6,6,0.9,0.9
2023-01-05T13:00:00,1514A,112.9074,27.9119,湘潭市,科大,细颗粒物(PM2.5),135,112,134,103,123,94,94,45,45,28,41,6,4,1.0,1
2023-01-05T13:00:00,1515A,113.135,27.8244,株洲市,天台山庄,细颗粒物(PM2.5),110,111,101,83,91,101,80,42,40,38,45,5,5,0.9,0.9
2023-01-05T13:00:00,1518A,113.095,27.8867,株洲市,株冶医院,细颗粒物(PM2.5),134,117,109,102,90,102,81,63,36,45,45,5,6,0.8,0.8
2023-01-05T13:00:00,1519A,113.167,27.8667,株洲市,市四中,细颗粒物(PM2.5),127,97,98,96,90,105,85,51,41,34,41,5,5,0.6,0.6
2023-01-05T13:00:00,1520A,113.143,27.8381,株洲市,火车站,细颗粒物(PM2.5),127,107,109,96,93,100,83,50,38,35,42,5,5,0.8,0.8
2023-01-05T13:00:00,1524A,113.13,27.8528,株洲市,市监测站,,,,107,,94,102,,44,26,,45,,6,,0.7
2023-01-05T13:00:00,1552A,106.805,26.3003,贵阳市,桐木岭(对照点),,,,,,,,,,,,,,,,
2023-01-05T13:00:00,1559A,113.251,27.8336,株洲市,大京风景区(对照点),细颗粒物(PM2.5),93,73,77,69,69,100,89,40,40,19,17,5,4,0.6,0.6
2023-01-05T13:00:00,1562A,113.0048,27.9153,湘潭市,昭山,细颗粒物(PM2.5),179,154,135,135,111,91,84,37,37,33,54,4,3,0.8,0.7
2023-01-05T13:00:00,1564A,112.4876,27.9164,湘潭市,韶山(对照点),细颗粒物(PM2.5),115,93,94,87,83,105,105,76,76,22,22,9,8,1.2,1.1
2023-01-05T13:00:00,1585A,109.8756,40.6532,包头市,市环境监测站,细颗粒物(PM2.5),99,93,83,74,55,53,34,9,9,49,61,30,28,1.1,1.6
2023-01-05T13:00:00,1587A,109.9991,40.5842,包头市,包头八中,细颗粒物(PM2.5),94,125,110,70,70,49,30,8,8,53,66,77,38,1.7,2.3
2023-01-05T13:00:00,1588A,109.8538,40.6821,包头市,青山宾馆,细颗粒物(PM2.5),99,115,102,74,71,53,38,12,12,48,61,31,27,1.2,1.8
2023-01-05T13:00:00,1589A,109.8642,40.6288,包头市,惠龙物流,细颗粒物(PM2.5),97,135,93,72,59,55,39,12,12,47,65,27,29,1.6,2.2
2023-01-05T13:00:00,1590A,110.0377,40.5546,包头市,东河鸿龙湾,颗粒物(PM10),91,131,127,66,68,51,32,14,14,44,59,42,26,1.1,2
2023-01-05T13:00:00,1591A,110.0023,39.8129,鄂尔多斯市,综合楼,颗粒物(PM10),65,80,46,44,21,74,70,44,44,29,40,20,15,0.8,0.8
2023-01-05T13:00:00,1592A,109.9486,39.8261,鄂尔多斯市,巴音孟克林场办事处,细颗粒物(PM2.5),62,66,41,44,25,84,74,59,59,24,24,18,14,0.8,0.6
2023-01-05T13:00:00,1593A,109.7736,39.5986,鄂尔多斯市,康泽苑,颗粒物(PM10),59,68,40,34,22,62,40,28,24,34,29,14,7,1.3,0.9
2023-01-05T13:00:00,1594A,109.8119,39.5989,鄂尔多斯市,华泰汽车城,细颗粒物(PM2.5),58,58,40,41,26,78,57,19,19,33,44,21,12,0.9,0.8
2023-01-05T13:00:00,1595A,109.9734,39.7884,鄂尔多斯市,奥林花园,颗粒物(PM10),59,68,56,36,26,82,74,24,24,20,52,19,13,0.8,0.8
2023-01-05T13:00:00,1596A,122.2414,40.6592,营口市,学府南路(停运211214),,,,,,,,,,,,,,,,
2023-01-05T13:00:00,1597A,122.2703,40.7094,营口市,大庆路,细颗粒物(PM2.5),132,136,116,100,76,56,45,23,23,35,54,34,42,1.6,2.2
2023-01-05T13:00:00,1598A,122.2150,40.6511,营口市,镜湖西路,细颗粒物(PM2.5),119,116,91,90,54,58,49,32,32,30,39,19,22,2.3,2.3
2023-01-05T13:00:00,1599A,122.1658,40.6789,营口市,西炮台,细颗粒物(PM2.5),113,115,78,85,55,63,47,26,26,31,48,16,17,1.0,0.8
2023-01-05T13:00:00,1600A,124.3303,40.0625,丹东市,江湾东路,,49,44,94,34,70,66,58,26,26,23,43,25,37,1.2,2.3
2023-01-05T13:00:00,1601A,124.4256,40.1503,丹东市,临江后街,,50,49,84,35,57,68,58,30,28,22,37,17,23,0.8,1.4
2023-01-05T13:00:00,1602A,124.3933,40.1461,丹东市,元宝山,细颗粒物(PM2.5),63,70,96,45,60,53,33,17,16,51,50,26,30,1.4,1.6
2023-01-05T13:00:00,1603A,124.3633,40.1092,丹东市,民主桥,颗粒物(PM10),55,59,99,35,58,62,49,21,21,31,52,20,26,0.9,1.6
2023-01-05T13:00:00,1604A,122.0303,41.1489,盘锦市,开发区,细颗粒物(PM2.5),97,96,88,72,59,60,42,26,26,40,58,17,22,1.6,1.4
2023-01-05T13:00:00,1605A,122.0485,41.0883,盘锦市,兴隆台,细颗粒物(PM2.5),172,80,89,130,60,64,44,20,18,28,61,25,28,1.4,1.4
2023-01-05T13:00:00,1606A,121.8297,41.1028,盘锦市,新生街道,细颗粒物(PM2.5),113,,74,85,51,64,35,17,17,57,62,21,16,1.7,1.2
2023-01-05T13:00:00,1607A,120.9092,40.7136,葫芦岛市,龙港区,细颗粒物(PM2.5),99,121,134,74,100,59,37,27,27,51,58,42,33,1.5,1.7
2023-01-05T13:00:00,1608A,120.8392,40.7514,葫芦岛市,化工街,细颗粒物(PM2.5),108,102,136,81,102,49,28,18,18,59,64,41,43,1.5,1.9
2023-01-05T13:00:00,1609A,120.8341,40.7073,葫芦岛市,新区,细颗粒物(PM2.5),135,123,104,103,87,49,23,14,14,56,57,43,28,1.9,1.9
2023-01-05T13:00:00,1610A,120.8695,40.7677,葫芦岛市,东城区,细颗粒物(PM2.5),93,105,141,69,98,48,32,18,18,52,55,30,34,1.6,2.1
2023-01-05T13:00:00,1611A,118.5819,24.9117,泉州市,涂山街,,28,28,36,16,16,87,79,69,61,9,11,7,7,0.6,0.6
2023-01-05T13:00:00,1612A,118.5972,24.8978,泉州市,津头埔,,26,26,31,13,17,83,78,68,56,14,16,7,7,0.5,0.6
2023-01-05T13:00:00,1613A,118.6663,24.9424,泉州市,万安,,27,27,30,12,16,87,78,74,62,14,14,8,7,0.5,0.5
2023-01-05T13:00:00,1614A,118.6117,24.9604,泉州市,清源山(对照点),,,,,,,,,,,,,,,,
2023-01-05T13:00:00,1616A,117.6795,36.229,济南市,技术学院,细颗粒物(PM2.5),205,200,216,155,164,79,,10,10,46,73,24,17,2.0,2.4
2023-01-05T13:00:00,1618A,118.3429,35.0532,临沂市,沂河小区,细颗粒物(PM2.5),233,237,190,183,161,92,48,47,20,79,63,20,23,1.7,1.4
2023-01-05T13:00:00,1619A,118.295,35.0583,临沂市,鲁南制药厂,细颗粒物(PM2.5),200,195,203,150,155,97,51,18,16,106,96,31,44,1.2,1.5
2023-01-05T13:00:00,1620A,118.2794,34.9976,临沂市,新光毛纺厂,细颗粒物(PM2.5),183,175,211,138,164,104,65,17,17,84,98,26,34,1.8,2.1
2023-01-05T13:00:00,1621A,118.3956,35.0888,临沂市,河东保险公司,细颗粒物(PM2.5),243,229,206,193,170,98,53,21,21,82,85,21,21,1.8,1.8
2023-01-05T13:00:00,1622A,116.3032,37.4674,德州市,儿童乐园,细颗粒物(PM2.5),309,344,268,259,200,65,36,10,10,94,87,49,35,2.2,2
2023-01-05T13:00:00,1624A,116.2991,37.4451,德州市,监理站,细颗粒物(PM2.5),350,390,293,300,225,61,38,14,14,89,82,49,38,2.1,1.9
2023-01-05T13:00:00,1625A,115.9848,36.4372,聊城市,区政府,细颗粒物(PM2.5),300,323,321,250,246,43,31,12,12,84,82,29,25,1.9,2.2
2023-01-05T13:00:00,1628A,118.0062,37.3803,滨州市,市环保局,细颗粒物(PM2.5),359,412,257,309,178,47,43,18,18,102,80,60,38,2.2,1.7
2023-01-05T13:00:00,1629A,118.0018,37.3617,滨州市,第二水厂,细颗粒物(PM2.5),337,366,229,287,163,49,42,18,18,107,81,50,27,2.2,1.6
2023-01-05T13:00:00,1630A,117.9776,37.393,滨州市,北中新校,细颗粒物(PM2.5),318,353,215,268,151,58,58,19,19,85,73,58,24,1.9,1.5
2023-01-05T13:00:00,1631A,118.0414,36.8103,淄博市,人民公园,细颗粒物(PM2.5),247,237,306,197,233,71,66,15,15,77,94,17,34,1.4,1.9
2023-01-05T13:00:00,1633A,117.8525,36.4847,淄博市,双山,细颗粒物(PM2.5),176,153,236,133,191,111,111,37,37,23,68,17,23,1.0,1.6
2023-01-05T13:00:00,1634A,117.9592,36.6331,淄博市,气象站,细颗粒物(PM2.5),178,211,283,134,202,84,84,22,22,42,71,20,35,1.1,1.6
2023-01-05T13:00:00,1635A,118.3092,36.8194,淄博市,莆田园,细颗粒物(PM2.5),225,219,272,175,205,84,84,23,23,47,67,36,29,1.3,2.3
2023-01-05T13:00:00,1637A,117.558,34.8438,枣庄市,市中区政府,细颗粒物(PM2.5),144,166,189,110,126,115,90,47,40,54,75,24,22,1.2,1.5
2023-01-05T13:00:00,1638A,117.2852,34.7837,枣庄市,薛城环保局,细颗粒物(PM2.5),132,137,135,100,101,129,110,74,48,56,72,17,15,1.1,1.1
2023-01-05T13:00:00,1639A,117.5852,34.7745,枣庄市,峄城区政府,细颗粒物(PM2.5),180,217,223,136,144,96,64,25,25,75,76,30,21,1.1,1.2
2023-01-05T13:00:00,1640A,117.7276,34.5578,枣庄市,台儿庄区环保局,细颗粒物(PM2.5),213,205,213,163,164,112,80,28,28,66,81,29,16,1.5,1.7
2023-01-05T13:00:00,1641A,117.4518,35.0992,枣庄市,山亭区环保局,细颗粒物(PM2.5),98,97,132,73,101,131,126,73,65,54,56,17,14,1.1,1.2
2023-01-05T13:00:00,1642A,121.2514,37.5639,烟台市,开发区,细颗粒物(PM2.5),243,232,154,193,131,53,53,16,16,75,70,22,14,1.7,1.8
2023-01-05T13:00:00,1643A,121.3719,37.5433,烟台市,轴承厂,细颗粒物(PM2.5),242,254,136,192,113,64,64,32,32,71,51,32,19,1.5,1.3
2023-01-05T13:00:00,1644A,121.3181,37.5436,烟台市,西郊化工站,细颗粒物(PM2.5),237,261,146,187,107,91,91,33,33,46,52,16,27,1.4,1.5
2023-01-05T13:00:00,1645A,121.4478,37.4822,烟台市,莱山环保局,细颗粒物(PM2.5),210,210,131,160,103,55,55,14,14,68,53,20,13,1.7,1.6
2023-01-05T13:00:00,1646A,121.2611,37.4967,烟台市,福山环保局,细颗粒物(PM2.5),223,219,170,173,122,80,80,17,17,49,62,18,12,0.9,1.5
2023-01-05T13:00:00,1650A,119.1437,36.7023,潍坊市,环保局,细颗粒物(PM2.5),247,241,244,197,194,68,42,12,12,90,92,19,17,1.7,2.4
2023-01-05T13:00:00,1653A,116.6251,35.4302,济宁市,火炬城,细颗粒物(PM2.5),168,118,191,127,178,89,89,31,31,44,70,16,15,0.8,1.3
2023-01-05T13:00:00,1655A,116.5491,35.4042,济宁市,电化厂,细颗粒物(PM2.5),163,153,216,124,187,97,82,28,28,49,69,27,26,0.8,1.3
2023-01-05T13:00:00,1656A,117.1437,36.1937,泰安市,监测站,颗粒物(PM10),144,237,221,,184,83,77,30,30,59,67,22,14,2.1,1.8
2023-01-05T13:00:00,1657A,117.0885,36.2017,泰安市,人口学校,细颗粒物(PM2.5),238,222,202,188,161,81,60,38,38,79,72,26,16,1.3,1.4
2023-01-05T13:00:00,1658A,117.1089,36.1758,泰安市,电力学校,细颗粒物(PM2.5),241,224,255,191,202,64,64,17,17,38,59,31,26,1.9,2.1
2023-01-05T13:00:00,1659A,119.471,35.4209,日照市,监测站,细颗粒物(PM2.5),147,153,183,112,124,106,89,18,18,57,82,19,20,1.4,2.2
2023-01-05T13:00:00,1660A,119.523,35.4216,日照市,市政府广场,细颗粒物(PM2.5),137,151,166,104,111,104,84,24,24,48,74,16,15,1.4,1.7
2023-01-05T13:00:00,1661A,119.5587,35.4044,日照市,港务局,细颗粒物(PM2.5),200,234,183,150,119,56,37,11,11,86,99,22,18,1.6,1.5
2023-01-05T13:00:00,1662A,122.1214,37.4236,威海市,华夏技校,细颗粒物(PM2.5),214,200,107,164,82,109,109,72,72,40,41,16,7,1.2,0.8
2023-01-05T13:00:00,1663A,122.0508,37.5236,威海市,山大分校,细颗粒物(PM2.5),170,173,101,129,72,89,89,63,63,32,32,15,9,0.9,0.6
2023-01-05T13:00:00,1664A,122.1067,37.5072,威海市,市监测站,,,,87,,69,91,91,43,43,41,44,15,5,1.2,0.9
2023-01-05T13:00:00,1666A,118.6614,37.4309,东营市,市环保局,细颗粒物(PM2.5),265,251,138,215,111,53,49,24,20,58,45,26,13,2.5,1.3
2023-01-05T13:00:00,1669A,113.5824,24.7733,韶关市,市八中,,46,32,46,32,36,90,75,48,48,9,23,10,10,0.7,0.7
2023-01-05T13:00:00,1671A,113.5917,24.7972,韶关市,园林处,,35,31,48,24,38,90,80,55,55,6,21,8,8,0.6,0.7
2023-01-05T13:00:00,1672A,113.6735,24.7791,韶关市,韶关学院,,50,48,56,35,45,88,74,32,32,13,30,7,6,0.7,0.8
2023-01-05T13:00:00,1673A,113.5971,24.6863,韶关市,曲江监测站,细颗粒物(PM2.5),52,52,54,36,40,84,72,28,28,15,34,11,9,0.5,0.7
2023-01-05T13:00:00,1674A,116.6794,23.3667,汕头市,金平子站,,30,25,33,15,22,103,94,59,47,12,22,11,12,0.5,0.6
2023-01-05T13:00:00,1675A,116.7244,23.3633,汕头市,龙湖子站,,30,27,30,18,20,114,93,64,55,13,20,11,11,0.6,0.6
2023-01-05T13:00:00,1676A,116.7258,23.2775,汕头市,濠江子站,,29,26,27,8,18,118,92,70,66,10,15,10,9,0.5,0.5
2023-01-05T13:00:00,1677A,116.7519,23.4714,汕头市,澄海子站,,29,18,32,16,22,118,91,60,51,13,23,5,7,0.6,0.7
2023-01-05T13:00:00,1678A,116.6092,23.2539,汕头市,潮阳子站,,31,31,30,9,16,115,93,68,58,8,12,6,7,0.4,0.4
2023-01-05T13:00:00,1680A,110.3539,21.2706,湛江市,湛江影剧院,细颗粒物(PM2.5),55,55,56,39,47,102,102,71,40,14,23,14,15,0.7,0.9
2023-01-05T13:00:00,1681A,110.3928,21.2228,湛江市,市环境监测站,,,63,60,46,51,97,97,64,43,18,24,13,12,,0.8
2023-01-05T13:00:00,1682A,110.4019,21.1997,湛江市,环保局宿舍,颗粒物(PM10),51,52,50,35,47,106,106,71,48,16,21,8,10,0.6,0.7
2023-01-05T13:00:00,1683A,110.4111,21.2028,湛江市,霞山游泳场,细颗粒物(PM2.5),55,45,56,39,50,103,103,62,43,16,21,8,11,0.5,0.7
2023-01-05T13:00:00,1684A,110.3316,21.2679,湛江市,麻章区环保局,细颗粒物(PM2.5),55,49,57,39,54,87,87,66,28,22,27,19,18,0.7,0.8
2023-01-05T13:00:00,1685A,110.4558,21.2567,湛江市,坡头区环保局,细颗粒物(PM2.5),53,45,53,37,54,102,102,73,43,13,19,9,13,0.6,0.8
2023-01-05T13:00:00,1686A,111.0286,21.4688,茂名市,电白南海,颗粒物(PM10),59,68,72,36,40,102,102,48,48,16,28,11,13,0.6,0.7
2023-01-05T13:00:00,1687A,110.9294,21.6533,茂名市,茂石化七小,,49,48,54,34,41,94,94,44,42,9,19,20,16,0.7,0.9
2023-01-05T13:00:00,1688A,110.9107,21.6687,茂名市,健康路,,46,46,54,25,34,101,101,51,42,11,22,19,22,0.7,1
2023-01-05T13:00:00,1689A,110.8592,21.6828,茂名市,高岭,细颗粒物(PM2.5),62,48,61,44,47,98,98,38,38,13,29,17,21,0.6,0.9
2023-01-05T13:00:00,1690A,116.1231,24.3284,梅州市,梅江月梅,,23,23,39,12,27,57,51,19,19,11,24,7,6,0.4,0.6
2023-01-05T13:00:00,1691A,116.0797,24.2719,梅州市,梅县新城,,30,30,41,15,29,47,39,14,14,17,28,8,7,0.6,0.8
2023-01-05T13:00:00,1692A,116.1248,24.2654,梅州市,环境监控中心,,31,31,37,19,27,60,50,20,20,12,25,12,9,0.6,0.7
2023-01-05T13:00:00,1693A,115.3653,22.775,汕尾市,市环保局,,47,47,35,20,23,110,92,74,65,9,11,8,10,0.5,0.5
2023-01-05T13:00:00,1694A,115.3706,22.7898,汕尾市,市政府,颗粒物(PM10),51,52,36,31,25,100,98,72,62,12,15,8,9,0.5,0.6
2023-01-05T13:00:00,1695A,115.3622,22.7925,汕尾市,新城中学,颗粒物(PM10),51,51,48,26,26,104,93,77,63,11,12,10,10,0.6,0.7
2023-01-05T13:00:00,1696A,114.6778,23.7569,河源市,源西(对照点),,41,41,39,23,28,69,66,30,30,15,28,5,4,0.8,0.8
2023-01-05T13:00:00,1697A,114.6944,23.7586,河源市,东埔,颗粒物(PM10),51,51,46,28,40,72,65,32,32,16,22,5,4,0.7,0.8
2023-01-05T13:00:00,1698A,114.6892,23.7233,河源市,老城,颗粒物(PM10),57,63,53,28,38,73,67,30,30,14,23,6,5,0.8,0.9
2023-01-05T13:00:00,1699A,111.9797,21.8593,阳江市,鸳鸯湖(对照点),细颗粒物(PM2.5),68,65,60,49,54,89,89,48,48,17,23,6,6,0.8,0.8
2023-01-05T13:00:00,1701A,111.9491,21.8658,阳江市,马南垌,细颗粒物(PM2.5),53,50,51,37,48,89,89,40,40,20,33,6,6,0.7,0.7
2023-01-05T13:00:00,1702A,113.0426,23.691,清远市,环保大楼(对照点),,43,30,36,30,38,87,87,49,49,16,21,6,4,0.9,0.9
2023-01-05T13:00:00,1703A,113.0208,23.7106,清远市,凤城街办,,42,42,49,29,34,79,79,27,27,13,29,7,6,0.7,0.8
2023-01-05T13:00:00,1705A,116.6367,23.6719,潮州市,西园路(对照点),,,23,39,7,30,104,,44,34,7,17,6,8,0.8,0.7
2023-01-05T13:00:00,1706A,116.6447,23.6706,潮州市,档案局,,41,41,39,12,25,98,79,41,41,7,18,6,8,0.5,0.7
2023-01-05T13:00:00,1708A,116.3701,23.5345,揭阳市,新兴,颗粒物(PM10),52,53,49,23,38,90,87,37,32,13,28,11,9,0.6,0.7
2023-01-05T13:00:00,1709A,116.3264,23.5443,揭阳市,西马,,50,50,53,34,33,93,92,48,38,18,24,15,10,0.7,0.7
2023-01-05T13:00:00,1710A,116.3611,23.5626,揭阳市,东兴,颗粒物(PM10),51,52,50,25,29,97,92,61,39,15,25,9,8,0.7,0.7
2023-01-05T13:00:00,1711A,116.4151,23.5294,揭阳市,渔湖,,,44,39,19,27,106,,45,18,13,26,15,13,0.6,0.7
2023-01-05T13:00:00,1712A,112.0392,22.9169,云浮市,新市府(对照点),颗粒物(PM10),54,58,38,36,34,60,50,26,26,33,22,63,15,0.8,0.8
2023-01-05T13:00:00,1714A,112.0539,22.9539,云浮市,牧羊,颗粒物(PM10),64,78,60,32,41,50,39,14,14,29,32,56,37,0.8,0.8
2023-01-05T13:00:00,1715A,102.575,24.3711,玉溪市,东风水库,,31,31,22,16,13,73,63,17,17,12,15,5,5,0.7,0.6
2023-01-05T13:00:00,1718A,115.4208,35.2464,菏泽市,气象局,细颗粒物(PM2.5),365,399,408,315,322,66,60,25,25,81,96,20,16,1.9,2
2023-01-05T13:00:00,1719A,115.4747,35.2375,菏泽市,市政协,细颗粒物(PM2.5),333,340,394,283,315,70,63,26,26,70,96,17,14,1.7,1.9
2023-01-05T13:00:00,1721A,113.3819,40.1097,大同市,果树场(对照点),,,,,,,,,,,,,,,,
2023-01-05T13:00:00,1723A,113.2994,40.0758,大同市,云冈宾馆,颗粒物(PM10),97,143,101,63,51,66,28,12,12,63,57,39,33,1.2,1.3
2023-01-05T13:00:00,1724A,113.3444,40.0917,大同市,大同大学,颗粒物(PM10),74,98,89,51,45,59,33,16,16,49,52,38,27,0.8,1
2023-01-05T13:00:00,1725A,113.2661,40.1269,大同市,安家小村,细颗粒物(PM2.5),108,148,105,81,40,64,30,13,13,59,52,42,33,,2.1
2023-01-05T13:00:00,1726A,113.2711,40.0844,大同市,教育学院,颗粒物(PM10),96,142,103,67,56,59,36,16,16,52,58,34,61,0.8,1
2023-01-05T13:00:00,1727A,113.1147,36.1547,长治市,清华站,细颗粒物(PM2.5),203,197,150,153,117,77,37,37,16,79,63,20,20,2.0,1.7
2023-01-05T13:00:00,1728A,113.1031,36.1989,长治市,监测站,细颗粒物(PM2.5),221,187,128,171,115,74,53,24,12,57,58,38,28,2.2,1.7
2023-01-05T13:00:00,1730A,113.0886,36.2125,长治市,审计局,细颗粒物(PM2.5),238,191,141,188,131,78,57,33,12,45,51,41,24,2.1,1.7
2023-01-05T13:00:00,1731A,113.0844,36.1856,长治市,长治八中,细颗粒物(PM2.5),192,186,152,144,114,75,50,29,11,55,51,24,20,2.0,1.6
2023-01-05T13:00:00,1733A,111.5531,36.0783,临汾市,临钢医院,细颗粒物(PM2.5),168,184,189,127,131,70,38,18,13,50,56,22,16,2.1,2.2
2023-01-05T13:00:00,1734A,111.5028,36.0714,临汾市,技工学校,细颗粒物(PM2.5),188,181,200,141,140,49,31,11,11,57,69,25,24,2.5,2.6
2023-01-05T13:00:00,1736A,111.5018,36.0855,临汾市,市委,细颗粒物(PM2.5),163,188,191,124,132,53,30,13,13,55,63,19,18,1.9,2
2023-01-05T13:00:00,1738A,113.5758,37.8572,阳泉市,市中心,细颗粒物(PM2.5),113,160,142,85,77,68,53,18,18,65,75,58,34,1.7,1.4
2023-01-05T13:00:00,1739A,113.4894,37.8731,阳泉市,赛鱼,细颗粒物(PM2.5),160,169,104,122,67,80,60,23,23,50,63,49,30,1.7,1.2
2023-01-05T13:00:00,1740A,113.5819,37.8486,阳泉市,南庄,颗粒物(PM10),123,196,138,84,73,62,53,16,16,58,72,56,30,1.7,1.5
2023-01-05T13:00:00,1742A,113.5614,37.8703,阳泉市,平坦,细颗粒物(PM2.5),168,169,130,127,78,80,57,20,20,53,70,55,33,1.7,1.4
2023-01-05T13:00:00,1743A,113.5158,37.8392,阳泉市,大阳泉,细颗粒物(PM2.5),115,142,86,87,64,87,68,33,32,45,56,44,31,1.5,1
2023-01-05T13:00:00,1744A,118.9233,42.2816,赤峰市,松山一中,,,42,45,33,21,72,72,59,23,16,35,,18,0.6,1.2
2023-01-05T13:00:00,1745A,118.9576,42.2728,赤峰市,哈达街,,48,48,42,23,23,67,67,53,34,20,31,13,18,0.6,0.9
2023-01-05T13:00:00,1746A,118.8788,42.2554,赤峰市,天义路,,45,45,29,12,12,76,76,62,40,14,23,12,15,0.4,0.6
2023-01-05T13:00:00,1748A,123.044,41.1196,鞍山市,深沟寺,细颗粒物(PM2.5),129,138,79,98,48,54,49,41,41,39,43,24,20,1.6,1.3
2023-01-05T13:00:00,1749A,123.011,41.0931,鞍山市,太阳城,,,,79,,46,38,,37,,,36,,21,,1.2
2023-01-05T13:00:00,1750A,123.0485,41.1442,鞍山市,太平,细颗粒物(PM2.5),137,172,106,104,59,43,43,35,35,50,54,26,26,1.9,1.7
2023-01-05T13:00:00,1751A,122.9642,41.0971,鞍山市,铁西三道街,细颗粒物(PM2.5),142,213,134,108,63,59,46,29,29,42,55,27,26,1.8,1.7
2023-01-05T13:00:00,1752A,122.9341,41.0833,鞍山市,铁西工业园区,,,,168,,75,60,45,26,26,41,66,35,22,1.9,2.1
2023-01-05T13:00:00,1753A,123.022,41.0821,鞍山市,明达新区,细颗粒物(PM2.5),122,144,86,92,50,44,44,37,37,34,39,23,18,1.6,1.3
2023-01-05T13:00:00,1754A,123.1289,41.0228,鞍山市,千山(对照点),,,,,,,,,,,,,,,,
2023-01-05T13:00:00,1755A,123.7977,41.8491,抚顺市,望花区,细颗粒物(PM2.5),99,122,127,74,75,54,29,16,16,54,56,14,10,1.6,1.4
2023-01-05T13:00:00,1756A,123.9161,41.8822,抚顺市,顺城区,,,,108,,70,57,37,23,23,40,54,,10,,1.5
2023-01-05T13:00:00,1757A,124.0436,41.8611,抚顺市,东洲区,颗粒物(PM10),55,60,82,31,50,69,54,35,35,16,30,11,10,0.8,1.1
2023-01-05T13:00:00,1758A,123.9247,41.8642,抚顺市,新抚区,细颗粒物(PM2.5),74,75,116,54,78,67,54,30,30,35,55,14,9,1.0,1.5
2023-01-05T13:00:00,1759A,124.0972,41.8961,抚顺市,大伙房水库,细颗粒物(PM2.5),70,75,60,51,51,74,62,43,43,16,26,10,8,0.9,0.9
2023-01-05T13:00:00,1760A,123.7086,41.8391,抚顺市,沈抚新城,颗粒物(PM10),134,218,134,100,83,66,37,27,27,68,59,51,20,3.5,2.1
2023-01-05T13:00:00,1761A,123.8275,41.3064,本溪市,大峪,颗粒物(PM10),71,92,104,46,52,28,28,13,13,44,58,21,24,1.5,2.7
2023-01-05T13:00:00,1762A,123.7567,41.3325,本溪市,溪湖,细颗粒物(PM2.5),92,132,134,68,69,55,17,13,13,73,54,96,25,4.1,2.5
2023-01-05T13:00:00,1763A,123.7169,41.3094,本溪市,彩屯,细颗粒物(PM2.5),139,201,130,106,78,57,21,15,15,93,60,132,32,7.3,3.2
2023-01-05T13:00:00,1764A,123.7669,41.2864,本溪市,东明,颗粒物(PM10),75,100,130,53,66,34,23,12,12,57,64,26,26,1.5,2.6
2023-01-05T13:00:00,1765A,123.7992,41.2664,本溪市,新立屯,颗粒物(PM10),65,80,92,35,50,59,59,19,19,26,61,14,19,1.1,2.3
2023-01-05T13:00:00,1766A,123.8142,41.3472,本溪市,威宁,细颗粒物(PM2.5),78,88,119,57,81,34,30,15,15,40,49,16,11,1.3,2.4
2023-01-05T13:00:00,1767A,121.1115,41.0879,锦州市,南山,细颗粒物(PM2.5),204,,129,154,140,57,33,21,21,,58,41,25,1.8,2.6
2023-01-05T13:00:00,1768A,121.0533,40.8434,锦州市,开发区,颗粒物(PM10),132,213,193,95,139,59,22,11,11,64,66,54,29,1.7,1.8
2023-01-05T13:00:00,1769A,121.1836,41.1119,锦州市,百股街道,细颗粒物(PM2.5),209,151,112,159,108,55,22,17,17,96,67,55,30,2.1,2.2
2023-01-05T13:00:00,1770A,121.1178,41.1222,锦州市,天安街道,细颗粒物(PM2.5),190,159,135,143,105,50,40,20,20,60,61,44,33,1.7,1.7
2023-01-05T13:00:00,1771A,121.1303,41.1386,锦州市,北湖公园,细颗粒物(PM2.5),163,152,115,124,94,60,48,25,25,56,62,42,29,1.6,1.8
2023-01-05T13:00:00,1772A,126.54,43.8622,吉林市,哈达湾,细颗粒物(PM2.5),62,61,63,44,46,71,71,41,41,24,35,22,19,1.0,1
2023-01-05T13:00:00,1773A,126.5844,43.8358,吉林市,东局子,细颗粒物(PM2.5),60,58,48,43,35,66,61,48,45,28,30,19,14,0.9,0.8
2023-01-05T13:00:00,1774A,126.5052,43.8245,吉林市,电力学院,颗粒物(PM10),54,57,117,37,81,71,66,30,30,23,42,20,19,1.0,1.4
2023-01-05T13:00:00,1775A,126.6133,43.8972,吉林市,江北,,,48,65,38,49,68,65,47,40,,33,34,21,1.0,0.9
2023-01-05T13:00:00,1776A,126.555,43.8306,吉林市,江南公园,细颗粒物(PM2.5),60,49,46,43,40,71,68,52,51,23,24,22,15,0.9,0.8
2023-01-05T13:00:00,1778A,126.7061,43.7133,吉林市,丰满(对照点),,,,,,,,,,,,,,,,
2023-01-05T13:00:00,1779A,123.9305,47.3636,齐齐哈尔市,安居小区,细颗粒物(PM2.5),84,64,53,62,33,59,42,33,18,31,31,18,11,0.7,0.7
2023-01-05T13:00:00,1780A,123.9488,47.3386,齐齐哈尔市,中心广场,颗粒物(PM10),74,97,52,51,27,63,36,27,14,42,32,36,10,0.7,0.7
2023-01-05T13:00:00,1781A,123.9483,47.3227,齐齐哈尔市,农牧车辆厂,细颗粒物(PM2.5),104,85,58,78,32,58,17,33,8,66,41,48,18,1.3,1
2023-01-05T13:00:00,1783A,123.945,47.2988,齐齐哈尔市,市环境监测站,细颗粒物(PM2.5),188,185,69,141,51,59,20,36,12,60,35,17,10,1.3,0.8
2023-01-05T13:00:00,1784A,129.61,44.561,牡丹江市,环保大楼,,46,33,64,32,46,68,65,40,40,21,38,13,9,0.5,0.7
2023-01-05T13:00:00,1785A,129.6115,44.5782,牡丹江市,文化广场,细颗粒物(PM2.5),63,36,76,45,58,57,55,27,27,20,41,12,11,0.6,0.9
2023-01-05T13:00:00,1786A,129.5904,44.5963,牡丹江市,第一医院,,49,49,82,32,64,60,59,26,26,21,44,7,8,0.7,1.1
2023-01-05T13:00:00,1787A,129.6364,44.6075,牡丹江市,机车工厂,,36,36,92,21,59,68,60,30,30,22,43,1,3,0.6,1
2023-01-05T13:00:00,1788A,129.6386,44.5462,牡丹江市,第一中学,,30,28,55,21,44,59,59,29,29,21,34,13,7,0.6,0.7
2023-01-05T13:00:00,1789A,124.81117,46.03138,大庆市,大同区,,39,38,56,27,40,61,49,38,37,12,20,9,10,0.6,0.8
2023-01-05T13:00:00,1790A,125.129,46.533,大庆市,龙凤区,,42,42,57,27,34,51,43,30,30,18,27,9,11,0.3,0.5
2023-01-05T13:00:00,1791A,124.902,46.408,大庆市,红岗区,,24,24,37,13,20,61,54,34,34,12,21,10,9,0.3,0.4
2023-01-05T13:00:00,1792A,125.153,46.586,大庆市,萨尔图区,"颗粒物(PM10),细颗粒物(PM2.5)",58,66,49,41,34,46,34,29,23,37,34,31,9,0.7,0.8
2023-01-05T13:00:00,1793A,124.9042,46.6215,大庆市,让胡路区,,28,28,40,14,22,62,46,32,27,23,28,7,7,0.4,0.4
2023-01-05T13:00:00,1794A,118.3606,31.3519,芜湖市,监测站,细颗粒物(PM2.5),115,119,90,87,67,99,36,47,19,,65,21,7,0.7,0.7
2023-01-05T13:00:00,1795A,118.3714,31.4134,芜湖市,科创中心,细颗粒物(PM2.5),124,132,94,94,69,93,38,60,24,83,60,16,7,0.6,0.5
2023-01-05T13:00:00,1796A,118.3673,31.3131,芜湖市,四水厂,细颗粒物(PM2.5),112,110,99,84,67,97,21,56,22,90,54,14,8,0.8,0.8
2023-01-05T13:00:00,1798A,118.5092,31.6837,马鞍山市,湖东路四小,细颗粒物(PM2.5),122,97,57,92,60,92,33,62,25,89,53,44,13,2.1,0.9
2023-01-05T13:00:00,1799A,118.5024,31.6449,马鞍山市,开发区,细颗粒物(PM2.5),117,126,77,88,63,95,32,72,19,89,55,35,12,2.3,1.1
2023-01-05T13:00:00,1800A,118.5228,31.7231,马鞍山市,慈湖,细颗粒物(PM2.5),108,94,81,81,69,97,76,58,36,50,49,20,16,1.1,0.9
2023-01-05T13:00:00,1802A,118.6245,31.7241,马鞍山市,濮塘(对照点),颗粒物(PM10),68,86,73,47,44,101,101,70,58,25,26,14,8,0.9,0.6
2023-01-05T13:00:00,1803A,115.9872,29.6815,九江市,十里,细颗粒物(PM2.5),53,48,58,37,43,68,35,16,16,57,47,10,9,0.8,1
2023-01-05T13:00:00,1804A,115.9584,29.7046,九江市,茅山头,,47,47,55,30,46,68,43,11,11,56,57,10,10,0.9,1
2023-01-05T13:00:00,1805A,115.9877,29.7295,九江市,西园,,50,50,48,34,42,64,43,21,12,42,51,7,6,0.9,1
2023-01-05T13:00:00,1806A,116.0172,29.6547,九江市,五七二七厂,,48,47,48,33,37,64,39,38,32,54,27,8,7,0.6,0.7
2023-01-05T13:00:00,1808A,115.9114,29.6038,九江市,综合工业园,细颗粒物(PM2.5),64,48,64,46,56,50,33,12,12,52,51,9,9,0.8,1
2023-01-05T13:00:00,1809A,116.0721,29.7535,九江市,石化总厂,颗粒物(PM10),52,54,57,24,31,76,58,39,19,33,50,9,9,0.8,0.8
2023-01-05T13:00:00,1810A,115.9773,29.5698,九江市,庐山气象台(对照点),,46,22,14,32,16,83,65,81,77,25,17,6,5,0.5,0.3
2023-01-05T13:00:00,1812A,112.3931,34.6516,洛阳市,市委党校,细颗粒物(PM2.5),304,337,341,254,252,76,55,17,17,50,76,15,15,1.7,1.9
2023-01-05T13:00:00,1814A,112.4657,34.6871,洛阳市,豫西宾馆,细颗粒物(PM2.5),331,383,357,281,262,72,50,17,17,60,77,15,18,2.0,2.1
2023-01-05T13:00:00,1815A,112.494,34.6886,洛阳市,河南林校,细颗粒物(PM2.5),332,342,326,282,252,78,61,21,21,54,76,14,10,1.8,2
2023-01-05T13:00:00,1816A,112.3844,34.623,洛阳市,开发区管委会,细颗粒物(PM2.5),291,288,307,241,245,91,83,29,29,45,76,13,12,1.4,1.7
2023-01-05T13:00:00,1817A,112.4267,34.6258,洛阳市,市委新办公区,细颗粒物(PM2.5),308,307,323,258,260,86,86,31,31,42,73,15,11,1.7,2
2023-01-05T13:00:00,1818A,114.4839,36.0621,安阳市,棉研所(对照点),,,,,,,,,,,,,,,,
2023-01-05T13:00:00,1819A,114.3551,36.1017,安阳市,红庙街,细颗粒物(PM2.5),287,277,239,237,201,52,48,18,18,74,85,36,17,2.1,2.5
2023-01-05T13:00:00,1820A,114.361,36.0681,安阳市,银杏小区,细颗粒物(PM2.5),303,272,238,253,213,57,50,17,17,68,79,36,21,2.2,2.5
2023-01-05T13:00:00,1824A,114.3389,34.7781,开封市,肿瘤医院,细颗粒物(PM2.5),294,341,328,244,239,73,55,22,19,65,67,21,16,1.9,1.8
2023-01-05T13:00:00,1826A,114.2885,34.7965,开封市,世纪星幼儿园,细颗粒物(PM2.5),315,287,284,265,250,77,62,30,23,68,76,26,16,2.0,1.8
2023-01-05T13:00:00,1828A,113.227,35.2125,焦作市,市环保局,细颗粒物(PM2.5),360,351,300,310,241,60,40,10,10,75,68,15,18,2.3,2.3
2023-01-05T13:00:00,1830A,113.1992,35.2590,焦作市,影视城(对照点),,,,,,,,,,,,,,,,
2023-01-05T13:00:00,1832A,113.3257,33.742,平顶山市,新华旅馆,细颗粒物(PM2.5),337,420,347,287,228,87,41,42,16,84,69,17,12,2.0,1.5
2023-01-05T13:00:00,1833A,113.2919,33.737,平顶山市,规划设计院,细颗粒物(PM2.5),403,383,306,354,262,99,43,39,14,67,69,13,7,1.7,1.3
2023-01-05T13:00:00,1834A,113.182,33.774,平顶山市,平顶山工学院,细颗粒物(PM2.5),362,423,342,312,252,114,49,35,19,65,59,13,12,2.0,1.7
2023-01-05T13:00:00,1835A,111.1922,34.7752,三门峡市,市政府,细颗粒物(PM2.5),355,,243,305,235,60,35,18,18,70,72,24,18,1.8,1.8
2023-01-05T13:00:00,1836A,111.1587,34.7942,三门峡市,开发区,细颗粒物(PM2.5),335,352,295,285,233,90,37,23,22,58,53,22,10,1.9,1.7
2023-01-05T13:00:00,1838A,111.143,34.7955,三门峡市,风景区(对照点),,,,,,,,,,,,,,,,
2023-01-05T13:00:00,1840A,111.2992,30.6981,宜昌市,白龙岗,细颗粒物(PM2.5),255,224,252,205,232,56,17,22,11,52,54,6,6,1.4,1.6
2023-01-05T13:00:00,1841A,111.3549,30.6465,宜昌市,伍家岗,细颗粒物(PM2.5),301,284,274,251,252,64,8,7,7,78,68,4,4,1.9,1.8
2023-01-05T13:00:00,1842A,111.2628,30.6961,宜昌市,点军区,细颗粒物(PM2.5),252,218,258,202,229,49,14,6,6,38,51,5,5,1.3,1.6
2023-01-05T13:00:00,1843A,111.3275,30.7819,宜昌市,夷陵区,细颗粒物(PM2.5),301,244,237,251,255,55,,13,10,60,52,7,6,1.6,1.6
2023-01-05T13:00:00,1844A,112.2494,30.3197,荆州市,市图书馆,细颗粒物(PM2.5),348,284,229,298,247,72,34,59,35,62,67,10,9,1.6,1.3
2023-01-05T13:00:00,1845A,112.2008,30.3544,荆州市,市委党校,细颗粒物(PM2.5),343,286,250,293,258,56,38,52,24,55,60,11,8,1.5,1.4
2023-01-05T13:00:00,1847A,113.1094,29.3578,岳阳市,南湖风景区,细颗粒物(PM2.5),195,162,128,146,114,97,77,56,41,43,41,19,9,1.3,1.2
2023-01-05T13:00:00,1848A,113.1493,29.4251,岳阳市,城陵矶,细颗粒物(PM2.5),202,186,138,152,111,74,50,45,24,59,52,17,9,1.2,1.1
2023-01-05T13:00:00,1849A,113.1497,29.3575,岳阳市,开发区,颗粒物(PM10),119,187,147,,146,99,66,45,31,35,35,23,11,1.7,1.4
2023-01-05T13:00:00,1850A,113.2621,29.4758,岳阳市,云溪区,细颗粒物(PM2.5),223,227,202,173,158,83,66,47,30,43,39,10,10,1.1,1.1
2023-01-05T13:00:00,1851A,112.9943,29.4402,岳阳市,君山区,细颗粒物(PM2.5),215,176,142,165,128,86,78,42,39,30,33,11,10,1.1,1.2
2023-01-05T13:00:00,1852A,113.2117,29.355,岳阳市,金凤水库(对照点),细颗粒物(PM2.5),188,175,135,141,111,96,78,36,36,25,29,10,7,1.0,1
2023-01-05T13:00:00,1854A,111.6975,28.9703,常德市,市二中,细颗粒物(PM2.5),360,319,255,310,248,81,60,22,22,35,32,5,4,1.2,1.2
2023-01-05T13:00:00,1857A,111.7158,29.1456,常德市,白鹤山(对照点),细颗粒物(PM2.5),299,232,176,249,200,101,61,48,47,28,23,4,4,1.3,1.1
2023-01-05T13:00:00,1858A,110.5319,29.1217,张家界市,永定新区,细颗粒物(PM2.5),237,207,179,187,162,56,56,22,22,32,33,6,5,1.0,1.2
2023-01-05T13:00:00,1859A,110.4697,29.1242,张家界市,电业局,细颗粒物(PM2.5),239,197,171,189,160,53,27,14,14,47,36,5,4,1.1,1
2023-01-05T13:00:00,1860A,110.5594,29.3547,张家界市,未央路,细颗粒物(PM2.5),140,120,106,107,88,62,62,24,24,8,10,2,2,0.9,1
2023-01-05T13:00:00,1861A,110.4417,29.315,张家界市,袁家界(对照点),细颗粒物(PM2.5),68,52,54,49,50,76,76,57,55,5,4,9,9,0.7,0.7
2023-01-05T13:00:00,1862A,110.4144,25.3167,桂林市,电子科大尧山校区(对照点),"颗粒物(PM10),细颗粒物(PM2.5)",54,57,59,38,48,100,100,90,90,12,12,12,10,1.0,0.9
2023-01-05T13:00:00,1863A,110.2819,25.2697,桂林市,监测站,细颗粒物(PM2.5),109,94,85,82,75,101,96,84,80,17,27,13,10,1.2,1.2
2023-01-05T13:00:00,1864A,110.3089,25.2708,桂林市,龙隐路小学,细颗粒物(PM2.5),113,86,75,85,74,102,96,79,79,17,23,15,13,0.8,0.7
2023-01-05T13:00:00,1865A,110.2869,25.2178,桂林市,八中,细颗粒物(PM2.5),114,92,81,86,79,95,92,75,75,17,29,15,10,0.6,0.6
2023-01-05T13:00:00,1866A,109.2262,21.588,北海市,牛尾岭水库(对照点),细颗粒物(PM2.5),67,51,55,48,51,61,53,25,25,10,14,8,6,0.5,0.6
2023-01-05T13:00:00,1867A,109.1436,21.4086,北海市,海滩公园,颗粒物(PM10),55,60,66,29,47,72,63,45,38,14,15,6,6,0.8,0.8
2023-01-05T13:00:00,1868A,109.0981,21.4661,北海市,新市环保局,细颗粒物(PM2.5),64,59,61,46,57,76,62,42,37,11,16,4,5,0.7,0.7
2023-01-05T13:00:00,1869A,109.1778,21.5233,北海市,北海工业园,细颗粒物(PM2.5),64,74,71,46,57,70,60,38,32,16,18,5,6,0.6,0.6
2023-01-05T13:00:00,1870A,109.4856,24.3895,柳州市,柳东小学,细颗粒物(PM2.5),100,67,70,75,73,85,74,67,55,12,14,8,10,0.8,0.7
2023-01-05T13:00:00,1871A,109.4157,24.3277,柳州市,环保监测站,"颗粒物(PM10),细颗粒物(PM2.5)",70,89,72,51,65,83,72,55,49,12,21,8,9,0.8,0.8
2023-01-05T13:00:00,1872A,109.389,24.341,柳州市,河西水厂,细颗粒物(PM2.5),89,73,83,66,70,78,60,54,44,26,27,13,12,1.0,1
2023-01-05T13:00:00,1873A,109.4311,24.2921,柳州市,市四中,细颗粒物(PM2.5),88,70,75,65,54,88,68,58,54,18,22,11,11,0.9,0.9
2023-01-05T13:00:00,1874A,109.4006,24.3631,柳州市,市九中,,,77,93,60,78,82,60,47,42,,27,13,13,0.9,0.8
2023-01-05T13:00:00,1875A,109.4958,24.3134,柳州市,古亭山,细颗粒物(PM2.5),75,77,59,55,48,92,76,63,63,16,18,11,10,0.9,0.8
2023-01-05T13:00:00,1876A,109.5078,18.2489,三亚市,河东子站,,27,11,10,7,5,91,84,70,69,5,8,3,3,0.5,0.5
2023-01-05T13:00:00,1877A,109.4964,18.2681,三亚市,河西子站,,24,13,9,5,4,80,75,57,57,6,10,2,2,0.4,0.5
2023-01-05T13:00:00,1878A,104.7778,31.4741,绵阳市,富乐山,细颗粒物(PM2.5),88,79,81,65,70,57,48,11,11,36,29,4,3,0.7,0.8
2023-01-05T13:00:00,1879A,104.7563,31.4535,绵阳市,市人大,细颗粒物(PM2.5),87,94,97,64,75,38,25,6,6,45,41,4,3,0.9,0.9
2023-01-05T13:00:00,1880A,104.6697,31.4668,绵阳市,高新区自来水公司,细颗粒物(PM2.5),150,130,105,115,72,53,36,8,8,39,32,6,6,0.9,1
2023-01-05T13:00:00,1881A,104.7287,31.5075,绵阳市,三水厂,细颗粒物(PM2.5),90,100,105,67,81,50,30,6,6,41,30,4,3,0.9,0.9
2023-01-05T13:00:00,1882A,104.563,28.793,宜宾市,石马中学(对照点),细颗粒物(PM2.5),68,65,69,49,50,48,48,31,18,14,14,10,5,0.7,0.8
2023-01-05T13:00:00,1883A,104.6201,28.7728,宜宾市,市委,细颗粒物(PM2.5),97,92,86,72,73,52,52,34,20,29,29,10,8,0.7,0.7
2023-01-05T13:00:00,1884A,104.6055,28.793,宜宾市,宜宾四中,细颗粒物(PM2.5),109,86,86,82,77,60,60,34,22,24,30,9,7,0.6,0.7
2023-01-05T13:00:00,1885A,104.639,28.7562,宜宾市,市政府,细颗粒物(PM2.5),94,72,85,70,76,55,55,37,23,19,30,9,7,0.6,0.7
2023-01-05T13:00:00,1886A,104.5742,28.7199,宜宾市,黄金嘴,细颗粒物(PM2.5),79,78,83,58,64,59,59,43,19,22,34,13,9,0.8,0.8
2023-01-05T13:00:00,1888A,101.6891,26.571,攀枝花市,弄弄坪,细颗粒物(PM2.5),72,78,98,52,59,103,49,13,13,54,44,39,38,2.1,2.9
2023-01-05T13:00:00,1889A,101.5769,26.5928,攀枝花市,河门口,细颗粒物(PM2.5),60,68,65,43,42,110,62,28,28,35,33,32,23,2.2,1.5
2023-01-05T13:00:00,1890A,101.7169,26.585,攀枝花市,炳草岗,颗粒物(PM10),65,80,83,43,44,108,56,13,13,48,52,40,22,2.4,2.1
2023-01-05T13:00:00,1891A,101.7369,26.5008,攀枝花市,仁和,颗粒物(PM10),65,80,68,45,33,106,87,30,27,30,24,59,18,3.2,1.3
2023-01-05T13:00:00,1893A,105.4324,28.9634,泸州市,九狮山(对照点),细颗粒物(PM2.5),102,109,68,76,45,20,16,5,5,17,16,11,8,0.5,0.5
2023-01-05T13:00:00,1894A,105.4427,28.9063,泸州市,小市上码头,细颗粒物(PM2.5),134,131,88,102,68,23,22,9,9,25,30,8,6,0.9,0.7
2023-01-05T13:00:00,1895A,105.4241,28.8573,泸州市,兰田宪桥,细颗粒物(PM2.5),137,118,84,104,68,20,17,10,10,24,26,9,10,0.9,0.9
2023-01-05T13:00:00,1896A,105.4379,28.8833,泸州市,市环监站,细颗粒物(PM2.5),134,128,82,102,60,20,20,9,9,24,28,5,4,0.9,0.7
2023-01-05T13:00:00,1901A,104.4239,31.1208,德阳市,东山公园,细颗粒物(PM2.5),130,116,100,99,84,58,58,16,16,33,40,6,4,1.0,1
2023-01-05T13:00:00,1902A,104.3826,31.1317,德阳市,西小区,细颗粒物(PM2.5),138,134,116,105,89,49,35,7,7,44,42,3,4,1.0,1.2
2023-01-05T13:00:00,1904A,104.3553,31.1091,德阳市,耐火材料厂,细颗粒物(PM2.5),168,176,139,127,94,57,43,8,8,41,37,9,6,0.8,1
2023-01-05T13:00:00,1905A,106.056,30.8064,南充市,西山风景区(对照点),,,,77,,86,12,,14,,,18,,3,,1.2
2023-01-05T13:00:00,1906A,106.0789,30.8023,南充市,南充市委,细颗粒物(PM2.5),84,94,101,62,76,32,32,10,10,29,20,6,5,0.9,0.9
2023-01-05T13:00:00,1907A,106.1031,30.8217,南充市,南充炼油厂,细颗粒物(PM2.5),78,86,100,57,77,47,47,11,11,21,30,8,7,0.9,0.9
2023-01-05T13:00:00,1908A,106.1064,30.7856,南充市,高坪区监测站,细颗粒物(PM2.5),108,104,106,81,84,38,38,12,12,23,31,9,8,0.7,0.9
2023-01-05T13:00:00,1909A,106.0642,30.7636,南充市,嘉陵区环保局,细颗粒物(PM2.5),85,77,98,63,72,39,39,11,11,24,34,7,6,1.1,1.2
2023-01-05T13:00:00,1910A,106.1087,30.8388,南充市,市环境监测站,细颗粒物(PM2.5),79,92,98,58,76,40,40,12,12,26,27,9,8,0.6,0.6
2023-01-05T13:00:00,1911A,106.9222,27.6869,遵义市,丁字口,细颗粒物(PM2.5),55,47,67,39,52,69,25,37,25,31,24,30,16,1.0,0.9
2023-01-05T13:00:00,1912A,106.9242,27.7019,遵义市,凤凰山,,42,42,58,13,30,59,25,38,31,24,19,9,7,0.8,0.7
2023-01-05T13:00:00,1913A,106.8906,27.6486,遵义市,忠庄,,37,37,67,18,47,65,24,35,24,24,21,6,4,0.7,0.6
2023-01-05T13:00:00,1914A,106.9231,27.6506,遵义市,舟水桥,细颗粒物(PM2.5),53,50,78,37,50,72,27,34,30,25,18,29,18,0.7,0.7
2023-01-05T13:00:00,1915A,106.9178,27.72,遵义市,干田坝,,38,38,59,25,45,57,27,38,26,22,20,13,7,0.9,0.8
2023-01-05T13:00:00,1916A,103.7897,25.5035,曲靖市,环境监测站,,43,43,32,28,19,120,66,46,38,12,16,10,6,0.8,0.7
2023-01-05T13:00:00,1917A,103.8,25.5364,曲靖市,烟厂办公区,,41,41,33,26,17,96,69,42,29,11,22,7,5,0.6,0.6
2023-01-05T13:00:00,1918A,108.7197,34.3956,咸阳市,气象站(对照点),细颗粒物(PM2.5),370,374,332,320,292,56,26,9,9,117,104,15,11,2.1,1.9
2023-01-05T13:00:00,1919A,108.673,34.3155,咸阳市,实验中学,细颗粒物(PM2.5),413,419,355,369,320,77,39,11,11,90,84,6,6,1.9,1.8
2023-01-05T13:00:00,1920A,108.7233,34.3617,咸阳市,师范学院,细颗粒物(PM2.5),388,381,341,338,293,81,40,18,18,97,83,9,9,1.8,1.6
2023-01-05T13:00:00,1922A,109.0656,35.0994,铜川市,党校(对照点),颗粒物(PM10),72,93,147,48,86,107,103,46,46,28,57,18,15,1.1,1.3
2023-01-05T13:00:00,1923A,109.0697,35.0697,铜川市,王益区政府,,,,170,,157,102,96,32,32,,55,13,9,0.9,1.4
2023-01-05T13:00:00,1924A,108.9344,34.9058,铜川市,新区管委会,细颗粒物(PM2.5),260,218,181,210,169,114,94,59,58,41,43,22,15,1.3,1.1
2023-01-05T13:00:00,1926A,109.4131,36.6275,延安市,枣园(对照点),细颗粒物(PM2.5),97,59,66,72,53,92,44,16,16,36,44,5,6,0.6,0.6
2023-01-05T13:00:00,1927A,109.4761,36.6028,延安市,延大医附院,细颗粒物(PM2.5),87,85,66,64,52,86,61,19,19,34,53,9,10,0.7,1.2
2023-01-05T13:00:00,1929A,109.5056,36.6106,延安市,百米大道,细颗粒物(PM2.5),90,90,74,67,57,87,39,19,19,63,62,10,12,1.3,1.4
2023-01-05T13:00:00,1930A,107.185,34.3063,宝鸡市,庙沟村(对照点),细颗粒物(PM2.5),248,197,206,198,196,63,63,23,23,31,55,8,6,1.8,1.8
2023-01-05T13:00:00,1931A,107.0708,34.3017,宝鸡市,竹园沟,细颗粒物(PM2.5),256,189,187,206,192,68,68,21,21,34,49,6,5,1.3,1.4
2023-01-05T13:00:00,1932A,107.1906,34.3672,宝鸡市,三陆医院,细颗粒物(PM2.5),271,246,255,221,232,56,56,20,20,47,60,12,11,1.4,1.6
2023-01-05T13:00:00,1933A,107.1431,34.3547,宝鸡市,监测站,细颗粒物(PM2.5),274,194,219,224,210,73,73,20,20,40,61,10,7,1.4,1.5
2023-01-05T13:00:00,1934A,107.1186,34.3739,宝鸡市,技工学校,细颗粒物(PM2.5),254,222,210,204,215,66,66,22,22,44,57,11,8,1.3,1.4
2023-01-05T13:00:00,1935A,107.3906,34.3528,宝鸡市,陈仓区环保局家属楼,细颗粒物(PM2.5),286,238,274,236,254,83,83,31,31,38,68,22,23,1.6,1.9
2023-01-05T13:00:00,1936A,107.2058,34.3497,宝鸡市,文理学院,细颗粒物(PM2.5),272,234,232,222,207,69,69,20,20,42,59,15,12,1.6,1.6
2023-01-05T13:00:00,1937A,107.2386,34.3622,宝鸡市,三迪小学,细颗粒物(PM2.5),278,250,253,228,223,51,51,18,18,58,65,14,12,1.6,1.6
2023-01-05T13:00:00,1938A,109.5293,34.5101,渭南市,农科所(对照点),细颗粒物(PM2.5),316,339,304,266,243,109,43,18,16,64,64,13,12,2.6,2.2
2023-01-05T13:00:00,1939A,109.4974,34.4877,渭南市,日报社,细颗粒物(PM2.5),377,366,275,327,236,92,28,10,10,80,83,15,16,2.6,2
2023-01-05T13:00:00,1940A,109.4636,34.493,渭南市,体育馆,细颗粒物(PM2.5),373,356,302,323,277,90,29,10,10,70,78,11,13,2.2,1.9
2023-01-05T13:00:00,1941A,109.4259,34.5023,渭南市,高新一小,细颗粒物(PM2.5),343,325,328,293,292,108,42,14,14,59,75,15,13,2.0,2
2023-01-05T13:00:00,1943A,102.1725,38.5339,金昌市,新川苑,颗粒物(PM10),500,647,252,59,31,83,67,62,62,17,28,104,36,0.7,0.8
2023-01-05T13:00:00,1944A,102.1692,38.5167,金昌市,天庆家园,颗粒物(PM10),461,561,216,61,16,85,69,63,63,21,28,81,35,0.8,1
2023-01-05T13:00:00,1945A,98.2908,39.7711,嘉峪关市,气象局,颗粒物(PM10),500,918,321,,46,82,55,77,70,22,26,4,6,0.2,0.2
2023-01-05T13:00:00,1947A,106.3394,38.817,石嘴山市,沙湖旅游区(对照点),细颗粒物(PM2.5),258,360,253,208,193,67,46,23,23,58,64,38,25,2.8,2.5
2023-01-05T13:00:00,1948A,106.3668,39.0145,石嘴山市,大武口朝阳西街,细颗粒物(PM2.5),165,161,235,125,158,70,27,11,11,61,88,44,37,1.2,1.6
2023-01-05T13:00:00,1949A,106.7704,39.2282,石嘴山市,惠农南大街,细颗粒物(PM2.5),115,91,157,87,135,123,37,12,12,47,72,30,44,1.0,1.6
2023-01-05T13:00:00,1950A,106.7099,39.1325,石嘴山市,红果子镇惠新街,细颗粒物(PM2.5),160,109,171,122,125,88,41,14,14,,61,35,37,1.1,1.5
2023-01-05T13:00:00,1951A,84.895,45.6094,克拉玛依市,长征新村,,,,132,,96,68,64,56,55,22,46,,10,1.1,1.2
2023-01-05T13:00:00,1952A,84.8988,45.5893,克拉玛依市,南林小区,细颗粒物(PM2.5),150,130,137,115,112,74,74,62,62,25,41,6,5,0.9,1.1
2023-01-05T13:00:00,1954A,84.905,44.3396,克拉玛依市,独山子区,颗粒物(PM10),53,56,55,34,32,97,59,73,60,38,25,8,8,0.8,0.7
2023-01-05T13:00:00,1955A,85.6979,46.098,克拉玛依市,乌尔禾区商贸楼,细颗粒物(PM2.5),98,108,122,73,97,80,67,52,52,35,47,6,5,1.1,1.3
2023-01-05T13:00:00,1956A,86.1472,41.7538,巴音郭楞州,孔雀公园,颗粒物(PM10),119,188,126,33,43,79,29,38,26,38,32,17,16,0.8,0.7
2023-01-05T13:00:00,1957A,86.1972,41.7166,巴音郭楞州,棉纺厂,颗粒物(PM10),140,229,144,18,36,79,54,49,30,24,40,12,9,0.4,0.5
2023-01-05T13:00:00,1958A,86.2357,41.7173,巴音郭楞州,经济开发区,颗粒物(PM10),115,179,115,32,33,77,56,47,39,22,30,8,8,0.4,0.6
2023-01-05T13:00:00,1961A,117.532,36.6868,济南市,东山小学,细颗粒物(PM2.5),168,173,235,127,172,102,102,39,39,39,77,12,15,0.9,1.2
2023-01-05T13:00:00,1966A,120.0405,35.8735,青岛市,黄岛区4号,细颗粒物(PM2.5),230,241,161,180,128,50,46,15,15,94,79,19,13,1.7,1.6
2023-01-05T13:00:00,1982A,122.0693,37.2174,威海市,文登开发区,细颗粒物(PM2.5),238,232,127,188,100,96,96,29,29,56,58,18,8,1.2,1.2
2023-01-05T13:00:00,2031A,113.1817,27.9958,株洲市,云田中学,细颗粒物(PM2.5),159,129,119,121,104,101,86,41,39,31,37,6,5,1.0,0.9
2023-01-05T13:00:00,2054A,114.1099,32.1059,信阳市,平桥分局,细颗粒物(PM2.5),311,290,196,261,173,118,64,55,35,56,50,11,11,1.4,1.2
2023-01-05T13:00:00,2064A,113.9956,32.1271,信阳市,南湾水厂,细颗粒物(PM2.5),335,296,184,285,163,117,71,76,40,39,40,10,9,1.5,1.2
2023-01-05T13:00:00,2065A,114.0775,32.1195,信阳市,市酿酒公司,细颗粒物(PM2.5),321,292,182,271,166,116,60,35,35,59,56,10,11,1.8,1.5
2023-01-05T13:00:00,2066A,114.0609,32.1399,信阳市,审计局,细颗粒物(PM2.5),309,289,190,259,168,113,68,39,39,51,52,12,11,1.5,1.2
2023-01-05T13:00:00,2067A,114.6613,33.6128,周口市,市环境监测站,细颗粒物(PM2.5),348,374,290,298,269,126,55,26,20,58,50,11,9,1.6,1.5
2023-01-05T13:00:00,2068A,114.6758,33.6347,周口市,周口师范,细颗粒物(PM2.5),355,365,293,305,281,130,61,26,22,62,58,12,10,1.8,1.6
2023-01-05T13:00:00,2069A,114.6546,33.5979,周口市,市运管处,细颗粒物(PM2.5),374,336,290,324,272,131,63,33,26,66,57,12,10,1.6,1.8
2023-01-05T13:00:00,2070A,114.6369,33.6406,周口市,川汇区环保局,细颗粒物(PM2.5),348,330,292,298,266,121,61,21,21,62,61,12,10,1.9,1.7
2023-01-05T13:00:00,2075A,117.6336,24.4674,漳州市,九湖(对照点),,,,,,,,,,,,,,,,
2023-01-05T13:00:00,2160A,112.85,35.5051,晋城市,自来水公司,细颗粒物(PM2.5),199,172,243,149,196,100,73,15,15,50,62,25,21,3.1,1.9
2023-01-05T13:00:00,2161A,112.8318,35.4936,晋城市,白云商贸,细颗粒物(PM2.5),282,199,208,232,169,100,66,23,23,42,55,24,16,3.4,2.3
2023-01-05T13:00:00,2162A,112.8508,35.4887,晋城市,市环保局,细颗粒物(PM2.5),188,175,254,141,207,94,83,24,24,32,63,24,23,2.5,2.4
2023-01-05T13:00:00,2163A,112.8676,35.4897,晋城市,技术学院,细颗粒物(PM2.5),216,138,240,166,207,100,85,27,27,33,62,18,18,2.2,2.3
2023-01-05T13:00:00,2165A,112.8453,35.546,晋城市,白马寺 (对照点),,,,,,,,,,,,,,,,
2023-01-05T13:00:00,2166A,112.4397,39.3522,朔州市,平朔,,,,103,75,43,79,43,17,17,49,49,34,26,1.0,0.8
2023-01-05T13:00:00,2167A,112.4575,39.3617,朔州市,朔唯,细颗粒物(PM2.5),105,117,147,79,51,85,54,14,14,47,55,29,35,1.0,1
2023-01-05T13:00:00,2168A,112.4258,39.3197,朔州市,区政府,细颗粒物(PM2.5),114,148,83,86,46,84,48,16,16,49,44,48,20,0.9,0.7
2023-01-05T13:00:00,2169A,112.4072,39.3278,朔州市,市环保局,细颗粒物(PM2.5),122,153,79,92,43,80,47,19,19,55,44,41,22,1.3,1
2023-01-05T13:00:00,2170A,112.4272,39.3681,朔州市,市二中,颗粒物(PM10),102,153,116,57,43,85,55,15,15,42,45,27,25,0.7,0.7
2023-01-05T13:00:00,2171A,112.7532,37.6945,晋中市,锦纶小区,细颗粒物(PM2.5),132,164,114,100,70,81,29,15,15,57,49,76,23,1.5,0.9
2023-01-05T13:00:00,2173A,112.7249,37.7067,晋中市,南都小区,细颗粒物(PM2.5),117,159,105,88,59,76,34,18,18,58,58,78,28,1.6,1.1
2023-01-05T13:00:00,2174A,112.6991,37.6982,晋中市,榆次区政府,"颗粒物(PM10),细颗粒物(PM2.5)",105,159,103,79,53,74,28,17,17,56,52,88,26,1.6,1
2023-01-05T13:00:00,2175A,110.9956,35.0147,运城市,运城中学,细颗粒物(PM2.5),309,327,282,259,242,105,52,23,18,47,50,13,10,2.1,2
2023-01-05T13:00:00,2178A,110.9686,35.0303,运城市,地区技校,细颗粒物(PM2.5),310,366,334,260,252,83,58,15,15,42,70,18,16,2.0,2.3
2023-01-05T13:00:00,2179A,111.0414,35.1147,运城市,空港新区,细颗粒物(PM2.5),307,324,307,257,260,111,73,24,24,47,61,16,12,2.3,2.3
2023-01-05T13:00:00,2181A,112.7383,38.4519,忻州市,开发区,细颗粒物(PM2.5),127,152,98,96,67,58,21,9,9,54,48,40,16,1.3,1.1
2023-01-05T13:00:00,2182A,112.7003,38.4928,忻州市,会展中心,细颗粒物(PM2.5),138,151,106,105,68,62,23,14,14,59,54,38,13,1.4,1
2023-01-05T13:00:00,2183A,111.1406,37.5211,吕梁市,环保局,颗粒物(PM10),65,79,100,33,37,53,31,11,11,43,62,23,21,0.7,0.7
2023-01-05T13:00:00,2185A,111.1297,37.5136,吕梁市,自来水公司,颗粒物(PM10),63,76,137,38,43,44,33,11,11,43,57,19,23,0.7,0.8
2023-01-05T13:00:00,2187A,106.8174,39.6973,乌海市,市林业局,颗粒物(PM10),105,160,185,53,113,69,69,18,18,22,76,26,92,0.9,2.2
2023-01-05T13:00:00,2188A,106.7907,39.6667,乌海市,中海勃湾学校,颗粒物(PM10),95,140,165,44,101,69,69,23,23,24,74,28,85,0.7,2.2
2023-01-05T13:00:00,2191A,122.2532,43.6801,通辽市,艺术职业学校,颗粒物(PM10),55,59,54,36,29,64,48,40,29,22,28,10,11,0,0.1
2023-01-05T13:00:00,2192A,119.7594,49.2261,呼伦贝尔市,区环保局,,26,26,23,15,18,68,60,66,41,8,18,6,5,0.3,0.4
2023-01-05T13:00:00,2195A,107.4212,40.761,巴彦淖尔市,附二中,"颗粒物(PM10),细颗粒物(PM2.5)",63,76,124,45,62,82,59,29,29,17,39,6,18,0.6,1
2023-01-05T13:00:00,2196A,107.37,40.7372,巴彦淖尔市,市环保大楼,"颗粒物(PM10),细颗粒物(PM2.5)",64,78,100,46,67,84,64,31,31,17,43,7,11,0.6,1.1
2023-01-05T13:00:00,2197A,113.1306,40.9923,乌兰察布市,集宁新区,,50,50,51,27,27,69,58,43,25,23,26,18,14,0.5,0.5
2023-01-05T13:00:00,2200A,122.0392,46.0656,兴安盟,胜华新制药厂,,22,14,38,15,26,69,67,65,48,13,24,5,6,0.2,0.4
2023-01-05T13:00:00,2201A,121.9504,46.0741,兴安盟,科右前旗环保局,,23,10,26,13,19,72,71,70,54,7,18,2,3,0.3,0.5
2023-01-05T13:00:00,2202A,116.1042,43.9317,锡林郭勒盟,市环保监测站,,,,20,,7,72,72,62,60,,9,9,7,0.5,0.3
2023-01-05T13:00:00,2203A,116.0781,43.9311,锡林郭勒盟,市政府,,30,30,18,6,6,73,73,62,62,7,14,13,8,0.4,0.3
2023-01-05T13:00:00,2204A,105.6467,38.8363,阿拉善盟,西城区西花园(对照点),,,79,53,39,32,96,78,88,82,16,17,,11,,0.6
2023-01-05T13:00:00,2205A,105.6985,38.8411,阿拉善盟,蒙二幼,细颗粒物(PM2.5),88,78,36,65,38,94,82,90,83,15,19,14,14,0.4,0.4
2023-01-05T13:00:00,2206A,105.724,38.8516,阿拉善盟,环保局新楼,细颗粒物(PM2.5),68,64,39,49,36,101,86,100,90,11,11,15,13,0.3,0.3
2023-01-05T13:00:00,2207A,121.6094,41.998,阜新市,工业园区,"颗粒物(PM10),细颗粒物(PM2.5)",99,147,180,74,106,58,38,18,18,37,42,32,30,1.4,1.7
2023-01-05T13:00:00,2208A,121.6697,42.0279,阜新市,长青街,细颗粒物(PM2.5),95,123,134,71,79,63,38,16,15,49,51,41,37,1.4,1.7
2023-01-05T13:00:00,2209A,121.6673,42.0705,阜新市,农业园区,细颗粒物(PM2.5),83,95,104,61,71,66,48,33,33,29,39,31,47,1.0,1
2023-01-05T13:00:00,2210A,121.6717,42.0224,阜新市,东苑,细颗粒物(PM2.5),102,135,117,76,79,58,38,20,16,41,47,44,45,1.6,1.6
2023-01-05T13:00:00,2211A,121.6506,42.0498,阜新市,玉龙新城,细颗粒物(PM2.5),98,130,149,73,98,60,40,19,19,34,42,33,26,1.1,1.4
2023-01-05T13:00:00,2212A,123.2,41.1953,辽阳市,宏伟区,细颗粒物(PM2.5),100,118,74,75,51,46,46,39,39,39,47,23,27,1.6,1.8
2023-01-05T13:00:00,2213A,123.1683,41.2495,辽阳市,新华园,细颗粒物(PM2.5),104,131,102,78,74,44,35,18,18,46,58,34,38,1.8,2
2023-01-05T13:00:00,2214A,123.2354,41.2639,辽阳市,滨河路,细颗粒物(PM2.5),132,106,82,100,66,48,48,36,36,40,50,26,28,1.4,1.3
2023-01-05T13:00:00,2215A,123.149,41.2991,辽阳市,铁西工业园,细颗粒物(PM2.5),142,147,132,108,97,55,34,19,19,46,57,31,29,1.9,2
2023-01-05T13:00:00,2216A,123.8139,42.3022,铁岭市,汇工街西,细颗粒物(PM2.5),77,87,126,56,102,51,48,25,25,26,59,25,19,1.4,1.9
2023-01-05T13:00:00,2217A,123.8649,42.2923,铁岭市,水上乐园,细颗粒物(PM2.5),88,81,82,65,68,50,50,36,35,32,40,24,18,1.0,1
2023-01-05T13:00:00,2218A,123.8486,42.2867,铁岭市,银州路东段,细颗粒物(PM2.5),77,85,137,56,82,52,49,31,31,40,47,22,17,1.6,1.5
2023-01-05T13:00:00,2219A,123.7153,42.2217,铁岭市,金沙江路北,细颗粒物(PM2.5),104,87,102,78,79,48,47,30,30,41,59,26,20,1.5,1.5
2023-01-05T13:00:00,2220A,120.4318,41.5881,朝阳市,西梁,颗粒物(PM10),81,111,152,52,96,52,32,14,14,37,49,40,38,1.4,1.9
2023-01-05T13:00:00,2221A,120.4521,41.5646,朝阳市,河畔小区,颗粒物(PM10),72,94,115,50,74,38,37,18,18,27,46,26,30,1.5,1.8
2023-01-05T13:00:00,2222A,120.4176,41.5648,朝阳市,八里堡,颗粒物(PM10),70,90,118,48,81,56,37,14,14,34,46,32,34,1.4,1.7
2023-01-05T13:00:00,2223A,120.3806,41.5969,朝阳市,农业园区,颗粒物(PM10),71,91,139,34,81,56,52,19,19,20,50,24,34,1.0,1.9
2023-01-05T13:00:00,2225A,124.4002,43.1713,四平市,一商场,细颗粒物(PM2.5),88,87,89,65,60,58,56,36,36,37,53,26,23,1.4,1
2023-01-05T13:00:00,2226A,124.388,43.193,四平市,境园,细颗粒物(PM2.5),87,92,86,64,58,58,57,28,28,28,46,27,20,1.4,1.1
2023-01-05T13:00:00,2227A,125.1358,42.8845,辽源市,环保局,细颗粒物(PM2.5),127,129,101,96,80,67,54,23,23,27,46,22,12,1.1,1.4
2023-01-05T13:00:00,2229A,125.9358,41.7173,通化市,光明,细颗粒物(PM2.5),144,165,96,110,57,47,28,13,13,,49,58,35,0.9,1.3
2023-01-05T13:00:00,2230A,125.9446,41.7325,通化市,铁路,细颗粒物(PM2.5),144,151,101,110,60,40,24,16,16,69,56,144,34,2.0,1.6
2023-01-05T13:00:00,2231A,126.4219,41.9171,白山市,喜丰,细颗粒物(PM2.5),83,102,83,61,44,47,37,21,21,30,34,17,19,0.9,1
2023-01-05T13:00:00,2232A,126.4077,41.9419,白山市,环保局,细颗粒物(PM2.5),67,59,95,48,52,60,49,23,23,25,43,22,22,1.1,1.4
2023-01-05T13:00:00,2233A,124.8006,45.1214,松原市,江南,细颗粒物(PM2.5),85,89,61,63,48,49,46,30,30,25,26,13,13,0.8,0.7
2023-01-05T13:00:00,2234A,124.7965,45.1722,松原市,江北,细颗粒物(PM2.5),90,104,58,67,35,52,49,34,34,28,27,11,8,0.9,0.7
2023-01-05T13:00:00,2235A,122.7911,45.6077,白城市,洮北区环保局,,46,36,44,32,27,72,59,54,45,12,15,8,6,0.3,0.3
2023-01-05T13:00:00,2236A,122.8738,45.5725,白城市,市环保局,,28,28,44,9,11,81,67,45,39,10,27,5,6,0.3,0.4
2023-01-05T13:00:00,2237A,129.47,42.8883,延边朝鲜族自治州,妇幼医院,,38,38,35,17,24,71,69,43,39,12,23,11,17,0.6,0.7
2023-01-05T13:00:00,2238A,129.5055,42.9108,延边朝鲜族自治州,延边医院,,48,48,32,19,21,71,71,40,34,15,26,11,17,0.7,0.7
2023-01-05T13:00:00,2239A,129.3964,42.8881,延边朝鲜族自治州,朝阳川镇医院,,,44,32,14,19,71,67,39,39,10,13,10,7,,0.6
2023-01-05T13:00:00,2240A,130.9762,45.3001,鸡西市,环保局,,40,40,28,26,19,65,65,64,56,14,16,8,8,0.6,0.4
2023-01-05T13:00:00,2243A,130.9429,45.3039,鸡西市,第一中学,,30,30,25,21,19,71,70,65,62,5,6,6,6,0.6,0.5
2023-01-05T13:00:00,2244A,130.2537,47.3416,鹤岗市,哈啤分公司,,50,45,41,35,28,68,48,62,39,26,18,17,14,0.4,0.5
2023-01-05T13:00:00,2245A,130.2684,47.3086,鹤岗市,斯达机电,,50,50,42,27,24,79,50,73,38,32,20,18,12,0.4,0.4
2023-01-05T13:00:00,2246A,130.3114,47.3388,鹤岗市,东山纸板厂,颗粒物(PM10),58,66,55,36,31,67,45,57,28,26,22,20,17,0.2,0.5
2023-01-05T13:00:00,2247A,130.1097,47.3382,鹤岗市,五号水库(对照点),细颗粒物(PM2.5),52,39,31,36,27,73,70,69,54,8,9,9,8,0.7,0.7
2023-01-05T13:00:00,2248A,131.1511,46.6937,双鸭山市,双合村,细颗粒物(PM2.5),59,32,50,42,37,73,73,57,56,9,17,9,13,0.7,1
2023-01-05T13:00:00,2249A,131.1652,46.6191,双鸭山市,南小市,颗粒物(PM10),56,61,59,30,39,68,68,59,55,11,15,10,14,0.5,0.6
2023-01-05T13:00:00,2250A,131.1524,46.6554,双鸭山市,环保局,细颗粒物(PM2.5),55,52,51,39,43,76,56,60,55,30,22,29,15,1.3,0.8
2023-01-05T13:00:00,2251A,131.12,46.5656,双鸭山市,苗圃(对照点),,45,34,46,31,43,80,80,72,69,14,15,9,9,0.5,0.5
2023-01-05T13:00:00,2252A,128.5159,47.4311,伊春市,环保局,细颗粒物(PM2.5),74,56,51,54,49,67,54,46,25,17,22,10,9,0.7,0.7
2023-01-05T13:00:00,2253A,128.9102,47.7412,伊春市,电力嘉园,细颗粒物(PM2.5),54,49,58,38,42,69,59,42,27,14,26,13,9,0.7,0.8
2023-01-05T13:00:00,2254A,129.5029,48.471,伊春市,汤旺河国家公园(对照点),细颗粒物(PM2.5),52,43,29,36,21,77,74,51,51,6,4,8,6,0.3,0.2
2023-01-05T13:00:00,2255A,130.2751,46.8028,佳木斯市,佳纺,细颗粒物(PM2.5),60,51,60,43,52,68,68,54,50,7,12,5,6,0.4,0.7
2023-01-05T13:00:00,2256A,130.3995,46.8307,佳木斯市,发电厂,细颗粒物(PM2.5),57,42,39,40,36,66,66,53,53,11,19,4,6,0.4,0.5
2023-01-05T13:00:00,2257A,130.3258,46.7975,佳木斯市,环保局,细颗粒物(PM2.5),64,52,44,46,41,62,62,54,47,15,21,7,8,0.3,0.4
2023-01-05T13:00:00,2258A,130.3648,46.8032,佳木斯市,十一中,细颗粒物(PM2.5),57,47,44,40,41,59,58,58,45,21,24,5,5,0.5,0.5
2023-01-05T13:00:00,2259A,130.3794,46.7588,佳木斯市,四丰(对照点),细颗粒物(PM2.5),58,41,41,41,41,83,83,73,73,10,11,1,1,0.4,0.5
2023-01-05T13:00:00,2262A,131.0518,45.8751,七台河市,新一中(对照点),,49,36,46,34,30,80,80,74,62,13,14,15,15,1.0,1.1
2023-01-05T13:00:00,2263A,127.4833,50.2524,黑河市,交通局,,20,13,21,14,20,63,63,52,49,4,11,2,5,0.3,0.5
2023-01-05T13:00:00,2264A,127.5144,50.2341,黑河市,环保局,,15,10,33,7,21,62,47,48,42,6,16,8,12,0.4,0.5
2023-01-05T13:00:00,2265A,127.5291,50.2472,黑河市,大黑河岛(对照点),,19,4,14,6,16,63,60,54,54,2,4,4,5,0.3,0.4
2023-01-05T13:00:00,2266A,126.9785,46.6365,绥化市,人和东街,细颗粒物(PM2.5),145,136,130,111,109,59,49,33,31,,39,12,8,0.8,0.8
2023-01-05T13:00:00,2267A,126.964,46.6528,绥化市,党政办公中心,细颗粒物(PM2.5),158,132,114,120,111,66,57,40,39,38,34,12,8,0.9,0.7
2023-01-05T13:00:00,2269A,124.1069,50.4097,大兴安岭地区,科技局,,18,16,13,10,13,67,56,67,59,6,5,2,4,0.3,0.3
2023-01-05T13:00:00,2270A,117.396,32.939,蚌埠市,工人疗养院,细颗粒物(PM2.5),125,127,120,95,89,125,96,34,34,44,62,17,15,0.7,0.8
2023-01-05T13:00:00,2271A,117.3605,32.9427,蚌埠市,百货大楼,细颗粒物(PM2.5),125,128,120,95,92,113,82,25,25,53,74,20,15,0.6,0.8
2023-01-05T13:00:00,2273A,117.4185,32.8911,蚌埠市,蚌埠学院,细颗粒物(PM2.5),107,114,130,80,87,127,100,42,35,51,64,19,18,0.6,0.7
2023-01-05T13:00:00,2274A,117.3533,32.9673,蚌埠市,淮上区政府,细颗粒物(PM2.5),113,124,132,85,87,115,100,33,33,35,60,17,14,0.6,0.7
2023-01-05T13:00:00,2275A,117.3145,32.8977,蚌埠市,高新区,细颗粒物(PM2.5),110,127,124,83,87,118,77,46,44,68,63,27,12,0.6,0.7
2023-01-05T13:00:00,2277A,116.8305,32.7727,淮南市,潘集区政府,细颗粒物(PM2.5),160,159,144,122,111,104,75,33,33,45,48,13,9,0.7,0.7
2023-01-05T13:00:00,2278A,117.0067,32.6524,淮南市,师范学院,细颗粒物(PM2.5),149,143,125,114,83,107,105,66,36,33,53,16,12,0.9,0.9
2023-01-05T13:00:00,2279A,116.8569,32.5951,淮南市,谢家集区政府,细颗粒物(PM2.5),128,170,106,97,73,109,105,53,53,36,45,18,25,0.6,0.7
2023-01-05T13:00:00,2280A,116.8281,32.633,淮南市,八公山区政府,细颗粒物(PM2.5),115,128,110,87,84,106,89,53,53,36,33,18,14,0.6,0.6
2023-01-05T13:00:00,2281A,116.6325,32.6201,淮南市,焦岗湖风景区管理处(对照点),细颗粒物(PM2.5),117,127,117,88,84,114,80,30,30,5,13,22,19,0.5,0.5
2023-01-05T13:00:00,2282A,116.8004,33.975,淮北市,监测站,细颗粒物(PM2.5),148,178,138,113,98,124,92,73,34,42,46,15,11,0.8,1.3
2023-01-05T13:00:00,2283A,116.8091,33.9007,淮北市,烈山区政府,细颗粒物(PM2.5),124,108,132,94,105,123,113,57,36,45,55,13,8,0.8,0.8
2023-01-05T13:00:00,2284A,116.7856,33.9477,淮北市,职业技术学院,细颗粒物(PM2.5),155,140,144,118,108,123,98,79,42,57,60,16,12,0.8,0.9
2023-01-05T13:00:00,2285A,117.8177,30.9412,铜陵市,市第四中学,细颗粒物(PM2.5),110,162,104,83,66,92,28,10,10,68,68,37,9,1.0,1
2023-01-05T13:00:00,2286A,117.8059,30.9273,铜陵市,市公路局,细颗粒物(PM2.5),100,98,94,75,72,81,37,10,9,52,61,24,9,0.8,0.9
2023-01-05T13:00:00,2287A,117.7807,30.9413,铜陵市,市新民污水厂,细颗粒物(PM2.5),85,103,88,63,56,85,47,12,12,45,65,9,8,0.5,0.5
2023-01-05T13:00:00,2288A,117.7439,30.8792,铜陵市,市第九中学,细颗粒物(PM2.5),99,118,110,74,70,65,28,10,10,61,63,20,12,0.8,0.8
2023-01-05T13:00:00,2289A,117.846,30.9413,铜陵市,车站新区,细颗粒物(PM2.5),122,114,74,92,58,92,15,34,8,89,50,34,9,0.9,0.7
2023-01-05T13:00:00,2290A,117.8483,30.97,铜陵市,市职教基地,细颗粒物(PM2.5),87,97,80,64,54,88,33,33,16,49,40,14,9,0.4,0.4
2023-01-05T13:00:00,2291A,117.0809,30.5177,安庆市,环科院,细颗粒物(PM2.5),108,102,64,81,51,86,,2,2,49,50,9,7,0.9,0.8
2023-01-05T13:00:00,2292A,117.0331,30.5119,安庆市,马山宾馆,细颗粒物(PM2.5),102,100,65,76,59,90,14,25,7,62,47,9,8,1.0,0.9
2023-01-05T13:00:00,2294A,116.9896,30.6145,安庆市,安庆大学,细颗粒物(PM2.5),97,76,69,72,59,98,35,42,15,40,45,8,8,0.8,0.9
2023-01-05T13:00:00,2295A,118.2903,29.6963,黄山市,延安路89号,细颗粒物(PM2.5),72,54,54,52,46,59,25,8,8,26,20,5,4,0.4,0.4
2023-01-05T13:00:00,2296A,118.327,29.7178,黄山市,黄山东路89号,细颗粒物(PM2.5),68,60,53,49,44,54,21,7,7,29,25,6,6,0.8,0.7
2023-01-05T13:00:00,2297A,118.1371,30.2756,黄山市,黄山区政府5号楼,,34,34,30,20,17,74,43,18,18,14,13,6,5,0.7,0.6
2023-01-05T13:00:00,2298A,118.3093,32.3153,滁州市,老年大学,细颗粒物(PM2.5),109,102,105,82,78,124,91,33,31,52,62,13,10,0.8,0.8
2023-01-05T13:00:00,2299A,118.3244,32.2786,滁州市,人大宾馆,细颗粒物(PM2.5),87,119,109,64,60,111,92,33,33,57,66,13,9,0.7,0.7
2023-01-05T13:00:00,2301A,115.8277,32.8929,阜阳市,市监测站,细颗粒物(PM2.5),137,138,156,104,130,114,73,26,26,46,68,14,10,0.6,0.9
2023-01-05T13:00:00,2303A,115.8554,32.8605,阜阳市,开发区,细颗粒物(PM2.5),155,170,187,118,131,122,80,52,34,51,58,12,8,0.9,1.1
2023-01-05T13:00:00,2307A,116.5079,31.737,六安市,监测大楼,细颗粒物(PM2.5),127,127,94,96,72,97,28,40,10,66,42,,7,0.6,0.5
2023-01-05T13:00:00,2308A,116.4738,31.7643,六安市,皖西学院,细颗粒物(PM2.5),113,127,97,85,66,106,32,25,12,64,48,11,6,0.6,0.5
2023-01-05T13:00:00,2309A,116.4996,31.7905,六安市,朝阳厂,细颗粒物(PM2.5),125,121,95,95,73,101,26,14,14,68,54,9,6,,0.6
2023-01-05T13:00:00,2310A,116.5567,31.7886,六安市,开发区,细颗粒物(PM2.5),120,150,118,91,73,104,33,33,12,67,49,16,9,0.6,0.6
2023-01-05T13:00:00,2311A,115.8072,33.8399,亳州市,污水处理厂,细颗粒物(PM2.5),160,147,170,122,142,111,72,48,25,34,43,10,9,0.8,0.9
2023-01-05T13:00:00,2312A,115.7789,33.8518,亳州市,三国揽胜宫,细颗粒物(PM2.5),195,210,202,146,153,124,81,56,28,39,47,10,9,0.9,1
2023-01-05T13:00:00,2314A,117.47,30.6618,池州市,池州学院,细颗粒物(PM2.5),139,138,88,106,72,94,9,8,6,66,47,14,6,0.9,0.8
2023-01-05T13:00:00,2316A,118.7581,30.9454,宣城市,鳌峰子站,细颗粒物(PM2.5),97,92,83,72,57,85,61,50,31,28,41,8,8,0.8,0.7
2023-01-05T13:00:00,2317A,118.7385,30.9743,宣城市,敬亭山子站,细颗粒物(PM2.5),88,109,80,65,52,85,58,45,33,42,47,13,8,0.8,0.6
2023-01-05T13:00:00,2318A,118.7173,30.9427,宣城市,开发区子站,细颗粒物(PM2.5),84,88,78,62,55,91,74,55,27,28,44,9,5,0.7,0.7
2023-01-05T13:00:00,2319A,119.0141,25.4325,莆田市,荔城区仓后路,,36,36,32,17,16,81,69,80,69,17,11,7,6,0.6,0.6
2023-01-05T13:00:00,2320A,119.0015,25.4553,莆田市,莆田市监测站,,26,20,30,13,17,83,82,82,78,7,6,6,6,0.5,0.5
2023-01-05T13:00:00,2321A,119.1119,25.4561,莆田市,涵江区六中,,36,36,32,19,21,80,71,74,63,18,12,4,4,0.6,0.5
2023-01-05T13:00:00,2322A,119.1013,25.3215,莆田市,秀屿区政府,,37,37,35,20,20,86,76,82,67,15,13,7,7,0.5,0.5
2023-01-05T13:00:00,2323A,118.981,25.4792,莆田市,东圳水库(对照点),,,,,,,,,,,,,,,,
2023-01-05T13:00:00,2324A,117.6211,26.2625,三明市,三钢,,37,37,31,19,23,67,67,42,42,14,22,7,10,0.4,0.5
2023-01-05T13:00:00,2325A,117.635,26.2714,三明市,三明二中,,,34,30,23,22,61,61,43,43,,16,11,13,0.4,0.5
2023-01-05T13:00:00,2326A,117.6028,26.2378,三明市,三元区政府,,32,32,31,15,20,69,69,45,45,14,21,3,7,0.6,0.7
2023-01-05T13:00:00,2327A,117.7275,26.3108,三明市,洋溪(对照点),,,,,,,,,,,,,,,,
2023-01-05T13:00:00,2331A,118.0966,26.6761,南平市,茫荡山(对照点),,,,,,,,,,,,,,,,
2023-01-05T13:00:00,2332A,118.1681,26.6369,南平市,南平市监测站,,26,24,32,18,27,57,57,23,23,10,23,4,4,0.3,0.6
2023-01-05T13:00:00,2333A,118.1825,26.6489,南平市,南平铝业有限公司,,23,18,34,16,25,55,55,22,22,11,25,4,8,0.6,0.8
2023-01-05T13:00:00,2334A,118.1756,26.6272,南平市,南平七中,,39,39,31,15,26,60,60,29,24,14,18,4,4,0.4,0.5
2023-01-05T13:00:00,2335A,117.0189,25.1181,龙岩市,龙岩师专(对照点),,,,,,,,,,,,,,,,
2023-01-05T13:00:00,2336A,117.0217,25.1033,龙岩市,龙岩市监测站,,24,11,17,12,17,75,75,50,50,9,14,8,10,0.5,0.5
2023-01-05T13:00:00,2337A,117.0258,25.0661,龙岩市,闽西职业技术学院,,29,29,21,13,16,69,69,46,46,8,10,9,9,0.5,0.5
2023-01-05T13:00:00,2338A,117.0196,25.0306,龙岩市,龙岩学院,,36,36,26,12,16,67,67,40,40,11,14,7,6,0.4,0.5
2023-01-05T13:00:00,2339A,119.5001,26.6946,宁德市,金涵水库(对照点),,,,,,,,,,,,,,,,
2023-01-05T13:00:00,2341A,119.5388,26.6612,宁德市,宁德市监测站,,46,46,35,25,24,65,41,29,25,23,20,4,4,0.6,0.6
2023-01-05T13:00:00,2342A,117.3102,29.3867,景德镇市,王港中学(对照点),,,,,,,,,,,,,,,,
2023-01-05T13:00:00,2343A,117.2117,29.2933,景德镇市,老干部活动中心,,50,50,58,23,28,66,48,30,30,10,18,5,5,0.6,0.7
2023-01-05T13:00:00,2344A,117.1894,29.2789,景德镇市,兽医站,,44,44,34,23,27,74,46,36,36,8,15,6,6,0.6,0.6
2023-01-05T13:00:00,2345A,117.1547,29.2617,景德镇市,台达陶瓷,,44,44,31,20,22,71,46,37,33,17,19,4,5,0.7,0.7
2023-01-05T13:00:00,2346A,117.2461,29.2956,景德镇市,陶研所,,38,22,45,26,20,70,48,25,25,11,16,4,4,0.6,0.6
2023-01-05T13:00:00,2347A,114.0997,27.5002,萍乡市,武功山(对照点),,35,31,44,24,37,73,68,27,27,17,19,10,10,0.6,0.7
2023-01-05T13:00:00,2348A,113.8385,27.6434,萍乡市,中医院,细颗粒物(PM2.5),89,71,74,66,53,93,70,39,39,34,34,22,16,2.0,1.2
2023-01-05T13:00:00,2349A,113.8493,27.6253,萍乡市,市政府车库,细颗粒物(PM2.5),123,106,84,93,67,97,68,30,30,26,27,34,24,2.0,2
2023-01-05T13:00:00,2350A,113.8676,27.6435,萍乡市,市环保局,细颗粒物(PM2.5),78,83,71,57,54,91,65,33,33,24,25,32,23,1.5,0.8
2023-01-05T13:00:00,2351A,113.866,27.6198,萍乡市,安源区政府,细颗粒物(PM2.5),103,77,82,77,62,92,65,33,26,,38,27,23,1.9,1.3
2023-01-05T13:00:00,2352A,115.0861,27.9317,新余市,北岗(对照点),,45,44,58,31,34,58,58,28,28,16,21,10,11,0.0,0.2
2023-01-05T13:00:00,2353A,114.9886,27.8431,新余市,飞宇,颗粒物(PM10),57,63,61,32,33,60,60,23,23,17,37,17,13,0.5,0.5
2023-01-05T13:00:00,2354A,114.9231,27.8246,新余市,第二水厂,颗粒物(PM10),60,70,73,37,40,54,54,22,22,24,41,14,15,0.3,0.5
2023-01-05T13:00:00,2355A,114.9308,27.8036,新余市,市气象局,,,62,62,26,45,52,,20,20,27,37,16,12,0.7,0.8
2023-01-05T13:00:00,2357A,116.9822,28.1136,鹰潭市,龙虎山(对照点),"颗粒物(PM10),细颗粒物(PM2.5)",55,60,48,39,40,80,63,34,34,26,21,15,10,0.5,0.4
2023-01-05T13:00:00,2358A,117.0564,28.2642,鹰潭市,新监测站,细颗粒物(PM2.5),55,46,52,39,42,70,56,26,26,28,30,18,24,1.2,0.5
2023-01-05T13:00:00,2359A,117.0311,28.2475,鹰潭市,财苑宾馆,细颗粒物(PM2.5),52,52,57,36,41,74,56,29,29,25,26,19,25,0.6,0.5
2023-01-05T13:00:00,2360A,117.0222,28.2264,鹰潭市,体育馆,细颗粒物(PM2.5),62,56,52,44,46,64,55,27,27,30,33,24,20,0.7,0.6
2023-01-05T13:00:00,2361A,117.0017,28.2131,鹰潭市,三川水表,,,58,59,53,51,61,,21,21,30,37,20,19,,0.6
2023-01-05T13:00:00,2362A,114.9017,25.9149,赣州市,通天岩(对照点),,32,25,25,22,27,81,79,64,63,5,9,1,8,1.0,1
2023-01-05T13:00:00,2363A,114.9367,25.8664,赣州市,地委,,48,40,49,33,33,88,88,67,67,14,16,37,15,0.9,0.8
2023-01-05T13:00:00,2364A,114.9461,25.8481,赣州市,气象台,,48,43,44,33,35,73,73,54,54,14,18,8,7,0.7,0.7
2023-01-05T13:00:00,2365A,114.9322,25.8333,赣州市,市图书馆,,,50,53,33,37,78,75,59,59,,19,7,8,0.9,1
2023-01-05T13:00:00,2366A,114.8905,25.8471,赣州市,华坚鞋城,颗粒物(PM10),52,54,52,29,31,64,59,57,50,17,16,9,3,0.8,0.9
2023-01-05T13:00:00,2367A,114.9754,27.0803,吉安市,红声器材厂,颗粒物(PM10),55,60,57,33,37,86,75,44,40,21,27,17,10,0.6,0.7
2023-01-05T13:00:00,2368A,114.9658,27.0999,吉安市,市森林工业局,细颗粒物(PM2.5),59,62,53,42,42,84,74,42,38,20,26,12,9,0.5,0.6
2023-01-05T13:00:00,2369A,114.99,27.1312,吉安市,市环境监测站,细颗粒物(PM2.5),54,56,52,38,38,85,74,41,40,22,26,5,5,0.7,0.7
