timepoint,stationcode,longitude,latitude,area,positionname,primarypollutant,aqi,pm10,pm10_24h,pm2_5,pm2_5_24h,o3,o3_24h,o3_8h,o3_8h_24h,no2,no2_24h,so2,so2_24h,co,co_24h
2026-03-06T1600,2568A,102.2503,31.8896,阿坝藏族羌族自治州,马师校,,26,26,26,10,12,83,83,62,62,8,8,5,5,0.4,0.4
2026-03-06T1600,3994A,102.2174,31.9016,阿坝藏族羌族自治州,马尔康中学西区,,25,19,26,12,13,80,80,62,62,7,8,5,5,0.4,0.4
2026-03-06T1600,2695A,80.2899,41.1684,阿克苏地区,电视台,颗粒物(PM10),186,322,299,87,88,99,99,72,59,10,20,6,5,1.2,1.4
2026-03-06T1600,2696A,80.2592,41.1541,阿克苏地区,艺术中心,颗粒物(PM10),174,298,294,87,92,112,112,74,52,12,27,6,6,0.8,0.9
2026-03-06T1600,2205A,105.699,38.8409,阿拉善盟,蒙二幼,颗粒物(PM10),53,53,24,6,4,98,98,84,84,4,6,9,8,0.4,0.4
2026-03-06T1600,2206A,105.7198,38.8508,阿拉善盟,环保局新楼,,36,36,18,8,4,95,95,85,85,4,5,8,8,0.4,0.4
2026-03-06T1600,2708A,88.1266,47.8515,阿勒泰地区,市站,,32,6,4,3,2,102,102,96,94,8,11,2,3,0.2,0.2
2026-03-06T1600,4166A,88.1198,47.7931,阿勒泰地区,阿勒泰路33号,,32,6,5,3,1,102,102,91,90,4,14,6,7,0.2,0.2
2026-03-06T1600,2630A,80.1171,32.4999,阿里地区,阿里监测站,,39,8,10,3,4,124,124,91,91,1,6,6,8,0.2,0.3
2026-03-06T1600,3192A,80.0906,32.5029,阿里地区,阿里藏医院,NA,NA,8,9,3,3,131,131,94,94,NA,5,7,9,0.1,0.2
2026-03-06T1600,2644A,109.0088,32.6974,安康市,汉滨区检察院,,42,42,46,28,24,72,72,53,53,7,15,2,3,0.5,0.5
2026-03-06T1600,4054A,109.0324,32.6913,安康市,市邮政管理局,,46,46,53,31,29,67,67,48,48,9,20,4,6,0.7,0.8
2026-03-06T1600,2291A,117.0806,30.5181,安庆市,环科院,颗粒物(PM10),55,56,62,36,41,94,94,76,76,8,10,7,7,0.7,0.6
2026-03-06T1600,2292A,117.0331,30.5118,安庆市,马山宾馆,"颗粒物(PM10),细颗粒物(PM2.5)",58,60,65,39,44,91,91,74,74,15,16,5,5,0.7,0.7
2026-03-06T1600,2294A,116.9897,30.6146,安庆市,安庆大学,NA,NA,31,50,NA,32,94,94,77,77,8,8,4,4,0.7,0.6
2026-03-06T1600,3173A,117.0598,30.5351,安庆市,市人大,颗粒物(PM10),64,69,68,34,38,94,94,78,78,15,17,5,5,0.7,0.7
2026-03-06T1600,3123A,105.9408,26.2431,安顺市,凤凰山,,48,39,45,33,39,36,36,36,32,11,12,10,14,0.6,0.7
2026-03-06T1600,3124A,105.9443,26.2567,安顺市,金钟山,,36,31,39,25,39,37,37,36,34,8,9,11,14,0.7,0.7
2026-03-06T1600,3125A,105.8983,26.248,安顺市,娄家坡,,43,39,44,30,36,36,36,37,34,13,11,14,14,0.6,0.7
2026-03-06T1600,1819A,114.3552,36.1017,安阳市,红庙街,细颗粒物(PM2.5),62,51,60,41,61,72,72,55,55,7,14,1,1,0.4,0.6
2026-03-06T1600,1820A,114.361,36.0681,安阳市,银杏小区,细颗粒物(PM2.5),82,54,63,51,66,78,78,58,58,9,16,2,2,0.4,0.8
2026-03-06T1600,3141A,114.3921,36.0879,安阳市,信访局,细颗粒物(PM2.5),72,55,62,46,64,79,79,59,59,8,15,2,2,0.5,0.8
2026-03-06T1600,3669A,114.4706,36.0634,安阳市,左辅环卫站,颗粒物(PM10),55,56,80,36,58,82,82,64,64,3,8,1,2,0.4,0.6
2026-03-06T1600,4117A,114.2918,36.0769,安阳市,钢三路198号,细颗粒物(PM2.5),78,64,81,49,66,71,71,55,55,11,17,1,1,0.5,0.8
2026-03-06T1600,1748A,123.0441,41.1201,鞍山市,深沟寺,,28,26,33,12,22,87,87,75,75,8,16,6,9,0.5,0.6
2026-03-06T1600,1749A,123.011,41.0931,鞍山市,太阳城,,28,20,30,14,24,88,88,76,76,8,16,9,12,0.4,0.6
2026-03-06T1600,1750A,123.0483,41.1445,鞍山市,太平,,31,31,37,13,22,89,89,77,77,8,15,8,11,0.5,0.6
2026-03-06T1600,1751A,122.964,41.0968,鞍山市,铁西三道街,,35,35,43,18,30,85,85,72,72,14,27,12,20,0.9,1.6
2026-03-06T1600,1753A,123.0219,41.0822,鞍山市,明达新区,,27,24,31,13,22,85,85,74,74,9,15,10,11,0.5,0.6
2026-03-06T1600,4201A,122.944647,41.082639,鞍山市,兴盛南路290号,,34,34,35,18,23,87,87,77,77,10,18,6,9,0.5,0.9
2026-03-06T1600,2195A,107.4206,40.7609,巴彦淖尔市,附二中,,28,28,37,9,13,85,85,68,68,3,10,8,9,0.3,0.3
2026-03-06T1600,2196A,107.37,40.7372,巴彦淖尔市,市环保大楼,,27,26,37,3,12,86,86,70,70,5,10,6,7,0.4,0.4
2026-03-06T1600,1956A,86.1476,41.7529,巴音郭楞蒙古自治州,孔雀公园,颗粒物(PM10),66,72,121,11,38,96,96,87,78,10,14,10,10,0.3,0.4
2026-03-06T1600,1957A,86.1971,41.7166,巴音郭楞蒙古自治州,棉纺厂,颗粒物(PM10),60,63,125,10,39,96,96,84,84,4,12,/,/,/,/
2026-03-06T1600,1958A,86.236,41.7172,巴音郭楞蒙古自治州,经济开发区,颗粒物(PM10),66,72,98,13,32,87,87,81,81,6,8,10,8,0.3,0.4
2026-03-06T1600,3181A,106.776805,31.852614,巴中市,市五中,,28,28,40,18,30,80,80,59,59,11,19,7,7,0.7,0.8
2026-03-06T1600,3183A,106.7419,31.8654,巴中市,圣泉水务公司,,27,26,41,15,31,85,85,56,56,5,32,9,9,0.8,1
2026-03-06T1600,3616A,106.7617,31.8343,巴中市,市中心医院,,27,20,43,15,30,85,85,56,56,3,23,8,8,0.6,0.8
2026-03-06T1600,2235A,122.7909,45.608,白城市,洮北区环保局,,28,18,26,3,14,87,87,82,82,8,14,5,6,0.1,0.2
2026-03-06T1600,2236A,122.8741,45.5725,白城市,市环保局,,29,14,20,10,13,91,91,88,88,1,14,4,4,0.3,0.4
2026-03-06T1600,2231A,126.4219,41.9172,白山市,喜丰,,29,25,35,10,22,92,92,88,88,7,11,6,7,0.6,0.8
2026-03-06T1600,2232A,126.4082,41.9416,白山市,环保局,,30,25,30,11,25,93,93,88,88,6,10,6,8,0.7,0.7
2026-03-06T1600,2647A,104.1727,36.5448,白银市,第三小学,颗粒物(PM10),73,82,88,35,33,108,108,80,80,37,17,53,32,0.4,0.5
2026-03-06T1600,2648A,104.1467,36.5482,白银市,动力公司,颗粒物(PM10),71,79,76,33,28,109,109,84,84,17,12,42,13,0.6,0.7
2026-03-06T1600,2512A,106.6102,23.901,百色市,市监测站,,32,28,50,22,33,79,79,55,55,10,20,12,11,0.6,0.7
2026-03-06T1600,2513A,106.6524,23.8842,百色市,市中心血站,,36,36,51,23,41,82,82,56,56,13,26,13,12,0.8,0.9
2026-03-06T1600,4133A,106.6273,23.8798,百色市,龙景西路,,39,29,61,27,40,79,79,52,52,9,19,14,14,0.6,0.7
2026-03-06T1600,2270A,117.396,32.9389,蚌埠市,工人疗养院,细颗粒物(PM2.5),131,132,84,94,60,54,54,44,44,27,33,3,4,1.0,0.8
2026-03-06T1600,2271A,117.3606,32.9428,蚌埠市,百货大楼,细颗粒物(PM2.5),124,134,81,86,56,50,50,42,42,29,30,6,6,1.0,0.8
2026-03-06T1600,2273A,117.4183,32.8909,蚌埠市,蚌埠学院,细颗粒物(PM2.5),126,110,68,88,58,54,54,45,45,25,32,4,4,0.9,0.7
2026-03-06T1600,2274A,117.3534,32.9672,蚌埠市,淮上区政府,细颗粒物(PM2.5),139,132,77,102,64,48,48,43,43,27,34,4,4,1.0,0.8
2026-03-06T1600,2275A,117.3143,32.8977,蚌埠市,高新区,细颗粒物(PM2.5),122,102,76,84,62,62,62,44,44,25,36,6,6,0.9,0.8
2026-03-06T1600,3715A,117.3091,32.9314,蚌埠市,蚌埠田家炳中学,细颗粒物(PM2.5),130,133,96,92,60,57,57,43,43,25,40,4,6,0.9,0.7
2026-03-06T1600,1585A,109.8761,40.6533,包头市,市环境监测站,,29,22,30,13,10,90,90,67,67,8,20,5,6,0.4,0.5
2026-03-06T1600,1587A,109.9992,40.5843,包头市,包头八中,,26,18,33,9,16,81,81,61,61,8,21,8,9,0.4,0.6
2026-03-06T1600,1589A,109.8641,40.6288,包头市,惠龙物流,,30,30,24,21,14,85,85,66,66,8,19,6,6,0.5,0.6
2026-03-06T1600,1590A,110.0376,40.5546,包头市,东河鸿龙湾,,28,24,28,13,17,87,87,65,65,8,25,8,8,0.4,0.6
2026-03-06T1600,3283A,109.9154,40.5684,包头市,滨河大厦,,27,19,21,12,10,85,85,64,64,9,23,8,7,0.4,0.5
2026-03-06T1600,3419A,109.9449,40.6259,包头市,包头市委党校,,27,25,31,14,11,86,86,67,67,9,22,8,10,0.2,0.4
2026-03-06T1600,3683A,109.8332,40.6577,包头市,昆区政府,,28,27,23,15,11,88,88,66,66,13,20,8,8,0.5,0.5
2026-03-06T1600,1931A,107.0802,34.3129,宝鸡市,竹园沟,颗粒物(PM10),61,65,61,28,21,93,93,76,76,18,19,9,7,0.4,0.3
2026-03-06T1600,1933A,107.1429,34.3549,宝鸡市,监测站,颗粒物(PM10),80,92,76,28,21,84,84,69,69,17,19,6,6,0.5,0.4
2026-03-06T1600,1934A,107.1172,34.3759,宝鸡市,技工学校,细颗粒物(PM2.5),72,78,81,46,30,95,95,78,78,20,22,6,6,0.5,0.5
2026-03-06T1600,1936A,107.2025,34.3518,宝鸡市,文理学院,NA,NA,75,76,40,29,97,97,78,78,NA,21,5,5,0.6,0.5
2026-03-06T1600,1937A,107.2396,34.3626,宝鸡市,三迪小学,颗粒物(PM10),66,72,84,40,30,99,99,78,78,16,23,6,6,0.6,0.5
2026-03-06T1600,4155A,107.1721,34.3558,宝鸡市,滨河北路,颗粒物(PM10),77,87,78,39,30,92,92,76,76,15,20,6,6,0.4,0.4
2026-03-06T1600,4308A,107.3898,34.3601,宝鸡市,陈仓区北开路21号,颗粒物(PM10),70,77,100,44,36,96,96,77,77,16,26,8,9,0.5,0.4
2026-03-06T1600,1051A,115.4803,38.8568,保定市,游泳馆,NA,NA,39,63,NA,65,87,87,60,60,9,22,1,2,0.4,0.6
2026-03-06T1600,1052A,115.509,38.8895,保定市,华电二区,,35,29,55,24,52,89,89,59,59,16,20,3,2,0.2,0.6
2026-03-06T1600,1053A,115.4588,38.9037,保定市,接待中心,,44,44,64,30,53,82,82,58,58,5,16,1,1,0.2,0.4
2026-03-06T1600,1054A,115.4484,38.8344,保定市,地表水厂,,46,46,66,27,49,86,86,57,57,10,24,4,4,0.2,0.5
2026-03-06T1600,3581A,115.3136,38.9511,保定市,满城区生态环境分局,,44,44,65,28,47,85,85,65,65,13,23,3,3,0.0,0.4
2026-03-06T1600,3582A,115.4709,38.7628,保定市,清苑区第二中学,颗粒物(PM10),51,51,70,29,51,90,90,60,60,5,22,2,2,0.4,0.7
2026-03-06T1600,3583A,115.6231,39.0223,保定市,徐水物探局,,42,40,72,29,58,87,87,61,61,8,27,3,3,0.3,0.7
2026-03-06T1600,4004A,115.4199,38.8665,保定市,双鹰农机,,43,43,76,19,54,91,91,65,65,17,24,6,5,0.5,0.7
2026-03-06T1600,4034A,115.515,38.8589,保定市,植保所站,,42,42,71,25,55,87,87,66,58,10,26,3,3,0.4,0.7
2026-03-06T1600,2594A,99.1589,25.1137,保山市,市环境监测站,细颗粒物(PM2.5),104,90,88,64,66,159,159,127,127,8,12,3,5,NA,0.4
2026-03-06T1600,2595A,99.1616,25.1381,保山市,市环保局,细颗粒物(PM2.5),107,106,96,67,68,NA,NA,122,111,7,10,4,4,0.7,0.6
2026-03-06T1600,1867A,109.1435,21.4085,北海市,海滩公园,,38,30,30,23,17,121,121,88,88,10,14,4,4,0.7,0.6
2026-03-06T1600,1868A,109.0983,21.466,北海市,新市环保局,,39,31,29,18,18,122,122,88,88,11,16,7,8,0.7,0.5
2026-03-06T1600,1869A,109.1775,21.5232,北海市,北海工业园,,41,41,36,23,22,119,119,84,84,9,12,7,7,0.9,0.8
2026-03-06T1600,3400A,109.1844,21.4396,北海市,龙潭自来水厂,,35,34,30,16,22,110,110,80,80,6,13,10,10,0.9,0.9
2026-03-06T1600,1001A,116.3611,39.8786,北京市,万寿西宫,,26,10,48,6,43,83,83,74,74,17,41,3,2,0.3,0.7
2026-03-06T1600,1003A,116.4174,39.9289,北京市,东四,,25,10,48,6,42,78,78,67,67,8,27,6,5,0.4,0.8
2026-03-06T1600,1004A,116.4073,39.8858,北京市,天坛,,25,9,43,6,38,79,79,70,70,8,22,3,2,0.5,0.8
2026-03-06T1600,1005A,116.4622,39.9364,北京市,农展馆,,26,9,47,3,41,82,82,75,75,7,26,5,4,0.4,0.8
2026-03-06T1600,1006A,116.3399,39.9293,北京市,官园,,24,9,43,6,37,74,74,65,65,12,28,4,4,0.3,0.7
2026-03-06T1600,1007A,116.2879,39.9613,北京市,海淀万柳,,20,9,35,6,32,61,61,56,56,18,32,3,3,0.3,0.7
2026-03-06T1600,1008A,116.6635,40.1349,北京市,顺义新城,,28,7,43,3,36,89,89,84,84,3,17,3,3,0.2,0.5
2026-03-06T1600,1009A,116.6275,40.327,北京市,怀柔镇,,26,7,32,3,29,81,81,73,73,4,13,4,4,0.4,0.6
2026-03-06T1600,1010A,116.2295,40.217,北京市,昌平镇,,25,12,31,6,25,78,78,63,63,12,26,2,2,0.4,0.7
2026-03-06T1600,1011A,116.3968,39.982,北京市,奥体中心,,22,9,46,6,38,70,70,65,65,6,25,4,3,0.4,0.7
2026-03-06T1600,3418A,116.8336,40.4095,北京市,密云新城,,27,6,32,3,27,85,85,80,80,11,9,3,2,0.3,0.5
2026-03-06T1600,3671A,116.0879,39.9725,北京市,门头沟三家店,,24,12,35,7,29,75,75,63,63,12,26,4,3,0.4,0.6
2026-03-06T1600,3672A,116.1507,39.8246,北京市,丰台云岗,,25,10,43,7,36,80,80,61,61,10,29,3,2,0.4,0.8
2026-03-06T1600,3674A,115.9578,39.7602,北京市,房山燕山,,27,27,36,17,31,72,72,61,61,17,20,3,3,0.3,0.5
2026-03-06T1600,3675A,116.4669,39.7734,北京市,大兴旧宫,,25,9,54,6,45,79,79,64,64,14,28,4,3,0.4,0.8
2026-03-06T1600,3694A,115.9859,40.4562,北京市,延庆石河营,,26,10,17,6,14,81,81,68,68,5,19,2,2,0.3,0.4
2026-03-06T1600,3695A,116.6151,40.3052,北京市,怀柔新城,,26,7,33,3,33,82,82,73,73,7,11,3,2,0.3,0.5
2026-03-06T1600,3696A,116.2542,39.8764,北京市,丰台小屯,,23,10,49,7,39,73,73,59,59,11,41,4,3,0.2,0.6
2026-03-06T1600,3697A,116.8399,40.3843,北京市,密云镇,,27,6,33,3,30,85,85,79,79,4,10,3,3,0.3,0.5
2026-03-06T1600,4057A,115.9423,40.4431,北京市,延庆百泉,,26,8,18,3,14,82,82,70,70,9,14,1,3,0.3,0.4
2026-03-06T1600,4058A,116.6598,39.9164,北京市,通州新华,,26,9,52,3,42,82,82,70,70,10,33,3,3,0.3,0.6
2026-03-06T1600,4182A,116.1942,39.9158,北京市,石景山八角,,23,11,39,6,30,71,71,56,56,6,27,4,3,0.2,0.6
2026-03-06T1600,4194A,117.078628,40.151726,北京市,平谷新城,,27,6,46,3,42,84,84,75,75,9,18,3,3,0.2,0.5
2026-03-06T1600,1761A,123.8274146,41.31234549,本溪市,大峪,,29,29,38,16,30,86,86,73,73,10,19,10,10,0.4,0.7
2026-03-06T1600,1763A,123.7169,41.3094,本溪市,彩屯,,33,33,38,17,28,88,88,76,76,12,17,7,8,0.5,0.6
2026-03-06T1600,1764A,123.7672166,41.28649327,本溪市,东明,颗粒物(PM10),55,56,42,16,28,83,83,71,71,14,18,8,9,0.5,0.7
2026-03-06T1600,1765A,123.799345,41.266614,本溪市,新立屯,,35,35,38,15,27,77,77,65,65,6,11,6,7,0.5,0.7
2026-03-06T1600,1766A,123.829144,41.336777,本溪市,威宁,,37,37,32,16,25,89,89,76,76,8,17,7,6,0.5,0.6
2026-03-06T1600,2587A,105.287,27.3133,毕节市,八中,细颗粒物(PM2.5),68,54,44,44,34,38,38,34,34,16,13,12,11,0.9,0.8
2026-03-06T1600,2588A,105.3079,27.2987,毕节市,师专,"颗粒物(PM10),细颗粒物(PM2.5)",52,52,44,36,33,41,41,36,36,15,12,17,12,0.7,0.6
2026-03-06T1600,4263A,105.3688,27.3598,毕节市,工业大道,细颗粒物(PM2.5),56,52,45,38,32,42,42,42,41,16,13,9,10,/,/
2026-03-06T1600,1629A,117.9961,37.3604,滨州市,第二水厂,细颗粒物(PM2.5),60,51,46,40,36,85,85,77,77,12,12,9,8,0.3,0.3
2026-03-06T1600,1630A,117.9789,37.3931,滨州市,北中新校,细颗粒物(PM2.5),52,51,50,36,34,83,83,75,73,15,15,9,8,0.2,0.4
2026-03-06T1600,3514A,117.9379,37.3959,滨州市,中海酒店,细颗粒物(PM2.5),52,48,47,36,35,89,89,79,79,19,18,7,6,0.6,0.6
2026-03-06T1600,3515A,117.9381509,37.35547456,滨州市,开发区一中,颗粒物(PM10),51,51,50,35,36,85,85,77,77,8,10,9,9,0.6,0.6
2026-03-06T1600,3516A,118.0914,37.6938,滨州市,金海六路,,39,39,43,19,32,96,96,82,82,9,13,5,11,0.7,0.7
2026-03-06T1600,4028A,117.9955,37.3752,滨州市,滨州市西街道办事处,细颗粒物(PM2.5),60,48,47,40,37,87,87,79,79,10,9,12,11,0.4,0.4
2026-03-06T1600,2311A,115.8071,33.8399,亳州市,污水处理厂,细颗粒物(PM2.5),100,NA,68,60,53,80,80,66,66,13,15,3,3,0.4,0.4
2026-03-06T1600,2312A,115.7789,33.8519,亳州市,三国揽胜宫,细颗粒物(PM2.5),101,97,81,61,57,74,74,63,63,10,12,4,4,0.4,0.5
2026-03-06T1600,3332A,115.7631,33.803,亳州市,亳州学院,细颗粒物(PM2.5),101,90,79,61,52,73,73,62,62,10,11,3,3,0.6,0.5
2026-03-06T1600,2693A,82.0482,44.8553,博尔塔拉蒙古自治州,市党校,颗粒物(PM10),56,58,56,27,25,95,95,81,74,17,18,6,4,0.4,0.5
2026-03-06T1600,2694A,82.0805,44.8966,博尔塔拉蒙古自治州,市环保局,,42,40,46,29,28,79,79,83,64,25,19,4,2,0.7,0.6
2026-03-06T1600,1071A,116.8733,38.2922,沧州市,沧县城建局,,38,30,65,26,52,89,89,68,68,7,19,2,2,0.3,0.4
2026-03-06T1600,1072A,116.8462,38.3189,沧州市,电视转播站,,42,42,61,29,55,91,91,67,67,13,25,1,2,0.4,0.6
2026-03-06T1600,1073A,116.8588,38.3161,沧州市,市环保局,,43,38,66,30,54,86,86,64,64,8,21,1,3,0.3,0.5
2026-03-06T1600,3324A,116.8011,38.294,沧州市,河北水利电力学院,,49,36,56,34,55,79,79,64,64,8,22,3,3,0.2,0.5
2026-03-06T1600,2622A,97.1813,31.1289,昌都市,昌都监测站,,26,19,39,3,18,82,82,56,56,3,18,4,4,0.4,0.8
2026-03-06T1600,3719A,97.1707,31.1428,昌都市,昌都会议中心,NA,NA,20,30,20,17,90,90,64,64,NA,10,5,5,NA,0.6
2026-03-06T1600,2692A,87.2722,44.0298,昌吉回族自治州,新区政务中心,细颗粒物(PM2.5),120,NA,69,81,76,138,138,108,108,20,24,9,6,0.7,0.7
2026-03-06T1600,3613A,87.3069,44.0093,昌吉回族自治州,亚心广场,细颗粒物(PM2.5),106,88,88,66,67,140,140,114,114,21,20,13,10,0.8,0.7
2026-03-06T1600,4164A,87.2057,43.9289,昌吉回族自治州,财政所,细颗粒物(PM2.5),106,95,92,66,65,141,141,106,106,11,15,10,7,0.7,0.8
2026-03-06T1600,1120A,125.2874,43.9024,长春市,客车厂,,25,25,31,15,25,75,75,76,76,15,16,12,8,0.3,0.4
2026-03-06T1600,1121A,125.2943,43.8508,长春市,邮电学院,,25,22,32,15,26,78,78,74,74,9,14,9,9,0.3,0.4
2026-03-06T1600,1122A,125.3648,43.8745,长春市,劳动公园,,26,26,44,15,27,81,81,74,74,10,18,7,8,0.6,0.6
2026-03-06T1600,1123A,125.3233,43.8781,长春市,园林处,,26,25,35,16,28,82,82,74,74,9,17,7,8,0.2,0.4
2026-03-06T1600,1124A,125.4604,43.7904,长春市,净月潭,,30,30,32,11,25,88,88,83,83,6,13,7,7,0.2,0.3
2026-03-06T1600,1126A,125.38,43.8422,长春市,经开区环卫处,,28,24,38,14,28,89,89,81,81,6,15,4,7,0.3,0.4
2026-03-06T1600,1127A,125.234,43.7761,长春市,高新区管委会,,26,24,30,13,22,83,83,76,76,8,18,6,8,0.4,0.5
2026-03-06T1600,1128A,125.1695,43.83,长春市,岱山公园,,33,33,36,19,29,80,80,75,75,6,25,4,6,0.3,0.7
2026-03-06T1600,4281A,125.334645,43.916281,长春市,北亚泰大街1068号,,26,25,36,18,30,79,79,72,72,10,21,7,8,0.4,0.4
2026-03-06T1600,1335A,113.082,28.2421,长沙市,经开区环保局,细颗粒物(PM2.5),78,66,65,49,49,45,45,42,42,30,26,3,4,0.7,0.7
2026-03-06T1600,1336A,112.8873,28.2202,长沙市,高开区环保局,NA,NA,NA,71,NA,73,NA,NA,77,46,NA,16,NA,6,NA,0.8
2026-03-06T1600,1337A,113.0785,28.2012,长沙市,马坡岭,细颗粒物(PM2.5),100,72,71,60,59,47,47,47,47,27,23,5,6,0.9,0.9
2026-03-06T1600,1338A,112.9448,28.1894,长沙市,湖南师范大学,细颗粒物(PM2.5),92,65,80,56,61,64,64,53,53,21,20,4,4,0.9,0.8
2026-03-06T1600,1339A,113.0177,28.1322,长沙市,雨花区环保局,细颗粒物(PM2.5),54,52,66,37,42,58,58,45,45,31,34,3,4,0.8,0.9
2026-03-06T1600,1340A,112.9795,28.2593,长沙市,伍家岭,细颗粒物(PM2.5),109,NA,79,69,66,54,54,42,42,20,21,5,5,0.8,0.8
2026-03-06T1600,1341A,113.002,28.1944,长沙市,火车新站,细颗粒物(PM2.5),84,64,74,52,58,56,56,48,48,24,21,3,3,0.8,0.8
2026-03-06T1600,1342A,112.9846,28.1177,长沙市,天心区环保局,细颗粒物(PM2.5),64,54,69,42,62,65,65,49,49,18,22,5,6,0.6,0.6
2026-03-06T1600,1343A,112.8906,28.1307,长沙市,湖南中医药大学,细颗粒物(PM2.5),76,65,76,48,60,71,71,59,59,17,19,6,6,0.8,0.8
2026-03-06T1600,1727A,113.1146,36.1547,长治市,清华站,细颗粒物(PM2.5),56,52,48,38,29,64,64,58,58,15,15,6,7,0.9,0.8
2026-03-06T1600,1730A,113.0887,36.2126,长治市,审计局,细颗粒物(PM2.5),72,55,50,46,35,64,64,55,55,15,14,7,8,0.9,0.7
2026-03-06T1600,1731A,113.0845,36.1856,长治市,长治八中,细颗粒物(PM2.5),72,64,62,46,34,66,66,54,54,11,12,8,10,0.9,0.8
2026-03-06T1600,2845A,113.1561,36.1912,长治市,德盛苑,细颗粒物(PM2.5),78,56,48,49,31,66,66,62,62,18,14,7,8,0.9,0.8
2026-03-06T1600,3568A,113.0603,36.0464,长治市,向阳小学,颗粒物(PM10),73,82,80,41,35,76,76,60,60,19,18,9,11,0.9,1.1
2026-03-06T1600,3569A,112.8788,36.315,长治市,屯留一中,细颗粒物(PM2.5),54,54,65,37,36,77,77,56,56,16,24,4,8,0.6,0.9
2026-03-06T1600,4189A,113.113092,36.199482,长治市,英华南巷50号,细颗粒物(PM2.5),64,54,55,42,34,64,64,58,58,17,15,7,7,0.8,0.9
2026-03-06T1600,4190A,113.23666,36.33435,长治市,学府街1号,细颗粒物(PM2.5),52,46,58,36,36,69,69,64,64,12,16,2,5,0.6,0.9
2026-03-06T1600,1854A,111.696,28.9725,常德市,市二中,细颗粒物(PM2.5),100,79,68,60,50,86,86,54,54,5,16,6,6,1.0,1.1
2026-03-06T1600,3138A,111.7152,29.0288,常德市,武陵区永安,细颗粒物(PM2.5),107,85,75,67,57,84,84,59,59,8,22,5,5,0.8,1
2026-03-06T1600,3139A,111.6891,28.9881,常德市,鼎城区玉霞,细颗粒物(PM2.5),102,72,66,62,47,87,87,55,55,8,22,6,6,0.8,1
2026-03-06T1600,3140A,111.6651,29.0526,常德市,武陵区长庚,细颗粒物(PM2.5),113,78,73,74,60,88,88,59,59,6,23,6,6,0.9,1.1
2026-03-06T1600,1196A,119.9524,31.7586,常州市,市监测站,细颗粒物(PM2.5),90,86,72,55,41,77,77,70,70,19,24,5,6,0.7,0.6
2026-03-06T1600,1200A,119.9351,31.703,常州市,武进监测站,细颗粒物(PM2.5),86,65,21,53,43,75,75,71,71,17,22,5,6,0.5,0.4
2026-03-06T1600,3002A,119.9701,31.813,常州市,行政中心,细颗粒物(PM2.5),88,93,69,54,41,72,72,61,61,20,26,4,6,0.6,0.4
2026-03-06T1600,3003A,120.0434,31.7726,常州市,经开区,细颗粒物(PM2.5),88,88,86,54,43,81,81,71,71,17,28,12,10,0.7,0.6
2026-03-06T1600,3010A,119.8919,31.7892,常州市,钟楼,细颗粒物(PM2.5),92,90,70,56,43,76,76,70,70,23,28,6,7,0.5,0.4
2026-03-06T1600,3429A,119.8595,31.706,常州市,武进经发区,细颗粒物(PM2.5),96,78,69,58,48,68,68,65,65,23,28,6,7,0.6,0.8
2026-03-06T1600,3430A,119.5812,31.7256,常州市,金坛城区,细颗粒物(PM2.5),109,NA,62,69,49,67,67,78,78,18,17,7,7,0.8,0.8
2026-03-06T1600,4089A,119.9551,31.863,常州市,崇义南街5-H号,细颗粒物(PM2.5),86,86,59,53,39,70,70,60,60,13,13,4,5,0.6,0.5
2026-03-06T1600,2220A,120.4318,41.588,朝阳市,西梁,,25,14,26,6,11,80,80,74,74,8,13,4,7,0.3,0.4
2026-03-06T1600,2221A,120.452,41.565,朝阳市,河畔小区,,28,15,23,3,11,88,88,83,83,8,11,7,8,0.4,0.5
2026-03-06T1600,2222A,120.4176,41.5648,朝阳市,八里堡,,28,9,21,7,13,87,87,84,84,7,12,8,10,0.3,0.5
2026-03-06T1600,3026A,116.6179,23.6608,潮州市,市政府,,24,24,15,13,12,64,64,51,51,4,3,8,8,0.5,0.5
2026-03-06T1600,4036A,116.646,23.676,潮州市,金山,,19,19,15,13,13,53,53,42,42,6,6,2,2,0.7,0.7
2026-03-06T1600,2473A,113.0116,25.8228,郴州市,市职中,NA,NA,32,34,20,28,65,65,41,41,NA,18,11,5,0.6,0.8
2026-03-06T1600,2475A,113.0381,25.8074,郴州市,市审计局,,30,30,36,21,30,62,62,42,42,10,15,12,5,/,/
2026-03-06T1600,2476A,113.0348,25.7757,郴州市,市环保局,,32,32,43,20,35,74,74,49,49,12,21,14,6,0.5,0.6
2026-03-06T1600,4252A,113.0138,25.8011,郴州市,好美居路49号,,40,NA,31,28,29,66,66,46,46,9,18,12,5,/,/
2026-03-06T1600,1431A,103.9727,30.7242,成都市,金泉两河,细颗粒物(PM2.5),66,58,71,43,42,88,88,37,37,14,27,3,4,0.5,0.6
2026-03-06T1600,1432A,104.1423,30.6765,成都市,十里店,细颗粒物(PM2.5),76,61,65,48,39,68,68,38,38,12,24,4,6,0.5,0.5
2026-03-06T1600,1433A,104.0594,30.5765,成都市,三瓦窑,细颗粒物(PM2.5),68,70,66,44,39,79,79,54,54,15,24,3,4,0.7,0.7
2026-03-06T1600,1434A,104.1122,30.6306,成都市,沙河铺,NA,NA,50,64,NA,39,85,85,43,43,15,32,5,5,0.5,0.8
2026-03-06T1600,2880A,104.0219,30.6561,成都市,大石西路,NA,NA,63,73,NA,42,74,74,36,36,17,33,NA,7,0.5,0.4
2026-03-06T1600,3136A,104.2724,30.559,成都市,龙泉驿区区政府,细颗粒物(PM2.5),60,61,57,40,34,91,91,67,67,8,15,6,7,0.6,0.6
2026-03-06T1600,3357A,104.0028,30.6891,成都市,金博路,细颗粒物(PM2.5),70,53,62,45,39,84,84,38,38,20,33,6,9,0.8,0.8
2026-03-06T1600,3359A,104.056,30.5228,成都市,华阳,"颗粒物(PM10),细颗粒物(PM2.5)",62,66,66,41,38,82,82,55,55,22,24,4,5,0.8,0.7
2026-03-06T1600,3488A,104.387954,30.746684,成都市,青石路225号,细颗粒物(PM2.5),76,67,65,48,40,90,90,66,66,12,20,5,6,0.7,0.7
2026-03-06T1600,3489A,104.0788,30.4054,成都市,科学城,"颗粒物(PM10),细颗粒物(PM2.5)",54,55,57,37,30,90,90,58,58,7,16,7,8,0.8,0.8
2026-03-06T1600,4011A,103.8505,30.6946,成都市,光华大道三段,细颗粒物(PM2.5),84,83,69,52,37,66,66,35,35,39,30,5,6,0.8,0.7
2026-03-06T1600,4144A,104.3257,30.6406,成都市,八角井街185号,细颗粒物(PM2.5),78,69,66,49,36,80,80,61,61,14,18,5,5,0.7,0.7
2026-03-06T1600,4224A,104.2433276,30.53529463,成都市,鲸龙路1057号,细颗粒物(PM2.5),68,73,67,44,35,89,89,63,63,11,20,5,6,0.6,0.8
2026-03-06T1600,1062A,117.9531,40.908,承德市,铁路,,27,14,37,3,22,86,86,80,80,8,12,6,3,0.2,0.4
2026-03-06T1600,1063A,117.9397,40.9763,承德市,中国银行,,27,11,33,10,21,86,86,78,78,2,8,5,3,0.2,0.4
2026-03-06T1600,4073A,117.9462,40.95,承德市,杏林街1号,,29,15,35,12,26,90,90,79,79,5,10,7,4,0.2,0.4
2026-03-06T1600,4274A,117.7994,40.9605,承德市,滨河大街98号,,30,10,22,7,20,93,93,88,88,4,6,22,6,0.5,0.3
2026-03-06T1600,2314A,117.4698,30.6617,池州市,池州学院,细颗粒物(PM2.5),78,64,69,49,43,79,79,61,61,23,28,5,6,0.9,0.8
2026-03-06T1600,3237A,117.4918,30.6617,池州市,展览馆,细颗粒物(PM2.5),64,62,65,42,46,77,77,67,67,25,28,6,3,0.8,0.8
2026-03-06T1600,3333A,117.5626,30.695,池州市,第八中学,细颗粒物(PM2.5),70,62,59,45,38,78,78,62,62,29,33,4,4,0.7,0.7
2026-03-06T1600,3334A,117.5037,30.6242,池州市,第十二中学,细颗粒物(PM2.5),78,67,57,49,41,76,76,65,65,30,29,4,4,0.8,0.8
2026-03-06T1600,1744A,118.9229,42.2816,赤峰市,松山一中,,22,6,26,3,19,68,68,61,61,10,21,4,4,0.6,0.8
2026-03-06T1600,1745A,118.9588,42.2733,赤峰市,哈达街,,24,6,28,3,16,76,76,68,68,7,15,8,9,0.5,0.7
2026-03-06T1600,1746A,118.8792,42.2551,赤峰市,天义路,,28,6,19,3,17,89,89,84,84,7,13,6,5,0.6,0.6
2026-03-06T1600,3058A,119.2656,42.0356,赤峰市,银河街,,30,18,24,3,13,96,96,90,90,3,9,9,12,0.4,0.6
2026-03-06T1600,3286A,118.9359,42.3146,赤峰市,桥北物流园区,,28,NA,24,3,18,89,89,83,83,7,18,5,4,0.4,0.6
2026-03-06T1600,2521A,107.3473,22.4137,崇左市,市环保局江州分局,颗粒物(PM10),53,53,78,26,58,129,129,90,90,10,19,7,7,0.8,0.9
2026-03-06T1600,4256A,107.375,22.3736,崇左市,石景林东路7号,,39,38,66,23,53,123,123,92,92,8,22,6,6,0.9,1
2026-03-06T1600,3207A,118.31131,32.3033,滁州市,市政府原办公楼,细颗粒物(PM2.5),114,82,50,75,49,78,78,69,69,17,18,4,4,0.8,0.6
2026-03-06T1600,3331A,118.3268,32.2633,滁州市,图书馆,细颗粒物(PM2.5),86,82,49,53,34,80,80,72,72,18,15,7,7,0.6,0.4
2026-03-06T1600,4101A,118.3196,32.3335,滁州市,银山路666号,细颗粒物(PM2.5),105,88,46,65,37,83,83,71,71,15,21,5,5,0.8,0.6
2026-03-06T1600,4102A,118.3426,32.2979,滁州市,黄山路555号,细颗粒物(PM2.5),104,104,64,64,41,82,82,73,73,21,20,5,6,0.8,0.6
2026-03-06T1600,2606A,101.5379,25.0492,楚雄彝族自治州,市经济开发区,细颗粒物(PM2.5),80,69,76,50,57,120,120,90,90,6,14,3,3,0.6,1
2026-03-06T1600,4153A,101.5536,25.0343,楚雄彝族自治州,团结路562号,细颗粒物(PM2.5),76,65,62,48,50,128,128,106,106,5,8,5,6,0.6,0.6
2026-03-06T1600,2549A,107.5087,31.2186,达州市,市环境监测站,,36,36,44,14,23,78,78,53,53,13,28,4,18,0.1,0.3
2026-03-06T1600,2550A,107.4988,31.2132,达州市,凤凰小区,,39,39,42,13,24,74,74,50,50,12,29,4,6,0.2,0.4
2026-03-06T1600,2551A,107.5081,31.1987,达州市,达县机关宾馆,,36,36,46,12,26,78,78,48,48,18,40,3,4,0.4,0.6
2026-03-06T1600,2552A,107.4644,31.2124,达州市,市政中心,,45,45,51,13,23,78,78,51,51,12,31,4,5,0.3,0.5
2026-03-06T1600,2614A,100.2168,25.5818,大理白族自治州,大理市环境监测站,细颗粒物(PM2.5),90,73,69,55,58,139,139,129,127,9,9,7,7,0.8,0.7
2026-03-06T1600,2615A,100.1542,25.7055,大理白族自治州,大理古城,细颗粒物(PM2.5),56,57,68,38,50,137,137,122,122,7,11,8,8,0.7,0.7
2026-03-06T1600,1109A,121.6119,38.974,大连市,甘井子,,29,16,35,10,27,92,92,88,88,8,15,8,7,0.5,0.5
2026-03-06T1600,1110A,121.565,38.9509,大连市,周水子,,32,32,45,13,25,88,88,84,84,10,14,10,9,0.3,0.5
2026-03-06T1600,1111A,121.5637,38.8849,大连市,星海三站,,26,26,37,14,24,74,74,74,74,9,12,8,5,0.4,0.6
2026-03-06T1600,1112A,121.6301,38.9117,大连市,青泥洼桥,,28,18,34,10,26,87,87,84,84,10,13,4,4,0.4,0.6
2026-03-06T1600,1113A,121.6248,38.8643,大连市,傅家庄,,25,19,32,9,23,78,78,74,74,10,14,3,4,0.2,0.3
2026-03-06T1600,1114A,121.5117,38.8636,大连市,七贤岭,,29,25,37,11,23,90,90,85,85,9,13,6,6,0.4,0.6
2026-03-06T1600,1116A,121.7507,39.1339,大连市,金州,,28,24,42,14,30,89,89,85,85,8,14,4,3,0.4,0.5
2026-03-06T1600,1117A,121.7811,39.0495,大连市,开发区,NA,NA,26,42,12,26,89,89,84,84,NA,17,NA,2,0.3,0.5
2026-03-06T1600,1118A,121.9762,39.0631,大连市,双D港,,31,28,39,14,26,97,97,92,92,12,17,6,6,0.3,0.4
2026-03-06T1600,4082A,121.2548,38.8188,大连市,旅顺,NA,NA,19,32,11,23,83,83,79,79,9,11,6,6,NA,0.6
2026-03-06T1600,1789A,124.8085,46.0381,大庆市,大同区,,29,22,37,12,24,90,90,80,80,4,20,10,10,0.4,0.6
2026-03-06T1600,1790A,125.1166,46.5255,大庆市,龙凤区,,25,20,40,16,29,78,78,62,62,12,34,4,5,0.2,0.4
2026-03-06T1600,1791A,124.8894,46.4007,大庆市,红岗区,,28,28,31,9,20,86,86,73,73,10,22,7,7,0.4,0.5
2026-03-06T1600,1792A,125.1391,46.578,大庆市,萨尔图区,,25,19,37,15,21,79,79,60,60,14,32,5,6,0.4,0.6
2026-03-06T1600,1793A,124.9026,46.6217,大庆市,让胡路区,,28,20,28,19,21,82,82,70,70,8,21,6,5,0.4,0.6
2026-03-06T1600,3481A,125.127,46.6277,大庆市,萨区政府监测点,,31,31,40,12,22,87,87,67,67,9,35,9,9,0.6,0.8
2026-03-06T1600,1723A,113.2926,40.0759,大同市,云冈宾馆,,26,26,24,16,10,78,78,66,66,11,12,6,8,0.4,0.6
2026-03-06T1600,1724A,113.3437,40.0921,大同市,大同大学,,28,18,27,13,12,87,87,78,78,10,12,3,7,0.4,0.6
2026-03-06T1600,1725A,113.2637,40.129,大同市,安家小村,,28,20,30,10,9,87,87,70,70,8,13,5,9,0.4,0.5
2026-03-06T1600,3282A,113.3399,40.0586,大同市,大同市卫生学校,,26,22,27,10,8,82,82,76,76,11,10,4,7,0.7,0.7
2026-03-06T1600,3565A,113.1371,40.1122,大同市,云冈站,NA,NA,6,27,NA,12,84,84,67,67,NA,18,7,13,0.4,0.6
2026-03-06T1600,3566A,113.1186,40.2556,大同市,图书馆,,35,35,28,3,10,90,90,73,73,4,7,3,4,0.2,0.6
2026-03-06T1600,3567A,113.5931,40.0459,大同市,区一中,NA,NA,NA,26,NA,11,NA,NA,84,NA,NA,7,NA,7,NA,0.5
2026-03-06T1600,4199A,113.2798248,40.09972476,大同市,魏都大道141号,,36,36,36,17,12,87,87,72,72,9,13,7,10,0.3,0.5
2026-03-06T1600,2269A,124.1068,50.4091,大兴安岭地区,科技局,,26,15,21,7,10,83,83,80,80,2,6,5,6,0.2,0.3
2026-03-06T1600,3663A,124.117,50.4279,大兴安岭地区,红旗社区,,27,7,21,3,18,86,86,80,80,3,22,5,9,0.2,0.4
2026-03-06T1600,1600A,124.33,40.0625,丹东市,江湾东路,,29,29,39,17,32,87,87,84,84,12,15,7,7,0.4,0.6
2026-03-06T1600,1601A,124.4242,40.1513,丹东市,临江后街,,28,26,37,16,32,88,88,83,83,12,16,6,8,0.4,0.5
2026-03-06T1600,1602A,124.3935,40.1461,丹东市,元宝山,,27,23,35,15,28,86,86,80,80,10,15,4,5,0.4,0.5
2026-03-06T1600,1603A,124.3634,40.1093,丹东市,民主桥,,27,26,40,15,31,86,86,79,79,12,17,5,5,0.4,0.5
2026-03-06T1600,3541A,109.5726195,19.51688767,儋州市,第一中学子站,,28,22,24,11,14,88,88,79,79,3,5,6,6,0.5,0.6
2026-03-06T1600,3542A,109.5567,19.5187,儋州市,东坡学校子站,,29,22,24,13,16,92,92,82,82,4,5,3,4,0.6,0.7
2026-03-06T1600,2616A,98.5611,24.4273,德宏傣族景颇族自治州,德宏州监测站,细颗粒物(PM2.5),126,90,108,88,94,140,140,73,73,16,34,9,8,0.7,0.9
2026-03-06T1600,3677A,98.5887,24.4366,德宏傣族景颇族自治州,芒市人民政府综合楼,细颗粒物(PM2.5),120,147,128,81,85,139,139,79,79,13,19,7,5,0.7,0.9
2026-03-06T1600,1901A,104.424,31.1209,德阳市,东山公园,细颗粒物(PM2.5),82,68,70,51,45,76,76,51,50,9,21,3,4,0.6,0.6
2026-03-06T1600,1902A,104.3827,31.1318,德阳市,西小区,细颗粒物(PM2.5),86,83,88,53,46,78,78,44,44,14,28,3,4,0.7,0.7
2026-03-06T1600,1904A,104.3553,31.1091,德阳市,耐火材料厂,细颗粒物(PM2.5),88,72,81,54,48,79,79,46,46,17,31,2,3,0.7,0.7
2026-03-06T1600,4145A,104.4144,31.1495,德阳市,市林业局,细颗粒物(PM2.5),84,68,75,52,46,80,80,48,48,6,25,5,6,0.7,0.7
2026-03-06T1600,1622A,116.3034,37.4675,德州市,儿童乐园,NA,NA,44,53,NA,44,91,91,74,74,12,17,10,9,0.6,0.7
2026-03-06T1600,1624A,116.2992,37.4449,德州市,监理站,,41,41,54,26,41,93,93,74,74,13,17,3,3,0.6,0.8
2026-03-06T1600,3066A,116.2722,37.438,德州市,九衢泉纯净水厂,,39,39,48,26,41,97,97,77,77,14,18,4,4,0.7,0.8
2026-03-06T1600,3371A,116.3693,37.44,德州市,开发区人民医院,,44,44,56,27,43,93,93,73,73,13,16,10,10,0.5,0.6
2026-03-06T1600,3511A,116.5687,37.3331,德州市,陵城艺术中心,,38,34,45,26,39,94,94,75,75,8,11,2,4,0.4,0.6
2026-03-06T1600,4292A,116.352738,37.420875,德州市,新河东路,,39,39,49,23,34,91,91,71,71,12,16,9,9,0.4,0.5
2026-03-06T1600,2621A,99.7054,27.8319,迪庆藏族自治州,迪庆州站,NA,NA,34,35,19,20,105,105,90,90,5,10,NA,6,NA,0.5
2026-03-06T1600,3180A,99.7122,27.8129,迪庆藏族自治州,质量技术监督局,,39,39,32,23,16,110,110,94,94,7,10,6,5,0.5,0.6
2026-03-06T1600,4257A,104.6092,35.5962,定西市,将台街,颗粒物(PM10),58,61,72,24,27,120,120,85,85,4,14,11,11,0.4,0.5
2026-03-06T1600,4309A,104.6159,35.5701,定西市,正龙路62号,颗粒物(PM10),69,76,79,14,26,119,119,81,81,4,6,6,7,0.4,0.9
2026-03-06T1600,4071A,114.9883,38.5232,定州市,交通局,NA,NA,NA,65,24,49,94,94,66,66,12,26,8,8,0.4,0.7
2026-03-06T1600,4072A,115.0045,38.5136,定州市,第五中学,,43,43,74,28,49,88,88,62,62,8,25,6,6,0.4,0.7
2026-03-06T1600,1390A,113.7943,23.0132,东莞市,东城石井,,33,22,18,15,13,104,104,92,92,12,12,6,5,0.6,0.6
2026-03-06T1600,1391A,113.7384,22.9659,东莞市,南城西平,,36,22,17,14,11,113,113,96,96,11,16,7,7,0.6,0.7
2026-03-06T1600,3319A,113.7283,23.041,东莞市,万江金泰,,35,25,18,20,14,112,112,90,90,9,9,6,5,0.6,0.6
2026-03-06T1600,4129A,113.8666,23.1062,东莞市,裕兴路,,28,16,16,12,11,87,87,81,81,8,8,6,6,0.7,0.7
2026-03-06T1600,4130A,114.0076,22.9739,东莞市,教育路1号,,33,24,23,16,14,105,105,85,85,12,12,5,5,0.6,0.6
2026-03-06T1600,4131A,113.7981,22.8124,东莞市,长怡路1号,,31,31,23,19,13,98,98,85,85,13,13,6,6,0.6,0.7
2026-03-06T1600,1666A,118.6612,37.4313,东营市,市环保局,细颗粒物(PM2.5),56,51,43,38,35,87,87,75,75,11,13,6,6,0.6,0.6
2026-03-06T1600,3036A,118.6903,37.4337,东营市,开发区管委会,细颗粒物(PM2.5),58,50,47,39,36,91,91,80,79,14,15,6,6,0.6,0.6
2026-03-06T1600,3365A,118.5721,37.5654,东营市,垦利区民丰路,细颗粒物(PM2.5),54,39,42,37,34,98,98,84,84,9,14,8,8,0.7,0.7
2026-03-06T1600,3498A,118.5063,37.8606,东营市,河口城区,,35,31,44,24,33,102,102,81,81,9,10,4,4,0.7,0.9
2026-03-06T1600,3646A,118.4979,37.4623,东营市,胜利站,,46,44,48,32,31,87,87,76,76,14,15,6,6,0.6,0.7
2026-03-06T1600,3734A,118.5753,37.4405,东营市,理想之城,,50,48,51,35,35,92,92,83,83,10,11,3,3,0.8,0.8
2026-03-06T1600,1591A,110.0024,39.8127,鄂尔多斯市,综合楼,,31,31,37,6,11,78,78,69,69,12,17,6,7,0.3,0.3
2026-03-06T1600,1592A,109.9485,39.8259,鄂尔多斯市,巴音孟克林场办事处,,27,27,35,11,9,80,80,70,70,10,17,6,6,0.4,0.5
2026-03-06T1600,1593A,109.7734,39.5987,鄂尔多斯市,康泽苑,,34,34,29,14,11,78,78,68,68,16,14,8,6,0.4,0.4
2026-03-06T1600,1594A,109.8121,39.5987,鄂尔多斯市,华泰汽车城,,31,31,33,10,10,79,79,66,66,16,17,11,8,0.3,0.3
2026-03-06T1600,1595A,109.9734,39.7884,鄂尔多斯市,奥林花园,,41,41,38,12,14,80,80,72,72,14,18,4,5,0.3,0.3
2026-03-06T1600,2436A,114.894,30.3989,鄂州市,市政府,细颗粒物(PM2.5),58,51,52,39,38,70,70,59,59,17,28,11,12,0.6,0.7
2026-03-06T1600,2437A,114.8986,30.3714,鄂州市,赵家坝,细颗粒物(PM2.5),64,60,52,42,39,71,71,59,59,13,21,8,10,0.6,0.8
2026-03-06T1600,3654A,114.8093,30.4091,鄂州市,精准医疗中心,细颗粒物(PM2.5),86,57,54,53,39,69,69,55,55,19,26,47,15,0.9,0.8
2026-03-06T1600,2454A,109.4978,30.2979,恩施土家族苗族自治州,湖北民院,,43,38,37,30,28,62,62,29,29,12,16,6,6,0.5,0.6
2026-03-06T1600,3549A,109.5061,30.3771,恩施土家族苗族自治州,龙凤新区,,35,34,34,24,24,80,80,32,32,9,12,7,7,0.4,0.5
2026-03-06T1600,2499A,108.3411,21.6159,防城港市,沙万,颗粒物(PM10),63,67,59,36,47,98,98,74,74,26,18,11,8,1.3,0.8
2026-03-06T1600,2500A,108.3515,21.7733,防城港市,防城档案局,NA,NA,NA,64,NA,46,103,103,76,76,8,15,6,6,0.5,0.8
2026-03-06T1600,2501A,108.3506,21.6414,防城港市,大海花园,细颗粒物(PM2.5),56,50,48,38,43,137,137,87,87,16,14,11,8,1.0,0.9
2026-03-06T1600,1371A,113.1293,23.0065,佛山市,湾梁,,41,19,22,9,16,130,130,90,90,11,15,/,/,/,/
2026-03-06T1600,1372A,113.1082,23.0477,佛山市,华材职中,,39,29,26,19,19,124,124,86,86,13,19,6,6,0.5,0.6
2026-03-06T1600,1373A,113.1439,23.045,佛山市,南海气象局,,40,31,24,14,17,126,126,90,90,15,19,/,/,/,/
2026-03-06T1600,1374A,113.2879,22.8094,佛山市,顺德苏岗,,41,24,15,22,16,131,131,92,92,14,17,/,/,0.7,0.7
2026-03-06T1600,1376A,112.8384,22.8678,佛山市,高明孔堂,,39,19,25,18,19,123,123,83,83,10,13,/,/,/,/
2026-03-06T1600,1377A,112.8835,23.1584,佛山市,三水监测站,,33,17,20,17,18,103,103,79,79,10,15,4,4,0.5,0.6
2026-03-06T1600,1378A,112.8668,23.185,佛山市,三水云东海,,37,25,22,19,16,117,117,82,82,8,13,/,/,/,/
2026-03-06T1600,3625A,113.2568,22.7629,佛山市,容桂街道办,,36,22,19,20,16,115,115,79,79,20,22,/,/,/,/
2026-03-06T1600,1282A,119.2681,26.0506,福州市,师大,细颗粒物(PM2.5),56,44,19,38,9,67,67,43,43,19,14,3,3,0.5,0.4
2026-03-06T1600,1283A,119.2983,26.1028,福州市,五四北路,细颗粒物(PM2.5),52,36,21,36,12,59,59,35,35,18,23,4,4,0.4,0.4
2026-03-06T1600,1284A,119.2648,26.0769,福州市,杨桥西路,,49,39,17,34,7,65,65,43,43,19,14,3,3,/,/
2026-03-06T1600,3048A,119.5799,26.0937,福州市,九龙,,49,42,23,34,13,110,110,70,70,14,17,4,4,0.6,0.5
2026-03-06T1600,3526A,119.5188,25.9666,福州市,吴航,,49,49,23,34,15,106,106,70,70,15,23,4,4,0.7,0.5
2026-03-06T1600,4104A,119.3106,26.0648,福州市,路通桥巷6号,细颗粒物(PM2.5),66,56,22,43,14,69,69,46,46,14,14,/,/,/,/
2026-03-06T1600,1755A,123.7974,41.8494,抚顺市,望花区,,33,33,40,12,22,92,92,82,82,7,12,6,9,0.5,0.5
2026-03-06T1600,1756A,123.9161,41.8827,抚顺市,顺城区,,35,35,38,12,25,89,89,79,79,11,15,7,9,0.4,0.5
2026-03-06T1600,1757A,124.0437,41.8615,抚顺市,东洲区,,38,38,43,12,26,85,85,75,75,9,15,8,9,0.4,0.5
2026-03-06T1600,1758A,123.9246,41.8638,抚顺市,新抚区,,36,36,45,13,26,97,97,88,88,10,16,8,8,0.3,0.6
2026-03-06T1600,1759A,124.0972,41.8961,抚顺市,大伙房水库,,46,46,40,13,25,92,92,82,82,8,14,10,10,0.4,0.6
2026-03-06T1600,1760A,123.708,41.8386,抚顺市,沈抚新城,,32,32,40,13,21,87,87,80,80,8,15,6,7,0.3,0.6
2026-03-06T1600,2377A,116.3544,27.9833,抚州市,市站,,35,35,50,21,43,97,97,79,79,2,7,6,6,0.8,1
2026-03-06T1600,2378A,116.3562,27.9631,抚州市,血防站,,40,36,49,28,41,96,96,78,78,2,6,6,7,0.8,0.9
2026-03-06T1600,2379A,116.3561,28.0007,抚州市,采茶剧团,NA,NA,NA,50,NA,43,NA,NA,74,74,4,7,2,13,1.1,1.2
2026-03-06T1600,2380A,116.3854,27.9648,抚州市,医学分院,,42,42,57,25,38,93,93,76,76,4,9,6,6,1.0,1.1
2026-03-06T1600,2207A,121.6095,41.9978,阜新市,工业园区,,28,28,24,3,10,89,89,82,82,4,8,8,9,0.3,0.3
2026-03-06T1600,2208A,121.6567,42.0188,阜新市,长青街,,28,11,16,3,10,88,88,81,81,4,7,7,7,0.3,0.4
2026-03-06T1600,2209A,121.6672,42.07,阜新市,农业园区,,25,17,19,3,9,80,80,76,76,6,9,2,3,0.4,0.6
2026-03-06T1600,2211A,121.6343,42.0455,阜新市,玉龙新城,,27,23,23,3,10,86,86,81,81,5,12,3,4,0.3,0.4
2026-03-06T1600,2301A,115.8276,32.8929,阜阳市,市监测站,细颗粒物(PM2.5),120,111,89,82,65,61,61,46,46,14,30,4,4,0.8,0.6
2026-03-06T1600,2303A,115.8551,32.8606,阜阳市,开发区,细颗粒物(PM2.5),114,111,104,75,62,60,60,44,44,13,27,5,5,0.8,0.7
2026-03-06T1600,2875A,115.783962,32.889217,阜阳市,阜阳职业技术学院,细颗粒物(PM2.5),107,NA,82,67,53,64,64,48,48,NA,27,5,5,0.7,0.6
2026-03-06T1600,3468A,115.79,32.8614,阜阳市,市规划展馆,细颗粒物(PM2.5),115,96,84,76,64,67,67,50,50,12,19,6,6,0.9,0.7
2026-03-06T1600,3469A,115.835101,32.918568,阜阳市,枣园社区,细颗粒物(PM2.5),120,108,90,81,62,60,60,46,46,14,26,7,7,0.9,0.7
2026-03-06T1600,2669A,102.9097,34.9841,甘南藏族自治州,州政府,,27,9,64,3,39,85,85,64,64,1,14,3,4,0.2,0.5
2026-03-06T1600,3380A,102.8915,34.9618,甘南藏族自治州,甘肃民族师范学院,,32,20,72,7,28,101,101,77,77,4,23,1,3,0.3,0.4
2026-03-06T1600,2570A,101.96,30.048,甘孜藏族自治州,水桥子,,23,16,8,3,2,73,73,52,52,3,10,7,6,0.7,0.7
2026-03-06T1600,3065A,101.9534,29.9976,甘孜藏族自治州,州环保局,,25,14,6,3,3,79,79,59,59,8,10,6,6,0.5,0.6
2026-03-06T1600,2363A,114.9368,25.8663,赣州市,地委,,35,35,37,23,30,87,87,76,76,9,11,2,2,0.8,0.8
2026-03-06T1600,2364A,114.946,25.8483,赣州市,气象台,,43,38,44,30,34,93,93,81,81,13,14,8,6,0.4,0.5
2026-03-06T1600,2365A,114.932,25.8332,赣州市,市图书馆,,45,36,35,31,34,84,84,75,75,8,11,5,4,0.6,0.5
2026-03-06T1600,2366A,114.8905,25.8472,赣州市,华坚鞋城,,42,42,39,24,32,85,85,76,76,9,10,5,5,0.3,0.4
2026-03-06T1600,3109A,115.0094,25.8614,赣州市,赣县区卫计委,,43,35,30,30,27,83,83,70,70,10,11,4,4,0.6,0.9
2026-03-06T1600,2684A,106.2753,36.0057,固原市,监测站,颗粒物(PM10),71,79,79,36,28,96,96,80,80,10,15,8,9,0.5,0.5
2026-03-06T1600,2685A,106.2384,36.0189,固原市,新区,颗粒物(PM10),73,82,82,28,26,95,95,79,79,10,20,7,8,0.4,0.3
2026-03-06T1600,2544A,106.6307,30.4577,广安市,市委,,29,25,61,18,51,90,90,56,56,7,23,8,7,0.6,0.8
2026-03-06T1600,2545A,106.6266,30.4662,广安市,友谊中学,,30,30,60,14,41,90,90,58,58,10,21,13,12,0.6,0.9
2026-03-06T1600,2547A,106.6386,30.4551,广安市,广电花园,,47,47,70,19,57,86,86,54,54,9,20,9,9,0.6,0.8
2026-03-06T1600,2902A,106.6347,30.4868,广安市,北辰小学,NA,NA,31,57,21,49,85,85,61,61,NA,20,5,4,0.6,0.8
2026-03-06T1600,2524A,105.8211,32.4444,广元市,老城,细颗粒物(PM2.5),76,50,57,48,35,74,74,58,58,14,34,12,11,0.9,1
2026-03-06T1600,2526A,105.8629,32.429,广元市,监测站,细颗粒物(PM2.5),108,NA,52,68,35,72,72,56,56,16,20,NA,8,0.6,0.6
2026-03-06T1600,3617A,105.8047,32.4167,广元市,经开区,细颗粒物(PM2.5),74,69,69,47,36,66,66,52,52,18,35,10,6,0.9,0.8
2026-03-06T1600,1345A,113.2346,23.1423,广州市,广雅中学,,35,23,28,16,21,111,111,83,83,12,21,3,2,0.3,0.3
2026-03-06T1600,1346A,113.2611,23.105,广州市,市五中,NA,NA,20,23,14,18,124,124,96,96,NA,17,NA,6,/,/
2026-03-06T1600,1348A,113.3477,23.0916,广州市,广东商学院,,36,19,21,13,14,114,114,88,88,10,13,4,4,0.5,0.6
2026-03-06T1600,1349A,113.4332,23.105,广州市,市八十六中,,39,22,18,17,17,123,123,99,99,17,14,5,4,/,/
2026-03-06T1600,1350A,113.3506,22.9488,广州市,番禺中学,,38,28,28,20,17,121,121,90,90,11,13,2,2,0.4,0.4
2026-03-06T1600,1351A,113.2147,23.3918,广州市,花都师范,NA,NA,22,27,NA,28,104,104,77,77,10,12,7,7,0.7,0.8
2026-03-06T1600,1352A,113.2599,23.1329,广州市,市监测站,,35,24,28,15,19,110,110,86,86,12,18,3,1,/,/
2026-03-06T1600,1353A,113.5618,23.3119,广州市,九龙镇镇龙,,29,16,16,11,11,90,90,77,77,6,6,5,5,0.7,0.7
2026-03-06T1600,1354A,113.2764,23.1544,广州市,麓湖,,36,23,24,15,18,114,114,88,88,6,15,3,3,0.6,0.7
2026-03-06T1600,2846A,113.3209,23.1323,广州市,体育西,,34,20,24,13,18,108,108,83,83,10,18,5,5,0.7,0.7
2026-03-06T1600,3298A,113.5718,23.5493,广州市,从化街口,,29,18,20,13,15,91,91,76,76,5,8,8,8,0.5,0.6
2026-03-06T1600,3299A,113.3463,23.369,广州市,白云竹料,,34,19,20,12,16,106,106,88,88,6,10,3,3,0.6,0.7
2026-03-06T1600,3300A,113.2981,23.2365,广州市,白云嘉禾,,36,20,24,14,17,113,113,90,90,14,19,9,9,/,/
2026-03-06T1600,3301A,113.4256,23.1716,广州市,黄埔科学城,,36,19,19,16,17,115,115,93,93,6,7,6,6,0.6,0.6
2026-03-06T1600,3302A,113.3942,23.0485,广州市,番禺大学城,,40,24,20,15,13,125,125,97,97,16,17,3,2,0.5,0.5
2026-03-06T1600,3303A,113.4923,22.8169,广州市,南沙黄阁,NA,NA,NA,25,NA,15,127,127,92,92,NA,13,7,6,/,/
2026-03-06T1600,3304A,113.534,22.7893,广州市,南沙街,,42,24,23,20,14,132,132,94,94,8,8,6,7,0.6,0.6
2026-03-06T1600,3443A,113.2905,23.5541,广州市,花都梯面,,27,23,20,14,16,85,85,72,72,4,6,7,8,/,/
2026-03-06T1600,3445A,113.786,23.7479,广州市,从化良口,,27,18,17,16,14,86,86,75,75,4,5,4,4,/,/
2026-03-06T1600,3446A,113.805,23.2614,广州市,增城荔城,,35,22,17,17,13,110,110,83,83,11,10,8,7,0.7,0.6
2026-03-06T1600,2506A,109.604387,23.066791,贵港市,江南子站,,34,29,46,17,28,108,108,80,80,7,16,6,7,0.5,0.7
2026-03-06T1600,2508A,109.5669,23.1065,贵港市,荷城子站,,34,34,39,15,28,94,94,73,73,9,19,7,8,0.6,0.7
2026-03-06T1600,3405A,109.5886,23.1172,贵港市,新世纪学校,,33,27,43,21,33,104,104,75,75,10,20,/,/,0.8,0.9
2026-03-06T1600,4260A,109.5933,23.095,贵港市,中山路155-3号,,45,35,43,31,30,109,109,81,81,7,16,/,/,0.7,0.8
2026-03-06T1600,1439A,106.6863,26.6035,贵阳市,马鞍山,细颗粒物(PM2.5),52,51,48,36,37,37,37,34,28,21,14,8,6,/,/
2026-03-06T1600,1441A,106.6241,26.6266,贵阳市,鉴湖路,颗粒物(PM10),58,61,61,30,39,39,39,34,28,18,16,7,5,0.5,0.5
2026-03-06T1600,1442A,106.7468,26.6344,贵阳市,燕子冲,,49,48,56,34,39,42,42,42,38,19,13,11,8,0.5,0.5
2026-03-06T1600,1443A,106.6556,26.4362,贵阳市,碧云窝,颗粒物(PM10),53,53,55,26,37,55,55,38,38,11,15,8,9,/,/
2026-03-06T1600,1445A,106.6963,26.6063,贵阳市,红边门,颗粒物(PM10),53,53,58,33,38,32,32,38,28,27,17,11,9,/,/
2026-03-06T1600,1446A,106.7162383,26.56964667,贵阳市,新华路,颗粒物(PM10),58,61,65,32,38,36,36,38,33,24,17,9,6,0.5,0.5
2026-03-06T1600,1447A,106.6742,26.542,贵阳市,太慈桥,,46,46,49,30,39,45,45,33,30,17,18,6,5,/,/
2026-03-06T1600,4230A,106.688212,26.56952,贵阳市,花果园大街66号,,48,48,50,33,37,41,41,37,31,19,17,4,3,/,/
2026-03-06T1600,4231A,106.687268,26.516892,贵阳市,漓江路57号,,45,44,54,31,36,45,45,34,29,16,18,10,9,0.7,0.7
2026-03-06T1600,1864A,110.3091,25.2705,桂林市,龙隐路小学,,37,37,30,25,26,102,102,87,87,8,8,3,3,0.7,0.7
2026-03-06T1600,1865A,110.2849361,25.22909545,桂林市,八中,,37,37,29,12,14,88,88,73,73,11,14,3,3,0.6,0.6
2026-03-06T1600,3531A,110.296,25.1254,桂林市,旅游学院,,32,28,36,22,24,102,102,86,86,8,8,5,4,0.6,0.6
2026-03-06T1600,4222A,110.1835,25.2444,桂林市,环湖路276号,NA,NA,39,31,23,24,104,104,85,85,NA,7,4,3,0.7,0.6
2026-03-06T1600,4301A,110.2803,25.2773,桂林市,信义路13号,,37,37,30,16,24,98,98,83,83,10,10,4,4,0.7,0.7
2026-03-06T1600,2674A,100.2262,34.4854,果洛藏族自治州,玛沁县大武镇,,31,20,42,3,17,98,98,77,77,1,4,14,21,0.3,0.4
2026-03-06T1600,1130A,126.5557,45.8109,哈尔滨市,松北商大,,40,NA,35,28,33,93,93,82,82,6,18,8,9,0.4,0.6
2026-03-06T1600,1132A,126.6162,45.719,哈尔滨市,南岗学府路,,34,34,43,20,24,100,100,84,84,10,18,16,14,0.3,0.4
2026-03-06T1600,1133A,126.6894,45.7733,哈尔滨市,太平宏伟公园,,33,28,36,23,26,89,89,80,80,8,18,8,11,0.4,0.6
2026-03-06T1600,1134A,126.6361,45.7672,哈尔滨市,道外承德广场,,43,43,51,17,23,92,92,83,83,12,17,12,10,0.5,1
2026-03-06T1600,1136A,126.644,45.7261,哈尔滨市,动力和平路,,35,35,37,19,24,92,92,82,82,10,17,12,15,0.7,0.8
2026-03-06T1600,1137A,126.5933,45.7479,哈尔滨市,道里建国路,,39,39,29,23,28,89,89,82,82,17,23,14,13,0.2,0.4
2026-03-06T1600,1138A,126.6127,45.6119,哈尔滨市,平房东轻厂,,30,NA,40,21,35,88,88,67,67,44,80,10,11,0.5,0.8
2026-03-06T1600,1139A,126.5875,45.9827,哈尔滨市,呼兰师专,,30,30,35,16,28,85,85,75,75,7,17,9,9,0.3,0.5
2026-03-06T1600,1140A,126.6299,45.6799,哈尔滨市,省农科院,NA,NA,25,39,20,25,91,91,81,81,8,19,NA,2,0.4,0.6
2026-03-06T1600,4282A,126.6769,45.7379,哈尔滨市,华山路1号,,30,22,32,3,18,94,94,84,84,8,17,11,5,0.5,0.6
2026-03-06T1600,4283A,126.9717,45.5356,哈尔滨市,解放大街52号,,29,27,43,17,30,91,91,80,80,11,23,14,11,0.5,1
2026-03-06T1600,2688A,93.5124,42.8176,哈密市,地区监测站,NA,NA,16,38,7,15,86,86,54,54,NA,14,6,6,0.0,0.1
2026-03-06T1600,2689A,93.5014,42.8312,哈密市,哈密师范学校,,30,14,38,7,15,93,93,57,57,7,22,7,8,0.3,0.7
2026-03-06T1600,2671A,100.9016,36.9464,海北藏族自治州,海晏县西海镇,,31,25,43,7,19,98,98,82,82,8,10,5,8,0.3,0.4
2026-03-06T1600,3867A,102.074,36.5056,海东市,平安区公安局北苑,,45,45,104,16,41,110,110,82,82,3,11,10,16,0.6,0.7
2026-03-06T1600,4163A,102.0984,36.5119,海东市,滨河路,,42,42,104,18,39,100,100,73,73,9,27,7,21,0.6,0.8
2026-03-06T1600,1410A,110.3189,20.0596,海口市,海南大学,,33,22,23,13,14,103,103,92,84,4,6,5,5,0.5,0.5
2026-03-06T1600,1411A,110.2827,20.0051,海口市,秀英海南医院,,31,23,26,14,17,99,99,86,80,5,7,8,7,0.5,0.5
2026-03-06T1600,1412A,110.3391,19.9979,海口市,海南师范大学,,33,25,26,14,16,103,103,90,83,6,6,6,6,0.5,0.6
2026-03-06T1600,1413A,110.3303,20.0359,海口市,龙华路环保局宿舍,,34,25,24,14,16,106,106,93,86,6,9,/,/,0.4,0.5
2026-03-06T1600,3539A,110.5111,19.9737,海口市,桂林洋子站,,33,22,23,15,16,103,103,87,84,6,7,/,/,/,/
2026-03-06T1600,4134A,110.1952,20.0451,海口市,长滨二路9号,,31,24,20,14,15,99,99,88,83,6,6,/,/,/,/
2026-03-06T1600,2673A,100.6158,36.2985,海南藏族自治州,共和县恰卜恰镇,,30,17,38,3,15,96,96,76,76,3,10,11,10,0.3,0.3
2026-03-06T1600,2676A,97.373,37.376,海西蒙古族藏族自治州,德令哈市,细颗粒物(PM2.5),56,NA,28,38,16,109,109,94,94,2,5,14,18,0.3,0.4
2026-03-06T1600,1049A,114.492,36.5712,邯郸市,矿院,,39,39,58,20,44,89,89,68,68,9,18,3,3,0.4,0.7
2026-03-06T1600,1050A,114.4839,36.6136,邯郸市,丛台公园,,43,41,66,30,62,85,85,63,63,7,12,3,3,0.4,0.7
2026-03-06T1600,3458A,114.7893,36.5592,邯郸市,香泉濮院小区,,40,40,59,21,39,87,87,69,69,1,9,3,3,0.3,0.7
2026-03-06T1600,3580A,114.1998,36.4439,邯郸市,峰峰矿区临水派出所,,50,49,61,35,48,86,86,58,58,1,8,1,3,0.6,0.8
2026-03-06T1600,4068A,114.5209,36.7697,邯郸市,建安街268号,,45,45,61,30,53,88,88,66,66,10,21,3,2,0.3,0.6
2026-03-06T1600,4069A,114.5488,36.6177,邯郸市,丛台东路558号,,39,30,54,27,46,89,89,68,68,5,11,3,3,0.5,0.7
2026-03-06T1600,2635A,107.0155,33.0707,汉中市,市监测站,,35,32,56,24,34,69,69,54,54,10,24,4,5,0.6,0.7
2026-03-06T1600,2636A,107.0083,33.114,汉中市,鑫源开发区,,36,NA,53,25,32,76,76,64,64,8,29,4,6,0.5,0.6
2026-03-06T1600,2637A,107.0072,33.0323,汉中市,南郑大河坎水厂,,35,28,55,24,32,72,72,54,54,10,21,5,5,0.5,0.6
2026-03-06T1600,1223A,120.2073,30.2111,杭州市,滨江,,48,42,62,33,42,92,92,66,66,19,24,7,7,0.8,0.8
2026-03-06T1600,1224A,120.0625,30.2737,杭州市,西溪,颗粒物(PM10),52,52,63,31,44,98,98,68,68,14,15,8,8,0.6,0.6
2026-03-06T1600,1226A,120.3417,30.315,杭州市,下沙,细颗粒物(PM2.5),56,51,78,38,50,87,87,68,68,14,21,7,6,0.8,0.7
2026-03-06T1600,1227A,120.1252,30.2465,杭州市,卧龙桥,,49,44,63,34,45,96,96,68,68,15,17,8,8,0.5,0.5
2026-03-06T1600,1228A,120.1902,30.2691,杭州市,浙江农大,,46,41,61,32,47,101,101,75,75,14,20,5,6,0.7,0.7
2026-03-06T1600,1230A,120.1195,30.3121,杭州市,和睦小学,细颗粒物(PM2.5),52,49,70,36,48,96,96,70,70,16,21,4,5,0.8,0.7
2026-03-06T1600,1231A,120.3076,30.4146,杭州市,临平镇,细颗粒物(PM2.5),54,50,67,37,48,95,95,78,78,16,20,6,6,0.8,0.7
2026-03-06T1600,1232A,120.2753,30.1839,杭州市,城厢镇,NA,NA,59,70,31,44,90,90,71,71,19,23,8,8,NA,0.9
2026-03-06T1600,1233A,120.0883,30.1808,杭州市,云栖,,44,44,61,25,35,93,93,66,66,19,20,4,4,0.7,0.7
2026-03-06T1600,3557A,119.9463,30.0496,杭州市,镇二中,,49,35,48,34,46,78,78,58,58,18,19,4,4,0.7,0.8
2026-03-06T1600,3558A,119.7184,30.2367,杭州市,市府大楼,,45,42,54,31,45,84,84,56,56,11,14,6,6,0.5,0.6
2026-03-06T1600,3656A,120.1554,30.2863,杭州市,消防大队,,49,49,69,32,48,91,91,65,65,13,21,7,7,0.7,0.7
2026-03-06T1600,1270A,117.1957,31.7845,合肥市,明珠广场,颗粒物(PM10),65,70,59,42,40,89,89,79,79,18,20,6,6,0.9,0.9
2026-03-06T1600,1271A,117.307,31.8765,合肥市,三里街,颗粒物(PM10),53,53,54,36,36,89,89,77,77,15,25,5,5,0.7,0.7
2026-03-06T1600,1272A,117.2587,31.8703,合肥市,琥珀山庄,颗粒物(PM10),62,66,61,40,39,96,96,80,80,16,20,6,6,0.8,0.8
2026-03-06T1600,1275A,117.2593,31.9376,合肥市,庐阳区,颗粒物(PM10),62,66,62,39,38,95,95,78,78,14,23,4,4,0.8,0.8
2026-03-06T1600,1276A,117.345251,31.861615,合肥市,瑶海区,颗粒物(PM10),65,70,56,33,34,94,94,80,80,19,25,5,4,0.7,0.7
2026-03-06T1600,1277A,117.3033,31.7967,合肥市,包河区,颗粒物(PM10),58,61,56,32,35,82,82,72,72,28,42,7,8,0.8,0.8
2026-03-06T1600,1278A,117.278,31.7392,合肥市,滨湖新区,颗粒物(PM10),58,61,57,34,36,92,92,78,78,9,19,3,3,0.7,0.7
2026-03-06T1600,1279A,117.1324,31.8395,合肥市,高新区,颗粒物(PM10),58,61,59,38,40,91,91,79,79,13,16,4,4,0.7,0.7
2026-03-06T1600,3464A,117.3802,31.9148,合肥市,高教基地,颗粒物(PM10),58,61,52,32,29,101,101,83,83,13,20,8,8,0.7,0.6
2026-03-06T1600,4098A,117.2518,31.8404,合肥市,中国科学技术大学,颗粒物(PM10),60,63,55,35,36,101,101,87,87,9,14,8,7,0.7,0.7
2026-03-06T1600,3614A,79.9241,37.0878,和田地区,地区环保局,颗粒物(PM10),483,583,618,133,140,82,82,63,63,5,18,1,3,0.5,0.9
2026-03-06T1600,3615A,79.9132,37.1137,和田地区,市环保局,颗粒物(PM10),417,517,565,118,137,82,82,58,58,6,28,3,3,0.7,1.2
2026-03-06T1600,2517A,108.0496,24.6957,河池市,市环保站,,38,38,43,19,29,78,78,52,52,4,14,8,4,0.6,0.7
2026-03-06T1600,4302A,108.0901,24.6945,河池市,上任中路54号,,48,48,53,19,32,76,76,51,51,6,24,9,6,0.5,0.6
2026-03-06T1600,1697A,114.6962,23.7538,河源市,东埔,,23,16,20,16,18,72,72,64,64,5,8,5,5,0.7,0.7
2026-03-06T1600,1698A,114.6895,23.7232,河源市,老城,,24,18,21,14,18,75,75,66,66,5,8,6,6,0.7,0.7
2026-03-06T1600,3374A,115.5562,35.089,菏泽市,定陶老年大学,颗粒物(PM10),56,58,78,33,60,98,98,80,80,12,15,4,4,0.3,0.5
2026-03-06T1600,4114A,115.4239,35.2593,菏泽市,黄河路600号,颗粒物(PM10),61,65,85,33,61,88,88,71,71,8,13,2,2,0.4,0.7
2026-03-06T1600,4115A,115.5025,35.2727,菏泽市,菏泽市人社局,,46,46,74,30,60,88,88,72,72,12,15,3,3,0.5,0.8
2026-03-06T1600,4184A,115.479691,35.244011,菏泽市,永昌路1号,颗粒物(PM10),55,56,79,30,61,99,99,82,82,14,16,2,1,0.3,0.7
2026-03-06T1600,4193A,115.471542,35.280012,菏泽市,长城路999号,颗粒物(PM10),54,55,74,30,57,95,95,78,78,12,16,3,3,0.3,0.6
2026-03-06T1600,2514A,111.5264,24.4178,贺州市,环保小区,,31,25,23,18,16,97,97,70,70,8,10,4,3,0.7,0.7
2026-03-06T1600,2515A,111.561,24.4074,贺州市,政协大楼,,30,19,22,19,16,94,94,66,66,38,23,5,5,0.6,0.6
2026-03-06T1600,3534A,111.4744,24.455,贺州市,西湾,,28,22,23,19,17,83,83,64,64,9,11,6,6,0.7,0.7
2026-03-06T1600,2385A,114.17,35.9019,鹤壁市,市监测站,细颗粒物(PM2.5),76,64,85,48,72,68,68,46,46,9,15,2,3,0.6,1
2026-03-06T1600,2386A,114.2953,35.7512,鹤壁市,市交警支队,细颗粒物(PM2.5),60,51,77,40,63,66,66,47,47,10,18,3,7,0.5,0.8
2026-03-06T1600,2387A,114.2877,35.7302,鹤壁市,迎宾馆,颗粒物(PM10),56,58,78,36,61,67,67,47,47,11,18,3,7,0.7,1
2026-03-06T1600,3474A,114.2616,35.6824,鹤壁市,大新区,NA,NA,NA,66,57,67,71,71,52,52,10,19,3,3,0.7,0.9
2026-03-06T1600,3596A,114.1573,35.9607,鹤壁市,南山宾馆,细颗粒物(PM2.5),86,69,87,53,72,66,66,48,48,10,22,4,2,0.7,1
2026-03-06T1600,2244A,130.2537,47.3416,鹤岗市,哈啤分公司,,25,23,22,15,15,78,78,82,80,11,7,11,9,0.6,0.6
2026-03-06T1600,2245A,130.2683,47.3087,鹤岗市,斯达机电,,28,27,27,17,15,88,88,89,86,7,9,9,9,0.2,0.5
2026-03-06T1600,2246A,130.3114,47.3388,鹤岗市,东山纸板厂,,26,25,42,16,14,83,83,84,84,11,14,7,7,0.3,0.4
2026-03-06T1600,2263A,127.4832,50.2524,黑河市,交通局,,31,31,23,15,15,67,67,79,78,27,15,10,6,0.4,0.4
2026-03-06T1600,2264A,127.5146,50.2339,黑河市,环保局,NA,NA,32,24,22,19,77,77,75,75,16,18,NA,6,0.5,0.7
2026-03-06T1600,1074A,115.6839,37.754,衡水市,电机北厂,细颗粒物(PM2.5),66,46,58,43,50,88,88,74,74,10,17,1,3,0.4,0.7
2026-03-06T1600,1075A,115.6303,37.7318,衡水市,市监测站,细颗粒物(PM2.5),60,43,56,40,45,84,84,68,68,11,18,3,4,0.4,0.6
2026-03-06T1600,3188A,115.6684,37.7216,衡水市,市城管局,细颗粒物(PM2.5),70,NA,57,45,44,87,87,74,74,11,18,3,2,0.5,0.6
2026-03-06T1600,3459A,115.599,37.5491,衡水市,地表水厂,细颗粒物(PM2.5),56,42,51,38,45,93,93,79,79,5,12,4,4,0.4,0.5
2026-03-06T1600,2457A,112.6209,26.9268,衡阳市,衡阳化工总厂,,42,36,45,29,43,85,85,64,64,6,18,10,11,0.9,1
2026-03-06T1600,2458A,112.621,26.8957,衡阳市,珠晖区环保局,,35,35,50,24,38,79,79,58,58,10,26,5,6,0.7,1
2026-03-06T1600,2459A,112.628,26.8654,衡阳市,市委党校,,39,33,46,27,40,86,86,62,62,6,19,7,9,1.0,1.2
2026-03-06T1600,2460A,112.6007,26.8977,衡阳市,市监测站,,38,38,61,26,44,84,84,60,60,10,28,7,7,0.6,1.1
2026-03-06T1600,2461A,112.5658,26.9013,衡阳市,真空机电公司,,42,42,53,23,44,87,87,66,66,11,25,7,7,1.1,1.3
2026-03-06T1600,3399A,112.6703,26.8817,衡阳市,师范学院,,37,37,45,17,31,88,88,69,69,3,15,4,4,0.9,1.1
2026-03-06T1600,3038A,103.3757,23.3679,红河哈尼族彝族自治州,州图书馆,,25,20,24,17,21,64,64,66,64,6,6,4,4,0.6,0.6
2026-03-06T1600,4154A,103.401,23.3561,红河哈尼族彝族自治州,蒙自市朝阳路,,22,NA,23,11,21,69,69,68,64,6,6,8,7,0.5,0.4
2026-03-06T1600,1090A,111.6506,40.7517,呼和浩特市,呼市一监,,28,9,16,3,10,89,89,78,78,8,14,5,6,0.3,0.4
2026-03-06T1600,1094A,111.7516,40.8369,呼和浩特市,如意水处理厂,,28,12,18,7,9,88,88,76,76,4,9,10,10,0.3,0.3
2026-03-06T1600,1095A,111.727798,40.806187,呼和浩特市,二十九中,,27,8,20,8,7,85,85,70,70,6,11,10,11,0.2,0.3
2026-03-06T1600,1097A,111.717,40.7617,呼和浩特市,化肥厂生活区,,26,12,18,3,9,83,83,72,72,7,10,4,5,0.2,0.3
2026-03-06T1600,3699A,111.6519,40.8389,呼和浩特市,海东办,,27,9,15,6,6,86,86,73,73,6,11,4,4,0.2,0.2
2026-03-06T1600,4275A,111.591512,40.827312,呼和浩特市,成吉思汗西街8号,,25,17,15,8,7,78,78,65,65,8,12,5,5,0.3,0.3
2026-03-06T1600,4276A,111.6597,40.8077,呼和浩特市,公园东路75号,,27,12,15,6,6,84,84,74,74,8,11,7,7,0.3,0.3
2026-03-06T1600,4277A,111.5427,40.7846,呼和浩特市,金海路35号,,26,13,19,8,6,82,82,66,66,8,13,8,6,0.3,0.3
2026-03-06T1600,3061A,119.7511,49.1576,呼伦贝尔市,国华电力东,,28,18,31,14,18,87,87,81,81,11,17,6,4,0.1,0.2
2026-03-06T1600,4279A,119.7569,49.2222,呼伦贝尔市,伊敏大街东7号,,29,NA,30,20,21,83,83,78,78,9,28,7,7,0.3,0.6
2026-03-06T1600,1250A,120.075,30.867,湖州市,城西水厂,细颗粒物(PM2.5),54,46,66,37,44,99,99,91,91,18,22,5,6,0.6,0.6
2026-03-06T1600,2873A,120.083,30.8929,湖州市,仁皇山新区,,50,48,61,35,40,92,92,88,88,19,24,5,5,0.7,0.7
2026-03-06T1600,2907A,120.1846,30.8592,湖州市,吴兴区站,颗粒物(PM10),53,53,65,36,37,95,95,79,79,15,22,4,5,0.4,0.4
2026-03-06T1600,3562A,120.4146,30.8538,湖州市,南浔区站,细颗粒物(PM2.5),64,52,64,42,45,89,89,84,84,18,19,7,8,0.9,0.7
2026-03-06T1600,1607A,120.904878,40.721091,葫芦岛市,龙港区,,28,17,28,9,15,87,87,82,82,6,14,7,10,0.4,0.5
2026-03-06T1600,1608A,120.8382,40.7521,葫芦岛市,化工街,,27,14,28,10,21,84,84,79,79,8,19,6,9,0.3,0.4
2026-03-06T1600,1609A,120.8339,40.7078,葫芦岛市,新区,,26,18,26,6,16,82,82,78,78,8,16,8,10,0.3,0.5
2026-03-06T1600,1610A,120.8697,40.7679,葫芦岛市,东城区,,26,16,24,7,16,83,83,79,79,7,16,8,11,0.4,0.5
2026-03-06T1600,2483A,109.9297,27.5383,怀化市,河西地税局,细颗粒物(PM2.5),60,48,44,40,35,53,53,44,44,11,13,3,3,/,/
2026-03-06T1600,2484A,109.9783,27.5342,怀化市,市四医院,细颗粒物(PM2.5),56,54,48,38,36,51,51,43,43,8,10,7,6,0.6,0.6
2026-03-06T1600,2485A,109.9971,27.5579,怀化市,监测楼,细颗粒物(PM2.5),54,48,40,37,34,55,55,44,44,9,11,4,3,0.4,0.4
2026-03-06T1600,1210A,119.0566,33.5991,淮安市,钵池山,颗粒物(PM10),56,58,62,37,46,86,86,64,64,12,25,9,10,0.4,0.6
2026-03-06T1600,1211A,119.0083,33.578,淮安市,北京南路,颗粒物(PM10),60,63,64,37,48,76,76,55,55,16,29,6,7,0.4,0.6
2026-03-06T1600,1212A,118.9938,33.6083,淮安市,市监测站,细颗粒物(PM2.5),60,51,56,40,50,86,86,63,63,11,31,9,9,0.5,0.7
2026-03-06T1600,1213A,119.135,33.5038,淮安市,楚州区监测站,颗粒物(PM10),53,54,59,31,46,89,89,69,69,8,27,5,5,0.2,0.5
2026-03-06T1600,3426A,118.8757,33.2897,淮安市,新华书店,细颗粒物(PM2.5),80,79,67,50,51,77,77,47,47,14,17,6,6,0.5,0.5
2026-03-06T1600,4092A,119.119691,33.550006,淮安市,枚皋中路89号,颗粒物(PM10),60,63,62,34,41,90,90,69,69,10,28,8,9,0.4,0.6
2026-03-06T1600,4206A,119.028838,33.631911,淮安市,承德北路606号,颗粒物(PM10),62,66,71,34,45,89,89,68,68,10,30,6,7,0.4,0.6
2026-03-06T1600,2282A,116.8005,33.9749,淮北市,监测站,细颗粒物(PM2.5),121,120,85,83,61,53,53,49,49,22,18,5,5,0.9,0.8
2026-03-06T1600,2283A,116.8094,33.9008,淮北市,烈山区政府,细颗粒物(PM2.5),120,121,84,82,61,54,54,49,49,20,17,3,3,0.7,0.6
2026-03-06T1600,4017A,116.7926,33.9534,淮北市,市博物馆,细颗粒物(PM2.5),127,115,88,89,65,50,50,47,47,21,18,2,1,0.8,0.8
2026-03-06T1600,4100A,116.8322,33.9884,淮北市,杜集区第一实验学校,细颗粒物(PM2.5),121,123,90,83,62,50,50,46,46,23,19,7,6,0.7,0.7
2026-03-06T1600,2277A,116.8304,32.7726,淮南市,潘集区政府,细颗粒物(PM2.5),116,99,80,77,51,63,63,52,52,19,26,6,6,0.8,0.6
2026-03-06T1600,2279A,116.8569,32.5949,淮南市,谢家集区政府,细颗粒物(PM2.5),102,93,64,62,49,73,73,59,59,22,23,7,8,0.7,0.6
2026-03-06T1600,2280A,116.8279,32.6333,淮南市,八公山区政府,细颗粒物(PM2.5),109,101,69,69,51,75,75,62,62,23,19,10,7,0.6,0.5
2026-03-06T1600,2894A,117.0561,32.6536,淮南市,经济技术开发区消防队,细颗粒物(PM2.5),114,103,83,75,52,59,59,55,55,25,26,6,5,0.6,0.5
2026-03-06T1600,3329A,117.011,32.5891,淮南市,山南新区,细颗粒物(PM2.5),103,84,64,63,49,76,76,64,64,22,23,6,6,0.6,0.5
2026-03-06T1600,4209A,117.003137,32.644456,淮南市,国庆中路369号,细颗粒物(PM2.5),110,93,71,71,54,53,53,45,45,24,24,11,10,0.7,0.6
2026-03-06T1600,2446A,114.9021,30.474,黄冈市,职工中心,细颗粒物(PM2.5),100,62,49,60,42,67,67,58,58,14,15,6,6,0.8,0.8
2026-03-06T1600,2929A,114.8858,30.4519,黄冈市,红卫路,细颗粒物(PM2.5),76,58,48,48,39,64,64,57,57,17,16,4,4,0.2,0.4
2026-03-06T1600,3398A,114.9134,30.4446,黄冈市,市林业局,NA,NA,65,51,51,41,69,69,61,61,NA,24,4,4,0.6,0.6
2026-03-06T1600,2672A,102.02,35.5101,黄南藏族自治州,同仁县隆务镇,,30,28,62,11,27,93,93,81,81,2,2,9,10,0.2,0.3
2026-03-06T1600,2295A,118.2905,29.6965,黄山市,延安路89号,,32,32,44,22,35,94,94,85,85,10,10,4,4,0.6,0.7
2026-03-06T1600,2297A,118.1369,30.2755,黄山市,黄山区政府5号楼,颗粒物(PM10),55,56,58,28,36,92,92,73,73,11,13,2,2,0.8,0.9
2026-03-06T1600,4210A,118.335445,29.720283,黄山市,滨江东路7-2号,颗粒物(PM10),52,52,64,25,36,96,96,86,86,9,10,/,/,/,/
2026-03-06T1600,2423A,115.0547,30.2332,黄石市,沈家营,"颗粒物(PM10),细颗粒物(PM2.5)",62,66,59,41,39,55,55,54,54,24,20,10,10,1.1,1
2026-03-06T1600,2426A,114.899,30.211,黄石市,铁山,细颗粒物(PM2.5),64,44,49,42,42,73,73,65,65,15,19,8,7,0.5,0.6
2026-03-06T1600,2427A,115.0259,30.2108,黄石市,团城山,细颗粒物(PM2.5),68,52,54,44,42,55,55,58,58,23,14,7,7,1.2,0.9
2026-03-06T1600,3149A,115.0174,30.1591,黄石市,笔架山北路,细颗粒物(PM2.5),74,80,72,47,45,67,67,57,57,9,17,11,8,0.8,0.8
2026-03-06T1600,4185A,115.078022,30.21118,黄石市,磁湖东路29号,细颗粒物(PM2.5),80,63,53,50,43,63,63,64,64,22,11,11,7,0.4,0.7
2026-03-06T1600,1392A,114.4181,23.0528,惠州市,河南岸金山湖子站,,23,17,20,16,16,69,69,60,60,5,9,6,6,0.7,0.7
2026-03-06T1600,1393A,114.4055,23.0824,惠州市,下埔横江三路子站,NA,NA,17,20,12,14,80,80,70,70,NA,8,7,8,0.7,0.7
2026-03-06T1600,1395A,114.4645,22.7832,惠州市,惠阳区承修路船湖子站,,24,20,21,15,15,76,76,64,64,8,9,6,6,0.6,0.6
2026-03-06T1600,1396A,114.5316,22.7423,惠州市,大亚湾管委会子站,,23,18,18,14,13,71,71,57,57,4,4,2,2,0.6,0.6
2026-03-06T1600,3314A,114.4334,22.8134,惠州市,惠阳秋长,,26,14,18,13,16,81,81,60,60,5,6,/,/,/,/
2026-03-06T1600,3452A,114.6521,22.7755,惠州市,大亚湾霞涌,,23,18,17,9,13,73,73,59,59,6,8,/,/,/,/
2026-03-06T1600,4300A,114.4089,23.1147,惠州市,文华一路1号,,24,16,19,13,15,76,76,67,67,4,8,/,/,/,/
2026-03-06T1600,2240A,130.9618,45.2926,鸡西市,环保局,,49,49,51,27,34,92,92,76,76,10,24,6,9,0.2,0.4
2026-03-06T1600,2243A,130.9294,45.2959,鸡西市,第一中学,,46,36,41,32,27,94,94,78,78,8,18,4,6,0.3,0.4
2026-03-06T1600,3707A,131.0069,45.2988,鸡西市,欧美日汽修厂,,42,32,72,29,38,90,90,76,76,8,29,7,14,0.2,0.5
2026-03-06T1600,2367A,114.9753,27.0803,吉安市,红声器材厂,细颗粒物(PM2.5),58,54,60,39,48,98,98,70,70,11,16,3,3,0.5,0.5
2026-03-06T1600,2369A,114.9903,27.1313,吉安市,市环境监测站,,46,45,53,32,48,99,99,69,69,10,16,6,6,/,/
2026-03-06T1600,2370A,115.009527,27.096792,吉安市,青原区法院,颗粒物(PM10),55,56,61,37,44,106,106,78,78,9,22,5,6,0.6,0.7
2026-03-06T1600,1772A,126.54,43.8622,吉林市,哈达湾,,30,30,43,14,34,86,86,79,79,8,18,7,12,0.8,1
2026-03-06T1600,1773A,126.5843,43.8358,吉林市,东局子,,28,NA,45,12,40,89,89,79,79,6,18,4,6,0.6,0.8
2026-03-06T1600,1774A,126.5051,43.8243,吉林市,电力学院,,28,10,41,10,33,87,87,81,81,10,20,12,19,0.6,0.9
2026-03-06T1600,1775A,126.6133,43.8971,吉林市,江北,,28,22,42,10,34,88,88,80,80,5,14,5,7,0.4,0.7
2026-03-06T1600,1776A,126.5549,43.8304,吉林市,江南公园,,25,24,42,12,36,80,80,74,74,12,19,9,11,0.6,0.9
2026-03-06T1600,2868A,126.4737,43.953,吉林市,九站,,31,31,59,16,47,85,85,74,74,7,27,13,17,0.3,0.5
2026-03-06T1600,1299A,116.9866,36.6118,济南市,科干所,细颗粒物(PM2.5),54,48,61,37,41,85,85,77,77,14,17,3,3,0.6,0.6
2026-03-06T1600,1300A,116.9379,36.6652,济南市,农科所,,48,46,55,33,44,88,88,77,77,10,17,4,4,0.5,0.6
2026-03-06T1600,1301A,117.1265,36.6736,济南市,开发区,,49,44,54,34,50,92,92,81,81,15,17,2,2,0.6,0.7
2026-03-06T1600,1303A,117.0616,36.6865,济南市,省种子仓库,颗粒物(PM10),51,51,63,32,46,89,89,78,78,13,16,4,3,0.5,0.6
2026-03-06T1600,1304A,116.9495185,36.644937,济南市,机床二厂,,44,44,54,30,47,88,88,78,78,13,13,2,3,0.6,0.7
2026-03-06T1600,1305A,117.0496,36.6629,济南市,市监测站,,48,46,63,33,49,86,86,77,77,13,16,4,2,0.5,0.6
2026-03-06T1600,1306A,116.7674,36.5458,济南市,长清党校,颗粒物(PM10),51,51,66,26,47,88,88,78,78,9,13,2,2,0.6,0.7
2026-03-06T1600,1961A,117.5323,36.6865,济南市,东山小学,,46,46,64,32,44,88,88,75,75,13,17,2,2,0.6,0.7
2026-03-06T1600,3059A,117.7181,36.205,济南市,泰兴公司,,48,46,65,33,45,94,94,83,83,12,18,6,5,0.6,0.7
2026-03-06T1600,3064A,117.6861,36.2172,济南市,莱芜战役纪念馆,颗粒物(PM10),53,53,66,35,45,101,101,90,90,14,19,4,3,0.5,0.6
2026-03-06T1600,3494A,117.1673,36.9782,济南市,济阳区政府,,42,42,56,28,45,83,83,72,72,10,14,4,4,0.4,0.5
2026-03-06T1600,3495A,117.1168,36.6299,济南市,锦屏中学,,46,46,60,31,50,85,85,76,76,10,13,6,5,0.4,0.6
2026-03-06T1600,4108A,117.7107,36.2385,济南市,山财大街5号,,46,46,61,31,47,85,85,76,76,16,15,9,9,0.6,0.8
2026-03-06T1600,4109A,116.9744,36.6889,济南市,无影山路12号,,45,44,52,31,45,83,83,75,75,11,13,3,3,0.6,0.7
2026-03-06T1600,1653A,116.6229,35.4288,济宁市,火炬城,,41,41,64,26,51,94,94,74,74,10,17,3,2,0.4,0.8
2026-03-06T1600,3500A,116.5808,35.3703,济宁市,北湖一中,,43,43,62,26,50,95,95,75,75,12,16,4,4,0.2,0.5
2026-03-06T1600,3501A,116.8251,35.5592,济宁市,服务中心,,47,47,79,28,56,85,85,72,72,9,17,3,2,0.3,0.5
2026-03-06T1600,3678A,116.5907,35.4054,济宁市,市第七中学,,47,47,63,26,50,100,100,80,80,11,17,6,6,0.4,0.8
2026-03-06T1600,4111A,116.6075,35.4566,济宁市,任和路,,44,44,77,25,51,96,96,78,78,11,20,4,4,0.3,0.7
2026-03-06T1600,4112A,116.5648,35.3921,济宁市,文体南路1号,,41,41,77,21,52,98,98,78,78,7,14,1,2,0.3,0.7
2026-03-06T1600,4122A,112.6071,35.1015,济源市,市委党校,细颗粒物(PM2.5),104,102,119,64,75,55,55,42,42,18,21,4,4,0.7,1
2026-03-06T1600,4123A,112.596,35.0702,济源市,沁园中路1号,细颗粒物(PM2.5),101,89,99,61,72,60,60,46,46,17,19,3,3,0.8,1.1
2026-03-06T1600,2255A,130.2749,46.8028,佳木斯市,佳纺,,38,NA,61,26,31,80,80,70,70,8,30,6,7,0.3,0.6
2026-03-06T1600,2257A,130.3258,46.7975,佳木斯市,环保局,,27,25,44,13,27,84,84,76,76,7,26,5,6,0.3,0.6
2026-03-06T1600,4285A,130.363,46.806,佳木斯市,顺和街,,27,17,31,8,22,85,85,77,77,6,24,4,5,0.2,0.3
2026-03-06T1600,4286A,130.3952,46.8268,佳木斯市,长安路196号,NA,NA,NA,27,19,20,90,90,81,81,NA,17,4,5,0.3,0.4
2026-03-06T1600,1252A,120.7439,30.778,嘉兴市,清河小学,细颗粒物(PM2.5),60,53,58,40,33,90,90,86,86,18,25,5,5,0.6,0.6
2026-03-06T1600,1253A,120.7261,30.7477,嘉兴市,嘉兴学院,,49,49,62,33,37,94,94,90,90,17,24,5,5,0.7,0.7
2026-03-06T1600,2872A,120.7845,30.7524,嘉兴市,南湖区残联,,49,49,51,34,36,84,84,84,84,18,21,4,4,0.8,0.7
2026-03-06T1600,3407A,120.6915,30.7741,嘉兴市,秀洲住建,颗粒物(PM10),56,58,64,34,40,93,93,94,94,20,23,7,7,0.9,0.8
2026-03-06T1600,1945A,98.291,39.7705,嘉峪关市,气象局,颗粒物(PM10),100,119,98,41,28,126,126,93,93,9,19,9,7,0.4,0.4
2026-03-06T1600,2884A,98.2672,39.7978,嘉峪关市,酒钢宾馆,颗粒物(PM10),103,127,105,46,35,114,114,84,84,16,18,22,19,0.9,0.9
2026-03-06T1600,3248A,98.2644,39.7723,嘉峪关市,雄关区,颗粒物(PM10),79,90,81,37,28,124,124,89,89,12,22,12,11,0.5,0.6
2026-03-06T1600,1383A,113.1063,22.6058,江门市,北街,,47,30,28,21,18,150,150,93,93,21,24,/,/,/,/
2026-03-06T1600,1384A,113.073,22.5835,江门市,西区,,49,37,28,23,19,156,156,94,94,15,19,/,/,/,/
2026-03-06T1600,1385A,113.0218,22.531,江门市,圭峰西,,44,34,25,23,17,140,140,89,89,13,14,/,/,/,/
2026-03-06T1600,1386A,113.0826,22.5947,江门市,东湖,,47,38,27,20,16,149,149,92,92,15,17,5,5,0.5,0.6
2026-03-06T1600,3311A,113.1077,22.5647,江门市,江海富民,NA,NA,46,38,24,18,150,150,93,93,NA,23,/,/,0.5,0.5
2026-03-06T1600,3449A,113.0496,22.4669,江门市,新会银湖,,47,36,29,26,18,150,150,91,91,18,21,6,7,0.5,0.6
2026-03-06T1600,3335A,113.3137,35.2643,焦作市,马村街道办,颗粒物(PM10),65,71,88,41,70,61,61,45,45,17,20,6,5,0.7,1.1
2026-03-06T1600,3336A,113.2464,35.2374,焦作市,焦作技师学院,颗粒物(PM10),68,74,93,42,69,60,60,41,41,13,19,7,7,0.8,1.2
2026-03-06T1600,3477A,113.1656,35.2536,焦作市,中站许衡医院,细颗粒物(PM2.5),90,88,94,55,70,61,61,45,45,19,20,7,7,0.8,1.2
2026-03-06T1600,3981A,113.2456,35.18,焦作市,原李万街道办,颗粒物(PM10),82,94,94,46,68,61,61,46,46,15,16,7,7,0.4,1
2026-03-06T1600,4264A,113.234,35.219,焦作市,新安路1731号,细颗粒物(PM2.5),66,64,88,43,68,65,65,48,48,21,21,11,7,0.6,1
2026-03-06T1600,4295A,113.2722,35.2121,焦作市,人民路3066号,细颗粒物(PM2.5),68,69,90,44,64,69,69,50,50,14,19,6,6,0.8,1.2
2026-03-06T1600,1708A,116.3701,23.5345,揭阳市,新兴,,20,20,19,11,12,59,59,51,51,8,10,6,6,0.6,0.7
2026-03-06T1600,1709A,116.3261,23.5442,揭阳市,西马,,23,23,19,12,11,56,56,48,48,9,8,5,5,0.6,0.5
2026-03-06T1600,1710A,116.361,23.5627,揭阳市,东兴,,27,27,22,16,14,57,57,48,48,8,12,3,4,/,/
2026-03-06T1600,1711A,116.4151,23.5295,揭阳市,渔湖,,36,36,22,12,13,68,68,58,58,10,11,4,5,/,/
2026-03-06T1600,3320A,116.4028,23.5699,揭阳市,曲溪,,21,20,21,12,13,66,66,56,56,12,15,4,5,0.7,0.7
2026-03-06T1600,1944A,102.1691,38.5166,金昌市,天庆家园,颗粒物(PM10),98,117,83,38,28,102,102,83,83,5,7,5,20,0.6,0.6
2026-03-06T1600,4022A,102.1648,38.5369,金昌市,金川区人防中心,颗粒物(PM10),93,110,81,38,29,100,100,82,82,7,8,7,18,0.5,0.6
2026-03-06T1600,4239A,102.193042,38.531887,金昌市,长春路96号,颗粒物(PM10),90,105,82,35,28,94,94,78,78,12,16,8,29,0.5,0.5
2026-03-06T1600,1262A,119.6478,29.0773,金华市,十五中,颗粒物(PM10),58,61,50,34,35,98,98,85,85,17,22,3,4,0.5,0.5
2026-03-06T1600,1263A,119.6859,29.1032,金华市,监测站,细颗粒物(PM2.5),62,62,55,41,40,84,84,71,71,15,20,2,2,0.6,0.6
2026-03-06T1600,3659A,119.656,29.1132,金华市,气象局,颗粒物(PM10),56,58,53,37,37,89,89,76,76,22,29,2,2,0.6,0.6
2026-03-06T1600,1767A,121.1114,41.0879,锦州市,南山,,35,35,18,8,14,89,89,84,84,5,8,6,7,0.4,0.5
2026-03-06T1600,1768A,121.060361,40.842794,锦州市,开发区,,28,19,23,10,15,88,88,82,82,4,12,6,8,0.3,0.5
2026-03-06T1600,1769A,121.1836,41.1118,锦州市,百股街道,,29,26,22,10,16,90,90,85,85,4,8,6,7,0.4,0.5
2026-03-06T1600,1770A,121.1176,41.1224,锦州市,天安街道,,28,20,21,8,14,88,88,85,85,6,9,5,6,0.3,0.4
2026-03-06T1600,1771A,121.1303,41.1385,锦州市,北湖公园,,30,15,20,12,16,94,94,89,89,4,7,5,6,0.5,0.5
2026-03-06T1600,2160A,112.8496,35.5051,晋城市,自来水公司,颗粒物(PM10),53,53,82,35,37,72,72,50,50,8,12,3,4,0.6,0.8
2026-03-06T1600,2162A,112.8509,35.4886,晋城市,市环保局,,47,47,72,27,44,74,74,52,52,14,17,3,4,0.6,0.8
2026-03-06T1600,3620A,112.8258,35.4804,晋城市,泽州一中,细颗粒物(PM2.5),54,54,74,37,38,69,69,51,51,11,13,3,3,0.3,0.6
2026-03-06T1600,4078A,112.8246,35.5152,晋城市,前书院路,颗粒物(PM10),61,65,73,23,33,70,70,50,50,10,13,3,5,0.7,0.8
2026-03-06T1600,4079A,112.8864,35.4773,晋城市,祥云街666号,颗粒物(PM10),55,56,74,31,49,76,76,49,49,10,12,6,6,0.4,0.6
2026-03-06T1600,2174A,112.6992,37.6984,晋中市,榆次区政府,,24,24,41,7,13,75,75,63,63,20,23,9,9,0.2,0.3
2026-03-06T1600,2865A,112.7195,37.683,晋中市,榆次三中,,29,29,41,11,10,77,77,62,62,14,15,10,9,0.2,0.2
2026-03-06T1600,4080A,112.7375,37.7215,晋中市,广安街188号,,25,17,40,6,12,80,80,64,64,9,16,10,10,0.2,0.3
2026-03-06T1600,4200A,112.7478,37.6954,晋中市,迎宾街26号,,31,31,42,8,11,81,81,64,64,12,14,9,8,0.4,0.4
2026-03-06T1600,2439A,112.2012,31.048,荆门市,竹园小学,NA,NA,NA,122,NA,94,74,74,40,40,13,28,2,2,NA,1.6
2026-03-06T1600,2440A,112.1968,30.9892,荆门市,掇刀,细颗粒物(PM2.5),86,60,120,53,93,86,86,52,52,10,27,6,6,0.7,0.9
2026-03-06T1600,3012A,112.1849,31.0361,荆门市,西山林语,细颗粒物(PM2.5),100,73,114,60,82,75,75,41,41,15,19,6,4,0.9,0.9
2026-03-06T1600,3547A,112.1631,31.0134,荆门市,龙泉中学南校,NA,NA,NA,NA,NA,NA,NA,NA,NA,NA,NA,NA,NA,NA,NA,NA
2026-03-06T1600,4124A,112.2213,31.0654,荆门市,新台西路6号,细颗粒物(PM2.5),102,80,109,62,85,76,76,40,40,10,21,5,5,0.6,0.8
2026-03-06T1600,1844A,112.2493,30.3198,荆州市,市图书馆,细颗粒物(PM2.5),98,61,69,59,67,73,73,44,44,15,33,9,7,0.8,0.9
2026-03-06T1600,1845A,112.2009,30.3543,荆州市,市委党校,细颗粒物(PM2.5),84,63,83,52,70,72,72,36,36,17,35,8,7,0.7,0.8
2026-03-06T1600,3194A,112.2749,30.3124,荆州市,管委会,细颗粒物(PM2.5),88,58,77,54,71,72,72,43,43,16,27,11,10,0.8,0.9
2026-03-06T1600,4268A,112.1722,30.3366,荆州市,学苑路85号,细颗粒物(PM2.5),98,66,83,59,68,85,85,44,44,12,26,1,2,1.1,1
2026-03-06T1600,2343A,117.2114,29.2931,景德镇市,老干部活动中心,NA,NA,35,36,31,34,85,85,69,69,NA,8,4,4,0.7,0.7
2026-03-06T1600,2344A,117.1893,29.2789,景德镇市,兽医站,,41,41,45,21,28,88,88,72,72,6,9,5,4,0.4,0.5
2026-03-06T1600,2346A,117.246,29.2958,景德镇市,陶研所,,38,30,33,26,32,84,84,67,67,8,12,4,4,0.5,0.6
2026-03-06T1600,4289A,117.154766,29.256967,景德镇市,青少年活动中心,,34,34,40,23,33,80,80,66,66,6,13,3,4,/,/
2026-03-06T1600,1803A,115.9873,29.6816,九江市,十里,,39,39,58,27,45,100,100,81,81,16,24,6,6,0.6,0.6
2026-03-06T1600,1804A,115.9583,29.7047,九江市,茅山头,,46,33,57,32,52,94,94,79,79,13,17,3,4,0.7,0.7
2026-03-06T1600,1805A,115.9877,29.7295,九江市,西园,,43,42,58,30,48,93,93,76,76,21,29,3,4,0.7,0.7
2026-03-06T1600,1808A,115.9112,29.6038,九江市,综合工业园,NA,NA,NA,53,31,44,97,97,79,79,16,24,5,6,0.6,0.7
2026-03-06T1600,3190A,116.0254,29.6995,九江市,外国语学校,NA,NA,29,49,28,44,88,88,71,71,13,21,NA,6,0.6,0.6
2026-03-06T1600,4253A,116.010205,29.659402,九江市,莲花大道8号,,40,40,59,26,40,89,89,72,72,11,18,4,5,0.4,0.5
2026-03-06T1600,4240A,98.495752,39.733935,酒泉市,玉门东路5号,颗粒物(PM10),106,134,106,46,38,103,103,80,80,4,12,8,7,0.3,0.4
2026-03-06T1600,4241A,98.5099,39.7506,酒泉市,北大街108号,细颗粒物(PM2.5),128,144,104,90,46,101,101,80,80,8,15,10,9,0.5,0.4
2026-03-06T1600,2698A,76.0071,39.466,喀什地区,巡警大队,颗粒物(PM10),338,450,652,128,172,46,46,46,46,35,37,7,6,1.1,1.1
2026-03-06T1600,2699A,75.9756,39.4693,喀什地区,吾办,颗粒物(PM10),343,454,609,143,185,45,45,48,43,28,28,7,9,0.9,0.7
2026-03-06T1600,4027A,75.9485,39.4688,喀什地区,老干局,颗粒物(PM10),360,468,627,134,155,42,42,45,44,27,25,9,6,1.1,0.9
2026-03-06T1600,1824A,114.3389,34.778,开封市,肿瘤医院,,50,49,72,35,67,89,89,69,69,15,20,6,6,0.6,1
2026-03-06T1600,1826A,114.2884,34.7966,开封市,世纪星幼儿园,细颗粒物(PM2.5),60,41,72,40,64,81,81,64,64,16,22,8,7,0.6,1
2026-03-06T1600,3147A,114.3434,34.8101,开封市,龙亭公园,细颗粒物(PM2.5),56,56,70,38,59,88,88,68,68,17,23,8,8,0.6,1
2026-03-06T1600,3210A,114.3645,34.7955,开封市,汴京公园,细颗粒物(PM2.5),60,59,71,40,55,86,86,65,65,16,21,4,4,0.5,0.9
2026-03-06T1600,3473A,114.2485,34.8306,开封市,技师学院,细颗粒物(PM2.5),52,46,66,36,63,85,85,66,66,12,19,7,8,0.7,1.1
2026-03-06T1600,3592A,114.4518,34.7503,开封市,祥符区生态环境局,细颗粒物(PM2.5),80,56,92,50,67,85,85,66,66,18,26,7,6,0.8,1.2
2026-03-06T1600,1951A,84.886,45.6029,克拉玛依市,长征新村,,30,30,30,16,21,90,90,74,60,9,21,7,7,0.9,0.7
2026-03-06T1600,1952A,84.8894,45.5827,克拉玛依市,南林小区,,31,31,35,8,18,94,94,63,63,1,11,3,3,0.3,0.5
2026-03-06T1600,1954A,84.896,44.3328,克拉玛依市,独山子区,颗粒物(PM10),52,52,62,27,44,117,117,110,110,25,14,7,4,0.8,0.7
2026-03-06T1600,1955A,85.6888,46.0909,克拉玛依市,乌尔禾区商贸楼,,25,24,29,12,16,80,80,52,52,8,13,8,9,0.4,0.8
2026-03-06T1600,3612A,85.1045,45.6895,克拉玛依市,白碱滩区新站,细颗粒物(PM2.5),56,NA,36,38,25,91,91,72,34,20,23,11,11,0.4,0.4
2026-03-06T1600,2697A,76.1457,39.7143,克孜勒苏柯尔克孜自治州,市人民政府,颗粒物(PM10),258,390,526,90,126,75,75,69,69,9,14,4,4,0.3,0.3
2026-03-06T1600,3665A,76.1654,39.7157,克孜勒苏柯尔克孜自治州,克州文化中心,颗粒物(PM10),240,378,542,101,136,70,70,71,69,12,14,6,6,0.3,0.4
2026-03-06T1600,1450A,102.8203,24.889,昆明市,呈贡新区,细颗粒物(PM2.5),82,59,53,51,50,135,135,108,108,10,12,4,5,0.8,0.8
2026-03-06T1600,1452A,102.7253,25.0904,昆明市,龙泉镇,细颗粒物(PM2.5),70,48,58,45,50,122,122,91,91,6,15,3,3,0.4,0.5
2026-03-06T1600,1453A,102.7267,25.0378,昆明市,东风东路,细颗粒物(PM2.5),90,61,66,55,48,130,130,96,96,12,18,6,5,0.6,0.7
2026-03-06T1600,1454A,102.6744,25.0671,昆明市,金鼎山,细颗粒物(PM2.5),72,66,69,46,51,129,129,97,97,12,17,4,3,0.7,0.7
2026-03-06T1600,1455A,102.6643,25.0401,昆明市,碧鸡广场,细颗粒物(PM2.5),86,53,68,53,51,124,124,92,92,11,19,5,4,0.7,0.7
2026-03-06T1600,3179A,102.7491,25.012,昆明市,官渡区博物馆,细颗粒物(PM2.5),86,64,62,53,46,127,127,95,95,9,17,2,3,0.6,0.7
2026-03-06T1600,3375A,102.8016,24.8336,昆明市,青年创业园,细颗粒物(PM2.5),80,55,70,50,50,126,126,102,102,5,12,4,4,0.6,0.7
2026-03-06T1600,3550A,102.8,24.9787,昆明市,昆明学院,细颗粒物(PM2.5),64,56,67,42,41,127,127,94,94,10,15,3,4,0.8,0.9
2026-03-06T1600,3551A,102.5969,24.6738,昆明市,晋宁区生态环境分局,细颗粒物(PM2.5),88,69,78,54,61,130,130,106,106,6,12,2,3,0.5,0.6
2026-03-06T1600,3552A,102.6673,24.9861,昆明市,云天化总部,细颗粒物(PM2.5),60,44,63,40,43,128,128,94,94,9,14,20,6,0.5,0.6
2026-03-06T1600,1456A,91.132,29.6515,拉萨市,八廓街,,35,14,22,3,9,111,111,74,74,6,26,6,5,0.6,1
2026-03-06T1600,1457A,91.1221,29.6748,拉萨市,市环保局,,30,12,38,3,19,96,96,64,64,8,32,4,5,0.3,1.1
2026-03-06T1600,1458A,91.0874,29.6476,拉萨市,区监测站,,32,10,19,3,13,101,101,63,63,7,36,5,5,0.5,1
2026-03-06T1600,1459A,91.1774,29.6541,拉萨市,西藏大学,,34,11,15,3,8,107,107,72,72,9,21,4,4,0.5,0.9
2026-03-06T1600,1460A,90.9798,29.6586,拉萨市,区辐射站,,30,9,22,3,13,95,95,61,61,10,26,3,4,0.4,0.6
2026-03-06T1600,1461A,91.0831,29.6292,拉萨市,拉萨火车站,,33,7,12,3,6,103,103,62,62,6,18,4,4,0.4,0.6
2026-03-06T1600,2520A,109.2203,23.7252,来宾市,来宾技工学校,,39,39,45,21,32,118,118,89,89,7,13,9,10,0.8,0.9
2026-03-06T1600,3535A,109.1781,23.7293,来宾市,兴宾区政府,NA,NA,36,40,21,26,133,133,98,98,NA,9,7,7,0.7,0.8
2026-03-06T1600,4002A,109.2312,23.7428,来宾市,中南小学,,41,41,52,22,38,120,120,91,91,8,17,6,7,0.7,0.8
2026-03-06T1600,1479A,103.8309,36.0467,兰州市,铁路设计院,NA,NA,NA,NA,NA,NA,NA,NA,NA,NA,NA,NA,NA,NA,NA,NA
2026-03-06T1600,3241A,103.7439,36.0841,兰州市,百合公园,颗粒物(PM10),61,65,85,29,35,98,98,63,63,17,26,9,11,0.7,0.8
2026-03-06T1600,3242A,103.9613,35.9985,兰州市,和平,颗粒物(PM10),73,81,94,24,36,119,119,83,83,8,20,15,13,0.6,0.7
2026-03-06T1600,4236A,103.629272,36.093822,兰州市,庄浪东路808号,颗粒物(PM10),72,80,94,36,34,111,111,94,94,20,25,14,11,0.5,0.5
2026-03-06T1600,4237A,103.7251,36.104344,兰州市,安宁西路88号,颗粒物(PM10),87,101,105,33,32,113,113,82,82,17,20,12,16,0.4,0.4
2026-03-06T1600,4238A,103.846982,36.067567,兰州市,北滨河东路1号,颗粒物(PM10),62,66,88,33,34,112,112,65,65,19,33,10,13,0.5,0.7
2026-03-06T1600,1067A,116.6712,39.5109,廊坊市,药材公司,,28,7,55,6,50,88,88,67,67,4,23,3,3,0.4,0.8
2026-03-06T1600,1068A,116.7215,39.5592,廊坊市,开发区,,28,20,55,8,51,89,89,70,70,1,19,3,3,0.3,0.7
2026-03-06T1600,1070A,116.7246,39.5273,廊坊市,北华航天学院,,28,11,58,3,52,89,89,72,72,2,20,2,2,0.2,0.6
2026-03-06T1600,2919A,116.7022,39.5454,廊坊市,河北工业大学,,27,13,61,6,52,86,86,67,67,2,16,3,3,0.3,0.7
2026-03-06T1600,2536A,103.7629,29.5844,乐山市,牛耳桥,细颗粒物(PM2.5),60,56,43,40,28,74,74,41,41,15,27,7,7,0.8,0.9
2026-03-06T1600,2537A,103.7501,29.6002,乐山市,市第三水厂,细颗粒物(PM2.5),56,50,44,38,27,79,79,44,44,13,30,4,5,0.7,0.9
2026-03-06T1600,2538A,103.7571,29.5664,乐山市,市监测站,颗粒物(PM10),70,78,46,38,25,76,76,43,43,11,25,8,8,0.7,0.8
2026-03-06T1600,3361A,103.7313,29.563,乐山市,理工大学,细颗粒物(PM2.5),86,67,40,53,27,83,83,47,47,10,19,5,8,0.7,1
2026-03-06T1600,2599A,100.2497,26.8802,丽江市,丽江古城,,50,50,53,30,37,123,123,117,117,7,13,8,12,0.4,0.5
2026-03-06T1600,2600A,100.2203,26.8906,丽江市,市中心,,48,43,46,33,39,126,126,120,120,9,12,8,8,0.4,0.5
2026-03-06T1600,1267A,119.9141,28.4513,丽水市,监测站大楼,,37,35,24,16,20,117,117,77,77,10,14,4,4,0.4,0.4
2026-03-06T1600,1268A,119.93,28.4589,丽水市,莲都小学,,38,25,31,16,19,120,120,78,78,14,17,/,/,/,/
2026-03-06T1600,1269A,119.8794,28.4232,丽水市,余庄前,,36,25,28,20,18,115,115,71,71,12,15,4,4,0.4,0.5
2026-03-06T1600,1173A,119.1759,34.5885,连云港市,市环境监测站,细颗粒物(PM2.5),72,58,54,46,40,87,87,77,77,16,28,7,8,0.8,0.7
2026-03-06T1600,3000A,119.3577,34.6971,连云港市,德源药业,细颗粒物(PM2.5),62,63,70,41,43,94,94,80,80,14,33,8,6,0.8,0.8
2026-03-06T1600,3007A,119.178,34.8442,连云港市,新城一中,细颗粒物(PM2.5),74,62,65,47,51,93,93,79,79,24,37,9,8,0.8,1
2026-03-06T1600,3008A,119.3607,34.7519,连云港市,胡沟管理处,细颗粒物(PM2.5),68,46,58,44,44,96,96,78,78,9,25,4,4,1.1,1.3
2026-03-06T1600,3009A,119.1478,34.5913,连云港市,矿山设计院,细颗粒物(PM2.5),68,56,57,44,37,88,88,79,79,17,34,8,10,0.9,0.8
2026-03-06T1600,3434A,119.2414,34.6539,连云港市,工贸学校,细颗粒物(PM2.5),68,58,57,44,43,88,88,77,77,14,19,12,11,0.9,1
2026-03-06T1600,3664A,119.4171,34.734,连云港市,连云街道,细颗粒物(PM2.5),64,55,61,42,42,94,94,78,78,16,28,6,6,0.4,0.5
2026-03-06T1600,2573A,102.2629,27.8981,凉山彝族自治州,西昌市政府,细颗粒物(PM2.5),78,NA,28,49,23,127,127,79,79,6,9,16,11,0.8,0.8
2026-03-06T1600,2574A,102.2686,27.885,凉山彝族自治州,凉山州政府,细颗粒物(PM2.5),84,54,31,52,25,114,114,72,72,8,11,14,12,0.8,0.8
2026-03-06T1600,4229A,102.2342,27.8859,凉山彝族自治州,凯乐南路30号,细颗粒物(PM2.5),72,57,32,46,21,121,121,72,72,11,17,12,10,0.8,0.8
2026-03-06T1600,2212A,123.1978,41.2036,辽阳市,宏伟区,,46,46,39,14,24,90,90,77,77,7,13,6,9,0.3,0.6
2026-03-06T1600,2213A,123.1684,41.2497,辽阳市,新华园,,39,39,33,13,23,88,88,75,75,9,15,7,9,0.4,0.6
2026-03-06T1600,2214A,123.2355,41.2663,辽阳市,滨河路,,33,33,37,13,24,87,87,71,71,8,17,6,7,0.4,0.5
2026-03-06T1600,4083A,123.153,41.2874,辽阳市,铁西路150号,,43,43,32,11,21,84,84,71,71,9,14,7,8,0.4,0.5
2026-03-06T1600,2227A,125.1359,42.8845,辽源市,环保局,,43,43,40,10,18,89,89,80,80,6,9,4,4,0.5,0.5
2026-03-06T1600,4085A,125.0998,42.9134,辽源市,安宁大街333号,,41,41,40,11,22,84,84,75,75,4,6,5,4,0.5,0.5
2026-03-06T1600,1625A,115.9789,36.4372,聊城市,区政府,,48,48,61,30,48,91,91,72,72,8,14,9,10,0.7,0.9
2026-03-06T1600,3200A,115.9772,36.4986,聊城市,监控中心,,45,42,57,31,44,96,96,81,81,8,12,7,8,0.6,0.8
2026-03-06T1600,3513A,116.0443,36.436,聊城市,九州社区,颗粒物(PM10),67,73,67,39,48,92,92,75,75,18,17,9,3,0.8,0.9
2026-03-06T1600,4018A,116.0564,36.4609,聊城市,星美广场,NA,NA,71,73,43,50,84,84,71,71,NA,10,9,5,0.8,0.9
2026-03-06T1600,4113A,116.0091,36.4495,聊城市,利民路,,50,50,62,32,47,96,96,76,76,10,13,8,7,0.7,0.8
2026-03-06T1600,2632A,94.3683,29.6373,林芝市,林芝监测站,,30,14,18,3,11,93,93,70,70,1,3,5,4,0.4,0.4
2026-03-06T1600,2633A,94.3616,29.6634,林芝市,林芝人民医院,,27,22,26,3,13,85,85,66,66,2,4,4,3,0.4,0.3
2026-03-06T1600,2603A,100.0779,23.8981,临沧市,市环保局,细颗粒物(PM2.5),115,103,91,76,79,142,142,98,98,5,11,12,11,0.6,0.7
2026-03-06T1600,2604A,100.0894,23.882,临沧市,市气象局,细颗粒物(PM2.5),120,85,84,81,79,141,141,97,97,8,14,9,8,0.8,0.7
2026-03-06T1600,1733A,111.5552,36.0791,临汾市,临钢医院,,42,42,51,22,16,72,72,68,68,15,15,10,11,0.6,0.6
2026-03-06T1600,1734A,111.4984,36.0734,临汾市,技工学校,,39,39,51,24,18,70,70,62,62,16,16,8,9,0.6,0.6
2026-03-06T1600,1736A,111.5017,36.0857,临汾市,市委,,43,43,53,13,14,74,74,66,66,12,13,5,7,0.5,0.5
2026-03-06T1600,3018A,111.5048,36.1015,临汾市,唐尧大酒店,,50,50,60,16,14,73,73,62,62,18,19,9,10,0.6,0.6
2026-03-06T1600,4244A,111.4879,36.053,临汾市,启星学校,,40,35,51,28,20,69,69,63,63,20,18,9,11,0.3,0.2
2026-03-06T1600,4271A,103.2464,35.6123,临夏回族自治州,滨河东路1号,颗粒物(PM10),88,102,166,37,73,109,109,80,80,11,26,14,11,0.4,0.8
2026-03-06T1600,4310A,103.207136,35.599807,临夏回族自治州,新华街21号,颗粒物(PM10),79,90,169,40,77,98,98,72,72,5,18,12,10,0,0.9
2026-03-06T1600,1618A,118.3429,35.0532,临沂市,沂河小区,细颗粒物(PM2.5),54,51,68,37,46,86,86,76,76,12,24,8,9,0.4,0.6
2026-03-06T1600,1619A,118.2962,35.0568,临沂市,鲁南制药厂,NA,NA,51,67,38,47,NA,NA,54,NA,NA,31,9,10,0.4,0.5
2026-03-06T1600,1620A,118.2793,34.9976,临沂市,新光毛纺厂,细颗粒物(PM2.5),60,53,56,40,44,87,87,77,77,14,23,7,8,0.7,0.9
2026-03-06T1600,1621A,118.3955,35.0889,临沂市,河东保险公司,颗粒物(PM10),51,51,66,34,45,94,94,82,82,17,29,7,7,0.5,0.6
2026-03-06T1600,3370A,118.3563,35.0215,临沂市,十里堡居委,细颗粒物(PM2.5),54,48,64,37,45,94,94,81,81,15,27,7,8,0.6,0.8
2026-03-06T1600,3496A,118.359,35.1067,临沂市,南坊新区,NA,NA,46,64,33,44,97,97,85,85,10,24,8,8,NA,0.6
2026-03-06T1600,3860A,118.3915,35.0297,临沂市,皇山花园小区,细颗粒物(PM2.5),54,46,64,37,46,97,97,83,83,15,29,10,11,0.4,0.8
2026-03-06T1600,1870A,109.4854,24.3898,柳州市,柳东小学,,34,25,29,19,24,106,106,84,84,6,8,5,5,0.6,0.6
2026-03-06T1600,1871A,109.4109,24.3304,柳州市,环保监测站,,43,43,34,15,21,102,102,84,84,9,11,5,5,0.7,0.7
2026-03-06T1600,1872A,109.3886,24.3408,柳州市,河西水厂,NA,NA,29,33,22,24,110,110,90,90,8,10,NA,6,0.5,0.6
2026-03-06T1600,1873A,109.4263,24.2951,柳州市,市四中,,43,43,33,21,25,111,111,89,89,8,10,8,7,0.5,0.6
2026-03-06T1600,1874A,109.396,24.3658,柳州市,市九中,,31,22,35,16,24,98,98,79,79,5,8,8,8,0.6,0.6
2026-03-06T1600,1875A,109.4912,24.3164,柳州市,古亭山,,41,41,29,20,22,115,115,93,93,8,7,7,7,0.6,0.6
2026-03-06T1600,3402A,109.5422,24.3994,柳州市,市二中,,35,31,29,17,22,110,110,90,90,8,9,7,7,0.5,0.5
2026-03-06T1600,2307A,116.5078,31.7369,六安市,监测大楼,细颗粒物(PM2.5),62,62,56,41,43,97,97,78,78,13,15,5,5,0.5,0.5
2026-03-06T1600,2308A,116.4738,31.7642,六安市,皖西学院,细颗粒物(PM2.5),64,67,59,42,42,106,106,86,86,10,16,4,4,0.5,0.4
2026-03-06T1600,2309A,116.4997,31.7904,六安市,朝阳厂,"颗粒物(PM10),细颗粒物(PM2.5)",62,66,54,41,42,104,104,85,85,14,21,4,5,0.5,0.5
2026-03-06T1600,2310A,116.5566,31.7885,六安市,开发区,颗粒物(PM10),61,65,57,40,38,106,106,86,86,15,23,4,4,0.5,0.5
2026-03-06T1600,2577A,104.8293,26.592,六盘水市,黄土坡,,19,19,36,13,27,36,36,55,40,15,14,5,6,0.8,0.8
2026-03-06T1600,2579A,104.8481,26.5898,六盘水市,民中,,22,15,39,15,27,38,38,54,41,11,12,4,4,0.7,0.7
2026-03-06T1600,2580A,104.9541,26.5506,六盘水市,双水,,17,17,40,10,28,39,39,56,42,12,10,4,4,0.3,0.5
2026-03-06T1600,4151A,104.8899,26.5685,六盘水市,钟山大道中段564号,颗粒物(PM10),68,74,51,42,30,41,41,51,42,12,10,6,6,0.9,0.9
2026-03-06T1600,2336A,117.022,25.1031,龙岩市,龙岩市监测站,,24,14,12,11,9,76,76,66,66,6,7,6,6,0.7,0.7
2026-03-06T1600,2337A,117.0257,25.0662,龙岩市,闽西职业技术学院,,25,NA,12,10,9,78,78,70,70,3,5,6,6,0.5,0.5
2026-03-06T1600,2338A,117.0195,25.0306,龙岩市,龙岩学院,,26,12,15,9,9,81,81,69,69,5,6,4,3,/,/
2026-03-06T1600,2885A,104.9344,33.3827,陇南市,滨江中学,颗粒物(PM10),55,56,74,28,28,97,97,80,80,8,15,5,8,0.5,0.6
2026-03-06T1600,3247A,104.9551,33.3709,陇南市,市总工会,颗粒物(PM10),63,68,77,26,27,96,96,82,82,7,13,4,6,0.6,0.6
2026-03-06T1600,2488A,111.9984,27.7346,娄底市,市监测站,细颗粒物(PM2.5),80,57,57,50,48,84,84,73,73,14,18,4,6,0.7,0.8
2026-03-06T1600,2491A,111.9888,27.7035,娄底市,市政府,细颗粒物(PM2.5),70,NA,47,45,40,82,82,72,72,11,12,3,4,0.4,0.5
2026-03-06T1600,4127A,111.9812,27.7591,娄底市,涟钢职大,细颗粒物(PM2.5),82,70,54,51,39,90,90,79,79,10,13,2,3,0.4,0.5
2026-03-06T1600,4128A,112.0303,27.7457,娄底市,娄底体校,细颗粒物(PM2.5),72,66,61,46,48,75,75,63,63,7,9,3,3,0.6,0.6
2026-03-06T1600,1894A,105.4427,28.9063,泸州市,小市上码头,NA,NA,40,47,NA,42,59,59,34,34,10,21,11,11,NA,0.7
2026-03-06T1600,1895A,105.4241,28.8573,泸州市,兰田宪桥,,50,45,58,35,37,49,49,25,25,12,21,9,9,0.9,1
2026-03-06T1600,1896A,105.4378,28.8833,泸州市,市环监站,,50,48,57,35,36,52,52,24,24,16,23,13,13,0.3,0.4
2026-03-06T1600,4272A,105.3689,28.7783,泸州市,纳溪中医医院,细颗粒物(PM2.5),56,45,53,38,45,54,54,22,22,12,20,7,6,0.7,0.8
2026-03-06T1600,2183A,111.1447,37.5212,吕梁市,环保局,,39,39,37,13,5,59,59,55,55,32,20,9,4,0.3,0.1
2026-03-06T1600,2185A,111.1285,37.5338,吕梁市,自来水公司,,42,42,43,8,7,61,61,57,57,29,19,10,5,0.5,0.2
2026-03-06T1600,2867A,111.1225,37.5093,吕梁市,马茂庄小学,,50,50,41,13,6,49,49,53,53,32,15,10,6,0.5,0.3
2026-03-06T1600,1812A,112.3934,34.6517,洛阳市,市委党校,细颗粒物(PM2.5),84,69,83,52,78,55,55,41,41,25,27,6,6,0.8,1.2
2026-03-06T1600,1815A,112.494,34.6883,洛阳市,河南林校,细颗粒物(PM2.5),68,69,82,44,73,60,60,44,44,23,27,8,9,0.7,1
2026-03-06T1600,1816A,112.3843,34.623,洛阳市,开发区管委会,细颗粒物(PM2.5),80,81,102,50,76,60,60,46,46,20,22,8,9,0.7,1.1
2026-03-06T1600,1817A,112.4263,34.6249,洛阳市,市委新办公区,细颗粒物(PM2.5),92,80,97,56,81,56,56,42,42,24,27,7,7,0.4,0.7
2026-03-06T1600,3340A,112.6005,34.6323,洛阳市,伊滨,细颗粒物(PM2.5),105,71,96,65,81,53,53,46,46,26,24,7,7,0.7,1
2026-03-06T1600,3341A,112.495,34.6338,洛阳市,中移产业园,细颗粒物(PM2.5),101,74,82,61,79,50,50,39,39,27,26,8,8,0.7,1
2026-03-06T1600,3593A,112.5736,34.8993,洛阳市,吉利监测站,NA,NA,65,80,53,73,66,66,53,53,21,25,7,7,NA,0.9
2026-03-06T1600,3635A,112.3678,34.6623,洛阳市,河科大西苑校区,细颗粒物(PM2.5),82,70,80,51,69,60,60,47,47,32,32,7,7,0.7,1.1
2026-03-06T1600,3636A,112.4387,34.678,洛阳市,英才小学,细颗粒物(PM2.5),76,72,92,48,71,60,60,44,44,26,27,7,8,0.6,1
2026-03-06T1600,4214A,112.460027,34.694929,洛阳市,春都路1号院,细颗粒物(PM2.5),76,84,93,48,71,50,50,41,41,21,24,7,7,0.8,1.1
2026-03-06T1600,2399A,114.051,33.5721,漯河市,三五一五工厂,细颗粒物(PM2.5),98,96,100,59,73,62,62,48,48,19,24,4,4,1.1,1.1
2026-03-06T1600,2400A,114.0055,33.5698,漯河市,漯河大学,NA,NA,NA,85,NA,78,61,61,47,47,NA,23,5,5,0.9,0.9
2026-03-06T1600,2401A,114.0134,33.5826,漯河市,市水利局,细颗粒物(PM2.5),104,95,87,64,70,60,60,46,46,17,22,4,4,0.8,0.9
2026-03-06T1600,2402A,114.0261,33.5697,漯河市,市广电局,细颗粒物(PM2.5),110,95,85,71,75,56,56,44,44,15,18,4,5,0.7,0.8
2026-03-06T1600,3478A,113.9691,33.568,漯河市,市图书馆,细颗粒物(PM2.5),109,97,96,69,73,54,54,42,42,17,20,4,5,1.0,1
2026-03-06T1600,4250A,114.089259,33.588274,漯河市,韶山路11号,细颗粒物(PM2.5),111,96,92,72,73,52,52,42,42,22,25,6,6,0.8,0.8
2026-03-06T1600,1798A,118.5084,31.6838,马鞍山市,湖东路四小,细颗粒物(PM2.5),82,71,58,51,43,84,84,76,76,18,24,6,7,0.6,0.6
2026-03-06T1600,1799A,118.5019,31.6449,马鞍山市,开发区,细颗粒物(PM2.5),70,68,64,45,42,91,91,80,80,20,28,4,6,0.6,0.6
2026-03-06T1600,3633A,118.4914,31.681,马鞍山市,雨山,颗粒物(PM10),78,88,68,48,42,86,86,78,78,15,26,4,6,0.7,0.8
2026-03-06T1600,4191A,118.527362,31.722269,马鞍山市,慈湖高新区,细颗粒物(PM2.5),96,73,65,58,43,81,81,72,72,20,29,5,5,0.5,0.5
2026-03-06T1600,1686A,111.0285,21.469,茂名市,电白南海,,32,29,33,14,18,101,101,74,74,10,13,6,7,0.7,0.8
2026-03-06T1600,1687A,110.9294,21.6533,茂名市,茂石化七小,,41,41,31,24,24,122,122,79,79,18,16,8,10,0.8,0.8
2026-03-06T1600,1688A,110.9108,21.6688,茂名市,健康路,,41,41,27,24,22,131,131,82,82,16,15,7,9,0.9,0.9
2026-03-06T1600,1689A,110.8592,21.6826,茂名市,高岭,颗粒物(PM10),53,53,37,28,23,130,130,78,78,19,16,6,6,/,/
2026-03-06T1600,3450A,111.0101,21.5165,茂名市,电白水东,,31,24,25,14,18,98,98,78,78,11,15,4,5,/,/
2026-03-06T1600,2540A,103.8414,30.0871,眉山市,气象局,,47,47,64,26,30,92,92,52,52,9,27,6,8,0.6,0.8
2026-03-06T1600,3148A,103.829,30.0563,眉山市,区人社局,颗粒物(PM10),53,53,68,30,31,78,78,43,43,13,28,8,9,0.7,0.8
2026-03-06T1600,4148A,103.8836,30.0695,眉山市,眉职院,,50,50,62,22,30,89,89,56,56,6,18,6,6,0.6,0.8
2026-03-06T1600,1690A,116.1248,24.3307,梅州市,梅江月梅,,19,13,12,9,10,59,59,48,48,7,11,/,/,/,/
2026-03-06T1600,1691A,116.0798,24.2719,梅州市,梅县新城,,20,19,13,8,9,64,64,49,49,10,11,8,8,0.7,0.7
2026-03-06T1600,3315A,116.1234,24.2994,梅州市,梅龙,,22,NA,14,9,10,69,69,54,54,6,8,5,5,0.7,0.8
2026-03-06T1600,1878A,104.7775,31.4741,绵阳市,富乐山,细颗粒物(PM2.5),68,65,63,44,35,76,76,51,51,8,15,10,10,0.8,0.7
2026-03-06T1600,1880A,104.6698,31.4668,绵阳市,高新区自来水公司,颗粒物(PM10),70,77,82,42,40,71,71,38,38,16,32,8,9,0.9,1
2026-03-06T1600,3491A,104.6899,31.5324,绵阳市,西科大附属小学,NA,NA,82,85,51,43,79,79,32,32,NA,41,NA,8,0.9,0.8
2026-03-06T1600,3492A,104.5647,31.5343,绵阳市,安州区旅游局,细颗粒物(PM2.5),70,52,74,45,41,82,82,44,44,17,30,8,5,0.7,0.7
2026-03-06T1600,4146A,104.7092,31.4972,绵阳市,科技城新区公安局,细颗粒物(PM2.5),76,70,79,48,39,78,78,32,30,13,33,9,8,0.8,0.8
2026-03-06T1600,4226A,104.765114,31.453094,绵阳市,绵阳市气象局,细颗粒物(PM2.5),78,68,72,49,41,50,50,40,31,25,23,6,8,0.9,0.8
2026-03-06T1600,1784A,129.61,44.561,牡丹江市,环保大楼,,45,36,52,31,34,94,94,86,86,10,21,4,6,0.3,0.5
2026-03-06T1600,1787A,129.6364,44.6075,牡丹江市,机车工厂,颗粒物(PM10),60,63,58,33,34,86,86,86,86,16,19,8,9,0.4,0.5
2026-03-06T1600,1788A,129.6386,44.5462,牡丹江市,第一中学,,40,39,38,28,30,91,91,82,82,8,24,3,5,0.5,0.6
2026-03-06T1600,4287A,129.5992,44.5964,牡丹江市,东晓云街98号,,30,27,53,20,36,93,93,84,84,8,22,3,9,0.4,0.5
2026-03-06T1600,2531A,105.0703,29.61,内江市,市监测站,NA,NA,NA,60,NA,56,86,86,46,46,NA,21,NA,7,0.6,0.8
2026-03-06T1600,2533A,105.0657,29.5807,内江市,内江二中,,42,42,66,27,44,76,76,42,42,16,26,9,8,0.5,0.6
2026-03-06T1600,2534A,105.0407,29.5828,内江市,内江日报社,,40,39,54,28,44,76,76,41,41,16,23,10,7,0.5,0.6
2026-03-06T1600,4147A,105.0433,29.6105,内江市,玉峰路西段888号,,45,44,51,31,52,81,81,37,37,11,24,9,8,0.3,0.5
2026-03-06T1600,2628A,92.0653,31.4846,那曲市,那曲监测站,,30,18,56,3,33,95,95,69,69,4,23,2,7,0.4,1.1
2026-03-06T1600,4243A,92.0515,31.4787,那曲市,那曲市委宣传部,,32,11,28,3,24,102,102,77,77,2,11,5,7,0.3,0.9
2026-03-06T1600,1291A,115.8887,28.7006,南昌市,省林业公司,颗粒物(PM10),65,70,55,29,45,92,92,82,82,10,18,4,5,0.6,0.6
2026-03-06T1600,1292A,115.813,28.7443,南昌市,林科所,颗粒物(PM10),79,90,57,25,33,89,89,83,83,17,19,8,9,0.6,0.7
2026-03-06T1600,1294A,115.8518,28.687,南昌市,建工学校,颗粒物(PM10),65,70,69,28,42,86,86,76,76,15,20,8,8,0.5,0.6
2026-03-06T1600,1295A,115.8926,28.6425,南昌市,象湖,颗粒物(PM10),63,68,58,28,46,91,91,80,80,20,22,8,9,0.5,1
2026-03-06T1600,3046A,115.9084,28.6062,南昌市,机电学校,颗粒物(PM10),72,80,71,30,43,98,98,83,83,12,20,6,6,0.6,0.6
2026-03-06T1600,3690A,115.9718,28.7032,南昌市,外国语学校,颗粒物(PM10),56,58,63,32,46,92,92,80,80,18,26,9,8,0.8,0.9
2026-03-06T1600,4106A,115.7923,28.6873,南昌市,工业二路,颗粒物(PM10),79,90,69,26,40,97,97,88,88,16,21,5,5,0.7,0.7
2026-03-06T1600,4192A,115.931587,28.686774,南昌市,南京东路235号,颗粒物(PM10),60,64,63,29,46,95,95,83,83,13,17,6,7,0.6,0.7
2026-03-06T1600,1906A,106.0791,30.8022,南充市,南充市委,,30,29,59,21,44,80,80,53,53,9,20,7,9,0.5,0.6
2026-03-06T1600,1907A,106.1038,30.8215,南充市,南充炼油厂,,40,40,65,17,32,73,73,47,47,11,19,6,7,0.6,0.7
2026-03-06T1600,4227A,106.108336,30.788436,南充市,梨树横街98号,,30,30,57,19,47,79,79,55,55,11,17,6,8,0.4,0.5
2026-03-06T1600,4304A,106.1172,30.843,南充市,清泉寺北路188号,,28,25,50,19,43,87,87,58,58,7,15,6,7,0.5,0.6
2026-03-06T1600,4305A,106.067,30.7616,南充市,同庆路1号,,43,NA,58,30,62,83,83,53,53,9,18,7,9,0.6,0.7
2026-03-06T1600,1151A,118.8033,32.1085,南京市,迈皋桥,细颗粒物(PM2.5),82,84,52,51,33,110,110,86,86,16,20,3,3,0.4,0.4
2026-03-06T1600,1152A,118.7487,32.057,南京市,草场门,颗粒物(PM10),78,88,50,44,32,104,104,78,78,17,28,7,8,0.4,0.5
2026-03-06T1600,1154A,118.770105,32.004342,南京市,中华门,"颗粒物(PM10),细颗粒物(PM2.5)",70,78,51,45,34,98,98,74,74,11,13,5,6,0.6,0.6
2026-03-06T1600,1155A,118.8059,32.0329,南京市,瑞金路,NA,NA,83,54,59,44,64,64,57,57,NA,24,4,4,NA,0.9
2026-03-06T1600,1156A,118.7946,32.0774,南京市,玄武湖,细颗粒物(PM2.5),78,74,50,49,35,96,96,72,72,8,16,6,7,0.7,0.6
2026-03-06T1600,1157A,118.6415,32.0964,南京市,浦口,细颗粒物(PM2.5),80,87,60,50,37,94,94,70,70,16,16,5,4,0.5,0.4
2026-03-06T1600,1158A,118.730129,32.000956,南京市,奥体中心,颗粒物(PM10),72,80,55,34,29,101,101,78,78,17,25,7,7,0.5,0.4
2026-03-06T1600,1159A,118.9072,32.1047,南京市,仙林大学城,颗粒物(PM10),80,92,57,43,34,91,91,73,73,15,26,5,5,0.8,0.7
2026-03-06T1600,3422A,118.8443,31.919,南京市,江宁彩虹桥,"颗粒物(PM10),细颗粒物(PM2.5)",78,89,58,49,34,88,88,82,82,20,22,4,4,0.8,0.7
2026-03-06T1600,3427A,118.8497,32.3599,南京市,六合雄州,细颗粒物(PM2.5),109,95,64,69,45,79,79,52,52,16,25,3,4,0.9,0.8
2026-03-06T1600,4086A,118.7641,32.0841,南京市,新模范马路66号,颗粒物(PM10),80,92,58,42,32,122,122,92,92,13,23,3,4,0.5,0.7
2026-03-06T1600,4249A,118.8707617,31.34017673,南京市,汶溪路181号,细颗粒物(PM2.5),52,50,61,36,45,92,92,77,77,15,20,6,5,0.4,0.5
2026-03-06T1600,4312A,119.019,31.6512,南京市,中山西路1号,细颗粒物(PM2.5),82,70,52,51,36,68,68,74,74,13,13,4,4,0.9,0.9
2026-03-06T1600,1401A,108.3098,22.788,南宁市,二十一中,颗粒物(PM10),58,60,55,29,42,110,110,82,82,13,19,5,6,0.6,0.7
2026-03-06T1600,1402A,108.3135,22.8529,南宁市,北湖,,49,42,51,34,44,113,113,86,86,18,21,5,5,0.6,0.7
2026-03-06T1600,1403A,108.3205,22.8222,南宁市,市监测站,,42,39,50,29,38,122,122,88,88,13,19,8,8,0.7,0.7
2026-03-06T1600,1404A,108.3828,22.8038,南宁市,大自然花园,,40,40,51,27,39,120,120,90,90,8,12,7,7,0.5,0.5
2026-03-06T1600,1406A,108.2397,22.8462,南宁市,区农职院,,39,35,54,23,39,124,124,89,89,11,14,7,8,0.5,0.7
2026-03-06T1600,1407A,108.3285,22.7356,南宁市,英华嘉园,颗粒物(PM10),56,58,61,27,43,119,119,87,87,11,20,5,5,0.7,0.8
2026-03-06T1600,3401A,108.4829,22.762,南宁市,红星社区,颗粒物(PM10),105,132,46,24,36,112,112,85,85,9,13,6,7,0.5,0.6
2026-03-06T1600,4132A,108.2927,23.1477,南宁市,起凤路9号,细颗粒物(PM2.5),58,44,52,39,46,119,119,88,88,9,19,4,6,0.8,0.8
2026-03-06T1600,4221A,108.2177,22.7774,南宁市,乐贤路16号,颗粒物(PM10),65,71,60,32,43,132,132,94,94,12,22,4,5,0.6,0.7
2026-03-06T1600,2332A,118.1682,26.6371,南平市,南平市监测站,,25,12,17,8,11,78,78,56,56,4,7,3,4,0.3,0.2
2026-03-06T1600,2334A,118.1757,26.6276,南平市,南平七中,,30,30,16,8,11,78,78,56,56,6,11,1,4,0.5,0.5
2026-03-06T1600,1168A,120.9056,31.9669,南通市,狼山街道,颗粒物(PM10),60,63,53,32,33,85,85,71,71,9,12,4,4,0.7,0.6
2026-03-06T1600,1170A,120.8635,32.0231,南通市,城中,颗粒物(PM10),64,69,61,30,35,90,90,71,71,10,16,1,2,0.7,0.7
2026-03-06T1600,1171A,120.9376,31.9301,南通市,星湖花园,颗粒物(PM10),62,66,52,33,31,86,86,73,73,12,15,3,3,0.7,0.6
2026-03-06T1600,1172A,120.8053,32.046,南通市,紫琅学院,颗粒物(PM10),60,64,59,29,36,87,87,69,69,10,14,4,5,0.7,0.7
2026-03-06T1600,3291A,121.0631,32.0644,南通市,通州监测站,颗粒物(PM10),55,56,47,26,28,96,96,74,74,8,15,3,3,0.7,0.8
2026-03-06T1600,3432A,120.9348,31.9874,南通市,环境教育馆,NA,NA,NA,48,35,34,91,91,75,75,11,18,3,4,0.6,0.5
2026-03-06T1600,4091A,120.8692,31.9885,南通市,洪江路,颗粒物(PM10),60,64,51,33,34,82,82,66,66,6,11,3,3,0.7,0.7
2026-03-06T1600,2404A,112.5338,33.0086,南阳市,瓦房庄,细颗粒物(PM2.5),109,90,86,69,67,32,32,32,28,16,20,3,4,1.2,1
2026-03-06T1600,2405A,112.5002,32.9734,南阳市,汉画馆,细颗粒物(PM2.5),134,NA,92,97,83,32,32,30,28,19,24,4,4,1.2,1
2026-03-06T1600,2406A,112.5778,33.0144,南阳市,气象站,颗粒物(PM10),93,109,97,55,58,32,32,29,28,18,22,4,4,1.2,0.9
2026-03-06T1600,2407A,112.548,32.9687,南阳市,理工学院,细颗粒物(PM2.5),104,93,86,64,60,30,30,26,26,16,24,4,5,1.2,1
2026-03-06T1600,4008A,112.5233,32.9921,南阳市,卧龙区政府,细颗粒物(PM2.5),101,104,97,61,61,29,29,27,25,16,22,5,5,1.2,1
2026-03-06T1600,1234A,121.8352,29.9111,宁波市,区环保大楼,,27,24,28,13,19,85,85,79,79,18,29,5,6,0.6,0.5
2026-03-06T1600,1235A,121.5595,29.8208,宁波市,万里学院,,27,27,40,14,28,86,86,71,71,17,23,4,4,0.5,0.6
2026-03-06T1600,1236A,121.713,29.9564,宁波市,龙赛医院,,27,20,29,9,20,85,85,81,81,14,23,4,4,0.6,0.5
2026-03-06T1600,1240A,121.5855,29.8635,宁波市,太古小学,,30,24,37,13,25,95,95,86,86,21,26,3,3,0.6,0.6
2026-03-06T1600,1241A,121.5239,29.8673,宁波市,市环境监测中心,,35,35,46,15,29,97,97,83,83,16,23,5,4,0.6,0.6
2026-03-06T1600,2871A,121.6156,29.9015,宁波市,万里国际学校,,29,29,40,11,24,89,89,85,85,18,25,4,3,0.7,0.7
2026-03-06T1600,3710A,121.5593,29.8976,宁波市,白沙活动中心,,30,29,32,15,27,93,93,85,85,17,23,4,4,0.6,0.6
2026-03-06T1600,4095A,121.8962,29.7529,宁波市,中科路88号,,28,18,26,9,19,89,89,83,83,17,21,5,5,0.6,0.7
2026-03-06T1600,2341A,119.5387,26.6611,宁德市,宁德市监测站,,48,34,18,33,15,82,82,51,51,15,23,3,4,0.5,0.7
2026-03-06T1600,3209A,119.5231,26.6562,宁德市,宁德一中,,49,NA,17,34,14,79,79,47,47,14,17,4,4,0.5,0.4
2026-03-06T1600,2618A,98.859,25.8541,怒江傈僳族自治州,州监测站,细颗粒物(PM2.5),80,71,69,50,58,128,128,96,96,10,10,7,7,0.5,0.5
2026-03-06T1600,2619A,98.8607,25.8168,怒江傈僳族自治州,泸水一中,细颗粒物(PM2.5),88,68,69,54,59,131,131,90,90,5,13,5,5,0.5,0.6
2026-03-06T1600,1888A,101.6891,26.571,攀枝花市,弄弄坪,细颗粒物(PM2.5),76,73,81,48,48,153,153,100,100,10,25,18,24,0.9,1
2026-03-06T1600,1889A,101.577,26.5914,攀枝花市,河门口,细颗粒物(PM2.5),110,90,78,70,56,154,154,97,97,12,19,21,23,1.3,1.3
2026-03-06T1600,1891A,101.7365,26.4986,攀枝花市,仁和,NA,NA,74,75,59,60,139,139,95,95,NA,21,NA,16,0.5,1
2026-03-06T1600,2835A,101.7222,26.567,攀枝花市,四十中小,"颗粒物(PM10),细颗粒物(PM2.5)",60,64,62,40,44,148,148,99,99,11,19,20,31,0.9,0.8
2026-03-06T1600,1604A,122.0303,41.1489,盘锦市,开发区,,27,19,24,10,15,84,84,80,80,9,10,4,4,0.4,0.8
2026-03-06T1600,1605A,122.0486,41.0883,盘锦市,兴隆台,,27,19,20,10,15,86,86,81,81,10,11,6,6,0.3,0.3
2026-03-06T1600,1606A,121.8297,41.1026,盘锦市,新生街道,NA,NA,22,19,10,13,85,85,80,80,9,16,6,7,NA,0.4
2026-03-06T1600,1832A,113.3257,33.7423,平顶山市,新华旅馆,细颗粒物(PM2.5),117,112,95,78,73,41,41,38,38,23,22,6,5,0.7,0.7
2026-03-06T1600,1833A,113.2917,33.737,平顶山市,规划设计院,细颗粒物(PM2.5),119,106,99,80,73,41,41,40,40,22,20,6,5,0.8,0.8
2026-03-06T1600,1834A,113.182,33.7738,平顶山市,平顶山工学院,细颗粒物(PM2.5),113,96,83,74,67,50,50,47,47,17,17,2,3,0.5,0.5
2026-03-06T1600,3594A,112.8736,33.9068,平顶山市,石龙区,细颗粒物(PM2.5),110,97,93,71,72,58,58,46,46,18,21,5,5,0.9,0.9
2026-03-06T1600,4116A,113.284,33.7139,平顶山市,姚电大道23号,细颗粒物(PM2.5),107,107,97,67,68,41,41,40,40,22,22,4,5,0.8,0.7
2026-03-06T1600,2656A,106.6633,35.5338,平凉市,聚贤嘉苑,颗粒物(PM10),73,82,83,28,30,90,90,71,71,18,20,8,7,0.5,0.5
2026-03-06T1600,2657A,106.7021,35.5307,平凉市,博物馆,颗粒物(PM10),72,80,81,33,31,92,92,68,68,16,19,11,10,0.5,0.6
2026-03-06T1600,2348A,113.8384,27.6436,萍乡市,中医院,,50,50,42,34,29,107,107,68,68,12,16,3,4,0.4,0.6
2026-03-06T1600,2350A,113.8677,27.6438,萍乡市,市环保局,细颗粒物(PM2.5),64,42,39,42,33,96,96,60,60,6,13,3,3,0.5,0.6
2026-03-06T1600,2351A,113.8663,27.6202,萍乡市,安源区政府,细颗粒物(PM2.5),76,52,41,48,30,86,86,51,51,9,12,4,4,0.7,0.7
2026-03-06T1600,4107A,113.8686,27.6668,萍乡市,联洪村委会,细颗粒物(PM2.5),66,58,45,43,31,89,89,56,56,4,12,2,2,0.3,0.5
2026-03-06T1600,2319A,119.0142,25.4324,莆田市,荔城区仓后路,细颗粒物(PM2.5),56,44,19,38,11,61,61,43,43,15,12,/,/,/,/
2026-03-06T1600,2320A,119.0016,25.4553,莆田市,莆田市监测站,,46,NA,17,32,9,62,62,43,43,13,8,2,2,0.5,0.5
2026-03-06T1600,2321A,119.112,25.4561,莆田市,涵江区六中,细颗粒物(PM2.5),68,NA,21,44,13,67,67,50,50,10,16,/,/,0.5,0.7
2026-03-06T1600,2322A,119.1014,25.3215,莆田市,秀屿区政府,细颗粒物(PM2.5),68,48,28,44,19,83,83,63,63,10,10,3,3,0.6,0.5
2026-03-06T1600,2392A,115.0312,35.7636,濮阳市,环保局,,45,43,48,31,47,80,80,67,67,14,18,6,6,0.5,0.9
2026-03-06T1600,3021A,115,35.7667,濮阳市,濮水河管理处,NA,NA,40,61,33,47,87,87,57,NA,11,14,7,6,NA,0.7
2026-03-06T1600,4118A,115.0552,35.7816,濮阳市,中原东路68号,,47,47,61,23,47,84,84,70,70,12,15,4,4,0.4,0.6
2026-03-06T1600,4216A,115.0923632,35.76857718,濮阳市,任丘路479号,,45,44,64,31,47,85,85,74,74,12,14,5,4,0.4,0.9
2026-03-06T1600,2601A,100.9801,22.7634,普洱市,市环保局,颗粒物(PM10),65,70,86,37,48,110,110,91,91,5,7,5,6,0.7,0.7
2026-03-06T1600,2602A,100.9763,22.8237,普洱市,普洱第二中学,细颗粒物(PM2.5),72,73,88,46,58,116,116,82,82,4,18,6,6,0.6,0.7
2026-03-06T1600,3345A,131.0413,45.7795,七台河市,中波台,细颗粒物(PM2.5),52,42,49,36,31,100,100,81,81,9,21,6,7,0.4,0.5
2026-03-06T1600,3637A,131.0136,45.7688,七台河市,人民广场,,50,50,58,33,30,95,95,78,78,13,28,8,8,0.4,0.5
2026-03-06T1600,3684A,130.8639,45.8144,七台河市,新建矿广场,,44,44,80,26,37,92,92,NA,NA,8,18,3,4,1.0,0.5
2026-03-06T1600,1779A,123.9307,47.3641,齐齐哈尔市,安居小区,,26,23,30,11,12,83,83,80,80,7,15,4,7,0.3,0.3
2026-03-06T1600,1780A,123.9497,47.3389,齐齐哈尔市,中心广场,,30,30,21,3,11,80,80,76,76,8,13,6,9,0.4,0.4
2026-03-06T1600,1781A,123.9483,47.3229,齐齐哈尔市,农牧车辆厂,,27,24,27,12,13,84,84,81,81,5,7,7,7,0.2,0.3
2026-03-06T1600,1783A,123.9442,47.2994,齐齐哈尔市,市环境监测站,,27,26,27,18,10,84,84,79,79,6,13,3,4,0.3,0.3
2026-03-06T1600,3662A,123.6341,47.2079,齐齐哈尔市,富区青少年活动中心,,31,31,31,9,11,85,85,80,80,4,9,2,4,0.3,0.4
2026-03-06T1600,2591A,107.9765,26.5724,黔东南苗族侗族自治州,市环境监测站,,46,36,35,32,26,56,56,45,45,8,9,5,5,0.6,0.6
2026-03-06T1600,2881A,107.8909,26.531,黔东南苗族侗族自治州,凯里学院,,42,34,36,29,29,60,60,50,50,12,12,4,4,0.6,0.6
2026-03-06T1600,2593A,107.5223,26.2371,黔南布依族苗族自治州,小围寨,,45,34,31,31,28,57,57,45,45,8,8,7,6,0.6,0.6
2026-03-06T1600,3538A,107.5175,26.2977,黔南布依族苗族自治州,沙坝,,49,46,38,34,28,58,58,44,44,7,8,4,5,0.7,0.7
2026-03-06T1600,2589A,104.9022,25.0943,黔西南布依族苗族自治州,场坝街,,39,37,34,27,24,50,50,51,50,6,7,2,3,0.6,0.6
2026-03-06T1600,2590A,104.8812,25.0994,黔西南布依族苗族自治州,坪东大道,,29,24,30,20,24,45,45,48,44,8,8,4,5,0.7,0.7
2026-03-06T1600,2502A,108.6238,21.9667,钦州市,市环保站,,39,39,59,17,35,105,105,76,76,9,17,4,4,0.5,0.6
2026-03-06T1600,2503A,108.655,21.9481,钦州市,沙埠小学,,43,43,56,17,37,110,110,79,79,8,16,6,8,0.6,0.6
2026-03-06T1600,2504A,108.5989,21.7435,钦州市,港区一小,,40,38,52,28,33,107,107,81,81,14,20,5,3,0.7,0.6
2026-03-06T1600,3404A,108.5959,21.9634,钦州市,北职校,,35,31,51,18,33,110,110,81,81,9,16,4,4,0.6,0.8
2026-03-06T1600,1046A,119.5247,39.9346,秦皇岛市,建设大厦,,32,25,36,22,22,91,91,85,85,2,7,5,5,0.3,0.4
2026-03-06T1600,3132A,119.5979,39.938,秦皇岛市,文明里,,33,33,38,20,19,90,90,86,86,10,12,8,8,0.3,0.4
2026-03-06T1600,4066A,119.7458,39.9952,秦皇岛市,南园路157号,,29,NA,34,20,20,91,91,87,87,10,23,7,6,0.3,0.4
2026-03-06T1600,4067A,119.5131,39.8858,秦皇岛市,翠岛大街1号,,33,33,34,19,20,89,89,83,83,6,11,8,7,0.4,0.4
2026-03-06T1600,4198A,119.509013,39.825305,秦皇岛市,北戴河轮滑馆,,30,29,38,17,21,94,94,84,84,8,13,6,6,0.4,0.4
2026-03-06T1600,1310A,120.404,36.0625,青岛市,市南区东部子站,细颗粒物(PM2.5),62,48,52,41,36,86,86,79,79,12,14,7,8,0.8,0.7
2026-03-06T1600,1311A,120.362344,36.10282,青岛市,四方区子站,细颗粒物(PM2.5),58,44,49,39,36,88,88,83,83,12,16,4,4,0.7,0.7
2026-03-06T1600,1312A,120.294373,36.054183,青岛市,市南区西部子站,细颗粒物(PM2.5),52,NA,45,36,35,86,86,79,79,13,16,2,2,0.7,0.7
2026-03-06T1600,1313A,120.4581,36.0858,青岛市,崂山区子站,,48,39,48,33,34,85,85,82,82,9,10,6,6,0.6,0.6
2026-03-06T1600,1315A,120.3945,36.3083,青岛市,城阳区子站,,44,44,53,30,37,92,92,86,86,12,22,5,5,0.7,0.7
2026-03-06T1600,3642A,120.3454,36.0735,青岛市,市北区南部,细颗粒物(PM2.5),60,47,51,40,34,84,84,76,76,12,15,3,3,0.7,0.7
2026-03-06T1600,3643A,120.3897,36.18,青岛市,李沧区北部,,46,39,50,32,36,85,85,78,78,14,20,7,8,0.6,0.6
2026-03-06T1600,4110A,120.5222,36.4089,青岛市,盟旺路653号,NA,NA,38,55,32,36,100,100,85,NA,NA,17,1,2,1.0,0.7
2026-03-06T1600,4290A,120.196923,35.954556,青岛市,珠江路669号,细颗粒物(PM2.5),68,NA,40,44,35,88,88,80,80,17,18,7,7,0.6,0.5
2026-03-06T1600,4291A,120.0424,35.8656,青岛市,黄岛区人民政府广场,细颗粒物(PM2.5),56,51,44,38,28,90,90,84,84,10,10,6,6,0.7,0.6
2026-03-06T1600,1703A,113.0218,23.7086,清远市,凤城街办,,35,24,19,18,15,109,109,80,80,14,12,/,/,/,/
2026-03-06T1600,3025A,113.0479,23.6343,清远市,技师学院,,35,20,22,13,14,111,111,84,84,12,13,5,4,0.6,0.6
2026-03-06T1600,3318A,112.9898,23.7403,清远市,清新太和,NA,NA,21,18,18,14,117,117,87,87,NA,10,5,5,0.5,0.7
2026-03-06T1600,3455A,113.076,23.72,清远市,清城东城,,34,29,24,14,15,106,106,84,84,18,14,/,/,/,/
2026-03-06T1600,2661A,107.6325,35.7357,庆阳市,庆阳五中,颗粒物(PM10),57,59,62,24,20,96,96,78,73,10,10,6,8,0.3,0.3
2026-03-06T1600,2662A,107.6361,35.7067,庆阳市,市环保局,颗粒物(PM10),58,60,59,24,18,94,94,78,74,9,10,5,5,0.3,0.2
2026-03-06T1600,1916A,103.7897,25.5036,曲靖市,环境监测站,细颗粒物(PM2.5),86,73,44,53,34,144,144,90,90,10,10,5,5,0.6,0.6
2026-03-06T1600,1917A,103.8013,25.5357,曲靖市,烟厂办公区,细颗粒物(PM2.5),88,70,42,54,29,120,120,76,76,8,9,4,4,0.7,0.7
2026-03-06T1600,3376A,103.7926,25.4651,曲靖市,南苑二区,细颗粒物(PM2.5),84,54,42,52,34,116,116,75,75,14,13,4,4,0.7,0.7
2026-03-06T1600,3377A,103.7442,25.5259,曲靖市,曲靖师范学院,细颗粒物(PM2.5),92,58,42,56,35,134,134,87,87,8,9,2,1,0.5,0.5
2026-03-06T1600,1264A,118.8694,28.94,衢州市,环保大楼,,42,42,46,29,33,110,110,84,84,14,18,/,/,/,/
2026-03-06T1600,1266A,118.8622,28.9809,衢州市,衢州学院,NA,NA,39,41,NA,32,110,110,83,83,15,21,4,4,0.6,0.5
2026-03-06T1600,4097A,118.9646,28.9832,衢州市,衢州三中,,40,40,44,28,33,102,102,75,75,11,15,5,5,0.6,0.6
2026-03-06T1600,1611A,118.5818,24.9116,泉州市,涂山街,,46,38,24,32,18,53,53,39,39,15,16,3,3,0.6,0.6
2026-03-06T1600,1612A,118.597,24.8976,泉州市,津头埔,,50,41,27,35,21,58,58,42,42,15,20,2,2,0.6,0.5
2026-03-06T1600,1613A,118.6669,24.9422,泉州市,万安,细颗粒物(PM2.5),58,45,31,39,22,58,58,42,42,14,21,3,3,0.6,0.5
2026-03-06T1600,4105A,118.6355,24.9148,泉州市,霞新路6号,细颗粒物(PM2.5),56,45,28,38,20,57,57,42,42,15,26,/,/,0.6,0.5
2026-03-06T1600,2626A,88.8873,29.2723,日喀则市,日喀则监测站,,31,8,32,3,13,99,99,64,64,4,24,6,10,0.3,0.8
2026-03-06T1600,3726A,88.8775,29.2425,日喀则市,林业技术推广中心,,30,6,19,3,6,96,96,67,67,3,9,8,7,0.3,0.4
2026-03-06T1600,1659A,119.4711,35.421,日照市,监测站,,46,46,66,32,39,85,85,81,81,13,30,5,7,0.7,0.8
2026-03-06T1600,1660A,119.523,35.4216,日照市,市政府广场,,42,36,61,29,39,87,87,82,82,13,28,4,5,0.5,0.7
2026-03-06T1600,1661A,119.5511,35.4113,日照市,港务局,,48,48,66,29,38,86,86,82,82,14,30,3,4,0.6,0.7
2026-03-06T1600,3507A,119.5326,35.4627,日照市,职业技术学院,,48,41,59,33,40,86,86,82,82,14,25,6,6,0.7,0.9
2026-03-06T1600,3604A,119.3267,35.1043,日照市,岚山环保分局,颗粒物(PM10),51,51,61,30,40,90,90,84,84,11,30,9,12,0.7,1
2026-03-06T1600,1835A,111.1922,34.7752,三门峡市,市政府,细颗粒物(PM2.5),52,38,71,36,58,39,39,36,33,18,23,6,8,0.8,0.8
2026-03-06T1600,1836A,111.1588,34.794,三门峡市,开发区,颗粒物(PM10),55,56,87,33,59,39,39,43,34,20,24,8,9,0.9,0.8
2026-03-06T1600,3039A,111.1911,34.7829,三门峡市,三门峡市第一小学,,43,42,76,30,59,42,42,42,35,20,23,10,12,0.7,0.7
2026-03-06T1600,3598A,111.1031,34.719,三门峡市,富达温泉假日酒店,细颗粒物(PM2.5),70,45,90,45,59,33,33,35,32,22,22,8,11,0.8,0.7
2026-03-06T1600,2324A,117.621,26.2626,三明市,三钢,NA,NA,NA,18,12,14,65,65,53,53,6,9,3,4,0.5,0.5
2026-03-06T1600,2325A,117.6352,26.2714,三明市,三明二中,,20,17,21,10,12,63,63,50,50,6,7,4,6,0.4,0.4
2026-03-06T1600,2326A,117.6028,26.2377,三明市,三元区政府,,21,17,15,10,13,67,67,56,56,7,8,3,3,0.6,0.6
2026-03-06T1600,1877A,109.4962,18.2682,三亚市,河西子站,,45,45,20,21,12,116,116,102,102,7,5,4,4,0.6,0.5
2026-03-06T1600,3540A,109.7348,18.3443,三亚市,君悦子站,,50,50,27,19,13,107,107,99,99,6,6,3,4,0.6,0.5
2026-03-06T1600,4135A,109.1714,18.3739,三亚市,城东小学站,,40,23,15,21,11,126,126,93,93,8,8,/,/,/,/
2026-03-06T1600,2624A,91.7592,29.234,山南市,山南监测站,,31,7,14,3,4,97,97,60,60,2,16,2,2,0.3,0.4
2026-03-06T1600,2625A,91.7701,29.2436,山南市,山南人民医院,,31,9,20,3,7,98,98,63,63,3,13,4,4,0.4,0.5
2026-03-06T1600,1674A,116.6795,23.3666,汕头市,金平子站,,33,33,22,13,15,99,99,66,66,8,12,5,5,0.6,0.7
2026-03-06T1600,1675A,116.7248,23.3632,汕头市,龙湖子站,,29,28,21,14,16,92,92,64,64,13,14,5,5,/,/
2026-03-06T1600,1676A,116.7257,23.2774,汕头市,濠江子站,,29,23,22,12,15,92,92,64,64,12,14,7,7,/,/
2026-03-06T1600,1677A,116.7518,23.4712,汕头市,澄海子站,,42,42,25,20,16,90,90,59,59,10,9,7,7,0.7,0.7
2026-03-06T1600,1678A,116.6088,23.2539,汕头市,潮阳子站,,38,35,21,26,17,104,104,63,63,9,9,7,6,0.5,0.6
2026-03-06T1600,3444A,116.4539,23.2684,汕头市,潮南峡山,细颗粒物(PM2.5),56,52,29,38,21,86,86,64,64,13,9,6,7,0.7,0.7
2026-03-06T1600,3624A,116.4069,23.2533,汕头市,潮南子站,颗粒物(PM10),61,65,33,38,23,71,71,53,53,16,11,6,6,/,/
2026-03-06T1600,1693A,115.3653,22.7751,汕尾市,市环保局,,18,13,16,11,12,57,57,53,53,6,7,6,5,0.7,0.7
2026-03-06T1600,1695A,115.362,22.7926,汕尾市,新城中学,,18,13,13,12,12,56,56,53,53,5,5,6,6,0.7,0.7
2026-03-06T1600,2645A,109.9155,33.8714,商洛市,监测站,,48,48,44,26,18,40,40,38,38,12,19,5,6,0.7,0.4
2026-03-06T1600,3045A,109.9647,33.8486,商洛市,商州区中学,,49,NA,48,34,22,26,26,30,29,22,25,5,5,0.7,0.5
2026-03-06T1600,2408A,115.6701,34.4283,商丘市,环境监测站,细颗粒物(PM2.5),72,62,81,46,65,88,88,72,72,12,14,1,2,0.4,0.6
2026-03-06T1600,2409A,115.6458,34.4047,商丘市,粮食局,细颗粒物(PM2.5),72,69,73,46,62,85,85,69,69,11,14,2,2,0.4,0.6
2026-03-06T1600,3171A,115.6069,34.4465,商丘市,梁园区档案局,细颗粒物(PM2.5),74,64,73,47,55,91,91,72,72,12,15,1,2,0.4,0.6
2026-03-06T1600,4119A,115.6701,34.3767,商丘市,北海东路185号,颗粒物(PM10),54,55,78,34,59,86,86,71,71,10,13,3,2,0.4,0.7
2026-03-06T1600,4120A,115.6172,34.3704,商丘市,中山大街3号,细颗粒物(PM2.5),72,64,84,46,61,87,87,71,71,14,16,5,4,0.4,0.6
2026-03-06T1600,1141A,121.401,31.2382,上海市,普陀,细颗粒物(PM2.5),86,70,54,53,36,61,61,74,73,26,30,7,6,0.9,0.7
2026-03-06T1600,1142A,121.4774,31.2043,上海市,十五厂,细颗粒物(PM2.5),72,64,52,46,35,71,71,84,84,21,29,8,8,1.0,0.9
2026-03-06T1600,1143A,121.4673,31.3011,上海市,虹口,细颗粒物(PM2.5),66,68,47,43,30,69,69,76,76,15,22,5,5,0.5,0.4
2026-03-06T1600,1147A,121.4253,31.226,上海市,静安监测站,细颗粒物(PM2.5),66,63,48,43,35,68,68,79,79,25,31,7,8,0.6,0.7
2026-03-06T1600,1148A,121.7029,31.1905,上海市,浦东川沙,细颗粒物(PM2.5),68,64,38,44,27,70,70,80,80,20,24,5,5,0.7,0.6
2026-03-06T1600,1149A,121.5339,31.229,上海市,浦东新区监测站,NA,NA,66,45,44,29,69,69,76,76,17,24,5,5,NA,0.8
2026-03-06T1600,1150A,121.5776,31.2038,上海市,浦东张江,细颗粒物(PM2.5),62,64,40,41,28,76,76,83,83,19,24,6,6,0.9,0.5
2026-03-06T1600,3265A,121.4242,31.3303,上海市,宝山庙行,细颗粒物(PM2.5),82,74,56,51,31,61,61,67,67,25,29,9,10,0.7,0.7
2026-03-06T1600,3266A,121.8789,31.4662,上海市,崇明上实东滩,细颗粒物(PM2.5),76,61,28,48,23,89,89,87,87,9,7,7,6,0.7,0.5
2026-03-06T1600,3268A,121.316,31.2839,上海市,嘉定南翔,细颗粒物(PM2.5),64,56,47,42,32,73,73,79,79,15,28,4,4,0.6,0.6
2026-03-06T1600,3269A,121.3357,30.7455,上海市,金山新城,,46,42,45,32,35,81,81,80,80,16,33,3,3,0.6,0.7
2026-03-06T1600,3270A,121.4996,31.0741,上海市,闵行浦江,细颗粒物(PM2.5),64,54,43,42,35,67,67,82,81,18,26,6,6,0.9,0.8
2026-03-06T1600,3271A,121.2886,31.1663,上海市,青浦徐泾,细颗粒物(PM2.5),66,57,51,43,32,75,75,92,92,19,26,4,4,0.7,0.6
2026-03-06T1600,3272A,121.2193,31.0382,上海市,松江图书馆,细颗粒物(PM2.5),60,60,56,40,38,79,79,86,86,17,32,6,6,0.7,0.7
2026-03-06T1600,3273A,121.3904,31.206,上海市,长宁仙霞,NA,NA,65,49,48,36,58,58,73,72,23,27,9,8,NA,0.6
2026-03-06T1600,3274A,121.7964,31.0507,上海市,浦东惠南,细颗粒物(PM2.5),56,52,28,38,24,72,72,80,80,18,23,4,5,0.8,0.7
2026-03-06T1600,3544A,121.4891,30.925,上海市,奉贤南桥新城,细颗粒物(PM2.5),66,50,42,43,34,78,78,85,85,20,26,3,3,0.8,0.7
2026-03-06T1600,4183A,121.417401,31.16637,上海市,冠生园路458号,细颗粒物(PM2.5),78,64,49,49,38,67,67,76,76,22,27,6,6,1.0,0.9
2026-03-06T1600,4205A,121.541914,31.268301,上海市,宁武路151号,细颗粒物(PM2.5),72,62,40,46,32,72,72,76,76,20,26,6,6,0.6,0.4
2026-03-06T1600,2382A,117.9758,28.4439,上饶市,市监测站,,37,37,51,15,36,108,108,77,77,14,18,6,8,/,/
2026-03-06T1600,2383A,117.9521,28.4637,上饶市,凤凰光学,,32,32,54,13,35,101,101,71,71,10,16,8,11,0.7,0.8
2026-03-06T1600,3685A,117.897,28.4316,上饶市,双创科技城,,34,33,52,13,38,107,107,76,76,7,16,5,15,0.7,0.9
2026-03-06T1600,4211A,118.190438,28.444845,上饶市,裕丰大道,,34,31,53,14,37,108,108,81,81,6,13,11,17,0.5,0.7
2026-03-06T1600,1669A,113.5821,24.7733,韶关市,市八中,,29,24,31,20,23,90,90,74,74,8,11,8,8,0.4,0.6
2026-03-06T1600,1671A,113.5916,24.7973,韶关市,园林处,,30,19,28,16,24,93,93,77,77,7,9,7,7,/,/
