timepoint,stationcode,longitude,latitude,area,positionname,primarypollutant,aqi,pm10,pm10_24h,pm2_5,pm2_5_24h,o3,o3_24h,o3_8h,o3_8h_24h,no2,no2_24h,so2,so2_24h,co,co_24h
2025-03-08T1200,2566A,102.1879,31.914,阿坝藏族羌族自治州,州农科所,颗粒物(PM10),53,56,82,20,30,71,,74,67,5,6,9,8,0,0
2025-03-08T1200,2568A,102.2502,31.8896,阿坝藏族羌族自治州,马师校,,40,35,66,28,35,81,,85,75,8,9,5,4,0.4,0.4
2025-03-08T1200,3994A,102.2165,31.9024,阿坝藏族羌族自治州,马尔康中学西区,,49,49,58,16,28,85,,91,84,7,5,4,5,0.3,0.3
2025-03-08T1200,2695A,80.292,41.1694,阿克苏地区,电视台,颗粒物(PM10),94,137,131,44,50,72,,35,35,24,33,2,4,0.6,0.9
2025-03-08T1200,2696A,80.2613,41.1551,阿克苏地区,艺术中心,颗粒物(PM10),95,139,130,38,44,73,,34,34,27,42,6,5,0.9,1.1
2025-03-08T1200,2204A,105.6467,38.8363,阿拉善盟,西城区西花园,颗粒物(PM10),86,121,186,24,38,108,,107,106,8,12,12,13,0.6,0.6
2025-03-08T1200,2205A,105.6985,38.8411,阿拉善盟,蒙二幼,颗粒物(PM10),72,94,187,25,41,106,,99,99,9,10,6,7,0.5,0.6
2025-03-08T1200,2206A,105.724,38.8516,阿拉善盟,环保局新楼,颗粒物(PM10),67,83,168,26,42,104,,105,105,5,5,8,8,0.9,0.9
2025-03-08T1200,2708A,88.1264,47.8517,阿勒泰地区,市站,,45,45,39,24,9,72,,91,79,14,10,2,3,0.4,0.3
2025-03-08T1200,2630A,80.1161,32.5,阿里地区,阿里监测站,,32,14,12,8,3,100,,95,87,2,3,7,8,0.4,0.4
2025-03-08T1200,3192A,80.0903,32.5028,阿里地区,阿里藏医院,,31,13,16,11,11,97,,99,91,2,2,6,6,0.5,0.5
2025-03-08T1200,2642A,109.0318,32.6537,安康市,香溪洞,,42,42,43,25,26,55,,42,39,8,10,11,9,0.8,0.7
2025-03-08T1200,2644A,109.0072,32.6975,安康市,汉滨区检察院,颗粒物(PM10),51,52,43,21,24,50,,29,29,16,19,15,10,0.6,0.5
2025-03-08T1200,4054A,109.0325,32.6913,安康市,市邮政管理局,颗粒物(PM10),53,56,46,21,24,56,,30,30,15,20,14,11,0.6,0.6
2025-03-08T1200,2291A,117.0809,30.5177,安庆市,环科院,细颗粒物(PM2.5),79,63,59,58,44,86,,49,49,19,49,8,7,0.6,0.5
2025-03-08T1200,2292A,117.0331,30.5119,安庆市,马山宾馆,细颗粒物(PM2.5),84,62,60,62,47,85,,37,37,16,51,6,5,0.5,0.3
2025-03-08T1200,2294A,116.9896,30.6145,安庆市,安庆大学,细颗粒物(PM2.5),93,80,60,69,40,72,,66,66,33,41,21,10,0.4,0.3
2025-03-08T1200,3173A,117.0598,30.5351,安庆市,市人大,细颗粒物(PM2.5),80,63,61,59,46,89,,48,48,18,46,7,7,0.6,0.5
2025-03-08T1200,3122A,105.9606,26.2611,安顺市,伍家关,,35,32,39,24,29,42,,59,58,16,16,15,13,0.6,0.5
2025-03-08T1200,3123A,105.9408,26.2431,安顺市,凤凰山,,50,,37,35,35,45,,56,56,16,17,23,23,0.8,0.7
2025-03-08T1200,3124A,105.9439,26.2564,安顺市,金钟山,,40,32,38,28,39,46,,57,57,14,13,21,18,0.6,0.5
2025-03-08T1200,3125A,105.8983,26.2481,安顺市,娄家坡,,33,29,40,23,32,47,,53,53,16,15,14,16,0.7,0.7
2025-03-08T1200,1818A,114.4839,36.0621,安阳市,棉研所,,,,,,,,,,,,,,,,
2025-03-08T1200,1819A,114.3551,36.1017,安阳市,红庙街,细颗粒物(PM2.5),117,114,98,88,75,91,,33,33,25,25,11,7,0.8,0.5
2025-03-08T1200,1820A,114.361,36.0681,安阳市,银杏小区,,,104,85,,81,97,,32,32,25,31,6,4,0.9,0.7
2025-03-08T1200,3141A,114.3922,36.0878,安阳市,信访局,细颗粒物(PM2.5),122,109,93,92,82,95,,41,41,30,35,6,3,0.9,0.7
2025-03-08T1200,3669A,114.4705,36.0637,安阳市,左辅环卫站,细颗粒物(PM2.5),127,115,107,96,74,108,,52,52,29,29,7,3,1.0,0.6
2025-03-08T1200,3703A,114.2917,36.0949,安阳市,安钢职工学校,细颗粒物(PM2.5),102,100,92,76,80,101,,31,31,22,32,10,6,0.9,0.8
2025-03-08T1200,1748A,123.044,41.1196,鞍山市,深沟寺,细颗粒物(PM2.5),82,74,65,60,43,94,,93,93,28,22,18,16,0.9,0.8
2025-03-08T1200,1749A,123.011,41.0931,鞍山市,太阳城,细颗粒物(PM2.5),77,75,71,56,43,96,,94,94,25,21,15,13,1.0,0.8
2025-03-08T1200,1750A,123.0485,41.1442,鞍山市,太平,细颗粒物(PM2.5),77,90,75,56,40,94,,88,88,30,28,18,15,0.9,0.8
2025-03-08T1200,1751A,122.9642,41.0971,鞍山市,铁西三道街,细颗粒物(PM2.5),77,96,82,56,43,101,,82,82,26,35,15,23,0.8,1
2025-03-08T1200,1753A,123.022,41.0821,鞍山市,明达新区,细颗粒物(PM2.5),75,84,64,55,39,98,,97,97,20,18,16,15,0.9,0.8
2025-03-08T1200,1754A,123.1289,41.0228,鞍山市,千山,,,,58,,30,,,80,,,14,,7,,0.6
2025-03-08T1200,4201A,122.9446,41.0826,鞍山市,兴盛南路290号,细颗粒物(PM2.5),77,91,92,56,50,99,,84,84,28,36,19,18,0.7,1
2025-03-08T1200,2195A,107.4212,40.761,巴彦淖尔市,附二中,颗粒物(PM10),106,162,111,25,27,80,,45,45,,40,10,8,0.5,0.5
2025-03-08T1200,2196A,107.37,40.7372,巴彦淖尔市,市环保大楼,颗粒物(PM10),108,166,96,38,26,81,,43,43,16,23,9,6,0.3,0.2
2025-03-08T1200,1956A,86.1472,41.7538,巴音郭楞蒙古自治州,孔雀公园,颗粒物(PM10),94,137,336,33,53,69,,19,18,15,33,8,6,0.4,0.5
2025-03-08T1200,1957A,86.1972,41.7166,巴音郭楞蒙古自治州,棉纺厂,颗粒物(PM10),122,193,467,27,60,67,,52,52,18,22,6,3,0.4,0.5
2025-03-08T1200,1958A,86.2357,41.7173,巴音郭楞蒙古自治州,经济开发区,颗粒物(PM10),92,134,409,28,57,72,,57,57,16,22,8,5,0.4,0.5
2025-03-08T1200,2914A,106.7677,31.8794,巴中市,苏山坪,细颗粒物(PM2.5),75,72,30,55,22,26,,54,44,33,11,5,6,0.6,0.3
2025-03-08T1200,3181A,106.7768,31.8526,巴中市,市五中,,,51,37,35,26,9,,14,11,38,23,5,4,,0.5
2025-03-08T1200,3183A,106.7418,31.8654,巴中市,圣泉水务公司,,41,41,30,26,19,10,,21,18,35,24,7,6,0.6,0.5
2025-03-08T1200,3616A,106.7616,31.8344,巴中市,市中心医院,,49,45,35,34,27,12,,8,8,29,24,6,6,0.6,0.5
2025-03-08T1200,2235A,122.7911,45.6077,白城市,洮北区环保局,颗粒物(PM10),52,54,74,34,43,87,,80,80,12,15,8,7,0.7,0.7
2025-03-08T1200,2236A,122.8738,45.5725,白城市,市环保局,颗粒物(PM10),57,63,77,33,50,94,,91,90,5,8,6,7,0.5,0.5
2025-03-08T1200,2231A,126.4219,41.9171,白山市,喜丰,,32,27,65,18,30,100,,42,42,6,31,8,9,0.5,0.8
2025-03-08T1200,2232A,126.4077,41.9419,白山市,环保局,,32,25,58,9,28,100,,45,45,4,16,6,8,0.6,0.9
2025-03-08T1200,2647A,104.1724,36.5446,白银市,第三小学,颗粒物(PM10),79,108,112,51,53,75,,47,47,21,30,74,54,0.9,1
2025-03-08T1200,2648A,104.1465,36.5482,白银市,动力公司,颗粒物(PM10),82,113,108,54,55,93,,61,61,17,23,81,32,0.7,0.7
2025-03-08T1200,2512A,106.6103,23.9011,百色市,市监测站,,23,23,27,16,18,62,,61,57,9,12,7,8,0.5,0.6
2025-03-08T1200,2513A,106.6538,23.8859,百色市,市中心血站,,34,34,32,22,23,60,,61,56,8,12,8,9,0.6,0.6
2025-03-08T1200,3406A,106.6085,23.8798,百色市,祈福高中,,21,21,34,13,19,64,,60,58,8,14,6,6,0.6,0.6
2025-03-08T1200,2270A,117.396,32.939,蚌埠市,工人疗养院,细颗粒物(PM2.5),75,75,90,55,63,122,,91,86,18,22,6,6,0.6,0.7
2025-03-08T1200,2271A,117.3605,32.9427,蚌埠市,百货大楼,细颗粒物(PM2.5),68,77,87,49,60,109,,73,69,27,31,8,7,0.5,0.6
2025-03-08T1200,2273A,117.4185,32.8911,蚌埠市,蚌埠学院,细颗粒物(PM2.5),67,51,83,48,64,121,,76,75,15,24,7,6,0.5,0.6
2025-03-08T1200,2274A,117.3533,32.9673,蚌埠市,淮上区政府,细颗粒物(PM2.5),80,73,91,59,68,108,,80,70,24,27,8,6,0.7,0.8
2025-03-08T1200,2275A,117.3145,32.8977,蚌埠市,高新区,细颗粒物(PM2.5),79,75,83,58,64,108,,84,79,26,25,10,9,0.5,0.6
2025-03-08T1200,3715A,117.3092,32.9314,蚌埠市,蚌埠田家炳中学,细颗粒物(PM2.5),77,86,88,56,64,108,,88,82,31,30,8,8,0.6,0.7
2025-03-08T1200,1585A,109.8756,40.6532,包头市,市环境监测站,,,85,61,32,28,,,27,25,30,46,28,18,0.9,1
2025-03-08T1200,1587A,109.9991,40.5842,包头市,包头八中,细颗粒物(PM2.5),92,103,72,68,40,55,,24,24,30,47,25,26,0.8,1
2025-03-08T1200,1588A,109.8538,40.6821,包头市,青山宾馆,细颗粒物(PM2.5),73,74,62,53,39,65,,26,26,29,53,28,14,0.9,0.9
2025-03-08T1200,1589A,109.8642,40.6288,包头市,惠龙物流,颗粒物(PM10),73,95,65,47,31,63,,32,32,27,46,12,18,0.6,0.9
2025-03-08T1200,1590A,110.0377,40.5546,包头市,东河鸿龙湾,颗粒物(PM10),72,93,70,40,31,52,,27,27,27,43,13,14,0.6,0.9
2025-03-08T1200,3283A,109.9154,40.5685,包头市,滨河大厦,,,123,64,24,30,54,,22,22,23,45,,17,0.7,0.8
2025-03-08T1200,3419A,109.9447,40.6261,包头市,包头市委党校,"颗粒物(PM10),细颗粒物(PM2.5)",72,94,62,52,29,61,,31,31,28,43,38,16,1.4,1.2
2025-03-08T1200,3683A,109.8331,40.6576,包头市,昆区政府,细颗粒物(PM2.5),82,95,70,60,37,61,,31,31,27,50,22,21,0.7,1
2025-03-08T1200,1930A,107.185,34.3063,宝鸡市,庙沟村,细颗粒物(PM2.5),112,90,60,84,27,45,,55,46,25,12,7,6,0.5,0.3
2025-03-08T1200,1931A,107.0708,34.3017,宝鸡市,竹园沟,细颗粒物(PM2.5),84,94,62,62,26,49,,28,28,27,22,12,7,0.6,0.5
2025-03-08T1200,1932A,107.1906,34.3672,宝鸡市,三陆医院,细颗粒物(PM2.5),113,114,77,85,41,52,,19,19,33,34,9,7,0.8,0.6
2025-03-08T1200,1933A,107.1431,34.3547,宝鸡市,监测站,细颗粒物(PM2.5),110,110,71,83,31,48,,24,24,31,22,10,8,0.8,0.6
2025-03-08T1200,1934A,107.1186,34.3739,宝鸡市,技工学校,颗粒物(PM10),88,125,74,64,35,55,,29,28,29,18,10,11,0.8,0.6
2025-03-08T1200,1935A,107.3906,34.3528,宝鸡市,陈仓区环保局家属楼,细颗粒物(PM2.5),119,98,85,90,44,64,,20,20,27,40,10,9,0.7,0.6
2025-03-08T1200,1936A,107.2058,34.3497,宝鸡市,文理学院,细颗粒物(PM2.5),119,103,74,90,37,54,,25,25,29,25,9,6,0.6,0.4
2025-03-08T1200,1937A,107.2386,34.3622,宝鸡市,三迪小学,细颗粒物(PM2.5),113,116,74,85,39,57,,21,21,31,31,10,7,0.8,0.6
2025-03-08T1200,1051A,115.493,38.8632,保定市,游泳馆,细颗粒物(PM2.5),142,119,107,108,92,103,,38,38,20,38,8,6,0.5,0.5
2025-03-08T1200,1052A,115.5213,38.8959,保定市,华电二区,细颗粒物(PM2.5),129,105,91,98,90,100,,37,37,26,33,5,8,0.9,0.9
2025-03-08T1200,1053A,115.4713,38.9108,保定市,接待中心,细颗粒物(PM2.5),142,127,114,108,98,99,,36,36,21,37,8,7,0.8,0.7
2025-03-08T1200,1054A,115.4612,38.8416,保定市,地表水厂,细颗粒物(PM2.5),138,115,123,105,92,104,,42,42,18,42,6,5,0.8,0.8
2025-03-08T1200,3581A,115.31981,38.95208,保定市,满城区生态环境分局,细颗粒物(PM2.5),132,127,108,100,91,105,,50,50,20,38,14,12,0.6,0.8
2025-03-08T1200,3582A,115.47694,38.76408,保定市,清苑区第二中学,细颗粒物(PM2.5),123,106,124,93,88,100,,34,34,23,46,9,8,0.7,0.7
2025-03-08T1200,3583A,115.62909,39.02311,保定市,徐水物探局,细颗粒物(PM2.5),134,112,100,102,86,102,,37,37,20,35,9,8,0.6,0.6
2025-03-08T1200,4004A,115.4202,38.8656,保定市,双鹰农机,细颗粒物(PM2.5),103,112,100,77,80,104,,43,43,26,38,5,19,0.9,0.9
2025-03-08T1200,4034A,115.5150,38.8590,保定市,植保所站,细颗粒物(PM2.5),129,100,102,98,92,88,,36,35,31,37,6,6,0.8,0.8
2025-03-08T1200,2594A,99.1678,25.1081,保山市,市环境监测站,颗粒物(PM10),90,129,80,66,52,117,,110,91,25,13,8,5,0.8,0.6
2025-03-08T1200,2595A,99.1711,25.1328,保山市,市环保局,细颗粒物(PM2.5),97,140,85,72,52,120,,123,108,28,10,8,7,1.0,0.8
2025-03-08T1200,1866A,109.2262,21.588,北海市,牛尾岭水库,,,,16,11,17,33,,30,30,,,6,6,0.9,0.8
2025-03-08T1200,1867A,109.1436,21.4086,北海市,海滩公园,,21,21,25,12,17,44,,45,45,12,12,6,6,0.6,0.6
2025-03-08T1200,1868A,109.0981,21.4661,北海市,新市环保局,,20,14,22,14,20,45,,47,47,10,11,6,5,0.8,0.8
2025-03-08T1200,1869A,109.1778,21.5233,北海市,北海工业园,,,22,28,22,22,44,,45,45,,12,7,8,0.8,0.8
2025-03-08T1200,3400A,109.1911,21.4415,北海市,龙潭自来水厂,,19,,21,13,23,44,,42,42,10,11,6,6,0.8,0.7
2025-03-08T1200,1001A,116.3621,39.8784,北京市,万寿西宫,细颗粒物(PM2.5),125,120,104,95,80,91,,48,48,27,35,4,3,0.8,0.8
2025-03-08T1200,1002A,116.2202,40.2915,北京市,定陵,,,,,,,,,,,,,,,,
2025-03-08T1200,1003A,116.4174,39.9289,北京市,东四,细颗粒物(PM2.5),133,127,103,101,80,68,,40,32,42,34,6,6,0.8,0.7
2025-03-08T1200,1004A,116.4072,39.8863,北京市,天坛,细颗粒物(PM2.5),132,131,102,100,77,77,,30,30,37,28,5,4,0.9,0.8
2025-03-08T1200,1005A,116.462,39.9365,北京市,农展馆,细颗粒物(PM2.5),135,136,102,103,74,57,,28,22,56,43,7,6,1.0,0.7
2025-03-08T1200,1006A,116.3392,39.9295,北京市,官园,细颗粒物(PM2.5),133,120,111,101,86,65,,26,26,31,35,8,7,0.8,0.7
2025-03-08T1200,1007A,116.2878,39.9611,北京市,海淀万柳,细颗粒物(PM2.5),122,115,105,92,77,68,,25,25,32,40,5,4,0.9,0.9
2025-03-08T1200,1008A,116.6636,40.135,北京市,顺义新城,细颗粒物(PM2.5),115,123,104,87,70,81,,35,35,30,36,6,5,0.5,0.5
2025-03-08T1200,1009A,116.6275,40.3275,北京市,怀柔镇,细颗粒物(PM2.5),124,116,93,94,72,88,,54,54,23,28,4,4,0.7,0.7
2025-03-08T1200,1010A,116.2296,40.217,北京市,昌平镇,细颗粒物(PM2.5),119,127,113,90,75,61,,37,35,30,30,3,2,0.7,0.8
2025-03-08T1200,1011A,116.3966,39.9821,北京市,奥体中心,细颗粒物(PM2.5),135,125,107,103,76,65,,25,25,42,46,5,5,0.9,0.8
2025-03-08T1200,3281A,115.9718,40.4529,北京市,延庆夏都,细颗粒物(PM2.5),118,109,93,89,69,63,,25,25,26,30,8,6,0.7,0.6
2025-03-08T1200,3418A,116.8336,40.4095,北京市,密云新城,细颗粒物(PM2.5),119,111,95,90,68,92,,52,52,14,20,4,3,0.6,0.6
2025-03-08T1200,3671A,116.088,39.9726,北京市,门头沟三家店,细颗粒物(PM2.5),114,116,101,86,72,75,,37,37,29,29,5,4,0.5,0.4
2025-03-08T1200,3672A,116.1541,39.8204,北京市,丰台云岗,细颗粒物(PM2.5),125,120,123,95,76,105,,67,67,17,23,5,5,0.6,0.6
2025-03-08T1200,3673A,116.6804,39.9081,北京市,通州东关,细颗粒物(PM2.5),134,134,101,102,75,73,,45,34,55,41,8,6,0.6,0.5
2025-03-08T1200,3674A,115.9577,39.7603,北京市,房山燕山,细颗粒物(PM2.5),123,120,95,93,76,114,,56,56,23,19,3,3,0.7,0.6
2025-03-08T1200,3675A,116.4672,39.7733,北京市,大兴旧宫,细颗粒物(PM2.5),117,110,99,88,71,81,,30,30,24,25,1,2,0.5,0.5
2025-03-08T1200,3694A,115.986,40.4563,北京市,延庆石河营,细颗粒物(PM2.5),113,108,91,85,68,63,,23,23,28,29,7,4,0.8,0.7
2025-03-08T1200,3695A,116.6151,40.3053,北京市,怀柔新城,细颗粒物(PM2.5),123,110,94,93,73,89,,57,57,17,19,5,5,0.7,0.7
2025-03-08T1200,3696A,116.2545,39.8768,北京市,丰台小屯,细颗粒物(PM2.5),122,118,103,92,72,89,,32,32,23,44,2,2,0.5,0.6
2025-03-08T1200,3697A,116.84,40.3844,北京市,密云镇,细颗粒物(PM2.5),122,126,98,92,67,99,,38,38,12,29,5,4,0.6,0.6
2025-03-08T1200,4182A,116.1942,39.9158,北京市,八角北路9号,细颗粒物(PM2.5),122,116,103,92,73,92,,56,56,19,26,2,2,0.5,0.5
2025-03-08T1200,4194A,117.0790,40.1518,北京市,洳河巡河路,细颗粒物(PM2.5),129,118,87,98,68,98,,47,47,15,21,4,4,0.5,0.5
2025-03-08T1200,1761A,123.8275,41.3064,本溪市,大峪,颗粒物(PM10),53,55,35,32,26,110,,94,94,12,12,12,10,0.7,0.6
2025-03-08T1200,1762A,123.7567,41.3325,本溪市,溪湖,颗粒物(PM10),57,63,50,37,25,101,,95,95,26,21,27,16,1.6,0.9
2025-03-08T1200,1763A,123.7169,41.3094,本溪市,彩屯,细颗粒物(PM2.5),62,72,61,44,36,98,,86,86,23,27,19,16,1.4,1.9
2025-03-08T1200,1764A,123.7669,41.2864,本溪市,东明,,50,50,48,30,28,103,,96,96,14,16,10,9,0.6,0.6
2025-03-08T1200,1765A,123.7992,41.2664,本溪市,新立屯,,49,46,34,34,24,120,,112,112,14,15,8,7,0.7,0.5
2025-03-08T1200,1766A,123.8142,41.3472,本溪市,威宁,细颗粒物(PM2.5),52,49,53,36,28,110,,80,80,12,20,9,6,0.8,0.6
2025-03-08T1200,2587A,105.2864,27.3125,毕节市,八中,,33,26,17,23,15,45,,49,42,18,11,8,8,0.7,0.6
2025-03-08T1200,2588A,105.31,27.2944,毕节市,师专,,28,28,17,19,14,46,,53,46,17,11,7,7,0.7,0.7
2025-03-08T1200,4263A,105.3688,27.3598,毕节市,工业大道,,20,16,16,14,14,55,,49,44,11,13,8,8,0.5,0.5
2025-03-08T1200,1629A,118.0018,37.3617,滨州市,第二水厂,细颗粒物(PM2.5),79,92,110,58,72,108,,64,64,13,35,16,15,0.3,0.4
2025-03-08T1200,1630A,117.9776,37.393,滨州市,北中新校,细颗粒物(PM2.5),83,105,118,61,74,112,,77,77,20,43,17,16,0.8,0.8
2025-03-08T1200,3514A,117.9378,37.3956,滨州市,中海酒店,细颗粒物(PM2.5),92,95,99,68,75,119,,81,81,15,30,13,15,0.6,0.7
2025-03-08T1200,3515A,117.9378,37.3553,滨州市,开发区一中,"颗粒物(PM10),细颗粒物(PM2.5)",73,95,111,53,67,108,,61,61,24,56,14,16,0.5,0.6
2025-03-08T1200,3516A,118.0917,37.694,滨州市,金海六路,细颗粒物(PM2.5),94,100,107,70,67,103,,54,54,18,42,16,14,0.8,0.8
2025-03-08T1200,4028A,117.9956,37.3753,滨州市,滨州市西街道办事处,细颗粒物(PM2.5),98,100,111,73,82,116,,72,72,12,35,18,16,0.8,0.8
2025-03-08T1200,2311A,115.8072,33.8399,亳州市,污水处理厂,细颗粒物(PM2.5),68,77,75,49,46,114,,76,76,19,23,3,4,0.5,0.5
2025-03-08T1200,2312A,115.7789,33.8518,亳州市,三国揽胜宫,颗粒物(PM10),78,106,82,48,45,106,,78,73,15,17,4,5,0.4,0.4
2025-03-08T1200,3332A,115.7633,33.8034,亳州市,亳州学院,细颗粒物(PM2.5),82,80,71,60,48,113,,86,83,18,20,6,6,0.5,0.4
2025-03-08T1200,2693A,82.0485,44.8556,博尔塔拉蒙古自治州,市党校,,32,,33,22,25,78,,71,71,15,17,10,8,0.0,0.1
2025-03-08T1200,2694A,82.0806,44.8969,博尔塔拉蒙古自治州,市环保局,,33,33,39,19,22,90,,81,77,30,21,6,2,0.6,0.5
2025-03-08T1200,1071A,116.8842,38.2991,沧州市,沧县城建局,细颗粒物(PM2.5),113,124,108,85,88,76,,36,36,36,32,7,6,0.8,0.7
2025-03-08T1200,1072A,116.8584,38.3254,沧州市,电视转播站,细颗粒物(PM2.5),128,109,98,97,83,76,,31,31,30,32,6,5,0.6,0.6
2025-03-08T1200,1073A,116.8709,38.3228,沧州市,市环保局,细颗粒物(PM2.5),112,104,100,84,79,74,,37,37,30,29,8,8,0.7,0.6
2025-03-08T1200,3324A,116.8136,38.3004,沧州市,河北水利电力学院,细颗粒物(PM2.5),112,119,103,84,77,84,,34,30,27,32,8,8,0.5,0.5
2025-03-08T1200,2622A,97.1806,31.1273,昌都市,昌都监测站,,29,29,23,18,16,67,,67,63,14,7,7,6,1.1,1
2025-03-08T1200,3719A,97.1714,31.1406,昌都市,昌都会议中心,,28,18,19,14,14,88,,81,78,7,3,2,2,0.5,0.4
2025-03-08T1200,2690A,88.1236,43.8886,昌吉回族自治州,天山天池,,,5,20,,16,92,,93,92,4,4,5,6,0.4,0.4
2025-03-08T1200,2692A,87.2717,44.0297,昌吉回族自治州,新区政务中心,,27,7,51,3,29,86,,80,76,10,15,5,5,0.3,0.5
2025-03-08T1200,3613A,87.3095,44.0142,昌吉回族自治州,亚心广场,,25,9,63,9,48,80,,74,67,16,21,7,6,0.1,0.4
2025-03-08T1200,1119A,125.3325,43.9166,长春市,食品厂,细颗粒物(PM2.5),80,80,61,59,39,89,,71,69,22,26,11,12,0.5,0.5
2025-03-08T1200,1120A,125.2863,43.9027,长春市,客车厂,细颗粒物(PM2.5),88,78,60,65,44,87,,68,68,23,26,10,10,0.6,0.6
2025-03-08T1200,1121A,125.2841,43.8463,长春市,邮电学院,细颗粒物(PM2.5),82,85,58,60,38,92,,72,67,21,27,12,17,0.7,0.7
2025-03-08T1200,1122A,125.3716,43.8772,长春市,劳动公园,细颗粒物(PM2.5),80,101,57,59,32,91,,77,71,24,22,12,11,0.4,0.3
2025-03-08T1200,1123A,125.3297,43.8805,长春市,园林处,细颗粒物(PM2.5),83,93,56,61,37,90,,75,70,19,21,11,11,0.6,0.5
2025-03-08T1200,1124A,125.4605,43.79,长春市,净月潭,细颗粒物(PM2.5),72,79,45,52,28,86,,74,73,17,12,11,9,0.6,0.4
2025-03-08T1200,1125A,125.7194,43.515,长春市,甩湾子,,,,,,,,,,,,,,,,
2025-03-08T1200,1126A,125.3863,43.8447,长春市,经开区环卫处,细颗粒物(PM2.5),79,83,51,58,31,84,,72,70,20,17,11,8,0.6,0.5
2025-03-08T1200,1127A,125.245,43.7783,长春市,高新区管委会,细颗粒物(PM2.5),92,79,50,68,36,90,,74,71,21,23,12,10,0.6,0.5
2025-03-08T1200,1128A,125.1761,43.8325,长春市,岱山公园,细颗粒物(PM2.5),77,88,63,56,41,94,,72,72,17,30,10,9,0.5,0.6
2025-03-08T1200,1335A,113.0833,28.2325,长沙市,经开区环保局,颗粒物(PM10),51,52,45,31,29,49,,17,17,31,39,4,4,0.4,0.6
2025-03-08T1200,1336A,112.8872,28.2189,长沙市,高开区环保局,,39,38,47,27,34,60,,37,37,17,26,4,4,0.6,0.6
2025-03-08T1200,1337A,113.0792,28.2053,长沙市,马坡岭,,45,45,42,30,29,60,,32,32,12,27,4,4,0.5,0.5
2025-03-08T1200,1338A,112.9394,28.19,长沙市,湖南师范大学,,48,48,44,26,29,63,,38,38,14,20,5,5,0.5,0.6
2025-03-08T1200,1339A,113.0178,28.1322,长沙市,雨花区环保局,,40,40,40,23,28,65,,39,39,13,27,5,5,0.4,0.5
2025-03-08T1200,1340A,112.9792,28.2597,长沙市,伍家岭,颗粒物(PM10),53,56,59,15,19,64,,20,20,17,35,3,3,0.5,0.6
2025-03-08T1200,1341A,113.0014,28.1944,长沙市,火车新站,,45,39,46,31,37,65,,38,38,16,36,5,6,0.7,0.8
2025-03-08T1200,1342A,112.9844,28.1178,长沙市,天心区环保局,,40,38,39,28,31,61,,46,46,20,36,2,2,0.7,0.8
2025-03-08T1200,1343A,112.8908,28.1308,长沙市,湖南中医药大学,颗粒物(PM10),51,52,49,27,35,60,,22,22,14,34,4,3,0.5,0.8
2025-03-08T1200,1344A,112.9581,28.3611,长沙市,沙坪,,33,33,40,21,37,59,,33,33,19,24,7,5,0.7,0.7
2025-03-08T1200,1727A,113.1147,36.1547,长治市,清华站,细颗粒物(PM2.5),100,,51,75,46,43,,16,16,35,29,8,8,2.2,1.2
2025-03-08T1200,1730A,113.0886,36.2125,长治市,审计局,细颗粒物(PM2.5),117,,48,88,51,44,,24,18,26,26,5,5,1.7,1.1
2025-03-08T1200,1731A,113.0844,36.1856,长治市,长治八中,细颗粒物(PM2.5),112,,59,84,57,47,,18,18,25,27,6,6,1.6,0.8
2025-03-08T1200,2845A,113.1569,36.1911,长治市,德盛苑,细颗粒物(PM2.5),98,78,49,73,44,41,,40,24,26,23,4,3,2.1,1.2
2025-03-08T1200,3568A,113.06,36.0464,长治市,向阳小学,细颗粒物(PM2.5),119,90,75,90,58,31,,38,23,30,19,6,7,1.9,0.9
2025-03-08T1200,3569A,112.8792,36.3144,长治市,屯留一中,细颗粒物(PM2.5),218,,58,168,52,35,,20,20,27,33,9,8,1.0,0.9
2025-03-08T1200,4189A,113.1131,36.19948,长治市,英华南巷50号,细颗粒物(PM2.5),122,,53,92,51,45,,18,18,27,29,7,7,1.9,1.1
2025-03-08T1200,4190A,113.2367,36.3344,长治市,学府街1号,细颗粒物(PM2.5),170,164,72,129,49,37,,22,22,35,40,4,4,4.1,1.6
2025-03-08T1200,1854A,111.6975,28.9703,常德市,市二中,,46,39,59,32,37,49,,47,38,21,20,6,6,0.5,0.5
2025-03-08T1200,1857A,111.7158,29.1456,常德市,白鹤山,,,,,,,,,,,,,,,,
2025-03-08T1200,3138A,111.7153,29.0289,常德市,武陵区永安,,43,42,67,30,51,44,,41,35,18,16,5,5,0.6,0.6
2025-03-08T1200,3139A,111.6892,28.9881,常德市,鼎城区玉霞,,43,43,62,25,44,47,,39,32,25,20,7,5,0.5,0.5
2025-03-08T1200,3140A,111.6625,29.0531,常德市,武陵区长庚,,36,36,66,24,46,50,,40,35,14,15,5,4,0.6,0.5
2025-03-08T1200,1196A,119.9633,31.762,常州市,市监测站,细颗粒物(PM2.5),87,103,97,64,59,101,,39,39,39,52,10,7,0.9,0.8
2025-03-08T1200,1200A,119.9468,31.7069,常州市,武进监测站,细颗粒物(PM2.5),84,90,74,62,54,104,,45,45,31,44,3,4,0.8,0.9
2025-03-08T1200,1201A,119.9255,31.9087,常州市,安家,细颗粒物(PM2.5),72,88,78,52,51,109,,43,43,26,55,9,8,0.6,0.7
2025-03-08T1200,3002A,119.9805,31.8174,常州市,行政中心,细颗粒物(PM2.5),83,81,70,61,49,112,,49,49,24,42,10,10,0.6,0.6
2025-03-08T1200,3003A,120.0522,31.7748,常州市,经开区,细颗粒物(PM2.5),84,98,81,62,51,115,,47,47,34,50,10,9,0.7,0.6
2025-03-08T1200,3010A,119.9025,31.7964,常州市,钟楼,细颗粒物(PM2.5),90,104,80,67,52,104,,45,45,30,41,10,8,0.8,0.6
2025-03-08T1200,3429A,119.8598,31.7066,常州市,武进经发区,细颗粒物(PM2.5),114,126,90,86,62,94,,36,36,42,58,10,8,0.8,0.8
2025-03-08T1200,3430A,119.5826,31.7245,常州市,金坛城区,细颗粒物(PM2.5),97,111,94,72,60,115,,40,40,24,37,10,8,0.8,0.8
2025-03-08T1200,2220A,120.4318,41.5881,朝阳市,西梁,细颗粒物(PM2.5),63,66,61,45,35,85,,60,59,17,21,16,12,0.8,0.9
2025-03-08T1200,2221A,120.4521,41.5646,朝阳市,河畔小区,"颗粒物(PM10),细颗粒物(PM2.5)",54,58,50,38,29,82,,72,69,18,19,16,11,0.8,0.8
2025-03-08T1200,2222A,120.4176,41.5648,朝阳市,八里堡,细颗粒物(PM2.5),62,61,65,44,37,80,,54,54,22,24,19,20,0.9,0.9
2025-03-08T1200,2223A,120.3806,41.5969,朝阳市,农业园区,细颗粒物(PM2.5),77,57,60,56,44,91,,69,65,20,23,17,14,0.9,0.9
2025-03-08T1200,1705A,116.6367,23.6719,潮州市,西园路,,15,15,12,9,10,48,,29,29,10,10,4,3,0.3,0.1
2025-03-08T1200,3026A,116.6183,23.6608,潮州市,市政府,,15,14,18,10,8,47,,29,29,12,14,3,3,0.4,0.5
2025-03-08T1200,4036A,116.6461,23.6761,潮州市,金山,,16,11,14,11,11,43,,26,26,10,11,5,5,0.6,0.7
2025-03-08T1200,2472A,113.0073,25.9061,郴州市,马头岭,,35,33,55,24,31,54,,34,34,19,20,11,8,0.6,0.7
2025-03-08T1200,2473A,113.0116,25.8226,郴州市,市职中,细颗粒物(PM2.5),57,44,52,40,46,50,,24,24,17,22,8,5,0.6,0.7
2025-03-08T1200,2475A,113.0383,25.8071,郴州市,市审计局,细颗粒物(PM2.5),63,51,56,45,49,46,,23,23,19,22,16,5,0.6,0.7
2025-03-08T1200,2476A,113.0348,25.7759,郴州市,市环保局,细颗粒物(PM2.5),68,59,59,49,56,42,,17,17,16,24,14,5,0.6,0.7
2025-03-08T1200,4252A,113.0138,25.8011,郴州市,好美居路49号,细颗粒物(PM2.5),55,46,66,39,54,51,,21,21,18,25,10,7,0.6,0.7
2025-03-08T1200,1431A,103.9728,30.7236,成都市,金泉两河,,41,41,46,3,16,51,,34,34,24,24,2,2,0.6,0.5
2025-03-08T1200,1432A,104.176,30.6872,成都市,十里店,,25,,38,17,22,53,,44,33,30,32,2,2,0.5,0.6
2025-03-08T1200,1433A,104.079,30.5706,成都市,三瓦窑,,36,36,39,17,21,44,,38,29,30,41,3,3,0.6,0.6
2025-03-08T1200,1434A,104.1114,30.63,成都市,沙河铺,,39,39,40,24,30,40,,36,29,32,26,5,4,0.7,0.6
2025-03-08T1200,1437A,104.0786,30.6531,成都市,君平街,,32,32,40,14,28,51,,46,46,30,31,5,5,0.7,0.6
2025-03-08T1200,1438A,103.613,31.0283,成都市,灵岩寺,,,,,,,,,,,,,,,,
2025-03-08T1200,2880A,104.0239,30.65639,成都市,大石西路,,43,43,43,19,24,46,,41,38,33,31,5,4,0.7,0.6
2025-03-08T1200,3136A,104.2725,30.5589,成都市,龙泉驿区区政府,,32,27,28,22,23,55,,44,44,18,20,4,4,0.5,0.5
2025-03-08T1200,3357A,104.0106,30.6931,成都市,金博路,,15,10,30,10,17,47,,37,32,24,26,6,5,0.8,0.7
2025-03-08T1200,3359A,104.0578,30.5225,成都市,华阳,,42,39,39,29,30,42,,41,36,28,29,5,4,0.7,0.6
2025-03-08T1200,3488A,104.3853,30.7453,成都市,青白江技师分院,,29,24,39,20,28,69,,22,22,14,31,4,5,0.4,0.4
2025-03-08T1200,3489A,104.0789,30.4072,成都市,科学城,,32,26,32,22,25,70,,54,52,16,24,4,4,0.4,0.4
2025-03-08T1200,4011A,103.8506,30.6947,成都市,光华大道三段,,30,30,39,6,17,56,,37,33,26,28,5,4,0.6,0.6
2025-03-08T1200,4224A,104.2433,30.5353,成都市,鲸龙路1057号,,29,25,36,20,26,69,,51,51,14,23,4,4,0.6,0.6
2025-03-08T1200,1062A,117.9531,40.9081,承德市,铁路,细颗粒物(PM2.5),98,109,79,73,52,77,,37,36,30,34,11,7,0.7,0.6
2025-03-08T1200,1063A,117.9392,40.9763,承德市,中国银行,细颗粒物(PM2.5),92,103,76,68,50,85,,39,39,23,24,6,5,0.7,0.6
2025-03-08T1200,1064A,117.9503,40.928,承德市,开发区,细颗粒物(PM2.5),98,107,72,73,44,87,,45,45,32,29,7,7,0.7,0.7
2025-03-08T1200,1065A,117.8051,40.9655,承德市,文化中心,细颗粒物(PM2.5),133,146,102,101,62,73,,33,33,36,33,78,23,1.4,0.8
2025-03-08T1200,1066A,117.9268,41.0026,承德市,离宫,细颗粒物(PM2.5),117,110,77,88,59,78,,45,45,25,22,6,8,0.6,0.6
2025-03-08T1200,2314A,117.47,30.6618,池州市,池州学院,细颗粒物(PM2.5),75,74,55,55,41,89,,60,60,16,25,8,6,0.5,0.6
2025-03-08T1200,3237A,117.4918,30.6617,池州市,展览馆,细颗粒物(PM2.5),69,71,51,50,39,94,,59,59,13,25,7,5,0.5,0.7
2025-03-08T1200,3333A,117.5627,30.695,池州市,第八中学,细颗粒物(PM2.5),65,64,54,47,38,96,,58,58,15,23,6,5,0.5,0.6
2025-03-08T1200,3334A,117.5038,30.6243,池州市,第十二中学,细颗粒物(PM2.5),70,70,53,51,38,100,,55,55,13,24,8,6,0.5,0.8
2025-03-08T1200,1744A,118.9233,42.2816,赤峰市,松山一中,颗粒物(PM10),81,112,61,56,34,79,,36,35,39,38,29,18,1.2,0.9
2025-03-08T1200,1745A,118.9576,42.2728,赤峰市,哈达街,细颗粒物(PM2.5),95,127,60,71,39,64,,52,32,53,34,46,37,2.0,0.9
2025-03-08T1200,1746A,118.8788,42.2554,赤峰市,天义路,细颗粒物(PM2.5),115,130,61,87,48,57,,50,34,49,30,45,18,1.3,0.4
2025-03-08T1200,3058A,119.2658,42.0353,赤峰市,银河街,细颗粒物(PM2.5),98,109,86,73,60,70,,48,48,27,32,20,21,0.7,0.9
2025-03-08T1200,3286A,118.9359,42.3147,赤峰市,桥北物流园区,细颗粒物(PM2.5),125,108,51,95,48,81,,42,42,28,27,20,14,0.9,0.8
2025-03-08T1200,2521A,107.3476,22.4136,崇左市,市环保局江州分局,颗粒物(PM10),54,58,48,37,32,60,,62,55,10,10,6,7,0.6,0.5
2025-03-08T1200,4256A,107.3750,22.3736,崇左市,石景林东路7号,细颗粒物(PM2.5),64,57,44,46,32,64,,66,58,14,13,5,6,0.5,0.5
2025-03-08T1200,2298A,118.3093,32.3153,滁州市,老年大学,细颗粒物(PM2.5),72,69,86,52,67,120,,47,47,30,34,11,7,0.9,0.8
2025-03-08T1200,2299A,118.3244,32.2786,滁州市,人大宾馆,细颗粒物(PM2.5),78,68,85,57,70,114,,53,53,25,36,17,10,0.9,0.8
2025-03-08T1200,3207A,118.3118,32.3038,滁州市,市政府原办公楼,细颗粒物(PM2.5),69,64,76,50,62,119,,47,47,21,40,13,8,0.7,0.7
2025-03-08T1200,3331A,118.3267,32.2634,滁州市,图书馆,颗粒物(PM10),66,82,75,46,58,116,,59,59,27,37,16,9,0.8,0.7
2025-03-08T1200,2605A,101.5482,25.0441,楚雄彝族自治州,州环境监测站,细颗粒物(PM2.5),54,42,44,38,40,98,,82,82,12,11,6,6,0.8,0.9
2025-03-08T1200,2606A,101.538,25.0492,楚雄彝族自治州,市经济开发区,细颗粒物(PM2.5),54,,48,38,39,96,,77,77,8,10,6,6,0.8,0.8
2025-03-08T1200,2548A,107.5277,31.2827,达州市,达州职业技术学院,颗粒物(PM10),56,62,47,33,23,17,,9,9,32,27,8,6,0.5,0.4
2025-03-08T1200,2549A,107.5086,31.2186,达州市,市环境监测站,颗粒物(PM10),60,69,47,29,20,8,,5,5,47,38,7,6,0.6,0.6
2025-03-08T1200,2550A,107.4988,31.2132,达州市,凤凰小区,颗粒物(PM10),58,66,45,29,22,15,,11,11,42,36,9,7,0.5,0.4
2025-03-08T1200,2551A,107.5082,31.1986,达州市,达县机关宾馆,,,66,51,35,25,7,,7,7,,36,6,6,0.8,0.7
2025-03-08T1200,2552A,107.4644,31.2124,达州市,市政中心,颗粒物(PM10),63,75,52,34,22,7,,6,6,47,40,2,2,0.7,0.6
2025-03-08T1200,2614A,100.1542,25.7054,大理白族自治州,大理市环境监测站,细颗粒物(PM2.5),70,77,61,51,40,150,,122,122,8,8,9,8,0.8,0.7
2025-03-08T1200,2615A,100.2171,25.5811,大理白族自治州,大理古城,细颗粒物(PM2.5),63,72,56,45,43,139,,139,139,9,7,9,9,0.8,0.8
2025-03-08T1200,1109A,121.612,38.9741,大连市,甘井子,细颗粒物(PM2.5),69,61,56,50,42,80,,66,57,30,30,7,7,0.7,0.7
2025-03-08T1200,1110A,121.565,38.9511,大连市,周水子,细颗粒物(PM2.5),93,72,58,69,49,84,,61,54,22,28,12,11,0.4,0.5
2025-03-08T1200,1111A,121.5637,38.8845,大连市,星海三站,细颗粒物(PM2.5),69,57,57,50,44,77,,73,67,13,15,8,8,0.9,0.8
2025-03-08T1200,1112A,121.6302,38.9117,大连市,青泥洼桥,细颗粒物(PM2.5),68,62,60,49,43,93,,66,62,9,13,10,9,0.6,0.6
2025-03-08T1200,1113A,121.6251,38.8638,大连市,傅家庄,细颗粒物(PM2.5),59,51,54,42,40,69,,62,57,20,22,7,7,0.6,0.6
2025-03-08T1200,1114A,121.5213,38.8661,大连市,七贤岭,细颗粒物(PM2.5),65,64,65,47,41,70,,62,55,18,20,10,9,0.6,0.6
2025-03-08T1200,1115A,121.2529,38.8061,大连市,旅顺,细颗粒物(PM2.5),85,74,57,63,47,67,,72,67,19,22,6,6,0.6,0.6
2025-03-08T1200,1116A,121.7485,39.1311,大连市,金州,,,91,78,69,50,68,,66,52,35,31,,13,,0.7
2025-03-08T1200,1117A,121.7811,39.0496,大连市,开发区,细颗粒物(PM2.5),75,69,68,55,46,63,,62,47,37,30,8,8,1.1,0.9
2025-03-08T1200,1118A,121.9762,39.0631,大连市,双D港,细颗粒物(PM2.5),62,44,56,44,53,89,,62,59,14,20,10,9,0.6,0.6
2025-03-08T1200,1789A,124.81117,46.03138,大庆市,大同区,颗粒物(PM10),53,56,62,35,35,74,,55,55,10,16,5,6,0.6,0.6
2025-03-08T1200,1790A,125.129,46.533,大庆市,龙凤区,,44,44,40,12,24,78,,72,72,14,11,12,7,0.4,0.4
2025-03-08T1200,1791A,124.902,46.408,大庆市,红岗区,,40,40,41,26,27,85,,67,67,18,14,11,6,0.5,0.4
2025-03-08T1200,1792A,125.153,46.586,大庆市,萨尔图区,,41,41,43,21,25,85,,79,79,11,12,8,6,0.4,0.3
2025-03-08T1200,1793A,124.9042,46.6215,大庆市,让胡路区,,,39,40,23,30,,,69,69,14,15,9,8,0.6,0.6
2025-03-08T1200,3481A,125.141,46.634,大庆市,萨区政府监测点,,43,43,43,24,26,89,,82,82,9,10,8,7,0.5,0.5
2025-03-08T1200,1721A,113.3819,40.1097,大同市,果树场,颗粒物(PM10),82,113,73,52,67,66,,31,31,23,33,19,10,0.6,0.8
2025-03-08T1200,1723A,113.2994,40.0758,大同市,云冈宾馆,细颗粒物(PM2.5),87,88,86,64,57,62,,36,36,32,31,20,10,0.7,0.8
2025-03-08T1200,1724A,113.3444,40.0917,大同市,大同大学,细颗粒物(PM2.5),67,80,74,48,60,66,,27,27,25,30,20,11,0.8,0.8
2025-03-08T1200,1725A,113.2661,40.1269,大同市,安家小村,细颗粒物(PM2.5),73,83,92,53,66,68,,36,36,28,32,19,11,0.6,1.2
2025-03-08T1200,1726A,113.2711,40.0844,大同市,教育学院,细颗粒物(PM2.5),78,82,88,57,65,59,,31,31,34,35,19,10,0.7,0.9
2025-03-08T1200,3282A,113.3397,40.0597,大同市,大同市卫生学校,颗粒物(PM10),69,87,82,44,58,65,,31,31,26,29,17,9,0.9,0.7
2025-03-08T1200,3565A,113.1367,40.1122,大同市,云冈站,细颗粒物(PM2.5),82,96,85,60,62,67,,25,25,24,31,20,19,1.1,0.7
2025-03-08T1200,3566A,113.1186,40.2556,大同市,图书馆,细颗粒物(PM2.5),100,103,68,75,59,62,,25,25,26,26,34,12,0.9,1.1
2025-03-08T1200,3567A,113.5931,40.0461,大同市,区一中,颗粒物(PM10),78,105,83,43,42,77,,40,40,23,24,30,17,0.6,0.6
2025-03-08T1200,4199A,113.2798,40.0997,大同市,魏都大道141号,颗粒物(PM10),70,89,90,50,62,61,,33,33,26,31,22,14,0.9,1.1
2025-03-08T1200,2269A,124.1069,50.4097,大兴安岭地区,科技局,,32,32,30,16,22,83,,67,67,8,6,8,6,0.4,0.4
2025-03-08T1200,3663A,124.1164,50.4278,大兴安岭地区,红旗社区,,29,19,24,13,18,92,,51,51,9,19,6,8,0.4,0.5
2025-03-08T1200,1600A,124.3303,40.0625,丹东市,江湾东路,颗粒物(PM10),51,51,89,27,69,108,,62,62,7,23,13,16,0.4,1.2
2025-03-08T1200,1601A,124.4256,40.1503,丹东市,临江后街,,49,49,81,30,50,108,,65,65,10,24,12,12,0.9,1.3
2025-03-08T1200,1602A,124.3933,40.1461,丹东市,元宝山,,50,49,71,35,50,101,,63,63,10,23,11,12,0.5,1.1
2025-03-08T1200,1603A,124.3633,40.1092,丹东市,民主桥,颗粒物(PM10),57,63,77,28,56,101,,41,41,7,32,8,10,0.5,1.2
2025-03-08T1200,3541A,109.5726,19.5167,儋州市,第一中学子站,,10,6,6,6,5,30,,38,30,9,8,3,3,0.8,0.8
2025-03-08T1200,3542A,109.5567,19.5187,儋州市,东坡学校子站,,10,9,9,6,6,30,,38,30,12,10,2,3,0.8,0.8
2025-03-08T1200,2616A,98.5842,24.428,德宏傣族景颇族自治州,德宏州监测站,细颗粒物(PM2.5),99,101,112,74,75,85,,36,36,20,31,10,9,1.0,0.9
2025-03-08T1200,3677A,98.5881,24.4368,德宏傣族景颇族自治州,芒市人民政府综合楼,细颗粒物(PM2.5),119,135,120,90,70,98,,75,62,,16,9,8,0.9,0.9
2025-03-08T1200,1901A,104.4239,31.1208,德阳市,东山公园,,39,39,44,19,32,60,,28,28,16,26,3,2,0.6,0.6
2025-03-08T1200,1902A,104.3826,31.1317,德阳市,西小区,颗粒物(PM10),51,52,57,34,40,52,,30,30,26,34,4,4,0.6,0.6
2025-03-08T1200,1904A,104.3553,31.1091,德阳市,耐火材料厂,,46,46,57,27,38,54,,20,20,23,36,8,7,0.4,0.5
2025-03-08T1200,3639A,104.4019,31.1244,德阳市,市教育局,,41,41,45,24,33,57,,31,31,21,34,4,4,0.6,0.6
2025-03-08T1200,1622A,116.3032,37.4674,德州市,儿童乐园,细颗粒物(PM2.5),128,136,111,97,75,94,,63,59,30,34,18,8,0.9,0.8
2025-03-08T1200,1624A,116.2991,37.4451,德州市,监理站,细颗粒物(PM2.5),122,114,98,92,72,96,,60,60,25,32,21,14,0.8,0.7
2025-03-08T1200,3066A,116.2721,37.4379,德州市,九衢泉纯净水厂,细颗粒物(PM2.5),98,100,97,73,64,103,,51,51,19,35,13,10,0.7,0.7
2025-03-08T1200,3371A,116.3728,37.4403,德州市,开发区人民医院,颗粒物(PM10),80,110,103,58,63,90,,80,62,24,25,15,12,0.6,0.6
2025-03-08T1200,3372A,116.3572,37.4094,德州市,太阳城中学,细颗粒物(PM2.5),94,105,107,70,72,98,,70,64,23,29,11,8,0.6,0.6
2025-03-08T1200,3511A,116.5652,37.3319,德州市,陵城艺术中心,细颗粒物(PM2.5),107,112,104,80,73,93,,57,57,28,31,19,14,0.7,0.7
2025-03-08T1200,2621A,99.7056,27.8317,迪庆藏族自治州,迪庆州站,,48,48,50,26,26,114,,119,117,8,10,7,7,0.4,0.5
2025-03-08T1200,3180A,99.7136,27.8094,迪庆藏族自治州,质量技术监督局,颗粒物(PM10),52,53,42,30,32,105,,109,106,10,10,9,8,0.6,0.6
2025-03-08T1200,4257A,104.6092,35.5962,定西市,将台街,颗粒物(PM10),63,76,88,26,37,87,,73,73,10,22,9,12,0.1,0.6
2025-03-08T1200,4309A,104.6159,35.5701,定西市,正龙路62号,颗粒物(PM10),64,78,86,37,42,95,,88,88,5,8,6,6,0.3,0.5
2025-03-08T1200,1389A,113.7547,23.0494,东莞市,莞城梨川,,25,19,17,17,15,43,,34,34,15,17,5,5,0.7,0.7
2025-03-08T1200,1390A,113.7944,23.0128,东莞市,东城石井,,28,25,20,19,15,40,,29,29,21,17,7,7,0.7,0.7
2025-03-08T1200,1391A,113.7383,22.9658,东莞市,南城西平,,26,21,20,18,13,51,,30,30,23,31,11,11,0.7,0.7
2025-03-08T1200,3319A,113.7338,23.0381,东莞市,万江金泰,,26,21,18,18,13,52,,39,39,10,12,4,3,0.9,0.9
2025-03-08T1200,3626A,113.7533,23.0202,东莞市,南城元岭,,26,23,18,18,14,47,,35,35,12,14,6,5,0.6,0.7
2025-03-08T1200,3627A,113.7875,23.0457,东莞市,东城主山,,29,29,19,18,13,47,,34,34,15,20,7,7,0.6,0.6
2025-03-08T1200,1666A,118.6614,37.4309,东营市,市环保局,细颗粒物(PM2.5),83,97,89,61,51,109,,62,62,23,42,8,8,0.5,0.5
2025-03-08T1200,3036A,118.6904,37.4338,东营市,开发区管委会,细颗粒物(PM2.5),113,123,94,85,62,109,,48,48,26,50,9,8,0.8,0.9
2025-03-08T1200,3365A,118.5719,37.565,东营市,垦利区民丰路,细颗粒物(PM2.5),92,95,90,68,54,108,,65,65,19,45,13,14,0.9,0.9
2025-03-08T1200,3498A,118.5055,37.8612,东营市,河口城区,细颗粒物(PM2.5),102,127,96,76,55,112,,55,55,19,31,7,7,1.0,0.9
2025-03-08T1200,3646A,118.4978,37.4623,东营市,胜利站,细颗粒物(PM2.5),83,110,107,61,62,112,,68,68,22,48,10,13,0.8,0.9
2025-03-08T1200,3734A,118.35,37.26,东营市,理想之城,细颗粒物(PM2.5),94,102,95,70,58,109,,50,50,21,50,10,8,0.8,0.7
2025-03-08T1200,1591A,110.0023,39.8129,鄂尔多斯市,综合楼,颗粒物(PM10),96,141,72,51,29,78,,58,58,29,31,10,7,0.6,0.5
2025-03-08T1200,1592A,109.9486,39.8261,鄂尔多斯市,巴音孟克林场办事处,颗粒物(PM10),87,124,72,46,29,81,,64,63,26,27,15,9,0.8,0.5
2025-03-08T1200,1593A,109.7736,39.5986,鄂尔多斯市,康泽苑,细颗粒物(PM2.5),100,127,62,75,31,34,,18,18,44,32,8,7,0.9,0.4
2025-03-08T1200,1594A,109.8119,39.5989,鄂尔多斯市,华泰汽车城,细颗粒物(PM2.5),107,124,63,80,34,31,,13,13,43,36,9,7,1.0,0.6
2025-03-08T1200,1595A,109.9734,39.7884,鄂尔多斯市,奥林花园,颗粒物(PM10),90,129,72,56,30,76,,49,49,24,41,10,8,0.9,0.7
2025-03-08T1200,2436A,114.8938,30.3994,鄂州市,市政府,细颗粒物(PM2.5),117,93,71,88,61,,,32,32,35,42,13,10,1.0,0.9
2025-03-08T1200,2437A,114.8989,30.3714,鄂州市,赵家坝,细颗粒物(PM2.5),87,85,75,64,57,103,,40,40,21,35,2,2,1.1,0.8
2025-03-08T1200,3654A,114.8094,30.4089,鄂州市,精准医疗中心,细颗粒物(PM2.5),104,104,85,78,64,84,,28,28,40,45,11,5,1.3,0.7
2025-03-08T1200,2454A,109.4978,30.2981,恩施土家族苗族自治州,湖北民院,,45,37,39,31,28,53,,38,37,21,22,4,4,0.3,0.3
2025-03-08T1200,2455A,109.4707,30.2798,恩施土家族苗族自治州,州电力总公司,,50,43,38,35,29,44,,34,30,23,18,6,5,0.1,0.1
2025-03-08T1200,3549A,109.5061,30.3772,恩施土家族苗族自治州,龙凤新区,,43,43,33,28,23,50,,31,31,18,13,6,6,0.8,0.7
2025-03-08T1200,2499A,108.3411,21.6158,防城港市,沙万,,45,41,39,31,37,53,,47,47,12,12,7,8,0.7,0.9
2025-03-08T1200,2500A,108.3514,21.7731,防城港市,防城档案局,,46,44,46,32,31,57,,47,47,13,15,6,7,0.5,0.5
2025-03-08T1200,2501A,108.3506,21.6414,防城港市,大海花园,,46,37,37,32,31,59,,53,53,8,7,5,5,0.8,0.7
2025-03-08T1200,1371A,113.1294,23.0067,佛山市,湾梁,,36,36,25,16,13,37,,32,32,30,30,9,7,0.7,0.8
2025-03-08T1200,1372A,113.1083,23.0478,佛山市,华材职中,,36,36,27,20,19,36,,32,32,34,34,8,6,0.7,0.6
2025-03-08T1200,1373A,113.144,23.0453,佛山市,南海气象局,,31,31,22,16,15,38,,32,32,26,29,6,4,0.5,0.5
2025-03-08T1200,1374A,113.2881,22.8094,佛山市,顺德苏岗,,26,26,28,14,12,25,,19,19,22,26,5,5,0.6,0.6
2025-03-08T1200,1376A,112.8383,22.8678,佛山市,高明孔堂,,38,32,26,26,19,37,,36,36,23,19,12,8,0.8,0.8
2025-03-08T1200,1377A,112.8836,23.1588,佛山市,三水监测站,,38,27,25,26,22,31,,29,29,29,29,3,3,0.6,0.6
2025-03-08T1200,1378A,112.867,23.185,佛山市,三水云东海,,35,30,22,24,19,27,,26,26,29,26,3,4,0.6,0.6
2025-03-08T1200,3625A,113.2544,22.7642,佛山市,容桂街道办,,25,24,20,17,17,33,,24,24,26,29,6,6,0.7,0.7
2025-03-08T1200,1280A,119.3903,26.0543,福州市,鼓山,,,,27,,19,,,71,,,10,,1,,0.4
2025-03-08T1200,1282A,119.2681,26.0504,福州市,师大,,32,29,26,22,19,62,,49,49,10,14,3,3,0.3,0.3
2025-03-08T1200,1283A,119.2984,26.1028,福州市,五四北路,,33,25,30,23,22,58,,40,40,15,21,4,4,0.5,0.4
2025-03-08T1200,1284A,119.2648,26.0768,福州市,杨桥西路,,,,27,,20,,,43,43,10,17,4,3,,0.3
2025-03-08T1200,1285A,119.317,26.0746,福州市,紫阳,,35,34,32,24,23,48,,38,36,25,26,3,3,0.5,0.5
2025-03-08T1200,3048A,119.5799,26.0936,福州市,九龙,,50,41,33,35,24,98,,51,51,14,17,6,4,0.4,0.5
2025-03-08T1200,3526A,119.5189,25.9664,福州市,吴航,,35,32,33,24,23,101,,51,51,14,19,5,4,0.3,0.5
2025-03-08T1200,1755A,123.7977,41.8491,抚顺市,望花区,,,70,81,50,41,,,90,90,19,28,,15,1.0,1.2
2025-03-08T1200,1756A,123.9161,41.8822,抚顺市,顺城区,颗粒物(PM10),62,74,87,37,41,106,,63,63,19,40,12,14,0.7,1
2025-03-08T1200,1757A,124.0436,41.8611,抚顺市,东洲区,颗粒物(PM10),59,68,76,38,37,101,,91,91,19,24,11,10,0.9,0.9
2025-03-08T1200,1758A,123.9247,41.8642,抚顺市,新抚区,"颗粒物(PM10),细颗粒物(PM2.5)",59,67,84,42,45,106,,72,72,19,36,10,10,1.0,1.2
2025-03-08T1200,1759A,124.0972,41.8961,抚顺市,大伙房水库,颗粒物(PM10),54,58,74,37,47,100,,78,78,16,19,12,10,1.0,1
2025-03-08T1200,1760A,123.7086,41.8391,抚顺市,沈抚新城,细颗粒物(PM2.5),83,70,79,61,47,110,,91,91,19,32,13,13,0.7,1
2025-03-08T1200,2376A,116.2127,28.0814,抚州市,桐源党溪,颗粒物(PM10),61,72,53,42,31,60,,16,16,5,7,34,13,0.6,0.6
2025-03-08T1200,2377A,116.3544,27.9831,抚州市,市站,,,,45,32,30,57,,19,19,,32,15,12,0.7,0.7
2025-03-08T1200,2378A,116.3565,27.963,抚州市,血防站,,42,42,52,25,31,59,,21,21,14,29,6,6,0.6,0.7
2025-03-08T1200,2379A,116.3564,28.0007,抚州市,采茶剧团,,40,40,44,22,31,54,,14,14,13,12,8,7,1.0,1
2025-03-08T1200,2380A,116.385,27.9647,抚州市,医学分院,,37,37,48,24,28,52,,19,19,14,24,5,5,0.7,0.9
2025-03-08T1200,2207A,121.6094,41.998,阜新市,工业园区,细颗粒物(PM2.5),72,92,86,52,40,85,,59,56,18,24,9,14,1.0,0.7
2025-03-08T1200,2208A,121.6697,42.0279,阜新市,长青街,颗粒物(PM10),71,92,61,47,33,86,,67,66,19,24,14,15,1.4,0.6
2025-03-08T1200,2209A,121.6673,42.0705,阜新市,农业园区,颗粒物(PM10),83,115,70,48,32,83,,66,66,12,16,24,18,1.9,0.8
2025-03-08T1200,2210A,121.6717,42.0224,阜新市,东苑,颗粒物(PM10),82,114,75,47,33,82,,66,63,16,22,29,19,1.6,0.8
2025-03-08T1200,2211A,121.6506,42.0498,阜新市,玉龙新城,颗粒物(PM10),72,93,75,48,36,86,,59,59,16,25,14,17,1.6,0.7
2025-03-08T1200,2301A,115.8277,32.8929,阜阳市,市监测站,细颗粒物(PM2.5),89,88,73,66,56,117,,72,72,15,21,9,7,0.6,0.5
2025-03-08T1200,2303A,115.8554,32.8605,阜阳市,开发区,细颗粒物(PM2.5),95,103,85,71,48,121,,72,71,18,23,9,7,0.7,0.7
2025-03-08T1200,2875A,115.784,32.8892,阜阳市,阜阳职业技术学院,细颗粒物(PM2.5),87,94,71,64,49,105,,78,74,19,17,8,8,0.7,0.6
2025-03-08T1200,3468A,115.7901,32.8613,阜阳市,市规划展馆,细颗粒物(PM2.5),103,109,73,77,52,119,,81,81,15,17,8,7,0.7,0.6
2025-03-08T1200,3469A,115.836,32.9183,阜阳市,枣园社区,细颗粒物(PM2.5),100,104,73,75,54,124,,76,72,13,22,6,6,0.5,0.5
2025-03-08T1200,2669A,102.9099,34.9841,甘南藏族自治州,州政府,颗粒物(PM10),58,65,70,22,23,82,,31,31,7,33,8,8,0.4,0.6
2025-03-08T1200,3380A,102.8914,34.9617,甘南藏族自治州,甘肃民族师范学院,颗粒物(PM10),54,57,78,32,26,95,,47,47,2,27,8,9,0.2,0.3
2025-03-08T1200,2570A,101.9603,30.0475,甘孜藏族自治州,水桥子,,18,9,8,8,6,56,,56,51,13,10,3,3,0.5,0.4
2025-03-08T1200,3065A,101.9533,29.9972,甘孜藏族自治州,州环保局,,18,,10,11,5,57,,59,55,9,8,4,4,0.3,0.3
2025-03-08T1200,3414A,115.8347,28.932,赣江新区,桑海产业园,细颗粒物(PM2.5),55,58,69,39,50,56,,19,19,31,35,10,8,0.4,0.3
2025-03-08T1200,2362A,114.9017,25.9149,赣州市,通天岩,,35,35,34,6,10,60,,53,53,12,5,9,8,0.3,0.3
2025-03-08T1200,2363A,114.9367,25.8664,赣州市,地委,,36,36,39,20,25,67,,55,52,6,9,9,9,0.5,0.5
2025-03-08T1200,2364A,114.9461,25.8481,赣州市,气象台,,34,34,46,14,22,64,,54,52,9,14,7,7,0.5,0.6
2025-03-08T1200,2365A,114.9322,25.8333,赣州市,市图书馆,,29,27,36,20,24,67,,62,57,11,15,3,4,0.5,0.5
2025-03-08T1200,2366A,114.8905,25.8471,赣州市,华坚鞋城,,,32,34,12,22,,,61,53,8,10,4,5,0.4,0.5
2025-03-08T1200,3109A,115.0093,25.8613,赣州市,赣县区卫计委,,28,25,30,19,24,61,,60,60,5,7,3,3,0.2,0.3
2025-03-08T1200,2683A,106.2319,36.1417,固原市,马园,颗粒物(PM10),57,63,114,25,30,72,,40,40,17,36,6,5,0.5,0.6
2025-03-08T1200,2684A,106.2792,36.0022,固原市,监测站,,,,100,,34,72,,65,65,10,20,9,10,0.6,0.6
2025-03-08T1200,2685A,106.2375,36.0211,固原市,新区,颗粒物(PM10),60,69,102,28,29,74,,62,55,9,22,8,8,0.4,0.5
2025-03-08T1200,3522A,106.2177,35.9959,固原市,原州区十五小,颗粒物(PM10),67,84,88,33,30,76,,88,78,12,15,7,6,0.3,0.3
2025-03-08T1200,2543A,106.6308,30.5278,广安市,小平旧居,,,,,,,,,,,,,,,,
2025-03-08T1200,2544A,106.6303,30.4576,广安市,市委,颗粒物(PM10),51,51,42,32,32,50,,57,48,23,17,5,4,0.5,0.4
2025-03-08T1200,2545A,106.6271,30.4663,广安市,友谊中学,细颗粒物(PM2.5),53,47,41,37,30,49,,58,48,24,19,4,3,0.6,0.5
2025-03-08T1200,2547A,106.6388,30.4551,广安市,广电花园,颗粒物(PM10),51,51,38,32,32,36,,52,35,32,20,6,4,0.6,0.4
2025-03-08T1200,2902A,106.6351,30.4865,广安市,北辰小学,,50,42,39,35,31,48,,59,50,17,16,9,8,0.4,0.3
2025-03-08T1200,2523A,105.8945,32.4535,广元市,黑石坡,颗粒物(PM10),54,58,34,21,16,13,,36,19,26,10,10,9,0.6,0.4
2025-03-08T1200,2524A,105.821,32.4444,广元市,老城,颗粒物(PM10),55,60,42,28,19,9,,4,4,34,32,1,2,0.8,0.5
2025-03-08T1200,2526A,105.8628,32.4287,广元市,监测站,,47,47,29,30,20,12,,30,16,32,17,8,4,1.0,0.4
2025-03-08T1200,3617A,105.8047,32.4166,广元市,经开区,细颗粒物(PM2.5),80,89,41,59,28,8,,6,6,41,30,32,5,1.3,0.7
2025-03-08T1200,1345A,113.2347,23.1423,广州市,广雅中学,,42,42,30,27,19,30,,35,35,34,31,4,4,0.5,0.4
2025-03-08T1200,1346A,113.2612,23.105,广州市,市五中,,29,29,24,19,16,34,,37,37,29,20,3,3,0.5,0.5
2025-03-08T1200,1348A,113.3478,23.0916,广州市,广东商学院,,,23,19,20,16,,,32,32,25,21,,3,0.6,0.6
2025-03-08T1200,1349A,113.4332,23.1047,广州市,市八十六中,,25,23,21,17,16,34,,27,27,22,23,3,3,0.3,0.4
2025-03-08T1200,1350A,113.3505,22.9483,广州市,番禺中学,,27,27,23,16,16,40,,28,28,23,28,6,7,0.7,0.7
2025-03-08T1200,1351A,113.2146,23.3916,广州市,花都师范,,30,30,20,21,16,42,,54,47,21,16,7,5,0.5,0.5
2025-03-08T1200,1352A,113.2597,23.1331,广州市,市监测站,,28,28,24,17,16,31,,34,34,31,26,6,5,0.5,0.5
2025-03-08T1200,1353A,113.5618,23.312,广州市,九龙镇镇龙,,,30,15,26,14,44,,34,34,,12,4,4,0.6,0.6
2025-03-08T1200,1354A,113.2765,23.1544,广州市,麓湖,,,27,21,17,16,32,,26,26,,28,,5,0.6,0.3
2025-03-08T1200,1355A,113.443,23.3035,广州市,帽峰山森林公园,,19,19,12,9,6,46,,37,37,11,12,5,4,0.7,0.7
2025-03-08T1200,2846A,113.3221,23.1322,广州市,体育西,,29,26,23,20,18,36,,36,36,25,21,4,4,0.6,0.6
2025-03-08T1200,3298A,113.5717,23.5491,广州市,从化街口,,23,20,16,16,14,59,,54,50,8,9,6,6,0.5,0.5
2025-03-08T1200,3299A,113.3472,23.3692,广州市,白云竹料,,22,20,20,15,15,58,,52,52,10,12,7,6,0.6,0.6
2025-03-08T1200,3300A,113.2981,23.237,广州市,白云嘉禾,,29,29,24,20,17,34,,39,38,33,26,3,2,0.4,0.4
2025-03-08T1200,3301A,113.4256,23.1716,广州市,黄埔科学城,,25,21,18,17,14,42,,36,36,17,16,4,7,0.5,0.6
2025-03-08T1200,3302A,113.3942,23.0483,广州市,番禺大学城,,23,23,20,14,12,37,,29,29,24,27,3,2,0.1,0.1
2025-03-08T1200,3303A,113.4922,22.8168,广州市,南沙黄阁,,34,34,26,20,16,39,,31,30,24,26,8,7,0.6,0.6
2025-03-08T1200,3304A,113.5342,22.7896,广州市,南沙街,,38,38,23,21,15,35,,29,29,30,28,11,8,0.6,0.6
2025-03-08T1200,3443A,113.2902,23.5544,广州市,花都梯面,,35,25,19,24,19,48,,52,48,12,10,8,6,0.6,0.5
2025-03-08T1200,3445A,113.7858,23.7478,广州市,从化良口,,23,19,16,16,14,51,,46,42,7,8,6,6,0.6,0.6
2025-03-08T1200,3446A,113.8051,23.2614,广州市,增城荔城,,23,23,14,14,11,48,,47,44,10,10,7,7,0.6,0.6
2025-03-08T1200,2505A,109.568,23.1478,贵港市,德智高中,,,,,,,,,,,,,,,,
2025-03-08T1200,2506A,109.6047,23.0666,贵港市,江南子站,,39,29,37,27,35,47,,46,46,20,19,4,5,0.5,0.6
2025-03-08T1200,2507A,109.6014,23.0948,贵港市,贵城子站,,33,26,37,23,28,51,,48,48,12,14,6,7,0.7,0.6
2025-03-08T1200,2508A,109.5669,23.1065,贵港市,荷城子站,,24,24,36,14,24,47,,48,48,13,15,7,8,0.6,0.6
2025-03-08T1200,3405A,109.5886,23.1172,贵港市,新世纪学校,,34,34,39,23,30,47,,48,48,14,14,3,4,0.4,0.4
2025-03-08T1200,1439A,106.6899,26.5998,贵阳市,马鞍山,,49,41,25,34,20,41,,47,38,15,10,6,4,0.7,0.6
2025-03-08T1200,1441A,106.6243,26.6266,贵阳市,鉴湖路,"颗粒物(PM10),细颗粒物(PM2.5)",52,53,40,36,26,34,,51,45,23,12,10,8,0.6,0.4
2025-03-08T1200,1442A,106.7487,26.6343,贵阳市,燕子冲,细颗粒物(PM2.5),58,48,28,41,28,47,,55,46,16,11,13,6,0.5,0.4
2025-03-08T1200,1443A,106.6555,26.4365,贵阳市,碧云窝,,44,44,37,24,22,37,,59,48,19,16,14,11,0.7,0.5
2025-03-08T1200,1445A,106.7109,26.6027,贵阳市,红边门,细颗粒物(PM2.5),58,51,32,41,27,43,,59,47,23,20,11,5,0.7,0.6
2025-03-08T1200,1446A,106.7164,26.5699,贵阳市,新华路,细颗粒物(PM2.5),52,48,32,36,24,42,,62,50,18,12,10,8,0.6,0.5
2025-03-08T1200,1447A,106.674,26.5424,贵阳市,太慈桥,,48,48,31,31,21,34,,54,42,28,17,10,7,0.5,0.5
2025-03-08T1200,1552A,106.805,26.3003,贵阳市,桐木岭,,35,32,40,24,29,42,,44,40,2,4,1,1,0.3,0.2
2025-03-08T1200,4230A,106.6882,26.5695,贵阳市,花果园大街66号,细颗粒物(PM2.5),55,41,23,39,29,33,,51,40,18,13,6,5,0.6,0.5
2025-03-08T1200,4231A,106.6873,26.5169,贵阳市,漓江路57号,,46,46,31,29,24,28,,48,38,26,15,13,10,0.6,0.5
2025-03-08T1200,1862A,110.4144,25.3167,桂林市,电子科大尧山校区,,,,,,,,,,,,,,,,
2025-03-08T1200,1864A,110.3089,25.2708,桂林市,龙隐路小学,,46,,31,32,35,77,,71,67,11,10,8,8,0.7,0.7
2025-03-08T1200,1865A,110.2869,25.2178,桂林市,八中,,46,,33,32,34,73,,66,61,15,16,7,6,0.5,0.5
2025-03-08T1200,3531A,110.296,25.1253,桂林市,旅游学院,,45,,29,31,30,72,,52,46,13,14,6,6,0.6,0.7
2025-03-08T1200,4222A,110.1835,25.2444,桂林市,环湖路276号,,45,31,36,31,32,67,,62,62,15,12,9,9,0.8,0.8
2025-03-08T1200,4301A,110.2803,25.2773,桂林市,信义路13号,,50,,33,35,36,70,,71,67,14,12,6,7,0.8,0.7
2025-03-08T1200,2674A,100.2561,34.4714,果洛藏族自治州,玛沁县大武镇,颗粒物(PM10),52,53,72,24,27,92,,82,78,2,3,13,13,0.5,0.5
2025-03-08T1200,1129A,126.5422,45.755,哈尔滨市,岭北,,50,46,44,35,32,85,,66,66,15,25,18,14,0.7,0.8
2025-03-08T1200,1130A,126.561,45.8167,哈尔滨市,松北商大,,42,42,40,29,27,71,,46,46,15,19,79,18,0.5,0.5
2025-03-08T1200,1131A,126.979,45.5419,哈尔滨市,阿城会宁,细颗粒物(PM2.5),74,78,57,54,33,57,,71,64,22,21,16,13,0.6,0.5
2025-03-08T1200,1132A,126.599,45.7222,哈尔滨市,南岗学府路,颗粒物(PM10),71,91,67,44,34,65,,56,53,27,24,17,10,0.7,0.7
2025-03-08T1200,1133A,126.689,45.7733,哈尔滨市,太平宏伟公园,,45,44,50,31,31,67,,52,52,18,28,10,9,0.5,0.5
2025-03-08T1200,1134A,126.635,45.7667,哈尔滨市,道外承德广场,颗粒物(PM10),63,76,66,39,38,59,,49,48,18,26,8,9,0.4,0.5
2025-03-08T1200,1135A,126.685,45.7319,哈尔滨市,香坊红旗大街,"颗粒物(PM10),细颗粒物(PM2.5)",54,58,62,38,38,58,,53,46,23,24,16,12,0.8,0.8
2025-03-08T1200,1136A,126.6411,45.7258,哈尔滨市,动力和平路,颗粒物(PM10),60,69,57,42,39,57,,54,49,24,23,9,10,0.7,0.6
2025-03-08T1200,1137A,126.593,45.7478,哈尔滨市,道里建国路,细颗粒物(PM2.5),59,59,58,42,40,61,,46,46,17,26,15,15,0.5,0.8
2025-03-08T1200,1138A,126.615,45.61,哈尔滨市,平房东轻厂,细颗粒物(PM2.5),92,104,67,68,45,52,,56,46,34,24,12,8,0.8,0.6
2025-03-08T1200,1139A,126.595,45.9855,哈尔滨市,呼兰师专,,40,40,35,27,24,74,,57,57,15,21,12,10,0.3,0.3
2025-03-08T1200,1140A,126.6206,45.6842,哈尔滨市,省农科院,细颗粒物(PM2.5),78,95,65,57,43,53,,45,45,28,27,13,12,0.7,0.6
2025-03-08T1200,2688A,93.5128,42.8172,哈密市,地区监测站,颗粒物(PM10),125,200,202,40,34,55,,48,48,35,25,11,5,0.7,0.4
2025-03-08T1200,2689A,93.4961,42.8328,哈密市,哈密师范学校,颗粒物(PM10),116,181,159,53,46,55,,36,36,37,32,13,6,1.5,0.6
2025-03-08T1200,2671A,100.9048,36.9639,海北藏族自治州,海晏县西海镇,,42,42,33,20,14,87,,57,57,5,4,13,9,0.3,0.3
2025-03-08T1200,3867A,102.0738,36.5056,海东市,平安区公安北苑,颗粒物(PM10),55,60,67,30,27,79,,48,45,11,4,26,11,1.3,0.9
2025-03-08T1200,1409A,110.576,19.9507,海口市,东寨港,,13,,14,9,39,32,,34,28,10,9,5,6,1.0,1.1
2025-03-08T1200,1410A,110.3232,20.0574,海口市,海南大学,,16,16,21,11,13,40,,42,37,13,11,3,3,0.6,0.6
2025-03-08T1200,1411A,110.283,20.0053,海口市,秀英海南医院,,13,12,15,9,12,39,,42,36,15,13,4,4,0.5,0.5
2025-03-08T1200,1412A,110.338,19.9969,海口市,海南师范大学,,14,12,17,9,12,42,,44,39,11,8,2,2,0.6,0.6
2025-03-08T1200,1413A,110.33,20.0356,海口市,龙华路环保局宿舍,,18,14,17,12,14,36,,43,37,16,10,3,3,0.6,0.6
2025-03-08T1200,3539A,110.5111,19.9736,海口市,桂林洋子站,,13,8,21,7,14,39,,40,34,9,8,3,3,0.5,0.5
2025-03-08T1200,2673A,100.6188,36.2866,海南藏族自治州,共和县恰卜恰镇,细颗粒物(PM2.5),60,,63,43,30,88,,52,51,6,17,7,5,0.5,0.6
2025-03-08T1200,2676A,97.3731,37.3753,海西蒙古族藏族自治州,德令哈市,,,41,50,11,15,,,93,92,2,2,17,16,0.4,0.4
2025-03-08T1200,1048A,114.5302,36.6116,邯郸市,东污水处理厂,细颗粒物(PM2.5),125,,90,95,81,92,,46,46,24,24,12,3,1.5,0.9
2025-03-08T1200,1049A,114.4918,36.5713,邯郸市,矿院,细颗粒物(PM2.5),128,124,110,97,76,88,,33,33,24,25,8,4,1.1,0.8
2025-03-08T1200,1050A,114.484,36.6133,邯郸市,丛台公园,细颗粒物(PM2.5),129,109,93,98,77,90,,49,49,23,23,14,7,1.3,0.8
2025-03-08T1200,3458A,114.7895,36.5593,邯郸市,香泉濮院小区,,,85,96,,75,105,,38,38,16,28,,5,1.3,0.7
2025-03-08T1200,3579A,114.50634,36.77178,邯郸市,永年区实验高中,细颗粒物(PM2.5),127,134,113,96,71,80,,32,32,24,27,17,5,2.1,1.3
2025-03-08T1200,3580A,114.20016,36.44293,邯郸市,峰峰矿区临水派出所,细颗粒物(PM2.5),114,91,80,86,73,125,,78,78,10,11,13,9,1.5,1
2025-03-08T1200,2634A,106.9893,33.1842,汉中市,汉川机床厂子校,,49,49,29,25,18,48,,38,37,8,6,7,7,0.8,0.7
2025-03-08T1200,2635A,107.0154,33.0706,汉中市,市监测站,颗粒物(PM10),51,52,48,29,32,48,,20,20,22,29,7,6,1.0,1
2025-03-08T1200,2636A,107.0089,33.1138,汉中市,鑫源开发区,,50,49,45,35,37,44,,24,24,22,31,6,7,0.7,0.8
2025-03-08T1200,2637A,107.007,33.0323,汉中市,南郑大河坎水厂,颗粒物(PM10),53,55,46,30,30,50,,24,24,20,20,8,6,0.9,0.8
2025-03-08T1200,1223A,120.2072,30.2111,杭州市,滨江,细颗粒物(PM2.5),67,67,66,48,45,72,,27,27,28,41,7,6,0.5,0.5
2025-03-08T1200,1224A,120.0633,30.2747,杭州市,西溪,细颗粒物(PM2.5),58,53,62,41,42,91,,33,33,19,29,7,6,0.6,0.6
2025-03-08T1200,1226A,120.3461,30.3153,杭州市,下沙,细颗粒物(PM2.5),65,78,84,47,50,64,,31,31,41,57,6,5,0.5,0.5
2025-03-08T1200,1227A,120.1269,30.2456,杭州市,卧龙桥,细颗粒物(PM2.5),53,52,53,37,38,84,,32,32,21,24,6,5,0.8,0.7
2025-03-08T1200,1228A,120.1903,30.2692,杭州市,浙江农大,细颗粒物(PM2.5),58,52,67,41,45,81,,28,28,20,36,9,8,0.5,0.5
2025-03-08T1200,1230A,120.1197,30.3119,杭州市,和睦小学,细颗粒物(PM2.5),57,50,65,40,48,98,,28,28,21,44,8,7,0.6,0.7
2025-03-08T1200,1231A,120.3019,30.4183,杭州市,临平镇,颗粒物(PM10),67,84,90,40,55,86,,23,23,26,59,6,6,0.5,0.6
2025-03-08T1200,1232A,120.2697,30.1819,杭州市,城厢镇,细颗粒物(PM2.5),69,72,71,50,48,72,,30,30,36,51,7,6,0.6,0.6
2025-03-08T1200,1233A,120.0883,30.1808,杭州市,云栖,细颗粒物(PM2.5),67,72,59,48,37,68,,26,26,33,27,7,6,0.6,0.5
2025-03-08T1200,3557A,119.9464,30.0494,杭州市,镇二中,细颗粒物(PM2.5),67,57,45,48,38,57,,21,21,27,34,7,6,0.7,0.6
2025-03-08T1200,3558A,119.7183,30.2367,杭州市,市府大楼,细颗粒物(PM2.5),57,52,64,40,48,85,,36,36,22,32,8,7,0.5,0.6
2025-03-08T1200,3656A,120.1556,30.2864,杭州市,消防大队,细颗粒物(PM2.5),55,54,66,39,44,101,,42,42,25,39,7,6,0.5,0.6
2025-03-08T1200,1270A,117.1959,31.7848,合肥市,明珠广场,细颗粒物(PM2.5),77,75,64,56,47,114,,,,26,28,8,8,0.6,0.6
2025-03-08T1200,1271A,117.3072,31.8764,合肥市,三里街,细颗粒物(PM2.5),77,85,78,56,51,105,,44,44,29,46,6,7,0.7,0.7
2025-03-08T1200,1272A,117.2588,31.8707,合肥市,琥珀山庄,细颗粒物(PM2.5),94,80,70,70,52,117,,60,60,25,35,3,3,0.6,0.6
2025-03-08T1200,1273A,117.1604,31.9052,合肥市,董铺水库,颗粒物(PM10),62,73,66,41,35,120,,78,78,21,24,3,3,0.5,0.5
2025-03-08T1200,1274A,117.25,31.8571,合肥市,长江中路,细颗粒物(PM2.5),75,83,70,55,51,115,,67,67,27,33,8,9,0.7,0.7
2025-03-08T1200,1275A,117.266,31.9436,合肥市,庐阳区,细颗粒物(PM2.5),67,78,78,48,49,124,,67,67,25,38,6,6,0.5,0.5
2025-03-08T1200,1276A,117.336,31.8586,合肥市,瑶海区,颗粒物(PM10),70,90,79,45,51,92,,54,54,27,37,6,6,0.5,0.6
2025-03-08T1200,1277A,117.3027,31.7964,合肥市,包河区,细颗粒物(PM2.5),64,75,67,46,47,100,,49,49,22,32,4,5,0.6,0.6
2025-03-08T1200,1278A,117.2776,31.7385,合肥市,滨湖新区,细颗粒物(PM2.5),70,68,65,51,50,93,,75,75,23,23,6,7,0.5,0.5
2025-03-08T1200,1279A,117.1318,31.8403,合肥市,高新区,"颗粒物(PM10),细颗粒物(PM2.5)",63,75,67,45,43,116,,77,77,28,32,3,4,0.4,0.5
2025-03-08T1200,3464A,117.3803,31.9147,合肥市,高教基地,细颗粒物(PM2.5),82,78,78,60,55,108,,60,60,29,30,8,9,0.5,0.6
2025-03-08T1200,3614A,79.924,37.0877,和田地区,地区环保局,颗粒物(PM10),110,169,246,31,47,80,,69,66,5,4,2,2,0.2,0.3
2025-03-08T1200,3615A,79.9131,37.113,和田地区,市环保局,颗粒物(PM10),122,193,248,40,44,91,,74,71,11,13,2,2,0.7,0.7
2025-03-08T1200,2516A,108.2011,24.715,河池市,东仁乐园,,37,37,24,23,17,59,,55,53,7,12,9,7,0.8,0.7
2025-03-08T1200,2517A,108.0497,24.6947,河池市,市环保站,,34,34,25,20,17,62,,60,57,6,7,10,9,0.6,0.6
2025-03-08T1200,2518A,108.0983,24.6989,河池市,市疾控中心,,32,30,21,22,18,61,,52,52,3,7,9,8,0.6,0.6
2025-03-08T1200,1696A,114.6778,23.7569,河源市,源西,,28,25,17,19,18,41,,35,35,8,13,5,5,0.2,0.3
2025-03-08T1200,1697A,114.6944,23.7586,河源市,东埔,,30,27,20,21,20,43,,38,37,10,13,4,4,0.5,0.6
2025-03-08T1200,1698A,114.6892,23.7233,河源市,老城,,36,25,20,25,21,43,,37,37,8,11,4,4,0.7,0.7
2025-03-08T1200,1718A,115.4208,35.2464,菏泽市,气象局,细颗粒物(PM2.5),108,112,86,81,55,99,,80,79,24,22,7,4,0.7,0.5
2025-03-08T1200,3374A,115.5564,35.0891,菏泽市,定陶老年大学,细颗粒物(PM2.5),98,97,80,73,54,105,,76,76,28,29,7,5,0.5,0.4
2025-03-08T1200,4184A,115.4797,35.24401,菏泽市,永昌路1号,,,,71,,54,,,89,82,21,23,9,7,0.5,0.3
2025-03-08T1200,4193A,115.4715,35.2800,菏泽市,长城路999号,细颗粒物(PM2.5),94,105,75,70,46,97,,83,77,29,25,9,6,0.7,0.5
2025-03-08T1200,2514A,111.5264,24.4172,贺州市,环保小区,细颗粒物(PM2.5),54,,35,38,29,57,,58,58,14,12,6,6,0.8,0.8
2025-03-08T1200,2515A,111.5608,24.4078,贺州市,政协大楼,,,,41,,29,44,,55,53,12,12,,6,,0.9
2025-03-08T1200,3534A,111.4744,24.4553,贺州市,西湾,细颗粒物(PM2.5),54,,34,38,28,62,,55,55,9,10,5,6,0.6,0.6
2025-03-08T1200,2385A,114.17,35.9019,鹤壁市,市监测站,细颗粒物(PM2.5),87,74,85,64,60,99,,48,48,25,28,7,4,0.9,0.8
2025-03-08T1200,2386A,114.2956,35.7511,鹤壁市,市交警支队,细颗粒物(PM2.5),82,82,93,60,65,95,,38,38,16,31,5,8,0.5,0.5
2025-03-08T1200,2387A,114.2878,35.7306,鹤壁市,迎宾馆,颗粒物(PM10),70,90,99,50,58,100,,47,47,18,28,10,8,0.8,0.7
2025-03-08T1200,3474A,114.2617,35.6822,鹤壁市,大新区,细颗粒物(PM2.5),99,,69,74,66,98,,43,43,13,35,7,5,0.8,0.6
2025-03-08T1200,3596A,114.1572,35.9603,鹤壁市,南山宾馆,细颗粒物(PM2.5),108,94,92,81,84,104,,65,65,15,19,13,7,0.8,0.8
2025-03-08T1200,2244A,130.2537,47.3416,鹤岗市,哈啤分公司,,26,22,28,14,21,83,,78,78,5,9,13,15,0.6,0.7
2025-03-08T1200,2245A,130.2684,47.3086,鹤岗市,斯达机电,,26,15,33,3,21,81,,74,74,4,9,14,15,0.3,0.5
2025-03-08T1200,2246A,130.3114,47.3388,鹤岗市,东山纸板厂,,36,36,73,9,28,77,,63,63,7,20,15,19,0.6,1.1
2025-03-08T1200,2247A,130.1097,47.3382,鹤岗市,五号水库,,,,,,,,,,,,,,,,
2025-03-08T1200,2263A,127.4833,50.2524,黑河市,交通局,,32,31,37,22,21,68,,62,59,15,17,7,7,0.9,0.9
2025-03-08T1200,2264A,127.5144,50.2341,黑河市,环保局,,32,22,44,22,31,79,,44,44,6,24,7,8,0.5,0.8
2025-03-08T1200,2265A,127.5291,50.2472,黑河市,大黑河岛,,,,,,,,,,,,,,,,
2025-03-08T1200,1074A,115.6838,37.7541,衡水市,电机北厂,细颗粒物(PM2.5),127,129,131,96,97,91,,40,40,19,27,11,6,0.7,0.7
2025-03-08T1200,1075A,115.6303,37.7316,衡水市,市监测站,细颗粒物(PM2.5),130,109,114,99,88,101,,39,39,18,31,13,11,0.8,0.7
2025-03-08T1200,3188A,115.6683,37.7217,衡水市,市城管局,细颗粒物(PM2.5),122,115,116,92,90,96,,34,34,20,31,7,7,0.7,0.7
2025-03-08T1200,3459A,115.5989,37.5491,衡水市,地表水厂,细颗粒物(PM2.5),130,110,115,99,97,111,,38,38,18,33,11,10,0.7,0.7
2025-03-08T1200,2456A,112.5003,26.9167,衡阳市,原169医院,,38,28,34,26,24,30,,16,16,31,28,9,8,0.6,0.5
2025-03-08T1200,2457A,112.6194,26.9258,衡阳市,衡阳化工总厂,细颗粒物(PM2.5),69,,41,50,37,47,,28,28,13,17,6,5,0.6,0.6
2025-03-08T1200,2458A,112.6211,26.8956,衡阳市,珠晖区环保局,细颗粒物(PM2.5),52,,36,36,35,46,,25,25,16,22,6,6,0.6,0.7
2025-03-08T1200,2459A,112.6197,26.8733,衡阳市,市委党校,细颗粒物(PM2.5),52,,38,36,36,53,,29,27,16,21,10,10,0.8,0.8
2025-03-08T1200,2460A,112.6006,26.8919,衡阳市,市监测站,细颗粒物(PM2.5),55,45,48,39,40,51,,32,32,18,21,8,8,0.8,0.8
2025-03-08T1200,2461A,112.5664,26.9056,衡阳市,真空机电公司,细颗粒物(PM2.5),54,41,45,38,38,44,,32,30,23,22,6,6,0.7,0.6
2025-03-08T1200,3399A,112.6703,26.882,衡阳市,师范学院,,49,43,43,34,37,57,,28,28,16,20,8,9,0.7,0.7
2025-03-08T1200,2608A,103.3772,23.3993,红河哈尼族彝族自治州,污水处理厂,,45,,33,31,36,72,,66,65,7,7,6,6,0.5,0.6
2025-03-08T1200,2609A,103.3861,23.35,红河哈尼族彝族自治州,监测站,,43,32,39,30,31,68,,67,66,7,8,6,7,0.5,0.6
2025-03-08T1200,3038A,103.3758,23.368,红河哈尼族彝族自治州,州图书馆,,40,32,27,28,32,66,,65,65,8,7,6,6,0.4,0.5
2025-03-08T1200,1090A,111.6507,40.7517,呼和浩特市,呼市一监,细颗粒物(PM2.5),74,73,55,54,43,72,,38,38,20,32,13,10,0.8,0.9
2025-03-08T1200,1091A,111.6572,40.8033,呼和浩特市,小召,细颗粒物(PM2.5),74,92,59,54,36,67,,44,44,24,38,6,5,0.8,0.7
2025-03-08T1200,1094A,111.7516,40.8369,呼和浩特市,如意水处理厂,细颗粒物(PM2.5),82,99,55,60,32,61,,28,28,24,42,11,8,0.7,0.6
2025-03-08T1200,1095A,111.7276,40.8062,呼和浩特市,二十九中,细颗粒物(PM2.5),79,91,55,58,37,62,,34,34,23,38,8,6,0.9,0.8
2025-03-08T1200,1096A,111.5512,40.7866,呼和浩特市,工大金川校区,细颗粒物(PM2.5),84,96,56,62,34,58,,30,30,27,43,11,8,0.8,0.7
2025-03-08T1200,1097A,111.717,40.7612,呼和浩特市,化肥厂生活区,细颗粒物(PM2.5),79,94,64,58,43,63,,36,36,29,39,12,9,0.7,0.7
2025-03-08T1200,3698A,111.5968,40.8178,呼和浩特市,红旗小学,细颗粒物(PM2.5),80,97,49,59,31,60,,30,30,29,44,9,6,0.8,0.6
2025-03-08T1200,3699A,111.6518,40.8389,呼和浩特市,海东办,细颗粒物(PM2.5),83,90,54,61,39,56,,22,22,28,48,9,8,0.8,0.8
2025-03-08T1200,2192A,119.7594,49.2261,呼伦贝尔市,区环保局,,30,30,41,13,29,85,,68,68,15,23,6,6,0.5,0.5
2025-03-08T1200,3061A,119.7512,49.1577,呼伦贝尔市,国华电力东,,29,26,41,16,26,92,,82,82,9,11,4,4,0.5,0.5
2025-03-08T1200,1250A,120.0751,30.8669,湖州市,城西水厂,细颗粒物(PM2.5),75,81,87,55,58,80,,28,28,41,55,11,7,0.4,0.5
2025-03-08T1200,2873A,120.0875,30.8955,湖州市,仁皇山新区,细颗粒物(PM2.5),102,108,85,76,58,63,,24,24,46,46,6,4,0.6,0.5
2025-03-08T1200,2907A,120.1844,30.8596,湖州市,吴兴区站,细颗粒物(PM2.5),89,91,88,66,57,81,,26,26,34,47,7,6,0.5,0.5
2025-03-08T1200,3562A,120.4148,30.8538,湖州市,南浔区站,细颗粒物(PM2.5),62,70,77,44,42,103,,43,43,20,41,4,3,0.5,0.5
2025-03-08T1200,1607A,120.9092,40.7136,葫芦岛市,龙港区,细颗粒物(PM2.5),83,90,41,61,31,71,,64,61,30,21,14,10,0.9,0.6
2025-03-08T1200,1608A,120.8392,40.7514,葫芦岛市,化工街,细颗粒物(PM2.5),77,88,60,56,34,83,,46,43,33,30,16,11,0.7,0.5
2025-03-08T1200,1609A,120.8341,40.7073,葫芦岛市,新区,细颗粒物(PM2.5),100,95,44,75,36,62,,63,50,41,30,21,13,1.1,0.8
2025-03-08T1200,1610A,120.8695,40.7677,葫芦岛市,东城区,细颗粒物(PM2.5),85,92,40,63,37,78,,48,42,38,36,21,12,1.0,0.7
2025-03-08T1200,2482A,109.5981,27.5721,怀化市,林科所,,19,14,15,13,12,50,,44,44,14,8,7,7,0.9,0.9
2025-03-08T1200,2483A,109.9453,27.5444,怀化市,河西地税局,,28,,27,19,21,58,,33,33,8,18,8,7,0.5,0.6
2025-03-08T1200,2484A,109.9781,27.5342,怀化市,市四医院,,39,37,35,27,24,25,,22,22,30,24,7,5,0.7,0.7
2025-03-08T1200,2485A,109.9972,27.5578,怀化市,监测楼,,45,40,27,31,20,24,,30,30,32,21,7,7,0.8,0.4
2025-03-08T1200,2486A,110.0394,27.583,怀化市,市委党校,,39,33,26,27,21,32,,29,29,20,17,11,9,0.7,0.6
2025-03-08T1200,1210A,119.036,33.5981,淮安市,钵池山,细颗粒物(PM2.5),109,97,87,82,68,116,,73,73,17,23,11,10,0.8,0.7
2025-03-08T1200,1211A,119.007,33.575,淮安市,北京南路,细颗粒物(PM2.5),118,102,88,89,68,116,,57,57,23,33,11,10,0.7,0.6
2025-03-08T1200,1212A,118.989,33.6067,淮安市,市监测站,细颗粒物(PM2.5),122,112,85,92,72,116,,68,67,29,28,17,11,1.2,0.9
2025-03-08T1200,1213A,119.135,33.5039,淮安市,楚州区监测站,细颗粒物(PM2.5),115,95,97,87,67,120,,38,38,21,54,12,9,0.7,0.7
2025-03-08T1200,3426A,118.8755,33.2894,淮安市,新华书店,,,,95,,79,126,,65,65,16,26,,10,,0.6
2025-03-08T1200,4206A,119.0288,33.6319,淮安市,承德北路606号,细颗粒物(PM2.5),107,119,105,80,67,121,,71,71,28,32,13,10,1.1,1
2025-03-08T1200,2282A,116.8004,33.975,淮北市,监测站,细颗粒物(PM2.5),107,113,100,80,71,100,,86,82,28,27,13,9,0.9,0.9
2025-03-08T1200,2283A,116.8091,33.9007,淮北市,烈山区政府,细颗粒物(PM2.5),97,81,94,72,72,111,,93,91,31,29,12,8,0.8,0.8
2025-03-08T1200,3330A,116.8873,33.9836,淮北市,杜集区检察院,细颗粒物(PM2.5),93,88,95,69,74,115,,95,87,24,25,9,8,0.8,0.8
2025-03-08T1200,4017A,116.7923,33.9535,淮北市,市博物馆,细颗粒物(PM2.5),104,108,98,78,73,96,,85,83,29,26,13,10,0.9,0.8
2025-03-08T1200,2277A,116.8305,32.7727,淮南市,潘集区政府,细颗粒物(PM2.5),108,94,99,81,72,102,,54,50,27,34,10,6,1.9,0.6
2025-03-08T1200,2279A,116.8569,32.5951,淮南市,谢家集区政府,细颗粒物(PM2.5),89,87,92,66,63,83,,50,49,24,27,8,8,0.6,0.6
2025-03-08T1200,2280A,116.8281,32.633,淮南市,八公山区政府,细颗粒物(PM2.5),80,92,91,59,56,96,,61,58,24,24,7,5,0.5,0.5
2025-03-08T1200,2281A,116.6325,32.6201,淮南市,焦岗湖风景区管理处,细颗粒物(PM2.5),72,78,71,52,46,64,,40,38,11,17,5,5,0.2,0.2
2025-03-08T1200,2894A,117.0566,32.6531,淮南市,经济技术开发区消防队,细颗粒物(PM2.5),88,97,84,65,58,99,,67,66,18,22,8,8,0.4,0.5
2025-03-08T1200,3329A,117.0108,32.5893,淮南市,山南新区,细颗粒物(PM2.5),70,78,80,51,56,98,,64,62,23,23,10,8,0.6,0.6
2025-03-08T1200,4209A,117.0031,32.6445,淮南市,国庆中路369号,细颗粒物(PM2.5),92,,80,68,56,116,,79,73,25,24,6,6,0.5,0.6
2025-03-08T1200,2446A,114.9028,30.4742,黄冈市,职工中心,细颗粒物(PM2.5),95,83,68,71,56,100,,50,50,19,26,10,8,0.9,0.7
2025-03-08T1200,2929A,114.8858,30.4519,黄冈市,红卫路,细颗粒物(PM2.5),110,110,77,83,57,101,,50,50,30,35,15,10,1.0,0.6
2025-03-08T1200,3398A,114.9136,30.4445,黄冈市,市林业局,细颗粒物(PM2.5),124,104,78,94,59,96,,45,45,32,34,19,14,1.2,0.8
2025-03-08T1200,2672A,102.0199,35.5102,黄南藏族自治州,同仁县隆务镇,颗粒物(PM10),60,69,63,25,27,82,,65,64,8,3,12,12,0.4,0.3
2025-03-08T1200,2295A,118.2903,29.6963,黄山市,延安路89号,颗粒物(PM10),59,67,47,36,31,83,,26,26,8,11,5,4,0.6,0.6
2025-03-08T1200,2297A,118.1371,30.2756,黄山市,黄山区政府5号楼,,39,31,45,27,30,83,,32,32,6,11,8,8,0.5,0.5
2025-03-08T1200,4210A,118.3354,29.7203,黄山市,滨江东路7-2号,颗粒物(PM10),52,53,52,27,32,85,,32,32,7,13,6,5,0.4,0.4
2025-03-08T1200,2423A,115.0601,30.2313,黄石市,沈家营,细颗粒物(PM2.5),89,98,71,66,48,110,,37,37,25,37,21,11,1.0,0.7
2025-03-08T1200,2426A,114.8988,30.2019,黄石市,铁山,细颗粒物(PM2.5),88,66,63,65,59,100,,46,46,15,16,14,15,0.9,0.9
2025-03-08T1200,2427A,115.0307,30.2092,黄石市,团城山,细颗粒物(PM2.5),84,95,70,62,53,97,,43,39,30,30,20,14,0.8,0.8
2025-03-08T1200,3149A,115.0235,30.1578,黄石市,笔架山北路,细颗粒物(PM2.5),107,94,67,80,56,87,,48,48,31,24,16,10,1.4,0.9
2025-03-08T1200,4185A,115.0780,30.21118,黄石市,磁湖东路29号,细颗粒物(PM2.5),112,117,81,84,61,98,,32,32,29,36,18,9,1.0,0.8
2025-03-08T1200,1392A,114.4183,23.0528,惠州市,河南岸金山湖子站,,26,19,15,18,14,43,,38,36,8,12,8,8,0.6,0.6
2025-03-08T1200,1393A,114.4053,23.0822,惠州市,下埔横江三路子站,,25,20,17,17,15,42,,38,36,11,13,9,8,0.6,0.6
2025-03-08T1200,1394A,114.4103,23.1142,惠州市,江北云山西路子站,,22,19,17,15,14,43,,37,34,10,13,9,9,0.8,0.7
2025-03-08T1200,1395A,114.4645,22.7833,惠州市,惠阳区承修路船湖子站,,28,26,20,19,15,29,,29,24,16,16,9,8,0.7,0.6
2025-03-08T1200,1396A,114.5317,22.7422,惠州市,大亚湾管委会子站,,22,22,16,14,10,28,,32,27,17,14,7,6,0.7,0.7
2025-03-08T1200,3314A,114.4338,22.8134,惠州市,惠阳秋长,,,24,18,17,13,36,,36,33,,21,3,5,0.6,0.6
2025-03-08T1200,3452A,114.6517,22.775,惠州市,大亚湾霞涌,,25,25,14,3,9,30,,31,28,13,13,8,7,0.8,0.9
2025-03-08T1200,2240A,130.9762,45.3001,鸡西市,环保局,颗粒物(PM10),52,54,44,34,23,42,,61,54,28,13,10,9,0.6,0.4
2025-03-08T1200,2243A,130.9429,45.3039,鸡西市,第一中学,细颗粒物(PM2.5),58,56,36,41,24,45,,66,57,29,12,9,9,0.5,0.2
2025-03-08T1200,3707A,131.0207,45.3073,鸡西市,欧美日汽修厂,细颗粒物(PM2.5),62,63,61,44,31,58,,64,63,16,11,15,6,0.4,0.3
2025-03-08T1200,3709A,130.9967,45.3106,鸡西市,市政设施管理处,细颗粒物(PM2.5),57,53,53,40,24,50,,55,54,18,13,16,7,0.6,0.4
2025-03-08T1200,2367A,114.9754,27.0803,吉安市,红声器材厂,,,,45,,27,33,,16,15,,25,13,11,0.8,0.6
2025-03-08T1200,2368A,114.9658,27.0999,吉安市,市森林工业局,,46,40,36,32,28,36,,19,18,34,28,14,10,0.3,0.3
2025-03-08T1200,2369A,114.99,27.1312,吉安市,市环境监测站,,41,41,39,22,24,31,,17,16,25,21,15,15,0.6,0.5
2025-03-08T1200,2370A,115.0093,27.0968,吉安市,青原区法院,"颗粒物(PM10),细颗粒物(PM2.5)",52,54,42,36,31,37,,22,18,30,30,17,11,0.4,0.4
2025-03-08T1200,1772A,126.54,43.8622,吉林市,哈达湾,颗粒物(PM10),53,56,52,35,31,96,,91,91,14,16,12,9,0.8,0.7
2025-03-08T1200,1773A,126.5844,43.8358,吉林市,东局子,颗粒物(PM10),54,57,34,30,27,91,,87,87,17,15,10,7,0.6,0.5
2025-03-08T1200,1774A,126.5052,43.8245,吉林市,电力学院,,49,48,51,34,39,93,,87,87,15,19,8,6,0.4,0.5
2025-03-08T1200,1775A,126.6133,43.8972,吉林市,江北,颗粒物(PM10),55,59,43,33,28,93,,84,84,16,15,11,11,0.8,0.6
2025-03-08T1200,1776A,126.555,43.8306,吉林市,江南公园,细颗粒物(PM2.5),54,53,41,38,32,92,,90,90,15,14,10,7,0.6,0.5
2025-03-08T1200,1778A,126.7061,43.7133,吉林市,丰满,细颗粒物(PM2.5),53,42,32,37,31,108,,106,106,11,8,9,7,0.6,0.5
2025-03-08T1200,2868A,126.4739,43.953,吉林市,九站,颗粒物(PM10),54,57,47,33,29,90,,86,86,18,20,11,9,0.7,0.6
2025-03-08T1200,1299A,116.9862,36.6114,济南市,科干所,细颗粒物(PM2.5),74,88,77,54,48,127,,118,116,22,20,9,7,0.7,0.5
2025-03-08T1200,1300A,116.9376,36.665,济南市,农科所,细颗粒物(PM2.5),83,95,87,61,50,116,,97,96,18,22,10,9,0.9,0.8
2025-03-08T1200,1301A,117.1265,36.6734,济南市,开发区,细颗粒物(PM2.5),98,85,74,73,62,119,,115,113,19,15,9,8,0.7,0.6
2025-03-08T1200,1303A,117.0624,36.6868,济南市,省种子仓库,细颗粒物(PM2.5),92,100,83,68,54,121,,116,113,18,18,7,5,0.8,0.7
2025-03-08T1200,1304A,116.9489,36.6447,济南市,机床二厂,细颗粒物(PM2.5),95,95,87,71,60,102,,93,92,21,21,14,12,0.9,0.8
2025-03-08T1200,1305A,117.0495,36.663,济南市,市监测站,细颗粒物(PM2.5),92,90,75,68,53,113,,107,105,23,21,10,8,0.6,0.5
2025-03-08T1200,1306A,116.7675,36.5484,济南市,长清党校,细颗粒物(PM2.5),98,100,76,73,60,120,,107,107,19,20,9,8,0.7,0.6
2025-03-08T1200,1616A,117.6795,36.229,济南市,技术学院,细颗粒物(PM2.5),89,95,89,66,66,130,,95,95,29,31,16,13,1.2,0.9
2025-03-08T1200,1961A,117.532,36.6868,济南市,东山小学,细颗粒物(PM2.5),80,90,86,59,54,125,,110,110,22,24,9,8,0.8,0.7
2025-03-08T1200,3059A,117.7161,36.2049,济南市,泰兴公司,细颗粒物(PM2.5),98,92,101,73,77,133,,56,56,22,55,13,11,0.7,0.8
2025-03-08T1200,3064A,117.6867,36.2171,济南市,莱芜战役纪念馆,细颗粒物(PM2.5),85,95,98,63,62,132,,95,95,23,31,9,8,0.8,0.8
2025-03-08T1200,3494A,117.1673,36.9782,济南市,济阳区政府,细颗粒物(PM2.5),80,93,97,59,58,98,,75,75,16,30,14,12,0.5,0.5
2025-03-08T1200,3495A,117.1171,36.63,济南市,锦屏中学,细颗粒物(PM2.5),70,66,70,51,50,116,,108,108,18,19,11,9,0.6,0.5
2025-03-08T1200,3682A,116.9814,36.6819,济南市,济南四建,细颗粒物(PM2.5),80,83,74,59,53,117,,106,104,21,20,10,7,0.5,0.4
2025-03-08T1200,1653A,116.6251,35.4302,济宁市,火炬城,细颗粒物(PM2.5),117,,70,88,74,122,,99,96,15,14,14,11,0.9,0.8
2025-03-08T1200,1655A,116.5491,35.4042,济宁市,电化厂,细颗粒物(PM2.5),110,107,100,83,71,121,,103,103,17,20,13,12,1.0,0.9
2025-03-08T1200,3500A,116.5814,35.3707,济宁市,北湖一中,细颗粒物(PM2.5),92,,71,68,57,122,,106,106,23,20,12,10,0.9,0.8
2025-03-08T1200,3501A,116.8249,35.5593,济宁市,服务中心,细颗粒物(PM2.5),113,127,103,85,62,128,,101,101,28,25,11,8,0.9,0.7
2025-03-08T1200,3678A,116.5907,35.4054,济宁市,市第七中学,细颗粒物(PM2.5),92,68,69,68,61,128,,111,111,24,23,7,6,0.8,0.7
2025-03-08T1200,2255A,130.2751,46.8028,佳木斯市,佳纺,,24,23,31,15,20,76,,70,70,9,15,9,5,0.2,0.2
2025-03-08T1200,2256A,130.3995,46.8307,佳木斯市,发电厂,,27,14,22,10,15,85,,79,79,5,10,3,3,0.4,0.4
2025-03-08T1200,2257A,130.3258,46.7975,佳木斯市,环保局,,34,34,34,16,19,76,,71,71,10,15,3,4,0.3,0.3
2025-03-08T1200,2258A,130.3648,46.8032,佳木斯市,十一中,,24,17,26,14,18,74,,73,72,9,16,4,5,0.4,0.4
2025-03-08T1200,2259A,130.3794,46.7588,佳木斯市,四丰,,42,42,33,14,25,71,,61,61,9,22,1,1,0.5,0.6
2025-03-08T1200,1252A,120.7436,30.778,嘉兴市,清河小学,细颗粒物(PM2.5),74,86,85,54,42,82,,38,38,37,36,6,4,1.2,1
2025-03-08T1200,1253A,120.726,30.7478,嘉兴市,嘉兴学院,细颗粒物(PM2.5),73,78,68,53,44,83,,31,31,37,52,9,7,0.5,0.5
2025-03-08T1200,2872A,120.7846,30.7525,嘉兴市,南湖区残联,细颗粒物(PM2.5),74,79,68,54,43,94,,48,45,31,32,9,8,0.5,0.4
2025-03-08T1200,3407A,120.6916,30.7739,嘉兴市,秀洲住建,,,96,72,60,48,,,19,19,37,48,6,5,0.8,0.8
2025-03-08T1200,1945A,98.2908,39.7711,嘉峪关市,气象局,,44,44,133,14,35,92,,64,64,9,20,4,5,0.0,0.2
2025-03-08T1200,2884A,98.2672,39.7978,嘉峪关市,酒钢宾馆,颗粒物(PM10),69,88,147,17,35,75,,66,66,14,16,3,7,0.5,0.6
2025-03-08T1200,3248A,98.2643,39.7724,嘉峪关市,雄关区,,44,44,116,9,32,84,,64,64,14,23,4,5,0.5,0.4
2025-03-08T1200,1383A,113.1064,22.6058,江门市,北街,,37,37,30,19,20,38,,27,27,31,35,3,3,0.6,0.6
2025-03-08T1200,1384A,113.0731,22.5835,江门市,西区,,38,38,34,17,16,38,,26,26,28,33,6,6,0.6,0.6
2025-03-08T1200,1385A,113.0219,22.5311,江门市,圭峰西,,29,29,28,18,20,36,,24,24,30,34,4,4,0.6,0.6
2025-03-08T1200,1386A,113.0828,22.5947,江门市,东湖,,32,29,29,22,21,39,,28,28,28,32,7,6,0.5,0.6
2025-03-08T1200,3311A,113.1075,22.5647,江门市,江海富民,,40,40,32,17,18,39,,25,25,25,31,6,6,0.4,0.5
2025-03-08T1200,3449A,113.05,22.4667,江门市,新会银湖,,39,35,29,27,22,35,,21,21,28,36,1,3,0.6,0.7
2025-03-08T1200,1830A,113.1992,35.2590,焦作市,影视城,,,,49,,27,,,,,,8,,8,,0.2
2025-03-08T1200,3169A,113.2725,35.2067,焦作市,太极体育中心,细颗粒物(PM2.5),64,,87,46,61,86,,46,46,18,28,15,11,1.0,0.9
2025-03-08T1200,3335A,113.3137,35.2641,焦作市,马村街道办,细颗粒物(PM2.5),79,65,79,58,64,75,,51,51,24,22,22,11,0.9,0.8
2025-03-08T1200,3336A,113.2465,35.2373,焦作市,焦作技师学院,颗粒物(PM10),58,66,77,39,52,83,,58,58,19,22,14,9,1.1,1
2025-03-08T1200,3477A,113.1656,35.2539,焦作市,中站许衡医院,细颗粒物(PM2.5),58,48,68,41,54,94,,76,76,17,23,7,10,0.7,0.7
2025-03-08T1200,3981A,113.2449,35.1803,焦作市,原李万街道办,颗粒物(PM10),107,164,87,41,51,88,,51,50,20,27,,11,0.7,0.6
2025-03-08T1200,4264A,113.2340,35.2190,焦作市,新安路1731号,细颗粒物(PM2.5),52,45,79,36,56,87,,51,51,22,27,14,12,0.7,0.8
2025-03-08T1200,1708A,116.3701,23.5345,揭阳市,新兴,,,,20,,14,50,,20,20,18,22,,6,0.7,0.8
2025-03-08T1200,1709A,116.3264,23.5443,揭阳市,西马,,,20,18,18,13,43,,23,23,,18,,8,0.7,0.6
2025-03-08T1200,1710A,116.3611,23.5626,揭阳市,东兴,颗粒物(PM10),52,53,25,15,12,46,,18,18,14,23,7,6,0.6,0.7
2025-03-08T1200,1711A,116.4151,23.5294,揭阳市,渔湖,,32,32,23,15,12,55,,25,25,14,19,11,6,0.6,0.7
2025-03-08T1200,3320A,116.403,23.5699,揭阳市,曲溪,,26,26,25,14,13,62,,21,21,13,28,6,6,0.4,0.7
2025-03-08T1200,1944A,102.1692,38.5167,金昌市,天庆家园,颗粒物(PM10),62,74,108,35,43,86,,59,58,12,15,13,10,0.6,0.8
2025-03-08T1200,4022A,102.1647,38.5371,金昌市,金川区人防中心,颗粒物(PM10),84,117,136,33,43,77,,63,60,9,12,9,9,0.6,0.7
2025-03-08T1200,4239A,102.1930,38.5319,金昌市,长春路96号,颗粒物(PM10),59,68,83,39,46,82,,60,56,10,14,17,19,0.7,0.8
2025-03-08T1200,1262A,119.647,29.077,金华市,十五中,细颗粒物(PM2.5),63,67,53,45,34,68,,30,30,33,32,6,5,0.7,0.5
2025-03-08T1200,1263A,119.686,29.1029,金华市,监测站,细颗粒物(PM2.5),64,60,62,46,41,80,,34,34,22,28,6,4,0.5,0.5
2025-03-08T1200,3659A,119.656,29.1131,金华市,气象局,细颗粒物(PM2.5),80,77,63,59,39,77,,27,27,23,40,7,5,0.7,0.5
2025-03-08T1200,1767A,121.1115,41.0879,锦州市,南山,细颗粒物(PM2.5),92,74,54,68,46,84,,55,50,28,32,23,26,0.8,0.6
2025-03-08T1200,1768A,121.0533,40.8434,锦州市,开发区,细颗粒物(PM2.5),89,75,59,66,39,67,,45,42,29,35,32,24,0.9,0.6
2025-03-08T1200,1769A,121.1836,41.1119,锦州市,百股街道,细颗粒物(PM2.5),94,87,54,70,38,71,,58,48,33,28,30,24,1.0,0.9
2025-03-08T1200,1770A,121.1178,41.1222,锦州市,天安街道,细颗粒物(PM2.5),89,73,56,66,45,88,,59,52,26,30,27,23,0.9,0.7
2025-03-08T1200,1771A,121.1303,41.1386,锦州市,北湖公园,细颗粒物(PM2.5),72,74,59,52,44,86,,56,50,24,34,29,20,0.9,0.7
2025-03-08T1200,2160A,112.85,35.5051,晋城市,自来水公司,颗粒物(PM10),58,65,69,34,47,95,,46,46,15,24,6,6,0.7,0.9
2025-03-08T1200,2161A,112.8318,35.4936,晋城市,白云商贸,颗粒物(PM10),56,62,73,29,42,103,,53,53,18,26,6,5,0.7,0.9
2025-03-08T1200,2162A,112.8508,35.4887,晋城市,市环保局,颗粒物(PM10),62,74,73,36,46,98,,45,45,17,27,6,5,0.5,0.8
2025-03-08T1200,2163A,112.8676,35.4897,晋城市,技术学院,颗粒物(PM10),53,55,75,34,40,95,,38,38,16,30,7,7,0.9,1.1
2025-03-08T1200,2165A,112.8453,35.546,晋城市,白马寺,细颗粒物(PM2.5),83,,73,61,61,111,,62,62,6,13,5,15,0.7,1.5
2025-03-08T1200,3620A,112.8271,35.4828,晋城市,泽州一中,颗粒物(PM10),67,84,67,41,48,94,,55,55,21,24,9,7,0.9,0.9
2025-03-08T1200,2173A,112.7249,37.7067,晋中市,南都小区,细颗粒物(PM2.5),77,88,70,56,50,94,,38,38,17,24,20,9,1.0,0.8
2025-03-08T1200,2174A,112.6991,37.6982,晋中市,榆次区政府,细颗粒物(PM2.5),73,88,64,53,46,90,,33,33,21,28,21,8,0.7,0.7
2025-03-08T1200,2865A,112.7195,37.6828,晋中市,榆次三中,细颗粒物(PM2.5),77,83,60,56,43,91,,32,32,20,30,20,6,0.8,0.5
2025-03-08T1200,4200A,112.7478,37.6954,晋中市,迎宾街26号,细颗粒物(PM2.5),79,83,56,58,45,93,,37,37,17,23,16,4,0.6,0.6
2025-03-08T1200,2439A,112.2014,31.0481,荆门市,竹园小学,细颗粒物(PM2.5),109,115,100,82,81,79,,91,75,28,19,6,5,0.5,0.4
2025-03-08T1200,2440A,112.1969,30.9891,荆门市,掇刀,细颗粒物(PM2.5),102,112,103,76,79,84,,86,70,28,22,6,5,0.5,0.5
2025-03-08T1200,2441A,112.2213,31.0386,荆门市,石化一小,细颗粒物(PM2.5),94,106,101,70,74,79,,78,58,35,27,11,10,0.4,0.4
2025-03-08T1200,3012A,112.1849,31.0362,荆门市,西山林语,细颗粒物(PM2.5),97,89,87,72,72,85,,88,78,24,18,5,5,0.2,0.3
2025-03-08T1200,3547A,112.1632,31.0138,荆门市,龙泉中学南校,细颗粒物(PM2.5),104,98,102,78,82,78,,74,66,24,21,8,8,0.5,0.5
2025-03-08T1200,1844A,112.2494,30.3197,荆州市,市图书馆,细颗粒物(PM2.5),98,,64,73,73,75,,76,68,18,21,4,4,0.7,0.7
2025-03-08T1200,1845A,112.2008,30.3544,荆州市,市委党校,细颗粒物(PM2.5),99,79,75,74,73,68,,75,65,24,24,8,7,0.7,0.7
2025-03-08T1200,3194A,112.2747,30.3122,荆州市,管委会,细颗粒物(PM2.5),94,84,71,70,73,80,,80,70,19,21,14,10,0.7,0.7
2025-03-08T1200,4268A,112.1722,30.3366,荆州市,学苑路85号,细颗粒物(PM2.5),85,,66,63,70,84,,77,73,21,22,8,8,0.7,0.6
2025-03-08T1200,2342A,117.3102,29.3867,景德镇市,王港中学,,,,,,,,,,,,,,,,
2025-03-08T1200,2343A,117.2117,29.2933,景德镇市,老干部活动中心,细颗粒物(PM2.5),52,47,48,36,38,71,,27,27,13,22,6,5,0.3,0.4
2025-03-08T1200,2344A,117.1894,29.2789,景德镇市,兽医站,颗粒物(PM10),55,59,59,31,31,66,,30,30,18,26,5,7,0.7,0.7
2025-03-08T1200,2345A,117.1547,29.2617,景德镇市,台达陶瓷,颗粒物(PM10),54,57,68,23,41,61,,24,24,18,40,32,79,0.6,0.7
2025-03-08T1200,2346A,117.2461,29.2956,景德镇市,陶研所,细颗粒物(PM2.5),53,43,43,37,38,73,,23,23,17,24,5,6,0.6,0.6
2025-03-08T1200,1803A,115.9872,29.6815,九江市,十里,颗粒物(PM10),51,51,59,31,41,86,,39,39,18,33,6,5,0.5,0.6
2025-03-08T1200,1804A,115.9584,29.7046,九江市,茅山头,细颗粒物(PM2.5),68,72,61,49,41,75,,46,45,34,33,12,7,0.4,0.4
2025-03-08T1200,1805A,115.9877,29.7295,九江市,西园,细颗粒物(PM2.5),64,56,53,46,43,62,,52,50,58,33,20,10,0.7,0.6
2025-03-08T1200,1808A,115.9114,29.6038,九江市,综合工业园,细颗粒物(PM2.5),60,52,54,43,54,99,,55,55,31,40,8,8,0.6,0.6
2025-03-08T1200,1809A,116.0721,29.7535,九江市,石化总厂,颗粒物(PM10),57,63,54,35,48,102,,57,57,16,22,9,8,0.6,0.6
2025-03-08T1200,1810A,115.9773,29.5698,九江市,庐山气象台,细颗粒物(PM2.5),72,56,50,52,49,80,,117,111,16,11,6,6,1.2,0.8
2025-03-08T1200,3190A,116.0254,29.6994,九江市,外国语学校,"颗粒物(PM10),细颗粒物(PM2.5)",53,56,60,37,43,100,,50,50,20,37,10,9,0.4,0.4
2025-03-08T1200,4253A,116.0102,29.6594,九江市,莲花大道8号,细颗粒物(PM2.5),68,59,63,49,55,84,,42,42,13,19,12,7,0.4,0.5
2025-03-08T1200,4240A,98.4958,39.7339,酒泉市,玉门东路5号,颗粒物(PM10),54,58,150,20,41,94,,63,63,6,13,7,8,0.3,0.4
2025-03-08T1200,4241A,98.5099,39.7506,酒泉市,北大街108号,颗粒物(PM10),67,83,153,14,36,82,,53,53,13,15,9,10,0.4,0.4
2025-03-08T1200,2698A,76.0072,39.4467,喀什地区,巡警大队,颗粒物(PM10),75,100,75,25,24,67,,50,38,31,34,4,4,0.6,0.8
2025-03-08T1200,2699A,75.9755,39.4694,喀什地区,吾办,颗粒物(PM10),63,75,76,32,28,71,,52,43,24,28,6,5,0.6,0.8
2025-03-08T1200,4027A,75.9483,39.4689,喀什地区,老干局,颗粒物(PM10),66,81,72,24,24,77,,58,48,23,23,4,3,0.7,0.9
2025-03-08T1200,1824A,114.3389,34.7781,开封市,肿瘤医院,细颗粒物(PM2.5),73,60,70,53,55,90,,41,41,18,31,10,8,1.0,0.7
2025-03-08T1200,1826A,114.2885,34.7965,开封市,世纪星幼儿园,细颗粒物(PM2.5),99,,69,74,64,94,,46,46,25,33,10,7,1.0,0.8
2025-03-08T1200,3147A,114.3438,34.8106,开封市,龙亭公园,细颗粒物(PM2.5),77,68,71,56,57,89,,44,44,24,34,5,3,0.7,0.5
2025-03-08T1200,3210A,114.3644,34.7964,开封市,汴京公园,细颗粒物(PM2.5),74,56,76,54,54,97,,45,45,18,33,7,5,0.8,0.6
2025-03-08T1200,3473A,114.2485,34.8306,开封市,技师学院,细颗粒物(PM2.5),73,68,68,53,57,85,,46,44,20,28,14,10,1.0,0.8
2025-03-08T1200,3592A,114.4644,34.7556,开封市,祥符区生态环境局,细颗粒物(PM2.5),123,110,91,93,62,72,,35,35,32,47,12,5,1.1,0.6
2025-03-08T1200,1951A,84.895,45.6094,克拉玛依市,长征新村,,21,19,27,11,16,65,,68,60,10,15,7,8,0.3,0.3
2025-03-08T1200,1952A,84.8988,45.5893,克拉玛依市,南林小区,,23,18,25,16,17,66,,66,62,19,17,4,3,0.3,0.4
2025-03-08T1200,1954A,84.905,44.3396,克拉玛依市,独山子区,,32,15,39,9,26,100,,101,95,10,10,6,5,0.2,0.2
2025-03-08T1200,1955A,85.6979,46.098,克拉玛依市,乌尔禾区商贸楼,颗粒物(PM10),51,51,39,6,30,60,,59,52,16,17,5,5,0.4,0.6
2025-03-08T1200,3612A,85.1045,45.6899,克拉玛依市,白碱滩区新站,,18,17,34,12,17,54,,57,54,16,15,8,8,0.3,0.3
2025-03-08T1200,2697A,76.1454,39.7142,克孜勒苏柯尔克孜自治州,市人民政府,,50,50,53,19,17,76,,82,78,12,9,6,5,0.5,0.4
2025-03-08T1200,3665A,76.1658,39.7157,克孜勒苏柯尔克孜自治州,克州文化中心,,49,49,49,15,16,75,,93,84,16,6,6,5,0.6,0.4
2025-03-08T1200,1450A,102.8204,24.8886,昆明市,呈贡新区,细颗粒物(PM2.5),67,54,46,48,44,103,,72,72,10,24,4,6,0.7,0.6
2025-03-08T1200,1451A,102.6251,24.9608,昆明市,西山森林公园,,,,,,,,,,,,,,,,
2025-03-08T1200,1452A,102.7252,25.0902,昆明市,龙泉镇,细颗粒物(PM2.5),65,48,50,47,40,96,,51,48,17,29,7,7,0.7,0.8
2025-03-08T1200,1453A,102.7266,25.0375,昆明市,东风东路,细颗粒物(PM2.5),62,59,55,44,46,91,,62,61,21,26,7,7,0.7,0.7
2025-03-08T1200,1454A,102.6742,25.0669,昆明市,金鼎山,,,60,57,40,36,104,,60,59,18,25,,3,0.7,0.8
2025-03-08T1200,1455A,102.6644,25.0401,昆明市,碧鸡广场,细颗粒物(PM2.5),60,54,52,43,39,106,,61,61,15,25,6,6,0.5,0.6
2025-03-08T1200,3179A,102.7494,25.0119,昆明市,官渡区博物馆,细颗粒物(PM2.5),62,56,51,44,40,99,,72,72,12,22,7,7,0.8,0.8
2025-03-08T1200,3375A,102.8017,24.8336,昆明市,青年创业园,细颗粒物(PM2.5),69,59,52,50,40,106,,65,65,8,19,6,8,0.7,0.7
2025-03-08T1200,3550A,102.7997,24.9786,昆明市,昆明学院,细颗粒物(PM2.5),65,60,55,47,40,106,,79,79,10,20,4,5,0.7,0.7
2025-03-08T1200,3551A,102.5967,24.6736,昆明市,晋宁区生态环境分局,细颗粒物(PM2.5),67,,38,48,42,78,,56,56,9,8,6,5,0.8,0.8
2025-03-08T1200,3552A,102.6678,24.9856,昆明市,云天化总部,细颗粒物(PM2.5),57,53,52,40,36,114,,72,72,12,17,6,6,0.7,0.8
2025-03-08T1200,1456A,91.1319,29.6514,拉萨市,八廓街,颗粒物(PM10),58,66,28,25,11,100,,111,95,11,11,6,6,0.5,0.5
2025-03-08T1200,1457A,91.1221,29.6747,拉萨市,市环保局,颗粒物(PM10),63,75,31,23,11,90,,91,72,15,18,6,7,0.3,0.4
2025-03-08T1200,1458A,91.0874,29.6475,拉萨市,区监测站,,48,48,24,17,9,95,,103,82,12,16,6,6,0.7,0.6
2025-03-08T1200,1459A,91.1774,29.6541,拉萨市,西藏大学,颗粒物(PM10),51,51,37,13,8,95,,106,92,8,9,4,5,0.5,0.4
2025-03-08T1200,1460A,90.9798,29.6588,拉萨市,区辐射站,颗粒物(PM10),55,60,35,23,10,97,,98,90,13,15,6,6,0.4,0.4
2025-03-08T1200,1461A,91.0834,29.6292,拉萨市,拉萨火车站,颗粒物(PM10),62,73,25,24,9,95,,105,86,12,9,7,8,0.4,0.4
2025-03-08T1200,2520A,109.2203,23.7256,来宾市,来宾技工学校,,50,37,32,35,28,70,,65,65,11,12,6,8,0.6,0.7
2025-03-08T1200,3535A,109.1781,23.7297,来宾市,兴宾区政府,,43,41,35,30,27,64,,58,58,9,9,7,8,0.7,0.8
2025-03-08T1200,4002A,109.2416,23.7461,来宾市,中南小学,,43,42,33,30,26,73,,67,67,10,11,6,8,0.7,0.8
2025-03-08T1200,1477A,104.1373,35.9454,兰州市,榆中兰大校区,,,,,,,,,,,,,,,,
2025-03-08T1200,1479A,103.831,36.0464,兰州市,铁路设计院,颗粒物(PM10),85,119,96,59,54,77,,29,29,54,62,35,18,1.2,1.1
2025-03-08T1200,3241A,103.7439,36.0842,兰州市,百合公园,颗粒物(PM10),82,114,95,48,43,71,,26,26,38,48,38,11,1.2,1
2025-03-08T1200,3242A,103.9611,35.998,兰州市,和平,颗粒物(PM10),90,129,91,60,43,60,,51,45,43,29,13,9,0.8,0.5
2025-03-08T1200,4236A,103.6293,36.0938,兰州市,庄浪东路808号,细颗粒物(PM2.5),89,116,85,66,44,95,,37,37,47,43,53,20,1.1,0.7
2025-03-08T1200,4237A,103.7251,36.1043,兰州市,安宁西路88号,颗粒物(PM10),80,109,105,54,52,74,,26,26,31,45,37,10,0.8,0.6
2025-03-08T1200,4238A,103.8470,36.0676,兰州市,北滨河东路1号,细颗粒物(PM2.5),85,103,94,63,51,80,,24,24,50,58,35,14,1.2,0.9
2025-03-08T1200,3245A,103.6633,36.533,兰州新区,新区管委会,细颗粒物(PM2.5),64,74,88,46,46,98,,45,45,11,16,18,21,0.4,0.6
2025-03-08T1200,3246A,103.6975,36.4789,兰州新区,舟曲中学,颗粒物(PM10),72,94,117,48,48,96,,40,40,11,27,10,28,0.4,0.6
2025-03-08T1200,1067A,116.6708,39.5111,廊坊市,药材公司,细颗粒物(PM2.5),127,100,88,96,74,105,,43,43,17,25,3,3,0.6,0.6
2025-03-08T1200,1068A,116.7214,39.5589,廊坊市,开发区,细颗粒物(PM2.5),130,117,89,99,74,110,,40,40,18,30,4,3,0.5,0.5
2025-03-08T1200,1070A,116.7244,39.5269,廊坊市,北华航天学院,细颗粒物(PM2.5),119,98,84,90,70,104,,43,43,23,31,5,4,0.6,0.6
2025-03-08T1200,2919A,116.7022,39.5453,廊坊市,河北工业大学,细颗粒物(PM2.5),120,101,87,91,72,107,,48,48,17,24,6,6,0.5,0.5
2025-03-08T1200,2535A,103.7723,29.5462,乐山市,花湖湾,细颗粒物(PM2.5),52,,33,36,28,40,,24,24,26,25,4,4,0.5,0.4
2025-03-08T1200,2536A,103.7627,29.5844,乐山市,牛耳桥,,39,32,41,27,32,54,,26,26,15,28,6,6,0.5,0.6
2025-03-08T1200,2537A,103.7508,29.6006,乐山市,市第三水厂,,28,22,33,19,24,66,,31,31,9,24,4,3,0.5,0.5
2025-03-08T1200,2538A,103.7571,29.5664,乐山市,市监测站,,39,33,35,27,27,54,,29,29,11,22,5,5,0.7,0.8
2025-03-08T1200,3361A,103.7311,29.5628,乐山市,理工大学,,50,47,31,35,24,58,,31,31,14,25,6,6,0.5,0.4
2025-03-08T1200,2598A,100.2143,26.8576,丽江市,西南郊,细颗粒物(PM2.5),75,93,56,55,40,107,,92,81,25,16,6,5,1.2,1.1
2025-03-08T1200,2599A,100.2497,26.8802,丽江市,丽江古城,细颗粒物(PM2.5),78,88,54,57,37,81,,83,81,31,17,10,8,0.8,0.7
2025-03-08T1200,2600A,100.2203,26.8906,丽江市,市中心,细颗粒物(PM2.5),59,66,42,42,35,111,,85,82,24,17,7,7,0.8,0.7
2025-03-08T1200,1267A,119.914,28.4514,丽水市,监测站大楼,细颗粒物(PM2.5),69,,41,50,36,45,,24,24,20,24,4,3,0.3,0.3
2025-03-08T1200,1268A,119.93,28.4586,丽水市,莲都小学,细颗粒物(PM2.5),69,69,49,50,31,44,,24,24,20,24,4,4,0.4,0.3
2025-03-08T1200,1269A,119.879,28.4231,丽水市,余庄前,细颗粒物(PM2.5),74,63,43,54,33,46,,19,19,21,19,4,4,0.4,0.3
2025-03-08T1200,1173A,119.176,34.5885,连云港市,市环境监测站,细颗粒物(PM2.5),98,90,103,73,72,136,,84,79,19,28,12,11,0.7,0.7
2025-03-08T1200,3000A,119.3581,34.6972,连云港市,德源药业,细颗粒物(PM2.5),89,92,103,66,70,129,,83,83,23,38,10,9,0.7,0.7
2025-03-08T1200,3007A,119.178,34.844,连云港市,新城一中,细颗粒物(PM2.5),140,123,109,107,91,123,,65,65,46,51,10,10,0.9,0.8
2025-03-08T1200,3008A,119.3608,34.7519,连云港市,胡沟管理处,细颗粒物(PM2.5),92,85,76,68,57,130,,109,109,24,36,11,11,0.7,0.7
2025-03-08T1200,3009A,119.1478,34.5911,连云港市,矿山设计院,细颗粒物(PM2.5),104,107,104,78,69,129,,97,94,23,21,11,10,0.7,0.6
2025-03-08T1200,3434A,119.2413,34.6539,连云港市,工贸学校,细颗粒物(PM2.5),130,124,106,99,81,121,,97,94,25,23,13,11,0.9,0.9
2025-03-08T1200,3664A,119.4172,34.7341,连云港市,连云街道,细颗粒物(PM2.5),108,117,104,81,68,112,,120,102,40,41,10,10,0.8,0.7
2025-03-08T1200,2571A,102.3431,27.8099,凉山彝族自治州,青龙寺,,22,19,28,6,9,69,,51,50,6,9,6,5,0.8,0.8
2025-03-08T1200,2572A,102.2721,27.8415,凉山彝族自治州,邛海宾馆,,27,27,34,15,28,61,,65,60,14,12,15,16,0.8,0.8
2025-03-08T1200,2573A,102.2625,27.898,凉山彝族自治州,西昌市政府,,,25,28,14,23,59,,44,43,12,15,18,21,,0.8
2025-03-08T1200,2574A,102.2685,27.8851,凉山彝族自治州,凉山州政府,,24,24,30,14,20,66,,52,51,13,15,18,20,0.8,0.9
2025-03-08T1200,4229A,102.2342,27.8859,凉山彝族自治州,凯乐南路30号,,24,24,36,10,21,62,,52,49,12,14,12,14,0.5,0.7
2025-03-08T1200,2212A,123.2,41.1953,辽阳市,宏伟区,颗粒物(PM10),56,62,57,39,37,112,,107,107,19,17,14,14,0.8,0.8
2025-03-08T1200,2213A,123.1683,41.2495,辽阳市,新华园,细颗粒物(PM2.5),59,66,62,42,39,90,,90,90,40,31,30,16,1.8,0.9
2025-03-08T1200,2214A,123.2354,41.2639,辽阳市,滨河路,细颗粒物(PM2.5),60,57,55,43,38,103,,99,99,28,24,20,19,1.2,0.6
2025-03-08T1200,2215A,123.149,41.2991,辽阳市,铁西工业园,细颗粒物(PM2.5),69,74,76,50,43,96,,91,91,27,29,20,19,1.0,0.9
2025-03-08T1200,2227A,125.1358,42.8845,辽源市,环保局,,45,45,40,26,20,110,,93,93,16,18,8,8,0.8,0.8
2025-03-08T1200,3239A,125.0764,42.9078,辽源市,银鹰制药,,39,38,36,27,21,114,,101,101,11,12,10,9,0.8,0.7
2025-03-08T1200,1625A,115.9848,36.4372,聊城市,区政府,细颗粒物(PM2.5),97,108,90,72,58,100,,77,77,17,15,16,13,0.8,0.7
2025-03-08T1200,2878A,116.0072,36.4343,聊城市,聊大东校,细颗粒物(PM2.5),113,117,96,85,64,104,,75,75,19,20,14,9,1.0,1
2025-03-08T1200,3200A,115.9819,36.4978,聊城市,监控中心,细颗粒物(PM2.5),100,112,98,75,64,98,,70,68,24,22,15,13,0.8,0.8
2025-03-08T1200,3513A,116.0445,36.4361,聊城市,九州社区,细颗粒物(PM2.5),92,102,90,68,60,108,,78,78,14,16,16,11,0.7,0.7
2025-03-08T1200,4018A,116.0567,36.4608,聊城市,星美广场,细颗粒物(PM2.5),85,113,96,63,57,107,,79,79,22,20,17,14,0.8,0.8
2025-03-08T1200,2632A,94.3681,29.6376,林芝市,林芝监测站,,31,19,22,16,15,99,,110,103,8,6,7,7,0.3,0.3
2025-03-08T1200,2633A,94.3616,29.6616,林芝市,林芝人民医院,,29,26,27,18,15,91,,106,98,9,4,6,6,0.3,0.3
2025-03-08T1200,2603A,100.0781,23.8982,临沧市,市环保局,细颗粒物(PM2.5),79,94,83,58,56,103,,69,65,22,16,14,13,0.8,0.7
2025-03-08T1200,2604A,100.0894,23.8822,临沧市,市气象局,细颗粒物(PM2.5),85,83,72,63,58,103,,68,60,26,18,16,15,0.8,0.7
2025-03-08T1200,1733A,111.5531,36.0783,临汾市,临钢医院,细颗粒物(PM2.5),69,67,81,50,57,65,,24,24,18,24,8,7,0.8,0.8
2025-03-08T1200,1734A,111.5028,36.0714,临汾市,技工学校,细颗粒物(PM2.5),63,66,81,45,62,68,,24,24,16,26,9,8,0.8,0.8
2025-03-08T1200,1736A,111.5018,36.0855,临汾市,市委,颗粒物(PM10),60,69,85,42,57,69,,24,24,15,25,8,6,0.9,0.9
2025-03-08T1200,3018A,111.505,36.1014,临汾市,唐尧大酒店,细颗粒物(PM2.5),75,63,86,55,60,69,,21,21,15,28,8,7,0.8,0.8
2025-03-08T1200,4244A,111.4879,36.0530,临汾市,启星学校,细颗粒物(PM2.5),72,60,70,52,58,74,,24,24,12,23,6,4,0.7,0.8
2025-03-08T1200,4271A,103.2464,35.6123,临夏回族自治州,滨河东路1号,,48,48,55,8,13,88,,48,48,15,24,6,3,0.7,0.7
2025-03-08T1200,4310A,103.2093,35.5995,临夏回族自治州,新华街21号,,45,45,43,13,14,76,,39,39,21,19,12,10,0.8,0.9
2025-03-08T1200,1618A,118.3429,35.0532,临沂市,沂河小区,细颗粒物(PM2.5),117,110,108,88,83,117,,83,83,27,30,19,18,0.8,0.8
2025-03-08T1200,1619A,118.295,35.0583,临沂市,鲁南制药厂,细颗粒物(PM2.5),107,100,107,80,76,130,,78,78,26,41,15,17,0.6,0.5
2025-03-08T1200,1620A,118.2794,34.9976,临沂市,新光毛纺厂,细颗粒物(PM2.5),105,95,99,79,75,128,,83,83,24,37,15,16,0.8,0.8
2025-03-08T1200,1621A,118.3956,35.0888,临沂市,河东保险公司,细颗粒物(PM2.5),104,105,97,78,69,128,,100,100,38,35,16,13,0.9,0.9
2025-03-08T1200,3370A,118.3564,35.0215,临沂市,十里堡居委,细颗粒物(PM2.5),100,92,103,75,72,129,,83,83,30,36,21,19,0.8,0.8
2025-03-08T1200,3496A,118.3604,35.1084,临沂市,南坊新区,细颗粒物(PM2.5),107,100,94,80,68,125,,96,96,28,27,12,12,0.7,0.7
2025-03-08T1200,3860A,118.3920,35.0300,临沂市,皇山花园小区,细颗粒物(PM2.5),103,117,101,77,70,120,,87,87,31,32,17,15,0.6,0.6
2025-03-08T1200,1870A,109.4856,24.3895,柳州市,柳东小学,,33,28,27,23,23,74,,64,64,12,12,10,10,0.6,0.5
2025-03-08T1200,1871A,109.4157,24.3277,柳州市,环保监测站,,33,30,29,23,20,81,,71,71,9,10,9,9,0.5,0.5
2025-03-08T1200,1872A,109.389,24.341,柳州市,河西水厂,,44,44,30,25,19,77,,66,66,10,11,2,4,0.5,0.7
2025-03-08T1200,1873A,109.4311,24.2921,柳州市,市四中,,39,39,26,23,20,81,,75,75,11,9,8,8,0.6,0.5
2025-03-08T1200,1874A,109.4006,24.3631,柳州市,市九中,,,37,28,26,19,,,63,63,8,9,6,7,0.7,0.7
2025-03-08T1200,1875A,109.4958,24.3134,柳州市,古亭山,,40,31,26,28,27,81,,74,74,8,7,7,7,0.4,0.4
2025-03-08T1200,3402A,109.5422,24.3996,柳州市,市二中,,38,,26,26,25,78,,71,71,11,12,10,9,0.4,0.4
2025-03-08T1200,2307A,116.5079,31.737,六安市,监测大楼,细颗粒物(PM2.5),60,60,59,43,44,121,,63,63,24,28,8,5,0.6,0.7
2025-03-08T1200,2308A,116.4738,31.7643,六安市,皖西学院,细颗粒物(PM2.5),62,65,64,44,43,119,,69,69,20,24,6,5,0.4,0.5
2025-03-08T1200,2309A,116.4996,31.7905,六安市,朝阳厂,细颗粒物(PM2.5),67,74,67,48,42,113,,72,72,24,22,5,4,0.6,0.6
2025-03-08T1200,2310A,116.5567,31.7886,六安市,开发区,细颗粒物(PM2.5),70,75,83,51,53,124,,67,67,19,27,6,5,0.6,0.5
2025-03-08T1200,2576A,104.8,26.5892,六盘水市,窑上,,24,24,36,15,23,32,,45,38,14,10,5,5,0.7,0.7
2025-03-08T1200,2577A,104.83,26.5917,六盘水市,黄土坡,,19,18,27,13,20,37,,48,42,16,15,8,8,0.7,0.6
2025-03-08T1200,2578A,104.89,26.5939,六盘水市,水钢,,49,35,39,34,33,37,,49,44,13,13,6,7,0.6,0.6
2025-03-08T1200,2579A,104.8475,26.5894,六盘水市,民中,,18,18,25,7,17,33,,46,39,16,14,8,8,0.7,0.7
2025-03-08T1200,2580A,104.9544,26.5506,六盘水市,双水,,13,,24,8,19,41,,46,43,11,12,7,8,0.6,0.5
2025-03-08T1200,2335A,117.0189,25.1181,龙岩市,龙岩师专,,,,,,,,,,,,,,,,
2025-03-08T1200,2336A,117.0217,25.1033,龙岩市,龙岩市监测站,,29,,21,20,19,57,,39,39,12,16,7,7,0.6,0.5
2025-03-08T1200,2337A,117.0258,25.0661,龙岩市,闽西职业技术学院,,41,41,21,22,19,54,,36,36,12,15,5,7,0.6,0.6
2025-03-08T1200,2338A,117.0196,25.0306,龙岩市,龙岩学院,,37,37,23,21,22,44,,29,29,16,15,8,8,0.7,0.7
2025-03-08T1200,2665A,105.0822,33.3261,陇南市,汉王镇固水子,,,,,,,,,,,,,,,,
2025-03-08T1200,2885A,104.9339,33.3826,陇南市,滨江中学,颗粒物(PM10),62,74,78,24,28,69,,58,58,3,11,5,7,0.5,0.7
2025-03-08T1200,3247A,104.955,33.371,陇南市,市总工会,颗粒物(PM10),55,59,82,28,29,71,,64,64,1,4,6,7,0.3,0.4
2025-03-08T1200,2487A,111.9589,27.8901,娄底市,电视发射台,细颗粒物(PM2.5),165,,40,125,43,27,,38,37,49,13,27,7,2.9,0.8
2025-03-08T1200,2488A,111.9975,27.725,娄底市,市监测站,,,72,67,46,56,,,20,20,,32,,10,,1
2025-03-08T1200,2489A,112.0194,27.7314,娄底市,市委党校,细颗粒物(PM2.5),77,72,67,56,56,45,,31,31,25,24,4,4,0.8,0.8
2025-03-08T1200,2490A,111.9561,27.7569,娄底市,涟钢,细颗粒物(PM2.5),89,83,74,66,59,34,,32,28,33,24,15,8,2.2,1.3
2025-03-08T1200,2491A,111.9892,27.7044,娄底市,市政府,,,64,63,51,52,,,35,34,,17,9,8,0.9,0.9
2025-03-08T1200,1893A,105.4324,28.9634,泸州市,九狮山,,,,,,,,,,,,,,,,
2025-03-08T1200,1894A,105.4427,28.9063,泸州市,小市上码头,颗粒物(PM10),57,64,58,31,34,56,,40,40,21,24,6,6,0.4,0.4
2025-03-08T1200,1895A,105.4241,28.8573,泸州市,兰田宪桥,颗粒物(PM10),55,60,54,37,37,45,,33,30,20,25,6,5,0.5,0.5
2025-03-08T1200,1896A,105.4379,28.8833,泸州市,市环监站,颗粒物(PM10),63,76,64,44,38,40,,36,32,27,29,6,6,0.2,0.2
2025-03-08T1200,4272A,105.3689,28.7783,泸州市,纳溪中医医院,细颗粒物(PM2.5),63,46,43,45,38,49,,32,28,19,25,6,5,0.5,0.5
2025-03-08T1200,2183A,111.1406,37.5211,吕梁市,环保局,颗粒物(PM10),63,76,54,29,33,62,,43,43,18,34,7,6,0.4,0.4
2025-03-08T1200,2185A,111.1297,37.5136,吕梁市,自来水公司,颗粒物(PM10),66,81,56,35,39,64,,43,43,20,29,6,5,0.5,0.6
2025-03-08T1200,2867A,111.1283,37.51,吕梁市,马茂庄小学,颗粒物(PM10),72,94,63,36,36,63,,44,44,24,38,6,6,0.4,0.5
2025-03-08T1200,1812A,112.3931,34.6516,洛阳市,市委党校,细颗粒物(PM2.5),82,79,79,60,63,70,,22,22,22,40,6,4,0.9,1
2025-03-08T1200,1815A,112.494,34.6886,洛阳市,河南林校,细颗粒物(PM2.5),107,88,75,80,70,56,,19,19,41,42,10,5,1.0,0.9
2025-03-08T1200,1816A,112.3844,34.623,洛阳市,开发区管委会,细颗粒物(PM2.5),77,81,80,56,61,86,,36,36,13,25,11,7,0.7,0.7
2025-03-08T1200,1817A,112.4267,34.6258,洛阳市,市委新办公区,细颗粒物(PM2.5),72,75,85,52,57,82,,36,36,21,38,9,4,0.6,0.7
2025-03-08T1200,3340A,112.6005,34.6326,洛阳市,伊滨,细颗粒物(PM2.5),93,84,92,69,72,67,,29,29,24,34,9,5,0.9,0.8
2025-03-08T1200,3341A,112.4951,34.6332,洛阳市,中移产业园,细颗粒物(PM2.5),89,81,88,66,77,77,,34,34,23,39,7,3,1.0,1
2025-03-08T1200,3593A,112.5736,34.8993,洛阳市,吉利监测站,细颗粒物(PM2.5),108,,68,81,60,76,,40,40,21,24,9,5,0.7,0.6
2025-03-08T1200,3635A,112.3677,34.662,洛阳市,河科大西苑校区,细颗粒物(PM2.5),85,85,79,63,60,75,,27,27,22,36,12,9,0.8,0.7
2025-03-08T1200,3636A,112.4388,34.6781,洛阳市,英才小学,颗粒物(PM10),96,141,89,61,59,60,,18,18,30,46,11,11,0.7,0.7
2025-03-08T1200,4214A,112.4600,34.6949,洛阳市,春都路1号院,细颗粒物(PM2.5),80,88,84,59,55,76,,24,24,28,39,10,8,0.8,0.8
2025-03-08T1200,2399A,114.051,33.5699,漯河市,三五一五工厂,细颗粒物(PM2.5),104,85,73,78,61,106,,64,64,15,21,6,5,0.5,0.5
2025-03-08T1200,2400A,114.0055,33.5698,漯河市,漯河大学,细颗粒物(PM2.5),89,101,78,66,55,109,,73,73,16,24,8,6,0.5,0.5
2025-03-08T1200,2401A,114.0138,33.5828,漯河市,市水利局,细颗粒物(PM2.5),85,70,68,63,54,113,,75,75,14,19,6,4,0.5,0.4
2025-03-08T1200,2402A,114.0261,33.5698,漯河市,市广电局,细颗粒物(PM2.5),100,,66,75,54,107,,74,74,14,21,7,5,0.6,0.5
2025-03-08T1200,3478A,113.9749,33.5664,漯河市,市图书馆,细颗粒物(PM2.5),102,93,74,76,58,110,,81,81,14,21,6,4,0.7,0.6
2025-03-08T1200,4250A,114.0892,33.5882,漯河市,韶山路11号,细颗粒物(PM2.5),110,126,82,83,58,112,,65,55,20,28,7,5,0.5,0.5
2025-03-08T1200,1798A,118.5092,31.6837,马鞍山市,湖东路四小,细颗粒物(PM2.5),64,70,74,46,49,113,,51,51,20,32,7,7,0.6,0.6
2025-03-08T1200,1799A,118.5024,31.6449,马鞍山市,开发区,细颗粒物(PM2.5),87,78,89,64,58,104,,48,48,24,41,7,6,0.7,0.6
2025-03-08T1200,1802A,118.6245,31.7241,马鞍山市,濮塘,细颗粒物(PM2.5),74,77,66,54,52,117,,68,68,16,14,10,9,0.6,0.6
2025-03-08T1200,3633A,118.4918,31.6809,马鞍山市,雨山,细颗粒物(PM2.5),79,77,81,58,49,106,,53,53,31,37,10,8,0.6,0.6
2025-03-08T1200,4191A,118.5274,31.72227,马鞍山市,慈湖高新区,细颗粒物(PM2.5),79,79,75,58,58,109,,50,50,28,36,8,7,0.6,0.6
2025-03-08T1200,1686A,111.0286,21.4688,茂名市,电白南海,,39,39,26,24,15,37,,34,34,8,8,4,4,0.7,0.7
2025-03-08T1200,1687A,110.9294,21.6533,茂名市,茂石化七小,,36,36,22,19,13,28,,24,23,9,9,3,4,1.3,1.2
2025-03-08T1200,1688A,110.9107,21.6687,茂名市,健康路,,18,17,21,12,14,31,,23,23,9,12,9,13,0.8,1
2025-03-08T1200,1689A,110.8592,21.6828,茂名市,高岭,,27,27,29,9,15,24,,18,18,9,11,16,16,0.6,0.7
2025-03-08T1200,3450A,111.01,21.5165,茂名市,电白水东,,29,29,20,17,13,32,,27,27,15,16,5,10,0.9,0.9
2025-03-08T1200,2539A,104.0308,30.0478,眉山市,黑龙滩水库,,46,42,36,32,30,66,,37,37,1,5,3,3,0.6,0.6
2025-03-08T1200,2540A,103.8416,30.0874,眉山市,气象局,细颗粒物(PM2.5),70,58,39,51,29,42,,33,22,22,20,6,5,0.7,0.6
2025-03-08T1200,3137A,103.8578,30.0744,眉山市,市委党校,,39,31,29,27,25,44,,35,25,22,23,7,6,0.7,0.6
2025-03-08T1200,3148A,103.8291,30.0564,眉山市,区人社局,细颗粒物(PM2.5),62,,34,44,28,41,,35,25,31,27,5,4,0.7,0.6
2025-03-08T1200,1690A,116.1231,24.3284,梅州市,梅江月梅,,22,20,13,15,10,47,,26,26,5,13,10,9,0.5,0.5
2025-03-08T1200,1691A,116.0797,24.2719,梅州市,梅县新城,,30,24,13,21,11,43,,27,27,10,12,6,5,0.5,0.5
2025-03-08T1200,1692A,116.1248,24.2654,梅州市,环境监控中心,,28,28,13,19,11,35,,22,22,12,18,7,6,0.5,0.5
2025-03-08T1200,3315A,116.1233,24.2991,梅州市,梅龙,,29,22,11,20,10,40,,26,26,10,15,6,6,0.6,0.6
2025-03-08T1200,1878A,104.7778,31.4741,绵阳市,富乐山,细颗粒物(PM2.5),73,69,46,53,32,15,,7,7,33,29,3,2,0.8,0.7
2025-03-08T1200,1880A,104.6697,31.4668,绵阳市,高新区自来水公司,细颗粒物(PM2.5),62,64,59,44,33,28,,9,9,27,33,3,3,0.8,0.8
2025-03-08T1200,1881A,104.7287,31.5075,绵阳市,三水厂,细颗粒物(PM2.5),72,74,56,52,38,25,,9,9,33,33,6,6,0.7,0.7
2025-03-08T1200,3491A,104.69,31.5322,绵阳市,西科大附属小学,细颗粒物(PM2.5),67,72,58,48,34,13,,10,10,41,33,6,6,0.8,0.6
2025-03-08T1200,3492A,104.5648,31.5343,绵阳市,安州区旅游局,细颗粒物(PM2.5),64,,48,46,37,25,,16,16,38,29,10,9,0.5,0.4
2025-03-08T1200,4226A,104.7651,31.4531,绵阳市,绵阳市气象局,细颗粒物(PM2.5),78,77,57,57,36,9,,5,5,37,36,7,6,0.8,0.6
2025-03-08T1200,1784A,129.61,44.561,牡丹江市,环保大楼,"颗粒物(PM10),细颗粒物(PM2.5)",62,73,46,44,30,46,,43,37,40,23,15,11,0.6,0.4
2025-03-08T1200,1785A,129.6115,44.5782,牡丹江市,文化广场,颗粒物(PM10),51,52,56,33,30,56,,44,36,36,34,15,16,0.7,0.6
2025-03-08T1200,1786A,129.5904,44.5963,牡丹江市,第一医院,颗粒物(PM10),54,58,49,29,31,62,,43,42,24,25,13,18,0.1,0.3
2025-03-08T1200,1787A,129.6364,44.6075,牡丹江市,机车工厂,颗粒物(PM10),54,58,62,30,25,63,,38,38,22,21,14,24,0.5,0.5
2025-03-08T1200,1788A,129.6386,44.5462,牡丹江市,第一中学,颗粒物(PM10),56,61,43,29,30,51,,34,34,39,29,16,11,0.6,0.5
2025-03-08T1200,2531A,105.0703,29.61,内江市,市监测站,,42,42,33,24,31,65,,37,37,24,22,3,4,0.7,0.8
2025-03-08T1200,2532A,105.0717,29.5947,内江市,东兴区政府,,28,22,32,19,24,73,,38,38,10,19,4,3,0.7,0.8
2025-03-08T1200,2533A,105.0653,29.5817,内江市,内江二中,,38,38,37,25,30,72,,40,40,12,19,3,3,0.7,0.7
2025-03-08T1200,2534A,105.0406,29.5822,内江市,内江日报社,,45,45,41,23,26,66,,37,37,24,26,7,6,0.5,0.6
2025-03-08T1200,2628A,92.0657,31.4846,那曲市,那曲监测站,颗粒物(PM10),55,59,47,25,24,84,,74,74,11,9,7,7,0.6,0.7
2025-03-08T1200,3128A,92.0506,31.4797,那曲市,那曲会议中心,,36,36,55,21,19,96,,81,81,3,4,5,5,0.6,0.7
2025-03-08T1200,1290A,115.8931,28.6843,南昌市,省外办,,,85,65,66,55,49,,43,39,46,35,,5,,0.8
2025-03-08T1200,1291A,115.8886,28.7003,南昌市,省林业公司,细颗粒物(PM2.5),85,90,58,63,50,46,,39,29,37,27,19,12,1.2,0.6
2025-03-08T1200,1292A,115.8126,28.7442,南昌市,林科所,细颗粒物(PM2.5),64,68,64,46,45,52,,29,29,41,57,9,7,0.7,0.6
2025-03-08T1200,1294A,115.8518,28.687,南昌市,建工学校,,,,,,,,,,,,,,,,
2025-03-08T1200,1295A,115.8921,28.6424,南昌市,象湖,细颗粒物(PM2.5),64,57,58,46,49,56,,36,36,34,34,11,10,0.7,0.6
2025-03-08T1200,1296A,115.7423,28.7996,南昌市,武术学校,,42,35,37,29,35,71,,30,30,26,17,3,2,0.5,0.4
2025-03-08T1200,3046A,115.9084,28.6062,南昌市,机电学校,细颗粒物(PM2.5),62,67,69,44,51,69,,27,27,24,36,13,9,0.5,0.5
2025-03-08T1200,3690A,115.9721,28.7031,南昌市,外国语学校,细颗粒物(PM2.5),72,82,64,52,41,66,,34,34,17,25,13,7,0.8,0.4
2025-03-08T1200,4192A,115.9316,28.68677,南昌市,南京东路235号,细颗粒物(PM2.5),88,82,70,65,57,57,,37,37,41,40,16,8,1.5,0.9
2025-03-08T1200,1905A,106.056,30.8064,南充市,西山风景区,,49,34,23,34,20,37,,46,38,12,8,2,2,0.4,0.3
2025-03-08T1200,1906A,106.0789,30.8023,南充市,南充市委,,49,44,33,34,25,31,,46,39,23,21,4,4,0.6,0.5
2025-03-08T1200,1907A,106.1031,30.8217,南充市,南充炼油厂,"颗粒物(PM10),细颗粒物(PM2.5)",53,56,39,37,26,31,,44,38,24,18,4,4,0.4,0.3
2025-03-08T1200,1909A,106.0642,30.7636,南充市,嘉陵区环保局,,48,48,38,31,22,27,,40,35,29,22,6,5,0.6,0.5
2025-03-08T1200,1910A,106.1087,30.8388,南充市,市环境监测站,"颗粒物(PM10),细颗粒物(PM2.5)",54,57,41,38,28,29,,43,34,27,21,6,6,0.6,0.5
2025-03-08T1200,4227A,106.1083,30.7884,南充市,梨树横街98号,,50,50,37,27,24,36,,45,39,25,18,6,6,0.5,0.3
2025-03-08T1200,1151A,118.8086,32.1065,南京市,迈皋桥,细颗粒物(PM2.5),67,65,69,48,49,128,,60,60,16,31,4,4,0.5,0.6
2025-03-08T1200,1152A,118.7538,32.0551,南京市,草场门,细颗粒物(PM2.5),77,75,74,56,51,93,,48,48,21,30,6,6,0.8,0.8
2025-03-08T1200,1153A,118.7794,32.0745,南京市,山西路,细颗粒物(PM2.5),77,83,78,56,52,112,,69,69,10,14,3,4,0.8,0.7
2025-03-08T1200,1154A,118.7752,32.0023,南京市,中华门,细颗粒物(PM2.5),67,73,73,48,49,105,,61,61,32,36,4,4,0.6,0.5
2025-03-08T1200,1155A,118.8109,32.0309,南京市,瑞金路,细颗粒物(PM2.5),73,78,75,53,50,121,,56,56,16,33,7,6,0.7,0.7
2025-03-08T1200,1156A,118.7997,32.0754,南京市,玄武湖,,,92,78,54,49,,,48,35,16,22,10,9,0.6,0.6
2025-03-08T1200,1157A,118.6414,32.0931,南京市,浦口,颗粒物(PM10),65,80,87,43,52,108,,66,66,27,29,8,7,0.6,0.6
2025-03-08T1200,1158A,118.7356,31.9996,南京市,奥体中心,细颗粒物(PM2.5),77,80,79,56,53,106,,55,55,33,38,9,8,0.5,0.5
2025-03-08T1200,1159A,118.9125,32.1028,南京市,仙林大学城,细颗粒物(PM2.5),73,68,74,53,54,108,,54,54,20,27,8,9,0.7,0.8
2025-03-08T1200,3422A,118.8436,31.9198,南京市,江宁彩虹桥,细颗粒物(PM2.5),70,87,86,51,50,120,,52,52,16,31,7,6,0.5,0.6
2025-03-08T1200,3423A,119.0138,31.6494,南京市,溧水永阳,细颗粒物(PM2.5),94,75,63,70,56,100,,42,42,18,24,6,6,0.7,0.6
2025-03-08T1200,3427A,118.8554,32.3578,南京市,六合雄州,细颗粒物(PM2.5),80,103,81,59,44,109,,36,36,28,37,7,6,0.8,0.8
2025-03-08T1200,4249A,118.8708,31.3402,南京市,汶溪路181号,细颗粒物(PM2.5),72,,69,52,54,111,,50,50,10,20,6,5,0.3,0.3
2025-03-08T1200,1401A,108.3103,22.7881,南宁市,二十一中,,46,35,33,32,27,56,,60,55,19,17,5,5,0.6,0.6
2025-03-08T1200,1402A,108.3141,22.8528,南宁市,北湖,,50,40,36,35,28,49,,52,47,20,16,6,7,0.6,0.6
2025-03-08T1200,1403A,108.3206,22.8225,南宁市,市监测站,,35,35,33,24,24,50,,55,51,22,19,7,7,0.8,0.8
2025-03-08T1200,1404A,108.3829,22.8037,南宁市,大自然花园,,40,33,34,28,26,60,,60,56,11,12,6,6,0.7,0.6
2025-03-08T1200,1405A,108.4394,22.7904,南宁市,仙葫,,38,32,33,26,26,54,,53,52,14,14,4,4,0.5,0.5
2025-03-08T1200,1406A,108.2397,22.8467,南宁市,区农职院,,43,35,37,30,26,56,,52,52,15,15,12,12,0.5,0.5
2025-03-08T1200,1407A,108.3275,22.735,南宁市,英华嘉园,,49,35,34,34,26,57,,58,55,14,14,7,7,0.6,0.5
2025-03-08T1200,3401A,108.4834,22.7618,南宁市,红星社区,,29,21,31,20,21,59,,57,57,7,9,8,9,0.6,0.6
2025-03-08T1200,4221A,108.2177,22.7774,南宁市,乐贤路16号,,42,42,42,28,26,47,,50,49,22,23,9,10,0.6,0.6
2025-03-08T1200,2331A,118.0966,26.6761,南平市,茫荡山,,,,,,,,,,,,,,,,
2025-03-08T1200,2332A,118.1681,26.6369,南平市,南平市监测站,,32,29,29,22,20,61,,57,57,8,9,5,4,0.6,0.5
2025-03-08T1200,2333A,118.1825,26.6489,南平市,南平铝业有限公司,,32,,23,22,25,59,,56,56,6,10,4,4,0.6,0.6
2025-03-08T1200,2334A,118.1756,26.6272,南平市,南平七中,,,24,22,21,21,53,,56,56,,13,6,6,,0.5
2025-03-08T1200,1168A,120.9098,31.9663,南通市,狼山街道,细颗粒物(PM2.5),90,97,53,67,34,93,,51,51,35,29,10,6,1.0,0.6
2025-03-08T1200,1169A,120.86,32.0005,南通市,虹桥,细颗粒物(PM2.5),97,90,53,72,37,88,,48,48,45,37,10,6,0.6,0.3
2025-03-08T1200,1170A,120.87,32.02,南通市,城中,,,85,57,58,33,,,54,49,25,31,,7,0.8,0.7
2025-03-08T1200,1171A,120.94,31.93,南通市,星湖花园,细颗粒物(PM2.5),73,85,46,53,31,107,,54,54,25,30,7,6,0.6,0.4
2025-03-08T1200,1172A,120.81,32.0417,南通市,紫琅学院,细颗粒物(PM2.5),83,86,50,61,31,111,,46,46,23,31,6,4,0.8,0.5
2025-03-08T1200,3291A,121.067,32.062,南通市,通州监测站,颗粒物(PM10),57,63,48,36,28,122,,64,64,14,18,5,16,0.6,0.5
2025-03-08T1200,3432A,120.9348,31.9883,南通市,环境教育馆,细颗粒物(PM2.5),80,78,52,59,38,127,,55,55,21,31,7,5,0.5,0.3
2025-03-08T1200,2404A,112.5224,33.0122,南阳市,瓦房庄,细颗粒物(PM2.5),100,101,102,75,77,98,,49,49,22,31,6,4,0.6,0.7
2025-03-08T1200,2405A,112.5003,32.9735,南阳市,汉画馆,细颗粒物(PM2.5),114,93,93,86,75,104,,36,36,16,35,5,4,0.6,0.6
2025-03-08T1200,2406A,112.5573,33.027,南阳市,气象站,细颗粒物(PM2.5),100,103,106,75,70,99,,55,55,19,30,5,4,0.6,0.7
2025-03-08T1200,2407A,112.5481,32.9689,南阳市,理工学院,细颗粒物(PM2.5),107,101,102,80,76,105,,42,42,15,34,6,3,0.6,0.7
2025-03-08T1200,4008A,112.5234,32.9922,南阳市,卧龙区政府,细颗粒物(PM2.5),112,104,105,84,78,102,,41,41,18,33,8,6,0.6,0.7
2025-03-08T1200,1234A,121.8358,29.911,宁波市,区环保大楼,颗粒物(PM10),69,87,68,41,36,109,,44,44,25,44,11,7,0.4,0.6
2025-03-08T1200,1235A,121.56,29.82,宁波市,万里学院,细颗粒物(PM2.5),67,69,59,48,37,91,,37,37,24,39,7,7,0.5,0.5
2025-03-08T1200,1236A,121.713,29.9572,宁波市,龙赛医院,细颗粒物(PM2.5),62,72,65,44,33,119,,39,39,9,38,7,7,0.6,0.7
2025-03-08T1200,1239A,121.633,29.7733,宁波市,钱湖水厂,细颗粒物(PM2.5),59,64,55,42,34,100,,38,38,29,30,7,6,0.7,0.7
2025-03-08T1200,1240A,121.5856,29.8635,宁波市,太古小学,细颗粒物(PM2.5),74,85,65,54,35,104,,38,38,24,42,9,8,0.6,0.7
2025-03-08T1200,1241A,121.524,29.8674,宁波市,市环境监测中心,细颗粒物(PM2.5),62,60,55,44,35,86,,32,32,27,47,7,7,0.5,0.5
2025-03-08T1200,2871A,121.6147,29.9017,宁波市,万里国际学校,细颗粒物(PM2.5),77,60,50,56,32,111,,33,33,22,44,9,7,0.4,0.5
2025-03-08T1200,3710A,121.5594,29.8975,宁波市,白沙活动中心,细颗粒物(PM2.5),67,62,53,48,30,111,,44,44,15,31,6,6,0.7,0.6
2025-03-08T1200,2339A,119.5001,26.6946,宁德市,金涵水库,,,,,,,,,,,,,,,,
2025-03-08T1200,2341A,119.5388,26.6612,宁德市,宁德市监测站,,32,32,29,19,25,56,,36,36,12,14,5,5,0.4,0.4
2025-03-08T1200,3209A,119.5231,26.6562,宁德市,宁德一中,,32,26,28,22,15,56,,34,34,12,14,4,5,0.3,0.3
2025-03-08T1200,2618A,98.8601,25.8567,怒江傈僳族自治州,州监测站,细颗粒物(PM2.5),57,61,53,40,35,57,,57,49,7,6,4,4,0.5,0.4
2025-03-08T1200,2619A,98.8546,25.8417,怒江傈僳族自治州,泸水一中,细颗粒物(PM2.5),67,56,44,48,34,42,,44,33,15,12,6,6,0.5,0.5
2025-03-08T1200,1888A,101.6891,26.571,攀枝花市,弄弄坪,细颗粒物(PM2.5),108,100,74,81,49,43,,18,18,44,32,30,17,2.1,1.4
2025-03-08T1200,1889A,101.5769,26.5928,攀枝花市,河门口,细颗粒物(PM2.5),82,76,79,60,51,51,,23,22,28,23,15,13,1.4,1.4
2025-03-08T1200,1890A,101.7169,26.585,攀枝花市,炳草岗,细颗粒物(PM2.5),93,104,67,69,47,28,,9,9,50,32,23,7,2.2,1.2
2025-03-08T1200,1891A,101.7369,26.5008,攀枝花市,仁和,细颗粒物(PM2.5),102,104,67,76,46,58,,22,22,42,28,31,12,2.9,1.2
2025-03-08T1200,2835A,101.7227,26.567,攀枝花市,四十中小,细颗粒物(PM2.5),75,89,60,55,32,51,,16,13,34,31,16,11,1.5,1.2
2025-03-08T1200,1604A,122.0303,41.1489,盘锦市,开发区,细颗粒物(PM2.5),67,,51,48,40,104,,88,88,14,16,14,12,0.6,0.5
2025-03-08T1200,1605A,122.0485,41.0883,盘锦市,兴隆台,细颗粒物(PM2.5),60,,50,43,39,103,,81,81,13,22,11,8,0.6,0.6
2025-03-08T1200,1606A,121.8297,41.1028,盘锦市,新生街道,细颗粒物(PM2.5),69,50,42,50,37,97,,76,76,17,20,11,10,0.8,0.7
2025-03-08T1200,1832A,113.3257,33.742,平顶山市,新华旅馆,细颗粒物(PM2.5),87,105,97,64,66,92,,68,56,21,22,5,4,0.5,0.4
2025-03-08T1200,1833A,113.2919,33.737,平顶山市,规划设计院,细颗粒物(PM2.5),89,102,103,66,73,93,,51,47,20,30,4,3,0.5,0.5
2025-03-08T1200,1834A,113.182,33.774,平顶山市,平顶山工学院,,,81,81,58,61,,,69,55,11,15,5,4,0.7,0.6
2025-03-08T1200,3204A,113.3025,33.73,平顶山市,规划局,细颗粒物(PM2.5),113,92,91,85,77,94,,62,52,20,29,4,4,0.6,0.6
2025-03-08T1200,3594A,112.8867,33.9116,平顶山市,石龙区,颗粒物(PM10),69,88,99,49,56,103,,38,38,18,47,9,5,0.8,0.5
2025-03-08T1200,2656A,106.6692,35.5461,平凉市,聚贤嘉苑,颗粒物(PM10),69,87,93,38,34,70,,29,29,18,37,16,12,0.3,0.3
2025-03-08T1200,2657A,106.7021,35.5307,平凉市,博物馆,颗粒物(PM10),74,97,96,43,42,70,,28,28,18,34,14,14,0.6,0.9
2025-03-08T1200,2347A,114.0997,27.5002,萍乡市,武功山,,22,21,15,15,19,60,,31,31,5,6,8,7,0.4,0.4
2025-03-08T1200,2348A,113.8385,27.6434,萍乡市,中医院,颗粒物(PM10),54,57,46,36,34,56,,27,27,15,24,8,7,0.6,0.7
2025-03-08T1200,2349A,113.8493,27.6253,萍乡市,市政府车库,细颗粒物(PM2.5),65,54,42,47,33,52,,22,22,21,25,8,6,0.9,0.8
2025-03-08T1200,2350A,113.8676,27.6435,萍乡市,市环保局,细颗粒物(PM2.5),52,48,44,36,35,53,,24,24,18,28,6,5,0.4,0.6
2025-03-08T1200,2351A,113.866,27.6198,萍乡市,安源区政府,颗粒物(PM10),58,65,45,32,34,48,,16,16,22,18,11,7,1.3,0.9
2025-03-08T1200,2319A,119.0141,25.4325,莆田市,荔城区仓后路,,27,27,32,16,25,69,,36,36,16,19,3,3,0.5,0.6
2025-03-08T1200,2320A,119.0015,25.4553,莆田市,莆田市监测站,,36,36,30,19,22,69,,36,36,12,14,3,3,0.5,0.6
2025-03-08T1200,2321A,119.1119,25.4561,莆田市,涵江区六中,,,28,35,19,26,,,37,37,16,25,,2,0.8,0.8
2025-03-08T1200,2322A,119.1013,25.3215,莆田市,秀屿区政府,,48,47,30,33,29,87,,54,54,18,20,6,4,0.8,0.6
2025-03-08T1200,2323A,118.981,25.4792,莆田市,东圳水库,,,,,,,,,,,,,,,,
2025-03-08T1200,2392A,115.0312,35.7636,濮阳市,环保局,细颗粒物(PM2.5),93,75,55,69,48,112,,76,76,12,13,8,4,1.0,0.6
2025-03-08T1200,2394A,115.0574,35.7609,濮阳市,油田运输公司,细颗粒物(PM2.5),97,94,78,72,48,119,,57,57,16,21,9,4,1.2,0.8
2025-03-08T1200,3021A,115,35.7668,濮阳市,濮水河管理处,细颗粒物(PM2.5),68,73,77,49,42,110,,65,65,16,20,10,5,1.0,0.7
2025-03-08T1200,4216A,115.0924,35.7686,濮阳市,任丘路479号,细颗粒物(PM2.5),97,88,77,72,52,117,,64,64,22,21,11,5,1.3,0.9
2025-03-08T1200,2601A,100.98,22.7633,普洱市,市环保局,颗粒物(PM10),58,66,60,17,18,80,,59,57,7,8,4,4,0.9,0.8
2025-03-08T1200,2602A,100.9817,22.8322,普洱市,普洱第二中学,颗粒物(PM10),57,63,54,39,24,62,,54,52,9,8,5,5,0.7,0.7
2025-03-08T1200,2262A,131.0518,45.8751,七台河市,新一中,,34,34,22,22,14,80,,74,74,11,9,13,13,0.8,0.5
2025-03-08T1200,3345A,131.0577,45.7879,七台河市,中波台,,46,46,33,23,16,61,,62,62,20,16,10,8,0.4,0.3
2025-03-08T1200,3637A,131.0176,45.7761,七台河市,人民广场,颗粒物(PM10),52,53,39,33,25,62,,64,61,20,16,12,10,0.6,0.5
2025-03-08T1200,3684A,130.8781,45.8222,七台河市,新建矿广场,,46,44,40,32,26,68,,60,60,17,20,11,10,0.5,0.5
2025-03-08T1200,1779A,123.9305,47.3636,齐齐哈尔市,安居小区,,42,38,54,29,41,91,,80,76,13,20,8,8,0.4,0.4
2025-03-08T1200,1780A,123.9488,47.3386,齐齐哈尔市,中心广场,颗粒物(PM10),51,51,65,26,40,86,,78,70,19,22,7,6,0.6,0.6
2025-03-08T1200,1781A,123.9483,47.3227,齐齐哈尔市,农牧车辆厂,,48,48,51,25,38,88,,84,75,22,21,7,8,0.4,0.4
2025-03-08T1200,1783A,123.945,47.2988,齐齐哈尔市,市环境监测站,,49,49,60,27,42,86,,83,74,20,22,6,6,0.6,0.6
2025-03-08T1200,3662A,123.6333,47.2075,齐齐哈尔市,富区青少年活动中心,,44,44,51,23,29,88,,74,74,8,12,9,7,0.4,0.4
2025-03-08T1200,2591A,107.9783,26.5747,黔东南苗族侗族自治州,市环境监测站,,35,30,25,24,21,49,,54,47,14,10,4,3,0.6,0.5
2025-03-08T1200,2881A,107.8908,26.5311,黔东南苗族侗族自治州,凯里学院,,28,22,18,19,18,59,,50,48,10,10,3,3,0.7,0.8
2025-03-08T1200,2593A,107.5228,26.2403,黔南布依族苗族自治州,小围寨,,20,17,15,14,13,48,,40,40,12,7,4,4,0.5,0.6
2025-03-08T1200,3538A,107.5175,26.2978,黔南布依族苗族自治州,沙坝,,25,19,19,17,15,55,,43,42,10,10,5,4,0.5,0.5
2025-03-08T1200,2589A,104.9022,25.0925,黔西南布依族苗族自治州,场坝街,,39,39,34,21,23,61,,70,65,7,8,4,5,0.4,0.4
2025-03-08T1200,2590A,104.8811,25.0992,黔西南布依族苗族自治州,坪东大道,,46,42,34,32,25,50,,64,58,12,10,3,4,0.3,0.3
2025-03-08T1200,2502A,108.6236,21.9667,钦州市,市环保站,,36,36,50,22,29,51,,44,44,16,18,6,6,1.0,1
2025-03-08T1200,2503A,108.6549,21.9481,钦州市,沙埠小学,,46,33,44,32,36,54,,46,46,15,18,6,7,0.8,0.8
2025-03-08T1200,2504A,108.5989,21.7431,钦州市,港区一小,颗粒物(PM10),52,53,49,29,30,49,,44,42,23,23,8,8,0.8,0.8
2025-03-08T1200,3404A,108.5959,21.9633,钦州市,北职校,,45,33,39,31,37,52,,47,47,16,18,6,7,0.8,0.8
2025-03-08T1200,1043A,119.7493,40.0116,秦皇岛市,第一关,细颗粒物(PM2.5),74,88,56,54,42,90,,36,36,33,42,17,7,1.0,0.7
2025-03-08T1200,1044A,119.5897,39.9499,秦皇岛市,监测站,细颗粒物(PM2.5),75,81,56,55,30,101,,64,63,21,24,12,7,1.1,0.6
2025-03-08T1200,1046A,119.5251,39.9041,秦皇岛市,建设大厦,细颗粒物(PM2.5),75,98,54,55,38,96,,75,75,24,26,11,9,0.9,0.7
2025-03-08T1200,3132A,119.610547,39.943889,秦皇岛市,文明里,颗粒物(PM10),67,84,52,42,26,96,,69,69,29,28,12,8,1.0,0.6
2025-03-08T1200,4198A,119.5090,39.8253,秦皇岛市,北戴河轮滑馆,细颗粒物(PM2.5),72,82,48,52,31,86,,77,77,28,22,14,8,1.5,0.7
2025-03-08T1200,1307A,120.6659,36.2403,青岛市,仰口,细颗粒物(PM2.5),103,90,52,77,42,131,,121,121,21,14,7,5,0.4,0.3
2025-03-08T1200,1310A,120.4134,36.0658,青岛市,市南区东部子站,细颗粒物(PM2.5),98,134,66,73,37,91,,85,73,45,20,14,9,1.0,0.6
2025-03-08T1200,1311A,120.3664,36.1032,青岛市,四方区子站,细颗粒物(PM2.5),94,105,60,70,42,115,,86,73,42,26,7,4,0.8,0.7
2025-03-08T1200,1312A,120.2994,36.054,青岛市,市南区西部子站,细颗粒物(PM2.5),95,132,63,71,37,79,,79,64,56,28,12,7,1.1,0.7
2025-03-08T1200,1313A,120.4581,36.0858,青岛市,崂山区子站,细颗粒物(PM2.5),100,132,52,75,32,94,,87,72,41,17,14,10,1.1,0.6
2025-03-08T1200,1315A,120.3999,36.3083,青岛市,城阳区子站,"颗粒物(PM10),细颗粒物(PM2.5)",85,119,66,63,36,106,,84,77,46,36,11,9,1.0,0.8
2025-03-08T1200,1966A,120.0405,35.8735,青岛市,黄岛区4号,细颗粒物(PM2.5),92,90,64,68,43,108,,88,88,39,26,12,9,0.9,0.7
2025-03-08T1200,3362A,120.5014,36.4034,青岛市,即墨2号,细颗粒物(PM2.5),114,127,75,86,51,108,,83,83,38,26,12,11,1.0,0.8
2025-03-08T1200,3642A,120.3503,36.0736,青岛市,市北区南部,细颗粒物(PM2.5),92,132,59,68,38,76,,73,60,57,23,12,8,1.0,0.7
2025-03-08T1200,3643A,120.3948,36.1805,青岛市,李沧区北部,细颗粒物(PM2.5),94,112,61,70,43,109,,78,71,41,34,14,11,0.8,0.7
