timepoint,stationcode,longitude,latitude,area,positionname,primarypollutant,aqi,pm10,pm10_24h,pm2_5,pm2_5_24h,o3,o3_24h,o3_8h,o3_8h_24h,no2,no2_24h,so2,so2_24h,co,co_24h
2025-03-08T0900,2566A,102.1879,31.914,阿坝藏族羌族自治州,州农科所,颗粒物(PM10),69,88,88,33,30,62,,74,71,18,6,10,8,0.2,0
2025-03-08T0900,2568A,102.2502,31.8896,阿坝藏族羌族自治州,马师校,,43,42,67,30,35,65,,85,81,16,9,4,4,0.4,0.4
2025-03-08T0900,3994A,102.2165,31.9024,阿坝藏族羌族自治州,马尔康中学西区,,46,44,58,32,28,77,,91,88,10,5,5,4,0.4,0.3
2025-03-08T0900,2695A,80.292,41.1694,阿克苏地区,电视台,细颗粒物(PM2.5),94,125,130,70,50,24,,24,19,47,33,4,4,1.1,0.9
2025-03-08T0900,2696A,80.2613,41.1551,阿克苏地区,艺术中心,颗粒物(PM10),85,119,129,43,43,39,,20,20,36,42,7,5,1.1,1.1
2025-03-08T0900,2204A,105.6467,38.8363,阿拉善盟,西城区西花园,颗粒物(PM10),57,63,187,21,39,102,,107,106,10,12,12,13,0.6,0.7
2025-03-08T0900,2205A,105.6985,38.8411,阿拉善盟,蒙二幼,颗粒物(PM10),65,79,191,26,42,94,,99,98,12,10,15,7,0.6,0.6
2025-03-08T0900,2206A,105.724,38.8516,阿拉善盟,环保局新楼,颗粒物(PM10),58,66,171,20,43,106,,105,105,4,6,8,8,0.9,0.9
2025-03-08T0900,2708A,88.1264,47.8517,阿勒泰地区,市站,颗粒物(PM10),52,53,37,11,9,69,,91,88,16,10,3,3,0.4,0.3
2025-03-08T0900,2630A,80.1161,32.5,阿里地区,阿里监测站,,25,6,13,3,4,79,,95,92,5,4,8,8,0.5,0.5
2025-03-08T0900,3192A,80.0903,32.5028,阿里地区,阿里藏医院,,27,15,16,3,11,85,,99,96,5,3,10,7,0.6,0.5
2025-03-08T0900,2642A,109.0318,32.6537,安康市,香溪洞,,36,35,44,25,28,27,,42,38,10,11,9,9,0.8,0.8
2025-03-08T0900,2644A,109.0072,32.6975,安康市,汉滨区检察院,,42,42,44,19,26,21,,27,26,16,19,13,9,0.5,0.5
2025-03-08T0900,4054A,109.0325,32.6913,安康市,市邮政管理局,,46,46,48,24,28,24,,28,27,16,20,11,10,0.6,0.6
2025-03-08T0900,2291A,117.0809,30.5177,安庆市,环科院,细颗粒物(PM2.5),62,59,62,44,45,58,,26,26,34,48,7,8,0.5,0.5
2025-03-08T0900,2292A,117.0331,30.5119,安庆市,马山宾馆,,,72,63,49,48,40,,18,18,,50,4,6,,0.3
2025-03-08T0900,2294A,116.9896,30.6145,安庆市,安庆大学,细颗粒物(PM2.5),67,67,57,48,36,62,,45,45,26,40,8,9,0.3,0.3
2025-03-08T0900,3173A,117.0598,30.5351,安庆市,市人大,细颗粒物(PM2.5),69,59,64,50,47,54,,24,24,33,47,7,7,0.5,0.6
2025-03-08T0900,3122A,105.9606,26.2611,安顺市,伍家关,,,,38,14,29,61,,57,57,14,15,6,13,0.4,0.5
2025-03-08T0900,3123A,105.9408,26.2431,安顺市,凤凰山,,21,21,37,14,35,60,,53,53,14,16,16,22,0.7,0.7
2025-03-08T0900,3124A,105.9439,26.2564,安顺市,金钟山,,26,26,39,15,40,60,,54,54,10,13,12,18,0.5,0.5
2025-03-08T0900,3125A,105.8983,26.2481,安顺市,娄家坡,,26,23,40,18,33,53,,51,51,14,14,13,17,0.6,0.7
2025-03-08T0900,1818A,114.4839,36.0621,安阳市,棉研所,,,,,,,,,,,,,,,,
2025-03-08T0900,1819A,114.3551,36.1017,安阳市,红庙街,细颗粒物(PM2.5),137,132,95,104,71,15,,20,16,39,25,11,6,1.4,0.5
2025-03-08T0900,1820A,114.361,36.0681,安阳市,银杏小区,细颗粒物(PM2.5),143,116,83,109,79,10,,20,16,47,31,4,4,1.2,0.6
2025-03-08T0900,3141A,114.3922,36.0878,安阳市,信访局,细颗粒物(PM2.5),139,108,88,106,78,22,,22,20,46,35,4,3,1.3,0.6
2025-03-08T0900,3669A,114.4705,36.0637,安阳市,左辅环卫站,细颗粒物(PM2.5),129,135,104,98,71,35,,45,41,44,29,3,3,0.9,0.5
2025-03-08T0900,3703A,114.2917,36.0949,安阳市,安钢职工学校,细颗粒物(PM2.5),122,118,90,92,79,20,,11,7,36,33,4,6,1.2,0.7
2025-03-08T0900,1748A,123.044,41.1196,鞍山市,深沟寺,细颗粒物(PM2.5),63,60,63,45,40,91,,90,90,18,21,11,16,0.7,0.8
2025-03-08T0900,1749A,123.011,41.0931,鞍山市,太阳城,细颗粒物(PM2.5),58,63,71,41,41,94,,93,93,17,21,11,13,0.8,0.9
2025-03-08T0900,1750A,123.0485,41.1442,鞍山市,太平,颗粒物(PM10),61,71,72,40,37,87,,87,87,25,27,10,15,0.7,0.8
2025-03-08T0900,1751A,122.9642,41.0971,鞍山市,铁西三道街,颗粒物(PM10),64,77,79,39,40,91,,75,75,25,35,10,23,0.9,1
2025-03-08T0900,1753A,123.022,41.0821,鞍山市,明达新区,,,54,62,36,37,,,95,95,14,18,7,15,0.7,0.8
2025-03-08T0900,1754A,123.1289,41.0228,鞍山市,千山,,,,56,,28,,,80,,,15,,8,,0.6
2025-03-08T0900,4201A,122.9446,41.0826,鞍山市,兴盛南路290号,颗粒物(PM10),63,75,91,42,47,87,,76,76,28,36,12,18,0.6,1
2025-03-08T0900,2195A,107.4212,40.761,巴彦淖尔市,附二中,颗粒物(PM10),101,152,101,31,28,35,,34,33,37,40,9,7,0.7,0.5
2025-03-08T0900,2196A,107.37,40.7372,巴彦淖尔市,市环保大楼,颗粒物(PM10),102,153,86,30,27,23,,40,36,41,23,6,5,0.5,0.2
2025-03-08T0900,1956A,86.1472,41.7538,巴音郭楞蒙古自治州,孔雀公园,颗粒物(PM10),103,155,352,46,54,1,,19,11,75,35,7,6,0.6,0.5
2025-03-08T0900,1957A,86.1972,41.7166,巴音郭楞蒙古自治州,棉纺厂,颗粒物(PM10),126,202,498,35,61,46,,43,43,28,21,4,3,0.4,0.5
2025-03-08T0900,1958A,86.2357,41.7173,巴音郭楞蒙古自治州,经济开发区,颗粒物(PM10),117,184,431,40,59,56,,53,53,26,21,7,5,0.5,0.4
2025-03-08T0900,2914A,106.7677,31.8794,巴中市,苏山坪,,33,30,28,23,20,50,,54,52,10,11,6,6,0.4,0.3
2025-03-08T0900,3181A,106.7768,31.8526,巴中市,市五中,,43,42,37,30,25,6,,14,12,31,21,5,4,0.7,0.5
2025-03-08T0900,3183A,106.7418,31.8654,巴中市,圣泉水务公司,,28,28,30,18,19,12,,21,21,26,24,6,6,0.5,0.5
2025-03-08T0900,3616A,106.7616,31.8344,巴中市,市中心医院,,40,33,34,28,26,6,,7,6,24,23,6,6,0.5,0.5
2025-03-08T0900,2235A,122.7911,45.6077,白城市,洮北区环保局,细颗粒物(PM2.5),69,65,75,50,41,79,,80,79,16,14,7,7,0.7,0.7
2025-03-08T0900,2236A,122.8738,45.5725,白城市,市环保局,细颗粒物(PM2.5),67,68,82,48,49,90,,91,91,8,8,6,7,0.5,0.5
2025-03-08T0900,2231A,126.4219,41.9171,白山市,喜丰,颗粒物(PM10),79,108,70,52,31,17,,14,13,47,32,13,9,1.2,0.8
2025-03-08T0900,2232A,126.4077,41.9419,白山市,环保局,颗粒物(PM10),65,80,61,38,31,22,,27,25,25,17,12,8,1.1,0.9
2025-03-08T0900,2647A,104.1724,36.5446,白银市,第三小学,颗粒物(PM10),87,124,107,60,52,33,,34,34,40,30,72,49,1.4,1
2025-03-08T0900,2648A,104.1465,36.5482,白银市,动力公司,细颗粒物(PM2.5),88,108,105,65,54,47,,47,47,30,22,46,29,0.9,0.7
2025-03-08T0900,2512A,106.6103,23.9011,百色市,市监测站,,25,,29,17,18,53,,61,60,10,14,7,8,0.6,0.6
2025-03-08T0900,2513A,106.6538,23.8859,百色市,市中心血站,,29,21,37,20,26,50,,61,58,13,13,8,13,0.6,0.6
2025-03-08T0900,3406A,106.6085,23.8798,百色市,祈福高中,,46,,34,32,20,51,,60,58,15,15,6,7,0.6,0.6
2025-03-08T0900,2270A,117.396,32.939,蚌埠市,工人疗养院,细颗粒物(PM2.5),77,90,87,56,61,71,,91,86,31,21,6,6,0.8,0.6
2025-03-08T0900,2271A,117.3605,32.9427,蚌埠市,百货大楼,细颗粒物(PM2.5),74,90,84,54,58,60,,73,68,41,30,7,6,0.7,0.6
2025-03-08T0900,2273A,117.4185,32.8911,蚌埠市,蚌埠学院,细颗粒物(PM2.5),92,83,82,68,62,55,,76,70,37,23,7,6,0.8,0.6
2025-03-08T0900,2274A,117.3533,32.9673,蚌埠市,淮上区政府,细颗粒物(PM2.5),98,100,88,73,65,48,,80,72,49,26,7,6,0.9,0.8
2025-03-08T0900,2275A,117.3145,32.8977,蚌埠市,高新区,细颗粒物(PM2.5),83,78,80,61,61,70,,84,80,36,24,9,8,0.7,0.6
2025-03-08T0900,3715A,117.3092,32.9314,蚌埠市,蚌埠田家炳中学,细颗粒物(PM2.5),77,82,84,56,61,74,,88,84,36,28,8,8,0.8,0.7
2025-03-08T0900,1585A,109.8756,40.6532,包头市,市环境监测站,颗粒物(PM10),57,64,57,38,27,18,,25,25,58,47,46,17,1.7,1
2025-03-08T0900,1587A,109.9991,40.5842,包头市,包头八中,细颗粒物(PM2.5),80,85,67,59,37,24,,14,14,46,47,111,22,1.9,0.9
2025-03-08T0900,1588A,109.8538,40.6821,包头市,青山宾馆,细颗粒物(PM2.5),59,61,60,42,37,17,,9,9,55,55,15,12,1.3,1
2025-03-08T0900,1589A,109.8642,40.6288,包头市,惠龙物流,颗粒物(PM10),56,62,61,32,29,24,,21,21,48,47,51,15,1.0,0.9
2025-03-08T0900,1590A,110.0377,40.5546,包头市,东河鸿龙湾,细颗粒物(PM2.5),59,66,66,42,29,25,,12,12,38,42,27,14,0.8,0.9
2025-03-08T0900,3283A,109.9154,40.5685,包头市,滨河大厦,,,67,57,45,30,,,8,8,37,45,22,18,0.8,0.8
2025-03-08T0900,3419A,109.9447,40.6261,包头市,包头市委党校,细颗粒物(PM2.5),69,86,58,50,28,19,,22,22,57,44,38,14,2.9,1.2
2025-03-08T0900,3683A,109.8331,40.6576,包头市,昆区政府,细颗粒物(PM2.5),70,74,66,51,35,23,,16,16,51,51,71,19,1.6,1
2025-03-08T0900,1930A,107.185,34.3063,宝鸡市,庙沟村,颗粒物(PM10),54,58,57,28,24,32,,55,52,24,11,6,6,0.3,0.3
2025-03-08T0900,1931A,107.0708,34.3017,宝鸡市,竹园沟,颗粒物(PM10),55,59,59,29,26,22,,20,20,22,22,6,6,0.5,0.5
2025-03-08T0900,1932A,107.1906,34.3672,宝鸡市,三陆医院,颗粒物(PM10),68,86,74,41,40,10,,15,14,35,34,10,6,0.9,0.6
2025-03-08T0900,1933A,107.1431,34.3547,宝鸡市,监测站,颗粒物(PM10),56,61,69,29,29,16,,19,18,25,22,8,7,0.7,0.6
2025-03-08T0900,1934A,107.1186,34.3739,宝鸡市,技工学校,"颗粒物(PM10),细颗粒物(PM2.5)",62,74,70,44,35,18,,29,26,21,17,37,11,0.9,0.6
2025-03-08T0900,1935A,107.3906,34.3528,宝鸡市,陈仓区环保局家属楼,颗粒物(PM10),76,102,84,48,45,9,,7,7,44,39,13,12,0.9,0.6
2025-03-08T0900,1936A,107.2058,34.3497,宝鸡市,文理学院,颗粒物(PM10),59,67,70,28,34,16,,22,21,27,24,6,6,0.5,0.4
2025-03-08T0900,1937A,107.2386,34.3622,宝鸡市,三迪小学,颗粒物(PM10),63,76,70,38,37,10,,15,14,35,31,9,6,0.7,0.6
2025-03-08T0900,1051A,115.493,38.8632,保定市,游泳馆,细颗粒物(PM2.5),140,124,105,107,89,27,,31,26,53,41,6,6,0.7,0.5
2025-03-08T0900,1052A,115.5213,38.8959,保定市,华电二区,细颗粒物(PM2.5),148,123,90,113,86,13,,32,27,49,34,12,7,1.1,0.9
2025-03-08T0900,1053A,115.4713,38.9108,保定市,接待中心,细颗粒物(PM2.5),162,152,107,123,92,18,,25,20,52,38,7,7,1.0,0.7
2025-03-08T0900,1054A,115.4612,38.8416,保定市,地表水厂,细颗粒物(PM2.5),140,147,120,107,88,23,,14,14,51,45,6,6,1.1,0.8
2025-03-08T0900,3581A,115.31981,38.95208,保定市,满城区生态环境分局,细颗粒物(PM2.5),134,127,104,102,85,28,,25,25,50,39,12,12,1.0,0.7
2025-03-08T0900,3582A,115.47694,38.76408,保定市,清苑区第二中学,细颗粒物(PM2.5),162,163,123,123,85,13,,12,9,55,46,8,8,1.1,0.7
2025-03-08T0900,3583A,115.62909,39.02311,保定市,徐水物探局,细颗粒物(PM2.5),147,129,97,112,82,12,,26,22,50,37,9,8,1.0,0.5
2025-03-08T0900,4004A,115.4202,38.8656,保定市,双鹰农机,细颗粒物(PM2.5),103,95,98,77,76,38,,19,18,36,41,123,19,1.1,0.8
2025-03-08T0900,4034A,115.5150,38.8590,保定市,植保所站,细颗粒物(PM2.5),148,129,104,113,90,10,,36,29,68,39,7,6,1.0,0.8
2025-03-08T0900,2594A,99.1678,25.1081,保山市,市环境监测站,细颗粒物(PM2.5),97,79,75,72,51,92,,110,106,16,12,5,5,0.7,0.5
2025-03-08T0900,2595A,99.1711,25.1328,保山市,市环保局,,,,80,,49,,,124,,,9,,7,,0.7
2025-03-08T0900,1866A,109.2262,21.588,北海市,牛尾岭水库,,,9,16,,19,30,,29,29,,,5,6,0.9,0.8
2025-03-08T0900,1867A,109.1436,21.4086,北海市,海滩公园,,23,23,26,10,18,50,,44,44,9,11,6,6,0.6,0.6
2025-03-08T0900,1868A,109.0981,21.4661,北海市,新市环保局,,20,,23,14,21,49,,46,46,9,11,4,5,0.8,0.8
2025-03-08T0900,1869A,109.1778,21.5233,北海市,北海工业园,,25,,29,17,22,46,,43,43,12,12,9,8,0.8,0.8
2025-03-08T0900,3400A,109.1911,21.4415,北海市,龙潭自来水厂,,20,,22,14,24,46,,39,39,11,11,6,6,0.7,0.7
2025-03-08T0900,1001A,116.3621,39.8784,北京市,万寿西宫,细颗粒物(PM2.5),120,117,104,91,78,21,,47,41,64,36,3,3,1.0,0.8
2025-03-08T0900,1002A,116.2202,40.2915,北京市,定陵,,,,,,,,,,,,,,,,
2025-03-08T0900,1003A,116.4174,39.9289,北京市,东四,细颗粒物(PM2.5),125,118,103,95,78,29,,40,34,54,34,6,6,0.8,0.7
2025-03-08T0900,1004A,116.4072,39.8863,北京市,天坛,细颗粒物(PM2.5),127,117,101,96,75,19,,22,20,47,28,3,5,1.0,0.8
2025-03-08T0900,1005A,116.462,39.9365,北京市,农展馆,细颗粒物(PM2.5),118,115,101,89,72,16,,28,24,70,43,7,7,0.9,0.7
2025-03-08T0900,1006A,116.3392,39.9295,北京市,官园,细颗粒物(PM2.5),124,117,109,94,82,24,,19,18,49,34,7,7,0.9,0.7
2025-03-08T0900,1007A,116.2878,39.9611,北京市,海淀万柳,细颗粒物(PM2.5),120,115,101,91,72,17,,11,9,49,43,3,4,1.1,0.9
2025-03-08T0900,1008A,116.6636,40.135,北京市,顺义新城,细颗粒物(PM2.5),100,111,104,75,69,27,,20,17,47,38,4,5,0.6,0.5
2025-03-08T0900,1009A,116.6275,40.3275,北京市,怀柔镇,细颗粒物(PM2.5),114,104,91,86,68,36,,47,44,38,30,3,4,0.8,0.7
2025-03-08T0900,1010A,116.2296,40.217,北京市,昌平镇,细颗粒物(PM2.5),115,124,111,87,71,21,,37,34,40,32,2,2,0.8,0.8
2025-03-08T0900,1011A,116.3966,39.9821,北京市,奥体中心,细颗粒物(PM2.5),119,116,106,90,72,22,,8,6,57,48,5,5,0.8,0.8
2025-03-08T0900,3281A,115.9718,40.4529,北京市,延庆夏都,细颗粒物(PM2.5),112,105,87,84,62,24,,23,19,25,30,5,5,0.7,0.6
2025-03-08T0900,3418A,116.8336,40.4095,北京市,密云新城,细颗粒物(PM2.5),107,102,93,80,65,25,,43,39,37,22,3,4,0.6,0.6
2025-03-08T0900,3671A,116.088,39.9726,北京市,门头沟三家店,细颗粒物(PM2.5),97,95,99,72,68,31,,24,24,25,32,4,4,0.4,0.5
2025-03-08T0900,3672A,116.1541,39.8204,北京市,丰台云岗,细颗粒物(PM2.5),117,117,122,88,72,69,,54,53,15,26,5,5,0.6,0.6
2025-03-08T0900,3673A,116.6804,39.9081,北京市,通州东关,细颗粒物(PM2.5),120,115,100,91,72,22,,45,38,69,40,7,7,0.7,0.5
2025-03-08T0900,3674A,115.9577,39.7603,北京市,房山燕山,细颗粒物(PM2.5),109,100,92,82,72,34,,41,38,20,23,1,3,0.6,0.6
2025-03-08T0900,3675A,116.4672,39.7733,北京市,大兴旧宫,细颗粒物(PM2.5),118,116,103,89,71,13,,22,18,52,24,3,3,0.7,0.5
2025-03-08T0900,3694A,115.986,40.4563,北京市,延庆石河营,细颗粒物(PM2.5),118,111,85,89,62,23,,17,15,25,29,4,4,0.9,0.7
2025-03-08T0900,3695A,116.6151,40.3053,北京市,怀柔新城,细颗粒物(PM2.5),113,101,92,85,69,47,,56,53,17,22,3,5,0.7,0.7
2025-03-08T0900,3696A,116.2545,39.8768,北京市,丰台小屯,细颗粒物(PM2.5),113,111,102,85,70,24,,5,5,46,47,1,2,0.6,0.6
2025-03-08T0900,3697A,116.84,40.3844,北京市,密云镇,细颗粒物(PM2.5),100,105,95,75,64,27,,23,23,35,31,3,4,0.7,0.6
2025-03-08T0900,4182A,116.1942,39.9158,北京市,八角北路9号,细颗粒物(PM2.5),108,106,102,81,70,42,,48,47,31,29,1,2,0.6,0.5
2025-03-08T0900,4194A,117.0790,40.1518,北京市,洳河巡河路,细颗粒物(PM2.5),95,81,84,71,65,37,,37,35,23,22,2,4,0.6,0.5
2025-03-08T0900,1761A,123.8275,41.3064,本溪市,大峪,,47,47,43,28,35,93,,85,85,18,16,10,10,0.6,0.6
2025-03-08T0900,1762A,123.7567,41.3325,本溪市,溪湖,颗粒物(PM10),53,56,51,32,25,101,,93,93,20,23,13,15,0.7,1
2025-03-08T0900,1763A,123.7169,41.3094,本溪市,彩屯,细颗粒物(PM2.5),73,91,61,53,36,85,,78,78,36,29,18,18,3.1,2
2025-03-08T0900,1764A,123.7669,41.2864,本溪市,东明,,49,49,54,29,30,99,,92,92,16,18,8,9,0.5,0.6
2025-03-08T0900,1765A,123.7992,41.2664,本溪市,新立屯,,43,37,33,30,23,115,,109,109,12,16,6,7,0.6,0.5
2025-03-08T0900,1766A,123.8142,41.3472,本溪市,威宁,颗粒物(PM10),68,85,58,39,30,77,,59,59,29,22,7,6,0.6,0.7
2025-03-08T0900,2587A,105.2864,27.3125,毕节市,八中,,26,,16,18,15,35,,49,46,15,10,7,8,0.8,0.6
2025-03-08T0900,2588A,105.31,27.2944,毕节市,师专,,15,13,18,10,15,43,,53,51,13,11,5,8,0.7,0.6
2025-03-08T0900,4263A,105.3688,27.3598,毕节市,工业大道,,22,16,17,15,15,29,,49,46,23,12,7,8,0.6,0.5
2025-03-08T0900,1629A,118.0018,37.3617,滨州市,第二水厂,细颗粒物(PM2.5),107,119,105,80,68,47,,40,40,35,36,13,14,0.4,0.4
2025-03-08T0900,1630A,117.9776,37.393,滨州市,北中新校,细颗粒物(PM2.5),98,117,112,73,71,70,,56,56,34,45,16,16,0.9,0.8
2025-03-08T0900,3514A,117.9378,37.3956,滨州市,中海酒店,细颗粒物(PM2.5),104,105,93,78,71,76,,69,67,28,31,10,15,0.6,0.7
2025-03-08T0900,3515A,117.9378,37.3553,滨州市,开发区一中,细颗粒物(PM2.5),107,119,107,80,64,47,,36,36,56,57,12,16,0.5,0.6
2025-03-08T0900,3516A,118.0917,37.694,滨州市,金海六路,细颗粒物(PM2.5),107,120,98,80,59,35,,41,41,46,41,12,13,0.8,0.8
2025-03-08T0900,4028A,117.9956,37.3753,滨州市,滨州市西街道办事处,细颗粒物(PM2.5),110,122,107,83,77,63,,50,50,33,36,19,14,1.0,0.8
2025-03-08T0900,2311A,115.8072,33.8399,亳州市,污水处理厂,细颗粒物(PM2.5),75,98,72,55,43,60,,75,70,32,22,5,4,0.7,0.4
2025-03-08T0900,2312A,115.7789,33.8518,亳州市,三国揽胜宫,"颗粒物(PM10),细颗粒物(PM2.5)",80,110,76,59,43,65,,78,74,27,16,6,5,0.5,0.3
2025-03-08T0900,3332A,115.7633,33.8034,亳州市,亳州学院,细颗粒物(PM2.5),89,94,67,66,45,69,,86,82,31,19,7,5,0.6,0.4
2025-03-08T0900,2693A,82.0485,44.8556,博尔塔拉蒙古自治州,市党校,,32,29,32,22,24,81,,62,62,13,17,8,8,0,0.2
2025-03-08T0900,2694A,82.0806,44.8969,博尔塔拉蒙古自治州,市环保局,,43,43,40,18,22,77,,81,80,18,20,1,2,0.6,0.5
2025-03-08T0900,1071A,116.8842,38.2991,沧州市,沧县城建局,细颗粒物(PM2.5),120,106,106,91,85,21,,27,25,49,30,5,6,0.9,0.7
2025-03-08T0900,1072A,116.8584,38.3254,沧州市,电视转播站,细颗粒物(PM2.5),117,113,95,88,80,24,,14,12,39,31,5,6,0.7,0.6
2025-03-08T0900,1073A,116.8709,38.3228,沧州市,市环保局,细颗粒物(PM2.5),115,90,98,87,77,21,,24,21,42,28,8,9,0.8,0.6
2025-03-08T0900,3324A,116.8136,38.3004,沧州市,河北水利电力学院,细颗粒物(PM2.5),115,112,102,87,75,10,,34,25,51,29,8,9,0.9,0.6
2025-03-08T0900,2622A,97.1806,31.1273,昌都市,昌都监测站,,20,14,25,13,16,62,,67,66,6,8,6,6,0.9,1
2025-03-08T0900,3719A,97.1714,31.1406,昌都市,昌都会议中心,,24,15,21,14,15,74,,81,79,3,4,2,3,0.4,0.4
2025-03-08T0900,2690A,88.1236,43.8886,昌吉回族自治州,天山天池,,,44,19,,14,91,,93,93,6,4,6,6,0.5,0.4
2025-03-08T0900,2692A,87.2717,44.0297,昌吉回族自治州,新区政务中心,,38,38,59,20,34,55,,80,76,35,15,5,5,0.5,0.6
2025-03-08T0900,3613A,87.3095,44.0142,昌吉回族自治州,亚心广场,颗粒物(PM10),52,53,71,27,55,56,,74,71,40,21,6,6,0.5,0.4
2025-03-08T0900,1119A,125.3325,43.9166,长春市,食品厂,细颗粒物(PM2.5),85,90,59,63,36,64,,71,69,30,25,15,11,0.7,0.4
2025-03-08T0900,1120A,125.2863,43.9027,长春市,客车厂,细颗粒物(PM2.5),90,88,58,67,41,62,,68,67,31,25,14,10,0.9,0.6
2025-03-08T0900,1121A,125.2841,43.8463,长春市,邮电学院,细颗粒物(PM2.5),83,90,56,61,36,64,,72,69,34,26,20,17,0.9,0.6
2025-03-08T0900,1122A,125.3716,43.8772,长春市,劳动公园,细颗粒物(PM2.5),75,81,53,55,29,66,,77,74,31,21,17,11,0.6,0.3
2025-03-08T0900,1123A,125.3297,43.8805,长春市,园林处,细颗粒物(PM2.5),75,78,54,55,35,65,,75,72,28,20,16,11,0.7,0.4
2025-03-08T0900,1124A,125.4605,43.79,长春市,净月潭,细颗粒物(PM2.5),67,72,41,48,26,70,,74,73,24,10,13,9,0.8,0.4
2025-03-08T0900,1125A,125.7194,43.515,长春市,甩湾子,,,,,,,,,,,,,,,,
2025-03-08T0900,1126A,125.3863,43.8447,长春市,经开区环卫处,细颗粒物(PM2.5),70,86,48,51,28,67,,72,71,25,16,13,8,0.7,0.5
2025-03-08T0900,1127A,125.245,43.7783,长春市,高新区管委会,细颗粒物(PM2.5),83,78,47,61,32,68,,74,72,28,22,14,10,0.8,0.5
2025-03-08T0900,1128A,125.1761,43.8325,长春市,岱山公园,细颗粒物(PM2.5),92,82,60,68,38,66,,70,69,26,30,13,9,0.8,0.5
2025-03-08T0900,1335A,113.0833,28.2325,长沙市,经开区环保局,,50,50,43,33,29,8,,17,14,43,38,5,4,0.6,0.6
2025-03-08T0900,1336A,112.8872,28.2189,长沙市,高开区环保局,,42,39,50,29,36,36,,28,28,28,26,5,4,0.6,0.6
2025-03-08T0900,1337A,113.0792,28.2053,长沙市,马坡岭,细颗粒物(PM2.5),52,48,42,36,29,22,,23,23,23,28,5,4,0.6,0.5
2025-03-08T0900,1338A,112.9394,28.19,长沙市,湖南师范大学,,39,39,46,27,31,36,,29,29,24,20,6,5,0.6,0.6
2025-03-08T0900,1339A,113.0178,28.1322,长沙市,雨花区环保局,,43,42,41,30,28,25,,28,27,28,28,6,5,0.5,0.5
2025-03-08T0900,1340A,112.9792,28.2597,长沙市,伍家岭,,,53,59,,20,12,,3,3,38,35,3,3,0.6,0.6
2025-03-08T0900,1341A,113.0014,28.1944,长沙市,火车新站,,42,41,47,29,38,30,,26,26,31,37,7,6,0.7,0.8
2025-03-08T0900,1342A,112.9844,28.1178,长沙市,天心区环保局,,40,32,40,28,32,37,,35,35,33,37,3,2,0.8,0.8
2025-03-08T0900,1343A,112.8908,28.1308,长沙市,湖南中医药大学,颗粒物(PM10),52,54,50,28,36,20,,4,4,31,34,4,3,0.7,0.8
2025-03-08T0900,1344A,112.9581,28.3611,长沙市,沙坪,细颗粒物(PM2.5),59,42,42,42,39,26,,21,21,20,25,6,5,0.8,0.7
2025-03-08T0900,1727A,113.1147,36.1547,长治市,清华站,细颗粒物(PM2.5),62,54,51,44,45,9,,16,13,38,26,7,8,1.9,1
2025-03-08T0900,1730A,113.0886,36.2125,长治市,审计局,细颗粒物(PM2.5),77,,47,56,50,20,,24,20,28,25,5,5,2.2,1
2025-03-08T0900,1731A,113.0844,36.1856,长治市,长治八中,细颗粒物(PM2.5),82,69,60,60,57,19,,15,13,29,26,6,6,2.0,0.7
2025-03-08T0900,2845A,113.1569,36.1911,长治市,德盛苑,细颗粒物(PM2.5),52,40,49,36,44,22,,40,35,30,21,3,3,2.1,1
2025-03-08T0900,3568A,113.06,36.0464,长治市,向阳小学,细颗粒物(PM2.5),92,111,73,68,57,8,,38,33,29,16,6,7,1.1,0.7
2025-03-08T0900,3569A,112.8792,36.3144,长治市,屯留一中,细颗粒物(PM2.5),92,75,54,68,48,20,,13,13,31,33,10,8,1.0,0.9
2025-03-08T0900,4189A,113.1131,36.19948,长治市,英华南巷50号,细颗粒物(PM2.5),83,,50,61,49,16,,16,15,33,28,6,7,2.2,0.9
2025-03-08T0900,4190A,113.2367,36.3344,长治市,学府街1号,细颗粒物(PM2.5),122,105,62,92,39,30,,13,13,31,39,12,3,2.4,1.3
2025-03-08T0900,1854A,111.6975,28.9703,常德市,市二中,,39,39,59,9,38,33,,47,44,19,18,12,5,0.5,0.5
2025-03-08T0900,1857A,111.7158,29.1456,常德市,白鹤山,,,,,,,,,,,,,,,,
2025-03-08T0900,3138A,111.7153,29.0289,常德市,武陵区永安,,47,47,68,31,53,28,,41,38,20,16,4,5,0.6,0.6
2025-03-08T0900,3139A,111.6892,28.9881,常德市,鼎城区玉霞,,50,50,62,29,47,25,,39,35,26,19,5,4,0.5,0.5
2025-03-08T0900,3140A,111.6625,29.0531,常德市,武陵区长庚,,47,47,69,24,50,24,,40,38,22,15,5,4,0.5,0.5
2025-03-08T0900,1196A,119.9633,31.762,常州市,市监测站,细颗粒物(PM2.5),102,107,90,76,55,23,,21,21,67,50,8,7,0.8,0.7
2025-03-08T0900,1200A,119.9468,31.7069,常州市,武进监测站,细颗粒物(PM2.5),103,98,70,77,50,40,,19,19,55,43,8,4,1.4,0.9
2025-03-08T0900,1201A,119.9255,31.9087,常州市,安家,细颗粒物(PM2.5),85,96,73,63,49,30,,16,16,55,55,9,9,0.7,0.7
2025-03-08T0900,3002A,119.9805,31.8174,常州市,行政中心,细颗粒物(PM2.5),94,90,66,70,46,36,,30,30,46,41,10,10,0.6,0.6
2025-03-08T0900,3003A,120.0522,31.7748,常州市,经开区,细颗粒物(PM2.5),105,100,77,79,47,33,,23,23,60,49,10,9,0.6,0.6
2025-03-08T0900,3010A,119.9025,31.7964,常州市,钟楼,细颗粒物(PM2.5),94,100,74,70,48,42,,25,25,46,40,10,8,0.9,0.6
2025-03-08T0900,3429A,119.8598,31.7066,常州市,武进经发区,细颗粒物(PM2.5),103,116,83,77,57,30,,10,10,71,56,12,8,1.5,0.8
2025-03-08T0900,3430A,119.5826,31.7245,常州市,金坛城区,细颗粒物(PM2.5),99,113,87,74,55,35,,34,30,48,35,8,8,0.9,0.7
2025-03-08T0900,2220A,120.4318,41.5881,朝阳市,西梁,细颗粒物(PM2.5),94,124,62,70,35,46,,60,56,43,22,27,11,1.6,0.9
2025-03-08T0900,2221A,120.4521,41.5646,朝阳市,河畔小区,细颗粒物(PM2.5),77,80,52,56,28,70,,72,70,30,19,25,10,1.4,0.8
2025-03-08T0900,2222A,120.4176,41.5648,朝阳市,八里堡,细颗粒物(PM2.5),87,96,66,64,36,36,,54,50,49,23,34,19,1.6,0.9
2025-03-08T0900,2223A,120.3806,41.5969,朝阳市,农业园区,细颗粒物(PM2.5),120,92,65,91,43,46,,69,64,47,23,21,14,1.4,0.9
2025-03-08T0900,1705A,116.6367,23.6719,潮州市,西园路,,16,16,11,9,9,26,,23,23,9,10,3,3,0.1,0.1
2025-03-08T0900,3026A,116.6183,23.6608,潮州市,市政府,,30,30,17,9,8,26,,23,23,13,15,3,3,0.4,0.5
2025-03-08T0900,4036A,116.6461,23.6761,潮州市,金山,,15,14,13,10,11,22,,20,20,10,11,5,5,0.6,0.7
2025-03-08T0900,2472A,113.0073,25.9061,郴州市,马头岭,颗粒物(PM10),52,54,56,29,30,24,,26,26,32,20,11,8,0.7,0.7
2025-03-08T0900,2473A,113.0116,25.8226,郴州市,市职中,细颗粒物(PM2.5),59,46,50,42,43,22,,14,14,22,22,5,4,0.8,0.7
2025-03-08T0900,2475A,113.0383,25.8071,郴州市,市审计局,细颗粒物(PM2.5),65,50,53,47,47,25,,14,14,20,22,4,4,0.8,0.7
2025-03-08T0900,2476A,113.0348,25.7759,郴州市,市环保局,细颗粒物(PM2.5),78,57,56,57,53,20,,9,9,19,24,4,4,0.7,0.7
2025-03-08T0900,4252A,113.0138,25.8011,郴州市,好美居路49号,细颗粒物(PM2.5),74,60,64,54,53,19,,9,9,27,26,7,6,0.7,0.7
2025-03-08T0900,1431A,103.9728,30.7236,成都市,金泉两河,,34,34,47,3,16,21,,33,31,26,23,2,2,0.6,0.5
2025-03-08T0900,1432A,104.176,30.6872,成都市,十里店,,43,39,38,30,21,13,,44,41,39,33,2,2,0.6,0.6
2025-03-08T0900,1433A,104.079,30.5706,成都市,三瓦窑,,42,39,40,29,20,12,,38,34,46,42,3,3,0.6,0.6
2025-03-08T0900,1434A,104.1114,30.63,成都市,沙河铺,,35,32,40,24,29,22,,36,34,23,25,4,4,0.6,0.6
2025-03-08T0900,1437A,104.0786,30.6531,成都市,君平街,,30,27,42,21,29,44,,46,46,24,32,5,5,0.6,0.6
2025-03-08T0900,1438A,103.613,31.0283,成都市,灵岩寺,,,,,,,,,,,,,,,,
2025-03-08T0900,2880A,104.0239,30.65639,成都市,大石西路,,27,27,44,18,24,37,,41,40,26,31,4,4,0.6,0.6
2025-03-08T0900,3136A,104.2725,30.5589,成都市,龙泉驿区区政府,,42,29,28,29,22,30,,44,44,23,19,4,4,0.6,0.5
2025-03-08T0900,3357A,104.0106,30.6931,成都市,金博路,,29,,31,20,18,22,,37,35,30,25,6,5,0.8,0.6
2025-03-08T0900,3359A,104.0578,30.5225,成都市,华阳,,35,31,39,24,30,36,,41,39,22,29,4,5,0.6,0.6
2025-03-08T0900,3488A,104.3853,30.7453,成都市,青白江技师分院,颗粒物(PM10),52,54,37,32,25,4,,16,14,36,30,5,5,0.5,0.4
2025-03-08T0900,3489A,104.0789,30.4072,成都市,科学城,,29,25,32,20,25,34,,54,52,29,24,5,4,0.4,0.4
2025-03-08T0900,4011A,103.8506,30.6947,成都市,光华大道三段,,31,31,40,9,19,21,,37,33,30,28,4,4,0.6,0.6
2025-03-08T0900,4224A,104.2433,30.5353,成都市,鲸龙路1057号,,36,34,36,25,26,55,,48,48,16,23,4,4,0.6,0.6
2025-03-08T0900,1062A,117.9531,40.9081,承德市,铁路,细颗粒物(PM2.5),110,120,70,83,44,16,,37,32,56,33,7,7,0.9,0.6
2025-03-08T0900,1063A,117.9392,40.9763,承德市,中国银行,细颗粒物(PM2.5),88,115,67,65,44,31,,32,29,36,23,3,5,0.8,0.6
2025-03-08T0900,1064A,117.9503,40.928,承德市,开发区,细颗粒物(PM2.5),100,120,64,75,38,25,,34,32,53,28,6,7,1.0,0.6
2025-03-08T0900,1065A,117.8051,40.9655,承德市,文化中心,细颗粒物(PM2.5),102,126,88,76,50,24,,27,24,45,30,4,18,0.7,0.7
2025-03-08T0900,1066A,117.9268,41.0026,承德市,离宫,细颗粒物(PM2.5),107,91,69,80,52,37,,43,39,32,21,5,9,0.6,0.5
2025-03-08T0900,2314A,117.47,30.6618,池州市,池州学院,细颗粒物(PM2.5),64,62,54,46,41,54,,50,50,21,25,4,5,0.9,0.6
2025-03-08T0900,3237A,117.4918,30.6617,池州市,展览馆,细颗粒物(PM2.5),64,57,50,46,38,52,,48,48,24,25,5,5,1.0,0.7
2025-03-08T0900,3333A,117.5627,30.695,池州市,第八中学,细颗粒物(PM2.5),63,61,54,45,38,48,,40,40,23,22,4,5,0.8,0.6
2025-03-08T0900,3334A,117.5038,30.6243,池州市,第十二中学,细颗粒物(PM2.5),63,64,52,45,38,36,,50,47,32,23,6,6,1.4,0.8
2025-03-08T0900,1744A,118.9233,42.2816,赤峰市,松山一中,颗粒物(PM10),67,84,58,45,31,36,,36,32,54,36,27,15,1.3,0.9
2025-03-08T0900,1745A,118.9576,42.2728,赤峰市,哈达街,细颗粒物(PM2.5),85,114,54,63,34,22,,52,44,67,31,121,28,1.8,0.7
2025-03-08T0900,1746A,118.8788,42.2554,赤峰市,天义路,细颗粒物(PM2.5),94,88,56,70,40,16,,50,43,66,26,93,12,0.8,0.3
2025-03-08T0900,3058A,119.2658,42.0353,赤峰市,银河街,细颗粒物(PM2.5),73,83,90,53,62,37,,38,38,42,33,19,23,1.1,0.9
2025-03-08T0900,3286A,118.9359,42.3147,赤峰市,桥北物流园区,细颗粒物(PM2.5),92,85,55,68,43,39,,40,38,38,27,18,11,0.9,0.7
2025-03-08T0900,2521A,107.3476,22.4136,崇左市,市环保局江州分局,细颗粒物(PM2.5),54,55,44,38,29,50,,62,60,12,9,8,7,0.6,0.5
2025-03-08T0900,4256A,107.3750,22.3736,崇左市,石景林东路7号,细颗粒物(PM2.5),64,52,40,46,27,53,,66,64,16,12,6,6,0.6,0.5
2025-03-08T0900,2298A,118.3093,32.3153,滁州市,老年大学,细颗粒物(PM2.5),107,111,84,80,65,36,,24,24,42,32,7,7,0.9,0.8
2025-03-08T0900,2299A,118.3244,32.2786,滁州市,人大宾馆,细颗粒物(PM2.5),107,104,83,80,68,40,,34,34,50,35,10,9,0.8,0.8
2025-03-08T0900,3207A,118.3118,32.3038,滁州市,市政府原办公楼,细颗粒物(PM2.5),95,92,75,71,60,41,,32,32,51,39,7,7,0.7,0.7
2025-03-08T0900,3331A,118.3267,32.2634,滁州市,图书馆,细颗粒物(PM2.5),93,92,71,69,57,48,,50,49,45,36,9,8,0.7,0.7
2025-03-08T0900,2605A,101.5482,25.0441,楚雄彝族自治州,州环境监测站,,49,35,47,34,41,79,,79,79,8,12,6,6,0.8,0.9
2025-03-08T0900,2606A,101.538,25.0492,楚雄彝族自治州,市经济开发区,,49,41,52,34,41,72,,74,74,11,11,6,6,0.8,0.9
2025-03-08T0900,2548A,107.5277,31.2827,达州市,达州职业技术学院,颗粒物(PM10),51,52,45,24,21,7,,6,6,25,26,6,6,0.5,0.4
2025-03-08T0900,2549A,107.5086,31.2186,达州市,市环境监测站,,50,50,45,19,19,3,,5,4,36,37,6,6,0.7,0.7
2025-03-08T0900,2550A,107.4988,31.2132,达州市,凤凰小区,颗粒物(PM10),53,56,44,29,21,8,,9,9,36,35,7,8,0.5,0.4
2025-03-08T0900,2551A,107.5082,31.1986,达州市,达县机关宾馆,颗粒物(PM10),57,63,51,25,24,5,,5,5,37,36,6,6,0.7,0.7
2025-03-08T0900,2552A,107.4644,31.2124,达州市,市政中心,颗粒物(PM10),54,57,53,22,21,5,,4,4,39,40,2,2,0.7,0.6
2025-03-08T0900,2614A,100.1542,25.7054,大理白族自治州,大理市环境监测站,细颗粒物(PM2.5),65,65,58,47,38,113,,118,116,14,9,8,8,0.8,0.7
2025-03-08T0900,2615A,100.2171,25.5811,大理白族自治州,大理古城,细颗粒物(PM2.5),69,62,55,50,41,141,,134,134,10,8,9,9,0.9,0.7
2025-03-08T0900,1109A,121.612,38.9741,大连市,甘井子,细颗粒物(PM2.5),63,58,54,45,39,51,,66,60,41,31,8,8,0.7,0.7
2025-03-08T0900,1110A,121.565,38.9511,大连市,周水子,细颗粒物(PM2.5),73,62,56,53,46,34,,61,54,52,28,14,12,0.4,0.5
2025-03-08T0900,1111A,121.5637,38.8845,大连市,星海三站,细颗粒物(PM2.5),62,54,56,44,43,60,,73,69,17,16,7,9,0.8,0.8
2025-03-08T0900,1112A,121.6302,38.9117,大连市,青泥洼桥,细颗粒物(PM2.5),67,65,59,48,42,35,,66,59,25,13,8,9,0.7,0.6
2025-03-08T0900,1113A,121.6251,38.8638,大连市,傅家庄,细颗粒物(PM2.5),57,56,52,40,39,53,,62,58,22,23,6,7,0.5,0.6
2025-03-08T0900,1114A,121.5213,38.8661,大连市,七贤岭,细颗粒物(PM2.5),62,63,63,44,40,40,,62,56,30,19,8,9,0.7,0.6
2025-03-08T0900,1115A,121.2529,38.8061,大连市,旅顺,细颗粒物(PM2.5),60,50,54,43,44,59,,72,70,27,22,6,6,0.6,0.6
2025-03-08T0900,1116A,121.7485,39.1311,大连市,金州,细颗粒物(PM2.5),89,99,77,66,48,52,,66,59,32,32,13,14,0.8,0.7
2025-03-08T0900,1117A,121.7811,39.0496,大连市,开发区,细颗粒物(PM2.5),67,67,67,48,44,42,,62,55,35,30,7,8,1.0,0.9
2025-03-08T0900,1118A,121.9762,39.0631,大连市,双D港,细颗粒物(PM2.5),90,,57,67,51,46,,62,56,30,21,8,9,0.6,0.6
2025-03-08T0900,1789A,124.81117,46.03138,大庆市,大同区,,48,48,64,33,36,57,,49,49,16,16,6,6,0.7,0.6
2025-03-08T0900,1790A,125.129,46.533,大庆市,龙凤区,,44,44,40,30,27,70,,70,70,19,11,8,7,0.4,0.4
2025-03-08T0900,1791A,124.902,46.408,大庆市,红岗区,,45,45,42,28,29,65,,63,62,25,14,10,6,0.5,0.4
2025-03-08T0900,1792A,125.153,46.586,大庆市,萨尔图区,,49,49,45,26,27,72,,76,75,19,13,7,6,0.4,0.3
2025-03-08T0900,1793A,124.9042,46.6215,大庆市,让胡路区,细颗粒物(PM2.5),52,48,40,36,31,68,,65,65,22,15,9,8,0.7,0.6
2025-03-08T0900,3481A,125.141,46.634,大庆市,萨区政府监测点,,43,43,45,27,26,79,,77,77,10,11,8,7,0.5,0.5
2025-03-08T0900,1721A,113.3819,40.1097,大同市,果树场,细颗粒物(PM2.5),99,75,70,74,66,18,,23,22,33,32,13,9,1.0,0.7
2025-03-08T0900,1723A,113.2994,40.0758,大同市,云冈宾馆,细颗粒物(PM2.5),78,85,87,57,56,23,,25,24,34,30,11,9,1.2,0.7
2025-03-08T0900,1724A,113.3444,40.0917,大同市,大同大学,细颗粒物(PM2.5),82,82,73,60,59,13,,25,21,41,29,17,10,1.1,0.8
2025-03-08T0900,1725A,113.2661,40.1269,大同市,安家小村,细颗粒物(PM2.5),102,105,91,76,65,29,,31,30,33,32,22,9,3.2,1.1
2025-03-08T0900,1726A,113.2711,40.0844,大同市,教育学院,细颗粒物(PM2.5),110,117,85,83,64,23,,16,16,37,34,17,8,2.1,0.9
2025-03-08T0900,3282A,113.3397,40.0597,大同市,大同市卫生学校,细颗粒物(PM2.5),68,75,81,49,58,23,,26,25,34,28,12,8,0.8,0.7
2025-03-08T0900,3565A,113.1367,40.1122,大同市,云冈站,细颗粒物(PM2.5),94,97,83,70,60,20,,9,9,30,30,30,18,0.9,0.7
2025-03-08T0900,3566A,113.1186,40.2556,大同市,图书馆,细颗粒物(PM2.5),119,,66,90,53,19,,12,12,24,26,8,10,2.0,0.9
2025-03-08T0900,3567A,113.5931,40.0461,大同市,区一中,细颗粒物(PM2.5),102,151,75,76,37,33,,30,29,31,23,21,17,1.2,0.6
2025-03-08T0900,4199A,113.2798,40.0997,大同市,魏都大道141号,细颗粒物(PM2.5),103,111,88,77,61,22,,19,19,34,30,18,12,2.3,1
2025-03-08T0900,2269A,124.1069,50.4097,大兴安岭地区,科技局,,30,25,29,21,22,64,,64,63,5,6,4,6,0.5,0.4
2025-03-08T0900,3663A,124.1164,50.4278,大兴安岭地区,红旗社区,颗粒物(PM10),51,51,24,31,17,46,,41,41,26,18,9,7,0.7,0.5
2025-03-08T0900,1600A,124.3303,40.0625,丹东市,江湾东路,细颗粒物(PM2.5),60,66,91,43,71,70,,38,38,16,25,18,17,0.8,1.3
2025-03-08T0900,1601A,124.4256,40.1503,丹东市,临江后街,细颗粒物(PM2.5),72,78,82,52,51,58,,43,43,23,24,15,12,1.1,1.3
2025-03-08T0900,1602A,124.3933,40.1461,丹东市,元宝山,细颗粒物(PM2.5),65,67,73,47,51,56,,50,50,23,24,12,12,0.8,1.1
2025-03-08T0900,1603A,124.3633,40.1092,丹东市,民主桥,颗粒物(PM10),62,73,77,42,58,37,,27,27,45,33,11,10,1.3,1.2
2025-03-08T0900,3541A,109.5726,19.5167,儋州市,第一中学子站,,8,6,5,3,4,25,,38,36,9,8,3,3,0.8,0.8
2025-03-08T0900,3542A,109.5567,19.5187,儋州市,东坡学校子站,,8,,8,3,5,24,,38,36,13,10,2,4,0.8,0.8
2025-03-08T0900,2616A,98.5842,24.428,德宏傣族景颇族自治州,德宏州监测站,细颗粒物(PM2.5),110,102,113,83,76,18,,36,32,46,32,9,10,1.1,0.9
2025-03-08T0900,3677A,98.5881,24.4368,德宏傣族景颇族自治州,芒市人民政府综合楼,细颗粒物(PM2.5),107,95,119,80,69,40,,75,68,26,17,7,9,1.1,0.8
2025-03-08T0900,1901A,104.4239,31.1208,德阳市,东山公园,细颗粒物(PM2.5),65,53,42,47,30,23,,14,14,24,26,3,2,0.7,0.6
2025-03-08T0900,1902A,104.3826,31.1317,德阳市,西小区,细颗粒物(PM2.5),59,49,56,42,38,30,,18,18,29,34,4,4,0.6,0.6
2025-03-08T0900,1904A,104.3553,31.1091,德阳市,耐火材料厂,细颗粒物(PM2.5),64,67,56,46,36,9,,8,8,44,36,8,7,0.6,0.4
2025-03-08T0900,3639A,104.4019,31.1244,德阳市,市教育局,细颗粒物(PM2.5),57,48,43,40,31,28,,16,16,30,33,4,4,0.7,0.6
2025-03-08T0900,1622A,116.3032,37.4674,德州市,儿童乐园,细颗粒物(PM2.5),110,124,111,83,75,50,,63,58,48,34,9,8,0.9,0.8
2025-03-08T0900,1624A,116.2991,37.4451,德州市,监理站,细颗粒物(PM2.5),113,114,99,85,73,54,,60,56,39,33,16,14,0.8,0.8
2025-03-08T0900,3066A,116.2721,37.4379,德州市,九衢泉纯净水厂,细颗粒物(PM2.5),89,112,101,66,65,38,,46,42,49,37,9,10,0.8,0.7
2025-03-08T0900,3371A,116.3728,37.4403,德州市,开发区人民医院,细颗粒物(PM2.5),92,105,106,68,66,49,,80,74,40,27,12,12,0.8,0.7
2025-03-08T0900,3372A,116.3572,37.4094,德州市,太阳城中学,细颗粒物(PM2.5),98,110,111,73,75,47,,70,66,42,30,8,8,0.6,0.6
2025-03-08T0900,3511A,116.5652,37.3319,德州市,陵城艺术中心,细颗粒物(PM2.5),94,102,105,70,74,54,,53,52,36,32,20,13,0.7,0.7
2025-03-08T0900,2621A,99.7056,27.8317,迪庆藏族自治州,迪庆州站,颗粒物(PM10),53,55,52,28,27,115,,119,118,10,11,7,7,0.4,0.5
2025-03-08T0900,3180A,99.7136,27.8094,迪庆藏族自治州,质量技术监督局,细颗粒物(PM2.5),55,50,42,39,32,106,,109,108,10,11,8,8,0.6,0.6
2025-03-08T0900,4257A,104.6092,35.5962,定西市,将台街,颗粒物(PM10),65,80,95,44,40,73,,65,65,19,24,14,13,0.4,0.6
2025-03-08T0900,4309A,104.6159,35.5701,定西市,正龙路62号,颗粒物(PM10),65,79,88,39,43,85,,85,85,9,9,8,7,0.6,0.5
2025-03-08T0900,1389A,113.7547,23.0494,东莞市,莞城梨川,,29,24,17,20,15,32,,32,32,15,18,6,4,0.7,0.7
2025-03-08T0900,1390A,113.7944,23.0128,东莞市,东城石井,,28,25,19,19,14,28,,28,27,16,18,8,6,0.7,0.7
2025-03-08T0900,1391A,113.7383,22.9658,东莞市,南城西平,,25,20,21,17,12,32,,21,21,23,33,12,11,0.6,0.7
2025-03-08T0900,3319A,113.7338,23.0381,东莞市,万江金泰,,25,23,17,17,13,36,,38,38,12,13,4,3,0.9,0.9
2025-03-08T0900,3626A,113.7533,23.0202,东莞市,南城元岭,,26,23,17,18,13,34,,34,34,12,15,7,5,0.7,0.7
2025-03-08T0900,3627A,113.7875,23.0457,东莞市,东城主山,,26,24,19,18,13,36,,32,32,14,21,10,7,0.6,0.6
2025-03-08T0900,1666A,118.6614,37.4309,东营市,市环保局,细颗粒物(PM2.5),98,119,80,73,44,50,,36,36,43,42,10,8,0.6,0.5
2025-03-08T0900,3036A,118.6904,37.4338,东营市,开发区管委会,细颗粒物(PM2.5),125,135,84,95,55,29,,17,17,64,48,11,8,1.1,0.8
2025-03-08T0900,3365A,118.5719,37.565,东营市,垦利区民丰路,细颗粒物(PM2.5),107,124,83,80,47,57,,37,37,43,44,15,14,1.0,0.9
2025-03-08T0900,3498A,118.5055,37.8612,东营市,河口城区,细颗粒物(PM2.5),119,134,85,90,46,38,,33,33,43,30,10,8,1.1,0.9
2025-03-08T0900,3646A,118.4978,37.4623,东营市,胜利站,细颗粒物(PM2.5),104,117,97,78,55,64,,48,48,49,48,16,12,1.0,0.8
2025-03-08T0900,3734A,118.35,37.26,东营市,理想之城,细颗粒物(PM2.5),117,139,85,88,51,40,,20,20,48,49,10,8,0.9,0.7
2025-03-08T0900,1591A,110.0023,39.8129,鄂尔多斯市,综合楼,颗粒物(PM10),78,105,63,48,26,45,,49,49,40,31,10,6,0.8,0.5
2025-03-08T0900,1592A,109.9486,39.8261,鄂尔多斯市,巴音孟克林场办事处,颗粒物(PM10),74,97,63,44,26,54,,64,61,33,25,12,8,0.7,0.5
2025-03-08T0900,1593A,109.7736,39.5986,鄂尔多斯市,康泽苑,颗粒物(PM10),65,80,57,46,26,19,,18,15,45,29,8,7,0.6,0.4
2025-03-08T0900,1594A,109.8119,39.5989,鄂尔多斯市,华泰汽车城,细颗粒物(PM2.5),55,58,58,39,29,13,,5,5,50,33,13,8,0.7,0.5
2025-03-08T0900,1595A,109.9734,39.7884,鄂尔多斯市,奥林花园,颗粒物(PM10),79,107,64,48,27,39,,30,30,40,40,8,9,1.1,0.7
2025-03-08T0900,2436A,114.8938,30.3994,鄂州市,市政府,细颗粒物(PM2.5),98,88,67,73,58,24,,28,26,49,39,13,8,0.9,0.8
2025-03-08T0900,2437A,114.8989,30.3714,鄂州市,赵家坝,细颗粒物(PM2.5),90,91,72,67,54,20,,23,19,49,33,1,2,1.0,0.8
2025-03-08T0900,3654A,114.8094,30.4089,鄂州市,精准医疗中心,细颗粒物(PM2.5),113,110,81,85,60,12,,16,14,68,43,4,4,1.0,0.6
2025-03-08T0900,2454A,109.4978,30.2981,恩施土家族苗族自治州,湖北民院,细颗粒物(PM2.5),53,,39,37,27,26,,38,37,29,20,4,4,0.3,0.3
2025-03-08T0900,2455A,109.4707,30.2798,恩施土家族苗族自治州,州电力总公司,细颗粒物(PM2.5),54,44,37,38,28,8,,34,33,30,17,6,5,0.2,0.1
2025-03-08T0900,3549A,109.5061,30.3772,恩施土家族苗族自治州,龙凤新区,,30,30,32,19,22,35,,28,28,11,11,6,6,0.7,0.7
2025-03-08T0900,2499A,108.3411,21.6158,防城港市,沙万,细颗粒物(PM2.5),60,,37,43,35,40,,47,46,14,11,7,7,0.7,0.9
2025-03-08T0900,2500A,108.3514,21.7731,防城港市,防城档案局,细颗粒物(PM2.5),58,50,44,41,28,39,,44,43,15,14,6,6,0.6,0.4
2025-03-08T0900,2501A,108.3506,21.6414,防城港市,大海花园,细颗粒物(PM2.5),59,,36,42,29,44,,53,52,10,7,5,5,0.8,0.7
2025-03-08T0900,1371A,113.1294,23.0067,佛山市,湾梁,,24,24,24,13,12,33,,32,32,29,29,7,7,0.7,0.8
2025-03-08T0900,1372A,113.1083,23.0478,佛山市,华材职中,,36,36,26,18,18,30,,30,29,39,34,6,6,0.6,0.6
2025-03-08T0900,1373A,113.144,23.0453,佛山市,南海气象局,,20,16,20,14,15,33,,31,31,28,28,4,4,0.5,0.5
2025-03-08T0900,1374A,113.2881,22.8094,佛山市,顺德苏岗,,31,31,28,12,12,16,,19,18,29,26,6,5,0.7,0.7
2025-03-08T0900,1376A,112.8383,22.8678,佛山市,高明孔堂,,34,34,25,23,18,34,,34,34,20,19,9,8,0.8,0.8
2025-03-08T0900,1377A,112.8836,23.1588,佛山市,三水监测站,,39,31,22,27,20,29,,25,25,32,28,3,3,0.6,0.6
2025-03-08T0900,1378A,112.867,23.185,佛山市,三水云东海,,43,36,20,30,17,29,,22,22,28,25,7,3,0.6,0.6
2025-03-08T0900,3625A,113.2544,22.7642,佛山市,容桂街道办,,28,24,19,19,17,22,,24,24,31,30,8,6,0.8,0.7
2025-03-08T0900,1280A,119.3903,26.0543,福州市,鼓山,,,,29,,18,,,78,,,10,,1,,0.4
2025-03-08T0900,1282A,119.2681,26.0504,福州市,师大,,22,19,28,15,20,48,,42,42,7,14,3,3,0.3,0.3
2025-03-08T0900,1283A,119.2984,26.1028,福州市,五四北路,,,25,31,20,21,33,,36,34,17,22,4,4,,0.4
2025-03-08T0900,1284A,119.2648,26.0768,福州市,杨桥西路,,22,17,29,15,20,43,,40,40,9,17,3,4,0.2,0.3
2025-03-08T0900,1285A,119.317,26.0746,福州市,紫阳,,29,27,33,20,23,28,,38,36,22,26,3,4,0.5,0.5
2025-03-08T0900,3048A,119.5799,26.0936,福州市,九龙,,42,30,32,29,22,47,,45,42,15,17,6,4,0.6,0.5
2025-03-08T0900,3526A,119.5189,25.9664,福州市,吴航,,36,32,33,25,23,50,,37,37,17,18,5,4,0.5,0.5
2025-03-08T0900,1755A,123.7977,41.8491,抚顺市,望花区,"颗粒物(PM10),细颗粒物(PM2.5)",55,60,88,39,43,88,,85,85,22,30,10,14,1.0,1.2
2025-03-08T0900,1756A,123.9161,41.8822,抚顺市,顺城区,颗粒物(PM10),55,59,91,34,43,91,,38,38,22,41,9,13,0.7,1
2025-03-08T0900,1757A,124.0436,41.8611,抚顺市,东洲区,颗粒物(PM10),57,64,80,33,39,93,,78,78,16,24,8,10,0.8,0.9
2025-03-08T0900,1758A,123.9247,41.8642,抚顺市,新抚区,细颗粒物(PM2.5),58,51,88,41,47,90,,47,47,23,38,7,9,0.9,1.2
2025-03-08T0900,1759A,124.0972,41.8961,抚顺市,大伙房水库,细颗粒物(PM2.5),57,50,76,40,49,80,,63,63,17,19,8,10,0.7,1
2025-03-08T0900,1760A,123.7086,41.8391,抚顺市,沈抚新城,细颗粒物(PM2.5),62,54,84,44,45,91,,77,77,23,33,10,13,1.1,1
2025-03-08T0900,2376A,116.2127,28.0814,抚州市,桐源党溪,颗粒物(PM10),53,56,50,30,30,6,,6,6,15,5,27,9,0.8,0.6
2025-03-08T0900,2377A,116.3544,27.9831,抚州市,市站,,40,40,47,26,30,10,,16,13,31,31,10,11,0.9,0.7
2025-03-08T0900,2378A,116.3565,27.963,抚州市,血防站,,39,39,54,19,31,11,,9,9,25,29,9,6,0.9,0.7
2025-03-08T0900,2379A,116.3564,28.0007,抚州市,采茶剧团,,34,34,45,22,32,5,,13,8,20,11,6,8,1.0,1
2025-03-08T0900,2380A,116.385,27.9647,抚州市,医学分院,,33,33,49,19,29,10,,9,9,30,23,8,5,0.9,0.9
2025-03-08T0900,2207A,121.6094,41.998,阜新市,工业园区,细颗粒物(PM2.5),110,123,91,83,41,37,,59,55,41,24,16,16,1.0,0.7
2025-03-08T0900,2208A,121.6697,42.0279,阜新市,长青街,细颗粒物(PM2.5),57,61,64,40,32,52,,67,64,28,25,13,17,0.7,0.6
2025-03-08T0900,2209A,121.6673,42.0705,阜新市,农业园区,颗粒物(PM10),53,55,72,31,33,60,,63,62,11,18,10,19,0.7,0.7
2025-03-08T0900,2210A,121.6717,42.0224,阜新市,东苑,颗粒物(PM10),59,67,79,38,32,50,,66,63,22,23,15,20,0.9,0.7
2025-03-08T0900,2211A,121.6506,42.0498,阜新市,玉龙新城,细颗粒物(PM2.5),73,76,78,53,36,45,,56,54,34,27,17,19,0.8,0.6
2025-03-08T0900,2301A,115.8277,32.8929,阜阳市,市监测站,细颗粒物(PM2.5),103,114,69,77,53,54,,72,67,34,20,7,7,0.7,0.5
2025-03-08T0900,2303A,115.8554,32.8605,阜阳市,开发区,细颗粒物(PM2.5),82,103,80,60,44,57,,72,67,39,23,7,7,0.7,0.6
2025-03-08T0900,2875A,115.784,32.8892,阜阳市,阜阳职业技术学院,细颗粒物(PM2.5),90,102,66,67,45,57,,78,73,32,16,7,8,0.7,0.6
2025-03-08T0900,3468A,115.7901,32.8613,阜阳市,市规划展馆,细颗粒物(PM2.5),89,95,67,66,48,66,,81,77,24,17,7,7,0.7,0.5
2025-03-08T0900,3469A,115.836,32.9183,阜阳市,枣园社区,细颗粒物(PM2.5),94,98,68,70,49,44,,76,67,46,21,6,6,0.6,0.4
2025-03-08T0900,2669A,102.9099,34.9841,甘南藏族自治州,州政府,颗粒物(PM10),63,75,80,28,25,19,,10,10,38,34,10,9,1.1,0.6
2025-03-08T0900,3380A,102.8914,34.9617,甘南藏族自治州,甘肃民族师范学院,颗粒物(PM10),71,92,85,38,28,38,,21,21,22,28,10,8,0.5,0.3
2025-03-08T0900,2570A,101.9603,30.0475,甘孜藏族自治州,水桥子,,16,6,11,3,7,49,,56,55,12,11,3,3,0.5,0.4
2025-03-08T0900,3065A,101.9533,29.9972,甘孜藏族自治州,州环保局,,15,8,12,3,5,47,,59,58,13,8,4,4,0.3,0.3
2025-03-08T0900,3414A,115.8347,28.932,赣江新区,桑海产业园,细颗粒物(PM2.5),82,88,71,60,51,2,,17,13,48,34,10,8,0.4,0.3
2025-03-08T0900,2362A,114.9017,25.9149,赣州市,通天岩,,32,32,37,10,10,64,,48,48,2,5,8,8,0.3,0.3
2025-03-08T0900,2363A,114.9367,25.8664,赣州市,地委,,37,37,41,20,26,42,,55,52,13,9,5,9,0.5,0.6
2025-03-08T0900,2364A,114.9461,25.8481,赣州市,气象台,,41,41,49,17,24,45,,54,52,21,15,7,7,0.5,0.6
2025-03-08T0900,2365A,114.9322,25.8333,赣州市,市图书馆,,32,32,38,17,26,47,,62,59,20,16,3,4,0.5,0.6
2025-03-08T0900,2366A,114.8905,25.8471,赣州市,华坚鞋城,,35,29,36,24,24,45,,61,58,13,11,4,5,0.5,0.5
2025-03-08T0900,3109A,115.0093,25.8613,赣州市,赣县区卫计委,,27,27,32,18,25,61,,58,58,6,8,3,3,0.2,0.3
2025-03-08T0900,2683A,106.2319,36.1417,固原市,马园,颗粒物(PM10),65,80,113,32,31,30,,28,28,40,36,6,5,0.7,0.6
2025-03-08T0900,2684A,106.2792,36.0022,固原市,监测站,颗粒物(PM10),67,83,97,34,32,57,,64,64,24,19,9,10,0.6,0.6
2025-03-08T0900,2685A,106.2375,36.0211,固原市,新区,颗粒物(PM10),73,95,100,32,28,38,,62,57,40,21,8,8,0.8,0.5
2025-03-08T0900,3522A,106.2177,35.9959,固原市,原州区十五小,颗粒物(PM10),63,76,85,29,30,67,,88,85,22,13,6,6,0.4,0.3
2025-03-08T0900,2543A,106.6308,30.5278,广安市,小平旧居,,,,,,,,,,,,,,,,
2025-03-08T0900,2544A,106.6303,30.4576,广安市,市委,细颗粒物(PM2.5),59,42,40,42,29,50,,57,55,21,16,4,3,0.5,0.4
2025-03-08T0900,2545A,106.6271,30.4663,广安市,友谊中学,,50,45,38,35,28,45,,58,56,28,17,5,2,0.5,0.5
2025-03-08T0900,2547A,106.6388,30.4551,广安市,广电花园,颗粒物(PM10),51,51,37,35,29,32,,52,49,29,18,4,4,0.6,0.4
2025-03-08T0900,2902A,106.6351,30.4865,广安市,北辰小学,,50,39,40,35,29,41,,59,56,26,15,12,7,0.4,0.3
2025-03-08T0900,2523A,105.8945,32.4535,广元市,黑石坡,,36,31,33,25,16,13,,36,30,15,9,10,9,0.5,0.4
2025-03-08T0900,2524A,105.821,32.4444,广元市,老城,,40,40,41,13,17,2,,2,2,29,31,1,2,0.5,0.4
2025-03-08T0900,2526A,105.8628,32.4287,广元市,监测站,,38,37,28,26,19,8,,30,25,28,14,6,3,0.7,0.3
2025-03-08T0900,3617A,105.8047,32.4166,广元市,经开区,颗粒物(PM10),53,55,36,33,25,7,,6,6,34,29,3,3,0.7,0.6
2025-03-08T0900,1345A,113.2347,23.1423,广州市,广雅中学,,26,26,29,17,18,40,,30,30,23,31,4,4,0.3,0.4
2025-03-08T0900,1346A,113.2612,23.105,广州市,市五中,,23,23,24,16,16,37,,37,37,19,20,3,3,0.5,0.5
2025-03-08T0900,1348A,113.3478,23.0916,广州市,广东商学院,,22,19,19,15,16,30,,32,32,20,21,3,3,0.6,0.6
2025-03-08T0900,1349A,113.4332,23.1047,广州市,市八十六中,,23,20,20,16,15,28,,24,24,21,23,3,3,0.4,0.4
2025-03-08T0900,1350A,113.3505,22.9483,广州市,番禺中学,,25,22,23,17,16,27,,25,25,28,28,8,7,0.7,0.7
2025-03-08T0900,1351A,113.2146,23.3916,广州市,花都师范,,20,19,18,14,15,44,,54,52,18,16,6,5,0.5,0.5
2025-03-08T0900,1352A,113.2597,23.1331,广州市,市监测站,,24,24,24,16,16,37,,31,30,22,26,6,5,0.5,0.5
2025-03-08T0900,1353A,113.5618,23.312,广州市,九龙镇镇龙,,22,17,14,15,14,33,,31,31,13,12,4,4,0.6,0.6
2025-03-08T0900,1354A,113.2765,23.1544,广州市,麓湖,,23,21,21,16,16,37,,19,19,20,28,4,5,0.2,0.3
2025-03-08T0900,1355A,113.443,23.3035,广州市,帽峰山森林公园,,14,14,12,6,6,34,,32,32,16,12,4,4,0.7,0.7
2025-03-08T0900,2846A,113.3221,23.1322,广州市,体育西,,26,22,23,18,18,35,,35,35,18,21,4,4,0.6,0.6
2025-03-08T0900,3298A,113.5717,23.5491,广州市,从化街口,,26,20,16,18,14,44,,54,52,11,10,6,6,0.6,0.5
2025-03-08T0900,3299A,113.3472,23.3692,广州市,白云竹料,,20,19,20,14,15,50,,52,52,12,12,7,6,0.5,0.6
2025-03-08T0900,3300A,113.2981,23.237,广州市,白云嘉禾,,23,22,24,16,17,40,,39,38,25,26,3,2,0.4,0.4
2025-03-08T0900,3301A,113.4256,23.1716,广州市,黄埔科学城,,23,20,18,16,14,34,,32,32,16,16,4,7,0.6,0.6
2025-03-08T0900,3302A,113.3942,23.0483,广州市,番禺大学城,,22,22,19,13,12,29,,26,26,25,28,3,2,0.1,0.2
2025-03-08T0900,3303A,113.4922,22.8168,广州市,南沙黄阁,,30,29,24,21,16,27,,31,30,25,26,7,7,0.6,0.6
2025-03-08T0900,3304A,113.5342,22.7896,广州市,南沙街,,29,20,21,20,14,29,,29,29,24,28,7,8,0.6,0.6
2025-03-08T0900,3443A,113.2902,23.5544,广州市,花都梯面,,26,19,18,18,18,43,,52,51,11,10,6,6,0.5,0.5
2025-03-08T0900,3445A,113.7858,23.7478,广州市,从化良口,,23,20,16,16,14,36,,46,44,9,8,6,6,0.6,0.6
2025-03-08T0900,3446A,113.8051,23.2614,广州市,增城荔城,,23,19,14,16,11,40,,47,45,11,10,8,7,0.6,0.6
2025-03-08T0900,2505A,109.568,23.1478,贵港市,德智高中,,,,,,,,,,,,,,,,
2025-03-08T0900,2506A,109.6047,23.0666,贵港市,江南子站,细颗粒物(PM2.5),52,,38,36,35,54,,40,40,16,18,4,5,0.5,0.5
2025-03-08T0900,2507A,109.6014,23.0948,贵港市,贵城子站,,45,33,37,31,28,55,,41,41,13,14,6,7,0.6,0.6
2025-03-08T0900,2508A,109.5669,23.1065,贵港市,荷城子站,,42,29,36,29,24,48,,42,42,14,15,7,8,0.6,0.6
2025-03-08T0900,3405A,109.5886,23.1172,贵港市,新世纪学校,,45,,39,31,29,51,,39,39,14,13,2,4,0.3,0.4
2025-03-08T0900,1439A,106.6899,26.5998,贵阳市,马鞍山,,29,29,27,17,23,34,,47,44,16,9,3,4,0.6,0.6
2025-03-08T0900,1441A,106.6243,26.6266,贵阳市,鉴湖路,,27,27,44,12,27,50,,51,51,12,11,7,8,0.4,0.5
2025-03-08T0900,1442A,106.7487,26.6343,贵阳市,燕子冲,,45,31,25,31,25,40,,55,52,16,10,6,6,0.5,0.4
2025-03-08T0900,1443A,106.6555,26.4365,贵阳市,碧云窝,,34,34,37,22,21,46,,59,57,18,15,9,11,0.5,0.5
2025-03-08T0900,1445A,106.7109,26.6027,贵阳市,红边门,,42,31,32,29,26,42,,59,57,27,19,7,5,0.6,0.5
2025-03-08T0900,1446A,106.7164,26.5699,贵阳市,新华路,,35,27,31,24,24,50,,62,60,16,11,8,8,0.4,0.5
2025-03-08T0900,1447A,106.674,26.5424,贵阳市,太慈桥,,29,29,31,17,22,42,,54,52,20,16,6,7,0.5,0.5
2025-03-08T0900,1552A,106.805,26.3003,贵阳市,桐木岭,,31,31,40,20,29,37,,44,43,1,5,1,1,0.3,0.2
2025-03-08T0900,4230A,106.6882,26.5695,贵阳市,花果园大街66号,,39,,24,27,30,35,,51,49,15,13,4,5,0.6,0.5
2025-03-08T0900,4231A,106.6873,26.5169,贵阳市,漓江路57号,,39,27,31,27,24,30,,48,45,26,14,11,10,0.5,0.4
2025-03-08T0900,1862A,110.4144,25.3167,桂林市,电子科大尧山校区,,,,,,,,,,,,,,,,
2025-03-08T0900,1864A,110.3089,25.2708,桂林市,龙隐路小学,,49,,31,34,35,58,,71,69,15,10,8,8,0.7,0.7
2025-03-08T0900,1865A,110.2869,25.2178,桂林市,八中,,43,30,33,30,34,53,,66,64,22,16,6,6,0.6,0.5
2025-03-08T0900,3531A,110.296,25.1253,桂林市,旅游学院,,39,39,29,27,30,37,,52,48,10,14,6,6,0.6,0.7
2025-03-08T0900,4222A,110.1835,25.2444,桂林市,环湖路276号,,45,36,37,31,33,62,,62,62,16,12,9,9,0.8,0.8
2025-03-08T0900,4301A,110.2803,25.2773,桂林市,信义路13号,,45,34,33,31,36,64,,71,69,15,11,7,7,0.7,0.7
2025-03-08T0900,2674A,100.2561,34.4714,果洛藏族自治州,玛沁县大武镇,颗粒物(PM10),60,69,83,27,29,65,,82,80,3,3,11,13,0.5,0.5
2025-03-08T0900,1129A,126.5422,45.755,哈尔滨市,岭北,颗粒物(PM10),58,65,44,40,31,66,,62,62,21,25,18,14,0.9,0.8
2025-03-08T0900,1130A,126.561,45.8167,哈尔滨市,松北商大,,39,38,39,27,27,49,,43,42,23,18,87,11,0.5,0.5
2025-03-08T0900,1131A,126.979,45.5419,哈尔滨市,阿城会宁,细颗粒物(PM2.5),83,88,50,61,28,62,,71,71,20,18,13,14,0.6,0.5
2025-03-08T0900,1132A,126.599,45.7222,哈尔滨市,南岗学府路,细颗粒物(PM2.5),92,111,61,68,30,44,,56,54,35,22,8,9,0.9,0.7
2025-03-08T0900,1133A,126.689,45.7733,哈尔滨市,太平宏伟公园,细颗粒物(PM2.5),55,43,52,39,30,47,,50,50,30,28,9,9,0.6,0.5
2025-03-08T0900,1134A,126.635,45.7667,哈尔滨市,道外承德广场,颗粒物(PM10),66,81,65,39,37,37,,49,47,31,25,8,9,0.5,0.5
2025-03-08T0900,1135A,126.685,45.7319,哈尔滨市,香坊红旗大街,细颗粒物(PM2.5),75,66,60,55,34,34,,53,51,35,23,10,12,1.0,0.8
2025-03-08T0900,1136A,126.6411,45.7258,哈尔滨市,动力和平路,细颗粒物(PM2.5),94,91,54,70,37,38,,54,53,32,22,9,11,0.8,0.6
2025-03-08T0900,1137A,126.593,45.7478,哈尔滨市,道里建国路,细颗粒物(PM2.5),84,100,57,62,38,34,,45,44,35,26,12,15,0.7,0.8
2025-03-08T0900,1138A,126.615,45.61,哈尔滨市,平房东轻厂,细颗粒物(PM2.5),120,106,58,91,40,38,,56,54,41,22,9,8,0.8,0.6
2025-03-08T0900,1139A,126.595,45.9855,哈尔滨市,呼兰师专,,40,28,38,28,24,56,,56,55,22,22,8,10,0.4,0.3
2025-03-08T0900,1140A,126.6206,45.6842,哈尔滨市,省农科院,细颗粒物(PM2.5),112,114,59,84,38,44,,44,44,27,25,10,12,0.8,0.6
2025-03-08T0900,2688A,93.5128,42.8172,哈密市,地区监测站,颗粒物(PM10),118,185,208,28,34,50,,45,43,28,24,4,5,0.3,0.3
2025-03-08T0900,2689A,93.4961,42.8328,哈密市,哈密师范学校,颗粒物(PM10),107,163,164,38,46,26,,32,29,50,31,4,6,0.9,0.6
2025-03-08T0900,2671A,100.9048,36.9639,海北藏族自治州,海晏县西海镇,颗粒物(PM10),52,54,40,17,16,37,,52,50,14,4,10,9,0.4,0.3
2025-03-08T0900,3867A,102.0738,36.5056,海东市,平安区公安北苑,颗粒物(PM10),63,75,72,39,30,39,,48,46,3,4,9,9,1.0,0.8
2025-03-08T0900,1409A,110.576,19.9507,海口市,东寨港,,18,13,15,12,45,28,,34,31,10,8,5,6,1.1,1.1
2025-03-08T0900,1410A,110.3232,20.0574,海口市,海南大学,,18,18,21,12,13,31,,42,40,15,10,3,3,0.6,0.6
2025-03-08T0900,1411A,110.283,20.0053,海口市,秀英海南医院,,16,16,15,9,12,32,,42,40,16,13,4,4,0.5,0.6
2025-03-08T0900,1412A,110.338,19.9969,海口市,海南师范大学,,17,17,17,10,12,35,,44,42,11,8,2,2,0.6,0.6
2025-03-08T0900,1413A,110.33,20.0356,海口市,龙华路环保局宿舍,,20,20,16,12,15,33,,43,41,13,10,3,3,0.6,0.6
2025-03-08T0900,3539A,110.5111,19.9736,海口市,桂林洋子站,,16,16,21,11,14,34,,40,38,10,7,3,3,0.5,0.5
2025-03-08T0900,2673A,100.6188,36.2866,海南藏族自治州,共和县恰卜恰镇,,50,50,73,24,34,30,,52,49,28,16,6,4,0.7,0.5
2025-03-08T0900,2676A,97.3731,37.3753,海西蒙古族藏族自治州,德令哈市,,32,32,60,17,17,93,,93,93,2,2,15,16,0.4,0.4
2025-03-08T0900,1048A,114.5302,36.6116,邯郸市,东污水处理厂,细颗粒物(PM2.5),147,123,89,112,77,24,,44,40,42,24,4,3,1.0,0.8
2025-03-08T0900,1049A,114.4918,36.5713,邯郸市,矿院,细颗粒物(PM2.5),140,151,106,107,72,17,,33,28,43,26,3,3,1.1,0.8
2025-03-08T0900,1050A,114.484,36.6133,邯郸市,丛台公园,细颗粒物(PM2.5),139,130,90,106,73,27,,48,44,40,24,6,6,1.1,0.8
2025-03-08T0900,3458A,114.7895,36.5593,邯郸市,香泉濮院小区,细颗粒物(PM2.5),145,138,94,111,70,25,,25,23,41,27,6,5,0.9,0.6
2025-03-08T0900,3579A,114.50634,36.77178,邯郸市,永年区实验高中,细颗粒物(PM2.5),122,130,111,92,67,24,,20,19,34,28,3,5,1.6,1.3
2025-03-08T0900,3580A,114.20016,36.44293,邯郸市,峰峰矿区临水派出所,细颗粒物(PM2.5),130,109,78,99,70,57,,60,59,13,12,17,9,1.4,1
2025-03-08T0900,2634A,106.9893,33.1842,汉中市,汉川机床厂子校,,43,43,30,19,18,36,,38,35,11,7,7,8,0.8,0.7
2025-03-08T0900,2635A,107.0154,33.0706,汉中市,市监测站,颗粒物(PM10),52,53,48,29,33,13,,11,11,32,29,6,6,1.2,1
2025-03-08T0900,2636A,107.0089,33.1138,汉中市,鑫源开发区,细颗粒物(PM2.5),59,46,45,42,37,17,,15,15,28,32,6,8,0.8,0.9
2025-03-08T0900,2637A,107.007,33.0323,汉中市,南郑大河坎水厂,颗粒物(PM10),51,51,45,29,30,13,,21,20,20,20,7,6,1.0,0.8
2025-03-08T0900,1223A,120.2072,30.2111,杭州市,滨江,细颗粒物(PM2.5),67,68,67,48,46,20,,13,13,38,42,6,6,0.6,0.5
2025-03-08T0900,1224A,120.0633,30.2747,杭州市,西溪,细颗粒物(PM2.5),67,77,64,48,43,23,,9,9,32,29,7,6,0.6,0.6
2025-03-08T0900,1226A,120.3461,30.3153,杭州市,下沙,细颗粒物(PM2.5),69,82,82,50,48,33,,17,17,33,55,6,5,0.6,0.5
2025-03-08T0900,1227A,120.1269,30.2456,杭州市,卧龙桥,细颗粒物(PM2.5),65,62,53,47,39,30,,19,19,25,25,6,6,0.8,0.7
2025-03-08T0900,1228A,120.1903,30.2692,杭州市,浙江农大,"颗粒物(PM10),细颗粒物(PM2.5)",59,67,67,42,45,22,,10,10,30,36,8,8,0.6,0.5
2025-03-08T0900,1230A,120.1197,30.3119,杭州市,和睦小学,细颗粒物(PM2.5),72,67,64,52,47,17,,6,6,42,44,8,7,0.8,0.7
2025-03-08T0900,1231A,120.3019,30.4183,杭州市,临平镇,"颗粒物(PM10),细颗粒物(PM2.5)",72,93,86,52,53,14,,5,5,51,57,6,6,0.7,0.6
2025-03-08T0900,1232A,120.2697,30.1819,杭州市,城厢镇,细颗粒物(PM2.5),74,73,73,54,49,26,,17,17,37,51,6,6,0.6,0.6
2025-03-08T0900,1233A,120.0883,30.1808,杭州市,云栖,细颗粒物(PM2.5),63,70,60,45,37,16,,14,13,32,27,6,7,0.6,0.5
2025-03-08T0900,3557A,119.9464,30.0494,杭州市,镇二中,细颗粒物(PM2.5),64,52,46,46,39,16,,6,6,32,34,7,6,0.8,0.6
2025-03-08T0900,3558A,119.7183,30.2367,杭州市,市府大楼,细颗粒物(PM2.5),69,63,66,50,49,27,,26,26,36,32,7,7,0.6,0.6
2025-03-08T0900,3656A,120.1556,30.2864,杭州市,消防大队,细颗粒物(PM2.5),69,72,66,50,44,33,,23,22,34,39,6,6,0.6,0.6
2025-03-08T0900,1270A,117.1959,31.7848,合肥市,明珠广场,,,,62,,44,,,99,,,27,,8,,0.6
2025-03-08T0900,1271A,117.3072,31.8764,合肥市,三里街,,,,75,63,49,28,,35,31,55,45,8,7,0.8,0.7
2025-03-08T0900,1272A,117.2588,31.8707,合肥市,琥珀山庄,细颗粒物(PM2.5),83,83,67,61,50,44,,49,48,45,34,3,3,0.6,0.6
2025-03-08T0900,1273A,117.1604,31.9052,合肥市,董铺水库,颗粒物(PM10),59,68,64,39,33,62,,70,69,36,24,4,4,0.5,0.5
2025-03-08T0900,1274A,117.25,31.8571,合肥市,长江中路,细颗粒物(PM2.5),82,88,68,60,49,49,,65,63,45,31,8,9,0.7,0.7
2025-03-08T0900,1275A,117.266,31.9436,合肥市,庐阳区,细颗粒物(PM2.5),70,83,75,51,46,58,,61,59,41,37,6,6,0.5,0.5
2025-03-08T0900,1276A,117.336,31.8586,合肥市,瑶海区,细颗粒物(PM2.5),77,95,77,56,50,41,,48,47,42,36,6,6,0.6,0.6
2025-03-08T0900,1277A,117.3027,31.7964,合肥市,包河区,细颗粒物(PM2.5),70,70,66,51,46,66,,40,40,25,31,5,5,0.6,0.6
2025-03-08T0900,1278A,117.2776,31.7385,合肥市,滨湖新区,细颗粒物(PM2.5),73,66,64,53,47,70,,72,71,25,22,6,7,0.5,0.5
2025-03-08T0900,1279A,117.1318,31.8403,合肥市,高新区,细颗粒物(PM2.5),73,83,65,53,42,58,,72,70,39,29,3,4,0.6,0.5
2025-03-08T0900,3464A,117.3803,31.9147,合肥市,高教基地,细颗粒物(PM2.5),87,88,76,64,53,50,,47,45,44,29,10,9,0.6,0.6
2025-03-08T0900,3614A,79.924,37.0877,和田地区,地区环保局,颗粒物(PM10),91,132,247,26,48,71,,69,69,2,6,3,2,0.4,0.3
2025-03-08T0900,3615A,79.9131,37.113,和田地区,市环保局,颗粒物(PM10),92,133,242,27,44,71,,74,74,17,13,3,2,0.8,0.7
2025-03-08T0900,2516A,108.2011,24.715,河池市,东仁乐园,,39,39,24,23,16,47,,55,54,13,12,8,6,0.7,0.7
2025-03-08T0900,2517A,108.0497,24.6947,河池市,市环保站,,29,,24,20,17,50,,60,60,8,7,10,9,0.6,0.6
2025-03-08T0900,2518A,108.0983,24.6989,河池市,市疾控中心,,33,24,20,23,17,50,,52,52,6,7,10,7,0.6,0.6
2025-03-08T0900,1696A,114.6778,23.7569,河源市,源西,,32,,16,22,17,33,,35,34,10,14,5,5,0.2,0.3
2025-03-08T0900,1697A,114.6944,23.7586,河源市,东埔,,36,25,19,25,19,34,,38,37,12,14,4,4,0.6,0.6
2025-03-08T0900,1698A,114.6892,23.7233,河源市,老城,,36,,19,25,21,34,,37,37,11,12,4,4,0.7,0.7
2025-03-08T0900,1718A,115.4208,35.2464,菏泽市,气象局,细颗粒物(PM2.5),84,98,87,62,55,71,,80,78,26,22,6,4,0.6,0.5
2025-03-08T0900,3374A,115.5564,35.0891,菏泽市,定陶老年大学,细颗粒物(PM2.5),85,88,80,63,53,67,,71,70,38,29,7,5,0.5,0.4
2025-03-08T0900,4184A,115.4797,35.24401,菏泽市,永昌路1号,细颗粒物(PM2.5),87,84,73,64,56,75,,89,85,30,23,10,7,0.3,0.3
2025-03-08T0900,4193A,115.4715,35.2800,菏泽市,长城路999号,细颗粒物(PM2.5),77,92,76,56,46,68,,83,79,30,25,8,6,0.6,0.5
2025-03-08T0900,2514A,111.5264,24.4172,贺州市,环保小区,细颗粒物(PM2.5),60,44,34,43,26,51,,58,58,11,12,6,6,0.8,0.7
2025-03-08T0900,2515A,111.5608,24.4078,贺州市,政协大楼,细颗粒物(PM2.5),54,49,40,38,27,53,,55,55,10,13,6,6,0.9,0.9
2025-03-08T0900,3534A,111.4744,24.4553,贺州市,西湾,细颗粒物(PM2.5),55,40,32,39,26,50,,54,54,9,10,6,6,0.7,0.7
2025-03-08T0900,2385A,114.17,35.9019,鹤壁市,市监测站,细颗粒物(PM2.5),102,112,85,76,58,40,,31,31,37,29,3,4,1.0,0.7
2025-03-08T0900,2386A,114.2956,35.7511,鹤壁市,市交警支队,细颗粒物(PM2.5),135,134,93,103,63,43,,14,14,29,33,10,8,0.9,0.4
2025-03-08T0900,2387A,114.2878,35.7306,鹤壁市,迎宾馆,细颗粒物(PM2.5),109,138,100,82,57,31,,23,23,34,29,9,9,1.1,0.7
2025-03-08T0900,3474A,114.2617,35.6822,鹤壁市,大新区,细颗粒物(PM2.5),109,,70,82,65,43,,18,18,23,38,7,5,0.9,0.6
2025-03-08T0900,3596A,114.1572,35.9603,鹤壁市,南山宾馆,细颗粒物(PM2.5),166,132,92,126,83,47,,62,56,19,21,11,6,1.4,0.7
2025-03-08T0900,2244A,130.2537,47.3416,鹤岗市,哈啤分公司,,26,24,28,18,22,75,,77,76,8,10,13,15,0.7,0.7
2025-03-08T0900,2245A,130.2684,47.3086,鹤岗市,斯达机电,,28,28,36,8,22,76,,70,70,10,10,21,15,0.5,0.5
2025-03-08T0900,2246A,130.3114,47.3388,鹤岗市,东山纸板厂,颗粒物(PM10),51,51,73,16,28,67,,53,53,13,21,19,19,0.9,1.1
2025-03-08T0900,2247A,130.1097,47.3382,鹤岗市,五号水库,,,,,,,,,,,,,,,,
2025-03-08T0900,2263A,127.4833,50.2524,黑河市,交通局,,43,43,34,22,19,53,,62,61,20,16,6,7,1.1,0.8
2025-03-08T0900,2264A,127.5144,50.2341,黑河市,环保局,细颗粒物(PM2.5),68,64,42,49,30,42,,31,31,33,24,14,8,1.1,0.8
2025-03-08T0900,2265A,127.5291,50.2472,黑河市,大黑河岛,,,,,,,,,,,,,,,,
2025-03-08T0900,1074A,115.6838,37.7541,衡水市,电机北厂,细颗粒物(PM2.5),169,171,126,128,94,26,,28,27,36,27,6,7,0.8,0.7
2025-03-08T0900,1075A,115.6303,37.7316,衡水市,市监测站,细颗粒物(PM2.5),123,142,112,93,85,22,,25,24,43,32,9,11,0.9,0.7
2025-03-08T0900,3188A,115.6683,37.7217,衡水市,市城管局,细颗粒物(PM2.5),139,151,112,106,87,10,,27,23,50,32,4,8,0.9,0.7
2025-03-08T0900,3459A,115.5989,37.5491,衡水市,地表水厂,细颗粒物(PM2.5),170,150,111,129,94,15,,23,20,51,32,27,10,1.0,0.7
2025-03-08T0900,2456A,112.5003,26.9167,衡阳市,原169医院,,36,36,34,25,24,7,,14,11,37,27,8,8,0.5,0.5
2025-03-08T0900,2457A,112.6194,26.9258,衡阳市,衡阳化工总厂,细颗粒物(PM2.5),52,42,41,36,36,36,,26,26,9,17,6,5,0.5,0.6
2025-03-08T0900,2458A,112.6211,26.8956,衡阳市,珠晖区环保局,细颗粒物(PM2.5),53,45,36,37,35,24,,20,17,18,22,6,6,0.7,0.7
2025-03-08T0900,2459A,112.6197,26.8733,衡阳市,市委党校,细颗粒物(PM2.5),62,49,36,44,34,21,,29,26,23,21,10,10,0.8,0.8
2025-03-08T0900,2460A,112.6006,26.8919,衡阳市,市监测站,细颗粒物(PM2.5),68,58,48,49,41,34,,30,28,16,21,8,8,0.7,0.8
2025-03-08T0900,2461A,112.5664,26.9056,衡阳市,真空机电公司,细颗粒物(PM2.5),58,52,45,41,38,26,,32,28,25,22,7,6,0.8,0.6
2025-03-08T0900,3399A,112.6703,26.882,衡阳市,师范学院,细颗粒物(PM2.5),57,58,42,40,38,24,,27,23,20,20,10,8,0.8,0.7
2025-03-08T0900,2608A,103.3772,23.3993,红河哈尼族彝族自治州,污水处理厂,,46,,34,32,37,63,,66,66,9,7,6,6,0.5,0.6
2025-03-08T0900,2609A,103.3861,23.35,红河哈尼族彝族自治州,监测站,,46,35,40,32,30,65,,67,67,9,8,6,7,0.5,0.6
2025-03-08T0900,3038A,103.3758,23.368,红河哈尼族彝族自治州,州图书馆,细颗粒物(PM2.5),55,,25,39,31,64,,65,65,7,7,6,6,0.4,0.5
2025-03-08T0900,1090A,111.6507,40.7517,呼和浩特市,呼市一监,,49,48,52,34,40,29,,22,22,34,33,9,11,1.0,0.9
2025-03-08T0900,1091A,111.6572,40.8033,呼和浩特市,小召,颗粒物(PM10),58,66,54,31,32,31,,32,32,40,38,4,6,0.8,0.7
2025-03-08T0900,1094A,111.7516,40.8369,呼和浩特市,如意水处理厂,颗粒物(PM10),56,62,50,35,28,20,,23,23,50,42,8,8,0.7,0.6
2025-03-08T0900,1095A,111.7276,40.8062,呼和浩特市,二十九中,"颗粒物(PM10),细颗粒物(PM2.5)",55,60,51,39,33,23,,30,30,50,39,7,6,0.9,0.8
2025-03-08T0900,1096A,111.5512,40.7866,呼和浩特市,工大金川校区,细颗粒物(PM2.5),63,59,52,45,29,38,,19,19,35,44,7,8,0.9,0.7
2025-03-08T0900,1097A,111.717,40.7612,呼和浩特市,化肥厂生活区,"颗粒物(PM10),细颗粒物(PM2.5)",54,57,60,38,40,33,,23,23,37,39,8,9,0.9,0.7
2025-03-08T0900,3698A,111.5968,40.8178,呼和浩特市,红旗小学,颗粒物(PM10),54,58,43,36,27,42,,16,16,36,44,5,6,0.7,0.6
2025-03-08T0900,3699A,111.6518,40.8389,呼和浩特市,海东办,,48,48,49,31,34,14,,6,6,51,48,6,8,0.8,0.8
2025-03-08T0900,2192A,119.7594,49.2261,呼伦贝尔市,区环保局,,50,50,43,25,30,66,,66,66,27,24,6,6,0.6,0.5
2025-03-08T0900,3061A,119.7512,49.1577,呼伦贝尔市,国华电力东,,45,36,40,31,24,81,,82,81,12,11,4,5,0.5,0.5
2025-03-08T0900,1250A,120.0751,30.8669,湖州市,城西水厂,细颗粒物(PM2.5),98,100,82,73,54,14,,7,7,55,52,8,7,0.6,0.5
2025-03-08T0900,2873A,120.0875,30.8955,湖州市,仁皇山新区,细颗粒物(PM2.5),102,109,78,76,53,17,,7,7,57,41,10,4,0.7,0.5
2025-03-08T0900,2907A,120.1844,30.8596,湖州市,吴兴区站,细颗粒物(PM2.5),108,124,82,81,53,14,,5,5,58,43,11,6,0.7,0.5
2025-03-08T0900,3562A,120.4148,30.8538,湖州市,南浔区站,颗粒物(PM10),78,105,75,52,42,31,,31,30,49,45,5,3,0.7,0.5
2025-03-08T0900,1607A,120.9092,40.7136,葫芦岛市,龙港区,细颗粒物(PM2.5),72,63,38,52,29,57,,64,61,28,20,15,10,0.8,0.6
2025-03-08T0900,1608A,120.8392,40.7514,葫芦岛市,化工街,细颗粒物(PM2.5),89,88,58,66,32,26,,46,41,52,30,14,11,0.7,0.5
2025-03-08T0900,1609A,120.8341,40.7073,葫芦岛市,新区,细颗粒物(PM2.5),88,,40,65,32,43,,63,58,42,28,22,12,1.0,0.8
2025-03-08T0900,1610A,120.8695,40.7677,葫芦岛市,东城区,细颗粒物(PM2.5),105,,38,79,35,25,,48,42,64,35,23,12,1.1,0.7
2025-03-08T0900,2482A,109.5981,27.5721,怀化市,林科所,,19,19,15,11,12,46,,39,39,4,8,8,6,1.0,0.9
2025-03-08T0900,2483A,109.9453,27.5444,怀化市,河西地税局,,28,25,26,19,21,26,,20,20,20,18,8,7,0.5,0.6
2025-03-08T0900,2484A,109.9781,27.5342,怀化市,市四医院,,38,31,33,26,22,26,,21,21,20,22,7,5,0.8,0.7
2025-03-08T0900,2485A,109.9972,27.5578,怀化市,监测楼,,33,27,26,23,19,42,,28,28,15,20,8,7,0,0.4
2025-03-08T0900,2486A,110.0394,27.583,怀化市,市委党校,,38,,24,26,19,23,,26,26,16,16,13,8,0.6,0.6
2025-03-08T0900,1210A,119.036,33.5981,淮安市,钵池山,细颗粒物(PM2.5),108,97,82,81,63,59,,67,65,26,23,15,10,0.8,0.7
2025-03-08T0900,1211A,119.007,33.575,淮安市,北京南路,细颗粒物(PM2.5),108,102,83,81,62,52,,48,47,32,32,11,10,0.7,0.6
2025-03-08T0900,1212A,118.989,33.6067,淮安市,市监测站,细颗粒物(PM2.5),117,102,80,88,67,57,,68,64,36,26,12,10,0.9,0.8
2025-03-08T0900,1213A,119.135,33.5039,淮安市,楚州区监测站,细颗粒物(PM2.5),110,122,93,83,62,24,,18,16,56,54,8,9,0.8,0.7
2025-03-08T0900,3426A,118.8755,33.2894,淮安市,新华书店,细颗粒物(PM2.5),123,109,92,93,75,53,,62,60,32,26,10,10,0.6,0.6
2025-03-08T0900,4206A,119.0288,33.6319,淮安市,承德北路606号,细颗粒物(PM2.5),107,129,99,80,62,59,,68,66,32,32,10,9,1.0,0.9
2025-03-08T0900,2282A,116.8004,33.975,淮北市,监测站,细颗粒物(PM2.5),109,118,96,82,68,80,,86,82,33,26,13,9,1.0,0.9
2025-03-08T0900,2283A,116.8091,33.9007,淮北市,烈山区政府,细颗粒物(PM2.5),118,116,91,89,69,88,,93,90,38,29,12,9,1.0,0.8
2025-03-08T0900,3330A,116.8873,33.9836,淮北市,杜集区检察院,细颗粒物(PM2.5),103,103,93,77,71,80,,95,89,34,26,10,8,0.9,0.8
2025-03-08T0900,4017A,116.7923,33.9535,淮北市,市博物馆,细颗粒物(PM2.5),114,120,94,86,70,81,,85,82,32,26,15,10,1.0,0.8
2025-03-08T0900,2277A,116.8305,32.7727,淮南市,潘集区政府,细颗粒物(PM2.5),108,133,96,81,68,41,,54,48,41,33,7,6,0.7,0.6
2025-03-08T0900,2279A,116.8569,32.5951,淮南市,谢家集区政府,细颗粒物(PM2.5),93,110,88,69,60,41,,50,46,35,26,11,8,0.6,0.6
2025-03-08T0900,2280A,116.8281,32.633,淮南市,八公山区政府,细颗粒物(PM2.5),92,108,87,68,52,42,,61,56,38,23,7,4,0.7,0.5
2025-03-08T0900,2281A,116.6325,32.6201,淮南市,焦岗湖风景区管理处,细颗粒物(PM2.5),77,86,69,56,44,28,,40,37,25,17,4,5,0.3,0.2
2025-03-08T0900,2894A,117.0566,32.6531,淮南市,经济技术开发区消防队,细颗粒物(PM2.5),88,93,79,65,54,60,,67,62,23,20,9,7,0.5,0.5
2025-03-08T0900,3329A,117.0108,32.5893,淮南市,山南新区,细颗粒物(PM2.5),73,86,76,53,53,53,,64,61,26,22,8,8,0.6,0.6
2025-03-08T0900,4209A,117.0031,32.6445,淮南市,国庆中路369号,细颗粒物(PM2.5),82,96,77,60,52,66,,79,74,28,23,8,6,0.5,0.6
2025-03-08T0900,2446A,114.9028,30.4742,黄冈市,职工中心,细颗粒物(PM2.5),78,76,66,57,54,37,,49,46,29,26,9,7,0.6,0.6
2025-03-08T0900,2929A,114.8858,30.4519,黄冈市,红卫路,细颗粒物(PM2.5),85,88,73,63,54,34,,49,46,43,35,10,9,0.6,0.5
2025-03-08T0900,3398A,114.9136,30.4445,黄冈市,市林业局,细颗粒物(PM2.5),85,88,74,63,56,23,,44,40,46,33,14,13,0.8,0.8
2025-03-08T0900,2672A,102.0199,35.5102,黄南藏族自治州,同仁县隆务镇,颗粒物(PM10),51,51,73,24,30,55,,65,63,3,3,13,12,0.3,0.3
2025-03-08T0900,2295A,118.2903,29.6963,黄山市,延安路89号,,46,46,47,25,31,11,,15,13,9,12,4,4,0.6,0.6
2025-03-08T0900,2297A,118.1371,30.2756,黄山市,黄山区政府5号楼,,43,42,48,30,32,22,,17,17,8,12,7,7,0.6,0.5
2025-03-08T0900,4210A,118.3354,29.7203,黄山市,滨江东路7-2号,细颗粒物(PM2.5),55,52,52,39,33,19,,15,14,11,13,5,5,0.4,0.4
2025-03-08T0900,2423A,115.0601,30.2313,黄石市,沈家营,细颗粒物(PM2.5),78,74,67,57,45,20,,21,20,48,36,14,10,0.7,0.7
2025-03-08T0900,2426A,114.8988,30.2019,黄石市,铁山,细颗粒物(PM2.5),103,84,60,77,56,16,,33,29,39,15,22,13,1.1,0.9
2025-03-08T0900,2427A,115.0307,30.2092,黄石市,团城山,细颗粒物(PM2.5),97,83,66,72,49,25,,43,38,44,27,14,14,0.8,0.8
2025-03-08T0900,3149A,115.0235,30.1578,黄石市,笔架山北路,细颗粒物(PM2.5),103,90,62,77,53,39,,48,45,35,23,14,10,1.2,0.8
2025-03-08T0900,4185A,115.0780,30.21118,黄石市,磁湖东路29号,细颗粒物(PM2.5),97,89,76,72,57,19,,21,19,50,34,11,8,0.9,0.8
2025-03-08T0900,1392A,114.4183,23.0528,惠州市,河南岸金山湖子站,,28,19,14,19,13,34,,38,36,11,12,8,8,0.6,0.6
2025-03-08T0900,1393A,114.4053,23.0822,惠州市,下埔横江三路子站,,28,22,16,19,14,32,,38,37,14,14,9,8,0.6,0.6
2025-03-08T0900,1394A,114.4103,23.1142,惠州市,江北云山西路子站,,26,20,16,18,13,30,,37,36,14,14,10,9,0.7,0.7
2025-03-08T0900,1395A,114.4645,22.7833,惠州市,惠阳区承修路船湖子站,,29,26,19,20,14,17,,29,28,22,16,9,8,0.7,0.6
2025-03-08T0900,1396A,114.5317,22.7422,惠州市,大亚湾管委会子站,,22,22,14,15,9,23,,32,30,16,14,6,6,0.7,0.7
2025-03-08T0900,3314A,114.4338,22.8134,惠州市,惠阳秋长,,26,24,16,18,13,30,,36,35,21,22,5,5,0.6,0.6
2025-03-08T0900,3452A,114.6517,22.775,惠州市,大亚湾霞涌,,15,15,13,3,9,27,,31,30,13,12,7,7,0.9,0.9
2025-03-08T0900,2240A,130.9762,45.3001,鸡西市,环保局,,42,42,42,23,22,56,,61,60,14,11,8,9,0.4,0.4
2025-03-08T0900,2243A,130.9429,45.3039,鸡西市,第一中学,,46,42,33,32,22,56,,66,64,20,10,9,8,0.3,0.2
2025-03-08T0900,3707A,131.0207,45.3073,鸡西市,欧美日汽修厂,,50,50,60,30,30,59,,64,63,13,11,4,6,0.2,0.4
2025-03-08T0900,3709A,130.9967,45.3106,鸡西市,市政设施管理处,,44,44,53,12,22,53,,55,54,14,12,5,7,0.4,0.4
2025-03-08T0900,2367A,114.9754,27.0803,吉安市,红声器材厂,颗粒物(PM10),52,54,45,33,26,10,,16,13,28,24,11,11,0.6,0.6
2025-03-08T0900,2368A,114.9658,27.0999,吉安市,市森林工业局,细颗粒物(PM2.5),52,43,37,36,28,17,,19,17,30,27,10,10,0.2,0.4
2025-03-08T0900,2369A,114.99,27.1312,吉安市,市环境监测站,,48,48,40,29,25,12,,17,14,22,21,13,15,0.6,0.5
2025-03-08T0900,2370A,115.0093,27.0968,吉安市,青原区法院,细颗粒物(PM2.5),53,48,41,37,31,10,,22,18,35,29,13,11,0.5,0.4
2025-03-08T0900,1772A,126.54,43.8622,吉林市,哈达湾,,50,50,52,30,32,95,,87,87,12,16,12,9,0.8,0.7
2025-03-08T0900,1773A,126.5844,43.8358,吉林市,东局子,,37,37,33,23,28,92,,82,82,15,14,9,7,0.5,0.5
2025-03-08T0900,1774A,126.5052,43.8245,吉林市,电力学院,,45,38,51,31,39,94,,84,84,13,19,7,6,0.4,0.5
2025-03-08T0900,1775A,126.6133,43.8972,吉林市,江北,,46,46,42,26,27,91,,77,77,18,15,10,10,0.7,0.6
2025-03-08T0900,1776A,126.555,43.8306,吉林市,江南公园,,41,41,41,28,32,94,,86,86,12,15,9,7,0.6,0.5
2025-03-08T0900,1778A,126.7061,43.7133,吉林市,丰满,,39,32,32,27,31,111,,101,101,9,8,9,7,0.5,0.5
2025-03-08T0900,2868A,126.4739,43.953,吉林市,九站,颗粒物(PM10),51,52,47,31,30,87,,81,81,19,20,11,8,0.7,0.5
2025-03-08T0900,1299A,116.9862,36.6114,济南市,科干所,"颗粒物(PM10),细颗粒物(PM2.5)",64,78,75,46,46,112,,118,117,23,20,8,7,0.6,0.5
2025-03-08T0900,1300A,116.9376,36.665,济南市,农科所,细颗粒物(PM2.5),74,95,85,54,47,93,,97,96,27,22,10,9,0.9,0.8
2025-03-08T0900,1301A,117.1265,36.6734,济南市,开发区,细颗粒物(PM2.5),85,71,71,63,60,108,,115,114,15,16,8,8,0.5,0.6
2025-03-08T0900,1303A,117.0624,36.6868,济南市,省种子仓库,细颗粒物(PM2.5),70,78,82,51,53,108,,116,115,20,19,6,5,0.7,0.7
2025-03-08T0900,1304A,116.9489,36.6447,济南市,机床二厂,细颗粒物(PM2.5),89,95,86,66,59,89,,93,92,24,21,14,12,0.8,0.8
2025-03-08T0900,1305A,117.0495,36.663,济南市,市监测站,细颗粒物(PM2.5),68,76,74,49,51,100,,107,106,23,22,9,8,0.5,0.5
2025-03-08T0900,1306A,116.7675,36.5484,济南市,长清党校,细颗粒物(PM2.5),83,85,73,61,58,104,,104,104,21,20,9,8,0.7,0.6
2025-03-08T0900,1616A,117.6795,36.229,济南市,技术学院,细颗粒物(PM2.5),100,117,82,75,62,56,,92,86,64,30,15,12,1.2,0.9
2025-03-08T0900,1961A,117.532,36.6868,济南市,东山小学,细颗粒物(PM2.5),80,95,84,59,52,108,,107,106,23,24,9,8,0.8,0.8
2025-03-08T0900,3059A,117.7161,36.2049,济南市,泰兴公司,细颗粒物(PM2.5),125,129,96,95,72,49,,17,17,69,55,20,11,1.0,0.8
2025-03-08T0900,3064A,117.6867,36.2171,济南市,莱芜战役纪念馆,细颗粒物(PM2.5),104,141,91,78,57,45,,94,87,71,31,13,8,1.2,0.8
2025-03-08T0900,3494A,117.1673,36.9782,济南市,济阳区政府,颗粒物(PM10),75,100,99,54,59,62,,72,72,35,30,13,12,0.6,0.5
2025-03-08T0900,3495A,117.1171,36.63,济南市,锦屏中学,细颗粒物(PM2.5),68,66,68,49,49,104,,108,108,21,19,10,9,0.5,0.4
2025-03-08T0900,3682A,116.9814,36.6819,济南市,济南四建,细颗粒物(PM2.5),77,78,72,56,51,102,,106,105,21,20,9,7,0.4,0.4
2025-03-08T0900,1653A,116.6251,35.4302,济宁市,火炬城,细颗粒物(PM2.5),122,,71,92,74,84,,99,96,24,15,12,11,1.0,0.8
2025-03-08T0900,1655A,116.5491,35.4042,济宁市,电化厂,细颗粒物(PM2.5),110,116,101,83,71,103,,93,93,21,21,16,13,1.1,0.9
2025-03-08T0900,3500A,116.5814,35.3707,济宁市,北湖一中,细颗粒物(PM2.5),104,87,72,78,57,103,,103,103,24,22,12,10,0.9,0.8
2025-03-08T0900,3501A,116.8249,35.5593,济宁市,服务中心,细颗粒物(PM2.5),109,125,101,82,59,93,,88,88,32,25,10,8,0.9,0.7
2025-03-08T0900,3678A,116.5907,35.4054,济宁市,市第七中学,细颗粒物(PM2.5),100,82,71,75,61,106,,109,108,29,25,9,6,0.9,0.7
2025-03-08T0900,2255A,130.2751,46.8028,佳木斯市,佳纺,,28,28,40,18,26,70,,70,70,11,16,4,5,0.2,0.3
2025-03-08T0900,2256A,130.3995,46.8307,佳木斯市,发电厂,,30,30,25,14,17,78,,77,77,7,11,4,4,0.4,0.4
2025-03-08T0900,2257A,130.3258,46.7975,佳木斯市,环保局,,28,28,36,16,20,68,,71,71,11,15,4,5,0.4,0.3
2025-03-08T0900,2258A,130.3648,46.8032,佳木斯市,十一中,,22,21,27,14,20,69,,72,72,10,17,5,5,0.4,0.4
2025-03-08T0900,2259A,130.3794,46.7588,佳木斯市,四丰,,39,39,30,22,25,67,,52,52,8,21,1,1,0.5,0.6
2025-03-08T0900,1252A,120.7436,30.778,嘉兴市,清河小学,细颗粒物(PM2.5),98,131,78,73,38,35,,36,31,52,33,5,4,1.2,1
2025-03-08T0900,1253A,120.726,30.7478,嘉兴市,嘉兴学院,细颗粒物(PM2.5),93,104,63,69,40,19,,19,15,74,49,8,7,0.6,0.5
2025-03-08T0900,2872A,120.7846,30.7525,嘉兴市,南湖区残联,细颗粒物(PM2.5),100,94,65,75,39,34,,48,44,58,29,9,8,0.7,0.4
2025-03-08T0900,3407A,120.6916,30.7739,嘉兴市,秀洲住建,细颗粒物(PM2.5),103,122,65,77,44,21,,7,7,65,44,8,5,1.1,0.8
2025-03-08T0900,1945A,98.2908,39.7711,嘉峪关市,气象局,颗粒物(PM10),63,75,150,19,39,53,,56,56,28,20,5,5,0.2,0.2
2025-03-08T0900,2884A,98.2672,39.7978,嘉峪关市,酒钢宾馆,颗粒物(PM10),69,88,161,22,39,57,,64,64,24,16,1,7,0.5,0.6
2025-03-08T0900,3248A,98.2643,39.7724,嘉峪关市,雄关区,颗粒物(PM10),58,66,129,18,34,57,,58,58,25,24,5,5,0.4,0.4
2025-03-08T0900,1383A,113.1064,22.6058,江门市,北街,,28,24,28,19,20,27,,22,22,29,35,3,3,0.6,0.6
2025-03-08T0900,1384A,113.0731,22.5835,江门市,西区,,26,26,33,17,17,26,,21,21,28,32,6,6,0.6,0.6
2025-03-08T0900,1385A,113.0219,22.5311,江门市,圭峰西,,30,,27,21,20,22,,20,20,33,33,4,4,0.6,0.6
2025-03-08T0900,1386A,113.0828,22.5947,江门市,东湖,,32,27,28,22,21,28,,21,21,28,32,7,6,0.5,0.6
2025-03-08T0900,3311A,113.1075,22.5647,江门市,江海富民,,41,41,30,11,19,25,,22,22,27,31,6,6,0.4,0.5
2025-03-08T0900,3449A,113.05,22.4667,江门市,新会银湖,,33,25,27,23,21,24,,14,14,28,36,1,3,0.6,0.7
2025-03-08T0900,1830A,113.1992,35.2590,焦作市,影视城,,,,49,,27,,,,,,8,,8,,0.2
2025-03-08T0900,3169A,113.2725,35.2067,焦作市,太极体育中心,细颗粒物(PM2.5),87,83,90,64,65,24,,45,43,39,29,10,10,1.1,0.9
2025-03-08T0900,3335A,113.3137,35.2641,焦作市,马村街道办,细颗粒物(PM2.5),87,82,81,64,66,40,,46,45,32,23,12,10,0.9,0.8
2025-03-08T0900,3336A,113.2465,35.2373,焦作市,焦作技师学院,细颗粒物(PM2.5),62,70,82,44,56,44,,49,49,25,23,8,10,1.2,1.1
2025-03-08T0900,3477A,113.1656,35.2539,焦作市,中站许衡医院,细颗粒物(PM2.5),64,59,73,46,57,68,,68,68,24,25,7,11,0.7,0.8
2025-03-08T0900,3981A,113.2449,35.1803,焦作市,原李万街道办,颗粒物(PM10),72,93,86,46,53,27,,51,48,39,27,15,11,0.7,0.5
2025-03-08T0900,4264A,113.2340,35.2190,焦作市,新安路1731号,细颗粒物(PM2.5),78,66,84,57,60,35,,46,45,29,28,8,12,1.1,0.8
2025-03-08T0900,1708A,116.3701,23.5345,揭阳市,新兴,,28,28,19,15,14,18,,12,12,20,24,8,6,0.8,0.7
2025-03-08T0900,1709A,116.3264,23.5443,揭阳市,西马,,28,21,18,19,13,20,,17,17,20,20,10,8,0.6,0.6
2025-03-08T0900,1710A,116.3611,23.5626,揭阳市,东兴,,18,16,22,12,12,19,,9,9,14,24,6,6,0.7,0.8
2025-03-08T0900,1711A,116.4151,23.5294,揭阳市,渔湖,,18,,21,12,12,30,,16,16,12,20,8,5,0.6,0.7
2025-03-08T0900,3320A,116.403,23.5699,揭阳市,曲溪,,18,,25,12,13,30,,10,10,18,29,4,7,0.5,0.7
2025-03-08T0900,1944A,102.1692,38.5167,金昌市,天庆家园,细颗粒物(PM2.5),84,91,120,62,46,44,,59,55,30,14,12,10,1.5,0.8
2025-03-08T0900,4022A,102.1647,38.5371,金昌市,金川区人防中心,颗粒物(PM10),77,104,152,40,46,53,,63,59,17,12,8,8,0.7,0.7
2025-03-08T0900,4239A,102.1930,38.5319,金昌市,长春路96号,细颗粒物(PM2.5),64,76,91,46,50,54,,60,57,17,15,8,19,0.9,0.8
2025-03-08T0900,1262A,119.647,29.077,金华市,十五中,,48,48,52,33,34,26,,18,18,27,31,5,5,0.6,0.5
2025-03-08T0900,1263A,119.686,29.1029,金华市,监测站,细颗粒物(PM2.5),55,58,61,39,41,23,,22,21,24,27,4,4,0.5,0.4
2025-03-08T0900,3659A,119.656,29.1131,金华市,气象局,细颗粒物(PM2.5),64,68,60,46,36,18,,6,6,30,40,5,5,0.6,0.5
2025-03-08T0900,1767A,121.1115,41.0879,锦州市,南山,细颗粒物(PM2.5),129,,52,98,43,39,,55,52,46,32,17,26,0.7,0.6
2025-03-08T0900,1768A,121.0533,40.8434,锦州市,开发区,细颗粒物(PM2.5),95,,55,71,35,35,,45,41,49,34,61,19,1.1,0.6
2025-03-08T0900,1769A,121.1836,41.1119,锦州市,百股街道,细颗粒物(PM2.5),113,,51,85,34,42,,58,54,35,27,34,22,1.1,0.9
2025-03-08T0900,1770A,121.1178,41.1222,锦州市,天安街道,细颗粒物(PM2.5),107,,53,80,39,40,,59,55,42,30,18,22,0.9,0.7
2025-03-08T0900,1771A,121.1303,41.1386,锦州市,北湖公园,细颗粒物(PM2.5),144,,56,110,40,34,,56,52,51,34,26,18,1.1,0.7
2025-03-08T0900,2160A,112.85,35.5051,晋城市,自来水公司,细颗粒物(PM2.5),94,95,68,70,45,24,,43,38,30,24,9,6,2.0,0.8
2025-03-08T0900,2161A,112.8318,35.4936,晋城市,白云商贸,颗粒物(PM10),81,112,73,58,41,33,,48,44,34,26,8,5,2.2,0.8
2025-03-08T0900,2162A,112.8508,35.4887,晋城市,市环保局,细颗粒物(PM2.5),85,99,73,63,44,28,,38,35,32,26,6,4,1.8,0.6
2025-03-08T0900,2163A,112.8676,35.4897,晋城市,技术学院,"颗粒物(PM10),细颗粒物(PM2.5)",70,90,73,51,38,23,,28,26,35,29,10,6,1.8,1
2025-03-08T0900,2165A,112.8453,35.546,晋城市,白马寺,细颗粒物(PM2.5),144,159,73,110,56,47,,61,56,19,13,25,14,3.6,1.4
2025-03-08T0900,3620A,112.8271,35.4828,晋城市,泽州一中,细颗粒物(PM2.5),83,80,65,61,48,39,,52,48,31,24,10,7,1.6,0.8
2025-03-08T0900,2173A,112.7249,37.7067,晋中市,南都小区,细颗粒物(PM2.5),90,110,71,67,50,22,,27,25,25,24,11,7,1.1,0.8
2025-03-08T0900,2174A,112.6991,37.6982,晋中市,榆次区政府,细颗粒物(PM2.5),73,88,63,53,46,20,,20,19,30,28,9,6,0.9,0.7
2025-03-08T0900,2865A,112.7195,37.6828,晋中市,榆次三中,细颗粒物(PM2.5),85,95,60,63,45,25,,15,15,26,30,9,5,0.6,0.5
2025-03-08T0900,4200A,112.7478,37.6954,晋中市,迎宾街26号,细颗粒物(PM2.5),79,75,58,58,48,25,,22,21,22,24,4,2,0.7,0.6
2025-03-08T0900,2439A,112.2014,31.0481,荆门市,竹园小学,细颗粒物(PM2.5),122,103,97,92,78,65,,91,86,26,17,4,5,0.5,0.4
2025-03-08T0900,2440A,112.1969,30.9891,荆门市,掇刀,细颗粒物(PM2.5),114,111,101,86,77,57,,86,80,37,20,4,5,0.5,0.5
2025-03-08T0900,2441A,112.2213,31.0386,荆门市,石化一小,细颗粒物(PM2.5),119,136,98,90,73,22,,78,68,67,25,11,10,0.8,0.4
2025-03-08T0900,3012A,112.1849,31.0362,荆门市,西山林语,细颗粒物(PM2.5),103,95,86,77,70,75,,88,84,18,17,4,5,0.2,0.3
2025-03-08T0900,3547A,112.1632,31.0138,荆门市,龙泉中学南校,细颗粒物(PM2.5),117,101,102,88,81,58,,74,71,26,20,7,8,0.5,0.5
2025-03-08T0900,1844A,112.2494,30.3197,荆州市,市图书馆,细颗粒物(PM2.5),97,,66,72,74,61,,76,73,28,21,4,4,0.8,0.7
2025-03-08T0900,1845A,112.2008,30.3544,荆州市,市委党校,细颗粒物(PM2.5),94,79,76,70,74,55,,75,72,33,25,10,7,0.8,0.7
2025-03-08T0900,3194A,112.2747,30.3122,荆州市,管委会,细颗粒物(PM2.5),94,79,72,70,74,63,,80,77,26,20,9,10,0.8,0.7
2025-03-08T0900,4268A,112.1722,30.3366,荆州市,学苑路85号,细颗粒物(PM2.5),85,67,69,63,72,69,,77,74,20,23,13,8,0.7,0.7
2025-03-08T0900,2342A,117.3102,29.3867,景德镇市,王港中学,,,,,,,,,,,,,,,,
2025-03-08T0900,2343A,117.2117,29.2933,景德镇市,老干部活动中心,,43,,46,30,38,24,,8,8,20,22,3,5,0.4,0.4
2025-03-08T0900,2344A,117.1894,29.2789,景德镇市,兽医站,,46,46,59,30,30,37,,13,13,14,25,4,6,0.7,0.7
2025-03-08T0900,2345A,117.1547,29.2617,景德镇市,台达陶瓷,颗粒物(PM10),57,64,66,31,41,19,,10,10,23,40,34,79,0.6,0.7
2025-03-08T0900,2346A,117.2461,29.2956,景德镇市,陶研所,细颗粒物(PM2.5),55,42,42,39,37,12,,4,4,24,24,5,6,0.6,0.6
2025-03-08T0900,1803A,115.9872,29.6815,九江市,十里,"颗粒物(PM10),细颗粒物(PM2.5)",59,68,60,42,43,42,,24,24,29,33,5,5,0.6,0.6
2025-03-08T0900,1804A,115.9584,29.7046,九江市,茅山头,颗粒物(PM10),60,69,61,41,42,35,,46,43,44,32,8,7,0.4,0.4
2025-03-08T0900,1805A,115.9877,29.7295,九江市,西园,细颗粒物(PM2.5),73,64,54,53,43,53,,50,50,29,30,11,9,0.7,0.7
2025-03-08T0900,1808A,115.9114,29.6038,九江市,综合工业园,细颗粒物(PM2.5),89,,56,66,56,38,,47,46,38,40,8,8,0.8,0.6
2025-03-08T0900,1809A,116.0721,29.7535,九江市,石化总厂,细颗粒物(PM2.5),77,62,54,56,51,42,,53,50,30,22,13,7,0.7,0.6
2025-03-08T0900,1810A,115.9773,29.5698,九江市,庐山气象台,细颗粒物(PM2.5),65,49,49,47,48,114,,117,117,12,11,6,6,1.1,0.7
2025-03-08T0900,3190A,116.0254,29.6994,九江市,外国语学校,细颗粒物(PM2.5),74,71,60,54,44,27,,35,33,54,38,9,9,0.5,0.4
2025-03-08T0900,4253A,116.0102,29.6594,九江市,莲花大道8号,细颗粒物(PM2.5),75,65,65,55,56,31,,37,35,33,19,6,7,0.5,0.5
2025-03-08T0900,4240A,98.4958,39.7339,酒泉市,玉门东路5号,颗粒物(PM10),56,61,170,26,44,47,,58,57,21,13,7,9,0.4,0.4
2025-03-08T0900,4241A,98.5099,39.7506,酒泉市,北大街108号,颗粒物(PM10),64,78,173,19,40,29,,52,49,36,14,10,10,0.7,0.4
2025-03-08T0900,2698A,76.0072,39.4467,喀什地区,巡警大队,颗粒物(PM10),54,58,82,22,29,19,,50,45,59,37,3,4,1.5,0.9
2025-03-08T0900,2699A,75.9755,39.4694,喀什地区,吾办,颗粒物(PM10),56,61,81,30,31,33,,52,49,48,30,4,5,1.1,0.8
2025-03-08T0900,4027A,75.9483,39.4689,喀什地区,老干局,颗粒物(PM10),61,72,78,24,27,36,,58,55,36,25,2,3,1.3,1
2025-03-08T0900,1824A,114.3389,34.7781,开封市,肿瘤医院,细颗粒物(PM2.5),109,101,70,82,55,31,,36,32,44,31,8,7,0.9,0.7
2025-03-08T0900,1826A,114.2885,34.7965,开封市,世纪星幼儿园,细颗粒物(PM2.5),124,100,71,94,64,38,,40,36,44,32,8,7,1.0,0.8
2025-03-08T0900,3147A,114.3438,34.8106,开封市,龙亭公园,细颗粒物(PM2.5),112,107,71,84,57,34,,42,37,50,34,3,2,0.7,0.4
2025-03-08T0900,3210A,114.3644,34.7964,开封市,汴京公园,细颗粒物(PM2.5),109,118,77,82,55,36,,41,36,47,33,6,5,0.8,0.6
2025-03-08T0900,3473A,114.2485,34.8306,开封市,技师学院,细颗粒物(PM2.5),112,,68,84,58,34,,46,42,39,27,10,9,1.0,0.8
2025-03-08T0900,3592A,114.4644,34.7556,开封市,祥符区生态环境局,细颗粒物(PM2.5),122,156,88,92,60,35,,20,20,46,45,9,4,1.0,0.6
2025-03-08T0900,1951A,84.895,45.6094,克拉玛依市,长征新村,,22,22,28,7,17,58,,68,66,16,17,7,8,0.3,0.4
2025-03-08T0900,1952A,84.8988,45.5893,克拉玛依市,南林小区,,30,24,26,21,17,60,,66,65,14,18,3,3,0.4,0.4
2025-03-08T0900,1954A,84.905,44.3396,克拉玛依市,独山子区,,29,22,42,18,30,91,,101,100,12,10,5,5,0.1,0.3
2025-03-08T0900,1955A,85.6979,46.098,克拉玛依市,乌尔禾区商贸楼,,39,28,38,27,28,48,,59,56,15,16,4,5,0.4,0.6
2025-03-08T0900,3612A,85.1045,45.6899,克拉玛依市,白碱滩区新站,,27,27,34,17,17,51,,57,54,13,16,8,8,0.4,0.3
2025-03-08T0900,2697A,76.1454,39.7142,克孜勒苏柯尔克孜自治州,市人民政府,,25,25,54,13,17,76,,82,82,8,9,5,4,0.4,0.4
2025-03-08T0900,3665A,76.1658,39.7157,克孜勒苏柯尔克孜自治州,克州文化中心,,25,16,52,11,16,80,,93,92,10,7,4,5,0.4,0.4
2025-03-08T0900,1450A,102.8204,24.8886,昆明市,呈贡新区,细颗粒物(PM2.5),68,56,43,49,41,61,,50,50,24,24,9,6,0.7,0.6
2025-03-08T0900,1451A,102.6251,24.9608,昆明市,西山森林公园,,,,,,,,,,,,,,,,
2025-03-08T0900,1452A,102.7252,25.0902,昆明市,龙泉镇,颗粒物(PM10),61,71,46,43,36,11,,51,46,50,29,6,7,1.0,0.8
2025-03-08T0900,1453A,102.7266,25.0375,昆明市,东风东路,细颗粒物(PM2.5),60,57,52,43,44,34,,62,58,36,26,7,7,0.8,0.7
2025-03-08T0900,1454A,102.6742,25.0669,昆明市,金鼎山,"颗粒物(PM10),细颗粒物(PM2.5)",57,63,54,40,33,23,,60,54,54,25,3,3,1.0,0.8
2025-03-08T0900,1455A,102.6644,25.0401,昆明市,碧鸡广场,细颗粒物(PM2.5),58,56,49,41,36,40,,56,52,33,26,6,6,0.7,0.6
2025-03-08T0900,3179A,102.7494,25.0119,昆明市,官渡区博物馆,细颗粒物(PM2.5),57,49,49,40,38,62,,68,68,16,24,7,7,0.8,0.8
2025-03-08T0900,3375A,102.8017,24.8336,昆明市,青年创业园,细颗粒物(PM2.5),68,61,47,49,35,67,,42,42,18,19,10,8,0.7,0.7
2025-03-08T0900,3550A,102.7997,24.9786,昆明市,昆明学院,细颗粒物(PM2.5),64,57,51,46,37,74,,66,66,13,22,4,5,0.6,0.7
2025-03-08T0900,3551A,102.5967,24.6736,昆明市,晋宁区生态环境分局,细颗粒物(PM2.5),64,,36,46,39,46,,56,54,10,8,5,5,0.9,0.7
2025-03-08T0900,3552A,102.6678,24.9856,昆明市,云天化总部,细颗粒物(PM2.5),58,52,49,41,33,49,,69,65,20,19,6,6,0.9,0.8
2025-03-08T0900,1456A,91.1319,29.6514,拉萨市,八廓街,,38,38,27,22,10,83,,111,106,20,10,6,6,0.6,0.5
2025-03-08T0900,1457A,91.1221,29.6747,拉萨市,市环保局,,45,45,30,13,10,57,,91,85,32,17,8,7,0.6,0.4
2025-03-08T0900,1458A,91.0874,29.6475,拉萨市,区监测站,,33,33,23,12,9,56,,103,95,47,15,6,6,0.8,0.6
2025-03-08T0900,1459A,91.1774,29.6541,拉萨市,西藏大学,,29,29,39,11,8,83,,106,102,14,9,5,5,0.5,0.4
2025-03-08T0900,1460A,90.9798,29.6588,拉萨市,区辐射站,颗粒物(PM10),56,62,29,15,9,84,,98,97,20,14,7,7,0.4,0.4
2025-03-08T0900,1461A,91.0834,29.6292,拉萨市,拉萨火车站,,37,37,21,11,8,69,,105,98,27,7,8,8,0.5,0.4
2025-03-08T0900,2520A,109.2203,23.7256,来宾市,来宾技工学校,,45,,32,31,29,69,,58,58,10,12,6,8,0.6,0.7
2025-03-08T0900,3535A,109.1781,23.7297,来宾市,兴宾区政府,,39,35,35,27,27,63,,54,54,7,9,7,8,0.7,0.8
2025-03-08T0900,4002A,109.2416,23.7461,来宾市,中南小学,,38,33,34,26,25,70,,60,60,10,11,5,8,0.7,0.8
2025-03-08T0900,1477A,104.1373,35.9454,兰州市,榆中兰大校区,,,,,,,,,,,,,,,,
2025-03-08T0900,1479A,103.831,36.0464,兰州市,铁路设计院,细颗粒物(PM2.5),88,96,93,65,54,16,,12,10,70,63,21,15,1.3,1.2
2025-03-08T0900,3241A,103.7439,36.0842,兰州市,百合公园,颗粒物(PM10),81,111,92,48,44,14,,9,9,63,47,15,8,1.4,1
2025-03-08T0900,3242A,103.9611,35.998,兰州市,和平,颗粒物(PM10),71,92,87,25,42,27,,51,48,49,26,11,9,1.0,0.5
2025-03-08T0900,4236A,103.6293,36.0938,兰州市,庄浪东路808号,颗粒物(PM10),83,116,82,52,44,26,,30,30,44,43,93,13,1.4,0.7
2025-03-08T0900,4237A,103.7251,36.1043,兰州市,安宁西路88号,颗粒物(PM10),91,131,103,57,53,14,,7,7,58,45,14,8,0.8,0.6
2025-03-08T0900,4238A,103.8470,36.0676,兰州市,北滨河东路1号,颗粒物(PM10),80,110,91,47,50,10,,6,6,64,57,13,13,1.3,0.9
2025-03-08T0900,3245A,103.6633,36.533,兰州新区,新区管委会,细颗粒物(PM2.5),92,130,85,68,44,12,,41,35,24,16,19,21,1.0,0.6
2025-03-08T0900,3246A,103.6975,36.4789,兰州新区,舟曲中学,颗粒物(PM10),97,144,114,65,47,14,,32,28,41,27,13,28,1.2,0.6
2025-03-08T0900,1067A,116.6708,39.5111,廊坊市,药材公司,细颗粒物(PM2.5),130,119,90,99,73,36,,31,27,37,27,3,4,0.8,0.6
2025-03-08T0900,1068A,116.7214,39.5589,廊坊市,开发区,细颗粒物(PM2.5),105,101,89,79,72,17,,31,24,59,32,2,4,0.8,0.5
2025-03-08T0900,1070A,116.7244,39.5269,廊坊市,北华航天学院,细颗粒物(PM2.5),134,110,85,102,69,28,,29,24,52,34,5,5,0.9,0.6
2025-03-08T0900,2919A,116.7022,39.5453,廊坊市,河北工业大学,细颗粒物(PM2.5),128,108,87,97,70,36,,38,34,38,27,6,6,0.7,0.5
2025-03-08T0900,2535A,103.7723,29.5462,乐山市,花湖湾,,36,29,34,25,28,24,,18,18,15,25,4,4,0.4,0.4
2025-03-08T0900,2536A,103.7627,29.5844,乐山市,牛耳桥,细颗粒物(PM2.5),54,47,43,38,34,17,,18,17,22,30,6,6,0.6,0.6
2025-03-08T0900,2537A,103.7508,29.6006,乐山市,市第三水厂,,42,37,34,29,25,21,,23,22,20,25,3,4,0.5,0.5
2025-03-08T0900,2538A,103.7571,29.5664,乐山市,市监测站,,35,30,36,24,27,23,,20,20,15,23,4,5,0.8,0.7
2025-03-08T0900,3361A,103.7311,29.5628,乐山市,理工大学,,39,33,30,27,24,23,,21,21,14,27,6,6,0.4,0.4
2025-03-08T0900,2598A,100.2143,26.8576,丽江市,西南郊,,50,44,51,35,37,77,,92,91,31,12,5,5,1.2,1.1
2025-03-08T0900,2599A,100.2497,26.8802,丽江市,丽江古城,细颗粒物(PM2.5),54,56,53,38,36,68,,82,82,28,16,9,8,0.8,0.6
2025-03-08T0900,2600A,100.2203,26.8906,丽江市,市中心,细颗粒物(PM2.5),53,42,40,37,34,69,,85,82,41,16,7,7,0.8,0.7
2025-03-08T0900,1267A,119.914,28.4514,丽水市,监测站大楼,细颗粒物(PM2.5),73,,40,53,34,28,,16,16,21,24,3,3,0.3,0.3
2025-03-08T0900,1268A,119.93,28.4586,丽水市,莲都小学,细颗粒物(PM2.5),64,68,47,46,29,26,,18,18,19,23,3,4,0.4,0.3
2025-03-08T0900,1269A,119.879,28.4231,丽水市,余庄前,细颗粒物(PM2.5),65,55,41,47,31,13,,9,9,24,19,4,4,0.4,0.3
2025-03-08T0900,1173A,119.176,34.5885,连云港市,市环境监测站,细颗粒物(PM2.5),107,119,100,80,69,57,,84,77,44,29,12,11,0.7,0.7
2025-03-08T0900,3000A,119.3581,34.6972,连云港市,德源药业,细颗粒物(PM2.5),85,95,100,63,67,72,,79,79,46,38,10,9,0.6,0.7
2025-03-08T0900,3007A,119.178,34.844,连云港市,新城一中,细颗粒物(PM2.5),148,132,102,113,83,47,,58,56,70,50,11,10,0.9,0.8
2025-03-08T0900,3008A,119.3608,34.7519,连云港市,胡沟管理处,细颗粒物(PM2.5),77,70,72,56,54,94,,109,107,34,37,11,11,0.6,0.7
2025-03-08T0900,3009A,119.1478,34.5911,连云港市,矿山设计院,细颗粒物(PM2.5),94,102,101,70,66,82,,97,92,25,21,11,10,0.6,0.6
2025-03-08T0900,3434A,119.2413,34.6539,连云港市,工贸学校,细颗粒物(PM2.5),113,108,101,85,75,85,,97,95,25,23,11,11,0.8,0.9
2025-03-08T0900,3664A,119.4172,34.7341,连云港市,连云街道,细颗粒物(PM2.5),103,106,98,77,63,66,,120,113,68,39,12,11,0.8,0.7
2025-03-08T0900,2571A,102.3431,27.8099,凉山彝族自治州,青龙寺,,22,22,28,6,9,41,,51,50,11,10,5,5,0.8,0.8
2025-03-08T0900,2572A,102.2721,27.8415,凉山彝族自治州,邛海宾馆,,17,17,34,10,28,53,,65,63,13,12,13,16,0.8,0.8
2025-03-08T0900,2573A,102.2625,27.898,凉山彝族自治州,西昌市政府,,23,23,27,13,22,33,,44,44,25,15,29,20,0.9,0.8
2025-03-08T0900,2574A,102.2685,27.8851,凉山彝族自治州,凉山州政府,,17,17,30,10,20,41,,52,51,25,15,24,19,0.9,0.9
2025-03-08T0900,4229A,102.2342,27.8859,凉山彝族自治州,凯乐南路30号,,17,17,38,7,21,40,,52,51,21,14,14,14,0.6,0.7
2025-03-08T0900,2212A,123.2,41.1953,辽阳市,宏伟区,细颗粒物(PM2.5),54,,58,38,36,101,,107,106,20,17,10,14,0.6,0.8
2025-03-08T0900,2213A,123.1683,41.2495,辽阳市,新华园,细颗粒物(PM2.5),55,43,62,39,38,90,,89,89,23,30,10,16,0.7,0.9
2025-03-08T0900,2214A,123.2354,41.2639,辽阳市,滨河路,细颗粒物(PM2.5),62,45,56,44,37,99,,95,95,20,24,20,18,0.5,0.6
2025-03-08T0900,2215A,123.149,41.2991,辽阳市,铁西工业园,细颗粒物(PM2.5),60,50,76,43,41,91,,89,89,23,29,11,19,0.6,0.9
2025-03-08T0900,2227A,125.1358,42.8845,辽源市,环保局,,48,48,42,29,22,96,,84,84,16,18,7,7,0.8,0.8
2025-03-08T0900,3239A,125.0764,42.9078,辽源市,银鹰制药,,38,38,39,22,22,100,,91,91,13,12,8,8,0.7,0.7
2025-03-08T0900,1625A,115.9848,36.4372,聊城市,区政府,细颗粒物(PM2.5),90,96,92,67,59,67,,74,72,21,16,13,14,0.8,0.7
2025-03-08T0900,2878A,116.0072,36.4343,聊城市,聊大东校,细颗粒物(PM2.5),100,107,98,75,65,65,,73,71,25,21,10,9,0.9,1
2025-03-08T0900,3200A,115.9819,36.4978,聊城市,监控中心,细颗粒物(PM2.5),104,113,99,78,65,60,,70,67,32,23,15,13,0.9,0.9
2025-03-08T0900,3513A,116.0445,36.4361,聊城市,九州社区,细颗粒物(PM2.5),92,96,91,68,61,67,,74,73,23,16,10,11,0.7,0.7
2025-03-08T0900,4018A,116.0567,36.4608,聊城市,星美广场,细颗粒物(PM2.5),85,103,94,63,57,66,,78,76,28,20,14,14,0.8,0.8
2025-03-08T0900,2632A,94.3681,29.6376,林芝市,林芝监测站,,32,24,22,18,14,101,,110,109,8,6,6,7,0.3,0.3
2025-03-08T0900,2633A,94.3616,29.6616,林芝市,林芝人民医院,,33,33,28,19,15,96,,106,105,5,4,6,6,0.3,0.3
2025-03-08T0900,2603A,100.0781,23.8982,临沧市,市环保局,细颗粒物(PM2.5),77,73,83,56,57,50,,69,66,24,16,12,13,0.8,0.7
2025-03-08T0900,2604A,100.0894,23.8822,临沧市,市气象局,细颗粒物(PM2.5),83,82,73,61,58,42,,68,63,36,18,17,16,0.8,0.7
2025-03-08T0900,1733A,111.5531,36.0783,临汾市,临钢医院,颗粒物(PM10),67,84,80,45,58,13,,12,11,32,24,8,7,0.9,0.9
2025-03-08T0900,1734A,111.5028,36.0714,临汾市,技工学校,细颗粒物(PM2.5),74,77,82,54,64,15,,7,7,30,26,8,8,0.9,0.8
2025-03-08T0900,1736A,111.5018,36.0855,临汾市,市委,细颗粒物(PM2.5),69,77,86,50,59,15,,8,8,27,24,7,6,0.9,0.9
2025-03-08T0900,3018A,111.505,36.1014,临汾市,唐尧大酒店,细颗粒物(PM2.5),72,81,87,52,61,12,,4,4,26,28,7,6,0.9,0.8
2025-03-08T0900,4244A,111.4879,36.0530,临汾市,启星学校,细颗粒物(PM2.5),77,57,71,56,60,16,,5,5,26,22,4,3,0.9,0.8
2025-03-08T0900,4271A,103.2464,35.6123,临夏回族自治州,滨河东路1号,颗粒物(PM10),65,80,57,13,14,21,,48,44,40,23,4,3,1.1,0.7
2025-03-08T0900,4310A,103.2093,35.5995,临夏回族自治州,新华街21号,颗粒物(PM10),52,54,44,27,13,23,,38,35,33,17,11,9,1.5,0.8
2025-03-08T0900,1618A,118.3429,35.0532,临沂市,沂河小区,细颗粒物(PM2.5),133,127,103,101,79,67,,77,76,43,30,21,18,1.0,0.8
2025-03-08T0900,1619A,118.295,35.0583,临沂市,鲁南制药厂,细颗粒物(PM2.5),130,136,104,99,74,61,,72,72,56,43,16,17,0.8,0.5
2025-03-08T0900,1620A,118.2794,34.9976,临沂市,新光毛纺厂,细颗粒物(PM2.5),110,114,96,83,71,77,,73,73,40,37,16,16,0.9,0.8
2025-03-08T0900,1621A,118.3956,35.0888,临沂市,河东保险公司,细颗粒物(PM2.5),107,110,93,80,64,89,,95,95,38,35,14,12,1.0,0.8
2025-03-08T0900,3370A,118.3564,35.0215,临沂市,十里堡居委,细颗粒物(PM2.5),119,129,98,90,69,76,,70,70,40,35,26,19,0.9,0.7
2025-03-08T0900,3496A,118.3604,35.1084,临沂市,南坊新区,细颗粒物(PM2.5),100,105,91,75,64,90,,92,92,29,28,9,12,0.8,0.7
2025-03-08T0900,3860A,118.3920,35.0300,临沂市,皇山花园小区,细颗粒物(PM2.5),125,136,96,95,67,72,,77,76,45,31,23,15,0.7,0.6
2025-03-08T0900,1870A,109.4856,24.3895,柳州市,柳东小学,,38,26,27,26,23,67,,58,58,12,12,10,10,0.5,0.5
2025-03-08T0900,1871A,109.4157,24.3277,柳州市,环保监测站,,42,42,28,19,19,72,,67,67,8,11,9,9,0.5,0.5
2025-03-08T0900,1872A,109.389,24.341,柳州市,河西水厂,,39,39,28,18,18,65,,60,60,8,11,2,4,0.6,0.8
2025-03-08T0900,1873A,109.4311,24.2921,柳州市,市四中,,25,25,24,17,20,74,,70,70,9,9,8,8,0.5,0.5
2025-03-08T0900,1874A,109.4006,24.3631,柳州市,市九中,,39,39,26,19,19,70,,59,59,7,10,6,7,0.7,0.7
2025-03-08T0900,1875A,109.4958,24.3134,柳州市,古亭山,,32,25,26,22,27,75,,66,66,5,7,7,7,0.4,0.4
2025-03-08T0900,3402A,109.5422,24.3996,柳州市,市二中,,33,25,26,23,25,74,,65,65,10,12,9,9,0.4,0.4
2025-03-08T0900,2307A,116.5079,31.737,六安市,监测大楼,细颗粒物(PM2.5),73,70,59,53,44,34,,62,54,54,27,5,5,0.7,0.7
2025-03-08T0900,2308A,116.4738,31.7643,六安市,皖西学院,细颗粒物(PM2.5),64,64,62,46,42,67,,68,64,34,23,5,5,0.5,0.6
2025-03-08T0900,2309A,116.4996,31.7905,六安市,朝阳厂,细颗粒物(PM2.5),68,69,61,49,40,58,,72,68,35,21,4,4,0.7,0.6
2025-03-08T0900,2310A,116.5567,31.7886,六安市,开发区,细颗粒物(PM2.5),82,97,83,60,52,49,,59,56,38,27,5,5,0.7,0.5
2025-03-08T0900,2576A,104.8,26.5892,六盘水市,窑上,,,,36,20,23,34,,45,44,11,9,5,5,0.7,0.7
2025-03-08T0900,2577A,104.83,26.5917,六盘水市,黄土坡,,17,17,26,10,19,37,,48,48,17,14,8,8,0.7,0.6
2025-03-08T0900,2578A,104.89,26.5939,六盘水市,水钢,,40,,38,28,31,38,,49,49,13,14,6,9,0.6,0.6
2025-03-08T0900,2579A,104.8475,26.5894,六盘水市,民中,,11,10,25,7,17,33,,46,46,16,14,8,8,0.7,0.7
2025-03-08T0900,2580A,104.9544,26.5506,六盘水市,双水,,16,,26,11,20,40,,46,46,13,13,8,9,0.5,0.5
2025-03-08T0900,2335A,117.0189,25.1181,龙岩市,龙岩师专,,,,,,,,,,,,,,,,
2025-03-08T0900,2336A,117.0217,25.1033,龙岩市,龙岩市监测站,,32,22,21,22,18,36,,35,35,12,16,16,8,0.6,0.5
2025-03-08T0900,2337A,117.0258,25.0661,龙岩市,闽西职业技术学院,,32,26,20,22,18,33,,32,32,13,14,8,7,0.6,0.6
2025-03-08T0900,2338A,117.0196,25.0306,龙岩市,龙岩学院,,42,31,22,29,21,20,,25,24,22,14,10,8,0.8,0.7
2025-03-08T0900,2665A,105.0822,33.3261,陇南市,汉王镇固水子,,,,,,,,,,,,,,,,
2025-03-08T0900,2885A,104.9339,33.3826,陇南市,滨江中学,颗粒物(PM10),54,58,76,23,29,52,,50,50,14,13,9,8,0.6,0.7
2025-03-08T0900,3247A,104.955,33.371,陇南市,市总工会,颗粒物(PM10),59,67,82,27,29,59,,61,60,8,6,10,8,0.4,0.4
2025-03-08T0900,2487A,111.9589,27.8901,娄底市,电视发射台,细颗粒物(PM2.5),60,43,34,43,35,49,,36,36,11,9,6,5,0.7,0.6
2025-03-08T0900,2488A,111.9975,27.725,娄底市,市监测站,细颗粒物(PM2.5),77,62,63,56,53,16,,18,16,35,30,11,10,1.1,1
2025-03-08T0900,2489A,112.0194,27.7314,娄底市,市委党校,细颗粒物(PM2.5),80,67,63,59,52,24,,31,29,30,23,4,4,0.9,0.7
2025-03-08T0900,2490A,111.9561,27.7569,娄底市,涟钢,细颗粒物(PM2.5),72,68,68,52,55,28,,32,29,16,22,3,7,0.9,1.2
2025-03-08T0900,2491A,111.9892,27.7044,娄底市,市政府,细颗粒物(PM2.5),54,46,59,38,50,25,,34,33,17,17,8,8,0.9,0.9
2025-03-08T0900,1893A,105.4324,28.9634,泸州市,九狮山,,,,,,,,,,,,,,,,
2025-03-08T0900,1894A,105.4427,28.9063,泸州市,小市上码头,颗粒物(PM10),59,68,56,39,33,31,,39,38,22,25,5,6,0.4,0.4
2025-03-08T0900,1895A,105.4241,28.8573,泸州市,兰田宪桥,"颗粒物(PM10),细颗粒物(PM2.5)",55,59,52,39,35,22,,33,31,19,25,5,5,0.5,0.5
2025-03-08T0900,1896A,105.4379,28.8833,泸州市,市环监站,颗粒物(PM10),67,84,63,46,36,23,,36,34,27,30,6,6,0.2,0.2
2025-03-08T0900,4272A,105.3689,28.7783,泸州市,纳溪中医医院,细颗粒物(PM2.5),53,,42,37,35,16,,32,28,31,25,5,5,0.6,0.5
2025-03-08T0900,2183A,111.1406,37.5211,吕梁市,环保局,颗粒物(PM10),57,63,52,31,33,39,,37,37,26,37,6,6,0.4,0.4
2025-03-08T0900,2185A,111.1297,37.5136,吕梁市,自来水公司,细颗粒物(PM2.5),64,73,51,46,39,40,,26,26,24,30,5,5,0.5,0.6
2025-03-08T0900,2867A,111.1283,37.51,吕梁市,马茂庄小学,颗粒物(PM10),64,78,59,41,36,41,,36,36,25,41,5,6,0.4,0.5
2025-03-08T0900,1812A,112.3931,34.6516,洛阳市,市委党校,细颗粒物(PM2.5),97,89,77,72,61,22,,5,5,34,39,10,4,1.0,0.9
2025-03-08T0900,1815A,112.494,34.6886,洛阳市,河南林校,细颗粒物(PM2.5),103,94,70,77,66,14,,6,6,41,39,12,4,1.0,0.8
2025-03-08T0900,1816A,112.3844,34.623,洛阳市,开发区管委会,细颗粒物(PM2.5),87,84,80,64,61,22,,21,21,26,24,8,7,0.8,0.7
2025-03-08T0900,1817A,112.4267,34.6258,洛阳市,市委新办公区,细颗粒物(PM2.5),80,86,85,59,57,26,,18,18,31,38,4,4,0.7,0.6
2025-03-08T0900,3340A,112.6005,34.6326,洛阳市,伊滨,细颗粒物(PM2.5),103,102,91,77,72,23,,12,12,33,35,5,5,0.9,0.8
2025-03-08T0900,3341A,112.4951,34.6332,洛阳市,中移产业园,细颗粒物(PM2.5),102,85,89,76,77,24,,18,18,30,39,4,3,1.0,0.9
2025-03-08T0900,3593A,112.5736,34.8993,洛阳市,吉利监测站,细颗粒物(PM2.5),88,67,72,65,58,31,,31,31,17,27,5,5,0.6,0.6
2025-03-08T0900,3635A,112.3677,34.662,洛阳市,河科大西苑校区,细颗粒物(PM2.5),92,97,76,68,59,18,,9,9,39,34,15,8,1.0,0.7
2025-03-08T0900,3636A,112.4388,34.6781,洛阳市,英才小学,细颗粒物(PM2.5),95,119,85,71,58,15,,7,7,46,44,19,11,0.9,0.7
2025-03-08T0900,4214A,112.4600,34.6949,洛阳市,春都路1号院,细颗粒物(PM2.5),95,118,82,71,53,15,,6,6,44,38,13,7,1.0,0.7
2025-03-08T0900,2399A,114.051,33.5699,漯河市,三五一五工厂,细颗粒物(PM2.5),104,107,71,78,58,68,,58,57,24,20,6,5,0.7,0.5
2025-03-08T0900,2400A,114.0055,33.5698,漯河市,漯河大学,细颗粒物(PM2.5),100,110,75,75,52,59,,67,65,34,24,6,6,0.6,0.4
2025-03-08T0900,2401A,114.0138,33.5828,漯河市,市水利局,细颗粒物(PM2.5),107,102,65,80,51,67,,69,66,23,18,4,4,0.6,0.4
2025-03-08T0900,2402A,114.0261,33.5698,漯河市,市广电局,细颗粒物(PM2.5),108,98,64,81,51,52,,68,65,34,21,5,5,0.7,0.5
2025-03-08T0900,3478A,113.9749,33.5664,漯河市,市图书馆,细颗粒物(PM2.5),113,103,74,85,56,63,,81,78,27,22,4,5,0.7,0.6
2025-03-08T0900,4250A,114.0892,33.5882,漯河市,韶山路11号,细颗粒物(PM2.5),109,114,78,82,56,15,,65,57,68,26,4,6,0.8,0.4
2025-03-08T0900,1798A,118.5092,31.6837,马鞍山市,湖东路四小,细颗粒物(PM2.5),102,106,71,76,46,44,,45,41,41,30,7,7,0.7,0.6
2025-03-08T0900,1799A,118.5024,31.6449,马鞍山市,开发区,细颗粒物(PM2.5),114,118,85,86,55,29,,35,32,49,40,7,6,0.8,0.6
2025-03-08T0900,1802A,118.6245,31.7241,马鞍山市,濮塘,细颗粒物(PM2.5),104,92,64,78,49,57,,62,58,22,13,10,9,0.7,0.6
2025-03-08T0900,3633A,118.4918,31.6809,马鞍山市,雨山,细颗粒物(PM2.5),103,117,77,77,46,42,,45,42,44,35,9,8,0.8,0.6
2025-03-08T0900,4191A,118.5274,31.72227,马鞍山市,慈湖高新区,细颗粒物(PM2.5),110,114,72,83,55,34,,41,36,49,35,9,8,0.7,0.6
2025-03-08T0900,1686A,111.0286,21.4688,茂名市,电白南海,,27,27,25,14,14,34,,33,33,8,8,4,4,0.7,0.7
2025-03-08T0900,1687A,110.9294,21.6533,茂名市,茂石化七小,,22,22,20,14,13,23,,24,23,7,9,5,4,1.3,1.2
2025-03-08T0900,1688A,110.9107,21.6687,茂名市,健康路,,29,29,20,14,14,22,,22,22,13,12,19,12,1.1,1
2025-03-08T0900,1689A,110.8592,21.6828,茂名市,高岭,,29,29,28,7,14,18,,17,17,11,11,9,16,0.6,0.7
2025-03-08T0900,3450A,111.01,21.5165,茂名市,电白水东,,25,19,19,17,13,23,,27,26,16,16,8,10,0.9,0.9
2025-03-08T0900,2539A,104.0308,30.0478,眉山市,黑龙滩水库,,50,37,35,35,30,31,,32,32,4,5,3,3,0.6,0.5
2025-03-08T0900,2540A,103.8416,30.0874,眉山市,气象局,,39,37,36,27,26,11,,33,27,25,20,6,5,0.7,0.5
2025-03-08T0900,3137A,103.8578,30.0744,眉山市,市委党校,,39,39,29,27,25,14,,35,30,30,24,8,6,0.8,0.6
2025-03-08T0900,3148A,103.8291,30.0564,眉山市,区人社局,,49,47,31,34,25,16,,35,31,40,28,7,4,0.7,0.6
2025-03-08T0900,1690A,116.1231,24.3284,梅州市,梅江月梅,,19,14,13,13,11,25,,18,18,7,14,10,9,0.5,0.5
2025-03-08T0900,1691A,116.0797,24.2719,梅州市,梅县新城,,23,23,12,15,10,23,,24,24,14,12,6,5,0.5,0.5
2025-03-08T0900,1692A,116.1248,24.2654,梅州市,环境监控中心,,18,16,12,12,10,20,,18,18,13,18,6,6,0.5,0.5
2025-03-08T0900,3315A,116.1233,24.2991,梅州市,梅龙,,20,14,10,14,10,25,,23,23,11,15,6,6,0.6,0.6
2025-03-08T0900,1878A,104.7778,31.4741,绵阳市,富乐山,细颗粒物(PM2.5),62,59,42,44,28,6,,5,5,30,28,2,2,0.7,0.6
2025-03-08T0900,1880A,104.6697,31.4668,绵阳市,高新区自来水公司,细颗粒物(PM2.5),70,72,55,51,30,5,,4,4,35,32,3,3,0.9,0.8
2025-03-08T0900,1881A,104.7287,31.5075,绵阳市,三水厂,细颗粒物(PM2.5),70,75,52,51,34,6,,4,4,36,32,6,6,0.8,0.6
2025-03-08T0900,3491A,104.69,31.5322,绵阳市,西科大附属小学,细颗粒物(PM2.5),62,71,53,44,30,8,,9,8,32,32,7,6,0.9,0.6
2025-03-08T0900,3492A,104.5648,31.5343,绵阳市,安州区旅游局,细颗粒物(PM2.5),85,73,47,63,33,14,,12,12,30,28,10,9,0.5,0.4
2025-03-08T0900,4226A,104.7651,31.4531,绵阳市,绵阳市气象局,颗粒物(PM10),63,76,51,39,31,4,,5,5,34,34,5,6,0.7,0.6
2025-03-08T0900,1784A,129.61,44.561,牡丹江市,环保大楼,颗粒物(PM10),52,53,41,29,27,40,,43,42,31,20,14,10,0.4,0.4
2025-03-08T0900,1785A,129.6115,44.5782,牡丹江市,文化广场,颗粒物(PM10),52,53,51,27,28,31,,44,41,46,30,23,15,0.7,0.6
2025-03-08T0900,1786A,129.5904,44.5963,牡丹江市,第一医院,颗粒物(PM10),52,54,45,31,31,41,,43,41,32,23,28,17,0.2,0.3
2025-03-08T0900,1787A,129.6364,44.6075,牡丹江市,机车工厂,颗粒物(PM10),58,65,58,29,24,38,,34,34,26,19,35,23,0.6,0.5
2025-03-08T0900,1788A,129.6386,44.5462,牡丹江市,第一中学,细颗粒物(PM2.5),53,42,39,37,29,41,,30,30,31,26,16,10,0.5,0.5
2025-03-08T0900,2531A,105.0703,29.61,内江市,市监测站,,46,,31,32,31,27,,35,33,28,21,4,5,0.8,0.8
2025-03-08T0900,2532A,105.0717,29.5947,内江市,东兴区政府,,42,31,32,29,24,24,,34,32,14,20,4,3,0.8,0.8
2025-03-08T0900,2533A,105.0653,29.5817,内江市,内江二中,,48,40,36,33,30,32,,34,34,16,19,3,3,0.8,0.7
2025-03-08T0900,2534A,105.0406,29.5822,内江市,内江日报社,,41,41,40,27,26,26,,30,28,34,26,6,6,0.6,0.6
2025-03-08T0900,2628A,92.0657,31.4846,那曲市,那曲监测站,颗粒物(PM10),63,75,48,33,25,73,,66,66,13,8,7,7,0.6,0.6
2025-03-08T0900,3128A,92.0506,31.4797,那曲市,那曲会议中心,颗粒物(PM10),91,132,59,31,22,81,,73,73,8,4,6,5,0.7,0.6
2025-03-08T0900,1290A,115.8931,28.6843,南昌市,省外办,细颗粒物(PM2.5),77,70,64,56,55,27,,43,40,60,33,5,5,0.8,0.7
2025-03-08T0900,1291A,115.8886,28.7003,南昌市,省林业公司,细颗粒物(PM2.5),70,66,56,51,50,15,,39,34,44,26,14,10,0.5,0.6
2025-03-08T0900,1292A,115.8126,28.7442,南昌市,林科所,"颗粒物(PM10),细颗粒物(PM2.5)",58,66,62,41,44,26,,15,15,53,54,5,7,0.6,0.6
2025-03-08T0900,1294A,115.8518,28.687,南昌市,建工学校,,,,,,,,,,,,,,,,
2025-03-08T0900,1295A,115.8921,28.6424,南昌市,象湖,细颗粒物(PM2.5),70,63,56,51,48,24,,26,26,44,32,12,9,0.6,0.6
2025-03-08T0900,1296A,115.7423,28.7996,南昌市,武术学校,,30,,37,21,36,14,,9,9,11,16,3,2,0.4,0.4
2025-03-08T0900,3046A,115.9084,28.6062,南昌市,机电学校,细颗粒物(PM2.5),79,97,68,58,50,10,,16,14,52,36,12,8,0.7,0.5
2025-03-08T0900,3690A,115.9721,28.7031,南昌市,外国语学校,细颗粒物(PM2.5),68,73,62,49,40,18,,31,27,38,25,10,6,0.5,0.4
2025-03-08T0900,4192A,115.9316,28.68677,南昌市,南京东路235号,细颗粒物(PM2.5),80,71,68,59,55,30,,28,27,47,38,12,7,0.9,0.8
2025-03-08T0900,1905A,106.056,30.8064,南充市,西山风景区,,40,29,22,28,19,27,,46,43,15,9,2,2,0.4,0.3
2025-03-08T0900,1906A,106.0789,30.8023,南充市,南充市委,,39,36,32,27,25,34,,46,45,25,21,4,4,0.6,0.5
2025-03-08T0900,1907A,106.1031,30.8217,南充市,南充炼油厂,,43,41,37,30,25,35,,44,43,24,17,4,4,0.4,0.3
2025-03-08T0900,1909A,106.0642,30.7636,南充市,嘉陵区环保局,,44,44,36,27,21,32,,40,40,22,22,3,4,0.5,0.5
2025-03-08T0900,1910A,106.1087,30.8388,南充市,市环境监测站,细颗粒物(PM2.5),53,54,40,37,28,23,,43,40,37,21,6,6,0.6,0.5
2025-03-08T0900,4227A,106.1083,30.7884,南充市,梨树横街98号,,46,38,36,32,23,39,,45,44,22,17,6,5,0.4,0.3
2025-03-08T0900,1151A,118.8086,32.1065,南京市,迈皋桥,细颗粒物(PM2.5),85,78,67,63,48,46,,44,42,45,30,4,4,0.6,0.6
2025-03-08T0900,1152A,118.7538,32.0551,南京市,草场门,细颗粒物(PM2.5),83,88,73,61,50,40,,42,39,37,29,6,6,0.7,0.8
2025-03-08T0900,1153A,118.7794,32.0745,南京市,山西路,细颗粒物(PM2.5),83,92,77,61,50,60,,63,62,19,13,3,4,0.7,0.7
2025-03-08T0900,1154A,118.7752,32.0023,南京市,中华门,细颗粒物(PM2.5),85,97,72,63,48,45,,52,50,48,35,6,4,0.6,0.5
2025-03-08T0900,1155A,118.8109,32.0309,南京市,瑞金路,细颗粒物(PM2.5),85,107,72,63,49,44,,43,41,52,32,6,6,0.7,0.7
2025-03-08T0900,1156A,118.7997,32.0754,南京市,玄武湖,细颗粒物(PM2.5),79,85,75,58,47,42,,48,44,31,21,9,9,0.6,0.6
2025-03-08T0900,1157A,118.6414,32.0931,南京市,浦口,细颗粒物(PM2.5),93,103,84,69,50,40,,58,54,36,28,8,7,0.5,0.6
2025-03-08T0900,1158A,118.7356,31.9996,南京市,奥体中心,细颗粒物(PM2.5),92,108,78,68,51,50,,41,38,43,37,9,8,0.5,0.6
2025-03-08T0900,1159A,118.9125,32.1028,南京市,仙林大学城,细颗粒物(PM2.5),92,95,73,68,52,50,,41,40,32,25,10,9,0.7,0.8
2025-03-08T0900,3422A,118.8436,31.9198,南京市,江宁彩虹桥,细颗粒物(PM2.5),89,112,83,66,48,27,,34,31,48,29,6,6,0.6,0.6
2025-03-08T0900,3423A,119.0138,31.6494,南京市,溧水永阳,细颗粒物(PM2.5),93,97,60,69,52,55,,24,23,30,24,13,6,0.7,0.6
2025-03-08T0900,3427A,118.8554,32.3578,南京市,六合雄州,颗粒物(PM10),75,99,77,50,41,19,,8,7,51,36,7,6,0.8,0.8
2025-03-08T0900,4249A,118.8708,31.3402,南京市,汶溪路181号,细颗粒物(PM2.5),112,96,65,84,52,43,,43,40,27,19,5,5,0.5,0.3
2025-03-08T0900,1401A,108.3103,22.7881,南宁市,二十一中,,43,,32,30,26,49,,60,59,18,16,5,5,0.6,0.6
2025-03-08T0900,1402A,108.3141,22.8528,南宁市,北湖,,46,,35,32,27,39,,52,50,20,16,6,7,0.5,0.5
2025-03-08T0900,1403A,108.3206,22.8225,南宁市,市监测站,,35,33,32,24,24,43,,55,54,21,19,7,7,0.8,0.8
2025-03-08T0900,1404A,108.3829,22.8037,南宁市,大自然花园,,40,,33,28,24,53,,60,59,10,12,6,6,0.6,0.6
2025-03-08T0900,1405A,108.4394,22.7904,南宁市,仙葫,,33,29,33,23,25,51,,53,53,13,13,4,5,0.4,0.4
2025-03-08T0900,1406A,108.2397,22.8467,南宁市,区农职院,,39,34,36,27,25,49,,49,48,15,15,10,12,0.5,0.5
2025-03-08T0900,1407A,108.3275,22.735,南宁市,英华嘉园,,40,32,34,28,24,51,,58,57,12,14,7,7,0.5,0.5
2025-03-08T0900,3401A,108.4834,22.7618,南宁市,红星社区,,,,32,22,20,57,,56,56,7,9,8,9,0.6,0.6
2025-03-08T0900,4221A,108.2177,22.7774,南宁市,乐贤路16号,,39,37,41,27,24,46,,50,50,18,22,9,10,0.6,0.7
2025-03-08T0900,2331A,118.0966,26.6761,南平市,茫荡山,,,,,,,,,,,,,,,,
2025-03-08T0900,2332A,118.1681,26.6369,南平市,南平市监测站,,29,24,28,20,19,57,,53,53,8,10,3,4,0.5,0.5
2025-03-08T0900,2333A,118.1825,26.6489,南平市,南平铝业有限公司,,35,28,24,24,25,54,,54,54,10,10,4,4,0.6,0.6
2025-03-08T0900,2334A,118.1756,26.6272,南平市,南平七中,,,22,23,,20,56,,54,54,8,14,3,6,0.5,0.5
2025-03-08T0900,1168A,120.9098,31.9663,南通市,狼山街道,细颗粒物(PM2.5),63,73,48,45,30,48,,40,39,53,26,9,6,0.6,0.5
2025-03-08T0900,1169A,120.86,32.0005,南通市,虹桥,细颗粒物(PM2.5),70,74,49,51,32,33,,47,41,60,35,9,6,0.5,0.2
2025-03-08T0900,1170A,120.87,32.02,南通市,城中,颗粒物(PM10),66,82,53,43,30,33,,54,48,64,29,12,7,0.9,0.6
2025-03-08T0900,1171A,120.94,31.93,南通市,星湖花园,颗粒物(PM10),57,63,42,34,28,56,,43,43,42,29,6,6,0.5,0.4
2025-03-08T0900,1172A,120.81,32.0417,南通市,紫琅学院,颗粒物(PM10),62,74,46,43,28,41,,31,26,45,30,6,4,0.5,0.5
2025-03-08T0900,3291A,121.067,32.062,南通市,通州监测站,细颗粒物(PM2.5),58,63,47,41,27,72,,53,50,25,18,3,16,0.6,0.5
2025-03-08T0900,3432A,120.9348,31.9883,南通市,环境教育馆,"颗粒物(PM10),细颗粒物(PM2.5)",68,85,48,49,34,37,,29,29,62,29,11,5,0.3,0.2
2025-03-08T0900,2404A,112.5224,33.0122,南阳市,瓦房庄,细颗粒物(PM2.5),113,147,101,85,76,19,,34,29,50,31,4,4,0.9,0.7
2025-03-08T0900,2405A,112.5003,32.9735,南阳市,汉画馆,细颗粒物(PM2.5),123,127,93,93,74,14,,16,15,49,34,4,4,0.9,0.6
2025-03-08T0900,2406A,112.5573,33.027,南阳市,气象站,细颗粒物(PM2.5),104,120,107,78,70,28,,38,38,37,30,3,4,0.6,0.7
2025-03-08T0900,2407A,112.5481,32.9689,南阳市,理工学院,细颗粒物(PM2.5),119,126,101,90,76,13,,21,20,44,33,4,3,0.8,0.7
2025-03-08T0900,4008A,112.5234,32.9922,南阳市,卧龙区政府,细颗粒物(PM2.5),113,138,105,85,78,14,,25,21,48,33,6,6,1.0,0.7
2025-03-08T0900,1234A,121.8358,29.911,宁波市,区环保大楼,细颗粒物(PM2.5),67,80,63,48,33,30,,14,14,53,42,10,7,0.7,0.6
2025-03-08T0900,1235A,121.56,29.82,宁波市,万里学院,"颗粒物(PM10),细颗粒物(PM2.5)",57,64,56,40,35,30,,15,15,30,39,8,7,0.6,0.5
2025-03-08T0900,1236A,121.713,29.9572,宁波市,龙赛医院,细颗粒物(PM2.5),69,84,61,50,30,12,,4,4,43,37,8,7,0.8,0.7
2025-03-08T0900,1239A,121.633,29.7733,宁波市,钱湖水厂,细颗粒物(PM2.5),58,61,54,41,33,29,,20,20,31,30,7,6,0.9,0.7
2025-03-08T0900,1240A,121.5856,29.8635,宁波市,太古小学,颗粒物(PM10),60,70,61,40,32,23,,12,12,41,42,8,8,0.8,0.7
2025-03-08T0900,1241A,121.524,29.8674,宁波市,市环境监测中心,细颗粒物(PM2.5),54,51,54,38,33,22,,6,6,44,47,9,7,0.5,0.4
2025-03-08T0900,2871A,121.6147,29.9017,宁波市,万里国际学校,细颗粒物(PM2.5),58,54,47,41,28,18,,4,4,38,43,7,7,0.6,0.4
2025-03-08T0900,3710A,121.5594,29.8975,宁波市,白沙活动中心,颗粒物(PM10),53,56,50,34,27,25,,19,19,34,31,6,6,0.8,0.6
2025-03-08T0900,2339A,119.5001,26.6946,宁德市,金涵水库,,,,,,,,,,,,,,,,
2025-03-08T0900,2341A,119.5388,26.6612,宁德市,宁德市监测站,,26,20,30,18,25,25,,31,30,14,14,4,5,0.5,0.5
2025-03-08T0900,3209A,119.5231,26.6562,宁德市,宁德一中,,25,17,29,17,12,28,,31,28,13,14,4,5,0.4,0.3
2025-03-08T0900,2618A,98.8601,25.8567,怒江傈僳族自治州,州监测站,细颗粒物(PM2.5),58,54,50,41,33,37,,57,54,17,5,4,4,0.5,0.4
2025-03-08T0900,2619A,98.8546,25.8417,怒江傈僳族自治州,泸水一中,"颗粒物(PM10),细颗粒物(PM2.5)",52,53,40,36,32,22,,44,40,20,10,6,6,0.5,0.5
2025-03-08T0900,1888A,101.6891,26.571,攀枝花市,弄弄坪,细颗粒物(PM2.5),78,83,64,57,41,8,,18,16,39,29,15,14,2.2,1.1
2025-03-08T0900,1889A,101.5769,26.5928,攀枝花市,河门口,细颗粒物(PM2.5),87,80,75,64,46,14,,23,20,23,23,8,14,1.4,1.4
2025-03-08T0900,1890A,101.7169,26.585,攀枝花市,炳草岗,细颗粒物(PM2.5),73,72,59,53,41,4,,8,6,29,30,7,6,1.3,1
2025-03-08T0900,1891A,101.7369,26.5008,攀枝花市,仁和,细颗粒物(PM2.5),73,69,64,53,44,10,,22,18,32,25,7,10,1.6,1
2025-03-08T0900,2835A,101.7227,26.567,攀枝花市,四十中小,颗粒物(PM10),61,71,53,39,28,4,,16,13,39,28,10,10,1.7,1.1
2025-03-08T0900,1604A,122.0303,41.1489,盘锦市,开发区,细颗粒物(PM2.5),80,,51,59,36,79,,72,72,21,16,13,12,0.6,0.5
2025-03-08T0900,1605A,122.0485,41.0883,盘锦市,兴隆台,细颗粒物(PM2.5),83,,49,61,35,76,,66,66,23,22,10,8,0.7,0.6
2025-03-08T0900,1606A,121.8297,41.1028,盘锦市,新生街道,细颗粒物(PM2.5),82,,41,60,33,75,,66,66,21,20,10,10,0.9,0.6
2025-03-08T0900,1832A,113.3257,33.742,平顶山市,新华旅馆,细颗粒物(PM2.5),112,139,92,84,64,35,,68,62,39,21,4,4,0.6,0.4
2025-03-08T0900,1833A,113.2919,33.737,平顶山市,规划设计院,细颗粒物(PM2.5),123,127,99,93,72,42,,51,48,37,30,3,3,0.7,0.5
2025-03-08T0900,1834A,113.182,33.774,平顶山市,平顶山工学院,,,71,80,53,61,53,,69,64,17,15,5,4,,0.6
2025-03-08T0900,3204A,113.3025,33.73,平顶山市,规划局,细颗粒物(PM2.5),137,124,88,104,76,39,,62,56,41,29,4,4,0.7,0.6
2025-03-08T0900,3594A,112.8867,33.9116,平顶山市,石龙区,细颗粒物(PM2.5),79,103,99,58,57,24,,14,13,71,46,5,5,0.6,0.5
2025-03-08T0900,2656A,106.6692,35.5461,平凉市,聚贤嘉苑,颗粒物(PM10),72,93,89,36,34,21,,20,20,41,36,15,11,0.6,0.3
2025-03-08T0900,2657A,106.7021,35.5307,平凉市,博物馆,颗粒物(PM10),69,88,93,48,42,21,,19,19,42,34,18,14,1.2,0.9
2025-03-08T0900,2347A,114.0997,27.5002,萍乡市,武功山,,28,,17,19,20,23,,22,22,5,6,8,7,0.4,0.4
2025-03-08T0900,2348A,113.8385,27.6434,萍乡市,中医院,细颗粒物(PM2.5),55,45,44,39,34,16,,18,16,27,23,10,6,1.4,0.7
2025-03-08T0900,2349A,113.8493,27.6253,萍乡市,市政府车库,,46,46,40,23,31,15,,14,14,25,23,7,5,1.2,0.8
2025-03-08T0900,2350A,113.8676,27.6435,萍乡市,市环保局,,48,48,42,29,34,13,,19,17,34,26,7,5,1.0,0.6
2025-03-08T0900,2351A,113.866,27.6198,萍乡市,安源区政府,,48,47,42,33,33,10,,11,10,17,17,8,6,1.1,0.8
2025-03-08T0900,2319A,119.0141,25.4325,莆田市,荔城区仓后路,细颗粒物(PM2.5),52,46,32,36,25,30,,30,28,28,18,3,2,0.7,0.6
2025-03-08T0900,2320A,119.0015,25.4553,莆田市,莆田市监测站,细颗粒物(PM2.5),52,36,29,36,21,31,,33,29,27,13,4,3,0.7,0.6
2025-03-08T0900,2321A,119.1119,25.4561,莆田市,涵江区六中,,35,30,36,24,26,26,,36,33,39,25,2,2,0.9,0.8
2025-03-08T0900,2322A,119.1013,25.3215,莆田市,秀屿区政府,,33,,32,23,29,42,,52,49,21,20,4,4,0.5,0.6
2025-03-08T0900,2323A,118.981,25.4792,莆田市,东圳水库,,,,,,,,,,,,,,,,
2025-03-08T0900,2392A,115.0312,35.7636,濮阳市,环保局,细颗粒物(PM2.5),82,69,53,60,46,62,,68,64,21,12,6,3,0.8,0.6
2025-03-08T0900,2394A,115.0574,35.7609,濮阳市,油田运输公司,细颗粒物(PM2.5),87,99,76,64,47,42,,56,49,33,21,4,3,0.9,0.7
2025-03-08T0900,3021A,115,35.7668,濮阳市,濮水河管理处,细颗粒物(PM2.5),95,127,77,71,41,52,,55,51,32,20,7,5,0.8,0.6
2025-03-08T0900,4216A,115.0924,35.7686,濮阳市,任丘路479号,细颗粒物(PM2.5),83,95,76,61,51,47,,61,56,36,20,6,5,1.1,0.9
2025-03-08T0900,2601A,100.98,22.7633,普洱市,市环保局,,48,48,62,18,20,44,,59,56,11,7,4,4,0.9,0.8
2025-03-08T0900,2602A,100.9817,22.8322,普洱市,普洱第二中学,细颗粒物(PM2.5),57,43,57,40,24,46,,54,53,10,9,5,6,0.7,0.7
2025-03-08T0900,2262A,131.0518,45.8751,七台河市,新一中,,,21,21,17,13,74,,74,74,8,9,,12,0.4,0.5
2025-03-08T0900,3345A,131.0577,45.7879,七台河市,中波台,,33,33,32,19,16,67,,62,61,14,16,7,7,0.3,0.3
2025-03-08T0900,3637A,131.0176,45.7761,七台河市,人民广场,颗粒物(PM10),51,52,39,28,25,59,,64,62,21,16,11,9,0.6,0.5
2025-03-08T0900,3684A,130.8781,45.8222,七台河市,新建矿广场,,39,39,37,27,24,58,,56,56,23,19,10,10,0.4,0.4
2025-03-08T0900,1779A,123.9305,47.3636,齐齐哈尔市,安居小区,,32,32,58,20,43,70,,80,78,18,22,8,9,0.3,0.4
2025-03-08T0900,1780A,123.9488,47.3386,齐齐哈尔市,中心广场,,37,37,67,22,42,59,,78,74,28,22,8,7,0.6,0.6
2025-03-08T0900,1781A,123.9483,47.3227,齐齐哈尔市,农牧车辆厂,,41,41,53,26,41,63,,84,80,32,21,8,8,0.5,0.4
2025-03-08T0900,1783A,123.945,47.2988,齐齐哈尔市,市环境监测站,,44,44,61,25,43,62,,83,79,32,21,6,7,0.6,0.6
2025-03-08T0900,3662A,123.6333,47.2075,齐齐哈尔市,富区青少年活动中心,,34,34,53,20,28,74,,72,71,10,13,9,7,0.4,0.4
2025-03-08T0900,2591A,107.9783,26.5747,黔东南苗族侗族自治州,市环境监测站,,33,28,24,23,21,40,,54,51,14,10,4,3,0.5,0.5
2025-03-08T0900,2881A,107.8908,26.5311,黔东南苗族侗族自治州,凯里学院,,28,19,17,19,18,42,,50,48,11,9,2,3,0.8,0.8
2025-03-08T0900,2593A,107.5228,26.2403,黔南布依族苗族自治州,小围寨,,13,12,14,9,12,34,,40,39,5,7,4,5,0.5,0.6
2025-03-08T0900,3538A,107.5175,26.2978,黔南布依族苗族自治州,沙坝,,22,22,18,14,14,36,,43,41,10,10,4,4,0.5,0.5
2025-03-08T0900,2589A,104.9022,25.0925,黔西南布依族苗族自治州,场坝街,,42,41,32,29,23,62,,70,68,7,9,3,6,0.4,0.4
2025-03-08T0900,2590A,104.8811,25.0992,黔西南布依族苗族自治州,坪东大道,,43,43,32,27,25,57,,64,63,10,10,2,5,0.3,0.3
2025-03-08T0900,2502A,108.6236,21.9667,钦州市,市环保站,颗粒物(PM10),53,56,47,31,28,34,,41,41,21,17,5,6,1.1,1
2025-03-08T0900,2503A,108.6549,21.9481,钦州市,沙埠小学,,50,43,43,35,33,37,,41,41,18,18,6,7,0.8,0.8
2025-03-08T0900,2504A,108.5989,21.7431,钦州市,港区一小,,49,34,47,34,28,31,,44,43,29,23,8,8,0.8,0.8
2025-03-08T0900,3404A,108.5959,21.9633,钦州市,北职校,细颗粒物(PM2.5),59,,38,42,35,42,,43,43,19,17,7,7,0.9,0.8
2025-03-08T0900,1043A,119.7493,40.0116,秦皇岛市,第一关,细颗粒物(PM2.5),88,100,51,65,39,24,,30,26,70,40,10,6,1.4,0.6
2025-03-08T0900,1044A,119.5897,39.9499,秦皇岛市,监测站,颗粒物(PM10),61,71,53,36,28,53,,64,62,40,24,11,5,1.2,0.6
2025-03-08T0900,1046A,119.5251,39.9041,秦皇岛市,建设大厦,细颗粒物(PM2.5),67,81,49,48,36,72,,73,73,27,26,17,8,1.2,0.6
2025-03-08T0900,3132A,119.610547,39.943889,秦皇岛市,文明里,细颗粒物(PM2.5),65,78,46,47,23,60,,67,67,38,28,14,6,1.2,0.5
2025-03-08T0900,4198A,119.5090,39.8253,秦皇岛市,北戴河轮滑馆,细颗粒物(PM2.5),59,58,41,42,28,84,,61,61,19,22,12,6,1.2,0.6
2025-03-08T0900,1307A,120.6659,36.2403,青岛市,仰口,细颗粒物(PM2.5),90,90,44,67,35,113,,112,112,19,13,5,5,0.4,0.2
2025-03-08T0900,1310A,120.4134,36.0658,青岛市,市南区东部子站,细颗粒物(PM2.5),100,136,52,75,29,56,,85,79,38,17,11,8,0.8,0.5
2025-03-08T0900,1311A,120.3664,36.1032,青岛市,四方区子站,细颗粒物(PM2.5),107,117,48,80,34,49,,86,77,58,22,7,4,1.1,0.6
2025-03-08T0900,1312A,120.2994,36.054,青岛市,市南区西部子站,细颗粒物(PM2.5),92,119,50,68,29,59,,79,74,43,23,8,6,1.0,0.6
2025-03-08T0900,1313A,120.4581,36.0858,青岛市,崂山区子站,颗粒物(PM10),84,117,38,61,24,62,,87,82,34,14,11,9,0.8,0.5
2025-03-08T0900,1315A,120.3999,36.3083,青岛市,城阳区子站,颗粒物(PM10),86,122,55,61,30,63,,84,79,69,33,13,8,1.1,0.7
2025-03-08T0900,1966A,120.0405,35.8735,青岛市,黄岛区4号,细颗粒物(PM2.5),107,124,54,80,36,73,,84,80,61,22,15,9,1.1,0.6
2025-03-08T0900,3362A,120.5014,36.4034,青岛市,即墨2号,细颗粒物(PM2.5),118,137,62,89,42,65,,79,78,57,23,16,10,1.2,0.8
2025-03-08T0900,3642A,120.3503,36.0736,青岛市,市北区南部,细颗粒物(PM2.5),100,102,47,75,31,55,,73,68,41,18,11,7,0.9,0.7
2025-03-08T0900,3643A,120.3948,36.1805,青岛市,李沧区北部,细颗粒物(PM2.5),107,119,50,80,36,45,,78,72,62,31,13,11,1.1,0.7
