timepoint,stationcode,longitude,latitude,area,positionname,primarypollutant,aqi,pm10,pm10_24h,pm2_5,pm2_5_24h,o3,o3_24h,o3_8h,o3_8h_24h,no2,no2_24h,so2,so2_24h,co,co_24h
2022-01-25T18:00:00,1001A,116.3621,39.8784,北京市,万寿西宫,,,,63,6,99,68,60,61,61,13,30,4,4,0.5,1.2
2022-01-25T18:00:00,1002A,116.2202,40.2915,北京市,定陵(对照点),,21,7,43,4,88,69,67,67,67,10,28,3,2,0.1,0.9
2022-01-25T18:00:00,1003A,116.4174,39.9289,北京市,东四,,19,11,58,4,100,64,59,58,58,10,25,1,2,0.2,1
2022-01-25T18:00:00,1004A,116.4072,39.8863,北京市,天坛,,,,59,5,100,70,65,63,63,10,26,3,3,0.3,1
2022-01-25T18:00:00,1005A,116.462,39.9365,北京市,农展馆,,19,0,66,4,108,62,60,56,56,12,29,3,2,0.4,1.1
2022-01-25T18:00:00,1006A,116.3392,39.9295,北京市,官园,,,,74,6,104,65,58,58,58,12,30,1,1,0.4,1
2022-01-25T18:00:00,1007A,116.2878,39.9611,北京市,海淀万柳,,20,5,66,5,98,68,61,62,62,12,31,1,1,0.2,1
2022-01-25T18:00:00,1008A,116.6636,40.135,北京市,顺义新城,,17,3,59,6,102,68,54,62,62,17,33,3,2,0.2,1.1
2022-01-25T18:00:00,1009A,116.6275,40.3275,北京市,怀柔镇,,19,0,72,6,110,68,58,61,61,12,40,1,2,0.3,1.2
2022-01-25T18:00:00,1010A,116.2296,40.217,北京市,昌平镇,,15,7,48,5,93,50,47,49,49,9,33,3,2,0.2,1
2022-01-25T18:00:00,1011A,116.3966,39.9821,北京市,奥体中心,,21,0,63,4,102,71,67,67,67,2,38,3,3,0.2,1
2022-01-25T18:00:00,1012A,116.184,39.9136,北京市,古城,,19,9,67,6,105,65,58,55,55,9,28,3,2,0.2,1.1
2022-01-25T18:00:00,1015A,117.1444,39.1661,天津市,勤俭道,,25,23,96,17,80,70,52,55,55,29,41,5,7,0.4,0.9
2022-01-25T18:00:00,1017A,117.237,39.1082,天津市,大直沽八号路,,18,14,90,10,78,71,56,61,57,21,29,5,7,0.5,1.1
2022-01-25T18:00:00,1018A,117.202,39.0927,天津市,前进道,,50,45,96,35,83,66,45,53,53,38,37,5,7,0.8,1.1
2022-01-25T18:00:00,1019A,117.1837,39.2133,天津市,淮河道,,16,12,103,8,88,69,51,52,52,26,44,4,6,0.3,1
2022-01-25T18:00:00,1021A,117.307,39.0877,天津市,跃进路,,21,21,97,14,82,64,46,52,52,32,40,4,5,0.4,0.9
2022-01-25T18:00:00,1023A,117.707,39.0343,天津市,第四大街,细颗粒物(PM2.5),52,50,119,36,93,63,43,47,47,49,62,6,10,0.6,1.1
2022-01-25T18:00:00,1024A,117.457,38.8394,天津市,永明路,细颗粒物(PM2.5),160,140,110,122,95,82,42,60,60,45,44,8,9,1.2,1
2022-01-25T18:00:00,1026A,117.764,39.1587,天津市,汉北路,,43,37,108,30,95,72,50,57,57,27,54,5,6,0.5,1.1
2022-01-25T18:00:00,1027A,117.157,38.9194,天津市,团泊洼(对照点),细颗粒物(PM2.5),138,124,104,105,89,78,51,64,64,34,36,5,9,1.2,1.2
2022-01-25T18:00:00,1029A,114.4422,38.0444,石家庄市,职工医院,细颗粒物(PM2.5),245,237,178,195,161,52,15,25,25,58,42,3,4,2.0,1.7
2022-01-25T18:00:00,1030A,114.6063,38.0266,石家庄市,高新区,细颗粒物(PM2.5),258,204,150,208,126,66,18,36,24,51,38,2,2,1.5,1.1
2022-01-25T18:00:00,1031A,114.4898,38.1328,石家庄市,西北水源,细颗粒物(PM2.5),227,210,146,177,129,44,14,30,30,61,48,4,4,1.5,1.1
2022-01-25T18:00:00,1032A,114.4586,38.0058,石家庄市,西南高教,细颗粒物(PM2.5),247,216,179,197,150,54,17,32,24,52,35,4,5,1.7,1.3
2022-01-25T18:00:00,1033A,114.5331,38.0178,石家庄市,世纪公园,细颗粒物(PM2.5),242,224,165,192,138,66,22,35,24,52,39,2,3,1.8,1.4
2022-01-25T18:00:00,1034A,114.509,38.0457,石家庄市,人民会堂,细颗粒物(PM2.5),232,206,155,182,137,60,20,29,26,44,28,6,7,2.0,1.7
2022-01-25T18:00:00,1035A,114.3524,37.8911,石家庄市,封龙山(对照点),细颗粒物(PM2.5),77,79,115,56,94,118,118,94,94,11,17,4,5,0.9,1.4
2022-01-25T18:00:00,1037A,118.131,39.6363,唐山市,雷达站,细颗粒物(PM2.5),132,130,158,100,139,64,49,46,46,39,37,7,10,1.2,1.3
2022-01-25T18:00:00,1038A,118.1725,39.6334,唐山市,物资局,细颗粒物(PM2.5),128,102,141,97,127,51,32,38,38,66,46,6,7,1.2,1.4
2022-01-25T18:00:00,1040A,118.1705,39.6506,唐山市,十二中,细颗粒物(PM2.5),145,115,134,111,132,59,39,44,44,50,36,3,3,1.1,1.2
2022-01-25T18:00:00,1041A,118.1869,39.622,唐山市,小山,细颗粒物(PM2.5),129,98,142,98,119,60,25,41,40,68,41,3,3,1.0,1.2
2022-01-25T18:00:00,1042A,119.5134,39.8207,秦皇岛市,北戴河环保局,细颗粒物(PM2.5),123,98,112,93,108,65,30,30,30,50,57,9,11,1.3,1.9
2022-01-25T18:00:00,1043A,119.7493,40.0116,秦皇岛市,第一关,细颗粒物(PM2.5),149,153,113,114,94,64,35,50,50,59,48,8,14,1.1,1.4
2022-01-25T18:00:00,1044A,119.5897,39.9499,秦皇岛市,监测站,细颗粒物(PM2.5),134,141,105,102,76,48,17,32,32,74,57,11,11,1.3,1.4
2022-01-25T18:00:00,1046A,119.5251,39.9041,秦皇岛市,建设大厦,细颗粒物(PM2.5),125,131,93,95,61,53,14,30,30,68,45,8,16,0.9,1.2
2022-01-25T18:00:00,1048A,114.5302,36.6116,邯郸市,东污水处理厂,细颗粒物(PM2.5),266,285,170,216,145,54,29,39,22,55,42,7,5,2.7,1.8
2022-01-25T18:00:00,1049A,114.4918,36.5713,邯郸市,矿院,细颗粒物(PM2.5),310,297,162,260,151,66,18,48,26,52,30,3,4,2.3,1.5
2022-01-25T18:00:00,1050A,114.484,36.6133,邯郸市,丛台公园,细颗粒物(PM2.5),303,259,157,253,158,67,13,67,22,62,33,6,9,2.6,2
2022-01-25T18:00:00,1051A,115.493,38.8632,保定市,游泳馆,细颗粒物(PM2.5),206,157,127,156,133,64,43,47,47,56,47,5,6,1.5,1.2
2022-01-25T18:00:00,1052A,115.5213,38.8959,保定市,华电二区,细颗粒物(PM2.5),227,157,122,177,132,62,51,49,49,36,41,9,9,1.4,1.3
2022-01-25T18:00:00,1053A,115.4713,38.9108,保定市,接待中心,细颗粒物(PM2.5),170,152,131,129,119,65,53,52,52,43,43,6,7,1.6,1.5
2022-01-25T18:00:00,1054A,115.4612,38.8416,保定市,地表水厂,细颗粒物(PM2.5),168,155,133,127,107,65,54,53,53,36,37,6,7,1.3,1.1
2022-01-25T18:00:00,1055A,115.4323,38.8697,保定市,胶片厂,细颗粒物(PM2.5),196,144,127,147,121,63,60,52,52,32,40,8,9,1.3,1.2
2022-01-25T18:00:00,1056A,115.5086,38.8639,保定市,监测站,细颗粒物(PM2.5),201,198,128,151,126,61,49,46,46,45,40,5,6,1.4,1.2
2022-01-25T18:00:00,1057A,114.8883,40.8336,张家口市,人民公园,,23,14,48,4,30,99,71,80,71,7,20,4,4,0.3,0.6
2022-01-25T18:00:00,1059A,114.8687,40.8042,张家口市,五金库,,20,17,45,12,33,100,63,80,69,19,21,6,6,0.5,0.6
2022-01-25T18:00:00,1060A,114.8902,40.762,张家口市,世纪豪园,,22,12,47,8,38,96,69,79,69,13,22,4,5,0.4,0.6
2022-01-25T18:00:00,1061A,114.8916,40.8661,张家口市,北泵房(对照点),,24,14,44,10,36,97,75,80,76,6,19,10,10,0.3,0.5
2022-01-25T18:00:00,1062A,117.9531,40.9081,承德市,铁路,,29,29,110,20,84,68,66,60,60,13,41,3,8,0.3,1.6
2022-01-25T18:00:00,1063A,117.9392,40.9763,承德市,中国银行,,,31,116,23,88,66,54,55,55,30,51,,12,0.4,1.6
2022-01-25T18:00:00,1064A,117.9503,40.928,承德市,开发区,,24,24,99,16,82,75,74,67,67,5,40,6,9,0.5,1.7
2022-01-25T18:00:00,1065A,117.8051,40.9655,承德市,文化中心,,23,17,99,16,87,68,66,64,64,9,41,2,6,0.3,1.5
2022-01-25T18:00:00,1066A,117.9268,41.0026,承德市,离宫(对照点),,29,22,98,20,79,70,65,63,63,8,38,4,6,0.3,1.3
2022-01-25T18:00:00,1067A,116.6708,39.5111,廊坊市,药材公司,,23,23,127,14,110,68,53,54,54,26,32,4,2,0.3,1.1
2022-01-25T18:00:00,1068A,116.7214,39.5589,廊坊市,开发区,,24,24,124,11,105,74,63,58,58,20,35,2,2,0.2,1.1
2022-01-25T18:00:00,1070A,116.7244,39.5269,廊坊市,北华航天学院,,21,21,136,9,107,70,56,56,56,24,31,4,5,0.3,1.1
2022-01-25T18:00:00,1071A,116.8842,38.2991,沧州市,沧县城建局,细颗粒物(PM2.5),153,144,112,117,96,70,35,60,58,55,46,9,14,1.4,1.2
2022-01-25T18:00:00,1072A,116.8584,38.3254,沧州市,电视转播站,细颗粒物(PM2.5),132,137,102,100,86,77,69,72,72,32,34,7,9,1.1,0.9
2022-01-25T18:00:00,1073A,116.8709,38.3228,沧州市,市环保局,细颗粒物(PM2.5),140,123,102,107,90,78,61,71,71,46,40,11,14,1.3,1.2
2022-01-25T18:00:00,1074A,115.6838,37.7541,衡水市,电机北厂,细颗粒物(PM2.5),237,180,94,187,100,94,37,70,52,36,29,10,9,1.6,0.9
2022-01-25T18:00:00,1075A,115.6303,37.7316,衡水市,市监测站,细颗粒物(PM2.5),224,174,97,174,101,82,36,62,49,31,24,9,11,1.6,0.9
2022-01-25T18:00:00,1077A,114.4704,37.0886,邢台市,达活泉,细颗粒物(PM2.5),253,207,172,203,163,51,32,29,28,45,44,5,8,2.0,2.1
2022-01-25T18:00:00,1078A,114.5062,37.0349,邢台市,邢师高专,细颗粒物(PM2.5),243,198,126,193,135,60,34,29,29,54,45,5,4,2.3,1.7
2022-01-25T18:00:00,1079A,114.5237,37.0851,邢台市,路桥公司,细颗粒物(PM2.5),243,177,135,193,139,59,38,33,33,44,42,4,5,1.8,1.6
2022-01-25T18:00:00,1080A,114.4725,37.0719,邢台市,市环保局,,,,173,,152,53,29,32,22,46,50,5,6,,1.9
2022-01-25T18:00:00,1081A,112.5139,37.8873,太原市,尖草坪,细颗粒物(PM2.5),93,84,152,69,137,91,91,78,78,29,48,15,14,1.1,1.6
2022-01-25T18:00:00,1083A,112.434,38.0108,太原市,上兰(对照点),细颗粒物(PM2.5),52,42,99,36,91,92,79,76,76,16,30,7,9,0.5,1.2
2022-01-25T18:00:00,1084A,112.469,37.7124,太原市,晋源,细颗粒物(PM2.5),100,84,173,75,168,82,51,63,63,71,56,15,21,1.3,2.1
2022-01-25T18:00:00,1085A,112.5583,37.7394,太原市,小店,细颗粒物(PM2.5),112,98,168,84,152,91,85,76,76,38,48,15,25,1.1,2
2022-01-25T18:00:00,1086A,112.5369,37.8692,太原市,桃园,细颗粒物(PM2.5),98,81,158,73,147,94,92,83,83,34,51,16,17,1.0,1.6
2022-01-25T18:00:00,1087A,112.57,37.8195,太原市,坞城,细颗粒物(PM2.5),104,83,147,78,139,91,91,83,83,30,43,17,18,1.1,1.6
2022-01-25T18:00:00,1088A,112.549,37.9854,太原市,南寨,,49,38,148,34,135,87,81,73,73,17,40,8,11,0.6,1.7
2022-01-25T18:00:00,1090A,111.6507,40.7517,呼和浩特市,呼市一监,细颗粒物(PM2.5),84,85,119,62,108,73,61,55,55,20,29,7,6,0.9,1.2
2022-01-25T18:00:00,1091A,111.6572,40.8033,呼和浩特市,小召,细颗粒物(PM2.5),85,80,92,63,80,78,44,78,41,34,30,20,8,0.8,1
2022-01-25T18:00:00,1094A,111.7516,40.8369,呼和浩特市,如意水处理厂,细颗粒物(PM2.5),79,60,68,58,62,71,42,65,46,32,31,11,9,0.7,1.1
2022-01-25T18:00:00,1095A,111.7276,40.8062,呼和浩特市,二十九中,,,73,84,72,70,71,51,66,46,,28,,9,0.5,1
2022-01-25T18:00:00,1096A,111.5512,40.7866,呼和浩特市,工大金川校区,,,86,145,65,116,69,54,50,50,22,29,,14,0.9,1.2
2022-01-25T18:00:00,1097A,111.717,40.7612,呼和浩特市,化肥厂生活区,细颗粒物(PM2.5),80,77,97,59,87,75,54,55,47,21,28,8,8,0.8,1.1
2022-01-25T18:00:00,1098A,123.6836,41.9339,沈阳市,森林路(对照点),细颗粒物(PM2.5),186,183,170,140,132,39,39,25,25,58,70,22,22,1.2,1.6
2022-01-25T18:00:00,1099A,123.505,41.7406,沈阳市,浑南东路,细颗粒物(PM2.5),189,181,220,142,175,30,10,22,19,97,82,39,28,1.4,2.2
2022-01-25T18:00:00,1100A,123.4231,41.6989,沈阳市,新秀街,细颗粒物(PM2.5),189,204,216,142,148,36,5,19,19,114,90,28,23,1.7,2.1
2022-01-25T18:00:00,1102A,123.5903,41.8411,沈阳市,东陵路,细颗粒物(PM2.5),205,166,174,155,139,22,12,18,17,78,65,32,25,1.6,2.1
2022-01-25T18:00:00,1103A,123.4264,41.8467,沈阳市,陵东街,细颗粒物(PM2.5),162,176,202,123,142,62,62,41,41,47,83,21,25,1.0,2.1
2022-01-25T18:00:00,1104A,123.4114,41.7653,沈阳市,文化路,细颗粒物(PM2.5),198,182,207,148,166,31,31,15,15,67,83,33,38,1.3,1.9
2022-01-25T18:00:00,1105A,123.4678,41.7867,沈阳市,小河沿,细颗粒物(PM2.5),175,182,190,132,140,30,21,13,13,86,82,34,35,1.4,2
2022-01-25T18:00:00,1106A,123.4017,41.7972,沈阳市,太原街,细颗粒物(PM2.5),198,189,203,148,161,30,30,19,19,73,83,22,44,1.2,1.7
2022-01-25T18:00:00,1108A,123.3783,41.9228,沈阳市,京沈街,细颗粒物(PM2.5),195,168,182,146,157,76,76,51,51,34,62,20,27,1.1,1.7
2022-01-25T18:00:00,1109A,121.612,38.9741,大连市,甘井子,细颗粒物(PM2.5),178,169,117,134,92,58,28,58,42,52,40,8,12,1.3,1.1
2022-01-25T18:00:00,1110A,121.565,38.9511,大连市,周水子,细颗粒物(PM2.5),132,146,105,100,69,76,27,58,56,50,44,9,16,1.6,1.1
2022-01-25T18:00:00,1111A,121.5637,38.8845,大连市,星海三站,细颗粒物(PM2.5),176,150,111,133,91,65,44,64,56,40,45,6,17,1.6,1.2
2022-01-25T18:00:00,1112A,121.6302,38.9117,大连市,青泥洼桥,颗粒物(PM10),108,165,111,26,87,58,19,58,38,64,52,16,20,2.1,1.4
2022-01-25T18:00:00,1113A,121.6251,38.8638,大连市,傅家庄,细颗粒物(PM2.5),195,160,116,146,97,58,34,54,46,40,48,,19,,1.2
2022-01-25T18:00:00,1114A,121.5213,38.8661,大连市,七贤岭,细颗粒物(PM2.5),165,155,110,125,81,69,52,64,60,,31,5,13,,1.2
2022-01-25T18:00:00,1115A,121.2529,38.8061,大连市,旅顺,细颗粒物(PM2.5),195,151,102,146,93,72,51,65,55,31,29,11,16,1.5,0.9
2022-01-25T18:00:00,1116A,121.7485,39.1311,大连市,金州,细颗粒物(PM2.5),163,151,112,124,88,74,42,62,61,49,43,6,14,1.9,1.3
2022-01-25T18:00:00,1117A,121.7811,39.0496,大连市,开发区,细颗粒物(PM2.5),199,177,128,149,100,59,30,49,48,70,53,10,19,2.0,1.4
2022-01-25T18:00:00,1118A,121.9762,39.0631,大连市,双D港,细颗粒物(PM2.5),205,190,126,155,102,78,44,67,65,59,49,10,13,2.0,1.4
2022-01-25T18:00:00,1119A,125.3325,43.9166,长春市,食品厂,细颗粒物(PM2.5),139,141,156,106,130,48,39,39,39,52,64,,23,1.2,1.4
2022-01-25T18:00:00,1120A,125.2863,43.9027,长春市,客车厂,细颗粒物(PM2.5),153,124,145,117,122,62,37,43,43,70,77,21,22,1.1,1.4
2022-01-25T18:00:00,1121A,125.2841,43.8463,长春市,邮电学院,细颗粒物(PM2.5),140,122,169,107,124,61,54,44,44,45,68,29,40,1.2,1.5
2022-01-25T18:00:00,1122A,125.3716,43.8772,长春市,劳动公园,细颗粒物(PM2.5),140,115,139,107,120,53,47,39,39,52,64,29,33,1.1,1.5
2022-01-25T18:00:00,1123A,125.3297,43.8805,长春市,园林处,细颗粒物(PM2.5),130,106,130,99,114,57,43,40,40,54,68,23,47,1.0,1.2
2022-01-25T18:00:00,1124A,125.4605,43.79,长春市,净月潭,细颗粒物(PM2.5),103,93,92,77,76,71,53,60,57,40,30,3,5,0.1,0.6
2022-01-25T18:00:00,1125A,125.7194,43.515,长春市,甩湾子(对照点),细颗粒物(PM2.5),182,139,151,137,144,90,57,74,74,38,33,13,7,1.4,1.7
2022-01-25T18:00:00,1126A,125.3863,43.8447,长春市,经开区环卫处,细颗粒物(PM2.5),110,84,137,83,115,62,48,39,39,53,65,19,14,0.9,1.2
2022-01-25T18:00:00,1127A,125.245,43.7783,长春市,高新区管委会,细颗粒物(PM2.5),117,82,121,88,112,71,64,56,56,29,53,11,16,0.8,1.2
2022-01-25T18:00:00,1128A,125.1761,43.8325,长春市,岱山公园,细颗粒物(PM2.5),133,101,136,101,118,81,37,63,63,69,58,4,10,1.1,1.4
2022-01-25T18:00:00,1129A,126.5422,45.755,哈尔滨市,岭北(对照点),细颗粒物(PM2.5),205,178,200,155,175,84,56,64,64,62,56,14,18,1.0,1.1
2022-01-25T18:00:00,1130A,126.561,45.8167,哈尔滨市,松北商大,细颗粒物(PM2.5),230,184,211,180,198,109,43,62,52,,77,16,33,1.6,1.7
2022-01-25T18:00:00,1131A,126.979,45.5419,哈尔滨市,阿城会宁,细颗粒物(PM2.5),202,160,250,152,217,86,20,57,56,83,68,63,43,0.8,1.4
2022-01-25T18:00:00,1133A,126.689,45.7733,哈尔滨市,太平宏伟公园,细颗粒物(PM2.5),207,190,239,157,185,71,71,53,53,53,83,53,69,1.5,1.8
2022-01-25T18:00:00,1134A,126.635,45.7667,哈尔滨市,道外承德广场,细颗粒物(PM2.5),229,189,183,179,173,60,60,44,44,56,72,34,55,1.6,1.6
2022-01-25T18:00:00,1135A,126.685,45.7319,哈尔滨市,香坊红旗大街,细颗粒物(PM2.5),301,315,199,251,171,54,13,40,26,130,91,50,31,2.3,1.7
2022-01-25T18:00:00,1136A,126.6411,45.7258,哈尔滨市,动力和平路,细颗粒物(PM2.5),243,227,169,193,145,35,35,27,24,83,85,47,51,1.0,1
2022-01-25T18:00:00,1137A,126.593,45.7478,哈尔滨市,道里建国路,细颗粒物(PM2.5),219,164,185,169,164,75,61,54,54,55,75,37,54,1.4,1.3
2022-01-25T18:00:00,1138A,126.615,45.61,哈尔滨市,平房东轻厂,细颗粒物(PM2.5),347,288,260,297,234,51,21,38,38,119,98,83,63,2.1,1.9
2022-01-25T18:00:00,1139A,126.595,45.9855,哈尔滨市,呼兰师专,,,,275,,247,92,50,73,73,60,63,72,38,,2.1
2022-01-25T18:00:00,1140A,126.6206,45.6842,哈尔滨市,省农科院,细颗粒物(PM2.5),440,288,271,410,231,28,12,20,20,111,97,88,57,2.5,2
2022-01-25T18:00:00,1141A,121.4,31.238,上海市,普陀,细颗粒物(PM2.5),105,73,86,79,83,61,37,56,50,,41,5,4,,1.6
2022-01-25T18:00:00,1142A,121.478,31.2036,上海市,十五厂,细颗粒物(PM2.5),112,71,77,84,85,65,29,62,44,69,39,6,6,1.4,1.2
2022-01-25T18:00:00,1143A,121.467,31.3008,上海市,虹口,细颗粒物(PM2.5),85,46,62,63,69,64,36,62,43,64,43,4,3,0.9,1.1
2022-01-25T18:00:00,1144A,121.412,31.1654,上海市,徐汇上师大,细颗粒物(PM2.5),109,74,79,82,89,59,38,54,49,63,41,11,9,2.0,1.6
2022-01-25T18:00:00,1145A,121.536,31.2659,上海市,杨浦四漂,细颗粒物(PM2.5),100,68,80,75,81,75,43,74,56,70,40,7,6,0.7,0.8
2022-01-25T18:00:00,1147A,121.425,31.2261,上海市,静安监测站,细颗粒物(PM2.5),108,,81,81,88,52,28,47,37,60,39,6,5,1.3,1
2022-01-25T18:00:00,1148A,121.703,31.1907,上海市,浦东川沙,,,54,65,69,79,69,44,61,58,,31,4,4,1.0,1.1
2022-01-25T18:00:00,1149A,121.533,31.2284,上海市,浦东新区监测站,细颗粒物(PM2.5),97,90,67,72,78,77,42,75,57,59,32,6,4,1.2,1.3
2022-01-25T18:00:00,1150A,121.577,31.2071,上海市,浦东张江,细颗粒物(PM2.5),100,58,71,75,84,66,39,57,53,64,41,6,5,0.9,0.8
2022-01-25T18:00:00,1151A,118.8086,32.1065,南京市,迈皋桥,细颗粒物(PM2.5),138,121,102,105,86,43,18,41,19,34,27,4,4,1.0,1
2022-01-25T18:00:00,1152A,118.7538,32.0551,南京市,草场门,细颗粒物(PM2.5),132,132,100,100,82,53,19,43,20,51,41,3,3,0.9,0.8
2022-01-25T18:00:00,1153A,118.7794,32.0745,南京市,山西路,细颗粒物(PM2.5),128,114,104,97,95,43,18,41,20,67,46,4,4,0.7,0.7
2022-01-25T18:00:00,1154A,118.7752,32.0023,南京市,中华门,细颗粒物(PM2.5),163,155,109,124,87,57,8,37,22,68,41,5,4,0.8,0.8
2022-01-25T18:00:00,1155A,118.8109,32.0309,南京市,瑞金路,细颗粒物(PM2.5),119,110,95,90,79,48,15,34,22,55,40,3,3,0.9,0.8
2022-01-25T18:00:00,1156A,118.7997,32.0754,南京市,玄武湖,细颗粒物(PM2.5),134,106,93,102,86,47,20,40,22,52,39,3,4,1.1,1
2022-01-25T18:00:00,1157A,118.6414,32.0931,南京市,浦口,细颗粒物(PM2.5),149,151,105,114,77,53,21,46,28,62,35,2,2,0.7,0.6
2022-01-25T18:00:00,1158A,118.7356,31.9996,南京市,奥体中心,细颗粒物(PM2.5),199,168,113,149,95,58,24,41,23,58,40,4,4,1.2,1.1
2022-01-25T18:00:00,1159A,118.9125,32.1028,南京市,仙林大学城,细颗粒物(PM2.5),100,92,90,75,77,56,31,36,29,35,29,3,3,0.8,0.8
2022-01-25T18:00:00,1160A,120.561,31.2472,苏州市,上方山(对照点),细颗粒物(PM2.5),135,94,97,103,94,51,29,44,41,45,28,4,5,1.2,1.2
2022-01-25T18:00:00,1162A,120.591,31.3019,苏州市,彩香,细颗粒物(PM2.5),142,85,90,108,111,53,31,45,44,46,27,4,5,1.4,1.4
2022-01-25T18:00:00,1163A,120.596,31.3264,苏州市,轧钢厂,细颗粒物(PM2.5),100,75,77,75,76,54,34,48,45,43,26,3,6,1.5,1.4
2022-01-25T18:00:00,1164A,120.613,31.2703,苏州市,吴中区,细颗粒物(PM2.5),125,106,99,95,96,56,30,51,43,,32,3,5,,1.4
2022-01-25T18:00:00,1165A,120.543,31.2994,苏州市,苏州新区,细颗粒物(PM2.5),123,112,125,93,106,58,48,51,51,32,23,8,10,1.1,1.5
2022-01-25T18:00:00,1166A,120.669,31.3097,苏州市,苏州工业园区,,,91,90,,157,57,36,50,43,45,35,5,5,1.6,1.2
2022-01-25T18:00:00,1167A,120.641,31.3708,苏州市,相城区,细颗粒物(PM2.5),130,125,122,99,111,61,44,51,46,38,28,4,5,1.6,1.3
2022-01-25T18:00:00,1168A,120.9098,31.9663,南通市,狼山街道,细颗粒物(PM2.5),73,77,91,53,66,82,64,78,59,24,20,2,2,0.7,0.7
2022-01-25T18:00:00,1169A,120.86,32.0005,南通市,虹桥,细颗粒物(PM2.5),89,78,94,66,75,75,66,70,58,22,21,8,8,0.6,0.6
2022-01-25T18:00:00,1170A,120.87,32.02,南通市,城中,细颗粒物(PM2.5),112,89,96,84,70,78,68,70,63,18,17,4,4,0.8,0.8
2022-01-25T18:00:00,1171A,120.94,31.93,南通市,星湖花园,细颗粒物(PM2.5),89,79,89,66,70,75,63,72,59,23,19,4,4,0.9,0.9
2022-01-25T18:00:00,1172A,120.81,32.0417,南通市,紫琅学院,细颗粒物(PM2.5),89,70,80,66,75,74,67,65,64,22,19,7,7,0.6,0.6
2022-01-25T18:00:00,1173A,119.176,34.5885,连云港市,市环境监测站,细颗粒物(PM2.5),162,149,97,123,72,77,64,58,58,37,41,17,10,1.0,0.9
2022-01-25T18:00:00,1177A,117.179,34.2761,徐州市,黄河新村,细颗粒物(PM2.5),144,124,147,110,123,72,51,58,58,42,39,8,8,1.2,1.3
2022-01-25T18:00:00,1178A,117.1918,34.2384,徐州市,淮塔,细颗粒物(PM2.5),125,121,144,95,119,84,68,72,72,29,30,6,8,1.0,1.1
2022-01-25T18:00:00,1180A,117.256,34.2153,徐州市,新城区,细颗粒物(PM2.5),130,110,134,99,108,80,66,63,63,23,35,6,8,1.2,1.2
2022-01-25T18:00:00,1181A,117.244,34.2911,徐州市,桃园路,细颗粒物(PM2.5),142,134,157,108,111,74,55,57,57,37,42,6,9,1.1,1.2
2022-01-25T18:00:00,1182A,117.2933,34.2778,徐州市,农科院,细颗粒物(PM2.5),165,127,134,125,117,75,53,58,58,37,38,10,9,1.0,1
2022-01-25T18:00:00,1186A,119.389,32.3761,扬州市,邗江监测站,细颗粒物(PM2.5),89,80,92,66,79,81,73,67,67,30,23,10,9,1.0,1
2022-01-25T18:00:00,1188A,120.269,31.4867,无锡市,雪浪,细颗粒物(PM2.5),107,112,116,80,88,45,16,45,26,63,36,7,6,1.5,1.3
2022-01-25T18:00:00,1189A,120.275,31.6219,无锡市,黄巷,细颗粒物(PM2.5),100,100,115,75,84,46,35,45,34,40,29,5,5,0.7,0.9
2022-01-25T18:00:00,1190A,120.294,31.56,无锡市,曹张,细颗粒物(PM2.5),94,98,94,70,86,45,20,45,25,59,36,8,7,1.3,1.2
2022-01-25T18:00:00,1191A,120.242,31.5031,无锡市,漆塘,细颗粒物(PM2.5),104,107,117,78,88,46,14,46,29,63,37,6,5,1.6,1.2
2022-01-25T18:00:00,1192A,120.3489,31.5863,无锡市,东亭,细颗粒物(PM2.5),100,95,109,75,86,43,28,40,33,52,33,6,5,1.6,1.2
2022-01-25T18:00:00,1193A,120.354,31.5475,无锡市,旺庄,细颗粒物(PM2.5),104,100,110,78,92,46,36,44,40,42,25,6,4,1.8,1.5
2022-01-25T18:00:00,1194A,120.245,31.5631,无锡市,荣巷,细颗粒物(PM2.5),110,100,106,83,88,46,16,42,26,63,39,7,6,1.1,1.1
2022-01-25T18:00:00,1195A,120.299,31.6817,无锡市,堰桥,细颗粒物(PM2.5),85,88,115,63,89,52,36,49,42,48,29,6,6,1.3,1.1
2022-01-25T18:00:00,1196A,119.9633,31.762,常州市,市监测站,细颗粒物(PM2.5),104,96,115,78,91,57,42,55,37,,35,6,5,,1.1
2022-01-25T18:00:00,1200A,119.9468,31.7069,常州市,武进监测站,细颗粒物(PM2.5),124,111,122,94,101,55,32,50,32,58,36,1,2,1.2,0.9
2022-01-25T18:00:00,1201A,119.9255,31.9087,常州市,安家,细颗粒物(PM2.5),104,83,100,78,92,83,58,63,63,54,29,7,5,1.0,0.9
2022-01-25T18:00:00,1203A,119.6707,32.1875,镇江市,新区办事处,细颗粒物(PM2.5),97,83,82,72,79,49,42,48,39,39,39,1,4,0.7,0.9
2022-01-25T18:00:00,1204A,119.4974,32.1968,镇江市,职教中心,,,,76,,86,78,64,68,68,30,22,5,3,0.9,0.8
2022-01-25T18:00:00,1205A,119.4303,32.1328,镇江市,丹徒区监测站,细颗粒物(PM2.5),137,109,101,104,94,62,42,53,51,45,28,1,3,0.9,0.7
2022-01-25T18:00:00,1206A,119.905,32.4878,泰州市,公园路,细颗粒物(PM2.5),100,102,121,75,68,81,80,75,75,18,15,8,5,1.0,1
2022-01-25T18:00:00,1207A,119.9189,32.4625,泰州市,莲花,细颗粒物(PM2.5),89,90,81,66,70,89,80,79,79,24,20,7,4,0.8,0.8
2022-01-25T18:00:00,1209A,119.888,32.4639,泰州市,留学生创业园,细颗粒物(PM2.5),80,94,85,59,61,86,80,77,77,19,16,10,8,0.8,0.8
2022-01-25T18:00:00,1210A,119.036,33.5981,淮安市,钵池山,细颗粒物(PM2.5),102,87,91,76,71,93,91,82,82,26,28,6,4,0.5,0.7
2022-01-25T18:00:00,1211A,119.007,33.575,淮安市,北京南路,细颗粒物(PM2.5),133,151,102,101,72,80,38,62,62,55,30,8,6,1.3,1.1
2022-01-25T18:00:00,1212A,118.989,33.6067,淮安市,市监测站,细颗粒物(PM2.5),94,92,94,70,61,96,88,85,85,30,34,16,12,0.5,0.7
2022-01-25T18:00:00,1213A,119.135,33.5039,淮安市,楚州区监测站,细颗粒物(PM2.5),132,115,101,100,79,71,48,58,58,31,26,10,10,1.1,1.2
2022-01-25T18:00:00,1214A,119.0186,33.6297,淮安市,淮阴区监测站,细颗粒物(PM2.5),104,91,100,78,73,94,81,77,77,,30,12,10,0.6,1
2022-01-25T18:00:00,1215A,120.118,33.4022,盐城市,盐城电厂,细颗粒物(PM2.5),72,87,94,52,64,84,80,76,76,20,21,7,6,0.7,0.8
2022-01-25T18:00:00,1216A,120.156,33.3942,盐城市,市监测站,细颗粒物(PM2.5),77,71,86,56,67,101,81,86,86,29,22,3,3,0.7,0.8
2022-01-25T18:00:00,1218A,120.2144,33.38,盐城市,开发区管委会,细颗粒物(PM2.5),67,57,72,48,58,93,86,82,82,20,22,3,5,0.5,0.6
2022-01-25T18:00:00,1220A,118.293,33.9528,宿迁市,宿迁学院,细颗粒物(PM2.5),152,132,99,116,94,86,75,70,70,45,41,6,5,0.8,0.8
2022-01-25T18:00:00,1221A,118.2442,33.9592,宿迁市,宿迁中学,细颗粒物(PM2.5),139,148,116,106,87,93,84,75,75,29,30,7,8,0.8,0.7
2022-01-25T18:00:00,1223A,120.2072,30.2111,杭州市,滨江,细颗粒物(PM2.5),168,134,108,127,101,45,40,36,35,34,32,5,5,1.1,1
2022-01-25T18:00:00,1224A,120.0633,30.2747,杭州市,西溪,细颗粒物(PM2.5),149,127,100,114,80,46,36,36,36,43,36,5,5,1.3,1.2
2022-01-25T18:00:00,1226A,120.3461,30.3153,杭州市,下沙,细颗粒物(PM2.5),160,141,109,122,98,54,42,43,43,39,36,5,6,1.3,1.1
2022-01-25T18:00:00,1227A,120.1269,30.2456,杭州市,卧龙桥,细颗粒物(PM2.5),145,137,111,111,87,48,38,35,35,42,37,6,6,1.2,1.2
2022-01-25T18:00:00,1228A,120.1903,30.2692,杭州市,浙江农大,细颗粒物(PM2.5),112,134,103,84,67,48,36,38,38,34,29,3,2,1.3,1.2
2022-01-25T18:00:00,1230A,120.1197,30.3119,杭州市,和睦小学,细颗粒物(PM2.5),185,176,121,139,88,46,39,36,36,34,36,4,4,1.4,1.3
2022-01-25T18:00:00,1231A,120.3019,30.4183,杭州市,临平镇,细颗粒物(PM2.5),118,175,123,89,82,59,53,50,50,27,25,4,4,1.5,1.2
2022-01-25T18:00:00,1232A,120.2697,30.1819,杭州市,城厢镇,细颗粒物(PM2.5),140,151,117,107,82,47,40,41,38,56,46,6,6,1.3,1.1
2022-01-25T18:00:00,1233A,120.0883,30.1808,杭州市,云栖,细颗粒物(PM2.5),92,116,97,68,58,42,23,33,32,36,29,6,6,1.2,1.2
2022-01-25T18:00:00,1234A,121.8358,29.911,宁波市,区环保大楼,细颗粒物(PM2.5),92,79,69,68,59,67,53,61,61,50,34,8,7,1.2,1.1
2022-01-25T18:00:00,1235A,121.56,29.82,宁波市,万里学院,细颗粒物(PM2.5),124,118,88,94,59,74,56,65,65,39,22,12,8,1.1,1
2022-01-25T18:00:00,1236A,121.713,29.9572,宁波市,龙赛医院,细颗粒物(PM2.5),84,72,63,62,53,75,70,74,72,41,27,10,8,1.2,1.1
2022-01-25T18:00:00,1239A,121.633,29.7733,宁波市,钱湖水厂,细颗粒物(PM2.5),120,107,80,91,75,80,59,72,68,42,26,10,7,0.9,0.9
2022-01-25T18:00:00,1240A,121.5856,29.8635,宁波市,太古小学,细颗粒物(PM2.5),128,104,80,97,71,69,49,60,60,49,27,11,7,1.3,1.1
2022-01-25T18:00:00,1241A,121.524,29.8674,宁波市,市环境监测中心,细颗粒物(PM2.5),89,87,70,66,48,70,58,61,60,35,21,11,8,1.3,1.1
2022-01-25T18:00:00,1242A,120.634,28.0089,温州市,瓯海,,40,40,34,26,20,58,54,51,51,28,25,6,6,0.7,0.6
2022-01-25T18:00:00,1243A,120.6748,27.9939,温州市,南浦,细颗粒物(PM2.5),57,47,37,40,29,65,58,58,58,27,22,5,5,0.7,0.6
2022-01-25T18:00:00,1244A,120.76,27.9747,温州市,龙湾,细颗粒物(PM2.5),63,68,53,45,31,67,62,56,56,25,25,4,4,0.6,0.7
2022-01-25T18:00:00,1245A,120.6709,28.0167,温州市,市站,细颗粒物(PM2.5),64,57,41,46,37,62,58,54,54,30,25,5,4,0.7,0.6
2022-01-25T18:00:00,1247A,120.6053,29.9928,绍兴市,城东开发委,细颗粒物(PM2.5),183,150,116,138,109,60,52,51,51,33,28,4,4,1.5,1.3
2022-01-25T18:00:00,1250A,120.0751,30.8669,湖州市,城西水厂,细颗粒物(PM2.5),149,99,93,114,100,64,50,50,50,34,29,5,5,1.4,1
2022-01-25T18:00:00,1252A,120.7436,30.778,嘉兴市,清河小学,细颗粒物(PM2.5),115,108,101,87,85,40,31,36,36,43,33,8,7,1.2,1
2022-01-25T18:00:00,1253A,120.726,30.7478,嘉兴市,嘉兴学院,细颗粒物(PM2.5),98,107,99,73,68,62,51,56,56,43,34,10,8,1.1,0.9
2022-01-25T18:00:00,1255A,121.273,28.6459,台州市,黄岩环保大楼,,42,40,42,29,29,66,55,56,49,24,17,6,5,0.6,0.6
2022-01-25T18:00:00,1256A,121.419,28.6542,台州市,台州环保大楼,细颗粒物(PM2.5),62,57,50,44,35,71,61,63,56,25,18,7,6,0.7,0.7
2022-01-25T18:00:00,1257A,121.377,28.5773,台州市,路桥田洋王,颗粒物(PM10),58,65,48,35,29,70,70,60,59,19,16,5,4,0.9,0.8
2022-01-25T18:00:00,1258A,122.122,30.0203,舟山市,定海檀枫,细颗粒物(PM2.5),62,59,57,44,39,83,80,79,73,18,15,4,4,0.8,0.8
2022-01-25T18:00:00,1259A,122.3094,29.9558,舟山市,普陀东港,细颗粒物(PM2.5),64,59,63,46,46,89,82,84,84,17,11,4,4,0.9,0.9
2022-01-25T18:00:00,1260A,122.19,29.9944,舟山市,临城新区,细颗粒物(PM2.5),59,59,67,42,43,85,78,81,73,16,16,5,5,0.6,0.8
2022-01-25T18:00:00,1262A,119.647,29.077,金华市,十五中,细颗粒物(PM2.5),72,72,51,52,34,42,38,39,39,31,25,6,6,1.0,1
2022-01-25T18:00:00,1263A,119.686,29.1029,金华市,监测站,颗粒物(PM10),63,76,47,42,32,42,39,38,38,27,26,4,4,0.9,0.9
2022-01-25T18:00:00,1264A,118.8692,28.9398,衢州市,环保大楼,,,45,36,23,18,48,33,42,35,25,21,3,6,,0.7
2022-01-25T18:00:00,1265A,118.8709,28.9666,衢州市,实验学校,,35,31,27,24,18,47,34,43,36,15,14,6,5,1.1,1
2022-01-25T18:00:00,1266A,118.8621,28.9808,衢州市,衢州学院,,48,48,38,21,17,48,37,42,38,14,14,2,2,0.5,0.4
2022-01-25T18:00:00,1267A,119.914,28.4514,丽水市,监测站大楼,,39,20,13,27,10,48,27,42,30,17,13,5,5,0.9,0.7
2022-01-25T18:00:00,1268A,119.93,28.4586,丽水市,莲都小学,,32,32,19,17,6,52,31,44,33,17,13,6,6,0.8,0.7
2022-01-25T18:00:00,1269A,119.879,28.4231,丽水市,余庄前,,30,30,17,15,8,44,31,36,36,16,14,7,7,0.8,0.6
2022-01-25T18:00:00,1270A,117.1959,31.7848,合肥市,明珠广场,细颗粒物(PM2.5),107,119,98,80,72,38,33,36,25,39,39,5,5,1.0,0.9
2022-01-25T18:00:00,1271A,117.3072,31.8764,合肥市,三里街,细颗粒物(PM2.5),140,124,104,107,86,46,32,42,31,35,28,5,4,0.9,0.8
2022-01-25T18:00:00,1272A,117.2588,31.8707,合肥市,琥珀山庄,细颗粒物(PM2.5),128,129,111,97,80,40,36,39,30,29,28,5,5,0.9,0.8
2022-01-25T18:00:00,1273A,117.1604,31.9052,合肥市,董铺水库(对照点),细颗粒物(PM2.5),128,112,104,97,76,50,35,42,42,30,27,8,6,0.8,0.9
2022-01-25T18:00:00,1274A,117.25,31.8571,合肥市,长江中路,细颗粒物(PM2.5),110,117,96,83,71,45,41,40,35,26,25,6,6,0.9,0.8
2022-01-25T18:00:00,1275A,117.266,31.9436,合肥市,庐阳区,细颗粒物(PM2.5),119,132,105,90,77,45,44,41,41,28,24,,6,1.6,0.8
2022-01-25T18:00:00,1276A,117.336,31.8586,合肥市,瑶海区,细颗粒物(PM2.5),128,119,94,97,77,51,46,51,42,30,25,5,5,0.9,0.8
2022-01-25T18:00:00,1277A,117.3027,31.7964,合肥市,包河区,细颗粒物(PM2.5),128,124,102,97,86,41,25,37,28,40,32,5,4,1.1,0.9
2022-01-25T18:00:00,1278A,117.2776,31.7385,合肥市,滨湖新区,细颗粒物(PM2.5),117,127,104,88,80,41,40,39,23,34,36,6,6,0.5,0.5
2022-01-25T18:00:00,1279A,117.1318,31.8403,合肥市,高新区,细颗粒物(PM2.5),125,112,93,95,80,52,42,42,42,37,33,6,6,1.1,1
2022-01-25T18:00:00,1280A,119.3903,26.0543,福州市,鼓山(对照点),,43,37,22,30,17,96,28,76,38,35,17,3,3,0.7,0.5
2022-01-25T18:00:00,1282A,119.2681,26.0504,福州市,师大,细颗粒物(PM2.5),55,53,26,39,22,79,26,70,49,38,16,2,2,0.9,0.8
2022-01-25T18:00:00,1283A,119.2984,26.1028,福州市,五四北路,,32,29,19,22,14,78,50,76,58,17,11,2,2,0.7,0.6
2022-01-25T18:00:00,1284A,119.2648,26.0768,福州市,杨桥西路,,28,27,21,19,15,77,49,75,58,13,11,2,2,0.6,0.6
2022-01-25T18:00:00,1285A,119.317,26.0746,福州市,紫阳,,,,20,,15,68,34,65,37,23,14,4,3,0.8,0.7
2022-01-25T18:00:00,1286A,118.1608,24.8169,厦门市,溪东(对照点),,23,15,12,14,13,82,73,74,71,8,7,3,3,0.4,0.4
2022-01-25T18:00:00,1287A,118.1514,24.4767,厦门市,洪文,,35,33,23,24,16,118,74,91,91,20,17,3,3,0.5,0.2
2022-01-25T18:00:00,1288A,118.0661,24.4444,厦门市,鼓浪屿,,28,26,19,17,13,118,88,92,92,17,14,3,3,0.9,0.8
2022-01-25T18:00:00,1290A,115.8931,28.6843,南昌市,省外办,,37,37,34,25,25,33,19,27,23,34,27,1,3,1.3,1.3
2022-01-25T18:00:00,1291A,115.8886,28.7003,南昌市,省林业公司,,35,35,37,24,23,32,23,28,24,33,28,3,2,1.3,1.3
2022-01-25T18:00:00,1292A,115.8126,28.7442,南昌市,林科所,,35,14,18,24,24,33,30,29,27,22,20,3,2,1.1,1.1
2022-01-25T18:00:00,1294A,115.8518,28.687,南昌市,建工学校,,,,35,,23,27,23,24,20,45,26,3,3,1.2,1.3
2022-01-25T18:00:00,1295A,115.8921,28.6424,南昌市,象湖,,42,19,22,29,21,34,17,28,22,35,27,1,1,1.2,1.1
2022-01-25T18:00:00,1296A,115.7423,28.7996,南昌市,武术学校(对照点),,19,14,17,13,16,35,30,28,28,17,20,6,6,1.4,1.3
2022-01-25T18:00:00,1298A,115.9314,28.6842,南昌市,省站,,42,28,29,29,28,39,25,32,27,26,20,6,6,1.2,1.2
2022-01-25T18:00:00,1299A,116.9862,36.6114,济南市,科干所,细颗粒物(PM2.5),147,146,171,112,128,58,39,40,40,56,57,18,23,1.5,1.8
2022-01-25T18:00:00,1300A,116.9376,36.665,济南市,农科所,细颗粒物(PM2.5),132,142,175,100,128,66,50,48,48,45,55,19,24,1.4,1.7
2022-01-25T18:00:00,1301A,117.1265,36.6734,济南市,开发区,细颗粒物(PM2.5),143,139,175,109,138,56,40,32,32,55,62,15,19,1.4,1.6
2022-01-25T18:00:00,1303A,117.0624,36.6868,济南市,省种子仓库,,,,178,0,143,68,49,42,42,43,55,25,27,,1.8
2022-01-25T18:00:00,1304A,116.9489,36.6447,济南市,机床二厂,细颗粒物(PM2.5),160,151,181,122,145,63,45,49,49,48,55,16,22,1.4,1.6
2022-01-25T18:00:00,1305A,117.0495,36.663,济南市,市监测站,细颗粒物(PM2.5),145,139,176,111,137,57,42,42,42,63,62,23,27,1.4,1.7
2022-01-25T18:00:00,1306A,116.7675,36.5484,济南市,长清党校,细颗粒物(PM2.5),168,181,175,127,126,90,50,71,71,58,56,20,20,1.8,1.6
2022-01-25T18:00:00,1307A,120.6659,36.2403,青岛市,仰口(对照点),细颗粒物(PM2.5),134,129,63,102,54,89,85,84,80,21,13,16,14,1.2,0.8
2022-01-25T18:00:00,1310A,120.4134,36.0658,青岛市,市南区东部子站,细颗粒物(PM2.5),122,127,67,92,49,76,65,72,65,46,39,15,10,1.2,0.8
2022-01-25T18:00:00,1311A,120.3664,36.1032,青岛市,四方区子站,细颗粒物(PM2.5),138,122,75,105,61,61,53,55,54,41,35,13,9,1.3,0.9
2022-01-25T18:00:00,1312A,120.2994,36.054,青岛市,市南区西部子站,细颗粒物(PM2.5),110,105,78,83,54,82,,69,69,42,31,17,12,1.2,0.9
2022-01-25T18:00:00,1313A,120.4581,36.0858,青岛市,崂山区子站,细颗粒物(PM2.5),134,134,70,102,50,82,72,81,66,36,28,24,14,1.1,0.7
2022-01-25T18:00:00,1314A,120.1983,35.9608,青岛市,黄岛区子站,细颗粒物(PM2.5),138,129,74,105,59,74,74,55,54,43,47,14,10,1.2,1
2022-01-25T18:00:00,1315A,120.3999,36.3083,青岛市,城阳区子站,细颗粒物(PM2.5),95,127,87,71,51,81,72,71,70,48,41,17,13,1.2,1
2022-01-25T18:00:00,1316A,113.69031,34.76122,郑州市,烟厂,细颗粒物(PM2.5),188,141,97,141,105,60,32,42,42,53,46,7,7,1.6,1.3
2022-01-25T18:00:00,1317A,113.65724,34.77134,郑州市,郑纺机,细颗粒物(PM2.5),186,123,85,140,103,64,29,48,48,60,47,7,7,1.9,1.5
2022-01-25T18:00:00,1318A,113.67526,34.80246,郑州市,银行学校,细颗粒物(PM2.5),200,144,83,150,106,55,39,42,42,46,45,6,6,1.7,1.7
2022-01-25T18:00:00,1319A,113.56746,34.81334,郑州市,供水公司,细颗粒物(PM2.5),201,136,90,151,112,65,40,49,49,46,39,5,5,1.9,1.7
2022-01-25T18:00:00,1320A,113.7329,34.7178,郑州市,经开区管委,细颗粒物(PM2.5),186,127,76,140,96,63,28,38,38,50,40,5,5,2.1,1.7
2022-01-25T18:00:00,1321A,113.73961,34.77172,郑州市,四十七中,细颗粒物(PM2.5),195,151,97,146,105,52,44,41,41,31,36,7,7,1.5,1.2
2022-01-25T18:00:00,1322A,113.60532,34.74838,郑州市,市监测站,细颗粒物(PM2.5),182,126,97,137,110,68,34,52,52,67,46,6,7,1.6,1.3
2022-01-25T18:00:00,1323A,113.64164,34.7525,郑州市,河医大,细颗粒物(PM2.5),188,125,96,141,107,65,23,43,43,71,48,8,9,1.8,1.5
2022-01-25T18:00:00,1324A,113.51488,34.91089,郑州市,岗李水库(对照点),,,,86,,115,71,58,55,55,,43,10,9,1.5,1.5
2022-01-25T18:00:00,1325A,114.3677,30.5584,武汉市,东湖梨园,细颗粒物(PM2.5),104,60,58,78,74,24,17,22,17,32,21,5,4,1.4,1.3
2022-01-25T18:00:00,1326A,114.2529,30.558,武汉市,汉阳月湖,细颗粒物(PM2.5),62,59,61,44,50,29,17,25,23,41,31,4,4,1.2,1.2
2022-01-25T18:00:00,1327A,114.282,30.6189,武汉市,汉口花桥,细颗粒物(PM2.5),83,55,57,61,71,26,13,22,20,36,23,6,6,1.5,1.4
2022-01-25T18:00:00,1328A,114.3025,30.5332,武汉市,武昌紫阳,细颗粒物(PM2.5),93,63,61,69,75,25,10,22,16,55,40,4,4,1.4,1.3
2022-01-25T18:00:00,1329A,114.3646,30.6217,武汉市,青山钢花,细颗粒物(PM2.5),83,91,106,61,72,28,20,24,24,41,28,5,5,1.2,1.2
2022-01-25T18:00:00,1330A,114.1566,30.4825,武汉市,沌口新区,细颗粒物(PM2.5),68,62,68,49,61,28,23,23,23,46,35,7,7,1.4,1.5
2022-01-25T18:00:00,1331A,114.3014,30.5944,武汉市,汉口江滩,细颗粒物(PM2.5),89,67,62,66,72,28,14,27,22,43,27,5,5,1.3,1.2
2022-01-25T18:00:00,1333A,114.135,30.6319,武汉市,吴家山,细颗粒物(PM2.5),77,56,62,56,73,41,31,34,34,42,33,7,7,0.9,1.1
2022-01-25T18:00:00,1334A,113.8454,30.2917,武汉市,沉湖七壕(对照点),细颗粒物(PM2.5),55,57,67,39,54,46,46,41,41,16,18,5,5,1.1,1.3
2022-01-25T18:00:00,1335A,113.0833,28.2325,长沙市,经开区环保局,,28,16,43,19,50,16,8,14,11,35,33,4,4,1.4,1.2
2022-01-25T18:00:00,1336A,112.8872,28.2189,长沙市,高开区环保局,,28,17,46,19,47,29,15,24,16,28,27,3,3,1.3,1.2
2022-01-25T18:00:00,1337A,113.0792,28.2053,长沙市,马坡岭,,20,20,50,14,48,17,6,14,11,31,28,4,5,1.5,1.3
2022-01-25T18:00:00,1338A,112.9394,28.19,长沙市,湖南师范大学,,,15,42,19,47,28,15,22,18,27,24,4,4,,1.2
2022-01-25T18:00:00,1339A,113.0178,28.1322,长沙市,雨花区环保局,,19,15,45,13,44,15,6,12,8,30,27,6,6,1.3,1.2
2022-01-25T18:00:00,1340A,112.9792,28.2597,长沙市,伍家岭,,33,15,53,23,45,20,9,16,13,27,23,4,4,1.5,1.4
2022-01-25T18:00:00,1341A,113.0014,28.1944,长沙市,火车新站,,24,24,52,13,46,17,7,15,10,35,30,5,5,1.5,1.4
2022-01-25T18:00:00,1342A,112.9844,28.1178,长沙市,天心区环保局,,19,18,44,13,43,20,6,15,10,28,23,4,4,1.3,1
2022-01-25T18:00:00,1343A,112.8908,28.1308,长沙市,湖南中医药大学,,28,20,44,19,47,24,11,19,15,29,24,4,4,1.6,1.4
2022-01-25T18:00:00,1344A,112.9581,28.3611,长沙市,沙坪(对照点),,22,19,49,15,42,25,16,20,17,27,26,4,4,1.7,1.6
2022-01-25T18:00:00,1345A,113.2347,23.1423,广州市,广雅中学,,32,32,20,22,12,42,28,28,28,45,26,6,5,1.0,1
2022-01-25T18:00:00,1346A,113.2612,23.105,广州市,市五中,,29,29,16,17,10,40,30,31,31,45,27,4,3,1.1,1
2022-01-25T18:00:00,1348A,113.3478,23.0916,广州市,广东商学院,,29,23,15,16,9,36,16,23,23,57,31,6,6,1.1,1.1
2022-01-25T18:00:00,1349A,113.4332,23.1047,广州市,市八十六中,,33,28,14,23,9,43,17,25,25,54,28,6,5,0.6,0.8
2022-01-25T18:00:00,1350A,113.3505,22.9483,广州市,番禺中学,,31,31,16,17,8,53,36,28,28,34,25,5,4,1.0,1
2022-01-25T18:00:00,1351A,113.2146,23.3916,广州市,花都师范,,19,19,12,12,8,53,40,38,38,32,22,5,5,0.8,0.7
2022-01-25T18:00:00,1352A,113.2597,23.1331,广州市,市监测站,,27,27,16,18,12,46,26,33,33,54,28,5,5,1.1,1.1
2022-01-25T18:00:00,1353A,113.5618,23.312,广州市,九龙镇镇龙,,13,13,12,8,8,44,29,27,27,17,19,5,5,0.9,1
2022-01-25T18:00:00,1354A,113.2765,23.1544,广州市,麓湖,,27,27,14,17,10,42,26,29,29,45,27,5,5,1.1,1.1
2022-01-25T18:00:00,1355A,113.443,23.3035,广州市,帽峰山森林公园(对照点),,9,7,8,5,5,35,25,28,28,15,14,5,5,0.9,0.9
2022-01-25T18:00:00,1356A,114.1063,22.5545,深圳市,通心岭子站,,14,14,17,8,11,66,30,59,25,18,12,4,4,0.7,0.6
2022-01-25T18:00:00,1357A,114.117,22.5625,深圳市,洪湖,,16,16,20,8,11,76,32,62,27,29,25,3,4,0.7,0.7
2022-01-25T18:00:00,1358A,113.987,22.5417,深圳市,华侨城,,16,11,17,7,11,64,50,63,30,21,15,5,5,0.8,0.7
2022-01-25T18:00:00,1359A,113.9181,22.5171,深圳市,南海子站,,,,19,,13,68,18,64,24,37,19,5,5,0.7,0.5
2022-01-25T18:00:00,1360A,114.2458,22.5689,深圳市,盐田,,24,16,17,10,10,76,14,37,17,48,40,7,7,0.8,0.4
2022-01-25T18:00:00,1361A,114.2283,22.7244,深圳市,龙岗,,24,24,16,13,8,75,67,71,37,29,20,4,2,0.9,0.8
2022-01-25T18:00:00,1363A,114.494,22.5422,深圳市,南澳,,23,23,16,15,10,70,51,68,44,18,9,8,7,0.8,0.6
2022-01-25T18:00:00,1364A,114.41,22.6342,深圳市,葵涌,,20,20,15,11,7,84,62,82,35,17,14,6,5,0.6,0.6
2022-01-25T18:00:00,1365A,114.297,22.5978,深圳市,梅沙,,20,20,16,10,7,82,40,82,38,20,13,6,6,0.9,0.7
2022-01-25T18:00:00,1366A,114.0678,22.738,深圳市,观澜,,19,14,21,5,10,60,60,56,29,12,18,5,5,0.5,0.5
2022-01-25T18:00:00,1367A,113.5814,22.2618,珠海市,吉大,,21,18,22,7,8,80,20,16,16,41,38,6,6,0.8,0.8
2022-01-25T18:00:00,1368A,113.4881,22.2335,珠海市,前山,,27,27,23,17,12,75,5,18,12,46,35,9,9,0.9,0.7
2022-01-25T18:00:00,1369A,113.628,22.4251,珠海市,唐家,,42,29,27,29,16,49,20,14,14,32,31,8,8,0.7,0.8
2022-01-25T18:00:00,1370A,113.299,22.2281,珠海市,斗门,颗粒物(PM10),53,56,35,18,10,67,14,16,16,41,31,6,6,0.9,0.8
2022-01-25T18:00:00,1371A,113.1294,23.0067,佛山市,湾梁,,36,36,18,14,7,40,34,30,30,42,28,6,6,0.9,0.8
2022-01-25T18:00:00,1372A,113.1083,23.0478,佛山市,华材职中,,36,36,16,19,12,39,32,32,32,36,22,4,2,1.0,0.9
2022-01-25T18:00:00,1373A,113.144,23.0453,佛山市,南海气象局,,35,35,14,15,9,37,30,26,26,40,29,4,4,1.0,1.1
2022-01-25T18:00:00,1374A,113.2881,22.8094,佛山市,顺德苏岗,,,17,11,17,8,28,20,19,19,,32,1,3,1.3,1.2
2022-01-25T18:00:00,1376A,112.8383,22.8678,佛山市,高明孔堂,,35,31,16,24,6,35,34,27,27,27,18,4,4,1.2,1.2
2022-01-25T18:00:00,1377A,112.8836,23.1588,佛山市,三水监测站,,31,31,10,17,9,34,29,27,27,29,19,4,2,1.0,0.9
2022-01-25T18:00:00,1378A,112.867,23.185,佛山市,三水云东海,,28,28,16,12,6,34,26,26,26,29,22,5,4,0.9,0.8
2022-01-25T18:00:00,1379A,113.3769,22.5211,中山市,华柏园,,35,35,25,24,12,21,15,12,12,45,35,2,2,1.1,1
2022-01-25T18:00:00,1380A,113.3881,22.5497,中山市,张溪,,34,34,33,20,9,25,20,17,17,39,31,3,4,0.9,1
2022-01-25T18:00:00,1381A,113.4075,22.5111,中山市,紫马岭,,45,45,28,17,12,19,9,12,12,37,29,4,4,1.0,1
2022-01-25T18:00:00,1382A,113.4411,22.4853,中山市,长江旅游区(对照点),,26,25,26,18,14,18,12,12,12,42,38,3,4,1.0,1
2022-01-25T18:00:00,1383A,113.1064,22.6058,江门市,北街,,36,32,17,25,9,34,28,24,24,45,30,6,6,1.2,1.1
2022-01-25T18:00:00,1384A,113.0731,22.5835,江门市,西区,,38,38,20,22,12,34,25,21,21,50,31,6,5,1.3,1
2022-01-25T18:00:00,1385A,113.0219,22.5311,江门市,圭峰西,细颗粒物(PM2.5),55,32,18,39,16,37,27,28,28,53,34,4,3,1.2,1
2022-01-25T18:00:00,1386A,113.0828,22.5947,江门市,东湖,,41,41,22,19,10,36,28,24,24,38,27,5,5,1.0,0.9
2022-01-25T18:00:00,1389A,113.7547,23.0494,东莞市,莞城梨川,,20,18,14,12,8,76,64,48,48,20,20,8,7,0.9,1
2022-01-25T18:00:00,1390A,113.7944,23.0128,东莞市,东城石井,,21,18,13,12,9,72,67,56,56,18,23,6,5,0.7,0.9
2022-01-25T18:00:00,1391A,113.7383,22.9658,东莞市,南城西平,,33,14,13,23,16,71,58,48,48,21,25,3,3,0.6,0.8
2022-01-25T18:00:00,1392A,114.4183,23.0528,惠州市,河南岸金山湖子站,,27,27,16,15,9,47,43,35,35,21,16,2,2,1.3,0.9
2022-01-25T18:00:00,1393A,114.4053,23.0822,惠州市,下埔横江三路子站,,21,21,14,13,12,48,45,37,37,23,18,3,3,0.8,0.8
2022-01-25T18:00:00,1394A,114.4103,23.1142,惠州市,江北云山西路子站,,19,12,13,13,11,50,43,37,37,17,15,2,2,0.9,0.8
2022-01-25T18:00:00,1395A,114.4645,22.7833,惠州市,惠阳区承修路船湖子站,,,,18,,12,66,33,59,21,23,16,2,2,1.0,0.8
2022-01-25T18:00:00,1396A,114.5317,22.7422,惠州市,大亚湾管委会子站,,15,15,17,10,12,72,30,64,18,25,16,3,2,1.0,0.8
2022-01-25T18:00:00,1397A,112.4267,23.0706,肇庆市,睦岗子站,,27,27,13,15,7,39,32,31,31,28,20,5,5,1.1,1
2022-01-25T18:00:00,1398A,112.4645,23.0475,肇庆市,城中子站,,29,29,11,15,7,27,27,22,22,27,22,8,8,1.0,0.9
2022-01-25T18:00:00,1399A,112.5544,23.1522,肇庆市,坑口子站,,23,23,11,15,8,47,42,38,38,23,17,6,5,0.9,0.9
2022-01-25T18:00:00,1400A,112.4753,23.1,肇庆市,七星岩子站(对照点),,24,24,12,12,7,38,33,31,31,23,16,6,5,0.9,0.9
2022-01-25T18:00:00,1401A,108.3103,22.7881,南宁市,二十一中,,36,35,30,25,18,28,17,28,15,26,21,5,5,1.1,1
2022-01-25T18:00:00,1402A,108.3141,22.8528,南宁市,北湖,,45,45,33,24,17,26,14,25,15,22,18,8,8,0.8,0.8
2022-01-25T18:00:00,1403A,108.3206,22.8225,南宁市,市监测站,,40,40,32,28,19,31,10,29,12,37,28,7,7,1.1,1
2022-01-25T18:00:00,1404A,108.3829,22.8037,南宁市,大自然花园,,32,25,25,22,20,26,18,26,16,25,22,5,5,1.1,1
2022-01-25T18:00:00,1405A,108.4394,22.7904,南宁市,仙葫(对照点),,,,25,23,17,28,15,24,21,25,17,4,5,1.2,1.1
2022-01-25T18:00:00,1406A,108.2397,22.8467,南宁市,区农职院,,39,39,29,22,15,24,6,19,14,35,28,6,6,1.1,0.9
2022-01-25T18:00:00,1407A,108.3275,22.735,南宁市,英华嘉园,,,42,29,28,18,29,18,23,20,27,20,6,6,,1
2022-01-25T18:00:00,1408A,108.2257,22.7757,南宁市,沙井镇街道办,,50,50,36,27,20,23,4,21,11,40,28,5,6,1.1,1
2022-01-25T18:00:00,1409A,110.576,19.9507,海口市,东寨港(对照点),,34,34,19,8,10,79,78,73,73,3,4,1,3,0.4,0.4
2022-01-25T18:00:00,1410A,110.3232,20.0574,海口市,海南大学,,41,41,28,12,8,83,77,72,65,11,7,4,4,0.5,0.5
2022-01-25T18:00:00,1411A,110.283,20.0053,海口市,秀英海南医院,,35,35,28,5,9,80,79,70,70,3,3,3,3,0.4,0.4
2022-01-25T18:00:00,1412A,110.338,19.9969,海口市,海南师范大学,,34,34,25,9,8,71,69,60,60,5,7,2,2,0.4,0.4
2022-01-25T18:00:00,1413A,110.33,20.0356,海口市,龙华路环保局宿舍,,35,35,27,11,8,79,77,68,68,8,7,5,5,0.4,0.4
2022-01-25T18:00:00,1414A,106.3787,29.8279,重庆市,缙云山(对照点),,26,26,25,11,10,25,24,24,20,23,21,9,10,0.8,0.9
2022-01-25T18:00:00,1416A,106.4213,29.8253,重庆市,天生,,36,36,57,21,43,22,19,18,18,28,24,5,5,0.8,0.9
2022-01-25T18:00:00,1417A,106.6263,29.7228,重庆市,两路,,42,35,47,29,35,14,10,10,10,47,33,7,7,0.9,1
2022-01-25T18:00:00,1418A,106.2953,29.5983,重庆市,虎溪,,35,24,50,24,38,15,6,11,11,42,33,5,5,1.1,1.3
2022-01-25T18:00:00,1419A,106.5777,29.5102,重庆市,南坪,,35,35,40,22,28,22,11,16,16,36,32,5,5,0.6,0.6
2022-01-25T18:00:00,1420A,106.6556,29.6277,重庆市,唐家沱,,35,35,43,17,29,24,24,18,18,21,22,6,6,1.0,1.2
2022-01-25T18:00:00,1421A,106.6349,29.4906,重庆市,茶园,,39,39,45,25,31,8,4,6,6,35,26,5,5,0.5,0.6
2022-01-25T18:00:00,1422A,106.3754,29.4572,重庆市,白市驿,,45,45,51,7,25,24,11,18,18,34,24,6,6,0.6,0.7
2022-01-25T18:00:00,1425A,106.6205,29.7166,重庆市,空港,,38,32,42,26,32,25,13,15,15,45,32,11,10,0.9,1
2022-01-25T18:00:00,1426A,106.4782,29.4875,重庆市,新山村,,46,37,43,32,32,17,9,12,12,40,32,7,7,0.5,0.6
2022-01-25T18:00:00,1427A,106.5616,29.6453,重庆市,礼嘉,,33,33,38,8,20,22,19,16,16,24,28,10,12,0.7,0.9
2022-01-25T18:00:00,1428A,106.4522,29.7091,重庆市,蔡家,,38,38,42,26,34,12,8,8,8,38,29,5,5,0.9,1.1
2022-01-25T18:00:00,1429A,106.5093,29.3917,重庆市,鱼新街,,45,37,45,31,32,18,9,14,14,33,27,5,5,0.8,0.9
2022-01-25T18:00:00,1431A,103.9728,30.7236,成都市,金泉两河,,33,32,40,23,30,52,25,26,26,26,31,1,2,0.5,0.5
2022-01-25T18:00:00,1432A,104.1419,30.6764,成都市,十里店,,39,39,46,24,30,37,8,22,14,29,28,5,5,0.7,0.7
2022-01-25T18:00:00,1433A,104.0594,30.5767,成都市,三瓦窑,细颗粒物(PM2.5),52,50,43,36,33,35,4,22,14,31,28,2,2,0.7,0.7
2022-01-25T18:00:00,1434A,104.1122,30.6306,成都市,沙河铺,,46,44,43,32,35,32,5,22,14,32,29,6,6,1.2,1.2
2022-01-25T18:00:00,1437A,104.0431,30.6556,成都市,君平街,,45,40,43,31,34,56,12,30,21,34,33,5,6,1.2,1.2
2022-01-25T18:00:00,1438A,103.6202,31.0201,成都市,灵岩寺(对照点),,46,43,45,32,33,66,32,38,25,14,15,8,7,0.5,0.5
2022-01-25T18:00:00,1439A,106.6899,26.5998,贵阳市,马鞍山,,32,27,13,22,14,35,15,32,16,18,12,9,7,0.6,0.5
2022-01-25T18:00:00,1440A,106.6971,26.5694,贵阳市,市环保站,,24,24,13,9,9,93,15,33,28,27,14,4,3,0.6,0.4
2022-01-25T18:00:00,1441A,106.6243,26.6266,贵阳市,鉴湖路,,27,27,19,17,10,37,15,32,16,23,14,2,2,0.9,0.7
2022-01-25T18:00:00,1442A,106.7487,26.6343,贵阳市,燕子冲,,32,24,15,22,17,40,26,38,25,12,10,9,8,0.8,0.8
2022-01-25T18:00:00,1443A,106.6555,26.4365,贵阳市,碧云窝,,31,31,22,14,11,38,14,32,19,24,16,19,10,0.9,0.8
2022-01-25T18:00:00,1444A,106.694,26.5161,贵阳市,中院村,,19,19,18,12,11,34,11,31,17,23,16,15,10,1.0,0.8
2022-01-25T18:00:00,1445A,106.7109,26.6027,贵阳市,红边门,,,,15,,10,39,12,37,19,22,13,10,16,0.8,0.6
2022-01-25T18:00:00,1446A,106.7164,26.5699,贵阳市,新华路,,25,24,15,17,9,33,15,30,17,18,11,6,8,0.9,0.8
2022-01-25T18:00:00,1447A,106.674,26.5424,贵阳市,太慈桥,,,34,22,14,9,34,6,29,13,,19,5,4,0.7,0.6
2022-01-25T18:00:00,1450A,102.8204,24.8886,昆明市,呈贡新区,,33,28,24,23,22,89,79,83,83,11,10,7,5,0.4,0.4
2022-01-25T18:00:00,1451A,102.6251,24.9608,昆明市,西山森林公园(对照点),,30,30,30,19,18,86,78,83,83,6,6,6,7,0.3,0.3
2022-01-25T18:00:00,1452A,102.7252,25.0902,昆明市,龙泉镇,,33,30,35,23,24,83,73,77,77,14,23,8,9,0.4,0.4
2022-01-25T18:00:00,1453A,102.7266,25.0375,昆明市,东风东路,,,,31,,26,85,73,79,77,18,16,,7,0.4,0.4
2022-01-25T18:00:00,1454A,102.6742,25.0669,昆明市,金鼎山,,32,32,37,20,27,78,67,73,73,17,16,7,10,0.6,0.5
2022-01-25T18:00:00,1455A,102.6644,25.0401,昆明市,碧鸡广场,,37,37,37,22,28,80,68,73,73,19,20,8,10,0.5,0.4
2022-01-25T18:00:00,1456A,91.1319,29.6514,拉萨市,八廓街,,26,15,23,0,9,109,83,78,78,10,11,6,6,0.3,0.5
2022-01-25T18:00:00,1457A,91.1221,29.6747,拉萨市,市环保局,,24,22,24,5,12,75,74,70,70,4,11,6,6,0.3,0.6
2022-01-25T18:00:00,1458A,91.0874,29.6475,拉萨市,区监测站,,29,16,19,4,5,93,91,82,82,5,9,5,5,0.4,0.4
2022-01-25T18:00:00,1459A,91.1774,29.6541,拉萨市,西藏大学,,,15,18,5,8,100,87,82,82,,15,7,7,0.4,1.1
2022-01-25T18:00:00,1460A,90.9798,29.6588,拉萨市,区辐射站,,32,18,25,8,11,108,101,98,92,5,14,6,8,0.3,0.5
2022-01-25T18:00:00,1461A,91.0834,29.6292,拉萨市,拉萨火车站,,29,19,18,3,3,104,92,89,89,11,11,6,6,0.3,0.3
2022-01-25T18:00:00,1462A,108.882,34.2749,西安市,高压开关厂,细颗粒物(PM2.5),147,95,120,112,137,56,52,42,42,23,34,8,8,1.1,1.4
2022-01-25T18:00:00,1463A,108.993,34.2629,西安市,兴庆小区,细颗粒物(PM2.5),183,102,110,138,151,41,41,17,17,24,32,6,6,1.3,1.5
2022-01-25T18:00:00,1464A,109.06,34.2572,西安市,纺织城,细颗粒物(PM2.5),165,115,111,125,128,46,42,32,32,28,41,5,7,1.2,1.4
2022-01-25T18:00:00,1465A,108.9356,34.2173,西安市,小寨,,,138,145,,132,42,36,36,36,36,45,6,6,,1.3
2022-01-25T18:00:00,1466A,108.954,34.2713,西安市,市人民体育场,细颗粒物(PM2.5),153,97,112,117,136,47,44,34,34,27,42,7,7,1.2,1.3
2022-01-25T18:00:00,1467A,108.8922,34.2322,西安市,高新西区,细颗粒物(PM2.5),158,100,117,120,144,52,45,36,36,22,31,7,7,1.2,1.3
2022-01-25T18:00:00,1468A,108.935,34.3474,西安市,经开区,细颗粒物(PM2.5),156,94,102,119,144,53,49,43,43,17,34,7,7,1.1,1.3
2022-01-25T18:00:00,1469A,108.906,34.1546,西安市,长安区,细颗粒物(PM2.5),160,136,138,122,132,44,44,36,36,34,34,5,6,1.2,1.3
2022-01-25T18:00:00,1471A,109.2186,34.3731,西安市,临潼区,细颗粒物(PM2.5),169,109,107,128,123,47,47,39,39,28,37,9,9,1.4,1.7
2022-01-25T18:00:00,1472A,108.869,34.378,西安市,草滩(对照点),细颗粒物(PM2.5),137,107,108,104,129,61,51,44,44,20,36,6,6,1.0,1.1
2022-01-25T18:00:00,1473A,108.985,34.1978,西安市,曲江文化产业集团,细颗粒物(PM2.5),148,138,137,113,120,48,43,37,37,30,39,7,7,1.5,1.5
2022-01-25T18:00:00,1474A,109.051,34.3213,西安市,广运潭,细颗粒物(PM2.5),158,101,112,120,125,54,50,39,39,13,29,4,5,1.2,1.5
2022-01-25T18:00:00,1476A,103.631,36.1031,兰州市,兰炼宾馆,细颗粒物(PM2.5),115,94,100,87,75,78,41,55,55,68,64,12,17,1.6,1.3
2022-01-25T18:00:00,1477A,104.1373,35.9454,兰州市,榆中兰大校区(对照点),颗粒物(PM10),56,61,69,39,46,89,72,84,73,16,19,3,5,1.0,1.1
2022-01-25T18:00:00,1478A,103.8412,36.0726,兰州市,生物制品所,,,78,96,43,57,102,66,59,59,25,60,16,10,,1.4
2022-01-25T18:00:00,1479A,103.831,36.0464,兰州市,铁路设计院,细颗粒物(PM2.5),75,83,97,55,62,69,34,28,28,67,81,15,14,2.4,2.4
2022-01-25T18:00:00,1484A,105.9512,38.6016,银川市,贺兰山马莲口(对照点),细颗粒物(PM2.5),120,129,119,91,75,101,98,84,84,24,24,18,18,0.7,0.5
2022-01-25T18:00:00,1488A,106.2328,38.4975,银川市,贺兰山东路,细颗粒物(PM2.5),90,93,122,67,91,85,80,68,68,33,51,19,12,1.2,1.6
2022-01-25T18:00:00,1489A,106.1358,38.5036,银川市,学院路,颗粒物(PM10),68,85,138,39,83,83,77,67,67,33,51,22,16,1.3,1.6
2022-01-25T18:00:00,1490A,87.5801,43.8303,乌鲁木齐市,监测站,,,108,79,,69,33,19,24,16,59,58,2,3,0.8,1
2022-01-25T18:00:00,1491A,87.6046,43.768,乌鲁木齐市,收费所,细颗粒物(PM2.5),139,138,113,106,86,21,16,17,15,56,57,4,4,1.7,1.6
2022-01-25T18:00:00,1492A,87.4754,43.9469,乌鲁木齐市,新疆农科院农场(对照点),细颗粒物(PM2.5),119,102,108,90,86,61,61,53,44,23,28,4,4,0.5,1
2022-01-25T18:00:00,1493A,87.5525,43.8711,乌鲁木齐市,铁路局,细颗粒物(PM2.5),153,72,66,117,91,42,28,42,26,34,34,3,3,1.2,1.1
2022-01-25T18:00:00,1494A,87.6432,43.831,乌鲁木齐市,三十一中学,细颗粒物(PM2.5),144,140,115,110,92,35,33,28,28,47,46,1,2,1.0,1.1
2022-01-25T18:00:00,1496A,87.7216,44.1747,乌鲁木齐市,米东区环保局,,,51,106,,79,70,64,55,46,16,46,14,5,0.0,1.4
2022-01-25T18:00:00,1508A,112.9433,27.8614,湘潭市,板塘,,24,24,38,13,47,26,15,21,16,28,24,4,4,1.3,1.3
2022-01-25T18:00:00,1511A,112.9118,27.8403,湘潭市,市监测站,,30,17,45,21,49,20,9,20,10,34,26,6,5,1.7,1.5
2022-01-25T18:00:00,1512A,112.8937,27.8728,湘潭市,江麓,,25,25,46,16,47,29,17,26,18,31,28,5,5,1.3,1.2
2022-01-25T18:00:00,1513A,112.9227,27.8159,湘潭市,岳塘,,25,19,41,17,48,27,19,27,18,28,25,7,7,1.3,1.2
2022-01-25T18:00:00,1514A,112.9074,27.9119,湘潭市,科大,,,,53,23,45,27,13,24,12,19,17,4,4,1.6,0.6
2022-01-25T18:00:00,1515A,113.135,27.8244,株洲市,天台山庄,,26,9,33,18,44,14,6,10,8,39,33,6,4,1.1,0.8
2022-01-25T18:00:00,1518A,113.095,27.8867,株洲市,株冶医院,,30,17,35,21,41,14,7,11,9,41,35,5,5,1.4,1.2
2022-01-25T18:00:00,1519A,113.167,27.8667,株洲市,市四中,,28,19,41,19,46,14,8,14,11,33,30,4,4,0.8,0.6
2022-01-25T18:00:00,1520A,113.143,27.8381,株洲市,火车站,,36,12,43,25,46,13,7,12,9,44,41,5,5,1.1,0.9
2022-01-25T18:00:00,1524A,113.13,27.8528,株洲市,市监测站,,30,17,43,21,45,13,6,12,9,46,41,9,7,1.2,1
2022-01-25T18:00:00,1552A,106.805,26.3003,贵阳市,桐木岭(对照点),,20,19,24,14,17,40,27,30,29,5,6,9,11,0.8,0.8
2022-01-25T18:00:00,1559A,113.251,27.8336,株洲市,大京风景区(对照点),,30,9,44,21,39,14,7,13,11,30,28,5,5,1.2,1
2022-01-25T18:00:00,1562A,113.0048,27.9153,湘潭市,昭山,,30,14,39,21,48,15,6,12,9,26,21,3,4,1.5,1.4
2022-01-25T18:00:00,1564A,112.4876,27.9164,湘潭市,韶山(对照点),,19,19,51,9,36,35,24,32,26,22,19,4,4,1.1,1
2022-01-25T18:00:00,1585A,109.8756,40.6532,包头市,市环境监测站,,22,22,53,13,39,74,65,66,66,14,19,6,5,0.7,0.9
2022-01-25T18:00:00,1587A,109.9991,40.5842,包头市,包头八中,,20,18,74,11,49,77,61,63,63,22,45,5,8,0.6,1.3
2022-01-25T18:00:00,1588A,109.8538,40.6821,包头市,青山宾馆,,28,28,64,8,53,54,38,50,42,32,26,6,6,0.5,0.7
2022-01-25T18:00:00,1589A,109.8642,40.6288,包头市,惠龙物流,,30,18,58,9,42,72,34,63,62,60,19,13,5,1.7,0.8
2022-01-25T18:00:00,1590A,110.0377,40.5546,包头市,东河鸿龙湾,,19,16,66,10,68,72,59,58,58,38,47,14,8,1.4,1.6
2022-01-25T18:00:00,1591A,110.0023,39.8129,鄂尔多斯市,综合楼,颗粒物(PM10),53,56,71,36,50,78,54,78,62,42,31,13,11,0.8,0.7
2022-01-25T18:00:00,1592A,109.9486,39.8261,鄂尔多斯市,巴音孟克林场办事处,,44,44,69,17,41,81,68,81,71,27,27,11,14,0.8,1
2022-01-25T18:00:00,1593A,109.7736,39.5986,鄂尔多斯市,康泽苑,,28,12,45,5,27,94,87,84,84,13,19,7,7,0.4,0.6
2022-01-25T18:00:00,1594A,109.8119,39.5989,鄂尔多斯市,华泰汽车城,,27,19,54,12,39,91,85,79,79,11,25,7,6,0.3,0.6
2022-01-25T18:00:00,1595A,109.9734,39.7884,鄂尔多斯市,奥林花园,,50,50,71,17,41,77,59,68,68,29,28,12,10,0.8,0.9
2022-01-25T18:00:00,1597A,122.2703,40.7094,营口市,大庆路,细颗粒物(PM2.5),219,221,197,169,146,81,23,56,52,94,68,44,29,2.3,2.1
2022-01-25T18:00:00,1598A,122.215,40.6511,营口市,镜湖西路,细颗粒物(PM2.5),203,204,175,153,130,76,19,50,50,100,67,18,26,2.1,1.8
2022-01-25T18:00:00,1599A,122.167,40.6655,营口市,西炮台,细颗粒物(PM2.5),186,190,176,140,131,59,31,45,45,75,61,14,22,1.5,1.6
2022-01-25T18:00:00,1600A,124.3303,40.0625,丹东市,江湾东路,细颗粒物(PM2.5),74,61,59,54,46,76,39,63,62,57,36,20,22,1.6,1.2
2022-01-25T18:00:00,1601A,124.4256,40.1503,丹东市,临江后街,,40,40,63,26,45,82,43,72,68,54,41,15,25,1.1,1.2
2022-01-25T18:00:00,1602A,124.3933,40.1461,丹东市,元宝山,,28,28,60,18,43,86,76,78,77,14,30,27,29,1.0,1.2
2022-01-25T18:00:00,1603A,124.3633,40.1092,丹东市,民主桥,,45,45,56,24,38,76,35,63,60,60,42,16,25,1.3,1.2
2022-01-25T18:00:00,1604A,122.0303,41.1489,盘锦市,开发区,细颗粒物(PM2.5),160,140,112,122,98,80,39,68,67,73,41,21,17,2.0,1.5
2022-01-25T18:00:00,1605A,122.0485,41.0883,盘锦市,兴隆台,细颗粒物(PM2.5),114,102,120,86,88,78,54,71,71,57,51,19,19,1.2,1.3
2022-01-25T18:00:00,1606A,121.8297,41.1028,盘锦市,新生街道,细颗粒物(PM2.5),97,114,120,72,91,76,64,66,66,42,60,25,20,1.0,1.3
2022-01-25T18:00:00,1607A,120.9092,40.7136,葫芦岛市,龙港区,细颗粒物(PM2.5),155,133,132,118,102,55,54,50,50,,57,32,53,,1.8
2022-01-25T18:00:00,1608A,120.8392,40.7514,葫芦岛市,化工街,细颗粒物(PM2.5),123,169,125,93,84,52,22,40,38,84,62,38,42,1.5,1.5
2022-01-25T18:00:00,1609A,120.8341,40.7073,葫芦岛市,新区,细颗粒物(PM2.5),130,129,112,99,89,56,48,41,41,50,64,24,37,1.0,1.3
2022-01-25T18:00:00,1610A,120.8695,40.7677,葫芦岛市,东城区,细颗粒物(PM2.5),179,198,142,135,98,52,12,42,38,96,63,,58,1.9,1.7
2022-01-25T18:00:00,1611A,118.5819,24.9117,泉州市,涂山街,,39,37,19,27,16,88,61,72,72,23,15,7,6,0.8,0.6
2022-01-25T18:00:00,1612A,118.5972,24.8978,泉州市,津头埔,,46,44,22,32,19,90,54,71,71,31,20,9,8,0.8,0.6
2022-01-25T18:00:00,1613A,118.6663,24.9424,泉州市,万安,细颗粒物(PM2.5),52,49,24,36,21,87,63,74,74,21,13,5,4,0.7,0.5
2022-01-25T18:00:00,1614A,118.6117,24.9604,泉州市,清源山(对照点),,42,35,18,29,17,88,62,77,77,20,12,7,6,0.6,0.5
2022-01-25T18:00:00,1616A,117.6795,36.229,济南市,技术学院,细颗粒物(PM2.5),178,161,148,134,111,76,37,52,52,60,58,14,14,1.7,1.7
2022-01-25T18:00:00,1618A,118.3429,35.0532,临沂市,沂河小区,细颗粒物(PM2.5),213,178,109,163,86,75,60,57,57,51,43,21,20,1.1,0.8
2022-01-25T18:00:00,1619A,118.295,35.0583,临沂市,鲁南制药厂,细颗粒物(PM2.5),186,161,103,140,89,90,78,67,67,40,38,17,22,1.4,1.2
2022-01-25T18:00:00,1620A,118.2794,34.9976,临沂市,新光毛纺厂,细颗粒物(PM2.5),207,185,112,157,84,74,58,55,55,44,49,12,17,1.5,1.3
2022-01-25T18:00:00,1621A,118.3956,35.0888,临沂市,河东保险公司,细颗粒物(PM2.5),190,168,106,143,80,74,45,58,58,70,47,20,22,1.4,1
2022-01-25T18:00:00,1622A,116.3032,37.4674,德州市,儿童乐园,细颗粒物(PM2.5),160,157,145,122,118,94,76,80,80,31,32,15,19,1.2,1.3
2022-01-25T18:00:00,1624A,116.2991,37.4451,德州市,监理站,细颗粒物(PM2.5),192,151,156,144,138,87,80,78,78,32,37,19,23,1.3,1.5
2022-01-25T18:00:00,1625A,115.9848,36.4372,聊城市,区政府,细颗粒物(PM2.5),156,149,150,119,113,76,66,68,68,30,36,10,14,1.3,1.3
2022-01-25T18:00:00,1628A,118.0062,37.3803,滨州市,市环保局,细颗粒物(PM2.5),175,174,140,132,103,84,73,71,71,28,32,21,25,1.6,1.4
2022-01-25T18:00:00,1629A,118.0018,37.3617,滨州市,第二水厂,细颗粒物(PM2.5),168,163,133,127,99,52,35,52,33,29,37,24,29,1.6,1.4
2022-01-25T18:00:00,1630A,117.9776,37.393,滨州市,北中新校,细颗粒物(PM2.5),175,161,137,132,112,78,59,67,67,41,41,22,26,1.9,1.7
2022-01-25T18:00:00,1631A,118.0414,36.8103,淄博市,人民公园,细颗粒物(PM2.5),165,129,122,125,94,67,58,38,38,42,59,25,24,1.3,1.2
2022-01-25T18:00:00,1633A,117.8525,36.4847,淄博市,双山,细颗粒物(PM2.5),218,219,163,168,131,54,11,28,28,74,51,32,22,2.1,1.5
2022-01-25T18:00:00,1634A,117.9592,36.6331,淄博市,气象站,细颗粒物(PM2.5),221,226,157,171,115,61,17,31,31,71,67,62,36,2.2,1.4
2022-01-25T18:00:00,1635A,118.3092,36.8194,淄博市,莆田园,细颗粒物(PM2.5),168,141,102,127,86,65,43,44,44,48,48,24,21,1.5,1.2
2022-01-25T18:00:00,1637A,117.558,34.8438,枣庄市,市中区政府,细颗粒物(PM2.5),163,175,152,124,102,80,61,64,64,46,41,16,16,1.2,1.1
2022-01-25T18:00:00,1638A,117.2852,34.7837,枣庄市,薛城环保局,细颗粒物(PM2.5),153,154,138,117,105,88,88,71,71,31,35,14,17,0.9,1
2022-01-25T18:00:00,1639A,117.5852,34.7745,枣庄市,峄城区政府,细颗粒物(PM2.5),134,136,136,102,101,84,77,72,72,26,35,10,19,0.9,0.9
2022-01-25T18:00:00,1640A,117.7276,34.5578,枣庄市,台儿庄区环保局,细颗粒物(PM2.5),144,141,154,110,109,92,82,72,72,34,46,9,12,1.2,1.5
2022-01-25T18:00:00,1641A,117.4518,35.0992,枣庄市,山亭区环保局,细颗粒物(PM2.5),150,149,131,115,100,89,78,72,72,49,43,16,18,1.1,1.3
2022-01-25T18:00:00,1642A,121.2514,37.5639,烟台市,开发区,细颗粒物(PM2.5),119,110,90,90,67,75,69,68,64,33,31,5,8,1.2,1.1
2022-01-25T18:00:00,1643A,121.3719,37.5433,烟台市,轴承厂,细颗粒物(PM2.5),159,127,96,121,87,66,61,61,58,40,36,18,21,1.4,1.3
2022-01-25T18:00:00,1644A,121.3181,37.5436,烟台市,西郊化工站,细颗粒物(PM2.5),134,119,94,102,74,68,68,60,60,39,40,17,17,1.5,1.5
2022-01-25T18:00:00,1645A,121.4478,37.4822,烟台市,莱山环保局,细颗粒物(PM2.5),120,105,83,91,63,81,73,70,68,37,36,8,11,1.0,0.8
2022-01-25T18:00:00,1646A,121.2611,37.4967,烟台市,福山环保局,细颗粒物(PM2.5),122,119,95,92,69,75,65,72,63,32,27,5,6,1.3,1.2
2022-01-25T18:00:00,1650A,119.1437,36.7023,潍坊市,环保局,细颗粒物(PM2.5),144,141,78,110,56,79,51,75,61,50,30,21,10,1.4,0.8
2022-01-25T18:00:00,1653A,116.6251,35.4302,济宁市,火炬城,细颗粒物(PM2.5),134,122,96,102,87,80,65,69,69,28,31,8,11,1.2,1.1
2022-01-25T18:00:00,1655A,116.5491,35.4042,济宁市,电化厂,细颗粒物(PM2.5),156,111,99,119,101,95,70,80,80,27,33,6,12,1.1,1
2022-01-25T18:00:00,1656A,117.1437,36.1937,泰安市,监测站,细颗粒物(PM2.5),208,156,143,158,122,76,56,66,66,46,42,16,17,1.4,1.4
2022-01-25T18:00:00,1657A,117.0885,36.2017,泰安市,人口学校,细颗粒物(PM2.5),193,163,139,145,111,77,57,61,61,51,50,14,16,1.4,1.3
2022-01-25T18:00:00,1658A,117.1089,36.1758,泰安市,电力学校,细颗粒物(PM2.5),198,151,132,148,114,85,66,70,70,45,51,19,20,1.5,1.5
2022-01-25T18:00:00,1659A,119.471,35.4209,日照市,监测站,细颗粒物(PM2.5),108,136,76,81,50,78,4,58,47,97,35,10,7,1.5,0.8
2022-01-25T18:00:00,1660A,119.523,35.4216,日照市,市政府广场,细颗粒物(PM2.5),109,136,76,82,49,70,9,66,42,96,35,18,10,1.4,0.8
2022-01-25T18:00:00,1661A,119.5587,35.4044,日照市,港务局,细颗粒物(PM2.5),108,129,71,81,49,74,35,68,56,68,24,8,6,1.6,0.9
2022-01-25T18:00:00,1662A,122.1214,37.4236,威海市,华夏技校,细颗粒物(PM2.5),98,80,65,73,60,84,82,73,67,16,18,3,5,1.1,0.8
2022-01-25T18:00:00,1663A,122.0508,37.5236,威海市,山大分校,细颗粒物(PM2.5),92,71,60,68,54,87,86,78,70,21,20,4,6,1.1,0.9
2022-01-25T18:00:00,1664A,122.1067,37.5072,威海市,市监测站,细颗粒物(PM2.5),95,88,70,71,55,79,72,75,59,27,23,6,7,1.1,0.9
2022-01-25T18:00:00,1666A,118.6614,37.4309,东营市,市环保局,细颗粒物(PM2.5),160,134,108,122,97,71,60,61,61,42,40,16,13,1.5,1.3
2022-01-25T18:00:00,1669A,113.5824,24.7733,韶关市,市八中,,20,13,13,13,10,65,63,54,54,14,18,6,7,0.8,0.9
2022-01-25T18:00:00,1671A,113.5917,24.7972,韶关市,园林处,,20,15,16,9,9,66,63,54,54,11,14,6,7,0.7,0.9
2022-01-25T18:00:00,1672A,113.6735,24.7791,韶关市,韶关学院,,20,10,12,12,7,69,64,55,55,11,18,6,6,0.8,1
2022-01-25T18:00:00,1673A,113.5971,24.6863,韶关市,曲江监测站,,20,9,12,14,6,63,60,48,48,12,19,8,11,1.0,1
2022-01-25T18:00:00,1674A,116.6794,23.3667,汕头市,金平子站,,49,40,20,34,14,122,102,98,98,21,17,7,7,1.0,0.7
2022-01-25T18:00:00,1675A,116.7244,23.3633,汕头市,龙湖子站,,,,54,36,13,116,103,99,99,14,14,,6,0.7,0.5
2022-01-25T18:00:00,1676A,116.7258,23.2775,汕头市,濠江子站,颗粒物(PM10),53,55,26,29,13,124,107,105,105,12,12,8,9,0.9,0.7
2022-01-25T18:00:00,1677A,116.7519,23.4714,汕头市,澄海子站,,45,35,20,31,18,121,108,100,100,19,17,7,7,1.0,0.8
2022-01-25T18:00:00,1678A,116.6092,23.2539,汕头市,潮阳子站,,39,39,19,27,8,135,122,114,114,11,11,9,10,0.8,0.6
2022-01-25T18:00:00,1680A,110.3539,21.2706,湛江市,湛江影剧院,,32,22,24,19,21,101,101,71,71,13,13,4,6,0.7,0.8
2022-01-25T18:00:00,1681A,110.3928,21.2228,湛江市,市环境监测站,,35,21,18,18,16,109,109,82,82,10,13,5,5,0.6,0.6
2022-01-25T18:00:00,1682A,110.4019,21.1997,湛江市,环保局宿舍,,35,28,19,19,22,109,109,81,81,10,12,3,4,0.6,0.6
2022-01-25T18:00:00,1683A,110.4111,21.2028,湛江市,霞山游泳场,,33,23,20,22,19,107,105,80,80,12,11,4,4,0.6,0.5
2022-01-25T18:00:00,1684A,110.3316,21.2679,湛江市,麻章区环保局,,32,24,25,20,20,101,101,69,69,11,13,5,7,0.6,0.6
2022-01-25T18:00:00,1685A,110.4558,21.2567,湛江市,坡头区环保局,,35,17,19,24,20,111,111,85,85,9,10,4,4,0.7,0.7
2022-01-25T18:00:00,1686A,111.0286,21.4688,茂名市,电白南海,,39,39,30,12,13,101,90,78,78,11,12,6,8,0.5,0.5
2022-01-25T18:00:00,1687A,110.9294,21.6533,茂名市,茂石化七小,,41,41,29,17,15,98,83,68,68,8,12,8,11,0.5,0.7
2022-01-25T18:00:00,1688A,110.9107,21.6687,茂名市,健康路,,41,41,30,11,15,102,87,72,72,10,13,5,11,0.6,0.8
2022-01-25T18:00:00,1689A,110.8592,21.6828,茂名市,高岭,,34,34,22,17,15,100,84,72,72,14,16,6,12,0.7,0.9
2022-01-25T18:00:00,1690A,116.1231,24.3284,梅州市,梅江月梅,,30,30,15,18,8,48,28,32,32,17,14,6,6,0.6,0.6
2022-01-25T18:00:00,1691A,116.0797,24.2719,梅州市,梅县新城,,36,17,14,25,11,63,55,43,43,23,15,4,3,1.0,0.8
2022-01-25T18:00:00,1692A,116.1248,24.2654,梅州市,环境监控中心,,30,22,15,21,10,56,39,35,35,29,17,6,5,0.7,0.6
2022-01-25T18:00:00,1693A,115.3653,22.775,汕尾市,市环保局,,38,32,21,23,11,120,120,98,98,5,4,7,6,0.6,0.5
2022-01-25T18:00:00,1694A,115.3706,22.7898,汕尾市,市政府,,39,28,17,27,14,109,109,93,93,13,10,5,5,0.7,0.5
2022-01-25T18:00:00,1695A,115.3622,22.7925,汕尾市,新城中学,,39,32,22,27,12,110,110,87,87,10,7,5,5,0.6,0.5
2022-01-25T18:00:00,1696A,114.6778,23.7569,河源市,源西(对照点),,21,20,11,9,7,71,67,48,48,13,14,2,2,1.0,1
2022-01-25T18:00:00,1697A,114.6944,23.7586,河源市,东埔,,20,15,10,9,8,69,64,51,51,18,18,3,3,1.0,1
2022-01-25T18:00:00,1698A,114.6892,23.7233,河源市,老城,,22,17,10,13,7,69,69,48,48,12,14,3,3,1.1,1.1
2022-01-25T18:00:00,1699A,111.9797,21.8593,阳江市,鸳鸯湖(对照点),,32,18,18,22,18,98,72,71,71,13,11,5,4,0.8,0.8
2022-01-25T18:00:00,1701A,111.9491,21.8658,阳江市,马南垌,,39,25,22,27,22,99,73,70,70,24,20,5,4,0.8,0.8
2022-01-25T18:00:00,1702A,113.0426,23.691,清远市,环保大楼(对照点),,39,24,10,27,14,42,22,33,33,32,15,6,6,1.3,1
2022-01-25T18:00:00,1703A,113.0208,23.7106,清远市,凤城街办,,19,19,10,13,9,38,29,32,32,29,16,6,6,1.2,1.1
2022-01-25T18:00:00,1705A,116.6367,23.6719,潮州市,西园路(对照点),,42,40,25,29,24,110,110,63,63,16,16,8,6,0.9,0.7
2022-01-25T18:00:00,1706A,116.6447,23.6706,潮州市,档案局,,35,34,25,24,20,103,103,60,60,20,17,8,7,0.8,0.7
2022-01-25T18:00:00,1708A,116.3701,23.5345,揭阳市,新兴,,,,24,34,25,90,90,65,65,26,18,9,7,1.3,0.9
2022-01-25T18:00:00,1709A,116.3264,23.5443,揭阳市,西马,颗粒物(PM10),55,60,44,32,25,89,89,64,64,16,15,6,6,0.8,0.7
2022-01-25T18:00:00,1710A,116.3611,23.5626,揭阳市,东兴,,46,36,24,32,26,76,76,60,60,23,16,9,7,1.2,0.7
2022-01-25T18:00:00,1711A,116.4151,23.5294,揭阳市,渔湖,,43,43,24,26,22,97,97,65,65,26,19,14,7,1.4,0.7
2022-01-25T18:00:00,1712A,112.0392,22.9169,云浮市,新市府(对照点),,19,18,18,13,9,36,28,25,25,23,20,4,7,0.9,0.8
2022-01-25T18:00:00,1714A,112.0539,22.9539,云浮市,牧羊,,43,43,18,20,13,32,24,26,26,24,18,8,7,0.9,0.9
2022-01-25T18:00:00,1715A,102.575,24.3711,玉溪市,东风水库,,32,32,30,22,23,77,72,70,70,13,14,7,8,0.5,0.7
2022-01-25T18:00:00,1718A,115.4208,35.2464,菏泽市,气象局,细颗粒物(PM2.5),183,154,124,138,101,78,65,62,56,29,29,4,8,1.4,1.1
2022-01-25T18:00:00,1719A,115.4747,35.2375,菏泽市,市政协,细颗粒物(PM2.5),175,144,115,132,94,81,63,57,57,29,29,5,7,1.5,1.1
2022-01-25T18:00:00,1721A,113.3819,40.1097,大同市,果树场(对照点),,24,7,50,2,35,80,74,76,76,14,18,7,9,0.3,0.6
2022-01-25T18:00:00,1723A,113.2994,40.0758,大同市,云冈宾馆,,38,38,64,7,35,79,71,69,69,8,21,4,12,0.3,0.9
2022-01-25T18:00:00,1724A,113.3444,40.0917,大同市,大同大学,,20,17,58,13,35,80,64,68,68,14,18,8,13,0.4,0.8
2022-01-25T18:00:00,1725A,113.2661,40.1269,大同市,安家小村,,22,18,50,13,30,86,68,76,76,10,12,8,11,0.3,0.5
2022-01-25T18:00:00,1726A,113.2711,40.0844,大同市,教育学院,,29,29,78,4,55,77,60,67,67,22,27,6,16,0.4,0.8
2022-01-25T18:00:00,1727A,113.1147,36.1547,长治市,清华站,细颗粒物(PM2.5),153,108,110,117,107,97,75,79,79,55,32,10,9,1.7,1.3
2022-01-25T18:00:00,1728A,113.1031,36.1989,长治市,监测站,细颗粒物(PM2.5),107,93,94,80,94,95,86,78,78,28,21,10,9,1.6,1.6
2022-01-25T18:00:00,1730A,113.0886,36.2125,长治市,审计局,细颗粒物(PM2.5),100,108,102,75,94,89,88,73,73,37,33,10,9,1.2,1.5
2022-01-25T18:00:00,1731A,113.0844,36.1856,长治市,长治八中,细颗粒物(PM2.5),119,111,113,90,97,102,88,78,78,33,27,13,11,1.2,1.5
2022-01-25T18:00:00,1733A,111.5531,36.0783,临汾市,临钢医院,细颗粒物(PM2.5),142,105,114,108,114,79,71,58,58,26,29,5,7,1.5,1.7
2022-01-25T18:00:00,1734A,111.5028,36.0714,临汾市,技工学校,细颗粒物(PM2.5),202,143,128,152,138,59,44,41,41,42,30,8,11,1.4,1.5
2022-01-25T18:00:00,1736A,111.5018,36.0855,临汾市,市委,细颗粒物(PM2.5),178,135,120,134,124,66,45,43,43,44,32,6,9,1.3,1.4
2022-01-25T18:00:00,1738A,113.5758,37.8572,阳泉市,市中心,细颗粒物(PM2.5),64,61,126,46,125,86,71,75,75,39,47,9,25,0.8,1.6
2022-01-25T18:00:00,1739A,113.4894,37.8731,阳泉市,赛鱼,细颗粒物(PM2.5),65,49,115,47,105,86,69,73,73,29,42,13,29,0.8,1.6
2022-01-25T18:00:00,1740A,113.5819,37.8486,阳泉市,南庄,细颗粒物(PM2.5),75,61,130,55,118,89,76,78,78,28,41,11,30,0.7,1.6
2022-01-25T18:00:00,1742A,113.5614,37.8703,阳泉市,平坦,细颗粒物(PM2.5),64,53,111,46,134,91,78,77,77,32,43,8,27,0.6,1.5
2022-01-25T18:00:00,1743A,113.5158,37.8392,阳泉市,大阳泉,细颗粒物(PM2.5),79,45,108,58,103,93,84,83,83,25,33,10,23,0.7,1.5
2022-01-25T18:00:00,1744A,118.9233,42.2816,赤峰市,松山一中,,27,27,123,7,75,63,56,60,60,22,43,9,28,0.5,1.7
2022-01-25T18:00:00,1745A,118.9576,42.2728,赤峰市,哈达街,,41,41,108,13,71,56,47,54,54,25,44,12,50,0.7,1.6
2022-01-25T18:00:00,1746A,118.8788,42.2554,赤峰市,天义路,,18,17,108,12,71,57,47,54,54,21,36,11,29,0.6,1.5
2022-01-25T18:00:00,1748A,123.044,41.1196,鞍山市,深沟寺,细颗粒物(PM2.5),134,172,234,102,157,56,52,40,40,48,87,16,47,1.1,4.2
2022-01-25T18:00:00,1749A,123.011,41.0931,鞍山市,太阳城,细颗粒物(PM2.5),118,149,210,89,147,64,64,36,36,46,84,25,45,1.0,3.3
2022-01-25T18:00:00,1750A,123.0485,41.1442,鞍山市,太平,细颗粒物(PM2.5),149,168,242,114,175,67,44,40,40,69,83,22,39,1.4,3.1
2022-01-25T18:00:00,1751A,122.9642,41.0971,鞍山市,铁西三道街,细颗粒物(PM2.5),119,154,274,90,190,57,37,38,38,66,79,23,49,1.6,3.4
2022-01-25T18:00:00,1752A,122.9341,41.0833,鞍山市,铁西工业园区,细颗粒物(PM2.5),206,220,290,156,199,73,24,46,46,98,80,26,30,1.7,3.3
2022-01-25T18:00:00,1753A,123.022,41.0821,鞍山市,明达新区,细颗粒物(PM2.5),124,136,203,94,145,45,45,35,35,62,85,21,44,1.2,3.1
2022-01-25T18:00:00,1754A,123.1289,41.0228,鞍山市,千山(对照点),细颗粒物(PM2.5),173,167,168,131,134,31,12,20,19,94,86,27,35,3.9,3.2
2022-01-25T18:00:00,1755A,123.7977,41.8491,抚顺市,望花区,细颗粒物(PM2.5),219,233,224,169,162,30,12,20,19,101,79,40,24,1.7,2.3
2022-01-25T18:00:00,1756A,123.9161,41.8822,抚顺市,顺城区,细颗粒物(PM2.5),204,196,180,154,143,41,13,28,28,102,66,34,26,1.7,2.1
2022-01-25T18:00:00,1757A,124.0436,41.8611,抚顺市,东洲区,细颗粒物(PM2.5),217,288,193,167,133,44,6,33,30,101,60,36,18,2.6,2.1
2022-01-25T18:00:00,1758A,123.9247,41.8642,抚顺市,新抚区,细颗粒物(PM2.5),219,193,201,169,145,28,8,24,23,132,86,40,23,2.2,2.4
2022-01-25T18:00:00,1759A,124.0972,41.8961,抚顺市,大伙房水库,细颗粒物(PM2.5),219,257,159,169,119,66,8,46,40,104,62,40,18,2.7,1.9
2022-01-25T18:00:00,1760A,123.7086,41.8391,抚顺市,沈抚新城,细颗粒物(PM2.5),209,222,203,159,150,23,14,15,15,104,84,32,27,1.5,2.1
2022-01-25T18:00:00,1761A,123.8275,41.3064,本溪市,大峪,细颗粒物(PM2.5),169,186,222,128,146,32,25,19,19,90,84,31,31,2.5,4
2022-01-25T18:00:00,1762A,123.7567,41.3325,本溪市,溪湖,细颗粒物(PM2.5),147,185,325,112,173,56,40,27,27,60,74,20,25,1.4,3.3
2022-01-25T18:00:00,1763A,123.7169,41.3094,本溪市,彩屯,细颗粒物(PM2.5),183,206,260,138,178,62,24,30,30,73,72,19,25,1.7,3.3
2022-01-25T18:00:00,1764A,123.7669,41.2864,本溪市,东明,细颗粒物(PM2.5),125,103,235,95,147,36,31,24,24,74,78,28,34,2.0,3.8
2022-01-25T18:00:00,1765A,123.7992,41.2664,本溪市,新立屯,细颗粒物(PM2.5),143,208,296,109,198,18,7,12,12,83,83,28,39,3.0,7.6
2022-01-25T18:00:00,1766A,123.8142,41.3472,本溪市,威宁,细颗粒物(PM2.5),170,203,233,129,152,22,14,16,16,88,74,19,18,1.7,2.8
2022-01-25T18:00:00,1767A,121.1115,41.0879,锦州市,南山,细颗粒物(PM2.5),202,164,146,152,132,64,16,47,47,88,54,38,41,1.4,1.9
2022-01-25T18:00:00,1768A,121.0533,40.8434,锦州市,开发区,颗粒物(PM10),160,270,160,116,110,65,12,46,45,109,71,27,46,0.8,1.2
2022-01-25T18:00:00,1769A,121.1836,41.1119,锦州市,百股街道,细颗粒物(PM2.5),214,196,171,164,125,67,14,49,48,98,61,38,59,1.9,1.9
2022-01-25T18:00:00,1770A,121.1178,41.1222,锦州市,天安街道,细颗粒物(PM2.5),206,157,147,156,116,70,28,55,54,100,68,,53,2.0,2.1
2022-01-25T18:00:00,1771A,121.1303,41.1386,锦州市,北湖公园,细颗粒物(PM2.5),183,163,142,138,101,71,12,58,55,90,52,50,44,1.4,2
2022-01-25T18:00:00,1772A,126.54,43.8622,吉林市,哈达湾,细颗粒物(PM2.5),120,112,150,91,116,87,54,59,59,48,59,27,29,1.3,1.9
2022-01-25T18:00:00,1773A,126.5844,43.8358,吉林市,东局子,细颗粒物(PM2.5),128,118,119,97,96,67,41,52,52,62,55,32,20,1.2,1.3
2022-01-25T18:00:00,1774A,126.5052,43.8245,吉林市,电力学院,细颗粒物(PM2.5),158,149,176,120,140,95,52,68,68,53,60,35,26,1.4,1.9
2022-01-25T18:00:00,1775A,126.6133,43.8972,吉林市,江北,细颗粒物(PM2.5),140,127,152,107,130,74,39,53,53,62,63,36,22,1.9,1.8
2022-01-25T18:00:00,1776A,126.555,43.8306,吉林市,江南公园,细颗粒物(PM2.5),137,126,124,104,103,78,51,60,60,56,57,26,15,1.2,1.5
2022-01-25T18:00:00,1778A,126.7061,43.7133,吉林市,丰满(对照点),细颗粒物(PM2.5),165,140,61,125,58,100,50,86,84,63,16,30,14,1.6,1
2022-01-25T18:00:00,1779A,123.9305,47.3636,齐齐哈尔市,安居小区,细颗粒物(PM2.5),235,230,174,185,136,77,77,65,55,37,52,17,109,1.1,1
2022-01-25T18:00:00,1780A,123.9488,47.3386,齐齐哈尔市,中心广场,细颗粒物(PM2.5),192,190,166,144,112,66,66,54,49,50,60,23,204,1.5,1.2
2022-01-25T18:00:00,1781A,123.9483,47.3227,齐齐哈尔市,农牧车辆厂,细颗粒物(PM2.5),201,202,155,151,125,75,42,66,51,71,48,120,92,1.2,0.9
2022-01-25T18:00:00,1783A,123.945,47.2988,齐齐哈尔市,市环境监测站,细颗粒物(PM2.5),199,163,161,149,133,83,47,75,68,53,29,28,11,1.6,1.1
2022-01-25T18:00:00,1785A,129.6115,44.5782,牡丹江市,文化广场,细颗粒物(PM2.5),83,90,99,61,63,73,51,56,56,59,60,18,17,1.1,1.3
2022-01-25T18:00:00,1786A,129.5904,44.5963,牡丹江市,第一医院,细颗粒物(PM2.5),170,166,115,129,96,74,22,54,54,90,57,24,21,1.6,1.3
2022-01-25T18:00:00,1787A,129.6364,44.6075,牡丹江市,机车工厂,细颗粒物(PM2.5),78,102,112,57,74,74,35,51,51,65,58,11,11,1.0,1.2
2022-01-25T18:00:00,1788A,129.6386,44.5462,牡丹江市,第一中学,细颗粒物(PM2.5),78,100,71,57,52,86,23,64,60,75,42,12,10,1.0,0.9
2022-01-25T18:00:00,1789A,124.81117,46.03138,大庆市,大同区,细颗粒物(PM2.5),99,107,250,74,210,77,41,69,68,64,60,34,26,1.2,1.3
2022-01-25T18:00:00,1790A,125.129,46.533,大庆市,龙凤区,细颗粒物(PM2.5),65,58,182,47,153,68,49,68,55,41,49,24,37,0.5,1
2022-01-25T18:00:00,1791A,124.902,46.408,大庆市,红岗区,,,74,179,71,166,106,,101,101,45,34,58,20,1.2,1.5
2022-01-25T18:00:00,1792A,125.153,46.586,大庆市,萨尔图区,细颗粒物(PM2.5),57,53,184,40,162,75,69,66,66,23,48,18,29,0.4,1
2022-01-25T18:00:00,1793A,124.9042,46.6215,大庆市,让胡路区,细颗粒物(PM2.5),69,62,170,50,135,69,44,53,53,45,65,35,28,0.9,1.5
2022-01-25T18:00:00,1794A,118.3606,31.3519,芜湖市,监测站,细颗粒物(PM2.5),150,120,101,115,87,32,7,26,24,66,46,6,5,1.7,1.1
2022-01-25T18:00:00,1795A,118.3714,31.4134,芜湖市,科创中心,细颗粒物(PM2.5),158,162,109,120,91,30,6,26,21,75,49,6,6,1.5,1.2
2022-01-25T18:00:00,1796A,118.3673,31.3131,芜湖市,四水厂,细颗粒物(PM2.5),130,114,96,99,81,37,22,36,30,53,44,5,5,1.5,1.1
2022-01-25T18:00:00,1798A,118.5092,31.6837,马鞍山市,湖东路四小,细颗粒物(PM2.5),147,99,80,112,95,37,10,34,23,59,39,6,6,1.5,1.1
2022-01-25T18:00:00,1799A,118.5024,31.6449,马鞍山市,开发区,细颗粒物(PM2.5),165,103,87,125,90,40,19,38,25,54,38,,6,1.5,1.2
2022-01-25T18:00:00,1800A,118.5228,31.7231,马鞍山市,慈湖,细颗粒物(PM2.5),172,128,100,130,109,35,8,27,26,65,46,6,6,1.6,1.3
2022-01-25T18:00:00,1802A,118.6245,31.7241,马鞍山市,濮塘(对照点),细颗粒物(PM2.5),114,104,92,86,71,39,23,33,32,40,34,10,10,1.3,1.1
2022-01-25T18:00:00,1803A,115.9872,29.6815,九江市,十里,细颗粒物(PM2.5),57,62,33,40,26,49,24,41,26,33,25,6,6,0.6,0.6
2022-01-25T18:00:00,1804A,115.9584,29.7046,九江市,茅山头,细颗粒物(PM2.5),68,50,27,49,30,38,20,36,24,33,26,3,4,0.9,0.8
2022-01-25T18:00:00,1805A,115.9877,29.7295,九江市,西园,细颗粒物(PM2.5),80,51,35,59,34,47,28,41,27,28,23,3,3,1.0,1
2022-01-25T18:00:00,1806A,116.0172,29.6547,九江市,五七二七厂,,,51,30,40,25,53,,47,39,16,9,6,6,1.0,1
2022-01-25T18:00:00,1808A,115.9114,29.6038,九江市,综合工业园,细颗粒物(PM2.5),67,40,32,48,32,48,10,34,17,42,27,6,6,0.7,0.7
2022-01-25T18:00:00,1809A,116.0721,29.7535,九江市,石化总厂,细颗粒物(PM2.5),64,64,34,46,28,50,28,41,27,40,36,7,7,1.1,1
2022-01-25T18:00:00,1810A,115.9773,29.5698,九江市,庐山气象台(对照点),,,,4,4,5,76,66,71,64,6,5,2,2,0.8,0.7
2022-01-25T18:00:00,1812A,112.3931,34.6516,洛阳市,市委党校,细颗粒物(PM2.5),135,129,104,103,87,103,76,70,70,42,31,5,4,1.2,1.1
2022-01-25T18:00:00,1814A,112.4657,34.6871,洛阳市,豫西宾馆,细颗粒物(PM2.5),139,128,108,106,99,81,72,53,53,61,53,8,8,1.3,1.5
2022-01-25T18:00:00,1815A,112.494,34.6886,洛阳市,河南林校,细颗粒物(PM2.5),133,118,107,101,99,91,66,62,62,41,34,3,3,1.3,1.4
2022-01-25T18:00:00,1816A,112.3844,34.623,洛阳市,开发区管委会,细颗粒物(PM2.5),138,127,97,105,89,104,86,79,79,32,32,2,2,1.1,1.1
2022-01-25T18:00:00,1817A,112.4267,34.6258,洛阳市,市委新办公区,细颗粒物(PM2.5),135,133,105,103,92,104,63,76,76,48,31,2,2,1.3,1.2
2022-01-25T18:00:00,1818A,114.4839,36.0621,安阳市,棉研所(对照点),细颗粒物(PM2.5),206,165,110,156,106,82,56,61,46,23,20,5,5,1.9,1.2
2022-01-25T18:00:00,1819A,114.3551,36.1017,安阳市,红庙街,细颗粒物(PM2.5),204,138,108,154,117,79,53,57,46,28,26,6,8,,2
2022-01-25T18:00:00,1820A,114.361,36.0681,安阳市,银杏小区,细颗粒物(PM2.5),205,165,107,155,117,77,47,51,43,24,22,3,4,1.8,1.2
2022-01-25T18:00:00,1824A,114.3389,34.7781,开封市,肿瘤医院,细颗粒物(PM2.5),182,125,86,137,109,67,42,49,49,27,25,4,4,1.9,1.7
2022-01-25T18:00:00,1826A,114.2885,34.7965,开封市,世纪星幼儿园,细颗粒物(PM2.5),178,124,88,134,112,64,43,52,48,28,26,5,5,1.8,1.6
2022-01-25T18:00:00,1828A,113.2269,35.2127,焦作市,市环保局,细颗粒物(PM2.5),262,222,175,212,161,56,39,39,34,54,34,11,6,2.9,1.9
2022-01-25T18:00:00,1829A,113.2467,35.176,焦作市,高新区政府,细颗粒物(PM2.5),221,200,158,171,144,59,42,40,40,42,31,10,8,2.3,1.8
2022-01-25T18:00:00,1830A,113.1987,35.2703,焦作市,影视城(对照点),细颗粒物(PM2.5),217,223,151,167,114,73,38,40,40,40,28,13,20,3.0,2
2022-01-25T18:00:00,1832A,113.3257,33.742,平顶山市,新华旅馆,细颗粒物(PM2.5),140,141,103,107,78,98,69,70,70,44,32,6,5,1.5,1.3
2022-01-25T18:00:00,1833A,113.2919,33.737,平顶山市,规划设计院,细颗粒物(PM2.5),148,146,102,113,83,86,52,59,59,50,36,6,5,1.3,1
2022-01-25T18:00:00,1834A,113.182,33.774,平顶山市,平顶山工学院,细颗粒物(PM2.5),155,105,93,118,78,82,74,65,65,36,15,7,3,1.6,1.4
2022-01-25T18:00:00,1835A,111.1922,34.7752,三门峡市,市政府,细颗粒物(PM2.5),148,111,89,113,111,82,70,67,67,29,41,,5,1.2,1.2
2022-01-25T18:00:00,1836A,111.1587,34.7942,三门峡市,开发区,细颗粒物(PM2.5),149,124,87,114,107,78,64,66,66,31,26,8,5,1.3,1.2
2022-01-25T18:00:00,1838A,111.143,34.7955,三门峡市,风景区(对照点),细颗粒物(PM2.5),143,,77,109,101,85,79,73,73,15,26,12,5,,1.2
2022-01-25T18:00:00,1840A,111.2992,30.6981,宜昌市,白龙岗,细颗粒物(PM2.5),58,51,66,41,53,49,12,34,16,34,25,3,4,0.8,0.8
2022-01-25T18:00:00,1841A,111.3549,30.6465,宜昌市,伍家岗,细颗粒物(PM2.5),55,38,50,39,54,52,28,34,29,27,23,4,4,0.9,0.9
2022-01-25T18:00:00,1842A,111.2628,30.6961,宜昌市,点军区,细颗粒物(PM2.5),55,42,57,39,54,57,20,37,18,32,29,5,6,0.9,0.9
2022-01-25T18:00:00,1843A,111.3275,30.7819,宜昌市,夷陵区,细颗粒物(PM2.5),64,43,54,46,62,45,11,40,18,38,24,6,6,1.0,0.8
2022-01-25T18:00:00,1844A,112.2494,30.3197,荆州市,市图书馆,细颗粒物(PM2.5),72,47,76,52,69,43,26,34,33,41,33,3,4,1.3,1.3
2022-01-25T18:00:00,1845A,112.2008,30.3544,荆州市,市委党校,,,69,81,59,76,50,40,44,44,,24,,7,1.7,1.6
2022-01-25T18:00:00,1847A,113.1094,29.3578,岳阳市,南湖风景区,细颗粒物(PM2.5),73,54,67,53,58,26,26,24,19,24,24,6,7,1.5,1.6
2022-01-25T18:00:00,1848A,113.1493,29.4251,岳阳市,城陵矶,细颗粒物(PM2.5),64,52,69,46,59,24,24,22,19,20,21,8,8,1.6,1.6
2022-01-25T18:00:00,1849A,113.1497,29.3575,岳阳市,开发区,细颗粒物(PM2.5),52,44,56,36,51,24,18,22,16,29,27,6,6,1.5,1.4
2022-01-25T18:00:00,1850A,113.2621,29.4758,岳阳市,云溪区,细颗粒物(PM2.5),69,54,69,50,58,26,24,21,21,22,22,7,7,1.6,1.6
2022-01-25T18:00:00,1851A,112.9943,29.4402,岳阳市,君山区,细颗粒物(PM2.5),75,51,63,55,64,32,29,27,27,20,20,5,6,1.1,1.2
2022-01-25T18:00:00,1852A,113.2117,29.355,岳阳市,金凤水库(对照点),细颗粒物(PM2.5),73,49,67,53,56,32,32,28,26,23,24,3,3,1.2,1.3
2022-01-25T18:00:00,1854A,111.6975,28.9703,常德市,市二中,细颗粒物(PM2.5),53,47,76,37,67,59,59,31,29,16,20,5,6,1.1,1.3
2022-01-25T18:00:00,1857A,111.7158,29.1456,常德市,白鹤山(对照点),,50,40,68,35,62,69,67,45,45,13,14,5,5,1.1,1.2
2022-01-25T18:00:00,1858A,110.5319,29.1217,张家界市,永定新区,,,47,56,49,54,35,,31,31,24,20,1,1,0.8,0.8
2022-01-25T18:00:00,1859A,110.4697,29.1242,张家界市,电业局,,39,25,31,27,34,66,65,60,60,12,12,3,4,1.0,0.9
2022-01-25T18:00:00,1860A,110.5594,29.3547,张家界市,未央路,,33,7,26,23,27,35,33,30,30,15,13,2,2,0.8,0.7
2022-01-25T18:00:00,1861A,110.4417,29.315,张家界市,袁家界(对照点),,19,16,23,11,15,71,59,66,66,5,6,5,5,0.5,0.5
2022-01-25T18:00:00,1862A,110.4144,25.3167,桂林市,电子科大尧山校区(对照点),,20,15,11,14,10,40,40,31,31,11,12,5,5,0.6,0.5
2022-01-25T18:00:00,1863A,110.2819,25.2697,桂林市,监测站,,20,18,14,14,11,30,25,23,23,20,16,4,5,1.4,1.2
2022-01-25T18:00:00,1864A,110.3089,25.2708,桂林市,龙隐路小学,,,17,14,,12,35,29,26,26,17,17,5,5,1.4,1.4
2022-01-25T18:00:00,1865A,110.2869,25.2178,桂林市,八中,,43,43,16,26,17,35,29,26,26,18,18,5,5,0.9,1
2022-01-25T18:00:00,1866A,109.2262,21.588,北海市,牛尾岭水库(对照点),细颗粒物(PM2.5),98,77,43,73,40,34,14,23,23,18,13,2,3,1.1,1
2022-01-25T18:00:00,1867A,109.1436,21.4086,北海市,海滩公园,颗粒物(PM10),59,68,50,39,32,73,18,42,42,18,17,6,7,1.1,0.9
2022-01-25T18:00:00,1868A,109.0981,21.4661,北海市,新市环保局,"颗粒物(PM10),细颗粒物(PM2.5)",59,68,47,42,28,33,23,27,27,16,17,4,5,1.0,1
2022-01-25T18:00:00,1869A,109.1778,21.5233,北海市,北海工业园,颗粒物(PM10),74,98,58,51,39,55,14,27,27,19,17,8,8,1.0,1.1
2022-01-25T18:00:00,1870A,109.4856,24.3895,柳州市,柳东小学,,32,32,19,22,15,41,26,35,27,8,7,6,7,0.9,0.8
2022-01-25T18:00:00,1871A,109.4157,24.3277,柳州市,环保监测站,,49,49,31,25,17,23,13,18,16,20,15,8,10,1.2,1.1
2022-01-25T18:00:00,1872A,109.389,24.341,柳州市,河西水厂,颗粒物(PM10),52,54,48,28,24,21,11,16,16,20,18,6,17,1.1,1
2022-01-25T18:00:00,1873A,109.4311,24.2921,柳州市,市四中,,40,40,24,11,7,29,20,24,21,19,16,6,7,1.2,1
2022-01-25T18:00:00,1874A,109.4006,24.3631,柳州市,市九中,,42,40,29,29,21,28,14,23,18,21,15,19,20,1.0,0.8
2022-01-25T18:00:00,1875A,109.4958,24.3134,柳州市,古亭山,,28,28,16,19,12,47,25,38,27,11,11,4,4,1.1,1.1
2022-01-25T18:00:00,1876A,109.5078,18.2489,三亚市,河东子站,,17,17,22,6,6,63,53,58,58,5,8,2,2,0.4,0.5
2022-01-25T18:00:00,1877A,109.4964,18.2681,三亚市,河西子站,,19,13,13,8,8,71,60,63,63,4,8,3,3,0.3,0.4
2022-01-25T18:00:00,1878A,104.7778,31.4741,绵阳市,富乐山,,30,23,28,21,23,43,37,34,34,10,14,5,5,0.7,0.7
2022-01-25T18:00:00,1879A,104.7563,31.4535,绵阳市,市人大,,32,32,31,16,24,40,26,28,24,26,28,2,3,0.8,0.8
2022-01-25T18:00:00,1880A,104.6697,31.4668,绵阳市,高新区自来水公司,,26,23,35,18,26,39,27,26,26,21,24,5,5,0.8,0.7
2022-01-25T18:00:00,1881A,104.7287,31.5075,绵阳市,三水厂,,,29,32,,26,37,32,29,29,12,20,1,4,0.9,0.5
2022-01-25T18:00:00,1882A,104.563,28.793,宜宾市,石马中学(对照点),细颗粒物(PM2.5),90,80,63,67,56,35,22,31,28,28,24,4,6,1.0,1
2022-01-25T18:00:00,1883A,104.6201,28.7728,宜宾市,市委,细颗粒物(PM2.5),85,83,65,63,51,31,9,25,19,30,29,8,9,0.9,1
2022-01-25T18:00:00,1884A,104.6055,28.793,宜宾市,宜宾四中,细颗粒物(PM2.5),92,88,63,68,53,30,11,24,16,34,28,7,8,0.9,0.9
2022-01-25T18:00:00,1885A,104.639,28.7562,宜宾市,市政府,细颗粒物(PM2.5),84,75,56,62,50,29,12,24,20,39,31,6,7,1.1,1.1
2022-01-25T18:00:00,1886A,104.5742,28.7199,宜宾市,黄金嘴,细颗粒物(PM2.5),64,65,54,46,40,39,19,34,24,32,27,6,7,0.9,0.9
2022-01-25T18:00:00,1888A,101.6891,26.571,攀枝花市,弄弄坪,细颗粒物(PM2.5),73,70,57,53,42,82,43,66,21,57,44,29,29,1.2,2.2
2022-01-25T18:00:00,1889A,101.5769,26.5928,攀枝花市,河门口,细颗粒物(PM2.5),80,87,53,59,35,91,39,43,30,66,35,76,36,2.7,1.6
2022-01-25T18:00:00,1890A,101.7169,26.585,攀枝花市,炳草岗,细颗粒物(PM2.5),100,87,60,75,49,74,24,62,14,66,49,30,23,1.6,2.4
2022-01-25T18:00:00,1891A,101.7369,26.5008,攀枝花市,仁和,细颗粒物(PM2.5),84,85,57,62,40,85,51,74,30,34,26,38,30,0.8,1.6
2022-01-25T18:00:00,1893A,105.4324,28.9634,泸州市,九狮山(对照点),,49,7,30,34,35,21,19,18,18,27,31,5,5,0.5,0.6
2022-01-25T18:00:00,1894A,105.4427,28.9063,泸州市,小市上码头,,42,22,38,29,38,16,5,12,10,27,27,5,5,1.1,1.1
2022-01-25T18:00:00,1895A,105.4241,28.8573,泸州市,兰田宪桥,,29,29,44,19,37,12,3,6,4,21,32,6,6,0.8,0.8
2022-01-25T18:00:00,1896A,105.4379,28.8833,泸州市,市环监站,,21,21,35,12,26,12,6,8,8,31,32,5,5,1.0,0.9
2022-01-25T18:00:00,1901A,104.4239,31.1208,德阳市,东山公园,,28,26,38,19,29,54,31,35,28,17,16,2,2,0.7,0.7
2022-01-25T18:00:00,1902A,104.3826,31.1317,德阳市,西小区,,42,42,44,25,27,47,23,30,25,26,23,3,2,0.8,0.8
2022-01-25T18:00:00,1904A,104.3553,31.1091,德阳市,耐火材料厂,,35,34,38,24,27,53,24,30,24,30,26,3,4,0.8,0.8
2022-01-25T18:00:00,1905A,106.056,30.8064,南充市,西山风景区(对照点),,36,33,47,22,34,122,115,80,41,21,10,5,5,0.9,0.9
2022-01-25T18:00:00,1906A,106.0789,30.8023,南充市,南充市委,,50,50,59,35,47,26,21,21,21,13,8,4,5,0.9,0.8
2022-01-25T18:00:00,1907A,106.1031,30.8217,南充市,南充炼油厂,,40,40,55,23,34,22,18,22,18,14,10,3,3,1.0,0.9
2022-01-25T18:00:00,1908A,106.1064,30.7856,南充市,高坪区监测站,,49,35,51,34,37,22,9,16,14,8,12,5,5,0.8,0.8
2022-01-25T18:00:00,1909A,106.0642,30.7636,南充市,嘉陵区环保局,,38,29,49,26,32,22,17,19,17,10,7,7,6,1.2,1.1
2022-01-25T18:00:00,1910A,106.1087,30.8388,南充市,市环境监测站,,49,33,50,34,44,21,18,17,17,20,12,2,3,0.7,0.7
2022-01-25T18:00:00,1911A,106.9222,27.6869,遵义市,丁字口,,31,31,20,18,15,31,27,28,28,14,13,14,11,0.8,0.8
2022-01-25T18:00:00,1912A,106.9242,27.7019,遵义市,凤凰山,,12,12,19,7,10,34,28,30,30,12,10,7,6,0.7,0.7
2022-01-25T18:00:00,1913A,106.8906,27.6486,遵义市,忠庄,,12,10,16,8,14,25,19,21,21,16,11,6,6,0.9,0.8
2022-01-25T18:00:00,1914A,106.9231,27.6506,遵义市,舟水桥,,12,12,15,6,14,32,29,30,30,10,9,18,8,0.8,0.8
2022-01-25T18:00:00,1915A,106.9178,27.72,遵义市,干田坝,,19,12,18,13,15,36,30,31,31,15,13,15,12,0.9,0.9
2022-01-25T18:00:00,1916A,103.7897,25.5035,曲靖市,环境监测站,,34,34,30,13,19,94,84,84,84,11,13,3,4,0.4,0.4
2022-01-25T18:00:00,1917A,103.8,25.5364,曲靖市,烟厂办公区,,27,20,18,12,16,92,84,82,82,5,8,5,5,0.3,0.3
2022-01-25T18:00:00,1918A,108.7197,34.3956,咸阳市,气象站(对照点),细颗粒物(PM2.5),152,103,124,116,136,48,44,38,38,20,34,6,6,1.6,1.8
2022-01-25T18:00:00,1919A,108.673,34.3155,咸阳市,实验中学,细颗粒物(PM2.5),156,98,131,119,152,57,48,38,38,24,39,8,7,1.3,1.5
2022-01-25T18:00:00,1920A,108.7233,34.3617,咸阳市,师范学院,细颗粒物(PM2.5),155,110,122,118,150,48,45,35,35,21,37,7,7,1.8,2
2022-01-25T18:00:00,1922A,109.0656,35.0994,铜川市,党校(对照点),细颗粒物(PM2.5),166,103,87,126,101,78,42,57,57,33,26,8,8,1.2,1.1
2022-01-25T18:00:00,1923A,109.0697,35.0697,铜川市,王益区政府,细颗粒物(PM2.5),192,154,105,144,108,65,36,47,47,42,32,6,6,1.4,1.2
2022-01-25T18:00:00,1924A,108.9344,34.9058,铜川市,新区管委会,细颗粒物(PM2.5),173,142,104,131,108,55,37,48,43,29,22,7,9,1.2,1
2022-01-25T18:00:00,1926A,109.4131,36.6275,延安市,枣园(对照点),,48,48,46,31,44,98,92,91,91,18,22,4,4,0.9,1.4
2022-01-25T18:00:00,1927A,109.4761,36.6028,延安市,延大医附院,细颗粒物(PM2.5),53,35,48,37,55,95,81,86,86,31,31,5,5,1.0,1.6
2022-01-25T18:00:00,1929A,109.5056,36.6106,延安市,百米大道,细颗粒物(PM2.5),55,54,54,39,52,97,89,88,88,24,28,6,7,0.7,1.2
2022-01-25T18:00:00,1930A,107.185,34.3063,宝鸡市,庙沟村(对照点),细颗粒物(PM2.5),198,144,98,148,110,51,32,36,20,34,31,4,4,1.4,1.4
2022-01-25T18:00:00,1931A,107.0708,34.3017,宝鸡市,竹园沟,细颗粒物(PM2.5),227,168,98,177,112,30,9,18,11,48,28,8,8,2.0,1.5
2022-01-25T18:00:00,1932A,107.1906,34.3672,宝鸡市,三陆医院,细颗粒物(PM2.5),212,159,136,162,147,29,22,19,19,42,38,6,6,1.5,1.6
2022-01-25T18:00:00,1933A,107.1431,34.3547,宝鸡市,监测站,细颗粒物(PM2.5),200,139,113,150,131,32,32,18,18,37,37,3,3,1.4,1.5
2022-01-25T18:00:00,1934A,107.1186,34.3739,宝鸡市,技工学校,细颗粒物(PM2.5),207,158,125,157,129,22,22,14,14,45,35,5,5,1.5,1.4
2022-01-25T18:00:00,1935A,107.3906,34.3528,宝鸡市,陈仓区环保局家属楼,细颗粒物(PM2.5),228,169,172,178,182,34,22,25,25,40,41,4,5,1.7,1.8
2022-01-25T18:00:00,1936A,107.2058,34.3497,宝鸡市,文理学院,细颗粒物(PM2.5),193,145,125,145,128,34,32,19,19,31,35,6,6,1.6,1.7
2022-01-25T18:00:00,1937A,107.2386,34.3622,宝鸡市,三迪小学,细颗粒物(PM2.5),212,183,141,162,145,25,,20,20,44,37,6,6,,3.6
2022-01-25T18:00:00,1938A,109.5293,34.5101,渭南市,农科所(对照点),细颗粒物(PM2.5),168,139,137,127,111,50,46,34,34,19,32,5,6,1.4,1.7
2022-01-25T18:00:00,1939A,109.4974,34.4877,渭南市,日报社,细颗粒物(PM2.5),180,114,91,136,125,43,41,30,30,21,36,5,6,1.4,1.5
2022-01-25T18:00:00,1940A,109.4636,34.493,渭南市,体育馆,细颗粒物(PM2.5),165,129,140,125,126,54,52,40,40,17,34,3,5,1.4,1.5
2022-01-25T18:00:00,1941A,109.4259,34.5023,渭南市,高新一小,,,,141,,136,57,56,44,44,,33,4,5,,1.6
2022-01-25T18:00:00,1943A,102.1725,38.5339,金昌市,新川苑,颗粒物(PM10),67,84,80,40,38,96,88,79,79,15,22,7,12,0.7,0.8
2022-01-25T18:00:00,1944A,102.1692,38.5167,金昌市,天庆家园,颗粒物(PM10),69,87,90,39,42,94,89,76,76,13,26,12,20,0.9,1.1
2022-01-25T18:00:00,1945A,98.2908,39.7711,嘉峪关市,气象局,,41,41,55,24,29,83,80,79,79,21,30,14,9,0.7,0.8
2022-01-25T18:00:00,1947A,106.3394,38.817,石嘴山市,沙湖旅游区(对照点),,,,122,,73,92,59,62,62,41,36,40,22,1.7,1.3
2022-01-25T18:00:00,1948A,106.3668,39.0145,石嘴山市,大武口朝阳西街,细颗粒物(PM2.5),110,102,90,83,50,78,68,51,51,38,47,41,42,1.0,1.4
2022-01-25T18:00:00,1949A,106.7704,39.2282,石嘴山市,惠农南大街,细颗粒物(PM2.5),58,51,65,41,34,75,70,60,60,38,58,24,27,0.8,1.5
2022-01-25T18:00:00,1950A,106.7099,39.1325,石嘴山市,红果子镇惠新街,颗粒物(PM10),65,79,69,43,39,76,73,64,64,32,41,26,16,0.8,1.1
2022-01-25T18:00:00,1951A,84.895,45.6094,克拉玛依市,长征新村,,36,36,36,24,25,62,62,48,48,22,32,7,6,0.4,0.5
2022-01-25T18:00:00,1952A,84.8988,45.5893,克拉玛依市,南林小区,,34,34,42,22,24,56,56,49,45,23,26,10,9,0.6,0.7
2022-01-25T18:00:00,1954A,84.905,44.3396,克拉玛依市,独山子区,细颗粒物(PM2.5),115,112,118,87,88,63,63,50,50,30,36,5,5,0.8,1
2022-01-25T18:00:00,1955A,85.6979,46.098,克拉玛依市,乌尔禾区商贸楼,,23,23,26,14,15,65,65,64,61,14,14,7,7,0.6,0.6
2022-01-25T18:00:00,1956A,86.1472,41.7538,巴音郭楞州,孔雀公园,颗粒物(PM10),68,86,97,42,46,102,96,62,62,7,54,7,5,0.0,0.3
2022-01-25T18:00:00,1957A,86.1972,41.7166,巴音郭楞州,棉纺厂,颗粒物(PM10),60,70,82,24,37,95,95,82,67,7,34,5,4,0.2,0.4
2022-01-25T18:00:00,1958A,86.2357,41.7173,巴音郭楞州,经济开发区,"颗粒物(PM10),细颗粒物(PM2.5)",62,74,81,44,32,93,92,72,72,15,27,4,6,0.3,0.4
2022-01-25T18:00:00,1961A,117.532,36.6868,济南市,东山小学,细颗粒物(PM2.5),158,147,183,120,138,45,44,30,30,42,61,19,23,1.3,1.7
2022-01-25T18:00:00,1966A,120.0405,35.8735,青岛市,黄岛区4号,细颗粒物(PM2.5),107,97,63,80,48,89,82,80,80,52,36,19,13,1.3,1
2022-01-25T18:00:00,1982A,122.0693,37.2174,威海市,文登开发区,细颗粒物(PM2.5),132,117,83,100,64,191,66,82,82,27,22,4,5,1.1,1.2
2022-01-25T18:00:00,2031A,113.1817,27.9958,株洲市,云田中学,,30,14,42,21,42,16,7,15,10,36,33,5,5,1.4,1.2
2022-01-25T18:00:00,2054A,114.1099,32.1059,信阳市,平桥分局,细颗粒物(PM2.5),149,102,127,114,132,86,78,68,68,36,30,7,6,1.7,1.5
2022-01-25T18:00:00,2064A,113.9956,32.1271,信阳市,南湾水厂,细颗粒物(PM2.5),125,105,132,95,123,85,84,76,76,21,21,6,6,1.4,1.5
2022-01-25T18:00:00,2065A,114.0775,32.1195,信阳市,市酿酒公司,细颗粒物(PM2.5),137,107,137,104,133,84,79,69,69,26,30,9,8,1.2,1.3
2022-01-25T18:00:00,2066A,114.0609,32.1399,信阳市,审计局,细颗粒物(PM2.5),139,112,146,106,143,82,78,70,70,21,28,7,8,1.0,1.3
2022-01-25T18:00:00,2067A,114.6613,33.6128,周口市,市环境监测站,细颗粒物(PM2.5),138,100,112,105,114,80,,77,77,23,27,6,6,1.3,1.5
2022-01-25T18:00:00,2068A,114.6758,33.6347,周口市,周口师范,细颗粒物(PM2.5),142,98,109,108,115,88,80,82,82,21,25,5,5,1.2,1.4
2022-01-25T18:00:00,2069A,114.6546,33.5979,周口市,市运管处,细颗粒物(PM2.5),147,99,120,112,113,86,78,80,80,27,33,7,6,1.3,1.5
2022-01-25T18:00:00,2070A,114.6369,33.6406,周口市,川汇区环保局,细颗粒物(PM2.5),140,112,106,107,110,88,80,82,82,21,26,5,4,1.3,1.3
2022-01-25T18:00:00,2075A,117.6336,24.4674,漳州市,九湖(对照点),,45,35,32,31,31,71,57,63,63,24,21,5,6,0.5,0.5
2022-01-25T18:00:00,2160A,112.85,35.5051,晋城市,自来水公司,细颗粒物(PM2.5),92,105,92,68,72,106,92,87,87,27,23,6,6,1.1,1.4
2022-01-25T18:00:00,2161A,112.8318,35.4936,晋城市,白云商贸,细颗粒物(PM2.5),110,138,107,83,81,89,76,77,77,26,23,8,7,1.3,1.5
2022-01-25T18:00:00,2162A,112.8508,35.4887,晋城市,市环保局,细颗粒物(PM2.5),100,127,97,75,74,96,82,79,79,26,18,9,8,1.3,1.4
2022-01-25T18:00:00,2163A,112.8676,35.4897,晋城市,技术学院,细颗粒物(PM2.5),104,121,95,78,78,96,79,80,80,27,20,5,5,1.0,1.2
2022-01-25T18:00:00,2165A,112.8453,35.546,晋城市,白马寺 (对照点),颗粒物(PM10),87,123,96,63,65,107,85,91,91,26,24,4,4,1.5,1.4
2022-01-25T18:00:00,2166A,112.4397,39.3522,朔州市,平朔,,32,29,87,22,73,94,84,84,84,16,32,6,13,0.4,0.9
2022-01-25T18:00:00,2167A,112.4575,39.3617,朔州市,朔唯,,29,24,89,20,68,96,86,83,83,16,34,6,15,0.6,1.1
2022-01-25T18:00:00,2168A,112.4258,39.3197,朔州市,区政府,,48,48,93,12,58,89,82,73,72,12,29,6,11,0.3,0.9
2022-01-25T18:00:00,2169A,112.4072,39.3278,朔州市,市环保局,,30,30,95,14,61,90,79,78,78,15,29,5,9,0.4,1
2022-01-25T18:00:00,2170A,112.4272,39.3681,朔州市,市二中,,25,25,98,16,72,90,80,78,78,9,28,3,9,0.4,1
2022-01-25T18:00:00,2171A,112.7532,37.6945,晋中市,锦纶小区,细颗粒物(PM2.5),122,86,134,92,138,89,80,69,69,31,40,18,36,0.8,1.6
2022-01-25T18:00:00,2173A,112.7249,37.7067,晋中市,南都小区,细颗粒物(PM2.5),107,,135,80,156,94,75,75,75,40,34,15,31,1.2,1.6
2022-01-25T18:00:00,2174A,112.6991,37.6982,晋中市,榆次区政府,细颗粒物(PM2.5),125,76,136,95,151,92,62,71,71,58,46,19,31,1.6,2
2022-01-25T18:00:00,2175A,110.9956,35.0147,运城市,运城中学,细颗粒物(PM2.5),148,130,127,113,118,87,80,71,71,23,23,6,7,1.5,1.5
2022-01-25T18:00:00,2178A,110.9686,35.0303,运城市,地区技校,细颗粒物(PM2.5),143,118,127,109,110,75,68,64,64,26,22,5,5,1.3,1.2
2022-01-25T18:00:00,2179A,111.0414,35.1147,运城市,空港新区,细颗粒物(PM2.5),132,112,122,100,116,79,72,60,60,,25,6,7,1.5,1.4
2022-01-25T18:00:00,2181A,112.7383,38.4519,忻州市,开发区,,49,42,119,34,109,94,88,90,90,11,36,9,12,0.5,1.5
2022-01-25T18:00:00,2182A,112.7003,38.4928,忻州市,会展中心,,49,45,121,34,118,80,70,73,73,22,38,9,10,0.6,1.3
2022-01-25T18:00:00,2183A,111.1406,37.5211,吕梁市,环保局,,42,42,65,15,49,95,85,87,87,20,32,6,6,0.3,0.8
2022-01-25T18:00:00,2185A,111.1297,37.5136,吕梁市,自来水公司,,44,44,65,25,47,92,81,87,87,21,30,5,5,0.4,0.9
2022-01-25T18:00:00,2187A,106.8174,39.6973,乌海市,市林业局,颗粒物(PM10),68,85,66,46,40,70,70,52,52,23,40,14,29,0.6,1.1
2022-01-25T18:00:00,2188A,106.7907,39.6667,乌海市,中海勃湾学校,细颗粒物(PM2.5),67,79,63,48,36,84,67,60,60,31,39,23,20,0.7,1.1
2022-01-25T18:00:00,2191A,122.2532,43.6801,通辽市,艺术职业学校,细颗粒物(PM2.5),155,133,205,118,190,80,47,66,66,60,60,14,16,0.3,0.9
2022-01-25T18:00:00,2192A,119.7594,49.2261,呼伦贝尔市,区环保局,,29,29,38,17,28,50,42,45,45,18,24,6,7,0.9,0.9
2022-01-25T18:00:00,2195A,107.4212,40.761,巴彦淖尔市,附二中,,32,32,49,22,27,76,70,68,68,19,24,5,7,0.5,0.5
2022-01-25T18:00:00,2196A,107.37,40.7372,巴彦淖尔市,市环保大楼,,29,29,42,14,25,76,72,68,68,18,25,7,6,0.5,0.5
2022-01-25T18:00:00,2197A,113.1306,40.9923,乌兰察布市,集宁新区,,24,11,28,16,20,88,75,76,76,10,13,8,8,0.1,0.3
2022-01-25T18:00:00,2200A,122.0392,46.0656,兴安盟,胜华新制药厂,细颗粒物(PM2.5),124,108,105,94,83,65,33,45,45,40,25,16,10,1.2,0.9
2022-01-25T18:00:00,2201A,121.9504,46.0741,兴安盟,科右前旗环保局,细颗粒物(PM2.5),149,157,108,114,86,70,36,61,44,39,25,9,9,1.1,1.1
2022-01-25T18:00:00,2202A,116.1042,43.9317,锡林郭勒盟,市环保监测站,,19,18,30,10,22,73,59,66,60,7,6,8,7,0.6,0.8
2022-01-25T18:00:00,2203A,116.0781,43.9311,锡林郭勒盟,市政府,,18,15,29,12,21,71,57,66,60,14,14,9,8,1.1,0.3
2022-01-25T18:00:00,2204A,105.6467,38.8363,阿拉善盟,西城区西花园(对照点),颗粒物(PM10),71,92,44,30,18,102,96,96,96,22,19,12,5,0.9,0.5
2022-01-25T18:00:00,2205A,105.6985,38.8411,阿拉善盟,蒙二幼,颗粒物(PM10),67,83,30,38,19,104,94,99,99,19,15,12,6,0.7,0.3
2022-01-25T18:00:00,2206A,105.724,38.8516,阿拉善盟,环保局新楼,颗粒物(PM10),62,73,27,38,20,104,97,100,100,23,15,11,6,0.8,0.3
2022-01-25T18:00:00,2207A,121.6094,41.998,阜新市,工业园区,,,61,120,45,84,79,45,70,70,,41,12,25,,1.1
2022-01-25T18:00:00,2208A,121.6697,42.0279,阜新市,长青街,颗粒物(PM10),64,78,111,42,72,82,64,69,69,27,44,16,30,0.7,0.9
2022-01-25T18:00:00,2209A,121.6673,42.0705,阜新市,农业园区,细颗粒物(PM2.5),84,53,78,62,67,80,68,80,72,14,16,12,25,0.8,0.8
2022-01-25T18:00:00,2210A,121.6717,42.0224,阜新市,东苑,细颗粒物(PM2.5),82,77,124,60,73,132,60,68,68,28,38,15,30,1.1,1.3
2022-01-25T18:00:00,2211A,121.6506,42.0498,阜新市,玉龙新城,细颗粒物(PM2.5),95,76,97,71,71,77,41,64,64,42,43,15,18,1.2,1.4
2022-01-25T18:00:00,2212A,123.2,41.1953,辽阳市,宏伟区,细颗粒物(PM2.5),129,113,190,98,150,76,42,43,43,54,70,18,31,1.1,2.3
2022-01-25T18:00:00,2213A,123.1683,41.2495,辽阳市,新华园,细颗粒物(PM2.5),145,129,207,111,178,66,39,46,46,62,74,19,37,1.2,2.7
2022-01-25T18:00:00,2214A,123.2354,41.2639,辽阳市,滨河路,细颗粒物(PM2.5),148,128,192,113,154,71,47,46,46,51,65,19,24,0.8,1.7
2022-01-25T18:00:00,2215A,123.149,41.2991,辽阳市,铁西工业园,,,233,232,112,175,76,4,49,49,93,67,17,28,2.2,2.9
2022-01-25T18:00:00,2216A,123.8139,42.3022,铁岭市,汇工街西,细颗粒物(PM2.5),211,191,183,161,165,70,54,54,54,58,49,15,24,1.5,1.8
2022-01-25T18:00:00,2217A,123.8649,42.2923,铁岭市,水上乐园,细颗粒物(PM2.5),199,234,207,149,132,70,57,51,51,56,49,14,12,1.4,1.4
2022-01-25T18:00:00,2218A,123.8486,42.2867,铁岭市,银州路东段,细颗粒物(PM2.5),220,240,212,170,151,64,42,47,46,63,50,14,13,1.5,1.3
2022-01-25T18:00:00,2219A,123.7153,42.2217,铁岭市,金沙江路北,细颗粒物(PM2.5),186,171,178,140,142,59,24,42,42,87,50,11,10,1.2,1.2
2022-01-25T18:00:00,2220A,120.4318,41.5881,朝阳市,西梁,颗粒物(PM10),62,74,131,35,92,66,40,45,45,42,47,12,25,1.1,2
2022-01-25T18:00:00,2221A,120.4521,41.5646,朝阳市,河畔小区,颗粒物(PM10),54,58,102,25,67,66,50,54,54,32,42,12,18,0.8,1.6
2022-01-25T18:00:00,2222A,120.4176,41.5648,朝阳市,八里堡,颗粒物(PM10),56,61,123,24,81,66,38,46,46,42,46,10,21,0.8,1.9
2022-01-25T18:00:00,2223A,120.3806,41.5969,朝阳市,农业园区,细颗粒物(PM2.5),54,52,113,38,74,80,44,55,55,39,44,16,19,0.9,1.5
2022-01-25T18:00:00,2225A,124.4002,43.1713,四平市,一商场,细颗粒物(PM2.5),132,164,159,100,94,70,50,51,51,55,55,15,16,1.3,1.4
2022-01-25T18:00:00,2226A,124.388,43.193,四平市,境园,细颗粒物(PM2.5),134,139,125,102,98,77,54,60,59,61,66,20,17,5.0,1.7
2022-01-25T18:00:00,2227A,125.1358,42.8845,辽源市,环保局,细颗粒物(PM2.5),57,44,138,40,111,82,56,69,69,27,38,14,14,1.1,1.5
2022-01-25T18:00:00,2229A,125.9358,41.7173,通化市,光明,颗粒物(PM10),55,60,101,24,66,73,26,48,48,55,49,22,34,1.1,1.7
2022-01-25T18:00:00,2230A,125.9446,41.7325,通化市,铁路,颗粒物(PM10),55,59,82,29,55,69,14,43,40,65,50,27,32,1.1,1.9
2022-01-25T18:00:00,2231A,126.4219,41.9171,白山市,喜丰,颗粒物(PM10),74,98,127,43,48,71,39,54,54,66,58,97,46,2.3,1.6
2022-01-25T18:00:00,2232A,126.4077,41.9419,白山市,环保局,颗粒物(PM10),77,103,124,50,52,61,17,43,42,84,58,56,31,3.2,1.9
2022-01-25T18:00:00,2233A,124.8006,45.1214,松原市,江南,细颗粒物(PM2.5),227,254,239,177,180,56,42,47,34,72,58,23,28,0.6,0.7
2022-01-25T18:00:00,2234A,124.7965,45.1722,松原市,江北,细颗粒物(PM2.5),192,182,216,144,169,85,61,64,64,60,48,17,21,1.5,1.5
2022-01-25T18:00:00,2236A,122.8738,45.5725,白城市,市环保局,细颗粒物(PM2.5),178,164,157,134,131,90,40,80,78,80,53,15,15,1.0,0.9
2022-01-25T18:00:00,2237A,129.47,42.8883,延边朝鲜族自治州,妇幼医院,细颗粒物(PM2.5),72,58,59,52,45,56,41,49,48,36,32,22,18,0.8,1
2022-01-25T18:00:00,2238A,129.5055,42.9108,延边朝鲜族自治州,延边医院,细颗粒物(PM2.5),74,63,76,54,49,54,26,44,43,60,44,24,25,1.3,1.1
2022-01-25T18:00:00,2239A,129.3964,42.8881,延边朝鲜族自治州,朝阳川镇医院,细颗粒物(PM2.5),139,106,52,106,39,71,26,60,57,56,23,34,11,1.6,1
2022-01-25T18:00:00,2240A,130.9762,45.3001,鸡西市,环保局,细颗粒物(PM2.5),84,84,69,62,54,55,21,47,44,69,46,22,15,0.7,0.6
2022-01-25T18:00:00,2243A,130.9429,45.3039,鸡西市,第一中学,细颗粒物(PM2.5),107,126,78,80,57,72,15,56,50,80,38,27,23,0.8,0.5
2022-01-25T18:00:00,2244A,130.2537,47.3416,鹤岗市,哈啤分公司,,50,48,41,35,31,71,43,64,60,43,19,13,13,0.9,0.5
2022-01-25T18:00:00,2245A,130.2684,47.3086,鹤岗市,斯达机电,细颗粒物(PM2.5),55,53,45,39,27,75,59,70,57,23,17,16,13,0.4,0.5
2022-01-25T18:00:00,2246A,130.3114,47.3388,鹤岗市,东山纸板厂,颗粒物(PM10),78,106,110,55,57,54,18,42,41,56,48,17,19,0.8,1.9
2022-01-25T18:00:00,2248A,131.1511,46.6937,双鸭山市,双合村,细颗粒物(PM2.5),83,110,170,61,117,79,50,67,67,33,31,15,18,0.8,1.7
2022-01-25T18:00:00,2249A,131.1652,46.6191,双鸭山市,南小市,细颗粒物(PM2.5),90,90,73,67,59,78,12,74,55,66,26,13,17,1.1,0.7
2022-01-25T18:00:00,2250A,131.1524,46.6554,双鸭山市,环保局,细颗粒物(PM2.5),122,95,78,92,69,93,39,65,65,57,41,5,7,0.8,0.6
2022-01-25T18:00:00,2251A,131.12,46.5656,双鸭山市,苗圃(对照点),细颗粒物(PM2.5),104,97,78,78,62,104,51,81,65,37,19,15,12,0.8,0.7
2022-01-25T18:00:00,2252A,128.5159,47.4311,伊春市,环保局,细颗粒物(PM2.5),69,46,47,50,47,30,6,25,22,66,44,9,5,1.0,0.8
2022-01-25T18:00:00,2253A,128.9102,47.7412,伊春市,电力嘉园,,49,49,60,30,36,34,6,26,23,62,41,8,7,0.7,0.7
2022-01-25T18:00:00,2254A,129.5029,48.471,伊春市,汤旺河国家公园(对照点),,17,0,4,1,4,66,52,60,60,3,2,6,6,0.3,0.4
2022-01-25T18:00:00,2255A,130.2751,46.8028,佳木斯市,佳纺,,,,163,,157,86,9,63,60,,57,,24,2.0,1.6
2022-01-25T18:00:00,2256A,130.3995,46.8307,佳木斯市,发电厂,细颗粒物(PM2.5),152,133,121,116,118,99,56,78,78,57,38,14,14,1.2,1
2022-01-25T18:00:00,2257A,130.3258,46.7975,佳木斯市,环保局,细颗粒物(PM2.5),173,162,154,131,135,53,11,35,34,111,75,15,17,3.4,2.2
2022-01-25T18:00:00,2258A,130.3648,46.8032,佳木斯市,十一中,细颗粒物(PM2.5),135,109,128,103,132,59,13,40,38,107,74,22,18,1.4,1.6
2022-01-25T18:00:00,2259A,130.3794,46.7588,佳木斯市,四丰(对照点),细颗粒物(PM2.5),159,130,104,121,100,89,50,80,73,72,27,25,16,1.2,0.9
2022-01-25T18:00:00,2262A,131.0518,45.8751,七台河市,新一中(对照点),细颗粒物(PM2.5),144,127,102,110,85,170,46,97,81,61,23,12,8,1.2,1
2022-01-25T18:00:00,2263A,127.4833,50.2524,黑河市,交通局,颗粒物(PM10),60,69,33,39,20,55,25,53,33,34,21,7,8,0.4,0.6
2022-01-25T18:00:00,2264A,127.5144,50.2341,黑河市,环保局,细颗粒物(PM2.5),63,58,57,45,48,48,32,32,32,34,31,25,18,0.9,1
2022-01-25T18:00:00,2265A,127.5291,50.2472,黑河市,大黑河岛(对照点),颗粒物(PM10),56,61,41,28,19,44,29,38,32,28,25,2,6,0.5,0.6
2022-01-25T18:00:00,2266A,126.9785,46.6365,绥化市,人和东街,细颗粒物(PM2.5),130,129,151,99,121,73,72,65,65,40,49,10,15,0.8,0.8
2022-01-25T18:00:00,2267A,126.964,46.6528,绥化市,党政办公中心,细颗粒物(PM2.5),205,175,213,155,178,83,76,74,74,43,51,13,16,1.1,1.2
2022-01-25T18:00:00,2269A,124.1069,50.4097,大兴安岭地区,科技局,,33,24,24,23,23,54,40,47,47,24,14,21,10,0.4,0.4
2022-01-25T18:00:00,2270A,117.396,32.939,蚌埠市,工人疗养院,细颗粒物(PM2.5),133,100,117,101,99,71,65,61,61,32,28,4,4,0.9,0.8
2022-01-25T18:00:00,2271A,117.3605,32.9427,蚌埠市,百货大楼,细颗粒物(PM2.5),128,160,152,97,104,83,68,64,64,36,32,2,3,0.9,0.8
2022-01-25T18:00:00,2273A,117.4185,32.8911,蚌埠市,蚌埠学院,细颗粒物(PM2.5),125,114,110,95,90,74,74,59,59,26,28,6,7,0.8,0.8
2022-01-25T18:00:00,2274A,117.3533,32.9673,蚌埠市,淮上区政府,细颗粒物(PM2.5),125,122,127,95,111,89,79,70,70,25,28,7,7,0.8,0.8
2022-01-25T18:00:00,2275A,117.3145,32.8977,蚌埠市,高新区,细颗粒物(PM2.5),138,112,122,105,115,80,80,54,54,20,27,6,7,0.8,0.8
2022-01-25T18:00:00,2277A,116.8305,32.7727,淮南市,潘集区政府,细颗粒物(PM2.5),148,134,150,113,132,59,59,54,54,32,26,2,2,0.9,0.9
2022-01-25T18:00:00,2278A,117.0067,32.6524,淮南市,师范学院,细颗粒物(PM2.5),175,175,178,132,121,55,43,43,43,25,14,9,9,1.0,1
2022-01-25T18:00:00,2279A,116.8569,32.5951,淮南市,谢家集区政府,细颗粒物(PM2.5),163,140,134,124,120,51,47,38,38,32,27,6,6,0.8,0.8
2022-01-25T18:00:00,2280A,116.8281,32.633,淮南市,八公山区政府,细颗粒物(PM2.5),158,124,118,120,123,52,46,42,42,25,22,6,6,0.8,0.8
2022-01-25T18:00:00,2281A,116.6325,32.6201,淮南市,焦岗湖风景区管理处(对照点),细颗粒物(PM2.5),145,128,131,111,118,57,55,45,45,15,18,6,6,0.9,0.9
2022-01-25T18:00:00,2282A,116.8004,33.975,淮北市,监测站,细颗粒物(PM2.5),160,133,162,122,134,70,59,58,58,24,26,3,4,1.2,1.3
2022-01-25T18:00:00,2283A,116.8091,33.9007,淮北市,烈山区政府,细颗粒物(PM2.5),153,131,161,117,129,77,70,64,64,26,32,2,3,1.0,1.2
2022-01-25T18:00:00,2284A,116.7856,33.9477,淮北市,职业技术学院,细颗粒物(PM2.5),162,132,169,123,137,75,69,65,65,22,30,4,5,,1.3
2022-01-25T18:00:00,2285A,117.8177,30.9412,铜陵市,市第四中学,细颗粒物(PM2.5),125,111,76,95,60,35,7,29,23,69,45,3,1,1.7,1
2022-01-25T18:00:00,2286A,117.8059,30.9273,铜陵市,市公路局,细颗粒物(PM2.5),119,109,78,90,63,28,1,20,17,74,53,11,9,1.8,1.1
2022-01-25T18:00:00,2287A,117.7807,30.9413,铜陵市,市新民污水厂,细颗粒物(PM2.5),129,164,94,98,66,33,14,29,19,70,46,6,4,1.8,1.3
2022-01-25T18:00:00,2288A,117.7439,30.8792,铜陵市,市第九中学,细颗粒物(PM2.5),135,113,77,103,74,37,6,26,20,59,38,7,5,1.8,1.3
2022-01-25T18:00:00,2289A,117.846,30.9413,铜陵市,车站新区,细颗粒物(PM2.5),134,,71,102,62,35,4,28,20,56,30,5,6,1.6,1
2022-01-25T18:00:00,2290A,117.8483,30.97,铜陵市,市职教基地,细颗粒物(PM2.5),134,144,84,102,61,29,8,28,17,47,24,12,10,1.4,0.9
2022-01-25T18:00:00,2291A,117.0809,30.5177,安庆市,环科院,细颗粒物(PM2.5),112,95,59,84,50,38,38,35,35,26,27,5,6,0.9,0.9
2022-01-25T18:00:00,2292A,117.0331,30.5119,安庆市,马山宾馆,,,87,57,73,49,38,31,33,32,30,29,5,5,,1.2
2022-01-25T18:00:00,2294A,116.9896,30.6145,安庆市,安庆大学,细颗粒物(PM2.5),112,98,56,84,53,44,43,38,38,17,21,3,4,0.9,0.9
2022-01-25T18:00:00,2295A,118.2903,29.6963,黄山市,延安路89号,,26,26,14,17,9,42,26,42,34,21,15,7,7,0.8,0.7
2022-01-25T18:00:00,2296A,118.327,29.7178,黄山市,黄山东路89号,,26,23,20,18,12,27,15,27,20,22,17,6,6,1.0,0.9
2022-01-25T18:00:00,2297A,118.1371,30.2756,黄山市,黄山区政府5号楼,细颗粒物(PM2.5),88,70,26,65,24,57,20,40,22,18,12,6,6,1.0,0.9
2022-01-25T18:00:00,2298A,118.3093,32.3153,滁州市,老年大学,细颗粒物(PM2.5),108,110,110,81,91,68,60,59,59,21,20,9,7,0.6,0.7
2022-01-25T18:00:00,2299A,118.3244,32.2786,滁州市,人大宾馆,细颗粒物(PM2.5),124,106,95,94,88,61,54,58,58,42,21,6,8,0.9,0.9
2022-01-25T18:00:00,2301A,115.8277,32.8929,阜阳市,市监测站,细颗粒物(PM2.5),162,133,142,123,132,51,50,36,36,24,23,5,6,1.1,1.1
2022-01-25T18:00:00,2303A,115.8554,32.8605,阜阳市,开发区,细颗粒物(PM2.5),186,176,172,140,139,40,39,32,32,27,25,4,5,1.3,1.3
2022-01-25T18:00:00,2307A,116.5079,31.737,六安市,监测大楼,细颗粒物(PM2.5),137,114,101,104,91,56,48,46,45,25,21,5,5,0.8,0.8
2022-01-25T18:00:00,2308A,116.4738,31.7643,六安市,皖西学院,细颗粒物(PM2.5),123,121,105,93,79,66,60,54,52,22,22,5,5,0.8,0.8
2022-01-25T18:00:00,2309A,116.4996,31.7905,六安市,朝阳厂,细颗粒物(PM2.5),139,108,94,106,83,64,55,54,52,19,22,4,5,0.7,0.7
2022-01-25T18:00:00,2310A,116.5567,31.7886,六安市,开发区,细颗粒物(PM2.5),117,115,115,88,83,69,58,54,54,18,20,5,4,0.8,0.8
2022-01-25T18:00:00,2311A,115.8072,33.8399,亳州市,污水处理厂,细颗粒物(PM2.5),108,119,148,81,119,99,94,84,84,13,18,4,4,1.1,1.2
2022-01-25T18:00:00,2312A,115.7789,33.8518,亳州市,三国揽胜宫,细颗粒物(PM2.5),125,123,161,95,129,101,93,87,87,18,18,5,4,1.1,1.2
2022-01-25T18:00:00,2314A,117.47,30.6618,池州市,池州学院,细颗粒物(PM2.5),152,138,72,116,62,34,14,27,21,45,24,8,6,1.9,1.1
2022-01-25T18:00:00,2316A,118.7581,30.9454,宣城市,鳌峰子站,细颗粒物(PM2.5),158,127,119,120,93,65,47,51,51,39,29,4,4,1.0,0.9
2022-01-25T18:00:00,2317A,118.7385,30.9743,宣城市,敬亭山子站,细颗粒物(PM2.5),160,144,117,122,99,57,42,51,50,49,32,7,7,0.9,0.8
2022-01-25T18:00:00,2318A,118.7173,30.9427,宣城市,开发区子站,细颗粒物(PM2.5),158,128,118,120,96,76,57,60,60,43,34,4,4,1.0,0.9
2022-01-25T18:00:00,2319A,119.0141,25.4325,莆田市,荔城区仓后路,,40,35,23,28,17,68,48,64,60,24,14,3,3,0.9,0.7
2022-01-25T18:00:00,2320A,119.0015,25.4553,莆田市,莆田市监测站,,39,32,16,27,17,75,62,71,70,21,6,4,3,0.6,0.5
2022-01-25T18:00:00,2321A,119.1119,25.4561,莆田市,涵江区六中,,36,31,22,25,21,81,76,73,73,12,10,5,5,0.7,0.6
2022-01-25T18:00:00,2322A,119.1013,25.3215,莆田市,秀屿区政府,,,26,21,36,26,79,,67,63,17,12,4,4,0.8,0.6
2022-01-25T18:00:00,2323A,118.981,25.4792,莆田市,东圳水库(对照点),,26,26,15,17,10,79,54,74,67,15,7,4,3,0.6,0.4
2022-01-25T18:00:00,2324A,117.6211,26.2625,三明市,三钢,,28,19,13,19,13,40,30,26,25,16,15,5,5,1.0,1
2022-01-25T18:00:00,2325A,117.635,26.2714,三明市,三明二中,,23,17,12,16,9,42,34,31,28,15,13,4,5,1.0,1
2022-01-25T18:00:00,2326A,117.6028,26.2378,三明市,三元区政府,,30,25,13,21,13,46,32,30,25,22,18,6,6,1.1,1.1
2022-01-25T18:00:00,2327A,117.7275,26.3108,三明市,洋溪(对照点),,27,27,11,16,9,41,34,36,36,17,11,8,6,1.0,0.9
2022-01-25T18:00:00,2331A,118.0966,26.6761,南平市,茫荡山(对照点),,21,21,10,5,4,69,55,64,62,3,3,2,2,1.0,1
2022-01-25T18:00:00,2332A,118.1681,26.6369,南平市,南平市监测站,,,,12,,9,68,43,57,57,16,14,4,5,1.0,0.8
2022-01-25T18:00:00,2333A,118.1825,26.6489,南平市,南平铝业有限公司,,16,16,14,11,15,60,35,50,50,12,10,4,5,0.9,0.8
2022-01-25T18:00:00,2334A,118.1756,26.6272,南平市,南平七中,,19,19,13,12,10,63,37,52,52,14,12,5,6,0.6,0.6
2022-01-25T18:00:00,2335A,117.0189,25.1181,龙岩市,龙岩师专(对照点),,18,18,19,10,15,63,53,48,48,15,18,5,5,0.5,0.7
2022-01-25T18:00:00,2336A,117.0217,25.1033,龙岩市,龙岩市监测站,,24,24,19,10,16,64,49,43,43,20,21,1,2,0.7,0.8
2022-01-25T18:00:00,2337A,117.0258,25.0661,龙岩市,闽西职业技术学院,,28,28,20,9,13,60,40,42,42,21,16,5,5,0.5,0.7
2022-01-25T18:00:00,2338A,117.0196,25.0306,龙岩市,龙岩学院,,25,25,18,10,13,63,44,44,44,15,17,3,4,0.6,0.7
2022-01-25T18:00:00,2339A,119.5001,26.6946,宁德市,金涵水库(对照点),,48,26,21,33,16,80,34,68,48,24,16,5,5,0.8,0.7
2022-01-25T18:00:00,2341A,119.5388,26.6612,宁德市,宁德市监测站,,36,30,21,25,19,76,49,68,54,28,22,6,6,0.7,0.6
2022-01-25T18:00:00,2342A,117.3102,29.3867,景德镇市,王港中学(对照点),,16,16,15,8,10,28,20,27,23,9,11,7,6,0.7,0.8
2022-01-25T18:00:00,2343A,117.2117,29.2933,景德镇市,老干部活动中心,,29,29,31,17,19,25,8,19,12,19,18,5,5,1.4,1.3
2022-01-25T18:00:00,2344A,117.1894,29.2789,景德镇市,兽医站,,30,19,23,21,15,28,9,19,12,15,14,3,5,0.9,0.9
2022-01-25T18:00:00,2345A,117.1547,29.2617,景德镇市,台达陶瓷,,36,36,23,19,13,26,9,22,12,19,18,5,6,1.2,1.2
2022-01-25T18:00:00,2346A,117.2461,29.2956,景德镇市,陶研所,,44,44,44,22,21,18,5,14,10,27,24,4,6,1.2,1.2
2022-01-25T18:00:00,2347A,114.0997,27.5002,萍乡市,武功山(对照点),,33,17,9,23,15,14,5,11,10,32,21,9,8,1.4,0.8
2022-01-25T18:00:00,2348A,113.8385,27.6434,萍乡市,中医院,,50,28,42,35,40,9,7,8,8,30,29,13,6,2.1,1.6
2022-01-25T18:00:00,2349A,113.8493,27.6253,萍乡市,市政府车库,,35,30,40,24,41,8,5,7,6,30,29,9,9,1.9,1.7
2022-01-25T18:00:00,2350A,113.8676,27.6435,萍乡市,市环保局,,,27,40,30,42,11,8,9,9,26,26,6,6,,1.5
2022-01-25T18:00:00,2351A,113.866,27.6198,萍乡市,安源区政府,,40,35,46,28,35,9,4,7,6,30,28,10,9,1.7,1.3
2022-01-25T18:00:00,2352A,115.0861,27.9317,新余市,北岗(对照点),,23,12,18,16,16,34,33,29,29,23,23,2,2,0.8,0.8
2022-01-25T18:00:00,2353A,114.9886,27.8431,新余市,飞宇,,37,37,37,16,17,31,29,26,26,26,31,4,4,1.1,1
2022-01-25T18:00:00,2354A,114.9231,27.8246,新余市,第二水厂,,32,28,26,22,23,22,18,20,18,30,30,2,2,0.9,1
2022-01-25T18:00:00,2355A,114.9308,27.8036,新余市,市气象局,,32,32,33,22,20,26,15,18,18,35,30,4,4,0.8,0.8
2022-01-25T18:00:00,2357A,116.9822,28.1136,鹰潭市,龙虎山(对照点),,29,15,14,20,16,49,26,39,30,12,9,2,3,1.0,0.9
2022-01-25T18:00:00,2358A,117.0564,28.2642,鹰潭市,新监测站,,32,14,16,22,19,47,21,38,30,23,14,1,1,1.0,0.8
2022-01-25T18:00:00,2359A,117.0311,28.2475,鹰潭市,财苑宾馆,,28,14,15,19,19,46,19,36,25,19,11,2,2,0.7,0.9
2022-01-25T18:00:00,2360A,117.0222,28.2264,鹰潭市,体育馆,,20,17,15,14,16,46,22,38,30,18,11,1,2,0.7,0.5
2022-01-25T18:00:00,2361A,117.0017,28.2131,鹰潭市,三川水表,,25,14,19,17,20,41,18,34,28,28,14,3,3,1.3,1.1
2022-01-25T18:00:00,2362A,114.9017,25.9149,赣州市,通天岩(对照点),,15,15,15,7,9,47,39,36,36,13,16,4,4,0.9,1
2022-01-25T18:00:00,2363A,114.9367,25.8664,赣州市,地委,,13,12,15,9,9,53,40,40,40,16,17,8,7,1.2,1.2
2022-01-25T18:00:00,2364A,114.9461,25.8481,赣州市,气象台,,12,10,14,5,11,54,38,40,40,22,19,5,4,0.9,0.9
2022-01-25T18:00:00,2365A,114.9322,25.8333,赣州市,市图书馆,,14,13,17,8,10,51,33,35,35,23,23,7,9,1.4,1.4
2022-01-25T18:00:00,2366A,114.8905,25.8471,赣州市,华坚鞋城,,39,39,31,25,11,48,36,37,37,19,16,31,15,1.1,1.2
2022-01-25T18:00:00,2367A,114.9754,27.0803,吉安市,红声器材厂,,32,32,30,18,16,41,31,34,34,19,20,3,4,1.1,0.9
2022-01-25T18:00:00,2368A,114.9658,27.0999,吉安市,市森林工业局,,,41,26,32,17,33,29,30,30,,26,1,2,0.9,0.9
2022-01-25T18:00:00,2369A,114.99,27.1312,吉安市,市环境监测站,,36,36,30,16,16,34,28,28,28,20,21,5,2,1.1,1
2022-01-25T18:00:00,2370A,115.0093,27.0968,吉安市,青原区法院,,36,29,27,25,19,47,36,41,41,18,19,5,5,1.0,1
2022-01-25T18:00:00,2371A,114.3408,27.8064,宜春市,槟榔水业(对照点),,41,41,37,27,27,6,4,5,5,32,29,4,7,1.8,1.7
2022-01-25T18:00:00,2373A,114.3956,27.7844,宜春市,市石油公司,,43,30,34,30,27,8,3,6,5,30,29,1,5,1.7,1.7
2022-01-25T18:00:00,2374A,114.3703,27.7914,宜春市,市气象局,,33,30,35,23,28,12,6,9,9,34,31,5,7,1.9,1.9
2022-01-25T18:00:00,2375A,114.4013,27.8074,宜春市,市广电局,,32,30,32,22,27,7,3,4,4,36,35,4,6,2.0,1.9
2022-01-25T18:00:00,2376A,116.2127,28.0814,抚州市,桐源党溪(对照点),,38,29,26,26,21,40,20,33,24,25,14,2,2,1.6,1.4
2022-01-25T18:00:00,2377A,116.3544,27.9831,抚州市,市站,,25,25,28,15,19,50,27,44,30,20,16,6,6,1.1,1.1
2022-01-25T18:00:00,2378A,116.3565,27.963,抚州市,血防站,,,26,27,16,19,48,26,43,28,,6,96,6,1.3,1.3
2022-01-25T18:00:00,2379A,116.3564,28.0007,抚州市,采茶剧团,,25,22,26,17,19,49,27,41,29,18,15,5,6,1.4,1.4
2022-01-25T18:00:00,2380A,116.385,27.9647,抚州市,医学分院,,23,23,26,14,16,48,26,39,27,13,11,5,5,1.1,1.1
2022-01-25T18:00:00,2381A,118.005,28.4572,上饶市,百草园(对照点),,33,33,27,22,18,48,34,32,32,21,17,2,6,0.8,0.7
2022-01-25T18:00:00,2382A,117.9756,28.4436,上饶市,市监测站,,39,36,31,27,19,37,25,29,29,21,18,3,10,0.8,0.7
2022-01-25T18:00:00,2383A,117.9519,28.4628,上饶市,凤凰光学,,32,32,24,18,16,35,26,28,28,25,18,4,5,1.2,1.1
2022-01-25T18:00:00,2385A,114.17,35.9019,鹤壁市,市监测站,细颗粒物(PM2.5),204,170,138,154,130,57,24,43,29,46,32,7,7,1.6,1.5
2022-01-25T18:00:00,2386A,114.2956,35.7511,鹤壁市,市交警支队,细颗粒物(PM2.5),172,145,128,130,115,63,45,48,32,30,33,8,8,1.6,1.5
2022-01-25T18:00:00,2387A,114.2878,35.7306,鹤壁市,迎宾馆,,,,103,,107,61,43,47,33,36,34,,6,,1.4
2022-01-25T18:00:00,2389A,113.836,35.311,新乡市,环保西院,细颗粒物(PM2.5),185,173,134,139,117,55,29,42,33,40,30,,10,,1.5
2022-01-25T18:00:00,2390A,113.884,35.272,新乡市,开发区,,,,125,,108,67,21,38,30,,26,8,9,,1.3
