timepoint,stationcode,longitude,latitude,area,positionname,primarypollutant,aqi,pm10,pm10_24h,pm2_5,pm2_5_24h,o3,o3_24h,o3_8h,o3_8h_24h,no2,no2_24h,so2,so2_24h,co,co_24h
2025-04-15T0000,2566A,102.1879,31.914,阿坝藏族羌族自治州,州农科所,,42,42,24,15,10,54,,88,64,10,9,12,16,0.5,0.5
2025-04-15T0000,2568A,102.2502,31.8896,阿坝藏族羌族自治州,马师校,,23,23,18,11,14,35,,104,77,36,10,6,5,0.5,0.4
2025-04-15T0000,3994A,102.2165,31.9024,阿坝藏族羌族自治州,马尔康中学西区,,21,20,18,9,8,65,,108,89,8,6,4,4,0.4,0.3
2025-04-15T0000,2695A,80.292,41.1694,阿克苏地区,电视台,颗粒物(PM10),130,209,479,66,141,83,,104,100,17,19,6,6,0.4,0.4
2025-04-15T0000,2696A,80.2613,41.1551,阿克苏地区,艺术中心,颗粒物(PM10),154,258,509,72,144,85,,98,89,13,30,4,4,0.4,0.3
2025-04-15T0000,2204A,105.6467,38.8363,阿拉善盟,西城区西花园,,38,38,31,7,8,110,,106,100,10,12,20,19,0.7,0.8
2025-04-15T0000,2205A,105.6985,38.8411,阿拉善盟,蒙二幼,,27,27,23,3,8,83,,95,88,8,6,6,6,0.5,0.5
2025-04-15T0000,2206A,105.724,38.8516,阿拉善盟,环保局新楼,,31,15,17,3,7,99,,96,93,4,4,9,9,0.6,0.6
2025-04-15T0000,2708A,88.1264,47.8517,阿勒泰地区,市站,颗粒物(PM10),55,60,27,11,6,101,,107,106,2,6,2,2,0.3,0.2
2025-04-15T0000,2630A,80.1161,32.5,阿里地区,阿里监测站,,33,,10,6,6,105,,127,122,12,7,5,6,0.5,0.4
2025-04-15T0000,3192A,80.0903,32.5028,阿里地区,阿里藏医院,,28,18,16,7,8,89,,134,126,25,7,8,8,0.5,0.5
2025-04-15T0000,2642A,109.0318,32.6537,安康市,香溪洞,,33,33,125,22,47,78,,107,100,8,6,7,7,0.5,0.5
2025-04-15T0000,2644A,109.0072,32.6975,安康市,汉滨区检察院,,44,44,119,26,59,56,,103,78,11,16,8,10,0.3,0.4
2025-04-15T0000,4054A,109.0325,32.6913,安康市,市邮政管理局,颗粒物(PM10),51,52,120,18,37,46,,107,74,18,16,9,9,0.4,0.5
2025-04-15T0000,2291A,117.0809,30.5177,安庆市,环科院,颗粒物(PM10),56,62,149,16,40,17,,132,105,89,22,9,9,0.5,0.5
2025-04-15T0000,2292A,117.0331,30.5119,安庆市,马山宾馆,颗粒物(PM10),53,55,143,21,46,17,,131,106,89,24,6,6,0.4,0.3
2025-04-15T0000,2294A,116.9896,30.6145,安庆市,安庆大学,颗粒物(PM10),56,61,149,19,41,66,,139,120,33,12,4,6,0.3,0.3
2025-04-15T0000,3173A,117.0598,30.5351,安庆市,市人大,颗粒物(PM10),59,67,152,17,41,49,,133,107,53,16,7,10,0.3,0.3
2025-04-15T0000,3122A,105.9606,26.2611,安顺市,伍家关,颗粒物(PM10),85,119,145,45,55,78,,169,139,22,10,18,11,0.5,0.3
2025-04-15T0000,3123A,105.9408,26.2431,安顺市,凤凰山,颗粒物(PM10),82,114,148,57,57,45,,136,106,48,22,19,14,0.8,0.5
2025-04-15T0000,3124A,105.9439,26.2564,安顺市,金钟山,颗粒物(PM10),70,90,152,34,52,91,,132,116,15,11,15,12,0.6,0.5
2025-04-15T0000,3125A,105.8983,26.2481,安顺市,娄家坡,颗粒物(PM10),74,98,137,47,51,65,,132,113,31,13,17,12,0.8,0.6
2025-04-15T0000,1818A,114.4839,36.0621,安阳市,棉研所,,,,,,,,,,,,,,,,
2025-04-15T0000,1819A,114.3551,36.1017,安阳市,红庙街,,41,41,45,17,17,81,,118,102,13,10,6,4,0.4,0.4
2025-04-15T0000,1820A,114.361,36.0681,安阳市,银杏小区,颗粒物(PM10),51,52,53,28,22,72,,127,106,26,12,6,5,0.4,0.3
2025-04-15T0000,3141A,114.3922,36.0878,安阳市,信访局,,48,48,48,15,10,98,,133,120,19,12,5,4,0.1,0.1
2025-04-15T0000,3669A,114.4705,36.0637,安阳市,左辅环卫站,颗粒物(PM10),54,57,55,28,16,80,,136,106,27,23,5,4,1.0,0.8
2025-04-15T0000,3703A,114.2917,36.0949,安阳市,安钢职工学校,颗粒物(PM10),57,63,63,24,22,100,,118,110,11,14,8,4,0.3,0.3
2025-04-15T0000,1748A,123.044,41.1196,鞍山市,深沟寺,,32,32,24,21,17,55,,77,64,16,15,11,11,1.3,0.7
2025-04-15T0000,1749A,123.011,41.0931,鞍山市,太阳城,,28,27,24,19,17,41,,79,64,23,14,7,4,1.2,0.9
2025-04-15T0000,1750A,123.0485,41.1442,鞍山市,太平,,40,40,33,20,18,49,,74,62,18,13,10,9,1.1,0.8
2025-04-15T0000,1751A,122.9642,41.0971,鞍山市,铁西三道街,,30,29,27,21,20,46,,75,64,26,21,3,7,0.9,0.9
2025-04-15T0000,1753A,123.022,41.0821,鞍山市,明达新区,,33,33,22,20,16,42,,81,68,23,13,6,7,0.8,0.6
2025-04-15T0000,1754A,123.1289,41.0228,鞍山市,千山,,,,16,,9,,,76,,,14,,4,,0.9
2025-04-15T0000,4201A,122.9446,41.0826,鞍山市,兴盛南路290号,,26,26,30,16,19,53,,78,60,20,24,6,10,0.6,1
2025-04-15T0000,2195A,107.4212,40.761,巴彦淖尔市,附二中,,41,41,40,17,18,80,,115,92,22,16,8,8,0.5,0.5
2025-04-15T0000,2196A,107.37,40.7372,巴彦淖尔市,市环保大楼,,41,41,34,20,16,72,,115,88,31,16,7,6,0.2,0.2
2025-04-15T0000,1956A,86.1472,41.7538,巴音郭楞蒙古自治州,孔雀公园,颗粒物(PM10),279,405,388,106,89,2,,100,67,98,40,6,6,0.9,0.4
2025-04-15T0000,1957A,86.1972,41.7166,巴音郭楞蒙古自治州,棉纺厂,颗粒物(PM10),474,574,465,129,99,5,,99,71,79,26,4,3,0.7,0.4
2025-04-15T0000,1958A,86.2357,41.7173,巴音郭楞蒙古自治州,经济开发区,颗粒物(PM10),422,522,412,119,86,38,,102,77,39,20,5,5,0.5,0.4
2025-04-15T0000,2914A,106.7677,31.8794,巴中市,苏山坪,颗粒物(PM10),104,157,196,61,83,110,,116,116,9,11,5,4,0.3,0.3
2025-04-15T0000,3181A,106.7768,31.8526,巴中市,市五中,颗粒物(PM10),100,150,185,57,65,49,,111,87,24,21,5,6,0.7,0.7
2025-04-15T0000,3183A,106.7418,31.8654,巴中市,圣泉水务公司,颗粒物(PM10),89,127,148,49,55,10,,117,76,74,26,3,3,0.8,0.7
2025-04-15T0000,3616A,106.7616,31.8344,巴中市,市中心医院,细颗粒物(PM2.5),134,141,169,102,72,33,,115,84,38,24,6,6,0.7,0.6
2025-04-15T0000,2235A,122.7911,45.6077,白城市,洮北区环保局,,23,23,21,16,14,56,,90,65,9,10,4,4,0.2,0.2
2025-04-15T0000,2236A,122.8738,45.5725,白城市,市环保局,,23,,13,16,13,42,,87,59,16,6,5,6,0.6,0.5
2025-04-15T0000,2231A,126.4219,41.9171,白山市,喜丰,,,24,24,8,12,70,,88,78,,5,12,12,1.0,1.1
2025-04-15T0000,2232A,126.4077,41.9419,白山市,环保局,,45,45,31,11,9,62,,89,80,11,11,7,6,1.0,1
2025-04-15T0000,2647A,104.1724,36.5446,白银市,第三小学,二氧化硫,54,50,66,17,24,50,,115,94,39,12,176,55,0.7,0.4
2025-04-15T0000,2648A,104.1465,36.5482,白银市,动力公司,颗粒物(PM10),53,55,61,21,26,43,,117,94,38,13,62,25,0.6,0.4
2025-04-15T0000,2512A,106.6103,23.9011,百色市,市监测站,颗粒物(PM10),96,141,207,53,69,69,,114,86,18,20,10,10,0.4,0.4
2025-04-15T0000,2513A,106.6538,23.8859,百色市,市中心血站,颗粒物(PM10),123,196,252,70,81,20,,124,72,61,31,7,10,0.7,0.6
2025-04-15T0000,3406A,106.6085,23.8798,百色市,祈福高中,颗粒物(PM10),111,172,235,52,69,22,,113,74,61,27,6,7,0.4,0.3
2025-04-15T0000,2270A,117.396,32.939,蚌埠市,工人疗养院,颗粒物(PM10),54,58,73,20,20,56,,120,103,34,15,4,5,0.6,0.5
2025-04-15T0000,2271A,117.3605,32.9427,蚌埠市,百货大楼,颗粒物(PM10),51,52,81,24,23,76,,115,101,34,22,7,6,0.5,0.4
2025-04-15T0000,2273A,117.4185,32.8911,蚌埠市,蚌埠学院,颗粒物(PM10),63,75,73,28,17,73,,124,106,29,13,4,4,0.5,0.4
2025-04-15T0000,2274A,117.3533,32.9673,蚌埠市,淮上区政府,颗粒物(PM10),53,56,92,19,26,85,,116,95,29,22,6,6,0.3,0.3
2025-04-15T0000,2275A,117.3145,32.8977,蚌埠市,高新区,颗粒物(PM10),57,63,74,23,21,47,,120,94,44,19,5,6,0.4,0.4
2025-04-15T0000,3715A,117.3092,32.9314,蚌埠市,蚌埠田家炳中学,颗粒物(PM10),56,61,93,27,19,58,,119,98,46,26,14,6,0.4,0.3
2025-04-15T0000,1585A,109.8756,40.6532,包头市,市环境监测站,颗粒物(PM10),52,54,30,15,13,68,,100,79,17,15,14,9,0.4,0.4
2025-04-15T0000,1587A,109.9991,40.5842,包头市,包头八中,,50,50,32,24,13,26,,105,70,65,27,10,13,0.5,0.5
2025-04-15T0000,1588A,109.8538,40.6821,包头市,青山宾馆,,31,31,22,17,10,51,,100,76,30,15,13,10,0.5,0.4
2025-04-15T0000,1589A,109.8642,40.6288,包头市,惠龙物流,,28,27,26,12,18,87,,108,96,11,15,12,16,0.3,0.5
2025-04-15T0000,1590A,110.0377,40.5546,包头市,东河鸿龙湾,,34,34,25,7,8,18,,105,72,60,26,9,11,0.5,0.4
2025-04-15T0000,3283A,109.9154,40.5685,包头市,滨河大厦,,36,36,24,12,10,57,,106,83,32,26,13,14,0.5,0.6
2025-04-15T0000,3419A,109.9447,40.6261,包头市,包头市委党校,颗粒物(PM10),51,52,23,12,8,15,,106,70,68,20,8,9,0.8,0.6
2025-04-15T0000,3683A,109.8331,40.6576,包头市,昆区政府,,32,32,23,14,11,73,,105,88,18,17,13,8,0.6,0.6
2025-04-15T0000,1930A,107.185,34.3063,宝鸡市,庙沟村,,33,33,63,12,19,65,,110,94,21,4,6,6,0.4,0.4
2025-04-15T0000,1931A,107.0708,34.3017,宝鸡市,竹园沟,,33,33,69,16,31,62,,110,83,14,10,6,6,0.4,0.4
2025-04-15T0000,1932A,107.1906,34.3672,宝鸡市,三陆医院,颗粒物(PM10),51,52,92,30,35,28,,108,61,38,28,10,5,0.6,0.5
2025-04-15T0000,1933A,107.1431,34.3547,宝鸡市,监测站,,28,28,106,16,39,32,,101,64,29,15,7,7,0.3,0.4
2025-04-15T0000,1934A,107.1186,34.3739,宝鸡市,技工学校,,43,43,101,23,36,50,,106,72,16,12,6,6,0.4,0.5
2025-04-15T0000,1935A,107.3906,34.3528,宝鸡市,陈仓区环保局家属楼,,46,46,84,22,28,9,,110,64,67,23,6,15,0.4,0.4
2025-04-15T0000,1936A,107.2058,34.3497,宝鸡市,文理学院,颗粒物(PM10),53,56,97,22,43,40,,109,66,31,19,6,6,0.4,0.4
2025-04-15T0000,1937A,107.2386,34.3622,宝鸡市,三迪小学,颗粒物(PM10),56,62,97,27,37,30,,107,67,43,23,6,6,0.7,0.7
2025-04-15T0000,1051A,115.493,38.8632,保定市,游泳馆,颗粒物(PM10),53,56,41,28,17,69,,121,86,31,16,4,2,0.2,0.2
2025-04-15T0000,1052A,115.5213,38.8959,保定市,华电二区,,46,46,34,19,16,65,,122,85,22,8,1,3,0,0
2025-04-15T0000,1053A,115.4713,38.9108,保定市,接待中心,颗粒物(PM10),51,52,37,26,17,67,,117,91,19,9,5,2,0.2,0.1
2025-04-15T0000,1054A,115.4612,38.8416,保定市,地表水厂,细颗粒物(PM2.5),75,75,44,55,18,66,,122,89,29,16,4,2,0.5,0.4
2025-04-15T0000,3581A,115.31981,38.95208,保定市,满城区生态环境分局,,,58,30,,12,52,,121,79,35,12,6,3,0.2,0.1
2025-04-15T0000,3582A,115.47694,38.76408,保定市,清苑区第二中学,颗粒物(PM10),61,72,52,31,18,59,,123,80,32,16,5,4,0.4,0.3
2025-04-15T0000,3583A,115.62909,39.02311,保定市,徐水物探局,颗粒物(PM10),79,108,41,44,11,30,,122,91,59,13,2,3,0.1,0
2025-04-15T0000,4004A,115.4202,38.8656,保定市,双鹰农机,颗粒物(PM10),53,56,44,31,24,56,,116,85,29,10,6,3,0.2,0.1
2025-04-15T0000,4034A,115.5150,38.8590,保定市,植保所站,细颗粒物(PM2.5),68,54,44,49,23,42,,119,73,46,15,3,3,0.6,0.5
2025-04-15T0000,2594A,99.1678,25.1081,保山市,市环境监测站,,35,29,31,24,23,68,,109,90,9,11,11,12,0.5,0.5
2025-04-15T0000,2595A,99.1711,25.1328,保山市,市环保局,,40,38,32,28,14,88,,117,104,7,7,7,6,0.4,0.5
2025-04-15T0000,1866A,109.2262,21.588,北海市,牛尾岭水库,颗粒物(PM10),106,162,239,45,68,73,,133,116,,20,6,7,0.6,0.6
2025-04-15T0000,1867A,109.1436,21.4086,北海市,海滩公园,颗粒物(PM10),138,225,346,39,73,126,,153,145,14,19,8,11,0.4,0.5
2025-04-15T0000,1868A,109.0981,21.4661,北海市,新市环保局,颗粒物(PM10),135,219,344,48,88,114,,143,134,20,24,7,10,0.5,0.5
2025-04-15T0000,1869A,109.1778,21.5233,北海市,北海工业园,颗粒物(PM10),139,228,342,56,92,114,,150,138,17,22,14,15,0.5,0.5
2025-04-15T0000,3400A,109.1911,21.4415,北海市,龙潭自来水厂,颗粒物(PM10),139,228,327,55,91,113,,149,134,17,22,10,12,0.3,0.4
2025-04-15T0000,1001A,116.3621,39.8784,北京市,万寿西宫,,46,46,63,25,32,45,,115,72,62,19,6,6,0.8,0.7
2025-04-15T0000,1002A,116.2202,40.2915,北京市,定陵,,,,,,,,,,,,,,,,
2025-04-15T0000,1003A,116.4174,39.9289,北京市,东四,,46,46,65,26,29,57,,107,74,41,14,7,6,0.6,0.5
2025-04-15T0000,1004A,116.4072,39.8863,北京市,天坛,,41,41,62,25,32,49,,104,67,33,14,3,2,0.6,0.5
2025-04-15T0000,1005A,116.462,39.9365,北京市,农展馆,,48,48,62,29,35,43,,110,70,50,15,7,6,0.7,0.5
2025-04-15T0000,1006A,116.3392,39.9295,北京市,官园,颗粒物(PM10),68,85,85,40,39,33,,97,57,49,14,6,6,0.6,0.4
2025-04-15T0000,1007A,116.2878,39.9611,北京市,海淀万柳,细颗粒物(PM2.5),67,77,66,48,40,5,,92,37,76,32,4,4,1.0,0.6
2025-04-15T0000,1008A,116.6636,40.135,北京市,顺义新城,细颗粒物(PM2.5),59,61,49,42,25,17,,118,66,65,14,6,5,0.6,0.4
2025-04-15T0000,1009A,116.6275,40.3275,北京市,怀柔镇,细颗粒物(PM2.5),70,74,56,51,38,17,,103,67,46,9,3,2,0.6,0.4
2025-04-15T0000,1010A,116.2296,40.217,北京市,昌平镇,,24,24,49,10,21,64,,104,81,12,8,1,2,0.5,0.6
2025-04-15T0000,1011A,116.3966,39.9821,北京市,奥体中心,颗粒物(PM10),51,51,64,30,34,33,,101,59,64,19,4,3,0.6,0.4
2025-04-15T0000,3281A,115.9718,40.4529,北京市,延庆夏都,,26,20,35,10,18,81,,112,93,10,4,7,5,0.3,0.3
2025-04-15T0000,3418A,116.8336,40.4095,北京市,密云新城,细颗粒物(PM2.5),119,161,68,90,37,45,,105,73,11,6,3,3,0.4,0.3
2025-04-15T0000,3671A,116.088,39.9726,北京市,门头沟三家店,颗粒物(PM10),54,57,84,14,22,46,,87,59,22,11,2,3,0.2,0.3
2025-04-15T0000,3672A,116.1541,39.8204,北京市,丰台云岗,颗粒物(PM10),54,57,42,25,24,52,,109,86,39,5,2,2,0.3,0.2
2025-04-15T0000,3673A,116.6804,39.9081,北京市,通州东关,颗粒物(PM10),56,61,59,35,28,61,,107,71,42,13,4,4,0.4,0.5
2025-04-15T0000,3674A,115.9577,39.7603,北京市,房山燕山,,26,18,40,7,17,82,,102,86,4,3,5,4,0.3,0.3
2025-04-15T0000,3675A,116.4672,39.7733,北京市,大兴旧宫,,42,42,55,25,31,53,,107,73,31,8,1,2,0.3,0.2
2025-04-15T0000,3694A,115.986,40.4563,北京市,延庆石河营,,25,22,37,7,15,79,,112,93,10,4,5,4,0.3,0.3
2025-04-15T0000,3695A,116.6151,40.3053,北京市,怀柔新城,细颗粒物(PM2.5),70,67,47,51,28,43,,102,76,19,3,2,1,0.6,0.5
2025-04-15T0000,3696A,116.2545,39.8768,北京市,丰台小屯,颗粒物(PM10),55,60,50,26,20,14,,98,56,73,13,2,1,0.3,0.2
2025-04-15T0000,3697A,116.84,40.3844,北京市,密云镇,颗粒物(PM10),65,79,48,44,23,31,,110,54,35,13,4,4,0.6,0.4
2025-04-15T0000,4182A,116.1942,39.9158,北京市,八角北路9号,,50,50,43,19,21,5,,104,76,73,6,3,3,0.4,0.1
2025-04-15T0000,4194A,117.0790,40.1518,北京市,洳河巡河路,细颗粒物(PM2.5),60,62,35,43,19,23,,118,73,40,8,2,2,0.5,0.3
2025-04-15T0000,1761A,123.8275,41.3064,本溪市,大峪,,41,41,22,27,14,30,,86,64,20,13,4,5,0.6,0.5
2025-04-15T0000,1762A,123.7567,41.3325,本溪市,溪湖,,50,43,20,35,16,7,,88,62,56,15,7,7,0.7,0.6
2025-04-15T0000,1763A,123.7169,41.3094,本溪市,彩屯,,41,41,29,27,20,38,,88,63,19,19,8,9,0.7,0.7
2025-04-15T0000,1764A,123.7669,41.2864,本溪市,东明,,44,44,23,21,14,18,,84,58,37,17,6,6,1.1,0.8
2025-04-15T0000,1765A,123.7992,41.2664,本溪市,新立屯,,46,,19,32,14,26,,88,54,42,22,6,7,0.7,0.6
2025-04-15T0000,1766A,123.8142,41.3472,本溪市,威宁,颗粒物(PM10),56,62,25,30,15,8,,88,50,45,12,5,4,0.8,0.7
2025-04-15T0000,2587A,105.2864,27.3125,毕节市,八中,颗粒物(PM10),94,138,119,56,41,60,,112,87,14,11,6,7,0.4,0.3
2025-04-15T0000,2588A,105.31,27.2944,毕节市,师专,颗粒物(PM10),106,162,121,70,48,36,,134,93,41,19,8,9,0.6,0.4
2025-04-15T0000,4263A,105.3688,27.3598,毕节市,工业大道,颗粒物(PM10),111,172,136,76,47,28,,112,79,46,22,10,10,0.5,0.4
2025-04-15T0000,1629A,118.0018,37.3617,滨州市,第二水厂,颗粒物(PM10),53,56,70,24,15,84,,120,105,23,13,18,9,0.5,0.1
2025-04-15T0000,1630A,117.9776,37.393,滨州市,北中新校,,48,48,54,27,19,94,,131,114,24,14,10,7,0.7,0.6
2025-04-15T0000,3514A,117.9378,37.3956,滨州市,中海酒店,颗粒物(PM10),51,51,52,24,21,89,,126,110,20,11,10,8,0.7,0.6
2025-04-15T0000,3515A,117.9378,37.3553,滨州市,开发区一中,颗粒物(PM10),57,63,79,31,21,78,,122,104,32,19,8,15,0.3,0.3
2025-04-15T0000,3516A,118.0917,37.694,滨州市,金海六路,,41,41,57,14,9,46,,125,85,25,15,10,7,0.5,0.4
2025-04-15T0000,4028A,117.9956,37.3753,滨州市,滨州市西街道办事处,细颗粒物(PM2.5),62,63,59,44,27,92,,136,118,25,13,42,9,1.2,0.4
2025-04-15T0000,2311A,115.8072,33.8399,亳州市,污水处理厂,,39,39,62,10,13,86,,125,106,24,18,4,4,0.3,0.3
2025-04-15T0000,2312A,115.7789,33.8518,亳州市,三国揽胜宫,,49,49,62,16,10,106,,126,110,18,17,7,4,0.2,0.2
2025-04-15T0000,3332A,115.7633,33.8034,亳州市,亳州学院,,45,45,56,16,11,103,,128,114,19,15,11,5,0.4,0.3
2025-04-15T0000,2693A,82.0485,44.8556,博尔塔拉蒙古自治州,市党校,颗粒物(PM10),79,108,126,34,36,84,,108,98,16,32,3,3,0.3,0.3
2025-04-15T0000,2694A,82.0806,44.8969,博尔塔拉蒙古自治州,市环保局,颗粒物(PM10),81,111,145,16,23,81,,106,95,13,17,1,2,0.4,0.4
2025-04-15T0000,1071A,116.8842,38.2991,沧州市,沧县城建局,"颗粒物(PM10),细颗粒物(PM2.5)",52,53,68,36,26,84,,126,104,29,15,3,3,0.2,0.1
2025-04-15T0000,1072A,116.8584,38.3254,沧州市,电视转播站,,48,48,58,29,30,91,,133,110,29,16,4,4,0.2,0.2
2025-04-15T0000,1073A,116.8709,38.3228,沧州市,市环保局,颗粒物(PM10),51,51,54,25,23,97,,130,109,22,15,6,6,0.3,0.3
2025-04-15T0000,3324A,116.8136,38.3004,沧州市,河北水利电力学院,颗粒物(PM10),54,58,65,31,19,89,,142,116,39,18,6,5,0.3,0.3
2025-04-15T0000,2622A,97.1806,31.1273,昌都市,昌都监测站,,38,11,8,8,6,121,,140,136,4,6,2,2,0.2,0.3
2025-04-15T0000,3719A,97.1714,31.1406,昌都市,昌都会议中心,,36,10,9,7,6,115,,136,132,10,6,2,2,0.1,0.2
2025-04-15T0000,2690A,88.1236,43.8886,昌吉回族自治州,天山天池,颗粒物(PM10),500,673,141,100,30,76,,122,108,5,5,4,4,0.6,0.5
2025-04-15T0000,2692A,87.2717,44.0297,昌吉回族自治州,新区政务中心,细颗粒物(PM2.5),93,130,202,69,48,87,,131,116,7,10,5,7,0.3,0.5
2025-04-15T0000,3613A,87.3095,44.0142,昌吉回族自治州,亚心广场,颗粒物(PM10),80,110,210,22,40,83,,123,108,13,14,6,8,0.2,0.5
2025-04-15T0000,1119A,125.3325,43.9166,长春市,食品厂,,46,46,31,30,20,25,,76,44,49,24,7,7,0.6,0.4
2025-04-15T0000,1120A,125.2863,43.9027,长春市,客车厂,,28,27,23,19,19,38,,69,41,39,28,5,5,0.5,0.5
2025-04-15T0000,1121A,125.2841,43.8463,长春市,邮电学院,,40,33,19,28,20,31,,76,55,39,20,5,5,0.6,0.4
2025-04-15T0000,1122A,125.3716,43.8772,长春市,劳动公园,,35,26,22,24,18,34,,74,58,33,19,6,6,0.4,0.3
2025-04-15T0000,1123A,125.3297,43.8805,长春市,园林处,,40,,20,28,18,36,,77,56,29,18,6,6,0.6,0.5
2025-04-15T0000,1124A,125.4605,43.79,长春市,净月潭,,36,36,17,25,14,15,,72,41,32,15,5,5,0.5,0.2
2025-04-15T0000,1125A,125.7194,43.515,长春市,甩湾子,,,,,,,,,,,,,,,,
2025-04-15T0000,1126A,125.3863,43.8447,长春市,经开区环卫处,,39,38,22,27,16,14,,67,46,40,20,5,5,0.6,0.4
2025-04-15T0000,1127A,125.245,43.7783,长春市,高新区管委会,细颗粒物(PM2.5),78,72,27,57,22,7,,71,37,63,25,6,6,0.7,0.4
2025-04-15T0000,1128A,125.1761,43.8325,长春市,岱山公园,,50,37,25,35,22,12,,72,37,58,33,4,4,0.6,0.5
2025-04-15T0000,1335A,113.0833,28.2325,长沙市,经开区环保局,颗粒物(PM10),121,191,242,77,70,55,,128,111,52,19,13,9,0.5,0.5
2025-04-15T0000,1336A,112.8872,28.2189,长沙市,高开区环保局,颗粒物(PM10),141,231,243,91,64,8,,131,86,79,17,5,8,0.9,0.5
2025-04-15T0000,1337A,113.0792,28.2053,长沙市,马坡岭,颗粒物(PM10),133,216,241,82,74,5,,128,74,92,28,4,7,0.6,0.5
2025-04-15T0000,1338A,112.9394,28.19,长沙市,湖南师范大学,颗粒物(PM10),104,157,230,54,63,60,,120,88,20,18,5,7,0.5,0.4
2025-04-15T0000,1339A,113.0178,28.1322,长沙市,雨花区环保局,颗粒物(PM10),131,211,238,90,81,4,,126,83,100,28,5,10,0.7,0.5
2025-04-15T0000,1340A,112.9792,28.2597,长沙市,伍家岭,颗粒物(PM10),127,204,252,64,67,50,,119,72,38,29,4,5,0.4,0.4
2025-04-15T0000,1341A,113.0014,28.1944,长沙市,火车新站,颗粒物(PM10),128,205,247,85,67,12,,127,79,94,29,8,10,1.6,0.6
2025-04-15T0000,1342A,112.9844,28.1178,长沙市,天心区环保局,颗粒物(PM10),127,204,235,78,76,24,,134,87,73,24,5,8,0.5,0.4
2025-04-15T0000,1343A,112.8908,28.1308,长沙市,湖南中医药大学,颗粒物(PM10),123,195,238,60,58,10,,129,65,65,30,3,5,0.5,0.4
2025-04-15T0000,1344A,112.9581,28.3611,长沙市,沙坪,颗粒物(PM10),109,167,219,57,74,55,,107,87,11,12,5,7,0.5,0.5
2025-04-15T0000,1727A,113.1147,36.1547,长治市,清华站,颗粒物(PM10),66,82,39,9,5,62,,109,90,25,11,10,8,0.7,0.7
2025-04-15T0000,1730A,113.0886,36.2125,长治市,审计局,,39,39,29,19,11,63,,110,92,28,16,9,11,0.2,0.3
2025-04-15T0000,1731A,113.0844,36.1856,长治市,长治八中,,41,41,33,20,19,61,,113,94,29,13,40,13,0.5,0.5
2025-04-15T0000,2845A,113.1569,36.1911,长治市,德盛苑,,28,28,30,9,8,77,,108,92,15,10,7,7,0.4,0.5
2025-04-15T0000,3568A,113.06,36.0464,长治市,向阳小学,颗粒物(PM10),53,56,47,3,11,66,,118,96,36,16,13,13,0.4,0.3
2025-04-15T0000,3569A,112.8792,36.3144,长治市,屯留一中,,35,35,32,8,7,39,,111,85,46,18,7,11,0.3,0.3
2025-04-15T0000,4189A,113.1131,36.19948,长治市,英华南巷50号,,41,41,34,12,7,62,,111,91,25,13,10,8,0.5,0.6
2025-04-15T0000,4190A,113.2367,36.3344,长治市,学府街1号,颗粒物(PM10),56,61,43,24,11,16,,114,78,69,14,38,9,1.1,0.5
2025-04-15T0000,1854A,111.6975,28.9703,常德市,市二中,颗粒物(PM10),123,195,222,74,76,60,,117,89,24,15,7,6,0.6,0.5
2025-04-15T0000,1857A,111.7158,29.1456,常德市,白鹤山,,,,,,,,,,,,,,,,
2025-04-15T0000,3138A,111.7153,29.0289,常德市,武陵区永安,颗粒物(PM10),142,233,255,64,77,84,,123,101,12,13,6,4,0.5,0.5
2025-04-15T0000,3139A,111.6892,28.9881,常德市,鼎城区玉霞,颗粒物(PM10),131,212,225,62,70,67,,119,92,18,12,5,3,0.6,0.5
2025-04-15T0000,3140A,111.6625,29.0531,常德市,武陵区长庚,颗粒物(PM10),136,222,241,65,79,79,,122,109,16,8,8,6,0.6,0.5
2025-04-15T0000,1196A,119.9633,31.762,常州市,市监测站,颗粒物(PM10),56,62,98,18,23,72,,126,104,41,23,8,8,0.6,0.6
2025-04-15T0000,1200A,119.9468,31.7069,常州市,武进监测站,颗粒物(PM10),54,58,95,10,26,71,,123,105,34,21,14,14,0.2,0.2
2025-04-15T0000,1201A,119.9255,31.9087,常州市,安家,颗粒物(PM10),62,73,99,14,20,25,,115,74,73,27,9,9,0.6,0.5
2025-04-15T0000,3002A,119.9805,31.8174,常州市,行政中心,,45,45,70,14,19,80,,118,99,28,20,14,16,0.4,0.4
2025-04-15T0000,3003A,120.0522,31.7748,常州市,经开区,颗粒物(PM10),65,79,110,14,18,83,,118,105,30,22,9,9,0.5,0.5
2025-04-15T0000,3010A,119.9025,31.7964,常州市,钟楼,颗粒物(PM10),57,64,95,14,22,60,,116,92,44,24,7,8,0.3,0.3
2025-04-15T0000,3429A,119.8598,31.7066,常州市,武进经发区,颗粒物(PM10),55,60,105,26,30,67,,121,103,31,16,10,9,0.8,0.7
2025-04-15T0000,3430A,119.5826,31.7245,常州市,金坛城区,颗粒物(PM10),51,52,104,18,31,69,,123,104,33,16,8,9,1.0,0.5
2025-04-15T0000,2220A,120.4318,41.5881,朝阳市,西梁,颗粒物(PM10),79,107,28,42,18,8,,92,41,42,17,14,13,0.8,0.5
2025-04-15T0000,2221A,120.4521,41.5646,朝阳市,河畔小区,,40,34,13,28,12,37,,98,65,18,9,7,8,0.8,0.6
2025-04-15T0000,2222A,120.4176,41.5648,朝阳市,八里堡,颗粒物(PM10),67,84,21,33,12,17,,96,52,48,17,9,8,0.9,0.7
2025-04-15T0000,2223A,120.3806,41.5969,朝阳市,农业园区,,36,,17,25,18,40,,98,50,22,17,9,8,0.6,0.6
2025-04-15T0000,1705A,116.6367,23.6719,潮州市,西园路,,,,,,,,,,,,,,,,
2025-04-15T0000,3026A,116.6183,23.6608,潮州市,市政府,颗粒物(PM10),110,170,148,57,45,47,,133,88,47,29,18,11,1.1,0.9
2025-04-15T0000,4036A,116.6461,23.6761,潮州市,金山,颗粒物(PM10),83,116,129,60,47,52,,116,77,30,22,7,9,0.6,0.5
2025-04-15T0000,2472A,113.0073,25.9061,郴州市,马头岭,颗粒物(PM10),112,174,190,45,36,35,,98,78,19,16,8,9,0.8,0.7
2025-04-15T0000,2473A,113.0116,25.8226,郴州市,市职中,颗粒物(PM10),103,155,168,52,49,10,,102,50,41,20,2,3,0.5,0.5
2025-04-15T0000,2475A,113.0383,25.8071,郴州市,市审计局,颗粒物(PM10),104,158,170,54,50,20,,108,68,50,21,5,5,0.5,0.5
2025-04-15T0000,2476A,113.0348,25.7759,郴州市,市环保局,颗粒物(PM10),113,176,195,59,57,8,,103,54,54,22,4,4,0.4,0.4
2025-04-15T0000,4252A,113.0138,25.8011,郴州市,好美居路49号,颗粒物(PM10),100,149,147,65,58,2,,103,48,56,25,3,3,0.7,0.5
2025-04-15T0000,1431A,103.9728,30.7236,成都市,金泉两河,颗粒物(PM10),82,113,118,32,36,0,,116,56,75,40,3,5,1.2,1
2025-04-15T0000,1432A,104.176,30.6872,成都市,十里店,颗粒物(PM10),130,209,155,62,48,5,,115,73,78,52,4,5,1.2,1
2025-04-15T0000,1433A,104.079,30.5706,成都市,三瓦窑,颗粒物(PM10),109,168,144,58,50,0,,112,64,99,66,6,6,1.2,0.9
2025-04-15T0000,1434A,104.1114,30.63,成都市,沙河铺,颗粒物(PM10),89,128,137,63,50,3,,92,50,73,53,6,6,1.7,1.2
2025-04-15T0000,1437A,104.0786,30.6531,成都市,君平街,颗粒物(PM10),100,150,124,69,55,10,,8,,104,61,8,10,1.3,1.1
2025-04-15T0000,1438A,103.613,31.0283,成都市,灵岩寺,,,,,,,,,,,,,,,,
2025-04-15T0000,2880A,104.0239,30.65639,成都市,大石西路,颗粒物(PM10),102,154,124,59,47,3,,111,59,96,59,5,6,1.5,0.9
2025-04-15T0000,3136A,104.2725,30.5589,成都市,龙泉驿区区政府,颗粒物(PM10),80,110,143,27,37,75,,109,89,20,26,4,4,0.6,0.6
2025-04-15T0000,3357A,104.0106,30.6931,成都市,金博路,颗粒物(PM10),87,124,118,42,40,1,,107,51,100,57,8,9,1.2,0.7
2025-04-15T0000,3359A,104.0578,30.5225,成都市,华阳,颗粒物(PM10),84,117,128,61,56,5,,112,68,97,60,7,7,1.8,1.2
2025-04-15T0000,3488A,104.3853,30.7453,成都市,青白江技师分院,颗粒物(PM10),84,117,152,38,52,52,,118,86,62,54,8,9,0.4,0.5
2025-04-15T0000,3489A,104.0789,30.4072,成都市,科学城,颗粒物(PM10),90,129,136,44,48,26,,114,84,58,34,5,5,0.4,0.4
2025-04-15T0000,4011A,103.8506,30.6947,成都市,光华大道三段,,,,110,,38,4,,122,,74,42,,3,,0.8
2025-04-15T0000,4224A,104.2433,30.5353,成都市,鲸龙路1057号,颗粒物(PM10),93,136,159,42,47,7,,123,70,84,54,4,5,0.7,0.6
2025-04-15T0000,1062A,117.9531,40.9081,承德市,铁路,细颗粒物(PM2.5),63,47,32,45,16,44,,114,66,11,8,6,7,0.3,0.3
2025-04-15T0000,1063A,117.9392,40.9763,承德市,中国银行,细颗粒物(PM2.5),67,63,30,48,15,27,,115,68,23,6,2,3,0.5,0.3
2025-04-15T0000,1064A,117.9503,40.928,承德市,开发区,,49,49,33,29,19,24,,113,67,28,8,7,7,0.5,0.3
2025-04-15T0000,1065A,117.8051,40.9655,承德市,文化中心,颗粒物(PM10),67,83,47,37,17,15,,113,56,42,11,4,6,0.4,0.3
2025-04-15T0000,1066A,117.9268,41.0026,承德市,离宫,细颗粒物(PM2.5),60,55,43,43,34,32,,66,46,13,8,12,17,0,0
2025-04-15T0000,2314A,117.47,30.6618,池州市,池州学院,颗粒物(PM10),60,69,142,27,51,57,,125,99,27,15,5,7,0.4,0.4
2025-04-15T0000,3237A,117.4918,30.6617,池州市,展览馆,,50,50,133,16,44,36,,126,92,27,14,4,7,0.4,0.4
2025-04-15T0000,3333A,117.5627,30.695,池州市,第八中学,颗粒物(PM10),58,65,141,19,39,80,,123,105,20,13,5,9,0.3,0.4
2025-04-15T0000,3334A,117.5038,30.6243,池州市,第十二中学,颗粒物(PM10),52,53,153,18,50,33,,129,76,48,19,6,8,0.7,0.7
2025-04-15T0000,1744A,118.9233,42.2816,赤峰市,松山一中,,32,28,22,22,9,62,,120,85,29,14,9,10,0.5,0.4
2025-04-15T0000,1745A,118.9576,42.2728,赤峰市,哈达街,,35,35,21,23,14,53,,109,76,27,14,11,11,0.7,0.5
2025-04-15T0000,1746A,118.8788,42.2554,赤峰市,天义路,,38,,19,26,17,36,,111,66,33,16,7,7,0.6,0.4
2025-04-15T0000,3058A,119.2658,42.0353,赤峰市,银河街,,36,35,24,25,17,49,,106,77,22,10,18,16,0.6,0.5
2025-04-15T0000,3286A,118.9359,42.3147,赤峰市,桥北物流园区,,35,28,20,24,22,38,,102,64,36,12,7,9,0.6,0.6
2025-04-15T0000,2521A,107.3476,22.4136,崇左市,市环保局江州分局,颗粒物(PM10),122,194,245,66,67,45,,147,100,31,20,5,7,0.5,0.4
2025-04-15T0000,4256A,107.3750,22.3736,崇左市,石景林东路7号,颗粒物(PM10),101,151,225,45,65,70,,152,,26,19,6,6,0.6,0.5
2025-04-15T0000,2298A,118.3093,32.3153,滁州市,老年大学,,50,50,76,15,28,84,,125,113,15,13,3,3,0.2,0.2
2025-04-15T0000,2299A,118.3244,32.2786,滁州市,人大宾馆,,45,45,91,17,25,89,,127,115,19,10,8,8,0.4,0.3
2025-04-15T0000,3207A,118.3118,32.3038,滁州市,市政府原办公楼,,39,39,74,18,23,93,,123,114,13,7,4,4,0.3,0.2
2025-04-15T0000,3331A,118.3267,32.2634,滁州市,图书馆,,40,40,77,16,24,94,,124,114,14,9,6,7,0.4,0.3
2025-04-15T0000,2605A,101.5482,25.0441,楚雄彝族自治州,州环境监测站,,31,31,38,6,25,93,,112,101,8,15,8,9,0.5,0.5
2025-04-15T0000,2606A,101.538,25.0492,楚雄彝族自治州,市经济开发区,"颗粒物(PM10),细颗粒物(PM2.5)",54,57,41,38,26,60,,112,92,30,16,7,8,0.8,0.6
2025-04-15T0000,2548A,107.5277,31.2827,达州市,达州职业技术学院,颗粒物(PM10),94,138,223,49,71,18,,108,59,43,28,5,7,0.8,0.5
2025-04-15T0000,2549A,107.5086,31.2186,达州市,市环境监测站,颗粒物(PM10),103,155,231,46,63,21,,112,62,57,36,4,7,0.6,0.6
2025-04-15T0000,2550A,107.4988,31.2132,达州市,凤凰小区,颗粒物(PM10),101,151,240,51,73,24,,112,61,58,36,7,9,0.4,0.4
2025-04-15T0000,2551A,107.5082,31.1986,达州市,达县机关宾馆,颗粒物(PM10),102,153,249,58,78,3,,106,38,67,39,5,7,0.4,0.4
2025-04-15T0000,2552A,107.4644,31.2124,达州市,市政中心,颗粒物(PM10),103,156,236,53,66,8,,116,60,72,39,2,4,0.6,0.5
2025-04-15T0000,2614A,100.1542,25.7054,大理白族自治州,大理市环境监测站,,32,32,23,22,16,100,,115,105,10,12,7,7,0.6,0.7
2025-04-15T0000,2615A,100.2171,25.5811,大理白族自治州,大理古城,,38,38,26,24,18,67,,112,90,22,14,7,7,0.6,0.5
2025-04-15T0000,1109A,121.612,38.9741,大连市,甘井子,,29,,16,20,12,66,,93,85,22,13,5,5,0.4,0.4
2025-04-15T0000,1110A,121.565,38.9511,大连市,周水子,,30,24,18,21,12,48,,79,70,23,11,7,6,0.3,0.3
2025-04-15T0000,1111A,121.5637,38.8845,大连市,星海三站,,28,21,19,19,14,70,,88,83,8,5,6,7,0.4,0.3
2025-04-15T0000,1112A,121.6302,38.9117,大连市,青泥洼桥,,33,32,20,23,12,62,,89,81,22,13,9,8,0.5,0.4
2025-04-15T0000,1113A,121.6251,38.8638,大连市,傅家庄,,26,21,17,18,11,65,,84,78,19,14,6,6,0.3,0.3
2025-04-15T0000,1114A,121.5213,38.8661,大连市,七贤岭,,25,21,16,17,13,68,,86,82,18,14,4,5,0.1,0.2
2025-04-15T0000,1115A,121.2529,38.8061,大连市,旅顺,,22,13,14,13,10,70,,80,75,10,10,6,6,0.5,0.5
2025-04-15T0000,1116A,121.7485,39.1311,大连市,金州,,27,27,21,15,15,68,,88,80,19,14,7,7,0.5,0.4
2025-04-15T0000,1117A,121.7811,39.0496,大连市,开发区,,23,19,17,16,13,59,,82,75,17,10,7,8,0.7,0.6
2025-04-15T0000,1118A,121.9762,39.0631,大连市,双D港,,23,,14,16,15,69,,92,85,8,5,8,8,0.4,0.4
2025-04-15T0000,1789A,124.81117,46.03138,大庆市,大同区,,36,28,21,25,22,43,,62,44,10,11,4,4,0.4,0.5
2025-04-15T0000,1790A,125.129,46.533,大庆市,龙凤区,,35,35,31,15,18,26,,67,37,32,16,7,5,0.9,0.5
2025-04-15T0000,1791A,124.902,46.408,大庆市,红岗区,,39,,20,27,23,49,,67,45,11,14,7,8,0.5,0.4
2025-04-15T0000,1792A,125.153,46.586,大庆市,萨尔图区,,34,34,26,15,14,42,,64,38,19,17,7,7,0.7,0.5
2025-04-15T0000,1793A,124.9042,46.6215,大庆市,让胡路区,,35,,20,24,21,44,,59,36,12,17,5,5,0.3,0.3
2025-04-15T0000,3481A,125.141,46.634,大庆市,萨区政府监测点,,27,27,25,14,8,31,,62,35,22,12,5,5,0.5,0.4
2025-04-15T0000,1721A,113.3819,40.1097,大同市,果树场,,29,29,17,8,9,52,,96,68,22,12,10,10,0.4,0.4
2025-04-15T0000,1723A,113.2994,40.0758,大同市,云冈宾馆,颗粒物(PM10),51,51,22,16,8,16,,101,84,70,11,17,9,0.7,0.4
2025-04-15T0000,1724A,113.3444,40.0917,大同市,大同大学,,41,41,31,16,11,60,,94,80,18,8,18,11,0.5,0.5
2025-04-15T0000,1725A,113.2661,40.1269,大同市,安家小村,,39,39,14,13,6,40,,100,87,35,5,16,11,1.6,0.4
2025-04-15T0000,1726A,113.2711,40.0844,大同市,教育学院,,28,28,19,16,9,47,,98,85,31,10,14,9,0.6,0.3
2025-04-15T0000,3282A,113.3397,40.0597,大同市,大同市卫生学校,,32,32,18,14,9,49,,97,85,36,11,12,7,0.7,0.5
2025-04-15T0000,3565A,113.1367,40.1122,大同市,云冈站,,38,38,19,19,7,25,,95,68,40,13,16,12,0.4,0.4
2025-04-15T0000,3566A,113.1186,40.2556,大同市,图书馆,,30,30,19,13,10,40,,84,66,12,8,9,10,0.4,0.6
2025-04-15T0000,3567A,113.5931,40.0461,大同市,区一中,,24,22,22,7,10,74,,100,94,11,5,16,15,0.4,0.4
2025-04-15T0000,4199A,113.2798,40.0997,大同市,魏都大道141号,,32,32,22,12,11,42,,103,86,45,11,17,12,0.6,0.4
2025-04-15T0000,2269A,124.1069,50.4097,大兴安岭地区,科技局,,26,20,19,18,16,72,,96,91,8,5,5,3,0.3,0.2
2025-04-15T0000,3663A,124.1164,50.4278,大兴安岭地区,红旗社区,,22,6,8,3,7,69,,97,92,5,10,5,4,0.3,0.3
2025-04-15T0000,1600A,124.3303,40.0625,丹东市,江湾东路,,32,,14,22,11,78,,87,84,12,8,9,8,0.4,0.2
2025-04-15T0000,1601A,124.4256,40.1503,丹东市,临江后街,,32,26,16,22,11,64,,84,76,14,9,5,5,0.7,0.6
2025-04-15T0000,1602A,124.3933,40.1461,丹东市,元宝山,,22,18,13,12,8,70,,79,77,10,9,6,6,0.5,0.4
2025-04-15T0000,1603A,124.3633,40.1092,丹东市,民主桥,,30,25,20,21,11,66,,81,77,16,12,8,8,0.5,0.6
2025-04-15T0000,3541A,109.5726,19.5167,儋州市,第一中学子站,颗粒物(PM10),144,237,270,75,69,86,,132,118,15,11,7,5,0.5,0.6
2025-04-15T0000,3542A,109.5567,19.5187,儋州市,东坡学校子站,颗粒物(PM10),143,235,242,74,70,81,,133,117,13,9,6,7,0.5,0.4
2025-04-15T0000,2616A,98.5842,24.428,德宏傣族景颇族自治州,德宏州监测站,细颗粒物(PM2.5),54,55,39,38,24,46,,109,79,21,20,7,8,0.7,0.5
2025-04-15T0000,3677A,98.5881,24.4368,德宏傣族景颇族自治州,芒市人民政府综合楼,颗粒物(PM10),59,68,47,35,24,60,,119,91,15,14,7,7,0.6,0.6
2025-04-15T0000,1901A,104.4239,31.1208,德阳市,东山公园,颗粒物(PM10),113,175,168,61,58,86,,128,103,28,31,6,13,0.7,0.6
2025-04-15T0000,1902A,104.3826,31.1317,德阳市,西小区,颗粒物(PM10),110,169,167,68,64,32,,123,92,72,52,7,13,0.9,0.8
2025-04-15T0000,1904A,104.3553,31.1091,德阳市,耐火材料厂,颗粒物(PM10),109,167,165,69,64,35,,129,90,62,50,9,16,0.7,0.7
2025-04-15T0000,3639A,104.4019,31.1244,德阳市,市教育局,颗粒物(PM10),103,155,154,62,59,53,,130,94,56,47,7,11,0.9,0.9
2025-04-15T0000,1622A,116.3032,37.4674,德州市,儿童乐园,细颗粒物(PM2.5),55,53,68,39,25,96,,133,117,24,13,6,5,0.5,0.4
2025-04-15T0000,1624A,116.2991,37.4451,德州市,监理站,颗粒物(PM10),57,63,67,34,22,52,,137,102,60,22,4,6,0.5,0.4
2025-04-15T0000,3066A,116.2721,37.4379,德州市,九衢泉纯净水厂,细颗粒物(PM2.5),55,58,76,39,27,29,,132,78,86,31,8,15,0.7,0.6
2025-04-15T0000,3371A,116.3728,37.4403,德州市,开发区人民医院,颗粒物(PM10),53,56,67,19,27,86,,130,108,25,12,7,6,0.6,0.6
2025-04-15T0000,3372A,116.3572,37.4094,德州市,太阳城中学,颗粒物(PM10),67,83,67,44,27,59,,135,99,52,16,5,4,0.6,0.5
2025-04-15T0000,3511A,116.5652,37.3319,德州市,陵城艺术中心,颗粒物(PM10),52,53,75,31,17,83,,130,108,26,14,6,3,0.6,0.5
2025-04-15T0000,2621A,99.7056,27.8317,迪庆藏族自治州,迪庆州站,,38,38,30,18,14,107,,126,120,12,10,9,9,0.5,0.5
2025-04-15T0000,3180A,99.7136,27.8094,迪庆藏族自治州,质量技术监督局,,33,23,26,14,13,103,,126,119,16,12,10,10,0.7,0.7
2025-04-15T0000,4257A,104.6092,35.5962,定西市,将台街,,50,50,80,23,29,25,,112,86,51,20,6,6,0.3,0.1
2025-04-15T0000,4309A,104.6159,35.5701,定西市,正龙路62号,,42,42,82,20,29,69,,114,100,14,8,8,10,0.3,0.3
2025-04-15T0000,1389A,113.7547,23.0494,东莞市,莞城梨川,颗粒物(PM10),183,316,347,94,88,36,,192,150,94,58,7,10,0.9,0.7
2025-04-15T0000,1390A,113.7944,23.0128,东莞市,东城石井,颗粒物(PM10),131,211,288,72,97,85,,168,137,42,53,7,10,0.7,0.8
2025-04-15T0000,1391A,113.7383,22.9658,东莞市,南城西平,颗粒物(PM10),162,274,295,70,83,112,,186,168,45,53,10,11,0.7,0.6
2025-04-15T0000,3319A,113.7338,23.0381,东莞市,万江金泰,颗粒物(PM10),169,288,309,96,101,27,,181,140,107,64,14,19,0.9,0.8
2025-04-15T0000,3626A,113.7533,23.0202,东莞市,南城元岭,颗粒物(PM10),158,265,312,81,88,32,,163,125,93,60,9,14,0.9,0.7
2025-04-15T0000,3627A,113.7875,23.0457,东莞市,东城主山,颗粒物(PM10),166,281,306,88,86,32,,174,147,125,63,7,8,0.8,0.6
2025-04-15T0000,1666A,118.6614,37.4309,东营市,市环保局,,27,19,55,3,8,85,,126,105,8,8,4,6,0.3,0.3
2025-04-15T0000,3036A,118.6904,37.4338,东营市,开发区管委会,,25,16,65,3,17,78,,114,100,15,14,2,5,0.5,0.5
2025-04-15T0000,3365A,118.5719,37.565,东营市,垦利区民丰路,,22,19,58,3,12,68,,123,93,21,11,11,10,0.4,0.4
2025-04-15T0000,3498A,118.5055,37.8612,东营市,河口城区,,24,9,54,3,11,75,,127,98,12,12,4,4,0.9,0.8
2025-04-15T0000,3646A,118.4978,37.4623,东营市,胜利站,,25,25,68,7,11,72,,129,102,21,14,8,9,0.8,0.6
2025-04-15T0000,3734A,118.35,37.26,东营市,理想之城,,21,17,64,9,15,67,,130,96,19,13,4,6,0.4,0.4
2025-04-15T0000,1591A,110.0023,39.8129,鄂尔多斯市,综合楼,,34,34,33,7,6,82,,102,89,27,19,5,6,0.2,0.2
2025-04-15T0000,1592A,109.9486,39.8261,鄂尔多斯市,巴音孟克林场办事处,,36,36,32,19,14,83,,104,90,16,20,6,7,0.3,0.2
2025-04-15T0000,1593A,109.7736,39.5986,鄂尔多斯市,康泽苑,,29,29,25,12,16,76,,103,94,9,7,5,4,0.2,0.2
2025-04-15T0000,1594A,109.8119,39.5989,鄂尔多斯市,华泰汽车城,,27,27,27,12,8,53,,97,77,27,14,4,4,0.4,0.3
2025-04-15T0000,1595A,109.9734,39.7884,鄂尔多斯市,奥林花园,,39,39,35,7,8,59,,104,91,42,19,5,6,0.4,0.4
2025-04-15T0000,2436A,114.8938,30.3994,鄂州市,市政府,颗粒物(PM10),60,69,129,19,39,104,,106,99,11,21,6,9,0.6,0.8
2025-04-15T0000,2437A,114.8989,30.3714,鄂州市,赵家坝,颗粒物(PM10),65,79,162,9,33,115,,128,117,14,20,4,7,0.5,0.9
2025-04-15T0000,3654A,114.8094,30.4089,鄂州市,精准医疗中心,颗粒物(PM10),64,78,153,22,39,103,,129,106,17,15,16,5,1.0,0.5
2025-04-15T0000,2454A,109.4978,30.2981,恩施土家族苗族自治州,湖北民院,颗粒物(PM10),75,100,170,35,56,36,,113,79,29,12,6,6,0.1,0.1
2025-04-15T0000,2455A,109.4707,30.2798,恩施土家族苗族自治州,州电力总公司,颗粒物(PM10),77,103,152,50,55,10,,104,61,56,24,5,5,0.6,0.5
2025-04-15T0000,3549A,109.5061,30.3772,恩施土家族苗族自治州,龙凤新区,颗粒物(PM10),69,87,146,35,47,39,,101,70,18,13,6,6,0.4,0.3
2025-04-15T0000,2499A,108.3411,21.6158,防城港市,沙万,颗粒物(PM10),111,172,217,62,70,58,,121,94,50,22,5,6,0.8,0.5
2025-04-15T0000,2500A,108.3514,21.7731,防城港市,防城档案局,颗粒物(PM10),133,215,257,65,68,76,,120,110,12,21,3,5,0.5,0.4
2025-04-15T0000,2501A,108.3506,21.6414,防城港市,大海花园,颗粒物(PM10),127,203,249,57,62,101,,141,130,17,18,3,8,0.8,0.6
2025-04-15T0000,1371A,113.1294,23.0067,佛山市,湾梁,颗粒物(PM10),123,195,270,65,72,29,,126,93,90,46,8,12,0.9,0.6
2025-04-15T0000,1372A,113.1083,23.0478,佛山市,华材职中,颗粒物(PM10),124,197,267,82,83,48,,131,85,71,51,8,10,0.9,0.5
2025-04-15T0000,1373A,113.144,23.0453,佛山市,南海气象局,颗粒物(PM10),132,213,272,71,76,32,,141,92,97,49,8,11,0.9,0.6
2025-04-15T0000,1374A,113.2881,22.8094,佛山市,顺德苏岗,颗粒物(PM10),118,185,268,73,73,24,,126,84,73,46,7,10,1.0,0.7
2025-04-15T0000,1376A,112.8383,22.8678,佛山市,高明孔堂,颗粒物(PM10),109,167,264,55,66,84,,132,117,28,23,8,9,0.5,0.5
2025-04-15T0000,1377A,112.8836,23.1588,佛山市,三水监测站,颗粒物(PM10),156,261,295,92,87,7,,96,55,115,62,10,8,0.6,0.4
2025-04-15T0000,1378A,112.867,23.185,佛山市,三水云东海,颗粒物(PM10),122,193,234,75,74,16,,105,74,100,47,8,5,0.7,0.5
2025-04-15T0000,3625A,113.2544,22.7642,佛山市,容桂街道办,颗粒物(PM10),161,271,286,97,78,3,,128,83,148,59,10,11,1.4,0.6
2025-04-15T0000,1280A,119.3903,26.0543,福州市,鼓山,,,,138,,36,,,126,,,5,,2,,0.2
2025-04-15T0000,1282A,119.2681,26.0504,福州市,师大,颗粒物(PM10),107,164,134,76,46,31,,111,82,60,25,4,6,0.5,0.3
2025-04-15T0000,1283A,119.2984,26.1028,福州市,五四北路,颗粒物(PM10),109,168,143,66,50,24,,106,59,50,25,4,5,0.6,0.5
2025-04-15T0000,1284A,119.2648,26.0768,福州市,杨桥西路,颗粒物(PM10),129,208,170,63,45,27,,108,69,47,21,4,5,0.4,0.3
2025-04-15T0000,1285A,119.317,26.0746,福州市,紫阳,颗粒物(PM10),108,166,153,79,49,39,,98,80,72,32,6,7,0.7,0.4
2025-04-15T0000,3048A,119.5799,26.0936,福州市,九龙,颗粒物(PM10),103,155,135,49,44,75,,125,116,17,18,6,5,0.3,0.3
2025-04-15T0000,3526A,119.5189,25.9664,福州市,吴航,颗粒物(PM10),85,119,114,48,39,62,,149,134,36,21,5,6,0.4,0.3
2025-04-15T0000,1755A,123.7977,41.8491,抚顺市,望花区,,46,,24,32,19,29,,96,71,34,14,7,7,0.6,0.5
2025-04-15T0000,1756A,123.9161,41.8822,抚顺市,顺城区,颗粒物(PM10),51,52,26,33,17,9,,94,56,47,17,7,7,0.9,0.6
2025-04-15T0000,1757A,124.0436,41.8611,抚顺市,东洲区,颗粒物(PM10),52,54,26,34,18,37,,89,66,25,14,2,5,0.6,0.5
2025-04-15T0000,1758A,123.9247,41.8642,抚顺市,新抚区,,46,46,25,32,16,14,,86,58,40,16,5,6,0.7,0.6
2025-04-15T0000,1759A,124.0972,41.8961,抚顺市,大伙房水库,,29,29,19,20,15,49,,90,71,11,11,7,7,0.5,0.5
2025-04-15T0000,1760A,123.7086,41.8391,抚顺市,沈抚新城,,36,36,24,24,19,16,,92,60,48,18,7,6,0.7,0.7
2025-04-15T0000,2376A,116.2127,28.0814,抚州市,桐源党溪,颗粒物(PM10),126,202,180,36,45,73,,115,88,3,3,6,8,0.5,0.5
2025-04-15T0000,2377A,116.3544,27.9831,抚州市,市站,颗粒物(PM10),112,174,178,47,42,42,,94,70,52,13,6,8,1.0,1
2025-04-15T0000,2378A,116.3565,27.963,抚州市,血防站,颗粒物(PM10),105,160,163,43,42,68,,102,87,18,9,11,11,1.4,1.2
2025-04-15T0000,2379A,116.3564,28.0007,抚州市,采茶剧团,颗粒物(PM10),114,177,177,54,44,62,,101,82,20,8,4,4,1.1,1
2025-04-15T0000,2380A,116.385,27.9647,抚州市,医学分院,,,,172,,39,,,100,,17,11,3,4,0.8,0.7
2025-04-15T0000,2207A,121.6094,41.998,阜新市,工业园区,细颗粒物(PM2.5),73,,13,53,17,7,,85,32,50,19,9,7,0.9,0.4
2025-04-15T0000,2208A,121.6697,42.0279,阜新市,长青街,细颗粒物(PM2.5),54,,11,38,9,9,,84,33,34,12,5,4,0.9,0.6
2025-04-15T0000,2209A,121.6673,42.0705,阜新市,农业园区,,25,17,8,17,5,38,,83,54,20,6,6,7,0.9,0.9
2025-04-15T0000,2210A,121.6717,42.0224,阜新市,东苑,细颗粒物(PM2.5),60,,15,43,16,12,,81,34,46,16,16,7,0.9,0.7
2025-04-15T0000,2211A,121.6506,42.0498,阜新市,玉龙新城,细颗粒物(PM2.5),53,38,11,37,13,3,,83,29,46,15,8,8,1.1,0.5
2025-04-15T0000,2301A,115.8277,32.8929,阜阳市,市监测站,颗粒物(PM10),56,61,62,39,26,21,,119,82,57,17,7,7,0.6,0.3
2025-04-15T0000,2303A,115.8554,32.8605,阜阳市,开发区,颗粒物(PM10),70,90,87,37,20,66,,124,98,35,18,7,7,0.5,0.4
2025-04-15T0000,2875A,115.784,32.8892,阜阳市,阜阳职业技术学院,颗粒物(PM10),57,63,69,27,18,63,,121,88,36,18,8,8,0.3,0.2
2025-04-15T0000,3468A,115.7901,32.8613,阜阳市,市规划展馆,颗粒物(PM10),56,61,66,37,21,76,,125,106,25,11,7,7,0.6,0.5
2025-04-15T0000,3469A,115.836,32.9183,阜阳市,枣园社区,颗粒物(PM10),74,98,68,35,20,9,,128,82,88,25,5,6,0.6,0.3
2025-04-15T0000,2669A,102.9099,34.9841,甘南藏族自治州,州政府,颗粒物(PM10),85,120,65,34,24,20,,103,84,59,22,9,8,0.6,0.4
2025-04-15T0000,3380A,102.8914,34.9617,甘南藏族自治州,甘肃民族师范学院,颗粒物(PM10),125,200,85,41,22,8,,110,76,70,28,8,12,0.6,0.5
2025-04-15T0000,2570A,101.9603,30.0475,甘孜藏族自治州,水桥子,,14,,8,6,14,44,,80,55,18,23,4,4,0.1,0.1
2025-04-15T0000,3065A,101.9533,29.9972,甘孜藏族自治州,州环保局,,14,14,25,3,5,37,,86,61,28,21,1,1,0.2,0.2
2025-04-15T0000,3414A,115.8347,28.932,赣江新区,桑海产业园,颗粒物(PM10),73,95,204,22,44,84,,106,101,23,17,6,8,0.3,0.3
2025-04-15T0000,2362A,114.9017,25.9149,赣州市,通天岩,颗粒物(PM10),85,119,194,12,17,66,,120,82,3,5,32,31,1.4,1.4
2025-04-15T0000,2363A,114.9367,25.8664,赣州市,地委,颗粒物(PM10),104,158,163,50,48,,,91,56,62,27,8,2,0.8,1
2025-04-15T0000,2364A,114.9461,25.8481,赣州市,气象台,颗粒物(PM10),108,165,175,48,46,11,,108,53,62,35,8,11,0.8,0.7
2025-04-15T0000,2365A,114.9322,25.8333,赣州市,市图书馆,颗粒物(PM10),118,185,198,56,53,6,,108,43,63,36,5,6,0.9,0.7
2025-04-15T0000,2366A,114.8905,25.8471,赣州市,华坚鞋城,颗粒物(PM10),116,182,210,47,50,38,,118,57,42,31,13,13,0.4,0.4
2025-04-15T0000,3109A,115.0093,25.8613,赣州市,赣县区卫计委,颗粒物(PM10),95,140,175,48,54,15,,100,50,50,23,4,5,0.3,0.3
2025-04-15T0000,2683A,106.2319,36.1417,固原市,马园,颗粒物(PM10),63,76,53,21,21,7,,79,37,66,24,6,6,0.6,0.6
2025-04-15T0000,2684A,106.2792,36.0022,固原市,监测站,,46,46,40,18,26,43,,102,76,39,13,4,4,0.3,0.3
2025-04-15T0000,2685A,106.2375,36.0211,固原市,新区,,30,30,41,11,22,70,,99,67,17,17,6,6,0.3,0.3
2025-04-15T0000,3522A,106.2177,35.9959,固原市,原州区十五小,,37,37,49,16,18,79,,101,74,12,10,7,7,0.2,0.2
2025-04-15T0000,2543A,106.6308,30.5278,广安市,小平旧居,,,,,,,,,,,,,,,,
2025-04-15T0000,2544A,106.6303,30.4576,广安市,市委,颗粒物(PM10),137,223,281,77,87,30,,129,85,50,30,10,10,0.7,0.5
2025-04-15T0000,2545A,106.6271,30.4663,广安市,友谊中学,颗粒物(PM10),131,212,256,74,77,30,,123,70,44,29,5,5,0.7,0.5
2025-04-15T0000,2547A,106.6388,30.4551,广安市,广电花园,颗粒物(PM10),135,220,269,85,83,11,,122,78,67,29,4,6,0.8,0.5
2025-04-15T0000,2902A,106.6351,30.4865,广安市,北辰小学,颗粒物(PM10),143,235,287,86,79,38,,114,82,29,23,11,10,0.7,0.6
2025-04-15T0000,2523A,105.8945,32.4535,广元市,黑石坡,细颗粒物(PM2.5),147,174,140,112,64,121,,110,110,9,12,2,3,0.3,0.3
2025-04-15T0000,2524A,105.821,32.4444,广元市,老城,颗粒物(PM10),120,190,139,68,99,21,,101,77,72,30,1,3,0.7,0.7
2025-04-15T0000,2526A,105.8628,32.4287,广元市,监测站,颗粒物(PM10),90,130,112,44,49,85,,103,100,16,15,9,8,0.4,0.4
2025-04-15T0000,3617A,105.8047,32.4166,广元市,经开区,颗粒物(PM10),107,164,144,56,56,22,,100,78,77,35,4,7,0.5,0.5
2025-04-15T0000,1345A,113.2347,23.1423,广州市,广雅中学,颗粒物(PM10),152,253,299,106,84,5,,159,75,126,62,6,8,1.4,0.6
2025-04-15T0000,1346A,113.2612,23.105,广州市,市五中,颗粒物(PM10),145,239,290,103,90,6,,164,72,116,52,3,4,1.5,0.8
2025-04-15T0000,1348A,113.3478,23.0916,广州市,广东商学院,颗粒物(PM10),163,276,286,120,109,4,,172,85,125,60,6,6,1.1,0.5
2025-04-15T0000,1349A,113.4332,23.1047,广州市,市八十六中,颗粒物(PM10),202,351,310,112,92,5,,163,73,143,85,7,7,1.5,0.9
2025-04-15T0000,1350A,113.3505,22.9483,广州市,番禺中学,细颗粒物(PM2.5),176,282,312,133,93,9,,156,87,112,60,6,8,1.3,0.6
2025-04-15T0000,1351A,113.2146,23.3916,广州市,花都师范,颗粒物(PM10),155,260,284,92,80,27,,145,89,97,56,9,9,0.8,0.6
2025-04-15T0000,1352A,113.2597,23.1331,广州市,市监测站,颗粒物(PM10),125,199,290,94,85,5,,166,86,132,61,6,8,1.4,0.6
2025-04-15T0000,1353A,113.5618,23.312,广州市,九龙镇镇龙,颗粒物(PM10),127,204,257,81,81,4,,146,96,88,39,5,6,0.7,0.6
2025-04-15T0000,1354A,113.2765,23.1544,广州市,麓湖,颗粒物(PM10),122,193,253,69,75,5,,163,77,121,60,6,7,0.7,0.5
2025-04-15T0000,1355A,113.443,23.3035,广州市,帽峰山森林公园,颗粒物(PM10),111,171,232,44,64,118,,166,151,15,26,10,9,0.3,0.3
2025-04-15T0000,2846A,113.3221,23.1322,广州市,体育西,颗粒物(PM10),138,226,292,98,84,6,,168,82,117,53,6,8,1.3,0.6
2025-04-15T0000,3298A,113.5717,23.5491,广州市,从化街口,颗粒物(PM10),131,212,246,76,76,20,,154,112,59,32,9,11,0.9,0.7
2025-04-15T0000,3299A,113.3472,23.3692,广州市,白云竹料,颗粒物(PM10),162,274,289,93,82,4,,159,84,108,52,4,6,0.9,0.6
2025-04-15T0000,3300A,113.2981,23.237,广州市,白云嘉禾,颗粒物(PM10),125,200,293,59,76,42,,146,70,72,72,6,8,0.6,0.5
2025-04-15T0000,3301A,113.4256,23.1716,广州市,黄埔科学城,颗粒物(PM10),124,197,248,70,77,11,,159,99,83,46,7,9,0.5,0.4
2025-04-15T0000,3302A,113.3942,23.0483,广州市,番禺大学城,颗粒物(PM10),164,277,283,100,87,2,,196,117,134,60,12,10,0.9,0.6
2025-04-15T0000,3303A,113.4922,22.8168,广州市,南沙黄阁,颗粒物(PM10),150,249,320,86,89,43,,155,114,75,57,7,8,1.1,0.8
2025-04-15T0000,3304A,113.5342,22.7896,广州市,南沙街,颗粒物(PM10),153,256,312,83,87,79,,162,136,52,45,6,7,0.8,0.6
2025-04-15T0000,3443A,113.2902,23.5544,广州市,花都梯面,颗粒物(PM10),106,161,211,60,69,4,,138,62,68,40,5,7,0.6,0.5
2025-04-15T0000,3445A,113.7858,23.7478,广州市,从化良口,颗粒物(PM10),89,128,189,40,62,71,,119,100,14,10,6,7,0.4,0.3
2025-04-15T0000,3446A,113.8051,23.2614,广州市,增城荔城,颗粒物(PM10),129,207,256,65,77,57,,153,111,43,26,8,9,0.6,0.4
2025-04-15T0000,2505A,109.568,23.1478,贵港市,德智高中,,,,,,,,,,,,,,,,
2025-04-15T0000,2506A,109.6047,23.0666,贵港市,江南子站,颗粒物(PM10),180,310,348,97,92,64,,150,123,44,35,5,5,0.5,0.6
2025-04-15T0000,2508A,109.5669,23.1065,贵港市,荷城子站,颗粒物(PM10),156,262,308,75,79,59,,126,90,43,31,6,6,0.4,0.4
2025-04-15T0000,3405A,109.5886,23.1172,贵港市,新世纪学校,颗粒物(PM10),141,232,298,74,80,48,,125,93,54,28,6,7,0.9,0.8
2025-04-15T0000,4260A,109.5933,23.0951,贵港市,中山路155-3号,颗粒物(PM10),154,257,305,97,95,57,,143,113,52,33,7,8,0.7,0.6
2025-04-15T0000,1439A,106.6899,26.5998,贵阳市,马鞍山,颗粒物(PM10),70,90,127,36,40,42,,130,89,33,23,6,7,0.4,0.3
2025-04-15T0000,1441A,106.6243,26.6266,贵阳市,鉴湖路,颗粒物(PM10),82,114,156,36,43,75,,137,115,33,17,13,15,0.5,0.4
2025-04-15T0000,1442A,106.7487,26.6343,贵阳市,燕子冲,颗粒物(PM10),75,100,135,39,50,44,,130,94,42,30,1,12,0.3,0.3
2025-04-15T0000,1443A,106.6555,26.4365,贵阳市,碧云窝,颗粒物(PM10),78,105,150,41,44,38,,138,99,28,21,7,12,0.5,0.4
2025-04-15T0000,1445A,106.7109,26.6027,贵阳市,红边门,颗粒物(PM10),82,114,152,44,54,36,,128,70,62,48,9,11,0.3,0.3
2025-04-15T0000,1446A,106.7164,26.5699,贵阳市,新华路,颗粒物(PM10),95,139,161,51,51,12,,130,65,72,40,6,20,0.7,0.5
2025-04-15T0000,1447A,106.674,26.5424,贵阳市,太慈桥,颗粒物(PM10),80,110,136,48,42,36,,128,79,52,32,8,10,0.6,0.5
2025-04-15T0000,1552A,106.805,26.3003,贵阳市,桐木岭,细颗粒物(PM2.5),85,92,167,63,60,92,,128,110,3,4,3,5,0.5,0.5
2025-04-15T0000,4230A,106.6882,26.5695,贵阳市,花果园大街66号,颗粒物(PM10),85,119,151,57,62,52,,131,111,61,38,9,10,0.9,0.5
2025-04-15T0000,4231A,106.6873,26.5169,贵阳市,漓江路57号,颗粒物(PM10),87,124,143,53,50,8,,136,88,88,39,13,13,0.9,0.6
2025-04-15T0000,1862A,110.4144,25.3167,桂林市,电子科大尧山校区,,,,,,,,,,,,,,,,
2025-04-15T0000,1864A,110.3089,25.2708,桂林市,龙隐路小学,颗粒物(PM10),105,160,242,74,83,34,,123,72,37,20,10,9,0.7,0.4
2025-04-15T0000,1865A,110.2869,25.2178,桂林市,八中,颗粒物(PM10),104,158,263,66,79,17,,116,57,44,29,9,10,1.0,0.9
2025-04-15T0000,3531A,110.296,25.1253,桂林市,旅游学院,颗粒物(PM10),98,146,221,58,66,17,,116,74,47,21,2,2,0.7,0.6
2025-04-15T0000,4222A,110.1835,25.2444,桂林市,环湖路276号,颗粒物(PM10),106,161,238,61,72,7,,103,54,60,32,13,9,0.6,0.5
2025-04-15T0000,4301A,110.2803,25.2773,桂林市,信义路13号,颗粒物(PM10),116,182,254,79,80,6,,134,65,73,28,9,8,0.9,0.5
2025-04-15T0000,2674A,100.2561,34.4714,果洛藏族自治州,玛沁县大武镇,,38,38,32,20,14,105,,120,114,1,4,15,16,0.4,0.4
2025-04-15T0000,1129A,126.5422,45.755,哈尔滨市,岭北,,29,21,17,20,12,59,,95,75,11,13,16,14,0.8,0.7
2025-04-15T0000,1130A,126.561,45.8167,哈尔滨市,松北商大,,22,21,19,12,11,68,,93,70,10,15,9,9,0.7,0.7
2025-04-15T0000,1131A,126.979,45.5419,哈尔滨市,阿城会宁,,50,38,29,35,19,35,,95,59,25,15,2,7,0.6,0.5
2025-04-15T0000,1132A,126.599,45.7222,哈尔滨市,南岗学府路,,32,32,26,10,8,61,,86,71,14,16,6,7,0.4,0.6
2025-04-15T0000,1133A,126.689,45.7733,哈尔滨市,太平宏伟公园,,30,,20,21,16,66,,93,79,12,14,4,4,0.6,0.5
2025-04-15T0000,1134A,126.635,45.7667,哈尔滨市,道外承德广场,,38,38,22,19,16,65,,91,77,12,14,5,6,0.3,0.4
2025-04-15T0000,1135A,126.685,45.7319,哈尔滨市,香坊红旗大街,,33,,20,23,16,72,,94,83,15,16,7,8,0.5,0.5
2025-04-15T0000,1136A,126.6411,45.7258,哈尔滨市,动力和平路,,20,18,28,13,13,64,,87,73,12,14,8,8,0.6,0.5
2025-04-15T0000,1137A,126.593,45.7478,哈尔滨市,道里建国路,,21,14,18,14,13,66,,90,75,11,16,2,4,0.6,0.6
2025-04-15T0000,1138A,126.615,45.61,哈尔滨市,平房东轻厂,,22,,23,15,16,34,,90,52,22,20,7,9,0.6,0.5
2025-04-15T0000,1139A,126.595,45.9855,哈尔滨市,呼兰师专,,22,21,14,15,13,47,,86,63,13,12,6,6,0.5,0.4
2025-04-15T0000,1140A,126.6206,45.6842,哈尔滨市,省农科院,,34,34,28,22,17,55,,91,62,19,19,9,9,0.8,0.6
2025-04-15T0000,2688A,93.5128,42.8172,哈密市,地区监测站,颗粒物(PM10),415,515,248,168,76,63,,87,77,12,16,11,7,0.1,0.3
2025-04-15T0000,2689A,93.4961,42.8328,哈密市,哈密师范学校,颗粒物(PM10),375,480,202,122,55,42,,89,68,28,23,8,6,0.4,0.4
2025-04-15T0000,2671A,100.9048,36.9639,海北藏族自治州,海晏县西海镇,,45,45,28,29,16,78,,116,104,17,6,16,10,0.5,0.4
2025-04-15T0000,3867A,102.0738,36.5056,海东市,平安区公安北苑,,42,42,50,20,18,79,,109,97,5,12,4,5,0.7,0.7
2025-04-15T0000,1409A,110.576,19.9507,海口市,东寨港,颗粒物(PM10),142,234,247,70,67,60,,122,90,19,10,7,10,0.6,0.5
2025-04-15T0000,1410A,110.3232,20.0574,海口市,海南大学,颗粒物(PM10),169,287,295,67,70,112,,135,128,17,12,3,3,0.3,0.3
2025-04-15T0000,1411A,110.283,20.0053,海口市,秀英海南医院,颗粒物(PM10),171,291,290,64,68,105,,126,118,15,17,5,6,0.2,0.2
2025-04-15T0000,1412A,110.338,19.9969,海口市,海南师范大学,颗粒物(PM10),167,283,291,74,74,105,,135,122,17,11,4,5,0.3,0.3
2025-04-15T0000,1413A,110.33,20.0356,海口市,龙华路环保局宿舍,颗粒物(PM10),158,266,280,71,72,104,,131,124,20,10,5,5,0.3,0.3
2025-04-15T0000,3539A,110.5111,19.9736,海口市,桂林洋子站,颗粒物(PM10),164,278,291,76,75,71,,138,110,30,14,4,5,0.4,0.3
2025-04-15T0000,2673A,100.6188,36.2866,海南藏族自治州,共和县恰卜恰镇,颗粒物(PM10),52,53,36,18,12,53,,123,102,29,12,16,14,0.5,0.5
2025-04-15T0000,2676A,97.3731,37.3753,海西蒙古族藏族自治州,德令哈市,,39,34,35,27,15,92,,101,98,3,5,13,13,0.4,0.4
2025-04-15T0000,1048A,114.5302,36.6116,邯郸市,东污水处理厂,,,,41,,15,,,116,,,17,,2,,0.4
2025-04-15T0000,1049A,114.4918,36.5713,邯郸市,矿院,,48,48,33,17,22,44,,98,77,35,10,12,4,0.4,0.4
2025-04-15T0000,1050A,114.484,36.6133,邯郸市,丛台公园,,28,,31,14,6,87,,120,104,19,13,7,5,0.4,0.3
2025-04-15T0000,3458A,114.7895,36.5593,邯郸市,香泉濮院小区,,,57,53,8,7,84,,113,102,22,14,5,4,,0.3
2025-04-15T0000,3579A,114.50634,36.77178,邯郸市,永年区实验高中,,50,50,42,18,23,82,,110,99,18,10,7,4,1.0,0.5
2025-04-15T0000,3580A,114.20016,36.44293,邯郸市,峰峰矿区临水派出所,,50,50,33,15,7,69,,124,113,50,16,11,6,0.4,0.7
2025-04-15T0000,2634A,106.9893,33.1842,汉中市,汉川机床厂子校,细颗粒物(PM2.5),100,,109,75,52,54,,111,82,10,7,7,8,1.3,1.2
2025-04-15T0000,2635A,107.0154,33.0706,汉中市,市监测站,颗粒物(PM10),56,62,108,37,51,41,,101,67,28,15,7,6,0.9,0.9
2025-04-15T0000,2636A,107.0089,33.1138,汉中市,鑫源开发区,颗粒物(PM10),67,83,123,45,62,15,,102,62,61,20,8,8,0.6,0.6
2025-04-15T0000,2637A,107.007,33.0323,汉中市,南郑大河坎水厂,,46,46,95,32,50,45,,108,77,27,16,5,5,0.5,0.5
2025-04-15T0000,1223A,120.2072,30.2111,杭州市,滨江,颗粒物(PM10),58,66,133,18,34,114,,124,122,11,14,8,7,0.7,0.6
2025-04-15T0000,1224A,120.0633,30.2747,杭州市,西溪,,49,49,112,20,28,68,,129,112,24,12,6,6,0.5,0.5
2025-04-15T0000,1226A,120.3417,30.3150,杭州市,下沙,颗粒物(PM10),57,63,120,14,27,97,,119,109,23,19,8,7,0.4,0.3
2025-04-15T0000,1227A,120.1269,30.2456,杭州市,卧龙桥,,47,47,112,15,33,75,,124,111,16,9,6,7,0.4,0.4
2025-04-15T0000,1228A,120.1903,30.2692,杭州市,浙江农大,颗粒物(PM10),54,58,125,22,35,94,,119,107,21,19,3,3,0.3,0.3
2025-04-15T0000,1230A,120.1197,30.3119,杭州市,和睦小学,颗粒物(PM10),51,51,118,21,31,97,,125,113,20,14,12,8,0.6,0.6
2025-04-15T0000,1231A,120.3019,30.4183,杭州市,临平镇,颗粒物(PM10),57,63,127,15,29,102,,126,116,21,20,7,6,0.4,0.3
2025-04-15T0000,1232A,120.2753,30.1839,杭州市,城厢镇,颗粒物(PM10),52,54,122,18,34,118,,130,126,10,12,8,8,0.4,0.4
2025-04-15T0000,1233A,120.0883,30.1808,杭州市,云栖,,47,47,110,12,25,84,,125,114,22,14,9,9,0.5,0.4
2025-04-15T0000,3557A,119.9464,30.0494,杭州市,镇二中,颗粒物(PM10),52,53,111,16,34,89,,123,114,21,19,2,3,0.3,0.3
2025-04-15T0000,3558A,119.7183,30.2367,杭州市,市府大楼,颗粒物(PM10),54,57,126,18,32,81,,128,115,17,12,8,8,0.7,0.6
2025-04-15T0000,3656A,120.1556,30.2864,杭州市,消防大队,颗粒物(PM10),56,61,121,21,34,106,,128,121,20,16,5,4,0.5,0.5
2025-04-15T0000,1270A,117.1959,31.7848,合肥市,明珠广场,颗粒物(PM10),60,70,93,24,20,13,,120,83,85,20,4,4,0.4,0.3
2025-04-15T0000,1271A,117.3072,31.8764,合肥市,三里街,颗粒物(PM10),53,56,91,19,22,39,,112,93,68,19,6,6,0.4,0.3
2025-04-15T0000,1272A,117.2588,31.8707,合肥市,琥珀山庄,颗粒物(PM10),57,63,106,35,28,24,,112,79,64,20,3,4,0.9,0.5
2025-04-15T0000,1273A,117.1604,31.9052,合肥市,董铺水库,,,47,113,,28,51,,118,98,42,14,1,2,0.2,0.3
2025-04-15T0000,1274A,117.25,31.8571,合肥市,长江中路,颗粒物(PM10),58,66,102,28,26,50,,116,98,47,16,9,9,0.7,0.4
2025-04-15T0000,1275A,117.266,31.9436,合肥市,庐阳区,颗粒物(PM10),58,66,102,19,22,49,,112,82,54,19,5,6,0.3,0.2
2025-04-15T0000,1276A,117.3453,31.8616,合肥市,瑶海区,,46,46,97,15,19,80,,111,100,31,18,7,6,0.4,0.3
2025-04-15T0000,1277A,117.3027,31.7964,合肥市,包河区,颗粒物(PM10),60,70,98,19,33,7,,109,74,100,28,5,6,0.4,0.3
2025-04-15T0000,1278A,117.2776,31.7385,合肥市,滨湖新区,细颗粒物(PM2.5),73,73,104,53,37,16,,112,86,91,24,6,6,0.6,0.5
2025-04-15T0000,1279A,117.1318,31.8403,合肥市,高新区,颗粒物(PM10),52,53,101,25,26,87,,114,107,25,14,3,3,0.5,0.4
2025-04-15T0000,3464A,117.3803,31.9147,合肥市,高教基地,颗粒物(PM10),52,53,94,28,39,42,,110,87,53,20,5,6,0.5,0.3
2025-04-15T0000,3614A,79.924,37.0877,和田地区,地区环保局,颗粒物(PM10),328,442,584,139,180,36,,83,65,41,19,1,2,0.3,0.5
2025-04-15T0000,3615A,79.9131,37.113,和田地区,市环保局,颗粒物(PM10),423,523,612,143,164,1,,89,62,46,18,2,2,1.6,0.7
2025-04-15T0000,2516A,108.2011,24.715,河池市,东仁乐园,颗粒物(PM10),88,126,207,51,71,8,,122,52,56,31,10,10,1.4,1.2
2025-04-15T0000,2517A,108.0497,24.6947,河池市,市环保站,颗粒物(PM10),74,97,175,46,60,26,,117,78,40,18,6,6,0.4,0.3
2025-04-15T0000,2518A,108.0983,24.6989,河池市,市疾控中心,颗粒物(PM10),93,135,185,52,66,16,,124,66,54,32,11,9,0.6,0.5
2025-04-15T0000,1696A,114.6778,23.7569,河源市,源西,颗粒物(PM10),100,149,182,48,45,20,,121,72,62,32,4,4,0.6,0.4
2025-04-15T0000,1697A,114.6944,23.7586,河源市,东埔,颗粒物(PM10),128,206,191,71,51,16,,130,81,68,32,4,4,1.0,0.7
2025-04-15T0000,1698A,114.6892,23.7233,河源市,老城,颗粒物(PM10),87,124,162,44,51,55,,133,94,24,24,4,4,0.5,0.4
2025-04-15T0000,1718A,115.4208,35.2464,菏泽市,气象局,颗粒物(PM10),53,56,72,23,25,77,,128,107,42,17,3,4,0.3,0.3
2025-04-15T0000,3374A,115.5564,35.0891,菏泽市,定陶老年大学,,,,79,,25,,,81,,,18,,5,,0.4
2025-04-15T0000,4184A,115.4797,35.24401,菏泽市,永昌路1号,,,30,62,,26,88,,113,100,22,15,6,5,0.2,0.3
2025-04-15T0000,4193A,115.4715,35.2800,菏泽市,长城路999号,,35,35,66,22,16,99,,122,107,24,20,5,6,0.2,0.2
2025-04-15T0000,2514A,111.5264,24.4172,贺州市,环保小区,颗粒物(PM10),93,135,236,68,83,41,,116,79,38,25,5,8,0.5,0.4
2025-04-15T0000,2515A,111.5608,24.4078,贺州市,政协大楼,颗粒物(PM10),105,160,210,69,81,9,,116,58,70,31,10,12,0.7,0.7
2025-04-15T0000,3534A,111.4744,24.4553,贺州市,西湾,颗粒物(PM10),105,159,239,68,76,33,,118,72,39,24,9,10,0.6,0.7
2025-04-15T0000,2385A,114.17,35.9019,鹤壁市,市监测站,颗粒物(PM10),54,57,46,18,16,78,,126,107,22,14,3,5,0.8,0.7
2025-04-15T0000,2386A,114.2956,35.7511,鹤壁市,市交警支队,,36,36,49,14,9,100,,127,107,22,20,9,7,0.5,0.4
2025-04-15T0000,2387A,114.2878,35.7306,鹤壁市,迎宾馆,颗粒物(PM10),53,55,55,7,13,103,,130,110,25,21,2,3,0.5,0.5
2025-04-15T0000,3474A,114.2617,35.6822,鹤壁市,大新区,颗粒物(PM10),56,62,57,32,16,54,,123,80,55,26,8,6,0.4,0.4
2025-04-15T0000,3596A,114.1572,35.9603,鹤壁市,南山宾馆,颗粒物(PM10),60,69,49,22,26,76,,128,108,21,12,4,4,0.7,0.6
2025-04-15T0000,2244A,130.2537,47.3416,鹤岗市,哈啤分公司,,25,25,27,15,18,71,,84,71,6,10,15,16,0.2,0.2
2025-04-15T0000,2245A,130.2684,47.3086,鹤岗市,斯达机电,,41,41,31,21,17,75,,88,77,7,8,11,12,0.7,0.7
2025-04-15T0000,2246A,130.3114,47.3388,鹤岗市,东山纸板厂,颗粒物(PM10),77,103,47,29,18,9,,82,39,41,13,18,14,1.8,0.5
2025-04-15T0000,2247A,130.1097,47.3382,鹤岗市,五号水库,,,,,,,,,,,,,,,,
2025-04-15T0000,2263A,127.4833,50.2524,黑河市,交通局,,26,18,22,18,14,73,,86,85,3,8,6,10,0.2,0.2
2025-04-15T0000,2264A,127.5144,50.2341,黑河市,环保局,,24,18,23,16,12,75,,84,82,5,11,4,8,0.3,0.3
2025-04-15T0000,2265A,127.5291,50.2472,黑河市,大黑河岛,,,,,,,,,,,,,,,,
2025-04-15T0000,1074A,115.6838,37.7541,衡水市,电机北厂,,50,50,54,34,18,86,,134,114,24,11,9,7,0.4,0.3
2025-04-15T0000,1075A,115.6303,37.7316,衡水市,市监测站,颗粒物(PM10),59,67,56,9,13,66,,131,104,41,14,15,14,0.4,0.3
2025-04-15T0000,3188A,115.6683,37.7217,衡水市,市城管局,颗粒物(PM10),52,53,51,29,19,73,,131,108,32,11,8,4,0.3,0.3
2025-04-15T0000,3459A,115.5989,37.5491,衡水市,地表水厂,颗粒物(PM10),68,86,60,26,18,32,,134,84,63,18,7,6,0.4,0.3
2025-04-15T0000,2456A,112.5003,26.9167,衡阳市,原169医院,颗粒物(PM10),110,170,209,70,68,44,,130,93,54,27,6,13,0.8,0.6
2025-04-15T0000,2457A,112.6194,26.9258,衡阳市,衡阳化工总厂,颗粒物(PM10),127,203,240,67,67,37,,128,100,39,20,8,11,0.8,0.7
2025-04-15T0000,2458A,112.6211,26.8956,衡阳市,珠晖区环保局,颗粒物(PM10),122,193,224,66,65,14,,128,76,62,20,11,12,0.7,0.6
2025-04-15T0000,2459A,112.6197,26.8733,衡阳市,市委党校,"颗粒物(PM10),细颗粒物(PM2.5)",120,189,222,91,81,30,,124,92,41,18,7,9,0.7,0.5
2025-04-15T0000,2460A,112.6006,26.8919,衡阳市,市监测站,颗粒物(PM10),117,184,230,79,72,5,,123,81,79,25,10,12,1.0,0.7
2025-04-15T0000,2461A,112.5664,26.9056,衡阳市,真空机电公司,细颗粒物(PM2.5),139,220,254,106,106,3,,120,86,75,26,8,18,1.2,0.9
2025-04-15T0000,3399A,112.6703,26.882,衡阳市,师范学院,颗粒物(PM10),121,192,228,83,71,44,,136,97,21,15,10,12,0.8,0.6
2025-04-15T0000,2608A,103.3772,23.3993,红河哈尼族彝族自治州,污水处理厂,颗粒物(PM10),67,83,62,36,37,90,,100,91,10,13,9,14,0.3,0.3
2025-04-15T0000,2609A,103.3861,23.35,红河哈尼族彝族自治州,监测站,颗粒物(PM10),69,88,65,39,30,95,,103,93,6,11,5,8,0.2,0.4
2025-04-15T0000,3038A,103.3758,23.368,红河哈尼族彝族自治州,州图书馆,颗粒物(PM10),60,70,51,29,26,101,,105,99,7,11,6,9,0.2,0.2
2025-04-15T0000,1090A,111.6507,40.7517,呼和浩特市,呼市一监,,25,19,23,11,6,80,,98,93,8,4,7,9,0.3,0.5
2025-04-15T0000,1091A,111.6572,40.8033,呼和浩特市,小召,,27,27,16,13,7,70,,96,84,20,13,6,5,0.4,0.4
2025-04-15T0000,1094A,111.7516,40.8369,呼和浩特市,如意水处理厂,,40,38,17,28,18,35,,96,72,49,12,7,6,0.4,0.3
2025-04-15T0000,1095A,111.7276,40.8062,呼和浩特市,二十九中,,32,32,14,17,5,38,,101,85,40,6,3,3,0.8,0.5
2025-04-15T0000,1096A,111.5512,40.7866,呼和浩特市,工大金川校区,,42,39,17,14,9,4,,103,73,83,16,6,6,0.5,0.4
2025-04-15T0000,1097A,111.717,40.7612,呼和浩特市,化肥厂生活区,,49,49,18,32,13,42,,101,86,44,12,7,7,0.6,0.3
2025-04-15T0000,3698A,111.5968,40.8178,呼和浩特市,红旗小学,,24,19,8,10,5,76,,105,93,21,9,3,3,0.4,0.4
2025-04-15T0000,3699A,111.6518,40.8389,呼和浩特市,海东办,,29,22,8,20,9,49,,96,82,33,6,9,6,0.5,0.5
2025-04-15T0000,2192A,119.7594,49.2261,呼伦贝尔市,区环保局,细颗粒物(PM2.5),98,100,55,73,31,12,,95,57,59,27,8,7,1.0,0.5
2025-04-15T0000,3061A,119.7512,49.1577,呼伦贝尔市,国华电力东,细颗粒物(PM2.5),57,59,42,40,26,54,,100,78,8,10,4,4,0.4,0.4
2025-04-15T0000,1250A,120.0751,30.8669,湖州市,城西水厂,颗粒物(PM10),61,72,113,20,30,56,,109,84,62,35,9,8,0.4,0.3
2025-04-15T0000,2873A,120.0830,30.8929,湖州市,仁皇山新区,颗粒物(PM10),58,65,116,20,31,73,,123,110,48,23,7,6,0.6,0.5
2025-04-15T0000,2907A,120.1844,30.8596,湖州市,吴兴区站,颗粒物(PM10),56,62,109,16,31,79,,120,112,33,16,7,7,0.3,0.3
2025-04-15T0000,3562A,120.4148,30.8538,湖州市,南浔区站,颗粒物(PM10),53,55,107,15,28,100,,127,119,25,18,5,4,0.3,0.3
2025-04-15T0000,1607A,120.9049,40.7211,葫芦岛市,龙港区,,29,25,14,20,11,11,,94,45,51,15,9,10,0.6,0.5
2025-04-15T0000,1608A,120.8392,40.7514,葫芦岛市,化工街,,35,31,13,24,11,3,,93,37,70,24,7,7,0.8,0.6
2025-04-15T0000,1609A,120.8341,40.7073,葫芦岛市,新区,,30,22,12,21,9,31,,93,46,45,21,8,9,0.6,0.6
2025-04-15T0000,1610A,120.8695,40.7677,葫芦岛市,东城区,细颗粒物(PM2.5),70,71,19,51,18,2,,98,36,67,22,36,7,1.1,0.6
2025-04-15T0000,2482A,109.5981,27.5721,怀化市,林科所,颗粒物(PM10),117,184,179,51,55,42,,100,82,32,12,13,10,1.1,0.7
2025-04-15T0000,2483A,109.9453,27.5444,怀化市,河西地税局,颗粒物(PM10),81,111,148,45,54,28,,102,65,17,16,10,12,0.5,0.5
2025-04-15T0000,2484A,109.9781,27.5342,怀化市,市四医院,颗粒物(PM10),102,153,187,52,65,20,,109,66,48,20,8,14,0.5,0.4
2025-04-15T0000,2485A,109.9972,27.5578,怀化市,监测楼,颗粒物(PM10),98,145,181,53,59,12,,91,62,40,16,8,13,0.5,0.4
2025-04-15T0000,2486A,110.0394,27.583,怀化市,市委党校,颗粒物(PM10),94,138,166,68,61,10,,112,63,35,14,7,8,0.7,0.4
2025-04-15T0000,1210A,119.036,33.5981,淮安市,钵池山,颗粒物(PM10),52,53,76,20,22,93,,122,112,24,17,12,12,0.6,0.5
2025-04-15T0000,1211A,119.007,33.575,淮安市,北京南路,颗粒物(PM10),56,61,73,21,19,63,,123,94,41,20,8,10,0.5,0.5
2025-04-15T0000,1212A,118.989,33.6067,淮安市,市监测站,颗粒物(PM10),52,53,72,17,31,84,,117,101,23,19,10,11,0.4,0.5
2025-04-15T0000,1213A,119.135,33.5039,淮安市,楚州区监测站,颗粒物(PM10),61,71,76,28,27,62,,112,93,31,14,8,9,0.5,0.6
2025-04-15T0000,3426A,118.8755,33.2894,淮安市,新华书店,颗粒物(PM10),51,52,69,19,26,95,,121,112,14,11,8,8,0.5,0.4
2025-04-15T0000,4206A,119.0288,33.6319,淮安市,承德北路606号,颗粒物(PM10),54,58,80,21,22,86,,116,106,20,15,9,9,0.6,0.5
2025-04-15T0000,2282A,116.8004,33.975,淮北市,监测站,颗粒物(PM10),51,51,64,24,23,69,,125,111,40,15,7,6,0.8,0.6
2025-04-15T0000,2283A,116.8091,33.9007,淮北市,烈山区政府,颗粒物(PM10),66,81,67,43,25,48,,125,96,70,24,14,6,0.9,0.6
2025-04-15T0000,3330A,116.8873,33.9836,淮北市,杜集区检察院,颗粒物(PM10),67,84,86,40,32,62,,116,104,38,20,7,6,0.7,0.7
2025-04-15T0000,4017A,116.7923,33.9535,淮北市,市博物馆,颗粒物(PM10),67,84,72,45,29,50,,120,96,46,19,11,8,1.0,0.7
2025-04-15T0000,2277A,116.8305,32.7727,淮南市,潘集区政府,颗粒物(PM10),58,65,88,34,25,79,,113,99,22,15,9,6,0.4,0.3
2025-04-15T0000,2279A,116.8569,32.5951,淮南市,谢家集区政府,,50,50,77,22,21,70,,116,100,31,14,8,8,0.5,0.5
2025-04-15T0000,2280A,116.8281,32.633,淮南市,八公山区政府,颗粒物(PM10),51,51,84,18,23,107,,115,114,7,10,7,6,0.3,0.3
2025-04-15T0000,2281A,116.6325,32.6201,淮南市,焦岗湖风景区管理处,,,,,,,,,,,,,,,,
2025-04-15T0000,2894A,117.0566,32.6531,淮南市,经济技术开发区消防队,颗粒物(PM10),51,52,92,33,27,50,,117,99,44,18,6,7,0.4,0.3
2025-04-15T0000,3329A,117.0108,32.5893,淮南市,山南新区,颗粒物(PM10),57,63,86,24,15,61,,118,98,28,11,8,8,0.3,0.2
2025-04-15T0000,4209A,117.0031,32.6445,淮南市,国庆中路369号,颗粒物(PM10),52,53,86,21,27,64,,115,96,37,18,9,8,0.5,0.4
2025-04-15T0000,2446A,114.9028,30.4742,黄冈市,职工中心,颗粒物(PM10),54,57,100,22,34,99,,132,120,18,20,7,8,0.6,0.7
2025-04-15T0000,2929A,114.8858,30.4519,黄冈市,红卫路,颗粒物(PM10),52,54,118,15,30,91,,121,110,14,16,6,8,0.6,0.8
2025-04-15T0000,3398A,114.9136,30.4445,黄冈市,市林业局,颗粒物(PM10),53,56,118,12,28,97,,123,111,18,16,8,9,0.4,0.5
2025-04-15T0000,2672A,102.0199,35.5102,黄南藏族自治州,同仁县隆务镇,颗粒物(PM10),55,59,45,20,13,81,,110,102,3,4,16,14,0.2,0.2
2025-04-15T0000,2295A,118.2903,29.6963,黄山市,延安路89号,颗粒物(PM10),57,63,127,23,63,68,,121,107,10,7,5,5,0.2,0.2
2025-04-15T0000,2297A,118.1371,30.2756,黄山市,黄山区政府5号楼,,40,40,170,17,36,54,,126,101,7,3,4,5,0.4,0.6
2025-04-15T0000,4210A,118.3354,29.7203,黄山市,滨江东路7-2号,颗粒物(PM10),58,65,130,22,38,74,,121,106,12,9,6,6,0.5,0.4
2025-04-15T0000,2423A,115.0601,30.2313,黄石市,沈家营,颗粒物(PM10),59,68,136,18,31,44,,135,108,51,18,7,7,0.6,0.6
2025-04-15T0000,2426A,114.8988,30.2019,黄石市,铁山,颗粒物(PM10),70,90,149,12,44,119,,122,120,8,19,8,10,0.8,0.5
2025-04-15T0000,2427A,115.0307,30.2092,黄石市,团城山,颗粒物(PM10),56,62,134,14,33,78,,123,108,25,17,8,9,0.4,0.4
2025-04-15T0000,3149A,115.0235,30.1578,黄石市,笔架山北路,,45,45,114,9,33,107,,137,124,12,12,8,9,0.6,0.6
2025-04-15T0000,4185A,115.0780,30.21118,黄石市,磁湖东路29号,颗粒物(PM10),52,54,134,19,44,68,,135,102,30,20,7,8,0.6,0.6
2025-04-15T0000,1392A,114.4183,23.0528,惠州市,河南岸金山湖子站,颗粒物(PM10),126,201,242,76,77,57,,154,101,48,40,9,10,0.9,0.7
2025-04-15T0000,1393A,114.4053,23.0822,惠州市,下埔横江三路子站,颗粒物(PM10),137,223,268,84,79,31,,148,90,70,35,9,11,0.9,0.6
2025-04-15T0000,1394A,114.4103,23.1142,惠州市,江北云山西路子站,颗粒物(PM10),148,246,261,90,78,59,,171,142,73,31,13,13,0.6,0.4
2025-04-15T0000,1395A,114.4645,22.7833,惠州市,惠阳区承修路船湖子站,颗粒物(PM10),163,276,257,90,78,35,,153,102,69,43,9,10,1.1,0.7
2025-04-15T0000,1396A,114.5317,22.7422,惠州市,大亚湾管委会子站,颗粒物(PM10),149,248,256,72,75,30,,179,137,86,51,7,8,0.5,0.5
2025-04-15T0000,3314A,114.4338,22.8134,惠州市,惠阳秋长,颗粒物(PM10),137,224,242,83,77,28,,164,103,93,45,15,12,0.7,0.4
2025-04-15T0000,3452A,114.6517,22.775,惠州市,大亚湾霞涌,颗粒物(PM10),126,201,257,67,74,130,,160,111,26,31,7,9,0.5,0.6
2025-04-15T0000,2240A,130.9762,45.3001,鸡西市,环保局,,34,34,28,14,11,59,,72,63,11,9,5,6,0.6,0.5
2025-04-15T0000,2243A,130.9429,45.3039,鸡西市,第一中学,,21,21,29,13,13,67,,87,69,8,8,6,6,0.6,0.6
2025-04-15T0000,3707A,131.0207,45.3073,鸡西市,欧美日汽修厂,,27,27,32,17,12,55,,84,61,11,8,5,4,0.6,0.5
2025-04-15T0000,3709A,130.9967,45.3106,鸡西市,市政设施管理处,,36,36,33,11,13,60,,83,58,13,12,6,7,0.5,0.4
2025-04-15T0000,2367A,114.9754,27.0803,吉安市,红声器材厂,颗粒物(PM10),96,142,177,36,43,81,,113,108,23,12,13,12,0.3,0.4
2025-04-15T0000,2368A,114.9658,27.0999,吉安市,市森林工业局,颗粒物(PM10),89,128,173,32,46,86,,110,106,19,14,10,11,0.3,0.3
2025-04-15T0000,2369A,114.99,27.1312,吉安市,市环境监测站,颗粒物(PM10),83,116,169,34,44,76,,116,106,19,10,19,18,0.2,0.2
2025-04-15T0000,2370A,115.0093,27.0968,吉安市,青原区法院,颗粒物(PM10),92,133,185,37,47,42,,118,102,36,11,14,13,0.3,0.4
2025-04-15T0000,1772A,126.54,43.8622,吉林市,哈达湾,,25,25,19,16,14,69,,79,70,14,15,6,7,0.4,0.4
2025-04-15T0000,1773A,126.5844,43.8358,吉林市,东局子,颗粒物(PM10),73,96,36,38,18,32,,78,46,29,18,6,6,0.7,0.6
2025-04-15T0000,1774A,126.5052,43.8245,吉林市,电力学院,,38,32,26,26,24,36,,82,55,24,18,5,5,0.7,0.6
2025-04-15T0000,1775A,126.6133,43.8972,吉林市,江北,细颗粒物(PM2.5),77,86,32,56,20,24,,81,46,32,16,6,6,0.9,0.7
2025-04-15T0000,1776A,126.555,43.8306,吉林市,江南公园,,42,35,20,29,20,36,,76,56,24,15,5,6,0.5,0.4
2025-04-15T0000,1778A,126.7061,43.7133,吉林市,丰满,,,,,,,,,,,,,,,,
2025-04-15T0000,2868A,126.4739,43.953,吉林市,九站,,23,21,20,16,13,46,,79,57,24,16,7,10,0.6,0.6
2025-04-15T0000,1299A,116.9862,36.6114,济南市,科干所,,41,41,61,27,22,123,,130,117,13,16,6,6,0.4,0.4
2025-04-15T0000,1300A,116.9376,36.665,济南市,农科所,颗粒物(PM10),63,76,70,24,18,55,,125,89,58,27,6,6,0.4,0.4
2025-04-15T0000,1301A,117.1265,36.6734,济南市,开发区,,38,32,63,20,21,119,,131,123,16,16,6,6,0.4,0.4
2025-04-15T0000,1303A,117.0624,36.6868,济南市,省种子仓库,颗粒物(PM10),57,63,84,34,26,90,,129,109,31,15,3,8,0.7,0.6
2025-04-15T0000,1304A,116.9489,36.6447,济南市,机床二厂,颗粒物(PM10),83,115,92,22,16,57,,132,93,65,28,7,7,0.4,0.4
2025-04-15T0000,1305A,117.0495,36.663,济南市,市监测站,,44,44,75,29,19,103,,119,106,24,19,7,7,0.4,0.4
2025-04-15T0000,1306A,116.7675,36.5484,济南市,长清党校,,40,39,68,24,25,125,,135,127,18,19,5,5,0.4,0.4
2025-04-15T0000,1616A,117.6795,36.229,济南市,技术学院,颗粒物(PM10),53,56,68,27,22,75,,126,109,40,16,14,10,0.7,0.5
2025-04-15T0000,1961A,117.532,36.6868,济南市,东山小学,,32,32,73,10,20,76,,130,112,37,14,5,6,0.2,0.3
2025-04-15T0000,3059A,117.7161,36.2049,济南市,泰兴公司,颗粒物(PM10),52,53,62,29,19,23,,128,86,72,22,8,8,0.8,0.5
2025-04-15T0000,3064A,117.6867,36.2171,济南市,莱芜战役纪念馆,颗粒物(PM10),71,92,75,31,14,28,,128,104,88,21,7,6,0.9,0.6
2025-04-15T0000,3494A,117.1673,36.9782,济南市,济阳区政府,颗粒物(PM10),57,63,83,22,20,100,,135,120,43,27,8,8,0.4,0.4
2025-04-15T0000,3495A,117.1171,36.63,济南市,锦屏中学,,39,37,60,15,15,123,,130,123,14,15,2,5,0.1,0.2
2025-04-15T0000,3682A,116.9814,36.6819,济南市,济南四建,颗粒物(PM10),62,73,71,29,23,79,,125,99,43,22,4,4,0.3,0.3
2025-04-15T0000,1653A,116.6251,35.4302,济宁市,火炬城,,50,50,57,22,20,62,,121,101,21,8,4,4,0.3,0.2
2025-04-15T0000,1655A,116.5491,35.4042,济宁市,电化厂,颗粒物(PM10),76,102,82,41,28,28,,120,87,76,24,3,2,0.3,0.2
2025-04-15T0000,3500A,116.5814,35.3707,济宁市,北湖一中,颗粒物(PM10),59,68,57,22,14,34,,122,89,80,23,3,2,0.2,0.1
2025-04-15T0000,3501A,116.8249,35.5593,济宁市,服务中心,颗粒物(PM10),54,57,61,24,21,70,,123,95,37,21,2,2,0.5,0.5
2025-04-15T0000,3678A,116.5907,35.4054,济宁市,市第七中学,细颗粒物(PM2.5),98,,70,73,14,51,,127,101,41,14,3,3,0.4,0.3
2025-04-15T0000,2255A,130.2751,46.8028,佳木斯市,佳纺,颗粒物(PM10),54,58,24,29,12,41,,95,61,18,9,7,7,0.7,0.6
2025-04-15T0000,2256A,130.3995,46.8307,佳木斯市,发电厂,,45,45,30,29,15,56,,99,76,17,16,4,5,0.6,0.6
2025-04-15T0000,2257A,130.3258,46.7975,佳木斯市,环保局,,,67,25,37,13,47,,99,66,,13,3,3,0.5,0.4
2025-04-15T0000,2258A,130.3648,46.8032,佳木斯市,十一中,颗粒物(PM10),52,54,24,30,14,53,,92,72,23,14,7,7,0.6,0.5
2025-04-15T0000,2259A,130.3794,46.7588,佳木斯市,四丰,颗粒物(PM10),57,64,24,33,12,53,,88,66,13,8,1,1,1.0,1
2025-04-15T0000,1252A,120.7436,30.778,嘉兴市,清河小学,颗粒物(PM10),59,68,120,17,28,84,,108,98,21,17,6,6,0.8,0.8
2025-04-15T0000,1253A,120.726,30.7478,嘉兴市,嘉兴学院,颗粒物(PM10),53,56,108,16,27,105,,127,120,13,14,7,7,0.5,0.8
2025-04-15T0000,2872A,120.7846,30.7525,嘉兴市,南湖区残联,颗粒物(PM10),66,82,128,25,42,93,,125,113,20,13,7,7,0.6,0.6
2025-04-15T0000,3407A,120.6916,30.7739,嘉兴市,秀洲住建,,37,37,100,19,33,95,,125,114,17,15,7,7,0.5,0.5
2025-04-15T0000,1945A,98.2908,39.7711,嘉峪关市,气象局,颗粒物(PM10),157,263,117,73,33,64,,99,82,11,24,4,18,0.5,0.7
2025-04-15T0000,2884A,98.2672,39.7978,嘉峪关市,酒钢宾馆,颗粒物(PM10),196,342,142,92,43,47,,93,76,22,23,21,32,0.2,0.6
2025-04-15T0000,3248A,98.2643,39.7724,嘉峪关市,雄关区,颗粒物(PM10),145,239,103,54,31,52,,93,80,19,31,5,14,0.0,0.6
2025-04-15T0000,1383A,113.1064,22.6058,江门市,北街,颗粒物(PM10),129,208,258,62,79,22,,144,105,72,37,4,5,1.1,0.6
2025-04-15T0000,1384A,113.0731,22.5835,江门市,西区,颗粒物(PM10),142,233,283,86,83,7,,160,100,104,48,9,11,0.8,0.5
2025-04-15T0000,1385A,113.0219,22.5311,江门市,圭峰西,颗粒物(PM10),108,166,264,61,80,101,,136,126,15,21,7,10,0.4,0.4
2025-04-15T0000,1386A,113.0828,22.5947,江门市,东湖,颗粒物(PM10),125,199,264,79,84,18,,155,115,87,40,7,9,0.9,0.5
2025-04-15T0000,3311A,113.1075,22.5647,江门市,江海富民,颗粒物(PM10),131,212,259,71,75,35,,159,111,62,38,9,10,0.8,0.7
2025-04-15T0000,3449A,113.05,22.4667,江门市,新会银湖,颗粒物(PM10),118,185,254,60,78,7,,150,84,50,29,1,4,0.4,0.4
2025-04-15T0000,1830A,113.1992,35.2590,焦作市,影视城,,,,24,,16,,,,,,8,,6,,0.8
2025-04-15T0000,3169A,113.2725,35.2067,焦作市,太极体育中心,颗粒物(PM10),52,54,59,24,17,112,,125,117,17,14,10,10,0.4,0.3
2025-04-15T0000,3335A,113.3137,35.2641,焦作市,马村街道办,颗粒物(PM10),60,69,55,32,24,99,,117,106,12,10,14,12,0.2,0.2
2025-04-15T0000,3336A,113.2465,35.2373,焦作市,焦作技师学院,,41,41,49,24,16,98,,121,114,21,12,8,7,0.6,0.5
2025-04-15T0000,3477A,113.1656,35.2539,焦作市,中站许衡医院,,50,50,40,32,18,96,,125,117,28,12,9,8,0.6,0.5
2025-04-15T0000,3981A,113.2449,35.1803,焦作市,原李万街道办,颗粒物(PM10),56,61,53,24,24,107,,120,114,17,14,11,10,0.5,0.4
2025-04-15T0000,4264A,113.2340,35.2190,焦作市,新安路1731号,颗粒物(PM10),56,61,53,25,12,103,,123,111,15,10,18,8,0.7,0.4
2025-04-15T0000,1708A,116.3701,23.5345,揭阳市,新兴,细颗粒物(PM2.5),119,184,152,90,50,11,,110,72,82,30,11,9,1.4,0.8
2025-04-15T0000,1709A,116.3264,23.5443,揭阳市,西马,颗粒物(PM10),120,189,151,74,52,60,,108,76,31,24,10,10,0.8,0.6
2025-04-15T0000,1710A,116.3611,23.5626,揭阳市,东兴,颗粒物(PM10),119,187,160,74,48,28,,115,75,63,29,10,12,1.3,0.9
2025-04-15T0000,1711A,116.4151,23.5294,揭阳市,渔湖,颗粒物(PM10),114,178,150,68,50,27,,120,82,64,29,15,9,0.9,0.7
2025-04-15T0000,3320A,116.403,23.5699,揭阳市,曲溪,颗粒物(PM10),111,172,157,75,52,22,,128,80,63,34,2,3,1.2,0.7
2025-04-15T0000,1944A,102.1692,38.5167,金昌市,天庆家园,,40,40,35,25,19,62,,106,83,12,14,13,24,0.8,0.8
2025-04-15T0000,4022A,102.1647,38.5371,金昌市,金川区人防中心,颗粒物(PM10),54,57,50,21,16,53,,101,74,10,13,17,17,0.7,0.7
2025-04-15T0000,4239A,102.1930,38.5319,金昌市,长春路96号,颗粒物(PM10),64,78,54,25,17,55,,98,78,15,14,18,28,0.7,0.6
2025-04-15T0000,1262A,119.647,29.077,金华市,十五中,颗粒物(PM10),72,93,132,27,36,75,,112,74,26,27,6,7,0.5,0.5
2025-04-15T0000,1263A,119.686,29.1029,金华市,监测站,颗粒物(PM10),69,87,126,22,35,83,,116,80,19,22,5,6,0.3,0.3
2025-04-15T0000,3659A,119.656,29.1131,金华市,气象局,颗粒物(PM10),65,80,150,27,50,77,,114,71,24,27,2,5,0.2,0.4
2025-04-15T0000,1767A,121.1115,41.0879,锦州市,南山,细颗粒物(PM2.5),108,,13,81,16,8,,92,42,45,17,9,8,1.5,0.7
2025-04-15T0000,1768A,121.0604,40.8428,锦州市,开发区,细颗粒物(PM2.5),57,55,18,40,14,0,,89,31,79,24,11,7,1.0,0.7
2025-04-15T0000,1769A,121.1836,41.1119,锦州市,百股街道,,25,18,16,17,7,10,,90,43,27,12,3,5,1.2,0.6
2025-04-15T0000,1770A,121.1178,41.1222,锦州市,天安街道,细颗粒物(PM2.5),53,,13,37,28,26,,89,,32,20,9,9,0.9,0.6
2025-04-15T0000,1771A,121.1303,41.1386,锦州市,北湖公园,,46,32,12,32,11,18,,90,41,42,18,8,8,1.2,0.6
2025-04-15T0000,2160A,112.85,35.5051,晋城市,自来水公司,,38,38,52,7,7,96,,110,102,15,13,8,9,0.5,0.4
2025-04-15T0000,2161A,112.8318,35.4936,晋城市,白云商贸,,,42,53,,7,96,,111,102,18,14,5,7,0.4,0.4
2025-04-15T0000,2162A,112.8508,35.4887,晋城市,市环保局,,37,37,57,7,5,95,,108,100,14,11,4,6,0.2,0.2
2025-04-15T0000,2163A,112.8676,35.4897,晋城市,技术学院,,39,39,76,3,19,96,,108,99,14,13,6,8,0.4,0.3
2025-04-15T0000,2165A,112.8453,35.546,晋城市,白马寺,,35,33,38,16,15,109,,113,111,6,7,6,6,0.5,0.6
2025-04-15T0000,3620A,112.8271,35.4828,晋城市,泽州一中,,31,21,40,17,13,99,,113,105,13,10,7,8,0.4,0.4
2025-04-15T0000,2173A,112.7249,37.7067,晋中市,南都小区,,42,42,28,7,8,46,,104,89,48,13,6,4,0.4,0.3
2025-04-15T0000,2174A,112.6991,37.6982,晋中市,榆次区政府,颗粒物(PM10),54,58,26,15,10,35,,105,92,59,14,8,5,0.4,0.2
2025-04-15T0000,2865A,112.7195,37.6828,晋中市,榆次三中,颗粒物(PM10),56,61,27,19,4,61,,108,98,43,11,6,3,1.2,0.2
2025-04-15T0000,4200A,112.7478,37.6954,晋中市,迎宾街26号,,48,48,26,9,5,54,,105,93,37,8,4,3,0.4,0.2
2025-04-15T0000,2439A,112.2014,31.0481,荆门市,竹园小学,颗粒物(PM10),81,111,150,36,48,115,,125,114,17,21,11,5,0.0,0.2
2025-04-15T0000,2440A,112.1969,30.9891,荆门市,掇刀,颗粒物(PM10),76,102,167,45,56,93,,125,108,22,16,10,10,0.3,0.2
2025-04-15T0000,2441A,112.2213,31.0386,荆门市,石化一小,颗粒物(PM10),76,102,149,45,48,111,,126,112,17,20,13,8,0.1,0.2
2025-04-15T0000,3012A,112.1849,31.0362,荆门市,西山林语,颗粒物(PM10),64,77,127,30,45,109,,129,121,9,8,9,5,0.1,0.2
2025-04-15T0000,3547A,112.1632,31.0138,荆门市,龙泉中学南校,细颗粒物(PM2.5),178,,178,134,69,92,,124,113,28,16,8,6,0.2,0.2
2025-04-15T0000,1844A,112.2494,30.3197,荆州市,市图书馆,颗粒物(PM10),88,125,205,45,73,81,,135,112,36,19,6,7,0.6,0.5
2025-04-15T0000,1845A,112.2008,30.3544,荆州市,市委党校,颗粒物(PM10),84,118,208,49,74,56,,139,106,35,21,7,7,0.7,0.6
2025-04-15T0000,3194A,112.2747,30.3122,荆州市,管委会,颗粒物(PM10),96,142,186,49,77,58,,138,112,42,20,7,8,0.6,0.5
2025-04-15T0000,4268A,112.1722,30.3366,荆州市,学苑路85号,颗粒物(PM10),85,120,194,52,82,89,,137,112,16,16,7,3,0.4,0.3
2025-04-15T0000,2342A,117.3102,29.3867,景德镇市,王港中学,,,,,,,,,,,,,,,,
2025-04-15T0000,2343A,117.2117,29.2933,景德镇市,老干部活动中心,,41,41,130,26,33,80,,121,106,15,18,7,8,0.3,0.4
2025-04-15T0000,2344A,117.1894,29.2789,景德镇市,兽医站,颗粒物(PM10),88,125,159,21,31,88,,119,110,12,16,4,5,0.4,0.4
2025-04-15T0000,2345A,117.1547,29.2617,景德镇市,台达陶瓷,颗粒物(PM10),79,107,182,18,42,88,,122,112,14,21,5,42,0.4,0.5
2025-04-15T0000,2346A,117.2461,29.2956,景德镇市,陶研所,颗粒物(PM10),65,80,122,28,40,55,,118,90,24,17,5,8,0.4,0.4
2025-04-15T0000,1803A,115.9872,29.6815,九江市,十里,颗粒物(PM10),60,70,164,24,41,78,,129,116,24,12,8,5,0.8,0.4
2025-04-15T0000,1804A,115.9584,29.7046,九江市,茅山头,颗粒物(PM10),61,72,162,20,37,86,,119,110,25,21,8,7,0.5,0.3
2025-04-15T0000,1805A,115.9877,29.7295,九江市,西园,颗粒物(PM10),53,55,146,25,40,84,,121,108,37,29,8,9,0.6,0.6
2025-04-15T0000,1808A,115.9114,29.6038,九江市,综合工业园,颗粒物(PM10),54,57,168,14,40,111,,125,111,25,35,11,9,0.7,0.6
2025-04-15T0000,1809A,116.0721,29.7535,九江市,石化总厂,颗粒物(PM10),61,72,180,16,40,83,,116,94,28,27,2,5,0.6,0.6
2025-04-15T0000,1810A,115.9773,29.5698,九江市,庐山气象台,颗粒物(PM10),72,93,173,17,37,121,,123,123,6,8,7,6,0.5,0.7
2025-04-15T0000,3190A,116.0254,29.6994,九江市,外国语学校,颗粒物(PM10),60,70,193,23,54,76,,112,100,24,19,19,12,1.3,0.9
2025-04-15T0000,4253A,116.0102,29.6594,九江市,莲花大道8号,颗粒物(PM10),85,120,196,19,42,109,,121,115,6,11,6,6,0.4,0.5
2025-04-15T0000,4240A,98.4958,39.7339,酒泉市,玉门东路5号,颗粒物(PM10),178,305,118,76,34,76,,104,86,8,20,7,12,0.2,0.4
2025-04-15T0000,4241A,98.5099,39.7506,酒泉市,北大街108号,颗粒物(PM10),172,293,130,70,33,74,,112,91,12,26,14,16,0.4,0.4
2025-04-15T0000,2698A,76.0072,39.4467,喀什地区,巡警大队,颗粒物(PM10),88,125,518,18,136,82,,109,102,19,32,3,4,0.4,0.6
2025-04-15T0000,2699A,75.9755,39.4694,喀什地区,吾办,颗粒物(PM10),73,96,468,35,187,82,,111,105,15,24,6,4,0.5,0.7
2025-04-15T0000,4027A,75.9483,39.4689,喀什地区,老干局,颗粒物(PM10),79,108,485,44,129,90,,117,108,13,23,2,2,0.3,0.3
2025-04-15T0000,1824A,114.3389,34.7781,开封市,肿瘤医院,颗粒物(PM10),56,61,59,23,16,82,,132,110,26,16,10,9,0.5,0.5
2025-04-15T0000,1826A,114.2885,34.7965,开封市,世纪星幼儿园,,50,48,74,35,34,106,,140,124,20,19,5,5,0.6,0.5
2025-04-15T0000,3147A,114.3438,34.8106,开封市,龙亭公园,颗粒物(PM10),54,58,61,31,26,96,,135,117,24,18,6,4,0.6,0.5
2025-04-15T0000,3210A,114.3644,34.7964,开封市,汴京公园,细颗粒物(PM2.5),74,88,79,54,52,72,,137,106,43,20,8,4,1.2,1
2025-04-15T0000,3473A,114.2485,34.8306,开封市,技师学院,,42,42,55,20,18,117,,132,125,16,20,4,4,0.7,0.7
2025-04-15T0000,3592A,114.4644,34.7556,开封市,祥符区生态环境局,细颗粒物(PM2.5),64,66,85,46,48,74,,124,94,37,30,6,7,0.5,0.5
2025-04-15T0000,1951A,84.895,45.6094,克拉玛依市,长征新村,颗粒物(PM10),51,51,52,3,8,77,,99,88,5,11,7,8,0.1,0.2
2025-04-15T0000,1952A,84.8988,45.5893,克拉玛依市,南林小区,颗粒物(PM10),51,52,50,9,15,87,,111,101,2,6,2,3,0.2,0.3
2025-04-15T0000,1954A,84.905,44.3396,克拉玛依市,独山子区,颗粒物(PM10),72,93,126,46,37,91,,118,98,9,10,6,7,0.2,0.2
2025-04-15T0000,1955A,85.6979,46.098,克拉玛依市,乌尔禾区商贸楼,,30,27,45,3,7,94,,108,103,2,5,5,6,0.2,0.3
2025-04-15T0000,3612A,85.1045,45.6899,克拉玛依市,白碱滩区新站,,50,50,60,3,12,80,,105,97,2,11,9,10,0.3,0.3
2025-04-15T0000,2697A,76.1454,39.7142,克孜勒苏柯尔克孜自治州,市人民政府,颗粒物(PM10),65,80,518,31,159,88,,132,123,15,11,32,10,0.3,0.3
2025-04-15T0000,3665A,76.1658,39.7157,克孜勒苏柯尔克孜自治州,克州文化中心,颗粒物(PM10),75,100,487,7,160,107,,124,120,2,14,11,13,0.2,0.3
2025-04-15T0000,1450A,102.8204,24.8886,昆明市,呈贡新区,颗粒物(PM10),74,98,70,41,36,112,,130,120,13,32,5,8,0.3,0.6
2025-04-15T0000,1451A,102.6251,24.9608,昆明市,西山森林公园,,,,,,,,,,,,,,,,
2025-04-15T0000,1452A,102.7252,25.0902,昆明市,龙泉镇,颗粒物(PM10),75,99,57,37,28,94,,128,107,16,28,9,9,0.4,0.5
2025-04-15T0000,1453A,102.7266,25.0375,昆明市,东风东路,颗粒物(PM10),78,106,70,45,35,92,,136,111,29,32,10,10,0.4,0.6
2025-04-15T0000,1454A,102.6742,25.0669,昆明市,金鼎山,细颗粒物(PM2.5),68,82,57,49,31,98,,126,104,22,32,9,8,0.6,0.8
2025-04-15T0000,1455A,102.6644,25.0401,昆明市,碧鸡广场,颗粒物(PM10),74,97,59,47,30,85,,124,96,34,33,7,8,0.3,0.6
2025-04-15T0000,3179A,102.7494,25.0119,昆明市,官渡区博物馆,颗粒物(PM10),77,103,73,48,37,86,,136,105,37,38,10,9,0.5,0.6
2025-04-15T0000,3375A,102.8017,24.8336,昆明市,青年创业园,颗粒物(PM10),74,98,66,36,31,105,,127,109,11,28,9,10,0.4,0.5
2025-04-15T0000,3550A,102.7997,24.9786,昆明市,昆明学院,颗粒物(PM10),82,114,91,47,37,104,,131,117,17,34,9,8,0.3,0.5
2025-04-15T0000,3551A,102.5967,24.6736,昆明市,晋宁区生态环境分局,细颗粒物(PM2.5),73,68,50,53,32,71,,132,106,20,15,15,10,1.0,0.9
2025-04-15T0000,3552A,102.6678,24.9856,昆明市,云天化总部,颗粒物(PM10),64,78,60,42,29,89,,129,98,19,35,7,9,0.6,0.7
2025-04-15T0000,1456A,91.1319,29.6514,拉萨市,八廓街,,49,9,20,6,9,155,,155,151,6,11,5,6,0.4,0.5
2025-04-15T0000,1457A,91.1221,29.6747,拉萨市,市环保局,,45,8,18,6,9,141,,149,142,11,14,2,3,0.3,0.3
2025-04-15T0000,1458A,91.0874,29.6475,拉萨市,区监测站,,46,9,16,6,8,146,,145,142,10,12,5,6,0.5,0.5
2025-04-15T0000,1459A,91.1774,29.6541,拉萨市,西藏大学,,48,7,17,7,8,151,,153,151,8,12,4,5,0.2,0.2
2025-04-15T0000,1460A,90.9798,29.6588,拉萨市,区辐射站,,44,10,26,8,10,138,,143,141,14,19,8,8,0.4,0.4
2025-04-15T0000,1461A,91.0834,29.6292,拉萨市,拉萨火车站,,47,7,20,7,8,148,,144,144,6,8,2,3,0.2,0.2
2025-04-15T0000,2520A,109.2203,23.7256,来宾市,来宾技工学校,颗粒物(PM10),124,198,241,60,71,16,,133,79,70,35,14,12,0.8,0.7
2025-04-15T0000,3535A,109.1781,23.7297,来宾市,兴宾区政府,颗粒物(PM10),118,185,237,68,79,70,,140,114,23,17,7,8,0.5,0.5
2025-04-15T0000,4002A,109.2416,23.7461,来宾市,中南小学,颗粒物(PM10),127,204,259,62,68,4,,131,66,76,37,9,12,0.8,0.6
2025-04-15T0000,1477A,104.1373,35.9454,兰州市,榆中兰大校区,,,,,,,,,,,,,,,,
2025-04-15T0000,1479A,103.831,36.0464,兰州市,铁路设计院,颗粒物(PM10),63,76,101,30,30,8,,106,56,94,59,12,13,1.1,1
2025-04-15T0000,3241A,103.7439,36.0842,兰州市,百合公园,颗粒物(PM10),62,73,88,28,25,5,,110,57,82,44,8,8,1.1,0.7
2025-04-15T0000,3242A,103.9611,35.998,兰州市,和平,,33,33,79,10,29,76,,112,100,15,11,8,11,0.4,0.5
2025-04-15T0000,4236A,103.6293,36.0938,兰州市,庄浪东路808号,颗粒物(PM10),54,58,86,25,46,44,,118,73,52,34,9,14,0.4,0.4
2025-04-15T0000,4237A,103.7251,36.1043,兰州市,安宁西路88号,颗粒物(PM10),77,104,106,43,42,2,,118,78,86,33,6,7,0.8,0.5
2025-04-15T0000,4238A,103.8470,36.0676,兰州市,北滨河东路1号,颗粒物(PM10),55,60,84,28,34,13,,119,80,78,43,20,12,0.7,0.7
2025-04-15T0000,3245A,103.6633,36.533,兰州新区,新区管委会,颗粒物(PM10),67,83,64,33,27,54,,121,97,33,12,42,15,0.6,0.3
2025-04-15T0000,3246A,103.6975,36.4789,兰州新区,舟曲中学,颗粒物(PM10),54,58,72,20,25,65,,119,98,35,16,25,16,0.4,0.2
2025-04-15T0000,1067A,116.6708,39.5111,廊坊市,药材公司,,50,50,43,21,17,67,,108,76,27,12,2,1,0.4,0.3
2025-04-15T0000,1068A,116.7214,39.5589,廊坊市,开发区,颗粒物(PM10),54,58,50,22,18,75,,115,78,21,10,2,2,0.3,0.3
2025-04-15T0000,1070A,116.7244,39.5269,廊坊市,北华航天学院,颗粒物(PM10),52,54,53,19,14,80,,110,76,18,13,7,4,0.3,0.3
2025-04-15T0000,2919A,116.7022,39.5453,廊坊市,河北工业大学,,48,48,47,25,22,83,,113,84,19,12,5,5,0.3,0.3
2025-04-15T0000,2535A,103.7723,29.5462,乐山市,花湖湾,颗粒物(PM10),132,214,160,87,64,36,,105,80,52,35,7,9,0.9,0.9
2025-04-15T0000,2536A,103.7627,29.5844,乐山市,牛耳桥,颗粒物(PM10),120,190,148,77,57,5,,89,44,56,41,6,8,0.9,0.8
2025-04-15T0000,2537A,103.7508,29.6006,乐山市,市第三水厂,颗粒物(PM10),104,157,142,58,51,4,,94,48,57,39,4,5,0.7,0.7
2025-04-15T0000,2538A,103.7571,29.5664,乐山市,市监测站,颗粒物(PM10),114,177,160,60,58,10,,99,69,64,36,7,9,1.1,1.1
2025-04-15T0000,3361A,103.7311,29.5628,乐山市,理工大学,颗粒物(PM10),120,189,154,68,56,22,,97,72,60,38,6,7,0.9,0.9
2025-04-15T0000,2598A,100.2143,26.8576,丽江市,西南郊,,47,47,32,25,19,30,,122,85,40,13,5,15,1.0,0.9
2025-04-15T0000,2599A,100.2497,26.8802,丽江市,丽江古城,,38,38,33,22,19,57,,109,84,17,15,8,9,0.4,0.5
2025-04-15T0000,2600A,100.2203,26.8906,丽江市,市中心,,36,34,26,25,16,49,,109,80,15,13,4,5,0.5,0.4
2025-04-15T0000,1267A,119.914,28.4514,丽水市,监测站大楼,颗粒物(PM10),69,88,99,26,27,39,,111,67,36,26,4,3,0.2,0.1
2025-04-15T0000,1268A,119.93,28.4586,丽水市,莲都小学,颗粒物(PM10),78,105,112,28,26,80,,111,75,18,23,4,4,0.2,0.2
2025-04-15T0000,1269A,119.879,28.4231,丽水市,余庄前,颗粒物(PM10),69,88,98,27,29,34,,118,76,20,14,2,4,0.2,0.2
2025-04-15T0000,1173A,119.176,34.5885,连云港市,市环境监测站,颗粒物(PM10),52,53,64,19,14,69,,120,92,35,24,20,11,0.6,0.5
2025-04-15T0000,3000A,119.3581,34.6972,连云港市,德源药业,颗粒物(PM10),57,63,73,31,16,30,,113,66,54,32,9,9,0.4,0.4
2025-04-15T0000,3007A,119.178,34.844,连云港市,新城一中,颗粒物(PM10),53,55,61,34,20,52,,120,90,50,22,9,8,0.8,0.7
2025-04-15T0000,3008A,119.3608,34.7519,连云港市,胡沟管理处,,44,44,33,14,9,27,,114,85,88,28,10,9,0.6,0.6
2025-04-15T0000,3009A,119.1478,34.5911,连云港市,矿山设计院,颗粒物(PM10),56,61,66,24,15,62,,116,83,38,36,18,9,0.5,0.4
2025-04-15T0000,3434A,119.2413,34.6539,连云港市,工贸学校,,38,38,59,24,21,74,,119,101,28,21,9,8,0.6,0.6
2025-04-15T0000,3664A,119.4172,34.7341,连云港市,连云街道,颗粒物(PM10),57,64,63,31,25,102,,108,104,20,22,7,7,0.5,0.5
2025-04-15T0000,2571A,102.3431,27.8099,凉山彝族自治州,青龙寺,,41,41,31,8,8,19,,64,52,33,14,8,9,0.6,0.6
2025-04-15T0000,2572A,102.2721,27.8415,凉山彝族自治州,邛海宾馆,,32,32,31,21,18,15,,65,48,53,28,8,9,0.6,0.6
2025-04-15T0000,2573A,102.2625,27.898,凉山彝族自治州,西昌市政府,,49,49,39,25,24,36,,56,48,27,23,8,11,0.6,0.7
2025-04-15T0000,2574A,102.2685,27.8851,凉山彝族自治州,凉山州政府,,48,48,41,27,20,27,,62,52,38,26,7,8,0.7,0.6
2025-04-15T0000,4229A,102.2342,27.8859,凉山彝族自治州,凯乐南路30号,,39,39,51,15,26,14,,40,27,51,41,10,11,0.9,0.9
2025-04-15T0000,2212A,123.2,41.1953,辽阳市,宏伟区,,24,24,23,14,14,49,,87,72,18,12,9,9,0.6,0.7
2025-04-15T0000,2213A,123.1683,41.2495,辽阳市,新华园,,30,29,20,21,17,40,,87,71,28,13,6,8,0.7,0.7
2025-04-15T0000,2214A,123.2354,41.2639,辽阳市,滨河路,,28,23,18,19,17,46,,81,66,20,13,8,7,0.7,0.7
2025-04-15T0000,2215A,123.149,41.2991,辽阳市,铁西工业园,,25,21,20,17,18,39,,79,58,22,15,8,9,0.7,0.7
2025-04-15T0000,2227A,125.1358,42.8845,辽源市,环保局,,45,45,32,29,15,41,,103,66,23,16,4,5,0.6,0.5
2025-04-15T0000,3239A,125.0764,42.9078,辽源市,银鹰制药,,39,32,22,27,15,17,,114,69,40,15,9,14,0.8,0.7
2025-04-15T0000,1625A,115.9848,36.4372,聊城市,区政府,,40,40,56,18,15,78,,130,108,31,20,16,9,0.6,0.4
2025-04-15T0000,2878A,116.0072,36.4343,聊城市,聊大东校,细颗粒物(PM2.5),75,61,64,55,24,68,,130,104,46,19,14,8,0.7,0.6
2025-04-15T0000,3200A,115.9819,36.4978,聊城市,监控中心,细颗粒物(PM2.5),64,,65,46,24,84,,130,100,32,22,6,5,0.4,0.3
2025-04-15T0000,3513A,116.0445,36.4361,聊城市,九州社区,,47,47,70,20,13,87,,139,113,35,16,15,9,0.4,0.4
2025-04-15T0000,4018A,116.0567,36.4608,聊城市,星美广场,,44,44,52,14,11,90,,134,114,24,15,12,8,0.5,0.5
2025-04-15T0000,2632A,94.3681,29.6376,林芝市,林芝监测站,,38,8,12,7,8,121,,123,119,3,5,5,5,0.3,0.3
2025-04-15T0000,2633A,94.3616,29.6616,林芝市,林芝人民医院,,36,11,16,6,9,114,,118,114,1,3,5,5,0.3,0.3
2025-04-15T0000,2603A,100.0781,23.8982,临沧市,市环保局,细颗粒物(PM2.5),80,70,42,59,29,42,,88,67,19,13,8,7,0.9,0.6
2025-04-15T0000,2604A,100.0894,23.8822,临沧市,市气象局,细颗粒物(PM2.5),73,57,38,53,33,42,,99,75,22,14,7,8,1.0,0.7
2025-04-15T0000,1733A,111.5531,36.0783,临汾市,临钢医院,,49,49,46,13,8,60,,101,74,30,15,9,5,0.4,0.3
2025-04-15T0000,1734A,111.5028,36.0714,临汾市,技工学校,颗粒物(PM10),52,54,39,14,10,47,,107,81,32,11,6,2,0.5,0.4
2025-04-15T0000,1736A,111.5018,36.0855,临汾市,市委,颗粒物(PM10),59,68,43,18,12,44,,107,83,35,11,7,4,0.7,0.5
2025-04-15T0000,3018A,111.505,36.1014,临汾市,唐尧大酒店,颗粒物(PM10),65,79,52,27,17,20,,105,77,58,11,9,7,0.7,0.4
2025-04-15T0000,4244A,111.4879,36.0530,临汾市,启星学校,颗粒物(PM10),51,51,46,24,11,37,,105,80,35,9,7,4,0.6,0.4
2025-04-15T0000,4271A,103.2464,35.6123,临夏回族自治州,滨河东路1号,颗粒物(PM10),110,169,114,68,35,5,,109,55,50,20,5,5,0.8,0.4
2025-04-15T0000,4310A,103.2093,35.5995,临夏回族自治州,新华街21号,颗粒物(PM10),83,116,98,58,38,43,,99,65,30,25,9,9,0.5,0.4
2025-04-15T0000,1618A,118.3429,35.0532,临沂市,沂河小区,颗粒物(PM10),53,56,75,36,27,70,,117,93,41,20,10,8,0.7,0.5
2025-04-15T0000,1619A,118.295,35.0583,临沂市,鲁南制药厂,细颗粒物(PM2.5),60,66,77,43,27,63,,128,97,55,26,13,10,0.5,0.4
2025-04-15T0000,1620A,118.2794,34.9976,临沂市,新光毛纺厂,颗粒物(PM10),51,51,64,24,22,76,,121,104,44,27,11,7,0.5,0.3
2025-04-15T0000,1621A,118.3956,35.0888,临沂市,河东保险公司,,46,46,58,17,13,82,,124,107,32,16,1,2,0.4,0.3
2025-04-15T0000,3370A,118.3564,35.0215,临沂市,十里堡居委,颗粒物(PM10),52,53,73,24,16,77,,125,103,35,20,5,3,0.8,0.6
2025-04-15T0000,3496A,118.3604,35.1084,临沂市,南坊新区,颗粒物(PM10),53,56,79,19,19,90,,130,109,33,20,6,6,0.6,0.5
2025-04-15T0000,3860A,118.3920,35.0300,临沂市,皇山花园小区,,48,48,70,20,17,88,,127,106,27,14,8,6,0.6,0.4
2025-04-15T0000,1870A,109.4856,24.3895,柳州市,柳东小学,颗粒物(PM10),128,206,257,78,82,64,,170,150,55,30,37,23,1.1,0.8
2025-04-15T0000,1871A,109.4157,24.3277,柳州市,环保监测站,颗粒物(PM10),139,228,280,86,85,12,,141,93,86,41,12,24,1.6,1.2
2025-04-15T0000,1872A,109.389,24.341,柳州市,河西水厂,颗粒物(PM10),155,259,294,85,80,6,,138,86,94,52,15,24,1.6,1.3
2025-04-15T0000,1873A,109.4311,24.2921,柳州市,市四中,颗粒物(PM10),130,210,259,71,65,24,,127,77,65,40,12,19,1.5,1.2
2025-04-15T0000,1874A,109.4006,24.3631,柳州市,市九中,颗粒物(PM10),125,200,292,88,78,60,,131,86,35,34,13,21,1.3,1.2
2025-04-15T0000,1875A,109.4958,24.3134,柳州市,古亭山,颗粒物(PM10),97,144,249,50,66,6,,150,94,95,35,10,20,0.8,0.9
2025-04-15T0000,3402A,109.5422,24.3996,柳州市,市二中,颗粒物(PM10),136,222,267,91,86,20,,151,98,74,38,26,25,1.0,0.6
2025-04-15T0000,2307A,116.5079,31.737,六安市,监测大楼,颗粒物(PM10),56,61,99,22,28,80,,112,105,23,10,6,6,0.4,0.3
2025-04-15T0000,2308A,116.4738,31.7643,六安市,皖西学院,颗粒物(PM10),64,77,112,27,31,78,,118,104,17,9,6,5,0.5,0.4
2025-04-15T0000,2309A,116.4996,31.7905,六安市,朝阳厂,颗粒物(PM10),58,65,101,21,30,99,,117,108,18,16,4,4,0.4,0.3
2025-04-15T0000,2310A,116.5567,31.7886,六安市,开发区,颗粒物(PM10),61,71,122,22,34,84,,118,102,22,19,4,5,0.6,0.5
2025-04-15T0000,2576A,104.8,26.5892,六盘水市,窑上,颗粒物(PM10),56,62,86,37,39,71,,122,92,11,8,5,6,0.3,0.3
2025-04-15T0000,2577A,104.83,26.5917,六盘水市,黄土坡,颗粒物(PM10),68,85,107,45,40,50,,121,85,37,22,8,10,0.2,0.2
2025-04-15T0000,2578A,104.89,26.5939,六盘水市,水钢,颗粒物(PM10),87,123,146,41,51,69,,128,106,34,25,12,14,1.6,1.3
2025-04-15T0000,2579A,104.8475,26.5894,六盘水市,民中,颗粒物(PM10),72,94,115,36,39,54,,127,95,40,28,19,11,1.2,0.6
2025-04-15T0000,2580A,104.9544,26.5506,六盘水市,双水,颗粒物(PM10),74,97,140,29,46,81,,124,104,20,22,10,13,0.3,0.6
2025-04-15T0000,2335A,117.0189,25.1181,龙岩市,龙岩师专,,,,,,,,,,,,,,,,
2025-04-15T0000,2336A,117.0217,25.1033,龙岩市,龙岩市监测站,颗粒物(PM10),90,130,112,42,35,24,,105,64,53,24,7,9,0.4,0.4
2025-04-15T0000,2337A,117.0258,25.0661,龙岩市,闽西职业技术学院,颗粒物(PM10),96,142,120,44,33,26,,106,52,47,29,47,25,0.4,0.4
2025-04-15T0000,2338A,117.0196,25.0306,龙岩市,龙岩学院,颗粒物(PM10),85,120,104,42,32,35,,110,75,27,10,8,4,0.3,0.3
2025-04-15T0000,2665A,105.0822,33.3261,陇南市,汉王镇固水子,,,,,,,,,,,,,,,,
2025-04-15T0000,2885A,104.9339,33.3826,陇南市,滨江中学,颗粒物(PM10),85,119,105,32,27,53,,101,83,21,14,7,8,0.6,0.5
2025-04-15T0000,3247A,104.955,33.371,陇南市,市总工会,颗粒物(PM10),68,85,90,32,30,77,,103,90,6,9,8,8,0.3,0.3
2025-04-15T0000,2487A,111.9589,27.8901,娄底市,电视发射台,颗粒物(PM10),89,127,188,37,48,80,,120,96,5,5,6,9,0.6,0.7
2025-04-15T0000,2488A,111.9975,27.725,娄底市,市监测站,细颗粒物(PM2.5),134,176,208,102,95,18,,134,95,58,28,12,15,1.5,1.1
2025-04-15T0000,2489A,112.0194,27.7314,娄底市,市委党校,颗粒物(PM10),111,172,218,59,79,53,,121,87,27,20,4,5,0.5,0.4
2025-04-15T0000,2490A,111.9561,27.7569,娄底市,涟钢,颗粒物(PM10),111,171,208,64,69,18,,115,71,36,29,8,21,0.3,0.6
2025-04-15T0000,2491A,111.9892,27.7044,娄底市,市政府,颗粒物(PM10),114,177,192,71,65,26,,122,81,42,19,5,7,0.7,0.6
2025-04-15T0000,1893A,105.4324,28.9634,泸州市,九狮山,,,,,,,,,,,,,,,,
2025-04-15T0000,1894A,105.4427,28.9063,泸州市,小市上码头,细颗粒物(PM2.5),84,114,117,62,70,12,,48,,85,51,5,6,1.2,0.9
2025-04-15T0000,1895A,105.4241,28.8573,泸州市,兰田宪桥,细颗粒物(PM2.5),110,128,127,83,74,23,,139,81,56,30,8,9,0.9,0.7
2025-04-15T0000,1896A,105.4379,28.8833,泸州市,市环监站,,,,,,,,,,,,,,,,
2025-04-15T0000,4272A,105.3689,28.7783,泸州市,纳溪中医医院,颗粒物(PM10),117,183,234,54,61,45,,133,57,37,37,8,10,0.7,0.7
2025-04-15T0000,2183A,111.1406,37.5211,吕梁市,环保局,,25,10,33,3,14,20,,98,66,49,15,7,7,0.2,0.3
2025-04-15T0000,2185A,111.1297,37.5136,吕梁市,自来水公司,颗粒物(PM10),74,98,40,38,15,12,,99,66,58,17,10,6,0.6,0.6
2025-04-15T0000,2867A,111.1283,37.51,吕梁市,马茂庄小学,颗粒物(PM10),70,89,46,8,9,6,,102,56,73,24,4,5,0.4,0.3
2025-04-15T0000,1812A,112.3931,34.6516,洛阳市,市委党校,颗粒物(PM10),52,53,70,10,21,57,,104,85,30,14,4,3,0.6,0.5
2025-04-15T0000,1815A,112.494,34.6886,洛阳市,河南林校,颗粒物(PM10),54,58,60,24,13,20,,110,78,64,15,7,4,0.7,0.5
2025-04-15T0000,1816A,112.3844,34.623,洛阳市,开发区管委会,,45,45,54,20,23,46,,107,72,20,11,2,5,0.3,0.2
2025-04-15T0000,1817A,112.4267,34.6258,洛阳市,市委新办公区,颗粒物(PM10),52,53,52,23,13,75,,113,94,24,12,6,5,0.3,0.2
2025-04-15T0000,3340A,112.6005,34.6326,洛阳市,伊滨,颗粒物(PM10),57,63,46,20,15,46,,110,87,32,12,5,5,0.6,0.5
2025-04-15T0000,3341A,112.4951,34.6332,洛阳市,中移产业园,颗粒物(PM10),56,61,88,22,20,55,,109,90,39,13,6,6,0.5,0.3
2025-04-15T0000,3593A,112.5736,34.8993,洛阳市,吉利监测站,颗粒物(PM10),66,81,61,20,12,13,,109,67,76,18,9,7,0.6,0.5
2025-04-15T0000,3635A,112.3677,34.662,洛阳市,河科大西苑校区,颗粒物(PM10),53,56,61,17,11,64,,106,88,33,16,9,7,0.5,0.4
2025-04-15T0000,3636A,112.4388,34.6781,洛阳市,英才小学,颗粒物(PM10),53,56,52,29,22,39,,108,81,54,15,10,6,0.6,0.4
2025-04-15T0000,4214A,112.4600,34.6949,洛阳市,春都路1号院,颗粒物(PM10),59,67,67,29,14,30,,114,83,52,15,17,7,0.8,0.5
2025-04-15T0000,2399A,114.051,33.5699,漯河市,三五一五工厂,颗粒物(PM10),53,56,74,20,24,86,,124,106,19,15,5,7,0.5,0.5
2025-04-15T0000,2400A,114.0055,33.5698,漯河市,漯河大学,颗粒物(PM10),56,61,74,14,23,92,,123,113,17,16,16,9,0.3,0.3
2025-04-15T0000,2401A,114.0138,33.5828,漯河市,市水利局,颗粒物(PM10),52,53,74,17,22,94,,120,112,16,18,11,7,0.1,0.7
2025-04-15T0000,2402A,114.0261,33.5698,漯河市,市广电局,颗粒物(PM10),55,59,75,22,22,86,,121,108,20,16,7,8,0.4,0.4
2025-04-15T0000,3478A,113.9749,33.5664,漯河市,市图书馆,,46,46,72,22,23,84,,126,112,24,20,8,8,0.6,0.6
2025-04-15T0000,4250A,114.0892,33.5882,漯河市,韶山路11号,颗粒物(PM10),54,58,76,24,21,97,,124,111,18,24,3,6,0.4,0.4
2025-04-15T0000,1798A,118.5092,31.6837,马鞍山市,湖东路四小,,50,50,104,24,40,88,,115,103,25,22,8,19,1.1,1.2
2025-04-15T0000,1799A,118.5024,31.6449,马鞍山市,开发区,颗粒物(PM10),53,55,106,30,42,24,,122,87,81,24,7,9,0.6,0.7
2025-04-15T0000,1802A,118.6245,31.7241,马鞍山市,濮塘,,32,32,101,22,32,102,,133,125,8,8,9,10,0.5,0.5
2025-04-15T0000,3633A,118.4918,31.6809,马鞍山市,雨山,颗粒物(PM10),51,51,111,23,36,87,,116,102,26,22,10,16,0.7,1.1
2025-04-15T0000,4191A,118.5274,31.72227,马鞍山市,慈湖高新区,颗粒物(PM10),58,65,113,32,44,64,,112,89,54,28,19,20,1.0,1
2025-04-15T0000,1686A,111.0286,21.4688,茂名市,电白南海,颗粒物(PM10),168,285,296,75,81,94,,151,,23,25,13,15,0.9,0.8
2025-04-15T0000,1687A,110.9294,21.6533,茂名市,茂石化七小,颗粒物(PM10),173,295,281,92,81,83,,118,108,26,20,39,20,1.0,1
2025-04-15T0000,1688A,110.9107,21.6687,茂名市,健康路,颗粒物(PM10),175,300,280,95,80,92,,128,118,24,19,74,29,0.9,0.8
2025-04-15T0000,1689A,110.8592,21.6828,茂名市,高岭,颗粒物(PM10),190,329,312,88,84,46,,110,91,47,24,17,21,0.9,0.7
2025-04-15T0000,3450A,111.01,21.5165,茂名市,电白水东,颗粒物(PM10),179,307,284,78,85,102,,134,124,23,24,15,21,0.7,0.6
2025-04-15T0000,2539A,104.0308,30.0478,眉山市,黑龙滩水库,颗粒物(PM10),78,106,93,28,21,51,,129,97,15,15,1,2,0.4,0.4
2025-04-15T0000,2540A,103.8416,30.0874,眉山市,气象局,颗粒物(PM10),132,214,155,58,46,5,,118,79,71,46,3,5,0.8,0.7
2025-04-15T0000,3137A,103.8578,30.0744,眉山市,市委党校,颗粒物(PM10),113,175,138,58,43,10,,112,72,74,46,6,9,1.2,0.9
2025-04-15T0000,3148A,103.8291,30.0564,眉山市,区人社局,颗粒物(PM10),99,148,92,68,47,22,,118,86,77,53,10,12,1.0,0.8
2025-04-15T0000,1690A,116.1231,24.3284,梅州市,梅江月梅,颗粒物(PM10),90,129,132,49,44,37,,118,76,30,22,4,6,0.5,0.4
2025-04-15T0000,1691A,116.0797,24.2719,梅州市,梅县新城,,,,141,,51,,,112,75,,22,,6,,0.5
2025-04-15T0000,1692A,116.1248,24.2654,梅州市,环境监控中心,颗粒物(PM10),92,134,136,51,43,12,,108,63,64,30,8,9,0.6,0.5
2025-04-15T0000,3315A,116.1233,24.2991,梅州市,梅龙,颗粒物(PM10),84,117,133,52,52,42,,109,69,21,20,9,7,0.6,0.5
2025-04-15T0000,1878A,104.7778,31.4741,绵阳市,富乐山,颗粒物(PM10),95,140,133,53,48,78,,129,114,30,26,8,8,0.5,0.4
2025-04-15T0000,1880A,104.6697,31.4668,绵阳市,高新区自来水公司,颗粒物(PM10),102,153,135,53,47,2,,133,101,100,47,5,4,0.8,0.6
2025-04-15T0000,1881A,104.7287,31.5075,绵阳市,三水厂,颗粒物(PM10),108,165,150,61,69,7,,128,96,82,42,6,7,0.8,0.7
2025-04-15T0000,3491A,104.69,31.5322,绵阳市,西科大附属小学,颗粒物(PM10),113,175,154,64,51,13,,144,115,94,38,7,8,0.9,0.7
2025-04-15T0000,3492A,104.5648,31.5343,绵阳市,安州区旅游局,颗粒物(PM10),94,137,143,44,41,30,,122,92,38,28,7,7,0.5,0.4
2025-04-15T0000,4226A,104.7651,31.4531,绵阳市,绵阳市气象局,颗粒物(PM10),107,163,150,49,47,60,,127,108,50,39,7,8,0.6,0.5
2025-04-15T0000,1784A,129.61,44.561,牡丹江市,环保大楼,,25,25,21,11,14,35,,81,60,25,12,6,6,0.3,0.3
2025-04-15T0000,1785A,129.6115,44.5782,牡丹江市,文化广场,,32,32,30,22,17,48,,84,62,17,12,11,11,0.6,0.5
2025-04-15T0000,1786A,129.5904,44.5963,牡丹江市,第一医院,,36,36,26,20,13,47,,89,70,14,9,7,6,0.4,0.3
2025-04-15T0000,1787A,129.6364,44.6075,牡丹江市,机车工厂,,46,34,38,21,16,33,,88,62,30,16,138,33,0.6,0.5
2025-04-15T0000,1788A,129.6386,44.5462,牡丹江市,第一中学,,24,24,20,15,14,23,,91,60,42,10,7,7,0.5,0.5
2025-04-15T0000,2531A,105.0703,29.61,内江市,市监测站,细颗粒物(PM2.5),138,156,180,105,72,8,,131,83,73,35,12,12,1.1,0.7
2025-04-15T0000,2532A,105.0717,29.5947,内江市,东兴区政府,颗粒物(PM10),116,181,186,70,59,33,,132,85,51,38,6,6,0.6,0.6
2025-04-15T0000,2533A,105.0653,29.5817,内江市,内江二中,颗粒物(PM10),174,297,194,85,68,9,,124,74,76,42,8,9,0.7,0.5
2025-04-15T0000,2534A,105.0406,29.5822,内江市,内江日报社,颗粒物(PM10),140,229,223,92,76,25,,128,90,81,40,9,9,0.6,0.4
2025-04-15T0000,2628A,92.0657,31.4846,那曲市,那曲监测站,,32,19,29,14,19,101,,121,112,18,19,7,7,0.5,0.6
2025-04-15T0000,4243A,92.0515,31.4787,那曲市,那曲市委宣传部,,34,23,25,15,13,107,,131,119,12,14,6,6,0.6,0.5
2025-04-15T0000,1290A,115.8931,28.6843,南昌市,省外办,颗粒物(PM10),78,105,167,31,55,85,,115,102,34,23,7,11,0.4,0.4
2025-04-15T0000,1291A,115.8886,28.7003,南昌市,省林业公司,颗粒物(PM10),98,146,224,39,57,58,,107,96,32,14,8,12,0.3,0.3
2025-04-15T0000,1292A,115.8126,28.7442,南昌市,林科所,颗粒物(PM10),76,102,214,22,54,104,,125,104,19,19,8,10,0.5,0.3
2025-04-15T0000,1294A,115.8518,28.687,南昌市,建工学校,颗粒物(PM10),89,127,246,55,62,86,,122,106,32,17,4,9,0.5,0.5
2025-04-15T0000,1295A,115.8921,28.6424,南昌市,象湖,颗粒物(PM10),80,109,224,29,54,80,,138,118,37,14,7,13,0.4,0.5
2025-04-15T0000,1296A,115.7423,28.7996,南昌市,武术学校,,,46,144,,26,55,,110,79,4,3,8,14,0.5,0.5
2025-04-15T0000,3046A,115.9084,28.6062,南昌市,机电学校,颗粒物(PM10),93,135,229,36,66,73,,126,107,42,24,4,9,0.4,0.5
2025-04-15T0000,3690A,115.9721,28.7031,南昌市,外国语学校,颗粒物(PM10),94,138,210,34,54,73,,131,104,49,21,13,12,0.0,0.1
2025-04-15T0000,4192A,115.9316,28.68677,南昌市,南京东路235号,颗粒物(PM10),91,132,231,29,53,94,,129,114,25,20,8,10,0.4,0.4
2025-04-15T0000,1905A,106.056,30.8064,南充市,西山风景区,颗粒物(PM10),109,168,215,67,74,108,,122,120,14,13,7,7,0.5,0.4
2025-04-15T0000,1906A,106.0789,30.8023,南充市,南充市委,颗粒物(PM10),130,209,269,72,85,5,,117,61,63,30,3,4,0.8,0.5
2025-04-15T0000,1907A,106.1031,30.8217,南充市,南充炼油厂,颗粒物(PM10),147,243,266,89,92,4,,105,68,80,33,5,4,0.9,0.6
2025-04-15T0000,4227A,106.1083,30.7884,南充市,梨树横街98号,颗粒物(PM10),154,258,279,62,60,24,,118,89,74,32,6,6,0.7,0.4
2025-04-15T0000,4304A,106.1172,30.843,南充市,清泉寺北路188号,颗粒物(PM10),147,244,269,81,81,46,,109,88,43,25,5,5,0.3,0.2
2025-04-15T0000,4305A,106.067,30.7616,南充市,同庆路1号,颗粒物(PM10),133,215,261,73,77,11,,96,54,70,35,4,4,0.6,0.5
2025-04-15T0000,1151A,118.8086,32.1065,南京市,迈皋桥,,35,35,68,7,16,61,,118,102,45,11,4,4,0.3,0.2
2025-04-15T0000,1152A,118.7538,32.0551,南京市,草场门,,41,41,90,14,23,72,,120,105,45,20,4,5,0.5,0.5
2025-04-15T0000,1153A,118.7794,32.0745,南京市,山西路,颗粒物(PM10),57,63,125,17,35,77,,122,109,32,17,4,4,0.2,0.1
2025-04-15T0000,1154A,118.7752,32.0023,南京市,中华门,,48,48,83,12,20,66,,105,94,39,11,9,8,0.7,0.7
2025-04-15T0000,1155A,118.8109,32.0309,南京市,瑞金路,,44,44,84,17,25,62,,110,94,28,8,6,6,0.3,0.3
2025-04-15T0000,1156A,118.7997,32.0754,南京市,玄武湖,,49,49,85,10,15,57,,104,91,22,11,5,5,0.6,0.5
2025-04-15T0000,1157A,118.6414,32.0931,南京市,浦口,,46,46,106,10,18,108,,130,126,17,16,6,6,0.4,0.4
2025-04-15T0000,1158A,118.7356,31.9996,南京市,奥体中心,,42,42,82,14,24,61,,114,98,45,17,7,7,0.4,0.3
2025-04-15T0000,1159A,118.9125,32.1028,南京市,仙林大学城,,48,48,96,22,25,38,,115,90,67,19,10,12,0.8,0.9
2025-04-15T0000,3422A,118.8436,31.9198,南京市,江宁彩虹桥,,50,50,104,14,19,59,,120,100,36,9,5,4,0.6,0.5
2025-04-15T0000,3427A,118.8554,32.3578,南京市,六合雄州,颗粒物(PM10),54,57,68,15,15,71,,113,102,14,5,9,5,0.4,0.3
2025-04-15T0000,4249A,118.8708,31.3402,南京市,汶溪路181号,,46,46,110,15,46,87,,120,110,26,19,4,4,0.8,0.6
2025-04-15T0000,4312A,119.019,31.6512,南京市,中山西路1号,,29,29,89,18,40,68,,120,105,27,15,6,5,0.5,0.5
2025-04-15T0000,1401A,108.3103,22.7881,南宁市,二十一中,颗粒物(PM10),126,201,229,67,75,85,,174,130,51,43,6,9,0.8,0.7
2025-04-15T0000,1402A,108.3141,22.8528,南宁市,北湖,颗粒物(PM10),156,261,242,100,78,18,,173,97,108,49,12,15,1.2,0.9
2025-04-15T0000,1403A,108.3206,22.8225,南宁市,市监测站,颗粒物(PM10),127,203,239,84,71,4,,153,91,118,47,7,11,0.9,0.4
2025-04-15T0000,1404A,108.3829,22.8037,南宁市,大自然花园,颗粒物(PM10),122,193,242,66,72,91,,176,138,28,28,7,9,0.6,0.5
2025-04-15T0000,1405A,108.4394,22.7904,南宁市,仙葫,颗粒物(PM10),133,216,235,78,78,7,,149,110,86,33,8,10,0.8,0.5
2025-04-15T0000,1406A,108.2397,22.8467,南宁市,区农职院,颗粒物(PM10),120,189,226,67,65,51,,156,101,47,29,16,11,0.8,0.7
2025-04-15T0000,1407A,108.3275,22.735,南宁市,英华嘉园,颗粒物(PM10),127,203,234,84,73,5,,167,103,115,48,8,10,0.7,0.5
2025-04-15T0000,3401A,108.4834,22.7618,南宁市,红星社区,颗粒物(PM10),137,223,239,69,66,62,,181,146,54,28,10,11,0.8,0.6
2025-04-15T0000,4221A,108.2177,22.7774,南宁市,乐贤路16号,颗粒物(PM10),147,244,234,73,65,16,,152,96,84,41,18,15,0.7,0.7
2025-04-15T0000,2331A,118.0966,26.6761,南平市,茫荡山,,,,,,,,,,,,,,,,
2025-04-15T0000,2332A,118.1681,26.6369,南平市,南平市监测站,颗粒物(PM10),84,118,111,45,35,30,,109,75,38,18,4,5,0.6,0.6
2025-04-15T0000,2333A,118.1825,26.6489,南平市,南平铝业有限公司,颗粒物(PM10),93,136,118,47,40,25,,106,73,42,16,6,5,0.6,0.6
2025-04-15T0000,2334A,118.1756,26.6272,南平市,南平七中,颗粒物(PM10),95,139,115,44,37,45,,111,86,23,14,4,5,0.5,0.6
2025-04-15T0000,1168A,120.9098,31.9663,南通市,狼山街道,,47,47,72,15,16,41,,122,100,65,25,8,7,0.6,0.6
2025-04-15T0000,1169A,120.86,32.0005,南通市,虹桥,,47,47,76,17,20,84,,121,109,28,21,9,8,0.4,0.4
2025-04-15T0000,1170A,120.87,32.02,南通市,城中,颗粒物(PM10),55,60,81,15,15,87,,125,113,27,20,5,4,0.5,0.4
2025-04-15T0000,1171A,120.94,31.93,南通市,星湖花园,颗粒物(PM10),56,61,76,32,22,21,,98,67,95,48,15,9,1.3,0.6
2025-04-15T0000,1172A,120.81,32.0417,南通市,紫琅学院,颗粒物(PM10),56,62,68,21,14,52,,121,104,52,19,6,5,0.7,0.7
2025-04-15T0000,3291A,121.067,32.062,南通市,通州监测站,颗粒物(PM10),52,53,73,22,15,83,,120,108,22,17,6,6,0.4,0.3
2025-04-15T0000,3432A,120.9348,31.9883,南通市,环境教育馆,颗粒物(PM10),51,51,86,17,17,88,,133,122,20,15,6,6,0.4,0.4
2025-04-15T0000,2404A,112.5224,33.0122,南阳市,瓦房庄,颗粒物(PM10),56,62,98,16,22,53,,115,92,35,14,5,4,0.5,0.4
2025-04-15T0000,2405A,112.5003,32.9735,南阳市,汉画馆,,44,44,88,14,18,38,,104,73,47,20,4,4,0.4,0.3
2025-04-15T0000,2406A,112.5573,33.027,南阳市,气象站,颗粒物(PM10),52,54,103,12,15,60,,111,93,31,13,5,3,0.5,0.3
2025-04-15T0000,2407A,112.5481,32.9689,南阳市,理工学院,,23,,92,11,21,72,,114,93,24,18,3,3,0.4,0.3
2025-04-15T0000,4008A,112.5234,32.9922,南阳市,卧龙区政府,,47,47,92,14,18,57,,112,92,31,13,4,3,0.5,0.4
2025-04-15T0000,1234A,121.8358,29.911,宁波市,区环保大楼,颗粒物(PM10),61,71,124,26,30,94,,118,104,23,19,12,10,0.6,0.5
2025-04-15T0000,1235A,121.56,29.82,宁波市,万里学院,颗粒物(PM10),58,66,125,19,35,97,,133,116,18,9,6,7,0.4,0.4
2025-04-15T0000,1236A,121.713,29.9572,宁波市,龙赛医院,颗粒物(PM10),62,74,116,19,28,91,,123,107,25,16,13,10,0.6,0.5
2025-04-15T0000,1239A,121.633,29.7733,宁波市,钱湖水厂,颗粒物(PM10),55,60,113,18,31,96,,132,117,16,12,8,8,0.5,0.5
2025-04-15T0000,1240A,121.5856,29.8635,宁波市,太古小学,颗粒物(PM10),56,61,118,15,28,100,,135,119,19,13,9,9,0.4,0.4
2025-04-15T0000,1241A,121.524,29.8674,宁波市,市环境监测中心,颗粒物(PM10),58,66,115,20,29,91,,129,111,24,18,10,9,0.5,0.4
2025-04-15T0000,2871A,121.6147,29.9017,宁波市,万里国际学校,颗粒物(PM10),65,80,112,19,33,40,,132,96,72,15,8,8,0.4,0.3
2025-04-15T0000,3710A,121.5594,29.8975,宁波市,白沙活动中心,颗粒物(PM10),57,64,104,18,38,96,,131,115,18,12,8,8,0.5,0.5
2025-04-15T0000,2339A,119.5001,26.6946,宁德市,金涵水库,,,,,,,,,,,,,,,,
2025-04-15T0000,2341A,119.5388,26.6612,宁德市,宁德市监测站,颗粒物(PM10),90,130,111,46,39,79,,100,82,9,17,5,5,0.3,0.5
2025-04-15T0000,3209A,119.5231,26.6562,宁德市,宁德一中,颗粒物(PM10),83,115,104,45,41,66,,106,83,6,11,6,6,0.3,0.3
2025-04-15T0000,2618A,98.8601,25.8567,怒江傈僳族自治州,州监测站,,46,46,37,25,24,72,,100,89,10,9,9,8,0.2,0.3
2025-04-15T0000,2619A,98.8546,25.8417,怒江傈僳族自治州,泸水一中,细颗粒物(PM2.5),52,47,40,36,26,23,,84,51,33,19,7,7,0.7,0.5
2025-04-15T0000,1888A,101.6891,26.571,攀枝花市,弄弄坪,,39,39,43,16,19,86,,128,110,18,20,8,9,0.7,0.9
2025-04-15T0000,1889A,101.5769,26.5928,攀枝花市,河门口,,40,40,46,21,19,73,,140,115,23,20,10,19,0.6,1.1
2025-04-15T0000,1890A,101.7169,26.585,攀枝花市,炳草岗,,38,38,44,20,18,83,,128,111,18,25,9,14,0.4,0.6
2025-04-15T0000,1891A,101.7369,26.5008,攀枝花市,仁和,,34,34,40,17,21,90,,137,118,13,16,11,11,0.5,0.5
2025-04-15T0000,2835A,101.7227,26.567,攀枝花市,四十中小,,38,38,37,22,21,94,,129,115,11,20,8,9,0.5,0.6
2025-04-15T0000,1604A,122.0303,41.1489,盘锦市,开发区,,49,,13,34,17,30,,81,62,40,14,9,8,0.5,0.5
2025-04-15T0000,1605A,122.0485,41.0883,盘锦市,兴隆台,,40,,14,28,15,11,,77,54,62,20,9,9,0.9,0.5
2025-04-15T0000,1606A,121.8297,41.1028,盘锦市,新生街道,,33,,12,23,14,21,,77,49,52,23,14,14,0.6,0.4
2025-04-15T0000,1832A,113.3257,33.742,平顶山市,新华旅馆,颗粒物(PM10),55,60,81,22,25,32,,116,84,48,18,4,6,0.4,0.3
2025-04-15T0000,1833A,113.2919,33.737,平顶山市,规划设计院,,48,48,71,22,21,56,,117,77,35,18,4,6,0.7,0.7
2025-04-15T0000,1834A,113.182,33.774,平顶山市,平顶山工学院,,39,39,67,14,18,76,,120,104,17,11,6,6,0.4,0.4
2025-04-15T0000,3204A,113.3025,33.73,平顶山市,规划局,,46,46,80,7,11,53,,116,87,39,16,5,6,0.4,0.5
2025-04-15T0000,3594A,112.8867,33.9116,平顶山市,石龙区,,44,44,161,10,20,104,,112,103,14,13,5,5,0.2,0.3
2025-04-15T0000,2656A,106.6692,35.5461,平凉市,聚贤嘉苑,,47,47,46,23,21,25,,106,67,54,16,9,8,0.6,0.6
2025-04-15T0000,2657A,106.7021,35.5307,平凉市,博物馆,,46,46,50,20,18,31,,103,66,40,14,10,10,0.5,0.5
2025-04-15T0000,2347A,114.0997,27.5002,萍乡市,武功山,颗粒物(PM10),64,78,153,24,39,63,,104,88,7,6,11,12,0.3,0.5
2025-04-15T0000,2348A,113.8385,27.6434,萍乡市,中医院,颗粒物(PM10),104,158,221,42,59,23,,120,72,48,25,10,16,0.6,0.7
2025-04-15T0000,2349A,113.8493,27.6253,萍乡市,市政府车库,颗粒物(PM10),86,121,181,57,60,52,,124,84,28,24,4,8,0.5,0.6
2025-04-15T0000,2350A,113.8676,27.6435,萍乡市,市环保局,颗粒物(PM10),106,162,222,65,82,36,,124,78,48,30,10,12,0.8,0.8
2025-04-15T0000,2351A,113.866,27.6198,萍乡市,安源区政府,颗粒物(PM10),94,138,194,46,58,41,,119,83,25,17,13,13,0.6,0.5
2025-04-15T0000,2319A,119.0141,25.4325,莆田市,荔城区仓后路,颗粒物(PM10),88,125,140,58,52,46,,158,90,40,28,4,5,0.8,0.6
2025-04-15T0000,2320A,119.0015,25.4553,莆田市,莆田市监测站,颗粒物(PM10),74,97,113,45,47,71,,166,101,20,19,5,6,0.5,0.5
2025-04-15T0000,2321A,119.1119,25.4561,莆田市,涵江区六中,颗粒物(PM10),93,136,131,62,51,15,,166,97,82,28,5,5,0.7,0.6
2025-04-15T0000,2322A,119.1013,25.3215,莆田市,秀屿区政府,颗粒物(PM10),87,124,141,62,54,81,,161,119,29,27,6,6,0.7,0.6
2025-04-15T0000,2323A,118.981,25.4792,莆田市,东圳水库,,,,,,,,,,,,,,,,
2025-04-15T0000,2392A,115.0312,35.7636,濮阳市,环保局,,33,33,48,17,19,97,,125,109,16,17,6,6,1.0,1
2025-04-15T0000,2394A,115.0574,35.7609,濮阳市,油田运输公司,细颗粒物(PM2.5),89,,54,66,14,107,,137,119,18,18,5,5,0.5,0.5
2025-04-15T0000,3021A,115,35.7668,濮阳市,濮水河管理处,颗粒物(PM10),51,52,57,21,14,73,,130,97,21,18,4,4,0.6,0.6
2025-04-15T0000,4216A,115.0924,35.7686,濮阳市,任丘路479号,,40,40,58,18,13,110,,138,117,19,17,7,5,0.5,0.4
2025-04-15T0000,2601A,100.98,22.7633,普洱市,市环保局,,28,28,40,17,15,39,,82,60,9,11,2,2,0.6,0.6
2025-04-15T0000,2602A,100.9817,22.8322,普洱市,普洱第二中学,,23,23,34,14,18,38,,99,63,11,19,6,7,0.4,0.4
2025-04-15T0000,2262A,131.0518,45.8751,七台河市,新一中,,45,45,31,21,13,63,,100,73,14,11,10,12,0.6,0.5
2025-04-15T0000,3345A,131.0577,45.7879,七台河市,中波台,,34,34,27,16,8,39,,80,58,35,17,10,6,0.5,0.4
2025-04-15T0000,3637A,131.0176,45.7761,七台河市,人民广场,,44,44,33,24,16,56,,90,68,25,15,9,9,0.8,0.8
2025-04-15T0000,3684A,130.8781,45.8222,七台河市,新建矿广场,,41,41,38,17,14,34,,85,52,25,18,10,7,0.7,0.6
2025-04-15T0000,1779A,123.9305,47.3636,齐齐哈尔市,安居小区,,24,15,25,3,10,75,,98,69,14,16,3,3,0.3,0.3
2025-04-15T0000,1780A,123.9488,47.3386,齐齐哈尔市,中心广场,,48,48,38,12,12,79,,90,74,10,15,7,6,0.5,0.6
2025-04-15T0000,1781A,123.9483,47.3227,齐齐哈尔市,农牧车辆厂,,26,24,25,14,10,81,,98,75,12,14,6,5,0.4,0.2
2025-04-15T0000,1783A,123.945,47.2988,齐齐哈尔市,市环境监测站,,41,41,31,19,14,77,,98,65,14,15,3,2,0.5,0.5
2025-04-15T0000,3662A,123.6333,47.2075,齐齐哈尔市,富区青少年活动中心,,32,30,33,22,20,46,,97,53,28,17,2,3,0.5,0.4
2025-04-15T0000,2591A,107.9783,26.5747,黔东南苗族侗族自治州,市环境监测站,颗粒物(PM10),68,86,120,39,48,37,,121,79,41,20,3,4,0.4,0.3
2025-04-15T0000,2881A,107.8908,26.5311,黔东南苗族侗族自治州,凯里学院,颗粒物(PM10),54,58,113,33,44,34,,118,81,36,16,2,3,0.4,0.4
2025-04-15T0000,2593A,107.5228,26.2403,黔南布依族苗族自治州,小围寨,颗粒物(PM10),59,68,97,29,34,66,,140,116,20,13,5,6,0.5,0.4
2025-04-15T0000,3538A,107.5175,26.2978,黔南布依族苗族自治州,沙坝,颗粒物(PM10),63,75,117,29,36,49,,133,94,15,12,5,5,0.6,0.5
2025-04-15T0000,2589A,104.9022,25.0925,黔西南布依族苗族自治州,场坝街,颗粒物(PM10),67,83,124,44,58,60,,133,99,27,19,4,29,0.3,0.3
2025-04-15T0000,2590A,104.8811,25.0992,黔西南布依族苗族自治州,坪东大道,颗粒物(PM10),70,90,108,48,50,42,,131,87,43,25,4,11,0.4,0.4
2025-04-15T0000,2502A,108.6236,21.9667,钦州市,市环保站,颗粒物(PM10),170,290,308,68,75,73,,130,108,42,41,6,10,1.0,1.3
2025-04-15T0000,2503A,108.6549,21.9481,钦州市,沙埠小学,颗粒物(PM10),180,310,300,80,71,17,,136,94,92,45,13,12,1.5,1.3
2025-04-15T0000,2504A,108.5989,21.7431,钦州市,港区一小,颗粒物(PM10),166,282,297,61,71,25,,130,91,95,47,17,12,1.0,0.9
2025-04-15T0000,3404A,108.5959,21.9633,钦州市,北职校,颗粒物(PM10),171,291,272,70,73,66,,132,106,44,31,12,11,0.9,1.4
2025-04-15T0000,1043A,119.7493,40.0116,秦皇岛市,第一关,,35,,20,24,20,33,,101,50,57,23,4,4,0.4,0.3
2025-04-15T0000,1044A,119.5897,39.9499,秦皇岛市,监测站,,30,30,25,12,14,77,,104,79,5,5,3,3,0.3,0.3
2025-04-15T0000,1046A,119.5251,39.9041,秦皇岛市,建设大厦,,30,21,28,21,16,65,,103,76,23,15,4,2,0.4,0.3
2025-04-15T0000,3132A,119.610547,39.943889,秦皇岛市,文明里,,35,30,29,24,13,74,,100,73,10,7,3,3,0.4,0.3
2025-04-15T0000,4198A,119.5090,39.8253,秦皇岛市,北戴河轮滑馆,,33,33,22,15,8,57,,100,74,17,5,7,5,0.4,0.3
2025-04-15T0000,1307A,120.6659,36.2403,青岛市,仰口,,34,20,60,17,20,108,,104,103,4,5,4,4,0.5,0.6
2025-04-15T0000,1310A,120.4134,36.0658,青岛市,市南区东部子站,,24,24,76,9,13,62,,102,76,26,17,7,8,0.5,0.5
2025-04-15T0000,1311A,120.3664,36.1032,青岛市,四方区子站,,44,44,65,19,15,13,,113,78,86,20,6,6,0.6,0.4
2025-04-15T0000,1312A,120.2994,36.054,青岛市,市南区西部子站,,31,31,61,12,12,55,,95,67,35,25,9,7,0.6,0.6
2025-04-15T0000,1313A,120.4581,36.0858,青岛市,崂山区子站,,24,24,65,7,9,48,,114,87,34,13,7,8,0.5,0.4
2025-04-15T0000,1315A,120.3999,36.3083,青岛市,城阳区子站,颗粒物(PM10),52,53,66,20,14,12,,107,68,68,19,8,9,0.9,0.6
2025-04-15T0000,1966A,120.0405,35.8735,青岛市,黄岛区4号,,25,19,58,3,11,80,,118,99,14,14,8,8,0.7,0.6
