timepoint,stationcode,longitude,latitude,area,positionname,primarypollutant,aqi,pm10,pm10_24h,pm2_5,pm2_5_24h,o3,o3_24h,o3_8h,o3_8h_24h,no2,no2_24h,so2,so2_24h,co,co_24h
2025-04-15T1800,2566A,102.1879,31.914,阿坝藏族羌族自治州,州农科所,,22,12,26,11,11,70,,73,73,30,12,14,13,0.5,0.4
2025-04-15T1800,2568A,102.2502,31.8896,阿坝藏族羌族自治州,马师校,,33,14,15,12,13,103,,94,94,7,12,6,5,0.4,0.4
2025-04-15T1800,3994A,102.2165,31.9024,阿坝藏族羌族自治州,马尔康中学西区,,35,10,15,3,10,112,,100,100,3,6,4,4,0.3,0.4
2025-04-15T1800,2695A,80.292,41.1694,阿克苏地区,电视台,颗粒物(PM10),81,112,208,34,69,129,,107,107,2,11,5,6,0.4,0.4
2025-04-15T1800,2696A,80.2613,41.1551,阿克苏地区,艺术中心,颗粒物(PM10),86,121,220,29,70,124,,108,108,6,16,5,4,0.4,0.4
2025-04-15T1800,2204A,105.6467,38.8363,阿拉善盟,西城区西花园,颗粒物(PM10),226,368,132,112,34,125,,117,117,7,11,19,20,0.7,0.8
2025-04-15T1800,2205A,105.6985,38.8411,阿拉善盟,蒙二幼,颗粒物(PM10),459,559,100,127,27,110,,104,104,10,9,6,7,0.5,0.5
2025-04-15T1800,2206A,105.724,38.8516,阿拉善盟,环保局新楼,颗粒物(PM10),408,508,82,140,27,112,,104,103,4,5,9,9,0.4,0.5
2025-04-15T1800,2708A,88.1264,47.8517,阿勒泰地区,市站,,,22,34,3,9,86,,80,75,,5,,2,0.4,0.3
2025-04-15T1800,2630A,80.1161,32.5,阿里地区,阿里监测站,,,6,6,3,4,127,,104,104,1,7,6,6,,0.4
2025-04-15T1800,3192A,80.0903,32.5028,阿里地区,阿里藏医院,,40,9,13,3,6,126,,110,110,1,8,5,8,0.3,0.5
2025-04-15T1800,2642A,109.0318,32.6537,安康市,香溪洞,颗粒物(PM10),53,56,42,28,31,95,,85,85,9,10,8,8,0.6,0.6
2025-04-15T1800,2644A,109.0072,32.6975,安康市,汉滨区检察院,颗粒物(PM10),59,67,49,22,23,94,,84,84,15,14,12,10,0.4,0.4
2025-04-15T1800,4054A,109.0325,32.6913,安康市,市邮政管理局,颗粒物(PM10),60,69,54,24,19,91,,86,86,16,17,12,12,0.3,0.4
2025-04-15T1800,2291A,117.0809,30.5177,安庆市,环科院,,43,42,56,14,18,135,,132,132,12,44,8,9,0.4,0.5
2025-04-15T1800,2292A,117.0331,30.5119,安庆市,马山宾馆,,41,34,51,14,20,131,,127,127,28,39,6,6,0.3,0.4
2025-04-15T1800,2294A,116.9896,30.6145,安庆市,安庆大学,,45,39,57,11,18,142,,139,139,10,17,8,6,0.2,0.6
2025-04-15T1800,3173A,117.0598,30.5351,安庆市,市人大,,43,39,59,11,20,136,,134,134,14,30,8,9,0.2,0.3
2025-04-15T1800,3122A,105.9606,26.2611,安顺市,伍家关,颗粒物(PM10),59,68,96,35,39,161,,154,154,2,15,4,11,0.3,0.5
2025-04-15T1800,3123A,105.9408,26.2431,安顺市,凤凰山,,,,104,36,50,132,,128,128,8,35,6,14,0.4,0.6
2025-04-15T1800,3124A,105.9439,26.2564,安顺市,金钟山,颗粒物(PM10),64,77,91,30,38,131,,126,126,7,14,6,14,0.4,0.6
2025-04-15T1800,3125A,105.8983,26.2481,安顺市,娄家坡,颗粒物(PM10),58,65,87,28,39,130,,128,128,8,17,6,13,0.6,0.7
2025-04-15T1800,1818A,114.4839,36.0621,安阳市,棉研所,,,,,,,,,,,,,,,,
2025-04-15T1800,1819A,114.3551,36.1017,安阳市,红庙街,颗粒物(PM10),64,78,59,30,21,137,,122,122,7,14,5,6,0.5,0.5
2025-04-15T1800,1820A,114.361,36.0681,安阳市,银杏小区,细颗粒物(PM2.5),74,89,65,54,30,148,,133,133,10,19,6,8,0.4,0.4
2025-04-15T1800,3141A,114.3922,36.0878,安阳市,信访局,细颗粒物(PM2.5),134,,59,102,23,152,,138,138,16,18,5,6,0.2,0.2
2025-04-15T1800,3669A,114.4705,36.0637,安阳市,左辅环卫站,颗粒物(PM10),63,76,67,41,29,140,,124,124,22,35,5,8,1.1,1
2025-04-15T1800,3703A,114.2917,36.0949,安阳市,安钢职工学校,细颗粒物(PM2.5),72,91,83,52,33,131,,125,125,14,20,5,6,0.4,0.4
2025-04-15T1800,1748A,123.044,41.1196,鞍山市,深沟寺,,46,46,43,31,31,86,,93,92,30,20,15,13,1.0,1
2025-04-15T1800,1749A,123.011,41.0931,鞍山市,太阳城,,41,41,44,26,31,87,,92,92,25,18,7,8,0.9,1.1
2025-04-15T1800,1750A,123.0485,41.1442,鞍山市,太平,颗粒物(PM10),63,76,52,42,30,66,,84,84,47,19,27,13,2.0,1
2025-04-15T1800,1751A,122.9642,41.0971,鞍山市,铁西三道街,,49,49,47,31,35,88,,90,90,35,25,8,7,0.9,0.9
2025-04-15T1800,1753A,123.022,41.0821,鞍山市,明达新区,,41,41,42,28,30,100,,98,98,20,16,9,9,0.6,0.9
2025-04-15T1800,1754A,123.1289,41.0228,鞍山市,千山,,,,23,,14,,,60,,,11,,5,,1.1
2025-04-15T1800,4201A,122.9446,41.0826,鞍山市,兴盛南路290号,细颗粒物(PM2.5),59,62,51,42,34,89,,92,92,40,27,10,9,0.8,1
2025-04-15T1800,2195A,107.4212,40.761,巴彦淖尔市,附二中,颗粒物(PM10),125,199,84,48,25,105,,102,102,8,26,8,12,0.4,0.6
2025-04-15T1800,2196A,107.37,40.7372,巴彦淖尔市,市环保大楼,颗粒物(PM10),129,208,86,53,26,104,,105,105,9,22,3,10,,0.3
2025-04-15T1800,1956A,86.1472,41.7538,巴音郭楞蒙古自治州,孔雀公园,颗粒物(PM10),134,218,247,63,67,118,,98,98,3,28,6,5,0.1,0.3
2025-04-15T1800,1957A,86.1972,41.7166,巴音郭楞蒙古自治州,棉纺厂,颗粒物(PM10),134,218,306,62,64,116,,99,99,4,21,2,2,0.2,0.3
2025-04-15T1800,1958A,86.2357,41.7173,巴音郭楞蒙古自治州,经济开发区,颗粒物(PM10),116,181,247,50,56,119,,107,107,6,11,6,5,0.2,0.2
2025-04-15T1800,2914A,106.7677,31.8794,巴中市,苏山坪,颗粒物(PM10),89,128,153,48,56,119,,110,110,6,9,5,4,0.2,0.3
2025-04-15T1800,3181A,106.7768,31.8526,巴中市,市五中,颗粒物(PM10),94,137,143,50,56,110,,92,92,18,26,6,6,0.7,0.7
2025-04-15T1800,3183A,106.7418,31.8654,巴中市,圣泉水务公司,颗粒物(PM10),89,127,121,53,50,107,,95,95,13,31,4,3,0.7,0.7
2025-04-15T1800,3616A,106.7616,31.8344,巴中市,市中心医院,颗粒物(PM10),91,131,133,58,63,119,,96,96,12,30,8,7,0.5,0.6
2025-04-15T1800,2235A,122.7911,45.6077,白城市,洮北区环保局,,28,19,24,19,15,86,,84,84,13,12,4,5,0.2,0.3
2025-04-15T1800,2236A,122.8738,45.5725,白城市,市环保局,,29,17,16,9,14,90,,92,92,10,10,5,6,0.5,0.5
2025-04-15T1800,2231A,126.4219,41.9171,白山市,喜丰,,,28,32,11,16,88,,87,87,,,11,14,0.9,1.1
2025-04-15T1800,2232A,126.4077,41.9419,白山市,环保局,,34,34,43,13,15,86,,85,85,12,14,6,8,0.9,1
2025-04-15T1800,2647A,104.1724,36.5446,白银市,第三小学,颗粒物(PM10),113,176,86,51,27,118,,110,110,4,19,9,77,0.3,0.6
2025-04-15T1800,2648A,104.1465,36.5482,白银市,动力公司,颗粒物(PM10),107,164,74,39,24,117,,110,110,5,16,5,36,0.3,0.5
2025-04-15T1800,2512A,106.6103,23.9011,百色市,市监测站,颗粒物(PM10),85,119,131,59,51,159,,135,135,14,21,14,11,0.4,0.4
2025-04-15T1800,2513A,106.6538,23.8859,百色市,市中心血站,颗粒物(PM10),103,155,165,53,60,164,,142,142,13,39,11,9,0.6,0.7
2025-04-15T1800,3406A,106.6085,23.8798,百色市,祈福高中,颗粒物(PM10),94,138,156,54,51,151,,128,128,12,31,11,8,0.6,0.4
2025-04-15T1800,2270A,117.396,32.939,蚌埠市,工人疗养院,颗粒物(PM10),54,57,60,14,21,141,,132,132,10,23,4,5,0.5,0.6
2025-04-15T1800,2271A,117.3605,32.9427,蚌埠市,百货大楼,,44,44,56,10,20,133,,126,126,17,29,6,7,0.4,0.4
2025-04-15T1800,2273A,117.4185,32.8911,蚌埠市,蚌埠学院,,44,44,67,15,26,140,,134,134,12,25,4,5,0.4,0.5
2025-04-15T1800,2274A,117.3533,32.9673,蚌埠市,淮上区政府,,48,48,57,15,21,140,,129,129,51,27,6,7,0.3,0.4
2025-04-15T1800,2275A,117.3145,32.8977,蚌埠市,高新区,颗粒物(PM10),51,51,64,12,22,135,,129,129,13,31,5,5,0.3,0.4
2025-04-15T1800,3715A,117.3092,32.9314,蚌埠市,蚌埠田家炳中学,颗粒物(PM10),52,54,66,13,21,135,,129,129,17,34,6,16,0.3,0.3
2025-04-15T1800,1585A,109.8756,40.6532,包头市,市环境监测站,颗粒物(PM10),58,65,43,15,17,100,,110,110,16,24,12,16,0.6,0.6
2025-04-15T1800,1587A,109.9991,40.5842,包头市,包头八中,颗粒物(PM10),67,83,48,28,23,109,,117,117,14,42,12,17,0.3,0.6
2025-04-15T1800,1588A,109.8538,40.6821,包头市,青山宾馆,颗粒物(PM10),54,58,37,27,19,96,,112,112,17,24,15,17,0.7,0.8
2025-04-15T1800,1589A,109.8642,40.6288,包头市,惠龙物流,颗粒物(PM10),61,72,43,15,18,106,,115,114,11,21,11,17,0.3,0.5
2025-04-15T1800,1590A,110.0377,40.5546,包头市,东河鸿龙湾,颗粒物(PM10),61,72,45,15,17,114,,121,121,12,36,10,13,0.2,0.5
2025-04-15T1800,3283A,109.9154,40.5685,包头市,滨河大厦,颗粒物(PM10),66,82,43,21,14,103,,114,114,7,33,11,14,0.3,0.5
2025-04-15T1800,3419A,109.9447,40.6261,包头市,包头市委党校,颗粒物(PM10),55,59,47,17,17,118,,120,120,6,39,11,14,0.8,0.9
2025-04-15T1800,3683A,109.8331,40.6576,包头市,昆区政府,颗粒物(PM10),58,66,37,29,19,98,,114,114,23,24,17,16,1.2,0.9
2025-04-15T1800,1930A,107.185,34.3063,宝鸡市,庙沟村,颗粒物(PM10),59,68,34,26,14,94,,84,84,20,12,8,7,0.5,0.4
2025-04-15T1800,1931A,107.0708,34.3017,宝鸡市,竹园沟,颗粒物(PM10),56,62,38,24,18,102,,95,95,20,16,9,7,0.5,0.5
2025-04-15T1800,1932A,107.1906,34.3672,宝鸡市,三陆医院,颗粒物(PM10),55,59,49,22,19,96,,89,89,25,30,6,7,0.4,0.6
2025-04-15T1800,1933A,107.1431,34.3547,宝鸡市,监测站,颗粒物(PM10),68,86,47,25,15,93,,86,86,29,23,9,8,0.3,0.3
2025-04-15T1800,1934A,107.1186,34.3739,宝鸡市,技工学校,颗粒物(PM10),58,65,47,19,20,102,,88,88,22,17,7,7,0.5,0.4
2025-04-15T1800,1935A,107.3906,34.3528,宝鸡市,陈仓区环保局家属楼,颗粒物(PM10),55,60,49,22,23,96,,91,91,29,30,10,38,0.4,0.5
2025-04-15T1800,1936A,107.2058,34.3497,宝鸡市,文理学院,颗粒物(PM10),56,61,47,24,22,97,,92,92,24,24,7,7,0.4,0.4
2025-04-15T1800,1937A,107.2386,34.3622,宝鸡市,三迪小学,颗粒物(PM10),60,69,50,22,23,99,,88,88,22,29,7,7,0.7,0.8
2025-04-15T1800,1051A,115.493,38.8632,保定市,游泳馆,颗粒物(PM10),54,57,59,12,35,117,,114,114,17,30,8,5,0.1,0.2
2025-04-15T1800,1052A,115.5213,38.8959,保定市,华电二区,,48,48,44,18,20,122,,116,116,9,18,4,2,0.0,0
2025-04-15T1800,1053A,115.4713,38.9108,保定市,接待中心,,49,49,52,18,24,116,,112,112,13,21,5,3,0.3,0.2
2025-04-15T1800,1054A,115.4612,38.8416,保定市,地表水厂,颗粒物(PM10),59,68,71,19,28,118,,114,114,18,30,5,3,0.6,0.5
2025-04-15T1800,3581A,115.31981,38.95208,保定市,满城区生态环境分局,,,56,46,,23,127,,120,120,17,23,11,5,0.4,0.2
2025-04-15T1800,3582A,115.47694,38.76408,保定市,清苑区第二中学,,,,77,,27,,,62,,,35,,5,,0.3
2025-04-15T1800,3583A,115.62909,39.02311,保定市,徐水物探局,颗粒物(PM10),66,82,80,24,26,114,,109,109,15,31,4,2,0.1,0.1
2025-04-15T1800,4004A,115.4202,38.8656,保定市,双鹰农机,,49,49,61,27,28,112,,108,108,14,28,8,6,0.2,0.2
2025-04-15T1800,4034A,115.5150,38.8590,保定市,植保所站,颗粒物(PM10),52,53,57,26,34,116,,112,112,18,29,2,3,0.6,0.6
2025-04-15T1800,2594A,99.1678,25.1081,保山市,市环境监测站,,49,49,39,18,25,87,,90,90,12,11,5,10,0.6,0.5
2025-04-15T1800,2595A,99.1711,25.1328,保山市,市环保局,颗粒物(PM10),51,51,45,25,23,96,,103,103,12,9,7,7,0.5,0.5
2025-04-15T1800,1866A,109.2262,21.588,北海市,牛尾岭水库,颗粒物(PM10),105,160,164,55,49,169,,153,153,12,13,8,7,0.7,0.7
2025-04-15T1800,1867A,109.1436,21.4086,北海市,海滩公园,颗粒物(PM10),135,220,232,59,46,186,,155,155,29,17,13,9,0.7,0.5
2025-04-15T1800,1868A,109.0981,21.4661,北海市,新市环保局,颗粒物(PM10),135,220,230,78,58,198,,164,164,27,23,18,12,0.6,0.6
2025-04-15T1800,1869A,109.1778,21.5233,北海市,北海工业园,颗粒物(PM10),146,242,242,83,66,176,,174,174,33,23,30,18,0.7,0.6
2025-04-15T1800,3400A,109.1911,21.4415,北海市,龙潭自来水厂,颗粒物(PM10),140,229,227,80,67,199,,161,161,22,20,18,11,0.5,0.4
2025-04-15T1800,1001A,116.3621,39.8784,北京市,万寿西宫,,41,35,64,12,33,129,,109,109,19,49,7,6,0.3,0.8
2025-04-15T1800,1002A,116.2202,40.2915,北京市,定陵,,,,,,,,,,,,,,,,
2025-04-15T1800,1003A,116.4174,39.9289,北京市,东四,,44,44,67,10,33,123,,102,102,14,45,7,7,0.5,0.8
2025-04-15T1800,1004A,116.4072,39.8863,北京市,天坛,,49,49,62,23,36,112,,95,95,18,41,2,2,0.5,0.7
2025-04-15T1800,1005A,116.462,39.9365,北京市,农展馆,颗粒物(PM10),51,51,65,18,41,122,,101,101,18,42,7,7,0.5,0.8
2025-04-15T1800,1006A,116.3392,39.9295,北京市,官园,颗粒物(PM10),52,53,86,13,40,99,,88,88,12,40,6,7,0.4,0.7
2025-04-15T1800,1007A,116.2878,39.9611,北京市,海淀万柳,颗粒物(PM10),55,60,72,26,42,120,,102,102,20,48,5,5,0.5,0.9
2025-04-15T1800,1008A,116.6636,40.135,北京市,顺义新城,颗粒物(PM10),52,54,61,13,33,115,,99,99,27,34,7,8,0.2,0.6
2025-04-15T1800,1009A,116.6275,40.3275,北京市,怀柔镇,,42,42,62,14,42,103,,88,88,21,30,4,5,0.4,0.6
2025-04-15T1800,1010A,116.2296,40.217,北京市,昌平镇,,35,35,47,11,22,92,,89,89,26,25,2,2,0.6,0.7
2025-04-15T1800,1011A,116.3966,39.9821,北京市,奥体中心,,39,39,65,13,36,114,,94,94,18,52,4,4,0.5,0.7
2025-04-15T1800,3281A,115.9718,40.4529,北京市,延庆夏都,,38,38,30,12,13,111,,112,112,14,11,7,7,0.3,0.3
2025-04-15T1800,3418A,116.8336,40.4095,北京市,密云新城,,45,45,96,14,53,108,,94,94,24,18,4,4,0.3,0.4
2025-04-15T1800,3671A,116.088,39.9726,北京市,门头沟三家店,颗粒物(PM10),59,68,75,17,22,97,,86,86,33,44,3,3,0.3,0.4
2025-04-15T1800,3672A,116.1541,39.8204,北京市,丰台云岗,颗粒物(PM10),60,70,61,23,27,123,,106,106,15,36,4,3,0.3,0.3
2025-04-15T1800,3673A,116.6804,39.9081,北京市,通州东关,颗粒物(PM10),53,56,66,10,33,119,,99,99,21,35,5,6,0.1,0.5
2025-04-15T1800,3674A,115.9577,39.7603,北京市,房山燕山,颗粒物(PM10),56,62,42,20,18,107,,102,102,9,17,6,5,0.4,0.4
2025-04-15T1800,3675A,116.4672,39.7733,北京市,大兴旧宫,颗粒物(PM10),53,56,58,25,39,120,,102,102,14,33,2,2,0.2,0.3
2025-04-15T1800,3694A,115.986,40.4563,北京市,延庆石河营,,35,35,28,11,10,108,,108,108,13,12,4,4,0.3,0.3
2025-04-15T1800,3695A,116.6151,40.3053,北京市,怀柔新城,,38,38,55,13,38,106,,90,90,15,19,1,3,0.5,0.7
2025-04-15T1800,3696A,116.2545,39.8768,北京市,丰台小屯,颗粒物(PM10),56,62,63,14,24,107,,91,91,18,51,3,2,0.2,0.3
2025-04-15T1800,3697A,116.84,40.3844,北京市,密云镇,,35,35,65,11,38,112,,93,93,18,36,5,5,0.1,0.5
2025-04-15T1800,4182A,116.1942,39.9158,北京市,八角北路9号,颗粒物(PM10),63,76,66,21,27,112,,99,99,18,39,5,4,0.4,0.5
2025-04-15T1800,4194A,117.0790,40.1518,北京市,洳河巡河路,,37,34,53,9,34,116,,102,102,16,25,5,5,0.3,0.5
2025-04-15T1800,1761A,123.8275,41.3064,本溪市,大峪,"颗粒物(PM10),细颗粒物(PM2.5)",57,63,49,40,32,91,,94,94,30,28,9,7,1.0,1
2025-04-15T1800,1762A,123.7567,41.3325,本溪市,溪湖,颗粒物(PM10),58,66,51,40,35,67,,90,90,54,33,24,10,1.3,0.9
2025-04-15T1800,1763A,123.7169,41.3094,本溪市,彩屯,,43,42,49,30,32,113,,104,104,19,24,10,10,1.0,1
2025-04-15T1800,1764A,123.7669,41.2864,本溪市,东明,颗粒物(PM10),54,58,53,28,24,102,,93,93,25,31,13,10,1.9,1.5
2025-04-15T1800,1765A,123.7992,41.2664,本溪市,新立屯,颗粒物(PM10),59,68,46,36,39,74,,94,94,54,39,15,10,1.9,1.5
2025-04-15T1800,1766A,123.8142,41.3472,本溪市,威宁,细颗粒物(PM2.5),63,67,59,45,34,83,,94,92,25,26,6,5,0.9,0.9
2025-04-15T1800,2587A,105.2864,27.3125,毕节市,八中,,,70,104,25,40,125,,124,124,,14,7,8,0.4,0.4
2025-04-15T1800,2588A,105.31,27.2944,毕节市,师专,颗粒物(PM10),56,61,100,27,44,136,,129,129,20,22,8,9,0.3,0.5
2025-04-15T1800,4263A,105.3688,27.3598,毕节市,工业大道,颗粒物(PM10),60,70,112,21,43,129,,120,120,14,23,10,11,0.3,0.4
2025-04-15T1800,1629A,118.0018,37.3617,滨州市,第二水厂,,,,59,14,21,129,,123,123,13,20,9,12,0.3,0.3
2025-04-15T1800,1630A,117.9776,37.393,滨州市,北中新校,颗粒物(PM10),52,53,55,27,38,137,,130,130,14,21,19,19,0.9,0.9
2025-04-15T1800,3514A,117.9378,37.3956,滨州市,中海酒店,,46,46,48,24,32,130,,128,128,12,18,15,14,0.7,0.7
2025-04-15T1800,3515A,117.9378,37.3553,滨州市,开发区一中,颗粒物(PM10),54,58,64,19,28,124,,120,120,21,25,10,9,0.3,0.3
2025-04-15T1800,3516A,118.0917,37.694,滨州市,金海六路,颗粒物(PM10),56,61,51,12,16,121,,118,118,16,24,8,10,0.5,0.5
2025-04-15T1800,4028A,117.9956,37.3753,滨州市,滨州市西街道办事处,颗粒物(PM10),62,73,60,19,27,142,,134,134,12,20,7,15,0.4,0.6
2025-04-15T1800,2311A,115.8072,33.8399,亳州市,污水处理厂,颗粒物(PM10),52,53,50,6,11,140,,136,136,14,18,4,7,0.4,0.4
2025-04-15T1800,2312A,115.7789,33.8518,亳州市,三国揽胜宫,,46,46,51,6,13,146,,139,139,12,17,6,9,0.3,0.3
2025-04-15T1800,3332A,115.7633,33.8034,亳州市,亳州学院,颗粒物(PM10),51,52,47,10,14,140,,138,138,12,16,5,12,0.4,0.5
2025-04-15T1800,2693A,82.0485,44.8556,博尔塔拉蒙古自治州,市党校,颗粒物(PM10),53,56,98,13,23,102,,85,85,16,26,3,3,0.1,0.3
2025-04-15T1800,2694A,82.0806,44.8969,博尔塔拉蒙古自治州,市环保局,,,58,101,8,16,105,,87,87,12,15,2,2,,0.5
2025-04-15T1800,1071A,116.8842,38.2991,沧州市,沧县城建局,颗粒物(PM10),73,95,58,12,26,106,,109,109,15,24,4,4,0.2,0.2
2025-04-15T1800,1072A,116.8584,38.3254,沧州市,电视转播站,,,51,51,24,33,121,,121,121,13,24,,5,0.2,0.3
2025-04-15T1800,1073A,116.8709,38.3228,沧州市,市环保局,颗粒物(PM10),54,57,51,24,23,116,,121,121,13,20,6,7,0.3,0.4
2025-04-15T1800,3324A,116.8136,38.3004,沧州市,河北水利电力学院,颗粒物(PM10),62,73,64,37,26,124,,129,129,16,27,7,7,0.2,0.3
2025-04-15T1800,2622A,97.1806,31.1273,昌都市,昌都监测站,,,,5,10,8,110,,127,107,2,3,2,2,0.4,0.3
2025-04-15T1800,3719A,97.1714,31.1406,昌都市,昌都会议中心,,32,23,10,14,9,101,,124,103,10,5,2,2,0.2,0.1
2025-04-15T1800,2690A,88.1236,43.8886,昌吉回族自治州,天山天池,,33,,161,16,27,104,,92,92,4,5,5,5,0.5,0.6
2025-04-15T1800,2692A,87.2717,44.0297,昌吉回族自治州,新区政务中心,,36,25,172,8,38,114,,104,104,7,5,5,5,0.2,0.3
2025-04-15T1800,3613A,87.3095,44.0142,昌吉回族自治州,亚心广场,,36,31,169,7,31,115,,98,98,5,9,7,6,0.2,0.2
2025-04-15T1800,1119A,125.3325,43.9166,长春市,食品厂,,36,36,31,19,21,89,,90,90,24,27,7,7,0.5,0.5
2025-04-15T1800,1120A,125.2863,43.9027,长春市,客车厂,,39,28,26,27,19,84,,88,88,27,28,5,5,0.4,0.5
2025-04-15T1800,1121A,125.2841,43.8463,长春市,邮电学院,,32,23,22,15,19,101,,98,98,13,22,6,5,0.2,0.4
2025-04-15T1800,1122A,125.3716,43.8772,长春市,劳动公园,,31,29,21,15,18,97,,90,90,10,17,6,6,0.3,0.3
2025-04-15T1800,1123A,125.3297,43.8805,长春市,园林处,,32,18,22,12,16,101,,98,98,11,18,6,6,0.4,0.5
2025-04-15T1800,1124A,125.4605,43.79,长春市,净月潭,,,19,27,13,19,97,,91,91,,24,,5,0.2,0.3
2025-04-15T1800,1125A,125.7194,43.515,长春市,甩湾子,,,,,,,,,,,,,,,,
2025-04-15T1800,1126A,125.3863,43.8447,长春市,经开区环卫处,,29,19,24,12,17,92,,87,87,12,20,6,5,0.3,0.4
2025-04-15T1800,1127A,125.245,43.7783,长春市,高新区管委会,,30,21,30,13,24,94,,96,96,17,27,6,7,0.3,0.4
2025-04-15T1800,1128A,125.1761,43.8325,长春市,岱山公园,,32,24,26,22,22,101,,102,102,17,30,4,4,0.4,0.4
2025-04-15T1800,1335A,113.0833,28.2325,长沙市,经开区环保局,颗粒物(PM10),57,63,132,19,43,152,,146,146,10,24,6,9,0.3,0.4
2025-04-15T1800,1336A,112.8872,28.2189,长沙市,高开区环保局,颗粒物(PM10),63,76,162,18,58,159,,152,152,6,37,5,6,0.5,0.6
2025-04-15T1800,1337A,113.0792,28.2053,长沙市,马坡岭,颗粒物(PM10),58,66,144,24,51,152,,146,146,10,38,5,6,0.4,0.5
2025-04-15T1800,1338A,112.9394,28.19,长沙市,湖南师范大学,颗粒物(PM10),60,70,141,28,45,141,,143,143,11,29,7,7,0.4,0.5
2025-04-15T1800,1339A,113.0178,28.1322,长沙市,雨花区环保局,颗粒物(PM10),59,68,144,25,61,152,,143,143,7,36,5,5,0.3,0.4
2025-04-15T1800,1340A,112.9792,28.2597,长沙市,伍家岭,颗粒物(PM10),61,72,156,21,47,143,,145,145,20,40,4,4,0.3,0.4
2025-04-15T1800,1341A,113.0014,28.1944,长沙市,火车新站,颗粒物(PM10),70,90,170,24,52,147,,143,143,15,44,7,8,0.4,0.6
2025-04-15T1800,1342A,112.9844,28.1178,长沙市,天心区环保局,颗粒物(PM10),58,65,146,24,52,153,,148,148,10,35,5,5,0.3,0.4
2025-04-15T1800,1343A,112.8908,28.1308,长沙市,湖南中医药大学,颗粒物(PM10),70,89,157,20,42,151,,150,150,12,40,5,5,0.3,0.4
2025-04-15T1800,1344A,112.9581,28.3611,长沙市,沙坪,颗粒物(PM10),66,82,140,28,49,139,,135,135,9,13,7,7,0.4,0.5
2025-04-15T1800,1727A,113.1147,36.1547,长治市,清华站,,39,23,61,3,13,123,,125,125,9,28,5,10,0.6,0.8
2025-04-15T1800,1730A,113.0886,36.2125,长治市,审计局,,41,23,43,3,19,129,,124,124,12,27,8,18,0.2,0.4
2025-04-15T1800,1731A,113.0844,36.1856,长治市,长治八中,,40,28,56,11,24,128,,126,126,12,26,8,16,0.4,0.6
2025-04-15T1800,2845A,113.1569,36.1911,长治市,德盛苑,,40,26,32,7,12,126,,126,126,7,14,4,10,0.3,0.5
2025-04-15T1800,3568A,113.06,36.0464,长治市,向阳小学,,42,42,55,13,20,131,,132,132,12,22,9,13,0.2,0.4
2025-04-15T1800,3569A,112.8792,36.3144,长治市,屯留一中,,38,30,35,12,8,121,,116,116,10,30,7,8,0.4,0.4
2025-04-15T1800,4189A,113.1131,36.19948,长治市,英华南巷50号,,41,22,50,9,27,130,,128,128,10,25,5,13,0.4,0.6
2025-04-15T1800,4190A,113.2367,36.3344,长治市,学府街1号,,42,36,61,11,22,133,,131,131,6,39,1,21,0.4,0.9
2025-04-15T1800,1854A,111.6975,28.9703,常德市,市二中,颗粒物(PM10),94,138,170,44,64,128,,135,135,27,24,7,9,0.6,0.6
2025-04-15T1800,1857A,111.7158,29.1456,常德市,白鹤山,,,,,,,,,,,,,,,,
2025-04-15T1800,3138A,111.7153,29.0289,常德市,武陵区永安,颗粒物(PM10),105,159,198,50,60,152,,146,146,10,18,,7,0.6,0.6
2025-04-15T1800,3139A,111.6892,28.9881,常德市,鼎城区玉霞,颗粒物(PM10),96,141,174,48,57,149,,140,140,10,20,6,7,0.6,0.6
2025-04-15T1800,3140A,111.6625,29.0531,常德市,武陵区长庚,颗粒物(PM10),104,157,189,59,69,160,,150,150,8,16,8,8,0.6,0.6
2025-04-15T1800,1196A,119.9633,31.762,常州市,市监测站,颗粒物(PM10),54,58,66,17,20,154,,153,153,21,31,9,10,0.6,0.7
2025-04-15T1800,1200A,119.9468,31.7069,常州市,武进监测站,颗粒物(PM10),66,82,71,22,18,150,,150,150,19,26,10,15,0.2,0.3
2025-04-15T1800,1201A,119.9255,31.9087,常州市,安家,颗粒物(PM10),53,55,67,16,19,133,,138,138,21,35,29,12,0.7,0.7
2025-04-15T1800,3002A,119.9805,31.8174,常州市,行政中心,,46,38,49,18,17,147,,146,146,16,24,15,16,0.4,0.5
2025-04-15T1800,3003A,120.0522,31.7748,常州市,经开区,颗粒物(PM10),55,59,77,16,15,150,,147,147,18,26,9,10,0.5,0.6
2025-04-15T1800,3010A,119.9025,31.7964,常州市,钟楼,颗粒物(PM10),53,56,66,18,22,134,,135,135,15,30,7,8,0.4,0.4
2025-04-15T1800,3429A,119.8598,31.7066,常州市,武进经发区,,48,48,63,27,25,144,,148,148,16,21,9,10,0.7,0.8
2025-04-15T1800,3430A,119.5826,31.7245,常州市,金坛城区,,45,29,43,24,22,143,,148,148,16,20,8,10,0.5,0.6
2025-04-15T1800,2220A,120.4318,41.5881,朝阳市,西梁,,45,45,86,25,37,99,,92,92,14,29,15,16,0.6,0.9
2025-04-15T1800,2221A,120.4521,41.5646,朝阳市,河畔小区,,39,38,40,27,28,104,,94,94,12,17,11,10,0.7,0.9
2025-04-15T1800,2222A,120.4176,41.5648,朝阳市,八里堡,,37,37,53,22,30,98,,92,92,16,31,12,11,0.7,1
2025-04-15T1800,2223A,120.3806,41.5969,朝阳市,农业园区,,48,46,47,33,35,104,,98,98,17,27,13,12,0.7,0.8
2025-04-15T1800,1705A,116.6367,23.6719,潮州市,西园路,,,,,,,,,,,,,,,,
2025-04-15T1800,3026A,116.6183,23.6608,潮州市,市政府,颗粒物(PM10),107,164,154,45,46,144,,140,140,19,26,7,8,0.8,0.8
2025-04-15T1800,4036A,116.6461,23.6761,潮州市,金山,颗粒物(PM10),103,155,136,55,51,144,,141,141,18,22,11,8,0.5,0.5
2025-04-15T1800,2472A,113.0073,25.9061,郴州市,马头岭,颗粒物(PM10),58,65,135,14,32,123,,111,111,8,18,13,9,0.7,0.8
2025-04-15T1800,2473A,113.0116,25.8226,郴州市,市职中,颗粒物(PM10),55,60,133,16,43,132,,122,122,7,25,4,3,0.4,0.5
2025-04-15T1800,2475A,113.0383,25.8071,郴州市,市审计局,颗粒物(PM10),54,58,124,17,42,131,,121,121,11,25,6,6,0.3,0.5
2025-04-15T1800,2476A,113.0348,25.7759,郴州市,市环保局,颗粒物(PM10),59,67,147,28,49,91,,109,109,21,31,4,5,0.4,0.4
2025-04-15T1800,4252A,113.0138,25.8011,郴州市,好美居路49号,颗粒物(PM10),53,55,116,22,50,124,,120,120,17,32,4,4,0.4,0.6
2025-04-15T1800,1431A,103.9728,30.7236,成都市,金泉两河,颗粒物(PM10),106,161,137,58,43,206,,166,166,15,43,5,5,0.7,1
2025-04-15T1800,1432A,104.176,30.6872,成都市,十里店,颗粒物(PM10),97,144,161,48,52,164,,146,146,14,51,5,5,0.6,1
2025-04-15T1800,1433A,104.079,30.5706,成都市,三瓦窑,颗粒物(PM10),113,175,160,58,51,178,,149,149,18,61,6,6,0.5,0.8
2025-04-15T1800,1434A,104.1114,30.63,成都市,沙河铺,颗粒物(PM10),103,155,142,53,52,154,,132,132,14,51,7,7,0.6,1.1
2025-04-15T1800,1437A,104.0786,30.6531,成都市,君平街,颗粒物(PM10),102,153,150,61,66,132,,109,109,,67,8,9,0.6,1
2025-04-15T1800,1438A,103.613,31.0283,成都市,灵岩寺,,,,,,,,,,,,,,,,
2025-04-15T1800,2880A,104.0239,30.65639,成都市,大石西路,颗粒物(PM10),106,162,152,56,54,180,,148,148,19,61,6,5,0.4,0.9
2025-04-15T1800,3136A,104.2725,30.5589,成都市,龙泉驿区区政府,颗粒物(PM10),90,129,148,39,39,136,,129,129,14,21,4,4,0.5,0.6
2025-04-15T1800,3357A,104.0106,30.6931,成都市,金博路,颗粒物(PM10),109,168,138,51,44,177,,137,137,17,59,9,9,0.4,0.8
2025-04-15T1800,3359A,104.0578,30.5225,成都市,华阳,颗粒物(PM10),100,149,140,56,56,176,,148,148,18,56,6,7,0.7,1.1
2025-04-15T1800,3488A,104.3853,30.7453,成都市,青白江技师分院,颗粒物(PM10),82,114,127,46,43,166,,153,153,10,50,7,8,0.2,0.4
2025-04-15T1800,3489A,104.0789,30.4072,成都市,科学城,颗粒物(PM10),106,162,141,57,50,150,,130,130,10,29,5,5,0.2,0.3
2025-04-15T1800,4011A,103.8506,30.6947,成都市,光华大道三段,臭氧1小时,114,172,137,51,51,228,,177,177,24,44,4,4,0.7,0.9
2025-04-15T1800,4224A,104.2433,30.5353,成都市,鲸龙路1057号,颗粒物(PM10),99,147,156,41,48,150,,143,143,14,49,5,5,0.3,0.6
2025-04-15T1800,1062A,117.9531,40.9081,承德市,铁路,,40,34,45,28,31,105,,97,97,18,17,8,9,0.3,0.4
2025-04-15T1800,1063A,117.9392,40.9763,承德市,中国银行,,47,47,46,21,25,107,,101,101,16,16,18,5,0.8,0.4
2025-04-15T1800,1064A,117.9503,40.928,承德市,开发区,,33,25,40,18,27,105,,103,103,13,19,8,8,0.3,0.4
2025-04-15T1800,1065A,117.8051,40.9655,承德市,文化中心,颗粒物(PM10),56,62,68,27,26,118,,100,100,18,26,18,12,0.6,0.7
2025-04-15T1800,1066A,117.9268,41.0026,承德市,离宫,颗粒物(PM10),51,52,44,12,29,51,,46,46,7,13,24,14,0.4,0.3
2025-04-15T1800,2314A,117.47,30.6618,池州市,池州学院,,45,45,57,16,23,136,,134,134,12,15,12,7,0.3,0.5
2025-04-15T1800,3237A,117.4918,30.6617,池州市,展览馆,,46,44,48,13,16,145,,137,137,9,16,8,6,0.4,0.5
2025-04-15T1800,3333A,117.5627,30.695,池州市,第八中学,,,46,54,13,17,147,,139,139,7,15,7,7,,0.4
2025-04-15T1800,3334A,117.5038,30.6243,池州市,第十二中学,颗粒物(PM10),52,54,53,18,18,141,,125,125,12,24,8,6,0.4,0.6
2025-04-15T1800,1744A,118.9233,42.2816,赤峰市,松山一中,,,,36,,17,88,,91,90,,36,12,14,,0.7
2025-04-15T1800,1745A,118.9576,42.2728,赤峰市,哈达街,,42,42,37,17,21,93,,100,100,38,30,14,15,0.7,0.7
2025-04-15T1800,1746A,118.8788,42.2554,赤峰市,天义路,,32,32,26,20,21,95,,108,108,34,26,14,9,0.7,0.6
2025-04-15T1800,3058A,119.2658,42.0353,赤峰市,银河街,,36,34,50,12,31,114,,105,105,14,20,16,20,0.5,0.7
2025-04-15T1800,3286A,118.9359,42.3147,赤峰市,桥北物流园区,,45,33,33,31,27,103,,98,98,19,30,10,16,0.6,0.7
2025-04-15T1800,2521A,107.3476,22.4136,崇左市,市环保局江州分局,颗粒物(PM10),83,115,178,36,60,147,,148,148,8,21,7,7,0.3,0.5
2025-04-15T1800,4256A,107.3750,22.3736,崇左市,石景林东路7号,颗粒物(PM10),82,113,160,37,54,156,,158,158,8,22,7,7,0.4,0.6
2025-04-15T1800,2298A,118.3093,32.3153,滁州市,老年大学,,47,44,47,20,20,149,,137,137,6,14,3,3,0.2,0.2
2025-04-15T1800,2299A,118.3244,32.2786,滁州市,人大宾馆,颗粒物(PM10),51,52,47,29,22,147,,140,140,12,17,8,8,0.3,0.3
2025-04-15T1800,3207A,118.3118,32.3038,滁州市,市政府原办公楼,,,35,42,21,20,144,,138,138,,18,4,4,,0.3
2025-04-15T1800,3331A,118.3267,32.2634,滁州市,图书馆,,47,47,45,19,21,145,,139,139,8,12,7,7,0.3,0.4
2025-04-15T1800,2605A,101.5482,25.0441,楚雄彝族自治州,州环境监测站,,30,14,29,10,17,95,,79,79,5,16,8,8,0.5,0.5
2025-04-15T1800,2606A,101.538,25.0492,楚雄彝族自治州,市经济开发区,,30,10,34,10,23,93,,80,80,6,15,6,6,0.5,0.6
2025-04-15T1800,2548A,107.5277,31.2827,达州市,达州职业技术学院,颗粒物(PM10),105,159,146,56,51,53,,66,66,39,34,13,9,0.8,0.8
2025-04-15T1800,2549A,107.5086,31.2186,达州市,市环境监测站,颗粒物(PM10),105,160,154,51,46,37,,57,57,71,46,11,7,0.8,0.6
2025-04-15T1800,2550A,107.4988,31.2132,达州市,凤凰小区,颗粒物(PM10),103,156,154,68,54,52,,64,64,58,44,13,9,0.6,0.4
2025-04-15T1800,2551A,107.5082,31.1986,达州市,达县机关宾馆,颗粒物(PM10),103,156,159,64,52,54,,64,64,52,47,11,7,0.6,0.5
2025-04-15T1800,2552A,107.4644,31.2124,达州市,市政中心,颗粒物(PM10),108,166,154,61,57,64,,58,58,47,47,8,4,0.5,0.5
2025-04-15T1800,2614A,100.1542,25.7054,大理白族自治州,大理市环境监测站,,36,36,31,18,21,108,,100,100,8,11,7,7,0.6,0.6
2025-04-15T1800,2615A,100.2171,25.5811,大理白族自治州,大理古城,细颗粒物(PM2.5),55,,30,39,22,93,,97,97,10,14,7,7,0.5,0.5
2025-04-15T1800,1109A,121.612,38.9741,大连市,甘井子,,32,32,21,21,16,76,,94,94,49,27,8,6,0.4,0.4
2025-04-15T1800,1110A,121.565,38.9511,大连市,周水子,,43,39,25,30,18,78,,80,80,47,26,11,7,0.4,0.3
2025-04-15T1800,1111A,121.5637,38.8845,大连市,星海三站,,32,32,22,18,14,51,,67,57,46,18,8,7,0.3,0.3
2025-04-15T1800,1112A,121.6302,38.9117,大连市,青泥洼桥,,29,26,22,20,15,75,,109,102,44,20,10,9,0.5,0.4
2025-04-15T1800,1113A,121.6251,38.8638,大连市,傅家庄,,26,19,17,14,12,52,,71,59,52,25,8,7,0.2,0.2
2025-04-15T1800,1114A,121.5213,38.8661,大连市,七贤岭,,33,23,18,15,14,36,,80,71,66,26,7,6,0.5,0.3
2025-04-15T1800,1115A,121.2529,38.8061,大连市,旅顺,,28,22,15,19,16,36,,60,55,52,24,9,8,0.5,0.5
2025-04-15T1800,1116A,121.7485,39.1311,大连市,金州,,41,41,30,26,20,84,,90,90,42,26,10,9,0.4,0.4
2025-04-15T1800,1117A,121.7811,39.0496,大连市,开发区,,,29,22,17,16,49,,80,79,49,23,12,9,,0.7
2025-04-15T1800,1118A,121.9762,39.0631,大连市,双D港,,29,18,17,13,15,92,,79,79,11,13,8,9,0.3,0.3
2025-04-15T1800,1789A,124.81117,46.03138,大庆市,大同区,,26,24,23,12,21,83,,82,82,5,9,4,4,0.3,0.4
2025-04-15T1800,1790A,125.129,46.533,大庆市,龙凤区,,30,25,29,13,15,93,,91,91,10,14,5,5,0.4,0.5
2025-04-15T1800,1791A,124.902,46.408,大庆市,红岗区,,32,10,16,9,17,100,,97,97,5,10,7,8,0.2,0.3
2025-04-15T1800,1792A,125.153,46.586,大庆市,萨尔图区,,27,23,26,3,13,85,,84,84,14,14,8,8,0.3,0.5
2025-04-15T1800,1793A,124.9042,46.6215,大庆市,让胡路区,,,17,19,11,19,86,,84,84,,12,6,5,0.2,0.3
2025-04-15T1800,3481A,125.141,46.634,大庆市,萨区政府监测点,,30,17,24,3,8,95,,88,88,4,11,5,5,0.3,0.4
2025-04-15T1800,1721A,113.3819,40.1097,大同市,果树场,,,,39,,17,,,59,,,30,,14,,0.6
2025-04-15T1800,1723A,113.2994,40.0758,大同市,云冈宾馆,,37,25,51,10,19,116,,112,112,16,30,9,12,0.4,0.8
2025-04-15T1800,1724A,113.3444,40.0917,大同市,大同大学,,37,24,39,7,16,116,,107,107,11,22,13,16,0.4,0.7
2025-04-15T1800,1725A,113.2661,40.1269,大同市,安家小村,,35,35,47,8,16,106,,106,106,11,19,11,14,0.3,1.2
2025-04-15T1800,1726A,113.2711,40.0844,大同市,教育学院,,35,31,44,3,18,112,,107,107,15,26,9,12,0.3,0.7
2025-04-15T1800,3282A,113.3397,40.0597,大同市,大同市卫生学校,,36,27,40,7,21,114,,106,106,17,25,8,11,0.4,0.8
2025-04-15T1800,3565A,113.1367,40.1122,大同市,云冈站,,34,34,36,14,14,105,,111,111,12,23,11,14,0.4,0.5
2025-04-15T1800,3566A,113.1186,40.2556,大同市,图书馆,,27,27,26,11,12,84,,94,94,21,10,10,10,0.4,0.4
2025-04-15T1800,3567A,113.5931,40.0461,大同市,区一中,,39,39,49,6,10,122,,110,110,12,13,18,22,0.4,0.6
2025-04-15T1800,4199A,113.2798,40.0997,大同市,魏都大道141号,,36,32,57,10,25,114,,109,109,14,29,13,15,0.5,1.2
2025-04-15T1800,2269A,124.1069,50.4097,大兴安岭地区,科技局,,30,22,18,15,15,95,,94,94,4,4,3,3,0.2,0.2
2025-04-15T1800,3663A,124.1164,50.4278,大兴安岭地区,红旗社区,,31,6,7,3,6,97,,95,95,1,6,4,4,0.3,0.3
2025-04-15T1800,1600A,124.3303,40.0625,丹东市,江湾东路,,46,43,32,32,30,96,,101,101,19,15,11,12,0.4,0.6
2025-04-15T1800,1601A,124.4256,40.1503,丹东市,临江后街,细颗粒物(PM2.5),52,49,33,36,26,94,,104,102,19,14,8,6,0.6,0.7
2025-04-15T1800,1602A,124.3933,40.1461,丹东市,元宝山,,42,42,30,29,20,90,,95,95,24,16,8,8,0.5,0.6
2025-04-15T1800,1603A,124.3633,40.1092,丹东市,民主桥,,44,44,33,28,24,96,,102,102,20,17,11,10,0.5,0.6
2025-04-15T1800,3541A,109.5726,19.5167,儋州市,第一中学子站,颗粒物(PM10),79,107,209,34,61,137,,132,132,7,11,4,6,0.3,0.4
2025-04-15T1800,3542A,109.5567,19.5187,儋州市,东坡学校子站,颗粒物(PM10),78,106,192,34,61,135,,132,132,5,10,4,7,0.4,0.5
2025-04-15T1800,2616A,98.5842,24.428,德宏傣族景颇族自治州,德宏州监测站,,34,34,50,19,33,95,,78,78,6,22,6,8,0.4,0.6
2025-04-15T1800,3677A,98.5881,24.4368,德宏傣族景颇族自治州,芒市人民政府综合楼,,43,43,59,23,33,105,,86,86,7,17,6,7,0.5,0.6
2025-04-15T1800,1901A,104.4239,31.1208,德阳市,东山公园,颗粒物(PM10),96,141,165,45,56,149,,139,139,8,31,5,7,0.4,0.6
2025-04-15T1800,1902A,104.3826,31.1317,德阳市,西小区,颗粒物(PM10),95,139,165,44,63,142,,139,139,13,43,5,10,0.6,0.8
2025-04-15T1800,1904A,104.3553,31.1091,德阳市,耐火材料厂,颗粒物(PM10),92,134,164,54,67,149,,139,139,7,43,7,13,0.4,0.6
2025-04-15T1800,3639A,104.4019,31.1244,德阳市,市教育局,颗粒物(PM10),93,136,151,50,59,146,,141,141,10,42,6,8,0.6,0.8
2025-04-15T1800,1622A,116.3032,37.4674,德州市,儿童乐园,颗粒物(PM10),54,58,56,12,24,130,,118,118,11,19,7,8,0.5,0.5
2025-04-15T1800,1624A,116.2991,37.4451,德州市,监理站,颗粒物(PM10),53,56,53,14,24,125,,118,118,14,29,13,8,0.3,0.4
2025-04-15T1800,3066A,116.2721,37.4379,德州市,九衢泉纯净水厂,颗粒物(PM10),53,56,55,12,24,114,,106,106,17,41,6,9,0.6,0.6
2025-04-15T1800,3371A,116.3728,37.4403,德州市,开发区人民医院,颗粒物(PM10),56,61,58,7,18,120,,113,113,10,18,8,9,0.6,0.7
2025-04-15T1800,3372A,116.3572,37.4094,德州市,太阳城中学,,,61,62,,33,126,,117,117,10,24,6,7,0.3,0.5
2025-04-15T1800,3511A,116.5652,37.3319,德州市,陵城艺术中心,颗粒物(PM10),53,56,56,22,25,126,,114,114,18,22,7,7,0.5,0.6
2025-04-15T1800,2621A,99.7056,27.8317,迪庆藏族自治州,迪庆州站,,38,35,38,17,19,120,,125,125,9,11,9,10,0.4,0.5
2025-04-15T1800,3180A,99.7136,27.8094,迪庆藏族自治州,质量技术监督局,,47,47,31,8,17,120,,125,125,10,13,9,10,0.4,0.6
2025-04-15T1800,4257A,104.6092,35.5962,定西市,将台街,颗粒物(PM10),78,105,63,26,19,125,,115,115,6,26,6,6,0.1,0.2
2025-04-15T1800,4309A,104.6159,35.5701,定西市,正龙路62号,颗粒物(PM10),80,109,67,27,22,124,,115,115,4,12,9,9,0.2,0.3
2025-04-15T1800,1389A,113.7547,23.0494,东莞市,莞城梨川,颗粒物(PM10),64,77,217,28,66,155,,159,159,11,57,5,7,0.4,0.7
2025-04-15T1800,1390A,113.7944,23.0128,东莞市,东城石井,颗粒物(PM10),59,68,180,32,70,142,,158,156,17,51,6,8,0.3,0.7
2025-04-15T1800,1391A,113.7383,22.9658,东莞市,南城西平,颗粒物(PM10),60,70,204,21,62,161,,162,162,12,63,7,9,0.4,0.7
2025-04-15T1800,3319A,113.7338,23.0381,东莞市,万江金泰,颗粒物(PM10),64,77,198,32,70,160,,165,165,15,60,9,12,0.2,0.6
2025-04-15T1800,3626A,113.7533,23.0202,东莞市,南城元岭,颗粒物(PM10),69,87,198,32,65,149,,154,154,14,56,7,8,0.5,0.8
2025-04-15T1800,3627A,113.7875,23.0457,东莞市,东城主山,颗粒物(PM10),64,78,209,22,65,153,,162,162,23,70,5,8,0.3,0.6
2025-04-15T1800,1666A,118.6614,37.4309,东营市,市环保局,颗粒物(PM10),51,51,40,9,11,140,,135,135,11,14,5,6,0.3,0.3
2025-04-15T1800,3036A,118.6904,37.4338,东营市,开发区管委会,,,62,46,14,19,129,,127,127,20,20,,5,0.6,0.6
2025-04-15T1800,3365A,118.5719,37.565,东营市,垦利区民丰路,颗粒物(PM10),53,56,45,12,16,127,,128,128,12,21,13,14,0.3,0.4
2025-04-15T1800,3498A,118.5055,37.8612,东营市,河口城区,颗粒物(PM10),52,53,40,12,12,134,,126,126,16,19,5,7,0.6,0.8
2025-04-15T1800,3646A,118.4978,37.4623,东营市,胜利站,颗粒物(PM10),53,56,50,12,15,114,,121,121,32,27,10,10,0.7,0.8
2025-04-15T1800,3734A,118.35,37.26,东营市,理想之城,颗粒物(PM10),86,122,49,17,17,131,,129,129,16,24,8,7,0.4,0.5
2025-04-15T1800,1591A,110.0023,39.8129,鄂尔多斯市,综合楼,颗粒物(PM10),93,136,51,27,11,113,,121,121,10,29,6,8,0.2,0.3
2025-04-15T1800,1592A,109.9486,39.8261,鄂尔多斯市,巴音孟克林场办事处,颗粒物(PM10),102,153,47,29,18,106,,116,116,8,23,5,9,0.4,0.4
2025-04-15T1800,1593A,109.7736,39.5986,鄂尔多斯市,康泽苑,颗粒物(PM10),79,107,41,22,12,112,,119,119,6,12,5,6,0.3,0.3
2025-04-15T1800,1594A,109.8119,39.5989,鄂尔多斯市,华泰汽车城,颗粒物(PM10),75,100,42,22,15,108,,112,112,8,23,6,5,0.4,0.4
2025-04-15T1800,1595A,109.9734,39.7884,鄂尔多斯市,奥林花园,颗粒物(PM10),89,127,51,27,13,101,,120,120,23,30,12,7,0.4,0.4
2025-04-15T1800,2436A,114.8938,30.3994,鄂州市,市政府,,45,40,70,26,27,143,,118,118,20,30,11,10,0.7,0.7
2025-04-15T1800,2437A,114.8989,30.3714,鄂州市,赵家坝,,48,38,76,12,15,151,,138,138,21,26,6,6,0.7,0.7
2025-04-15T1800,3654A,114.8094,30.4089,鄂州市,精准医疗中心,,48,24,82,6,24,152,,144,144,2,28,4,9,0.1,0.6
2025-04-15T1800,2454A,109.4978,30.2981,恩施土家族苗族自治州,湖北民院,颗粒物(PM10),84,117,98,35,36,99,,100,100,19,15,6,6,0.1,0.1
2025-04-15T1800,2455A,109.4707,30.2798,恩施土家族苗族自治州,州电力总公司,颗粒物(PM10),81,112,88,37,37,94,,95,95,27,29,6,5,0.4,0.4
2025-04-15T1800,3549A,109.5061,30.3772,恩施土家族苗族自治州,龙凤新区,,,110,88,42,31,98,,95,95,17,15,,6,0.4,0.4
2025-04-15T1800,2499A,108.3411,21.6158,防城港市,沙万,颗粒物(PM10),142,233,200,70,72,182,,127,127,26,33,14,9,0.8,0.8
2025-04-15T1800,2500A,108.3514,21.7731,防城港市,防城档案局,颗粒物(PM10),151,251,219,74,68,153,,142,142,28,21,12,6,0.6,0.7
2025-04-15T1800,2501A,108.3506,21.6414,防城港市,大海花园,颗粒物(PM10),131,212,216,59,63,192,,144,144,24,24,14,11,0.7,0.8
2025-04-15T1800,1371A,113.1294,23.0067,佛山市,湾梁,颗粒物(PM10),65,80,178,30,65,167,,157,157,23,69,7,9,0.5,0.8
2025-04-15T1800,1372A,113.1083,23.0478,佛山市,华材职中,,,90,194,40,80,184,,159,159,18,79,6,9,,0.9
2025-04-15T1800,1373A,113.144,23.0453,佛山市,南海气象局,颗粒物(PM10),70,90,194,42,71,157,,158,158,26,74,6,8,0.4,0.9
2025-04-15T1800,1374A,113.2881,22.8094,佛山市,顺德苏岗,臭氧1小时,87,96,184,24,63,189,,159,159,20,79,8,8,0.5,0.9
2025-04-15T1800,1376A,112.8383,22.8678,佛山市,高明孔堂,臭氧1小时,113,83,160,33,56,225,,175,175,18,29,7,10,0.4,0.5
2025-04-15T1800,1377A,112.8836,23.1588,佛山市,三水监测站,颗粒物(PM10),54,58,214,36,82,133,,139,139,23,72,2,10,0.2,0.5
2025-04-15T1800,1378A,112.867,23.185,佛山市,三水云东海,,42,42,167,18,65,126,,151,151,23,60,3,9,0.3,0.6
2025-04-15T1800,3625A,113.2544,22.7642,佛山市,容桂街道办,臭氧1小时,87,92,202,29,71,189,,158,158,26,87,8,10,0.3,0.9
2025-04-15T1800,1280A,119.3903,26.0543,福州市,鼓山,,,,134,,30,,,128,,,6,,2,,0.2
2025-04-15T1800,1282A,119.2681,26.0504,福州市,师大,颗粒物(PM10),71,91,136,20,48,164,,165,165,15,28,5,5,0.3,0.4
2025-04-15T1800,1283A,119.2984,26.1028,福州市,五四北路,颗粒物(PM10),72,94,138,23,50,159,,158,158,16,31,5,5,0.5,0.5
2025-04-15T1800,1284A,119.2648,26.0768,福州市,杨桥西路,颗粒物(PM10),76,101,169,19,45,159,,161,161,17,26,5,5,0.3,0.3
2025-04-15T1800,1285A,119.317,26.0746,福州市,紫阳,颗粒物(PM10),75,100,144,28,51,130,,136,136,44,43,6,6,0.3,0.4
2025-04-15T1800,3048A,119.5799,26.0936,福州市,九龙,颗粒物(PM10),59,68,115,16,31,166,,160,160,8,15,4,5,0.2,0.3
2025-04-15T1800,3526A,119.5189,25.9664,福州市,吴航,颗粒物(PM10),65,79,100,21,35,168,,164,164,10,22,5,6,0.3,0.4
2025-04-15T1800,1755A,123.7977,41.8491,抚顺市,望花区,细颗粒物(PM2.5),72,69,53,52,40,106,,99,99,30,27,14,11,0.8,0.7
2025-04-15T1800,1756A,123.9161,41.8822,抚顺市,顺城区,细颗粒物(PM2.5),68,81,54,49,35,98,,104,103,40,33,13,10,1.0,0.8
2025-04-15T1800,1757A,124.0436,41.8611,抚顺市,东洲区,颗粒物(PM10),62,73,49,41,34,96,,99,99,34,20,9,5,0.9,0.7
2025-04-15T1800,1758A,123.9247,41.8642,抚顺市,新抚区,颗粒物(PM10),61,72,48,34,29,97,,95,95,26,26,10,7,0.9,0.7
2025-04-15T1800,1759A,124.0972,41.8961,抚顺市,大伙房水库,,,72,36,49,24,101,,102,102,29,17,,7,1.0,0.6
2025-04-15T1800,1760A,123.7086,41.8391,抚顺市,沈抚新城,颗粒物(PM10),64,78,50,44,33,105,,100,100,29,31,10,8,1.0,0.8
2025-04-15T1800,2376A,116.2127,28.0814,抚州市,桐源党溪,,46,46,101,8,25,123,,134,134,4,3,16,8,0.4,0.5
2025-04-15T1800,2377A,116.3544,27.9831,抚州市,市站,,50,50,124,13,30,120,,111,111,5,18,5,9,1.0,1
2025-04-15T1800,2378A,116.3565,27.963,抚州市,血防站,,47,47,116,10,31,126,,118,118,6,15,13,12,2.0,1.4
2025-04-15T1800,2379A,116.3564,28.0007,抚州市,采茶剧团,,50,50,120,10,29,124,,120,120,3,11,2,4,1.2,1.1
2025-04-15T1800,2380A,116.385,27.9647,抚州市,医学分院,,47,47,115,13,28,120,,111,111,4,13,5,4,0.8,0.9
2025-04-15T1800,2207A,121.6094,41.998,阜新市,工业园区,,38,38,34,24,35,94,,89,89,15,30,9,15,0.5,0.7
2025-04-15T1800,2208A,121.6697,42.0279,阜新市,长青街,,34,34,35,17,23,98,,93,93,13,23,9,13,0.5,0.8
2025-04-15T1800,2209A,121.6673,42.0705,阜新市,农业园区,,34,34,31,19,19,88,,88,88,9,12,9,18,0.5,0.9
2025-04-15T1800,2210A,121.6717,42.0224,阜新市,东苑,,32,32,35,21,28,97,,89,89,14,27,9,20,0.5,0.8
2025-04-15T1800,2211A,121.6506,42.0498,阜新市,玉龙新城,,33,27,30,20,24,103,,96,96,11,24,11,17,0.6,0.8
2025-04-15T1800,2301A,115.8277,32.8929,阜阳市,市监测站,,44,44,52,13,25,136,,130,130,11,19,8,8,0.3,0.3
2025-04-15T1800,2303A,115.8554,32.8605,阜阳市,开发区,颗粒物(PM10),54,58,74,13,24,137,,135,135,14,21,8,8,0.4,0.4
2025-04-15T1800,2875A,115.784,32.8892,阜阳市,阜阳职业技术学院,,48,48,53,7,18,130,,130,130,11,20,8,8,0.2,0.2
2025-04-15T1800,3468A,115.7901,32.8613,阜阳市,市规划展馆,,45,32,50,13,21,144,,138,138,8,12,7,8,0.4,0.5
2025-04-15T1800,3469A,115.836,32.9183,阜阳市,枣园社区,,46,37,55,11,19,145,,140,140,15,34,6,6,0.3,0.4
2025-04-15T1800,2669A,102.9099,34.9841,甘南藏族自治州,州政府,,35,32,61,17,24,112,,104,104,2,21,8,10,0.3,0.4
2025-04-15T1800,3380A,102.8914,34.9617,甘南藏族自治州,甘肃民族师范学院,,50,50,82,23,22,123,,111,111,2,29,7,10,0.3,0.5
2025-04-15T1800,2570A,101.9603,30.0475,甘孜藏族自治州,水桥子,,31,16,12,9,6,97,,77,77,20,19,5,4,0.2,0.2
2025-04-15T1800,3065A,101.9533,29.9972,甘孜藏族自治州,州环保局,,33,18,15,3,5,103,,85,85,16,18,2,1,0.3,0.2
2025-04-15T1800,3414A,115.8347,28.932,赣江新区,桑海产业园,颗粒物(PM10),58,66,85,15,18,136,,135,135,24,24,7,7,0.4,0.3
2025-04-15T1800,2362A,114.9017,25.9149,赣州市,通天岩,颗粒物(PM10),61,72,112,10,11,136,,159,159,5,5,37,36,1.4,1.4
2025-04-15T1800,2363A,114.9367,25.8664,赣州市,地委,颗粒物(PM10),56,61,115,21,38,129,,123,123,12,24,10,9,0.7,0.7
2025-04-15T1800,2364A,114.9461,25.8481,赣州市,气象台,颗粒物(PM10),57,64,121,17,35,133,,128,128,13,34,10,9,0.5,0.7
2025-04-15T1800,2365A,114.9322,25.8333,赣州市,市图书馆,颗粒物(PM10),57,64,132,12,39,142,,137,137,13,35,4,5,0.5,0.6
2025-04-15T1800,2366A,114.8905,25.8471,赣州市,华坚鞋城,颗粒物(PM10),60,69,140,18,39,136,,135,135,15,36,10,13,0.2,0.4
2025-04-15T1800,3109A,115.0093,25.8613,赣州市,赣县区卫计委,,49,49,116,15,38,112,,116,116,4,22,5,5,0.3,0.4
2025-04-15T1800,2683A,106.2319,36.1417,固原市,马园,颗粒物(PM10),111,172,67,40,15,97,,98,98,13,31,5,5,0.4,0.5
2025-04-15T1800,2684A,106.2792,36.0022,固原市,监测站,颗粒物(PM10),103,156,53,31,17,110,,109,109,4,18,4,5,0.2,0.3
2025-04-15T1800,2685A,106.2375,36.0211,固原市,新区,颗粒物(PM10),96,141,56,38,19,106,,106,106,5,21,6,6,0.2,0.4
2025-04-15T1800,3522A,106.2177,35.9959,固原市,原州区十五小,颗粒物(PM10),97,143,56,36,18,109,,110,110,4,12,7,7,0.2,0.2
2025-04-15T1800,2543A,106.6308,30.5278,广安市,小平旧居,,,,,,,,,,,,,,,,
2025-04-15T1800,2544A,106.6303,30.4576,广安市,市委,颗粒物(PM10),111,172,216,64,76,118,,114,114,11,26,10,11,0.4,0.5
2025-04-15T1800,2545A,106.6271,30.4663,广安市,友谊中学,颗粒物(PM10),109,167,204,61,69,122,,113,113,14,28,4,5,0.5,0.6
2025-04-15T1800,2547A,106.6388,30.4551,广安市,广电花园,颗粒物(PM10),114,178,212,62,73,124,,111,111,,30,,6,0.5,0.6
2025-04-15T1800,2902A,106.6351,30.4865,广安市,北辰小学,颗粒物(PM10),120,189,219,60,70,117,,108,108,10,22,12,11,0.6,0.6
2025-04-15T1800,2523A,105.8945,32.4535,广元市,黑石坡,颗粒物(PM10),102,153,155,35,65,100,,85,85,18,18,2,5,0.3,0.4
2025-04-15T1800,2524A,105.821,32.4444,广元市,老城,颗粒物(PM10),91,132,145,59,64,134,,103,103,11,43,1,2,0.6,0.8
2025-04-15T1800,2526A,105.8628,32.4287,广元市,监测站,颗粒物(PM10),83,115,123,43,51,120,,93,93,18,23,9,12,0.5,0.5
2025-04-15T1800,3617A,105.8047,32.4166,广元市,经开区,颗粒物(PM10),89,128,162,55,70,130,,101,101,29,42,7,18,0.6,0.7
2025-04-15T1800,1345A,113.2347,23.1423,广州市,广雅中学,臭氧1小时,83,100,200,26,68,186,,158,158,17,78,5,6,0.4,0.9
2025-04-15T1800,1346A,113.2612,23.105,广州市,市五中,颗粒物(PM10),66,81,178,28,72,168,,155,155,16,70,2,4,0.5,1.1
2025-04-15T1800,1348A,113.3478,23.0916,广州市,广东商学院,颗粒物(PM10),66,82,190,32,84,172,,155,155,21,81,6,6,0.2,0.7
2025-04-15T1800,1349A,113.4332,23.1047,广州市,市八十六中,颗粒物(PM10),66,82,208,23,67,148,,143,143,39,100,9,7,0.4,0.9
2025-04-15T1800,1350A,113.3505,22.9483,广州市,番禺中学,颗粒物(PM10),69,88,213,24,84,170,,155,155,23,82,5,7,0.3,0.8
2025-04-15T1800,1351A,113.2146,23.3916,广州市,花都师范,颗粒物(PM10),60,70,194,21,64,154,,134,134,16,75,5,8,0.2,0.6
2025-04-15T1800,1352A,113.2597,23.1331,广州市,市监测站,颗粒物(PM10),73,96,177,28,66,156,,142,142,23,78,6,7,0.3,0.8
2025-04-15T1800,1353A,113.5618,23.312,广州市,九龙镇镇龙,颗粒物(PM10),72,93,169,28,59,128,,127,127,22,43,5,5,0.4,0.6
2025-04-15T1800,1354A,113.2765,23.1544,广州市,麓湖,颗粒物(PM10),66,81,154,25,52,168,,163,163,17,73,4,6,0.2,0.6
2025-04-15T1800,1355A,113.443,23.3035,广州市,帽峰山森林公园,颗粒物(PM10),59,67,143,16,40,162,,156,156,9,15,7,9,0.2,0.3
2025-04-15T1800,2846A,113.3221,23.1322,广州市,体育西,颗粒物(PM10),71,91,171,27,64,167,,155,155,18,66,6,6,0.3,0.7
2025-04-15T1800,3298A,113.5717,23.5491,广州市,从化街口,颗粒物(PM10),62,73,162,26,56,136,,132,132,12,38,10,10,0.5,0.8
2025-04-15T1800,3299A,113.3472,23.3692,广州市,白云竹料,颗粒物(PM10),67,84,186,22,61,171,,156,156,12,55,4,5,0.3,0.6
2025-04-15T1800,3300A,113.2981,23.237,广州市,白云嘉禾,颗粒物(PM10),78,105,184,29,54,172,,150,150,30,71,6,7,0.1,0.5
2025-04-15T1800,3301A,113.4256,23.1716,广州市,黄埔科学城,颗粒物(PM10),63,75,150,24,53,150,,144,144,18,43,7,8,0.1,0.3
2025-04-15T1800,3302A,113.3942,23.0483,广州市,番禺大学城,颗粒物(PM10),73,96,210,21,67,164,,156,156,26,84,10,9,0.5,0.7
2025-04-15T1800,3303A,113.4922,22.8168,广州市,南沙黄阁,臭氧1小时,93,92,221,29,67,194,,190,190,24,64,7,9,0.5,0.9
2025-04-15T1800,3304A,113.5342,22.7896,广州市,南沙街,颗粒物(PM10),70,89,206,25,65,175,,185,185,22,52,5,7,0.4,0.7
2025-04-15T1800,3443A,113.2902,23.5544,广州市,花都梯面,颗粒物(PM10),56,61,135,19,49,133,,129,129,8,44,5,7,0.4,0.5
2025-04-15T1800,3445A,113.7858,23.7478,广州市,从化良口,颗粒物(PM10),70,90,116,32,41,140,,138,138,6,12,8,7,0.2,0.3
2025-04-15T1800,3446A,113.8051,23.2614,广州市,增城荔城,颗粒物(PM10),67,84,161,34,54,161,,135,135,12,24,9,8,0.2,0.4
2025-04-15T1800,2505A,109.568,23.1478,贵港市,德智高中,,,,,,,,,,,,,,,,
2025-04-15T1800,2506A,109.6047,23.0666,贵港市,江南子站,颗粒物(PM10),101,151,280,57,93,178,,172,172,10,38,5,10,0.3,1.1
2025-04-15T1800,2508A,109.5669,23.1065,贵港市,荷城子站,颗粒物(PM10),113,175,243,56,73,158,,155,155,21,44,8,8,0.4,0.5
2025-04-15T1800,3405A,109.5886,23.1172,贵港市,新世纪学校,颗粒物(PM10),119,188,223,64,74,167,,151,151,,42,14,9,0.9,1
2025-04-15T1800,4260A,109.5933,23.0951,贵港市,中山路155-3号,颗粒物(PM10),112,174,247,66,96,171,,166,166,15,39,9,10,0.4,0.6
2025-04-15T1800,1439A,106.6899,26.5998,贵阳市,马鞍山,颗粒物(PM10),73,95,92,27,32,133,,116,116,13,25,6,6,0.3,0.3
2025-04-15T1800,1441A,106.6243,26.6266,贵阳市,鉴湖路,,,114,120,,36,143,,139,139,9,36,,12,0.3,0.5
2025-04-15T1800,1442A,106.7487,26.6343,贵阳市,燕子冲,颗粒物(PM10),74,97,98,36,40,146,,124,124,10,29,3,3,0.1,0.2
2025-04-15T1800,1443A,106.6555,26.4365,贵阳市,碧云窝,颗粒物(PM10),75,100,111,24,35,141,,131,131,7,24,6,10,0.3,0.4
2025-04-15T1800,1445A,106.7109,26.6027,贵阳市,红边门,颗粒物(PM10),79,107,118,41,43,134,,127,127,23,48,7,14,0.2,0.3
2025-04-15T1800,1446A,106.7164,26.5699,贵阳市,新华路,颗粒物(PM10),75,100,119,39,43,122,,119,119,14,39,48,20,0.7,0.6
2025-04-15T1800,1447A,106.674,26.5424,贵阳市,太慈桥,颗粒物(PM10),76,102,106,29,36,132,,113,113,17,39,7,8,0.5,0.5
2025-04-15T1800,1552A,106.805,26.3003,贵阳市,桐木岭,颗粒物(PM10),86,122,108,41,38,136,,132,132,2,3,1,2,0.5,0.5
2025-04-15T1800,4230A,106.6882,26.5695,贵阳市,花果园大街66号,颗粒物(PM10),82,114,114,45,48,124,,108,108,15,41,5,9,0.2,0.6
2025-04-15T1800,4231A,106.6873,26.5169,贵阳市,漓江路57号,颗粒物(PM10),75,100,110,34,44,138,,125,125,11,41,10,12,0.4,0.6
2025-04-15T1800,1862A,110.4144,25.3167,桂林市,电子科大尧山校区,,,,,,,,,,,,,,,,
2025-04-15T1800,1864A,110.3089,25.2708,桂林市,龙隐路小学,颗粒物(PM10),85,119,143,40,61,135,,134,134,9,22,9,10,0.3,0.5
2025-04-15T1800,1865A,110.2869,25.2178,桂林市,八中,颗粒物(PM10),87,123,147,42,58,142,,136,136,11,30,10,10,0.8,0.9
2025-04-15T1800,3531A,110.296,25.1253,桂林市,旅游学院,颗粒物(PM10),81,112,123,36,45,130,,130,130,14,24,2,3,0.6,0.6
2025-04-15T1800,4222A,110.1835,25.2444,桂林市,环湖路276号,颗粒物(PM10),87,124,142,44,52,124,,122,122,11,37,6,8,0.4,0.5
2025-04-15T1800,4301A,110.2803,25.2773,桂林市,信义路13号,,,105,149,,65,151,,142,142,8,33,2,7,0.6,0.6
2025-04-15T1800,2674A,100.2561,34.4714,果洛藏族自治州,玛沁县大武镇,颗粒物(PM10),62,73,44,18,15,126,,122,122,2,2,15,14,0.3,0.3
2025-04-15T1800,1129A,126.5422,45.755,哈尔滨市,岭北,,32,6,16,3,15,102,,100,100,7,11,10,14,0.6,0.7
2025-04-15T1800,1130A,126.561,45.8167,哈尔滨市,松北商大,,31,15,19,3,12,97,,100,100,11,13,8,9,0.6,0.7
2025-04-15T1800,1131A,126.979,45.5419,哈尔滨市,阿城会宁,,32,32,28,7,23,96,,95,95,14,16,22,8,2.6,0.8
2025-04-15T1800,1132A,126.599,45.7222,哈尔滨市,南岗学府路,,30,18,24,3,8,95,,93,93,9,13,7,7,0.3,0.4
2025-04-15T1800,1133A,126.689,45.7733,哈尔滨市,太平宏伟公园,,31,18,20,7,17,97,,95,95,12,13,4,4,0.5,0.5
2025-04-15T1800,1134A,126.635,45.7667,哈尔滨市,道外承德广场,,30,,21,7,16,93,,89,89,9,13,8,6,0.5,0.4
2025-04-15T1800,1135A,126.685,45.7319,哈尔滨市,香坊红旗大街,,32,9,18,3,14,102,,99,99,11,14,8,8,0.5,0.5
2025-04-15T1800,1136A,126.6411,45.7258,哈尔滨市,动力和平路,,31,31,25,3,17,91,,91,91,10,14,6,8,0.2,0.5
2025-04-15T1800,1137A,126.593,45.7478,哈尔滨市,道里建国路,,30,14,17,3,13,96,,96,96,14,14,3,3,0.4,0.5
2025-04-15T1800,1138A,126.615,45.61,哈尔滨市,平房东轻厂,,27,20,20,10,14,86,,96,96,22,20,8,8,0.3,0.5
2025-04-15T1800,1139A,126.595,45.9855,哈尔滨市,呼兰师专,,27,12,17,6,14,86,,88,88,10,12,6,6,0.3,0.4
2025-04-15T1800,1140A,126.6206,45.6842,哈尔滨市,省农科院,,29,22,27,3,18,90,,89,89,9,17,7,9,0.2,0.6
2025-04-15T1800,2688A,93.5128,42.8172,哈密市,地区监测站,颗粒物(PM10),85,120,374,32,107,103,,98,98,12,22,6,6,0.2,0.3
2025-04-15T1800,2689A,93.4961,42.8328,哈密市,哈密师范学校,颗粒物(PM10),74,97,290,35,83,109,,99,99,7,26,4,7,0.3,0.5
2025-04-15T1800,2671A,100.9048,36.9639,海北藏族自治州,海晏县西海镇,,43,43,46,19,21,120,,115,115,1,7,8,11,0.3,0.4
2025-04-15T1800,3867A,102.0738,36.5056,海东市,平安区公安北苑,颗粒物(PM10),52,53,58,19,23,116,,110,110,4,11,3,7,0.5,0.7
2025-04-15T1800,1409A,110.576,19.9507,海口市,东寨港,颗粒物(PM10),114,177,220,59,65,123,,128,128,4,13,9,9,0.5,0.6
2025-04-15T1800,1410A,110.3232,20.0574,海口市,海南大学,颗粒物(PM10),146,242,269,69,65,160,,148,148,12,15,5,3,0.3,0.4
2025-04-15T1800,1411A,110.283,20.0053,海口市,秀英海南医院,颗粒物(PM10),133,215,261,59,62,145,,138,138,10,20,6,6,0.2,0.3
2025-04-15T1800,1412A,110.338,19.9969,海口市,海南师范大学,颗粒物(PM10),133,216,261,72,71,155,,152,152,7,14,6,6,0.4,0.4
2025-04-15T1800,1413A,110.33,20.0356,海口市,龙华路环保局宿舍,颗粒物(PM10),138,226,253,71,68,153,,149,149,7,12,6,6,0.4,0.4
2025-04-15T1800,3539A,110.5111,19.9736,海口市,桂林洋子站,颗粒物(PM10),142,233,260,71,72,161,,150,150,9,18,,5,,0.3
2025-04-15T1800,2673A,100.6188,36.2866,海南藏族自治州,共和县恰卜恰镇,,,,55,,20,128,,128,128,,10,12,13,,0.4
2025-04-15T1800,2676A,97.3731,37.3753,海西蒙古族藏族自治州,德令哈市,,50,50,41,11,16,122,,113,113,6,7,14,12,0.5,0.4
2025-04-15T1800,1048A,114.5302,36.6116,邯郸市,东污水处理厂,,,,25,,0,,,116,,,21,,2,,0.4
2025-04-15T1800,1049A,114.4918,36.5713,邯郸市,矿院,颗粒物(PM10),56,61,49,22,18,107,,96,96,2,20,4,6,0.4,0.6
2025-04-15T1800,1050A,114.484,36.6133,邯郸市,丛台公园,颗粒物(PM10),54,58,46,14,17,114,,99,99,11,28,9,10,0.4,0.7
2025-04-15T1800,3458A,114.7895,36.5593,邯郸市,香泉濮院小区,颗粒物(PM10),65,80,66,14,19,119,,108,108,14,21,5,9,0.2,0.3
2025-04-15T1800,3579A,114.50634,36.77178,邯郸市,永年区实验高中,颗粒物(PM10),66,81,67,31,25,125,,114,114,10,25,7,11,0.4,1.3
2025-04-15T1800,3580A,114.20016,36.44293,邯郸市,峰峰矿区临水派出所,,,,40,,11,127,,121,121,13,16,6,9,0,0.3
2025-04-15T1800,2634A,106.9893,33.1842,汉中市,汉川机床厂子校,颗粒物(PM10),57,64,53,30,34,122,,98,98,6,10,8,8,1.3,1.3
2025-04-15T1800,2635A,107.0154,33.0706,汉中市,市监测站,颗粒物(PM10),60,70,71,31,34,120,,88,88,11,27,6,8,0.9,1.1
2025-04-15T1800,2636A,107.0089,33.1138,汉中市,鑫源开发区,颗粒物(PM10),58,66,67,26,40,122,,87,87,10,30,5,8,0.4,0.7
2025-04-15T1800,2637A,107.007,33.0323,汉中市,南郑大河坎水厂,颗粒物(PM10),62,73,62,32,32,126,,94,94,11,22,6,7,0.5,0.6
2025-04-15T1800,1223A,120.2072,30.2111,杭州市,滨江,颗粒物(PM10),51,51,63,20,21,150,,141,141,20,21,7,8,0.6,0.7
2025-04-15T1800,1224A,120.0633,30.2747,杭州市,西溪,,45,41,45,19,19,144,,146,146,10,20,6,6,0.5,0.5
2025-04-15T1800,1226A,120.3417,30.3150,杭州市,下沙,,45,44,57,18,15,142,,143,143,25,25,7,7,0.4,0.4
2025-04-15T1800,1227A,120.1269,30.2456,杭州市,卧龙桥,,42,41,42,23,17,134,,145,144,18,12,6,6,0.3,0.4
2025-04-15T1800,1228A,120.1903,30.2692,杭州市,浙江农大,,49,49,55,22,23,143,,143,143,21,26,3,3,0.2,0.3
2025-04-15T1800,1230A,120.1197,30.3119,杭州市,和睦小学,,47,45,51,19,20,149,,149,149,19,23,8,10,0.6,0.6
2025-04-15T1800,1231A,120.3019,30.4183,杭州市,临平镇,颗粒物(PM10),51,52,62,20,16,135,,141,141,22,24,6,6,0.3,0.4
2025-04-15T1800,1232A,120.2753,30.1839,杭州市,城厢镇,颗粒物(PM10),52,54,57,20,20,158,,150,150,19,18,8,8,0.4,0.5
2025-04-15T1800,1233A,120.0883,30.1808,杭州市,云栖,,44,40,45,17,12,140,,143,143,22,22,8,9,0.4,0.5
2025-04-15T1800,3557A,119.9464,30.0494,杭州市,镇二中,,49,49,50,22,18,150,,143,143,24,28,2,2,0.3,0.3
2025-04-15T1800,3558A,119.7183,30.2367,杭州市,市府大楼,颗粒物(PM10),51,52,54,21,18,144,,141,141,14,15,8,8,0.4,0.6
2025-04-15T1800,3656A,120.1556,30.2864,杭州市,消防大队,颗粒物(PM10),58,66,63,23,20,140,,150,148,28,21,4,4,0.3,0.5
2025-04-15T1800,1270A,117.1959,31.7848,合肥市,明珠广场,颗粒物(PM10),51,51,56,14,18,144,,134,134,12,38,5,4,0.3,0.4
2025-04-15T1800,1271A,117.3072,31.8764,合肥市,三里街,,44,44,51,22,20,128,,122,122,19,39,6,6,0.3,0.4
2025-04-15T1800,1272A,117.2588,31.8707,合肥市,琥珀山庄,颗粒物(PM10),54,58,56,16,26,146,,129,129,10,35,4,3,0.4,0.6
2025-04-15T1800,1273A,117.1604,31.9052,合肥市,董铺水库,,46,46,48,17,14,139,,128,128,6,22,1,1,0.3,0.3
2025-04-15T1800,1274A,117.25,31.8571,合肥市,长江中路,,48,48,55,15,23,146,,132,132,11,29,8,9,0.4,0.5
2025-04-15T1800,1275A,117.266,31.9436,合肥市,庐阳区,,46,46,54,14,16,142,,128,128,8,32,6,6,0.2,0.3
2025-04-15T1800,1276A,117.3453,31.8616,合肥市,瑶海区,颗粒物(PM10),51,51,62,12,20,125,,120,120,22,46,6,6,0.3,0.4
2025-04-15T1800,1277A,117.3027,31.7964,合肥市,包河区,,46,46,54,14,19,140,,128,128,10,47,6,5,0.3,0.4
2025-04-15T1800,1278A,117.2776,31.7385,合肥市,滨湖新区,,44,44,55,17,26,130,,123,123,15,48,6,6,0.2,0.5
2025-04-15T1800,1279A,117.1318,31.8403,合肥市,高新区,细颗粒物(PM2.5),54,53,51,38,20,140,,129,129,13,24,2,2,0.4,0.5
2025-04-15T1800,3464A,117.3803,31.9147,合肥市,高教基地,颗粒物(PM10),57,63,59,33,29,138,,131,131,9,43,5,6,0.4,0.5
2025-04-15T1800,3614A,79.924,37.0877,和田地区,地区环保局,颗粒物(PM10),136,222,427,75,135,96,,82,82,4,15,1,2,0.6,0.6
2025-04-15T1800,3615A,79.9131,37.113,和田地区,市环保局,颗粒物(PM10),136,222,427,87,120,102,,87,87,1,15,1,2,0.4,0.6
2025-04-15T1800,2516A,108.2011,24.715,河池市,东仁乐园,细颗粒物(PM2.5),113,165,147,85,57,144,,137,137,18,35,7,10,0.9,1.3
2025-04-15T1800,2517A,108.0497,24.6947,河池市,市环保站,颗粒物(PM10),90,129,107,59,44,147,,135,135,8,21,11,8,0.4,0.4
2025-04-15T1800,2518A,108.0983,24.6989,河池市,市疾控中心,颗粒物(PM10),88,125,126,52,52,155,,135,135,13,38,11,12,0.5,0.6
2025-04-15T1800,1696A,114.6778,23.7569,河源市,源西,颗粒物(PM10),65,80,138,28,40,127,,125,125,11,33,4,4,0.7,0.5
2025-04-15T1800,1697A,114.6944,23.7586,河源市,东埔,颗粒物(PM10),62,74,160,35,56,135,,131,131,9,35,4,5,0.6,0.8
2025-04-15T1800,1698A,114.6892,23.7233,河源市,老城,颗粒物(PM10),62,74,129,28,46,134,,130,130,10,23,4,5,0.2,0.5
2025-04-15T1800,1718A,115.4208,35.2464,菏泽市,气象局,颗粒物(PM10),69,87,76,42,39,146,,135,135,13,25,8,6,0.4,0.4
2025-04-15T1800,3374A,115.5564,35.0891,菏泽市,定陶老年大学,,,,,,,,,,,,,,,,
2025-04-15T1800,4184A,115.4797,35.24401,菏泽市,永昌路1号,,,,60,,31,138,,122,122,14,22,6,7,0.3,0.3
2025-04-15T1800,4193A,115.4715,35.2800,菏泽市,长城路999号,颗粒物(PM10),60,70,62,18,20,143,,132,132,16,23,8,7,0.3,0.3
2025-04-15T1800,2514A,111.5264,24.4172,贺州市,环保小区,颗粒物(PM10),84,118,132,39,58,136,,125,125,14,28,6,7,0.4,0.4
2025-04-15T1800,2515A,111.5608,24.4078,贺州市,政协大楼,颗粒物(PM10),68,85,125,40,56,143,,130,130,12,39,8,12,0.5,0.6
2025-04-15T1800,3534A,111.4744,24.4553,贺州市,西湾,颗粒物(PM10),84,117,133,37,54,144,,134,134,12,32,10,10,0.4,0.7
2025-04-15T1800,2385A,114.17,35.9019,鹤壁市,市监测站,颗粒物(PM10),59,68,56,30,24,137,,132,132,18,19,10,6,0.9,0.8
2025-04-15T1800,2386A,114.2956,35.7511,鹤壁市,市交警支队,颗粒物(PM10),66,82,61,28,15,143,,127,127,18,25,10,9,0.7,0.7
2025-04-15T1800,2387A,114.2878,35.7306,鹤壁市,迎宾馆,颗粒物(PM10),68,86,64,18,14,148,,128,128,21,26,6,5,0.5,0.5
2025-04-15T1800,3474A,114.2617,35.6822,鹤壁市,大新区,颗粒物(PM10),58,65,69,33,29,129,,115,115,17,35,8,8,0.7,0.5
2025-04-15T1800,3596A,114.1572,35.9603,鹤壁市,南山宾馆,颗粒物(PM10),57,63,52,37,25,140,,134,134,17,13,7,6,0.7,0.7
2025-04-15T1800,2244A,130.2537,47.3416,鹤岗市,哈啤分公司,,28,19,22,11,14,88,,89,89,2,6,15,15,0.0,0.2
2025-04-15T1800,2245A,130.2684,47.3086,鹤岗市,斯达机电,,28,,27,16,17,88,,88,88,2,5,10,12,0.5,0.6
2025-04-15T1800,2246A,130.3114,47.3388,鹤岗市,东山纸板厂,,41,41,50,13,19,83,,82,82,2,13,13,14,0.2,0.8
2025-04-15T1800,2247A,130.1097,47.3382,鹤岗市,五号水库,,,,,,,,,,,,,,,,
2025-04-15T1800,2263A,127.4833,50.2524,黑河市,交通局,,28,21,21,15,15,88,,87,87,4,4,6,6,0.3,0.2
2025-04-15T1800,2264A,127.5144,50.2341,黑河市,环保局,,38,38,22,12,13,72,,82,82,24,10,15,7,0.3,0.2
2025-04-15T1800,2265A,127.5291,50.2472,黑河市,大黑河岛,,,,,,,,,,,,,,,,
2025-04-15T1800,1074A,115.6838,37.7541,衡水市,电机北厂,,,,54,18,20,133,,131,131,11,18,10,12,0.3,0.4
2025-04-15T1800,1075A,115.6303,37.7316,衡水市,市监测站,颗粒物(PM10),53,56,57,26,20,128,,125,125,15,23,11,16,0.3,0.4
2025-04-15T1800,3188A,115.6683,37.7217,衡水市,市城管局,颗粒物(PM10),58,66,55,30,29,128,,124,124,14,22,8,10,0.4,0.5
2025-04-15T1800,3459A,115.5989,37.5491,衡水市,地表水厂,,,98,75,,25,120,,122,122,16,35,8,10,0.4,0.4
2025-04-15T1800,2456A,112.5003,26.9167,衡阳市,原169医院,颗粒物(PM10),71,92,141,42,58,152,,150,150,9,32,4,9,0.7,0.9
2025-04-15T1800,2457A,112.6194,26.9258,衡阳市,衡阳化工总厂,颗粒物(PM10),82,113,169,28,54,131,,135,135,8,22,7,11,0.5,0.8
2025-04-15T1800,2458A,112.6211,26.8956,衡阳市,珠晖区环保局,颗粒物(PM10),70,90,161,35,57,127,,134,134,10,30,6,10,0.4,0.7
2025-04-15T1800,2459A,112.6197,26.8733,衡阳市,市委党校,细颗粒物(PM2.5),89,83,158,66,78,131,,129,129,6,25,5,6,0.2,0.5
2025-04-15T1800,2460A,112.6006,26.8919,衡阳市,市监测站,颗粒物(PM10),68,85,156,30,60,131,,135,135,9,34,8,10,0.4,0.8
2025-04-15T1800,2461A,112.5664,26.9056,衡阳市,真空机电公司,颗粒物(PM10),72,94,169,40,70,131,,134,134,10,27,5,9,0.3,0.6
2025-04-15T1800,3399A,112.6703,26.882,衡阳市,师范学院,颗粒物(PM10),71,91,158,33,56,133,,134,134,10,16,9,12,0.4,0.6
2025-04-15T1800,2608A,103.3772,23.3993,红河哈尼族彝族自治州,污水处理厂,,43,38,79,30,42,94,,101,101,10,10,10,13,0.3,0.3
2025-04-15T1800,2609A,103.3861,23.35,红河哈尼族彝族自治州,监测站,,,,80,,37,99,,103,103,6,8,8,6,0.2,0.2
2025-04-15T1800,3038A,103.3758,23.368,红河哈尼族彝族自治州,州图书馆,,40,40,70,16,32,98,,107,106,6,8,6,7,0.2,0.2
2025-04-15T1800,1090A,111.6507,40.7517,呼和浩特市,呼市一监,颗粒物(PM10),54,58,55,22,21,143,,124,124,11,22,12,10,0.5,0.4
2025-04-15T1800,1091A,111.6572,40.8033,呼和浩特市,小召,颗粒物(PM10),53,56,40,20,17,129,,114,114,21,27,13,9,0.5,0.5
2025-04-15T1800,1094A,111.7516,40.8369,呼和浩特市,如意水处理厂,,43,43,44,21,29,134,,116,116,12,36,13,10,0.4,0.5
2025-04-15T1800,1095A,111.7276,40.8062,呼和浩特市,二十九中,,47,47,44,19,17,136,,117,117,14,21,8,6,0.3,0.6
2025-04-15T1800,1096A,111.5512,40.7866,呼和浩特市,工大金川校区,颗粒物(PM10),51,51,42,20,21,146,,122,122,15,40,14,9,0.5,0.5
2025-04-15T1800,1097A,111.717,40.7612,呼和浩特市,化肥厂生活区,颗粒物(PM10),51,51,47,26,28,138,,121,121,18,27,11,11,0.4,0.5
2025-04-15T1800,3698A,111.5968,40.8178,呼和浩特市,红旗小学,颗粒物(PM10),58,66,41,18,16,136,,114,114,22,32,13,8,0.5,0.5
2025-04-15T1800,3699A,111.6518,40.8389,呼和浩特市,海东办,颗粒物(PM10),56,61,37,20,22,134,,113,113,12,29,15,10,0.5,0.6
2025-04-15T1800,2192A,119.7594,49.2261,呼伦贝尔市,区环保局,,41,41,72,28,53,96,,98,98,13,30,4,7,0.3,0.6
2025-04-15T1800,3061A,119.7512,49.1577,呼伦贝尔市,国华电力东,,36,36,59,19,39,104,,106,106,7,12,6,5,0.4,0.5
2025-04-15T1800,1250A,120.0751,30.8669,湖州市,城西水厂,,45,43,66,21,22,144,,134,134,18,51,8,9,0.3,0.4
2025-04-15T1800,2873A,120.0830,30.8929,湖州市,仁皇山新区,,44,44,59,19,20,125,,140,140,32,25,4,6,0.5,0.6
2025-04-15T1800,2907A,120.1844,30.8596,湖州市,吴兴区站,,44,44,59,22,20,126,,134,134,17,24,6,7,0.3,0.4
2025-04-15T1800,3562A,120.4148,30.8538,湖州市,南浔区站,颗粒物(PM10),51,51,56,20,19,149,,150,150,19,21,3,5,0.3,0.4
2025-04-15T1800,1607A,120.9049,40.7211,葫芦岛市,龙港区,,,,41,16,32,76,,78,78,29,33,,22,,0.7
2025-04-15T1800,1608A,120.8392,40.7514,葫芦岛市,化工街,,29,29,47,17,32,68,,84,78,32,51,10,21,0.6,0.9
2025-04-15T1800,1609A,120.8341,40.7073,葫芦岛市,新区,,23,23,29,15,25,69,,74,74,31,38,9,9,0.6,0.7
2025-04-15T1800,1610A,120.8695,40.7677,葫芦岛市,东城区,,29,29,54,20,44,76,,74,74,30,49,18,35,0.7,0.9
2025-04-15T1800,2482A,109.5981,27.5721,怀化市,林科所,颗粒物(PM10),78,106,141,35,50,91,,102,102,8,16,14,16,0.0,0.4
2025-04-15T1800,2483A,109.9453,27.5444,怀化市,河西地税局,颗粒物(PM10),79,108,115,41,46,90,,106,106,24,16,12,12,0.5,0.5
2025-04-15T1800,2484A,109.9781,27.5342,怀化市,市四医院,颗粒物(PM10),80,110,145,45,56,107,,111,111,12,25,9,10,0.3,0.5
2025-04-15T1800,2485A,109.9972,27.5578,怀化市,监测楼,颗粒物(PM10),77,103,138,41,50,86,,94,94,16,22,12,10,0.4,0.4
2025-04-15T1800,2486A,110.0394,27.583,怀化市,市委党校,颗粒物(PM10),81,111,123,39,55,104,,113,112,6,16,7,8,0.5,0.6
2025-04-15T1800,1210A,119.036,33.5981,淮安市,钵池山,颗粒物(PM10),53,56,53,20,23,138,,128,128,17,20,12,12,0.6,0.6
2025-04-15T1800,1211A,119.007,33.575,淮安市,北京南路,颗粒物(PM10),57,63,57,24,23,122,,120,120,29,31,28,12,2.9,1
2025-04-15T1800,1212A,118.989,33.6067,淮安市,市监测站,,48,48,49,17,20,125,,125,125,19,21,10,9,0.4,0.4
2025-04-15T1800,1213A,119.135,33.5039,淮安市,楚州区监测站,颗粒物(PM10),52,54,55,28,25,131,,124,124,9,16,8,8,0.5,0.5
2025-04-15T1800,3426A,118.8755,33.2894,淮安市,新华书店,,47,47,47,28,26,133,,130,130,17,16,8,8,0.4,0.5
2025-04-15T1800,4206A,119.0288,33.6319,淮安市,承德北路606号,颗粒物(PM10),52,53,56,19,21,130,,125,125,16,18,8,8,0.3,0.5
2025-04-15T1800,2282A,116.8004,33.975,淮北市,监测站,颗粒物(PM10),53,56,66,18,32,148,,147,147,14,25,8,9,0.7,0.7
2025-04-15T1800,2283A,116.8091,33.9007,淮北市,烈山区政府,细颗粒物(PM2.5),83,63,72,61,39,134,,142,142,19,45,6,13,0.6,0.7
2025-04-15T1800,3330A,116.8873,33.9836,淮北市,杜集区检察院,颗粒物(PM10),51,52,72,23,40,148,,145,145,16,28,8,11,0.7,0.8
2025-04-15T1800,4017A,116.7923,33.9535,淮北市,市博物馆,,45,44,74,21,41,144,,144,144,15,34,10,11,0.7,0.9
2025-04-15T1800,2277A,116.8305,32.7727,淮南市,潘集区政府,颗粒物(PM10),52,54,61,14,26,136,,128,128,15,22,4,6,0.2,0.3
2025-04-15T1800,2279A,116.8569,32.5951,淮南市,谢家集区政府,,46,46,50,15,18,120,,126,126,17,17,7,7,0.4,0.5
2025-04-15T1800,2280A,116.8281,32.633,淮南市,八公山区政府,颗粒物(PM10),52,53,53,15,18,132,,128,128,8,9,5,6,0.3,0.3
2025-04-15T1800,2281A,116.6325,32.6201,淮南市,焦岗湖风景区管理处,,,,,,,,,,,,,,,,
2025-04-15T1800,2894A,117.0566,32.6531,淮南市,经济技术开发区消防队,,45,43,50,12,22,141,,133,133,11,29,5,6,0.3,0.3
2025-04-15T1800,3329A,117.0108,32.5893,淮南市,山南新区,,43,40,52,3,13,136,,129,129,10,15,7,8,0.3,0.3
2025-04-15T1800,4209A,117.0031,32.6445,淮南市,国庆中路369号,,43,40,52,17,25,135,,127,127,12,20,7,7,0.3,0.4
2025-04-15T1800,2446A,114.9028,30.4742,黄冈市,职工中心,,50,31,49,13,21,158,,151,151,12,21,7,9,0.6,0.6
2025-04-15T1800,2929A,114.8858,30.4519,黄冈市,红卫路,,45,42,61,10,22,142,,144,144,9,16,6,9,0.7,0.7
2025-04-15T1800,3398A,114.9136,30.4445,黄冈市,市林业局,,47,32,58,6,21,150,,143,143,10,20,15,12,0.7,0.5
2025-04-15T1800,2672A,102.0199,35.5102,黄南藏族自治州,同仁县隆务镇,颗粒物(PM10),59,67,67,20,19,121,,114,114,2,3,14,14,0.3,0.2
2025-04-15T1800,2295A,118.2903,29.6963,黄山市,延安路89号,,39,34,55,22,24,124,,128,128,5,7,5,6,0.1,0.2
2025-04-15T1800,2297A,118.1371,30.2756,黄山市,黄山区政府5号楼,,44,44,45,27,18,116,,121,121,4,4,4,4,0.3,0.3
2025-04-15T1800,4210A,118.3354,29.7203,黄山市,滨江东路7-2号,,40,34,53,21,17,127,,129,129,7,9,5,6,0.4,0.4
2025-04-15T1800,2423A,115.0601,30.2313,黄石市,沈家营,臭氧1小时,54,49,73,12,19,163,,145,145,21,37,7,11,0.6,0.7
2025-04-15T1800,2426A,114.8988,30.2019,黄石市,铁山,臭氧1小时,64,48,67,17,20,171,,152,152,21,20,13,11,0.5,0.7
2025-04-15T1800,2427A,115.0307,30.2092,黄石市,团城山,臭氧1小时,53,32,70,11,20,162,,137,137,17,30,9,12,0.6,0.6
2025-04-15T1800,3149A,115.0235,30.1578,黄石市,笔架山北路,臭氧1小时,59,24,49,7,14,167,,157,157,5,13,8,8,0.5,0.6
2025-04-15T1800,4185A,115.0780,30.21118,黄石市,磁湖东路29号,细颗粒物(PM2.5),79,,71,58,34,150,,144,144,28,38,9,11,0.7,0.8
2025-04-15T1800,1392A,114.4183,23.0528,惠州市,河南岸金山湖子站,颗粒物(PM10),70,90,166,35,60,126,,123,123,25,39,9,10,0.6,0.8
2025-04-15T1800,1393A,114.4053,23.0822,惠州市,下埔横江三路子站,颗粒物(PM10),68,86,181,25,64,137,,129,129,12,41,9,10,0.5,0.7
2025-04-15T1800,1394A,114.4103,23.1142,惠州市,江北云山西路子站,颗粒物(PM10),62,74,181,23,62,150,,140,140,11,42,11,12,0.2,0.5
2025-04-15T1800,1395A,114.4645,22.7833,惠州市,惠阳区承修路船湖子站,颗粒物(PM10),113,176,219,48,71,144,,144,144,14,51,10,11,0.5,0.8
2025-04-15T1800,1396A,114.5317,22.7422,惠州市,大亚湾管委会子站,颗粒物(PM10),115,179,218,63,71,162,,147,147,15,59,,8,0.4,0.5
2025-04-15T1800,3314A,114.4338,22.8134,惠州市,惠阳秋长,颗粒物(PM10),122,193,206,56,68,153,,153,153,16,52,10,13,0.3,0.5
2025-04-15T1800,3452A,114.6517,22.775,惠州市,大亚湾霞涌,颗粒物(PM10),114,177,202,50,62,152,,152,152,15,27,8,8,0.5,0.6
2025-04-15T1800,2240A,130.9762,45.3001,鸡西市,环保局,,21,,26,6,12,67,,72,72,11,11,6,6,0.7,0.6
2025-04-15T1800,2243A,130.9429,45.3039,鸡西市,第一中学,,23,16,25,8,13,72,,74,73,6,9,6,7,0.5,0.6
2025-04-15T1800,3707A,131.0207,45.3073,鸡西市,欧美日汽修厂,,22,19,30,13,17,70,,72,72,11,15,5,5,0.5,0.6
2025-04-15T1800,3709A,130.9967,45.3106,鸡西市,市政设施管理处,,23,13,34,10,14,72,,72,72,9,17,6,6,0.5,0.5
2025-04-15T1800,2367A,114.9754,27.0803,吉安市,红声器材厂,颗粒物(PM10),57,63,117,13,31,160,,149,149,8,17,13,12,0.4,0.4
2025-04-15T1800,2368A,114.9658,27.0999,吉安市,市森林工业局,颗粒物(PM10),58,65,112,20,34,145,,140,140,7,13,12,11,0.2,0.3
2025-04-15T1800,2369A,114.99,27.1312,吉安市,市环境监测站,颗粒物(PM10),52,54,105,17,33,143,,144,144,6,13,18,19,0.1,0.2
2025-04-15T1800,2370A,115.0093,27.0968,吉安市,青原区法院,颗粒物(PM10),56,62,114,18,33,159,,151,151,8,15,14,13,0.3,0.3
2025-04-15T1800,1772A,126.54,43.8622,吉林市,哈达湾,,30,11,31,8,19,95,,84,84,11,17,6,6,0.4,0.4
2025-04-15T1800,1773A,126.5844,43.8358,吉林市,东局子,,29,27,54,11,26,91,,80,80,14,23,5,5,0.5,0.6
2025-04-15T1800,1774A,126.5052,43.8245,吉林市,电力学院,,31,12,34,11,28,99,,88,88,9,21,4,4,0.5,0.6
2025-04-15T1800,1775A,126.6133,43.8972,吉林市,江北,,28,19,51,6,31,87,,77,77,18,25,12,6,0.6,0.8
2025-04-15T1800,1776A,126.555,43.8306,吉林市,江南公园,,28,17,33,13,28,89,,80,80,12,18,5,5,0.3,0.5
2025-04-15T1800,1778A,126.7061,43.7133,吉林市,丰满,,,,,,,,,,,,,,,,
2025-04-15T1800,2868A,126.4739,43.953,吉林市,九站,,28,15,29,3,19,89,,83,83,6,18,8,8,0.4,0.6
2025-04-15T1800,1299A,116.9862,36.6114,济南市,科干所,,44,44,42,12,19,137,,136,136,9,13,7,8,0.4,0.4
2025-04-15T1800,1300A,116.9376,36.665,济南市,农科所,,46,46,59,10,14,126,,125,125,14,28,7,8,0.3,0.4
2025-04-15T1800,1301A,117.1265,36.6734,济南市,开发区,,39,37,39,10,14,124,,131,131,10,11,8,8,0.4,0.4
2025-04-15T1800,1303A,117.0624,36.6868,济南市,省种子仓库,颗粒物(PM10),70,90,63,24,31,132,,132,132,9,17,5,5,0.6,0.6
2025-04-15T1800,1304A,116.9489,36.6447,济南市,机床二厂,颗粒物(PM10),58,66,88,22,18,130,,132,132,19,35,8,9,0.4,0.4
2025-04-15T1800,1305A,117.0495,36.663,济南市,市监测站,,49,49,46,15,18,122,,125,124,12,18,8,9,0.4,0.4
2025-04-15T1800,1306A,116.7675,36.5484,济南市,长清党校,,49,49,46,27,22,147,,141,141,15,17,6,8,0.4,0.5
2025-04-15T1800,1616A,117.6795,36.229,济南市,技术学院,颗粒物(PM10),58,66,62,14,28,144,,138,138,17,36,12,14,0.6,0.9
2025-04-15T1800,1961A,117.532,36.6868,济南市,东山小学,颗粒物(PM10),51,51,44,10,16,121,,131,131,8,25,6,6,0.2,0.3
2025-04-15T1800,3059A,117.7161,36.2049,济南市,泰兴公司,,45,44,59,29,39,143,,140,140,17,48,10,10,0.5,0.7
2025-04-15T1800,3064A,117.6867,36.2171,济南市,莱芜战役纪念馆,颗粒物(PM10),56,61,71,14,23,148,,141,141,19,43,7,8,0.5,0.8
2025-04-15T1800,3494A,117.1673,36.9782,济南市,济阳区政府,颗粒物(PM10),56,61,64,15,19,122,,126,126,18,31,9,10,0.3,0.4
2025-04-15T1800,3495A,117.1171,36.63,济南市,锦屏中学,,40,29,35,3,10,128,,132,131,12,13,3,3,0.1,0.1
2025-04-15T1800,3682A,116.9814,36.6819,济南市,济南四建,颗粒物(PM10),51,51,58,7,27,130,,130,130,12,24,4,6,0.3,0.4
2025-04-15T1800,1653A,116.6251,35.4302,济宁市,火炬城,颗粒物(PM10),52,53,56,19,27,136,,140,140,5,17,8,6,0.3,0.3
2025-04-15T1800,1655A,116.5491,35.4042,济宁市,电化厂,颗粒物(PM10),58,66,86,31,32,128,,138,138,14,46,8,6,0.3,0.3
2025-04-15T1800,3500A,116.5814,35.3707,济宁市,北湖一中,,45,45,58,9,24,130,,141,141,15,40,6,5,0.2,0.2
2025-04-15T1800,3501A,116.8249,35.5593,济宁市,服务中心,颗粒物(PM10),86,122,69,13,21,121,,136,136,20,44,3,4,0.4,0.4
2025-04-15T1800,3678A,116.5907,35.4054,济宁市,市第七中学,,43,40,74,7,39,136,,143,143,11,29,5,4,0.3,0.4
2025-04-15T1800,2255A,130.2751,46.8028,佳木斯市,佳纺,,25,13,36,3,19,78,,80,80,8,18,6,7,0.5,0.6
2025-04-15T1800,2256A,130.3995,46.8307,佳木斯市,发电厂,,27,19,37,14,20,84,,84,84,8,18,4,4,0.4,0.6
2025-04-15T1800,2257A,130.3258,46.7975,佳木斯市,环保局,,26,12,37,6,23,81,,80,80,12,24,2,3,0.4,0.5
2025-04-15T1800,2258A,130.3648,46.8032,佳木斯市,十一中,,26,12,31,7,21,83,,79,79,10,20,6,7,0.4,0.5
2025-04-15T1800,2259A,130.3794,46.7588,佳木斯市,四丰,,23,6,33,6,18,72,,72,72,9,11,1,1,0.8,1
2025-04-15T1800,1252A,120.7436,30.778,嘉兴市,清河小学,,45,45,67,13,17,120,,126,126,16,23,6,7,0.7,0.8
2025-04-15T1800,1253A,120.726,30.7478,嘉兴市,嘉兴学院,,45,45,57,16,20,139,,145,145,13,24,6,8,0.4,0.5
2025-04-15T1800,2872A,120.7846,30.7525,嘉兴市,南湖区残联,,44,44,68,25,26,134,,144,144,11,19,7,8,0.5,0.6
2025-04-15T1800,3407A,120.6916,30.7739,嘉兴市,秀洲住建,,46,32,49,23,23,146,,148,148,12,24,7,8,0.5,0.6
2025-04-15T1800,1945A,98.2908,39.7711,嘉峪关市,气象局,颗粒物(PM10),79,107,204,31,54,118,,116,116,6,13,12,8,0.1,0.4
2025-04-15T1800,2884A,98.2672,39.7978,嘉峪关市,酒钢宾馆,颗粒物(PM10),93,136,224,34,57,112,,111,111,8,12,16,23,0.3,0.3
2025-04-15T1800,3248A,98.2643,39.7724,嘉峪关市,雄关区,颗粒物(PM10),66,81,171,27,45,118,,114,114,6,17,5,7,0.4,0.3
2025-04-15T1800,1383A,113.1064,22.6058,江门市,北街,臭氧1小时,113,93,175,39,61,225,,179,179,18,47,5,7,0.4,0.7
2025-04-15T1800,1384A,113.0731,22.5835,江门市,西区,臭氧1小时,125,120,207,36,76,249,,204,204,22,56,9,13,0.4,0.6
2025-04-15T1800,1385A,113.0219,22.5311,江门市,圭峰西,臭氧1小时,107,131,181,45,61,213,,173,173,19,22,6,8,0.3,0.4
2025-04-15T1800,1386A,113.0828,22.5947,江门市,东湖,臭氧1小时,117,98,182,38,71,234,,194,194,19,46,8,11,0.4,0.6
2025-04-15T1800,3311A,113.1075,22.5647,江门市,江海富民,臭氧1小时,114,108,190,26,61,227,,200,200,23,55,8,11,0.5,0.8
2025-04-15T1800,3449A,113.05,22.4667,江门市,新会银湖,臭氧1小时,106,102,173,34,67,212,,213,213,25,37,2,3,0.3,0.5
2025-04-15T1800,1830A,113.1992,35.2590,焦作市,影视城,,,,20,,14,,,,,,7,,7,,0.4
2025-04-15T1800,3169A,113.2725,35.2067,焦作市,太极体育中心,,45,41,72,15,33,142,,145,145,21,27,8,14,0.2,0.5
2025-04-15T1800,3335A,113.3137,35.2641,焦作市,马村街道办,,46,46,64,19,31,135,,134,134,11,15,14,19,0.1,0.3
2025-04-15T1800,3336A,113.2465,35.2373,焦作市,焦作技师学院,,44,41,61,9,25,140,,144,144,18,21,7,10,0.5,0.7
2025-04-15T1800,3477A,113.1656,35.2539,焦作市,中站许衡医院,,45,40,48,18,24,141,,142,142,20,21,13,12,0.7,0.7
2025-04-15T1800,3981A,113.2449,35.1803,焦作市,原李万街道办,颗粒物(PM10),51,52,74,14,38,139,,145,145,22,26,10,16,0.4,0.6
2025-04-15T1800,4264A,113.2340,35.2190,焦作市,新安路1731号,,43,43,73,17,29,137,,140,140,16,22,8,14,0.5,0.7
2025-04-15T1800,1708A,116.3701,23.5345,揭阳市,新兴,颗粒物(PM10),103,156,155,44,56,146,,138,138,18,36,8,9,0.7,0.9
2025-04-15T1800,1709A,116.3264,23.5443,揭阳市,西马,颗粒物(PM10),106,162,157,38,56,151,,144,144,12,31,9,12,0.6,0.7
2025-04-15T1800,1710A,116.3611,23.5626,揭阳市,东兴,颗粒物(PM10),100,149,160,38,49,148,,141,141,17,38,11,12,0.8,1
2025-04-15T1800,1711A,116.4151,23.5294,揭阳市,渔湖,颗粒物(PM10),104,158,160,43,58,155,,146,146,18,41,9,10,0.7,0.8
2025-04-15T1800,3320A,116.403,23.5699,揭阳市,曲溪,颗粒物(PM10),111,171,165,62,62,158,,156,156,22,39,8,7,0.9,0.8
2025-04-15T1800,1944A,102.1692,38.5167,金昌市,天庆家园,颗粒物(PM10),148,245,118,60,41,113,,109,109,4,7,9,14,1.0,0.8
2025-04-15T1800,4022A,102.1647,38.5371,金昌市,金川区人防中心,颗粒物(PM10),198,345,183,112,49,115,,108,108,3,8,14,15,0.5,0.5
2025-04-15T1800,4239A,102.1930,38.5319,金昌市,长春路96号,颗粒物(PM10),164,277,131,55,33,110,,105,105,3,6,25,30,1.7,1.1
2025-04-15T1800,1262A,119.647,29.077,金华市,十五中,颗粒物(PM10),52,54,88,22,28,138,,137,137,16,28,4,6,0.3,0.5
2025-04-15T1800,1263A,119.686,29.1029,金华市,监测站,颗粒物(PM10),51,52,87,20,26,144,,144,144,11,24,5,5,0.3,0.3
2025-04-15T1800,3659A,119.656,29.1131,金华市,气象局,颗粒物(PM10),53,56,87,36,32,141,,142,142,15,36,2,3,0.4,0.4
2025-04-15T1800,1767A,121.1115,41.0879,锦州市,南山,,42,,47,29,49,80,,77,77,25,30,9,11,0.7,1.1
2025-04-15T1800,1768A,121.0604,40.8428,锦州市,开发区,,24,20,41,12,34,75,,75,75,36,50,6,14,0.6,0.9
2025-04-15T1800,1769A,121.1836,41.1119,锦州市,百股街道,,26,25,34,17,23,83,,81,81,24,26,5,8,0.6,0.9
2025-04-15T1800,1770A,121.1178,41.1222,锦州市,天安街道,,49,,45,34,44,80,,70,70,23,34,11,12,0.8,1
2025-04-15T1800,1771A,121.1303,41.1386,锦州市,北湖公园,,43,40,36,30,31,88,,79,79,22,32,11,10,0.8,1
2025-04-15T1800,2160A,112.85,35.5051,晋城市,自来水公司,,45,45,44,9,11,142,,140,140,14,19,9,10,0.6,0.7
2025-04-15T1800,2161A,112.8318,35.4936,晋城市,白云商贸,,44,43,51,3,8,140,,140,140,16,22,7,8,0.4,0.7
2025-04-15T1800,2162A,112.8508,35.4887,晋城市,市环保局,颗粒物(PM10),57,63,50,7,10,132,,132,132,17,20,6,6,0.3,0.5
2025-04-15T1800,2163A,112.8676,35.4897,晋城市,技术学院,颗粒物(PM10),60,70,52,7,11,137,,133,133,20,20,9,8,0.5,0.6
2025-04-15T1800,2165A,112.8453,35.546,晋城市,白马寺,,45,31,31,11,11,141,,139,139,9,8,6,9,0.6,0.7
2025-04-15T1800,3620A,112.8271,35.4828,晋城市,泽州一中,,45,26,41,9,12,142,,143,143,14,18,9,10,0.5,0.7
2025-04-15T1800,2173A,112.7249,37.7067,晋中市,南都小区,,47,43,50,10,13,150,,136,136,11,32,9,9,0.4,0.5
2025-04-15T1800,2174A,112.6991,37.6982,晋中市,榆次区政府,,48,48,49,8,14,151,,139,139,12,28,10,10,0.4,0.4
2025-04-15T1800,2865A,112.7195,37.6828,晋中市,榆次三中,,,63,50,7,11,146,,139,139,,29,8,8,,0.3
2025-04-15T1800,4200A,112.7478,37.6954,晋中市,迎宾街26号,颗粒物(PM10),56,61,47,12,12,149,,137,137,8,20,9,8,0.5,0.3
2025-04-15T1800,2439A,112.2014,31.0481,荆门市,竹园小学,颗粒物(PM10),116,181,125,48,39,162,,156,156,15,22,6,8,0.0,0.1
2025-04-15T1800,2440A,112.1969,30.9891,荆门市,掇刀,颗粒物(PM10),99,148,117,52,44,163,,158,158,11,21,12,13,0.3,0.3
2025-04-15T1800,2441A,112.2213,31.0386,荆门市,石化一小,细颗粒物(PM2.5),166,152,113,126,41,157,,157,157,18,24,16,14,0.1,0.2
2025-04-15T1800,3012A,112.1849,31.0362,荆门市,西山林语,颗粒物(PM10),97,144,97,41,31,163,,157,157,8,13,8,8,0.2,0.2
2025-04-15T1800,3547A,112.1632,31.0138,荆门市,龙泉中学南校,颗粒物(PM10),110,170,120,53,53,148,,148,148,20,21,5,9,0.3,0.3
2025-04-15T1800,1844A,112.2494,30.3197,荆州市,市图书馆,颗粒物(PM10),89,128,126,48,44,144,,145,145,23,28,5,9,0.5,0.6
2025-04-15T1800,1845A,112.2008,30.3544,荆州市,市委党校,,,142,129,53,47,146,,142,142,,29,8,9,,0.6
2025-04-15T1800,3194A,112.2747,30.3122,荆州市,管委会,颗粒物(PM10),87,124,121,48,48,151,,143,143,16,26,7,11,0.4,0.5
2025-04-15T1800,4268A,112.1722,30.3366,荆州市,学苑路85号,颗粒物(PM10),84,118,115,40,45,143,,145,145,15,23,5,7,0.4,0.4
2025-04-15T1800,2342A,117.3102,29.3867,景德镇市,王港中学,,,,,,,,,,,,,,,,
2025-04-15T1800,2343A,117.2117,29.2933,景德镇市,老干部活动中心,,46,38,61,13,19,147,,142,142,8,16,9,8,0.3,0.3
2025-04-15T1800,2344A,117.1894,29.2789,景德镇市,兽医站,,44,34,79,11,17,138,,136,136,9,15,5,4,0.5,0.6
2025-04-15T1800,2345A,117.1547,29.2617,景德镇市,台达陶瓷,颗粒物(PM10),52,53,81,15,20,141,,138,138,13,19,24,15,0.5,0.5
2025-04-15T1800,2346A,117.2461,29.2956,景德镇市,陶研所,,44,38,60,20,25,140,,138,138,15,18,6,8,0.5,0.4
2025-04-15T1800,1803A,115.9872,29.6815,九江市,十里,臭氧1小时,70,45,66,14,21,176,,154,154,7,16,4,6,0.5,0.5
2025-04-15T1800,1804A,115.9584,29.7046,九江市,茅山头,,47,40,68,16,21,150,,140,140,20,26,6,7,0.3,0.4
2025-04-15T1800,1805A,115.9877,29.7295,九江市,西园,臭氧1小时,60,44,62,10,21,168,,139,139,19,43,7,10,0.7,0.6
2025-04-15T1800,1808A,115.9114,29.6038,九江市,综合工业园,,47,42,68,13,19,149,,146,146,29,39,9,9,0.6,0.7
2025-04-15T1800,1809A,116.0721,29.7535,九江市,石化总厂,,49,47,77,20,27,156,,141,141,18,34,6,5,0.6,0.7
2025-04-15T1800,1810A,115.9773,29.5698,九江市,庐山气象台,,49,39,56,14,14,154,,136,136,10,7,6,7,0.7,0.7
2025-04-15T1800,3190A,116.0254,29.6994,九江市,外国语学校,臭氧1小时,64,63,73,16,24,171,,141,141,13,20,10,13,1.0,1
2025-04-15T1800,4253A,116.0102,29.6594,九江市,莲花大道8号,臭氧1小时,65,40,85,16,19,172,,143,143,6,11,5,6,0.5,0.5
2025-04-15T1800,4240A,98.4958,39.7339,酒泉市,玉门东路5号,颗粒物(PM10),93,136,235,39,54,120,,114,114,4,10,7,11,0.2,0.2
2025-04-15T1800,4241A,98.5099,39.7506,酒泉市,北大街108号,颗粒物(PM10),96,141,234,33,49,129,,123,123,6,13,10,15,0.3,0.3
2025-04-15T1800,2698A,76.0072,39.4467,喀什地区,巡警大队,颗粒物(PM10),63,75,156,10,58,121,,99,99,7,24,3,4,0.3,0.5
2025-04-15T1800,2699A,75.9755,39.4694,喀什地区,吾办,颗粒物(PM10),73,96,143,24,67,122,,101,101,7,18,3,4,0.4,0.5
2025-04-15T1800,4027A,75.9483,39.4689,喀什地区,老干局,颗粒物(PM10),71,91,152,19,39,120,,104,104,6,16,2,2,0.4,0.4
2025-04-15T1800,1824A,114.3389,34.7781,开封市,肿瘤医院,颗粒物(PM10),55,60,67,13,24,136,,140,140,15,25,10,10,0.4,0.5
2025-04-15T1800,1826A,114.2885,34.7965,开封市,世纪星幼儿园,颗粒物(PM10),62,74,68,16,39,145,,143,143,21,25,6,7,0.5,0.6
2025-04-15T1800,3147A,114.3438,34.8106,开封市,龙亭公园,颗粒物(PM10),65,79,73,15,34,147,,145,145,16,25,5,6,0.5,0.6
2025-04-15T1800,3210A,114.3644,34.7964,开封市,汴京公园,颗粒物(PM10),67,83,82,18,50,148,,143,143,12,30,5,6,1.0,1.1
2025-04-15T1800,3473A,114.2485,34.8306,开封市,技师学院,颗粒物(PM10),61,71,66,13,39,144,,134,134,23,25,7,6,0.5,0.7
2025-04-15T1800,3592A,114.4644,34.7556,开封市,祥符区生态环境局,颗粒物(PM10),65,80,80,24,50,125,,129,129,30,39,8,9,0.4,0.5
2025-04-15T1800,1951A,84.895,45.6094,克拉玛依市,长征新村,,30,29,28,13,7,95,,92,92,5,4,7,7,0.2,0.1
2025-04-15T1800,1952A,84.8988,45.5893,克拉玛依市,南林小区,,33,29,29,3,9,103,,101,101,1,2,3,3,0.2,0.2
2025-04-15T1800,1954A,84.905,44.3396,克拉玛依市,独山子区,,42,42,63,6,19,106,,97,97,4,7,7,8,0.2,0.2
2025-04-15T1800,1955A,85.6979,46.098,克拉玛依市,乌尔禾区商贸楼,,34,13,35,9,7,107,,96,96,1,1,6,6,0.2,0.2
2025-04-15T1800,3612A,85.1045,45.6899,克拉玛依市,白碱滩区新站,,30,15,26,7,7,93,,94,94,2,2,10,10,0.2,0.3
2025-04-15T1800,2697A,76.1454,39.7142,克孜勒苏柯尔克孜自治州,市人民政府,颗粒物(PM10),51,51,123,13,42,135,,117,117,2,5,4,10,0,0.2
2025-04-15T1800,3665A,76.1658,39.7157,克孜勒苏柯尔克孜自治州,克州文化中心,,44,44,104,14,36,135,,118,118,2,3,6,13,0.2,0.2
2025-04-15T1800,1450A,102.8204,24.8886,昆明市,呈贡新区,,32,25,75,9,29,102,,109,109,9,24,6,7,0.5,0.5
2025-04-15T1800,1451A,102.6251,24.9608,昆明市,西山森林公园,,,,,,,,,,,,,,,,
2025-04-15T1800,1452A,102.7252,25.0902,昆明市,龙泉镇,,25,25,69,12,29,79,,96,96,13,23,8,9,0.4,0.4
2025-04-15T1800,1453A,102.7266,25.0375,昆明市,东风东路,,33,33,79,19,38,89,,105,104,18,23,8,9,0.5,0.5
2025-04-15T1800,1454A,102.6742,25.0669,昆明市,金鼎山,,32,32,69,13,34,72,,100,96,27,22,7,8,0.7,0.6
2025-04-15T1800,1455A,102.6644,25.0401,昆明市,碧鸡广场,,28,28,70,12,32,83,,100,98,17,24,6,7,0.3,0.3
2025-04-15T1800,3179A,102.7494,25.0119,昆明市,官渡区博物馆,,31,31,74,12,32,90,,106,104,15,24,6,8,0.4,0.5
2025-04-15T1800,3375A,102.8017,24.8336,昆明市,青年创业园,,31,24,69,16,30,99,,105,105,8,14,8,10,0.5,0.4
2025-04-15T1800,3550A,102.7997,24.9786,昆明市,昆明学院,,32,32,85,16,35,92,,104,104,17,18,5,7,0.4,0.4
2025-04-15T1800,3551A,102.5967,24.6736,昆明市,晋宁区生态环境分局,,30,14,46,12,30,94,,100,100,6,12,6,9,0.7,0.8
2025-04-15T1800,3552A,102.6678,24.9856,昆明市,云天化总部,,30,20,59,9,28,95,,106,105,10,16,7,7,0.6,0.6
2025-04-15T1800,1456A,91.1319,29.6514,拉萨市,八廓街,,48,15,11,9,8,152,,148,148,7,11,6,5,0.4,0.5
2025-04-15T1800,1457A,91.1221,29.6747,拉萨市,市环保局,,,18,14,6,9,133,,134,134,,17,3,4,0.3,0.3
2025-04-15T1800,1458A,91.0874,29.6475,拉萨市,区监测站,,44,13,10,6,8,138,,136,136,15,14,5,5,0.5,0.5
2025-04-15T1800,1459A,91.1774,29.6541,拉萨市,西藏大学,,46,12,9,3,7,147,,145,145,9,11,4,4,0.2,0.2
2025-04-15T1800,1460A,90.9798,29.6588,拉萨市,区辐射站,,44,24,15,7,9,140,,135,135,18,20,8,8,0.4,0.4
2025-04-15T1800,1461A,91.0834,29.6292,拉萨市,拉萨火车站,,44,10,10,7,7,139,,137,137,13,10,3,3,0.3,0.3
2025-04-15T1800,2520A,109.2203,23.7256,来宾市,来宾技工学校,颗粒物(PM10),104,158,192,53,62,159,,164,164,13,41,11,12,0.6,0.8
2025-04-15T1800,3535A,109.1781,23.7297,来宾市,兴宾区政府,颗粒物(PM10),103,155,173,60,67,167,,168,168,6,18,7,10,0.5,0.6
2025-04-15T1800,4002A,109.2416,23.7461,来宾市,中南小学,颗粒物(PM10),104,158,194,60,60,159,,167,167,11,44,11,10,0.5,0.7
2025-04-15T1800,1477A,104.1373,35.9454,兰州市,榆中兰大校区,,,,,,,,,,,,,,,,
2025-04-15T1800,1479A,103.831,36.0464,兰州市,铁路设计院,颗粒物(PM10),69,88,75,23,23,126,,108,108,17,61,13,15,0.3,0.7
2025-04-15T1800,3241A,103.7439,36.0842,兰州市,百合公园,颗粒物(PM10),60,70,79,20,23,125,,105,105,7,45,7,13,0.4,0.7
2025-04-15T1800,3242A,103.9611,35.998,兰州市,和平,颗粒物(PM10),80,110,56,35,21,127,,116,116,5,17,18,14,0.5,0.5
2025-04-15T1800,4236A,103.6293,36.0938,兰州市,庄浪东路808号,颗粒物(PM10),68,86,77,25,33,131,,117,117,13,43,16,19,0.4,0.6
2025-04-15T1800,4237A,103.7251,36.1043,兰州市,安宁西路88号,颗粒物(PM10),89,127,98,43,40,136,,115,115,8,42,12,15,0.4,0.6
2025-04-15T1800,4238A,103.8470,36.0676,兰州市,北滨河东路1号,颗粒物(PM10),82,113,66,29,27,137,,119,119,9,44,15,17,0.5,0.8
2025-04-15T1800,3245A,103.6633,36.533,兰州新区,新区管委会,颗粒物(PM10),98,145,82,64,34,124,,122,122,3,15,8,15,0.2,0.4
2025-04-15T1800,3246A,103.6975,36.4789,兰州新区,舟曲中学,,,,78,,28,120,,118,118,6,26,4,20,0.1,0.3
2025-04-15T1800,1067A,116.6708,39.5111,廊坊市,药材公司,颗粒物(PM10),58,65,53,18,23,118,,104,104,9,31,3,2,0.3,0.4
2025-04-15T1800,1068A,116.7214,39.5589,廊坊市,开发区,颗粒物(PM10),75,99,67,16,22,121,,102,102,12,30,3,2,0.2,0.3
2025-04-15T1800,1070A,116.7244,39.5269,廊坊市,北华航天学院,颗粒物(PM10),66,82,65,18,24,115,,103,103,9,31,5,4,0.3,0.4
2025-04-15T1800,2919A,116.7022,39.5453,廊坊市,河北工业大学,颗粒物(PM10),67,84,62,38,31,126,,106,106,12,32,6,5,0.2,0.3
2025-04-15T1800,2535A,103.7723,29.5462,乐山市,花湖湾,颗粒物(PM10),98,146,170,53,68,180,,144,144,8,31,8,8,0.4,0.7
2025-04-15T1800,2536A,103.7627,29.5844,乐山市,牛耳桥,颗粒物(PM10),106,162,166,55,62,175,,152,152,18,36,8,8,0.5,0.8
2025-04-15T1800,2537A,103.7508,29.6006,乐山市,市第三水厂,颗粒物(PM10),105,160,161,44,58,179,,150,150,12,38,6,6,0.4,0.6
2025-04-15T1800,2538A,103.7571,29.5664,乐山市,市监测站,颗粒物(PM10),106,162,169,57,62,177,,147,147,12,35,8,8,0.5,0.9
2025-04-15T1800,3361A,103.7311,29.5628,乐山市,理工大学,颗粒物(PM10),103,156,159,53,60,179,,150,150,16,36,6,6,0.5,0.8
2025-04-15T1800,2598A,100.2143,26.8576,丽江市,西南郊,,37,31,37,13,20,118,,121,121,4,14,5,5,0.5,0.7
2025-04-15T1800,2599A,100.2497,26.8802,丽江市,丽江古城,,35,34,36,16,20,110,,112,112,13,16,8,9,0.4,0.4
2025-04-15T1800,2600A,100.2203,26.8906,丽江市,市中心,,33,26,28,18,17,105,,110,110,11,12,4,5,0.4,0.4
2025-04-15T1800,1267A,119.914,28.4514,丽水市,监测站大楼,,42,42,79,16,27,129,,132,132,11,24,3,5,0.1,0.2
2025-04-15T1800,1268A,119.93,28.4586,丽水市,莲都小学,,45,45,82,11,22,138,,134,134,8,23,4,4,0.1,0.2
2025-04-15T1800,1269A,119.879,28.4231,丽水市,余庄前,,39,28,74,10,24,122,,134,134,9,15,3,4,0.1,0.2
2025-04-15T1800,1173A,119.176,34.5885,连云港市,市环境监测站,,39,36,49,9,19,122,,127,127,13,26,10,19,0.4,0.6
2025-04-15T1800,3000A,119.3581,34.6972,连云港市,德源药业,,48,48,60,12,22,138,,129,129,11,34,10,13,0.4,0.4
2025-04-15T1800,3007A,119.178,34.844,连云港市,新城一中,颗粒物(PM10),52,54,58,15,30,140,,135,135,17,31,10,11,0.7,0.8
2025-04-15T1800,3008A,119.3608,34.7519,连云港市,胡沟管理处,,,34,38,9,15,123,,130,130,25,38,10,17,,0.6
2025-04-15T1800,3009A,119.1478,34.5911,连云港市,矿山设计院,,44,44,56,9,20,122,,125,125,19,32,10,17,0.4,0.5
2025-04-15T1800,3434A,119.2413,34.6539,连云港市,工贸学校,,43,42,46,10,23,136,,133,133,15,24,8,18,0.6,0.6
2025-04-15T1800,3664A,119.4172,34.7341,连云港市,连云街道,,45,36,46,14,22,143,,134,134,16,16,8,9,0.5,0.5
2025-04-15T1800,2571A,102.3431,27.8099,凉山彝族自治州,青龙寺,,40,19,30,13,12,127,,112,112,2,13,7,9,0.4,0.6
2025-04-15T1800,2572A,102.2721,27.8415,凉山彝族自治州,邛海宾馆,颗粒物(PM10),51,51,39,23,23,125,,109,109,6,26,4,8,0.4,0.6
2025-04-15T1800,2573A,102.2625,27.898,凉山彝族自治州,西昌市政府,,38,36,42,20,24,121,,107,107,6,16,9,10,0.3,0.6
2025-04-15T1800,2574A,102.2685,27.8851,凉山彝族自治州,凉山州政府,,39,36,41,18,21,123,,109,109,6,20,5,7,0.5,0.5
2025-04-15T1800,4229A,102.2342,27.8859,凉山彝族自治州,凯乐南路30号,,42,42,48,21,22,112,,96,96,8,34,12,11,0.8,0.9
2025-04-15T1800,2212A,123.2,41.1953,辽阳市,宏伟区,颗粒物(PM10),54,57,39,27,24,92,,105,105,31,20,16,12,1.2,0.9
2025-04-15T1800,2213A,123.1683,41.2495,辽阳市,新华园,细颗粒物(PM2.5),64,71,49,46,36,95,,94,94,36,26,26,16,2.0,1.2
2025-04-15T1800,2214A,123.2354,41.2639,辽阳市,滨河路,,50,50,44,27,31,100,,93,93,23,25,12,13,1.1,1.1
2025-04-15T1800,2215A,123.149,41.2991,辽阳市,铁西工业园,颗粒物(PM10),58,66,50,35,35,91,,89,89,27,25,20,15,1.4,1.3
2025-04-15T1800,2227A,125.1358,42.8845,辽源市,环保局,,35,31,40,15,19,110,,103,103,14,24,6,6,0.5,0.6
2025-04-15T1800,3239A,125.0764,42.9078,辽源市,银鹰制药,,37,25,27,14,18,117,,110,110,13,23,10,12,0.6,0.7
2025-04-15T1800,1625A,115.9848,36.4372,聊城市,区政府,颗粒物(PM10),54,58,53,16,20,114,,123,123,14,22,10,15,0.6,0.6
2025-04-15T1800,2878A,116.0072,36.4343,聊城市,聊大东校,颗粒物(PM10),70,90,66,28,31,121,,123,123,16,28,10,14,0.5,0.6
2025-04-15T1800,3200A,115.9819,36.4978,聊城市,监控中心,细颗粒物(PM2.5),85,,57,63,33,122,,126,126,14,27,8,9,0.3,0.4
2025-04-15T1800,3513A,116.0445,36.4361,聊城市,九州社区,颗粒物(PM10),57,63,60,20,22,132,,135,135,23,29,11,15,0.4,0.4
2025-04-15T1800,4018A,116.0567,36.4608,聊城市,星美广场,颗粒物(PM10),55,60,55,17,17,135,,134,134,16,21,9,13,0.6,0.6
2025-04-15T1800,2632A,94.3681,29.6376,林芝市,林芝监测站,,39,21,10,15,8,123,,120,120,7,5,5,5,0.3,0.3
2025-04-15T1800,2633A,94.3616,29.6616,林芝市,林芝人民医院,,37,24,13,14,8,118,,113,113,2,3,5,5,0.3,0.3
2025-04-15T1800,2603A,100.0781,23.8982,临沧市,市环保局,,39,37,52,27,37,83,,67,67,12,16,8,7,0.6,0.8
2025-04-15T1800,2604A,100.0894,23.8822,临沧市,市气象局,,39,32,48,27,44,90,,72,72,12,18,8,8,0.6,0.8
2025-04-15T1800,1733A,111.5531,36.0783,临汾市,临钢医院,颗粒物(PM10),54,57,50,8,12,134,,121,121,12,28,9,8,0.5,0.5
2025-04-15T1800,1734A,111.5028,36.0714,临汾市,技工学校,,44,40,50,18,20,139,,123,123,11,27,8,6,0.6,0.7
2025-04-15T1800,1736A,111.5018,36.0855,临汾市,市委,,45,45,55,6,19,138,,123,123,11,30,10,8,0.6,0.8
2025-04-15T1800,3018A,111.505,36.1014,临汾市,唐尧大酒店,,47,47,67,22,20,140,,123,123,7,30,12,11,0.7,0.8
2025-04-15T1800,4244A,111.4879,36.0530,临汾市,启星学校,颗粒物(PM10),52,54,59,18,24,133,,117,117,14,28,11,7,0.6,0.6
2025-04-15T1800,4271A,103.2464,35.6123,临夏回族自治州,滨河东路1号,,41,35,87,16,32,129,,114,114,2,22,10,7,0.3,0.5
2025-04-15T1800,4310A,103.2093,35.5995,临夏回族自治州,新华街21号,颗粒物(PM10),52,54,76,17,35,114,,103,103,5,24,13,11,0.3,0.5
2025-04-15T1800,1618A,118.3429,35.0532,临沂市,沂河小区,颗粒物(PM10),57,63,61,22,30,146,,135,135,15,29,12,10,0.6,0.7
2025-04-15T1800,1619A,118.295,35.0583,临沂市,鲁南制药厂,细颗粒物(PM2.5),125,,59,95,54,156,,147,147,18,35,14,12,0.6,0.6
2025-04-15T1800,1620A,118.2794,34.9976,临沂市,新光毛纺厂,,,61,54,22,25,149,,142,142,,33,9,9,,0.4
2025-04-15T1800,1621A,118.3956,35.0888,临沂市,河东保险公司,,50,48,52,21,32,157,,143,143,14,30,7,4,0.4,0.4
2025-04-15T1800,3370A,118.3564,35.0215,临沂市,十里堡居委,颗粒物(PM10),57,63,50,14,25,150,,142,142,17,26,7,4,0.6,0.7
2025-04-15T1800,3496A,118.3604,35.1084,临沂市,南坊新区,,,73,66,,26,154,,144,144,,34,11,8,0.7,0.6
2025-04-15T1800,3860A,118.3920,35.0300,临沂市,皇山花园小区,颗粒物(PM10),56,61,52,20,20,154,,143,143,15,23,10,8,0.5,0.5
2025-04-15T1800,1870A,109.4856,24.3895,柳州市,柳东小学,臭氧1小时,93,126,180,49,72,194,,165,165,15,35,12,22,0.4,0.8
2025-04-15T1800,1871A,109.4157,24.3277,柳州市,环保监测站,颗粒物(PM10),104,158,198,64,80,147,,157,156,15,41,12,16,0.5,1
2025-04-15T1800,1872A,109.389,24.341,柳州市,河西水厂,颗粒物(PM10),103,156,222,57,73,165,,159,159,16,53,7,19,0.5,1
2025-04-15T1800,1873A,109.4311,24.2921,柳州市,市四中,颗粒物(PM10),103,156,191,46,64,151,,146,146,13,44,9,13,0.5,1.1
2025-04-15T1800,1874A,109.4006,24.3631,柳州市,市九中,颗粒物(PM10),115,180,208,57,71,164,,156,156,16,36,11,15,0.6,1.1
2025-04-15T1800,1875A,109.4958,24.3134,柳州市,古亭山,颗粒物(PM10),102,154,170,52,56,169,,165,165,10,48,8,19,0.6,0.8
2025-04-15T1800,3402A,109.5422,24.3996,柳州市,市二中,颗粒物(PM10),92,133,189,47,74,176,,168,168,14,44,12,25,0.3,0.7
2025-04-15T1800,2307A,116.5079,31.737,六安市,监测大楼,,45,40,39,16,14,143,,131,131,13,16,5,6,0.3,0.4
2025-04-15T1800,2308A,116.4738,31.7643,六安市,皖西学院,,44,36,45,20,14,139,,132,132,5,11,5,5,0.4,0.4
2025-04-15T1800,2309A,116.4996,31.7905,六安市,朝阳厂,,41,40,41,20,14,131,,124,124,16,17,4,4,0.3,0.3
2025-04-15T1800,2310A,116.5567,31.7886,六安市,开发区,,47,47,57,11,21,126,,121,121,22,31,6,5,0.3,0.5
2025-04-15T1800,2576A,104.8,26.5892,六盘水市,窑上,颗粒物(PM10),54,58,59,26,29,118,,120,120,9,8,6,6,0.3,0.3
2025-04-15T1800,2577A,104.83,26.5917,六盘水市,黄土坡,颗粒物(PM10),59,68,85,27,32,123,,125,125,14,29,9,10,0.1,0.2
2025-04-15T1800,2578A,104.89,26.5939,六盘水市,水钢,颗粒物(PM10),75,100,107,21,36,132,,128,128,10,25,9,12,0.3,1.1
2025-04-15T1800,2579A,104.8475,26.5894,六盘水市,民中,颗粒物(PM10),58,66,84,24,33,120,,125,125,18,31,9,12,0.4,0.9
2025-04-15T1800,2580A,104.9544,26.5506,六盘水市,双水,颗粒物(PM10),62,73,102,19,30,132,,128,128,16,21,10,11,0.2,0.3
2025-04-15T1800,2335A,117.0189,25.1181,龙岩市,龙岩师专,,,,,,,,,,,,,,,,
2025-04-15T1800,2336A,117.0217,25.1033,龙岩市,龙岩市监测站,颗粒物(PM10),58,65,114,24,37,147,,142,142,14,27,6,10,0.4,0.4
2025-04-15T1800,2337A,117.0258,25.0661,龙岩市,闽西职业技术学院,颗粒物(PM10),56,62,113,23,38,144,,136,136,13,31,5,29,0.4,0.4
2025-04-15T1800,2338A,117.0196,25.0306,龙岩市,龙岩学院,颗粒物(PM10),55,59,100,26,35,149,,143,143,8,16,5,6,0.4,0.4
2025-04-15T1800,2665A,105.0822,33.3261,陇南市,汉王镇固水子,,,,,,,,,,,,,,,,
2025-04-15T1800,2885A,104.9339,33.3826,陇南市,滨江中学,颗粒物(PM10),60,69,94,23,26,97,,78,78,6,15,6,8,0.5,0.5
2025-04-15T1800,3247A,104.955,33.371,陇南市,市总工会,颗粒物(PM10),62,74,84,31,32,101,,79,79,6,11,8,9,0.3,0.3
2025-04-15T1800,2487A,111.9589,27.8901,娄底市,电视发射台,颗粒物(PM10),107,163,146,42,39,103,,134,134,5,6,8,10,0.7,0.8
2025-04-15T1800,2488A,111.9975,27.725,娄底市,市监测站,颗粒物(PM10),94,138,168,56,79,124,,128,128,20,35,11,21,0.3,1.3
2025-04-15T1800,2489A,112.0194,27.7314,娄底市,市委党校,颗粒物(PM10),92,134,157,48,61,117,,125,125,13,25,3,6,0.3,0.5
2025-04-15T1800,2490A,111.9561,27.7569,娄底市,涟钢,颗粒物(PM10),103,155,160,54,58,81,,104,104,55,29,96,25,1.9,0.8
2025-04-15T1800,2491A,111.9892,27.7044,娄底市,市政府,颗粒物(PM10),82,114,150,30,55,118,,125,125,11,19,5,7,0.5,0.6
2025-04-15T1800,1893A,105.4324,28.9634,泸州市,九狮山,,,,,,,,,,,,,,,,
2025-04-15T1800,1894A,105.4427,28.9063,泸州市,小市上码头,颗粒物(PM10),108,165,138,48,60,150,,116,116,18,38,8,8,0.8,1
2025-04-15T1800,1895A,105.4241,28.8573,泸州市,兰田宪桥,臭氧1小时,88,91,107,55,68,190,,148,148,18,31,11,10,0.6,0.7
2025-04-15T1800,1896A,105.4379,28.8833,泸州市,市环监站,,,,,,,,,,,,,,,,
2025-04-15T1800,4272A,105.3689,28.7783,泸州市,纳溪中医医院,,,,182,,57,196,,147,147,,35,10,9,,0.7
2025-04-15T1800,2183A,111.1406,37.5211,吕梁市,环保局,,38,33,57,15,15,119,,107,107,10,33,7,9,0.1,0.3
2025-04-15T1800,2185A,111.1297,37.5136,吕梁市,自来水公司,,37,19,66,8,20,118,,104,104,14,34,5,8,0.3,0.6
2025-04-15T1800,2867A,111.1283,37.51,吕梁市,马茂庄小学,,38,32,65,14,15,121,,109,109,12,41,4,6,0.3,0.4
2025-04-15T1800,1812A,112.3931,34.6516,洛阳市,市委党校,颗粒物(PM10),54,58,55,21,18,133,,127,127,16,29,10,7,0.5,0.7
2025-04-15T1800,1815A,112.494,34.6886,洛阳市,河南林校,颗粒物(PM10),51,51,53,25,31,139,,133,133,12,31,6,6,0.5,0.6
2025-04-15T1800,1816A,112.3844,34.623,洛阳市,开发区管委会,,48,48,41,14,17,134,,43,,10,12,16,6,0.4,0.3
2025-04-15T1800,1817A,112.4267,34.6258,洛阳市,市委新办公区,颗粒物(PM10),51,51,44,25,17,140,,135,135,18,20,7,6,0.3,0.3
2025-04-15T1800,3340A,112.6005,34.6326,洛阳市,伊滨,,42,31,48,13,22,134,,126,126,13,25,8,7,0.1,0.5
2025-04-15T1800,3341A,112.4951,34.6332,洛阳市,中移产业园,颗粒物(PM10),58,66,57,20,22,136,,128,128,14,27,8,7,0.4,0.5
2025-04-15T1800,3593A,112.5736,34.8993,洛阳市,吉利监测站,,48,48,50,15,18,137,,128,128,14,30,8,9,0.4,0.5
2025-04-15T1800,3635A,112.3677,34.662,洛阳市,河科大西苑校区,颗粒物(PM10),55,60,57,13,19,138,,128,128,21,37,18,12,0.6,0.6
2025-04-15T1800,3636A,112.4388,34.6781,洛阳市,英才小学,,43,35,53,18,25,137,,129,129,16,42,10,11,0.5,0.6
2025-04-15T1800,4214A,112.4600,34.6949,洛阳市,春都路1号院,细颗粒物(PM2.5),70,62,70,51,28,144,,135,135,16,36,9,11,0.5,0.6
2025-04-15T1800,2399A,114.051,33.5699,漯河市,三五一五工厂,颗粒物(PM10),52,54,62,19,24,130,,130,130,12,24,5,6,0.4,0.5
2025-04-15T1800,2400A,114.0055,33.5698,漯河市,漯河大学,颗粒物(PM10),51,51,57,19,21,132,,133,133,8,18,6,8,0.3,0.3
2025-04-15T1800,2401A,114.0138,33.5828,漯河市,市水利局,颗粒物(PM10),53,56,57,14,18,132,,132,132,9,17,4,6,0.2,0.1
2025-04-15T1800,2402A,114.0261,33.5698,漯河市,市广电局,颗粒物(PM10),51,51,58,16,23,127,,130,130,12,21,5,6,0.4,0.5
2025-04-15T1800,3478A,113.9749,33.5664,漯河市,市图书馆,颗粒物(PM10),51,52,52,19,18,125,,126,126,12,18,3,6,0.4,0.5
2025-04-15T1800,4250A,114.0892,33.5882,漯河市,韶山路11号,颗粒物(PM10),51,52,65,26,24,136,,136,136,12,28,3,5,0.3,0.4
2025-04-15T1800,1798A,118.5092,31.6837,马鞍山市,湖东路四小,颗粒物(PM10),65,80,55,18,24,144,,132,132,16,30,8,12,0.5,0.8
2025-04-15T1800,1799A,118.5024,31.6449,马鞍山市,开发区,,50,50,58,23,28,135,,132,132,29,48,8,7,0.6,0.6
2025-04-15T1800,1802A,118.6245,31.7241,马鞍山市,濮塘,颗粒物(PM10),51,51,48,26,20,150,,140,140,9,14,9,9,0.4,0.5
2025-04-15T1800,3633A,118.4918,31.6809,马鞍山市,雨山,,47,47,59,23,26,143,,134,134,16,32,8,10,0.5,0.7
2025-04-15T1800,4191A,118.5274,31.72227,马鞍山市,慈湖高新区,,47,47,71,30,36,139,,129,129,18,40,7,13,0.6,0.9
2025-04-15T1800,1686A,111.0286,21.4688,茂名市,电白南海,颗粒物(PM10),155,259,303,80,85,176,,175,175,26,24,11,20,1.0,1.1
2025-04-15T1800,1687A,110.9294,21.6533,茂名市,茂石化七小,颗粒物(PM10),119,188,274,51,83,143,,155,155,16,23,6,26,,1.3
2025-04-15T1800,1688A,110.9107,21.6687,茂名市,健康路,颗粒物(PM10),118,185,271,48,81,159,,172,172,13,21,8,36,0.8,1.1
2025-04-15T1800,1689A,110.8592,21.6828,茂名市,高岭,颗粒物(PM10),129,207,290,51,77,149,,160,160,13,29,6,25,0.6,0.8
2025-04-15T1800,3450A,111.01,21.5165,茂名市,电白水东,颗粒物(PM10),140,229,287,63,80,162,,160,160,19,25,9,30,0.7,0.8
2025-04-15T1800,2539A,104.0308,30.0478,眉山市,黑龙滩水库,颗粒物(PM10),90,129,111,22,23,181,,158,158,4,11,2,2,0.3,0.4
2025-04-15T1800,2540A,103.8416,30.0874,眉山市,气象局,颗粒物(PM10),99,148,191,46,57,157,,150,150,19,44,2,4,0.5,0.7
2025-04-15T1800,3137A,103.8578,30.0744,眉山市,市委党校,颗粒物(PM10),95,139,174,36,51,149,,144,144,16,43,7,8,0.5,0.9
2025-04-15T1800,3148A,103.8291,30.0564,眉山市,区人社局,颗粒物(PM10),78,106,142,39,56,156,,149,149,19,48,7,11,0.5,0.8
2025-04-15T1800,1690A,116.1231,24.3284,梅州市,梅江月梅,颗粒物(PM10),69,88,122,32,45,159,,30,,9,27,6,5,0.4,0.5
2025-04-15T1800,1691A,116.0797,24.2719,梅州市,梅县新城,颗粒物(PM10),60,70,117,35,46,165,,149,149,16,32,6,6,0.4,0.5
2025-04-15T1800,1692A,116.1248,24.2654,梅州市,环境监控中心,颗粒物(PM10),65,80,116,29,43,155,,140,140,16,36,8,21,0.4,0.5
2025-04-15T1800,3315A,116.1233,24.2991,梅州市,梅龙,颗粒物(PM10),69,88,113,34,47,156,,138,138,12,18,8,9,0.4,0.5
2025-04-15T1800,1878A,104.7778,31.4741,绵阳市,富乐山,颗粒物(PM10),94,138,134,43,51,134,,133,133,8,25,9,9,0.3,0.5
2025-04-15T1800,1880A,104.6697,31.4668,绵阳市,高新区自来水公司,颗粒物(PM10),85,119,141,39,53,135,,136,136,15,44,4,8,0.4,0.6
2025-04-15T1800,1881A,104.7287,31.5075,绵阳市,三水厂,颗粒物(PM10),97,143,159,45,59,138,,130,130,9,44,7,7,0.3,0.7
2025-04-15T1800,3491A,104.69,31.5322,绵阳市,西科大附属小学,颗粒物(PM10),95,139,159,48,56,144,,141,141,10,40,7,8,0.6,0.8
2025-04-15T1800,3492A,104.5648,31.5343,绵阳市,安州区旅游局,颗粒物(PM10),95,140,139,39,44,140,,136,136,10,23,8,9,0.3,0.4
2025-04-15T1800,4226A,104.7651,31.4531,绵阳市,绵阳市气象局,颗粒物(PM10),93,136,152,40,50,126,,123,123,14,41,5,6,0.4,0.6
2025-04-15T1800,1784A,129.61,44.561,牡丹江市,环保大楼,,25,23,24,14,16,78,,71,71,14,18,5,6,0.3,0.3
2025-04-15T1800,1785A,129.6115,44.5782,牡丹江市,文化广场,,29,24,29,20,20,80,,68,68,13,17,10,11,0.6,0.6
2025-04-15T1800,1786A,129.5904,44.5963,牡丹江市,第一医院,,33,,23,23,17,83,,72,72,10,12,5,6,0.3,0.3
2025-04-15T1800,1787A,129.6364,44.6075,牡丹江市,机车工厂,,26,26,33,18,19,80,,69,69,15,23,7,34,0.4,0.5
2025-04-15T1800,1788A,129.6386,44.5462,牡丹江市,第一中学,,28,28,26,12,15,82,,77,77,7,14,7,7,0.5,0.5
2025-04-15T1800,2531A,105.0703,29.61,内江市,市监测站,颗粒物(PM10),87,124,165,61,72,187,,161,161,13,34,15,13,0.6,0.8
2025-04-15T1800,2532A,105.0717,29.5947,内江市,东兴区政府,颗粒物(PM10),98,145,163,54,60,182,,153,153,12,34,10,8,0.5,0.6
2025-04-15T1800,2533A,105.0653,29.5817,内江市,内江二中,颗粒物(PM10),99,147,179,58,72,171,,145,145,19,39,10,9,0.4,0.6
2025-04-15T1800,2534A,105.0406,29.5822,内江市,内江日报社,细颗粒物(PM2.5),119,153,199,90,91,181,,154,154,11,38,10,9,0.3,0.5
2025-04-15T1800,2628A,92.0657,31.4846,那曲市,那曲监测站,,39,24,52,11,43,122,,105,105,13,28,7,8,0.4,0.9
2025-04-15T1800,4243A,92.0515,31.4787,那曲市,那曲市委宣传部,,40,31,36,12,25,127,,110,110,15,22,5,6,0.3,0.6
2025-04-15T1800,1290A,115.8931,28.6843,南昌市,省外办,,46,39,77,19,26,145,,141,141,14,25,8,7,0.3,0.4
2025-04-15T1800,1291A,115.8886,28.7003,南昌市,省林业公司,,48,48,91,17,25,137,,132,132,12,18,9,8,0.3,0.4
2025-04-15T1800,1292A,115.8126,28.7442,南昌市,林科所,臭氧1小时,57,39,80,12,23,165,,153,153,10,25,7,8,0.5,0.3
2025-04-15T1800,1294A,115.8518,28.687,南昌市,建工学校,,46,46,115,27,37,146,,145,145,20,22,5,5,0.5,0.5
2025-04-15T1800,1295A,115.8921,28.6424,南昌市,象湖,,50,42,113,14,22,158,,159,159,11,17,8,7,0.5,0.5
2025-04-15T1800,1296A,115.7423,28.7996,南昌市,武术学校,,48,44,48,11,7,153,,152,152,6,4,10,9,0.5,0.5
2025-04-15T1800,3046A,115.9084,28.6062,南昌市,机电学校,,49,49,95,14,26,144,,144,144,12,23,5,4,0.4,0.5
2025-04-15T1800,3690A,115.9721,28.7031,南昌市,外国语学校,臭氧1小时,54,49,89,8,26,163,,161,161,14,24,12,11,0.1,0.1
2025-04-15T1800,4192A,115.9316,28.68677,南昌市,南京东路235号,颗粒物(PM10),53,56,98,15,22,154,,156,156,17,22,9,9,0.3,0.4
2025-04-15T1800,1905A,106.056,30.8064,南充市,西山风景区,颗粒物(PM10),98,146,158,60,64,140,,105,105,8,19,6,6,0.5,0.5
2025-04-15T1800,1906A,106.0789,30.8023,南充市,南充市委,颗粒物(PM10),126,201,201,79,73,136,,100,100,14,37,6,5,0.5,0.6
2025-04-15T1800,1907A,106.1031,30.8217,南充市,南充炼油厂,颗粒物(PM10),118,185,211,67,78,121,,92,92,,42,6,6,0.5,0.6
2025-04-15T1800,4227A,106.1083,30.7884,南充市,梨树横街98号,颗粒物(PM10),125,199,223,53,60,130,,99,99,14,34,8,7,0.3,0.4
2025-04-15T1800,4304A,106.1172,30.843,南充市,清泉寺北路188号,颗粒物(PM10),111,171,210,57,70,131,,99,99,11,24,6,6,0.3,0.3
2025-04-15T1800,4305A,106.067,30.7616,南充市,同庆路1号,颗粒物(PM10),111,172,202,68,73,114,,83,83,14,39,6,5,0.5,0.5
2025-04-15T1800,1151A,118.8086,32.1065,南京市,迈皋桥,,45,41,35,22,19,143,,136,136,16,26,4,4,0.4,0.2
2025-04-15T1800,1152A,118.7538,32.0551,南京市,草场门,颗粒物(PM10),53,56,44,17,14,139,,138,138,24,29,7,5,0.7,0.6
2025-04-15T1800,1153A,118.7794,32.0745,南京市,山西路,,48,48,56,27,22,144,,141,141,20,23,7,4,0.4,0.2
2025-04-15T1800,1154A,118.7752,32.0023,南京市,中华门,颗粒物(PM10),52,53,45,19,15,122,,121,121,19,33,15,13,0.3,0.4
2025-04-15T1800,1155A,118.8109,32.0309,南京市,瑞金路,颗粒物(PM10),52,53,48,27,21,133,,133,133,13,25,7,6,0.5,0.4
2025-04-15T1800,1156A,118.7997,32.0754,南京市,玄武湖,,48,48,48,12,11,109,,108,108,14,19,7,6,0.7,0.5
2025-04-15T1800,1157A,118.6414,32.0931,南京市,浦口,颗粒物(PM10),52,54,50,14,11,145,,141,141,21,21,6,6,0.4,0.4
2025-04-15T1800,1158A,118.7356,31.9996,南京市,奥体中心,颗粒物(PM10),56,62,49,29,22,135,,136,136,21,36,13,10,0.8,0.5
2025-04-15T1800,1159A,118.9125,32.1028,南京市,仙林大学城,颗粒物(PM10),52,53,51,14,18,145,,138,138,16,34,13,11,0.8,0.8
2025-04-15T1800,3422A,118.8436,31.9198,南京市,江宁彩虹桥,颗粒物(PM10),52,54,54,22,16,145,,132,132,6,29,3,7,0.5,0.7
2025-04-15T1800,3427A,118.8554,32.3578,南京市,六合雄州,,42,35,50,22,27,132,,132,132,2,9,6,6,0.3,0.3
2025-04-15T1800,4249A,118.8708,31.3402,南京市,汶溪路181号,,45,42,49,22,25,142,,142,142,15,22,2,3,0.5,0.6
2025-04-15T1800,4312A,119.019,31.6512,南京市,中山西路1号,,45,34,40,24,27,144,,138,138,13,21,6,7,0.5,0.6
2025-04-15T1800,1401A,108.3103,22.7881,南宁市,二十一中,颗粒物(PM10),97,143,192,47,73,170,,157,157,19,49,6,7,0.5,0.8
2025-04-15T1800,1402A,108.3141,22.8528,南宁市,北湖,颗粒物(PM10),97,143,202,42,76,173,,165,165,15,68,7,10,0.8,1.1
2025-04-15T1800,1403A,108.3206,22.8225,南宁市,市监测站,颗粒物(PM10),92,134,195,54,72,162,,144,144,17,63,7,9,0.3,0.6
2025-04-15T1800,1404A,108.3829,22.8037,南宁市,大自然花园,颗粒物(PM10),99,148,191,53,68,186,,178,178,10,32,7,8,0.4,0.6
2025-04-15T1800,1405A,108.4394,22.7904,南宁市,仙葫,颗粒物(PM10),100,150,195,53,72,151,,143,143,10,39,7,8,0.5,0.6
2025-04-15T1800,1406A,108.2397,22.8467,南宁市,区农职院,颗粒物(PM10),86,122,188,50,66,163,,167,167,12,35,5,13,0.6,0.8
2025-04-15T1800,1407A,108.3275,22.735,南宁市,英华嘉园,,,,195,46,78,169,,171,171,,59,,8,0.6,0.7
2025-04-15T1800,3401A,108.4834,22.7618,南宁市,红星社区,颗粒物(PM10),105,159,198,47,63,192,,187,187,11,34,10,10,0.6,0.7
2025-04-15T1800,4221A,108.2177,22.7774,南宁市,乐贤路16号,颗粒物(PM10),93,136,203,50,67,147,,149,149,12,49,10,12,0.6,0.7
2025-04-15T1800,2331A,118.0966,26.6761,南平市,茫荡山,,,,,,,,,,,,,,,,
2025-04-15T1800,2332A,118.1681,26.6369,南平市,南平市监测站,颗粒物(PM10),58,66,107,19,36,115,,132,132,17,20,4,5,0.7,0.6
2025-04-15T1800,2333A,118.1825,26.6489,南平市,南平铝业有限公司,颗粒物(PM10),56,61,115,16,38,128,,134,134,9,22,4,6,0.5,0.6
2025-04-15T1800,2334A,118.1756,26.6272,南平市,南平七中,颗粒物(PM10),57,63,111,20,35,123,,137,137,13,15,5,5,0.6,0.5
2025-04-15T1800,1168A,120.9098,31.9663,南通市,狼山街道,,48,48,56,19,21,100,,139,134,61,47,7,10,0.7,0.9
2025-04-15T1800,1169A,120.86,32.0005,南通市,虹桥,,47,47,58,21,23,138,,146,146,38,48,7,11,0.4,0.6
2025-04-15T1800,1170A,120.87,32.02,南通市,城中,颗粒物(PM10),53,56,66,17,18,154,,152,152,24,39,4,6,0.5,0.6
2025-04-15T1800,1171A,120.94,31.93,南通市,星湖花园,,45,43,56,21,25,143,,133,133,38,60,13,12,0.9,0.9
2025-04-15T1800,1172A,120.81,32.0417,南通市,紫琅学院,,46,43,58,14,17,146,,154,154,27,36,5,6,0.7,0.8
2025-04-15T1800,3291A,121.067,32.062,南通市,通州监测站,,50,46,57,19,19,158,,158,158,21,30,6,8,0.4,0.4
2025-04-15T1800,3432A,120.9348,31.9883,南通市,环境教育馆,,,56,60,,22,133,,152,152,34,34,10,10,0.8,0.7
2025-04-15T1800,2404A,112.5224,33.0122,南阳市,瓦房庄,颗粒物(PM10),84,117,63,26,19,156,,137,137,12,23,7,6,0.5,0.5
2025-04-15T1800,2405A,112.5003,32.9735,南阳市,汉画馆,,,,50,,17,,,74,,,33,,5,,0.4
2025-04-15T1800,2406A,112.5573,33.027,南阳市,气象站,颗粒物(PM10),79,107,69,41,23,154,,136,136,12,29,7,6,0.4,0.4
2025-04-15T1800,2407A,112.5481,32.9689,南阳市,理工学院,颗粒物(PM10),77,104,60,27,18,151,,136,136,15,29,6,5,0.4,0.4
2025-04-15T1800,4008A,112.5234,32.9922,南阳市,卧龙区政府,颗粒物(PM10),75,99,59,24,21,152,,135,135,12,21,6,5,0.5,0.5
2025-04-15T1800,1234A,121.8358,29.911,宁波市,区环保大楼,颗粒物(PM10),52,54,68,7,21,154,,152,152,21,29,9,10,0.6,0.6
2025-04-15T1800,1235A,121.56,29.82,宁波市,万里学院,臭氧1小时,58,52,63,21,21,166,,158,158,13,19,6,6,0.4,0.5
2025-04-15T1800,1236A,121.713,29.9572,宁波市,龙赛医院,颗粒物(PM10),83,115,85,22,21,148,,156,156,42,30,14,11,0.7,0.6
2025-04-15T1800,1239A,121.633,29.7733,宁波市,钱湖水厂,臭氧1小时,63,40,60,17,23,170,,161,161,9,16,8,8,0.5,0.5
2025-04-15T1800,1240A,121.5856,29.8635,宁波市,太古小学,颗粒物(PM10),54,57,60,21,20,162,,160,160,30,23,10,9,0.4,0.4
2025-04-15T1800,1241A,121.524,29.8674,宁波市,市环境监测中心,臭氧1小时,64,54,58,25,19,171,,157,157,28,26,10,10,0.5,0.5
2025-04-15T1800,2871A,121.6147,29.9017,宁波市,万里国际学校,颗粒物(PM10),54,58,65,33,25,151,,155,155,40,31,10,9,0.5,0.4
2025-04-15T1800,3710A,121.5594,29.8975,宁波市,白沙活动中心,颗粒物(PM10),52,53,57,25,19,153,,159,159,40,19,9,8,0.6,0.5
2025-04-15T1800,2339A,119.5001,26.6946,宁德市,金涵水库,,,,,,,,,,,,,,,,
2025-04-15T1800,2341A,119.5388,26.6612,宁德市,宁德市监测站,颗粒物(PM10),63,75,111,24,40,156,,159,159,17,18,7,6,0.6,0.4
2025-04-15T1800,3209A,119.5231,26.6562,宁德市,宁德一中,颗粒物(PM10),64,78,100,30,39,157,,158,158,17,11,10,7,0.7,0.4
2025-04-15T1800,2618A,98.8601,25.8567,怒江傈僳族自治州,州监测站,,,,41,,25,,,96,,,10,,9,,0.2
2025-04-15T1800,2619A,98.8546,25.8417,怒江傈僳族自治州,泸水一中,,49,41,41,34,27,85,,61,61,10,20,6,7,0.4,0.5
2025-04-15T1800,1888A,101.6891,26.571,攀枝花市,弄弄坪,,43,40,38,30,21,108,,116,116,14,18,4,8,0.6,0.8
2025-04-15T1800,1889A,101.5769,26.5928,攀枝花市,河门口,,42,42,47,19,20,121,,50,,7,30,9,15,0.3,0.7
2025-04-15T1800,1890A,101.7169,26.585,攀枝花市,炳草岗,,33,33,40,14,18,104,,116,116,16,19,8,11,0.2,0.4
2025-04-15T1800,1891A,101.7369,26.5008,攀枝花市,仁和,,34,31,42,18,23,106,,116,116,11,15,7,11,0.4,0.6
2025-04-15T1800,2835A,101.7227,26.567,攀枝花市,四十中小,,36,34,36,23,21,114,,122,122,8,11,6,8,0.4,0.5
2025-04-15T1800,1604A,122.0303,41.1489,盘锦市,开发区,,41,41,22,20,22,102,,97,97,21,29,11,10,0.6,0.6
2025-04-15T1800,1605A,122.0485,41.0883,盘锦市,兴隆台,,38,38,23,21,21,101,,94,94,20,33,11,10,0.7,0.7
2025-04-15T1800,1606A,121.8297,41.1028,盘锦市,新生街道,,34,22,18,21,18,106,,103,103,24,30,16,16,0.5,0.6
2025-04-15T1800,1832A,113.3257,33.742,平顶山市,新华旅馆,颗粒物(PM10),59,68,57,18,20,127,,131,131,13,23,4,4,0.3,0.3
2025-04-15T1800,1833A,113.2919,33.737,平顶山市,规划设计院,,48,48,52,17,20,131,,133,133,10,28,4,4,0.6,0.7
2025-04-15T1800,1834A,113.182,33.774,平顶山市,平顶山工学院,颗粒物(PM10),51,51,39,14,12,137,,135,135,10,15,6,6,0.4,0.4
2025-04-15T1800,3204A,113.3025,33.73,平顶山市,规划局,颗粒物(PM10),56,61,52,8,10,124,,129,129,15,26,4,5,0.3,0.3
2025-04-15T1800,3594A,112.8867,33.9116,平顶山市,石龙区,颗粒物(PM10),61,71,83,37,21,136,,134,134,14,34,6,8,0.3,0.3
2025-04-15T1800,2656A,106.6692,35.5461,平凉市,聚贤嘉苑,颗粒物(PM10),58,66,44,17,19,126,,114,114,7,24,8,9,0.6,0.6
2025-04-15T1800,2657A,106.7021,35.5307,平凉市,博物馆,颗粒物(PM10),62,74,50,21,18,119,,112,112,10,23,10,11,0.5,0.5
2025-04-15T1800,2347A,114.0997,27.5002,萍乡市,武功山,,39,35,71,16,21,122,,117,117,6,6,13,11,0.4,0.3
2025-04-15T1800,2348A,113.8385,27.6434,萍乡市,中医院,,50,50,114,23,36,148,,142,142,11,24,10,11,0.7,0.6
2025-04-15T1800,2349A,113.8493,27.6253,萍乡市,市政府车库,,50,43,103,20,44,159,,146,146,11,23,8,8,0.7,1
2025-04-15T1800,2350A,113.8676,27.6435,萍乡市,市环保局,颗粒物(PM10),58,66,129,22,54,150,,141,141,8,30,6,8,0.7,0.8
2025-04-15T1800,2351A,113.866,27.6198,萍乡市,安源区政府,颗粒物(PM10),55,59,120,18,40,154,,142,142,9,22,14,16,0.6,1.5
2025-04-15T1800,2319A,119.0141,25.4325,莆田市,荔城区仓后路,颗粒物(PM10),71,91,121,22,44,158,,157,157,15,28,4,5,0.6,0.7
2025-04-15T1800,2320A,119.0015,25.4553,莆田市,莆田市监测站,颗粒物(PM10),69,88,102,24,41,165,,162,162,14,16,6,5,0.4,0.4
2025-04-15T1800,2321A,119.1119,25.4561,莆田市,涵江区六中,颗粒物(PM10),70,89,114,22,43,158,,159,159,14,30,4,5,0.5,0.6
2025-04-15T1800,2322A,119.1013,25.3215,莆田市,秀屿区政府,颗粒物(PM10),66,82,110,19,39,162,,159,159,12,20,4,5,0.5,0.6
2025-04-15T1800,2323A,118.981,25.4792,莆田市,东圳水库,,,,,,,,,,,,,,,,
2025-04-15T1800,2392A,115.0312,35.7636,濮阳市,环保局,,48,48,47,22,25,134,,123,123,11,21,7,9,1.0,1.1
2025-04-15T1800,2394A,115.0574,35.7609,濮阳市,油田运输公司,颗粒物(PM10),52,54,51,29,30,144,,134,134,14,20,6,7,0.6,0.6
2025-04-15T1800,3021A,115,35.7668,濮阳市,濮水河管理处,颗粒物(PM10),55,59,61,22,24,136,,126,126,12,26,6,7,0.7,0.7
2025-04-15T1800,4216A,115.0924,35.7686,濮阳市,任丘路479号,颗粒物(PM10),63,76,59,11,23,148,,140,140,10,19,6,7,0.7,0.6
2025-04-15T1800,2601A,100.98,22.7633,普洱市,市环保局,,32,32,30,7,11,71,,66,66,6,8,2,2,0.5,0.6
2025-04-15T1800,2602A,100.9817,22.8322,普洱市,普洱第二中学,,28,,19,13,14,87,,78,78,8,13,7,6,0.4,0.4
2025-04-15T1800,2262A,131.0518,45.8751,七台河市,新一中,,28,17,29,3,15,88,,85,85,9,12,12,12,0.6,0.6
2025-04-15T1800,3345A,131.0577,45.7879,七台河市,中波台,,23,12,30,3,13,71,,68,68,16,20,9,8,0.4,0.4
2025-04-15T1800,3637A,131.0176,45.7761,七台河市,人民广场,,26,26,37,13,20,76,,74,74,20,22,11,10,0.8,0.8
2025-04-15T1800,3684A,130.8781,45.8222,七台河市,新建矿广场,,22,19,39,12,17,69,,68,68,19,20,7,10,0.5,0.6
2025-04-15T1800,1779A,123.9305,47.3636,齐齐哈尔市,安居小区,,27,25,27,17,11,85,,91,91,14,18,4,3,0.3,0.3
2025-04-15T1800,1780A,123.9488,47.3386,齐齐哈尔市,中心广场,,35,35,42,3,6,81,,85,85,14,15,6,6,0.4,0.5
2025-04-15T1800,1781A,123.9483,47.3227,齐齐哈尔市,农牧车辆厂,,29,22,31,6,11,90,,90,90,9,14,5,5,0.1,0.2
2025-04-15T1800,1783A,123.945,47.2988,齐齐哈尔市,市环境监测站,,28,18,32,7,17,87,,88,88,8,16,2,3,0.3,0.5
2025-04-15T1800,3662A,123.6333,47.2075,齐齐哈尔市,富区青少年活动中心,,28,27,38,9,24,87,,89,89,10,19,2,3,0.4,0.5
2025-04-15T1800,2591A,107.9783,26.5747,黔东南苗族侗族自治州,市环境监测站,颗粒物(PM10),66,82,77,39,35,129,,114,114,6,23,5,4,0.3,0.4
2025-04-15T1800,2881A,107.8908,26.5311,黔东南苗族侗族自治州,凯里学院,颗粒物(PM10),74,97,75,32,31,130,,113,113,3,18,5,4,0.4,0.4
2025-04-15T1800,2593A,107.5228,26.2403,黔南布依族苗族自治州,小围寨,颗粒物(PM10),63,75,64,24,24,141,,130,130,3,13,5,5,0.5,0.4
2025-04-15T1800,3538A,107.5175,26.2978,黔南布依族苗族自治州,沙坝,颗粒物(PM10),65,80,76,29,26,129,,122,122,8,13,5,5,0.4,0.5
2025-04-15T1800,2589A,104.9022,25.0925,黔西南布依族苗族自治州,场坝街,,45,45,83,7,42,128,,120,120,8,23,6,61,0.3,0.4
2025-04-15T1800,2590A,104.8811,25.0992,黔西南布依族苗族自治州,坪东大道,颗粒物(PM10),52,53,69,19,35,122,,112,112,10,25,4,19,0.3,0.4
2025-04-15T1800,2502A,108.6236,21.9667,钦州市,市环保站,颗粒物(PM10),153,256,291,66,78,180,,168,168,33,42,14,8,0.9,1.2
2025-04-15T1800,2503A,108.6549,21.9481,钦州市,沙埠小学,颗粒物(PM10),152,253,278,76,82,187,,173,173,24,52,12,15,0.8,1.3
2025-04-15T1800,2504A,108.5989,21.7431,钦州市,港区一小,颗粒物(PM10),150,249,265,64,69,191,,170,170,22,52,15,13,1.0,1
2025-04-15T1800,3404A,108.5959,21.9633,钦州市,北职校,颗粒物(PM10),134,217,274,66,82,176,,180,180,24,42,13,13,0.7,1.1
2025-04-15T1800,1043A,119.7493,40.0116,秦皇岛市,第一关,,,63,46,51,29,61,,92,92,63,48,9,9,,0.7
2025-04-15T1800,1044A,119.5897,39.9499,秦皇岛市,监测站,,,,42,,21,135,,100,100,,20,,9,1.6,0.9
2025-04-15T1800,1046A,119.5251,39.9041,秦皇岛市,建设大厦,颗粒物(PM10),60,69,46,36,23,153,,105,105,34,29,20,11,1.9,1
2025-04-15T1800,3132A,119.610547,39.943889,秦皇岛市,文明里,颗粒物(PM10),67,83,55,43,25,130,,93,93,32,23,18,9,1.4,0.8
2025-04-15T1800,4198A,119.5090,39.8253,秦皇岛市,北戴河轮滑馆,颗粒物(PM10),54,57,33,22,16,69,,86,85,27,15,6,9,0.4,0.7
2025-04-15T1800,1307A,120.6659,36.2403,青岛市,仰口,"颗粒物(PM10),细颗粒物(PM2.5)",54,58,31,38,22,113,,119,119,26,13,5,5,0.5,0.5
2025-04-15T1800,1310A,120.4134,36.0658,青岛市,市南区东部子站,颗粒物(PM10),59,68,44,17,16,105,,100,100,42,31,9,8,0.7,0.6
2025-04-15T1800,1311A,120.3664,36.1032,青岛市,四方区子站,颗粒物(PM10),52,53,45,24,20,134,,124,124,32,38,7,6,0.6,0.6
2025-04-15T1800,1312A,120.2994,36.054,青岛市,市南区西部子站,颗粒物(PM10),56,61,38,22,14,117,,95,95,45,48,8,9,0.9,0.7
2025-04-15T1800,1313A,120.4581,36.0858,青岛市,崂山区子站,,,78,34,27,11,95,,87,87,,24,12,8,1.0,0.6
2025-04-15T1800,1315A,120.3999,36.3083,青岛市,城阳区子站,颗粒物(PM10),53,56,52,15,20,129,,126,126,38,39,10,10,0.6,0.7
2025-04-15T1800,1966A,120.0405,35.8735,青岛市,黄岛区4号,,46,46,37,14,14,107,,94,94,28,25,9,8,0.7,0.7
2025-04-15T1800,3362A,120.5014,36.4034,青岛市,即墨2号,颗粒物(PM10),56,61,53,17,28,140,,139,139,26,24,9,9,0.6,0.6
2025-04-15T1800,3642A,120.3503,36.0736,青岛市,市北区南部,颗粒物(PM10),54,57,38,24,16,126,,114,114,23,25,9,9,0.7,0.7
