timepoint,stationcode,longitude,latitude,area,positionname,primarypollutant,aqi,pm10,pm10_24h,pm2_5,pm2_5_24h,o3,o3_24h,o3_8h,o3_8h_24h,no2,no2_24h,so2,so2_24h,co,co_24h
2024-06-25T1200,2566A,102.1879,31.914,阿坝藏族羌族自治州,州农科所,,21,16,29,9,10,66,,25,25,5,9,4,4,0,0
2024-06-25T1200,2568A,102.2502,31.8896,阿坝藏族羌族自治州,马师校,,20,11,16,6,12,64,,21,21,12,13,5,5,0.3,0.4
2024-06-25T1200,3994A,102.2165,31.9024,阿坝藏族羌族自治州,马尔康中学西区,,21,18,19,7,9,65,,22,22,4,6,5,5,0.3,0.3
2024-06-25T1200,2695A,80.292,41.1694,阿克苏地区,电视台,颗粒物(PM10),83,115,82,36,28,94,,110,109,12,17,4,4,0.4,0.4
2024-06-25T1200,2696A,80.2613,41.1551,阿克苏地区,艺术中心,颗粒物(PM10),84,117,82,38,29,84,,101,100,21,32,3,4,0.4,0.6
2024-06-25T1200,2204A,105.6467,38.8363,阿拉善盟,西城区西花园,颗粒物(PM10),131,211,260,57,70,144,,125,125,9,10,9,9,0.6,0.7
2024-06-25T1200,2205A,105.6985,38.8411,阿拉善盟,蒙二幼,颗粒物(PM10),145,240,280,82,97,137,,117,117,7,7,10,9,0.6,0.6
2024-06-25T1200,2206A,105.724,38.8516,阿拉善盟,环保局新楼,颗粒物(PM10),141,231,276,90,100,141,,126,126,6,6,10,11,0.5,0.5
2024-06-25T1200,2708A,88.1264,47.8517,阿勒泰地区,市站,,32,32,27,11,9,93,,84,84,25,9,6,6,0.6,0.4
2024-06-25T1200,2630A,80.1161,32.5,阿里地区,阿里监测站,,47,,6,6,6,148,,138,138,3,4,7,7,0.4,0.4
2024-06-25T1200,3192A,80.0903,32.5028,阿里地区,阿里藏医院,,47,7,11,3,4,148,,141,141,4,3,7,7,0.4,0.5
2024-06-25T1200,2642A,109.0318,32.6537,安康市,香溪洞,,41,41,29,14,13,100,,52,52,6,5,8,6,0.6,0.6
2024-06-25T1200,2643A,109.0281,32.6939,安康市,安康市监测站,,45,45,45,16,13,99,,53,53,4,7,7,7,0.6,0.5
2024-06-25T1200,2644A,109.0072,32.6975,安康市,汉滨区检察院,,43,43,31,26,14,102,,54,54,5,6,7,7,0.4,0.5
2024-06-25T1200,2291A,117.0809,30.5177,安庆市,环科院,,30,21,16,14,9,93,,76,76,10,7,5,5,0.5,0.5
2024-06-25T1200,2292A,117.0331,30.5119,安庆市,马山宾馆,,30,17,13,10,8,93,,84,84,17,12,7,7,0.4,0.5
2024-06-25T1200,2294A,116.9896,30.6145,安庆市,安庆大学,,,30,26,15,13,100,,75,75,12,11,9,8,,0.4
2024-06-25T1200,3173A,117.0598,30.5351,安庆市,市人大,,31,30,16,14,9,97,,83,83,13,10,6,6,0.3,0.4
2024-06-25T1200,3122A,105.9606,26.2611,安顺市,伍家关,,,,,,,,,,,,,,,,
2024-06-25T1200,3123A,105.9408,26.2431,安顺市,凤凰山,,,15,14,6,7,87,,85,84,5,4,,6,0.5,0.3
2024-06-25T1200,3124A,105.9439,26.2564,安顺市,金钟山,,27,10,10,8,9,86,,83,81,6,5,4,5,0.4,0.4
2024-06-25T1200,3125A,105.8983,26.2481,安顺市,娄家坡,,27,25,17,11,8,86,,84,83,8,5,5,6,0.5,0.5
2024-06-25T1200,1818A,114.4839,36.0621,安阳市,棉研所,,,,,,,,,,,,,,,,
2024-06-25T1200,1819A,114.3551,36.1017,安阳市,红庙街,臭氧1小时,80,96,103,32,32,184,,101,101,2,15,6,8,0.4,0.7
2024-06-25T1200,1820A,114.361,36.0681,安阳市,银杏小区,臭氧1小时,78,95,98,38,34,182,,98,98,11,25,9,8,0.4,0.5
2024-06-25T1200,3141A,114.3922,36.0878,安阳市,信访局,颗粒物(PM10),77,103,103,29,32,180,,104,104,5,18,8,8,0.6,0.7
2024-06-25T1200,3669A,114.4705,36.0637,安阳市,左辅环卫站,臭氧1小时,70,75,105,25,38,176,,95,95,3,27,4,2,0.3,0.4
2024-06-25T1200,3703A,114.2917,36.0949,安阳市,安钢职工学校,颗粒物(PM10),84,117,117,34,42,179,,93,93,6,21,6,6,0.4,0.5
2024-06-25T1200,1748A,123.044,41.1196,鞍山市,深沟寺,,50,50,20,20,7,87,,61,61,36,19,36,13,1.9,0.6
2024-06-25T1200,1749A,123.011,41.0931,鞍山市,太阳城,,29,24,22,9,9,92,,58,58,20,22,21,16,1.2,1.2
2024-06-25T1200,1750A,123.0485,41.1442,鞍山市,太平,,35,35,27,13,9,91,,58,58,20,22,18,9,1.2,0.7
2024-06-25T1200,1751A,122.9642,41.0971,鞍山市,铁西三道街,,29,24,31,8,9,92,,49,49,12,29,10,14,0.5,0.9
2024-06-25T1200,1752A,122.9341,41.0833,鞍山市,铁西工业园区,,29,24,31,9,10,92,,55,55,21,36,11,12,0.8,0.9
2024-06-25T1200,1753A,123.022,41.0821,鞍山市,明达新区,,32,32,24,12,8,84,,53,53,20,23,23,15,1.3,1.1
2024-06-25T1200,1754A,123.1289,41.0228,鞍山市,千山,,,,,,,,,,,,,,,,
2024-06-25T1200,2195A,107.4212,40.761,巴彦淖尔市,附二中,颗粒物(PM10),70,89,164,31,48,140,,89,89,3,16,3,17,0.4,0.4
2024-06-25T1200,2196A,107.37,40.7372,巴彦淖尔市,市环保大楼,颗粒物(PM10),82,113,146,16,38,131,,96,96,4,10,4,4,0.4,0.3
2024-06-25T1200,1956A,86.1472,41.7538,巴音郭楞蒙古自治州,孔雀公园,颗粒物(PM10),56,62,53,8,13,124,,101,101,13,20,5,5,0.3,0.3
2024-06-25T1200,1957A,86.1972,41.7166,巴音郭楞蒙古自治州,棉纺厂,颗粒物(PM10),64,78,44,19,13,121,,96,91,10,21,5,6,0.3,0.3
2024-06-25T1200,1958A,86.2357,41.7173,巴音郭楞蒙古自治州,经济开发区,颗粒物(PM10),56,62,46,15,15,128,,116,110,5,7,3,3,0.3,0.2
2024-06-25T1200,2914A,106.7677,31.8794,巴中市,苏山坪,,31,28,32,16,20,98,,72,66,8,8,4,4,0.4,0.4
2024-06-25T1200,3182A,106.7656,31.8545,巴中市,丽阳花园,,46,46,35,25,22,110,,57,57,10,12,6,6,0.5,0.5
2024-06-25T1200,3183A,106.7418,31.8654,巴中市,圣泉水务公司,,34,25,33,17,22,107,,57,57,8,13,4,4,0.5,0.6
2024-06-25T1200,3616A,106.7616,31.8344,巴中市,市中心医院,,34,31,33,17,20,107,,57,57,6,10,5,5,0.5,0.5
2024-06-25T1200,2235A,122.7911,45.6077,白城市,洮北区环保局,,25,12,14,10,8,78,,55,54,7,8,5,5,0.2,0.2
2024-06-25T1200,2236A,122.8738,45.5725,白城市,市环保局,,27,9,9,8,7,86,,66,64,5,8,5,4,0.2,0.2
2024-06-25T1200,2231A,126.4219,41.9171,白山市,喜丰,,23,18,17,3,5,71,,51,51,8,8,10,9,0.8,0.9
2024-06-25T1200,2232A,126.4077,41.9419,白山市,环保局,,,15,20,3,4,71,,54,54,,4,9,9,0.5,0.6
2024-06-25T1200,2647A,104.1724,36.5446,白银市,第三小学,颗粒物(PM10),67,83,78,28,27,150,,104,104,16,18,48,33,0.6,0.5
2024-06-25T1200,2648A,104.1465,36.5482,白银市,动力公司,颗粒物(PM10),65,80,66,24,23,158,,111,111,10,14,41,27,0.4,0.3
2024-06-25T1200,2512A,106.6103,23.9011,百色市,市监测站,,15,7,12,3,6,48,,38,38,7,6,4,4,0.7,0.6
2024-06-25T1200,2513A,106.6538,23.8859,百色市,市中心血站,,17,12,14,8,8,52,,37,37,7,9,1,2,0.7,0.6
2024-06-25T1200,3406A,106.6085,23.8798,百色市,祈福高中,,16,12,13,6,5,51,,42,42,4,6,6,6,0.7,0.7
2024-06-25T1200,2270A,117.396,32.939,蚌埠市,工人疗养院,颗粒物(PM10),74,98,114,35,36,133,,103,103,7,9,8,8,0.6,0.5
2024-06-25T1200,2271A,117.3605,32.9427,蚌埠市,百货大楼,颗粒物(PM10),74,97,116,47,44,139,,104,104,7,12,6,6,0.5,0.5
2024-06-25T1200,2273A,117.4185,32.8911,蚌埠市,蚌埠学院,颗粒物(PM10),58,66,108,33,36,133,,102,102,3,13,6,7,0.6,0.6
2024-06-25T1200,2274A,117.3533,32.9673,蚌埠市,淮上区政府,颗粒物(PM10),65,80,102,41,43,137,,104,104,2,8,6,7,0.5,0.5
2024-06-25T1200,2275A,117.3145,32.8977,蚌埠市,高新区,颗粒物(PM10),60,70,108,37,41,138,,112,107,7,11,7,7,0.6,0.5
2024-06-25T1200,3715A,117.3092,32.9314,蚌埠市,蚌埠田家炳中学,颗粒物(PM10),78,106,118,40,41,139,,109,109,8,9,8,8,0.4,0.4
2024-06-25T1200,1585A,109.8756,40.6532,包头市,市环境监测站,,40,31,50,16,20,125,,74,74,8,30,10,13,0.4,0.5
2024-06-25T1200,1587A,109.9991,40.5842,包头市,包头八中,,41,41,52,10,21,122,,65,65,10,29,11,17,0.3,0.5
2024-06-25T1200,1588A,109.8538,40.6821,包头市,青山宾馆,,40,22,40,3,20,127,,70,70,7,27,10,12,0.4,0.6
2024-06-25T1200,1589A,109.8642,40.6288,包头市,惠龙物流,,41,37,46,21,16,129,,78,78,7,24,12,17,0.4,0.5
2024-06-25T1200,1590A,110.0377,40.5546,包头市,东河鸿龙湾,,38,17,44,9,12,120,,61,61,11,30,13,12,0.4,0.5
2024-06-25T1200,3283A,109.9154,40.5685,包头市,滨河大厦,,39,29,44,27,18,123,,58,58,12,38,12,13,0.5,0.6
2024-06-25T1200,3419A,109.9447,40.6261,包头市,包头市委党校,,44,44,50,7,19,126,,72,72,9,30,13,23,0.4,0.7
2024-06-25T1200,3683A,109.8331,40.6576,包头市,昆区政府,,,,49,6,20,124,,75,75,9,29,10,13,0.5,0.6
2024-06-25T1200,1930A,107.185,34.3063,宝鸡市,庙沟村,颗粒物(PM10),75,100,44,40,18,157,,102,102,10,10,12,10,0.4,0.3
2024-06-25T1200,1931A,107.0708,34.3017,宝鸡市,竹园沟,臭氧1小时,84,92,39,43,21,187,,104,104,17,15,12,9,0.8,0.6
2024-06-25T1200,1932A,107.1906,34.3672,宝鸡市,三陆医院,颗粒物(PM10),93,136,62,54,28,182,,97,97,16,27,10,11,0.5,0.5
2024-06-25T1200,1933A,107.1431,34.3547,宝鸡市,监测站,颗粒物(PM10),90,130,48,38,22,179,,103,103,18,19,12,10,0.5,0.4
2024-06-25T1200,1934A,107.1186,34.3739,宝鸡市,技工学校,,,,49,36,21,174,,103,103,17,16,10,8,0.4,0.5
2024-06-25T1200,1935A,107.3906,34.3528,宝鸡市,陈仓区环保局家属楼,颗粒物(PM10),95,139,57,41,22,180,,100,100,15,23,10,12,0.5,0.5
2024-06-25T1200,1936A,107.2058,34.3497,宝鸡市,文理学院,颗粒物(PM10),83,116,56,31,17,179,,102,102,16,21,11,10,0.5,0.4
2024-06-25T1200,1937A,107.2386,34.3622,宝鸡市,三迪小学,颗粒物(PM10),91,131,59,52,26,179,,98,98,13,24,11,10,0.5,0.4
2024-06-25T1200,1051A,115.493,38.8632,保定市,游泳馆,臭氧1小时,55,48,57,13,14,164,,102,102,2,14,4,4,0.0,0.1
2024-06-25T1200,1052A,115.5213,38.8959,保定市,华电二区,,,22,34,3,12,154,,104,104,,10,3,3,,0.1
2024-06-25T1200,1053A,115.4713,38.9108,保定市,接待中心,,50,19,42,7,14,158,,107,107,2,12,2,2,0.3,0.3
2024-06-25T1200,1054A,115.4612,38.8416,保定市,地表水厂,臭氧1小时,54,42,61,18,23,163,,92,92,2,20,1,2,0.2,0.3
2024-06-25T1200,3581A,115.31981,38.95208,保定市,满城区生态环境分局,,50,34,56,19,15,158,,101,101,2,11,1,2,0.1,0.2
2024-06-25T1200,3582A,115.47694,38.76408,保定市,清苑区第二中学,,,,58,,16,161,,98,98,,24,,4,0.3,0.3
2024-06-25T1200,3583A,115.62909,39.02311,保定市,徐水物探局,臭氧1小时,65,43,41,3,7,172,,109,109,3,18,3,3,0.2,0.2
2024-06-25T1200,4004A,115.4202,38.8656,保定市,双鹰农机,臭氧1小时,62,37,45,10,20,169,,100,100,2,16,3,3,0.2,0.2
2024-06-25T1200,4034A,115.5150,38.8590,保定市,植保所站,臭氧1小时,74,45,44,25,23,179,,115,115,1,12,2,3,0.3,0.2
2024-06-25T1200,2594A,99.1678,25.1081,保山市,市环境监测站,,,,21,,15,65,,47,47,6,9,3,5,,0.6
2024-06-25T1200,2595A,99.1711,25.1328,保山市,市环保局,,22,16,25,6,8,69,,50,50,4,6,3,3,0.4,0.4
2024-06-25T1200,1866A,109.2262,21.588,北海市,牛尾岭水库,,,,,,,,,,,,,,,,
2024-06-25T1200,1867A,109.1436,21.4086,北海市,海滩公园,,22,14,20,3,2,70,,51,51,4,4,3,3,0.6,0.5
2024-06-25T1200,1868A,109.0981,21.4661,北海市,新市环保局,,,,10,5,3,64,,51,51,4,4,4,4,0.5,0.7
2024-06-25T1200,1869A,109.1778,21.5233,北海市,北海工业园,,22,11,17,7,10,68,,38,38,5,8,5,5,0.5,0.6
2024-06-25T1200,3400A,109.1911,21.4415,北海市,龙潭自来水厂,,23,15,11,10,6,73,,51,51,4,3,5,5,0.5,0.5
2024-06-25T1200,1001A,116.3621,39.8784,北京市,万寿西宫,,48,23,23,8,8,151,,81,81,11,23,3,3,0.3,0.2
2024-06-25T1200,1002A,116.2202,40.2915,北京市,定陵,,37,11,11,3,6,116,,72,72,13,11,3,3,0.2,0.2
2024-06-25T1200,1003A,116.4174,39.9289,北京市,东四,,45,21,24,8,9,141,,81,81,13,21,4,3,0.4,0.4
2024-06-25T1200,1004A,116.4072,39.8863,北京市,天坛,,43,24,21,10,8,137,,71,71,12,20,1,3,0.2,0.2
2024-06-25T1200,1005A,116.462,39.9365,北京市,农展馆,,42,25,24,9,7,134,,74,74,13,20,3,5,0.3,0.2
2024-06-25T1200,1006A,116.3392,39.9295,北京市,官园,,45,25,26,3,8,141,,81,81,15,24,5,4,0.2,0.2
2024-06-25T1200,1007A,116.2878,39.9611,北京市,海淀万柳,,43,19,23,7,7,136,,65,65,9,28,5,4,0.1,0.2
2024-06-25T1200,1008A,116.6636,40.135,北京市,顺义新城,,40,18,20,3,7,128,,74,74,6,22,3,2,0.2,0.2
2024-06-25T1200,1009A,116.6275,40.3275,北京市,怀柔镇,,37,15,13,3,5,118,,80,80,6,8,2,2,0.2,0.2
2024-06-25T1200,1010A,116.2296,40.217,北京市,昌平镇,,36,19,17,6,6,114,,68,68,8,13,2,1,0.2,0.2
2024-06-25T1200,1011A,116.3966,39.9821,北京市,奥体中心,,32,16,20,7,7,102,,57,57,11,26,1,2,0.2,0.2
2024-06-25T1200,1012A,116.184,39.9136,北京市,古城,,43,16,23,6,8,135,,73,73,12,25,2,1,0.2,0.1
2024-06-25T1200,3281A,115.9718,40.4529,北京市,延庆夏都,,31,18,22,7,8,99,,46,46,11,21,1,3,0.2,0.2
2024-06-25T1200,3417A,117.0709,40.1465,北京市,平谷新城,,45,45,29,14,8,143,,72,72,14,16,3,3,0.5,0.2
2024-06-25T1200,3418A,116.8336,40.4095,北京市,密云新城,,36,10,15,3,4,113,,85,85,5,4,1,2,0.2,0.2
2024-06-25T1200,3671A,116.088,39.9726,北京市,门头沟三家店,,,,,,,,,,,,,,,,
2024-06-25T1200,3672A,116.1541,39.8204,北京市,丰台云岗,,44,24,28,9,7,138,,76,76,11,21,1,3,0.3,0.2
2024-06-25T1200,3673A,116.6804,39.9081,北京市,通州东关,,50,42,24,19,8,158,,,,13,15,4,4,0.7,0.4
2024-06-25T1200,3674A,115.9577,39.7603,北京市,房山燕山,,38,29,17,3,5,121,,78,78,11,10,3,3,0.2,0.2
2024-06-25T1200,3675A,116.4672,39.7733,北京市,大兴旧宫,,48,34,29,12,10,153,,67,67,11,24,3,2,0.6,0.3
2024-06-25T1200,3694A,115.986,40.4563,北京市,延庆石河营,,30,21,22,7,8,95,,43,43,10,22,1,2,0.2,0.2
2024-06-25T1200,3695A,116.6151,40.3053,北京市,怀柔新城,,35,13,15,3,5,110,,75,75,6,7,1,2,0.2,0.2
2024-06-25T1200,3696A,116.2545,39.8768,北京市,丰台小屯,,40,24,25,8,8,127,,62,62,9,23,1,2,0.3,0.2
2024-06-25T1200,3697A,116.84,40.3844,北京市,密云镇,,36,8,14,6,5,115,,76,76,3,15,2,2,0.1,0.2
2024-06-25T1200,1761A,123.8275,41.3064,本溪市,大峪,,29,19,15,9,5,91,,50,50,18,16,13,10,0.5,0.4
2024-06-25T1200,1762A,123.7567,41.3325,本溪市,溪湖,,,28,23,9,6,95,,45,45,,21,14,11,0.6,0.6
2024-06-25T1200,1763A,123.7169,41.3094,本溪市,彩屯,,34,21,25,7,11,107,,53,53,19,25,12,11,0.6,0.7
2024-06-25T1200,1764A,123.7669,41.2864,本溪市,东明,,33,33,29,9,11,102,,51,51,22,28,14,11,0.9,0.8
2024-06-25T1200,1765A,123.7992,41.2664,本溪市,新立屯,,31,18,14,6,6,97,,56,56,23,28,14,7,1.2,0.8
2024-06-25T1200,1766A,123.8142,41.3472,本溪市,威宁,,,24,30,6,8,95,,43,43,,21,9,8,0.5,0.6
2024-06-25T1200,2587A,105.2864,27.3125,毕节市,八中,,34,34,19,20,12,47,,42,42,20,10,8,6,0.5,0.4
2024-06-25T1200,2588A,105.31,27.2944,毕节市,师专,,,32,20,16,12,46,,40,38,,11,5,4,0.5,0.4
2024-06-25T1200,3537A,105.3631,27.3533,毕节市,长征村,,35,35,20,24,13,60,,47,46,14,9,7,6,0.5,0.5
2024-06-25T1200,1629A,118.0018,37.3617,滨州市,第二水厂,臭氧1小时,68,44,48,12,15,174,,95,95,4,18,4,6,0.2,0.3
2024-06-25T1200,1630A,117.9776,37.393,滨州市,北中新校,臭氧1小时,85,66,50,24,15,188,,103,103,6,17,7,7,0.4,0.3
2024-06-25T1200,3514A,117.9378,37.3956,滨州市,中海酒店,臭氧1小时,101,51,43,24,18,201,,113,113,10,16,12,10,0.4,0.3
2024-06-25T1200,3515A,117.9378,37.3553,滨州市,开发区一中,臭氧1小时,75,66,53,24,14,180,,98,98,8,17,8,9,0.5,0.6
2024-06-25T1200,3516A,118.0917,37.694,滨州市,金海六路,臭氧1小时,57,29,42,7,10,165,,94,94,4,22,5,9,0.4,0.5
2024-06-25T1200,4028A,117.9956,37.3753,滨州市,滨州市西街道办事处,臭氧1小时,80,51,45,19,18,184,,109,109,8,17,4,7,0.5,0.6
2024-06-25T1200,2311A,115.8072,33.8399,亳州市,污水处理厂,颗粒物(PM10),93,136,139,47,46,186,,116,116,6,15,5,6,0.5,0.5
2024-06-25T1200,2312A,115.7789,33.8518,亳州市,三国揽胜宫,颗粒物(PM10),94,137,135,44,44,177,,112,112,9,14,5,5,0.6,0.6
2024-06-25T1200,3332A,115.7633,33.8034,亳州市,亳州学院,颗粒物(PM10),92,134,152,36,36,189,,125,125,7,12,6,6,0.4,0.4
2024-06-25T1200,2693A,82.0485,44.8556,博尔塔拉蒙古自治州,市党校,,27,24,25,8,12,86,,97,91,15,10,10,10,0.5,0.4
2024-06-25T1200,2694A,82.0806,44.8969,博尔塔拉蒙古自治州,市环保局,颗粒物(PM10),51,51,73,17,14,79,,101,85,22,15,9,9,0.5,0.6
2024-06-25T1200,1071A,116.8842,38.2991,沧州市,沧县城建局,,,,47,,16,173,,107,107,,22,3,5,0.3,0.4
2024-06-25T1200,1072A,116.8584,38.3254,沧州市,电视转播站,臭氧1小时,67,44,46,12,14,173,,116,116,5,16,2,3,0.2,0.2
2024-06-25T1200,1073A,116.8709,38.3228,沧州市,市环保局,臭氧1小时,65,48,46,21,22,172,,115,115,13,23,1,3,0.2,0.3
2024-06-25T1200,3324A,116.8136,38.3004,沧州市,河北水利电力学院,臭氧1小时,79,39,43,9,22,183,,112,112,7,22,2,3,0.2,0.2
2024-06-25T1200,2622A,97.1806,31.1273,昌都市,昌都监测站,,28,9,8,3,6,88,,80,69,6,10,6,6,0.4,0.4
2024-06-25T1200,3719A,97.1714,31.1406,昌都市,昌都会议中心,,27,10,8,3,5,84,,80,68,10,5,6,6,0.3,0.3
2024-06-25T1200,2690A,88.1236,43.8886,昌吉回族自治州,天山天池,,35,20,19,3,4,109,,85,85,8,7,8,8,0.6,0.6
2024-06-25T1200,2692A,87.2717,44.0297,昌吉回族自治州,新区政务中心,,46,46,31,10,9,114,,78,78,7,16,12,10,0.3,0.3
2024-06-25T1200,3613A,87.3095,44.0142,昌吉回族自治州,亚心广场,颗粒物(PM10),57,63,49,19,13,112,,74,74,14,29,11,9,0.2,0.3
2024-06-25T1200,1119A,125.3325,43.9166,长春市,食品厂,,22,12,12,9,7,68,,43,43,17,21,6,6,0.3,0.3
2024-06-25T1200,1120A,125.2863,43.9027,长春市,客车厂,,21,15,9,6,6,66,,44,44,16,17,4,3,0.3,0.2
2024-06-25T1200,1121A,125.2841,43.8463,长春市,邮电学院,,21,6,8,3,5,67,,46,46,13,13,7,7,0.2,0.2
2024-06-25T1200,1122A,125.3716,43.8772,长春市,劳动公园,,24,6,8,3,3,76,,57,57,11,14,5,5,0.2,0.3
2024-06-25T1200,1123A,125.3297,43.8805,长春市,园林处,,,,8,10,7,69,,49,49,12,13,6,6,0.3,0.3
2024-06-25T1200,1124A,125.4605,43.79,长春市,净月潭,,,13,9,8,3,70,,37,37,7,9,4,4,,0.3
2024-06-25T1200,1125A,125.7194,43.515,长春市,甩湾子,,,,,,,,,,,,,,,,
2024-06-25T1200,1126A,125.3863,43.8447,长春市,经开区环卫处,,22,12,10,3,3,70,,52,52,13,14,4,4,0.2,0.2
2024-06-25T1200,1127A,125.245,43.7783,长春市,高新区管委会,,21,6,8,3,4,65,,52,52,7,12,5,6,0.2,0.2
2024-06-25T1200,1128A,125.1761,43.8325,长春市,岱山公园,,20,,8,7,4,63,,42,42,14,15,5,4,0.4,0.3
2024-06-25T1200,1335A,113.0833,28.2325,长沙市,经开区环保局,,,,14,2,3,87,,92,90,8,8,4,4,0.3,0.3
2024-06-25T1200,1336A,112.8872,28.2189,长沙市,高开区环保局,,28,14,15,7,7,89,,87,87,7,8,4,4,0.5,0.5
2024-06-25T1200,1337A,113.0792,28.2053,长沙市,马坡岭,,28,14,14,6,4,88,,84,84,6,6,6,6,0.5,0.4
2024-06-25T1200,1338A,112.9394,28.19,长沙市,湖南师范大学,,27,,14,12,8,86,,87,87,6,6,7,6,0.6,0.6
2024-06-25T1200,1339A,113.0178,28.1322,长沙市,雨花区环保局,,,15,14,,10,87,,82,80,7,5,,3,0.6,0.5
2024-06-25T1200,1340A,112.9792,28.2597,长沙市,伍家岭,,25,15,16,10,3,77,,80,80,6,6,4,4,0.4,0.4
2024-06-25T1200,1341A,113.0014,28.1944,长沙市,火车新站,,27,16,15,7,6,85,,82,82,5,7,2,2,0.5,0.3
2024-06-25T1200,1342A,112.9844,28.1178,长沙市,天心区环保局,,,,11,,9,82,,77,76,7,4,,3,,0.6
2024-06-25T1200,1343A,112.8908,28.1308,长沙市,湖南中医药大学,,29,7,13,3,5,92,,88,88,9,8,7,8,0.6,0.5
2024-06-25T1200,1344A,112.9581,28.3611,长沙市,沙坪,,31,,8,10,8,97,,87,87,4,4,5,5,0.4,0.4
2024-06-25T1200,1727A,113.1147,36.1547,长治市,清华站,臭氧1小时,85,99,116,29,34,188,,126,126,10,14,12,12,0.3,0.5
2024-06-25T1200,1728A,113.1031,36.1989,长治市,监测站,臭氧1小时,84,102,126,41,40,187,,111,111,15,24,6,7,0.4,0.8
2024-06-25T1200,1730A,113.0886,36.2125,长治市,审计局,臭氧1小时,75,95,108,31,35,180,,101,101,18,28,5,5,0.2,0.4
2024-06-25T1200,1731A,113.0844,36.1856,长治市,长治八中,颗粒物(PM10),89,128,147,33,38,183,,102,102,11,20,5,5,0.4,0.6
2024-06-25T1200,2845A,113.1569,36.1911,长治市,德盛苑,臭氧1小时,89,102,107,36,35,191,,138,138,8,11,9,9,0.5,0.6
2024-06-25T1200,3568A,113.06,36.0464,长治市,向阳小学,臭氧1小时,97,120,133,54,51,197,,143,143,12,14,5,5,0.4,0.5
2024-06-25T1200,3569A,112.8792,36.3144,长治市,屯留一中,臭氧1小时,83,110,102,43,42,186,,100,100,8,17,8,11,0.4,0.8
2024-06-25T1200,3570A,113.235,36.3489,长治市,潞城四中,臭氧1小时,100,118,115,43,41,200,,128,128,8,16,7,7,0.4,0.5
2024-06-25T1200,1854A,111.6975,28.9703,常德市,市二中,,27,27,17,18,8,69,,45,45,23,11,14,8,0.5,0.5
2024-06-25T1200,1857A,111.7158,29.1456,常德市,白鹤山,,,,,,,,,,,,,,,,
2024-06-25T1200,3138A,111.7153,29.0289,常德市,武陵区永安,,26,17,16,10,8,82,,52,52,10,8,11,8,0.3,0.3
2024-06-25T1200,3139A,111.6892,28.9881,常德市,鼎城区玉霞,,29,23,19,20,10,70,,44,44,21,9,11,5,0.4,0.4
2024-06-25T1200,3140A,111.6625,29.0531,常德市,武陵区长庚,,27,27,19,16,11,83,,55,42,15,12,11,9,0.5,0.5
2024-06-25T1200,1196A,119.9633,31.762,常州市,市监测站,,28,25,42,16,23,88,,96,79,23,18,5,7,1.0,1
2024-06-25T1200,1200A,119.9468,31.7069,常州市,武进监测站,,28,28,32,17,20,54,,100,70,27,10,3,5,0.9,0.9
2024-06-25T1200,1201A,119.9255,31.9087,常州市,安家,,26,25,59,18,33,83,,92,82,29,16,10,9,0.8,0.7
2024-06-25T1200,3002A,119.9805,31.8174,常州市,行政中心,,25,19,45,12,25,80,,90,77,23,16,7,9,0.9,0.8
2024-06-25T1200,3003A,120.0522,31.7748,常州市,经开区,,22,20,47,15,29,61,,81,66,28,23,4,5,0.6,0.5
2024-06-25T1200,3010A,119.9025,31.7964,常州市,钟楼,,34,34,43,22,25,53,,92,64,29,12,4,5,0.9,1.1
2024-06-25T1200,3429A,119.8598,31.7066,常州市,武进经发区,,26,26,34,16,17,64,,79,56,18,14,7,8,0.4,0.6
2024-06-25T1200,3430A,119.5826,31.7245,常州市,金坛城区,,30,16,36,8,27,94,,89,77,5,9,5,7,0.6,0.7
2024-06-25T1200,2220A,120.4318,41.5881,朝阳市,西梁,,28,17,27,13,9,89,,43,43,11,24,12,8,0,0.4
2024-06-25T1200,2221A,120.4521,41.5646,朝阳市,河畔小区,,30,7,20,3,7,96,,52,52,4,15,9,10,0.4,0.5
2024-06-25T1200,2222A,120.4176,41.5648,朝阳市,八里堡,,30,22,28,7,9,95,,45,45,13,22,14,9,0.8,0.7
2024-06-25T1200,2223A,120.3806,41.5969,朝阳市,农业园区,,,22,24,7,8,,,38,38,8,18,6,5,0.4,0.4
2024-06-25T1200,1705A,116.6367,23.6719,潮州市,西园路,,,,18,,9,37,,23,23,6,9,,3,0.2,0.4
2024-06-25T1200,3026A,116.6183,23.6608,潮州市,市政府,,22,18,20,6,6,68,,37,37,4,7,4,6,0.7,0.8
2024-06-25T1200,4036A,116.6461,23.6761,潮州市,金山,,,22,20,10,8,52,,25,25,,13,5,6,0.5,0.6
2024-06-25T1200,2472A,113.0073,25.9061,郴州市,马头岭,,15,11,21,3,8,46,,36,36,5,10,7,9,0.6,0.6
2024-06-25T1200,2473A,113.0116,25.8226,郴州市,市职中,,28,24,19,19,14,30,,26,25,14,9,10,10,0.7,0.5
2024-06-25T1200,2474A,113.0161,25.8001,郴州市,兴隆步行街,,22,22,25,13,9,27,,27,23,11,8,9,10,0.8,0.6
2024-06-25T1200,2475A,113.0383,25.8071,郴州市,市审计局,,26,,16,18,15,24,,24,20,14,9,5,6,0.5,0.4
2024-06-25T1200,2476A,113.0348,25.7759,郴州市,市环保局,,29,27,21,20,16,26,,25,20,15,12,8,8,0.9,0.6
2024-06-25T1200,1431A,103.9728,30.7236,成都市,金泉两河,,50,33,35,3,18,157,,60,60,14,19,2,3,0.4,0.4
2024-06-25T1200,1432A,104.176,30.6872,成都市,十里店,,48,24,26,3,10,153,,77,77,13,20,4,4,0.5,0.5
2024-06-25T1200,1433A,104.079,30.5706,成都市,三瓦窑,,33,30,30,3,19,103,,44,44,3,25,2,2,0.4,0.5
2024-06-25T1200,1434A,104.1114,30.63,成都市,沙河铺,,45,31,30,8,14,143,,73,73,13,16,3,3,0.3,0.3
2024-06-25T1200,1437A,104.0786,30.6531,成都市,君平街,,49,37,37,11,16,155,,79,79,16,20,2,2,0.4,0.5
2024-06-25T1200,1438A,103.613,31.0283,成都市,灵岩寺,,,,,,,,,,,,,,,,
2024-06-25T1200,2880A,104.0239,30.65639,成都市,大石西路,,48,37,36,13,16,153,,71,71,14,20,4,4,0.6,0.6
2024-06-25T1200,3136A,104.2725,30.5589,成都市,龙泉驿区区政府,,42,14,13,12,8,132,,99,99,6,8,4,3,0.4,0.4
2024-06-25T1200,3357A,104.0106,30.6931,成都市,金博路,,47,34,30,10,16,148,,56,56,16,18,2,2,0.5,0.5
2024-06-25T1200,3359A,104.0578,30.5225,成都市,华阳,,41,27,26,17,19,131,,79,79,8,10,2,2,0.4,0.4
2024-06-25T1200,3487A,104.2394,30.5319,成都市,车城东七路,,44,18,21,14,13,139,,98,98,3,8,2,2,0.4,0.3
2024-06-25T1200,3488A,104.3853,30.7453,成都市,青白江技师分院,,41,6,16,3,6,130,,87,87,3,16,4,5,0.4,0.4
2024-06-25T1200,3489A,104.0789,30.4072,成都市,科学城,,45,17,26,7,14,142,,78,78,5,14,3,3,0.5,0.5
2024-06-25T1200,4011A,103.8506,30.6947,成都市,光华大道三段,颗粒物(PM10),52,53,40,35,20,157,,68,68,15,13,6,6,0.5,0.5
2024-06-25T1200,1062A,117.9531,40.9081,承德市,铁路,,32,11,16,3,6,102,,58,58,3,14,5,5,0.1,0.2
2024-06-25T1200,1063A,117.9392,40.9763,承德市,中国银行,,,8,22,3,7,98,,52,52,3,16,5,5,,0.3
2024-06-25T1200,1064A,117.9503,40.928,承德市,开发区,,33,16,26,8,12,104,,58,58,7,15,4,5,0.2,0.2
2024-06-25T1200,1065A,117.8051,40.9655,承德市,文化中心,,32,10,40,3,6,100,,47,47,10,20,9,9,0.3,0.4
2024-06-25T1200,1066A,117.9268,41.0026,承德市,离宫,,32,16,17,6,11,100,,54,54,2,11,2,2,0.2,0.2
2024-06-25T1200,2314A,117.47,30.6618,池州市,池州学院,,30,20,15,12,9,96,,67,67,6,9,6,7,0.5,0.6
2024-06-25T1200,3237A,117.4918,30.6617,池州市,展览馆,,,11,11,10,5,92,,64,64,5,8,,5,0.5,0.6
2024-06-25T1200,3333A,117.5627,30.695,池州市,第八中学,,,,17,,10,97,,61,61,9,9,8,5,0.3,0.6
2024-06-25T1200,3334A,117.5038,30.6243,池州市,第十二中学,,31,25,19,13,10,99,,53,53,7,11,6,6,0.2,0.3
2024-06-25T1200,1744A,118.9233,42.2816,赤峰市,松山一中,,31,11,13,3,6,97,,54,54,13,19,11,10,0.5,0.5
2024-06-25T1200,1745A,118.9576,42.2728,赤峰市,哈达街,,30,,13,19,17,95,,51,51,13,12,11,12,0.5,0.5
2024-06-25T1200,1746A,118.8788,42.2554,赤峰市,天义路,,,,11,,5,106,,56,56,14,18,,8,0.2,0.2
2024-06-25T1200,3058A,119.2658,42.0353,赤峰市,银河街,,,,27,,17,115,,19,,12,22,17,16,,0.5
2024-06-25T1200,3286A,118.9359,42.3147,赤峰市,桥北物流园区,,30,19,18,18,8,95,,44,44,13,23,7,6,0.6,0.7
2024-06-25T1200,2521A,107.3476,22.4136,崇左市,市环保局江州分局,,18,18,18,10,10,45,,30,30,6,7,5,6,0.8,0.8
2024-06-25T1200,2522A,107.3702,22.3707,崇左市,城南新区,,22,22,14,7,8,43,,32,32,5,5,2,2,0.6,0.7
2024-06-25T1200,2298A,118.3093,32.3153,滁州市,老年大学,"颗粒物(PM10),细颗粒物(PM2.5)",53,55,52,37,30,129,,90,90,14,14,12,12,0.6,0.6
2024-06-25T1200,2299A,118.3244,32.2786,滁州市,人大宾馆,,,,48,54,39,136,,86,86,,18,7,6,,0.6
2024-06-25T1200,3207A,118.3118,32.3038,滁州市,市政府原办公楼,细颗粒物(PM2.5),54,52,51,38,32,123,,89,86,17,15,8,8,0.7,0.7
2024-06-25T1200,3331A,118.3267,32.2634,滁州市,图书馆,细颗粒物(PM2.5),69,57,49,50,38,131,,86,86,8,11,8,8,0.5,0.4
2024-06-25T1200,2605A,101.5482,25.0441,楚雄彝族自治州,州环境监测站,,23,14,10,3,7,72,,70,67,8,6,5,3,0.6,0.5
2024-06-25T1200,2606A,101.538,25.0492,楚雄彝族自治州,市经济开发区,,23,17,11,10,5,71,,71,69,7,7,5,5,0.4,0.5
2024-06-25T1200,2548A,107.5277,31.2827,达州市,达州职业技术学院,,34,34,44,15,16,99,,36,36,11,23,8,7,0.3,0.4
2024-06-25T1200,2549A,107.5086,31.2186,达州市,市环境监测站,,35,31,45,12,18,110,,44,44,16,26,6,8,0.5,0.7
2024-06-25T1200,2550A,107.4988,31.2132,达州市,凤凰小区,,39,29,41,17,21,122,,59,59,11,21,7,9,0.4,0.6
2024-06-25T1200,2551A,107.5082,31.1986,达州市,达县机关宾馆,,38,29,46,12,22,120,,53,53,16,30,5,6,0.2,0.4
2024-06-25T1200,2552A,107.4644,31.2124,达州市,市政中心,,37,32,43,19,21,116,,59,58,18,20,9,10,0.5,0.6
2024-06-25T1200,2614A,100.1542,25.7054,大理白族自治州,大理市环境监测站,,25,9,10,8,8,78,,75,75,8,7,5,5,0.6,0.6
2024-06-25T1200,2615A,100.2171,25.5811,大理白族自治州,大理古城,,24,,7,3,7,76,,75,74,6,7,5,5,0.6,0.6
2024-06-25T1200,1109A,121.612,38.9741,大连市,甘井子,,34,20,18,6,6,107,,92,92,12,18,5,4,0.4,0.5
2024-06-25T1200,1110A,121.565,38.9511,大连市,周水子,,36,23,16,10,5,113,,80,80,18,20,10,9,0.7,0.7
2024-06-25T1200,1111A,121.5637,38.8845,大连市,星海三站,,,22,17,7,6,109,,102,102,,9,7,6,0.4,0.4
2024-06-25T1200,1112A,121.6302,38.9117,大连市,青泥洼桥,,37,18,14,7,6,118,,94,94,10,15,10,9,0.5,0.5
2024-06-25T1200,1113A,121.6251,38.8638,大连市,傅家庄,,37,14,15,6,4,116,,101,99,9,11,8,8,0.4,0.4
2024-06-25T1200,1114A,121.5213,38.8661,大连市,七贤岭,,40,19,18,9,5,125,,104,104,8,9,7,5,0.5,0.5
2024-06-25T1200,1115A,121.2529,38.8061,大连市,旅顺,,,24,10,12,6,,,100,100,22,16,13,9,0.3,0.3
2024-06-25T1200,1116A,121.7485,39.1311,大连市,金州,,39,27,26,12,8,122,,88,88,16,13,10,9,0.6,0.5
2024-06-25T1200,1117A,121.7811,39.0496,大连市,开发区,,33,24,29,7,9,104,,88,88,18,22,8,9,0.4,0.5
2024-06-25T1200,1118A,121.9762,39.0631,大连市,双D港,,39,30,22,13,7,124,,105,103,15,14,9,9,0.7,0.6
2024-06-25T1200,1789A,124.81117,46.03138,大庆市,大同区,,29,,14,20,14,90,,63,63,7,7,4,5,0.3,0.2
2024-06-25T1200,1790A,125.129,46.533,大庆市,龙凤区,,34,10,20,8,13,106,,60,60,14,15,7,7,0.4,0.4
2024-06-25T1200,1791A,124.902,46.408,大庆市,红岗区,,35,,16,20,15,112,,68,68,10,10,6,5,0.3,0.3
2024-06-25T1200,1792A,125.153,46.586,大庆市,萨尔图区,,26,18,19,13,12,82,,56,56,11,13,6,7,0.2,0.2
2024-06-25T1200,1793A,124.9042,46.6215,大庆市,让胡路区,,33,22,27,3,12,105,,62,62,11,13,5,5,0.3,0.3
2024-06-25T1200,3481A,125.141,46.634,大庆市,萨区政府监测点,,29,29,26,3,5,85,,52,52,16,16,6,5,0.4,0.3
2024-06-25T1200,1721A,113.3819,40.1097,大同市,果树场,,,,,,,,,,,,,,,,
2024-06-25T1200,1723A,113.2994,40.0758,大同市,云冈宾馆,,38,11,40,3,13,120,,69,69,7,26,6,9,0.4,0.8
2024-06-25T1200,1724A,113.3444,40.0917,大同市,大同大学,,36,30,31,9,11,115,,63,63,9,21,10,13,0.2,0.4
2024-06-25T1200,1725A,113.2661,40.1269,大同市,安家小村,,36,14,44,3,10,115,,59,59,5,20,11,13,0.3,0.8
2024-06-25T1200,1726A,113.2711,40.0844,大同市,教育学院,,47,47,55,8,18,111,,60,60,15,33,10,13,0.4,1
2024-06-25T1200,3282A,113.3397,40.0597,大同市,大同市卫生学校,,37,34,38,8,13,118,,67,67,8,26,9,13,0.2,0.5
2024-06-25T1200,3565A,113.1367,40.1122,大同市,云冈站,,37,,39,19,18,116,,57,57,9,23,9,11,0.2,0.3
2024-06-25T1200,3566A,113.1186,40.2556,大同市,图书馆,,39,22,25,6,9,123,,63,63,10,13,10,8,0.4,0.4
2024-06-25T1200,3567A,113.5931,40.0461,大同市,区一中,,39,16,24,8,8,124,,75,75,12,12,13,10,0.4,0.4
2024-06-25T1200,3676A,113.2802,40.0995,大同市,第二人民医院,,37,19,40,3,24,118,,67,67,6,27,8,12,0.4,0.9
2024-06-25T1200,2269A,124.1069,50.4097,大兴安岭地区,科技局,,36,28,22,25,16,88,,54,54,4,4,9,9,0.4,0.3
2024-06-25T1200,3663A,124.1164,50.4278,大兴安岭地区,红旗社区,,30,24,14,18,15,93,,56,56,3,6,8,7,0.5,0.4
2024-06-25T1200,1600A,124.3303,40.0625,丹东市,江湾东路,,30,16,17,6,9,94,,59,59,8,15,6,7,0.3,0.4
2024-06-25T1200,1601A,124.4256,40.1503,丹东市,临江后街,,29,6,12,3,5,90,,61,61,7,13,8,9,0.4,0.4
2024-06-25T1200,1602A,124.3933,40.1461,丹东市,元宝山,,,,14,,6,81,,61,61,11,12,,8,0.7,0.7
2024-06-25T1200,1603A,124.3633,40.1092,丹东市,民主桥,,27,15,20,3,5,84,,58,58,8,18,5,6,0.3,0.4
2024-06-25T1200,3541A,109.5726,19.5167,儋州市,第一中学子站,,15,10,13,3,4,46,,32,32,2,3,4,4,0.6,0.7
2024-06-25T1200,3542A,109.5567,19.5187,儋州市,东坡学校子站,,15,13,13,3,4,47,,32,32,1,4,6,6,0.5,0.5
2024-06-25T1200,2616A,98.5842,24.428,德宏傣族景颇族自治州,德宏州监测站,,28,28,22,12,9,57,,22,22,8,11,8,10,0.8,0.8
2024-06-25T1200,3677A,98.5881,24.4368,德宏傣族景颇族自治州,芒市人民政府综合楼,,26,26,22,13,9,56,,20,20,12,9,6,5,0.9,0.8
2024-06-25T1200,1901A,104.4239,31.1208,德阳市,东山公园,,42,23,39,8,14,132,,96,96,6,14,2,3,0.4,0.5
2024-06-25T1200,1902A,104.3826,31.1317,德阳市,西小区,,44,27,42,10,23,139,,84,84,13,24,3,3,0.3,0.6
2024-06-25T1200,1904A,104.3553,31.1091,德阳市,耐火材料厂,,45,29,43,3,20,142,,73,73,5,23,3,5,0.3,0.6
2024-06-25T1200,3639A,104.4019,31.1244,德阳市,市教育局,,44,23,38,8,17,139,,89,89,8,19,3,3,0.4,0.5
2024-06-25T1200,1622A,116.3032,37.4674,德州市,儿童乐园,颗粒物(PM10),56,61,83,17,25,164,,121,121,6,16,9,10,0.4,0.5
2024-06-25T1200,1624A,116.2991,37.4451,德州市,监理站,颗粒物(PM10),51,51,80,19,26,158,,112,112,10,21,11,12,0.5,0.6
2024-06-25T1200,3066A,116.2721,37.4379,德州市,九衢泉纯净水厂,,,56,82,36,31,153,,92,92,10,25,7,7,,0.6
2024-06-25T1200,3371A,116.3728,37.4403,德州市,开发区人民医院,臭氧1小时,88,78,85,27,25,190,,120,120,9,20,11,12,0.4,0.5
2024-06-25T1200,3372A,116.3572,37.4094,德州市,太阳城中学,臭氧1小时,75,70,90,19,28,180,,115,115,10,25,8,10,0.6,0.5
2024-06-25T1200,3511A,116.5652,37.3319,德州市,陵城艺术中心,臭氧1小时,70,85,93,17,26,176,,116,116,8,19,5,6,0.4,0.4
2024-06-25T1200,2621A,99.7056,27.8317,迪庆藏族自治州,迪庆州站,,19,13,16,8,8,59,,59,59,11,10,9,9,0.3,0.3
2024-06-25T1200,3180A,99.7136,27.8094,迪庆藏族自治州,质量技术监督局,,19,14,15,8,9,60,,58,58,10,9,8,8,0.4,0.4
2024-06-25T1200,2663A,104.6241,35.5734,定西市,东关小学,,42,42,55,10,18,122,,76,76,5,16,4,5,0.2,0.2
2024-06-25T1200,2664A,104.6194,35.5934,定西市,供电公司,,40,32,43,15,20,127,,76,76,3,22,4,4,0.1,0.2
2024-06-25T1200,1389A,113.7547,23.0494,东莞市,莞城梨川,,17,14,18,8,7,53,,32,32,11,15,8,8,0.7,0.7
2024-06-25T1200,1390A,113.7944,23.0128,东莞市,东城石井,,17,13,17,8,6,52,,27,27,9,16,2,3,0.5,0.5
2024-06-25T1200,1391A,113.7383,22.9658,东莞市,南城西平,,16,16,21,10,7,46,,26,26,10,17,3,3,0.6,0.6
2024-06-25T1200,3319A,113.7338,23.0381,东莞市,万江金泰,,18,18,20,7,7,54,,31,31,8,13,5,5,0.6,0.6
2024-06-25T1200,3626A,113.7533,23.0202,东莞市,南城元岭,,20,20,23,10,8,44,,25,25,13,15,6,6,0.6,0.6
2024-06-25T1200,3627A,113.7875,23.0457,东莞市,东城主山,,17,17,20,8,8,48,,26,26,7,13,8,8,0.6,0.6
2024-06-25T1200,1666A,118.6614,37.4309,东营市,市环保局,臭氧1小时,82,31,41,12,14,185,,105,105,13,23,10,12,0,0
2024-06-25T1200,3036A,118.6904,37.4338,东营市,开发区管委会,臭氧1小时,79,51,47,14,14,183,,99,99,11,23,8,9,0.5,0.5
2024-06-25T1200,3365A,118.5719,37.565,东营市,垦利区民丰路,臭氧1小时,106,53,38,19,12,212,,126,126,16,22,14,14,0.4,0.5
2024-06-25T1200,3498A,118.5055,37.8612,东营市,河口城区,,48,36,34,12,12,152,,96,96,6,14,8,10,0.4,0.5
2024-06-25T1200,3646A,118.4978,37.4623,东营市,胜利站,臭氧1小时,80,56,45,12,11,184,,110,110,15,22,10,13,0.4,0.5
2024-06-25T1200,3734A,118.35,37.26,东营市,理想之城,臭氧1小时,83,39,44,17,15,186,,98,98,10,22,14,10,0.3,0.3
2024-06-25T1200,1591A,110.0023,39.8129,鄂尔多斯市,综合楼,,44,44,39,14,14,138,,100,100,13,28,11,9,0.5,0.5
2024-06-25T1200,1592A,109.9486,39.8261,鄂尔多斯市,巴音孟克林场办事处,,40,36,42,12,20,125,,72,72,12,29,8,9,0.4,0.5
2024-06-25T1200,1593A,109.7736,39.5986,鄂尔多斯市,康泽苑,,43,34,42,27,14,137,,81,81,9,17,9,8,0.4,0.4
2024-06-25T1200,1594A,109.8119,39.5989,鄂尔多斯市,华泰汽车城,,40,36,43,14,23,128,,58,58,8,30,10,9,0.4,0.5
2024-06-25T1200,1595A,109.9734,39.7884,鄂尔多斯市,奥林花园,,,31,39,,12,125,,78,78,12,26,9,6,0.4,0.4
2024-06-25T1200,2436A,114.8938,30.3994,鄂州市,市政府,,33,20,43,3,13,105,,80,80,8,16,3,4,0.3,0.6
2024-06-25T1200,2437A,114.8989,30.3714,鄂州市,赵家坝,,33,18,33,3,11,103,,88,88,10,15,7,8,0.3,0.5
2024-06-25T1200,3654A,114.8094,30.4089,鄂州市,精准医疗中心,,,,28,4,10,113,,90,90,9,13,7,7,0.4,0.4
2024-06-25T1200,2454A,109.4978,30.2981,恩施土家族苗族自治州,湖北民院,,33,26,29,11,16,104,,49,49,4,10,6,6,0.7,0.7
2024-06-25T1200,2455A,109.4707,30.2798,恩施土家族苗族自治州,州电力总公司,,35,26,27,10,13,109,,52,52,15,19,7,7,0.6,0.6
2024-06-25T1200,3549A,109.5061,30.3772,恩施土家族苗族自治州,龙凤新区,,,20,23,17,10,88,,39,39,16,12,6,6,,0.7
2024-06-25T1200,2499A,108.3411,21.6158,防城港市,沙万,,16,16,12,6,4,29,,40,34,17,19,8,7,0.5,0.5
2024-06-25T1200,2500A,108.3514,21.7731,防城港市,防城档案局,,16,16,18,6,7,28,,28,28,13,18,5,5,0.7,1
2024-06-25T1200,2501A,108.3506,21.6414,防城港市,大海花园,,18,18,13,3,4,40,,38,36,8,14,9,7,0.5,0.7
2024-06-25T1200,1371A,113.1294,23.0067,佛山市,湾梁,,,12,17,,9,24,,26,26,27,16,7,7,0.4,0.7
2024-06-25T1200,1372A,113.1083,23.0478,佛山市,华材职中,,13,9,12,3,6,39,,32,32,11,13,7,7,0.4,0.4
2024-06-25T1200,1373A,113.144,23.0453,佛山市,南海气象局,,13,12,19,9,6,34,,30,30,13,13,6,6,0.4,0.3
2024-06-25T1200,1374A,113.2881,22.8094,佛山市,顺德苏岗,,12,6,8,3,4,37,,30,30,16,10,5,5,0.5,0.4
2024-06-25T1200,1376A,112.8383,22.8678,佛山市,高明孔堂,,18,13,19,8,6,57,,43,43,6,9,6,6,0.5,0.6
2024-06-25T1200,1377A,112.8836,23.1588,佛山市,三水监测站,,20,,15,14,8,50,,28,28,18,24,4,4,0.7,0.7
2024-06-25T1200,1378A,112.867,23.185,佛山市,三水云东海,,17,14,18,8,10,52,,31,31,20,23,6,6,0.6,0.6
2024-06-25T1200,3625A,113.2544,22.7642,佛山市,容桂街道办,,17,17,12,3,7,46,,33,33,18,15,6,6,0.4,0.4
2024-06-25T1200,1280A,119.3903,26.0543,福州市,鼓山,,,,,,,,,,,,,,,,
2024-06-25T1200,1282A,119.2681,26.0504,福州市,师大,,21,11,28,6,9,67,,42,42,4,10,4,4,0.2,0.3
2024-06-25T1200,1283A,119.2984,26.1028,福州市,五四北路,,28,14,25,6,9,88,,50,50,4,8,3,4,0.3,0.3
2024-06-25T1200,1284A,119.2648,26.0768,福州市,杨桥西路,,24,17,28,7,10,76,,47,47,5,9,3,4,0.3,0.3
2024-06-25T1200,1285A,119.317,26.0746,福州市,紫阳,,25,17,26,7,10,80,,44,44,4,6,2,2,0.4,0.4
2024-06-25T1200,3048A,119.5799,26.0936,福州市,九龙,,29,29,22,7,7,82,,63,63,1,4,5,4,0.3,0.2
2024-06-25T1200,3526A,119.5189,25.9664,福州市,吴航,,30,26,26,13,10,93,,55,55,4,7,5,5,0.4,0.4
2024-06-25T1200,1755A,123.7977,41.8491,抚顺市,望花区,,30,22,19,10,10,96,,43,43,16,23,10,10,0.2,0.3
2024-06-25T1200,1756A,123.9161,41.8822,抚顺市,顺城区,,44,44,26,12,9,100,,47,47,18,26,14,9,0.6,0.3
2024-06-25T1200,1757A,124.0436,41.8611,抚顺市,东洲区,,41,41,30,15,14,109,,64,64,13,19,10,8,0.9,0.5
2024-06-25T1200,1758A,123.9247,41.8642,抚顺市,新抚区,,31,21,17,8,10,98,,49,49,13,20,9,7,0.8,0.4
2024-06-25T1200,1759A,124.0972,41.8961,抚顺市,大伙房水库,,38,36,19,17,9,119,,61,61,15,20,16,12,0.7,0.4
2024-06-25T1200,1760A,123.7086,41.8391,抚顺市,沈抚新城,,28,28,21,9,6,81,,45,45,19,20,14,7,0.4,0.3
2024-06-25T1200,2376A,116.2127,28.0814,抚州市,桐源党溪,,22,18,22,3,7,70,,82,80,6,3,5,5,0.5,0.3
2024-06-25T1200,2377A,116.3544,27.9831,抚州市,市站,,19,12,16,3,6,59,,70,66,7,4,4,4,0.7,0.6
2024-06-25T1200,2378A,116.3565,27.963,抚州市,血防站,,19,19,21,3,7,56,,66,62,10,5,2,3,0.7,0.4
2024-06-25T1200,2379A,116.3564,28.0007,抚州市,采茶剧团,,19,8,15,6,6,60,,70,67,5,4,4,3,0.6,0.5
2024-06-25T1200,2380A,116.385,27.9647,抚州市,医学分院,,20,9,18,3,7,62,,72,68,6,4,6,4,0.6,0.5
2024-06-25T1200,2207A,121.6094,41.998,阜新市,工业园区,,,38,21,9,8,113,,52,52,,28,15,12,0.4,0.9
2024-06-25T1200,2208A,121.6697,42.0279,阜新市,长青街,,37,33,23,7,7,117,,56,56,19,21,14,10,0.4,0.6
2024-06-25T1200,2209A,121.6673,42.0705,阜新市,农业园区,,46,46,22,17,8,111,,48,48,21,19,8,7,0.5,0.8
2024-06-25T1200,2210A,121.6717,42.0224,阜新市,东苑,,39,39,26,20,13,112,,,,21,26,16,15,0.7,0.7
2024-06-25T1200,2211A,121.6506,42.0498,阜新市,玉龙新城,,41,41,27,13,12,124,,47,47,17,23,10,6,0.4,0.9
2024-06-25T1200,2301A,115.8277,32.8929,阜阳市,市监测站,,,121,105,,43,168,,104,104,8,16,9,8,,0.5
2024-06-25T1200,2303A,115.8554,32.8605,阜阳市,开发区,颗粒物(PM10),94,138,114,33,36,167,,99,99,11,20,5,6,0.3,0.4
2024-06-25T1200,2875A,115.784,32.8892,阜阳市,阜阳职业技术学院,颗粒物(PM10),73,96,100,33,37,169,,109,109,9,14,7,7,0.4,0.4
2024-06-25T1200,3468A,115.7901,32.8613,阜阳市,市规划展馆,颗粒物(PM10),77,104,107,36,46,166,,105,105,10,16,4,4,0.3,0.4
2024-06-25T1200,3469A,115.836,32.9183,阜阳市,枣园社区,颗粒物(PM10),82,113,114,36,46,166,,98,98,12,20,2,2,0.5,0.5
2024-06-25T1200,2669A,102.9099,34.9841,甘南藏族自治州,州政府,,41,,26,10,19,129,,56,56,2,19,5,5,0.8,0.8
2024-06-25T1200,3380A,102.8914,34.9617,甘南藏族自治州,甘肃民族师范学院,,39,,29,8,13,124,,49,49,7,27,3,3,0.5,0.6
2024-06-25T1200,2570A,101.9603,30.0475,甘孜藏族自治州,水桥子,,21,9,16,3,7,67,,20,20,13,22,4,4,0.2,0.3
2024-06-25T1200,3065A,101.9533,29.9972,甘孜藏族自治州,州环保局,,23,17,17,3,5,71,,31,31,15,21,2,2,0.2,0.2
2024-06-25T1200,3414A,115.8347,28.932,赣江新区,桑海产业园,,28,6,7,3,4,89,,94,94,14,15,7,7,0.3,0.4
2024-06-25T1200,2362A,114.9017,25.9149,赣州市,通天岩,,,,,,,,,,,,,,,,
2024-06-25T1200,2363A,114.9367,25.8664,赣州市,地委,,31,31,18,9,7,78,,60,60,9,7,10,10,1.0,0.9
2024-06-25T1200,2364A,114.9461,25.8481,赣州市,气象台,,25,25,16,11,9,74,,56,56,10,10,7,5,0.6,0.6
2024-06-25T1200,2365A,114.9322,25.8333,赣州市,市图书馆,,34,34,19,11,8,80,,61,61,10,7,5,8,0.8,0.7
2024-06-25T1200,2366A,114.8905,25.8471,赣州市,华坚鞋城,,32,32,19,13,7,98,,61,61,8,7,16,11,0.5,0.5
2024-06-25T1200,3109A,115.0093,25.8613,赣州市,赣县区卫计委,,42,42,16,13,10,70,,50,50,11,10,7,7,0.7,0.6
2024-06-25T1200,2683A,106.2319,36.1417,固原市,马园,,45,28,37,10,10,141,,106,106,18,32,5,6,0.7,0.6
2024-06-25T1200,2684A,106.2792,36.0022,固原市,监测站,,45,36,37,16,12,142,,112,112,9,18,7,6,0.3,0.4
2024-06-25T1200,2685A,106.2375,36.0211,固原市,新区,,43,32,32,12,9,137,,113,113,7,12,6,6,0.3,0.3
2024-06-25T1200,3522A,106.2177,35.9959,固原市,原州区十五小,,,39,37,14,12,140,,119,119,8,11,,5,0.4,0.4
2024-06-25T1200,2543A,106.6308,30.5278,广安市,小平旧居,,,,,,,,,,,,,,,,
2024-06-25T1200,2544A,106.6303,30.4576,广安市,市委,,,20,32,15,19,118,,68,68,7,13,8,10,,0.4
2024-06-25T1200,2545A,106.6271,30.4663,广安市,友谊中学,,39,25,28,18,16,122,,75,75,8,15,7,8,0.5,0.5
2024-06-25T1200,2547A,106.6388,30.4551,广安市,广电花园,,36,27,31,20,18,114,,65,65,9,14,10,11,0.4,0.4
2024-06-25T1200,2902A,106.6351,30.4865,广安市,北辰小学,,38,36,31,18,18,120,,69,69,7,13,11,12,0.4,0.4
2024-06-25T1200,2523A,105.8945,32.4535,广元市,黑石坡,,37,10,22,3,11,116,,92,85,9,13,13,15,0.3,0.4
2024-06-25T1200,2524A,105.821,32.4444,广元市,老城,,41,9,30,8,16,130,,109,98,9,14,4,11,0.4,0.5
2024-06-25T1200,2526A,105.8628,32.4287,广元市,监测站,,41,11,28,9,15,130,,108,97,7,12,4,8,0.5,0.6
2024-06-25T1200,3617A,105.8047,32.4166,广元市,经开区,,40,27,35,14,18,125,,104,94,5,12,6,6,0.3,0.4
2024-06-25T1200,1345A,113.2347,23.1423,广州市,广雅中学,,14,14,18,9,9,41,,33,33,16,18,4,4,0.8,0.8
2024-06-25T1200,1346A,113.2612,23.105,广州市,市五中,,16,15,19,10,10,50,,39,39,8,14,4,4,0.5,0.6
2024-06-25T1200,1348A,113.3478,23.0916,广州市,广东商学院,,15,9,17,9,12,46,,30,30,11,20,2,3,0.4,0.5
2024-06-25T1200,1349A,113.4332,23.1047,广州市,市八十六中,,15,11,18,3,6,48,,26,26,14,28,4,4,0.6,0.6
2024-06-25T1200,1350A,113.3505,22.9483,广州市,番禺中学,,19,19,17,7,7,48,,33,33,11,16,6,6,0.5,0.5
2024-06-25T1200,1351A,113.2146,23.3916,广州市,花都师范,,16,14,19,7,8,50,,30,30,10,19,5,6,0.5,0.6
2024-06-25T1200,1352A,113.2597,23.1331,广州市,市监测站,,14,12,19,3,8,44,,32,32,11,15,4,4,0.8,0.5
2024-06-25T1200,1353A,113.5618,23.312,广州市,九龙镇镇龙,,24,24,26,11,11,67,,30,30,14,21,6,7,0.4,0.5
2024-06-25T1200,1354A,113.2765,23.1544,广州市,麓湖,,16,16,17,8,8,42,,34,34,11,14,3,3,0.5,0.5
2024-06-25T1200,1355A,113.443,23.3035,广州市,帽峰山森林公园,,11,10,12,3,6,35,,21,21,7,19,4,4,0.5,0.6
2024-06-25T1200,2846A,113.3221,23.1322,广州市,体育西,,15,15,19,9,9,45,,30,30,6,11,3,3,0.4,0.4
2024-06-25T1200,3298A,113.5717,23.5491,广州市,从化街口,,25,8,13,3,7,77,,40,40,10,11,7,7,0.5,0.5
2024-06-25T1200,3299A,113.3472,23.3692,广州市,白云竹料,,19,19,22,3,9,57,,28,28,13,24,4,4,0.6,0.6
2024-06-25T1200,3300A,113.2981,23.237,广州市,白云嘉禾,,18,18,18,7,8,49,,28,28,15,27,5,5,0.5,0.6
2024-06-25T1200,3301A,113.4256,23.1716,广州市,黄埔科学城,,21,21,20,10,8,46,,24,24,9,26,5,7,0.6,0.6
2024-06-25T1200,3302A,113.3942,23.0483,广州市,番禺大学城,,19,19,18,3,7,38,,24,24,11,16,4,4,0.7,0.7
2024-06-25T1200,3303A,113.4922,22.8168,广州市,南沙黄阁,,15,15,18,6,7,46,,35,35,7,12,5,5,0.5,0.5
2024-06-25T1200,3304A,113.5342,22.7896,广州市,南沙街,,,,18,,6,42,,29,29,6,14,6,7,,0.5
2024-06-25T1200,3443A,113.2902,23.5544,广州市,花都梯面,,19,11,20,6,9,60,,27,27,7,20,4,4,0.5,0.6
2024-06-25T1200,3445A,113.7858,23.7478,广州市,从化良口,,18,9,13,7,7,55,,28,28,4,10,4,5,0.5,0.5
2024-06-25T1200,3446A,113.8051,23.2614,广州市,增城荔城,,22,15,21,9,9,69,,33,33,8,15,5,5,0.4,0.4
2024-06-25T1200,2505A,109.568,23.1478,贵港市,德智高中,,,,,,,,,,,,,,,,
2024-06-25T1200,2506A,109.6047,23.0666,贵港市,江南子站,,18,17,17,9,10,57,,31,31,5,10,9,8,0.5,0.6
2024-06-25T1200,2507A,109.6014,23.0948,贵港市,贵城子站,,26,26,20,12,12,56,,30,30,9,12,9,8,0.6,0.7
2024-06-25T1200,2508A,109.5669,23.1065,贵港市,荷城子站,,24,24,15,7,2,59,,34,34,6,8,13,11,0.5,0.5
2024-06-25T1200,3405A,109.5886,23.1172,贵港市,新世纪学校,,,17,14,13,9,54,,31,31,6,8,13,13,,0.7
2024-06-25T1200,1439A,106.6899,26.5998,贵阳市,马鞍山,,20,12,20,9,9,63,,49,47,7,7,4,4,0.4,0.4
2024-06-25T1200,1440A,106.6971,26.5694,贵阳市,市环保站,,,17,20,13,17,72,,76,64,13,13,4,4,,0.2
2024-06-25T1200,1441A,106.6243,26.6266,贵阳市,鉴湖路,,25,19,23,7,12,79,,62,60,5,6,3,3,0.4,0.4
2024-06-25T1200,1442A,106.7487,26.6343,贵阳市,燕子冲,,23,12,14,9,10,72,,65,58,8,7,5,5,0.5,0.5
2024-06-25T1200,1443A,106.6555,26.4365,贵阳市,碧云窝,,27,24,23,7,5,84,,74,71,9,10,5,4,0.4,0.4
2024-06-25T1200,1444A,106.694,26.5161,贵阳市,中院村,,26,24,22,7,8,82,,78,72,8,12,4,4,0.4,0.5
2024-06-25T1200,1445A,106.7109,26.6027,贵阳市,红边门,,23,14,22,12,16,71,,79,64,11,12,3,5,0.4,0.5
2024-06-25T1200,1446A,106.7164,26.5699,贵阳市,新华路,,25,17,14,14,12,79,,78,70,7,10,6,5,0.3,0.4
2024-06-25T1200,1447A,106.674,26.5424,贵阳市,太慈桥,,,12,17,9,12,68,,76,66,,9,,5,0.3,0.3
2024-06-25T1200,1552A,106.805,26.3003,贵阳市,桐木岭,,,,,,,,,,,,,,,,
2024-06-25T1200,1862A,110.4144,25.3167,桂林市,电子科大尧山校区,,15,,8,3,6,46,,47,46,4,4,4,6,0.3,0.3
2024-06-25T1200,1863A,110.2819,25.2697,桂林市,监测站,,20,,13,14,8,45,,52,51,13,12,8,11,0.4,0.3
2024-06-25T1200,1864A,110.3089,25.2708,桂林市,龙隐路小学,,15,,12,10,10,47,,55,54,9,8,8,6,0.4,0.4
2024-06-25T1200,1865A,110.2869,25.2178,桂林市,八中,,15,,11,3,5,48,,52,52,12,12,6,9,0.5,0.5
2024-06-25T1200,3403A,110.1764,25.2381,桂林市,创业大厦,,15,,10,3,8,45,,50,50,11,10,6,10,0.5,0.5
2024-06-25T1200,3531A,110.296,25.1253,桂林市,旅游学院,,15,6,5,3,4,48,,48,48,8,7,5,5,0.4,0.3
2024-06-25T1200,2674A,100.2561,34.4714,果洛藏族自治州,玛沁县大武镇,,38,20,17,7,11,120,,80,80,14,12,10,7,0.4,0.4
2024-06-25T1200,1129A,126.5422,45.755,哈尔滨市,岭北,,28,11,10,3,7,89,,63,63,8,15,8,11,0.9,0.6
2024-06-25T1200,1130A,126.561,45.8167,哈尔滨市,松北商大,,25,8,10,3,4,78,,51,51,10,15,6,5,0.5,0.5
2024-06-25T1200,1131A,126.979,45.5419,哈尔滨市,阿城会宁,,27,6,14,6,7,86,,43,43,8,14,1,4,0.5,0.4
2024-06-25T1200,1132A,126.599,45.7222,哈尔滨市,南岗学府路,,,17,20,,6,92,,66,66,6,16,10,8,0.3,0.5
2024-06-25T1200,1133A,126.689,45.7733,哈尔滨市,太平宏伟公园,,29,16,15,8,5,91,,54,54,13,23,7,6,0.3,0.4
2024-06-25T1200,1134A,126.635,45.7667,哈尔滨市,道外承德广场,,27,15,16,3,12,85,,52,52,19,30,5,4,0,0.5
2024-06-25T1200,1135A,126.685,45.7319,哈尔滨市,香坊红旗大街,,29,29,18,8,12,84,,52,52,13,26,9,8,0.4,0.5
2024-06-25T1200,1136A,126.6411,45.7258,哈尔滨市,动力和平路,,,,13,20,8,87,,56,56,,22,6,7,0.3,0.4
2024-06-25T1200,1137A,126.593,45.7478,哈尔滨市,道里建国路,,27,24,19,3,5,84,,53,53,10,28,8,7,0.5,0.5
2024-06-25T1200,1138A,126.615,45.61,哈尔滨市,平房东轻厂,,27,20,15,7,6,85,,58,58,10,26,8,9,0.2,0.3
2024-06-25T1200,1139A,126.595,45.9855,哈尔滨市,呼兰师专,,28,13,14,9,5,87,,61,61,16,16,8,8,0.2,0.2
2024-06-25T1200,1140A,126.6206,45.6842,哈尔滨市,省农科院,,,23,12,10,8,86,,52,52,,28,5,7,,0.3
2024-06-25T1200,2688A,93.5128,42.8172,哈密市,地区监测站,颗粒物(PM10),54,58,46,29,20,103,,88,82,12,20,10,4,0.4,0.3
2024-06-25T1200,2689A,93.4961,42.8328,哈密市,哈密师范学校,颗粒物(PM10),51,51,60,27,18,114,,85,83,11,25,8,5,0.3,0.5
2024-06-25T1200,2671A,100.9048,36.9639,海北藏族自治州,海晏县西海镇,,,,24,,16,145,,91,91,8,10,18,13,,0.4
2024-06-25T1200,3867A,102.0738,36.5056,海东市,平安区公安北苑,,45,43,34,24,18,143,,86,86,14,11,16,11,0.5,0.5
2024-06-25T1200,1409A,110.576,19.9507,海口市,东寨港,,,,,,,,,,,,,,,,
2024-06-25T1200,1410A,110.3232,20.0574,海口市,海南大学,,18,12,14,6,6,55,,46,46,5,8,5,4,0.4,0.4
2024-06-25T1200,1411A,110.283,20.0053,海口市,秀英海南医院,,19,19,16,7,7,57,,36,36,5,14,6,6,0.2,0.2
2024-06-25T1200,1412A,110.338,19.9969,海口市,海南师范大学,,16,14,12,3,6,51,,38,38,2,7,6,6,0.3,0.4
2024-06-25T1200,1413A,110.33,20.0356,海口市,龙华路环保局宿舍,,18,18,12,7,6,52,,41,41,5,8,6,7,0.2,0.2
2024-06-25T1200,3539A,110.5111,19.9736,海口市,桂林洋子站,,17,14,16,7,8,52,,35,35,2,8,6,6,0.2,0.3
2024-06-25T1200,2673A,100.6188,36.2866,海南藏族自治州,共和县恰卜恰镇,,42,,28,24,15,134,,90,90,5,14,13,15,0.5,0.5
2024-06-25T1200,2676A,97.3731,37.3753,海西蒙古族藏族自治州,德令哈市,,42,14,17,6,8,134,,131,123,12,7,11,11,0.6,0.5
2024-06-25T1200,1048A,114.5302,36.6116,邯郸市,东污水处理厂,颗粒物(PM10),68,85,93,27,30,159,,80,80,5,34,6,7,0.4,0.5
2024-06-25T1200,1049A,114.4918,36.5713,邯郸市,矿院,细颗粒物(PM2.5),55,42,71,39,30,155,,75,75,8,31,9,7,0.6,0.7
2024-06-25T1200,1050A,114.484,36.6133,邯郸市,丛台公园,颗粒物(PM10),56,61,77,23,32,153,,82,82,3,20,8,12,0.3,0.6
2024-06-25T1200,3458A,114.7895,36.5593,邯郸市,香泉濮院小区,颗粒物(PM10),67,83,96,31,32,169,,98,98,3,23,4,4,0.4,0.4
2024-06-25T1200,3579A,114.50634,36.77178,邯郸市,永年区实验高中,,,,109,,40,162,,71,71,3,30,4,3,,0.8
2024-06-25T1200,3580A,114.20016,36.44293,邯郸市,峰峰矿区临水派出所,臭氧1小时,97,81,73,26,25,197,,136,136,8,9,7,8,0.4,0.4
2024-06-25T1200,2634A,106.9893,33.1842,汉中市,汉川机床厂子校,,43,17,30,13,16,135,,80,80,4,10,4,5,0.4,0.5
2024-06-25T1200,2635A,107.0154,33.0706,汉中市,市监测站,,43,29,31,10,19,135,,98,98,7,8,8,9,0.5,0.5
2024-06-25T1200,2636A,107.0089,33.1138,汉中市,鑫源开发区,,42,28,32,8,15,133,,88,88,4,10,9,10,0.4,0.5
2024-06-25T1200,2637A,107.007,33.0323,汉中市,南郑大河坎水厂,,44,23,31,10,16,140,,74,74,5,8,8,8,0.4,0.6
2024-06-25T1200,1223A,120.2072,30.2111,杭州市,滨江,,24,13,17,8,9,75,,84,83,20,13,3,3,0.7,0.6
2024-06-25T1200,1224A,120.0633,30.2747,杭州市,西溪,,24,,12,6,8,74,,70,68,17,12,6,5,0.5,0.5
2024-06-25T1200,1226A,120.3461,30.3153,杭州市,下沙,,20,16,20,3,10,64,,94,76,30,10,4,4,0.5,0.5
2024-06-25T1200,1227A,120.1269,30.2456,杭州市,卧龙桥,,24,12,15,3,7,76,,65,65,7,8,4,4,0.5,0.5
2024-06-25T1200,1228A,120.1903,30.2692,杭州市,浙江农大,,22,10,12,10,10,70,,81,71,24,17,6,6,0.5,0.4
2024-06-25T1200,1230A,120.1197,30.3119,杭州市,和睦小学,,26,11,14,7,8,83,,88,84,16,10,3,4,0.6,0.5
2024-06-25T1200,1231A,120.3019,30.4183,杭州市,临平镇,,28,15,18,10,11,88,,95,82,17,16,4,4,0.5,0.5
2024-06-25T1200,1232A,120.2697,30.1819,杭州市,城厢镇,,22,13,15,12,10,68,,86,76,27,16,4,4,0.6,0.6
2024-06-25T1200,1233A,120.0883,30.1808,杭州市,云栖,,20,6,16,3,6,63,,71,67,21,10,6,6,0.4,0.4
2024-06-25T1200,3557A,119.9464,30.0494,杭州市,镇二中,,25,21,18,14,16,78,,87,79,18,14,6,6,0.7,0.6
2024-06-25T1200,3558A,119.7183,30.2367,杭州市,市府大楼,,34,9,12,9,9,106,,94,91,13,10,6,6,0.5,0.5
2024-06-25T1200,3656A,120.1556,30.2864,杭州市,消防大队,,,,14,8,8,79,,90,84,16,10,5,6,,0.7
2024-06-25T1200,1270A,117.1959,31.7848,合肥市,明珠广场,,30,27,33,9,16,96,,60,60,15,20,7,8,0.3,0.3
2024-06-25T1200,1271A,117.3072,31.8764,合肥市,三里街,,22,22,30,9,12,69,,47,47,24,27,5,5,0.3,0.4
2024-06-25T1200,1272A,117.2588,31.8707,合肥市,琥珀山庄,,31,17,36,9,12,99,,62,62,10,18,4,5,0.4,0.5
2024-06-25T1200,1273A,117.1604,31.9052,合肥市,董铺水库,,34,34,35,12,16,93,,50,50,8,14,2,1,0.2,0.3
2024-06-25T1200,1274A,117.25,31.8571,合肥市,长江中路,,,24,41,10,18,98,,58,58,10,18,4,5,,0.6
2024-06-25T1200,1275A,117.266,31.9436,合肥市,庐阳区,,33,19,39,12,18,104,,55,55,13,23,8,8,0.4,0.4
2024-06-25T1200,1276A,117.336,31.8586,合肥市,瑶海区,,,22,34,12,13,76,,57,57,15,24,,8,0.3,0.3
2024-06-25T1200,1277A,117.3027,31.7964,合肥市,包河区,,26,19,26,9,11,83,,64,64,18,16,5,5,0.4,0.4
2024-06-25T1200,1278A,117.2776,31.7385,合肥市,滨湖新区,,27,27,25,7,11,86,,65,65,10,12,6,7,0.4,0.4
2024-06-25T1200,1279A,117.1318,31.8403,合肥市,高新区,,27,12,32,10,16,86,,56,56,13,17,7,7,0.5,0.5
2024-06-25T1200,3464A,117.3803,31.9147,合肥市,高教基地,,24,24,30,8,14,71,,59,59,9,15,5,6,0.3,0.4
2024-06-25T1200,3614A,79.924,37.0877,和田地区,地区环保局,,,,415,,104,126,,127,127,,2,7,7,0.4,0.4
2024-06-25T1200,3615A,79.9131,37.113,和田地区,市环保局,细颗粒物(PM2.5),84,,385,62,104,123,,122,122,5,4,6,6,0.6,0.6
2024-06-25T1200,2516A,108.2011,24.715,河池市,东仁乐园,,20,20,15,3,4,37,,29,29,1,3,3,3,0.7,0.7
2024-06-25T1200,2517A,108.0497,24.6947,河池市,市环保站,,,,12,,8,36,,38,34,,7,7,11,0.5,0.4
2024-06-25T1200,2518A,108.0983,24.6989,河池市,市疾控中心,,12,9,13,7,7,37,,33,31,6,9,7,7,0.5,0.4
2024-06-25T1200,1696A,114.6778,23.7569,河源市,源西,,19,19,17,6,15,53,,30,30,7,9,4,4,0.4,0.5
2024-06-25T1200,1697A,114.6944,23.7586,河源市,东埔,,,27,17,3,6,55,,31,31,9,10,6,6,,1
2024-06-25T1200,1698A,114.6892,23.7233,河源市,老城,,20,20,22,3,7,55,,26,26,2,7,5,5,0.4,0.4
2024-06-25T1200,1718A,115.4208,35.2464,菏泽市,气象局,颗粒物(PM10),95,139,139,29,31,192,,120,120,9,31,4,6,0.2,0.2
2024-06-25T1200,1719A,115.4747,35.2375,菏泽市,市政协,臭氧1小时,93,125,130,40,41,194,,127,127,10,18,5,5,0.2,0.2
2024-06-25T1200,3374A,115.5564,35.0891,菏泽市,定陶老年大学,臭氧1小时,85,117,123,34,34,188,,121,121,14,26,6,5,0.1,0.1
2024-06-25T1200,3647A,115.4702,35.2706,菏泽市,菏泽医专,,,101,129,,44,190,,112,112,9,27,2,5,0.3,0.3
2024-06-25T1200,2514A,111.5264,24.4172,贺州市,环保小区,,15,7,24,3,7,48,,32,32,5,7,7,8,0.6,0.6
2024-06-25T1200,2515A,111.5608,24.4078,贺州市,政协大楼,,16,12,20,10,8,49,,32,32,9,10,7,9,0.6,0.6
2024-06-25T1200,3534A,111.4744,24.4553,贺州市,西湾,,18,18,16,12,9,49,,32,32,9,13,8,8,0.5,0.5
2024-06-25T1200,2385A,114.17,35.9019,鹤壁市,市监测站,臭氧1小时,78,91,88,36,31,182,,120,120,8,18,11,7,0.6,0.5
2024-06-25T1200,2386A,114.2956,35.7511,鹤壁市,市交警支队,臭氧1小时,82,82,95,25,31,185,,96,96,5,24,10,7,0.3,0.4
2024-06-25T1200,2387A,114.2878,35.7306,鹤壁市,迎宾馆,臭氧1小时,84,90,88,36,38,187,,105,105,13,27,10,6,0.3,0.4
2024-06-25T1200,3474A,114.2617,35.6822,鹤壁市,大新区,颗粒物(PM10),83,115,105,34,32,181,,101,101,12,23,9,6,0.3,0.3
2024-06-25T1200,3596A,114.1572,35.9603,鹤壁市,南山宾馆,臭氧1小时,90,102,89,28,32,192,,141,141,7,9,11,9,0.9,0.8
2024-06-25T1200,2244A,130.2537,47.3416,鹤岗市,哈啤分公司,,20,15,22,3,12,63,,46,46,4,6,13,13,0.2,0.3
2024-06-25T1200,2245A,130.2684,47.3086,鹤岗市,斯达机电,,19,11,17,6,8,59,,40,40,8,10,12,12,0.2,0.2
2024-06-25T1200,2246A,130.3114,47.3388,鹤岗市,东山纸板厂,,20,,17,14,7,62,,41,41,4,8,14,15,0.2,0.3
2024-06-25T1200,2247A,130.1097,47.3382,鹤岗市,五号水库,,18,13,14,3,7,55,,44,44,4,5,9,14,0.0,0.5
2024-06-25T1200,2263A,127.4833,50.2524,黑河市,交通局,,,48,39,14,21,69,,53,53,,10,5,6,0.2,0.3
2024-06-25T1200,2264A,127.5144,50.2341,黑河市,环保局,,40,40,37,21,22,65,,54,54,12,10,10,6,0.2,0.3
2024-06-25T1200,2265A,127.5291,50.2472,黑河市,大黑河岛,,,46,39,31,27,,,,,14,11,14,6,,
2024-06-25T1200,1074A,115.6838,37.7541,衡水市,电机北厂,颗粒物(PM10),55,59,80,24,25,159,,130,130,6,12,4,5,0.4,0.4
2024-06-25T1200,1075A,115.6303,37.7316,衡水市,市监测站,颗粒物(PM10),54,57,65,14,23,156,,110,110,8,17,4,4,0.4,0.5
2024-06-25T1200,3188A,115.6683,37.7217,衡水市,市城管局,,47,42,70,14,26,149,,122,122,8,18,3,4,0.3,0.4
2024-06-25T1200,3459A,115.5989,37.5491,衡水市,地表水厂,臭氧1小时,72,49,84,20,29,177,,104,104,7,32,5,6,0.3,0.4
2024-06-25T1200,2456A,112.5003,26.9167,衡阳市,原169医院,,20,17,10,8,9,61,,81,79,10,6,4,5,0.6,0.6
2024-06-25T1200,2457A,112.6194,26.9258,衡阳市,衡阳化工总厂,,,8,15,,,78,,85,74,3,6,5,7,0.5,0.5
2024-06-25T1200,2458A,112.6211,26.8956,衡阳市,珠晖区环保局,,,8,11,,,75,,89,76,14,9,4,5,0.6,0.5
2024-06-25T1200,2459A,112.6197,26.8733,衡阳市,市委党校,,25,7,10,3,5,80,,90,79,7,7,5,5,0.5,0.5
2024-06-25T1200,2460A,112.6006,26.8919,衡阳市,市监测站,,25,11,10,8,6,78,,90,80,8,6,4,6,0.6,0.5
2024-06-25T1200,2461A,112.5664,26.9056,衡阳市,真空机电公司,,23,6,16,3,8,73,,81,76,6,6,6,7,0.6,0.7
2024-06-25T1200,3399A,112.6703,26.882,衡阳市,师范学院,,26,6,8,3,8,81,,91,80,7,6,7,8,0.6,0.6
2024-06-25T1200,2608A,103.3772,23.3993,红河哈尼族彝族自治州,污水处理厂,,35,35,24,22,20,76,,62,61,12,10,45,19,0.5,0.5
2024-06-25T1200,2609A,103.3861,23.35,红河哈尼族彝族自治州,监测站,,30,30,21,16,18,84,,82,77,9,8,27,25,0.6,0.5
2024-06-25T1200,3038A,103.3758,23.368,红河哈尼族彝族自治州,州图书馆,,,,20,,12,79,,74,72,10,8,32,20,0.5,0.5
2024-06-25T1200,1090A,111.6507,40.7517,呼和浩特市,呼市一监,,41,9,24,6,9,130,,79,79,5,16,6,5,0.2,0.3
2024-06-25T1200,1091A,111.6572,40.8033,呼和浩特市,小召,,40,14,19,6,6,127,,81,81,7,21,4,4,0.1,0.2
2024-06-25T1200,1094A,111.7516,40.8369,呼和浩特市,如意水处理厂,,39,11,22,3,8,123,,68,68,5,23,4,4,0.2,0.2
2024-06-25T1200,1095A,111.7276,40.8062,呼和浩特市,二十九中,,,8,22,3,10,125,,72,72,6,23,2,2,,0.3
2024-06-25T1200,1096A,111.5512,40.7866,呼和浩特市,工大金川校区,,41,16,25,3,9,130,,63,63,7,29,6,5,0.3,0.3
2024-06-25T1200,1097A,111.717,40.7612,呼和浩特市,化肥厂生活区,,40,26,30,3,10,125,,82,82,13,21,6,6,0.2,0.3
2024-06-25T1200,3698A,111.5968,40.8178,呼和浩特市,红旗小学,,40,14,19,3,8,126,,67,67,8,26,3,3,0.2,0.2
2024-06-25T1200,3699A,111.6518,40.8389,呼和浩特市,海东办,,40,9,19,6,8,128,,77,77,6,21,6,6,0.2,0.2
2024-06-25T1200,2192A,119.7594,49.2261,呼伦贝尔市,区环保局,,32,24,36,19,20,100,,59,59,12,21,6,4,0.5,0.5
2024-06-25T1200,3061A,119.7512,49.1577,呼伦贝尔市,国华电力东,,,23,25,13,15,109,,58,58,,10,5,4,,0.3
2024-06-25T1200,1250A,120.0751,30.8669,湖州市,城西水厂,,36,36,25,22,13,93,,76,70,17,20,3,4,0.5,0.5
2024-06-25T1200,2873A,120.0875,30.8955,湖州市,仁皇山新区,,31,28,24,20,14,97,,73,72,17,22,5,5,0.6,0.6
2024-06-25T1200,2907A,120.1844,30.8596,湖州市,吴兴区站,,32,25,20,22,13,89,,85,77,11,13,6,6,0.5,0.5
2024-06-25T1200,3562A,120.4148,30.8538,湖州市,南浔区站,,30,23,20,20,13,94,,90,83,13,12,3,3,0.5,0.5
2024-06-25T1200,1607A,120.9092,40.7136,葫芦岛市,龙港区,,37,32,39,14,16,116,,75,75,14,27,28,42,0.5,0.6
2024-06-25T1200,1608A,120.8392,40.7514,葫芦岛市,化工街,,38,22,29,9,8,120,,81,81,16,32,22,21,0.6,0.6
2024-06-25T1200,1609A,120.8341,40.7073,葫芦岛市,新区,,40,30,26,16,15,128,,87,87,12,27,21,13,0.5,0.6
2024-06-25T1200,1610A,120.8695,40.7677,葫芦岛市,东城区,颗粒物(PM10),60,70,35,15,13,144,,82,82,14,26,55,26,0.8,0.8
2024-06-25T1200,2482A,109.5981,27.5721,怀化市,林科所,,30,14,11,6,5,93,,84,82,2,2,9,7,0.6,0.6
2024-06-25T1200,2483A,109.9453,27.5444,怀化市,河西地税局,,22,19,14,10,8,69,,51,51,7,5,4,3,0.5,0.5
2024-06-25T1200,2484A,109.9781,27.5342,怀化市,市四医院,,24,24,12,14,7,71,,50,50,5,5,7,4,0.5,0.5
2024-06-25T1200,2485A,109.9972,27.5578,怀化市,监测楼,,21,21,13,8,7,67,,45,45,4,4,8,6,0.5,0.5
2024-06-25T1200,2486A,110.0394,27.583,怀化市,市委党校,,21,17,13,9,8,66,,44,44,4,4,8,6,0.5,0.4
2024-06-25T1200,1210A,119.036,33.5981,淮安市,钵池山,颗粒物(PM10),75,100,120,27,41,138,,103,103,10,16,7,7,0.6,0.7
2024-06-25T1200,1211A,119.007,33.575,淮安市,北京南路,颗粒物(PM10),73,95,135,26,42,138,,103,103,8,13,6,7,0.5,0.7
2024-06-25T1200,1212A,118.989,33.6067,淮安市,市监测站,,,105,138,36,44,137,,105,105,11,13,,13,0.5,0.6
2024-06-25T1200,1213A,119.135,33.5039,淮安市,楚州区监测站,颗粒物(PM10),80,110,135,28,40,134,,105,105,10,15,5,6,0.5,0.5
2024-06-25T1200,1214A,119.0186,33.6297,淮安市,淮阴区监测站,颗粒物(PM10),85,119,142,37,48,140,,100,100,14,21,10,8,0.4,0.5
2024-06-25T1200,3426A,118.8755,33.2894,淮安市,新华书店,颗粒物(PM10),78,106,127,29,43,142,,102,102,10,18,6,7,0.7,0.7
2024-06-25T1200,2282A,116.8004,33.975,淮北市,监测站,,,116,162,43,52,151,,119,119,,8,6,6,0.4,0.5
2024-06-25T1200,2283A,116.8091,33.9007,淮北市,烈山区政府,颗粒物(PM10),85,120,158,34,45,157,,118,118,4,12,5,6,0.4,0.5
2024-06-25T1200,3330A,116.8873,33.9836,淮北市,杜集区检察院,颗粒物(PM10),86,122,160,44,53,160,,126,126,5,9,7,7,0.2,0.3
2024-06-25T1200,4017A,116.7923,33.9535,淮北市,市博物馆,,,90,165,52,52,157,,123,123,2,7,,5,0.4,0.5
2024-06-25T1200,2277A,116.8305,32.7727,淮南市,潘集区政府,颗粒物(PM10),63,76,103,37,41,143,,99,99,6,14,7,8,0.4,0.3
2024-06-25T1200,2278A,117.0067,32.6524,淮南市,师范学院,细颗粒物(PM2.5),59,59,88,42,40,122,,98,95,8,11,10,11,0.4,0.3
2024-06-25T1200,2279A,116.8569,32.5951,淮南市,谢家集区政府,,44,44,54,23,22,128,,108,108,6,9,5,9,0.3,0.3
2024-06-25T1200,2280A,116.8281,32.633,淮南市,八公山区政府,细颗粒物(PM2.5),64,74,76,46,38,132,,103,103,8,12,3,4,0.4,0.4
2024-06-25T1200,2281A,116.6325,32.6201,淮南市,焦岗湖风景区管理处,颗粒物(PM10),53,56,55,22,20,89,,60,60,16,19,3,4,0.6,0.4
2024-06-25T1200,2894A,117.0566,32.6531,淮南市,经济技术开发区消防队,,47,47,72,14,26,122,,98,96,6,12,4,5,0.4,0.4
2024-06-25T1200,3329A,117.0108,32.5893,淮南市,山南新区,,,55,78,34,31,126,,105,105,,11,2,4,0.5,0.5
2024-06-25T1200,2446A,114.9028,30.4742,黄冈市,职工中心,,41,20,39,12,23,131,,93,93,16,25,10,9,0.4,0.6
2024-06-25T1200,2929A,114.8858,30.4519,黄冈市,红卫路,,41,25,35,14,23,129,,92,92,16,22,12,10,0.1,0.3
2024-06-25T1200,3398A,114.9136,30.4445,黄冈市,市林业局,,38,21,37,6,25,119,,86,86,17,21,9,7,0.4,0.5
2024-06-25T1200,2672A,102.0199,35.5102,黄南藏族自治州,同仁县隆务镇,颗粒物(PM10),58,65,29,3,8,133,,102,102,3,1,10,7,0.7,0.6
2024-06-25T1200,2295A,118.2903,29.6963,黄山市,延安路89号,,29,17,20,3,7,90,,91,91,6,5,4,4,0.3,0.3
2024-06-25T1200,2296A,118.327,29.7178,黄山市,黄山东路89号,,27,8,7,3,5,85,,87,87,4,5,4,5,0.4,0.4
2024-06-25T1200,2297A,118.1371,30.2756,黄山市,黄山区政府5号楼,,30,15,18,3,7,93,,71,71,5,5,6,6,0.3,0.4
2024-06-25T1200,2423A,115.0601,30.2313,黄石市,沈家营,,29,20,45,3,12,91,,95,95,20,20,10,7,0.6,0.6
2024-06-25T1200,2424A,115.0817,30.2006,黄石市,陈家湾,,37,23,45,3,14,118,,109,109,13,12,6,14,0.3,0.5
2024-06-25T1200,2426A,114.8988,30.2019,黄石市,铁山,,,16,33,6,12,97,,110,109,,13,6,11,0.5,0.8
2024-06-25T1200,2427A,115.0307,30.2092,黄石市,团城山,,35,24,40,3,10,111,,110,110,6,10,6,7,0.4,0.6
2024-06-25T1200,3149A,115.0235,30.1578,黄石市,笔架山北路,,31,29,38,7,6,98,,94,94,10,6,5,6,0.7,0.7
2024-06-25T1200,1392A,114.4183,23.0528,惠州市,河南岸金山湖子站,,18,13,14,10,7,56,,39,39,2,5,3,4,0.3,0.3
2024-06-25T1200,1393A,114.4053,23.0822,惠州市,下埔横江三路子站,,20,17,14,8,6,63,,43,43,4,6,6,6,0.5,0.4
2024-06-25T1200,1394A,114.4103,23.1142,惠州市,江北云山西路子站,,20,12,13,3,6,62,,42,42,2,3,8,8,0.5,0.5
2024-06-25T1200,1395A,114.4645,22.7833,惠州市,惠阳区承修路船湖子站,,16,13,13,6,6,50,,38,38,6,8,1,1,0.4,0.4
2024-06-25T1200,1396A,114.5317,22.7422,惠州市,大亚湾管委会子站,,22,13,15,3,4,68,,47,47,5,8,4,5,0.5,0.5
2024-06-25T1200,3314A,114.4338,22.8134,惠州市,惠阳秋长,,19,12,24,3,5,60,,38,,3,5,4,4,0.5,0.5
2024-06-25T1200,3452A,114.6517,22.775,惠州市,大亚湾霞涌,,17,12,13,3,4,54,,41,41,4,3,4,3,0.4,0.4
2024-06-25T1200,2240A,130.9762,45.3001,鸡西市,环保局,,17,12,6,3,3,53,,42,42,9,7,7,6,0.4,0.4
2024-06-25T1200,2243A,130.9429,45.3039,鸡西市,第一中学,,19,12,6,6,3,59,,41,41,2,4,7,7,0.2,0.2
2024-06-25T1200,3707A,131.0207,45.3073,鸡西市,欧美日汽修厂,,18,6,9,6,5,56,,40,40,4,7,5,4,0.4,0.4
2024-06-25T1200,3709A,130.9967,45.3106,鸡西市,市政设施管理处,,17,11,6,3,4,53,,34,34,14,11,8,7,0.3,0.4
2024-06-25T1200,2367A,114.9754,27.0803,吉安市,红声器材厂,,31,31,21,8,7,67,,83,71,17,12,10,12,0.4,0.4
2024-06-25T1200,2368A,114.9658,27.0999,吉安市,市森林工业局,,31,31,18,18,10,58,,82,66,13,9,10,11,0.5,0.5
2024-06-25T1200,2369A,114.99,27.1312,吉安市,市环境监测站,,,20,18,,8,60,,84,71,15,9,13,13,,0.5
2024-06-25T1200,2370A,115.0093,27.0968,吉安市,青原区法院,,25,25,18,10,9,53,,75,62,20,14,13,14,0.4,0.3
2024-06-25T1200,1772A,126.54,43.8622,吉林市,哈达湾,,22,9,9,3,5,68,,48,48,3,11,4,8,0.4,0.4
2024-06-25T1200,1773A,126.5844,43.8358,吉林市,东局子,,20,10,12,7,7,64,,45,45,7,12,4,7,0.5,0.5
2024-06-25T1200,1774A,126.5052,43.8245,吉林市,电力学院,,21,,12,8,5,65,,46,46,6,11,8,14,0.5,0.4
2024-06-25T1200,1775A,126.6133,43.8972,吉林市,江北,,22,10,15,3,6,70,,46,46,9,17,7,7,0.5,0.5
2024-06-25T1200,1776A,126.555,43.8306,吉林市,江南公园,,21,10,9,9,7,67,,49,49,8,14,3,5,0.5,0.5
2024-06-25T1200,1778A,126.7061,43.7133,吉林市,丰满,,,,,,,,,,,,,,,,
2024-06-25T1200,2868A,126.4739,43.953,吉林市,九站,,22,21,12,10,7,68,,41,41,7,17,6,10,0.4,0.5
2024-06-25T1200,1299A,116.9862,36.6114,济南市,科干所,臭氧1小时,90,88,108,27,33,192,,142,142,16,21,9,9,0.5,0.5
2024-06-25T1200,1300A,116.9376,36.665,济南市,农科所,臭氧1小时,89,95,101,22,30,191,,124,124,16,27,8,9,0.4,0.5
2024-06-25T1200,1301A,117.1265,36.6734,济南市,开发区,臭氧1小时,89,83,104,24,31,191,,145,145,18,21,8,9,0.4,0.4
2024-06-25T1200,1303A,117.0624,36.6868,济南市,省种子仓库,臭氧1小时,88,90,108,31,36,190,,124,124,14,30,7,8,0.5,0.6
2024-06-25T1200,1304A,116.9489,36.6447,济南市,机床二厂,臭氧1小时,99,78,91,29,31,199,,144,144,16,21,10,10,0.3,0.3
2024-06-25T1200,1305A,117.0495,36.663,济南市,市监测站,臭氧1小时,92,85,106,24,33,193,,144,144,20,24,12,12,0.3,0.4
2024-06-25T1200,1306A,116.7675,36.5484,济南市,长清党校,臭氧1小时,82,107,130,37,35,185,,144,144,6,13,9,9,0.5,0.5
2024-06-25T1200,1616A,117.6795,36.229,济南市,技术学院,颗粒物(PM10),87,124,96,39,33,176,,110,110,12,19,14,9,1.0,0.6
2024-06-25T1200,1961A,117.532,36.6868,济南市,东山小学,臭氧1小时,78,78,103,22,28,182,,139,139,13,20,7,8,0.3,0.4
2024-06-25T1200,3059A,117.7161,36.2049,济南市,泰兴公司,颗粒物(PM10),79,107,96,34,31,171,,96,96,6,20,11,9,0.5,0.4
2024-06-25T1200,3064A,117.6867,36.2171,济南市,莱芜战役纪念馆,颗粒物(PM10),84,117,98,36,29,170,,101,101,8,15,13,9,0.8,0.5
2024-06-25T1200,3494A,117.1673,36.9782,济南市,济阳区政府,臭氧1小时,85,81,95,20,26,188,,112,112,7,17,5,7,0.3,0.3
2024-06-25T1200,3495A,117.1171,36.63,济南市,锦屏中学,臭氧1小时,89,73,103,22,31,191,,153,153,14,18,10,10,0.5,0.6
2024-06-25T1200,3682A,116.9814,36.6819,济南市,济南四建,臭氧1小时,87,78,97,24,36,189,,137,137,12,17,8,9,0.4,0.5
2024-06-25T1200,1653A,116.6251,35.4302,济宁市,火炬城,细颗粒物(PM2.5),138,112,133,105,53,156,,110,110,8,15,10,10,0.5,0.6
2024-06-25T1200,1655A,116.5491,35.4042,济宁市,电化厂,颗粒物(PM10),104,157,147,51,50,177,,117,117,14,20,12,8,0.4,0.4
2024-06-25T1200,3500A,116.5814,35.3707,济宁市,北湖一中,颗粒物(PM10),105,159,115,48,42,172,,113,113,11,17,9,8,0.5,0.5
2024-06-25T1200,3501A,116.8249,35.5593,济宁市,服务中心,颗粒物(PM10),95,139,145,57,51,168,,111,111,10,15,7,6,0.4,0.4
2024-06-25T1200,3678A,116.5907,35.4054,济宁市,市第七中学,颗粒物(PM10),95,140,136,39,42,170,,114,114,9,16,8,7,0.5,0.5
2024-06-25T1200,2255A,130.2751,46.8028,佳木斯市,佳纺,,23,14,10,3,6,72,,43,43,4,11,6,5,0.3,0.4
2024-06-25T1200,2256A,130.3995,46.8307,佳木斯市,发电厂,,21,13,14,3,5,65,,46,46,2,5,5,4,0.3,0.4
2024-06-25T1200,2257A,130.3258,46.7975,佳木斯市,环保局,,19,18,15,6,7,58,,37,37,6,14,6,6,0.4,0.5
2024-06-25T1200,2258A,130.3648,46.8032,佳木斯市,十一中,,20,8,11,7,7,64,,48,48,4,11,6,6,0.4,0.4
2024-06-25T1200,2259A,130.3794,46.7588,佳木斯市,四丰,,18,9,8,3,5,56,,38,38,4,10,1,1,0.5,0.6
2024-06-25T1200,1252A,120.7436,30.778,嘉兴市,清河小学,,28,21,20,12,10,88,,87,85,15,19,5,5,0.8,0.8
2024-06-25T1200,1253A,120.726,30.7478,嘉兴市,嘉兴学院,,25,25,24,14,10,75,,79,76,23,24,2,2,0.3,0.3
2024-06-25T1200,2872A,120.7846,30.7525,嘉兴市,南湖区残联,,28,17,18,16,13,87,,93,88,15,17,7,6,0.5,0.5
2024-06-25T1200,3407A,120.6916,30.7739,嘉兴市,秀洲住建,,27,16,20,11,12,86,,83,77,14,16,3,4,0.5,0.6
2024-06-25T1200,1945A,98.2908,39.7711,嘉峪关市,气象局,,,,133,,47,114,,80,80,5,9,4,6,0.3,0.3
2024-06-25T1200,2884A,98.2672,39.7978,嘉峪关市,酒钢宾馆,颗粒物(PM10),109,168,150,56,43,110,,84,82,12,12,13,12,0.4,0.5
2024-06-25T1200,3248A,98.2643,39.7724,嘉峪关市,雄关区,颗粒物(PM10),86,121,107,33,27,112,,76,76,6,10,9,9,0.4,0.4
2024-06-25T1200,1383A,113.1064,22.6058,江门市,北街,,33,33,16,9,7,43,,36,36,12,8,2,2,0.5,0.5
2024-06-25T1200,1384A,113.0731,22.5835,江门市,西区,,19,11,16,6,7,58,,42,42,9,8,6,6,0.3,0.4
2024-06-25T1200,1385A,113.0219,22.5311,江门市,圭峰西,,,50,20,8,6,49,,42,42,8,4,,3,0.3,0.6
2024-06-25T1200,1386A,113.0828,22.5947,江门市,东湖,,18,18,19,11,20,56,,42,42,9,9,7,6,0.4,0.4
2024-06-25T1200,3311A,113.1075,22.5647,江门市,江海富民,,33,33,31,10,13,48,,39,39,14,10,5,5,0.5,0.4
2024-06-25T1200,3449A,113.05,22.4667,江门市,新会银湖,,23,23,16,8,5,43,,41,41,1,6,5,5,0.5,0.6
2024-06-25T1200,1828A,113.227,35.2125,焦作市,市环保局,臭氧1小时,94,109,116,45,38,195,,128,128,6,10,9,5,0.1,0.1
2024-06-25T1200,1830A,113.1992,35.2590,焦作市,影视城,,,,,,,,,,,,,,,,
2024-06-25T1200,3169A,113.2725,35.2067,焦作市,太极体育中心,臭氧1小时,89,121,137,39,36,191,,104,104,6,15,11,8,0.3,0.3
2024-06-25T1200,3335A,113.3137,35.2641,焦作市,马村街道办,臭氧1小时,89,115,123,41,36,191,,135,135,9,11,12,6,0.4,0.3
2024-06-25T1200,3336A,113.2465,35.2373,焦作市,焦作技师学院,臭氧1小时,93,120,123,39,36,194,,134,134,6,10,8,5,0.5,0.5
2024-06-25T1200,3477A,113.1656,35.2539,焦作市,中站许衡医院,臭氧1小时,94,111,117,33,35,195,,150,150,8,9,13,8,0.4,0.2
2024-06-25T1200,3981A,113.2449,35.1803,焦作市,原李万街道办,颗粒物(PM10),88,125,114,44,39,183,,107,107,6,15,8,7,0.4,0.4
2024-06-25T1200,1708A,116.3701,23.5345,揭阳市,新兴,,33,,23,23,8,55,,,,5,11,3,5,0.5,0.5
2024-06-25T1200,1709A,116.3264,23.5443,揭阳市,西马,,19,14,21,7,6,59,,37,37,5,9,2,2,0.5,0.6
2024-06-25T1200,1710A,116.3611,23.5626,揭阳市,东兴,,19,19,25,6,7,60,,36,36,2,7,1,3,0.6,0.7
2024-06-25T1200,1711A,116.4151,23.5294,揭阳市,渔湖,,17,17,15,3,2,48,,27,27,6,14,4,4,0.4,0.5
2024-06-25T1200,3320A,116.403,23.5699,揭阳市,曲溪,,,,15,,7,60,,33,33,,13,3,3,0.4,0.5
2024-06-25T1200,1944A,102.1692,38.5167,金昌市,天庆家园,,,,146,,63,125,,86,86,8,12,15,19,0.6,0.6
2024-06-25T1200,3170A,102.1864,38.5253,金昌市,市委党校,颗粒物(PM10),153,255,189,85,60,136,,101,101,10,12,11,10,0.6,0.6
2024-06-25T1200,4022A,102.1647,38.5371,金昌市,金川区人防中心,颗粒物(PM10),148,246,169,80,59,141,,97,97,8,11,14,12,0.6,0.6
2024-06-25T1200,1262A,119.647,29.077,金华市,十五中,,,,24,9,13,72,,69,69,17,13,2,2,,0.4
2024-06-25T1200,1263A,119.686,29.1029,金华市,监测站,,20,8,21,6,14,64,,66,66,24,17,1,2,0.3,0.4
2024-06-25T1200,3659A,119.656,29.1131,金华市,气象局,,20,8,21,3,9,63,,62,62,28,21,4,4,0.5,0.5
2024-06-25T1200,1767A,121.1115,41.0879,锦州市,南山,,35,16,18,11,11,110,,73,73,6,17,9,9,0.4,0.5
2024-06-25T1200,1768A,121.0533,40.8434,锦州市,开发区,颗粒物(PM10),61,71,43,9,13,115,,77,77,14,27,16,24,0.6,0.8
2024-06-25T1200,1769A,121.1836,41.1119,锦州市,百股街道,,36,19,30,9,6,115,,65,65,9,20,17,12,0.6,0.6
2024-06-25T1200,1770A,121.1178,41.1222,锦州市,天安街道,,,,23,,9,92,,61,61,7,23,,7,0.4,0.5
2024-06-25T1200,1771A,121.1303,41.1386,锦州市,北湖公园,,30,16,23,3,9,94,,60,60,5,18,13,9,0.3,0.4
2024-06-25T1200,2160A,112.85,35.5051,晋城市,自来水公司,臭氧1小时,94,111,117,29,29,195,,130,130,10,16,10,8,0.5,0.6
2024-06-25T1200,2161A,112.8318,35.4936,晋城市,白云商贸,臭氧1小时,94,96,120,31,33,195,,121,121,10,18,9,8,0.4,0.5
2024-06-25T1200,2162A,112.8508,35.4887,晋城市,市环保局,颗粒物(PM10),91,132,123,34,33,191,,118,118,11,21,9,7,0.4,0.4
2024-06-25T1200,2163A,112.8676,35.4897,晋城市,技术学院,臭氧1小时,85,100,129,39,37,188,,106,106,12,24,8,7,0.5,0.6
2024-06-25T1200,2165A,112.8453,35.546,晋城市,白马寺,,,,,,,,,,,,,,,,
2024-06-25T1200,3620A,112.8271,35.4828,晋城市,泽州一中,颗粒物(PM10),82,114,121,29,33,183,,117,117,11,17,10,9,0.6,0.6
2024-06-25T1200,2171A,112.7532,37.6945,晋中市,锦纶小区,颗粒物(PM10),108,166,72,39,18,181,,113,113,13,21,12,8,0.4,0.3
2024-06-25T1200,2173A,112.7249,37.7067,晋中市,南都小区,颗粒物(PM10),97,143,65,32,20,188,,122,122,12,19,12,9,0.6,0.3
2024-06-25T1200,2174A,112.6991,37.6982,晋中市,榆次区政府,颗粒物(PM10),100,149,70,34,22,179,,129,129,14,23,10,7,0.6,0.3
2024-06-25T1200,2865A,112.7195,37.6828,晋中市,榆次三中,颗粒物(PM10),104,158,73,58,22,186,,113,113,10,20,13,10,0.6,0.4
2024-06-25T1200,2439A,112.2014,31.0481,荆门市,竹园小学,,40,33,68,12,23,128,,82,82,9,15,11,10,0.4,0.5
2024-06-25T1200,2440A,112.1969,30.9891,荆门市,掇刀,,47,47,75,16,24,119,,91,91,16,14,6,7,0.5,0.6
2024-06-25T1200,2441A,112.2213,31.0386,荆门市,石化一小,,43,27,81,16,17,137,,91,91,9,14,16,15,0.4,0.4
2024-06-25T1200,3012A,112.1849,31.0362,荆门市,西山林语,,41,26,49,10,27,130,,84,84,6,11,8,9,0.3,0.4
2024-06-25T1200,3547A,112.1632,31.0138,荆门市,龙泉中学南校,,40,25,67,7,24,125,,84,84,7,15,7,10,0.5,0.6
2024-06-25T1200,1844A,112.2494,30.3197,荆州市,市图书馆,,39,29,22,11,10,122,,80,80,7,10,7,6,0.5,0.5
2024-06-25T1200,1845A,112.2008,30.3544,荆州市,市委党校,,39,21,18,9,8,124,,79,79,7,10,7,5,0.6,0.6
2024-06-25T1200,3194A,112.2747,30.3122,荆州市,管委会,,38,27,16,12,10,119,,81,81,8,10,6,4,0.4,0.4
2024-06-25T1200,3548A,112.1655,30.3364,荆州市,学苑路,,40,22,20,14,14,127,,72,72,8,14,6,7,0.4,0.4
2024-06-25T1200,2342A,117.3102,29.3867,景德镇市,王港中学,,,,,,,,,,,,,,,,
2024-06-25T1200,2343A,117.2117,29.2933,景德镇市,老干部活动中心,,21,13,10,6,5,66,,75,65,6,6,6,6,0.3,0.3
2024-06-25T1200,2344A,117.1894,29.2789,景德镇市,兽医站,,23,14,11,3,8,71,,80,70,8,6,5,6,0.3,0.3
2024-06-25T1200,2345A,117.1547,29.2617,景德镇市,台达陶瓷,,21,,18,10,9,66,,74,64,12,13,4,10,0.3,0.3
2024-06-25T1200,2346A,117.2461,29.2956,景德镇市,陶研所,,,8,11,,5,65,,81,67,2,2,,5,0.2,0.2
2024-06-25T1200,1803A,115.9872,29.6815,九江市,十里,,25,19,15,9,8,79,,96,94,24,17,10,10,0.8,0.6
2024-06-25T1200,1804A,115.9584,29.7046,九江市,茅山头,,31,24,13,10,10,97,,108,107,25,12,11,10,0.6,0.5
2024-06-25T1200,1805A,115.9877,29.7295,九江市,西园,,34,24,15,13,10,107,,113,111,28,18,11,10,0.8,0.7
2024-06-25T1200,1806A,116.0172,29.6547,九江市,五七二七厂,,,17,11,,6,81,,111,102,14,12,9,8,0.7,0.6
2024-06-25T1200,1808A,115.9114,29.6038,九江市,综合工业园,,27,20,12,15,8,85,,78,78,43,28,12,10,0.4,0.3
2024-06-25T1200,1809A,116.0721,29.7535,九江市,石化总厂,,35,13,16,10,10,109,,110,109,19,11,9,8,0.8,0.6
2024-06-25T1200,1810A,115.9773,29.5698,九江市,庐山气象台,,44,12,9,11,8,140,,135,133,1,2,16,13,1.0,0.8
2024-06-25T1200,3190A,116.0254,29.6994,九江市,外国语学校,,31,21,14,13,9,97,,106,101,29,22,14,11,0.8,0.7
2024-06-25T1200,2658A,98.5061,39.7443,酒泉市,仓门街子站,颗粒物(PM10),128,205,149,39,26,101,,74,74,6,9,6,9,0.2,0.2
2024-06-25T1200,2659A,98.4989,39.7256,酒泉市,油田生活基地,颗粒物(PM10),120,190,139,64,39,107,,76,72,6,8,5,22,0.3,0.2
2024-06-25T1200,2698A,76.0072,39.4467,喀什地区,巡警大队,颗粒物(PM10),72,93,113,16,20,92,,52,52,25,37,4,4,0.2,0.4
2024-06-25T1200,2699A,75.9755,39.4694,喀什地区,吾办,颗粒物(PM10),74,97,99,22,34,90,,50,50,19,28,6,6,0.3,0.5
2024-06-25T1200,4027A,75.9483,39.4689,喀什地区,老干局,颗粒物(PM10),66,81,108,6,18,98,,48,48,16,27,4,4,0.2,0.3
2024-06-25T1200,1824A,114.3389,34.7781,开封市,肿瘤医院,颗粒物(PM10),97,144,155,32,40,196,,123,123,6,20,6,8,0.5,0.5
2024-06-25T1200,1826A,114.2885,34.7965,开封市,世纪星幼儿园,颗粒物(PM10),103,155,142,18,41,193,,119,119,7,19,3,3,0.5,0.5
2024-06-25T1200,3147A,114.3438,34.8106,开封市,龙亭公园,颗粒物(PM10),109,168,151,54,47,193,,113,113,11,27,6,8,0.3,0.4
2024-06-25T1200,3210A,114.3644,34.7964,开封市,汴京公园,颗粒物(PM10),117,184,146,38,49,191,,111,111,8,25,4,5,0.4,0.3
2024-06-25T1200,3473A,114.2485,34.8306,开封市,技师学院,颗粒物(PM10),103,155,133,31,41,194,,105,105,10,29,6,6,0.7,0.6
2024-06-25T1200,3592A,114.4644,34.7556,开封市,祥符区生态环境局,颗粒物(PM10),104,158,153,51,49,191,,113,113,9,35,5,5,0.4,0.4
2024-06-25T1200,1951A,84.895,45.6094,克拉玛依市,长征新村,,44,44,26,6,7,98,,109,102,3,7,9,10,0.1,0.2
2024-06-25T1200,1952A,84.8988,45.5893,克拉玛依市,南林小区,,44,44,29,9,11,101,,110,105,5,17,4,4,0.4,0.5
2024-06-25T1200,1954A,84.905,44.3396,克拉玛依市,独山子区,,35,32,35,11,14,110,,109,108,6,12,9,10,0.2,0.4
2024-06-25T1200,1955A,85.6979,46.098,克拉玛依市,乌尔禾区商贸楼,,30,27,29,7,8,95,,99,99,2,9,4,4,0.2,0.2
2024-06-25T1200,3612A,85.1045,45.6899,克拉玛依市,白碱滩区新站,,34,33,31,18,18,106,,116,109,2,4,10,10,0.3,0.3
2024-06-25T1200,2697A,76.1454,39.7142,克孜勒苏柯尔克孜自治州,市人民政府,颗粒物(PM10),59,68,64,31,26,102,,100,100,7,7,15,9,0.2,0.1
2024-06-25T1200,3665A,76.1658,39.7157,克孜勒苏柯尔克孜自治州,克州文化中心,颗粒物(PM10),58,65,70,27,29,112,,100,100,1,2,15,13,0.2,0.2
2024-06-25T1200,1450A,102.8204,24.8886,昆明市,呈贡新区,,25,20,18,10,7,79,,89,83,10,7,3,6,0.6,0.5
2024-06-25T1200,1451A,102.6251,24.9608,昆明市,西山森林公园,,,,,,,,,,,,,,,,
2024-06-25T1200,1452A,102.7252,25.0902,昆明市,龙泉镇,,27,6,16,3,8,86,,81,75,8,8,8,9,0.5,0.5
2024-06-25T1200,1453A,102.7266,25.0375,昆明市,东风东路,,,13,18,10,11,84,,79,77,8,9,4,4,,0.5
2024-06-25T1200,1454A,102.6742,25.0669,昆明市,金鼎山,,,,18,6,6,87,,84,78,10,9,11,12,0.3,0.2
2024-06-25T1200,1455A,102.6644,25.0401,昆明市,碧鸡广场,,28,13,17,8,13,87,,86,79,11,10,4,5,0.3,0.3
2024-06-25T1200,3179A,102.7494,25.0119,昆明市,官渡区博物馆,,25,18,20,10,9,80,,81,76,15,14,10,9,0.4,0.4
2024-06-25T1200,3375A,102.8017,24.8336,昆明市,青年创业园,,26,22,13,10,6,83,,90,87,9,7,14,10,0.4,0.4
2024-06-25T1200,3550A,102.7997,24.9786,昆明市,昆明学院,,,24,22,10,8,83,,87,84,16,14,,9,0.2,0.2
2024-06-25T1200,3551A,102.5967,24.6736,昆明市,晋宁区生态环境分局,,29,10,13,3,8,92,,98,94,9,6,3,2,0.5,0.5
2024-06-25T1200,3552A,102.6678,24.9856,昆明市,云天化总部,,,10,16,3,10,82,,85,81,,9,4,3,0.4,0.4
2024-06-25T1200,1456A,91.1319,29.6514,拉萨市,八廓街,,41,7,9,3,6,131,,130,124,10,10,6,6,0.3,0.2
2024-06-25T1200,1457A,91.1221,29.6747,拉萨市,市环保局,,,,10,6,6,122,,123,115,15,12,8,8,,0.4
2024-06-25T1200,1458A,91.0874,29.6475,拉萨市,区监测站,,40,8,8,3,6,125,,128,119,13,10,8,7,0.3,0.2
2024-06-25T1200,1459A,91.1774,29.6541,拉萨市,西藏大学,,41,7,8,6,6,130,,130,124,5,6,8,8,0.2,0.3
2024-06-25T1200,1460A,90.9798,29.6588,拉萨市,区辐射站,,,,9,13,8,109,,122,113,20,12,10,8,0.3,0.3
2024-06-25T1200,1461A,91.0834,29.6292,拉萨市,拉萨火车站,,41,6,11,6,6,130,,134,124,6,6,8,8,0.2,0.2
2024-06-25T1200,2520A,109.2203,23.7256,来宾市,来宾技工学校,,19,16,15,10,7,58,,40,40,3,7,6,8,0.7,0.7
2024-06-25T1200,3535A,109.1781,23.7297,来宾市,兴宾区政府,,19,17,12,9,6,60,,39,39,5,6,8,5,0.8,0.7
2024-06-25T1200,4002A,109.2416,23.7461,来宾市,中南小学,,19,19,13,3,6,56,,38,38,5,9,6,7,0.7,0.7
2024-06-25T1200,1476A,103.631,36.1031,兰州市,兰炼宾馆,臭氧1小时,80,73,63,33,27,184,,86,86,28,34,45,25,0.7,0.5
2024-06-25T1200,1477A,104.1373,35.9454,兰州市,榆中兰大校区,,,,,,,,,,,,,,,,
2024-06-25T1200,1478A,103.8412,36.0726,兰州市,生物制品所,颗粒物(PM10),55,60,62,28,25,125,,48,48,31,43,21,11,0.4,0.3
2024-06-25T1200,1479A,103.831,36.0464,兰州市,铁路设计院,颗粒物(PM10),62,73,56,28,23,109,,45,45,51,56,23,11,0.6,0.4
2024-06-25T1200,3186A,103.7158,36.1058,兰州市,教育港,颗粒物(PM10),66,82,64,27,23,155,,62,62,14,35,30,14,0.5,0.4
2024-06-25T1200,3241A,103.7439,36.0842,兰州市,百合公园,颗粒物(PM10),61,71,53,21,20,146,,53,53,24,42,27,8,0.5,0.4
2024-06-25T1200,3242A,103.9611,35.998,兰州市,和平,"颗粒物(PM10),臭氧1小时",63,76,49,30,20,170,,107,107,23,18,18,10,0.5,0.3
2024-06-25T1200,3245A,103.6633,36.533,兰州新区,新区管委会,颗粒物(PM10),53,55,57,25,24,143,,96,96,9,11,25,16,0.4,0.4
2024-06-25T1200,3246A,103.6975,36.4789,兰州新区,舟曲中学,颗粒物(PM10),53,55,75,23,25,141,,101,101,8,14,19,25,0.4,0.4
2024-06-25T1200,1067A,116.6708,39.5111,廊坊市,药材公司,臭氧1小时,108,63,35,27,14,215,,93,93,17,18,2,2,0.4,0.3
2024-06-25T1200,1068A,116.7214,39.5589,廊坊市,开发区,臭氧1小时,101,61,39,24,14,202,,93,93,20,21,4,2,0.4,0.3
2024-06-25T1200,1070A,116.7244,39.5269,廊坊市,北华航天学院,,,76,40,24,9,200,,100,100,,22,2,2,,0.3
2024-06-25T1200,2919A,116.7022,39.5453,廊坊市,河北工业大学,臭氧1小时,102,66,50,24,17,204,,91,91,16,17,2,3,0.4,0.3
2024-06-25T1200,2535A,103.7723,29.5462,乐山市,花湖湾,细颗粒物(PM2.5),102,106,72,76,62,28,,,,24,20,,4,0.7,0.5
2024-06-25T1200,2536A,103.7627,29.5844,乐山市,牛耳桥,,,63,33,51,20,50,,32,26,20,18,4,4,,0.5
2024-06-25T1200,2537A,103.7508,29.6006,乐山市,市第三水厂,细颗粒物(PM2.5),73,,34,53,35,55,,34,27,17,18,3,4,0.7,0.5
2024-06-25T1200,2538A,103.7571,29.5664,乐山市,市监测站,细颗粒物(PM2.5),67,75,39,48,24,53,,33,27,17,16,3,3,0.9,0.7
2024-06-25T1200,3361A,103.7311,29.5628,乐山市,理工大学,,,,39,,26,50,,28,,,17,,3,0.8,0.6
2024-06-25T1200,2598A,100.2143,26.8576,丽江市,西南郊,,,,,,,,,,,,,,,,
2024-06-25T1200,2599A,100.2497,26.8802,丽江市,丽江古城,,19,16,14,12,8,59,,62,60,19,14,6,6,0.5,0.6
2024-06-25T1200,2600A,100.2203,26.8906,丽江市,市中心,,20,12,7,8,6,63,,69,65,20,14,8,8,0.6,0.5
2024-06-25T1200,1267A,119.914,28.4514,丽水市,监测站大楼,,22,22,16,3,3,61,,39,39,10,11,3,2,0.6,0.6
2024-06-25T1200,1268A,119.93,28.4586,丽水市,莲都小学,,21,18,13,7,3,66,,45,43,6,9,3,3,0.4,0.4
2024-06-25T1200,1269A,119.879,28.4231,丽水市,余庄前,,17,14,17,3,4,52,,29,29,8,10,2,2,0.4,0.4
2024-06-25T1200,1173A,119.176,34.5885,连云港市,市环境监测站,颗粒物(PM10),69,88,147,44,42,143,,109,109,10,13,9,7,0.5,0.5
2024-06-25T1200,3000A,119.3581,34.6972,连云港市,德源药业,颗粒物(PM10),70,90,134,27,39,148,,98,98,7,22,8,7,0.4,0.5
2024-06-25T1200,3007A,119.178,34.844,连云港市,新城一中,颗粒物(PM10),83,115,151,33,46,127,,88,88,11,29,6,7,0.4,0.6
2024-06-25T1200,3008A,119.3608,34.7519,连云港市,胡沟管理处,颗粒物(PM10),78,105,142,29,36,109,,86,86,13,24,8,11,0.6,0.7
2024-06-25T1200,3009A,119.1478,34.5911,连云港市,矿山设计院,颗粒物(PM10),58,66,144,14,36,140,,99,99,10,13,4,2,0.4,0.4
2024-06-25T1200,3434A,119.2413,34.6539,连云港市,工贸学校,颗粒物(PM10),70,90,130,28,36,162,,116,116,10,10,9,9,0.7,0.7
2024-06-25T1200,3664A,119.4172,34.7341,连云港市,连云街道,颗粒物(PM10),62,73,122,24,35,132,,93,93,7,19,4,5,0.5,0.6
2024-06-25T1200,2571A,102.3431,27.8099,凉山彝族自治州,青龙寺,,26,12,11,3,4,82,,54,54,5,4,3,3,0.6,0.5
2024-06-25T1200,2572A,102.2721,27.8415,凉山彝族自治州,邛海宾馆,,26,22,12,13,6,81,,50,50,9,11,10,8,0.7,0.6
2024-06-25T1200,2573A,102.2625,27.898,凉山彝族自治州,西昌市政府,,27,27,12,13,6,78,,56,56,10,8,13,11,0.6,0.6
2024-06-25T1200,2574A,102.2685,27.8851,凉山彝族自治州,凉山州政府,,33,33,16,14,10,73,,50,50,17,12,8,7,0.7,0.6
2024-06-25T1200,2575A,102.237,27.8914,凉山彝族自治州,长安,,34,34,17,14,9,67,,50,39,23,15,13,11,0.8,0.7
2024-06-25T1200,2212A,123.2,41.1953,辽阳市,宏伟区,,30,30,25,3,3,78,,61,61,16,14,12,11,0.6,0.5
2024-06-25T1200,2213A,123.1683,41.2495,辽阳市,新华园,,33,33,24,9,7,94,,54,54,10,22,13,11,0.7,0.5
2024-06-25T1200,2214A,123.2354,41.2639,辽阳市,滨河路,,26,19,22,7,8,81,,50,50,15,19,10,10,0.7,0.5
2024-06-25T1200,2215A,123.149,41.2991,辽阳市,铁西工业园,,30,24,25,8,9,94,,53,53,10,24,13,12,0.7,0.6
2024-06-25T1200,2227A,125.1358,42.8845,辽源市,环保局,,27,6,9,3,4,86,,63,63,4,11,8,15,0.5,0.5
2024-06-25T1200,3239A,125.0764,42.9078,辽源市,银鹰制药,,27,7,9,3,4,86,,66,66,8,11,3,2,0.5,0.5
2024-06-25T1200,1625A,115.9848,36.4372,聊城市,区政府,颗粒物(PM10),100,149,138,41,40,187,,119,119,13,23,11,10,0.7,0.7
2024-06-25T1200,2878A,116.0072,36.4343,聊城市,聊大东校,臭氧1小时,97,129,126,48,46,197,,123,123,11,23,11,8,0.5,0.5
2024-06-25T1200,3200A,115.9819,36.4978,聊城市,监控中心,颗粒物(PM10),93,136,139,41,43,185,,115,115,15,37,11,10,0.6,0.5
2024-06-25T1200,3513A,116.0445,36.4361,聊城市,九州社区,颗粒物(PM10),93,136,150,38,39,186,,114,114,12,23,12,10,0.6,0.7
2024-06-25T1200,4018A,116.0567,36.4608,聊城市,星美广场,颗粒物(PM10),86,122,137,41,42,184,,116,116,14,32,11,11,0.6,0.6
2024-06-25T1200,2632A,94.3681,29.6376,林芝市,林芝监测站,,16,8,5,3,4,50,,42,38,3,2,7,7,0.3,0.3
2024-06-25T1200,2633A,94.3616,29.6616,林芝市,林芝人民医院,,16,8,6,3,3,51,,41,39,5,4,8,8,0.4,0.3
2024-06-25T1200,2603A,100.0781,23.8982,临沧市,市环保局,,20,17,19,8,14,63,,37,37,6,8,4,4,0.4,0.4
2024-06-25T1200,2604A,100.0894,23.8822,临沧市,市气象局,,,,17,13,13,63,,46,43,6,9,,4,0.4,0.6
2024-06-25T1200,1733A,111.5531,36.0783,临汾市,临钢医院,颗粒物(PM10),106,161,236,40,58,183,,122,122,7,13,6,6,0.5,0.5
2024-06-25T1200,1734A,111.5028,36.0714,临汾市,技工学校,颗粒物(PM10),98,146,226,35,56,194,,133,133,12,20,7,7,0.5,0.5
2024-06-25T1200,1736A,111.5018,36.0855,临汾市,市委,颗粒物(PM10),104,157,234,39,54,204,,142,142,11,18,7,7,,0.6
2024-06-25T1200,3018A,111.505,36.1014,临汾市,唐尧大酒店,臭氧1小时,90,115,193,40,58,192,,131,131,9,15,6,6,0.7,0.8
2024-06-25T1200,3668A,111.5036,36.0414,临汾市,城南,臭氧1小时,103,149,228,39,57,205,,135,135,11,19,7,7,0.5,0.5
2024-06-25T1200,2667A,103.2069,35.5993,临夏回族自治州,环保局,,42,36,31,25,21,134,,62,62,6,12,7,6,0.3,0.3
2024-06-25T1200,2668A,103.2417,35.6057,临夏回族自治州,建设大厦,,43,20,28,8,19,136,,73,73,7,11,9,9,0.3,0.3
2024-06-25T1200,1618A,118.3429,35.0532,临沂市,沂河小区,臭氧1小时,69,73,156,26,48,175,,107,107,12,20,10,10,0.2,0.3
2024-06-25T1200,1619A,118.295,35.0583,临沂市,鲁南制药厂,颗粒物(PM10),60,70,157,20,38,164,,120,120,5,11,9,11,0.3,0.4
2024-06-25T1200,1620A,118.2794,34.9976,临沂市,新光毛纺厂,颗粒物(PM10),62,73,146,22,43,156,,117,117,8,21,4,8,0.5,0.6
2024-06-25T1200,1621A,118.3956,35.0888,临沂市,河东保险公司,颗粒物(PM10),63,75,145,19,42,167,,95,95,10,20,9,7,0.4,0.4
2024-06-25T1200,3370A,118.3564,35.0215,临沂市,十里堡居委,颗粒物(PM10),57,63,148,17,41,160,,109,109,8,16,10,11,0.4,0.6
2024-06-25T1200,3496A,118.3604,35.1084,临沂市,南坊新区,"颗粒物(PM10),臭氧1小时",73,95,164,22,38,178,,107,107,14,19,11,9,0.6,0.6
2024-06-25T1200,3860A,118.3920,35.0300,临沂市,皇山花园小区,颗粒物(PM10),60,70,160,20,42,154,,94,94,10,24,11,11,0.3,0.6
2024-06-25T1200,1870A,109.4856,24.3895,柳州市,柳东小学,,16,16,11,9,5,31,,28,25,12,10,7,7,0.5,0.5
2024-06-25T1200,1871A,109.4157,24.3277,柳州市,环保监测站,,20,,15,14,7,25,,29,23,10,10,7,7,0.6,0.6
2024-06-25T1200,1872A,109.389,24.341,柳州市,河西水厂,,19,19,10,13,6,27,,31,23,9,9,6,7,0.4,0.3
2024-06-25T1200,1873A,109.4311,24.2921,柳州市,市四中,,12,12,12,3,6,32,,32,27,12,9,6,6,0.3,0.2
2024-06-25T1200,1874A,109.4006,24.3631,柳州市,市九中,,13,13,13,9,6,29,,29,24,10,11,5,5,0.6,0.6
2024-06-25T1200,1875A,109.4958,24.3134,柳州市,古亭山,,16,16,15,8,6,30,,22,20,14,12,8,6,0.3,0.3
2024-06-25T1200,3402A,109.5422,24.3996,柳州市,市二中,,9,9,12,3,6,28,,28,25,10,10,6,8,0.3,0.4
2024-06-25T1200,2307A,116.5079,31.737,六安市,监测大楼,颗粒物(PM10),70,90,66,27,25,120,,79,72,5,14,6,5,0.5,0.5
2024-06-25T1200,2308A,116.4738,31.7643,六安市,皖西学院,颗粒物(PM10),78,105,79,24,26,121,,82,77,5,10,4,4,0.5,0.5
2024-06-25T1200,2309A,116.4996,31.7905,六安市,朝阳厂,颗粒物(PM10),79,108,86,24,31,123,,90,83,5,11,9,8,0.5,0.4
2024-06-25T1200,2310A,116.5567,31.7886,六安市,开发区,,,129,85,42,28,119,,68,68,,16,5,5,0.7,0.6
2024-06-25T1200,2576A,104.8,26.5892,六盘水市,窑上,,,,,,,,,,,,,,,,
2024-06-25T1200,2577A,104.83,26.5917,六盘水市,黄土坡,,31,9,12,3,6,98,,82,82,5,7,6,6,0.4,0.4
2024-06-25T1200,2578A,104.89,26.5939,六盘水市,水钢,,28,16,17,11,8,88,,84,84,13,12,9,10,0.5,0.5
2024-06-25T1200,2579A,104.8475,26.5894,六盘水市,民中,,30,7,11,3,5,96,,85,85,4,7,6,6,0.3,0.3
2024-06-25T1200,2580A,104.9544,26.5506,六盘水市,双水,,,,13,15,7,94,,77,77,8,9,,5,0.2,0.3
2024-06-25T1200,2335A,117.0189,25.1181,龙岩市,龙岩师专,,,,,,,,,,,,,,,,
2024-06-25T1200,2336A,117.0217,25.1033,龙岩市,龙岩市监测站,,44,44,19,10,9,55,,27,27,5,12,4,6,0.4,0.4
2024-06-25T1200,2337A,117.0258,25.0661,龙岩市,闽西职业技术学院,,27,27,25,11,11,57,,26,26,4,14,4,20,0.3,0.4
2024-06-25T1200,2338A,117.0196,25.0306,龙岩市,龙岩学院,,33,33,12,7,5,53,,30,30,3,5,1,3,0.4,0.4
2024-06-25T1200,2665A,105.0822,33.3261,陇南市,汉王镇固水子,,,,,,,,,,,,,,,,
2024-06-25T1200,2885A,104.9339,33.3826,陇南市,滨江中学,,32,32,31,9,12,99,,70,70,6,9,8,10,0.5,0.5
2024-06-25T1200,3247A,104.955,33.371,陇南市,市总工会,,45,40,29,31,16,100,,,,3,5,4,5,0.4,0.3
2024-06-25T1200,2487A,111.9589,27.8901,娄底市,电视发射台,,30,10,13,3,4,94,,75,75,3,3,5,5,0.4,0.5
2024-06-25T1200,2488A,111.9975,27.725,娄底市,市监测站,,25,,9,12,6,80,,85,81,8,6,6,5,0.5,0.5
2024-06-25T1200,2489A,112.0194,27.7314,娄底市,市委党校,,23,10,7,7,5,72,,74,71,8,6,9,8,0.4,0.4
2024-06-25T1200,2490A,111.9561,27.7569,娄底市,涟钢,,,17,14,9,7,72,,76,72,15,13,,16,0.8,1
2024-06-25T1200,2491A,111.9892,27.7044,娄底市,市政府,,27,13,10,6,6,86,,90,86,11,7,5,5,0.4,0.4
2024-06-25T1200,1893A,105.4324,28.9634,泸州市,九狮山,,38,33,13,26,11,38,,25,25,21,21,5,5,0.1,0.1
2024-06-25T1200,1894A,105.4427,28.9063,泸州市,小市上码头,,,,35,,15,44,,34,34,14,16,6,7,0.5,0.4
2024-06-25T1200,1895A,105.4241,28.8573,泸州市,兰田宪桥,,46,46,31,30,17,42,,24,24,19,19,4,4,0.2,0.2
2024-06-25T1200,1896A,105.4379,28.8833,泸州市,市环监站,颗粒物(PM10),56,61,36,34,18,35,,26,26,20,19,7,7,0.6,0.5
2024-06-25T1200,3490A,105.3617,28.7703,泸州市,纳溪区环保局,,38,38,28,17,9,37,,19,19,21,22,4,4,0.4,0.4
2024-06-25T1200,2183A,111.1406,37.5211,吕梁市,环保局,颗粒物(PM10),81,111,71,38,22,162,,84,84,13,25,9,5,0.7,0.3
2024-06-25T1200,2185A,111.1297,37.5136,吕梁市,自来水公司,细颗粒物(PM2.5),57,50,76,40,24,147,,61,61,13,27,8,6,0.6,0.4
2024-06-25T1200,2867A,111.1283,37.51,吕梁市,马茂庄小学,颗粒物(PM10),81,112,71,33,22,162,,79,79,15,29,8,5,0.8,0.4
2024-06-25T1200,1812A,112.3931,34.6516,洛阳市,市委党校,颗粒物(PM10),103,155,128,50,39,201,,96,96,10,18,7,6,0.6,0.5
2024-06-25T1200,1814A,112.4657,34.6871,洛阳市,豫西宾馆,颗粒物(PM10),109,168,138,43,38,206,,116,116,10,18,6,4,0.4,0.4
2024-06-25T1200,1815A,112.494,34.6886,洛阳市,河南林校,"颗粒物(PM10),臭氧1小时",95,140,119,45,40,196,,110,110,8,17,5,4,0.3,0.3
2024-06-25T1200,1816A,112.3844,34.623,洛阳市,开发区管委会,,,142,120,47,41,195,,93,93,,18,14,11,0.4,0.3
2024-06-25T1200,1817A,112.4267,34.6258,洛阳市,市委新办公区,臭氧1小时,100,145,119,56,45,200,,103,103,11,12,10,7,0.5,0.4
2024-06-25T1200,3340A,112.6005,34.6326,洛阳市,伊滨,颗粒物(PM10),97,143,128,34,34,196,,97,97,13,23,8,7,0.3,0.3
2024-06-25T1200,3341A,112.4951,34.6332,洛阳市,中移产业园,臭氧1小时,102,142,122,48,38,204,,107,107,11,17,11,8,0.6,0.4
2024-06-25T1200,3593A,112.5736,34.8993,洛阳市,吉利监测站,颗粒物(PM10),103,156,143,43,41,187,,89,89,8,21,10,10,0.2,0.3
2024-06-25T1200,3635A,112.3677,34.662,洛阳市,河科大西苑校区,,,,130,,38,196,,90,90,7,17,8,8,,0.4
2024-06-25T1200,3636A,112.4388,34.6781,洛阳市,英才小学,颗粒物(PM10),102,154,130,49,42,196,,108,108,6,11,6,4,0.4,0.3
2024-06-25T1200,2399A,114.051,33.5699,漯河市,三五一五工厂,颗粒物(PM10),103,156,159,34,45,199,,105,105,9,29,8,10,0.5,0.7
2024-06-25T1200,2400A,114.0055,33.5698,漯河市,漯河大学,臭氧1小时,104,150,155,44,42,207,,122,122,13,26,8,9,0.5,0.5
2024-06-25T1200,2401A,114.0138,33.5828,漯河市,市水利局,,,,157,,47,201,,113,113,9,24,9,10,0.3,0.7
2024-06-25T1200,2402A,114.0261,33.5698,漯河市,市广电局,"颗粒物(PM10),臭氧1小时",101,151,160,43,44,202,,120,120,7,23,5,7,0.6,0.6
2024-06-25T1200,3478A,113.9749,33.5664,漯河市,市图书馆,臭氧1小时,104,130,150,28,46,207,,115,115,7,24,7,6,0.5,0.5
2024-06-25T1200,3479A,114.0967,33.5906,漯河市,召陵区卫健委,臭氧1小时,100,140,158,43,50,200,,90,90,9,39,7,8,0.4,0.4
2024-06-25T1200,1798A,118.5092,31.6837,马鞍山市,湖东路四小,,48,48,34,25,22,79,,60,53,18,15,8,9,1.0,0.9
2024-06-25T1200,1799A,118.5024,31.6449,马鞍山市,开发区,细颗粒物(PM2.5),52,44,36,36,20,78,,55,47,20,19,12,10,1.1,0.9
2024-06-25T1200,1800A,118.5228,31.7231,马鞍山市,慈湖,,41,41,42,26,24,76,,60,56,27,26,15,12,0.9,1
2024-06-25T1200,1802A,118.6245,31.7241,马鞍山市,濮塘,,40,40,29,27,20,55,,41,41,15,12,3,2,1.0,0.9
2024-06-25T1200,3633A,118.4918,31.6809,马鞍山市,雨山,,45,45,37,29,20,83,,57,53,20,18,8,9,0.8,0.8
2024-06-25T1200,1686A,111.0286,21.4688,茂名市,电白南海,,,14,18,3,8,54,,,,,5,4,4,0.7,0.5
2024-06-25T1200,1687A,110.9294,21.6533,茂名市,茂石化七小,,17,17,11,9,8,33,,42,37,8,5,7,6,0.6,0.5
2024-06-25T1200,1688A,110.9107,21.6687,茂名市,健康路,,12,12,10,3,3,38,,47,44,11,7,10,9,0.5,0.5
2024-06-25T1200,1689A,110.8592,21.6828,茂名市,高岭,,17,17,14,9,8,45,,42,40,8,8,9,7,0.6,0.6
2024-06-25T1200,3450A,111.01,21.5165,茂名市,电白水东,,14,14,10,3,7,41,,51,43,12,6,3,3,0.5,0.4
2024-06-25T1200,2539A,104.0308,30.0478,眉山市,黑龙滩水库,,27,22,25,16,17,86,,58,58,4,8,4,4,0.4,0.4
2024-06-25T1200,2540A,103.8416,30.0874,眉山市,气象局,,27,26,23,17,18,85,,33,33,10,24,8,7,0.4,0.4
2024-06-25T1200,3137A,103.8578,30.0744,眉山市,市委党校,,27,27,25,14,12,85,,52,49,10,20,7,7,0.4,0.4
2024-06-25T1200,3148A,103.8291,30.0564,眉山市,区人社局,,38,38,29,12,12,90,,57,52,13,20,6,5,0.5,0.4
2024-06-25T1200,1690A,116.1231,24.3284,梅州市,梅江月梅,,,,26,5,8,44,,29,29,2,8,6,6,0.4,0.5
2024-06-25T1200,1691A,116.0797,24.2719,梅州市,梅县新城,,18,11,21,11,7,56,,30,30,3,10,3,4,0.4,0.5
2024-06-25T1200,1692A,116.1248,24.2654,梅州市,环境监控中心,,19,15,24,10,8,58,,28,28,13,15,4,4,0.4,0.4
2024-06-25T1200,3315A,116.1233,24.2991,梅州市,梅龙,,16,9,17,8,7,49,,23,23,4,11,8,9,0.4,0.5
2024-06-25T1200,1878A,104.7778,31.4741,绵阳市,富乐山,,45,26,46,16,29,143,,90,90,5,11,8,8,0.5,0.6
2024-06-25T1200,1879A,104.7563,31.4535,绵阳市,市人大,,42,38,51,11,24,132,,80,80,11,16,5,8,0.4,0.4
2024-06-25T1200,1880A,104.6697,31.4668,绵阳市,高新区自来水公司,,43,19,44,14,22,137,,66,66,5,21,5,6,0.4,0.5
2024-06-25T1200,1881A,104.7287,31.5075,绵阳市,三水厂,,45,33,51,22,32,143,,63,63,10,23,6,7,0.4,0.5
2024-06-25T1200,3491A,104.69,31.5322,绵阳市,西科大附属小学,,44,28,43,14,23,139,,54,54,11,25,6,7,0.4,0.5
2024-06-25T1200,3492A,104.5648,31.5343,绵阳市,安州区旅游局,,41,32,40,22,25,129,,54,54,9,20,6,8,0.4,0.5
2024-06-25T1200,1784A,129.61,44.561,牡丹江市,环保大楼,,19,,11,10,8,59,,35,35,7,6,6,7,0.3,0.3
2024-06-25T1200,1785A,129.6115,44.5782,牡丹江市,文化广场,,24,24,16,7,15,55,,32,32,10,8,6,7,0.4,0.4
2024-06-25T1200,1786A,129.5904,44.5963,牡丹江市,第一医院,,19,19,17,7,16,54,,32,32,12,7,4,4,0.4,0.4
2024-06-25T1200,1787A,129.6364,44.6075,牡丹江市,机车工厂,,24,24,19,11,16,65,,32,32,2,5,4,4,0.2,0.3
2024-06-25T1200,1788A,129.6386,44.5462,牡丹江市,第一中学,,,,12,,6,66,,35,35,8,8,,4,0.3,0.3
2024-06-25T1200,2531A,105.0703,29.61,内江市,市监测站,,32,,21,22,23,85,,43,43,20,20,6,6,0.6,0.6
2024-06-25T1200,2532A,105.0717,29.5947,内江市,东兴区政府,,28,22,31,7,11,89,,50,50,10,12,7,7,0.3,0.4
2024-06-25T1200,2533A,105.0653,29.5817,内江市,内江二中,,28,14,26,14,15,87,,48,48,16,19,11,10,0.5,0.5
2024-06-25T1200,2534A,105.0406,29.5822,内江市,内江日报社,,27,21,28,18,21,85,,47,47,14,22,12,10,0.6,0.6
2024-06-25T1200,2628A,92.0657,31.4846,那曲市,那曲监测站,,35,33,21,3,7,110,,107,97,12,7,7,7,0.4,0.4
2024-06-25T1200,3128A,92.0506,31.4797,那曲市,那曲会议中心,,36,14,12,6,9,114,,111,104,6,6,3,3,0.4,0.4
2024-06-25T1200,1290A,115.8931,28.6843,南昌市,省外办,,29,12,10,9,10,92,,93,93,16,14,6,6,0.3,0.3
2024-06-25T1200,1291A,115.8886,28.7003,南昌市,省林业公司,,31,7,6,7,6,98,,97,97,14,10,4,4,0.6,0.6
2024-06-25T1200,1292A,115.8126,28.7442,南昌市,林科所,,29,6,2,3,2,92,,104,102,12,21,8,7,0.7,0.8
2024-06-25T1200,1294A,115.8518,28.687,南昌市,建工学校,,30,16,12,15,9,96,,100,100,18,12,5,5,0.3,0.3
2024-06-25T1200,1295A,115.8921,28.6424,南昌市,象湖,,31,14,12,9,7,99,,105,104,14,8,4,4,0.3,0.3
2024-06-25T1200,1296A,115.7423,28.7996,南昌市,武术学校,,,17,14,14,11,91,,90,90,4,3,,3,0.4,0.4
2024-06-25T1200,1298A,115.9314,28.6842,南昌市,省站,,28,12,13,8,7,89,,93,93,15,15,6,6,0.5,0.4
2024-06-25T1200,3046A,115.9084,28.6062,南昌市,机电学校,,29,13,14,9,8,91,,99,97,18,13,7,7,0.6,0.6
2024-06-25T1200,3690A,115.9721,28.7031,南昌市,外国语学校,,,12,11,,8,87,,103,99,20,7,10,4,0.3,0.3
2024-06-25T1200,1905A,106.056,30.8064,南充市,西山风景区,,,,27,16,24,102,,61,61,,8,5,6,0.5,0.6
2024-06-25T1200,1906A,106.0789,30.8023,南充市,南充市委,,41,22,37,14,24,131,,83,83,8,13,6,6,0.3,0.4
2024-06-25T1200,1907A,106.1031,30.8217,南充市,南充炼油厂,,42,41,42,19,25,133,,80,80,11,13,7,8,0.2,0.3
2024-06-25T1200,1908A,106.1064,30.7856,南充市,高坪区监测站,,40,18,38,11,19,126,,68,68,9,12,5,5,0.2,0.3
2024-06-25T1200,1909A,106.0642,30.7636,南充市,嘉陵区环保局,,43,36,36,19,26,137,,80,80,8,12,3,5,0.2,0.3
2024-06-25T1200,1910A,106.1087,30.8388,南充市,市环境监测站,,40,36,42,25,25,127,,76,76,9,16,7,8,0.6,0.6
2024-06-25T1200,1151A,118.8086,32.1065,南京市,迈皋桥,颗粒物(PM10),53,56,46,36,26,110,,78,78,21,14,5,5,0.7,0.6
2024-06-25T1200,1152A,118.7538,32.0551,南京市,草场门,,,,39,,24,106,,78,78,,20,2,4,,0.7
2024-06-25T1200,1153A,118.7794,32.0745,南京市,山西路,颗粒物(PM10),51,51,46,24,23,123,,93,93,12,14,4,4,0.5,0.5
2024-06-25T1200,1154A,118.7752,32.0023,南京市,中华门,颗粒物(PM10),51,51,32,27,20,99,,67,67,17,18,6,7,0.5,0.6
2024-06-25T1200,1155A,118.8109,32.0309,南京市,瑞金路,颗粒物(PM10),56,61,42,36,24,102,,72,72,17,15,9,9,0.4,0.4
2024-06-25T1200,1156A,118.7997,32.0754,南京市,玄武湖,颗粒物(PM10),52,54,48,25,23,96,,72,72,2,4,2,3,0.3,0.3
2024-06-25T1200,1157A,118.6414,32.0931,南京市,浦口,,47,47,38,26,18,104,,52,52,16,13,5,5,0.4,0.5
2024-06-25T1200,1158A,118.7356,31.9996,南京市,奥体中心,颗粒物(PM10),56,62,36,31,23,130,,84,84,8,15,5,6,0.3,0.4
2024-06-25T1200,1159A,118.9125,32.1028,南京市,仙林大学城,颗粒物(PM10),58,66,56,39,28,103,,94,89,22,16,7,8,0.8,0.7
2024-06-25T1200,3422A,118.8436,31.9198,南京市,江宁彩虹桥,,45,32,38,31,18,106,,79,71,15,17,4,5,0.8,0.8
2024-06-25T1200,3423A,119.0138,31.6494,南京市,溧水永阳,,25,,20,10,15,78,,82,63,10,10,3,4,0.6,0.7
2024-06-25T1200,3424A,118.879,31.3302,南京市,高淳老职中,,,32,23,17,13,84,,64,62,6,9,4,5,,0.6
2024-06-25T1200,3427A,118.8554,32.3578,南京市,六合雄州,颗粒物(PM10),55,60,61,29,34,139,,110,110,1,7,6,7,0.5,0.6
2024-06-25T1200,1401A,108.3103,22.7881,南宁市,二十一中,,29,29,16,7,8,53,,37,37,8,10,2,2,0.6,0.6
2024-06-25T1200,1402A,108.3141,22.8528,南宁市,北湖,,31,31,16,9,7,49,,30,30,8,10,2,2,0.6,0.6
2024-06-25T1200,1403A,108.3206,22.8225,南宁市,市监测站,,,42,16,,9,50,,36,36,9,11,2,2,0.7,0.7
2024-06-25T1200,1404A,108.3829,22.8037,南宁市,大自然花园,,22,22,15,10,8,51,,34,34,6,11,4,4,0.4,0.4
2024-06-25T1200,1405A,108.4394,22.7904,南宁市,仙葫,,24,24,12,3,3,42,,30,30,10,15,9,10,0.9,0.7
2024-06-25T1200,1406A,108.2397,22.8467,南宁市,区农职院,,17,17,16,3,7,45,,31,31,13,12,5,5,0.5,0.5
2024-06-25T1200,1407A,108.3275,22.735,南宁市,英华嘉园,,13,12,14,7,7,39,,32,32,16,13,5,5,0.5,0.5
2024-06-25T1200,1408A,108.2257,22.7757,南宁市,沙井镇街道办,,18,18,22,8,10,36,,23,23,17,21,2,2,0.7,0.6
2024-06-25T1200,3401A,108.4834,22.7618,南宁市,红星社区,,25,25,14,10,7,47,,29,29,5,9,4,4,0.6,0.6
2024-06-25T1200,2331A,118.0966,26.6761,南平市,茫荡山,,,,,,,,,,,,,,,,
2024-06-25T1200,2332A,118.1681,26.6369,南平市,南平市监测站,,22,17,15,8,4,68,,26,26,8,12,4,5,0.6,0.6
2024-06-25T1200,2333A,118.1825,26.6489,南平市,南平铝业有限公司,,30,29,19,21,7,69,,26,26,9,12,7,6,0.5,0.5
2024-06-25T1200,2334A,118.1756,26.6272,南平市,南平七中,,29,29,19,10,6,64,,30,30,6,9,5,5,0.7,0.7
2024-06-25T1200,1168A,120.9098,31.9663,南通市,狼山街道,,,39,33,15,15,112,,118,116,7,5,9,10,,0.7
2024-06-25T1200,1169A,120.86,32.0005,南通市,虹桥,,36,28,36,13,16,113,,122,112,17,13,4,5,0.8,0.8
2024-06-25T1200,1170A,120.87,32.02,南通市,城中,颗粒物(PM10),53,56,46,24,22,112,,122,115,19,10,5,5,0.6,0.6
2024-06-25T1200,1171A,120.94,31.93,南通市,星湖花园,,38,35,29,19,15,120,,112,112,13,15,4,5,0.8,0.8
2024-06-25T1200,1172A,120.81,32.0417,南通市,紫琅学院,,42,42,31,12,16,126,,135,129,22,11,6,6,0.8,0.8
2024-06-25T1200,3291A,121.067,32.062,南通市,通州监测站,颗粒物(PM10),59,68,45,27,21,126,,135,130,3,3,10,10,0.7,0.7
2024-06-25T1200,3432A,120.9348,31.9883,南通市,环境教育馆,颗粒物(PM10),54,58,43,35,25,110,,122,113,18,17,7,8,0.6,0.6
2024-06-25T1200,2404A,112.5224,33.0122,南阳市,瓦房庄,颗粒物(PM10),95,139,149,40,38,193,,134,134,12,17,6,4,0.8,0.7
2024-06-25T1200,2405A,112.5003,32.9735,南阳市,汉画馆,颗粒物(PM10),103,156,155,52,48,198,,120,120,15,27,5,4,0.6,0.5
2024-06-25T1200,2406A,112.5573,33.027,南阳市,气象站,,,131,145,,33,200,,128,128,14,20,6,5,0.4,0.3
2024-06-25T1200,2407A,112.5481,32.9689,南阳市,理工学院,臭氧1小时,94,131,140,43,44,195,,125,125,16,24,5,5,0.5,0.4
2024-06-25T1200,4008A,112.5234,32.9922,南阳市,卧龙区政府,颗粒物(PM10),101,152,148,41,39,195,,133,133,14,23,,5,0.6,0.6
2024-06-25T1200,1234A,121.8358,29.911,宁波市,区环保大楼,,32,16,17,11,11,100,,72,72,29,36,6,6,0.8,0.9
2024-06-25T1200,1235A,121.56,29.82,宁波市,万里学院,,32,18,20,9,10,100,,51,51,22,24,6,6,0.6,0.7
2024-06-25T1200,1236A,121.713,29.9572,宁波市,龙赛医院,,36,15,18,7,10,115,,63,63,11,31,5,5,0.3,0.4
2024-06-25T1200,1239A,121.633,29.7733,宁波市,钱湖水厂,,34,15,18,9,9,106,,50,50,17,20,6,5,0.4,0.5
2024-06-25T1200,1240A,121.5856,29.8635,宁波市,太古小学,,32,24,19,8,10,100,,52,52,14,18,5,4,0.8,1
2024-06-25T1200,1241A,121.524,29.8674,宁波市,市环境监测中心,,37,16,18,9,9,117,,58,58,17,25,5,4,0.6,0.7
2024-06-25T1200,2871A,121.6147,29.9017,宁波市,万里国际学校,,,,16,,12,105,,47,47,14,26,5,4,,0.4
2024-06-25T1200,3710A,121.5594,29.8975,宁波市,白沙活动中心,,37,16,18,7,6,117,,57,57,16,20,8,7,0.3,0.4
2024-06-25T1200,2339A,119.5001,26.6946,宁德市,金涵水库,,,,,,,,,,,,,,,,
2024-06-25T1200,2341A,119.5388,26.6612,宁德市,宁德市监测站,颗粒物(PM10),61,72,28,14,5,102,,61,61,9,9,7,6,0.7,0.4
2024-06-25T1200,3209A,119.5231,26.6562,宁德市,宁德一中,,39,39,16,27,6,103,,63,63,10,5,6,5,0.9,0.6
2024-06-25T1200,2618A,98.8601,25.8567,怒江傈僳族自治州,州监测站,,19,,16,13,11,50,,32,32,6,13,10,10,0.5,0.5
2024-06-25T1200,2619A,98.8546,25.8417,怒江傈僳族自治州,泸水一中,,13,,15,3,9,41,,24,24,10,13,5,5,0.3,0.4
2024-06-25T1200,1888A,101.6891,26.571,攀枝花市,弄弄坪,,32,32,40,9,16,61,,32,32,17,23,14,18,0.6,0.7
2024-06-25T1200,1889A,101.5769,26.5928,攀枝花市,河门口,,22,22,20,11,10,48,,34,31,14,15,5,5,0.9,0.8
2024-06-25T1200,1890A,101.7169,26.585,攀枝花市,炳草岗,颗粒物(PM10),55,60,45,24,22,39,,31,26,38,34,45,39,1.3,1
2024-06-25T1200,1891A,101.7369,26.5008,攀枝花市,仁和,颗粒物(PM10),55,60,21,33,12,54,,32,32,31,16,45,11,2.1,0.5
2024-06-25T1200,2835A,101.7227,26.567,攀枝花市,四十中小,,31,31,24,16,12,60,,38,37,26,24,30,32,1.1,0.9
2024-06-25T1200,1604A,122.0303,41.1489,盘锦市,开发区,,43,28,16,6,10,136,,62,62,11,18,15,6,0.1,0.1
2024-06-25T1200,1605A,122.0485,41.0883,盘锦市,兴隆台,,,16,19,6,9,127,,52,52,14,24,,5,0.3,0.2
2024-06-25T1200,1606A,121.8297,41.1028,盘锦市,新生街道,,36,24,34,8,10,115,,62,62,15,23,14,11,0.3,0.2
2024-06-25T1200,1832A,113.3257,33.742,平顶山市,新华旅馆,臭氧1小时,106,145,144,40,37,211,,105,105,12,33,8,8,0.6,0.5
2024-06-25T1200,1833A,113.2919,33.737,平顶山市,规划设计院,臭氧1小时,102,132,124,38,37,203,,98,98,10,12,7,6,0.5,0.5
2024-06-25T1200,1834A,113.182,33.774,平顶山市,平顶山工学院,颗粒物(PM10),102,153,119,41,34,197,,100,100,10,22,8,6,0.6,0.5
2024-06-25T1200,3204A,113.3025,33.73,平顶山市,规划局,颗粒物(PM10),101,151,145,46,41,195,,88,88,12,30,6,6,0.7,0.6
2024-06-25T1200,3594A,112.8867,33.9116,平顶山市,石龙区,颗粒物(PM10),117,183,188,42,45,194,,85,85,6,35,8,13,0.6,0.5
2024-06-25T1200,2656A,106.6692,35.5461,平凉市,聚贤嘉苑,颗粒物(PM10),51,52,53,16,16,155,,107,107,12,22,14,13,0.4,0.3
2024-06-25T1200,2657A,106.7021,35.5307,平凉市,博物馆,,50,50,49,18,17,156,,105,105,16,30,6,7,0.4,0.4
2024-06-25T1200,2347A,114.0997,27.5002,萍乡市,武功山,,23,,6,3,3,71,,84,70,7,4,6,7,0.4,0.4
2024-06-25T1200,2348A,113.8385,27.6434,萍乡市,中医院,,25,8,14,3,12,78,,85,73,12,10,2,6,0.6,0.7
2024-06-25T1200,2349A,113.8493,27.6253,萍乡市,市政府车库,,,3,14,,17,75,,82,71,5,6,7,11,0.5,1.1
2024-06-25T1200,2350A,113.8676,27.6435,萍乡市,市环保局,,21,6,15,3,11,67,,81,70,9,5,4,9,0.3,0.4
2024-06-25T1200,2351A,113.866,27.6198,萍乡市,安源区政府,,23,10,15,3,8,73,,82,72,4,7,3,7,0.3,1.8
2024-06-25T1200,2319A,119.0141,25.4325,莆田市,荔城区仓后路,,36,36,27,8,8,88,,46,46,7,10,7,7,0.6,0.6
2024-06-25T1200,2320A,119.0015,25.4553,莆田市,莆田市监测站,,43,43,27,9,8,83,,42,42,8,9,9,9,0.6,0.6
2024-06-25T1200,2321A,119.1119,25.4561,莆田市,涵江区六中,,30,28,27,6,8,96,,41,41,8,16,9,10,0.5,0.5
2024-06-25T1200,2322A,119.1013,25.3215,莆田市,秀屿区政府,,25,21,20,3,2,80,,46,46,6,11,10,10,0.4,0.4
2024-06-25T1200,2323A,118.981,25.4792,莆田市,东圳水库,,,,,,,,,,,,,,,,
2024-06-25T1200,2392A,115.0312,35.7636,濮阳市,环保局,臭氧1小时,74,93,111,29,34,179,,117,117,10,20,10,16,0.4,0.3
2024-06-25T1200,2394A,115.0574,35.7609,濮阳市,油田运输公司,臭氧1小时,94,81,103,35,35,195,,124,124,11,18,9,11,0.3,0.4
2024-06-25T1200,2395A,115.0866,35.7754,濮阳市,油田物探公司,臭氧1小时,101,98,110,37,38,202,,120,120,11,21,14,17,0.6,0.6
2024-06-25T1200,3021A,115,35.7668,濮阳市,濮水河管理处,颗粒物(PM10),71,91,98,32,38,168,,92,92,6,22,8,9,0.3,0.3
2024-06-25T1200,2601A,100.98,22.7633,普洱市,市环保局,,20,14,14,9,12,63,,39,39,5,7,12,12,0.4,0.4
2024-06-25T1200,2602A,100.9817,22.8322,普洱市,普洱第二中学,,20,8,13,3,11,61,,31,31,4,7,10,10,0.5,0.5
2024-06-25T1200,2262A,131.0518,45.8751,七台河市,新一中,,21,,4,3,4,65,,54,54,5,5,9,9,0.4,0.5
2024-06-25T1200,3345A,131.0577,45.7879,七台河市,中波台,,19,,7,8,7,59,,51,51,7,8,5,6,0.3,0.3
2024-06-25T1200,3637A,131.0176,45.7761,七台河市,人民广场,,18,7,4,3,6,56,,48,48,5,7,9,10,0.1,0.2
2024-06-25T1200,3684A,130.8781,45.8222,七台河市,新建矿广场,,19,,2,8,10,60,,52,52,12,11,9,9,0.1,0.1
2024-06-25T1200,1779A,123.9305,47.3636,齐齐哈尔市,安居小区,,,,20,,9,99,,57,57,7,12,5,6,0.3,0.3
2024-06-25T1200,1780A,123.9488,47.3386,齐齐哈尔市,中心广场,,30,28,19,9,7,94,,61,61,11,12,8,8,0.3,0.3
2024-06-25T1200,1781A,123.9483,47.3227,齐齐哈尔市,农牧车辆厂,,32,31,26,3,5,100,,64,64,8,10,7,7,0.2,0.2
2024-06-25T1200,1783A,123.945,47.2988,齐齐哈尔市,市环境监测站,,32,24,18,8,9,100,,63,63,8,10,6,5,0.2,0.2
2024-06-25T1200,3662A,123.6333,47.2075,齐齐哈尔市,富区青少年活动中心,,31,,15,3,5,97,,63,63,6,12,5,5,0.3,0.4
2024-06-25T1200,2591A,107.9783,26.5747,黔东南苗族侗族自治州,市环境监测站,,27,9,12,7,8,86,,82,82,10,8,3,3,0.4,0.5
2024-06-25T1200,2881A,107.8908,26.5311,黔东南苗族侗族自治州,凯里学院,,29,13,13,6,7,91,,74,74,8,8,3,3,0.2,0.2
2024-06-25T1200,2593A,107.5228,26.2403,黔南布依族苗族自治州,小围寨,,20,,13,7,7,62,,67,64,6,5,4,5,0.4,0.4
2024-06-25T1200,3538A,107.5175,26.2978,黔南布依族苗族自治州,沙坝,,20,9,12,3,6,64,,75,69,2,2,3,4,0.5,0.5
2024-06-25T1200,2589A,104.9022,25.0925,黔西南布依族苗族自治州,场坝街,,25,12,14,3,7,80,,64,64,10,18,10,22,0.2,0.4
2024-06-25T1200,2590A,104.8811,25.0992,黔西南布依族苗族自治州,坪东大道,,26,9,13,7,7,81,,61,61,6,15,6,9,0.3,0.4
2024-06-25T1200,2502A,108.6236,21.9667,钦州市,市环保站,,12,12,10,3,2,36,,32,30,14,14,5,5,0.6,0.6
2024-06-25T1200,2503A,108.6549,21.9481,钦州市,沙埠小学,,,,15,,6,33,,28,28,14,15,5,5,0.5,0.4
2024-06-25T1200,2504A,108.5989,21.7431,钦州市,港区一小,,25,25,14,7,5,23,,37,31,20,13,7,7,0.5,0.6
2024-06-25T1200,3404A,108.5959,21.9633,钦州市,北职校,,13,6,12,6,7,39,,29,28,11,15,7,7,0.5,0.6
2024-06-25T1200,1042A,119.5134,39.8207,秦皇岛市,北戴河环保局,,39,30,41,3,9,123,,69,69,17,22,5,4,0.2,0.4
2024-06-25T1200,1043A,119.7493,40.0116,秦皇岛市,第一关,,34,29,42,17,13,108,,69,69,8,33,3,2,0.2,0.4
2024-06-25T1200,1044A,119.5897,39.9499,秦皇岛市,监测站,,38,38,50,6,13,106,,63,63,6,31,2,4,0.3,0.6
2024-06-25T1200,1046A,119.5251,39.9041,秦皇岛市,建设大厦,,33,13,45,8,12,105,,58,58,8,35,3,5,0.1,0.5
2024-06-25T1200,3132A,119.610547,39.943889,秦皇岛市,文明里,,36,29,55,8,17,114,,67,67,6,28,3,4,0.3,0.6
2024-06-25T1200,1307A,120.6659,36.2403,青岛市,仰口,,39,24,29,9,14,122,,104,104,5,6,4,4,0.1,0.2
2024-06-25T1200,1310A,120.4134,36.0658,青岛市,市南区东部子站,颗粒物(PM10),87,124,101,24,20,111,,87,87,15,17,9,8,0.4,0.4
2024-06-25T1200,1311A,120.3664,36.1032,青岛市,四方区子站,,44,44,84,12,24,130,,99,99,15,18,10,10,0.4,0.5
2024-06-25T1200,1312A,120.2994,36.054,青岛市,市南区西部子站,颗粒物(PM10),92,134,117,37,27,106,,71,71,14,21,8,8,0.5,0.4
2024-06-25T1200,1313A,120.4581,36.0858,青岛市,崂山区子站,颗粒物(PM10),86,122,84,44,23,91,,79,79,38,20,11,10,0.5,0.4
2024-06-25T1200,1314A,120.1983,35.9608,青岛市,黄岛区子站,颗粒物(PM10),65,80,100,32,30,119,,97,97,7,12,6,6,0.4,0.5
2024-06-25T1200,1315A,120.3999,36.3083,青岛市,城阳区子站,,46,46,47,12,14,138,,106,106,18,22,8,7,0.3,0.4
2024-06-25T1200,1966A,120.0405,35.8735,青岛市,黄岛区4号,颗粒物(PM10),73,95,123,29,30,122,,103,103,12,17,10,9,0.4,0.4
2024-06-25T1200,3362A,120.5014,36.4034,青岛市,即墨2号,臭氧1小时,57,55,47,20,15,165,,113,113,16,18,8,7,0.4,0.4
2024-06-25T1200,3642A,120.3503,36.0736,青岛市,市北区南部,,,,94,29,27,118,,105,105,8,15,,8,0.3,0.4
2024-06-25T1200,3643A,120.3948,36.1805,青岛市,李沧区北部,,48,48,70,14,23,137,,102,102,18,27,10,10,0.3,0.4
2024-06-25T1200,1702A,113.0426,23.691,清远市,环保大楼,,20,16,16,7,9,62,,21,21,14,21,6,9,0.6,0.5
2024-06-25T1200,1703A,113.0208,23.7106,清远市,凤城街办,,19,19,22,10,10,54,,19,19,11,18,2,4,0.3,0.4
2024-06-25T1200,3025A,113.0477,23.6344,清远市,技师学院,,22,16,24,7,10,68,,34,34,10,21,5,5,0.5,0.5
2024-06-25T1200,3318A,112.9903,23.7403,清远市,清新太和,,16,12,12,9,6,51,,23,23,13,16,7,6,0.6,0.5
2024-06-25T1200,3455A,113.076,23.7198,清远市,清城东城,,29,29,24,14,11,56,,21,21,11,11,5,5,0.6,0.6
2024-06-25T1200,2661A,107.6325,35.7357,庆阳市,庆阳五中,颗粒物(PM10),69,87,136,28,46,150,,137,133,10,11,4,5,0.4,0.3
2024-06-25T1200,2662A,107.6364,35.7067,庆阳市,市环保局,颗粒物(PM10),66,82,135,25,36,149,,140,137,7,8,5,6,0.5,0.4
2024-06-25T1200,1916A,103.7897,25.5035,曲靖市,环境监测站,,30,11,16,7,7,95,,76,73,11,8,8,3,0.7,0.5
2024-06-25T1200,1917A,103.8,25.5364,曲靖市,烟厂办公区,,29,18,14,3,7,90,,79,75,11,6,6,4,0.7,0.4
2024-06-25T1200,3376A,103.7947,25.462,曲靖市,南苑二区,,,,14,,7,94,,83,79,9,10,8,7,0.6,0.6
2024-06-25T1200,3377A,103.7444,25.5261,曲靖市,曲靖师范学院,,31,16,13,12,7,98,,85,84,8,9,8,5,0.6,0.4
2024-06-25T1200,1264A,118.8692,28.9398,衢州市,环保大楼,,24,11,16,8,10,76,,86,83,18,15,5,4,0.3,0.3
2024-06-25T1200,1265A,118.8709,28.9666,衢州市,实验学校,,26,8,15,3,7,82,,79,78,8,12,4,5,0.1,0.2
2024-06-25T1200,1266A,118.8621,28.9808,衢州市,衢州学院,,24,8,13,3,8,74,,79,77,13,13,3,3,0.4,0.3
2024-06-25T1200,1611A,118.5819,24.9117,泉州市,涂山街,,20,20,24,6,7,63,,39,39,5,13,3,4,0.5,0.5
2024-06-25T1200,1612A,118.5972,24.8978,泉州市,津头埔,,26,20,21,18,7,63,,41,41,8,14,2,3,0.4,0.4
2024-06-25T1200,1613A,118.6663,24.9424,泉州市,万安,,25,25,24,12,7,68,,42,42,4,10,2,2,0.3,0.3
2024-06-25T1200,1614A,118.6117,24.9604,泉州市,清源山,,,,,,,,,,,,,,,,
2024-06-25T1200,3529A,118.6333,24.9264,泉州市,城华南路,,20,18,18,9,8,62,,40,40,7,12,3,3,0.4,0.4
2024-06-25T1200,2626A,88.8876,29.2718,日喀则市,日喀则监测站,,39,9,8,3,4,124,,114,113,7,7,5,5,0.6,0.5
2024-06-25T1200,3726A,88.8781,29.2426,日喀则市,林业技术推广中心,,40,15,10,3,2,126,,112,108,11,9,6,6,0.6,0.6
2024-06-25T1200,1659A,119.471,35.4209,日照市,监测站,颗粒物(PM10),64,78,134,24,40,121,,66,66,25,38,11,11,0.3,0.5
2024-06-25T1200,1660A,119.523,35.4216,日照市,市政府广场,,46,46,139,12,39,132,,72,72,5,22,10,11,0.3,0.6
2024-06-25T1200,1661A,119.5587,35.4044,日照市,港务局,颗粒物(PM10),85,119,151,22,33,127,,72,72,9,21,9,10,0.5,0.5
2024-06-25T1200,3507A,119.5328,35.4625,日照市,职业技术学院,颗粒物(PM10),58,66,140,17,40,128,,80,80,12,21,8,9,0.5,0.6
2024-06-25T1200,3604A,119.3266,35.1044,日照市,岚山环保分局,颗粒物(PM10),63,75,146,22,42,124,,94,94,12,16,8,8,0.4,0.5
2024-06-25T1200,1835A,111.1922,34.7752,三门峡市,市政府,颗粒物(PM10),94,137,133,31,31,172,,125,125,13,19,14,13,0.6,0.5
2024-06-25T1200,1836A,111.1587,34.7942,三门峡市,开发区,臭氧1小时,98,144,151,55,46,198,,142,142,17,16,17,14,0.5,0.4
2024-06-25T1200,1838A,111.143,34.7955,三门峡市,风景区,,,,,,,,,,,,,,,,
2024-06-25T1200,3039A,111.1911,34.7829,三门峡市,三门峡市第一小学,颗粒物(PM10),103,156,147,41,34,182,,135,135,11,12,15,13,0.6,0.5
2024-06-25T1200,3598A,111.1,34.7167,三门峡市,富达温泉假日酒店,颗粒物(PM10),89,128,140,38,40,167,,134,134,10,15,13,14,0.4,0.4
2024-06-25T1200,2324A,117.6211,26.2625,三明市,三钢,,34,34,25,20,11,59,,22,22,18,19,13,15,1.4,1
2024-06-25T1200,2325A,117.635,26.2714,三明市,三明二中,,33,33,21,17,10,64,,22,22,14,18,12,12,1.1,1
2024-06-25T1200,2326A,117.6028,26.2378,三明市,三元区政府,,32,32,29,20,10,60,,22,22,13,12,11,4,1.0,0.7
2024-06-25T1200,2327A,117.7275,26.3108,三明市,洋溪,,,,,,,,,,,,,,,,
2024-06-25T1200,1876A,109.5078,18.2489,三亚市,河东子站,,17,17,19,9,5,52,,36,36,3,7,3,3,0.4,0.4
2024-06-25T1200,1877A,109.4964,18.2681,三亚市,河西子站,,,13,17,8,5,52,,29,29,3,7,,1,0.3,0.4
2024-06-25T1200,3540A,109.7348,18.3443,三亚市,君悦子站,,27,27,19,7,4,57,,26,26,4,7,2,1,0.4,0.4
2024-06-25T1200,2624A,91.7608,29.2313,山南市,山南监测站,,33,12,6,3,4,105,,118,110,12,5,6,5,0.3,0.2
2024-06-25T1200,2625A,91.7706,29.2436,山南市,山南人民医院,,31,16,11,7,6,97,,118,108,17,8,6,6,0.3,0.3
2024-06-25T1200,1674A,116.6794,23.3667,汕头市,金平子站,,,24,11,8,3,,,46,46,3,6,5,5,0.9,0.9
2024-06-25T1200,1675A,116.7244,23.3633,汕头市,龙湖子站,,18,18,13,7,5,54,,40,40,5,7,5,5,0.6,0.6
2024-06-25T1200,1676A,116.7258,23.2775,汕头市,濠江子站,,19,17,21,3,6,58,,45,45,1,4,4,4,0.9,0.8
2024-06-25T1200,1677A,116.7519,23.4714,汕头市,澄海子站,,15,14,14,9,9,45,,35,35,6,10,4,4,0.7,0.7
2024-06-25T1200,1678A,116.6092,23.2539,汕头市,潮阳子站,,20,20,15,9,7,57,,43,43,1,4,4,4,0.5,0.5
2024-06-25T1200,3444A,116.454,23.2684,汕头市,潮南峡山,,15,6,8,3,0,46,,34,34,2,6,4,4,0.6,0.5
2024-06-25T1200,3624A,116.4069,23.2533,汕头市,潮南子站,,15,11,14,3,4,48,,37,37,1,5,6,6,0.6,0.6
2024-06-25T1200,1693A,115.3653,22.775,汕尾市,市环保局,,15,9,16,3,4,46,,38,38,2,2,5,5,0.4,0.4
2024-06-25T1200,1694A,115.3706,22.7898,汕尾市,市政府,,16,,14,11,8,49,,42,42,1,2,7,6,0.5,0.5
2024-06-25T1200,1695A,115.3622,22.7925,汕尾市,新城中学,,16,10,16,3,4,50,,41,41,2,2,4,4,0.4,0.5
2024-06-25T1200,2645A,109.9154,33.8715,商洛市,监测站,颗粒物(PM10),101,151,138,48,38,162,,102,102,9,11,12,9,0.6,0.5
2024-06-25T1200,3045A,109.9643,33.8471,商洛市,商州区中学,颗粒物(PM10),122,194,153,51,42,164,,102,102,8,15,8,10,0.5,0.5
2024-06-25T1200,2408A,115.6702,34.4285,商丘市,环境监测站,臭氧1小时,101,147,137,43,38,202,,133,133,7,14,9,10,0.5,0.4
2024-06-25T1200,2409A,115.6458,34.4045,商丘市,粮食局,颗粒物(PM10),93,135,138,40,36,192,,136,136,9,14,6,6,0.5,0.5
2024-06-25T1200,2410A,115.6293,34.3948,商丘市,睢阳区环保局,颗粒物(PM10),108,165,156,47,41,204,,140,140,11,16,7,7,0.5,0.4
2024-06-25T1200,3171A,115.6071,34.4465,商丘市,梁园区档案局,颗粒物(PM10),103,156,141,33,52,200,,146,146,8,11,10,10,0.6,0.5
2024-06-25T1200,1141A,121.4,31.238,上海市,普陀,,33,28,30,14,18,103,,76,76,24,30,4,5,0.5,0.5
2024-06-25T1200,1142A,121.478,31.2036,上海市,十五厂,,32,25,27,22,21,95,,77,77,33,31,6,6,0.6,0.6
2024-06-25T1200,1143A,121.467,31.3008,上海市,虹口,,36,30,32,25,25,104,,72,72,26,29,5,5,0.6,0.6
2024-06-25T1200,1144A,121.412,31.1654,上海市,徐汇上师大,,31,31,26,19,22,84,,76,76,36,30,6,6,0.7,0.7
2024-06-25T1200,1145A,121.536,31.2659,上海市,杨浦四漂,,33,33,29,19,20,93,,80,80,34,31,6,6,0.8,0.8
2024-06-25T1200,1147A,121.425,31.2261,上海市,静安监测站,,32,32,30,20,25,97,,78,78,27,29,7,7,0.5,0.5
2024-06-25T1200,1148A,121.703,31.1907,上海市,浦东川沙,,29,24,30,20,30,90,,62,62,31,35,6,6,0.7,0.7
2024-06-25T1200,1149A,121.533,31.2284,上海市,浦东新区监测站,,28,28,27,18,20,88,,70,70,33,34,4,4,0.7,0.8
2024-06-25T1200,1150A,121.577,31.2071,上海市,浦东张江,,30,28,28,21,24,90,,71,71,38,37,5,5,0.8,0.8
2024-06-25T1200,3265A,121.4316,31.3322,上海市,宝山庙行,,36,23,30,21,25,113,,69,69,20,28,7,8,0.7,0.7
2024-06-25T1200,3266A,121.8791,31.4662,上海市,崇明上实东滩,,29,27,29,20,20,89,,75,75,34,28,9,8,0.7,0.7
2024-06-25T1200,3268A,121.3162,31.2838,上海市,嘉定南翔,,28,24,28,15,22,87,,60,60,32,33,5,5,0.7,0.7
2024-06-25T1200,3269A,121.3359,30.7456,上海市,金山新城,,33,23,25,20,23,103,,84,84,26,25,7,7,0.5,0.4
2024-06-25T1200,3270A,121.4996,31.0739,上海市,闵行浦江,,40,34,27,28,25,70,,55,55,27,33,6,6,0.6,0.6
2024-06-25T1200,3271A,121.2886,31.1663,上海市,青浦徐泾,,35,32,27,24,23,79,,66,66,34,28,5,5,0.5,0.5
