timepoint,stationcode,longitude,latitude,area,positionname,primarypollutant,aqi,pm10,pm10_24h,pm2_5,pm2_5_24h,o3,o3_24h,o3_8h,o3_8h_24h,no2,no2_24h,so2,so2_24h,co,co_24h
2022-06-17T21:00:00,1001A,116.3621,39.8784,北京市,万寿西宫,颗粒物(PM10),79,107,79,28,37,244,180,216,211,30,29,1,4,1.1,1.2
2022-06-17T21:00:00,1002A,116.2202,40.2915,北京市,定陵(对照点),臭氧1小时,94,61,53,29,33,229,195,200,200,16,12,1,2,0.7,0.5
2022-06-17T21:00:00,1003A,116.4174,39.9289,北京市,东四,臭氧1小时,103,104,83,39,40,255,205,227,227,21,22,1,4,0.9,1
2022-06-17T21:00:00,1004A,116.4072,39.8863,北京市,天坛,颗粒物(PM10),77,104,77,40,37,221,173,196,192,19,19,1,4,0.9,1
2022-06-17T21:00:00,1005A,116.462,39.9365,北京市,农展馆,臭氧1小时,105,109,91,31,36,249,209,223,223,19,27,2,5,0.8,1
2022-06-17T21:00:00,1006A,116.3392,39.9295,北京市,官园,臭氧1小时,75,86,70,23,34,249,180,219,218,19,19,3,5,0.9,1
2022-06-17T21:00:00,1007A,116.2878,39.9611,北京市,海淀万柳,臭氧1小时,70,71,84,34,40,241,176,216,214,24,35,2,3,0.8,0.9
2022-06-17T21:00:00,1008A,116.6636,40.135,北京市,顺义新城,颗粒物(PM10),71,91,89,26,36,201,153,180,180,14,14,1,3,0.7,0.9
2022-06-17T21:00:00,1009A,116.6275,40.3275,北京市,怀柔镇,臭氧1小时,85,75,59,35,36,240,188,207,207,19,15,3,2,0.9,0.7
2022-06-17T21:00:00,1010A,116.2296,40.217,北京市,昌平镇,臭氧1小时,70,82,60,44,35,216,176,198,198,21,16,1,2,1.1,0.7
2022-06-17T21:00:00,1011A,116.3966,39.9821,北京市,奥体中心,臭氧1小时,88,107,92,47,38,218,190,205,205,20,33,1,2,0.8,1
2022-06-17T21:00:00,1012A,116.184,39.9136,北京市,古城,臭氧1小时,53,45,70,21,36,258,162,230,225,18,23,1,2,0.6,0.8
2022-06-17T21:00:00,1015A,117.1444,39.1661,天津市,勤俭道,颗粒物(PM10),73,95,90,47,61,265,121,218,203,33,28,9,10,1.0,0.9
2022-06-17T21:00:00,1017A,117.237,39.1082,天津市,大直沽八号路,颗粒物(PM10),71,91,85,32,32,252,116,201,186,34,32,9,8,0.6,0.8
2022-06-17T21:00:00,1018A,117.202,39.0927,天津市,前进道,,,,58,,51,242,,210,192,,31,,11,,1.1
2022-06-17T21:00:00,1019A,117.1837,39.2133,天津市,淮河道,细颗粒物(PM2.5),65,78,105,47,68,266,143,225,210,29,30,11,12,0.9,1
2022-06-17T21:00:00,1021A,117.307,39.0877,天津市,跃进路,颗粒物(PM10),68,86,89,29,26,241,113,189,174,37,34,10,9,0.6,0.8
2022-06-17T21:00:00,1023A,117.707,39.0343,天津市,第四大街,细颗粒物(PM2.5),72,84,65,52,39,170,114,151,144,35,32,6,7,0.7,0.7
2022-06-17T21:00:00,1024A,117.457,38.8394,天津市,永明路,细颗粒物(PM2.5),53,48,43,37,31,179,155,176,173,13,11,10,11,0.6,0.6
2022-06-17T21:00:00,1026A,117.764,39.1587,天津市,汉北路,"颗粒物(PM10),细颗粒物(PM2.5)",55,59,56,39,39,192,142,176,172,20,20,6,6,1.2,0.9
2022-06-17T21:00:00,1027A,117.157,38.9194,天津市,团泊洼(对照点),颗粒物(PM10),54,57,68,32,28,252,154,223,210,10,14,8,10,1.1,1.1
2022-06-17T21:00:00,1029A,114.4422,38.0444,石家庄市,职工医院,臭氧1小时,115,136,95,54,41,302,230,278,276,28,18,5,6,0.7,0.6
2022-06-17T21:00:00,1030A,114.6063,38.0266,石家庄市,高新区,颗粒物(PM10),115,180,104,72,50,284,200,258,256,51,28,8,9,0.9,0.7
2022-06-17T21:00:00,1031A,114.4898,38.1328,石家庄市,西北水源,臭氧1小时,117,152,95,56,49,273,233,259,259,24,21,6,7,0.7,0.6
2022-06-17T21:00:00,1032A,114.4586,38.0058,石家庄市,西南高教,臭氧1小时,118,119,88,68,49,283,235,266,264,28,18,9,9,0.9,0.6
2022-06-17T21:00:00,1033A,114.5331,38.0178,石家庄市,世纪公园,臭氧1小时,110,142,95,72,47,276,220,260,259,34,23,8,9,0.9,0.6
2022-06-17T21:00:00,1034A,114.509,38.0457,石家庄市,人民会堂,臭氧1小时,117,129,87,56,43,300,234,277,276,36,23,10,10,0.9,0.7
2022-06-17T21:00:00,1035A,114.3524,37.8911,石家庄市,封龙山(对照点),臭氧1小时,132,169,96,70,45,293,264,274,274,26,17,14,14,0.8,0.6
2022-06-17T21:00:00,1037A,118.131,39.6363,唐山市,雷达站,颗粒物(PM10),61,72,87,39,47,207,138,189,178,16,18,6,6,1.3,1.3
2022-06-17T21:00:00,1038A,118.1725,39.6334,唐山市,物资局,颗粒物(PM10),62,73,86,42,52,209,134,190,177,21,20,9,10,1.5,1.5
2022-06-17T21:00:00,1040A,118.1705,39.6506,唐山市,十二中,,,68,81,58,63,208,118,184,172,,25,8,9,1.2,1.4
2022-06-17T21:00:00,1041A,118.1869,39.622,唐山市,小山,细颗粒物(PM2.5),75,83,82,55,57,215,137,193,181,17,20,6,6,1.3,1.1
2022-06-17T21:00:00,1042A,119.5134,39.8207,秦皇岛市,北戴河环保局,颗粒物(PM10),58,65,67,19,25,178,154,161,161,5,7,6,7,0.3,0.3
2022-06-17T21:00:00,1043A,119.7493,40.0116,秦皇岛市,第一关,,48,48,54,24,31,172,146,155,155,15,31,11,12,0.4,0.3
2022-06-17T21:00:00,1044A,119.5897,39.9499,秦皇岛市,监测站,细颗粒物(PM2.5),53,47,59,37,42,171,160,157,157,10,23,5,7,0.2,0.2
2022-06-17T21:00:00,1046A,119.5251,39.9041,秦皇岛市,建设大厦,颗粒物(PM10),51,51,55,33,29,172,158,159,159,3,18,4,6,0.4,0.4
2022-06-17T21:00:00,1048A,114.5302,36.6116,邯郸市,东污水处理厂,臭氧1小时,105,86,80,52,50,309,210,284,277,36,16,8,9,1.1,1
2022-06-17T21:00:00,1049A,114.4918,36.5713,邯郸市,矿院,臭氧1小时,116,94,74,55,49,299,232,284,280,21,15,49,12,1.0,1
2022-06-17T21:00:00,1050A,114.484,36.6133,邯郸市,丛台公园,臭氧1小时,125,58,67,55,48,305,249,290,287,19,18,9,7,0.8,0.8
2022-06-17T21:00:00,1051A,115.493,38.8632,保定市,游泳馆,颗粒物(PM10),73,95,64,27,36,269,169,239,235,13,20,1,5,0.4,0.5
2022-06-17T21:00:00,1052A,115.5213,38.8959,保定市,华电二区,颗粒物(PM10),135,219,87,38,34,266,161,232,228,12,22,10,10,0.4,0.6
2022-06-17T21:00:00,1053A,115.4713,38.9108,保定市,接待中心,颗粒物(PM10),94,138,89,23,40,272,170,242,238,16,23,3,5,0.7,0.8
2022-06-17T21:00:00,1054A,115.4612,38.8416,保定市,地表水厂,颗粒物(PM10),126,202,86,34,35,259,166,228,225,10,17,6,7,0.5,0.7
2022-06-17T21:00:00,1055A,115.4323,38.8697,保定市,胶片厂,颗粒物(PM10),94,138,65,32,32,277,178,248,244,11,18,7,9,0.6,0.8
2022-06-17T21:00:00,1056A,115.5086,38.8639,保定市,监测站,颗粒物(PM10),121,191,80,36,36,270,173,241,237,12,21,10,10,0.4,0.6
2022-06-17T21:00:00,1057A,114.8883,40.8336,张家口市,人民公园,,42,29,50,6,27,211,134,186,163,13,13,4,5,0.4,0.6
2022-06-17T21:00:00,1059A,114.8687,40.8042,张家口市,五金库,,40,24,62,17,30,216,128,192,162,20,21,6,6,0.2,0.4
2022-06-17T21:00:00,1060A,114.8902,40.762,张家口市,世纪豪园,,40,30,71,14,48,216,127,200,168,17,18,5,6,0.3,0.5
2022-06-17T21:00:00,1061A,114.8916,40.8661,张家口市,北泵房(对照点),,42,16,49,14,34,181,132,181,133,10,10,7,8,0.6,0.7
2022-06-17T21:00:00,1062A,117.9531,40.9081,承德市,铁路,臭氧1小时,73,85,64,42,39,183,178,171,171,25,21,5,3,1.1,0.7
2022-06-17T21:00:00,1063A,117.9392,40.9763,承德市,中国银行,臭氧1小时,80,58,53,50,42,200,184,184,184,17,17,6,5,1.0,0.6
2022-06-17T21:00:00,1064A,117.9503,40.928,承德市,开发区,臭氧1小时,99,83,64,34,38,203,199,190,190,19,20,8,6,1.1,0.7
2022-06-17T21:00:00,1065A,117.8051,40.9655,承德市,文化中心,臭氧1小时,105,58,58,45,50,223,209,200,200,9,18,7,11,1.1,0.7
2022-06-17T21:00:00,1066A,117.9268,41.0026,承德市,离宫(对照点),颗粒物(PM10),58,66,56,39,34,199,154,182,157,12,11,8,8,1.0,0.6
2022-06-17T21:00:00,1067A,116.6708,39.5111,廊坊市,药材公司,臭氧1小时,75,79,86,47,56,262,180,233,232,26,24,6,6,0.7,0.9
2022-06-17T21:00:00,1068A,116.7214,39.5589,廊坊市,开发区,臭氧1小时,75,71,76,46,59,258,180,227,227,31,34,9,9,0.7,0.9
2022-06-17T21:00:00,1070A,116.7244,39.5269,廊坊市,北华航天学院,颗粒物(PM10),70,90,101,33,50,242,162,215,213,29,27,10,10,0.7,0.9
2022-06-17T21:00:00,1071A,116.8842,38.2991,沧州市,沧县城建局,细颗粒物(PM2.5),63,53,52,45,35,240,149,225,211,29,32,11,11,0.8,0.8
2022-06-17T21:00:00,1072A,116.8584,38.3254,沧州市,电视转播站,颗粒物(PM10),60,70,67,28,41,261,164,243,230,24,26,16,14,0.5,0.6
2022-06-17T21:00:00,1073A,116.8709,38.3228,沧州市,市环保局,颗粒物(PM10),70,89,90,44,36,256,162,243,228,23,26,15,13,0.8,0.9
2022-06-17T21:00:00,1074A,115.6838,37.7541,衡水市,电机北厂,臭氧1小时,110,158,102,54,46,300,219,276,274,32,26,10,14,0.7,0.7
2022-06-17T21:00:00,1075A,115.6303,37.7316,衡水市,市监测站,颗粒物(PM10),107,163,114,47,42,276,182,250,246,29,21,18,20,0.6,0.6
2022-06-17T21:00:00,1077A,114.4704,37.0886,邢台市,达活泉,臭氧1小时,126,103,104,46,39,314,251,287,287,17,13,9,11,0.6,0.6
2022-06-17T21:00:00,1078A,114.5062,37.0349,邢台市,邢师高专,臭氧1小时,113,111,90,51,43,309,225,288,285,28,16,10,11,0.8,0.8
2022-06-17T21:00:00,1079A,114.5237,37.0851,邢台市,路桥公司,臭氧1小时,119,117,101,48,43,300,238,277,277,21,16,10,12,0.6,0.6
2022-06-17T21:00:00,1081A,112.5139,37.8873,太原市,尖草坪,,50,50,122,20,58,297,152,244,218,34,23,13,13,0.8,1
2022-06-17T21:00:00,1083A,112.434,38.0108,太原市,上兰(对照点),臭氧1小时,88,44,109,17,64,318,190,266,222,16,17,5,5,0.6,0.9
2022-06-17T21:00:00,1084A,112.469,37.7124,太原市,晋源,颗粒物(PM10),51,51,116,26,57,276,88,238,202,63,25,13,16,0.6,0.9
2022-06-17T21:00:00,1085A,112.5583,37.7394,太原市,小店,颗粒物(PM10),56,62,124,20,57,298,118,250,213,55,26,8,11,0.6,0.9
2022-06-17T21:00:00,1086A,112.5369,37.8692,太原市,桃园,,48,48,121,19,61,292,152,240,215,31,28,11,12,0.7,1
2022-06-17T21:00:00,1087A,112.57,37.8195,太原市,坞城,,47,44,97,20,58,286,148,235,215,33,23,9,10,0.6,0.9
2022-06-17T21:00:00,1088A,112.549,37.9854,太原市,南寨,颗粒物(PM10),60,70,111,25,53,303,152,242,209,55,26,16,15,0.9,1.3
2022-06-17T21:00:00,1090A,111.6507,40.7517,呼和浩特市,呼市一监,颗粒物(PM10),95,139,76,20,19,207,133,176,167,13,31,6,9,0.4,0.4
2022-06-17T21:00:00,1091A,111.6572,40.8033,呼和浩特市,小召,颗粒物(PM10),67,83,70,18,18,200,110,167,156,35,30,10,8,0.4,0.4
2022-06-17T21:00:00,1094A,111.7516,40.8369,呼和浩特市,如意水处理厂,颗粒物(PM10),58,66,59,22,21,195,134,174,163,15,32,11,12,0.3,0.4
2022-06-17T21:00:00,1095A,111.7276,40.8062,呼和浩特市,二十九中,颗粒物(PM10),59,68,60,19,20,199,127,175,165,19,31,10,11,0.5,0.6
2022-06-17T21:00:00,1096A,111.5512,40.7866,呼和浩特市,工大金川校区,颗粒物(PM10),58,66,72,14,18,215,138,178,170,12,33,8,9,0.4,0.5
2022-06-17T21:00:00,1097A,111.717,40.7612,呼和浩特市,化肥厂生活区,颗粒物(PM10),78,106,68,20,20,201,130,175,164,16,28,10,13,0.4,0.5
2022-06-17T21:00:00,1098A,123.6836,41.9339,沈阳市,森林路(对照点),,30,30,28,19,18,182,70,166,147,32,23,13,11,1.0,0.8
2022-06-17T21:00:00,1099A,123.505,41.7406,沈阳市,浑南东路,,26,25,31,18,18,199,78,180,157,22,19,12,14,1.1,0.8
2022-06-17T21:00:00,1100A,123.4231,41.6989,沈阳市,新秀街,,,30,30,,13,186,84,166,148,24,21,21,17,0.7,0.9
2022-06-17T21:00:00,1102A,123.5903,41.8411,沈阳市,东陵路,,43,43,34,22,19,185,69,170,150,27,22,11,12,1.2,1
2022-06-17T21:00:00,1103A,123.4264,41.8467,沈阳市,陵东街,,30,30,32,17,18,180,84,170,154,25,18,12,12,0.7,0.8
2022-06-17T21:00:00,1104A,123.4114,41.7653,沈阳市,文化路,,34,34,35,19,21,183,83,172,153,17,11,22,17,0.5,0.6
2022-06-17T21:00:00,1105A,123.4678,41.7867,沈阳市,小河沿,,35,35,37,17,19,179,88,167,149,17,19,18,14,0.7,0.6
2022-06-17T21:00:00,1106A,123.4017,41.7972,沈阳市,太原街,,29,28,48,20,22,193,86,181,160,27,22,19,18,0.5,0.6
2022-06-17T21:00:00,1108A,123.3783,41.9228,沈阳市,京沈街,,32,32,41,15,21,200,100,185,170,17,15,11,15,0.7,0.8
2022-06-17T21:00:00,1109A,121.612,38.9741,大连市,甘井子,,,9,28,8,16,123,82,116,94,,20,7,7,0.5,0.5
2022-06-17T21:00:00,1110A,121.565,38.9511,大连市,周水子,,23,23,31,8,27,108,59,98,78,20,18,8,7,0.8,0.9
2022-06-17T21:00:00,1111A,121.5637,38.8845,大连市,星海三站,,31,23,36,17,29,148,97,131,115,19,17,7,8,0.4,0.4
2022-06-17T21:00:00,1112A,121.6302,38.9117,大连市,青泥洼桥,,25,11,26,9,23,121,78,113,94,13,15,6,6,0.4,0.4
2022-06-17T21:00:00,1113A,121.6251,38.8638,大连市,傅家庄,,28,15,19,8,12,130,89,117,98,5,9,6,6,0.7,0.7
2022-06-17T21:00:00,1115A,121.2529,38.8061,大连市,旅顺,,32,15,22,6,15,144,100,130,112,8,11,6,6,0.5,0.5
2022-06-17T21:00:00,1116A,121.7485,39.1311,大连市,金州,,31,29,37,16,16,137,98,131,112,8,12,2,3,0.3,0.5
2022-06-17T21:00:00,1117A,121.7811,39.0496,大连市,开发区,,28,19,26,4,20,139,89,120,96,7,20,4,6,0.7,0.7
2022-06-17T21:00:00,1118A,121.9762,39.0631,大连市,双D港,,29,12,18,4,16,142,91,134,103,5,8,10,10,0.5,0.5
2022-06-17T21:00:00,1119A,125.3325,43.9166,长春市,食品厂,颗粒物(PM10),69,87,61,32,23,121,40,116,103,90,29,5,5,0.8,0.6
2022-06-17T21:00:00,1120A,125.2863,43.9027,长春市,客车厂,颗粒物(PM10),64,77,59,30,20,131,64,126,116,70,24,4,4,0.8,0.6
2022-06-17T21:00:00,1121A,125.2841,43.8463,长春市,邮电学院,颗粒物(PM10),92,134,79,20,21,128,52,122,108,45,20,4,5,0.7,0.6
2022-06-17T21:00:00,1122A,125.3716,43.8772,长春市,劳动公园,颗粒物(PM10),70,89,55,31,21,137,73,132,123,37,17,5,5,0.7,0.6
2022-06-17T21:00:00,1123A,125.3297,43.8805,长春市,园林处,颗粒物(PM10),63,75,51,26,20,122,46,119,107,63,23,4,4,0.6,0.5
2022-06-17T21:00:00,1124A,125.4605,43.79,长春市,净月潭,,45,45,45,17,17,129,52,120,102,21,14,3,3,0.6,0.6
2022-06-17T21:00:00,1125A,125.7194,43.515,长春市,甩湾子(对照点),颗粒物(PM10),73,95,42,23,17,140,35,127,108,59,28,6,6,0.5,0.4
2022-06-17T21:00:00,1126A,125.3863,43.8447,长春市,经开区环卫处,颗粒物(PM10),64,77,60,22,20,130,72,126,117,43,18,4,5,0.6,0.5
2022-06-17T21:00:00,1127A,125.245,43.7783,长春市,高新区管委会,颗粒物(PM10),69,88,52,25,21,133,15,125,103,86,20,5,5,0.6,0.5
2022-06-17T21:00:00,1128A,125.1761,43.8325,长春市,岱山公园,颗粒物(PM10),72,94,51,30,22,122,4,112,96,125,22,6,5,0.7,0.5
2022-06-17T21:00:00,1129A,126.5422,45.755,哈尔滨市,岭北(对照点),,26,15,12,7,8,103,82,99,90,19,11,12,13,0.4,0.4
2022-06-17T21:00:00,1130A,126.561,45.8167,哈尔滨市,松北商大,,18,17,12,9,6,111,57,102,86,34,14,4,4,0.7,0.6
2022-06-17T21:00:00,1131A,126.979,45.5419,哈尔滨市,阿城会宁,细颗粒物(PM2.5),53,45,20,37,8,117,18,107,78,51,14,10,11,1.1,0.7
2022-06-17T21:00:00,1132A,126.599,45.7222,哈尔滨市,南岗学府路,,24,23,11,9,4,113,76,105,97,25,10,10,10,0.6,0.6
2022-06-17T21:00:00,1133A,126.689,45.7733,哈尔滨市,太平宏伟公园,,49,49,19,12,7,108,70,101,87,27,19,11,11,0.6,0.5
2022-06-17T21:00:00,1134A,126.635,45.7667,哈尔滨市,道外承德广场,,23,22,19,5,4,108,73,104,92,37,19,10,9,0.5,0.4
2022-06-17T21:00:00,1135A,126.685,45.7319,哈尔滨市,香坊红旗大街,,42,42,20,20,9,110,47,104,87,52,24,19,10,0.8,0.4
2022-06-17T21:00:00,1136A,126.6411,45.7258,哈尔滨市,动力和平路,,26,26,18,13,4,110,66,104,92,40,18,6,6,0.5,0.4
2022-06-17T21:00:00,1137A,126.593,45.7478,哈尔滨市,道里建国路,,35,35,58,17,11,95,33,95,70,59,22,15,14,0.7,0.6
2022-06-17T21:00:00,1138A,126.615,45.61,哈尔滨市,平房东轻厂,,41,34,15,9,6,100,12,96,77,82,14,6,5,0.7,0.6
2022-06-17T21:00:00,1139A,126.595,45.9855,哈尔滨市,呼兰师专,,25,22,17,7,7,101,77,94,88,13,10,10,10,0.3,0.4
2022-06-17T21:00:00,1140A,126.6206,45.6842,哈尔滨市,省农科院,,41,41,14,10,5,113,66,105,97,26,16,9,8,0.8,0.7
2022-06-17T21:00:00,1141A,121.4,31.238,上海市,普陀,,41,41,52,27,33,298,117,221,203,21,25,3,5,0.6,0.7
2022-06-17T21:00:00,1142A,121.478,31.2036,上海市,十五厂,,38,28,51,26,34,281,100,218,182,15,23,1,4,0.5,0.5
2022-06-17T21:00:00,1143A,121.467,31.3008,上海市,虹口,,35,31,49,23,30,284,110,215,192,24,28,4,4,0.3,0.4
2022-06-17T21:00:00,1144A,121.412,31.1654,上海市,徐汇上师大,,38,38,55,20,37,282,96,220,188,24,29,4,5,0.8,1
2022-06-17T21:00:00,1145A,121.536,31.2659,上海市,杨浦四漂,,30,24,50,16,33,283,95,218,188,18,24,4,5,0.4,0.5
2022-06-17T21:00:00,1147A,121.425,31.2261,上海市,静安监测站,,45,45,54,29,34,283,109,214,193,15,17,4,5,0.4,0.5
2022-06-17T21:00:00,1148A,121.703,31.1907,上海市,浦东川沙,,28,24,49,13,31,227,87,195,163,18,26,4,5,0.3,0.5
2022-06-17T21:00:00,1149A,121.533,31.2284,上海市,浦东新区监测站,,33,31,57,16,32,289,105,225,194,14,21,6,7,0.5,0.6
2022-06-17T21:00:00,1150A,121.577,31.2071,上海市,浦东张江,,26,17,43,13,31,241,82,187,158,22,26,3,4,0.6,0.8
2022-06-17T21:00:00,1151A,118.8086,32.1065,南京市,迈皋桥,,44,44,34,14,10,190,90,168,145,23,18,3,7,0.3,0.4
2022-06-17T21:00:00,1152A,118.7538,32.0551,南京市,草场门,,41,34,31,14,11,215,131,178,167,15,17,5,10,0.3,0.5
2022-06-17T21:00:00,1153A,118.7794,32.0745,南京市,山西路,,41,41,38,19,19,204,114,168,156,10,10,3,3,0.3,0.4
2022-06-17T21:00:00,1154A,118.7752,32.0023,南京市,中华门,,34,31,30,9,8,184,108,161,147,18,9,4,4,0.2,0.4
2022-06-17T21:00:00,1155A,118.8109,32.0309,南京市,瑞金路,,36,36,32,17,15,193,98,164,149,26,15,4,8,0.4,0.5
2022-06-17T21:00:00,1156A,118.7997,32.0754,南京市,玄武湖,,35,35,28,17,16,188,106,166,152,6,5,4,4,0.8,0.9
2022-06-17T21:00:00,1157A,118.6414,32.0931,南京市,浦口,,32,27,36,6,11,180,101,152,127,14,18,5,7,0.1,0.3
2022-06-17T21:00:00,1158A,118.7356,31.9996,南京市,奥体中心,,41,41,37,17,14,188,104,158,144,28,19,3,9,0.3,0.5
2022-06-17T21:00:00,1159A,118.9125,32.1028,南京市,仙林大学城,,30,29,31,17,13,199,94,176,157,24,11,6,9,0.5,0.6
2022-06-17T21:00:00,1160A,120.561,31.2472,苏州市,上方山(对照点),"颗粒物(PM10),细颗粒物(PM2.5)",68,86,75,49,46,254,168,239,225,32,28,8,7,0.7,0.8
2022-06-17T21:00:00,1162A,120.591,31.3019,苏州市,彩香,臭氧1小时,80,81,60,54,41,282,184,250,240,22,30,8,9,0.6,0.6
2022-06-17T21:00:00,1163A,120.596,31.3264,苏州市,轧钢厂,颗粒物(PM10),70,90,77,35,34,266,169,237,228,18,26,8,8,0.7,0.7
2022-06-17T21:00:00,1164A,120.613,31.2703,苏州市,吴中区,颗粒物(PM10),65,79,68,40,41,297,169,264,238,16,31,6,8,0.6,0.7
2022-06-17T21:00:00,1165A,120.543,31.2994,苏州市,苏州新区,细颗粒物(PM2.5),65,71,55,47,40,270,170,225,224,21,19,6,7,0.8,0.8
2022-06-17T21:00:00,1166A,120.669,31.3097,苏州市,苏州工业园区,臭氧1小时,64,67,58,29,32,283,171,236,218,15,26,7,7,0.7,0.8
2022-06-17T21:00:00,1167A,120.641,31.3708,苏州市,相城区,细颗粒物(PM2.5),63,58,61,45,48,283,161,234,219,20,30,7,9,0.6,0.7
2022-06-17T21:00:00,1168A,120.9098,31.9663,南通市,狼山街道,颗粒物(PM10),63,76,60,24,32,296,125,258,242,37,32,13,15,0.5,0.7
2022-06-17T21:00:00,1169A,120.86,32.0005,南通市,虹桥,颗粒物(PM10),60,70,60,28,39,293,139,257,242,36,36,10,12,0.6,0.7
2022-06-17T21:00:00,1170A,120.87,32.02,南通市,城中,颗粒物(PM10),58,65,58,31,37,271,128,229,222,36,32,10,11,0.7,0.9
2022-06-17T21:00:00,1171A,120.94,31.93,南通市,星湖花园,颗粒物(PM10),57,64,57,29,30,284,107,248,227,45,36,10,12,0.5,0.7
2022-06-17T21:00:00,1172A,120.81,32.0417,南通市,紫琅学院,,,,,31,33,267,158,234,226,35,53,7,11,0.8,0.8
2022-06-17T21:00:00,1173A,119.176,34.5885,连云港市,市环境监测站,颗粒物(PM10),64,78,62,39,32,235,140,211,196,22,13,4,3,0.8,0.6
2022-06-17T21:00:00,1177A,117.179,34.2761,徐州市,黄河新村,臭氧1小时,63,46,62,19,24,208,170,195,188,14,16,7,8,0.5,0.5
2022-06-17T21:00:00,1178A,117.1918,34.2384,徐州市,淮塔,臭氧1小时,58,61,56,19,24,212,166,202,192,19,17,12,13,0.6,0.5
2022-06-17T21:00:00,1180A,117.256,34.2153,徐州市,新城区,臭氧1小时,60,63,66,20,27,216,168,204,196,18,19,8,8,0.7,0.7
2022-06-17T21:00:00,1181A,117.244,34.2911,徐州市,桃园路,臭氧1小时,68,78,72,17,20,213,174,202,195,20,22,12,13,0.6,0.7
2022-06-17T21:00:00,1182A,117.2933,34.2778,徐州市,农科院,臭氧1小时,73,58,62,17,19,226,178,209,205,15,21,7,7,0.5,0.6
2022-06-17T21:00:00,1186A,119.389,32.3761,扬州市,邗江监测站,颗粒物(PM10),54,58,52,24,23,228,132,192,174,19,18,10,12,0.7,0.7
2022-06-17T21:00:00,1188A,120.269,31.4867,无锡市,雪浪,,,75,62,39,32,197,169,183,178,12,10,,12,0.5,0.6
2022-06-17T21:00:00,1189A,120.275,31.6219,无锡市,黄巷,,,63,62,31,33,213,194,197,195,20,19,,9,0.5,0.6
2022-06-17T21:00:00,1190A,120.294,31.56,无锡市,曹张,臭氧1小时,85,60,57,31,29,213,188,190,190,23,15,7,8,0.9,0.9
2022-06-17T21:00:00,1191A,120.242,31.5031,无锡市,漆塘,臭氧1小时,74,51,56,41,33,207,179,184,175,6,8,5,6,0.6,0.6
2022-06-17T21:00:00,1192A,120.3489,31.5863,无锡市,东亭,臭氧1小时,110,78,63,41,35,245,220,217,217,14,12,8,9,0.7,0.7
2022-06-17T21:00:00,1193A,120.354,31.5475,无锡市,旺庄,臭氧1小时,103,84,61,48,36,244,205,213,211,25,17,9,10,0.5,0.6
2022-06-17T21:00:00,1194A,120.245,31.5631,无锡市,荣巷,颗粒物(PM10),51,51,60,27,36,202,142,188,177,11,10,10,12,0.6,0.4
2022-06-17T21:00:00,1195A,120.299,31.6817,无锡市,堰桥,臭氧1小时,95,85,68,46,34,260,196,220,207,23,20,7,9,1.0,1.1
2022-06-17T21:00:00,1196A,119.9633,31.762,常州市,市监测站,臭氧1小时,100,74,52,34,25,200,200,172,172,27,22,8,9,0.5,0.5
2022-06-17T21:00:00,1200A,119.9468,31.7069,常州市,武进监测站,臭氧1小时,109,71,57,40,35,217,217,183,183,13,11,22,9,0.7,0.7
2022-06-17T21:00:00,1201A,119.9255,31.9087,常州市,安家,颗粒物(PM10),60,69,53,33,33,205,151,184,170,34,24,5,9,0.7,0.8
2022-06-17T21:00:00,1203A,119.6707,32.1875,镇江市,新区办事处,,46,42,47,22,24,188,147,182,177,14,20,8,11,0.5,0.7
2022-06-17T21:00:00,1204A,119.4974,32.1968,镇江市,职教中心,臭氧1小时,53,50,44,31,26,204,162,171,163,18,19,4,6,0.8,0.7
2022-06-17T21:00:00,1205A,119.4303,32.1328,镇江市,丹徒区监测站,细颗粒物(PM2.5),58,52,43,41,30,185,149,171,165,16,15,8,8,0.5,0.5
2022-06-17T21:00:00,1206A,119.905,32.4878,泰州市,公园路,,41,41,53,22,26,194,114,171,159,30,27,5,6,0.7,0.8
2022-06-17T21:00:00,1207A,119.9189,32.4625,泰州市,莲花,,49,49,54,22,31,207,118,186,172,33,23,7,8,0.7,0.8
2022-06-17T21:00:00,1209A,119.888,32.4639,泰州市,留学生创业园,,50,50,52,20,26,228,125,200,184,33,23,10,11,0.7,0.8
2022-06-17T21:00:00,1210A,119.036,33.5981,淮安市,钵池山,臭氧1小时,95,56,57,23,30,242,196,215,209,11,14,8,10,0.7,0.7
2022-06-17T21:00:00,1211A,119.007,33.575,淮安市,北京南路,臭氧1小时,79,63,59,28,28,231,183,204,194,15,18,7,10,0.6,0.7
2022-06-17T21:00:00,1212A,118.989,33.6067,淮安市,市监测站,臭氧1小时,77,75,68,19,24,225,181,202,193,19,18,8,11,0.6,0.7
2022-06-17T21:00:00,1213A,119.135,33.5039,淮安市,楚州区监测站,颗粒物(PM10),62,73,62,27,26,213,151,193,183,31,17,10,12,0.9,0.9
2022-06-17T21:00:00,1214A,119.0186,33.6297,淮安市,淮阴区监测站,臭氧1小时,67,66,57,26,33,230,173,201,192,18,15,10,13,0.9,1
2022-06-17T21:00:00,1215A,120.118,33.4022,盐城市,盐城电厂,臭氧1小时,70,58,63,28,31,239,176,226,219,14,15,7,11,0.6,0.6
2022-06-17T21:00:00,1216A,120.156,33.3942,盐城市,市监测站,颗粒物(PM10),101,152,60,61,27,241,151,223,210,,14,125,15,0.3,0.3
2022-06-17T21:00:00,1218A,120.2144,33.38,盐城市,开发区管委会,颗粒物(PM10),55,60,62,33,33,234,150,214,197,15,16,5,7,0.6,0.7
2022-06-17T21:00:00,1220A,118.293,33.9528,宿迁市,宿迁学院,臭氧1小时,70,56,56,27,29,242,176,215,207,16,16,9,8,0.5,0.5
2022-06-17T21:00:00,1221A,118.2442,33.9592,宿迁市,宿迁中学,臭氧1小时,70,58,55,33,29,242,176,218,212,16,17,7,6,0.5,0.5
2022-06-17T21:00:00,1223A,120.2072,30.2111,杭州市,滨江,细颗粒物(PM2.5),78,100,69,57,39,231,148,191,179,41,31,5,3,0.8,0.8
2022-06-17T21:00:00,1224A,120.0633,30.2747,杭州市,西溪,颗粒物(PM10),52,54,59,32,29,182,74,156,140,23,23,7,7,0.6,0.6
2022-06-17T21:00:00,1226A,120.3461,30.3153,杭州市,下沙,臭氧1小时,70,88,78,47,39,286,176,235,229,38,38,8,7,0.7,0.7
2022-06-17T21:00:00,1227A,120.1269,30.2456,杭州市,卧龙桥,,48,48,48,33,34,191,59,171,135,21,17,6,6,0.8,0.7
2022-06-17T21:00:00,1228A,120.1903,30.2692,杭州市,浙江农大,颗粒物(PM10),75,100,59,54,37,226,158,197,186,39,26,8,6,0.7,0.7
2022-06-17T21:00:00,1230A,120.1197,30.3119,杭州市,和睦小学,颗粒物(PM10),66,81,67,40,37,220,150,190,183,35,32,5,4,0.9,0.8
2022-06-17T21:00:00,1231A,120.3019,30.4183,杭州市,临平镇,颗粒物(PM10),79,107,95,40,40,272,178,230,228,26,38,4,4,0.8,0.8
2022-06-17T21:00:00,1232A,120.2697,30.1819,杭州市,城厢镇,细颗粒物(PM2.5),80,85,66,59,40,204,126,167,159,45,28,8,6,0.7,0.6
2022-06-17T21:00:00,1233A,120.0883,30.1808,杭州市,云栖,颗粒物(PM10),55,60,61,29,30,194,65,172,133,26,22,8,8,0.7,0.7
2022-06-17T21:00:00,1234A,121.8358,29.911,宁波市,区环保大楼,,29,24,38,12,19,100,90,93,92,8,25,4,5,0.4,0.6
2022-06-17T21:00:00,1235A,121.56,29.82,宁波市,万里学院,,,,35,,21,170,86,142,118,8,14,8,8,0.6,0.6
2022-06-17T21:00:00,1236A,121.713,29.9572,宁波市,龙赛医院,,26,24,37,12,22,169,83,136,115,6,20,3,6,0.5,0.7
2022-06-17T21:00:00,1239A,121.633,29.7733,宁波市,钱湖水厂,,27,11,23,5,19,121,85,109,103,5,6,7,7,0.6,0.7
2022-06-17T21:00:00,1240A,121.5856,29.8635,宁波市,太古小学,,24,9,31,8,21,168,76,131,109,11,15,6,7,0.5,0.6
2022-06-17T21:00:00,1241A,121.524,29.8674,宁波市,市环境监测中心,,21,15,38,11,21,184,66,138,113,18,19,7,11,0.4,0.4
2022-06-17T21:00:00,1242A,120.634,28.0089,温州市,瓯海,,19,19,41,9,26,135,34,104,75,27,26,6,6,0.5,0.6
2022-06-17T21:00:00,1243A,120.6748,27.9939,温州市,南浦,,24,24,46,11,26,143,40,102,78,20,20,6,6,0.6,0.7
2022-06-17T21:00:00,1244A,120.76,27.9747,温州市,龙湾,,37,37,59,15,24,162,30,101,75,29,30,4,5,0.4,0.6
2022-06-17T21:00:00,1245A,120.6709,28.0167,温州市,市站,,28,28,53,13,29,159,38,118,83,30,29,5,5,0.7,0.7
2022-06-17T21:00:00,1247A,120.6053,29.9928,绍兴市,城东开发委,,50,47,46,35,28,167,102,151,139,14,14,6,7,0.5,0.6
2022-06-17T21:00:00,1250A,120.0751,30.8669,湖州市,城西水厂,颗粒物(PM10),65,80,61,46,30,226,146,206,200,33,38,6,6,0.6,0.5
2022-06-17T21:00:00,1252A,120.7436,30.778,嘉兴市,清河小学,,38,38,63,19,35,233,103,218,196,29,32,8,10,0.5,0.7
2022-06-17T21:00:00,1253A,120.726,30.7478,嘉兴市,嘉兴学院,,40,40,63,24,40,229,113,221,200,26,31,6,6,0.6,0.6
2022-06-17T21:00:00,1255A,121.273,28.6459,台州市,黄岩环保大楼,,31,31,54,10,25,154,69,124,100,14,16,6,5,0.4,0.6
2022-06-17T21:00:00,1256A,121.419,28.6542,台州市,台州环保大楼,颗粒物(PM10),68,85,54,32,27,127,38,112,86,27,14,4,4,0.7,0.6
2022-06-17T21:00:00,1257A,121.377,28.5773,台州市,路桥田洋王,,21,21,40,11,29,144,63,118,96,16,14,8,6,0.6,0.6
2022-06-17T21:00:00,1258A,122.122,30.0203,舟山市,定海檀枫,,29,22,30,12,14,91,91,80,80,10,17,2,2,0.4,0.5
2022-06-17T21:00:00,1259A,122.3094,29.9558,舟山市,普陀东港,,30,19,17,5,9,95,95,84,84,3,6,2,2,0.3,0.4
2022-06-17T21:00:00,1260A,122.19,29.9944,舟山市,临城新区,,29,15,15,8,11,94,92,86,86,10,10,3,2,0.4,0.4
2022-06-17T21:00:00,1262A,119.647,29.077,金华市,十五中,颗粒物(PM10),57,63,55,25,34,155,71,136,122,22,25,18,9,0.6,0.6
2022-06-17T21:00:00,1263A,119.686,29.1029,金华市,监测站,颗粒物(PM10),57,64,50,31,20,151,61,135,118,25,22,3,7,0.6,0.7
2022-06-17T21:00:00,1264A,118.8692,28.9398,衢州市,环保大楼,,47,47,49,14,22,114,44,94,77,12,18,11,16,0.5,0.6
2022-06-17T21:00:00,1265A,118.8709,28.9666,衢州市,实验学校,,41,41,51,15,20,122,36,99,80,26,26,9,12,0.6,0.6
2022-06-17T21:00:00,1266A,118.8621,28.9808,衢州市,衢州学院,,43,43,53,18,23,118,38,95,80,25,29,12,16,0.4,0.6
2022-06-17T21:00:00,1267A,119.914,28.4514,丽水市,监测站大楼,,21,21,40,13,19,104,57,81,72,11,18,5,5,0.2,0.4
2022-06-17T21:00:00,1268A,119.93,28.4586,丽水市,莲都小学,,20,15,43,6,17,113,61,88,75,11,15,6,6,0.3,0.4
2022-06-17T21:00:00,1269A,119.879,28.4231,丽水市,余庄前,,18,17,35,12,19,103,53,72,58,14,12,5,5,0.3,0.4
2022-06-17T21:00:00,1270A,117.1959,31.7848,合肥市,明珠广场,,41,41,46,19,19,193,109,161,139,22,20,5,6,0.4,0.4
2022-06-17T21:00:00,1271A,117.3072,31.8764,合肥市,三里街,,32,31,44,19,14,166,102,141,126,21,19,7,11,0.5,0.5
2022-06-17T21:00:00,1272A,117.2588,31.8707,合肥市,琥珀山庄,,39,39,40,17,15,188,116,160,143,17,16,10,11,0.5,0.6
2022-06-17T21:00:00,1273A,117.1604,31.9052,合肥市,董铺水库(对照点),,41,41,45,22,23,198,110,153,137,11,12,6,9,0.4,0.6
2022-06-17T21:00:00,1274A,117.25,31.8571,合肥市,长江中路,,46,46,44,29,21,195,112,166,146,28,22,8,8,0.6,0.5
2022-06-17T21:00:00,1275A,117.266,31.9436,合肥市,庐阳区,,38,36,47,14,18,206,119,169,148,11,15,10,11,0.4,0.5
2022-06-17T21:00:00,1276A,117.336,31.8586,合肥市,瑶海区,颗粒物(PM10),51,51,52,20,18,176,99,154,138,31,21,8,8,0.6,0.6
2022-06-17T21:00:00,1277A,117.3027,31.7964,合肥市,包河区,,39,39,44,17,18,160,108,148,137,20,20,6,6,0.5,0.5
2022-06-17T21:00:00,1278A,117.2776,31.7385,合肥市,滨湖新区,,48,48,42,17,16,158,118,152,143,10,10,11,11,0.4,0.5
2022-06-17T21:00:00,1279A,117.1318,31.8403,合肥市,高新区,,44,44,45,19,20,204,117,165,145,13,14,10,10,0.6,0.6
2022-06-17T21:00:00,1282A,119.2681,26.0504,福州市,师大,,30,17,17,21,13,32,7,20,14,42,27,2,2,0.5,0.4
2022-06-17T21:00:00,1283A,119.2984,26.1028,福州市,五四北路,,,34,19,20,12,24,2,19,12,,30,3,2,0.7,0.5
2022-06-17T21:00:00,1284A,119.2648,26.0768,福州市,杨桥西路,,28,28,18,17,11,22,4,18,11,46,31,3,2,0.6,0.5
2022-06-17T21:00:00,1285A,119.317,26.0746,福州市,紫阳,,42,42,21,21,11,25,4,18,10,42,32,3,3,0.8,0.5
2022-06-17T21:00:00,1286A,118.1608,24.8169,厦门市,溪东(对照点),细颗粒物(PM2.5),54,24,22,38,36,83,24,59,50,11,8,2,2,0.5,0.5
2022-06-17T21:00:00,1287A,118.1514,24.4767,厦门市,洪文,,18,10,17,12,10,39,26,31,29,17,23,5,4,0.6,0.6
2022-06-17T21:00:00,1288A,118.0661,24.4444,厦门市,鼓浪屿,,14,14,14,4,11,33,27,32,30,20,35,4,4,0.1,0.2
2022-06-17T21:00:00,1290A,115.8931,28.6843,南昌市,省外办,,14,14,31,4,14,103,38,81,66,14,18,3,18,0.6,0.7
2022-06-17T21:00:00,1291A,115.8886,28.7003,南昌市,省林业公司,,11,7,25,0,10,108,34,84,66,11,12,2,22,0.6,0.7
2022-06-17T21:00:00,1292A,115.8126,28.7442,南昌市,林科所,,14,2,24,2,12,108,32,89,72,28,16,4,9,0.5,0.6
2022-06-17T21:00:00,1294A,115.8518,28.687,南昌市,建工学校,,,56,39,,23,106,40,81,65,17,22,5,20,0.8,0.8
2022-06-17T21:00:00,1295A,115.8921,28.6424,南昌市,象湖,,13,13,30,0,8,104,36,80,63,12,14,4,13,0.7,0.7
2022-06-17T21:00:00,1296A,115.7423,28.7996,南昌市,武术学校(对照点),,16,14,21,11,13,119,47,98,80,3,4,7,8,0.4,0.5
2022-06-17T21:00:00,1298A,115.9314,28.6842,南昌市,省站,,23,23,34,4,14,109,46,85,68,10,18,9,18,0.5,0.5
2022-06-17T21:00:00,1299A,116.9862,36.6114,济南市,科干所,臭氧1小时,108,75,61,46,34,267,215,243,243,20,15,11,11,0.8,0.7
2022-06-17T21:00:00,1300A,116.9376,36.665,济南市,农科所,臭氧1小时,63,73,66,42,32,237,170,220,217,25,19,9,9,0.5,0.5
2022-06-17T21:00:00,1301A,117.1265,36.6734,济南市,开发区,臭氧1小时,107,78,60,44,32,274,214,251,251,19,13,12,13,0.6,0.6
2022-06-17T21:00:00,1303A,117.0624,36.6868,济南市,省种子仓库,臭氧1小时,103,75,69,44,40,263,205,243,243,29,18,10,12,0.7,0.7
2022-06-17T21:00:00,1304A,116.9489,36.6447,济南市,机床二厂,臭氧1小时,101,83,72,37,34,246,201,231,230,16,15,8,8,0.6,0.6
2022-06-17T21:00:00,1305A,117.0495,36.663,济南市,市监测站,臭氧1小时,103,76,67,46,35,263,205,243,242,32,17,10,11,0.8,0.8
2022-06-17T21:00:00,1306A,116.7675,36.5484,济南市,长清党校,臭氧1小时,119,81,79,32,45,265,237,250,250,13,12,15,16,0.6,0.7
2022-06-17T21:00:00,1307A,120.6659,36.2403,青岛市,仰口(对照点),颗粒物(PM10),57,63,30,36,23,156,111,144,141,15,6,5,5,0.5,0.4
2022-06-17T21:00:00,1310A,120.4134,36.0658,青岛市,市南区东部子站,,44,44,28,29,16,169,113,167,144,18,12,5,6,0.4,0.3
2022-06-17T21:00:00,1311A,120.3664,36.1032,青岛市,四方区子站,"颗粒物(PM10),细颗粒物(PM2.5)",62,73,33,44,24,194,149,194,155,23,25,4,5,0.8,0.8
2022-06-17T21:00:00,1312A,120.2994,36.054,青岛市,市南区西部子站,,45,36,30,15,12,200,143,200,164,17,21,7,7,0.6,0.5
2022-06-17T21:00:00,1313A,120.4581,36.0858,青岛市,崂山区子站,,43,36,25,27,14,183,136,175,159,21,16,8,7,0.5,0.5
2022-06-17T21:00:00,1314A,120.1983,35.9608,青岛市,黄岛区子站,,41,36,24,20,17,165,129,151,147,14,20,5,5,0.3,0.3
2022-06-17T21:00:00,1315A,120.3999,36.3083,青岛市,城阳区子站,臭氧1小时,62,56,38,29,19,169,169,156,156,15,21,7,5,0.7,0.5
2022-06-17T21:00:00,1316A,113.69031,34.76122,郑州市,烟厂,,48,40,61,8,17,241,153,206,182,26,19,7,8,0.5,0.5
2022-06-17T21:00:00,1317A,113.65724,34.77134,郑州市,郑纺机,,45,40,68,21,22,240,142,194,169,25,20,10,10,0.5,0.6
2022-06-17T21:00:00,1318A,113.67526,34.80246,郑州市,银行学校,,49,47,58,14,25,277,156,229,192,25,15,7,9,0.6,0.5
2022-06-17T21:00:00,1319A,113.56746,34.81334,郑州市,供水公司,颗粒物(PM10),53,55,71,14,25,280,125,209,175,46,26,7,8,0.4,0.5
2022-06-17T21:00:00,1320A,113.7329,34.7178,郑州市,经开区管委,颗粒物(PM10),52,53,62,25,22,201,141,182,168,31,20,5,6,0.2,0.4
2022-06-17T21:00:00,1321A,113.73961,34.77172,郑州市,四十七中,,48,48,60,12,19,258,150,208,182,32,20,6,9,0.4,0.6
2022-06-17T21:00:00,1322A,113.60532,34.74838,郑州市,市监测站,颗粒物(PM10),58,66,67,18,20,241,130,196,167,42,23,11,8,0.5,0.5
2022-06-17T21:00:00,1323A,113.64164,34.7525,郑州市,河医大,颗粒物(PM10),51,52,69,6,17,240,140,195,170,28,20,9,7,0.5,0.5
2022-06-17T21:00:00,1324A,113.51488,34.91089,郑州市,岗李水库(对照点),,40,7,73,25,26,274,44,219,181,80,25,5,6,0.7,0.3
2022-06-17T21:00:00,1325A,114.3677,30.5584,武汉市,东湖梨园,,40,40,32,15,17,186,109,151,145,18,14,9,10,0.7,0.7
2022-06-17T21:00:00,1326A,114.2529,30.558,武汉市,汉阳月湖,,33,25,31,14,13,165,105,154,144,20,15,10,10,0.7,0.7
2022-06-17T21:00:00,1327A,114.282,30.6189,武汉市,汉口花桥,,47,47,37,17,17,168,99,149,141,25,15,10,10,0.7,0.7
2022-06-17T21:00:00,1328A,114.3025,30.5332,武汉市,武昌紫阳,,46,46,33,13,17,159,101,142,136,17,15,7,8,0.8,0.9
2022-06-17T21:00:00,1329A,114.3646,30.6217,武汉市,青山钢花,,45,45,36,19,22,187,112,159,154,18,14,6,10,0.8,0.7
2022-06-17T21:00:00,1330A,114.1566,30.4825,武汉市,沌口新区,,28,26,30,19,18,163,88,141,130,36,23,11,10,0.7,0.7
2022-06-17T21:00:00,1331A,114.3014,30.5944,武汉市,汉口江滩,,35,34,35,16,19,165,47,149,117,70,41,7,8,0.6,0.7
2022-06-17T21:00:00,1333A,114.135,30.6319,武汉市,吴家山,,38,38,33,12,15,158,107,149,141,16,13,8,9,0.8,0.7
2022-06-17T21:00:00,1334A,113.8454,30.2917,武汉市,沉湖七壕(对照点),,30,23,63,20,21,116,93,103,102,7,16,6,7,0.7,0.7
2022-06-17T21:00:00,1335A,113.0833,28.2325,长沙市,经开区环保局,,18,5,15,12,20,69,48,63,56,11,13,4,6,0.7,0.7
2022-06-17T21:00:00,1336A,112.8872,28.2189,长沙市,高开区环保局,,,4,16,,19,66,,58,57,12,12,6,7,0.7,0.8
2022-06-17T21:00:00,1337A,113.0792,28.2053,长沙市,马坡岭,,18,5,19,2,10,75,57,72,67,8,11,4,5,0.7,0.7
2022-06-17T21:00:00,1338A,112.9394,28.19,长沙市,湖南师范大学,,15,8,21,2,9,70,46,62,60,10,15,5,7,0.9,0.8
2022-06-17T21:00:00,1339A,113.0178,28.1322,长沙市,雨花区环保局,,16,4,14,11,15,62,38,55,50,6,11,4,5,0.7,0.7
2022-06-17T21:00:00,1340A,112.9792,28.2597,长沙市,伍家岭,,19,6,19,13,18,70,44,59,57,17,20,3,3,0.7,0.7
2022-06-17T21:00:00,1341A,113.0014,28.1944,长沙市,火车新站,,13,10,25,8,16,64,39,56,53,12,15,5,7,0.6,0.5
2022-06-17T21:00:00,1342A,112.9844,28.1178,长沙市,天心区环保局,,10,8,21,7,13,60,31,53,47,10,13,3,4,0.7,0.6
2022-06-17T21:00:00,1343A,112.8908,28.1308,长沙市,湖南中医药大学,,,,24,,20,68,48,60,59,15,21,4,5,0.9,0.8
2022-06-17T21:00:00,1344A,112.9581,28.3611,长沙市,沙坪(对照点),,16,16,27,10,19,64,37,57,51,14,16,3,2,0.6,0.6
2022-06-17T21:00:00,1345A,113.2347,23.1423,广州市,广雅中学,,26,26,23,10,11,76,21,57,45,26,23,4,4,0.7,0.6
2022-06-17T21:00:00,1346A,113.2612,23.105,广州市,市五中,,29,29,21,13,11,77,18,61,48,24,19,4,5,0.7,0.6
2022-06-17T21:00:00,1348A,113.3478,23.0916,广州市,广东商学院,,27,27,22,11,12,81,29,66,56,17,21,3,4,0.6,0.6
2022-06-17T21:00:00,1349A,113.4332,23.1047,广州市,市八十六中,,28,28,25,11,10,84,3,63,44,40,28,6,6,0.4,0.4
2022-06-17T21:00:00,1350A,113.3505,22.9483,广州市,番禺中学,,20,20,21,9,9,84,26,62,51,11,15,5,5,0.5,0.5
2022-06-17T21:00:00,1351A,113.2146,23.3916,广州市,花都师范,,32,32,22,15,12,94,21,72,52,33,29,5,5,0.5,0.5
2022-06-17T21:00:00,1352A,113.2597,23.1331,广州市,市监测站,,32,32,28,13,10,81,21,62,49,27,22,6,6,0.7,0.6
2022-06-17T21:00:00,1353A,113.5618,23.312,广州市,九龙镇镇龙,,22,18,16,8,8,86,6,68,53,44,29,6,6,0.6,0.6
2022-06-17T21:00:00,1354A,113.2765,23.1544,广州市,麓湖,,23,23,22,13,11,84,27,66,54,18,18,3,3,0.7,0.7
2022-06-17T21:00:00,1355A,113.443,23.3035,广州市,帽峰山森林公园(对照点),,23,23,18,12,8,93,18,82,67,31,18,5,4,0.4,0.6
2022-06-17T21:00:00,1356A,114.1063,22.5545,深圳市,通心岭子站,,16,16,14,6,5,45,20,35,30,8,9,3,3,0.6,0.5
2022-06-17T21:00:00,1357A,114.117,22.5625,深圳市,洪湖,,,16,15,6,6,50,,40,39,10,11,6,6,0.4,0.4
2022-06-17T21:00:00,1358A,113.987,22.5417,深圳市,华侨城,,19,19,17,1,3,38,17,31,26,10,10,4,4,0.5,0.5
2022-06-17T21:00:00,1359A,113.9181,22.5171,深圳市,南海子站,细颗粒物(PM2.5),80,54,22,59,4,38,10,32,26,27,20,4,3,0.6,0.5
2022-06-17T21:00:00,1360A,114.2458,22.5689,深圳市,盐田,,13,13,16,4,6,44,16,39,32,15,15,3,2,0.5,0.6
2022-06-17T21:00:00,1361A,114.2283,22.7244,深圳市,龙岗,,23,23,23,5,5,73,25,55,48,17,16,7,7,0.4,0.5
2022-06-17T21:00:00,1363A,114.494,22.5422,深圳市,南澳,,19,19,14,3,3,53,31,52,43,8,6,6,6,0.5,0.6
2022-06-17T21:00:00,1364A,114.41,22.6342,深圳市,葵涌,,14,14,11,3,3,46,21,39,34,8,7,6,6,0.5,0.5
2022-06-17T21:00:00,1365A,114.297,22.5978,深圳市,梅沙,,17,17,17,5,5,41,8,36,27,20,14,5,5,0.4,0.5
2022-06-17T21:00:00,1366A,114.0678,22.738,深圳市,观澜,,23,23,18,7,4,36,14,32,27,18,14,4,4,0.4,0.5
2022-06-17T21:00:00,1367A,113.5814,22.2618,珠海市,吉大,,14,14,14,5,8,41,25,37,33,4,3,8,8,0.3,0.3
2022-06-17T21:00:00,1368A,113.4881,22.2335,珠海市,前山,,13,13,11,4,5,41,24,37,32,7,7,9,9,0.3,0.3
2022-06-17T21:00:00,1369A,113.628,22.4251,珠海市,唐家,,12,12,9,4,6,50,23,46,40,10,5,8,8,0.4,0.4
2022-06-17T21:00:00,1370A,113.299,22.2281,珠海市,斗门,,15,15,14,7,6,42,17,40,33,12,6,12,9,0.6,0.4
2022-06-17T21:00:00,1371A,113.1294,23.0067,佛山市,湾梁,颗粒物(PM10),56,61,22,10,8,61,15,48,36,23,16,5,5,0.3,0.3
2022-06-17T21:00:00,1372A,113.1083,23.0478,佛山市,华材职中,,27,27,18,10,7,73,17,50,37,22,15,6,5,0.7,0.6
2022-06-17T21:00:00,1373A,113.144,23.0453,佛山市,南海气象局,,28,28,22,10,10,69,16,54,40,29,19,5,4,0.7,0.7
2022-06-17T21:00:00,1374A,113.2881,22.8094,佛山市,顺德苏岗,,14,14,5,7,6,66,26,50,42,10,13,4,5,0.3,0.3
2022-06-17T21:00:00,1376A,112.8383,22.8678,佛山市,高明孔堂,,17,17,16,5,6,47,35,44,39,5,4,5,5,0.5,0.5
2022-06-17T21:00:00,1377A,112.8836,23.1588,佛山市,三水监测站,,34,34,24,11,10,67,13,44,27,28,24,7,7,0.5,0.5
2022-06-17T21:00:00,1378A,112.867,23.185,佛山市,三水云东海,,28,28,26,10,11,74,18,50,35,27,21,10,6,0.5,0.5
2022-06-17T21:00:00,1379A,113.3769,22.5211,中山市,华柏园,,35,11,16,24,9,47,26,44,40,8,7,3,3,0.5,0.5
2022-06-17T21:00:00,1380A,113.3881,22.5497,中山市,张溪,,17,17,17,5,9,56,32,51,46,6,4,3,3,0.4,0.4
2022-06-17T21:00:00,1381A,113.4075,22.5111,中山市,紫马岭,,17,17,15,5,5,51,25,47,41,10,6,4,4,0.7,0.8
2022-06-17T21:00:00,1382A,113.4411,22.4853,中山市,长江旅游区(对照点),,14,14,16,5,7,60,28,54,46,5,4,4,4,0.4,0.5
2022-06-17T21:00:00,1383A,113.1064,22.6058,江门市,北街,,14,14,18,4,6,48,26,41,37,9,8,4,4,0.4,0.4
2022-06-17T21:00:00,1384A,113.0731,22.5835,江门市,西区,,27,27,22,10,9,50,20,42,36,16,17,5,5,0.5,0.5
2022-06-17T21:00:00,1385A,113.0219,22.5311,江门市,圭峰西,,17,17,22,7,8,42,18,37,33,16,13,3,3,0.4,0.5
2022-06-17T21:00:00,1386A,113.0828,22.5947,江门市,东湖,,29,29,21,14,12,55,23,46,40,13,13,6,6,0.5,0.6
2022-06-17T21:00:00,1389A,113.7547,23.0494,东莞市,莞城梨川,,19,19,13,5,5,82,28,68,59,15,13,6,6,0.6,0.6
2022-06-17T21:00:00,1390A,113.7944,23.0128,东莞市,东城石井,,20,20,13,6,5,84,27,71,60,16,12,2,2,0.4,0.4
2022-06-17T21:00:00,1391A,113.7383,22.9658,东莞市,南城西平,,20,20,14,5,7,83,28,68,58,15,13,2,2,0.5,0.5
2022-06-17T21:00:00,1392A,114.4183,23.0528,惠州市,河南岸金山湖子站,,22,22,20,2,9,70,23,59,50,12,14,2,2,0.4,0.5
2022-06-17T21:00:00,1393A,114.4053,23.0822,惠州市,下埔横江三路子站,,21,21,19,3,6,73,23,61,51,18,19,2,2,0.3,0.4
2022-06-17T21:00:00,1394A,114.4103,23.1142,惠州市,江北云山西路子站,,22,22,25,8,8,84,25,71,58,15,17,3,7,0.3,0.6
2022-06-17T21:00:00,1395A,114.4645,22.7833,惠州市,惠阳区承修路船湖子站,,19,19,16,10,6,56,23,49,43,17,16,2,2,0.7,0.7
2022-06-17T21:00:00,1396A,114.5317,22.7422,惠州市,大亚湾管委会子站,,9,3,15,6,7,57,28,50,45,7,11,5,5,0.3,0.3
2022-06-17T21:00:00,1397A,112.4267,23.0706,肇庆市,睦岗子站,,18,18,21,8,10,62,29,51,41,15,20,8,9,0.5,0.6
2022-06-17T21:00:00,1398A,112.4645,23.0475,肇庆市,城中子站,,18,18,19,7,9,57,31,50,43,13,13,13,10,0.5,0.6
2022-06-17T21:00:00,1399A,112.5544,23.1522,肇庆市,坑口子站,,13,13,18,9,12,54,34,45,41,6,12,9,9,0.5,0.6
2022-06-17T21:00:00,1400A,112.4753,23.1,肇庆市,七星岩子站(对照点),,32,32,26,7,7,60,25,49,41,16,11,15,11,0.7,0.7
2022-06-17T21:00:00,1401A,108.3103,22.7881,南宁市,二十一中,,27,27,28,16,14,82,49,68,64,14,14,5,5,0.6,0.6
2022-06-17T21:00:00,1402A,108.3141,22.8528,南宁市,北湖,,39,39,33,16,14,86,45,71,64,13,19,4,4,0.7,0.7
2022-06-17T21:00:00,1403A,108.3206,22.8225,南宁市,市监测站,,27,27,29,14,14,79,43,64,59,18,19,7,8,0.5,0.6
2022-06-17T21:00:00,1404A,108.3829,22.8037,南宁市,大自然花园,,23,23,23,12,12,78,63,69,67,7,9,6,6,0.5,0.6
2022-06-17T21:00:00,1405A,108.4394,22.7904,南宁市,仙葫(对照点),,24,24,24,14,11,70,62,64,64,8,13,3,3,0.4,0.4
2022-06-17T21:00:00,1406A,108.2397,22.8467,南宁市,区农职院,,32,32,28,13,10,84,38,69,57,28,28,6,6,0.6,0.6
2022-06-17T21:00:00,1407A,108.3275,22.735,南宁市,英华嘉园,,47,47,33,31,16,63,32,54,49,31,23,5,5,0.6,0.6
2022-06-17T21:00:00,1408A,108.2257,22.7757,南宁市,沙井镇街道办,,34,34,34,14,12,62,42,57,48,21,30,5,5,0.4,0.7
2022-06-17T21:00:00,1409A,110.576,19.9507,海口市,东寨港(对照点),,,,25,2,11,24,14,22,21,2,3,8,9,0.1,0.2
2022-06-17T21:00:00,1410A,110.3232,20.0574,海口市,海南大学,,23,20,20,16,10,74,30,59,53,3,2,5,5,0.2,0.3
2022-06-17T21:00:00,1411A,110.283,20.0053,海口市,秀英海南医院,,28,28,20,8,8,61,19,47,44,29,12,2,2,0.3,0.3
2022-06-17T21:00:00,1412A,110.338,19.9969,海口市,海南师范大学,,21,21,19,12,7,71,35,50,48,8,9,3,3,0.5,0.5
2022-06-17T21:00:00,1413A,110.33,20.0356,海口市,龙华路环保局宿舍,,17,17,22,10,8,89,38,60,58,8,7,4,4,0.4,0.4
2022-06-17T21:00:00,1414A,106.3787,29.8279,重庆市,缙云山(对照点),,32,32,23,15,12,121,70,98,96,29,24,9,10,0.3,0.3
2022-06-17T21:00:00,1416A,106.4213,29.8253,重庆市,天生,,44,44,50,19,16,133,44,101,96,46,40,6,7,0.7,0.7
2022-06-17T21:00:00,1417A,106.6263,29.7228,重庆市,两路,,37,30,24,15,9,80,24,50,50,74,63,5,6,0.5,0.4
2022-06-17T21:00:00,1418A,106.2953,29.5983,重庆市,虎溪,,48,45,46,33,30,87,52,76,74,36,44,8,8,0.7,0.7
2022-06-17T21:00:00,1419A,106.5777,29.5102,重庆市,南坪,,42,42,32,15,9,95,27,86,69,46,14,9,9,0.8,0.6
2022-06-17T21:00:00,1420A,106.6556,29.6277,重庆市,唐家沱,,50,50,34,16,8,81,8,58,51,62,49,7,7,0.7,0.6
2022-06-17T21:00:00,1421A,106.6349,29.4906,重庆市,茶园,,25,24,26,17,15,76,37,63,58,30,32,6,6,0.4,0.4
2022-06-17T21:00:00,1422A,106.3754,29.4572,重庆市,白市驿,颗粒物(PM10),77,103,46,25,21,90,44,76,43,29,27,7,12,0.7,0.6
2022-06-17T21:00:00,1425A,106.6205,29.7166,重庆市,空港,,40,40,25,14,12,82,32,51,50,54,48,6,7,0.5,0.5
2022-06-17T21:00:00,1426A,106.4782,29.4875,重庆市,新山村,,32,32,29,15,11,71,28,62,55,52,50,7,10,0.4,0.3
2022-06-17T21:00:00,1427A,106.5616,29.6453,重庆市,礼嘉,,44,44,34,17,12,90,25,61,61,79,69,12,12,0.9,0.8
2022-06-17T21:00:00,1428A,106.4522,29.7091,重庆市,蔡家,,38,34,35,26,24,100,23,77,71,55,40,7,8,0.5,0.5
2022-06-17T21:00:00,1429A,106.5093,29.3917,重庆市,鱼新街,,37,27,32,10,13,69,9,58,47,73,47,6,13,0.8,0.8
2022-06-17T21:00:00,1431A,103.9728,30.7236,成都市,金泉两河,,33,33,50,17,33,199,97,167,153,25,31,3,4,0.4,0.4
2022-06-17T21:00:00,1432A,104.1419,30.6764,成都市,十里店,,39,39,48,22,28,169,92,146,130,19,26,4,6,0.4,0.5
2022-06-17T21:00:00,1433A,104.0594,30.5767,成都市,三瓦窑,,36,36,43,24,26,176,96,153,139,19,30,3,5,0.3,0.4
2022-06-17T21:00:00,1434A,104.1122,30.6306,成都市,沙河铺,,34,34,46,19,28,174,100,147,135,22,32,2,3,0.5,0.5
2022-06-17T21:00:00,1437A,104.0431,30.6556,成都市,君平街,,37,37,52,20,34,188,104,162,150,26,36,1,3,0.6,0.6
2022-06-17T21:00:00,1438A,103.6202,31.0201,成都市,灵岩寺(对照点),,47,39,46,31,34,195,149,178,176,6,5,6,5,0.7,0.8
2022-06-17T21:00:00,1439A,106.6899,26.5998,贵阳市,马鞍山,,35,29,18,24,12,54,34,38,38,10,12,4,4,0.6,0.7
2022-06-17T21:00:00,1440A,106.6971,26.5694,贵阳市,市环保站,,32,22,21,22,14,58,31,41,40,15,22,12,11,0.4,0.5
2022-06-17T21:00:00,1441A,106.6243,26.6266,贵阳市,鉴湖路,颗粒物(PM10),58,66,27,39,13,64,22,43,40,12,11,4,4,0.9,0.8
2022-06-17T21:00:00,1442A,106.7487,26.6343,贵阳市,燕子冲,,32,19,25,22,22,45,19,34,33,9,10,5,6,0.6,0.6
2022-06-17T21:00:00,1443A,106.6555,26.4365,贵阳市,碧云窝,,39,39,35,19,16,63,35,52,50,15,24,3,4,0.7,0.6
2022-06-17T21:00:00,1444A,106.694,26.5161,贵阳市,中院村,,34,34,29,12,13,62,26,46,44,18,20,1,1,0.6,0.6
2022-06-17T21:00:00,1445A,106.7109,26.6027,贵阳市,红边门,,42,29,24,29,20,60,28,43,41,9,13,3,2,0.7,0.7
2022-06-17T21:00:00,1446A,106.7164,26.5699,贵阳市,新华路,,20,19,22,14,16,57,27,45,43,13,17,4,3,0.5,0.5
2022-06-17T21:00:00,1447A,106.674,26.5424,贵阳市,太慈桥,,39,39,9,17,10,55,32,43,43,14,20,8,9,0.5,0.6
2022-06-17T21:00:00,1450A,102.8204,24.8886,昆明市,呈贡新区,,23,23,27,13,12,84,66,81,78,6,11,7,6,0.4,0.5
2022-06-17T21:00:00,1451A,102.6251,24.9608,昆明市,西山森林公园(对照点),,21,18,18,7,10,84,65,80,78,8,10,8,9,0.3,0.3
2022-06-17T21:00:00,1452A,102.7252,25.0902,昆明市,龙泉镇,,27,27,33,9,14,73,55,71,69,8,12,9,10,0.3,0.4
2022-06-17T21:00:00,1453A,102.7266,25.0375,昆明市,东风东路,,33,33,24,11,13,79,56,73,70,13,14,6,7,0.4,0.4
2022-06-17T21:00:00,1454A,102.6742,25.0669,昆明市,金鼎山,,19,17,24,10,14,81,59,76,73,11,15,10,11,0.4,0.4
2022-06-17T21:00:00,1455A,102.6644,25.0401,昆明市,碧鸡广场,,19,19,24,11,13,82,54,78,74,19,21,11,12,0.5,0.6
2022-06-17T21:00:00,1456A,91.1319,29.6514,拉萨市,八廓街,,37,15,12,12,3,134,117,130,128,18,8,6,5,0.3,0.2
2022-06-17T21:00:00,1457A,91.1221,29.6747,拉萨市,市环保局,,39,17,15,7,5,139,122,130,127,17,14,8,8,0.4,0.3
2022-06-17T21:00:00,1458A,91.0874,29.6475,拉萨市,区监测站,,36,11,11,10,10,144,114,137,133,24,15,7,7,0.4,0.3
2022-06-17T21:00:00,1459A,91.1774,29.6541,拉萨市,西藏大学,,39,7,11,1,4,133,123,131,128,8,7,6,9,0.3,0.4
2022-06-17T21:00:00,1460A,90.9798,29.6588,拉萨市,区辐射站,,38,23,14,8,7,132,119,122,122,21,19,8,8,0.2,0.2
2022-06-17T21:00:00,1461A,91.0834,29.6292,拉萨市,拉萨火车站,,38,16,12,4,4,139,120,135,133,17,13,9,8,0.3,0.2
2022-06-17T21:00:00,1462A,108.882,34.2749,西安市,高压开关厂,臭氧1小时,54,50,42,21,17,214,163,200,196,33,35,10,7,0.5,0.4
2022-06-17T21:00:00,1463A,108.993,34.2629,西安市,兴庆小区,,45,42,39,27,20,210,141,193,187,28,24,6,6,0.4,0.3
2022-06-17T21:00:00,1464A,109.06,34.2572,西安市,纺织城,,47,47,50,26,21,215,102,192,184,62,50,9,7,0.5,0.4
2022-06-17T21:00:00,1465A,108.9356,34.2173,西安市,小寨,,44,44,38,23,15,219,129,202,193,42,32,6,5,0.2,0.2
2022-06-17T21:00:00,1466A,108.954,34.2713,西安市,市人民体育场,,,,70,30,28,206,139,206,158,37,27,6,6,0.4,0.3
2022-06-17T21:00:00,1467A,108.8922,34.2322,西安市,高新西区,,48,32,39,19,17,222,152,204,198,26,33,9,6,0.4,0.4
2022-06-17T21:00:00,1468A,108.935,34.3474,西安市,经开区,颗粒物(PM10),51,52,42,20,16,211,156,189,186,29,34,5,4,0.3,0.3
2022-06-17T21:00:00,1469A,108.906,34.1546,西安市,长安区,,49,44,33,22,18,237,155,209,203,20,26,8,7,0.7,0.5
2022-06-17T21:00:00,1471A,109.2186,34.3731,西安市,临潼区,臭氧1小时,79,48,50,18,19,228,183,203,200,14,28,6,6,0.4,0.4
2022-06-17T21:00:00,1472A,108.869,34.378,西安市,草滩(对照点),,46,46,46,21,12,200,123,177,171,35,52,8,5,0.7,0.9
2022-06-17T21:00:00,1473A,108.985,34.1978,西安市,曲江文化产业集团,,44,32,37,22,17,218,138,203,194,37,33,5,5,0.6,0.4
2022-06-17T21:00:00,1474A,109.051,34.3213,西安市,广运潭,,48,48,40,23,18,203,142,184,180,28,26,8,7,0.4,0.3
2022-06-17T21:00:00,1476A,103.631,36.1031,兰州市,兰炼宾馆,颗粒物(PM10),52,54,44,16,20,187,123,174,167,18,19,4,5,0.1,0.3
2022-06-17T21:00:00,1478A,103.8412,36.0726,兰州市,生物制品所,颗粒物(PM10),56,62,42,23,20,188,123,175,166,23,17,5,7,0.6,0.6
2022-06-17T21:00:00,1479A,103.831,36.0464,兰州市,铁路设计院,,46,46,42,25,17,169,119,158,151,19,24,5,7,0.4,0.4
2022-06-17T21:00:00,1483A,101.524,36.6867,西宁市,第五水厂(对照点),臭氧1小时,58,38,38,15,16,222,166,206,198,39,35,13,12,0.7,0.6
2022-06-17T21:00:00,1484A,105.9512,38.6016,银川市,贺兰山马莲口(对照点),臭氧1小时,77,87,41,24,16,207,181,188,188,8,7,16,11,0.4,0.4
2022-06-17T21:00:00,1488A,106.2328,38.4975,银川市,贺兰山东路,臭氧1小时,60,44,34,12,14,222,168,196,196,42,19,19,10,0.5,0.4
2022-06-17T21:00:00,1489A,106.1358,38.5036,银川市,学院路,颗粒物(PM10),58,65,43,7,12,213,164,191,191,34,20,20,14,0.4,0.4
2022-06-17T21:00:00,1490A,87.5801,43.8303,乌鲁木齐市,监测站,,33,10,13,6,4,114,104,106,106,14,16,8,8,0.5,0.5
2022-06-17T21:00:00,1491A,87.6046,43.768,乌鲁木齐市,收费所,,30,20,15,7,4,112,94,104,104,31,20,5,6,0.4,0.4
2022-06-17T21:00:00,1492A,87.4754,43.9469,乌鲁木齐市,新疆农科院农场(对照点),颗粒物(PM10),71,91,46,6,6,128,119,122,122,10,21,8,8,0.3,0.4
2022-06-17T21:00:00,1493A,87.5525,43.8711,乌鲁木齐市,铁路局,,34,18,13,7,6,124,108,114,114,15,15,8,8,0.4,0.5
2022-06-17T21:00:00,1494A,87.6432,43.831,乌鲁木齐市,三十一中学,,31,10,13,10,5,112,98,105,105,22,20,3,2,0.2,0.2
2022-06-17T21:00:00,1496A,87.7216,44.1747,乌鲁木齐市,米东区环保局,,29,13,18,8,17,120,92,112,111,9,17,10,10,0.5,0.5
2022-06-17T21:00:00,1508A,112.9433,27.8614,湘潭市,板塘,,21,21,30,13,13,52,31,45,38,21,18,4,7,1.1,0.7
2022-06-17T21:00:00,1511A,112.9118,27.8403,湘潭市,市监测站,,20,20,18,14,17,50,33,44,38,18,18,9,10,1.0,0.7
2022-06-17T21:00:00,1512A,112.8937,27.8728,湘潭市,江麓,,35,35,31,17,15,56,32,52,37,16,17,6,5,0.7,0.5
2022-06-17T21:00:00,1513A,112.9227,27.8159,湘潭市,岳塘,,25,25,28,15,14,55,35,52,45,16,12,1,3,1.1,0.7
2022-06-17T21:00:00,1514A,112.9074,27.9119,湘潭市,科大,,19,19,28,4,10,53,25,53,38,26,18,4,7,1.0,0.7
2022-06-17T21:00:00,1515A,113.135,27.8244,株洲市,天台山庄,,18,7,9,12,13,50,32,46,39,17,15,3,6,0.5,0.5
2022-06-17T21:00:00,1518A,113.095,27.8867,株洲市,株冶医院,,16,9,14,11,12,58,24,47,35,22,19,5,9,1.0,0.7
2022-06-17T21:00:00,1519A,113.167,27.8667,株洲市,市四中,,14,5,17,8,16,57,36,53,48,28,20,4,9,0.9,1
2022-06-17T21:00:00,1520A,113.143,27.8381,株洲市,火车站,,16,14,21,11,14,51,29,45,38,16,13,4,5,0.6,0.6
2022-06-17T21:00:00,1524A,113.13,27.8528,株洲市,市监测站,,18,12,18,12,17,60,38,54,46,17,14,3,6,0.6,0.5
2022-06-17T21:00:00,1559A,113.251,27.8336,株洲市,大京风景区(对照点),,13,7,16,9,12,50,16,46,36,6,5,3,3,0.6,0.6
2022-06-17T21:00:00,1562A,113.0048,27.9153,湘潭市,昭山,,16,12,11,11,14,54,22,47,37,17,12,4,5,0.8,0.5
2022-06-17T21:00:00,1564A,112.4876,27.9164,湘潭市,韶山(对照点),,14,12,23,9,14,58,44,56,53,7,10,2,3,0.7,0.7
2022-06-17T21:00:00,1585A,109.8756,40.6532,包头市,市环境监测站,颗粒物(PM10),60,69,60,19,22,165,130,155,146,21,40,8,16,0.4,0.7
2022-06-17T21:00:00,1587A,109.9991,40.5842,包头市,包头八中,颗粒物(PM10),66,82,64,35,29,177,134,161,156,15,31,18,33,0.5,0.7
2022-06-17T21:00:00,1588A,109.8538,40.6821,包头市,青山宾馆,颗粒物(PM10),51,52,64,16,27,164,111,153,141,36,51,12,22,0.4,0.9
2022-06-17T21:00:00,1589A,109.8642,40.6288,包头市,惠龙物流,颗粒物(PM10),54,58,64,21,20,167,139,162,156,18,41,8,22,0.5,0.7
2022-06-17T21:00:00,1590A,110.0377,40.5546,包头市,东河鸿龙湾,颗粒物(PM10),63,75,77,23,27,192,130,171,158,12,29,10,21,0.4,0.6
2022-06-17T21:00:00,1591A,110.0023,39.8129,鄂尔多斯市,综合楼,,,40,50,10,14,199,150,169,169,,30,5,8,0.5,0.5
2022-06-17T21:00:00,1592A,109.9486,39.8261,鄂尔多斯市,巴音孟克林场办事处,,45,41,58,14,18,200,144,173,172,14,22,8,9,0.6,0.7
2022-06-17T21:00:00,1593A,109.7736,39.5986,鄂尔多斯市,康泽苑,,45,34,41,12,14,194,144,170,170,16,17,4,5,0.4,0.4
2022-06-17T21:00:00,1594A,109.8119,39.5989,鄂尔多斯市,华泰汽车城,,48,36,43,19,17,198,153,173,173,10,21,6,6,0.4,0.6
2022-06-17T21:00:00,1595A,109.9734,39.7884,鄂尔多斯市,奥林花园,颗粒物(PM10),91,132,85,17,22,197,139,167,166,25,32,6,7,0.4,0.6
2022-06-17T21:00:00,1597A,122.2703,40.7094,营口市,大庆路,,40,29,35,18,15,168,126,149,142,7,10,4,7,0.5,0.5
2022-06-17T21:00:00,1598A,122.215,40.6511,营口市,镜湖西路,,42,29,27,13,12,173,133,146,140,6,14,4,4,0.6,0.5
2022-06-17T21:00:00,1599A,122.167,40.6655,营口市,西炮台,,38,25,23,16,12,172,120,159,146,21,22,5,6,0.6,0.6
2022-06-17T21:00:00,1600A,124.3303,40.0625,丹东市,江湾东路,,33,26,19,16,12,105,104,90,90,6,7,7,8,0.4,0.4
2022-06-17T21:00:00,1601A,124.4256,40.1503,丹东市,临江后街,,,,,17,10,141,116,128,128,2,4,11,12,1.3,1.2
2022-06-17T21:00:00,1602A,124.3933,40.1461,丹东市,元宝山,,37,30,21,17,12,134,118,124,124,4,5,9,10,0.7,0.6
2022-06-17T21:00:00,1603A,124.3633,40.1092,丹东市,民主桥,,35,26,18,15,12,137,112,122,122,2,2,13,14,0.8,0.8
2022-06-17T21:00:00,1604A,122.0303,41.1489,盘锦市,开发区,,35,18,25,14,16,158,111,146,140,12,12,3,4,0.7,0.6
2022-06-17T21:00:00,1605A,122.0485,41.0883,盘锦市,兴隆台,,35,11,27,13,17,162,110,147,141,13,13,3,3,0.7,0.6
2022-06-17T21:00:00,1606A,121.8297,41.1028,盘锦市,新生街道,,36,12,21,9,17,158,115,141,139,13,12,2,2,0.6,0.5
2022-06-17T21:00:00,1607A,120.9092,40.7136,葫芦岛市,龙港区,,44,27,30,25,23,170,139,155,155,9,12,5,6,0.5,0.5
2022-06-17T21:00:00,1608A,120.8392,40.7514,葫芦岛市,化工街,细颗粒物(PM2.5),65,43,51,47,32,175,132,157,155,12,13,5,5,0.4,0.3
2022-06-17T21:00:00,1609A,120.8341,40.7073,葫芦岛市,新区,,46,28,34,32,36,175,136,157,157,10,13,6,7,0.6,0.6
2022-06-17T21:00:00,1610A,120.8695,40.7677,葫芦岛市,东城区,细颗粒物(PM2.5),53,31,34,37,38,167,129,151,150,10,14,5,6,0.4,0.3
2022-06-17T21:00:00,1611A,118.5819,24.9117,泉州市,涂山街,,16,16,20,8,13,40,28,36,34,20,28,5,8,0.3,0.4
2022-06-17T21:00:00,1612A,118.5972,24.8978,泉州市,津头埔,,24,24,32,13,15,35,21,31,29,24,28,4,5,0.5,0.5
2022-06-17T21:00:00,1613A,118.6663,24.9424,泉州市,万安,,20,20,20,8,13,45,25,40,37,18,24,5,5,0.5,0.5
2022-06-17T21:00:00,1616A,117.6795,36.229,济南市,技术学院,颗粒物(PM10),65,80,50,34,25,249,171,224,222,38,11,10,9,1.2,0.8
2022-06-17T21:00:00,1618A,118.3429,35.0532,临沂市,沂河小区,颗粒物(PM10),68,85,77,26,34,223,145,208,203,22,10,8,10,0.4,0.6
2022-06-17T21:00:00,1619A,118.295,35.0583,临沂市,鲁南制药厂,臭氧1小时,89,90,66,23,32,248,191,231,229,35,20,9,8,0.7,0.9
2022-06-17T21:00:00,1620A,118.2794,34.9976,临沂市,新光毛纺厂,,,95,67,41,34,221,,214,214,59,33,2,7,0.7,1
2022-06-17T21:00:00,1621A,118.3956,35.0888,临沂市,河东保险公司,颗粒物(PM10),58,66,64,25,30,231,130,205,198,30,17,4,7,0.4,0.6
2022-06-17T21:00:00,1622A,116.3032,37.4674,德州市,儿童乐园,臭氧1小时,112,162,112,63,46,328,224,300,296,31,13,11,12,0.8,0.8
2022-06-17T21:00:00,1624A,116.2991,37.4451,德州市,监理站,臭氧1小时,120,139,100,69,44,310,240,288,286,34,19,10,12,1.1,0.9
2022-06-17T21:00:00,1625A,115.9848,36.4372,聊城市,区政府,臭氧1小时,118,118,101,44,45,310,235,285,283,23,14,15,15,0.9,0.9
2022-06-17T21:00:00,1628A,118.0062,37.3803,滨州市,市环保局,颗粒物(PM10),51,51,60,19,35,285,152,252,239,14,13,12,10,0.4,0.4
2022-06-17T21:00:00,1629A,118.0018,37.3617,滨州市,第二水厂,,44,44,49,12,27,240,132,210,200,17,17,10,12,0.6,0.7
2022-06-17T21:00:00,1630A,117.9776,37.393,滨州市,北中新校,,48,48,44,19,29,258,141,230,220,16,14,7,7,0.6,0.6
2022-06-17T21:00:00,1631A,118.0414,36.8103,淄博市,人民公园,细颗粒物(PM2.5),83,105,50,61,32,240,162,222,218,33,16,12,9,0.9,0.3
2022-06-17T21:00:00,1633A,117.8525,36.4847,淄博市,双山,细颗粒物(PM2.5),67,81,52,48,35,234,152,216,211,30,13,11,12,0.6,0.5
2022-06-17T21:00:00,1634A,117.9592,36.6331,淄博市,气象站,臭氧1小时,85,90,48,44,24,235,188,222,219,24,15,12,12,0.5,0.3
2022-06-17T21:00:00,1635A,118.3092,36.8194,淄博市,莆田园,颗粒物(PM10),62,73,41,39,25,265,128,237,219,32,15,8,11,0.6,0.3
2022-06-17T21:00:00,1637A,117.558,34.8438,枣庄市,市中区政府,臭氧1小时,83,78,86,22,33,232,186,219,209,31,24,9,14,0.4,0.7
2022-06-17T21:00:00,1638A,117.2852,34.7837,枣庄市,薛城环保局,颗粒物(PM10),66,81,84,24,36,253,142,226,211,43,27,12,22,0.8,0.7
2022-06-17T21:00:00,1639A,117.5852,34.7745,枣庄市,峄城区政府,颗粒物(PM10),81,112,83,34,41,232,136,207,195,44,25,9,15,0.5,0.6
2022-06-17T21:00:00,1640A,117.7276,34.5578,枣庄市,台儿庄区环保局,颗粒物(PM10),62,73,66,24,32,223,159,205,198,29,24,12,14,0.7,0.7
2022-06-17T21:00:00,1641A,117.4518,35.0992,枣庄市,山亭区环保局,颗粒物(PM10),56,61,63,29,36,253,152,226,218,36,20,9,13,0.6,0.6
2022-06-17T21:00:00,1642A,121.2514,37.5639,烟台市,开发区,,,,41,,22,184,144,162,159,13,13,1,6,0.4,0.5
2022-06-17T21:00:00,1643A,121.3719,37.5433,烟台市,轴承厂,,48,19,36,13,23,171,152,160,158,6,8,4,4,0.3,0.4
2022-06-17T21:00:00,1644A,121.3181,37.5436,烟台市,西郊化工站,,44,22,33,9,23,171,139,156,152,8,6,5,5,0.3,0.4
2022-06-17T21:00:00,1645A,121.4478,37.4822,烟台市,莱山环保局,,46,22,29,9,22,166,145,154,153,9,6,6,6,0.3,0.3
2022-06-17T21:00:00,1646A,121.2611,37.4967,烟台市,福山环保局,,39,22,39,5,20,187,124,155,144,14,15,3,2,0.3,0.3
2022-06-17T21:00:00,1650A,119.1437,36.7023,潍坊市,环保局,臭氧1小时,58,48,29,33,22,206,166,189,188,7,8,8,7,0.7,0.6
2022-06-17T21:00:00,1653A,116.6251,35.4302,济宁市,火炬城,,,67,63,19,28,260,186,241,234,,12,8,10,,0.7
2022-06-17T21:00:00,1655A,116.5491,35.4042,济宁市,电化厂,颗粒物(PM10),55,59,67,22,28,246,153,229,216,34,15,3,13,0.8,1
2022-06-17T21:00:00,1656A,117.1437,36.1937,泰安市,监测站,颗粒物(PM10),68,85,66,41,36,253,162,233,228,28,13,11,12,0.5,0.6
2022-06-17T21:00:00,1657A,117.0885,36.2017,泰安市,人口学校,臭氧1小时,113,75,66,31,31,261,225,242,242,17,14,7,9,0.4,0.5
2022-06-17T21:00:00,1658A,117.1089,36.1758,泰安市,电力学校,颗粒物(PM10),68,85,68,32,33,243,156,222,217,36,12,6,7,0.8,0.8
2022-06-17T21:00:00,1659A,119.471,35.4209,日照市,监测站,细颗粒物(PM2.5),59,48,38,42,27,194,123,164,158,12,15,5,5,0.5,0.7
2022-06-17T21:00:00,1660A,119.523,35.4216,日照市,市政府广场,,46,46,37,28,22,174,113,165,153,6,12,6,7,0.5,0.7
2022-06-17T21:00:00,1661A,119.5587,35.4044,日照市,港务局,,42,39,33,20,17,184,134,180,166,6,11,3,3,0.4,0.6
2022-06-17T21:00:00,1662A,122.1214,37.4236,威海市,华夏技校,,40,17,26,14,23,159,126,147,143,11,9,3,4,0.4,0.4
2022-06-17T21:00:00,1663A,122.0508,37.5236,威海市,山大分校,,50,15,27,7,17,187,159,169,167,7,9,6,6,0.4,0.4
2022-06-17T21:00:00,1664A,122.1067,37.5072,威海市,市监测站,,42,24,28,12,26,163,132,151,145,19,14,6,5,0.4,0.4
2022-06-17T21:00:00,1666A,118.6614,37.4309,东营市,市环保局,臭氧1小时,58,46,28,17,17,197,166,184,182,11,8,9,10,0.7,0.6
2022-06-17T21:00:00,1669A,113.5824,24.7733,韶关市,市八中,,44,44,30,26,16,42,8,35,25,41,19,7,7,1.2,0.8
2022-06-17T21:00:00,1671A,113.5917,24.7972,韶关市,园林处,颗粒物(PM10),51,51,27,29,16,37,4,30,21,41,20,4,4,1.2,0.8
2022-06-17T21:00:00,1672A,113.6735,24.7791,韶关市,韶关学院,,38,21,27,26,19,41,38,31,31,10,22,6,9,0.4,0.7
2022-06-17T21:00:00,1673A,113.5971,24.6863,韶关市,曲江监测站,,29,26,25,20,16,108,28,48,25,21,28,7,9,0.8,0.7
2022-06-17T21:00:00,1674A,116.6794,23.3667,汕头市,金平子站,,18,18,22,8,13,49,34,44,42,10,14,8,8,0.5,0.6
2022-06-17T21:00:00,1675A,116.7244,23.3633,汕头市,龙湖子站,,25,25,16,6,6,54,37,47,45,10,14,7,7,0.4,0.4
2022-06-17T21:00:00,1676A,116.7258,23.2775,汕头市,濠江子站,,11,11,21,7,8,47,22,42,39,20,16,10,9,0.5,0.5
2022-06-17T21:00:00,1677A,116.7519,23.4714,汕头市,澄海子站,,43,43,29,11,18,57,20,50,43,25,18,4,4,0.8,0.6
2022-06-17T21:00:00,1678A,116.6092,23.2539,汕头市,潮阳子站,,17,17,16,8,8,42,31,40,39,6,8,7,7,0.5,0.5
2022-06-17T21:00:00,1680A,110.3539,21.2706,湛江市,湛江影剧院,颗粒物(PM10),53,55,28,21,13,81,33,68,64,32,15,7,7,0.6,0.5
2022-06-17T21:00:00,1681A,110.3928,21.2228,湛江市,市环境监测站,,28,28,27,10,13,94,55,80,77,9,15,5,6,0.4,0.4
2022-06-17T21:00:00,1682A,110.4019,21.1997,湛江市,环保局宿舍,,28,28,27,11,15,89,39,72,69,16,17,4,5,0.5,0.5
2022-06-17T21:00:00,1683A,110.4111,21.2028,湛江市,霞山游泳场,,18,18,21,6,12,83,44,68,66,9,14,6,6,0.4,0.4
2022-06-17T21:00:00,1684A,110.3316,21.2679,湛江市,麻章区环保局,颗粒物(PM10),53,55,30,22,16,79,37,68,65,30,13,12,8,0.6,0.5
2022-06-17T21:00:00,1685A,110.4558,21.2567,湛江市,坡头区环保局,,24,24,24,13,13,93,43,84,78,10,10,5,5,0.6,0.6
2022-06-17T21:00:00,1686A,111.0286,21.4688,茂名市,电白南海,,27,27,27,9,6,47,32,38,35,10,12,1,1,0.5,0.5
2022-06-17T21:00:00,1687A,110.9294,21.6533,茂名市,茂石化七小,,36,36,25,17,12,61,34,54,48,11,11,3,4,0.4,0.5
2022-06-17T21:00:00,1688A,110.9107,21.6687,茂名市,健康路,,17,17,19,3,5,62,37,52,48,8,9,4,5,0.6,0.6
2022-06-17T21:00:00,1689A,110.8592,21.6828,茂名市,高岭,,9,7,8,0,4,66,26,66,44,10,8,5,5,0.5,0.5
2022-06-17T21:00:00,1690A,116.1231,24.3284,梅州市,梅江月梅,,13,11,12,9,8,66,22,54,47,5,13,2,2,0.5,0.6
2022-06-17T21:00:00,1691A,116.0797,24.2719,梅州市,梅县新城,,16,16,13,10,10,54,4,40,29,25,20,5,4,0.8,0.7
2022-06-17T21:00:00,1692A,116.1248,24.2654,梅州市,环境监控中心,,20,19,18,14,13,62,2,52,40,24,20,4,5,0.8,0.6
2022-06-17T21:00:00,1693A,115.3653,22.775,汕尾市,市环保局,,10,10,14,4,4,44,31,39,38,7,6,5,5,0.4,0.4
2022-06-17T21:00:00,1694A,115.3706,22.7898,汕尾市,市政府,,10,6,12,6,5,47,32,42,40,7,6,5,5,0.5,0.5
2022-06-17T21:00:00,1695A,115.3622,22.7925,汕尾市,新城中学,,13,13,14,5,5,48,14,45,39,6,5,5,5,0.6,0.6
2022-06-17T21:00:00,1696A,114.6778,23.7569,河源市,源西(对照点),,30,30,14,19,8,42,2,30,20,41,27,4,3,0.9,0.5
2022-06-17T21:00:00,1697A,114.6944,23.7586,河源市,东埔,,33,33,12,19,7,52,2,38,30,38,19,3,3,1.3,0.8
2022-06-17T21:00:00,1698A,114.6892,23.7233,河源市,老城,,25,25,12,16,8,54,12,42,35,24,15,2,2,1.2,0.7
2022-06-17T21:00:00,1701A,111.9491,21.8658,阳江市,马南垌,,21,21,21,7,9,46,30,43,38,4,4,2,2,0.6,0.6
2022-06-17T21:00:00,1702A,113.0426,23.691,清远市,环保大楼(对照点),,22,22,14,14,10,108,22,74,55,26,13,5,5,0.5,0.4
2022-06-17T21:00:00,1703A,113.0208,23.7106,清远市,凤城街办,,23,23,15,11,8,82,17,62,48,26,14,6,5,0.6,0.6
2022-06-17T21:00:00,1705A,116.6367,23.6719,潮州市,西园路(对照点),,23,23,24,8,15,72,20,54,47,25,17,5,5,1.4,1
2022-06-17T21:00:00,1706A,116.6447,23.6706,潮州市,档案局,,31,31,26,13,14,89,9,66,52,32,20,8,8,1.4,0.9
2022-06-17T21:00:00,1708A,116.3701,23.5345,揭阳市,新兴,,26,26,30,10,17,82,12,57,47,25,21,4,6,1.0,0.9
2022-06-17T21:00:00,1709A,116.3264,23.5443,揭阳市,西马,,29,29,26,9,17,93,17,49,46,18,19,6,7,1.1,0.9
2022-06-17T21:00:00,1710A,116.3611,23.5626,揭阳市,东兴,,30,30,33,10,13,81,21,54,51,20,23,4,6,0.8,0.9
2022-06-17T21:00:00,1711A,116.4151,23.5294,揭阳市,渔湖,,27,27,31,7,14,68,16,54,42,19,17,4,5,0.7,0.8
2022-06-17T21:00:00,1714A,112.0539,22.9539,云浮市,牧羊,,21,21,27,8,12,44,18,40,36,21,16,6,6,0.6,0.6
2022-06-17T21:00:00,1715A,102.575,24.3711,玉溪市,东风水库,,35,35,22,11,11,74,55,70,66,10,8,3,4,0.7,0.7
2022-06-17T21:00:00,1718A,115.4208,35.2464,菏泽市,气象局,颗粒物(PM10),72,93,79,18,24,231,162,208,195,28,19,11,9,0.4,0.4
2022-06-17T21:00:00,1719A,115.4747,35.2375,菏泽市,市政协,颗粒物(PM10),65,79,78,17,20,225,157,202,190,24,16,13,10,0.2,0.2
2022-06-17T21:00:00,1721A,113.3819,40.1097,大同市,果树场(对照点),颗粒物(PM10),67,83,61,30,36,224,127,197,179,20,25,8,12,0.6,0.7
2022-06-17T21:00:00,1723A,113.2994,40.0758,大同市,云冈宾馆,颗粒物(PM10),59,68,88,30,42,225,134,196,178,29,28,9,12,0.5,0.7
2022-06-17T21:00:00,1724A,113.3444,40.0917,大同市,大同大学,颗粒物(PM10),68,86,80,20,33,236,147,207,188,21,19,5,9,0.6,0.7
2022-06-17T21:00:00,1725A,113.2661,40.1269,大同市,安家小村,颗粒物(PM10),77,104,92,23,28,255,146,220,200,24,22,11,18,0.5,0.7
2022-06-17T21:00:00,1726A,113.2711,40.0844,大同市,教育学院,颗粒物(PM10),72,93,92,19,33,240,133,206,184,31,25,8,14,0.5,0.6
2022-06-17T21:00:00,1727A,113.1147,36.1547,长治市,清华站,臭氧1小时,74,50,54,22,23,191,179,185,184,20,27,9,10,0.7,0.7
2022-06-17T21:00:00,1728A,113.1031,36.1989,长治市,监测站,臭氧1小时,82,55,56,29,26,190,185,183,183,7,23,9,9,0.5,0.6
2022-06-17T21:00:00,1730A,113.0886,36.2125,长治市,审计局,臭氧1小时,70,48,52,22,24,186,176,178,177,19,35,9,12,0.6,0.7
2022-06-17T21:00:00,1731A,113.0844,36.1856,长治市,长治八中,臭氧1小时,85,59,61,22,22,193,188,187,187,19,37,13,17,0.5,0.6
2022-06-17T21:00:00,1733A,111.5531,36.0783,临汾市,临钢医院,颗粒物(PM10),59,68,66,17,20,228,110,218,200,44,40,4,10,0.7,0.8
2022-06-17T21:00:00,1734A,111.5028,36.0714,临汾市,技工学校,颗粒物(PM10),58,66,54,31,28,222,108,198,183,41,35,8,15,0.4,0.7
2022-06-17T21:00:00,1736A,111.5018,36.0855,临汾市,市委,,45,45,57,24,23,240,130,223,207,41,38,4,9,0.5,0.4
2022-06-17T21:00:00,1738A,113.5758,37.8572,阳泉市,市中心,臭氧1小时,127,102,131,52,64,300,253,281,276,30,50,24,18,0.9,1
2022-06-17T21:00:00,1739A,113.4894,37.8731,阳泉市,赛鱼,臭氧1小时,115,79,93,43,56,311,230,291,279,32,40,12,13,0.8,0.9
2022-06-17T21:00:00,1740A,113.5819,37.8486,阳泉市,南庄,臭氧1小时,126,102,127,49,64,300,251,277,271,26,32,28,17,1.1,1.2
2022-06-17T21:00:00,1742A,113.5614,37.8703,阳泉市,平坦,臭氧1小时,134,105,133,48,58,320,268,296,290,24,41,17,21,0.9,1.2
2022-06-17T21:00:00,1743A,113.5158,37.8392,阳泉市,大阳泉,臭氧1小时,126,74,99,45,58,296,252,276,270,19,17,16,17,0.9,1
2022-06-17T21:00:00,1744A,118.9233,42.2816,赤峰市,松山一中,"颗粒物(PM10),细颗粒物(PM2.5)",57,64,48,40,32,168,125,155,148,30,22,12,11,1.0,0.8
2022-06-17T21:00:00,1745A,118.9576,42.2728,赤峰市,哈达街,颗粒物(PM10),62,74,53,39,28,156,131,148,144,28,24,11,15,0.9,0.7
2022-06-17T21:00:00,1746A,118.8788,42.2554,赤峰市,天义路,颗粒物(PM10),51,52,41,33,25,178,138,163,158,25,17,12,12,0.8,0.7
2022-06-17T21:00:00,1748A,123.044,41.1196,鞍山市,深沟寺,,43,37,27,30,19,164,110,154,125,6,7,7,8,0.6,0.6
2022-06-17T21:00:00,1749A,123.011,41.0931,鞍山市,太阳城,,46,46,31,30,20,162,100,140,122,12,11,7,8,0.7,0.7
2022-06-17T21:00:00,1750A,123.0485,41.1442,鞍山市,太平,颗粒物(PM10),56,61,37,33,20,171,120,138,129,9,12,8,9,0.7,0.6
2022-06-17T21:00:00,1751A,122.9642,41.0971,鞍山市,铁西三道街,颗粒物(PM10),51,52,40,34,20,174,103,151,130,23,16,6,7,0.8,0.8
2022-06-17T21:00:00,1752A,122.9341,41.0833,鞍山市,铁西工业园区,颗粒物(PM10),53,55,52,36,24,161,111,143,128,16,16,7,9,1.5,1
2022-06-17T21:00:00,1753A,123.022,41.0821,鞍山市,明达新区,,46,46,31,32,20,165,113,141,128,12,9,4,5,0.5,0.5
2022-06-17T21:00:00,1754A,123.1289,41.0228,鞍山市,千山(对照点),细颗粒物(PM2.5),109,96,83,82,65,102,101,96,96,6,7,3,4,0.3,0.3
2022-06-17T21:00:00,1755A,123.7977,41.8491,抚顺市,望花区,颗粒物(PM10),51,52,41,23,20,180,66,166,145,32,19,7,7,0.7,0.6
2022-06-17T21:00:00,1756A,123.9161,41.8822,抚顺市,顺城区,颗粒物(PM10),56,62,46,18,20,165,76,152,137,21,20,9,10,0.6,0.5
2022-06-17T21:00:00,1757A,124.0436,41.8611,抚顺市,东洲区,,49,49,40,17,18,187,94,173,159,13,10,17,9,0.4,0.4
2022-06-17T21:00:00,1758A,123.9247,41.8642,抚顺市,新抚区,,48,48,46,16,18,179,85,165,150,17,17,6,7,0.6,0.6
2022-06-17T21:00:00,1759A,124.0972,41.8961,抚顺市,大伙房水库,,38,38,39,16,16,196,105,182,169,8,7,10,12,0.3,0.3
2022-06-17T21:00:00,1760A,123.7086,41.8391,抚顺市,沈抚新城,颗粒物(PM10),52,53,36,23,20,189,58,173,149,41,20,7,7,1.2,0.6
2022-06-17T21:00:00,1761A,123.8275,41.3064,本溪市,大峪,,43,43,31,18,11,128,59,121,100,30,12,5,5,0.5,0.5
2022-06-17T21:00:00,1762A,123.7567,41.3325,本溪市,溪湖,,31,31,26,20,14,110,94,106,100,14,16,6,9,0.7,0.7
2022-06-17T21:00:00,1763A,123.7169,41.3094,本溪市,彩屯,细颗粒物(PM2.5),90,69,43,67,28,91,69,84,73,44,42,11,14,2.3,2.3
2022-06-17T21:00:00,1764A,123.7669,41.2864,本溪市,东明,,32,30,24,17,12,113,102,106,103,10,10,6,6,0.5,0.5
2022-06-17T21:00:00,1765A,123.7992,41.2664,本溪市,新立屯,,36,28,27,22,13,116,113,109,106,6,6,4,4,0.8,0.8
2022-06-17T21:00:00,1766A,123.8142,41.3472,本溪市,威宁,,41,41,34,17,13,141,74,134,113,6,9,9,9,0.3,0.3
2022-06-17T21:00:00,1767A,121.1115,41.0879,锦州市,南山,细颗粒物(PM2.5),63,42,47,45,47,144,108,129,128,14,13,6,12,0.7,0.8
2022-06-17T21:00:00,1768A,121.0533,40.8434,锦州市,开发区,颗粒物(PM10),70,90,73,39,41,146,100,131,129,22,17,5,10,0.7,0.7
2022-06-17T21:00:00,1769A,121.1836,41.1119,锦州市,百股街道,,40,23,30,22,31,171,125,153,151,12,13,4,15,0.8,0.8
2022-06-17T21:00:00,1770A,121.1178,41.1222,锦州市,天安街道,细颗粒物(PM2.5),67,35,40,48,48,162,120,144,142,13,15,5,10,0.7,0.7
2022-06-17T21:00:00,1771A,121.1303,41.1386,锦州市,北湖公园,细颗粒物(PM2.5),72,32,39,52,51,161,122,146,144,14,15,5,10,0.6,0.6
2022-06-17T21:00:00,1772A,126.54,43.8622,吉林市,哈达湾,,50,50,45,31,31,155,121,144,141,20,15,5,6,0.6,0.6
2022-06-17T21:00:00,1773A,126.5844,43.8358,吉林市,东局子,细颗粒物(PM2.5),57,60,47,40,31,157,89,143,136,38,21,5,5,0.8,0.7
2022-06-17T21:00:00,1774A,126.5052,43.8245,吉林市,电力学院,细颗粒物(PM2.5),67,62,41,48,32,156,78,151,132,42,18,4,4,0.8,0.8
2022-06-17T21:00:00,1775A,126.6133,43.8972,吉林市,江北,细颗粒物(PM2.5),59,61,41,42,31,147,80,136,129,30,18,9,8,0.8,0.7
2022-06-17T21:00:00,1776A,126.555,43.8306,吉林市,江南公园,颗粒物(PM10),52,54,41,32,27,148,90,137,130,30,15,4,4,0.7,0.6
2022-06-17T21:00:00,1778A,126.7061,43.7133,吉林市,丰满(对照点),,43,42,42,30,34,151,80,137,132,10,12,4,4,0.7,0.7
2022-06-17T21:00:00,1779A,123.9305,47.3636,齐齐哈尔市,安居小区,,45,45,19,13,8,93,31,83,68,41,15,6,6,0.7,0.3
2022-06-17T21:00:00,1780A,123.9488,47.3386,齐齐哈尔市,中心广场,,32,32,18,9,5,90,46,83,69,36,15,5,4,1.0,0.4
2022-06-17T21:00:00,1781A,123.9483,47.3227,齐齐哈尔市,农牧车辆厂,颗粒物(PM10),60,70,30,14,6,92,39,87,73,33,12,3,3,0.4,0.2
2022-06-17T21:00:00,1783A,123.945,47.2988,齐齐哈尔市,市环境监测站,,38,27,19,26,16,98,54,92,80,24,12,4,4,0.4,0.3
2022-06-17T21:00:00,1784A,129.61,44.561,牡丹江市,环保大楼,,23,23,15,6,8,101,68,93,86,21,15,4,4,0.5,0.5
2022-06-17T21:00:00,1785A,129.6115,44.5782,牡丹江市,文化广场,,23,18,13,7,8,94,73,89,80,18,16,2,2,0.5,0.4
2022-06-17T21:00:00,1786A,129.5904,44.5963,牡丹江市,第一医院,,23,23,16,9,9,89,62,81,74,16,14,3,3,0.7,0.7
2022-06-17T21:00:00,1787A,129.6364,44.6075,牡丹江市,机车工厂,,26,18,9,18,8,85,53,79,70,30,18,6,7,0.4,0.3
2022-06-17T21:00:00,1788A,129.6386,44.5462,牡丹江市,第一中学,,21,21,12,3,5,90,33,85,74,38,15,2,2,0.5,0.5
2022-06-17T21:00:00,1789A,124.81117,46.03138,大庆市,大同区,,27,27,23,7,8,107,65,94,84,23,8,5,5,0.4,0.3
2022-06-17T21:00:00,1790A,125.129,46.533,大庆市,龙凤区,颗粒物(PM10),73,96,22,13,8,96,49,92,79,41,16,6,4,0.5,0.3
2022-06-17T21:00:00,1791A,124.902,46.408,大庆市,红岗区,,27,27,14,12,7,100,75,91,86,13,9,2,1,0.4,0.4
2022-06-17T21:00:00,1792A,125.153,46.586,大庆市,萨尔图区,,45,45,34,10,11,96,51,87,72,34,15,3,3,0.4,0.4
2022-06-17T21:00:00,1793A,124.9042,46.6215,大庆市,让胡路区,,22,17,14,9,12,98,35,90,75,44,9,3,2,0.6,0.4
2022-06-17T21:00:00,1794A,118.3606,31.3519,芜湖市,监测站,,38,33,35,23,19,134,35,116,97,76,31,9,13,0.5,0.7
2022-06-17T21:00:00,1795A,118.3714,31.4134,芜湖市,科创中心,,37,37,36,19,17,149,55,127,108,45,31,6,13,0.7,1
2022-06-17T21:00:00,1796A,118.3673,31.3131,芜湖市,四水厂,,37,37,33,18,15,143,107,126,117,14,19,8,10,0.6,0.8
2022-06-17T21:00:00,1798A,118.5092,31.6837,马鞍山市,湖东路四小,,42,42,31,21,18,199,128,157,153,21,17,6,9,0.8,0.6
2022-06-17T21:00:00,1799A,118.5024,31.6449,马鞍山市,开发区,颗粒物(PM10),53,56,34,16,16,183,98,149,141,28,18,8,11,0.7,0.7
2022-06-17T21:00:00,1800A,118.5228,31.7231,马鞍山市,慈湖,颗粒物(PM10),57,63,34,28,18,193,80,150,139,50,16,4,6,0.5,0.6
2022-06-17T21:00:00,1802A,118.6245,31.7241,马鞍山市,濮塘(对照点),,40,40,33,13,14,172,128,147,142,3,11,10,13,0.6,0.7
2022-06-17T21:00:00,1803A,115.9872,29.6815,九江市,十里,,40,40,36,24,22,146,50,122,97,32,22,11,10,0.6,0.7
2022-06-17T21:00:00,1804A,115.9584,29.7046,九江市,茅山头,,30,30,31,11,20,136,62,119,100,16,16,10,10,0.6,0.6
2022-06-17T21:00:00,1805A,115.9877,29.7295,九江市,西园,,32,32,42,15,18,145,41,115,91,46,41,10,11,0.8,0.9
2022-06-17T21:00:00,1806A,116.0172,29.6547,九江市,五七二七厂,,29,29,30,20,20,132,60,122,104,10,10,6,7,0.6,0.8
2022-06-17T21:00:00,1808A,115.9114,29.6038,九江市,综合工业园,,26,26,32,12,18,119,56,110,93,25,19,8,10,0.6,0.6
2022-06-17T21:00:00,1809A,116.0721,29.7535,九江市,石化总厂,,38,38,37,12,16,121,57,106,88,34,22,10,14,0.5,0.5
2022-06-17T21:00:00,1810A,115.9773,29.5698,九江市,庐山气象台(对照点),,10,7,21,0,13,135,29,132,88,5,3,12,13,0.3,0.3
2022-06-17T21:00:00,1812A,112.3931,34.6516,洛阳市,市委党校,,45,43,57,15,27,256,142,216,195,9,11,15,13,0.3,0.4
2022-06-17T21:00:00,1814A,112.4657,34.6871,洛阳市,豫西宾馆,,46,43,66,22,27,271,147,228,210,8,12,3,6,0.6,0.8
2022-06-17T21:00:00,1815A,112.494,34.6886,洛阳市,河南林校,,47,44,61,15,25,278,150,242,212,13,20,6,13,0.1,0.3
2022-06-17T21:00:00,1816A,112.3844,34.623,洛阳市,开发区管委会,颗粒物(PM10),52,53,57,16,26,272,140,228,199,16,15,9,11,0.2,0.3
2022-06-17T21:00:00,1817A,112.4267,34.6258,洛阳市,市委新办公区,,44,44,59,12,25,259,137,216,190,15,15,13,13,0.2,0.4
2022-06-17T21:00:00,1818A,114.4839,36.0621,安阳市,棉研所(对照点),,,86,96,,,282,152,262,244,30,20,7,6,0.6,0.9
2022-06-17T21:00:00,1819A,114.3551,36.1017,安阳市,红庙街,臭氧1小时,82,88,99,37,42,300,185,288,273,39,28,12,14,0.6,0.7
2022-06-17T21:00:00,1820A,114.361,36.0681,安阳市,银杏小区,臭氧1小时,75,90,108,34,44,291,180,272,257,30,20,12,13,0.4,0.7
2022-06-17T21:00:00,1824A,114.3389,34.7781,开封市,肿瘤医院,颗粒物(PM10),65,79,61,21,19,198,133,194,179,25,13,7,8,0.3,0.6
2022-06-17T21:00:00,1826A,114.2885,34.7965,开封市,世纪星幼儿园,,50,50,60,15,20,204,146,193,183,17,13,5,5,0.4,0.5
2022-06-17T21:00:00,1828A,113.2269,35.2127,焦作市,市环保局,,44,44,70,12,26,271,139,256,218,19,19,4,10,0.4,0.7
2022-06-17T21:00:00,1829A,113.2467,35.176,焦作市,高新区政府,颗粒物(PM10),61,72,80,14,32,246,136,230,202,24,32,6,14,0.3,0.7
2022-06-17T21:00:00,1830A,113.1987,35.2703,焦作市,影视城(对照点),,46,40,47,30,28,268,145,245,219,29,15,3,13,0.3,0.6
2022-06-17T21:00:00,1832A,113.3257,33.742,平顶山市,新华旅馆,,47,47,56,12,20,156,115,148,140,17,9,2,3,0.2,0.3
2022-06-17T21:00:00,1833A,113.2919,33.737,平顶山市,规划设计院,,47,47,48,14,14,161,124,154,147,16,12,5,6,0.3,0.4
2022-06-17T21:00:00,1834A,113.182,33.774,平顶山市,平顶山工学院,颗粒物(PM10),54,58,45,19,20,154,118,147,143,14,9,3,4,0.4,0.4
2022-06-17T21:00:00,1835A,111.1922,34.7752,三门峡市,市政府,颗粒物(PM10),51,52,50,16,20,191,144,176,167,16,35,7,9,0.4,0.4
2022-06-17T21:00:00,1836A,111.1587,34.7942,三门峡市,开发区,,,,58,,24,178,131,165,157,,21,4,7,0.4,0.5
2022-06-17T21:00:00,1838A,111.143,34.7955,三门峡市,风景区(对照点),,46,46,54,6,20,180,141,174,167,14,17,5,5,0.2,0.4
2022-06-17T21:00:00,1840A,111.2992,30.6981,宜昌市,白龙岗,,31,31,44,9,20,187,80,141,124,26,26,10,7,0.3,0.4
2022-06-17T21:00:00,1841A,111.3549,30.6465,宜昌市,伍家岗,,33,33,49,12,22,167,90,134,119,15,30,7,7,0.4,0.5
2022-06-17T21:00:00,1842A,111.2628,30.6961,宜昌市,点军区,颗粒物(PM10),52,54,49,17,22,203,98,162,143,15,21,7,7,0.2,0.4
2022-06-17T21:00:00,1843A,111.3275,30.7819,宜昌市,夷陵区,,31,28,40,12,16,164,97,141,130,16,22,7,7,0.2,0.3
2022-06-17T21:00:00,1844A,112.2494,30.3197,荆州市,市图书馆,,25,24,39,11,22,137,80,129,117,13,10,8,10,0.5,0.5
2022-06-17T21:00:00,1845A,112.2008,30.3544,荆州市,市委党校,,34,34,37,20,21,131,82,124,114,11,10,8,9,0.5,0.5
2022-06-17T21:00:00,1847A,113.1094,29.3578,岳阳市,南湖风景区,,22,21,30,9,21,101,69,83,78,6,11,7,16,0.6,0.6
2022-06-17T21:00:00,1848A,113.1493,29.4251,岳阳市,城陵矶,,31,31,38,19,23,114,67,84,78,10,15,14,17,0.5,0.6
2022-06-17T21:00:00,1849A,113.1497,29.3575,岳阳市,开发区,,21,20,35,5,14,119,67,85,79,6,12,9,12,0.6,0.6
2022-06-17T21:00:00,1850A,113.2621,29.4758,岳阳市,云溪区,,26,24,26,18,18,107,53,82,75,17,9,7,11,0.8,0.7
2022-06-17T21:00:00,1851A,112.9943,29.4402,岳阳市,君山区,,21,11,26,14,20,103,66,85,78,6,9,6,8,0.7,0.7
2022-06-17T21:00:00,1852A,113.2117,29.355,岳阳市,金凤水库(对照点),,20,19,25,14,19,101,52,78,70,12,13,4,5,0.6,0.5
2022-06-17T21:00:00,1854A,111.6975,28.9703,常德市,市二中,,39,27,32,27,24,96,52,84,78,23,10,8,12,0.6,0.5
2022-06-17T21:00:00,1857A,111.7158,29.1456,常德市,白鹤山(对照点),,31,31,28,17,15,99,45,86,81,6,7,5,7,0.4,0.3
2022-06-17T21:00:00,1858A,110.5319,29.1217,张家界市,永定新区,,32,27,21,22,16,109,35,87,64,10,10,3,2,0.4,0.3
2022-06-17T21:00:00,1860A,110.5594,29.3547,张家界市,未央路,,13,13,14,7,6,96,20,87,60,9,7,2,2,0.1,0.3
2022-06-17T21:00:00,1861A,110.4417,29.315,张家界市,袁家界(对照点),,31,31,24,6,7,124,46,114,88,6,6,5,3,0.6,0.4
2022-06-17T21:00:00,1862A,110.4144,25.3167,桂林市,电子科大尧山校区(对照点),,15,8,14,5,8,61,47,56,53,5,4,6,8,0.6,0.6
2022-06-17T21:00:00,1863A,110.2819,25.2697,桂林市,监测站,,13,13,19,6,11,55,31,42,21,14,19,5,6,0.6,0.7
2022-06-17T21:00:00,1864A,110.3089,25.2708,桂林市,龙隐路小学,,17,17,17,11,12,50,25,41,21,21,17,6,6,0.6,0.6
2022-06-17T21:00:00,1865A,110.2869,25.2178,桂林市,八中,,22,22,11,5,4,53,23,41,26,20,18,6,6,0.7,0.7
2022-06-17T21:00:00,1866A,109.2262,21.588,北海市,牛尾岭水库(对照点),,26,26,23,9,11,70,70,63,63,4,5,3,4,0.4,0.4
2022-06-17T21:00:00,1867A,109.1436,21.4086,北海市,海滩公园,颗粒物(PM10),64,77,43,7,7,85,82,79,79,3,3,3,3,0.4,0.4
2022-06-17T21:00:00,1868A,109.0981,21.4661,北海市,新市环保局,,31,31,24,17,11,78,78,72,72,2,2,2,2,0.6,0.6
2022-06-17T21:00:00,1869A,109.1778,21.5233,北海市,北海工业园,,39,39,29,12,10,79,76,71,71,4,4,4,4,0.4,0.5
2022-06-17T21:00:00,1870A,109.4856,24.3895,柳州市,柳东小学,,28,17,13,19,13,54,35,46,46,5,7,4,4,0.6,0.7
2022-06-17T21:00:00,1871A,109.4157,24.3277,柳州市,环保监测站,,19,14,14,13,8,60,42,53,52,12,12,6,7,0.6,0.7
2022-06-17T21:00:00,1872A,109.389,24.341,柳州市,河西水厂,,22,22,14,13,11,60,44,53,53,11,12,7,8,0.9,1
2022-06-17T21:00:00,1873A,109.4311,24.2921,柳州市,市四中,,,24,18,11,12,60,42,53,52,10,14,,6,0.5,0.6
2022-06-17T21:00:00,1874A,109.4006,24.3631,柳州市,市九中,,28,28,17,7,9,57,38,49,49,12,12,5,6,0.6,0.7
2022-06-17T21:00:00,1875A,109.4958,24.3134,柳州市,古亭山,,23,20,14,16,8,59,43,51,51,7,13,2,3,0.6,0.7
2022-06-17T21:00:00,1876A,109.5078,18.2489,三亚市,河东子站,,21,21,15,6,5,64,64,57,51,4,4,2,2,0.4,0.4
2022-06-17T21:00:00,1877A,109.4964,18.2681,三亚市,河西子站,,20,17,14,9,6,63,63,52,52,5,5,2,2,0.2,0.2
2022-06-17T21:00:00,1878A,104.7778,31.4741,绵阳市,富乐山,,39,38,42,27,28,155,113,144,136,12,16,5,7,0.5,0.6
2022-06-17T21:00:00,1879A,104.7563,31.4535,绵阳市,市人大,,40,40,47,25,27,144,110,138,133,16,21,6,7,0.4,0.5
2022-06-17T21:00:00,1880A,104.6697,31.4668,绵阳市,高新区自来水公司,颗粒物(PM10),52,53,65,9,33,166,105,147,134,23,34,5,6,0.6,0.7
2022-06-17T21:00:00,1881A,104.7287,31.5075,绵阳市,三水厂,,39,39,55,24,31,162,110,150,140,24,27,6,6,0.6,0.7
2022-06-17T21:00:00,1882A,104.563,28.793,宜宾市,石马中学(对照点),,40,40,35,23,24,162,79,134,128,40,14,15,7,0.6,0.5
2022-06-17T21:00:00,1883A,104.6201,28.7728,宜宾市,市委,,42,42,42,28,26,154,97,134,130,40,25,17,9,0.6,0.5
2022-06-17T21:00:00,1884A,104.6055,28.793,宜宾市,宜宾四中,,48,48,43,26,27,153,87,132,126,40,21,6,8,0.6,0.6
2022-06-17T21:00:00,1885A,104.639,28.7562,宜宾市,市政府,,40,40,46,24,26,146,114,114,114,26,30,6,5,0.7,0.6
2022-06-17T21:00:00,1886A,104.5742,28.7199,宜宾市,黄金嘴,,40,40,39,24,23,152,116,135,134,20,24,7,7,0.5,0.5
2022-06-17T21:00:00,1888A,101.6891,26.571,攀枝花市,弄弄坪,,29,20,52,20,40,133,49,106,98,45,29,6,8,0.8,1.2
2022-06-17T21:00:00,1889A,101.5769,26.5928,攀枝花市,河门口,,40,40,49,16,33,122,62,104,100,30,25,12,9,1.0,2.2
2022-06-17T21:00:00,1890A,101.7169,26.585,攀枝花市,炳草岗,,43,43,54,15,33,135,53,108,101,32,30,17,19,0.8,1.2
2022-06-17T21:00:00,1891A,101.7369,26.5008,攀枝花市,仁和,,49,45,62,34,47,121,49,99,90,20,17,7,18,0.7,0.9
2022-06-17T21:00:00,1893A,105.4324,28.9634,泸州市,九狮山(对照点),,21,21,23,9,11,127,64,113,107,19,19,5,7,0.5,0.4
2022-06-17T21:00:00,1894A,105.4427,28.9063,泸州市,小市上码头,,42,42,42,14,16,121,86,109,107,19,19,6,11,0.5,0.6
2022-06-17T21:00:00,1895A,105.4241,28.8573,泸州市,兰田宪桥,,39,39,41,11,11,119,73,111,107,28,18,4,8,0.6,0.5
2022-06-17T21:00:00,1896A,105.4379,28.8833,泸州市,市环监站,颗粒物(PM10),52,53,39,15,11,120,83,107,104,23,20,4,8,0.4,0.5
2022-06-17T21:00:00,1901A,104.4239,31.1208,德阳市,东山公园,,44,44,46,20,24,177,91,152,135,20,21,20,10,0.5,0.5
2022-06-17T21:00:00,1902A,104.3826,31.1317,德阳市,西小区,,42,42,61,11,22,196,93,163,144,22,27,8,11,0.5,0.6
2022-06-17T21:00:00,1904A,104.3553,31.1091,德阳市,耐火材料厂,,42,42,70,14,26,203,95,164,143,27,37,6,9,0.4,0.6
2022-06-17T21:00:00,1905A,106.056,30.8064,南充市,西山风景区(对照点),,45,45,40,22,27,135,110,125,124,6,15,5,2,0.5,0.6
2022-06-17T21:00:00,1906A,106.0789,30.8023,南充市,南充市委,,46,46,46,27,28,108,90,103,102,13,17,3,3,0.5,0.6
2022-06-17T21:00:00,1907A,106.1031,30.8217,南充市,南充炼油厂,,46,46,55,20,30,147,111,139,136,16,15,6,6,0.5,0.6
2022-06-17T21:00:00,1908A,106.1064,30.7856,南充市,高坪区监测站,,38,38,48,26,33,128,106,120,120,9,21,2,17,0.5,0.6
2022-06-17T21:00:00,1909A,106.0642,30.7636,南充市,嘉陵区环保局,,33,33,51,23,33,102,80,95,94,13,21,5,11,0.5,0.6
2022-06-17T21:00:00,1910A,106.1087,30.8388,南充市,市环境监测站,,45,45,54,31,33,126,97,118,115,24,24,1,2,0.5,0.5
2022-06-17T21:00:00,1911A,106.9222,27.6869,遵义市,丁字口,,23,21,20,16,16,92,34,92,52,21,16,6,6,0.7,0.6
2022-06-17T21:00:00,1912A,106.9242,27.7019,遵义市,凤凰山,,13,13,15,8,9,79,38,79,43,16,14,5,5,0.7,0.6
2022-06-17T21:00:00,1913A,106.8906,27.6486,遵义市,忠庄,,36,36,23,6,11,61,22,52,42,18,13,1,1,0.5,0.5
2022-06-17T21:00:00,1914A,106.9231,27.6506,遵义市,舟水桥,,18,18,20,8,9,66,33,58,45,7,9,1,1,0.5,0.5
2022-06-17T21:00:00,1915A,106.9178,27.72,遵义市,干田坝,,29,29,21,14,11,80,14,73,32,27,14,5,5,0.8,0.7
2022-06-17T21:00:00,1917A,103.8,25.5364,曲靖市,烟厂办公区,,27,27,27,10,12,101,78,94,92,8,8,4,7,0.4,0.6
2022-06-17T21:00:00,1918A,108.7197,34.3956,咸阳市,气象站(对照点),颗粒物(PM10),54,58,58,20,15,199,122,187,180,52,44,8,6,0.7,0.7
2022-06-17T21:00:00,1919A,108.673,34.3155,咸阳市,实验中学,,49,43,43,21,17,220,154,192,188,24,26,4,3,0.4,0.4
2022-06-17T21:00:00,1920A,108.7233,34.3617,咸阳市,师范学院,,49,49,51,20,19,221,153,194,190,33,30,13,12,0.3,0.3
2022-06-17T21:00:00,1922A,109.0656,35.0994,铜川市,党校(对照点),颗粒物(PM10),57,63,36,14,17,167,124,159,156,19,30,10,9,0.7,0.7
2022-06-17T21:00:00,1923A,109.0697,35.0697,铜川市,王益区政府,颗粒物(PM10),58,65,41,24,17,185,117,166,162,19,24,5,6,0.5,0.4
2022-06-17T21:00:00,1924A,108.9344,34.9058,铜川市,新区管委会,,43,43,36,22,16,175,136,166,163,28,19,7,18,0.4,0.4
2022-06-17T21:00:00,1926A,109.4131,36.6275,延安市,枣园(对照点),细颗粒物(PM2.5),58,56,36,41,16,160,61,148,121,46,26,4,4,0.4,0.4
2022-06-17T21:00:00,1927A,109.4761,36.6028,延安市,延大医附院,颗粒物(PM10),51,51,32,14,12,165,45,150,130,70,32,4,4,0.6,0.3
2022-06-17T21:00:00,1929A,109.5056,36.6106,延安市,百米大道,,48,48,51,14,14,148,57,134,114,60,33,5,4,0.7,0.5
2022-06-17T21:00:00,1930A,107.185,34.3063,宝鸡市,庙沟村(对照点),,35,15,29,17,15,154,109,142,131,5,8,5,5,0.5,0.5
2022-06-17T21:00:00,1931A,107.0708,34.3017,宝鸡市,竹园沟,,25,16,24,9,16,174,78,160,136,22,11,4,4,0.3,0.4
2022-06-17T21:00:00,1932A,107.1906,34.3672,宝鸡市,三陆医院,,23,23,38,11,17,160,66,151,135,40,22,6,8,0.4,0.4
2022-06-17T21:00:00,1933A,107.1431,34.3547,宝鸡市,监测站,,31,31,30,15,17,165,58,151,130,37,20,5,5,0.6,0.5
2022-06-17T21:00:00,1934A,107.1186,34.3739,宝鸡市,技工学校,颗粒物(PM10),55,60,47,21,18,162,75,154,137,26,17,6,6,0.4,0.3
2022-06-17T21:00:00,1935A,107.3906,34.3528,宝鸡市,陈仓区环保局家属楼,,46,46,38,19,17,178,76,154,142,30,19,6,7,0.5,0.5
2022-06-17T21:00:00,1936A,107.2058,34.3497,宝鸡市,文理学院,,33,33,30,7,23,168,82,157,141,28,19,7,7,0.3,0.3
2022-06-17T21:00:00,1937A,107.2386,34.3622,宝鸡市,三迪小学,,36,36,34,20,19,169,74,151,136,36,21,7,8,0.3,0.3
2022-06-17T21:00:00,1938A,109.5293,34.5101,渭南市,农科所(对照点),颗粒物(PM10),56,61,43,22,22,205,76,189,173,79,28,9,11,0.5,0.4
2022-06-17T21:00:00,1940A,109.4636,34.493,渭南市,体育馆,,46,46,47,12,15,225,91,205,191,82,34,17,10,0.5,0.4
2022-06-17T21:00:00,1941A,109.4259,34.5023,渭南市,高新一小,,50,50,61,14,18,205,146,196,187,15,33,5,9,0.5,0.5
2022-06-17T21:00:00,1943A,102.1725,38.5339,金昌市,新川苑,,37,34,52,8,11,155,116,151,147,30,16,6,11,0.6,0.5
2022-06-17T21:00:00,1944A,102.1692,38.5167,金昌市,天庆家园,,41,28,49,8,16,157,130,153,151,18,17,8,41,0.6,0.6
2022-06-17T21:00:00,1945A,98.2908,39.7711,嘉峪关市,气象局,,41,41,52,9,17,142,121,138,137,24,27,2,8,0.5,0.5
2022-06-17T21:00:00,1947A,106.3394,38.817,石嘴山市,沙湖旅游区(对照点),颗粒物(PM10),66,81,62,20,15,201,144,185,182,28,21,52,44,0.4,0.3
2022-06-17T21:00:00,1948A,106.3668,39.0145,石嘴山市,大武口朝阳西街,颗粒物(PM10),55,60,53,26,19,178,136,165,164,39,22,16,15,0.7,0.6
2022-06-17T21:00:00,1949A,106.7704,39.2282,石嘴山市,惠农南大街,颗粒物(PM10),67,84,79,22,21,192,122,182,177,44,35,12,16,0.4,0.5
2022-06-17T21:00:00,1950A,106.7099,39.1325,石嘴山市,红果子镇惠新街,颗粒物(PM10),86,121,110,28,25,190,126,180,175,48,34,15,20,0.5,0.4
2022-06-17T21:00:00,1951A,84.895,45.6094,克拉玛依市,长征新村,,29,16,11,6,5,106,92,102,101,20,7,6,6,0.2,0.1
2022-06-17T21:00:00,1952A,84.8988,45.5893,克拉玛依市,南林小区,,31,30,10,4,10,109,37,106,93,62,12,8,8,0.6,0.3
2022-06-17T21:00:00,1954A,84.905,44.3396,克拉玛依市,独山子区,,35,10,8,7,6,128,112,120,119,8,5,7,7,0.3,0.3
2022-06-17T21:00:00,1955A,85.6979,46.098,克拉玛依市,乌尔禾区商贸楼,,33,19,24,8,6,112,105,106,106,4,6,10,10,0.2,0.1
2022-06-17T21:00:00,1956A,86.1472,41.7538,巴音郭楞州,孔雀公园,,,0,70,0,17,110,,105,,15,12,4,2,0.3,0.5
2022-06-17T21:00:00,1957A,86.1972,41.7166,巴音郭楞州,棉纺厂,颗粒物(PM10),56,62,72,16,17,107,96,98,98,17,12,3,4,0.3,0.2
2022-06-17T21:00:00,1958A,86.2357,41.7173,巴音郭楞州,经济开发区,颗粒物(PM10),76,102,77,21,20,114,91,107,106,17,7,2,2,0.2,0.2
2022-06-17T21:00:00,1961A,117.532,36.6868,济南市,东山小学,臭氧1小时,100,81,57,34,26,245,200,226,226,25,14,13,10,0.6,0.3
2022-06-17T21:00:00,1966A,120.0405,35.8735,青岛市,黄岛区4号,,40,36,24,17,13,192,128,172,155,10,13,6,5,0.5,0.5
2022-06-17T21:00:00,1982A,122.0693,37.2174,威海市,文登开发区,,39,27,26,14,18,154,124,150,146,10,10,5,4,0.4,0.4
2022-06-17T21:00:00,2031A,113.1817,27.9958,株洲市,云田中学,,12,9,18,8,13,58,38,54,50,6,9,5,6,0.8,0.8
2022-06-17T21:00:00,2054A,114.1099,32.1059,信阳市,平桥分局,,41,31,34,7,19,148,130,139,138,8,7,9,9,0.4,0.4
2022-06-17T21:00:00,2064A,113.9956,32.1271,信阳市,南湾水厂,,42,15,30,11,22,150,134,144,143,2,3,5,6,0.4,0.5
2022-06-17T21:00:00,2065A,114.0775,32.1195,信阳市,市酿酒公司,,39,33,37,14,20,145,124,140,137,11,6,7,7,0.2,0.3
2022-06-17T21:00:00,2066A,114.0609,32.1399,信阳市,审计局,,42,23,36,4,16,150,134,142,141,5,4,6,6,0.6,0.6
2022-06-17T21:00:00,2067A,114.6613,33.6128,周口市,市环境监测站,,39,28,51,17,18,175,124,167,160,19,13,5,5,0.3,0.3
2022-06-17T21:00:00,2068A,114.6758,33.6347,周口市,周口师范,,43,41,49,4,17,179,135,173,166,16,14,4,4,0.3,0.4
2022-06-17T21:00:00,2069A,114.6546,33.5979,周口市,市运管处,,39,39,51,2,19,171,124,162,156,21,16,4,4,0.4,0.5
2022-06-17T21:00:00,2070A,114.6369,33.6406,周口市,川汇区环保局,,42,36,47,15,20,181,134,171,165,16,13,1,2,0.3,0.4
2022-06-17T21:00:00,2075A,117.6336,24.4674,漳州市,九湖(对照点),,,,,,,101,34,66,63,2,16,6,6,0.1,0.4
2022-06-17T21:00:00,2160A,112.85,35.5051,晋城市,自来水公司,臭氧1小时,100,44,56,14,29,261,200,241,237,23,39,6,13,0.5,0.8
2022-06-17T21:00:00,2161A,112.8318,35.4936,晋城市,白云商贸,臭氧1小时,97,51,74,19,27,242,197,228,224,18,28,6,14,0.5,0.7
2022-06-17T21:00:00,2162A,112.8508,35.4887,晋城市,市环保局,臭氧1小时,103,38,70,22,33,258,206,239,236,15,39,6,13,0.3,0.6
2022-06-17T21:00:00,2163A,112.8676,35.4897,晋城市,技术学院,臭氧1小时,79,64,69,24,28,258,183,233,226,27,41,3,7,0.4,0.6
2022-06-17T21:00:00,2165A,112.8453,35.546,晋城市,白马寺 (对照点),臭氧1小时,123,70,67,14,17,304,246,280,277,21,17,8,17,0.6,0.6
2022-06-17T21:00:00,2166A,112.4397,39.3522,朔州市,平朔,颗粒物(PM10),53,56,91,15,37,202,157,179,165,14,25,5,8,0.5,0.7
2022-06-17T21:00:00,2167A,112.4575,39.3617,朔州市,朔唯,颗粒物(PM10),54,58,96,13,38,201,158,180,166,16,29,3,8,0.5,0.6
2022-06-17T21:00:00,2168A,112.4258,39.3197,朔州市,区政府,颗粒物(PM10),80,109,107,14,31,185,155,164,158,18,30,6,10,0.7,0.7
2022-06-17T21:00:00,2169A,112.4072,39.3278,朔州市,市环保局,颗粒物(PM10),76,101,102,17,32,195,156,172,164,15,25,6,8,0.5,0.7
2022-06-17T21:00:00,2170A,112.4272,39.3681,朔州市,市二中,颗粒物(PM10),77,104,92,14,38,195,152,179,162,18,37,7,11,0.5,0.5
2022-06-17T21:00:00,2171A,112.7532,37.6945,晋中市,锦纶小区,臭氧1小时,82,44,106,19,57,270,185,239,229,24,18,9,9,0.5,0.7
2022-06-17T21:00:00,2173A,112.7249,37.7067,晋中市,南都小区,,50,50,107,20,55,232,156,216,206,30,24,9,8,0.5,0.7
2022-06-17T21:00:00,2174A,112.6991,37.6982,晋中市,榆次区政府,,49,36,109,27,56,258,155,234,222,27,15,10,9,0.7,0.8
2022-06-17T21:00:00,2175A,110.9956,35.0147,运城市,运城中学,臭氧1小时,101,62,70,26,40,222,202,209,208,9,24,11,9,0.4,0.5
2022-06-17T21:00:00,2178A,110.9686,35.0303,运城市,地区技校,臭氧1小时,84,44,75,23,29,214,187,200,198,11,30,8,7,0.5,0.6
2022-06-17T21:00:00,2179A,111.0414,35.1147,运城市,空港新区,臭氧1小时,83,57,87,27,33,234,186,209,196,12,22,9,12,0.7,0.7
2022-06-17T21:00:00,2181A,112.7383,38.4519,忻州市,开发区,颗粒物(PM10),71,92,108,37,65,297,139,263,214,45,20,16,20,0.7,0.8
2022-06-17T21:00:00,2182A,112.7003,38.4928,忻州市,会展中心,颗粒物(PM10),54,58,104,16,58,288,130,249,197,28,20,14,15,0.6,0.9
2022-06-17T21:00:00,2183A,111.1406,37.5211,吕梁市,环保局,颗粒物(PM10),63,75,79,18,17,190,125,171,160,28,47,5,3,0.4,0.4
2022-06-17T21:00:00,2187A,106.8174,39.6973,乌海市,市林业局,颗粒物(PM10),63,75,87,24,24,167,143,158,157,12,25,7,26,0.5,0.8
2022-06-17T21:00:00,2188A,106.7907,39.6667,乌海市,中海勃湾学校,颗粒物(PM10),59,68,72,26,24,174,138,163,160,22,37,9,27,0.4,0.6
2022-06-17T21:00:00,2191A,122.2532,43.6801,通辽市,艺术职业学校,,46,46,36,26,17,127,122,126,124,15,15,5,5,0.5,0.5
2022-06-17T21:00:00,2192A,119.7594,49.2261,呼伦贝尔市,区环保局,,39,39,33,20,18,100,49,88,86,33,19,4,6,0.5,0.3
2022-06-17T21:00:00,2195A,107.4212,40.761,巴彦淖尔市,附二中,颗粒物(PM10),74,97,90,22,31,196,143,186,177,14,31,24,20,0.5,0.7
2022-06-17T21:00:00,2196A,107.37,40.7372,巴彦淖尔市,市环保大楼,颗粒物(PM10),59,67,76,22,28,192,146,180,174,16,28,5,20,0.5,0.7
2022-06-17T21:00:00,2197A,113.1306,40.9923,乌兰察布市,集宁新区,颗粒物(PM10),55,59,66,20,31,193,139,160,149,14,21,10,13,0.3,0.5
2022-06-17T21:00:00,2200A,122.0392,46.0656,兴安盟,胜华新制药厂,,,62,29,20,15,104,,92,89,17,8,,2,0.2,0.2
2022-06-17T21:00:00,2201A,121.9504,46.0741,兴安盟,科右前旗环保局,,35,33,19,24,14,98,41,92,82,34,11,4,3,0.4,0.2
2022-06-17T21:00:00,2202A,116.1042,43.9317,锡林郭勒盟,市环保监测站,,28,23,19,10,8,125,88,115,109,4,11,13,14,0.6,0.5
2022-06-17T21:00:00,2203A,116.0781,43.9311,锡林郭勒盟,市政府,,29,20,16,8,4,134,92,120,117,9,11,9,9,0.8,0.7
2022-06-17T21:00:00,2204A,105.6467,38.8363,阿拉善盟,西城区西花园(对照点),臭氧1小时,72,46,30,12,13,189,177,173,173,8,7,48,41,0.4,0.4
2022-06-17T21:00:00,2205A,105.6985,38.8411,阿拉善盟,蒙二幼,臭氧1小时,70,71,44,26,15,192,176,175,175,6,7,12,10,0.3,0.2
2022-06-17T21:00:00,2206A,105.724,38.8516,阿拉善盟,环保局新楼,臭氧1小时,73,31,24,17,16,192,178,173,173,8,7,11,9,0.3,0.3
2022-06-17T21:00:00,2207A,121.6094,41.998,阜新市,工业园区,颗粒物(PM10),52,54,47,21,30,159,142,152,152,11,14,7,15,0.7,0.7
2022-06-17T21:00:00,2208A,121.6697,42.0279,阜新市,长青街,,43,30,37,20,24,153,135,144,142,10,13,8,16,0.6,0.7
2022-06-17T21:00:00,2209A,121.6673,42.0705,阜新市,农业园区,,47,35,47,20,28,166,150,158,155,9,12,8,13,0.7,0.8
2022-06-17T21:00:00,2210A,121.6717,42.0224,阜新市,东苑,颗粒物(PM10),54,57,63,22,30,168,147,156,151,12,18,5,16,0.6,0.7
2022-06-17T21:00:00,2211A,121.6506,42.0498,阜新市,玉龙新城,,45,44,47,19,22,156,142,149,147,10,13,8,14,0.5,0.6
2022-06-17T21:00:00,2212A,123.2,41.1953,辽阳市,宏伟区,,39,28,24,27,12,126,122,116,116,6,6,7,7,0.5,0.4
2022-06-17T21:00:00,2213A,123.1683,41.2495,辽阳市,新华园,,50,36,25,35,14,143,123,125,122,8,10,5,6,0.5,0.5
2022-06-17T21:00:00,2214A,123.2354,41.2639,辽阳市,滨河路,细颗粒物(PM2.5),60,36,23,43,14,133,130,116,116,6,10,7,12,0.4,0.3
2022-06-17T21:00:00,2215A,123.149,41.2991,辽阳市,铁西工业园,,48,33,34,33,20,176,119,129,128,10,14,5,8,0.5,0.6
2022-06-17T21:00:00,2216A,123.8139,42.3022,铁岭市,汇工街西,颗粒物(PM10),80,110,63,32,22,204,144,193,186,28,22,5,8,0.7,0.7
2022-06-17T21:00:00,2217A,123.8649,42.2923,铁岭市,水上乐园,细颗粒物(PM2.5),85,60,44,63,34,195,176,189,188,24,23,6,8,0.6,0.6
2022-06-17T21:00:00,2218A,123.8486,42.2867,铁岭市,银州路东段,颗粒物(PM10),57,63,57,38,21,183,147,176,173,31,26,7,8,0.7,0.6
2022-06-17T21:00:00,2219A,123.7153,42.2217,铁岭市,金沙江路北,,48,48,46,28,20,193,122,183,173,48,31,6,8,0.7,0.7
2022-06-17T21:00:00,2220A,120.4318,41.5881,朝阳市,西梁,,48,36,66,26,34,166,152,148,142,9,12,14,16,0.7,0.9
2022-06-17T21:00:00,2221A,120.4521,41.5646,朝阳市,河畔小区,细颗粒物(PM2.5),57,44,64,40,48,165,154,149,145,7,9,8,10,0.5,0.8
2022-06-17T21:00:00,2222A,120.4176,41.5648,朝阳市,八里堡,,46,41,59,31,36,171,147,156,147,12,14,6,8,0.7,0.9
2022-06-17T21:00:00,2223A,120.3806,41.5969,朝阳市,农业园区,,49,36,64,34,40,186,146,167,146,11,15,9,11,0.8,1
2022-06-17T21:00:00,2225A,124.4002,43.1713,四平市,一商场,颗粒物(PM10),72,94,53,46,28,169,63,159,149,84,22,3,3,0.9,0.5
2022-06-17T21:00:00,2226A,124.388,43.193,四平市,境园,细颗粒物(PM2.5),58,63,41,41,25,146,59,128,122,43,14,4,5,0.9,0.6
2022-06-17T21:00:00,2227A,125.1358,42.8845,辽源市,环保局,细颗粒物(PM2.5),67,58,31,48,25,182,63,166,151,24,7,5,5,1.1,0.6
2022-06-17T21:00:00,2229A,125.9358,41.7173,通化市,光明,,32,22,16,20,9,120,100,114,110,8,6,11,7,0.5,0.7
2022-06-17T21:00:00,2230A,125.9446,41.7325,通化市,铁路,,28,28,15,13,9,113,73,107,100,14,7,6,6,0.7,0.5
2022-06-17T21:00:00,2231A,126.4219,41.9171,白山市,喜丰,颗粒物(PM10),60,69,45,19,16,103,13,86,72,35,17,8,10,1.1,0.9
2022-06-17T21:00:00,2232A,126.4077,41.9419,白山市,环保局,,40,40,35,21,16,103,24,90,76,27,17,7,9,0.9,0.8
2022-06-17T21:00:00,2233A,124.8006,45.1214,松原市,江南,,19,18,11,2,1,94,37,88,76,37,12,5,3,0.5,0.3
2022-06-17T21:00:00,2234A,124.7965,45.1722,松原市,江北,,20,11,12,11,7,105,61,100,89,12,9,3,2,0.4,0.4
2022-06-17T21:00:00,2235A,122.7911,45.6077,白城市,洮北区环保局,,31,31,18,12,6,111,38,100,92,32,17,8,7,0,0.1
2022-06-17T21:00:00,2236A,122.8738,45.5725,白城市,市环保局,,28,28,20,19,11,110,29,98,84,55,15,5,5,0.1,0
2022-06-17T21:00:00,2237A,129.47,42.8883,延边朝鲜族自治州,妇幼医院,颗粒物(PM10),51,52,23,27,17,105,33,95,82,33,27,6,7,0.6,0.5
2022-06-17T21:00:00,2238A,129.5055,42.9108,延边朝鲜族自治州,延边医院,,,53,86,47,28,105,,97,97,36,30,6,6,0.9,0.6
2022-06-17T21:00:00,2239A,129.3964,42.8881,延边朝鲜族自治州,朝阳川镇医院,,34,34,29,18,12,104,31,94,79,30,27,4,5,0.6,0.5
2022-06-17T21:00:00,2240A,130.9762,45.3001,鸡西市,环保局,,22,22,23,8,9,95,67,90,79,24,26,4,5,0.3,0.3
2022-06-17T21:00:00,2243A,130.9429,45.3039,鸡西市,第一中学,,25,21,25,9,9,108,77,102,90,18,21,7,8,0.2,0.2
2022-06-17T21:00:00,2244A,130.2537,47.3416,鹤岗市,哈啤分公司,,22,7,7,9,6,92,69,84,77,6,10,6,8,0.4,0.4
2022-06-17T21:00:00,2245A,130.2684,47.3086,鹤岗市,斯达机电,,23,16,15,6,6,89,72,84,79,7,10,7,8,0.3,0.3
2022-06-17T21:00:00,2246A,130.3114,47.3388,鹤岗市,东山纸板厂,,25,7,12,5,6,82,80,80,79,2,11,8,9,0.2,0.4
2022-06-17T21:00:00,2247A,130.1097,47.3382,鹤岗市,五号水库(对照点),,18,8,6,5,5,87,57,76,69,6,9,10,9,0.3,0.3
2022-06-17T21:00:00,2248A,131.1511,46.6937,双鸭山市,双合村,,23,23,21,14,12,112,50,86,63,17,17,9,10,0.4,0.4
2022-06-17T21:00:00,2249A,131.1652,46.6191,双鸭山市,南小市,,17,9,18,1,10,101,52,83,66,5,9,5,5,0.2,0.1
2022-06-17T21:00:00,2250A,131.1524,46.6554,双鸭山市,环保局,,26,26,13,15,10,102,31,79,51,21,15,5,5,1.2,0.5
2022-06-17T21:00:00,2251A,131.12,46.5656,双鸭山市,苗圃(对照点),,26,6,12,18,14,112,59,97,74,4,5,1,2,0.4,0.3
2022-06-17T21:00:00,2252A,128.5159,47.4311,伊春市,环保局,,20,15,9,14,7,71,17,66,52,9,5,5,4,0.1,0.1
2022-06-17T21:00:00,2253A,128.9102,47.7412,伊春市,电力嘉园,,23,15,13,16,10,83,32,78,65,6,6,7,6,0.5,0.5
2022-06-17T21:00:00,2254A,129.5029,48.471,伊春市,汤旺河国家公园(对照点),,13,5,6,5,5,86,41,73,62,3,3,6,6,0.3,0.6
2022-06-17T21:00:00,2255A,130.2751,46.8028,佳木斯市,佳纺,,21,5,15,9,13,98,65,81,60,7,13,3,4,0.4,0.4
2022-06-17T21:00:00,2256A,130.3995,46.8307,佳木斯市,发电厂,,23,13,16,7,11,116,72,94,77,8,12,6,5,0.4,0.3
2022-06-17T21:00:00,2257A,130.3258,46.7975,佳木斯市,环保局,,23,13,19,10,11,112,72,92,74,7,11,3,2,0.4,0.4
2022-06-17T21:00:00,2258A,130.3648,46.8032,佳木斯市,十一中,,23,20,23,12,15,112,72,95,79,16,18,6,5,0.4,0.4
2022-06-17T21:00:00,2259A,130.3794,46.7588,佳木斯市,四丰(对照点),,19,12,14,8,12,109,58,98,67,16,12,5,4,0.4,0.4
2022-06-17T21:00:00,2262A,131.0518,45.8751,七台河市,新一中(对照点),,29,6,11,1,8,114,92,98,86,8,30,6,10,0.7,0.7
2022-06-17T21:00:00,2263A,127.4833,50.2524,黑河市,交通局,,33,33,13,10,8,81,28,79,68,21,8,6,6,0.4,0.3
2022-06-17T21:00:00,2264A,127.5144,50.2341,黑河市,环保局,,41,41,18,15,11,82,53,78,74,18,8,3,3,0.4,0.4
2022-06-17T21:00:00,2265A,127.5291,50.2472,黑河市,大黑河岛(对照点),,41,41,15,22,9,79,39,74,69,12,7,6,5,0.5,0.6
2022-06-17T21:00:00,2266A,126.9785,46.6365,绥化市,人和东街,颗粒物(PM10),57,64,19,21,16,115,33,106,94,57,13,10,9,0.7,0.4
2022-06-17T21:00:00,2267A,126.964,46.6528,绥化市,党政办公中心,,23,9,13,3,11,108,71,104,98,20,11,8,8,0.3,0.3
2022-06-17T21:00:00,2269A,124.1069,50.4097,大兴安岭地区,科技局,,24,24,14,11,10,62,22,59,53,11,6,6,5,0.2,0.2
2022-06-17T21:00:00,2270A,117.396,32.939,蚌埠市,工人疗养院,,47,43,53,20,20,209,149,185,176,4,7,8,10,0.3,0.4
2022-06-17T21:00:00,2271A,117.3605,32.9427,蚌埠市,百货大楼,,47,36,41,13,18,213,148,189,179,9,12,8,11,0.4,0.5
2022-06-17T21:00:00,2273A,117.4185,32.8911,蚌埠市,蚌埠学院,,42,39,50,17,19,199,133,178,165,9,9,8,16,0.3,0.4
2022-06-17T21:00:00,2274A,117.3533,32.9673,蚌埠市,淮上区政府,,46,41,55,19,20,211,146,184,175,6,10,10,15,0.4,0.4
2022-06-17T21:00:00,2275A,117.3145,32.8977,蚌埠市,高新区,,44,44,55,17,24,204,140,185,174,13,15,10,14,0.4,0.5
2022-06-17T21:00:00,2277A,116.8305,32.7727,淮南市,潘集区政府,,,,48,,25,173,119,163,154,18,16,17,8,0.3,0.2
2022-06-17T21:00:00,2278A,117.0067,32.6524,淮南市,师范学院,颗粒物(PM10),55,59,47,14,24,171,133,162,154,12,10,5,6,0.4,0.4
2022-06-17T21:00:00,2279A,116.8569,32.5951,淮南市,谢家集区政府,,40,40,41,21,17,168,119,156,149,17,7,7,4,0.1,0.2
2022-06-17T21:00:00,2280A,116.8281,32.633,淮南市,八公山区政府,,44,44,43,19,21,165,121,154,149,16,9,8,5,0.3,0.3
2022-06-17T21:00:00,2281A,116.6325,32.6201,淮南市,焦岗湖风景区管理处(对照点),,41,35,40,17,21,187,131,160,158,16,11,11,11,0.3,0.3
2022-06-17T21:00:00,2282A,116.8004,33.975,淮北市,监测站,,48,47,58,21,24,177,152,172,167,14,10,9,9,0.4,0.5
2022-06-17T21:00:00,2283A,116.8091,33.9007,淮北市,烈山区政府,颗粒物(PM10),54,58,48,13,25,191,157,180,176,13,14,7,8,0.5,0.5
2022-06-17T21:00:00,2284A,116.7856,33.9477,淮北市,职业技术学院,,49,49,55,24,26,165,144,160,156,13,11,7,7,0.4,0.5
2022-06-17T21:00:00,2285A,117.8177,30.9412,铜陵市,市第四中学,,25,22,28,10,10,148,78,133,122,27,15,31,13,1.7,0.8
2022-06-17T21:00:00,2286A,117.8059,30.9273,铜陵市,市公路局,,35,35,29,13,11,135,77,123,113,21,14,15,12,1.3,0.6
2022-06-17T21:00:00,2287A,117.7807,30.9413,铜陵市,市新民污水厂,,43,43,42,20,19,132,76,117,109,31,27,32,25,0.4,0.4
2022-06-17T21:00:00,2288A,117.7439,30.8792,铜陵市,市第九中学,,46,46,36,14,14,129,51,116,100,51,34,4,5,0.5,0.5
2022-06-17T21:00:00,2289A,117.846,30.9413,铜陵市,车站新区,,40,40,34,17,14,142,85,129,120,20,15,10,11,0.6,0.6
2022-06-17T21:00:00,2290A,117.8483,30.97,铜陵市,市职教基地,,27,23,29,11,12,138,86,126,117,18,15,16,14,0.3,1
2022-06-17T21:00:00,2291A,117.0809,30.5177,安庆市,环科院,,30,30,22,13,13,113,51,104,91,29,16,6,6,0.5,0.5
2022-06-17T21:00:00,2292A,117.0331,30.5119,安庆市,马山宾馆,,27,27,21,14,12,115,46,105,86,37,27,5,4,0.5,0.5
2022-06-17T21:00:00,2294A,116.9896,30.6145,安庆市,安庆大学,颗粒物(PM10),53,56,29,16,15,119,65,111,101,27,13,5,5,0.3,0.2
2022-06-17T21:00:00,2295A,118.2903,29.6963,黄山市,延安路89号,,27,27,34,2,7,88,61,82,80,4,5,8,8,0.4,0.4
2022-06-17T21:00:00,2296A,118.327,29.7178,黄山市,黄山东路89号,,18,16,25,4,10,87,57,82,76,8,6,7,7,0.4,0.4
2022-06-17T21:00:00,2297A,118.1371,30.2756,黄山市,黄山区政府5号楼,,39,39,26,10,10,92,19,83,65,11,5,6,6,0.6,0.4
2022-06-17T21:00:00,2298A,118.3093,32.3153,滁州市,老年大学,,44,44,33,22,16,192,137,177,172,18,11,6,12,0.4,0.3
2022-06-17T21:00:00,2299A,118.3244,32.2786,滁州市,人大宾馆,,42,39,32,18,15,207,134,185,178,20,10,6,8,0.4,0.4
2022-06-17T21:00:00,2301A,115.8277,32.8929,阜阳市,市监测站,臭氧1小时,64,55,41,17,16,171,171,160,151,10,12,6,6,0.5,0.4
2022-06-17T21:00:00,2303A,115.8554,32.8605,阜阳市,开发区,颗粒物(PM10),51,51,46,21,17,169,156,151,151,17,14,7,7,0.5,0.5
2022-06-17T21:00:00,2307A,116.5079,31.737,六安市,监测大楼,,39,33,38,15,17,178,124,167,155,9,11,7,8,0.4,0.4
2022-06-17T21:00:00,2308A,116.4738,31.7643,六安市,皖西学院,,44,44,43,17,20,198,123,173,158,8,11,9,10,0.4,0.4
2022-06-17T21:00:00,2309A,116.4996,31.7905,六安市,朝阳厂,,37,37,40,17,23,175,106,155,138,6,7,8,8,0.5,0.5
2022-06-17T21:00:00,2310A,116.5567,31.7886,六安市,开发区,颗粒物(PM10),56,62,49,21,22,184,103,170,150,20,8,19,9,0.6,0.6
2022-06-17T21:00:00,2311A,115.8072,33.8399,亳州市,污水处理厂,,45,33,44,15,19,169,144,166,162,8,9,7,8,0.2,0.4
2022-06-17T21:00:00,2312A,115.7789,33.8518,亳州市,三国揽胜宫,,44,43,49,11,16,164,139,159,156,6,6,5,5,0.4,0.5
2022-06-17T21:00:00,2314A,117.47,30.6618,池州市,池州学院,,27,23,22,14,12,117,84,107,104,7,6,4,5,0.4,0.4
2022-06-17T21:00:00,2316A,118.7581,30.9454,宣城市,鳌峰子站,,43,43,34,19,20,106,62,100,94,27,15,4,6,0.5,0.5
2022-06-17T21:00:00,2317A,118.7385,30.9743,宣城市,敬亭山子站,,38,38,33,26,20,117,70,110,101,15,16,4,5,0.4,0.4
2022-06-17T21:00:00,2318A,118.7173,30.9427,宣城市,开发区子站,,36,36,30,18,17,114,70,103,98,21,16,5,5,0.5,0.4
2022-06-17T21:00:00,2319A,119.0141,25.4325,莆田市,荔城区仓后路,,31,31,25,16,13,48,16,37,28,28,26,2,2,0.8,0.9
2022-06-17T21:00:00,2320A,119.0015,25.4553,莆田市,莆田市监测站,,38,38,26,18,14,50,12,41,32,18,18,4,5,0.5,0.5
2022-06-17T21:00:00,2321A,119.1119,25.4561,莆田市,涵江区六中,,34,34,24,18,18,40,19,29,24,27,30,3,4,0.4,0.4
2022-06-17T21:00:00,2322A,119.1013,25.3215,莆田市,秀屿区政府,,15,15,18,7,14,34,31,29,29,9,16,3,4,0.6,0.7
2022-06-17T21:00:00,2324A,117.6211,26.2625,三明市,三钢,,17,17,14,9,11,31,18,26,24,28,21,2,2,0.6,0.6
2022-06-17T21:00:00,2325A,117.635,26.2714,三明市,三明二中,,16,16,14,9,9,38,12,30,25,31,20,2,2,0.8,0.8
2022-06-17T21:00:00,2326A,117.6028,26.2378,三明市,三元区政府,,23,23,17,11,8,33,6,24,18,41,21,4,4,1.2,1
2022-06-17T21:00:00,2327A,117.7275,26.3108,三明市,洋溪(对照点),,19,19,16,6,8,51,17,44,35,23,10,5,5,0.8,0.7
2022-06-17T21:00:00,2331A,118.0966,26.6761,南平市,茫荡山(对照点),,16,2,2,2,3,73,51,61,50,2,2,4,4,0.4,0.4
2022-06-17T21:00:00,2332A,118.1681,26.6369,南平市,南平市监测站,,20,0,13,3,8,73,64,58,58,6,10,4,5,0.4,0.6
2022-06-17T21:00:00,2333A,118.1825,26.6489,南平市,南平铝业有限公司,,19,13,14,4,9,75,58,53,53,8,10,4,5,0.6,0.7
2022-06-17T21:00:00,2334A,118.1756,26.6272,南平市,南平七中,,15,11,12,10,10,63,47,49,49,8,9,4,4,0.6,0.7
2022-06-17T21:00:00,2335A,117.0189,25.1181,龙岩市,龙岩师专(对照点),,18,18,10,8,6,37,9,31,26,19,20,4,5,0.8,0.8
2022-06-17T21:00:00,2336A,117.0217,25.1033,龙岩市,龙岩市监测站,,40,30,14,28,9,36,4,30,24,31,21,5,5,1.5,0.8
2022-06-17T21:00:00,2337A,117.0258,25.0661,龙岩市,闽西职业技术学院,,17,17,15,6,4,36,2,31,24,17,19,6,6,0.6,0.6
2022-06-17T21:00:00,2338A,117.0196,25.0306,龙岩市,龙岩学院,,8,4,8,5,5,41,20,36,31,5,7,3,3,0.3,0.3
2022-06-17T21:00:00,2339A,119.5001,26.6946,宁德市,金涵水库(对照点),,23,4,16,16,17,60,24,45,41,15,12,7,7,0.6,0.7
2022-06-17T21:00:00,2341A,119.5388,26.6612,宁德市,宁德市监测站,,20,9,18,6,12,49,14,38,34,40,23,6,6,0.7,0.7
2022-06-17T21:00:00,2342A,117.3102,29.3867,景德镇市,王港中学(对照点),,40,40,30,14,15,101,55,88,80,7,6,5,4,0.3,0.4
2022-06-17T21:00:00,2343A,117.2117,29.2933,景德镇市,老干部活动中心,,40,40,40,15,17,107,51,90,79,21,14,20,13,0.4,0.3
2022-06-17T21:00:00,2344A,117.1894,29.2789,景德镇市,兽医站,,20,20,29,13,16,94,43,78,72,19,17,25,19,0.5,0.5
2022-06-17T21:00:00,2345A,117.1547,29.2617,景德镇市,台达陶瓷,,28,23,37,19,15,96,50,81,73,16,18,22,29,0.5,0.5
2022-06-17T21:00:00,2346A,117.2461,29.2956,景德镇市,陶研所,,28,28,26,6,11,99,63,88,84,6,8,5,6,0.4,0.4
2022-06-17T21:00:00,2347A,114.0997,27.5002,萍乡市,武功山(对照点),,11,3,5,3,3,52,35,44,41,4,6,21,19,0.2,0.2
2022-06-17T21:00:00,2348A,113.8385,27.6434,萍乡市,中医院,,12,10,22,3,19,50,22,42,40,21,24,5,10,1.2,1.1
2022-06-17T21:00:00,2349A,113.8493,27.6253,萍乡市,市政府车库,,20,20,33,10,23,46,19,40,35,31,28,6,13,1.3,1.5
2022-06-17T21:00:00,2350A,113.8676,27.6435,萍乡市,市环保局,,,7,30,,25,59,18,52,48,30,24,11,18,1.8,0.8
2022-06-17T21:00:00,2351A,113.866,27.6198,萍乡市,安源区政府,,9,7,28,5,25,58,25,44,35,18,22,9,14,0.4,0.7
2022-06-17T21:00:00,2352A,115.0861,27.9317,新余市,北岗(对照点),,12,7,14,7,10,54,36,51,46,8,10,2,5,0.5,0.5
2022-06-17T21:00:00,2353A,114.9886,27.8431,新余市,飞宇,,18,18,29,4,13,53,35,48,46,9,11,2,7,0.4,0.5
2022-06-17T21:00:00,2354A,114.9231,27.8246,新余市,第二水厂,,12,7,25,8,15,50,35,44,44,17,21,5,8,0.7,0.9
2022-06-17T21:00:00,2355A,114.9308,27.8036,新余市,市气象局,,15,15,23,10,14,53,42,47,47,10,15,4,6,0.8,0.8
2022-06-17T21:00:00,2357A,116.9822,28.1136,鹰潭市,龙虎山(对照点),,9,6,14,0,6,59,28,51,38,2,2,1,2,0.4,0.4
2022-06-17T21:00:00,2358A,117.0564,28.2642,鹰潭市,新监测站,,20,20,25,0,6,96,36,74,48,4,10,1,4,0.4,0.4
2022-06-17T21:00:00,2359A,117.0311,28.2475,鹰潭市,财苑宾馆,,11,5,24,0,4,87,34,68,44,3,8,6,7,0.3,0.3
2022-06-17T21:00:00,2360A,117.0222,28.2264,鹰潭市,体育馆,,14,14,24,0,5,89,34,63,45,1,4,3,5,0.6,0.4
2022-06-17T21:00:00,2361A,117.0017,28.2131,鹰潭市,三川水表,,20,20,23,5,6,75,32,58,42,3,6,5,5,0.5,0.5
2022-06-17T21:00:00,2362A,114.9017,25.9149,赣州市,通天岩(对照点),,16,16,22,5,13,50,30,41,40,14,14,5,6,0.4,0.5
2022-06-17T21:00:00,2363A,114.9367,25.8664,赣州市,地委,,19,15,21,13,11,56,49,53,53,14,18,6,7,0.7,0.8
2022-06-17T21:00:00,2364A,114.9461,25.8481,赣州市,气象台,,18,18,20,7,10,57,55,51,51,7,18,6,6,0.6,0.7
2022-06-17T21:00:00,2365A,114.9322,25.8333,赣州市,市图书馆,,12,7,14,6,9,45,36,38,38,15,18,5,4,0.8,0.8
2022-06-17T21:00:00,2366A,114.8905,25.8471,赣州市,华坚鞋城,,16,9,15,8,12,53,51,48,48,7,17,2,4,0.8,0.9
2022-06-17T21:00:00,2367A,114.9754,27.0803,吉安市,红声器材厂,,26,26,30,12,13,67,29,60,42,10,7,8,8,0.6,0.5
2022-06-17T21:00:00,2368A,114.9658,27.0999,吉安市,市森林工业局,,29,26,24,20,18,70,27,64,42,14,8,5,7,0.6,0.5
2022-06-17T21:00:00,2369A,114.99,27.1312,吉安市,市环境监测站,,19,19,25,11,15,63,24,60,39,15,10,13,11,0.5,0.4
2022-06-17T21:00:00,2370A,115.0093,27.0968,吉安市,青原区法院,,31,31,26,17,15,63,34,57,36,13,10,11,14,0.5,0.5
2022-06-17T21:00:00,2371A,114.3408,27.8064,宜春市,槟榔水业(对照点),,,14,38,10,20,53,28,45,40,16,13,6,7,,0.7
2022-06-17T21:00:00,2373A,114.3956,27.7844,宜春市,市石油公司,,13,13,32,5,16,49,19,42,36,20,16,5,5,0.7,0.7
2022-06-17T21:00:00,2374A,114.3703,27.7914,宜春市,市气象局,,18,18,38,7,18,56,30,46,40,16,14,5,5,0.7,0.8
2022-06-17T21:00:00,2375A,114.4013,27.8074,宜春市,市广电局,,16,12,31,11,18,57,34,47,40,11,12,2,4,1.0,1
2022-06-17T21:00:00,2376A,116.2127,28.0814,抚州市,桐源党溪(对照点),,15,13,22,4,9,62,45,50,45,10,9,4,6,0.7,0.8
2022-06-17T21:00:00,2377A,116.3544,27.9831,抚州市,市站,,18,13,18,4,9,57,57,50,50,5,7,6,4,0.9,0.8
2022-06-17T21:00:00,2378A,116.3565,27.963,抚州市,血防站,,18,18,20,2,7,54,52,48,46,7,9,1,2,0.6,0.6
2022-06-17T21:00:00,2379A,116.3564,28.0007,抚州市,采茶剧团,,19,12,19,2,8,60,60,52,51,4,6,4,4,0.6,0.7
2022-06-17T21:00:00,2380A,116.385,27.9647,抚州市,医学分院,,19,14,21,3,9,59,59,51,51,5,10,3,4,0.5,0.5
2022-06-17T21:00:00,2381A,118.005,28.4572,上饶市,百草园(对照点),,19,19,36,8,21,84,18,69,51,14,12,7,11,0.6,0.6
2022-06-17T21:00:00,2382A,117.9756,28.4436,上饶市,市监测站,,29,29,45,9,25,87,37,74,54,8,14,5,9,0.5,0.6
2022-06-17T21:00:00,2383A,117.9519,28.4628,上饶市,凤凰光学,,23,23,51,9,28,78,36,69,63,18,21,5,11,0.7,0.8
2022-06-17T21:00:00,2385A,114.17,35.9019,鹤壁市,市监测站,颗粒物(PM10),66,82,123,35,48,313,157,291,245,34,33,9,14,0.8,1.3
2022-06-17T21:00:00,2386A,114.2956,35.7511,鹤壁市,市交警支队,颗粒物(PM10),64,78,111,33,48,280,130,260,227,31,20,6,12,0.7,1.2
2022-06-17T21:00:00,2387A,114.2878,35.7306,鹤壁市,迎宾馆,颗粒物(PM10),64,77,104,20,49,276,136,259,227,29,24,9,12,0.6,0.9
2022-06-17T21:00:00,2389A,113.836,35.311,新乡市,环保西院,臭氧1小时,58,54,84,12,31,273,166,249,220,10,22,6,10,0.4,0.7
2022-06-17T21:00:00,2390A,113.884,35.272,新乡市,开发区,颗粒物(PM10),66,82,83,14,27,274,163,243,213,19,24,7,9,0.5,0.7
2022-06-17T21:00:00,2391A,113.883,35.303,新乡市,环保东院,颗粒物(PM10),55,60,76,26,31,276,162,248,220,21,30,5,9,0.6,0.9
2022-06-17T21:00:00,2392A,115.0312,35.7636,濮阳市,环保局,,45,38,81,14,42,264,144,244,222,21,20,8,8,0.2,0.5
2022-06-17T21:00:00,2394A,115.0574,35.7609,濮阳市,油田运输公司,颗粒物(PM10),61,72,98,12,42,294,136,259,222,30,24,7,6,0.2,0.6
2022-06-17T21:00:00,2395A,115.0866,35.7754,濮阳市,油田物探公司,,,,95,,41,300,141,271,235,27,20,6,12,0.4,0.5
2022-06-17T21:00:00,2396A,113.8276,34.0159,许昌市,监测站,,49,49,54,10,19,176,138,167,164,18,11,4,6,0.3,0.4
2022-06-17T21:00:00,2398A,113.7906,33.9953,许昌市,开发区,,,,52,13,19,172,117,163,157,17,8,5,6,0.4,0.5
2022-06-17T21:00:00,2399A,114.051,33.5699,漯河市,三五一五工厂,,37,37,48,19,20,180,109,166,156,29,9,7,7,0.5,0.4
2022-06-17T21:00:00,2400A,114.0055,33.5698,漯河市,漯河大学,,43,43,46,1,15,179,132,168,161,29,12,18,4,0.3,0.3
2022-06-17T21:00:00,2401A,114.0138,33.5828,漯河市,市水利局,,43,34,47,17,21,181,136,168,162,12,10,11,10,0.4,0.4
2022-06-17T21:00:00,2402A,114.0261,33.5698,漯河市,市广电局,,46,46,47,16,18,178,122,165,157,17,7,6,6,0.5,0.4
2022-06-17T21:00:00,2403A,112.5192,32.9917,南阳市,环保局,,37,26,43,14,20,151,117,145,137,7,5,2,3,0.3,0.3
2022-06-17T21:00:00,2404A,112.5339,33.0086,南阳市,瓦房庄,颗粒物(PM10),54,58,45,36,21,150,119,146,138,14,10,3,4,0.5,0.4
2022-06-17T21:00:00,2405A,112.5003,32.9735,南阳市,汉画馆,,39,36,40,27,24,150,120,148,139,5,5,6,7,0.4,0.3
2022-06-17T21:00:00,2406A,112.5779,33.0144,南阳市,气象站,,38,32,44,23,17,156,119,150,142,14,11,6,7,0.4,0.4
2022-06-17T21:00:00,2407A,112.548,32.9692,南阳市,理工学院,,46,46,39,17,23,152,119,147,140,9,11,2,3,0.4,0.4
2022-06-17T21:00:00,2408A,115.6702,34.4285,商丘市,环境监测站,,47,31,54,16,21,189,148,180,175,16,15,13,9,0.4,0.4
2022-06-17T21:00:00,2409A,115.6458,34.4045,商丘市,粮食局,颗粒物(PM10),56,61,62,18,21,191,154,180,177,13,11,8,8,0.5,0.6
2022-06-17T21:00:00,2410A,115.6293,34.3948,商丘市,睢阳区环保局,颗粒物(PM10),55,59,53,15,22,177,136,171,164,18,14,5,6,0.6,0.7
2022-06-17T21:00:00,2420A,114.0189,32.9656,驻马店市,市一纸厂,颗粒物(PM10),51,51,39,23,17,153,129,146,143,8,8,7,7,0.2,0.2
2022-06-17T21:00:00,2421A,114.0114,33.015,驻马店市,市彩印厂,,42,39,40,14,14,157,133,149,148,8,7,7,6,0.3,0.2
2022-06-17T21:00:00,2422A,113.9976,32.9771,驻马店市,天方二分厂,,40,40,38,13,17,150,126,144,141,10,7,6,5,0.3,0.3
2022-06-17T21:00:00,2423A,115.0601,30.2313,黄石市,沈家营,,43,43,63,11,21,169,93,154,131,6,22,8,18,0.4,0.8
2022-06-17T21:00:00,2424A,115.0817,30.2006,黄石市,陈家湾,,27,23,52,8,24,153,86,132,117,4,20,3,11,0.4,0.9
2022-06-17T21:00:00,2426A,114.8988,30.2019,黄石市,铁山,颗粒物(PM10),52,54,59,16,22,172,100,154,138,15,28,51,17,0.5,0.7
2022-06-17T21:00:00,2427A,115.0307,30.2092,黄石市,团城山,,42,42,55,10,18,173,92,156,136,12,23,12,14,0.6,0.8
2022-06-17T21:00:00,2428A,111.0419,32.395,十堰市,武当山(对照点),,42,24,25,19,16,166,133,154,150,7,6,7,7,0.5,0.5
2022-06-17T21:00:00,2429A,110.78,32.6494,十堰市,滨河新村,颗粒物(PM10),53,55,56,15,26,184,128,155,138,12,18,8,9,0.5,0.7
2022-06-17T21:00:00,2430A,110.7258,32.6389,十堰市,刘家沟,,44,40,45,10,26,192,139,168,157,9,10,10,10,0.6,0.8
2022-06-17T21:00:00,2431A,110.8839,32.5714,十堰市,铁二处,,47,43,38,14,20,183,148,166,161,11,11,9,8,0.7,0.7
2022-06-17T21:00:00,2432A,112.155,32.0197,襄阳市,襄城运动路,,41,41,50,28,23,169,124,158,150,11,9,9,8,0.6,0.6
2022-06-17T21:00:00,2433A,112.1392,32.0564,襄阳市,樊城新华路,,44,44,45,24,23,162,118,149,142,13,10,6,6,0.8,0.8
2022-06-17T21:00:00,2434A,112.1825,32.1142,襄阳市,高新管委会,,35,27,42,17,20,147,111,135,129,6,7,4,4,0.7,0.7
2022-06-17T21:00:00,2435A,112.2106,32.0903,襄阳市,襄州航空路,颗粒物(PM10),57,63,42,20,19,152,130,143,140,5,6,5,7,0.7,0.6
2022-06-17T21:00:00,2436A,114.8938,30.3994,鄂州市,市政府,,45,45,57,16,21,182,82,168,148,15,18,8,11,0.5,0.7
2022-06-17T21:00:00,2437A,114.8989,30.3714,鄂州市,赵家坝,,38,38,50,10,20,175,76,159,137,12,20,8,10,0.6,0.7
2022-06-17T21:00:00,2439A,112.2014,31.0481,荆门市,竹园小学,,46,46,42,24,21,161,116,152,146,9,7,9,7,0.4,0.4
2022-06-17T21:00:00,2440A,112.1969,30.9891,荆门市,掇刀,,40,40,40,20,19,159,112,152,146,12,9,6,6,0.5,0.5
2022-06-17T21:00:00,2441A,112.2213,31.0386,荆门市,石化一小,,46,46,36,17,16,158,111,152,144,11,10,10,10,0.5,0.4
