timepoint,stationcode,longitude,latitude,area,positionname,primarypollutant,aqi,pm10,pm10_24h,pm2_5,pm2_5_24h,o3,o3_24h,o3_8h,o3_8h_24h,no2,no2_24h,so2,so2_24h,co,co_24h
2022-06-17T09:00:00,1001A,116.3621,39.8784,北京市,万寿西宫,颗粒物(PM10),73,95,67,42,32,209,126,95,85,36,26,8,3,1.6,0.9
2022-06-17T09:00:00,1002A,116.2202,40.2915,北京市,定陵(对照点),细颗粒物(PM2.5),74,73,53,54,31,216,135,97,86,14,12,2,2,0.5,0.4
2022-06-17T09:00:00,1003A,116.4174,39.9289,北京市,东四,颗粒物(PM10),75,100,71,45,35,223,127,118,109,27,22,7,3,1.6,0.8
2022-06-17T09:00:00,1004A,116.4072,39.8863,北京市,天坛,颗粒物(PM10),73,96,65,41,30,193,110,62,55,23,18,7,3,1.6,0.7
2022-06-17T09:00:00,1005A,116.462,39.9365,北京市,农展馆,颗粒物(PM10),86,121,78,40,32,217,118,88,73,25,27,9,5,1.5,0.7
2022-06-17T09:00:00,1006A,116.3392,39.9295,北京市,官园,颗粒物(PM10),62,73,67,35,30,218,137,101,92,20,19,10,5,1.6,0.7
2022-06-17T09:00:00,1007A,116.2878,39.9611,北京市,海淀万柳,颗粒物(PM10),89,128,75,55,32,208,117,79,45,31,34,3,2,1.1,0.6
2022-06-17T09:00:00,1008A,116.6636,40.135,北京市,顺义新城,颗粒物(PM10),84,117,79,52,31,175,100,96,70,17,15,7,3,1.3,0.7
2022-06-17T09:00:00,1009A,116.6275,40.3275,北京市,怀柔镇,细颗粒物(PM2.5),58,61,56,41,32,212,106,97,84,18,15,3,2,0.7,0.6
2022-06-17T09:00:00,1010A,116.2296,40.217,北京市,昌平镇,颗粒物(PM10),65,80,60,45,32,162,94,110,85,28,18,3,2,0.7,0.6
2022-06-17T09:00:00,1011A,116.3966,39.9821,北京市,奥体中心,颗粒物(PM10),87,123,79,45,32,195,119,101,73,27,33,4,2,1.4,0.7
2022-06-17T09:00:00,1012A,116.184,39.9136,北京市,古城,颗粒物(PM10),86,122,64,58,32,224,123,92,90,25,23,2,2,0.9,0.6
2022-06-17T09:00:00,1015A,117.1444,39.1661,天津市,勤俭道,细颗粒物(PM2.5),77,74,85,56,56,229,91,83,59,24,26,11,13,0.8,1
2022-06-17T09:00:00,1017A,117.237,39.1082,天津市,大直沽八号路,颗粒物(PM10),59,67,81,23,32,195,90,74,63,29,28,8,11,0.8,0.8
2022-06-17T09:00:00,1018A,117.202,39.0927,天津市,前进道,细颗粒物(PM2.5),62,41,56,44,47,197,82,71,62,30,27,11,11,1.1,1.2
2022-06-17T09:00:00,1019A,117.1837,39.2133,天津市,淮河道,细颗粒物(PM2.5),90,97,104,67,64,207,93,85,65,28,34,12,14,1.0,1
2022-06-17T09:00:00,1021A,117.307,39.0877,天津市,跃进路,颗粒物(PM10),60,70,83,20,27,189,87,72,59,31,30,11,11,1.0,0.8
2022-06-17T09:00:00,1023A,117.707,39.0343,天津市,第四大街,,28,28,81,17,44,131,81,78,71,36,45,6,9,0.6,0.7
2022-06-17T09:00:00,1024A,117.457,38.8394,天津市,永明路,,36,22,61,14,41,210,114,101,96,11,17,13,14,0.6,0.7
2022-06-17T09:00:00,1026A,117.764,39.1587,天津市,汉北路,,38,38,66,26,49,174,94,79,79,24,22,7,5,0.9,0.9
2022-06-17T09:00:00,1027A,117.157,38.9194,天津市,团泊洼(对照点),颗粒物(PM10),56,61,68,17,30,255,111,78,78,11,20,10,12,1.0,1
2022-06-17T09:00:00,1029A,114.4422,38.0444,石家庄市,职工医院,颗粒物(PM10),56,62,113,30,51,296,134,155,131,12,18,7,6,0.7,0.7
2022-06-17T09:00:00,1030A,114.6063,38.0266,石家庄市,高新区,颗粒物(PM10),65,79,112,37,49,271,108,146,106,32,28,11,10,0.7,0.7
2022-06-17T09:00:00,1031A,114.4898,38.1328,石家庄市,西北水源,细颗粒物(PM2.5),54,53,108,38,59,298,124,158,119,17,23,9,8,0.6,0.7
2022-06-17T09:00:00,1032A,114.4586,38.0058,石家庄市,西南高教,细颗粒物(PM2.5),65,54,96,47,57,298,132,172,134,14,17,10,9,0.5,0.7
2022-06-17T09:00:00,1033A,114.5331,38.0178,石家庄市,世纪公园,颗粒物(PM10),62,73,108,35,52,280,115,158,117,22,24,12,10,0.6,0.9
2022-06-17T09:00:00,1034A,114.509,38.0457,石家庄市,人民会堂,细颗粒物(PM2.5),57,55,97,40,53,303,128,165,130,22,23,12,11,0.7,0.8
2022-06-17T09:00:00,1035A,114.3524,37.8911,石家庄市,封龙山(对照点),颗粒物(PM10),76,102,103,36,49,312,146,213,166,14,19,14,14,0.5,0.7
2022-06-17T09:00:00,1037A,118.131,39.6363,唐山市,雷达站,颗粒物(PM10),65,80,87,39,45,218,80,75,73,23,18,12,7,1.8,1.2
2022-06-17T09:00:00,1038A,118.1725,39.6334,唐山市,物资局,颗粒物(PM10),67,84,83,39,50,215,81,70,69,25,22,16,10,2.1,1.3
2022-06-17T09:00:00,1040A,118.1705,39.6506,唐山市,十二中,细颗粒物(PM2.5),69,75,78,50,58,203,76,68,64,25,26,14,9,1.8,1.2
2022-06-17T09:00:00,1041A,118.1869,39.622,唐山市,小山,颗粒物(PM10),64,77,86,43,53,218,90,70,70,21,21,13,7,1.9,1.1
2022-06-17T09:00:00,1042A,119.5134,39.8207,秦皇岛市,北戴河环保局,,49,49,62,17,17,175,112,121,71,7,6,8,8,0.2,0.3
2022-06-17T09:00:00,1043A,119.7493,40.0116,秦皇岛市,第一关,颗粒物(PM10),51,52,52,22,27,176,100,50,26,15,35,13,13,0.2,0.4
2022-06-17T09:00:00,1044A,119.5897,39.9499,秦皇岛市,监测站,细颗粒物(PM2.5),67,52,55,48,36,168,95,88,45,39,23,11,8,0.2,0.4
2022-06-17T09:00:00,1046A,119.5251,39.9041,秦皇岛市,建设大厦,颗粒物(PM10),51,51,55,28,26,173,112,108,44,18,19,8,8,0.4,0.6
2022-06-17T09:00:00,1048A,114.5302,36.6116,邯郸市,东污水处理厂,"颗粒物(PM10),细颗粒物(PM2.5)",60,70,83,43,49,273,127,184,144,17,17,11,11,0.9,0.9
2022-06-17T09:00:00,1049A,114.4918,36.5713,邯郸市,矿院,细颗粒物(PM2.5),62,57,75,44,48,267,124,189,151,20,16,10,12,1.0,0.9
2022-06-17T09:00:00,1050A,114.484,36.6133,邯郸市,丛台公园,颗粒物(PM10),53,56,72,35,47,272,123,194,152,20,18,9,9,0.8,0.7
2022-06-17T09:00:00,1051A,115.493,38.8632,保定市,游泳馆,细颗粒物(PM2.5),74,83,60,54,36,271,108,107,91,20,22,5,7,0.7,0.4
2022-06-17T09:00:00,1052A,115.5213,38.8959,保定市,华电二区,颗粒物(PM10),73,95,81,49,33,270,103,91,75,16,23,10,10,0.9,0.6
2022-06-17T09:00:00,1053A,115.4713,38.9108,保定市,接待中心,细颗粒物(PM2.5),83,104,89,61,41,268,116,113,93,21,25,6,8,0.9,0.7
2022-06-17T09:00:00,1054A,115.4612,38.8416,保定市,地表水厂,颗粒物(PM10),80,109,81,49,37,253,102,97,86,19,18,7,6,0.8,0.6
2022-06-17T09:00:00,1055A,115.4323,38.8697,保定市,胶片厂,细颗粒物(PM2.5),62,58,61,44,32,282,121,116,100,16,19,10,9,0.9,0.7
2022-06-17T09:00:00,1056A,115.5086,38.8639,保定市,监测站,细颗粒物(PM2.5),70,86,74,51,37,277,108,105,88,20,22,11,10,0.8,0.5
2022-06-17T09:00:00,1057A,114.8883,40.8336,张家口市,人民公园,颗粒物(PM10),54,58,46,37,24,211,84,68,62,11,12,5,6,0.6,0.6
2022-06-17T09:00:00,1059A,114.8687,40.8042,张家口市,五金库,颗粒物(PM10),56,61,56,34,29,212,106,136,76,21,19,6,7,0.5,0.4
2022-06-17T09:00:00,1060A,114.8902,40.762,张家口市,世纪豪园,细颗粒物(PM2.5),83,95,66,61,44,210,167,129,112,15,16,5,6,0.5,0.5
2022-06-17T09:00:00,1061A,114.8916,40.8661,张家口市,北泵房(对照点),,,40,39,28,27,215,,,,6,9,,9,,0.8
2022-06-17T09:00:00,1062A,117.9531,40.9081,承德市,铁路,,,,68,51,41,160,75,61,38,29,21,3,3,0.7,0.6
2022-06-17T09:00:00,1063A,117.9392,40.9763,承德市,中国银行,细颗粒物(PM2.5),79,61,55,58,43,172,84,47,30,17,18,4,5,0.5,0.6
2022-06-17T09:00:00,1064A,117.9503,40.928,承德市,开发区,细颗粒物(PM2.5),64,76,64,46,39,179,89,72,45,30,20,5,5,0.7,0.6
2022-06-17T09:00:00,1065A,117.8051,40.9655,承德市,文化中心,细颗粒物(PM2.5),75,66,65,55,50,200,120,62,50,12,20,7,17,0.6,0.7
2022-06-17T09:00:00,1066A,117.9268,41.0026,承德市,离宫(对照点),颗粒物(PM10),59,68,59,39,33,170,93,27,24,13,12,8,7,0.6,0.6
2022-06-17T09:00:00,1067A,116.6708,39.5111,廊坊市,药材公司,细颗粒物(PM2.5),83,100,75,61,47,259,87,130,92,27,26,7,7,1.3,0.8
2022-06-17T09:00:00,1068A,116.7214,39.5589,廊坊市,开发区,细颗粒物(PM2.5),83,80,65,61,49,241,94,126,81,26,37,11,9,1.5,0.8
2022-06-17T09:00:00,1070A,116.7244,39.5269,廊坊市,北华航天学院,颗粒物(PM10),81,112,86,54,42,236,86,120,80,27,29,12,11,1.5,0.7
2022-06-17T09:00:00,1071A,116.8842,38.2991,沧州市,沧县城建局,"颗粒物(PM10),细颗粒物(PM2.5)",53,56,53,37,33,223,107,70,70,33,34,10,13,0.8,0.8
2022-06-17T09:00:00,1072A,116.8584,38.3254,沧州市,电视转播站,"颗粒物(PM10),细颗粒物(PM2.5)",59,67,66,42,37,239,123,84,75,22,26,15,15,0.6,0.6
2022-06-17T09:00:00,1073A,116.8709,38.3228,沧州市,市环保局,颗粒物(PM10),71,91,81,38,34,231,120,76,76,28,29,11,14,0.9,0.8
2022-06-17T09:00:00,1074A,115.6838,37.7541,衡水市,电机北厂,细颗粒物(PM2.5),73,90,107,53,45,285,90,110,62,34,27,14,16,0.7,0.7
2022-06-17T09:00:00,1075A,115.6303,37.7316,衡水市,市监测站,颗粒物(PM10),75,100,115,52,40,269,86,111,65,22,22,19,22,0.6,0.6
2022-06-17T09:00:00,1077A,114.4704,37.0886,邢台市,达活泉,颗粒物(PM10),63,76,115,29,40,298,125,188,136,13,15,13,13,0.6,0.6
2022-06-17T09:00:00,1078A,114.5062,37.0349,邢台市,邢师高专,颗粒物(PM10),65,80,98,34,44,298,128,201,145,21,17,13,11,0.8,0.8
2022-06-17T09:00:00,1079A,114.5237,37.0851,邢台市,路桥公司,颗粒物(PM10),56,61,104,39,44,292,126,183,135,16,18,13,12,0.5,0.6
2022-06-17T09:00:00,1081A,112.5139,37.8873,太原市,尖草坪,细颗粒物(PM2.5),107,154,131,80,58,336,171,225,193,50,24,26,14,2.5,1
2022-06-17T09:00:00,1083A,112.434,38.0108,太原市,上兰(对照点),细颗粒物(PM2.5),107,119,105,80,56,313,171,188,163,,18,2,5,0.9,0.8
2022-06-17T09:00:00,1084A,112.469,37.7124,太原市,晋源,细颗粒物(PM2.5),99,139,126,74,56,300,185,223,180,32,26,20,17,1.6,0.9
2022-06-17T09:00:00,1085A,112.5583,37.7394,太原市,小店,颗粒物(PM10),111,171,138,82,60,299,188,250,190,42,26,15,12,1.5,0.9
2022-06-17T09:00:00,1086A,112.5369,37.8692,太原市,桃园,细颗粒物(PM2.5),112,155,134,84,63,335,177,204,170,41,30,16,14,1.5,1
2022-06-17T09:00:00,1087A,112.57,37.8195,太原市,坞城,臭氧1小时,103,120,109,73,62,320,205,208,178,27,25,8,12,1.1,1
2022-06-17T09:00:00,1088A,112.549,37.9854,太原市,南寨,颗粒物(PM10),88,126,116,62,52,318,156,214,167,34,24,8,13,1.1,1
2022-06-17T09:00:00,1090A,111.6507,40.7517,呼和浩特市,呼市一监,颗粒物(PM10),65,80,42,24,14,140,78,53,38,28,30,12,8,0.5,0.4
2022-06-17T09:00:00,1091A,111.6572,40.8033,呼和浩特市,小召,颗粒物(PM10),60,70,32,24,17,142,58,57,42,37,28,11,7,0.6,0.4
2022-06-17T09:00:00,1094A,111.7516,40.8369,呼和浩特市,如意水处理厂,颗粒物(PM10),58,65,42,26,17,150,80,60,46,36,30,15,12,0.6,0.4
2022-06-17T09:00:00,1095A,111.7276,40.8062,呼和浩特市,二十九中,颗粒物(PM10),54,58,33,24,14,155,82,43,43,35,29,14,9,0.7,0.5
2022-06-17T09:00:00,1096A,111.5512,40.7866,呼和浩特市,工大金川校区,颗粒物(PM10),64,78,49,23,14,146,58,54,48,46,34,12,7,0.6,0.5
2022-06-17T09:00:00,1097A,111.717,40.7612,呼和浩特市,化肥厂生活区,颗粒物(PM10),65,79,52,25,16,156,82,51,46,32,25,16,12,0.6,0.5
2022-06-17T09:00:00,1098A,123.6836,41.9339,沈阳市,森林路(对照点),,26,24,28,15,17,136,82,70,70,27,22,12,10,0.9,0.8
2022-06-17T09:00:00,1099A,123.505,41.7406,沈阳市,浑南东路,,34,27,30,15,18,153,106,74,70,14,18,14,13,0.7,0.8
2022-06-17T09:00:00,1100A,123.4231,41.6989,沈阳市,新秀街,,32,24,34,2,2,139,102,86,86,17,21,18,15,0.7,0.9
2022-06-17T09:00:00,1102A,123.5903,41.8411,沈阳市,东陵路,颗粒物(PM10),57,63,29,15,18,142,87,57,57,21,22,13,11,1.0,1
2022-06-17T09:00:00,1103A,123.4264,41.8467,沈阳市,陵东街,,32,27,28,14,16,142,102,96,95,20,16,17,11,0.8,0.8
2022-06-17T09:00:00,1104A,123.4114,41.7653,沈阳市,文化路,,33,29,31,13,19,148,104,94,94,11,10,22,15,0.5,0.6
2022-06-17T09:00:00,1105A,123.4678,41.7867,沈阳市,小河沿,,30,25,29,14,16,141,96,89,87,22,17,15,13,0.6,0.6
2022-06-17T09:00:00,1106A,123.4017,41.7972,沈阳市,太原街,颗粒物(PM10),53,56,53,17,21,149,106,98,98,24,21,24,16,0.6,0.6
2022-06-17T09:00:00,1108A,123.3783,41.9228,沈阳市,京沈街,,39,39,36,15,19,146,109,96,96,16,14,17,15,0.8,0.8
2022-06-17T09:00:00,1109A,121.612,38.9741,大连市,甘井子,,37,37,32,21,18,133,110,73,73,21,22,7,8,0.6,0.5
2022-06-17T09:00:00,1110A,121.565,38.9511,大连市,周水子,细颗粒物(PM2.5),62,33,30,44,30,125,85,79,79,21,18,6,7,1.0,0.9
2022-06-17T09:00:00,1111A,121.5637,38.8845,大连市,星海三站,细颗粒物(PM2.5),60,54,39,43,28,124,124,92,92,19,22,9,8,0.5,0.4
2022-06-17T09:00:00,1112A,121.6302,38.9117,大连市,青泥洼桥,,42,35,31,29,23,127,113,80,80,15,19,6,6,0.6,0.4
2022-06-17T09:00:00,1113A,121.6251,38.8638,大连市,傅家庄,,39,22,19,19,12,122,122,85,85,6,13,7,6,0.8,0.6
2022-06-17T09:00:00,1115A,121.2529,38.8061,大连市,旅顺,,40,26,19,22,14,128,128,102,102,14,16,7,5,0.6,0.6
2022-06-17T09:00:00,1116A,121.7485,39.1311,大连市,金州,,,51,36,28,15,133,,82,82,17,16,5,4,0.9,0.5
2022-06-17T09:00:00,1117A,121.7811,39.0496,大连市,开发区,,33,29,24,23,20,130,103,70,70,32,26,6,5,0.9,0.7
2022-06-17T09:00:00,1118A,121.9762,39.0631,大连市,双D港,,40,15,16,17,8,131,128,81,81,11,12,10,10,0.6,0.5
2022-06-17T09:00:00,1119A,125.3325,43.9166,长春市,食品厂,颗粒物(PM10),73,96,67,37,26,103,76,95,76,23,30,5,5,0.7,0.7
2022-06-17T09:00:00,1120A,125.2863,43.9027,长春市,客车厂,颗粒物(PM10),75,100,65,32,21,112,77,98,82,25,27,4,5,0.8,0.7
2022-06-17T09:00:00,1121A,125.2841,43.8463,长春市,邮电学院,颗粒物(PM10),58,66,88,24,21,123,80,88,78,19,24,5,5,0.7,0.7
2022-06-17T09:00:00,1122A,125.3716,43.8772,长春市,劳动公园,颗粒物(PM10),72,94,58,32,22,119,84,103,87,18,20,5,5,0.7,0.6
2022-06-17T09:00:00,1123A,125.3297,43.8805,长春市,园林处,颗粒物(PM10),69,88,55,28,21,108,70,89,77,26,27,5,5,0.7,0.6
2022-06-17T09:00:00,1124A,125.4605,43.79,长春市,净月潭,颗粒物(PM10),58,66,41,26,18,126,77,85,67,19,16,4,3,0.8,0.6
2022-06-17T09:00:00,1125A,125.7194,43.515,长春市,甩湾子(对照点),,49,49,36,18,15,131,86,84,67,21,30,6,6,0.5,0.4
2022-06-17T09:00:00,1126A,125.3863,43.8447,长春市,经开区环卫处,颗粒物(PM10),75,99,62,28,21,111,75,94,79,23,21,5,5,0.7,0.5
2022-06-17T09:00:00,1127A,125.245,43.7783,长春市,高新区管委会,,,,54,,26,112,82,88,76,16,22,,5,0.6,0.6
2022-06-17T09:00:00,1128A,125.1761,43.8325,长春市,岱山公园,颗粒物(PM10),70,89,51,27,22,100,74,93,74,16,22,6,5,0.6,0.4
2022-06-17T09:00:00,1129A,126.5422,45.755,哈尔滨市,岭北(对照点),,28,11,21,6,11,102,88,99,77,7,15,13,14,0.4,0.4
2022-06-17T09:00:00,1130A,126.561,45.8167,哈尔滨市,松北商大,,27,6,12,5,6,97,84,94,65,10,14,4,4,0.7,0.6
2022-06-17T09:00:00,1131A,126.979,45.5419,哈尔滨市,阿城会宁,,,,18,3,7,125,,98,85,12,12,10,11,0.6,0.7
2022-06-17T09:00:00,1132A,126.599,45.7222,哈尔滨市,南岗学府路,,29,16,14,4,8,108,92,100,79,8,18,9,10,0.6,0.6
2022-06-17T09:00:00,1133A,126.689,45.7733,哈尔滨市,太平宏伟公园,,27,4,23,5,9,94,86,94,69,14,28,11,11,0.5,0.6
2022-06-17T09:00:00,1134A,126.635,45.7667,哈尔滨市,道外承德广场,,28,11,22,8,9,104,87,104,71,15,30,9,9,0.4,0.6
2022-06-17T09:00:00,1135A,126.685,45.7319,哈尔滨市,香坊红旗大街,,28,12,26,8,11,96,88,90,65,12,36,8,8,0.5,0.5
2022-06-17T09:00:00,1136A,126.6411,45.7258,哈尔滨市,动力和平路,,29,20,24,4,6,101,90,87,72,12,26,7,6,0.5,0.5
2022-06-17T09:00:00,1137A,126.593,45.7478,哈尔滨市,道里建国路,颗粒物(PM10),79,107,34,13,10,95,78,95,69,14,28,13,16,0.8,0.9
2022-06-17T09:00:00,1138A,126.615,45.61,哈尔滨市,平房东轻厂,,27,7,18,5,8,118,84,95,71,8,13,5,5,0.6,0.6
2022-06-17T09:00:00,1139A,126.595,45.9855,哈尔滨市,呼兰师专,,23,6,20,7,8,93,72,81,70,7,14,10,9,0.4,0.5
2022-06-17T09:00:00,1140A,126.6206,45.6842,哈尔滨市,省农科院,,30,14,17,2,8,124,94,84,69,7,24,9,8,0.6,0.7
2022-06-17T09:00:00,1141A,121.4,31.238,上海市,普陀,颗粒物(PM10),54,58,49,37,31,224,104,56,56,30,25,6,5,0.8,0.7
2022-06-17T09:00:00,1142A,121.478,31.2036,上海市,十五厂,颗粒物(PM10),58,65,48,40,32,220,82,56,56,39,24,9,7,0.6,0.5
2022-06-17T09:00:00,1143A,121.467,31.3008,上海市,虹口,"颗粒物(PM10),细颗粒物(PM2.5)",53,56,47,37,29,231,105,55,55,33,28,5,5,0.5,0.4
2022-06-17T09:00:00,1144A,121.412,31.1654,上海市,徐汇上师大,细颗粒物(PM2.5),69,65,52,50,34,214,82,47,47,38,30,5,5,1.2,1
2022-06-17T09:00:00,1145A,121.536,31.2659,上海市,杨浦四漂,颗粒物(PM10),54,58,48,34,31,194,100,61,61,28,24,6,5,0.6,0.5
2022-06-17T09:00:00,1147A,121.425,31.2261,上海市,静安监测站,细颗粒物(PM2.5),57,62,52,40,32,223,89,51,51,26,19,5,5,0.6,0.6
2022-06-17T09:00:00,1148A,121.703,31.1907,上海市,浦东川沙,颗粒物(PM10),57,64,48,30,28,181,90,58,58,28,29,6,5,0.5,0.5
2022-06-17T09:00:00,1149A,121.533,31.2284,上海市,浦东新区监测站,颗粒物(PM10),54,58,54,36,31,201,94,67,67,30,22,7,7,0.8,0.6
2022-06-17T09:00:00,1150A,121.577,31.2071,上海市,浦东张江,细颗粒物(PM2.5),52,48,39,36,29,168,80,58,58,32,26,5,4,0.9,0.8
2022-06-17T09:00:00,1151A,118.8086,32.1065,南京市,迈皋桥,,26,22,41,7,16,219,83,83,74,14,19,8,9,0.3,0.5
2022-06-17T09:00:00,1152A,118.7538,32.0551,南京市,草场门,,28,9,39,7,15,217,89,90,70,14,19,8,11,0.3,0.6
2022-06-17T09:00:00,1153A,118.7794,32.0745,南京市,山西路,,26,24,45,12,24,209,82,82,70,11,12,4,4,0.3,0.5
2022-06-17T09:00:00,1154A,118.7752,32.0023,南京市,中华门,,34,34,40,7,12,226,77,82,70,14,10,5,4,0.8,0.4
2022-06-17T09:00:00,1155A,118.8109,32.0309,南京市,瑞金路,,35,35,41,14,20,223,70,78,68,23,17,14,8,0.8,0.6
2022-06-17T09:00:00,1156A,118.7997,32.0754,南京市,玄武湖,,27,22,35,4,20,221,85,83,75,7,6,3,4,0.9,1
2022-06-17T09:00:00,1157A,118.6414,32.0931,南京市,浦口,,27,27,45,10,18,226,85,68,68,13,17,8,8,0.3,0.5
2022-06-17T09:00:00,1158A,118.7356,31.9996,南京市,奥体中心,,27,27,44,12,19,209,78,74,66,20,20,14,9,0.7,0.6
2022-06-17T09:00:00,1159A,118.9125,32.1028,南京市,仙林大学城,,29,29,43,14,19,234,86,80,80,9,12,16,10,1.0,0.7
2022-06-17T09:00:00,1160A,120.561,31.2472,苏州市,上方山(对照点),颗粒物(PM10),69,88,74,49,47,267,93,79,40,42,26,9,7,0.9,0.9
2022-06-17T09:00:00,1162A,120.591,31.3019,苏州市,彩香,"颗粒物(PM10),细颗粒物(PM2.5)",59,68,62,42,43,280,102,81,43,41,30,10,8,0.8,0.6
2022-06-17T09:00:00,1163A,120.596,31.3264,苏州市,轧钢厂,颗粒物(PM10),61,72,72,34,36,260,97,80,39,35,26,8,8,0.8,0.7
2022-06-17T09:00:00,1164A,120.613,31.2703,苏州市,吴中区,"颗粒物(PM10),细颗粒物(PM2.5)",65,80,68,47,40,274,84,76,30,43,28,8,8,0.7,0.6
2022-06-17T09:00:00,1165A,120.543,31.2994,苏州市,苏州新区,细颗粒物(PM2.5),63,56,58,45,43,275,122,96,66,27,20,7,7,0.9,0.8
2022-06-17T09:00:00,1166A,120.669,31.3097,苏州市,苏州工业园区,颗粒物(PM10),52,53,63,35,36,237,87,81,38,37,25,8,7,0.9,0.8
2022-06-17T09:00:00,1167A,120.641,31.3708,苏州市,相城区,细颗粒物(PM2.5),75,68,62,55,49,254,74,78,32,42,29,10,8,0.8,0.7
2022-06-17T09:00:00,1168A,120.9098,31.9663,南通市,狼山街道,细颗粒物(PM2.5),67,63,60,48,35,303,112,128,54,41,32,21,13,1.0,0.6
2022-06-17T09:00:00,1169A,120.86,32.0005,南通市,虹桥,细颗粒物(PM2.5),77,55,62,56,42,300,72,119,60,67,37,15,11,0.8,0.6
2022-06-17T09:00:00,1170A,120.87,32.02,南通市,城中,细颗粒物(PM2.5),69,62,61,50,46,275,79,116,63,63,32,11,10,1.3,0.8
2022-06-17T09:00:00,1171A,120.94,31.93,南通市,星湖花园,细颗粒物(PM2.5),58,61,58,41,34,299,133,123,60,37,35,20,11,1.2,0.6
2022-06-17T09:00:00,1172A,120.81,32.0417,南通市,紫琅学院,,,,77,39,36,278,60,71,46,73,50,16,12,,0.8
2022-06-17T09:00:00,1173A,119.176,34.5885,连云港市,市环境监测站,,,39,64,7,39,241,,145,145,12,13,3,4,0.8,0.7
2022-06-17T09:00:00,1177A,117.179,34.2761,徐州市,黄河新村,颗粒物(PM10),68,85,69,38,25,263,101,125,110,32,18,9,8,0.6,0.6
2022-06-17T09:00:00,1178A,117.1918,34.2384,徐州市,淮塔,颗粒物(PM10),61,72,65,34,29,268,120,116,94,19,19,14,13,0.6,0.6
2022-06-17T09:00:00,1180A,117.256,34.2153,徐州市,新城区,"颗粒物(PM10),细颗粒物(PM2.5)",63,76,70,45,32,257,112,110,85,21,20,10,9,0.8,0.8
2022-06-17T09:00:00,1181A,117.244,34.2911,徐州市,桃园路,颗粒物(PM10),76,102,76,34,24,305,93,108,80,33,22,16,13,0.8,0.8
2022-06-17T09:00:00,1182A,117.2933,34.2778,徐州市,农科院,颗粒物(PM10),70,90,68,36,23,296,92,109,73,32,25,8,8,0.8,0.7
2022-06-17T09:00:00,1186A,119.389,32.3761,扬州市,邗江监测站,,48,48,56,17,27,224,88,108,60,18,19,13,13,0.8,0.8
2022-06-17T09:00:00,1188A,120.269,31.4867,无锡市,雪浪,,46,46,64,24,36,264,119,128,77,4,10,12,11,0.6,0.6
2022-06-17T09:00:00,1189A,120.275,31.6219,无锡市,黄巷,颗粒物(PM10),57,63,61,31,33,239,113,136,84,20,17,12,9,0.8,0.6
2022-06-17T09:00:00,1190A,120.294,31.56,无锡市,曹张,颗粒物(PM10),59,67,56,27,29,253,119,130,76,12,18,10,8,1.0,0.9
2022-06-17T09:00:00,1191A,120.242,31.5031,无锡市,漆塘,颗粒物(PM10),52,53,58,28,36,253,125,131,76,6,9,8,6,0.7,0.7
2022-06-17T09:00:00,1192A,120.3489,31.5863,无锡市,东亭,颗粒物(PM10),54,58,60,19,35,253,115,139,82,11,13,12,9,0.8,0.8
2022-06-17T09:00:00,1193A,120.354,31.5475,无锡市,旺庄,颗粒物(PM10),59,68,58,39,35,270,125,139,76,14,17,12,10,0.7,0.6
2022-06-17T09:00:00,1194A,120.245,31.5631,无锡市,荣巷,颗粒物(PM10),62,73,61,43,39,255,120,134,81,11,10,15,12,0.4,0.4
2022-06-17T09:00:00,1195A,120.299,31.6817,无锡市,堰桥,颗粒物(PM10),58,66,59,39,31,232,124,134,84,26,18,18,8,2.2,1
2022-06-17T09:00:00,1196A,119.9633,31.762,常州市,市监测站,,35,35,55,17,28,235,106,120,77,23,22,11,9,0.6,0.6
2022-06-17T09:00:00,1200A,119.9468,31.7069,常州市,武进监测站,,40,40,57,27,36,257,119,130,86,9,10,10,8,0.8,0.7
2022-06-17T09:00:00,1201A,119.9255,31.9087,常州市,安家,,42,39,53,29,36,226,121,144,80,17,22,10,8,0.9,0.8
2022-06-17T09:00:00,1203A,119.6707,32.1875,镇江市,新区办事处,,38,38,51,17,28,208,100,169,92,24,19,15,11,0.9,0.7
2022-06-17T09:00:00,1204A,119.4974,32.1968,镇江市,职教中心,,30,28,47,13,28,189,95,107,75,16,18,7,6,0.8,0.7
2022-06-17T09:00:00,1205A,119.4303,32.1328,镇江市,丹徒区监测站,,30,27,44,0,26,195,94,93,72,12,15,6,6,0.3,0.4
2022-06-17T09:00:00,1206A,119.905,32.4878,泰州市,公园路,颗粒物(PM10),53,56,54,31,29,166,90,121,78,27,27,9,6,0.9,0.8
2022-06-17T09:00:00,1207A,119.9189,32.4625,泰州市,莲花,细颗粒物(PM2.5),55,56,56,39,34,185,99,147,86,20,23,11,8,0.9,0.8
2022-06-17T09:00:00,1209A,119.888,32.4639,泰州市,留学生创业园,,39,39,53,21,29,196,106,151,91,22,22,14,10,0.9,0.9
2022-06-17T09:00:00,1210A,119.036,33.5981,淮安市,钵池山,颗粒物(PM10),58,66,50,35,28,202,123,143,112,17,15,12,10,0.7,0.7
2022-06-17T09:00:00,1211A,119.007,33.575,淮安市,北京南路,颗粒物(PM10),57,63,51,32,25,189,123,130,102,16,20,12,10,0.6,0.8
2022-06-17T09:00:00,1212A,118.989,33.6067,淮安市,市监测站,颗粒物(PM10),57,63,60,38,22,194,119,140,110,18,18,13,10,0.6,0.6
2022-06-17T09:00:00,1213A,119.135,33.5039,淮安市,楚州区监测站,颗粒物(PM10),53,56,53,29,24,178,115,123,96,19,16,14,12,0.9,0.8
2022-06-17T09:00:00,1214A,119.0186,33.6297,淮安市,淮阴区监测站,细颗粒物(PM2.5),62,71,52,44,31,195,122,141,108,14,15,15,12,0.9,0.9
2022-06-17T09:00:00,1215A,120.118,33.4022,盐城市,盐城电厂,颗粒物(PM10),57,63,62,29,30,216,150,131,127,16,16,11,10,0.6,0.6
2022-06-17T09:00:00,1216A,120.156,33.3942,盐城市,市监测站,颗粒物(PM10),52,54,52,29,24,213,145,136,128,13,15,10,10,0.1,0.3
2022-06-17T09:00:00,1218A,120.2144,33.38,盐城市,开发区管委会,颗粒物(PM10),61,72,59,32,31,202,143,133,117,17,18,13,7,0.7,0.7
2022-06-17T09:00:00,1220A,118.293,33.9528,宿迁市,宿迁学院,颗粒物(PM10),59,68,49,24,28,258,102,115,80,20,17,10,8,0.6,0.5
2022-06-17T09:00:00,1221A,118.2442,33.9592,宿迁市,宿迁中学,颗粒物(PM10),69,88,52,33,28,255,94,104,78,25,17,7,6,0.7,0.5
2022-06-17T09:00:00,1223A,120.2072,30.2111,杭州市,滨江,,,77,70,44,39,200,,84,53,38,33,4,3,1.0,0.8
2022-06-17T09:00:00,1224A,120.0633,30.2747,杭州市,西溪,颗粒物(PM10),60,70,61,31,32,150,45,19,19,40,24,8,7,0.7,0.7
2022-06-17T09:00:00,1226A,120.3461,30.3153,杭州市,下沙,颗粒物(PM10),68,86,71,42,34,210,112,83,83,31,40,8,6,0.8,0.7
2022-06-17T09:00:00,1227A,120.1269,30.2456,杭州市,卧龙桥,细颗粒物(PM2.5),57,51,52,40,37,166,71,25,25,20,19,7,6,0.8,0.8
2022-06-17T09:00:00,1228A,120.1903,30.2692,杭州市,浙江农大,细颗粒物(PM2.5),59,58,60,42,38,196,96,63,60,25,26,7,6,0.8,0.7
2022-06-17T09:00:00,1230A,120.1197,30.3119,杭州市,和睦小学,颗粒物(PM10),61,71,67,38,40,190,71,41,38,35,32,5,4,0.9,0.9
2022-06-17T09:00:00,1231A,120.3019,30.4183,杭州市,临平镇,颗粒物(PM10),69,88,88,39,37,204,76,50,50,42,44,4,4,0.9,0.8
2022-06-17T09:00:00,1232A,120.2697,30.1819,杭州市,城厢镇,细颗粒物(PM2.5),64,74,67,46,43,196,90,63,56,30,29,6,5,0.8,0.7
2022-06-17T09:00:00,1233A,120.0883,30.1808,杭州市,云栖,颗粒物(PM10),61,72,66,35,32,201,72,28,28,35,23,9,8,0.8,0.7
2022-06-17T09:00:00,1234A,121.8358,29.911,宁波市,区环保大楼,,40,40,45,19,20,86,50,61,38,28,34,4,5,0.7,0.6
2022-06-17T09:00:00,1235A,121.56,29.82,宁波市,万里学院,,33,33,33,21,22,156,75,86,71,22,16,9,8,0.8,0.6
2022-06-17T09:00:00,1236A,121.713,29.9572,宁波市,龙赛医院,,31,31,42,19,22,128,80,57,57,20,29,5,6,0.7,0.7
2022-06-17T09:00:00,1239A,121.633,29.7733,宁波市,钱湖水厂,,32,22,26,22,22,101,69,81,62,7,7,7,7,0.7,0.7
2022-06-17T09:00:00,1240A,121.5856,29.8635,宁波市,太古小学,,26,26,33,17,23,132,70,69,63,22,16,8,7,0.7,0.6
2022-06-17T09:00:00,1241A,121.524,29.8674,宁波市,市环境监测中心,,37,37,42,20,21,166,54,81,64,33,21,18,11,0.5,0.5
2022-06-17T09:00:00,1242A,120.634,28.0089,温州市,瓯海,颗粒物(PM10),55,60,49,37,32,207,67,68,38,32,24,6,5,0.7,0.6
2022-06-17T09:00:00,1243A,120.6748,27.9939,温州市,南浦,颗粒物(PM10),57,64,54,35,31,185,73,63,42,21,17,7,6,0.8,0.7
2022-06-17T09:00:00,1244A,120.76,27.9747,温州市,龙湾,颗粒物(PM10),62,74,58,32,24,146,51,30,26,33,26,5,4,0.7,0.5
2022-06-17T09:00:00,1245A,120.6709,28.0167,温州市,市站,颗粒物(PM10),61,72,58,40,32,194,58,45,27,30,26,6,5,0.8,0.6
2022-06-17T09:00:00,1247A,120.6053,29.9928,绍兴市,城东开发委,,48,48,45,24,29,153,96,59,54,16,15,8,6,0.7,0.6
2022-06-17T09:00:00,1250A,120.0751,30.8669,湖州市,城西水厂,颗粒物(PM10),55,59,58,23,27,234,66,46,28,39,36,7,6,0.5,0.5
2022-06-17T09:00:00,1252A,120.7436,30.778,嘉兴市,清河小学,颗粒物(PM10),62,73,65,43,37,240,96,44,44,45,32,10,9,0.8,0.7
2022-06-17T09:00:00,1253A,120.726,30.7478,嘉兴市,嘉兴学院,细颗粒物(PM2.5),74,79,67,54,43,247,86,44,44,50,31,6,6,0.7,0.6
2022-06-17T09:00:00,1255A,121.273,28.6459,台州市,黄岩环保大楼,颗粒物(PM10),52,53,53,26,25,158,81,64,50,16,17,5,5,0.6,0.6
2022-06-17T09:00:00,1256A,121.419,28.6542,台州市,台州环保大楼,,43,43,54,27,27,149,91,64,64,14,14,4,4,0.6,0.6
2022-06-17T09:00:00,1257A,121.377,28.5773,台州市,路桥田洋王,,33,31,41,23,30,133,75,60,58,12,16,5,7,0.5,0.6
2022-06-17T09:00:00,1258A,122.122,30.0203,舟山市,定海檀枫,,33,33,41,17,15,97,67,73,62,15,18,2,2,0.5,0.5
2022-06-17T09:00:00,1259A,122.3094,29.9558,舟山市,普陀东港,,18,17,15,10,9,103,57,80,65,8,5,3,2,0.5,0.4
2022-06-17T09:00:00,1260A,122.19,29.9944,舟山市,临城新区,,22,16,16,12,10,103,68,78,70,10,11,2,2,0.5,0.4
2022-06-17T09:00:00,1262A,119.647,29.077,金华市,十五中,细颗粒物(PM2.5),65,69,70,47,48,198,49,33,31,37,33,13,8,0.8,0.7
2022-06-17T09:00:00,1263A,119.686,29.1029,金华市,监测站,颗粒物(PM10),62,74,62,16,29,210,61,32,30,22,25,15,7,1.0,0.7
2022-06-17T09:00:00,1264A,118.8692,28.9398,衢州市,环保大楼,颗粒物(PM10),53,56,61,26,28,158,43,25,22,14,20,27,15,0.6,0.7
2022-06-17T09:00:00,1265A,118.8709,28.9666,衢州市,实验学校,颗粒物(PM10),58,65,57,26,25,155,33,24,21,27,28,24,11,0.7,0.6
2022-06-17T09:00:00,1266A,118.8621,28.9808,衢州市,衢州学院,,,72,58,31,25,151,,17,17,25,29,26,14,0.8,0.7
2022-06-17T09:00:00,1267A,119.914,28.4514,丽水市,监测站大楼,,,50,53,26,25,118,,28,25,17,20,5,5,0.6,0.5
2022-06-17T09:00:00,1268A,119.93,28.4586,丽水市,莲都小学,颗粒物(PM10),63,75,55,25,25,134,61,33,33,14,19,6,6,0.5,0.5
2022-06-17T09:00:00,1269A,119.879,28.4231,丽水市,余庄前,颗粒物(PM10),52,53,46,27,24,128,43,12,12,17,12,5,5,0.6,0.5
2022-06-17T09:00:00,1270A,117.1959,31.7848,合肥市,明珠广场,,46,46,46,17,19,179,92,93,72,27,20,7,6,0.5,0.4
2022-06-17T09:00:00,1271A,117.3072,31.8764,合肥市,三里街,,39,39,44,12,16,168,75,93,63,26,19,13,12,0.6,0.5
2022-06-17T09:00:00,1272A,117.2588,31.8707,合肥市,琥珀山庄,,41,41,41,9,15,189,94,101,85,27,16,11,11,0.7,0.5
2022-06-17T09:00:00,1273A,117.1604,31.9052,合肥市,董铺水库(对照点),,41,41,46,22,24,185,96,93,83,16,14,11,11,0.7,0.6
2022-06-17T09:00:00,1274A,117.25,31.8571,合肥市,长江中路,,48,48,42,17,21,201,99,102,83,28,22,9,8,0.6,0.5
2022-06-17T09:00:00,1275A,117.266,31.9436,合肥市,庐阳区,颗粒物(PM10),56,61,46,14,18,197,109,108,82,18,17,12,11,0.5,0.5
2022-06-17T09:00:00,1276A,117.336,31.8586,合肥市,瑶海区,,48,48,53,19,18,176,84,91,60,25,22,9,8,0.7,0.6
2022-06-17T09:00:00,1277A,117.3027,31.7964,合肥市,包河区,,41,41,48,19,19,169,86,70,64,23,20,7,6,0.6,0.5
2022-06-17T09:00:00,1278A,117.2776,31.7385,合肥市,滨湖新区,,34,34,42,17,17,164,105,99,84,11,10,12,11,0.6,0.5
2022-06-17T09:00:00,1279A,117.1318,31.8403,合肥市,高新区,,41,41,45,19,19,183,98,101,85,23,15,10,9,0.7,0.6
2022-06-17T09:00:00,1282A,119.2681,26.0504,福州市,师大,,17,17,17,9,10,60,14,8,8,16,21,3,2,0.4,0.3
2022-06-17T09:00:00,1283A,119.2984,26.1028,福州市,五四北路,,20,20,17,11,9,62,16,11,8,19,23,2,2,0.4,0.4
2022-06-17T09:00:00,1284A,119.2648,26.0768,福州市,杨桥西路,,23,23,16,8,11,58,14,15,7,18,24,2,2,0.4,0.4
2022-06-17T09:00:00,1285A,119.317,26.0746,福州市,紫阳,,16,16,18,9,8,53,14,9,8,20,25,3,4,0.5,0.4
2022-06-17T09:00:00,1286A,118.1608,24.8169,厦门市,溪东(对照点),细颗粒物(PM2.5),54,22,14,38,23,50,21,18,16,8,9,2,2,0.5,0.5
2022-06-17T09:00:00,1287A,118.1514,24.4767,厦门市,洪文,,28,28,19,13,9,53,5,28,11,30,26,4,4,0.8,0.7
2022-06-17T09:00:00,1288A,118.0661,24.4444,厦门市,鼓浪屿,,38,26,16,26,14,40,8,14,5,56,40,5,5,0.3,0.3
2022-06-17T09:00:00,1290A,115.8931,28.6843,南昌市,省外办,,,35,34,20,16,132,40,52,28,,18,11,20,,0.7
2022-06-17T09:00:00,1291A,115.8886,28.7003,南昌市,省林业公司,,29,29,32,14,13,140,43,54,27,17,15,25,26,0.7,0.7
2022-06-17T09:00:00,1292A,115.8126,28.7442,南昌市,林科所,,27,27,29,14,14,137,58,35,35,7,14,13,11,0.6,0.6
2022-06-17T09:00:00,1294A,115.8518,28.687,南昌市,建工学校,,35,35,46,22,22,137,46,48,20,12,23,15,22,0.9,0.8
2022-06-17T09:00:00,1295A,115.8921,28.6424,南昌市,象湖,颗粒物(PM10),54,57,38,17,11,132,33,44,28,19,15,34,16,0.8,0.7
2022-06-17T09:00:00,1296A,115.7423,28.7996,南昌市,武术学校(对照点),,30,30,23,13,13,140,68,22,18,4,4,9,8,0.6,0.5
2022-06-17T09:00:00,1298A,115.9314,28.6842,南昌市,省站,颗粒物(PM10),51,51,36,26,16,140,37,50,32,34,19,36,20,0.6,0.7
2022-06-17T09:00:00,1299A,116.9862,36.6114,济南市,科干所,,45,44,50,29,28,243,143,176,127,13,17,11,11,0.7,0.7
2022-06-17T09:00:00,1300A,116.9376,36.665,济南市,农科所,颗粒物(PM10),55,59,58,24,27,214,124,152,97,15,24,10,9,0.5,0.5
2022-06-17T09:00:00,1301A,117.1265,36.6734,济南市,开发区,,47,44,51,28,26,244,150,181,130,10,16,12,12,0.5,0.6
2022-06-17T09:00:00,1303A,117.0624,36.6868,济南市,省种子仓库,"颗粒物(PM10),细颗粒物(PM2.5)",53,56,59,37,32,234,138,170,116,13,22,13,12,0.6,0.7
2022-06-17T09:00:00,1304A,116.9489,36.6447,济南市,机床二厂,颗粒物(PM10),53,56,62,22,27,229,131,159,110,12,18,9,8,0.6,0.6
2022-06-17T09:00:00,1305A,117.0495,36.663,济南市,市监测站,颗粒物(PM10),53,56,53,27,25,220,129,175,118,12,16,11,10,0.7,0.7
2022-06-17T09:00:00,1307A,120.6659,36.2403,青岛市,仰口(对照点),,40,14,24,12,22,150,125,141,123,4,5,4,5,0.3,0.4
2022-06-17T09:00:00,1310A,120.4134,36.0658,青岛市,市南区东部子站,,27,12,29,2,17,168,85,167,127,39,8,6,6,0.3,0.3
2022-06-17T09:00:00,1311A,120.3664,36.1032,青岛市,四方区子站,,34,14,34,14,26,194,65,194,112,67,21,5,4,0.8,0.7
2022-06-17T09:00:00,1312A,120.2994,36.054,青岛市,市南区西部子站,,40,39,31,7,13,200,128,200,132,33,17,7,6,0.5,0.5
2022-06-17T09:00:00,1313A,120.4581,36.0858,青岛市,崂山区子站,,31,2,24,2,15,178,98,175,132,34,12,7,7,0.4,0.5
2022-06-17T09:00:00,1314A,120.1983,35.9608,青岛市,黄岛区子站,,37,7,27,15,19,165,117,148,137,38,20,4,4,0.4,0.3
2022-06-17T09:00:00,1315A,120.3999,36.3083,青岛市,城阳区子站,,25,22,43,7,20,159,79,114,101,46,20,5,5,0.5,0.5
2022-06-17T09:00:00,1316A,113.69031,34.76122,郑州市,烟厂,,,86,70,,21,294,119,140,115,37,19,10,9,0.7,0.6
2022-06-17T09:00:00,1317A,113.65724,34.77134,郑州市,郑纺机,,,83,74,,29,275,112,126,104,36,23,13,11,0.7,0.6
2022-06-17T09:00:00,1318A,113.67526,34.80246,郑州市,银行学校,颗粒物(PM10),63,76,66,29,32,311,111,148,121,33,17,12,10,0.7,0.6
2022-06-17T09:00:00,1319A,113.56746,34.81334,郑州市,供水公司,颗粒物(PM10),70,89,81,33,31,291,113,138,101,36,26,7,8,0.6,0.6
2022-06-17T09:00:00,1320A,113.7329,34.7178,郑州市,经开区管委,颗粒物(PM10),63,75,66,25,26,268,125,138,116,26,23,8,6,0.6,0.5
2022-06-17T09:00:00,1321A,113.73961,34.77172,郑州市,四十七中,颗粒物(PM10),65,80,72,22,25,302,130,149,124,34,22,12,9,0.7,0.7
2022-06-17T09:00:00,1322A,113.60532,34.74838,郑州市,市监测站,颗粒物(PM10),63,75,75,24,24,278,122,128,104,32,25,10,8,0.6,0.5
2022-06-17T09:00:00,1323A,113.64164,34.7525,郑州市,河医大,,,76,74,,23,251,113,133,110,38,19,9,8,0.7,0.5
2022-06-17T09:00:00,1324A,113.51488,34.91089,郑州市,岗李水库(对照点),,,102,75,,31,270,109,126,73,22,24,5,7,0.4,0.3
2022-06-17T09:00:00,1325A,114.3677,30.5584,武汉市,东湖梨园,,32,29,38,12,18,179,101,115,90,14,13,10,10,0.7,0.7
2022-06-17T09:00:00,1326A,114.2529,30.558,武汉市,汉阳月湖,,28,26,36,12,14,191,88,111,89,20,15,13,10,0.8,0.7
2022-06-17T09:00:00,1327A,114.282,30.6189,武汉市,汉口花桥,,37,37,46,22,19,186,86,106,88,22,15,12,10,0.7,0.7
2022-06-17T09:00:00,1328A,114.3025,30.5332,武汉市,武昌紫阳,,30,30,37,13,18,182,92,111,81,16,15,10,8,0.8,0.9
2022-06-17T09:00:00,1329A,114.3646,30.6217,武汉市,青山钢花,,31,27,40,19,24,190,98,113,89,17,16,12,11,0.7,0.7
2022-06-17T09:00:00,1330A,114.1566,30.4825,武汉市,沌口新区,,28,28,36,17,23,169,89,106,74,23,24,13,10,0.8,0.7
2022-06-17T09:00:00,1331A,114.3014,30.5944,武汉市,汉口江滩,,30,30,41,16,19,173,86,85,56,27,39,10,8,0.7,0.7
2022-06-17T09:00:00,1333A,114.135,30.6319,武汉市,吴家山,,33,33,40,17,18,174,95,95,82,14,13,11,9,0.8,0.8
2022-06-17T09:00:00,1334A,113.8454,30.2917,武汉市,沉湖七壕(对照点),颗粒物(PM10),75,99,59,19,21,151,73,100,72,22,12,8,8,0.6,0.7
2022-06-17T09:00:00,1335A,113.0833,28.2325,长沙市,经开区环保局,,28,18,20,19,21,114,61,34,34,8,15,5,8,0.5,0.7
2022-06-17T09:00:00,1336A,112.8872,28.2189,长沙市,高开区环保局,,29,12,22,20,19,113,41,40,33,12,13,8,9,1.0,0.8
2022-06-17T09:00:00,1337A,113.0792,28.2053,长沙市,马坡岭,,21,20,26,9,13,115,66,35,35,6,12,5,7,0.5,0.7
2022-06-17T09:00:00,1338A,112.9394,28.19,长沙市,湖南师范大学,,16,16,30,9,14,108,42,36,36,15,17,7,10,0.8,0.9
2022-06-17T09:00:00,1339A,113.0178,28.1322,长沙市,雨花区环保局,,22,8,21,15,17,97,54,33,30,5,14,6,8,0.6,0.7
2022-06-17T09:00:00,1340A,112.9792,28.2597,长沙市,伍家岭,,23,18,26,16,19,111,44,38,29,15,21,2,5,0.7,0.8
2022-06-17T09:00:00,1341A,113.0014,28.1944,长沙市,火车新站,,18,18,33,10,20,105,54,34,31,7,18,6,9,0.4,0.5
2022-06-17T09:00:00,1342A,112.9844,28.1178,长沙市,天心区环保局,,17,17,30,10,18,94,52,30,30,5,15,5,7,0.5,0.6
2022-06-17T09:00:00,1343A,112.8908,28.1308,长沙市,湖南中医药大学,,28,20,30,19,20,103,46,23,23,10,22,8,7,1.0,0.8
2022-06-17T09:00:00,1344A,112.9581,28.3611,长沙市,沙坪(对照点),,27,27,35,15,23,121,46,17,17,11,17,2,3,0.5,0.6
2022-06-17T09:00:00,1345A,113.2347,23.1423,广州市,广雅中学,,22,22,22,10,12,134,35,18,18,18,26,4,4,0.6,0.6
2022-06-17T09:00:00,1346A,113.2612,23.105,广州市,市五中,,22,22,19,11,11,109,31,15,15,16,22,5,5,0.6,0.7
2022-06-17T09:00:00,1348A,113.3478,23.0916,广州市,广东商学院,,17,17,21,9,12,95,32,12,12,14,26,4,4,0.6,0.6
2022-06-17T09:00:00,1349A,113.4332,23.1047,广州市,市八十六中,,26,26,20,11,10,70,30,5,5,17,33,7,7,0.4,0.4
2022-06-17T09:00:00,1350A,113.3505,22.9483,广州市,番禺中学,,19,19,19,9,10,106,35,9,9,13,18,5,5,0.5,0.5
2022-06-17T09:00:00,1351A,113.2146,23.3916,广州市,花都师范,,19,19,23,10,13,163,30,9,9,20,34,5,5,0.5,0.6
2022-06-17T09:00:00,1352A,113.2597,23.1331,广州市,市监测站,,25,25,24,10,10,129,32,16,16,18,25,6,6,0.7,0.7
2022-06-17T09:00:00,1353A,113.5618,23.312,广州市,九龙镇镇龙,,13,13,20,6,11,71,21,6,6,24,33,6,6,0.5,0.6
2022-06-17T09:00:00,1354A,113.2765,23.1544,广州市,麓湖,,20,20,22,9,12,134,34,14,14,14,22,3,3,0.7,0.7
2022-06-17T09:00:00,1355A,113.443,23.3035,广州市,帽峰山森林公园(对照点),,14,14,16,7,8,89,35,19,19,10,23,4,4,0.6,0.7
2022-06-17T09:00:00,1356A,114.1063,22.5545,深圳市,通心岭子站,,12,12,14,4,5,41,24,23,23,9,11,3,2,0.5,0.5
2022-06-17T09:00:00,1357A,114.117,22.5625,深圳市,洪湖,,14,14,15,7,7,45,32,27,27,9,14,6,6,0.5,0.5
2022-06-17T09:00:00,1358A,113.987,22.5417,深圳市,华侨城,,17,17,16,6,3,46,24,24,24,10,12,5,4,0.5,0.5
2022-06-17T09:00:00,1359A,113.9181,22.5171,深圳市,南海子站,,17,17,21,0,5,56,26,15,15,12,22,3,3,0.6,0.6
2022-06-17T09:00:00,1360A,114.2458,22.5689,深圳市,盐田,,16,16,17,6,6,45,19,4,4,13,19,2,3,0.6,0.5
2022-06-17T09:00:00,1361A,114.2283,22.7244,深圳市,龙岗,,14,14,14,4,5,58,41,36,34,16,20,8,7,0.5,0.5
2022-06-17T09:00:00,1363A,114.494,22.5422,深圳市,南澳,,,12,14,4,4,57,,34,31,5,7,6,6,0.7,0.7
2022-06-17T09:00:00,1364A,114.41,22.6342,深圳市,葵涌,,9,9,10,3,3,47,25,24,21,6,10,6,6,0.4,0.5
2022-06-17T09:00:00,1365A,114.297,22.5978,深圳市,梅沙,,16,16,17,5,5,45,14,12,12,14,15,5,5,0.6,0.5
2022-06-17T09:00:00,1366A,114.0678,22.738,深圳市,观澜,,17,17,21,3,5,33,19,18,18,16,20,4,4,0.6,0.5
2022-06-17T09:00:00,1367A,113.5814,22.2618,珠海市,吉大,,14,14,12,8,12,49,31,36,36,5,4,7,8,0.4,0.4
2022-06-17T09:00:00,1368A,113.4881,22.2335,珠海市,前山,,11,9,10,4,4,47,33,37,36,5,9,9,9,0.3,0.3
2022-06-17T09:00:00,1369A,113.628,22.4251,珠海市,唐家,,12,7,12,6,8,60,37,34,33,4,6,8,8,0.4,0.4
2022-06-17T09:00:00,1370A,113.299,22.2281,珠海市,斗门,,18,18,14,8,6,51,22,33,32,14,6,11,8,0.6,0.4
2022-06-17T09:00:00,1371A,113.1294,23.0067,佛山市,湾梁,,17,17,20,8,8,96,31,13,13,13,17,6,5,0.3,0.3
2022-06-17T09:00:00,1372A,113.1083,23.0478,佛山市,华材职中,,,,17,,8,98,32,18,16,14,17,5,5,0.6,0.6
2022-06-17T09:00:00,1373A,113.144,23.0453,佛山市,南海气象局,,15,14,22,10,11,110,36,16,16,14,21,5,5,0.7,0.7
2022-06-17T09:00:00,1374A,113.2881,22.8094,佛山市,顺德苏岗,,10,5,7,5,8,89,29,23,23,16,16,5,6,0.5,0.4
2022-06-17T09:00:00,1376A,112.8383,22.8678,佛山市,高明孔堂,,18,18,16,5,6,64,38,32,32,4,5,5,5,0.5,0.5
2022-06-17T09:00:00,1377A,112.8836,23.1588,佛山市,三水监测站,,36,36,27,11,15,102,29,10,10,18,25,14,6,0.5,0.6
2022-06-17T09:00:00,1378A,112.867,23.185,佛山市,三水云东海,,24,24,27,11,11,98,28,9,9,19,25,6,6,0.5,0.5
2022-06-17T09:00:00,1379A,113.3769,22.5211,中山市,华柏园,,19,19,19,8,8,54,32,33,33,8,8,3,3,0.6,0.5
2022-06-17T09:00:00,1380A,113.3881,22.5497,中山市,张溪,,26,26,20,8,11,70,40,39,39,5,6,3,3,0.4,0.4
2022-06-17T09:00:00,1381A,113.4075,22.5111,中山市,紫马岭,,18,18,15,5,6,66,38,38,38,6,7,4,4,0.9,0.9
2022-06-17T09:00:00,1382A,113.4411,22.4853,中山市,长江旅游区(对照点),,13,13,16,6,7,64,40,39,39,4,5,3,3,0.6,0.6
2022-06-17T09:00:00,1383A,113.1064,22.6058,江门市,北街,,19,19,19,5,6,69,29,20,20,8,11,4,4,0.5,0.5
2022-06-17T09:00:00,1384A,113.0731,22.5835,江门市,西区,,29,29,20,9,10,72,30,16,16,16,20,5,5,0.6,0.6
2022-06-17T09:00:00,1385A,113.0219,22.5311,江门市,圭峰西,,22,22,23,8,8,62,27,15,15,17,15,3,4,0.7,0.5
2022-06-17T09:00:00,1386A,113.0828,22.5947,江门市,东湖,,,30,18,13,15,78,,19,18,15,15,6,6,0.7,0.6
2022-06-17T09:00:00,1389A,113.7547,23.0494,东莞市,莞城梨川,,12,12,11,4,6,133,36,28,28,12,19,6,6,0.6,0.6
2022-06-17T09:00:00,1390A,113.7944,23.0128,东莞市,东城石井,,13,11,13,4,5,110,41,26,26,9,18,2,2,0.4,0.4
2022-06-17T09:00:00,1391A,113.7383,22.9658,东莞市,南城西平,,13,12,11,8,7,98,40,31,31,12,16,2,2,0.5,0.5
2022-06-17T09:00:00,1392A,114.4183,23.0528,惠州市,河南岸金山湖子站,,17,17,21,9,12,65,10,5,5,16,21,1,2,0.6,0.6
2022-06-17T09:00:00,1393A,114.4053,23.0822,惠州市,下埔横江三路子站,,14,14,21,8,10,89,18,6,6,19,25,2,2,0.4,0.5
2022-06-17T09:00:00,1394A,114.4103,23.1142,惠州市,江北云山西路子站,,8,2,21,5,10,89,16,4,4,15,23,7,7,0.6,0.7
2022-06-17T09:00:00,1395A,114.4645,22.7833,惠州市,惠阳区承修路船湖子站,,,7,24,,10,45,31,22,22,16,22,2,2,0.7,0.7
2022-06-17T09:00:00,1396A,114.5317,22.7422,惠州市,大亚湾管委会子站,,27,27,18,6,7,46,30,25,21,8,18,5,4,0.4,0.3
2022-06-17T09:00:00,1397A,112.4267,23.0706,肇庆市,睦岗子站,,27,27,22,16,13,108,27,13,13,15,25,10,10,0.7,0.7
2022-06-17T09:00:00,1398A,112.4645,23.0475,肇庆市,城中子站,,23,23,21,12,12,114,32,26,22,11,18,10,11,0.7,0.7
2022-06-17T09:00:00,1399A,112.5544,23.1522,肇庆市,坑口子站,,22,22,21,14,14,105,30,19,19,8,15,10,10,0.6,0.6
2022-06-17T09:00:00,1400A,112.4753,23.1,肇庆市,七星岩子站(对照点),,25,25,20,11,9,110,28,25,23,13,12,12,14,0.8,0.7
2022-06-17T09:00:00,1401A,108.3103,22.7881,南宁市,二十一中,,25,25,24,14,14,90,36,36,36,16,16,7,4,0.6,0.6
2022-06-17T09:00:00,1402A,108.3141,22.8528,南宁市,北湖,,28,28,29,11,13,97,33,12,12,16,20,5,4,0.7,0.7
2022-06-17T09:00:00,1403A,108.3206,22.8225,南宁市,市监测站,,30,30,28,12,11,94,31,37,37,22,21,10,8,0.6,0.6
2022-06-17T09:00:00,1404A,108.3829,22.8037,南宁市,大自然花园,,16,14,20,11,12,102,44,46,45,9,12,6,6,0.6,0.6
2022-06-17T09:00:00,1405A,108.4394,22.7904,南宁市,仙葫(对照点),,22,22,21,11,11,89,42,42,39,12,15,3,3,0.5,0.4
2022-06-17T09:00:00,1406A,108.2397,22.8467,南宁市,区农职院,,24,24,25,9,11,95,29,9,9,28,27,6,6,0.6,0.6
2022-06-17T09:00:00,1407A,108.3275,22.735,南宁市,英华嘉园,,41,41,27,18,11,68,22,24,24,29,22,5,5,0.7,0.6
2022-06-17T09:00:00,1408A,108.2257,22.7757,南宁市,沙井镇街道办,,34,34,32,8,14,88,25,16,15,23,29,5,5,0.7,0.7
2022-06-17T09:00:00,1409A,110.576,19.9507,海口市,东寨港(对照点),,15,15,19,9,9,31,14,10,10,2,3,10,8,0.2,0.2
2022-06-17T09:00:00,1410A,110.3232,20.0574,海口市,海南大学,,15,12,21,5,10,105,47,34,34,2,3,6,5,0.3,0.3
2022-06-17T09:00:00,1411A,110.283,20.0053,海口市,秀英海南医院,,18,18,19,9,9,35,28,20,20,6,23,2,2,0.3,0.3
2022-06-17T09:00:00,1412A,110.338,19.9969,海口市,海南师范大学,,19,19,20,5,7,58,32,19,19,7,9,3,3,0.5,0.5
2022-06-17T09:00:00,1413A,110.33,20.0356,海口市,龙华路环保局宿舍,,28,28,21,6,7,81,38,29,29,7,8,4,4,0.4,0.4
2022-06-17T09:00:00,1414A,106.3787,29.8279,重庆市,缙云山(对照点),,18,17,22,12,11,174,34,78,52,31,21,10,9,0.3,0.3
2022-06-17T09:00:00,1416A,106.4213,29.8253,重庆市,天生,,,,44,,15,180,,24,20,,34,,5,,0.7
2022-06-17T09:00:00,1417A,106.6263,29.7228,重庆市,两路,,25,24,26,4,12,148,38,34,29,49,58,6,6,0.4,0.5
2022-06-17T09:00:00,1418A,106.2953,29.5983,重庆市,虎溪,,50,48,40,35,26,167,10,10,10,50,38,11,8,0.9,0.7
2022-06-17T09:00:00,1419A,106.5777,29.5102,重庆市,南坪,,21,21,28,9,11,166,53,86,73,20,7,9,9,0.6,0.5
2022-06-17T09:00:00,1420A,106.6556,29.6277,重庆市,唐家沱,,35,35,32,6,10,169,11,7,7,44,42,7,7,0.6,0.5
2022-06-17T09:00:00,1421A,106.6349,29.4906,重庆市,茶园,颗粒物(PM10),53,55,26,17,16,138,9,41,23,56,25,8,7,0.7,0.3
2022-06-17T09:00:00,1422A,106.3754,29.4572,重庆市,白市驿,,36,29,28,25,15,152,26,76,53,22,18,16,10,0.7,0.6
2022-06-17T09:00:00,1425A,106.6205,29.7166,重庆市,空港,,16,10,23,11,16,157,49,39,39,29,39,7,7,0.4,0.5
2022-06-17T09:00:00,1426A,106.4782,29.4875,重庆市,新山村,,35,35,23,13,10,146,11,16,15,61,44,14,7,0.5,0.3
2022-06-17T09:00:00,1427A,106.5616,29.6453,重庆市,礼嘉,,40,35,25,7,10,152,10,46,11,80,55,11,11,0.8,0.6
2022-06-17T09:00:00,1428A,106.4522,29.7091,重庆市,蔡家,,29,27,31,20,24,175,8,22,9,43,35,6,6,0.6,0.4
2022-06-17T09:00:00,1429A,106.5093,29.3917,重庆市,鱼新街,,34,34,30,13,15,135,9,12,8,44,43,22,10,1.0,0.8
2022-06-17T09:00:00,1431A,103.9728,30.7236,成都市,金泉两河,细颗粒物(PM2.5),68,63,48,49,31,164,40,28,21,45,30,7,4,0.6,0.4
2022-06-17T09:00:00,1432A,104.1419,30.6764,成都市,十里店,细颗粒物(PM2.5),64,76,51,46,28,167,53,53,31,36,29,8,6,0.6,0.5
2022-06-17T09:00:00,1433A,104.0594,30.5767,成都市,三瓦窑,颗粒物(PM10),59,68,43,39,25,156,20,69,15,64,37,8,5,0.6,0.4
2022-06-17T09:00:00,1434A,104.1122,30.6306,成都市,沙河铺,细颗粒物(PM2.5),63,70,47,45,26,162,59,36,29,35,36,6,3,0.6,0.5
2022-06-17T09:00:00,1437A,104.0431,30.6556,成都市,君平街,细颗粒物(PM2.5),75,72,54,55,33,179,60,54,42,47,39,6,3,0.7,0.6
2022-06-17T09:00:00,1439A,106.6899,26.5998,贵阳市,马鞍山,,8,7,19,5,13,69,21,21,21,15,12,4,4,0.6,0.6
2022-06-17T09:00:00,1440A,106.6971,26.5694,贵阳市,市环保站,,14,5,21,4,15,64,5,25,18,28,22,5,6,0.5,0.4
2022-06-17T09:00:00,1441A,106.6243,26.6266,贵阳市,鉴湖路,,9,9,24,2,11,66,18,28,25,15,12,4,3,0.8,0.7
2022-06-17T09:00:00,1442A,106.7487,26.6343,贵阳市,燕子冲,,20,12,25,14,20,58,15,24,16,9,7,5,5,0.5,0.5
2022-06-17T09:00:00,1444A,106.694,26.5161,贵阳市,中院村,,24,24,32,7,14,59,8,21,18,23,24,1,1,0.8,0.5
2022-06-17T09:00:00,1445A,106.7109,26.6027,贵阳市,红边门,,18,7,25,12,20,67,7,29,21,17,12,3,3,0.8,0.6
2022-06-17T09:00:00,1446A,106.7164,26.5699,贵阳市,新华路,,8,7,20,5,17,62,13,28,24,16,16,3,3,0.5,0.4
2022-06-17T09:00:00,1447A,106.674,26.5424,贵阳市,太慈桥,,12,5,5,7,11,59,8,9,9,24,22,9,9,0.6,0.6
2022-06-17T09:00:00,1450A,102.8204,24.8886,昆明市,呈贡新区,,35,35,31,12,12,102,57,57,55,14,14,4,6,0.6,0.6
2022-06-17T09:00:00,1451A,102.6251,24.9608,昆明市,西山森林公园(对照点),,19,17,21,5,11,89,59,78,60,12,11,10,9,0.4,0.4
2022-06-17T09:00:00,1452A,102.7252,25.0902,昆明市,龙泉镇,,,,29,,17,80,,19,19,13,15,15,10,0.5,0.5
2022-06-17T09:00:00,1453A,102.7266,25.0375,昆明市,东风东路,,30,30,24,11,14,89,53,57,56,17,18,7,7,0.4,0.5
2022-06-17T09:00:00,1454A,102.6742,25.0669,昆明市,金鼎山,,28,28,25,16,15,84,43,42,42,20,19,17,11,0.5,0.5
2022-06-17T09:00:00,1455A,102.6644,25.0401,昆明市,碧鸡广场,,27,27,24,12,15,89,46,40,40,21,24,15,12,0.6,0.6
2022-06-17T09:00:00,1456A,91.1319,29.6514,拉萨市,八廓街,,39,11,12,2,3,146,123,110,110,8,6,5,5,0.2,0.1
2022-06-17T09:00:00,1457A,91.1221,29.6747,拉萨市,市环保局,,36,16,13,7,5,151,114,106,106,17,14,7,7,0.4,0.3
2022-06-17T09:00:00,1458A,91.0874,29.6475,拉萨市,区监测站,,37,9,11,6,10,149,117,112,112,21,15,7,7,0.4,0.3
2022-06-17T09:00:00,1459A,91.1774,29.6541,拉萨市,西藏大学,,41,11,10,4,4,138,129,109,109,5,7,9,9,0.4,0.4
2022-06-17T09:00:00,1460A,90.9798,29.6588,拉萨市,区辐射站,,26,16,14,10,6,129,82,96,96,36,20,8,8,0.3,0.2
2022-06-17T09:00:00,1461A,91.0834,29.6292,拉萨市,拉萨火车站,,34,8,12,0,5,146,108,104,104,16,15,8,8,0.2,0.2
2022-06-17T09:00:00,1462A,108.882,34.2749,西安市,高压开关厂,,42,42,44,20,16,212,96,44,44,33,35,8,8,0.5,0.4
2022-06-17T09:00:00,1463A,108.993,34.2629,西安市,兴庆小区,颗粒物(PM10),51,52,36,22,19,225,66,86,67,45,26,6,5,0.3,0.4
2022-06-17T09:00:00,1464A,109.06,34.2572,西安市,纺织城,颗粒物(PM10),59,68,51,22,19,227,45,23,23,62,46,9,7,0.6,0.4
2022-06-17T09:00:00,1465A,108.9356,34.2173,西安市,小寨,,34,34,39,14,15,229,81,48,48,39,32,6,5,0.2,0.2
2022-06-17T09:00:00,1467A,108.8922,34.2322,西安市,高新西区,,34,34,38,18,18,206,66,34,34,52,34,7,6,0.6,0.4
2022-06-17T09:00:00,1468A,108.935,34.3474,西安市,经开区,颗粒物(PM10),56,62,41,21,15,200,82,45,31,38,34,4,3,0.4,0.3
2022-06-17T09:00:00,1469A,108.906,34.1546,西安市,长安区,颗粒物(PM10),51,51,33,16,16,235,62,72,41,54,26,10,7,0.7,0.5
2022-06-17T09:00:00,1471A,109.2186,34.3731,西安市,临潼区,颗粒物(PM10),68,86,54,19,21,220,70,82,46,49,30,9,5,0.5,0.4
2022-06-17T09:00:00,1472A,108.869,34.378,西安市,草滩(对照点),,,66,56,12,12,174,29,10,8,,50,3,6,1.1,0.9
2022-06-17T09:00:00,1473A,108.985,34.1978,西安市,曲江文化产业集团,,47,47,39,13,16,241,89,59,59,28,35,4,5,0.5,0.4
2022-06-17T09:00:00,1474A,109.051,34.3213,西安市,广运潭,,28,23,37,13,16,208,88,67,59,19,26,5,6,0.3,0.3
2022-06-17T09:00:00,1476A,103.631,36.1031,兰州市,兰炼宾馆,,43,43,41,27,18,238,61,101,69,32,21,6,7,0.4,0.4
2022-06-17T09:00:00,1478A,103.8412,36.0726,兰州市,生物制品所,,43,43,38,19,18,183,79,114,90,23,18,8,7,0.7,0.6
2022-06-17T09:00:00,1479A,103.831,36.0464,兰州市,铁路设计院,,42,42,37,17,14,170,58,103,78,42,24,9,6,0.6,0.5
2022-06-17T09:00:00,1483A,101.524,36.6867,西宁市,第五水厂(对照点),,43,43,39,20,17,224,112,129,96,27,36,11,12,0.6,0.3
2022-06-17T09:00:00,1484A,105.9512,38.6016,银川市,贺兰山马莲口(对照点),,42,42,44,13,15,172,117,140,108,8,7,9,10,0.4,0.4
2022-06-17T09:00:00,1488A,106.2328,38.4975,银川市,贺兰山东路,,32,27,39,14,14,185,102,116,94,18,20,6,8,0.4,0.5
2022-06-17T09:00:00,1489A,106.1358,38.5036,银川市,学院路,,47,47,50,15,14,187,101,103,85,20,20,24,14,0.4,0.4
2022-06-17T09:00:00,1490A,87.5801,43.8303,乌鲁木齐市,监测站,,19,7,22,3,7,98,39,74,66,38,14,8,8,0.6,0.6
2022-06-17T09:00:00,1491A,87.6046,43.768,乌鲁木齐市,收费所,,24,24,23,4,7,106,23,85,52,22,19,5,6,0.3,0.3
2022-06-17T09:00:00,1492A,87.4754,43.9469,乌鲁木齐市,新疆农科院农场(对照点),颗粒物(PM10),55,60,48,9,16,106,15,66,58,48,26,8,8,0.5,0.4
2022-06-17T09:00:00,1493A,87.5525,43.8711,乌鲁木齐市,铁路局,,15,11,15,1,7,103,35,61,56,30,14,8,8,0.5,0.5
2022-06-17T09:00:00,1494A,87.6432,43.831,乌鲁木齐市,三十一中学,,20,13,19,2,7,98,47,82,75,39,18,2,2,0.4,0.3
2022-06-17T09:00:00,1496A,87.7216,44.1747,乌鲁木齐市,米东区环保局,,35,35,18,22,11,111,38,66,63,37,16,12,10,0.7,0.4
2022-06-17T09:00:00,1508A,112.9433,27.8614,湘潭市,板塘,,22,22,39,11,17,76,41,35,35,14,17,7,9,0.4,0.7
2022-06-17T09:00:00,1511A,112.9118,27.8403,湘潭市,市监测站,,33,15,25,23,21,79,34,37,37,22,17,10,12,0.8,0.7
2022-06-17T09:00:00,1512A,112.8937,27.8728,湘潭市,江麓,,40,37,42,28,16,82,36,52,32,18,19,5,8,0.6,0.8
2022-06-17T09:00:00,1513A,112.9227,27.8159,湘潭市,岳塘,,29,29,34,18,17,85,45,40,40,12,13,5,5,0.7,0.7
2022-06-17T09:00:00,1514A,112.9074,27.9119,湘潭市,科大,,31,31,39,12,15,78,49,53,38,12,19,6,11,0.6,0.9
2022-06-17T09:00:00,1515A,113.135,27.8244,株洲市,天台山庄,,18,0,15,12,14,80,46,33,33,16,15,5,8,0.5,0.4
2022-06-17T09:00:00,1518A,113.095,27.8867,株洲市,株冶医院,,16,7,19,11,13,82,48,37,37,13,17,8,14,0.5,0.6
2022-06-17T09:00:00,1519A,113.167,27.8667,株洲市,市四中,,22,21,25,15,20,81,51,30,28,14,19,10,12,0.9,0.9
2022-06-17T09:00:00,1520A,113.143,27.8381,株洲市,火车站,,18,12,26,12,15,75,43,24,24,8,14,4,7,0.4,0.4
2022-06-17T09:00:00,1524A,113.13,27.8528,株洲市,市监测站,,,7,24,,17,87,,34,33,13,13,7,9,0.3,0.4
2022-06-17T09:00:00,1559A,113.251,27.8336,株洲市,大京风景区(对照点),,23,23,19,12,13,76,50,13,13,1,4,2,4,0.4,0.5
2022-06-17T09:00:00,1562A,113.0048,27.9153,湘潭市,昭山,,20,7,18,14,16,76,42,31,31,5,11,5,6,0.3,0.4
2022-06-17T09:00:00,1564A,112.4876,27.9164,湘潭市,韶山(对照点),,28,20,35,19,17,83,43,40,28,10,10,3,5,0.6,0.7
2022-06-17T09:00:00,1585A,109.8756,40.6532,包头市,市环境监测站,颗粒物(PM10),57,64,48,29,17,150,82,60,60,26,40,17,14,0.5,0.7
2022-06-17T09:00:00,1587A,109.9991,40.5842,包头市,包头八中,颗粒物(PM10),58,66,59,33,22,158,86,100,77,27,34,20,33,0.6,0.8
2022-06-17T09:00:00,1588A,109.8538,40.6821,包头市,青山宾馆,颗粒物(PM10),51,52,50,31,24,142,79,37,37,30,47,21,17,0.5,0.7
2022-06-17T09:00:00,1589A,109.8642,40.6288,包头市,惠龙物流,颗粒物(PM10),54,58,54,17,16,167,82,61,61,29,40,15,20,0.6,0.7
2022-06-17T09:00:00,1590A,110.0377,40.5546,包头市,东河鸿龙湾,细颗粒物(PM2.5),58,64,66,41,26,162,84,71,61,25,33,23,21,0.7,0.7
2022-06-17T09:00:00,1591A,110.0023,39.8129,鄂尔多斯市,综合楼,颗粒物(PM10),54,58,49,15,14,140,107,84,81,27,28,6,9,0.7,0.5
2022-06-17T09:00:00,1592A,109.9486,39.8261,鄂尔多斯市,巴音孟克林场办事处,,44,44,60,12,20,140,113,90,90,15,18,6,10,0.3,0.3
2022-06-17T09:00:00,1593A,109.7736,39.5986,鄂尔多斯市,康泽苑,,39,39,41,9,13,138,124,96,96,11,18,5,4,0.4,0.4
2022-06-17T09:00:00,1594A,109.8119,39.5989,鄂尔多斯市,华泰汽车城,,41,41,45,17,17,143,124,89,89,15,23,6,7,0.5,0.6
2022-06-17T09:00:00,1595A,109.9734,39.7884,鄂尔多斯市,奥林花园,颗粒物(PM10),79,107,67,44,22,137,109,61,61,22,31,5,7,0.6,0.6
2022-06-17T09:00:00,1597A,122.2703,40.7094,营口市,大庆路,,34,34,34,14,15,144,104,111,94,13,11,10,5,0.6,0.5
2022-06-17T09:00:00,1598A,122.215,40.6511,营口市,镜湖西路,,35,23,27,13,12,161,109,118,97,13,10,6,4,0.6,0.5
2022-06-17T09:00:00,1599A,122.167,40.6655,营口市,西炮台,,36,28,23,11,13,172,114,105,95,25,20,8,5,0.9,0.6
2022-06-17T09:00:00,1600A,124.3303,40.0625,丹东市,江湾东路,,23,15,20,11,14,87,73,78,67,7,7,6,7,0.3,0.4
2022-06-17T09:00:00,1601A,124.4256,40.1503,丹东市,临江后街,,,,,6,9,112,76,80,64,3,5,11,12,1.1,1.2
2022-06-17T09:00:00,1602A,124.3933,40.1461,丹东市,元宝山,,24,16,20,8,13,110,76,87,65,5,5,9,10,0.5,0.6
2022-06-17T09:00:00,1603A,124.3633,40.1092,丹东市,民主桥,,25,12,18,9,12,109,79,87,69,1,2,13,12,0.8,0.8
2022-06-17T09:00:00,1604A,122.0303,41.1489,盘锦市,开发区,,34,8,22,19,14,150,106,104,96,14,12,4,4,0.6,0.6
2022-06-17T09:00:00,1605A,122.0485,41.0883,盘锦市,兴隆台,,35,27,26,19,16,145,110,103,98,15,14,3,3,0.6,0.6
2022-06-17T09:00:00,1606A,121.8297,41.1028,盘锦市,新生街道,,33,22,19,23,20,166,103,112,92,10,12,3,3,0.6,0.5
2022-06-17T09:00:00,1607A,120.9092,40.7136,葫芦岛市,龙港区,,29,23,25,18,16,149,91,101,82,12,12,6,6,0.5,0.5
2022-06-17T09:00:00,1608A,120.8392,40.7514,葫芦岛市,化工街,颗粒物(PM10),51,52,47,26,30,140,92,100,78,13,15,5,5,0.3,0.4
2022-06-17T09:00:00,1609A,120.8341,40.7073,葫芦岛市,新区,,50,34,30,35,29,141,93,101,82,14,13,7,7,0.6,0.5
2022-06-17T09:00:00,1610A,120.8695,40.7677,葫芦岛市,东城区,细颗粒物(PM2.5),52,42,31,36,33,134,87,98,75,14,15,6,6,0.3,0.4
2022-06-17T09:00:00,1611A,118.5819,24.9117,泉州市,涂山街,,29,29,17,17,14,59,19,19,17,32,32,17,8,0.4,0.4
2022-06-17T09:00:00,1612A,118.5972,24.8978,泉州市,津头埔,,47,47,25,19,16,53,10,19,14,31,32,7,5,0.6,0.5
2022-06-17T09:00:00,1613A,118.6663,24.9424,泉州市,万安,,26,26,17,16,14,56,10,12,12,30,28,6,5,0.7,0.5
2022-06-17T09:00:00,1616A,117.6795,36.229,济南市,技术学院,,45,14,57,13,26,261,143,146,141,12,13,8,12,0.7,1.1
2022-06-17T09:00:00,1618A,118.3429,35.0532,临沂市,沂河小区,,46,46,85,23,40,242,98,100,90,11,11,7,9,0.5,0.7
2022-06-17T09:00:00,1619A,118.295,35.0583,临沂市,鲁南制药厂,,39,31,73,20,38,253,124,117,112,19,21,5,8,0.7,0.9
2022-06-17T09:00:00,1620A,118.2794,34.9976,临沂市,新光毛纺厂,,39,31,72,19,39,247,123,111,105,18,21,5,8,0.9,1
2022-06-17T09:00:00,1621A,118.3956,35.0888,临沂市,河东保险公司,,34,31,71,17,36,235,106,109,97,14,15,5,7,0.4,0.8
2022-06-17T09:00:00,1622A,116.3032,37.4674,德州市,儿童乐园,颗粒物(PM10),64,78,97,35,33,257,120,115,115,11,13,10,10,0.8,0.7
2022-06-17T09:00:00,1624A,116.2991,37.4451,德州市,监理站,颗粒物(PM10),57,63,84,25,30,251,112,112,112,17,18,12,12,0.9,0.8
2022-06-17T09:00:00,1625A,115.9848,36.4372,聊城市,区政府,颗粒物(PM10),75,100,98,34,39,275,125,168,110,13,15,19,15,1.0,0.9
2022-06-17T09:00:00,1628A,118.0062,37.3803,滨州市,市环保局,,45,41,95,31,48,239,101,119,100,19,20,9,11,0.4,0.5
2022-06-17T09:00:00,1629A,118.0018,37.3617,滨州市,第二水厂,,36,36,72,20,39,193,97,105,91,18,28,10,14,0.7,0.8
2022-06-17T09:00:00,1630A,117.9776,37.393,滨州市,北中新校,,31,16,63,19,39,228,99,103,90,16,20,7,10,0.6,0.7
2022-06-17T09:00:00,1631A,118.0414,36.8103,淄博市,人民公园,,43,29,52,30,28,182,105,119,109,27,22,11,10,0.4,0.3
2022-06-17T09:00:00,1633A,117.8525,36.4847,淄博市,双山,,,12,49,,33,231,136,162,142,8,12,,11,0.2,0.5
2022-06-17T09:00:00,1634A,117.9592,36.6331,淄博市,气象站,,37,27,40,12,19,232,116,174,128,18,15,13,11,0.1,0.2
2022-06-17T09:00:00,1635A,118.3092,36.8194,淄博市,莆田园,,34,29,45,12,28,202,106,134,119,21,19,12,8,0.6,0.3
2022-06-17T09:00:00,1637A,117.558,34.8438,枣庄市,市中区政府,颗粒物(PM10),68,85,94,39,39,278,134,108,95,22,24,19,15,0.9,0.7
2022-06-17T09:00:00,1638A,117.2852,34.7837,枣庄市,薛城环保局,颗粒物(PM10),86,122,85,48,40,280,119,101,89,27,28,38,22,1.4,0.8
2022-06-17T09:00:00,1639A,117.5852,34.7745,枣庄市,峄城区政府,颗粒物(PM10),60,70,85,38,44,271,126,96,83,20,25,12,14,0.9,0.7
2022-06-17T09:00:00,1640A,117.7276,34.5578,枣庄市,台儿庄区环保局,颗粒物(PM10),57,63,71,29,37,259,135,95,70,17,26,18,15,0.8,0.8
2022-06-17T09:00:00,1641A,117.4518,35.0992,枣庄市,山亭区环保局,细颗粒物(PM2.5),70,63,68,51,41,269,135,128,117,17,20,9,14,0.7,0.6
2022-06-17T09:00:00,1642A,121.2514,37.5639,烟台市,开发区,颗粒物(PM10),53,56,39,29,19,161,128,137,137,26,10,6,6,0.7,0.5
2022-06-17T09:00:00,1643A,121.3719,37.5433,烟台市,轴承厂,,48,48,37,32,20,162,145,148,148,12,6,4,4,0.5,0.3
2022-06-17T09:00:00,1644A,121.3181,37.5436,烟台市,西郊化工站,细颗粒物(PM2.5),52,44,33,36,22,151,132,142,142,12,4,5,5,0.5,0.3
2022-06-17T09:00:00,1645A,121.4478,37.4822,烟台市,莱山环保局,,44,34,30,30,20,156,138,152,144,11,5,6,6,0.4,0.3
2022-06-17T09:00:00,1646A,121.2611,37.4967,烟台市,福山环保局,,48,48,36,31,18,145,122,126,126,22,13,2,2,0.5,0.3
2022-06-17T09:00:00,1650A,119.1437,36.7023,潍坊市,环保局,,40,19,48,7,31,166,128,161,130,14,12,6,7,0.6,0.7
2022-06-17T09:00:00,1653A,116.6251,35.4302,济宁市,火炬城,,,,65,31,31,278,132,126,120,14,13,13,11,0.8,0.7
2022-06-17T09:00:00,1655A,116.5491,35.4042,济宁市,电化厂,颗粒物(PM10),54,58,71,27,30,278,136,118,118,10,16,17,15,1.0,1
2022-06-17T09:00:00,1656A,117.1437,36.1937,泰安市,监测站,,49,49,69,29,36,256,135,152,123,11,14,11,14,0.5,0.7
2022-06-17T09:00:00,1657A,117.0885,36.2017,泰安市,人口学校,颗粒物(PM10),68,85,66,27,26,265,137,150,122,14,15,8,11,0.4,0.6
2022-06-17T09:00:00,1658A,117.1089,36.1758,泰安市,电力学校,,46,46,73,31,33,244,124,139,112,11,13,7,8,0.7,0.9
2022-06-17T09:00:00,1659A,119.471,35.4209,日照市,监测站,,29,27,38,20,31,165,65,158,121,42,8,5,4,0.7,0.5
2022-06-17T09:00:00,1660A,119.523,35.4216,日照市,市政府广场,,27,27,38,18,26,169,75,165,128,36,5,6,6,0.8,0.6
2022-06-17T09:00:00,1661A,119.5587,35.4044,日照市,港务局,,32,31,34,13,20,180,100,180,140,30,5,3,3,0.6,0.5
2022-06-17T09:00:00,1662A,122.1214,37.4236,威海市,华夏技校,,33,27,25,22,21,136,105,134,110,12,8,5,5,0.5,0.4
2022-06-17T09:00:00,1663A,122.0508,37.5236,威海市,山大分校,,32,32,24,17,15,161,96,155,129,22,7,6,6,0.5,0.3
2022-06-17T09:00:00,1664A,122.1067,37.5072,威海市,市监测站,,42,32,27,29,24,157,70,151,114,31,9,5,5,0.4,0.3
2022-06-17T09:00:00,1666A,118.6614,37.4309,东营市,市环保局,,36,22,46,12,30,182,115,157,119,9,13,7,10,0.4,0.7
2022-06-17T09:00:00,1669A,113.5824,24.7733,韶关市,市八中,,20,20,21,10,10,43,32,25,25,13,17,7,6,0.7,0.7
2022-06-17T09:00:00,1671A,113.5917,24.7972,韶关市,园林处,,24,24,16,8,13,44,23,20,18,12,17,4,7,0.7,0.7
2022-06-17T09:00:00,1672A,113.6735,24.7791,韶关市,韶关学院,,34,34,16,22,11,42,16,9,9,18,20,19,10,0.7,0.7
2022-06-17T09:00:00,1673A,113.5971,24.6863,韶关市,曲江监测站,,25,25,20,10,10,108,62,25,25,25,28,12,9,0.8,0.7
2022-06-17T09:00:00,1674A,116.6794,23.3667,汕头市,金平子站,,33,15,18,23,11,60,10,28,12,26,15,9,7,1.0,0.6
2022-06-17T09:00:00,1675A,116.7244,23.3633,汕头市,龙湖子站,,13,13,13,5,5,64,20,33,19,17,17,8,7,0.5,0.4
2022-06-17T09:00:00,1676A,116.7258,23.2775,汕头市,濠江子站,,24,24,18,8,8,53,16,22,13,18,18,10,9,0.5,0.5
2022-06-17T09:00:00,1677A,116.7519,23.4714,汕头市,澄海子站,,39,39,26,16,28,56,23,36,23,22,21,6,4,0.8,0.6
2022-06-17T09:00:00,1678A,116.6092,23.2539,汕头市,潮阳子站,,19,19,14,9,5,54,15,28,18,11,9,7,7,0.5,0.5
2022-06-17T09:00:00,1680A,110.3539,21.2706,湛江市,湛江影剧院,,20,20,25,8,11,105,27,25,23,12,15,5,7,0.5,0.5
2022-06-17T09:00:00,1681A,110.3928,21.2228,湛江市,市环境监测站,,19,19,24,11,12,106,28,34,28,15,15,6,6,0.4,0.4
2022-06-17T09:00:00,1682A,110.4019,21.1997,湛江市,环保局宿舍,,21,21,25,12,13,95,32,31,21,10,17,4,5,0.4,0.5
2022-06-17T09:00:00,1683A,110.4111,21.2028,湛江市,霞山游泳场,,16,14,21,11,10,88,33,39,31,9,13,6,7,0.4,0.4
2022-06-17T09:00:00,1684A,110.3316,21.2679,湛江市,麻章区环保局,,20,18,28,14,13,111,25,32,23,9,13,5,7,0.5,0.5
2022-06-17T09:00:00,1685A,110.4558,21.2567,湛江市,坡头区环保局,,18,18,22,10,12,103,37,40,33,9,11,7,5,0.8,0.6
2022-06-17T09:00:00,1686A,111.0286,21.4688,茂名市,电白南海,,24,24,25,5,7,56,29,38,32,13,13,2,1,0.5,0.5
2022-06-17T09:00:00,1687A,110.9294,21.6533,茂名市,茂石化七小,,20,19,26,14,15,102,39,38,26,11,14,4,5,0.5,0.5
2022-06-17T09:00:00,1688A,110.9107,21.6687,茂名市,健康路,,19,19,22,8,8,115,39,43,31,10,10,5,5,0.7,0.6
2022-06-17T09:00:00,1689A,110.8592,21.6828,茂名市,高岭,,12,12,11,7,7,96,18,66,18,3,11,5,9,0.5,0.6
2022-06-17T09:00:00,1690A,116.1231,24.3284,梅州市,梅江月梅,,12,10,8,8,7,48,14,8,8,16,15,2,2,0.6,0.6
2022-06-17T09:00:00,1691A,116.0797,24.2719,梅州市,梅县新城,,26,7,10,18,7,52,8,11,11,26,21,6,4,1.1,0.7
2022-06-17T09:00:00,1692A,116.1248,24.2654,梅州市,环境监控中心,,19,19,12,11,9,51,6,12,7,22,17,5,5,0.6,0.5
2022-06-17T09:00:00,1693A,115.3653,22.775,汕尾市,市环保局,,13,13,13,4,4,58,28,27,27,6,6,5,5,0.4,0.4
2022-06-17T09:00:00,1694A,115.3706,22.7898,汕尾市,市政府,,12,12,10,4,4,61,30,30,28,5,7,5,5,0.5,0.5
2022-06-17T09:00:00,1695A,115.3622,22.7925,汕尾市,新城中学,,13,13,18,5,6,68,33,29,29,4,5,5,5,0.6,0.6
2022-06-17T09:00:00,1696A,114.6778,23.7569,河源市,源西(对照点),,12,12,11,4,6,80,22,14,6,13,19,3,4,0.4,0.4
2022-06-17T09:00:00,1697A,114.6944,23.7586,河源市,东埔,,9,5,10,4,5,81,27,20,15,13,15,3,3,0.7,0.6
2022-06-17T09:00:00,1698A,114.6892,23.7233,河源市,老城,,13,12,11,4,5,92,39,19,19,9,12,2,2,0.5,0.6
2022-06-17T09:00:00,1701A,111.9491,21.8658,阳江市,马南垌,,12,11,23,8,9,52,37,38,38,4,6,1,2,0.7,0.6
2022-06-17T09:00:00,1702A,113.0426,23.691,清远市,环保大楼(对照点),,27,27,16,11,12,178,20,63,30,20,13,5,4,0.6,0.4
2022-06-17T09:00:00,1703A,113.0208,23.7106,清远市,凤城街办,,35,35,22,18,14,152,14,49,22,24,16,6,5,0.8,0.6
2022-06-17T09:00:00,1705A,116.6367,23.6719,潮州市,西园路(对照点),,32,30,26,22,13,72,27,18,18,19,20,5,4,1.1,0.8
2022-06-17T09:00:00,1706A,116.6447,23.6706,潮州市,档案局,,43,43,20,25,15,77,15,7,7,21,24,9,7,1.0,0.8
2022-06-17T09:00:00,1708A,116.3701,23.5345,揭阳市,新兴,,39,39,26,21,15,47,14,7,7,25,24,5,6,1.2,0.8
2022-06-17T09:00:00,1709A,116.3264,23.5443,揭阳市,西马,,30,13,23,21,17,59,13,7,7,23,21,6,6,1.3,0.9
2022-06-17T09:00:00,1710A,116.3611,23.5626,揭阳市,东兴,,44,44,29,18,13,58,11,7,7,27,25,5,5,1.1,0.9
2022-06-17T09:00:00,1711A,116.4151,23.5294,揭阳市,渔湖,,42,42,27,12,11,60,14,7,7,18,17,6,5,0.9,0.8
2022-06-17T09:00:00,1714A,112.0539,22.9539,云浮市,牧羊,,42,42,30,12,15,68,24,24,17,24,18,5,9,0.7,0.6
2022-06-17T09:00:00,1715A,102.575,24.3711,玉溪市,东风水库,,26,26,23,11,11,89,49,52,52,9,9,4,4,0.7,0.8
2022-06-17T09:00:00,1718A,115.4208,35.2464,菏泽市,气象局,颗粒物(PM10),73,96,86,31,25,221,122,121,100,25,18,9,8,0.5,0.4
2022-06-17T09:00:00,1719A,115.4747,35.2375,菏泽市,市政协,颗粒物(PM10),68,86,79,25,21,212,128,123,104,17,15,9,11,0.2,0.2
2022-06-17T09:00:00,1721A,113.3819,40.1097,大同市,果树场(对照点),"颗粒物(PM10),细颗粒物(PM2.5)",68,85,56,49,28,203,147,92,92,25,22,13,13,0.8,0.7
2022-06-17T09:00:00,1723A,113.2994,40.0758,大同市,云冈宾馆,细颗粒物(PM2.5),87,111,80,64,33,204,144,121,121,30,23,10,12,0.8,0.6
2022-06-17T09:00:00,1724A,113.3444,40.0917,大同市,大同大学,颗粒物(PM10),71,91,63,49,28,211,158,135,126,18,16,7,9,0.8,0.7
2022-06-17T09:00:00,1725A,113.2661,40.1269,大同市,安家小村,颗粒物(PM10),74,97,72,35,22,213,168,146,122,23,18,13,14,0.9,0.6
2022-06-17T09:00:00,1726A,113.2711,40.0844,大同市,教育学院,颗粒物(PM10),76,102,73,48,26,200,154,131,129,27,22,10,11,0.7,0.6
2022-06-17T09:00:00,1727A,113.1147,36.1547,长治市,清华站,颗粒物(PM10),70,89,52,31,23,226,105,129,86,56,27,11,10,0.9,0.7
2022-06-17T09:00:00,1728A,113.1031,36.1989,长治市,监测站,颗粒物(PM10),70,90,53,31,24,221,63,132,77,59,23,9,9,0.8,0.5
2022-06-17T09:00:00,1730A,113.0886,36.2125,长治市,审计局,颗粒物(PM10),68,86,50,34,24,224,38,130,42,64,33,14,12,0.9,0.6
2022-06-17T09:00:00,1731A,113.0844,36.1856,长治市,长治八中,,,99,59,26,24,233,66,135,52,,36,,16,0.8,0.6
2022-06-17T09:00:00,1733A,111.5531,36.0783,临汾市,临钢医院,颗粒物(PM10),68,86,72,23,20,261,66,34,34,40,38,18,8,0.8,0.7
2022-06-17T09:00:00,1734A,111.5028,36.0714,临汾市,技工学校,颗粒物(PM10),57,63,58,36,29,259,62,37,37,36,34,18,12,0.9,0.8
2022-06-17T09:00:00,1736A,111.5018,36.0855,临汾市,市委,颗粒物(PM10),59,68,61,19,24,263,60,34,34,35,35,14,7,0.3,0.3
2022-06-17T09:00:00,1738A,113.5758,37.8572,阳泉市,市中心,细颗粒物(PM2.5),124,182,137,94,63,307,150,208,86,64,54,25,18,1.7,1.1
2022-06-17T09:00:00,1739A,113.4894,37.8731,阳泉市,赛鱼,细颗粒物(PM2.5),84,100,99,62,58,308,151,97,55,47,41,15,13,1.0,1
2022-06-17T09:00:00,1740A,113.5819,37.8486,阳泉市,南庄,颗粒物(PM10),112,173,135,73,66,300,183,193,124,40,35,38,17,1.8,1.2
2022-06-17T09:00:00,1742A,113.5614,37.8703,阳泉市,平坦,颗粒物(PM10),103,155,141,60,64,298,160,208,84,39,46,22,24,1.8,1.2
2022-06-17T09:00:00,1743A,113.5158,37.8392,阳泉市,大阳泉,臭氧1小时,85,112,105,61,59,294,188,221,202,16,19,22,17,1.3,1
2022-06-17T09:00:00,1744A,118.9233,42.2816,赤峰市,松山一中,细颗粒物(PM2.5),57,62,27,40,18,143,122,132,128,29,18,11,10,0.9,0.7
2022-06-17T09:00:00,1745A,118.9576,42.2728,赤峰市,哈达街,颗粒物(PM10),60,69,31,35,14,137,101,124,118,28,22,16,13,0.9,0.6
2022-06-17T09:00:00,1746A,118.8788,42.2554,赤峰市,天义路,颗粒物(PM10),55,60,24,33,13,149,110,142,132,32,13,10,11,0.7,0.5
2022-06-17T09:00:00,1748A,123.044,41.1196,鞍山市,深沟寺,,,22,35,14,24,140,,110,94,10,12,8,10,0.5,0.7
2022-06-17T09:00:00,1749A,123.011,41.0931,鞍山市,太阳城,,33,25,40,16,24,139,105,117,109,13,15,7,10,0.6,0.8
2022-06-17T09:00:00,1750A,123.0485,41.1442,鞍山市,太平,,29,29,44,18,25,142,80,101,91,21,16,9,12,0.6,0.8
2022-06-17T09:00:00,1751A,122.9642,41.0971,鞍山市,铁西三道街,,38,38,48,16,26,149,105,112,105,27,20,11,10,1.4,0.9
2022-06-17T09:00:00,1752A,122.9341,41.0833,鞍山市,铁西工业园区,,42,42,58,17,28,143,105,102,90,15,20,11,11,1.4,1
2022-06-17T09:00:00,1753A,123.022,41.0821,鞍山市,明达新区,,35,26,40,16,25,140,112,135,124,15,12,4,7,0.4,0.6
2022-06-17T09:00:00,1755A,123.7977,41.8491,抚顺市,望花区,,33,33,40,15,20,144,88,89,88,19,19,4,7,0.5,0.7
2022-06-17T09:00:00,1756A,123.9161,41.8822,抚顺市,顺城区,,42,42,47,16,22,139,84,84,81,24,22,8,10,0.4,0.6
2022-06-17T09:00:00,1757A,124.0436,41.8611,抚顺市,东洲区,,32,32,42,16,23,159,102,98,96,8,11,6,9,0.3,0.5
2022-06-17T09:00:00,1758A,123.9247,41.8642,抚顺市,新抚区,颗粒物(PM10),56,62,47,16,22,151,90,85,77,19,18,5,7,0.5,0.7
2022-06-17T09:00:00,1759A,124.0972,41.8961,抚顺市,大伙房水库,,33,24,42,13,19,167,105,106,105,5,9,6,9,0.2,0.4
2022-06-17T09:00:00,1760A,123.7086,41.8391,抚顺市,沈抚新城,,29,25,35,17,21,148,92,78,78,21,19,7,8,0.6,0.6
2022-06-17T09:00:00,1761A,123.8275,41.3064,本溪市,大峪,,34,28,21,10,9,115,106,88,82,12,11,5,5,0.4,0.5
2022-06-17T09:00:00,1762A,123.7567,41.3325,本溪市,溪湖,,29,23,26,11,13,119,92,90,90,12,18,7,9,0.6,1
2022-06-17T09:00:00,1763A,123.7169,41.3094,本溪市,彩屯,,48,48,40,30,23,116,69,51,51,32,38,14,14,2.3,2.1
2022-06-17T09:00:00,1764A,123.7669,41.2864,本溪市,东明,,31,17,23,11,13,110,98,104,103,10,11,6,6,0.5,0.6
2022-06-17T09:00:00,1765A,123.7992,41.2664,本溪市,新立屯,,33,15,24,12,12,113,104,108,105,5,7,4,4,0.8,0.9
2022-06-17T09:00:00,1766A,123.8142,41.3472,本溪市,威宁,,36,25,33,12,14,128,114,77,77,6,9,9,9,0.3,0.5
2022-06-17T09:00:00,1767A,121.1115,41.0879,锦州市,南山,细颗粒物(PM2.5),57,46,48,40,46,115,68,87,60,15,16,11,14,0.7,0.8
2022-06-17T09:00:00,1768A,121.0533,40.8434,锦州市,开发区,颗粒物(PM10),56,62,59,32,36,115,75,82,66,16,19,11,11,0.7,0.7
2022-06-17T09:00:00,1769A,121.1836,41.1119,锦州市,百股街道,,42,29,29,29,32,145,84,96,80,16,15,11,16,0.8,0.8
2022-06-17T09:00:00,1770A,121.1178,41.1222,锦州市,天安街道,细颗粒物(PM2.5),68,45,41,49,47,133,76,93,72,22,18,7,11,0.7,0.8
2022-06-17T09:00:00,1771A,121.1303,41.1386,锦州市,北湖公园,细颗粒物(PM2.5),72,44,38,52,49,133,76,102,75,23,18,8,11,0.6,0.7
2022-06-17T09:00:00,1772A,126.54,43.8622,吉林市,哈达湾,,31,31,38,20,25,153,87,101,87,13,14,5,6,0.6,0.6
2022-06-17T09:00:00,1773A,126.5844,43.8358,吉林市,东局子,,23,23,38,14,24,147,66,100,75,34,20,5,5,0.8,0.7
2022-06-17T09:00:00,1774A,126.5052,43.8245,吉林市,电力学院,,29,25,35,20,25,144,89,97,85,15,17,5,5,0.8,0.8
2022-06-17T09:00:00,1775A,126.6133,43.8972,吉林市,江北,,24,23,35,16,26,148,75,88,66,21,16,8,8,0.7,0.7
2022-06-17T09:00:00,1776A,126.555,43.8306,吉林市,江南公园,,25,21,35,12,24,143,78,96,80,17,14,4,4,0.7,0.6
2022-06-17T09:00:00,1778A,126.7061,43.7133,吉林市,丰满(对照点),,36,28,34,25,27,135,95,115,95,10,9,4,4,0.6,0.7
2022-06-17T09:00:00,1779A,123.9305,47.3636,齐齐哈尔市,安居小区,,30,30,19,10,7,99,63,48,35,9,14,6,6,0.3,0.4
2022-06-17T09:00:00,1780A,123.9488,47.3386,齐齐哈尔市,中心广场,,22,22,20,8,6,100,60,53,44,13,15,4,4,0.4,0.4
2022-06-17T09:00:00,1781A,123.9483,47.3227,齐齐哈尔市,农牧车辆厂,,,29,29,4,7,104,,49,38,11,11,3,3,0.1,0.2
2022-06-17T09:00:00,1783A,123.945,47.2988,齐齐哈尔市,市环境监测站,,26,26,21,6,8,108,62,56,46,13,13,4,4,0.3,0.3
2022-06-17T09:00:00,1784A,129.61,44.561,牡丹江市,环保大楼,,24,15,18,11,9,116,74,60,58,18,13,4,4,0.5,0.5
2022-06-17T09:00:00,1785A,129.6115,44.5782,牡丹江市,文化广场,,,10,12,10,7,111,,59,55,21,14,2,2,0.6,0.4
2022-06-17T09:00:00,1786A,129.5904,44.5963,牡丹江市,第一医院,,21,19,17,8,9,104,66,49,49,15,15,2,3,0.7,0.7
2022-06-17T09:00:00,1787A,129.6364,44.6075,牡丹江市,机车工厂,,20,6,11,6,9,105,62,55,39,22,16,4,5,0.4,0.3
2022-06-17T09:00:00,1788A,129.6386,44.5462,牡丹江市,第一中学,,23,15,15,5,6,108,71,50,47,15,13,3,2,0.5,0.4
2022-06-17T09:00:00,1789A,124.81117,46.03138,大庆市,大同区,,28,17,28,7,9,113,88,65,64,5,8,5,5,0.3,0.3
2022-06-17T09:00:00,1790A,125.129,46.533,大庆市,龙凤区,,25,12,14,6,8,113,79,66,59,12,15,2,4,0.3,0.3
2022-06-17T09:00:00,1791A,124.902,46.408,大庆市,红岗区,,26,19,14,10,9,106,81,55,53,8,9,2,2,0.4,0.4
2022-06-17T09:00:00,1792A,125.153,46.586,大庆市,萨尔图区,,36,31,29,25,12,114,71,68,54,18,12,3,4,0.4,0.4
2022-06-17T09:00:00,1793A,124.9042,46.6215,大庆市,让胡路区,,27,10,19,5,12,111,85,70,59,7,10,2,3,0.5,0.5
2022-06-17T09:00:00,1794A,118.3606,31.3519,芜湖市,监测站,,37,37,43,17,22,166,65,52,48,23,34,19,14,0.8,0.8
2022-06-17T09:00:00,1795A,118.3714,31.4134,芜湖市,科创中心,,23,23,43,13,20,179,62,47,36,23,32,32,13,1.6,1.1
2022-06-17T09:00:00,1796A,118.3673,31.3131,芜湖市,四水厂,,25,16,39,13,19,177,78,71,64,18,28,14,11,0.9,0.8
2022-06-17T09:00:00,1798A,118.5092,31.6837,马鞍山市,湖东路四小,,29,22,36,13,21,233,90,91,67,14,19,17,8,0.6,0.7
2022-06-17T09:00:00,1799A,118.5024,31.6449,马鞍山市,开发区,,25,25,41,15,20,219,77,70,57,16,21,21,11,0.7,0.8
2022-06-17T09:00:00,1800A,118.5228,31.7231,马鞍山市,慈湖,,27,18,39,14,20,223,84,86,67,12,16,13,6,0.6,0.6
2022-06-17T09:00:00,1802A,118.6245,31.7241,马鞍山市,濮塘(对照点),,34,34,37,18,21,228,76,65,63,16,13,23,13,0.7,0.7
2022-06-17T09:00:00,1803A,115.9872,29.6815,九江市,十里,,38,38,37,26,21,165,59,48,44,28,24,11,9,0.8,0.7
2022-06-17T09:00:00,1804A,115.9584,29.7046,九江市,茅山头,,37,37,30,18,19,137,57,56,53,21,16,12,9,0.7,0.6
2022-06-17T09:00:00,1805A,115.9877,29.7295,九江市,西园,,44,44,42,22,21,185,52,35,31,33,46,12,10,1.0,0.9
2022-06-17T09:00:00,1806A,116.0172,29.6547,九江市,五七二七厂,,40,40,32,17,19,154,62,74,50,21,11,6,6,0.8,0.8
2022-06-17T09:00:00,1808A,115.9114,29.6038,九江市,综合工业园,,27,27,29,17,16,139,69,61,50,17,19,13,9,0.6,0.6
2022-06-17T09:00:00,1809A,116.0721,29.7535,九江市,石化总厂,,40,40,41,26,16,140,56,60,40,18,23,19,14,0.7,0.5
2022-06-17T09:00:00,1810A,115.9773,29.5698,九江市,庐山气象台(对照点),,32,32,26,16,14,135,99,132,110,4,3,14,13,0.3,0.3
2022-06-17T09:00:00,1812A,112.3931,34.6516,洛阳市,市委党校,颗粒物(PM10),60,70,65,30,30,277,128,120,94,13,14,17,13,0.5,0.5
2022-06-17T09:00:00,1814A,112.4657,34.6871,洛阳市,豫西宾馆,颗粒物(PM10),72,94,71,29,31,306,124,135,90,17,15,8,6,0.9,0.7
2022-06-17T09:00:00,1815A,112.494,34.6886,洛阳市,河南林校,颗粒物(PM10),61,71,63,32,28,298,126,131,94,26,23,24,13,0.5,0.4
2022-06-17T09:00:00,1816A,112.3844,34.623,洛阳市,开发区管委会,颗粒物(PM10),57,64,64,29,30,294,126,110,76,16,17,17,11,0.4,0.4
2022-06-17T09:00:00,1817A,112.4267,34.6258,洛阳市,市委新办公区,颗粒物(PM10),65,80,65,27,29,279,121,136,83,24,17,17,12,0.5,0.4
2022-06-17T09:00:00,1818A,114.4839,36.0621,安阳市,棉研所(对照点),,,94,96,,27,263,150,189,150,18,19,6,6,0.8,0.8
2022-06-17T09:00:00,1819A,114.3551,36.1017,安阳市,红庙街,颗粒物(PM10),84,117,99,55,37,285,177,214,175,32,26,13,14,0.7,0.6
2022-06-17T09:00:00,1820A,114.361,36.0681,安阳市,银杏小区,颗粒物(PM10),92,134,106,61,41,280,172,211,174,26,19,13,14,0.8,0.6
2022-06-17T09:00:00,1824A,114.3389,34.7781,开封市,肿瘤医院,颗粒物(PM10),58,66,63,20,22,228,111,103,96,11,13,10,7,0.7,0.6
2022-06-17T09:00:00,1826A,114.2885,34.7965,开封市,世纪星幼儿园,颗粒物(PM10),57,63,69,23,23,231,115,100,95,15,15,6,5,0.6,0.6
2022-06-17T09:00:00,1828A,113.2269,35.2127,焦作市,市环保局,颗粒物(PM10),78,105,65,46,26,261,179,110,108,25,25,15,11,1.2,0.6
2022-06-17T09:00:00,1829A,113.2467,35.176,焦作市,高新区政府,颗粒物(PM10),83,115,77,46,30,252,163,86,86,29,36,18,15,1.3,0.6
2022-06-17T09:00:00,1830A,113.1987,35.2703,焦作市,影视城(对照点),颗粒物(PM10),65,79,43,39,29,280,162,165,136,24,14,21,14,1.1,0.6
2022-06-17T09:00:00,1832A,113.3257,33.742,平顶山市,新华旅馆,颗粒物(PM10),52,54,61,25,26,172,92,136,94,10,10,4,3,0.5,0.3
2022-06-17T09:00:00,1833A,113.2919,33.737,平顶山市,规划设计院,,42,42,50,20,19,177,92,138,93,12,11,8,7,0.4,0.4
2022-06-17T09:00:00,1834A,113.182,33.774,平顶山市,平顶山工学院,,39,39,46,25,25,171,93,133,88,11,10,4,4,0.4,0.4
2022-06-17T09:00:00,1835A,111.1922,34.7752,三门峡市,市政府,颗粒物(PM10),60,69,51,22,24,222,75,30,30,37,36,13,10,0.6,0.4
2022-06-17T09:00:00,1836A,111.1587,34.7942,三门峡市,开发区,颗粒物(PM10),63,75,59,35,26,210,66,66,39,27,18,12,8,0.7,0.6
2022-06-17T09:00:00,1838A,111.143,34.7955,三门峡市,风景区(对照点),颗粒物(PM10),71,91,57,37,24,230,57,91,39,29,15,5,5,0.7,0.4
2022-06-17T09:00:00,1840A,111.2992,30.6981,宜昌市,白龙岗,,41,41,46,19,18,195,53,38,38,29,25,6,7,0.5,0.4
2022-06-17T09:00:00,1841A,111.3549,30.6465,宜昌市,伍家岗,,39,39,58,27,20,205,39,23,23,34,33,6,7,0.6,0.5
2022-06-17T09:00:00,1842A,111.2628,30.6961,宜昌市,点军区,,44,44,54,24,22,184,63,34,31,20,32,7,7,0.4,0.4
2022-06-17T09:00:00,1843A,111.3275,30.7819,宜昌市,夷陵区,,46,46,46,14,17,202,57,60,43,24,26,6,7,0.4,0.4
2022-06-17T09:00:00,1844A,112.2494,30.3197,荆州市,市图书馆,颗粒物(PM10),55,60,43,26,24,160,90,92,81,13,11,13,10,0.6,0.5
2022-06-17T09:00:00,1845A,112.2008,30.3544,荆州市,市委党校,颗粒物(PM10),52,53,41,24,22,148,88,92,79,15,10,12,10,0.6,0.5
2022-06-17T09:00:00,1847A,113.1094,29.3578,岳阳市,南湖风景区,,41,41,38,26,22,164,37,68,43,17,12,23,18,0.7,0.6
2022-06-17T09:00:00,1848A,113.1493,29.4251,岳阳市,城陵矶,,41,41,39,28,23,143,48,70,44,19,14,12,17,0.7,0.7
2022-06-17T09:00:00,1849A,113.1497,29.3575,岳阳市,开发区,,43,43,44,12,18,171,43,58,38,16,13,16,13,0.7,0.7
2022-06-17T09:00:00,1850A,113.2621,29.4758,岳阳市,云溪区,,31,31,31,20,19,154,62,80,61,8,10,12,12,0.8,0.8
2022-06-17T09:00:00,1851A,112.9943,29.4402,岳阳市,君山区,,29,28,33,20,23,154,45,61,42,11,9,10,8,0.8,0.7
2022-06-17T09:00:00,1852A,113.2117,29.355,岳阳市,金凤水库(对照点),,36,30,31,25,20,145,44,43,41,12,12,5,7,0.6,0.5
2022-06-17T09:00:00,1854A,111.6975,28.9703,常德市,市二中,,29,26,38,20,23,96,73,80,72,9,7,11,12,0.4,0.5
2022-06-17T09:00:00,1857A,111.7158,29.1456,常德市,白鹤山(对照点),,29,29,31,14,16,89,68,78,64,10,6,8,7,0.3,0.3
2022-06-17T09:00:00,1858A,110.5319,29.1217,张家界市,永定新区,,30,26,29,21,18,120,56,77,60,22,10,1,2,0.4,0.3
2022-06-17T09:00:00,1860A,110.5594,29.3547,张家界市,未央路,,18,11,20,7,7,109,57,50,50,15,7,2,2,0.3,0.3
2022-06-17T09:00:00,1861A,110.4417,29.315,张家界市,袁家界(对照点),,35,25,25,6,7,128,110,107,107,6,6,2,3,0.3,0.3
2022-06-17T09:00:00,1862A,110.4144,25.3167,桂林市,电子科大尧山校区(对照点),,17,12,18,8,8,73,52,46,46,5,4,8,8,0.6,0.6
2022-06-17T09:00:00,1863A,110.2819,25.2697,桂林市,监测站,,15,8,18,10,9,84,38,42,42,18,12,6,6,0.6,0.6
2022-06-17T09:00:00,1864A,110.3089,25.2708,桂林市,龙隐路小学,,24,24,17,14,11,75,34,41,41,16,12,8,6,0.6,0.5
2022-06-17T09:00:00,1865A,110.2869,25.2178,桂林市,八中,,11,0,13,2,4,78,35,40,40,18,13,6,6,0.8,0.7
2022-06-17T09:00:00,1866A,109.2262,21.588,北海市,牛尾岭水库(对照点),,21,21,21,12,10,62,25,52,31,7,5,4,4,0.5,0.4
2022-06-17T09:00:00,1867A,109.1436,21.4086,北海市,海滩公园,,27,27,33,7,5,78,62,70,58,4,3,3,3,0.4,0.5
2022-06-17T09:00:00,1868A,109.0981,21.4661,北海市,新市环保局,,24,24,18,9,9,71,64,66,55,2,3,2,2,0.6,0.5
2022-06-17T09:00:00,1869A,109.1778,21.5233,北海市,北海工业园,,22,22,26,7,8,69,31,64,45,8,5,4,4,0.5,0.5
2022-06-17T09:00:00,1870A,109.4856,24.3895,柳州市,柳东小学,,15,7,15,10,12,58,12,37,24,20,7,4,4,1.2,0.7
2022-06-17T09:00:00,1871A,109.4157,24.3277,柳州市,环保监测站,,13,6,12,4,8,64,15,46,28,26,11,8,7,0.9,0.7
2022-06-17T09:00:00,1872A,109.389,24.341,柳州市,河西水厂,,22,2,14,15,9,63,16,45,28,21,12,9,8,1.2,0.9
2022-06-17T09:00:00,1873A,109.4311,24.2921,柳州市,市四中,,14,12,17,9,14,63,14,36,26,27,13,7,6,0.7,0.6
2022-06-17T09:00:00,1874A,109.4006,24.3631,柳州市,市九中,,13,12,14,0,10,68,10,28,21,25,11,8,6,1.1,0.9
2022-06-17T09:00:00,1875A,109.4958,24.3134,柳州市,古亭山,,12,8,14,8,9,64,11,30,23,23,13,4,3,1.0,0.7
2022-06-17T09:00:00,1876A,109.5078,18.2489,三亚市,河东子站,,18,18,17,6,6,68,51,57,50,5,4,2,2,0.4,0.4
2022-06-17T09:00:00,1877A,109.4964,18.2681,三亚市,河西子站,,18,18,12,6,5,53,48,52,46,4,5,2,2,0.2,0.2
2022-06-17T09:00:00,1878A,104.7778,31.4741,绵阳市,富乐山,细颗粒物(PM2.5),52,47,45,36,30,168,44,78,49,32,18,8,7,0.8,0.6
2022-06-17T09:00:00,1879A,104.7563,31.4535,绵阳市,市人大,颗粒物(PM10),58,66,52,28,28,164,53,89,49,37,23,11,7,0.7,0.5
2022-06-17T09:00:00,1880A,104.6697,31.4668,绵阳市,高新区自来水公司,颗粒物(PM10),60,70,65,37,35,190,66,30,29,35,31,8,7,0.8,0.7
2022-06-17T09:00:00,1881A,104.7287,31.5075,绵阳市,三水厂,颗粒物(PM10),66,82,63,37,35,177,40,41,27,41,32,7,7,1.0,0.7
2022-06-17T09:00:00,1882A,104.563,28.793,宜宾市,石马中学(对照点),,33,31,35,23,24,144,37,39,32,14,12,4,6,0.5,0.5
2022-06-17T09:00:00,1883A,104.6201,28.7728,宜宾市,市委,,,43,41,28,25,134,,52,32,,22,,9,,0.5
2022-06-17T09:00:00,1884A,104.6055,28.793,宜宾市,宜宾四中,,45,43,42,31,26,139,46,50,43,20,20,6,7,0.6,0.6
2022-06-17T09:00:00,1885A,104.639,28.7562,宜宾市,市政府,,44,44,44,29,25,116,32,30,30,28,29,5,6,0.6,0.6
2022-06-17T09:00:00,1886A,104.5742,28.7199,宜宾市,黄金嘴,,40,40,39,26,22,154,43,33,33,21,26,7,7,0.5,0.5
2022-06-17T09:00:00,1888A,101.6891,26.571,攀枝花市,弄弄坪,细颗粒物(PM2.5),78,88,63,57,44,102,12,29,18,45,31,9,7,3.4,1.3
2022-06-17T09:00:00,1889A,101.5769,26.5928,攀枝花市,河门口,细颗粒物(PM2.5),60,62,59,43,43,112,22,35,23,25,30,3,16,2.8,2.5
2022-06-17T09:00:00,1890A,101.7169,26.585,攀枝花市,炳草岗,细颗粒物(PM2.5),72,87,57,52,42,92,10,8,4,38,34,13,15,2.2,1.3
2022-06-17T09:00:00,1891A,101.7369,26.5008,攀枝花市,仁和,,50,49,83,35,61,122,28,29,18,17,18,11,16,1.1,1.1
2022-06-17T09:00:00,1893A,105.4324,28.9634,泸州市,九狮山(对照点),,29,27,22,20,9,120,18,32,14,26,18,11,7,0.5,0.3
2022-06-17T09:00:00,1894A,105.4427,28.9063,泸州市,小市上码头,颗粒物(PM10),55,60,33,19,15,114,18,42,26,32,18,13,10,1.2,0.6
2022-06-17T09:00:00,1895A,105.4241,28.8573,泸州市,兰田宪桥,颗粒物(PM10),52,54,34,19,10,107,8,30,16,26,17,14,8,0.7,0.5
2022-06-17T09:00:00,1896A,105.4379,28.8833,泸州市,市环监站,颗粒物(PM10),54,58,32,8,10,103,8,47,31,42,21,14,8,0.7,0.5
2022-06-17T09:00:00,1901A,104.4239,31.1208,德阳市,东山公园,颗粒物(PM10),53,56,44,29,21,150,42,96,66,42,23,9,9,0.7,0.5
2022-06-17T09:00:00,1902A,104.3826,31.1317,德阳市,西小区,颗粒物(PM10),65,79,56,24,19,154,43,86,45,46,29,12,11,0.8,0.6
2022-06-17T09:00:00,1904A,104.3553,31.1091,德阳市,耐火材料厂,颗粒物(PM10),70,90,63,34,23,164,60,72,42,45,36,11,9,0.7,0.5
2022-06-17T09:00:00,1905A,106.056,30.8064,南充市,西山风景区(对照点),细颗粒物(PM2.5),52,39,38,36,27,102,43,81,43,16,15,3,3,0.7,0.6
2022-06-17T09:00:00,1906A,106.0789,30.8023,南充市,南充市委,细颗粒物(PM2.5),52,52,47,36,29,90,37,39,31,25,19,4,3,0.8,0.6
2022-06-17T09:00:00,1907A,106.1031,30.8217,南充市,南充炼油厂,,,58,55,35,29,114,53,38,28,8,16,3,6,,0.6
2022-06-17T09:00:00,1908A,106.1064,30.7856,南充市,高坪区监测站,颗粒物(PM10),51,51,48,34,33,107,46,59,41,30,22,2,16,0.8,0.7
2022-06-17T09:00:00,1909A,106.0642,30.7636,南充市,嘉陵区环保局,颗粒物(PM10),65,80,54,43,35,81,54,40,38,36,23,11,10,1.0,0.6
2022-06-17T09:00:00,1910A,106.1087,30.8388,南充市,市环境监测站,颗粒物(PM10),62,74,52,39,31,99,36,42,35,33,26,1,2,0.6,0.5
2022-06-17T09:00:00,1911A,106.9222,27.6869,遵义市,丁字口,,30,27,21,21,18,119,39,92,67,24,14,6,6,0.7,0.5
2022-06-17T09:00:00,1912A,106.9242,27.7019,遵义市,凤凰山,,22,15,17,15,12,103,27,79,52,17,11,5,5,0.7,0.5
2022-06-17T09:00:00,1913A,106.8906,27.6486,遵义市,忠庄,,29,29,26,13,14,89,37,52,40,12,10,1,2,0.4,0.4
2022-06-17T09:00:00,1914A,106.9231,27.6506,遵义市,舟水桥,,19,19,24,13,10,93,39,58,41,9,8,1,1,0.5,0.4
2022-06-17T09:00:00,1915A,106.9178,27.72,遵义市,干田坝,,25,25,20,14,10,104,31,73,44,16,11,5,5,0.7,0.6
2022-06-17T09:00:00,1917A,103.8,25.5364,曲靖市,烟厂办公区,,26,26,29,13,16,100,56,50,50,9,11,7,6,0.6,0.8
2022-06-17T09:00:00,1918A,108.7197,34.3956,咸阳市,气象站(对照点),颗粒物(PM10),56,62,57,11,16,183,61,48,30,48,43,6,6,0.8,0.7
2022-06-17T09:00:00,1919A,108.673,34.3155,咸阳市,实验中学,颗粒物(PM10),53,56,42,16,17,188,70,70,50,40,27,4,3,0.6,0.4
2022-06-17T09:00:00,1920A,108.7233,34.3617,咸阳市,师范学院,,,65,57,17,22,201,66,64,47,39,33,8,13,,0.4
2022-06-17T09:00:00,1922A,109.0656,35.0994,铜川市,党校(对照点),,38,38,47,13,20,182,69,52,51,30,42,8,9,0.8,0.8
2022-06-17T09:00:00,1923A,109.0697,35.0697,铜川市,王益区政府,,41,41,47,15,22,190,84,52,52,27,29,15,7,0.7,0.5
2022-06-17T09:00:00,1924A,108.9344,34.9058,铜川市,新区管委会,,42,42,38,16,18,176,79,92,88,32,20,16,18,0.5,0.4
2022-06-17T09:00:00,1926A,109.4131,36.6275,延安市,枣园(对照点),,37,37,34,15,13,167,59,50,36,20,24,4,4,0.5,0.4
2022-06-17T09:00:00,1927A,109.4761,36.6028,延安市,延大医附院,,35,35,37,15,13,169,47,30,30,34,31,4,4,0.4,0.4
2022-06-17T09:00:00,1929A,109.5056,36.6106,延安市,百米大道,,50,50,45,15,16,156,53,44,40,39,32,5,4,0.7,0.5
2022-06-17T09:00:00,1930A,107.185,34.3063,宝鸡市,庙沟村(对照点),,32,32,27,17,14,161,89,104,96,8,8,4,5,0.6,0.5
2022-06-17T09:00:00,1931A,107.0708,34.3017,宝鸡市,竹园沟,,30,13,25,21,16,159,72,104,81,23,10,4,4,0.4,0.4
2022-06-17T09:00:00,1932A,107.1906,34.3672,宝鸡市,三陆医院,颗粒物(PM10),53,56,40,28,19,162,73,100,52,28,22,10,8,0.6,0.4
2022-06-17T09:00:00,1933A,107.1431,34.3547,宝鸡市,监测站,,30,30,29,21,16,160,84,99,73,25,19,5,5,0.6,0.5
2022-06-17T09:00:00,1934A,107.1186,34.3739,宝鸡市,技工学校,,,33,45,20,17,163,,90,80,16,16,5,5,0.4,0.3
2022-06-17T09:00:00,1935A,107.3906,34.3528,宝鸡市,陈仓区环保局家属楼,颗粒物(PM10),55,59,38,17,17,165,73,96,55,26,16,8,7,0.7,0.5
2022-06-17T09:00:00,1936A,107.2058,34.3497,宝鸡市,文理学院,,42,33,31,29,24,169,88,84,75,24,18,9,7,0.4,0.3
2022-06-17T09:00:00,1937A,107.2386,34.3622,宝鸡市,三迪小学,颗粒物(PM10),51,51,37,27,18,175,72,104,66,34,20,10,7,0.4,0.3
2022-06-17T09:00:00,1938A,109.5293,34.5101,渭南市,农科所(对照点),,46,46,47,27,27,220,63,88,56,46,33,16,11,0.4,0.5
2022-06-17T09:00:00,1939A,109.4974,34.4877,渭南市,日报社,颗粒物(PM10),53,56,47,19,18,198,68,75,44,39,37,14,9,0.6,0.5
2022-06-17T09:00:00,1940A,109.4636,34.493,渭南市,体育馆,颗粒物(PM10),60,70,49,24,16,225,69,78,49,51,37,13,10,0.6,0.4
2022-06-17T09:00:00,1941A,109.4259,34.5023,渭南市,高新一小,颗粒物(PM10),76,102,63,29,18,211,56,72,33,50,36,9,9,0.7,0.5
2022-06-17T09:00:00,1943A,102.1725,38.5339,金昌市,新川苑,颗粒物(PM10),66,81,57,12,12,180,85,91,86,21,17,17,16,0.5,0.5
2022-06-17T09:00:00,1944A,102.1692,38.5167,金昌市,天庆家园,颗粒物(PM10),83,115,56,32,16,179,91,99,74,28,19,74,51,0.7,0.6
2022-06-17T09:00:00,1945A,98.2908,39.7711,嘉峪关市,气象局,颗粒物(PM10),57,63,54,19,19,164,83,94,94,21,31,15,15,0.6,0.6
2022-06-17T09:00:00,1947A,106.3394,38.817,石嘴山市,沙湖旅游区(对照点),颗粒物(PM10),54,58,72,21,16,209,90,84,77,17,23,42,43,0.4,0.4
2022-06-17T09:00:00,1948A,106.3668,39.0145,石嘴山市,大武口朝阳西街,颗粒物(PM10),51,52,56,17,19,176,90,96,85,17,22,18,16,0.5,0.6
2022-06-17T09:00:00,1949A,106.7704,39.2282,石嘴山市,惠农南大街,颗粒物(PM10),63,76,82,24,23,250,83,76,49,22,42,12,25,0.5,0.7
2022-06-17T09:00:00,1950A,106.7099,39.1325,石嘴山市,红果子镇惠新街,颗粒物(PM10),72,94,106,22,28,246,88,70,56,23,39,19,28,0.4,0.7
2022-06-17T09:00:00,1951A,84.895,45.6094,克拉玛依市,长征新村,,27,17,13,6,4,101,84,100,86,8,10,6,6,0.1,0.2
2022-06-17T09:00:00,1952A,84.8988,45.5893,克拉玛依市,南林小区,,29,22,12,3,10,107,90,106,92,9,12,8,8,0.3,0.3
2022-06-17T09:00:00,1954A,84.905,44.3396,克拉玛依市,独山子区,,26,20,12,7,7,112,83,112,98,10,8,6,6,0.3,0.3
2022-06-17T09:00:00,1955A,85.6979,46.098,克拉玛依市,乌尔禾区商贸楼,,29,29,16,0,7,113,55,75,69,12,6,9,10,0.1,0.1
2022-06-17T09:00:00,1956A,86.1472,41.7538,巴音郭楞州,孔雀公园,,30,29,78,2,18,110,94,105,105,12,11,2,2,0.5,0.5
2022-06-17T09:00:00,1957A,86.1972,41.7166,巴音郭楞州,棉纺厂,,40,40,111,15,20,102,90,98,97,12,13,3,4,0.2,0.2
2022-06-17T09:00:00,1958A,86.2357,41.7173,巴音郭楞州,经济开发区,,35,35,104,5,24,124,103,105,105,6,7,2,3,0.2,0.2
2022-06-17T09:00:00,1961A,117.532,36.6868,济南市,东山小学,,44,34,56,5,24,242,140,194,141,12,18,8,11,0.1,0.4
2022-06-17T09:00:00,1966A,120.0405,35.8735,青岛市,黄岛区4号,,32,14,25,2,14,192,100,172,139,32,11,5,5,0.7,0.5
2022-06-17T09:00:00,1982A,122.0693,37.2174,威海市,文登开发区,,39,39,26,19,16,145,98,142,104,17,9,5,5,0.4,0.3
2022-06-17T09:00:00,2031A,113.1817,27.9958,株洲市,云田中学,,20,17,28,14,16,91,38,34,26,9,12,5,7,0.7,0.7
2022-06-17T09:00:00,2054A,114.1099,32.1059,信阳市,平桥分局,,35,31,38,13,27,170,110,123,102,7,8,9,10,0.4,0.4
2022-06-17T09:00:00,2064A,113.9956,32.1271,信阳市,南湾水厂,,39,27,35,27,25,178,108,128,104,3,4,7,6,0.5,0.5
2022-06-17T09:00:00,2065A,114.0775,32.1195,信阳市,市酿酒公司,,35,31,42,20,25,173,111,126,104,6,6,8,8,0.2,0.4
2022-06-17T09:00:00,2066A,114.0609,32.1399,信阳市,审计局,,36,28,41,22,23,171,113,131,107,5,5,8,6,0.6,0.6
2022-06-17T09:00:00,2067A,114.6613,33.6128,周口市,市环境监测站,颗粒物(PM10),53,56,52,24,18,190,110,119,100,15,14,5,5,0.4,0.4
2022-06-17T09:00:00,2068A,114.6758,33.6347,周口市,周口师范,,43,43,51,23,19,189,108,115,96,17,15,4,4,0.5,0.4
2022-06-17T09:00:00,2069A,114.6546,33.5979,周口市,市运管处,颗粒物(PM10),51,51,55,26,22,183,105,113,92,16,16,4,4,0.7,0.6
2022-06-17T09:00:00,2070A,114.6369,33.6406,周口市,川汇区环保局,颗粒物(PM10),52,53,50,24,21,193,107,118,98,16,14,1,2,0.6,0.5
2022-06-17T09:00:00,2075A,117.6336,24.4674,漳州市,九湖(对照点),,,,,,,45,10,11,7,19,23,6,6,0.5,0.6
2022-06-17T09:00:00,2160A,112.85,35.5051,晋城市,自来水公司,颗粒物(PM10),65,80,54,41,29,218,98,59,54,49,41,18,12,1.3,0.7
2022-06-17T09:00:00,2161A,112.8318,35.4936,晋城市,白云商贸,颗粒物(PM10),61,71,69,34,23,215,100,78,70,39,28,16,15,1.0,0.6
2022-06-17T09:00:00,2162A,112.8508,35.4887,晋城市,市环保局,颗粒物(PM10),66,81,63,39,28,216,90,56,50,50,40,15,11,0.9,0.5
2022-06-17T09:00:00,2163A,112.8676,35.4897,晋城市,技术学院,颗粒物(PM10),61,72,62,39,23,222,93,64,59,50,39,11,6,1.0,0.5
2022-06-17T09:00:00,2165A,112.8453,35.546,晋城市,白马寺 (对照点),,,81,60,,17,272,145,207,170,26,19,15,22,0.8,0.6
2022-06-17T09:00:00,2166A,112.4397,39.3522,朔州市,平朔,细颗粒物(PM2.5),95,124,72,71,32,165,140,111,111,31,23,12,8,1.1,0.6
2022-06-17T09:00:00,2167A,112.4575,39.3617,朔州市,朔唯,细颗粒物(PM2.5),94,112,78,70,33,167,156,131,112,26,26,12,7,0.9,0.6
2022-06-17T09:00:00,2168A,112.4258,39.3197,朔州市,区政府,颗粒物(PM10),104,158,84,58,24,173,136,144,137,34,22,14,10,1.1,0.7
2022-06-17T09:00:00,2169A,112.4072,39.3278,朔州市,市环保局,颗粒物(PM10),90,130,88,48,25,163,143,118,111,33,24,13,8,1.0,0.6
2022-06-17T09:00:00,2170A,112.4272,39.3681,朔州市,市二中,细颗粒物(PM2.5),105,,75,79,37,162,,104,96,30,25,12,11,0.8,0.5
2022-06-17T09:00:00,2171A,112.7532,37.6945,晋中市,锦纶小区,细颗粒物(PM2.5),114,132,116,86,56,270,162,234,186,22,18,9,10,0.9,0.7
2022-06-17T09:00:00,2173A,112.7249,37.7067,晋中市,南都小区,细颗粒物(PM2.5),95,121,121,71,57,237,170,201,176,28,24,7,10,0.8,0.7
2022-06-17T09:00:00,2174A,112.6991,37.6982,晋中市,榆次区政府,,,135,122,60,55,254,184,220,198,24,16,,11,0.8,0.7
2022-06-17T09:00:00,2175A,110.9956,35.0147,运城市,运城中学,颗粒物(PM10),69,88,74,49,38,232,91,70,51,34,24,13,10,0.7,0.6
2022-06-17T09:00:00,2178A,110.9686,35.0303,运城市,地区技校,颗粒物(PM10),74,98,75,40,31,218,91,49,36,30,32,11,8,0.8,0.7
2022-06-17T09:00:00,2179A,111.0414,35.1147,运城市,空港新区,颗粒物(PM10),90,130,93,40,36,245,88,65,42,30,24,12,13,0.9,0.7
2022-06-17T09:00:00,2181A,112.7383,38.4519,忻州市,开发区,细颗粒物(PM2.5),103,128,103,77,61,329,142,262,162,23,19,22,21,0.8,0.8
2022-06-17T09:00:00,2182A,112.7003,38.4928,忻州市,会展中心,细颗粒物(PM2.5),104,125,100,78,56,304,120,207,122,30,20,19,17,1.0,0.9
2022-06-17T09:00:00,2183A,111.1406,37.5211,吕梁市,环保局,颗粒物(PM10),77,104,78,18,16,165,71,32,32,52,48,4,3,0.4,0.4
2022-06-17T09:00:00,2185A,111.1297,37.5136,吕梁市,自来水公司,颗粒物(PM10),81,111,85,18,14,174,59,27,27,56,47,1,3,0.6,0.6
2022-06-17T09:00:00,2187A,106.8174,39.6973,乌海市,市林业局,颗粒物(PM10),79,108,78,28,26,243,78,90,87,40,27,41,32,1.1,0.9
2022-06-17T09:00:00,2188A,106.7907,39.6667,乌海市,中海勃湾学校,颗粒物(PM10),88,126,72,38,27,254,94,72,72,20,40,24,34,0.6,0.7
2022-06-17T09:00:00,2191A,122.2532,43.6801,通辽市,艺术职业学校,,31,31,48,8,22,107,94,58,57,12,28,5,6,0.4,0.5
2022-06-17T09:00:00,2192A,119.7594,49.2261,呼伦贝尔市,区环保局,,39,39,33,11,20,96,54,28,28,15,16,8,6,0.4,0.3
2022-06-17T09:00:00,2195A,107.4212,40.761,巴彦淖尔市,附二中,颗粒物(PM10),96,142,78,47,24,164,63,80,28,36,30,18,18,0.8,0.6
2022-06-17T09:00:00,2196A,107.37,40.7372,巴彦淖尔市,市环保大楼,颗粒物(PM10),82,113,64,43,25,148,62,83,41,29,29,15,18,0.7,0.6
2022-06-17T09:00:00,2197A,113.1306,40.9923,乌兰察布市,集宁新区,细颗粒物(PM2.5),79,93,49,58,23,174,98,121,90,41,19,22,13,1.2,0.5
2022-06-17T09:00:00,2200A,122.0392,46.0656,兴安盟,胜华新制药厂,,29,21,20,20,12,106,61,49,41,6,8,2,2,0.2,0.2
2022-06-17T09:00:00,2201A,121.9504,46.0741,兴安盟,科右前旗环保局,,21,12,17,6,13,111,66,37,35,6,10,3,3,0.2,0.2
2022-06-17T09:00:00,2202A,116.1042,43.9317,锡林郭勒盟,市环保监测站,,23,23,15,6,6,124,58,75,62,24,8,13,13,0.6,0.4
2022-06-17T09:00:00,2203A,116.0781,43.9311,锡林郭勒盟,市政府,,20,16,13,2,4,131,62,81,61,20,9,10,8,0.7,0.6
2022-06-17T09:00:00,2204A,105.6467,38.8363,阿拉善盟,西城区西花园(对照点),,43,26,36,12,13,160,135,126,121,6,7,43,30,0.3,0.4
2022-06-17T09:00:00,2205A,105.6985,38.8411,阿拉善盟,蒙二幼,,41,35,48,18,15,165,131,131,124,10,7,8,10,0.2,0.3
2022-06-17T09:00:00,2206A,105.724,38.8516,阿拉善盟,环保局新楼,,46,26,28,19,16,170,146,136,126,7,8,8,9,0.3,0.3
2022-06-17T09:00:00,2207A,121.6094,41.998,阜新市,工业园区,,49,49,47,33,34,157,103,142,96,17,14,19,14,0.8,0.8
2022-06-17T09:00:00,2208A,121.6697,42.0279,阜新市,长青街,,35,35,39,22,26,142,100,134,95,15,12,18,16,0.7,0.7
2022-06-17T09:00:00,2209A,121.6673,42.0705,阜新市,农业园区,,46,42,45,32,32,153,103,139,99,14,11,16,12,0.8,0.8
2022-06-17T09:00:00,2210A,121.6717,42.0224,阜新市,东苑,,45,45,61,28,33,147,107,140,100,20,16,20,15,0.7,0.7
2022-06-17T09:00:00,2211A,121.6506,42.0498,阜新市,玉龙新城,,36,36,46,20,25,148,101,132,93,16,12,18,13,0.6,0.6
2022-06-17T09:00:00,2212A,123.2,41.1953,辽阳市,宏伟区,,31,21,39,9,14,137,98,106,101,6,10,7,10,0.4,0.5
2022-06-17T09:00:00,2213A,123.1683,41.2495,辽阳市,新华园,,31,18,38,9,17,140,99,104,100,10,15,6,9,0.4,0.6
2022-06-17T09:00:00,2214A,123.2354,41.2639,辽阳市,滨河路,,29,20,34,9,16,148,90,98,93,11,12,9,10,0.3,0.5
2022-06-17T09:00:00,2215A,123.149,41.2991,辽阳市,铁西工业园,,28,27,41,14,21,153,88,101,94,16,18,6,10,0.5,0.9
2022-06-17T09:00:00,2216A,123.8139,42.3022,铁岭市,汇工街西,,43,43,55,16,22,156,105,100,100,25,23,9,8,0.7,0.7
2022-06-17T09:00:00,2217A,123.8649,42.2923,铁岭市,水上乐园,,36,15,40,23,32,146,113,94,94,21,24,9,7,0.6,0.6
2022-06-17T09:00:00,2218A,123.8486,42.2867,铁岭市,银州路东段,颗粒物(PM10),51,51,57,13,18,139,103,94,94,29,28,9,7,0.7,0.6
2022-06-17T09:00:00,2219A,123.7153,42.2217,铁岭市,金沙江路北,,44,44,42,15,19,146,90,84,84,33,29,8,7,0.9,0.7
2022-06-17T09:00:00,2220A,120.4318,41.5881,朝阳市,西梁,细颗粒物(PM2.5),73,82,58,53,32,153,108,118,96,19,11,17,17,1.5,1
2022-06-17T09:00:00,2221A,120.4521,41.5646,朝阳市,河畔小区,细颗粒物(PM2.5),85,77,56,63,43,154,117,125,107,14,9,10,10,1.0,0.8
2022-06-17T09:00:00,2222A,120.4176,41.5648,朝阳市,八里堡,细颗粒物(PM2.5),58,53,57,41,35,149,116,109,91,19,15,9,8,1.3,1
2022-06-17T09:00:00,2223A,120.3806,41.5969,朝阳市,农业园区,颗粒物(PM10),59,68,57,40,39,155,155,94,75,9,16,12,10,1.3,1.1
2022-06-17T09:00:00,2225A,124.4002,43.1713,四平市,一商场,,50,50,49,24,27,140,111,132,104,22,23,7,2,0.6,0.4
2022-06-17T09:00:00,2226A,124.388,43.193,四平市,境园,,36,36,40,22,23,125,94,122,91,17,16,8,4,0.7,0.7
2022-06-17T09:00:00,2227A,125.1358,42.8845,辽源市,环保局,,38,23,26,18,20,152,119,127,120,5,7,5,5,0.6,0.6
2022-06-17T09:00:00,2229A,125.9358,41.7173,通化市,光明,,26,9,19,8,12,117,82,104,92,8,6,7,7,0.8,0.6
2022-06-17T09:00:00,2230A,125.9446,41.7325,通化市,铁路,,25,7,19,6,12,114,77,98,85,10,7,6,6,0.5,0.6
2022-06-17T09:00:00,2231A,126.4219,41.9171,白山市,喜丰,,30,30,49,10,18,122,77,76,76,16,16,11,10,0.8,0.9
2022-06-17T09:00:00,2232A,126.4077,41.9419,白山市,环保局,,26,26,39,18,22,132,81,82,82,18,15,10,9,0.8,0.8
2022-06-17T09:00:00,2233A,124.8006,45.1214,松原市,江南,,20,2,16,2,3,101,64,60,60,10,12,5,4,0.0,0.4
2022-06-17T09:00:00,2234A,124.7965,45.1722,松原市,江北,,25,10,17,3,10,123,79,100,75,9,9,3,2,0.4,0.5
2022-06-17T09:00:00,2235A,122.7911,45.6077,白城市,洮北区环保局,,22,19,15,7,5,118,68,48,41,11,16,4,9,0.0,0.1
2022-06-17T09:00:00,2236A,122.8738,45.5725,白城市,市环保局,,23,17,21,9,11,119,72,63,57,8,12,5,5,0,0
2022-06-17T09:00:00,2237A,129.47,42.8883,延边朝鲜族自治州,妇幼医院,,39,35,23,27,16,119,28,25,12,39,26,10,7,0.7,0.5
2022-06-17T09:00:00,2238A,129.5055,42.9108,延边朝鲜族自治州,延边医院,,,,56,39,30,124,30,10,10,42,33,6,5,0.7,0.6
2022-06-17T09:00:00,2239A,129.3964,42.8881,延边朝鲜族自治州,朝阳川镇医院,,33,33,27,18,11,117,26,10,10,35,28,5,5,0.5,0.5
2022-06-17T09:00:00,2240A,130.9762,45.3001,鸡西市,环保局,,26,21,24,8,10,115,81,66,66,23,27,5,5,0.3,0.3
2022-06-17T09:00:00,2243A,130.9429,45.3039,鸡西市,第一中学,,29,16,26,7,10,127,92,72,72,18,22,6,7,0.2,0.2
2022-06-17T09:00:00,2244A,130.2537,47.3416,鹤岗市,哈啤分公司,,27,5,15,4,7,136,85,46,46,16,13,10,8,0.4,0.4
2022-06-17T09:00:00,2245A,130.2684,47.3086,鹤岗市,斯达机电,,24,14,23,5,7,128,74,58,58,16,12,10,8,0.3,0.3
2022-06-17T09:00:00,2246A,130.3114,47.3388,鹤岗市,东山纸板厂,,22,10,23,5,7,120,69,57,57,22,14,10,9,0.4,0.4
2022-06-17T09:00:00,2247A,130.1097,47.3382,鹤岗市,五号水库(对照点),,,,11,,6,129,86,44,44,8,11,8,8,0.3,0.3
2022-06-17T09:00:00,2248A,131.1511,46.6937,双鸭山市,双合村,,,5,24,,11,136,79,78,65,14,15,7,10,0.2,0.4
2022-06-17T09:00:00,2249A,131.1652,46.6191,双鸭山市,南小市,,23,22,24,11,13,128,72,61,61,10,8,4,5,0.1,0.1
2022-06-17T09:00:00,2250A,131.1524,46.6554,双鸭山市,环保局,,21,13,15,6,8,135,65,78,60,17,11,4,4,0.4,0.3
2022-06-17T09:00:00,2252A,128.5159,47.4311,伊春市,环保局,,16,10,10,11,9,103,39,25,24,10,6,6,5,0.1,0.1
2022-06-17T09:00:00,2253A,128.9102,47.7412,伊春市,电力嘉园,,16,14,21,7,12,116,50,30,28,6,8,6,6,0.5,0.6
2022-06-17T09:00:00,2254A,129.5029,48.471,伊春市,汤旺河国家公园(对照点),,20,6,12,0,6,94,62,20,20,4,3,5,6,0.3,0.3
2022-06-17T09:00:00,2255A,130.2751,46.8028,佳木斯市,佳纺,,26,22,18,16,13,120,81,81,70,10,13,4,3,0.4,0.4
2022-06-17T09:00:00,2256A,130.3995,46.8307,佳木斯市,发电厂,,27,15,21,12,12,134,86,94,82,14,12,5,5,0.2,0.2
2022-06-17T09:00:00,2257A,130.3258,46.7975,佳木斯市,环保局,,28,22,21,16,12,132,87,90,80,10,11,2,2,0.4,0.4
2022-06-17T09:00:00,2258A,130.3648,46.8032,佳木斯市,十一中,,28,26,30,19,18,122,86,95,83,17,17,5,5,0.3,0.3
2022-06-17T09:00:00,2259A,130.3794,46.7588,佳木斯市,四丰(对照点),,27,10,16,15,13,129,86,98,82,10,11,3,4,0.4,0.4
2022-06-17T09:00:00,2262A,131.0518,45.8751,七台河市,新一中(对照点),,26,6,15,6,11,152,83,28,28,22,31,10,8,0.7,0.6
2022-06-17T09:00:00,2263A,127.4833,50.2524,黑河市,交通局,,21,5,12,7,9,103,67,60,51,7,10,6,6,0.3,0.3
2022-06-17T09:00:00,2264A,127.5144,50.2341,黑河市,环保局,,23,19,16,10,11,108,72,70,59,7,9,3,4,0.5,0.4
2022-06-17T09:00:00,2265A,127.5291,50.2472,黑河市,大黑河岛(对照点),,,,11,0,10,124,48,64,57,6,8,3,5,0.8,0.5
2022-06-17T09:00:00,2266A,126.9785,46.6365,绥化市,人和东街,,42,23,16,29,18,111,64,74,70,11,15,9,10,0.4,0.5
2022-06-17T09:00:00,2267A,126.964,46.6528,绥化市,党政办公中心,,32,23,16,22,13,105,62,75,68,9,14,8,9,0.4,0.4
2022-06-17T09:00:00,2269A,124.1069,50.4097,大兴安岭地区,科技局,,14,14,12,8,9,77,39,31,27,4,6,5,5,0.2,0.2
2022-06-17T09:00:00,2270A,117.396,32.939,蚌埠市,工人疗养院,,,,41,,22,188,,109,90,10,8,,10,0.4,0.4
2022-06-17T09:00:00,2271A,117.3605,32.9427,蚌埠市,百货大楼,颗粒物(PM10),52,54,45,32,18,192,120,103,91,16,13,14,11,0.5,0.5
2022-06-17T09:00:00,2273A,117.4185,32.8911,蚌埠市,蚌埠学院,颗粒物(PM10),53,56,47,22,18,181,121,108,88,11,10,18,15,0.5,0.4
2022-06-17T09:00:00,2274A,117.3533,32.9673,蚌埠市,淮上区政府,颗粒物(PM10),57,63,51,19,18,194,117,107,90,17,11,17,14,0.5,0.4
2022-06-17T09:00:00,2275A,117.3145,32.8977,蚌埠市,高新区,颗粒物(PM10),53,56,49,24,23,186,120,94,82,18,15,15,14,0.5,0.4
2022-06-17T09:00:00,2277A,116.8305,32.7727,淮南市,潘集区政府,颗粒物(PM10),55,60,47,35,25,166,118,94,81,12,18,9,8,0.3,0.2
2022-06-17T09:00:00,2278A,117.0067,32.6524,淮南市,师范学院,,41,41,46,22,17,167,109,100,91,11,10,8,6,0.4,0.3
2022-06-17T09:00:00,2279A,116.8569,32.5951,淮南市,谢家集区政府,,47,47,38,15,16,149,107,85,82,7,8,5,4,0.3,0.2
2022-06-17T09:00:00,2280A,116.8281,32.633,淮南市,八公山区政府,,50,50,40,23,20,156,103,84,74,9,10,5,5,0.3,0.3
2022-06-17T09:00:00,2281A,116.6325,32.6201,淮南市,焦岗湖风景区管理处(对照点),颗粒物(PM10),52,53,40,19,19,158,111,95,80,9,11,13,11,0.4,0.3
2022-06-17T09:00:00,2282A,116.8004,33.975,淮北市,监测站,颗粒物(PM10),55,59,61,26,25,205,125,105,105,12,10,10,9,0.6,0.5
2022-06-17T09:00:00,2283A,116.8091,33.9007,淮北市,烈山区政府,颗粒物(PM10),53,55,48,29,27,197,123,96,93,13,14,8,8,0.5,0.5
2022-06-17T09:00:00,2284A,116.7856,33.9477,淮北市,职业技术学院,颗粒物(PM10),58,65,53,29,26,190,129,102,101,12,11,8,7,0.7,0.5
2022-06-17T09:00:00,2285A,117.8177,30.9412,铜陵市,市第四中学,,27,27,34,4,14,139,57,60,58,22,15,16,12,1.2,0.9
2022-06-17T09:00:00,2286A,117.8059,30.9273,铜陵市,市公路局,,28,28,35,15,14,126,54,58,56,21,14,21,12,1.0,0.7
2022-06-17T09:00:00,2287A,117.7807,30.9413,铜陵市,市新民污水厂,,25,25,47,17,22,123,60,54,38,12,26,9,28,0.3,0.4
2022-06-17T09:00:00,2288A,117.7439,30.8792,铜陵市,市第九中学,,23,23,47,4,18,118,49,40,32,28,37,6,5,0.4,0.5
2022-06-17T09:00:00,2289A,117.846,30.9413,铜陵市,车站新区,,,,39,,16,140,59,67,64,,15,,12,0.6,0.6
2022-06-17T09:00:00,2290A,117.8483,30.97,铜陵市,市职教基地,,29,29,32,10,14,133,55,59,53,18,14,16,14,0.8,0.7
2022-06-17T09:00:00,2291A,117.0809,30.5177,安庆市,环科院,,22,22,27,12,15,117,62,41,37,4,16,7,7,0.5,0.5
2022-06-17T09:00:00,2292A,117.0331,30.5119,安庆市,马山宾馆,,22,22,24,14,15,127,48,41,27,19,26,3,5,0.5,0.5
2022-06-17T09:00:00,2294A,116.9896,30.6145,安庆市,安庆大学,,24,24,31,16,16,131,63,68,58,9,12,5,5,0.2,0.2
2022-06-17T09:00:00,2295A,118.2903,29.6963,黄山市,延安路89号,颗粒物(PM10),51,52,46,17,10,122,56,39,27,7,6,8,8,0.4,0.4
2022-06-17T09:00:00,2296A,118.327,29.7178,黄山市,黄山东路89号,,38,38,34,14,12,120,61,39,26,5,7,7,8,0.5,0.5
2022-06-17T09:00:00,2297A,118.1371,30.2756,黄山市,黄山区政府5号楼,,20,20,29,12,11,100,51,27,22,3,4,6,6,0.3,0.4
2022-06-17T09:00:00,2298A,118.3093,32.3153,滁州市,老年大学,,35,24,34,14,18,184,109,112,98,9,10,13,14,0.3,0.3
2022-06-17T09:00:00,2299A,118.3244,32.2786,滁州市,人大宾馆,,32,19,31,6,16,182,102,98,84,8,10,7,8,0.3,0.4
2022-06-17T09:00:00,2301A,115.8277,32.8929,阜阳市,市监测站,,38,29,38,17,17,164,120,160,124,11,10,6,6,0.4,0.4
2022-06-17T09:00:00,2303A,115.8554,32.8605,阜阳市,开发区,,40,40,44,19,18,150,115,134,110,12,14,7,7,0.5,0.5
2022-06-17T09:00:00,2307A,116.5079,31.737,六安市,监测大楼,颗粒物(PM10),53,55,32,20,15,166,116,107,100,19,12,8,8,0.4,0.3
2022-06-17T09:00:00,2308A,116.4738,31.7643,六安市,皖西学院,,46,46,37,20,17,179,124,104,104,14,13,9,10,0.4,0.4
2022-06-17T09:00:00,2309A,116.4996,31.7905,六安市,朝阳厂,细颗粒物(PM2.5),52,33,32,36,20,149,113,95,86,6,7,9,8,0.5,0.4
2022-06-17T09:00:00,2310A,116.5567,31.7886,六安市,开发区,颗粒物(PM10),56,61,40,29,20,168,122,97,81,9,8,8,9,0.6,0.5
2022-06-17T09:00:00,2311A,115.8072,33.8399,亳州市,污水处理厂,颗粒物(PM10),51,51,47,21,20,183,113,166,120,10,7,10,9,0.6,0.4
2022-06-17T09:00:00,2312A,115.7789,33.8518,亳州市,三国揽胜宫,,48,48,48,17,17,172,105,148,109,7,7,6,6,0.7,0.6
2022-06-17T09:00:00,2314A,117.47,30.6618,池州市,池州学院,,21,16,28,8,15,122,67,76,58,2,7,4,5,0.4,0.4
2022-06-17T09:00:00,2316A,118.7581,30.9454,宣城市,鳌峰子站,,45,45,33,30,19,108,66,42,42,13,16,9,6,0.5,0.5
2022-06-17T09:00:00,2317A,118.7385,30.9743,宣城市,敬亭山子站,,40,40,33,17,15,119,66,65,59,19,16,5,5,0.4,0.4
2022-06-17T09:00:00,2318A,118.7173,30.9427,宣城市,开发区子站,,35,35,31,21,15,111,66,56,56,10,18,6,5,0.5,0.4
2022-06-17T09:00:00,2319A,119.0141,25.4325,莆田市,荔城区仓后路,,22,22,20,14,10,53,18,11,10,23,24,3,2,1.0,0.8
2022-06-17T09:00:00,2320A,119.0015,25.4553,莆田市,莆田市监测站,,20,20,17,11,11,53,21,17,15,17,18,6,4,0.6,0.5
2022-06-17T09:00:00,2321A,119.1119,25.4561,莆田市,涵江区六中,,33,27,17,23,14,61,15,16,9,30,28,6,4,0.6,0.4
2022-06-17T09:00:00,2322A,119.1013,25.3215,莆田市,秀屿区政府,,29,20,14,20,13,60,16,22,15,19,17,4,4,0.8,0.7
2022-06-17T09:00:00,2324A,117.6211,26.2625,三明市,三钢,,18,18,22,10,13,53,11,11,10,19,22,2,3,0.7,0.8
2022-06-17T09:00:00,2325A,117.635,26.2714,三明市,三明二中,,12,2,24,8,13,46,9,8,8,20,19,2,3,0.9,1
2022-06-17T09:00:00,2326A,117.6028,26.2378,三明市,三元区政府,,20,20,20,6,10,63,9,18,10,21,15,4,4,1.2,0.9
2022-06-17T09:00:00,2327A,117.7275,26.3108,三明市,洋溪(对照点),,12,9,18,8,12,67,16,16,14,13,9,5,5,0.7,0.9
2022-06-17T09:00:00,2331A,118.0966,26.6761,南平市,茫荡山(对照点),,18,0,3,2,4,68,56,61,58,2,1,4,4,0.4,0.4
2022-06-17T09:00:00,2332A,118.1681,26.6369,南平市,南平市监测站,,10,8,17,7,11,61,4,3,3,13,9,5,5,0.9,0.6
2022-06-17T09:00:00,2333A,118.1825,26.6489,南平市,南平铝业有限公司,,15,5,17,10,10,59,6,12,8,10,8,4,5,0.9,0.7
2022-06-17T09:00:00,2334A,118.1756,26.6272,南平市,南平七中,,12,4,16,8,13,63,6,5,4,9,7,4,4,0.8,0.7
2022-06-17T09:00:00,2335A,117.0189,25.1181,龙岩市,龙岩师专(对照点),,13,13,11,4,5,48,22,11,11,17,22,4,5,1.0,0.8
2022-06-17T09:00:00,2336A,117.0217,25.1033,龙岩市,龙岩市监测站,,10,10,13,3,5,50,27,16,16,17,24,4,5,0.9,0.8
2022-06-17T09:00:00,2337A,117.0258,25.0661,龙岩市,闽西职业技术学院,,8,2,14,1,5,46,24,11,11,16,22,5,6,0.5,0.6
2022-06-17T09:00:00,2338A,117.0196,25.0306,龙岩市,龙岩学院,,12,0,8,3,4,44,36,30,26,5,13,4,3,0.3,0.4
2022-06-17T09:00:00,2339A,119.5001,26.6946,宁德市,金涵水库(对照点),,23,13,28,16,19,74,5,4,4,7,16,7,7,0.6,1
2022-06-17T09:00:00,2341A,119.5388,26.6612,宁德市,宁德市监测站,,22,22,32,8,21,69,5,12,5,12,21,6,6,0.9,1
2022-06-17T09:00:00,2342A,117.3102,29.3867,景德镇市,王港中学(对照点),,27,27,45,14,22,174,42,14,14,5,7,6,5,0.5,0.3
2022-06-17T09:00:00,2343A,117.2117,29.2933,景德镇市,老干部活动中心,颗粒物(PM10),53,56,46,33,21,117,35,37,23,15,15,17,13,0.3,0.3
2022-06-17T09:00:00,2344A,117.1894,29.2789,景德镇市,兽医站,,50,50,40,26,19,104,22,32,14,21,20,16,23,0.6,0.5
2022-06-17T09:00:00,2345A,117.1547,29.2617,景德镇市,台达陶瓷,颗粒物(PM10),56,61,45,13,20,101,34,43,15,14,19,25,34,0.6,0.6
2022-06-17T09:00:00,2346A,117.2461,29.2956,景德镇市,陶研所,,50,50,37,23,19,132,40,41,23,9,10,12,9,0.5,0.4
2022-06-17T09:00:00,2347A,114.0997,27.5002,萍乡市,武功山(对照点),,7,7,6,4,5,67,22,40,30,7,5,20,17,0.3,0.2
2022-06-17T09:00:00,2348A,113.8385,27.6434,萍乡市,中医院,,,14,38,35,26,88,,29,15,39,26,14,14,2.0,1.2
2022-06-17T09:00:00,2349A,113.8493,27.6253,萍乡市,市政府车库,,46,46,47,24,30,78,9,31,14,34,27,19,18,1.5,1.3
2022-06-17T09:00:00,2350A,113.8676,27.6435,萍乡市,市环保局,,48,48,44,32,32,85,13,20,14,32,29,18,25,1.4,1.2
2022-06-17T09:00:00,2351A,113.866,27.6198,萍乡市,安源区政府,,38,28,44,26,36,77,6,23,10,26,24,14,21,1.1,1.2
2022-06-17T09:00:00,2352A,115.0861,27.9317,新余市,北岗(对照点),,22,19,17,15,12,76,27,18,18,7,10,7,6,0.5,0.5
2022-06-17T09:00:00,2353A,114.9886,27.8431,新余市,飞宇,,34,34,34,19,16,70,35,26,26,11,14,9,8,0.5,0.5
2022-06-17T09:00:00,2354A,114.9231,27.8246,新余市,第二水厂,,41,41,33,20,19,66,29,34,23,29,23,14,11,1.3,0.9
2022-06-17T09:00:00,2355A,114.9308,27.8036,新余市,市气象局,,25,25,34,15,19,61,42,30,30,13,21,6,13,0.7,1
2022-06-17T09:00:00,2357A,116.9822,28.1136,鹰潭市,龙虎山(对照点),,12,11,20,3,7,70,37,12,12,2,2,2,2,0.4,0.4
2022-06-17T09:00:00,2358A,117.0564,28.2642,鹰潭市,新监测站,,35,35,29,12,10,98,38,11,11,5,11,16,9,0.6,0.4
2022-06-17T09:00:00,2359A,117.0311,28.2475,鹰潭市,财苑宾馆,,29,29,27,7,7,92,24,11,6,6,9,8,9,0.4,0.4
2022-06-17T09:00:00,2360A,117.0222,28.2264,鹰潭市,体育馆,,36,36,24,5,6,88,27,18,14,3,5,12,6,0.4,0.4
2022-06-17T09:00:00,2361A,117.0017,28.2131,鹰潭市,三川水表,,41,41,25,12,8,80,27,12,12,20,6,6,5,0.5,0.5
2022-06-17T09:00:00,2362A,114.9017,25.9149,赣州市,通天岩(对照点),,16,16,23,8,14,76,18,18,16,14,15,6,6,0.5,0.5
2022-06-17T09:00:00,2363A,114.9367,25.8664,赣州市,地委,,21,21,21,9,11,75,21,23,17,19,19,7,7,0.9,0.8
2022-06-17T09:00:00,2364A,114.9461,25.8481,赣州市,气象台,,22,22,21,7,11,62,19,35,17,22,17,5,6,1.0,0.8
2022-06-17T09:00:00,2365A,114.9322,25.8333,赣州市,市图书馆,,13,13,16,6,11,50,10,24,10,21,19,4,4,1.0,0.9
2022-06-17T09:00:00,2366A,114.8905,25.8471,赣州市,华坚鞋城,,14,14,15,8,11,70,16,30,17,21,17,4,3,0.9,0.9
2022-06-17T09:00:00,2367A,114.9754,27.0803,吉安市,红声器材厂,,21,21,35,10,15,93,63,48,48,5,9,5,6,0.5,0.5
2022-06-17T09:00:00,2368A,114.9658,27.0999,吉安市,市森林工业局,,20,18,26,14,18,103,62,53,53,6,9,5,5,0.5,0.5
2022-06-17T09:00:00,2369A,114.99,27.1312,吉安市,市环境监测站,,20,15,30,13,17,99,63,52,52,7,11,5,6,0.3,0.5
2022-06-17T09:00:00,2370A,115.0093,27.0968,吉安市,青原区法院,,21,21,28,10,16,90,61,53,53,7,9,8,12,0.4,0.4
2022-06-17T09:00:00,2371A,114.3408,27.8064,宜春市,槟榔水业(对照点),,45,45,57,19,30,100,18,17,10,15,17,5,12,0.7,0.7
2022-06-17T09:00:00,2373A,114.3956,27.7844,宜春市,市石油公司,,44,44,46,22,21,84,18,23,14,21,18,4,6,0.9,0.7
2022-06-17T09:00:00,2374A,114.3703,27.7914,宜春市,市气象局,,39,39,60,20,26,96,21,34,20,17,17,5,8,0.9,0.8
2022-06-17T09:00:00,2375A,114.4013,27.8074,宜春市,市广电局,颗粒物(PM10),51,51,46,23,24,97,32,36,22,14,13,4,4,1.2,0.9
2022-06-17T09:00:00,2376A,116.2127,28.0814,抚州市,桐源党溪(对照点),,21,21,23,12,12,66,33,17,17,6,8,4,3,0.8,0.8
2022-06-17T09:00:00,2377A,116.3544,27.9831,抚州市,市站,,19,19,22,9,10,71,42,33,33,10,7,3,6,0.7,0.7
2022-06-17T09:00:00,2378A,116.3565,27.963,抚州市,血防站,,17,17,22,7,8,67,38,30,30,9,9,2,2,0.6,0.6
2022-06-17T09:00:00,2379A,116.3564,28.0007,抚州市,采茶剧团,,21,21,23,6,9,74,35,36,34,7,7,5,4,0.7,0.6
2022-06-17T09:00:00,2380A,116.385,27.9647,抚州市,医学分院,,21,21,26,5,12,72,35,27,26,13,11,4,4,0.5,0.5
2022-06-17T09:00:00,2381A,118.005,28.4572,上饶市,百草园(对照点),颗粒物(PM10),52,54,46,32,30,122,25,27,18,13,14,15,15,0.7,0.7
2022-06-17T09:00:00,2382A,117.9756,28.4436,上饶市,市监测站,,,58,58,30,33,129,,17,10,15,16,17,13,0.7,0.6
2022-06-17T09:00:00,2383A,117.9519,28.4628,上饶市,凤凰光学,颗粒物(PM10),56,61,63,34,36,125,22,12,12,20,27,21,16,1.0,0.9
2022-06-17T09:00:00,2385A,114.17,35.9019,鹤壁市,市监测站,颗粒物(PM10),89,128,116,50,43,282,190,190,126,28,29,20,14,1.3,1.2
2022-06-17T09:00:00,2386A,114.2956,35.7511,鹤壁市,市交警支队,臭氧1小时,84,112,108,53,43,274,187,189,159,20,20,11,13,1.3,1
2022-06-17T09:00:00,2387A,114.2878,35.7306,鹤壁市,迎宾馆,"颗粒物(PM10),细颗粒物(PM2.5)",90,130,96,67,41,274,186,194,167,25,24,12,11,0.7,0.7
2022-06-17T09:00:00,2389A,113.836,35.311,新乡市,环保西院,臭氧1小时,97,111,82,46,33,258,197,108,108,16,26,12,11,1.1,0.7
2022-06-17T09:00:00,2390A,113.884,35.272,新乡市,开发区,颗粒物(PM10),86,122,80,44,29,262,180,114,114,24,32,11,11,1.1,0.7
2022-06-17T09:00:00,2391A,113.883,35.303,新乡市,环保东院,臭氧1小时,87,122,75,45,31,265,189,109,109,25,33,11,10,1.2,0.8
2022-06-17T09:00:00,2392A,115.0312,35.7636,濮阳市,环保局,,,111,79,59,39,222,142,122,122,,19,8,8,0.7,0.5
2022-06-17T09:00:00,2394A,115.0574,35.7609,濮阳市,油田运输公司,细颗粒物(PM2.5),95,105,93,71,39,207,154,123,123,25,22,5,6,0.7,0.6
2022-06-17T09:00:00,2395A,115.0866,35.7754,濮阳市,油田物探公司,颗粒物(PM10),81,112,86,56,39,230,152,135,135,20,17,14,13,0.6,0.4
2022-06-17T09:00:00,2396A,113.8276,34.0159,许昌市,监测站,颗粒物(PM10),53,55,53,26,28,183,108,132,103,10,12,10,6,0.4,0.4
2022-06-17T09:00:00,2398A,113.7906,33.9953,许昌市,开发区,,50,50,49,21,23,176,102,128,96,7,9,13,6,0.6,0.6
2022-06-17T09:00:00,2399A,114.051,33.5699,漯河市,三五一五工厂,颗粒物(PM10),55,59,52,22,22,173,115,128,102,9,7,7,7,0.4,0.5
2022-06-17T09:00:00,2400A,114.0055,33.5698,漯河市,漯河大学,,44,44,50,18,19,174,109,108,89,13,11,4,3,0.4,0.3
2022-06-17T09:00:00,2401A,114.0138,33.5828,漯河市,市水利局,,48,48,50,21,23,180,111,121,97,12,11,11,12,0.5,0.4
2022-06-17T09:00:00,2402A,114.0261,33.5698,漯河市,市广电局,,49,49,50,23,19,174,110,125,102,13,7,8,6,0.5,0.3
2022-06-17T09:00:00,2403A,112.5192,32.9917,南阳市,环保局,,45,45,53,21,29,196,94,113,80,7,7,5,4,0.3,0.4
2022-06-17T09:00:00,2404A,112.5339,33.0086,南阳市,瓦房庄,,42,42,54,19,27,193,94,120,84,13,11,5,4,0.5,0.5
2022-06-17T09:00:00,2405A,112.5003,32.9735,南阳市,汉画馆,,38,38,49,17,28,202,98,116,81,4,5,8,7,0.4,0.4
2022-06-17T09:00:00,2406A,112.5779,33.0144,南阳市,气象站,,47,47,51,19,23,201,97,123,83,14,12,8,7,0.5,0.5
2022-06-17T09:00:00,2407A,112.548,32.9692,南阳市,理工学院,,39,39,44,27,29,292,96,114,80,10,12,4,4,0.5,0.5
2022-06-17T09:00:00,2408A,115.6702,34.4285,商丘市,环境监测站,颗粒物(PM10),53,56,58,23,21,189,129,146,118,16,16,10,9,0.5,0.4
2022-06-17T09:00:00,2409A,115.6458,34.4045,商丘市,粮食局,颗粒物(PM10),66,82,57,24,21,188,126,144,114,12,11,10,8,0.7,0.6
2022-06-17T09:00:00,2410A,115.6293,34.3948,商丘市,睢阳区环保局,颗粒物(PM10),53,56,54,28,22,178,118,133,104,15,15,6,6,0.8,0.7
2022-06-17T09:00:00,2420A,114.0189,32.9656,驻马店市,市一纸厂,,35,35,37,12,18,152,104,125,102,16,8,9,7,0.3,0.2
2022-06-17T09:00:00,2421A,114.0114,33.015,驻马店市,市彩印厂,,,,43,,16,156,112,142,110,14,7,,5,0.2,0.2
2022-06-17T09:00:00,2422A,113.9976,32.9771,驻马店市,天方二分厂,,35,25,37,17,20,155,110,136,106,11,7,7,5,0.3,0.3
2022-06-17T09:00:00,2423A,115.0601,30.2313,黄石市,沈家营,颗粒物(PM10),66,81,73,25,25,197,70,41,41,29,26,32,20,1.1,0.9
2022-06-17T09:00:00,2424A,115.0817,30.2006,黄石市,陈家湾,颗粒物(PM10),61,72,58,40,27,112,56,75,35,31,27,26,12,1.7,1.2
2022-06-17T09:00:00,2426A,114.8988,30.2019,黄石市,铁山,,36,36,61,24,24,207,58,44,44,42,27,33,17,1.3,0.8
2022-06-17T09:00:00,2427A,115.0307,30.2092,黄石市,团城山,颗粒物(PM10),61,72,55,19,20,209,82,49,39,21,22,20,14,1.3,0.8
2022-06-17T09:00:00,2428A,111.0419,32.395,十堰市,武当山(对照点),,31,24,22,16,14,148,99,117,101,9,5,6,6,0.5,0.5
2022-06-17T09:00:00,2429A,110.78,32.6494,十堰市,滨河新村,颗粒物(PM10),58,66,50,34,24,136,79,65,54,21,16,9,9,0.9,0.7
2022-06-17T09:00:00,2430A,110.7258,32.6389,十堰市,刘家沟,细颗粒物(PM2.5),72,52,40,52,20,138,83,76,59,14,9,10,9,0.9,0.8
2022-06-17T09:00:00,2431A,110.8839,32.5714,十堰市,铁二处,,36,36,40,18,17,187,98,58,58,19,12,7,7,0.9,0.7
2022-06-17T09:00:00,2432A,112.155,32.0197,襄阳市,襄城运动路,颗粒物(PM10),53,55,61,30,28,213,91,98,79,16,11,15,8,0.6,0.6
2022-06-17T09:00:00,2433A,112.1392,32.0564,襄阳市,樊城新华路,颗粒物(PM10),52,54,54,23,29,211,75,91,69,16,10,5,7,1.0,0.9
2022-06-17T09:00:00,2434A,112.1825,32.1142,襄阳市,高新管委会,,44,44,52,19,28,207,82,89,69,9,9,4,5,0.8,0.7
2022-06-17T09:00:00,2435A,112.2106,32.0903,襄阳市,襄州航空路,,40,40,57,20,25,207,95,96,81,8,8,8,7,0.7,0.7
2022-06-17T09:00:00,2436A,114.8938,30.3994,鄂州市,市政府,颗粒物(PM10),53,55,64,14,23,221,75,69,51,17,19,13,11,0.7,0.7
2022-06-17T09:00:00,2437A,114.8989,30.3714,鄂州市,赵家坝,颗粒物(PM10),51,52,56,15,24,209,73,52,40,18,24,13,11,0.6,0.8
2022-06-17T09:00:00,2439A,112.2014,31.0481,荆门市,竹园小学,,32,32,49,21,22,183,79,78,77,16,8,8,8,0.5,0.4
2022-06-17T09:00:00,2440A,112.1969,30.9891,荆门市,掇刀,,48,48,49,17,22,179,83,80,78,16,10,8,8,0.5,0.6
2022-06-17T09:00:00,2441A,112.2213,31.0386,荆门市,石化一小,,30,28,44,12,19,185,93,83,83,16,11,10,10,0.3,0.4
2022-06-17T09:00:00,2443A,113.9153,30.9285,孝感市,文化路,,49,49,53,27,20,153,84,87,76,9,8,7,5,0.6,0.6
2022-06-17T09:00:00,2444A,113.942,30.9075,孝感市,东城区,,50,50,52,19,18,144,84,88,78,16,13,7,6,0.6,0.6
2022-06-17T09:00:00,2446A,114.9028,30.4742,黄冈市,职工中心,颗粒物(PM10),51,52,69,24,24,213,77,85,59,25,20,24,13,0.9,0.8
2022-06-17T09:00:00,2447A,114.3175,29.8142,咸宁市,森林公园(对照点),,27,24,27,11,16,154,86,112,96,2,2,6,6,0.5,0.4
