timepoint,stationcode,longitude,latitude,area,positionname,primarypollutant,aqi,pm10,pm10_24h,pm2_5,pm2_5_24h,o3,o3_24h,o3_8h,o3_8h_24h,no2,no2_24h,so2,so2_24h,co,co_24h
2022-06-17T22:00:00,1001A,116.3621,39.8784,北京市,万寿西宫,臭氧1小时,58,54,79,23,37,244,166,216,203,22,29,2,4,0.9,1.2
2022-06-17T22:00:00,1002A,116.2202,40.2915,北京市,定陵(对照点),臭氧1小时,94,70,53,29,34,229,195,203,203,16,13,3,2,0.7,0.5
2022-06-17T22:00:00,1003A,116.4174,39.9289,北京市,东四,臭氧1小时,104,90,85,33,40,255,208,227,224,20,22,1,3,0.9,1
2022-06-17T22:00:00,1004A,116.4072,39.8863,北京市,天坛,颗粒物(PM10),68,86,79,31,37,221,170,196,188,17,19,1,4,0.9,1
2022-06-17T22:00:00,1005A,116.462,39.9365,北京市,农展馆,臭氧1小时,101,95,92,26,36,249,202,223,220,20,27,3,5,1.0,1
2022-06-17T22:00:00,1006A,116.3392,39.9295,北京市,官园,臭氧1小时,78,61,71,21,34,249,182,219,214,14,19,3,5,0.8,1
2022-06-17T22:00:00,1007A,116.2878,39.9611,北京市,海淀万柳,,50,50,84,28,40,241,134,216,205,33,35,1,3,0.8,0.9
2022-06-17T22:00:00,1008A,116.6636,40.135,北京市,顺义新城,颗粒物(PM10),79,108,90,30,36,201,153,180,178,15,14,3,3,0.9,0.9
2022-06-17T22:00:00,1009A,116.6275,40.3275,北京市,怀柔镇,臭氧1小时,69,81,60,33,37,240,175,207,206,16,15,3,2,0.8,0.7
2022-06-17T22:00:00,1010A,116.2296,40.217,北京市,昌平镇,臭氧1小时,70,88,62,42,36,216,176,198,197,15,16,3,2,1.0,0.7
2022-06-17T22:00:00,1011A,116.3966,39.9821,北京市,奥体中心,臭氧1小时,88,104,94,43,39,218,190,205,204,21,33,3,2,1.0,1
2022-06-17T22:00:00,1012A,116.184,39.9136,北京市,古城,,40,33,70,17,35,258,128,230,212,23,22,3,2,0.6,0.8
2022-06-17T22:00:00,1015A,117.1444,39.1661,天津市,勤俭道,颗粒物(PM10),78,106,91,54,62,265,110,218,187,31,28,8,10,0.8,0.9
2022-06-17T22:00:00,1018A,117.202,39.0927,天津市,前进道,,,,58,,51,242,,210,188,,31,,11,,1.1
2022-06-17T22:00:00,1019A,117.1837,39.2133,天津市,淮河道,细颗粒物(PM2.5),73,85,104,53,67,266,130,225,197,26,29,9,12,0.7,1
2022-06-17T22:00:00,1021A,117.307,39.0877,天津市,跃进路,颗粒物(PM10),79,107,90,36,26,241,105,189,160,30,34,8,9,0.6,0.8
2022-06-17T22:00:00,1023A,117.707,39.0343,天津市,第四大街,细颗粒物(PM2.5),67,75,65,48,39,170,113,151,137,36,30,6,7,0.7,0.7
2022-06-17T22:00:00,1024A,117.457,38.8394,天津市,永明路,细颗粒物(PM2.5),78,72,44,57,32,179,113,176,164,26,12,17,12,0.6,0.6
2022-06-17T22:00:00,1026A,117.764,39.1587,天津市,汉北路,细颗粒物(PM2.5),63,67,56,45,39,192,145,176,166,16,20,7,6,1.0,1
2022-06-17T22:00:00,1027A,117.157,38.9194,天津市,团泊洼(对照点),颗粒物(PM10),64,78,68,42,28,252,114,223,193,17,14,11,10,1.7,1.1
2022-06-17T22:00:00,1029A,114.4422,38.0444,石家庄市,职工医院,臭氧1小时,113,152,96,65,41,302,225,278,270,20,18,5,6,0.6,0.6
2022-06-17T22:00:00,1030A,114.6063,38.0266,石家庄市,高新区,臭氧1小时,104,150,104,66,51,284,208,258,251,29,28,8,9,0.7,0.7
2022-06-17T22:00:00,1031A,114.4898,38.1328,石家庄市,西北水源,臭氧1小时,112,143,96,52,48,273,223,259,254,21,21,7,7,0.6,0.6
2022-06-17T22:00:00,1032A,114.4586,38.0058,石家庄市,西南高教,臭氧1小时,118,150,90,59,50,283,235,266,259,20,18,8,9,0.7,0.6
2022-06-17T22:00:00,1033A,114.5331,38.0178,石家庄市,世纪公园,臭氧1小时,113,159,96,55,47,276,225,260,256,24,23,8,9,0.6,0.6
2022-06-17T22:00:00,1034A,114.509,38.0457,石家庄市,人民会堂,臭氧1小时,116,136,88,58,43,300,232,277,273,23,23,9,10,0.7,0.7
2022-06-17T22:00:00,1035A,114.3524,37.8911,石家庄市,封龙山(对照点),颗粒物(PM10),108,166,97,78,45,293,214,274,271,28,17,14,14,0.8,0.6
2022-06-17T22:00:00,1037A,118.131,39.6363,唐山市,雷达站,颗粒物(PM10),60,70,86,41,46,207,128,189,168,16,18,8,7,1.4,1.3
2022-06-17T22:00:00,1038A,118.1725,39.6334,唐山市,物资局,颗粒物(PM10),61,71,85,43,51,209,125,190,166,21,20,12,10,1.5,1.5
2022-06-17T22:00:00,1040A,118.1705,39.6506,唐山市,十二中,,,63,80,50,63,208,112,184,158,,25,8,9,0.9,1.4
2022-06-17T22:00:00,1041A,118.1869,39.622,唐山市,小山,颗粒物(PM10),64,77,82,45,56,215,127,193,170,18,20,8,6,1.2,1.1
2022-06-17T22:00:00,1042A,119.5134,39.8207,秦皇岛市,北戴河环保局,颗粒物(PM10),58,65,67,21,25,178,147,162,162,5,7,6,7,0.3,0.3
2022-06-17T22:00:00,1043A,119.7493,40.0116,秦皇岛市,第一关,,47,47,54,29,31,172,146,156,156,12,31,11,12,0.3,0.3
2022-06-17T22:00:00,1044A,119.5897,39.9499,秦皇岛市,监测站,细颗粒物(PM2.5),55,46,59,39,42,171,148,157,157,12,22,5,7,0.2,0.2
2022-06-17T22:00:00,1046A,119.5251,39.9041,秦皇岛市,建设大厦,,47,45,55,30,29,172,150,159,158,5,18,5,6,0.4,0.4
2022-06-17T22:00:00,1048A,114.5302,36.6116,邯郸市,东污水处理厂,细颗粒物(PM2.5),73,91,79,53,50,309,175,284,263,46,17,12,10,1.1,1
2022-06-17T22:00:00,1049A,114.4918,36.5713,邯郸市,矿院,细颗粒物(PM2.5),82,99,75,60,50,299,176,284,266,33,16,20,13,1.1,1
2022-06-17T22:00:00,1050A,114.484,36.6133,邯郸市,丛台公园,臭氧1小时,102,64,66,58,48,305,203,290,277,27,18,11,7,0.9,0.8
2022-06-17T22:00:00,1051A,115.493,38.8632,保定市,游泳馆,颗粒物(PM10),54,58,64,27,36,269,135,239,226,12,20,3,5,0.2,0.5
2022-06-17T22:00:00,1052A,115.5213,38.8959,保定市,华电二区,,,,85,,33,266,,232,231,,22,5,10,0.3,0.6
2022-06-17T22:00:00,1053A,115.4713,38.9108,保定市,接待中心,,46,46,87,20,38,272,137,242,228,16,22,2,5,0.6,0.8
2022-06-17T22:00:00,1054A,115.4612,38.8416,保定市,地表水厂,颗粒物(PM10),62,73,86,27,35,259,129,228,215,9,16,5,6,0.4,0.7
2022-06-17T22:00:00,1055A,115.4323,38.8697,保定市,胶片厂,颗粒物(PM10),59,67,64,35,31,277,137,248,233,12,17,5,9,0.4,0.8
2022-06-17T22:00:00,1056A,115.5086,38.8639,保定市,监测站,颗粒物(PM10),65,79,81,39,36,270,137,241,227,13,20,9,10,0.3,0.6
2022-06-17T22:00:00,1057A,114.8883,40.8336,张家口市,人民公园,,36,36,50,9,26,211,109,186,151,23,14,5,5,0.5,0.6
2022-06-17T22:00:00,1059A,114.8687,40.8042,张家口市,五金库,,39,39,60,12,28,216,115,192,150,23,21,6,6,0.3,0.4
2022-06-17T22:00:00,1060A,114.8902,40.762,张家口市,世纪豪园,,35,34,69,17,45,216,109,200,153,23,18,6,6,0.3,0.4
2022-06-17T22:00:00,1061A,114.8916,40.8661,张家口市,北泵房(对照点),,32,32,48,19,33,181,101,181,128,12,10,7,8,0.6,0.7
2022-06-17T22:00:00,1062A,117.9531,40.9081,承德市,铁路,"颗粒物(PM10),臭氧1小时",73,95,65,46,39,183,178,172,172,24,20,4,3,1.0,0.7
2022-06-17T22:00:00,1063A,117.9392,40.9763,承德市,中国银行,臭氧1小时,87,58,52,44,42,200,189,184,184,15,16,5,5,0.9,0.6
2022-06-17T22:00:00,1064A,117.9503,40.928,承德市,开发区,臭氧1小时,101,82,65,38,38,203,202,192,192,16,19,7,6,1.0,0.7
2022-06-17T22:00:00,1065A,117.8051,40.9655,承德市,文化中心,臭氧1小时,88,51,58,54,50,223,190,200,200,12,18,7,10,1.1,0.7
2022-06-17T22:00:00,1066A,117.9268,41.0026,承德市,离宫(对照点),细颗粒物(PM2.5),62,48,57,44,34,199,115,182,150,11,11,6,8,0.9,0.6
2022-06-17T22:00:00,1067A,116.6708,39.5111,廊坊市,药材公司,细颗粒物(PM2.5),75,98,87,55,57,262,167,233,227,24,23,6,6,0.7,0.9
2022-06-17T22:00:00,1068A,116.7214,39.5589,廊坊市,开发区,细颗粒物(PM2.5),84,84,77,62,59,258,147,227,220,32,32,10,9,0.7,0.9
2022-06-17T22:00:00,1070A,116.7244,39.5269,廊坊市,北华航天学院,颗粒物(PM10),88,125,104,47,50,242,144,215,207,31,27,11,10,0.7,0.9
2022-06-17T22:00:00,1071A,116.8842,38.2991,沧州市,沧县城建局,细颗粒物(PM2.5),58,51,52,41,36,240,144,225,200,24,32,10,11,0.7,0.8
2022-06-17T22:00:00,1072A,116.8584,38.3254,沧州市,电视转播站,颗粒物(PM10),53,56,67,25,41,261,160,243,220,17,25,12,14,0.4,0.6
2022-06-17T22:00:00,1073A,116.8709,38.3228,沧州市,市环保局,颗粒物(PM10),60,69,90,42,37,256,152,243,217,20,26,11,12,0.7,0.9
2022-06-17T22:00:00,1074A,115.6838,37.7541,衡水市,电机北厂,颗粒物(PM10),120,190,103,59,47,300,200,276,268,33,26,10,13,0.7,0.7
2022-06-17T22:00:00,1075A,115.6303,37.7316,衡水市,市监测站,颗粒物(PM10),134,217,117,58,43,276,162,250,236,34,21,19,20,0.6,0.6
2022-06-17T22:00:00,1077A,114.4704,37.0886,邢台市,达活泉,臭氧1小时,103,113,101,46,39,314,205,287,280,21,13,9,11,0.6,0.6
2022-06-17T22:00:00,1078A,114.5062,37.0349,邢台市,邢师高专,颗粒物(PM10),90,129,89,55,43,309,177,288,274,39,17,10,11,0.9,0.8
2022-06-17T22:00:00,1079A,114.5237,37.0851,邢台市,路桥公司,颗粒物(PM10),85,120,99,51,43,300,170,277,266,34,16,10,11,0.7,0.6
2022-06-17T22:00:00,1081A,112.5139,37.8873,太原市,尖草坪,颗粒物(PM10),58,65,118,27,56,297,91,244,198,61,24,10,13,0.8,1
2022-06-17T22:00:00,1083A,112.434,38.0108,太原市,上兰(对照点),臭氧1小时,67,36,103,14,61,318,173,266,204,11,16,4,5,0.5,0.9
2022-06-17T22:00:00,1084A,112.469,37.7124,太原市,晋源,颗粒物(PM10),53,56,110,28,55,276,57,238,180,72,27,14,16,0.7,0.9
2022-06-17T22:00:00,1085A,112.5583,37.7394,太原市,小店,颗粒物(PM10),66,81,116,25,53,298,81,250,194,77,28,8,11,0.7,0.9
2022-06-17T22:00:00,1086A,112.5369,37.8692,太原市,桃园,颗粒物(PM10),56,62,117,23,60,292,105,240,199,51,29,8,11,0.7,1
2022-06-17T22:00:00,1087A,112.57,37.8195,太原市,坞城,颗粒物(PM10),56,62,94,27,55,286,98,235,199,64,25,9,10,0.7,0.9
2022-06-17T22:00:00,1088A,112.549,37.9854,太原市,南寨,颗粒物(PM10),64,77,105,26,50,303,78,242,185,70,28,10,14,0.8,1.2
2022-06-17T22:00:00,1090A,111.6507,40.7517,呼和浩特市,呼市一监,颗粒物(PM10),74,97,78,19,19,207,137,176,160,12,28,6,9,0.4,0.4
2022-06-17T22:00:00,1091A,111.6572,40.8033,呼和浩特市,小召,颗粒物(PM10),69,88,74,20,18,200,113,167,147,32,30,10,8,0.4,0.4
2022-06-17T22:00:00,1094A,111.7516,40.8369,呼和浩特市,如意水处理厂,颗粒物(PM10),74,98,59,28,21,195,126,174,157,23,31,11,12,0.4,0.4
2022-06-17T22:00:00,1095A,111.7276,40.8062,呼和浩特市,二十九中,颗粒物(PM10),74,98,62,22,20,199,127,175,157,19,30,11,11,0.6,0.6
2022-06-17T22:00:00,1096A,111.5512,40.7866,呼和浩特市,工大金川校区,颗粒物(PM10),69,88,73,29,19,215,123,178,160,19,31,11,9,0.5,0.5
2022-06-17T22:00:00,1097A,111.717,40.7612,呼和浩特市,化肥厂生活区,颗粒物(PM10),74,98,69,20,20,201,129,175,156,19,26,11,13,0.4,0.5
2022-06-17T22:00:00,1098A,123.6836,41.9339,沈阳市,森林路(对照点),,32,32,28,20,18,182,66,166,135,29,23,11,11,0.9,0.8
2022-06-17T22:00:00,1099A,123.505,41.7406,沈阳市,浑南东路,,43,43,31,23,18,199,76,180,144,22,19,20,14,0.9,0.8
2022-06-17T22:00:00,1100A,123.4231,41.6989,沈阳市,新秀街,,,38,30,,14,186,83,166,136,24,20,33,18,0.7,0.9
2022-06-17T22:00:00,1102A,123.5903,41.8411,沈阳市,东陵路,,34,34,34,23,19,185,75,170,138,22,22,13,12,1.3,1
2022-06-17T22:00:00,1103A,123.4264,41.8467,沈阳市,陵东街,,34,34,32,18,18,180,79,170,142,24,18,15,13,0.7,0.8
2022-06-17T22:00:00,1104A,123.4114,41.7653,沈阳市,文化路,,40,40,36,24,21,183,80,172,141,18,11,20,17,0.5,0.6
2022-06-17T22:00:00,1105A,123.4678,41.7867,沈阳市,小河沿,,41,41,37,20,19,179,83,167,138,20,19,24,15,0.7,0.6
2022-06-17T22:00:00,1106A,123.4017,41.7972,沈阳市,太原街,,38,38,47,23,22,193,83,181,146,26,22,17,18,0.5,0.6
2022-06-17T22:00:00,1108A,123.3783,41.9228,沈阳市,京沈街,,28,25,40,19,21,200,89,185,157,16,15,11,15,0.7,0.8
2022-06-17T22:00:00,1109A,121.612,38.9741,大连市,甘井子,,,8,28,7,15,123,82,116,89,14,20,,7,0.5,0.5
2022-06-17T22:00:00,1110A,121.565,38.9511,大连市,周水子,,21,17,31,4,26,108,65,98,74,14,17,7,6,0.8,0.9
2022-06-17T22:00:00,1111A,121.5637,38.8845,大连市,星海三站,,28,26,36,19,29,148,81,131,109,21,17,8,8,0.4,0.4
2022-06-17T22:00:00,1112A,121.6302,38.9117,大连市,青泥洼桥,,27,10,26,8,23,121,85,113,91,10,15,6,6,0.3,0.4
2022-06-17T22:00:00,1113A,121.6251,38.8638,大连市,傅家庄,,29,14,19,7,12,130,90,117,96,4,8,6,6,0.6,0.7
2022-06-17T22:00:00,1115A,121.2529,38.8061,大连市,旅顺,,35,14,22,6,15,144,109,130,110,7,11,6,6,0.5,0.5
2022-06-17T22:00:00,1116A,121.7485,39.1311,大连市,金州,,29,22,37,12,16,137,91,131,106,8,12,4,3,0.3,0.5
2022-06-17T22:00:00,1117A,121.7811,39.0496,大连市,开发区,,27,18,25,2,20,139,86,120,91,6,19,4,5,0.7,0.7
2022-06-17T22:00:00,1118A,121.9762,39.0631,大连市,双D港,,28,8,18,0,16,142,89,134,98,4,8,10,10,0.5,0.5
2022-06-17T22:00:00,1119A,125.3325,43.9166,长春市,食品厂,颗粒物(PM10),85,120,63,41,23,121,5,116,88,117,33,5,5,1.0,0.6
2022-06-17T22:00:00,1120A,125.2863,43.9027,长春市,客车厂,颗粒物(PM10),77,104,60,33,20,131,15,126,102,111,28,4,4,1.1,0.6
2022-06-17T22:00:00,1121A,125.2841,43.8463,长春市,邮电学院,颗粒物(PM10),83,116,77,26,21,128,13,122,94,86,22,4,5,0.9,0.6
2022-06-17T22:00:00,1122A,125.3716,43.8772,长春市,劳动公园,颗粒物(PM10),80,109,56,34,21,137,36,132,111,62,19,5,5,0.8,0.6
2022-06-17T22:00:00,1123A,125.3297,43.8805,长春市,园林处,颗粒物(PM10),76,101,52,30,20,122,14,119,94,85,25,4,4,0.8,0.5
2022-06-17T22:00:00,1124A,125.4605,43.79,长春市,净月潭,,40,40,45,20,17,129,52,120,93,19,14,3,3,0.5,0.6
2022-06-17T22:00:00,1125A,125.7194,43.515,长春市,甩湾子(对照点),颗粒物(PM10),62,74,43,31,17,140,4,127,91,95,30,6,6,0.6,0.4
2022-06-17T22:00:00,1126A,125.3863,43.8447,长春市,经开区环卫处,颗粒物(PM10),75,99,61,24,20,130,14,126,103,88,21,5,5,0.7,0.5
2022-06-17T22:00:00,1127A,125.245,43.7783,长春市,高新区管委会,颗粒物(PM10),66,81,52,35,21,133,22,125,90,70,22,5,5,0.6,0.5
2022-06-17T22:00:00,1128A,125.1761,43.8325,长春市,岱山公园,颗粒物(PM10),87,124,52,34,23,122,3,112,82,120,26,6,5,0.8,0.5
2022-06-17T22:00:00,1129A,126.5422,45.755,哈尔滨市,岭北(对照点),,26,16,12,10,8,103,82,99,88,18,11,14,13,0.4,0.4
2022-06-17T22:00:00,1130A,126.561,45.8167,哈尔滨市,松北商大,,19,19,12,7,6,111,49,102,79,38,15,4,4,0.7,0.6
2022-06-17T22:00:00,1131A,126.979,45.5419,哈尔滨市,阿城会宁,颗粒物(PM10),52,54,22,21,9,117,6,107,67,55,16,11,11,0.9,0.7
2022-06-17T22:00:00,1132A,126.599,45.7222,哈尔滨市,南岗学府路,,31,31,12,15,5,113,74,105,92,26,11,13,10,0.6,0.6
2022-06-17T22:00:00,1133A,126.689,45.7733,哈尔滨市,太平宏伟公园,,35,35,20,16,7,108,59,101,81,38,19,11,11,0.8,0.5
2022-06-17T22:00:00,1134A,126.635,45.7667,哈尔滨市,道外承德广场,,37,37,20,6,4,108,44,104,84,65,21,9,9,0.6,0.4
2022-06-17T22:00:00,1135A,126.685,45.7319,哈尔滨市,香坊红旗大街,颗粒物(PM10),57,63,22,18,9,110,20,104,75,84,26,20,11,0.9,0.5
2022-06-17T22:00:00,1136A,126.6411,45.7258,哈尔滨市,动力和平路,,38,38,19,11,4,110,60,104,86,46,19,7,6,0.5,0.4
2022-06-17T22:00:00,1137A,126.593,45.7478,哈尔滨市,道里建国路,,41,41,59,26,12,95,29,95,62,61,23,16,14,0.8,0.6
2022-06-17T22:00:00,1138A,126.615,45.61,哈尔滨市,平房东轻厂,,37,37,16,7,6,100,20,96,67,68,16,5,5,0.7,0.6
2022-06-17T22:00:00,1139A,126.595,45.9855,哈尔滨市,呼兰师专,,28,28,18,7,7,101,69,94,84,19,10,10,10,0.3,0.4
2022-06-17T22:00:00,1140A,126.6206,45.6842,哈尔滨市,省农科院,颗粒物(PM10),59,68,16,17,5,113,28,105,87,62,17,10,8,0.9,0.7
2022-06-17T22:00:00,1141A,121.4,31.238,上海市,普陀,,29,22,51,20,33,298,88,221,179,18,24,3,5,0.5,0.7
2022-06-17T22:00:00,1142A,121.478,31.2036,上海市,十五厂,,26,14,50,18,34,281,79,218,157,13,23,3,4,0.4,0.5
2022-06-17T22:00:00,1143A,121.467,31.3008,上海市,虹口,,31,31,49,14,30,284,85,215,171,24,28,3,4,0.3,0.4
2022-06-17T22:00:00,1144A,121.412,31.1654,上海市,徐汇上师大,,30,30,55,13,36,282,79,220,163,21,28,3,5,0.8,1
2022-06-17T22:00:00,1145A,121.536,31.2659,上海市,杨浦四漂,,27,27,49,11,32,283,80,218,162,20,23,4,5,0.4,0.5
2022-06-17T22:00:00,1147A,121.425,31.2261,上海市,静安监测站,,36,36,54,17,34,283,84,214,169,10,17,4,5,0.4,0.5
2022-06-17T22:00:00,1148A,121.703,31.1907,上海市,浦东川沙,,24,24,48,6,30,227,75,195,145,19,24,4,5,0.3,0.5
2022-06-17T22:00:00,1149A,121.533,31.2284,上海市,浦东新区监测站,,29,27,56,8,31,289,92,225,169,16,20,6,7,0.5,0.6
2022-06-17T22:00:00,1150A,121.577,31.2071,上海市,浦东张江,,23,19,42,13,31,241,73,187,137,21,25,4,4,0.6,0.8
2022-06-17T22:00:00,1151A,118.8086,32.1065,南京市,迈皋桥,,43,43,34,14,10,190,81,168,132,27,18,4,7,0.4,0.4
2022-06-17T22:00:00,1152A,118.7538,32.0551,南京市,草场门,,32,29,31,19,11,215,102,178,154,31,18,5,11,0.4,0.5
2022-06-17T22:00:00,1153A,118.7794,32.0745,南京市,山西路,,36,36,38,19,19,204,90,168,142,23,10,4,3,0.4,0.4
2022-06-17T22:00:00,1154A,118.7752,32.0023,南京市,中华门,,34,34,30,9,8,184,105,161,138,16,9,3,4,0.2,0.4
2022-06-17T22:00:00,1155A,118.8109,32.0309,南京市,瑞金路,,36,36,32,17,15,193,77,164,136,38,16,4,8,0.4,0.5
2022-06-17T22:00:00,1156A,118.7997,32.0754,南京市,玄武湖,,40,40,28,20,16,188,74,166,139,11,5,4,4,0.8,0.9
2022-06-17T22:00:00,1157A,118.6414,32.0931,南京市,浦口,,34,34,36,12,11,180,89,152,121,14,18,5,7,0.1,0.3
2022-06-17T22:00:00,1158A,118.7356,31.9996,南京市,奥体中心,,41,41,38,22,14,188,92,158,133,35,20,3,9,0.3,0.5
2022-06-17T22:00:00,1159A,118.9125,32.1028,南京市,仙林大学城,,36,36,31,17,14,199,68,176,141,37,12,5,9,0.5,0.6
2022-06-17T22:00:00,1160A,120.561,31.2472,苏州市,上方山(对照点),颗粒物(PM10),64,77,75,43,46,254,145,239,213,22,28,6,7,0.7,0.8
2022-06-17T22:00:00,1162A,120.591,31.3019,苏州市,彩香,细颗粒物(PM2.5),64,67,60,46,41,282,156,250,228,18,29,7,8,0.5,0.6
2022-06-17T22:00:00,1163A,120.596,31.3264,苏州市,轧钢厂,颗粒物(PM10),62,74,77,26,34,266,146,237,215,14,25,7,8,0.7,0.7
2022-06-17T22:00:00,1164A,120.613,31.2703,苏州市,吴中区,颗粒物(PM10),61,72,68,30,41,297,138,264,220,13,30,6,8,0.6,0.7
2022-06-17T22:00:00,1165A,120.543,31.2994,苏州市,苏州新区,颗粒物(PM10),53,56,55,36,40,270,158,225,220,16,19,6,7,0.7,0.7
2022-06-17T22:00:00,1166A,120.669,31.3097,苏州市,苏州工业园区,颗粒物(PM10),53,56,58,24,32,283,132,236,200,17,25,6,7,0.7,0.8
2022-06-17T22:00:00,1167A,120.641,31.3708,苏州市,相城区,细颗粒物(PM2.5),59,51,60,42,48,283,127,234,200,21,29,6,9,0.6,0.7
2022-06-17T22:00:00,1168A,120.9098,31.9663,南通市,狼山街道,颗粒物(PM10),56,61,60,24,32,296,102,258,228,40,32,13,15,0.5,0.7
2022-06-17T22:00:00,1169A,120.86,32.0005,南通市,虹桥,颗粒物(PM10),57,63,60,24,38,293,94,257,227,43,36,11,12,0.5,0.7
2022-06-17T22:00:00,1170A,120.87,32.02,南通市,城中,颗粒物(PM10),56,62,58,30,37,271,95,229,210,39,32,10,11,0.7,0.9
2022-06-17T22:00:00,1171A,120.94,31.93,南通市,星湖花园,,49,49,56,22,29,284,86,248,213,48,36,10,12,0.5,0.7
2022-06-17T22:00:00,1172A,120.81,32.0417,南通市,紫琅学院,,,,,29,33,267,103,234,214,43,51,7,11,0.7,0.8
2022-06-17T22:00:00,1173A,119.176,34.5885,连云港市,市环境监测站,颗粒物(PM10),62,73,62,36,32,235,124,211,186,21,13,4,3,0.7,0.6
2022-06-17T22:00:00,1177A,117.179,34.2761,徐州市,黄河新村,臭氧1小时,60,46,62,21,24,208,168,195,185,15,16,7,8,0.5,0.5
2022-06-17T22:00:00,1178A,117.1918,34.2384,徐州市,淮塔,臭氧1小时,55,55,57,19,24,212,164,202,188,17,17,12,13,0.6,0.5
2022-06-17T22:00:00,1180A,117.256,34.2153,徐州市,新城区,颗粒物(PM10),58,66,66,24,27,216,164,204,190,19,19,8,8,0.8,0.7
2022-06-17T22:00:00,1181A,117.244,34.2911,徐州市,桃园路,颗粒物(PM10),57,63,72,17,20,213,162,202,190,20,22,13,13,0.6,0.7
2022-06-17T22:00:00,1182A,117.2933,34.2778,徐州市,农科院,臭氧1小时,68,56,62,17,19,226,174,209,198,16,21,7,7,0.6,0.6
2022-06-17T22:00:00,1186A,119.389,32.3761,扬州市,邗江监测站,颗粒物(PM10),58,66,52,27,22,228,136,192,162,22,18,11,12,0.7,0.7
2022-06-17T22:00:00,1188A,120.269,31.4867,无锡市,雪浪,,,85,62,48,33,197,165,183,175,,9,12,12,0.7,0.6
2022-06-17T22:00:00,1189A,120.275,31.6219,无锡市,黄巷,,,73,62,36,32,213,192,197,192,,19,9,9,0.5,0.6
2022-06-17T22:00:00,1190A,120.294,31.56,无锡市,曹张,臭氧1小时,64,69,57,41,29,213,171,190,187,22,15,8,8,1.0,0.9
2022-06-17T22:00:00,1191A,120.242,31.5031,无锡市,漆塘,臭氧1小时,69,58,56,42,33,202,175,184,172,12,9,5,6,0.6,0.6
2022-06-17T22:00:00,1192A,120.3489,31.5863,无锡市,东亭,颗粒物(PM10),68,85,64,48,35,245,157,217,209,28,13,9,9,0.7,0.7
2022-06-17T22:00:00,1193A,120.354,31.5475,无锡市,旺庄,颗粒物(PM10),65,80,61,44,36,244,165,213,201,28,17,10,10,0.6,0.6
2022-06-17T22:00:00,1194A,120.245,31.5631,无锡市,荣巷,臭氧1小时,62,53,59,40,35,200,169,188,173,16,10,11,12,0.6,0.4
2022-06-17T22:00:00,1195A,120.299,31.6817,无锡市,堰桥,臭氧1小时,78,80,68,46,34,260,182,220,198,29,21,8,9,1.0,1.1
2022-06-17T22:00:00,1196A,119.9633,31.762,常州市,市监测站,臭氧1小时,82,81,53,34,25,200,185,173,173,31,22,8,9,0.6,0.5
2022-06-17T22:00:00,1200A,119.9468,31.7069,常州市,武进监测站,臭氧1小时,108,82,57,45,36,217,215,188,188,14,11,24,10,0.7,0.7
2022-06-17T22:00:00,1201A,119.9255,31.9087,常州市,安家,颗粒物(PM10),71,91,54,46,33,205,170,184,166,33,24,6,9,0.8,0.8
2022-06-17T22:00:00,1203A,119.6707,32.1875,镇江市,新区办事处,颗粒物(PM10),56,61,47,34,24,188,157,182,173,20,20,9,11,0.5,0.7
2022-06-17T22:00:00,1204A,119.4974,32.1968,镇江市,职教中心,颗粒物(PM10),56,62,44,32,25,204,142,171,158,25,19,12,6,0.9,0.7
2022-06-17T22:00:00,1205A,119.4303,32.1328,镇江市,丹徒区监测站,细颗粒物(PM2.5),65,63,44,47,30,185,160,171,162,17,15,9,8,0.5,0.5
2022-06-17T22:00:00,1206A,119.905,32.4878,泰州市,公园路,,44,44,52,24,26,194,82,171,145,36,27,5,6,0.7,0.8
2022-06-17T22:00:00,1207A,119.9189,32.4625,泰州市,莲花,颗粒物(PM10),52,54,54,24,30,207,90,186,158,35,24,8,8,0.7,0.8
2022-06-17T22:00:00,1209A,119.888,32.4639,泰州市,留学生创业园,颗粒物(PM10),51,52,51,18,26,228,90,200,167,33,23,9,11,0.7,0.8
2022-06-17T22:00:00,1210A,119.036,33.5981,淮安市,钵池山,臭氧1小时,107,53,57,24,28,242,214,215,206,11,13,8,10,0.7,0.7
2022-06-17T22:00:00,1211A,119.007,33.575,淮安市,北京南路,臭氧1小时,85,63,60,29,28,231,188,204,189,18,17,7,10,0.6,0.7
2022-06-17T22:00:00,1212A,118.989,33.6067,淮安市,市监测站,臭氧1小时,98,90,69,21,23,225,198,202,189,16,17,8,11,0.7,0.7
2022-06-17T22:00:00,1213A,119.135,33.5039,淮安市,楚州区监测站,颗粒物(PM10),58,66,62,24,26,213,158,193,176,29,17,10,12,1.0,0.9
2022-06-17T22:00:00,1214A,119.0186,33.6297,淮安市,淮阴区监测站,臭氧1小时,84,73,57,27,30,230,187,201,188,21,14,10,13,0.9,1
2022-06-17T22:00:00,1215A,120.118,33.4022,盐城市,盐城电厂,臭氧1小时,70,63,63,32,32,239,176,226,211,12,15,7,11,0.6,0.6
2022-06-17T22:00:00,1216A,120.156,33.3942,盐城市,市监测站,,,77,61,64,29,241,167,223,200,,14,6,15,,0.3
2022-06-17T22:00:00,1218A,120.2144,33.38,盐城市,开发区管委会,颗粒物(PM10),56,62,62,33,33,234,156,214,188,14,16,6,7,0.7,0.7
2022-06-17T22:00:00,1220A,118.293,33.9528,宿迁市,宿迁学院,臭氧1小时,67,47,55,25,29,242,173,215,201,14,16,8,8,0.5,0.5
2022-06-17T22:00:00,1221A,118.2442,33.9592,宿迁市,宿迁中学,臭氧1小时,68,58,56,28,29,242,174,218,205,15,17,7,7,0.5,0.5
2022-06-17T22:00:00,1223A,120.2072,30.2111,杭州市,滨江,细颗粒物(PM2.5),94,120,72,70,41,231,127,191,170,54,32,5,3,0.9,0.8
2022-06-17T22:00:00,1224A,120.0633,30.2747,杭州市,西溪,颗粒物(PM10),55,60,58,38,29,182,57,156,125,34,24,7,7,0.7,0.6
2022-06-17T22:00:00,1226A,120.3461,30.3153,杭州市,下沙,颗粒物(PM10),68,86,79,45,39,286,124,235,215,44,36,6,7,0.7,0.7
2022-06-17T22:00:00,1227A,120.1269,30.2456,杭州市,卧龙桥,,48,46,47,33,34,191,41,171,118,33,18,6,6,0.8,0.8
2022-06-17T22:00:00,1228A,120.1903,30.2692,杭州市,浙江农大,颗粒物(PM10),78,106,61,55,38,226,145,197,178,40,26,8,6,0.8,0.7
2022-06-17T22:00:00,1230A,120.1197,30.3119,杭州市,和睦小学,颗粒物(PM10),73,95,68,49,38,220,139,190,173,43,32,6,4,1.0,0.8
2022-06-17T22:00:00,1231A,120.3019,30.4183,杭州市,临平镇,颗粒物(PM10),74,98,94,36,40,272,125,230,215,26,36,4,4,0.8,0.8
2022-06-17T22:00:00,1232A,120.2697,30.1819,杭州市,城厢镇,细颗粒物(PM2.5),87,90,67,64,41,204,106,167,152,46,28,8,6,0.7,0.7
2022-06-17T22:00:00,1233A,120.0883,30.1808,杭州市,云栖,颗粒物(PM10),56,62,60,30,29,194,59,172,117,27,22,8,8,0.7,0.7
2022-06-17T22:00:00,1234A,121.8358,29.911,宁波市,区环保大楼,,25,20,37,8,18,100,78,93,89,16,24,4,5,0.4,0.5
2022-06-17T22:00:00,1235A,121.56,29.82,宁波市,万里学院,,,,34,,21,170,,142,113,,13,,8,,0.6
2022-06-17T22:00:00,1236A,121.713,29.9572,宁波市,龙赛医院,,26,22,36,12,21,169,83,136,105,7,19,3,6,0.5,0.7
2022-06-17T22:00:00,1239A,121.633,29.7733,宁波市,钱湖水厂,,27,13,22,6,17,121,84,109,98,5,6,7,7,0.6,0.7
2022-06-17T22:00:00,1240A,121.5856,29.8635,宁波市,太古小学,,25,12,30,7,20,168,78,131,99,10,15,6,7,0.5,0.6
2022-06-17T22:00:00,1241A,121.524,29.8674,宁波市,市环境监测中心,,22,14,36,10,20,184,69,138,99,14,18,7,11,0.3,0.4
2022-06-17T22:00:00,1242A,120.634,28.0089,温州市,瓯海,,24,24,41,13,26,135,30,104,62,29,26,6,6,0.6,0.6
2022-06-17T22:00:00,1243A,120.6748,27.9939,温州市,南浦,,26,26,46,14,26,143,35,102,65,21,20,6,6,0.6,0.7
2022-06-17T22:00:00,1244A,120.76,27.9747,温州市,龙湾,,21,21,58,8,24,162,32,101,58,24,30,5,5,0.4,0.6
2022-06-17T22:00:00,1245A,120.6709,28.0167,温州市,市站,,30,30,53,17,29,159,33,118,67,30,30,5,5,0.6,0.7
2022-06-17T22:00:00,1247A,120.6053,29.9928,绍兴市,城东开发委,细颗粒物(PM2.5),52,44,46,36,28,167,109,151,133,6,13,6,7,0.5,0.6
2022-06-17T22:00:00,1250A,120.0751,30.8669,湖州市,城西水厂,颗粒物(PM10),67,83,62,40,31,226,158,206,192,23,37,6,6,0.5,0.5
2022-06-17T22:00:00,1252A,120.7436,30.778,嘉兴市,清河小学,,36,36,62,17,34,233,68,218,179,35,31,10,9,0.6,0.7
2022-06-17T22:00:00,1253A,120.726,30.7478,嘉兴市,嘉兴学院,,38,38,62,21,40,229,77,221,184,28,30,6,6,0.6,0.6
2022-06-17T22:00:00,1255A,121.273,28.6459,台州市,黄岩环保大楼,颗粒物(PM10),59,67,54,38,26,154,43,124,88,27,16,5,5,0.6,0.6
2022-06-17T22:00:00,1256A,121.419,28.6542,台州市,台州环保大楼,颗粒物(PM10),66,81,55,29,27,127,31,112,75,26,14,5,4,0.7,0.6
2022-06-17T22:00:00,1257A,121.377,28.5773,台州市,路桥田洋王,,20,13,39,5,29,144,62,118,90,16,14,8,6,0.5,0.6
2022-06-17T22:00:00,1258A,122.122,30.0203,舟山市,定海檀枫,,25,19,28,10,13,91,80,80,80,20,17,2,2,0.4,0.5
2022-06-17T22:00:00,1259A,122.3094,29.9558,舟山市,普陀东港,,30,19,17,5,8,95,95,87,87,1,6,2,2,0.3,0.4
2022-06-17T22:00:00,1260A,122.19,29.9944,舟山市,临城新区,,28,16,15,8,11,94,87,86,86,11,10,2,2,0.4,0.4
2022-06-17T22:00:00,1262A,119.647,29.077,金华市,十五中,,36,36,52,20,33,155,61,136,110,20,24,5,8,0.5,0.6
2022-06-17T22:00:00,1263A,119.686,29.1029,金华市,监测站,,37,37,48,22,19,151,67,135,108,14,20,3,7,0.6,0.7
2022-06-17T22:00:00,1264A,118.8692,28.9398,衢州市,环保大楼,,38,38,48,13,22,114,25,94,67,24,17,11,16,0.5,0.6
2022-06-17T22:00:00,1265A,118.8709,28.9666,衢州市,实验学校,,38,38,50,12,20,122,33,99,71,26,25,7,12,0.5,0.6
2022-06-17T22:00:00,1266A,118.8621,28.9808,衢州市,衢州学院,,32,32,52,12,23,118,36,95,70,21,28,10,16,0.3,0.6
2022-06-17T22:00:00,1267A,119.914,28.4514,丽水市,监测站大楼,,20,9,38,11,18,104,63,81,67,9,17,5,5,0.2,0.4
2022-06-17T22:00:00,1268A,119.93,28.4586,丽水市,莲都小学,,21,8,41,4,16,113,65,88,69,10,14,6,6,0.3,0.4
2022-06-17T22:00:00,1269A,119.879,28.4231,丽水市,余庄前,,18,17,34,12,19,103,34,72,49,10,11,5,5,0.3,0.4
2022-06-17T22:00:00,1270A,117.1959,31.7848,合肥市,明珠广场,颗粒物(PM10),54,58,46,24,19,193,101,161,132,21,19,5,6,0.4,0.4
2022-06-17T22:00:00,1271A,117.3072,31.8764,合肥市,三里街,,36,36,43,19,14,166,93,141,119,22,19,7,11,0.5,0.5
2022-06-17T22:00:00,1272A,117.2588,31.8707,合肥市,琥珀山庄,,39,39,40,22,15,188,107,160,136,18,16,10,11,0.5,0.5
2022-06-17T22:00:00,1273A,117.1604,31.9052,合肥市,董铺水库(对照点),,44,44,45,17,23,198,104,153,128,12,12,6,9,0.4,0.6
2022-06-17T22:00:00,1274A,117.25,31.8571,合肥市,长江中路,颗粒物(PM10),51,51,44,22,21,195,100,166,137,31,22,8,8,0.5,0.5
2022-06-17T22:00:00,1275A,117.266,31.9436,合肥市,庐阳区,,39,39,46,14,18,206,109,169,139,12,15,10,11,0.4,0.5
2022-06-17T22:00:00,1276A,117.336,31.8586,合肥市,瑶海区,颗粒物(PM10),54,58,52,18,17,176,84,154,130,39,22,8,8,0.6,0.6
2022-06-17T22:00:00,1277A,117.3027,31.7964,合肥市,包河区,,41,41,43,17,18,160,102,148,132,18,20,6,6,0.5,0.5
2022-06-17T22:00:00,1278A,117.2776,31.7385,合肥市,滨湖新区,,36,36,41,19,15,158,114,152,138,9,10,11,11,0.4,0.5
2022-06-17T22:00:00,1279A,117.1318,31.8403,合肥市,高新区,,48,48,45,17,19,204,106,165,135,14,14,10,10,0.6,0.6
2022-06-17T22:00:00,1282A,119.2681,26.0504,福州市,师大,,40,19,17,28,14,27,7,20,12,39,28,2,2,0.6,0.4
2022-06-17T22:00:00,1283A,119.2984,26.1028,福州市,五四北路,,31,31,20,21,12,24,2,19,10,43,31,3,2,0.6,0.5
2022-06-17T22:00:00,1284A,119.2648,26.0768,福州市,杨桥西路,,22,22,19,15,11,22,5,18,9,40,31,3,2,0.6,0.5
2022-06-17T22:00:00,1285A,119.317,26.0746,福州市,紫阳,,34,34,22,18,12,25,4,18,8,42,33,4,3,0.8,0.5
2022-06-17T22:00:00,1286A,118.1608,24.8169,厦门市,溪东(对照点),,48,20,22,33,36,83,24,59,46,9,8,2,2,0.4,0.5
2022-06-17T22:00:00,1287A,118.1514,24.4767,厦门市,洪文,,10,9,17,7,10,39,24,31,28,18,22,4,4,0.5,0.6
2022-06-17T22:00:00,1288A,118.0661,24.4444,厦门市,鼓浪屿,,13,13,15,4,11,33,23,32,29,22,35,4,4,0.1,0.2
2022-06-17T22:00:00,1290A,115.8931,28.6843,南昌市,省外办,,17,17,31,8,14,103,36,81,58,12,18,17,18,0.7,0.7
2022-06-17T22:00:00,1291A,115.8886,28.7003,南昌市,省林业公司,,12,5,24,0,10,108,36,84,57,5,13,15,22,0.7,0.7
2022-06-17T22:00:00,1292A,115.8126,28.7442,南昌市,林科所,,17,2,23,2,12,108,18,89,61,34,16,4,9,0.5,0.6
2022-06-17T22:00:00,1294A,115.8518,28.687,南昌市,建工学校,,,3,38,,23,106,38,81,58,14,22,7,20,0.8,0.8
2022-06-17T22:00:00,1295A,115.8921,28.6424,南昌市,象湖,,11,9,29,0,8,104,34,80,56,11,14,18,14,0.7,0.7
2022-06-17T22:00:00,1296A,115.7423,28.7996,南昌市,武术学校(对照点),,18,7,20,12,13,119,21,98,68,2,4,7,8,0.4,0.5
2022-06-17T22:00:00,1298A,115.9314,28.6842,南昌市,省站,,14,14,34,3,13,109,40,85,61,12,18,17,18,0.5,0.5
2022-06-17T22:00:00,1299A,116.9862,36.6114,济南市,科干所,臭氧1小时,113,70,61,34,34,267,225,243,242,15,14,11,11,0.7,0.7
2022-06-17T22:00:00,1300A,116.9376,36.665,济南市,农科所,颗粒物(PM10),63,76,66,34,31,237,157,220,210,30,19,9,9,0.5,0.5
2022-06-17T22:00:00,1301A,117.1265,36.6734,济南市,开发区,臭氧1小时,100,76,60,38,32,274,200,251,246,25,14,12,13,0.6,0.6
2022-06-17T22:00:00,1303A,117.0624,36.6868,济南市,省种子仓库,臭氧1小时,78,80,69,46,40,263,182,243,236,38,18,11,12,0.7,0.7
2022-06-17T22:00:00,1304A,116.9489,36.6447,济南市,机床二厂,臭氧1小时,75,93,72,42,34,246,180,231,225,21,15,7,8,0.6,0.6
2022-06-17T22:00:00,1305A,117.0495,36.663,济南市,市监测站,臭氧1小时,104,71,68,37,34,263,207,243,239,27,18,10,11,0.7,0.8
2022-06-17T22:00:00,1306A,116.7675,36.5484,济南市,长清党校,臭氧1小时,108,78,79,34,44,265,216,250,247,17,12,15,16,0.5,0.7
2022-06-17T22:00:00,1307A,120.6659,36.2403,青岛市,仰口(对照点),细颗粒物(PM2.5),55,53,31,39,24,156,103,144,137,11,7,3,5,0.5,0.4
2022-06-17T22:00:00,1310A,120.4134,36.0658,青岛市,市南区东部子站,颗粒物(PM10),54,58,28,31,16,169,124,167,143,11,12,5,6,0.3,0.3
2022-06-17T22:00:00,1311A,120.3664,36.1032,青岛市,四方区子站,细颗粒物(PM2.5),67,58,34,48,24,194,145,194,154,18,25,5,5,0.8,0.8
2022-06-17T22:00:00,1312A,120.2994,36.054,青岛市,市南区西部子站,,44,44,30,27,12,200,138,200,161,14,21,8,7,0.6,0.5
2022-06-17T22:00:00,1313A,120.4581,36.0858,青岛市,崂山区子站,颗粒物(PM10),51,51,25,34,14,183,130,175,156,21,16,8,7,0.5,0.5
2022-06-17T22:00:00,1314A,120.1983,35.9608,青岛市,黄岛区子站,,41,41,24,27,17,165,124,151,142,16,20,5,5,0.3,0.3
2022-06-17T22:00:00,1315A,120.3999,36.3083,青岛市,城阳区子站,颗粒物(PM10),57,63,38,37,20,169,147,156,156,29,21,7,5,0.8,0.6
2022-06-17T22:00:00,1316A,113.69031,34.76122,郑州市,烟厂,,43,42,61,7,16,241,137,206,174,22,19,12,8,0.6,0.5
2022-06-17T22:00:00,1317A,113.65724,34.77134,郑州市,郑纺机,,41,38,68,17,22,240,131,194,160,19,19,13,10,0.6,0.6
2022-06-17T22:00:00,1318A,113.67526,34.80246,郑州市,银行学校,,49,49,58,10,24,277,139,229,178,19,15,10,10,0.7,0.5
2022-06-17T22:00:00,1319A,113.56746,34.81334,郑州市,供水公司,颗粒物(PM10),60,70,71,12,25,280,133,209,162,31,25,10,8,0.5,0.5
2022-06-17T22:00:00,1320A,113.7329,34.7178,郑州市,经开区管委,颗粒物(PM10),53,55,62,22,22,201,126,182,161,28,20,12,7,0.3,0.4
2022-06-17T22:00:00,1321A,113.73961,34.77172,郑州市,四十七中,颗粒物(PM10),55,59,60,18,19,258,140,208,174,23,20,10,9,0.5,0.6
2022-06-17T22:00:00,1322A,113.60532,34.74838,郑州市,市监测站,颗粒物(PM10),55,60,67,17,20,241,134,196,159,25,23,10,8,0.5,0.5
2022-06-17T22:00:00,1323A,113.64164,34.7525,郑州市,河医大,颗粒物(PM10),53,55,70,2,15,240,128,195,161,25,20,10,7,0.5,0.5
2022-06-17T22:00:00,1324A,113.51488,34.91089,郑州市,岗李水库(对照点),,,,76,22,26,274,131,219,164,30,25,6,6,0.6,0.3
2022-06-17T22:00:00,1325A,114.3677,30.5584,武汉市,东湖梨园,,33,30,32,17,17,186,104,151,142,16,14,9,10,0.6,0.7
2022-06-17T22:00:00,1326A,114.2529,30.558,武汉市,汉阳月湖,,33,25,30,9,13,165,103,154,137,20,15,10,10,0.7,0.7
2022-06-17T22:00:00,1327A,114.282,30.6189,武汉市,汉口花桥,,46,46,36,15,17,168,93,149,134,22,15,10,10,0.7,0.7
2022-06-17T22:00:00,1328A,114.3025,30.5332,武汉市,武昌紫阳,,29,24,32,13,17,159,92,142,131,21,15,7,8,0.9,0.9
2022-06-17T22:00:00,1329A,114.3646,30.6217,武汉市,青山钢花,,38,38,35,19,22,187,97,159,150,18,14,6,9,0.8,0.7
2022-06-17T22:00:00,1330A,114.1566,30.4825,武汉市,沌口新区,,32,24,29,22,18,163,89,141,123,26,23,11,10,0.7,0.7
2022-06-17T22:00:00,1331A,114.3014,30.5944,武汉市,汉口江滩,,42,33,34,20,20,165,32,149,102,83,44,7,8,0.6,0.7
2022-06-17T22:00:00,1333A,114.135,30.6319,武汉市,吴家山,,34,34,32,7,14,158,98,149,134,13,13,7,9,0.8,0.7
2022-06-17T22:00:00,1334A,113.8454,30.2917,武汉市,沉湖七壕(对照点),,25,24,62,17,21,114,78,103,98,8,16,6,7,0.7,0.7
2022-06-17T22:00:00,1335A,113.0833,28.2325,长沙市,经开区环保局,,16,5,14,11,20,69,44,63,54,10,13,4,6,0.7,0.7
2022-06-17T22:00:00,1336A,112.8872,28.2189,长沙市,高开区环保局,,,3,15,,19,66,42,58,54,12,12,6,6,0.7,0.8
2022-06-17T22:00:00,1337A,113.0792,28.2053,长沙市,马坡岭,,16,4,18,0,9,75,50,72,64,8,10,4,5,0.7,0.7
2022-06-17T22:00:00,1338A,112.9394,28.19,长沙市,湖南师范大学,,14,8,20,2,9,70,42,62,57,12,14,5,7,0.9,0.8
2022-06-17T22:00:00,1339A,113.0178,28.1322,长沙市,雨花区环保局,,16,5,14,11,15,62,31,55,47,8,10,4,5,0.7,0.7
2022-06-17T22:00:00,1340A,112.9792,28.2597,长沙市,伍家岭,,18,7,18,12,17,70,42,59,55,16,19,3,3,0.7,0.7
2022-06-17T22:00:00,1341A,113.0014,28.1944,长沙市,火车新站,,12,9,24,8,15,64,36,56,50,13,15,5,6,0.6,0.5
2022-06-17T22:00:00,1342A,112.9844,28.1178,长沙市,天心区环保局,,10,7,20,6,12,60,30,53,43,10,12,3,4,0.7,0.6
2022-06-17T22:00:00,1343A,112.8908,28.1308,长沙市,湖南中医药大学,,20,9,23,14,19,68,35,60,55,15,21,4,5,0.9,0.8
2022-06-17T22:00:00,1344A,112.9581,28.3611,长沙市,沙坪(对照点),,14,14,26,9,18,64,33,57,49,15,16,3,2,0.6,0.6
2022-06-17T22:00:00,1345A,113.2347,23.1423,广州市,广雅中学,,26,26,23,10,11,76,18,57,38,26,23,4,4,0.7,0.6
2022-06-17T22:00:00,1346A,113.2612,23.105,广州市,市五中,,25,25,21,12,11,77,16,61,39,21,19,4,5,0.7,0.6
2022-06-17T22:00:00,1348A,113.3478,23.0916,广州市,广东商学院,,28,28,23,12,12,81,24,66,49,19,21,3,4,0.6,0.6
2022-06-17T22:00:00,1349A,113.4332,23.1047,广州市,市八十六中,,27,27,26,10,10,84,1,63,34,38,28,6,6,0.4,0.4
2022-06-17T22:00:00,1350A,113.3505,22.9483,广州市,番禺中学,,18,18,21,8,9,84,24,62,43,9,15,5,5,0.5,0.5
2022-06-17T22:00:00,1351A,113.2146,23.3916,广州市,花都师范,,30,30,23,13,12,94,18,72,42,30,28,5,5,0.5,0.5
2022-06-17T22:00:00,1352A,113.2597,23.1331,广州市,市监测站,,27,27,28,11,10,81,20,62,41,23,21,6,6,0.6,0.6
2022-06-17T22:00:00,1353A,113.5618,23.312,广州市,九龙镇镇龙,,21,18,16,8,8,86,3,68,42,41,29,6,6,0.6,0.6
2022-06-17T22:00:00,1354A,113.2765,23.1544,广州市,麓湖,,21,21,22,12,11,84,23,66,46,18,18,3,3,0.7,0.7
2022-06-17T22:00:00,1355A,113.443,23.3035,广州市,帽峰山森林公园(对照点),,22,22,18,10,9,93,13,82,55,35,18,5,4,0.4,0.6
2022-06-17T22:00:00,1356A,114.1063,22.5545,深圳市,通心岭子站,,15,15,14,5,5,45,20,35,27,9,8,3,3,0.6,0.5
2022-06-17T22:00:00,1357A,114.117,22.5625,深圳市,洪湖,,,15,14,4,5,50,,40,36,11,11,6,6,0.4,0.4
2022-06-17T22:00:00,1358A,113.987,22.5417,深圳市,华侨城,,17,17,17,0,3,38,17,31,24,8,10,4,4,0.5,0.5
2022-06-17T22:00:00,1359A,113.9181,22.5171,深圳市,南海子站,,39,32,22,27,6,38,7,32,22,29,20,3,3,0.6,0.5
2022-06-17T22:00:00,1360A,114.2458,22.5689,深圳市,盐田,,14,14,16,4,6,44,16,39,28,13,15,2,2,0.5,0.6
2022-06-17T22:00:00,1361A,114.2283,22.7244,深圳市,龙岗,,21,21,23,5,5,73,34,55,43,20,15,7,7,0.4,0.5
2022-06-17T22:00:00,1363A,114.494,22.5422,深圳市,南澳,,16,16,14,5,3,53,28,52,40,9,6,6,6,0.5,0.6
2022-06-17T22:00:00,1364A,114.41,22.6342,深圳市,葵涌,,14,14,11,2,3,46,12,39,30,17,7,6,6,0.5,0.5
2022-06-17T22:00:00,1365A,114.297,22.5978,深圳市,梅沙,,17,17,17,4,5,41,10,36,24,16,14,5,5,0.4,0.5
2022-06-17T22:00:00,1366A,114.0678,22.738,深圳市,观澜,,21,21,18,5,4,36,12,32,24,17,14,4,4,0.4,0.5
2022-06-17T22:00:00,1367A,113.5814,22.2618,珠海市,吉大,,13,13,14,4,8,41,23,37,31,6,3,8,8,0.3,0.3
2022-06-17T22:00:00,1368A,113.4881,22.2335,珠海市,前山,,12,12,11,4,5,41,22,37,30,8,7,9,9,0.3,0.3
2022-06-17T22:00:00,1369A,113.628,22.4251,珠海市,唐家,,14,14,9,3,6,50,21,46,36,9,5,8,8,0.4,0.4
2022-06-17T22:00:00,1370A,113.299,22.2281,珠海市,斗门,,16,16,14,8,6,42,15,40,30,14,6,12,9,0.5,0.5
2022-06-17T22:00:00,1371A,113.1294,23.0067,佛山市,湾梁,,22,22,22,10,8,61,13,48,30,22,16,6,5,0.3,0.3
2022-06-17T22:00:00,1372A,113.1083,23.0478,佛山市,华材职中,,31,31,18,9,7,73,14,50,32,19,15,6,6,0.6,0.6
2022-06-17T22:00:00,1373A,113.144,23.0453,佛山市,南海气象局,,24,24,22,10,10,69,15,54,34,26,19,5,4,0.6,0.7
2022-06-17T22:00:00,1374A,113.2881,22.8094,佛山市,顺德苏岗,,10,9,5,7,6,66,23,50,36,10,13,4,5,0.3,0.3
2022-06-17T22:00:00,1376A,112.8383,22.8678,佛山市,高明孔堂,,18,18,16,5,6,47,33,44,38,5,4,5,5,0.5,0.5
2022-06-17T22:00:00,1377A,112.8836,23.1588,佛山市,三水监测站,,27,27,24,10,10,67,13,44,22,26,23,9,7,0.5,0.5
2022-06-17T22:00:00,1378A,112.867,23.185,佛山市,三水云东海,,26,26,26,14,11,74,19,50,29,24,21,8,6,0.5,0.5
2022-06-17T22:00:00,1379A,113.3769,22.5211,中山市,华柏园,,32,11,16,22,10,47,21,44,36,9,7,4,3,0.6,0.5
2022-06-17T22:00:00,1380A,113.3881,22.5497,中山市,张溪,,16,16,17,5,9,56,27,51,42,7,4,4,4,0.5,0.4
2022-06-17T22:00:00,1381A,113.4075,22.5111,中山市,紫马岭,,21,21,16,5,5,51,25,47,38,8,6,4,4,0.7,0.8
2022-06-17T22:00:00,1382A,113.4411,22.4853,中山市,长江旅游区(对照点),,11,11,15,5,7,60,26,54,42,5,4,4,4,0.3,0.5
2022-06-17T22:00:00,1383A,113.1064,22.6058,江门市,北街,,13,13,18,4,6,48,26,41,34,8,8,4,4,0.4,0.4
2022-06-17T22:00:00,1384A,113.0731,22.5835,江门市,西区,,28,28,22,9,9,50,21,42,32,13,16,5,5,0.5,0.5
2022-06-17T22:00:00,1385A,113.0219,22.5311,江门市,圭峰西,,28,28,22,7,8,42,12,37,29,21,14,4,3,0.5,0.5
2022-06-17T22:00:00,1386A,113.0828,22.5947,江门市,东湖,,22,22,21,8,12,55,24,46,37,12,13,6,6,0.5,0.5
2022-06-17T22:00:00,1389A,113.7547,23.0494,东莞市,莞城梨川,,19,19,13,5,5,82,26,68,52,14,13,6,6,0.6,0.6
2022-06-17T22:00:00,1390A,113.7944,23.0128,东莞市,东城石井,,20,20,14,6,5,84,26,71,53,15,12,1,2,0.4,0.4
2022-06-17T22:00:00,1391A,113.7383,22.9658,东莞市,南城西平,,18,18,14,6,7,83,28,68,51,14,13,2,2,0.5,0.5
2022-06-17T22:00:00,1392A,114.4183,23.0528,惠州市,河南岸金山湖子站,,19,19,20,4,8,70,16,59,44,14,14,2,2,0.5,0.5
2022-06-17T22:00:00,1393A,114.4053,23.0822,惠州市,下埔横江三路子站,,,19,19,,6,73,16,61,44,19,19,2,2,0.4,0.4
2022-06-17T22:00:00,1394A,114.4103,23.1142,惠州市,江北云山西路子站,,15,15,24,8,8,84,15,71,49,18,16,3,6,0.4,0.6
2022-06-17T22:00:00,1395A,114.4645,22.7833,惠州市,惠阳区承修路船湖子站,,15,15,16,9,6,56,20,49,38,17,16,2,2,0.7,0.7
2022-06-17T22:00:00,1396A,114.5317,22.7422,惠州市,大亚湾管委会子站,,13,13,15,6,7,57,27,50,41,8,10,5,5,0.3,0.3
2022-06-17T22:00:00,1397A,112.4267,23.0706,肇庆市,睦岗子站,,18,18,20,7,10,62,27,51,38,15,18,9,9,0.5,0.5
2022-06-17T22:00:00,1398A,112.4645,23.0475,肇庆市,城中子站,,18,18,19,7,9,57,34,50,42,10,12,11,10,0.5,0.5
2022-06-17T22:00:00,1399A,112.5544,23.1522,肇庆市,坑口子站,,16,16,18,10,12,54,31,45,38,7,11,9,9,0.5,0.6
2022-06-17T22:00:00,1400A,112.4753,23.1,肇庆市,七星岩子站(对照点),,29,29,27,7,8,60,25,49,37,14,11,15,12,0.7,0.7
2022-06-17T22:00:00,1401A,108.3103,22.7881,南宁市,二十一中,,28,28,29,16,14,82,49,68,61,15,14,5,5,0.6,0.6
2022-06-17T22:00:00,1402A,108.3141,22.8528,南宁市,北湖,,32,32,34,14,14,86,48,71,60,11,18,4,4,0.7,0.7
2022-06-17T22:00:00,1403A,108.3206,22.8225,南宁市,市监测站,,26,26,30,15,14,79,43,64,55,18,18,8,8,0.5,0.6
2022-06-17T22:00:00,1404A,108.3829,22.8037,南宁市,大自然花园,,23,23,23,12,12,78,61,69,65,7,9,6,6,0.5,0.6
2022-06-17T22:00:00,1405A,108.4394,22.7904,南宁市,仙葫(对照点),,26,26,24,13,11,70,60,64,62,8,12,3,3,0.4,0.4
2022-06-17T22:00:00,1406A,108.2397,22.8467,南宁市,区农职院,,34,34,28,12,10,84,47,69,53,20,27,6,6,0.6,0.6
2022-06-17T22:00:00,1407A,108.3275,22.735,南宁市,英华嘉园,,35,32,33,24,16,63,36,54,46,27,23,5,5,0.5,0.6
2022-06-17T22:00:00,1408A,108.2257,22.7757,南宁市,沙井镇街道办,,32,32,34,13,12,62,44,57,47,20,29,5,5,0.3,0.6
2022-06-17T22:00:00,1409A,110.576,19.9507,海口市,东寨港(对照点),,,,25,2,11,24,14,22,20,3,3,7,9,0.2,0.1
2022-06-17T22:00:00,1410A,110.3232,20.0574,海口市,海南大学,,21,21,20,14,10,74,38,59,50,2,2,4,5,0.2,0.3
2022-06-17T22:00:00,1411A,110.283,20.0053,海口市,秀英海南医院,,17,17,20,10,9,61,17,47,41,23,11,2,2,0.3,0.3
2022-06-17T22:00:00,1412A,110.338,19.9969,海口市,海南师范大学,,22,21,19,15,7,71,24,50,46,13,9,3,3,0.5,0.5
2022-06-17T22:00:00,1413A,110.33,20.0356,海口市,龙华路环保局宿舍,,21,21,22,8,8,89,33,60,55,8,7,4,4,0.4,0.4
2022-06-17T22:00:00,1414A,106.3787,29.8279,重庆市,缙云山(对照点),,26,26,23,10,12,121,74,98,94,18,24,8,10,0.3,0.3
2022-06-17T22:00:00,1416A,106.4213,29.8253,重庆市,天生,,44,44,51,13,16,133,38,101,87,43,40,5,7,0.7,0.7
2022-06-17T22:00:00,1417A,106.6263,29.7228,重庆市,两路,,45,33,24,15,9,80,12,50,47,89,64,5,6,0.6,0.4
2022-06-17T22:00:00,1418A,106.2953,29.5983,重庆市,虎溪,,50,47,46,35,30,87,30,76,68,49,43,7,8,0.8,0.7
2022-06-17T22:00:00,1419A,106.5777,29.5102,重庆市,南坪,,42,42,32,16,9,91,23,86,62,40,15,8,9,0.7,0.6
2022-06-17T22:00:00,1420A,106.6556,29.6277,重庆市,唐家沱,颗粒物(PM10),53,55,35,17,8,81,5,58,41,62,49,7,7,0.7,0.6
2022-06-17T22:00:00,1421A,106.6349,29.4906,重庆市,茶园,,26,26,27,14,15,76,20,63,51,42,33,6,6,0.4,0.4
2022-06-17T22:00:00,1422A,106.3754,29.4572,重庆市,白市驿,,42,14,46,29,21,82,54,76,44,15,27,6,12,0.6,0.6
2022-06-17T22:00:00,1425A,106.6205,29.7166,重庆市,空港,,42,42,26,16,12,82,11,51,49,76,49,6,7,0.5,0.5
2022-06-17T22:00:00,1426A,106.4782,29.4875,重庆市,新山村,,44,44,30,19,11,71,21,62,50,59,50,6,10,0.4,0.3
2022-06-17T22:00:00,1427A,106.5616,29.6453,重庆市,礼嘉,颗粒物(PM10),60,69,36,15,12,90,6,61,56,92,70,12,12,0.9,0.8
2022-06-17T22:00:00,1428A,106.4522,29.7091,重庆市,蔡家,,38,31,35,26,25,100,18,77,64,56,41,7,8,0.5,0.5
2022-06-17T22:00:00,1429A,106.5093,29.3917,重庆市,鱼新街,,28,25,32,13,13,69,19,58,42,55,47,5,13,0.8,0.8
2022-06-17T22:00:00,1431A,103.9728,30.7236,成都市,金泉两河,颗粒物(PM10),52,54,50,31,33,199,88,167,139,34,30,4,4,0.5,0.5
2022-06-17T22:00:00,1432A,104.1419,30.6764,成都市,十里店,,42,42,47,23,27,169,85,146,121,19,24,4,6,0.4,0.5
2022-06-17T22:00:00,1433A,104.0594,30.5767,成都市,三瓦窑,,38,38,43,26,26,176,81,153,127,27,30,3,5,0.4,0.4
2022-06-17T22:00:00,1434A,104.1122,30.6306,成都市,沙河铺,,46,46,45,24,28,174,69,147,122,38,31,3,3,0.5,0.5
2022-06-17T22:00:00,1437A,104.0431,30.6556,成都市,君平街,,42,42,52,26,34,188,100,162,139,21,34,1,3,0.6,0.6
2022-06-17T22:00:00,1438A,103.6202,31.0201,成都市,灵岩寺(对照点),细颗粒物(PM2.5),62,49,47,44,35,195,152,178,173,8,6,13,6,0.9,0.8
2022-06-17T22:00:00,1439A,106.6899,26.5998,贵阳市,马鞍山,,32,27,18,22,12,54,25,38,37,14,12,4,4,0.7,0.7
2022-06-17T22:00:00,1440A,106.6971,26.5694,贵阳市,市环保站,,28,21,21,19,15,58,24,41,39,19,22,10,11,0.5,0.5
2022-06-17T22:00:00,1441A,106.6243,26.6266,贵阳市,鉴湖路,细颗粒物(PM2.5),62,63,28,44,14,64,20,43,36,12,11,4,4,0.9,0.8
2022-06-17T22:00:00,1442A,106.7487,26.6343,贵阳市,燕子冲,,32,22,25,22,22,45,16,34,30,8,10,5,6,0.6,0.6
2022-06-17T22:00:00,1443A,106.6555,26.4365,贵阳市,碧云窝,,34,34,34,19,16,63,25,52,48,19,23,3,4,0.7,0.6
2022-06-17T22:00:00,1444A,106.694,26.5161,贵阳市,中院村,,31,31,29,9,13,62,20,46,42,19,20,3,2,0.6,0.6
2022-06-17T22:00:00,1445A,106.7109,26.6027,贵阳市,红边门,,42,27,24,29,20,60,25,43,39,9,13,3,2,0.7,0.7
2022-06-17T22:00:00,1446A,106.7164,26.5699,贵阳市,新华路,,18,12,21,12,16,57,26,45,41,12,17,4,3,0.5,0.5
2022-06-17T22:00:00,1447A,106.674,26.5424,贵阳市,太慈桥,,36,36,10,17,10,55,19,43,40,18,20,8,9,0.5,0.6
2022-06-17T22:00:00,1450A,102.8204,24.8886,昆明市,呈贡新区,,21,20,27,11,12,84,65,81,76,6,11,7,6,0.4,0.5
2022-06-17T22:00:00,1451A,102.6251,24.9608,昆明市,西山森林公园(对照点),,18,16,18,8,10,84,57,80,75,13,10,10,9,0.3,0.3
2022-06-17T22:00:00,1452A,102.7252,25.0902,昆明市,龙泉镇,,26,26,32,10,14,73,47,71,66,10,12,11,10,0.4,0.4
2022-06-17T22:00:00,1453A,102.7266,25.0375,昆明市,东风东路,,29,29,24,11,12,79,48,73,66,15,13,7,7,0.3,0.4
2022-06-17T22:00:00,1454A,102.6742,25.0669,昆明市,金鼎山,,18,16,24,10,14,81,56,76,70,11,15,10,11,0.4,0.4
2022-06-17T22:00:00,1455A,102.6644,25.0401,昆明市,碧鸡广场,,22,22,23,10,13,82,50,78,70,18,19,13,12,0.6,0.5
2022-06-17T22:00:00,1456A,91.1319,29.6514,拉萨市,八廓街,,40,23,12,10,4,134,128,130,127,14,8,6,5,0.2,0.2
2022-06-17T22:00:00,1457A,91.1221,29.6747,拉萨市,市环保局,,40,16,15,5,5,139,125,130,126,15,14,8,8,0.3,0.3
2022-06-17T22:00:00,1458A,91.0874,29.6475,拉萨市,区监测站,,44,13,11,12,10,144,138,137,132,11,14,7,7,0.4,0.3
2022-06-17T22:00:00,1459A,91.1774,29.6541,拉萨市,西藏大学,,41,12,11,4,4,133,130,131,128,5,6,6,8,0.3,0.4
2022-06-17T22:00:00,1460A,90.9798,29.6588,拉萨市,区辐射站,,45,15,14,4,6,143,143,126,126,6,19,7,8,0.1,0.2
2022-06-17T22:00:00,1461A,91.0834,29.6292,拉萨市,拉萨火车站,,44,17,12,6,4,139,138,135,133,8,12,8,8,0.2,0.2
2022-06-17T22:00:00,1462A,108.882,34.2749,西安市,高压开关厂,,47,47,43,23,17,214,134,200,188,41,36,9,8,0.5,0.4
2022-06-17T22:00:00,1463A,108.993,34.2629,西安市,兴庆小区,,45,38,40,31,21,210,124,193,180,39,25,6,6,0.4,0.3
2022-06-17T22:00:00,1464A,109.06,34.2572,西安市,纺织城,颗粒物(PM10),57,64,51,27,21,215,62,192,169,94,50,8,7,0.5,0.4
2022-06-17T22:00:00,1465A,108.9356,34.2173,西安市,小寨,,46,46,38,23,16,219,125,202,183,45,33,7,5,0.3,0.2
2022-06-17T22:00:00,1466A,108.954,34.2713,西安市,市人民体育场,,43,27,48,30,29,206,119,206,148,39,29,6,6,0.5,0.4
2022-06-17T22:00:00,1467A,108.8922,34.2322,西安市,高新西区,,44,44,40,21,17,222,134,204,189,36,34,8,7,0.5,0.4
2022-06-17T22:00:00,1468A,108.935,34.3474,西安市,经开区,,47,47,43,25,16,211,145,189,182,31,35,5,4,0.3,0.3
2022-06-17T22:00:00,1469A,108.906,34.1546,西安市,长安区,,44,44,34,24,18,237,125,209,191,25,27,8,7,0.7,0.5
2022-06-17T22:00:00,1471A,109.2186,34.3731,西安市,临潼区,,50,36,51,17,19,228,159,203,192,10,28,6,6,0.4,0.4
2022-06-17T22:00:00,1472A,108.869,34.378,西安市,草滩(对照点),,40,40,46,21,12,200,89,177,160,46,51,8,5,0.8,0.9
2022-06-17T22:00:00,1473A,108.985,34.1978,西安市,曲江文化产业集团,,45,40,38,24,18,218,143,203,188,40,34,7,5,0.5,0.4
2022-06-17T22:00:00,1474A,109.051,34.3213,西安市,广运潭,颗粒物(PM10),52,54,40,22,19,203,130,184,173,38,25,8,7,0.4,0.3
2022-06-17T22:00:00,1476A,103.631,36.1031,兰州市,兰炼宾馆,颗粒物(PM10),60,70,44,19,19,187,110,174,159,16,18,4,5,0.1,0.3
2022-06-17T22:00:00,1478A,103.8412,36.0726,兰州市,生物制品所,颗粒物(PM10),57,63,42,22,20,188,114,175,157,20,17,5,7,0.6,0.6
2022-06-17T22:00:00,1479A,103.831,36.0464,兰州市,铁路设计院,,48,48,42,29,17,169,108,158,144,20,24,5,7,0.3,0.4
2022-06-17T22:00:00,1483A,101.524,36.6867,西宁市,第五水厂(对照点),臭氧1小时,68,44,35,17,16,222,174,206,194,43,35,16,12,0.9,0.6
2022-06-17T22:00:00,1484A,105.9512,38.6016,银川市,贺兰山马莲口(对照点),"颗粒物(PM10),臭氧1小时",72,94,42,19,16,207,177,189,189,9,7,18,11,0.4,0.4
2022-06-17T22:00:00,1488A,106.2328,38.4975,银川市,贺兰山东路,,47,47,33,20,14,222,124,196,190,52,18,14,10,0.6,0.4
2022-06-17T22:00:00,1489A,106.1358,38.5036,银川市,学院路,颗粒物(PM10),56,62,44,15,12,213,141,191,187,39,19,16,14,0.4,0.3
2022-06-17T22:00:00,1490A,87.5801,43.8303,乌鲁木齐市,监测站,,31,14,13,3,4,114,97,107,107,24,15,8,8,0.6,0.5
2022-06-17T22:00:00,1491A,87.6046,43.768,乌鲁木齐市,收费所,,,,15,,4,112,69,104,102,,19,6,6,0.4,0.4
2022-06-17T22:00:00,1492A,87.4754,43.9469,乌鲁木齐市,新疆农科院农场(对照点),,,,47,6,6,128,102,122,121,14,20,8,8,0.3,0.4
2022-06-17T22:00:00,1493A,87.5525,43.8711,乌鲁木齐市,铁路局,,31,22,14,11,6,124,98,114,114,22,15,8,8,0.5,0.5
2022-06-17T22:00:00,1494A,87.6432,43.831,乌鲁木齐市,三十一中学,,27,14,13,8,5,112,85,105,104,37,20,2,2,0.2,0.2
2022-06-17T22:00:00,1496A,87.7216,44.1747,乌鲁木齐市,米东区环保局,,28,23,18,7,17,120,88,112,108,15,16,10,10,0.4,0.5
2022-06-17T22:00:00,1508A,112.9433,27.8614,湘潭市,板塘,,24,24,29,9,12,52,32,45,36,16,18,4,7,0.9,0.7
2022-06-17T22:00:00,1511A,112.9118,27.8403,湘潭市,市监测站,,18,12,17,12,17,49,31,44,36,18,18,8,10,0.9,0.7
2022-06-17T22:00:00,1512A,112.8937,27.8728,湘潭市,江麓,,30,30,31,14,15,56,32,52,36,14,17,6,5,0.6,0.5
2022-06-17T22:00:00,1513A,112.9227,27.8159,湘潭市,岳塘,,18,18,27,11,14,55,35,52,43,14,12,3,3,0.9,0.7
2022-06-17T22:00:00,1514A,112.9074,27.9119,湘潭市,科大,,23,23,26,4,9,53,28,53,36,21,18,4,6,0.9,0.7
2022-06-17T22:00:00,1515A,113.135,27.8244,株洲市,天台山庄,,15,5,8,10,13,50,31,46,37,15,15,3,5,0.5,0.5
2022-06-17T22:00:00,1518A,113.095,27.8867,株洲市,株冶医院,,15,7,13,10,12,58,29,47,34,17,18,6,9,0.8,0.7
2022-06-17T22:00:00,1519A,113.167,27.8667,株洲市,市四中,,13,6,16,7,15,57,36,53,46,26,20,5,9,0.8,1
2022-06-17T22:00:00,1520A,113.143,27.8381,株洲市,火车站,,14,14,20,8,13,51,30,45,36,15,13,4,4,0.6,0.6
2022-06-17T22:00:00,1524A,113.13,27.8528,株洲市,市监测站,,18,9,17,12,17,60,37,54,44,16,14,3,6,0.6,0.5
2022-06-17T22:00:00,1559A,113.251,27.8336,株洲市,大京风景区(对照点),,12,1,15,8,12,50,29,46,35,5,5,3,3,0.6,0.6
2022-06-17T22:00:00,1562A,113.0048,27.9153,湘潭市,昭山,,15,14,11,10,13,54,26,47,34,13,11,4,5,0.6,0.5
2022-06-17T22:00:00,1564A,112.4876,27.9164,湘潭市,韶山(对照点),,19,11,22,13,14,58,37,56,50,8,9,2,3,0.8,0.7
2022-06-17T22:00:00,1585A,109.8756,40.6532,包头市,市环境监测站,颗粒物(PM10),67,83,61,19,21,165,131,155,142,21,37,20,16,0.5,0.7
2022-06-17T22:00:00,1587A,109.9991,40.5842,包头市,包头八中,颗粒物(PM10),77,104,66,37,29,177,135,161,151,17,27,31,34,0.6,0.7
2022-06-17T22:00:00,1588A,109.8538,40.6821,包头市,青山宾馆,颗粒物(PM10),56,61,64,20,27,164,129,153,138,19,48,14,22,0.4,0.8
2022-06-17T22:00:00,1589A,109.8642,40.6288,包头市,惠龙物流,颗粒物(PM10),65,80,65,21,20,167,134,162,152,21,37,31,23,0.7,0.7
2022-06-17T22:00:00,1590A,110.0377,40.5546,包头市,东河鸿龙湾,颗粒物(PM10),88,125,80,26,27,192,131,171,150,16,27,28,21,0.7,0.6
2022-06-17T22:00:00,1591A,110.0023,39.8129,鄂尔多斯市,综合楼,,,,49,,14,199,140,169,168,22,29,6,8,0.5,0.5
2022-06-17T22:00:00,1592A,109.9486,39.8261,鄂尔多斯市,巴音孟克林场办事处,颗粒物(PM10),63,75,58,12,18,200,134,173,169,13,19,30,9,0.7,0.7
2022-06-17T22:00:00,1593A,109.7736,39.5986,鄂尔多斯市,康泽苑,,44,34,40,12,14,194,139,170,167,16,16,4,5,0.4,0.4
2022-06-17T22:00:00,1594A,109.8119,39.5989,鄂尔多斯市,华泰汽车城,,44,27,42,9,16,198,140,173,170,13,18,6,6,0.4,0.5
2022-06-17T22:00:00,1595A,109.9734,39.7884,鄂尔多斯市,奥林花园,,46,46,83,9,21,197,125,167,162,25,30,6,7,0.5,0.6
2022-06-17T22:00:00,1597A,122.2703,40.7094,营口市,大庆路,,39,31,33,22,15,168,124,149,137,11,10,4,7,0.6,0.5
2022-06-17T22:00:00,1598A,122.215,40.6511,营口市,镜湖西路,,41,25,27,12,11,173,129,146,135,7,14,7,4,0.6,0.5
2022-06-17T22:00:00,1599A,122.167,40.6655,营口市,西炮台,,40,24,23,16,12,172,125,159,142,18,21,5,6,0.6,0.6
2022-06-17T22:00:00,1600A,124.3303,40.0625,丹东市,江湾东路,,30,22,19,13,12,105,94,92,92,6,7,6,8,0.4,0.4
2022-06-17T22:00:00,1601A,124.4256,40.1503,丹东市,临江后街,,,,,14,10,141,102,128,126,2,4,11,12,1.2,1.2
2022-06-17T22:00:00,1602A,124.3933,40.1461,丹东市,元宝山,,31,26,21,14,12,134,99,124,122,4,5,9,10,0.7,0.6
2022-06-17T22:00:00,1603A,124.3633,40.1092,丹东市,民主桥,,31,24,18,14,12,137,99,122,121,2,2,13,14,0.8,0.8
2022-06-17T22:00:00,1604A,122.0303,41.1489,盘锦市,开发区,,32,14,25,9,16,158,101,146,134,14,12,5,4,0.7,0.6
2022-06-17T22:00:00,1605A,122.0485,41.0883,盘锦市,兴隆台,,31,20,26,15,17,162,99,147,135,16,13,2,3,0.7,0.6
2022-06-17T22:00:00,1606A,121.8297,41.1028,盘锦市,新生街道,,32,9,20,11,16,158,100,141,134,12,11,2,2,0.6,0.5
2022-06-17T22:00:00,1607A,120.9092,40.7136,葫芦岛市,龙港区,,41,26,30,23,24,170,131,155,154,8,12,5,6,0.5,0.5
2022-06-17T22:00:00,1608A,120.8392,40.7514,葫芦岛市,化工街,细颗粒物(PM2.5),65,33,50,47,33,175,124,157,152,8,12,5,5,0.3,0.3
2022-06-17T22:00:00,1609A,120.8341,40.7073,葫芦岛市,新区,,43,29,34,30,36,175,127,157,154,9,12,6,7,0.6,0.6
2022-06-17T22:00:00,1610A,120.8695,40.7677,葫芦岛市,东城区,细颗粒物(PM2.5),52,29,34,36,39,167,123,151,147,9,14,5,6,0.4,0.3
2022-06-17T22:00:00,1611A,118.5819,24.9117,泉州市,涂山街,,17,17,20,8,13,40,23,36,32,24,28,5,8,0.3,0.4
2022-06-17T22:00:00,1612A,118.5972,24.8978,泉州市,津头埔,,19,19,32,12,15,35,14,31,27,27,28,5,5,0.4,0.5
2022-06-17T22:00:00,1613A,118.6663,24.9424,泉州市,万安,,20,20,20,9,13,45,20,40,34,20,24,5,5,0.5,0.5
2022-06-17T22:00:00,1616A,117.6795,36.229,济南市,技术学院,颗粒物(PM10),68,85,50,35,25,249,149,224,214,41,12,10,9,1.2,0.8
2022-06-17T22:00:00,1618A,118.3429,35.0532,临沂市,沂河小区,颗粒物(PM10),70,90,77,32,34,223,103,208,190,26,11,8,10,0.4,0.6
2022-06-17T22:00:00,1619A,118.295,35.0583,临沂市,鲁南制药厂,颗粒物(PM10),67,83,67,30,32,248,123,231,215,42,21,10,8,0.8,0.9
2022-06-17T22:00:00,1620A,118.2794,34.9976,临沂市,新光毛纺厂,"颗粒物(PM10),细颗粒物(PM2.5)",70,90,68,51,33,221,128,214,167,42,34,3,7,0.7,1
2022-06-17T22:00:00,1621A,118.3956,35.0888,临沂市,河东保险公司,颗粒物(PM10),60,70,64,26,30,231,107,205,186,34,18,4,7,0.3,0.6
2022-06-17T22:00:00,1622A,116.3032,37.4674,德州市,儿童乐园,颗粒物(PM10),115,180,113,70,48,328,204,300,287,32,13,15,12,0.8,0.8
2022-06-17T22:00:00,1624A,116.2991,37.4451,德州市,监理站,臭氧1小时,111,149,100,69,46,310,221,288,280,34,20,25,12,1.0,0.9
2022-06-17T22:00:00,1625A,115.9848,36.4372,聊城市,区政府,颗粒物(PM10),82,113,101,46,46,310,180,285,272,35,14,20,15,1.0,0.9
2022-06-17T22:00:00,1628A,118.0062,37.3803,滨州市,市环保局,颗粒物(PM10),64,78,58,36,35,285,144,252,226,17,13,10,10,0.5,0.4
2022-06-17T22:00:00,1629A,118.0018,37.3617,滨州市,第二水厂,,49,44,47,34,27,240,119,210,188,24,16,9,11,0.7,0.7
2022-06-17T22:00:00,1630A,117.9776,37.393,滨州市,北中新校,颗粒物(PM10),52,53,43,33,28,258,135,230,209,20,14,6,7,0.6,0.6
2022-06-17T22:00:00,1631A,118.0414,36.8103,淄博市,人民公园,细颗粒物(PM2.5),78,100,51,57,33,240,134,222,207,44,17,12,9,0.6,0.3
2022-06-17T22:00:00,1633A,117.8525,36.4847,淄博市,双山,颗粒物(PM10),67,83,53,46,35,234,134,216,203,32,14,12,12,0.5,0.5
2022-06-17T22:00:00,1634A,117.9592,36.6331,淄博市,气象站,臭氧1小时,74,79,49,41,24,235,179,222,215,22,15,18,12,0.5,0.3
2022-06-17T22:00:00,1635A,118.3092,36.8194,淄博市,莆田园,颗粒物(PM10),60,70,42,41,25,265,120,237,201,35,16,8,11,0.5,0.3
2022-06-17T22:00:00,1637A,117.558,34.8438,枣庄市,市中区政府,颗粒物(PM10),63,75,84,22,32,232,158,219,200,33,24,19,14,0.5,0.7
2022-06-17T22:00:00,1638A,117.2852,34.7837,枣庄市,薛城环保局,颗粒物(PM10),67,83,84,24,35,253,128,226,195,38,28,12,22,0.8,0.7
2022-06-17T22:00:00,1639A,117.5852,34.7745,枣庄市,峄城区政府,颗粒物(PM10),74,97,84,35,41,232,132,207,186,37,26,8,15,0.5,0.6
2022-06-17T22:00:00,1640A,117.7276,34.5578,枣庄市,台儿庄区环保局,颗粒物(PM10),64,78,67,24,32,223,134,205,187,30,24,12,14,0.7,0.7
2022-06-17T22:00:00,1641A,117.4518,35.0992,枣庄市,山亭区环保局,颗粒物(PM10),59,68,63,27,35,253,153,226,209,29,20,10,13,0.5,0.6
2022-06-17T22:00:00,1642A,121.2514,37.5639,烟台市,开发区,,43,29,40,9,21,184,136,162,153,15,13,5,6,0.4,0.5
2022-06-17T22:00:00,1643A,121.3719,37.5433,烟台市,轴承厂,,47,19,35,14,23,171,149,160,156,7,8,4,4,0.3,0.4
2022-06-17T22:00:00,1644A,121.3181,37.5436,烟台市,西郊化工站,,45,19,32,9,22,171,141,156,149,6,7,5,5,0.3,0.4
2022-06-17T22:00:00,1645A,121.4478,37.4822,烟台市,莱山环保局,,44,17,29,9,22,166,140,154,152,8,6,6,6,0.3,0.3
2022-06-17T22:00:00,1646A,121.2611,37.4967,烟台市,福山环保局,,37,22,38,9,19,187,118,155,135,16,15,3,3,0.3,0.3
2022-06-17T22:00:00,1650A,119.1437,36.7023,潍坊市,环保局,,49,48,28,28,21,206,155,189,184,7,8,8,7,0.6,0.6
2022-06-17T22:00:00,1653A,116.6251,35.4302,济宁市,火炬城,,,58,62,24,28,260,163,241,220,,12,7,10,0.5,0.7
2022-06-17T22:00:00,1655A,116.5491,35.4042,济宁市,电化厂,颗粒物(PM10),57,64,66,24,28,246,128,229,202,34,16,2,12,0.7,1
2022-06-17T22:00:00,1656A,117.1437,36.1937,泰安市,监测站,颗粒物(PM10),74,98,66,43,36,253,145,233,218,28,14,11,12,0.6,0.6
2022-06-17T22:00:00,1657A,117.0885,36.2017,泰安市,人口学校,臭氧1小时,105,70,65,28,31,261,209,242,239,18,14,7,9,0.4,0.5
2022-06-17T22:00:00,1658A,117.1089,36.1758,泰安市,电力学校,颗粒物(PM10),63,75,67,30,33,243,168,222,212,22,12,6,7,0.8,0.8
2022-06-17T22:00:00,1659A,119.471,35.4209,日照市,监测站,,49,44,37,34,27,194,111,164,148,8,16,5,5,0.4,0.7
2022-06-17T22:00:00,1660A,119.523,35.4216,日照市,市政府广场,,41,41,36,27,22,174,109,165,146,5,12,6,7,0.5,0.7
2022-06-17T22:00:00,1661A,119.5587,35.4044,日照市,港务局,,44,44,33,22,16,184,134,180,161,4,11,3,4,0.4,0.6
2022-06-17T22:00:00,1662A,122.1214,37.4236,威海市,华夏技校,,40,14,25,9,22,159,126,147,140,10,9,4,4,0.4,0.4
2022-06-17T22:00:00,1663A,122.0508,37.5236,威海市,山大分校,,50,15,26,5,16,187,159,169,164,7,9,6,6,0.4,0.4
2022-06-17T22:00:00,1664A,122.1067,37.5072,威海市,市监测站,,42,24,27,15,25,163,134,151,145,14,14,6,5,0.4,0.4
2022-06-17T22:00:00,1666A,118.6614,37.4309,东营市,市环保局,,46,39,27,19,16,197,145,184,176,9,8,8,10,0.9,0.6
2022-06-17T22:00:00,1669A,113.5824,24.7733,韶关市,市八中,,35,31,31,24,17,42,15,35,22,38,20,8,7,1.2,0.8
2022-06-17T22:00:00,1671A,113.5917,24.7972,韶关市,园林处,,49,49,28,34,17,37,4,30,17,38,20,3,4,1.3,0.8
2022-06-17T22:00:00,1672A,113.6735,24.7791,韶关市,韶关学院,,28,16,27,19,19,41,39,33,33,9,21,7,9,0.4,0.7
2022-06-17T22:00:00,1673A,113.5971,24.6863,韶关市,曲江监测站,,16,16,25,10,16,108,32,48,26,15,28,8,9,0.5,0.7
2022-06-17T22:00:00,1674A,116.6794,23.3667,汕头市,金平子站,,20,20,22,7,13,49,31,44,41,9,14,8,8,0.5,0.6
2022-06-17T22:00:00,1675A,116.7244,23.3633,汕头市,龙湖子站,,20,20,16,5,6,54,28,47,43,15,13,8,7,0.5,0.4
2022-06-17T22:00:00,1676A,116.7258,23.2775,汕头市,濠江子站,,15,12,20,10,8,47,18,42,37,21,15,10,9,0.5,0.5
2022-06-17T22:00:00,1677A,116.7519,23.4714,汕头市,澄海子站,,37,37,29,11,17,57,21,50,39,21,18,4,4,0.7,0.6
2022-06-17T22:00:00,1678A,116.6092,23.2539,汕头市,潮阳子站,,14,14,16,7,8,42,25,40,37,9,8,8,7,0.5,0.5
2022-06-17T22:00:00,1680A,110.3539,21.2706,湛江市,湛江影剧院,,47,47,29,14,12,81,26,68,59,28,15,6,7,0.6,0.5
2022-06-17T22:00:00,1681A,110.3928,21.2228,湛江市,市环境监测站,,30,30,27,13,13,94,36,80,72,17,15,7,6,0.6,0.4
2022-06-17T22:00:00,1682A,110.4019,21.1997,湛江市,环保局宿舍,,25,25,27,11,14,89,23,72,65,27,18,5,5,0.6,0.5
2022-06-17T22:00:00,1683A,110.4111,21.2028,湛江市,霞山游泳场,,21,21,21,8,11,83,37,68,62,10,13,6,6,0.5,0.4
2022-06-17T22:00:00,1684A,110.3316,21.2679,湛江市,麻章区环保局,颗粒物(PM10),54,58,31,22,16,79,24,68,59,38,14,6,8,0.6,0.5
2022-06-17T22:00:00,1685A,110.4558,21.2567,湛江市,坡头区环保局,,19,19,23,10,13,93,40,84,72,8,9,5,5,0.5,0.6
2022-06-17T22:00:00,1686A,111.0286,21.4688,茂名市,电白南海,,29,29,27,7,6,47,30,38,34,10,12,2,1,0.5,0.5
2022-06-17T22:00:00,1687A,110.9294,21.6533,茂名市,茂石化七小,,31,31,26,12,12,61,32,54,45,10,11,4,4,0.5,0.5
2022-06-17T22:00:00,1688A,110.9107,21.6687,茂名市,健康路,,19,19,20,3,5,62,22,52,44,9,9,4,5,0.5,0.6
2022-06-17T22:00:00,1689A,110.8592,21.6828,茂名市,高岭,,14,14,8,0,4,66,21,66,41,13,9,5,5,0.6,0.5
2022-06-17T22:00:00,1690A,116.1231,24.3284,梅州市,梅江月梅,,16,16,12,8,8,66,16,54,42,6,13,1,2,0.5,0.6
2022-06-17T22:00:00,1691A,116.0797,24.2719,梅州市,梅县新城,,20,20,13,8,10,54,8,40,24,17,20,4,4,0.7,0.7
2022-06-17T22:00:00,1692A,116.1248,24.2654,梅州市,环境监控中心,,18,18,19,10,13,62,3,52,34,16,20,4,5,0.7,0.6
2022-06-17T22:00:00,1693A,115.3653,22.775,汕尾市,市环保局,,11,10,14,4,4,44,33,39,36,6,6,5,5,0.4,0.4
2022-06-17T22:00:00,1694A,115.3706,22.7898,汕尾市,市政府,,11,4,12,5,5,47,35,42,38,6,6,5,5,0.5,0.5
2022-06-17T22:00:00,1695A,115.3622,22.7925,汕尾市,新城中学,,13,13,14,5,5,48,19,45,36,5,4,5,5,0.6,0.6
2022-06-17T22:00:00,1696A,114.6778,23.7569,河源市,源西(对照点),,31,31,15,20,8,42,1,30,16,38,28,4,3,1.3,0.5
2022-06-17T22:00:00,1697A,114.6944,23.7586,河源市,东埔,,25,24,12,17,7,52,5,38,25,29,20,3,3,1.1,0.8
2022-06-17T22:00:00,1698A,114.6892,23.7233,河源市,老城,,26,24,12,18,8,54,9,42,31,22,16,3,2,1.1,0.7
2022-06-17T22:00:00,1701A,111.9491,21.8658,阳江市,马南垌,,18,18,21,5,9,46,31,43,36,3,4,2,2,0.6,0.6
2022-06-17T22:00:00,1702A,113.0426,23.691,清远市,环保大楼(对照点),,18,18,15,12,10,108,19,74,44,21,14,5,5,0.4,0.4
2022-06-17T22:00:00,1703A,113.0208,23.7106,清远市,凤城街办,,19,19,16,9,9,82,14,62,40,23,15,6,5,0.5,0.6
2022-06-17T22:00:00,1705A,116.6367,23.6719,潮州市,西园路(对照点),,32,27,24,22,15,72,17,54,42,25,18,5,5,1.1,1
2022-06-17T22:00:00,1706A,116.6447,23.6706,潮州市,档案局,,43,43,27,17,14,89,8,66,43,29,20,8,8,1.1,0.9
2022-06-17T22:00:00,1708A,116.3701,23.5345,揭阳市,新兴,,25,25,31,9,17,82,10,57,38,27,21,5,6,1.0,0.9
2022-06-17T22:00:00,1709A,116.3264,23.5443,揭阳市,西马,,21,21,25,6,16,93,15,49,41,19,19,6,7,1.2,0.9
2022-06-17T22:00:00,1710A,116.3611,23.5626,揭阳市,东兴,,36,36,33,10,13,81,13,54,43,24,22,4,6,0.9,0.9
2022-06-17T22:00:00,1711A,116.4151,23.5294,揭阳市,渔湖,,39,39,32,15,14,68,11,54,36,28,17,8,5,0.9,0.8
2022-06-17T22:00:00,1714A,112.0539,22.9539,云浮市,牧羊,,38,38,26,8,12,44,11,40,32,25,16,6,6,0.7,0.6
2022-06-17T22:00:00,1715A,102.575,24.3711,玉溪市,东风水库,,33,33,22,10,11,74,49,70,63,11,8,5,4,0.8,0.7
2022-06-17T22:00:00,1718A,115.4208,35.2464,菏泽市,气象局,颗粒物(PM10),66,82,79,20,24,231,148,208,184,25,19,21,9,0.5,0.4
2022-06-17T22:00:00,1719A,115.4747,35.2375,菏泽市,市政协,颗粒物(PM10),70,89,78,20,20,225,144,202,180,25,16,15,10,0.2,0.2
2022-06-17T22:00:00,1721A,113.3819,40.1097,大同市,果树场(对照点),颗粒物(PM10),58,65,62,26,36,224,115,197,166,31,25,9,12,0.6,0.7
2022-06-17T22:00:00,1723A,113.2994,40.0758,大同市,云冈宾馆,颗粒物(PM10),56,62,87,24,42,225,122,196,165,30,28,9,12,0.5,0.7
2022-06-17T22:00:00,1724A,113.3444,40.0917,大同市,大同大学,颗粒物(PM10),57,63,80,23,33,236,137,207,176,22,19,6,9,0.6,0.7
2022-06-17T22:00:00,1725A,113.2661,40.1269,大同市,安家小村,颗粒物(PM10),64,78,93,24,28,255,137,220,186,23,22,11,18,0.5,0.7
2022-06-17T22:00:00,1726A,113.2711,40.0844,大同市,教育学院,颗粒物(PM10),65,80,92,19,33,240,122,206,169,33,25,8,13,0.5,0.6
2022-06-17T22:00:00,1727A,113.1147,36.1547,长治市,清华站,臭氧1小时,106,56,55,27,24,212,212,187,187,16,26,9,10,0.8,0.7
2022-06-17T22:00:00,1728A,113.1031,36.1989,长治市,监测站,臭氧1小时,100,53,56,24,26,200,200,185,185,6,22,9,9,0.5,0.6
2022-06-17T22:00:00,1730A,113.0886,36.2125,长治市,审计局,臭氧1小时,90,57,53,27,24,192,192,179,179,21,34,9,12,0.6,0.7
2022-06-17T22:00:00,1731A,113.0844,36.1856,长治市,长治八中,臭氧1小时,95,62,61,22,22,196,196,188,188,20,36,13,17,0.5,0.6
2022-06-17T22:00:00,1733A,111.5531,36.0783,临汾市,临钢医院,颗粒物(PM10),52,54,66,20,20,228,108,218,185,39,39,4,10,0.6,0.8
2022-06-17T22:00:00,1734A,111.5028,36.0714,临汾市,技工学校,颗粒物(PM10),59,67,54,30,28,222,97,198,167,32,35,8,14,0.4,0.7
2022-06-17T22:00:00,1736A,111.5018,36.0855,临汾市,市委,,,73,57,36,23,240,84,223,187,,37,2,9,0.6,0.4
2022-06-17T22:00:00,1738A,113.5758,37.8572,阳泉市,市中心,臭氧1小时,123,108,130,54,63,300,246,281,269,34,50,20,17,0.9,1
2022-06-17T22:00:00,1739A,113.4894,37.8731,阳泉市,赛鱼,臭氧1小时,127,89,92,43,55,311,254,291,272,,41,14,13,0.8,0.9
2022-06-17T22:00:00,1740A,113.5819,37.8486,阳泉市,南庄,臭氧1小时,125,112,125,64,63,300,249,277,265,27,32,19,17,1.1,1.2
2022-06-17T22:00:00,1742A,113.5614,37.8703,阳泉市,平坦,臭氧1小时,133,110,132,50,58,320,265,296,283,22,41,19,21,0.9,1.2
2022-06-17T22:00:00,1743A,113.5158,37.8392,阳泉市,大阳泉,臭氧1小时,130,88,98,46,57,296,260,276,267,19,17,17,17,0.8,1
2022-06-17T22:00:00,1744A,118.9233,42.2816,赤峰市,松山一中,细颗粒物(PM2.5),64,66,49,46,33,168,109,155,140,23,22,12,11,1.0,0.9
2022-06-17T22:00:00,1745A,118.9576,42.2728,赤峰市,哈达街,细颗粒物(PM2.5),64,69,54,46,30,156,112,148,138,23,24,8,15,0.9,0.8
2022-06-17T22:00:00,1746A,118.8788,42.2554,赤峰市,天义路,颗粒物(PM10),53,56,42,34,26,178,102,163,149,21,17,12,12,0.7,0.7
2022-06-17T22:00:00,1748A,123.044,41.1196,鞍山市,深沟寺,,42,36,27,29,20,164,103,154,118,7,7,7,8,0.6,0.6
2022-06-17T22:00:00,1749A,123.011,41.0931,鞍山市,太阳城,,41,41,32,27,20,162,105,140,115,12,11,7,8,0.7,0.7
2022-06-17T22:00:00,1750A,123.0485,41.1442,鞍山市,太平,颗粒物(PM10),51,51,38,29,21,171,120,138,124,11,12,8,9,0.7,0.6
2022-06-17T22:00:00,1751A,122.9642,41.0971,鞍山市,铁西三道街,,47,47,40,30,21,174,132,151,124,11,16,5,7,0.6,0.8
2022-06-17T22:00:00,1752A,122.9341,41.0833,鞍山市,铁西工业园区,,48,48,52,31,24,161,121,143,124,15,16,6,9,0.6,0.9
2022-06-17T22:00:00,1753A,123.022,41.0821,鞍山市,明达新区,,43,42,32,30,20,165,125,141,123,9,9,4,5,0.5,0.5
2022-06-17T22:00:00,1754A,123.1289,41.0228,鞍山市,千山(对照点),细颗粒物(PM2.5),104,91,84,78,67,102,71,96,92,6,7,3,4,0.3,0.3
2022-06-17T22:00:00,1755A,123.7977,41.8491,抚顺市,望花区,,41,41,41,25,20,180,55,166,131,35,19,6,7,0.9,0.6
2022-06-17T22:00:00,1756A,123.9161,41.8822,抚顺市,顺城区,,34,34,45,16,20,165,78,152,127,17,20,8,9,0.5,0.5
2022-06-17T22:00:00,1757A,124.0436,41.8611,抚顺市,东洲区,,39,39,39,15,18,187,89,173,149,11,10,7,9,0.3,0.4
2022-06-17T22:00:00,1758A,123.9247,41.8642,抚顺市,新抚区,,39,39,45,16,17,179,80,165,140,15,17,5,6,0.5,0.6
2022-06-17T22:00:00,1759A,124.0972,41.8961,抚顺市,大伙房水库,,31,31,38,18,16,196,91,182,158,10,7,10,12,0.2,0.3
2022-06-17T22:00:00,1760A,123.7086,41.8391,抚顺市,沈抚新城,颗粒物(PM10),51,51,37,27,20,189,59,173,134,36,20,8,7,1.1,0.6
2022-06-17T22:00:00,1761A,123.8275,41.3064,本溪市,大峪,,36,36,31,20,12,128,74,121,94,25,13,5,5,0.5,0.5
2022-06-17T22:00:00,1762A,123.7567,41.3325,本溪市,溪湖,,36,36,27,25,15,110,93,106,98,28,16,6,8,1.4,0.8
2022-06-17T22:00:00,1763A,123.7169,41.3094,本溪市,彩屯,细颗粒物(PM2.5),74,61,44,54,29,98,98,84,74,29,41,13,14,1.7,2.3
2022-06-17T22:00:00,1764A,123.7669,41.2864,本溪市,东明,,37,28,25,19,12,116,116,106,104,9,10,7,6,0.6,0.5
2022-06-17T22:00:00,1765A,123.7992,41.2664,本溪市,新立屯,,39,33,28,25,13,123,123,109,106,5,6,4,4,0.9,0.8
2022-06-17T22:00:00,1766A,123.8142,41.3472,本溪市,威宁,,35,35,35,19,14,141,72,134,105,9,8,9,9,0.3,0.3
2022-06-17T22:00:00,1767A,121.1115,41.0879,锦州市,南山,细颗粒物(PM2.5),63,34,46,45,46,144,100,129,126,12,13,5,12,0.7,0.8
2022-06-17T22:00:00,1768A,121.0533,40.8434,锦州市,开发区,颗粒物(PM10),58,66,74,38,40,146,96,131,125,16,16,6,10,0.7,0.7
2022-06-17T22:00:00,1769A,121.1836,41.1119,锦州市,百股街道,,39,25,30,27,31,171,119,153,148,12,13,4,15,0.8,0.8
2022-06-17T22:00:00,1770A,121.1178,41.1222,锦州市,天安街道,细颗粒物(PM2.5),69,36,40,50,48,162,110,144,139,12,14,4,8,0.7,0.7
2022-06-17T22:00:00,1771A,121.1303,41.1386,锦州市,北湖公园,细颗粒物(PM2.5),72,29,38,52,50,161,113,146,141,13,15,5,9,0.6,0.6
2022-06-17T22:00:00,1772A,126.54,43.8622,吉林市,哈达湾,"颗粒物(PM10),细颗粒物(PM2.5)",57,64,45,40,31,155,73,144,131,44,16,5,6,0.7,0.6
2022-06-17T22:00:00,1773A,126.5844,43.8358,吉林市,东局子,"颗粒物(PM10),细颗粒物(PM2.5)",55,59,47,39,32,157,79,143,127,36,22,5,5,0.8,0.7
2022-06-17T22:00:00,1774A,126.5052,43.8245,吉林市,电力学院,细颗粒物(PM2.5),74,69,42,54,33,156,41,151,118,57,19,4,4,0.9,0.8
2022-06-17T22:00:00,1775A,126.6133,43.8972,吉林市,江北,细颗粒物(PM2.5),57,54,41,40,31,147,72,136,120,31,19,8,8,0.8,0.7
2022-06-17T22:00:00,1776A,126.555,43.8306,吉林市,江南公园,颗粒物(PM10),52,54,41,34,27,148,68,137,121,37,16,4,4,0.7,0.6
2022-06-17T22:00:00,1778A,126.7061,43.7133,吉林市,丰满(对照点),,46,44,41,32,34,151,77,137,123,10,12,4,4,0.7,0.7
2022-06-17T22:00:00,1779A,123.9305,47.3636,齐齐哈尔市,安居小区,,45,45,20,18,8,93,8,83,60,58,17,8,6,1.2,0.4
2022-06-17T22:00:00,1780A,123.9488,47.3386,齐齐哈尔市,中心广场,,34,34,19,14,5,90,16,83,61,58,17,6,4,1.4,0.4
2022-06-17T22:00:00,1781A,123.9483,47.3227,齐齐哈尔市,农牧车辆厂,颗粒物(PM10),59,68,31,13,6,92,12,87,64,52,14,3,3,0.7,0.2
2022-06-17T22:00:00,1783A,123.945,47.2988,齐齐哈尔市,市环境监测站,,28,28,19,19,17,98,20,92,71,46,13,4,4,0.7,0.3
2022-06-17T22:00:00,1784A,129.61,44.561,牡丹江市,环保大楼,,21,21,15,5,8,101,58,93,81,22,15,4,4,0.5,0.5
2022-06-17T22:00:00,1785A,129.6115,44.5782,牡丹江市,文化广场,,21,11,12,5,8,94,65,89,77,18,16,2,2,0.4,0.4
2022-06-17T22:00:00,1786A,129.5904,44.5963,牡丹江市,第一医院,,22,22,16,10,8,89,61,81,72,14,14,3,3,0.7,0.7
2022-06-17T22:00:00,1787A,129.6364,44.6075,牡丹江市,机车工厂,,22,14,9,15,8,85,51,79,66,26,19,3,7,0.3,0.4
2022-06-17T22:00:00,1788A,129.6386,44.5462,牡丹江市,第一中学,,21,21,12,4,5,90,53,85,70,20,16,3,2,0.5,0.5
2022-06-17T22:00:00,1789A,124.81117,46.03138,大庆市,大同区,,38,38,23,6,8,107,68,94,82,20,8,5,5,0.4,0.3
2022-06-17T22:00:00,1790A,125.129,46.533,大庆市,龙凤区,颗粒物(PM10),55,59,24,21,8,96,41,92,72,41,17,6,4,0.6,0.3
2022-06-17T22:00:00,1791A,124.902,46.408,大庆市,红岗区,,28,27,14,12,7,100,69,91,84,19,9,82,5,0.4,0.4
2022-06-17T22:00:00,1792A,125.153,46.586,大庆市,萨尔图区,,49,49,34,13,11,96,39,87,65,44,16,3,3,0.5,0.4
2022-06-17T22:00:00,1793A,124.9042,46.6215,大庆市,让胡路区,,27,27,15,13,12,98,29,90,68,49,10,3,2,0.6,0.4
2022-06-17T22:00:00,1794A,118.3606,31.3519,芜湖市,监测站,,46,45,35,32,19,134,15,116,83,88,31,9,13,0.5,0.7
2022-06-17T22:00:00,1795A,118.3714,31.4134,芜湖市,科创中心,,46,46,36,23,17,149,17,127,92,82,32,7,13,0.8,1
2022-06-17T22:00:00,1796A,118.3673,31.3131,芜湖市,四水厂,,38,34,32,23,15,143,43,126,104,75,20,9,10,0.7,0.7
2022-06-17T22:00:00,1798A,118.5092,31.6837,马鞍山市,湖东路四小,,46,46,31,24,18,199,94,157,140,35,17,6,9,0.7,0.6
2022-06-17T22:00:00,1799A,118.5024,31.6449,马鞍山市,开发区,颗粒物(PM10),60,69,34,20,15,183,57,149,125,49,17,7,11,0.7,0.7
2022-06-17T22:00:00,1800A,118.5228,31.7231,马鞍山市,慈湖,颗粒物(PM10),60,69,34,27,18,193,90,150,126,36,16,4,6,0.5,0.6
2022-06-17T22:00:00,1802A,118.6245,31.7241,马鞍山市,濮塘(对照点),,36,28,33,17,14,172,115,147,135,6,11,13,13,0.7,0.7
2022-06-17T22:00:00,1803A,115.9872,29.6815,九江市,十里,,35,35,36,15,22,146,47,122,86,32,22,10,10,0.6,0.7
2022-06-17T22:00:00,1804A,115.9584,29.7046,九江市,茅山头,,27,27,30,17,20,136,59,119,92,14,16,10,10,0.5,0.6
2022-06-17T22:00:00,1805A,115.9877,29.7295,九江市,西园,,31,31,41,16,18,145,36,115,81,46,40,10,11,0.7,0.9
2022-06-17T22:00:00,1806A,116.0172,29.6547,九江市,五七二七厂,,38,30,30,26,20,132,46,122,94,12,10,6,7,0.6,0.8
2022-06-17T22:00:00,1808A,115.9114,29.6038,九江市,综合工业园,,25,19,31,17,18,119,53,110,86,21,20,7,9,0.2,0.6
2022-06-17T22:00:00,1809A,116.0721,29.7535,九江市,石化总厂,,40,40,37,17,16,121,57,106,80,28,22,12,14,0.4,0.5
2022-06-17T22:00:00,1810A,115.9773,29.5698,九江市,庐山气象台(对照点),,8,6,19,3,12,135,25,132,78,5,3,12,13,0.2,0.3
2022-06-17T22:00:00,1812A,112.3931,34.6516,洛阳市,市委党校,,42,39,57,16,26,256,134,216,184,10,11,9,13,0.2,0.4
2022-06-17T22:00:00,1814A,112.4657,34.6871,洛阳市,豫西宾馆,,43,30,65,22,27,271,137,228,197,9,12,5,6,0.7,0.8
2022-06-17T22:00:00,1815A,112.494,34.6886,洛阳市,河南林校,,44,42,61,14,25,278,139,242,199,16,19,7,13,0.1,0.3
2022-06-17T22:00:00,1816A,112.3844,34.623,洛阳市,开发区管委会,,43,43,56,15,26,272,133,228,185,14,15,5,10,0.2,0.3
2022-06-17T22:00:00,1817A,112.4267,34.6258,洛阳市,市委新办公区,,41,41,59,14,24,259,123,216,176,18,15,14,13,0.3,0.4
2022-06-17T22:00:00,1818A,114.4839,36.0621,安阳市,棉研所(对照点),颗粒物(PM10),61,72,95,27,27,282,119,262,225,27,20,10,6,0.5,0.9
2022-06-17T22:00:00,1819A,114.3551,36.1017,安阳市,红庙街,颗粒物(PM10),54,58,97,28,42,300,141,288,248,32,28,16,14,0.7,0.7
2022-06-17T22:00:00,1820A,114.361,36.0681,安阳市,银杏小区,颗粒物(PM10),57,64,107,26,43,291,137,272,239,27,20,15,12,0.6,0.7
2022-06-17T22:00:00,1824A,114.3389,34.7781,开封市,肿瘤医院,颗粒物(PM10),60,69,61,20,19,198,123,194,169,23,13,7,8,0.4,0.6
2022-06-17T22:00:00,1826A,114.2885,34.7965,开封市,世纪星幼儿园,颗粒物(PM10),53,55,60,14,19,204,130,193,174,19,13,5,5,0.4,0.5
2022-06-17T22:00:00,1828A,113.2269,35.2127,焦作市,市环保局,,48,48,68,9,25,271,126,256,200,19,19,5,10,0.4,0.7
2022-06-17T22:00:00,1829A,113.2467,35.176,焦作市,高新区政府,颗粒物(PM10),60,69,79,14,31,246,120,230,186,25,32,8,14,0.3,0.7
2022-06-17T22:00:00,1830A,113.1987,35.2703,焦作市,影视城(对照点),细颗粒物(PM2.5),54,44,47,38,28,268,139,245,204,19,15,2,13,0.3,0.6
2022-06-17T22:00:00,1832A,113.3257,33.742,平顶山市,新华旅馆,,45,45,54,13,19,156,105,148,134,15,10,1,3,0.2,0.3
2022-06-17T22:00:00,1833A,113.2919,33.737,平顶山市,规划设计院,,,38,47,,14,161,114,154,141,13,12,5,6,0.3,0.4
2022-06-17T22:00:00,1834A,113.182,33.774,平顶山市,平顶山工学院,,40,40,44,19,20,154,106,147,138,15,10,3,4,0.4,0.4
2022-06-17T22:00:00,1835A,111.1922,34.7752,三门峡市,市政府,,48,48,49,16,19,191,112,176,159,32,34,7,9,0.4,0.4
2022-06-17T22:00:00,1836A,111.1587,34.7942,三门峡市,开发区,,,62,58,26,24,178,,165,156,21,21,4,7,0.4,0.5
2022-06-17T22:00:00,1838A,111.143,34.7955,三门峡市,风景区(对照点),,41,41,54,6,20,180,131,174,162,15,17,4,5,0.2,0.4
2022-06-17T22:00:00,1840A,111.2992,30.6981,宜昌市,白龙岗,,,,44,,20,187,,141,115,23,25,9,7,0.3,0.4
2022-06-17T22:00:00,1841A,111.3549,30.6465,宜昌市,伍家岗,,29,29,47,17,22,167,91,134,111,14,29,7,7,0.4,0.5
2022-06-17T22:00:00,1842A,111.2628,30.6961,宜昌市,点军区,,46,46,49,17,22,203,88,162,128,21,21,7,7,0.3,0.4
2022-06-17T22:00:00,1843A,111.3275,30.7819,宜昌市,夷陵区,,30,20,38,14,16,164,96,141,122,16,21,6,7,0.3,0.3
2022-06-17T22:00:00,1844A,112.2494,30.3197,荆州市,市图书馆,,25,25,38,11,22,137,79,129,110,9,10,8,10,0.5,0.5
2022-06-17T22:00:00,1845A,112.2008,30.3544,荆州市,市委党校,,28,28,36,13,20,131,72,124,107,13,10,8,9,0.5,0.5
2022-06-17T22:00:00,1847A,113.1094,29.3578,岳阳市,南湖风景区,,21,18,29,7,20,89,66,83,76,7,11,7,15,0.6,0.6
2022-06-17T22:00:00,1848A,113.1493,29.4251,岳阳市,城陵矶,,24,24,37,14,23,101,63,84,76,11,15,32,17,0.5,0.6
2022-06-17T22:00:00,1849A,113.1497,29.3575,岳阳市,开发区,,,,35,12,13,99,,85,79,7,12,11,12,0.6,0.6
2022-06-17T22:00:00,1850A,113.2621,29.4758,岳阳市,云溪区,,26,23,26,18,18,91,47,82,71,15,9,7,10,0.8,0.7
2022-06-17T22:00:00,1851A,112.9943,29.4402,岳阳市,君山区,,19,4,25,12,20,95,60,85,76,7,9,6,8,0.7,0.7
2022-06-17T22:00:00,1852A,113.2117,29.355,岳阳市,金凤水库(对照点),,15,13,24,10,19,87,46,78,67,13,13,4,4,0.6,0.5
2022-06-17T22:00:00,1854A,111.6975,28.9703,常德市,市二中,,33,29,32,23,24,96,38,84,72,31,10,6,12,0.6,0.5
2022-06-17T22:00:00,1857A,111.7158,29.1456,常德市,白鹤山(对照点),,34,34,28,19,15,99,30,86,72,5,7,5,7,0.4,0.3
2022-06-17T22:00:00,1858A,110.5319,29.1217,张家界市,永定新区,,30,23,21,21,16,109,26,87,54,13,10,3,2,0.4,0.3
2022-06-17T22:00:00,1859A,110.4697,29.1242,张家界市,电业局,,,11,18,8,6,106,,93,66,5,8,2,3,0.1,0.1
2022-06-17T22:00:00,1860A,110.5594,29.3547,张家界市,未央路,,15,15,14,7,6,96,16,87,51,8,7,2,2,0.1,0.3
2022-06-17T22:00:00,1861A,110.4417,29.315,张家界市,袁家界(对照点),,17,17,23,5,7,124,40,114,78,5,6,5,4,0.6,0.4
2022-06-17T22:00:00,1862A,110.4144,25.3167,桂林市,电子科大尧山校区(对照点),,15,9,14,6,8,61,48,56,52,4,4,6,8,0.6,0.6
2022-06-17T22:00:00,1863A,110.2819,25.2697,桂林市,监测站,,17,17,19,7,10,55,18,42,21,23,19,5,6,0.7,0.7
2022-06-17T22:00:00,1864A,110.3089,25.2708,桂林市,龙隐路小学,,16,12,16,11,12,50,25,41,22,18,17,6,6,0.6,0.6
2022-06-17T22:00:00,1865A,110.2869,25.2178,桂林市,八中,,11,4,11,5,4,53,18,41,25,21,18,6,6,0.7,0.7
2022-06-17T22:00:00,1866A,109.2262,21.588,北海市,牛尾岭水库(对照点),,32,32,24,14,12,70,61,64,64,9,5,4,4,0.4,0.4
2022-06-17T22:00:00,1867A,109.1436,21.4086,北海市,海滩公园,颗粒物(PM10),58,66,44,7,7,85,74,79,79,3,3,3,3,0.4,0.4
2022-06-17T22:00:00,1868A,109.0981,21.4661,北海市,新市环保局,,28,28,24,12,11,78,70,73,73,3,2,2,2,0.5,0.6
2022-06-17T22:00:00,1869A,109.1778,21.5233,北海市,北海工业园,,35,35,30,15,10,79,70,72,72,4,4,4,4,0.4,0.5
2022-06-17T22:00:00,1870A,109.4856,24.3895,柳州市,柳东小学,,25,18,14,17,13,54,35,46,45,5,7,4,4,0.6,0.7
2022-06-17T22:00:00,1871A,109.4157,24.3277,柳州市,环保监测站,,21,21,15,13,8,60,39,53,51,13,12,6,7,0.6,0.7
2022-06-17T22:00:00,1872A,109.389,24.341,柳州市,河西水厂,,23,23,14,13,11,60,41,53,52,11,12,7,8,0.9,1
2022-06-17T22:00:00,1873A,109.4311,24.2921,柳州市,市四中,,,26,18,9,11,60,,53,53,12,14,7,6,,0.6
2022-06-17T22:00:00,1874A,109.4006,24.3631,柳州市,市九中,,27,27,17,12,9,57,37,49,48,10,12,5,6,0.6,0.7
2022-06-17T22:00:00,1875A,109.4958,24.3134,柳州市,古亭山,,20,17,14,14,9,59,42,51,51,8,13,2,3,0.6,0.7
2022-06-17T22:00:00,1876A,109.5078,18.2489,三亚市,河东子站,,20,15,15,7,5,64,62,57,52,4,4,3,2,0.4,0.4
2022-06-17T22:00:00,1877A,109.4964,18.2681,三亚市,河西子站,,21,17,15,10,6,67,67,54,54,4,5,2,2,0.2,0.2
2022-06-17T22:00:00,1878A,104.7778,31.4741,绵阳市,富乐山,,37,37,42,24,28,155,98,144,130,16,16,6,7,0.5,0.6
2022-06-17T22:00:00,1879A,104.7563,31.4535,绵阳市,市人大,细颗粒物(PM2.5),53,42,47,37,28,144,89,138,125,26,22,8,7,0.4,0.5
2022-06-17T22:00:00,1880A,104.6697,31.4668,绵阳市,高新区自来水公司,颗粒物(PM10),56,62,65,13,33,166,89,147,127,30,35,8,7,0.7,0.7
2022-06-17T22:00:00,1881A,104.7287,31.5075,绵阳市,三水厂,,39,39,55,24,31,162,85,150,130,33,28,6,6,0.5,0.7
2022-06-17T22:00:00,1882A,104.563,28.793,宜宾市,石马中学(对照点),,47,47,36,25,24,162,84,134,121,29,15,11,7,0.5,0.5
2022-06-17T22:00:00,1883A,104.6201,28.7728,宜宾市,市委,颗粒物(PM10),54,58,43,37,27,154,95,134,125,31,25,23,10,0.5,0.5
2022-06-17T22:00:00,1884A,104.6055,28.793,宜宾市,宜宾四中,颗粒物(PM10),55,60,44,34,28,153,85,132,119,38,21,7,8,0.6,0.6
2022-06-17T22:00:00,1885A,104.639,28.7562,宜宾市,市政府,,45,45,46,30,27,146,104,122,122,30,30,6,5,0.6,0.6
2022-06-17T22:00:00,1886A,104.5742,28.7199,宜宾市,黄金嘴,,40,40,39,25,23,152,106,135,130,21,23,8,7,0.5,0.5
2022-06-17T22:00:00,1888A,101.6891,26.571,攀枝花市,弄弄坪,,35,21,50,24,40,133,25,106,87,60,31,5,8,0.9,1.2
2022-06-17T22:00:00,1889A,101.5769,26.5928,攀枝花市,河门口,,42,42,50,20,33,122,61,104,93,26,25,12,9,1.4,2.2
2022-06-17T22:00:00,1890A,101.7169,26.585,攀枝花市,炳草岗,,47,47,54,22,33,135,10,108,86,65,31,17,19,1.7,1.3
2022-06-17T22:00:00,1891A,101.7369,26.5008,攀枝花市,仁和,,33,32,60,23,45,121,39,99,80,21,17,7,17,0.7,0.9
2022-06-17T22:00:00,1893A,105.4324,28.9634,泸州市,九狮山(对照点),,33,31,23,23,11,127,65,113,100,18,19,6,7,0.5,0.4
2022-06-17T22:00:00,1894A,105.4427,28.9063,泸州市,小市上码头,颗粒物(PM10),52,53,43,13,16,121,67,109,102,24,20,6,11,0.6,0.6
2022-06-17T22:00:00,1895A,105.4241,28.8573,泸州市,兰田宪桥,,48,48,42,12,11,119,68,111,102,22,18,6,8,0.6,0.5
2022-06-17T22:00:00,1896A,105.4379,28.8833,泸州市,市环监站,颗粒物(PM10),52,54,40,16,11,120,76,107,101,22,20,6,8,0.5,0.5
2022-06-17T22:00:00,1901A,104.4239,31.1208,德阳市,东山公园,,49,49,47,21,24,177,79,152,124,27,22,24,10,0.5,0.5
2022-06-17T22:00:00,1902A,104.3826,31.1317,德阳市,西小区,,42,42,61,11,22,196,85,163,130,24,27,10,11,0.5,0.6
2022-06-17T22:00:00,1904A,104.3553,31.1091,德阳市,耐火材料厂,颗粒物(PM10),58,66,70,18,26,203,71,164,127,40,38,6,9,0.5,0.6
2022-06-17T22:00:00,1905A,106.056,30.8064,南充市,西山风景区(对照点),,42,39,40,29,27,135,99,125,122,9,15,1,2,0.5,0.6
2022-06-17T22:00:00,1906A,106.0789,30.8023,南充市,南充市委,,42,42,46,21,28,108,82,103,100,14,16,4,3,0.5,0.6
2022-06-17T22:00:00,1907A,106.1031,30.8217,南充市,南充炼油厂,颗粒物(PM10),51,52,55,23,30,147,103,139,133,14,15,6,6,0.5,0.6
2022-06-17T22:00:00,1908A,106.1064,30.7856,南充市,高坪区监测站,,35,35,48,24,33,128,89,120,117,9,20,31,18,0.5,0.6
2022-06-17T22:00:00,1909A,106.0642,30.7636,南充市,嘉陵区环保局,,38,36,50,26,32,102,73,95,93,12,20,6,11,0.5,0.6
2022-06-17T22:00:00,1910A,106.1087,30.8388,南充市,市环境监测站,,41,41,53,27,33,126,93,118,112,19,23,2,2,0.5,0.5
2022-06-17T22:00:00,1911A,106.9222,27.6869,遵义市,丁字口,,26,19,20,18,16,92,39,92,51,18,17,6,6,0.6,0.6
2022-06-17T22:00:00,1912A,106.9242,27.7019,遵义市,凤凰山,,13,12,15,9,9,79,35,79,42,12,14,5,5,0.6,0.6
2022-06-17T22:00:00,1913A,106.8906,27.6486,遵义市,忠庄,,34,34,24,14,11,55,21,52,39,15,13,1,1,0.5,0.5
2022-06-17T22:00:00,1914A,106.9231,27.6506,遵义市,舟水桥,,21,21,20,10,9,66,27,58,43,8,9,1,1,0.5,0.5
2022-06-17T22:00:00,1915A,106.9178,27.72,遵义市,干田坝,,25,25,21,17,11,80,16,73,30,19,15,5,5,0.8,0.7
2022-06-17T22:00:00,1917A,103.8,25.5364,曲靖市,烟厂办公区,,30,30,27,5,12,101,69,94,89,9,8,4,7,0.5,0.6
2022-06-17T22:00:00,1918A,108.7197,34.3956,咸阳市,气象站(对照点),颗粒物(PM10),56,62,58,20,14,199,94,187,167,75,44,10,6,0.7,0.7
2022-06-17T22:00:00,1919A,108.673,34.3155,咸阳市,实验中学,,49,49,43,21,17,220,124,192,180,36,26,4,3,0.5,0.4
2022-06-17T22:00:00,1920A,108.7233,34.3617,咸阳市,师范学院,颗粒物(PM10),56,61,52,24,19,221,124,194,180,39,30,12,12,0.3,0.3
2022-06-17T22:00:00,1922A,109.0656,35.0994,铜川市,党校(对照点),颗粒物(PM10),59,67,36,12,17,167,89,159,148,38,28,10,9,0.7,0.7
2022-06-17T22:00:00,1923A,109.0697,35.0697,铜川市,王益区政府,颗粒物(PM10),55,60,39,20,16,185,91,166,154,33,23,6,6,0.5,0.4
2022-06-17T22:00:00,1924A,108.9344,34.9058,铜川市,新区管委会,颗粒物(PM10),58,66,34,26,16,175,103,166,157,38,18,36,18,0.5,0.4
2022-06-17T22:00:00,1926A,109.4131,36.6275,延安市,枣园(对照点),细颗粒物(PM2.5),57,60,35,40,17,160,25,148,101,71,26,4,4,0.4,0.4
2022-06-17T22:00:00,1927A,109.4761,36.6028,延安市,延大医附院,颗粒物(PM10),53,55,33,14,12,165,27,150,115,78,33,4,4,0.5,0.4
2022-06-17T22:00:00,1929A,109.5056,36.6106,延安市,百米大道,颗粒物(PM10),52,54,51,15,14,148,33,134,102,69,33,6,4,0.8,0.5
2022-06-17T22:00:00,1930A,107.185,34.3063,宝鸡市,庙沟村(对照点),,34,17,28,15,15,154,108,142,127,6,8,5,5,0.4,0.5
2022-06-17T22:00:00,1931A,107.0708,34.3017,宝鸡市,竹园沟,,33,21,24,10,16,174,103,160,128,13,12,4,4,0.3,0.4
2022-06-17T22:00:00,1932A,107.1906,34.3672,宝鸡市,三陆医院,,31,31,38,11,18,160,47,151,121,43,23,6,8,0.4,0.4
2022-06-17T22:00:00,1933A,107.1431,34.3547,宝鸡市,监测站,,29,29,30,14,17,165,50,151,118,39,21,5,5,0.6,0.5
2022-06-17T22:00:00,1934A,107.1186,34.3739,宝鸡市,技工学校,颗粒物(PM10),52,53,46,18,18,162,73,154,126,21,17,5,6,0.3,0.3
2022-06-17T22:00:00,1935A,107.3906,34.3528,宝鸡市,陈仓区环保局家属楼,,39,39,38,25,18,178,54,154,129,40,20,6,7,0.5,0.5
2022-06-17T22:00:00,1936A,107.2058,34.3497,宝鸡市,文理学院,,36,36,30,5,22,168,59,157,127,37,19,7,7,0.3,0.3
2022-06-17T22:00:00,1937A,107.2386,34.3622,宝鸡市,三迪小学,,38,38,35,21,19,169,51,151,121,47,22,7,8,0.4,0.3
2022-06-17T22:00:00,1938A,109.5293,34.5101,渭南市,农科所(对照点),颗粒物(PM10),63,75,43,27,22,205,115,189,163,28,27,14,11,0.5,0.4
2022-06-17T22:00:00,1940A,109.4636,34.493,渭南市,体育馆,颗粒物(PM10),60,70,47,22,15,225,68,205,174,88,36,18,11,0.5,0.4
2022-06-17T22:00:00,1941A,109.4259,34.5023,渭南市,高新一小,颗粒物(PM10),57,64,61,27,18,205,87,196,174,63,33,14,9,0.8,0.5
2022-06-17T22:00:00,1943A,102.1725,38.5339,金昌市,新川苑,颗粒物(PM10),51,51,52,15,11,155,87,151,139,45,17,8,10,0.8,0.5
2022-06-17T22:00:00,1944A,102.1692,38.5167,金昌市,天庆家园,颗粒物(PM10),55,60,48,19,15,157,70,153,140,48,17,11,24,1.1,0.6
2022-06-17T22:00:00,1945A,98.2908,39.7711,嘉峪关市,气象局,颗粒物(PM10),51,51,52,17,17,142,115,138,134,23,25,2,8,0.6,0.5
2022-06-17T22:00:00,1947A,106.3394,38.817,石嘴山市,沙湖旅游区(对照点),颗粒物(PM10),70,90,64,24,16,201,135,185,175,24,21,51,45,0.4,0.4
2022-06-17T22:00:00,1948A,106.3668,39.0145,石嘴山市,大武口朝阳西街,颗粒物(PM10),75,100,55,27,19,178,138,165,162,33,22,21,15,0.7,0.5
2022-06-17T22:00:00,1949A,106.7704,39.2282,石嘴山市,惠农南大街,颗粒物(PM10),67,84,78,20,21,192,98,182,166,33,33,11,14,0.4,0.5
2022-06-17T22:00:00,1950A,106.7099,39.1325,石嘴山市,红果子镇惠新街,颗粒物(PM10),93,136,111,27,25,190,101,180,165,58,34,13,20,0.4,0.4
2022-06-17T22:00:00,1951A,84.895,45.6094,克拉玛依市,长征新村,,30,26,12,8,5,106,94,102,100,14,6,6,6,0.2,0.1
2022-06-17T22:00:00,1952A,84.8988,45.5893,克拉玛依市,南林小区,颗粒物(PM10),52,54,12,5,10,109,46,106,86,51,13,8,8,0.6,0.3
2022-06-17T22:00:00,1954A,84.905,44.3396,克拉玛依市,独山子区,,35,4,8,9,6,128,111,120,119,4,5,6,7,0.3,0.3
2022-06-17T22:00:00,1955A,85.6979,46.098,克拉玛依市,乌尔禾区商贸楼,,24,13,24,13,6,112,76,106,102,14,6,10,10,0.2,0.2
2022-06-17T22:00:00,1956A,86.1472,41.7538,巴音郭楞州,孔雀公园,,,,70,,17,110,,105,,28,11,4,3,0.4,0.5
2022-06-17T22:00:00,1957A,86.1972,41.7166,巴音郭楞州,棉纺厂,颗粒物(PM10),56,62,71,15,17,107,102,100,100,9,11,4,4,0.2,0.2
2022-06-17T22:00:00,1958A,86.2357,41.7173,巴音郭楞州,经济开发区,,50,50,76,20,19,112,105,107,106,7,7,2,2,0.2,0.2
2022-06-17T22:00:00,1961A,117.532,36.6868,济南市,东山小学,颗粒物(PM10),77,103,58,39,26,245,140,226,218,46,15,12,10,0.6,0.3
2022-06-17T22:00:00,1966A,120.0405,35.8735,青岛市,黄岛区4号,,42,39,23,24,12,192,133,172,151,11,13,6,5,0.5,0.5
2022-06-17T22:00:00,1982A,122.0693,37.2174,威海市,文登开发区,,38,27,26,14,18,154,121,150,143,8,10,5,4,0.4,0.4
2022-06-17T22:00:00,2031A,113.1817,27.9958,株洲市,云田中学,,12,5,17,8,12,58,31,54,47,7,9,5,6,0.8,0.8
2022-06-17T22:00:00,2054A,114.1099,32.1059,信阳市,平桥分局,,39,22,32,16,19,148,122,139,136,8,7,8,9,0.4,0.4
2022-06-17T22:00:00,2064A,113.9956,32.1271,信阳市,南湾水厂,,40,24,29,12,21,149,126,144,141,3,3,5,6,0.4,0.5
2022-06-17T22:00:00,2065A,114.0775,32.1195,信阳市,市酿酒公司,,39,32,36,13,19,144,123,140,135,9,6,7,7,0.2,0.2
2022-06-17T22:00:00,2066A,114.0609,32.1399,信阳市,审计局,,39,24,35,14,16,148,123,142,139,8,4,6,6,0.6,0.6
2022-06-17T22:00:00,2067A,114.6613,33.6128,周口市,市环境监测站,,40,40,51,17,17,175,113,167,154,21,14,4,5,0.3,0.3
2022-06-17T22:00:00,2068A,114.6758,33.6347,周口市,周口师范,,42,42,48,5,17,179,126,173,161,16,14,4,4,0.3,0.4
2022-06-17T22:00:00,2069A,114.6546,33.5979,周口市,市运管处,,38,38,51,3,18,171,114,162,150,21,16,4,4,0.4,0.5
2022-06-17T22:00:00,2070A,114.6369,33.6406,周口市,川汇区环保局,,40,40,46,17,20,181,123,171,159,16,13,2,2,0.4,0.4
2022-06-17T22:00:00,2075A,117.6336,24.4674,漳州市,九湖(对照点),,,,,,,101,30,66,58,4,15,6,6,0.0,0.4
2022-06-17T22:00:00,2160A,112.85,35.5051,晋城市,自来水公司,臭氧1小时,60,44,57,17,29,261,168,241,226,19,38,6,12,0.5,0.8
2022-06-17T22:00:00,2161A,112.8318,35.4936,晋城市,白云商贸,臭氧1小时,53,49,73,22,27,242,162,228,214,25,27,6,11,0.6,0.7
2022-06-17T22:00:00,2162A,112.8508,35.4887,晋城市,市环保局,臭氧1小时,54,35,68,22,32,258,163,239,224,19,38,7,12,0.3,0.6
2022-06-17T22:00:00,2163A,112.8676,35.4897,晋城市,技术学院,"颗粒物(PM10),臭氧1小时",52,53,67,17,27,258,161,233,214,15,40,4,7,0.3,0.6
2022-06-17T22:00:00,2165A,112.8453,35.546,晋城市,白马寺 (对照点),臭氧1小时,103,38,65,9,16,304,206,280,264,19,17,7,16,0.5,0.6
2022-06-17T22:00:00,2166A,112.4397,39.3522,朔州市,平朔,颗粒物(PM10),78,105,92,15,36,202,137,179,160,26,24,9,8,0.5,0.7
2022-06-17T22:00:00,2167A,112.4575,39.3617,朔州市,朔唯,颗粒物(PM10),112,173,100,18,38,201,108,180,157,50,30,5,7,0.5,0.6
2022-06-17T22:00:00,2168A,112.4258,39.3197,朔州市,区政府,颗粒物(PM10),61,72,107,14,31,185,160,164,157,18,29,7,10,0.6,0.7
2022-06-17T22:00:00,2169A,112.4072,39.3278,朔州市,市环保局,颗粒物(PM10),59,67,101,17,31,195,165,172,164,14,24,6,8,0.5,0.7
2022-06-17T22:00:00,2170A,112.4272,39.3681,朔州市,市二中,颗粒物(PM10),71,91,93,24,37,195,132,179,157,28,37,8,10,0.5,0.5
2022-06-17T22:00:00,2171A,112.7532,37.6945,晋中市,锦纶小区,,49,49,99,21,55,269,156,239,217,37,19,11,9,0.5,0.7
2022-06-17T22:00:00,2173A,112.7249,37.7067,晋中市,南都小区,颗粒物(PM10),55,59,101,24,52,231,142,216,195,31,24,9,8,0.5,0.6
2022-06-17T22:00:00,2174A,112.6991,37.6982,晋中市,榆次区政府,,49,34,101,34,54,258,152,234,210,25,15,12,9,0.8,0.7
2022-06-17T22:00:00,2175A,110.9956,35.0147,运城市,运城中学,臭氧1小时,65,55,69,21,39,222,172,209,202,12,23,11,9,0.4,0.5
2022-06-17T22:00:00,2178A,110.9686,35.0303,运城市,地区技校,臭氧1小时,52,45,73,22,28,214,161,200,193,12,29,8,7,0.4,0.6
2022-06-17T22:00:00,2179A,111.0414,35.1147,运城市,空港新区,臭氧1小时,90,70,86,29,33,234,192,209,192,9,21,10,12,0.6,0.6
2022-06-17T22:00:00,2181A,112.7383,38.4519,忻州市,开发区,颗粒物(PM10),81,111,108,52,64,297,135,263,194,45,21,16,20,0.9,0.8
2022-06-17T22:00:00,2182A,112.7003,38.4928,忻州市,会展中心,颗粒物(PM10),72,93,104,49,58,288,146,249,179,28,20,17,15,0.9,0.9
2022-06-17T22:00:00,2183A,111.1406,37.5211,吕梁市,环保局,颗粒物(PM10),62,74,77,14,17,190,86,171,149,52,45,6,3,0.5,0.4
2022-06-17T22:00:00,2187A,106.8174,39.6973,乌海市,市林业局,颗粒物(PM10),57,64,87,19,25,167,131,158,153,13,24,8,26,0.6,0.8
2022-06-17T22:00:00,2188A,106.7907,39.6667,乌海市,中海勃湾学校,颗粒物(PM10),61,71,74,17,24,174,104,163,151,46,36,13,27,0.5,0.6
2022-06-17T22:00:00,2191A,122.2532,43.6801,通辽市,艺术职业学校,,42,42,36,21,17,128,128,126,124,13,14,5,5,0.5,0.5
2022-06-17T22:00:00,2192A,119.7594,49.2261,呼伦贝尔市,区环保局,颗粒物(PM10),74,97,36,36,19,100,39,88,78,39,20,6,6,0.5,0.3
2022-06-17T22:00:00,2195A,107.4212,40.761,巴彦淖尔市,附二中,颗粒物(PM10),70,89,87,28,31,196,133,186,172,20,30,36,21,0.6,0.7
2022-06-17T22:00:00,2196A,107.37,40.7372,巴彦淖尔市,市环保大楼,颗粒物(PM10),60,70,75,32,28,192,117,180,166,26,27,20,21,0.6,0.7
2022-06-17T22:00:00,2197A,113.1306,40.9923,乌兰察布市,集宁新区,,50,50,67,16,31,193,126,160,141,16,21,10,13,0.4,0.5
2022-06-17T22:00:00,2200A,122.0392,46.0656,兴安盟,胜华新制药厂,,,58,31,14,15,104,,92,86,27,8,2,2,0.3,0.2
2022-06-17T22:00:00,2201A,121.9504,46.0741,兴安盟,科右前旗环保局,,37,37,20,24,15,98,23,92,73,43,12,5,3,0.4,0.2
2022-06-17T22:00:00,2202A,116.1042,43.9317,锡林郭勒盟,市环保监测站,,26,22,20,8,8,125,81,115,105,7,12,13,14,0.6,0.6
2022-06-17T22:00:00,2203A,116.0781,43.9311,锡林郭勒盟,市政府,,27,17,16,6,4,134,85,120,112,9,11,9,9,0.8,0.7
2022-06-17T22:00:00,2204A,105.6467,38.8363,阿拉善盟,西城区西花园(对照点),臭氧1小时,64,62,31,16,13,189,171,175,175,7,6,48,42,0.4,0.4
2022-06-17T22:00:00,2205A,105.6985,38.8411,阿拉善盟,蒙二幼,臭氧1小时,63,70,42,27,15,192,170,176,176,7,7,13,10,0.3,0.2
2022-06-17T22:00:00,2206A,105.724,38.8516,阿拉善盟,环保局新楼,臭氧1小时,65,37,24,16,16,192,172,175,175,9,8,12,9,0.3,0.3
2022-06-17T22:00:00,2207A,121.6094,41.998,阜新市,工业园区,,45,45,46,24,30,159,131,152,148,10,14,7,15,0.6,0.7
2022-06-17T22:00:00,2208A,121.6697,42.0279,阜新市,长青街,,41,32,37,22,24,153,129,144,138,7,13,9,16,0.6,0.7
2022-06-17T22:00:00,2209A,121.6673,42.0705,阜新市,农业园区,,45,27,46,22,28,166,141,158,152,8,11,7,13,0.7,0.8
2022-06-17T22:00:00,2210A,121.6717,42.0224,阜新市,东苑,,43,36,62,25,30,168,135,156,147,13,18,7,16,0.6,0.7
2022-06-17T22:00:00,2211A,121.6506,42.0498,阜新市,玉龙新城,,42,34,46,22,22,156,132,149,144,9,12,7,14,0.5,0.6
2022-06-17T22:00:00,2212A,123.2,41.1953,辽阳市,宏伟区,,45,32,24,21,13,144,144,118,118,5,6,8,7,0.5,0.4
2022-06-17T22:00:00,2213A,123.1683,41.2495,辽阳市,新华园,,46,34,26,32,15,143,135,125,121,10,10,6,6,0.5,0.5
2022-06-17T22:00:00,2214A,123.2354,41.2639,辽阳市,滨河路,细颗粒物(PM2.5),64,37,23,46,15,133,123,116,115,12,10,18,12,0.4,0.4
2022-06-17T22:00:00,2215A,123.149,41.2991,辽阳市,铁西工业园,,46,31,35,32,21,176,134,129,124,9,14,6,8,0.6,0.6
2022-06-17T22:00:00,2216A,123.8139,42.3022,铁岭市,汇工街西,颗粒物(PM10),63,76,62,23,22,204,77,193,171,47,22,6,8,0.8,0.7
2022-06-17T22:00:00,2217A,123.8649,42.2923,铁岭市,水上乐园,细颗粒物(PM2.5),62,56,45,44,34,195,85,189,174,40,23,6,8,0.7,0.6
2022-06-17T22:00:00,2218A,123.8486,42.2867,铁岭市,银州路东段,颗粒物(PM10),63,75,58,19,21,183,80,176,161,40,27,7,8,0.7,0.6
2022-06-17T22:00:00,2219A,123.7153,42.2217,铁岭市,金沙江路北,颗粒物(PM10),51,51,47,16,20,193,63,183,158,49,32,6,8,0.7,0.7
2022-06-17T22:00:00,2220A,120.4318,41.5881,朝阳市,西梁,,48,42,66,29,35,166,153,148,142,7,12,14,16,0.7,0.9
2022-06-17T22:00:00,2221A,120.4521,41.5646,朝阳市,河畔小区,细颗粒物(PM2.5),59,51,64,42,48,165,155,149,145,6,9,8,10,0.5,0.8
2022-06-17T22:00:00,2222A,120.4176,41.5648,朝阳市,八里堡,,47,39,59,31,35,171,148,156,145,10,14,6,8,0.7,0.9
2022-06-17T22:00:00,2223A,120.3806,41.5969,朝阳市,农业园区,,50,34,63,35,40,186,146,167,144,9,15,8,11,0.8,1
2022-06-17T22:00:00,2225A,124.4002,43.1713,四平市,一商场,颗粒物(PM10),78,105,55,48,29,169,71,159,139,57,23,6,3,0.9,0.5
2022-06-17T22:00:00,2226A,124.388,43.193,四平市,境园,细颗粒物(PM2.5),70,75,43,51,26,146,16,128,109,60,16,5,5,0.8,0.6
2022-06-17T22:00:00,2227A,125.1358,42.8845,辽源市,环保局,细颗粒物(PM2.5),74,70,32,54,25,182,59,166,138,26,8,5,5,1.0,0.7
2022-06-17T22:00:00,2229A,125.9358,41.7173,通化市,光明,,33,27,17,19,10,120,103,114,109,8,6,12,8,0.5,0.7
2022-06-17T22:00:00,2230A,125.9446,41.7325,通化市,铁路,,31,31,16,18,9,113,48,107,93,23,8,7,6,0.7,0.6
2022-06-17T22:00:00,2231A,126.4219,41.9171,白山市,喜丰,颗粒物(PM10),64,78,47,25,16,103,12,86,63,26,17,10,10,1.0,0.9
2022-06-17T22:00:00,2232A,126.4077,41.9419,白山市,环保局,,41,41,35,25,16,103,12,90,66,26,17,7,9,0.9,0.8
2022-06-17T22:00:00,2233A,124.8006,45.1214,松原市,江南,,25,23,12,3,2,94,13,88,67,50,14,4,3,0.6,0.3
2022-06-17T22:00:00,2234A,124.7965,45.1722,松原市,江北,,21,21,13,10,7,105,52,100,84,14,9,3,2,0.4,0.4
2022-06-17T22:00:00,2235A,122.7911,45.6077,白城市,洮北区环保局,,38,38,19,9,6,111,26,100,80,53,19,9,7,0.0,0.1
2022-06-17T22:00:00,2236A,122.8738,45.5725,白城市,市环保局,,40,40,21,26,11,110,8,98,73,73,17,6,5,0.1,0
2022-06-17T22:00:00,2237A,129.47,42.8883,延边朝鲜族自治州,妇幼医院,,39,34,23,27,18,105,25,95,73,32,27,7,7,0.6,0.6
2022-06-17T22:00:00,2238A,129.5055,42.9108,延边朝鲜族自治州,延边医院,颗粒物(PM10),58,66,85,40,26,105,29,97,87,41,29,6,6,0.8,0.6
2022-06-17T22:00:00,2239A,129.3964,42.8881,延边朝鲜族自治州,朝阳川镇医院,,39,39,30,18,12,104,28,94,71,27,26,5,5,0.6,0.5
2022-06-17T22:00:00,2240A,130.9762,45.3001,鸡西市,环保局,,22,19,23,8,9,95,68,90,76,22,26,4,5,0.3,0.3
2022-06-17T22:00:00,2243A,130.9429,45.3039,鸡西市,第一中学,,24,15,24,5,9,108,76,102,87,17,20,6,8,0.2,0.2
2022-06-17T22:00:00,2244A,130.2537,47.3416,鹤岗市,哈啤分公司,,21,12,8,8,6,92,65,84,76,5,10,6,8,0.3,0.4
2022-06-17T22:00:00,2245A,130.2684,47.3086,鹤岗市,斯达机电,,23,17,15,9,6,89,72,84,79,6,9,7,8,0.2,0.3
2022-06-17T22:00:00,2246A,130.3114,47.3388,鹤岗市,东山纸板厂,,23,6,12,6,6,82,72,80,77,5,11,8,9,0.5,0.4
2022-06-17T22:00:00,2247A,130.1097,47.3382,鹤岗市,五号水库(对照点),,18,6,6,12,5,87,53,76,67,7,9,9,9,0.3,0.3
2022-06-17T22:00:00,2248A,131.1511,46.6937,双鸭山市,双合村,,19,15,20,13,12,112,52,86,59,20,17,12,10,0.2,0.4
2022-06-17T22:00:00,2249A,131.1652,46.6191,双鸭山市,南小市,,15,7,18,3,10,101,46,83,61,12,9,5,5,0.2,0.1
2022-06-17T22:00:00,2250A,131.1524,46.6554,双鸭山市,环保局,,28,28,14,16,10,102,32,79,46,21,15,5,5,0.8,0.5
2022-06-17T22:00:00,2251A,131.12,46.5656,双鸭山市,苗圃(对照点),,22,7,11,15,14,112,61,97,70,4,5,1,2,0.4,0.3
2022-06-17T22:00:00,2252A,128.5159,47.4311,伊春市,环保局,,23,13,9,16,7,71,16,66,46,7,5,5,4,0.1,0.1
2022-06-17T22:00:00,2253A,128.9102,47.7412,伊春市,电力嘉园,,16,16,13,10,10,83,24,78,59,6,6,7,6,0.5,0.5
2022-06-17T22:00:00,2254A,129.5029,48.471,伊春市,汤旺河国家公园(对照点),,13,5,6,5,4,86,41,73,53,3,3,5,6,0.4,0.6
2022-06-17T22:00:00,2255A,130.2751,46.8028,佳木斯市,佳纺,,19,7,15,10,13,98,58,81,59,9,13,3,4,0.4,0.4
2022-06-17T22:00:00,2256A,130.3995,46.8307,佳木斯市,发电厂,,21,10,16,6,11,116,67,94,75,10,12,5,5,0.3,0.3
2022-06-17T22:00:00,2257A,130.3258,46.7975,佳木斯市,环保局,,21,13,19,7,11,112,66,92,71,7,11,3,2,0.4,0.4
2022-06-17T22:00:00,2258A,130.3648,46.8032,佳木斯市,十一中,,23,19,23,10,14,112,71,95,77,16,18,6,5,0.4,0.4
2022-06-17T22:00:00,2259A,130.3794,46.7588,佳木斯市,四丰(对照点),,17,12,13,8,11,109,53,98,64,20,12,5,4,0.4,0.4
2022-06-17T22:00:00,2262A,131.0518,45.8751,七台河市,新一中(对照点),,28,3,11,2,8,114,89,98,85,9,28,7,10,0.7,0.7
2022-06-17T22:00:00,2263A,127.4833,50.2524,黑河市,交通局,,29,29,13,8,8,81,15,79,59,25,9,6,6,0.5,0.3
2022-06-17T22:00:00,2264A,127.5144,50.2341,黑河市,环保局,,39,39,18,14,11,82,20,78,66,35,9,3,3,0.6,0.4
2022-06-17T22:00:00,2265A,127.5291,50.2472,黑河市,大黑河岛(对照点),,32,29,16,22,9,79,25,74,62,15,7,6,5,0.5,0.6
2022-06-17T22:00:00,2266A,126.9785,46.6365,绥化市,人和东街,,34,34,20,16,16,115,18,106,82,62,15,9,9,0.5,0.4
2022-06-17T22:00:00,2267A,126.964,46.6528,绥化市,党政办公中心,,27,16,13,6,11,108,25,104,87,54,12,8,8,0.3,0.3
2022-06-17T22:00:00,2269A,124.1069,50.4097,大兴安岭地区,科技局,,22,22,14,13,10,62,22,59,49,11,6,6,5,0.2,0.2
2022-06-17T22:00:00,2270A,117.396,32.939,蚌埠市,工人疗养院,,44,37,53,17,20,209,138,185,167,5,7,7,10,0.2,0.4
2022-06-17T22:00:00,2271A,117.3605,32.9427,蚌埠市,百货大楼,,44,34,41,17,18,213,139,189,170,9,12,7,11,0.4,0.5
2022-06-17T22:00:00,2273A,117.4185,32.8911,蚌埠市,蚌埠学院,,39,39,50,9,19,199,124,178,156,9,10,9,16,0.3,0.4
2022-06-17T22:00:00,2274A,117.3533,32.9673,蚌埠市,淮上区政府,,43,41,55,14,20,211,137,184,167,6,10,10,15,0.3,0.4
2022-06-17T22:00:00,2275A,117.3145,32.8977,蚌埠市,高新区,,44,44,55,17,23,204,132,185,166,13,15,10,14,0.3,0.5
2022-06-17T22:00:00,2277A,116.8305,32.7727,淮南市,潘集区政府,,48,48,49,24,25,173,113,163,148,16,16,12,8,0.3,0.3
2022-06-17T22:00:00,2278A,117.0067,32.6524,淮南市,师范学院,,38,31,47,15,24,171,121,162,149,12,9,6,6,0.3,0.4
2022-06-17T22:00:00,2279A,116.8569,32.5951,淮南市,谢家集区政府,,47,47,41,14,17,168,111,156,144,14,7,5,4,0.1,0.2
2022-06-17T22:00:00,2280A,116.8281,32.633,淮南市,八公山区政府,,50,50,44,17,21,165,116,154,145,11,9,5,5,0.2,0.3
2022-06-17T22:00:00,2281A,116.6325,32.6201,淮南市,焦岗湖风景区管理处(对照点),,39,39,40,12,21,187,117,160,155,15,11,11,11,0.3,0.3
2022-06-17T22:00:00,2282A,116.8004,33.975,淮北市,监测站,颗粒物(PM10),53,56,57,21,24,177,143,172,164,12,10,10,9,0.5,0.5
2022-06-17T22:00:00,2283A,116.8091,33.9007,淮北市,烈山区政府,,42,42,48,21,25,191,133,180,171,17,14,7,8,0.5,0.5
2022-06-17T22:00:00,2284A,116.7856,33.9477,淮北市,职业技术学院,颗粒物(PM10),52,54,55,25,26,165,134,160,153,14,11,7,7,0.5,0.5
2022-06-17T22:00:00,2285A,117.8177,30.9412,铜陵市,市第四中学,,29,29,27,19,10,148,70,133,113,30,15,22,13,2.2,0.9
2022-06-17T22:00:00,2286A,117.8059,30.9273,铜陵市,市公路局,,44,44,30,22,11,135,70,123,105,25,14,31,13,1.3,0.7
2022-06-17T22:00:00,2287A,117.7807,30.9413,铜陵市,市新民污水厂,颗粒物(PM10),55,59,42,23,19,132,70,117,102,31,26,54,26,0.3,0.4
2022-06-17T22:00:00,2288A,117.7439,30.8792,铜陵市,市第九中学,颗粒物(PM10),51,52,36,21,14,129,43,116,90,55,33,4,5,0.4,0.5
2022-06-17T22:00:00,2289A,117.846,30.9413,铜陵市,车站新区,,44,44,35,24,14,142,81,129,112,21,15,11,12,0.7,0.6
2022-06-17T22:00:00,2290A,117.8483,30.97,铜陵市,市职教基地,,28,24,28,19,12,138,75,126,110,22,15,25,15,0.3,0.9
2022-06-17T22:00:00,2291A,117.0809,30.5177,安庆市,环科院,,29,29,22,12,13,113,58,104,85,17,16,6,6,0.5,0.5
2022-06-17T22:00:00,2292A,117.0331,30.5119,安庆市,马山宾馆,,29,23,21,12,12,115,18,105,76,57,27,5,4,0.5,0.5
2022-06-17T22:00:00,2294A,116.9896,30.6145,安庆市,安庆大学,,48,48,30,18,15,119,65,111,94,24,14,4,5,0.3,0.2
2022-06-17T22:00:00,2295A,118.2903,29.6963,黄山市,延安路89号,,26,26,33,5,7,88,55,82,76,6,5,7,8,0.4,0.4
2022-06-17T22:00:00,2296A,118.327,29.7178,黄山市,黄山东路89号,,45,45,26,1,10,87,57,82,73,9,6,7,7,0.4,0.4
2022-06-17T22:00:00,2297A,118.1371,30.2756,黄山市,黄山区政府5号楼,,40,40,26,4,10,92,23,83,57,8,5,6,6,0.6,0.4
2022-06-17T22:00:00,2298A,118.3093,32.3153,滁州市,老年大学,,50,50,34,20,16,192,105,177,164,24,11,6,12,0.4,0.3
2022-06-17T22:00:00,2299A,118.3244,32.2786,滁州市,人大宾馆,,38,38,32,18,15,207,109,185,170,24,11,6,8,0.4,0.4
2022-06-17T22:00:00,2301A,115.8277,32.8929,阜阳市,市监测站,臭氧1小时,59,37,40,18,16,171,167,160,153,9,11,6,6,0.5,0.4
2022-06-17T22:00:00,2303A,115.8554,32.8605,阜阳市,开发区,,49,47,46,23,18,169,154,152,152,15,14,7,7,0.5,0.5
2022-06-17T22:00:00,2307A,116.5079,31.737,六安市,监测大楼,,35,30,38,18,17,178,112,167,150,11,11,8,8,0.4,0.4
2022-06-17T22:00:00,2308A,116.4738,31.7643,六安市,皖西学院,,37,37,43,18,20,198,114,173,151,8,10,9,10,0.4,0.4
2022-06-17T22:00:00,2309A,116.4996,31.7905,六安市,朝阳厂,,33,33,39,13,23,175,100,155,132,5,7,8,8,0.4,0.5
2022-06-17T22:00:00,2310A,116.5567,31.7886,六安市,开发区,,45,45,49,28,23,184,102,170,142,18,9,18,10,0.5,0.6
2022-06-17T22:00:00,2311A,115.8072,33.8399,亳州市,污水处理厂,,45,36,44,15,19,169,143,166,159,8,9,8,8,0.3,0.4
2022-06-17T22:00:00,2312A,115.7789,33.8518,亳州市,三国揽胜宫,,45,41,48,16,16,164,144,159,154,6,6,5,5,0.5,0.5
2022-06-17T22:00:00,2314A,117.47,30.6618,池州市,池州学院,,29,29,22,16,12,117,74,107,100,6,5,25,6,0.6,0.4
2022-06-17T22:00:00,2316A,118.7581,30.9454,宣城市,鳌峰子站,颗粒物(PM10),54,57,35,23,21,106,55,100,88,28,15,5,6,0.5,0.5
2022-06-17T22:00:00,2317A,118.7385,30.9743,宣城市,敬亭山子站,,40,38,33,28,21,117,64,110,94,12,16,4,5,0.4,0.4
2022-06-17T22:00:00,2318A,118.7173,30.9427,宣城市,开发区子站,,34,34,30,18,17,114,64,103,93,13,15,6,5,0.5,0.4
2022-06-17T22:00:00,2319A,119.0141,25.4325,莆田市,荔城区仓后路,,33,33,26,18,14,48,7,37,22,33,26,2,2,1.0,0.9
2022-06-17T22:00:00,2320A,119.0015,25.4553,莆田市,莆田市监测站,,38,38,27,17,14,50,12,41,27,15,17,5,5,0.5,0.5
2022-06-17T22:00:00,2321A,119.1119,25.4561,莆田市,涵江区六中,,34,34,25,18,18,40,18,29,21,26,30,3,4,0.4,0.4
2022-06-17T22:00:00,2322A,119.1013,25.3215,莆田市,秀屿区政府,,12,12,19,7,14,34,28,29,29,9,16,2,3,0.6,0.7
2022-06-17T22:00:00,2324A,117.6211,26.2625,三明市,三钢,,16,16,14,9,11,31,16,26,22,27,21,3,2,0.5,0.6
2022-06-17T22:00:00,2325A,117.635,26.2714,三明市,三明二中,,17,15,14,8,9,38,8,30,21,34,21,2,2,0.8,0.9
2022-06-17T22:00:00,2326A,117.6028,26.2378,三明市,三元区政府,,19,13,16,7,8,33,5,24,14,38,22,4,4,1.0,1
2022-06-17T22:00:00,2327A,117.7275,26.3108,三明市,洋溪(对照点),,18,18,16,6,8,51,18,44,31,18,11,5,5,0.7,0.7
2022-06-17T22:00:00,2331A,118.0966,26.6761,南平市,茫荡山(对照点),,16,2,2,2,3,73,50,61,50,2,2,4,4,0.4,0.4
2022-06-17T22:00:00,2332A,118.1681,26.6369,南平市,南平市监测站,,19,0,12,3,8,73,59,60,60,7,10,4,5,0.4,0.6
2022-06-17T22:00:00,2333A,118.1825,26.6489,南平市,南平铝业有限公司,,,,14,5,9,75,53,55,55,9,10,4,5,0.6,0.7
2022-06-17T22:00:00,2334A,118.1756,26.6272,南平市,南平七中,,15,2,12,10,10,63,47,50,50,6,9,4,4,0.6,0.7
2022-06-17T22:00:00,2335A,117.0189,25.1181,龙岩市,龙岩师专(对照点),,13,13,10,9,6,37,7,31,22,19,20,5,5,0.8,0.8
2022-06-17T22:00:00,2336A,117.0217,25.1033,龙岩市,龙岩市监测站,,31,31,14,14,9,36,2,30,20,26,21,5,5,0.9,0.8
2022-06-17T22:00:00,2337A,117.0258,25.0661,龙岩市,闽西职业技术学院,,19,19,15,7,4,36,2,31,19,17,18,7,6,0.5,0.6
2022-06-17T22:00:00,2338A,117.0196,25.0306,龙岩市,龙岩学院,,10,10,8,6,5,41,15,36,28,5,7,3,3,0.3,0.3
2022-06-17T22:00:00,2339A,119.5001,26.6946,宁德市,金涵水库(对照点),,23,7,15,16,17,60,15,45,36,14,12,7,7,0.6,0.7
2022-06-17T22:00:00,2341A,119.5388,26.6612,宁德市,宁德市监测站,,23,9,18,6,11,49,4,38,29,46,24,6,6,0.7,0.7
2022-06-17T22:00:00,2342A,117.3102,29.3867,景德镇市,王港中学(对照点),,38,38,30,11,14,101,63,88,75,5,6,5,4,0.4,0.4
2022-06-17T22:00:00,2343A,117.2117,29.2933,景德镇市,老干部活动中心,,41,41,39,7,16,107,47,90,73,24,15,22,13,0.5,0.4
2022-06-17T22:00:00,2344A,117.1894,29.2789,景德镇市,兽医站,,22,22,28,10,14,94,41,78,66,26,16,29,18,0.5,0.5
2022-06-17T22:00:00,2345A,117.1547,29.2617,景德镇市,台达陶瓷,,26,26,36,15,15,96,61,81,70,6,18,14,28,0.5,0.6
2022-06-17T22:00:00,2346A,117.2461,29.2956,景德镇市,陶研所,,25,25,26,3,10,99,70,88,82,3,7,6,6,0.3,0.4
2022-06-17T22:00:00,2347A,114.0997,27.5002,萍乡市,武功山(对照点),,10,2,5,2,3,52,29,44,38,4,6,21,19,0.2,0.2
2022-06-17T22:00:00,2348A,113.8385,27.6434,萍乡市,中医院,,16,1,21,11,19,50,12,42,36,29,25,5,10,1.1,1.2
2022-06-17T22:00:00,2349A,113.8493,27.6253,萍乡市,市政府车库,,14,10,32,6,22,46,18,40,32,28,29,7,13,0.8,1.5
2022-06-17T22:00:00,2350A,113.8676,27.6435,萍乡市,市环保局,,,8,29,,25,59,10,52,42,39,25,10,18,1.2,0.8
2022-06-17T22:00:00,2351A,113.866,27.6198,萍乡市,安源区政府,,10,3,27,4,24,58,20,44,31,19,22,9,14,0.5,0.7
2022-06-17T22:00:00,2352A,115.0861,27.9317,新余市,北岗(对照点),,11,8,14,7,10,54,35,51,44,9,10,5,5,0.5,0.5
2022-06-17T22:00:00,2353A,114.9886,27.8431,新余市,飞宇,,17,17,28,6,13,53,36,48,45,8,11,2,7,0.4,0.5
2022-06-17T22:00:00,2354A,114.9231,27.8246,新余市,第二水厂,,11,10,24,7,15,50,35,44,42,16,20,5,8,0.7,0.9
2022-06-17T22:00:00,2355A,114.9308,27.8036,新余市,市气象局,,16,12,22,11,14,53,41,47,46,9,14,4,6,0.8,0.8
2022-06-17T22:00:00,2357A,116.9822,28.1136,鹰潭市,龙虎山(对照点),,10,9,14,3,5,59,30,51,34,2,2,1,2,0.4,0.4
2022-06-17T22:00:00,2358A,117.0564,28.2642,鹰潭市,新监测站,,12,5,25,0,6,96,38,74,44,1,9,2,4,0.3,0.4
2022-06-17T22:00:00,2359A,117.0311,28.2475,鹰潭市,财苑宾馆,,10,9,24,0,4,87,32,68,41,4,8,12,7,0.2,0.3
2022-06-17T22:00:00,2360A,117.0222,28.2264,鹰潭市,体育馆,,12,10,24,0,4,89,38,63,42,1,3,4,5,0.6,0.4
2022-06-17T22:00:00,2361A,117.0017,28.2131,鹰潭市,三川水表,,12,12,23,5,6,75,30,58,39,5,6,5,5,0.5,0.5
2022-06-17T22:00:00,2362A,114.9017,25.9149,赣州市,通天岩(对照点),,14,14,22,9,13,50,32,41,39,8,13,4,6,0.4,0.5
2022-06-17T22:00:00,2363A,114.9367,25.8664,赣州市,地委,,17,12,20,7,11,56,53,53,53,12,17,6,7,0.7,0.8
2022-06-17T22:00:00,2364A,114.9461,25.8481,赣州市,气象台,,17,12,19,7,10,57,54,52,52,7,17,5,5,0.5,0.7
2022-06-17T22:00:00,2365A,114.9322,25.8333,赣州市,市图书馆,,14,10,14,8,9,45,42,38,38,10,17,5,4,0.7,0.8
2022-06-17T22:00:00,2366A,114.8905,25.8471,赣州市,华坚鞋城,,16,8,15,9,12,53,49,49,49,8,17,1,4,0.8,0.9
2022-06-17T22:00:00,2367A,114.9754,27.0803,吉安市,红声器材厂,,36,36,30,13,13,67,32,60,39,3,7,7,8,0.5,0.5
2022-06-17T22:00:00,2368A,114.9658,27.0999,吉安市,市森林工业局,,36,24,23,25,18,70,37,64,40,6,8,5,7,0.5,0.5
2022-06-17T22:00:00,2369A,114.99,27.1312,吉安市,市环境监测站,,23,22,24,16,14,63,30,60,37,13,10,7,11,0.5,0.4
2022-06-17T22:00:00,2370A,115.0093,27.0968,吉安市,青原区法院,,35,35,25,19,14,63,37,57,35,7,9,8,13,0.4,0.5
2022-06-17T22:00:00,2371A,114.3408,27.8064,宜春市,槟榔水业(对照点),,,11,36,7,19,53,27,45,38,9,13,,7,0.5,0.7
2022-06-17T22:00:00,2373A,114.3956,27.7844,宜春市,市石油公司,,14,14,30,6,16,49,22,42,33,16,16,5,5,0.8,0.7
2022-06-17T22:00:00,2374A,114.3703,27.7914,宜春市,市气象局,,16,16,35,7,17,56,30,46,38,14,14,4,5,0.8,0.8
2022-06-17T22:00:00,2375A,114.4013,27.8074,宜春市,市广电局,,15,12,29,10,18,57,28,47,37,14,12,2,3,1.1,1
2022-06-17T22:00:00,2376A,116.2127,28.0814,抚州市,桐源党溪(对照点),,15,14,22,4,8,62,45,50,44,8,9,3,6,0.8,0.8
2022-06-17T22:00:00,2377A,116.3544,27.9831,抚州市,市站,,18,14,18,4,9,57,55,51,51,5,7,6,4,0.9,0.8
2022-06-17T22:00:00,2378A,116.3565,27.963,抚州市,血防站,,17,16,20,2,6,54,52,48,48,7,9,1,2,0.6,0.6
2022-06-17T22:00:00,2379A,116.3564,28.0007,抚州市,采茶剧团,,18,14,19,2,7,60,57,52,52,5,6,4,4,0.6,0.7
2022-06-17T22:00:00,2380A,116.385,27.9647,抚州市,医学分院,,18,16,20,5,9,59,57,52,52,6,10,3,4,0.5,0.5
2022-06-17T22:00:00,2381A,118.005,28.4572,上饶市,百草园(对照点),,19,19,35,9,20,84,42,69,46,13,12,6,11,0.6,0.6
2022-06-17T22:00:00,2382A,117.9756,28.4436,上饶市,市监测站,,30,30,43,13,24,87,32,74,48,8,13,5,9,0.5,0.6
2022-06-17T22:00:00,2383A,117.9519,28.4628,上饶市,凤凰光学,,18,18,49,8,26,78,39,69,59,13,20,5,11,0.7,0.8
2022-06-17T22:00:00,2385A,114.17,35.9019,鹤壁市,市监测站,颗粒物(PM10),62,73,123,31,48,313,118,291,222,32,33,5,13,0.8,1.3
2022-06-17T22:00:00,2386A,114.2956,35.7511,鹤壁市,市交警支队,颗粒物(PM10),65,80,111,35,47,280,117,260,208,31,20,4,12,0.7,1.2
2022-06-17T22:00:00,2387A,114.2878,35.7306,鹤壁市,迎宾馆,颗粒物(PM10),61,72,103,22,48,276,126,259,209,30,24,6,11,0.5,0.9
2022-06-17T22:00:00,2389A,113.836,35.311,新乡市,环保西院,颗粒物(PM10),54,58,83,14,30,273,150,249,204,13,21,7,10,0.4,0.7
2022-06-17T22:00:00,2390A,113.884,35.272,新乡市,开发区,颗粒物(PM10),62,74,82,14,27,274,150,243,198,19,23,6,9,0.5,0.7
2022-06-17T22:00:00,2391A,113.883,35.303,新乡市,环保东院,颗粒物(PM10),52,54,77,24,31,276,154,248,205,20,29,5,9,0.6,0.9
2022-06-17T22:00:00,2392A,115.0312,35.7636,濮阳市,环保局,,48,48,83,15,42,264,144,244,207,21,20,7,8,0.2,0.5
2022-06-17T22:00:00,2394A,115.0574,35.7609,濮阳市,油田运输公司,颗粒物(PM10),55,60,98,12,41,294,145,259,204,26,25,6,6,0.2,0.6
2022-06-17T22:00:00,2395A,115.0866,35.7754,濮阳市,油田物探公司,,,,97,,42,300,133,271,215,32,20,6,11,0.6,0.5
2022-06-17T22:00:00,2396A,113.8276,34.0159,许昌市,监测站,,45,45,53,15,19,176,124,167,160,18,11,4,6,0.4,0.4
2022-06-17T22:00:00,2398A,113.7906,33.9953,许昌市,开发区,,47,47,51,14,18,172,110,163,151,14,8,5,6,0.5,0.5
2022-06-17T22:00:00,2399A,114.051,33.5699,漯河市,三五一五工厂,,44,44,47,19,20,180,107,166,149,20,9,8,7,0.5,0.4
2022-06-17T22:00:00,2400A,114.0055,33.5698,漯河市,漯河大学,,,40,44,20,15,179,121,168,156,,12,21,5,0.3,0.3
2022-06-17T22:00:00,2401A,114.0138,33.5828,漯河市,市水利局,,39,34,45,25,21,181,122,168,158,12,10,11,10,0.4,0.4
2022-06-17T22:00:00,2402A,114.0261,33.5698,漯河市,市广电局,,39,37,45,18,18,178,122,165,152,9,8,7,6,0.5,0.4
2022-06-17T22:00:00,2403A,112.5192,32.9917,南阳市,环保局,,35,27,42,12,19,151,110,145,133,5,5,2,3,0.3,0.3
2022-06-17T22:00:00,2404A,112.5339,33.0086,南阳市,瓦房庄,颗粒物(PM10),52,54,45,30,21,150,116,146,134,9,10,2,4,0.5,0.4
2022-06-17T22:00:00,2405A,112.5003,32.9735,南阳市,汉画馆,,42,42,39,28,23,150,114,148,134,3,5,6,7,0.4,0.3
2022-06-17T22:00:00,2406A,112.5779,33.0144,南阳市,气象站,,39,36,43,27,17,156,115,150,137,11,11,6,7,0.5,0.4
2022-06-17T22:00:00,2407A,112.548,32.9692,南阳市,理工学院,,40,40,38,21,22,152,113,147,136,7,10,2,3,0.5,0.4
2022-06-17T22:00:00,2408A,115.6702,34.4285,商丘市,环境监测站,,44,41,53,14,20,189,139,180,170,14,15,9,9,0.4,0.4
2022-06-17T22:00:00,2409A,115.6458,34.4045,商丘市,粮食局,颗粒物(PM10),57,64,62,20,21,191,139,180,172,13,11,8,8,0.5,0.6
2022-06-17T22:00:00,2410A,115.6293,34.3948,商丘市,睢阳区环保局,颗粒物(PM10),53,56,53,15,22,177,124,171,159,17,14,5,6,0.6,0.7
2022-06-17T22:00:00,2420A,114.0189,32.9656,驻马店市,市一纸厂,,48,48,39,23,18,153,116,146,140,15,9,8,8,0.2,0.2
2022-06-17T22:00:00,2421A,114.0114,33.015,驻马店市,市彩印厂,,41,36,39,9,14,157,130,149,146,7,7,7,6,0.3,0.2
2022-06-17T22:00:00,2422A,113.9976,32.9771,驻马店市,天方二分厂,,43,43,38,17,16,150,117,144,138,12,7,9,5,0.4,0.3
2022-06-17T22:00:00,2423A,115.0601,30.2313,黄石市,沈家营,,35,35,61,14,20,169,91,154,122,9,20,9,18,0.4,0.7
2022-06-17T22:00:00,2424A,115.0817,30.2006,黄石市,陈家湾,,30,29,51,21,24,153,79,132,110,10,19,4,10,0.5,0.9
2022-06-17T22:00:00,2426A,114.8988,30.2019,黄石市,铁山,,44,44,57,22,22,172,99,154,128,14,27,30,18,0.4,0.7
2022-06-17T22:00:00,2427A,115.0307,30.2092,黄石市,团城山,,32,32,55,11,18,173,94,156,128,14,22,21,14,0.5,0.8
2022-06-17T22:00:00,2428A,111.0419,32.395,十堰市,武当山(对照点),,40,24,25,16,16,166,128,154,147,7,6,7,7,0.5,0.5
2022-06-17T22:00:00,2429A,110.78,32.6494,十堰市,滨河新村,,47,47,55,12,24,184,127,155,136,10,17,8,9,0.6,0.7
2022-06-17T22:00:00,2430A,110.7258,32.6389,十堰市,刘家沟,,48,48,46,2,25,192,141,168,154,8,10,10,10,0.6,0.8
2022-06-17T22:00:00,2431A,110.8839,32.5714,十堰市,铁二处,,46,46,37,7,19,183,143,166,159,9,10,7,8,0.7,0.7
2022-06-17T22:00:00,2432A,112.155,32.0197,襄阳市,襄城运动路,,,48,49,28,23,169,,158,147,11,9,8,8,0.6,0.6
2022-06-17T22:00:00,2433A,112.1392,32.0564,襄阳市,樊城新华路,,43,43,44,24,22,162,110,149,135,14,10,6,6,0.9,0.8
2022-06-17T22:00:00,2434A,112.1825,32.1142,襄阳市,高新管委会,,32,22,40,14,20,147,102,135,124,6,7,3,4,0.7,0.7
2022-06-17T22:00:00,2435A,112.2106,32.0903,襄阳市,襄州航空路,,41,41,41,16,19,152,121,143,136,5,6,6,7,0.7,0.6
2022-06-17T22:00:00,2436A,114.8938,30.3994,鄂州市,市政府,,43,43,55,17,21,182,73,168,134,18,18,8,11,0.5,0.7
2022-06-17T22:00:00,2437A,114.8989,30.3714,鄂州市,赵家坝,,37,37,49,14,20,175,71,159,124,12,19,8,10,0.5,0.7
2022-06-17T22:00:00,2439A,112.2014,31.0481,荆门市,竹园小学,,38,38,41,20,21,161,106,152,140,7,7,9,8,0.4,0.4
2022-06-17T22:00:00,2440A,112.1969,30.9891,荆门市,掇刀,,34,32,40,17,19,159,107,152,140,10,9,5,6,0.5,0.5
2022-06-17T22:00:00,2441A,112.2213,31.0386,荆门市,石化一小,,33,33,36,13,16,158,105,152,138,12,10,10,10,0.5,0.4
