timepoint,stationcode,longitude,latitude,area,positionname,primarypollutant,aqi,pm10,pm10_24h,pm2_5,pm2_5_24h,o3,o3_24h,o3_8h,o3_8h_24h,no2,no2_24h,so2,so2_24h,co,co_24h
2026-01-17T1300,2568A,102.2503,31.8896,阿坝藏族羌族自治州,马师校,,21,,21,8,18,65,,41,41,7,14,4,4,0.5,0.5
2026-01-17T1300,3994A,102.2174,31.9016,阿坝藏族羌族自治州,马尔康中学西区,,20,,18,7,15,62,,45,45,6,12,5,5,0.4,0.4
2026-01-17T1300,2695A,80.2899,41.1684,阿克苏地区,电视台,颗粒物(PM10),99,148,172,44,79,60,,49,49,15,46,6,7,0.7,1.8
2026-01-17T1300,2696A,80.2592,41.1541,阿克苏地区,艺术中心,颗粒物(PM10),101,152,164,43,84,66,,58,58,14,49,7,6,0.6,1.3
2026-01-17T1300,2205A,105.699,38.8409,阿拉善盟,蒙二幼,颗粒物(PM10),62,74,62,25,19,66,,77,71,13,11,12,12,0.6,0.6
2026-01-17T1300,2206A,105.7198,38.8508,阿拉善盟,环保局新楼,细颗粒物(PM2.5),72,81,56,52,29,64,,79,71,12,7,10,11,0.6,0.6
2026-01-17T1300,2708A,88.1266,47.8515,阿勒泰地区,市站,,36,30,21,25,16,38,,59,45,38,26,16,6,0.8,0.6
2026-01-17T1300,4166A,88.1198,47.7931,阿勒泰地区,阿勒泰路33号,,25,25,29,13,19,54,,54,53,16,20,4,4,0.5,0.5
2026-01-17T1300,2630A,80.1171,32.4999,阿里地区,阿里监测站,,,,3,,3,,,59,42,,9,5,6,0.4,0.5
2026-01-17T1300,3192A,80.0906,32.5029,阿里地区,阿里藏医院,,29,7,10,3,4,91,,90,88,1,2,10,10,0.4,0.4
2026-01-17T1300,2644A,109.0088,32.6974,安康市,汉滨区检察院,细颗粒物(PM2.5),95,106,81,71,53,35,,15,15,38,29,6,5,0.9,0.8
2026-01-17T1300,4054A,109.0324,32.6913,安康市,市邮政管理局,细颗粒物(PM2.5),100,123,98,75,63,39,,13,13,36,40,7,7,0.9,1.3
2026-01-17T1300,2291A,117.0806,30.5181,安庆市,环科院,细颗粒物(PM2.5),235,232,155,185,116,75,,49,44,19,29,5,8,1.0,0.8
2026-01-17T1300,2292A,117.0331,30.5118,安庆市,马山宾馆,细颗粒物(PM2.5),226,236,150,176,113,85,,53,47,20,32,4,8,1.2,1
2026-01-17T1300,2294A,116.9897,30.6146,安庆市,安庆大学,细颗粒物(PM2.5),229,237,147,179,110,60,,51,45,19,25,4,6,1.1,0.8
2026-01-17T1300,3173A,117.0598,30.5351,安庆市,市人大,细颗粒物(PM2.5),232,246,160,182,115,81,,48,44,24,39,6,9,1.0,0.8
2026-01-17T1300,3123A,105.9408,26.2431,安顺市,凤凰山,细颗粒物(PM2.5),77,72,107,56,97,91,,44,39,16,30,18,35,0.6,0.9
2026-01-17T1300,3124A,105.9443,26.2567,安顺市,金钟山,,,73,96,58,96,83,,57,57,,19,15,31,0.6,0.7
2026-01-17T1300,3125A,105.8983,26.248,安顺市,娄家坡,细颗粒物(PM2.5),78,65,106,57,96,90,,61,61,14,20,13,23,0.7,0.9
2026-01-17T1300,1819A,114.3552,36.1017,安阳市,红庙街,细颗粒物(PM2.5),62,69,102,44,69,47,,41,41,14,27,3,2,0.5,0.7
2026-01-17T1300,1820A,114.361,36.0681,安阳市,银杏小区,细颗粒物(PM2.5),73,72,98,53,66,44,,40,40,15,23,2,4,0.4,0.6
2026-01-17T1300,3141A,114.3921,36.0879,安阳市,信访局,细颗粒物(PM2.5),72,69,95,52,66,49,,46,46,16,22,3,4,0.6,0.8
2026-01-17T1300,3669A,114.4706,36.0634,安阳市,左辅环卫站,细颗粒物(PM2.5),74,74,108,54,66,49,,44,44,24,39,2,4,0.4,0.6
2026-01-17T1300,4117A,114.2918,36.0769,安阳市,钢三路198号,颗粒物(PM10),65,79,112,45,69,49,,46,46,15,24,1,4,0.6,0.8
2026-01-17T1300,1748A,123.0441,41.1201,鞍山市,深沟寺,,23,23,36,9,22,64,,48,48,10,23,8,19,0.6,0.8
2026-01-17T1300,1749A,123.011,41.0931,鞍山市,太阳城,,23,20,34,12,20,73,,63,63,9,19,10,13,0.7,0.8
2026-01-17T1300,1750A,123.0483,41.1445,鞍山市,太平,,,,42,19,25,60,,47,46,13,28,9,13,,0.8
2026-01-17T1300,1751A,122.964,41.0968,鞍山市,铁西三道街,,24,24,37,9,19,61,,49,49,16,32,17,26,0.6,1.5
2026-01-17T1300,1753A,123.0219,41.0822,鞍山市,明达新区,,21,19,30,9,18,66,,53,53,13,20,11,13,0.4,0.5
2026-01-17T1300,4201A,122.944647,41.082639,鞍山市,兴盛南路290号,,37,37,47,13,22,57,,47,47,22,29,26,21,1.2,1.3
2026-01-17T1300,2195A,107.4206,40.7609,巴彦淖尔市,附二中,颗粒物(PM10),62,74,52,24,22,50,,39,39,17,16,12,7,0.7,0.5
2026-01-17T1300,2196A,107.37,40.7372,巴彦淖尔市,市环保大楼,颗粒物(PM10),65,79,52,25,18,55,,44,42,16,15,12,8,0.8,0.5
2026-01-17T1300,1956A,86.1476,41.7529,巴音郭楞蒙古自治州,孔雀公园,颗粒物(PM10),63,75,81,37,35,68,,77,74,12,10,10,9,0.5,0.4
2026-01-17T1300,1957A,86.1971,41.7166,巴音郭楞蒙古自治州,棉纺厂,颗粒物(PM10),69,88,90,29,29,62,,61,57,17,16,/,/,/,/
2026-01-17T1300,1958A,86.236,41.7172,巴音郭楞蒙古自治州,经济开发区,颗粒物(PM10),58,66,67,28,26,64,,66,64,12,10,7,7,0.5,0.5
2026-01-17T1300,3181A,106.776805,31.852614,巴中市,市五中,细颗粒物(PM2.5),109,114,102,82,72,18,,7,7,41,32,6,6,1.4,1
2026-01-17T1300,3183A,106.7419,31.8654,巴中市,圣泉水务公司,细颗粒物(PM2.5),93,92,84,69,64,30,,9,9,28,38,5,5,0.9,0.8
2026-01-17T1300,3616A,106.7617,31.8343,巴中市,市中心医院,细颗粒物(PM2.5),108,108,96,81,71,21,,5,5,38,38,7,7,1.1,1
2026-01-17T1300,2235A,122.7909,45.608,白城市,洮北区环保局,,21,15,31,13,15,65,,55,54,10,14,7,5,0.2,0.3
2026-01-17T1300,2236A,122.8741,45.5725,白城市,市环保局,,22,22,32,8,14,66,,54,54,4,12,3,4,0.3,0.3
2026-01-17T1300,2231A,126.4219,41.9172,白山市,喜丰,细颗粒物(PM2.5),52,52,45,36,26,54,,36,36,24,23,27,13,0.8,0.7
2026-01-17T1300,2232A,126.4082,41.9416,白山市,环保局,细颗粒物(PM2.5),57,56,34,40,31,50,,31,29,25,21,26,12,0.6,0.5
2026-01-17T1300,2647A,104.1727,36.5448,白银市,第三小学,细颗粒物(PM2.5),119,136,144,90,65,64,,32,32,64,56,68,118,1.4,1.4
2026-01-17T1300,2648A,104.1467,36.5482,白银市,动力公司,细颗粒物(PM2.5),98,121,131,73,56,75,,47,47,39,43,55,51,1.4,1.2
2026-01-17T1300,2512A,106.6102,23.901,百色市,市监测站,,43,41,86,30,63,54,,24,24,16,25,8,14,0.7,1
2026-01-17T1300,2513A,106.6524,23.8842,百色市,市中心血站,细颗粒物(PM2.5),55,47,110,39,80,52,,17,17,17,40,8,14,0.8,1.2
2026-01-17T1300,4133A,106.6273,23.8798,百色市,龙景西路,细颗粒物(PM2.5),59,63,138,42,84,55,,12,12,19,35,8,12,0.6,1
2026-01-17T1300,2270A,117.396,32.9389,蚌埠市,工人疗养院,颗粒物(PM10),84,117,174,44,102,56,,54,54,14,26,4,6,0.4,0.7
2026-01-17T1300,2271A,117.3606,32.9428,蚌埠市,百货大楼,颗粒物(PM10),85,120,162,51,99,56,,53,53,16,24,4,6,0.5,0.7
2026-01-17T1300,2273A,117.4183,32.8909,蚌埠市,蚌埠学院,颗粒物(PM10),78,105,150,50,98,52,,49,49,22,28,4,6,0.5,0.7
2026-01-17T1300,2274A,117.3534,32.9672,蚌埠市,淮上区政府,颗粒物(PM10),85,119,161,54,102,53,,50,50,21,29,1,3,0.4,0.7
2026-01-17T1300,2275A,117.3143,32.8977,蚌埠市,高新区,细颗粒物(PM2.5),83,112,161,61,105,54,,52,52,15,25,6,8,0.3,0.5
2026-01-17T1300,3715A,117.3091,32.9314,蚌埠市,蚌埠田家炳中学,细颗粒物(PM2.5),89,126,169,66,110,56,,54,54,16,29,3,5,0.6,0.8
2026-01-17T1300,1585A,109.8761,40.6533,包头市,市环境监测站,颗粒物(PM10),70,90,63,35,30,54,,18,18,30,47,28,14,0.8,1
2026-01-17T1300,1587A,109.9992,40.5843,包头市,包头八中,颗粒物(PM10),71,92,59,35,32,56,,25,25,28,41,24,17,0.7,0.8
2026-01-17T1300,1589A,109.8641,40.6288,包头市,惠龙物流,颗粒物(PM10),66,82,54,40,30,59,,22,22,26,45,22,17,0.8,1.2
2026-01-17T1300,1590A,110.0376,40.5546,包头市,东河鸿龙湾,颗粒物(PM10),68,86,45,27,21,61,,36,36,29,44,17,15,0.8,0.8
2026-01-17T1300,3283A,109.9154,40.5684,包头市,滨河大厦,,44,44,42,15,22,57,,33,33,17,36,15,12,0.7,0.8
2026-01-17T1300,3419A,109.9449,40.6259,包头市,包头市委党校,颗粒物(PM10),65,79,62,45,29,48,,16,16,33,50,26,13,1.2,1.1
2026-01-17T1300,3683A,109.8332,40.6577,包头市,昆区政府,颗粒物(PM10),71,92,64,39,37,50,,18,18,37,55,26,19,1.0,1.3
2026-01-17T1300,1931A,107.0802,34.3129,宝鸡市,竹园沟,颗粒物(PM10),94,137,79,65,31,67,,31,31,32,21,10,7,0.6,0.3
2026-01-17T1300,1933A,107.1429,34.3549,宝鸡市,监测站,细颗粒物(PM2.5),119,176,99,90,43,66,,26,26,32,30,8,6,0.9,0.7
2026-01-17T1300,1934A,107.1172,34.3759,宝鸡市,技工学校,颗粒物(PM10),115,179,109,70,44,73,,33,33,30,27,8,9,1.1,0.8
2026-01-17T1300,1936A,107.2025,34.3518,宝鸡市,文理学院,细颗粒物(PM2.5),132,145,105,100,55,74,,30,30,26,34,8,5,0.8,0.6
2026-01-17T1300,1937A,107.2396,34.3626,宝鸡市,三迪小学,细颗粒物(PM2.5),114,158,112,86,58,70,,27,27,31,40,8,5,0.8,0.6
2026-01-17T1300,4155A,107.1721,34.3558,宝鸡市,滨河北路,颗粒物(PM10),101,151,110,73,42,68,,29,29,27,32,9,6,0.8,0.5
2026-01-17T1300,4308A,107.3898,34.3601,宝鸡市,陈仓区北开路21号,颗粒物(PM10),106,161,128,78,59,66,,30,30,34,52,10,10,0.7,0.5
2026-01-17T1300,1051A,115.4803,38.8568,保定市,游泳馆,细颗粒物(PM2.5),52,45,82,36,48,37,,23,23,22,41,1,2,0.4,0.6
2026-01-17T1300,1052A,115.509,38.8895,保定市,华电二区,,42,41,75,29,54,41,,27,27,19,40,3,3,0.4,0.6
2026-01-17T1300,1053A,115.4588,38.9037,保定市,接待中心,,50,44,73,35,44,33,,24,24,20,38,3,3,0.3,0.4
2026-01-17T1300,1054A,115.4484,38.8344,保定市,地表水厂,颗粒物(PM10),54,58,102,31,55,34,,23,21,23,44,4,6,0.3,0.6
2026-01-17T1300,3581A,115.3136,38.9511,保定市,满城区生态环境分局,,42,41,87,29,51,38,,31,29,26,44,2,4,0.5,0.7
2026-01-17T1300,3582A,115.4709,38.7628,保定市,清苑区第二中学,颗粒物(PM10),51,52,107,24,48,33,,21,21,26,44,3,3,0.5,0.7
2026-01-17T1300,3583A,115.6231,39.0223,保定市,徐水物探局,细颗粒物(PM2.5),70,63,82,51,44,35,,27,27,22,37,2,3,0.9,0.6
2026-01-17T1300,4004A,115.4199,38.8665,保定市,双鹰农机,颗粒物(PM10),56,62,94,28,49,42,,30,30,18,37,4,6,0.5,0.6
2026-01-17T1300,4034A,115.515,38.8589,保定市,植保所站,颗粒物(PM10),54,57,88,35,60,33,,17,17,27,47,3,2,0.6,0.8
2026-01-17T1300,2594A,99.1589,25.1137,保山市,市环境监测站,,32,32,26,9,17,88,,51,50,11,9,10,6,0.3,0.4
2026-01-17T1300,2595A,99.1616,25.1381,保山市,市环保局,,40,33,32,28,21,92,,61,58,9,6,4,4,0.4,0.4
2026-01-17T1300,1867A,109.1435,21.4085,北海市,海滩公园,细颗粒物(PM2.5),89,99,44,66,30,65,,86,61,23,12,9,7,0.9,0.8
2026-01-17T1300,1868A,109.0983,21.466,北海市,新市环保局,细颗粒物(PM2.5),73,68,43,53,36,88,,90,68,21,19,10,6,0.7,0.6
2026-01-17T1300,1869A,109.1775,21.5232,北海市,北海工业园,细颗粒物(PM2.5),104,104,61,78,44,79,,64,45,26,18,15,9,0.9,0.8
2026-01-17T1300,3400A,109.1844,21.4396,北海市,龙潭自来水厂,细颗粒物(PM2.5),137,,47,104,41,58,,46,34,20,13,22,16,1.0,0.7
2026-01-17T1300,1001A,116.3611,39.8786,北京市,万寿西宫,,30,30,21,9,7,60,,52,52,12,14,4,3,0.5,0.4
2026-01-17T1300,1003A,116.4174,39.9289,北京市,东四,,26,26,20,10,8,59,,49,49,12,17,6,6,0.5,0.4
2026-01-17T1300,1004A,116.4073,39.8858,北京市,天坛,,24,24,19,9,8,61,,51,51,10,15,5,4,0.5,0.4
2026-01-17T1300,1005A,116.4622,39.9364,北京市,农展馆,,23,23,17,8,5,66,,57,57,5,11,6,5,0.5,0.4
2026-01-17T1300,1006A,116.3399,39.9293,北京市,官园,,32,32,23,6,7,58,,52,50,8,12,7,6,0.6,0.5
2026-01-17T1300,1007A,116.2879,39.9613,北京市,海淀万柳,,29,29,19,11,8,54,,49,48,14,17,5,4,0.6,0.4
2026-01-17T1300,1008A,116.6635,40.1349,北京市,顺义新城,,30,30,17,12,6,60,,64,58,14,9,11,5,0.8,0.4
2026-01-17T1300,1009A,116.6275,40.327,北京市,怀柔镇,,27,27,14,12,6,56,,57,53,13,10,8,6,0.6,0.4
2026-01-17T1300,1010A,116.2295,40.217,北京市,昌平镇,,39,39,19,14,7,54,,41,41,16,19,7,3,0.8,0.4
2026-01-17T1300,1011A,116.3968,39.982,北京市,奥体中心,,24,24,18,11,8,63,,54,54,13,19,6,5,0.7,0.5
2026-01-17T1300,3418A,116.8336,40.4095,北京市,密云新城,,23,23,12,11,6,58,,63,58,11,8,9,7,0.6,0.4
2026-01-17T1300,3671A,116.0879,39.9725,北京市,门头沟三家店,,30,30,19,15,8,54,,48,48,17,20,3,3,0.6,0.4
2026-01-17T1300,3672A,116.1507,39.8246,北京市,丰台云岗,,29,29,18,12,8,63,,56,56,12,12,4,3,0.6,0.4
2026-01-17T1300,3674A,115.9578,39.7602,北京市,房山燕山,,27,27,30,12,14,51,,45,44,16,18,4,4,0.6,0.3
2026-01-17T1300,3675A,116.4669,39.7734,北京市,大兴旧宫,,25,25,19,8,7,59,,51,51,13,20,5,4,0.6,0.5
2026-01-17T1300,3694A,115.9859,40.4562,北京市,延庆石河营,,40,40,16,20,8,50,,58,53,15,8,6,4,0.8,0.4
2026-01-17T1300,3695A,116.6151,40.3052,北京市,怀柔新城,,33,33,16,17,8,60,,60,56,10,8,9,5,0.6,0.3
2026-01-17T1300,3696A,116.2542,39.8764,北京市,丰台小屯,,27,27,20,10,8,53,,47,47,15,17,5,4,0.6,0.4
2026-01-17T1300,3697A,116.8399,40.3843,北京市,密云镇,,22,22,12,11,6,59,,62,58,11,10,5,3,0.6,0.4
2026-01-17T1300,4057A,115.9423,40.4431,北京市,延庆百泉,,45,45,16,19,7,41,,53,46,17,7,1,2,0.6,0.3
2026-01-17T1300,4058A,116.6598,39.9164,北京市,通州新华,,24,24,18,10,8,51,,43,43,13,18,4,3,0.7,0.5
2026-01-17T1300,4182A,116.1942,39.9158,北京市,石景山八角,,31,31,21,10,7,54,,47,47,8,10,1,2,0.4,0.2
2026-01-17T1300,4194A,117.078628,40.151726,北京市,平谷新城,,26,26,12,13,7,54,,53,50,7,5,5,2,0.4,0.2
2026-01-17T1300,1761A,123.8274146,41.31234549,本溪市,大峪,,28,28,65,14,41,60,,24,24,13,38,9,8,0.8,1
2026-01-17T1300,1763A,123.7169,41.3094,本溪市,彩屯,,28,28,60,8,36,66,,43,43,12,34,8,8,0.6,0.9
2026-01-17T1300,1764A,123.7672166,41.28649327,本溪市,东明,,,38,51,10,36,57,,24,24,,39,3,3,0.8,1.2
2026-01-17T1300,1765A,123.799345,41.266614,本溪市,新立屯,,24,24,37,14,27,58,,36,36,11,35,11,9,0.7,0.7
2026-01-17T1300,1766A,123.829144,41.336777,本溪市,威宁,颗粒物(PM10),61,71,77,15,50,58,,22,22,12,43,8,6,0.7,1.2
2026-01-17T1300,2587A,105.287,27.3133,毕节市,八中,细颗粒物(PM2.5),104,85,121,78,108,74,,26,26,24,20,15,11,1.0,1
2026-01-17T1300,2588A,105.3079,27.2987,毕节市,师专,细颗粒物(PM2.5),138,122,127,105,109,64,,22,22,36,27,12,9,1.3,1.1
2026-01-17T1300,4263A,105.3688,27.3598,毕节市,工业大道,细颗粒物(PM2.5),113,112,149,85,103,83,,23,23,25,28,16,11,/,/
2026-01-17T1300,1629A,117.9961,37.3604,滨州市,第二水厂,,19,19,39,11,19,59,,51,51,5,11,13,8,0.7,0.8
2026-01-17T1300,1630A,117.9789,37.3931,滨州市,北中新校,,36,36,43,9,20,60,,48,48,12,18,5,5,0.2,0.4
2026-01-17T1300,3514A,117.9379,37.3959,滨州市,中海酒店,,27,27,37,12,24,59,,51,51,7,12,8,7,0.4,0.5
2026-01-17T1300,3515A,117.9381509,37.35547456,滨州市,开发区一中,,,,43,,19,66,,58,58,4,10,15,10,0.2,0.3
2026-01-17T1300,3516A,118.0914,37.6938,滨州市,金海六路,,32,32,33,3,12,73,,65,65,5,9,1,3,0.2,0.3
2026-01-17T1300,4028A,117.9955,37.3752,滨州市,滨州市西街道办事处,,27,27,38,12,23,69,,58,58,7,13,11,8,0.3,0.4
2026-01-17T1300,2311A,115.8071,33.8399,亳州市,污水处理厂,颗粒物(PM10),68,85,142,39,72,40,,38,38,19,25,3,3,0.3,0.5
2026-01-17T1300,2312A,115.7789,33.8519,亳州市,三国揽胜宫,细颗粒物(PM2.5),80,108,157,59,80,38,,38,37,20,23,3,2,0.5,0.6
2026-01-17T1300,3332A,115.7631,33.803,亳州市,亳州学院,颗粒物(PM10),69,87,143,47,80,38,,39,38,20,25,4,4,0.6,0.7
2026-01-17T1300,2693A,82.0482,44.8553,博尔塔拉蒙古自治州,市党校,颗粒物(PM10),56,61,56,11,10,62,,74,67,12,17,1,3,2.8,0.3
2026-01-17T1300,2694A,82.0805,44.8966,博尔塔拉蒙古自治州,市环保局,,35,35,46,21,21,54,,62,54,13,9,8,6,0.4,0.3
2026-01-17T1300,1071A,116.8733,38.2922,沧州市,沧县城建局,,36,36,61,11,37,69,,48,48,8,32,5,5,0.2,0.5
2026-01-17T1300,1072A,116.8462,38.3189,沧州市,电视转播站,,28,28,61,12,31,68,,48,48,12,30,3,3,0.3,0.5
2026-01-17T1300,1073A,116.8588,38.3161,沧州市,市环保局,,41,41,64,23,39,65,,45,45,7,25,4,5,0.3,0.5
2026-01-17T1300,3324A,116.8011,38.294,沧州市,河北水利电力学院,,29,29,53,3,28,64,,51,51,10,23,3,3,0.2,0.4
2026-01-17T1300,2622A,97.1813,31.1289,昌都市,昌都监测站,,23,23,32,6,14,66,,52,52,9,17,3,3,0.3,0.5
2026-01-17T1300,3719A,97.1707,31.1428,昌都市,昌都会议中心,,18,11,10,9,12,55,,46,44,7,3,2,2,0.5,0.4
2026-01-17T1300,2692A,87.2722,44.0298,昌吉回族自治州,新区政务中心,,25,25,17,11,10,66,,62,61,12,13,9,9,0.4,0.3
2026-01-17T1300,3613A,87.3069,44.0093,昌吉回族自治州,亚心广场,,32,31,19,22,11,66,,64,62,4,6,7,8,0.5,0.5
2026-01-17T1300,4164A,87.2057,43.9289,昌吉回族自治州,财政所,,40,31,30,28,25,48,,58,47,16,13,6,6,0.4,0.4
2026-01-17T1300,1120A,125.2874,43.9024,长春市,客车厂,细颗粒物(PM2.5),52,39,57,36,59,54,,36,36,20,39,12,13,0.5,0.6
2026-01-17T1300,1121A,125.2943,43.8508,长春市,邮电学院,,40,34,56,28,54,54,,40,40,19,37,14,14,0.6,0.7
2026-01-17T1300,1122A,125.3648,43.8745,长春市,劳动公园,,36,33,62,25,57,54,,41,41,19,38,12,12,0.4,0.6
2026-01-17T1300,1123A,125.3233,43.8781,长春市,园林处,,,,57,52,51,53,,41,41,,32,,11,0.6,0.6
2026-01-17T1300,1124A,125.4604,43.7904,长春市,净月潭,,32,31,67,22,54,56,,36,36,12,31,8,6,0.4,0.7
2026-01-17T1300,1126A,125.38,43.8422,长春市,经开区环卫处,,41,41,59,22,46,58,,40,40,16,39,7,8,0.5,0.7
2026-01-17T1300,1127A,125.234,43.7761,长春市,高新区管委会,,42,42,63,25,56,61,,45,45,12,39,9,8,0.3,0.6
2026-01-17T1300,1128A,125.1695,43.83,长春市,岱山公园,细颗粒物(PM2.5),55,54,71,39,63,69,,52,52,10,35,6,7,0.5,0.6
2026-01-17T1300,4281A,125.334645,43.916281,长春市,北亚泰大街1068号,,43,43,49,26,48,56,,40,40,20,36,12,12,0.5,0.7
2026-01-17T1300,1335A,113.082,28.2421,长沙市,经开区环保局,细颗粒物(PM2.5),183,181,127,138,117,41,,29,29,24,57,4,6,0.8,0.9
2026-01-17T1300,1336A,112.8873,28.2202,长沙市,高开区环保局,细颗粒物(PM2.5),195,181,129,146,133,52,,33,33,16,48,5,6,0.8,1
2026-01-17T1300,1337A,113.0785,28.2012,长沙市,马坡岭,细颗粒物(PM2.5),207,185,137,157,72,48,,29,29,23,61,6,8,0.8,1
2026-01-17T1300,1338A,112.9448,28.1894,长沙市,湖南师范大学,细颗粒物(PM2.5),145,189,130,111,92,55,,40,40,,60,,5,1.0,1
2026-01-17T1300,1339A,113.0177,28.1322,长沙市,雨花区环保局,细颗粒物(PM2.5),188,171,124,141,121,47,,33,33,30,61,8,9,1.0,1.1
2026-01-17T1300,1340A,112.9795,28.2593,长沙市,伍家岭,细颗粒物(PM2.5),175,180,151,132,111,49,,34,34,23,62,5,7,0.8,0.9
2026-01-17T1300,1341A,113.002,28.1944,长沙市,火车新站,细颗粒物(PM2.5),185,194,144,139,112,55,,41,41,26,62,,23,1.1,1.2
2026-01-17T1300,1342A,112.9846,28.1177,长沙市,天心区环保局,细颗粒物(PM2.5),173,167,131,131,101,51,,38,38,28,59,6,7,0.8,1
2026-01-17T1300,1343A,112.8906,28.1307,长沙市,湖南中医药大学,细颗粒物(PM2.5),180,178,120,136,94,57,,39,39,25,48,6,7,1.0,1
2026-01-17T1300,1727A,113.1146,36.1547,长治市,清华站,细颗粒物(PM2.5),79,73,84,58,58,77,,57,57,15,22,13,15,1.0,1.1
2026-01-17T1300,1730A,113.0887,36.2126,长治市,审计局,细颗粒物(PM2.5),83,73,84,61,60,70,,57,57,16,20,11,12,1.0,1
2026-01-17T1300,1731A,113.0845,36.1856,长治市,长治八中,细颗粒物(PM2.5),89,104,111,66,66,73,,49,,17,20,14,13,1.2,1
2026-01-17T1300,2845A,113.1561,36.1912,长治市,德盛苑,细颗粒物(PM2.5),79,69,82,58,61,81,,57,57,12,19,11,11,1.0,1
2026-01-17T1300,3568A,113.0603,36.0464,长治市,向阳小学,细颗粒物(PM2.5),104,131,122,78,71,67,,46,46,27,32,14,16,1.4,1.6
2026-01-17T1300,3569A,112.8788,36.315,长治市,屯留一中,细颗粒物(PM2.5),72,92,95,52,53,65,,56,56,30,27,11,13,1.2,1.3
2026-01-17T1300,4189A,113.113092,36.199482,长治市,英华南巷50号,细颗粒物(PM2.5),73,79,95,53,58,72,,54,54,15,22,10,10,1.0,1
2026-01-17T1300,4190A,113.23666,36.33435,长治市,学府街1号,细颗粒物(PM2.5),62,61,82,44,60,70,,61,61,15,26,15,15,1.1,1.1
2026-01-17T1300,1854A,111.696,28.9725,常德市,市二中,细颗粒物(PM2.5),175,190,167,132,123,80,,71,63,19,21,8,9,0.9,0.9
2026-01-17T1300,3138A,111.7152,29.0288,常德市,武陵区永安,细颗粒物(PM2.5),169,185,170,128,117,57,,72,57,18,19,6,10,1.0,1
2026-01-17T1300,3139A,111.6891,28.9881,常德市,鼎城区玉霞,细颗粒物(PM2.5),165,189,163,125,121,82,,72,64,19,20,10,11,0.8,0.8
2026-01-17T1300,3140A,111.6651,29.0526,常德市,武陵区长庚,细颗粒物(PM2.5),173,198,169,131,122,76,,66,60,22,21,7,8,1.0,0.9
2026-01-17T1300,1196A,119.9524,31.7586,常州市,市监测站,细颗粒物(PM2.5),124,142,173,94,116,75,,113,86,32,46,6,6,1.1,1.1
2026-01-17T1300,1200A,119.9351,31.703,常州市,武进监测站,细颗粒物(PM2.5),119,133,161,90,116,88,,114,93,27,44,12,14,0.8,0.8
2026-01-17T1300,3002A,119.9701,31.813,常州市,行政中心,细颗粒物(PM2.5),112,149,153,84,103,65,,119,82,39,41,7,7,0.9,0.9
2026-01-17T1300,3003A,120.0434,31.7726,常州市,经开区,细颗粒物(PM2.5),115,145,171,87,105,79,,118,90,31,48,6,8,1.0,1
2026-01-17T1300,3010A,119.8919,31.7892,常州市,钟楼,细颗粒物(PM2.5),112,134,154,84,109,63,,113,82,35,39,8,8,0.8,0.8
2026-01-17T1300,3429A,119.8595,31.706,常州市,武进经发区,细颗粒物(PM2.5),125,148,160,95,127,94,,120,95,29,53,2,6,1.2,1.1
2026-01-17T1300,3430A,119.5812,31.7256,常州市,金坛城区,细颗粒物(PM2.5),134,172,171,102,129,70,,114,88,30,33,7,9,1.2,1.1
2026-01-17T1300,4089A,119.9551,31.863,常州市,崇义南街5-H号,细颗粒物(PM2.5),112,140,140,84,105,72,,119,83,35,42,6,6,1.1,1.1
2026-01-17T1300,2220A,120.4318,41.588,朝阳市,西梁,,21,20,43,9,18,66,,34,31,12,17,9,10,0.5,0.6
2026-01-17T1300,2221A,120.452,41.565,朝阳市,河畔小区,,22,19,29,10,12,68,,49,47,8,14,9,7,0.4,0.5
2026-01-17T1300,2222A,120.4176,41.5648,朝阳市,八里堡,,21,15,36,7,16,65,,36,33,9,18,6,7,0.4,0.5
2026-01-17T1300,3026A,116.6179,23.6608,潮州市,市政府,颗粒物(PM10),78,105,83,48,45,142,,78,78,20,35,13,14,0.5,0.6
2026-01-17T1300,4036A,116.646,23.676,潮州市,金山,颗粒物(PM10),72,93,62,50,43,149,,79,79,21,20,13,6,0.6,0.6
2026-01-17T1300,2473A,113.0116,25.8228,郴州市,市职中,细颗粒物(PM2.5),132,103,87,100,72,50,,17,17,15,33,9,8,0.9,0.8
2026-01-17T1300,2475A,113.0381,25.8074,郴州市,市审计局,细颗粒物(PM2.5),144,,89,110,72,54,,24,24,16,35,4,3,/,/
2026-01-17T1300,2476A,113.0348,25.7757,郴州市,市环保局,细颗粒物(PM2.5),143,121,96,109,73,49,,19,19,21,42,11,6,0.7,0.6
2026-01-17T1300,4252A,113.0138,25.8011,郴州市,好美居路49号,细颗粒物(PM2.5),129,107,82,98,69,64,,34,34,22,43,10,9,/,/
2026-01-17T1300,1431A,103.9727,30.7242,成都市,金泉两河,细颗粒物(PM2.5),122,143,124,92,98,77,,18,18,53,71,7,5,1.2,1.4
2026-01-17T1300,1432A,104.1423,30.6765,成都市,十里店,细颗粒物(PM2.5),175,168,148,132,111,45,,14,14,92,77,7,5,1.3,1.4
2026-01-17T1300,1433A,104.0594,30.5765,成都市,三瓦窑,细颗粒物(PM2.5),162,149,153,123,129,53,,14,14,77,83,7,6,1.2,1.4
2026-01-17T1300,1434A,104.1122,30.6306,成都市,沙河铺,细颗粒物(PM2.5),216,176,144,166,130,31,,9,9,118,79,3,3,1.5,1.5
2026-01-17T1300,2880A,104.0219,30.6561,成都市,大石西路,细颗粒物(PM2.5),168,173,148,127,106,80,,21,21,53,73,13,7,1.1,1.4
2026-01-17T1300,3136A,104.2724,30.559,成都市,龙泉驿区区政府,细颗粒物(PM2.5),153,146,105,117,85,101,,64,64,38,27,9,8,1.0,0.9
2026-01-17T1300,3357A,104.0028,30.6891,成都市,金博路,细颗粒物(PM2.5),119,131,133,90,103,64,,16,16,72,81,10,8,1.5,1.6
2026-01-17T1300,3359A,104.056,30.5228,成都市,华阳,细颗粒物(PM2.5),160,166,143,122,110,73,,19,19,56,77,11,6,1.1,1.5
2026-01-17T1300,3488A,104.387954,30.746684,成都市,青石路225号,细颗粒物(PM2.5),144,156,123,110,95,82,,23,23,46,59,10,4,1.0,0.9
2026-01-17T1300,3489A,104.0788,30.4054,成都市,科学城,细颗粒物(PM2.5),172,146,121,130,98,75,,21,21,33,46,20,9,1.0,1
2026-01-17T1300,4011A,103.8505,30.6946,成都市,光华大道三段,细颗粒物(PM2.5),115,120,144,87,107,89,,30,30,43,61,6,5,0.6,1
2026-01-17T1300,4144A,104.3257,30.6406,成都市,八角井街185号,细颗粒物(PM2.5),158,127,128,120,91,96,,42,38,28,33,7,5,0.9,0.9
2026-01-17T1300,4224A,104.2433276,30.53529463,成都市,鲸龙路1057号,细颗粒物(PM2.5),163,148,121,124,102,93,,52,52,40,49,8,7,1.0,0.9
2026-01-17T1300,1062A,117.9531,40.908,承德市,铁路,,17,13,26,3,10,54,,40,39,11,11,6,5,0.3,0.3
2026-01-17T1300,1063A,117.9397,40.9763,承德市,中国银行,,19,,25,3,6,60,,42,42,2,6,3,2,0.3,0.3
2026-01-17T1300,4073A,117.9462,40.95,承德市,杏林街1号,,19,16,18,11,11,59,,49,46,8,5,4,4,0.3,0.3
2026-01-17T1300,4274A,117.7994,40.9605,承德市,滨河大街98号,,20,10,24,3,9,61,,47,47,6,12,4,3,0.3,0.2
2026-01-17T1300,2314A,117.4698,30.6617,池州市,池州学院,细颗粒物(PM2.5),221,207,146,171,116,75,,57,57,27,52,3,9,1.1,1.1
2026-01-17T1300,3237A,117.4918,30.6617,池州市,展览馆,细颗粒物(PM2.5),224,215,142,174,108,77,,58,58,25,52,1,4,1.2,1.3
2026-01-17T1300,3333A,117.5626,30.695,池州市,第八中学,细颗粒物(PM2.5),192,184,136,144,104,75,,57,57,27,50,3,9,1.3,1.2
2026-01-17T1300,3334A,117.5037,30.6242,池州市,第十二中学,细颗粒物(PM2.5),207,202,143,157,98,73,,58,58,29,57,2,5,1.2,1.2
2026-01-17T1300,1744A,118.9229,42.2816,赤峰市,松山一中,,47,47,22,24,8,22,,38,36,52,21,64,8,1.6,0.7
2026-01-17T1300,1745A,118.9588,42.2733,赤峰市,哈达街,颗粒物(PM10),54,57,24,29,13,26,,32,31,47,20,102,11,1.6,0.8
2026-01-17T1300,1746A,118.8792,42.2551,赤峰市,天义路,,26,26,17,18,15,43,,46,46,28,16,14,7,1.3,0.7
2026-01-17T1300,3058A,119.2656,42.0356,赤峰市,银河街,颗粒物(PM10),55,59,41,31,20,59,,36,36,9,12,18,15,0.8,0.9
2026-01-17T1300,3286A,118.9359,42.3146,赤峰市,桥北物流园区,,31,31,21,21,12,48,,56,49,27,12,24,6,0.7,0.4
2026-01-17T1300,2521A,107.3473,22.4137,崇左市,市环保局江州分局,细颗粒物(PM2.5),67,79,98,48,59,86,,45,45,10,22,8,9,1.0,1
2026-01-17T1300,4256A,107.375,22.3736,崇左市,石景林东路7号,细颗粒物(PM2.5),79,75,77,58,64,84,,49,49,16,24,8,8,0.8,0.7
2026-01-17T1300,3207A,118.31131,32.3033,滁州市,市政府原办公楼,细颗粒物(PM2.5),113,170,151,85,102,67,,77,72,20,35,4,7,0.6,0.8
2026-01-17T1300,3331A,118.3268,32.2633,滁州市,图书馆,"颗粒物(PM10),细颗粒物(PM2.5)",108,166,146,81,95,65,,73,70,18,29,8,10,0.7,0.9
2026-01-17T1300,4101A,118.3196,32.3335,滁州市,银山路666号,细颗粒物(PM2.5),125,135,137,95,115,58,,74,70,18,33,3,11,0.7,0.8
2026-01-17T1300,4102A,118.3426,32.2979,滁州市,黄山路555号,细颗粒物(PM2.5),133,176,164,101,115,66,,75,71,22,43,16,17,0.9,1.1
2026-01-17T1300,2606A,101.5379,25.0492,楚雄彝族自治州,市经济开发区,,42,36,33,29,22,72,,26,26,14,20,4,4,0.6,0.5
2026-01-17T1300,4153A,101.5536,25.0343,楚雄彝族自治州,团结路562号,,43,43,26,15,16,68,,27,27,14,19,4,5,0.4,0.4
2026-01-17T1300,2549A,107.5087,31.2186,达州市,市环境监测站,细颗粒物(PM2.5),168,151,143,127,111,24,,9,9,38,38,14,8,0.9,1
2026-01-17T1300,2550A,107.4988,31.2132,达州市,凤凰小区,细颗粒物(PM2.5),180,183,152,136,117,14,,6,6,42,42,11,6,1.1,1.2
2026-01-17T1300,2551A,107.5081,31.1987,达州市,达县机关宾馆,细颗粒物(PM2.5),168,163,164,127,120,23,,5,5,,49,,5,1.1,1.3
2026-01-17T1300,2552A,107.4644,31.2124,达州市,市政中心,细颗粒物(PM2.5),180,178,161,136,115,15,,7,7,55,48,8,8,1.3,1.1
2026-01-17T1300,2614A,100.2168,25.5818,大理白族自治州,大理市环境监测站,,46,,22,32,16,72,,63,57,8,9,6,6,0.7,0.5
2026-01-17T1300,2615A,100.1542,25.7055,大理白族自治州,大理古城,,28,28,25,13,19,81,,52,51,6,13,8,8,0.6,0.6
2026-01-17T1300,1109A,121.6119,38.974,大连市,甘井子,,24,24,31,16,18,60,,58,56,15,15,10,8,0.3,0.3
2026-01-17T1300,1110A,121.565,38.9509,大连市,周水子,,31,31,40,15,17,57,,51,51,13,14,10,12,0.4,0.4
2026-01-17T1300,1111A,121.5637,38.8849,大连市,星海三站,,27,27,34,18,13,53,,50,50,19,18,12,8,0.5,0.5
2026-01-17T1300,1112A,121.6301,38.9117,大连市,青泥洼桥,,30,30,30,16,17,54,,51,48,15,16,11,9,0.4,0.5
2026-01-17T1300,1113A,121.6248,38.8643,大连市,傅家庄,,28,28,34,16,16,49,,47,44,18,18,11,10,0.4,0.4
2026-01-17T1300,1114A,121.5117,38.8636,大连市,七贤岭,,29,29,39,14,16,56,,52,52,9,12,7,7,0.5,0.5
2026-01-17T1300,1116A,121.7507,39.1339,大连市,金州,,37,37,32,17,19,64,,58,58,16,16,9,9,0.5,0.4
2026-01-17T1300,1117A,121.7811,39.0495,大连市,开发区,,29,29,38,14,17,66,,54,50,8,12,6,6,0.3,0.5
2026-01-17T1300,1118A,121.9762,39.0631,大连市,双D港,,25,25,34,14,16,70,,64,64,10,12,9,9,0.2,0.3
2026-01-17T1300,4082A,121.2548,38.8188,大连市,旅顺,,20,19,25,7,10,64,,60,60,5,8,7,7,0.5,0.5
2026-01-17T1300,1789A,124.8085,46.0381,大庆市,大同区,,21,21,44,10,28,65,,44,44,3,20,6,7,0.5,0.7
2026-01-17T1300,1790A,125.1166,46.5255,大庆市,龙凤区,,35,28,42,24,27,58,,48,46,16,29,8,12,0.2,0.4
2026-01-17T1300,1791A,124.8894,46.4007,大庆市,红岗区,,19,18,30,6,21,58,,39,39,6,23,5,5,0.2,0.4
2026-01-17T1300,1792A,125.1391,46.578,大庆市,萨尔图区,,20,18,37,11,21,62,,52,51,6,19,8,10,0.3,0.5
2026-01-17T1300,1793A,124.9026,46.6217,大庆市,让胡路区,,35,,38,24,30,69,,61,61,2,12,8,9,0.5,0.5
2026-01-17T1300,3481A,125.127,46.6277,大庆市,萨区政府监测点,,20,17,33,14,14,63,,51,51,4,19,9,9,0.4,0.6
2026-01-17T1300,1723A,113.2926,40.0759,大同市,云冈宾馆,颗粒物(PM10),61,72,41,38,22,50,,32,32,18,21,6,10,0.8,0.9
2026-01-17T1300,1724A,113.3437,40.0921,大同市,大同大学,细颗粒物(PM2.5),77,69,35,56,29,60,,37,37,11,17,3,7,0.7,0.8
2026-01-17T1300,1725A,113.2637,40.129,大同市,安家小村,颗粒物(PM10),71,91,53,46,24,55,,26,26,15,33,7,10,0.6,1
2026-01-17T1300,3282A,113.3399,40.0586,大同市,大同市卫生学校,细颗粒物(PM2.5),78,63,34,57,44,55,,42,42,16,19,4,5,0.7,0.6
2026-01-17T1300,3565A,113.1371,40.1122,大同市,云冈站,颗粒物(PM10),77,104,52,54,23,49,,20,20,22,34,7,10,0.9,0.9
2026-01-17T1300,3566A,113.1186,40.2556,大同市,图书馆,细颗粒物(PM2.5),82,82,52,60,29,55,,30,30,21,19,7,7,0.7,0.8
2026-01-17T1300,3567A,113.5931,40.0459,大同市,区一中,颗粒物(PM10),66,82,28,34,15,65,,64,63,12,9,1,2,0.6,0.4
2026-01-17T1300,4199A,113.2798248,40.09972476,大同市,魏都大道141号,颗粒物(PM10),67,83,53,34,25,52,,24,24,16,32,4,7,0.8,1.1
2026-01-17T1300,2269A,124.1068,50.4091,大兴安岭地区,科技局,,18,18,17,12,12,53,,51,51,1,2,5,5,0.2,0.2
2026-01-17T1300,3663A,124.117,50.4279,大兴安岭地区,红旗社区,,17,,6,3,5,53,,51,51,2,3,5,5,0.3,0.2
2026-01-17T1300,1600A,124.33,40.0625,丹东市,江湾东路,,24,24,35,16,25,64,,56,54,10,16,6,7,0.5,0.6
2026-01-17T1300,1601A,124.4242,40.1513,丹东市,临江后街,,23,23,33,12,21,67,,61,59,7,13,4,5,0.5,0.6
2026-01-17T1300,1602A,124.3935,40.1461,丹东市,元宝山,,22,22,31,14,23,66,,61,58,6,13,7,8,0.4,0.6
2026-01-17T1300,1603A,124.3634,40.1093,丹东市,民主桥,,27,27,33,14,17,63,,59,54,7,16,9,8,0.4,0.8
2026-01-17T1300,3541A,109.5726195,19.51688767,儋州市,第一中学子站,,32,29,41,22,26,86,,60,55,2,6,4,4,0.5,0.6
2026-01-17T1300,3542A,109.5567,19.5187,儋州市,东坡学校子站,,38,38,42,15,21,94,,60,59,2,6,5,5,0.5,0.6
2026-01-17T1300,2616A,98.5611,24.4273,德宏傣族景颇族自治州,德宏州监测站,细颗粒物(PM2.5),52,50,47,36,33,62,,26,26,18,20,8,7,0.6,0.7
2026-01-17T1300,3677A,98.5887,24.4366,德宏傣族景颇族自治州,芒市人民政府综合楼,细颗粒物(PM2.5),57,54,47,40,26,63,,26,25,12,14,6,5,0.6,0.6
2026-01-17T1300,1901A,104.424,31.1209,德阳市,东山公园,细颗粒物(PM2.5),117,110,88,88,72,75,,51,45,46,30,10,7,1.1,0.8
2026-01-17T1300,1902A,104.3827,31.1318,德阳市,西小区,细颗粒物(PM2.5),130,135,120,99,87,61,,15,15,63,57,8,6,1.4,1.3
2026-01-17T1300,1904A,104.3553,31.1091,德阳市,耐火材料厂,细颗粒物(PM2.5),139,140,107,106,88,31,,9,9,90,56,7,5,1.3,1.1
2026-01-17T1300,4145A,104.4144,31.1495,德阳市,市林业局,细颗粒物(PM2.5),159,125,92,121,77,53,,16,16,61,56,6,4,0.9,0.7
2026-01-17T1300,1622A,116.3034,37.4675,德州市,儿童乐园,,36,36,64,14,31,64,,53,53,14,20,11,12,0.6,0.8
2026-01-17T1300,1624A,116.2992,37.4449,德州市,监理站,,,,62,,30,,,70,,,21,,10,,0.7
2026-01-17T1300,3066A,116.2722,37.438,德州市,九衢泉纯净水厂,,34,34,59,12,30,66,,56,56,10,16,5,5,0.5,0.6
2026-01-17T1300,3371A,116.3693,37.44,德州市,开发区人民医院,,39,39,59,12,24,68,,56,56,17,27,12,12,0.4,0.5
2026-01-17T1300,3511A,116.5687,37.3331,德州市,陵城艺术中心,,39,39,60,14,29,66,,52,52,12,24,12,14,0.6,0.9
2026-01-17T1300,4292A,116.352738,37.420875,德州市,新河东路,,44,44,60,17,30,66,,55,55,12,19,13,12,0.7,0.9
2026-01-17T1300,2621A,99.7054,27.8319,迪庆藏族自治州,迪庆州站,,43,,29,30,21,78,,49,49,10,12,5,5,0.4,0.4
2026-01-17T1300,3180A,99.7122,27.8129,迪庆藏族自治州,质量技术监督局,,,41,30,3,22,86,,45,45,,14,,4,0.6,0.5
2026-01-17T1300,4257A,104.6092,35.5962,定西市,将台街,颗粒物(PM10),68,86,77,36,38,85,,61,61,8,24,11,14,0.3,0.6
2026-01-17T1300,4309A,104.6159,35.5701,定西市,正龙路62号,颗粒物(PM10),80,109,85,26,34,73,,69,63,3,9,7,10,0.5,0.7
2026-01-17T1300,1390A,113.7943,23.0132,东莞市,东城石井,臭氧1小时(O3_1h),111,102,84,61,47,222,,81,81,39,58,11,8,0.6,0.7
2026-01-17T1300,1391A,113.7384,22.9659,东莞市,南城西平,臭氧1小时(O3_1h),105,91,95,60,55,210,,63,63,50,88,9,8,0.8,0.9
2026-01-17T1300,3319A,113.7283,23.041,东莞市,万江金泰,臭氧1小时(O3_1h),110,115,116,77,71,219,,77,77,40,80,9,10,1.0,1.2
2026-01-17T1300,4129A,113.8666,23.1062,东莞市,裕兴路,臭氧1小时(O3_1h),119,116,121,52,56,237,,80,80,33,73,8,9,0.8,0.9
2026-01-17T1300,4130A,114.0076,22.9739,东莞市,教育路1号,臭氧1小时(O3_1h),117,132,106,72,55,234,,69,69,55,70,9,7,0.8,0.8
2026-01-17T1300,4131A,113.7981,22.8124,东莞市,长怡路1号,细颗粒物(PM2.5),93,129,94,69,48,179,,49,49,70,83,9,7,1.0,1
2026-01-17T1300,1666A,118.6612,37.4313,东营市,市环保局,,23,19,31,3,12,72,,68,68,15,17,6,6,0.4,0.4
2026-01-17T1300,3036A,118.6903,37.4337,东营市,开发区管委会,,22,16,33,7,13,70,,68,67,4,5,8,8,0.1,0.1
2026-01-17T1300,3365A,118.5721,37.5654,东营市,垦利区民丰路,,24,24,32,12,12,73,,63,63,8,12,4,2,0.1,0.3
2026-01-17T1300,3498A,118.5063,37.8606,东营市,河口城区,,23,17,32,15,12,71,,66,66,12,14,4,4,0.7,0.8
2026-01-17T1300,3646A,118.4979,37.4623,东营市,胜利站,,,23,37,12,15,66,,60,60,10,14,10,10,,0.6
2026-01-17T1300,3734A,118.5753,37.4405,东营市,理想之城,,27,27,35,9,17,62,,56,56,12,12,4,3,0.4,0.4
2026-01-17T1300,1591A,110.0024,39.8127,鄂尔多斯市,综合楼,颗粒物(PM10),104,158,87,34,23,66,,38,38,21,39,11,12,0.5,0.6
2026-01-17T1300,1592A,109.9485,39.8259,鄂尔多斯市,巴音孟克林场办事处,颗粒物(PM10),87,124,75,34,22,64,,42,42,21,32,12,12,0.5,0.6
2026-01-17T1300,1593A,109.7734,39.5987,鄂尔多斯市,康泽苑,颗粒物(PM10),80,110,80,31,28,76,,36,36,18,41,8,9,0.5,0.6
2026-01-17T1300,1594A,109.8121,39.5987,鄂尔多斯市,华泰汽车城,颗粒物(PM10),84,117,80,31,24,70,,25,25,18,41,8,9,0.4,0.5
2026-01-17T1300,1595A,109.9734,39.7884,鄂尔多斯市,奥林花园,颗粒物(PM10),89,127,77,29,19,62,,32,32,22,42,9,11,0.6,0.7
2026-01-17T1300,2436A,114.894,30.3989,鄂州市,市政府,细颗粒物(PM2.5),160,152,135,122,109,42,,26,26,29,47,5,7,0.6,0.7
2026-01-17T1300,2437A,114.8986,30.3714,鄂州市,赵家坝,细颗粒物(PM2.5),165,165,147,125,106,39,,28,26,30,37,13,10,2.0,1
2026-01-17T1300,3654A,114.8093,30.4091,鄂州市,精准医疗中心,细颗粒物(PM2.5),166,154,142,126,112,56,,34,34,24,46,4,18,1.2,1.1
2026-01-17T1300,2454A,109.4978,30.2979,恩施土家族苗族自治州,湖北民院,细颗粒物(PM2.5),145,,131,111,141,30,,8,8,19,25,6,6,1.1,1.8
2026-01-17T1300,3549A,109.5061,30.3771,恩施土家族苗族自治州,龙凤新区,细颗粒物(PM2.5),155,133,148,118,128,23,,5,5,23,22,7,7,1.0,1.1
2026-01-17T1300,2499A,108.3411,21.6159,防城港市,沙万,,38,30,67,26,35,63,,36,36,22,39,8,9,1.0,1
2026-01-17T1300,2500A,108.3515,21.7733,防城港市,防城档案局,,49,49,60,27,40,66,,39,39,11,17,7,6,0.8,0.7
2026-01-17T1300,2501A,108.3506,21.6414,防城港市,大海花园,细颗粒物(PM2.5),57,47,56,40,36,56,,43,40,32,28,9,12,1.2,0.8
2026-01-17T1300,1371A,113.1293,23.0065,佛山市,湾梁,颗粒物(PM10),78,105,115,41,49,121,,49,49,58,82,/,/,/,/
2026-01-17T1300,1372A,113.1082,23.0477,佛山市,华材职中,颗粒物(PM10),104,158,134,,62,118,,66,62,88,71,10,7,0.8,0.9
2026-01-17T1300,1373A,113.1439,23.045,佛山市,南海气象局,,,,115,,72,,,202,,,81,,,,
2026-01-17T1300,1374A,113.2879,22.8094,佛山市,顺德苏岗,细颗粒物(PM2.5),67,75,90,48,61,103,,34,34,62,72,/,/,0.9,1
2026-01-17T1300,1376A,112.8384,22.8678,佛山市,高明孔堂,细颗粒物(PM2.5),122,116,90,92,67,163,,114,111,68,44,/,/,/,/
2026-01-17T1300,1377A,112.8835,23.1584,佛山市,三水监测站,细颗粒物(PM2.5),206,261,197,156,114,165,,49,49,86,122,16,7,1.0,1.1
2026-01-17T1300,1378A,112.8668,23.185,佛山市,三水云东海,细颗粒物(PM2.5),232,233,148,182,108,141,,43,43,102,91,/,/,/,/
2026-01-17T1300,3625A,113.2568,22.7629,佛山市,容桂街道办,细颗粒物(PM2.5),89,102,105,66,73,146,,75,75,49,63,/,/,/,/
2026-01-17T1300,1282A,119.2681,26.0506,福州市,师大,细颗粒物(PM2.5),59,62,60,42,34,101,,55,55,41,41,9,6,0.8,0.6
2026-01-17T1300,1283A,119.2983,26.1028,福州市,五四北路,细颗粒物(PM2.5),63,58,56,45,32,101,,59,59,36,44,10,6,0.9,0.7
2026-01-17T1300,1284A,119.2648,26.0769,福州市,杨桥西路,细颗粒物(PM2.5),59,62,55,42,32,100,,56,56,23,31,10,7,/,/
2026-01-17T1300,3048A,119.5799,26.0937,福州市,九龙,颗粒物(PM10),55,60,42,31,26,131,,74,74,14,26,8,6,0.7,0.7
2026-01-17T1300,3526A,119.5188,25.9666,福州市,吴航,,44,44,52,27,31,135,,54,54,12,34,7,6,0.6,0.7
2026-01-17T1300,4104A,119.3106,26.0648,福州市,路通桥巷6号,颗粒物(PM10),66,82,58,44,39,101,,52,52,32,34,/,/,/,/
2026-01-17T1300,1755A,123.7974,41.8494,抚顺市,望花区,颗粒物(PM10),59,68,85,40,67,58,,22,22,22,45,3,5,1.1,1.4
2026-01-17T1300,1756A,123.9161,41.8827,抚顺市,顺城区,颗粒物(PM10),51,51,92,19,66,64,,26,26,17,46,8,9,0.8,1.4
2026-01-17T1300,1757A,124.0437,41.8615,抚顺市,东洲区,颗粒物(PM10),63,75,95,23,67,59,,27,27,11,35,6,19,0.7,1.2
2026-01-17T1300,1758A,123.9246,41.8638,抚顺市,新抚区,颗粒物(PM10),60,70,95,25,67,64,,24,24,20,46,8,7,0.8,1.3
2026-01-17T1300,1759A,124.0972,41.8961,抚顺市,大伙房水库,,47,47,59,20,46,63,,37,37,8,24,10,10,0.7,1
2026-01-17T1300,1760A,123.708,41.8386,抚顺市,沈抚新城,细颗粒物(PM2.5),64,57,95,46,83,58,,24,24,15,44,10,10,3.2,2.2
2026-01-17T1300,2377A,116.3544,27.9833,抚州市,市站,,,,81,,59,95,,68,68,13,23,,16,1.2,0.8
2026-01-17T1300,2378A,116.3562,27.9631,抚州市,血防站,细颗粒物(PM2.5),82,76,77,60,56,95,,70,70,18,26,10,15,1.6,1.3
2026-01-17T1300,2379A,116.3561,28.0007,抚州市,采茶剧团,细颗粒物(PM2.5),78,77,85,57,64,93,,64,64,11,24,10,12,1.3,1.3
2026-01-17T1300,2380A,116.3854,27.9648,抚州市,医学分院,细颗粒物(PM2.5),72,85,83,52,53,94,,67,67,11,16,11,17,1.0,0.9
2026-01-17T1300,2207A,121.6095,41.9978,阜新市,工业园区,,28,28,25,11,13,66,,52,49,7,12,9,10,0.4,0.4
2026-01-17T1300,2208A,121.6567,42.0188,阜新市,长青街,,22,18,13,6,9,68,,58,58,7,8,7,8,0.3,0.3
2026-01-17T1300,2209A,121.6672,42.07,阜新市,农业园区,,,26,21,,9,63,,57,57,8,10,,9,0.6,0.4
2026-01-17T1300,2211A,121.6343,42.0455,阜新市,玉龙新城,,20,16,24,8,10,63,,44,43,7,14,6,7,0.4,0.4
2026-01-17T1300,2301A,115.8276,32.8929,阜阳市,市监测站,颗粒物(PM10),139,228,180,86,103,29,,30,30,27,35,5,5,0.7,0.8
2026-01-17T1300,2303A,115.8551,32.8606,阜阳市,开发区,颗粒物(PM10),145,240,185,81,94,30,,30,30,22,30,4,5,0.6,0.8
2026-01-17T1300,2875A,115.783962,32.889217,阜阳市,阜阳职业技术学院,颗粒物(PM10),141,232,173,75,94,33,,34,34,18,22,6,7,0.7,0.8
2026-01-17T1300,3468A,115.79,32.8614,阜阳市,市规划展馆,颗粒物(PM10),150,250,178,86,106,34,,36,36,20,26,5,7,0.8,0.9
2026-01-17T1300,3469A,115.835101,32.918568,阜阳市,枣园社区,颗粒物(PM10),143,236,179,88,106,30,,28,28,23,29,4,5,0.7,0.9
2026-01-17T1300,2669A,102.9097,34.9841,甘南藏族自治州,州政府,,39,28,51,27,31,70,,23,23,17,32,11,12,0.7,1.1
2026-01-17T1300,3380A,102.8915,34.9618,甘南藏族自治州,甘肃民族师范学院,,32,32,57,15,15,69,,28,28,18,36,12,11,0.3,0.3
2026-01-17T1300,2570A,101.96,30.048,甘孜藏族自治州,水桥子,,20,20,25,3,10,54,,39,37,24,24,7,6,0.4,0.4
2026-01-17T1300,3065A,101.9534,29.9976,甘孜藏族自治州,州环保局,,25,18,22,3,8,80,,66,66,9,9,6,6,0.5,0.5
2026-01-17T1300,2363A,114.9368,25.8663,赣州市,地委,细颗粒物(PM2.5),77,70,70,56,47,123,,41,41,16,45,16,10,1.1,1.1
2026-01-17T1300,2364A,114.946,25.8483,赣州市,气象台,细颗粒物(PM2.5),65,69,88,47,45,128,,42,42,20,77,10,6,0.4,0.6
2026-01-17T1300,2365A,114.932,25.8332,赣州市,市图书馆,细颗粒物(PM2.5),85,93,96,63,52,91,,36,36,26,67,11,7,1.0,1.2
2026-01-17T1300,2366A,114.8905,25.8472,赣州市,华坚鞋城,细颗粒物(PM2.5),84,83,93,62,51,93,,51,51,22,62,14,12,0.6,0.8
2026-01-17T1300,3109A,115.0094,25.8614,赣州市,赣县区卫计委,颗粒物(PM10),72,94,74,35,52,98,,35,35,25,39,7,7,0.8,0.9
2026-01-17T1300,2684A,106.2753,36.0057,固原市,监测站,,34,34,79,20,26,90,,89,89,5,12,3,5,0.4,0.5
2026-01-17T1300,2685A,106.2384,36.0189,固原市,新区,颗粒物(PM10),51,51,82,20,23,95,,94,94,4,11,2,3,0.3,0.3
2026-01-17T1300,2544A,106.6307,30.4577,广安市,市委,细颗粒物(PM2.5),200,159,173,150,163,57,,20,20,19,33,10,9,1.2,1.3
2026-01-17T1300,2545A,106.6266,30.4662,广安市,友谊中学,细颗粒物(PM2.5),168,160,162,127,145,48,,18,18,19,30,7,7,1.6,1.6
2026-01-17T1300,2547A,106.6386,30.4551,广安市,广电花园,细颗粒物(PM2.5),196,,145,147,151,42,,12,12,16,27,9,9,1.0,1.1
2026-01-17T1300,2902A,106.6347,30.4868,广安市,北辰小学,细颗粒物(PM2.5),189,171,159,142,146,37,,16,16,21,24,7,6,1.5,1.3
2026-01-17T1300,2524A,105.8211,32.4444,广元市,老城,细颗粒物(PM2.5),117,107,81,88,49,24,,10,10,52,54,37,9,1.6,1
2026-01-17T1300,2526A,105.8629,32.429,广元市,监测站,细颗粒物(PM2.5),92,81,82,68,53,31,,12,12,31,41,12,10,1.2,1.1
2026-01-17T1300,3617A,105.8047,32.4167,广元市,经开区,细颗粒物(PM2.5),138,144,94,105,59,23,,6,6,45,49,99,21,2.4,1.4
2026-01-17T1300,1345A,113.2346,23.1423,广州市,广雅中学,细颗粒物(PM2.5),115,139,150,87,85,85,,33,33,93,120,8,5,0.8,0.9
2026-01-17T1300,1346A,113.2611,23.105,广州市,市五中,颗粒物(PM10),74,97,111,53,68,113,,47,47,80,114,12,10,/,/
2026-01-17T1300,1348A,113.3477,23.0916,广州市,广东商学院,细颗粒物(PM2.5),97,107,98,72,69,49,,15,15,111,109,8,8,0.8,0.8
2026-01-17T1300,1349A,113.4332,23.105,广州市,市八十六中,细颗粒物(PM2.5),82,88,86,60,58,105,,26,26,80,120,12,10,/,/
2026-01-17T1300,1350A,113.3506,22.9488,广州市,番禺中学,颗粒物(PM10),78,106,96,55,54,130,,48,48,67,74,8,6,1.0,1
2026-01-17T1300,1351A,113.2147,23.3918,广州市,花都师范,细颗粒物(PM2.5),89,120,129,66,77,101,,32,32,88,111,12,8,0.9,1
2026-01-17T1300,1352A,113.2599,23.1329,广州市,市监测站,细颗粒物(PM2.5),92,125,146,68,78,102,,33,33,87,126,6,4,/,/
2026-01-17T1300,1353A,113.5618,23.3119,广州市,九龙镇镇龙,细颗粒物(PM2.5),94,117,122,70,70,96,,33,33,63,81,8,6,0.7,0.7
2026-01-17T1300,1354A,113.2764,23.1544,广州市,麓湖,细颗粒物(PM2.5),90,115,102,67,65,60,,22,22,117,125,11,10,0.6,0.7
2026-01-17T1300,2846A,113.3209,23.1323,广州市,体育西,细颗粒物(PM2.5),92,120,122,68,70,59,,20,20,99,116,8,7,1.0,1.1
2026-01-17T1300,3298A,113.5718,23.5493,广州市,从化街口,细颗粒物(PM2.5),107,127,119,80,77,122,,42,42,52,70,12,12,0.9,1
2026-01-17T1300,3299A,113.3463,23.369,广州市,白云竹料,细颗粒物(PM2.5),103,136,143,77,84,86,,33,33,88,94,8,5,0.9,1
2026-01-17T1300,3300A,113.2981,23.2365,广州市,白云嘉禾,细颗粒物(PM2.5),103,133,125,77,70,92,,27,27,105,121,9,7,/,/
2026-01-17T1300,3301A,113.4256,23.1716,广州市,黄埔科学城,细颗粒物(PM2.5),82,93,99,60,61,107,,32,32,67,85,8,5,0.8,0.9
2026-01-17T1300,3302A,113.3942,23.0485,广州市,番禺大学城,颗粒物(PM10),70,89,107,42,49,128,,31,31,57,76,12,11,0.6,0.7
2026-01-17T1300,3303A,113.4923,22.8169,广州市,南沙黄阁,臭氧1小时(O3_1h),101,107,73,66,41,201,,68,68,78,78,12,8,/,/
2026-01-17T1300,3304A,113.534,22.7893,广州市,南沙街,臭氧1小时(O3_1h),103,83,76,58,39,206,,68,68,45,59,10,5,0.7,0.6
2026-01-17T1300,3443A,113.2905,23.5541,广州市,花都梯面,细颗粒物(PM2.5),90,119,93,67,56,132,,42,42,44,68,11,7,/,/
2026-01-17T1300,3445A,113.786,23.7479,广州市,从化良口,细颗粒物(PM2.5),67,56,59,48,48,80,,55,55,25,27,8,8,/,/
2026-01-17T1300,3446A,113.805,23.2614,广州市,增城荔城,臭氧1小时(O3_1h),94,84,77,57,53,195,,90,90,30,38,9,7,0.6,0.7
2026-01-17T1300,2506A,109.604387,23.066791,贵港市,江南子站,细颗粒物(PM2.5),107,139,149,80,90,73,,28,28,30,36,19,11,1.6,1.2
2026-01-17T1300,2508A,109.5669,23.1065,贵港市,荷城子站,细颗粒物(PM2.5),175,168,128,132,95,47,,35,21,60,39,12,12,1.4,1.2
2026-01-17T1300,3405A,109.5886,23.1172,贵港市,新世纪学校,细颗粒物(PM2.5),165,168,135,125,97,50,,35,32,55,31,/,/,1.0,0.8
2026-01-17T1300,4260A,109.5933,23.095,贵港市,中山路155-3号,细颗粒物(PM2.5),147,156,134,112,95,51,,34,27,53,37,/,/,1.2,0.9
2026-01-17T1300,1439A,106.6863,26.6035,贵阳市,马鞍山,细颗粒物(PM2.5),134,110,125,102,110,70,,19,19,35,27,18,8,/,/
2026-01-17T1300,1441A,106.6241,26.6266,贵阳市,鉴湖路,细颗粒物(PM2.5),73,78,132,53,102,82,,29,29,20,34,15,10,0.6,0.9
2026-01-17T1300,1442A,106.7468,26.6344,贵阳市,燕子冲,细颗粒物(PM2.5),195,156,122,146,110,31,,11,10,46,29,26,11,1.4,1
2026-01-17T1300,1443A,106.6556,26.4362,贵阳市,碧云窝,细颗粒物(PM2.5),149,141,134,114,102,57,,21,21,39,28,17,16,/,/
2026-01-17T1300,1445A,106.6963,26.6063,贵阳市,红边门,细颗粒物(PM2.5),153,146,130,117,109,54,,16,16,53,34,22,21,/,/
2026-01-17T1300,1446A,106.7162383,26.56964667,贵阳市,新华路,细颗粒物(PM2.5),170,173,140,129,109,56,,20,20,52,38,33,15,1.1,1
2026-01-17T1300,1447A,106.6742,26.542,贵阳市,太慈桥,细颗粒物(PM2.5),160,153,120,122,96,49,,28,28,55,37,16,6,/,/
2026-01-17T1300,4230A,106.688212,26.56952,贵阳市,花果园大街66号,细颗粒物(PM2.5),202,,133,152,133,48,,14,14,49,39,19,13,/,/
2026-01-17T1300,4231A,106.687268,26.516892,贵阳市,漓江路57号,细颗粒物(PM2.5),192,168,134,144,111,52,,14,14,47,39,55,22,1.1,1
2026-01-17T1300,1864A,110.3091,25.2705,桂林市,龙隐路小学,细颗粒物(PM2.5),89,80,100,66,81,67,,20,20,14,29,7,14,0.6,0.8
2026-01-17T1300,1865A,110.2849361,25.22909545,桂林市,八中,细颗粒物(PM2.5),94,91,112,70,89,55,,18,18,18,37,8,12,0.8,1
2026-01-17T1300,3531A,110.296,25.1254,桂林市,旅游学院,细颗粒物(PM2.5),104,88,90,78,76,53,,15,15,20,31,5,6,0.5,0.6
2026-01-17T1300,4222A,110.1835,25.2444,桂林市,环湖路276号,细颗粒物(PM2.5),140,136,125,107,104,37,,9,9,31,37,25,19,0.9,1
2026-01-17T1300,4301A,110.2803,25.2773,桂林市,信义路13号,细颗粒物(PM2.5),94,107,105,70,79,74,,18,18,16,39,6,14,1.3,1.5
2026-01-17T1300,2674A,100.2262,34.4854,果洛藏族自治州,玛沁县大武镇,,28,28,39,7,9,83,,44,44,5,8,16,17,0.4,0.4
2026-01-17T1300,1130A,126.5557,45.8109,哈尔滨市,松北商大,,45,45,48,22,37,57,,36,36,12,27,6,7,0.5,0.6
2026-01-17T1300,1132A,126.6162,45.719,哈尔滨市,南岗学府路,,,,59,,43,57,,36,36,11,26,9,10,,0.9
2026-01-17T1300,1133A,126.6894,45.7733,哈尔滨市,太平宏伟公园,,32,32,45,17,34,66,,53,53,6,22,9,16,0.5,0.7
2026-01-17T1300,1134A,126.6361,45.7672,哈尔滨市,道外承德广场,颗粒物(PM10),58,66,64,16,35,62,,50,50,11,31,9,12,0.1,0.5
2026-01-17T1300,1136A,126.644,45.7261,哈尔滨市,动力和平路,,32,32,54,14,39,58,,37,37,13,29,15,18,0.4,0.6
2026-01-17T1300,1137A,126.5933,45.7479,哈尔滨市,道里建国路,,50,50,49,20,44,54,,44,44,12,31,12,16,0.0,0.3
2026-01-17T1300,1138A,126.6127,45.6119,哈尔滨市,平房东轻厂,,25,18,57,17,48,56,,31,31,11,40,1,5,0.6,0.9
2026-01-17T1300,1139A,126.5875,45.9827,哈尔滨市,呼兰师专,,50,50,60,29,58,58,,36,36,11,26,10,11,0.5,0.7
2026-01-17T1300,1140A,126.6299,45.6799,哈尔滨市,省农科院,,,32,69,22,57,54,,28,28,,40,12,14,0.4,0.8
2026-01-17T1300,4282A,126.6769,45.7379,哈尔滨市,华山路1号,,41,41,49,13,37,59,,42,42,16,32,17,22,0.5,0.7
2026-01-17T1300,4283A,126.9717,45.5356,哈尔滨市,解放大街52号,,40,34,118,28,112,57,,35,35,16,35,23,16,0.9,1.3
2026-01-17T1300,2688A,93.5124,42.8176,哈密市,地区监测站,颗粒物(PM10),66,82,86,26,37,51,,48,48,12,20,2,2,0.0,0.2
2026-01-17T1300,2689A,93.5014,42.8312,哈密市,哈密师范学校,颗粒物(PM10),68,86,86,19,27,50,,50,49,18,26,1,2,0.2,0.5
2026-01-17T1300,2671A,100.9016,36.9464,海北藏族自治州,海晏县西海镇,,23,22,19,7,11,71,,59,59,5,3,6,7,0.4,0.4
2026-01-17T1300,3867A,102.074,36.5056,海东市,平安区公安局北苑,,36,30,47,25,20,50,,22,22,29,28,36,17,1.4,1.1
2026-01-17T1300,4163A,102.0984,36.5119,海东市,滨河路,细颗粒物(PM2.5),54,42,53,38,23,62,,25,25,26,40,31,14,1.2,1
2026-01-17T1300,1410A,110.3189,20.0596,海口市,海南大学,,43,27,38,20,25,135,,121,121,10,9,6,6,0.3,0.3
2026-01-17T1300,1411A,110.2827,20.0051,海口市,秀英海南医院,,40,33,36,19,22,127,,116,116,17,12,8,7,0.4,0.3
2026-01-17T1300,1412A,110.3391,19.9979,海口市,海南师范大学,,44,32,34,15,24,139,,120,120,12,13,7,6,0.6,0.7
2026-01-17T1300,1413A,110.3303,20.0359,海口市,龙华路环保局宿舍,,42,34,36,18,25,134,,119,119,11,10,/,/,0.7,0.7
2026-01-17T1300,3539A,110.5111,19.9737,海口市,桂林洋子站,,40,20,39,15,26,127,,96,96,7,11,/,/,/,/
2026-01-17T1300,4134A,110.1952,20.0451,海口市,长滨二路9号,,,,29,23,25,127,,105,105,9,11,/,/,/,/
2026-01-17T1300,2673A,100.6158,36.2985,海南藏族自治州,共和县恰卜恰镇,细颗粒物(PM2.5),54,44,36,38,12,67,,44,37,17,20,15,12,0.7,0.6
2026-01-17T1300,2676A,97.373,37.376,海西蒙古族藏族自治州,德令哈市,,27,27,30,3,11,81,,85,82,5,5,12,11,0.7,0.6
2026-01-17T1300,1049A,114.492,36.5712,邯郸市,矿院,细颗粒物(PM2.5),73,,76,53,63,49,,53,52,17,22,1,2,0.4,0.6
2026-01-17T1300,1050A,114.4839,36.6136,邯郸市,丛台公园,细颗粒物(PM2.5),70,59,89,51,62,51,,52,52,16,24,2,4,0.5,0.6
2026-01-17T1300,3458A,114.7893,36.5592,邯郸市,香泉濮院小区,细颗粒物(PM2.5),67,48,90,48,61,47,,41,41,14,23,1,3,0.4,0.6
2026-01-17T1300,3580A,114.1998,36.4439,邯郸市,峰峰矿区临水派出所,细颗粒物(PM2.5),79,,71,58,70,57,,55,54,12,16,7,19,0.6,0.8
2026-01-17T1300,4068A,114.5209,36.7697,邯郸市,建安街268号,细颗粒物(PM2.5),59,47,93,42,71,50,,36,36,5,35,2,3,0.3,0.5
2026-01-17T1300,4069A,114.5488,36.6177,邯郸市,丛台东路558号,细颗粒物(PM2.5),59,53,83,42,66,53,,42,42,7,32,3,2,0.4,0.6
2026-01-17T1300,2635A,107.0155,33.0707,汉中市,市监测站,细颗粒物(PM2.5),123,131,130,93,105,28,,11,11,49,46,10,7,1.5,1.4
2026-01-17T1300,2636A,107.0083,33.114,汉中市,鑫源开发区,细颗粒物(PM2.5),108,106,112,81,89,39,,19,19,40,48,13,9,1.2,1.1
2026-01-17T1300,2637A,107.0072,33.0323,汉中市,南郑大河坎水厂,细颗粒物(PM2.5),124,141,133,94,95,27,,14,11,44,36,6,5,1.5,1.2
2026-01-17T1300,1223A,120.2073,30.2111,杭州市,滨江,细颗粒物(PM2.5),114,108,165,86,119,70,,43,43,39,84,6,8,0.7,0.8
2026-01-17T1300,1224A,120.0625,30.2737,杭州市,西溪,细颗粒物(PM2.5),94,118,117,70,67,59,,42,42,48,53,8,8,1.0,1
2026-01-17T1300,1226A,120.3417,30.315,杭州市,下沙,细颗粒物(PM2.5),119,118,188,90,129,97,,56,56,29,82,7,9,0.8,1
2026-01-17T1300,1227A,120.1252,30.2465,杭州市,卧龙桥,细颗粒物(PM2.5),110,108,115,83,80,69,,42,42,38,61,8,9,0.6,0.6
2026-01-17T1300,1228A,120.1902,30.2691,杭州市,浙江农大,细颗粒物(PM2.5),97,97,164,72,113,71,,45,45,46,98,5,6,0.8,1
2026-01-17T1300,1230A,120.1195,30.3121,杭州市,和睦小学,细颗粒物(PM2.5),98,128,173,73,97,60,,47,47,44,72,4,6,1.0,1.1
2026-01-17T1300,1231A,120.3076,30.4146,杭州市,临平镇,细颗粒物(PM2.5),110,111,165,83,121,100,,74,74,20,55,7,9,0.8,0.8
2026-01-17T1300,1232A,120.2753,30.1839,杭州市,城厢镇,细颗粒物(PM2.5),133,131,175,101,125,65,,41,41,47,98,7,11,0.8,0.9
2026-01-17T1300,1233A,120.0883,30.1808,杭州市,云栖,细颗粒物(PM2.5),123,116,120,93,83,87,,39,39,25,54,4,4,0.9,0.8
2026-01-17T1300,3557A,119.9463,30.0496,杭州市,镇二中,细颗粒物(PM2.5),104,91,107,78,86,87,,25,25,24,69,5,6,0.9,1.1
2026-01-17T1300,3558A,119.7184,30.2367,杭州市,市府大楼,细颗粒物(PM2.5),84,114,144,62,86,63,,31,31,23,46,10,11,1.1,1.1
2026-01-17T1300,3656A,120.1554,30.2863,杭州市,消防大队,细颗粒物(PM2.5),124,126,169,94,124,59,,43,43,43,81,6,8,1.0,1.1
2026-01-17T1300,1270A,117.1957,31.7845,合肥市,明珠广场,细颗粒物(PM2.5),163,222,165,124,111,52,,58,56,35,37,6,7,1.1,1
2026-01-17T1300,1271A,117.307,31.8765,合肥市,三里街,细颗粒物(PM2.5),153,210,160,117,109,56,,59,58,31,38,4,6,1.0,1
2026-01-17T1300,1272A,117.2587,31.8703,合肥市,琥珀山庄,细颗粒物(PM2.5),160,212,162,122,103,60,,64,64,31,36,6,8,0.9,1
2026-01-17T1300,1275A,117.2593,31.9376,合肥市,庐阳区,细颗粒物(PM2.5),140,222,167,107,103,61,,62,62,36,38,4,6,1.0,1
2026-01-17T1300,1276A,117.345251,31.861615,合肥市,瑶海区,细颗粒物(PM2.5),144,217,163,110,107,58,,60,59,35,42,4,6,1.0,0.9
2026-01-17T1300,1277A,117.3033,31.7967,合肥市,包河区,细颗粒物(PM2.5),163,215,162,124,114,44,,51,45,52,58,8,10,1.2,1.1
2026-01-17T1300,1278A,117.278,31.7392,合肥市,滨湖新区,细颗粒物(PM2.5),170,222,169,129,122,61,,62,61,30,46,4,6,1.0,0.9
2026-01-17T1300,1279A,117.1324,31.8395,合肥市,高新区,细颗粒物(PM2.5),160,210,156,122,107,66,,61,61,29,33,4,6,1.0,0.9
2026-01-17T1300,3464A,117.3802,31.9148,合肥市,高教基地,细颗粒物(PM2.5),148,205,160,113,119,62,,64,64,24,30,8,10,0.9,0.9
2026-01-17T1300,4098A,117.2518,31.8404,合肥市,中国科学技术大学,细颗粒物(PM2.5),153,217,157,117,106,64,,66,66,29,37,7,9,1.1,1
2026-01-17T1300,3614A,79.9241,37.0878,和田地区,地区环保局,颗粒物(PM10),240,378,536,77,78,54,,42,36,25,22,9,6,0.6,0.6
2026-01-17T1300,3615A,79.9132,37.1137,和田地区,市环保局,颗粒物(PM10),405,505,493,97,68,11,,23,16,25,21,7,3,1.1,0.7
2026-01-17T1300,2517A,108.0496,24.6957,河池市,市环保站,细颗粒物(PM2.5),94,94,110,70,82,62,,16,16,14,34,5,4,0.8,1.1
2026-01-17T1300,4302A,108.0901,24.6945,河池市,上任中路54号,细颗粒物(PM2.5),103,98,109,77,81,52,,10,10,17,40,6,5,1.0,1.1
2026-01-17T1300,1697A,114.6962,23.7538,河源市,东埔,"颗粒物(PM10),细颗粒物(PM2.5)",57,63,66,40,45,118,,55,55,31,47,8,6,1.1,1.2
2026-01-17T1300,1698A,114.6895,23.7232,河源市,老城,颗粒物(PM10),62,74,59,40,37,132,,64,64,23,31,8,7,0.7,0.7
2026-01-17T1300,3374A,115.5562,35.089,菏泽市,定陶老年大学,"颗粒物(PM10),细颗粒物(PM2.5)",64,78,110,46,62,38,,25,23,21,22,4,2,0.4,0.5
2026-01-17T1300,4114A,115.4239,35.2593,菏泽市,黄河路600号,细颗粒物(PM2.5),70,79,116,51,66,37,,27,26,29,26,4,4,0.5,0.6
2026-01-17T1300,4115A,115.5025,35.2727,菏泽市,菏泽市人社局,细颗粒物(PM2.5),70,84,111,51,62,26,,22,18,23,16,5,4,0.4,0.4
2026-01-17T1300,4184A,115.479691,35.244011,菏泽市,永昌路1号,细颗粒物(PM2.5),79,90,115,58,68,32,,29,24,29,21,6,5,0.2,0.3
2026-01-17T1300,4193A,115.471542,35.280012,菏泽市,长城路999号,细颗粒物(PM2.5),69,86,115,50,64,31,,24,21,32,24,13,12,0.7,0.8
2026-01-17T1300,2514A,111.5264,24.4178,贺州市,环保小区,细颗粒物(PM2.5),99,98,116,74,85,94,,30,30,20,40,9,10,0.7,1
2026-01-17T1300,2515A,111.561,24.4074,贺州市,政协大楼,细颗粒物(PM2.5),92,89,119,68,78,98,,23,23,20,46,12,15,0.8,1.1
2026-01-17T1300,3534A,111.4744,24.455,贺州市,西湾,细颗粒物(PM2.5),95,102,105,71,76,81,,21,21,20,42,10,9,0.7,1.1
2026-01-17T1300,2385A,114.17,35.9019,鹤壁市,市监测站,细颗粒物(PM2.5),67,55,110,48,79,47,,35,35,16,27,3,4,0.7,1
2026-01-17T1300,2386A,114.2953,35.7512,鹤壁市,市交警支队,细颗粒物(PM2.5),77,72,113,56,68,43,,37,37,17,24,3,6,0.5,0.7
2026-01-17T1300,2387A,114.2877,35.7302,鹤壁市,迎宾馆,细颗粒物(PM2.5),62,66,110,44,64,48,,42,42,18,25,4,5,0.7,0.9
2026-01-17T1300,3474A,114.2616,35.6824,鹤壁市,大新区,颗粒物(PM10),57,64,105,39,55,50,,46,46,19,26,5,6,0.7,0.9
2026-01-17T1300,3596A,114.1573,35.9607,鹤壁市,南山宾馆,细颗粒物(PM2.5),62,69,126,44,76,55,,42,42,10,24,4,6,0.6,1
2026-01-17T1300,2244A,130.2537,47.3416,鹤岗市,哈啤分公司,,28,19,26,19,24,71,,68,64,5,7,6,7,0.4,0.4
2026-01-17T1300,2245A,130.2683,47.3087,鹤岗市,斯达机电,,32,22,26,22,24,66,,61,60,6,8,6,5,0.5,0.5
2026-01-17T1300,2246A,130.3114,47.3388,鹤岗市,东山纸板厂,,22,20,25,14,22,68,,57,56,6,9,7,7,0.6,0.6
2026-01-17T1300,2263A,127.4832,50.2524,黑河市,交通局,,23,,15,16,13,63,,58,58,3,10,4,5,0.1,0.2
2026-01-17T1300,2264A,127.5146,50.2339,黑河市,环保局,,25,,16,17,17,60,,58,58,7,13,4,6,0.3,0.4
2026-01-17T1300,1074A,115.6839,37.754,衡水市,电机北厂,,38,38,67,3,38,63,,34,34,8,25,6,7,0.3,0.5
2026-01-17T1300,1075A,115.6303,37.7318,衡水市,市监测站,,42,42,67,9,33,64,,48,48,12,21,6,6,0.3,0.5
2026-01-17T1300,3188A,115.6684,37.7216,衡水市,市城管局,,36,36,68,10,37,65,,47,47,9,22,7,7,0.3,0.5
2026-01-17T1300,3459A,115.599,37.5491,衡水市,地表水厂,,33,33,60,17,36,66,,41,41,4,25,5,4,0.3,0.4
2026-01-17T1300,2457A,112.6209,26.9268,衡阳市,衡阳化工总厂,细颗粒物(PM2.5),148,124,101,113,92,74,,41,41,15,29,13,17,1.2,1.1
2026-01-17T1300,2458A,112.621,26.8957,衡阳市,珠晖区环保局,细颗粒物(PM2.5),133,124,107,101,96,72,,42,42,22,38,10,15,1.4,1.3
2026-01-17T1300,2459A,112.628,26.8654,衡阳市,市委党校,细颗粒物(PM2.5),117,101,97,88,80,79,,54,54,17,27,10,17,1.3,1.3
2026-01-17T1300,2460A,112.6007,26.8977,衡阳市,市监测站,细颗粒物(PM2.5),112,118,117,84,79,77,,41,41,22,34,11,14,1.5,1.3
2026-01-17T1300,2461A,112.5658,26.9013,衡阳市,真空机电公司,细颗粒物(PM2.5),139,110,108,106,95,62,,33,33,27,41,9,15,1.5,1.5
2026-01-17T1300,3399A,112.6703,26.8817,衡阳市,师范学院,细颗粒物(PM2.5),122,105,103,92,75,79,,61,51,20,25,5,15,1.2,1.2
2026-01-17T1300,3038A,103.3757,23.3679,红河哈尼族彝族自治州,州图书馆,,50,45,38,35,27,84,,49,49,10,11,11,8,0.6,0.6
2026-01-17T1300,4154A,103.401,23.3561,红河哈尼族彝族自治州,蒙自市朝阳路,,45,,29,31,24,81,,49,49,12,10,10,7,0.6,0.5
2026-01-17T1300,1090A,111.6506,40.7517,呼和浩特市,呼市一监,颗粒物(PM10),62,73,36,40,20,64,,42,42,15,26,12,9,0.6,0.6
2026-01-17T1300,1094A,111.7516,40.8369,呼和浩特市,如意水处理厂,颗粒物(PM10),58,66,34,37,17,56,,30,30,16,33,14,9,0.5,0.6
2026-01-17T1300,1095A,111.727798,40.806187,呼和浩特市,二十九中,,49,49,33,34,17,53,,39,39,14,24,17,12,0.6,0.7
2026-01-17T1300,1097A,111.717,40.7617,呼和浩特市,化肥厂生活区,颗粒物(PM10),68,85,37,43,18,60,,47,47,16,26,10,7,0.6,0.5
2026-01-17T1300,3699A,111.6519,40.8389,呼和浩特市,海东办,颗粒物(PM10),56,61,44,34,24,43,,18,18,26,38,12,8,0.6,0.6
2026-01-17T1300,4275A,111.591512,40.827312,呼和浩特市,成吉思汗西街8号,颗粒物(PM10),60,70,47,30,22,33,,20,20,34,39,12,11,0.7,0.5
2026-01-17T1300,4276A,111.6597,40.8077,呼和浩特市,公园东路75号,颗粒物(PM10),59,68,40,34,20,51,,31,31,23,35,11,8,0.6,0.6
2026-01-17T1300,4277A,111.5427,40.7846,呼和浩特市,金海路35号,颗粒物(PM10),55,59,46,34,26,38,,21,21,34,42,17,15,1.1,0.7
2026-01-17T1300,3061A,119.7511,49.1576,呼伦贝尔市,国华电力东,,20,14,23,8,19,62,,60,59,13,15,7,5,0.3,0.3
2026-01-17T1300,4279A,119.7569,49.2222,呼伦贝尔市,伊敏大街东7号,,28,23,26,19,22,59,,56,55,6,8,7,8,0.2,0.1
2026-01-17T1300,1250A,120.075,30.867,湖州市,城西水厂,细颗粒物(PM2.5),134,111,137,102,110,98,,97,97,29,69,5,7,0.7,0.9
2026-01-17T1300,2873A,120.083,30.8929,湖州市,仁皇山新区,细颗粒物(PM2.5),120,110,126,91,99,104,,105,105,35,54,5,7,1.0,1
2026-01-17T1300,2907A,120.1846,30.8592,湖州市,吴兴区站,细颗粒物(PM2.5),109,118,146,82,103,85,,99,99,45,54,5,8,0.2,0.2
2026-01-17T1300,3562A,120.4146,30.8538,湖州市,南浔区站,细颗粒物(PM2.5),127,126,134,96,99,80,,86,86,31,47,6,8,1.1,1.1
2026-01-17T1300,1607A,120.904878,40.721091,葫芦岛市,龙港区,,48,48,34,20,14,56,,49,46,21,18,56,22,0.5,0.5
2026-01-17T1300,1608A,120.8382,40.7521,葫芦岛市,化工街,,31,31,30,17,12,59,,50,50,13,15,21,16,0.4,0.5
2026-01-17T1300,1609A,120.8339,40.7078,葫芦岛市,新区,,49,49,28,20,12,58,,50,50,18,16,25,17,0.5,0.5
2026-01-17T1300,1610A,120.8697,40.7679,葫芦岛市,东城区,,34,34,29,18,14,62,,47,47,16,20,22,22,0.5,0.6
2026-01-17T1300,2483A,109.9297,27.5383,怀化市,河西地税局,细颗粒物(PM2.5),110,110,120,83,98,94,,50,50,21,36,6,6,/,/
2026-01-17T1300,2484A,109.9783,27.5342,怀化市,市四医院,,,121,135,,104,93,,51,51,17,31,8,8,0.8,1
2026-01-17T1300,2485A,109.9971,27.5579,怀化市,监测楼,细颗粒物(PM2.5),112,108,126,84,110,100,,53,53,26,39,7,8,0.3,0.7
2026-01-17T1300,1210A,119.0566,33.5991,淮安市,钵池山,细颗粒物(PM2.5),58,58,128,41,104,64,,56,56,11,25,6,8,0.3,0.7
2026-01-17T1300,1211A,119.0083,33.578,淮安市,北京南路,颗粒物(PM10),57,63,132,32,98,60,,54,54,10,25,6,8,0.5,0.9
2026-01-17T1300,1212A,118.9938,33.6083,淮安市,市监测站,颗粒物(PM10),51,51,124,22,78,59,,53,53,14,28,9,11,0.6,1
2026-01-17T1300,1213A,119.135,33.5038,淮安市,楚州区监测站,,46,46,128,20,85,62,,56,56,7,19,8,9,0.6,0.9
2026-01-17T1300,3426A,118.8757,33.2897,淮安市,新华书店,颗粒物(PM10),60,70,146,27,100,53,,51,50,9,26,8,9,0.4,0.8
2026-01-17T1300,4092A,119.119691,33.550006,淮安市,枚皋中路89号,颗粒物(PM10),53,55,142,18,92,68,,62,62,10,21,9,10,0.9,1.4
2026-01-17T1300,4206A,119.028838,33.631911,淮安市,承德北路606号,细颗粒物(PM2.5),58,63,145,41,104,65,,58,58,11,27,8,9,0.4,0.8
2026-01-17T1300,2282A,116.8005,33.9749,淮北市,监测站,颗粒物(PM10),63,75,153,36,87,46,,50,45,21,27,6,6,0.6,0.8
2026-01-17T1300,2283A,116.8094,33.9008,淮北市,烈山区政府,颗粒物(PM10),58,66,139,31,83,49,,47,47,14,23,4,5,0.4,0.6
2026-01-17T1300,4017A,116.7926,33.9534,淮北市,市博物馆,颗粒物(PM10),59,68,156,32,87,48,,,,23,30,6,5,0.8,1
2026-01-17T1300,4100A,116.8322,33.9884,淮北市,杜集区第一实验学校,颗粒物(PM10),64,77,157,37,87,46,,49,43,17,27,8,8,0.9,1
2026-01-17T1300,2277A,116.8304,32.7726,淮南市,潘集区政府,"颗粒物(PM10),细颗粒物(PM2.5)",120,190,179,91,120,44,,46,46,21,28,5,6,0.8,1
2026-01-17T1300,2279A,116.8569,32.5949,淮南市,谢家集区政府,细颗粒物(PM2.5),114,161,158,86,100,47,,50,50,26,31,7,9,0.8,0.9
2026-01-17T1300,2280A,116.8279,32.6333,淮南市,八公山区政府,颗粒物(PM10),119,187,167,88,104,48,,48,48,20,25,6,7,0.8,0.8
2026-01-17T1300,2894A,117.0561,32.6536,淮南市,经济技术开发区消防队,颗粒物(PM10),118,185,170,88,108,44,,47,47,24,35,4,6,0.9,1
2026-01-17T1300,3329A,117.011,32.5891,淮南市,山南新区,颗粒物(PM10),126,201,191,86,109,51,,55,55,25,32,2,4,0.9,1
2026-01-17T1300,4209A,117.003137,32.644456,淮南市,国庆中路369号,颗粒物(PM10),123,195,165,71,107,35,,42,41,27,30,8,10,0.9,1
2026-01-17T1300,2446A,114.9021,30.474,黄冈市,职工中心,细颗粒物(PM2.5),123,136,122,93,88,44,,31,30,31,32,7,8,1.0,1.1
2026-01-17T1300,2929A,114.8858,30.4519,黄冈市,红卫路,细颗粒物(PM2.5),137,137,117,104,91,44,,28,28,25,31,8,10,0.6,0.6
2026-01-17T1300,3398A,114.9134,30.4446,黄冈市,市林业局,细颗粒物(PM2.5),143,149,132,109,93,51,,45,40,31,38,4,5,1.0,1
2026-01-17T1300,2672A,102.02,35.5101,黄南藏族自治州,同仁县隆务镇,,37,37,34,23,13,64,,52,50,6,6,12,12,0.5,0.5
2026-01-17T1300,2295A,118.2905,29.6965,黄山市,延安路89号,细颗粒物(PM2.5),67,77,51,48,36,86,,25,25,22,22,6,4,0.7,0.7
2026-01-17T1300,2297A,118.1369,30.2755,黄山市,黄山区政府5号楼,细颗粒物(PM2.5),162,170,94,123,67,70,,34,34,20,16,3,3,1.0,0.8
2026-01-17T1300,4210A,118.335445,29.720283,黄山市,滨江东路7-2号,细颗粒物(PM2.5),85,80,70,63,50,96,,36,36,23,27,/,/,/,/
2026-01-17T1300,2423A,115.0547,30.2332,黄石市,沈家营,细颗粒物(PM2.5),155,191,162,118,102,50,,21,21,35,53,6,7,1.6,1.6
2026-01-17T1300,2426A,114.899,30.211,黄石市,铁山,细颗粒物(PM2.5),182,,139,137,122,49,,23,23,30,47,9,11,1.0,0.8
2026-01-17T1300,2427A,115.0259,30.2108,黄石市,团城山,细颗粒物(PM2.5),175,168,163,132,117,47,,24,24,35,54,7,9,1.3,1.3
2026-01-17T1300,3149A,115.0174,30.1591,黄石市,笔架山北路,细颗粒物(PM2.5),183,218,195,138,116,55,,22,22,36,43,12,13,1.7,1.5
2026-01-17T1300,4185A,115.078022,30.21118,黄石市,磁湖东路29号,细颗粒物(PM2.5),192,178,164,144,126,49,,23,23,30,58,10,11,1.6,1.6
2026-01-17T1300,1392A,114.4181,23.0528,惠州市,河南岸金山湖子站,细颗粒物(PM2.5),75,87,68,55,39,127,,64,64,33,36,7,6,0.7,0.7
2026-01-17T1300,1393A,114.4055,23.0824,惠州市,下埔横江三路子站,颗粒物(PM10),64,77,72,41,37,150,,63,63,25,40,9,9,0.8,0.8
2026-01-17T1300,1395A,114.4645,22.7832,惠州市,惠阳区承修路船湖子站,颗粒物(PM10),58,66,55,36,29,164,,72,72,33,34,10,9,0.5,0.6
2026-01-17T1300,1396A,114.5316,22.7423,惠州市,大亚湾管委会子站,,44,42,52,23,25,140,,56,56,12,39,9,7,0.5,0.6
2026-01-17T1300,3314A,114.4334,22.8134,惠州市,惠阳秋长,臭氧1小时(O3_1h),82,63,53,32,28,185,,84,84,27,34,/,/,/,/
2026-01-17T1300,3452A,114.6521,22.7755,惠州市,大亚湾霞涌,颗粒物(PM10),63,75,46,33,25,155,,101,101,22,28,/,/,/,/
2026-01-17T1300,4300A,114.4089,23.1147,惠州市,文华一路1号,颗粒物(PM10),72,93,66,50,37,156,,68,68,34,47,/,/,/,/
2026-01-17T1300,2240A,130.9618,45.2926,鸡西市,环保局,,42,38,26,29,21,65,,55,55,6,8,6,6,0.3,0.3
2026-01-17T1300,2243A,130.9294,45.2959,鸡西市,第一中学,,31,31,26,12,19,64,,55,55,5,8,4,4,0.5,0.5
2026-01-17T1300,3707A,131.0069,45.2988,鸡西市,欧美日汽修厂,,32,29,28,22,21,70,,59,59,6,9,7,8,0.3,0.3
2026-01-17T1300,2367A,114.9753,27.0803,吉安市,红声器材厂,细颗粒物(PM2.5),70,76,78,51,52,99,,74,73,21,24,14,14,0.9,0.9
2026-01-17T1300,2369A,114.9903,27.1313,吉安市,市环境监测站,细颗粒物(PM2.5),74,69,74,54,52,108,,80,78,21,24,15,17,/,/
2026-01-17T1300,2370A,115.009527,27.096792,吉安市,青原区法院,细颗粒物(PM2.5),70,75,80,51,57,93,,67,67,22,23,15,16,0.8,0.9
2026-01-17T1300,1772A,126.54,43.8622,吉林市,哈达湾,,35,35,60,23,50,67,,57,57,6,24,7,9,0.6,0.8
2026-01-17T1300,1773A,126.5843,43.8358,吉林市,东局子,,30,30,55,12,44,59,,48,48,10,28,4,5,0.8,1.1
2026-01-17T1300,1774A,126.5051,43.8243,吉林市,电力学院,,23,20,66,16,65,64,,50,50,8,32,10,13,0.5,1.1
2026-01-17T1300,1775A,126.6133,43.8971,吉林市,江北,,26,26,72,17,57,56,,46,46,11,31,7,11,0.8,1.2
2026-01-17T1300,1776A,126.5549,43.8304,吉林市,江南公园,,30,21,52,21,50,64,,54,54,7,26,7,11,0.6,0.8
2026-01-17T1300,2868A,126.4737,43.953,吉林市,九站,,28,27,51,19,44,63,,50,50,11,32,6,7,0.6,0.8
2026-01-17T1300,1299A,116.9866,36.6118,济南市,科干所,,48,48,72,32,37,54,,56,53,14,17,4,4,0.4,0.5
2026-01-17T1300,1300A,116.9379,36.6652,济南市,农科所,,49,49,77,27,36,50,,46,46,22,28,8,6,0.6,0.6
2026-01-17T1300,1301A,117.1265,36.6736,济南市,开发区,,,,74,,44,51,,50,49,20,25,,2,0.5,0.6
2026-01-17T1300,1303A,117.0616,36.6865,济南市,省种子仓库,颗粒物(PM10),57,63,80,24,39,55,,52,52,19,21,4,3,0.6,0.6
2026-01-17T1300,1304A,116.9495185,36.644937,济南市,机床二厂,颗粒物(PM10),51,51,69,32,41,54,,51,50,19,22,4,3,0.4,0.4
2026-01-17T1300,1305A,117.0496,36.6629,济南市,市监测站,颗粒物(PM10),53,56,76,32,38,56,,53,52,17,20,4,3,0.5,0.5
2026-01-17T1300,1306A,116.7674,36.5458,济南市,长清党校,,42,42,74,27,36,58,,51,51,12,20,7,5,0.5,0.6
2026-01-17T1300,1961A,117.5323,36.6865,济南市,东山小学,颗粒物(PM10),52,54,71,22,36,61,,59,59,16,19,4,2,0.3,0.3
2026-01-17T1300,3059A,117.7181,36.205,济南市,泰兴公司,,,34,73,,49,65,,47,47,23,33,7,4,0.7,0.7
2026-01-17T1300,3064A,117.6861,36.2172,济南市,莱芜战役纪念馆,,,,72,,49,,,47,46,19,27,4,4,0.6,0.5
2026-01-17T1300,3494A,117.1673,36.9782,济南市,济阳区政府,颗粒物(PM10),55,59,60,22,27,56,,52,52,18,16,7,6,0.5,0.5
2026-01-17T1300,3495A,117.1168,36.6299,济南市,锦屏中学,,37,37,65,24,36,58,,56,56,16,19,3,2,0.6,0.7
2026-01-17T1300,4108A,117.7107,36.2385,济南市,山财大街5号,,29,29,58,16,36,64,,50,50,17,26,9,7,0.4,0.6
2026-01-17T1300,4109A,116.9744,36.6889,济南市,无影山路12号,颗粒物(PM10),54,58,73,27,38,51,,48,48,15,20,6,5,0.6,0.6
2026-01-17T1300,1653A,116.6229,35.4288,济宁市,火炬城,,49,49,102,19,63,66,,45,45,11,25,3,2,0.3,0.6
2026-01-17T1300,3500A,116.5808,35.3703,济宁市,北湖一中,,40,40,100,26,65,60,,47,47,15,24,6,5,0.5,0.7
2026-01-17T1300,3501A,116.8251,35.5592,济宁市,服务中心,,42,42,113,19,52,56,,44,44,22,28,8,9,0.6,0.8
2026-01-17T1300,3678A,116.5907,35.4054,济宁市,市第七中学,颗粒物(PM10),60,70,102,12,54,65,,51,51,14,24,6,7,0.5,0.7
2026-01-17T1300,4111A,116.6075,35.4566,济宁市,任和路,,,41,123,17,60,57,,41,41,12,26,,4,0.4,0.7
2026-01-17T1300,4112A,116.5648,35.3921,济宁市,文体南路1号,,45,45,115,14,59,62,,49,49,13,23,4,3,0.4,0.6
2026-01-17T1300,2255A,130.2749,46.8028,佳木斯市,佳纺,细颗粒物(PM2.5),57,53,46,40,36,57,,47,47,11,16,6,7,0.6,0.6
2026-01-17T1300,2257A,130.3258,46.7975,佳木斯市,环保局,细颗粒物(PM2.5),74,63,48,54,31,62,,51,51,15,18,10,9,0.6,0.5
2026-01-17T1300,4285A,130.363,46.806,佳木斯市,顺和街,细颗粒物(PM2.5),53,48,40,37,29,50,,43,43,16,17,13,12,0.5,0.4
2026-01-17T1300,4286A,130.3952,46.8268,佳木斯市,长安路196号,,46,43,42,32,28,58,,49,49,13,15,7,6,0.5,0.5
2026-01-17T1300,1252A,120.7439,30.778,嘉兴市,清河小学,细颗粒物(PM2.5),109,106,133,82,105,111,,98,98,23,49,6,8,0.8,0.9
2026-01-17T1300,1253A,120.7261,30.7477,嘉兴市,嘉兴学院,细颗粒物(PM2.5),103,124,145,77,93,115,,109,109,30,49,4,7,0.7,0.9
2026-01-17T1300,2872A,120.7845,30.7524,嘉兴市,南湖区残联,细颗粒物(PM2.5),102,82,112,76,99,125,,111,111,22,48,3,6,0.8,1
2026-01-17T1300,3407A,120.6915,30.7741,嘉兴市,秀洲住建,细颗粒物(PM2.5),114,115,133,86,101,118,,100,100,24,55,6,8,0.7,0.9
2026-01-17T1300,1945A,98.291,39.7705,嘉峪关市,气象局,,,,80,,27,82,,77,77,,19,,13,0.4,0.7
2026-01-17T1300,2884A,98.2672,39.7978,嘉峪关市,酒钢宾馆,,36,36,94,7,29,80,,73,73,7,22,14,20,1.0,1.1
2026-01-17T1300,3248A,98.2644,39.7723,嘉峪关市,雄关区,,26,24,64,9,25,83,,73,73,6,26,12,16,0.5,0.8
2026-01-17T1300,1383A,113.1063,22.6058,江门市,北街,颗粒物(PM10),67,84,78,43,53,170,,78,78,28,40,/,/,/,/
2026-01-17T1300,1384A,113.073,22.5835,江门市,西区,臭氧1小时(O3_1h),60,53,95,38,48,168,,54,54,30,56,/,/,/,/
2026-01-17T1300,1385A,113.0218,22.531,江门市,圭峰西,细颗粒物(PM2.5),88,85,69,65,50,126,,80,69,57,34,/,/,/,/
2026-01-17T1300,1386A,113.0826,22.5947,江门市,东湖,臭氧1小时(O3_1h),63,60,80,40,52,170,,66,66,33,50,12,11,0.7,0.8
2026-01-17T1300,3311A,113.1077,22.5647,江门市,江海富民,颗粒物(PM10),80,110,121,57,67,174,,69,69,44,59,/,/,0.6,0.7
2026-01-17T1300,3449A,113.0496,22.4669,江门市,新会银湖,细颗粒物(PM2.5),87,87,81,64,69,161,,60,60,31,43,11,8,0.5,0.6
2026-01-17T1300,3335A,113.3137,35.2643,焦作市,马村街道办,细颗粒物(PM2.5),62,58,124,44,69,60,,39,39,17,24,10,10,0.5,0.7
2026-01-17T1300,3336A,113.2464,35.2374,焦作市,焦作技师学院,颗粒物(PM10),56,62,126,39,65,56,,40,38,16,24,12,12,0.8,0.9
2026-01-17T1300,3477A,113.1656,35.2536,焦作市,中站许衡医院,细颗粒物(PM2.5),62,66,117,44,66,57,,37,37,22,30,10,7,0.8,0.9
2026-01-17T1300,3981A,113.2456,35.18,焦作市,原李万街道办,,,64,129,29,66,65,,39,39,,29,6,6,0.4,0.7
2026-01-17T1300,4264A,113.234,35.219,焦作市,新安路1731号,细颗粒物(PM2.5),62,66,132,44,72,59,,38,38,14,22,10,8,0.6,0.7
2026-01-17T1300,4295A,113.2722,35.2121,焦作市,人民路3066号,颗粒物(PM10),58,65,127,34,63,59,,37,37,15,29,8,6,0.7,0.8
2026-01-17T1300,1708A,116.3701,23.5345,揭阳市,新兴,颗粒物(PM10),72,93,78,46,49,139,,66,66,39,51,17,13,0.7,0.9
2026-01-17T1300,1709A,116.3261,23.5442,揭阳市,西马,颗粒物(PM10),67,83,83,38,45,138,,59,59,23,39,12,11,0.5,0.7
2026-01-17T1300,1710A,116.361,23.5627,揭阳市,东兴,颗粒物(PM10),74,98,81,50,48,126,,54,54,30,43,17,13,/,/
2026-01-17T1300,1711A,116.4151,23.5295,揭阳市,渔湖,颗粒物(PM10),73,96,75,40,43,136,,68,68,35,42,15,9,/,/
2026-01-17T1300,3320A,116.4028,23.5699,揭阳市,曲溪,,,90,84,54,46,130,,56,56,38,51,20,10,,0.8
2026-01-17T1300,1944A,102.1691,38.5166,金昌市,天庆家园,颗粒物(PM10),81,112,118,26,39,60,,45,45,9,21,6,40,0.5,0.8
2026-01-17T1300,4022A,102.1648,38.5369,金昌市,金川区人防中心,颗粒物(PM10),79,107,110,28,34,64,,50,50,10,17,5,27,0.6,0.8
2026-01-17T1300,4239A,102.193042,38.531887,金昌市,长春路96号,颗粒物(PM10),76,102,105,32,35,60,,46,46,6,17,8,30,0.6,0.8
2026-01-17T1300,1262A,119.6478,29.0773,金华市,十五中,细颗粒物(PM2.5),129,132,114,98,73,119,,48,48,32,70,5,5,0.7,0.9
2026-01-17T1300,1263A,119.6859,29.1032,金华市,监测站,细颗粒物(PM2.5),119,129,113,90,70,104,,37,37,35,69,4,4,0.6,0.7
2026-01-17T1300,3659A,119.656,29.1132,金华市,气象局,细颗粒物(PM2.5),109,130,127,82,72,104,,35,35,54,75,5,5,0.5,0.7
2026-01-17T1300,1767A,121.1114,41.0879,锦州市,南山,,22,13,25,12,15,70,,64,56,8,10,17,10,0.5,0.6
2026-01-17T1300,1768A,121.060361,40.842794,锦州市,开发区,,40,40,30,16,13,61,,49,46,12,16,29,13,0.4,0.3
2026-01-17T1300,1769A,121.1836,41.1118,锦州市,百股街道,,21,18,26,12,12,66,,50,49,10,13,12,10,0.5,0.6
2026-01-17T1300,1770A,121.1176,41.1224,锦州市,天安街道,,23,16,22,10,11,73,,71,66,10,9,18,11,0.7,0.6
2026-01-17T1300,1771A,121.1303,41.1385,锦州市,北湖公园,,21,20,22,11,11,66,,,,7,6,18,8,0.5,0.5
2026-01-17T1300,2160A,112.8496,35.5051,晋城市,自来水公司,颗粒物(PM10),83,115,126,58,53,58,,45,45,17,24,7,9,0.8,0.9
2026-01-17T1300,2162A,112.8509,35.4886,晋城市,市环保局,细颗粒物(PM2.5),67,79,132,48,63,63,,49,48,17,23,6,7,0.9,1
2026-01-17T1300,3620A,112.8258,35.4804,晋城市,泽州一中,颗粒物(PM10),74,97,129,48,66,67,,52,52,16,22,5,6,0.6,0.7
2026-01-17T1300,4078A,112.8246,35.5152,晋城市,前书院路,颗粒物(PM10),70,90,136,37,58,60,,44,43,16,23,7,8,0.6,0.8
2026-01-17T1300,4079A,112.8864,35.4773,晋城市,祥云街666号,细颗粒物(PM2.5),68,84,135,49,74,57,,45,42,10,13,5,6,0.7,0.8
2026-01-17T1300,2174A,112.6992,37.6984,晋中市,榆次区政府,颗粒物(PM10),80,110,114,51,58,64,,48,48,24,32,10,9,0.5,0.6
2026-01-17T1300,2865A,112.7195,37.683,晋中市,榆次三中,,,112,118,56,50,54,,45,45,,25,10,9,0.6,0.6
2026-01-17T1300,4080A,112.7375,37.7215,晋中市,广安街188号,颗粒物(PM10),78,106,114,56,60,68,,50,50,22,31,14,11,0.6,0.5
2026-01-17T1300,4200A,112.7478,37.6954,晋中市,迎宾街26号,颗粒物(PM10),79,107,117,56,56,62,,49,49,20,25,10,9,0.7,0.6
2026-01-17T1300,2439A,112.2012,31.048,荆门市,竹园小学,细颗粒物(PM2.5),130,172,165,99,92,72,,60,54,22,26,3,2,1.0,1
2026-01-17T1300,2440A,112.1968,30.9892,荆门市,掇刀,细颗粒物(PM2.5),128,166,161,97,90,64,,59,49,20,22,4,5,0.6,0.5
2026-01-17T1300,3012A,112.1849,31.0361,荆门市,西山林语,细颗粒物(PM2.5),122,155,155,92,83,65,,60,51,22,24,1,6,0.6,0.6
2026-01-17T1300,3547A,112.1631,31.0134,荆门市,龙泉中学南校,细颗粒物(PM2.5),128,177,176,97,94,71,,66,57,14,15,4,6,0.7,0.8
2026-01-17T1300,4124A,112.2213,31.0654,荆门市,新台西路6号,细颗粒物(PM2.5),144,164,166,110,111,68,,52,48,16,21,9,10,0.8,0.8
2026-01-17T1300,1844A,112.2493,30.3198,荆州市,市图书馆,细颗粒物(PM2.5),159,144,143,121,116,57,,53,46,19,27,9,10,1.0,1
2026-01-17T1300,1845A,112.2009,30.3543,荆州市,市委党校,细颗粒物(PM2.5),150,162,155,115,111,49,,48,42,25,32,4,5,1.0,0.9
2026-01-17T1300,3194A,112.2749,30.3124,荆州市,管委会,细颗粒物(PM2.5),156,150,138,119,115,52,,46,39,20,31,8,9,1.0,1
2026-01-17T1300,4268A,112.1722,30.3366,荆州市,学苑路85号,细颗粒物(PM2.5),140,149,153,107,108,60,,59,52,19,22,6,9,1.0,1
2026-01-17T1300,2343A,117.2114,29.2931,景德镇市,老干部活动中心,,,93,65,,46,19,,31,30,,30,12,9,1.7,0.9
2026-01-17T1300,2344A,117.1893,29.2789,景德镇市,兽医站,细颗粒物(PM2.5),58,61,75,41,44,44,,36,35,34,35,8,8,0.7,0.9
2026-01-17T1300,2346A,117.246,29.2958,景德镇市,陶研所,细颗粒物(PM2.5),64,58,65,46,52,47,,17,17,28,35,4,5,0.5,0.6
2026-01-17T1300,4289A,117.154766,29.256967,景德镇市,青少年活动中心,颗粒物(PM10),53,55,77,30,48,37,,26,26,33,47,8,12,/,/
2026-01-17T1300,1803A,115.9873,29.6816,九江市,十里,细颗粒物(PM2.5),196,206,158,147,112,74,,60,60,35,75,6,10,1.5,1.6
2026-01-17T1300,1804A,115.9583,29.7047,九江市,茅山头,细颗粒物(PM2.5),198,215,161,148,109,59,,43,43,27,71,9,15,1.3,1.5
2026-01-17T1300,1805A,115.9877,29.7295,九江市,西园,细颗粒物(PM2.5),208,196,156,158,111,66,,52,52,48,97,1,7,1.4,1.4
2026-01-17T1300,1808A,115.9112,29.6038,九江市,综合工业园,细颗粒物(PM2.5),229,212,142,179,117,66,,49,49,40,74,4,8,0.8,0.8
2026-01-17T1300,3190A,116.0254,29.6995,九江市,外国语学校,细颗粒物(PM2.5),193,196,145,145,104,52,,38,38,34,69,9,10,1.4,1.4
2026-01-17T1300,4253A,116.010205,29.659402,九江市,莲花大道8号,细颗粒物(PM2.5),241,224,133,191,105,57,,59,44,27,36,4,8,1.2,1
2026-01-17T1300,4240A,98.495752,39.733935,酒泉市,玉门东路5号,,48,48,68,20,23,80,,65,65,2,9,10,11,0.3,0.4
2026-01-17T1300,4241A,98.5099,39.7506,酒泉市,北大街108号,,44,44,64,17,22,75,,61,61,3,11,10,11,0.3,0.4
2026-01-17T1300,2698A,76.0071,39.466,喀什地区,巡警大队,细颗粒物(PM2.5),125,196,199,95,82,44,,20,14,43,43,9,8,1.6,1.7
2026-01-17T1300,2699A,75.9756,39.4693,喀什地区,吾办,细颗粒物(PM2.5),139,193,179,106,84,39,,18,14,49,45,15,12,2.0,1.8
2026-01-17T1300,4027A,75.9485,39.4688,喀什地区,老干局,颗粒物(PM10),145,239,216,3,61,40,,9,9,32,39,10,7,1.4,1.8
2026-01-17T1300,1824A,114.3389,34.778,开封市,肿瘤医院,细颗粒物(PM2.5),70,87,107,51,55,33,,46,38,25,22,4,4,0.7,0.7
2026-01-17T1300,1826A,114.2884,34.7966,开封市,世纪星幼儿园,细颗粒物(PM2.5),79,82,101,58,65,35,,49,40,24,20,6,6,0.6,0.6
2026-01-17T1300,3147A,114.3434,34.8101,开封市,龙亭公园,细颗粒物(PM2.5),78,78,101,57,61,34,,46,38,11,9,6,6,0.5,0.7
2026-01-17T1300,3210A,114.3645,34.7955,开封市,汴京公园,,,105,103,56,61,34,,44,38,22,20,,4,,0.9
2026-01-17T1300,3473A,114.2485,34.8306,开封市,技师学院,,,62,94,62,63,36,,47,39,18,18,,6,0.9,0.9
2026-01-17T1300,3592A,114.4518,34.7503,开封市,祥符区生态环境局,颗粒物(PM10),78,105,134,55,64,28,,36,29,26,27,3,5,0.7,0.7
2026-01-17T1300,1951A,84.886,45.6029,克拉玛依市,长征新村,,22,,16,15,10,63,,52,52,4,11,5,5,0.2,0.3
2026-01-17T1300,1952A,84.8894,45.5827,克拉玛依市,南林小区,,20,,16,10,9,64,,56,56,4,8,2,2,0.4,0.4
2026-01-17T1300,1954A,84.896,44.3328,克拉玛依市,独山子区,,31,31,35,17,21,47,,51,42,26,24,5,5,0.5,0.3
2026-01-17T1300,1955A,85.6888,46.0909,克拉玛依市,乌尔禾区商贸楼,,20,20,17,3,6,64,,58,58,9,16,7,6,0.4,0.4
2026-01-17T1300,3612A,85.1045,45.6895,克拉玛依市,白碱滩区新站,,27,27,25,3,10,65,,60,60,5,11,8,8,0.1,0.2
2026-01-17T1300,2697A,76.1457,39.7143,克孜勒苏柯尔克孜自治州,市人民政府,颗粒物(PM10),138,225,188,69,67,52,,51,48,33,27,7,5,0.6,0.7
2026-01-17T1300,3665A,76.1654,39.7157,克孜勒苏柯尔克孜自治州,克州文化中心,颗粒物(PM10),136,221,174,79,58,51,,44,41,28,25,10,7,0.9,0.9
2026-01-17T1300,1450A,102.8203,24.889,昆明市,呈贡新区,,42,36,50,29,28,78,,20,20,13,27,7,6,0.7,0.8
2026-01-17T1300,1452A,102.7253,25.0904,昆明市,龙泉镇,,40,30,39,28,24,74,,24,24,20,32,17,4,0.6,0.5
2026-01-17T1300,1453A,102.7267,25.0378,昆明市,东风东路,,50,50,52,21,25,78,,22,22,17,34,10,6,0.4,0.4
2026-01-17T1300,1454A,102.6744,25.0671,昆明市,金鼎山,,38,37,47,26,27,79,,27,27,13,35,21,6,0.8,0.8
2026-01-17T1300,1455A,102.6643,25.0401,昆明市,碧鸡广场,,41,41,49,22,27,81,,25,25,13,38,19,6,0.5,0.5
2026-01-17T1300,3179A,102.7491,25.012,昆明市,官渡区博物馆,颗粒物(PM10),55,59,55,18,31,80,,20,20,16,37,6,6,0.3,0.6
2026-01-17T1300,3375A,102.8016,24.8336,昆明市,青年创业园,,,,35,,21,91,,32,32,7,26,,6,0.6,0.6
2026-01-17T1300,3550A,102.8,24.9787,昆明市,昆明学院,,27,23,39,3,26,86,,23,23,11,33,4,5,0.3,0.5
2026-01-17T1300,3551A,102.5969,24.6738,昆明市,晋宁区生态环境分局,,28,,42,19,29,65,,20,20,11,26,3,3,0.5,0.6
2026-01-17T1300,3552A,102.6673,24.9861,昆明市,云天化总部,,38,38,38,24,22,84,,34,34,17,35,18,9,0.3,0.3
2026-01-17T1300,1456A,91.132,29.6515,拉萨市,八廓街,,25,19,21,12,12,78,,62,62,7,18,7,7,0.3,0.4
2026-01-17T1300,1457A,91.1221,29.6748,拉萨市,市环保局,,23,19,33,12,25,72,,49,49,15,28,6,9,0.6,1
2026-01-17T1300,1458A,91.0874,29.6476,拉萨市,区监测站,,21,16,15,7,10,66,,51,51,13,30,4,4,0.8,0.9
2026-01-17T1300,1459A,91.1774,29.6541,拉萨市,西藏大学,,24,20,19,9,11,76,,59,59,11,19,4,5,0.5,0.6
2026-01-17T1300,1460A,90.9798,29.6586,拉萨市,区辐射站,,35,35,40,14,27,59,,34,29,25,37,4,5,0.6,0.9
2026-01-17T1300,1461A,91.0831,29.6292,拉萨市,拉萨火车站,,32,32,23,18,12,56,,28,28,24,32,5,4,0.7,0.8
2026-01-17T1300,2520A,109.2203,23.7252,来宾市,来宾技工学校,细颗粒物(PM2.5),128,132,106,97,82,82,,36,36,13,21,12,10,1.2,1.1
2026-01-17T1300,3535A,109.1781,23.7293,来宾市,兴宾区政府,细颗粒物(PM2.5),152,145,97,116,70,96,,41,41,14,21,12,10,1.1,1
2026-01-17T1300,4002A,109.2312,23.7428,来宾市,中南小学,细颗粒物(PM2.5),122,131,105,92,81,87,,36,36,16,28,10,8,1.1,1.1
2026-01-17T1300,1479A,103.8309,36.0467,兰州市,铁路设计院,,,,,,,,,,,,,,,,
2026-01-17T1300,3241A,103.7439,36.0841,兰州市,百合公园,颗粒物(PM10),83,115,136,50,57,36,,10,10,60,69,49,29,1.6,1.9
2026-01-17T1300,3242A,103.9613,35.9985,兰州市,和平,细颗粒物(PM2.5),193,,154,145,67,57,,,,41,43,36,33,1.5,1.8
2026-01-17T1300,4236A,103.629272,36.093822,兰州市,庄浪东路808号,细颗粒物(PM2.5),100,124,136,75,63,60,,22,22,64,70,56,33,1.4,1.4
2026-01-17T1300,4237A,103.7251,36.104344,兰州市,安宁西路88号,颗粒物(PM10),86,122,155,55,56,52,,16,16,56,73,57,31,1.4,1.4
2026-01-17T1300,4238A,103.846982,36.067567,兰州市,北滨河东路1号,颗粒物(PM10),87,124,147,51,60,31,,10,10,86,72,32,17,2.1,1.5
2026-01-17T1300,1067A,116.6712,39.5109,廊坊市,药材公司,,38,38,43,13,21,49,,43,43,21,26,7,5,0.7,0.7
2026-01-17T1300,1068A,116.7215,39.5592,廊坊市,开发区,,33,33,34,11,16,53,,48,48,20,26,6,3,0.6,0.5
2026-01-17T1300,1070A,116.7246,39.5273,廊坊市,北华航天学院,,36,36,46,10,21,53,,46,46,17,28,6,4,0.5,0.5
2026-01-17T1300,2919A,116.7022,39.5454,廊坊市,河北工业大学,,39,39,40,16,20,51,,44,44,15,21,5,3,0.6,0.5
2026-01-17T1300,2536A,103.7629,29.5844,乐山市,牛耳桥,细颗粒物(PM2.5),145,118,131,111,110,42,,11,11,40,41,6,5,1.3,1.1
2026-01-17T1300,2537A,103.7501,29.6002,乐山市,市第三水厂,细颗粒物(PM2.5),165,143,132,125,106,39,,9,9,59,49,8,7,1.4,1.1
2026-01-17T1300,2538A,103.7571,29.5664,乐山市,市监测站,细颗粒物(PM2.5),149,139,131,114,113,25,,5,5,42,35,6,6,1.3,1
2026-01-17T1300,3361A,103.7313,29.563,乐山市,理工大学,细颗粒物(PM2.5),190,154,137,143,114,23,,5,5,50,38,7,7,1.4,0.9
2026-01-17T1300,2599A,100.2497,26.8802,丽江市,丽江古城,,32,30,37,22,19,72,,51,51,10,15,9,10,0.4,0.5
2026-01-17T1300,2600A,100.2203,26.8906,丽江市,市中心,,23,22,25,3,13,72,,54,51,9,16,6,7,0.4,0.5
2026-01-17T1300,1267A,119.9141,28.4513,丽水市,监测站大楼,细颗粒物(PM2.5),65,71,60,47,43,86,,26,26,41,50,7,6,0.5,0.8
2026-01-17T1300,1268A,119.93,28.4589,丽水市,莲都小学,颗粒物(PM10),65,79,64,40,31,85,,29,29,43,52,/,/,/,/
2026-01-17T1300,1269A,119.8794,28.4232,丽水市,余庄前,细颗粒物(PM2.5),72,79,56,52,35,94,,28,28,46,32,8,5,0.5,0.5
2026-01-17T1300,1173A,119.1759,34.5885,连云港市,市环境监测站,,29,29,98,14,62,66,,63,63,10,19,9,11,0.3,0.6
2026-01-17T1300,3000A,119.3577,34.6971,连云港市,德源药业,,34,34,120,14,60,66,,63,63,12,24,5,6,0.7,0.9
2026-01-17T1300,3007A,119.178,34.8442,连云港市,新城一中,颗粒物(PM10),54,57,111,24,67,53,,48,41,17,31,10,12,0.9,1.2
2026-01-17T1300,3008A,119.3607,34.7519,连云港市,胡沟管理处,,22,19,77,9,49,70,,68,68,10,18,7,7,0.4,0.7
2026-01-17T1300,3009A,119.1478,34.5913,连云港市,矿山设计院,,34,34,103,9,59,65,,59,59,14,23,6,8,0.5,0.8
2026-01-17T1300,3434A,119.2414,34.6539,连云港市,工贸学校,,22,16,89,11,63,70,,62,62,5,20,9,10,0.3,1
2026-01-17T1300,3664A,119.4171,34.734,连云港市,连云街道,,25,25,91,11,57,59,,63,62,26,35,3,4,0.5,0.7
2026-01-17T1300,2573A,102.2629,27.8981,凉山彝族自治州,西昌市政府,细颗粒物(PM2.5),100,77,43,75,33,71,,53,43,30,17,13,9,1.0,0.7
2026-01-17T1300,2574A,102.2686,27.885,凉山彝族自治州,凉山州政府,颗粒物(PM10),80,109,52,46,30,65,,42,37,38,23,14,10,0.9,0.7
2026-01-17T1300,4229A,102.2342,27.8859,凉山彝族自治州,凯乐南路30号,细颗粒物(PM2.5),84,94,67,62,41,64,,19,19,37,41,15,9,1.0,0.8
2026-01-17T1300,2212A,123.1978,41.2036,辽阳市,宏伟区,,26,26,35,17,34,71,,57,57,4,16,7,9,0.2,0.4
2026-01-17T1300,2213A,123.1684,41.2497,辽阳市,新华园,,21,20,38,8,23,67,,50,50,7,22,5,12,0.1,0.2
2026-01-17T1300,2214A,123.2355,41.2663,辽阳市,滨河路,,,23,50,14,33,65,,42,42,5,29,,9,0.3,0.3
2026-01-17T1300,4083A,123.153,41.2874,辽阳市,铁西路150号,,28,28,42,10,31,69,,52,52,10,33,10,12,0.6,0.8
2026-01-17T1300,2227A,125.1359,42.8845,辽源市,环保局,,21,18,71,6,53,67,,38,38,6,40,5,7,0.3,1
2026-01-17T1300,4085A,125.0998,42.9134,辽源市,安宁大街333号,,22,17,60,11,52,68,,42,42,6,27,6,6,0.4,0.8
2026-01-17T1300,1625A,115.9789,36.4372,聊城市,区政府,颗粒物(PM10),58,66,80,29,42,45,,40,40,34,30,16,14,0.9,0.9
2026-01-17T1300,3200A,115.9772,36.4986,聊城市,监控中心,细颗粒物(PM2.5),58,58,65,41,46,50,,41,41,29,25,7,8,0.9,0.9
2026-01-17T1300,3513A,116.0443,36.436,聊城市,九州社区,"颗粒物(PM10),细颗粒物(PM2.5)",62,73,84,44,45,47,,48,47,22,14,10,5,0.6,0.6
2026-01-17T1300,4018A,116.0564,36.4609,聊城市,星美广场,颗粒物(PM10),63,75,86,38,44,40,,38,37,23,21,8,6,0.7,0.7
2026-01-17T1300,4113A,116.0091,36.4495,聊城市,利民路,颗粒物(PM10),63,75,82,38,42,37,,34,34,35,30,14,11,0.9,0.8
2026-01-17T1300,2632A,94.3683,29.6373,林芝市,林芝监测站,,23,8,17,3,8,72,,58,58,3,14,2,3,0.3,0.4
2026-01-17T1300,2633A,94.3616,29.6634,林芝市,林芝人民医院,,22,6,18,3,11,70,,53,53,6,11,1,2,0.2,0.3
2026-01-17T1300,2603A,100.0779,23.8981,临沧市,市环保局,,45,35,34,31,40,80,,37,37,7,10,5,5,0.5,0.6
2026-01-17T1300,2604A,100.0894,23.882,临沧市,市气象局,,29,29,33,19,24,83,,35,35,6,10,5,5,0.3,0.4
2026-01-17T1300,1733A,111.5552,36.0791,临汾市,临钢医院,颗粒物(PM10),92,134,152,67,67,65,,30,30,24,40,9,11,1.0,1.4
2026-01-17T1300,1734A,111.4984,36.0734,临汾市,技工学校,颗粒物(PM10),90,129,146,56,63,62,,33,33,33,42,7,12,0.7,1.1
2026-01-17T1300,1736A,111.5017,36.0857,临汾市,市委,颗粒物(PM10),80,110,147,54,60,71,,38,38,20,42,10,15,1.0,1.3
2026-01-17T1300,3018A,111.5048,36.1015,临汾市,唐尧大酒店,颗粒物(PM10),87,124,141,57,64,71,,35,35,22,46,6,10,0.8,1.2
2026-01-17T1300,4244A,111.4879,36.053,临汾市,启星学校,颗粒物(PM10),76,102,139,40,65,71,,38,38,22,51,11,13,1.0,1.4
2026-01-17T1300,4271A,103.2464,35.6123,临夏回族自治州,滨河东路1号,颗粒物(PM10),80,110,163,35,64,51,,15,15,27,41,15,11,0.8,1.5
2026-01-17T1300,4310A,103.207136,35.599807,临夏回族自治州,新华街21号,颗粒物(PM10),60,70,132,34,65,26,,12,12,37,42,12,13,1.0,1.6
2026-01-17T1300,1618A,118.3429,35.0532,临沂市,沂河小区,,49,48,92,34,65,50,,48,45,23,24,12,11,0.5,0.7
2026-01-17T1300,1619A,118.2962,35.0568,临沂市,鲁南制药厂,,41,41,94,26,57,49,,50,46,19,21,12,11,0.5,0.6
2026-01-17T1300,1620A,118.2793,34.9976,临沂市,新光毛纺厂,,44,44,89,28,57,51,,49,46,29,32,10,10,0.6,0.7
2026-01-17T1300,1621A,118.3955,35.0889,临沂市,河东保险公司,,,,94,,51,51,,45,42,12,22,,9,,0.7
2026-01-17T1300,3370A,118.3563,35.0215,临沂市,十里堡居委,,44,44,93,19,43,54,,49,46,23,29,12,11,0.5,0.7
2026-01-17T1300,3496A,118.359,35.1067,临沂市,南坊新区,,46,46,85,22,50,52,,52,48,21,25,11,10,0.5,0.7
2026-01-17T1300,3860A,118.3915,35.0297,临沂市,皇山花园小区,颗粒物(PM10),53,56,98,31,49,54,,44,43,24,28,14,13,0.7,0.8
2026-01-17T1300,1870A,109.4854,24.3898,柳州市,柳东小学,细颗粒物(PM2.5),178,142,117,134,104,83,,42,42,15,22,10,12,1.0,0.9
2026-01-17T1300,1871A,109.4109,24.3304,柳州市,环保监测站,细颗粒物(PM2.5),223,199,159,173,132,64,,20,20,32,38,15,11,1.8,1.5
2026-01-17T1300,1872A,109.3886,24.3408,柳州市,河西水厂,细颗粒物(PM2.5),178,168,191,134,129,61,,19,19,33,41,19,12,2.4,1.4
2026-01-17T1300,1873A,109.4263,24.2951,柳州市,市四中,细颗粒物(PM2.5),162,223,166,123,118,77,,29,29,36,42,24,15,1.5,1.4
2026-01-17T1300,1874A,109.396,24.3658,柳州市,市九中,细颗粒物(PM2.5),243,,179,193,140,68,,23,23,29,37,24,18,1.4,1.4
2026-01-17T1300,1875A,109.4912,24.3164,柳州市,古亭山,细颗粒物(PM2.5),104,108,94,78,68,79,,23,23,12,32,13,12,1.0,0.9
2026-01-17T1300,3402A,109.5422,24.3994,柳州市,市二中,细颗粒物(PM2.5),149,146,113,114,89,80,,27,27,19,28,11,11,1.0,0.9
2026-01-17T1300,2307A,116.5078,31.7369,六安市,监测大楼,细颗粒物(PM2.5),203,207,155,153,117,14,,22,21,41,32,4,4,0.9,0.7
2026-01-17T1300,2308A,116.4738,31.7642,六安市,皖西学院,细颗粒物(PM2.5),193,208,165,145,116,20,,20,18,35,31,5,6,0.9,0.7
2026-01-17T1300,2309A,116.4997,31.7904,六安市,朝阳厂,细颗粒物(PM2.5),200,199,163,150,114,20,,19,19,39,36,5,6,1.0,0.8
2026-01-17T1300,2310A,116.5566,31.7885,六安市,开发区,细颗粒物(PM2.5),189,216,169,142,107,51,,35,35,27,38,5,6,0.8,0.8
2026-01-17T1300,2577A,104.8293,26.592,六盘水市,黄土坡,,,,105,,86,84,,36,36,15,30,10,12,0.6,1.2
2026-01-17T1300,2579A,104.8481,26.5898,六盘水市,民中,细颗粒物(PM2.5),58,56,106,41,92,81,,30,30,18,38,8,13,0.6,1.3
2026-01-17T1300,2580A,104.9541,26.5506,六盘水市,双水,细颗粒物(PM2.5),80,92,115,59,90,85,,44,44,16,21,8,6,0.4,0.7
2026-01-17T1300,4151A,104.8899,26.5685,六盘水市,钟山大道中段564号,细颗粒物(PM2.5),69,60,150,50,99,83,,30,30,12,30,11,13,0.6,1.4
2026-01-17T1300,2336A,117.022,25.1031,龙岩市,龙岩市监测站,"颗粒物(PM10),细颗粒物(PM2.5)",57,64,57,40,38,98,,45,45,30,45,15,21,0.9,0.9
2026-01-17T1300,2337A,117.0257,25.0662,龙岩市,闽西职业技术学院,细颗粒物(PM2.5),53,54,57,37,32,113,,51,51,20,29,11,13,0.8,0.7
2026-01-17T1300,2338A,117.0195,25.0306,龙岩市,龙岩学院,颗粒物(PM10),58,65,47,34,32,111,,56,56,20,19,13,10,/,/
2026-01-17T1300,2885A,104.9344,33.3827,陇南市,滨江中学,颗粒物(PM10),58,66,115,29,52,54,,19,19,20,51,10,19,1.0,2.6
2026-01-17T1300,3247A,104.9551,33.3709,陇南市,市总工会,细颗粒物(PM2.5),70,74,84,51,42,52,,25,25,29,39,14,12,1.0,1
2026-01-17T1300,2488A,111.9984,27.7346,娄底市,市监测站,,,,115,,87,,,53,,,37,,18,,1
2026-01-17T1300,2491A,111.9888,27.7035,娄底市,市政府,细颗粒物(PM2.5),147,149,126,112,102,82,,34,34,24,38,11,11,0.7,0.9
2026-01-17T1300,4127A,111.9812,27.7591,娄底市,涟钢职大,细颗粒物(PM2.5),153,142,132,117,95,81,,39,39,22,25,11,10,1.2,1
2026-01-17T1300,4128A,112.0303,27.7457,娄底市,娄底体校,细颗粒物(PM2.5),147,130,121,112,102,72,,29,29,14,23,6,5,0.8,1
2026-01-17T1300,1894A,105.4427,28.9063,泸州市,小市上码头,细颗粒物(PM2.5),144,110,150,110,110,42,,19,19,18,33,8,7,1.4,1.4
2026-01-17T1300,1895A,105.4241,28.8573,泸州市,兰田宪桥,细颗粒物(PM2.5),150,166,214,115,133,43,,12,12,14,18,8,8,1.5,1.6
2026-01-17T1300,1896A,105.4378,28.8833,泸州市,市环监站,细颗粒物(PM2.5),127,123,170,96,123,46,,15,15,23,36,9,9,1.3,1.3
2026-01-17T1300,4272A,105.3689,28.7783,泸州市,纳溪中医医院,细颗粒物(PM2.5),166,,138,126,125,22,,8,8,16,20,7,8,1.4,1.4
2026-01-17T1300,2183A,111.1447,37.5212,吕梁市,环保局,颗粒物(PM10),101,152,113,59,37,79,,29,29,16,40,8,6,0.5,0.4
2026-01-17T1300,2185A,111.1285,37.5338,吕梁市,自来水公司,颗粒物(PM10),104,158,139,67,42,82,,30,30,15,34,7,9,0.8,0.6
2026-01-17T1300,2867A,111.1225,37.5093,吕梁市,马茂庄小学,颗粒物(PM10),122,194,132,66,40,74,,32,32,20,39,8,10,0.6,0.4
2026-01-17T1300,1812A,112.3934,34.6517,洛阳市,市委党校,颗粒物(PM10),57,64,118,32,58,64,,57,56,24,36,10,11,0.7,0.9
2026-01-17T1300,1815A,112.494,34.6883,洛阳市,河南林校,颗粒物(PM10),60,69,130,29,70,69,,50,50,19,36,10,12,0.6,0.8
2026-01-17T1300,1816A,112.3843,34.623,洛阳市,开发区管委会,颗粒物(PM10),60,69,135,35,71,64,,56,56,22,30,10,12,0.7,0.9
2026-01-17T1300,1817A,112.4263,34.6249,洛阳市,市委新办公区,细颗粒物(PM2.5),63,66,129,45,69,68,,56,56,22,34,10,11,0.5,0.7
2026-01-17T1300,3340A,112.6005,34.6323,洛阳市,伊滨,,,76,142,58,80,71,,44,32,17,29,8,9,,0.7
2026-01-17T1300,3341A,112.495,34.6338,洛阳市,中移产业园,颗粒物(PM10),63,75,129,43,72,65,,47,45,19,32,9,13,0.5,0.7
2026-01-17T1300,3593A,112.5736,34.8993,洛阳市,吉利监测站,颗粒物(PM10),68,86,134,32,76,72,,55,55,17,30,10,10,0.7,0.9
2026-01-17T1300,3635A,112.3678,34.6623,洛阳市,河科大西苑校区,颗粒物(PM10),62,74,134,33,60,68,,59,59,22,35,9,11,0.7,0.9
2026-01-17T1300,3636A,112.4387,34.678,洛阳市,英才小学,颗粒物(PM10),60,70,135,42,76,65,,50,50,24,38,10,12,0.5,0.8
2026-01-17T1300,4214A,112.460027,34.694929,洛阳市,春都路1号院,颗粒物(PM10),65,79,149,31,64,66,,51,51,17,28,8,9,0.7,1
2026-01-17T1300,2399A,114.051,33.5721,漯河市,三五一五工厂,细颗粒物(PM2.5),112,141,154,84,96,24,,35,26,20,23,6,6,,0.8
2026-01-17T1300,2400A,114.0055,33.5698,漯河市,漯河大学,细颗粒物(PM2.5),117,138,153,88,90,23,,34,25,18,18,5,5,0.8,0.8
2026-01-17T1300,2401A,114.0134,33.5826,漯河市,市水利局,细颗粒物(PM2.5),119,149,159,90,93,22,,33,25,21,22,4,4,0.8,0.8
2026-01-17T1300,2402A,114.0261,33.5697,漯河市,市广电局,细颗粒物(PM2.5),113,147,159,85,90,24,,34,26,18,19,6,6,0.8,0.8
2026-01-17T1300,3478A,113.9691,33.568,漯河市,市图书馆,细颗粒物(PM2.5),120,161,174,91,97,23,,33,26,19,20,4,4,1.0,0.9
2026-01-17T1300,4250A,114.089259,33.588274,漯河市,韶山路11号,细颗粒物(PM2.5),114,164,160,86,94,20,,27,21,17,19,5,6,0.9,0.9
2026-01-17T1300,1798A,118.5084,31.6838,马鞍山市,湖东路四小,细颗粒物(PM2.5),155,174,170,118,112,87,,84,84,20,46,2,6,1.0,1.2
2026-01-17T1300,1799A,118.5019,31.6449,马鞍山市,开发区,细颗粒物(PM2.5),149,172,169,114,123,85,,86,84,23,51,4,6,0.9,1
2026-01-17T1300,3633A,118.4914,31.681,马鞍山市,雨山,细颗粒物(PM2.5),150,184,165,115,112,91,,87,87,21,48,5,9,1.1,1.2
2026-01-17T1300,4191A,118.527362,31.722269,马鞍山市,慈湖高新区,细颗粒物(PM2.5),166,181,166,126,120,85,,86,85,18,48,4,7,0.9,1
2026-01-17T1300,1686A,111.0285,21.469,茂名市,电白南海,颗粒物(PM10),51,51,67,9,34,128,,78,78,17,24,10,11,0.5,0.7
2026-01-17T1300,1687A,110.9294,21.6533,茂名市,茂石化七小,细颗粒物(PM2.5),94,107,86,70,49,167,,95,95,23,29,31,15,0.7,0.5
2026-01-17T1300,1688A,110.9108,21.6688,茂名市,健康路,细颗粒物(PM2.5),77,95,79,56,51,177,,112,102,24,29,31,23,1.1,0.9
2026-01-17T1300,1689A,110.8592,21.6826,茂名市,高岭,细颗粒物(PM2.5),77,100,107,56,53,174,,78,78,19,34,24,19,/,/
2026-01-17T1300,3450A,111.0101,21.5165,茂名市,电白水东,,41,41,62,24,35,131,,105,97,15,19,12,14,/,/
2026-01-17T1300,2540A,103.8414,30.0871,眉山市,气象局,细颗粒物(PM2.5),175,159,142,132,116,84,,25,25,25,48,39,18,1.0,1.1
2026-01-17T1300,3148A,103.829,30.0563,眉山市,区人社局,细颗粒物(PM2.5),175,145,145,132,126,48,,9,9,46,57,25,13,1.2,1.3
2026-01-17T1300,4148A,103.8836,30.0695,眉山市,眉职院,细颗粒物(PM2.5),153,160,137,117,96,81,,22,22,19,39,11,5,1.0,1
2026-01-17T1300,1690A,116.1248,24.3307,梅州市,梅江月梅,颗粒物(PM10),53,56,55,36,35,103,,44,44,23,39,/,/,/,/
2026-01-17T1300,1691A,116.0798,24.2719,梅州市,梅县新城,颗粒物(PM10),57,63,66,31,44,106,,43,43,25,47,11,8,0.6,0.8
2026-01-17T1300,3315A,116.1234,24.2994,梅州市,梅龙,颗粒物(PM10),53,56,58,36,35,93,,45,45,23,38,11,11,0.9,0.9
2026-01-17T1300,1878A,104.7775,31.4741,绵阳市,富乐山,细颗粒物(PM2.5),97,91,81,72,59,63,,20,20,20,40,9,8,0.7,0.6
2026-01-17T1300,1880A,104.6698,31.4668,绵阳市,高新区自来水公司,细颗粒物(PM2.5),138,145,106,105,67,41,,9,9,41,48,9,9,1.0,1
2026-01-17T1300,3491A,104.6899,31.5324,绵阳市,西科大附属小学,细颗粒物(PM2.5),148,164,111,113,69,47,,15,15,37,55,9,9,0.8,0.8
2026-01-17T1300,3492A,104.5647,31.5343,绵阳市,安州区旅游局,细颗粒物(PM2.5),94,76,93,70,66,60,,19,19,27,43,12,12,0.6,0.8
2026-01-17T1300,4146A,104.7092,31.4972,绵阳市,科技城新区公安局,细颗粒物(PM2.5),133,108,103,101,63,56,,20,20,37,57,9,9,1.1,0.9
2026-01-17T1300,4226A,104.765114,31.453094,绵阳市,绵阳市气象局,细颗粒物(PM2.5),123,112,96,93,64,43,,10,10,29,54,10,8,0.8,0.9
2026-01-17T1300,1784A,129.61,44.561,牡丹江市,环保大楼,,49,49,36,33,26,66,,52,52,15,16,6,5,0.3,0.3
2026-01-17T1300,1787A,129.6364,44.6075,牡丹江市,机车工厂,细颗粒物(PM2.5),53,54,42,37,29,61,,45,45,16,14,4,4,0.4,0.5
2026-01-17T1300,1788A,129.6386,44.5462,牡丹江市,第一中学,细颗粒物(PM2.5),53,40,28,37,28,63,,50,50,12,15,7,6,0.4,0.4
2026-01-17T1300,4287A,129.5992,44.5964,牡丹江市,东晓云街98号,细颗粒物(PM2.5),60,47,41,43,36,62,,43,41,16,14,6,6,0.6,0.6
2026-01-17T1300,2531A,105.0703,29.61,内江市,市监测站,细颗粒物(PM2.5),196,,126,147,134,57,,21,21,34,29,8,7,1.3,1.2
2026-01-17T1300,2533A,105.0657,29.5807,内江市,内江二中,细颗粒物(PM2.5),178,,152,134,128,45,,11,11,43,42,5,5,1.4,1.3
2026-01-17T1300,2534A,105.0407,29.5828,内江市,内江日报社,细颗粒物(PM2.5),175,135,129,132,123,34,,8,8,44,44,3,3,1.2,1.1
2026-01-17T1300,4147A,105.0433,29.6105,内江市,玉峰路西段888号,细颗粒物(PM2.5),168,,126,127,126,30,,7,7,48,37,3,2,1.4,1.2
2026-01-17T1300,2628A,92.0653,31.4846,那曲市,那曲监测站,,42,42,51,28,34,61,,30,30,19,31,14,10,0.8,1.6
2026-01-17T1300,4243A,92.0515,31.4787,那曲市,那曲市委宣传部,,26,26,27,12,17,56,,23,23,19,30,10,8,0.7,1.2
2026-01-17T1300,1291A,115.8887,28.7006,南昌市,省林业公司,细颗粒物(PM2.5),134,117,79,102,63,47,,62,55,41,41,8,8,1.7,1.3
2026-01-17T1300,1292A,115.813,28.7443,南昌市,林科所,细颗粒物(PM2.5),100,100,71,75,52,62,,90,74,30,33,8,13,0.6,0.5
2026-01-17T1300,1294A,115.8518,28.687,南昌市,建工学校,细颗粒物(PM2.5),127,139,98,96,65,43,,74,65,43,40,16,18,1.3,1.2
2026-01-17T1300,1295A,115.8926,28.6425,南昌市,象湖,细颗粒物(PM2.5),125,,76,95,60,58,,76,65,32,32,12,14,0.9,0.8
2026-01-17T1300,3046A,115.9084,28.6062,南昌市,机电学校,细颗粒物(PM2.5),125,135,95,95,65,76,,75,70,28,33,10,10,0.9,0.8
2026-01-17T1300,3690A,115.9718,28.7032,南昌市,外国语学校,细颗粒物(PM2.5),129,139,82,98,70,47,,61,53,36,37,16,16,1.0,0.8
2026-01-17T1300,4106A,115.7923,28.6873,南昌市,工业二路,细颗粒物(PM2.5),122,110,82,92,66,60,,71,66,29,31,8,8,,1.2
2026-01-17T1300,4192A,115.931587,28.686774,南昌市,南京东路235号,细颗粒物(PM2.5),120,121,88,91,65,52,,71,60,33,32,9,9,1.0,0.9
2026-01-17T1300,1906A,106.0791,30.8022,南充市,南充市委,细颗粒物(PM2.5),207,168,138,157,124,20,,6,6,36,51,4,4,1.2,1.4
2026-01-17T1300,1907A,106.1038,30.8215,南充市,南充炼油厂,细颗粒物(PM2.5),179,145,138,135,118,19,,6,6,20,36,5,6,1.2,1.2
2026-01-17T1300,4227A,106.108336,30.788436,南充市,梨树横街98号,细颗粒物(PM2.5),152,161,167,116,116,23,,8,8,27,37,5,6,1.1,1
2026-01-17T1300,4304A,106.1172,30.843,南充市,清泉寺北路188号,细颗粒物(PM2.5),135,179,119,103,101,23,,16,12,15,28,6,6,0.8,0.8
2026-01-17T1300,4305A,106.067,30.7616,南充市,同庆路1号,细颗粒物(PM2.5),213,176,137,163,120,21,,6,6,36,38,6,7,1.3,1.1
2026-01-17T1300,1151A,118.8033,32.1085,南京市,迈皋桥,细颗粒物(PM2.5),100,128,140,75,88,70,,89,76,27,37,4,5,0.6,0.8
2026-01-17T1300,1152A,118.7487,32.057,南京市,草场门,细颗粒物(PM2.5),100,122,145,75,89,64,,60,57,24,47,5,8,0.9,1
2026-01-17T1300,1154A,118.770105,32.004342,南京市,中华门,细颗粒物(PM2.5),107,139,142,80,92,80,,79,73,17,39,5,5,0.9,1
2026-01-17T1300,1155A,118.8059,32.0329,南京市,瑞金路,细颗粒物(PM2.5),110,144,160,83,101,82,,80,74,8,45,4,4,1.1,1.4
2026-01-17T1300,1156A,118.7946,32.0774,南京市,玄武湖,细颗粒物(PM2.5),109,132,149,82,95,91,,78,70,20,28,4,4,1.1,1.2
2026-01-17T1300,1157A,118.6415,32.0964,南京市,浦口,细颗粒物(PM2.5),117,170,159,88,95,48,,75,61,39,29,8,10,1.3,1.4
2026-01-17T1300,1158A,118.730129,32.000956,南京市,奥体中心,细颗粒物(PM2.5),113,144,148,85,96,96,,91,89,18,43,7,9,0.9,1.1
2026-01-17T1300,1159A,118.9072,32.1047,南京市,仙林大学城,细颗粒物(PM2.5),110,139,143,83,92,82,,82,73,20,39,6,8,1.1,1.1
2026-01-17T1300,3422A,118.8443,31.919,南京市,江宁彩虹桥,细颗粒物(PM2.5),113,156,142,85,100,86,,97,91,16,41,3,4,0.9,0.9
2026-01-17T1300,3427A,118.8497,32.3599,南京市,六合雄州,颗粒物(PM10),88,125,151,59,98,63,,78,70,18,27,2,6,0.8,1
2026-01-17T1300,4086A,118.7641,32.0841,南京市,新模范马路66号,细颗粒物(PM2.5),112,124,157,84,102,122,,115,103,5,35,4,4,1.3,1.3
2026-01-17T1300,4249A,118.8707617,31.34017673,南京市,汶溪路181号,细颗粒物(PM2.5),128,120,132,97,118,121,,110,110,20,37,4,7,1.2,1.3
2026-01-17T1300,4312A,119.019,31.6512,南京市,中山西路1号,细颗粒物(PM2.5),137,151,135,104,110,86,,92,86,24,32,4,4,1.1,1
2026-01-17T1300,1401A,108.3098,22.788,南宁市,二十一中,细颗粒物(PM2.5),87,102,75,64,51,69,,33,33,21,22,6,4,0.8,0.8
2026-01-17T1300,1402A,108.3135,22.8529,南宁市,北湖,细颗粒物(PM2.5),82,87,82,60,58,74,,34,34,25,32,5,4,0.9,0.8
2026-01-17T1300,1403A,108.3205,22.8222,南宁市,市监测站,细颗粒物(PM2.5),80,87,78,59,55,76,,36,36,23,29,9,7,0.9,0.8
2026-01-17T1300,1404A,108.3828,22.8038,南宁市,大自然花园,细颗粒物(PM2.5),92,102,83,68,57,82,,36,36,22,30,9,6,1.0,0.9
2026-01-17T1300,1406A,108.2397,22.8462,南宁市,区农职院,细颗粒物(PM2.5),77,95,83,56,52,66,,28,28,29,35,10,9,0.9,0.9
2026-01-17T1300,1407A,108.3285,22.7356,南宁市,英华嘉园,细颗粒物(PM2.5),110,111,75,83,56,75,,36,34,20,24,7,4,0.9,0.8
2026-01-17T1300,3401A,108.4829,22.762,南宁市,红星社区,细颗粒物(PM2.5),108,108,85,81,60,92,,20,20,16,33,8,4,0.9,0.8
2026-01-17T1300,4132A,108.2927,23.1477,南宁市,起凤路9号,细颗粒物(PM2.5),97,84,78,72,62,65,,34,18,18,21,5,3,0.7,0.7
2026-01-17T1300,4221A,108.2177,22.7774,南宁市,乐贤路16号,细颗粒物(PM2.5),79,94,80,58,50,62,,16,16,26,36,7,5,1.0,0.9
2026-01-17T1300,2332A,118.1682,26.6371,南平市,南平市监测站,颗粒物(PM10),53,55,57,36,36,93,,40,40,16,30,6,7,0.5,0.6
2026-01-17T1300,2334A,118.1757,26.6276,南平市,南平七中,颗粒物(PM10),51,51,45,32,34,88,,34,34,16,31,5,5,0.6,0.7
2026-01-17T1300,1168A,120.9056,31.9669,南通市,狼山街道,细颗粒物(PM2.5),83,109,131,61,98,92,,120,98,13,43,2,4,0.5,0.7
2026-01-17T1300,1170A,120.8635,32.0231,南通市,城中,,,118,150,,102,83,,115,86,17,45,,4,,1.1
2026-01-17T1300,1171A,120.9376,31.9301,南通市,星湖花园,颗粒物(PM10),83,116,139,55,98,98,,130,109,17,50,4,5,0.6,0.8
2026-01-17T1300,1172A,120.8053,32.046,南通市,紫琅学院,颗粒物(PM10),89,127,155,60,102,92,,125,90,17,47,5,5,0.6,0.9
2026-01-17T1300,3291A,121.0631,32.0644,南通市,通州监测站,颗粒物(PM10),73,95,126,41,94,92,,125,100,17,32,3,4,0.9,1.1
2026-01-17T1300,3432A,120.9348,31.9874,南通市,环境教育馆,细颗粒物(PM2.5),82,107,135,60,105,93,,122,99,14,50,4,6,0.7,0.9
2026-01-17T1300,4091A,120.8692,31.9885,南通市,洪江路,细颗粒物(PM2.5),80,99,126,59,106,84,,111,88,13,38,3,4,0.9,1.1
2026-01-17T1300,2404A,112.5338,33.0086,南阳市,瓦房庄,细颗粒物(PM2.5),115,133,149,87,97,38,,46,41,19,21,6,8,0.9,0.9
2026-01-17T1300,2405A,112.5002,32.9734,南阳市,汉画馆,细颗粒物(PM2.5),119,146,164,90,91,38,,50,43,22,24,6,7,0.9,0.9
2026-01-17T1300,2406A,112.5778,33.0144,南阳市,气象站,细颗粒物(PM2.5),107,162,181,80,88,35,,45,40,,24,,7,0.8,0.9
2026-01-17T1300,2407A,112.548,32.9687,南阳市,理工学院,细颗粒物(PM2.5),95,138,160,71,78,36,,42,38,24,28,4,6,0.8,0.9
2026-01-17T1300,4008A,112.5233,32.9921,南阳市,卧龙区政府,细颗粒物(PM2.5),115,159,175,87,90,37,,47,41,26,28,6,7,0.8,0.8
2026-01-17T1300,1234A,121.8352,29.9111,宁波市,区环保大楼,颗粒物(PM10),61,71,90,32,50,92,,70,70,31,76,5,6,0.6,0.8
2026-01-17T1300,1235A,121.5595,29.8208,宁波市,万里学院,颗粒物(PM10),62,74,99,42,67,105,,75,75,20,48,6,6,0.6,0.7
2026-01-17T1300,1236A,121.713,29.9564,宁波市,龙赛医院,颗粒物(PM10),56,62,101,35,74,98,,84,84,21,75,3,8,0.7,0.9
2026-01-17T1300,1240A,121.5855,29.8635,宁波市,太古小学,颗粒物(PM10),63,75,92,32,60,108,,81,81,16,44,5,6,0.5,0.7
2026-01-17T1300,1241A,121.5239,29.8673,宁波市,市环境监测中心,颗粒物(PM10),61,72,88,34,67,105,,77,77,16,53,7,8,0.6,0.8
2026-01-17T1300,2871A,121.6156,29.9015,宁波市,万里国际学校,颗粒物(PM10),67,83,104,33,61,107,,85,85,26,64,6,6,0.6,0.7
2026-01-17T1300,3710A,121.5593,29.8976,宁波市,白沙活动中心,颗粒物(PM10),69,87,119,29,67,106,,80,80,19,67,5,6,0.3,1
2026-01-17T1300,4095A,121.8962,29.7529,宁波市,中科路88号,颗粒物(PM10),54,58,78,32,54,102,,85,85,28,44,6,6,0.5,0.5
2026-01-17T1300,2341A,119.5387,26.6611,宁德市,宁德市监测站,颗粒物(PM10),52,53,35,27,23,101,,61,61,18,25,5,4,0.6,0.7
2026-01-17T1300,3209A,119.5231,26.6562,宁德市,宁德一中,,43,38,34,30,26,108,,63,63,13,19,9,7,0.5,0.6
2026-01-17T1300,2618A,98.859,25.8541,怒江傈僳族自治州,州监测站,,43,43,34,23,20,64,,42,42,8,11,5,5,0.4,0.4
2026-01-17T1300,2619A,98.8607,25.8168,怒江傈僳族自治州,泸水一中,,45,,30,31,21,59,,28,28,7,19,6,6,0.3,0.5
2026-01-17T1300,1888A,101.6891,26.571,攀枝花市,弄弄坪,细颗粒物(PM2.5),83,80,53,61,35,60,,31,25,39,25,44,17,2.4,1.2
2026-01-17T1300,1889A,101.577,26.5914,攀枝花市,河门口,"颗粒物(PM10),细颗粒物(PM2.5)",62,74,58,44,33,54,,23,23,35,23,40,19,3.1,1.1
2026-01-17T1300,1891A,101.7365,26.4986,攀枝花市,仁和,细颗粒物(PM2.5),78,79,49,57,32,73,,30,30,28,20,41,11,1.8,0.9
2026-01-17T1300,2835A,101.7222,26.567,攀枝花市,四十中小,"颗粒物(PM10),细颗粒物(PM2.5)",65,79,67,47,40,50,,16,16,35,41,25,15,1.8,1.3
2026-01-17T1300,1604A,122.0303,41.1489,盘锦市,开发区,细颗粒物(PM2.5),68,54,30,49,20,69,,52,52,8,10,3,6,0.4,0.6
2026-01-17T1300,1605A,122.0486,41.0883,盘锦市,兴隆台,,47,47,24,24,14,62,,51,49,17,16,6,7,0.5,0.5
2026-01-17T1300,1606A,121.8297,41.1026,盘锦市,新生街道,,33,33,22,10,12,64,,47,47,11,20,6,6,0.5,0.6
2026-01-17T1300,1832A,113.3257,33.7423,平顶山市,新华旅馆,细颗粒物(PM2.5),90,106,162,67,81,30,,43,36,29,31,6,6,0.6,0.6
2026-01-17T1300,1833A,113.2917,33.737,平顶山市,规划设计院,细颗粒物(PM2.5),90,123,161,67,75,34,,51,42,26,21,7,7,0.7,0.7
2026-01-17T1300,1834A,113.182,33.7738,平顶山市,平顶山工学院,细颗粒物(PM2.5),85,104,148,63,76,41,,55,46,22,24,8,8,0.6,0.6
2026-01-17T1300,3594A,112.8736,33.9068,平顶山市,石龙区,细颗粒物(PM2.5),88,110,182,65,91,46,,44,44,15,26,8,8,0.7,0.9
2026-01-17T1300,4116A,113.284,33.7139,平顶山市,姚电大道23号,细颗粒物(PM2.5),104,136,183,78,86,33,,47,38,29,28,8,8,0.8,0.8
2026-01-17T1300,2656A,106.6633,35.5338,平凉市,聚贤嘉苑,颗粒物(PM10),69,87,83,40,32,76,,40,40,18,34,19,14,0.6,0.6
2026-01-17T1300,2657A,106.7021,35.5307,平凉市,博物馆,颗粒物(PM10),66,82,86,36,35,78,,36,36,21,41,14,15,0.6,0.8
2026-01-17T1300,2348A,113.8384,27.6436,萍乡市,中医院,细颗粒物(PM2.5),72,65,82,52,60,103,,80,80,16,30,6,9,1.1,1.3
2026-01-17T1300,2350A,113.8677,27.6438,萍乡市,市环保局,细颗粒物(PM2.5),73,61,74,53,60,94,,78,78,19,24,16,20,0.9,1
2026-01-17T1300,2351A,113.8663,27.6202,萍乡市,安源区政府,细颗粒物(PM2.5),107,,88,80,87,75,,58,58,20,29,14,16,1.1,1.3
2026-01-17T1300,4107A,113.8686,27.6668,萍乡市,联洪村委会,细颗粒物(PM2.5),84,74,83,62,61,89,,69,69,13,21,2,5,0.7,0.8
2026-01-17T1300,2319A,119.0142,25.4324,莆田市,荔城区仓后路,细颗粒物(PM2.5),57,58,61,40,35,119,,61,61,26,32,/,/,/,/
2026-01-17T1300,2320A,119.0016,25.4553,莆田市,莆田市监测站,,,67,40,43,27,124,,71,71,23,15,,4,0.8,0.7
2026-01-17T1300,2321A,119.112,25.4561,莆田市,涵江区六中,细颗粒物(PM2.5),54,53,67,38,38,133,,47,47,16,49,/,/,0.7,0.8
2026-01-17T1300,2322A,119.1014,25.3215,莆田市,秀屿区政府,颗粒物(PM10),55,60,51,32,32,138,,73,73,12,22,6,6,0.9,0.9
2026-01-17T1300,2392A,115.0312,35.7636,濮阳市,环保局,,,70,84,50,48,38,,40,34,26,22,,7,0.2,0.3
2026-01-17T1300,3021A,115,35.7667,濮阳市,濮水河管理处,颗粒物(PM10),61,72,90,40,48,41,,41,35,24,25,6,5,0.8,0.8
2026-01-17T1300,4118A,115.0552,35.7816,濮阳市,中原东路68号,细颗粒物(PM2.5),68,80,95,49,48,38,,38,32,28,25,5,4,0.4,0.4
2026-01-17T1300,4216A,115.0923632,35.76857718,濮阳市,任丘路479号,细颗粒物(PM2.5),64,71,93,46,51,42,,38,34,23,22,6,5,0.6,0.6
2026-01-17T1300,2601A,100.9801,22.7634,普洱市,市环保局,颗粒物(PM10),58,66,57,23,24,77,,37,37,6,11,5,5,0.3,0.4
2026-01-17T1300,2602A,100.9763,22.8237,普洱市,普洱第二中学,,36,36,43,11,23,80,,33,33,5,17,6,5,0.1,0.3
2026-01-17T1300,3345A,131.0413,45.7795,七台河市,中波台,细颗粒物(PM2.5),54,51,39,38,30,66,,47,47,11,18,10,14,0.4,0.5
2026-01-17T1300,3637A,131.0136,45.7688,七台河市,人民广场,,49,47,42,34,35,65,,48,48,12,22,9,10,0.5,0.5
2026-01-17T1300,3684A,130.8639,45.8144,七台河市,新建矿广场,,36,,31,25,27,62,,47,47,8,13,5,7,0.4,0.4
2026-01-17T1300,1779A,123.9307,47.3641,齐齐哈尔市,安居小区,,25,25,27,11,34,63,,55,55,6,12,5,6,0.4,0.4
2026-01-17T1300,1780A,123.9497,47.3389,齐齐哈尔市,中心广场,,19,17,16,9,9,58,,54,51,8,12,6,7,0.6,0.7
2026-01-17T1300,1781A,123.9483,47.3229,齐齐哈尔市,农牧车辆厂,,24,24,25,6,11,59,,54,50,6,9,6,7,0.3,0.3
2026-01-17T1300,1783A,123.9442,47.2994,齐齐哈尔市,市环境监测站,,20,19,25,11,15,61,,51,46,4,14,6,7,0.6,0.7
2026-01-17T1300,3662A,123.6341,47.2079,齐齐哈尔市,富区青少年活动中心,,21,21,27,9,15,63,,58,57,7,12,6,8,0.5,0.6
2026-01-17T1300,2591A,107.9765,26.5724,黔东南苗族侗族自治州,市环境监测站,细颗粒物(PM2.5),150,128,107,115,96,62,,18,18,24,29,8,7,0.8,0.8
2026-01-17T1300,2881A,107.8909,26.531,黔东南苗族侗族自治州,凯里学院,细颗粒物(PM2.5),137,127,102,104,80,73,,23,23,19,21,7,4,0.8,0.7
2026-01-17T1300,2593A,107.5223,26.2371,黔南布依族苗族自治州,小围寨,细颗粒物(PM2.5),110,92,91,83,81,61,,27,23,13,15,12,9,1.1,1.1
2026-01-17T1300,3538A,107.5175,26.2977,黔南布依族苗族自治州,沙坝,,,102,101,,80,53,,18,18,,20,9,8,1.1,1.1
2026-01-17T1300,2589A,104.9022,25.0943,黔西南布依族苗族自治州,场坝街,颗粒物(PM10),58,66,75,29,57,79,,49,49,12,17,10,38,0.7,0.7
2026-01-17T1300,2590A,104.8812,25.0994,黔西南布依族苗族自治州,坪东大道,,,88,58,62,52,81,,45,45,,22,13,12,,0.9
2026-01-17T1300,2502A,108.6238,21.9667,钦州市,市环保站,细颗粒物(PM2.5),83,88,73,61,39,69,,27,26,30,33,8,4,0.6,0.5
2026-01-17T1300,2503A,108.655,21.9481,钦州市,沙埠小学,细颗粒物(PM2.5),78,97,75,57,43,82,,29,29,24,35,9,5,0.5,0.4
2026-01-17T1300,2504A,108.5989,21.7435,钦州市,港区一小,,45,34,66,31,31,78,,36,36,27,36,8,5,0.7,0.7
2026-01-17T1300,3404A,108.5959,21.9634,钦州市,北职校,细颗粒物(PM2.5),82,68,61,60,42,64,,20,20,35,32,12,8,1.1,0.8
2026-01-17T1300,1046A,119.5247,39.9346,秦皇岛市,建设大厦,,30,30,33,14,27,56,,58,50,11,12,9,6,0.3,0.3
2026-01-17T1300,3132A,119.5979,39.938,秦皇岛市,文明里,,40,40,38,18,18,58,,58,48,17,18,13,11,0.3,0.3
2026-01-17T1300,4066A,119.7458,39.9952,秦皇岛市,南园路157号,,47,47,46,9,12,61,,44,34,13,23,10,9,0.3,0.4
2026-01-17T1300,4067A,119.5131,39.8858,秦皇岛市,翠岛大街1号,,34,34,40,9,10,55,,60,49,8,8,12,9,0.3,0.3
2026-01-17T1300,4198A,119.509013,39.825305,秦皇岛市,北戴河轮滑馆,,24,24,35,8,18,68,,64,58,6,11,6,6,0.2,0.3
2026-01-17T1300,1310A,120.404,36.0625,青岛市,市南区东部子站,,39,39,79,22,42,56,,60,54,22,21,10,9,0.5,0.7
2026-01-17T1300,1311A,120.362344,36.10282,青岛市,四方区子站,,44,44,84,24,44,65,,56,55,1,8,2,3,0.6,0.8
2026-01-17T1300,1312A,120.294373,36.054183,青岛市,市南区西部子站,,39,31,73,27,36,65,,53,50,15,22,10,9,0.8,0.9
2026-01-17T1300,1313A,120.4581,36.0858,青岛市,崂山区子站,,44,44,77,19,42,57,,61,57,18,22,11,10,0.2,0.5
2026-01-17T1300,1315A,120.3945,36.3083,青岛市,城阳区子站,,29,29,66,17,33,75,,62,62,12,20,7,6,0.7,0.9
2026-01-17T1300,3642A,120.3454,36.0735,青岛市,市北区南部,,48,48,91,17,38,50,,50,47,25,21,7,2,0.6,0.8
2026-01-17T1300,3643A,120.3897,36.18,青岛市,李沧区北部,,31,31,67,17,46,72,,60,60,10,16,10,8,0.7,0.8
2026-01-17T1300,4110A,120.5222,36.4089,青岛市,盟旺路653号,,32,32,75,15,37,71,,56,56,17,22,3,2,0.4,0.6
2026-01-17T1300,4290A,120.196923,35.954556,青岛市,珠江路669号,,41,41,70,22,43,62,,48,48,25,30,13,11,0.6,0.7
2026-01-17T1300,4291A,120.0424,35.8656,青岛市,黄岛区人民政府广场,,46,46,75,19,36,66,,58,55,23,26,9,7,0.7,0.8
2026-01-17T1300,1703A,113.0218,23.7086,清远市,凤城街办,细颗粒物(PM2.5),114,116,99,86,71,163,,84,84,46,53,/,/,/,/
2026-01-17T1300,3025A,113.0479,23.6343,清远市,技师学院,细颗粒物(PM2.5),115,127,116,87,68,173,,67,67,59,69,17,13,0.8,0.7
2026-01-17T1300,3318A,112.9898,23.7403,清远市,清新太和,细颗粒物(PM2.5),127,128,85,96,58,155,,108,108,54,39,19,7,0.8,0.7
2026-01-17T1300,3455A,113.076,23.72,清远市,清城东城,细颗粒物(PM2.5),92,96,86,68,54,165,,79,79,41,44,/,/,/,/
2026-01-17T1300,2661A,107.6325,35.7357,庆阳市,庆阳五中,颗粒物(PM10),70,89,76,42,30,83,,81,81,23,20,17,9,0.5,0.4
2026-01-17T1300,2662A,107.6361,35.7067,庆阳市,市环保局,细颗粒物(PM2.5),72,78,72,52,32,91,,83,83,15,12,8,8,0.5,0.4
2026-01-17T1300,1916A,103.7897,25.5036,曲靖市,环境监测站,细颗粒物(PM2.5),53,43,42,37,19,77,,31,31,19,26,7,6,0.7,0.6
2026-01-17T1300,1917A,103.8013,25.5357,曲靖市,烟厂办公区,颗粒物(PM10),60,70,55,35,27,70,,31,31,19,32,6,10,0.6,0.6
2026-01-17T1300,3376A,103.7926,25.4651,曲靖市,南苑二区,颗粒物(PM10),56,62,33,38,17,83,,42,42,13,14,5,5,0.6,0.4
2026-01-17T1300,3377A,103.7442,25.5259,曲靖市,曲靖师范学院,细颗粒物(PM2.5),58,50,47,41,31,80,,25,25,13,28,5,5,0.5,0.5
2026-01-17T1300,1264A,118.8694,28.94,衢州市,环保大楼,细颗粒物(PM2.5),140,142,102,107,72,113,,43,43,41,68,/,/,/,/
2026-01-17T1300,1266A,118.8622,28.9809,衢州市,衢州学院,细颗粒物(PM2.5),120,123,84,91,58,119,,51,51,31,60,8,6,0.6,0.6
2026-01-17T1300,4097A,118.9646,28.9832,衢州市,衢州三中,细颗粒物(PM2.5),134,143,103,102,68,111,,40,40,43,63,8,7,0.9,0.9
2026-01-17T1300,1611A,118.5818,24.9116,泉州市,涂山街,,42,37,70,28,43,134,,60,60,14,35,5,4,0.5,0.7
2026-01-17T1300,1612A,118.597,24.8976,泉州市,津头埔,,44,44,72,30,47,137,,61,61,19,43,6,6,0.5,0.7
2026-01-17T1300,1613A,118.6669,24.9422,泉州市,万安,颗粒物(PM10),52,53,71,32,38,130,,64,64,17,40,7,5,0.7,0.7
2026-01-17T1300,4105A,118.6355,24.9148,泉州市,霞新路6号,,49,49,62,31,39,139,,62,62,19,44,/,/,0.6,0.7
2026-01-17T1300,2626A,88.8873,29.2723,日喀则市,日喀则监测站,,22,21,33,12,22,68,,27,25,6,19,9,14,0.4,0.6
2026-01-17T1300,3726A,88.8775,29.2425,日喀则市,林业技术推广中心,,21,19,28,11,16,66,,36,36,6,13,10,12,0.4,0.5
2026-01-17T1300,1659A,119.4711,35.421,日照市,监测站,,36,36,76,17,43,56,,51,51,19,22,8,7,0.6,0.7
2026-01-17T1300,1660A,119.523,35.4216,日照市,市政府广场,,39,39,74,24,42,56,,57,56,25,24,10,9,0.4,0.5
2026-01-17T1300,1661A,119.5511,35.4113,日照市,港务局,,48,46,80,33,54,56,,54,54,27,25,8,7,0.4,0.5
2026-01-17T1300,3507A,119.5326,35.4627,日照市,职业技术学院,,46,46,77,17,37,58,,54,54,25,26,8,7,0.7,0.8
2026-01-17T1300,3604A,119.3267,35.1043,日照市,岚山环保分局,,48,48,112,32,69,53,,32,32,19,38,12,33,0.7,2.8
2026-01-17T1300,1835A,111.1922,34.7752,三门峡市,市政府,颗粒物(PM10),89,128,112,63,65,74,,67,65,19,27,11,12,0.6,0.7
2026-01-17T1300,1836A,111.1588,34.794,三门峡市,开发区,,,125,128,59,57,62,,64,60,,28,8,9,0.6,0.6
2026-01-17T1300,3039A,111.1911,34.7829,三门峡市,三门峡市第一小学,颗粒物(PM10),89,127,122,55,60,70,,64,62,19,25,13,14,0.6,0.6
2026-01-17T1300,3598A,111.1031,34.719,三门峡市,富达温泉假日酒店,颗粒物(PM10),93,136,125,62,60,75,,65,65,22,27,8,10,0.6,0.6
2026-01-17T1300,2324A,117.621,26.2626,三明市,三钢,细颗粒物(PM2.5),62,62,56,44,47,80,,33,33,28,39,17,11,1.7,1.3
2026-01-17T1300,2325A,117.6352,26.2714,三明市,三明二中,细颗粒物(PM2.5),58,58,55,41,41,82,,32,32,24,37,10,7,1.4,1.3
2026-01-17T1300,2326A,117.6028,26.2377,三明市,三元区政府,细颗粒物(PM2.5),62,72,64,44,44,70,,32,32,50,44,42,10,3.6,1.4
2026-01-17T1300,1877A,109.4962,18.2682,三亚市,河西子站,,37,37,38,20,20,110,,68,64,12,16,3,3,0.4,0.4
2026-01-17T1300,3540A,109.7348,18.3443,三亚市,君悦子站,,39,39,31,13,15,116,,58,58,6,12,5,5,0.4,0.4
2026-01-17T1300,4135A,109.1714,18.3739,三亚市,城东小学站,,48,48,36,17,20,99,,48,48,8,12,/,/,/,/
2026-01-17T1300,2624A,91.7592,29.234,山南市,山南监测站,,25,25,19,13,10,10,,31,25,11,12,7,5,0.6,0.5
2026-01-17T1300,2625A,91.7701,29.2436,山南市,山南人民医院,,20,16,15,6,8,62,,47,44,10,12,8,8,0.5,0.4
2026-01-17T1300,1674A,116.6795,23.3666,汕头市,金平子站,颗粒物(PM10),51,52,57,26,36,132,,54,54,17,40,8,11,0.7,0.8
2026-01-17T1300,1675A,116.7248,23.3632,汕头市,龙湖子站,,48,48,55,27,29,129,,68,68,15,33,12,15,/,/
2026-01-17T1300,1676A,116.7257,23.2774,汕头市,濠江子站,颗粒物(PM10),51,51,51,30,32,131,,62,62,18,31,10,12,/,/
2026-01-17T1300,1677A,116.7518,23.4712,汕头市,澄海子站,,,,62,,38,,,127,,,29,,11,,0.7
2026-01-17T1300,1678A,116.6088,23.2539,汕头市,潮阳子站,,42,37,51,18,28,133,,68,68,6,22,8,10,0.5,0.8
2026-01-17T1300,3444A,116.4539,23.2684,汕头市,潮南峡山,,42,42,66,25,42,134,,68,68,17,27,12,11,0.5,0.7
2026-01-17T1300,3624A,116.4069,23.2533,汕头市,潮南子站,颗粒物(PM10),56,61,76,32,41,125,,62,62,22,29,10,10,/,/
2026-01-17T1300,1693A,115.3653,22.7751,汕尾市,市环保局,,44,44,41,26,25,132,,90,90,14,19,8,8,0.6,0.7
2026-01-17T1300,1695A,115.362,22.7926,汕尾市,新城中学,颗粒物(PM10),51,51,44,24,26,136,,84,84,10,20,7,6,0.5,0.5
2026-01-17T1300,2645A,109.9155,33.8714,商洛市,监测站,细颗粒物(PM2.5),132,149,97,100,46,87,,42,42,28,32,8,6,1.1,0.8
2026-01-17T1300,3045A,109.9647,33.8486,商洛市,商州区中学,细颗粒物(PM2.5),122,179,100,92,40,97,,30,30,19,35,8,6,0.8,0.6
2026-01-17T1300,2408A,115.6701,34.4283,商丘市,环境监测站,,,,124,,77,41,,34,34,,22,3,2,,0.7
2026-01-17T1300,2409A,115.6458,34.4047,商丘市,粮食局,颗粒物(PM10),58,65,117,32,71,37,,34,34,14,18,3,3,0.6,0.7
2026-01-17T1300,3171A,115.6069,34.4465,商丘市,梁园区档案局,颗粒物(PM10),56,61,118,28,72,40,,30,30,16,23,6,5,0.4,0.6
2026-01-17T1300,4119A,115.6701,34.3767,商丘市,北海东路185号,,,66,134,42,75,39,,34,34,11,18,,2,,0.8
2026-01-17T1300,4120A,115.6172,34.3704,商丘市,中山大街3号,颗粒物(PM10),58,66,135,31,78,42,,39,39,17,20,1,2,0.4,0.5
2026-01-17T1300,1141A,121.401,31.2382,上海市,普陀,细颗粒物(PM2.5),104,97,110,78,92,105,,125,116,24,49,6,7,0.8,1
2026-01-17T1300,1142A,121.4774,31.2043,上海市,十五厂,,,106,115,72,88,97,,123,114,28,51,6,7,,1.1
2026-01-17T1300,1143A,121.4673,31.3011,上海市,虹口,细颗粒物(PM2.5),93,118,125,69,88,87,,110,98,32,53,7,7,0.8,0.9
2026-01-17T1300,1147A,121.4253,31.226,上海市,静安监测站,细颗粒物(PM2.5),92,106,105,68,85,103,,124,114,28,41,6,7,0.8,0.9
2026-01-17T1300,1148A,121.7029,31.1905,上海市,浦东川沙,颗粒物(PM10),81,112,102,59,63,98,,96,94,23,46,6,7,0.6,0.6
2026-01-17T1300,1149A,121.5339,31.229,上海市,浦东新区监测站,细颗粒物(PM2.5),99,108,110,74,87,96,,115,107,30,47,6,7,0.7,0.8
2026-01-17T1300,1150A,121.5776,31.2038,上海市,浦东张江,细颗粒物(PM2.5),95,102,108,71,83,111,,117,110,27,51,6,7,0.5,0.6
2026-01-17T1300,3265A,121.4242,31.3303,上海市,宝山庙行,细颗粒物(PM2.5),99,108,122,74,89,99,,111,102,19,47,7,8,0.6,0.7
2026-01-17T1300,3266A,121.8789,31.4662,上海市,崇明上实东滩,颗粒物(PM10),74,98,84,50,53,115,,118,116,14,19,4,4,0.2,0.4
2026-01-17T1300,3268A,121.316,31.2839,上海市,嘉定南翔,细颗粒物(PM2.5),149,,105,114,84,101,,114,111,22,54,4,5,0.6,0.8
2026-01-17T1300,3269A,121.3357,30.7455,上海市,金山新城,细颗粒物(PM2.5),92,74,92,68,95,110,,116,116,22,40,7,8,0.8,0.8
2026-01-17T1300,3270A,121.4996,31.0741,上海市,闵行浦江,细颗粒物(PM2.5),82,92,108,60,82,105,,116,112,22,47,6,7,0.7,0.7
