timepoint,stationcode,longitude,latitude,area,positionname,primarypollutant,aqi,pm10,pm10_24h,pm2_5,pm2_5_24h,o3,o3_24h,o3_8h,o3_8h_24h,no2,no2_24h,so2,so2_24h,co,co_24h
2026-01-17T0500,2568A,102.2503,31.8896,阿坝藏族羌族自治州,马师校,,16,13,24,11,19,38,,,,7,15,3,4,0.4,0.6
2026-01-17T0500,3994A,102.2174,31.9016,阿坝藏族羌族自治州,马尔康中学西区,,13,,18,9,14,39,,,,7,13,5,6,0.4,0.5
2026-01-17T0500,2695A,80.2899,41.1684,阿克苏地区,电视台,细颗粒物(PM2.5),99,140,161,74,82,16,,,,60,51,9,5,2.5,1.9
2026-01-17T0500,2696A,80.2592,41.1541,阿克苏地区,艺术中心,细颗粒物(PM2.5),95,134,148,71,85,38,,,,48,52,5,6,1.4,1.2
2026-01-17T0500,2205A,105.699,38.8409,阿拉善盟,蒙二幼,颗粒物(PM10),61,72,52,20,18,77,,,,6,14,12,11,0.5,0.6
2026-01-17T0500,2206A,105.7198,38.8508,阿拉善盟,环保局新楼,颗粒物(PM10),59,67,49,36,22,75,,,,6,9,13,10,0.6,0.6
2026-01-17T0500,2708A,88.1266,47.8515,阿勒泰地区,市站,,19,19,19,7,13,60,,,,12,24,2,5,0.6,0.5
2026-01-17T0500,4166A,88.1198,47.7931,阿勒泰地区,阿勒泰路33号,,38,30,26,26,18,48,,,,21,23,3,5,0.6,0.6
2026-01-17T0500,2630A,80.1171,32.4999,阿里地区,阿里监测站,,23,6,3,3,3,72,,,,3,4,5,6,0.5,0.4
2026-01-17T0500,3192A,80.0906,32.5029,阿里地区,阿里藏医院,,29,7,16,3,8,90,,,,2,7,9,13,0.4,0.6
2026-01-17T0500,2644A,109.0088,32.6974,安康市,汉滨区检察院,细颗粒物(PM2.5),63,61,77,45,50,15,,,,19,28,4,5,0.7,0.8
2026-01-17T0500,4054A,109.0324,32.6913,安康市,市邮政管理局,细颗粒物(PM2.5),64,67,95,46,61,12,,,,22,38,6,7,0.6,1.3
2026-01-17T0500,2291A,117.0806,30.5181,安庆市,环科院,细颗粒物(PM2.5),210,224,114,160,86,38,,,,29,40,7,10,0.9,0.8
2026-01-17T0500,2292A,117.0331,30.5118,安庆市,马山宾馆,细颗粒物(PM2.5),212,211,109,162,84,46,,,,30,42,7,10,1.1,1
2026-01-17T0500,2294A,116.9897,30.6146,安庆市,安庆大学,细颗粒物(PM2.5),210,227,108,160,79,40,,,,34,34,5,8,1.0,0.7
2026-01-17T0500,3173A,117.0598,30.5351,安庆市,市人大,细颗粒物(PM2.5),215,226,119,165,89,41,,,,35,51,9,12,0.9,0.8
2026-01-17T0500,3123A,105.9408,26.2431,安顺市,凤凰山,细颗粒物(PM2.5),137,115,88,104,79,43,,,,39,22,37,23,0.9,0.8
2026-01-17T0500,3124A,105.9443,26.2567,安顺市,金钟山,细颗粒物(PM2.5),128,101,80,97,80,54,,,,22,16,32,22,0.7,0.7
2026-01-17T0500,3125A,105.8983,26.248,安顺市,娄家坡,细颗粒物(PM2.5),156,134,91,119,81,46,,,,22,17,28,19,1.1,0.8
2026-01-17T0500,1819A,114.3552,36.1017,安阳市,红庙街,细颗粒物(PM2.5),89,112,142,66,95,26,,,,34,36,1,2,0.8,0.9
2026-01-17T0500,1820A,114.361,36.0681,安阳市,银杏小区,细颗粒物(PM2.5),83,91,142,61,96,30,,,,29,32,4,4,0.6,0.9
2026-01-17T0500,3141A,114.3921,36.0879,安阳市,信访局,,,74,138,51,92,46,,,,,25,5,4,0.7,0.9
2026-01-17T0500,3669A,114.4706,36.0634,安阳市,左辅环卫站,细颗粒物(PM2.5),75,85,148,55,93,40,,,,41,36,4,4,0.5,0.7
2026-01-17T0500,4117A,114.2918,36.0769,安阳市,钢三路198号,细颗粒物(PM2.5),69,85,162,50,94,44,,,,26,32,5,4,0.7,1
2026-01-17T0500,1748A,123.0441,41.1201,鞍山市,深沟寺,,,26,47,11,33,48,,,,,29,5,10,0.6,0.9
2026-01-17T0500,1749A,123.011,41.0931,鞍山市,太阳城,,24,24,45,11,31,68,,,,10,25,9,15,0.7,0.9
2026-01-17T0500,1750A,123.0483,41.1445,鞍山市,太平,,28,28,52,14,33,50,,,,17,30,9,14,0.6,0.8
2026-01-17T0500,1751A,122.964,41.0968,鞍山市,铁西三道街,,25,25,52,8,32,45,,,,28,40,33,30,2.1,1.8
2026-01-17T0500,1753A,123.0219,41.0822,鞍山市,明达新区,,19,19,42,8,30,56,,,,13,24,10,14,0.3,0.6
2026-01-17T0500,4201A,122.944647,41.082639,鞍山市,兴盛南路290号,,,33,61,15,37,40,,,,,36,32,27,2.2,1.7
2026-01-17T0500,2195A,107.4206,40.7609,巴彦淖尔市,附二中,,37,37,39,20,19,33,,,,16,13,5,6,0.5,0.4
2026-01-17T0500,2196A,107.37,40.7372,巴彦淖尔市,市环保大楼,,50,50,37,20,15,38,,,,18,13,7,7,0.5,0.5
2026-01-17T0500,1956A,86.1476,41.7529,巴音郭楞蒙古自治州,孔雀公园,颗粒物(PM10),60,70,82,30,34,79,,,,3,19,10,9,0.4,0.5
2026-01-17T0500,1957A,86.1971,41.7166,巴音郭楞蒙古自治州,棉纺厂,颗粒物(PM10),68,86,91,29,30,69,,,,7,19,/,/,/,/
2026-01-17T0500,1958A,86.236,41.7172,巴音郭楞蒙古自治州,经济开发区,颗粒物(PM10),54,58,65,21,25,70,,,,7,12,7,7,0.4,0.5
2026-01-17T0500,3181A,106.776805,31.852614,巴中市,市五中,细颗粒物(PM2.5),103,108,98,77,70,3,,,,30,33,5,6,1.0,1
2026-01-17T0500,3183A,106.7419,31.8654,巴中市,圣泉水务公司,细颗粒物(PM2.5),87,83,78,64,59,3,,,,28,38,5,5,0.7,0.8
2026-01-17T0500,3616A,106.7617,31.8343,巴中市,市中心医院,细颗粒物(PM2.5),103,102,91,77,68,0,,,,,38,7,7,0.9,1
2026-01-17T0500,2235A,122.7909,45.608,白城市,洮北区环保局,,,18,52,12,39,55,,,,,20,4,5,0.2,0.5
2026-01-17T0500,2236A,122.8741,45.5725,白城市,市环保局,,22,22,53,12,31,50,,,,10,19,3,6,0.3,0.5
2026-01-17T0500,2231A,126.4219,41.9172,白山市,喜丰,,49,49,49,16,29,34,,,,32,24,6,12,0.7,0.7
2026-01-17T0500,2232A,126.4082,41.9416,白山市,环保局,细颗粒物(PM2.5),55,,36,39,35,35,,,,20,24,11,17,0.5,0.6
2026-01-17T0500,2647A,104.1727,36.5448,白银市,第三小学,颗粒物(PM10),86,121,134,63,53,11,,,,64,47,119,70,1.2,0.9
2026-01-17T0500,2648A,104.1467,36.5482,白银市,动力公司,颗粒物(PM10),85,120,124,46,46,20,,,,49,35,27,23,1.5,0.9
2026-01-17T0500,2512A,106.6102,23.901,百色市,市监测站,细颗粒物(PM2.5),100,87,80,75,60,17,,,,25,22,11,13,0.9,0.9
2026-01-17T0500,2513A,106.6524,23.8842,百色市,市中心血站,细颗粒物(PM2.5),127,106,106,96,78,5,,,,40,38,9,14,1.2,1.2
2026-01-17T0500,4133A,106.6273,23.8798,百色市,龙景西路,细颗粒物(PM2.5),123,136,115,93,74,5,,,,30,31,8,12,0.9,1
2026-01-17T0500,2270A,117.396,32.9389,蚌埠市,工人疗养院,细颗粒物(PM2.5),145,158,168,111,98,49,,,,18,40,4,9,0.8,0.9
2026-01-17T0500,2271A,117.3606,32.9428,蚌埠市,百货大楼,细颗粒物(PM2.5),135,152,154,103,94,45,,,,19,33,4,10,0.8,0.8
2026-01-17T0500,2273A,117.4183,32.8909,蚌埠市,蚌埠学院,细颗粒物(PM2.5),137,139,138,104,92,44,,,,23,33,4,10,0.8,0.8
2026-01-17T0500,2274A,117.3534,32.9672,蚌埠市,淮上区政府,细颗粒物(PM2.5),140,158,162,107,103,48,,,,19,43,1,6,0.8,0.8
2026-01-17T0500,2275A,117.3143,32.8977,蚌埠市,高新区,细颗粒物(PM2.5),135,146,154,103,103,48,,,,,35,6,11,0.5,0.6
2026-01-17T0500,3715A,117.3091,32.9314,蚌埠市,蚌埠田家炳中学,细颗粒物(PM2.5),145,153,161,111,105,48,,,,,39,3,9,0.9,0.9
2026-01-17T0500,1585A,109.8761,40.6533,包头市,市环境监测站,颗粒物(PM10),53,55,46,22,21,20,,,,33,36,9,10,0.6,0.7
2026-01-17T0500,1587A,109.9992,40.5843,包头市,包头八中,,45,45,44,28,26,26,,,,35,34,29,11,0.7,0.7
2026-01-17T0500,1589A,109.8641,40.6288,包头市,惠龙物流,,,35,40,19,22,28,,,,,34,10,13,1.1,1
2026-01-17T0500,1590A,110.0376,40.5546,包头市,东河鸿龙湾,,34,34,37,23,18,22,,,,44,41,10,14,0.7,0.8
2026-01-17T0500,3283A,109.9154,40.5684,包头市,滨河大厦,,,50,33,26,19,19,,,,,30,8,10,0.8,0.8
2026-01-17T0500,3419A,109.9449,40.6259,包头市,包头市委党校,颗粒物(PM10),56,61,47,20,23,16,,,,37,39,14,11,0.8,0.9
2026-01-17T0500,3683A,109.8332,40.6577,包头市,昆区政府,颗粒物(PM10),52,54,48,28,27,22,,,,37,42,15,14,0.8,1.1
2026-01-17T0500,1931A,107.0802,34.3129,宝鸡市,竹园沟,颗粒物(PM10),52,53,75,21,26,23,,,,17,19,5,6,0.2,0.2
2026-01-17T0500,1933A,107.1429,34.3549,宝鸡市,监测站,颗粒物(PM10),61,72,89,31,35,18,,,,25,27,4,6,0.6,0.6
2026-01-17T0500,1934A,107.1172,34.3759,宝鸡市,技工学校,细颗粒物(PM2.5),67,78,99,48,38,28,,,,18,23,8,6,0.8,0.7
2026-01-17T0500,1936A,107.2025,34.3518,宝鸡市,文理学院,,,97,92,41,43,22,,,,,30,4,5,0.5,0.6
2026-01-17T0500,1937A,107.2396,34.3626,宝鸡市,三迪小学,颗粒物(PM10),73,95,103,50,49,18,,,,32,38,4,5,0.6,0.5
2026-01-17T0500,4155A,107.1721,34.3558,宝鸡市,滨河北路,颗粒物(PM10),71,91,96,36,36,23,,,,22,28,5,6,0.5,0.5
2026-01-17T0500,4308A,107.3898,34.3601,宝鸡市,陈仓区北开路21号,细颗粒物(PM2.5),75,92,122,55,49,15,,,,50,46,7,22,0.6,0.4
2026-01-17T0500,1051A,115.4803,38.8568,保定市,游泳馆,细颗粒物(PM2.5),57,58,96,40,60,35,,,,29,38,1,3,0.4,0.7
2026-01-17T0500,1052A,115.509,38.8895,保定市,华电二区,细颗粒物(PM2.5),63,59,92,45,67,3,,,,48,39,3,4,0.4,0.7
2026-01-17T0500,1053A,115.4588,38.9037,保定市,接待中心,颗粒物(PM10),54,58,94,28,61,10,,,,38,38,1,3,0.2,0.6
2026-01-17T0500,1054A,115.4484,38.8344,保定市,地表水厂,颗粒物(PM10),62,74,119,36,66,42,,,,20,39,6,7,0.4,0.7
2026-01-17T0500,3581A,115.3136,38.9511,保定市,满城区生态环境分局,,34,34,112,9,65,32,,,,29,43,2,6,0.3,0.8
2026-01-17T0500,3582A,115.4709,38.7628,保定市,清苑区第二中学,颗粒物(PM10),67,84,125,39,59,35,,,,27,39,2,3,0.5,0.8
2026-01-17T0500,3583A,115.6231,39.0223,保定市,徐水物探局,,43,43,117,19,60,7,,,,42,37,2,5,0.5,0.8
2026-01-17T0500,4004A,115.4199,38.8665,保定市,双鹰农机,颗粒物(PM10),61,71,115,38,59,16,,,,42,35,5,7,0.4,0.7
2026-01-17T0500,4034A,115.515,38.8589,保定市,植保所站,细颗粒物(PM2.5),90,105,104,67,71,1,,,,59,42,2,2,0.9,0.9
2026-01-17T0500,2594A,99.1589,25.1137,保山市,市环境监测站,,20,20,25,13,16,52,,,,5,9,5,5,0.4,0.4
2026-01-17T0500,2595A,99.1616,25.1381,保山市,市环保局,,26,26,32,16,21,62,,,,3,6,4,4,0.3,0.4
2026-01-17T0500,1867A,109.1435,21.4085,北海市,海滩公园,,45,45,44,24,28,82,,,,10,9,8,6,0.7,0.7
2026-01-17T0500,1868A,109.0983,21.466,北海市,新市环保局,细颗粒物(PM2.5),52,44,46,36,36,88,,,,14,16,8,6,0.6,0.6
2026-01-17T0500,1869A,109.1775,21.5232,北海市,北海工业园,细颗粒物(PM2.5),68,61,55,49,36,61,,,,17,13,6,7,0.7,0.7
2026-01-17T0500,3400A,109.1844,21.4396,北海市,龙潭自来水厂,,48,35,40,33,33,29,,,,11,9,14,14,0.7,0.6
2026-01-17T0500,1001A,116.3611,39.8786,北京市,万寿西宫,,16,15,33,3,14,49,,,,17,19,2,3,0.3,0.4
2026-01-17T0500,1003A,116.4174,39.9289,北京市,东四,,16,12,30,3,13,49,,,,17,21,4,5,0.3,0.5
2026-01-17T0500,1004A,116.4073,39.8858,北京市,天坛,,16,12,31,3,14,49,,,,18,18,3,3,0.3,0.4
2026-01-17T0500,1005A,116.4622,39.9364,北京市,农展馆,,16,10,31,3,13,50,,,,16,17,5,5,0.3,0.4
2026-01-17T0500,1006A,116.3399,39.9293,北京市,官园,,17,13,33,3,13,54,,,,9,17,5,5,0.4,0.5
2026-01-17T0500,1007A,116.2879,39.9613,北京市,海淀万柳,,15,11,29,3,13,48,,,,18,23,3,3,0.4,0.5
2026-01-17T0500,1008A,116.6635,40.1349,北京市,顺义新城,,21,10,44,3,22,65,,,,7,15,4,4,0.3,0.5
2026-01-17T0500,1009A,116.6275,40.327,北京市,怀柔镇,,18,9,41,3,23,57,,,,7,18,5,5,0.3,0.5
2026-01-17T0500,1010A,116.2295,40.217,北京市,昌平镇,,22,13,21,3,8,19,,,,44,15,2,2,0.4,0.3
2026-01-17T0500,1011A,116.3968,39.982,北京市,奥体中心,,18,11,28,3,13,55,,,,17,25,4,4,0.5,0.5
2026-01-17T0500,3418A,116.8336,40.4095,北京市,密云新城,,20,8,31,3,16,62,,,,3,11,6,7,0.4,0.4
2026-01-17T0500,3671A,116.0879,39.9725,北京市,门头沟三家店,,15,14,29,6,12,46,,,,18,21,3,3,0.3,0.4
2026-01-17T0500,3672A,116.1507,39.8246,北京市,丰台云岗,,19,12,34,3,18,58,,,,11,17,2,3,0.3,0.4
2026-01-17T0500,3674A,115.9578,39.7602,北京市,房山燕山,,16,16,53,6,28,48,,,,16,21,4,5,0.2,0.4
2026-01-17T0500,3675A,116.4669,39.7734,北京市,大兴旧宫,,20,15,43,6,20,28,,,,39,25,3,3,0.4,0.6
2026-01-17T0500,3694A,115.9859,40.4562,北京市,延庆石河营,,19,10,18,3,8,58,,,,4,10,3,3,0.4,0.4
2026-01-17T0500,3695A,116.6151,40.3052,北京市,怀柔新城,,19,9,43,6,26,59,,,,6,14,5,4,0.3,0.5
2026-01-17T0500,3696A,116.2542,39.8764,北京市,丰台小屯,,15,12,33,3,15,47,,,,17,23,4,4,0.3,0.5
2026-01-17T0500,3697A,116.8399,40.3843,北京市,密云镇,,20,9,33,3,20,62,,,,7,15,3,3,0.3,0.5
2026-01-17T0500,4057A,115.9423,40.4431,北京市,延庆百泉,,18,11,24,3,11,55,,,,2,11,2,2,0.2,0.3
2026-01-17T0500,4058A,116.6598,39.9164,北京市,通州新华,,14,10,36,3,18,43,,,,18,25,2,2,0.4,0.5
2026-01-17T0500,4182A,116.1942,39.9158,北京市,石景山八角,,15,13,32,3,13,47,,,,11,16,3,2,0.1,0.3
2026-01-17T0500,4194A,117.078628,40.151726,北京市,平谷新城,,17,8,44,3,29,54,,,,2,12,1,1,0.2,0.4
2026-01-17T0500,1761A,123.8274146,41.31234549,本溪市,大峪,颗粒物(PM10),60,70,70,41,46,5,,,,49,37,6,8,1.2,1
2026-01-17T0500,1763A,123.7169,41.3094,本溪市,彩屯,颗粒物(PM10),51,52,72,20,51,34,,,,29,36,8,7,0.8,1.1
2026-01-17T0500,1764A,123.7672166,41.28649327,本溪市,东明,,38,38,59,23,47,24,,,,33,39,2,3,1.0,1.2
2026-01-17T0500,1765A,123.799345,41.266614,本溪市,新立屯,,36,36,53,22,41,21,,,,35,37,8,9,0.6,0.8
2026-01-17T0500,1766A,123.829144,41.336777,本溪市,威宁,细颗粒物(PM2.5),64,71,72,46,51,2,,,,46,44,6,6,1.2,1
2026-01-17T0500,2587A,105.287,27.3133,毕节市,八中,细颗粒物(PM2.5),137,117,115,104,101,20,,,,12,18,9,10,0.9,0.9
2026-01-17T0500,2588A,105.3079,27.2987,毕节市,师专,细颗粒物(PM2.5),150,135,118,115,102,15,,,,17,29,7,8,1.1,1.1
2026-01-17T0500,4263A,105.3688,27.3598,毕节市,工业大道,细颗粒物(PM2.5),143,166,144,109,101,7,,,,24,30,10,11,/,/
2026-01-17T0500,1629A,117.9961,37.3604,滨州市,第二水厂,,24,24,70,8,38,49,,,,9,16,7,8,0.7,0.9
2026-01-17T0500,1630A,117.9789,37.3931,滨州市,北中新校,,34,34,75,12,40,48,,,,14,20,4,5,0.3,0.5
2026-01-17T0500,3514A,117.9379,37.3959,滨州市,中海酒店,,24,24,67,14,43,48,,,,10,16,6,7,0.4,0.6
2026-01-17T0500,3515A,117.9381509,37.35547456,滨州市,开发区一中,,29,29,72,9,40,56,,,,10,15,10,10,0.3,0.5
2026-01-17T0500,3516A,118.0914,37.6938,滨州市,金海六路,,22,22,56,9,28,58,,,,6,12,3,2,0.2,0.4
2026-01-17T0500,4028A,117.9955,37.3752,滨州市,滨州市西街道办事处,,22,22,70,14,43,55,,,,11,16,7,8,0.3,0.6
2026-01-17T0500,2311A,115.8071,33.8399,亳州市,污水处理厂,颗粒物(PM10),76,102,158,53,85,43,,,,19,33,3,5,0.4,0.5
2026-01-17T0500,2312A,115.7789,33.8519,亳州市,三国揽胜宫,颗粒物(PM10),89,128,169,61,90,42,,,,17,31,2,4,0.5,0.6
2026-01-17T0500,3332A,115.7631,33.803,亳州市,亳州学院,颗粒物(PM10),81,112,150,54,87,44,,,,18,31,4,5,0.6,0.7
2026-01-17T0500,2693A,82.0482,44.8553,博尔塔拉蒙古自治州,市党校,,24,24,50,12,10,73,,,,16,16,4,3,0,0.2
2026-01-17T0500,2694A,82.0805,44.8966,博尔塔拉蒙古自治州,市环保局,,44,44,47,23,21,62,,,,5,10,6,5,0.0,0.4
2026-01-17T0500,1071A,116.8733,38.2922,沧州市,沧县城建局,细颗粒物(PM2.5),58,59,77,41,49,8,,,,56,30,5,5,0.6,0.6
2026-01-17T0500,1072A,116.8462,38.3189,沧州市,电视转播站,细颗粒物(PM2.5),62,68,78,44,43,0,,,,60,31,3,3,0.6,0.6
2026-01-17T0500,1073A,116.8588,38.3161,沧州市,市环保局,颗粒物(PM10),61,71,81,42,49,3,,,,50,25,4,5,0.6,0.6
2026-01-17T0500,3324A,116.8011,38.294,沧州市,河北水利电力学院,,49,46,74,34,40,32,,,,33,24,2,3,0.3,0.5
2026-01-17T0500,2622A,97.1813,31.1289,昌都市,昌都监测站,,17,6,40,3,16,54,,,,3,20,2,3,0.2,0.6
2026-01-17T0500,3719A,97.1707,31.1428,昌都市,昌都会议中心,,15,6,13,3,14,46,,,,1,3,1,1,0.3,0.4
2026-01-17T0500,2692A,87.2722,44.0298,昌吉回族自治州,新区政务中心,,21,9,21,9,11,67,,,,8,13,9,9,0.2,0.3
2026-01-17T0500,3613A,87.3069,44.0093,昌吉回族自治州,亚心广场,,21,14,22,9,10,67,,,,2,7,8,8,0.3,0.4
2026-01-17T0500,4164A,87.2057,43.9289,昌吉回族自治州,财政所,,30,23,40,21,30,58,,,,8,13,7,6,0.3,0.4
2026-01-17T0500,1120A,125.2874,43.9024,长春市,客车厂,细颗粒物(PM2.5),78,,67,57,72,30,,,,30,45,12,14,0.4,0.7
2026-01-17T0500,1121A,125.2943,43.8508,长春市,邮电学院,,36,34,64,25,63,34,,,,25,43,22,14,0.5,0.8
2026-01-17T0500,1122A,125.3648,43.8745,长春市,劳动公园,,44,44,72,16,66,36,,,,23,45,9,16,0.5,0.7
2026-01-17T0500,1123A,125.3233,43.8781,长春市,园林处,,42,42,65,25,58,35,,,,22,37,9,13,0.4,0.7
2026-01-17T0500,1124A,125.4604,43.7904,长春市,净月潭,,,46,74,34,60,18,,,,,34,4,7,0.5,0.8
2026-01-17T0500,1126A,125.38,43.8422,长春市,经开区环卫处,,35,35,68,20,57,36,,,,25,47,5,9,0.4,0.8
2026-01-17T0500,1127A,125.234,43.7761,长春市,高新区管委会,,40,40,74,20,72,38,,,,22,50,6,8,0.3,0.7
2026-01-17T0500,1128A,125.1695,43.83,长春市,岱山公园,,34,34,86,22,77,43,,,,17,45,5,8,0.4,0.8
2026-01-17T0500,4281A,125.334645,43.916281,长春市,北亚泰大街1068号,,35,35,60,18,61,34,,,,26,42,10,12,0.4,0.8
2026-01-17T0500,1335A,113.082,28.2421,长沙市,经开区环保局,细颗粒物(PM2.5),183,,121,138,100,10,,,,,71,4,7,0.8,1.1
2026-01-17T0500,1336A,112.8873,28.2202,长沙市,高开区环保局,细颗粒物(PM2.5),217,,113,167,106,29,,,,19,61,5,8,0.8,1
2026-01-17T0500,1337A,113.0785,28.2012,长沙市,马坡岭,,,105,132,3,83,10,,,,,75,6,11,0.8,1
2026-01-17T0500,1338A,112.9448,28.1894,长沙市,湖南师范大学,细颗粒物(PM2.5),139,141,112,106,77,28,,,,37,76,4,6,0.9,1
2026-01-17T0500,1339A,113.0177,28.1322,长沙市,雨花区环保局,细颗粒物(PM2.5),160,,106,122,94,18,,,,,64,8,11,1.1,1.1
2026-01-17T0500,1340A,112.9795,28.2593,长沙市,伍家岭,细颗粒物(PM2.5),178,140,149,134,99,26,,,,,74,6,7,0.7,1
2026-01-17T0500,1341A,113.002,28.1944,长沙市,火车新站,细颗粒物(PM2.5),147,114,135,112,95,17,,,,,85,23,18,1.0,1.2
2026-01-17T0500,1342A,112.9846,28.1177,长沙市,天心区环保局,细颗粒物(PM2.5),134,112,110,102,83,7,,,,60,65,6,8,0.9,0.9
2026-01-17T0500,1343A,112.8906,28.1307,长沙市,湖南中医药大学,细颗粒物(PM2.5),140,136,111,107,80,29,,,,30,63,6,7,1.0,1.1
2026-01-17T0500,1727A,113.1146,36.1547,长治市,清华站,,,70,87,61,53,46,,,,,35,13,20,1.3,1.1
2026-01-17T0500,1730A,113.0887,36.2126,长治市,审计局,细颗粒物(PM2.5),85,68,90,63,55,50,,,,16,31,12,22,1.1,1
2026-01-17T0500,1731A,113.0845,36.1856,长治市,长治八中,颗粒物(PM10),66,82,116,47,61,47,,,,17,29,10,21,1.1,1
2026-01-17T0500,2845A,113.1561,36.1912,长治市,德盛苑,,,71,82,53,54,48,,,,,27,8,17,0.9,1
2026-01-17T0500,3568A,113.0603,36.0464,长治市,向阳小学,细颗粒物(PM2.5),75,86,118,55,61,41,,,,24,36,10,22,1.1,1.3
2026-01-17T0500,3569A,112.8788,36.315,长治市,屯留一中,颗粒物(PM10),63,75,93,40,45,50,,,,18,31,13,13,1.4,1.1
2026-01-17T0500,4189A,113.113092,36.199482,长治市,英华南巷50号,细颗粒物(PM2.5),73,75,102,53,54,45,,,,17,37,8,19,1.0,1.2
2026-01-17T0500,4190A,113.23666,36.33435,长治市,学府街1号,,,62,95,48,62,55,,,,,36,13,34,1.2,1.6
2026-01-17T0500,1854A,111.696,28.9725,常德市,市二中,细颗粒物(PM2.5),124,141,151,94,118,74,,,,,24,10,9,0.8,1
2026-01-17T0500,3138A,111.7152,29.0288,常德市,武陵区永安,细颗粒物(PM2.5),118,151,158,89,117,72,,,,,22,9,10,0.9,1
2026-01-17T0500,3139A,111.6891,28.9881,常德市,鼎城区玉霞,细颗粒物(PM2.5),120,145,147,91,119,75,,,,,23,12,11,0.7,0.9
2026-01-17T0500,3140A,111.6651,29.0526,常德市,武陵区长庚,细颗粒物(PM2.5),115,140,160,87,124,71,,,,,25,8,9,0.7,0.9
2026-01-17T0500,1196A,119.9524,31.7586,常州市,市监测站,细颗粒物(PM2.5),160,196,174,122,121,126,,,,13,68,4,8,1.0,1.3
2026-01-17T0500,1200A,119.9351,31.703,常州市,武进监测站,细颗粒物(PM2.5),153,176,164,117,119,125,,,,15,57,10,16,0.7,0.8
2026-01-17T0500,3002A,119.9701,31.813,常州市,行政中心,细颗粒物(PM2.5),155,171,149,118,109,134,,,,13,59,4,10,1.0,1.1
2026-01-17T0500,3003A,120.0434,31.7726,常州市,经开区,细颗粒物(PM2.5),160,204,185,122,116,128,,,,16,68,4,12,1.1,1.1
2026-01-17T0500,3010A,119.8919,31.7892,常州市,钟楼,细颗粒物(PM2.5),160,170,155,122,112,124,,,,8,50,6,10,0.8,0.9
2026-01-17T0500,3429A,119.8595,31.706,常州市,武进经发区,细颗粒物(PM2.5),198,166,164,148,131,134,,,,12,68,3,9,1.1,1.1
2026-01-17T0500,3430A,119.5812,31.7256,常州市,金坛城区,细颗粒物(PM2.5),196,184,179,147,138,123,,,,11,43,6,12,,1.1
2026-01-17T0500,4089A,119.9551,31.863,常州市,崇义南街5-H号,细颗粒物(PM2.5),182,152,140,137,119,134,,,,15,62,4,9,1.1,1.3
2026-01-17T0500,2220A,120.4318,41.588,朝阳市,西梁,,38,38,35,18,12,18,,,,28,12,11,8,0.7,0.4
2026-01-17T0500,2221A,120.452,41.565,朝阳市,河畔小区,,29,23,30,20,12,38,,,,26,12,6,8,0.7,0.5
2026-01-17T0500,2222A,120.4176,41.5648,朝阳市,八里堡,,,33,36,21,14,27,,,,,12,7,7,0.8,0.4
2026-01-17T0500,3026A,116.6179,23.6608,潮州市,市政府,细颗粒物(PM2.5),63,63,76,45,42,52,,,,28,34,9,13,0.5,0.6
2026-01-17T0500,4036A,116.646,23.676,潮州市,金山,细颗粒物(PM2.5),54,49,61,38,41,57,,,,14,19,4,5,0.5,0.5
2026-01-17T0500,2473A,113.0116,25.8228,郴州市,市职中,细颗粒物(PM2.5),103,93,79,77,58,0,,,,41,37,6,9,1.0,0.8
2026-01-17T0500,2475A,113.0381,25.8074,郴州市,市审计局,细颗粒物(PM2.5),107,98,79,80,57,6,,,,41,40,2,7,/,/
2026-01-17T0500,2476A,113.0348,25.7757,郴州市,市环保局,细颗粒物(PM2.5),103,119,81,77,52,0,,,,56,39,6,9,0.6,0.5
2026-01-17T0500,4252A,113.0138,25.8011,郴州市,好美居路49号,细颗粒物(PM2.5),90,82,69,67,54,4,,,,49,47,6,8,/,/
2026-01-17T0500,1431A,103.9727,30.7242,成都市,金泉两河,细颗粒物(PM2.5),134,130,118,102,92,1,,,,70,69,3,5,1.5,1.4
2026-01-17T0500,1432A,104.1423,30.6765,成都市,十里店,细颗粒物(PM2.5),159,152,144,121,109,4,,,,91,70,4,5,1.6,1.3
2026-01-17T0500,1433A,104.0594,30.5765,成都市,三瓦窑,细颗粒物(PM2.5),163,154,151,124,128,4,,,,80,84,5,6,1.1,1.5
2026-01-17T0500,1434A,104.1122,30.6306,成都市,沙河铺,细颗粒物(PM2.5),190,157,141,143,127,3,,,,74,78,2,3,1.3,1.4
2026-01-17T0500,2880A,104.0219,30.6561,成都市,大石西路,细颗粒物(PM2.5),148,150,139,113,96,0,,,,80,73,6,7,1.4,1.3
2026-01-17T0500,3136A,104.2724,30.559,成都市,龙泉驿区区政府,细颗粒物(PM2.5),113,100,109,85,90,73,,,,17,27,14,7,0.8,0.9
2026-01-17T0500,3357A,104.0028,30.6891,成都市,金博路,细颗粒物(PM2.5),148,136,126,113,97,1,,,,81,78,6,8,1.5,1.6
2026-01-17T0500,3359A,104.056,30.5228,成都市,华阳,细颗粒物(PM2.5),134,124,143,102,110,1,,,,67,80,3,5,1.4,1.5
2026-01-17T0500,3488A,104.387954,30.746684,成都市,青石路225号,细颗粒物(PM2.5),135,127,134,103,105,2,,,,62,58,3,4,0.9,1
2026-01-17T0500,3489A,104.0788,30.4054,成都市,科学城,细颗粒物(PM2.5),110,110,121,83,99,3,,,,41,48,6,8,1.0,1
2026-01-17T0500,4011A,103.8505,30.6946,成都市,光华大道三段,细颗粒物(PM2.5),158,153,135,120,97,9,,,,,60,3,7,0.8,0.9
2026-01-17T0500,4144A,104.3257,30.6406,成都市,八角井街185号,细颗粒物(PM2.5),117,114,131,88,91,56,,,,24,33,4,4,0.9,0.8
2026-01-17T0500,4224A,104.2433276,30.53529463,成都市,鲸龙路1057号,细颗粒物(PM2.5),165,144,118,125,106,32,,,,55,54,14,6,0.9,1
2026-01-17T0500,1062A,117.9531,40.908,承德市,铁路,,35,26,41,24,19,34,,,,16,12,4,5,0.5,0.4
2026-01-17T0500,1063A,117.9397,40.9763,承德市,中国银行,,37,37,40,8,15,38,,,,9,8,1,2,0.3,0.4
2026-01-17T0500,4073A,117.9462,40.95,承德市,杏林街1号,,28,,35,19,20,44,,,,11,8,3,4,0.4,0.4
2026-01-17T0500,4274A,117.7994,40.9605,承德市,滨河大街98号,,21,21,39,9,17,48,,,,9,14,2,3,0.2,0.3
2026-01-17T0500,2314A,117.4698,30.6617,池州市,池州学院,细颗粒物(PM2.5),206,200,100,156,76,28,,,,50,55,6,10,1.0,1.1
2026-01-17T0500,3237A,117.4918,30.6617,池州市,展览馆,细颗粒物(PM2.5),189,184,91,142,62,24,,,,,57,3,5,1.1,1.3
2026-01-17T0500,3333A,117.5626,30.695,池州市,第八中学,细颗粒物(PM2.5),215,218,92,165,68,37,,,,,52,5,9,1.4,1.2
2026-01-17T0500,3334A,117.5037,30.6242,池州市,第十二中学,细颗粒物(PM2.5),195,214,101,146,61,28,,,,47,64,4,6,1.1,1.3
2026-01-17T0500,1744A,118.9229,42.2816,赤峰市,松山一中,,26,26,22,9,9,45,,,,17,18,5,6,0.6,0.6
2026-01-17T0500,1745A,118.9588,42.2733,赤峰市,哈达街,,18,18,23,8,16,36,,,,22,17,5,6,0.8,0.7
2026-01-17T0500,1746A,118.8792,42.2551,赤峰市,天义路,,20,16,20,14,18,44,,,,12,15,6,7,0.7,0.6
2026-01-17T0500,3058A,119.2656,42.0356,赤峰市,银河街,,38,38,32,19,14,36,,,,16,8,13,12,1.0,0.6
2026-01-17T0500,3286A,118.9359,42.3146,赤峰市,桥北物流园区,,19,17,30,11,13,58,,,,9,13,3,5,0.4,0.5
2026-01-17T0500,2521A,107.3473,22.4137,崇左市,市环保局江州分局,细颗粒物(PM2.5),102,119,101,76,65,37,,,,22,24,9,9,1.1,0.9
2026-01-17T0500,4256A,107.375,22.3736,崇左市,石景林东路7号,细颗粒物(PM2.5),104,86,81,78,68,40,,,,21,27,8,9,0.8,0.7
2026-01-17T0500,3207A,118.31131,32.3033,滁州市,市政府原办公楼,细颗粒物(PM2.5),142,161,144,108,101,87,,,,14,52,4,9,0.7,0.9
2026-01-17T0500,3331A,118.3268,32.2633,滁州市,图书馆,细颗粒物(PM2.5),150,163,140,115,91,77,,,,13,49,8,13,0.8,1
2026-01-17T0500,4101A,118.3196,32.3335,滁州市,银山路666号,细颗粒物(PM2.5),179,140,137,135,117,86,,,,13,45,2,14,0.8,0.9
2026-01-17T0500,4102A,118.3426,32.2979,滁州市,黄山路555号,细颗粒物(PM2.5),178,175,159,134,118,81,,,,,62,15,19,1.0,1.2
2026-01-17T0500,2606A,101.5379,25.0492,楚雄彝族自治州,市经济开发区,,39,34,32,27,20,20,,,,22,18,4,7,0.4,0.6
2026-01-17T0500,4153A,101.5536,25.0343,楚雄彝族自治州,团结路562号,,30,24,25,21,16,12,,,,31,18,3,4,0.4,0.4
2026-01-17T0500,2549A,107.5087,31.2186,达州市,市环境监测站,细颗粒物(PM2.5),144,148,135,110,101,5,,,,26,40,5,8,0.8,0.9
2026-01-17T0500,2550A,107.4988,31.2132,达州市,凤凰小区,细颗粒物(PM2.5),149,146,139,114,105,3,,,,29,45,4,7,0.8,1.1
2026-01-17T0500,2551A,107.5081,31.1987,达州市,达县机关宾馆,细颗粒物(PM2.5),182,173,151,137,107,2,,,,28,52,2,6,1.1,1.3
2026-01-17T0500,2552A,107.4644,31.2124,达州市,市政中心,细颗粒物(PM2.5),153,150,154,117,108,5,,,,,49,6,8,0.9,1.1
2026-01-17T0500,2614A,100.2168,25.5818,大理白族自治州,大理市环境监测站,,20,20,21,14,17,61,,,,7,8,6,6,0.4,0.5
2026-01-17T0500,2615A,100.1542,25.7055,大理白族自治州,大理古城,,30,,22,21,17,56,,,,4,13,8,8,0.6,0.6
2026-01-17T0500,1109A,121.6119,38.974,大连市,甘井子,,,22,55,10,37,60,,,,,25,8,7,0.4,0.4
2026-01-17T0500,1110A,121.565,38.9509,大连市,周水子,,32,32,60,10,36,55,,,,10,20,13,10,0.4,0.6
2026-01-17T0500,1111A,121.5637,38.8849,大连市,星海三站,,,29,53,3,31,53,,,,,23,9,7,0.5,0.8
2026-01-17T0500,1112A,121.6301,38.9117,大连市,青泥洼桥,,18,18,54,10,38,55,,,,11,24,8,9,0.5,0.7
2026-01-17T0500,1113A,121.6248,38.8643,大连市,傅家庄,,27,27,55,9,34,51,,,,13,25,8,10,0.4,0.6
2026-01-17T0500,1114A,121.5117,38.8636,大连市,七贤岭,,34,34,60,11,33,51,,,,10,18,6,7,0.5,0.7
2026-01-17T0500,1116A,121.7507,39.1339,大连市,金州,,20,20,50,8,37,62,,,,8,24,6,11,0.4,0.6
2026-01-17T0500,1117A,121.7811,39.0495,大连市,开发区,,28,28,61,8,36,58,,,,7,17,5,7,0.5,0.7
2026-01-17T0500,1118A,121.9762,39.0631,大连市,双D港,,21,20,57,7,36,65,,,,8,19,7,9,0.2,0.5
2026-01-17T0500,4082A,121.2548,38.8188,大连市,旅顺,,22,22,46,9,25,55,,,,7,12,7,7,0.6,0.6
2026-01-17T0500,1789A,124.8085,46.0381,大庆市,大同区,,34,34,50,11,35,39,,,,22,21,5,7,0.6,0.7
2026-01-17T0500,1790A,125.1166,46.5255,大庆市,龙凤区,,,38,49,27,33,51,,,,,35,25,13,0.2,0.5
2026-01-17T0500,1791A,124.8894,46.4007,大庆市,红岗区,,26,26,36,17,25,31,,,,34,25,3,6,0.3,0.5
2026-01-17T0500,1792A,125.1391,46.578,大庆市,萨尔图区,,22,22,46,8,30,56,,,,7,25,9,10,0.4,0.6
2026-01-17T0500,1793A,124.9026,46.6217,大庆市,让胡路区,,35,,44,24,33,62,,,,5,17,8,10,0.5,0.6
2026-01-17T0500,3481A,125.127,46.6277,大庆市,萨区政府监测点,,22,22,43,3,22,51,,,,11,25,9,9,0.5,0.7
2026-01-17T0500,1723A,113.2926,40.0759,大同市,云冈宾馆,,33,31,31,23,15,33,,,,17,15,11,8,0.8,0.8
2026-01-17T0500,1724A,113.3437,40.0921,大同市,大同大学,细颗粒物(PM2.5),58,,27,41,21,39,,,,13,12,9,5,0.6,0.6
2026-01-17T0500,1725A,113.2637,40.129,大同市,安家小村,,49,49,38,20,16,9,,,,36,26,11,9,1.7,0.7
2026-01-17T0500,3282A,113.3399,40.0586,大同市,大同市卫生学校,,49,,26,34,35,36,,,,17,15,6,5,0.5,0.5
2026-01-17T0500,3565A,113.1371,40.1122,大同市,云冈站,颗粒物(PM10),56,62,38,24,16,1,,,,41,26,14,9,1.1,0.8
2026-01-17T0500,3566A,113.1186,40.2556,大同市,图书馆,,44,44,42,27,20,18,,,,18,15,6,6,1.2,0.7
2026-01-17T0500,3567A,113.5931,40.0459,大同市,区一中,,21,19,29,10,16,66,,,,8,12,3,2,0.3,0.4
2026-01-17T0500,4199A,113.2798248,40.09972476,大同市,魏都大道141号,,40,40,36,23,17,24,,,,33,22,8,7,1.3,0.8
2026-01-17T0500,2269A,124.1068,50.4091,大兴安岭地区,科技局,,16,14,15,10,12,51,,,,1,2,5,5,0.2,0.2
2026-01-17T0500,3663A,124.117,50.4279,大兴安岭地区,红旗社区,,16,7,6,3,4,51,,,,3,3,4,5,0.2,0.2
2026-01-17T0500,1600A,124.33,40.0625,丹东市,江湾东路,,,20,54,12,44,60,,,,,21,6,7,0.4,0.8
2026-01-17T0500,1601A,124.4242,40.1513,丹东市,临江后街,,20,20,56,11,41,63,,,,7,22,3,9,0.5,0.9
2026-01-17T0500,1602A,124.3935,40.1461,丹东市,元宝山,,22,22,54,13,43,62,,,,6,21,7,9,0.4,0.8
2026-01-17T0500,1603A,124.3634,40.1093,丹东市,民主桥,,,16,55,3,36,61,,,,,22,9,8,0.6,1
2026-01-17T0500,3541A,109.5726195,19.51688767,儋州市,第一中学子站,,32,30,41,22,26,70,,,,5,6,4,5,0.5,0.6
2026-01-17T0500,3542A,109.5567,19.5187,儋州市,东坡学校子站,,35,35,39,19,22,52,,,,9,6,5,4,0.6,0.6
2026-01-17T0500,2616A,98.5611,24.4273,德宏傣族景颇族自治州,德宏州监测站,,49,43,50,34,35,10,,,,30,20,6,6,0.6,0.7
2026-01-17T0500,3677A,98.5887,24.4366,德宏傣族景颇族自治州,芒市人民政府综合楼,,29,28,51,20,29,33,,,,8,14,4,4,0.5,0.7
2026-01-17T0500,1901A,104.424,31.1209,德阳市,东山公园,细颗粒物(PM2.5),98,88,88,73,75,14,,,,59,29,7,8,0.8,0.8
2026-01-17T0500,1902A,104.3827,31.1318,德阳市,西小区,细颗粒物(PM2.5),112,113,130,84,95,2,,,,49,59,6,7,1.3,1.4
2026-01-17T0500,1904A,104.3553,31.1091,德阳市,耐火材料厂,细颗粒物(PM2.5),125,107,114,95,96,1,,,,64,51,5,5,1.6,1.1
2026-01-17T0500,4145A,104.4144,31.1495,德阳市,市林业局,细颗粒物(PM2.5),100,88,97,75,80,0,,,,50,58,3,4,0.6,0.7
2026-01-17T0500,1622A,116.3034,37.4675,德州市,儿童乐园,,,46,93,27,47,43,,,,,22,13,11,0.7,0.9
2026-01-17T0500,1624A,116.2992,37.4449,德州市,监理站,,,44,83,24,43,52,,,,,22,10,10,0.7,0.8
2026-01-17T0500,3066A,116.2722,37.438,德州市,九衢泉纯净水厂,,44,44,86,27,47,46,,,,17,19,5,6,0.6,0.8
2026-01-17T0500,3371A,116.3693,37.44,德州市,开发区人民医院,,,48,88,31,43,41,,,,,27,12,11,0.6,0.6
2026-01-17T0500,3511A,116.5687,37.3331,德州市,陵城艺术中心,,44,44,85,27,44,35,,,,26,26,14,13,0.8,0.9
2026-01-17T0500,4292A,116.352738,37.420875,德州市,新河东路,,41,41,85,27,46,46,,,,18,20,12,11,0.8,0.9
2026-01-17T0500,2621A,99.7054,27.8319,迪庆藏族自治州,迪庆州站,,18,,30,12,19,39,,,,6,12,4,5,0.2,0.4
2026-01-17T0500,3180A,99.7122,27.8129,迪庆藏族自治州,质量技术监督局,,18,18,30,12,22,42,,,,10,14,4,4,0.4,0.5
2026-01-17T0500,4257A,104.6092,35.5962,定西市,将台街,颗粒物(PM10),61,71,90,37,39,60,,,,25,24,14,15,0.7,0.6
2026-01-17T0500,4309A,104.6159,35.5701,定西市,正龙路62号,颗粒物(PM10),67,84,95,38,36,74,,,,8,9,11,10,0.8,0.6
2026-01-17T0500,1390A,113.7943,23.0132,东莞市,东城石井,,,,88,40,54,35,,,,51,71,,8,0.6,0.7
2026-01-17T0500,1391A,113.7384,22.9659,东莞市,南城西平,,,105,102,56,61,1,,,,,92,7,8,0.9,0.9
2026-01-17T0500,3319A,113.7283,23.041,东莞市,万江金泰,细颗粒物(PM2.5),102,132,118,76,75,6,,,,128,83,18,10,1.3,1.2
2026-01-17T0500,4129A,113.8666,23.1062,东莞市,裕兴路,"颗粒物(PM10),细颗粒物(PM2.5)",97,144,116,72,54,19,,,,74,72,8,10,0.9,0.9
2026-01-17T0500,4130A,114.0076,22.9739,东莞市,教育路1号,颗粒物(PM10),88,125,101,62,55,7,,,,103,66,7,7,0.8,0.8
2026-01-17T0500,4131A,113.7981,22.8124,东莞市,长怡路1号,颗粒物(PM10),67,83,96,37,51,1,,,,105,84,5,7,0.9,1
2026-01-17T0500,1666A,118.6612,37.4313,东营市,市环保局,,22,17,60,3,29,68,,,,15,21,7,7,0.4,0.5
2026-01-17T0500,3036A,118.6903,37.4337,东营市,开发区管委会,,22,19,62,3,32,68,,,,4,11,8,8,0.1,0.3
2026-01-17T0500,3365A,118.5721,37.5654,东营市,垦利区民丰路,,24,24,62,3,32,60,,,,11,17,2,2,0.2,0.6
2026-01-17T0500,3498A,118.5063,37.8606,东营市,河口城区,,31,31,56,3,23,66,,,,11,17,3,5,0.8,0.8
2026-01-17T0500,3646A,118.4979,37.4623,东营市,胜利站,,34,34,66,7,32,61,,,,10,19,10,10,0.5,0.7
2026-01-17T0500,3734A,118.5753,37.4405,东营市,理想之城,,31,31,63,12,36,57,,,,8,18,3,4,0.3,0.6
2026-01-17T0500,1591A,110.0024,39.8127,鄂尔多斯市,综合楼,颗粒物(PM10),64,78,68,24,19,32,,,,38,36,15,11,0.6,0.6
2026-01-17T0500,1592A,109.9485,39.8259,鄂尔多斯市,巴音孟克林场办事处,颗粒物(PM10),59,68,59,22,18,38,,,,30,30,15,12,0.7,0.6
2026-01-17T0500,1593A,109.7734,39.5987,鄂尔多斯市,康泽苑,,,100,65,39,22,7,,,,,33,12,8,0.9,0.6
2026-01-17T0500,1594A,109.8121,39.5987,鄂尔多斯市,华泰汽车城,颗粒物(PM10),69,88,64,27,18,1,,,,53,35,7,8,0.6,0.4
2026-01-17T0500,1595A,109.9734,39.7884,鄂尔多斯市,奥林花园,颗粒物(PM10),59,68,62,24,14,27,,,,42,38,14,10,0.8,0.7
2026-01-17T0500,2436A,114.894,30.3989,鄂州市,市政府,细颗粒物(PM2.5),163,171,116,124,96,26,,,,31,53,5,9,0.6,0.7
2026-01-17T0500,2437A,114.8986,30.3714,鄂州市,赵家坝,细颗粒物(PM2.5),170,188,123,129,92,28,,,,22,40,8,12,0.8,0.9
2026-01-17T0500,3654A,114.8093,30.4091,鄂州市,精准医疗中心,细颗粒物(PM2.5),176,166,130,133,102,33,,,,29,57,4,29,0.9,1.3
2026-01-17T0500,2454A,109.4978,30.2979,恩施土家族苗族自治州,湖北民院,细颗粒物(PM2.5),175,,136,132,154,3,,,,19,25,6,6,1.2,2.3
2026-01-17T0500,3549A,109.5061,30.3771,恩施土家族苗族自治州,龙凤新区,细颗粒物(PM2.5),170,145,159,129,138,0,,,,12,22,7,7,1.0,1.2
2026-01-17T0500,2499A,108.3411,21.6159,防城港市,沙万,细颗粒物(PM2.5),64,71,70,46,37,24,,,,52,38,12,9,1.0,0.9
2026-01-17T0500,2500A,108.3515,21.7733,防城港市,防城档案局,细颗粒物(PM2.5),67,56,64,48,42,49,,,,17,17,6,6,0.7,0.7
2026-01-17T0500,2501A,108.3506,21.6414,防城港市,大海花园,细颗粒物(PM2.5),57,56,59,40,36,43,,,,34,27,7,11,0.6,0.8
2026-01-17T0500,1371A,113.1293,23.0065,佛山市,湾梁,颗粒物(PM10),64,78,126,34,57,12,,,,92,88,/,/,/,/
2026-01-17T0500,1372A,113.1082,23.0477,佛山市,华材职中,颗粒物(PM10),60,70,157,40,73,67,,,,39,88,6,7,0.7,1
2026-01-17T0500,1373A,113.1439,23.045,佛山市,南海气象局,,,,114,,72,,,202,,,91,,,,
2026-01-17T0500,1374A,113.2879,22.8094,佛山市,顺德苏岗,细颗粒物(PM2.5),64,62,95,46,68,23,,,,50,79,/,/,0.9,1
2026-01-17T0500,1376A,112.8384,22.8678,佛山市,高明孔堂,细颗粒物(PM2.5),69,65,95,50,70,116,,,,26,48,/,/,/,/
2026-01-17T0500,1377A,112.8835,23.1584,佛山市,三水监测站,细颗粒物(PM2.5),178,210,171,134,102,3,,,,,111,10,4,0.9,1
2026-01-17T0500,1378A,112.8668,23.185,佛山市,三水云东海,细颗粒物(PM2.5),176,,138,133,95,20,,,,75,85,/,/,/,/
2026-01-17T0500,3625A,113.2568,22.7629,佛山市,容桂街道办,细颗粒物(PM2.5),79,70,118,58,83,60,,,,45,76,/,/,/,/
2026-01-17T0500,1282A,119.2681,26.0506,福州市,师大,,47,47,57,28,32,33,,,,45,40,4,6,0.6,0.6
2026-01-17T0500,1283A,119.2983,26.1028,福州市,五四北路,,43,43,53,30,30,39,,,,33,43,5,6,0.6,0.7
2026-01-17T0500,1284A,119.2648,26.0769,福州市,杨桥西路,,50,50,52,32,30,17,,,,46,30,4,6,/,/
2026-01-17T0500,3048A,119.5799,26.0937,福州市,九龙,,29,29,36,18,22,57,,,,25,24,5,6,0.6,0.7
2026-01-17T0500,3526A,119.5188,25.9666,福州市,吴航,颗粒物(PM10),55,60,54,37,30,22,,,,63,38,7,7,0.7,0.7
2026-01-17T0500,4104A,119.3106,26.0648,福州市,路通桥巷6号,细颗粒物(PM2.5),53,46,55,37,37,35,,,,29,33,/,/,/,/
2026-01-17T0500,1755A,123.7974,41.8494,抚顺市,望花区,细颗粒物(PM2.5),92,,65,68,53,3,,,,52,36,1,5,1.3,1
2026-01-17T0500,1756A,123.9161,41.8827,抚顺市,顺城区,细颗粒物(PM2.5),104,101,72,78,56,5,,,,56,40,8,9,1.5,1.2
2026-01-17T0500,1757A,124.0437,41.8615,抚顺市,东洲区,细颗粒物(PM2.5),127,138,78,96,56,8,,,,39,32,61,17,1.6,1
2026-01-17T0500,1758A,123.9246,41.8638,抚顺市,新抚区,细颗粒物(PM2.5),114,165,73,86,53,6,,,,58,40,7,7,1.6,1.1
2026-01-17T0500,1759A,124.0972,41.8961,抚顺市,大伙房水库,,,60,58,47,47,30,,,,,23,9,10,1.2,1
2026-01-17T0500,1760A,123.708,41.8386,抚顺市,沈抚新城,,,,79,61,68,10,,,,,38,6,9,1.5,1.5
2026-01-17T0500,2377A,116.3544,27.9833,抚州市,市站,细颗粒物(PM2.5),82,81,85,60,58,67,,,,16,31,10,17,0.6,0.8
2026-01-17T0500,2378A,116.3562,27.9631,抚州市,血防站,,,78,77,64,54,70,,,,,38,8,16,1.4,1.3
2026-01-17T0500,2379A,116.3561,28.0007,抚州市,采茶剧团,细颗粒物(PM2.5),89,81,90,66,64,59,,,,16,35,7,14,1.2,1.3
2026-01-17T0500,2380A,116.3854,27.9648,抚州市,医学分院,细颗粒物(PM2.5),82,90,83,60,49,63,,,,10,22,9,17,0.9,0.9
2026-01-17T0500,2207A,121.6095,41.9978,阜新市,工业园区,,18,15,22,6,11,57,,,,10,9,11,9,0.3,0.4
2026-01-17T0500,2208A,121.6567,42.0188,阜新市,长青街,,19,13,14,7,11,60,,,,6,8,6,7,0.3,0.4
2026-01-17T0500,2209A,121.6672,42.07,阜新市,农业园区,,19,19,22,7,11,53,,,,9,9,9,8,0.3,0.3
2026-01-17T0500,2211A,121.6343,42.0455,阜新市,玉龙新城,,23,23,21,6,8,54,,,,9,10,6,7,0.4,0.4
2026-01-17T0500,2301A,115.8276,32.8929,阜阳市,市监测站,细颗粒物(PM2.5),133,153,158,101,94,23,,,,33,44,5,6,0.8,0.8
2026-01-17T0500,2303A,115.8551,32.8606,阜阳市,开发区,细颗粒物(PM2.5),128,147,157,97,87,28,,,,27,41,4,6,0.8,0.8
2026-01-17T0500,2875A,115.783962,32.889217,阜阳市,阜阳职业技术学院,细颗粒物(PM2.5),125,154,144,95,84,29,,,,22,28,6,8,0.9,0.8
2026-01-17T0500,3468A,115.79,32.8614,阜阳市,市规划展馆,细颗粒物(PM2.5),143,182,149,109,95,30,,,,22,31,6,8,1.0,0.8
2026-01-17T0500,3469A,115.835101,32.918568,阜阳市,枣园社区,细颗粒物(PM2.5),143,170,157,109,98,23,,,,,42,4,6,1.0,0.9
2026-01-17T0500,2669A,102.9097,34.9841,甘南藏族自治州,州政府,,49,49,52,29,29,3,,,,39,33,12,11,1.7,1
2026-01-17T0500,3380A,102.8915,34.9618,甘南藏族自治州,甘肃民族师范学院,颗粒物(PM10),53,56,62,3,16,7,,,,45,36,12,12,0.5,0.3
2026-01-17T0500,2570A,101.96,30.048,甘孜藏族自治州,水桥子,,,11,27,3,12,39,,,,,24,6,6,0.2,0.6
2026-01-17T0500,3065A,101.9534,29.9976,甘孜藏族自治州,州环保局,,21,12,24,3,9,65,,,,4,12,5,6,0.4,0.6
2026-01-17T0500,2363A,114.9368,25.8663,赣州市,地委,细颗粒物(PM2.5),57,61,70,40,47,36,,,,28,48,7,11,0.9,1.1
2026-01-17T0500,2364A,114.946,25.8483,赣州市,气象台,,,68,91,40,46,25,,,,,81,2,7,0.5,0.7
2026-01-17T0500,2365A,114.932,25.8332,赣州市,市图书馆,,,75,95,48,51,20,,,,,71,5,9,1.0,1.2
2026-01-17T0500,2366A,114.8905,25.8472,赣州市,华坚鞋城,颗粒物(PM10),65,80,99,44,53,42,,,,31,68,10,13,0.5,0.8
2026-01-17T0500,3109A,115.0094,25.8614,赣州市,赣县区卫计委,细颗粒物(PM2.5),57,40,76,40,55,33,,,,22,42,8,7,0.8,0.9
2026-01-17T0500,2684A,106.2753,36.0057,固原市,监测站,颗粒物(PM10),54,57,83,25,33,89,,,,4,19,3,6,0.4,0.6
2026-01-17T0500,2685A,106.2384,36.0189,固原市,新区,颗粒物(PM10),86,122,91,16,27,96,,,,1,21,2,3,0.2,0.5
2026-01-17T0500,2544A,106.6307,30.4577,广安市,市委,细颗粒物(PM2.5),230,197,180,180,170,9,,,,31,37,9,10,1.3,1.3
2026-01-17T0500,2545A,106.6266,30.4662,广安市,友谊中学,细颗粒物(PM2.5),195,165,162,146,147,5,,,,21,33,6,7,1.4,1.6
2026-01-17T0500,2547A,106.6386,30.4551,广安市,广电花园,细颗粒物(PM2.5),175,,155,132,158,2,,,,15,31,8,9,1.0,1.1
2026-01-17T0500,2902A,106.6347,30.4868,广安市,北辰小学,细颗粒物(PM2.5),198,169,156,148,144,6,,,,17,25,6,7,1.2,1.3
2026-01-17T0500,2524A,105.8211,32.4444,广元市,老城,"颗粒物(PM10),细颗粒物(PM2.5)",58,66,97,41,59,5,,,,43,57,1,13,0.8,1.2
2026-01-17T0500,2526A,105.8629,32.429,广元市,监测站,,,66,90,49,58,3,,,,,45,6,14,1.0,1.2
2026-01-17T0500,3617A,105.8047,32.4167,广元市,经开区,细颗粒物(PM2.5),77,92,99,56,64,1,,,,45,50,7,14,1.3,1.4
2026-01-17T0500,1345A,113.2346,23.1423,广州市,广雅中学,细颗粒物(PM2.5),97,116,153,72,85,40,,,,68,130,4,4,0.5,1.2
2026-01-17T0500,1346A,113.2611,23.105,广州市,市五中,细颗粒物(PM2.5),74,88,115,54,71,39,,,,80,125,10,9,/,/
2026-01-17T0500,1348A,113.3477,23.0916,广州市,广东商学院,细颗粒物(PM2.5),78,78,108,57,77,0,,,,119,115,6,8,0.8,0.9
2026-01-17T0500,1349A,113.4332,23.105,广州市,市八十六中,细颗粒物(PM2.5),60,54,97,43,66,0,,,,118,129,9,10,/,/
2026-01-17T0500,1350A,113.3506,22.9488,广州市,番禺中学,细颗粒物(PM2.5),70,83,104,51,59,36,,,,58,79,6,7,1.0,1
2026-01-17T0500,1351A,113.2147,23.3918,广州市,花都师范,细颗粒物(PM2.5),113,132,133,85,80,9,,,,139,105,7,8,1.0,1
2026-01-17T0500,1352A,113.2599,23.1329,广州市,市监测站,,,105,157,60,85,29,,,,,131,4,3,/,/
2026-01-17T0500,1353A,113.5618,23.3119,广州市,九龙镇镇龙,,,119,119,73,67,0,,,,,72,4,6,0.7,0.7
2026-01-17T0500,1354A,113.2764,23.1544,广州市,麓湖,细颗粒物(PM2.5),84,89,106,62,68,1,,,,139,121,10,10,0.8,0.8
2026-01-17T0500,2846A,113.3209,23.1323,广州市,体育西,,,110,130,59,76,0,,,,,111,6,8,1.1,1.1
2026-01-17T0500,3298A,113.5718,23.5493,广州市,从化街口,细颗粒物(PM2.5),110,121,109,83,72,7,,,,,65,8,12,1.1,1
2026-01-17T0500,3299A,113.3463,23.369,广州市,白云竹料,细颗粒物(PM2.5),110,145,134,83,79,3,,,,117,84,4,5,1.0,1
2026-01-17T0500,3300A,113.2981,23.2365,广州市,白云嘉禾,细颗粒物(PM2.5),84,109,129,62,73,0,,,,128,114,6,7,/,/
2026-01-17T0500,3301A,113.4256,23.1716,广州市,黄埔科学城,,,92,108,58,68,0,,,,,80,4,6,0.9,0.9
2026-01-17T0500,3302A,113.3942,23.0485,广州市,番禺大学城,,,100,128,46,53,23,,,,,83,10,12,0.6,0.7
2026-01-17T0500,3303A,113.4923,22.8169,广州市,南沙黄阁,,50,45,83,35,49,38,,,,58,83,6,9,/,/
2026-01-17T0500,3304A,113.534,22.7893,广州市,南沙街,,,51,87,32,43,20,,,,,65,3,5,0.6,0.6
2026-01-17T0500,3443A,113.2905,23.5541,广州市,花都梯面,细颗粒物(PM2.5),75,81,95,55,57,1,,,,82,64,4,6,/,/
2026-01-17T0500,3445A,113.786,23.7479,广州市,从化良口,细颗粒物(PM2.5),62,57,55,44,44,40,,,,32,27,7,8,/,/
2026-01-17T0500,3446A,113.805,23.2614,广州市,增城荔城,,,84,74,62,51,26,,,,,37,6,8,0.7,0.7
2026-01-17T0500,2506A,109.604387,23.066791,贵港市,江南子站,细颗粒物(PM2.5),138,175,147,105,86,18,,,,44,39,11,10,1.4,1.2
2026-01-17T0500,2508A,109.5669,23.1065,贵港市,荷城子站,细颗粒物(PM2.5),125,124,113,95,81,45,,,,27,40,14,10,1.1,1.1
2026-01-17T0500,3405A,109.5886,23.1172,贵港市,新世纪学校,细颗粒物(PM2.5),135,136,127,103,88,38,,,,27,33,/,/,0.7,0.7
2026-01-17T0500,4260A,109.5933,23.095,贵港市,中山路155-3号,细颗粒物(PM2.5),125,143,119,95,84,46,,,,29,39,/,/,0.9,0.9
2026-01-17T0500,1439A,106.6863,26.6035,贵阳市,马鞍山,细颗粒物(PM2.5),140,129,100,107,90,7,,,,27,25,4,8,/,/
2026-01-17T0500,1441A,106.6241,26.6266,贵阳市,鉴湖路,细颗粒物(PM2.5),140,139,110,107,84,28,,,,31,28,5,10,0.8,0.8
2026-01-17T0500,1442A,106.7468,26.6344,贵阳市,燕子冲,细颗粒物(PM2.5),156,132,97,119,88,6,,,,33,28,6,10,1.2,0.8
2026-01-17T0500,1443A,106.6556,26.4362,贵阳市,碧云窝,细颗粒物(PM2.5),132,144,112,100,83,7,,,,28,29,9,18,/,/
2026-01-17T0500,1445A,106.6963,26.6063,贵阳市,红边门,细颗粒物(PM2.5),149,139,107,114,87,8,,,,40,33,16,22,/,/
2026-01-17T0500,1446A,106.7162383,26.56964667,贵阳市,新华路,细颗粒物(PM2.5),156,144,116,119,86,14,,,,35,37,9,14,1.0,0.9
2026-01-17T0500,1447A,106.6742,26.542,贵阳市,太慈桥,细颗粒物(PM2.5),125,127,97,95,78,26,,,,35,36,4,6,/,/
2026-01-17T0500,4230A,106.688212,26.56952,贵阳市,花果园大街66号,细颗粒物(PM2.5),195,149,105,146,108,11,,,,48,37,11,11,/,/
2026-01-17T0500,4231A,106.687268,26.516892,贵阳市,漓江路57号,细颗粒物(PM2.5),156,144,107,119,87,0,,,,45,41,15,16,1.2,1
2026-01-17T0500,1864A,110.3091,25.2705,桂林市,龙隐路小学,细颗粒物(PM2.5),94,79,107,70,87,1,,,,29,32,10,15,0.7,0.9
2026-01-17T0500,1865A,110.2849361,25.22909545,桂林市,八中,细颗粒物(PM2.5),119,111,114,90,91,6,,,,33,44,11,13,1.1,1
2026-01-17T0500,3531A,110.296,25.1254,桂林市,旅游学院,细颗粒物(PM2.5),70,68,96,51,80,0,,,,29,35,5,7,0.6,0.5
2026-01-17T0500,4222A,110.1835,25.2444,桂林市,环湖路276号,细颗粒物(PM2.5),119,119,125,90,106,0,,,,33,46,10,19,1.1,1
2026-01-17T0500,4301A,110.2803,25.2773,桂林市,信义路13号,细颗粒物(PM2.5),89,118,109,66,86,0,,,,33,44,10,16,1.5,1.5
2026-01-17T0500,2674A,100.2262,34.4854,果洛藏族自治州,玛沁县大武镇,,37,37,39,3,9,35,,,,5,8,19,17,0.5,0.4
2026-01-17T0500,1130A,126.5557,45.8109,哈尔滨市,松北商大,细颗粒物(PM2.5),57,48,62,40,48,26,,,,28,31,7,8,0.6,0.7
2026-01-17T0500,1132A,126.6162,45.719,哈尔滨市,南岗学府路,,48,48,76,29,58,32,,,,19,30,9,13,0.7,1
2026-01-17T0500,1133A,126.6894,45.7733,哈尔滨市,太平宏伟公园,颗粒物(PM10),51,52,55,31,40,41,,,,19,28,17,22,0.7,0.7
2026-01-17T0500,1134A,126.6361,45.7672,哈尔滨市,道外承德广场,颗粒物(PM10),55,60,74,31,44,37,,,,24,37,14,16,0.6,0.5
2026-01-17T0500,1136A,126.644,45.7261,哈尔滨市,动力和平路,,,50,71,27,54,31,,,,,35,22,21,0.6,0.8
2026-01-17T0500,1137A,126.5933,45.7479,哈尔滨市,道里建国路,,48,38,63,33,57,32,,,,26,37,17,19,0.1,0.5
2026-01-17T0500,1138A,126.6127,45.6119,哈尔滨市,平房东轻厂,细颗粒物(PM2.5),59,56,69,42,60,13,,,,44,44,9,5,1.0,1.1
2026-01-17T0500,1139A,126.5875,45.9827,哈尔滨市,呼兰师专,细颗粒物(PM2.5),58,52,73,41,71,25,,,,27,28,8,10,0.7,0.8
2026-01-17T0500,1140A,126.6299,45.6799,哈尔滨市,省农科院,细颗粒物(PM2.5),59,55,90,42,74,13,,,,47,42,10,15,0.8,0.9
2026-01-17T0500,4282A,126.6769,45.7379,哈尔滨市,华山路1号,,46,41,59,32,46,33,,,,25,38,30,28,0.7,0.8
2026-01-17T0500,4283A,126.9717,45.5356,哈尔滨市,解放大街52号,细颗粒物(PM2.5),125,110,120,95,115,25,,,,,35,13,17,1.3,1.4
2026-01-17T0500,2688A,93.5124,42.8176,哈密市,地区监测站,颗粒物(PM10),71,91,106,33,46,58,,,,9,24,2,2,0.0,0.4
2026-01-17T0500,2689A,93.5014,42.8312,哈密市,哈密师范学校,颗粒物(PM10),67,84,103,32,31,57,,,,13,32,2,2,0.3,0.6
2026-01-17T0500,2671A,100.9016,36.9464,海北藏族自治州,海晏县西海镇,,19,,22,13,12,59,,,,1,3,8,7,0.3,0.4
2026-01-17T0500,3867A,102.074,36.5056,海东市,平安区公安局北苑,,31,31,62,19,24,28,,,,18,25,8,14,0.8,0.9
2026-01-17T0500,4163A,102.0984,36.5119,海东市,滨河路,,27,27,67,18,25,33,,,,25,38,5,12,0.7,0.9
2026-01-17T0500,1410A,110.3189,20.0596,海口市,海南大学,,46,46,37,28,23,108,,,,9,9,7,6,0.3,0.3
2026-01-17T0500,1411A,110.2827,20.0051,海口市,秀英海南医院,,42,33,38,29,22,104,,,,9,14,7,7,0.4,0.3
2026-01-17T0500,1412A,110.3391,19.9979,海口市,海南师范大学,,39,37,36,27,23,116,,,,10,13,6,6,0.7,0.7
2026-01-17T0500,1413A,110.3303,20.0359,海口市,龙华路环保局宿舍,,40,36,36,28,23,111,,,,8,11,/,/,0.7,0.7
2026-01-17T0500,3539A,110.5111,19.9737,海口市,桂林洋子站,颗粒物(PM10),51,51,35,34,23,84,,,,10,11,/,/,/,/
2026-01-17T0500,4134A,110.1952,20.0451,海口市,长滨二路9号,,40,32,31,28,24,97,,,,8,12,/,/,/,/
2026-01-17T0500,2673A,100.6158,36.2985,海南藏族自治州,共和县恰卜恰镇,,19,19,35,8,11,41,,,,11,18,12,11,0.5,0.5
2026-01-17T0500,2676A,97.373,37.376,海西蒙古族藏族自治州,德令哈市,,28,21,30,3,11,87,,,,1,5,10,10,0.4,0.6
2026-01-17T0500,1049A,114.492,36.5712,邯郸市,矿院,细颗粒物(PM2.5),58,54,107,41,86,56,,,,18,27,3,2,0.5,0.7
2026-01-17T0500,1050A,114.4839,36.6136,邯郸市,丛台公园,细颗粒物(PM2.5),70,76,120,51,84,44,,,,30,28,4,3,0.5,0.7
2026-01-17T0500,3458A,114.7893,36.5592,邯郸市,香泉濮院小区,,,92,116,52,80,40,,,,,26,3,3,0.6,0.7
2026-01-17T0500,3580A,114.1998,36.4439,邯郸市,峰峰矿区临水派出所,细颗粒物(PM2.5),70,54,101,51,94,61,,,,12,24,97,12,0.9,0.9
2026-01-17T0500,4068A,114.5209,36.7697,邯郸市,建安街268号,细颗粒物(PM2.5),85,89,118,63,93,8,,,,48,36,3,3,0.6,0.7
2026-01-17T0500,4069A,114.5488,36.6177,邯郸市,丛台东路558号,细颗粒物(PM2.5),105,91,111,79,90,3,,,,54,33,5,2,0.8,0.7
2026-01-17T0500,2635A,107.0155,33.0707,汉中市,市监测站,细颗粒物(PM2.5),124,110,130,94,103,9,,,,40,47,5,7,1.2,1.4
2026-01-17T0500,2636A,107.0083,33.114,汉中市,鑫源开发区,细颗粒物(PM2.5),125,95,108,95,87,16,,,,,50,5,9,1.0,1.1
2026-01-17T0500,2637A,107.0072,33.0323,汉中市,南郑大河坎水厂,细颗粒物(PM2.5),109,97,131,82,92,6,,,,26,38,3,6,1.1,1.2
2026-01-17T0500,1223A,120.2073,30.2111,杭州市,滨江,细颗粒物(PM2.5),201,209,158,151,112,33,,,,59,90,7,8,0.7,0.8
2026-01-17T0500,1224A,120.0625,30.2737,杭州市,西溪,细颗粒物(PM2.5),87,107,100,64,64,0,,,,42,52,8,9,1.0,1.1
2026-01-17T0500,1226A,120.3417,30.315,杭州市,下沙,细颗粒物(PM2.5),212,230,196,162,134,2,,,,98,101,8,11,1.0,1
2026-01-17T0500,1227A,120.1252,30.2465,杭州市,卧龙桥,细颗粒物(PM2.5),130,140,103,99,73,2,,,,65,62,9,9,0.6,0.6
2026-01-17T0500,1228A,120.1902,30.2691,杭州市,浙江农大,细颗粒物(PM2.5),189,213,163,142,115,0,,,,,106,6,7,1.0,1
2026-01-17T0500,1230A,120.1195,30.3121,杭州市,和睦小学,细颗粒物(PM2.5),168,244,161,127,93,2,,,,94,79,6,7,1.1,1.1
2026-01-17T0500,1231A,120.3076,30.4146,杭州市,临平镇,细颗粒物(PM2.5),189,182,178,142,130,5,,,,,77,8,10,0.8,0.8
2026-01-17T0500,1232A,120.2753,30.1839,杭州市,城厢镇,细颗粒物(PM2.5),201,199,161,151,112,16,,,,85,104,10,11,0.8,1
2026-01-17T0500,1233A,120.0883,30.1808,杭州市,云栖,细颗粒物(PM2.5),133,143,110,101,75,10,,,,48,57,3,4,0.9,0.8
2026-01-17T0500,3557A,119.9463,30.0496,杭州市,镇二中,细颗粒物(PM2.5),143,116,96,109,76,1,,,,68,69,6,6,1.1,1.1
2026-01-17T0500,3558A,119.7184,30.2367,杭州市,市府大楼,细颗粒物(PM2.5),95,101,127,71,81,19,,,,26,45,10,12,1.0,1.1
2026-01-17T0500,3656A,120.1554,30.2863,杭州市,消防大队,细颗粒物(PM2.5),216,228,154,166,114,1,,,,100,88,8,9,1.0,1.1
2026-01-17T0500,1270A,117.1957,31.7845,合肥市,明珠广场,细颗粒物(PM2.5),221,210,134,171,89,60,,,,25,56,6,9,1.3,0.9
2026-01-17T0500,1271A,117.307,31.8765,合肥市,三里街,细颗粒物(PM2.5),211,207,136,161,94,56,,,,22,52,5,8,1.2,1
2026-01-17T0500,1272A,117.2587,31.8703,合肥市,琥珀山庄,细颗粒物(PM2.5),202,207,135,152,83,60,,,,21,47,6,10,1.1,1
2026-01-17T0500,1275A,117.2593,31.9376,合肥市,庐阳区,细颗粒物(PM2.5),201,212,141,151,86,57,,,,30,55,4,7,1.2,1
2026-01-17T0500,1276A,117.345251,31.861615,合肥市,瑶海区,细颗粒物(PM2.5),206,197,135,156,89,59,,,,25,55,4,8,1.1,0.8
2026-01-17T0500,1277A,117.3033,31.7967,合肥市,包河区,细颗粒物(PM2.5),230,219,132,180,94,52,,,,38,71,8,13,1.4,1.1
2026-01-17T0500,1278A,117.278,31.7392,合肥市,滨湖新区,细颗粒物(PM2.5),240,219,134,190,100,66,,,,24,53,4,8,1.2,0.9
2026-01-17T0500,1279A,117.1324,31.8395,合肥市,高新区,细颗粒物(PM2.5),221,205,126,171,84,60,,,,26,43,4,8,1.2,0.9
2026-01-17T0500,3464A,117.3802,31.9148,合肥市,高教基地,细颗粒物(PM2.5),222,210,135,172,102,53,,,,21,42,8,11,1.1,0.9
2026-01-17T0500,4098A,117.2518,31.8404,合肥市,中国科学技术大学,细颗粒物(PM2.5),219,210,128,169,88,62,,,,,52,7,10,1.2,1
2026-01-17T0500,3614A,79.9241,37.0878,和田地区,地区环保局,颗粒物(PM10),500,635,438,86,57,39,,,,26,16,8,4,0.9,0.3
2026-01-17T0500,3615A,79.9132,37.1137,和田地区,市环保局,颗粒物(PM10),445,545,398,73,52,24,,,,14,22,6,3,0.4,0.5
2026-01-17T0500,2517A,108.0496,24.6957,河池市,市环保站,细颗粒物(PM2.5),115,115,112,87,83,2,,,,40,36,3,4,1.2,1.1
2026-01-17T0500,4302A,108.0901,24.6945,河池市,上任中路54号,细颗粒物(PM2.5),104,104,114,78,85,0,,,,41,42,5,6,1.0,1.1
2026-01-17T0500,1697A,114.6962,23.7538,河源市,东埔,,,58,61,42,43,4,,,,,48,5,6,1.1,1.2
2026-01-17T0500,1698A,114.6895,23.7232,河源市,老城,细颗粒物(PM2.5),54,56,57,38,35,17,,,,53,31,6,7,0.7,0.7
2026-01-17T0500,3374A,115.5562,35.089,菏泽市,定陶老年大学,细颗粒物(PM2.5),70,88,142,51,78,25,,,,23,25,2,3,0.5,0.6
2026-01-17T0500,4114A,115.4239,35.2593,菏泽市,黄河路600号,细颗粒物(PM2.5),70,83,149,51,86,27,,,,24,29,3,4,0.6,0.7
2026-01-17T0500,4115A,115.5025,35.2727,菏泽市,菏泽市人社局,颗粒物(PM10),67,83,140,45,79,24,,,,13,20,6,4,0.4,0.4
2026-01-17T0500,4184A,115.479691,35.244011,菏泽市,永昌路1号,细颗粒物(PM2.5),78,80,145,57,84,31,,,,19,23,6,5,0.2,0.4
2026-01-17T0500,4193A,115.471542,35.280012,菏泽市,长城路999号,细颗粒物(PM2.5),72,86,144,52,80,24,,,,24,27,12,11,0.8,0.8
2026-01-17T0500,2514A,111.5264,24.4178,贺州市,环保小区,细颗粒物(PM2.5),102,96,115,76,82,6,,,,28,47,7,11,0.9,1
2026-01-17T0500,2515A,111.561,24.4074,贺州市,政协大楼,细颗粒物(PM2.5),99,101,114,74,75,0,,,,33,44,11,20,1.0,1.1
2026-01-17T0500,3534A,111.4744,24.455,贺州市,西湾,细颗粒物(PM2.5),108,114,96,81,70,3,,,,36,48,7,9,1.0,1.1
2026-01-17T0500,2385A,114.17,35.9019,鹤壁市,市监测站,细颗粒物(PM2.5),118,117,147,89,104,27,,,,32,37,4,7,1.2,1.1
2026-01-17T0500,2386A,114.2953,35.7512,鹤壁市,市交警支队,细颗粒物(PM2.5),108,118,162,81,94,26,,,,,33,6,5,0.9,0.9
2026-01-17T0500,2387A,114.2877,35.7302,鹤壁市,迎宾馆,细颗粒物(PM2.5),100,123,169,75,97,31,,,,30,35,7,6,1.0,1.1
2026-01-17T0500,3474A,114.2616,35.6824,鹤壁市,大新区,细颗粒物(PM2.5),85,112,153,63,90,35,,,,30,36,8,6,1.1,1.1
2026-01-17T0500,3596A,114.1573,35.9607,鹤壁市,南山宾馆,细颗粒物(PM2.5),113,135,170,85,101,24,,,,33,35,8,9,1.3,1.2
2026-01-17T0500,2244A,130.2537,47.3416,鹤岗市,哈啤分公司,,39,,22,27,19,68,,,,7,5,6,6,0.5,0.4
2026-01-17T0500,2245A,130.2683,47.3087,鹤岗市,斯达机电,,38,32,24,26,20,61,,,,8,6,6,5,0.5,0.4
2026-01-17T0500,2246A,130.3114,47.3388,鹤岗市,东山纸板厂,,43,,17,30,18,59,,,,9,6,8,8,0.7,0.6
2026-01-17T0500,2263A,127.4832,50.2524,黑河市,交通局,,18,16,14,12,12,49,,,,15,10,5,5,0.1,0.2
2026-01-17T0500,2264A,127.5146,50.2339,黑河市,环保局,,25,,16,17,16,58,,,,8,14,4,6,0.3,0.4
2026-01-17T0500,1074A,115.6839,37.754,衡水市,电机北厂,颗粒物(PM10),55,59,91,38,54,26,,,,29,22,6,7,0.4,0.6
2026-01-17T0500,1075A,115.6303,37.7318,衡水市,市监测站,,50,46,90,35,51,48,,,,17,21,7,6,0.4,0.6
2026-01-17T0500,3188A,115.6684,37.7216,衡水市,市城管局,细颗粒物(PM2.5),58,58,93,41,53,42,,,,20,22,8,6,0.5,0.7
2026-01-17T0500,3459A,115.599,37.5491,衡水市,地表水厂,细颗粒物(PM2.5),55,50,82,39,53,27,,,,24,23,4,4,0.4,0.5
2026-01-17T0500,2457A,112.6209,26.9268,衡阳市,衡阳化工总厂,细颗粒物(PM2.5),115,,111,87,92,3,,,,39,41,9,21,1.0,1.2
2026-01-17T0500,2458A,112.621,26.8957,衡阳市,珠晖区环保局,细颗粒物(PM2.5),108,88,115,81,101,21,,,,,51,13,16,1.1,1.4
2026-01-17T0500,2459A,112.628,26.8654,衡阳市,市委党校,细颗粒物(PM2.5),90,79,110,67,88,44,,,,22,40,14,18,1.2,1.4
2026-01-17T0500,2460A,112.6007,26.8977,衡阳市,市监测站,细颗粒物(PM2.5),88,93,134,65,88,18,,,,29,44,8,15,1.1,1.5
2026-01-17T0500,2461A,112.5658,26.9013,衡阳市,真空机电公司,细颗粒物(PM2.5),102,,126,76,99,36,,,,22,54,6,16,1.2,1.7
2026-01-17T0500,3399A,112.6703,26.8817,衡阳市,师范学院,细颗粒物(PM2.5),83,86,109,61,76,62,,,,17,32,8,14,1.1,1.2
2026-01-17T0500,3038A,103.3757,23.3679,红河哈尼族彝族自治州,州图书馆,,46,40,38,32,30,26,,,,13,13,6,9,0.6,0.7
2026-01-17T0500,4154A,103.401,23.3561,红河哈尼族彝族自治州,蒙自市朝阳路,,40,,32,28,26,32,,,,11,13,6,7,0.5,0.6
2026-01-17T0500,1090A,111.6506,40.7517,呼和浩特市,呼市一监,,22,22,28,15,17,40,,,,17,21,7,8,0.7,0.5
2026-01-17T0500,1094A,111.7516,40.8369,呼和浩特市,如意水处理厂,,27,27,28,14,13,24,,,,35,25,8,9,0.7,0.4
2026-01-17T0500,1095A,111.727798,40.806187,呼和浩特市,二十九中,,28,28,26,13,13,37,,,,22,20,11,11,0.8,0.5
2026-01-17T0500,1097A,111.717,40.7617,呼和浩特市,化肥厂生活区,,24,24,32,11,15,42,,,,20,22,6,6,0.6,0.4
2026-01-17T0500,3699A,111.6519,40.8389,呼和浩特市,海东办,,20,19,32,14,19,16,,,,40,26,4,7,0.6,0.5
2026-01-17T0500,4275A,111.591512,40.827312,呼和浩特市,成吉思汗西街8号,,22,19,37,15,19,28,,,,27,28,5,11,0.5,0.4
2026-01-17T0500,4276A,111.6597,40.8077,呼和浩特市,公园东路75号,,22,22,30,13,17,30,,,,36,26,6,7,0.7,0.4
2026-01-17T0500,4277A,111.5427,40.7846,呼和浩特市,金海路35号,,29,29,39,17,22,26,,,,37,31,10,16,0.6,0.6
2026-01-17T0500,3061A,119.7511,49.1576,呼伦贝尔市,国华电力东,,39,,25,27,20,60,,,,13,17,6,4,0.3,0.4
2026-01-17T0500,4279A,119.7569,49.2222,呼伦贝尔市,伊敏大街东7号,,28,23,26,19,22,58,,,,5,10,7,8,0.0,0.1
2026-01-17T0500,1250A,120.075,30.867,湖州市,城西水厂,细颗粒物(PM2.5),176,167,155,133,122,76,,,,,93,5,10,1.0,0.9
2026-01-17T0500,2873A,120.083,30.8929,湖州市,仁皇山新区,细颗粒物(PM2.5),156,158,142,119,112,83,,,,29,78,5,9,1.3,1
2026-01-17T0500,2907A,120.1846,30.8592,湖州市,吴兴区站,细颗粒物(PM2.5),172,193,173,130,122,51,,,,49,80,5,11,0.3,0.3
2026-01-17T0500,3562A,120.4146,30.8538,湖州市,南浔区站,细颗粒物(PM2.5),144,160,152,110,114,67,,,,22,63,6,11,1.1,1.1
2026-01-17T0500,1607A,120.904878,40.721091,葫芦岛市,龙港区,,18,18,33,7,12,56,,,,13,13,36,15,0.5,0.5
2026-01-17T0500,1608A,120.8382,40.7521,葫芦岛市,化工街,,24,24,32,9,13,46,,,,15,12,28,14,0.6,0.4
2026-01-17T0500,1609A,120.8339,40.7078,葫芦岛市,新区,,18,18,27,9,12,46,,,,17,14,31,14,0.5,0.4
2026-01-17T0500,1610A,120.8697,40.7679,葫芦岛市,东城区,,22,22,27,12,13,42,,,,24,16,39,17,0.6,0.5
2026-01-17T0500,2483A,109.9297,27.5383,怀化市,河西地税局,细颗粒物(PM2.5),114,101,120,86,99,12,,,,26,39,3,5,/,/
2026-01-17T0500,2484A,109.9783,27.5342,怀化市,市四医院,细颗粒物(PM2.5),123,108,138,93,107,16,,,,22,37,6,7,0.9,1.2
2026-01-17T0500,2485A,109.9971,27.5579,怀化市,监测楼,细颗粒物(PM2.5),139,,131,106,115,5,,,,,32,6,7,0.6,0.8
2026-01-17T0500,1210A,119.0566,33.5991,淮安市,钵池山,细颗粒物(PM2.5),102,100,182,76,150,56,,,,12,40,7,10,0.5,1.1
2026-01-17T0500,1211A,119.0083,33.578,淮安市,北京南路,细颗粒物(PM2.5),90,105,183,67,149,52,,,,11,39,6,11,0.7,1.2
2026-01-17T0500,1212A,118.9938,33.6083,淮安市,市监测站,,,97,176,56,136,53,,,,,43,8,14,0.9,1.3
2026-01-17T0500,1213A,119.135,33.5038,淮安市,楚州区监测站,颗粒物(PM10),84,117,186,58,146,57,,,,8,35,8,11,0.8,1.2
2026-01-17T0500,3426A,118.8757,33.2897,淮安市,新华书店,细颗粒物(PM2.5),113,151,192,85,152,53,,,,11,42,7,11,0.7,1
2026-01-17T0500,4092A,119.119691,33.550006,淮安市,枚皋中路89号,颗粒物(PM10),90,129,208,61,156,64,,,,11,34,9,13,1.2,1.7
2026-01-17T0500,4206A,119.028838,33.631911,淮安市,承德北路606号,细颗粒物(PM2.5),93,107,206,69,152,58,,,,10,45,6,11,0.6,1.2
2026-01-17T0500,2282A,116.8005,33.9749,淮北市,监测站,细颗粒物(PM2.5),84,112,172,62,104,49,,,,16,35,5,8,0.6,0.8
2026-01-17T0500,2283A,116.8094,33.9008,淮北市,烈山区政府,细颗粒物(PM2.5),93,98,161,69,98,48,,,,14,32,4,8,0.6,0.7
2026-01-17T0500,4017A,116.7926,33.9534,淮北市,市博物馆,,,109,180,67,102,,,,,21,37,3,7,0.8,1
2026-01-17T0500,4100A,116.8322,33.9884,淮北市,杜集区第一实验学校,,,102,176,66,101,48,,,,,33,8,10,0.9,1
2026-01-17T0500,2277A,116.8304,32.7726,淮南市,潘集区政府,细颗粒物(PM2.5),162,167,176,123,113,44,,,,,37,4,10,1.0,1
2026-01-17T0500,2279A,116.8569,32.5949,淮南市,谢家集区政府,细颗粒物(PM2.5),137,154,150,104,92,48,,,,21,39,6,12,0.9,0.9
2026-01-17T0500,2280A,116.8279,32.6333,淮南市,八公山区政府,细颗粒物(PM2.5),143,151,155,109,95,48,,,,,31,5,8,0.9,0.8
2026-01-17T0500,2894A,117.0561,32.6536,淮南市,经济技术开发区消防队,细颗粒物(PM2.5),158,152,156,120,99,48,,,,,42,4,8,1.1,0.9
2026-01-17T0500,3329A,117.011,32.5891,淮南市,山南新区,细颗粒物(PM2.5),155,188,171,118,99,48,,,,25,37,2,6,1.0,0.9
2026-01-17T0500,4209A,117.003137,32.644456,淮南市,国庆中路369号,细颗粒物(PM2.5),156,158,144,119,101,39,,,,20,38,8,12,1.0,1
2026-01-17T0500,2446A,114.9021,30.474,黄冈市,职工中心,细颗粒物(PM2.5),140,149,101,107,75,31,,,,20,32,6,9,1.1,1
2026-01-17T0500,2929A,114.8858,30.4519,黄冈市,红卫路,细颗粒物(PM2.5),147,137,98,112,79,29,,,,21,31,8,10,0.6,0.6
2026-01-17T0500,3398A,114.9134,30.4446,黄冈市,市林业局,细颗粒物(PM2.5),152,161,110,116,79,49,,,,29,38,4,6,1.0,1
2026-01-17T0500,2672A,102.02,35.5101,黄南藏族自治州,同仁县隆务镇,,21,21,33,6,12,53,,,,1,5,10,12,0.5,0.5
2026-01-17T0500,2295A,118.2905,29.6965,黄山市,延安路89号,,,,48,52,34,1,,,,,21,3,4,0.6,0.7
2026-01-17T0500,2297A,118.1369,30.2755,黄山市,黄山区政府5号楼,,,56,79,46,56,15,,,,,14,3,3,0.7,0.7
2026-01-17T0500,4210A,118.335445,29.720283,黄山市,滨江东路7-2号,细颗粒物(PM2.5),55,50,71,39,48,15,,,,15,27,/,/,/,/
2026-01-17T0500,2423A,115.0547,30.2332,黄石市,沈家营,细颗粒物(PM2.5),145,165,142,111,92,18,,,,37,61,7,7,1.7,1.5
2026-01-17T0500,2426A,114.899,30.211,黄石市,铁山,细颗粒物(PM2.5),182,158,128,137,112,16,,,,43,49,8,12,0.7,0.7
2026-01-17T0500,2427A,115.0259,30.2108,黄石市,团城山,细颗粒物(PM2.5),166,171,143,126,105,20,,,,41,60,9,8,1.5,1.2
2026-01-17T0500,3149A,115.0174,30.1591,黄石市,笔架山北路,细颗粒物(PM2.5),148,194,168,113,101,20,,,,40,39,9,15,1.7,1.3
2026-01-17T0500,4185A,115.078022,30.21118,黄石市,磁湖东路29号,细颗粒物(PM2.5),175,166,154,132,116,20,,,,34,70,10,11,1.5,1.6
2026-01-17T0500,1392A,114.4181,23.0528,惠州市,河南岸金山湖子站,,,60,65,31,38,40,,,,,37,8,6,0.6,0.7
2026-01-17T0500,1393A,114.4055,23.0824,惠州市,下埔横江三路子站,,,64,72,35,39,29,,,,42,40,,10,0.7,0.8
2026-01-17T0500,1395A,114.4645,22.7832,惠州市,惠阳区承修路船湖子站,,,63,51,34,27,31,,,,,30,11,8,0.6,0.5
2026-01-17T0500,1396A,114.5316,22.7423,惠州市,大亚湾管委会子站,,,70,55,34,28,33,,,,,43,6,7,0.6,0.6
2026-01-17T0500,3314A,114.4334,22.8134,惠州市,惠阳秋长,,48,48,53,27,28,25,,,,49,32,/,/,/,/
2026-01-17T0500,3452A,114.6521,22.7755,惠州市,大亚湾霞涌,,35,35,45,21,27,108,,,,13,29,/,/,/,/
2026-01-17T0500,4300A,114.4089,23.1147,惠州市,文华一路1号,颗粒物(PM10),62,73,68,43,39,1,,,,82,45,/,/,/,/
2026-01-17T0500,2240A,130.9618,45.2926,鸡西市,环保局,,30,23,23,21,19,58,,,,4,8,6,6,0.2,0.3
2026-01-17T0500,2243A,130.9294,45.2959,鸡西市,第一中学,,30,21,21,21,18,56,,,,6,8,3,4,0.4,0.5
2026-01-17T0500,3707A,131.0069,45.2988,鸡西市,欧美日汽修厂,,,23,23,19,18,62,,,,,9,7,8,0.3,0.3
2026-01-17T0500,2367A,114.9753,27.0803,吉安市,红声器材厂,细颗粒物(PM2.5),72,81,79,52,51,75,,,,14,31,14,13,1.0,0.8
2026-01-17T0500,2369A,114.9903,27.1313,吉安市,市环境监测站,细颗粒物(PM2.5),77,74,76,56,52,77,,,,20,32,16,16,/,/
2026-01-17T0500,2370A,115.009527,27.096792,吉安市,青原区法院,细颗粒物(PM2.5),87,86,86,64,57,71,,,,17,34,19,15,0.9,0.9
2026-01-17T0500,1772A,126.54,43.8622,吉林市,哈达湾,细颗粒物(PM2.5),62,54,68,44,57,50,,,,19,30,7,9,0.8,1.1
2026-01-17T0500,1773A,126.5843,43.8358,吉林市,东局子,细颗粒物(PM2.5),53,50,66,37,59,40,,,,21,34,3,6,1.0,1.2
2026-01-17T0500,1774A,126.5051,43.8243,吉林市,电力学院,细颗粒物(PM2.5),58,44,84,41,78,39,,,,27,38,10,14,0.9,1.2
2026-01-17T0500,1775A,126.6133,43.8971,吉林市,江北,细颗粒物(PM2.5),57,49,101,40,78,41,,,,20,41,7,13,1.0,1.4
2026-01-17T0500,1776A,126.5549,43.8304,吉林市,江南公园,细颗粒物(PM2.5),62,44,66,44,61,43,,,,21,33,7,13,0.8,1
2026-01-17T0500,2868A,126.4737,43.953,吉林市,九站,细颗粒物(PM2.5),59,45,65,42,55,40,,,,30,39,5,7,0.8,0.9
2026-01-17T0500,1299A,116.9866,36.6118,济南市,科干所,颗粒物(PM10),52,53,111,29,57,56,,,,11,28,3,5,0.5,0.7
2026-01-17T0500,1300A,116.9379,36.6652,济南市,农科所,,,51,116,34,54,46,,,,,36,4,6,0.6,0.8
2026-01-17T0500,1301A,117.1265,36.6736,济南市,开发区,细颗粒物(PM2.5),55,54,114,39,65,47,,,,22,33,2,3,0.6,0.8
2026-01-17T0500,1303A,117.0616,36.6865,济南市,省种子仓库,,,61,127,36,65,50,,,,,29,2,4,0.7,0.8
2026-01-17T0500,1304A,116.9495185,36.644937,济南市,机床二厂,颗粒物(PM10),53,56,107,34,66,50,,,,17,31,2,5,0.4,0.6
2026-01-17T0500,1305A,117.0496,36.6629,济南市,市监测站,颗粒物(PM10),53,56,117,32,59,50,,,,17,28,2,4,0.5,0.7
2026-01-17T0500,1306A,116.7674,36.5458,济南市,长清党校,,39,39,116,22,56,52,,,,14,29,4,5,0.6,0.7
2026-01-17T0500,1961A,117.5323,36.6865,济南市,东山小学,颗粒物(PM10),51,51,131,29,69,53,,,,18,29,2,3,0.3,0.5
2026-01-17T0500,3059A,117.7181,36.205,济南市,泰兴公司,,35,34,130,24,78,39,,,,33,42,3,7,0.6,1
2026-01-17T0500,3064A,117.6861,36.2172,济南市,莱芜战役纪念馆,,42,29,122,29,76,49,,,,26,39,4,7,0.4,0.8
2026-01-17T0500,3494A,117.1673,36.9782,济南市,济阳区政府,,37,37,94,20,50,44,,,,17,21,6,6,0.5,0.6
2026-01-17T0500,3495A,117.1168,36.6299,济南市,锦屏中学,,46,46,105,27,56,56,,,,16,28,2,3,0.7,0.9
2026-01-17T0500,4108A,117.7107,36.2385,济南市,山财大街5号,,,27,112,14,65,50,,,,,42,8,11,0.5,0.9
2026-01-17T0500,4109A,116.9744,36.6889,济南市,无影山路12号,颗粒物(PM10),53,56,112,33,67,42,,,,18,27,4,5,0.6,0.8
2026-01-17T0500,1653A,116.6229,35.4288,济宁市,火炬城,颗粒物(PM10),54,58,148,36,95,49,,,,16,31,2,4,0.4,0.8
2026-01-17T0500,3500A,116.5808,35.3703,济宁市,北湖一中,颗粒物(PM10),54,58,144,37,93,47,,,,17,32,4,7,0.5,0.8
2026-01-17T0500,3501A,116.8251,35.5592,济宁市,服务中心,颗粒物(PM10),56,62,161,23,83,46,,,,16,40,9,11,0.6,0.9
2026-01-17T0500,3678A,116.5907,35.4054,济宁市,市第七中学,,47,47,147,24,82,54,,,,13,34,5,9,0.4,0.9
2026-01-17T0500,4111A,116.6075,35.4566,济宁市,任和路,颗粒物(PM10),64,77,167,29,89,42,,,,18,33,3,6,0.5,0.9
2026-01-17T0500,4112A,116.5648,35.3921,济宁市,文体南路1号,颗粒物(PM10),58,66,165,28,90,49,,,,15,32,1,5,0.4,0.8
2026-01-17T0500,2255A,130.2749,46.8028,佳木斯市,佳纺,细颗粒物(PM2.5),59,49,37,42,29,41,,,,17,15,6,7,0.6,0.5
2026-01-17T0500,2257A,130.3258,46.7975,佳木斯市,环保局,,,55,37,33,26,48,,,,18,17,9,8,,0.5
2026-01-17T0500,4285A,130.363,46.806,佳木斯市,顺和街,,47,47,33,32,23,39,,,,20,17,13,11,0.5,0.4
2026-01-17T0500,4286A,130.3952,46.8268,佳木斯市,长安路196号,,48,48,34,33,24,44,,,,19,14,6,6,0.5,0.5
2026-01-17T0500,1252A,120.7439,30.778,嘉兴市,清河小学,细颗粒物(PM2.5),134,134,156,102,119,88,,,,,64,5,10,1.2,0.8
2026-01-17T0500,1253A,120.7261,30.7477,嘉兴市,嘉兴学院,细颗粒物(PM2.5),137,162,164,104,107,82,,,,26,62,4,9,1.0,0.9
2026-01-17T0500,2872A,120.7845,30.7524,嘉兴市,南湖区残联,细颗粒物(PM2.5),144,117,138,110,115,82,,,,21,61,3,10,1.1,1
2026-01-17T0500,3407A,120.6915,30.7741,嘉兴市,秀洲住建,细颗粒物(PM2.5),145,140,151,111,116,82,,,,20,71,6,11,1.0,0.9
2026-01-17T0500,1945A,98.291,39.7705,嘉峪关市,气象局,颗粒物(PM10),62,73,100,19,32,52,,,,22,27,19,14,1.4,0.7
2026-01-17T0500,2884A,98.2672,39.7978,嘉峪关市,酒钢宾馆,颗粒物(PM10),96,141,119,46,35,55,,,,15,29,61,20,1.1,1
2026-01-17T0500,3248A,98.2644,39.7723,嘉峪关市,雄关区,颗粒物(PM10),79,108,76,27,27,21,,,,36,35,32,16,1.4,0.8
2026-01-17T0500,1383A,113.1063,22.6058,江门市,北街,,50,40,88,35,63,78,,,,23,45,/,/,/,/
2026-01-17T0500,1384A,113.073,22.5835,江门市,西区,颗粒物(PM10),56,62,104,36,57,40,,,,60,58,/,/,/,/
2026-01-17T0500,1385A,113.0218,22.531,江门市,圭峰西,,50,50,80,30,59,82,,,,16,34,/,/,/,/
2026-01-17T0500,1386A,113.0826,22.5947,江门市,东湖,颗粒物(PM10),55,60,99,38,60,52,,,,56,52,8,11,0.7,0.9
2026-01-17T0500,3311A,113.1077,22.5647,江门市,江海富民,细颗粒物(PM2.5),74,94,134,54,77,70,,,,37,58,/,/,0.6,0.8
2026-01-17T0500,3449A,113.0496,22.4669,江门市,新会银湖,细颗粒物(PM2.5),115,,82,87,73,30,,,,37,42,7,8,0.7,0.6
2026-01-17T0500,3335A,113.3137,35.2643,焦作市,马村街道办,颗粒物(PM10),93,136,153,68,80,38,,,,23,34,10,12,0.8,0.9
2026-01-17T0500,3336A,113.2464,35.2374,焦作市,焦作技师学院,细颗粒物(PM2.5),89,109,158,66,79,40,,,,22,37,12,14,1.0,1.1
2026-01-17T0500,3477A,113.1656,35.2536,焦作市,中站许衡医院,细颗粒物(PM2.5),83,94,136,61,74,32,,,,36,34,6,9,0.8,0.9
2026-01-17T0500,3981A,113.2456,35.18,焦作市,原李万街道办,细颗粒物(PM2.5),89,119,157,66,81,37,,,,24,38,6,9,0.8,0.8
2026-01-17T0500,4264A,113.234,35.219,焦作市,新安路1731号,细颗粒物(PM2.5),98,135,161,73,86,41,,,,17,34,7,10,0.7,0.9
2026-01-17T0500,4295A,113.2722,35.2121,焦作市,人民路3066号,,,109,156,64,75,36,,,,,40,6,9,0.9,1
2026-01-17T0500,1708A,116.3701,23.5345,揭阳市,新兴,,,81,77,62,48,32,,,,,52,14,12,0.8,0.9
2026-01-17T0500,1709A,116.3261,23.5442,揭阳市,西马,细颗粒物(PM2.5),70,75,76,51,41,34,,,,39,37,13,8,0.6,0.7
2026-01-17T0500,1710A,116.361,23.5627,揭阳市,东兴,,,71,76,52,45,29,,,,,43,10,12,/,/
2026-01-17T0500,1711A,116.4151,23.5295,揭阳市,渔湖,细颗粒物(PM2.5),87,84,82,64,46,31,,,,48,47,8,8,/,/
2026-01-17T0500,3320A,116.4028,23.5699,揭阳市,曲溪,,,87,81,50,44,20,,,,,50,5,8,0.8,0.8
2026-01-17T0500,1944A,102.1691,38.5166,金昌市,天庆家园,颗粒物(PM10),79,107,126,37,42,28,,,,24,26,68,49,1.0,0.8
2026-01-17T0500,4022A,102.1648,38.5369,金昌市,金川区人防中心,颗粒物(PM10),76,102,120,36,32,40,,,,18,21,51,36,1.0,0.9
2026-01-17T0500,4239A,102.193042,38.531887,金昌市,长春路96号,颗粒物(PM10),73,95,120,32,44,40,,,,12,24,21,93,0.8,0.9
2026-01-17T0500,1262A,119.6478,29.0773,金华市,十五中,细颗粒物(PM2.5),84,110,102,62,62,9,,,,76,72,4,5,0.7,0.9
2026-01-17T0500,1263A,119.6859,29.1032,金华市,监测站,,,109,100,61,60,0,,,,,71,3,4,0.6,0.7
2026-01-17T0500,3659A,119.656,29.1132,金华市,气象局,细颗粒物(PM2.5),104,134,110,78,61,0,,,,85,77,5,5,0.7,0.7
2026-01-17T0500,1767A,121.1114,41.0879,锦州市,南山,,23,17,25,7,11,71,,,,4,8,7,8,0.4,0.5
2026-01-17T0500,1768A,121.060361,40.842794,锦州市,开发区,,16,16,29,8,15,46,,,,21,13,9,7,0.3,0.3
2026-01-17T0500,1769A,121.1836,41.1118,锦州市,百股街道,,,13,27,7,13,50,,,,15,11,,8,0.5,0.6
2026-01-17T0500,1770A,121.1176,41.1224,锦州市,天安街道,,24,15,24,8,12,75,,,,6,9,8,9,0.5,0.6
2026-01-17T0500,1771A,121.1303,41.1385,锦州市,北湖公园,,,,27,,12,,,70,,,7,,8,,0.5
2026-01-17T0500,2160A,112.8496,35.5051,晋城市,自来水公司,细颗粒物(PM2.5),89,87,122,66,49,43,,,,21,32,6,14,0.8,1.2
2026-01-17T0500,2162A,112.8509,35.4886,晋城市,市环保局,细颗粒物(PM2.5),79,88,130,58,57,46,,,,20,31,5,12,0.9,1.3
2026-01-17T0500,3620A,112.8258,35.4804,晋城市,泽州一中,细颗粒物(PM2.5),85,115,133,63,59,51,,,,18,28,5,9,0.7,1
2026-01-17T0500,4078A,112.8246,35.5152,晋城市,前书院路,颗粒物(PM10),81,111,136,51,54,45,,,,18,30,7,10,0.6,1.1
2026-01-17T0500,4079A,112.8864,35.4773,晋城市,祥云街666号,细颗粒物(PM2.5),92,107,132,68,65,42,,,,11,16,4,9,0.7,1.1
2026-01-17T0500,2174A,112.6992,37.6984,晋中市,榆次区政府,细颗粒物(PM2.5),105,127,123,79,56,38,,,,,39,7,12,0.6,0.7
2026-01-17T0500,2865A,112.7195,37.683,晋中市,榆次三中,颗粒物(PM10),85,119,122,61,43,44,,,,19,30,7,11,0.6,0.7
2026-01-17T0500,4080A,112.7375,37.7215,晋中市,广安街188号,细颗粒物(PM2.5),98,124,126,73,55,36,,,,30,38,7,13,0.6,0.6
2026-01-17T0500,4200A,112.7478,37.6954,晋中市,迎宾街26号,,,119,121,73,50,45,,,,,28,7,11,0.7,0.7
2026-01-17T0500,2439A,112.2012,31.048,荆门市,竹园小学,细颗粒物(PM2.5),156,228,150,119,91,57,,,,25,33,,2,1.1,1.2
2026-01-17T0500,2440A,112.1968,30.9892,荆门市,掇刀,细颗粒物(PM2.5),149,221,144,114,86,55,,,,21,27,,7,0.7,0.6
2026-01-17T0500,3012A,112.1849,31.0361,荆门市,西山林语,细颗粒物(PM2.5),142,210,140,108,79,54,,,,24,29,,9,0.6,0.6
2026-01-17T0500,3547A,112.1631,31.0134,荆门市,龙泉中学南校,细颗粒物(PM2.5),170,230,155,129,90,66,,,,18,19,,7,0.8,0.9
2026-01-17T0500,4124A,112.2213,31.0654,荆门市,新台西路6号,细颗粒物(PM2.5),178,210,165,134,121,47,,,,19,29,7,11,0.9,0.9
2026-01-17T0500,1844A,112.2493,30.3198,荆州市,市图书馆,细颗粒物(PM2.5),158,160,126,120,113,53,,,,24,39,8,10,1.1,1.1
2026-01-17T0500,1845A,112.2009,30.3543,荆州市,市委党校,细颗粒物(PM2.5),148,198,146,113,111,50,,,,29,41,4,6,1.0,1
2026-01-17T0500,3194A,112.2749,30.3124,荆州市,管委会,细颗粒物(PM2.5),155,170,130,118,112,45,,,,28,43,7,9,1.0,1
2026-01-17T0500,4268A,112.1722,30.3366,荆州市,学苑路85号,细颗粒物(PM2.5),166,176,146,126,110,61,,,,19,31,8,11,1.1,1
2026-01-17T0500,2343A,117.2114,29.2931,景德镇市,老干部活动中心,细颗粒物(PM2.5),58,52,61,41,44,29,,,,20,29,9,8,0.8,0.8
2026-01-17T0500,2344A,117.1893,29.2789,景德镇市,兽医站,颗粒物(PM10),57,64,75,37,43,49,,,,19,33,7,8,0.6,1
2026-01-17T0500,2346A,117.246,29.2958,景德镇市,陶研所,细颗粒物(PM2.5),64,50,64,46,50,15,,,,29,34,4,4,0.5,0.6
2026-01-17T0500,4289A,117.154766,29.256967,景德镇市,青少年活动中心,细颗粒物(PM2.5),53,50,77,37,49,33,,,,24,44,6,9,/,/
2026-01-17T0500,1803A,115.9873,29.6816,九江市,十里,细颗粒物(PM2.5),148,134,135,113,98,36,,,,,89,10,11,1.3,1.6
2026-01-17T0500,1804A,115.9583,29.7047,九江市,茅山头,细颗粒物(PM2.5),147,140,135,112,94,7,,,,81,82,17,15,1.2,1.5
2026-01-17T0500,1805A,115.9877,29.7295,九江市,西园,细颗粒物(PM2.5),124,130,147,94,104,29,,,,,118,6,9,1.0,1.4
2026-01-17T0500,1808A,115.9112,29.6038,九江市,综合工业园,细颗粒物(PM2.5),109,115,113,82,93,52,,,,,83,8,8,0.4,0.8
2026-01-17T0500,3190A,116.0254,29.6995,九江市,外国语学校,细颗粒物(PM2.5),122,121,134,92,96,37,,,,,82,10,11,1.0,1.4
2026-01-17T0500,4253A,116.010205,29.659402,九江市,莲花大道8号,细颗粒物(PM2.5),95,104,108,71,86,66,,,,15,43,8,8,0.6,0.9
2026-01-17T0500,4240A,98.495752,39.733935,酒泉市,玉门东路5号,,36,36,79,16,27,67,,,,1,15,10,11,0.2,0.5
2026-01-17T0500,4241A,98.5099,39.7506,酒泉市,北大街108号,,29,29,70,9,24,57,,,,5,13,9,11,0.3,0.5
2026-01-17T0500,2698A,76.0071,39.466,喀什地区,巡警大队,细颗粒物(PM2.5),140,228,178,107,72,4,,,,83,46,10,8,4.0,1.6
2026-01-17T0500,2699A,75.9756,39.4693,喀什地区,吾办,细颗粒物(PM2.5),129,191,160,98,71,6,,,,76,44,14,12,4.2,1.5
2026-01-17T0500,4027A,75.9485,39.4688,喀什地区,老干局,颗粒物(PM10),144,237,194,80,58,4,,,,61,37,7,8,3.4,1.5
2026-01-17T0500,1824A,114.3389,34.778,开封市,肿瘤医院,"颗粒物(PM10),细颗粒物(PM2.5)",52,54,150,36,74,48,,,,18,29,4,4,0.6,0.9
2026-01-17T0500,1826A,114.2884,34.7966,开封市,世纪星幼儿园,,,61,143,40,91,50,,,,,29,6,6,0.5,0.7
2026-01-17T0500,3147A,114.3434,34.8101,开封市,龙亭公园,,50,50,139,34,90,47,,,,5,20,6,6,0.4,1.1
2026-01-17T0500,3210A,114.3645,34.7955,开封市,汴京公园,细颗粒物(PM2.5),55,57,141,39,84,46,,,,14,29,4,4,0.9,1
2026-01-17T0500,3473A,114.2485,34.8306,开封市,技师学院,颗粒物(PM10),55,59,137,38,86,48,,,,13,28,6,6,0.7,1
2026-01-17T0500,3592A,114.4518,34.7503,开封市,祥符区生态环境局,颗粒物(PM10),65,80,181,41,82,37,,,,25,33,4,4,0.6,0.8
2026-01-17T0500,1951A,84.886,45.6029,克拉玛依市,长征新村,,17,17,17,11,11,47,,,,12,10,4,6,0.3,0.3
2026-01-17T0500,1952A,84.8894,45.5827,克拉玛依市,南林小区,,17,13,16,8,9,52,,,,8,8,1,2,0.5,0.4
2026-01-17T0500,1954A,84.896,44.3328,克拉玛依市,独山子区,,19,19,35,13,21,53,,,,20,26,5,5,0.3,0.3
2026-01-17T0500,1955A,85.6888,46.0909,克拉玛依市,乌尔禾区商贸楼,,17,13,17,3,8,52,,,,14,16,6,7,0.4,0.4
2026-01-17T0500,3612A,85.1045,45.6895,克拉玛依市,白碱滩区新站,,20,20,25,12,10,57,,,,10,12,8,9,0.2,0.2
2026-01-17T0500,2697A,76.1457,39.7143,克孜勒苏柯尔克孜自治州,市人民政府,颗粒物(PM10),125,200,155,63,60,56,,,,18,23,5,5,0.6,0.6
2026-01-17T0500,3665A,76.1654,39.7157,克孜勒苏柯尔克孜自治州,克州文化中心,颗粒物(PM10),110,169,157,62,52,46,,,,22,24,7,7,0.9,1
2026-01-17T0500,1450A,102.8203,24.889,昆明市,呈贡新区,颗粒物(PM10),58,66,40,31,21,0,,,,37,25,8,5,0.8,0.7
2026-01-17T0500,1452A,102.7253,25.0904,昆明市,龙泉镇,,35,29,33,24,20,10,,,,31,28,2,3,0.4,0.4
2026-01-17T0500,1453A,102.7267,25.0378,昆明市,东风东路,,41,41,43,26,24,4,,,,40,31,5,6,0.4,0.4
2026-01-17T0500,1454A,102.6744,25.0671,昆明市,金鼎山,,49,49,37,28,21,3,,,,49,26,4,3,0.8,0.7
2026-01-17T0500,1455A,102.6643,25.0401,昆明市,碧鸡广场,颗粒物(PM10),55,59,40,28,24,1,,,,53,34,4,5,0.5,0.5
2026-01-17T0500,3179A,102.7491,25.012,昆明市,官渡区博物馆,颗粒物(PM10),60,70,46,39,27,1,,,,48,33,3,6,1.0,0.5
2026-01-17T0500,3375A,102.8016,24.8336,昆明市,青年创业园,,34,34,30,18,18,8,,,,34,26,3,5,0.6,0.6
2026-01-17T0500,3550A,102.8,24.9787,昆明市,昆明学院,颗粒物(PM10),61,72,40,42,24,1,,,,49,31,3,6,0.6,0.4
2026-01-17T0500,3551A,102.5969,24.6738,昆明市,晋宁区生态环境分局,细颗粒物(PM2.5),52,51,36,36,24,3,,,,41,20,3,2,0.6,0.5
2026-01-17T0500,3552A,102.6673,24.9861,昆明市,云天化总部,,44,44,32,26,20,9,,,,46,32,6,9,0.4,0.3
2026-01-17T0500,1456A,91.132,29.6515,拉萨市,八廓街,,19,14,21,7,12,60,,,,8,18,6,7,0.2,0.4
2026-01-17T0500,1457A,91.1221,29.6748,拉萨市,市环保局,,26,,33,18,24,39,,,,23,28,7,9,0.7,1
2026-01-17T0500,1458A,91.0874,29.6476,拉萨市,区监测站,,18,11,16,8,10,55,,,,16,31,4,4,0.8,0.9
2026-01-17T0500,1459A,91.1774,29.6541,拉萨市,西藏大学,,19,9,20,8,11,59,,,,11,19,4,5,0.4,0.6
2026-01-17T0500,1460A,90.9798,29.6586,拉萨市,区辐射站,,26,26,35,8,22,32,,,,30,33,4,5,0.8,0.8
2026-01-17T0500,1461A,91.0831,29.6292,拉萨市,拉萨火车站,,25,24,18,12,11,20,,,,49,30,4,4,1.1,0.8
2026-01-17T0500,2520A,109.2203,23.7252,来宾市,来宾技工学校,细颗粒物(PM2.5),128,113,92,97,66,24,,,,23,21,10,9,1.2,0.9
2026-01-17T0500,3535A,109.1781,23.7293,来宾市,兴宾区政府,细颗粒物(PM2.5),103,105,92,77,67,20,,,,24,20,7,7,0.9,0.8
2026-01-17T0500,4002A,109.2312,23.7428,来宾市,中南小学,细颗粒物(PM2.5),130,113,87,99,61,24,,,,27,30,7,6,1.2,0.9
2026-01-17T0500,1479A,103.8309,36.0467,兰州市,铁路设计院,,,,,,,,,,,,,,,,
2026-01-17T0500,3241A,103.7439,36.0841,兰州市,百合公园,颗粒物(PM10),72,93,143,45,51,0,,,,59,65,12,22,1.5,1.6
2026-01-17T0500,3242A,103.9613,35.9985,兰州市,和平,,,,135,,43,,,71,,,33,,20,,1.3
2026-01-17T0500,4236A,103.629272,36.093822,兰州市,庄浪东路808号,颗粒物(PM10),85,119,141,50,58,9,,,,65,64,27,28,1.4,1.1
2026-01-17T0500,4237A,103.7251,36.104344,兰州市,安宁西路88号,颗粒物(PM10),95,140,159,57,51,1,,,,70,70,20,24,1.2,1.2
2026-01-17T0500,4238A,103.846982,36.067567,兰州市,北滨河东路1号,颗粒物(PM10),92,133,153,57,56,1,,,,67,72,9,17,1.3,1.4
2026-01-17T0500,1067A,116.6712,39.5109,廊坊市,药材公司,颗粒物(PM10),61,71,71,36,39,25,,,,35,31,5,5,0.7,0.9
2026-01-17T0500,1068A,116.7215,39.5592,廊坊市,开发区,细颗粒物(PM2.5),57,52,65,40,35,19,,,,43,35,2,3,0.5,0.6
2026-01-17T0500,1070A,116.7246,39.5273,廊坊市,北华航天学院,颗粒物(PM10),60,70,82,37,42,18,,,,39,35,3,4,0.6,0.7
2026-01-17T0500,2919A,116.7022,39.5454,廊坊市,河北工业大学,颗粒物(PM10),56,61,73,38,40,17,,,,33,28,2,3,0.6,0.6
2026-01-17T0500,2536A,103.7629,29.5844,乐山市,牛耳桥,细颗粒物(PM2.5),149,137,130,114,110,1,,,,,44,4,6,0.9,1.1
2026-01-17T0500,2537A,103.7501,29.6002,乐山市,市第三水厂,细颗粒物(PM2.5),128,125,136,97,111,1,,,,32,49,6,8,0.9,1.1
2026-01-17T0500,2538A,103.7571,29.5664,乐山市,市监测站,细颗粒物(PM2.5),150,140,136,115,117,0,,,,34,38,5,7,1.0,0.9
2026-01-17T0500,3361A,103.7313,29.563,乐山市,理工大学,细颗粒物(PM2.5),153,149,138,117,117,1,,,,52,40,6,7,1.1,0.8
2026-01-17T0500,2599A,100.2497,26.8802,丽江市,丽江古城,,31,31,32,20,15,54,,,,10,13,10,10,0.4,0.5
2026-01-17T0500,2600A,100.2203,26.8906,丽江市,市中心,,19,15,22,3,11,59,,,,8,13,6,7,0.4,0.4
2026-01-17T0500,1267A,119.9141,28.4513,丽水市,监测站大楼,,42,40,58,29,41,0,,,,50,49,5,6,0.5,0.8
2026-01-17T0500,1268A,119.93,28.4589,丽水市,莲都小学,,50,50,62,23,30,1,,,,65,50,/,/,/,/
2026-01-17T0500,1269A,119.8794,28.4232,丽水市,余庄前,,,49,56,34,35,0,,,,,31,4,5,0.4,0.5
2026-01-17T0500,1173A,119.1759,34.5885,连云港市,市环境监测站,,46,46,167,27,123,49,,,,14,26,9,14,0.4,0.8
2026-01-17T0500,3000A,119.3577,34.6971,连云港市,德源药业,,31,31,187,12,113,65,,,,12,38,5,8,0.7,1.2
2026-01-17T0500,3007A,119.178,34.8442,连云港市,新城一中,颗粒物(PM10),60,70,177,22,132,47,,,,18,51,10,13,0.9,1.4
2026-01-17T0500,3008A,119.3607,34.7519,连云港市,胡沟管理处,,24,24,137,7,97,67,,,,9,32,7,10,0.4,1.1
2026-01-17T0500,3009A,119.1478,34.5913,连云港市,矿山设计院,颗粒物(PM10),51,51,173,22,116,53,,,,15,34,5,11,0.5,1.1
2026-01-17T0500,3434A,119.2414,34.6539,连云港市,工贸学校,,30,30,158,20,119,56,,,,8,31,9,14,0.8,1.3
2026-01-17T0500,3664A,119.4171,34.734,连云港市,连云街道,,,21,158,9,108,65,,,,,48,2,6,0.4,1
2026-01-17T0500,2573A,102.2629,27.8981,凉山彝族自治州,西昌市政府,,38,34,41,26,28,53,,,,9,17,6,10,0.6,0.7
2026-01-17T0500,2574A,102.2686,27.885,凉山彝族自治州,凉山州政府,,40,40,47,27,31,49,,,,13,22,7,11,0.5,0.7
2026-01-17T0500,4229A,102.2342,27.8859,凉山彝族自治州,凯乐南路30号,细颗粒物(PM2.5),64,72,60,46,36,5,,,,49,41,5,9,0.7,0.8
2026-01-17T0500,2212A,123.1978,41.2036,辽阳市,宏伟区,,32,,50,22,45,60,,,,7,21,8,9,0.2,0.6
2026-01-17T0500,2213A,123.1684,41.2497,辽阳市,新华园,,20,20,48,7,32,55,,,,10,28,6,11,0.1,0.4
2026-01-17T0500,2214A,123.2355,41.2663,辽阳市,滨河路,,35,35,58,13,43,48,,,,11,33,5,9,0.1,0.3
2026-01-17T0500,4083A,123.153,41.2874,辽阳市,铁西路150号,,18,18,49,9,41,51,,,,17,35,8,11,0.6,0.9
2026-01-17T0500,2227A,125.1359,42.8845,辽源市,环保局,细颗粒物(PM2.5),82,78,102,60,63,10,,,,54,44,5,8,1.2,1.1
2026-01-17T0500,4085A,125.0998,42.9134,辽源市,安宁大街333号,细颗粒物(PM2.5),80,72,75,59,69,22,,,,34,30,7,7,0.8,0.9
2026-01-17T0500,1625A,115.9789,36.4372,聊城市,区政府,,,48,118,27,61,43,,,,,33,13,13,0.8,1
2026-01-17T0500,3200A,115.9772,36.4986,聊城市,监控中心,,45,44,103,31,68,37,,,,26,27,8,8,0.9,1
2026-01-17T0500,3513A,116.0443,36.436,聊城市,九州社区,,,54,118,30,66,53,,,,,17,4,5,0.5,0.7
2026-01-17T0500,4018A,116.0564,36.4609,聊城市,星美广场,颗粒物(PM10),52,53,123,28,64,46,,,,14,24,4,5,0.5,0.8
2026-01-17T0500,4113A,116.0091,36.4495,聊城市,利民路,颗粒物(PM10),52,53,112,24,66,36,,,,29,32,10,10,0.7,0.9
2026-01-17T0500,2632A,94.3683,29.6373,林芝市,林芝监测站,,19,6,19,3,10,59,,,,3,15,3,4,0.3,0.5
2026-01-17T0500,2633A,94.3616,29.6634,林芝市,林芝人民医院,,17,9,21,3,13,52,,,,9,12,3,2,0.2,0.4
2026-01-17T0500,2603A,100.0779,23.8981,临沧市,市环保局,细颗粒物(PM2.5),54,,36,38,40,30,,,,9,11,4,5,0.6,0.6
2026-01-17T0500,2604A,100.0894,23.882,临沧市,市气象局,,30,26,41,21,28,27,,,,9,12,4,5,0.4,0.4
2026-01-17T0500,1733A,111.5552,36.0791,临汾市,临钢医院,颗粒物(PM10),100,149,144,72,56,16,,,,29,40,6,10,1.4,1.4
2026-01-17T0500,1734A,111.4984,36.0734,临汾市,技工学校,颗粒物(PM10),92,133,158,59,62,7,,,,42,45,8,11,1.1,1.2
2026-01-17T0500,1736A,111.5017,36.0857,临汾市,市委,颗粒物(PM10),97,144,154,62,58,10,,,,42,48,10,14,1.3,1.4
2026-01-17T0500,3018A,111.5048,36.1015,临汾市,唐尧大酒店,颗粒物(PM10),93,135,147,66,60,6,,,,47,51,5,8,1.2,1.3
2026-01-17T0500,4244A,111.4879,36.053,临汾市,启星学校,颗粒物(PM10),95,139,144,59,65,4,,,,53,56,7,12,1.5,1.4
2026-01-17T0500,4271A,103.2464,35.6123,临夏回族自治州,滨河东路1号,颗粒物(PM10),115,179,187,53,70,0,,,,38,39,9,10,1.7,1.4
2026-01-17T0500,4310A,103.207136,35.599807,临夏回族自治州,新华街21号,颗粒物(PM10),69,88,152,46,68,3,,,,43,38,10,13,1.2,1.5
2026-01-17T0500,1618A,118.3429,35.0532,临沂市,沂河小区,,45,39,181,31,143,47,,,,21,40,10,14,0.5,1
2026-01-17T0500,1619A,118.2962,35.0568,临沂市,鲁南制药厂,,33,24,181,23,130,49,,,,13,38,10,15,0.4,1.2
2026-01-17T0500,1620A,118.2793,34.9976,临沂市,新光毛纺厂,,36,,173,25,130,49,,,,31,45,8,14,0.5,1.1
2026-01-17T0500,1621A,118.3955,35.0889,临沂市,河东保险公司,,,41,180,20,118,42,,,,,41,7,12,0.6,1.1
2026-01-17T0500,3370A,118.3563,35.0215,临沂市,十里堡居委,,27,27,181,17,113,50,,,,23,43,10,14,0.5,1.1
2026-01-17T0500,3496A,118.359,35.1067,临沂市,南坊新区,,,31,170,22,121,50,,,,,43,9,13,0.6,1.1
2026-01-17T0500,3860A,118.3915,35.0297,临沂市,皇山花园小区,,,34,191,21,117,44,,,,,45,11,16,0.6,1.2
2026-01-17T0500,1870A,109.4854,24.3898,柳州市,柳东小学,细颗粒物(PM2.5),135,113,110,103,93,42,,,,20,33,10,21,1.0,0.9
2026-01-17T0500,1871A,109.4109,24.3304,柳州市,环保监测站,细颗粒物(PM2.5),259,236,135,209,105,9,,,,41,43,10,9,1.9,1.4
2026-01-17T0500,1872A,109.3886,24.3408,柳州市,河西水厂,细颗粒物(PM2.5),246,278,174,196,114,3,,,,46,45,13,13,1.7,1.3
2026-01-17T0500,1873A,109.4263,24.2951,柳州市,市四中,细颗粒物(PM2.5),253,254,138,203,95,14,,,,41,48,14,12,1.7,1.4
2026-01-17T0500,1874A,109.396,24.3658,柳州市,市九中,细颗粒物(PM2.5),265,269,156,215,113,18,,,,37,41,14,16,1.8,1.4
2026-01-17T0500,1875A,109.4912,24.3164,柳州市,古亭山,细颗粒物(PM2.5),84,84,100,62,70,0,,,,34,44,11,13,0.8,0.9
2026-01-17T0500,3402A,109.5422,24.3994,柳州市,市二中,细颗粒物(PM2.5),128,107,110,97,82,12,,,,28,39,8,21,0.9,1
2026-01-17T0500,2307A,116.5078,31.7369,六安市,监测大楼,细颗粒物(PM2.5),170,198,112,129,82,16,,,,,34,3,5,0.8,0.6
2026-01-17T0500,2308A,116.4738,31.7642,六安市,皖西学院,细颗粒物(PM2.5),172,195,126,130,87,16,,,,33,33,5,6,0.9,0.6
2026-01-17T0500,2309A,116.4997,31.7904,六安市,朝阳厂,细颗粒物(PM2.5),162,170,125,123,86,16,,,,,38,5,7,0.9,0.7
2026-01-17T0500,2310A,116.5566,31.7885,六安市,开发区,细颗粒物(PM2.5),162,197,127,123,81,17,,,,,44,4,7,0.8,0.7
2026-01-17T0500,2577A,104.8293,26.592,六盘水市,黄土坡,细颗粒物(PM2.5),104,103,98,78,79,23,,,,16,28,6,10,1.1,1.3
2026-01-17T0500,2579A,104.8481,26.5898,六盘水市,民中,细颗粒物(PM2.5),132,,102,100,90,22,,,,33,35,10,10,1.3,1.4
2026-01-17T0500,2580A,104.9541,26.5506,六盘水市,双水,细颗粒物(PM2.5),124,117,102,94,79,35,,,,16,21,4,5,0.7,0.8
2026-01-17T0500,4151A,104.8899,26.5685,六盘水市,钟山大道中段564号,细颗粒物(PM2.5),133,152,144,101,95,16,,,,25,29,11,10,1.3,1.7
2026-01-17T0500,2336A,117.022,25.1031,龙岩市,龙岩市监测站,,,52,58,40,40,21,,,,,46,17,23,0.6,0.8
2026-01-17T0500,2337A,117.0257,25.0662,龙岩市,闽西职业技术学院,,,58,56,39,31,33,,,,,30,21,13,0.6,0.6
2026-01-17T0500,2338A,117.0195,25.0306,龙岩市,龙岩学院,,,45,46,32,32,43,,,,,19,8,10,/,/
2026-01-17T0500,2885A,104.9344,33.3827,陇南市,滨江中学,颗粒物(PM10),61,71,119,36,53,5,,,,42,51,12,19,1.2,2.7
2026-01-17T0500,3247A,104.9551,33.3709,陇南市,市总工会,颗粒物(PM10),56,61,85,34,40,19,,,,31,39,11,11,0.8,1
2026-01-17T0500,2488A,111.9984,27.7346,娄底市,市监测站,,,80,119,62,88,60,,,,,45,16,17,0.8,1.1
2026-01-17T0500,2491A,111.9888,27.7035,娄底市,市政府,细颗粒物(PM2.5),107,96,123,80,99,44,,,,24,40,8,12,0.8,1
2026-01-17T0500,4127A,111.9812,27.7591,娄底市,涟钢职大,细颗粒物(PM2.5),112,121,130,84,86,36,,,,16,33,4,11,0.8,1
2026-01-17T0500,4128A,112.0303,27.7457,娄底市,娄底体校,细颗粒物(PM2.5),129,112,116,98,96,21,,,,17,25,2,5,0.9,0.9
2026-01-17T0500,1894A,105.4427,28.9063,泸州市,小市上码头,细颗粒物(PM2.5),103,144,170,77,132,6,,,,25,40,5,8,1.5,1.5
2026-01-17T0500,1895A,105.4241,28.8573,泸州市,兰田宪桥,细颗粒物(PM2.5),192,244,228,144,150,3,,,,11,20,8,8,1.6,1.4
2026-01-17T0500,1896A,105.4378,28.8833,泸州市,市环监站,细颗粒物(PM2.5),149,185,190,114,141,8,,,,25,39,9,9,1.4,1.4
2026-01-17T0500,4272A,105.3689,28.7783,泸州市,纳溪中医医院,细颗粒物(PM2.5),98,116,162,73,146,6,,,,8,21,7,8,1.2,1.4
2026-01-17T0500,2183A,111.1447,37.5212,吕梁市,环保局,颗粒物(PM10),81,111,107,37,31,2,,,,42,40,5,5,0.4,0.3
2026-01-17T0500,2185A,111.1285,37.5338,吕梁市,自来水公司,颗粒物(PM10),113,175,137,40,41,2,,,,41,36,14,8,0.6,0.6
2026-01-17T0500,2867A,111.1225,37.5093,吕梁市,马茂庄小学,,,119,130,46,35,1,,,,,41,18,7,0.4,0.4
2026-01-17T0500,1812A,112.3934,34.6517,洛阳市,市委党校,,,79,138,43,69,57,,,,,45,9,15,0.7,1
2026-01-17T0500,1815A,112.494,34.6883,洛阳市,河南林校,,,91,148,53,82,50,,,,,43,10,15,0.7,0.9
2026-01-17T0500,1816A,112.3843,34.623,洛阳市,开发区管委会,颗粒物(PM10),68,86,152,45,79,56,,,,22,37,10,16,0.8,1
2026-01-17T0500,1817A,112.4263,34.6249,洛阳市,市委新办公区,细颗粒物(PM2.5),70,85,144,51,74,57,,,,24,40,10,13,0.5,0.7
2026-01-17T0500,3340A,112.6005,34.6323,洛阳市,伊滨,细颗粒物(PM2.5),100,99,151,75,84,51,,,,26,34,8,11,0.6,0.7
2026-01-17T0500,3341A,112.495,34.6338,洛阳市,中移产业园,细颗粒物(PM2.5),67,80,141,48,78,47,,,,22,39,8,14,0.6,0.8
2026-01-17T0500,3593A,112.5736,34.8993,洛阳市,吉利监测站,细颗粒物(PM2.5),80,99,143,59,78,53,,,,22,41,9,12,0.9,0.9
2026-01-17T0500,3635A,112.3678,34.6623,洛阳市,河科大西苑校区,颗粒物(PM10),71,92,152,49,68,56,,,,27,42,10,15,0.8,1
2026-01-17T0500,3636A,112.4387,34.678,洛阳市,英才小学,,,88,160,63,88,49,,,,,47,11,17,0.7,1
2026-01-17T0500,4214A,112.460027,34.694929,洛阳市,春都路1号院,,,97,171,47,72,51,,,,,37,9,12,0.9,1.1
2026-01-17T0500,2399A,114.051,33.5721,漯河市,三五一五工厂,,,103,160,63,97,34,,,,,32,6,7,0.7,0.8
2026-01-17T0500,2400A,114.0055,33.5698,漯河市,漯河大学,细颗粒物(PM2.5),85,103,156,63,91,33,,,,14,26,5,6,0.7,0.8
2026-01-17T0500,2401A,114.0134,33.5826,漯河市,市水利局,细颗粒物(PM2.5),89,105,167,66,95,32,,,,17,28,4,5,0.7,0.8
2026-01-17T0500,2402A,114.0261,33.5697,漯河市,市广电局,细颗粒物(PM2.5),90,103,162,67,91,35,,,,16,30,6,7,0.7,0.8
2026-01-17T0500,3478A,113.9691,33.568,漯河市,市图书馆,细颗粒物(PM2.5),89,125,175,66,96,34,,,,15,27,3,5,0.8,0.9
2026-01-17T0500,4250A,114.089259,33.588274,漯河市,韶山路11号,细颗粒物(PM2.5),89,115,164,66,93,27,,,,15,30,6,8,0.9,0.9
2026-01-17T0500,1798A,118.5084,31.6838,马鞍山市,湖东路四小,细颗粒物(PM2.5),222,229,146,172,92,75,,,,18,56,3,9,1.1,1.1
2026-01-17T0500,1799A,118.5019,31.6449,马鞍山市,开发区,细颗粒物(PM2.5),231,221,156,181,112,80,,,,18,63,4,9,1.0,1
2026-01-17T0500,3633A,118.4914,31.681,马鞍山市,雨山,细颗粒物(PM2.5),212,223,144,162,99,77,,,,19,58,,12,1.1,1.2
2026-01-17T0500,4191A,118.527362,31.722269,马鞍山市,慈湖高新区,细颗粒物(PM2.5),229,220,154,179,108,78,,,,17,62,5,10,1.0,1
2026-01-17T0500,1686A,111.0285,21.469,茂名市,电白南海,细颗粒物(PM2.5),62,63,62,44,33,77,,,,26,20,11,11,0.7,0.7
2026-01-17T0500,1687A,110.9294,21.6533,茂名市,茂石化七小,,,90,76,56,40,56,,,,,29,12,11,0.5,0.5
2026-01-17T0500,1688A,110.9108,21.6688,茂名市,健康路,细颗粒物(PM2.5),83,85,66,61,41,99,,,,32,26,44,20,0.9,0.8
2026-01-17T0500,1689A,110.8592,21.6826,茂名市,高岭,细颗粒物(PM2.5),89,117,94,66,45,69,,,,47,30,17,19,/,/
2026-01-17T0500,3450A,111.0101,21.5165,茂名市,电白水东,颗粒物(PM10),51,51,56,29,32,121,,,,14,16,12,12,/,/
2026-01-17T0500,2540A,103.8414,30.0871,眉山市,气象局,细颗粒物(PM2.5),153,144,137,117,111,5,,,,43,52,12,18,0.9,1.1
2026-01-17T0500,3148A,103.829,30.0563,眉山市,区人社局,细颗粒物(PM2.5),185,151,137,139,115,1,,,,42,55,10,14,1.0,1.3
2026-01-17T0500,4148A,103.8836,30.0695,眉山市,眉职院,细颗粒物(PM2.5),133,142,131,101,92,0,,,,41,41,1,8,0.9,1
2026-01-17T0500,1690A,116.1248,24.3307,梅州市,梅江月梅,颗粒物(PM10),56,61,56,35,35,10,,,,46,39,/,/,/,/
2026-01-17T0500,1691A,116.0798,24.2719,梅州市,梅县新城,细颗粒物(PM2.5),53,53,66,37,44,20,,,,38,47,7,9,0.6,0.8
2026-01-17T0500,3315A,116.1234,24.2994,梅州市,梅龙,,,51,59,34,36,9,,,,,38,11,10,0.8,0.9
2026-01-17T0500,1878A,104.7775,31.4741,绵阳市,富乐山,细颗粒物(PM2.5),87,86,86,64,63,5,,,,43,44,8,8,0.6,0.7
2026-01-17T0500,1880A,104.6698,31.4668,绵阳市,高新区自来水公司,细颗粒物(PM2.5),107,125,101,80,64,0,,,,39,50,8,9,0.9,0.9
2026-01-17T0500,3491A,104.6899,31.5324,绵阳市,西科大附属小学,"颗粒物(PM10),细颗粒物(PM2.5)",79,107,106,58,66,14,,,,40,56,8,9,0.9,0.8
2026-01-17T0500,3492A,104.5647,31.5343,绵阳市,安州区旅游局,细颗粒物(PM2.5),85,74,97,63,69,8,,,,26,45,12,13,0.6,0.8
2026-01-17T0500,4146A,104.7092,31.4972,绵阳市,科技城新区公安局,颗粒物(PM10),92,134,97,67,58,14,,,,49,55,9,10,1.0,0.9
2026-01-17T0500,4226A,104.765114,31.453094,绵阳市,绵阳市气象局,细颗粒物(PM2.5),98,108,99,73,66,1,,,,49,58,14,8,0.8,1
2026-01-17T0500,1784A,129.61,44.561,牡丹江市,环保大楼,,45,36,31,31,24,46,,,,18,16,4,5,0.3,0.3
2026-01-17T0500,1787A,129.6364,44.6075,牡丹江市,机车工厂,,36,36,45,23,31,43,,,,22,18,4,4,0.3,0.5
2026-01-17T0500,1788A,129.6386,44.5462,牡丹江市,第一中学,,29,21,27,20,28,48,,,,12,15,6,6,0.4,0.4
2026-01-17T0500,4287A,129.5992,44.5964,牡丹江市,东晓云街98号,细颗粒物(PM2.5),58,,41,41,36,41,,,,22,15,6,5,0.6,0.6
2026-01-17T0500,2531A,105.0703,29.61,内江市,市监测站,细颗粒物(PM2.5),168,,141,127,143,12,,,,,31,7,7,1.0,1.2
2026-01-17T0500,2533A,105.0657,29.5807,内江市,内江二中,细颗粒物(PM2.5),168,145,166,127,137,2,,,,44,43,5,5,1.2,1.2
2026-01-17T0500,2534A,105.0407,29.5828,内江市,内江日报社,细颗粒物(PM2.5),178,,134,134,133,2,,,,42,42,2,3,1.1,1.1
2026-01-17T0500,4147A,105.0433,29.6105,内江市,玉峰路西段888号,细颗粒物(PM2.5),168,134,137,127,137,1,,,,29,38,1,2,1.1,1.2
2026-01-17T0500,2628A,92.0653,31.4846,那曲市,那曲监测站,颗粒物(PM10),54,57,53,34,35,6,,,,45,31,9,9,2.5,1.6
2026-01-17T0500,4243A,92.0515,31.4787,那曲市,那曲市委宣传部,,20,16,29,9,19,16,,,,39,26,7,8,1.0,1.2
2026-01-17T0500,1291A,115.8887,28.7006,南昌市,省林业公司,,,48,88,46,66,67,,,,,53,5,9,1.2,1.3
2026-01-17T0500,1292A,115.813,28.7443,南昌市,林科所,细颗粒物(PM2.5),58,51,81,41,54,99,,,,11,45,10,14,0.4,0.5
2026-01-17T0500,1294A,115.8518,28.687,南昌市,建工学校,细颗粒物(PM2.5),63,56,106,45,69,85,,,,21,55,13,19,0.9,1.2
2026-01-17T0500,1295A,115.8926,28.6425,南昌市,象湖,细颗粒物(PM2.5),77,,89,56,64,85,,,,13,44,10,16,0.6,0.9
2026-01-17T0500,3046A,115.9084,28.6062,南昌市,机电学校,细颗粒物(PM2.5),70,67,113,51,72,88,,,,15,47,5,12,0.6,0.9
2026-01-17T0500,3690A,115.9718,28.7032,南昌市,外国语学校,细颗粒物(PM2.5),79,59,82,58,73,70,,,,35,42,14,17,0.7,0.8
2026-01-17T0500,4106A,115.7923,28.6873,南昌市,工业二路,细颗粒物(PM2.5),64,53,88,46,71,74,,,,11,45,5,11,1.1,1.7
2026-01-17T0500,4192A,115.931587,28.686774,南昌市,南京东路235号,细颗粒物(PM2.5),63,56,101,45,77,82,,,,13,46,7,11,0.9,1
2026-01-17T0500,1906A,106.0791,30.8022,南充市,南充市委,细颗粒物(PM2.5),173,146,129,131,115,2,,,,34,53,4,5,1.1,1.3
2026-01-17T0500,1907A,106.1038,30.8215,南充市,南充炼油厂,细颗粒物(PM2.5),192,150,135,144,114,9,,,,28,40,6,6,1.2,1.2
2026-01-17T0500,4227A,106.108336,30.788436,南充市,梨树横街98号,细颗粒物(PM2.5),173,184,151,131,112,6,,,,39,40,6,6,1.0,1
2026-01-17T0500,4304A,106.1172,30.843,南充市,清泉寺北路188号,细颗粒物(PM2.5),145,140,113,111,102,12,,,,23,28,6,7,0.8,0.8
2026-01-17T0500,4305A,106.067,30.7616,南充市,同庆路1号,细颗粒物(PM2.5),170,142,129,129,112,7,,,,23,44,6,7,0.9,1.2
2026-01-17T0500,1151A,118.8033,32.1085,南京市,迈皋桥,细颗粒物(PM2.5),125,149,132,95,89,91,,,,,56,3,7,0.6,0.9
2026-01-17T0500,1152A,118.7487,32.057,南京市,草场门,细颗粒物(PM2.5),128,146,141,97,90,62,,,,21,64,5,10,0.9,1.1
2026-01-17T0500,1154A,118.770105,32.004342,南京市,中华门,细颗粒物(PM2.5),147,161,133,112,92,85,,,,,56,4,7,0.9,1
2026-01-17T0500,1155A,118.8059,32.0329,南京市,瑞金路,细颗粒物(PM2.5),140,171,151,107,101,85,,,,13,68,4,4,1.1,1.4
2026-01-17T0500,1156A,118.7946,32.0774,南京市,玄武湖,细颗粒物(PM2.5),142,179,137,108,93,84,,,,22,31,4,4,1.1,1.2
2026-01-17T0500,1157A,118.6415,32.0964,南京市,浦口,细颗粒物(PM2.5),159,195,145,121,92,80,,,,16,40,8,12,1.3,1.4
2026-01-17T0500,1158A,118.730129,32.000956,南京市,奥体中心,细颗粒物(PM2.5),149,174,143,114,96,94,,,,14,65,6,11,0.9,1.2
2026-01-17T0500,1159A,118.9072,32.1047,南京市,仙林大学城,细颗粒物(PM2.5),140,151,136,107,94,91,,,,15,55,6,10,1.1,1.2
2026-01-17T0500,3422A,118.8443,31.919,南京市,江宁彩虹桥,细颗粒物(PM2.5),156,187,144,119,104,96,,,,9,66,4,6,1.0,1
2026-01-17T0500,3427A,118.8497,32.3599,南京市,六合雄州,细颗粒物(PM2.5),120,159,161,91,112,89,,,,13,49,2,9,0.8,1.1
2026-01-17T0500,4086A,118.7641,32.0841,南京市,新模范马路66号,细颗粒物(PM2.5),163,168,147,124,102,115,,,,,52,4,4,1.3,1.4
2026-01-17T0500,4249A,118.8707617,31.34017673,南京市,汶溪路181号,细颗粒物(PM2.5),214,178,115,164,103,86,,,,,48,3,10,1.4,1.2
2026-01-17T0500,4312A,119.019,31.6512,南京市,中山西路1号,细颗粒物(PM2.5),204,173,122,154,103,97,,,,,44,4,5,1.2,1
2026-01-17T0500,1401A,108.3098,22.788,南宁市,二十一中,细颗粒物(PM2.5),73,63,66,53,48,28,,,,28,22,4,5,0.8,0.8
2026-01-17T0500,1402A,108.3135,22.8529,南宁市,北湖,细颗粒物(PM2.5),79,78,83,58,58,26,,,,42,32,3,4,0.8,0.9
2026-01-17T0500,1403A,108.3205,22.8222,南宁市,市监测站,细颗粒物(PM2.5),80,70,70,59,54,36,,,,29,27,6,7,0.8,0.9
2026-01-17T0500,1404A,108.3828,22.8038,南宁市,大自然花园,细颗粒物(PM2.5),83,87,73,61,52,24,,,,36,24,6,6,0.8,0.9
2026-01-17T0500,1406A,108.2397,22.8462,南宁市,区农职院,细颗粒物(PM2.5),95,94,81,71,52,5,,,,54,36,8,9,0.9,1
2026-01-17T0500,1407A,108.3285,22.7356,南宁市,英华嘉园,细颗粒物(PM2.5),83,74,73,61,53,19,,,,31,26,3,5,0.8,0.9
2026-01-17T0500,3401A,108.4829,22.762,南宁市,红星社区,细颗粒物(PM2.5),79,80,74,58,53,1,,,,50,27,3,5,0.7,0.8
2026-01-17T0500,4132A,108.2927,23.1477,南宁市,起凤路9号,细颗粒物(PM2.5),93,78,80,69,63,34,,,,18,23,2,3,0.7,0.8
2026-01-17T0500,4221A,108.2177,22.7774,南宁市,乐贤路16号,"颗粒物(PM10),细颗粒物(PM2.5)",68,85,77,49,51,0,,,,56,35,4,4,0.9,0.9
2026-01-17T0500,2332A,118.1682,26.6371,南平市,南平市监测站,细颗粒物(PM2.5),57,55,57,40,36,9,,,,36,30,7,7,0.5,0.6
2026-01-17T0500,2334A,118.1757,26.6276,南平市,南平七中,细颗粒物(PM2.5),53,,44,37,34,7,,,,36,31,3,5,0.7,0.7
2026-01-17T0500,1168A,120.9056,31.9669,南通市,狼山街道,细颗粒物(PM2.5),102,96,142,76,118,127,,,,14,56,2,4,0.7,0.8
2026-01-17T0500,1170A,120.8635,32.0231,南通市,城中,细颗粒物(PM2.5),122,114,162,92,122,136,,,,15,56,2,5,0.9,1.1
2026-01-17T0500,1171A,120.9376,31.9301,南通市,星湖花园,细颗粒物(PM2.5),114,109,153,86,122,139,,,,,60,3,6,0.7,0.9
2026-01-17T0500,1172A,120.8053,32.046,南通市,紫琅学院,细颗粒物(PM2.5),138,135,173,105,129,146,,,,14,60,3,6,0.8,0.9
2026-01-17T0500,3291A,121.0631,32.0644,南通市,通州监测站,细颗粒物(PM2.5),125,110,130,95,111,138,,,,16,38,3,5,1.1,1.2
2026-01-17T0500,3432A,120.9348,31.9874,南通市,环境教育馆,细颗粒物(PM2.5),122,107,142,92,118,130,,,,12,61,4,6,0.8,1
2026-01-17T0500,4091A,120.8692,31.9885,南通市,洪江路,细颗粒物(PM2.5),129,106,142,98,135,124,,,,12,48,2,5,1.0,1.1
2026-01-17T0500,2404A,112.5338,33.0086,南阳市,瓦房庄,细颗粒物(PM2.5),110,108,153,83,103,45,,,,17,27,6,9,0.8,1
2026-01-17T0500,2405A,112.5002,32.9734,南阳市,汉画馆,细颗粒物(PM2.5),95,122,167,71,96,48,,,,18,32,6,8,0.8,0.9
2026-01-17T0500,2406A,112.5778,33.0144,南阳市,气象站,细颗粒物(PM2.5),98,130,182,73,93,44,,,,20,30,5,8,0.8,0.9
2026-01-17T0500,2407A,112.548,32.9687,南阳市,理工学院,"颗粒物(PM10),细颗粒物(PM2.5)",83,116,164,61,84,40,,,,24,34,5,7,0.8,0.9
2026-01-17T0500,4008A,112.5233,32.9921,南阳市,卧龙区政府,细颗粒物(PM2.5),97,136,180,72,96,46,,,,23,37,6,8,0.7,0.9
2026-01-17T0500,1234A,121.8352,29.9111,宁波市,区环保大楼,颗粒物(PM10),73,96,101,51,61,0,,,,83,90,6,9,0.8,0.9
2026-01-17T0500,1235A,121.5595,29.8208,宁波市,万里学院,细颗粒物(PM2.5),103,118,104,77,71,6,,,,83,58,5,6,0.8,0.7
2026-01-17T0500,1236A,121.713,29.9564,宁波市,龙赛医院,细颗粒物(PM2.5),110,114,118,83,84,29,,,,55,94,4,10,0.8,1
2026-01-17T0500,1240A,121.5855,29.8635,宁波市,太古小学,细颗粒物(PM2.5),89,102,98,66,68,0,,,,85,54,5,5,0.8,0.7
2026-01-17T0500,1241A,121.5239,29.8673,宁波市,市环境监测中心,细颗粒物(PM2.5),115,109,90,87,68,0,,,,98,66,7,9,,0.8
2026-01-17T0500,2871A,121.6156,29.9015,宁波市,万里国际学校,细颗粒物(PM2.5),95,122,104,71,67,2,,,,88,75,4,7,0.8,0.7
2026-01-17T0500,3710A,121.5593,29.8976,宁波市,白沙活动中心,细颗粒物(PM2.5),128,173,113,97,74,0,,,,92,77,5,7,1.3,1
2026-01-17T0500,4095A,121.8962,29.7529,宁波市,中科路88号,颗粒物(PM10),61,71,92,41,67,34,,,,40,54,5,7,0.5,0.5
2026-01-17T0500,2341A,119.5387,26.6611,宁德市,宁德市监测站,,,23,33,20,21,48,,,,,26,4,4,0.7,0.7
2026-01-17T0500,3209A,119.5231,26.6562,宁德市,宁德一中,,30,30,33,21,23,60,,,,13,19,6,6,0.5,0.5
2026-01-17T0500,2618A,98.859,25.8541,怒江傈僳族自治州,州监测站,,22,19,31,15,20,46,,,,7,11,5,5,0.3,0.4
2026-01-17T0500,2619A,98.8607,25.8168,怒江傈僳族自治州,泸水一中,,24,24,30,10,20,25,,,,11,19,6,6,0.4,0.5
2026-01-17T0500,1888A,101.6891,26.571,攀枝花市,弄弄坪,,,44,58,39,37,35,,,,,28,8,20,0.7,1.4
2026-01-17T0500,1889A,101.577,26.5914,攀枝花市,河门口,颗粒物(PM10),53,56,56,31,31,18,,,,21,23,13,19,1.2,1
2026-01-17T0500,1891A,101.7365,26.4986,攀枝花市,仁和,,,51,47,36,29,28,,,,,21,7,12,0.8,0.9
2026-01-17T0500,2835A,101.7222,26.567,攀枝花市,四十中小,颗粒物(PM10),59,67,65,40,39,6,,,,37,42,11,18,1.1,1.5
2026-01-17T0500,1604A,122.0303,41.1489,盘锦市,开发区,,17,12,37,8,21,54,,,,7,9,3,3,0.3,0.7
2026-01-17T0500,1605A,122.0486,41.0883,盘锦市,兴隆台,,17,12,28,7,17,54,,,,15,15,7,6,0.5,0.5
2026-01-17T0500,1606A,121.8297,41.1026,盘锦市,新生街道,,,18,25,10,13,25,,,,,18,5,5,0.7,0.5
2026-01-17T0500,1832A,113.3257,33.7423,平顶山市,新华旅馆,颗粒物(PM10),85,119,184,54,91,41,,,,26,41,5,7,0.5,0.7
2026-01-17T0500,1833A,113.2917,33.737,平顶山市,规划设计院,细颗粒物(PM2.5),82,107,182,60,82,49,,,,18,28,6,8,0.6,0.8
2026-01-17T0500,1834A,113.182,33.7738,平顶山市,平顶山工学院,,,99,165,53,84,52,,,,,28,7,10,0.6,0.7
2026-01-17T0500,3594A,112.8736,33.9068,平顶山市,石龙区,细颗粒物(PM2.5),97,128,183,72,87,33,,,,22,30,6,9,0.8,0.7
2026-01-17T0500,4116A,113.284,33.7139,平顶山市,姚电大道23号,颗粒物(PM10),90,130,195,66,92,47,,,,22,34,7,10,0.7,0.8
2026-01-17T0500,2656A,106.6633,35.5338,平凉市,聚贤嘉苑,颗粒物(PM10),60,69,80,26,27,10,,,,46,31,12,14,0.6,0.5
2026-01-17T0500,2657A,106.7021,35.5307,平凉市,博物馆,颗粒物(PM10),65,79,86,34,32,7,,,,50,36,12,14,0.9,0.7
2026-01-17T0500,2348A,113.8384,27.6436,萍乡市,中医院,细颗粒物(PM2.5),69,57,99,50,67,66,,,,15,38,4,13,1.1,1.4
2026-01-17T0500,2350A,113.8677,27.6438,萍乡市,市环保局,细颗粒物(PM2.5),65,53,90,47,68,82,,,,12,32,17,24,0.8,1.1
2026-01-17T0500,2351A,113.8663,27.6202,萍乡市,安源区政府,细颗粒物(PM2.5),85,65,104,63,95,65,,,,14,32,15,20,0.9,1.4
2026-01-17T0500,4107A,113.8686,27.6668,萍乡市,联洪村委会,细颗粒物(PM2.5),67,73,93,48,67,63,,,,13,26,2,5,0.7,0.9
2026-01-17T0500,2319A,119.0142,25.4324,莆田市,荔城区仓后路,,42,38,63,29,35,42,,,,17,33,/,/,/,/
2026-01-17T0500,2320A,119.0016,25.4553,莆田市,莆田市监测站,,33,29,37,23,25,56,,,,8,13,3,4,0.7,0.7
2026-01-17T0500,2321A,119.112,25.4561,莆田市,涵江区六中,细颗粒物(PM2.5),58,50,64,41,33,18,,,,40,47,/,/,0.7,0.8
2026-01-17T0500,2322A,119.1014,25.3215,莆田市,秀屿区政府,细颗粒物(PM2.5),60,46,48,43,30,44,,,,26,22,5,6,1.0,0.8
2026-01-17T0500,2392A,115.0312,35.7636,濮阳市,环保局,,,51,117,37,65,39,,,,,28,8,7,0.2,0.6
2026-01-17T0500,3021A,115,35.7667,濮阳市,濮水河管理处,颗粒物(PM10),55,60,126,34,67,41,,,,26,29,6,5,0.8,0.9
2026-01-17T0500,4118A,115.0552,35.7816,濮阳市,中原东路68号,,,67,132,37,68,38,,,,,29,4,4,0.3,0.5
2026-01-17T0500,4216A,115.0923632,35.76857718,濮阳市,任丘路479号,,,65,130,42,71,36,,,,,29,6,5,0.5,0.7
2026-01-17T0500,2601A,100.9801,22.7634,普洱市,市环保局,,44,44,56,21,20,31,,,,5,10,5,5,0.4,0.4
2026-01-17T0500,2602A,100.9763,22.8237,普洱市,普洱第二中学,,32,32,49,14,22,14,,,,14,17,5,5,0.2,0.3
2026-01-17T0500,3345A,131.0413,45.7795,七台河市,中波台,细颗粒物(PM2.5),58,49,34,41,26,36,,,,27,17,12,14,0.7,0.5
2026-01-17T0500,3637A,131.0136,45.7688,七台河市,人民广场,细颗粒物(PM2.5),53,42,43,37,34,46,,,,20,22,6,11,0.5,0.6
2026-01-17T0500,3684A,130.8639,45.8144,七台河市,新建矿广场,,48,,32,33,26,50,,,,10,14,7,7,0.4,0.3
2026-01-17T0500,1779A,123.9307,47.3641,齐齐哈尔市,安居小区,细颗粒物(PM2.5),59,,34,42,36,53,,,,12,15,5,7,0.3,0.5
2026-01-17T0500,1780A,123.9497,47.3389,齐齐哈尔市,中心广场,,18,10,23,3,14,55,,,,7,14,6,7,0.6,0.7
2026-01-17T0500,1781A,123.9483,47.3229,齐齐哈尔市,农牧车辆厂,,18,17,27,3,17,57,,,,5,11,6,6,0.3,0.4
2026-01-17T0500,1783A,123.9442,47.2994,齐齐哈尔市,市环境监测站,,18,6,34,3,24,57,,,,5,16,5,7,0.6,0.8
2026-01-17T0500,3662A,123.6341,47.2079,齐齐哈尔市,富区青少年活动中心,,19,18,35,7,22,58,,,,8,15,11,10,0.5,0.7
2026-01-17T0500,2591A,107.9765,26.5724,黔东南苗族侗族自治州,市环境监测站,细颗粒物(PM2.5),137,113,105,104,92,2,,,,30,34,6,8,0.9,0.9
2026-01-17T0500,2881A,107.8909,26.531,黔东南苗族侗族自治州,凯里学院,细颗粒物(PM2.5),103,95,97,77,74,10,,,,23,24,1,4,0.7,0.7
2026-01-17T0500,2593A,107.5223,26.2371,黔南布依族苗族自治州,小围寨,细颗粒物(PM2.5),110,92,83,83,72,27,,,,9,16,6,9,1.1,1.1
2026-01-17T0500,3538A,107.5175,26.2977,黔南布依族苗族自治州,沙坝,细颗粒物(PM2.5),113,112,94,85,73,11,,,,13,23,5,9,1.1,1.1
2026-01-17T0500,2589A,104.9022,25.0943,黔西南布依族苗族自治州,场坝街,细颗粒物(PM2.5),90,77,71,67,59,51,,,,16,17,57,25,0.6,0.7
2026-01-17T0500,2590A,104.8812,25.0994,黔西南布依族苗族自治州,坪东大道,细颗粒物(PM2.5),84,,55,62,53,43,,,,21,20,12,8,0.7,0.9
2026-01-17T0500,2502A,108.6238,21.9667,钦州市,市环保站,颗粒物(PM10),58,66,67,31,34,56,,,,27,29,4,3,0.5,0.5
2026-01-17T0500,2503A,108.655,21.9481,钦州市,沙埠小学,细颗粒物(PM2.5),55,53,71,39,36,47,,,,26,32,4,4,0.4,0.5
2026-01-17T0500,2504A,108.5989,21.7435,钦州市,港区一小,颗粒物(PM10),59,67,67,34,30,45,,,,34,33,5,4,0.8,0.7
2026-01-17T0500,3404A,108.5959,21.9634,钦州市,北职校,细颗粒物(PM2.5),60,68,58,43,38,14,,,,50,27,7,8,0.8,0.8
2026-01-17T0500,1046A,119.5247,39.9346,秦皇岛市,建设大厦,,28,,45,19,34,64,,,,3,13,5,7,0.2,0.4
2026-01-17T0500,3132A,119.5979,39.938,秦皇岛市,文明里,,26,26,47,17,23,61,,,,9,18,9,11,0.2,0.3
2026-01-17T0500,4066A,119.7458,39.9952,秦皇岛市,南园路157号,,,23,47,3,18,46,,,,,18,9,8,0.3,0.4
2026-01-17T0500,4067A,119.5131,39.8858,秦皇岛市,翠岛大街1号,,,26,49,3,19,66,,,,,10,8,10,0.2,0.4
2026-01-17T0500,4198A,119.509013,39.825305,秦皇岛市,北戴河轮滑馆,,22,22,46,13,26,65,,,,7,11,5,7,0.2,0.3
2026-01-17T0500,1310A,120.404,36.0625,青岛市,市南区东部子站,,25,24,130,17,69,64,,,,9,22,9,10,0.5,0.8
2026-01-17T0500,1311A,120.362344,36.10282,青岛市,四方区子站,,,34,132,9,76,61,,,,,13,3,3,0.6,1
2026-01-17T0500,1312A,120.294373,36.054183,青岛市,市南区西部子站,,27,27,122,15,66,55,,,,13,29,8,9,0.7,1.2
2026-01-17T0500,1313A,120.4581,36.0858,青岛市,崂山区子站,,20,19,120,14,61,61,,,,16,26,9,10,0.3,0.7
2026-01-17T0500,1315A,120.3945,36.3083,青岛市,城阳区子站,,31,31,118,20,57,61,,,,14,28,5,7,0.7,1
2026-01-17T0500,3642A,120.3454,36.0735,青岛市,市北区南部,,29,29,142,9,68,55,,,,12,21,1,2,0.6,1
2026-01-17T0500,3643A,120.3897,36.18,青岛市,李沧区北部,,28,24,117,19,79,62,,,,8,25,8,9,0.6,1
2026-01-17T0500,4110A,120.5222,36.4089,青岛市,盟旺路653号,,39,39,130,14,71,57,,,,17,29,2,4,0.4,0.9
2026-01-17T0500,4290A,120.196923,35.954556,青岛市,珠江路669号,,,24,122,22,80,44,,,,,32,12,11,0.5,0.9
2026-01-17T0500,4291A,120.0424,35.8656,青岛市,黄岛区人民政府广场,,29,29,117,14,68,59,,,,19,36,7,8,0.7,1.1
2026-01-17T0500,1703A,113.0218,23.7086,清远市,凤城街办,细颗粒物(PM2.5),93,93,94,69,67,55,,,,41,54,/,/,/,/
2026-01-17T0500,3025A,113.0479,23.6343,清远市,技师学院,细颗粒物(PM2.5),104,130,107,78,61,25,,,,70,66,15,10,0.7,0.7
2026-01-17T0500,3318A,112.9898,23.7403,清远市,清新太和,,,72,90,50,59,84,,,,,44,3,5,0.6,0.7
2026-01-17T0500,3455A,113.076,23.72,清远市,清城东城,细颗粒物(PM2.5),89,100,80,66,49,38,,,,52,43,/,/,/,/
2026-01-17T0500,2661A,107.6325,35.7357,庆阳市,庆阳五中,颗粒物(PM10),65,80,70,33,26,83,,,,17,18,5,9,0.4,0.4
2026-01-17T0500,2662A,107.6361,35.7067,庆阳市,市环保局,颗粒物(PM10),64,78,68,35,24,84,,,,13,12,7,7,0.4,0.4
2026-01-17T0500,1916A,103.7897,25.5036,曲靖市,环境监测站,颗粒物(PM10),57,64,34,28,15,3,,,,47,21,8,5,0.9,0.5
2026-01-17T0500,1917A,103.8013,25.5357,曲靖市,烟厂办公区,颗粒物(PM10),60,70,40,37,19,34,,,,25,28,22,6,1.3,0.4
2026-01-17T0500,3376A,103.7926,25.4651,曲靖市,南苑二区,,43,43,24,24,12,28,,,,23,11,7,5,0.5,0.3
2026-01-17T0500,3377A,103.7442,25.5259,曲靖市,曲靖师范学院,细颗粒物(PM2.5),55,56,33,39,19,1,,,,54,18,6,4,0.7,0.4
2026-01-17T0500,1264A,118.8694,28.94,衢州市,环保大楼,细颗粒物(PM2.5),110,111,95,83,64,1,,,,80,69,/,/,/,/
2026-01-17T0500,1266A,118.8622,28.9809,衢州市,衢州学院,细颗粒物(PM2.5),97,100,77,72,52,3,,,,79,63,6,7,0.7,0.6
2026-01-17T0500,4097A,118.9646,28.9832,衢州市,衢州三中,细颗粒物(PM2.5),113,119,94,85,60,1,,,,77,62,6,7,1.0,0.9
2026-01-17T0500,1611A,118.5818,24.9116,泉州市,涂山街,细颗粒物(PM2.5),77,71,75,56,44,31,,,,32,38,3,4,0.7,0.7
2026-01-17T0500,1612A,118.597,24.8976,泉州市,津头埔,,,73,76,61,47,27,,,,,45,5,6,0.7,0.7
2026-01-17T0500,1613A,118.6669,24.9422,泉州市,万安,细颗粒物(PM2.5),60,60,73,43,37,33,,,,37,43,4,5,0.7,0.7
2026-01-17T0500,4105A,118.6355,24.9148,泉州市,霞新路6号,细颗粒物(PM2.5),59,64,61,42,38,43,,,,23,46,/,/,0.6,0.7
2026-01-17T0500,2626A,88.8873,29.2723,日喀则市,日喀则监测站,,35,35,30,19,19,18,,,,14,18,10,16,0.5,0.6
2026-01-17T0500,3726A,88.8775,29.2425,日喀则市,林业技术推广中心,,34,34,26,22,16,25,,,,18,13,12,12,0.8,0.5
2026-01-17T0500,1659A,119.4711,35.421,日照市,监测站,,34,34,148,13,93,52,,,,16,43,6,10,0.5,1.2
2026-01-17T0500,1660A,119.523,35.4216,日照市,市政府广场,,34,34,138,13,89,58,,,,19,41,8,11,0.3,0.9
2026-01-17T0500,1661A,119.5511,35.4113,日照市,港务局,,45,36,151,31,102,55,,,,22,41,7,8,0.3,1
2026-01-17T0500,3507A,119.5326,35.4627,日照市,职业技术学院,,31,31,145,14,82,56,,,,20,43,6,9,0.6,1.2
2026-01-17T0500,3604A,119.3267,35.1043,日照市,岚山环保分局,颗粒物(PM10),56,61,174,38,116,22,,,,46,46,60,31,4.2,2.8
2026-01-17T0500,1835A,111.1922,34.7752,三门峡市,市政府,,,84,119,53,66,69,,,,,38,9,15,0.6,0.9
2026-01-17T0500,1836A,111.1588,34.794,三门峡市,开发区,颗粒物(PM10),82,113,135,46,60,66,,,,17,37,7,10,0.5,0.7
2026-01-17T0500,3039A,111.1911,34.7829,三门峡市,三门峡市第一小学,,,99,133,46,63,66,,,,,38,12,16,0.5,0.8
2026-01-17T0500,3598A,111.1031,34.719,三门峡市,富达温泉假日酒店,颗粒物(PM10),82,114,143,56,68,64,,,,21,39,9,14,0.6,0.8
2026-01-17T0500,2324A,117.621,26.2626,三明市,三钢,细颗粒物(PM2.5),65,54,56,47,46,17,,,,31,39,5,10,0.9,1.4
2026-01-17T0500,2325A,117.6352,26.2714,三明市,三明二中,细颗粒物(PM2.5),52,46,51,36,39,15,,,,31,36,1,6,0.8,1.2
2026-01-17T0500,2326A,117.6028,26.2377,三明市,三元区政府,,,54,65,42,44,19,,,,,46,4,11,0.9,1.5
2026-01-17T0500,1877A,109.4962,18.2682,三亚市,河西子站,,37,37,37,22,18,73,,,,9,14,3,3,0.4,0.3
2026-01-17T0500,3540A,109.7348,18.3443,三亚市,君悦子站,,22,16,31,15,15,32,,,,16,12,5,5,0.4,0.4
2026-01-17T0500,4135A,109.1714,18.3739,三亚市,城东小学站,,35,28,34,24,18,16,,,,12,11,/,/,/,/
2026-01-17T0500,2624A,91.7592,29.234,山南市,山南监测站,,10,10,22,3,12,28,,,,5,13,5,5,0.4,0.5
2026-01-17T0500,2625A,91.7701,29.2436,山南市,山南人民医院,,14,10,18,3,10,42,,,,12,14,7,8,0.3,0.5
2026-01-17T0500,1674A,116.6795,23.3666,汕头市,金平子站,细颗粒物(PM2.5),75,75,59,55,35,19,,,,69,40,17,11,1.0,0.8
2026-01-17T0500,1675A,116.7248,23.3632,汕头市,龙湖子站,颗粒物(PM10),68,85,57,45,31,22,,,,61,34,24,14,/,/
2026-01-17T0500,1676A,116.7257,23.2774,汕头市,濠江子站,,,69,50,43,32,25,,,,,31,15,11,/,/
2026-01-17T0500,1677A,116.7518,23.4712,汕头市,澄海子站,,,70,63,48,36,75,,,,,29,10,11,0.7,0.7
2026-01-17T0500,1678A,116.6088,23.2539,汕头市,潮阳子站,,,56,53,32,31,58,,,,,24,14,10,0.9,0.8
2026-01-17T0500,3444A,116.4539,23.2684,汕头市,潮南峡山,,,74,69,48,46,49,,,,,28,11,11,0.7,0.7
2026-01-17T0500,3624A,116.4069,23.2533,汕头市,潮南子站,细颗粒物(PM2.5),77,98,76,56,41,42,,,,33,30,10,9,/,/
2026-01-17T0500,1693A,115.3653,22.7751,汕尾市,市环保局,,,38,40,31,29,77,,,,,19,8,8,0.6,0.7
2026-01-17T0500,1695A,115.362,22.7926,汕尾市,新城中学,,42,42,42,25,26,69,,,,15,17,6,6,0.5,0.5
2026-01-17T0500,2645A,109.9155,33.8714,商洛市,监测站,颗粒物(PM10),73,95,83,44,37,26,,,,28,32,4,5,0.7,0.7
2026-01-17T0500,3045A,109.9647,33.8486,商洛市,商州区中学,颗粒物(PM10),63,75,90,32,33,18,,,,33,34,4,6,0.5,0.6
2026-01-17T0500,2408A,115.6701,34.4283,商丘市,环境监测站,细颗粒物(PM2.5),94,98,149,70,95,17,,,,26,29,2,3,0.7,0.7
2026-01-17T0500,2409A,115.6458,34.4047,商丘市,粮食局,,,109,142,66,88,16,,,,,24,3,3,0.9,0.8
2026-01-17T0500,3171A,115.6069,34.4465,商丘市,梁园区档案局,细颗粒物(PM2.5),85,93,143,63,90,16,,,,24,26,5,6,0.7,0.7
2026-01-17T0500,4119A,115.6701,34.3767,商丘市,北海东路185号,细颗粒物(PM2.5),93,118,164,69,91,17,,,,25,25,2,3,0.8,0.8
2026-01-17T0500,4120A,115.6172,34.3704,商丘市,中山大街3号,细颗粒物(PM2.5),102,121,167,76,94,22,,,,26,26,2,4,0.6,0.5
2026-01-17T0500,1141A,121.401,31.2382,上海市,普陀,细颗粒物(PM2.5),92,92,133,68,115,138,,,,13,58,5,8,0.8,1
2026-01-17T0500,1142A,121.4774,31.2043,上海市,十五厂,,,93,144,67,114,134,,,,,67,6,8,1.0,1.1
2026-01-17T0500,1143A,121.4673,31.3011,上海市,虹口,,,96,148,62,111,118,,,,,67,6,8,0.8,1
2026-01-17T0500,1147A,121.4253,31.226,上海市,静安监测站,细颗粒物(PM2.5),89,87,130,66,109,139,,,,14,51,6,9,0.8,0.9
2026-01-17T0500,1148A,121.7029,31.1905,上海市,浦东川沙,细颗粒物(PM2.5),78,76,112,57,70,103,,,,26,59,6,7,0.6,0.7
2026-01-17T0500,1149A,121.5339,31.229,上海市,浦东新区监测站,细颗粒物(PM2.5),93,83,133,69,112,132,,,,21,63,6,8,0.7,1
2026-01-17T0500,1150A,121.5776,31.2038,上海市,浦东张江,,,80,133,62,103,133,,,,,66,6,8,0.5,0.7
2026-01-17T0500,3265A,121.4242,31.3303,上海市,宝山庙行,细颗粒物(PM2.5),89,100,145,66,112,118,,,,14,61,6,8,0.6,0.8
2026-01-17T0500,3266A,121.8789,31.4662,上海市,崇明上实东滩,,,74,84,41,57,107,,,,,22,3,4,0.3,0.4
2026-01-17T0500,3268A,121.316,31.2839,上海市,嘉定南翔,颗粒物(PM10),72,94,126,50,103,122,,,,15,75,4,6,0.7,0.9
2026-01-17T0500,3269A,121.3357,30.7455,上海市,金山新城,细颗粒物(PM2.5),108,,121,81,124,105,,,,21,53,7,10,0.7,0.9
2026-01-17T0500,3270A,121.4996,31.0741,上海市,闵行浦江,细颗粒物(PM2.5),82,80,140,60,110,128,,,,14,62,6,8,0.7,0.8
2026-01-17T0500,3271A,121.2886,31.1663,上海市,青浦徐泾,细颗粒物(PM2.5),93,87,146,69,115,132,,,,18,74,4,7,0.7,1
2026-01-17T0500,3272A,121.2193,31.0382,上海市,松江图书馆,,,95,162,,139,127,,,,,78,6,8,0.7,0.9
2026-01-17T0500,3273A,121.3904,31.206,上海市,长宁仙霞,细颗粒物(PM2.5),85,87,130,63,102,135,,,,13,54,6,8,0.3,0.5
2026-01-17T0500,3274A,121.7964,31.0507,上海市,浦东惠南,细颗粒物(PM2.5),77,68,90,56,75,118,,,,15,55,3,5,0.8,0.8
2026-01-17T0500,3544A,121.4891,30.925,上海市,奉贤南桥新城,细颗粒物(PM2.5),87,76,144,64,121,128,,,,19,66,1,4,0.6,0.8
2026-01-17T0500,4183A,121.417401,31.16637,上海市,冠生园路458号,细颗粒物(PM2.5),93,80,131,69,111,115,,,,16,56,6,6,0.7,0.9
2026-01-17T0500,4205A,121.541914,31.268301,上海市,宁武路151号,细颗粒物(PM2.5),95,88,152,71,118,110,,,,19,86,4,6,1.0,1.2
2026-01-17T0500,2382A,117.9758,28.4439,上饶市,市监测站,颗粒物(PM10),78,105,83,53,45,16,,,,77,50,52,29,/,/
2026-01-17T0500,2383A,117.9521,28.4637,上饶市,凤凰光学,颗粒物(PM10),63,76,83,41,44,16,,,,52,58,28,18,0.8,0.9
2026-01-17T0500,3685A,117.897,28.4316,上饶市,双创科技城,细颗粒物(PM2.5),68,78,83,49,50,36,,,,51,60,24,15,0.9,1
2026-01-17T0500,4211A,118.190438,28.444845,上饶市,裕丰大道,细颗粒物(PM2.5),64,71,79,46,50,33,,,,32,46,14,14,1.1,1
2026-01-17T0500,1669A,113.5821,24.7733,韶关市,市八中,细颗粒物(PM2.5),105,125,120,79,76,6,,,,59,60,10,21,1.0,1
2026-01-17T0500,1671A,113.5916,24.7973,韶关市,园林处,细颗粒物(PM2.5),117,104,85,88,74,5,,,,62,62,7,20,/,/
2026-01-17T0500,1673A,113.5971,24.6864,韶关市,曲江监测站,细颗粒物(PM2.5),80,90,100,59,70,7,,,,51,52,10,20,0.8,1.1
2026-01-17T0500,2809A,113.6668,24.7756,韶关市,大学路288号,细颗粒物(PM2.5),105,93,79,79,63,24,,,,32,31,5,14,/,/
2026-01-17T0500,3622A,113.5556,24.8082,韶关市,碧湖山庄,细颗粒物(PM2.5),102,123,108,76,71,32,,,,28,35,7,16,0.8,0.8
2026-01-17T0500,2464A,111.5277,27.2442,邵阳市,市化工厂,细颗粒物(PM2.5),114,100,131,86,102,49,,,,24,43,12,11,0.9,1
2026-01-17T0500,2466A,111.4327,27.2276,邵阳市,市环保局,细颗粒物(PM2.5),125,,113,95,109,54,,,,14,40,7,8,1.7,1.8
2026-01-17T0500,4218A,111.446,27.2472,邵阳市,北塔二期4-26地块,细颗粒物(PM2.5),139,,127,106,126,42,,,,18,40,11,11,1.3,1.5
2026-01-17T0500,4219A,111.4739,27.2282,邵阳市,邵水西路287号,细颗粒物(PM2.5),112,95,119,84,98,48,,,,16,39,12,12,1.2,1.4
2026-01-17T0500,1247A,120.6053,29.9927,绍兴市,城东开发委,细颗粒物(PM2.5),168,148,115,127,92,2,,,,,59,8,8,0.9,0.8
2026-01-17T0500,2921A,120.5482,30.0003,绍兴市,树下王站,细颗粒物(PM2.5),166,157,126,126,97,1,,,,68,65,6,7,1.1,0.9
2026-01-17T0500,3408A,120.5685,29.936,绍兴市,绍兴中专,细颗粒物(PM2.5),178,157,107,134,84,1,,,,60,61,7,8,0.8,0.7
2026-01-17T0500,3409A,120.4905,30.086,绍兴市,柯桥区政府,细颗粒物(PM2.5),115,146,129,87,81,2,,,,84,84,6,8,1.0,1
2026-01-17T0500,3410A,120.8751,30.0249,绍兴市,重华小学,细颗粒物(PM2.5),140,111,99,107,91,2,,,,,55,7,9,0.6,0.6
2026-01-17T0500,3411A,120.837,30.0137,绍兴市,上虞中学,细颗粒物(PM2.5),128,120,111,97,110,0,,,,,66,8,9,0.7,0.7
2026-01-17T0500,3560A,120.4715,30.0414,绍兴市,柯桥妇保,细颗粒物(PM2.5),182,197,115,137,81,8,,,,63,52,6,7,1.0,0.8
2026-01-17T0500,3658A,120.6156,30.0762,绍兴市,袍江中学,细颗粒物(PM2.5),118,146,152,89,104,33,,,,41,71,3,5,1.1,1.2
2026-01-17T0500,1356A,114.0948,22.5506,深圳市,通心岭子站,,37,37,48,21,31,40,,,,27,43,6,7,0.5,0.6
2026-01-17T0500,1357A,114.1153,22.5713,深圳市,洪湖,颗粒物(PM10),59,68,59,33,31,4,,,,82,56,8,9,0.8,0.8
2026-01-17T0500,1358A,113.9823,22.5398,深圳市,华侨城,,42,42,51,29,33,34,,,,58,56,/,/,/,/
2026-01-17T0500,1359A,113.9181,22.517,深圳市,南海子站,颗粒物(PM10),57,63,72,30,44,27,,,,72,69,6,7,0.8,0.9
2026-01-17T0500,1360A,114.2345,22.565,深圳市,盐田,,30,25,32,17,21,94,,,,9,23,8,9,0.6,0.6
2026-01-17T0500,1363A,114.4911,22.5381,深圳市,南澳,,18,17,29,12,19,56,,,,9,16,/,/,/,/
2026-01-17T0500,1364A,114.41,22.6346,深圳市,葵涌,,28,28,34,17,22,45,,,,27,25,7,8,0.5,0.6
2026-01-17T0500,1365A,114.2967,22.5978,深圳市,梅沙,,29,23,38,15,19,92,,,,11,25,/,/,/,/
2026-01-17T0500,1366A,114.0563,22.7353,深圳市,观澜,颗粒物(PM10),69,88,112,49,63,10,,,,63,77,8,9,0.7,0.8
2026-01-17T0500,3305A,114.0614,22.556,深圳市,莲花,,38,38,52,24,32,51,,,,38,52,/,/,/,/
2026-01-17T0500,3306A,114.0144,22.6163,深圳市,民治,颗粒物(PM10),52,54,71,31,43,10,,,,91,76,/,/,/,/
2026-01-17T0500,3307A,114.1756,22.6421,深圳市,横岗,颗粒物(PM10),58,66,59,39,35,1,,,,108,61,/,/,/,/
2026-01-17T0500,3447A,114.344,22.7115,深圳市,坪山,颗粒物(PM10),59,68,51,33,28,12,,,,72,41,8,9,0.7,0.7
2026-01-17T0500,3623A,113.8952,22.586,深圳市,西乡,,,62,77,34,47,29,,,,,85,6,7,0.8,0.9
2026-01-17T0500,4220A,114.214113,22.713717,深圳市,黄阁路,,46,46,52,27,32,19,,,,54,41,6,7,0.7,0.8
2026-01-17T0500,1099A,123.5058,41.7084,沈阳市,浑南东路,,,29,50,21,37,44,,,,,40,21,16,0.4,0.6
2026-01-17T0500,1100A,123.4238,41.6992,沈阳市,新秀街,,26,21,40,18,31,61,,,,12,22,8,12,0.5,0.7
2026-01-17T0500,1102A,123.5903,41.8412,沈阳市,东陵路,,,22,59,18,45,44,,,,,43,6,8,0.4,0.8
2026-01-17T0500,1103A,123.4267,41.8466,沈阳市,陵东街,,34,34,49,20,35,52,,,,14,28,10,11,0.4,0.6
2026-01-17T0500,1104A,123.4116,41.7654,沈阳市,文化路,,20,20,46,13,28,44,,,,26,26,35,18,0.4,0.6
2026-01-17T0500,1105A,123.4673,41.787,沈阳市,小河沿,,,26,44,13,29,56,,,,,22,9,15,0.4,0.6
2026-01-17T0500,1106A,123.4019,41.7978,沈阳市,太原街,,17,9,37,9,34,52,,,,18,29,13,12,0.4,0.5
2026-01-17T0500,1108A,123.3778,41.9233,沈阳市,京沈街,,,23,43,12,38,46,,,,,33,6,7,0.3,0.5
2026-01-17T0500,2897A,123.2429,41.7341,沈阳市,沈辽西路,,25,25,49,15,32,53,,,,24,37,12,18,0.5,0.6
2026-01-17T0500,2900A,123.5951,41.9085,沈阳市,裕农路,,,31,53,15,40,28,,,,,41,5,8,0.5,0.7
