timepoint,stationcode,longitude,latitude,area,positionname,primarypollutant,aqi,pm10,pm10_24h,pm2_5,pm2_5_24h,o3,o3_24h,o3_8h,o3_8h_24h,no2,no2_24h,so2,so2_24h,co,co_24h
2026-01-17T0800,2568A,102.2503,31.8896,阿坝藏族羌族自治州,马师校,,25,18,25,17,17,31,,35,35,14,15,4,4,0.5,0.6
2026-01-17T0800,3994A,102.2174,31.9016,阿坝藏族羌族自治州,马尔康中学西区,,32,,19,22,15,38,,39,39,9,13,5,5,0.4,0.5
2026-01-17T0800,2695A,80.2899,41.1684,阿克苏地区,电视台,颗粒物(PM10),104,158,166,51,82,56,,20,20,21,51,8,6,1.1,1.9
2026-01-17T0800,2696A,80.2592,41.1541,阿克苏地区,艺术中心,颗粒物(PM10),102,153,157,57,88,69,,28,28,14,53,5,6,0.7,1.3
2026-01-17T0800,2205A,105.699,38.8409,阿拉善盟,蒙二幼,颗粒物(PM10),65,80,58,17,18,74,,77,77,9,14,12,12,0.5,0.6
2026-01-17T0800,2206A,105.7198,38.8508,阿拉善盟,环保局新楼,颗粒物(PM10),55,59,54,34,25,75,,79,79,6,9,12,11,0.6,0.6
2026-01-17T0800,2708A,88.1266,47.8515,阿勒泰地区,市站,,19,16,19,9,14,59,,59,59,12,25,2,4,0.6,0.5
2026-01-17T0800,4166A,88.1198,47.7931,阿勒泰地区,阿勒泰路33号,,24,24,28,15,19,58,,54,54,11,23,4,5,0.4,0.6
2026-01-17T0800,2630A,80.1171,32.4999,阿里地区,阿里监测站,,14,6,3,3,3,35,,59,59,27,7,5,6,0.6,0.5
2026-01-17T0800,3192A,80.0906,32.5029,阿里地区,阿里藏医院,,29,6,14,3,7,90,,90,90,1,6,9,12,0.4,0.5
2026-01-17T0800,2644A,109.0088,32.6974,安康市,汉滨区检察院,细颗粒物(PM2.5),59,55,77,42,50,7,,14,14,20,27,4,5,0.6,0.8
2026-01-17T0800,4054A,109.0324,32.6913,安康市,市邮政管理局,细颗粒物(PM2.5),68,69,96,49,62,4,,6,6,24,39,8,7,0.7,1.3
2026-01-17T0800,2291A,117.0806,30.5181,安庆市,环科院,细颗粒物(PM2.5),229,249,130,179,97,35,,49,49,24,36,6,10,1.1,0.8
2026-01-17T0800,2292A,117.0331,30.5118,安庆市,马山宾馆,细颗粒物(PM2.5),223,233,125,173,94,34,,53,53,28,38,5,10,1.3,1
2026-01-17T0800,2294A,116.9897,30.6146,安庆市,安庆大学,细颗粒物(PM2.5),220,230,125,170,91,35,,51,51,26,33,4,8,1.1,0.8
2026-01-17T0800,3173A,117.0598,30.5351,安庆市,市人大,细颗粒物(PM2.5),228,245,135,178,99,30,,48,48,31,46,6,11,1.0,0.8
2026-01-17T0800,3123A,105.9408,26.2431,安顺市,凤凰山,细颗粒物(PM2.5),150,126,97,115,88,8,,44,44,53,27,70,29,1.2,0.8
2026-01-17T0800,3124A,105.9443,26.2567,安顺市,金钟山,细颗粒物(PM2.5),135,106,87,103,86,44,,52,52,21,17,50,24,0.9,0.7
2026-01-17T0800,3125A,105.8983,26.248,安顺市,娄家坡,细颗粒物(PM2.5),133,113,99,101,89,49,,54,54,24,18,21,21,1.0,0.9
2026-01-17T0800,1819A,114.3552,36.1017,安阳市,红庙街,细颗粒物(PM2.5),58,63,126,41,85,39,,28,28,24,31,2,2,0.6,0.8
2026-01-17T0800,1820A,114.361,36.0681,安阳市,银杏小区,细颗粒物(PM2.5),60,59,122,43,85,37,,33,33,23,26,4,4,0.5,0.8
2026-01-17T0800,3141A,114.3921,36.0879,安阳市,信访局,细颗粒物(PM2.5),62,62,118,44,82,45,,41,41,21,25,5,4,0.7,0.9
2026-01-17T0800,3669A,114.4706,36.0634,安阳市,左辅环卫站,细颗粒物(PM2.5),64,75,132,46,82,40,,37,37,31,34,4,4,0.5,0.7
2026-01-17T0800,4117A,114.2918,36.0769,安阳市,钢三路198号,细颗粒物(PM2.5),84,83,142,62,84,36,,38,38,27,26,4,4,0.7,0.9
2026-01-17T0800,1748A,123.0441,41.1201,鞍山市,深沟寺,,32,32,43,18,28,32,,47,47,32,26,8,20,0.9,0.8
2026-01-17T0800,1749A,123.011,41.0931,鞍山市,太阳城,,28,28,40,15,26,46,,62,62,24,22,14,13,0.7,0.8
2026-01-17T0800,1750A,123.0483,41.1445,鞍山市,太平,颗粒物(PM10),51,52,49,29,30,28,,47,47,39,29,14,13,0.9,0.8
2026-01-17T0800,1751A,122.964,41.0968,鞍山市,铁西三道街,,30,30,46,12,27,37,,42,42,32,36,18,28,0.5,1.7
2026-01-17T0800,1753A,123.0219,41.0822,鞍山市,明达新区,,25,25,37,12,25,38,,52,52,23,22,16,13,0.4,0.5
2026-01-17T0800,4201A,122.944647,41.082639,鞍山市,兴盛南路290号,,46,46,56,13,32,38,,47,47,33,32,16,23,0.7,1.5
2026-01-17T0800,2195A,107.4206,40.7609,巴彦淖尔市,附二中,颗粒物(PM10),68,86,42,29,20,31,,36,36,22,14,12,7,0.6,0.5
2026-01-17T0800,2196A,107.37,40.7372,巴彦淖尔市,市环保大楼,颗粒物(PM10),67,83,42,24,16,34,,44,44,22,14,9,8,0.6,0.5
2026-01-17T0800,1956A,86.1476,41.7529,巴音郭楞蒙古自治州,孔雀公园,颗粒物(PM10),53,56,83,33,34,74,,77,77,5,16,9,9,0.4,0.5
2026-01-17T0800,1957A,86.1971,41.7166,巴音郭楞蒙古自治州,棉纺厂,颗粒物(PM10),63,76,92,33,30,45,,61,61,31,20,/,/,/,/
2026-01-17T0800,1958A,86.236,41.7172,巴音郭楞蒙古自治州,经济开发区,颗粒物(PM10),57,63,66,27,25,64,,66,66,8,12,6,7,0.5,0.5
2026-01-17T0800,3181A,106.776805,31.852614,巴中市,市五中,细颗粒物(PM2.5),92,95,99,68,70,2,,5,5,24,33,5,6,0.8,1
2026-01-17T0800,3183A,106.7419,31.8654,巴中市,圣泉水务公司,细颗粒物(PM2.5),80,74,80,59,61,2,,2,2,27,38,5,5,0.7,0.8
2026-01-17T0800,3616A,106.7617,31.8343,巴中市,市中心医院,细颗粒物(PM2.5),94,90,92,70,68,1,,0,0,25,38,7,7,0.9,1
2026-01-17T0800,2235A,122.7909,45.608,白城市,洮北区环保局,,23,23,48,12,34,46,,55,55,22,17,5,5,0.3,0.4
2026-01-17T0800,2236A,122.8741,45.5725,白城市,市环保局,,27,27,43,17,25,41,,53,53,19,16,7,5,0.3,0.5
2026-01-17T0800,2231A,126.4219,41.9172,白山市,喜丰,颗粒物(PM10),57,64,47,39,27,28,,36,36,33,23,17,12,0.7,0.7
2026-01-17T0800,2232A,126.4082,41.9416,白山市,环保局,细颗粒物(PM2.5),64,52,35,46,34,11,,31,31,42,22,10,16,0.9,0.6
2026-01-17T0800,2647A,104.1727,36.5448,白银市,第三小学,"颗粒物(PM10),细颗粒物(PM2.5)",94,138,140,70,58,19,,18,18,63,52,180,89,1.7,1
2026-01-17T0800,2648A,104.1467,36.5482,白银市,动力公司,颗粒物(PM10),79,108,127,54,49,29,,26,26,42,39,69,32,1.6,1
2026-01-17T0800,2512A,106.6102,23.901,百色市,市监测站,细颗粒物(PM2.5),95,81,86,71,64,7,,17,17,31,23,11,14,1.0,1
2026-01-17T0800,2513A,106.6524,23.8842,百色市,市中心血站,细颗粒物(PM2.5),113,98,109,85,81,4,,5,5,33,38,9,14,1.2,1.2
2026-01-17T0800,4133A,106.6273,23.8798,百色市,龙景西路,细颗粒物(PM2.5),122,127,126,92,83,1,,5,5,32,33,9,12,0.9,1
2026-01-17T0800,2270A,117.396,32.9389,蚌埠市,工人疗养院,细颗粒物(PM2.5),129,156,175,98,104,57,,49,49,14,38,4,7,0.7,0.9
2026-01-17T0800,2271A,117.3606,32.9428,蚌埠市,百货大楼,细颗粒物(PM2.5),127,155,161,96,99,54,,48,48,17,32,4,8,0.7,0.8
2026-01-17T0800,2273A,117.4183,32.8909,蚌埠市,蚌埠学院,细颗粒物(PM2.5),125,139,143,95,97,50,,45,45,28,32,4,8,0.7,0.8
2026-01-17T0800,2274A,117.3534,32.9672,蚌埠市,淮上区政府,细颗粒物(PM2.5),130,158,165,99,106,56,,49,49,20,40,1,5,0.8,0.8
2026-01-17T0800,2275A,117.3143,32.8977,蚌埠市,高新区,细颗粒物(PM2.5),135,146,158,103,106,46,,48,48,24,33,6,10,0.5,0.6
2026-01-17T0800,3715A,117.3091,32.9314,蚌埠市,蚌埠田家炳中学,细颗粒物(PM2.5),134,159,167,102,109,56,,49,49,16,38,3,8,0.8,0.9
2026-01-17T0800,1585A,109.8761,40.6533,包头市,市环境监测站,颗粒物(PM10),52,53,51,28,23,2,,8,8,53,40,13,11,1.0,0.8
2026-01-17T0800,1587A,109.9992,40.5843,包头市,包头八中,颗粒物(PM10),56,62,49,31,28,12,,16,16,50,38,27,14,1.0,0.7
2026-01-17T0800,1589A,109.8641,40.6288,包头市,惠龙物流,,47,47,44,26,24,3,,13,13,60,39,19,14,1.2,1.1
2026-01-17T0800,1590A,110.0376,40.5546,包头市,东河鸿龙湾,,34,34,40,18,19,25,,19,19,40,42,15,14,0.7,0.8
2026-01-17T0800,3283A,109.9154,40.5684,包头市,滨河大厦,,42,42,37,27,21,19,,16,16,38,34,12,11,0.8,0.8
2026-01-17T0800,3419A,109.9449,40.6259,包头市,包头市委党校,颗粒物(PM10),54,58,51,24,24,4,,6,6,54,43,11,11,1.0,0.9
2026-01-17T0800,3683A,109.8332,40.6577,包头市,昆区政府,,48,41,51,33,30,6,,9,9,59,47,16,16,1.1,1.2
2026-01-17T0800,1931A,107.0802,34.3129,宝鸡市,竹园沟,,39,39,74,25,26,17,,26,26,20,20,6,6,0.3,0.3
2026-01-17T0800,1933A,107.1429,34.3549,宝鸡市,监测站,颗粒物(PM10),63,75,91,31,36,9,,16,16,34,28,5,6,0.7,0.6
2026-01-17T0800,1934A,107.1172,34.3759,宝鸡市,技工学校,颗粒物(PM10),71,92,102,48,39,17,,27,27,28,24,32,8,1.1,0.8
2026-01-17T0800,1936A,107.2025,34.3518,宝鸡市,文理学院,颗粒物(PM10),68,85,95,35,44,10,,21,21,41,32,4,5,0.5,0.6
2026-01-17T0800,1937A,107.2396,34.3626,宝鸡市,三迪小学,颗粒物(PM10),72,94,104,48,50,5,,15,15,44,38,5,5,0.7,0.5
2026-01-17T0800,4155A,107.1721,34.3558,宝鸡市,滨河北路,颗粒物(PM10),75,99,98,41,36,12,,21,21,35,29,5,6,0.6,0.5
2026-01-17T0800,4308A,107.3898,34.3601,宝鸡市,陈仓区北开路21号,颗粒物(PM10),84,118,123,61,51,9,,14,14,48,48,9,18,0.7,0.4
2026-01-17T0800,1051A,115.4803,38.8568,保定市,游泳馆,颗粒物(PM10),56,62,91,23,56,11,,18,18,42,40,3,3,0.3,0.6
2026-01-17T0800,1052A,115.509,38.8895,保定市,华电二区,,47,47,85,32,62,13,,8,8,37,40,2,3,0.3,0.7
2026-01-17T0800,1053A,115.4588,38.9037,保定市,接待中心,颗粒物(PM10),51,52,88,20,55,15,,10,10,30,39,3,3,0.1,0.5
2026-01-17T0800,1054A,115.4484,38.8344,保定市,地表水厂,颗粒物(PM10),56,62,113,27,61,12,,20,20,41,42,4,6,0.4,0.7
2026-01-17T0800,3581A,115.3136,38.9511,保定市,满城区生态环境分局,颗粒物(PM10),58,66,104,29,60,20,,31,31,40,44,2,6,0.4,0.7
2026-01-17T0800,3582A,115.4709,38.7628,保定市,清苑区第二中学,颗粒物(PM10),63,76,120,31,55,3,,18,18,52,41,3,3,0.5,0.7
2026-01-17T0800,3583A,115.6231,39.0223,保定市,徐水物探局,,50,50,106,26,54,22,,15,15,29,38,2,4,0.4,0.7
2026-01-17T0800,4004A,115.4199,38.8665,保定市,双鹰农机,颗粒物(PM10),56,61,105,30,53,21,,22,22,33,37,4,7,0.4,0.7
2026-01-17T0800,4034A,115.515,38.8589,保定市,植保所站,细颗粒物(PM2.5),58,57,98,41,67,5,,3,3,43,45,3,2,0.6,0.9
2026-01-17T0800,2594A,99.1589,25.1137,保山市,市环境监测站,,38,,26,26,17,43,,51,51,8,9,9,5,0.4,0.4
2026-01-17T0800,2595A,99.1616,25.1381,保山市,市环保局,,27,27,33,15,20,54,,61,61,3,6,4,4,0.3,0.4
2026-01-17T0800,1867A,109.1435,21.4085,北海市,海滩公园,,39,34,40,27,25,71,,86,86,15,9,7,7,0.7,0.7
2026-01-17T0800,1868A,109.0983,21.466,北海市,新市环保局,细颗粒物(PM2.5),55,,44,39,34,77,,90,90,17,16,6,6,0.6,0.6
2026-01-17T0800,1869A,109.1775,21.5232,北海市,北海工业园,细颗粒物(PM2.5),85,,51,63,35,42,,64,64,23,14,10,7,0.9,0.7
2026-01-17T0800,3400A,109.1844,21.4396,北海市,龙潭自来水厂,细颗粒物(PM2.5),67,48,39,48,31,25,,46,46,18,10,16,14,0.8,0.6
2026-01-17T0800,1001A,116.3611,39.8786,北京市,万寿西宫,,35,35,21,10,7,41,,50,50,22,15,4,3,0.5,0.3
2026-01-17T0800,1003A,116.4174,39.9289,北京市,东四,,28,28,20,12,8,39,,46,46,23,17,7,5,0.5,0.4
2026-01-17T0800,1004A,116.4073,39.8858,北京市,天坛,,29,29,20,13,8,39,,47,47,22,15,6,3,0.5,0.3
2026-01-17T0800,1005A,116.4622,39.9364,北京市,农展馆,,16,14,18,3,5,50,,49,49,14,12,5,5,0.4,0.3
2026-01-17T0800,1006A,116.3399,39.9293,北京市,官园,,24,24,22,8,7,44,,52,52,16,12,7,5,0.5,0.4
2026-01-17T0800,1007A,116.2879,39.9613,北京市,海淀万柳,,16,16,18,7,7,46,,49,49,19,17,3,3,0.4,0.4
2026-01-17T0800,1008A,116.6635,40.1349,北京市,顺义新城,,20,11,28,3,13,63,,64,64,7,10,4,4,0.3,0.4
2026-01-17T0800,1009A,116.6275,40.327,北京市,怀柔镇,,18,10,26,3,14,55,,57,57,8,12,5,5,0.4,0.4
2026-01-17T0800,1010A,116.2295,40.217,北京市,昌平镇,,15,13,17,6,7,45,,36,36,16,18,1,2,0.4,0.3
2026-01-17T0800,1011A,116.3968,39.982,北京市,奥体中心,,16,13,18,6,7,49,,54,54,21,19,4,4,0.5,0.4
2026-01-17T0800,3418A,116.8336,40.4095,北京市,密云新城,,20,8,14,3,7,62,,63,63,4,8,7,7,0.4,0.3
2026-01-17T0800,3671A,116.0879,39.9725,北京市,门头沟三家店,,19,19,17,9,7,53,,42,42,15,18,4,3,0.4,0.4
2026-01-17T0800,3672A,116.1507,39.8246,北京市,丰台云岗,,18,18,21,8,10,51,,54,54,14,12,3,3,0.3,0.3
2026-01-17T0800,3674A,115.9578,39.7602,北京市,房山燕山,,24,24,40,10,21,45,,45,45,18,19,3,5,0.3,0.4
2026-01-17T0800,3675A,116.4669,39.7734,北京市,大兴旧宫,,34,34,30,13,13,40,,36,36,21,23,7,4,0.9,0.5
2026-01-17T0800,3694A,115.9859,40.4562,北京市,延庆石河营,,17,13,14,7,7,52,,58,58,9,8,3,3,0.4,0.4
2026-01-17T0800,3695A,116.6151,40.3052,北京市,怀柔新城,,19,10,27,6,16,58,,60,60,6,10,4,5,0.3,0.4
2026-01-17T0800,3696A,116.2542,39.8764,北京市,丰台小屯,,25,25,20,11,8,42,,46,46,20,17,4,4,0.5,0.4
2026-01-17T0800,3697A,116.8399,40.3843,北京市,密云镇,,20,9,18,3,9,61,,62,62,9,11,2,3,0.4,0.4
2026-01-17T0800,4057A,115.9423,40.4431,北京市,延庆百泉,,15,15,16,6,7,47,,53,53,8,7,2,2,0.2,0.2
2026-01-17T0800,4058A,116.6598,39.9164,北京市,通州新华,,35,35,23,17,10,29,,40,40,24,20,6,2,0.8,0.4
2026-01-17T0800,4182A,116.1942,39.9158,北京市,石景山八角,,15,15,19,6,6,48,,46,46,9,10,1,2,0.2,0.2
2026-01-17T0800,4194A,117.078628,40.151726,北京市,平谷新城,,14,13,28,7,18,44,,53,53,7,8,2,1,0.2,0.3
2026-01-17T0800,1761A,123.8274146,41.31234549,本溪市,大峪,颗粒物(PM10),61,71,67,39,42,7,,5,5,49,38,6,8,1.2,1
2026-01-17T0800,1763A,123.7169,41.3094,本溪市,彩屯,颗粒物(PM10),56,61,66,38,44,26,,30,30,39,35,7,8,1.0,1
2026-01-17T0800,1764A,123.7672166,41.28649327,本溪市,东明,细颗粒物(PM2.5),64,66,56,46,43,6,,11,11,48,39,1,3,1.9,1.2
2026-01-17T0800,1765A,123.799345,41.266614,本溪市,新立屯,,43,43,48,25,36,14,,15,15,45,38,9,9,0.7,0.8
2026-01-17T0800,1766A,123.829144,41.336777,本溪市,威宁,细颗粒物(PM2.5),87,81,71,64,50,6,,3,3,41,44,6,6,1.6,1
2026-01-17T0800,2587A,105.287,27.3133,毕节市,八中,细颗粒物(PM2.5),124,106,116,94,103,12,,20,20,15,18,9,10,1.0,0.9
2026-01-17T0800,2588A,105.3079,27.2987,毕节市,师专,细颗粒物(PM2.5),134,122,121,102,104,8,,14,14,16,28,8,8,1.2,1.1
2026-01-17T0800,4263A,105.3688,27.3598,毕节市,工业大道,细颗粒物(PM2.5),117,153,149,88,103,6,,8,8,22,29,9,11,/,/
2026-01-17T0800,1629A,117.9961,37.3604,滨州市,第二水厂,,27,27,55,8,28,46,,46,46,12,13,7,8,0.8,0.8
2026-01-17T0800,1630A,117.9789,37.3931,滨州市,北中新校,,31,31,57,7,30,33,,42,42,33,19,4,5,0.3,0.4
2026-01-17T0800,3514A,117.9379,37.3959,滨州市,中海酒店,,22,22,52,12,33,44,,46,46,15,13,6,7,0.5,0.5
2026-01-17T0800,3515A,117.9381509,37.35547456,滨州市,开发区一中,,27,27,58,9,30,52,,53,53,10,12,10,10,0.3,0.4
2026-01-17T0800,3516A,118.0914,37.6938,滨州市,金海六路,,22,22,44,3,20,60,,58,58,8,10,3,2,0.2,0.3
2026-01-17T0800,4028A,117.9955,37.3752,滨州市,滨州市西街道办事处,,27,27,54,12,33,49,,52,52,15,14,7,7,0.4,0.5
2026-01-17T0800,2311A,115.8071,33.8399,亳州市,污水处理厂,细颗粒物(PM2.5),73,88,155,53,82,36,,32,32,20,30,3,4,0.4,0.5
2026-01-17T0800,2312A,115.7789,33.8519,亳州市,三国揽胜宫,颗粒物(PM10),79,108,168,54,87,35,,32,32,20,27,2,3,0.5,0.6
2026-01-17T0800,3332A,115.7631,33.803,亳州市,亳州学院,细颗粒物(PM2.5),85,104,149,63,86,38,,36,36,20,29,4,5,0.7,0.7
2026-01-17T0800,2693A,82.0482,44.8553,博尔塔拉蒙古自治州,市党校,颗粒物(PM10),56,62,54,8,10,71,,74,74,16,17,4,3,0,0.1
2026-01-17T0800,2694A,82.0805,44.8966,博尔塔拉蒙古自治州,市环保局,颗粒物(PM10),51,51,48,19,21,54,,62,62,9,9,5,5,0.2,0.3
2026-01-17T0800,1071A,116.8733,38.2922,沧州市,沧县城建局,,50,50,72,30,45,36,,20,20,29,33,4,5,0.4,0.5
2026-01-17T0800,1072A,116.8462,38.3189,沧州市,电视转播站,,43,43,72,12,39,41,,16,16,23,32,4,3,0.4,0.5
2026-01-17T0800,1073A,116.8588,38.3161,沧州市,市环保局,颗粒物(PM10),52,53,75,27,45,37,,17,17,22,26,4,5,0.4,0.6
2026-01-17T0800,3324A,116.8011,38.294,沧州市,河北水利电力学院,,31,31,65,16,35,47,,38,38,18,25,2,3,0.2,0.5
2026-01-17T0800,2622A,97.1813,31.1289,昌都市,昌都监测站,,16,9,37,3,16,51,,52,52,4,19,2,3,0.2,0.5
2026-01-17T0800,3719A,97.1707,31.1428,昌都市,昌都会议中心,,14,6,12,6,13,44,,46,46,2,3,1,2,0.3,0.4
2026-01-17T0800,2692A,87.2722,44.0298,昌吉回族自治州,新区政务中心,,18,10,17,9,10,56,,62,62,19,12,9,9,0.3,0.3
2026-01-17T0800,3613A,87.3069,44.0093,昌吉回族自治州,亚心广场,,29,29,19,19,10,63,,64,64,7,6,8,8,0.9,0.4
2026-01-17T0800,4164A,87.2057,43.9289,昌吉回族自治州,财政所,,29,23,36,20,28,60,,58,58,8,12,6,6,0.3,0.4
2026-01-17T0800,1120A,125.2874,43.9024,长春市,客车厂,,29,29,62,20,65,25,,26,26,35,42,12,14,0.5,0.6
2026-01-17T0800,1121A,125.2943,43.8508,长春市,邮电学院,,36,32,59,25,58,23,,26,26,38,39,13,14,0.6,0.8
2026-01-17T0800,1122A,125.3648,43.8745,长春市,劳动公园,,33,33,68,13,62,28,,29,29,33,41,10,15,0.6,0.7
2026-01-17T0800,1123A,125.3233,43.8781,长春市,园林处,,32,32,61,21,53,31,,32,32,27,33,9,13,0.4,0.6
2026-01-17T0800,1124A,125.4604,43.7904,长春市,净月潭,,36,30,72,25,58,23,,22,22,30,35,5,7,0.5,0.7
2026-01-17T0800,1126A,125.38,43.8422,长春市,经开区环卫处,,27,27,63,16,51,28,,24,24,33,43,6,9,0.5,0.7
2026-01-17T0800,1127A,125.234,43.7761,长春市,高新区管委会,,39,28,68,27,63,30,,30,30,32,45,7,8,0.4,0.6
2026-01-17T0800,1128A,125.1695,43.83,长春市,岱山公园,,38,33,79,26,70,40,,36,36,22,40,6,8,0.4,0.7
2026-01-17T0800,4281A,125.334645,43.916281,长春市,北亚泰大街1068号,,32,29,54,22,55,21,,29,29,40,38,11,12,0.5,0.7
2026-01-17T0800,1335A,113.082,28.2421,长沙市,经开区环保局,细颗粒物(PM2.5),207,,119,157,105,30,,24,24,24,66,6,7,0.7,1
2026-01-17T0800,1336A,112.8873,28.2202,长沙市,高开区环保局,细颗粒物(PM2.5),217,,119,167,119,30,,20,20,15,56,6,7,0.8,1
2026-01-17T0800,1337A,113.0785,28.2012,长沙市,马坡岭,颗粒物(PM10),87,124,130,3,72,24,,17,17,28,70,6,10,0.8,1
2026-01-17T0800,1338A,112.9448,28.1894,长沙市,湖南师范大学,细颗粒物(PM2.5),156,146,119,119,85,38,,32,32,21,69,6,6,0.8,1
2026-01-17T0800,1339A,113.0177,28.1322,长沙市,雨花区环保局,细颗粒物(PM2.5),216,,112,166,106,33,,31,31,28,66,9,10,1.0,1.1
2026-01-17T0800,1340A,112.9795,28.2593,长沙市,伍家岭,细颗粒物(PM2.5),198,152,149,148,105,35,,18,18,23,70,7,7,0.7,1
2026-01-17T0800,1341A,113.002,28.1944,长沙市,火车新站,细颗粒物(PM2.5),180,147,137,136,102,40,,,,24,77,23,20,1.0,1.2
2026-01-17T0800,1342A,112.9846,28.1177,长沙市,天心区环保局,细颗粒物(PM2.5),163,154,118,124,90,35,,32,32,26,65,7,8,0.8,1
2026-01-17T0800,1343A,112.8906,28.1307,长沙市,湖南中医药大学,细颗粒物(PM2.5),152,135,112,116,85,34,,24,24,24,58,6,7,0.9,1
2026-01-17T0800,1727A,113.1146,36.1547,长治市,清华站,细颗粒物(PM2.5),85,76,87,63,56,49,,50,50,18,30,14,20,1.3,1.1
2026-01-17T0800,1730A,113.0887,36.2126,长治市,审计局,细颗粒物(PM2.5),73,66,90,53,58,52,,52,52,16,26,12,19,1.1,1
2026-01-17T0800,1731A,113.0845,36.1856,长治市,长治八中,,,,117,,63,,,70,49,,25,,19,,1.1
2026-01-17T0800,2845A,113.1561,36.1912,长治市,德盛苑,细颗粒物(PM2.5),77,68,83,56,58,46,,49,49,20,24,8,16,1.1,1
2026-01-17T0800,3568A,113.0603,36.0464,长治市,向阳小学,细颗粒物(PM2.5),98,111,122,73,65,43,,42,42,24,35,13,21,2.4,1.4
2026-01-17T0800,3569A,112.8788,36.315,长治市,屯留一中,颗粒物(PM10),57,64,92,38,48,51,,51,51,19,27,12,12,1.2,1.2
2026-01-17T0800,4189A,113.113092,36.199482,长治市,英华南巷50号,细颗粒物(PM2.5),73,78,102,53,57,47,,48,48,18,31,9,17,1.0,1.2
2026-01-17T0800,4190A,113.23666,36.33435,长治市,学府街1号,细颗粒物(PM2.5),52,50,90,36,61,60,,56,56,18,31,17,25,1.0,1.3
2026-01-17T0800,1854A,111.696,28.9725,常德市,市二中,细颗粒物(PM2.5),144,154,155,110,120,58,,71,71,23,23,8,9,0.8,1
2026-01-17T0800,3138A,111.7152,29.0288,常德市,武陵区永安,细颗粒物(PM2.5),142,172,160,108,115,57,,72,72,21,19,8,10,1.0,1
2026-01-17T0800,3139A,111.6891,28.9881,常德市,鼎城区玉霞,细颗粒物(PM2.5),140,157,153,107,119,63,,72,72,21,21,10,12,0.8,0.8
2026-01-17T0800,3140A,111.6651,29.0526,常德市,武陵区长庚,细颗粒物(PM2.5),132,157,161,100,122,55,,66,66,22,23,7,9,0.8,0.9
2026-01-17T0800,1196A,119.9524,31.7586,常州市,市监测站,细颗粒物(PM2.5),158,188,175,120,120,108,,113,113,17,54,4,7,1.1,1.2
2026-01-17T0800,1200A,119.9351,31.703,常州市,武进监测站,细颗粒物(PM2.5),175,181,165,132,120,120,,113,113,19,50,12,15,0.9,0.8
2026-01-17T0800,3002A,119.9701,31.813,常州市,行政中心,细颗粒物(PM2.5),129,183,149,98,107,90,,119,119,19,48,4,9,0.9,1
2026-01-17T0800,3003A,120.0434,31.7726,常州市,经开区,细颗粒物(PM2.5),148,184,176,113,110,99,,118,118,22,57,5,11,0.9,1
2026-01-17T0800,3010A,119.8919,31.7892,常州市,钟楼,细颗粒物(PM2.5),148,157,156,113,113,93,,113,113,14,43,5,9,0.8,0.8
2026-01-17T0800,3429A,119.8595,31.706,常州市,武进经发区,细颗粒物(PM2.5),180,167,163,136,132,128,,120,120,19,60,3,9,1.1,1.1
2026-01-17T0800,3430A,119.5812,31.7256,常州市,金坛城区,细颗粒物(PM2.5),147,149,174,112,136,102,,114,114,12,37,6,12,1.0,1.1
2026-01-17T0800,4089A,119.9551,31.863,常州市,崇义南街5-H号,细颗粒物(PM2.5),124,157,137,94,112,81,,119,119,18,51,4,8,1.0,1.2
2026-01-17T0800,2220A,120.4318,41.588,朝阳市,西梁,细颗粒物(PM2.5),104,,38,78,16,4,,34,34,33,14,19,9,2.1,0.5
2026-01-17T0800,2221A,120.452,41.565,朝阳市,河畔小区,,20,17,30,14,12,41,,49,49,19,13,7,7,0.6,0.5
2026-01-17T0800,2222A,120.4176,41.5648,朝阳市,八里堡,,45,,35,31,15,17,,36,36,39,16,8,7,0.8,0.5
2026-01-17T0800,3026A,116.6179,23.6608,潮州市,市政府,颗粒物(PM10),58,66,77,38,42,54,,46,46,31,34,9,13,0.6,0.6
2026-01-17T0800,4036A,116.646,23.676,潮州市,金山,细颗粒物(PM2.5),52,48,62,36,42,54,,58,58,18,19,3,5,0.5,0.5
2026-01-17T0800,2473A,113.0116,25.8228,郴州市,市职中,细颗粒物(PM2.5),125,104,83,95,63,9,,4,4,34,36,8,9,0.9,0.8
2026-01-17T0800,2475A,113.0381,25.8074,郴州市,市审计局,细颗粒物(PM2.5),127,107,84,96,62,18,,8,8,30,40,3,6,/,/
2026-01-17T0800,2476A,113.0348,25.7757,郴州市,市环保局,细颗粒物(PM2.5),145,120,85,111,58,22,,4,4,31,42,6,8,0.7,0.6
2026-01-17T0800,4252A,113.0138,25.8011,郴州市,好美居路49号,细颗粒物(PM2.5),130,104,73,99,58,31,,14,14,32,45,11,9,/,/
2026-01-17T0800,1431A,103.9727,30.7242,成都市,金泉两河,细颗粒物(PM2.5),169,142,119,128,92,1,,1,1,62,69,3,5,1.6,1.4
2026-01-17T0800,1432A,104.1423,30.6765,成都市,十里店,细颗粒物(PM2.5),160,154,143,122,109,4,,5,5,77,72,5,5,1.7,1.4
2026-01-17T0800,1433A,104.0594,30.5765,成都市,三瓦窑,细颗粒物(PM2.5),200,170,153,150,127,2,,4,4,73,84,5,7,1.2,1.4
2026-01-17T0800,1434A,104.1122,30.6306,成都市,沙河铺,细颗粒物(PM2.5),182,145,140,137,126,1,,2,2,63,76,2,3,1.3,1.5
2026-01-17T0800,2880A,104.0219,30.6561,成都市,大石西路,细颗粒物(PM2.5),159,161,141,121,99,0,,0,0,59,75,5,7,1.3,1.4
2026-01-17T0800,3136A,104.2724,30.559,成都市,龙泉驿区区政府,细颗粒物(PM2.5),119,107,106,90,86,57,,64,64,24,26,8,8,0.8,0.9
2026-01-17T0800,3357A,104.0028,30.6891,成都市,金博路,细颗粒物(PM2.5),156,157,127,119,98,1,,1,1,69,79,6,8,1.6,1.6
2026-01-17T0800,3359A,104.056,30.5228,成都市,华阳,细颗粒物(PM2.5),132,129,143,100,109,2,,2,2,67,79,3,5,1.1,1.5
2026-01-17T0800,3488A,104.387954,30.746684,成都市,青石路225号,细颗粒物(PM2.5),156,143,128,119,100,2,,6,6,60,59,3,4,1.0,0.9
2026-01-17T0800,3489A,104.0788,30.4054,成都市,科学城,细颗粒物(PM2.5),108,109,121,81,99,2,,5,5,36,48,6,8,1.1,1
2026-01-17T0800,4011A,103.8505,30.6946,成都市,光华大道三段,细颗粒物(PM2.5),143,144,139,109,102,10,,11,11,47,60,4,6,1.0,0.9
2026-01-17T0800,4144A,104.3257,30.6406,成都市,八角井街185号,细颗粒物(PM2.5),158,162,129,120,90,29,,42,42,34,32,4,4,1.2,0.8
2026-01-17T0800,4224A,104.2433276,30.53529463,成都市,鲸龙路1057号,细颗粒物(PM2.5),175,145,120,132,106,43,,26,26,30,51,11,7,1.0,1
2026-01-17T0800,1062A,117.9531,40.908,承德市,铁路,,41,41,32,23,14,21,,40,40,29,11,5,5,0.5,0.4
2026-01-17T0800,1063A,117.9397,40.9763,承德市,中国银行,,26,26,31,9,10,26,,38,38,22,7,1,2,0.4,0.3
2026-01-17T0800,4073A,117.9462,40.95,承德市,杏林街1号,,24,24,27,12,15,32,,49,49,14,6,3,4,0.4,0.3
2026-01-17T0800,4274A,117.7994,40.9605,承德市,滨河大街98号,,30,27,31,21,11,40,,43,43,18,12,3,3,0.3,0.3
2026-01-17T0800,2314A,117.4698,30.6617,池州市,池州学院,细颗粒物(PM2.5),240,229,121,190,93,50,,33,33,40,54,7,10,1.4,1.1
2026-01-17T0800,3237A,117.4918,30.6617,池州市,展览馆,细颗粒物(PM2.5),246,244,114,196,81,49,,23,23,38,56,3,5,1.6,1.3
2026-01-17T0800,3333A,117.5626,30.695,池州市,第八中学,细颗粒物(PM2.5),225,221,109,175,82,48,,32,32,38,51,5,9,1.6,1.2
2026-01-17T0800,3334A,117.5037,30.6242,池州市,第十二中学,细颗粒物(PM2.5),216,213,119,166,75,47,,23,23,36,61,3,6,1.4,1.2
2026-01-17T0800,1744A,118.9229,42.2816,赤峰市,松山一中,,30,30,22,12,8,29,,37,37,29,17,9,6,0.8,0.6
2026-01-17T0800,1745A,118.9588,42.2733,赤峰市,哈达街,,24,24,22,8,14,33,,30,30,20,17,7,6,0.8,0.7
2026-01-17T0800,1746A,118.8792,42.2551,赤峰市,天义路,,29,,19,20,17,37,,38,38,20,15,8,7,0.8,0.7
2026-01-17T0800,3058A,119.2656,42.0356,赤峰市,银河街,,46,46,32,24,14,27,,35,35,24,10,20,13,1.2,0.7
2026-01-17T0800,3286A,118.9359,42.3146,赤峰市,桥北物流园区,,26,,28,18,13,43,,56,56,18,11,7,5,0.5,0.4
2026-01-17T0800,2521A,107.3473,22.4137,崇左市,市环保局江州分局,细颗粒物(PM2.5),93,118,102,69,62,22,,38,38,25,24,9,9,1.1,0.9
2026-01-17T0800,4256A,107.375,22.3736,崇左市,石景林东路7号,细颗粒物(PM2.5),97,91,80,72,66,34,,41,41,21,26,7,9,0.8,0.7
2026-01-17T0800,3207A,118.31131,32.3033,滁州市,市政府原办公楼,细颗粒物(PM2.5),122,149,146,92,103,75,,77,77,17,46,4,9,0.6,0.9
2026-01-17T0800,3331A,118.3268,32.2633,滁州市,图书馆,细颗粒物(PM2.5),120,148,143,91,94,74,,73,73,14,40,7,12,0.8,1
2026-01-17T0800,4101A,118.3196,32.3335,滁州市,银山路666号,细颗粒物(PM2.5),144,135,138,110,119,71,,73,73,14,42,2,14,0.7,0.9
2026-01-17T0800,4102A,118.3426,32.2979,滁州市,黄山路555号,细颗粒物(PM2.5),143,161,160,109,118,72,,75,75,18,54,15,19,1.0,1.2
2026-01-17T0800,2606A,101.5379,25.0492,楚雄彝族自治州,市经济开发区,,40,34,32,28,21,6,,18,18,28,19,5,6,0.5,0.5
2026-01-17T0800,4153A,101.5536,25.0343,楚雄彝族自治州,团结路562号,,33,24,25,23,16,4,,14,14,33,18,4,5,0.4,0.4
2026-01-17T0800,2549A,107.5087,31.2186,达州市,市环境监测站,细颗粒物(PM2.5),140,130,137,107,104,5,,5,5,22,39,6,8,0.8,0.9
2026-01-17T0800,2550A,107.4988,31.2132,达州市,凤凰小区,细颗粒物(PM2.5),149,134,143,114,108,3,,3,3,26,44,4,7,0.9,1.1
2026-01-17T0800,2551A,107.5081,31.1987,达州市,达县机关宾馆,细颗粒物(PM2.5),188,175,157,141,111,3,,2,2,26,51,4,6,1.2,1.3
2026-01-17T0800,2552A,107.4644,31.2124,达州市,市政中心,细颗粒物(PM2.5),144,150,157,110,110,5,,5,5,32,48,6,8,0.9,1.1
2026-01-17T0800,2614A,100.2168,25.5818,大理白族自治州,大理市环境监测站,,27,27,21,12,16,53,,63,63,11,9,6,6,0.6,0.5
2026-01-17T0800,2615A,100.1542,25.7055,大理白族自治州,大理古城,,43,34,24,30,19,45,,52,52,13,13,7,8,0.6,0.6
2026-01-17T0800,1109A,121.6119,38.974,大连市,甘井子,,19,19,43,8,27,57,,58,58,14,20,6,7,0.2,0.4
2026-01-17T0800,1110A,121.565,38.9509,大连市,周水子,,29,29,50,10,26,46,,51,51,19,17,12,11,0.4,0.5
2026-01-17T0800,1111A,121.5637,38.8849,大连市,星海三站,,24,24,44,3,21,48,,50,50,18,20,11,7,0.5,0.6
2026-01-17T0800,1112A,121.6301,38.9117,大连市,青泥洼桥,,17,17,42,8,28,39,,51,51,25,21,9,9,0.4,0.6
2026-01-17T0800,1113A,121.6248,38.8643,大连市,傅家庄,,24,24,45,7,25,37,,47,47,25,22,13,10,0.4,0.5
2026-01-17T0800,1114A,121.5117,38.8636,大连市,七贤岭,,29,29,49,7,24,50,,49,49,11,15,6,7,0.5,0.6
2026-01-17T0800,1116A,121.7507,39.1339,大连市,金州,,24,24,40,13,28,52,,57,57,17,20,7,10,0.3,0.5
2026-01-17T0800,1117A,121.7811,39.0495,大连市,开发区,,27,27,52,10,27,38,,54,54,22,16,5,7,0.6,0.7
2026-01-17T0800,1118A,121.9762,39.0631,大连市,双D港,,19,17,47,8,27,60,,63,63,10,17,8,9,0.2,0.4
2026-01-17T0800,4082A,121.2548,38.8188,大连市,旅顺,,19,16,34,3,17,59,,55,55,5,10,6,7,0.6,0.6
2026-01-17T0800,1789A,124.8085,46.0381,大庆市,大同区,,36,36,47,19,32,28,,40,40,32,21,6,7,0.8,0.7
2026-01-17T0800,1790A,125.1166,46.5255,大庆市,龙凤区,,33,33,47,21,32,37,,48,48,34,32,7,12,0.3,0.5
2026-01-17T0800,1791A,124.8894,46.4007,大庆市,红岗区,,26,26,34,15,23,19,,37,37,41,24,4,6,0.4,0.4
2026-01-17T0800,1792A,125.1391,46.578,大庆市,萨尔图区,,30,30,43,12,26,41,,52,52,24,22,9,10,0.5,0.6
2026-01-17T0800,1793A,124.9026,46.6217,大庆市,让胡路区,,33,24,41,23,32,54,,61,61,14,14,7,10,0.5,0.6
2026-01-17T0800,3481A,125.127,46.6277,大庆市,萨区政府监测点,,24,24,39,9,19,34,,48,48,29,22,10,9,0.5,0.6
2026-01-17T0800,1723A,113.2926,40.0759,大同市,云冈宾馆,,45,45,33,25,17,13,,27,27,36,18,15,9,1.6,0.8
2026-01-17T0800,1724A,113.3437,40.0921,大同市,大同大学,,43,39,28,30,23,13,,34,34,38,14,17,6,2.0,0.7
2026-01-17T0800,1725A,113.2637,40.129,大同市,安家小村,,50,50,42,26,18,4,,6,6,42,30,14,9,1.9,0.9
2026-01-17T0800,3282A,113.3399,40.0586,大同市,大同市卫生学校,细颗粒物(PM2.5),55,,27,39,38,29,,38,38,32,16,9,5,0.6,0.5
2026-01-17T0800,3565A,113.1371,40.1122,大同市,云冈站,颗粒物(PM10),61,72,43,28,19,2,,1,1,40,30,12,10,1.1,0.9
2026-01-17T0800,3566A,113.1186,40.2556,大同市,图书馆,颗粒物(PM10),51,51,45,31,24,15,,18,18,31,17,12,7,1.6,0.8
2026-01-17T0800,3567A,113.5931,40.0459,大同市,区一中,,32,27,27,22,14,61,,64,64,10,11,3,2,0.4,0.4
2026-01-17T0800,4199A,113.2798248,40.09972476,大同市,魏都大道141号,颗粒物(PM10),57,63,40,26,19,6,,13,13,49,27,9,7,1.7,1
2026-01-17T0800,2269A,124.1068,50.4091,大兴安岭地区,科技局,,23,23,17,11,12,50,,50,50,2,2,5,5,0.2,0.2
2026-01-17T0800,3663A,124.117,50.4279,大兴安岭地区,红旗社区,,16,,6,7,5,50,,51,51,3,3,5,5,0.3,0.2
2026-01-17T0800,1600A,124.33,40.0625,丹东市,江湾东路,,42,38,45,29,35,43,,56,56,21,19,8,7,0.7,0.7
2026-01-17T0800,1601A,124.4242,40.1513,丹东市,临江后街,,25,25,46,14,33,54,,61,61,12,18,7,7,0.6,0.8
2026-01-17T0800,1602A,124.3935,40.1461,丹东市,元宝山,,26,26,44,17,35,56,,61,61,10,18,11,9,0.5,0.7
2026-01-17T0800,1603A,124.3634,40.1093,丹东市,民主桥,,30,30,46,14,29,44,,59,59,19,20,12,8,0.8,0.9
2026-01-17T0800,3541A,109.5726195,19.51688767,儋州市,第一中学子站,,47,47,41,31,26,32,,60,60,13,6,5,4,0.8,0.6
2026-01-17T0800,3542A,109.5567,19.5187,儋州市,东坡学校子站,,45,45,40,27,22,40,,60,60,11,6,6,5,0.7,0.6
2026-01-17T0800,2616A,98.5611,24.4273,德宏傣族景颇族自治州,德宏州监测站,,50,49,49,35,34,5,,18,18,28,20,6,6,0.7,0.7
2026-01-17T0800,3677A,98.5887,24.4366,德宏傣族景颇族自治州,芒市人民政府综合楼,,35,30,49,24,28,18,,26,26,15,14,4,4,0.7,0.7
2026-01-17T0800,1901A,104.424,31.1209,德阳市,东山公园,细颗粒物(PM2.5),113,90,87,85,74,51,,51,51,24,30,7,8,0.8,0.8
2026-01-17T0800,1902A,104.3827,31.1318,德阳市,西小区,细颗粒物(PM2.5),100,109,129,75,93,2,,2,2,45,59,6,7,1.4,1.4
2026-01-17T0800,1904A,104.3553,31.1091,德阳市,耐火材料厂,细颗粒物(PM2.5),104,86,111,78,94,2,,3,3,52,52,4,5,0.9,1.1
2026-01-17T0800,4145A,104.4144,31.1495,德阳市,市林业局,细颗粒物(PM2.5),99,88,95,74,76,1,,5,5,52,58,4,4,0.7,0.7
2026-01-17T0800,1622A,116.3034,37.4675,德州市,儿童乐园,,25,22,81,17,40,47,,43,43,18,22,11,11,0.7,0.8
2026-01-17T0800,1624A,116.2992,37.4449,德州市,监理站,,34,34,72,7,36,56,,54,54,16,21,11,10,0.6,0.8
2026-01-17T0800,3066A,116.2722,37.438,德州市,九衢泉纯净水厂,,29,29,74,17,40,51,,48,48,15,18,5,5,0.6,0.7
2026-01-17T0800,3371A,116.3693,37.44,德州市,开发区人民医院,,36,36,76,19,35,52,,45,45,23,28,12,11,0.6,0.5
2026-01-17T0800,3511A,116.5687,37.3331,德州市,陵城艺术中心,,41,41,73,14,37,45,,36,36,21,26,14,13,0.7,0.9
2026-01-17T0800,4292A,116.352738,37.420875,德州市,新河东路,,39,39,74,14,38,51,,46,46,16,20,12,12,0.7,0.9
2026-01-17T0800,2621A,99.7054,27.8319,迪庆藏族自治州,迪庆州站,,28,,29,19,19,37,,39,39,6,12,4,5,0.2,0.4
2026-01-17T0800,3180A,99.7122,27.8129,迪庆藏族自治州,质量技术监督局,,25,19,30,17,22,38,,42,42,11,14,4,4,0.4,0.5
2026-01-17T0800,4257A,104.6092,35.5962,定西市,将台街,颗粒物(PM10),65,79,84,38,39,52,,56,56,31,24,17,15,0.7,0.6
2026-01-17T0800,4309A,104.6159,35.5701,定西市,正龙路62号,颗粒物(PM10),71,91,91,25,36,66,,69,69,8,8,12,10,0.7,0.6
2026-01-17T0800,1390A,113.7943,23.0132,东莞市,东城石井,,,81,84,49,49,4,,19,19,,64,6,8,0.7,0.7
2026-01-17T0800,1391A,113.7384,22.9659,东莞市,南城西平,颗粒物(PM10),77,104,98,54,58,0,,1,1,114,92,7,8,0.9,0.9
2026-01-17T0800,3319A,113.7283,23.041,东莞市,万江金泰,细颗粒物(PM2.5),85,110,117,63,74,18,,20,20,90,83,8,10,1.1,1.2
2026-01-17T0800,4129A,113.8666,23.1062,东莞市,裕兴路,细颗粒物(PM2.5),87,120,118,64,54,14,,12,12,76,73,18,11,0.9,0.9
2026-01-17T0800,4130A,114.0076,22.9739,东莞市,教育路1号,颗粒物(PM10),89,127,98,63,52,4,,22,22,95,66,7,7,0.9,0.8
2026-01-17T0800,4131A,113.7981,22.8124,东莞市,长怡路1号,颗粒物(PM10),76,101,93,50,48,5,,9,9,92,83,7,7,1.0,1
2026-01-17T0800,1666A,118.6612,37.4313,东营市,市环保局,,22,22,46,9,20,66,,68,68,17,18,6,7,0.4,0.5
2026-01-17T0800,3036A,118.6903,37.4337,东营市,开发区管委会,,24,24,48,3,22,66,,67,67,4,7,8,8,0.1,0.2
2026-01-17T0800,3365A,118.5721,37.5654,东营市,垦利区民丰路,,22,22,47,7,22,53,,56,56,16,15,1,2,0.2,0.5
2026-01-17T0800,3498A,118.5063,37.8606,东营市,河口城区,,27,27,44,7,16,62,,64,64,13,15,3,4,0.8,0.8
2026-01-17T0800,3646A,118.4979,37.4623,东营市,胜利站,,34,34,52,7,22,53,,58,58,17,16,10,10,0.6,0.6
2026-01-17T0800,3734A,118.5753,37.4405,东营市,理想之城,,27,27,49,9,26,52,,55,55,12,14,3,3,0.3,0.5
2026-01-17T0800,1591A,110.0024,39.8127,鄂尔多斯市,综合楼,颗粒物(PM10),71,92,73,22,20,27,,29,29,39,37,13,12,0.7,0.6
2026-01-17T0800,1592A,109.9485,39.8259,鄂尔多斯市,巴音孟克林场办事处,颗粒物(PM10),70,90,64,29,19,28,,32,32,37,31,14,13,0.7,0.6
2026-01-17T0800,1593A,109.7734,39.5987,鄂尔多斯市,康泽苑,颗粒物(PM10),76,102,71,36,26,7,,7,7,60,38,13,9,1.0,0.6
2026-01-17T0800,1594A,109.8121,39.5987,鄂尔多斯市,华泰汽车城,颗粒物(PM10),84,117,68,39,20,1,,1,1,58,38,15,9,0.9,0.5
2026-01-17T0800,1595A,109.9734,39.7884,鄂尔多斯市,奥林花园,颗粒物(PM10),71,92,66,27,16,13,,23,23,52,40,13,10,1.0,0.7
2026-01-17T0800,2436A,114.894,30.3989,鄂州市,市政府,细颗粒物(PM2.5),166,161,124,126,100,18,,25,25,31,50,4,9,0.6,0.7
2026-01-17T0800,2437A,114.8986,30.3714,鄂州市,赵家坝,细颗粒物(PM2.5),163,186,133,124,97,19,,28,28,22,39,7,11,0.9,0.9
2026-01-17T0800,3654A,114.8093,30.4091,鄂州市,精准医疗中心,细颗粒物(PM2.5),166,170,136,126,106,23,,32,32,26,53,9,27,1.2,1.3
2026-01-17T0800,2454A,109.4978,30.2979,恩施土家族苗族自治州,湖北民院,细颗粒物(PM2.5),189,,135,142,151,2,,3,3,15,26,6,6,1.4,2.1
2026-01-17T0800,3549A,109.5061,30.3771,恩施土家族苗族自治州,龙凤新区,细颗粒物(PM2.5),140,123,153,107,132,0,,0,0,13,22,7,7,1.0,1.1
2026-01-17T0800,2499A,108.3411,21.6159,防城港市,沙万,细颗粒物(PM2.5),59,57,70,42,36,36,,33,33,32,38,9,9,1.0,0.9
2026-01-17T0800,2500A,108.3515,21.7733,防城港市,防城档案局,细颗粒物(PM2.5),59,54,62,42,41,45,,36,36,8,17,5,6,0.6,0.7
2026-01-17T0800,2501A,108.3506,21.6414,防城港市,大海花园,细颗粒物(PM2.5),52,48,60,36,36,36,,43,43,28,27,17,12,0.8,0.8
2026-01-17T0800,1371A,113.1293,23.0065,佛山市,湾梁,颗粒物(PM10),65,80,122,37,54,3,,33,33,97,87,/,/,/,/
2026-01-17T0800,1372A,113.1082,23.0477,佛山市,华材职中,颗粒物(PM10),65,80,152,41,69,34,,66,66,66,84,6,7,0.7,1
2026-01-17T0800,1373A,113.1439,23.045,佛山市,南海气象局,,,,117,,72,,,202,,,89,,,,
2026-01-17T0800,1374A,113.2879,22.8094,佛山市,顺德苏岗,细颗粒物(PM2.5),79,87,95,58,67,0,,14,14,88,76,/,/,1.1,1
2026-01-17T0800,1376A,112.8384,22.8678,佛山市,高明孔堂,细颗粒物(PM2.5),62,55,96,44,70,100,,114,114,23,48,/,/,/,/
2026-01-17T0800,1377A,112.8835,23.1584,佛山市,三水监测站,细颗粒物(PM2.5),205,246,179,155,109,5,,2,2,145,115,9,5,1.1,1
2026-01-17T0800,1378A,112.8668,23.185,佛山市,三水云东海,细颗粒物(PM2.5),176,152,138,133,99,3,,6,6,104,85,/,/,/,/
2026-01-17T0800,3625A,113.2568,22.7629,佛山市,容桂街道办,细颗粒物(PM2.5),94,83,110,70,77,35,,55,55,60,69,/,/,/,/
2026-01-17T0800,1282A,119.2681,26.0506,福州市,师大,颗粒物(PM10),57,63,58,36,32,28,,37,37,45,40,8,6,0.7,0.6
2026-01-17T0800,1283A,119.2983,26.1028,福州市,五四北路,,50,50,54,34,30,38,,37,37,34,43,6,6,0.6,0.7
2026-01-17T0800,1284A,119.2648,26.0769,福州市,杨桥西路,"颗粒物(PM10),细颗粒物(PM2.5)",55,60,53,39,30,26,,28,28,38,30,8,6,/,/
2026-01-17T0800,3048A,119.5799,26.0937,福州市,九龙,颗粒物(PM10),56,61,38,30,23,31,,52,52,50,25,6,6,0.8,0.7
2026-01-17T0800,3526A,119.5188,25.9666,福州市,吴航,颗粒物(PM10),57,63,53,38,30,7,,39,39,63,37,6,7,0.8,0.7
2026-01-17T0800,4104A,119.3106,26.0648,福州市,路通桥巷6号,细颗粒物(PM2.5),55,52,55,39,37,30,,33,33,35,33,/,/,/,/
2026-01-17T0800,1755A,123.7974,41.8494,抚顺市,望花区,细颗粒物(PM2.5),97,102,69,72,55,5,,4,4,54,40,4,5,1.9,1.1
2026-01-17T0800,1756A,123.9161,41.8827,抚顺市,顺城区,细颗粒物(PM2.5),114,114,79,86,60,7,,5,5,52,43,8,9,1.8,1.3
2026-01-17T0800,1757A,124.0437,41.8615,抚顺市,东洲区,细颗粒物(PM2.5),138,132,86,105,62,15,,9,9,32,34,5,18,1.5,1.1
2026-01-17T0800,1758A,123.9246,41.8638,抚顺市,新抚区,细颗粒物(PM2.5),110,101,79,83,57,8,,6,6,50,42,12,7,1.6,1.2
2026-01-17T0800,1759A,124.0972,41.8961,抚顺市,大伙房水库,,,56,58,47,46,28,,30,30,,23,10,10,1.1,1
2026-01-17T0800,1760A,123.708,41.8386,抚顺市,沈抚新城,细颗粒物(PM2.5),103,92,82,77,72,9,,8,8,44,40,8,9,1.6,1.5
2026-01-17T0800,2377A,116.3544,27.9833,抚州市,市站,细颗粒物(PM2.5),78,73,82,57,57,65,,61,61,16,27,9,17,0.7,0.7
2026-01-17T0800,2378A,116.3562,27.9631,抚州市,血防站,细颗粒物(PM2.5),77,75,75,56,54,66,,64,64,16,32,12,16,1.5,1.3
2026-01-17T0800,2379A,116.3561,28.0007,抚州市,采茶剧团,细颗粒物(PM2.5),84,74,86,62,62,60,,59,59,13,29,6,13,1.2,1.3
2026-01-17T0800,2380A,116.3854,27.9648,抚州市,医学分院,细颗粒物(PM2.5),73,78,83,53,50,60,,58,58,11,19,29,18,0.9,0.9
2026-01-17T0800,2207A,121.6095,41.9978,阜新市,工业园区,,39,29,22,27,11,26,,52,52,35,11,13,9,0.5,0.4
2026-01-17T0800,2208A,121.6567,42.0188,阜新市,长青街,,18,18,13,11,9,46,,58,58,16,8,10,7,0.4,0.3
2026-01-17T0800,2209A,121.6672,42.07,阜新市,农业园区,,18,18,20,7,9,51,,54,54,11,9,8,8,0.3,0.3
2026-01-17T0800,2211A,121.6343,42.0455,阜新市,玉龙新城,,43,43,22,26,8,11,,44,44,49,12,7,7,0.6,0.4
2026-01-17T0800,2301A,115.8276,32.8929,阜阳市,市监测站,细颗粒物(PM2.5),144,163,163,110,99,35,,26,26,26,41,4,6,0.8,0.8
2026-01-17T0800,2303A,115.8551,32.8606,阜阳市,开发区,细颗粒物(PM2.5),125,177,162,95,90,34,,26,26,23,37,4,6,0.8,0.8
2026-01-17T0800,2875A,115.783962,32.889217,阜阳市,阜阳职业技术学院,细颗粒物(PM2.5),124,160,152,94,89,38,,32,32,18,26,6,8,0.8,0.9
2026-01-17T0800,3468A,115.79,32.8614,阜阳市,市规划展馆,细颗粒物(PM2.5),152,171,159,116,101,41,,31,31,18,30,5,8,0.9,0.9
2026-01-17T0800,3469A,115.835101,32.918568,阜阳市,枣园社区,细颗粒物(PM2.5),147,159,164,112,103,26,,23,23,27,37,4,6,0.9,0.9
2026-01-17T0800,2669A,102.9097,34.9841,甘南藏族自治州,州政府,,42,37,51,29,29,3,,3,3,39,32,12,11,1.3,1
2026-01-17T0800,3380A,102.8915,34.9618,甘南藏族自治州,甘肃民族师范学院,,42,42,59,20,15,8,,9,9,39,36,13,12,0.3,0.3
2026-01-17T0800,2570A,101.96,30.048,甘孜藏族自治州,水桥子,,20,20,26,3,11,36,,39,39,24,24,6,6,0.3,0.5
2026-01-17T0800,3065A,101.9534,29.9976,甘孜藏族自治州,州环保局,,20,6,23,3,8,64,,65,65,6,11,5,6,0.4,0.6
2026-01-17T0800,2363A,114.9368,25.8663,赣州市,地委,细颗粒物(PM2.5),55,56,70,39,47,14,,17,17,40,48,10,10,1.0,1.1
2026-01-17T0800,2364A,114.946,25.8483,赣州市,气象台,颗粒物(PM10),61,72,90,37,46,17,,14,14,56,81,6,6,0.6,0.6
2026-01-17T0800,2365A,114.932,25.8332,赣州市,市图书馆,细颗粒物(PM2.5),63,66,96,45,52,32,,17,17,38,68,7,9,1.0,1.2
2026-01-17T0800,2366A,114.8905,25.8472,赣州市,华坚鞋城,"颗粒物(PM10),细颗粒物(PM2.5)",58,66,96,41,51,33,,28,28,40,63,11,13,0.5,0.8
2026-01-17T0800,3109A,115.0094,25.8614,赣州市,赣县区卫计委,细颗粒物(PM2.5),72,53,75,52,54,18,,24,24,28,41,8,7,0.7,0.9
2026-01-17T0800,2684A,106.2753,36.0057,固原市,监测站,颗粒物(PM10),99,148,83,28,30,90,,78,78,4,16,3,5,0.4,0.6
2026-01-17T0800,2685A,106.2384,36.0189,固原市,新区,颗粒物(PM10),78,106,88,20,24,95,,89,89,3,17,1,3,0.2,0.4
2026-01-17T0800,2544A,106.6307,30.4577,广安市,市委,细颗粒物(PM2.5),155,121,180,118,170,6,,9,9,16,35,9,10,1.3,1.3
2026-01-17T0800,2545A,106.6266,30.4662,广安市,友谊中学,细颗粒物(PM2.5),169,145,164,128,150,5,,5,5,17,32,6,7,1.7,1.6
2026-01-17T0800,2547A,106.6386,30.4551,广安市,广电花园,细颗粒物(PM2.5),129,102,153,98,155,3,,4,4,14,29,8,9,1.0,1.1
2026-01-17T0800,2902A,106.6347,30.4868,广安市,北辰小学,细颗粒物(PM2.5),163,125,160,124,148,6,,8,8,20,25,6,7,1.3,1.3
2026-01-17T0800,2524A,105.8211,32.4444,广元市,老城,颗粒物(PM10),59,67,93,39,55,6,,5,5,42,56,1,11,1.0,1.2
2026-01-17T0800,2526A,105.8629,32.429,广元市,监测站,细颗粒物(PM2.5),68,69,90,49,57,3,,5,5,33,45,7,14,1.0,1.1
2026-01-17T0800,3617A,105.8047,32.4167,广元市,经开区,细颗粒物(PM2.5),78,90,96,57,61,1,,1,1,40,50,5,14,1.2,1.4
2026-01-17T0800,1345A,113.2346,23.1423,广州市,广雅中学,细颗粒物(PM2.5),90,107,154,67,86,14,,22,22,94,124,8,5,0.5,1.1
2026-01-17T0800,1346A,113.2611,23.105,广州市,市五中,细颗粒物(PM2.5),68,77,115,49,70,7,,24,24,116,117,16,10,/,/
2026-01-17T0800,1348A,113.3477,23.0916,广州市,广东商学院,细颗粒物(PM2.5),78,80,106,57,76,0,,4,4,100,113,7,8,0.7,0.9
2026-01-17T0800,1349A,113.4332,23.105,广州市,市八十六中,细颗粒物(PM2.5),64,73,92,46,62,1,,8,8,112,129,9,10,/,/
2026-01-17T0800,1350A,113.3506,22.9488,广州市,番禺中学,细颗粒物(PM2.5),67,75,103,48,58,6,,34,34,95,76,5,7,1.2,1
2026-01-17T0800,1351A,113.2147,23.3918,广州市,花都师范,细颗粒物(PM2.5),107,129,133,80,80,6,,7,7,138,107,8,8,1.0,1
2026-01-17T0800,1352A,113.2599,23.1329,广州市,市监测站,细颗粒物(PM2.5),72,88,155,52,83,6,,13,13,109,127,7,4,/,/
2026-01-17T0800,1353A,113.5618,23.3119,广州市,九龙镇镇龙,细颗粒物(PM2.5),87,101,120,64,68,2,,4,4,69,74,4,5,0.7,0.7
2026-01-17T0800,1354A,113.2764,23.1544,广州市,麓湖,细颗粒物(PM2.5),69,73,106,50,68,2,,2,2,111,122,9,10,0.7,0.7
2026-01-17T0800,2846A,113.3209,23.1323,广州市,体育西,颗粒物(PM10),70,90,128,50,74,0,,2,2,125,113,7,8,1.0,1.1
2026-01-17T0800,3298A,113.5718,23.5493,广州市,从化街口,细颗粒物(PM2.5),89,99,113,66,75,13,,8,8,68,66,9,12,1.1,1
2026-01-17T0800,3299A,113.3463,23.369,广州市,白云竹料,细颗粒物(PM2.5),104,129,137,78,81,5,,6,6,92,87,3,5,1.0,1
2026-01-17T0800,3300A,113.2981,23.2365,广州市,白云嘉禾,细颗粒物(PM2.5),74,94,127,54,72,2,,2,2,107,119,6,7,/,/
2026-01-17T0800,3301A,113.4256,23.1716,广州市,黄埔科学城,细颗粒物(PM2.5),67,77,102,48,64,3,,4,4,84,81,5,5,0.9,0.9
2026-01-17T0800,3302A,113.3942,23.0485,广州市,番禺大学城,颗粒物(PM10),79,107,118,49,52,7,,31,31,85,78,10,12,0.6,0.7
2026-01-17T0800,3303A,113.4923,22.8169,广州市,南沙黄阁,细颗粒物(PM2.5),52,52,78,36,45,15,,25,25,73,79,6,8,/,/
2026-01-17T0800,3304A,113.534,22.7893,广州市,南沙街,颗粒物(PM10),55,59,84,32,40,17,,27,27,61,61,3,5,0.6,0.6
2026-01-17T0800,3443A,113.2905,23.5541,广州市,花都梯面,细颗粒物(PM2.5),89,99,94,66,56,2,,4,4,61,67,5,6,/,/
2026-01-17T0800,3445A,113.786,23.7479,广州市,从化良口,细颗粒物(PM2.5),64,56,57,46,45,38,,54,54,25,26,7,8,/,/
2026-01-17T0800,3446A,113.805,23.2614,广州市,增城荔城,细颗粒物(PM2.5),78,77,75,57,52,57,,34,34,32,39,7,7,0.6,0.7
2026-01-17T0800,2506A,109.604387,23.066791,贵港市,江南子站,细颗粒物(PM2.5),144,171,146,110,88,12,,19,19,44,36,9,10,1.3,1.1
2026-01-17T0800,2508A,109.5669,23.1065,贵港市,荷城子站,细颗粒物(PM2.5),104,110,114,78,83,6,,35,35,58,37,10,11,1.1,1.1
2026-01-17T0800,3405A,109.5886,23.1172,贵港市,新世纪学校,细颗粒物(PM2.5),104,105,127,78,88,29,,35,35,25,31,/,/,0.7,0.7
2026-01-17T0800,4260A,109.5933,23.095,贵港市,中山路155-3号,细颗粒物(PM2.5),143,143,122,109,86,12,,34,34,52,35,/,/,1.1,0.9
2026-01-17T0800,1439A,106.6863,26.6035,贵阳市,马鞍山,细颗粒物(PM2.5),147,139,110,112,97,2,,5,5,25,26,4,8,/,/
2026-01-17T0800,1441A,106.6241,26.6266,贵阳市,鉴湖路,细颗粒物(PM2.5),132,136,119,100,91,5,,18,18,40,31,5,10,1.0,0.9
2026-01-17T0800,1442A,106.7468,26.6344,贵阳市,燕子冲,细颗粒物(PM2.5),149,134,106,114,96,2,,11,11,25,30,9,10,1.3,0.9
2026-01-17T0800,1443A,106.6556,26.4362,贵阳市,碧云窝,细颗粒物(PM2.5),134,141,121,102,90,11,,9,9,24,29,10,18,/,/
2026-01-17T0800,1445A,106.6963,26.6063,贵阳市,红边门,细颗粒物(PM2.5),156,139,116,119,95,2,,14,14,36,35,17,22,/,/
2026-01-17T0800,1446A,106.7162383,26.56964667,贵阳市,新华路,细颗粒物(PM2.5),149,144,125,114,94,5,,13,13,39,38,7,13,0.9,0.9
2026-01-17T0800,1447A,106.6742,26.542,贵阳市,太慈桥,细颗粒物(PM2.5),122,124,105,92,84,24,,28,28,31,36,4,6,/,/
2026-01-17T0800,4230A,106.688212,26.56952,贵阳市,花果园大街66号,细颗粒物(PM2.5),189,156,116,142,117,2,,14,14,46,39,14,11,/,/
2026-01-17T0800,4231A,106.687268,26.516892,贵阳市,漓江路57号,细颗粒物(PM2.5),149,136,117,114,96,0,,2,2,35,42,15,17,1.2,1
2026-01-17T0800,1864A,110.3091,25.2705,桂林市,龙隐路小学,细颗粒物(PM2.5),104,97,104,78,85,5,,4,4,27,32,8,14,0.7,0.9
2026-01-17T0800,1865A,110.2849361,25.22909545,桂林市,八中,细颗粒物(PM2.5),124,120,113,94,91,6,,7,7,30,40,8,12,1.0,1
2026-01-17T0800,3531A,110.296,25.1254,桂林市,旅游学院,细颗粒物(PM2.5),67,70,93,48,78,3,,1,1,25,33,5,7,0.6,0.6
2026-01-17T0800,4222A,110.1835,25.2444,桂林市,环湖路276号,细颗粒物(PM2.5),128,127,124,97,105,0,,0,0,31,41,8,18,0.9,1
2026-01-17T0800,4301A,110.2803,25.2773,桂林市,信义路13号,细颗粒物(PM2.5),99,88,106,74,83,1,,0,0,35,42,9,14,1.5,1.5
2026-01-17T0800,2674A,100.2262,34.4854,果洛藏族自治州,玛沁县大武镇,,35,35,40,3,9,28,,33,33,8,8,18,17,0.6,0.5
2026-01-17T0800,1130A,126.5557,45.8109,哈尔滨市,松北商大,,43,38,59,30,46,20,,26,26,36,30,5,7,0.6,0.7
2026-01-17T0800,1132A,126.6162,45.719,哈尔滨市,南岗学府路,,40,37,72,28,54,27,,32,32,31,29,9,13,0.9,1
2026-01-17T0800,1133A,126.6894,45.7733,哈尔滨市,太平宏伟公园,,23,21,51,16,37,44,,41,41,19,26,27,20,0.6,0.7
2026-01-17T0800,1134A,126.6361,45.7672,哈尔滨市,道外承德广场,,32,32,70,15,41,46,,36,36,20,35,10,15,0.3,0.5
2026-01-17T0800,1136A,126.644,45.7261,哈尔滨市,动力和平路,,32,32,67,20,51,26,,30,30,35,33,20,21,0.6,0.7
2026-01-17T0800,1137A,126.5933,45.7479,哈尔滨市,道里建国路,,30,22,60,21,53,40,,30,30,24,35,12,19,0.2,0.5
2026-01-17T0800,1138A,126.6127,45.6119,哈尔滨市,平房东轻厂,细颗粒物(PM2.5),62,62,66,44,57,13,,13,13,47,43,7,4,1.1,1
2026-01-17T0800,1139A,126.5875,45.9827,哈尔滨市,呼兰师专,细颗粒物(PM2.5),83,,69,61,68,19,,21,21,34,28,10,11,0.8,0.8
2026-01-17T0800,1140A,126.6299,45.6799,哈尔滨市,省农科院,细颗粒物(PM2.5),100,87,86,75,71,11,,16,16,57,42,18,15,1.1,0.8
2026-01-17T0800,4282A,126.6769,45.7379,哈尔滨市,华山路1号,,20,19,55,14,42,35,,31,31,30,36,25,26,0.6,0.8
2026-01-17T0800,4283A,126.9717,45.5356,哈尔滨市,解放大街52号,细颗粒物(PM2.5),142,120,122,108,116,22,,24,24,36,35,12,17,1.4,1.4
2026-01-17T0800,2688A,93.5124,42.8176,哈密市,地区监测站,颗粒物(PM10),52,53,97,14,42,52,,44,44,12,22,3,2,0.0,0.3
2026-01-17T0800,2689A,93.5014,42.8312,哈密市,哈密师范学校,颗粒物(PM10),54,58,95,18,30,53,,40,40,11,30,1,2,0.1,0.6
2026-01-17T0800,2671A,100.9016,36.9464,海北藏族自治州,海晏县西海镇,,20,20,20,7,12,54,,58,58,3,3,5,7,0.4,0.4
2026-01-17T0800,3867A,102.074,36.5056,海东市,平安区公安局北苑,,43,43,56,21,23,8,,19,19,48,27,19,14,1.5,1
2026-01-17T0800,4163A,102.0984,36.5119,海东市,滨河路,,42,42,61,22,24,7,,18,18,49,39,15,12,1.3,0.9
2026-01-17T0800,1410A,110.3189,20.0596,海口市,海南大学,,46,46,38,31,24,112,,114,114,9,9,6,6,0.3,0.3
2026-01-17T0800,1411A,110.2827,20.0051,海口市,秀英海南医院,,39,29,37,27,22,112,,110,110,9,13,7,7,0.4,0.3
2026-01-17T0800,1412A,110.3391,19.9979,海口市,海南师范大学,,42,30,36,29,23,114,,111,111,12,13,5,6,0.6,0.7
2026-01-17T0800,1413A,110.3303,20.0359,海口市,龙华路环保局宿舍,细颗粒物(PM2.5),52,,37,36,24,107,,111,111,12,10,/,/,0.8,0.7
2026-01-17T0800,3539A,110.5111,19.9737,海口市,桂林洋子站,,46,46,38,32,25,71,,88,88,22,11,/,/,/,/
2026-01-17T0800,4134A,110.1952,20.0451,海口市,长滨二路9号,,46,32,29,32,24,99,,100,100,8,12,/,/,/,/
2026-01-17T0800,2673A,100.6158,36.2985,海南藏族自治州,共和县恰卜恰镇,,21,21,33,6,10,27,,44,44,30,18,12,12,0.6,0.5
2026-01-17T0800,2676A,97.373,37.376,海西蒙古族藏族自治州,德令哈市,,26,,28,15,11,82,,85,85,1,5,10,10,0.4,0.6
2026-01-17T0800,1049A,114.492,36.5712,邯郸市,矿院,细颗粒物(PM2.5),55,51,95,39,77,54,,50,50,13,24,1,2,0.4,0.7
2026-01-17T0800,1050A,114.4839,36.6136,邯郸市,丛台公园,细颗粒物(PM2.5),55,50,107,39,75,54,,47,47,14,25,3,4,0.4,0.7
2026-01-17T0800,3458A,114.7893,36.5592,邯郸市,香泉濮院小区,"颗粒物(PM10),细颗粒物(PM2.5)",54,58,105,38,72,39,,38,38,17,24,2,3,0.4,0.7
2026-01-17T0800,3580A,114.1998,36.4439,邯郸市,峰峰矿区临水派出所,细颗粒物(PM2.5),79,60,89,58,84,44,,52,52,24,18,70,16,1.0,0.9
2026-01-17T0800,4068A,114.5209,36.7697,邯郸市,建安街268号,细颗粒物(PM2.5),59,65,110,42,85,22,,13,13,29,37,1,3,0.4,0.6
2026-01-17T0800,4069A,114.5488,36.6177,邯郸市,丛台东路558号,细颗粒物(PM2.5),69,55,101,50,81,26,,14,14,28,33,1,2,0.5,0.7
2026-01-17T0800,2635A,107.0155,33.0707,汉中市,市监测站,细颗粒物(PM2.5),128,110,130,97,104,3,,8,8,37,47,5,7,1.4,1.4
2026-01-17T0800,2636A,107.0083,33.114,汉中市,鑫源开发区,细颗粒物(PM2.5),117,101,110,88,90,7,,14,14,42,48,5,8,1.2,1.1
2026-01-17T0800,2637A,107.0072,33.0323,汉中市,南郑大河坎水厂,细颗粒物(PM2.5),124,106,131,94,93,2,,14,14,28,38,3,6,1.3,1.2
2026-01-17T0800,1223A,120.2073,30.2111,杭州市,滨江,细颗粒物(PM2.5),149,160,166,114,118,2,,11,11,88,92,6,8,0.7,0.8
2026-01-17T0800,1224A,120.0625,30.2737,杭州市,西溪,细颗粒物(PM2.5),123,183,114,93,71,25,,3,3,51,58,8,9,1.0,1
2026-01-17T0800,1226A,120.3417,30.315,杭州市,下沙,细颗粒物(PM2.5),148,167,198,113,136,57,,16,16,32,98,6,10,1.0,1
2026-01-17T0800,1227A,120.1252,30.2465,杭州市,卧龙桥,细颗粒物(PM2.5),138,172,113,105,79,10,,8,8,81,68,9,9,0.6,0.6
2026-01-17T0800,1228A,120.1902,30.2691,杭州市,浙江农大,细颗粒物(PM2.5),138,162,170,105,119,20,,4,4,60,107,5,7,0.9,1
2026-01-17T0800,1230A,120.1195,30.3121,杭州市,和睦小学,细颗粒物(PM2.5),132,206,175,100,99,42,,7,7,28,79,5,7,1.0,1.1
2026-01-17T0800,1231A,120.3076,30.4146,杭州市,临平镇,细颗粒物(PM2.5),124,127,178,94,129,79,,33,33,16,72,6,10,0.8,0.8
2026-01-17T0800,1232A,120.2753,30.1839,杭州市,城厢镇,细颗粒物(PM2.5),165,175,171,125,120,2,,9,9,96,103,8,11,0.8,1
2026-01-17T0800,1233A,120.0883,30.1808,杭州市,云栖,细颗粒物(PM2.5),160,188,120,122,82,2,,16,16,97,61,4,4,1.0,0.8
2026-01-17T0800,3557A,119.9463,30.0496,杭州市,镇二中,细颗粒物(PM2.5),183,170,104,138,82,6,,2,2,72,70,6,6,1.1,1.1
2026-01-17T0800,3558A,119.7184,30.2367,杭州市,市府大楼,细颗粒物(PM2.5),165,229,135,125,85,3,,15,15,71,47,10,12,1.2,1.1
2026-01-17T0800,3656A,120.1554,30.2863,杭州市,消防大队,细颗粒物(PM2.5),176,198,167,133,125,22,,3,3,50,89,6,9,1.0,1.1
2026-01-17T0800,1270A,117.1957,31.7845,合肥市,明珠广场,细颗粒物(PM2.5),185,205,146,139,99,57,,53,53,22,46,5,9,1.1,0.9
2026-01-17T0800,1271A,117.307,31.8765,合肥市,三里街,细颗粒物(PM2.5),175,188,146,132,103,56,,57,57,24,46,4,8,1.0,1
2026-01-17T0800,1272A,117.2587,31.8703,合肥市,琥珀山庄,细颗粒物(PM2.5),175,190,146,132,92,63,,61,61,21,40,6,9,0.9,1
2026-01-17T0800,1275A,117.2593,31.9376,合肥市,庐阳区,细颗粒物(PM2.5),160,190,150,122,94,55,,57,57,31,46,4,7,1.1,1
2026-01-17T0800,1276A,117.345251,31.861615,合肥市,瑶海区,细颗粒物(PM2.5),165,183,145,125,98,56,,60,60,27,49,5,8,1.0,0.9
2026-01-17T0800,1277A,117.3033,31.7967,合肥市,包河区,细颗粒物(PM2.5),188,200,142,141,103,39,,51,51,46,60,8,12,1.2,1.1
2026-01-17T0800,1278A,117.278,31.7392,合肥市,滨湖新区,细颗粒物(PM2.5),199,202,147,149,111,55,,60,60,25,48,4,7,1.0,0.9
2026-01-17T0800,1279A,117.1324,31.8395,合肥市,高新区,细颗粒物(PM2.5),176,185,138,133,95,61,,50,50,24,39,4,7,1.0,0.9
2026-01-17T0800,3464A,117.3802,31.9148,合肥市,高教基地,细颗粒物(PM2.5),173,180,144,131,111,62,,58,58,18,36,7,11,0.9,0.9
2026-01-17T0800,4098A,117.2518,31.8404,合肥市,中国科学技术大学,细颗粒物(PM2.5),172,193,140,130,97,63,,61,61,22,45,7,10,1.1,1
2026-01-17T0800,3614A,79.9241,37.0878,和田地区,地区环保局,颗粒物(PM10),296,417,456,59,62,52,,42,42,10,17,3,4,0.3,0.4
2026-01-17T0800,3615A,79.9132,37.1137,和田地区,市环保局,颗粒物(PM10),250,385,419,58,57,22,,23,23,19,20,2,4,0.5,0.5
2026-01-17T0800,2517A,108.0496,24.6957,河池市,市环保站,细颗粒物(PM2.5),110,101,113,83,84,4,,4,4,34,36,3,4,1.1,1.1
2026-01-17T0800,4302A,108.0901,24.6945,河池市,上任中路54号,细颗粒物(PM2.5),117,103,112,88,84,0,,0,0,37,41,4,6,1.1,1.1
2026-01-17T0800,1697A,114.6962,23.7538,河源市,东埔,细颗粒物(PM2.5),57,56,64,40,44,9,,18,18,67,47,5,6,1.1,1.2
2026-01-17T0800,1698A,114.6895,23.7232,河源市,老城,,48,48,58,31,36,21,,31,31,46,32,6,7,0.8,0.7
2026-01-17T0800,3374A,115.5562,35.089,菏泽市,定陶老年大学,细颗粒物(PM2.5),67,75,136,48,76,19,,25,25,25,23,3,2,0.5,0.6
2026-01-17T0800,4114A,115.4239,35.2593,菏泽市,黄河路600号,"颗粒物(PM10),细颗粒物(PM2.5)",69,87,139,50,80,19,,27,27,28,27,2,4,0.6,0.7
2026-01-17T0800,4115A,115.5025,35.2727,菏泽市,菏泽市人社局,细颗粒物(PM2.5),69,84,132,50,76,13,,22,22,18,17,4,3,0.4,0.4
2026-01-17T0800,4184A,115.479691,35.244011,菏泽市,永昌路1号,细颗粒物(PM2.5),84,83,137,62,82,21,,29,29,22,22,5,4,0.3,0.4
2026-01-17T0800,4193A,115.471542,35.280012,菏泽市,长城路999号,细颗粒物(PM2.5),69,80,135,50,77,16,,24,24,27,25,11,11,0.7,0.8
2026-01-17T0800,2514A,111.5264,24.4178,贺州市,环保小区,细颗粒物(PM2.5),94,76,116,70,83,6,,8,8,28,46,7,11,1.1,1.1
2026-01-17T0800,2515A,111.561,24.4074,贺州市,政协大楼,细颗粒物(PM2.5),74,92,118,54,76,1,,2,2,36,46,11,18,0.9,1.1
2026-01-17T0800,3534A,111.4744,24.455,贺州市,西湾,细颗粒物(PM2.5),93,97,100,69,71,3,,3,3,28,47,7,9,1.0,1.1
2026-01-17T0800,2385A,114.17,35.9019,鹤壁市,市监测站,细颗粒物(PM2.5),79,98,134,58,96,30,,28,28,27,30,6,6,1.2,1.1
2026-01-17T0800,2386A,114.2953,35.7512,鹤壁市,市交警支队,细颗粒物(PM2.5),65,74,141,47,83,34,,32,32,22,26,8,5,0.6,0.9
2026-01-17T0800,2387A,114.2877,35.7302,鹤壁市,迎宾馆,颗粒物(PM10),61,72,144,42,84,41,,39,39,22,27,5,5,0.8,1
2026-01-17T0800,3474A,114.2616,35.6824,鹤壁市,大新区,颗粒物(PM10),57,64,131,29,77,46,,40,40,22,29,6,6,0.7,1
2026-01-17T0800,3596A,114.1573,35.9607,鹤壁市,南山宾馆,细颗粒物(PM2.5),84,97,154,62,93,33,,31,31,28,29,10,7,1.1,1.1
2026-01-17T0800,2244A,130.2537,47.3416,鹤岗市,哈啤分公司,细颗粒物(PM2.5),77,,23,56,21,62,,68,68,14,5,8,6,0.6,0.4
2026-01-17T0800,2245A,130.2683,47.3087,鹤岗市,斯达机电,,46,,24,32,21,58,,61,61,12,7,5,5,0.6,0.4
2026-01-17T0800,2246A,130.3114,47.3388,鹤岗市,东山纸板厂,,49,49,21,26,19,33,,57,57,39,8,7,7,1.0,0.6
2026-01-17T0800,2263A,127.4832,50.2524,黑河市,交通局,,19,17,15,13,12,55,,57,57,10,11,4,5,0.2,0.2
2026-01-17T0800,2264A,127.5146,50.2339,黑河市,环保局,,20,14,16,14,16,57,,57,57,9,13,4,6,0.3,0.4
2026-01-17T0800,1074A,115.6839,37.754,衡水市,电机北厂,细颗粒物(PM2.5),72,61,82,52,49,5,,20,20,44,25,6,7,0.5,0.5
2026-01-17T0800,1075A,115.6303,37.7318,衡水市,市监测站,,42,42,80,29,44,38,,46,46,27,22,7,6,0.4,0.6
2026-01-17T0800,3188A,115.6684,37.7216,衡水市,市城管局,颗粒物(PM10),53,55,83,32,46,33,,40,40,26,22,7,7,0.5,0.6
2026-01-17T0800,3459A,115.599,37.5491,衡水市,地表水厂,颗粒物(PM10),59,68,74,34,47,22,,26,26,27,25,4,4,0.4,0.5
2026-01-17T0800,2457A,112.6209,26.9268,衡阳市,衡阳化工总厂,细颗粒物(PM2.5),125,,108,95,93,14,,13,13,33,39,10,20,1.2,1.2
2026-01-17T0800,2458A,112.621,26.8957,衡阳市,珠晖区环保局,细颗粒物(PM2.5),113,86,111,85,98,21,,24,24,36,48,8,16,1.3,1.4
2026-01-17T0800,2459A,112.628,26.8654,衡阳市,市委党校,细颗粒物(PM2.5),97,85,104,72,83,52,,52,52,16,35,8,17,1.3,1.3
2026-01-17T0800,2460A,112.6007,26.8977,衡阳市,市监测站,细颗粒物(PM2.5),112,92,127,84,84,15,,21,21,29,42,9,15,1.4,1.3
2026-01-17T0800,2461A,112.5658,26.9013,衡阳市,真空机电公司,细颗粒物(PM2.5),128,,118,97,97,21,,26,26,24,50,7,16,1.5,1.6
2026-01-17T0800,3399A,112.6703,26.8817,衡阳市,师范学院,细颗粒物(PM2.5),93,96,107,69,75,42,,61,61,24,29,7,14,1.3,1.2
2026-01-17T0800,3038A,103.3757,23.3679,红河哈尼族彝族自治州,州图书馆,,42,34,38,29,29,47,,36,36,9,12,7,9,0.5,0.7
2026-01-17T0800,4154A,103.401,23.3561,红河哈尼族彝族自治州,蒙自市朝阳路,,33,25,30,23,25,42,,37,37,7,12,5,7,0.5,0.6
2026-01-17T0800,1090A,111.6506,40.7517,呼和浩特市,呼市一监,,31,31,29,12,17,35,,34,34,24,24,7,8,0.8,0.5
2026-01-17T0800,1094A,111.7516,40.8369,呼和浩特市,如意水处理厂,,35,35,29,18,14,5,,22,22,59,30,9,8,0.9,0.5
2026-01-17T0800,1095A,111.727798,40.806187,呼和浩特市,二十九中,,34,34,28,16,14,27,,34,34,31,22,12,11,1.0,0.6
2026-01-17T0800,1097A,111.717,40.7617,呼和浩特市,化肥厂生活区,,31,31,32,14,15,41,,41,41,22,24,6,6,0.9,0.5
2026-01-17T0800,3699A,111.6519,40.8389,呼和浩特市,海东办,,41,41,35,24,20,3,,12,12,52,31,5,7,0.7,0.5
2026-01-17T0800,4275A,111.591512,40.827312,呼和浩特市,成吉思汗西街8号,,44,44,40,17,20,7,,15,15,52,32,6,11,0.6,0.4
2026-01-17T0800,4276A,111.6597,40.8077,呼和浩特市,公园东路75号,,34,34,33,14,18,23,,26,26,42,30,8,7,0.8,0.5
2026-01-17T0800,4277A,111.5427,40.7846,呼和浩特市,金海路35号,,32,32,41,18,23,6,,13,13,53,36,9,16,0.8,0.6
2026-01-17T0800,3061A,119.7511,49.1576,呼伦贝尔市,国华电力东,,28,24,24,19,21,58,,60,60,13,16,6,4,0.3,0.4
2026-01-17T0800,4279A,119.7569,49.2222,呼伦贝尔市,伊敏大街东7号,,35,29,26,24,22,56,,56,56,8,9,6,8,0.1,0.1
2026-01-17T0800,1250A,120.075,30.867,湖州市,城西水厂,细颗粒物(PM2.5),139,120,153,106,121,106,,59,59,17,82,5,9,0.8,0.9
2026-01-17T0800,2873A,120.083,30.8929,湖州市,仁皇山新区,细颗粒物(PM2.5),132,123,141,100,111,104,,68,68,24,68,5,9,1.0,1
2026-01-17T0800,2907A,120.1846,30.8592,湖州市,吴兴区站,细颗粒物(PM2.5),100,115,168,75,123,108,,62,62,24,67,4,10,0.2,0.3
2026-01-17T0800,3562A,120.4146,30.8538,湖州市,南浔区站,细颗粒物(PM2.5),98,97,142,73,106,95,,49,49,16,56,6,10,1.2,1.1
2026-01-17T0800,1607A,120.904878,40.721091,葫芦岛市,龙港区,,47,47,33,27,13,27,,49,49,39,15,34,18,1.0,0.5
2026-01-17T0800,1608A,120.8382,40.7521,葫芦岛市,化工街,,29,29,31,14,12,34,,48,48,30,13,27,14,0.7,0.5
2026-01-17T0800,1609A,120.8339,40.7078,葫芦岛市,新区,,17,17,27,11,12,40,,49,49,26,14,25,15,0.7,0.5
2026-01-17T0800,1610A,120.8697,40.7679,葫芦岛市,东城区,,42,36,27,29,13,20,,42,42,50,18,36,19,1.0,0.5
2026-01-17T0800,2483A,109.9297,27.5383,怀化市,河西地税局,细颗粒物(PM2.5),127,104,121,96,100,30,,16,16,27,38,6,6,/,/
2026-01-17T0800,2484A,109.9783,27.5342,怀化市,市四医院,细颗粒物(PM2.5),133,131,137,101,106,32,,15,15,23,34,6,7,0.8,1.1
2026-01-17T0800,2485A,109.9971,27.5579,怀化市,监测楼,细颗粒物(PM2.5),129,108,130,98,114,21,,10,10,55,37,8,7,0.5,0.8
2026-01-17T0800,1210A,119.0566,33.5991,淮安市,钵池山,细颗粒物(PM2.5),73,53,161,53,132,54,,52,52,13,35,6,10,0.3,0.9
2026-01-17T0800,1211A,119.0083,33.578,淮安市,北京南路,细颗粒物(PM2.5),57,61,163,40,129,53,,50,50,12,34,6,10,0.5,1.1
2026-01-17T0800,1212A,118.9938,33.6083,淮安市,市监测站,颗粒物(PM10),51,51,156,27,113,50,,49,49,15,38,8,13,0.6,1.2
2026-01-17T0800,1213A,119.135,33.5038,淮安市,楚州区监测站,,49,49,164,20,122,56,,54,54,8,29,8,11,0.6,1.1
2026-01-17T0800,3426A,118.8757,33.2897,淮安市,新华书店,颗粒物(PM10),69,87,174,48,131,48,,47,47,13,35,7,10,0.5,0.9
2026-01-17T0800,4092A,119.119691,33.550006,淮安市,枚皋中路89号,颗粒物(PM10),56,62,185,19,132,62,,59,59,10,29,9,12,1.0,1.6
2026-01-17T0800,4206A,119.028838,33.631911,淮安市,承德北路606号,细颗粒物(PM2.5),64,56,183,46,133,56,,55,55,13,38,6,10,0.4,1.1
2026-01-17T0800,2282A,116.8005,33.9749,淮北市,监测站,颗粒物(PM10),74,98,167,48,101,44,,50,50,18,31,5,6,0.6,0.8
2026-01-17T0800,2283A,116.8094,33.9008,淮北市,烈山区政府,颗粒物(PM10),65,80,153,46,95,47,,47,47,13,28,4,7,0.5,0.7
2026-01-17T0800,4017A,116.7926,33.9534,淮北市,市博物馆,,,94,173,48,98,,,,,20,34,5,6,0.8,1
2026-01-17T0800,4100A,116.8322,33.9884,淮北市,杜集区第一实验学校,颗粒物(PM10),71,91,171,45,98,43,,49,49,14,31,9,10,0.8,1
2026-01-17T0800,2277A,116.8304,32.7726,淮南市,潘集区政府,细颗粒物(PM2.5),160,175,175,122,116,38,,41,41,20,34,5,9,1.0,1
2026-01-17T0800,2279A,116.8569,32.5949,淮南市,谢家集区政府,细颗粒物(PM2.5),135,161,152,103,96,46,,44,44,21,35,6,11,0.9,0.9
2026-01-17T0800,2280A,116.8279,32.6333,淮南市,八公山区政府,细颗粒物(PM2.5),160,183,160,122,99,45,,44,44,17,29,7,8,0.9,0.8
2026-01-17T0800,2894A,117.0561,32.6536,淮南市,经济技术开发区消防队,细颗粒物(PM2.5),138,161,160,105,103,48,,44,44,24,40,4,8,1.0,0.9
2026-01-17T0800,3329A,117.011,32.5891,淮南市,山南新区,细颗粒物(PM2.5),138,190,177,105,104,51,,48,48,23,35,2,5,1.0,1
2026-01-17T0800,4209A,117.003137,32.644456,淮南市,国庆中路369号,细颗粒物(PM2.5),143,156,150,109,105,41,,37,37,21,36,8,12,1.0,1
2026-01-17T0800,2446A,114.9021,30.474,黄冈市,职工中心,细颗粒物(PM2.5),140,147,108,107,80,23,,31,31,24,32,6,9,1.1,1.1
2026-01-17T0800,2929A,114.8858,30.4519,黄冈市,红卫路,细颗粒物(PM2.5),140,148,105,107,84,19,,28,28,23,32,7,10,0.6,0.6
2026-01-17T0800,3398A,114.9134,30.4446,黄冈市,市林业局,细颗粒物(PM2.5),150,162,119,115,84,35,,45,45,32,39,4,6,1.0,1
2026-01-17T0800,2672A,102.02,35.5101,黄南藏族自治州,同仁县隆务镇,,31,31,33,8,13,44,,52,52,9,5,14,12,0.8,0.5
2026-01-17T0800,2295A,118.2905,29.6965,黄山市,延安路89号,,45,39,49,31,35,5,,10,10,18,21,4,4,0.6,0.7
2026-01-17T0800,2297A,118.1369,30.2755,黄山市,黄山区政府5号楼,细颗粒物(PM2.5),74,73,80,54,56,9,,20,20,14,15,2,3,0.7,0.7
2026-01-17T0800,4210A,118.335445,29.720283,黄山市,滨江东路7-2号,细颗粒物(PM2.5),64,60,72,46,49,5,,14,14,18,28,/,/,/,/
2026-01-17T0800,2423A,115.0547,30.2332,黄石市,沈家营,细颗粒物(PM2.5),149,192,150,114,95,8,,17,17,36,59,6,7,1.8,1.5
2026-01-17T0800,2426A,114.899,30.211,黄石市,铁山,细颗粒物(PM2.5),189,156,131,142,116,12,,18,18,35,48,8,12,0.9,0.7
2026-01-17T0800,2427A,115.0259,30.2108,黄石市,团城山,细颗粒物(PM2.5),175,186,151,132,109,11,,24,24,40,59,14,9,1.6,1.2
2026-01-17T0800,3149A,115.0174,30.1591,黄石市,笔架山北路,细颗粒物(PM2.5),185,235,177,139,106,4,,17,17,53,42,10,14,1.8,1.4
2026-01-17T0800,4185A,115.078022,30.21118,黄石市,磁湖东路29号,细颗粒物(PM2.5),179,181,160,135,120,13,,19,19,36,65,12,11,1.7,1.6
2026-01-17T0800,1392A,114.4181,23.0528,惠州市,河南岸金山湖子站,颗粒物(PM10),65,79,65,44,38,17,,38,38,43,37,7,6,0.8,0.7
2026-01-17T0800,1393A,114.4055,23.0824,惠州市,下埔横江三路子站,颗粒物(PM10),66,81,71,47,37,16,,41,41,58,40,10,10,0.8,0.8
2026-01-17T0800,1395A,114.4645,22.7832,惠州市,惠阳区承修路船湖子站,颗粒物(PM10),57,64,51,36,27,47,,40,40,44,32,12,8,0.7,0.5
2026-01-17T0800,1396A,114.5316,22.7423,惠州市,大亚湾管委会子站,颗粒物(PM10),55,60,54,28,26,4,,16,16,68,43,6,7,0.7,0.6
2026-01-17T0800,3314A,114.4334,22.8134,惠州市,惠阳秋长,颗粒物(PM10),53,56,52,29,27,36,,33,33,48,33,/,/,/,/
2026-01-17T0800,3452A,114.6521,22.7755,惠州市,大亚湾霞涌,,47,47,46,24,27,87,,89,89,29,28,/,/,/,/
2026-01-17T0800,4300A,114.4089,23.1147,惠州市,文华一路1号,细颗粒物(PM2.5),63,74,65,45,37,30,,32,32,50,46,/,/,/,/
2026-01-17T0800,2240A,130.9618,45.2926,鸡西市,环保局,,38,34,24,26,20,47,,54,54,11,8,6,6,0.4,0.3
2026-01-17T0800,2243A,130.9294,45.2959,鸡西市,第一中学,颗粒物(PM10),54,58,23,28,18,50,,54,54,11,8,3,4,0.5,0.5
2026-01-17T0800,3707A,131.0069,45.2988,鸡西市,欧美日汽修厂,细颗粒物(PM2.5),64,74,26,46,19,52,,59,59,13,9,8,8,0.4,0.3
2026-01-17T0800,2367A,114.9753,27.0803,吉安市,红声器材厂,细颗粒物(PM2.5),80,85,80,59,51,63,,74,74,23,27,14,14,1.0,0.9
2026-01-17T0800,2369A,114.9903,27.1313,吉安市,市环境监测站,细颗粒物(PM2.5),79,77,76,58,53,67,,80,80,23,28,15,16,/,/
2026-01-17T0800,2370A,115.009527,27.096792,吉安市,青原区法院,细颗粒物(PM2.5),87,80,85,64,57,52,,67,67,28,29,18,16,0.9,0.9
2026-01-17T0800,1772A,126.54,43.8622,吉林市,哈达湾,细颗粒物(PM2.5),54,50,66,38,56,50,,49,49,18,28,6,9,0.8,1
2026-01-17T0800,1773A,126.5843,43.8358,吉林市,东局子,,46,46,64,32,56,42,,40,40,20,33,3,6,1.0,1.2
2026-01-17T0800,1774A,126.5051,43.8243,吉林市,电力学院,细颗粒物(PM2.5),64,50,79,46,74,40,,34,34,26,36,10,14,0.9,1.2
2026-01-17T0800,1775A,126.6133,43.8971,吉林市,江北,,40,36,91,28,71,39,,39,39,21,39,9,13,1.0,1.3
2026-01-17T0800,1776A,126.5549,43.8304,吉林市,江南公园,细颗粒物(PM2.5),55,42,62,39,59,46,,45,45,19,30,8,13,0.8,0.9
2026-01-17T0800,2868A,126.4737,43.953,吉林市,九站,,49,38,61,34,53,39,,35,35,27,36,6,7,0.8,0.9
2026-01-17T0800,1299A,116.9866,36.6118,济南市,科干所,颗粒物(PM10),51,51,94,27,50,52,,56,56,12,21,3,4,0.5,0.6
2026-01-17T0800,1300A,116.9379,36.6652,济南市,农科所,颗粒物(PM10),53,56,99,29,47,42,,43,43,24,31,6,6,0.6,0.7
2026-01-17T0800,1301A,117.1265,36.6736,济南市,开发区,"颗粒物(PM10),细颗粒物(PM2.5)",53,56,97,37,58,47,,50,50,23,28,2,2,0.6,0.7
2026-01-17T0800,1303A,117.0616,36.6865,济南市,省种子仓库,颗粒物(PM10),52,53,106,31,55,51,,50,50,18,24,2,3,0.7,0.7
2026-01-17T0800,1304A,116.9495185,36.644937,济南市,机床二厂,颗粒物(PM10),52,54,88,34,57,46,,51,51,20,25,2,4,0.3,0.5
2026-01-17T0800,1305A,117.0496,36.6629,济南市,市监测站,颗粒物(PM10),52,54,99,32,51,49,,53,53,17,23,3,3,0.5,0.7
2026-01-17T0800,1306A,116.7674,36.5458,济南市,长清党校,,49,49,98,24,48,47,,49,49,17,24,4,4,0.6,0.7
2026-01-17T0800,1961A,117.5323,36.6865,济南市,东山小学,颗粒物(PM10),51,51,108,24,59,58,,55,55,17,24,2,2,0.2,0.5
2026-01-17T0800,3059A,117.7181,36.205,济南市,泰兴公司,,49,48,111,34,69,30,,34,34,42,38,4,6,0.6,0.9
2026-01-17T0800,3064A,117.6861,36.2172,济南市,莱芜战役纪念馆,颗粒物(PM10),52,53,101,31,65,32,,47,47,40,34,5,6,0.5,0.7
2026-01-17T0800,3494A,117.1673,36.9782,济南市,济阳区政府,,37,37,78,3,40,48,,46,46,14,18,4,5,0.4,0.6
2026-01-17T0800,3495A,117.1168,36.6299,济南市,锦屏中学,,46,46,88,24,49,54,,56,56,15,23,2,2,0.6,0.8
2026-01-17T0800,4108A,117.7107,36.2385,济南市,山财大街5号,,36,36,94,20,56,36,,50,50,32,36,8,9,0.6,0.8
2026-01-17T0800,4109A,116.9744,36.6889,济南市,无影山路12号,,48,48,94,28,56,45,,42,42,16,22,4,4,0.5,0.7
2026-01-17T0800,1653A,116.6229,35.4288,济宁市,火炬城,颗粒物(PM10),51,52,133,29,85,23,,43,43,38,30,2,3,0.3,0.7
2026-01-17T0800,3500A,116.5808,35.3703,济宁市,北湖一中,颗粒物(PM10),51,52,130,29,85,38,,44,44,24,30,3,6,0.4,0.8
2026-01-17T0800,3501A,116.8251,35.5592,济宁市,服务中心,,40,40,146,21,73,33,,40,40,23,37,8,10,0.6,0.9
2026-01-17T0800,3678A,116.5907,35.4054,济宁市,市第七中学,,48,48,131,17,73,43,,48,48,21,31,5,8,0.4,0.8
2026-01-17T0800,4111A,116.6075,35.4566,济宁市,任和路,颗粒物(PM10),55,60,150,18,78,30,,39,39,29,31,3,5,0.5,0.8
2026-01-17T0800,4112A,116.5648,35.3921,济宁市,文体南路1号,颗粒物(PM10),52,54,150,20,81,42,,46,46,19,30,1,4,0.4,0.7
2026-01-17T0800,2255A,130.2749,46.8028,佳木斯市,佳纺,细颗粒物(PM2.5),67,60,40,48,32,39,,44,44,18,15,6,6,0.6,0.5
2026-01-17T0800,2257A,130.3258,46.7975,佳木斯市,环保局,"颗粒物(PM10),细颗粒物(PM2.5)",59,68,41,42,28,40,,50,50,28,17,10,9,0.6,0.5
2026-01-17T0800,4285A,130.363,46.806,佳木斯市,顺和街,细颗粒物(PM2.5),62,58,36,44,26,38,,42,42,21,17,12,12,0.5,0.4
2026-01-17T0800,4286A,130.3952,46.8268,佳木斯市,长安路196号,细颗粒物(PM2.5),53,54,38,37,26,42,,47,47,21,15,6,6,0.6,0.5
2026-01-17T0800,1252A,120.7439,30.778,嘉兴市,清河小学,细颗粒物(PM2.5),169,,142,128,110,95,,57,57,20,57,5,10,1.2,0.9
2026-01-17T0800,1253A,120.7261,30.7477,嘉兴市,嘉兴学院,细颗粒物(PM2.5),102,111,151,76,99,107,,63,63,24,56,4,9,1.0,0.9
2026-01-17T0800,2872A,120.7845,30.7524,嘉兴市,南湖区残联,细颗粒物(PM2.5),100,,124,75,106,107,,63,63,19,54,3,9,1.1,1
2026-01-17T0800,3407A,120.6915,30.7741,嘉兴市,秀洲住建,细颗粒物(PM2.5),110,106,140,83,106,100,,53,53,24,62,5,10,1.0,0.9
2026-01-17T0800,1945A,98.291,39.7705,嘉峪关市,气象局,,31,31,94,12,31,78,,58,58,5,25,9,14,0.4,0.8
2026-01-17T0800,2884A,98.2672,39.7978,嘉峪关市,酒钢宾馆,,31,31,112,9,34,77,,44,44,5,27,11,21,0.6,1.1
2026-01-17T0800,3248A,98.2644,39.7723,嘉峪关市,雄关区,,36,36,73,22,27,74,,37,37,7,33,15,17,0.5,0.8
2026-01-17T0800,1383A,113.1063,22.6058,江门市,北街,细颗粒物(PM2.5),74,64,83,54,59,34,,69,69,52,42,/,/,/,/
2026-01-17T0800,1384A,113.073,22.5835,江门市,西区,颗粒物(PM10),65,80,101,44,53,0,,48,48,89,57,/,/,/,/
2026-01-17T0800,1385A,113.0218,22.531,江门市,圭峰西,细颗粒物(PM2.5),65,,77,47,56,48,,80,80,30,34,/,/,/,/
2026-01-17T0800,1386A,113.0826,22.5947,江门市,东湖,颗粒物(PM10),64,77,93,42,57,13,,57,57,70,50,8,11,0.7,0.9
2026-01-17T0800,3311A,113.1077,22.5647,江门市,江海富民,细颗粒物(PM2.5),104,119,130,78,74,9,,58,58,106,60,/,/,0.8,0.8
2026-01-17T0800,3449A,113.0496,22.4669,江门市,新会银湖,细颗粒物(PM2.5),129,,82,98,74,8,,18,18,50,43,6,8,0.7,0.6
2026-01-17T0800,3335A,113.3137,35.2643,焦作市,马村街道办,细颗粒物(PM2.5),99,119,148,74,80,25,,38,38,29,30,16,11,1.0,0.9
2026-01-17T0800,3336A,113.2464,35.2374,焦作市,焦作技师学院,细颗粒物(PM2.5),104,120,154,78,79,28,,40,40,26,32,12,13,1.2,1
2026-01-17T0800,3477A,113.1656,35.2536,焦作市,中站许衡医院,细颗粒物(PM2.5),93,106,137,69,76,20,,35,35,42,34,5,8,1.0,1
2026-01-17T0800,3981A,113.2456,35.18,焦作市,原李万街道办,细颗粒物(PM2.5),92,125,157,68,82,27,,25,25,29,35,6,8,0.7,0.8
2026-01-17T0800,4264A,113.234,35.219,焦作市,新安路1731号,细颗粒物(PM2.5),109,139,159,82,86,24,,34,34,28,30,6,9,0.8,0.9
2026-01-17T0800,4295A,113.2722,35.2121,焦作市,人民路3066号,颗粒物(PM10),97,143,154,70,76,26,,35,35,32,36,6,8,1.0,0.9
2026-01-17T0800,1708A,116.3701,23.5345,揭阳市,新兴,细颗粒物(PM2.5),78,67,76,57,46,26,,33,33,55,49,15,12,0.8,0.9
2026-01-17T0800,1709A,116.3261,23.5442,揭阳市,西马,细颗粒物(PM2.5),78,82,77,57,41,28,,30,30,43,35,22,9,0.7,0.7
2026-01-17T0800,1710A,116.361,23.5627,揭阳市,东兴,细颗粒物(PM2.5),72,88,76,52,45,16,,24,24,56,42,15,12,/,/
2026-01-17T0800,1711A,116.4151,23.5295,揭阳市,渔湖,细颗粒物(PM2.5),70,66,78,51,45,43,,30,30,42,44,9,8,/,/
2026-01-17T0800,3320A,116.4028,23.5699,揭阳市,曲溪,颗粒物(PM10),74,97,82,52,44,14,,21,21,66,49,19,9,0.9,0.8
2026-01-17T0800,1944A,102.1691,38.5166,金昌市,天庆家园,颗粒物(PM10),69,88,124,30,43,36,,25,25,14,24,6,48,0.7,0.8
2026-01-17T0800,4022A,102.1648,38.5369,金昌市,金川区人防中心,颗粒物(PM10),68,86,119,29,32,47,,35,35,10,20,4,34,0.7,0.9
2026-01-17T0800,4239A,102.193042,38.531887,金昌市,长春路96号,颗粒物(PM10),67,83,113,22,39,41,,31,31,9,21,7,46,0.6,0.9
2026-01-17T0800,1262A,119.6478,29.0773,金华市,十五中,细颗粒物(PM2.5),89,112,102,66,61,9,,10,10,68,73,4,5,0.8,0.9
2026-01-17T0800,1263A,119.6859,29.1032,金华市,监测站,细颗粒物(PM2.5),97,127,102,72,61,2,,1,1,66,71,4,4,0.7,0.7
2026-01-17T0800,3659A,119.656,29.1132,金华市,气象局,细颗粒物(PM2.5),97,128,113,72,62,1,,0,0,71,76,5,5,0.7,0.7
2026-01-17T0800,1767A,121.1114,41.0879,锦州市,南山,细颗粒物(PM2.5),58,,24,41,12,34,,64,64,32,8,15,9,1.2,0.5
2026-01-17T0800,1768A,121.060361,40.842794,锦州市,开发区,,38,38,28,14,14,14,,49,49,50,14,31,10,0.6,0.3
2026-01-17T0800,1769A,121.1836,41.1118,锦州市,百股街道,,28,21,25,19,12,28,,50,50,35,12,16,9,0.8,0.6
2026-01-17T0800,1770A,121.1176,41.1224,锦州市,天安街道,,20,12,23,11,11,62,,71,71,16,9,15,10,0.7,0.6
2026-01-17T0800,1771A,121.1303,41.1385,锦州市,北湖公园,,,,27,,12,,,70,,,7,,8,,0.5
2026-01-17T0800,2160A,112.8496,35.5051,晋城市,自来水公司,细颗粒物(PM2.5),79,104,123,58,51,41,,45,45,21,27,6,12,0.8,1.1
2026-01-17T0800,2162A,112.8509,35.4886,晋城市,市环保局,细颗粒物(PM2.5),85,111,130,63,59,43,,49,49,22,27,5,10,0.9,1.2
2026-01-17T0800,3620A,112.8258,35.4804,晋城市,泽州一中,细颗粒物(PM2.5),83,102,132,61,62,47,,51,51,21,25,5,8,0.7,0.9
2026-01-17T0800,4078A,112.8246,35.5152,晋城市,前书院路,颗粒物(PM10),83,115,140,50,57,29,,44,44,27,28,5,9,0.7,0.9
2026-01-17T0800,4079A,112.8864,35.4773,晋城市,祥云街666号,细颗粒物(PM2.5),97,110,134,72,69,34,,45,45,14,15,4,8,0.7,1
2026-01-17T0800,2174A,112.6992,37.6984,晋中市,榆次区政府,细颗粒物(PM2.5),77,88,120,56,58,40,,38,38,30,36,8,10,0.4,0.6
2026-01-17T0800,2865A,112.7195,37.683,晋中市,榆次三中,颗粒物(PM10),69,88,120,39,46,45,,43,43,19,27,8,10,0.5,0.7
2026-01-17T0800,4080A,112.7375,37.7215,晋中市,广安街188号,细颗粒物(PM2.5),65,75,121,47,56,41,,37,37,28,34,8,12,0.4,0.6
2026-01-17T0800,4200A,112.7478,37.6954,晋中市,迎宾街26号,"颗粒物(PM10),细颗粒物(PM2.5)",70,90,120,51,53,46,,44,44,20,26,8,10,0.6,0.7
2026-01-17T0800,2439A,112.2012,31.048,荆门市,竹园小学,细颗粒物(PM2.5),130,191,159,99,91,46,,60,60,25,28,1,2,1.1,1.1
2026-01-17T0800,2440A,112.1968,30.9892,荆门市,掇刀,细颗粒物(PM2.5),129,185,153,98,87,43,,59,59,21,23,3,6,0.6,0.5
2026-01-17T0800,3012A,112.1849,31.0361,荆门市,西山林语,细颗粒物(PM2.5),125,174,148,95,80,44,,60,60,22,29,1,8,0.5,0.6
2026-01-17T0800,3547A,112.1631,31.0134,荆门市,龙泉中学南校,细颗粒物(PM2.5),144,195,165,110,92,50,,66,66,17,18,3,7,0.8,0.9
2026-01-17T0800,4124A,112.2213,31.0654,荆门市,新台西路6号,细颗粒物(PM2.5),159,173,162,121,115,38,,52,52,19,24,7,11,0.8,0.8
2026-01-17T0800,1844A,112.2493,30.3198,荆州市,市图书馆,细颗粒物(PM2.5),173,160,131,131,115,41,,53,53,22,35,8,10,1.1,1.1
2026-01-17T0800,1845A,112.2009,30.3543,荆州市,市委党校,细颗粒物(PM2.5),166,178,152,126,113,39,,48,48,25,38,3,6,1.0,1
2026-01-17T0800,3194A,112.2749,30.3124,荆州市,管委会,细颗粒物(PM2.5),178,159,136,134,115,33,,46,46,26,38,8,10,1.0,1
2026-01-17T0800,4268A,112.1722,30.3366,荆州市,学苑路85号,细颗粒物(PM2.5),153,172,152,117,112,47,,59,59,15,27,4,11,1.0,1.1
2026-01-17T0800,2343A,117.2114,29.2931,景德镇市,老干部活动中心,细颗粒物(PM2.5),77,,59,56,44,8,,19,19,35,27,8,9,0.9,0.8
2026-01-17T0800,2344A,117.1893,29.2789,景德镇市,兽医站,细颗粒物(PM2.5),58,45,73,41,43,35,,35,35,26,33,6,8,0.6,0.9
2026-01-17T0800,2346A,117.246,29.2958,景德镇市,陶研所,细颗粒物(PM2.5),80,68,63,59,50,2,,7,7,33,34,7,5,0.5,0.6
2026-01-17T0800,4289A,117.154766,29.256967,景德镇市,青少年活动中心,细颗粒物(PM2.5),60,52,77,43,48,27,,21,21,29,46,5,12,/,/
2026-01-17T0800,1803A,115.9873,29.6816,九江市,十里,细颗粒物(PM2.5),138,145,141,105,102,51,,42,42,38,85,8,11,1.2,1.6
2026-01-17T0800,1804A,115.9583,29.7047,九江市,茅山头,细颗粒物(PM2.5),139,163,141,106,98,33,,18,18,31,78,15,16,1.1,1.5
2026-01-17T0800,1805A,115.9877,29.7295,九江市,西园,细颗粒物(PM2.5),124,131,147,94,104,39,,33,33,51,110,4,9,1.1,1.4
2026-01-17T0800,1808A,115.9112,29.6038,九江市,综合工业园,细颗粒物(PM2.5),163,144,120,124,99,43,,36,36,41,79,6,9,0.8,0.8
2026-01-17T0800,3190A,116.0254,29.6995,九江市,外国语学校,细颗粒物(PM2.5),133,139,135,101,96,29,,36,36,40,76,9,11,1.2,1.3
2026-01-17T0800,4253A,116.010205,29.659402,九江市,莲花大道8号,细颗粒物(PM2.5),168,134,112,127,91,36,,59,59,27,43,5,8,0.8,0.9
2026-01-17T0800,4240A,98.495752,39.733935,酒泉市,玉门东路5号,,41,41,77,17,25,53,,62,62,10,13,10,11,0.3,0.5
2026-01-17T0800,4241A,98.5099,39.7506,酒泉市,北大街108号,颗粒物(PM10),65,80,72,25,24,41,,57,57,23,12,12,11,0.4,0.5
2026-01-17T0800,2698A,76.0071,39.466,喀什地区,巡警大队,细颗粒物(PM2.5),130,208,192,99,78,5,,20,20,65,46,7,8,3.5,1.8
2026-01-17T0800,2699A,75.9756,39.4693,喀什地区,吾办,细颗粒物(PM2.5),152,192,174,116,80,10,,18,18,60,45,9,12,3.2,1.8
2026-01-17T0800,4027A,75.9485,39.4688,喀什地区,老干局,颗粒物(PM10),138,225,210,89,65,3,,7,7,48,41,4,8,3.5,1.9
2026-01-17T0800,1824A,114.3389,34.778,开封市,肿瘤医院,颗粒物(PM10),58,66,137,39,68,40,,46,46,21,24,5,4,0.6,0.8
2026-01-17T0800,1826A,114.2884,34.7966,开封市,世纪星幼儿园,细颗粒物(PM2.5),58,56,129,41,82,42,,49,49,20,23,6,6,0.5,0.7
2026-01-17T0800,3147A,114.3434,34.8101,开封市,龙亭公园,颗粒物(PM10),56,61,127,36,80,40,,46,46,7,13,7,6,0.5,1
2026-01-17T0800,3210A,114.3645,34.7955,开封市,汴京公园,细颗粒物(PM2.5),55,53,128,39,76,38,,44,44,17,23,4,4,0.9,1
2026-01-17T0800,3473A,114.2485,34.8306,开封市,技师学院,细颗粒物(PM2.5),58,48,123,41,77,41,,47,47,16,22,6,6,0.8,1
2026-01-17T0800,3592A,114.4518,34.7503,开封市,祥符区生态环境局,颗粒物(PM10),63,75,167,43,76,30,,36,36,32,29,5,4,0.5,0.8
2026-01-17T0800,1951A,84.886,45.6029,克拉玛依市,长征新村,,19,19,17,10,11,44,,46,46,16,11,4,6,0.3,0.3
2026-01-17T0800,1952A,84.8894,45.5827,克拉玛依市,南林小区,,17,17,16,11,9,50,,50,50,7,9,2,2,0.4,0.4
2026-01-17T0800,1954A,84.896,44.3328,克拉玛依市,独山子区,,26,26,35,16,20,45,,51,51,26,26,5,5,0.4,0.3
2026-01-17T0800,1955A,85.6888,46.0909,克拉玛依市,乌尔禾区商贸楼,,20,8,18,3,7,61,,54,54,9,16,5,6,0.4,0.4
2026-01-17T0800,3612A,85.1045,45.6895,克拉玛依市,白碱滩区新站,,30,30,24,12,10,58,,55,55,8,12,8,9,0.1,0.2
2026-01-17T0800,2697A,76.1457,39.7143,克孜勒苏柯尔克孜自治州,市人民政府,颗粒物(PM10),118,186,167,55,63,46,,50,50,19,24,4,5,0.8,0.6
2026-01-17T0800,3665A,76.1654,39.7157,克孜勒苏柯尔克孜自治州,克州文化中心,颗粒物(PM10),110,170,167,50,54,39,,44,44,25,25,6,7,1.1,1
2026-01-17T0800,1450A,102.8203,24.889,昆明市,呈贡新区,,44,44,43,27,23,0,,0,0,32,26,4,6,0.9,0.7
2026-01-17T0800,1452A,102.7253,25.0904,昆明市,龙泉镇,颗粒物(PM10),53,55,35,24,21,1,,6,6,40,30,2,3,0.5,0.5
2026-01-17T0800,1453A,102.7267,25.0378,昆明市,东风东路,,42,42,44,20,24,3,,4,4,36,32,4,6,0.4,0.4
2026-01-17T0800,1454A,102.6744,25.0671,昆明市,金鼎山,颗粒物(PM10),53,56,41,28,23,5,,3,3,48,32,3,4,0.8,0.7
2026-01-17T0800,1455A,102.6643,25.0401,昆明市,碧鸡广场,,47,47,43,24,25,2,,2,2,49,36,3,5,0.5,0.5
2026-01-17T0800,3179A,102.7491,25.012,昆明市,官渡区博物馆,颗粒物(PM10),59,67,51,34,28,1,,1,1,49,35,3,6,1.1,0.6
2026-01-17T0800,3375A,102.8016,24.8336,昆明市,青年创业园,,35,35,31,24,18,10,,4,4,27,26,5,5,0.7,0.6
2026-01-17T0800,3550A,102.8,24.9787,昆明市,昆明学院,细颗粒物(PM2.5),68,,38,49,27,1,,1,1,43,31,2,5,0.7,0.4
2026-01-17T0800,3551A,102.5969,24.6738,昆明市,晋宁区生态环境分局,细颗粒物(PM2.5),64,64,39,46,26,1,,5,5,40,24,3,2,1.1,0.6
2026-01-17T0800,3552A,102.6673,24.9861,昆明市,云天化总部,,42,42,34,24,20,16,,10,10,43,34,6,9,0.2,0.3
2026-01-17T0800,1456A,91.132,29.6515,拉萨市,八廓街,,19,10,21,7,12,60,,54,54,8,18,6,7,0.2,0.4
2026-01-17T0800,1457A,91.1221,29.6748,拉萨市,市环保局,,20,20,33,14,25,41,,38,38,22,29,7,9,0.5,1
2026-01-17T0800,1458A,91.0874,29.6476,拉萨市,区监测站,,15,13,16,7,10,41,,43,43,29,31,4,4,0.8,1
2026-01-17T0800,1459A,91.1774,29.6541,拉萨市,西藏大学,,17,13,20,7,11,54,,56,56,14,19,4,5,0.4,0.6
2026-01-17T0800,1460A,90.9798,29.6586,拉萨市,区辐射站,颗粒物(PM10),56,62,36,19,23,11,,34,34,48,35,5,5,0.9,0.8
2026-01-17T0800,1461A,91.0831,29.6292,拉萨市,拉萨火车站,,22,16,18,10,11,20,,22,22,43,32,4,4,1.0,0.8
2026-01-17T0800,2520A,109.2203,23.7252,来宾市,来宾技工学校,细颗粒物(PM2.5),170,137,91,129,66,15,,17,17,28,20,16,9,1.7,0.9
2026-01-17T0800,3535A,109.1781,23.7293,来宾市,兴宾区政府,细颗粒物(PM2.5),117,123,90,88,64,22,,25,25,28,20,17,8,1.4,0.8
2026-01-17T0800,4002A,109.2312,23.7428,来宾市,中南小学,细颗粒物(PM2.5),180,138,90,136,64,13,,15,15,32,28,13,7,1.7,0.9
2026-01-17T0800,1479A,103.8309,36.0467,兰州市,铁路设计院,,,,,,,,,,,,,,,,
2026-01-17T0800,3241A,103.7439,36.0841,兰州市,百合公园,颗粒物(PM10),90,129,140,63,53,0,,2,2,56,66,41,25,2.2,1.7
2026-01-17T0800,3242A,103.9613,35.9985,兰州市,和平,,,,146,,49,,,71,,,33,,24,,1.4
2026-01-17T0800,4236A,103.629272,36.093822,兰州市,庄浪东路808号,细颗粒物(PM2.5),105,136,140,79,59,10,,9,9,58,66,53,30,1.7,1.2
2026-01-17T0800,4237A,103.7251,36.104344,兰州市,安宁西路88号,颗粒物(PM10),110,170,159,66,53,1,,1,1,63,70,43,27,1.7,1.3
2026-01-17T0800,4238A,103.846982,36.067567,兰州市,北滨河东路1号,颗粒物(PM10),89,128,149,56,58,1,,1,1,67,71,10,17,1.6,1.5
2026-01-17T0800,1067A,116.6712,39.5109,廊坊市,药材公司,,35,35,60,12,32,48,,22,22,18,28,7,5,0.8,0.8
2026-01-17T0800,1068A,116.7215,39.5592,廊坊市,开发区,,42,42,54,10,28,53,,24,24,15,31,6,3,0.7,0.5
2026-01-17T0800,1070A,116.7246,39.5273,廊坊市,北华航天学院,,36,36,70,9,35,54,,20,20,13,32,5,4,0.7,0.6
2026-01-17T0800,2919A,116.7022,39.5454,廊坊市,河北工业大学,,40,40,62,12,32,51,,24,24,10,24,4,3,0.8,0.6
2026-01-17T0800,2536A,103.7629,29.5844,乐山市,牛耳桥,细颗粒物(PM2.5),125,119,131,95,110,1,,3,3,27,43,4,6,0.9,1.1
2026-01-17T0800,2537A,103.7501,29.6002,乐山市,市第三水厂,细颗粒物(PM2.5),115,111,133,87,108,1,,1,1,34,48,5,8,1.0,1.1
2026-01-17T0800,2538A,103.7571,29.5664,乐山市,市监测站,细颗粒物(PM2.5),135,121,134,103,116,0,,1,1,25,37,5,7,1.0,0.9
2026-01-17T0800,3361A,103.7313,29.563,乐山市,理工大学,细颗粒物(PM2.5),113,119,137,85,114,0,,2,2,25,39,6,7,1.1,0.9
2026-01-17T0800,2599A,100.2497,26.8802,丽江市,丽江古城,,35,35,33,17,16,41,,50,50,25,13,10,10,0.6,0.5
2026-01-17T0800,2600A,100.2203,26.8906,丽江市,市中心,,22,22,23,10,11,39,,54,54,24,14,6,7,0.5,0.4
2026-01-17T0800,1267A,119.9141,28.4513,丽水市,监测站大楼,,45,32,59,31,41,3,,1,1,40,50,4,6,0.5,0.8
2026-01-17T0800,1268A,119.93,28.4589,丽水市,莲都小学,颗粒物(PM10),51,52,62,25,30,7,,14,14,52,51,/,/,/,/
2026-01-17T0800,1269A,119.8794,28.4232,丽水市,余庄前,,50,50,56,34,34,2,,1,1,24,31,4,5,0.4,0.5
2026-01-17T0800,1173A,119.1759,34.5885,连云港市,市环境监测站,,29,29,142,12,101,60,,54,54,11,25,9,13,0.3,0.8
2026-01-17T0800,3000A,119.3577,34.6971,连云港市,德源药业,,24,24,164,14,94,62,,59,59,14,36,5,7,0.7,1.1
2026-01-17T0800,3007A,119.178,34.8442,连云港市,新城一中,颗粒物(PM10),56,61,154,20,108,46,,48,48,18,42,10,13,1.0,1.3
2026-01-17T0800,3008A,119.3607,34.7519,连云港市,胡沟管理处,,25,22,118,17,82,68,,62,62,9,30,6,10,0.4,1
2026-01-17T0800,3009A,119.1478,34.5913,连云港市,矿山设计院,,34,34,148,9,96,62,,56,56,14,32,6,10,0.5,1
2026-01-17T0800,3434A,119.2414,34.6539,连云港市,工贸学校,,,16,134,12,100,,,52,52,6,29,9,13,0.8,1.2
2026-01-17T0800,3664A,119.4171,34.734,连云港市,连云街道,,24,24,136,10,91,62,,57,57,19,47,3,5,0.4,0.9
2026-01-17T0800,2573A,102.2629,27.8981,凉山彝族自治州,西昌市政府,,42,37,41,29,28,43,,53,53,13,16,6,9,0.6,0.7
2026-01-17T0800,2574A,102.2686,27.885,凉山彝族自治州,凉山州政府,,44,44,48,27,30,32,,42,42,22,22,7,11,0.6,0.7
2026-01-17T0800,4229A,102.2342,27.8859,凉山彝族自治州,凯乐南路30号,颗粒物(PM10),60,70,62,42,37,3,,9,9,48,41,6,9,0.7,0.8
2026-01-17T0800,2212A,123.1978,41.2036,辽阳市,宏伟区,,32,24,45,22,41,39,,53,53,18,19,11,9,0.3,0.5
2026-01-17T0800,2213A,123.1684,41.2497,辽阳市,新华园,,33,33,44,23,28,30,,46,46,32,25,14,12,0.4,0.3
2026-01-17T0800,2214A,123.2355,41.2663,辽阳市,滨河路,颗粒物(PM10),57,63,55,25,38,18,,35,35,35,31,8,9,0.3,0.3
2026-01-17T0800,4083A,123.153,41.2874,辽阳市,铁西路150号,,47,47,48,26,38,24,,40,40,38,35,28,12,1.1,0.9
2026-01-17T0800,2227A,125.1359,42.8845,辽源市,环保局,细颗粒物(PM2.5),83,82,88,61,61,16,,12,12,50,44,6,8,1.4,1.2
2026-01-17T0800,4085A,125.0998,42.9134,辽源市,安宁大街333号,细颗粒物(PM2.5),57,58,72,40,65,28,,17,17,33,29,5,7,1.1,0.9
2026-01-17T0800,1625A,115.9789,36.4372,聊城市,区政府,细颗粒物(PM2.5),52,51,99,36,51,36,,40,40,32,29,12,13,0.8,0.9
2026-01-17T0800,3200A,115.9772,36.4986,聊城市,监控中心,细颗粒物(PM2.5),52,48,82,36,56,27,,38,38,34,24,8,8,0.9,0.9
2026-01-17T0800,3513A,116.0443,36.436,聊城市,九州社区,颗粒物(PM10),53,56,100,36,55,43,,46,46,11,13,3,4,0.5,0.7
2026-01-17T0800,4018A,116.0564,36.4609,聊城市,星美广场,颗粒物(PM10),53,56,104,31,53,32,,35,35,18,21,4,5,0.5,0.7
2026-01-17T0800,4113A,116.0091,36.4495,聊城市,利民路,颗粒物(PM10),79,108,94,32,54,29,,32,32,32,28,9,10,0.7,0.9
2026-01-17T0800,2632A,94.3683,29.6373,林芝市,林芝监测站,,17,,18,6,10,54,,54,54,4,15,3,4,0.3,0.5
2026-01-17T0800,2633A,94.3616,29.6634,林芝市,林芝人民医院,,16,10,20,8,12,51,,51,51,7,12,1,2,0.3,0.4
2026-01-17T0800,2603A,100.0779,23.8981,临沧市,市环保局,,49,,36,34,41,20,,30,30,12,11,5,5,0.6,0.6
2026-01-17T0800,2604A,100.0894,23.882,临沧市,市气象局,,28,23,39,19,27,21,,30,30,11,12,5,5,0.4,0.4
2026-01-17T0800,1733A,111.5552,36.0791,临汾市,临钢医院,颗粒物(PM10),96,142,146,61,60,22,,13,13,35,40,7,10,1.1,1.4
2026-01-17T0800,1734A,111.4984,36.0734,临汾市,技工学校,颗粒物(PM10),97,144,157,63,64,26,,13,13,34,44,8,12,0.8,1.2
2026-01-17T0800,1736A,111.5017,36.0857,临汾市,市委,颗粒物(PM10),91,132,151,54,58,28,,16,16,36,45,11,14,1.1,1.4
2026-01-17T0800,3018A,111.5048,36.1015,临汾市,唐尧大酒店,颗粒物(PM10),90,129,145,58,61,23,,13,13,40,49,8,9,1.2,1.2
2026-01-17T0800,4244A,111.4879,36.053,临汾市,启星学校,细颗粒物(PM2.5),94,124,143,70,65,37,,13,13,33,54,7,13,1.0,1.4
2026-01-17T0800,4271A,103.2464,35.6123,临夏回族自治州,滨河东路1号,颗粒物(PM10),85,120,182,47,68,0,,2,2,35,39,10,11,1.8,1.4
2026-01-17T0800,4310A,103.207136,35.599807,临夏回族自治州,新华街21号,颗粒物(PM10),80,109,146,54,67,9,,4,4,44,39,13,13,2.5,1.6
2026-01-17T0800,1618A,118.3429,35.0532,临沂市,沂河小区,,46,41,149,32,113,40,,48,48,25,34,10,14,0.5,0.9
2026-01-17T0800,1619A,118.2962,35.0568,临沂市,鲁南制药厂,,35,31,148,24,102,43,,50,50,18,30,10,14,0.5,0.9
2026-01-17T0800,1620A,118.2793,34.9976,临沂市,新光毛纺厂,,36,31,142,25,104,41,,49,49,32,39,9,13,0.6,1
2026-01-17T0800,1621A,118.3955,35.0889,临沂市,河东保险公司,,41,41,148,26,94,33,,45,45,24,34,8,12,0.6,0.9
2026-01-17T0800,3370A,118.3563,35.0215,临沂市,十里堡居委,,36,36,149,17,88,37,,49,49,37,39,10,13,0.6,0.9
2026-01-17T0800,3496A,118.359,35.1067,临沂市,南坊新区,,34,34,139,19,96,46,,52,52,20,36,9,12,0.5,1
2026-01-17T0800,3860A,118.3915,35.0297,临沂市,皇山花园小区,,34,34,159,21,93,34,,44,44,31,40,12,15,0.7,1.1
2026-01-17T0800,1870A,109.4854,24.3898,柳州市,柳东小学,细颗粒物(PM2.5),190,153,111,143,95,24,,42,42,28,29,10,18,1.4,0.9
2026-01-17T0800,1871A,109.4109,24.3304,柳州市,环保监测站,细颗粒物(PM2.5),246,244,148,196,116,4,,5,5,40,41,12,9,1.8,1.4
2026-01-17T0800,1872A,109.3886,24.3408,柳州市,河西水厂,细颗粒物(PM2.5),283,297,185,233,122,3,,4,4,41,43,19,13,1.7,1.3
2026-01-17T0800,1873A,109.4263,24.2951,柳州市,市四中,细颗粒物(PM2.5),251,330,156,201,108,10,,8,8,40,45,15,13,1.5,1.4
2026-01-17T0800,1874A,109.396,24.3658,柳州市,市九中,细颗粒物(PM2.5),267,255,169,217,124,8,,10,10,40,40,20,16,1.8,1.4
2026-01-17T0800,1875A,109.4912,24.3164,柳州市,古亭山,细颗粒物(PM2.5),109,92,98,82,70,0,,0,0,30,40,11,13,0.9,0.9
2026-01-17T0800,3402A,109.5422,24.3994,柳州市,市二中,细颗粒物(PM2.5),166,130,107,126,82,8,,11,11,24,34,8,16,1.0,0.9
2026-01-17T0800,2307A,116.5078,31.7369,六安市,监测大楼,细颗粒物(PM2.5),195,192,126,146,92,22,,20,20,32,33,3,5,0.9,0.6
2026-01-17T0800,2308A,116.4738,31.7642,六安市,皖西学院,细颗粒物(PM2.5),175,184,139,132,95,16,,20,20,34,32,4,6,0.8,0.7
2026-01-17T0800,2309A,116.4997,31.7904,六安市,朝阳厂,细颗粒物(PM2.5),165,189,138,125,94,4,,16,16,40,37,5,7,0.9,0.8
2026-01-17T0800,2310A,116.5566,31.7885,六安市,开发区,细颗粒物(PM2.5),188,204,141,141,89,24,,20,20,37,43,4,6,0.9,0.7
2026-01-17T0800,2577A,104.8293,26.592,六盘水市,黄土坡,细颗粒物(PM2.5),110,105,100,83,81,18,,23,23,25,27,10,10,1.2,1.2
2026-01-17T0800,2579A,104.8481,26.5898,六盘水市,民中,细颗粒物(PM2.5),128,101,104,97,92,10,,24,24,45,37,15,11,1.2,1.4
2026-01-17T0800,2580A,104.9541,26.5506,六盘水市,双水,细颗粒物(PM2.5),130,127,110,99,86,26,,34,34,19,21,5,5,0.9,0.8
2026-01-17T0800,4151A,104.8899,26.5685,六盘水市,钟山大道中段564号,细颗粒物(PM2.5),145,165,153,111,100,11,,15,15,28,31,14,11,1.3,1.7
2026-01-17T0800,2336A,117.022,25.1031,龙岩市,龙岩市监测站,细颗粒物(PM2.5),64,56,57,46,39,16,,21,21,41,45,13,21,0.8,0.8
2026-01-17T0800,2337A,117.0257,25.0662,龙岩市,闽西职业技术学院,颗粒物(PM10),60,70,57,36,32,17,,33,33,40,30,16,13,0.6,0.7
2026-01-17T0800,2338A,117.0195,25.0306,龙岩市,龙岩学院,细颗粒物(PM2.5),52,43,46,36,32,31,,45,45,21,19,8,10,/,/
2026-01-17T0800,2885A,104.9344,33.3827,陇南市,滨江中学,颗粒物(PM10),66,81,118,31,52,8,,4,4,39,52,14,19,1.1,2.7
2026-01-17T0800,3247A,104.9551,33.3709,陇南市,市总工会,颗粒物(PM10),58,66,86,31,41,16,,16,16,32,39,10,12,0.7,1
2026-01-17T0800,2488A,111.9984,27.7346,娄底市,市监测站,细颗粒物(PM2.5),107,90,118,80,88,29,,53,53,37,42,10,17,1.5,1.1
2026-01-17T0800,2491A,111.9888,27.7035,娄底市,市政府,细颗粒物(PM2.5),114,98,123,86,99,13,,26,26,25,40,6,12,1.0,1
2026-01-17T0800,4127A,111.9812,27.7591,娄底市,涟钢职大,细颗粒物(PM2.5),140,117,133,107,89,24,,34,34,15,30,4,11,3.7,1.1
2026-01-17T0800,4128A,112.0303,27.7457,娄底市,娄底体校,细颗粒物(PM2.5),120,94,119,91,99,10,,26,26,17,25,2,5,0.9,1
2026-01-17T0800,1894A,105.4427,28.9063,泸州市,小市上码头,颗粒物(PM10),86,121,164,55,122,10,,5,5,23,38,5,7,1.5,1.5
2026-01-17T0800,1895A,105.4241,28.8573,泸州市,兰田宪桥,细颗粒物(PM2.5),124,193,225,94,143,3,,7,7,16,20,8,8,1.6,1.5
2026-01-17T0800,1896A,105.4378,28.8833,泸州市,市环监站,细颗粒物(PM2.5),113,136,185,85,134,6,,6,6,26,39,9,9,1.3,1.4
2026-01-17T0800,4272A,105.3689,28.7783,泸州市,纳溪中医医院,细颗粒物(PM2.5),78,84,154,57,136,2,,3,3,12,21,7,8,1.2,1.4
2026-01-17T0800,2183A,111.1447,37.5212,吕梁市,环保局,颗粒物(PM10),83,115,108,34,32,3,,3,3,41,40,6,6,0.5,0.4
2026-01-17T0800,2185A,111.1285,37.5338,吕梁市,自来水公司,颗粒物(PM10),85,120,137,37,40,2,,2,2,38,35,14,9,0.6,0.6
2026-01-17T0800,2867A,111.1225,37.5093,吕梁市,马茂庄小学,颗粒物(PM10),80,109,126,31,35,1,,1,1,42,41,17,9,0.5,0.4
2026-01-17T0800,1812A,112.3934,34.6517,洛阳市,市委党校,颗粒物(PM10),63,75,134,42,66,52,,57,57,30,43,9,14,0.8,1
2026-01-17T0800,1815A,112.494,34.6883,洛阳市,河南林校,细颗粒物(PM2.5),79,99,144,58,80,37,,46,46,34,41,10,14,0.8,0.9
2026-01-17T0800,1816A,112.3843,34.623,洛阳市,开发区管委会,颗粒物(PM10),69,87,149,49,77,51,,56,56,25,34,9,15,0.8,1
2026-01-17T0800,1817A,112.4263,34.6249,洛阳市,市委新办公区,细颗粒物(PM2.5),70,88,141,51,73,46,,56,56,31,38,8,13,0.6,0.7
2026-01-17T0800,3340A,112.6005,34.6323,洛阳市,伊滨,细颗粒物(PM2.5),97,128,152,72,85,22,,44,44,36,33,6,10,0.6,0.7
2026-01-17T0800,3341A,112.495,34.6338,洛阳市,中移产业园,细颗粒物(PM2.5),74,85,140,54,78,30,,47,47,34,37,10,14,0.7,0.8
2026-01-17T0800,3593A,112.5736,34.8993,洛阳市,吉利监测站,细颗粒物(PM2.5),75,94,147,55,85,52,,52,52,24,39,9,12,0.9,1
2026-01-17T0800,3635A,112.3678,34.6623,洛阳市,河科大西苑校区,颗粒物(PM10),72,93,147,43,65,54,,59,59,29,39,9,13,0.9,1
2026-01-17T0800,3636A,112.4387,34.678,洛阳市,英才小学,细颗粒物(PM2.5),84,101,151,62,84,44,,49,49,32,43,10,14,0.7,0.9
2026-01-17T0800,4214A,112.460027,34.694929,洛阳市,春都路1号院,颗粒物(PM10),80,109,167,48,71,42,,50,50,23,33,8,11,0.9,1.1
2026-01-17T0800,2399A,114.051,33.5721,漯河市,三五一五工厂,细颗粒物(PM2.5),93,93,161,69,98,27,,35,35,19,29,7,7,0.7,0.8
2026-01-17T0800,2400A,114.0055,33.5698,漯河市,漯河大学,细颗粒物(PM2.5),85,94,158,63,93,26,,34,34,15,23,5,6,0.7,0.8
2026-01-17T0800,2401A,114.0134,33.5826,漯河市,市水利局,细颗粒物(PM2.5),94,92,170,70,98,27,,33,33,18,26,4,5,0.7,0.9
2026-01-17T0800,2402A,114.0261,33.5697,漯河市,市广电局,细颗粒物(PM2.5),85,100,162,63,93,26,,34,34,19,25,6,7,0.7,0.8
2026-01-17T0800,3478A,113.9691,33.568,漯河市,市图书馆,细颗粒物(PM2.5),89,110,179,66,98,26,,33,33,18,25,4,4,0.9,0.9
2026-01-17T0800,4250A,114.089259,33.588274,漯河市,韶山路11号,细颗粒物(PM2.5),89,96,165,66,96,21,,27,27,16,25,6,7,0.9,0.9
2026-01-17T0800,1798A,118.5084,31.6838,马鞍山市,湖东路四小,细颗粒物(PM2.5),163,191,158,124,102,88,,75,75,16,52,2,7,1.0,1.2
2026-01-17T0800,1799A,118.5019,31.6449,马鞍山市,开发区,细颗粒物(PM2.5),166,181,162,126,119,91,,76,76,17,57,3,8,0.9,1
2026-01-17T0800,3633A,118.4914,31.681,马鞍山市,雨山,细颗粒物(PM2.5),159,184,155,121,106,91,,77,77,18,55,5,11,1.1,1.2
2026-01-17T0800,4191A,118.527362,31.722269,马鞍山市,慈湖高新区,细颗粒物(PM2.5),166,175,160,126,115,89,,80,80,15,56,3,9,0.9,1
2026-01-17T0800,1686A,111.0285,21.469,茂名市,电白南海,细颗粒物(PM2.5),85,88,65,63,35,41,,66,66,43,22,14,10,0.9,0.7
2026-01-17T0800,1687A,110.9294,21.6533,茂名市,茂石化七小,细颗粒物(PM2.5),83,105,81,61,44,65,,91,91,42,29,19,12,0.6,0.5
2026-01-17T0800,1688A,110.9108,21.6688,茂名市,健康路,细颗粒物(PM2.5),92,105,73,68,46,62,,112,112,48,28,25,20,1.0,0.8
2026-01-17T0800,1689A,110.8592,21.6826,茂名市,高岭,细颗粒物(PM2.5),117,175,102,88,49,12,,73,73,60,33,23,17,/,/
2026-01-17T0800,3450A,111.0101,21.5165,茂名市,电白水东,细颗粒物(PM2.5),73,90,59,53,34,54,,105,105,47,17,16,12,/,/
2026-01-17T0800,2540A,103.8414,30.0871,眉山市,气象局,细颗粒物(PM2.5),132,,139,100,114,4,,5,5,31,51,14,18,1.0,1.1
2026-01-17T0800,3148A,103.829,30.0563,眉山市,区人社局,细颗粒物(PM2.5),153,121,141,117,120,1,,1,1,42,55,11,14,1.0,1.3
2026-01-17T0800,4148A,103.8836,30.0695,眉山市,眉职院,细颗粒物(PM2.5),117,134,133,88,93,1,,1,1,30,42,1,8,1.0,1
2026-01-17T0800,1690A,116.1248,24.3307,梅州市,梅江月梅,细颗粒物(PM2.5),52,50,55,36,35,14,,9,9,38,39,/,/,/,/
2026-01-17T0800,1691A,116.0798,24.2719,梅州市,梅县新城,细颗粒物(PM2.5),58,52,66,41,45,10,,12,12,38,47,7,9,0.7,0.8
2026-01-17T0800,3315A,116.1234,24.2994,梅州市,梅龙,,48,48,58,33,35,29,,11,11,26,38,13,10,0.8,0.9
2026-01-17T0800,1878A,104.7775,31.4741,绵阳市,富乐山,细颗粒物(PM2.5),84,83,84,62,60,9,,9,9,38,44,8,8,0.5,0.6
2026-01-17T0800,1880A,104.6698,31.4668,绵阳市,高新区自来水公司,细颗粒物(PM2.5),92,104,101,68,64,0,,0,0,32,49,8,9,1.0,0.9
2026-01-17T0800,3491A,104.6899,31.5324,绵阳市,西科大附属小学,颗粒物(PM10),74,98,106,51,66,4,,6,6,44,57,8,9,1.0,0.8
2026-01-17T0800,3492A,104.5647,31.5343,绵阳市,安州区旅游局,细颗粒物(PM2.5),70,79,97,51,68,5,,6,6,29,45,10,13,0.6,0.8
2026-01-17T0800,4146A,104.7092,31.4972,绵阳市,科技城新区公安局,颗粒物(PM10),87,123,98,62,58,4,,8,8,50,57,9,9,1.0,0.9
2026-01-17T0800,4226A,104.765114,31.453094,绵阳市,绵阳市气象局,细颗粒物(PM2.5),92,93,97,68,64,0,,0,0,39,56,13,8,0.8,0.9
2026-01-17T0800,1784A,129.61,44.561,牡丹江市,环保大楼,,48,48,31,29,23,46,,50,50,22,15,7,5,0.4,0.3
2026-01-17T0800,1787A,129.6364,44.6075,牡丹江市,机车工厂,,48,48,39,32,29,37,,45,45,24,15,4,4,0.5,0.5
2026-01-17T0800,1788A,129.6386,44.5462,牡丹江市,第一中学,,40,40,28,25,27,43,,44,44,18,15,6,6,0.5,0.4
2026-01-17T0800,4287A,129.5992,44.5964,牡丹江市,东晓云街98号,细颗粒物(PM2.5),59,57,40,42,35,32,,43,43,31,15,10,5,0.7,0.6
2026-01-17T0800,2531A,105.0703,29.61,内江市,市监测站,细颗粒物(PM2.5),125,,134,95,139,12,,12,12,17,31,7,7,1.2,1.2
2026-01-17T0800,2533A,105.0657,29.5807,内江市,内江二中,细颗粒物(PM2.5),124,105,161,94,132,3,,2,2,43,44,6,5,1.2,1.2
2026-01-17T0800,2534A,105.0407,29.5828,内江市,内江日报社,细颗粒物(PM2.5),80,79,131,59,127,2,,4,4,39,44,3,3,1.1,1.1
2026-01-17T0800,4147A,105.0433,29.6105,内江市,玉峰路西段888号,细颗粒物(PM2.5),127,,131,96,131,2,,2,2,21,38,3,2,1.2,1.2
2026-01-17T0800,2628A,92.0653,31.4846,那曲市,那曲监测站,,22,22,52,13,35,18,,11,11,23,32,6,9,0.9,1.6
2026-01-17T0800,4243A,92.0515,31.4787,那曲市,那曲市委宣传部,,35,32,29,24,19,9,,11,11,48,29,9,8,1.6,1.2
2026-01-17T0800,1291A,115.8887,28.7006,南昌市,省林业公司,细颗粒物(PM2.5),77,63,83,56,64,62,,58,58,21,45,7,9,1.3,1.3
2026-01-17T0800,1292A,115.813,28.7443,南昌市,林科所,细颗粒物(PM2.5),79,63,79,58,53,82,,90,90,10,40,11,14,0.5,0.5
2026-01-17T0800,1294A,115.8518,28.687,南昌市,建工学校,细颗粒物(PM2.5),85,89,103,63,67,74,,72,72,23,44,15,19,1.1,1.2
2026-01-17T0800,1295A,115.8926,28.6425,南昌市,象湖,细颗粒物(PM2.5),89,70,82,66,62,67,,74,74,18,35,12,16,0.7,0.9
2026-01-17T0800,3046A,115.9084,28.6062,南昌市,机电学校,细颗粒物(PM2.5),92,83,105,68,68,69,,72,72,20,38,5,12,0.8,0.9
2026-01-17T0800,3690A,115.9718,28.7032,南昌市,外国语学校,细颗粒物(PM2.5),84,86,77,62,68,57,,59,59,24,37,15,17,0.8,0.8
2026-01-17T0800,4106A,115.7923,28.6873,南昌市,工业二路,细颗粒物(PM2.5),90,118,86,67,69,68,,64,64,18,37,5,11,1.3,1.5
2026-01-17T0800,4192A,115.931587,28.686774,南昌市,南京东路235号,细颗粒物(PM2.5),79,73,94,58,71,62,,71,71,19,38,7,10,0.6,0.9
2026-01-17T0800,1906A,106.0791,30.8022,南充市,南充市委,细颗粒物(PM2.5),143,118,131,109,117,2,,2,2,30,52,4,5,1.3,1.3
2026-01-17T0800,1907A,106.1038,30.8215,南充市,南充炼油厂,细颗粒物(PM2.5),122,117,137,92,115,1,,5,5,23,40,5,6,1.2,1.2
2026-01-17T0800,4227A,106.108336,30.788436,南充市,梨树横街98号,细颗粒物(PM2.5),150,166,158,115,114,3,,6,6,31,40,5,6,1.1,1
2026-01-17T0800,4304A,106.1172,30.843,南充市,清泉寺北路188号,细颗粒物(PM2.5),112,107,114,84,102,5,,16,16,20,29,6,6,0.8,0.8
2026-01-17T0800,4305A,106.067,30.7616,南充市,同庆路1号,细颗粒物(PM2.5),125,118,130,95,112,0,,2,2,24,42,6,7,0.9,1.1
2026-01-17T0800,1151A,118.8033,32.1085,南京市,迈皋桥,细颗粒物(PM2.5),104,142,133,78,88,79,,89,89,15,48,3,7,0.5,0.9
2026-01-17T0800,1152A,118.7487,32.057,南京市,草场门,细颗粒物(PM2.5),104,146,141,78,90,55,,60,60,22,56,5,10,0.8,1
2026-01-17T0800,1154A,118.770105,32.004342,南京市,中华门,细颗粒物(PM2.5),125,158,136,95,92,71,,79,79,15,49,4,6,0.8,1
2026-01-17T0800,1155A,118.8059,32.0329,南京市,瑞金路,细颗粒物(PM2.5),125,166,154,95,101,74,,80,80,11,58,4,4,1.1,1.4
2026-01-17T0800,1156A,118.7946,32.0774,南京市,玄武湖,细颗粒物(PM2.5),123,153,140,93,94,67,,78,78,20,30,4,4,1.0,1.2
2026-01-17T0800,1157A,118.6415,32.0964,南京市,浦口,细颗粒物(PM2.5),135,169,149,103,94,66,,75,75,19,35,7,11,1.3,1.4
2026-01-17T0800,1158A,118.730129,32.000956,南京市,奥体中心,细颗粒物(PM2.5),132,162,144,100,96,88,,91,91,14,54,6,11,0.9,1.1
2026-01-17T0800,1159A,118.9072,32.1047,南京市,仙林大学城,细颗粒物(PM2.5),113,163,136,85,93,73,,82,82,16,45,6,10,1.0,1.1
2026-01-17T0800,3422A,118.8443,31.919,南京市,江宁彩虹桥,细颗粒物(PM2.5),119,146,143,90,102,92,,97,97,12,53,3,6,0.9,1
2026-01-17T0800,3427A,118.8497,32.3599,南京市,六合雄州,细颗粒物(PM2.5),102,140,156,76,107,68,,78,78,14,38,4,8,0.9,1
2026-01-17T0800,4086A,118.7641,32.0841,南京市,新模范马路66号,细颗粒物(PM2.5),124,166,150,94,102,104,,115,115,2,45,4,4,1.2,1.3
2026-01-17T0800,4249A,118.8707617,31.34017673,南京市,汶溪路181号,细颗粒物(PM2.5),180,164,125,136,112,113,,87,87,19,43,4,9,1.2,1.2
2026-01-17T0800,4312A,119.019,31.6512,南京市,中山西路1号,细颗粒物(PM2.5),148,134,126,113,107,87,,89,89,18,39,4,5,1.0,1
2026-01-17T0800,1401A,108.3098,22.788,南宁市,二十一中,细颗粒物(PM2.5),84,86,67,62,49,17,,31,31,32,21,4,4,0.9,0.8
2026-01-17T0800,1402A,108.3135,22.8529,南宁市,北湖,细颗粒物(PM2.5),84,85,80,62,57,3,,23,23,57,31,4,4,0.9,0.9
2026-01-17T0800,1403A,108.3205,22.8222,南宁市,市监测站,细颗粒物(PM2.5),85,92,71,63,54,12,,32,32,51,27,7,7,1.0,0.9
2026-01-17T0800,1404A,108.3828,22.8038,南宁市,大自然花园,细颗粒物(PM2.5),92,92,76,68,54,12,,23,23,42,26,6,6,1.0,0.9
2026-01-17T0800,1406A,108.2397,22.8462,南宁市,区农职院,细颗粒物(PM2.5),77,92,81,56,52,12,,17,17,45,35,12,9,0.9,1
2026-01-17T0800,1407A,108.3285,22.7356,南宁市,英华嘉园,细颗粒物(PM2.5),82,77,71,60,53,25,,36,36,30,24,4,5,0.8,0.8
2026-01-17T0800,3401A,108.4829,22.762,南宁市,红星社区,细颗粒物(PM2.5),97,81,77,72,56,1,,8,8,48,30,4,4,0.8,0.8
2026-01-17T0800,4132A,108.2927,23.1477,南宁市,起凤路9号,细颗粒物(PM2.5),97,83,78,72,62,19,,34,34,24,20,2,3,0.7,0.8
2026-01-17T0800,4221A,108.2177,22.7774,南宁市,乐贤路16号,细颗粒物(PM2.5),74,96,76,54,50,0,,14,14,48,34,4,5,0.9,0.9
2026-01-17T0800,2332A,118.1682,26.6371,南平市,南平市监测站,细颗粒物(PM2.5),58,55,57,41,36,11,,10,10,27,31,9,7,0.5,0.6
2026-01-17T0800,2334A,118.1757,26.6276,南平市,南平七中,细颗粒物(PM2.5),54,39,44,38,34,7,,8,8,28,32,4,5,0.7,0.7
2026-01-17T0800,1168A,120.9056,31.9669,南通市,狼山街道,细颗粒物(PM2.5),102,137,135,76,109,86,,120,120,17,51,2,4,0.6,0.8
2026-01-17T0800,1170A,120.8635,32.0231,南通市,城中,细颗粒物(PM2.5),102,143,154,76,112,79,,115,115,19,52,2,4,0.9,1.1
2026-01-17T0800,1171A,120.9376,31.9301,南通市,星湖花园,细颗粒物(PM2.5),112,157,144,84,112,98,,130,130,21,57,4,6,0.7,0.9
2026-01-17T0800,1172A,120.8053,32.046,南通市,紫琅学院,颗粒物(PM10),99,148,165,72,119,84,,125,125,18,55,3,5,0.7,0.9
2026-01-17T0800,3291A,121.0631,32.0644,南通市,通州监测站,细颗粒物(PM2.5),100,136,131,75,108,94,,125,125,19,36,3,5,1.0,1.2
2026-01-17T0800,3432A,120.9348,31.9874,南通市,环境教育馆,细颗粒物(PM2.5),115,146,139,87,115,86,,122,122,16,57,5,6,0.8,1
2026-01-17T0800,4091A,120.8692,31.9885,南通市,洪江路,细颗粒物(PM2.5),103,124,134,77,123,79,,111,111,15,44,2,5,0.9,1.1
2026-01-17T0800,2404A,112.5338,33.0086,南阳市,瓦房庄,细颗粒物(PM2.5),103,111,151,77,99,40,,46,46,17,24,6,9,0.8,0.9
2026-01-17T0800,2405A,112.5002,32.9734,南阳市,汉画馆,细颗粒物(PM2.5),94,119,166,70,93,43,,50,50,19,29,6,8,0.8,0.9
2026-01-17T0800,2406A,112.5778,33.0144,南阳市,气象站,"颗粒物(PM10),细颗粒物(PM2.5)",85,120,179,63,89,38,,45,45,22,26,6,7,0.8,0.9
2026-01-17T0800,2407A,112.548,32.9687,南阳市,理工学院,细颗粒物(PM2.5),85,110,162,63,81,35,,42,42,27,31,5,7,0.8,0.9
2026-01-17T0800,4008A,112.5233,32.9921,南阳市,卧龙区政府,细颗粒物(PM2.5),94,131,176,70,92,40,,47,47,25,33,6,8,0.7,0.8
2026-01-17T0800,1234A,121.8352,29.9111,宁波市,区环保大楼,颗粒物(PM10),67,84,102,46,60,51,,20,20,66,89,5,9,0.7,0.9
2026-01-17T0800,1235A,121.5595,29.8208,宁波市,万里学院,细颗粒物(PM2.5),97,103,103,72,71,85,,24,24,22,55,13,7,0.6,0.7
2026-01-17T0800,1236A,121.713,29.9564,宁波市,龙赛医院,细颗粒物(PM2.5),73,57,115,53,82,94,,40,40,18,87,3,9,0.8,1
2026-01-17T0800,1240A,121.5855,29.8635,宁波市,太古小学,"颗粒物(PM10),细颗粒物(PM2.5)",69,87,97,50,66,93,,24,24,18,50,18,6,0.7,0.7
2026-01-17T0800,1241A,121.5239,29.8673,宁波市,市环境监测中心,细颗粒物(PM2.5),90,79,92,67,69,84,,20,20,22,60,6,9,0.8,0.8
2026-01-17T0800,2871A,121.6156,29.9015,宁波市,万里国际学校,细颗粒物(PM2.5),74,96,105,54,66,90,,29,29,32,70,9,7,0.6,0.7
2026-01-17T0800,3710A,121.5593,29.8976,宁波市,白沙活动中心,颗粒物(PM10),79,107,116,45,72,88,,24,24,21,71,4,7,0.8,1
2026-01-17T0800,4095A,121.8962,29.7529,宁波市,中科路88号,细颗粒物(PM2.5),63,60,90,45,64,89,,46,46,27,49,6,7,0.4,0.5
2026-01-17T0800,2341A,119.5387,26.6611,宁德市,宁德市监测站,,32,32,34,22,22,42,,48,48,26,25,3,4,0.8,0.7
2026-01-17T0800,3209A,119.5231,26.6562,宁德市,宁德一中,,33,26,33,23,24,46,,56,56,22,19,6,6,0.7,0.6
2026-01-17T0800,2618A,98.859,25.8541,怒江傈僳族自治州,州监测站,,26,26,32,16,19,37,,41,41,8,11,5,5,0.4,0.4
2026-01-17T0800,2619A,98.8607,25.8168,怒江傈僳族自治州,泸水一中,,22,17,30,15,21,20,,24,24,13,19,6,6,0.3,0.5
2026-01-17T0800,1888A,101.6891,26.571,攀枝花市,弄弄坪,颗粒物(PM10),53,55,58,34,37,16,,31,31,30,27,8,19,1.1,1.3
2026-01-17T0800,1889A,101.577,26.5914,攀枝花市,河门口,颗粒物(PM10),51,52,56,29,31,17,,18,18,24,22,12,19,1.3,1.1
2026-01-17T0800,1891A,101.7365,26.4986,攀枝花市,仁和,,50,50,48,35,30,14,,26,26,25,21,7,12,1.0,1
2026-01-17T0800,2835A,101.7222,26.567,攀枝花市,四十中小,颗粒物(PM10),59,68,66,40,40,3,,5,5,39,41,11,17,1.1,1.4
2026-01-17T0800,1604A,122.0303,41.1489,盘锦市,开发区,,33,33,35,19,20,41,,49,49,15,9,29,5,0.4,0.7
2026-01-17T0800,1605A,122.0486,41.0883,盘锦市,兴隆台,,18,18,26,11,15,41,,51,51,23,15,6,6,0.6,0.5
2026-01-17T0800,1606A,121.8297,41.1026,盘锦市,新生街道,,20,14,23,14,13,36,,32,32,24,19,7,5,0.7,0.6
2026-01-17T0800,1832A,113.3257,33.7423,平顶山市,新华旅馆,颗粒物(PM10),77,103,181,49,88,37,,43,43,27,36,6,7,0.5,0.7
2026-01-17T0800,1833A,113.2917,33.737,平顶山市,规划设计院,颗粒物(PM10),73,96,178,50,79,46,,51,51,16,25,7,8,0.6,0.8
2026-01-17T0800,1834A,113.182,33.7738,平顶山市,平顶山工学院,颗粒物(PM10),69,88,164,48,83,50,,55,55,19,27,8,9,0.5,0.7
2026-01-17T0800,3594A,112.8736,33.9068,平顶山市,石龙区,颗粒物(PM10),91,131,187,59,90,47,,35,35,14,28,8,9,0.9,0.8
2026-01-17T0800,4116A,113.284,33.7139,平顶山市,姚电大道23号,颗粒物(PM10),78,106,193,52,89,41,,47,47,24,31,8,9,0.7,0.8
2026-01-17T0800,2656A,106.6633,35.5338,平凉市,聚贤嘉苑,颗粒物(PM10),77,103,82,42,29,22,,15,15,43,33,13,14,0.7,0.6
2026-01-17T0800,2657A,106.7021,35.5307,平凉市,博物馆,颗粒物(PM10),70,90,86,38,33,8,,8,8,57,40,13,14,0.8,0.8
2026-01-17T0800,2348A,113.8384,27.6436,萍乡市,中医院,细颗粒物(PM2.5),78,76,93,57,64,66,,75,75,22,35,7,11,1.2,1.4
2026-01-17T0800,2350A,113.8677,27.6438,萍乡市,市环保局,细颗粒物(PM2.5),78,,85,57,65,60,,74,74,20,29,18,22,0.9,1
2026-01-17T0800,2351A,113.8663,27.6202,萍乡市,安源区政府,细颗粒物(PM2.5),112,,98,84,92,42,,55,55,28,31,13,18,1.3,1.4
2026-01-17T0800,4107A,113.8686,27.6668,萍乡市,联洪村委会,细颗粒物(PM2.5),80,76,89,59,64,50,,66,66,18,24,8,5,0.8,0.9
2026-01-17T0800,2319A,119.0142,25.4324,莆田市,荔城区仓后路,,45,45,61,29,33,35,,41,41,26,32,/,/,/,/
2026-01-17T0800,2320A,119.0016,25.4553,莆田市,莆田市监测站,,39,34,38,27,25,39,,55,55,19,14,2,4,0.7,0.7
2026-01-17T0800,2321A,119.112,25.4561,莆田市,涵江区六中,细颗粒物(PM2.5),55,55,66,39,35,12,,10,10,42,49,/,/,0.8,0.8
2026-01-17T0800,2322A,119.1014,25.3215,莆田市,秀屿区政府,细颗粒物(PM2.5),72,56,47,52,31,29,,48,48,48,22,4,5,1.0,0.8
2026-01-17T0800,2392A,115.0312,35.7636,濮阳市,环保局,,,53,100,38,57,30,,40,40,24,22,,7,0.1,0.4
2026-01-17T0800,3021A,115,35.7667,濮阳市,濮水河管理处,颗粒物(PM10),58,65,109,39,58,28,,41,41,32,24,5,5,0.8,0.8
2026-01-17T0800,4118A,115.0552,35.7816,濮阳市,中原东路68号,颗粒物(PM10),57,63,115,37,58,27,,38,38,27,24,4,4,0.3,0.4
2026-01-17T0800,4216A,115.0923632,35.76857718,濮阳市,任丘路479号,细颗粒物(PM2.5),63,68,113,45,61,27,,38,38,24,23,5,5,0.6,0.7
2026-01-17T0800,2601A,100.9801,22.7634,普洱市,市环保局,,43,43,56,17,22,24,,29,29,10,11,5,5,0.3,0.4
2026-01-17T0800,2602A,100.9763,22.8237,普洱市,普洱第二中学,,42,31,48,29,22,10,,13,13,18,17,5,5,0.2,0.3
2026-01-17T0800,3345A,131.0413,45.7795,七台河市,中波台,细颗粒物(PM2.5),58,48,35,41,27,39,,42,42,26,17,9,14,0.6,0.5
2026-01-17T0800,3637A,131.0136,45.7688,七台河市,人民广场,,49,39,43,34,34,35,,42,42,33,22,6,11,0.6,0.5
2026-01-17T0800,3684A,130.8639,45.8144,七台河市,新建矿广场,细颗粒物(PM2.5),55,48,29,39,25,35,,44,44,23,12,8,7,0.4,0.4
2026-01-17T0800,1779A,123.9307,47.3641,齐齐哈尔市,安居小区,细颗粒物(PM2.5),59,,29,42,35,47,,54,54,16,13,10,7,0.5,0.4
2026-01-17T0800,1780A,123.9497,47.3389,齐齐哈尔市,中心广场,,16,16,18,7,10,45,,54,54,17,12,12,7,0.8,0.7
2026-01-17T0800,1781A,123.9483,47.3229,齐齐哈尔市,农牧车辆厂,,29,29,24,15,13,38,,54,54,20,9,12,6,0.5,0.3
2026-01-17T0800,1783A,123.9442,47.2994,齐齐哈尔市,市环境监测站,,29,29,27,19,18,35,,51,51,26,15,14,7,0.9,0.7
2026-01-17T0800,3662A,123.6341,47.2079,齐齐哈尔市,富区青少年活动中心,,35,35,30,19,17,51,,58,58,16,13,8,8,0.6,0.6
2026-01-17T0800,2591A,107.9765,26.5724,黔东南苗族侗族自治州,市环境监测站,细颗粒物(PM2.5),132,110,106,100,93,1,,4,4,26,34,6,8,0.9,0.9
2026-01-17T0800,2881A,107.8909,26.531,黔东南苗族侗族自治州,凯里学院,细颗粒物(PM2.5),109,95,97,82,74,3,,9,9,20,23,2,4,0.7,0.7
2026-01-17T0800,2593A,107.5223,26.2371,黔南布依族苗族自治州,小围寨,细颗粒物(PM2.5),117,95,88,88,76,9,,27,27,13,17,7,9,1.1,1.1
2026-01-17T0800,3538A,107.5175,26.2977,黔南布依族苗族自治州,沙坝,细颗粒物(PM2.5),104,92,98,78,76,7,,13,13,18,23,6,8,1.1,1.1
2026-01-17T0800,2589A,104.9022,25.0943,黔西南布依族苗族自治州,场坝街,细颗粒物(PM2.5),88,99,75,65,61,40,,48,48,18,17,80,37,0.7,0.7
2026-01-17T0800,2590A,104.8812,25.0994,黔西南布依族苗族自治州,坪东大道,细颗粒物(PM2.5),85,63,55,63,53,22,,42,42,35,21,14,9,0.9,0.9
2026-01-17T0800,2502A,108.6238,21.9667,钦州市,市环保站,细颗粒物(PM2.5),62,70,70,44,36,19,,27,27,39,32,4,3,0.6,0.5
2026-01-17T0800,2503A,108.655,21.9481,钦州市,沙埠小学,细颗粒物(PM2.5),67,57,75,48,39,5,,16,16,43,33,5,4,0.6,0.4
2026-01-17T0800,2504A,108.5989,21.7435,钦州市,港区一小,,48,38,69,33,30,39,,34,34,13,33,4,4,0.7,0.7
2026-01-17T0800,3404A,108.5959,21.9634,钦州市,北职校,细颗粒物(PM2.5),68,54,60,49,39,5,,19,19,41,30,8,8,0.9,0.8
2026-01-17T0800,1046A,119.5247,39.9346,秦皇岛市,建设大厦,,38,,40,26,31,36,,58,58,25,13,6,6,0.4,0.4
2026-01-17T0800,3132A,119.5979,39.938,秦皇岛市,文明里,,35,,44,24,22,37,,58,58,31,18,12,10,0.4,0.3
2026-01-17T0800,4066A,119.7458,39.9952,秦皇岛市,南园路157号,颗粒物(PM10),73,96,47,12,15,14,,44,44,52,21,10,8,0.5,0.4
2026-01-17T0800,4067A,119.5131,39.8858,秦皇岛市,翠岛大街1号,,28,28,44,6,16,44,,60,60,14,8,9,9,0.3,0.4
2026-01-17T0800,4198A,119.509013,39.825305,秦皇岛市,北戴河轮滑馆,,19,15,42,13,23,56,,64,64,13,11,6,7,0.2,0.3
2026-01-17T0800,1310A,120.404,36.0625,青岛市,市南区东部子站,,36,36,113,12,63,46,,60,60,21,22,8,9,0.5,0.8
2026-01-17T0800,1311A,120.362344,36.10282,青岛市,四方区子站,,41,41,117,22,68,47,,56,56,5,12,1,4,0.7,0.9
2026-01-17T0800,1312A,120.294373,36.054183,青岛市,市南区西部子站,,39,39,104,15,58,46,,53,53,20,27,8,9,0.8,1.1
2026-01-17T0800,1313A,120.4581,36.0858,青岛市,崂山区子站,,32,27,105,22,57,53,,61,61,17,25,9,10,0.3,0.7
2026-01-17T0800,1315A,120.3945,36.3083,青岛市,城阳区子站,,41,41,102,22,51,46,,61,61,27,27,6,7,0.9,1
2026-01-17T0800,3642A,120.3454,36.0735,青岛市,市北区南部,,31,31,123,17,60,42,,50,50,19,21,3,2,0.7,0.9
2026-01-17T0800,3643A,120.3897,36.18,青岛市,李沧区北部,,39,34,101,27,72,49,,58,58,15,22,8,9,0.7,0.9
2026-01-17T0800,4110A,120.5222,36.4089,青岛市,盟旺路653号,,40,40,112,26,63,40,,53,53,26,28,2,3,0.6,0.8
2026-01-17T0800,4290A,120.196923,35.954556,青岛市,珠江路669号,,35,29,105,24,70,35,,43,43,34,34,11,11,0.5,0.9
2026-01-17T0800,4291A,120.0424,35.8656,青岛市,黄岛区人民政府广场,,36,36,102,12,59,46,,58,58,27,34,6,8,0.7,1
2026-01-17T0800,1703A,113.0218,23.7086,清远市,凤城街办,细颗粒物(PM2.5),110,106,98,83,70,60,,52,52,46,54,/,/,/,/
2026-01-17T0800,3025A,113.0479,23.6343,清远市,技师学院,细颗粒物(PM2.5),105,127,113,79,65,4,,23,23,83,67,24,11,0.8,0.7
2026-01-17T0800,3318A,112.9898,23.7403,清远市,清新太和,细颗粒物(PM2.5),79,81,90,58,59,72,,87,87,38,43,3,4,0.7,0.7
2026-01-17T0800,3455A,113.076,23.72,清远市,清城东城,细颗粒物(PM2.5),97,105,85,72,53,38,,46,46,47,44,/,/,/,/
2026-01-17T0800,2661A,107.6325,35.7357,庆阳市,庆阳五中,颗粒物(PM10),65,79,71,34,27,76,,79,79,19,19,6,9,0.4,0.4
2026-01-17T0800,2662A,107.6361,35.7067,庆阳市,市环保局,颗粒物(PM10),67,83,68,36,26,78,,82,82,14,12,8,7,0.4,0.4
2026-01-17T0800,1916A,103.7897,25.5036,曲靖市,环境监测站,,44,44,36,22,15,6,,15,15,33,23,4,5,0.6,0.5
2026-01-17T0800,1917A,103.8013,25.5357,曲靖市,烟厂办公区,颗粒物(PM10),56,61,43,33,21,4,,22,22,43,29,16,8,0.9,0.5
2026-01-17T0800,3376A,103.7926,25.4651,曲靖市,南苑二区,,30,27,25,21,13,28,,38,38,11,12,4,5,0.4,0.3
2026-01-17T0800,3377A,103.7442,25.5259,曲靖市,曲靖师范学院,细颗粒物(PM2.5),62,61,37,44,22,1,,11,11,50,23,5,5,0.8,0.4
2026-01-17T0800,1264A,118.8694,28.94,衢州市,环保大楼,细颗粒物(PM2.5),103,101,96,77,66,2,,2,2,72,69,/,/,/,/
2026-01-17T0800,1266A,118.8622,28.9809,衢州市,衢州学院,细颗粒物(PM2.5),90,92,78,67,53,5,,8,8,59,63,6,7,0.7,0.6
2026-01-17T0800,4097A,118.9646,28.9832,衢州市,衢州三中,细颗粒物(PM2.5),99,104,96,74,61,0,,1,1,60,62,6,7,1.0,0.9
2026-01-17T0800,1611A,118.5818,24.9116,泉州市,涂山街,细颗粒物(PM2.5),67,69,74,48,44,26,,27,27,38,38,3,4,0.7,0.7
2026-01-17T0800,1612A,118.597,24.8976,泉州市,津头埔,细颗粒物(PM2.5),70,65,75,51,48,31,,25,25,36,45,5,6,0.7,0.7
2026-01-17T0800,1613A,118.6669,24.9422,泉州市,万安,细颗粒物(PM2.5),57,57,72,40,37,47,,31,31,25,41,4,5,0.7,0.7
2026-01-17T0800,4105A,118.6355,24.9148,泉州市,霞新路6号,细颗粒物(PM2.5),77,80,61,56,38,16,,22,22,44,46,/,/,0.7,0.7
2026-01-17T0800,2626A,88.8873,29.2723,日喀则市,日喀则监测站,,28,28,30,15,20,15,,27,27,16,19,9,15,0.5,0.6
2026-01-17T0800,3726A,88.8775,29.2425,日喀则市,林业技术推广中心,,23,23,27,11,16,28,,27,27,10,13,11,12,0.5,0.5
2026-01-17T0800,1659A,119.4711,35.421,日照市,监测站,,34,34,124,21,77,44,,50,50,20,36,6,9,0.6,1
2026-01-17T0800,1660A,119.523,35.4216,日照市,市政府广场,,36,36,115,22,72,52,,57,57,22,35,9,11,0.3,0.7
2026-01-17T0800,1661A,119.5511,35.4113,日照市,港务局,,46,39,126,32,84,50,,54,54,23,36,7,8,0.4,0.8
2026-01-17T0800,3507A,119.5326,35.4627,日照市,职业技术学院,,28,27,119,19,66,50,,54,54,22,38,6,8,0.6,1.1
2026-01-17T0800,3604A,119.3267,35.1043,日照市,岚山环保分局,细颗粒物(PM2.5),63,68,154,45,100,17,,29,29,49,46,50,36,4.6,3.1
2026-01-17T0800,1835A,111.1922,34.7752,三门峡市,市政府,细颗粒物(PM2.5),80,87,118,59,67,60,,67,67,17,34,11,14,0.7,0.8
2026-01-17T0800,1836A,111.1588,34.794,三门峡市,开发区,颗粒物(PM10),86,121,134,51,59,60,,64,64,19,33,8,10,0.6,0.7
2026-01-17T0800,3039A,111.1911,34.7829,三门峡市,三门峡市第一小学,细颗粒物(PM2.5),74,93,131,54,63,60,,64,64,17,33,12,16,0.6,0.7
2026-01-17T0800,3598A,111.1031,34.719,三门峡市,富达温泉假日酒店,细颗粒物(PM2.5),78,102,136,57,66,58,,65,65,22,34,9,14,0.6,0.8
2026-01-17T0800,2324A,117.621,26.2626,三明市,三钢,细颗粒物(PM2.5),75,,56,55,46,7,,14,14,36,39,6,10,1.8,1.3
2026-01-17T0800,2325A,117.6352,26.2714,三明市,三明二中,细颗粒物(PM2.5),55,54,52,39,40,7,,13,13,32,35,2,6,1.0,1.2
2026-01-17T0800,2326A,117.6028,26.2377,三明市,三元区政府,细颗粒物(PM2.5),60,55,65,43,44,12,,18,18,31,45,4,11,1.0,1.5
2026-01-17T0800,1877A,109.4962,18.2682,三亚市,河西子站,,32,26,37,22,19,43,,68,68,22,14,1,3,0.4,0.4
2026-01-17T0800,3540A,109.7348,18.3443,三亚市,君悦子站,,23,23,32,16,15,24,,33,33,18,12,5,5,0.4,0.4
2026-01-17T0800,4135A,109.1714,18.3739,三亚市,城东小学站,,32,24,35,22,19,22,,20,20,10,12,/,/,/,/
2026-01-17T0800,2624A,91.7592,29.234,山南市,山南监测站,,10,10,21,3,12,20,,31,31,4,13,4,5,0.4,0.5
2026-01-17T0800,2625A,91.7701,29.2436,山南市,山南人民医院,,13,13,18,8,10,36,,47,47,13,13,8,8,0.4,0.5
2026-01-17T0800,1674A,116.6795,23.3666,汕头市,金平子站,细颗粒物(PM2.5),89,81,59,66,35,13,,28,28,78,41,20,11,1.1,0.9
2026-01-17T0800,1675A,116.7248,23.3632,汕头市,龙湖子站,细颗粒物(PM2.5),64,68,55,46,30,33,,42,42,54,34,21,15,/,/
2026-01-17T0800,1676A,116.7257,23.2774,汕头市,濠江子站,细颗粒物(PM2.5),80,75,50,59,32,26,,40,40,64,32,21,12,/,/
2026-01-17T0800,1677A,116.7518,23.4712,汕头市,澄海子站,细颗粒物(PM2.5),70,64,64,51,37,52,,58,58,32,29,13,11,0.8,0.7
2026-01-17T0800,1678A,116.6088,23.2539,汕头市,潮阳子站,细颗粒物(PM2.5),62,67,52,44,30,41,,54,54,41,23,13,10,1.1,0.8
2026-01-17T0800,3444A,116.4539,23.2684,汕头市,潮南峡山,细颗粒物(PM2.5),127,127,67,96,44,24,,41,41,39,27,10,11,0.9,0.7
2026-01-17T0800,3624A,116.4069,23.2533,汕头市,潮南子站,细颗粒物(PM2.5),79,98,76,58,41,24,,40,40,45,29,13,10,/,/
2026-01-17T0800,1693A,115.3653,22.7751,汕尾市,市环保局,细颗粒物(PM2.5),53,46,40,37,26,77,,76,76,22,19,8,8,0.7,0.7
2026-01-17T0800,1695A,115.362,22.7926,汕尾市,新城中学,,48,42,40,33,25,50,,68,68,36,17,6,6,0.6,0.5
2026-01-17T0800,2645A,109.9155,33.8714,商洛市,监测站,颗粒物(PM10),70,89,86,36,39,26,,26,26,25,32,4,5,0.8,0.7
2026-01-17T0800,3045A,109.9647,33.8486,商洛市,商州区中学,颗粒物(PM10),63,76,93,34,33,7,,13,13,42,34,5,6,0.6,0.6
2026-01-17T0800,2408A,115.6701,34.4283,商丘市,环境监测站,颗粒物(PM10),63,75,147,43,93,34,,22,22,19,28,2,2,0.5,0.7
2026-01-17T0800,2409A,115.6458,34.4047,商丘市,粮食局,颗粒物(PM10),59,68,140,31,86,37,,23,23,13,23,3,3,0.6,0.8
2026-01-17T0800,3171A,115.6069,34.4465,商丘市,梁园区档案局,细颗粒物(PM2.5),65,73,140,47,88,30,,20,20,20,28,6,5,0.5,0.7
2026-01-17T0800,4119A,115.6701,34.3767,商丘市,北海东路185号,颗粒物(PM10),57,64,157,35,88,36,,23,23,14,23,2,2,0.6,0.8
2026-01-17T0800,4120A,115.6172,34.3704,商丘市,中山大街3号,颗粒物(PM10),60,69,160,40,92,39,,29,29,18,25,2,4,0.4,0.6
2026-01-17T0800,1141A,121.401,31.2382,上海市,普陀,细颗粒物(PM2.5),115,102,123,87,105,128,,104,104,18,54,5,8,0.9,1
2026-01-17T0800,1142A,121.4774,31.2043,上海市,十五厂,细颗粒物(PM2.5),104,107,130,78,102,127,,98,98,19,58,6,8,1.0,1.1
2026-01-17T0800,1143A,121.4673,31.3011,上海市,虹口,细颗粒物(PM2.5),113,114,136,85,100,112,,95,95,18,59,6,8,0.9,1
2026-01-17T0800,1147A,121.4253,31.226,上海市,静安监测站,细颗粒物(PM2.5),109,102,118,82,99,122,,102,102,24,46,7,8,0.9,0.9
2026-01-17T0800,1148A,121.7029,31.1905,上海市,浦东川沙,细颗粒物(PM2.5),100,100,111,75,70,97,,85,85,35,53,6,7,0.7,0.7
2026-01-17T0800,1149A,121.5339,31.229,上海市,浦东新区监测站,细颗粒物(PM2.5),103,103,121,77,100,120,,96,96,26,54,5,7,0.8,0.9
2026-01-17T0800,1150A,121.5776,31.2038,上海市,浦东张江,细颗粒物(PM2.5),114,98,121,86,94,106,,103,103,38,58,6,7,0.6,0.7
2026-01-17T0800,3265A,121.4242,31.3303,上海市,宝山庙行,细颗粒物(PM2.5),114,116,132,86,101,108,,99,99,22,53,7,8,0.6,0.7
2026-01-17T0800,3266A,121.8789,31.4662,上海市,崇明上实东滩,"颗粒物(PM10),细颗粒物(PM2.5)",70,90,81,51,57,117,,114,114,16,20,3,4,0.4,0.4
2026-01-17T0800,3268A,121.316,31.2839,上海市,嘉定南翔,细颗粒物(PM2.5),119,107,117,90,91,118,,95,95,20,64,3,6,0.7,0.9
2026-01-17T0800,3269A,121.3357,30.7455,上海市,金山新城,细颗粒物(PM2.5),109,,109,82,112,114,,76,76,18,47,7,9,0.8,0.9
2026-01-17T0800,3270A,121.4996,31.0741,上海市,闵行浦江,细颗粒物(PM2.5),100,90,125,75,98,118,,82,82,18,54,6,7,0.7,0.8
