timepoint,stationcode,longitude,latitude,area,positionname,primarypollutant,aqi,pm10,pm10_24h,pm2_5,pm2_5_24h,o3,o3_24h,o3_8h,o3_8h_24h,no2,no2_24h,so2,so2_24h,co,co_24h
2026-01-17T0100,2568A,102.2503,31.8896,阿坝藏族羌族自治州,马师校,,29,27,24,20,19,30,,,,16,15,4,4,0.5,0.6
2026-01-17T0100,3994A,102.2174,31.9016,阿坝藏族羌族自治州,马尔康中学西区,,21,21,19,12,16,36,,,,15,13,5,6,0.5,0.5
2026-01-17T0100,2695A,80.2899,41.1684,阿克苏地区,电视台,细颗粒物(PM2.5),179,225,148,135,74,3,,,,89,43,12,4,3.2,1.5
2026-01-17T0100,2696A,80.2592,41.1541,阿克苏地区,艺术中心,细颗粒物(PM2.5),214,262,134,164,79,13,,,,106,42,7,6,2.7,1
2026-01-17T0100,2205A,105.699,38.8409,阿拉善盟,蒙二幼,,38,38,51,8,18,84,,,,9,14,11,11,0.5,0.6
2026-01-17T0100,2206A,105.7198,38.8508,阿拉善盟,环保局新楼,,28,24,47,17,19,88,,,,3,9,9,10,0.5,0.6
2026-01-17T0100,2708A,88.1266,47.8515,阿勒泰地区,市站,,23,22,21,16,14,53,,,,21,24,3,5,0.6,0.5
2026-01-17T0100,4166A,88.1198,47.7931,阿勒泰地区,阿勒泰路33号,,29,24,27,20,18,56,,,,16,23,3,6,0.5,0.5
2026-01-17T0100,2630A,80.1171,32.4999,阿里地区,阿里监测站,,24,6,3,3,3,76,,,,2,6,6,7,0.4,0.4
2026-01-17T0100,3192A,80.0906,32.5029,阿里地区,阿里藏医院,,29,16,16,3,9,92,,,,1,9,9,14,0.4,0.6
2026-01-17T0100,2644A,109.0088,32.6974,安康市,汉滨区检察院,细颗粒物(PM2.5),68,76,76,49,50,18,,,,26,28,4,5,0.7,0.8
2026-01-17T0100,4054A,109.0324,32.6913,安康市,市邮政管理局,细颗粒物(PM2.5),83,92,95,61,61,3,,,,44,39,8,7,0.8,1.3
2026-01-17T0100,2291A,117.0806,30.5181,安庆市,环科院,细颗粒物(PM2.5),94,102,105,70,81,82,,,,20,48,8,9,0.5,0.8
2026-01-17T0100,2292A,117.0331,30.5118,安庆市,马山宾馆,细颗粒物(PM2.5),92,99,104,68,79,80,,,,24,52,7,10,0.7,1
2026-01-17T0100,2294A,116.9897,30.6146,安庆市,安庆大学,细颗粒物(PM2.5),92,85,95,68,69,91,,,,20,35,7,8,0.5,0.7
2026-01-17T0100,3173A,117.0598,30.5351,安庆市,市人大,细颗粒物(PM2.5),98,110,112,73,82,76,,,,28,62,9,12,0.5,0.9
2026-01-17T0100,3123A,105.9408,26.2431,安顺市,凤凰山,细颗粒物(PM2.5),145,120,77,111,68,73,,,,22,20,26,21,0.8,0.7
2026-01-17T0100,3124A,105.9443,26.2567,安顺市,金钟山,细颗粒物(PM2.5),149,,70,114,68,66,,,,15,14,23,18,0.8,0.6
2026-01-17T0100,3125A,105.8983,26.248,安顺市,娄家坡,细颗粒物(PM2.5),139,118,78,106,69,73,,,,18,15,24,16,1.0,0.8
2026-01-17T0100,1819A,114.3552,36.1017,安阳市,红庙街,细颗粒物(PM2.5),95,106,161,71,108,29,,,,37,45,3,3,0.8,1
2026-01-17T0100,1820A,114.361,36.0681,安阳市,银杏小区,细颗粒物(PM2.5),102,122,167,76,110,30,,,,32,43,5,5,0.6,1
2026-01-17T0100,3141A,114.3921,36.0879,安阳市,信访局,,,107,161,68,105,37,,,,,32,6,5,0.8,1
2026-01-17T0100,3669A,114.4706,36.0634,安阳市,左辅环卫站,细颗粒物(PM2.5),98,121,175,73,106,29,,,,55,41,4,5,0.7,0.8
2026-01-17T0100,4117A,114.2918,36.0769,安阳市,钢三路198号,细颗粒物(PM2.5),119,145,186,90,106,31,,,,33,41,4,5,0.9,1.1
2026-01-17T0100,1748A,123.0441,41.1201,鞍山市,深沟寺,,29,29,55,12,41,51,,,,14,34,10,11,0.8,1
2026-01-17T0100,1749A,123.011,41.0931,鞍山市,太阳城,,31,31,53,14,39,60,,,,14,32,12,16,0.7,1
2026-01-17T0100,1750A,123.0483,41.1445,鞍山市,太平,,28,28,61,13,41,48,,,,18,36,12,14,0.8,0.9
2026-01-17T0100,1751A,122.964,41.0968,鞍山市,铁西三道街,,37,37,60,16,40,44,,,,25,44,24,29,1.4,1.7
2026-01-17T0100,1753A,123.0219,41.0822,鞍山市,明达新区,,23,23,51,10,39,55,,,,14,29,12,15,0.4,0.7
2026-01-17T0100,4201A,122.944647,41.082639,鞍山市,兴盛南路290号,,33,33,68,10,46,56,,,,14,42,10,28,0.8,1.7
2026-01-17T0100,2195A,107.4206,40.7609,巴彦淖尔市,附二中,,42,42,38,20,19,32,,,,20,11,4,6,0.5,0.4
2026-01-17T0100,2196A,107.37,40.7372,巴彦淖尔市,市环保大楼,,42,42,35,12,14,57,,,,10,12,6,7,0.4,0.4
2026-01-17T0100,1956A,86.1476,41.7529,巴音郭楞蒙古自治州,孔雀公园,颗粒物(PM10),79,107,80,31,34,72,,,,8,23,9,9,0.4,0.5
2026-01-17T0100,1957A,86.1971,41.7166,巴音郭楞蒙古自治州,棉纺厂,颗粒物(PM10),89,127,91,24,31,64,,,,9,26,/,/,/,/
2026-01-17T0100,1958A,86.236,41.7172,巴音郭楞蒙古自治州,经济开发区,颗粒物(PM10),80,109,66,30,27,63,,,,11,13,6,6,0.5,0.5
2026-01-17T0100,3181A,106.776805,31.852614,巴中市,市五中,细颗粒物(PM2.5),112,119,98,84,71,5,,,,36,34,6,6,1.0,1
2026-01-17T0100,3183A,106.7419,31.8654,巴中市,圣泉水务公司,细颗粒物(PM2.5),97,106,75,72,58,0,,,,43,36,5,5,0.8,0.7
2026-01-17T0100,3616A,106.7617,31.8343,巴中市,市中心医院,细颗粒物(PM2.5),113,116,92,85,70,1,,,,39,38,7,7,1.1,1
2026-01-17T0100,2235A,122.7909,45.608,白城市,洮北区环保局,,35,35,57,6,48,63,,,,9,24,3,5,0.2,0.6
2026-01-17T0100,2236A,122.8741,45.5725,白城市,市环保局,,34,34,61,13,39,64,,,,5,25,3,7,0.3,0.6
2026-01-17T0100,2231A,126.4219,41.9172,白山市,喜丰,,32,32,52,20,30,45,,,,24,24,8,15,0.6,0.8
2026-01-17T0100,2232A,126.4082,41.9416,白山市,环保局,,45,34,37,31,36,40,,,,20,24,12,17,0.6,0.6
2026-01-17T0100,2647A,104.1727,36.5448,白银市,第三小学,颗粒物(PM10),92,134,124,56,45,20,,,,58,38,43,45,0.9,0.7
2026-01-17T0100,2648A,104.1467,36.5482,白银市,动力公司,颗粒物(PM10),82,114,116,47,41,18,,,,49,28,18,18,1.0,0.8
2026-01-17T0100,2512A,106.6102,23.901,百色市,市监测站,细颗粒物(PM2.5),90,96,73,67,53,21,,,,24,21,8,13,1.0,0.9
2026-01-17T0100,2513A,106.6524,23.8842,百色市,市中心血站,细颗粒物(PM2.5),118,126,102,89,74,5,,,,51,37,8,14,1.3,1.1
2026-01-17T0100,4133A,106.6273,23.8798,百色市,龙景西路,细颗粒物(PM2.5),115,165,101,87,65,15,,,,36,30,8,11,1.0,0.9
2026-01-17T0100,2270A,117.396,32.9389,蚌埠市,工人疗养院,细颗粒物(PM2.5),173,182,160,131,88,43,,,,26,39,4,10,0.9,0.9
2026-01-17T0100,2271A,117.3606,32.9428,蚌埠市,百货大楼,细颗粒物(PM2.5),162,174,145,123,85,40,,,,24,32,4,10,0.8,0.8
2026-01-17T0100,2273A,117.4183,32.8909,蚌埠市,蚌埠学院,细颗粒物(PM2.5),172,171,133,130,85,45,,,,30,33,4,10,0.9,0.8
2026-01-17T0100,2274A,117.3534,32.9672,蚌埠市,淮上区政府,细颗粒物(PM2.5),168,168,153,127,93,45,,,,24,43,1,6,0.8,0.7
2026-01-17T0100,2275A,117.3143,32.8977,蚌埠市,高新区,细颗粒物(PM2.5),179,173,148,135,94,42,,,,22,34,6,11,0.7,0.5
2026-01-17T0100,3715A,117.3091,32.9314,蚌埠市,蚌埠田家炳中学,细颗粒物(PM2.5),183,175,152,138,95,43,,,,25,38,4,10,0.9,0.8
2026-01-17T0100,1585A,109.8761,40.6533,包头市,市环境监测站,颗粒物(PM10),63,75,40,34,16,4,,,,62,28,11,9,1.2,0.6
2026-01-17T0100,1587A,109.9992,40.5843,包头市,包头八中,细颗粒物(PM2.5),59,64,40,42,23,6,,,,60,28,12,10,1.1,0.6
2026-01-17T0100,1589A,109.8641,40.6288,包头市,惠龙物流,颗粒物(PM10),55,59,32,31,17,8,,,,59,27,15,12,2.5,0.9
2026-01-17T0100,1590A,110.0376,40.5546,包头市,东河鸿龙湾,,42,42,34,26,15,3,,,,78,36,12,14,0.7,0.7
2026-01-17T0100,3283A,109.9154,40.5684,包头市,滨河大厦,,49,49,28,30,15,3,,,,62,25,20,10,0.9,0.7
2026-01-17T0100,3419A,109.9449,40.6259,包头市,包头市委党校,细颗粒物(PM2.5),69,75,42,50,20,1,,,,66,32,11,10,1.4,0.8
2026-01-17T0100,3683A,109.8332,40.6577,包头市,昆区政府,细颗粒物(PM2.5),64,66,40,46,22,3,,,,79,33,14,13,1.5,0.9
2026-01-17T0100,1931A,107.0802,34.3129,宝鸡市,竹园沟,颗粒物(PM10),59,68,75,28,26,34,,,,19,18,5,6,0.3,0.2
2026-01-17T0100,1933A,107.1429,34.3549,宝鸡市,监测站,颗粒物(PM10),68,86,91,41,36,18,,,,33,27,6,6,0.7,0.6
2026-01-17T0100,1934A,107.1172,34.3759,宝鸡市,技工学校,颗粒物(PM10),76,102,100,47,38,37,,,,20,22,4,6,0.8,0.7
2026-01-17T0100,1936A,107.2025,34.3518,宝鸡市,文理学院,颗粒物(PM10),84,118,90,58,44,25,,,,37,29,4,6,0.6,0.6
2026-01-17T0100,1937A,107.2396,34.3626,宝鸡市,三迪小学,细颗粒物(PM2.5),89,99,104,66,49,16,,,,46,38,4,5,0.6,0.5
2026-01-17T0100,4155A,107.1721,34.3558,宝鸡市,滨河北路,颗粒物(PM10),92,134,96,53,36,25,,,,30,27,5,7,0.6,0.5
2026-01-17T0100,4308A,107.3898,34.3601,宝鸡市,陈仓区北开路21号,细颗粒物(PM2.5),84,112,125,62,51,23,,,,51,42,8,36,0.4,0.5
2026-01-17T0100,1051A,115.4803,38.8568,保定市,游泳馆,细颗粒物(PM2.5),82,93,102,60,65,4,,,,73,36,1,3,0.7,0.7
2026-01-17T0100,1052A,115.509,38.8895,保定市,华电二区,细颗粒物(PM2.5),79,79,97,58,72,4,,,,61,34,3,3,0.6,0.7
2026-01-17T0100,1053A,115.4588,38.9037,保定市,接待中心,颗粒物(PM10),60,70,103,41,69,6,,,,53,34,1,2,0.3,0.7
2026-01-17T0100,1054A,115.4484,38.8344,保定市,地表水厂,细颗粒物(PM2.5),124,160,128,94,71,3,,,,74,38,7,6,1.1,0.7
2026-01-17T0100,3581A,115.3136,38.9511,保定市,满城区生态环境分局,,41,41,128,7,78,28,,,,38,44,2,6,0.3,0.9
2026-01-17T0100,3582A,115.4709,38.7628,保定市,清苑区第二中学,颗粒物(PM10),95,140,134,64,64,4,,,,62,37,2,2,0.8,0.8
2026-01-17T0100,3583A,115.6231,39.0223,保定市,徐水物探局,,32,32,131,19,70,26,,,,29,34,2,5,0.4,0.8
2026-01-17T0100,4004A,115.4199,38.8665,保定市,双鹰农机,细颗粒物(PM2.5),67,80,127,48,67,11,,,,62,32,6,8,0.6,0.8
2026-01-17T0100,4034A,115.515,38.8589,保定市,植保所站,细颗粒物(PM2.5),107,115,108,80,74,0,,,,75,36,1,2,1.1,1
2026-01-17T0100,2594A,99.1589,25.1137,保山市,市环境监测站,,32,,25,22,16,58,,,,7,9,4,5,0.3,0.4
2026-01-17T0100,2595A,99.1616,25.1381,保山市,市环保局,,42,,31,29,21,68,,,,4,6,3,4,0.4,0.4
2026-01-17T0100,1867A,109.1435,21.4085,北海市,海滩公园,,38,38,45,20,29,101,,,,8,9,6,6,0.7,0.7
2026-01-17T0100,1868A,109.0983,21.466,北海市,新市环保局,,40,40,48,27,36,101,,,,13,16,5,5,0.6,0.6
2026-01-17T0100,1869A,109.1775,21.5232,北海市,北海工业园,,45,45,56,27,36,79,,,,13,13,5,6,0.8,0.7
2026-01-17T0100,3400A,109.1844,21.4396,北海市,龙潭自来水厂,,26,22,43,18,34,51,,,,7,8,15,14,0.6,0.6
2026-01-17T0100,1001A,116.3611,39.8786,北京市,万寿西宫,,18,12,51,6,23,57,,,,12,22,2,3,0.3,0.5
2026-01-17T0100,1003A,116.4174,39.9289,北京市,东四,,18,15,47,3,23,55,,,,14,24,5,5,0.3,0.6
2026-01-17T0100,1004A,116.4073,39.8858,北京市,天坛,,18,14,47,6,24,57,,,,11,19,3,3,0.3,0.5
2026-01-17T0100,1005A,116.4622,39.9364,北京市,农展馆,,19,13,49,3,24,58,,,,10,18,4,5,0.3,0.5
2026-01-17T0100,1006A,116.3399,39.9293,北京市,官园,,18,18,50,6,23,53,,,,11,19,5,6,0.3,0.6
2026-01-17T0100,1007A,116.2879,39.9613,北京市,海淀万柳,,16,13,45,3,22,51,,,,15,26,3,3,0.4,0.5
2026-01-17T0100,1008A,116.6635,40.1349,北京市,顺义新城,,21,14,66,3,33,66,,,,7,22,4,4,0.3,0.6
2026-01-17T0100,1009A,116.6275,40.327,北京市,怀柔镇,,19,10,62,3,33,59,,,,7,25,5,5,0.3,0.7
2026-01-17T0100,1010A,116.2295,40.217,北京市,昌平镇,,15,15,44,6,21,37,,,,28,20,2,2,0.3,0.5
2026-01-17T0100,1011A,116.3968,39.982,北京市,奥体中心,,18,14,45,6,23,55,,,,21,31,4,4,0.4,0.6
2026-01-17T0100,3418A,116.8336,40.4095,北京市,密云新城,,20,8,53,3,28,64,,,,4,17,7,7,0.3,0.6
2026-01-17T0100,3671A,116.0879,39.9725,北京市,门头沟三家店,,19,19,53,7,25,25,,,,37,27,3,3,0.4,0.6
2026-01-17T0100,3672A,116.1507,39.8246,北京市,丰台云岗,,18,16,52,6,28,56,,,,13,23,3,3,0.3,0.6
2026-01-17T0100,3674A,115.9578,39.7602,北京市,房山燕山,,16,16,70,6,38,43,,,,17,23,4,5,0.2,0.5
2026-01-17T0100,3675A,116.4669,39.7734,北京市,大兴旧宫,,15,14,61,3,29,45,,,,24,27,3,3,0.4,0.6
2026-01-17T0100,3694A,115.9859,40.4562,北京市,延庆石河营,,20,10,44,3,22,63,,,,5,18,3,3,0.4,0.5
2026-01-17T0100,3695A,116.6151,40.3052,北京市,怀柔新城,,20,10,65,6,38,61,,,,6,20,5,4,0.3,0.6
2026-01-17T0100,3696A,116.2542,39.8764,北京市,丰台小屯,,15,15,51,6,25,47,,,,18,27,3,3,0.4,0.6
2026-01-17T0100,3697A,116.8399,40.3843,北京市,密云镇,,21,9,55,3,33,65,,,,8,21,3,3,0.3,0.6
2026-01-17T0100,4057A,115.9423,40.4431,北京市,延庆百泉,,18,11,50,3,24,56,,,,4,21,2,2,0.2,0.4
2026-01-17T0100,4058A,116.6598,39.9164,北京市,通州新华,,13,12,54,3,27,41,,,,20,29,2,3,0.3,0.6
2026-01-17T0100,4182A,116.1942,39.9158,北京市,石景山八角,,18,18,51,6,23,39,,,,18,20,3,2,0.1,0.4
2026-01-17T0100,4194A,117.078628,40.151726,北京市,平谷新城,,20,8,73,3,43,62,,,,2,17,2,2,0.1,0.6
2026-01-17T0100,1761A,123.8274146,41.31234549,本溪市,大峪,细颗粒物(PM2.5),73,78,72,53,49,4,,,,58,34,7,8,1.3,0.9
2026-01-17T0100,1763A,123.7169,41.3094,本溪市,彩屯,颗粒物(PM10),57,63,78,29,60,39,,,,25,37,6,7,0.8,1.2
2026-01-17T0100,1764A,123.7672166,41.28649327,本溪市,东明,细颗粒物(PM2.5),69,62,62,50,52,2,,,,57,37,1,3,1.4,1.2
2026-01-17T0100,1765A,123.799345,41.266614,本溪市,新立屯,,43,37,59,30,48,15,,,,48,35,8,9,0.6,0.9
2026-01-17T0100,1766A,123.829144,41.336777,本溪市,威宁,细颗粒物(PM2.5),70,81,73,51,53,3,,,,52,44,5,6,1.2,1
2026-01-17T0100,2587A,105.287,27.3133,毕节市,八中,细颗粒物(PM2.5),165,142,112,125,98,28,,,,17,18,10,10,1.0,0.9
2026-01-17T0100,2588A,105.3079,27.2987,毕节市,师专,细颗粒物(PM2.5),175,157,114,132,99,15,,,,38,30,8,9,1.2,1.1
2026-01-17T0100,4263A,105.3688,27.3598,毕节市,工业大道,细颗粒物(PM2.5),149,175,136,114,98,16,,,,30,29,11,11,/,/
2026-01-17T0100,1629A,117.9961,37.3604,滨州市,第二水厂,,31,31,92,19,50,45,,,,13,23,7,8,0.8,1
2026-01-17T0100,1630A,117.9789,37.3931,滨州市,北中新校,,39,39,95,17,52,45,,,,20,25,5,5,0.4,0.6
2026-01-17T0100,3514A,117.9379,37.3959,滨州市,中海酒店,,31,31,86,19,55,46,,,,14,21,6,7,0.5,0.7
2026-01-17T0100,3515A,117.9381509,37.35547456,滨州市,开发区一中,,39,39,96,22,56,52,,,,11,21,10,11,0.4,0.6
2026-01-17T0100,3516A,118.0914,37.6938,滨州市,金海六路,,39,39,72,14,38,55,,,,10,17,3,2,0.3,0.5
2026-01-17T0100,4028A,117.9955,37.3752,滨州市,滨州市西街道办事处,,,34,92,22,56,,,,,13,21,7,8,0.4,0.7
2026-01-17T0100,2311A,115.8071,33.8399,亳州市,污水处理厂,细颗粒物(PM2.5),94,128,158,70,84,22,,,,26,33,3,5,0.5,0.5
2026-01-17T0100,2312A,115.7789,33.8519,亳州市,三国揽胜宫,"颗粒物(PM10),细颗粒物(PM2.5)",102,154,166,76,90,25,,,,26,32,2,4,0.6,0.6
2026-01-17T0100,3332A,115.7631,33.803,亳州市,亳州学院,细颗粒物(PM2.5),110,138,148,83,87,27,,,,27,32,4,5,0.7,0.6
2026-01-17T0100,2693A,82.0482,44.8553,博尔塔拉蒙古自治州,市党校,,,,40,,9,,,,,,14,,3,,0.2
2026-01-17T0100,2694A,82.0805,44.8966,博尔塔拉蒙古自治州,市环保局,,,61,45,26,20,64,,,,7,10,5,5,,0.4
2026-01-17T0100,1071A,116.8733,38.2922,沧州市,沧县城建局,颗粒物(PM10),58,66,84,37,54,15,,,,53,25,5,5,0.5,0.6
2026-01-17T0100,1072A,116.8462,38.3189,沧州市,电视转播站,颗粒物(PM10),54,58,84,34,47,31,,,,33,24,2,3,0.4,0.6
2026-01-17T0100,1073A,116.8588,38.3161,沧州市,市环保局,细颗粒物(PM2.5),57,61,87,40,55,29,,,,29,19,4,5,0.5,0.6
2026-01-17T0100,3324A,116.8011,38.294,沧州市,河北水利电力学院,颗粒物(PM10),54,58,83,29,45,36,,,,30,22,3,3,0.5,0.5
2026-01-17T0100,2622A,97.1813,31.1289,昌都市,昌都监测站,,38,38,43,7,17,47,,,,10,21,2,3,0.3,0.6
2026-01-17T0100,3719A,97.1707,31.1428,昌都市,昌都会议中心,,15,13,13,10,14,48,,,,2,3,1,1,0.4,0.4
2026-01-17T0100,2692A,87.2722,44.0298,昌吉回族自治州,新区政务中心,,26,18,26,18,14,54,,,,18,18,10,9,0.3,0.3
2026-01-17T0100,3613A,87.3069,44.0093,昌吉回族自治州,亚心广场,,25,19,28,17,13,58,,,,8,11,8,8,0.4,0.5
2026-01-17T0100,4164A,87.2057,43.9289,昌吉回族自治州,财政所,,38,38,43,26,30,55,,,,12,15,7,6,0.4,0.4
2026-01-17T0100,1120A,125.2874,43.9024,长春市,客车厂,细颗粒物(PM2.5),109,,63,82,69,28,,,,41,47,10,14,0.8,0.7
2026-01-17T0100,1121A,125.2943,43.8508,长春市,邮电学院,细颗粒物(PM2.5),108,,60,81,61,19,,,,52,42,11,13,0.9,0.8
2026-01-17T0100,1122A,125.3648,43.8745,长春市,劳动公园,细颗粒物(PM2.5),100,83,69,75,65,23,,,,48,46,10,15,0.7,0.7
2026-01-17T0100,1123A,125.3233,43.8781,长春市,园林处,细颗粒物(PM2.5),92,,61,68,56,29,,,,37,37,10,14,0.7,0.7
2026-01-17T0100,1124A,125.4604,43.7904,长春市,净月潭,细颗粒物(PM2.5),95,83,72,71,58,28,,,,34,32,5,7,0.8,0.7
2026-01-17T0100,1126A,125.38,43.8422,长春市,经开区环卫处,细颗粒物(PM2.5),90,84,69,67,59,10,,,,61,50,6,9,0.9,0.8
2026-01-17T0100,1127A,125.234,43.7761,长春市,高新区管委会,细颗粒物(PM2.5),92,68,79,68,81,11,,,,64,55,8,8,0.7,0.9
2026-01-17T0100,1128A,125.1695,43.83,长春市,岱山公园,细颗粒物(PM2.5),107,82,91,80,82,26,,,,43,52,7,8,0.8,0.9
2026-01-17T0100,4281A,125.334645,43.916281,长春市,北亚泰大街1068号,细颗粒物(PM2.5),90,,62,67,64,21,,,,44,45,12,12,0.8,0.9
2026-01-17T0100,1335A,113.082,28.2421,长沙市,经开区环保局,细颗粒物(PM2.5),132,,130,100,98,16,,,,68,75,4,9,0.9,1.1
2026-01-17T0100,1336A,112.8873,28.2202,长沙市,高开区环保局,细颗粒物(PM2.5),176,,114,133,94,14,,,,64,68,6,8,1.1,1
2026-01-17T0100,1337A,113.0785,28.2012,长沙市,马坡岭,细颗粒物(PM2.5),130,105,139,99,97,10,,,,65,77,5,11,0.9,1
2026-01-17T0100,1338A,112.9448,28.1894,长沙市,湖南师范大学,细颗粒物(PM2.5),98,87,112,73,71,38,,,,42,81,4,6,0.9,1
2026-01-17T0100,1339A,113.0177,28.1322,长沙市,雨花区环保局,细颗粒物(PM2.5),147,,106,112,85,13,,,,75,62,9,11,1.2,1
2026-01-17T0100,1340A,112.9795,28.2593,长沙市,伍家岭,细颗粒物(PM2.5),135,120,162,103,102,4,,,,80,73,5,7,1.0,1.1
2026-01-17T0100,1341A,113.002,28.1944,长沙市,火车新站,细颗粒物(PM2.5),113,94,140,85,94,,,,,45,92,26,16,1.1,1.2
2026-01-17T0100,1342A,112.9846,28.1177,长沙市,天心区环保局,细颗粒物(PM2.5),118,113,108,89,78,27,,,,60,65,7,9,1.0,0.9
2026-01-17T0100,1343A,112.8906,28.1307,长沙市,湖南中医药大学,细颗粒物(PM2.5),107,82,116,80,77,15,,,,62,67,5,7,1.2,1
2026-01-17T0100,1727A,113.1146,36.1547,长治市,清华站,细颗粒物(PM2.5),70,84,84,51,48,53,,,,21,39,9,21,0.9,1
2026-01-17T0100,1730A,113.0887,36.2126,长治市,审计局,细颗粒物(PM2.5),73,77,90,53,52,51,,,,21,36,8,24,0.8,1
2026-01-17T0100,1731A,113.0845,36.1856,长治市,长治八中,细颗粒物(PM2.5),85,101,115,63,57,54,,,,16,35,8,22,0.8,1
2026-01-17T0100,2845A,113.1561,36.1912,长治市,德盛苑,细颗粒物(PM2.5),89,81,74,66,48,47,,,,20,26,8,17,0.9,0.9
2026-01-17T0100,3568A,113.0603,36.0464,长治市,向阳小学,细颗粒物(PM2.5),95,115,110,71,56,46,,,,30,35,10,23,1.6,1.1
2026-01-17T0100,3569A,112.8788,36.315,长治市,屯留一中,颗粒物(PM10),65,79,90,36,42,50,,,,20,36,8,15,1.0,1
2026-01-17T0100,4189A,113.113092,36.199482,长治市,英华南巷50号,,,92,101,56,50,52,,,,,43,7,21,0.7,1.2
2026-01-17T0100,4190A,113.23666,36.33435,长治市,学府街1号,细颗粒物(PM2.5),69,64,94,50,58,50,,,,26,41,11,33,1.0,1.6
2026-01-17T0100,1854A,111.696,28.9725,常德市,市二中,细颗粒物(PM2.5),185,187,148,139,118,74,,,,24,27,12,9,1.1,1
2026-01-17T0100,3138A,111.7152,29.0288,常德市,武陵区永安,细颗粒物(PM2.5),169,184,155,128,118,85,,,,19,24,12,9,1.0,1
2026-01-17T0100,3139A,111.6891,28.9881,常德市,鼎城区玉霞,细颗粒物(PM2.5),183,187,144,138,118,70,,,,24,27,12,10,0.9,0.9
2026-01-17T0100,3140A,111.6651,29.0526,常德市,武陵区长庚,细颗粒物(PM2.5),198,199,157,148,125,64,,,,24,27,10,8,1.0,1
2026-01-17T0100,1196A,119.9524,31.7586,常州市,市监测站,细颗粒物(PM2.5),169,228,175,128,123,85,,,,20,85,4,9,1.1,1.3
2026-01-17T0100,1200A,119.9351,31.703,常州市,武进监测站,细颗粒物(PM2.5),175,190,166,132,118,77,,,,23,73,11,17,0.8,0.8
2026-01-17T0100,3002A,119.9701,31.813,常州市,行政中心,细颗粒物(PM2.5),162,153,151,123,111,100,,,,20,70,5,11,1.0,1.1
2026-01-17T0100,3003A,120.0434,31.7726,常州市,经开区,细颗粒物(PM2.5),155,202,194,118,120,101,,,,16,82,4,15,1.0,1.1
2026-01-17T0100,3010A,119.8919,31.7892,常州市,钟楼,细颗粒物(PM2.5),160,177,155,122,112,,,,,15,62,6,11,0.9,0.9
2026-01-17T0100,3429A,119.8595,31.706,常州市,武进经发区,细颗粒物(PM2.5),209,197,166,159,129,86,,,,24,88,1,10,1.2,1.1
2026-01-17T0100,3430A,119.5812,31.7256,常州市,金坛城区,细颗粒物(PM2.5),198,188,174,148,134,93,,,,20,60,6,13,1.2,1.2
2026-01-17T0100,4089A,119.9551,31.863,常州市,崇义南街5-H号,细颗粒物(PM2.5),192,,144,144,121,119,,,,17,71,4,10,1.2,1.3
2026-01-17T0100,2220A,120.4318,41.588,朝阳市,西梁,,20,16,34,7,13,62,,,,10,11,6,8,0.4,0.4
2026-01-17T0100,2221A,120.452,41.565,朝阳市,河畔小区,,20,14,32,3,12,63,,,,11,12,7,9,0.4,0.5
2026-01-17T0100,2222A,120.4176,41.5648,朝阳市,八里堡,,22,22,36,7,14,62,,,,9,12,6,7,0.3,0.4
2026-01-17T0100,3026A,116.6179,23.6608,潮州市,市政府,颗粒物(PM10),82,114,77,58,42,18,,,,65,35,29,13,0.7,0.6
2026-01-17T0100,4036A,116.646,23.676,潮州市,金山,细颗粒物(PM2.5),62,53,59,44,41,64,,,,18,19,4,5,0.6,0.5
2026-01-17T0100,2473A,113.0116,25.8228,郴州市,市职中,,,89,76,69,54,2,,,,,38,6,8,1.0,0.8
2026-01-17T0100,2475A,113.0381,25.8074,郴州市,市审计局,细颗粒物(PM2.5),94,90,76,70,54,11,,,,44,42,3,8,/,/
2026-01-17T0100,2476A,113.0348,25.7757,郴州市,市环保局,细颗粒物(PM2.5),110,114,75,83,48,6,,,,62,37,6,8,0.9,0.5
2026-01-17T0100,4252A,113.0138,25.8011,郴州市,好美居路49号,细颗粒物(PM2.5),107,89,67,80,52,3,,,,69,49,8,8,/,/
2026-01-17T0100,1431A,103.9727,30.7242,成都市,金泉两河,细颗粒物(PM2.5),113,114,117,85,92,1,,,,93,66,3,5,1.7,1.3
2026-01-17T0100,1432A,104.1423,30.6765,成都市,十里店,细颗粒物(PM2.5),165,162,145,125,110,7,,,,109,64,4,5,1.9,1.2
2026-01-17T0100,1433A,104.0594,30.5765,成都市,三瓦窑,细颗粒物(PM2.5),134,122,149,102,125,13,,,,100,84,6,6,1.3,1.4
2026-01-17T0100,1434A,104.1122,30.6306,成都市,沙河铺,细颗粒物(PM2.5),188,152,140,141,127,1,,,,91,78,2,3,1.8,1.4
2026-01-17T0100,2880A,104.0219,30.6561,成都市,大石西路,细颗粒物(PM2.5),147,146,140,112,97,1,,,,99,70,6,6,2.3,1.2
2026-01-17T0100,3136A,104.2724,30.559,成都市,龙泉驿区区政府,细颗粒物(PM2.5),119,107,109,90,93,55,,,,30,26,6,7,0.9,0.9
2026-01-17T0100,3357A,104.0028,30.6891,成都市,金博路,细颗粒物(PM2.5),147,145,128,112,98,1,,,,108,74,6,8,2.1,1.5
2026-01-17T0100,3359A,104.056,30.5228,成都市,华阳,细颗粒物(PM2.5),163,158,143,124,110,3,,,,98,82,4,5,2.5,1.4
2026-01-17T0100,3488A,104.387954,30.746684,成都市,青石路225号,细颗粒物(PM2.5),130,119,139,99,111,2,,,,72,57,4,4,1.0,1
2026-01-17T0100,3489A,104.0788,30.4054,成都市,科学城,细颗粒物(PM2.5),125,124,124,95,99,15,,,,64,48,7,8,1.1,1
2026-01-17T0100,4011A,103.8505,30.6946,成都市,光华大道三段,细颗粒物(PM2.5),208,188,131,158,94,11,,,,85,58,4,7,1.4,0.9
2026-01-17T0100,4144A,104.3257,30.6406,成都市,八角井街185号,细颗粒物(PM2.5),103,119,135,77,97,39,,,,34,31,3,4,0.8,0.9
2026-01-17T0100,4224A,104.2433276,30.53529463,成都市,鲸龙路1057号,细颗粒物(PM2.5),134,133,114,102,106,2,,,,68,52,5,5,1.0,0.9
2026-01-17T0100,1062A,117.9531,40.908,承德市,铁路,,35,35,51,17,25,51,,,,11,14,5,5,0.4,0.5
2026-01-17T0100,1063A,117.9397,40.9763,承德市,中国银行,,24,24,50,8,22,48,,,,4,10,1,2,0.3,0.5
2026-01-17T0100,4073A,117.9462,40.95,承德市,杏林街1号,,20,19,47,10,27,61,,,,2,10,4,4,0.2,0.5
2026-01-17T0100,4274A,117.7994,40.9605,承德市,滨河大街98号,,27,27,48,3,25,51,,,,11,16,2,3,0.2,0.4
2026-01-17T0100,2314A,117.4698,30.6617,池州市,池州学院,细颗粒物(PM2.5),128,123,88,97,67,4,,,,126,53,12,9,1.0,1.2
2026-01-17T0100,3237A,117.4918,30.6617,池州市,展览馆,细颗粒物(PM2.5),104,106,80,78,53,0,,,,80,52,2,4,1.2,1.3
2026-01-17T0100,3333A,117.5626,30.695,池州市,第八中学,细颗粒物(PM2.5),103,94,82,77,60,19,,,,80,45,7,8,1.1,1.1
2026-01-17T0100,3334A,117.5037,30.6242,池州市,第十二中学,细颗粒物(PM2.5),94,116,89,70,53,0,,,,86,61,4,6,1.3,1.4
2026-01-17T0100,1744A,118.9229,42.2816,赤峰市,松山一中,,15,11,23,3,9,35,,,,29,15,5,5,0.7,0.6
2026-01-17T0100,1745A,118.9588,42.2733,赤峰市,哈达街,,23,22,23,16,15,27,,,,27,14,7,6,0.9,0.6
2026-01-17T0100,1746A,118.8792,42.2551,赤峰市,天义路,,23,,20,16,17,45,,,,16,16,7,11,0.7,0.6
2026-01-17T0100,3058A,119.2656,42.0356,赤峰市,银河街,,23,23,32,8,15,46,,,,12,6,14,12,0.8,0.6
2026-01-17T0100,3286A,118.9359,42.3146,赤峰市,桥北物流园区,,20,,31,14,14,57,,,,9,14,4,5,0.4,0.5
2026-01-17T0100,2521A,107.3473,22.4137,崇左市,市环保局江州分局,细颗粒物(PM2.5),117,117,97,88,67,40,,,,33,24,9,8,1.4,0.9
2026-01-17T0100,4256A,107.375,22.3736,崇左市,石景林东路7号,细颗粒物(PM2.5),102,89,82,76,69,53,,,,26,28,9,9,0.7,0.7
2026-01-17T0100,3207A,118.31131,32.3033,滁州市,市政府原办公楼,细颗粒物(PM2.5),219,202,136,169,95,73,,,,21,63,4,10,0.9,0.9
2026-01-17T0100,3331A,118.3268,32.2633,滁州市,图书馆,细颗粒物(PM2.5),208,222,131,158,83,74,,,,22,60,7,13,1.1,1
2026-01-17T0100,4101A,118.3196,32.3335,滁州市,银山路666号,细颗粒物(PM2.5),239,192,129,189,108,64,,,,20,51,4,15,1.0,0.8
2026-01-17T0100,4102A,118.3426,32.2979,滁州市,黄山路555号,细颗粒物(PM2.5),240,230,154,190,113,73,,,,22,73,13,20,1.3,1.2
2026-01-17T0100,2606A,101.5379,25.0492,楚雄彝族自治州,市经济开发区,,39,39,31,23,19,26,,,,30,16,5,7,0.6,0.6
2026-01-17T0100,4153A,101.5536,25.0343,楚雄彝族自治州,团结路562号,,43,43,26,27,17,18,,,,39,19,5,5,0.5,0.4
2026-01-17T0100,2549A,107.5087,31.2186,达州市,市环境监测站,细颗粒物(PM2.5),163,151,134,124,102,5,,,,38,40,6,8,0.9,0.9
2026-01-17T0100,2550A,107.4988,31.2132,达州市,凤凰小区,细颗粒物(PM2.5),170,153,139,129,105,4,,,,42,45,5,7,1.1,1.1
2026-01-17T0100,2551A,107.5081,31.1987,达州市,达县机关宾馆,细颗粒物(PM2.5),175,180,147,132,104,2,,,,41,52,3,6,1.1,1.3
2026-01-17T0100,2552A,107.4644,31.2124,达州市,市政中心,细颗粒物(PM2.5),168,182,155,127,109,5,,,,57,48,8,8,1.4,1
2026-01-17T0100,2614A,100.2168,25.5818,大理白族自治州,大理市环境监测站,,23,21,21,12,18,71,,,,9,8,6,6,0.4,0.5
2026-01-17T0100,2615A,100.1542,25.7055,大理白族自治州,大理古城,,27,27,21,16,15,57,,,,16,12,7,8,0.6,0.6
2026-01-17T0100,1109A,121.6119,38.974,大连市,甘井子,,39,39,71,26,51,52,,,,18,28,7,7,0.4,0.5
2026-01-17T0100,1110A,121.565,38.9509,大连市,周水子,,46,46,77,26,52,47,,,,17,25,13,9,0.5,0.8
2026-01-17T0100,1111A,121.5637,38.8849,大连市,星海三站,,40,40,68,21,46,46,,,,19,25,8,6,0.6,0.9
2026-01-17T0100,1112A,121.6301,38.9117,大连市,青泥洼桥,,40,40,71,24,53,50,,,,15,28,9,9,0.6,0.9
2026-01-17T0100,1113A,121.6248,38.8643,大连市,傅家庄,,39,39,71,21,47,45,,,,18,28,10,10,0.5,0.7
2026-01-17T0100,1114A,121.5117,38.8636,大连市,七贤岭,,43,43,77,22,47,47,,,,15,22,7,7,0.6,0.8
2026-01-17T0100,1116A,121.7507,39.1339,大连市,金州,,35,35,66,23,52,54,,,,16,26,10,11,0.5,0.8
2026-01-17T0100,1117A,121.7811,39.0495,大连市,开发区,,38,38,78,17,49,57,,,,9,19,6,7,0.6,0.9
2026-01-17T0100,1118A,121.9762,39.0631,大连市,双D港,,37,37,71,20,49,61,,,,13,21,9,9,0.3,0.6
2026-01-17T0100,4082A,121.2548,38.8188,大连市,旅顺,,26,26,65,11,40,53,,,,11,17,7,7,0.5,0.7
2026-01-17T0100,1789A,124.8085,46.0381,大庆市,大同区,,36,36,54,21,40,51,,,,12,21,6,8,0.6,0.8
2026-01-17T0100,1790A,125.1166,46.5255,大庆市,龙凤区,,46,37,50,32,34,48,,,,21,38,10,11,0.3,0.6
2026-01-17T0100,1791A,124.8894,46.4007,大庆市,红岗区,,33,33,39,23,27,37,,,,18,26,4,6,0.4,0.5
2026-01-17T0100,1792A,125.1391,46.578,大庆市,萨尔图区,,32,27,50,22,33,53,,,,10,29,9,10,0.4,0.6
2026-01-17T0100,1793A,124.9026,46.6217,大庆市,让胡路区,,38,30,46,26,35,62,,,,7,18,11,9,0.5,0.6
2026-01-17T0100,3481A,125.127,46.6277,大庆市,萨区政府监测点,,38,38,46,3,26,50,,,,12,28,8,9,0.5,0.7
2026-01-17T0100,1723A,113.2926,40.0759,大同市,云冈宾馆,,34,34,36,16,14,34,,,,21,13,12,7,0.9,0.7
2026-01-17T0100,1724A,113.3437,40.0921,大同市,大同大学,,30,30,34,19,18,43,,,,16,11,6,4,0.6,0.6
2026-01-17T0100,1725A,113.2637,40.129,大同市,安家小村,颗粒物(PM10),61,71,40,15,16,3,,,,50,21,10,8,1.3,0.5
2026-01-17T0100,3282A,113.3399,40.0586,大同市,大同市卫生学校,细颗粒物(PM2.5),58,,34,41,31,40,,,,21,13,6,4,0.5,0.5
2026-01-17T0100,3565A,113.1371,40.1122,大同市,云冈站,颗粒物(PM10),60,69,37,17,16,1,,,,45,20,10,7,0.9,0.7
2026-01-17T0100,3566A,113.1186,40.2556,大同市,图书馆,,36,36,49,9,19,29,,,,12,14,3,6,0.5,0.7
2026-01-17T0100,3567A,113.5931,40.0459,大同市,区一中,,20,18,42,12,20,63,,,,10,14,1,2,0.4,0.4
2026-01-17T0100,4199A,113.2798248,40.09972476,大同市,魏都大道141号,颗粒物(PM10),54,58,40,29,16,14,,,,47,16,10,6,1.2,0.7
2026-01-17T0100,2269A,124.1068,50.4091,大兴安岭地区,科技局,,20,20,15,12,12,52,,,,1,2,5,5,0.2,0.2
2026-01-17T0100,3663A,124.117,50.4279,大兴安岭地区,红旗社区,,17,6,6,3,4,52,,,,2,3,5,5,0.2,0.2
2026-01-17T0100,1600A,124.33,40.0625,丹东市,江湾东路,,23,23,65,14,55,62,,,,12,23,7,7,0.5,0.9
2026-01-17T0100,1601A,124.4242,40.1513,丹东市,临江后街,,23,23,69,12,53,66,,,,6,26,5,10,0.5,1
2026-01-17T0100,1602A,124.3935,40.1461,丹东市,元宝山,,25,25,66,15,54,65,,,,8,25,7,9,0.4,0.9
2026-01-17T0100,1603A,124.3634,40.1093,丹东市,民主桥,,21,18,69,8,47,66,,,,6,25,7,8,0.6,1.1
2026-01-17T0100,3541A,109.5726195,19.51688767,儋州市,第一中学子站,,43,43,43,28,26,67,,,,8,6,4,5,0.6,0.6
2026-01-17T0100,3542A,109.5567,19.5187,儋州市,东坡学校子站,,46,46,41,14,23,70,,,,8,6,5,5,0.6,0.6
2026-01-17T0100,2616A,98.5611,24.4273,德宏傣族景颇族自治州,德宏州监测站,,46,44,52,32,37,37,,,,21,21,6,6,0.7,0.7
2026-01-17T0100,3677A,98.5887,24.4366,德宏傣族景颇族自治州,芒市人民政府综合楼,,38,38,53,26,31,37,,,,10,15,4,4,0.6,0.7
2026-01-17T0100,1901A,104.424,31.1209,德阳市,东山公园,细颗粒物(PM2.5),88,84,91,65,80,65,,,,17,29,5,8,0.7,0.8
2026-01-17T0100,1902A,104.3827,31.1318,德阳市,西小区,细颗粒物(PM2.5),118,129,134,89,98,2,,,,75,58,6,7,1.5,1.3
2026-01-17T0100,1904A,104.3553,31.1091,德阳市,耐火材料厂,细颗粒物(PM2.5),144,126,113,110,97,3,,,,80,47,4,6,1.3,1
2026-01-17T0100,4145A,104.4144,31.1495,德阳市,市林业局,细颗粒物(PM2.5),90,79,105,67,89,4,,,,73,61,3,4,0.6,0.8
2026-01-17T0100,1622A,116.3034,37.4675,德州市,儿童乐园,颗粒物(PM10),58,66,118,31,59,43,,,,22,27,11,12,0.7,1
2026-01-17T0100,1624A,116.2992,37.4449,德州市,监理站,,46,46,110,29,57,56,,,,21,28,8,11,0.7,0.9
2026-01-17T0100,3066A,116.2722,37.438,德州市,九衢泉纯净水厂,颗粒物(PM10),53,56,111,36,59,50,,,,17,25,18,7,0.6,0.9
2026-01-17T0100,3371A,116.3693,37.44,德州市,开发区人民医院,颗粒物(PM10),52,53,114,34,57,44,,,,32,32,11,12,0.6,0.6
2026-01-17T0100,3511A,116.5687,37.3331,德州市,陵城艺术中心,颗粒物(PM10),52,53,110,31,57,32,,,,27,32,18,12,0.9,1
2026-01-17T0100,4292A,116.352738,37.420875,德州市,新河东路,颗粒物(PM10),52,53,110,31,58,48,,,,20,27,10,12,0.8,1
2026-01-17T0100,2621A,99.7054,27.8319,迪庆藏族自治州,迪庆州站,,33,,31,23,19,42,,,,12,12,4,5,0.5,0.4
2026-01-17T0100,3180A,99.7122,27.8129,迪庆藏族自治州,质量技术监督局,细颗粒物(PM2.5),54,,29,38,20,42,,,,15,14,4,4,0.6,0.5
2026-01-17T0100,4257A,104.6092,35.5962,定西市,将台街,颗粒物(PM10),62,73,96,33,40,62,,,,20,25,13,15,0.6,0.6
2026-01-17T0100,4309A,104.6159,35.5701,定西市,正龙路62号,颗粒物(PM10),63,75,97,27,35,64,,,,11,8,9,9,0.5,0.6
2026-01-17T0100,1390A,113.7943,23.0132,东莞市,东城石井,细颗粒物(PM2.5),68,80,93,49,57,26,,,,92,77,6,8,0.7,0.7
2026-01-17T0100,1391A,113.7384,22.9659,东莞市,南城西平,颗粒物(PM10),76,102,106,51,64,6,,,,150,94,7,8,0.9,0.9
2026-01-17T0100,3319A,113.7283,23.041,东莞市,万江金泰,细颗粒物(PM2.5),105,125,121,79,77,46,,,,95,85,6,8,1.3,1.2
2026-01-17T0100,4129A,113.8666,23.1062,东莞市,裕兴路,颗粒物(PM10),100,149,121,71,57,12,,,,107,73,6,10,1.0,0.9
2026-01-17T0100,4130A,114.0076,22.9739,东莞市,教育路1号,颗粒物(PM10),65,79,109,38,59,65,,,,61,70,5,7,0.7,0.8
2026-01-17T0100,4131A,113.7981,22.8124,东莞市,长怡路1号,颗粒物(PM10),68,86,101,44,55,11,,,,116,84,6,7,1.0,1
2026-01-17T0100,1666A,118.6612,37.4313,东营市,市环保局,,34,34,87,14,42,66,,,,17,27,7,8,0.4,0.6
2026-01-17T0100,3036A,118.6903,37.4337,东营市,开发区管委会,,30,30,91,19,45,66,,,,5,18,8,8,0.1,0.4
2026-01-17T0100,3365A,118.5721,37.5654,东营市,垦利区民丰路,,31,31,85,12,43,50,,,,16,21,2,2,0.2,0.8
2026-01-17T0100,3498A,118.5063,37.8606,东营市,河口城区,,36,36,74,15,35,63,,,,13,22,4,5,0.8,1
2026-01-17T0100,3646A,118.4979,37.4623,东营市,胜利站,,34,34,86,19,43,55,,,,15,26,10,10,0.6,0.8
2026-01-17T0100,3734A,118.5753,37.4405,东营市,理想之城,,36,36,85,14,47,55,,,,10,25,3,4,0.4,0.7
2026-01-17T0100,1591A,110.0024,39.8127,鄂尔多斯市,综合楼,颗粒物(PM10),68,85,64,29,17,20,,,,46,31,12,10,0.7,0.5
2026-01-17T0100,1592A,109.9485,39.8259,鄂尔多斯市,巴音孟克林场办事处,颗粒物(PM10),68,85,55,27,16,21,,,,44,27,14,12,0.8,0.6
2026-01-17T0100,1593A,109.7734,39.5987,鄂尔多斯市,康泽苑,颗粒物(PM10),82,114,62,34,20,6,,,,65,27,11,7,0.7,0.5
2026-01-17T0100,1594A,109.8121,39.5987,鄂尔多斯市,华泰汽车城,颗粒物(PM10),80,110,65,27,18,1,,,,61,29,12,7,0.5,0.4
2026-01-17T0100,1595A,109.9734,39.7884,鄂尔多斯市,奥林花园,颗粒物(PM10),67,83,60,17,13,18,,,,48,33,10,9,0.8,0.7
2026-01-17T0100,2436A,114.894,30.3989,鄂州市,市政府,细颗粒物(PM2.5),145,122,108,111,92,35,,,,39,55,6,11,0.6,0.7
2026-01-17T0100,2437A,114.8986,30.3714,鄂州市,赵家坝,细颗粒物(PM2.5),135,130,115,103,86,41,,,,25,40,8,14,0.7,1
2026-01-17T0100,3654A,114.8093,30.4091,鄂州市,精准医疗中心,细颗粒物(PM2.5),175,136,125,132,98,41,,,,34,61,8,31,0.9,1.4
2026-01-17T0100,2454A,109.4978,30.2979,恩施土家族苗族自治州,湖北民院,细颗粒物(PM2.5),237,,128,187,150,4,,,,29,24,6,6,1.9,2.5
2026-01-17T0100,3549A,109.5061,30.3771,恩施土家族苗族自治州,龙凤新区,细颗粒物(PM2.5),208,187,171,158,147,1,,,,26,22,7,7,1.3,1.2
2026-01-17T0100,2499A,108.3411,21.6159,防城港市,沙万,细颗粒物(PM2.5),52,49,69,36,36,49,,,,27,40,9,9,0.8,1
2026-01-17T0100,2500A,108.3515,21.7733,防城港市,防城档案局,"颗粒物(PM10),细颗粒物(PM2.5)",57,64,60,40,40,34,,,,19,15,7,6,0.7,0.7
2026-01-17T0100,2501A,108.3506,21.6414,防城港市,大海花园,,49,45,59,34,36,69,,,,13,28,10,11,0.6,0.8
2026-01-17T0100,1371A,113.1293,23.0065,佛山市,湾梁,颗粒物(PM10),81,112,136,47,64,39,,,,101,98,/,/,/,/
2026-01-17T0100,1372A,113.1082,23.0477,佛山市,华材职中,颗粒物(PM10),86,122,166,59,78,73,,,,69,93,6,7,0.9,1
2026-01-17T0100,1373A,113.1439,23.045,佛山市,南海气象局,细颗粒物(PM2.5),92,116,120,68,76,28,,,,117,94,/,/,/,/
2026-01-17T0100,1374A,113.2879,22.8094,佛山市,顺德苏岗,细颗粒物(PM2.5),98,122,100,73,73,6,,,,106,84,/,/,1.2,1
2026-01-17T0100,1376A,112.8384,22.8678,佛山市,高明孔堂,细颗粒物(PM2.5),74,72,94,54,70,130,,,,35,48,/,/,/,/
2026-01-17T0100,1377A,112.8835,23.1584,佛山市,三水监测站,细颗粒物(PM2.5),130,197,168,99,101,2,,,,173,109,8,4,1.2,1.1
2026-01-17T0100,1378A,112.8668,23.185,佛山市,三水云东海,细颗粒物(PM2.5),149,194,133,114,89,0,,,,148,85,/,/,/,/
2026-01-17T0100,3625A,113.2568,22.7629,佛山市,容桂街道办,细颗粒物(PM2.5),94,90,124,70,88,51,,,,62,77,/,/,/,/
2026-01-17T0100,1282A,119.2681,26.0506,福州市,师大,,,,55,,32,,,108,,,38,,6,,0.6
2026-01-17T0100,1283A,119.2983,26.1028,福州市,五四北路,颗粒物(PM10),56,61,52,32,30,33,,,,50,43,5,6,0.7,0.7
2026-01-17T0100,1284A,119.2648,26.0769,福州市,杨桥西路,颗粒物(PM10),51,52,51,32,30,37,,,,39,28,5,6,/,/
2026-01-17T0100,3048A,119.5799,26.0937,福州市,九龙,,37,37,37,24,23,66,,,,26,25,4,6,0.7,0.7
2026-01-17T0100,3526A,119.5188,25.9666,福州市,吴航,,37,37,54,22,30,80,,,,18,38,5,6,0.5,0.7
2026-01-17T0100,4104A,119.3106,26.0648,福州市,路通桥巷6号,细颗粒物(PM2.5),78,71,55,57,36,35,,,,57,34,/,/,/,/
2026-01-17T0100,1755A,123.7974,41.8494,抚顺市,望花区,细颗粒物(PM2.5),99,101,62,74,51,2,,,,60,31,5,5,1.4,0.9
2026-01-17T0100,1756A,123.9161,41.8827,抚顺市,顺城区,细颗粒物(PM2.5),95,106,67,71,52,6,,,,60,37,9,9,1.5,1.1
2026-01-17T0100,1757A,124.0437,41.8615,抚顺市,东洲区,细颗粒物(PM2.5),90,104,69,67,49,12,,,,46,28,9,14,1.4,0.9
2026-01-17T0100,1758A,123.9246,41.8638,抚顺市,新抚区,细颗粒物(PM2.5),107,132,64,80,49,6,,,,64,39,6,7,1.5,1.1
2026-01-17T0100,1759A,124.0972,41.8961,抚顺市,大伙房水库,颗粒物(PM10),72,94,56,48,47,29,,,,26,23,9,11,1.2,1
2026-01-17T0100,1760A,123.708,41.8386,抚顺市,沈抚新城,细颗粒物(PM2.5),117,110,79,88,67,6,,,,55,34,6,9,,1.5
2026-01-17T0100,2377A,116.3544,27.9833,抚州市,市站,细颗粒物(PM2.5),98,95,87,73,60,50,,,,32,37,20,17,0.8,0.8
2026-01-17T0100,2378A,116.3562,27.9631,抚州市,血防站,细颗粒物(PM2.5),97,97,79,72,54,50,,,,34,48,20,16,1.4,1.2
2026-01-17T0100,2379A,116.3561,28.0007,抚州市,采茶剧团,细颗粒物(PM2.5),98,101,92,73,65,52,,,,26,44,16,14,1.3,1.3
2026-01-17T0100,2380A,116.3854,27.9648,抚州市,医学分院,细颗粒物(PM2.5),94,112,84,70,49,48,,,,23,28,18,18,1.0,0.9
2026-01-17T0100,2207A,121.6095,41.9978,阜新市,工业园区,,19,11,24,7,12,58,,,,10,10,9,8,0.3,0.4
2026-01-17T0100,2208A,121.6567,42.0188,阜新市,长青街,,20,6,16,6,12,63,,,,6,9,7,7,0.3,0.4
2026-01-17T0100,2209A,121.6672,42.07,阜新市,农业园区,,25,25,23,3,12,61,,,,9,10,10,7,0.3,0.3
2026-01-17T0100,2211A,121.6343,42.0455,阜新市,玉龙新城,,18,14,22,3,9,56,,,,8,10,5,7,0.4,0.4
2026-01-17T0100,2301A,115.8276,32.8929,阜阳市,市监测站,细颗粒物(PM2.5),133,184,146,101,86,25,,,,35,44,5,6,0.8,0.7
2026-01-17T0100,2303A,115.8551,32.8606,阜阳市,开发区,细颗粒物(PM2.5),142,192,145,108,79,24,,,,33,42,4,6,0.8,0.7
2026-01-17T0100,2875A,115.783962,32.889217,阜阳市,阜阳职业技术学院,细颗粒物(PM2.5),134,178,133,102,77,31,,,,23,28,6,8,0.8,0.8
2026-01-17T0100,3468A,115.79,32.8614,阜阳市,市规划展馆,细颗粒物(PM2.5),144,172,137,110,87,28,,,,28,30,6,9,0.9,0.7
2026-01-17T0100,3469A,115.835101,32.918568,阜阳市,枣园社区,细颗粒物(PM2.5),145,190,144,111,90,25,,,,29,42,4,7,0.9,0.8
2026-01-17T0100,2669A,102.9097,34.9841,甘南藏族自治州,州政府,细颗粒物(PM2.5),60,57,52,43,29,5,,,,47,33,16,10,1.5,0.9
2026-01-17T0100,3380A,102.8915,34.9618,甘南藏族自治州,甘肃民族师范学院,颗粒物(PM10),64,77,63,21,17,5,,,,57,36,10,12,0.4,0.3
2026-01-17T0100,2570A,101.96,30.048,甘孜藏族自治州,水桥子,,23,23,27,9,12,37,,,,25,25,6,6,0.4,0.6
2026-01-17T0100,3065A,101.9534,29.9976,甘孜藏族自治州,州环保局,,20,19,25,9,10,62,,,,9,13,6,6,0.5,0.6
2026-01-17T0100,2363A,114.9368,25.8663,赣州市,地委,细颗粒物(PM2.5),75,87,70,55,47,17,,,,58,49,8,11,1.1,1
2026-01-17T0100,2364A,114.946,25.8483,赣州市,气象台,颗粒物(PM10),81,111,90,54,46,4,,,,108,81,4,7,0.8,0.7
2026-01-17T0100,2365A,114.932,25.8332,赣州市,市图书馆,细颗粒物(PM2.5),83,110,93,61,50,9,,,,91,72,6,9,1.6,1.2
2026-01-17T0100,2366A,114.8905,25.8472,赣州市,华坚鞋城,"颗粒物(PM10),细颗粒物(PM2.5)",89,128,100,66,53,6,,,,100,70,11,13,0.9,0.8
2026-01-17T0100,3109A,115.0094,25.8614,赣州市,赣县区卫计委,细颗粒物(PM2.5),69,62,76,50,56,25,,,,44,42,7,7,1.0,0.9
2026-01-17T0100,2684A,106.2753,36.0057,固原市,监测站,颗粒物(PM10),63,75,99,30,35,66,,,,12,20,5,6,0.5,0.6
2026-01-17T0100,2685A,106.2384,36.0189,固原市,新区,颗粒物(PM10),60,69,102,32,30,63,,,,14,24,3,4,0.5,0.5
2026-01-17T0100,2544A,106.6307,30.4577,广安市,市委,细颗粒物(PM2.5),260,,171,210,163,10,,,,46,36,9,10,1.5,1.3
2026-01-17T0100,2545A,106.6266,30.4662,广安市,友谊中学,细颗粒物(PM2.5),224,183,155,174,143,5,,,,34,32,7,7,1.6,1.5
2026-01-17T0100,2547A,106.6386,30.4551,广安市,广电花园,细颗粒物(PM2.5),229,222,152,179,157,4,,,,35,32,8,9,1.3,1.1
2026-01-17T0100,2902A,106.6347,30.4868,广安市,北辰小学,细颗粒物(PM2.5),216,171,149,166,140,9,,,,27,24,6,7,1.3,1.2
2026-01-17T0100,2524A,105.8211,32.4444,广元市,老城,颗粒物(PM10),59,68,100,41,62,5,,,,62,58,2,16,0.7,1.3
2026-01-17T0100,2526A,105.8629,32.429,广元市,监测站,细颗粒物(PM2.5),74,81,91,54,61,10,,,,45,43,7,13,0.9,1.1
2026-01-17T0100,3617A,105.8047,32.4167,广元市,经开区,细颗粒物(PM2.5),73,94,100,53,67,1,,,,56,51,7,13,1.3,1.4
2026-01-17T0100,1345A,113.2346,23.1423,广州市,广雅中学,细颗粒物(PM2.5),137,176,155,104,86,9,,,,161,138,3,4,1.1,1.4
2026-01-17T0100,1346A,113.2611,23.105,广州市,市五中,"二氧化氮(NO2),细颗粒物(PM2.5)",97,119,118,72,75,5,,,,194,132,9,9,/,/
2026-01-17T0100,1348A,113.3477,23.0916,广州市,广东商学院,细颗粒物(PM2.5),77,85,109,56,77,8,,,,140,118,8,8,0.8,0.9
2026-01-17T0100,1349A,113.4332,23.105,广州市,市八十六中,二氧化氮(NO2),65,68,101,41,67,14,,,,130,133,9,10,/,/
2026-01-17T0100,1350A,113.3506,22.9488,广州市,番禺中学,颗粒物(PM10),56,62,106,35,60,70,,,,53,85,4,7,0.8,1
2026-01-17T0100,1351A,113.2147,23.3918,广州市,花都师范,细颗粒物(PM2.5),108,135,132,81,77,6,,,,183,103,8,8,1.2,0.9
2026-01-17T0100,1352A,113.2599,23.1329,广州市,市监测站,细颗粒物(PM2.5),130,186,160,99,87,2,,,,189,132,2,3,/,/
2026-01-17T0100,1353A,113.5618,23.3119,广州市,九龙镇镇龙,细颗粒物(PM2.5),97,141,115,72,64,0,,,,105,70,4,6,0.8,0.7
2026-01-17T0100,1354A,113.2764,23.1544,广州市,麓湖,细颗粒物(PM2.5),104,116,107,78,69,2,,,,193,118,9,10,0.9,0.7
2026-01-17T0100,2846A,113.3209,23.1323,广州市,体育西,二氧化氮(NO2),83,112,131,58,77,7,,,,165,113,7,7,1.1,1.1
2026-01-17T0100,3298A,113.5718,23.5493,广州市,从化街口,细颗粒物(PM2.5),125,150,98,95,66,1,,,,108,63,10,11,1.2,0.9
2026-01-17T0100,3299A,113.3463,23.369,广州市,白云竹料,细颗粒物(PM2.5),115,166,130,87,76,7,,,,126,83,4,5,1.2,1
2026-01-17T0100,3300A,113.2981,23.2365,广州市,白云嘉禾,细颗粒物(PM2.5),110,145,132,83,75,9,,,,173,107,6,7,/,/
2026-01-17T0100,3301A,113.4256,23.1716,广州市,黄埔科学城,细颗粒物(PM2.5),87,109,110,64,70,20,,,,114,80,5,6,1.0,0.9
2026-01-17T0100,3302A,113.3942,23.0485,广州市,番禺大学城,颗粒物(PM10),69,88,140,36,55,59,,,,74,86,11,12,0.6,0.7
2026-01-17T0100,3303A,113.4923,22.8169,广州市,南沙黄阁,,38,28,84,24,50,47,,,,75,80,7,9,/,/
2026-01-17T0100,3304A,113.534,22.7893,广州市,南沙街,颗粒物(PM10),52,54,88,27,44,31,,,,74,57,4,5,0.6,0.6
2026-01-17T0100,3443A,113.2905,23.5541,广州市,花都梯面,细颗粒物(PM2.5),64,76,94,46,56,11,,,,81,62,4,6,/,/
2026-01-17T0100,3445A,113.786,23.7479,广州市,从化良口,细颗粒物(PM2.5),65,61,54,47,44,67,,,,36,27,8,8,/,/
2026-01-17T0100,3446A,113.805,23.2614,广州市,增城荔城,细颗粒物(PM2.5),77,89,72,56,50,45,,,,45,35,5,8,0.8,0.6
2026-01-17T0100,2506A,109.604387,23.066791,贵港市,江南子站,细颗粒物(PM2.5),150,173,142,115,81,27,,,,41,42,10,10,1.2,1.1
2026-01-17T0100,2508A,109.5669,23.1065,贵港市,荷城子站,细颗粒物(PM2.5),160,149,106,122,74,41,,,,32,47,12,9,1.2,1.1
2026-01-17T0100,3405A,109.5886,23.1172,贵港市,新世纪学校,细颗粒物(PM2.5),175,173,117,132,80,39,,,,29,37,/,/,0.9,0.7
2026-01-17T0100,4260A,109.5933,23.095,贵港市,中山路155-3号,细颗粒物(PM2.5),163,174,112,124,78,32,,,,39,44,/,/,1.0,0.9
2026-01-17T0100,1439A,106.6863,26.6035,贵阳市,马鞍山,细颗粒物(PM2.5),185,158,86,139,79,7,,,,30,23,4,10,/,/
2026-01-17T0100,1441A,106.6241,26.6266,贵阳市,鉴湖路,细颗粒物(PM2.5),178,163,94,134,71,22,,,,45,24,17,11,1.0,0.8
2026-01-17T0100,1442A,106.7468,26.6344,贵阳市,燕子冲,细颗粒物(PM2.5),147,122,88,112,79,25,,,,32,26,6,11,1.0,0.8
2026-01-17T0100,1443A,106.6556,26.4362,贵阳市,碧云窝,细颗粒物(PM2.5),140,144,100,107,74,11,,,,30,26,15,18,/,/
2026-01-17T0100,1445A,106.6963,26.6063,贵阳市,红边门,细颗粒物(PM2.5),170,136,95,129,76,23,,,,42,30,34,20,/,/
2026-01-17T0100,1446A,106.7162383,26.56964667,贵阳市,新华路,细颗粒物(PM2.5),160,156,103,122,75,23,,,,41,34,11,15,1.0,0.9
2026-01-17T0100,1447A,106.6742,26.542,贵阳市,太慈桥,细颗粒物(PM2.5),134,124,86,102,70,33,,,,40,34,4,7,/,/
2026-01-17T0100,4230A,106.688212,26.56952,贵阳市,花果园大街66号,细颗粒物(PM2.5),195,,88,146,92,36,,,,36,33,9,10,/,/
2026-01-17T0100,4231A,106.687268,26.516892,贵阳市,漓江路57号,细颗粒物(PM2.5),149,146,93,114,75,12,,,,48,36,15,16,1.1,1
2026-01-17T0100,1864A,110.3091,25.2705,桂林市,龙隐路小学,细颗粒物(PM2.5),127,102,114,96,92,4,,,,31,35,13,18,0.8,1
2026-01-17T0100,1865A,110.2849361,25.22909545,桂林市,八中,细颗粒物(PM2.5),128,124,117,97,94,8,,,,37,47,13,14,1.1,1
2026-01-17T0100,3531A,110.296,25.1254,桂林市,旅游学院,细颗粒物(PM2.5),119,114,101,90,82,5,,,,39,40,6,7,0.6,0.5
2026-01-17T0100,4222A,110.1835,25.2444,桂林市,环湖路276号,细颗粒物(PM2.5),134,127,127,102,106,0,,,,48,53,11,24,1.1,1
2026-01-17T0100,4301A,110.2803,25.2773,桂林市,信义路13号,细颗粒物(PM2.5),114,118,113,86,91,0,,,,42,47,14,17,1.6,1.4
2026-01-17T0100,2674A,100.2262,34.4854,果洛藏族自治州,玛沁县大武镇,,35,35,40,6,10,37,,,,12,8,17,17,0.4,0.4
2026-01-17T0100,1130A,126.5557,45.8109,哈尔滨市,松北商大,细颗粒物(PM2.5),64,64,62,46,49,31,,,,27,32,6,7,0.7,0.7
2026-01-17T0100,1132A,126.6162,45.719,哈尔滨市,南岗学府路,细颗粒物(PM2.5),58,58,77,41,60,37,,,,22,32,9,14,0.8,1
2026-01-17T0100,1133A,126.6894,45.7733,哈尔滨市,太平宏伟公园,细颗粒物(PM2.5),57,50,54,40,40,39,,,,24,28,11,22,0.8,0.8
2026-01-17T0100,1134A,126.6361,45.7672,哈尔滨市,道外承德广场,"颗粒物(PM10),细颗粒物(PM2.5)",63,76,75,45,44,24,,,,42,37,10,17,0.6,0.6
2026-01-17T0100,1136A,126.644,45.7261,哈尔滨市,动力和平路,细颗粒物(PM2.5),59,64,72,42,56,32,,,,26,36,14,21,0.6,0.8
2026-01-17T0100,1137A,126.5933,45.7479,哈尔滨市,道里建国路,细颗粒物(PM2.5),80,63,63,59,58,18,,,,42,37,17,18,0.6,0.6
2026-01-17T0100,1138A,126.6127,45.6119,哈尔滨市,平房东轻厂,细颗粒物(PM2.5),77,66,70,56,60,15,,,,45,45,3,5,1.0,1.1
2026-01-17T0100,1139A,126.5875,45.9827,哈尔滨市,呼兰师专,细颗粒物(PM2.5),94,70,72,70,71,20,,,,34,28,10,10,0.8,0.8
2026-01-17T0100,1140A,126.6299,45.6799,哈尔滨市,省农科院,细颗粒物(PM2.5),78,67,92,57,75,24,,,,33,45,12,15,0.8,0.9
2026-01-17T0100,4282A,126.6769,45.7379,哈尔滨市,华山路1号,细颗粒物(PM2.5),62,58,60,44,47,22,,,,39,40,21,27,0.8,0.8
2026-01-17T0100,4283A,126.9717,45.5356,哈尔滨市,解放大街52号,细颗粒物(PM2.5),145,119,117,111,115,25,,,,35,36,13,17,1.4,1.4
2026-01-17T0100,2688A,93.5124,42.8176,哈密市,地区监测站,细颗粒物(PM2.5),87,92,112,64,48,9,,,,37,24,1,2,0.8,0.4
2026-01-17T0100,2689A,93.5014,42.8312,哈密市,哈密师范学校,颗粒物(PM10),83,116,109,37,33,2,,,,57,32,2,2,1.4,0.6
2026-01-17T0100,2671A,100.9016,36.9464,海北藏族自治州,海晏县西海镇,,19,19,25,12,12,58,,,,4,3,8,7,0.3,0.4
2026-01-17T0100,3867A,102.074,36.5056,海东市,平安区公安局北苑,,37,37,70,16,25,5,,,,53,22,10,14,0.8,0.9
2026-01-17T0100,4163A,102.0984,36.5119,海东市,滨河路,,34,34,79,16,27,6,,,,65,36,8,15,0.8,0.9
2026-01-17T0100,1410A,110.3189,20.0596,海口市,海南大学,,44,44,37,27,22,119,,,,9,10,6,6,0.4,0.3
2026-01-17T0100,1411A,110.2827,20.0051,海口市,秀英海南医院,,38,34,39,26,22,108,,,,11,15,7,7,0.4,0.3
2026-01-17T0100,1412A,110.3391,19.9979,海口市,海南师范大学,,46,34,36,32,22,103,,,,16,13,6,6,0.7,0.7
2026-01-17T0100,1413A,110.3303,20.0359,海口市,龙华路环保局宿舍,,38,33,37,26,22,117,,,,11,11,/,/,0.7,0.7
2026-01-17T0100,3539A,110.5111,19.9737,海口市,桂林洋子站,"颗粒物(PM10),细颗粒物(PM2.5)",54,57,35,38,22,89,,,,15,11,/,/,/,/
2026-01-17T0100,4134A,110.1952,20.0451,海口市,长滨二路9号,,46,32,33,32,24,96,,,,13,13,/,/,/,/
2026-01-17T0100,2673A,100.6158,36.2985,海南藏族自治州,共和县恰卜恰镇,,23,23,36,3,12,50,,,,12,19,14,11,0.5,0.5
2026-01-17T0100,2676A,97.373,37.376,海西蒙古族藏族自治州,德令哈市,,26,19,32,13,12,83,,,,2,5,10,10,0.5,0.6
2026-01-17T0100,1049A,114.492,36.5712,邯郸市,矿院,细颗粒物(PM2.5),94,87,131,70,101,39,,,,30,38,3,2,0.7,0.9
2026-01-17T0100,1050A,114.4839,36.6136,邯郸市,丛台公园,细颗粒物(PM2.5),98,109,144,73,97,35,,,,34,37,4,4,0.7,0.8
2026-01-17T0100,3458A,114.7893,36.5592,邯郸市,香泉濮院小区,细颗粒物(PM2.5),83,64,142,61,95,33,,,,29,35,3,3,0.7,0.8
2026-01-17T0100,3580A,114.1998,36.4439,邯郸市,峰峰矿区临水派出所,细颗粒物(PM2.5),113,,120,85,109,49,,,,19,32,7,8,0.8,1
2026-01-17T0100,4068A,114.5209,36.7697,邯郸市,建安街268号,细颗粒物(PM2.5),127,112,132,96,101,5,,,,60,39,3,3,0.9,0.7
2026-01-17T0100,4069A,114.5488,36.6177,邯郸市,丛台东路558号,细颗粒物(PM2.5),118,109,129,89,102,4,,,,59,36,3,2,0.9,0.8
2026-01-17T0100,2635A,107.0155,33.0707,汉中市,市监测站,细颗粒物(PM2.5),206,189,128,156,102,10,,,,56,47,6,7,1.7,1.4
2026-01-17T0100,2636A,107.0083,33.114,汉中市,鑫源开发区,细颗粒物(PM2.5),127,108,106,96,84,18,,,,62,50,11,9,1.4,1.1
2026-01-17T0100,2637A,107.0072,33.0323,汉中市,南郑大河坎水厂,细颗粒物(PM2.5),143,176,130,109,92,25,,,,23,38,3,6,1.1,1.2
2026-01-17T0100,1223A,120.2073,30.2111,杭州市,滨江,细颗粒物(PM2.5),185,198,144,139,100,3,,,,122,89,8,8,1.1,0.8
2026-01-17T0100,1224A,120.0625,30.2737,杭州市,西溪,细颗粒物(PM2.5),75,96,94,55,62,0,,,,37,50,8,9,1.1,1.1
2026-01-17T0100,1226A,120.3417,30.315,杭州市,下沙,细颗粒物(PM2.5),230,279,180,180,122,11,,,,112,104,9,11,1.2,1
2026-01-17T0100,1227A,120.1252,30.2465,杭州市,卧龙桥,细颗粒物(PM2.5),107,112,96,80,68,19,,,,43,62,8,9,0.5,0.6
2026-01-17T0100,1228A,120.1902,30.2691,杭州市,浙江农大,细颗粒物(PM2.5),192,210,152,144,107,1,,,,132,103,7,8,1.2,1
2026-01-17T0100,1230A,120.1195,30.3121,杭州市,和睦小学,细颗粒物(PM2.5),145,204,144,111,85,2,,,,113,75,6,7,1.5,1.1
2026-01-17T0100,1231A,120.3076,30.4146,杭州市,临平镇,细颗粒物(PM2.5),219,221,167,169,119,46,,,,63,82,8,10,0.8,0.8
2026-01-17T0100,1232A,120.2753,30.1839,杭州市,城厢镇,细颗粒物(PM2.5),209,227,144,159,99,0,,,,145,101,11,11,1.2,1.1
2026-01-17T0100,1233A,120.0883,30.1808,杭州市,云栖,细颗粒物(PM2.5),110,115,107,83,71,49,,,,36,56,4,4,0.8,0.8
2026-01-17T0100,3557A,119.9463,30.0496,杭州市,镇二中,细颗粒物(PM2.5),110,104,88,83,70,1,,,,79,69,5,7,1.2,1.1
2026-01-17T0100,3558A,119.7184,30.2367,杭州市,市府大楼,细颗粒物(PM2.5),132,157,124,100,78,19,,,,41,45,11,12,1.2,1
2026-01-17T0100,3656A,120.1554,30.2863,杭州市,消防大队,细颗粒物(PM2.5),160,171,138,122,102,0,,,,118,85,8,8,1.2,1.1
2026-01-17T0100,1270A,117.1957,31.7845,合肥市,明珠广场,细颗粒物(PM2.5),211,246,113,161,69,32,,,,51,67,8,10,1.2,0.7
2026-01-17T0100,1271A,117.307,31.8765,合肥市,三里街,细颗粒物(PM2.5),230,259,117,180,77,55,,,,40,60,7,9,1.3,0.9
2026-01-17T0100,1272A,117.2587,31.8703,合肥市,琥珀山庄,细颗粒物(PM2.5),192,266,116,144,69,59,,,,39,56,9,10,1.2,0.9
2026-01-17T0100,1275A,117.2593,31.9376,合肥市,庐阳区,细颗粒物(PM2.5),230,278,124,180,70,60,,,,44,62,5,9,1.4,0.9
2026-01-17T0100,1276A,117.345251,31.861615,合肥市,瑶海区,细颗粒物(PM2.5),233,266,117,183,71,62,,,,44,60,7,10,1.2,0.8
2026-01-17T0100,1277A,117.3033,31.7967,合肥市,包河区,细颗粒物(PM2.5),225,241,113,175,76,47,,,,53,85,11,14,1.4,1
2026-01-17T0100,1278A,117.278,31.7392,合肥市,滨湖新区,细颗粒物(PM2.5),223,241,113,173,80,53,,,,46,55,7,9,1.1,0.8
2026-01-17T0100,1279A,117.1324,31.8395,合肥市,高新区,细颗粒物(PM2.5),209,249,108,159,66,23,,,,55,47,6,8,1.2,0.8
2026-01-17T0100,3464A,117.3802,31.9148,合肥市,高教基地,细颗粒物(PM2.5),289,271,118,239,82,62,,,,33,52,10,12,1.3,0.8
2026-01-17T0100,4098A,117.2518,31.8404,合肥市,中国科学技术大学,细颗粒物(PM2.5),221,251,109,171,70,53,,,,45,58,10,11,1.3,0.9
2026-01-17T0100,3614A,79.9241,37.0878,和田地区,地区环保局,颗粒物(PM10),500,876,354,134,46,47,,,,19,13,3,3,0.5,0.3
2026-01-17T0100,3615A,79.9132,37.1137,和田地区,市环保局,颗粒物(PM10),500,761,317,100,43,20,,,,19,27,2,3,0.7,0.5
2026-01-17T0100,2517A,108.0496,24.6957,河池市,市环保站,细颗粒物(PM2.5),119,130,110,90,83,3,,,,48,37,3,4,1.4,1.1
2026-01-17T0100,4302A,108.0901,24.6945,河池市,上任中路54号,细颗粒物(PM2.5),105,119,118,79,88,0,,,,47,43,4,6,1.1,1.1
2026-01-17T0100,1697A,114.6962,23.7538,河源市,东埔,细颗粒物(PM2.5),79,83,58,58,40,19,,,,66,50,6,6,1.3,1.2
2026-01-17T0100,1698A,114.6895,23.7232,河源市,老城,颗粒物(PM10),63,75,55,40,33,39,,,,44,31,6,7,0.7,0.7
2026-01-17T0100,3374A,115.5562,35.089,菏泽市,定陶老年大学,细颗粒物(PM2.5),73,92,145,53,77,32,,,,22,25,2,3,0.5,0.6
2026-01-17T0100,4114A,115.4239,35.2593,菏泽市,黄河路600号,细颗粒物(PM2.5),82,100,153,60,87,32,,,,26,29,3,5,0.6,0.7
2026-01-17T0100,4115A,115.5025,35.2727,菏泽市,菏泽市人社局,细颗粒物(PM2.5),77,96,142,56,79,26,,,,16,19,6,4,0.4,0.4
2026-01-17T0100,4184A,115.479691,35.244011,菏泽市,永昌路1号,细颗粒物(PM2.5),85,97,149,63,83,34,,,,20,23,5,4,0.3,0.4
2026-01-17T0100,4193A,115.471542,35.280012,菏泽市,长城路999号,细颗粒物(PM2.5),80,99,147,59,80,31,,,,24,26,12,11,0.8,0.8
2026-01-17T0100,2514A,111.5264,24.4178,贺州市,环保小区,细颗粒物(PM2.5),128,115,109,97,80,17,,,,39,47,8,12,1.1,1
2026-01-17T0100,2515A,111.561,24.4074,贺州市,政协大楼,细颗粒物(PM2.5),138,157,103,105,67,4,,,,53,41,12,21,1.5,1.1
2026-01-17T0100,3534A,111.4744,24.455,贺州市,西湾,细颗粒物(PM2.5),105,119,91,79,68,5,,,,46,47,7,9,1.5,1
2026-01-17T0100,2385A,114.17,35.9019,鹤壁市,市监测站,细颗粒物(PM2.5),114,119,161,86,110,30,,,,31,44,5,8,1.4,1.1
2026-01-17T0100,2386A,114.2953,35.7512,鹤壁市,市交警支队,细颗粒物(PM2.5),103,118,175,77,102,28,,,,30,41,13,6,0.8,1
2026-01-17T0100,2387A,114.2877,35.7302,鹤壁市,迎宾馆,细颗粒物(PM2.5),92,129,187,68,106,34,,,,31,44,6,7,1.0,1.1
2026-01-17T0100,3474A,114.2616,35.6824,鹤壁市,大新区,细颗粒物(PM2.5),90,110,167,67,102,37,,,,31,44,6,7,1.0,1.2
2026-01-17T0100,3596A,114.1573,35.9607,鹤壁市,南山宾馆,细颗粒物(PM2.5),103,126,188,77,109,38,,,,28,42,7,10,1.4,1.2
2026-01-17T0100,2244A,130.2537,47.3416,鹤岗市,哈啤分公司,,25,19,22,17,17,71,,,,3,4,6,6,0.4,0.4
2026-01-17T0100,2245A,130.2683,47.3087,鹤岗市,斯达机电,,38,,22,26,18,64,,,,5,6,5,5,0.5,0.4
2026-01-17T0100,2246A,130.3114,47.3388,鹤岗市,东山纸板厂,,35,,16,24,15,66,,,,4,5,7,7,0.7,0.5
2026-01-17T0100,2263A,127.4832,50.2524,黑河市,交通局,,19,,14,12,13,59,,,,4,9,5,5,0.1,0.2
2026-01-17T0100,2264A,127.5146,50.2339,黑河市,环保局,,18,11,15,8,16,57,,,,7,13,4,6,0.3,0.4
2026-01-17T0100,1074A,115.6839,37.754,衡水市,电机北厂,细颗粒物(PM2.5),67,65,104,48,63,24,,,,33,22,11,7,0.5,0.6
2026-01-17T0100,1075A,115.6303,37.7318,衡水市,市监测站,颗粒物(PM10),53,56,103,35,60,50,,,,22,24,7,5,0.4,0.7
2026-01-17T0100,3188A,115.6684,37.7216,衡水市,市城管局,细颗粒物(PM2.5),63,65,106,45,62,43,,,,24,24,7,6,0.5,0.8
2026-01-17T0100,3459A,115.599,37.5491,衡水市,地表水厂,细颗粒物(PM2.5),55,57,98,39,63,33,,,,28,25,4,4,0.5,0.6
2026-01-17T0100,2457A,112.6209,26.9268,衡阳市,衡阳化工总厂,细颗粒物(PM2.5),115,,116,87,94,33,,,,39,44,27,21,1.3,1.2
2026-01-17T0100,2458A,112.621,26.8957,衡阳市,珠晖区环保局,细颗粒物(PM2.5),103,,126,77,108,57,,,,28,55,9,15,1.1,1.5
2026-01-17T0100,2459A,112.628,26.8654,衡阳市,市委党校,细颗粒物(PM2.5),87,77,117,64,95,75,,,,15,47,15,17,1.1,1.5
2026-01-17T0100,2460A,112.6007,26.8977,衡阳市,市监测站,细颗粒物(PM2.5),83,92,147,61,96,46,,,,34,48,13,15,1.3,1.7
2026-01-17T0100,2461A,112.5658,26.9013,衡阳市,真空机电公司,细颗粒物(PM2.5),112,90,134,84,105,10,,,,44,62,9,17,1.3,1.8
2026-01-17T0100,3399A,112.6703,26.8817,衡阳市,师范学院,细颗粒物(PM2.5),94,77,117,70,83,73,,,,17,37,16,14,1.1,1.2
2026-01-17T0100,3038A,103.3757,23.3679,红河哈尼族彝族自治州,州图书馆,,42,42,36,23,29,42,,,,13,13,7,8,0.6,0.7
2026-01-17T0100,4154A,103.401,23.3561,红河哈尼族彝族自治州,蒙自市朝阳路,,29,28,35,20,26,46,,,,9,14,6,7,0.5,0.6
2026-01-17T0100,1090A,111.6506,40.7517,呼和浩特市,呼市一监,,24,24,27,13,16,21,,,,41,18,7,8,1.0,0.4
2026-01-17T0100,1094A,111.7516,40.8369,呼和浩特市,如意水处理厂,,28,27,27,13,12,12,,,,55,20,10,9,0.5,0.3
2026-01-17T0100,1095A,111.727798,40.806187,呼和浩特市,二十九中,,26,26,25,13,12,14,,,,51,17,13,11,0.7,0.4
2026-01-17T0100,1097A,111.717,40.7617,呼和浩特市,化肥厂生活区,,25,25,32,12,14,28,,,,37,20,5,6,0.8,0.4
2026-01-17T0100,3699A,111.6519,40.8389,呼和浩特市,海东办,"颗粒物(PM10),细颗粒物(PM2.5)",52,53,30,36,17,5,,,,53,20,6,6,0.7,0.4
2026-01-17T0100,4275A,111.591512,40.827312,呼和浩特市,成吉思汗西街8号,,34,34,36,21,16,22,,,,36,21,6,10,0.5,0.3
2026-01-17T0100,4276A,111.6597,40.8077,呼和浩特市,公园东路75号,,29,29,28,19,16,21,,,,49,21,7,7,0.6,0.4
2026-01-17T0100,4277A,111.5427,40.7846,呼和浩特市,金海路35号,颗粒物(PM10),52,54,37,22,19,19,,,,44,24,11,15,0.7,0.5
2026-01-17T0100,3061A,119.7511,49.1576,呼伦贝尔市,国华电力东,,32,32,27,18,20,59,,,,13,18,5,3,0.3,0.4
2026-01-17T0100,4279A,119.7569,49.2222,呼伦贝尔市,伊敏大街东7号,,29,22,27,20,22,58,,,,6,12,7,8,0.1,0.1
2026-01-17T0100,1250A,120.075,30.867,湖州市,城西水厂,细颗粒物(PM2.5),156,165,146,119,113,10,,,,122,93,8,10,1.1,0.9
2026-01-17T0100,2873A,120.083,30.8929,湖州市,仁皇山新区,细颗粒物(PM2.5),148,143,134,113,104,43,,,,73,84,6,9,1.2,1
2026-01-17T0100,2907A,120.1846,30.8592,湖州市,吴兴区站,细颗粒物(PM2.5),173,197,166,131,109,49,,,,100,86,10,12,0.3,0.3
2026-01-17T0100,3562A,120.4146,30.8538,湖州市,南浔区站,细颗粒物(PM2.5),180,185,150,136,112,17,,,,98,65,9,11,1.2,1.1
2026-01-17T0100,1607A,120.904878,40.721091,葫芦岛市,龙港区,,18,16,35,7,14,57,,,,12,14,22,14,0.5,0.5
2026-01-17T0100,1608A,120.8382,40.7521,葫芦岛市,化工街,,20,19,34,14,14,54,,,,11,13,10,14,0.4,0.4
2026-01-17T0100,1609A,120.8339,40.7078,葫芦岛市,新区,,20,20,28,9,14,55,,,,12,14,12,13,0.5,0.5
2026-01-17T0100,1610A,120.8697,40.7679,葫芦岛市,东城区,,21,21,28,10,14,55,,,,16,16,20,16,0.7,0.5
2026-01-17T0100,2483A,109.9297,27.5383,怀化市,河西地税局,细颗粒物(PM2.5),127,112,119,96,98,0,,,,25,38,2,5,/,/
2026-01-17T0100,2484A,109.9783,27.5342,怀化市,市四医院,细颗粒物(PM2.5),158,156,140,120,108,0,,,,44,39,6,7,1.4,1.2
2026-01-17T0100,2485A,109.9971,27.5579,怀化市,监测楼,细颗粒物(PM2.5),162,133,133,123,116,0,,,,35,33,4,7,1.0,0.9
2026-01-17T0100,1210A,119.0566,33.5991,淮安市,钵池山,细颗粒物(PM2.5),149,146,196,114,165,41,,,,22,44,7,11,0.8,1.2
2026-01-17T0100,1211A,119.0083,33.578,淮安市,北京南路,细颗粒物(PM2.5),133,139,198,101,166,38,,,,20,43,6,12,0.8,1.2
2026-01-17T0100,1212A,118.9938,33.6083,淮安市,市监测站,细颗粒物(PM2.5),140,134,190,107,153,37,,,,22,45,8,15,1.0,1.4
2026-01-17T0100,1213A,119.135,33.5038,淮安市,楚州区监测站,细颗粒物(PM2.5),135,149,202,103,167,41,,,,17,40,8,11,1.0,1.3
2026-01-17T0100,3426A,118.8757,33.2897,淮安市,新华书店,细颗粒物(PM2.5),150,162,204,115,166,39,,,,22,50,8,11,0.8,1
2026-01-17T0100,4092A,119.119691,33.550006,淮安市,枚皋中路89号,细颗粒物(PM2.5),137,159,224,104,175,44,,,,19,37,9,14,1.4,1.7
2026-01-17T0100,4206A,119.028838,33.631911,淮安市,承德北路606号,细颗粒物(PM2.5),138,153,222,105,167,41,,,,21,48,6,12,0.8,1.3
2026-01-17T0100,2282A,116.8005,33.9749,淮北市,监测站,颗粒物(PM10),105,160,176,69,105,54,,,,18,37,5,9,0.6,0.8
2026-01-17T0100,2283A,116.8094,33.9008,淮北市,烈山区政府,细颗粒物(PM2.5),99,134,168,74,100,52,,,,16,34,4,10,0.5,0.7
2026-01-17T0100,4017A,116.7926,33.9534,淮北市,市博物馆,颗粒物(PM10),104,158,185,73,103,,,,,22,39,4,8,0.9,1
2026-01-17T0100,4100A,116.8322,33.9884,淮北市,杜集区第一实验学校,细颗粒物(PM2.5),94,134,183,70,103,54,,,,18,33,6,11,0.9,0.9
2026-01-17T0100,2277A,116.8304,32.7726,淮南市,潘集区政府,细颗粒物(PM2.5),214,232,170,164,104,34,,,,31,39,5,12,1.3,1
2026-01-17T0100,2279A,116.8569,32.5949,淮南市,谢家集区政府,细颗粒物(PM2.5),189,229,142,142,83,42,,,,33,41,8,13,1.1,0.8
2026-01-17T0100,2280A,116.8279,32.6333,淮南市,八公山区政府,细颗粒物(PM2.5),206,236,144,156,85,42,,,,31,31,6,9,1.1,0.8
2026-01-17T0100,2894A,117.0561,32.6536,淮南市,经济技术开发区消防队,细颗粒物(PM2.5),199,215,149,149,91,40,,,,37,43,5,9,1.1,0.8
2026-01-17T0100,3329A,117.011,32.5891,淮南市,山南新区,细颗粒物(PM2.5),207,253,161,157,90,45,,,,36,37,3,7,1.2,0.9
2026-01-17T0100,4209A,117.003137,32.644456,淮南市,国庆中路369号,细颗粒物(PM2.5),210,212,132,160,92,36,,,,31,38,10,14,1.2,0.9
2026-01-17T0100,2446A,114.9021,30.474,黄冈市,职工中心,细颗粒物(PM2.5),115,127,94,87,72,40,,,,26,31,7,10,1.1,1.1
2026-01-17T0100,2929A,114.8858,30.4519,黄冈市,红卫路,细颗粒物(PM2.5),132,128,92,100,75,38,,,,26,31,8,11,0.6,0.6
2026-01-17T0100,3398A,114.9134,30.4446,黄冈市,市林业局,细颗粒物(PM2.5),114,148,101,86,76,58,,,,31,38,4,6,0.9,0.9
2026-01-17T0100,2672A,102.02,35.5101,黄南藏族自治州,同仁县隆务镇,,23,23,34,12,12,56,,,,3,5,10,11,0.4,0.5
2026-01-17T0100,2295A,118.2905,29.6965,黄山市,延安路89号,细颗粒物(PM2.5),58,50,48,41,31,13,,,,32,21,4,4,0.7,0.7
2026-01-17T0100,2297A,118.1369,30.2755,黄山市,黄山区政府5号楼,细颗粒物(PM2.5),235,185,70,185,53,42,,,,17,14,2,3,1.3,0.7
2026-01-17T0100,4210A,118.335445,29.720283,黄山市,滨江东路7-2号,细颗粒物(PM2.5),77,69,71,56,48,20,,,,20,27,/,/,/,/
2026-01-17T0100,2423A,115.0547,30.2332,黄石市,沈家营,细颗粒物(PM2.5),142,166,141,108,92,11,,,,81,63,6,7,1.4,1.5
2026-01-17T0100,2426A,114.899,30.211,黄石市,铁山,细颗粒物(PM2.5),119,145,123,90,107,32,,,,48,50,10,12,0.7,0.7
2026-01-17T0100,2427A,115.0259,30.2108,黄石市,团城山,细颗粒物(PM2.5),156,166,136,119,105,30,,,,69,63,9,9,1.0,1.2
2026-01-17T0100,3149A,115.0174,30.1591,黄石市,笔架山北路,细颗粒物(PM2.5),163,200,165,124,101,19,,,,58,37,10,16,1.4,1.3
2026-01-17T0100,4185A,115.078022,30.21118,黄石市,磁湖东路29号,细颗粒物(PM2.5),159,179,151,121,115,13,,,,68,75,9,11,1.6,1.7
2026-01-17T0100,1392A,114.4181,23.0528,惠州市,河南岸金山湖子站,颗粒物(PM10),61,72,66,39,40,58,,,,34,37,4,6,0.7,0.8
2026-01-17T0100,1393A,114.4055,23.0824,惠州市,下埔横江三路子站,颗粒物(PM10),57,63,75,28,41,78,,,,30,43,7,10,0.7,0.8
2026-01-17T0100,1395A,114.4645,22.7832,惠州市,惠阳区承修路船湖子站,,38,38,55,18,30,92,,,,19,35,7,8,0.4,0.6
2026-01-17T0100,1396A,114.5316,22.7423,惠州市,大亚湾管委会子站,颗粒物(PM10),54,58,57,28,29,18,,,,74,45,5,7,0.6,0.6
2026-01-17T0100,3314A,114.4334,22.8134,惠州市,惠阳秋长,,46,46,57,28,31,66,,,,38,32,/,/,/,/
2026-01-17T0100,3452A,114.6521,22.7755,惠州市,大亚湾霞涌,,31,31,46,17,27,80,,,,22,28,/,/,/,/
2026-01-17T0100,4300A,114.4089,23.1147,惠州市,文华一路1号,颗粒物(PM10),53,55,73,29,43,87,,,,29,50,/,/,/,/
2026-01-17T0100,2240A,130.9618,45.2926,鸡西市,环保局,,20,15,24,14,18,57,,,,6,9,7,6,0.2,0.3
2026-01-17T0100,2243A,130.9294,45.2959,鸡西市,第一中学,,32,,21,22,17,55,,,,7,8,4,4,0.4,0.5
2026-01-17T0100,3707A,131.0069,45.2988,鸡西市,欧美日汽修厂,,25,,24,17,19,64,,,,5,10,7,8,0.3,0.3
2026-01-17T0100,2367A,114.9753,27.0803,吉安市,红声器材厂,细颗粒物(PM2.5),80,87,78,59,50,82,,,,21,37,14,12,0.9,0.8
2026-01-17T0100,2369A,114.9903,27.1313,吉安市,市环境监测站,细颗粒物(PM2.5),84,84,72,62,50,84,,,,22,34,17,15,/,/
2026-01-17T0100,2370A,115.009527,27.096792,吉安市,青原区法院,细颗粒物(PM2.5),82,82,86,60,55,74,,,,23,42,15,14,0.8,0.9
2026-01-17T0100,1772A,126.54,43.8622,吉林市,哈达湾,细颗粒物(PM2.5),80,69,69,59,57,44,,,,29,31,8,9,0.9,1.2
2026-01-17T0100,1773A,126.5843,43.8358,吉林市,东局子,细颗粒物(PM2.5),67,61,67,48,61,39,,,,26,35,3,6,1.1,1.2
2026-01-17T0100,1774A,126.5051,43.8243,吉林市,电力学院,细颗粒物(PM2.5),92,78,86,68,79,23,,,,45,38,11,14,1.3,1.2
2026-01-17T0100,1775A,126.6133,43.8971,吉林市,江北,细颗粒物(PM2.5),73,65,105,53,79,35,,,,29,40,7,13,1.1,1.4
2026-01-17T0100,1776A,126.5549,43.8304,吉林市,江南公园,细颗粒物(PM2.5),74,55,68,54,62,41,,,,27,35,8,13,0.8,1
2026-01-17T0100,2868A,126.4737,43.953,吉林市,九站,细颗粒物(PM2.5),85,70,68,63,57,22,,,,49,43,7,7,1.0,0.9
2026-01-17T0100,1299A,116.9866,36.6118,济南市,科干所,颗粒物(PM10),52,53,123,27,60,60,,,,13,28,3,5,0.4,0.7
2026-01-17T0100,1300A,116.9379,36.6652,济南市,农科所,颗粒物(PM10),57,63,133,29,57,45,,,,27,37,5,7,0.6,0.8
2026-01-17T0100,1301A,117.1265,36.6736,济南市,开发区,,49,49,127,27,68,55,,,,21,35,2,3,0.5,0.8
2026-01-17T0100,1303A,117.0616,36.6865,济南市,省种子仓库,颗粒物(PM10),53,56,142,27,68,53,,,,21,31,3,5,0.4,0.8
2026-01-17T0100,1304A,116.9495185,36.644937,济南市,机床二厂,颗粒物(PM10),53,56,126,29,72,53,,,,21,32,3,6,0.3,0.6
2026-01-17T0100,1305A,117.0496,36.6629,济南市,市监测站,颗粒物(PM10),52,54,129,32,69,57,,,,16,29,3,4,0.4,0.7
2026-01-17T0100,1306A,116.7674,36.5458,济南市,长清党校,颗粒物(PM10),56,61,134,27,61,48,,,,22,30,4,6,0.5,0.8
2026-01-17T0100,1961A,117.5323,36.6865,济南市,东山小学,,46,46,154,24,78,52,,,,23,30,2,4,0.2,0.6
2026-01-17T0100,3059A,117.7181,36.205,济南市,泰兴公司,颗粒物(PM10),53,56,156,34,93,48,,,,28,48,2,8,0.6,1.1
2026-01-17T0100,3064A,117.6861,36.2172,济南市,莱芜战役纪念馆,,50,48,150,35,90,54,,,,23,47,4,9,0.5,0.9
2026-01-17T0100,3494A,117.1673,36.9782,济南市,济阳区政府,,42,42,124,20,63,50,,,,14,30,5,7,0.5,0.7
2026-01-17T0100,3495A,117.1168,36.6299,济南市,锦屏中学,,49,49,114,27,58,60,,,,16,28,2,3,0.6,0.8
2026-01-17T0100,4108A,117.7107,36.2385,济南市,山财大街5号,,46,46,138,23,80,56,,,,20,48,6,13,0.5,1.1
2026-01-17T0100,4109A,116.9744,36.6889,济南市,无影山路12号,颗粒物(PM10),53,56,129,26,74,43,,,,21,27,5,6,0.5,0.8
2026-01-17T0100,1653A,116.6229,35.4288,济宁市,火炬城,细颗粒物(PM2.5),77,83,167,56,106,47,,,,21,33,3,4,0.6,0.9
2026-01-17T0100,3500A,116.5808,35.3703,济宁市,北湖一中,颗粒物(PM10),73,96,159,52,102,46,,,,22,34,5,9,0.7,0.9
2026-01-17T0100,3501A,116.8251,35.5592,济宁市,服务中心,颗粒物(PM10),79,107,179,35,92,40,,,,23,45,9,12,0.8,1
2026-01-17T0100,3678A,116.5907,35.4054,济宁市,市第七中学,颗粒物(PM10),71,91,167,48,93,49,,,,21,38,7,10,0.6,1
2026-01-17T0100,4111A,116.6075,35.4566,济宁市,任和路,颗粒物(PM10),79,107,186,47,100,41,,,,23,35,4,7,0.7,1
2026-01-17T0100,4112A,116.5648,35.3921,济宁市,文体南路1号,颗粒物(PM10),81,112,182,47,98,48,,,,20,34,4,6,0.6,0.8
2026-01-17T0100,2255A,130.2749,46.8028,佳木斯市,佳纺,,35,26,37,24,28,51,,,,8,15,5,7,0.5,0.5
2026-01-17T0100,2257A,130.3258,46.7975,佳木斯市,环保局,,42,42,30,18,23,59,,,,11,17,7,8,0.3,0.5
2026-01-17T0100,4285A,130.363,46.806,佳木斯市,顺和街,,29,29,30,16,22,49,,,,11,16,11,11,0.3,0.4
2026-01-17T0100,4286A,130.3952,46.8268,佳木斯市,长安路196号,,41,41,31,20,22,54,,,,10,14,6,6,0.4,0.5
2026-01-17T0100,1252A,120.7439,30.778,嘉兴市,清河小学,细颗粒物(PM2.5),206,195,162,156,125,29,,,,69,60,7,11,0.9,0.8
2026-01-17T0100,1253A,120.7261,30.7477,嘉兴市,嘉兴学院,细颗粒物(PM2.5),172,213,169,130,109,40,,,,60,62,6,10,0.8,0.9
2026-01-17T0100,2872A,120.7845,30.7524,嘉兴市,南湖区残联,细颗粒物(PM2.5),163,134,154,124,119,51,,,,55,61,9,10,0.8,1
2026-01-17T0100,3407A,120.6915,30.7741,嘉兴市,秀洲住建,细颗粒物(PM2.5),192,187,157,144,119,0,,,,108,71,8,12,0.9,0.9
2026-01-17T0100,1945A,98.291,39.7705,嘉峪关市,气象局,颗粒物(PM10),59,68,102,34,32,50,,,,15,27,11,14,0.6,0.6
2026-01-17T0100,2884A,98.2672,39.7978,嘉峪关市,酒钢宾馆,颗粒物(PM10),64,78,118,29,32,45,,,,19,28,12,14,0.9,0.9
2026-01-17T0100,3248A,98.2644,39.7723,嘉峪关市,雄关区,颗粒物(PM10),53,55,75,33,27,40,,,,26,34,14,15,0.8,0.6
2026-01-17T0100,1383A,113.1063,22.6058,江门市,北街,细颗粒物(PM2.5),64,65,93,46,68,91,,,,29,48,/,/,/,/
2026-01-17T0100,1384A,113.073,22.5835,江门市,西区,颗粒物(PM10),57,64,111,30,62,85,,,,39,64,/,/,/,/
2026-01-17T0100,1385A,113.0218,22.531,江门市,圭峰西,细颗粒物(PM2.5),60,54,85,43,65,88,,,,36,34,/,/,/,/
2026-01-17T0100,1386A,113.0826,22.5947,江门市,东湖,细颗粒物(PM2.5),58,64,108,41,63,89,,,,40,55,10,11,0.8,0.9
2026-01-17T0100,3311A,113.1077,22.5647,江门市,江海富民,细颗粒物(PM2.5),88,113,141,65,80,86,,,,44,62,/,/,0.6,0.9
2026-01-17T0100,3449A,113.0496,22.4669,江门市,新会银湖,细颗粒物(PM2.5),88,,86,65,78,26,,,,69,40,7,8,0.5,0.6
2026-01-17T0100,3335A,113.3137,35.2643,焦作市,马村街道办,细颗粒物(PM2.5),87,101,149,64,75,51,,,,21,36,8,11,0.7,0.9
2026-01-17T0100,3336A,113.2464,35.2374,焦作市,焦作技师学院,细颗粒物(PM2.5),77,101,153,56,74,50,,,,22,40,9,14,0.9,1.1
2026-01-17T0100,3477A,113.1656,35.2536,焦作市,中站许衡医院,细颗粒物(PM2.5),78,93,130,57,70,49,,,,27,33,6,9,0.8,0.9
2026-01-17T0100,3981A,113.2456,35.18,焦作市,原李万街道办,细颗粒物(PM2.5),107,143,155,80,78,12,,,,50,40,5,10,0.7,0.8
2026-01-17T0100,4264A,113.234,35.219,焦作市,新安路1731号,,,122,158,68,80,38,,,,26,36,,11,0.7,0.9
2026-01-17T0100,4295A,113.2722,35.2121,焦作市,人民路3066号,颗粒物(PM10),83,115,154,58,72,44,,,,25,44,5,9,0.8,1
2026-01-17T0100,1708A,116.3701,23.5345,揭阳市,新兴,细颗粒物(PM2.5),99,101,78,74,49,28,,,,68,53,11,12,1.0,0.9
2026-01-17T0100,1709A,116.3261,23.5442,揭阳市,西马,细颗粒物(PM2.5),78,97,78,57,42,28,,,,55,37,8,8,0.8,0.7
2026-01-17T0100,1710A,116.361,23.5627,揭阳市,东兴,细颗粒物(PM2.5),94,115,77,70,43,35,,,,55,47,19,13,/,/
2026-01-17T0100,1711A,116.4151,23.5295,揭阳市,渔湖,颗粒物(PM10),76,101,84,50,45,27,,,,67,49,9,8,/,/
2026-01-17T0100,3320A,116.4028,23.5699,揭阳市,曲溪,细颗粒物(PM2.5),69,83,79,50,44,23,,,,83,50,5,8,0.8,0.8
2026-01-17T0100,1944A,102.1691,38.5166,金昌市,天庆家园,颗粒物(PM10),98,146,119,71,39,15,,,,41,23,25,45,1.2,0.8
2026-01-17T0100,4022A,102.1648,38.5369,金昌市,金川区人防中心,颗粒物(PM10),90,129,116,46,32,29,,,,22,19,16,29,1.0,0.9
2026-01-17T0100,4239A,102.193042,38.531887,金昌市,长春路96号,颗粒物(PM10),100,150,119,60,46,20,,,,35,23,27,98,1.3,0.8
2026-01-17T0100,1262A,119.6478,29.0773,金华市,十五中,细颗粒物(PM2.5),92,129,100,68,62,8,,,,94,71,4,5,0.8,0.9
2026-01-17T0100,1263A,119.6859,29.1032,金华市,监测站,细颗粒物(PM2.5),99,125,98,74,59,2,,,,95,73,4,4,0.7,0.7
2026-01-17T0100,3659A,119.656,29.1132,金华市,气象局,颗粒物(PM10),94,138,104,67,58,0,,,,92,78,5,5,0.7,0.7
2026-01-17T0100,1767A,121.1114,41.0879,锦州市,南山,,23,20,25,3,13,73,,,,2,9,7,9,0.4,0.5
2026-01-17T0100,1768A,121.060361,40.842794,锦州市,开发区,,26,26,30,9,17,64,,,,6,13,4,9,0.3,0.4
2026-01-17T0100,1769A,121.1836,41.1118,锦州市,百股街道,,20,16,29,7,15,63,,,,7,11,8,8,0.5,0.6
2026-01-17T0100,1770A,121.1176,41.1224,锦州市,天安街道,,25,19,26,8,14,78,,,,5,10,8,10,0.5,0.6
2026-01-17T0100,1771A,121.1303,41.1385,锦州市,北湖公园,,,,27,,13,,,70,,,8,,9,,0.5
2026-01-17T0100,2160A,112.8496,35.5051,晋城市,自来水公司,"颗粒物(PM10),细颗粒物(PM2.5)",84,118,120,62,43,53,,,,19,37,6,16,0.8,1.3
2026-01-17T0100,2162A,112.8509,35.4886,晋城市,市环保局,颗粒物(PM10),90,129,128,61,52,57,,,,19,38,5,14,0.9,1.4
2026-01-17T0100,3620A,112.8258,35.4804,晋城市,泽州一中,细颗粒物(PM2.5),83,113,130,61,54,58,,,,19,32,6,9,0.7,1
2026-01-17T0100,4078A,112.8246,35.5152,晋城市,前书院路,颗粒物(PM10),87,124,129,52,50,54,,,,19,32,7,10,0.8,1.1
2026-01-17T0100,4079A,112.8864,35.4773,晋城市,祥云街666号,细颗粒物(PM2.5),98,142,125,73,62,54,,,,10,19,5,11,0.7,1.3
2026-01-17T0100,2174A,112.6992,37.6984,晋中市,榆次区政府,细颗粒物(PM2.5),102,132,124,76,52,35,,,,37,46,7,15,0.6,0.7
2026-01-17T0100,2865A,112.7195,37.683,晋中市,榆次三中,细颗粒物(PM2.5),94,129,119,70,38,43,,,,22,35,7,12,0.6,0.7
2026-01-17T0100,4080A,112.7375,37.7215,晋中市,广安街188号,细颗粒物(PM2.5),107,134,125,80,50,36,,,,36,43,8,16,0.6,0.6
2026-01-17T0100,4200A,112.7478,37.6954,晋中市,迎宾街26号,细颗粒物(PM2.5),100,132,120,75,44,44,,,,25,31,7,13,0.7,0.7
2026-01-17T0100,2439A,112.2012,31.048,荆门市,竹园小学,细颗粒物(PM2.5),145,211,133,111,84,79,,,,32,33,3,3,1.1,1.2
2026-01-17T0100,2440A,112.1968,30.9892,荆门市,掇刀,细颗粒物(PM2.5),132,205,128,100,82,76,,,,26,27,6,7,0.6,0.5
2026-01-17T0100,3012A,112.1849,31.0361,荆门市,西山林语,颗粒物(PM10),124,197,120,93,73,78,,,,29,28,8,10,0.7,0.6
2026-01-17T0100,3547A,112.1631,31.0134,荆门市,龙泉中学南校,细颗粒物(PM2.5),134,202,137,102,85,78,,,,,18,8,8,0.8,0.9
2026-01-17T0100,4124A,112.2213,31.0654,荆门市,新台西路6号,细颗粒物(PM2.5),173,229,158,131,120,71,,,,25,38,10,11,0.9,1.1
2026-01-17T0100,1844A,112.2493,30.3198,荆州市,市图书馆,细颗粒物(PM2.5),115,113,117,87,112,,,,,27,41,11,10,1.0,1.1
2026-01-17T0100,1845A,112.2009,30.3543,荆州市,市委党校,细颗粒物(PM2.5),114,152,135,86,109,,,,,38,47,5,6,0.9,1
2026-01-17T0100,3194A,112.2749,30.3124,荆州市,管委会,细颗粒物(PM2.5),115,126,121,87,112,,,,,29,48,10,10,0.9,1
2026-01-17T0100,4268A,112.1722,30.3366,荆州市,学苑路85号,细颗粒物(PM2.5),120,110,142,91,110,,,,,31,34,8,12,1.0,1
2026-01-17T0100,2343A,117.2114,29.2931,景德镇市,老干部活动中心,细颗粒物(PM2.5),79,82,60,58,44,6,,,,44,29,9,8,1.0,0.8
2026-01-17T0100,2344A,117.1893,29.2789,景德镇市,兽医站,颗粒物(PM10),76,101,76,54,45,18,,,,47,36,8,8,1.1,1
2026-01-17T0100,2346A,117.246,29.2958,景德镇市,陶研所,细颗粒物(PM2.5),73,74,65,53,52,4,,,,44,34,5,4,0.6,0.6
2026-01-17T0100,4289A,117.154766,29.256967,景德镇市,青少年活动中心,细颗粒物(PM2.5),83,85,80,61,51,9,,,,54,47,9,10,/,/
2026-01-17T0100,1803A,115.9873,29.6816,九江市,十里,细颗粒物(PM2.5),139,145,127,106,91,27,,,,90,85,14,10,1.5,1.5
2026-01-17T0100,1804A,115.9583,29.7047,九江市,茅山头,细颗粒物(PM2.5),159,161,124,121,86,4,,,,106,80,17,14,1.8,1.4
2026-01-17T0100,1805A,115.9877,29.7295,九江市,西园,细颗粒物(PM2.5),140,143,146,107,103,39,,,,96,118,10,9,1.3,1.4
2026-01-17T0100,1808A,115.9112,29.6038,九江市,综合工业园,细颗粒物(PM2.5),176,144,103,133,85,14,,,,92,80,7,7,0.9,0.8
2026-01-17T0100,3190A,116.0254,29.6995,九江市,外国语学校,细颗粒物(PM2.5),133,133,132,101,94,45,,,,54,84,13,11,1.3,1.4
2026-01-17T0100,4253A,116.010205,29.659402,九江市,莲花大道8号,细颗粒物(PM2.5),93,119,106,69,87,82,,,,14,44,16,7,1.3,0.9
2026-01-17T0100,4240A,98.495752,39.733935,酒泉市,玉门东路5号,颗粒物(PM10),56,61,84,25,28,63,,,,6,17,10,11,0.5,0.6
2026-01-17T0100,4241A,98.5099,39.7506,酒泉市,北大街108号,颗粒物(PM10),51,51,70,21,25,57,,,,11,13,10,11,0.5,0.5
2026-01-17T0100,2698A,76.0071,39.466,喀什地区,巡警大队,颗粒物(PM10),121,192,161,68,65,58,,,,27,39,6,7,0.9,1.3
2026-01-17T0100,2699A,75.9756,39.4693,喀什地区,吾办,颗粒物(PM10),120,189,148,83,65,37,,,,53,37,13,12,1.4,1.3
2026-01-17T0100,4027A,75.9485,39.4688,喀什地区,老干局,颗粒物(PM10),136,221,174,71,49,17,,,,59,29,9,7,1.8,1.2
2026-01-17T0100,1824A,114.3389,34.778,开封市,肿瘤医院,颗粒物(PM10),75,100,157,50,76,50,,,,21,31,4,4,0.7,0.8
2026-01-17T0100,1826A,114.2884,34.7966,开封市,世纪星幼儿园,细颗粒物(PM2.5),78,86,150,57,94,53,,,,17,30,6,6,0.6,0.7
2026-01-17T0100,3147A,114.3434,34.8101,开封市,龙亭公园,细颗粒物(PM2.5),73,92,146,53,93,48,,,,8,24,6,6,0.5,1.1
2026-01-17T0100,3210A,114.3645,34.7955,开封市,汴京公园,细颗粒物(PM2.5),75,86,150,55,86,48,,,,17,32,4,4,0.9,0.9
2026-01-17T0100,3473A,114.2485,34.8306,开封市,技师学院,细颗粒物(PM2.5),83,91,142,61,86,47,,,,18,31,5,6,0.9,1
2026-01-17T0100,3592A,114.4518,34.7503,开封市,祥符区生态环境局,颗粒物(PM10),83,116,185,55,81,42,,,,23,37,4,4,0.7,0.8
2026-01-17T0100,1951A,84.886,45.6029,克拉玛依市,长征新村,,18,16,17,12,11,42,,,,16,10,5,6,0.3,0.3
2026-01-17T0100,1952A,84.8894,45.5827,克拉玛依市,南林小区,,15,15,17,8,9,41,,,,13,8,2,2,0.4,0.4
2026-01-17T0100,1954A,84.896,44.3328,克拉玛依市,独山子区,,32,32,37,10,22,54,,,,22,25,5,5,0.3,0.3
2026-01-17T0100,1955A,85.6888,46.0909,克拉玛依市,乌尔禾区商贸楼,,23,,17,16,8,53,,,,13,15,6,7,0.5,0.4
2026-01-17T0100,3612A,85.1045,45.6895,克拉玛依市,白碱滩区新站,,33,33,25,8,9,48,,,,14,12,8,9,0.2,0.2
2026-01-17T0100,2697A,76.1457,39.7143,克孜勒苏柯尔克孜自治州,市人民政府,颗粒物(PM10),124,198,137,60,54,44,,,,32,22,5,5,0.6,0.6
2026-01-17T0100,3665A,76.1654,39.7157,克孜勒苏柯尔克孜自治州,克州文化中心,颗粒物(PM10),117,183,142,50,48,42,,,,37,22,6,7,0.6,0.9
2026-01-17T0100,1450A,102.8203,24.889,昆明市,呈贡新区,颗粒物(PM10),67,83,34,45,18,0,,,,45,21,8,5,1.0,0.7
2026-01-17T0100,1452A,102.7253,25.0904,昆明市,龙泉镇,颗粒物(PM10),61,72,33,40,18,1,,,,54,30,4,3,0.7,0.4
2026-01-17T0100,1453A,102.7267,25.0378,昆明市,东风东路,颗粒物(PM10),62,73,43,41,23,3,,,,55,28,4,6,0.6,0.4
2026-01-17T0100,1454A,102.6744,25.0671,昆明市,金鼎山,颗粒物(PM10),59,68,34,37,19,2,,,,56,21,5,3,0.9,0.7
2026-01-17T0100,1455A,102.6643,25.0401,昆明市,碧鸡广场,细颗粒物(PM2.5),73,87,35,53,22,2,,,,60,28,7,5,0.7,0.5
2026-01-17T0100,3179A,102.7491,25.012,昆明市,官渡区博物馆,细颗粒物(PM2.5),79,105,40,58,23,2,,,,64,32,4,6,1.0,0.4
2026-01-17T0100,3375A,102.8016,24.8336,昆明市,青年创业园,,41,41,27,22,17,1,,,,49,21,5,5,0.6,0.5
2026-01-17T0100,3550A,102.8,24.9787,昆明市,昆明学院,颗粒物(PM10),67,83,37,46,23,1,,,,59,32,4,6,0.6,0.4
2026-01-17T0100,3551A,102.5969,24.6738,昆明市,晋宁区生态环境分局,颗粒物(PM10),59,68,31,36,21,14,,,,40,14,4,2,0.7,0.5
2026-01-17T0100,3552A,102.6673,24.9861,昆明市,云天化总部,颗粒物(PM10),51,52,30,29,19,3,,,,68,27,8,9,0.3,0.3
2026-01-17T0100,1456A,91.132,29.6515,拉萨市,八廓街,,40,40,20,26,12,24,,,,50,18,8,7,1.0,0.4
2026-01-17T0100,1457A,91.1221,29.6748,拉萨市,市环保局,"颗粒物(PM10),细颗粒物(PM2.5)",62,73,32,44,21,11,,,,56,28,11,9,2.1,1
2026-01-17T0100,1458A,91.0874,29.6476,拉萨市,区监测站,,30,26,15,19,9,21,,,,60,29,5,4,1.5,0.9
2026-01-17T0100,1459A,91.1774,29.6541,拉萨市,西藏大学,,35,35,20,22,11,43,,,,32,18,5,5,0.7,0.7
2026-01-17T0100,1460A,90.9798,29.6586,拉萨市,区辐射站,,48,,36,33,24,42,,,,28,33,4,5,0.6,0.8
2026-01-17T0100,1461A,91.0831,29.6292,拉萨市,拉萨火车站,,25,21,19,17,10,38,,,,37,25,4,4,1.0,0.8
2026-01-17T0100,2520A,109.2203,23.7252,来宾市,来宾技工学校,细颗粒物(PM2.5),137,129,91,104,68,25,,,,30,22,9,9,1.1,0.9
2026-01-17T0100,3535A,109.1781,23.7293,来宾市,兴宾区政府,细颗粒物(PM2.5),93,99,92,69,68,30,,,,33,20,8,7,0.9,0.8
2026-01-17T0100,4002A,109.2312,23.7428,来宾市,中南小学,细颗粒物(PM2.5),125,120,88,95,59,11,,,,45,33,6,6,1.0,0.8
2026-01-17T0100,1479A,103.8309,36.0467,兰州市,铁路设计院,,,,,,,,,,,,,,,,
2026-01-17T0100,3241A,103.7439,36.0841,兰州市,百合公园,颗粒物(PM10),83,116,148,50,50,3,,,,62,64,14,23,1.4,1.5
2026-01-17T0100,3242A,103.9613,35.9985,兰州市,和平,,,,131,,40,,,71,,,29,,17,,1.1
2026-01-17T0100,4236A,103.629272,36.093822,兰州市,庄浪东路808号,颗粒物(PM10),84,117,139,54,54,10,,,,76,56,17,25,1.2,1
2026-01-17T0100,4237A,103.7251,36.104344,兰州市,安宁西路88号,颗粒物(PM10),103,155,162,57,49,1,,,,76,67,14,23,1.3,1
2026-01-17T0100,4238A,103.846982,36.067567,兰州市,北滨河东路1号,颗粒物(PM10),94,137,157,56,53,1,,,,71,73,12,17,1.1,1.4
2026-01-17T0100,1067A,116.6712,39.5109,廊坊市,药材公司,细颗粒物(PM2.5),75,78,80,55,41,10,,,,54,27,4,5,0.9,0.9
2026-01-17T0100,1068A,116.7215,39.5592,廊坊市,开发区,,45,43,81,31,42,19,,,,44,34,2,3,0.5,0.6
2026-01-17T0100,1070A,116.7246,39.5273,廊坊市,北华航天学院,细颗粒物(PM2.5),78,68,90,57,46,12,,,,51,32,4,4,0.7,0.7
2026-01-17T0100,2919A,116.7022,39.5454,廊坊市,河北工业大学,细颗粒物(PM2.5),83,62,88,61,46,13,,,,46,26,3,3,0.7,0.7
2026-01-17T0100,2536A,103.7629,29.5844,乐山市,牛耳桥,细颗粒物(PM2.5),147,139,125,112,107,1,,,,44,44,4,6,1.0,1
2026-01-17T0100,2537A,103.7501,29.6002,乐山市,市第三水厂,细颗粒物(PM2.5),160,152,135,122,111,1,,,,53,49,6,8,1.1,1
2026-01-17T0100,2538A,103.7571,29.5664,乐山市,市监测站,细颗粒物(PM2.5),156,142,136,119,116,3,,,,60,39,6,8,1.2,0.9
2026-01-17T0100,3361A,103.7313,29.563,乐山市,理工大学,细颗粒物(PM2.5),162,149,145,123,122,8,,,,53,40,7,7,0.9,0.8
2026-01-17T0100,2599A,100.2497,26.8802,丽江市,丽江古城,,42,42,30,28,13,53,,,,18,12,10,10,0.6,0.4
2026-01-17T0100,2600A,100.2203,26.8906,丽江市,市中心,,29,28,22,20,11,56,,,,14,12,6,7,0.5,0.4
2026-01-17T0100,1267A,119.9141,28.4513,丽水市,监测站大楼,细颗粒物(PM2.5),62,62,57,44,41,2,,,,61,48,5,6,0.6,0.7
2026-01-17T0100,1268A,119.93,28.4589,丽水市,莲都小学,颗粒物(PM10),54,58,63,28,31,27,,,,48,51,/,/,/,/
2026-01-17T0100,1269A,119.8794,28.4232,丽水市,余庄前,颗粒物(PM10),55,59,56,36,35,1,,,,43,30,4,5,0.5,0.4
2026-01-17T0100,1173A,119.1759,34.5885,连云港市,市环境监测站,颗粒物(PM10),69,88,196,48,149,52,,,,13,28,8,15,0.5,0.9
2026-01-17T0100,3000A,119.3577,34.6971,连云港市,德源药业,颗粒物(PM10),69,88,214,48,136,53,,,,17,40,5,8,0.9,1.3
2026-01-17T0100,3007A,119.178,34.8442,连云港市,新城一中,颗粒物(PM10),67,83,205,28,161,54,,,,19,56,10,13,0.9,1.5
2026-01-17T0100,3008A,119.3607,34.7519,连云港市,胡沟管理处,颗粒物(PM10),59,68,162,34,117,56,,,,16,34,7,12,0.6,1.3
2026-01-17T0100,3009A,119.1478,34.5913,连云港市,矿山设计院,颗粒物(PM10),68,85,203,44,141,56,,,,16,36,5,12,0.7,1.2
2026-01-17T0100,3434A,119.2414,34.6539,连云港市,工贸学校,细颗粒物(PM2.5),69,78,187,50,142,48,,,,14,33,9,15,1.0,1.4
2026-01-17T0100,3664A,119.4171,34.734,连云港市,连云街道,颗粒物(PM10),63,76,186,42,129,42,,,,33,47,4,7,0.7,1.1
2026-01-17T0100,2573A,102.2629,27.8981,凉山彝族自治州,西昌市政府,,38,38,41,26,27,61,,,,11,17,7,10,0.6,0.7
2026-01-17T0100,2574A,102.2686,27.885,凉山彝族自治州,凉山州政府,,50,50,48,28,32,44,,,,20,23,10,11,0.6,0.7
2026-01-17T0100,4229A,102.2342,27.8859,凉山彝族自治州,凯乐南路30号,颗粒物(PM10),53,55,58,35,34,26,,,,45,38,7,9,0.7,0.8
2026-01-17T0100,2212A,123.1978,41.2036,辽阳市,宏伟区,细颗粒物(PM2.5),53,47,58,37,50,50,,,,14,25,6,9,0.3,0.8
2026-01-17T0100,2213A,123.1684,41.2497,辽阳市,新华园,,35,35,56,22,40,42,,,,22,35,8,13,0.2,0.5
2026-01-17T0100,2214A,123.2355,41.2663,辽阳市,滨河路,细颗粒物(PM2.5),67,67,64,48,49,17,,,,42,36,7,9,0.5,0.4
2026-01-17T0100,4083A,123.153,41.2874,辽阳市,铁西路150号,颗粒物(PM10),52,54,56,25,49,30,,,,32,40,8,12,0.8,0.9
2026-01-17T0100,2227A,125.1359,42.8845,辽源市,环保局,细颗粒物(PM2.5),93,93,124,69,62,11,,,,60,43,5,8,1.3,1.1
2026-01-17T0100,4085A,125.0998,42.9134,辽源市,安宁大街333号,细颗粒物(PM2.5),104,81,75,78,70,12,,,,41,31,4,6,1.3,0.9
2026-01-17T0100,1625A,115.9789,36.4372,聊城市,区政府,颗粒物(PM10),60,69,137,36,68,44,,,,28,35,12,13,0.8,1
2026-01-17T0100,3200A,115.9772,36.4986,聊城市,监控中心,细颗粒物(PM2.5),55,51,130,39,77,44,,,,24,30,7,8,0.8,1
2026-01-17T0100,3513A,116.0443,36.436,聊城市,九州社区,颗粒物(PM10),64,77,135,45,73,46,,,,16,17,4,4,0.6,0.7
2026-01-17T0100,4018A,116.0564,36.4609,聊城市,星美广场,颗粒物(PM10),61,71,141,39,70,36,,,,20,24,3,5,0.6,0.8
2026-01-17T0100,4113A,116.0091,36.4495,聊城市,利民路,颗粒物(PM10),55,60,129,33,75,33,,,,28,33,8,10,0.7,1
2026-01-17T0100,2632A,94.3683,29.6373,林芝市,林芝监测站,,18,18,19,11,11,35,,,,18,14,3,4,0.5,0.5
2026-01-17T0100,2633A,94.3616,29.6634,林芝市,林芝人民医院,,24,24,21,10,13,49,,,,16,11,3,2,0.3,0.5
2026-01-17T0100,2603A,100.0779,23.8981,临沧市,市环保局,细颗粒物(PM2.5),70,,36,51,41,41,,,,11,11,4,5,0.6,0.6
2026-01-17T0100,2604A,100.0894,23.882,临沧市,市气象局,,46,35,43,32,29,38,,,,11,12,4,5,0.5,0.5
2026-01-17T0100,1733A,111.5552,36.0791,临汾市,临钢医院,颗粒物(PM10),97,143,141,66,54,5,,,,45,39,7,10,1.8,1.3
2026-01-17T0100,1734A,111.4984,36.0734,临汾市,技工学校,颗粒物(PM10),106,162,161,66,62,0,,,,55,46,10,11,1.4,1.1
2026-01-17T0100,1736A,111.5017,36.0857,临汾市,市委,颗粒物(PM10),105,159,156,70,56,1,,,,57,48,11,14,1.6,1.4
2026-01-17T0100,3018A,111.5048,36.1015,临汾市,唐尧大酒店,"颗粒物(PM10),细颗粒物(PM2.5)",89,128,152,66,61,2,,,,56,52,6,10,1.5,1.2
2026-01-17T0100,4244A,111.4879,36.053,临汾市,启星学校,"颗粒物(PM10),细颗粒物(PM2.5)",104,157,147,78,63,1,,,,72,55,9,12,1.7,1.4
2026-01-17T0100,4271A,103.2464,35.6123,临夏回族自治州,滨河东路1号,颗粒物(PM10),121,191,192,79,71,11,,,,41,37,9,10,1.4,1.3
2026-01-17T0100,4310A,103.207136,35.599807,临夏回族自治州,新华街21号,细颗粒物(PM2.5),127,141,159,96,71,4,,,,42,35,12,13,1.7,1.5
2026-01-17T0100,1618A,118.3429,35.0532,临沂市,沂河小区,,48,48,223,33,180,52,,,,19,48,10,15,0.5,1.2
2026-01-17T0100,1619A,118.2962,35.0568,临沂市,鲁南制药厂,,39,39,225,26,166,55,,,,12,49,9,17,0.5,1.4
2026-01-17T0100,1620A,118.2793,34.9976,临沂市,新光毛纺厂,,39,39,217,27,165,53,,,,25,55,8,16,0.6,1.3
2026-01-17T0100,1621A,118.3955,35.0889,临沂市,河东保险公司,,41,41,221,23,150,53,,,,15,50,7,12,0.6,1.2
2026-01-17T0100,3370A,118.3563,35.0215,临沂市,十里堡居委,,41,41,224,17,146,56,,,,19,53,9,16,0.5,1.2
2026-01-17T0100,3496A,118.359,35.1067,临沂市,南坊新区,,39,39,212,24,155,58,,,,17,52,8,14,0.6,1.3
2026-01-17T0100,3860A,118.3915,35.0297,临沂市,皇山花园小区,,39,39,234,27,146,52,,,,21,53,11,17,0.6,1.4
2026-01-17T0100,1870A,109.4854,24.3898,柳州市,柳东小学,细颗粒物(PM2.5),110,88,119,83,100,32,,,,41,39,36,25,1.0,1
2026-01-17T0100,1871A,109.4109,24.3304,柳州市,环保监测站,细颗粒物(PM2.5),173,177,124,131,95,6,,,,56,45,7,9,1.6,1.4
2026-01-17T0100,1872A,109.3886,24.3408,柳州市,河西水厂,细颗粒物(PM2.5),173,210,166,131,106,3,,,,58,47,10,15,1.6,1.3
2026-01-17T0100,1873A,109.4263,24.2951,柳州市,市四中,细颗粒物(PM2.5),129,126,127,98,82,2,,,,65,52,10,11,1.7,1.4
2026-01-17T0100,1874A,109.396,24.3658,柳州市,市九中,颗粒物(PM10),129,208,141,94,106,6,,,,62,42,11,16,1.5,1.4
2026-01-17T0100,1875A,109.4912,24.3164,柳州市,古亭山,细颗粒物(PM2.5),84,77,101,62,72,1,,,,50,50,11,13,0.8,0.9
2026-01-17T0100,3402A,109.5422,24.3994,柳州市,市二中,细颗粒物(PM2.5),112,102,118,84,90,10,,,,37,45,11,24,1.0,1
2026-01-17T0100,2307A,116.5078,31.7369,六安市,监测大楼,细颗粒物(PM2.5),210,217,91,160,68,28,,,,38,33,3,5,0.9,0.5
2026-01-17T0100,2308A,116.4738,31.7642,六安市,皖西学院,细颗粒物(PM2.5),206,209,107,156,74,30,,,,34,31,5,7,0.9,0.5
2026-01-17T0100,2309A,116.4997,31.7904,六安市,朝阳厂,细颗粒物(PM2.5),205,194,99,155,74,27,,,,36,36,5,7,1.0,0.7
2026-01-17T0100,2310A,116.5566,31.7885,六安市,开发区,细颗粒物(PM2.5),183,219,109,138,70,29,,,,37,45,4,8,1.0,0.6
2026-01-17T0100,2577A,104.8293,26.592,六盘水市,黄土坡,细颗粒物(PM2.5),119,104,95,90,76,29,,,,23,28,4,10,1.0,1.2
2026-01-17T0100,2579A,104.8481,26.5898,六盘水市,民中,细颗粒物(PM2.5),122,106,98,92,85,38,,,,36,34,14,9,1.1,1.3
2026-01-17T0100,2580A,104.9541,26.5506,六盘水市,双水,细颗粒物(PM2.5),129,127,94,98,73,43,,,,20,20,5,5,0.8,0.8
2026-01-17T0100,4151A,104.8899,26.5685,六盘水市,钟山大道中段564号,细颗粒物(PM2.5),155,186,134,118,89,12,,,,44,28,11,10,1.5,1.6
2026-01-17T0100,2336A,117.022,25.1031,龙岩市,龙岩市监测站,细颗粒物(PM2.5),57,58,58,40,40,27,,,,43,45,29,27,0.7,0.8
2026-01-17T0100,2337A,117.0257,25.0662,龙岩市,闽西职业技术学院,颗粒物(PM10),54,57,57,30,31,46,,,,34,30,19,13,0.6,0.6
2026-01-17T0100,2338A,117.0195,25.0306,龙岩市,龙岩学院,,43,37,47,30,34,60,,,,16,19,9,10,/,/
2026-01-17T0100,2885A,104.9344,33.3827,陇南市,滨江中学,细颗粒物(PM2.5),85,117,119,63,52,1,,,,63,50,21,19,3.9,2.6
2026-01-17T0100,3247A,104.9551,33.3709,陇南市,市总工会,细颗粒物(PM2.5),60,67,86,43,40,14,,,,47,38,12,11,1.1,1
2026-01-17T0100,2488A,111.9984,27.7346,娄底市,市监测站,细颗粒物(PM2.5),129,111,121,98,89,55,,,,30,50,14,16,0.9,1.3
2026-01-17T0100,2491A,111.9888,27.7035,娄底市,市政府,细颗粒物(PM2.5),142,141,124,108,98,15,,,,47,40,10,11,1.0,1
2026-01-17T0100,4127A,111.9812,27.7591,娄底市,涟钢职大,细颗粒物(PM2.5),129,135,125,98,81,30,,,,20,39,7,12,0.9,1
2026-01-17T0100,4128A,112.0303,27.7457,娄底市,娄底体校,细颗粒物(PM2.5),138,132,113,105,92,22,,,,29,26,2,5,1.0,0.9
2026-01-17T0100,1894A,105.4427,28.9063,泸州市,小市上码头,细颗粒物(PM2.5),169,167,172,128,140,2,,,,54,43,7,8,1.6,1.5
2026-01-17T0100,1895A,105.4241,28.8573,泸州市,兰田宪桥,细颗粒物(PM2.5),229,270,227,179,154,16,,,,15,21,8,8,1.7,1.3
2026-01-17T0100,1896A,105.4378,28.8833,泸州市,市环监站,细颗粒物(PM2.5),200,202,191,150,145,9,,,,47,41,9,9,1.5,1.4
2026-01-17T0100,4272A,105.3689,28.7783,泸州市,纳溪中医医院,细颗粒物(PM2.5),198,177,163,148,152,2,,,,18,23,8,8,1.4,1.4
2026-01-17T0100,2183A,111.1447,37.5212,吕梁市,环保局,颗粒物(PM10),68,86,109,38,30,3,,,,50,41,4,5,0.3,0.3
2026-01-17T0100,2185A,111.1285,37.5338,吕梁市,自来水公司,颗粒物(PM10),124,197,133,39,40,2,,,,46,37,9,7,0.6,0.6
2026-01-17T0100,2867A,111.1225,37.5093,吕梁市,马茂庄小学,颗粒物(PM10),80,109,130,30,33,1,,,,51,43,6,6,0.4,0.5
2026-01-17T0100,1812A,112.3934,34.6517,洛阳市,市委党校,颗粒物(PM10),71,91,145,47,75,62,,,,27,50,9,16,0.7,1.1
2026-01-17T0100,1815A,112.494,34.6883,洛阳市,河南林校,细颗粒物(PM2.5),82,104,158,60,87,50,,,,32,48,10,17,0.7,1
2026-01-17T0100,1816A,112.3843,34.623,洛阳市,开发区管委会,颗粒物(PM10),81,111,158,54,83,60,,,,25,40,10,16,0.8,1
2026-01-17T0100,1817A,112.4263,34.6249,洛阳市,市委新办公区,颗粒物(PM10),83,116,151,58,78,64,,,,27,44,10,14,0.5,0.8
2026-01-17T0100,3340A,112.6005,34.6323,洛阳市,伊滨,细颗粒物(PM2.5),90,115,157,67,84,60,,,,22,38,7,11,0.5,0.7
2026-01-17T0100,3341A,112.495,34.6338,洛阳市,中移产业园,细颗粒物(PM2.5),100,108,146,75,80,55,,,,24,44,10,15,0.6,0.9
2026-01-17T0100,3593A,112.5736,34.8993,洛阳市,吉利监测站,细颗粒物(PM2.5),89,116,140,66,76,53,,,,25,41,9,12,0.8,0.9
2026-01-17T0100,3635A,112.3678,34.6623,洛阳市,河科大西苑校区,颗粒物(PM10),75,99,160,46,70,66,,,,26,47,9,16,0.8,1.1
2026-01-17T0100,3636A,112.4387,34.678,洛阳市,英才小学,细颗粒物(PM2.5),83,103,176,61,95,54,,,,30,52,11,20,0.7,1.1
2026-01-17T0100,4214A,112.460027,34.694929,洛阳市,春都路1号院,颗粒物(PM10),82,114,181,51,74,54,,,,22,42,8,14,0.8,1.2
2026-01-17T0100,2399A,114.051,33.5721,漯河市,三五一五工厂,细颗粒物(PM2.5),115,138,156,87,92,43,,,,20,34,6,7,0.8,0.8
2026-01-17T0100,2400A,114.0055,33.5698,漯河市,漯河大学,细颗粒物(PM2.5),153,136,150,117,86,43,,,,15,27,5,6,0.7,0.7
2026-01-17T0100,2401A,114.0134,33.5826,漯河市,市水利局,细颗粒物(PM2.5),107,134,159,80,89,41,,,,18,28,4,6,0.8,0.8
2026-01-17T0100,2402A,114.0261,33.5697,漯河市,市广电局,细颗粒物(PM2.5),104,134,154,78,86,44,,,,16,31,6,7,0.8,0.8
2026-01-17T0100,3478A,113.9691,33.568,漯河市,市图书馆,细颗粒物(PM2.5),119,154,172,90,96,37,,,,20,28,3,6,0.9,0.9
2026-01-17T0100,4250A,114.089259,33.588274,漯河市,韶山路11号,细颗粒物(PM2.5),104,149,157,78,88,34,,,,18,31,6,8,0.9,0.8
2026-01-17T0100,1798A,118.5084,31.6838,马鞍山市,湖东路四小,细颗粒物(PM2.5),186,173,127,140,73,27,,,,85,61,7,13,1.1,1.1
2026-01-17T0100,1799A,118.5019,31.6449,马鞍山市,开发区,细颗粒物(PM2.5),207,158,142,157,96,24,,,,95,67,8,12,1.0,1
2026-01-17T0100,3633A,118.4914,31.681,马鞍山市,雨山,细颗粒物(PM2.5),211,171,128,161,83,30,,,,94,62,11,15,1.2,1.1
2026-01-17T0100,4191A,118.527362,31.722269,马鞍山市,慈湖高新区,细颗粒物(PM2.5),253,258,137,203,88,47,,,,68,67,7,13,1.1,1
2026-01-17T0100,1686A,111.0285,21.469,茂名市,电白南海,"颗粒物(PM10),细颗粒物(PM2.5)",62,73,58,44,31,76,,,,27,21,8,11,0.8,0.7
2026-01-17T0100,1687A,110.9294,21.6533,茂名市,茂石化七小,细颗粒物(PM2.5),73,85,72,53,37,131,,,,28,29,11,11,0.5,0.5
2026-01-17T0100,1688A,110.9108,21.6688,茂名市,健康路,臭氧1小时(O3_1h),64,73,61,41,38,171,,,,25,25,12,18,0.8,0.8
2026-01-17T0100,1689A,110.8592,21.6826,茂名市,高岭,颗粒物(PM10),68,85,89,44,40,132,,,,34,30,10,18,/,/
2026-01-17T0100,3450A,111.0101,21.5165,茂名市,电白水东,颗粒物(PM10),67,83,57,41,31,114,,,,24,16,12,12,/,/
2026-01-17T0100,2540A,103.8414,30.0871,眉山市,气象局,细颗粒物(PM2.5),185,177,130,139,106,6,,,,65,51,14,18,1.2,1
2026-01-17T0100,3148A,103.829,30.0563,眉山市,区人社局,细颗粒物(PM2.5),216,181,126,166,104,2,,,,74,54,11,14,1.4,1.2
2026-01-17T0100,4148A,103.8836,30.0695,眉山市,眉职院,细颗粒物(PM2.5),132,146,128,100,90,6,,,,50,40,1,8,1.0,1
2026-01-17T0100,1690A,116.1248,24.3307,梅州市,梅江月梅,颗粒物(PM10),53,55,56,34,35,3,,,,72,38,/,/,/,/
2026-01-17T0100,1691A,116.0798,24.2719,梅州市,梅县新城,"颗粒物(PM10),细颗粒物(PM2.5)",65,80,64,47,43,6,,,,66,44,7,8,0.7,0.8
2026-01-17T0100,3315A,116.1234,24.2994,梅州市,梅龙,颗粒物(PM10),70,90,59,45,36,1,,,,72,36,8,10,1.0,0.9
2026-01-17T0100,1878A,104.7775,31.4741,绵阳市,富乐山,细颗粒物(PM2.5),79,85,92,58,68,10,,,,60,45,8,8,0.7,0.7
2026-01-17T0100,1880A,104.6698,31.4668,绵阳市,高新区自来水公司,细颗粒物(PM2.5),89,122,102,66,65,0,,,,66,51,10,9,1.0,0.9
2026-01-17T0100,3491A,104.6899,31.5324,绵阳市,西科大附属小学,细颗粒物(PM2.5),94,107,105,70,67,1,,,,75,54,9,9,0.8,0.8
2026-01-17T0100,3492A,104.5647,31.5343,绵阳市,安州区旅游局,细颗粒物(PM2.5),110,113,97,83,70,3,,,,47,45,12,13,0.9,0.8
2026-01-17T0100,4146A,104.7092,31.4972,绵阳市,科技城新区公安局,细颗粒物(PM2.5),95,102,96,71,59,2,,,,85,50,9,10,0.9,0.9
2026-01-17T0100,4226A,104.765114,31.453094,绵阳市,绵阳市气象局,细颗粒物(PM2.5),90,117,102,67,71,1,,,,68,58,5,8,1.2,1
2026-01-17T0100,1784A,129.61,44.561,牡丹江市,环保大楼,,33,24,31,23,24,61,,,,9,16,3,5,0.2,0.3
2026-01-17T0100,1787A,129.6364,44.6075,牡丹江市,机车工厂,,36,36,51,18,35,57,,,,11,23,2,4,0.3,0.6
2026-01-17T0100,1788A,129.6386,44.5462,牡丹江市,第一中学,,35,,28,24,28,37,,,,17,17,6,6,0.5,0.4
2026-01-17T0100,4287A,129.5992,44.5964,牡丹江市,东晓云街98号,,46,46,42,26,38,61,,,,6,16,4,5,0.5,0.6
2026-01-17T0100,2531A,105.0703,29.61,内江市,市监测站,细颗粒物(PM2.5),209,,144,159,145,12,,,,37,30,7,6,1.3,1.1
2026-01-17T0100,2533A,105.0657,29.5807,内江市,内江二中,细颗粒物(PM2.5),203,193,167,153,136,2,,,,47,42,5,5,1.3,1.2
2026-01-17T0100,2534A,105.0407,29.5828,内江市,内江日报社,细颗粒物(PM2.5),206,164,134,156,132,12,,,,52,38,3,3,1.2,1
2026-01-17T0100,4147A,105.0433,29.6105,内江市,玉峰路西段888号,细颗粒物(PM2.5),185,140,139,139,140,2,,,,50,36,2,2,1.3,1.2
2026-01-17T0100,2628A,92.0653,31.4846,那曲市,那曲监测站,细颗粒物(PM2.5),113,118,49,85,32,10,,,,63,28,14,9,2.9,1.5
2026-01-17T0100,4243A,92.0515,31.4787,那曲市,那曲市委宣传部,,38,38,27,25,18,8,,,,51,21,9,7,1.8,1.1
2026-01-17T0100,1291A,115.8887,28.7006,南昌市,省林业公司,细颗粒物(PM2.5),70,61,102,51,70,20,,,,71,63,6,10,1.2,1.4
2026-01-17T0100,1292A,115.813,28.7443,南昌市,林科所,细颗粒物(PM2.5),52,39,85,36,57,66,,,,15,54,8,14,0.4,0.5
2026-01-17T0100,1294A,115.8518,28.687,南昌市,建工学校,颗粒物(PM10),71,92,114,45,75,56,,,,39,68,14,20,1.0,1.2
2026-01-17T0100,1295A,115.8926,28.6425,南昌市,象湖,细颗粒物(PM2.5),73,76,103,53,74,41,,,,47,57,11,16,0.6,1
2026-01-17T0100,3046A,115.9084,28.6062,南昌市,机电学校,细颗粒物(PM2.5),79,86,130,58,82,32,,,,54,58,7,13,0.7,1
2026-01-17T0100,3690A,115.9718,28.7032,南昌市,外国语学校,细颗粒物(PM2.5),99,,93,74,77,33,,,,64,55,17,17,0.7,0.8
2026-01-17T0100,4106A,115.7923,28.6873,南昌市,工业二路,细颗粒物(PM2.5),85,80,93,63,75,5,,,,67,57,6,11,1.2,1.9
2026-01-17T0100,4192A,115.931587,28.686774,南昌市,南京东路235号,细颗粒物(PM2.5),87,75,114,64,85,58,,,,31,61,7,11,0.9,1
2026-01-17T0100,1906A,106.0791,30.8022,南充市,南充市委,细颗粒物(PM2.5),196,166,126,147,112,1,,,,63,53,5,5,1.8,1.3
2026-01-17T0100,1907A,106.1038,30.8215,南充市,南充炼油厂,细颗粒物(PM2.5),207,170,131,157,111,7,,,,50,38,6,6,1.3,1.2
2026-01-17T0100,4227A,106.108336,30.788436,南充市,梨树横街98号,细颗粒物(PM2.5),196,190,141,147,109,14,,,,51,40,6,6,1.2,1
2026-01-17T0100,4304A,106.1172,30.843,南充市,清泉寺北路188号,细颗粒物(PM2.5),180,147,108,136,100,31,,,,33,26,6,7,0.9,0.8
2026-01-17T0100,4305A,106.067,30.7616,南充市,同庆路1号,细颗粒物(PM2.5),185,151,126,139,109,0,,,,55,47,7,7,1.4,1.2
2026-01-17T0100,1151A,118.8033,32.1085,南京市,迈皋桥,细颗粒物(PM2.5),180,183,124,136,85,104,,,,16,62,3,8,0.8,0.9
2026-01-17T0100,1152A,118.7487,32.057,南京市,草场门,细颗粒物(PM2.5),168,178,137,127,87,69,,,,25,73,5,12,1.1,1.1
2026-01-17T0100,1154A,118.770105,32.004342,南京市,中华门,细颗粒物(PM2.5),188,180,127,141,86,82,,,,26,63,3,8,1.1,1
2026-01-17T0100,1155A,118.8059,32.0329,南京市,瑞金路,细颗粒物(PM2.5),188,175,139,141,93,77,,,,20,78,4,4,1.2,1.4
2026-01-17T0100,1156A,118.7946,32.0774,南京市,玄武湖,细颗粒物(PM2.5),195,195,128,146,86,92,,,,24,32,4,4,1.4,1.2
2026-01-17T0100,1157A,118.6415,32.0964,南京市,浦口,细颗粒物(PM2.5),209,228,133,159,82,92,,,,23,48,8,13,1.8,1.3
2026-01-17T0100,1158A,118.730129,32.000956,南京市,奥体中心,细颗粒物(PM2.5),199,192,134,149,89,91,,,,24,77,6,12,1.2,1.2
2026-01-17T0100,1159A,118.9072,32.1047,南京市,仙林大学城,细颗粒物(PM2.5),203,188,135,153,90,91,,,,26,67,5,12,1.4,1.2
2026-01-17T0100,3422A,118.8443,31.919,南京市,江宁彩虹桥,细颗粒物(PM2.5),180,186,135,136,98,95,,,,16,78,3,7,1.1,1
2026-01-17T0100,3427A,118.8497,32.3599,南京市,六合雄州,细颗粒物(PM2.5),205,227,159,155,113,80,,,,20,61,3,10,1.1,1.1
2026-01-17T0100,4086A,118.7641,32.0841,南京市,新模范马路66号,细颗粒物(PM2.5),223,200,140,173,96,129,,,,5,56,4,4,1.4,1.3
2026-01-17T0100,4249A,118.8707617,31.34017673,南京市,汶溪路181号,细颗粒物(PM2.5),208,161,102,158,90,60,,,,52,51,9,11,1.2,1.1
2026-01-17T0100,4312A,119.019,31.6512,南京市,中山西路1号,细颗粒物(PM2.5),209,183,112,159,90,62,,,,37,48,4,5,1.2,1
2026-01-17T0100,1401A,108.3098,22.788,南宁市,二十一中,细颗粒物(PM2.5),60,66,71,43,51,65,,,,16,25,3,5,0.7,0.8
2026-01-17T0100,1402A,108.3135,22.8529,南宁市,北湖,细颗粒物(PM2.5),89,104,88,66,62,18,,,,55,38,4,4,0.9,0.9
2026-01-17T0100,1403A,108.3205,22.8222,南宁市,市监测站,细颗粒物(PM2.5),78,97,70,57,55,49,,,,30,27,6,7,0.8,0.9
2026-01-17T0100,1404A,108.3828,22.8038,南宁市,大自然花园,细颗粒物(PM2.5),83,97,70,61,51,32,,,,43,22,6,7,0.9,1
2026-01-17T0100,1406A,108.2397,22.8462,南宁市,区农职院,细颗粒物(PM2.5),62,68,83,44,53,68,,,,24,37,7,10,0.8,1
2026-01-17T0100,1407A,108.3285,22.7356,南宁市,英华嘉园,细颗粒物(PM2.5),58,54,76,41,53,61,,,,26,34,3,6,0.7,0.9
2026-01-17T0100,3401A,108.4829,22.762,南宁市,红星社区,细颗粒物(PM2.5),87,92,72,64,52,27,,,,40,24,4,5,0.8,0.8
2026-01-17T0100,4132A,108.2927,23.1477,南宁市,起凤路9号,细颗粒物(PM2.5),74,74,83,54,65,67,,,,15,24,3,3,0.6,0.8
2026-01-17T0100,4221A,108.2177,22.7774,南宁市,乐贤路16号,细颗粒物(PM2.5),68,80,81,49,54,38,,,,43,36,4,4,0.9,0.9
2026-01-17T0100,2332A,118.1682,26.6371,南平市,南平市监测站,颗粒物(PM10),54,57,56,36,35,12,,,,48,29,6,7,0.6,0.5
2026-01-17T0100,2334A,118.1757,26.6276,南平市,南平七中,,50,45,44,35,33,13,,,,45,30,4,6,0.8,0.8
2026-01-17T0100,1168A,120.9056,31.9669,南通市,狼山街道,细颗粒物(PM2.5),112,102,162,84,137,122,,,,13,62,2,4,0.7,0.8
2026-01-17T0100,1170A,120.8635,32.0231,南通市,城中,细颗粒物(PM2.5),113,110,177,85,137,122,,,,14,59,2,5,1.0,1.2
2026-01-17T0100,1171A,120.9376,31.9301,南通市,星湖花园,细颗粒物(PM2.5),99,86,171,74,138,129,,,,16,61,3,6,0.7,0.9
2026-01-17T0100,1172A,120.8053,32.046,南通市,紫琅学院,细颗粒物(PM2.5),125,117,189,95,142,137,,,,14,64,3,6,0.8,1
2026-01-17T0100,3291A,121.0631,32.0644,南通市,通州监测站,细颗粒物(PM2.5),100,85,150,75,129,132,,,,14,42,3,5,1.1,1.3
2026-01-17T0100,3432A,120.9348,31.9874,南通市,环境教育馆,细颗粒物(PM2.5),117,95,162,88,136,129,,,,12,70,4,7,0.9,1.1
2026-01-17T0100,4091A,120.8692,31.9885,南通市,洪江路,细颗粒物(PM2.5),140,,158,107,151,113,,,,12,52,3,5,1.0,1.2
2026-01-17T0100,2404A,112.5338,33.0086,南阳市,瓦房庄,细颗粒物(PM2.5),128,138,151,97,105,52,,,,19,30,7,10,0.9,1
2026-01-17T0100,2405A,112.5002,32.9734,南阳市,汉画馆,细颗粒物(PM2.5),113,156,163,85,97,56,,,,21,35,6,8,0.8,0.9
2026-01-17T0100,2406A,112.5778,33.0144,南阳市,气象站,颗粒物(PM10),110,169,180,78,95,51,,,,21,33,5,9,0.9,0.9
2026-01-17T0100,2407A,112.548,32.9687,南阳市,理工学院,细颗粒物(PM2.5),108,155,162,81,86,47,,,,27,34,5,8,0.8,0.9
2026-01-17T0100,4008A,112.5233,32.9921,南阳市,卧龙区政府,细颗粒物(PM2.5),115,172,180,87,97,52,,,,26,39,6,9,0.7,0.9
2026-01-17T0100,1234A,121.8352,29.9111,宁波市,区环保大楼,颗粒物(PM10),68,86,102,48,63,11,,,,88,89,5,9,0.8,1
2026-01-17T0100,1235A,121.5595,29.8208,宁波市,万里学院,细颗粒物(PM2.5),105,115,106,79,74,14,,,,96,58,6,6,0.8,0.7
2026-01-17T0100,1236A,121.713,29.9564,宁波市,龙赛医院,细颗粒物(PM2.5),104,109,116,78,81,11,,,,106,95,5,10,0.9,1
2026-01-17T0100,1240A,121.5855,29.8635,宁波市,太古小学,细颗粒物(PM2.5),104,116,100,78,68,6,,,,,53,4,5,0.9,0.7
2026-01-17T0100,1241A,121.5239,29.8673,宁波市,市环境监测中心,细颗粒物(PM2.5),107,106,89,80,65,7,,,,108,64,11,9,0.9,0.8
2026-01-17T0100,2871A,121.6156,29.9015,宁波市,万里国际学校,,,129,102,71,67,,,,,106,74,5,7,0.8,0.7
2026-01-17T0100,3710A,121.5593,29.8976,宁波市,白沙活动中心,细颗粒物(PM2.5),97,137,104,72,72,10,,,,87,77,4,7,1.1,1
2026-01-17T0100,4095A,121.8962,29.7529,宁波市,中科路88号,细颗粒物(PM2.5),79,87,92,58,70,15,,,,78,58,6,7,0.5,0.5
2026-01-17T0100,2341A,119.5387,26.6611,宁德市,宁德市监测站,,28,20,33,19,20,62,,,,18,26,4,4,0.7,0.6
2026-01-17T0100,3209A,119.5231,26.6562,宁德市,宁德一中,,33,,31,23,21,64,,,,14,19,6,6,0.6,0.5
2026-01-17T0100,2618A,98.859,25.8541,怒江傈僳族自治州,州监测站,,35,34,30,24,19,40,,,,14,10,5,5,0.4,0.4
2026-01-17T0100,2619A,98.8607,25.8168,怒江傈僳族自治州,泸水一中,,29,28,29,20,20,26,,,,18,19,6,6,0.5,0.4
2026-01-17T0100,1888A,101.6891,26.571,攀枝花市,弄弄坪,细颗粒物(PM2.5),58,50,61,41,37,44,,,,19,32,8,22,0.6,1.6
2026-01-17T0100,1889A,101.577,26.5914,攀枝花市,河门口,颗粒物(PM10),54,58,53,33,30,23,,,,28,23,28,19,1.0,1
2026-01-17T0100,1891A,101.7365,26.4986,攀枝花市,仁和,,48,48,43,30,26,36,,,,15,21,8,12,0.6,0.9
2026-01-17T0100,2835A,101.7222,26.567,攀枝花市,四十中小,"颗粒物(PM10),细颗粒物(PM2.5)",59,68,63,42,39,4,,,,56,42,13,20,1.4,1.7
2026-01-17T0100,1604A,122.0303,41.1489,盘锦市,开发区,,20,20,39,12,23,55,,,,8,9,4,3,0.4,0.8
2026-01-17T0100,1605A,122.0486,41.0883,盘锦市,兴隆台,,30,30,30,10,19,55,,,,13,16,6,6,0.5,0.5
2026-01-17T0100,1606A,121.8297,41.1026,盘锦市,新生街道,,20,20,28,12,15,33,,,,28,15,6,5,0.6,0.5
2026-01-17T0100,1832A,113.3257,33.7423,平顶山市,新华旅馆,颗粒物(PM10),103,155,181,75,90,46,,,,29,41,5,7,0.5,0.7
2026-01-17T0100,1833A,113.2917,33.737,平顶山市,规划设计院,颗粒物(PM10),96,141,181,71,83,53,,,,18,28,6,9,0.7,0.7
2026-01-17T0100,1834A,113.182,33.7738,平顶山市,平顶山工学院,细颗粒物(PM2.5),89,124,163,66,85,60,,,,21,27,7,10,0.6,0.7
2026-01-17T0100,3594A,112.8736,33.9068,平顶山市,石龙区,细颗粒物(PM2.5),125,192,172,95,81,33,,,,31,29,6,10,0.8,0.7
2026-01-17T0100,4116A,113.284,33.7139,平顶山市,姚电大道23号,颗粒物(PM10),106,161,196,72,93,49,,,,26,34,7,10,0.7,0.7
2026-01-17T0100,2656A,106.6633,35.5338,平凉市,聚贤嘉苑,颗粒物(PM10),62,73,85,34,27,7,,,,56,27,13,14,0.7,0.5
2026-01-17T0100,2657A,106.7021,35.5307,平凉市,博物馆,颗粒物(PM10),66,82,90,39,31,8,,,,61,30,12,14,1.0,0.7
2026-01-17T0100,2348A,113.8384,27.6436,萍乡市,中医院,细颗粒物(PM2.5),93,82,106,69,71,76,,,,30,42,5,15,1.2,1.4
2026-01-17T0100,2350A,113.8677,27.6438,萍乡市,市环保局,细颗粒物(PM2.5),94,83,95,70,72,82,,,,20,36,14,27,0.9,1.1
2026-01-17T0100,2351A,113.8663,27.6202,萍乡市,安源区政府,细颗粒物(PM2.5),118,,114,89,101,49,,,,35,35,13,21,1.3,1.4
2026-01-17T0100,4107A,113.8686,27.6668,萍乡市,联洪村委会,细颗粒物(PM2.5),77,60,95,56,70,72,,,,17,28,3,5,0.8,0.9
2026-01-17T0100,2319A,119.0142,25.4324,莆田市,荔城区仓后路,颗粒物(PM10),52,53,64,34,35,44,,,,25,34,/,/,/,/
2026-01-17T0100,2320A,119.0016,25.4553,莆田市,莆田市监测站,,43,43,37,23,25,64,,,,12,13,3,4,0.8,0.7
2026-01-17T0100,2321A,119.112,25.4561,莆田市,涵江区六中,颗粒物(PM10),67,83,62,46,31,1,,,,77,45,/,/,0.9,0.8
2026-01-17T0100,2322A,119.1014,25.3215,莆田市,秀屿区政府,,48,47,48,33,31,71,,,,25,22,4,6,1.0,0.8
2026-01-17T0100,2392A,115.0312,35.7636,濮阳市,环保局,颗粒物(PM10),62,74,126,39,68,48,,,,20,30,8,7,0.4,0.6
2026-01-17T0100,3021A,115,35.7667,濮阳市,濮水河管理处,颗粒物(PM10),60,70,137,40,67,47,,,,25,32,5,5,0.8,0.9
2026-01-17T0100,4118A,115.0552,35.7816,濮阳市,中原东路68号,颗粒物(PM10),61,71,143,38,72,48,,,,22,32,5,4,0.3,0.5
2026-01-17T0100,4216A,115.0923632,35.76857718,濮阳市,任丘路479号,细颗粒物(PM2.5),63,70,140,45,73,48,,,,20,31,6,5,0.5,0.7
2026-01-17T0100,2601A,100.9801,22.7634,普洱市,市环保局,颗粒物(PM10),57,63,55,17,19,30,,,,8,11,5,5,0.4,0.4
2026-01-17T0100,2602A,100.9763,22.8237,普洱市,普洱第二中学,,46,46,49,30,23,26,,,,17,18,5,5,0.4,0.4
2026-01-17T0100,3345A,131.0413,45.7795,七台河市,中波台,,45,35,36,31,26,48,,,,18,17,19,13,0.5,0.5
2026-01-17T0100,3637A,131.0136,45.7688,七台河市,人民广场,细颗粒物(PM2.5),63,,42,45,34,39,,,,30,22,14,11,0.6,0.6
2026-01-17T0100,3684A,130.8639,45.8144,七台河市,新建矿广场,,33,29,32,23,26,42,,,,15,14,7,6,0.3,0.3
2026-01-17T0100,1779A,123.9307,47.3641,齐齐哈尔市,安居小区,细颗粒物(PM2.5),59,,40,42,36,58,,,,6,18,4,8,0.3,0.5
2026-01-17T0100,1780A,123.9497,47.3389,齐齐哈尔市,中心广场,,19,6,30,3,20,58,,,,5,16,5,7,0.5,0.8
2026-01-17T0100,1781A,123.9483,47.3229,齐齐哈尔市,农牧车辆厂,,19,14,34,3,22,59,,,,3,14,6,7,0.3,0.4
2026-01-17T0100,1783A,123.9442,47.2994,齐齐哈尔市,市环境监测站,,19,12,47,3,33,60,,,,3,21,5,7,0.6,0.8
2026-01-17T0100,3662A,123.6341,47.2079,齐齐哈尔市,富区青少年活动中心,,23,23,41,9,29,61,,,,7,18,9,10,0.5,0.7
2026-01-17T0100,2591A,107.9765,26.5724,黔东南苗族侗族自治州,市环境监测站,细颗粒物(PM2.5),132,110,106,100,92,14,,,,39,36,6,8,0.7,1
2026-01-17T0100,2881A,107.8909,26.531,黔东南苗族侗族自治州,凯里学院,细颗粒物(PM2.5),107,97,96,80,72,18,,,,28,24,3,4,0.7,0.7
2026-01-17T0100,2593A,107.5223,26.2371,黔南布依族苗族自治州,小围寨,细颗粒物(PM2.5),122,97,77,92,66,42,,,,14,16,9,9,1.1,1.1
2026-01-17T0100,3538A,107.5175,26.2977,黔南布依族苗族自治州,沙坝,细颗粒物(PM2.5),125,112,85,95,66,22,,,,23,23,8,8,1.1,1.1
2026-01-17T0100,2589A,104.9022,25.0943,黔西南布依族苗族自治州,场坝街,细颗粒物(PM2.5),59,66,71,42,59,70,,,,14,18,9,13,0.7,0.7
2026-01-17T0100,2590A,104.8812,25.0994,黔西南布依族苗族自治州,坪东大道,细颗粒物(PM2.5),79,,56,58,51,49,,,,19,21,8,6,0.8,0.9
2026-01-17T0100,2502A,108.6238,21.9667,钦州市,市环保站,颗粒物(PM10),65,80,63,41,34,37,,,,38,27,3,3,0.6,0.5
2026-01-17T0100,2503A,108.655,21.9481,钦州市,沙埠小学,颗粒物(PM10),73,96,65,48,35,0,,,,63,31,4,4,0.5,0.5
2026-01-17T0100,2504A,108.5989,21.7435,钦州市,港区一小,颗粒物(PM10),83,115,67,33,31,9,,,,67,33,4,4,0.7,0.7
2026-01-17T0100,3404A,108.5959,21.9634,钦州市,北职校,细颗粒物(PM2.5),59,64,58,42,39,43,,,,30,27,7,8,0.7,0.8
2026-01-17T0100,1046A,119.5247,39.9346,秦皇岛市,建设大厦,,33,,54,23,40,65,,,,3,15,6,7,0.2,0.5
2026-01-17T0100,3132A,119.5979,39.938,秦皇岛市,文明里,,28,28,56,11,29,72,,,,4,21,9,12,0.2,0.3
2026-01-17T0100,4066A,119.7458,39.9952,秦皇岛市,南园路157号,,23,23,54,3,24,70,,,,6,19,5,9,0.2,0.4
2026-01-17T0100,4067A,119.5131,39.8858,秦皇岛市,翠岛大街1号,,31,31,58,3,26,65,,,,2,12,9,11,0.2,0.5
2026-01-17T0100,4198A,119.509013,39.825305,秦皇岛市,北戴河轮滑馆,,23,23,54,15,32,70,,,,5,13,5,8,0.2,0.4
2026-01-17T0100,1310A,120.404,36.0625,青岛市,市南区东部子站,,27,27,155,17,76,60,,,,11,24,8,10,0.5,0.9
2026-01-17T0100,1311A,120.362344,36.10282,青岛市,四方区子站,,41,41,155,17,86,61,,,,2,14,3,3,0.5,1
2026-01-17T0100,1312A,120.294373,36.054183,青岛市,市南区西部子站,,34,34,147,15,76,57,,,,13,34,7,9,0.7,1.3
2026-01-17T0100,1313A,120.4581,36.0858,青岛市,崂山区子站,,24,24,143,12,69,68,,,,11,28,9,10,0.3,0.8
2026-01-17T0100,1315A,120.3945,36.3083,青岛市,城阳区子站,,27,27,142,12,62,67,,,,14,30,6,7,0.7,1.1
2026-01-17T0100,3642A,120.3454,36.0735,青岛市,市北区南部,,45,45,169,17,76,54,,,,12,21,1,2,0.6,1
2026-01-17T0100,3643A,120.3897,36.18,青岛市,李沧区北部,,28,27,141,19,87,60,,,,8,28,7,9,0.6,1.1
2026-01-17T0100,4110A,120.5222,36.4089,青岛市,盟旺路653号,,33,33,158,13,77,57,,,,20,31,1,4,0.4,0.9
2026-01-17T0100,4290A,120.196923,35.954556,青岛市,珠江路669号,,29,29,148,17,92,50,,,,25,30,10,10,0.5,1
2026-01-17T0100,4291A,120.0424,35.8656,青岛市,黄岛区人民政府广场,,34,34,143,12,79,65,,,,16,38,5,8,0.6,1.2
2026-01-17T0100,1703A,113.0218,23.7086,清远市,凤城街办,细颗粒物(PM2.5),78,82,90,57,64,73,,,,49,51,/,/,/,/
2026-01-17T0100,3025A,113.0479,23.6343,清远市,技师学院,细颗粒物(PM2.5),94,126,101,70,57,22,,,,86,67,7,10,0.9,0.7
2026-01-17T0100,3318A,112.9898,23.7403,清远市,清新太和,细颗粒物(PM2.5),63,70,89,45,58,125,,,,31,42,3,5,0.7,0.7
2026-01-17T0100,3455A,113.076,23.72,清远市,清城东城,"颗粒物(PM10),细颗粒物(PM2.5)",62,74,76,44,47,64,,,,35,42,/,/,/,/
2026-01-17T0100,2661A,107.6325,35.7357,庆阳市,庆阳五中,颗粒物(PM10),65,80,74,33,26,67,,,,35,16,19,8,0.4,0.4
2026-01-17T0100,2662A,107.6361,35.7067,庆阳市,市环保局,颗粒物(PM10),68,86,72,38,23,81,,,,17,11,8,8,0.4,0.4
2026-01-17T0100,1916A,103.7897,25.5036,曲靖市,环境监测站,,41,41,30,18,13,16,,,,45,16,4,5,0.7,0.4
2026-01-17T0100,1917A,103.8013,25.5357,曲靖市,烟厂办公区,颗粒物(PM10),64,78,35,26,18,9,,,,55,25,4,4,0.5,0.3
2026-01-17T0100,3376A,103.7926,25.4651,曲靖市,南苑二区,,25,25,21,16,11,55,,,,12,10,4,4,0.3,0.3
2026-01-17T0100,3377A,103.7442,25.5259,曲靖市,曲靖师范学院,颗粒物(PM10),52,54,29,31,17,47,,,,24,13,11,4,0.4,0.4
2026-01-17T0100,1264A,118.8694,28.94,衢州市,环保大楼,细颗粒物(PM2.5),94,100,92,70,61,5,,,,93,67,/,/,/,/
2026-01-17T0100,1266A,118.8622,28.9809,衢州市,衢州学院,细颗粒物(PM2.5),72,79,73,52,49,1,,,,91,65,5,7,0.6,0.6
2026-01-17T0100,4097A,118.9646,28.9832,衢州市,衢州三中,细颗粒物(PM2.5),93,105,93,69,57,0,,,,92,59,6,7,0.9,0.9
2026-01-17T0100,1611A,118.5818,24.9116,泉州市,涂山街,细颗粒物(PM2.5),95,112,77,71,45,10,,,,67,39,4,4,1.0,0.7
2026-01-17T0100,1612A,118.597,24.8976,泉州市,津头埔,细颗粒物(PM2.5),110,121,76,83,46,8,,,,75,45,7,6,1.0,0.7
2026-01-17T0100,1613A,118.6669,24.9422,泉州市,万安,颗粒物(PM10),70,90,75,42,37,7,,,,71,41,4,4,0.7,0.7
2026-01-17T0100,4105A,118.6355,24.9148,泉州市,霞新路6号,颗粒物(PM10),58,65,62,35,39,8,,,,59,46,/,/,0.7,0.7
2026-01-17T0100,2626A,88.8873,29.2723,日喀则市,日喀则监测站,,40,40,29,26,19,51,,,,9,20,10,17,0.5,0.6
2026-01-17T0100,3726A,88.8775,29.2425,日喀则市,林业技术推广中心,颗粒物(PM10),51,51,23,30,13,32,,,,33,11,20,11,1.0,0.5
2026-01-17T0100,1659A,119.4711,35.421,日照市,监测站,,41,41,175,23,110,53,,,,18,49,6,10,0.5,1.4
2026-01-17T0100,1660A,119.523,35.4216,日照市,市政府广场,,41,41,170,22,111,58,,,,21,47,9,12,0.3,1
2026-01-17T0100,1661A,119.5511,35.4113,日照市,港务局,,48,48,184,29,123,56,,,,22,46,7,9,0.4,1.1
2026-01-17T0100,3507A,119.5326,35.4627,日照市,职业技术学院,,41,41,176,17,100,56,,,,25,48,6,9,0.6,1.4
2026-01-17T0100,3604A,119.3267,35.1043,日照市,岚山环保分局,"颗粒物(PM10),细颗粒物(PM2.5)",52,53,207,36,140,44,,,,30,48,37,27,3.0,2.5
2026-01-17T0100,1835A,111.1922,34.7752,三门峡市,市政府,细颗粒物(PM2.5),84,108,114,62,65,65,,,,19,44,12,16,0.6,0.9
2026-01-17T0100,1836A,111.1588,34.794,三门峡市,开发区,颗粒物(PM10),86,122,137,58,61,62,,,,23,43,9,10,0.6,0.8
2026-01-17T0100,3039A,111.1911,34.7829,三门峡市,三门峡市第一小学,颗粒物(PM10),87,124,136,57,64,62,,,,20,43,14,16,0.6,0.8
2026-01-17T0100,3598A,111.1031,34.719,三门峡市,富达温泉假日酒店,颗粒物(PM10),94,137,145,56,69,68,,,,22,46,8,16,0.6,0.9
2026-01-17T0100,2324A,117.621,26.2626,三明市,三钢,细颗粒物(PM2.5),69,53,54,50,44,19,,,,48,40,5,10,0.9,1.3
2026-01-17T0100,2325A,117.6352,26.2714,三明市,三明二中,细颗粒物(PM2.5),59,47,50,42,38,13,,,,54,36,2,6,1.0,1.2
2026-01-17T0100,2326A,117.6028,26.2377,三明市,三元区政府,细颗粒物(PM2.5),77,72,64,56,43,18,,,,46,45,7,11,0.9,1.5
2026-01-17T0100,1877A,109.4962,18.2682,三亚市,河西子站,,46,46,37,21,17,80,,,,9,13,3,3,0.4,0.3
2026-01-17T0100,3540A,109.7348,18.3443,三亚市,君悦子站,,29,29,32,17,15,38,,,,21,13,4,5,0.4,0.4
2026-01-17T0100,4135A,109.1714,18.3739,三亚市,城东小学站,,35,35,34,22,17,28,,,,15,11,/,/,/,/
2026-01-17T0100,2624A,91.7592,29.234,山南市,山南监测站,,29,27,22,20,11,34,,,,25,12,5,5,0.6,0.5
2026-01-17T0100,2625A,91.7701,29.2436,山南市,山南人民医院,,19,14,19,7,10,59,,,,10,14,9,8,0.4,0.5
2026-01-17T0100,1674A,116.6795,23.3666,汕头市,金平子站,,49,49,59,28,37,77,,,,27,40,7,10,0.7,0.8
2026-01-17T0100,1675A,116.7248,23.3632,汕头市,龙湖子站,,47,47,59,22,34,73,,,,28,34,12,14,/,/
2026-01-17T0100,1676A,116.7257,23.2774,汕头市,濠江子站,,35,,51,24,34,70,,,,26,32,10,11,/,/
2026-01-17T0100,1677A,116.7518,23.4712,汕头市,澄海子站,细颗粒物(PM2.5),79,82,62,58,38,48,,,,50,31,13,10,0.9,0.7
2026-01-17T0100,1678A,116.6088,23.2539,汕头市,潮阳子站,颗粒物(PM10),52,54,53,27,32,66,,,,28,24,8,10,0.7,0.9
2026-01-17T0100,3444A,116.4539,23.2684,汕头市,潮南峡山,细颗粒物(PM2.5),70,82,72,51,49,50,,,,32,29,9,11,0.8,0.8
2026-01-17T0100,3624A,116.4069,23.2533,汕头市,潮南子站,颗粒物(PM10),72,93,70,48,38,43,,,,43,30,7,9,/,/
2026-01-17T0100,1693A,115.3653,22.7751,汕尾市,市环保局,,33,33,42,22,33,79,,,,19,19,8,7,0.7,0.7
2026-01-17T0100,1695A,115.362,22.7926,汕尾市,新城中学,,35,35,42,22,28,71,,,,16,18,5,6,0.5,0.5
2026-01-17T0100,2645A,109.9155,33.8714,商洛市,监测站,颗粒物(PM10),70,90,77,38,34,26,,,,41,32,6,5,0.7,0.7
2026-01-17T0100,3045A,109.9647,33.8486,商洛市,商州区中学,颗粒物(PM10),57,64,86,36,32,14,,,,43,34,5,6,0.6,0.6
2026-01-17T0100,2408A,115.6701,34.4283,商丘市,环境监测站,细颗粒物(PM2.5),97,108,151,72,96,28,,,,23,28,2,3,0.7,0.7
2026-01-17T0100,2409A,115.6458,34.4047,商丘市,粮食局,细颗粒物(PM2.5),103,115,143,77,88,27,,,,19,23,2,4,0.7,0.8
2026-01-17T0100,3171A,115.6069,34.4465,商丘市,梁园区档案局,细颗粒物(PM2.5),95,112,145,71,90,28,,,,20,26,4,6,0.6,0.6
2026-01-17T0100,4119A,115.6701,34.3767,商丘市,北海东路185号,细颗粒物(PM2.5),100,131,168,75,90,28,,,,22,27,2,3,0.8,0.8
2026-01-17T0100,4120A,115.6172,34.3704,商丘市,中山大街3号,细颗粒物(PM2.5),112,136,173,84,93,32,,,,22,28,1,5,0.6,0.5
2026-01-17T0100,1141A,121.401,31.2382,上海市,普陀,细颗粒物(PM2.5),145,133,143,111,125,2,,,,136,64,6,9,1.4,1.1
2026-01-17T0100,1142A,121.4774,31.2043,上海市,十五厂,细颗粒物(PM2.5),147,171,156,112,125,5,,,,100,71,7,9,1.2,1.2
2026-01-17T0100,1143A,121.4673,31.3011,上海市,虹口,细颗粒物(PM2.5),147,179,161,112,123,2,,,,97,71,8,8,1.0,1
2026-01-17T0100,1147A,121.4253,31.226,上海市,静安监测站,细颗粒物(PM2.5),120,121,141,91,118,28,,,,100,55,7,9,1.0,0.9
2026-01-17T0100,1148A,121.7029,31.1905,上海市,浦东川沙,细颗粒物(PM2.5),67,74,134,48,88,15,,,,78,68,7,8,0.6,0.8
2026-01-17T0100,1149A,121.5339,31.229,上海市,浦东新区监测站,细颗粒物(PM2.5),124,127,148,94,126,17,,,,76,69,6,8,0.8,1.1
2026-01-17T0100,1150A,121.5776,31.2038,上海市,浦东张江,细颗粒物(PM2.5),124,141,150,94,120,12,,,,80,72,6,8,0.6,0.7
2026-01-17T0100,3265A,121.4242,31.3303,上海市,宝山庙行,细颗粒物(PM2.5),148,181,160,113,125,13,,,,92,67,8,9,0.7,0.8
2026-01-17T0100,3266A,121.8789,31.4662,上海市,崇明上实东滩,颗粒物(PM10),52,53,94,32,64,75,,,,19,23,3,4,0.3,0.5
2026-01-17T0100,3268A,121.316,31.2839,上海市,嘉定南翔,细颗粒物(PM2.5),117,135,139,88,115,4,,,,127,87,5,6,1.1,0.9
2026-01-17T0100,3269A,121.3357,30.7455,上海市,金山新城,细颗粒物(PM2.5),129,109,138,98,139,36,,,,67,57,8,10,0.8,1
2026-01-17T0100,3270A,121.4996,31.0741,上海市,闵行浦江,细颗粒物(PM2.5),142,158,157,108,128,2,,,,102,65,7,8,0.9,0.9
2026-01-17T0100,3271A,121.2886,31.1663,上海市,青浦徐泾,细颗粒物(PM2.5),134,146,156,102,124,15,,,,118,79,5,7,1.0,1
2026-01-17T0100,3272A,121.2193,31.0382,上海市,松江图书馆,颗粒物(PM10),110,169,174,,147,16,,,,100,81,6,8,0.9,0.9
2026-01-17T0100,3273A,121.3904,31.206,上海市,长宁仙霞,细颗粒物(PM2.5),114,136,139,86,112,48,,,,55,58,6,9,0.5,0.5
2026-01-17T0100,3274A,121.7964,31.0507,上海市,浦东惠南,细颗粒物(PM2.5),58,61,115,41,97,3,,,,91,62,4,5,0.8,0.9
2026-01-17T0100,3544A,121.4891,30.925,上海市,奉贤南桥新城,细颗粒物(PM2.5),127,123,167,96,144,34,,,,68,70,2,5,0.7,0.9
2026-01-17T0100,4183A,121.417401,31.16637,上海市,冠生园路458号,细颗粒物(PM2.5),138,134,145,105,124,18,,,,60,62,5,6,0.8,0.9
2026-01-17T0100,4205A,121.541914,31.268301,上海市,宁武路151号,细颗粒物(PM2.5),139,128,168,106,133,16,,,,74,96,5,6,1.0,1.3
2026-01-17T0100,2382A,117.9758,28.4439,上饶市,市监测站,细颗粒物(PM2.5),70,85,78,51,43,36,,,,53,48,40,29,/,/
2026-01-17T0100,2383A,117.9521,28.4637,上饶市,凤凰光学,"颗粒物(PM10),细颗粒物(PM2.5)",69,88,82,50,43,1,,,,76,58,18,18,0.9,0.9
2026-01-17T0100,3685A,117.897,28.4316,上饶市,双创科技城,细颗粒物(PM2.5),84,110,81,62,50,17,,,,87,60,15,14,1.1,1
2026-01-17T0100,4211A,118.190438,28.444845,上饶市,裕丰大道,细颗粒物(PM2.5),79,85,75,58,48,25,,,,45,45,12,14,0.9,1
2026-01-17T0100,1669A,113.5821,24.7733,韶关市,市八中,细颗粒物(PM2.5),112,148,114,84,72,7,,,,74,61,11,21,1.1,1
2026-01-17T0100,1671A,113.5916,24.7973,韶关市,园林处,细颗粒物(PM2.5),115,111,79,87,69,7,,,,82,61,9,20,/,/
2026-01-17T0100,1673A,113.5971,24.6864,韶关市,曲江监测站,细颗粒物(PM2.5),77,86,96,56,68,33,,,,52,49,11,19,0.8,1.1
2026-01-17T0100,2809A,113.6668,24.7756,韶关市,大学路288号,细颗粒物(PM2.5),89,79,76,66,60,46,,,,30,29,7,14,/,/
2026-01-17T0100,3622A,113.5556,24.8082,韶关市,碧湖山庄,细颗粒物(PM2.5),107,132,104,80,68,47,,,,35,34,9,16,0.8,0.8
2026-01-17T0100,2464A,111.5277,27.2442,邵阳市,市化工厂,细颗粒物(PM2.5),143,123,136,109,103,22,,,,39,47,12,11,1.0,1
2026-01-17T0100,2466A,111.4327,27.2276,邵阳市,市环保局,细颗粒物(PM2.5),152,124,112,116,108,26,,,,42,41,7,8,2.0,1.8
2026-01-17T0100,4218A,111.446,27.2472,邵阳市,北塔二期4-26地块,细颗粒物(PM2.5),169,132,129,128,127,17,,,,43,41,12,11,1.5,1.5
2026-01-17T0100,4219A,111.4739,27.2282,邵阳市,邵水西路287号,细颗粒物(PM2.5),140,140,121,107,99,22,,,,42,42,12,12,1.4,1.4
2026-01-17T0100,1247A,120.6053,29.9927,绍兴市,城东开发委,细颗粒物(PM2.5),148,138,102,113,80,3,,,,70,51,8,8,1.0,0.8
2026-01-17T0100,2921A,120.5482,30.0003,绍兴市,树下王站,细颗粒物(PM2.5),148,141,117,113,88,0,,,,80,64,6,7,1.1,0.9
2026-01-17T0100,3408A,120.5685,29.936,绍兴市,绍兴中专,细颗粒物(PM2.5),153,145,94,117,72,3,,,,75,61,7,8,0.8,0.6
2026-01-17T0100,3409A,120.4905,30.086,绍兴市,柯桥区政府,细颗粒物(PM2.5),112,140,120,84,75,2,,,,103,81,8,8,1.2,1
2026-01-17T0100,3410A,120.8751,30.0249,绍兴市,重华小学,细颗粒物(PM2.5),120,100,93,91,81,30,,,,55,50,6,9,0.6,0.5
2026-01-17T0100,3411A,120.837,30.0137,绍兴市,上虞中学,细颗粒物(PM2.5),148,147,102,113,100,3,,,,80,61,8,8,0.8,0.6
2026-01-17T0100,3560A,120.4715,30.0414,绍兴市,柯桥妇保,细颗粒物(PM2.5),135,146,103,103,72,36,,,,41,49,6,7,0.8,0.7
2026-01-17T0100,3658A,120.6156,30.0762,绍兴市,袍江中学,细颗粒物(PM2.5),201,219,140,151,96,12,,,,88,75,3,5,1.5,1.2
2026-01-17T0100,1356A,114.0948,22.5506,深圳市,通心岭子站,,38,38,52,22,35,80,,,,24,48,7,7,0.5,0.6
