timepoint,stationcode,longitude,latitude,area,positionname,primarypollutant,aqi,pm10,pm10_24h,pm2_5,pm2_5_24h,o3,o3_24h,o3_8h,o3_8h_24h,no2,no2_24h,so2,so2_24h,co,co_24h
2026-01-17T1500,2568A,102.2503,31.8896,阿坝藏族羌族自治州,马师校,,19,,21,6,18,60,,48,48,18,14,4,4,0.4,0.5
2026-01-17T1500,3994A,102.2174,31.9016,阿坝藏族羌族自治州,马尔康中学西区,,22,9,18,3,15,68,,52,52,6,12,5,5,0.4,0.4
2026-01-17T1500,2695A,80.2899,41.1684,阿克苏地区,电视台,颗粒物(PM10),85,119,168,40,76,69,,57,57,8,44,6,7,0.6,1.7
2026-01-17T1500,2696A,80.2592,41.1541,阿克苏地区,艺术中心,颗粒物(PM10),78,105,163,41,81,76,,66,66,10,48,8,6,0.5,1.3
2026-01-17T1500,2205A,105.699,38.8409,阿拉善盟,蒙二幼,颗粒物(PM10),76,101,66,31,20,60,,77,67,15,11,19,12,0.8,0.6
2026-01-17T1500,2206A,105.7198,38.8508,阿拉善盟,环保局新楼,细颗粒物(PM2.5),79,87,60,58,32,55,,79,66,15,8,17,11,0.8,0.6
2026-01-17T1500,2708A,88.1266,47.8515,阿勒泰地区,市站,,45,38,23,31,17,42,,59,41,34,28,30,6,0.7,0.6
2026-01-17T1500,4166A,88.1198,47.7931,阿勒泰地区,阿勒泰路33号,,25,24,29,17,19,61,,54,53,10,19,5,4,0.4,0.5
2026-01-17T1500,2630A,80.1171,32.4999,阿里地区,阿里监测站,,17,6,3,3,3,54,,59,48,1,9,6,5,0.4,0.5
2026-01-17T1500,3192A,80.0906,32.5029,阿里地区,阿里藏医院,颗粒物(PM10),55,59,12,7,3,91,,90,89,1,1,9,9,0.4,0.4
2026-01-17T1500,2644A,109.0088,32.6974,安康市,汉滨区检察院,细颗粒物(PM2.5),93,117,84,69,55,82,,31,31,29,30,7,5,0.8,0.8
2026-01-17T1500,4054A,109.0324,32.6913,安康市,市邮政管理局,颗粒物(PM10),90,130,103,66,65,80,,30,30,23,40,8,7,0.7,1.3
2026-01-17T1500,2291A,117.0806,30.5181,安庆市,环科院,细颗粒物(PM2.5),225,210,165,175,124,85,,58,58,18,29,5,8,1.0,0.9
2026-01-17T1500,2292A,117.0331,30.5118,安庆市,马山宾馆,细颗粒物(PM2.5),217,205,162,167,123,93,,62,62,20,32,4,7,1.1,1
2026-01-17T1500,2294A,116.9897,30.6146,安庆市,安庆大学,细颗粒物(PM2.5),222,227,160,172,120,87,,56,56,18,25,4,6,1.0,0.8
2026-01-17T1500,3173A,117.0598,30.5351,安庆市,市人大,细颗粒物(PM2.5),222,232,173,172,126,89,,58,58,24,40,6,9,0.9,0.8
2026-01-17T1500,3123A,105.9408,26.2431,安顺市,凤凰山,细颗粒物(PM2.5),59,57,107,42,96,102,,60,60,13,30,10,34,0.5,0.9
2026-01-17T1500,3124A,105.9443,26.2567,安顺市,金钟山,细颗粒物(PM2.5),65,61,97,47,96,94,,68,68,10,19,12,31,0.5,0.8
2026-01-17T1500,3125A,105.8983,26.248,安顺市,娄家坡,细颗粒物(PM2.5),62,51,106,44,96,98,,73,73,11,20,10,22,0.6,0.9
2026-01-17T1500,1819A,114.3552,36.1017,安阳市,红庙街,细颗粒物(PM2.5),73,69,95,53,66,47,,45,45,17,27,3,2,0.5,0.7
2026-01-17T1500,1820A,114.361,36.0681,安阳市,银杏小区,细颗粒物(PM2.5),73,72,91,53,63,44,,42,42,17,23,2,4,0.4,0.6
2026-01-17T1500,3141A,114.3921,36.0879,安阳市,信访局,细颗粒物(PM2.5),70,70,89,51,61,49,,48,48,18,21,3,4,0.6,0.7
2026-01-17T1500,3669A,114.4706,36.0634,安阳市,左辅环卫站,细颗粒物(PM2.5),74,78,102,54,64,49,,47,47,28,38,2,3,0.5,0.6
2026-01-17T1500,4117A,114.2918,36.0769,安阳市,钢三路198号,细颗粒物(PM2.5),79,82,106,58,67,48,,46,46,17,23,1,4,0.6,0.7
2026-01-17T1500,1748A,123.0441,41.1201,鞍山市,深沟寺,,27,27,35,14,20,61,,52,52,14,22,8,19,0.7,0.8
2026-01-17T1500,1749A,123.011,41.0931,鞍山市,太阳城,,23,22,32,16,19,70,,65,65,12,18,11,12,0.7,0.7
2026-01-17T1500,1750A,123.0483,41.1445,鞍山市,太平,,30,27,40,21,25,56,,47,46,18,28,10,13,0.7,0.8
2026-01-17T1500,1751A,122.964,41.0968,鞍山市,铁西三道街,,33,33,36,16,17,59,,52,52,19,31,14,25,0.5,1.3
2026-01-17T1500,1753A,123.0219,41.0822,鞍山市,明达新区,,22,22,28,12,17,62,,57,57,15,19,12,13,0.4,0.5
2026-01-17T1500,4201A,122.944647,41.082639,鞍山市,兴盛南路290号,,44,44,45,18,20,57,,50,50,23,29,15,21,0.5,1.2
2026-01-17T1500,2195A,107.4206,40.7609,巴彦淖尔市,附二中,颗粒物(PM10),69,88,57,32,23,56,,44,44,15,17,9,7,0.7,0.5
2026-01-17T1500,2196A,107.37,40.7372,巴彦淖尔市,市环保大楼,颗粒物(PM10),68,85,55,18,18,60,,48,48,17,16,11,8,0.7,0.6
2026-01-17T1500,1956A,86.1476,41.7529,巴音郭楞蒙古自治州,孔雀公园,颗粒物(PM10),55,59,81,26,34,73,,77,72,10,10,9,9,0.4,0.4
2026-01-17T1500,1957A,86.1971,41.7166,巴音郭楞蒙古自治州,棉纺厂,颗粒物(PM10),58,66,89,22,28,71,,61,59,8,16,/,/,/,/
2026-01-17T1500,1958A,86.236,41.7172,巴音郭楞蒙古自治州,经济开发区,颗粒物(PM10),57,63,67,17,25,67,,66,64,9,10,7,7,0.5,0.5
2026-01-17T1500,3181A,106.776805,31.852614,巴中市,市五中,细颗粒物(PM2.5),140,146,107,107,76,71,,18,18,21,32,7,6,1.1,1
2026-01-17T1500,3183A,106.7419,31.8654,巴中市,圣泉水务公司,细颗粒物(PM2.5),139,126,89,106,68,77,,23,23,20,39,6,5,1.0,0.8
2026-01-17T1500,3616A,106.7617,31.8343,巴中市,市中心医院,细颗粒物(PM2.5),143,144,102,109,75,74,,19,19,19,38,8,7,1.0,1.1
2026-01-17T1500,2235A,122.7909,45.608,白城市,洮北区环保局,,35,35,31,12,15,68,,59,59,10,14,7,5,0.2,0.3
2026-01-17T1500,2236A,122.8741,45.5725,白城市,市环保局,,31,31,33,7,14,69,,59,59,5,12,3,4,0.3,0.3
2026-01-17T1500,2231A,126.4219,41.9172,白山市,喜丰,,43,43,44,24,26,60,,44,44,16,23,14,13,0.7,0.7
2026-01-17T1500,2232A,126.4082,41.9416,白山市,环保局,,45,39,36,31,33,54,,37,37,18,22,23,12,0.5,0.6
2026-01-17T1500,2647A,104.1727,36.5448,白银市,第三小学,细颗粒物(PM2.5),83,84,142,61,66,77,,47,47,41,58,33,119,0.9,1.4
2026-01-17T1500,2648A,104.1467,36.5482,白银市,动力公司,细颗粒物(PM2.5),77,98,129,56,57,94,,64,64,26,44,22,52,1.1,1.3
2026-01-17T1500,2512A,106.6102,23.901,百色市,市监测站,细颗粒物(PM2.5),58,53,83,41,61,85,,41,41,12,24,9,13,0.7,1
2026-01-17T1500,2513A,106.6524,23.8842,百色市,市中心血站,细颗粒物(PM2.5),65,54,105,47,77,89,,36,36,7,39,8,12,0.8,1.2
2026-01-17T1500,4133A,106.6273,23.8798,百色市,龙景西路,细颗粒物(PM2.5),67,,131,48,81,101,,34,34,11,34,9,11,0.6,1
2026-01-17T1500,2270A,117.396,32.9389,蚌埠市,工人疗养院,颗粒物(PM10),88,125,176,50,101,53,,55,55,17,25,4,5,0.4,0.7
2026-01-17T1500,2271A,117.3606,32.9428,蚌埠市,百货大楼,颗粒物(PM10),85,119,164,53,98,51,,54,54,19,23,4,5,0.5,0.7
2026-01-17T1500,2273A,117.4183,32.8909,蚌埠市,蚌埠学院,颗粒物(PM10),87,124,154,49,97,52,,51,51,22,28,4,5,0.5,0.7
2026-01-17T1500,2274A,117.3534,32.9672,蚌埠市,淮上区政府,颗粒物(PM10),87,124,163,48,101,53,,52,52,20,28,1,2,0.5,0.7
2026-01-17T1500,2275A,117.3143,32.8977,蚌埠市,高新区,颗粒物(PM10),81,112,164,55,104,54,,53,53,14,25,6,7,0.2,0.5
2026-01-17T1500,3715A,117.3091,32.9314,蚌埠市,蚌埠田家炳中学,颗粒物(PM10),88,125,171,49,108,51,,54,54,20,28,3,5,0.5,0.8
2026-01-17T1500,1585A,109.8761,40.6533,包头市,市环境监测站,颗粒物(PM10),71,92,69,36,32,62,,29,29,28,48,15,15,0.5,1
2026-01-17T1500,1587A,109.9992,40.5843,包头市,包头八中,颗粒物(PM10),72,94,65,34,33,57,,36,36,29,42,17,18,0.6,0.8
2026-01-17T1500,1589A,109.8641,40.6288,包头市,惠龙物流,颗粒物(PM10),67,84,59,31,31,64,,34,34,27,46,15,18,0.7,1.2
2026-01-17T1500,1590A,110.0376,40.5546,包头市,东河鸿龙湾,颗粒物(PM10),76,101,53,27,22,61,,45,45,32,45,13,15,0.8,0.8
2026-01-17T1500,3283A,109.9154,40.5684,包头市,滨河大厦,颗粒物(PM10),64,77,46,32,23,59,,44,44,23,37,12,12,0.7,0.8
2026-01-17T1500,3419A,109.9449,40.6259,包头市,包头市委党校,颗粒物(PM10),60,70,66,29,31,56,,28,28,30,51,16,14,0.8,1.1
2026-01-17T1500,3683A,109.8332,40.6577,包头市,昆区政府,颗粒物(PM10),71,92,69,34,39,58,,28,28,33,56,16,20,0.7,1.3
2026-01-17T1500,1931A,107.0802,34.3129,宝鸡市,竹园沟,颗粒物(PM10),96,142,84,68,35,86,,46,46,22,22,10,7,0.6,0.3
2026-01-17T1500,1933A,107.1429,34.3549,宝鸡市,监测站,细颗粒物(PM2.5),113,172,103,85,49,78,,42,42,30,31,8,7,0.9,0.7
2026-01-17T1500,1934A,107.1172,34.3759,宝鸡市,技工学校,颗粒物(PM10),103,156,112,74,48,83,,47,47,28,28,8,9,1.0,0.9
2026-01-17T1500,1936A,107.2025,34.3518,宝鸡市,文理学院,细颗粒物(PM2.5),122,136,109,92,61,85,,46,46,26,35,8,6,0.7,0.6
2026-01-17T1500,1937A,107.2396,34.3626,宝鸡市,三迪小学,细颗粒物(PM2.5),113,171,116,85,62,83,,44,44,31,41,8,6,0.8,0.6
2026-01-17T1500,4155A,107.1721,34.3558,宝鸡市,滨河北路,颗粒物(PM10),97,144,116,70,46,78,,43,43,27,33,8,7,0.7,0.6
2026-01-17T1500,4308A,107.3898,34.3601,宝鸡市,陈仓区北开路21号,颗粒物(PM10),115,180,133,83,64,78,,47,47,36,54,10,9,0.6,0.5
2026-01-17T1500,1051A,115.4803,38.8568,保定市,游泳馆,细颗粒物(PM2.5),57,55,79,40,46,38,,29,29,25,41,2,2,0.6,0.6
2026-01-17T1500,1052A,115.509,38.8895,保定市,华电二区,,48,48,72,31,52,43,,32,32,21,40,4,3,0.7,0.6
2026-01-17T1500,1053A,115.4588,38.9037,保定市,接待中心,,49,41,70,34,42,38,,28,28,22,39,3,3,0.5,0.4
2026-01-17T1500,1054A,115.4484,38.8344,保定市,地表水厂,颗粒物(PM10),65,80,99,44,53,35,,26,26,26,44,4,6,0.6,0.6
2026-01-17T1500,3581A,115.3136,38.9511,保定市,满城区生态环境分局,颗粒物(PM10),54,58,83,36,49,36,,31,31,32,44,2,4,0.8,0.7
2026-01-17T1500,3582A,115.4709,38.7628,保定市,清苑区第二中学,颗粒物(PM10),59,68,104,36,47,35,,24,24,26,44,3,3,0.6,0.7
2026-01-17T1500,3583A,115.6231,39.0223,保定市,徐水物探局,,45,45,76,30,42,48,,33,33,20,37,2,3,0.6,0.6
2026-01-17T1500,4004A,115.4199,38.8665,保定市,双鹰农机,颗粒物(PM10),62,73,91,35,48,40,,35,35,24,38,4,6,0.7,0.6
2026-01-17T1500,4034A,115.515,38.8589,保定市,植保所站,细颗粒物(PM2.5),64,57,86,46,59,34,,24,24,31,48,1,2,0.8,0.8
2026-01-17T1500,2594A,99.1589,25.1137,保山市,市环境监测站,,33,28,26,21,18,104,,63,63,10,9,8,6,0.3,0.4
2026-01-17T1500,2595A,99.1616,25.1381,保山市,市环保局,,38,28,31,26,22,107,,69,69,8,6,4,4,0.4,0.4
2026-01-17T1500,1867A,109.1435,21.4085,北海市,海滩公园,细颗粒物(PM2.5),80,68,47,59,33,106,,86,64,18,13,13,8,0.9,0.8
2026-01-17T1500,1868A,109.0983,21.466,北海市,新市环保局,,,82,46,61,40,99,,90,71,25,20,,7,0.7,0.7
2026-01-17T1500,1869A,109.1775,21.5232,北海市,北海工业园,细颗粒物(PM2.5),74,66,64,54,47,98,,64,54,19,19,16,10,1.0,0.8
2026-01-17T1500,3400A,109.1844,21.4396,北海市,龙潭自来水厂,细颗粒物(PM2.5),67,62,50,48,45,97,,47,47,13,13,22,17,0.8,0.7
2026-01-17T1500,1001A,116.3611,39.8786,北京市,万寿西宫,,33,33,22,11,7,50,,52,52,20,15,5,3,0.6,0.4
2026-01-17T1500,1003A,116.4174,39.9289,北京市,东四,,33,33,21,12,8,50,,51,51,19,17,6,6,0.6,0.4
2026-01-17T1500,1004A,116.4073,39.8858,北京市,天坛,,32,32,20,11,8,51,,53,53,18,15,5,4,0.5,0.4
2026-01-17T1500,1005A,116.4622,39.9364,北京市,农展馆,,32,32,18,12,5,55,,58,58,13,12,6,5,0.5,0.4
2026-01-17T1500,1006A,116.3399,39.9293,北京市,官园,,37,37,24,7,7,49,,52,49,15,12,7,6,0.7,0.5
2026-01-17T1500,1007A,116.2879,39.9613,北京市,海淀万柳,,34,34,20,12,8,47,,49,47,22,17,5,4,0.6,0.5
2026-01-17T1500,1008A,116.6635,40.1349,北京市,顺义新城,,31,31,18,12,7,60,,64,58,14,9,7,5,0.6,0.4
2026-01-17T1500,1009A,116.6275,40.327,北京市,怀柔镇,,24,24,15,11,7,58,,57,54,15,10,9,6,0.7,0.4
2026-01-17T1500,1010A,116.2295,40.217,北京市,昌平镇,,33,33,20,11,8,58,,50,50,15,19,5,3,0.6,0.4
2026-01-17T1500,1011A,116.3968,39.982,北京市,奥体中心,,29,29,19,12,8,53,,54,54,22,20,6,5,0.8,0.5
2026-01-17T1500,3418A,116.8336,40.4095,北京市,密云新城,,26,26,13,12,6,61,,63,58,12,8,9,7,0.6,0.4
2026-01-17T1500,3671A,116.0879,39.9725,北京市,门头沟三家店,,29,29,21,15,9,54,,50,50,18,21,4,3,0.6,0.4
2026-01-17T1500,3672A,116.1507,39.8246,北京市,丰台云岗,,31,31,20,13,8,58,,58,58,16,13,5,3,0.6,0.4
2026-01-17T1500,3674A,115.9578,39.7602,北京市,房山燕山,,32,32,25,14,11,49,,46,46,20,18,5,4,0.6,0.3
2026-01-17T1500,3675A,116.4669,39.7734,北京市,大兴旧宫,,34,34,20,11,7,51,,55,55,20,21,5,4,0.6,0.5
2026-01-17T1500,3694A,115.9859,40.4562,北京市,延庆石河营,,32,32,17,14,8,58,,58,54,15,8,5,4,0.7,0.4
2026-01-17T1500,3695A,116.6151,40.3052,北京市,怀柔新城,,27,27,17,13,8,61,,60,57,11,9,9,6,0.6,0.4
2026-01-17T1500,3696A,116.2542,39.8764,北京市,丰台小屯,,33,33,20,12,8,46,,48,47,21,17,5,4,0.6,0.5
2026-01-17T1500,3697A,116.8399,40.3843,北京市,密云镇,,24,24,13,12,7,63,,62,58,12,10,6,3,0.6,0.4
2026-01-17T1500,4057A,115.9423,40.4431,北京市,延庆百泉,,36,36,18,14,8,50,,53,46,14,7,2,2,0.6,0.3
2026-01-17T1500,4058A,116.6598,39.9164,北京市,通州新华,,32,32,19,12,8,47,,44,44,16,18,3,3,0.6,0.5
2026-01-17T1500,4182A,116.1942,39.9158,北京市,石景山八角,,34,34,22,13,7,49,,47,47,13,11,1,2,0.5,0.2
2026-01-17T1500,4194A,117.078628,40.151726,北京市,平谷新城,,25,25,14,13,8,53,,53,51,11,5,6,2,0.5,0.2
2026-01-17T1500,1761A,123.8274146,41.31234549,本溪市,大峪,,21,14,61,8,38,66,,40,40,10,37,9,8,0.5,1
2026-01-17T1500,1763A,123.7169,41.3094,本溪市,彩屯,,31,31,58,14,34,63,,50,50,17,33,8,8,0.7,0.9
2026-01-17T1500,1764A,123.7672166,41.28649327,本溪市,东明,,,,50,7,34,62,,38,38,14,39,2,3,,1.2
2026-01-17T1500,1765A,123.799345,41.266614,本溪市,新立屯,,25,25,36,10,25,61,,46,46,11,34,10,9,0.5,0.7
2026-01-17T1500,1766A,123.829144,41.336777,本溪市,威宁,,21,21,74,9,47,65,,37,37,8,42,6,6,0.4,1.2
2026-01-17T1500,2587A,105.287,27.3133,毕节市,八中,细颗粒物(PM2.5),70,,119,51,106,102,,46,46,15,20,13,11,0.8,1
2026-01-17T1500,2588A,105.3079,27.2987,毕节市,师专,细颗粒物(PM2.5),84,75,127,62,109,108,,44,44,17,28,12,9,0.9,1.1
2026-01-17T1500,4263A,105.3688,27.3598,毕节市,工业大道,细颗粒物(PM2.5),95,97,148,71,102,115,,48,48,17,28,15,12,/,/
2026-01-17T1500,1629A,117.9961,37.3604,滨州市,第二水厂,,,,35,,17,62,,54,54,6,11,13,8,,0.8
2026-01-17T1500,1630A,117.9789,37.3931,滨州市,北中新校,,34,34,40,12,17,64,,53,53,13,18,6,5,0.3,0.3
2026-01-17T1500,3514A,117.9379,37.3959,滨州市,中海酒店,,25,17,32,17,21,61,,54,54,7,11,9,7,0.4,0.4
2026-01-17T1500,3515A,117.9381509,37.35547456,滨州市,开发区一中,,22,22,38,14,17,68,,60,60,5,9,14,10,0.2,0.3
2026-01-17T1500,3516A,118.0914,37.6938,滨州市,金海六路,,24,22,31,3,11,75,,69,69,6,9,3,3,0.2,0.2
2026-01-17T1500,4028A,117.9955,37.3752,滨州市,滨州市西街道办事处,,23,19,33,9,20,72,,62,62,8,13,11,8,0.3,0.4
2026-01-17T1500,2311A,115.8071,33.8399,亳州市,污水处理厂,颗粒物(PM10),67,84,129,39,67,41,,39,39,23,23,4,3,0.3,0.5
2026-01-17T1500,2312A,115.7789,33.8519,亳州市,三国揽胜宫,颗粒物(PM10),72,94,149,46,73,40,,38,37,22,22,3,2,0.4,0.6
2026-01-17T1500,3332A,115.7631,33.803,亳州市,亳州学院,颗粒物(PM10),71,91,134,46,75,41,,39,38,22,23,3,4,0.5,0.7
2026-01-17T1500,2693A,82.0482,44.8553,博尔塔拉蒙古自治州,市党校,,45,45,56,10,10,60,,74,64,13,16,4,3,1.0,0.3
2026-01-17T1500,2694A,82.0805,44.8966,博尔塔拉蒙古自治州,市环保局,,28,28,45,11,20,56,,62,53,8,9,3,6,0.4,0.3
2026-01-17T1500,1071A,116.8733,38.2922,沧州市,沧县城建局,,33,33,57,16,34,70,,59,59,10,31,4,5,0.3,0.5
2026-01-17T1500,1072A,116.8462,38.3189,沧州市,电视转播站,,32,32,57,14,28,69,,59,59,13,30,2,3,0.3,0.5
2026-01-17T1500,1073A,116.8588,38.3161,沧州市,市环保局,,38,38,61,22,36,65,,56,56,9,25,4,5,0.3,0.5
2026-01-17T1500,3324A,116.8011,38.294,沧州市,河北水利电力学院,,31,31,49,9,25,64,,57,57,12,23,3,3,0.2,0.4
2026-01-17T1500,2622A,97.1813,31.1289,昌都市,昌都监测站,,23,20,31,3,13,71,,56,56,11,17,3,3,0.2,0.4
2026-01-17T1500,3719A,97.1707,31.1428,昌都市,昌都会议中心,,18,11,11,3,12,57,,47,47,10,4,1,2,0.4,0.4
2026-01-17T1500,2692A,87.2722,44.0298,昌吉回族自治州,新区政务中心,,35,35,19,13,11,65,,62,60,12,13,10,9,0.3,0.3
2026-01-17T1500,3613A,87.3069,44.0093,昌吉回族自治州,亚心广场,,39,31,20,27,12,67,,64,61,5,6,8,8,0.5,0.5
2026-01-17T1500,4164A,87.2057,43.9289,昌吉回族自治州,财政所,,32,27,29,22,25,63,,58,46,11,14,5,6,0.4,0.4
2026-01-17T1500,1120A,125.2874,43.9024,长春市,客车厂,,43,39,57,30,58,58,,45,45,17,39,9,13,0.4,0.6
2026-01-17T1500,1121A,125.2943,43.8508,长春市,邮电学院,,38,38,56,26,54,60,,46,46,15,37,11,14,0.6,0.7
2026-01-17T1500,1122A,125.3648,43.8745,长春市,劳动公园,,36,36,60,19,54,57,,46,46,17,37,10,11,0.4,0.6
2026-01-17T1500,1123A,125.3233,43.8781,长春市,园林处,细颗粒物(PM2.5),64,,57,46,52,54,,46,46,19,32,12,11,0.5,0.6
2026-01-17T1500,1124A,125.4604,43.7904,长春市,净月潭,,32,32,63,18,51,59,,46,46,10,29,7,6,0.4,0.6
2026-01-17T1500,1126A,125.38,43.8422,长春市,经开区环卫处,,38,38,58,18,45,58,,46,46,17,39,8,7,0.4,0.6
2026-01-17T1500,1127A,125.234,43.7761,长春市,高新区管委会,,35,28,59,24,51,65,,52,52,12,38,8,8,0.3,0.5
2026-01-17T1500,1128A,125.1695,43.83,长春市,岱山公园,,46,44,64,32,58,73,,61,61,8,33,6,7,0.4,0.6
2026-01-17T1500,4281A,125.334645,43.916281,长春市,北亚泰大街1068号,,48,39,50,33,47,59,,47,47,19,36,8,11,0.4,0.7
2026-01-17T1500,1335A,113.082,28.2421,长沙市,经开区环保局,细颗粒物(PM2.5),188,194,132,141,121,44,,33,33,29,52,5,6,0.8,0.9
2026-01-17T1500,1336A,112.8873,28.2202,长沙市,高开区环保局,细颗粒物(PM2.5),198,172,135,148,138,63,,40,40,19,45,5,6,0.8,1
2026-01-17T1500,1337A,113.0785,28.2012,长沙市,马坡岭,细颗粒物(PM2.5),208,178,140,158,78,54,,37,37,24,56,5,7,0.8,1
2026-01-17T1500,1338A,112.9448,28.1894,长沙市,湖南师范大学,细颗粒物(PM2.5),152,183,135,116,96,64,,47,47,24,53,6,5,1.0,1
2026-01-17T1500,1339A,113.0177,28.1322,长沙市,雨花区环保局,细颗粒物(PM2.5),182,172,131,137,126,63,,41,41,30,60,9,9,1.0,1.1
2026-01-17T1500,1340A,112.9795,28.2593,长沙市,伍家岭,细颗粒物(PM2.5),173,185,151,131,114,57,,39,39,25,58,6,7,0.8,0.9
2026-01-17T1500,1341A,113.002,28.1944,长沙市,火车新站,细颗粒物(PM2.5),178,197,147,134,114,63,,46,46,28,57,6,22,1.0,1.2
2026-01-17T1500,1342A,112.9846,28.1177,长沙市,天心区环保局,细颗粒物(PM2.5),172,179,135,130,105,65,,44,44,28,54,6,7,0.8,1
2026-01-17T1500,1343A,112.8906,28.1307,长沙市,湖南中医药大学,细颗粒物(PM2.5),182,190,127,137,99,65,,44,44,30,46,6,6,0.9,1
2026-01-17T1500,1727A,113.1146,36.1547,长治市,清华站,细颗粒物(PM2.5),100,80,83,75,61,82,,65,65,22,22,14,13,1.2,1.1
2026-01-17T1500,1730A,113.0887,36.2126,长治市,审计局,细颗粒物(PM2.5),73,66,81,53,59,80,,64,64,14,18,9,11,0.9,1
2026-01-17T1500,1731A,113.0845,36.1856,长治市,长治八中,细颗粒物(PM2.5),113,119,111,85,67,75,,49,,21,19,14,11,1.2,1
2026-01-17T1500,2845A,113.1561,36.1912,长治市,德盛苑,细颗粒物(PM2.5),77,71,82,56,62,83,,64,64,14,19,11,10,1.0,1
2026-01-17T1500,3568A,113.0603,36.0464,长治市,向阳小学,细颗粒物(PM2.5),90,116,124,67,73,94,,57,57,20,31,11,15,0.8,1.6
2026-01-17T1500,3569A,112.8788,36.315,长治市,屯留一中,细颗粒物(PM2.5),82,84,96,60,55,72,,61,61,34,28,14,13,1.1,1.3
2026-01-17T1500,4189A,113.113092,36.199482,长治市,英华南巷50号,,,76,92,53,57,80,,63,63,,21,8,9,0.9,1
2026-01-17T1500,4190A,113.23666,36.33435,长治市,学府街1号,细颗粒物(PM2.5),54,49,77,38,54,74,,64,64,16,24,10,13,0.8,1.1
2026-01-17T1500,1854A,111.696,28.9725,常德市,市二中,细颗粒物(PM2.5),178,183,169,134,123,101,,71,71,18,21,8,9,0.9,0.9
2026-01-17T1500,3138A,111.7152,29.0288,常德市,武陵区永安,细颗粒物(PM2.5),178,200,172,134,118,74,,72,59,17,18,6,9,1.0,1
2026-01-17T1500,3139A,111.6891,28.9881,常德市,鼎城区玉霞,细颗粒物(PM2.5),173,186,166,131,122,104,,73,73,19,20,10,11,0.8,0.8
2026-01-17T1500,3140A,111.6651,29.0526,常德市,武陵区长庚,细颗粒物(PM2.5),183,197,173,138,123,98,,68,68,21,21,7,8,0.9,0.9
2026-01-17T1500,1196A,119.9524,31.7586,常州市,市监测站,细颗粒物(PM2.5),119,143,174,90,115,94,,113,78,24,46,4,6,0.9,1.1
2026-01-17T1500,1200A,119.9351,31.703,常州市,武进监测站,细颗粒物(PM2.5),112,131,162,84,116,92,,114,86,28,44,11,13,0.8,0.8
2026-01-17T1500,3002A,119.9701,31.813,常州市,行政中心,细颗粒物(PM2.5),108,148,158,81,104,98,,119,73,26,41,5,6,0.9,0.9
2026-01-17T1500,3003A,120.0434,31.7726,常州市,经开区,细颗粒物(PM2.5),108,141,174,81,106,100,,118,82,23,48,5,7,0.8,1
2026-01-17T1500,3010A,119.8919,31.7892,常州市,钟楼,细颗粒物(PM2.5),109,136,155,82,109,91,,113,74,23,39,6,7,0.8,0.8
2026-01-17T1500,3429A,119.8595,31.706,常州市,武进经发区,细颗粒物(PM2.5),123,138,164,93,129,101,,120,93,27,53,1,5,1.0,1.1
2026-01-17T1500,3430A,119.5812,31.7256,常州市,金坛城区,细颗粒物(PM2.5),124,156,173,94,128,101,,114,79,21,33,6,9,1.0,1.1
2026-01-17T1500,4089A,119.9551,31.863,常州市,崇义南街5-H号,细颗粒物(PM2.5),113,145,146,85,107,74,,119,72,41,43,5,6,1.1,1.1
2026-01-17T1500,2220A,120.4318,41.588,朝阳市,西梁,,21,19,39,7,19,67,,44,44,9,17,8,10,0.4,0.7
2026-01-17T1500,2221A,120.452,41.565,朝阳市,河畔小区,,22,12,26,9,12,68,,55,55,7,14,7,7,0.4,0.5
2026-01-17T1500,2222A,120.4176,41.5648,朝阳市,八里堡,,21,14,31,8,16,65,,46,46,9,18,7,7,0.4,0.5
2026-01-17T1500,3026A,116.6179,23.6608,潮州市,市政府,颗粒物(PM10),67,84,85,46,47,164,,106,106,17,35,7,14,0.4,0.6
2026-01-17T1500,4036A,116.646,23.676,潮州市,金山,"细颗粒物(PM2.5),臭氧1小时(O3_1h)",67,78,63,48,45,173,,110,110,15,20,7,6,0.5,0.6
2026-01-17T1500,2473A,113.0116,25.8228,郴州市,市职中,细颗粒物(PM2.5),123,,90,93,77,82,,31,31,11,33,13,8,0.9,0.9
2026-01-17T1500,2475A,113.0381,25.8074,郴州市,市审计局,细颗粒物(PM2.5),125,111,94,95,76,83,,40,40,12,35,9,4,/,/
2026-01-17T1500,2476A,113.0348,25.7757,郴州市,市环保局,细颗粒物(PM2.5),132,113,101,100,79,81,,37,37,17,42,16,7,0.7,0.7
2026-01-17T1500,4252A,113.0138,25.8011,郴州市,好美居路49号,细颗粒物(PM2.5),117,98,87,88,74,92,,47,47,16,43,12,9,/,/
2026-01-17T1500,1431A,103.9727,30.7242,成都市,金泉两河,细颗粒物(PM2.5),178,149,126,134,99,121,,47,47,58,72,6,4,1.3,1.4
2026-01-17T1500,1432A,104.1423,30.6765,成都市,十里店,细颗粒物(PM2.5),163,153,152,124,115,120,,38,38,48,80,6,5,1.0,1.4
2026-01-17T1500,1433A,104.0594,30.5765,成都市,三瓦窑,细颗粒物(PM2.5),155,134,153,118,129,140,,42,42,30,81,6,6,1.1,1.4
2026-01-17T1500,1434A,104.1122,30.6306,成都市,沙河铺,细颗粒物(PM2.5),182,156,145,137,131,93,,27,27,71,81,4,3,1.3,1.5
2026-01-17T1500,2880A,104.0219,30.6561,成都市,大石西路,细颗粒物(PM2.5),129,139,150,98,108,121,,48,48,36,72,8,7,0.9,1.4
2026-01-17T1500,3136A,104.2724,30.559,成都市,龙泉驿区区政府,细颗粒物(PM2.5),134,117,109,102,89,131,,79,79,26,28,10,8,0.9,0.9
2026-01-17T1500,3357A,104.0028,30.6891,成都市,金博路,细颗粒物(PM2.5),180,155,138,136,107,116,,42,42,70,83,9,7,1.6,1.6
2026-01-17T1500,3359A,104.056,30.5228,成都市,华阳,细颗粒物(PM2.5),132,127,144,100,111,131,,50,50,31,75,7,6,0.9,1.5
2026-01-17T1500,3488A,104.387954,30.746684,成都市,青石路225号,细颗粒物(PM2.5),143,155,127,109,97,128,,53,53,27,59,7,5,0.9,1
2026-01-17T1500,3489A,104.0788,30.4054,成都市,科学城,细颗粒物(PM2.5),196,157,123,147,100,128,,50,50,22,45,11,10,0.8,1
2026-01-17T1500,4011A,103.8505,30.6946,成都市,光华大道三段,细颗粒物(PM2.5),145,139,146,111,109,148,,61,61,37,61,5,5,0.6,1
2026-01-17T1500,4144A,104.3257,30.6406,成都市,八角井街185号,细颗粒物(PM2.5),160,145,131,122,94,123,,59,59,30,33,8,5,0.8,0.9
2026-01-17T1500,4224A,104.2433276,30.53529463,成都市,鲸龙路1057号,细颗粒物(PM2.5),147,138,127,112,106,128,,72,72,26,50,8,8,0.9,1
2026-01-17T1500,1062A,117.9531,40.908,承德市,铁路,,20,12,25,3,10,62,,45,45,6,11,7,5,0.3,0.3
2026-01-17T1500,1063A,117.9397,40.9763,承德市,中国银行,,21,21,24,3,6,63,,50,50,3,6,4,2,0.3,0.3
2026-01-17T1500,4073A,117.9462,40.95,承德市,杏林街1号,,20,13,18,3,11,63,,51,51,4,6,6,4,0.3,0.3
2026-01-17T1500,4274A,117.7994,40.9605,承德市,滨河大街98号,,19,14,23,3,9,60,,54,54,8,12,5,3,0.3,0.2
2026-01-17T1500,2314A,117.4698,30.6617,池州市,池州学院,细颗粒物(PM2.5),204,183,155,154,124,70,,62,62,32,53,3,7,1.1,1
2026-01-17T1500,3237A,117.4918,30.6617,池州市,展览馆,细颗粒物(PM2.5),211,201,153,161,118,71,,63,63,30,52,1,3,1.3,1.3
2026-01-17T1500,3333A,117.5626,30.695,池州市,第八中学,细颗粒物(PM2.5),183,179,145,138,112,67,,61,61,30,50,3,8,1.4,1.3
2026-01-17T1500,3334A,117.5037,30.6242,池州市,第十二中学,细颗粒物(PM2.5),189,181,153,142,107,67,,63,63,34,58,2,5,1.2,1.2
2026-01-17T1500,1744A,118.9229,42.2816,赤峰市,松山一中,颗粒物(PM10),54,57,25,28,10,39,,38,32,33,23,46,13,1.0,0.7
2026-01-17T1500,1745A,118.9588,42.2733,赤峰市,哈达街,颗粒物(PM10),53,56,28,24,15,35,,32,32,39,22,85,17,0.9,0.8
2026-01-17T1500,1746A,118.8792,42.2551,赤峰市,天义路,,30,30,18,16,16,53,,47,47,18,17,29,9,0.7,0.7
2026-01-17T1500,3058A,119.2656,42.0356,赤峰市,银河街,,33,33,41,20,21,65,,44,44,7,13,16,16,0.7,0.9
2026-01-17T1500,3286A,118.9359,42.3146,赤峰市,桥北物流园区,,29,26,18,20,12,55,,56,50,20,13,18,7,0.6,0.5
2026-01-17T1500,2521A,107.3473,22.4137,崇左市,市环保局江州分局,细颗粒物(PM2.5),68,76,99,49,60,116,,64,64,13,21,8,8,1.1,1
2026-01-17T1500,4256A,107.375,22.3736,崇左市,石景林东路7号,细颗粒物(PM2.5),74,77,78,54,66,117,,67,67,14,24,8,8,0.8,0.8
2026-01-17T1500,3207A,118.31131,32.3033,滁州市,市政府原办公楼,颗粒物(PM10),101,152,156,73,102,61,,77,67,25,34,5,6,0.6,0.8
2026-01-17T1500,3331A,118.3268,32.2633,滁州市,图书馆,颗粒物(PM10),101,151,151,64,96,58,,73,65,23,28,8,9,0.7,0.9
2026-01-17T1500,4101A,118.3196,32.3335,滁州市,银山路666号,细颗粒物(PM2.5),103,127,140,77,116,59,,74,64,19,31,4,9,0.6,0.8
2026-01-17T1500,4102A,118.3426,32.2979,滁州市,黄山路555号,细颗粒物(PM2.5),108,147,168,81,115,63,,75,66,26,40,16,16,0.9,1.1
2026-01-17T1500,2606A,101.5379,25.0492,楚雄彝族自治州,市经济开发区,,26,22,34,17,23,81,,44,44,4,20,3,4,0.5,0.5
2026-01-17T1500,4153A,101.5536,25.0343,楚雄彝族自治州,团结路562号,,25,24,27,6,17,80,,44,44,4,19,3,5,0.3,0.4
2026-01-17T1500,2549A,107.5087,31.2186,达州市,市环境监测站,细颗粒物(PM2.5),188,174,147,141,115,40,,17,17,41,38,10,7,1.0,1
2026-01-17T1500,2550A,107.4988,31.2132,达州市,凤凰小区,细颗粒物(PM2.5),199,178,155,149,121,33,,12,12,42,42,9,6,1.2,1.2
2026-01-17T1500,2551A,107.5081,31.1987,达州市,达县机关宾馆,细颗粒物(PM2.5),178,175,170,134,127,45,,16,16,34,48,6,5,1.2,1.3
2026-01-17T1500,2552A,107.4644,31.2124,达州市,市政中心,细颗粒物(PM2.5),199,192,166,149,120,41,,15,15,57,50,8,7,1.2,1.1
2026-01-17T1500,2614A,100.2168,25.5818,大理白族自治州,大理市环境监测站,,25,25,22,13,17,76,,63,61,8,9,6,6,0.6,0.5
2026-01-17T1500,2615A,100.1542,25.7055,大理白族自治州,大理古城,,29,20,26,12,19,92,,62,62,6,14,8,8,0.6,0.6
2026-01-17T1500,1109A,121.6119,38.974,大连市,甘井子,,22,22,30,12,17,64,,58,57,14,15,7,8,0.3,0.3
2026-01-17T1500,1110A,121.565,38.9509,大连市,周水子,,29,29,38,11,16,58,,52,52,14,14,9,12,0.4,0.4
2026-01-17T1500,1111A,121.5637,38.8849,大连市,星海三站,,25,25,33,15,13,55,,51,51,18,18,11,8,0.5,0.5
2026-01-17T1500,1112A,121.6301,38.9117,大连市,青泥洼桥,,26,26,30,14,17,56,,51,48,15,16,10,9,0.4,0.5
2026-01-17T1500,1113A,121.6248,38.8643,大连市,傅家庄,,27,27,32,15,15,48,,47,44,20,18,10,10,0.4,0.4
2026-01-17T1500,1114A,121.5117,38.8636,大连市,七贤岭,,28,28,37,12,15,57,,53,53,10,11,7,6,0.4,0.5
2026-01-17T1500,1116A,121.7507,39.1339,大连市,金州,,37,37,32,19,18,68,,60,60,16,16,8,9,0.5,0.4
2026-01-17T1500,1117A,121.7811,39.0495,大连市,开发区,,30,30,36,13,16,62,,54,53,11,12,6,6,0.3,0.5
2026-01-17T1500,1118A,121.9762,39.0631,大连市,双D港,,26,26,32,14,16,70,,66,66,10,12,9,9,0.2,0.3
2026-01-17T1500,4082A,121.2548,38.8188,大连市,旅顺,,22,22,24,8,10,66,,62,62,6,7,6,7,0.5,0.5
2026-01-17T1500,1789A,124.8085,46.0381,大庆市,大同区,,23,23,43,10,27,65,,52,52,5,19,6,7,0.5,0.7
2026-01-17T1500,1790A,125.1166,46.5255,大庆市,龙凤区,,25,20,40,17,26,59,,49,49,15,28,9,12,0.2,0.4
2026-01-17T1500,1791A,124.8894,46.4007,大庆市,红岗区,,20,20,30,9,20,57,,46,46,7,23,5,5,0.3,0.4
2026-01-17T1500,1792A,125.1391,46.578,大庆市,萨尔图区,,23,23,36,12,20,61,,54,54,6,18,8,10,0.3,0.5
2026-01-17T1500,1793A,124.9026,46.6217,大庆市,让胡路区,,26,21,36,18,29,71,,64,64,2,11,8,9,0.4,0.5
2026-01-17T1500,3481A,125.127,46.6277,大庆市,萨区政府监测点,,22,22,32,9,13,62,,55,55,5,18,9,9,0.4,0.6
2026-01-17T1500,1723A,113.2926,40.0759,大同市,云冈宾馆,颗粒物(PM10),65,80,45,42,24,52,,39,39,20,22,5,9,0.9,0.9
2026-01-17T1500,1724A,113.3437,40.0921,大同市,大同大学,细颗粒物(PM2.5),89,77,39,66,32,64,,46,46,13,18,3,7,0.7,0.8
2026-01-17T1500,1725A,113.2637,40.129,大同市,安家小村,颗粒物(PM10),68,85,58,48,27,59,,38,38,16,34,7,10,0.6,1
2026-01-17T1500,3282A,113.3399,40.0586,大同市,大同市卫生学校,细颗粒物(PM2.5),79,82,39,58,45,58,,45,45,17,20,3,5,0.7,0.6
2026-01-17T1500,3565A,113.1371,40.1122,大同市,云冈站,颗粒物(PM10),78,106,58,50,25,51,,32,32,24,35,7,10,0.9,0.9
2026-01-17T1500,3566A,113.1186,40.2556,大同市,图书馆,细颗粒物(PM2.5),78,93,53,57,30,57,,38,38,22,20,8,7,0.7,0.8
2026-01-17T1500,3567A,113.5931,40.0459,大同市,区一中,颗粒物(PM10),73,95,35,36,17,69,,64,64,14,10,1,2,0.6,0.4
2026-01-17T1500,4199A,113.2798248,40.09972476,大同市,魏都大道141号,颗粒物(PM10),71,91,59,38,27,55,,35,35,19,32,4,7,0.8,1.1
2026-01-17T1500,2269A,124.1068,50.4091,大兴安岭地区,科技局,,21,21,18,14,12,54,,52,52,1,2,5,5,0.2,0.2
2026-01-17T1500,3663A,124.117,50.4279,大兴安岭地区,红旗社区,,17,7,6,3,5,53,,52,52,3,3,5,5,0.2,0.2
2026-01-17T1500,1600A,124.33,40.0625,丹东市,江湾东路,,30,28,31,21,21,66,,57,57,11,15,8,7,0.5,0.6
2026-01-17T1500,1601A,124.4242,40.1513,丹东市,临江后街,,22,21,29,10,17,70,,62,62,7,12,4,5,0.5,0.6
2026-01-17T1500,1602A,124.3935,40.1461,丹东市,元宝山,,22,18,27,11,19,69,,61,61,7,12,7,8,0.4,0.5
2026-01-17T1500,1603A,124.3634,40.1093,丹东市,民主桥,,22,22,28,10,13,63,,59,57,10,14,7,8,0.3,0.7
2026-01-17T1500,3541A,109.5726195,19.51688767,儋州市,第一中学子站,,29,28,41,18,26,90,,66,66,2,6,3,4,0.5,0.6
2026-01-17T1500,3542A,109.5567,19.5187,儋州市,东坡学校子站,,32,23,41,15,21,101,,71,71,2,6,5,5,0.4,0.6
2026-01-17T1500,2616A,98.5611,24.4273,德宏傣族景颇族自治州,德宏州监测站,,32,31,45,22,32,86,,43,43,11,20,7,7,0.5,0.7
2026-01-17T1500,3677A,98.5887,24.4366,德宏傣族景颇族自治州,芒市人民政府综合楼,,50,50,46,28,25,81,,40,40,10,14,6,5,0.5,0.6
2026-01-17T1500,1901A,104.424,31.1209,德阳市,东山公园,细颗粒物(PM2.5),138,111,88,105,74,111,,59,59,38,30,9,7,0.9,0.8
2026-01-17T1500,1902A,104.3827,31.1318,德阳市,西小区,细颗粒物(PM2.5),132,128,121,100,86,122,,41,41,28,58,7,6,1.1,1.4
2026-01-17T1500,1904A,104.3553,31.1091,德阳市,耐火材料厂,细颗粒物(PM2.5),140,108,110,107,91,115,,32,32,37,58,6,5,1.0,1.1
2026-01-17T1500,4145A,104.4144,31.1495,德阳市,市林业局,细颗粒物(PM2.5),144,115,93,110,78,113,,42,42,34,56,6,4,0.7,0.7
2026-01-17T1500,1622A,116.3034,37.4675,德州市,儿童乐园,,39,39,57,22,27,64,,59,59,16,20,12,12,0.6,0.7
2026-01-17T1500,1624A,116.2992,37.4449,德州市,监理站,,,,55,,27,,,54,,,21,,10,,0.7
2026-01-17T1500,3066A,116.2722,37.438,德州市,九衢泉纯净水厂,,,36,52,27,28,65,,61,61,,16,,6,0.5,0.6
2026-01-17T1500,3371A,116.3693,37.44,德州市,开发区人民医院,,39,39,50,14,23,69,,62,62,20,26,12,12,0.4,0.5
2026-01-17T1500,3511A,116.5687,37.3331,德州市,陵城艺术中心,颗粒物(PM10),57,63,55,29,27,65,,60,60,16,23,15,15,0.4,0.8
2026-01-17T1500,4292A,116.352738,37.420875,德州市,新河东路,,46,46,53,22,26,64,,60,60,17,19,13,12,0.8,0.8
2026-01-17T1500,2621A,99.7054,27.8319,迪庆藏族自治州,迪庆州站,,26,,28,14,22,81,,60,60,5,12,4,5,0.1,0.4
2026-01-17T1500,3180A,99.7122,27.8129,迪庆藏族自治州,质量技术监督局,,,,32,,22,88,,60,60,,15,4,4,,0.5
2026-01-17T1500,4257A,104.6092,35.5962,定西市,将台街,颗粒物(PM10),57,63,77,33,38,91,,68,68,8,24,11,15,0.4,0.6
2026-01-17T1500,4309A,104.6159,35.5701,定西市,正龙路62号,颗粒物(PM10),70,89,85,34,34,82,,69,63,2,9,7,10,0.5,0.7
2026-01-17T1500,1390A,113.7943,23.0132,东莞市,东城石井,臭氧1小时(O3_1h),122,70,82,44,47,243,,144,144,33,56,9,8,0.5,0.7
2026-01-17T1500,1391A,113.7384,22.9659,东莞市,南城西平,臭氧1小时(O3_1h),123,66,94,47,54,245,,123,123,33,87,8,8,0.7,0.9
2026-01-17T1500,3319A,113.7283,23.041,东莞市,万江金泰,臭氧1小时(O3_1h),128,91,115,60,70,256,,137,137,30,79,7,10,1.0,1.2
2026-01-17T1500,4129A,113.8666,23.1062,东莞市,裕兴路,臭氧1小时(O3_1h),134,97,121,38,56,268,,144,144,29,73,7,9,0.8,0.9
2026-01-17T1500,4130A,114.0076,22.9739,东莞市,教育路1号,臭氧1小时(O3_1h),130,84,107,42,55,259,,132,132,33,71,7,7,0.7,0.8
2026-01-17T1500,4131A,113.7981,22.8124,东莞市,长怡路1号,臭氧1小时(O3_1h),117,94,95,45,48,234,,102,102,34,83,8,7,0.8,1
2026-01-17T1500,1666A,118.6612,37.4313,东营市,市环保局,,23,17,28,3,10,71,,69,69,16,17,7,6,0.4,0.4
2026-01-17T1500,3036A,118.6903,37.4337,东营市,开发区管委会,,23,23,30,3,11,70,,68,68,5,5,9,8,0.1,0.1
2026-01-17T1500,3365A,118.5721,37.5654,东营市,垦利区民丰路,,24,12,28,3,10,74,,67,67,8,12,4,3,0.0,0.3
2026-01-17T1500,3498A,118.5063,37.8606,东营市,河口城区,,23,19,30,3,10,73,,67,67,14,14,5,4,0.6,0.7
2026-01-17T1500,3646A,118.4979,37.4623,东营市,胜利站,,24,24,34,3,12,68,,62,62,13,14,10,10,0.3,0.6
2026-01-17T1500,3734A,118.5753,37.4405,东营市,理想之城,,20,17,31,9,16,63,,58,58,15,12,4,3,0.4,0.4
2026-01-17T1500,1591A,110.0024,39.8127,鄂尔多斯市,综合楼,颗粒物(PM10),103,156,95,34,24,81,,48,48,18,39,8,12,0.4,0.6
2026-01-17T1500,1592A,109.9485,39.8259,鄂尔多斯市,巴音孟克林场办事处,颗粒物(PM10),90,129,82,29,23,80,,52,52,18,32,12,12,0.4,0.6
2026-01-17T1500,1593A,109.7734,39.5987,鄂尔多斯市,康泽苑,颗粒物(PM10),92,134,86,36,29,97,,57,57,15,41,8,9,0.5,0.6
2026-01-17T1500,1594A,109.8121,39.5987,鄂尔多斯市,华泰汽车城,颗粒物(PM10),89,127,87,29,25,91,,47,47,14,41,7,9,0.3,0.5
2026-01-17T1500,1595A,109.9734,39.7884,鄂尔多斯市,奥林花园,颗粒物(PM10),92,134,85,27,21,81,,44,44,16,41,7,11,0.5,0.7
2026-01-17T1500,2436A,114.894,30.3989,鄂州市,市政府,细颗粒物(PM2.5),165,150,141,125,113,58,,34,34,32,47,6,7,0.6,0.7
2026-01-17T1500,2437A,114.8986,30.3714,鄂州市,赵家坝,细颗粒物(PM2.5),173,171,153,131,111,57,,34,34,28,38,11,10,1.2,1.1
2026-01-17T1500,3654A,114.8093,30.4091,鄂州市,精准医疗中心,细颗粒物(PM2.5),175,152,146,132,116,65,,44,44,29,45,22,14,1.1,1.1
2026-01-17T1500,2454A,109.4978,30.2979,恩施土家族苗族自治州,湖北民院,细颗粒物(PM2.5),135,108,128,103,135,61,,20,20,22,25,6,6,1.0,1.6
2026-01-17T1500,3549A,109.5061,30.3771,恩施土家族苗族自治州,龙凤新区,细颗粒物(PM2.5),147,123,145,112,126,54,,16,16,17,21,7,7,0.8,1.1
2026-01-17T1500,2499A,108.3411,21.6159,防城港市,沙万,,45,45,65,24,36,77,,51,51,29,39,11,9,1.3,1
2026-01-17T1500,2500A,108.3515,21.7733,防城港市,防城档案局,,49,49,59,27,40,93,,52,52,10,17,6,6,0.9,0.8
2026-01-17T1500,2501A,108.3506,21.6414,防城港市,大海花园,,42,41,55,29,37,96,,56,56,17,28,12,12,1.1,0.9
2026-01-17T1500,1371A,113.1293,23.0065,佛山市,湾梁,臭氧1小时(O3_1h),106,146,114,67,49,211,,91,91,59,81,/,/,/,/
2026-01-17T1500,1372A,113.1082,23.0477,佛山市,华材职中,细颗粒物(PM2.5),165,195,137,125,64,198,,98,98,99,71,11,7,0.9,0.9
2026-01-17T1500,1373A,113.1439,23.045,佛山市,南海气象局,细颗粒物(PM2.5),95,116,96,71,63,185,,91,91,74,75,/,/,/,/
2026-01-17T1500,1374A,113.2879,22.8094,佛山市,顺德苏岗,臭氧1小时(O3_1h),93,84,91,63,61,194,,78,78,47,73,/,/,0.9,1
2026-01-17T1500,1376A,112.8384,22.8678,佛山市,高明孔堂,臭氧1小时(O3_1h),116,112,89,84,65,231,,138,138,45,43,/,/,/,/
2026-01-17T1500,1377A,112.8835,23.1584,佛山市,三水监测站,细颗粒物(PM2.5),192,234,206,144,119,224,,101,101,73,125,11,8,1.0,1.1
2026-01-17T1500,1378A,112.8668,23.185,佛山市,三水云东海,细颗粒物(PM2.5),228,242,157,178,115,191,,85,85,107,97,/,/,/,/
2026-01-17T1500,3625A,113.2568,22.7629,佛山市,容桂街道办,细颗粒物(PM2.5),104,119,104,78,73,201,,108,108,58,64,/,/,/,/
2026-01-17T1500,1282A,119.2681,26.0506,福州市,师大,颗粒物(PM10),60,69,63,34,36,145,,83,83,23,42,6,7,0.6,0.7
2026-01-17T1500,1283A,119.2983,26.1028,福州市,五四北路,颗粒物(PM10),53,55,58,36,34,144,,82,82,24,44,7,6,0.7,0.7
2026-01-17T1500,1284A,119.2648,26.0769,福州市,杨桥西路,颗粒物(PM10),55,60,57,37,34,146,,82,82,15,31,7,7,/,/
2026-01-17T1500,3048A,119.5799,26.0937,福州市,九龙,,49,45,43,34,27,138,,96,96,15,26,6,6,0.7,0.7
2026-01-17T1500,3526A,119.5188,25.9666,福州市,吴航,,37,31,52,18,31,116,,82,82,11,33,5,6,0.5,0.6
2026-01-17T1500,4104A,119.3106,26.0648,福州市,路通桥巷6号,颗粒物(PM10),54,57,59,30,40,137,,77,77,16,34,/,/,/,/
2026-01-17T1500,1755A,123.7974,41.8494,抚顺市,望花区,,22,22,84,8,64,68,,38,38,9,45,2,5,0.6,1.4
2026-01-17T1500,1756A,123.9161,41.8827,抚顺市,顺城区,,23,20,91,8,65,71,,42,42,9,46,7,8,0.6,1.4
2026-01-17T1500,1757A,124.0437,41.8615,抚顺市,东洲区,,46,44,95,32,67,58,,40,40,19,35,6,19,0.8,1.2
2026-01-17T1500,1758A,123.9246,41.8638,抚顺市,新抚区,,,23,95,8,65,72,,41,41,12,46,,7,0.6,1.3
2026-01-17T1500,1759A,124.0972,41.8961,抚顺市,大伙房水库,,48,45,60,33,47,66,,46,46,13,24,10,10,0.8,1
2026-01-17T1500,1760A,123.708,41.8386,抚顺市,沈抚新城,,46,35,93,32,82,61,,38,38,11,44,7,10,3.9,2.5
2026-01-17T1500,2377A,116.3544,27.9833,抚州市,市站,颗粒物(PM10),139,227,96,55,60,123,,83,83,14,22,10,16,1.1,0.8
2026-01-17T1500,2378A,116.3562,27.9631,抚州市,血防站,细颗粒物(PM2.5),72,71,78,52,57,122,,82,82,19,26,10,15,1.5,1.4
2026-01-17T1500,2379A,116.3561,28.0007,抚州市,采茶剧团,细颗粒物(PM2.5),64,68,84,46,65,116,,79,79,11,23,10,12,1.3,1.3
2026-01-17T1500,2380A,116.3854,27.9648,抚州市,医学分院,颗粒物(PM10),65,80,85,46,54,118,,80,80,10,15,10,17,0.9,0.9
2026-01-17T1500,2207A,121.6095,41.9978,阜新市,工业园区,,25,25,25,12,13,62,,53,53,10,12,9,10,0.3,0.4
2026-01-17T1500,2208A,121.6567,42.0188,阜新市,长青街,,21,11,13,3,9,66,,60,60,8,8,7,8,0.3,0.3
2026-01-17T1500,2209A,121.6672,42.07,阜新市,农业园区,,,18,21,6,9,65,,60,60,,10,7,9,0.5,0.4
2026-01-17T1500,2211A,121.6343,42.0455,阜新市,玉龙新城,,22,22,23,6,10,64,,50,50,7,14,5,7,0.4,0.4
2026-01-17T1500,2301A,115.8276,32.8929,阜阳市,市监测站,颗粒物(PM10),116,182,188,75,105,34,,30,30,24,35,4,5,0.6,0.8
2026-01-17T1500,2303A,115.8551,32.8606,阜阳市,开发区,颗粒物(PM10),124,197,196,68,95,34,,31,31,22,30,4,5,0.6,0.8
2026-01-17T1500,2875A,115.783962,32.889217,阜阳市,阜阳职业技术学院,颗粒物(PM10),115,180,183,71,96,37,,34,34,16,23,6,6,0.7,0.8
2026-01-17T1500,3468A,115.79,32.8614,阜阳市,市规划展馆,颗粒物(PM10),132,214,190,71,107,37,,36,36,18,26,5,6,0.7,0.9
2026-01-17T1500,3469A,115.835101,32.918568,阜阳市,枣园社区,颗粒物(PM10),119,187,189,70,107,33,,29,29,22,30,4,5,0.7,0.9
2026-01-17T1500,2669A,102.9097,34.9841,甘南藏族自治州,州政府,,29,21,51,10,31,91,,44,44,1,32,8,12,0.2,1.1
2026-01-17T1500,3380A,102.8915,34.9618,甘南藏族自治州,甘肃民族师范学院,,32,32,56,3,15,84,,46,46,5,36,7,11,0.1,0.3
2026-01-17T1500,2570A,101.96,30.048,甘孜藏族自治州,水桥子,,20,19,25,7,11,64,,41,41,19,25,7,6,0.3,0.3
2026-01-17T1500,3065A,101.9534,29.9976,甘孜藏族自治州,州环保局,,37,37,23,8,8,92,,72,72,3,9,6,6,0.4,0.5
2026-01-17T1500,2363A,114.9368,25.8663,赣州市,地委,细颗粒物(PM2.5),80,72,71,59,48,153,,74,74,12,44,11,10,1.0,1.1
2026-01-17T1500,2364A,114.946,25.8483,赣州市,气象台,细颗粒物(PM2.5),69,58,87,50,45,141,,74,74,27,76,7,6,0.4,0.6
2026-01-17T1500,2365A,114.932,25.8332,赣州市,市图书馆,细颗粒物(PM2.5),68,55,94,49,52,118,,60,60,16,66,7,7,1.0,1.2
2026-01-17T1500,2366A,114.8905,25.8472,赣州市,华坚鞋城,细颗粒物(PM2.5),67,65,93,48,51,114,,67,67,17,61,11,12,0.5,0.8
2026-01-17T1500,3109A,115.0094,25.8614,赣州市,赣县区卫计委,细颗粒物(PM2.5),64,50,73,46,50,136,,61,61,14,38,7,7,0.8,0.9
2026-01-17T1500,2684A,106.2753,36.0057,固原市,监测站,,43,43,76,18,26,90,,89,89,6,12,4,5,0.4,0.5
2026-01-17T1500,2685A,106.2384,36.0189,固原市,新区,,46,46,79,17,23,95,,94,94,3,11,1,3,0.3,0.3
2026-01-17T1500,2544A,106.6307,30.4577,广安市,市委,细颗粒物(PM2.5),208,,173,158,165,100,,39,39,13,32,10,9,1.0,1.3
2026-01-17T1500,2545A,106.6266,30.4662,广安市,友谊中学,细颗粒物(PM2.5),190,151,163,143,146,98,,37,37,12,30,7,7,1.3,1.6
2026-01-17T1500,2547A,106.6386,30.4551,广安市,广电花园,细颗粒物(PM2.5),203,154,146,153,151,92,,32,32,16,27,10,9,0.9,1.1
2026-01-17T1500,2902A,106.6347,30.4868,广安市,北辰小学,细颗粒物(PM2.5),203,,159,153,147,85,,32,32,14,24,9,7,1.2,1.3
2026-01-17T1500,2524A,105.8211,32.4444,广元市,老城,细颗粒物(PM2.5),123,,81,93,51,60,,22,22,36,54,14,8,1.1,1
2026-01-17T1500,2526A,105.8629,32.429,广元市,监测站,细颗粒物(PM2.5),103,95,82,77,54,40,,20,20,45,41,17,9,1.2,1.1
2026-01-17T1500,3617A,105.8047,32.4167,广元市,经开区,细颗粒物(PM2.5),148,146,99,113,63,56,,18,18,36,50,27,22,1.4,1.5
2026-01-17T1500,1345A,113.2346,23.1423,广州市,广雅中学,细颗粒物(PM2.5),124,162,150,94,87,154,,57,57,95,121,7,5,0.8,0.9
2026-01-17T1500,1346A,113.2611,23.105,广州市,市五中,细颗粒物(PM2.5),89,119,112,66,68,171,,78,78,97,113,11,10,/,/
2026-01-17T1500,1348A,113.3477,23.0916,广州市,广东商学院,细颗粒物(PM2.5),105,114,97,79,69,164,,51,51,70,108,9,8,0.9,0.8
2026-01-17T1500,1349A,113.4332,23.105,广州市,市八十六中,颗粒物(PM10),77,104,86,47,58,179,,64,64,73,120,10,10,/,/
2026-01-17T1500,1350A,113.3506,22.9488,广州市,番禺中学,臭氧1小时(O3_1h),89,112,96,64,54,191,,88,88,61,76,6,6,1.0,1.1
2026-01-17T1500,1351A,113.2147,23.3918,广州市,花都师范,细颗粒物(PM2.5),97,129,128,72,76,162,,70,70,70,112,11,8,0.9,1
2026-01-17T1500,1352A,113.2599,23.1329,广州市,市监测站,细颗粒物(PM2.5),108,152,145,81,78,136,,59,59,112,126,6,4,/,/
2026-01-17T1500,1353A,113.5618,23.3119,广州市,九龙镇镇龙,臭氧1小时(O3_1h),79,97,123,57,70,183,,75,75,39,82,8,6,0.6,0.7
2026-01-17T1500,1354A,113.2764,23.1544,广州市,麓湖,细颗粒物(PM2.5),104,133,102,78,65,141,,51,51,96,125,12,10,0.6,0.7
2026-01-17T1500,2846A,113.3209,23.1323,广州市,体育西,细颗粒物(PM2.5),98,128,123,73,70,104,,44,44,107,120,9,7,1.0,1.1
2026-01-17T1500,3298A,113.5718,23.5493,广州市,从化街口,细颗粒物(PM2.5),105,126,121,79,78,200,,84,84,38,71,12,12,0.9,1.1
2026-01-17T1500,3299A,113.3463,23.369,广州市,白云竹料,臭氧1小时(O3_1h),102,116,146,67,85,204,,72,72,53,97,8,6,0.8,1
2026-01-17T1500,3300A,113.2981,23.2365,广州市,白云嘉禾,细颗粒物(PM2.5),104,136,125,78,70,176,,65,65,72,123,10,7,/,/
2026-01-17T1500,3301A,113.4256,23.1716,广州市,黄埔科学城,"细颗粒物(PM2.5),臭氧1小时(O3_1h)",74,83,100,54,62,179,,71,71,55,87,8,6,0.8,0.9
2026-01-17T1500,3302A,113.3942,23.0485,广州市,番禺大学城,细颗粒物(PM2.5),97,138,108,72,50,196,,73,73,70,78,12,11,0.7,0.7
2026-01-17T1500,3303A,113.4923,22.8169,广州市,南沙黄阁,臭氧1小时(O3_1h),128,118,76,74,43,255,,122,122,68,80,12,8,/,/
2026-01-17T1500,3304A,113.534,22.7893,广州市,南沙街,臭氧1小时(O3_1h),105,108,77,36,38,210,,117,117,29,58,6,5,0.6,0.6
2026-01-17T1500,3443A,113.2905,23.5541,广州市,花都梯面,细颗粒物(PM2.5),84,109,94,62,56,138,,78,78,61,70,8,7,/,/
2026-01-17T1500,3445A,113.786,23.7479,广州市,从化良口,细颗粒物(PM2.5),68,59,58,49,47,116,,68,68,17,27,9,8,/,/
2026-01-17T1500,3446A,113.805,23.2614,广州市,增城荔城,臭氧1小时(O3_1h),105,72,79,46,53,209,,134,134,24,39,,7,0.6,0.7
2026-01-17T1500,2506A,109.604387,23.066791,贵港市,江南子站,细颗粒物(PM2.5),88,112,151,65,92,127,,53,53,20,36,14,12,1.2,1.2
2026-01-17T1500,2508A,109.5669,23.1065,贵港市,荷城子站,细颗粒物(PM2.5),92,95,129,68,97,106,,39,39,21,38,12,12,1.0,1.2
2026-01-17T1500,3405A,109.5886,23.1172,贵港市,新世纪学校,细颗粒物(PM2.5),84,83,136,62,99,118,,51,51,14,31,/,/,0.7,0.8
2026-01-17T1500,4260A,109.5933,23.095,贵港市,中山路155-3号,细颗粒物(PM2.5),99,123,140,74,98,121,,44,44,26,38,/,/,1.0,1
2026-01-17T1500,1439A,106.6863,26.6035,贵阳市,马鞍山,细颗粒物(PM2.5),117,107,129,88,113,100,,41,41,24,28,22,9,/,/
2026-01-17T1500,1441A,106.6241,26.6266,贵阳市,鉴湖路,细颗粒物(PM2.5),113,105,132,85,102,96,,48,48,22,35,16,11,0.7,0.9
2026-01-17T1500,1442A,106.7468,26.6344,贵阳市,燕子冲,细颗粒物(PM2.5),98,80,125,73,112,103,,31,31,19,30,14,11,0.7,1
2026-01-17T1500,1443A,106.6556,26.4362,贵阳市,碧云窝,细颗粒物(PM2.5),98,95,134,73,103,81,,39,39,22,28,10,15,/,/
2026-01-17T1500,1445A,106.6963,26.6063,贵阳市,红边门,细颗粒物(PM2.5),100,95,133,75,112,99,,37,37,20,34,16,22,/,/
2026-01-17T1500,1446A,106.7162383,26.56964667,贵阳市,新华路,细颗粒物(PM2.5),85,85,141,63,110,91,,39,39,19,37,15,16,0.6,0.9
2026-01-17T1500,1447A,106.6742,26.542,贵阳市,太慈桥,细颗粒物(PM2.5),89,83,122,66,98,83,,40,40,25,37,14,7,/,/
2026-01-17T1500,4230A,106.688212,26.56952,贵阳市,花果园大街66号,细颗粒物(PM2.5),124,,135,94,137,84,,32,32,23,39,13,13,/,/
2026-01-17T1500,4231A,106.687268,26.516892,贵阳市,漓江路57号,细颗粒物(PM2.5),89,80,134,66,111,93,,35,35,17,38,14,22,0.6,1
2026-01-17T1500,1864A,110.3091,25.2705,桂林市,龙隐路小学,细颗粒物(PM2.5),102,87,98,76,81,103,,42,42,13,28,7,13,0.6,0.7
2026-01-17T1500,1865A,110.2849361,25.22909545,桂林市,八中,细颗粒物(PM2.5),83,85,111,61,87,85,,36,36,13,35,7,12,0.7,1
2026-01-17T1500,3531A,110.296,25.1254,桂林市,旅游学院,细颗粒物(PM2.5),77,63,89,56,75,102,,37,37,11,30,5,6,0.3,0.5
2026-01-17T1500,4222A,110.1835,25.2444,桂林市,环湖路276号,细颗粒物(PM2.5),110,105,125,83,103,94,,29,29,19,35,10,19,0.7,1
2026-01-17T1500,4301A,110.2803,25.2773,桂林市,信义路13号,细颗粒物(PM2.5),87,85,103,64,78,108,,44,44,12,37,5,14,1.2,1.5
2026-01-17T1500,2674A,100.2262,34.4854,果洛藏族自治州,玛沁县大武镇,,30,28,38,3,9,93,,59,59,2,8,10,17,0.3,0.4
2026-01-17T1500,1130A,126.5557,45.8109,哈尔滨市,松北商大,,29,29,48,19,37,60,,46,46,10,26,6,7,0.4,0.6
2026-01-17T1500,1132A,126.6162,45.719,哈尔滨市,南岗学府路,,45,45,58,21,42,60,,45,45,8,24,8,10,0.4,0.8
2026-01-17T1500,1133A,126.6894,45.7733,哈尔滨市,太平宏伟公园,,26,26,42,14,32,68,,59,59,4,20,10,15,0.4,0.7
2026-01-17T1500,1134A,126.6361,45.7672,哈尔滨市,道外承德广场,,42,42,61,13,33,65,,56,56,10,30,8,11,0.1,0.5
2026-01-17T1500,1136A,126.644,45.7261,哈尔滨市,动力和平路,,26,26,52,12,37,61,,45,45,10,28,11,17,0.4,0.6
2026-01-17T1500,1137A,126.5933,45.7479,哈尔滨市,道里建国路,,25,,46,17,42,58,,50,50,8,29,9,15,0,0.3
2026-01-17T1500,1138A,126.6127,45.6119,哈尔滨市,平房东轻厂,,25,,55,17,47,59,,43,43,12,39,3,4,0.6,0.9
2026-01-17T1500,1139A,126.5875,45.9827,哈尔滨市,呼兰师专,,29,28,58,20,56,59,,46,46,8,26,8,11,0.3,0.7
2026-01-17T1500,1140A,126.6299,45.6799,哈尔滨市,省农科院,,,20,66,20,55,58,,40,40,,42,11,14,0.4,0.8
2026-01-17T1500,4282A,126.6769,45.7379,哈尔滨市,华山路1号,,31,31,47,10,35,57,,48,48,12,31,13,21,0.5,0.7
2026-01-17T1500,4283A,126.9717,45.5356,哈尔滨市,解放大街52号,,28,26,111,19,105,61,,45,45,13,34,18,16,0.8,1.3
2026-01-17T1500,2688A,93.5124,42.8176,哈密市,地区监测站,颗粒物(PM10),68,86,84,32,35,54,,48,45,13,20,4,2,0.1,0.2
2026-01-17T1500,2689A,93.5014,42.8312,哈密市,哈密师范学校,颗粒物(PM10),59,67,83,25,26,55,,50,47,18,26,1,1,0.6,0.5
2026-01-17T1500,2671A,100.9016,36.9464,海北藏族自治州,海晏县西海镇,,32,32,20,10,11,83,,65,65,1,3,6,7,0.3,0.4
2026-01-17T1500,3867A,102.074,36.5056,海东市,平安区公安局北苑,,37,37,45,13,19,66,,32,32,18,28,18,16,0.8,1.1
2026-01-17T1500,4163A,102.0984,36.5119,海东市,滨河路,,34,34,51,17,23,80,,41,41,22,40,16,14,0.9,1
2026-01-17T1500,1410A,110.3189,20.0596,海口市,海南大学,,44,25,38,17,25,138,,128,128,12,9,6,6,0.3,0.3
2026-01-17T1500,1411A,110.2827,20.0051,海口市,秀英海南医院,,42,42,36,20,23,130,,121,121,17,12,8,7,0.4,0.3
2026-01-17T1500,1412A,110.3391,19.9979,海口市,海南师范大学,,44,34,34,18,24,140,,127,127,14,13,6,6,0.6,0.7
2026-01-17T1500,1413A,110.3303,20.0359,海口市,龙华路环保局宿舍,,44,39,36,19,25,139,,125,125,11,10,/,/,0.7,0.7
2026-01-17T1500,3539A,110.5111,19.9737,海口市,桂林洋子站,,42,22,38,15,26,132,,110,110,11,11,/,/,/,/
2026-01-17T1500,4134A,110.1952,20.0451,海口市,长滨二路9号,,43,22,28,17,25,135,,114,114,11,11,/,/,/,/
2026-01-17T1500,2673A,100.6158,36.2985,海南藏族自治州,共和县恰卜恰镇,,36,35,36,25,14,78,,45,45,5,20,8,13,0.5,0.6
2026-01-17T1500,2676A,97.373,37.376,海西蒙古族藏族自治州,德令哈市,,28,23,28,11,11,87,,85,80,2,5,10,11,0.5,0.6
2026-01-17T1500,1049A,114.492,36.5712,邯郸市,矿院,细颗粒物(PM2.5),73,64,71,53,60,48,,53,51,18,22,3,2,0.5,0.6
2026-01-17T1500,1050A,114.4839,36.6136,邯郸市,丛台公园,细颗粒物(PM2.5),79,63,84,58,60,50,,52,51,17,24,2,3,0.5,0.6
2026-01-17T1500,3458A,114.7893,36.5592,邯郸市,香泉濮院小区,细颗粒物(PM2.5),67,60,85,48,58,50,,43,43,16,23,1,3,0.4,0.6
2026-01-17T1500,3580A,114.1998,36.4439,邯郸市,峰峰矿区临水派出所,细颗粒物(PM2.5),79,,67,58,67,57,,55,54,14,16,6,19,0.5,0.8
2026-01-17T1500,4068A,114.5209,36.7697,邯郸市,建安街268号,细颗粒物(PM2.5),72,,88,52,67,48,,43,43,8,34,1,3,0.3,0.5
2026-01-17T1500,4069A,114.5488,36.6177,邯郸市,丛台东路558号,细颗粒物(PM2.5),58,50,79,41,63,54,,46,46,8,32,3,2,0.4,0.6
2026-01-17T1500,2635A,107.0155,33.0707,汉中市,市监测站,细颗粒物(PM2.5),83,108,130,61,105,57,,22,22,34,46,9,7,1.0,1.4
2026-01-17T1500,2636A,107.0083,33.114,汉中市,鑫源开发区,细颗粒物(PM2.5),77,91,110,56,88,68,,30,30,26,47,9,8,0.7,1.1
2026-01-17T1500,2637A,107.0072,33.0323,汉中市,南郑大河坎水厂,细颗粒物(PM2.5),90,118,133,67,95,57,,22,22,35,36,6,5,1.1,1.2
2026-01-17T1500,1223A,120.2073,30.2111,杭州市,滨江,细颗粒物(PM2.5),104,94,163,78,119,104,,64,64,26,80,6,8,0.5,0.8
2026-01-17T1500,1224A,120.0625,30.2737,杭州市,西溪,细颗粒物(PM2.5),95,122,118,71,67,61,,58,58,51,53,8,8,1.0,1
2026-01-17T1500,1226A,120.3417,30.315,杭州市,下沙,细颗粒物(PM2.5),93,99,186,69,127,116,,83,83,21,78,7,9,0.8,1
2026-01-17T1500,1227A,120.1252,30.2465,杭州市,卧龙桥,细颗粒物(PM2.5),102,106,117,76,82,95,,62,62,32,60,8,9,0.5,0.6
2026-01-17T1500,1228A,120.1902,30.2691,杭州市,浙江农大,细颗粒物(PM2.5),89,88,162,66,112,109,,71,71,28,95,5,6,0.7,1
2026-01-17T1500,1230A,120.1195,30.3121,杭州市,和睦小学,细颗粒物(PM2.5),100,129,175,75,97,85,,66,66,33,72,4,6,0.9,1.1
2026-01-17T1500,1231A,120.3076,30.4146,杭州市,临平镇,细颗粒物(PM2.5),107,108,163,80,120,113,,95,95,20,50,7,8,0.7,0.8
2026-01-17T1500,1232A,120.2753,30.1839,杭州市,城厢镇,细颗粒物(PM2.5),94,112,175,70,124,111,,60,60,23,93,7,10,0.5,0.9
2026-01-17T1500,1233A,120.0883,30.1808,杭州市,云栖,细颗粒物(PM2.5),117,116,122,88,86,97,,61,61,33,53,3,4,0.8,0.8
2026-01-17T1500,3557A,119.9463,30.0496,杭州市,镇二中,细颗粒物(PM2.5),103,101,109,77,87,85,,47,47,34,68,5,6,0.9,1.1
2026-01-17T1500,3558A,119.7184,30.2367,杭州市,市府大楼,颗粒物(PM10),85,120,146,62,86,70,,46,46,26,46,10,11,1.1,1.2
2026-01-17T1500,3656A,120.1554,30.2863,杭州市,消防大队,细颗粒物(PM2.5),115,118,170,87,126,100,,63,63,24,80,6,8,0.8,1.1
2026-01-17T1500,1270A,117.1957,31.7845,合肥市,明珠广场,细颗粒物(PM2.5),153,205,177,117,118,47,,58,54,39,36,5,7,1.1,1
2026-01-17T1500,1271A,117.307,31.8765,合肥市,三里街,细颗粒物(PM2.5),144,197,169,110,113,50,,59,57,36,36,5,6,1.0,1
2026-01-17T1500,1272A,117.2587,31.8703,合肥市,琥珀山庄,细颗粒物(PM2.5),153,210,173,117,108,57,,64,63,32,36,6,8,0.9,1
2026-01-17T1500,1275A,117.2593,31.9376,合肥市,庐阳区,颗粒物(PM10),135,219,180,97,108,57,,62,62,41,38,5,5,1.1,1
2026-01-17T1500,1276A,117.345251,31.861615,合肥市,瑶海区,细颗粒物(PM2.5),140,200,172,107,111,55,,60,59,38,41,5,6,1.0,0.9
2026-01-17T1500,1277A,117.3033,31.7967,合肥市,包河区,细颗粒物(PM2.5),147,193,171,112,118,41,,51,45,53,58,8,9,1.2,1.2
2026-01-17T1500,1278A,117.278,31.7392,合肥市,滨湖新区,细颗粒物(PM2.5),160,185,176,122,125,69,,63,63,26,44,4,6,1.0,0.9
2026-01-17T1500,1279A,117.1324,31.8395,合肥市,高新区,细颗粒物(PM2.5),153,205,169,117,114,53,,62,61,39,34,4,5,1.0,1
2026-01-17T1500,3464A,117.3802,31.9148,合肥市,高教基地,细颗粒物(PM2.5),140,185,169,107,123,64,,66,66,25,29,7,9,0.9,0.9
2026-01-17T1500,4098A,117.2518,31.8404,合肥市,中国科学技术大学,细颗粒物(PM2.5),144,202,168,110,111,59,,66,66,32,36,7,8,1.1,1
2026-01-17T1500,3614A,79.9241,37.0878,和田地区,地区环保局,颗粒物(PM10),137,224,548,60,82,73,,43,43,31,23,7,6,0.5,0.6
2026-01-17T1500,3615A,79.9132,37.1137,和田地区,市环保局,颗粒物(PM10),173,295,512,84,74,19,,23,14,26,22,7,4,1.0,0.8
2026-01-17T1500,2517A,108.0496,24.6957,河池市,市环保站,细颗粒物(PM2.5),85,93,107,63,80,73,,33,33,14,32,3,4,0.8,1.1
2026-01-17T1500,4302A,108.0901,24.6945,河池市,上任中路54号,细颗粒物(PM2.5),100,103,107,75,80,69,,28,28,16,38,5,5,0.9,1.1
2026-01-17T1500,1697A,114.6962,23.7538,河源市,东埔,,48,41,65,28,44,152,,87,87,14,47,6,6,0.9,1.2
2026-01-17T1500,1698A,114.6895,23.7232,河源市,老城,颗粒物(PM10),52,53,58,27,36,151,,96,96,10,31,7,7,0.5,0.7
2026-01-17T1500,3374A,115.5562,35.089,菏泽市,定陶老年大学,"颗粒物(PM10),细颗粒物(PM2.5)",62,73,100,44,57,41,,28,28,22,22,4,3,0.4,0.5
2026-01-17T1500,4114A,115.4239,35.2593,菏泽市,黄河路600号,细颗粒物(PM2.5),85,76,107,63,62,44,,31,31,27,26,5,4,0.5,0.6
2026-01-17T1500,4115A,115.5025,35.2727,菏泽市,菏泽市人社局,细颗粒物(PM2.5),64,74,101,46,57,30,,22,21,23,16,6,4,0.4,0.4
2026-01-17T1500,4184A,115.479691,35.244011,菏泽市,永昌路1号,颗粒物(PM10),70,89,106,46,63,37,,29,28,29,22,6,5,0.2,0.3
2026-01-17T1500,4193A,115.471542,35.280012,菏泽市,长城路999号,颗粒物(PM10),66,81,105,46,59,41,,27,27,28,25,14,12,0.7,0.7
2026-01-17T1500,2514A,111.5264,24.4178,贺州市,环保小区,细颗粒物(PM2.5),93,,113,69,86,114,,57,57,13,37,8,10,0.5,1
2026-01-17T1500,2515A,111.561,24.4074,贺州市,政协大楼,细颗粒物(PM2.5),75,79,117,55,77,119,,52,52,10,43,11,15,0.7,1.1
2026-01-17T1500,3534A,111.4744,24.455,贺州市,西湾,细颗粒物(PM2.5),80,90,106,59,76,101,,46,46,13,39,9,9,0.5,1.1
2026-01-17T1500,2385A,114.17,35.9019,鹤壁市,市监测站,细颗粒物(PM2.5),74,71,103,54,77,46,,40,40,19,26,3,4,0.8,1
2026-01-17T1500,2386A,114.2953,35.7512,鹤壁市,市交警支队,细颗粒物(PM2.5),77,77,106,56,64,42,,39,39,20,23,1,5,0.6,0.7
2026-01-17T1500,2387A,114.2877,35.7302,鹤壁市,迎宾馆,细颗粒物(PM2.5),67,77,101,48,60,47,,44,44,20,24,2,5,0.7,0.8
2026-01-17T1500,3474A,114.2616,35.6824,鹤壁市,大新区,细颗粒物(PM2.5),67,74,97,48,52,48,,48,48,20,25,4,6,0.7,0.8
2026-01-17T1500,3596A,114.1573,35.9607,鹤壁市,南山宾馆,细颗粒物(PM2.5),68,70,118,49,73,53,,49,49,15,24,4,6,0.6,0.9
2026-01-17T1500,2244A,130.2537,47.3416,鹤岗市,哈啤分公司,,35,,26,24,25,71,,68,66,6,7,6,7,0.4,0.4
2026-01-17T1500,2245A,130.2683,47.3087,鹤岗市,斯达机电,,35,34,27,24,25,65,,62,62,6,8,6,6,0.4,0.5
2026-01-17T1500,2246A,130.3114,47.3388,鹤岗市,东山纸板厂,,25,22,26,17,23,68,,58,58,5,9,6,7,0.5,0.6
2026-01-17T1500,2263A,127.4832,50.2524,黑河市,交通局,,26,,15,18,14,58,,58,58,8,10,4,5,0.2,0.2
2026-01-17T1500,2264A,127.5146,50.2339,黑河市,环保局,,22,15,16,15,18,56,,58,58,12,13,7,6,0.3,0.4
2026-01-17T1500,1074A,115.6839,37.754,衡水市,电机北厂,,35,35,63,10,36,61,,47,47,10,24,6,7,0.3,0.4
2026-01-17T1500,1075A,115.6303,37.7318,衡水市,市监测站,,25,25,62,3,30,62,,53,53,14,21,6,6,0.3,0.5
2026-01-17T1500,3188A,115.6684,37.7216,衡水市,市城管局,,39,39,63,14,35,63,,53,53,11,21,8,7,0.3,0.5
2026-01-17T1500,3459A,115.599,37.5491,衡水市,地表水厂,,37,37,56,17,33,67,,51,51,4,24,6,5,0.2,0.4
2026-01-17T1500,2457A,112.6209,26.9268,衡阳市,衡阳化工总厂,细颗粒物(PM2.5),132,,98,100,91,98,,59,59,12,28,10,15,1.0,1.1
2026-01-17T1500,2458A,112.621,26.8957,衡阳市,珠晖区环保局,细颗粒物(PM2.5),115,88,102,87,93,95,,57,57,14,34,7,13,1.1,1.3
2026-01-17T1500,2459A,112.628,26.8654,衡阳市,市委党校,细颗粒物(PM2.5),105,92,95,79,79,96,,64,64,14,25,9,15,1.2,1.3
2026-01-17T1500,2460A,112.6007,26.8977,衡阳市,市监测站,细颗粒物(PM2.5),113,127,114,85,78,95,,57,57,13,32,8,12,1.1,1.2
2026-01-17T1500,2461A,112.5658,26.9013,衡阳市,真空机电公司,细颗粒物(PM2.5),125,120,105,95,94,88,,46,46,18,37,10,14,1.4,1.5
2026-01-17T1500,3399A,112.6703,26.8817,衡阳市,师范学院,细颗粒物(PM2.5),99,105,101,74,76,101,,64,64,18,24,6,14,1.1,1.2
2026-01-17T1500,3038A,103.3757,23.3679,红河哈尼族彝族自治州,州图书馆,,29,23,39,20,26,87,,63,63,5,11,6,8,0.4,0.6
2026-01-17T1500,4154A,103.401,23.3561,红河哈尼族彝族自治州,蒙自市朝阳路,,29,20,30,18,25,90,,62,62,4,11,7,7,0.4,0.5
2026-01-17T1500,1090A,111.6506,40.7517,呼和浩特市,呼市一监,颗粒物(PM10),62,73,40,31,21,69,,51,51,18,27,12,9,0.6,0.6
2026-01-17T1500,1094A,111.7516,40.8369,呼和浩特市,如意水处理厂,颗粒物(PM10),60,69,38,39,20,68,,41,41,16,33,13,10,0.5,0.6
2026-01-17T1500,1095A,111.727798,40.806187,呼和浩特市,二十九中,颗粒物(PM10),61,72,37,33,19,65,,46,46,14,25,15,12,0.6,0.7
2026-01-17T1500,1097A,111.717,40.7617,呼和浩特市,化肥厂生活区,颗粒物(PM10),63,75,41,36,20,60,,51,51,21,26,10,7,0.6,0.6
2026-01-17T1500,3699A,111.6519,40.8389,呼和浩特市,海东办,颗粒物(PM10),64,78,47,38,25,68,,31,31,16,38,9,8,0.6,0.6
2026-01-17T1500,4275A,111.591512,40.827312,呼和浩特市,成吉思汗西街8号,颗粒物(PM10),68,85,51,36,24,58,,28,28,22,40,10,10,0.6,0.5
2026-01-17T1500,4276A,111.6597,40.8077,呼和浩特市,公园东路75号,颗粒物(PM10),65,80,44,36,22,62,,40,40,22,35,10,8,0.5,0.6
2026-01-17T1500,4277A,111.5427,40.7846,呼和浩特市,金海路35号,颗粒物(PM10),57,64,49,39,28,58,,30,30,24,42,15,15,0.7,0.7
2026-01-17T1500,3061A,119.7511,49.1576,呼伦贝尔市,国华电力东,,20,10,23,9,18,61,,60,59,13,15,7,5,0.3,0.3
2026-01-17T1500,4279A,119.7569,49.2222,呼伦贝尔市,伊敏大街东7号,,22,22,26,13,22,60,,57,57,5,8,8,8,0.1,0.1
2026-01-17T1500,1250A,120.075,30.867,湖州市,城西水厂,细颗粒物(PM2.5),143,115,136,109,110,115,,102,102,25,66,6,7,0.7,0.9
2026-01-17T1500,2873A,120.083,30.8929,湖州市,仁皇山新区,细颗粒物(PM2.5),135,121,126,103,99,111,,108,108,34,52,5,6,0.9,1
2026-01-17T1500,2907A,120.1846,30.8592,湖州市,吴兴区站,细颗粒物(PM2.5),119,130,146,90,101,101,,102,102,40,53,7,8,0.2,0.2
2026-01-17T1500,3562A,120.4146,30.8538,湖州市,南浔区站,细颗粒物(PM2.5),115,115,137,87,100,104,,89,89,,47,,8,1.0,1.1
2026-01-17T1500,1607A,120.904878,40.721091,葫芦岛市,龙港区,,40,40,34,16,15,58,,52,52,17,18,15,23,0.5,0.5
2026-01-17T1500,1608A,120.8382,40.7521,葫芦岛市,化工街,,41,41,30,19,12,53,,51,51,19,15,38,17,0.5,0.5
2026-01-17T1500,1609A,120.8339,40.7078,葫芦岛市,新区,,28,28,28,18,13,56,,52,52,16,17,19,18,0.4,0.5
2026-01-17T1500,1610A,120.8697,40.7679,葫芦岛市,东城区,,36,36,28,19,15,58,,51,51,20,21,26,23,0.5,0.6
2026-01-17T1500,2483A,109.9297,27.5383,怀化市,河西地税局,细颗粒物(PM2.5),113,103,118,85,97,112,,67,67,17,35,5,5,/,/
2026-01-17T1500,2484A,109.9783,27.5342,怀化市,市四医院,颗粒物(PM10),77,104,134,44,104,109,,70,70,19,30,7,7,0.7,1
2026-01-17T1500,2485A,109.9971,27.5579,怀化市,监测楼,细颗粒物(PM2.5),94,82,124,70,108,114,,75,75,20,39,5,7,0.2,0.6
2026-01-17T1500,1210A,119.0566,33.5991,淮安市,钵池山,"颗粒物(PM10),细颗粒物(PM2.5)",54,58,119,38,95,61,,58,58,12,23,6,8,0.3,0.7
2026-01-17T1500,1211A,119.0083,33.578,淮安市,北京南路,颗粒物(PM10),53,56,124,29,87,56,,55,55,11,22,6,7,0.4,0.8
2026-01-17T1500,1212A,118.9938,33.6083,淮安市,市监测站,颗粒物(PM10),53,56,114,19,67,58,,55,55,14,24,8,10,0.6,0.9
2026-01-17T1500,1213A,119.135,33.5038,淮安市,楚州区监测站,颗粒物(PM10),55,59,122,18,79,61,,58,58,7,17,8,9,0.6,0.9
2026-01-17T1500,3426A,118.8757,33.2897,淮安市,新华书店,颗粒物(PM10),64,77,140,27,92,53,,52,52,10,23,7,9,0.4,0.7
2026-01-17T1500,4092A,119.119691,33.550006,淮安市,枚皋中路89号,,,55,133,17,82,66,,64,64,10,18,8,10,,1.4
2026-01-17T1500,4206A,119.028838,33.631911,淮安市,承德北路606号,颗粒物(PM10),59,68,133,36,94,63,,60,60,12,23,7,7,0.4,0.7
2026-01-17T1500,2282A,116.8005,33.9749,淮北市,监测站,颗粒物(PM10),62,74,146,37,79,41,,50,43,25,26,6,5,0.6,0.7
2026-01-17T1500,2283A,116.8094,33.9008,淮北市,烈山区政府,颗粒物(PM10),58,66,132,37,78,46,,47,46,18,22,6,5,0.5,0.6
2026-01-17T1500,4017A,116.7926,33.9534,淮北市,市博物馆,颗粒物(PM10),62,73,148,36,81,42,,,,28,29,6,5,0.8,1
2026-01-17T1500,4100A,116.8322,33.9884,淮北市,杜集区第一实验学校,颗粒物(PM10),70,90,149,43,82,40,,49,42,22,25,8,8,1.1,1
2026-01-17T1500,2277A,116.8304,32.7726,淮南市,潘集区政府,细颗粒物(PM2.5),103,144,185,77,122,46,,46,46,21,28,5,6,0.7,1
2026-01-17T1500,2279A,116.8569,32.5949,淮南市,谢家集区政府,颗粒物(PM10),110,170,165,66,101,37,,50,46,28,30,7,9,0.7,0.9
2026-01-17T1500,2280A,116.8279,32.6333,淮南市,八公山区政府,颗粒物(PM10),113,175,178,72,106,45,,48,48,19,25,5,7,0.6,0.9
2026-01-17T1500,2894A,117.0561,32.6536,淮南市,经济技术开发区消防队,颗粒物(PM10),101,152,176,75,110,42,,47,46,26,34,4,5,0.9,1
2026-01-17T1500,3329A,117.011,32.5891,淮南市,山南新区,颗粒物(PM10),125,200,200,70,111,47,,55,53,24,31,2,3,0.7,1
2026-01-17T1500,4209A,117.003137,32.644456,淮南市,国庆中路369号,颗粒物(PM10),113,176,174,33,107,33,,42,39,26,30,8,9,0.7,1
2026-01-17T1500,2446A,114.9021,30.474,黄冈市,职工中心,细颗粒物(PM2.5),129,143,127,98,91,58,,38,38,29,32,7,8,1.0,1.1
2026-01-17T1500,2929A,114.8858,30.4519,黄冈市,红卫路,细颗粒物(PM2.5),132,134,122,100,95,58,,36,36,24,31,8,9,0.6,0.7
2026-01-17T1500,3398A,114.9134,30.4446,黄冈市,市林业局,细颗粒物(PM2.5),139,142,138,106,97,66,,46,46,32,38,4,5,1.0,1
2026-01-17T1500,2672A,102.02,35.5101,黄南藏族自治州,同仁县隆务镇,,36,36,35,15,14,65,,54,54,6,6,12,12,0.5,0.5
2026-01-17T1500,2295A,118.2905,29.6965,黄山市,延安路89号,细颗粒物(PM2.5),77,76,54,56,39,119,,51,51,18,23,6,5,0.7,0.7
2026-01-17T1500,2297A,118.1369,30.2755,黄山市,黄山区政府5号楼,细颗粒物(PM2.5),140,154,103,107,74,97,,54,54,20,17,3,3,1.0,0.8
2026-01-17T1500,4210A,118.335445,29.720283,黄山市,滨江东路7-2号,细颗粒物(PM2.5),98,88,72,73,52,86,,58,58,44,28,/,/,/,/
2026-01-17T1500,2423A,115.0547,30.2332,黄石市,沈家营,细颗粒物(PM2.5),153,192,168,117,106,50,,30,30,52,53,6,7,1.5,1.6
2026-01-17T1500,2426A,114.899,30.211,黄石市,铁山,细颗粒物(PM2.5),195,,143,146,127,59,,34,34,38,48,8,10,1.2,0.8
2026-01-17T1500,2427A,115.0259,30.2108,黄石市,团城山,细颗粒物(PM2.5),193,174,169,145,122,80,,36,36,39,53,7,8,1.2,1.3
2026-01-17T1500,3149A,115.0174,30.1591,黄石市,笔架山北路,细颗粒物(PM2.5),208,241,202,158,122,74,,35,35,32,44,12,12,1.4,1.5
2026-01-17T1500,4185A,115.078022,30.21118,黄石市,磁湖东路29号,细颗粒物(PM2.5),206,195,170,156,130,55,,33,33,45,57,11,10,1.6,1.6
2026-01-17T1500,1392A,114.4181,23.0528,惠州市,河南岸金山湖子站,颗粒物(PM10),54,58,68,35,39,148,,90,90,24,37,5,6,0.6,0.7
2026-01-17T1500,1393A,114.4055,23.0824,惠州市,下埔横江三路子站,,50,48,71,26,37,158,,97,97,15,39,7,9,0.7,0.8
2026-01-17T1500,1395A,114.4645,22.7832,惠州市,惠阳区承修路船湖子站,,50,46,54,26,28,158,,106,106,18,33,8,9,0.4,0.5
2026-01-17T1500,1396A,114.5316,22.7423,惠州市,大亚湾管委会子站,,46,41,52,24,25,145,,91,91,9,38,7,7,0.5,0.6
2026-01-17T1500,3314A,114.4334,22.8134,惠州市,惠阳秋长,臭氧1小时(O3_1h),85,41,53,26,28,188,,126,126,18,34,/,/,/,/
2026-01-17T1500,3452A,114.6521,22.7755,惠州市,大亚湾霞涌,臭氧1小时(O3_1h),69,34,45,29,26,175,,125,125,18,28,/,/,/,/
2026-01-17T1500,4300A,114.4089,23.1147,惠州市,文华一路1号,臭氧1小时(O3_1h),59,44,65,24,36,167,,112,112,11,46,/,/,/,/
2026-01-17T1500,2240A,130.9618,45.2926,鸡西市,环保局,,33,30,27,23,21,65,,58,58,7,8,6,6,0.3,0.3
2026-01-17T1500,2243A,130.9294,45.2959,鸡西市,第一中学,,25,25,27,14,20,67,,59,59,6,8,4,4,0.4,0.5
2026-01-17T1500,3707A,131.0069,45.2988,鸡西市,欧美日汽修厂,,36,33,30,25,22,72,,63,63,5,9,7,8,0.3,0.3
2026-01-17T1500,2367A,114.9753,27.0803,吉安市,红声器材厂,细颗粒物(PM2.5),77,70,79,56,53,132,,87,87,17,24,12,14,0.8,0.9
2026-01-17T1500,2369A,114.9903,27.1313,吉安市,市环境监测站,细颗粒物(PM2.5),70,67,74,51,54,138,,93,93,16,24,14,17,/,/
2026-01-17T1500,2370A,115.009527,27.096792,吉安市,青原区法院,细颗粒物(PM2.5),65,69,81,47,58,130,,80,80,14,24,14,17,0.7,0.9
2026-01-17T1500,1772A,126.54,43.8622,吉林市,哈达湾,,32,32,57,20,47,71,,62,62,7,23,7,9,0.5,0.8
2026-01-17T1500,1773A,126.5843,43.8358,吉林市,东局子,,27,27,52,9,41,65,,54,54,8,26,4,4,0.8,1
2026-01-17T1500,1774A,126.5051,43.8243,吉林市,电力学院,,22,18,64,14,63,68,,57,57,8,32,9,12,0.5,1.1
2026-01-17T1500,1775A,126.6133,43.8971,吉林市,江北,,21,21,67,13,53,61,,52,52,10,29,6,10,0.7,1.2
2026-01-17T1500,1776A,126.5549,43.8304,吉林市,江南公园,,28,,50,19,48,69,,59,59,6,24,6,10,0.5,0.8
2026-01-17T1500,2868A,126.4737,43.953,吉林市,九站,,28,27,50,19,43,68,,56,56,11,32,5,7,0.6,0.8
2026-01-17T1500,1299A,116.9866,36.6118,济南市,科干所,颗粒物(PM10),56,61,66,32,34,48,,56,52,24,16,5,4,0.5,0.5
2026-01-17T1500,1300A,116.9379,36.6652,济南市,农科所,颗粒物(PM10),57,63,71,24,33,44,,46,46,31,28,8,6,0.6,0.6
2026-01-17T1500,1301A,117.1265,36.6736,济南市,开发区,,,63,68,37,40,45,,50,49,,24,4,2,0.5,0.6
2026-01-17T1500,1303A,117.0616,36.6865,济南市,省种子仓库,颗粒物(PM10),56,61,73,27,35,51,,54,54,25,21,5,3,0.6,0.6
2026-01-17T1500,1304A,116.9495185,36.644937,济南市,机床二厂,颗粒物(PM10),53,56,62,29,37,47,,51,50,28,22,6,3,0.4,0.4
2026-01-17T1500,1305A,117.0496,36.6629,济南市,市监测站,颗粒物(PM10),55,59,70,29,37,48,,53,52,26,20,5,3,0.5,0.5
2026-01-17T1500,1306A,116.7674,36.5458,济南市,长清党校,,46,46,66,32,33,61,,54,54,16,19,6,5,0.6,0.6
2026-01-17T1500,1961A,117.5323,36.6865,济南市,东山小学,颗粒物(PM10),56,61,63,29,31,59,,60,60,21,18,6,3,0.3,0.3
2026-01-17T1500,3059A,117.7181,36.205,济南市,泰兴公司,,44,44,64,29,42,66,,57,57,21,32,6,4,0.7,0.7
2026-01-17T1500,3064A,117.6861,36.2172,济南市,莱芜战役纪念馆,,,,65,28,44,64,,52,52,,26,11,4,0.8,0.5
2026-01-17T1500,3494A,117.1673,36.9782,济南市,济阳区政府,颗粒物(PM10),57,63,57,27,25,57,,54,54,21,17,8,6,0.6,0.5
2026-01-17T1500,3495A,117.1168,36.6299,济南市,锦屏中学,颗粒物(PM10),51,51,58,27,32,53,,57,56,23,18,3,2,0.6,0.7
2026-01-17T1500,4108A,117.7107,36.2385,济南市,山财大街5号,,26,24,50,18,29,64,,54,54,20,24,9,8,0.5,0.5
2026-01-17T1500,4109A,116.9744,36.6889,济南市,无影山路12号,颗粒物(PM10),53,56,68,25,34,47,,49,49,23,20,8,5,0.6,0.6
2026-01-17T1500,1653A,116.6229,35.4288,济宁市,火炬城,,44,44,90,27,55,64,,51,51,14,23,3,2,0.3,0.5
2026-01-17T1500,3500A,116.5808,35.3703,济宁市,北湖一中,,40,37,86,28,57,60,,50,50,16,23,6,5,0.4,0.6
2026-01-17T1500,3501A,116.8251,35.5592,济宁市,服务中心,,43,43,99,20,44,62,,50,50,16,25,8,9,0.6,0.7
2026-01-17T1500,3678A,116.5907,35.4054,济宁市,市第七中学,颗粒物(PM10),53,55,90,17,46,66,,55,55,15,23,6,6,0.5,0.6
2026-01-17T1500,4111A,116.6075,35.4566,济宁市,任和路,,,38,107,19,50,62,,49,49,,25,5,4,0.4,0.6
2026-01-17T1500,4112A,116.5648,35.3921,济宁市,文体南路1号,,45,45,100,18,50,62,,54,54,15,21,4,3,0.3,0.6
2026-01-17T1500,2255A,130.2749,46.8028,佳木斯市,佳纺,细颗粒物(PM2.5),60,49,48,43,38,57,,52,52,10,16,6,7,0.5,0.6
2026-01-17T1500,2257A,130.3258,46.7975,佳木斯市,环保局,细颗粒物(PM2.5),75,,51,55,34,62,,55,55,14,18,10,9,0.4,0.5
2026-01-17T1500,4285A,130.363,46.806,佳木斯市,顺和街,细颗粒物(PM2.5),62,48,42,44,31,49,,46,46,17,17,12,12,0.4,0.4
2026-01-17T1500,4286A,130.3952,46.8268,佳木斯市,长安路196号,细颗粒物(PM2.5),57,44,45,40,30,56,,53,53,15,16,7,6,0.5,0.5
2026-01-17T1500,1252A,120.7439,30.778,嘉兴市,清河小学,,,101,134,67,106,115,,102,102,17,48,5,8,,0.9
2026-01-17T1500,1253A,120.7261,30.7477,嘉兴市,嘉兴学院,细颗粒物(PM2.5),84,109,148,62,94,122,,112,112,26,49,4,6,0.7,0.9
2026-01-17T1500,2872A,120.7845,30.7524,嘉兴市,南湖区残联,细颗粒物(PM2.5),79,83,112,58,98,125,,116,116,21,48,3,6,0.7,1
2026-01-17T1500,3407A,120.6915,30.7741,嘉兴市,秀洲住建,细颗粒物(PM2.5),95,103,135,71,103,125,,103,103,21,54,6,8,0.7,0.9
2026-01-17T1500,1945A,98.291,39.7705,嘉峪关市,气象局,,44,44,75,9,25,81,,81,81,4,18,9,12,0.4,0.7
2026-01-17T1500,2884A,98.2672,39.7978,嘉峪关市,酒钢宾馆,,41,41,90,12,28,79,,78,78,4,21,12,20,0.6,1.1
2026-01-17T1500,3248A,98.2644,39.7723,嘉峪关市,雄关区,,30,30,61,14,25,79,,80,80,7,25,11,15,0.5,0.8
2026-01-17T1500,1383A,113.1063,22.6058,江门市,北街,臭氧1小时(O3_1h),127,100,78,59,52,254,,124,124,33,40,/,/,/,/
2026-01-17T1500,1384A,113.073,22.5835,江门市,西区,臭氧1小时(O3_1h),117,81,94,49,47,234,,105,105,33,55,/,/,/,/
2026-01-17T1500,1385A,113.0218,22.531,江门市,圭峰西,臭氧1小时(O3_1h),113,89,69,57,50,225,,105,105,29,34,/,/,/,/
2026-01-17T1500,1386A,113.0826,22.5947,江门市,东湖,臭氧1小时(O3_1h),127,87,79,42,50,254,,115,115,36,49,14,11,0.6,0.8
2026-01-17T1500,3311A,113.1077,22.5647,江门市,江海富民,臭氧1小时(O3_1h),137,109,119,56,65,273,,125,125,44,58,/,/,0.7,0.7
2026-01-17T1500,3449A,113.0496,22.4669,江门市,新会银湖,臭氧1小时(O3_1h),120,105,82,64,70,239,,112,112,24,43,10,8,0.5,0.6
2026-01-17T1500,3335A,113.3137,35.2643,焦作市,马村街道办,细颗粒物(PM2.5),59,57,110,42,63,63,,47,47,17,22,8,10,0.5,0.7
2026-01-17T1500,3336A,113.2464,35.2374,焦作市,焦作技师学院,细颗粒物(PM2.5),58,57,111,41,59,59,,45,45,17,22,11,12,0.7,0.9
2026-01-17T1500,3477A,113.1656,35.2536,焦作市,中站许衡医院,细颗粒物(PM2.5),62,65,104,44,61,60,,46,46,20,28,9,7,0.7,0.8
2026-01-17T1500,3981A,113.2456,35.18,焦作市,原李万街道办,,,51,114,31,58,65,,50,50,13,28,,6,0.4,0.7
2026-01-17T1500,4264A,113.234,35.219,焦作市,新安路1731号,颗粒物(PM10),60,69,118,37,65,61,,46,46,14,20,10,8,0.6,0.7
2026-01-17T1500,4295A,113.2722,35.2121,焦作市,人民路3066号,颗粒物(PM10),56,62,112,31,56,62,,45,45,15,26,6,6,0.7,0.8
2026-01-17T1500,1708A,116.3701,23.5345,揭阳市,新兴,颗粒物(PM10),57,64,79,30,50,156,,94,94,25,51,10,13,0.6,0.9
2026-01-17T1500,1709A,116.3261,23.5442,揭阳市,西马,颗粒物(PM10),60,70,85,29,46,166,,92,92,17,39,9,11,0.5,0.7
2026-01-17T1500,1710A,116.361,23.5627,揭阳市,东兴,颗粒物(PM10),56,62,83,35,49,143,,86,86,12,44,10,13,/,/
2026-01-17T1500,1711A,116.4151,23.5295,揭阳市,渔湖,颗粒物(PM10),58,66,76,28,43,149,,97,97,17,42,6,9,/,/
2026-01-17T1500,3320A,116.4028,23.5699,揭阳市,曲溪,,,59,85,45,47,169,,94,94,,54,4,10,0.6,0.8
2026-01-17T1500,1944A,102.1691,38.5166,金昌市,天庆家园,颗粒物(PM10),153,256,131,23,38,79,,56,56,7,21,5,32,0.4,0.8
2026-01-17T1500,4022A,102.1648,38.5369,金昌市,金川区人防中心,颗粒物(PM10),159,268,119,25,34,83,,60,60,6,17,4,24,0.5,0.8
2026-01-17T1500,4239A,102.193042,38.531887,金昌市,长春路96号,颗粒物(PM10),90,129,108,25,34,78,,57,57,4,17,7,29,0.6,0.8
2026-01-17T1500,1262A,119.6478,29.0773,金华市,十五中,细颗粒物(PM2.5),123,127,120,93,77,131,,79,79,36,70,4,5,0.7,0.9
2026-01-17T1500,1263A,119.6859,29.1032,金华市,监测站,细颗粒物(PM2.5),110,134,119,83,74,112,,66,66,44,70,4,4,0.7,0.7
2026-01-17T1500,3659A,119.656,29.1132,金华市,气象局,细颗粒物(PM2.5),102,123,129,76,74,116,,64,64,46,76,4,5,0.4,0.7
2026-01-17T1500,1767A,121.1114,41.0879,锦州市,南山,,25,22,24,17,15,72,,64,58,8,10,12,11,0.6,0.6
2026-01-17T1500,1768A,121.060361,40.842794,锦州市,开发区,,24,24,28,13,13,59,,49,49,12,16,10,13,0.3,0.3
2026-01-17T1500,1769A,121.1836,41.1118,锦州市,百股街道,,28,28,25,17,13,69,,54,54,8,13,8,10,0.5,0.6
2026-01-17T1500,1770A,121.1176,41.1224,锦州市,天安街道,,24,22,22,13,10,76,,71,70,10,10,12,11,0.7,0.6
2026-01-17T1500,1771A,121.1303,41.1385,锦州市,北湖公园,,27,27,22,16,11,67,,65,64,9,7,11,10,0.6,0.5
2026-01-17T1500,2160A,112.8496,35.5051,晋城市,自来水公司,颗粒物(PM10),65,79,124,42,52,64,,51,51,16,23,7,8,0.7,0.8
2026-01-17T1500,2162A,112.8509,35.4886,晋城市,市环保局,颗粒物(PM10),67,84,128,41,62,69,,54,54,16,22,6,6,0.8,0.9
2026-01-17T1500,3620A,112.8258,35.4804,晋城市,泽州一中,颗粒物(PM10),63,75,128,44,65,70,,57,57,19,22,5,6,0.6,0.7
2026-01-17T1500,4078A,112.8246,35.5152,晋城市,前书院路,颗粒物(PM10),70,90,132,43,56,66,,50,50,16,23,7,8,0.5,0.8
2026-01-17T1500,4079A,112.8864,35.4773,晋城市,祥云街666号,细颗粒物(PM2.5),72,77,129,52,72,62,,47,47,10,12,5,5,0.6,0.7
2026-01-17T1500,2174A,112.6992,37.6984,晋中市,榆次区政府,细颗粒物(PM2.5),89,117,118,66,61,65,,56,56,27,33,11,9,0.5,0.6
2026-01-17T1500,2865A,112.7195,37.683,晋中市,榆次三中,,,124,122,53,53,58,,51,51,22,25,12,9,,0.6
2026-01-17T1500,4080A,112.7375,37.7215,晋中市,广安街188号,颗粒物(PM10),99,148,119,70,64,65,,59,59,26,31,14,11,0.7,0.5
2026-01-17T1500,4200A,112.7478,37.6954,晋中市,迎宾街26号,颗粒物(PM10),86,122,120,61,60,62,,55,55,24,25,12,9,0.7,0.7
2026-01-17T1500,2439A,112.2012,31.048,荆门市,竹园小学,细颗粒物(PM2.5),134,166,169,102,94,85,,62,62,23,26,1,2,1.0,1
2026-01-17T1500,2440A,112.1968,30.9892,荆门市,掇刀,细颗粒物(PM2.5),132,164,165,100,91,81,,59,56,22,22,,5,0.5,0.5
2026-01-17T1500,3012A,112.1849,31.0361,荆门市,西山林语,细颗粒物(PM2.5),124,159,158,94,85,79,,60,58,24,24,6,6,0.6,0.6
2026-01-17T1500,3547A,112.1631,31.0134,荆门市,龙泉中学南校,细颗粒物(PM2.5),134,171,180,102,95,80,,66,62,20,15,4,5,0.7,0.8
2026-01-17T1500,4124A,112.2213,31.0654,荆门市,新台西路6号,细颗粒物(PM2.5),140,157,170,107,112,75,,55,55,19,21,9,10,0.8,0.8
2026-01-17T1500,1844A,112.2493,30.3198,荆州市,市图书馆,细颗粒物(PM2.5),158,137,144,120,115,74,,53,53,21,26,8,10,1.0,1
2026-01-17T1500,1845A,112.2009,30.3543,荆州市,市委党校,细颗粒物(PM2.5),155,157,157,118,110,66,,48,48,26,32,4,5,0.9,0.9
2026-01-17T1500,3194A,112.2749,30.3124,荆州市,管委会,细颗粒物(PM2.5),158,135,139,120,115,61,,46,45,27,31,7,9,1.0,1
2026-01-17T1500,4268A,112.1722,30.3366,荆州市,学苑路85号,细颗粒物(PM2.5),144,151,154,110,108,83,,59,59,18,22,5,8,1.0,1
2026-01-17T1500,2343A,117.2114,29.2931,景德镇市,老干部活动中心,细颗粒物(PM2.5),57,55,67,40,47,59,,32,32,2,29,4,8,0.9,1
2026-01-17T1500,2344A,117.1893,29.2789,景德镇市,兽医站,颗粒物(PM10),56,62,76,38,45,90,,43,43,19,35,8,8,0.5,0.9
2026-01-17T1500,2346A,117.246,29.2958,景德镇市,陶研所,细颗粒物(PM2.5),64,61,66,46,52,65,,28,28,28,36,4,5,0.5,0.6
2026-01-17T1500,4289A,117.154766,29.256967,景德镇市,青少年活动中心,颗粒物(PM10),62,73,78,39,49,48,,34,34,37,49,28,15,/,/
2026-01-17T1500,1803A,115.9873,29.6816,九江市,十里,细颗粒物(PM2.5),205,209,165,155,119,82,,64,64,34,71,5,9,1.5,1.6
2026-01-17T1500,1804A,115.9583,29.7047,九江市,茅山头,细颗粒物(PM2.5),192,210,170,144,115,70,,50,50,27,68,8,14,1.3,1.5
2026-01-17T1500,1805A,115.9877,29.7295,九江市,西园,细颗粒物(PM2.5),204,197,160,154,115,80,,58,58,46,92,1,7,1.4,1.4
2026-01-17T1500,1808A,115.9112,29.6038,九江市,综合工业园,细颗粒物(PM2.5),236,225,153,186,126,70,,51,51,38,72,3,7,0.7,0.8
2026-01-17T1500,3190A,116.0254,29.6995,九江市,外国语学校,细颗粒物(PM2.5),195,199,152,146,110,63,,43,43,33,69,8,10,1.4,1.4
2026-01-17T1500,4253A,116.010205,29.659402,九江市,莲花大道8号,细颗粒物(PM2.5),241,226,142,191,113,66,,59,47,25,34,3,7,1.2,1
2026-01-17T1500,4240A,98.495752,39.733935,酒泉市,玉门东路5号,,41,41,63,17,22,76,,68,68,1,8,10,11,0.3,0.4
2026-01-17T1500,4241A,98.5099,39.7506,酒泉市,北大街108号,,41,41,59,16,21,71,,64,64,4,10,10,11,0.3,0.4
2026-01-17T1500,2698A,76.0071,39.466,喀什地区,巡警大队,颗粒物(PM10),149,248,202,90,83,75,,27,27,18,44,8,8,0.9,1.7
2026-01-17T1500,2699A,75.9756,39.4693,喀什地区,吾办,颗粒物(PM10),154,257,184,93,86,73,,29,29,20,45,14,12,1.0,1.8
2026-01-17T1500,4027A,75.9485,39.4688,喀什地区,老干局,颗粒物(PM10),166,282,220,65,64,73,,24,24,17,39,8,7,0.9,1.8
2026-01-17T1500,1824A,114.3389,34.778,开封市,肿瘤医院,"颗粒物(PM10),细颗粒物(PM2.5)",73,96,99,53,52,34,,46,35,25,22,3,4,0.7,0.7
2026-01-17T1500,1826A,114.2884,34.7966,开封市,世纪星幼儿园,细颗粒物(PM2.5),84,95,93,62,61,34,,49,36,24,21,5,6,0.6,0.6
2026-01-17T1500,3147A,114.3434,34.8101,开封市,龙亭公园,细颗粒物(PM2.5),84,98,93,62,57,34,,46,35,11,9,5,6,0.5,0.6
2026-01-17T1500,3210A,114.3645,34.7955,开封市,汴京公园,颗粒物(PM10),80,109,95,58,57,34,,44,35,21,20,4,4,0.9,0.9
2026-01-17T1500,3473A,114.2485,34.8306,开封市,技师学院,细颗粒物(PM2.5),83,101,88,61,59,34,,47,36,18,18,6,6,1.0,0.9
2026-01-17T1500,3592A,114.4518,34.7503,开封市,祥符区生态环境局,颗粒物(PM10),84,117,124,58,60,25,,36,27,28,27,3,5,0.7,0.7
2026-01-17T1500,1951A,84.886,45.6029,克拉玛依市,长征新村,,26,21,16,18,10,66,,57,57,4,11,6,5,0.2,0.3
2026-01-17T1500,1952A,84.8894,45.5827,克拉玛依市,南林小区,,21,10,14,6,9,65,,59,59,4,8,3,2,0.4,0.4
2026-01-17T1500,1954A,84.896,44.3328,克拉玛依市,独山子区,,34,34,29,22,19,51,,51,43,26,24,6,5,0.5,0.3
2026-01-17T1500,1955A,85.6888,46.0909,克拉玛依市,乌尔禾区商贸楼,,28,28,17,3,6,66,,61,61,9,15,7,6,0.4,0.4
2026-01-17T1500,3612A,85.1045,45.6895,克拉玛依市,白碱滩区新站,,38,38,28,20,11,65,,62,62,7,11,9,8,0.1,0.2
2026-01-17T1500,2697A,76.1457,39.7143,克孜勒苏柯尔克孜自治州,市人民政府,颗粒物(PM10),128,206,193,56,65,77,,52,52,12,27,5,5,0.3,0.6
2026-01-17T1500,3665A,76.1654,39.7157,克孜勒苏柯尔克孜自治州,克州文化中心,颗粒物(PM10),108,166,175,49,58,74,,46,46,10,25,7,7,0.5,0.9
2026-01-17T1500,1450A,102.8203,24.889,昆明市,呈贡新区,,36,36,51,19,29,90,,41,41,14,28,7,6,0.6,0.8
2026-01-17T1500,1452A,102.7253,25.0904,昆明市,龙泉镇,细颗粒物(PM2.5),52,,41,36,26,93,,45,45,26,33,18,5,0.6,0.5
2026-01-17T1500,1453A,102.7267,25.0378,昆明市,东风东路,颗粒物(PM10),51,51,55,22,26,93,,43,43,16,34,15,7,0.3,0.4
2026-01-17T1500,1454A,102.6744,25.0671,昆明市,金鼎山,颗粒物(PM10),56,61,50,33,30,92,,49,49,16,36,20,7,0.8,0.8
2026-01-17T1500,1455A,102.6643,25.0401,昆明市,碧鸡广场,,48,48,52,29,28,91,,47,47,17,38,17,8,0.5,0.5
2026-01-17T1500,3179A,102.7491,25.012,昆明市,官渡区博物馆,,30,29,55,15,31,96,,44,44,13,37,8,6,0.2,0.7
2026-01-17T1500,3375A,102.8016,24.8336,昆明市,青年创业园,,,15,35,14,22,101,,59,59,,26,6,6,0.5,0.6
2026-01-17T1500,3550A,102.8,24.9787,昆明市,昆明学院,,31,25,39,6,26,99,,48,48,11,32,6,5,0.3,0.5
2026-01-17T1500,3551A,102.5969,24.6738,昆明市,晋宁区生态环境分局,,29,,42,17,30,90,,42,42,7,26,2,3,0.5,0.6
2026-01-17T1500,3552A,102.6673,24.9861,昆明市,云天化总部,,35,35,39,22,23,98,,53,53,15,35,10,9,0.2,0.3
2026-01-17T1500,1456A,91.132,29.6515,拉萨市,八廓街,,28,13,21,7,12,87,,68,68,6,17,7,7,0.2,0.4
2026-01-17T1500,1457A,91.1221,29.6748,拉萨市,市环保局,,25,17,33,10,25,80,,57,57,13,28,7,9,0.6,1
2026-01-17T1500,1458A,91.0874,29.6476,拉萨市,区监测站,,25,13,15,7,10,80,,57,57,12,30,4,4,0.8,0.9
2026-01-17T1500,1459A,91.1774,29.6541,拉萨市,西藏大学,,27,12,19,6,11,86,,65,65,13,19,5,5,0.5,0.6
2026-01-17T1500,1460A,90.9798,29.6586,拉萨市,区辐射站,,,,42,,28,73,,39,39,18,37,4,5,0.4,0.9
2026-01-17T1500,1461A,91.0831,29.6292,拉萨市,拉萨火车站,,25,18,23,8,12,77,,40,40,13,32,4,4,0.5,0.8
2026-01-17T1500,2520A,109.2203,23.7252,来宾市,来宾技工学校,细颗粒物(PM2.5),104,103,111,78,87,106,,57,57,13,22,10,11,1.0,1.1
2026-01-17T1500,3535A,109.1781,23.7293,来宾市,兴宾区政府,细颗粒物(PM2.5),122,121,102,92,74,125,,66,66,17,21,12,10,1.1,1
2026-01-17T1500,4002A,109.2312,23.7428,来宾市,中南小学,细颗粒物(PM2.5),94,96,110,70,85,116,,60,60,10,28,6,8,0.9,1.1
2026-01-17T1500,1479A,103.8309,36.0467,兰州市,铁路设计院,,,,,,,,,,,,,,,,
2026-01-17T1500,3241A,103.7439,36.0841,兰州市,百合公园,颗粒物(PM10),75,99,133,51,58,56,,23,23,56,71,41,31,1.5,1.9
2026-01-17T1500,3242A,103.9613,35.9985,兰州市,和平,颗粒物(PM10),69,88,142,39,67,63,,44,44,47,47,27,35,1.2,1.8
2026-01-17T1500,4236A,103.629272,36.093822,兰州市,庄浪东路808号,"颗粒物(PM10),细颗粒物(PM2.5)",92,133,134,68,63,87,,40,40,64,70,46,34,1.3,1.4
2026-01-17T1500,4237A,103.7251,36.104344,兰州市,安宁西路88号,颗粒物(PM10),77,104,152,42,56,76,,33,33,61,75,50,33,1.5,1.5
2026-01-17T1500,4238A,103.846982,36.067567,兰州市,北滨河东路1号,颗粒物(PM10),60,69,142,38,59,57,,21,21,67,74,29,17,1.3,1.5
2026-01-17T1500,1067A,116.6712,39.5109,廊坊市,药材公司,,35,35,44,8,21,53,,48,48,17,27,3,5,0.5,0.7
2026-01-17T1500,1068A,116.7215,39.5592,廊坊市,开发区,,45,45,34,12,16,55,,52,52,18,27,3,4,0.3,0.5
2026-01-17T1500,1070A,116.7246,39.5273,廊坊市,北华航天学院,,42,42,43,10,20,55,,52,52,16,29,2,4,0.3,0.5
2026-01-17T1500,2919A,116.7022,39.5454,廊坊市,河北工业大学,,44,44,39,12,20,53,,49,49,14,22,2,3,0.4,0.5
2026-01-17T1500,2536A,103.7629,29.5844,乐山市,牛耳桥,细颗粒物(PM2.5),143,124,131,109,110,91,,28,28,24,42,6,5,1.0,1.1
2026-01-17T1500,2537A,103.7501,29.6002,乐山市,市第三水厂,细颗粒物(PM2.5),148,134,132,113,107,92,,30,30,27,49,7,7,1.0,1.1
2026-01-17T1500,2538A,103.7571,29.5664,乐山市,市监测站,细颗粒物(PM2.5),152,137,131,116,112,84,,23,23,23,35,7,6,1.0,1
2026-01-17T1500,3361A,103.7313,29.563,乐山市,理工大学,细颗粒物(PM2.5),152,129,137,116,114,76,,21,21,28,38,7,7,0.9,1
2026-01-17T1500,2599A,100.2497,26.8802,丽江市,丽江古城,,24,19,37,14,20,75,,58,58,8,15,10,10,0.4,0.5
2026-01-17T1500,2600A,100.2203,26.8906,丽江市,市中心,,25,24,25,3,13,80,,57,57,9,16,6,7,0.4,0.5
2026-01-17T1500,1267A,119.9141,28.4513,丽水市,监测站大楼,细颗粒物(PM2.5),59,65,61,42,45,115,,53,53,35,51,7,6,0.5,0.8
2026-01-17T1500,1268A,119.93,28.4589,丽水市,莲都小学,颗粒物(PM10),61,71,66,42,32,112,,56,56,38,53,/,/,/,/
2026-01-17T1500,1269A,119.8794,28.4232,丽水市,余庄前,细颗粒物(PM2.5),60,68,58,43,37,123,,57,57,33,33,7,5,0.5,0.5
2026-01-17T1500,1173A,119.1759,34.5885,连云港市,市环境监测站,,24,24,82,7,48,70,,65,65,10,16,9,10,0.3,0.5
2026-01-17T1500,3000A,119.3577,34.6971,连云港市,德源药业,,29,29,102,12,46,67,,64,64,16,19,5,5,0.7,0.9
2026-01-17T1500,3007A,119.178,34.8442,连云港市,新城一中,,49,49,94,13,50,69,,48,46,8,27,9,11,0.8,1.2
2026-01-17T1500,3008A,119.3607,34.7519,连云港市,胡沟管理处,,23,17,64,9,38,71,,69,69,12,16,6,7,0.4,0.6
2026-01-17T1500,3009A,119.1478,34.5913,连云港市,矿山设计院,,29,29,87,7,45,72,,62,62,11,19,6,7,0.5,0.7
2026-01-17T1500,3434A,119.2414,34.6539,连云港市,工贸学校,,23,12,70,9,48,73,,66,66,6,16,9,10,0.3,0.9
2026-01-17T1500,3664A,119.4171,34.734,连云港市,连云街道,,24,24,71,9,42,63,,63,61,27,28,3,3,0.5,0.7
2026-01-17T1500,2573A,102.2629,27.8981,凉山彝族自治州,西昌市政府,细颗粒物(PM2.5),72,66,46,52,35,98,,54,54,18,18,19,10,1.0,0.7
2026-01-17T1500,2574A,102.2686,27.885,凉山彝族自治州,凉山州政府,细颗粒物(PM2.5),59,65,55,42,31,96,,50,50,17,23,17,11,0.8,0.7
2026-01-17T1500,4229A,102.2342,27.8859,凉山彝族自治州,凯乐南路30号,细颗粒物(PM2.5),62,67,71,44,44,91,,40,40,27,41,14,9,0.9,0.8
2026-01-17T1500,2212A,123.1978,41.2036,辽阳市,宏伟区,,28,28,33,17,32,68,,62,62,8,15,8,9,0.2,0.3
2026-01-17T1500,2213A,123.1684,41.2497,辽阳市,新华园,,24,24,35,14,22,53,,53,53,22,22,9,11,0.2,0.2
2026-01-17T1500,2214A,123.2355,41.2663,辽阳市,滨河路,,27,27,48,15,32,56,,49,49,15,28,8,9,0.4,0.3
2026-01-17T1500,4083A,123.153,41.2874,辽阳市,铁西路150号,,37,37,41,18,30,49,,55,55,30,33,15,12,0.8,0.9
2026-01-17T1500,2227A,125.1359,42.8845,辽源市,环保局,,28,28,69,14,50,68,,52,52,8,39,5,6,0.3,1
2026-01-17T1500,4085A,125.0998,42.9134,辽源市,安宁大街333号,,23,23,60,10,51,67,,54,54,9,27,8,6,0.4,0.8
2026-01-17T1500,1625A,115.9789,36.4372,聊城市,区政府,颗粒物(PM10),61,72,74,35,40,53,,43,43,32,31,14,14,0.8,0.9
2026-01-17T1500,3200A,115.9772,36.4986,聊城市,监控中心,,,,65,,44,51,,44,44,28,26,8,8,0.9,0.9
2026-01-17T1500,3513A,116.0443,36.436,聊城市,九州社区,颗粒物(PM10),59,68,77,41,43,64,,50,50,15,15,7,5,0.6,0.6
2026-01-17T1500,4018A,116.0564,36.4609,聊城市,星美广场,细颗粒物(PM2.5),64,74,80,46,42,55,,41,41,20,21,6,6,0.7,0.7
2026-01-17T1500,4113A,116.0091,36.4495,聊城市,利民路,颗粒物(PM10),66,81,77,38,40,50,,37,37,29,30,11,11,0.8,0.8
2026-01-17T1500,2632A,94.3683,29.6373,林芝市,林芝监测站,,27,6,17,3,8,84,,64,64,2,14,4,3,0.3,0.4
2026-01-17T1500,2633A,94.3616,29.6634,林芝市,林芝人民医院,,26,8,17,3,10,81,,60,60,7,12,1,2,0.2,0.3
2026-01-17T1500,2603A,100.0779,23.8981,临沧市,市环保局,,30,24,34,21,40,96,,54,54,6,10,4,5,0.4,0.6
2026-01-17T1500,2604A,100.0894,23.882,临沧市,市气象局,,30,22,32,10,23,94,,52,52,8,10,6,5,0.3,0.4
2026-01-17T1500,1733A,111.5552,36.0791,临汾市,临钢医院,颗粒物(PM10),69,88,153,48,69,89,,44,44,16,39,6,11,0.8,1.4
2026-01-17T1500,1734A,111.4984,36.0734,临汾市,技工学校,颗粒物(PM10),68,86,145,35,64,82,,44,44,28,42,4,12,0.5,1.1
2026-01-17T1500,1736A,111.5017,36.0857,临汾市,市委,颗粒物(PM10),72,93,146,40,61,94,,51,51,14,41,7,14,0.8,1.3
2026-01-17T1500,3018A,111.5048,36.1015,临汾市,唐尧大酒店,颗粒物(PM10),71,92,140,45,64,92,,49,49,18,45,3,10,0.6,1.2
2026-01-17T1500,4244A,111.4879,36.053,临汾市,启星学校,颗粒物(PM10),63,76,138,29,65,91,,53,53,18,50,8,12,0.7,1.4
2026-01-17T1500,4271A,103.2464,35.6123,临夏回族自治州,滨河东路1号,颗粒物(PM10),57,63,155,35,64,68,,31,31,16,41,12,11,0.7,1.5
2026-01-17T1500,4310A,103.207136,35.599807,临夏回族自治州,新华街21号,,45,43,127,31,65,56,,23,23,13,42,10,13,0.5,1.6
2026-01-17T1500,1618A,118.3429,35.0532,临沂市,沂河小区,细颗粒物(PM2.5),54,56,73,38,50,45,,48,46,28,22,13,10,0.6,0.6
2026-01-17T1500,1619A,118.2962,35.0568,临沂市,鲁南制药厂,颗粒物(PM10),51,51,73,32,42,44,,50,46,26,18,12,10,0.6,0.6
2026-01-17T1500,1620A,118.2793,34.9976,临沂市,新光毛纺厂,颗粒物(PM10),51,51,71,30,41,48,,49,47,33,29,11,9,0.7,0.7
2026-01-17T1500,1621A,118.3955,35.0889,临沂市,河东保险公司,颗粒物(PM10),52,53,75,34,39,51,,45,45,25,20,12,8,0.6,0.7
2026-01-17T1500,3370A,118.3563,35.0215,临沂市,十里堡居委,,39,39,75,22,31,53,,49,48,24,26,12,10,0.6,0.6
2026-01-17T1500,3496A,118.359,35.1067,临沂市,南坊新区,颗粒物(PM10),51,51,67,34,37,50,,52,49,25,22,12,9,0.6,0.6
2026-01-17T1500,3860A,118.3915,35.0297,临沂市,皇山花园小区,颗粒物(PM10),53,56,78,32,37,54,,47,47,26,25,14,12,0.8,0.7
2026-01-17T1500,1870A,109.4854,24.3898,柳州市,柳东小学,细颗粒物(PM2.5),124,,115,94,104,116,,61,61,8,20,8,12,0.7,0.9
2026-01-17T1500,1871A,109.4109,24.3304,柳州市,环保监测站,细颗粒物(PM2.5),135,120,164,103,136,111,,45,45,16,38,7,11,1.1,1.5
2026-01-17T1500,1872A,109.3886,24.3408,柳州市,河西水厂,细颗粒物(PM2.5),140,118,195,107,133,118,,45,45,17,41,11,12,1.0,1.4
2026-01-17T1500,1873A,109.4263,24.2951,柳州市,市四中,细颗粒物(PM2.5),127,159,172,96,123,119,,54,54,24,42,14,15,0.9,1.4
2026-01-17T1500,1874A,109.396,24.3658,柳州市,市九中,细颗粒物(PM2.5),193,,179,145,144,113,,46,46,15,37,16,18,1.0,1.5
2026-01-17T1500,1875A,109.4912,24.3164,柳州市,古亭山,"颗粒物(PM10),细颗粒物(PM2.5)",80,109,96,59,70,106,,49,49,12,32,12,12,0.8,0.9
2026-01-17T1500,3402A,109.5422,24.3994,柳州市,市二中,细颗粒物(PM2.5),83,93,114,61,91,120,,52,52,12,27,10,11,0.8,0.9
2026-01-17T1500,2307A,116.5078,31.7369,六安市,监测大楼,细颗粒物(PM2.5),206,235,170,156,127,44,,25,25,34,34,4,4,0.8,0.8
2026-01-17T1500,2308A,116.4738,31.7642,六安市,皖西学院,细颗粒物(PM2.5),200,228,179,150,125,29,,20,20,38,33,5,6,0.9,0.8
2026-01-17T1500,2309A,116.4997,31.7904,六安市,朝阳厂,细颗粒物(PM2.5),180,216,176,136,124,47,,26,26,36,37,5,6,0.9,0.9
2026-01-17T1500,2310A,116.5566,31.7885,六安市,开发区,细颗粒物(PM2.5),178,237,185,134,115,55,,45,45,32,39,5,5,0.8,0.8
2026-01-17T1500,2577A,104.8293,26.592,六盘水市,黄土坡,,49,46,101,34,83,102,,58,58,11,28,9,12,0.5,1.2
2026-01-17T1500,2579A,104.8481,26.5898,六盘水市,民中,,45,38,103,31,89,98,,49,49,14,37,5,12,0.5,1.2
2026-01-17T1500,2580A,104.9541,26.5506,六盘水市,双水,细颗粒物(PM2.5),87,83,115,64,89,102,,62,62,16,21,7,6,0.4,0.7
2026-01-17T1500,4151A,104.8899,26.5685,六盘水市,钟山大道中段564号,细颗粒物(PM2.5),65,67,145,47,95,98,,49,49,12,28,8,13,0.7,1.2
2026-01-17T1500,2336A,117.022,25.1031,龙岩市,龙岩市监测站,颗粒物(PM10),53,55,58,27,39,133,,73,73,19,45,12,22,0.6,0.9
2026-01-17T1500,2337A,117.0257,25.0662,龙岩市,闽西职业技术学院,,44,44,58,30,33,130,,76,76,17,30,10,13,0.7,0.7
2026-01-17T1500,2338A,117.0195,25.0306,龙岩市,龙岩学院,颗粒物(PM10),52,54,48,27,33,134,,79,79,15,20,14,10,/,/
2026-01-17T1500,2885A,104.9344,33.3827,陇南市,滨江中学,颗粒物(PM10),56,61,115,26,51,73,,35,35,20,52,8,20,0.9,2.6
2026-01-17T1500,3247A,104.9551,33.3709,陇南市,市总工会,细颗粒物(PM2.5),59,65,85,42,43,74,,37,37,20,39,12,12,0.7,1
2026-01-17T1500,2488A,111.9984,27.7346,娄底市,市监测站,,,,114,,86,,,53,,,37,,18,,1
2026-01-17T1500,2491A,111.9888,27.7035,娄底市,市政府,细颗粒物(PM2.5),135,130,127,103,103,117,,55,55,26,37,10,11,0.6,0.9
2026-01-17T1500,4127A,111.9812,27.7591,娄底市,涟钢职大,细颗粒物(PM2.5),124,123,132,94,96,123,,60,60,15,23,7,9,0.7,1.1
2026-01-17T1500,4128A,112.0303,27.7457,娄底市,娄底体校,细颗粒物(PM2.5),124,131,122,94,102,114,,48,48,12,22,6,4,0.8,1
2026-01-17T1500,1894A,105.4427,28.9063,泸州市,小市上码头,细颗粒物(PM2.5),160,123,146,122,108,58,,31,31,25,32,8,7,1.5,1.4
2026-01-17T1500,1895A,105.4241,28.8573,泸州市,兰田宪桥,颗粒物(PM10),116,181,211,,132,59,,27,27,17,18,8,8,1.5,1.6
2026-01-17T1500,1896A,105.4378,28.8833,泸州市,市环监站,细颗粒物(PM2.5),150,140,166,115,120,55,,28,28,30,36,10,9,1.4,1.3
2026-01-17T1500,4272A,105.3689,28.7783,泸州市,纳溪中医医院,细颗粒物(PM2.5),176,,135,133,123,45,,17,17,20,19,8,8,1.3,1.4
2026-01-17T1500,2183A,111.1447,37.5212,吕梁市,环保局,颗粒物(PM10),89,128,116,64,39,82,,48,48,19,39,10,6,0.5,0.4
2026-01-17T1500,2185A,111.1285,37.5338,吕梁市,自来水公司,颗粒物(PM10),94,138,142,56,44,82,,51,51,20,33,9,9,0.8,0.6
2026-01-17T1500,2867A,111.1225,37.5093,吕梁市,马茂庄小学,颗粒物(PM10),106,161,135,69,43,73,,50,50,26,39,11,10,0.7,0.5
2026-01-17T1500,1812A,112.3934,34.6517,洛阳市,市委党校,颗粒物(PM10),61,72,108,37,54,66,,59,59,25,33,9,10,0.7,0.8
2026-01-17T1500,1815A,112.494,34.6883,洛阳市,河南林校,颗粒物(PM10),66,81,118,39,62,68,,56,56,20,33,10,11,0.6,0.8
2026-01-17T1500,1816A,112.3843,34.623,洛阳市,开发区管委会,颗粒物(PM10),62,73,123,40,64,64,,59,59,23,28,9,11,0.7,0.9
2026-01-17T1500,1817A,112.4263,34.6249,洛阳市,市委新办公区,细颗粒物(PM2.5),62,72,118,44,64,67,,59,59,24,31,10,11,0.5,0.6
2026-01-17T1500,3340A,112.6005,34.6323,洛阳市,伊滨,,,71,132,61,74,62,,45,45,,28,10,9,0.5,0.6
2026-01-17T1500,3341A,112.495,34.6338,洛阳市,中移产业园,细颗粒物(PM2.5),68,81,117,49,66,57,,49,49,23,29,11,11,0.6,0.7
2026-01-17T1500,3593A,112.5736,34.8993,洛阳市,吉利监测站,颗粒物(PM10),62,73,122,42,67,68,,60,60,17,27,10,10,0.7,0.9
2026-01-17T1500,3635A,112.3678,34.6623,洛阳市,河科大西苑校区,颗粒物(PM10),64,77,122,38,55,69,,62,62,24,32,9,10,0.7,0.9
2026-01-17T1500,3636A,112.4387,34.678,洛阳市,英才小学,细颗粒物(PM2.5),69,82,122,50,70,65,,55,55,25,35,10,11,0.5,0.7
2026-01-17T1500,4214A,112.460027,34.694929,洛阳市,春都路1号院,颗粒物(PM10),73,95,135,36,58,64,,55,55,20,26,8,9,0.8,0.9
2026-01-17T1500,2399A,114.051,33.5721,漯河市,三五一五工厂,细颗粒物(PM2.5),107,134,145,80,91,18,,35,23,22,21,,6,0.8,0.8
2026-01-17T1500,2400A,114.0055,33.5698,漯河市,漯河大学,细颗粒物(PM2.5),104,102,143,78,86,18,,34,22,18,17,5,5,0.8,0.7
2026-01-17T1500,2401A,114.0134,33.5826,漯河市,市水利局,细颗粒物(PM2.5),100,110,149,75,89,18,,33,22,21,20,3,4,0.8,0.8
2026-01-17T1500,2402A,114.0261,33.5697,漯河市,市广电局,细颗粒物(PM2.5),104,103,148,78,86,17,,34,23,21,19,5,6,0.8,0.8
2026-01-17T1500,3478A,113.9691,33.568,漯河市,市图书馆,细颗粒物(PM2.5),129,147,165,98,93,18,,33,23,,19,,4,1.0,0.9
2026-01-17T1500,4250A,114.089259,33.588274,漯河市,韶山路11号,细颗粒物(PM2.5),110,127,151,83,89,14,,27,19,18,18,5,6,0.9,0.9
2026-01-17T1500,1798A,118.5084,31.6838,马鞍山市,湖东路四小,细颗粒物(PM2.5),149,173,170,114,113,86,,84,83,24,45,3,5,1.0,1.1
2026-01-17T1500,1799A,118.5019,31.6449,马鞍山市,开发区,细颗粒物(PM2.5),152,178,175,116,126,100,,86,84,26,50,4,6,1.0,1
2026-01-17T1500,3633A,118.4914,31.681,马鞍山市,雨山,细颗粒物(PM2.5),150,187,172,115,116,90,,87,87,26,47,6,9,1.1,1.2
2026-01-17T1500,4191A,118.527362,31.722269,马鞍山市,慈湖高新区,细颗粒物(PM2.5),142,176,172,108,124,83,,86,84,22,47,4,6,0.9,1
2026-01-17T1500,1686A,111.0285,21.469,茂名市,电白南海,,47,41,67,19,34,150,,103,103,14,24,9,11,0.5,0.7
2026-01-17T1500,1687A,110.9294,21.6533,茂名市,茂石化七小,臭氧1小时(O3_1h),67,73,88,36,50,173,,127,127,20,29,13,15,0.4,0.5
2026-01-17T1500,1688A,110.9108,21.6688,茂名市,健康路,臭氧1小时(O3_1h),106,97,82,58,53,212,,139,139,26,29,28,24,0.9,0.9
2026-01-17T1500,1689A,110.8592,21.6826,茂名市,高岭,臭氧1小时(O3_1h),99,119,111,61,55,199,,119,119,33,36,63,22,/,/
2026-01-17T1500,3450A,111.0101,21.5165,茂名市,电白水东,,48,48,62,22,35,151,,109,109,12,19,8,14,/,/
2026-01-17T1500,2540A,103.8414,30.0871,眉山市,气象局,细颗粒物(PM2.5),149,123,144,114,118,126,,53,53,18,46,18,17,0.9,1.1
2026-01-17T1500,3148A,103.829,30.0563,眉山市,区人社局,细颗粒物(PM2.5),138,116,146,105,128,112,,34,34,20,55,14,14,0.8,1.2
2026-01-17T1500,4148A,103.8836,30.0695,眉山市,眉职院,细颗粒物(PM2.5),144,148,140,110,98,119,,49,49,15,38,7,4,0.9,1
2026-01-17T1500,1690A,116.1248,24.3307,梅州市,梅江月梅,,43,37,55,30,35,129,,72,72,13,39,/,/,/,/
2026-01-17T1500,1691A,116.0798,24.2719,梅州市,梅县新城,,45,45,66,27,44,128,,70,70,19,47,9,8,0.6,0.8
2026-01-17T1500,3315A,116.1234,24.2994,梅州市,梅龙,,41,41,59,25,36,120,,72,72,13,38,9,11,0.7,0.9
2026-01-17T1500,1878A,104.7775,31.4741,绵阳市,富乐山,细颗粒物(PM2.5),123,114,82,93,62,97,,42,42,21,38,10,8,0.7,0.6
2026-01-17T1500,1880A,104.6698,31.4668,绵阳市,高新区自来水公司,细颗粒物(PM2.5),138,138,111,105,71,96,,30,30,25,48,11,9,0.9,1
2026-01-17T1500,3491A,104.6899,31.5324,绵阳市,西科大附属小学,细颗粒物(PM2.5),159,148,114,121,73,114,,38,38,24,54,10,9,0.6,0.8
2026-01-17T1500,3492A,104.5647,31.5343,绵阳市,安州区旅游局,细颗粒物(PM2.5),119,96,94,90,68,90,,38,38,35,44,13,12,0.7,0.8
2026-01-17T1500,4146A,104.7092,31.4972,绵阳市,科技城新区公安局,细颗粒物(PM2.5),120,111,106,91,67,111,,40,40,27,57,11,9,0.9,1
2026-01-17T1500,4226A,104.765114,31.453094,绵阳市,绵阳市气象局,细颗粒物(PM2.5),129,116,98,98,68,95,,30,30,23,51,9,9,0.7,0.9
2026-01-17T1500,1784A,129.61,44.561,牡丹江市,环保大楼,,,37,37,22,27,68,,58,58,,16,,5,0.3,0.3
2026-01-17T1500,1787A,129.6364,44.6075,牡丹江市,机车工厂,,45,43,42,31,30,70,,53,53,8,14,2,4,0.3,0.5
2026-01-17T1500,1788A,129.6386,44.5462,牡丹江市,第一中学,,49,,28,34,29,66,,55,55,7,15,4,6,0.3,0.4
2026-01-17T1500,4287A,129.5992,44.5964,牡丹江市,东晓云街98号,,43,38,43,30,37,69,,52,52,8,15,4,6,0.5,0.6
2026-01-17T1500,2531A,105.0703,29.61,内江市,市监测站,细颗粒物(PM2.5),150,134,127,115,134,111,,43,43,19,28,8,7,1.0,1.2
2026-01-17T1500,2533A,105.0657,29.5807,内江市,内江二中,细颗粒物(PM2.5),163,137,152,124,128,90,,31,31,32,41,5,5,1.2,1.3
2026-01-17T1500,2534A,105.0407,29.5828,内江市,内江日报社,细颗粒物(PM2.5),176,,131,133,125,104,,30,30,30,43,3,3,1.0,1.1
2026-01-17T1500,4147A,105.0433,29.6105,内江市,玉峰路西段888号,细颗粒物(PM2.5),150,115,125,115,126,104,,27,27,31,38,3,2,1.1,1.3
2026-01-17T1500,2628A,92.0653,31.4846,那曲市,那曲监测站,,,,53,,35,77,,44,44,,33,5,10,0.6,1.6
2026-01-17T1500,4243A,92.0515,31.4787,那曲市,那曲市委宣传部,颗粒物(PM10),52,53,31,6,18,80,,39,39,1,29,4,8,0.4,1.2
2026-01-17T1500,1291A,115.8887,28.7006,南昌市,省林业公司,细颗粒物(PM2.5),175,163,83,132,67,59,,62,50,46,41,7,8,1.8,1.4
2026-01-17T1500,1292A,115.813,28.7443,南昌市,林科所,细颗粒物(PM2.5),170,175,76,129,56,68,,90,66,35,33,8,11,0.7,0.5
2026-01-17T1500,1294A,115.8518,28.687,南昌市,建工学校,细颗粒物(PM2.5),172,166,102,130,69,66,,74,58,42,40,14,17,1.3,1.2
2026-01-17T1500,1295A,115.8926,28.6425,南昌市,象湖,细颗粒物(PM2.5),156,129,79,119,65,62,,76,58,41,32,11,13,1.0,0.8
2026-01-17T1500,3046A,115.9084,28.6062,南昌市,机电学校,细颗粒物(PM2.5),160,180,99,122,69,76,,75,67,36,33,8,9,1.0,0.8
2026-01-17T1500,3690A,115.9718,28.7032,南昌市,外国语学校,细颗粒物(PM2.5),166,234,92,126,75,68,,61,51,41,38,16,16,1.2,0.8
2026-01-17T1500,4106A,115.7923,28.6873,南昌市,工业二路,细颗粒物(PM2.5),152,148,86,116,69,73,,71,62,30,31,7,7,0.7,1.1
2026-01-17T1500,4192A,115.931587,28.686774,南昌市,南京东路235号,细颗粒物(PM2.5),162,174,92,123,68,63,,71,55,41,32,8,9,1.2,0.9
2026-01-17T1500,1906A,106.0791,30.8022,南充市,南充市委,细颗粒物(PM2.5),193,155,144,145,130,66,,19,19,25,50,4,4,1.0,1.4
2026-01-17T1500,1907A,106.1038,30.8215,南充市,南充炼油厂,细颗粒物(PM2.5),165,141,141,125,122,77,,20,20,15,34,6,6,1.1,1.2
2026-01-17T1500,4227A,106.108336,30.788436,南充市,梨树横街98号,细颗粒物(PM2.5),168,164,167,127,118,81,,24,24,22,36,6,6,0.9,1
2026-01-17T1500,4304A,106.1172,30.843,南充市,清泉寺北路188号,细颗粒物(PM2.5),170,,122,129,105,83,,24,24,14,27,6,6,0.8,0.9
2026-01-17T1500,4305A,106.067,30.7616,南充市,同庆路1号,细颗粒物(PM2.5),188,154,143,141,126,68,,19,19,,39,6,7,1.1,1.2
2026-01-17T1500,1151A,118.8033,32.1085,南京市,迈皋桥,细颗粒物(PM2.5),92,127,143,68,89,71,,89,72,28,36,4,5,0.6,0.8
2026-01-17T1500,1152A,118.7487,32.057,南京市,草场门,细颗粒物(PM2.5),98,132,147,73,90,63,,60,57,26,44,5,7,0.9,1
2026-01-17T1500,1154A,118.770105,32.004342,南京市,中华门,细颗粒物(PM2.5),107,139,146,80,93,82,,79,75,20,36,4,5,0.9,1
2026-01-17T1500,1155A,118.8059,32.0329,南京市,瑞金路,细颗粒物(PM2.5),110,144,163,83,102,80,,80,74,17,44,4,4,1.1,1.4
2026-01-17T1500,1156A,118.7946,32.0774,南京市,玄武湖,细颗粒物(PM2.5),105,126,151,79,96,88,,78,74,21,28,4,4,1.1,1.2
2026-01-17T1500,1157A,118.6415,32.0964,南京市,浦口,细颗粒物(PM2.5),113,154,162,85,96,53,,75,55,38,28,8,9,1.3,1.4
2026-01-17T1500,1158A,118.730129,32.000956,南京市,奥体中心,细颗粒物(PM2.5),117,144,153,88,99,96,,91,89,21,42,7,8,0.9,1.1
2026-01-17T1500,1159A,118.9072,32.1047,南京市,仙林大学城,细颗粒物(PM2.5),98,136,147,73,94,62,,82,71,31,38,6,7,1.0,1.1
2026-01-17T1500,3422A,118.8443,31.919,南京市,江宁彩虹桥,细颗粒物(PM2.5),107,135,147,80,99,93,,97,89,23,40,4,4,0.9,0.9
2026-01-17T1500,3427A,118.8497,32.3599,南京市,六合雄州,细颗粒物(PM2.5),87,117,152,64,97,67,,78,65,21,25,5,5,0.8,0.9
2026-01-17T1500,4086A,118.7641,32.0841,南京市,新模范马路66号,细颗粒物(PM2.5),109,136,161,82,104,121,,115,106,,33,,4,1.2,1.4
2026-01-17T1500,4249A,118.8707617,31.34017673,南京市,汶溪路181号,,,100,135,71,119,120,,115,115,16,36,,7,1.1,1.3
2026-01-17T1500,4312A,119.019,31.6512,南京市,中山西路1号,细颗粒物(PM2.5),130,146,142,99,113,87,,92,82,26,32,4,4,1.1,1.1
2026-01-17T1500,1401A,108.3098,22.788,南宁市,二十一中,细颗粒物(PM2.5),103,112,78,77,54,80,,48,48,15,22,5,4,0.8,0.8
2026-01-17T1500,1402A,108.3135,22.8529,南宁市,北湖,细颗粒物(PM2.5),92,84,84,68,59,84,,50,50,23,33,4,4,0.8,0.8
2026-01-17T1500,1403A,108.3205,22.8222,南宁市,市监测站,细颗粒物(PM2.5),97,97,79,72,56,81,,48,48,22,30,7,7,0.9,0.8
2026-01-17T1500,1404A,108.3828,22.8038,南宁市,大自然花园,细颗粒物(PM2.5),89,89,86,66,59,91,,53,53,14,30,7,6,0.9,0.9
2026-01-17T1500,1406A,108.2397,22.8462,南宁市,区农职院,细颗粒物(PM2.5),92,92,84,68,53,85,,54,54,21,35,8,8,0.8,0.9
2026-01-17T1500,1407A,108.3285,22.7356,南宁市,英华嘉园,细颗粒物(PM2.5),89,91,77,66,59,70,,44,44,20,24,4,4,0.9,0.8
2026-01-17T1500,3401A,108.4829,22.762,南宁市,红星社区,细颗粒物(PM2.5),83,86,87,61,63,99,,44,44,12,34,7,5,0.7,0.8
2026-01-17T1500,4132A,108.2927,23.1477,南宁市,起凤路9号,细颗粒物(PM2.5),72,67,78,52,62,99,,38,38,10,21,5,3,0.7,0.7
2026-01-17T1500,4221A,108.2177,22.7774,南宁市,乐贤路16号,细颗粒物(PM2.5),94,113,84,70,52,65,,32,32,23,37,5,5,1.0,0.9
2026-01-17T1500,2332A,118.1682,26.6371,南平市,南平市监测站,,46,46,58,29,37,111,,65,65,15,30,12,7,0.6,0.6
2026-01-17T1500,2334A,118.1757,26.6276,南平市,南平七中,颗粒物(PM10),56,62,46,28,35,107,,59,59,15,31,16,6,0.8,0.7
2026-01-17T1500,1168A,120.9056,31.9669,南通市,狼山街道,颗粒物(PM10),78,105,126,52,91,88,,120,90,14,38,2,3,0.6,0.7
2026-01-17T1500,1170A,120.8635,32.0231,南通市,城中,颗粒物(PM10),78,106,145,47,96,82,,115,79,15,43,5,4,0.9,1.1
2026-01-17T1500,1171A,120.9376,31.9301,南通市,星湖花园,颗粒物(PM10),78,105,133,48,90,94,,130,99,18,45,5,5,0.7,0.8
2026-01-17T1500,1172A,120.8053,32.046,南通市,紫琅学院,颗粒物(PM10),85,120,151,40,95,90,,125,86,16,43,4,4,0.6,0.8
2026-01-17T1500,3291A,121.0631,32.0644,南通市,通州监测站,颗粒物(PM10),68,85,121,44,88,97,,125,94,17,30,3,4,0.8,1.1
2026-01-17T1500,3432A,120.9348,31.9874,南通市,环境教育馆,颗粒物(PM10),75,100,131,45,98,92,,122,92,15,45,4,5,0.7,0.9
2026-01-17T1500,4091A,120.8692,31.9885,南通市,洪江路,颗粒物(PM10),69,88,122,45,99,81,,111,80,13,34,3,4,0.8,1
2026-01-17T1500,2404A,112.5338,33.0086,南阳市,瓦房庄,细颗粒物(PM2.5),135,131,149,103,99,37,,46,39,20,21,6,7,0.9,0.9
2026-01-17T1500,2405A,112.5002,32.9734,南阳市,汉画馆,细颗粒物(PM2.5),129,149,165,98,92,37,,50,40,24,24,6,7,0.9,0.9
2026-01-17T1500,2406A,112.5778,33.0144,南阳市,气象站,细颗粒物(PM2.5),128,158,182,97,90,36,,45,38,22,24,4,6,0.8,0.9
2026-01-17T1500,2407A,112.548,32.9687,南阳市,理工学院,细颗粒物(PM2.5),108,142,160,81,80,35,,42,37,25,28,5,6,0.9,0.9
2026-01-17T1500,4008A,112.5233,32.9921,南阳市,卧龙区政府,细颗粒物(PM2.5),128,175,179,97,91,36,,47,39,28,28,5,7,0.8,0.8
2026-01-17T1500,1234A,121.8352,29.9111,宁波市,区环保大楼,颗粒物(PM10),60,70,89,26,48,86,,81,81,36,74,6,6,0.6,0.8
2026-01-17T1500,1235A,121.5595,29.8208,宁波市,万里学院,颗粒物(PM10),64,78,100,38,66,100,,96,96,24,48,7,6,0.6,0.6
2026-01-17T1500,1236A,121.713,29.9564,宁波市,龙赛医院,颗粒物(PM10),57,63,95,31,68,97,,90,90,25,68,3,6,0.7,0.9
2026-01-17T1500,1240A,121.5855,29.8635,宁波市,太古小学,颗粒物(PM10),66,82,94,30,59,102,,99,99,22,44,6,6,0.5,0.7
2026-01-17T1500,1241A,121.5239,29.8673,宁波市,市环境监测中心,颗粒物(PM10),59,67,88,32,66,101,,94,94,20,53,7,8,0.6,0.8
2026-01-17T1500,2871A,121.6156,29.9015,宁波市,万里国际学校,颗粒物(PM10),67,83,106,26,60,102,,98,98,31,64,12,7,0.6,0.7
2026-01-17T1500,3710A,121.5593,29.8976,宁波市,白沙活动中心,颗粒物(PM10),68,85,121,27,66,101,,96,96,27,67,5,5,0.3,0.9
2026-01-17T1500,4095A,121.8962,29.7529,宁波市,中科路88号,颗粒物(PM10),58,65,76,28,51,93,,97,97,33,45,6,6,0.4,0.5
2026-01-17T1500,2341A,119.5387,26.6611,宁德市,宁德市监测站,颗粒物(PM10),59,68,37,39,25,149,,84,84,18,25,8,4,0.6,0.7
2026-01-17T1500,3209A,119.5231,26.6562,宁德市,宁德一中,细颗粒物(PM2.5),69,52,36,50,28,144,,83,83,18,19,11,7,0.5,0.6
2026-01-17T1500,2618A,98.859,25.8541,怒江傈僳族自治州,州监测站,,25,22,34,15,20,77,,51,51,6,11,5,5,0.4,0.4
2026-01-17T1500,2619A,98.8607,25.8168,怒江傈僳族自治州,泸水一中,,39,29,30,27,22,70,,40,40,6,19,6,6,0.3,0.5
2026-01-17T1500,1888A,101.6891,26.571,攀枝花市,弄弄坪,细颗粒物(PM2.5),73,64,56,53,38,110,,46,46,27,26,31,18,1.9,1.2
2026-01-17T1500,1889A,101.577,26.5914,攀枝花市,河门口,颗粒物(PM10),58,65,62,40,35,97,,42,42,28,24,36,21,2.8,1.3
2026-01-17T1500,1891A,101.7365,26.4986,攀枝花市,仁和,细颗粒物(PM2.5),63,66,52,45,34,126,,54,54,14,21,22,12,1.0,0.9
2026-01-17T1500,2835A,101.7222,26.567,攀枝花市,四十中小,细颗粒物(PM2.5),65,72,68,47,41,101,,36,36,21,42,27,16,1.6,1.4
2026-01-17T1500,1604A,122.0303,41.1489,盘锦市,开发区,,50,36,31,35,21,67,,57,57,8,10,2,6,0.4,0.4
2026-01-17T1500,1605A,122.0486,41.0883,盘锦市,兴隆台,,36,36,25,20,14,62,,54,54,16,16,7,7,0.5,0.5
2026-01-17T1500,1606A,121.8297,41.1026,盘锦市,新生街道,细颗粒物(PM2.5),53,,22,37,13,71,,55,55,10,20,7,6,0.5,0.6
2026-01-17T1500,1832A,113.3257,33.7423,平顶山市,新华旅馆,细颗粒物(PM2.5),90,123,152,67,76,26,,43,32,32,30,6,6,0.6,0.6
2026-01-17T1500,1833A,113.2917,33.737,平顶山市,规划设计院,细颗粒物(PM2.5),94,134,149,70,75,32,,51,38,25,21,6,7,0.7,0.7
2026-01-17T1500,1834A,113.182,33.7738,平顶山市,平顶山工学院,细颗粒物(PM2.5),98,130,137,73,72,37,,55,42,24,23,8,8,0.6,0.6
2026-01-17T1500,3594A,112.8736,33.9068,平顶山市,石龙区,细颗粒物(PM2.5),100,138,175,75,89,44,,46,46,17,25,7,8,0.7,0.9
2026-01-17T1500,4116A,113.284,33.7139,平顶山市,姚电大道23号,细颗粒物(PM2.5),110,153,172,83,82,27,,47,34,33,27,8,8,0.8,0.8
2026-01-17T1500,2656A,106.6633,35.5338,平凉市,聚贤嘉苑,颗粒物(PM10),66,82,85,37,33,90,,57,57,15,35,18,14,0.6,0.6
2026-01-17T1500,2657A,106.7021,35.5307,平凉市,博物馆,颗粒物(PM10),62,74,86,29,36,96,,57,57,15,41,12,14,0.5,0.8
2026-01-17T1500,2348A,113.8384,27.6436,萍乡市,中医院,细颗粒物(PM2.5),83,70,80,61,60,107,,88,88,19,30,6,8,1.2,1.3
2026-01-17T1500,2350A,113.8677,27.6438,萍乡市,市环保局,细颗粒物(PM2.5),72,70,73,52,59,105,,86,86,19,24,15,19,1.0,1
2026-01-17T1500,2351A,113.8663,27.6202,萍乡市,安源区政府,细颗粒物(PM2.5),109,,84,82,85,87,,64,64,19,28,11,15,1.2,1.2
2026-01-17T1500,4107A,113.8686,27.6668,萍乡市,联洪村委会,细颗粒物(PM2.5),89,82,82,66,62,94,,77,77,15,21,2,5,0.8,0.8
2026-01-17T1500,2319A,119.0142,25.4324,莆田市,荔城区仓后路,颗粒物(PM10),53,56,62,32,36,137,,86,86,16,31,/,/,/,/
2026-01-17T1500,2320A,119.0016,25.4553,莆田市,莆田市监测站,,,67,41,,28,145,,98,98,,15,6,4,0.8,0.7
2026-01-17T1500,2321A,119.112,25.4561,莆田市,涵江区六中,颗粒物(PM10),61,71,69,34,39,129,,81,81,15,48,/,/,0.8,0.8
2026-01-17T1500,2322A,119.1014,25.3215,莆田市,秀屿区政府,细颗粒物(PM2.5),100,79,53,75,35,138,,99,99,16,22,7,6,0.9,0.9
2026-01-17T1500,2392A,115.0312,35.7636,濮阳市,环保局,,,65,79,40,46,42,,40,35,26,23,6,7,,0.3
2026-01-17T1500,3021A,115,35.7667,濮阳市,濮水河管理处,颗粒物(PM10),64,77,85,43,45,41,,41,37,29,25,6,5,0.8,0.8
2026-01-17T1500,4118A,115.0552,35.7816,濮阳市,中原东路68号,"颗粒物(PM10),细颗粒物(PM2.5)",65,79,89,47,46,42,,38,34,26,25,5,4,0.3,0.3
2026-01-17T1500,4216A,115.0923632,35.76857718,濮阳市,任丘路479号,细颗粒物(PM2.5),68,77,87,49,49,39,,38,36,26,23,5,5,0.6,0.6
2026-01-17T1500,2601A,100.9801,22.7634,普洱市,市环保局,,36,36,56,16,24,83,,50,50,4,11,5,5,0.2,0.4
2026-01-17T1500,2602A,100.9763,22.8237,普洱市,普洱第二中学,,27,22,42,7,22,84,,51,51,5,16,5,5,0.1,0.3
2026-01-17T1500,3345A,131.0413,45.7795,七台河市,中波台,,33,33,40,22,31,67,,54,54,10,18,8,14,0.4,0.5
2026-01-17T1500,3637A,131.0136,45.7688,七台河市,人民广场,,46,46,44,30,36,65,,54,54,13,22,8,10,0.5,0.5
2026-01-17T1500,3684A,130.8639,45.8144,七台河市,新建矿广场,,35,29,32,24,28,62,,50,50,9,13,4,7,0.3,0.4
2026-01-17T1500,1779A,123.9307,47.3641,齐齐哈尔市,安居小区,,26,,27,18,34,63,,57,57,6,12,4,6,0.4,0.4
2026-01-17T1500,1780A,123.9497,47.3389,齐齐哈尔市,中心广场,,19,17,17,3,9,58,,54,53,9,12,5,7,0.6,0.7
2026-01-17T1500,1781A,123.9483,47.3229,齐齐哈尔市,农牧车辆厂,,19,17,25,3,11,59,,54,52,6,9,5,7,0.3,0.3
2026-01-17T1500,1783A,123.9442,47.2994,齐齐哈尔市,市环境监测站,,19,15,25,9,15,60,,51,51,5,13,5,7,0.6,0.7
2026-01-17T1500,3662A,123.6341,47.2079,齐齐哈尔市,富区青少年活动中心,,35,35,27,7,14,65,,59,59,5,12,4,8,0.5,0.6
2026-01-17T1500,2591A,107.9765,26.5724,黔东南苗族侗族自治州,市环境监测站,细颗粒物(PM2.5),129,110,109,98,97,80,,37,37,19,29,7,7,0.7,0.8
2026-01-17T1500,2881A,107.8909,26.531,黔东南苗族侗族自治州,凯里学院,细颗粒物(PM2.5),100,97,103,75,82,89,,42,42,17,21,5,4,0.6,0.7
2026-01-17T1500,2593A,107.5223,26.2371,黔南布依族苗族自治州,小围寨,细颗粒物(PM2.5),77,58,89,56,80,81,,37,37,7,14,6,9,0.9,1.1
2026-01-17T1500,3538A,107.5175,26.2977,黔南布依族苗族自治州,沙坝,,,61,100,,82,77,,32,32,10,19,,8,0.9,1.1
2026-01-17T1500,2589A,104.9022,25.0943,黔西南布依族苗族自治州,场坝街,,33,33,73,21,54,83,,60,60,8,17,6,38,0.6,0.7
2026-01-17T1500,2590A,104.8812,25.0994,黔西南布依族苗族自治州,坪东大道,,38,27,58,26,52,84,,59,59,8,21,8,12,0.7,0.9
2026-01-17T1500,2502A,108.6238,21.9667,钦州市,市环保站,颗粒物(PM10),56,61,74,39,41,107,,48,48,19,34,5,4,0.5,0.6
2026-01-17T1500,2503A,108.655,21.9481,钦州市,沙埠小学,颗粒物(PM10),59,68,75,36,44,113,,50,50,14,36,5,5,0.5,0.5
2026-01-17T1500,2504A,108.5989,21.7435,钦州市,港区一小,颗粒物(PM10),70,89,67,44,32,107,,51,51,38,37,10,5,0.8,0.7
2026-01-17T1500,3404A,108.5959,21.9634,钦州市,北职校,颗粒物(PM10),58,65,61,40,44,111,,43,43,18,33,10,8,0.8,0.8
2026-01-17T1500,1046A,119.5247,39.9346,秦皇岛市,建设大厦,,35,35,30,16,26,56,,58,51,10,12,9,6,0.3,0.3
2026-01-17T1500,3132A,119.5979,39.938,秦皇岛市,文明里,,29,29,36,17,17,57,,58,51,21,18,14,11,0.3,0.3
2026-01-17T1500,4066A,119.7458,39.9952,秦皇岛市,南园路157号,,20,10,44,8,11,62,,45,45,11,23,12,9,0.4,0.4
2026-01-17T1500,4067A,119.5131,39.8858,秦皇岛市,翠岛大街1号,,36,36,38,12,9,58,,60,50,5,8,13,10,0.3,0.3
2026-01-17T1500,4198A,119.509013,39.825305,秦皇岛市,北戴河轮滑馆,,22,18,33,8,17,69,,64,60,6,11,8,6,0.2,0.3
2026-01-17T1500,1310A,120.404,36.0625,青岛市,市南区东部子站,,35,29,61,24,31,64,,60,56,20,19,10,9,0.5,0.6
2026-01-17T1500,1311A,120.362344,36.10282,青岛市,四方区子站,,48,48,69,22,33,63,,58,58,7,6,4,2,0.6,0.7
2026-01-17T1500,1312A,120.294373,36.054183,青岛市,市南区西部子站,,42,34,58,29,28,67,,55,55,18,20,10,9,0.8,0.9
2026-01-17T1500,1313A,120.4581,36.0858,青岛市,崂山区子站,,41,41,58,17,31,64,,61,57,20,20,12,9,0.2,0.4
2026-01-17T1500,1315A,120.3945,36.3083,青岛市,城阳区子站,,39,39,52,22,25,78,,67,67,13,18,6,6,0.7,0.8
2026-01-17T1500,3642A,120.3454,36.0735,青岛市,市北区南部,,46,46,75,19,29,59,,50,50,20,19,3,2,0.6,0.7
2026-01-17T1500,3643A,120.3897,36.18,青岛市,李沧区北部,,32,24,50,22,35,73,,64,64,13,14,8,8,0.7,0.7
2026-01-17T1500,4110A,120.5222,36.4089,青岛市,盟旺路653号,,30,30,58,13,27,75,,62,62,18,21,2,2,0.4,0.5
2026-01-17T1500,4290A,120.196923,35.954556,青岛市,珠江路669号,颗粒物(PM10),54,58,55,22,32,56,,52,52,33,29,13,11,0.5,0.6
2026-01-17T1500,4291A,120.0424,35.8656,青岛市,黄岛区人民政府广场,颗粒物(PM10),51,51,58,17,26,62,,59,59,29,24,8,7,0.8,0.8
2026-01-17T1500,1703A,113.0218,23.7086,清远市,凤城街办,细颗粒物(PM2.5),105,110,99,79,71,203,,122,122,38,53,/,/,/,/
2026-01-17T1500,3025A,113.0479,23.6343,清远市,技师学院,臭氧1小时(O3_1h),111,109,116,69,69,222,,109,109,40,69,12,14,0.7,0.8
2026-01-17T1500,3318A,112.9898,23.7403,清远市,清新太和,臭氧1小时(O3_1h),111,109,83,82,57,221,,138,138,40,38,10,7,0.7,0.7
2026-01-17T1500,3455A,113.076,23.72,清远市,清城东城,臭氧1小时(O3_1h),106,94,85,63,55,212,,121,121,36,44,/,/,/,/
2026-01-17T1500,2661A,107.6325,35.7357,庆阳市,庆阳五中,颗粒物(PM10),66,81,79,44,32,98,,83,83,16,21,6,9,0.5,0.5
2026-01-17T1500,2662A,107.6361,35.7067,庆阳市,市环保局,细颗粒物(PM2.5),74,77,74,54,35,99,,86,86,14,13,8,8,0.5,0.4
2026-01-17T1500,1916A,103.7897,25.5036,曲靖市,环境监测站,,30,7,43,6,20,96,,51,51,7,26,4,6,0.4,0.6
2026-01-17T1500,1917A,103.8013,25.5357,曲靖市,烟厂办公区,,30,17,56,14,28,96,,48,48,6,32,4,10,0.2,0.7
2026-01-17T1500,3376A,103.7926,25.4651,曲靖市,南苑二区,,31,16,34,15,18,98,,59,59,2,14,5,5,0.3,0.4
2026-01-17T1500,3377A,103.7442,25.5259,曲靖市,曲靖师范学院,,31,,47,13,32,99,,49,49,6,28,3,5,0.3,0.5
2026-01-17T1500,1264A,118.8694,28.94,衢州市,环保大楼,细颗粒物(PM2.5),149,151,110,114,78,142,,76,76,39,70,/,/,/,/
2026-01-17T1500,1266A,118.8622,28.9809,衢州市,衢州学院,细颗粒物(PM2.5),125,128,90,95,63,149,,86,86,27,60,7,6,0.6,0.6
2026-01-17T1500,4097A,118.9646,28.9832,衢州市,衢州三中,细颗粒物(PM2.5),143,150,111,109,74,137,,72,72,40,65,8,7,0.9,0.9
2026-01-17T1500,1611A,118.5818,24.9116,泉州市,涂山街,,48,48,72,30,44,144,,89,89,13,35,5,4,0.5,0.7
2026-01-17T1500,1612A,118.597,24.8976,泉州市,津头埔,,48,48,72,29,48,147,,90,90,16,43,6,6,0.5,0.7
2026-01-17T1500,1613A,118.6669,24.9422,泉州市,万安,颗粒物(PM10),51,52,72,29,39,139,,90,90,11,40,5,5,0.6,0.7
2026-01-17T1500,4105A,118.6355,24.9148,泉州市,霞新路6号,,47,46,63,30,40,148,,93,93,14,44,/,/,0.5,0.7
2026-01-17T1500,2626A,88.8873,29.2723,日喀则市,日喀则监测站,,28,17,33,6,22,89,,42,42,4,19,10,14,0.4,0.6
2026-01-17T1500,3726A,88.8775,29.2425,日喀则市,林业技术推广中心,,26,12,29,3,16,82,,48,48,4,13,10,12,0.3,0.5
2026-01-17T1500,1659A,119.4711,35.421,日照市,监测站,,36,36,58,21,33,62,,53,53,17,20,7,6,0.6,0.6
2026-01-17T1500,1660A,119.523,35.4216,日照市,市政府广场,,36,36,58,21,32,64,,57,57,23,22,9,9,0.3,0.4
2026-01-17T1500,1661A,119.5511,35.4113,日照市,港务局,,36,36,63,23,42,64,,56,56,25,23,8,7,0.4,0.5
2026-01-17T1500,3507A,119.5326,35.4627,日照市,职业技术学院,,34,34,57,12,29,63,,56,56,23,24,7,6,0.6,0.7
2026-01-17T1500,3604A,119.3267,35.1043,日照市,岚山环保分局,,48,48,93,30,55,57,,41,41,18,34,10,32,0.6,2.7
2026-01-17T1500,1835A,111.1922,34.7752,三门峡市,市政府,,,120,113,64,66,68,,67,65,21,26,,12,0.6,0.7
2026-01-17T1500,1836A,111.1588,34.794,三门峡市,开发区,颗粒物(PM10),91,132,130,62,58,59,,64,58,22,28,7,9,0.7,0.7
2026-01-17T1500,3039A,111.1911,34.7829,三门峡市,三门峡市第一小学,颗粒物(PM10),98,145,123,59,61,64,,64,62,22,24,11,13,0.6,0.6
2026-01-17T1500,3598A,111.1031,34.719,三门峡市,富达温泉假日酒店,颗粒物(PM10),92,134,126,63,61,73,,68,68,23,26,8,10,0.6,0.7
2026-01-17T1500,2324A,117.621,26.2626,三明市,三钢,颗粒物(PM10),56,62,57,35,48,93,,54,54,25,39,9,11,1.0,1.3
2026-01-17T1500,2325A,117.6352,26.2714,三明市,三明二中,颗粒物(PM10),54,58,56,36,42,90,,51,51,24,37,4,7,1.0,1.3
2026-01-17T1500,2326A,117.6028,26.2377,三明市,三元区政府,颗粒物(PM10),57,63,66,39,45,92,,50,50,32,45,12,11,1.5,1.5
2026-01-17T1500,1877A,109.4962,18.2682,三亚市,河西子站,,40,40,39,21,20,119,,80,80,8,16,3,3,0.4,0.4
2026-01-17T1500,3540A,109.7348,18.3443,三亚市,君悦子站,,38,28,31,14,16,119,,82,82,5,12,5,5,0.3,0.4
2026-01-17T1500,4135A,109.1714,18.3739,三亚市,城东小学站,,38,38,36,16,20,112,,70,70,7,12,/,/,/,/
2026-01-17T1500,2624A,91.7592,29.234,山南市,山南监测站,,,16,19,7,10,,,31,24,5,12,5,5,0.4,0.5
2026-01-17T1500,2625A,91.7701,29.2436,山南市,山南人民医院,,24,15,16,3,8,74,,50,50,4,12,7,8,0.4,0.4
2026-01-17T1500,1674A,116.6795,23.3666,汕头市,金平子站,,47,45,58,24,37,148,,88,88,17,40,7,11,0.7,0.8
2026-01-17T1500,1675A,116.7248,23.3632,汕头市,龙湖子站,,46,42,55,26,30,146,,94,94,14,33,12,15,/,/
2026-01-17T1500,1676A,116.7257,23.2774,汕头市,濠江子站,,48,48,51,28,33,142,,93,93,14,31,10,12,/,/
2026-01-17T1500,1677A,116.7518,23.4712,汕头市,澄海子站,,,,62,,40,,,127,,,31,,11,,0.7
2026-01-17T1500,1678A,116.6088,23.2539,汕头市,潮阳子站,,45,33,51,18,28,141,,93,93,6,22,8,10,0.5,0.8
2026-01-17T1500,3444A,116.4539,23.2684,汕头市,潮南峡山,,43,34,66,20,42,137,,94,94,11,26,9,11,0.4,0.7
2026-01-17T1500,3624A,116.4069,23.2533,汕头市,潮南子站,,46,46,76,22,41,120,,83,83,14,28,7,9,/,/
2026-01-17T1500,1693A,115.3653,22.7751,汕尾市,市环保局,颗粒物(PM10),52,54,41,27,26,144,,107,107,18,19,9,8,0.7,0.7
2026-01-17T1500,1695A,115.362,22.7926,汕尾市,新城中学,,,71,45,29,26,156,,105,105,,20,8,6,0.5,0.5
2026-01-17T1500,2645A,109.9155,33.8714,商洛市,监测站,细颗粒物(PM2.5),125,143,103,95,51,108,,62,62,20,33,,6,1.0,0.8
2026-01-17T1500,3045A,109.9647,33.8486,商洛市,商州区中学,"颗粒物(PM10),细颗粒物(PM2.5)",117,183,105,88,46,108,,54,54,18,35,7,6,0.8,0.6
2026-01-17T1500,2408A,115.6701,34.4283,商丘市,环境监测站,颗粒物(PM10),81,112,126,42,69,45,,42,42,18,21,4,2,0.5,0.6
2026-01-17T1500,2409A,115.6458,34.4047,商丘市,粮食局,颗粒物(PM10),58,66,106,36,63,39,,39,39,16,17,3,3,0.7,0.7
2026-01-17T1500,3171A,115.6069,34.4465,商丘市,梁园区档案局,颗粒物(PM10),60,70,105,32,64,42,,38,38,17,22,6,5,0.5,0.6
2026-01-17T1500,4119A,115.6701,34.3767,商丘市,北海东路185号,颗粒物(PM10),61,72,120,41,68,41,,40,40,16,18,2,2,0.5,0.7
2026-01-17T1500,4120A,115.6172,34.3704,商丘市,中山大街3号,"颗粒物(PM10),细颗粒物(PM2.5)",62,74,121,44,70,43,,43,43,19,20,1,2,0.4,0.5
2026-01-17T1500,1141A,121.401,31.2382,上海市,普陀,细颗粒物(PM2.5),92,102,108,68,88,109,,125,111,25,47,5,6,0.8,1
2026-01-17T1500,1142A,121.4774,31.2043,上海市,十五厂,细颗粒物(PM2.5),88,103,113,65,84,107,,123,107,24,50,6,7,0.7,1.1
2026-01-17T1500,1143A,121.4673,31.3011,上海市,虹口,细颗粒物(PM2.5),92,116,123,68,85,89,,110,93,30,52,7,7,0.8,0.9
2026-01-17T1500,1147A,121.4253,31.226,上海市,静安监测站,细颗粒物(PM2.5),88,102,104,65,82,109,,124,110,27,41,6,7,0.8,0.9
2026-01-17T1500,1148A,121.7029,31.1905,上海市,浦东川沙,"颗粒物(PM10),细颗粒物(PM2.5)",78,106,103,57,61,96,,96,95,23,46,6,7,0.6,0.6
2026-01-17T1500,1149A,121.5339,31.229,上海市,浦东新区监测站,细颗粒物(PM2.5),89,104,109,66,84,104,,115,103,27,46,6,6,0.7,0.8
2026-01-17T1500,1150A,121.5776,31.2038,上海市,浦东张江,细颗粒物(PM2.5),84,99,106,62,79,112,,117,109,28,50,6,7,0.5,0.6
2026-01-17T1500,3265A,121.4242,31.3303,上海市,宝山庙行,细颗粒物(PM2.5),90,104,120,67,86,101,,111,100,19,46,7,7,0.6,0.7
2026-01-17T1500,3266A,121.8789,31.4662,上海市,崇明上实东滩,颗粒物(PM10),67,83,84,40,51,109,,118,112,14,18,4,4,0.2,0.3
2026-01-17T1500,3268A,121.316,31.2839,上海市,嘉定南翔,颗粒物(PM10),76,101,104,47,80,101,,114,106,25,52,4,4,0.6,0.8
2026-01-17T1500,3269A,121.3357,30.7455,上海市,金山新城,细颗粒物(PM2.5),87,84,89,64,90,105,,116,113,26,39,7,8,0.8,0.8
2026-01-17T1500,3270A,121.4996,31.0741,上海市,闵行浦江,细颗粒物(PM2.5),77,97,108,56,79,112,,116,111,19,46,6,6,0.6,0.7
