timepoint,stationcode,longitude,latitude,area,positionname,primarypollutant,aqi,pm10,pm10_24h,pm2_5,pm2_5_24h,o3,o3_24h,o3_8h,o3_8h_24h,no2,no2_24h,so2,so2_24h,co,co_24h
2025-03-15T1200,2566A,102.1879,31.914,阿坝藏族羌族自治州,州农科所,,23,22,19,8,7,73,,64,64,7,7,9,9,0,0
2025-03-15T1200,2568A,102.2502,31.8896,阿坝藏族羌族自治州,马师校,,30,,16,21,14,88,,70,70,6,8,5,5,0.5,0.4
2025-03-15T1200,3994A,102.2165,31.9024,阿坝藏族羌族自治州,马尔康中学西区,,29,12,12,6,10,90,,81,81,6,6,5,5,0.4,0.4
2025-03-15T1200,2695A,80.292,41.1694,阿克苏地区,电视台,颗粒物(PM10),253,387,749,68,150,72,,81,75,3,3,7,5,0.4,0.4
2025-03-15T1200,2696A,80.2613,41.1551,阿克苏地区,艺术中心,颗粒物(PM10),289,412,797,80,158,68,,81,74,13,9,6,4,0.5,0.4
2025-03-15T1200,2204A,105.6467,38.8363,阿拉善盟,西城区西花园,颗粒物(PM10),69,87,110,15,19,92,,90,89,6,8,9,9,0.8,0.8
2025-03-15T1200,2205A,105.6985,38.8411,阿拉善盟,蒙二幼,颗粒物(PM10),62,73,94,21,18,86,,87,85,7,7,5,5,0.7,0.8
2025-03-15T1200,2206A,105.724,38.8516,阿拉善盟,环保局新楼,颗粒物(PM10),68,86,75,18,14,86,,91,87,4,4,8,8,0.6,0.5
2025-03-15T1200,2708A,88.1264,47.8517,阿勒泰地区,市站,,30,9,7,3,5,93,,87,87,3,8,2,3,0.2,0.3
2025-03-15T1200,2630A,80.1161,32.5,阿里地区,阿里监测站,,36,,6,25,6,98,,99,99,4,3,6,6,0.5,0.4
2025-03-15T1200,3192A,80.0903,32.5028,阿里地区,阿里藏医院,,31,10,9,6,4,99,,101,100,3,2,7,6,0.4,0.4
2025-03-15T1200,2642A,109.0318,32.6537,安康市,香溪洞,,20,6,14,6,12,63,,50,47,3,5,6,7,0.6,0.5
2025-03-15T1200,2644A,109.0072,32.6975,安康市,汉滨区检察院,,24,,17,8,15,75,,39,39,8,13,7,10,0.4,0.5
2025-03-15T1200,4054A,109.0325,32.6913,安康市,市邮政管理局,,24,6,19,3,12,74,,40,40,8,14,5,11,0.4,0.4
2025-03-15T1200,2291A,117.0809,30.5177,安庆市,环科院,,23,10,25,7,19,73,,82,81,16,20,6,6,0.4,0.6
2025-03-15T1200,2292A,117.0331,30.5119,安庆市,马山宾馆,,24,14,22,9,17,75,,82,82,10,14,2,2,0.6,0.7
2025-03-15T1200,2294A,116.9896,30.6145,安庆市,安庆大学,,25,7,25,6,16,80,,92,90,6,11,6,6,0.3,0.4
2025-03-15T1200,3173A,117.0598,30.5351,安庆市,市人大,,24,,26,8,20,75,,83,81,12,17,3,4,0.4,0.5
2025-03-15T1200,3122A,105.9606,26.2611,安顺市,伍家关,,,,22,5,14,68,,69,62,8,11,8,6,0.6,0.6
2025-03-15T1200,3123A,105.9408,26.2431,安顺市,凤凰山,,20,10,20,3,19,64,,68,61,10,13,14,15,0.7,0.8
2025-03-15T1200,3124A,105.9439,26.2564,安顺市,金钟山,,20,11,21,3,22,62,,68,60,9,11,13,12,0.6,0.6
2025-03-15T1200,3125A,105.8983,26.2481,安顺市,娄家坡,,28,22,24,19,22,58,,67,60,12,12,13,14,0.6,0.6
2025-03-15T1200,1818A,114.4839,36.0621,安阳市,棉研所,,,,,,,,,,,,,,,,
2025-03-15T1200,1819A,114.3551,36.1017,安阳市,红庙街,颗粒物(PM10),55,59,93,26,42,57,,51,51,18,24,7,6,0.7,0.8
2025-03-15T1200,1820A,114.361,36.0681,安阳市,银杏小区,颗粒物(PM10),53,56,84,28,43,62,,57,57,20,25,7,5,0.5,0.6
2025-03-15T1200,3141A,114.3922,36.0878,安阳市,信访局,颗粒物(PM10),55,60,86,24,41,68,,60,60,20,28,6,6,0.4,0.4
2025-03-15T1200,3669A,114.4705,36.0637,安阳市,左辅环卫站,颗粒物(PM10),60,70,111,28,43,85,,72,72,16,23,5,6,0.5,0.6
2025-03-15T1200,3703A,114.2917,36.0949,安阳市,安钢职工学校,颗粒物(PM10),54,58,93,34,44,60,,56,56,21,27,7,7,0.7,0.8
2025-03-15T1200,1748A,123.044,41.1196,鞍山市,深沟寺,细颗粒物(PM2.5),67,72,61,48,37,77,,65,63,19,22,12,13,0.6,0.6
2025-03-15T1200,1749A,123.011,41.0931,鞍山市,太阳城,细颗粒物(PM2.5),78,86,56,57,34,84,,73,70,17,18,9,9,0.6,0.5
2025-03-15T1200,1750A,123.0485,41.1442,鞍山市,太平,颗粒物(PM10),71,92,75,46,40,77,,66,61,19,22,11,13,0.6,0.7
2025-03-15T1200,1751A,122.9642,41.0971,鞍山市,铁西三道街,细颗粒物(PM2.5),80,95,72,59,42,71,,66,60,29,32,24,20,1.8,1.2
2025-03-15T1200,1753A,123.022,41.0821,鞍山市,明达新区,细颗粒物(PM2.5),82,71,55,60,36,79,,72,69,17,18,8,11,0.4,0.7
2025-03-15T1200,1754A,123.1289,41.0228,鞍山市,千山,,,,51,,24,,,75,,,19,,9,,0.6
2025-03-15T1200,4201A,122.9446,41.0826,鞍山市,兴盛南路290号,细颗粒物(PM2.5),72,86,76,52,43,75,,59,57,29,45,24,28,1.0,1.3
2025-03-15T1200,2195A,107.4212,40.761,巴彦淖尔市,附二中,,43,43,61,19,20,86,,74,74,4,7,4,4,0.4,0.4
2025-03-15T1200,2196A,107.37,40.7372,巴彦淖尔市,市环保大楼,,,29,52,11,20,89,,77,77,,6,4,5,0.3,0.3
2025-03-15T1200,1956A,86.1472,41.7538,巴音郭楞蒙古自治州,孔雀公园,颗粒物(PM10),74,98,241,3,49,87,,78,78,7,18,5,6,0.3,0.4
2025-03-15T1200,1957A,86.1972,41.7166,巴音郭楞蒙古自治州,棉纺厂,颗粒物(PM10),80,109,289,3,43,88,,61,61,10,25,3,3,0.3,0.4
2025-03-15T1200,1958A,86.2357,41.7173,巴音郭楞蒙古自治州,经济开发区,颗粒物(PM10),61,71,234,7,43,93,,75,75,4,17,4,6,0.2,0.3
2025-03-15T1200,2914A,106.7677,31.8794,巴中市,苏山坪,,24,11,8,3,5,76,,76,76,4,6,4,4,0.2,0.3
2025-03-15T1200,3181A,106.7768,31.8526,巴中市,市五中,,24,12,15,3,8,76,,72,72,7,11,4,4,0.4,0.5
2025-03-15T1200,3183A,106.7418,31.8654,巴中市,圣泉水务公司,,25,14,10,6,6,78,,67,67,7,14,6,7,0.4,0.5
2025-03-15T1200,3616A,106.7616,31.8344,巴中市,市中心医院,,23,14,16,9,14,73,,65,65,10,20,6,6,0.4,0.5
2025-03-15T1200,2235A,122.7911,45.6077,白城市,洮北区环保局,,28,22,41,11,28,88,,67,67,4,10,6,5,0.3,0.4
2025-03-15T1200,2236A,122.8738,45.5725,白城市,市环保局,,28,17,35,15,27,88,,78,78,2,8,5,6,0.3,0.4
2025-03-15T1200,2231A,126.4219,41.9171,白山市,喜丰,,27,18,34,12,16,86,,74,74,10,11,8,7,0.7,0.7
2025-03-15T1200,2232A,126.4077,41.9419,白山市,环保局,,29,29,40,9,18,87,,76,75,16,14,8,7,0.6,0.5
2025-03-15T1200,2647A,104.1724,36.5446,白银市,第三小学,,50,,76,35,35,91,,86,86,4,6,6,7,0.5,0.6
2025-03-15T1200,2648A,104.1465,36.5482,白银市,动力公司,,29,23,66,13,21,92,,86,86,4,6,2,2,0.4,0.5
2025-03-15T1200,2512A,106.6103,23.9011,百色市,市监测站,,27,27,30,10,14,58,,48,48,12,10,7,9,0.8,0.8
2025-03-15T1200,2513A,106.6538,23.8859,百色市,市中心血站,,25,25,31,6,13,56,,50,50,8,8,7,9,0.8,0.8
2025-03-15T1200,3406A,106.6085,23.8798,百色市,祈福高中,,19,19,33,9,13,60,,52,52,8,8,4,7,0.7,0.8
2025-03-15T1200,2270A,117.396,32.939,蚌埠市,工人疗养院,,48,48,50,20,23,69,,58,58,15,21,4,3,0.4,0.4
2025-03-15T1200,2271A,117.3605,32.9427,蚌埠市,百货大楼,,49,49,50,23,24,58,,50,50,20,23,5,4,0.4,0.4
2025-03-15T1200,2273A,117.4185,32.8911,蚌埠市,蚌埠学院,,41,41,43,20,24,67,,56,56,15,24,3,4,0.4,0.4
2025-03-15T1200,2274A,117.3533,32.9673,蚌埠市,淮上区政府,,48,48,47,25,27,68,,54,54,14,21,5,4,0.3,0.3
2025-03-15T1200,2275A,117.3145,32.8977,蚌埠市,高新区,,46,46,41,24,26,69,,58,58,22,26,15,11,0.3,0.3
2025-03-15T1200,3715A,117.3092,32.9314,蚌埠市,蚌埠田家炳中学,颗粒物(PM10),52,53,50,23,25,66,,51,51,25,27,6,5,0.4,0.4
2025-03-15T1200,1585A,109.8756,40.6532,包头市,市环境监测站,,27,27,50,7,11,86,,78,78,8,8,10,10,0.5,0.4
2025-03-15T1200,1587A,109.9991,40.5842,包头市,包头八中,,27,22,64,7,12,86,,76,76,6,9,6,7,0.4,0.4
2025-03-15T1200,1588A,109.8538,40.6821,包头市,青山宾馆,,28,16,41,8,9,88,,79,79,4,5,6,7,0.4,0.4
2025-03-15T1200,1589A,109.8642,40.6288,包头市,惠龙物流,,29,23,53,9,12,90,,81,81,7,9,6,6,0.4,0.4
2025-03-15T1200,1590A,110.0377,40.5546,包头市,东河鸿龙湾,,28,27,58,6,10,88,,76,76,5,10,6,8,0.3,0.4
2025-03-15T1200,3283A,109.9154,40.5685,包头市,滨河大厦,,28,12,38,3,10,89,,76,76,3,8,8,9,0.4,0.4
2025-03-15T1200,3419A,109.9447,40.6261,包头市,包头市委党校,,25,15,53,7,15,79,,74,74,6,8,6,7,0.4,0.5
2025-03-15T1200,3683A,109.8331,40.6576,包头市,昆区政府,,27,15,53,6,11,86,,78,78,8,8,5,6,0.4,0.4
2025-03-15T1200,1930A,107.185,34.3063,宝鸡市,庙沟村,,27,23,63,12,19,86,,80,80,5,7,6,6,0.3,0.3
2025-03-15T1200,1931A,107.0708,34.3017,宝鸡市,竹园沟,,28,14,50,10,15,87,,78,78,8,14,7,6,0.4,0.5
2025-03-15T1200,1932A,107.1906,34.3672,宝鸡市,三陆医院,,33,33,77,14,25,80,,76,76,6,18,4,4,0.4,0.5
2025-03-15T1200,1933A,107.1431,34.3547,宝鸡市,监测站,,30,30,78,14,23,82,,76,76,7,14,7,7,0.5,0.5
2025-03-15T1200,1934A,107.1186,34.3739,宝鸡市,技工学校,,38,38,76,11,26,83,,78,78,8,15,5,6,0.7,0.8
2025-03-15T1200,1935A,107.3906,34.3528,宝鸡市,陈仓区环保局家属楼,,25,25,87,14,27,80,,75,75,8,19,7,7,0.3,0.4
2025-03-15T1200,1936A,107.2058,34.3497,宝鸡市,文理学院,,26,18,92,11,17,83,,80,80,7,14,5,5,0.4,0.4
2025-03-15T1200,1937A,107.2386,34.3622,宝鸡市,三迪小学,,48,48,80,16,26,81,,76,76,10,19,6,6,0.6,0.6
2025-03-15T1200,1051A,115.493,38.8632,保定市,游泳馆,,48,48,69,26,28,77,,66,66,20,27,13,11,0.5,0.5
2025-03-15T1200,1052A,115.5213,38.8959,保定市,华电二区,,40,40,63,20,30,78,,64,64,23,35,14,12,0.3,0.4
2025-03-15T1200,1053A,115.4713,38.9108,保定市,接待中心,,46,46,68,29,32,77,,67,67,19,26,11,8,0.1,0.2
2025-03-15T1200,1054A,115.4612,38.8416,保定市,地表水厂,颗粒物(PM10),62,74,86,26,28,80,,68,68,20,27,12,10,0.6,0.7
2025-03-15T1200,3581A,115.31981,38.95208,保定市,满城区生态环境分局,,41,41,68,24,27,85,,67,67,17,28,11,11,0.4,0.5
2025-03-15T1200,3582A,115.47694,38.76408,保定市,清苑区第二中学,颗粒物(PM10),55,59,85,23,28,77,,62,62,21,30,12,12,0.5,0.5
2025-03-15T1200,3583A,115.62909,39.02311,保定市,徐水物探局,,38,38,68,17,21,87,,62,62,13,29,11,11,0.4,0.4
2025-03-15T1200,4004A,115.4202,38.8656,保定市,双鹰农机,,42,42,68,24,29,80,,70,70,16,24,9,7,0.6,0.7
2025-03-15T1200,4034A,115.5150,38.8590,保定市,植保所站,,49,49,75,28,37,74,,58,58,23,32,12,10,0.2,0.3
2025-03-15T1200,2594A,99.1678,25.1081,保山市,市环境监测站,细颗粒物(PM2.5),72,75,55,52,38,137,,112,101,14,10,8,6,0.7,0.5
2025-03-15T1200,2595A,99.1711,25.1328,保山市,市环保局,颗粒物(PM10),71,91,59,43,35,142,,119,111,16,7,10,8,0.8,0.7
2025-03-15T1200,1866A,109.2262,21.588,北海市,牛尾岭水库,,,28,24,27,15,33,,17,17,,,5,6,0.7,0.5
2025-03-15T1200,1867A,109.1436,21.4086,北海市,海滩公园,,44,44,26,20,12,38,,33,30,11,14,6,6,0.6,0.6
2025-03-15T1200,1868A,109.0981,21.4661,北海市,新市环保局,,36,36,33,22,22,43,,29,28,11,15,6,3,0.6,0.5
2025-03-15T1200,1869A,109.1778,21.5233,北海市,北海工业园,,39,39,34,22,21,43,,26,25,11,12,10,7,0.5,0.4
2025-03-15T1200,3400A,109.1911,21.4415,北海市,龙潭自来水厂,,39,35,27,27,23,39,,25,24,11,12,6,6,0.5,0.5
2025-03-15T1200,1001A,116.3621,39.8784,北京市,万寿西宫,颗粒物(PM10),58,66,80,35,29,75,,60,60,21,24,7,7,0.7,0.6
2025-03-15T1200,1002A,116.2202,40.2915,北京市,定陵,,,,,,,,,,,,,,,,
2025-03-15T1200,1003A,116.4174,39.9289,北京市,东四,颗粒物(PM10),59,68,78,41,33,72,,63,63,20,21,9,10,0.7,0.7
2025-03-15T1200,1004A,116.4072,39.8863,北京市,天坛,,,,76,,30,,,70,,,22,,6,,0.8
2025-03-15T1200,1005A,116.462,39.9365,北京市,农展馆,颗粒物(PM10),60,70,78,35,30,71,,62,62,15,17,11,11,0.8,0.7
2025-03-15T1200,1006A,116.3392,39.9295,北京市,官园,颗粒物(PM10),57,64,79,37,30,63,,51,51,17,21,11,11,0.8,0.7
2025-03-15T1200,1007A,116.2878,39.9611,北京市,海淀万柳,颗粒物(PM10),54,57,78,30,30,65,,53,53,23,27,7,7,0.6,0.7
2025-03-15T1200,1008A,116.6636,40.135,北京市,顺义新城,颗粒物(PM10),54,58,73,27,31,69,,60,60,13,17,9,8,0.6,0.6
2025-03-15T1200,1009A,116.6275,40.3275,北京市,怀柔镇,细颗粒物(PM2.5),57,53,74,40,42,62,,52,52,11,21,3,5,0.7,0.7
2025-03-15T1200,1010A,116.2296,40.217,北京市,昌平镇,颗粒物(PM10),52,53,83,23,31,67,,40,40,15,29,4,5,0.5,0.6
2025-03-15T1200,1011A,116.3966,39.9821,北京市,奥体中心,颗粒物(PM10),60,69,76,37,31,65,,58,58,23,22,8,8,0.9,0.8
2025-03-15T1200,3281A,115.9718,40.4529,北京市,延庆夏都,,28,28,65,16,31,72,,66,66,9,17,6,7,0.4,0.6
2025-03-15T1200,3418A,116.8336,40.4095,北京市,密云新城,,48,39,64,33,44,66,,61,61,5,9,4,4,0.7,0.7
2025-03-15T1200,3671A,116.088,39.9726,北京市,门头沟三家店,颗粒物(PM10),56,61,99,28,29,72,,48,48,17,26,7,7,0.4,0.5
2025-03-15T1200,3672A,116.1541,39.8204,北京市,丰台云岗,颗粒物(PM10),59,68,91,37,32,76,,56,56,19,22,9,8,0.6,0.5
2025-03-15T1200,3673A,116.6804,39.9081,北京市,通州东关,颗粒物(PM10),57,63,80,33,30,70,,59,59,9,15,9,9,0.7,0.6
2025-03-15T1200,3674A,115.9577,39.7603,北京市,房山燕山,颗粒物(PM10),60,70,73,33,30,66,,64,64,19,18,4,4,0.4,0.4
2025-03-15T1200,3675A,116.4672,39.7733,北京市,大兴旧宫,颗粒物(PM10),58,66,84,36,29,67,,46,46,14,20,3,3,0.7,0.5
2025-03-15T1200,3694A,115.986,40.4563,北京市,延庆石河营,,28,28,66,17,32,70,,63,63,8,16,4,6,0.4,0.6
2025-03-15T1200,3695A,116.6151,40.3053,北京市,怀柔新城,细颗粒物(PM2.5),57,57,71,40,38,61,,52,52,10,19,4,6,0.7,0.7
2025-03-15T1200,3696A,116.2545,39.8768,北京市,丰台小屯,颗粒物(PM10),57,63,81,31,29,66,,41,41,19,32,7,6,0.6,0.5
2025-03-15T1200,3697A,116.84,40.3844,北京市,密云镇,,48,44,67,33,41,67,,60,60,8,12,4,5,0.6,0.6
2025-03-15T1200,4182A,116.1942,39.9158,北京市,八角北路9号,颗粒物(PM10),59,67,89,30,29,70,,54,54,20,26,5,5,0.4,0.5
2025-03-15T1200,4194A,117.0790,40.1518,北京市,洳河巡河路,细颗粒物(PM2.5),59,49,58,42,39,63,,48,47,11,17,3,5,0.4,0.5
2025-03-15T1200,1761A,123.8275,41.3064,本溪市,大峪,,50,50,43,34,30,101,,80,80,4,10,8,8,0.8,0.8
2025-03-15T1200,1762A,123.7567,41.3325,本溪市,溪湖,细颗粒物(PM2.5),72,60,49,52,31,103,,93,93,16,13,11,9,0.7,0.6
2025-03-15T1200,1763A,123.7169,41.3094,本溪市,彩屯,细颗粒物(PM2.5),69,75,59,50,40,91,,77,77,19,20,11,10,0.9,0.8
2025-03-15T1200,1764A,123.7669,41.2864,本溪市,东明,颗粒物(PM10),60,69,49,39,32,93,,74,74,16,18,11,10,0.7,0.6
2025-03-15T1200,1765A,123.7992,41.2664,本溪市,新立屯,细颗粒物(PM2.5),54,50,43,38,35,106,,88,88,13,19,8,8,0.6,0.6
2025-03-15T1200,1766A,123.8142,41.3472,本溪市,威宁,细颗粒物(PM2.5),55,54,49,39,31,101,,77,77,6,16,5,4,0.6,0.6
2025-03-15T1200,2587A,105.2864,27.3125,毕节市,八中,,19,6,11,3,9,59,,55,55,9,8,8,7,0.6,0.7
2025-03-15T1200,2588A,105.31,27.2944,毕节市,师专,,21,6,10,3,9,65,,58,58,10,10,6,6,0.7,0.7
2025-03-15T1200,4263A,105.3688,27.3598,毕节市,工业大道,,22,6,10,3,8,70,,63,63,9,10,7,8,0.5,0.6
2025-03-15T1200,1629A,118.0018,37.3617,滨州市,第二水厂,,,,70,,32,,,71,,,16,,8,,0.4
2025-03-15T1200,1630A,117.9776,37.393,滨州市,北中新校,颗粒物(PM10),53,56,71,29,34,86,,69,69,20,25,10,10,0.4,0.5
2025-03-15T1200,3514A,117.9378,37.3956,滨州市,中海酒店,,46,46,61,27,37,88,,72,72,16,19,8,9,0.4,0.4
2025-03-15T1200,3515A,117.9378,37.3553,滨州市,开发区一中,颗粒物(PM10),51,51,70,27,30,78,,64,64,20,23,8,8,0.3,0.3
2025-03-15T1200,3516A,118.0917,37.694,滨州市,金海六路,,29,24,56,12,24,91,,78,78,10,17,4,6,0.4,0.5
2025-03-15T1200,4028A,117.9956,37.3753,滨州市,滨州市西街道办事处,颗粒物(PM10),52,53,66,31,40,88,,69,69,16,20,8,7,0.4,0.5
2025-03-15T1200,2311A,115.8072,33.8399,亳州市,污水处理厂,颗粒物(PM10),65,79,45,31,20,90,,80,80,15,12,4,3,0.3,0.2
2025-03-15T1200,2312A,115.7789,33.8518,亳州市,三国揽胜宫,颗粒物(PM10),73,95,55,27,17,84,,79,79,15,12,4,3,0.4,0.3
2025-03-15T1200,3332A,115.7633,33.8034,亳州市,亳州学院,颗粒物(PM10),65,79,48,25,19,91,,90,90,14,11,5,3,0.4,0.3
2025-03-15T1200,2693A,82.0485,44.8556,博尔塔拉蒙古自治州,市党校,,38,,33,26,25,63,,74,68,15,13,9,8,0.5,0.9
2025-03-15T1200,2694A,82.0806,44.8969,博尔塔拉蒙古自治州,市环保局,,28,22,32,9,15,87,,95,93,8,8,4,5,0.3,0.3
2025-03-15T1200,1071A,116.8842,38.2991,沧州市,沧县城建局,,45,45,58,13,32,88,,81,81,10,16,2,3,0.2,0.3
2025-03-15T1200,1072A,116.8584,38.3254,沧州市,电视转播站,,43,43,55,12,23,85,,79,79,12,18,8,10,0.3,0.4
2025-03-15T1200,1073A,116.8709,38.3228,沧州市,市环保局,,47,47,56,15,27,81,,75,75,13,16,7,7,0.3,0.4
2025-03-15T1200,3324A,116.8136,38.3004,沧州市,河北水利电力学院,,39,39,54,26,28,83,,78,78,13,17,3,3,0.2,0.3
2025-03-15T1200,2622A,97.1806,31.1273,昌都市,昌都监测站,,19,12,12,6,7,58,,58,53,9,6,8,7,0.5,0.5
2025-03-15T1200,3719A,97.1714,31.1406,昌都市,昌都会议中心,,28,9,10,3,8,88,,65,62,2,3,3,5,0.2,0.2
2025-03-15T1200,2690A,88.1236,43.8886,昌吉回族自治州,天山天池,,29,21,9,3,3,91,,84,84,4,3,5,4,0.4,0.4
2025-03-15T1200,2692A,87.2717,44.0297,昌吉回族自治州,新区政务中心,,31,31,32,3,12,73,,73,68,10,15,7,7,0.5,0.5
2025-03-15T1200,3613A,87.3095,44.0142,昌吉回族自治州,亚心广场,,32,31,35,22,21,71,,74,67,21,24,8,8,0.4,0.5
2025-03-15T1200,1119A,125.3325,43.9166,长春市,食品厂,细颗粒物(PM2.5),65,,47,47,31,85,,47,47,18,37,10,9,0.4,0.5
2025-03-15T1200,1120A,125.2863,43.9027,长春市,客车厂,,49,42,44,34,33,78,,42,42,19,38,8,8,0.4,0.5
2025-03-15T1200,1121A,125.2841,43.8463,长春市,邮电学院,,45,45,41,28,30,85,,53,53,9,22,10,8,0.4,0.5
2025-03-15T1200,1122A,125.3716,43.8772,长春市,劳动公园,,44,44,45,24,28,84,,41,41,9,30,9,8,0.6,0.7
2025-03-15T1200,1123A,125.3297,43.8805,长春市,园林处,,,,36,44,28,86,,53,53,11,21,,8,,0.4
2025-03-15T1200,1124A,125.4605,43.79,长春市,净月潭,,48,48,33,23,21,83,,59,59,11,13,8,7,0.4,0.4
2025-03-15T1200,1125A,125.7194,43.515,长春市,甩湾子,,,,,,,,,,,,,,,,
2025-03-15T1200,1126A,125.3863,43.8447,长春市,经开区环卫处,,39,39,43,22,27,81,,36,36,11,38,7,7,0.3,0.4
2025-03-15T1200,1127A,125.245,43.7783,长春市,高新区管委会,,45,45,46,23,37,79,,39,39,16,41,10,8,0.4,0.5
2025-03-15T1200,1128A,125.1761,43.8325,长春市,岱山公园,细颗粒物(PM2.5),52,52,49,36,38,94,,48,48,10,42,11,11,0.3,0.4
2025-03-15T1200,1335A,113.0833,28.2325,长沙市,经开区环保局,,29,25,18,20,15,58,,52,52,17,22,4,4,0.3,0.5
2025-03-15T1200,1336A,112.8872,28.2189,长沙市,高开区环保局,,36,28,19,25,18,61,,57,57,6,7,3,3,0.5,0.6
2025-03-15T1200,1337A,113.0792,28.2053,长沙市,马坡岭,,26,22,21,18,14,62,,54,54,11,16,3,3,0.4,0.5
2025-03-15T1200,1338A,112.9394,28.19,长沙市,湖南师范大学,,33,33,20,18,15,58,,55,55,6,8,4,4,0.5,0.6
2025-03-15T1200,1339A,113.0178,28.1322,长沙市,雨花区环保局,,32,32,22,21,18,50,,45,45,20,22,4,4,0.4,0.5
2025-03-15T1200,1340A,112.9792,28.2597,长沙市,伍家岭,,33,30,23,23,15,55,,52,52,13,14,2,2,0.3,0.5
2025-03-15T1200,1341A,113.0014,28.1944,长沙市,火车新站,,42,,20,29,20,55,,52,52,13,14,5,5,0.4,0.5
2025-03-15T1200,1342A,112.9844,28.1178,长沙市,天心区环保局,,34,34,20,17,14,58,,54,54,18,20,2,2,0.4,0.5
2025-03-15T1200,1343A,112.8908,28.1308,长沙市,湖南中医药大学,,42,32,21,29,21,58,,55,55,8,9,2,2,0.1,0.3
2025-03-15T1200,1344A,112.9581,28.3611,长沙市,沙坪,,25,22,16,17,14,55,,52,52,9,12,5,5,0.4,0.6
2025-03-15T1200,1727A,113.1147,36.1547,长治市,清华站,,49,45,58,34,34,73,,39,39,19,27,7,7,0.8,0.9
2025-03-15T1200,1730A,113.0886,36.2125,长治市,审计局,,49,42,56,34,40,77,,42,42,18,27,8,8,0.5,0.5
2025-03-15T1200,1731A,113.0844,36.1856,长治市,长治八中,细颗粒物(PM2.5),60,52,73,43,44,78,,36,36,15,26,9,9,0.4,0.5
2025-03-15T1200,2845A,113.1569,36.1911,长治市,德盛苑,,45,43,57,31,39,79,,45,45,16,22,6,5,0.7,0.8
2025-03-15T1200,3568A,113.06,36.0464,长治市,向阳小学,颗粒物(PM10),61,72,82,39,47,74,,40,40,15,24,7,13,0.5,0.5
2025-03-15T1200,3569A,112.8792,36.3144,长治市,屯留一中,,41,41,65,25,35,82,,48,48,19,34,9,10,0.3,0.5
2025-03-15T1200,4189A,113.1131,36.19948,长治市,英华南巷50号,细颗粒物(PM2.5),52,44,63,36,40,79,,45,45,17,26,10,10,0.6,0.7
2025-03-15T1200,4190A,113.2367,36.3344,长治市,学府街1号,细颗粒物(PM2.5),72,70,82,52,46,80,,39,39,21,31,12,7,0.9,0.9
2025-03-15T1200,1854A,111.6975,28.9703,常德市,市二中,,40,34,31,28,22,84,,73,73,8,10,4,3,0.4,0.5
2025-03-15T1200,1857A,111.7158,29.1456,常德市,白鹤山,,,,,,,,,,,,,,,,
2025-03-15T1200,3138A,111.7153,29.0289,常德市,武陵区永安,,43,43,32,27,20,79,,68,68,8,9,2,2,0.3,0.3
2025-03-15T1200,3139A,111.6892,28.9881,常德市,鼎城区玉霞,,37,37,29,24,18,83,,74,74,10,12,3,2,0.4,0.4
2025-03-15T1200,3140A,111.6625,29.0531,常德市,武陵区长庚,颗粒物(PM10),53,55,31,24,17,80,,70,70,7,9,3,3,0.4,0.4
2025-03-15T1200,1196A,119.9633,31.762,常州市,市监测站,,,35,42,18,19,,,87,85,1,18,,8,0.5,0.5
2025-03-15T1200,1200A,119.9468,31.7069,常州市,武进监测站,,28,28,37,18,17,77,,87,84,26,30,9,10,0.6,0.6
2025-03-15T1200,1201A,119.9255,31.9087,常州市,安家,,,37,42,20,18,,,84,83,,25,,9,,0.7
2025-03-15T1200,3002A,119.9805,31.8174,常州市,行政中心,,28,28,36,16,18,84,,86,84,16,24,3,3,0.3,0.4
2025-03-15T1200,3003A,120.0522,31.7748,常州市,经开区,,33,33,45,17,16,75,,90,86,31,32,7,7,0.3,0.5
2025-03-15T1200,3010A,119.9025,31.7964,常州市,钟楼,,28,27,39,19,17,84,,87,85,16,24,6,6,0.6,0.6
2025-03-15T1200,3429A,119.8598,31.7066,常州市,武进经发区,,30,30,38,18,19,80,,88,86,28,34,5,6,0.5,0.6
2025-03-15T1200,3430A,119.5826,31.7245,常州市,金坛城区,,30,29,42,20,20,93,,92,92,13,20,6,6,0.4,0.5
2025-03-15T1200,2220A,120.4318,41.5881,朝阳市,西梁,,36,36,41,8,27,86,,82,82,2,11,4,9,0.3,0.5
2025-03-15T1200,2221A,120.4521,41.5646,朝阳市,河畔小区,,42,42,39,12,22,89,,83,83,6,11,7,11,0.5,0.6
2025-03-15T1200,2222A,120.4176,41.5648,朝阳市,八里堡,,47,47,42,19,22,85,,80,80,3,9,7,12,0.5,0.6
2025-03-15T1200,2223A,120.3806,41.5969,朝阳市,农业园区,颗粒物(PM10),65,79,50,13,24,89,,83,83,8,17,6,8,0.4,0.5
2025-03-15T1200,1705A,116.6367,23.6719,潮州市,西园路,,35,34,36,24,31,60,,49,43,19,20,3,5,0.5,0.4
2025-03-15T1200,3026A,116.6183,23.6608,潮州市,市政府,细颗粒物(PM2.5),59,,39,42,34,64,,48,44,23,23,4,6,0.8,0.6
2025-03-15T1200,4036A,116.6461,23.6761,潮州市,金山,,39,33,36,27,35,53,,47,42,25,21,6,7,0.9,0.7
2025-03-15T1200,2472A,113.0073,25.9061,郴州市,马头岭,,19,19,15,7,9,30,,31,31,9,9,7,7,1.2,1.2
2025-03-15T1200,2473A,113.0116,25.8226,郴州市,市职中,,15,15,13,6,10,36,,35,35,16,17,5,5,0.6,0.8
2025-03-15T1200,2475A,113.0383,25.8071,郴州市,市审计局,,13,12,14,9,10,38,,36,36,14,14,2,3,0.5,0.7
2025-03-15T1200,2476A,113.0348,25.7759,郴州市,市环保局,,18,15,18,12,10,32,,29,29,10,13,4,5,0.5,0.7
2025-03-15T1200,4252A,113.0138,25.8011,郴州市,好美居路49号,,16,11,14,11,12,36,,34,34,16,16,6,6,0.5,0.8
2025-03-15T1200,1431A,103.9728,30.7236,成都市,金泉两河,,26,26,35,3,12,63,,59,57,24,18,2,2,0.5,0.5
2025-03-15T1200,1432A,104.176,30.6872,成都市,十里店,,20,17,36,3,21,64,,67,66,23,21,2,2,0.6,0.7
2025-03-15T1200,1433A,104.079,30.5706,成都市,三瓦窑,,26,26,38,3,20,75,,67,67,19,25,4,4,0.5,0.6
2025-03-15T1200,1434A,104.1114,30.63,成都市,沙河铺,,25,25,38,3,27,63,,58,58,19,19,5,5,0.6,0.7
2025-03-15T1200,1437A,104.0786,30.6531,成都市,君平街,,23,14,36,9,28,72,,69,69,22,22,5,5,0.6,0.6
2025-03-15T1200,1438A,103.613,31.0283,成都市,灵岩寺,,,,,,,,,,,,,,,,
2025-03-15T1200,2880A,104.0239,30.65639,成都市,大石西路,,21,19,38,8,23,67,,63,63,21,23,4,4,0.5,0.7
2025-03-15T1200,3136A,104.2725,30.5589,成都市,龙泉驿区区政府,,24,24,25,12,18,54,,52,51,21,20,4,4,0.5,0.6
2025-03-15T1200,3357A,104.0106,30.6931,成都市,金博路,,20,6,27,3,14,61,,54,54,18,17,6,6,0.6,0.7
2025-03-15T1200,3359A,104.0578,30.5225,成都市,华阳,,21,14,30,12,24,65,,60,60,20,23,6,6,0.6,0.8
2025-03-15T1200,3488A,104.3853,30.7453,成都市,青白江技师分院,,19,18,37,6,24,60,,46,46,23,27,5,5,0.4,0.5
2025-03-15T1200,3489A,104.0789,30.4072,成都市,科学城,,22,16,34,10,25,70,,58,58,19,21,4,4,0.5,0.7
2025-03-15T1200,4011A,103.8506,30.6947,成都市,光华大道三段,,29,29,33,6,18,66,,73,67,28,21,4,4,0.6,0.6
2025-03-15T1200,4224A,104.2433,30.5353,成都市,鲸龙路1057号,细颗粒物(PM2.5),95,,35,71,47,59,,51,51,27,26,3,4,0.6,0.7
2025-03-15T1200,1062A,117.9531,40.9081,承德市,铁路,,24,23,52,12,37,74,,76,76,12,13,4,5,0.3,0.4
2025-03-15T1200,1063A,117.9392,40.9763,承德市,中国银行,,32,,54,22,40,78,,71,71,5,10,2,2,0.2,0.4
2025-03-15T1200,1064A,117.9503,40.928,承德市,开发区,,32,32,57,21,39,78,,80,80,12,15,3,3,0.3,0.4
2025-03-15T1200,1065A,117.8051,40.9655,承德市,文化中心,,34,34,68,3,40,81,,75,75,7,12,3,3,0.2,0.4
2025-03-15T1200,1066A,117.9268,41.0026,承德市,离宫,,25,24,55,16,49,80,,66,66,5,11,4,4,0.3,0.4
2025-03-15T1200,2314A,117.47,30.6618,池州市,池州学院,,20,7,23,3,15,64,,74,73,13,22,3,4,0.4,0.5
2025-03-15T1200,3237A,117.4918,30.6617,池州市,展览馆,,21,6,23,3,18,65,,74,73,12,21,4,5,0.3,0.5
2025-03-15T1200,3333A,117.5627,30.695,池州市,第八中学,,19,9,24,6,16,60,,74,71,17,22,4,4,0.4,0.5
2025-03-15T1200,3334A,117.5038,30.6243,池州市,第十二中学,,22,6,23,3,16,69,,74,74,11,21,5,6,0.5,0.6
2025-03-15T1200,1744A,118.9233,42.2816,赤峰市,松山一中,,28,27,34,9,13,88,,80,80,16,20,8,10,0.7,0.7
2025-03-15T1200,1745A,118.9576,42.2728,赤峰市,哈达街,颗粒物(PM10),51,52,34,7,16,84,,78,76,20,18,10,12,0.6,0.6
2025-03-15T1200,1746A,118.8788,42.2554,赤峰市,天义路,,30,30,28,11,19,77,,73,73,16,17,8,10,0.4,0.5
2025-03-15T1200,3058A,119.2658,42.0353,赤峰市,银河街,,29,29,39,15,26,74,,72,72,14,17,14,16,0.4,0.5
2025-03-15T1200,3286A,118.9359,42.3147,赤峰市,桥北物流园区,,,31,26,16,21,,,70,70,15,17,8,8,0.5,0.5
2025-03-15T1200,2521A,107.3476,22.4136,崇左市,市环保局江州分局,,9,,31,3,21,28,,23,21,4,10,4,5,0.7,0.6
2025-03-15T1200,4256A,107.3750,22.3736,崇左市,石景林东路7号,,12,,26,8,21,31,,26,22,8,12,3,3,0.7,0.5
2025-03-15T1200,2298A,118.3093,32.3153,滁州市,老年大学,,40,39,31,28,20,98,,92,91,16,18,6,6,0.4,0.4
2025-03-15T1200,2299A,118.3244,32.2786,滁州市,人大宾馆,,34,34,31,23,17,91,,86,85,17,21,7,7,0.4,0.4
2025-03-15T1200,3207A,118.3118,32.3038,滁州市,市政府原办公楼,,33,33,28,23,19,94,,89,86,12,14,4,4,0.2,0.2
2025-03-15T1200,3331A,118.3267,32.2634,滁州市,图书馆,,31,31,32,17,13,92,,85,84,15,17,5,5,0.3,0.3
2025-03-15T1200,2605A,101.5482,25.0441,楚雄彝族自治州,州环境监测站,细颗粒物(PM2.5),63,61,47,45,32,158,,62,62,7,23,9,8,0.6,0.6
2025-03-15T1200,2606A,101.538,25.0492,楚雄彝族自治州,市经济开发区,细颗粒物(PM2.5),65,59,52,47,32,156,,62,62,7,23,9,8,0.7,0.6
2025-03-15T1200,2548A,107.5277,31.2827,达州市,达州职业技术学院,,31,31,30,10,13,56,,19,19,15,22,6,7,0.2,0.2
2025-03-15T1200,2549A,107.5086,31.2186,达州市,市环境监测站,,20,20,30,7,12,47,,18,18,29,35,7,6,0.6,0.6
2025-03-15T1200,2550A,107.4988,31.2132,达州市,凤凰小区,,24,24,29,12,15,52,,26,26,24,32,10,8,0.8,0.6
2025-03-15T1200,2551A,107.5082,31.1986,达州市,达县机关宾馆,,,27,32,,19,,,13,10,23,34,8,6,0.8,0.7
2025-03-15T1200,2552A,107.4644,31.2124,达州市,市政中心,,39,39,40,9,14,44,,24,22,34,35,9,5,0.7,0.7
2025-03-15T1200,2614A,100.1542,25.7054,大理白族自治州,大理市环境监测站,细颗粒物(PM2.5),55,50,37,39,32,118,,79,79,9,10,8,7,0.7,0.6
2025-03-15T1200,2615A,100.2171,25.5811,大理白族自治州,大理古城,,39,38,27,27,25,87,,83,80,12,9,7,6,0.6,0.6
2025-03-15T1200,1109A,121.612,38.9741,大连市,甘井子,颗粒物(PM10),76,102,69,47,44,63,,46,46,29,44,9,10,0.8,0.9
2025-03-15T1200,1110A,121.565,38.9511,大连市,周水子,细颗粒物(PM2.5),69,85,70,50,50,82,,54,54,23,36,14,15,0.7,0.7
2025-03-15T1200,1111A,121.5637,38.8845,大连市,星海三站,细颗粒物(PM2.5),68,76,62,49,46,86,,57,57,14,19,15,14,0.9,0.9
2025-03-15T1200,1112A,121.6302,38.9117,大连市,青泥洼桥,颗粒物(PM10),78,106,76,48,46,79,,52,52,26,35,16,15,0.6,0.6
2025-03-15T1200,1113A,121.6251,38.8638,大连市,傅家庄,颗粒物(PM10),67,83,61,44,37,77,,49,49,26,33,14,13,0.8,0.8
2025-03-15T1200,1114A,121.5213,38.8661,大连市,七贤岭,细颗粒物(PM2.5),59,63,71,42,42,86,,61,61,15,20,11,11,0.8,0.9
2025-03-15T1200,1115A,121.2529,38.8061,大连市,旅顺,细颗粒物(PM2.5),52,52,62,36,44,81,,66,66,17,24,7,9,0.6,0.7
2025-03-15T1200,1116A,121.7485,39.1311,大连市,金州,,,,88,48,51,89,,60,60,20,32,,17,0.9,0.9
2025-03-15T1200,1117A,121.7811,39.0496,大连市,开发区,,,62,51,44,35,82,,67,67,,28,17,14,0.8,0.8
2025-03-15T1200,1118A,121.9762,39.0631,大连市,双D港,颗粒物(PM10),58,65,58,35,37,102,,80,80,15,20,15,14,0.9,0.9
2025-03-15T1200,1789A,124.81117,46.03138,大庆市,大同区,,26,19,29,14,25,82,,70,70,2,11,3,4,0.4,0.5
2025-03-15T1200,1790A,125.129,46.533,大庆市,龙凤区,,25,24,31,3,15,77,,71,71,6,15,4,6,0.3,0.4
2025-03-15T1200,1791A,124.902,46.408,大庆市,红岗区,,27,,21,18,18,86,,76,76,2,9,5,4,0.3,0.3
2025-03-15T1200,1792A,125.153,46.586,大庆市,萨尔图区,,24,21,28,8,12,74,,70,67,11,19,5,6,0.3,0.3
2025-03-15T1200,1793A,124.9042,46.6215,大庆市,让胡路区,,25,13,20,10,17,79,,74,73,4,10,6,7,0.4,0.5
2025-03-15T1200,3481A,125.141,46.634,大庆市,萨区政府监测点,,,16,22,,14,84,,76,76,4,12,4,5,0.4,0.5
2025-03-15T1200,1721A,113.3819,40.1097,大同市,果树场,,29,25,51,20,39,90,,77,77,7,16,10,10,0.3,0.5
2025-03-15T1200,1723A,113.2994,40.0758,大同市,云冈宾馆,,30,13,58,7,31,93,,81,81,10,19,9,8,0.5,0.7
2025-03-15T1200,1724A,113.3444,40.0917,大同市,大同大学,,27,19,53,13,31,86,,76,76,6,18,13,11,0.4,0.6
2025-03-15T1200,1725A,113.2661,40.1269,大同市,安家小村,,36,36,64,9,30,91,,80,80,5,16,9,8,0.5,0.7
2025-03-15T1200,1726A,113.2711,40.0844,大同市,教育学院,,30,15,58,10,33,93,,80,80,10,20,8,7,0.4,0.6
2025-03-15T1200,3282A,113.3397,40.0597,大同市,大同市卫生学校,,,,55,17,30,90,,78,78,7,18,9,7,,0.7
2025-03-15T1200,3565A,113.1367,40.1122,大同市,云冈站,,28,15,72,8,42,89,,77,77,8,18,10,10,0.3,0.5
2025-03-15T1200,3566A,113.1186,40.2556,大同市,图书馆,,28,21,61,9,36,87,,77,77,4,16,8,9,0.3,0.6
2025-03-15T1200,3567A,113.5931,40.0461,大同市,区一中,,28,28,66,18,31,88,,76,76,7,19,16,12,0.3,0.6
2025-03-15T1200,4199A,113.2798,40.0997,大同市,魏都大道141号,,29,25,61,12,30,91,,80,80,8,16,13,12,0.5,0.7
2025-03-15T1200,2269A,124.1069,50.4097,大兴安岭地区,科技局,,26,16,16,12,14,81,,73,73,2,3,5,5,0.4,0.4
2025-03-15T1200,3663A,124.1164,50.4278,大兴安岭地区,红旗社区,,26,9,11,3,7,83,,67,67,3,12,4,5,0.3,0.4
2025-03-15T1200,1600A,124.3303,40.0625,丹东市,江湾东路,,34,30,36,20,17,108,,98,98,7,8,8,8,0.4,0.4
2025-03-15T1200,1601A,124.4256,40.1503,丹东市,临江后街,,31,26,29,17,17,99,,91,91,6,8,8,7,0.5,0.5
2025-03-15T1200,1602A,124.3933,40.1461,丹东市,元宝山,,30,25,25,19,14,95,,88,88,7,6,6,6,0.7,0.7
2025-03-15T1200,1603A,124.3633,40.1092,丹东市,民主桥,,,32,35,18,15,99,,87,87,12,10,9,8,,0.8
2025-03-15T1200,3541A,109.5726,19.5167,儋州市,第一中学子站,,38,38,30,22,17,59,,36,36,6,7,4,5,0.6,0.6
2025-03-15T1200,3542A,109.5567,19.5187,儋州市,东坡学校子站,,38,38,22,23,16,62,,34,34,6,8,5,6,0.5,0.6
2025-03-15T1200,2616A,98.5842,24.428,德宏傣族景颇族自治州,德宏州监测站,细颗粒物(PM2.5),93,110,98,69,64,76,,35,31,32,30,14,12,0.8,0.7
2025-03-15T1200,3677A,98.5881,24.4368,德宏傣族景颇族自治州,芒市人民政府综合楼,,,113,101,70,58,94,,61,47,32,22,14,11,,0.7
2025-03-15T1200,1901A,104.4239,31.1208,德阳市,东山公园,,21,19,30,13,24,67,,69,69,9,16,2,2,0.5,0.6
2025-03-15T1200,1902A,104.3826,31.1317,德阳市,西小区,,28,28,39,18,27,65,,67,67,17,20,3,4,0.5,0.6
2025-03-15T1200,1904A,104.3553,31.1091,德阳市,耐火材料厂,,28,28,40,18,28,67,,64,64,14,22,5,5,0.3,0.4
2025-03-15T1200,3639A,104.4019,31.1244,德阳市,市教育局,,24,24,33,10,25,63,,67,66,17,21,3,4,0.5,0.6
2025-03-15T1200,1622A,116.3032,37.4674,德州市,儿童乐园,颗粒物(PM10),54,58,83,24,39,78,,53,53,19,31,7,7,0.7,0.8
2025-03-15T1200,1624A,116.2991,37.4451,德州市,监理站,颗粒物(PM10),51,51,76,27,40,79,,59,58,14,25,12,11,0.6,0.7
2025-03-15T1200,3066A,116.2721,37.4379,德州市,九衢泉纯净水厂,颗粒物(PM10),54,58,78,34,37,76,,58,56,18,26,11,10,0.5,0.6
2025-03-15T1200,3371A,116.3728,37.4403,德州市,开发区人民医院,颗粒物(PM10),51,51,78,19,33,84,,61,61,12,24,12,12,0.7,0.7
2025-03-15T1200,3372A,116.3572,37.4094,德州市,太阳城中学,颗粒物(PM10),53,56,78,27,38,78,,63,61,11,19,7,7,0.5,0.5
2025-03-15T1200,3511A,116.5652,37.3319,德州市,陵城艺术中心,颗粒物(PM10),53,56,75,31,38,75,,62,62,17,24,10,10,0.6,0.6
2025-03-15T1200,2621A,99.7056,27.8317,迪庆藏族自治州,迪庆州站,,34,24,21,15,13,106,,91,91,9,10,8,8,0.4,0.5
2025-03-15T1200,3180A,99.7136,27.8094,迪庆藏族自治州,质量技术监督局,,34,17,28,6,11,108,,100,100,12,10,8,8,0.6,0.7
2025-03-15T1200,4257A,104.6092,35.5962,定西市,将台街,,36,36,87,15,33,97,,89,89,5,7,7,6,0.3,0.3
2025-03-15T1200,4309A,104.6159,35.5701,定西市,正龙路62号,,36,36,84,14,35,99,,89,89,2,6,6,7,0.3,0.4
2025-03-15T1200,1389A,113.7547,23.0494,东莞市,莞城梨川,,25,22,28,17,18,55,,34,34,27,25,6,5,0.7,0.6
2025-03-15T1200,1390A,113.7944,23.0128,东莞市,东城石井,,42,42,27,23,14,46,,34,34,31,24,6,5,0.7,0.6
2025-03-15T1200,1391A,113.7383,22.9658,东莞市,南城西平,,49,49,27,28,13,38,,23,23,36,34,5,5,0.8,0.6
2025-03-15T1200,3319A,113.7338,23.0381,东莞市,万江金泰,,26,26,28,16,15,59,,36,36,29,23,7,5,0.9,0.8
2025-03-15T1200,3626A,113.7533,23.0202,东莞市,南城元岭,,34,34,29,18,14,48,,28,28,27,24,5,4,0.9,0.7
2025-03-15T1200,3627A,113.7875,23.0457,东莞市,东城主山,,30,30,28,14,13,54,,36,36,30,28,6,6,0.8,0.6
2025-03-15T1200,1666A,118.6614,37.4309,东营市,市环保局,,36,36,48,12,22,90,,73,73,13,18,3,4,0.5,0.5
2025-03-15T1200,3036A,118.6904,37.4338,东营市,开发区管委会,,41,41,52,19,29,87,,71,71,17,25,2,3,0.6,0.6
2025-03-15T1200,3365A,118.5719,37.565,东营市,垦利区民丰路,,,,54,,27,,,71,71,13,16,,2,0.6,0.7
2025-03-15T1200,3498A,118.5055,37.8612,东营市,河口城区,,36,36,62,12,22,93,,83,83,13,20,3,4,0.5,0.6
2025-03-15T1200,3646A,118.4978,37.4623,东营市,胜利站,颗粒物(PM10),53,55,69,12,28,90,,74,74,17,23,7,8,0.6,0.6
2025-03-15T1200,3734A,118.35,37.26,东营市,理想之城,,34,34,56,14,28,92,,75,75,14,19,5,6,0.3,0.4
2025-03-15T1200,1591A,110.0023,39.8129,鄂尔多斯市,综合楼,,46,46,95,3,15,76,,66,66,14,23,8,8,0.3,0.2
2025-03-15T1200,1592A,109.9486,39.8261,鄂尔多斯市,巴音孟克林场办事处,颗粒物(PM10),52,53,92,9,17,82,,56,56,10,25,8,10,0.4,0.4
2025-03-15T1200,1593A,109.7736,39.5986,鄂尔多斯市,康泽苑,,27,27,58,7,13,84,,68,68,6,10,4,4,0.4,0.4
2025-03-15T1200,1594A,109.8119,39.5989,鄂尔多斯市,华泰汽车城,,26,22,60,12,15,81,,68,68,8,11,5,5,0.4,0.4
2025-03-15T1200,1595A,109.9734,39.7884,鄂尔多斯市,奥林花园,,,53,90,9,14,83,,66,66,10,22,,9,0.5,0.4
2025-03-15T1200,2436A,114.8938,30.3994,鄂州市,市政府,,,37,27,24,21,71,,60,60,,18,,3,0.5,0.4
2025-03-15T1200,2437A,114.8989,30.3714,鄂州市,赵家坝,,35,28,28,24,20,70,,61,61,9,11,3,2,0.5,0.7
2025-03-15T1200,3654A,114.8094,30.4089,鄂州市,精准医疗中心,,32,29,24,22,18,68,,63,63,2,6,4,4,0.6,0.8
2025-03-15T1200,2454A,109.4978,30.2981,恩施土家族苗族自治州,湖北民院,,21,18,25,10,15,67,,50,50,10,20,3,3,0.0,0.2
2025-03-15T1200,2455A,109.4707,30.2798,恩施土家族苗族自治州,州电力总公司,,20,20,21,9,16,59,,42,39,13,20,5,4,0,0.2
2025-03-15T1200,3549A,109.5061,30.3772,恩施土家族苗族自治州,龙凤新区,,21,15,18,11,12,67,,40,40,8,12,6,6,0.4,0.5
2025-03-15T1200,2499A,108.3411,21.6158,防城港市,沙万,,17,17,46,6,20,26,,15,7,12,29,7,9,0.7,0.7
2025-03-15T1200,2500A,108.3514,21.7731,防城港市,防城档案局,,10,,34,7,20,31,,9,9,9,22,6,6,0.4,0.3
2025-03-15T1200,2501A,108.3506,21.6414,防城港市,大海花园,,10,,52,7,16,29,,14,6,8,30,5,6,0.9,0.9
2025-03-15T1200,1371A,113.1294,23.0067,佛山市,湾梁,,31,31,29,9,13,18,,34,24,32,20,7,7,0.8,0.6
2025-03-15T1200,1372A,113.1083,23.0478,佛山市,华材职中,,31,31,26,9,14,20,,45,31,34,21,6,6,0.8,0.5
2025-03-15T1200,1373A,113.144,23.0453,佛山市,南海气象局,,22,,26,15,23,16,,32,23,31,24,5,6,0.7,0.5
2025-03-15T1200,1374A,113.2881,22.8094,佛山市,顺德苏岗,,46,46,37,22,12,17,,32,24,39,19,6,5,0.7,0.6
2025-03-15T1200,1376A,112.8383,22.8678,佛山市,高明孔堂,,29,29,28,14,18,31,,34,31,23,11,5,4,0.8,0.5
2025-03-15T1200,1377A,112.8836,23.1588,佛山市,三水监测站,,19,19,29,10,17,23,,26,26,25,31,4,3,0.9,0.6
2025-03-15T1200,1378A,112.867,23.185,佛山市,三水云东海,,23,23,37,8,21,28,,28,28,24,29,3,3,0.9,0.6
2025-03-15T1200,3625A,113.2544,22.7642,佛山市,容桂街道办,,46,46,24,29,19,29,,42,36,45,24,7,6,0.8,0.7
2025-03-15T1200,1280A,119.3903,26.0543,福州市,鼓山,,,,6,,3,,,52,,,10,,3,,0.5
2025-03-15T1200,1282A,119.2681,26.0504,福州市,师大,,22,22,20,14,21,28,,36,28,31,19,3,3,0.5,0.4
2025-03-15T1200,1283A,119.2984,26.1028,福州市,五四北路,,24,24,18,16,20,29,,29,23,36,28,3,3,0.8,0.6
2025-03-15T1200,1284A,119.2648,26.0768,福州市,杨桥西路,,26,26,19,13,18,34,,36,28,29,22,3,3,0.6,0.5
2025-03-15T1200,1285A,119.317,26.0746,福州市,紫阳,,21,21,20,13,21,28,,29,23,39,29,4,3,0.5,0.4
2025-03-15T1200,3048A,119.5799,26.0936,福州市,九龙,,15,11,19,9,17,45,,28,27,20,19,3,3,0.7,0.5
2025-03-15T1200,3526A,119.5189,25.9664,福州市,吴航,,19,16,25,13,18,45,,35,35,20,20,3,3,0.8,0.6
2025-03-15T1200,1755A,123.7977,41.8491,抚顺市,望花区,,,59,50,57,37,85,,76,71,18,16,7,3,,0.8
2025-03-15T1200,1756A,123.9161,41.8822,抚顺市,顺城区,颗粒物(PM10),64,77,56,40,31,85,,68,63,19,20,8,7,0.6,0.5
2025-03-15T1200,1757A,124.0436,41.8611,抚顺市,东洲区,细颗粒物(PM2.5),53,48,54,37,31,99,,78,78,9,12,6,7,0.6,0.6
2025-03-15T1200,1758A,123.9247,41.8642,抚顺市,新抚区,细颗粒物(PM2.5),62,71,53,44,34,86,,73,67,15,15,5,5,0.6,0.6
2025-03-15T1200,1759A,124.0972,41.8961,抚顺市,大伙房水库,细颗粒物(PM2.5),59,62,53,42,38,97,,85,85,11,14,9,8,0.6,0.6
2025-03-15T1200,1760A,123.7086,41.8391,抚顺市,沈抚新城,细颗粒物(PM2.5),59,62,46,42,31,90,,71,71,12,16,4,4,0.4,0.4
2025-03-15T1200,2376A,116.2127,28.0814,抚州市,桐源党溪,,23,22,32,16,16,48,,38,38,3,3,2,2,0.4,0.5
2025-03-15T1200,2377A,116.3544,27.9831,抚州市,市站,,20,20,21,12,11,48,,40,40,4,6,4,6,1.0,1.1
2025-03-15T1200,2378A,116.3565,27.963,抚州市,血防站,,25,25,25,14,12,47,,37,37,10,14,1,2,0.3,0.5
2025-03-15T1200,2379A,116.3564,28.0007,抚州市,采茶剧团,,23,23,20,10,12,42,,33,33,8,11,5,4,0.6,0.9
2025-03-15T1200,2380A,116.385,27.9647,抚州市,医学分院,,20,20,22,9,10,40,,32,32,2,6,4,3,0.5,0.8
2025-03-15T1200,2207A,121.6094,41.998,阜新市,工业园区,,40,40,43,12,23,88,,80,80,7,16,6,13,0.3,0.7
2025-03-15T1200,2208A,121.6697,42.0279,阜新市,长青街,,,,39,15,23,86,,79,79,8,15,5,20,,0.7
2025-03-15T1200,2209A,121.6673,42.0705,阜新市,农业园区,,37,37,38,9,15,92,,84,84,11,16,8,8,0.4,1.1
2025-03-15T1200,2210A,121.6717,42.0224,阜新市,东苑,,45,45,42,11,21,89,,81,81,4,16,6,25,0.6,1
2025-03-15T1200,2211A,121.6506,42.0498,阜新市,玉龙新城,,33,33,41,10,19,87,,78,78,4,20,4,6,0.4,1
2025-03-15T1200,2301A,115.8277,32.8929,阜阳市,市监测站,颗粒物(PM10),60,70,41,40,27,64,,62,59,24,18,8,6,0.5,0.4
2025-03-15T1200,2303A,115.8554,32.8605,阜阳市,开发区,颗粒物(PM10),67,83,49,30,24,68,,64,60,24,19,8,6,0.5,0.4
2025-03-15T1200,2875A,115.784,32.8892,阜阳市,阜阳职业技术学院,颗粒物(PM10),59,68,45,38,22,69,,63,62,18,15,8,7,0.5,0.4
2025-03-15T1200,3468A,115.7901,32.8613,阜阳市,市规划展馆,颗粒物(PM10),61,72,41,27,22,77,,70,68,21,17,9,7,0.4,0.3
2025-03-15T1200,3469A,115.836,32.9183,阜阳市,枣园社区,颗粒物(PM10),65,79,49,31,23,62,,67,63,23,16,9,6,0.4,0.3
2025-03-15T1200,2669A,102.9099,34.9841,甘南藏族自治州,州政府,,45,45,41,24,22,81,,76,76,4,7,4,5,0.3,0.3
2025-03-15T1200,3380A,102.8914,34.9617,甘南藏族自治州,甘肃民族师范学院,,45,45,39,28,21,80,,75,75,6,4,23,10,0.3,0.3
2025-03-15T1200,2570A,101.9603,30.0475,甘孜藏族自治州,水桥子,,23,,5,9,5,72,,67,67,15,10,3,3,0.4,0.4
2025-03-15T1200,3065A,101.9533,29.9972,甘孜藏族自治州,州环保局,,26,8,8,3,6,83,,72,72,8,9,4,4,0.3,0.3
2025-03-15T1200,3414A,115.8347,28.932,赣江新区,桑海产业园,,19,,30,10,23,59,,44,44,14,22,7,8,0.0,0.4
2025-03-15T1200,2362A,114.9017,25.9149,赣州市,通天岩,,18,18,19,3,5,51,,38,38,5,11,10,10,0.6,0.9
2025-03-15T1200,2363A,114.9367,25.8664,赣州市,地委,,16,16,18,6,7,40,,31,31,6,10,2,3,0.8,1.1
2025-03-15T1200,2364A,114.9461,25.8481,赣州市,气象台,,17,17,23,3,7,43,,34,34,15,17,7,6,0.4,0.6
2025-03-15T1200,2365A,114.9322,25.8333,赣州市,市图书馆,,15,15,15,6,10,40,,30,30,14,14,4,4,0.7,1
2025-03-15T1200,2366A,114.8905,25.8471,赣州市,华坚鞋城,,14,14,17,8,8,39,,31,31,14,15,6,6,0.3,0.4
2025-03-15T1200,3109A,115.0093,25.8613,赣州市,赣县区卫计委,,13,,13,3,9,40,,32,31,9,12,3,3,0.1,0.3
2025-03-15T1200,2683A,106.2319,36.1417,固原市,马园,,34,34,63,3,15,81,,74,73,6,11,4,4,0.6,0.7
2025-03-15T1200,2684A,106.2792,36.0022,固原市,监测站,,31,31,60,7,14,90,,81,81,5,7,6,6,0.4,0.4
2025-03-15T1200,2685A,106.2375,36.0211,固原市,新区,,30,29,54,8,14,93,,81,81,2,5,6,6,0.3,0.4
2025-03-15T1200,3522A,106.2177,35.9959,固原市,原州区十五小,,29,24,51,7,17,91,,79,79,4,9,7,7,0.2,0.3
2025-03-15T1200,2543A,106.6308,30.5278,广安市,小平旧居,,,,,,,,,,,,,,,,
2025-03-15T1200,2544A,106.6303,30.4576,广安市,市委,,21,21,37,14,26,53,,54,53,15,17,3,4,0.4,0.4
2025-03-15T1200,2545A,106.6271,30.4663,广安市,友谊中学,,26,19,37,18,26,55,,52,52,15,20,2,2,0.5,0.6
2025-03-15T1200,2547A,106.6388,30.4551,广安市,广电花园,,20,20,33,12,25,39,,48,46,25,20,3,3,0.4,0.5
2025-03-15T1200,2902A,106.6351,30.4865,广安市,北辰小学,,33,,33,23,27,46,,48,48,17,17,3,4,0.7,0.7
2025-03-15T1200,2523A,105.8945,32.4535,广元市,黑石坡,颗粒物(PM10),72,93,30,28,13,73,,72,70,1,2,6,6,0.2,0.2
2025-03-15T1200,2524A,105.821,32.4444,广元市,老城,颗粒物(PM10),66,81,37,29,16,83,,81,79,3,5,3,1,0.3,0.3
2025-03-15T1200,2526A,105.8628,32.4287,广元市,监测站,颗粒物(PM10),62,74,29,23,20,85,,84,80,4,6,3,3,0.2,0.3
2025-03-15T1200,3617A,105.8047,32.4166,广元市,经开区,颗粒物(PM10),62,73,28,26,14,77,,75,73,7,8,2,2,0.3,0.3
2025-03-15T1200,1345A,113.2347,23.1423,广州市,广雅中学,,24,24,30,12,16,19,,34,29,29,23,4,3,0.7,0.4
2025-03-15T1200,1346A,113.2612,23.105,广州市,市五中,,18,18,22,8,11,16,,31,26,29,21,4,4,0.8,0.5
2025-03-15T1200,1348A,113.3478,23.0916,广州市,广东商学院,,13,13,25,8,16,27,,26,23,23,27,3,3,0.7,0.5
2025-03-15T1200,1349A,113.4332,23.1047,广州市,市八十六中,,17,17,26,7,12,20,,15,15,27,40,3,3,0.7,0.5
2025-03-15T1200,1350A,113.3505,22.9483,广州市,番禺中学,,22,19,24,9,14,22,,45,30,43,22,7,7,0.7,0.6
2025-03-15T1200,1351A,113.2146,23.3916,广州市,花都师范,,16,16,33,6,15,27,,27,27,16,21,5,4,0.9,0.6
2025-03-15T1200,1352A,113.2597,23.1331,广州市,市监测站,,17,17,25,8,13,16,,28,23,29,23,6,5,0.9,0.6
2025-03-15T1200,1353A,113.5618,23.312,广州市,九龙镇镇龙,,25,25,23,11,15,29,,29,29,20,30,5,5,0.7,0.5
2025-03-15T1200,1354A,113.2765,23.1544,广州市,麓湖,,17,17,23,10,14,18,,31,24,28,21,3,3,0.6,0.3
2025-03-15T1200,1355A,113.443,23.3035,广州市,帽峰山森林公园,,13,10,14,9,10,32,,40,34,15,17,4,4,1.0,0.7
2025-03-15T1200,2846A,113.3221,23.1322,广州市,体育西,,18,18,27,12,15,29,,31,30,19,17,4,3,0.8,0.5
2025-03-15T1200,3298A,113.5717,23.5491,广州市,从化街口,,13,11,21,6,13,41,,35,32,10,19,7,7,0.9,0.6
2025-03-15T1200,3299A,113.3472,23.3692,广州市,白云竹料,,13,11,27,7,14,40,,39,38,11,19,8,6,0.9,0.6
2025-03-15T1200,3300A,113.2981,23.237,广州市,白云嘉禾,,17,17,28,8,16,20,,32,29,31,30,5,4,0.7,0.4
2025-03-15T1200,3301A,113.4256,23.1716,广州市,黄埔科学城,,15,15,26,10,14,32,,35,31,16,25,7,6,0.6,0.3
2025-03-15T1200,3302A,113.3942,23.0483,广州市,番禺大学城,,24,24,29,6,12,32,,38,25,29,27,3,4,0.4,0.2
2025-03-15T1200,3303A,113.4922,22.8168,广州市,南沙黄阁,,31,31,24,17,16,34,,31,24,34,28,5,5,0.7,0.7
2025-03-15T1200,3304A,113.5342,22.7896,广州市,南沙街,,36,36,32,11,15,42,,24,23,27,30,5,4,0.5,0.5
2025-03-15T1200,3443A,113.2902,23.5544,广州市,花都梯面,,12,12,28,8,15,23,,30,25,15,20,6,4,1.1,0.7
2025-03-15T1200,3445A,113.7858,23.7478,广州市,从化良口,,11,7,18,3,12,35,,40,40,8,14,6,6,0.8,0.5
2025-03-15T1200,3446A,113.8051,23.2614,广州市,增城荔城,,20,7,38,3,21,62,,36,36,10,23,6,7,0.5,0.4
2025-03-15T1200,2505A,109.568,23.1478,贵港市,德智高中,,,,,,,,,,,,,,,,
2025-03-15T1200,2506A,109.6047,23.0666,贵港市,江南子站,,22,22,43,12,25,36,,29,29,15,27,4,6,0.7,0.7
2025-03-15T1200,2507A,109.6014,23.0948,贵港市,贵城子站,,17,17,46,9,26,37,,30,30,13,25,6,7,0.9,0.9
2025-03-15T1200,2508A,109.5669,23.1065,贵港市,荷城子站,,14,14,34,7,19,36,,32,32,11,24,8,9,0.8,0.7
2025-03-15T1200,3405A,109.5886,23.1172,贵港市,新世纪学校,,22,19,39,15,26,36,,30,30,12,30,2,4,0.5,0.6
2025-03-15T1200,1439A,106.6899,26.5998,贵阳市,马鞍山,,19,7,18,3,11,58,,49,49,8,11,4,4,0.4,0.5
2025-03-15T1200,1441A,106.6243,26.6266,贵阳市,鉴湖路,,19,19,27,7,12,55,,58,58,11,9,6,6,0.5,0.5
2025-03-15T1200,1442A,106.7487,26.6343,贵阳市,燕子冲,,19,9,22,9,19,59,,52,52,10,13,6,6,0.4,0.5
2025-03-15T1200,1443A,106.6555,26.4365,贵阳市,碧云窝,,29,29,34,9,14,53,,54,53,15,18,10,10,0.6,0.6
2025-03-15T1200,1445A,106.7109,26.6027,贵阳市,红边门,,20,14,28,14,21,52,,52,52,21,19,4,6,0.5,0.4
2025-03-15T1200,1446A,106.7164,26.5699,贵阳市,新华路,,18,17,28,7,19,56,,52,52,14,14,10,11,0.5,0.6
2025-03-15T1200,1447A,106.674,26.5424,贵阳市,太慈桥,,24,24,25,12,16,52,,56,55,18,17,9,7,0.4,0.5
2025-03-15T1200,1552A,106.805,26.3003,贵阳市,桐木岭,,24,24,30,12,21,65,,62,62,2,5,1,2,0.6,0.7
2025-03-15T1200,4230A,106.6882,26.5695,贵阳市,花果园大街66号,,18,14,20,12,20,48,,50,50,15,14,7,6,0.7,0.6
2025-03-15T1200,4231A,106.6873,26.5169,贵阳市,漓江路57号,,,27,27,7,18,52,,53,53,,18,10,10,,0.6
2025-03-15T1200,1862A,110.4144,25.3167,桂林市,电子科大尧山校区,,,,,,,,,,,,,,,,
2025-03-15T1200,1864A,110.3089,25.2708,桂林市,龙隐路小学,,21,10,11,6,9,65,,73,72,6,10,8,9,0.6,0.8
2025-03-15T1200,1865A,110.2869,25.2178,桂林市,八中,,19,13,12,6,10,60,,66,65,12,18,7,8,0.4,0.7
2025-03-15T1200,3531A,110.296,25.1253,桂林市,旅游学院,,18,6,6,3,6,57,,63,63,8,14,6,7,0.7,0.8
2025-03-15T1200,4222A,110.1835,25.2444,桂林市,环湖路276号,,25,17,12,17,10,55,,61,60,8,11,10,9,0.4,0.6
2025-03-15T1200,4301A,110.2803,25.2773,桂林市,信义路13号,,18,15,10,8,10,57,,66,64,10,14,11,10,0.5,0.7
2025-03-15T1200,2674A,100.2561,34.4714,果洛藏族自治州,玛沁县大武镇,,36,28,39,3,16,113,,97,97,2,2,7,8,0.3,0.3
2025-03-15T1200,1129A,126.5422,45.755,哈尔滨市,岭北,,31,9,28,9,21,97,,80,80,9,24,13,12,0.7,1
2025-03-15T1200,1130A,126.561,45.8167,哈尔滨市,松北商大,,26,22,26,12,16,83,,62,62,6,21,5,7,0.4,0.5
2025-03-15T1200,1131A,126.979,45.5419,哈尔滨市,阿城会宁,,27,24,46,14,31,86,,58,58,12,23,12,12,0.4,0.6
2025-03-15T1200,1132A,126.599,45.7222,哈尔滨市,南岗学府路,颗粒物(PM10),52,54,37,10,15,80,,65,65,12,26,15,14,0.6,0.7
2025-03-15T1200,1133A,126.689,45.7733,哈尔滨市,太平宏伟公园,,34,34,43,17,20,85,,65,65,13,29,8,9,0.3,0.4
2025-03-15T1200,1134A,126.635,45.7667,哈尔滨市,道外承德广场,,31,31,39,12,19,84,,66,66,7,21,7,9,0.4,0.6
2025-03-15T1200,1135A,126.685,45.7319,哈尔滨市,香坊红旗大街,,27,24,34,8,20,86,,65,65,9,27,11,12,0.5,0.7
2025-03-15T1200,1136A,126.6411,45.7258,哈尔滨市,动力和平路,,27,22,27,14,19,84,,64,64,9,26,11,14,0.5,0.6
2025-03-15T1200,1137A,126.593,45.7478,哈尔滨市,道里建国路,,29,29,28,12,18,77,,59,59,9,22,14,10,0.4,0.5
2025-03-15T1200,1138A,126.615,45.61,哈尔滨市,平房东轻厂,,26,26,36,18,24,83,,50,50,8,35,8,9,0.5,0.7
2025-03-15T1200,1139A,126.595,45.9855,哈尔滨市,呼兰师专,,24,14,27,9,19,76,,54,54,9,28,10,11,0.3,0.4
2025-03-15T1200,1140A,126.6206,45.6842,哈尔滨市,省农科院,,27,26,38,17,24,84,,52,52,9,32,8,10,0.4,0.6
2025-03-15T1200,2688A,93.5128,42.8172,哈密市,地区监测站,颗粒物(PM10),75,100,51,3,14,74,,58,58,5,16,3,6,0.2,0.3
2025-03-15T1200,2689A,93.4961,42.8328,哈密市,哈密师范学校,颗粒物(PM10),53,55,45,14,15,76,,49,49,7,25,5,5,0.3,0.5
2025-03-15T1200,2671A,100.9048,36.9639,海北藏族自治州,海晏县西海镇,颗粒物(PM10),51,51,71,31,27,87,,73,58,6,4,11,9,0.3,0.2
2025-03-15T1200,3867A,102.0738,36.5056,海东市,平安区公安北苑,颗粒物(PM10),51,52,78,26,29,87,,79,79,4,6,10,11,0.4,0.4
2025-03-15T1200,1409A,110.576,19.9507,海口市,东寨港,,30,30,16,11,9,41,,29,29,6,4,7,5,0.7,0.6
2025-03-15T1200,1410A,110.3232,20.0574,海口市,海南大学,,26,26,20,16,11,30,,25,23,12,10,2,2,0.3,0.3
2025-03-15T1200,1411A,110.283,20.0053,海口市,秀英海南医院,,29,25,26,20,12,20,,24,21,23,18,4,4,0.3,0.3
2025-03-15T1200,1412A,110.338,19.9969,海口市,海南师范大学,,26,26,18,18,11,34,,29,29,15,5,3,3,0.4,0.4
2025-03-15T1200,1413A,110.33,20.0356,海口市,龙华路环保局宿舍,,23,23,22,16,11,30,,28,26,12,9,4,4,0.3,0.3
2025-03-15T1200,3539A,110.5111,19.9736,海口市,桂林洋子站,,27,27,18,15,9,43,,31,31,8,7,3,3,0.2,0.2
2025-03-15T1200,2673A,100.6188,36.2866,海南藏族自治州,共和县恰卜恰镇,,49,49,63,27,19,107,,86,86,2,7,3,6,0.5,0.4
2025-03-15T1200,2676A,97.3731,37.3753,海西蒙古族藏族自治州,德令哈市,,,47,53,14,18,,,98,98,11,4,24,16,0.5,0.5
2025-03-15T1200,1048A,114.5302,36.6116,邯郸市,东污水处理厂,,40,40,73,14,39,65,,56,56,20,31,4,4,0.4,0.5
2025-03-15T1200,1049A,114.4918,36.5713,邯郸市,矿院,,41,41,90,22,36,61,,54,54,18,26,5,5,0.5,0.6
2025-03-15T1200,1050A,114.484,36.6133,邯郸市,丛台公园,,,,79,21,39,57,,54,53,,26,2,3,0.4,0.5
2025-03-15T1200,3458A,114.7895,36.5593,邯郸市,香泉濮院小区,,39,39,82,20,32,69,,49,49,14,25,4,4,0.5,0.4
2025-03-15T1200,3579A,114.50634,36.77178,邯郸市,永年区实验高中,颗粒物(PM10),53,55,96,18,34,62,,58,58,19,26,6,6,0.7,0.8
2025-03-15T1200,3580A,114.20016,36.44293,邯郸市,峰峰矿区临水派出所,,48,48,87,26,41,66,,62,62,9,14,9,8,1.0,0.8
2025-03-15T1200,2634A,106.9893,33.1842,汉中市,汉川机床厂子校,颗粒物(PM10),64,78,47,24,20,73,,70,70,5,7,7,7,0.9,0.9
2025-03-15T1200,2635A,107.0154,33.0706,汉中市,市监测站,颗粒物(PM10),67,83,48,30,20,69,,59,59,8,14,6,5,0.6,0.6
2025-03-15T1200,2636A,107.0089,33.1138,汉中市,鑫源开发区,颗粒物(PM10),72,93,49,39,25,68,,62,62,13,21,5,5,0.5,0.6
2025-03-15T1200,2637A,107.007,33.0323,汉中市,南郑大河坎水厂,颗粒物(PM10),71,92,46,30,19,72,,63,63,8,14,7,6,0.6,0.8
2025-03-15T1200,1223A,120.2072,30.2111,杭州市,滨江,,21,8,25,6,11,53,,65,59,41,34,5,5,0.3,0.4
2025-03-15T1200,1224A,120.0633,30.2747,杭州市,西溪,,21,9,25,3,15,66,,62,62,20,24,5,6,0.6,0.6
2025-03-15T1200,1226A,120.3417,30.3150,杭州市,下沙,,21,18,37,9,15,66,,65,64,22,32,4,4,0.3,0.3
2025-03-15T1200,1227A,120.1269,30.2456,杭州市,卧龙桥,,21,11,26,6,13,66,,68,66,23,28,5,5,0.3,0.3
2025-03-15T1200,1228A,120.1903,30.2692,杭州市,浙江农大,,20,8,25,6,12,61,,61,61,28,35,7,7,0.2,0.3
2025-03-15T1200,1230A,120.1197,30.3119,杭州市,和睦小学,,22,12,29,10,16,69,,66,66,23,27,6,6,0.5,0.6
2025-03-15T1200,1231A,120.3019,30.4183,杭州市,临平镇,,24,12,28,10,18,76,,74,73,18,23,4,5,0.4,0.4
2025-03-15T1200,1232A,120.2753,30.1839,杭州市,城厢镇,,21,10,28,7,16,65,,69,67,27,35,6,6,0.5,0.5
2025-03-15T1200,1233A,120.0883,30.1808,杭州市,云栖,,24,9,27,3,15,74,,68,68,22,28,8,8,0.5,0.6
2025-03-15T1200,3557A,119.9464,30.0494,杭州市,镇二中,,21,6,23,3,14,67,,60,60,23,32,6,5,0.3,0.4
2025-03-15T1200,3558A,119.7183,30.2367,杭州市,市府大楼,,20,10,23,3,12,62,,59,59,22,28,6,6,0.5,0.5
2025-03-15T1200,3656A,120.1556,30.2864,杭州市,消防大队,,23,15,32,9,18,73,,69,69,24,31,6,6,0.5,0.6
2025-03-15T1200,1270A,117.1959,31.7848,合肥市,明珠广场,,35,29,28,24,18,65,,91,72,19,17,4,3,0.5,0.5
2025-03-15T1200,1271A,117.3072,31.8764,合肥市,三里街,,35,34,29,24,17,64,,83,66,21,18,4,3,0.3,0.3
2025-03-15T1200,1272A,117.2588,31.8707,合肥市,琥珀山庄,,36,36,28,24,19,66,,85,68,20,20,2,2,0.5,0.5
2025-03-15T1200,1273A,117.1604,31.9052,合肥市,董铺水库,,34,34,30,17,12,66,,89,68,13,13,2,2,0.3,0.3
2025-03-15T1200,1274A,117.25,31.8571,合肥市,长江中路,,39,39,31,22,19,71,,89,72,18,18,6,6,0.4,0.4
2025-03-15T1200,1275A,117.266,31.9436,合肥市,庐阳区,,45,44,34,31,19,67,,85,66,19,20,4,4,0.3,0.3
2025-03-15T1200,1276A,117.3453,31.8616,合肥市,瑶海区,,39,39,32,20,15,69,,86,68,15,17,6,6,0.4,0.4
2025-03-15T1200,1277A,117.3027,31.7964,合肥市,包河区,,28,27,29,19,17,59,,80,60,27,29,4,4,0.5,0.5
2025-03-15T1200,1278A,117.2776,31.7385,合肥市,滨湖新区,,32,31,30,22,21,67,,86,71,18,19,6,7,0.3,0.4
2025-03-15T1200,1279A,117.1318,31.8403,合肥市,高新区,,44,44,35,25,19,59,,84,65,18,18,1,1,0.5,0.6
2025-03-15T1200,3464A,117.3803,31.9147,合肥市,高教基地,,32,32,28,16,16,73,,85,70,14,16,5,6,0.3,0.3
2025-03-15T1200,3614A,79.924,37.0877,和田地区,地区环保局,"颗粒物(PM10),细颗粒物(PM2.5)",500,2503,515,559,225,51,,65,58,2,2,1,2,0.3,0.5
2025-03-15T1200,3615A,79.9131,37.113,和田地区,市环保局,颗粒物(PM10),500,2355,974,438,203,63,,73,68,14,14,1,2,0.5,0.5
2025-03-15T1200,2516A,108.2011,24.715,河池市,东仁乐园,,20,20,20,3,15,58,,39,39,6,8,7,7,1.0,1
2025-03-15T1200,2517A,108.0497,24.6947,河池市,市环保站,,33,33,17,3,9,51,,34,34,7,8,9,9,0.7,0.8
2025-03-15T1200,2518A,108.0983,24.6989,河池市,市疾控中心,,19,9,15,3,8,60,,41,41,1,7,7,6,0.8,0.8
2025-03-15T1200,1696A,114.6778,23.7569,河源市,源西,,19,6,18,3,16,58,,52,50,8,10,4,4,0.9,0.7
2025-03-15T1200,1697A,114.6944,23.7586,河源市,东埔,细颗粒物(PM2.5),58,,15,41,19,57,,54,53,9,12,3,3,0.9,0.5
2025-03-15T1200,1698A,114.6892,23.7233,河源市,老城,,19,6,18,3,13,59,,54,51,7,9,4,4,0.9,0.6
2025-03-15T1200,1718A,115.4208,35.2464,菏泽市,气象局,颗粒物(PM10),72,94,89,46,37,77,,63,47,13,16,6,5,0.4,0.4
2025-03-15T1200,3374A,115.5564,35.0891,菏泽市,定陶老年大学,颗粒物(PM10),76,102,84,41,28,75,,75,50,21,20,6,6,0.6,0.5
2025-03-15T1200,4184A,115.4797,35.24401,菏泽市,永昌路1号,颗粒物(PM10),76,101,98,52,40,79,,69,50,17,19,9,9,0.4,0.4
2025-03-15T1200,4193A,115.4715,35.2800,菏泽市,长城路999号,颗粒物(PM10),73,96,96,42,33,67,,55,40,16,19,9,7,0.5,0.4
2025-03-15T1200,2514A,111.5264,24.4172,贺州市,环保小区,,12,10,20,3,12,37,,39,38,17,12,5,6,0.8,0.9
2025-03-15T1200,2515A,111.5608,24.4078,贺州市,政协大楼,,,,28,,13,,,36,35,16,15,6,6,0.8,0.9
2025-03-15T1200,3534A,111.4744,24.4553,贺州市,西湾,,13,8,15,3,8,41,,38,38,12,13,6,6,0.7,0.8
2025-03-15T1200,2385A,114.17,35.9019,鹤壁市,市监测站,颗粒物(PM10),65,80,105,28,45,67,,54,54,23,31,7,5,0.9,0.9
2025-03-15T1200,2386A,114.2956,35.7511,鹤壁市,市交警支队,颗粒物(PM10),56,62,92,21,39,69,,56,56,18,27,12,10,0.5,0.5
2025-03-15T1200,2387A,114.2878,35.7306,鹤壁市,迎宾馆,颗粒物(PM10),65,80,105,20,37,70,,56,56,15,19,10,7,0.7,0.6
2025-03-15T1200,3474A,114.2617,35.6822,鹤壁市,大新区,颗粒物(PM10),116,181,91,29,35,64,,55,55,22,26,18,9,0.9,0.7
2025-03-15T1200,3596A,114.1572,35.9603,鹤壁市,南山宾馆,颗粒物(PM10),62,73,102,35,55,69,,58,58,19,27,8,7,0.6,0.6
2025-03-15T1200,2244A,130.2537,47.3416,鹤岗市,哈啤分公司,,24,16,20,7,16,76,,74,74,1,3,11,12,0.5,0.5
2025-03-15T1200,2245A,130.2684,47.3086,鹤岗市,斯达机电,,28,12,23,10,17,88,,83,83,1,3,11,12,0.1,0.1
2025-03-15T1200,2246A,130.3114,47.3388,鹤岗市,东山纸板厂,,,31,23,8,14,80,,75,75,4,5,,10,0.4,0.4
2025-03-15T1200,2247A,130.1097,47.3382,鹤岗市,五号水库,,,,,,,,,,,,,,,,
2025-03-15T1200,2263A,127.4833,50.2524,黑河市,交通局,,27,,16,14,15,84,,80,80,6,7,6,6,0.2,0.3
2025-03-15T1200,2264A,127.5144,50.2341,黑河市,环保局,,27,11,16,6,16,86,,83,83,5,7,3,3,0.2,0.3
2025-03-15T1200,2265A,127.5291,50.2472,黑河市,大黑河岛,,,,,,,,,,,,,,,,
2025-03-15T1200,1074A,115.6838,37.7541,衡水市,电机北厂,,46,46,72,22,33,75,,54,54,13,22,6,7,0.3,0.4
2025-03-15T1200,1075A,115.6303,37.7316,衡水市,市监测站,,41,41,62,22,28,76,,56,56,18,26,11,8,0.3,0.4
2025-03-15T1200,3188A,115.6683,37.7217,衡水市,市城管局,,47,47,67,32,36,72,,58,58,21,27,8,8,0.3,0.4
2025-03-15T1200,3459A,115.5989,37.5491,衡水市,地表水厂,,48,48,63,20,32,78,,63,63,16,23,7,8,0.3,0.4
2025-03-15T1200,2456A,112.5003,26.9167,衡阳市,原169医院,,18,17,12,12,10,33,,29,29,12,13,7,8,0.4,0.6
2025-03-15T1200,2457A,112.6194,26.9258,衡阳市,衡阳化工总厂,,25,20,14,17,8,50,,44,44,14,13,4,4,0.5,0.7
2025-03-15T1200,2458A,112.6211,26.8956,衡阳市,珠晖区环保局,,24,24,14,15,10,51,,45,45,10,13,5,5,0.5,0.8
2025-03-15T1200,2459A,112.6197,26.8733,衡阳市,市委党校,,26,26,14,10,7,54,,48,48,13,15,6,6,0.6,0.8
2025-03-15T1200,2460A,112.6006,26.8919,衡阳市,市监测站,,32,29,15,22,14,53,,47,47,16,17,6,6,0.6,0.8
2025-03-15T1200,2461A,112.5664,26.9056,衡阳市,真空机电公司,,29,29,13,17,12,53,,48,48,6,7,5,5,0.4,0.6
2025-03-15T1200,3399A,112.6703,26.882,衡阳市,师范学院,,29,29,9,15,10,48,,46,46,16,15,6,7,0.5,0.7
2025-03-15T1200,2608A,103.3772,23.3993,红河哈尼族彝族自治州,污水处理厂,细颗粒物(PM2.5),62,58,75,44,57,117,,80,75,10,12,24,16,0.4,0.5
2025-03-15T1200,2609A,103.3861,23.35,红河哈尼族彝族自治州,监测站,颗粒物(PM10),67,84,81,45,48,122,,89,82,17,13,20,10,0.6,0.5
2025-03-15T1200,3038A,103.3758,23.368,红河哈尼族彝族自治州,州图书馆,细颗粒物(PM2.5),68,69,65,49,52,117,,79,71,14,12,24,9,0.4,0.4
2025-03-15T1200,1090A,111.6507,40.7517,呼和浩特市,呼市一监,,30,17,45,6,13,94,,87,87,3,7,8,9,0.5,0.5
2025-03-15T1200,1091A,111.6572,40.8033,呼和浩特市,小召,,30,19,55,6,14,93,,86,86,8,14,2,4,0.3,0.4
2025-03-15T1200,1094A,111.7516,40.8369,呼和浩特市,如意水处理厂,,26,18,44,3,11,83,,76,76,5,10,6,7,0.2,0.3
2025-03-15T1200,1095A,111.7276,40.8062,呼和浩特市,二十九中,,29,17,47,7,11,90,,83,83,2,6,2,3,0.5,0.5
2025-03-15T1200,1096A,111.5512,40.7866,呼和浩特市,工大金川校区,,27,25,53,8,15,84,,79,79,6,10,6,10,0.5,0.5
2025-03-15T1200,1097A,111.717,40.7612,呼和浩特市,化肥厂生活区,,29,22,46,7,14,90,,83,83,6,12,6,7,0.3,0.4
2025-03-15T1200,3698A,111.5968,40.8178,呼和浩特市,红旗小学,,30,19,53,7,13,94,,88,88,5,11,2,4,0.4,0.4
2025-03-15T1200,3699A,111.6518,40.8389,呼和浩特市,海东办,,29,14,43,6,13,90,,83,83,1,7,5,7,0.5,0.5
2025-03-15T1200,2192A,119.7594,49.2261,呼伦贝尔市,区环保局,,28,23,32,17,20,87,,66,64,8,17,7,6,0.3,0.4
2025-03-15T1200,3061A,119.7512,49.1577,呼伦贝尔市,国华电力东,,29,23,32,16,18,92,,79,79,6,8,6,4,0.4,0.4
2025-03-15T1200,1250A,120.0751,30.8669,湖州市,城西水厂,,25,15,32,7,13,78,,82,82,24,31,5,6,0.2,0.3
2025-03-15T1200,2873A,120.0830,30.8929,湖州市,仁皇山新区,,26,13,30,6,13,83,,83,83,15,27,3,3,0.4,0.5
2025-03-15T1200,2907A,120.1844,30.8596,湖州市,吴兴区站,,25,17,32,9,15,77,,76,76,14,25,4,5,0.3,0.4
2025-03-15T1200,3562A,120.4148,30.8538,湖州市,南浔区站,,25,14,32,7,14,79,,78,78,15,24,2,2,0.3,0.4
2025-03-15T1200,1607A,120.9049,40.7211,葫芦岛市,龙港区,颗粒物(PM10),59,68,55,14,27,80,,56,56,9,25,8,26,0.4,0.7
2025-03-15T1200,1608A,120.8392,40.7514,葫芦岛市,化工街,颗粒物(PM10),58,66,48,9,22,84,,72,72,8,19,9,12,0.3,0.4
2025-03-15T1200,1609A,120.8341,40.7073,葫芦岛市,新区,,44,44,39,13,22,92,,79,79,8,19,10,15,0.4,0.5
2025-03-15T1200,1610A,120.8695,40.7677,葫芦岛市,东城区,颗粒物(PM10),59,67,40,12,23,84,,70,70,10,25,7,15,0.4,0.6
2025-03-15T1200,2482A,109.5981,27.5721,怀化市,林科所,,22,13,8,9,5,68,,71,68,5,5,5,4,0.8,0.7
2025-03-15T1200,2483A,109.9453,27.5444,怀化市,河西地税局,,22,20,12,15,10,60,,62,59,8,10,7,6,0.4,0.5
2025-03-15T1200,2484A,109.9781,27.5342,怀化市,市四医院,,24,24,14,14,10,58,,64,59,8,10,3,3,0.1,0.4
2025-03-15T1200,2485A,109.9972,27.5578,怀化市,监测楼,,20,,12,11,9,64,,66,62,9,11,8,8,0.2,0.3
2025-03-15T1200,2486A,110.0394,27.583,怀化市,市委党校,,19,19,12,13,9,58,,59,56,7,9,2,2,0.3,0.5
2025-03-15T1200,1210A,119.036,33.5981,淮安市,钵池山,,34,34,46,19,22,70,,59,59,13,19,9,8,0.5,0.6
2025-03-15T1200,1211A,119.007,33.575,淮安市,北京南路,,39,39,46,19,21,69,,64,61,16,20,9,8,0.5,0.5
2025-03-15T1200,1212A,118.989,33.6067,淮安市,市监测站,,32,31,43,22,23,71,,63,60,19,23,8,7,0.5,0.5
2025-03-15T1200,1213A,119.135,33.5039,淮安市,楚州区监测站,,49,49,51,21,22,68,,65,62,20,23,7,7,0.7,0.5
2025-03-15T1200,3426A,118.8755,33.2894,淮安市,新华书店,,44,44,45,26,24,68,,60,59,14,22,9,8,0.5,0.6
2025-03-15T1200,4206A,119.0288,33.6319,淮安市,承德北路606号,,39,39,58,21,26,73,,60,59,17,25,8,6,0.5,0.5
2025-03-15T1200,2282A,116.8004,33.975,淮北市,监测站,颗粒物(PM10),74,98,58,44,22,73,,69,69,24,19,8,7,0.8,0.7
2025-03-15T1200,2283A,116.8091,33.9007,淮北市,烈山区政府,颗粒物(PM10),73,95,58,39,23,90,,76,76,26,21,8,6,0.7,0.7
2025-03-15T1200,3330A,116.8873,33.9836,淮北市,杜集区检察院,颗粒物(PM10),82,113,69,50,24,76,,60,56,27,23,9,7,0.7,0.6
2025-03-15T1200,4017A,116.7923,33.9535,淮北市,市博物馆,颗粒物(PM10),78,106,61,49,25,78,,70,70,24,20,11,9,0.8,0.7
2025-03-15T1200,2277A,116.8305,32.7727,淮南市,潘集区政府,,,,51,,32,52,,50,50,17,22,,5,0.5,0.4
2025-03-15T1200,2279A,116.8569,32.5951,淮南市,谢家集区政府,,44,44,50,26,28,68,,56,53,12,14,10,7,0.5,0.4
2025-03-15T1200,2280A,116.8281,32.633,淮南市,八公山区政府,,49,49,46,20,23,69,,52,50,15,15,3,2,0.4,0.3
2025-03-15T1200,2281A,116.6325,32.6201,淮南市,焦岗湖风景区管理处,,47,47,38,22,19,56,,39,39,9,11,13,14,0.1,0
2025-03-15T1200,2894A,117.0566,32.6531,淮南市,经济技术开发区消防队,,48,48,57,18,28,65,,52,48,10,18,6,5,0.3,0.2
2025-03-15T1200,3329A,117.0108,32.5893,淮南市,山南新区,颗粒物(PM10),51,52,43,21,21,72,,61,57,13,16,8,7,0.3,0.3
2025-03-15T1200,4209A,117.0031,32.6445,淮南市,国庆中路369号,颗粒物(PM10),54,57,54,28,29,62,,53,47,20,23,7,6,0.4,0.3
2025-03-15T1200,2446A,114.9028,30.4742,黄冈市,职工中心,,32,32,25,22,22,68,,62,62,16,18,3,3,0.3,0.4
2025-03-15T1200,2929A,114.8858,30.4519,黄冈市,红卫路,,35,34,27,24,24,72,,65,65,11,15,4,4,0.4,0.5
2025-03-15T1200,3398A,114.9136,30.4445,黄冈市,市林业局,,35,33,29,24,26,69,,61,61,12,13,6,6,0.7,0.6
2025-03-15T1200,2672A,102.0199,35.5102,黄南藏族自治州,同仁县隆务镇,,46,46,56,28,26,87,,80,80,3,4,11,12,0.2,0.3
2025-03-15T1200,2295A,118.2903,29.6963,黄山市,延安路89号,,18,16,13,9,8,57,,42,42,11,11,3,3,0.2,0.2
2025-03-15T1200,2297A,118.1371,30.2756,黄山市,黄山区政府5号楼,,22,15,20,8,11,70,,66,66,7,11,8,8,0.5,0.5
2025-03-15T1200,4210A,118.3354,29.7203,黄山市,滨江东路7-2号,,18,17,18,11,8,57,,42,42,8,10,4,4,0.4,0.5
2025-03-15T1200,2423A,115.0601,30.2313,黄石市,沈家营,,36,36,37,17,19,72,,56,56,12,19,6,6,0.5,0.7
2025-03-15T1200,2426A,114.8988,30.2019,黄石市,铁山,,36,28,30,25,25,69,,58,58,10,12,11,12,0.8,0.9
2025-03-15T1200,2427A,115.0307,30.2092,黄石市,团城山,,33,33,34,21,19,66,,52,52,18,23,6,8,0.6,0.7
2025-03-15T1200,3149A,115.0235,30.1578,黄石市,笔架山北路,,28,27,30,19,22,71,,55,55,9,15,7,6,0.5,0.7
2025-03-15T1200,4185A,115.0780,30.21118,黄石市,磁湖东路29号,,29,29,37,19,27,72,,57,57,12,17,6,6,0.7,0.8
2025-03-15T1200,1392A,114.4183,23.0528,惠州市,河南岸金山湖子站,,36,35,22,25,15,55,,43,40,25,17,9,8,0.6,0.6
2025-03-15T1200,1393A,114.4053,23.0822,惠州市,下埔横江三路子站,,37,37,26,25,18,48,,45,42,27,16,8,7,0.7,0.6
2025-03-15T1200,1394A,114.4103,23.1142,惠州市,江北云山西路子站,,29,29,27,19,18,53,,46,45,22,18,8,8,0.5,0.5
2025-03-15T1200,1395A,114.4645,22.7833,惠州市,惠阳区承修路船湖子站,,25,15,22,9,13,77,,58,56,23,15,8,7,0.6,0.6
2025-03-15T1200,1396A,114.5317,22.7422,惠州市,大亚湾管委会子站,,23,12,17,6,8,73,,66,64,15,16,6,6,0.6,0.6
2025-03-15T1200,3314A,114.4338,22.8134,惠州市,惠阳秋长,,27,27,18,14,12,80,,61,57,24,14,8,12,0.7,0.6
2025-03-15T1200,3452A,114.6517,22.775,惠州市,大亚湾霞涌,,21,18,17,14,10,66,,60,56,13,19,4,4,0.5,0.4
2025-03-15T1200,2240A,130.9762,45.3001,鸡西市,环保局,,30,20,21,13,11,93,,80,80,4,6,5,5,0.3,0.3
2025-03-15T1200,2243A,130.9429,45.3039,鸡西市,第一中学,,30,14,18,6,10,93,,81,81,2,4,5,6,0.3,0.3
2025-03-15T1200,3707A,131.0207,45.3073,鸡西市,欧美日汽修厂,,32,18,21,8,13,101,,76,76,5,8,7,6,0.3,0.3
2025-03-15T1200,3709A,130.9967,45.3106,鸡西市,市政设施管理处,,28,24,24,10,11,89,,66,66,4,11,5,5,0.2,0.2
2025-03-15T1200,2367A,114.9754,27.0803,吉安市,红声器材厂,,,23,18,8,8,42,,31,31,,25,8,9,3.1,0.9
2025-03-15T1200,2368A,114.9658,27.0999,吉安市,市森林工业局,,18,14,13,12,10,43,,34,34,19,26,11,12,0.4,0.5
2025-03-15T1200,2369A,114.99,27.1312,吉安市,市环境监测站,,18,18,16,7,10,40,,31,31,18,22,12,13,0.5,0.5
2025-03-15T1200,2370A,115.0093,27.0968,吉安市,青原区法院,,23,20,16,16,12,38,,33,33,24,26,10,12,0.6,0.7
2025-03-15T1200,1772A,126.54,43.8622,吉林市,哈达湾,,45,45,45,20,22,82,,46,46,11,18,7,9,0.5,0.5
2025-03-15T1200,1773A,126.5844,43.8358,吉林市,东局子,,33,33,26,22,19,84,,53,53,12,18,6,10,0.5,0.5
2025-03-15T1200,1774A,126.5052,43.8245,吉林市,电力学院,,30,30,42,21,26,90,,47,47,10,16,4,5,0.0,0.2
2025-03-15T1200,1775A,126.6133,43.8972,吉林市,江北,,35,35,35,14,20,85,,58,58,16,30,3,6,0.3,0.4
2025-03-15T1200,1776A,126.555,43.8306,吉林市,江南公园,,49,38,33,34,25,86,,49,49,10,18,7,8,0.4,0.5
2025-03-15T1200,1778A,126.7061,43.7133,吉林市,丰满,,30,27,24,19,16,95,,70,70,10,8,7,6,0.5,0.6
2025-03-15T1200,2868A,126.4739,43.953,吉林市,九站,,41,41,44,23,28,83,,39,39,11,32,10,13,0.6,0.6
2025-03-15T1200,1299A,116.9862,36.6114,济南市,科干所,颗粒物(PM10),82,114,81,56,31,50,,32,32,44,36,14,11,0.7,0.6
2025-03-15T1200,1300A,116.9376,36.665,济南市,农科所,颗粒物(PM10),86,122,95,56,30,55,,38,38,38,35,16,12,0.9,0.8
2025-03-15T1200,1301A,117.1265,36.6734,济南市,开发区,细颗粒物(PM2.5),83,110,87,61,37,59,,38,38,39,38,18,13,0.7,0.6
2025-03-15T1200,1303A,117.0624,36.6868,济南市,省种子仓库,"颗粒物(PM10),细颗粒物(PM2.5)",89,127,100,66,36,57,,39,38,36,32,17,11,0.8,0.7
2025-03-15T1200,1304A,116.9489,36.6447,济南市,机床二厂,细颗粒物(PM2.5),95,117,99,71,38,66,,44,44,42,43,18,12,0.9,0.8
2025-03-15T1200,1305A,117.0495,36.663,济南市,市监测站,颗粒物(PM10),85,120,97,59,37,51,,32,32,44,41,20,14,0.7,0.6
2025-03-15T1200,1306A,116.7675,36.5484,济南市,长清党校,颗粒物(PM10),84,117,96,59,33,65,,40,40,34,39,13,8,0.8,0.7
2025-03-15T1200,1616A,117.6795,36.229,济南市,技术学院,颗粒物(PM10),70,90,78,44,31,92,,56,49,30,30,17,10,0.8,0.7
2025-03-15T1200,1961A,117.532,36.6868,济南市,东山小学,颗粒物(PM10),75,100,92,46,33,75,,43,43,40,40,18,13,0.8,0.7
2025-03-15T1200,3059A,117.7161,36.2049,济南市,泰兴公司,颗粒物(PM10),70,90,82,48,36,101,,58,49,24,27,10,8,1.2,1.1
2025-03-15T1200,3064A,117.6867,36.2171,济南市,莱芜战役纪念馆,颗粒物(PM10),71,92,81,41,29,94,,63,52,29,27,10,6,0.7,0.7
2025-03-15T1200,3494A,117.1673,36.9782,济南市,济阳区政府,"颗粒物(PM10),细颗粒物(PM2.5)",68,85,80,49,36,61,,50,50,15,19,15,12,0.5,0.4
2025-03-15T1200,3495A,117.1171,36.63,济南市,锦屏中学,颗粒物(PM10),77,103,78,54,27,51,,33,33,44,36,16,14,0.6,0.5
2025-03-15T1200,3682A,116.9814,36.6819,济南市,济南四建,细颗粒物(PM2.5),83,105,86,61,36,56,,36,36,38,36,14,10,0.5,0.4
2025-03-15T1200,1653A,116.6251,35.4302,济宁市,火炬城,细颗粒物(PM2.5),79,81,81,58,37,65,,81,47,21,17,12,8,0.8,0.6
2025-03-15T1200,1655A,116.5491,35.4042,济宁市,电化厂,"颗粒物(PM10),细颗粒物(PM2.5)",83,115,105,61,40,63,,71,36,14,17,10,9,0.9,0.7
2025-03-15T1200,3500A,116.5814,35.3707,济宁市,北湖一中,细颗粒物(PM2.5),83,80,74,61,25,67,,75,45,22,21,10,8,0.6,0.5
2025-03-15T1200,3501A,116.8249,35.5593,济宁市,服务中心,颗粒物(PM10),87,123,97,56,29,66,,78,44,29,25,8,5,0.8,0.7
2025-03-15T1200,3678A,116.5907,35.4054,济宁市,市第七中学,,,80,88,56,30,,,86,51,25,24,,2,0.7,0.6
2025-03-15T1200,2255A,130.2751,46.8028,佳木斯市,佳纺,,27,23,19,13,10,84,,74,74,3,8,3,5,0.3,0.3
2025-03-15T1200,2256A,130.3995,46.8307,佳木斯市,发电厂,,29,,18,11,8,90,,84,84,3,5,1,2,0.2,0.3
2025-03-15T1200,2257A,130.3258,46.7975,佳木斯市,环保局,,28,15,18,11,10,88,,79,79,6,12,2,4,0.2,0.2
2025-03-15T1200,2258A,130.3648,46.8032,佳木斯市,十一中,,29,21,19,14,11,91,,80,80,6,13,3,6,0.4,0.4
2025-03-15T1200,2259A,130.3794,46.7588,佳木斯市,四丰,,26,17,13,8,7,81,,77,77,2,3,1,1,0.6,0.6
2025-03-15T1200,1252A,120.7436,30.778,嘉兴市,清河小学,,23,14,28,11,13,73,,71,68,15,22,3,3,0.5,0.5
2025-03-15T1200,1253A,120.726,30.7478,嘉兴市,嘉兴学院,,25,17,31,7,12,78,,75,74,18,24,6,6,0.4,0.5
2025-03-15T1200,2872A,120.7846,30.7525,嘉兴市,南湖区残联,,25,18,31,8,10,80,,81,78,14,19,7,7,0.4,0.4
2025-03-15T1200,3407A,120.6916,30.7739,嘉兴市,秀洲住建,,27,14,37,8,13,85,,80,80,13,21,4,4,0.7,0.6
2025-03-15T1200,1945A,98.2908,39.7711,嘉峪关市,气象局,颗粒物(PM10),52,53,38,14,11,84,,84,80,7,10,2,18,0.2,0.4
2025-03-15T1200,2884A,98.2672,39.7978,嘉峪关市,酒钢宾馆,颗粒物(PM10),57,63,43,12,12,83,,81,76,6,9,4,26,0.2,0.5
2025-03-15T1200,3248A,98.2643,39.7724,嘉峪关市,雄关区,,33,33,39,20,21,85,,79,78,10,14,4,14,0.3,0.4
2025-03-15T1200,1383A,113.1064,22.6058,江门市,北街,,42,42,27,23,20,56,,46,43,18,15,3,2,0.5,0.5
2025-03-15T1200,1384A,113.0731,22.5835,江门市,西区,,27,27,26,14,16,51,,50,47,21,18,5,5,0.5,0.4
2025-03-15T1200,1385A,113.0219,22.5311,江门市,圭峰西,,36,36,31,23,22,46,,48,45,19,16,4,5,0.5,0.4
2025-03-15T1200,1386A,113.0828,22.5947,江门市,东湖,,35,35,31,23,18,52,,51,48,19,13,8,7,0.4,0.3
2025-03-15T1200,3311A,113.1075,22.5647,江门市,江海富民,,,,45,,24,,,60,,,13,,6,,0.4
2025-03-15T1200,3449A,113.05,22.4667,江门市,新会银湖,,39,34,31,27,28,48,,37,37,21,21,3,2,0.5,0.4
2025-03-15T1200,1830A,113.1992,35.2590,焦作市,影视城,,,,123,,50,,,,,,15,,10,,0.7
2025-03-15T1200,3169A,113.2725,35.2067,焦作市,太极体育中心,细颗粒物(PM2.5),85,94,82,63,40,49,,36,29,28,26,14,10,0.6,0.5
2025-03-15T1200,3335A,113.3137,35.2641,焦作市,马村街道办,细颗粒物(PM2.5),87,83,79,64,39,48,,43,33,30,25,13,9,0.7,0.6
2025-03-15T1200,3336A,113.2465,35.2373,焦作市,焦作技师学院,细颗粒物(PM2.5),73,85,74,53,35,52,,49,37,32,25,11,6,0.8,0.6
2025-03-15T1200,3477A,113.1656,35.2539,焦作市,中站许衡医院,颗粒物(PM10),79,107,68,56,39,44,,55,37,38,25,21,8,0.9,0.6
2025-03-15T1200,3981A,113.2449,35.1803,焦作市,原李万街道办,颗粒物(PM10),82,113,82,48,30,51,,29,29,28,29,13,8,0.6,0.5
2025-03-15T1200,4264A,113.2340,35.2190,焦作市,新安路1731号,细颗粒物(PM2.5),80,102,82,59,39,53,,48,36,26,24,14,10,0.7,0.6
2025-03-15T1200,1708A,116.3701,23.5345,揭阳市,新兴,细颗粒物(PM2.5),54,56,44,38,34,90,,59,59,22,24,9,9,0.9,1
2025-03-15T1200,1709A,116.3264,23.5443,揭阳市,西马,细颗粒物(PM2.5),60,,44,43,38,100,,62,62,21,17,8,10,1.0,0.9
2025-03-15T1200,1710A,116.3611,23.5626,揭阳市,东兴,颗粒物(PM10),71,91,58,47,37,88,,59,59,22,21,4,7,1.1,1.1
2025-03-15T1200,1711A,116.4151,23.5294,揭阳市,渔湖,颗粒物(PM10),57,64,43,32,18,82,,62,57,19,18,7,8,0.9,1.1
2025-03-15T1200,3320A,116.403,23.5699,揭阳市,曲溪,颗粒物(PM10),60,70,46,30,23,75,,59,53,28,23,10,8,0.8,0.8
2025-03-15T1200,1944A,102.1692,38.5167,金昌市,天庆家园,,27,19,22,7,8,84,,91,87,3,3,4,5,0.7,0.7
2025-03-15T1200,4022A,102.1647,38.5371,金昌市,金川区人防中心,,26,21,43,8,9,82,,87,83,3,4,8,8,0.5,0.5
2025-03-15T1200,4239A,102.1930,38.5319,金昌市,长春路96号,,26,24,26,9,10,82,,88,84,7,5,5,5,0.5,0.7
2025-03-15T1200,1262A,119.647,29.077,金华市,十五中,,22,14,24,10,18,36,,32,32,44,45,5,5,0.5,0.5
2025-03-15T1200,1263A,119.686,29.1029,金华市,监测站,,21,14,26,13,19,38,,27,27,41,43,4,4,0.5,0.5
2025-03-15T1200,3659A,119.656,29.1131,金华市,气象局,,19,18,26,13,17,36,,26,26,38,41,4,4,0.5,0.5
2025-03-15T1200,1767A,121.1115,41.0879,锦州市,南山,颗粒物(PM10),57,63,42,19,27,86,,75,75,9,14,7,11,0.4,0.5
2025-03-15T1200,1768A,121.0604,40.8428,锦州市,开发区,颗粒物(PM10),54,58,42,17,22,89,,73,73,8,14,9,12,0.5,0.5
2025-03-15T1200,1769A,121.1836,41.1119,锦州市,百股街道,颗粒物(PM10),68,85,53,22,28,84,,68,68,9,17,8,11,0.6,0.7
2025-03-15T1200,1770A,121.1178,41.1222,锦州市,天安街道,颗粒物(PM10),67,83,44,11,26,90,,80,80,11,17,8,12,0.5,0.6
2025-03-15T1200,1771A,121.1303,41.1386,锦州市,北湖公园,颗粒物(PM10),59,68,46,17,28,84,,74,74,9,17,7,12,0.4,0.5
2025-03-15T1200,2160A,112.85,35.5051,晋城市,自来水公司,,42,42,58,24,26,62,,34,34,17,28,6,6,0.6,0.7
2025-03-15T1200,2161A,112.8318,35.4936,晋城市,白云商贸,颗粒物(PM10),53,55,63,22,20,70,,58,51,22,23,4,5,0.6,0.6
2025-03-15T1200,2162A,112.8508,35.4887,晋城市,市环保局,,40,40,66,19,22,65,,33,30,18,28,5,5,0.4,0.4
2025-03-15T1200,2163A,112.8676,35.4897,晋城市,技术学院,,,37,58,17,17,,,27,19,27,33,6,6,0.8,0.8
2025-03-15T1200,2165A,112.8453,35.546,晋城市,白马寺,,,,64,,46,,,86,,,15,,4,,0.4
2025-03-15T1200,3620A,112.8271,35.4828,晋城市,泽州一中,,,,,,,,,,,,,,,,
2025-03-15T1200,2173A,112.7249,37.7067,晋中市,南都小区,颗粒物(PM10),84,118,127,53,55,62,,38,38,22,28,6,12,0.8,0.7
2025-03-15T1200,2174A,112.6991,37.6982,晋中市,榆次区政府,颗粒物(PM10),85,119,129,56,52,60,,39,38,27,32,6,7,0.7,0.6
2025-03-15T1200,2865A,112.7195,37.6828,晋中市,榆次三中,细颗粒物(PM2.5),89,117,135,66,56,62,,40,39,25,30,5,6,1.0,0.6
2025-03-15T1200,4200A,112.7478,37.6954,晋中市,迎宾街26号,细颗粒物(PM2.5),94,122,136,70,60,66,,41,41,24,27,4,5,0.9,0.7
2025-03-15T1200,2439A,112.2014,31.0481,荆门市,竹园小学,颗粒物(PM10),55,60,48,30,29,105,,87,87,9,12,6,3,0.2,0.2
2025-03-15T1200,2440A,112.1969,30.9891,荆门市,掇刀,颗粒物(PM10),53,56,44,28,30,107,,91,91,8,10,5,3,0.2,0.3
2025-03-15T1200,2441A,112.2213,31.0386,荆门市,石化一小,颗粒物(PM10),53,56,45,29,31,93,,76,76,10,13,11,8,0.1,0.2
2025-03-15T1200,3012A,112.1849,31.0362,荆门市,西山林语,颗粒物(PM10),52,53,41,30,32,102,,88,88,12,13,5,4,0.2,0.2
2025-03-15T1200,3547A,112.1632,31.0138,荆门市,龙泉中学南校,颗粒物(PM10),53,55,43,29,33,95,,84,84,8,10,8,7,0.4,0.5
2025-03-15T1200,1844A,112.2494,30.3197,荆州市,市图书馆,细颗粒物(PM2.5),57,,31,40,33,89,,74,74,15,18,6,4,0.5,0.5
2025-03-15T1200,1845A,112.2008,30.3544,荆州市,市委党校,细颗粒物(PM2.5),54,48,37,38,34,93,,79,79,18,21,8,5,0.3,0.3
2025-03-15T1200,3194A,112.2747,30.3122,荆州市,管委会,细颗粒物(PM2.5),55,44,35,39,35,93,,79,79,14,17,10,8,0.3,0.3
2025-03-15T1200,4268A,112.1722,30.3366,荆州市,学苑路85号,颗粒物(PM10),52,53,40,32,32,92,,79,79,17,13,8,6,0.5,0.5
2025-03-15T1200,2342A,117.3102,29.3867,景德镇市,王港中学,,,,,,,,,,,,,,,,
2025-03-15T1200,2343A,117.2117,29.2933,景德镇市,老干部活动中心,,16,,14,11,12,41,,30,30,12,14,4,5,0.5,0.5
2025-03-15T1200,2344A,117.1894,29.2789,景德镇市,兽医站,,15,10,22,10,9,48,,44,44,13,17,4,4,0.5,0.5
2025-03-15T1200,2345A,117.1547,29.2617,景德镇市,台达陶瓷,,40,23,26,13,17,35,,25,25,30,28,118,70,0.7,0.6
2025-03-15T1200,2346A,117.2461,29.2956,景德镇市,陶研所,,19,,13,13,12,39,,29,29,14,15,5,5,0.7,0.6
2025-03-15T1200,1803A,115.9872,29.6815,九江市,十里,,24,,27,16,20,76,,72,72,17,20,1,1,0.4,0.6
2025-03-15T1200,1804A,115.9584,29.7046,九江市,茅山头,,25,,26,10,19,78,,72,72,17,23,4,5,0.2,0.4
2025-03-15T1200,1805A,115.9877,29.7295,九江市,西园,,27,16,25,8,17,84,,77,77,16,25,8,8,0.8,0.9
2025-03-15T1200,1808A,115.9114,29.6038,九江市,综合工业园,,22,16,26,12,21,70,,62,62,28,34,6,6,0.5,0.7
2025-03-15T1200,1809A,116.0721,29.7535,九江市,石化总厂,,26,,27,17,26,82,,75,75,20,25,4,6,0.4,0.7
2025-03-15T1200,1810A,115.9773,29.5698,九江市,庐山气象台,,25,,7,12,7,77,,67,67,4,7,6,7,0.7,0.7
2025-03-15T1200,3190A,116.0254,29.6994,九江市,外国语学校,,24,13,23,8,18,74,,68,68,18,28,7,7,0.3,0.4
2025-03-15T1200,4253A,116.0102,29.6594,九江市,莲花大道8号,,,,29,15,29,,,67,67,,20,,6,,0.5
2025-03-15T1200,4240A,98.4958,39.7339,酒泉市,玉门东路5号,,41,41,41,15,20,86,,70,67,1,5,5,7,0.2,0.3
2025-03-15T1200,4241A,98.5099,39.7506,酒泉市,北大街108号,,39,39,39,10,18,76,,66,65,3,7,6,7,0.3,0.3
2025-03-15T1200,2698A,76.0072,39.4467,喀什地区,巡警大队,颗粒物(PM10),500,795,1043,173,220,62,,71,69,25,15,4,7,0.4,0.4
2025-03-15T1200,2699A,75.9755,39.4694,喀什地区,吾办,颗粒物(PM10),500,782,1041,203,270,62,,71,69,21,12,2,2,0.5,0.4
2025-03-15T1200,4027A,75.9483,39.4689,喀什地区,老干局,颗粒物(PM10),500,846,1101,163,207,66,,76,73,22,19,3,2,0.5,0.4
2025-03-15T1200,1824A,114.3389,34.7781,开封市,肿瘤医院,颗粒物(PM10),60,69,70,38,36,76,,56,56,17,19,8,7,0.8,0.8
2025-03-15T1200,1826A,114.2885,34.7965,开封市,世纪星幼儿园,颗粒物(PM10),59,67,67,36,36,82,,63,63,21,23,9,8,0.8,0.8
2025-03-15T1200,3147A,114.3438,34.8106,开封市,龙亭公园,颗粒物(PM10),65,80,69,32,34,76,,58,58,21,25,5,4,0.5,0.5
2025-03-15T1200,3210A,114.3644,34.7964,开封市,汴京公园,颗粒物(PM10),70,90,80,37,34,79,,58,58,20,22,7,6,0.7,0.7
2025-03-15T1200,3473A,114.2485,34.8306,开封市,技师学院,颗粒物(PM10),62,73,67,32,36,71,,54,54,23,27,8,7,0.9,0.9
2025-03-15T1200,3592A,114.4644,34.7556,开封市,祥符区生态环境局,颗粒物(PM10),68,85,86,35,37,80,,54,54,15,24,7,7,0.5,0.7
2025-03-15T1200,1951A,84.895,45.6094,克拉玛依市,长征新村,,25,12,14,3,8,78,,79,78,12,12,6,6,0.3,0.2
2025-03-15T1200,1952A,84.8988,45.5893,克拉玛依市,南林小区,,24,13,14,12,11,76,,72,72,3,5,5,4,0.5,0.5
2025-03-15T1200,1954A,84.905,44.3396,克拉玛依市,独山子区,,35,24,25,24,21,93,,75,75,8,10,8,6,0.3,0.3
2025-03-15T1200,1955A,85.6979,46.098,克拉玛依市,乌尔禾区商贸楼,,28,28,14,6,8,68,,64,64,10,7,5,4,0.4,0.3
2025-03-15T1200,3612A,85.1045,45.6899,克拉玛依市,白碱滩区新站,,21,18,7,6,5,67,,83,77,16,6,7,6,0.4,0.3
2025-03-15T1200,2697A,76.1454,39.7142,克孜勒苏柯尔克孜自治州,市人民政府,颗粒物(PM10),500,856,940,188,251,81,,74,66,8,7,4,4,0.4,0.4
2025-03-15T1200,3665A,76.1658,39.7157,克孜勒苏柯尔克孜自治州,克州文化中心,颗粒物(PM10),500,841,1003,184,219,75,,74,71,10,7,4,3,0.4,0.4
2025-03-15T1200,1450A,102.8204,24.8886,昆明市,呈贡新区,细颗粒物(PM2.5),82,68,59,60,34,140,,100,100,14,19,9,7,0.5,0.5
2025-03-15T1200,1451A,102.6251,24.9608,昆明市,西山森林公园,,,,,,,,,,,,,,,,
2025-03-15T1200,1452A,102.7252,25.0902,昆明市,龙泉镇,细颗粒物(PM2.5),68,58,55,49,30,145,,45,45,11,41,10,9,0.6,0.6
2025-03-15T1200,1453A,102.7266,25.0375,昆明市,东风东路,细颗粒物(PM2.5),83,86,56,61,34,145,,83,83,16,23,12,10,0.7,0.6
2025-03-15T1200,1454A,102.6742,25.0669,昆明市,金鼎山,细颗粒物(PM2.5),69,78,55,50,31,138,,66,66,18,25,5,6,0.7,0.8
2025-03-15T1200,1455A,102.6644,25.0401,昆明市,碧鸡广场,细颗粒物(PM2.5),69,80,55,50,34,146,,72,72,14,29,10,10,0.4,0.3
2025-03-15T1200,3179A,102.7494,25.0119,昆明市,官渡区博物馆,细颗粒物(PM2.5),69,66,58,50,32,147,,48,48,15,31,14,10,0.5,0.5
2025-03-15T1200,3375A,102.8017,24.8336,昆明市,青年创业园,细颗粒物(PM2.5),69,70,47,50,33,144,,111,111,10,10,10,9,0.4,0.3
2025-03-15T1200,3550A,102.7997,24.9786,昆明市,昆明学院,细颗粒物(PM2.5),74,88,59,54,37,150,,95,95,13,15,11,7,0.5,0.4
2025-03-15T1200,3551A,102.5967,24.6736,昆明市,晋宁区生态环境分局,细颗粒物(PM2.5),55,41,38,39,34,150,,100,100,16,17,8,7,0.8,0.7
2025-03-15T1200,3552A,102.6678,24.9856,昆明市,云天化总部,细颗粒物(PM2.5),73,82,50,53,32,154,,91,91,15,20,14,10,0.5,0.3
2025-03-15T1200,1456A,91.1319,29.6514,拉萨市,八廓街,,32,16,14,3,8,101,,94,88,11,12,5,6,0.6,0.6
2025-03-15T1200,1457A,91.1221,29.6747,拉萨市,市环保局,,30,21,20,10,9,95,,77,64,16,19,5,7,0.3,0.5
2025-03-15T1200,1458A,91.0874,29.6475,拉萨市,区监测站,,31,20,14,6,8,98,,84,72,10,16,6,6,0.3,0.3
2025-03-15T1200,1459A,91.1774,29.6541,拉萨市,西藏大学,,31,8,13,8,7,98,,91,81,9,11,5,5,0.4,0.3
2025-03-15T1200,1460A,90.9798,29.6588,拉萨市,区辐射站,,30,30,21,12,9,84,,85,73,22,16,8,7,0.5,0.4
2025-03-15T1200,1461A,91.0834,29.6292,拉萨市,拉萨火车站,,31,14,13,3,6,97,,85,72,11,12,3,4,0.4,0.4
2025-03-15T1200,2520A,109.2203,23.7256,来宾市,来宾技工学校,,15,14,40,3,22,46,,44,44,9,15,6,6,1.0,1.1
2025-03-15T1200,3535A,109.1781,23.7297,来宾市,兴宾区政府,,15,12,42,3,27,47,,44,44,7,12,6,5,0.8,0.9
2025-03-15T1200,4002A,109.2416,23.7461,来宾市,中南小学,,16,9,42,6,26,49,,47,47,8,13,9,9,0.8,1
2025-03-15T1200,1477A,104.1373,35.9454,兰州市,榆中兰大校区,,,,,,,,,,,,,,,,
2025-03-15T1200,1479A,103.831,36.0464,兰州市,铁路设计院,,43,43,72,29,37,84,,86,85,19,21,9,10,0.5,0.5
2025-03-15T1200,3241A,103.7439,36.0842,兰州市,百合公园,,35,35,75,18,30,86,,85,84,2,6,5,6,0.3,0.4
2025-03-15T1200,3242A,103.9611,35.998,兰州市,和平,,33,33,79,13,26,88,,86,86,6,9,15,13,0.4,0.4
2025-03-15T1200,4236A,103.6293,36.0938,兰州市,庄浪东路808号,,35,35,75,15,35,86,,86,85,7,11,3,5,0.3,0.3
2025-03-15T1200,4237A,103.7251,36.1043,兰州市,安宁西路88号,,39,37,89,27,39,92,,90,90,4,6,3,5,0.3,0.2
2025-03-15T1200,4238A,103.8470,36.0676,兰州市,北滨河东路1号,,27,24,73,16,39,86,,83,83,10,13,9,11,0.4,0.4
2025-03-15T1200,3245A,103.6633,36.533,兰州新区,新区管委会,,30,27,64,9,27,94,,83,83,5,7,12,15,0.3,0.3
2025-03-15T1200,3246A,103.6975,36.4789,兰州新区,舟曲中学,,41,41,81,12,20,89,,81,81,4,5,5,5,0.4,0.4
2025-03-15T1200,1067A,116.6708,39.5111,廊坊市,药材公司,,40,40,84,24,28,80,,57,57,15,24,4,6,0.5,0.5
2025-03-15T1200,1068A,116.7214,39.5589,廊坊市,开发区,,39,39,104,22,31,84,,41,41,12,25,4,5,0.4,0.5
2025-03-15T1200,1070A,116.7244,39.5269,廊坊市,北华航天学院,,30,30,86,18,26,80,,51,51,11,20,5,6,0.4,0.4
2025-03-15T1200,2919A,116.7022,39.5453,廊坊市,河北工业大学,,34,34,82,22,30,80,,46,46,13,22,7,8,0.4,0.5
2025-03-15T1200,2535A,103.7723,29.5462,乐山市,花湖湾,,22,21,40,15,23,59,,64,60,25,22,6,5,0.4,0.4
2025-03-15T1200,2536A,103.7627,29.5844,乐山市,牛耳桥,,26,26,41,17,24,58,,60,54,27,26,11,9,0.5,0.6
2025-03-15T1200,2537A,103.7508,29.6006,乐山市,市第三水厂,,26,26,38,13,21,59,,62,57,22,20,6,3,0.5,0.6
2025-03-15T1200,2538A,103.7571,29.5664,乐山市,市监测站,,22,20,34,15,23,64,,61,59,15,17,6,5,0.7,0.7
2025-03-15T1200,3361A,103.7311,29.5628,乐山市,理工大学,,23,22,36,12,22,71,,63,62,14,20,8,7,0.3,0.4
2025-03-15T1200,2598A,100.2143,26.8576,丽江市,西南郊,,32,,18,8,13,102,,97,96,5,6,5,5,1.0,1
2025-03-15T1200,2599A,100.2497,26.8802,丽江市,丽江古城,,29,17,21,14,17,90,,83,83,12,13,8,8,0.7,0.7
2025-03-15T1200,2600A,100.2203,26.8906,丽江市,市中心,,27,21,15,6,15,85,,85,83,13,12,7,6,0.8,0.8
2025-03-15T1200,1267A,119.914,28.4514,丽水市,监测站大楼,,24,6,12,3,6,74,,42,42,10,21,3,3,0.4,0.6
2025-03-15T1200,1268A,119.93,28.4586,丽水市,莲都小学,,25,6,14,3,8,78,,42,42,8,23,3,3,0.3,0.5
2025-03-15T1200,1269A,119.879,28.4231,丽水市,余庄前,,23,6,13,3,8,71,,36,36,15,22,3,4,0.3,0.5
2025-03-15T1200,1173A,119.176,34.5885,连云港市,市环境监测站,,39,39,42,12,11,82,,80,76,17,19,10,9,0.6,0.4
2025-03-15T1200,3000A,119.3581,34.6972,连云港市,德源药业,,27,27,42,17,10,75,,87,75,20,14,10,9,0.2,0.2
2025-03-15T1200,3007A,119.178,34.844,连云港市,新城一中,,37,37,44,14,13,74,,72,58,18,20,9,8,0.6,0.6
2025-03-15T1200,3008A,119.3608,34.7519,连云港市,胡沟管理处,,24,24,24,12,8,72,,70,66,25,26,11,10,0.6,0.5
2025-03-15T1200,3009A,119.1478,34.5911,连云港市,矿山设计院,,34,34,42,12,11,81,,76,73,17,19,11,10,0.4,0.3
2025-03-15T1200,3434A,119.2413,34.6539,连云港市,工贸学校,,37,37,41,16,12,78,,77,74,16,17,10,8,0.4,0.4
2025-03-15T1200,3664A,119.4172,34.7341,连云港市,连云街道,,36,36,40,16,11,71,,72,68,24,27,9,7,0.6,0.5
2025-03-15T1200,2571A,102.3431,27.8099,凉山彝族自治州,青龙寺,,,20,42,3,13,71,,75,63,7,8,6,6,,0.8
2025-03-15T1200,2572A,102.2721,27.8415,凉山彝族自治州,邛海宾馆,,22,16,35,6,21,68,,86,72,8,12,12,15,0.6,0.7
2025-03-15T1200,2573A,102.2625,27.898,凉山彝族自治州,西昌市政府,,19,18,34,7,26,59,,64,54,7,11,6,10,0.6,0.7
2025-03-15T1200,2574A,102.2685,27.8851,凉山彝族自治州,凉山州政府,,21,12,31,7,22,67,,75,62,8,11,5,10,0.6,0.8
2025-03-15T1200,4229A,102.2342,27.8859,凉山彝族自治州,凯乐南路30号,,19,16,34,3,24,59,,70,59,14,12,9,9,0.5,0.5
2025-03-15T1200,2212A,123.2,41.1953,辽阳市,宏伟区,颗粒物(PM10),65,79,47,45,33,81,,76,72,20,18,13,13,0.7,0.7
2025-03-15T1200,2213A,123.1683,41.2495,辽阳市,新华园,颗粒物(PM10),59,68,51,41,36,73,,65,62,25,27,12,16,0.7,0.8
2025-03-15T1200,2214A,123.2354,41.2639,辽阳市,滨河路,细颗粒物(PM2.5),65,72,45,47,35,75,,71,65,20,18,10,9,0.5,0.5
2025-03-15T1200,2215A,123.149,41.2991,辽阳市,铁西工业园,颗粒物(PM10),62,73,50,40,34,74,,60,58,22,25,12,15,0.6,0.6
2025-03-15T1200,2227A,125.1358,42.8845,辽源市,环保局,颗粒物(PM10),66,81,82,40,47,90,,34,34,9,16,21,15,0.7,0.8
2025-03-15T1200,3239A,125.0764,42.9078,辽源市,银鹰制药,细颗粒物(PM2.5),55,49,61,39,46,92,,38,38,13,27,7,7,0.7,0.8
2025-03-15T1200,1625A,115.9848,36.4372,聊城市,区政府,细颗粒物(PM2.5),67,81,82,48,38,73,,48,48,12,20,14,14,0.6,0.6
2025-03-15T1200,2878A,116.0072,36.4343,聊城市,聊大东校,细颗粒物(PM2.5),73,83,88,53,42,71,,47,47,17,26,12,10,0.5,0.7
2025-03-15T1200,3200A,115.9819,36.4978,聊城市,监控中心,颗粒物(PM10),66,81,78,46,42,74,,46,46,15,23,13,13,0.6,0.7
2025-03-15T1200,3513A,116.0445,36.4361,聊城市,九州社区,细颗粒物(PM2.5),67,80,80,48,40,72,,49,49,11,20,13,12,0.5,0.6
2025-03-15T1200,4018A,116.0567,36.4608,聊城市,星美广场,颗粒物(PM10),70,90,88,46,40,70,,44,44,15,25,12,13,0.5,0.5
2025-03-15T1200,2632A,94.3681,29.6376,林芝市,林芝监测站,,23,13,9,3,5,72,,66,57,9,9,4,4,0.4,0.3
2025-03-15T1200,2633A,94.3616,29.6616,林芝市,林芝人民医院,,20,15,14,3,6,62,,57,52,10,7,7,7,0.5,0.4
2025-03-15T1200,2603A,100.0781,23.8982,临沧市,市环保局,细颗粒物(PM2.5),79,94,70,58,45,95,,68,66,26,15,11,10,0.8,0.6
2025-03-15T1200,2604A,100.0894,23.8822,临沧市,市气象局,细颗粒物(PM2.5),82,105,66,60,42,74,,69,58,48,19,10,10,0.8,0.6
2025-03-15T1200,1733A,111.5531,36.0783,临汾市,临钢医院,,,,67,,28,79,,59,59,,15,,2,0.5,0.7
2025-03-15T1200,1734A,111.5028,36.0714,临汾市,技工学校,,25,18,56,12,34,79,,63,63,6,12,6,7,0.3,0.5
2025-03-15T1200,1736A,111.5018,36.0855,临汾市,市委,,26,21,57,3,25,81,,64,64,1,10,3,4,0.3,0.5
2025-03-15T1200,3018A,111.505,36.1014,临汾市,唐尧大酒店,,40,40,66,3,28,82,,65,65,7,12,6,6,0.3,0.5
2025-03-15T1200,4244A,111.4879,36.0530,临汾市,启星学校,,30,30,49,3,31,79,,61,61,5,11,3,4,0.4,0.6
2025-03-15T1200,4271A,103.2464,35.6123,临夏回族自治州,滨河东路1号,,29,27,40,11,13,92,,76,76,2,5,2,2,0.2,0.3
2025-03-15T1200,4310A,103.2093,35.5995,临夏回族自治州,新华街21号,,26,24,30,12,12,83,,78,78,11,10,7,7,0.3,0.3
2025-03-15T1200,1618A,118.3429,35.0532,临沂市,沂河小区,颗粒物(PM10),58,66,64,32,23,80,,73,61,13,15,12,12,0.5,0.6
2025-03-15T1200,1619A,118.295,35.0583,临沂市,鲁南制药厂,,,56,71,30,22,77,,78,59,30,30,9,9,,0.3
2025-03-15T1200,1620A,118.2794,34.9976,临沂市,新光毛纺厂,,48,48,52,25,17,81,,79,64,23,23,8,8,0.6,0.6
2025-03-15T1200,1621A,118.3956,35.0888,临沂市,河东保险公司,颗粒物(PM10),52,53,58,26,17,78,,69,57,26,28,5,6,0.3,0.4
2025-03-15T1200,3370A,118.3564,35.0215,临沂市,十里堡居委,,46,46,54,22,16,84,,78,64,18,20,10,11,0.5,0.6
2025-03-15T1200,3496A,118.3604,35.1084,临沂市,南坊新区,颗粒物(PM10),56,61,64,31,18,80,,74,61,17,19,7,7,0.6,0.6
2025-03-15T1200,3860A,118.3920,35.0300,临沂市,皇山花园小区,颗粒物(PM10),60,70,68,31,20,79,,70,58,20,19,7,7,0.4,0.4
2025-03-15T1200,1870A,109.4856,24.3895,柳州市,柳东小学,,14,12,17,7,11,43,,41,39,10,13,9,10,0.6,0.6
2025-03-15T1200,1871A,109.4157,24.3277,柳州市,环保监测站,,15,12,23,7,14,47,,43,42,10,17,9,10,0.8,0.9
2025-03-15T1200,1872A,109.389,24.341,柳州市,河西水厂,,,25,29,14,17,,,37,30,16,20,14,12,1.4,1.5
2025-03-15T1200,1873A,109.4311,24.2921,柳州市,市四中,,16,16,22,3,14,50,,47,46,8,15,8,8,0.7,0.7
2025-03-15T1200,1874A,109.4006,24.3631,柳州市,市九中,,,,23,21,16,46,,42,41,,15,7,9,0.8,1.1
2025-03-15T1200,1875A,109.4958,24.3134,柳州市,古亭山,,15,9,17,3,10,45,,45,42,4,7,6,6,0.6,0.6
2025-03-15T1200,3402A,109.5422,24.3996,柳州市,市二中,,15,13,22,3,10,48,,42,38,9,11,9,8,0.6,0.6
2025-03-15T1200,2307A,116.5079,31.737,六安市,监测大楼,,43,43,33,29,23,57,,79,63,22,20,4,4,0.6,0.6
2025-03-15T1200,2308A,116.4738,31.7643,六安市,皖西学院,,,,38,,21,,,62,,,18,,3,,0.5
2025-03-15T1200,2309A,116.4996,31.7905,六安市,朝阳厂,,37,37,32,23,20,63,,80,64,21,20,2,2,0.4,0.4
2025-03-15T1200,2310A,116.5567,31.7886,六安市,开发区,颗粒物(PM10),51,52,44,28,21,56,,80,61,24,19,3,3,0.5,0.5
2025-03-15T1200,2576A,104.8,26.5892,六盘水市,窑上,,,,41,26,31,61,,57,57,8,9,6,6,0.7,0.7
2025-03-15T1200,2577A,104.83,26.5917,六盘水市,黄土坡,,20,18,30,7,22,62,,60,60,12,13,13,11,0.7,0.6
2025-03-15T1200,2578A,104.89,26.5939,六盘水市,水钢,,20,20,30,3,24,50,,50,50,20,16,12,10,0.7,0.7
2025-03-15T1200,2579A,104.8475,26.5894,六盘水市,民中,,17,12,28,7,19,54,,53,53,16,17,10,9,0.5,0.6
2025-03-15T1200,2580A,104.9544,26.5506,六盘水市,双水,,20,12,29,3,19,62,,66,66,9,11,12,9,0.6,0.6
2025-03-15T1200,2335A,117.0189,25.1181,龙岩市,龙岩师专,,,,,,,,,,,,,,,,
2025-03-15T1200,2336A,117.0217,25.1033,龙岩市,龙岩市监测站,,17,6,16,6,12,52,,52,52,11,17,2,8,0.5,0.5
2025-03-15T1200,2337A,117.0258,25.0661,龙岩市,闽西职业技术学院,,19,,18,8,13,60,,52,52,10,16,2,10,0.5,0.5
2025-03-15T1200,2338A,117.0196,25.0306,龙岩市,龙岩学院,,20,9,18,9,11,62,,58,58,13,9,1,3,0.5,0.5
2025-03-15T1200,2665A,105.0822,33.3261,陇南市,汉王镇固水子,,,,,,,,,,,,,,,,
2025-03-15T1200,2885A,104.9339,33.3826,陇南市,滨江中学,颗粒物(PM10),58,66,55,16,25,84,,74,73,2,4,6,6,0.3,0.3
2025-03-15T1200,3247A,104.955,33.371,陇南市,市总工会,颗粒物(PM10),54,57,53,24,22,83,,76,74,1,2,7,7,0.4,0.4
2025-03-15T1200,2487A,111.9589,27.8901,娄底市,电视发射台,,28,,10,19,12,68,,61,61,7,8,5,5,0.4,0.6
2025-03-15T1200,2488A,111.9975,27.725,娄底市,市监测站,,22,22,14,11,8,59,,48,48,12,15,6,8,0.4,0.6
2025-03-15T1200,2489A,112.0194,27.7314,娄底市,市委党校,,29,28,15,20,12,67,,58,58,15,14,3,3,0.4,0.5
2025-03-15T1200,2490A,111.9561,27.7569,娄底市,涟钢,,28,23,19,19,12,67,,54,54,7,11,6,8,0.4,1.1
2025-03-15T1200,2491A,111.9892,27.7044,娄底市,市政府,,26,22,15,18,17,67,,56,56,5,7,5,6,0.1,0.3
2025-03-15T1200,1893A,105.4324,28.9634,泸州市,九狮山,,,,,,,,,,,,,,,,
2025-03-15T1200,1894A,105.4427,28.9063,泸州市,小市上码头,,36,36,43,25,24,40,,42,42,19,20,6,6,0.6,0.6
2025-03-15T1200,1895A,105.4241,28.8573,泸州市,兰田宪桥,,36,29,33,25,26,29,,33,33,27,18,6,6,0.5,0.5
2025-03-15T1200,1896A,105.4379,28.8833,泸州市,市环监站,,,,,,,,,,,,,,,,
2025-03-15T1200,4272A,105.3689,28.7783,泸州市,纳溪中医医院,,23,21,28,16,21,47,,43,43,12,16,4,4,0.5,0.6
2025-03-15T1200,2183A,111.1406,37.5211,吕梁市,环保局,,32,32,73,6,37,77,,61,61,8,17,2,2,0.3,0.4
2025-03-15T1200,2185A,111.1297,37.5136,吕梁市,自来水公司,,31,31,68,11,35,71,,56,56,10,18,3,2,0.3,0.5
2025-03-15T1200,2867A,111.1283,37.51,吕梁市,马茂庄小学,,36,36,78,10,38,81,,59,59,9,24,3,4,0.2,0.4
2025-03-15T1200,1812A,112.3931,34.6516,洛阳市,市委党校,颗粒物(PM10),59,68,51,38,30,68,,49,44,13,19,7,6,0.4,0.4
2025-03-15T1200,1815A,112.494,34.6886,洛阳市,河南林校,颗粒物(PM10),68,85,58,39,29,62,,34,34,22,25,10,5,0.7,0.5
2025-03-15T1200,1816A,112.3844,34.623,洛阳市,开发区管委会,"颗粒物(PM10),细颗粒物(PM2.5)",55,60,48,39,28,72,,56,50,14,18,6,5,0.5,0.5
2025-03-15T1200,1817A,112.4267,34.6258,洛阳市,市委新办公区,,,,50,,28,69,,58,49,18,22,6,5,0.4,0.3
2025-03-15T1200,3340A,112.6005,34.6326,洛阳市,伊滨,细颗粒物(PM2.5),70,70,55,51,37,63,,49,46,23,21,8,5,0.7,0.6
2025-03-15T1200,3341A,112.4951,34.6332,洛阳市,中移产业园,细颗粒物(PM2.5),82,76,59,60,43,63,,54,47,19,21,8,6,0.5,0.4
2025-03-15T1200,3593A,112.5736,34.8993,洛阳市,吉利监测站,细颗粒物(PM2.5),62,63,46,44,22,85,,59,54,13,20,7,6,0.6,0.5
2025-03-15T1200,3635A,112.3677,34.662,洛阳市,河科大西苑校区,细颗粒物(PM2.5),60,65,51,43,30,72,,46,44,10,19,8,10,0.4,0.4
2025-03-15T1200,3636A,112.4388,34.6781,洛阳市,英才小学,颗粒物(PM10),61,72,54,37,27,66,,35,35,21,28,15,10,0.6,0.5
2025-03-15T1200,4214A,112.4600,34.6949,洛阳市,春都路1号院,颗粒物(PM10),68,85,63,39,28,66,,32,32,23,28,14,8,0.7,0.6
2025-03-15T1200,2399A,114.051,33.5699,漯河市,三五一五工厂,细颗粒物(PM2.5),85,105,59,63,43,68,,49,41,16,19,5,4,0.6,0.5
2025-03-15T1200,2400A,114.0055,33.5698,漯河市,漯河大学,颗粒物(PM10),79,107,66,56,39,70,,45,40,19,22,6,5,0.5,0.4
2025-03-15T1200,2401A,114.0138,33.5828,漯河市,市水利局,颗粒物(PM10),78,105,61,56,40,69,,44,41,13,16,5,3,0.6,0.5
2025-03-15T1200,2402A,114.0261,33.5698,漯河市,市广电局,细颗粒物(PM2.5),79,98,56,58,36,66,,47,41,16,19,6,4,0.5,0.4
2025-03-15T1200,3478A,113.9749,33.5664,漯河市,市图书馆,细颗粒物(PM2.5),83,111,59,61,37,67,,47,43,21,22,7,5,0.6,0.5
2025-03-15T1200,4250A,114.0892,33.5882,漯河市,韶山路11号,颗粒物(PM10),88,126,66,57,38,71,,41,34,18,24,5,4,0.5,0.4
2025-03-15T1200,1798A,118.5092,31.6837,马鞍山市,湖东路四小,,26,22,31,16,17,83,,89,85,18,22,4,5,0.5,0.5
2025-03-15T1200,1799A,118.5024,31.6449,马鞍山市,开发区,,27,26,35,16,20,84,,89,84,21,24,3,3,0.4,0.4
2025-03-15T1200,1802A,118.6245,31.7241,马鞍山市,濮塘,,28,25,33,15,18,88,,90,86,18,17,6,7,0.5,0.6
2025-03-15T1200,3633A,118.4918,31.6809,马鞍山市,雨山,,29,29,32,15,17,82,,86,83,15,18,6,6,0.6,0.7
2025-03-15T1200,4191A,118.5274,31.72227,马鞍山市,慈湖高新区,,28,23,35,19,23,86,,87,83,16,22,4,4,0.4,0.5
2025-03-15T1200,1686A,111.0286,21.4688,茂名市,电白南海,,32,24,19,22,16,33,,37,32,9,6,1,3,0.7,0.6
2025-03-15T1200,1687A,110.9294,21.6533,茂名市,茂石化七小,,32,31,21,22,13,28,,35,24,10,6,3,2,0.5,0.4
2025-03-15T1200,1688A,110.9107,21.6687,茂名市,健康路,,22,22,19,14,12,28,,35,25,12,8,2,2,0.4,0.3
2025-03-15T1200,1689A,110.8592,21.6828,茂名市,高岭,,34,34,27,14,10,20,,31,23,14,9,2,2,0.3,0.3
2025-03-15T1200,3450A,111.01,21.5165,茂名市,电白水东,,18,12,11,12,8,35,,36,31,11,8,1,1,0.6,0.6
2025-03-15T1200,2539A,104.0308,30.0478,眉山市,黑龙滩水库,,43,43,52,18,35,45,,55,50,10,11,3,3,0.5,0.6
2025-03-15T1200,2540A,103.8416,30.0874,眉山市,气象局,,25,25,48,17,24,64,,55,50,18,21,5,5,0.4,0.6
2025-03-15T1200,3137A,103.8578,30.0744,眉山市,市委党校,,25,24,35,17,24,59,,58,51,24,25,7,7,0.5,0.7
2025-03-15T1200,3148A,103.8291,30.0564,眉山市,区人社局,,33,33,40,12,23,62,,58,49,26,28,5,6,0.4,0.6
2025-03-15T1200,1690A,116.1231,24.3284,梅州市,梅江月梅,,13,6,19,3,16,41,,41,40,7,9,9,10,0.8,0.5
2025-03-15T1200,1691A,116.0797,24.2719,梅州市,梅县新城,,14,9,19,3,12,44,,36,36,7,12,5,6,0.8,0.5
2025-03-15T1200,1692A,116.1248,24.2654,梅州市,环境监控中心,,,13,22,10,15,,,34,34,10,18,6,7,0.8,0.6
2025-03-15T1200,3315A,116.1233,24.2991,梅州市,梅龙,,15,7,19,3,14,45,,44,44,6,10,5,7,1.1,0.8
2025-03-15T1200,1878A,104.7778,31.4741,绵阳市,富乐山,,22,22,18,12,12,66,,71,70,9,11,2,2,0.3,0.4
2025-03-15T1200,1880A,104.6697,31.4668,绵阳市,高新区自来水公司,,30,30,22,12,12,57,,70,63,16,19,2,2,0.3,0.3
2025-03-15T1200,1881A,104.7287,31.5075,绵阳市,三水厂,,25,25,25,15,14,68,,74,71,10,17,5,5,0.4,0.5
2025-03-15T1200,3491A,104.69,31.5322,绵阳市,西科大附属小学,,27,27,23,11,12,56,,70,65,19,20,6,6,0.3,0.4
2025-03-15T1200,3492A,104.5648,31.5343,绵阳市,安州区旅游局,,25,25,25,14,15,62,,66,59,14,18,6,7,0.3,0.4
2025-03-15T1200,4226A,104.7651,31.4531,绵阳市,绵阳市气象局,,29,29,22,9,11,64,,70,67,8,11,4,4,0.3,0.4
2025-03-15T1200,1784A,129.61,44.561,牡丹江市,环保大楼,,28,23,28,15,22,88,,62,62,7,12,5,6,0.2,0.2
2025-03-15T1200,1785A,129.6115,44.5782,牡丹江市,文化广场,,29,16,26,10,23,90,,64,64,7,10,8,9,0.2,0.2
2025-03-15T1200,1786A,129.5904,44.5963,牡丹江市,第一医院,,32,32,31,16,19,92,,61,61,6,11,9,9,0.2,0.1
2025-03-15T1200,1787A,129.6364,44.6075,牡丹江市,机车工厂,,29,18,34,9,22,91,,58,58,5,10,6,8,0.3,0.4
2025-03-15T1200,1788A,129.6386,44.5462,牡丹江市,第一中学,,31,31,28,13,20,94,,66,66,3,7,7,7,0.3,0.3
2025-03-15T1200,2531A,105.0703,29.61,内江市,市监测站,,35,35,35,24,30,58,,44,44,16,20,3,6,0.8,1
2025-03-15T1200,2532A,105.0717,29.5947,内江市,东兴区政府,,29,29,33,12,24,54,,41,41,17,19,1,1,0.4,0.5
2025-03-15T1200,2533A,105.0653,29.5817,内江市,内江二中,,26,26,41,11,28,54,,41,41,17,19,6,6,0.6,0.8
2025-03-15T1200,2534A,105.0406,29.5822,内江市,内江日报社,,28,28,43,10,29,57,,42,42,13,18,7,8,0.5,0.5
2025-03-15T1200,2628A,92.0657,31.4846,那曲市,那曲监测站,,40,38,29,28,19,88,,56,56,13,14,9,9,0.7,0.9
2025-03-15T1200,3128A,92.0506,31.4797,那曲市,那曲会议中心,,37,37,32,18,16,84,,47,47,9,11,6,6,0.6,0.7
2025-03-15T1200,1290A,115.8931,28.6843,南昌市,省外办,,,24,32,17,29,,,45,45,29,31,4,4,0.6,0.7
2025-03-15T1200,1291A,115.8886,28.7003,南昌市,省林业公司,,18,,21,9,25,55,,46,46,14,21,7,6,0.3,0.4
2025-03-15T1200,1292A,115.8126,28.7442,南昌市,林科所,,20,12,16,9,15,62,,53,53,19,24,7,5,0.5,0.7
2025-03-15T1200,1294A,115.8518,28.687,南昌市,建工学校,,25,23,34,17,35,58,,45,45,17,24,9,8,0.3,0.6
2025-03-15T1200,1295A,115.8921,28.6424,南昌市,象湖,,,14,28,12,22,,,52,52,15,21,6,6,,0.6
2025-03-15T1200,1296A,115.7423,28.7996,南昌市,武术学校,,19,17,23,10,13,59,,46,46,13,18,2,2,0.3,0.5
2025-03-15T1200,3046A,115.9084,28.6062,南昌市,机电学校,,25,18,30,17,25,56,,48,48,16,20,4,4,0.4,0.6
2025-03-15T1200,3690A,115.9721,28.7031,南昌市,外国语学校,,22,,28,15,26,60,,51,51,15,21,3,3,0.1,0.3
2025-03-15T1200,4192A,115.9316,28.68677,南昌市,南京东路235号,,19,18,30,11,23,60,,54,54,21,26,3,3,0.4,0.6
2025-03-15T1200,1905A,106.056,30.8064,南充市,西山风景区,,24,,17,10,14,75,,56,56,3,8,3,3,0.4,0.5
2025-03-15T1200,1906A,106.0789,30.8023,南充市,南充市委,,22,22,28,11,19,66,,47,47,15,23,3,3,0.5,0.7
2025-03-15T1200,1907A,106.1031,30.8217,南充市,南充炼油厂,,27,27,33,9,22,66,,48,48,10,25,4,4,0.3,0.4
2025-03-15T1200,1909A,106.0642,30.7636,南充市,嘉陵区环保局,,23,23,34,14,18,64,,45,45,10,25,3,3,0.4,0.6
2025-03-15T1200,1910A,106.1087,30.8388,南充市,市环境监测站,,,25,33,13,23,70,,56,56,,20,6,6,0.8,0.9
2025-03-15T1200,4227A,106.1083,30.7884,南充市,梨树横街98号,,25,20,31,17,14,68,,50,50,12,24,5,4,0.2,0.4
2025-03-15T1200,1151A,118.8086,32.1065,南京市,迈皋桥,,32,31,24,22,16,85,,83,81,16,19,4,4,0.3,0.3
2025-03-15T1200,1152A,118.7538,32.0551,南京市,草场门,,28,27,26,19,14,77,,75,73,18,21,4,5,0.6,0.7
2025-03-15T1200,1153A,118.7794,32.0745,南京市,山西路,,36,36,27,14,13,81,,78,76,9,15,3,3,0.5,0.5
2025-03-15T1200,1154A,118.7752,32.0023,南京市,中华门,,36,36,27,19,14,79,,80,78,23,26,3,4,0.4,0.4
2025-03-15T1200,1155A,118.8109,32.0309,南京市,瑞金路,,39,39,29,22,15,83,,84,82,11,14,7,7,0.7,0.7
2025-03-15T1200,1156A,118.7997,32.0754,南京市,玄武湖,,35,35,32,22,13,73,,70,69,23,24,4,4,0.3,0.4
2025-03-15T1200,1157A,118.6414,32.0931,南京市,浦口,,37,37,35,19,14,94,,87,87,11,17,7,6,0.5,0.5
2025-03-15T1200,1158A,118.7356,31.9996,南京市,奥体中心,,38,38,31,17,18,89,,88,86,21,23,6,7,0.3,0.3
2025-03-15T1200,1159A,118.9125,32.1028,南京市,仙林大学城,,32,29,30,22,14,82,,77,76,15,20,7,7,0.6,0.6
2025-03-15T1200,3422A,118.8436,31.9198,南京市,江宁彩虹桥,,35,30,35,24,20,85,,84,81,12,16,3,4,0.3,0.4
2025-03-15T1200,3423A,119.0138,31.6494,南京市,溧水永阳,,29,22,24,19,16,91,,87,87,10,19,4,4,0.4,0.5
2025-03-15T1200,3427A,118.8554,32.3578,南京市,六合雄州,,32,32,26,13,9,91,,85,85,1,4,4,4,0.2,0.2
2025-03-15T1200,4249A,118.8708,31.3402,南京市,汶溪路181号,,25,14,30,9,19,79,,81,79,22,25,1,3,0.1,0.3
2025-03-15T1200,1401A,108.3103,22.7881,南宁市,二十一中,,16,12,19,11,12,40,,25,25,19,17,6,4,0.6,0.5
2025-03-15T1200,1402A,108.3141,22.8528,南宁市,北湖,,17,17,26,10,14,42,,26,26,13,16,16,5,0.8,0.7
2025-03-15T1200,1403A,108.3206,22.8225,南宁市,市监测站,,18,16,19,12,14,33,,24,24,24,17,12,5,0.7,0.6
2025-03-15T1200,1404A,108.3829,22.8037,南宁市,大自然花园,,13,9,20,8,13,39,,31,31,14,12,5,5,0.8,0.7
2025-03-15T1200,1405A,108.4394,22.7904,南宁市,仙葫,,13,9,21,7,15,40,,31,31,9,10,7,6,0.8,0.6
2025-03-15T1200,1406A,108.2397,22.8467,南宁市,区农职院,,17,17,24,6,12,44,,23,23,11,16,8,7,0.7,0.6
2025-03-15T1200,1407A,108.3275,22.735,南宁市,英华嘉园,,11,11,23,7,13,33,,25,25,15,15,6,6,0.7,0.5
2025-03-15T1200,3401A,108.4834,22.7618,南宁市,红星社区,,16,8,21,3,11,50,,31,31,5,10,8,7,0.8,0.7
2025-03-15T1200,4221A,108.2177,22.7774,南宁市,乐贤路16号,,16,13,23,11,15,43,,21,21,8,18,7,7,0.8,0.8
2025-03-15T1200,2331A,118.0966,26.6761,南平市,茫荡山,,,,,,,,,,,,,,,,
2025-03-15T1200,2332A,118.1681,26.6369,南平市,南平市监测站,,10,,11,7,7,32,,30,26,8,12,3,3,0.8,0.8
2025-03-15T1200,2333A,118.1825,26.6489,南平市,南平铝业有限公司,,10,8,11,3,5,32,,32,29,7,12,4,5,0.8,0.8
2025-03-15T1200,2334A,118.1756,26.6272,南平市,南平七中,,,,11,15,7,28,,25,20,,9,8,3,0.8,0.6
2025-03-15T1200,1168A,120.9098,31.9663,南通市,狼山街道,,29,18,26,9,11,92,,93,92,11,16,5,6,0.2,0.3
2025-03-15T1200,1169A,120.86,32.0005,南通市,虹桥,,28,22,28,14,14,88,,92,89,15,19,5,5,0.3,0.4
2025-03-15T1200,1170A,120.87,32.02,南通市,城中,,29,29,29,14,12,86,,86,85,16,16,6,6,0.4,0.4
2025-03-15T1200,1171A,120.94,31.93,南通市,星湖花园,,29,,22,13,14,91,,91,91,15,18,5,5,0.3,0.4
2025-03-15T1200,1172A,120.81,32.0417,南通市,紫琅学院,,28,22,22,11,10,89,,92,91,12,16,3,3,0.5,0.6
2025-03-15T1200,3291A,121.067,32.062,南通市,通州监测站,,31,24,27,9,12,98,,98,98,9,11,3,3,0.5,0.5
2025-03-15T1200,3432A,120.9348,31.9883,南通市,环境教育馆,,33,22,25,10,13,103,,104,103,7,11,5,5,0.2,0.2
2025-03-15T1200,2404A,112.5224,33.0122,南阳市,瓦房庄,细颗粒物(PM2.5),75,91,56,55,33,79,,72,65,14,13,6,3,0.6,0.5
2025-03-15T1200,2405A,112.5003,32.9735,南阳市,汉画馆,细颗粒物(PM2.5),72,78,45,52,31,79,,66,60,12,12,6,4,0.5,0.4
2025-03-15T1200,2406A,112.5573,33.027,南阳市,气象站,颗粒物(PM10),72,94,56,51,29,79,,71,64,10,12,6,3,0.5,0.4
2025-03-15T1200,2407A,112.5481,32.9689,南阳市,理工学院,细颗粒物(PM2.5),74,80,48,54,30,80,,75,68,13,14,5,3,0.5,0.5
2025-03-15T1200,4008A,112.5234,32.9922,南阳市,卧龙区政府,颗粒物(PM10),71,92,50,44,31,82,,73,66,14,15,8,5,0.5,0.4
2025-03-15T1200,1234A,121.8358,29.911,宁波市,区环保大楼,,21,8,36,3,10,66,,66,66,24,44,7,8,0.4,0.4
2025-03-15T1200,1235A,121.56,29.82,宁波市,万里学院,,23,8,31,3,12,73,,68,68,13,31,5,6,0.4,0.4
2025-03-15T1200,1236A,121.713,29.9572,宁波市,龙赛医院,,24,12,28,6,10,74,,69,69,16,33,6,7,0.3,0.4
2025-03-15T1200,1239A,121.633,29.7733,宁波市,钱湖水厂,,,11,24,3,11,72,,68,68,21,31,,6,0.5,0.5
2025-03-15T1200,1240A,121.5856,29.8635,宁波市,太古小学,,24,6,32,3,10,75,,71,71,16,30,7,8,0.4,0.4
2025-03-15T1200,1241A,121.524,29.8674,宁波市,市环境监测中心,,22,7,27,3,10,68,,64,64,20,34,6,7,0.4,0.5
2025-03-15T1200,2871A,121.6147,29.9017,宁波市,万里国际学校,,24,11,29,3,12,76,,72,72,14,29,6,7,0.4,0.5
2025-03-15T1200,3710A,121.5594,29.8975,宁波市,白沙活动中心,,26,13,34,3,12,82,,77,77,6,22,5,6,0.4,0.4
2025-03-15T1200,2339A,119.5001,26.6946,宁德市,金涵水库,,,,,,,,,,,,,,,,
2025-03-15T1200,2341A,119.5388,26.6612,宁德市,宁德市监测站,,40,34,16,28,22,22,,24,17,19,16,7,4,1.1,0.7
2025-03-15T1200,3209A,119.5231,26.6562,宁德市,宁德一中,,48,35,18,33,23,21,,29,22,36,22,9,4,1.0,0.5
2025-03-15T1200,2618A,98.8601,25.8567,怒江傈僳族自治州,州监测站,,28,15,18,8,13,87,,71,71,3,4,5,5,0.3,0.4
2025-03-15T1200,2619A,98.8546,25.8417,怒江傈僳族自治州,泸水一中,,25,,14,15,11,77,,44,42,6,10,6,6,0.3,0.5
2025-03-15T1200,1888A,101.6891,26.571,攀枝花市,弄弄坪,颗粒物(PM10),62,73,68,37,37,95,,34,34,44,36,62,29,3.3,1.5
2025-03-15T1200,1889A,101.5769,26.5928,攀枝花市,河门口,,39,39,51,21,32,100,,47,47,16,25,14,15,0.9,0.7
2025-03-15T1200,1890A,101.7169,26.585,攀枝花市,炳草岗,,47,47,62,25,32,100,,36,36,27,34,23,15,1.0,0.7
2025-03-15T1200,1891A,101.7369,26.5008,攀枝花市,仁和,,46,46,41,27,28,125,,67,67,11,19,12,8,0.6,0.6
2025-03-15T1200,2835A,101.7227,26.567,攀枝花市,四十中小,颗粒物(PM10),54,58,59,31,34,98,,38,38,25,30,16,13,0.8,0.7
2025-03-15T1200,1604A,122.0303,41.1489,盘锦市,开发区,,45,45,35,22,25,84,,70,70,6,9,7,7,0.4,0.4
2025-03-15T1200,1605A,122.0485,41.0883,盘锦市,兴隆台,,47,47,36,20,25,81,,70,69,11,15,5,6,0.5,0.5
2025-03-15T1200,1606A,121.8297,41.1028,盘锦市,新生街道,颗粒物(PM10),52,54,33,22,23,79,,68,68,10,17,6,6,0.5,0.5
2025-03-15T1200,1832A,113.3257,33.742,平顶山市,新华旅馆,细颗粒物(PM2.5),92,128,85,68,46,80,,52,51,17,21,6,5,0.5,0.4
2025-03-15T1200,1833A,113.2919,33.737,平顶山市,规划设计院,"颗粒物(PM10),细颗粒物(PM2.5)",85,120,64,63,39,79,,50,49,19,20,8,5,0.5,0.4
2025-03-15T1200,1834A,113.182,33.774,平顶山市,平顶山工学院,细颗粒物(PM2.5),73,88,50,53,30,74,,57,57,11,15,6,4,0.6,0.5
2025-03-15T1200,3204A,113.3025,33.73,平顶山市,规划局,细颗粒物(PM2.5),97,112,63,72,46,80,,54,53,27,26,8,4,1.1,0.9
2025-03-15T1200,3594A,112.8867,33.9116,平顶山市,石龙区,颗粒物(PM10),69,88,60,41,30,90,,76,76,17,23,7,4,0.4,0.3
2025-03-15T1200,2656A,106.6692,35.5461,平凉市,聚贤嘉苑,,37,37,75,10,22,96,,89,89,4,6,9,8,0.1,0.2
2025-03-15T1200,2657A,106.7021,35.5307,平凉市,博物馆,,35,35,74,12,23,94,,88,88,6,7,11,12,0.3,0.3
2025-03-15T1200,2347A,114.0997,27.5002,萍乡市,武功山,,14,14,4,6,5,34,,29,29,17,22,2,4,0.6,0.7
2025-03-15T1200,2348A,113.8385,27.6434,萍乡市,中医院,,31,31,22,21,20,29,,26,26,18,23,6,8,0.7,1.3
2025-03-15T1200,2349A,113.8493,27.6253,萍乡市,市政府车库,,38,36,16,26,16,22,,23,23,28,26,8,6,1.1,1
2025-03-15T1200,2350A,113.8676,27.6435,萍乡市,市环保局,,18,14,17,12,14,34,,28,28,20,26,2,4,0.5,0.9
2025-03-15T1200,2351A,113.866,27.6198,萍乡市,安源区政府,,29,29,17,19,14,23,,23,23,19,19,8,7,1.0,1
2025-03-15T1200,2319A,119.0141,25.4325,莆田市,荔城区仓后路,,49,48,39,34,32,22,,29,18,33,22,2,2,1.0,1
2025-03-15T1200,2320A,119.0015,25.4553,莆田市,莆田市监测站,,46,36,39,32,31,36,,27,20,19,19,3,4,0.9,1
2025-03-15T1200,2321A,119.1119,25.4561,莆田市,涵江区六中,,,,35,42,33,,,23,16,29,31,,3,0.7,0.8
2025-03-15T1200,2322A,119.1013,25.3215,莆田市,秀屿区政府,细颗粒物(PM2.5),67,,30,48,33,58,,35,28,31,21,6,5,0.8,0.8
2025-03-15T1200,2323A,118.981,25.4792,莆田市,东圳水库,,,,,,,,,,,,,,,,
2025-03-15T1200,2392A,115.0312,35.7636,濮阳市,环保局,,,61,66,31,40,77,,57,57,,27,5,5,0.5,0.6
2025-03-15T1200,2394A,115.0574,35.7609,濮阳市,油田运输公司,颗粒物(PM10),61,72,88,31,36,82,,59,59,16,23,6,6,0.7,0.7
2025-03-15T1200,3021A,115,35.7668,濮阳市,濮水河管理处,颗粒物(PM10),61,72,96,24,38,83,,58,58,22,31,6,7,0.6,0.7
2025-03-15T1200,4216A,115.0924,35.7686,濮阳市,任丘路479号,颗粒物(PM10),58,65,86,34,38,85,,60,60,20,29,7,7,0.5,0.5
2025-03-15T1200,2601A,100.98,22.7633,普洱市,市环保局,颗粒物(PM10),89,127,94,42,44,109,,67,65,27,15,7,6,0.7,0.6
2025-03-15T1200,2602A,100.9817,22.8322,普洱市,普洱第二中学,颗粒物(PM10),68,86,99,29,45,117,,50,50,15,24,9,8,0.6,0.6
2025-03-15T1200,2262A,131.0518,45.8751,七台河市,新一中,,30,11,14,9,8,95,,83,83,5,6,11,11,0.9,0.8
2025-03-15T1200,3345A,131.0577,45.7879,七台河市,中波台,,28,16,21,6,10,87,,72,72,9,12,6,6,0.5,0.5
2025-03-15T1200,3637A,131.0176,45.7761,七台河市,人民广场,,28,23,27,19,19,85,,68,68,7,13,7,7,0.5,0.6
2025-03-15T1200,3684A,130.8781,45.8222,七台河市,新建矿广场,,34,34,22,7,17,85,,70,70,10,10,7,8,0.3,0.3
2025-03-15T1200,1779A,123.9305,47.3636,齐齐哈尔市,安居小区,,27,27,19,14,13,86,,76,76,6,9,3,3,0.2,0.2
2025-03-15T1200,1780A,123.9488,47.3386,齐齐哈尔市,中心广场,,30,30,26,12,10,79,,74,74,10,9,9,4,0.4,0.4
2025-03-15T1200,1781A,123.9483,47.3227,齐齐哈尔市,农牧车辆厂,,28,27,19,9,10,87,,78,78,5,7,4,4,0.3,0.3
2025-03-15T1200,1783A,123.945,47.2988,齐齐哈尔市,市环境监测站,,26,20,19,6,10,82,,76,76,5,6,3,3,0.3,0.4
2025-03-15T1200,3662A,123.6333,47.2075,齐齐哈尔市,富区青少年活动中心,,44,44,30,16,9,80,,74,74,7,10,7,6,0.4,0.4
2025-03-15T1200,2591A,107.9783,26.5747,黔东南苗族侗族自治州,市环境监测站,,26,10,13,6,11,82,,74,74,5,9,2,3,0.2,0.4
2025-03-15T1200,2881A,107.8908,26.5311,黔东南苗族侗族自治州,凯里学院,,25,,6,9,11,80,,72,72,3,9,3,2,0.4,0.6
2025-03-15T1200,2593A,107.5228,26.2403,黔南布依族苗族自治州,小围寨,,27,9,8,3,7,84,,58,58,4,8,5,5,0.4,0.6
2025-03-15T1200,3538A,107.5175,26.2978,黔南布依族苗族自治州,沙坝,,25,6,11,3,6,80,,64,64,4,9,4,5,0.3,0.6
2025-03-15T1200,2589A,104.9022,25.0925,黔西南布依族苗族自治州,场坝街,细颗粒物(PM2.5),57,49,56,40,40,62,,62,62,14,13,5,8,0.5,0.5
2025-03-15T1200,2590A,104.8811,25.0992,黔西南布依族苗族自治州,坪东大道,细颗粒物(PM2.5),54,47,48,38,41,58,,58,58,15,17,4,8,0.4,0.4
2025-03-15T1200,2502A,108.6236,21.9667,钦州市,市环保站,,12,12,33,3,11,34,,15,15,10,24,6,8,1.0,1
2025-03-15T1200,2503A,108.6549,21.9481,钦州市,沙埠小学,,11,,38,6,17,35,,17,17,10,27,5,9,0.9,0.9
2025-03-15T1200,2504A,108.5989,21.7431,钦州市,港区一小,,20,20,51,12,23,24,,17,11,25,33,7,9,0.9,0.7
2025-03-15T1200,3404A,108.5959,21.9633,钦州市,北职校,,16,16,33,3,21,35,,16,16,10,23,6,7,0.8,0.8
2025-03-15T1200,1043A,119.7493,40.0116,秦皇岛市,第一关,,28,,42,19,27,88,,80,80,8,22,3,7,0.3,0.3
2025-03-15T1200,1044A,119.5897,39.9499,秦皇岛市,监测站,,29,28,43,7,20,90,,87,87,3,13,1,5,0.3,0.3
2025-03-15T1200,1046A,119.5251,39.9041,秦皇岛市,建设大厦,,32,32,38,18,24,87,,82,82,10,18,3,6,0.3,0.3
2025-03-15T1200,3132A,119.610547,39.943889,秦皇岛市,文明里,,28,23,41,9,19,89,,84,84,2,12,2,6,0.2,0.3
2025-03-15T1200,4198A,119.5090,39.8253,秦皇岛市,北戴河轮滑馆,,34,34,44,8,20,88,,80,80,4,13,4,7,0.3,0.3
2025-03-15T1200,1307A,120.6659,36.2403,青岛市,仰口,,34,34,31,23,17,97,,86,79,8,7,5,4,0.3,0.2
2025-03-15T1200,1310A,120.4134,36.0658,青岛市,市南区东部子站,颗粒物(PM10),69,88,51,34,16,64,,54,49,34,25,11,10,0.7,0.6
2025-03-15T1200,1311A,120.3664,36.1032,青岛市,四方区子站,,,78,50,44,19,,,68,54,32,24,8,6,0.8,0.7
2025-03-15T1200,1312A,120.2994,36.054,青岛市,市南区西部子站,颗粒物(PM10),59,68,61,34,14,61,,61,55,35,24,10,7,0.7,0.6
2025-03-15T1200,1313A,120.4581,36.0858,青岛市,崂山区子站,颗粒物(PM10),63,75,47,24,13,68,,58,51,30,19,12,10,0.7,0.5
2025-03-15T1200,1315A,120.3999,36.3083,青岛市,城阳区子站,颗粒物(PM10),57,63,49,29,18,85,,66,62,21,19,11,8,0.7,0.6
2025-03-15T1200,1966A,120.0405,35.8735,青岛市,黄岛区4号,,46,46,40,17,11,82,,60,57,22,23,10,8,0.6,0.6
2025-03-15T1200,3362A,120.5014,36.4034,青岛市,即墨2号,颗粒物(PM10),53,56,46,33,20,84,,63,63,15,14,8,8,0.7,0.7
2025-03-15T1200,3642A,120.3503,36.0736,青岛市,市北区南部,颗粒物(PM10),59,67,46,39,16,60,,48,41,24,19,10,8,0.6,0.5
2025-03-15T1200,3643A,120.3948,36.1805,青岛市,李沧区北部,颗粒物(PM10),62,73,48,39,20,76,,73,61,28,17,10,8,0.7,0.6
2025-03-15T1200,4290A,120.1969,35.9546,青岛市,珠江路669号,颗粒物(PM10),57,63,46,29,17,62,,47,45,38,32,9,8,0.7,0.6
2025-03-15T1200,1702A,113.0426,23.691,清远市,环保大楼,,11,6,22,3,15,34,,43,41,4,10,8,8,1.0,0.7
2025-03-15T1200,1703A,113.0208,23.7106,清远市,凤城街办,,,6,26,3,13,32,,38,38,,19,6,8,0.8,0.6
2025-03-15T1200,3025A,113.0477,23.6344,清远市,技师学院,,10,9,26,3,14,31,,41,36,15,18,5,6,0.8,0.6
2025-03-15T1200,3318A,112.9903,23.7403,清远市,清新太和,,12,6,27,3,13,37,,46,46,2,10,5,6,0.8,0.6
2025-03-15T1200,3455A,113.076,23.7198,清远市,清城东城,,12,6,29,3,14,34,,38,36,7,14,5,6,1.2,0.9
2025-03-15T1200,2661A,107.6325,35.7357,庆阳市,庆阳五中,,,,127,,30,,,73,,,10,,2,0.1,0.3
2025-03-15T1200,2662A,107.6364,35.7067,庆阳市,市环保局,颗粒物(PM10),51,52,120,11,26,93,,79,79,5,9,4,4,0.2,0.3
2025-03-15T1200,1916A,103.7897,25.5035,曲靖市,环境监测站,细颗粒物(PM2.5),64,67,64,46,35,93,,78,64,16,18,10,6,0.7,0.5
2025-03-15T1200,1917A,103.8,25.5364,曲靖市,烟厂办公区,,,84,73,41,35,,,72,56,15,18,9,5,0.7,0.5
2025-03-15T1200,3376A,103.7947,25.462,曲靖市,南苑二区,颗粒物(PM10),68,85,58,48,32,86,,77,67,19,13,13,7,0.8,0.5
2025-03-15T1200,3377A,103.7444,25.5261,曲靖市,曲靖师范学院,细颗粒物(PM2.5),87,,70,64,47,90,,65,56,15,22,10,25,0.7,0.7
2025-03-15T1200,1264A,118.8692,28.9398,衢州市,环保大楼,,17,7,21,3,14,54,,36,36,18,23,2,2,0.5,0.5
2025-03-15T1200,1265A,118.8709,28.9666,衢州市,实验学校,,14,6,20,3,13,43,,25,25,17,18,3,2,0.4,0.4
2025-03-15T1200,1266A,118.8621,28.9808,衢州市,衢州学院,,13,6,22,3,14,41,,24,24,18,25,2,2,0.5,0.5
2025-03-15T1200,1611A,118.5819,24.9117,泉州市,涂山街,细颗粒物(PM2.5),88,67,39,65,36,20,,43,28,64,29,8,4,1.1,0.9
2025-03-15T1200,1612A,118.5972,24.8978,泉州市,津头埔,细颗粒物(PM2.5),84,66,37,62,36,19,,43,28,68,34,6,3,1.1,0.9
2025-03-15T1200,1613A,118.6663,24.9424,泉州市,万安,细颗粒物(PM2.5),59,56,35,42,30,29,,49,37,50,19,6,4,1.1,0.9
2025-03-15T1200,1614A,118.6117,24.9604,泉州市,清源山,,,,,,,,,,,,,,,,
2025-03-15T1200,3529A,118.6333,24.9264,泉州市,城华南路,细颗粒物(PM2.5),65,57,47,47,31,26,,42,30,53,27,6,3,0.8,0.7
2025-03-15T1200,2626A,88.8876,29.2718,日喀则市,日喀则监测站,,36,9,17,3,5,113,,112,104,4,6,3,3,0.3,0.3
2025-03-15T1200,3726A,88.8781,29.2426,日喀则市,林业技术推广中心,,35,14,28,3,4,110,,113,103,3,3,7,7,0.2,0.2
2025-03-15T1200,1659A,119.471,35.4209,日照市,监测站,,35,31,39,24,15,84,,68,60,18,21,7,7,0.5,0.6
2025-03-15T1200,1660A,119.523,35.4216,日照市,市政府广场,,30,24,37,21,13,85,,70,66,12,16,4,4,0.6,0.6
2025-03-15T1200,1661A,119.5587,35.4044,日照市,港务局,,34,34,42,18,18,88,,73,70,11,18,10,9,0.5,0.5
2025-03-15T1200,3507A,119.5328,35.4625,日照市,职业技术学院,,36,36,41,17,12,84,,68,66,16,19,5,5,0.5,0.5
2025-03-15T1200,3604A,119.3266,35.1044,日照市,岚山环保分局,,29,29,48,12,16,88,,75,67,12,19,13,16,0.7,1.1
2025-03-15T1200,1835A,111.1922,34.7752,三门峡市,市政府,,35,34,39,24,33,80,,77,66,12,18,5,4,0.4,0.5
2025-03-15T1200,1836A,111.1587,34.7942,三门峡市,开发区,,32,32,49,14,27,80,,70,62,16,24,5,6,0.3,0.3
2025-03-15T1200,1838A,111.143,34.7955,三门峡市,风景区,,40,40,37,19,26,75,,66,61,8,13,10,11,0.5,0.5
2025-03-15T1200,3039A,111.1911,34.7829,三门峡市,三门峡市第一小学,,42,42,44,16,25,80,,77,69,13,18,7,7,0.4,0.4
2025-03-15T1200,3598A,111.1,34.7167,三门峡市,富达温泉假日酒店,,47,47,54,22,28,75,,64,56,15,20,10,7,0.5,0.5
2025-03-15T1200,2324A,117.6211,26.2625,三明市,三钢,,14,10,12,7,13,23,,34,29,16,14,12,4,1.4,0.8
2025-03-15T1200,2325A,117.635,26.2714,三明市,三明二中,,9,,10,3,10,23,,32,27,16,14,3,2,0.9,0.6
2025-03-15T1200,2326A,117.6028,26.2378,三明市,三元区政府,,10,8,12,3,8,29,,35,30,12,15,6,5,0.7,0.7
2025-03-15T1200,2327A,117.7275,26.3108,三明市,洋溪,,,,,,,,,,,,,,,,
2025-03-15T1200,1876A,109.5078,18.2489,三亚市,河东子站,,16,16,19,7,11,41,,33,33,2,5,4,3,0.1,0.3
2025-03-15T1200,1877A,109.4964,18.2681,三亚市,河西子站,,13,12,16,9,10,38,,28,28,7,6,2,2,0.3,0.3
2025-03-15T1200,3540A,109.7348,18.3443,三亚市,君悦子站,,16,8,16,6,9,50,,27,27,4,10,4,3,0.2,0.2
2025-03-15T1200,2624A,91.7608,29.2313,山南市,山南监测站,,30,17,17,3,8,94,,85,74,5,5,6,5,0.4,0.4
2025-03-15T1200,2625A,91.7706,29.2436,山南市,山南人民医院,,28,26,27,15,10,89,,88,79,11,6,5,4,0.4,0.4
2025-03-15T1200,1674A,116.6794,23.3667,汕头市,金平子站,细颗粒物(PM2.5),58,60,23,41,27,71,,67,56,37,23,5,5,0.9,0.7
2025-03-15T1200,1675A,116.7244,23.3633,汕头市,龙湖子站,,36,34,23,25,16,61,,71,57,29,15,3,3,0.9,0.7
2025-03-15T1200,1676A,116.7258,23.2775,汕头市,濠江子站,,36,25,19,25,16,76,,76,64,17,14,3,3,0.7,0.7
2025-03-15T1200,1677A,116.7519,23.4714,汕头市,澄海子站,细颗粒物(PM2.5),60,51,35,43,36,78,,73,66,30,19,4,7,0.9,0.7
2025-03-15T1200,1678A,116.6092,23.2539,汕头市,潮阳子站,,46,46,21,28,12,77,,74,63,17,12,6,6,0.8,0.5
2025-03-15T1200,3444A,116.454,23.2684,汕头市,潮南峡山,,31,31,33,16,14,91,,75,69,13,9,8,7,0.8,0.7
2025-03-15T1200,3624A,116.4069,23.2533,汕头市,潮南子站,,40,40,45,23,25,86,,67,64,5,6,7,8,0.9,0.8
2025-03-15T1200,1693A,115.3653,22.775,汕尾市,市环保局,,35,26,20,24,24,76,,68,67,10,14,6,6,0.7,0.7
2025-03-15T1200,1694A,115.3706,22.7898,汕尾市,市政府,,30,30,22,17,19,68,,66,60,14,14,4,4,0.7,0.6
2025-03-15T1200,1695A,115.3622,22.7925,汕尾市,新城中学,,36,36,23,15,20,69,,66,60,13,11,8,8,0.7,0.6
2025-03-15T1200,2645A,109.9154,33.8715,商洛市,监测站,,27,10,17,7,14,85,,68,68,6,11,4,5,0.4,0.5
2025-03-15T1200,3045A,109.9643,33.8471,商洛市,商州区中学,,27,11,14,9,15,86,,65,65,5,15,3,4,0.4,0.5
2025-03-15T1200,2408A,115.6702,34.4285,商丘市,环境监测站,细颗粒物(PM2.5),84,109,64,62,30,84,,79,68,12,19,4,3,0.4,0.3
2025-03-15T1200,2409A,115.6458,34.4045,商丘市,粮食局,细颗粒物(PM2.5),84,101,59,62,31,89,,97,81,18,19,3,2,0.4,0.3
2025-03-15T1200,2410A,115.6293,34.3948,商丘市,睢阳区环保局,细颗粒物(PM2.5),85,110,61,63,29,77,,82,69,12,14,3,3,0.4,0.3
2025-03-15T1200,3171A,115.6071,34.4465,商丘市,梁园区档案局,细颗粒物(PM2.5),89,101,64,66,33,75,,59,56,11,17,3,3,0.8,0.5
2025-03-15T1200,1141A,121.4,31.238,上海市,普陀,,27,25,30,10,9,84,,84,84,19,26,5,5,0.5,0.6
2025-03-15T1200,1142A,121.478,31.2036,上海市,十五厂,,,,29,,11,,,86,86,20,27,6,6,0.5,0.5
2025-03-15T1200,1143A,121.467,31.3008,上海市,虹口,,27,25,29,9,7,85,,88,87,29,35,8,9,0.5,0.5
2025-03-15T1200,1147A,121.425,31.2261,上海市,静安监测站,,25,25,27,14,10,80,,82,82,23,24,6,6,0.6,0.6
2025-03-15T1200,1148A,121.703,31.1907,上海市,浦东川沙,,,26,26,16,11,,,88,88,15,20,6,7,0.5,0.5
2025-03-15T1200,1149A,121.533,31.2284,上海市,浦东新区监测站,,25,23,26,15,10,78,,82,82,32,34,6,6,0.4,0.4
