timepoint,stationcode,longitude,latitude,area,positionname,primarypollutant,aqi,pm10,pm10_24h,pm2_5,pm2_5_24h,o3,o3_24h,o3_8h,o3_8h_24h,no2,no2_24h,so2,so2_24h,co,co_24h
2024-02-12T1400,2566A,102.1879,31.914,阿坝藏族羌族自治州,州农科所,,10,10,17,6,8,27,,17,17,2,7,6,7,0.8,0.9
2024-02-12T1400,2568A,102.2502,31.8896,阿坝藏族羌族自治州,马师校,,25,5,10,4,8,79,,54,54,1,4,3,3,0.5,0.5
2024-02-12T1400,3994A,102.2165,31.9024,阿坝藏族羌族自治州,马尔康中学西区,,24,,9,4,7,76,,53,53,1,2,5,5,0.4,0.4
2024-02-12T1400,2695A,80.292,41.1694,阿克苏地区,电视台,颗粒物(PM10),52,54,60,25,30,67,,46,46,14,23,9,8,0.6,0.8
2024-02-12T1400,2696A,80.2613,41.1551,阿克苏地区,艺术中心,,,55,83,28,46,66,,48,48,21,32,,12,0.8,1.3
2024-02-12T1400,2204A,105.6467,38.8363,阿拉善盟,西城区西花园,,28,21,34,10,17,87,,87,85,2,4,9,9,0.4,0.4
2024-02-12T1400,2205A,105.6985,38.8411,阿拉善盟,蒙二幼,,32,32,34,11,12,83,,82,79,4,7,6,6,0.4,0.5
2024-02-12T1400,2206A,105.724,38.8516,阿拉善盟,环保局新楼,,28,28,25,13,8,84,,88,84,6,6,6,6,0.5,0.5
2024-02-12T1400,2708A,88.1264,47.8517,阿勒泰地区,市站,,23,17,26,16,14,69,,91,75,16,16,5,5,0.2,0.3
2024-02-12T1400,2630A,80.1161,32.5,阿里地区,阿里监测站,,23,12,14,4,5,73,,54,54,6,9,21,19,0.4,0.5
2024-02-12T1400,3192A,80.0903,32.5028,阿里地区,阿里藏医院,,25,9,11,4,5,80,,59,59,2,7,8,10,0.4,0.5
2024-02-12T1400,2642A,109.0318,32.6537,安康市,香溪洞,颗粒物(PM10),60,69,59,39,44,73,,53,44,6,6,12,9,0.6,0.6
2024-02-12T1400,2643A,109.0281,32.6939,安康市,安康市监测站,"颗粒物(PM10),细颗粒物(PM2.5)",54,57,80,38,57,72,,36,36,8,19,11,12,0.7,0.9
2024-02-12T1400,2644A,109.0072,32.6975,安康市,汉滨区检察院,细颗粒物(PM2.5),64,66,65,46,51,74,,40,40,8,10,10,10,0.6,0.6
2024-02-12T1400,2291A,117.0809,30.5177,安庆市,环科院,颗粒物(PM10),61,72,101,42,57,108,,61,61,5,31,11,10,0.7,0.7
2024-02-12T1400,2292A,117.0331,30.5119,安庆市,马山宾馆,颗粒物(PM10),60,70,103,38,57,112,,66,66,17,34,8,8,0.5,0.5
2024-02-12T1400,2294A,116.9896,30.6145,安庆市,安庆大学,,,69,102,36,56,111,,81,81,,19,9,10,0.5,0.7
2024-02-12T1400,3173A,117.0598,30.5351,安庆市,市人大,细颗粒物(PM2.5),58,63,104,41,57,112,,71,71,10,26,9,8,0.5,0.7
2024-02-12T1400,3123A,105.9408,26.2431,安顺市,凤凰山,,36,30,24,25,16,84,,87,84,4,5,13,13,0.4,0.2
2024-02-12T1400,3124A,105.9439,26.2564,安顺市,金钟山,,36,35,25,25,15,82,,84,82,4,5,16,17,0.4,0.3
2024-02-12T1400,3125A,105.8983,26.2481,安顺市,娄家坡,,40,36,22,28,18,85,,85,82,3,2,12,10,0.6,0.4
2024-02-12T1400,1819A,114.3551,36.1017,安阳市,红庙街,颗粒物(PM10),84,118,128,56,65,100,,54,54,9,16,11,10,0.8,0.8
2024-02-12T1400,1820A,114.361,36.0681,安阳市,银杏小区,细颗粒物(PM2.5),108,122,133,81,73,97,,51,51,6,15,12,9,0.9,0.9
2024-02-12T1400,3141A,114.3922,36.0878,安阳市,信访局,细颗粒物(PM2.5),94,136,139,70,71,102,,61,61,9,9,12,8,0.6,0.5
2024-02-12T1400,3669A,114.4705,36.0637,安阳市,左辅环卫站,细颗粒物(PM2.5),100,130,145,75,77,94,,56,56,10,10,15,9,0.8,0.8
2024-02-12T1400,3703A,114.2917,36.0949,安阳市,安钢职工学校,颗粒物(PM10),115,179,143,73,73,97,,50,50,25,30,14,13,0.8,0.9
2024-02-12T1400,1748A,123.044,41.1196,鞍山市,深沟寺,细颗粒物(PM2.5),94,112,48,70,29,107,,96,96,9,12,13,11,0.6,0.6
2024-02-12T1400,1749A,123.011,41.0931,鞍山市,太阳城,细颗粒物(PM2.5),77,92,54,56,29,108,,98,98,10,14,16,14,0.6,0.7
2024-02-12T1400,1750A,123.0485,41.1442,鞍山市,太平,细颗粒物(PM2.5),102,124,62,76,37,101,,91,91,11,18,9,11,0.7,0.9
2024-02-12T1400,1751A,122.9642,41.0971,鞍山市,铁西三道街,细颗粒物(PM2.5),105,150,100,79,58,94,,78,78,25,36,18,17,0.7,1.1
2024-02-12T1400,1752A,122.9341,41.0833,鞍山市,铁西工业园区,细颗粒物(PM2.5),93,122,73,69,38,101,,88,88,14,28,17,11,1.2,1.3
2024-02-12T1400,1753A,123.022,41.0821,鞍山市,明达新区,细颗粒物(PM2.5),82,73,58,60,35,96,,89,89,15,17,29,18,0.7,0.8
2024-02-12T1400,2195A,107.4212,40.761,巴彦淖尔市,附二中,颗粒物(PM10),58,66,53,17,21,81,,68,68,2,7,2,4,0.4,0.4
2024-02-12T1400,2196A,107.37,40.7372,巴彦淖尔市,市环保大楼,颗粒物(PM10),58,66,59,12,21,82,,66,66,2,5,4,5,0.3,0.4
2024-02-12T1400,1956A,86.1472,41.7538,巴音郭楞蒙古自治州,孔雀公园,颗粒物(PM10),80,109,86,48,32,77,,24,24,9,41,6,6,0.6,0.8
2024-02-12T1400,1957A,86.1972,41.7166,巴音郭楞蒙古自治州,棉纺厂,颗粒物(PM10),89,127,109,22,23,83,,56,49,7,11,4,3,0.4,0.4
2024-02-12T1400,1958A,86.2357,41.7173,巴音郭楞蒙古自治州,经济开发区,颗粒物(PM10),69,87,105,20,26,86,,50,45,9,19,6,5,0.4,0.4
2024-02-12T1400,2914A,106.7677,31.8794,巴中市,苏山坪,,50,49,42,35,31,87,,86,73,8,7,5,5,0.4,0.4
2024-02-12T1400,3182A,106.7656,31.8545,巴中市,丽阳花园,细颗粒物(PM2.5),59,55,69,42,54,70,,30,30,21,27,5,5,0.7,0.9
2024-02-12T1400,3183A,106.7418,31.8654,巴中市,圣泉水务公司,,50,46,52,35,41,82,,46,46,11,18,6,5,0.6,0.7
2024-02-12T1400,3616A,106.7616,31.8344,巴中市,市中心医院,,46,44,69,32,57,84,,32,32,6,22,6,6,0.5,0.8
2024-02-12T1400,2235A,122.7911,45.6077,白城市,洮北区环保局,颗粒物(PM10),106,162,56,13,16,103,,84,84,7,7,4,4,0.3,0.3
2024-02-12T1400,2236A,122.8738,45.5725,白城市,市环保局,颗粒物(PM10),105,160,57,20,20,83,,73,73,5,6,6,7,0.4,0.4
2024-02-12T1400,2231A,126.4219,41.9171,白山市,喜丰,,37,37,74,19,46,90,,66,66,5,18,12,22,0.9,1.3
2024-02-12T1400,2232A,126.4077,41.9419,白山市,环保局,,50,50,130,19,78,92,,59,59,7,28,10,21,0.9,1.3
2024-02-12T1400,2647A,104.1724,36.5446,白银市,第三小学,,49,49,92,32,46,70,,42,42,15,29,27,51,0.7,0.9
2024-02-12T1400,2648A,104.1465,36.5482,白银市,动力公司,颗粒物(PM10),53,55,66,32,41,76,,51,51,14,18,26,30,0.8,0.9
2024-02-12T1400,2512A,106.6103,23.9011,百色市,市监测站,颗粒物(PM10),68,85,65,47,41,114,,59,59,10,11,28,15,0.8,0.8
2024-02-12T1400,2513A,106.6538,23.8859,百色市,市中心血站,颗粒物(PM10),60,69,57,33,43,110,,55,55,8,14,18,16,0.5,0.6
2024-02-12T1400,3406A,106.6085,23.8798,百色市,祈福高中,细颗粒物(PM2.5),60,68,46,43,37,113,,53,53,8,11,26,15,0.8,0.7
2024-02-12T1400,2270A,117.396,32.939,蚌埠市,工人疗养院,颗粒物(PM10),54,58,89,26,44,108,,94,94,3,6,6,8,0.5,0.5
2024-02-12T1400,2271A,117.3605,32.9427,蚌埠市,百货大楼,颗粒物(PM10),55,60,95,27,47,108,,94,94,8,14,4,5,0.7,0.7
2024-02-12T1400,2273A,117.4185,32.8911,蚌埠市,蚌埠学院,颗粒物(PM10),59,68,92,31,46,108,,91,91,6,8,6,6,0.6,0.6
2024-02-12T1400,2274A,117.3533,32.9673,蚌埠市,淮上区政府,颗粒物(PM10),56,61,96,27,47,106,,93,93,4,11,6,7,0.6,0.6
2024-02-12T1400,2275A,117.3145,32.8977,蚌埠市,高新区,颗粒物(PM10),52,53,94,28,48,111,,94,94,7,10,6,7,0.6,0.6
2024-02-12T1400,3715A,117.3092,32.9314,蚌埠市,蚌埠田家炳中学,颗粒物(PM10),57,63,99,31,49,110,,91,91,9,12,7,8,0.4,0.5
2024-02-12T1400,1585A,109.8756,40.6532,包头市,市环境监测站,细颗粒物(PM2.5),102,126,123,76,95,87,,38,38,26,44,33,25,,1.6
2024-02-12T1400,1587A,109.9991,40.5842,包头市,包头八中,颗粒物(PM10),74,98,125,39,94,91,,41,41,18,41,18,28,0.9,1.5
2024-02-12T1400,1588A,109.8538,40.6821,包头市,青山宾馆,细颗粒物(PM2.5),85,90,124,63,98,85,,39,39,37,49,38,22,2.0,1.8
2024-02-12T1400,1589A,109.8642,40.6288,包头市,惠龙物流,细颗粒物(PM2.5),83,91,119,61,82,90,,51,51,19,38,29,23,0.9,1.2
2024-02-12T1400,1590A,110.0377,40.5546,包头市,东河鸿龙湾,颗粒物(PM10),73,95,113,42,83,90,,46,46,16,41,18,17,0.8,1.4
2024-02-12T1400,3283A,109.9154,40.5685,包头市,滨河大厦,细颗粒物(PM2.5),63,70,111,45,85,100,,52,52,11,32,17,16,0.8,1.3
2024-02-12T1400,3419A,109.9447,40.6261,包头市,包头市委党校,颗粒物(PM10),74,98,104,49,73,85,,45,45,23,37,36,30,1.0,1.2
2024-02-12T1400,3683A,109.8331,40.6576,包头市,昆区政府,细颗粒物(PM2.5),99,83,135,74,114,89,,40,40,27,48,32,28,1.2,1.7
2024-02-12T1400,1930A,107.185,34.3063,宝鸡市,庙沟村,细颗粒物(PM2.5),82,103,103,60,48,92,,73,73,12,8,10,6,0.8,0.6
2024-02-12T1400,1931A,107.0708,34.3017,宝鸡市,竹园沟,颗粒物(PM10),81,111,94,49,51,103,,59,59,20,19,9,6,0.6,0.6
2024-02-12T1400,1932A,107.1906,34.3672,宝鸡市,三陆医院,颗粒物(PM10),91,132,121,54,68,113,,64,64,18,24,13,7,0.7,0.7
2024-02-12T1400,1933A,107.1431,34.3547,宝鸡市,监测站,细颗粒物(PM2.5),79,99,109,58,59,104,,57,57,16,20,8,6,0.6,0.6
2024-02-12T1400,1934A,107.1186,34.3739,宝鸡市,技工学校,颗粒物(PM10),89,128,124,61,68,108,,59,59,21,24,12,8,0.7,0.7
2024-02-12T1400,1935A,107.3906,34.3528,宝鸡市,陈仓区环保局家属楼,颗粒物(PM10),81,112,164,38,102,119,,66,66,18,40,12,34,0.7,1
2024-02-12T1400,1936A,107.2058,34.3497,宝鸡市,文理学院,颗粒物(PM10),84,118,128,60,68,112,,63,63,19,26,13,9,0.7,0.7
2024-02-12T1400,1937A,107.2386,34.3622,宝鸡市,三迪小学,颗粒物(PM10),93,135,127,61,72,107,,57,57,21,28,16,10,0.7,0.7
2024-02-12T1400,1051A,115.493,38.8632,保定市,游泳馆,细颗粒物(PM2.5),92,103,126,68,83,101,,61,61,12,34,10,7,0.9,1.1
2024-02-12T1400,1052A,115.5213,38.8959,保定市,华电二区,细颗粒物(PM2.5),99,85,84,74,71,96,,57,57,8,15,7,7,0.6,0.5
2024-02-12T1400,1053A,115.4713,38.9108,保定市,接待中心,细颗粒物(PM2.5),85,86,87,63,65,87,,53,53,11,15,9,7,0.8,0.7
2024-02-12T1400,1054A,115.4612,38.8416,保定市,地表水厂,细颗粒物(PM2.5),99,114,121,74,80,96,,51,51,14,34,8,6,1.2,1.1
2024-02-12T1400,3581A,115.31981,38.95208,保定市,满城区生态环境分局,细颗粒物(PM2.5),87,92,101,64,72,98,,49,49,12,35,9,8,0.6,1
2024-02-12T1400,3582A,115.47694,38.76408,保定市,清苑区第二中学,细颗粒物(PM2.5),88,121,117,65,66,98,,56,56,15,19,12,11,0.8,0.7
2024-02-12T1400,3583A,115.62909,39.02311,保定市,徐水物探局,细颗粒物(PM2.5),125,151,123,95,83,109,,58,58,20,33,10,7,0.6,0.7
2024-02-12T1400,4004A,115.4202,38.8656,保定市,双鹰农机,颗粒物(PM10),65,80,86,40,62,100,,55,55,19,26,9,6,0.7,0.7
2024-02-12T1400,4034A,115.5150,38.8590,保定市,植保所站,细颗粒物(PM2.5),79,79,97,58,84,102,,59,59,14,34,7,7,0.7,0.7
2024-02-12T1400,2594A,99.1678,25.1081,保山市,市环境监测站,,38,38,50,5,29,103,,54,54,4,8,5,6,0.4,0.6
2024-02-12T1400,2595A,99.1711,25.1328,保山市,市环保局,,48,48,49,29,27,103,,63,63,3,5,7,8,0.4,0.5
2024-02-12T1400,1867A,109.1436,21.4086,北海市,海滩公园,颗粒物(PM10),55,59,71,37,45,123,,92,92,9,17,11,11,0.5,0.8
2024-02-12T1400,1868A,109.0981,21.4661,北海市,新市环保局,颗粒物(PM10),51,51,61,29,47,120,,84,84,8,16,8,9,0.4,0.5
2024-02-12T1400,1869A,109.1778,21.5233,北海市,北海工业园,颗粒物(PM10),54,57,68,29,53,120,,93,93,6,12,9,10,0.3,0.5
2024-02-12T1400,3400A,109.1911,21.4415,北海市,龙潭自来水厂,,49,49,61,29,49,119,,78,78,6,12,8,8,0.5,0.5
2024-02-12T1400,1001A,116.3621,39.8784,北京市,万寿西宫,细颗粒物(PM2.5),160,158,96,122,71,83,,48,48,40,50,8,4,0.8,0.6
2024-02-12T1400,1002A,116.2202,40.2915,北京市,定陵,细颗粒物(PM2.5),82,80,47,60,34,87,,59,59,12,11,5,2,0.5,0.4
2024-02-12T1400,1003A,116.4174,39.9289,北京市,东四,细颗粒物(PM2.5),162,163,101,123,74,84,,47,47,28,39,10,6,0.9,0.9
2024-02-12T1400,1004A,116.4072,39.8863,北京市,天坛,细颗粒物(PM2.5),162,163,95,123,75,85,,44,44,37,40,8,3,0.9,0.7
2024-02-12T1400,1005A,116.462,39.9365,北京市,农展馆,细颗粒物(PM2.5),158,155,100,120,75,86,,46,46,28,42,9,4,0.9,0.7
2024-02-12T1400,1006A,116.3392,39.9295,北京市,官园,细颗粒物(PM2.5),144,147,89,110,64,95,,61,61,28,35,8,4,0.7,0.6
2024-02-12T1400,1007A,116.2878,39.9611,北京市,海淀万柳,细颗粒物(PM2.5),122,128,76,92,53,96,,47,47,25,39,6,3,0.6,0.5
2024-02-12T1400,1008A,116.6636,40.135,北京市,顺义新城,细颗粒物(PM2.5),130,127,77,99,58,104,,64,64,16,25,6,3,0.7,0.5
2024-02-12T1400,1009A,116.6275,40.3275,北京市,怀柔镇,细颗粒物(PM2.5),107,110,66,80,46,101,,57,57,13,18,10,5,0.7,0.6
2024-02-12T1400,1010A,116.2296,40.217,北京市,昌平镇,细颗粒物(PM2.5),110,118,58,83,38,102,,66,66,19,18,1,3,0.6,0.4
2024-02-12T1400,1011A,116.3966,39.9821,北京市,奥体中心,细颗粒物(PM2.5),140,123,79,107,63,92,,57,57,29,32,10,6,0.8,0.6
2024-02-12T1400,1012A,116.184,39.9136,北京市,古城,细颗粒物(PM2.5),104,116,71,78,48,95,,50,50,15,24,5,2,0.7,0.6
2024-02-12T1400,3281A,115.9718,40.4529,北京市,延庆夏都,细颗粒物(PM2.5),73,70,61,53,42,84,,46,46,9,16,9,4,0.5,0.7
2024-02-12T1400,3417A,117.0709,40.1465,北京市,平谷新城,细颗粒物(PM2.5),135,147,97,103,71,116,,65,65,9,10,10,3,1.0,0.6
2024-02-12T1400,3418A,116.8336,40.4095,北京市,密云新城,细颗粒物(PM2.5),95,99,64,71,42,107,,59,59,13,16,6,3,0.5,0.4
2024-02-12T1400,3672A,116.1541,39.8204,北京市,丰台云岗,细颗粒物(PM2.5),124,120,74,94,51,94,,65,65,26,18,6,3,0.7,0.4
2024-02-12T1400,3673A,116.6804,39.9081,北京市,通州东关,细颗粒物(PM2.5),183,184,136,138,105,104,,52,52,20,28,11,6,1.0,0.8
2024-02-12T1400,3674A,115.9577,39.7603,北京市,房山燕山,细颗粒物(PM2.5),77,76,52,56,42,107,,69,69,23,14,2,3,0.5,0.4
2024-02-12T1400,3675A,116.4672,39.7733,北京市,大兴旧宫,细颗粒物(PM2.5),201,184,116,151,97,89,,42,42,26,31,6,3,0.7,0.5
2024-02-12T1400,3694A,115.986,40.4563,北京市,延庆石河营,细颗粒物(PM2.5),74,72,64,54,46,89,,48,48,10,17,8,5,0.6,0.7
2024-02-12T1400,3695A,116.6151,40.3053,北京市,怀柔新城,细颗粒物(PM2.5),104,107,63,78,46,102,,62,62,15,16,6,3,0.6,0.5
2024-02-12T1400,3696A,116.2545,39.8768,北京市,丰台小屯,细颗粒物(PM2.5),137,144,105,104,73,88,,46,46,36,48,6,3,0.8,0.7
2024-02-12T1400,3697A,116.84,40.3844,北京市,密云镇,细颗粒物(PM2.5),109,113,84,82,64,96,,52,52,15,26,3,3,0.6,0.5
2024-02-12T1400,1761A,123.8275,41.3064,本溪市,大峪,细颗粒物(PM2.5),84,75,55,62,29,99,,78,78,12,26,11,12,0.9,1.2
2024-02-12T1400,1762A,123.7567,41.3325,本溪市,溪湖,,,95,81,51,47,,,73,73,11,27,28,25,,1.2
2024-02-12T1400,1763A,123.7169,41.3094,本溪市,彩屯,细颗粒物(PM2.5),79,97,77,58,53,78,,60,60,32,41,36,26,2.0,2.4
2024-02-12T1400,1764A,123.7669,41.2864,本溪市,东明,细颗粒物(PM2.5),80,63,114,59,74,89,,82,82,13,33,24,19,0.4,0.8
2024-02-12T1400,1765A,123.7992,41.2664,本溪市,新立屯,颗粒物(PM10),54,58,55,32,41,101,,92,92,12,21,16,15,0.6,0.7
2024-02-12T1400,1766A,123.8142,41.3472,本溪市,威宁,细颗粒物(PM2.5),59,62,73,42,39,94,,64,64,13,30,22,10,0.7,0.9
2024-02-12T1400,2587A,105.2864,27.3125,毕节市,八中,,50,45,48,35,39,90,,58,58,10,10,24,12,0.5,0.5
2024-02-12T1400,2588A,105.31,27.2944,毕节市,师专,,48,41,39,33,30,88,,54,54,10,10,28,11,0.6,0.5
2024-02-12T1400,3537A,105.3631,27.3533,毕节市,长征村,细颗粒物(PM2.5),54,50,40,38,30,102,,77,77,6,6,10,11,0.8,0.7
2024-02-12T1400,1629A,118.0018,37.3617,滨州市,第二水厂,颗粒物(PM10),73,95,141,40,82,113,,84,84,12,22,10,17,0.8,1.1
2024-02-12T1400,1630A,117.9776,37.393,滨州市,北中新校,颗粒物(PM10),79,107,148,50,84,115,,88,88,10,22,12,21,0.8,1
2024-02-12T1400,3514A,117.9378,37.3956,滨州市,中海酒店,颗粒物(PM10),75,99,132,52,85,115,,92,92,14,20,18,21,0.8,0.9
2024-02-12T1400,3515A,117.9378,37.3553,滨州市,开发区一中,颗粒物(PM10),78,106,152,48,91,114,,86,86,12,21,17,26,0.5,0.8
2024-02-12T1400,3516A,118.0917,37.694,滨州市,金海六路,颗粒物(PM10),86,122,165,47,99,118,,79,79,6,25,13,27,0.6,1
2024-02-12T1400,4028A,117.9956,37.3753,滨州市,滨州市西街道办事处,颗粒物(PM10),79,108,150,44,86,110,,82,82,12,23,16,21,0.7,1
2024-02-12T1400,2311A,115.8072,33.8399,亳州市,污水处理厂,颗粒物(PM10),63,76,116,32,51,110,,88,88,8,8,7,7,0.6,0.6
2024-02-12T1400,2312A,115.7789,33.8518,亳州市,三国揽胜宫,颗粒物(PM10),69,88,128,29,46,112,,90,90,8,9,10,8,0.6,0.7
2024-02-12T1400,3332A,115.7633,33.8034,亳州市,亳州学院,颗粒物(PM10),61,72,119,36,50,111,,86,86,5,7,7,6,0.9,0.8
2024-02-12T1400,2693A,82.0485,44.8556,博尔塔拉蒙古自治州,市党校,颗粒物(PM10),55,60,128,24,88,84,,80,80,10,20,10,12,0.4,1.1
2024-02-12T1400,2694A,82.0806,44.8969,博尔塔拉蒙古自治州,市环保局,颗粒物(PM10),56,61,129,20,78,74,,53,53,10,36,9,13,0.4,1.6
2024-02-12T1400,1071A,116.8842,38.2991,沧州市,沧县城建局,,,128,138,56,97,100,,78,75,28,36,9,14,,1.5
2024-02-12T1400,1072A,116.8584,38.3254,沧州市,电视转播站,细颗粒物(PM2.5),100,131,138,75,95,100,,78,76,5,12,18,23,0.6,0.8
2024-02-12T1400,1073A,116.8709,38.3228,沧州市,市环保局,细颗粒物(PM2.5),107,152,141,80,97,97,,75,72,12,16,10,16,0.7,0.8
2024-02-12T1400,3324A,116.8136,38.3004,沧州市,河北水利电力学院,颗粒物(PM10),101,151,151,73,95,99,,78,74,9,12,15,22,0.5,0.8
2024-02-12T1400,2622A,97.1806,31.1273,昌都市,昌都监测站,,23,14,25,0,12,72,,52,52,2,12,6,7,0.1,0.3
2024-02-12T1400,3719A,97.1714,31.1406,昌都市,昌都会议中心,,27,4,10,2,10,85,,64,64,2,4,4,4,0.2,0.3
2024-02-12T1400,2690A,88.1236,43.8886,昌吉回族自治州,天山天池,,30,30,13,14,7,95,,85,85,9,5,10,9,0.7,0.5
2024-02-12T1400,2692A,87.2717,44.0297,昌吉回族自治州,新区政务中心,细颗粒物(PM2.5),103,,195,77,151,100,,109,107,10,23,8,5,0.9,1.9
2024-02-12T1400,3613A,87.3095,44.0142,昌吉回族自治州,亚心广场,颗粒物(PM10),65,80,210,36,172,95,,109,106,15,24,11,9,0.7,1.7
2024-02-12T1400,1119A,125.3325,43.9166,长春市,食品厂,颗粒物(PM10),88,126,53,64,32,115,,88,88,14,18,17,17,0.5,0.4
2024-02-12T1400,1120A,125.2863,43.9027,长春市,客车厂,颗粒物(PM10),88,125,51,61,34,111,,79,79,13,19,14,19,0.7,0.5
2024-02-12T1400,1121A,125.2841,43.8463,长春市,邮电学院,颗粒物(PM10),90,129,52,46,33,118,,83,83,10,15,15,18,0.6,0.5
2024-02-12T1400,1122A,125.3716,43.8772,长春市,劳动公园,颗粒物(PM10),76,102,50,45,33,102,,81,81,16,23,10,10,0.6,0.5
2024-02-12T1400,1123A,125.3297,43.8805,长春市,园林处,细颗粒物(PM2.5),79,105,46,58,26,123,,94,94,10,14,13,15,0.8,0.7
2024-02-12T1400,1124A,125.4605,43.79,长春市,净月潭,,,52,40,35,27,,,85,,,2,9,8,0.5,0.5
2024-02-12T1400,1126A,125.3863,43.8447,长春市,经开区环卫处,颗粒物(PM10),67,83,51,42,33,116,,90,90,8,11,8,10,0.5,0.4
2024-02-12T1400,1127A,125.245,43.7783,长春市,高新区管委会,颗粒物(PM10),76,102,55,55,40,122,,93,93,9,12,14,9,0.7,0.6
2024-02-12T1400,1128A,125.1761,43.8325,长春市,岱山公园,颗粒物(PM10),73,96,46,52,32,119,,93,93,10,10,10,7,0.7,0.5
2024-02-12T1400,1335A,113.0833,28.2325,长沙市,经开区环保局,颗粒物(PM10),56,62,91,37,59,94,,76,76,2,7,5,6,0.5,0.6
2024-02-12T1400,1336A,112.8872,28.2189,长沙市,高开区环保局,细颗粒物(PM2.5),70,63,102,51,74,88,,76,76,4,14,5,6,0.8,1
2024-02-12T1400,1337A,113.0792,28.2053,长沙市,马坡岭,细颗粒物(PM2.5),69,60,130,50,90,85,,65,65,2,11,7,8,0.5,0.7
2024-02-12T1400,1338A,112.9394,28.19,长沙市,湖南师范大学,细颗粒物(PM2.5),68,80,84,49,58,83,,64,64,8,10,8,7,0.9,0.8
2024-02-12T1400,1339A,113.0178,28.1322,长沙市,雨花区环保局,细颗粒物(PM2.5),59,59,79,42,60,83,,76,73,2,4,4,5,0.7,0.7
2024-02-12T1400,1340A,112.9792,28.2597,长沙市,伍家岭,颗粒物(PM10),59,68,165,39,117,78,,35,35,9,25,6,6,0.7,1
2024-02-12T1400,1341A,113.0014,28.1944,长沙市,火车新站,颗粒物(PM10),57,64,152,36,105,82,,60,60,4,30,4,5,0.7,1.1
2024-02-12T1400,1342A,112.9844,28.1178,长沙市,天心区环保局,颗粒物(PM10),59,68,80,34,51,92,,77,70,2,6,6,7,0.4,0.4
2024-02-12T1400,1343A,112.8908,28.1308,长沙市,湖南中医药大学,细颗粒物(PM2.5),68,69,112,49,81,89,,50,50,8,23,6,6,0.8,0.9
2024-02-12T1400,1344A,112.9581,28.3611,长沙市,沙坪,,49,46,63,34,51,59,,45,43,6,3,6,6,0.6,0.7
2024-02-12T1400,1727A,113.1147,36.1547,长治市,清华站,颗粒物(PM10),70,90,62,44,30,96,,46,46,19,20,29,22,0.9,0.7
2024-02-12T1400,1728A,113.1031,36.1989,长治市,监测站,颗粒物(PM10),83,116,89,53,43,97,,48,48,29,31,34,29,0.8,0.8
2024-02-12T1400,1730A,113.0886,36.2125,长治市,审计局,细颗粒物(PM2.5),77,87,68,56,41,101,,47,47,20,25,40,31,1.0,1.2
2024-02-12T1400,1731A,113.0844,36.1856,长治市,长治八中,细颗粒物(PM2.5),90,98,81,67,45,84,,48,48,34,29,26,23,0.8,1
2024-02-12T1400,2845A,113.1569,36.1911,长治市,德盛苑,颗粒物(PM10),65,80,53,41,26,103,,63,58,14,16,20,23,0.9,0.8
2024-02-12T1400,3568A,113.06,36.0464,长治市,向阳小学,颗粒物(PM10),57,63,70,29,31,110,,69,68,15,20,17,27,0.6,0.7
2024-02-12T1400,3569A,112.8792,36.3144,长治市,屯留一中,颗粒物(PM10),52,54,62,27,29,101,,66,66,5,16,16,20,0.6,0.7
2024-02-12T1400,3570A,113.235,36.3489,长治市,潞城四中,颗粒物(PM10),80,109,87,55,44,110,,62,62,18,29,24,17,0.9,1
2024-02-12T1400,1854A,111.6975,28.9703,常德市,市二中,细颗粒物(PM2.5),89,,99,66,86,92,,46,46,13,13,8,8,0.8,0.9
2024-02-12T1400,1857A,111.7158,29.1456,常德市,白鹤山,细颗粒物(PM2.5),82,109,121,60,69,67,,32,32,3,3,3,3,0.7,0.8
2024-02-12T1400,3138A,111.7153,29.0289,常德市,武陵区永安,细颗粒物(PM2.5),94,90,116,70,92,88,,46,46,11,10,8,8,1.2,1.2
2024-02-12T1400,3139A,111.6892,28.9881,常德市,鼎城区玉霞,细颗粒物(PM2.5),93,79,111,69,90,92,,42,42,12,16,9,9,0.8,1
2024-02-12T1400,3140A,111.6625,29.0531,常德市,武陵区长庚,细颗粒物(PM2.5),84,84,120,62,89,92,,50,50,6,12,7,6,0.9,1
2024-02-12T1400,1196A,119.9633,31.762,常州市,市监测站,细颗粒物(PM2.5),59,65,116,42,76,117,,94,94,4,15,8,9,0.6,0.8
2024-02-12T1400,1200A,119.9468,31.7069,常州市,武进监测站,颗粒物(PM10),55,60,98,30,65,112,,93,93,6,12,7,8,0.6,0.8
2024-02-12T1400,1201A,119.9255,31.9087,常州市,安家,颗粒物(PM10),54,57,99,36,69,117,,93,93,7,14,8,9,0.6,0.8
2024-02-12T1400,3002A,119.9805,31.8174,常州市,行政中心,颗粒物(PM10),53,56,90,36,63,110,,92,92,5,13,8,10,0.8,1.1
2024-02-12T1400,3003A,120.0522,31.7748,常州市,经开区,颗粒物(PM10),51,51,103,33,68,114,,86,86,7,15,10,12,1.2,1.1
2024-02-12T1400,3010A,119.9025,31.7964,常州市,钟楼,颗粒物(PM10),51,52,97,29,69,113,,94,94,5,16,7,9,0.7,0.9
2024-02-12T1400,3429A,119.8598,31.7066,常州市,武进经发区,颗粒物(PM10),60,70,109,41,73,115,,97,96,5,9,6,8,1.2,1.3
2024-02-12T1400,3430A,119.5826,31.7245,常州市,金坛城区,颗粒物(PM10),58,66,105,29,66,115,,92,92,7,10,11,11,0.9,0.8
2024-02-12T1400,2220A,120.4318,41.5881,朝阳市,西梁,颗粒物(PM10),100,149,74,56,39,130,,98,98,10,14,17,18,1.0,1
2024-02-12T1400,2221A,120.4521,41.5646,朝阳市,河畔小区,颗粒物(PM10),97,143,68,63,39,126,,88,88,9,12,10,11,1.0,0.9
2024-02-12T1400,2222A,120.4176,41.5648,朝阳市,八里堡,颗粒物(PM10),97,144,75,54,37,122,,88,88,11,13,16,16,1.1,1
2024-02-12T1400,2223A,120.3806,41.5969,朝阳市,农业园区,颗粒物(PM10),103,156,73,58,45,123,,88,88,10,12,12,15,0.7,0.7
2024-02-12T1400,1705A,116.6367,23.6719,潮州市,西园路,,36,36,58,9,40,97,,63,63,5,8,4,4,0.2,0.3
2024-02-12T1400,3026A,116.6183,23.6608,潮州市,市政府,,39,39,50,18,35,100,,66,66,6,10,5,6,0.4,0.5
2024-02-12T1400,4036A,116.6461,23.6761,潮州市,金山,,38,38,53,16,42,96,,60,60,5,9,6,6,0.3,0.5
2024-02-12T1400,2472A,113.0073,25.9061,郴州市,马头岭,,31,31,48,10,22,84,,50,50,5,8,6,7,0.2,0.3
2024-02-12T1400,2473A,113.0116,25.8226,郴州市,市职中,,33,33,53,23,45,82,,42,42,6,8,5,5,0.4,0.8
2024-02-12T1400,2474A,113.0161,25.8001,郴州市,兴隆步行街,,42,42,84,25,66,82,,36,36,5,18,4,5,0.4,0.7
2024-02-12T1400,2475A,113.0383,25.8071,郴州市,市审计局,,32,30,73,22,60,82,,38,38,5,16,5,5,0.3,0.8
2024-02-12T1400,2476A,113.0348,25.7759,郴州市,市环保局,,37,37,69,19,56,83,,36,36,6,17,4,5,0.3,0.5
2024-02-12T1400,1431A,103.9728,30.7236,成都市,金泉两河,细颗粒物(PM2.5),88,69,87,65,81,91,,38,38,9,22,2,2,0.6,0.9
2024-02-12T1400,1432A,104.176,30.6872,成都市,十里店,细颗粒物(PM2.5),90,72,93,67,86,110,,50,50,13,20,3,3,0.6,0.8
2024-02-12T1400,1433A,104.079,30.5706,成都市,三瓦窑,细颗粒物(PM2.5),78,80,92,57,71,106,,42,42,8,28,1,2,0.6,0.7
2024-02-12T1400,1434A,104.1114,30.63,成都市,沙河铺,细颗粒物(PM2.5),90,73,99,67,89,104,,39,39,14,28,4,4,0.7,0.8
2024-02-12T1400,1437A,104.0786,30.6531,成都市,君平街,细颗粒物(PM2.5),89,83,98,66,92,112,,51,51,15,33,6,6,0.6,0.8
2024-02-12T1400,1438A,103.613,31.0283,成都市,灵岩寺,细颗粒物(PM2.5),58,48,74,41,59,116,,97,79,13,14,3,2,0.7,0.8
2024-02-12T1400,2880A,104.0239,30.65639,成都市,大石西路,细颗粒物(PM2.5),94,72,99,70,87,113,,53,53,17,31,5,4,0.8,0.9
2024-02-12T1400,3136A,104.2725,30.5589,成都市,龙泉驿区区政府,细颗粒物(PM2.5),92,75,78,68,68,108,,66,66,11,12,2,2,0.8,0.8
2024-02-12T1400,3357A,104.0106,30.6931,成都市,金博路,细颗粒物(PM2.5),83,72,117,61,100,97,,40,40,14,31,2,3,0.8,0.9
2024-02-12T1400,3359A,104.0578,30.5225,成都市,华阳,细颗粒物(PM2.5),92,78,88,68,81,109,,49,49,2,19,3,2,0.8,0.9
2024-02-12T1400,3487A,104.2394,30.5319,成都市,车城东七路,细颗粒物(PM2.5),103,80,90,77,78,114,,69,69,8,16,2,2,0.7,0.8
2024-02-12T1400,3488A,104.3853,30.7453,成都市,青白江技师分院,,,72,92,57,74,118,,58,58,7,19,,8,0.7,0.9
2024-02-12T1400,3489A,104.0789,30.4072,成都市,科学城,细颗粒物(PM2.5),98,81,86,73,78,113,,56,56,2,11,4,4,0.8,0.9
2024-02-12T1400,4011A,103.8506,30.6947,成都市,光华大道三段,细颗粒物(PM2.5),74,75,102,54,83,78,,36,36,4,17,2,3,0.8,1
2024-02-12T1400,1062A,117.9531,40.9081,承德市,铁路,颗粒物(PM10),54,57,65,30,44,88,,38,38,16,28,15,18,0.7,1.1
2024-02-12T1400,1063A,117.9392,40.9763,承德市,中国银行,颗粒物(PM10),59,68,76,32,40,102,,51,51,12,27,17,15,0.7,0.9
2024-02-12T1400,1064A,117.9503,40.928,承德市,开发区,颗粒物(PM10),61,71,61,28,42,100,,46,46,15,26,14,13,0.7,0.9
2024-02-12T1400,1065A,117.8051,40.9655,承德市,文化中心,颗粒物(PM10),59,67,73,40,37,83,,40,40,16,28,23,21,1.0,0.9
2024-02-12T1400,1066A,117.9268,41.0026,承德市,离宫,颗粒物(PM10),53,56,44,29,30,90,,48,48,8,13,14,11,0.5,0.6
2024-02-12T1400,2314A,117.47,30.6618,池州市,池州学院,细颗粒物(PM2.5),59,65,80,42,42,100,,67,67,14,17,10,7,0.8,0.7
2024-02-12T1400,3237A,117.4918,30.6617,池州市,展览馆,颗粒物(PM10),56,62,78,28,41,100,,63,63,8,11,7,4,0.8,0.7
2024-02-12T1400,3333A,117.5627,30.695,池州市,第八中学,颗粒物(PM10),54,58,81,34,38,102,,76,76,10,12,4,8,0.5,0.5
2024-02-12T1400,3334A,117.5038,30.6243,池州市,第十二中学,颗粒物(PM10),59,67,78,35,41,103,,65,65,7,10,7,5,0.5,0.4
2024-02-12T1400,1744A,118.9233,42.2816,赤峰市,松山一中,颗粒物(PM10),59,67,39,13,16,94,,80,80,10,17,8,13,0.5,0.8
2024-02-12T1400,1745A,118.9576,42.2728,赤峰市,哈达街,颗粒物(PM10),55,59,42,19,30,89,,72,72,14,18,12,13,0.5,0.7
2024-02-12T1400,1746A,118.8788,42.2554,赤峰市,天义路,颗粒物(PM10),51,52,30,18,16,93,,81,81,7,10,6,7,0.3,0.4
2024-02-12T1400,3058A,119.2658,42.0353,赤峰市,银河街,颗粒物(PM10),107,163,60,33,32,101,,77,77,10,15,16,19,0.6,0.7
2024-02-12T1400,3286A,118.9359,42.3147,赤峰市,桥北物流园区,颗粒物(PM10),58,66,30,22,18,96,,80,80,7,10,10,10,0.4,0.8
2024-02-12T1400,2521A,107.3476,22.4136,崇左市,市环保局江州分局,,45,45,78,26,60,114,,68,68,4,11,8,9,0.2,0.4
2024-02-12T1400,2522A,107.3702,22.3707,崇左市,城南新区,,38,38,70,20,64,107,,64,64,5,13,7,8,0.1,0.4
2024-02-12T1400,2298A,118.3093,32.3153,滁州市,老年大学,颗粒物(PM10),60,69,123,39,68,114,,64,64,8,27,8,8,0.7,0.9
2024-02-12T1400,2299A,118.3244,32.2786,滁州市,人大宾馆,颗粒物(PM10),60,69,100,36,53,111,,70,70,12,29,7,8,0.6,0.8
2024-02-12T1400,3207A,118.3118,32.3038,滁州市,市政府原办公楼,颗粒物(PM10),56,61,102,33,63,113,,77,77,11,33,7,7,0.5,0.7
2024-02-12T1400,3331A,118.3267,32.2634,滁州市,图书馆,颗粒物(PM10),61,71,94,32,49,107,,76,76,11,21,8,9,0.7,0.8
2024-02-12T1400,2605A,101.5482,25.0441,楚雄彝族自治州,州环境监测站,,37,37,35,25,31,78,,47,46,4,6,5,6,0.7,0.8
2024-02-12T1400,2606A,101.538,25.0492,楚雄彝族自治州,市经济开发区,,36,28,38,25,34,72,,42,42,4,9,6,7,0.6,0.7
2024-02-12T1400,2548A,107.5277,31.2827,达州市,达州职业技术学院,,35,35,59,22,47,95,,50,50,5,16,9,9,0.3,0.5
2024-02-12T1400,2549A,107.5086,31.2186,达州市,市环境监测站,,49,49,66,31,45,73,,28,28,24,34,10,9,0.8,0.8
2024-02-12T1400,2550A,107.4988,31.2132,达州市,凤凰小区,,44,44,66,27,48,78,,35,35,16,35,9,9,0.6,0.8
2024-02-12T1400,2551A,107.5082,31.1986,达州市,达县机关宾馆,颗粒物(PM10),51,51,70,35,47,67,,29,29,30,43,7,7,0.8,1
2024-02-12T1400,2552A,107.4644,31.2124,达州市,市政中心,颗粒物(PM10),54,58,72,29,50,70,,30,30,30,44,20,13,1.5,1.3
2024-02-12T1400,2614A,100.1542,25.7054,大理白族自治州,大理市环境监测站,,,,39,,27,95,,81,79,4,5,,7,0.5,0.7
2024-02-12T1400,2615A,100.2171,25.5811,大理白族自治州,大理古城,,29,23,31,2,23,92,,91,85,6,9,6,6,0.6,0.7
2024-02-12T1400,1109A,121.612,38.9741,大连市,甘井子,细颗粒物(PM2.5),172,179,122,130,98,107,,77,77,16,25,10,13,1.0,0.8
2024-02-12T1400,1110A,121.565,38.9511,大连市,周水子,颗粒物(PM10),128,205,177,,201,104,,71,71,18,29,27,35,1.2,1.3
2024-02-12T1400,1111A,121.5637,38.8845,大连市,星海三站,细颗粒物(PM2.5),198,194,143,148,124,100,,82,82,17,24,9,14,1.6,1.2
2024-02-12T1400,1112A,121.6302,38.9117,大连市,青泥洼桥,细颗粒物(PM2.5),180,154,104,136,92,106,,80,80,17,28,15,20,1.4,1
2024-02-12T1400,1113A,121.6251,38.8638,大连市,傅家庄,细颗粒物(PM2.5),188,200,114,141,84,107,,92,92,13,15,14,15,1.4,1.1
2024-02-12T1400,1114A,121.5213,38.8661,大连市,七贤岭,细颗粒物(PM2.5),170,209,108,129,76,88,,54,54,16,25,13,12,1.4,1
2024-02-12T1400,1115A,121.2529,38.8061,大连市,旅顺,细颗粒物(PM2.5),179,189,121,135,97,90,,76,76,29,30,11,14,1.7,1.4
2024-02-12T1400,1116A,121.7485,39.1311,大连市,金州,细颗粒物(PM2.5),165,164,87,125,74,120,,101,101,20,23,14,15,1.5,1.2
2024-02-12T1400,1117A,121.7811,39.0496,大连市,开发区,细颗粒物(PM2.5),189,191,140,142,116,103,,75,75,21,33,11,16,1.5,1.3
2024-02-12T1400,1118A,121.9762,39.0631,大连市,双D港,细颗粒物(PM2.5),182,179,85,137,67,94,,75,75,32,19,9,8,1.4,1
2024-02-12T1400,1789A,124.81117,46.03138,大庆市,大同区,颗粒物(PM10),109,168,86,43,38,88,,73,73,11,11,12,10,0.8,0.7
2024-02-12T1400,1790A,125.129,46.533,大庆市,龙凤区,颗粒物(PM10),94,138,63,29,26,84,,73,73,11,11,8,5,0.6,0.6
2024-02-12T1400,1791A,124.902,46.408,大庆市,红岗区,颗粒物(PM10),123,195,87,33,25,,,60,60,10,9,7,10,,0.4
2024-02-12T1400,1792A,125.153,46.586,大庆市,萨尔图区,颗粒物(PM10),131,212,83,39,38,84,,74,74,10,11,15,11,0.7,0.6
2024-02-12T1400,1793A,124.9042,46.6215,大庆市,让胡路区,颗粒物(PM10),179,307,100,42,25,81,,72,72,8,12,6,10,0.6,0.5
2024-02-12T1400,3481A,125.141,46.634,大庆市,萨区政府监测点,颗粒物(PM10),115,179,69,42,36,93,,79,79,10,15,13,15,0.7,0.6
2024-02-12T1400,1723A,113.2994,40.0758,大同市,云冈宾馆,颗粒物(PM10),61,71,86,30,53,102,,53,53,13,30,12,16,0.6,1.1
2024-02-12T1400,1724A,113.3444,40.0917,大同市,大同大学,颗粒物(PM10),71,92,62,32,35,88,,58,58,17,21,20,18,0.6,1
2024-02-12T1400,1725A,113.2661,40.1269,大同市,安家小村,颗粒物(PM10),73,96,69,40,33,95,,63,63,12,16,20,23,0.7,1.3
2024-02-12T1400,1726A,113.2711,40.0844,大同市,教育学院,颗粒物(PM10),78,106,107,32,62,92,,43,43,13,45,14,20,0.9,1.9
2024-02-12T1400,3282A,113.3397,40.0597,大同市,大同市卫生学校,颗粒物(PM10),55,59,64,25,44,94,,54,54,7,27,12,16,0.5,0.9
2024-02-12T1400,3565A,113.1367,40.1122,大同市,云冈站,颗粒物(PM10),52,53,45,28,22,98,,57,57,11,13,10,31,0.5,0.6
2024-02-12T1400,3566A,113.1186,40.2556,大同市,图书馆,,48,48,50,22,31,86,,54,54,8,11,11,18,0.2,0.4
2024-02-12T1400,3567A,113.5931,40.0461,大同市,区一中,颗粒物(PM10),54,58,81,20,46,92,,61,61,6,20,25,38,0.4,1
2024-02-12T1400,3676A,113.2802,40.0995,大同市,第二人民医院,,,,99,,49,,,47,47,8,31,9,20,0.6,1.7
2024-02-12T1400,2269A,124.1069,50.4097,大兴安岭地区,科技局,,,19,22,,19,85,,73,72,3,5,8,9,0.3,0.4
2024-02-12T1400,3663A,124.1164,50.4278,大兴安岭地区,红旗社区,,26,9,22,8,15,82,,70,69,4,8,6,11,0,0.1
2024-02-12T1400,1600A,124.3303,40.0625,丹东市,江湾东路,细颗粒物(PM2.5),64,65,141,46,118,103,,72,72,4,20,14,29,0.7,1.7
2024-02-12T1400,1601A,124.4256,40.1503,丹东市,临江后街,颗粒物(PM10),52,53,105,31,80,104,,71,71,7,20,11,18,0.8,1.9
2024-02-12T1400,1602A,124.3933,40.1461,丹东市,元宝山,颗粒物(PM10),57,64,158,39,130,98,,69,69,10,25,14,21,0.8,1.3
2024-02-12T1400,1603A,124.3633,40.1092,丹东市,民主桥,颗粒物(PM10),64,77,188,41,150,95,,62,62,7,37,14,25,0.9,1.6
2024-02-12T1400,3541A,109.5726,19.5167,儋州市,第一中学子站,,30,26,41,16,29,95,,98,88,2,4,5,6,0.5,0.6
2024-02-12T1400,3542A,109.5567,19.5187,儋州市,东坡学校子站,,32,24,42,15,29,100,,104,88,3,6,5,5,0.5,0.6
2024-02-12T1400,2616A,98.5842,24.428,德宏傣族景颇族自治州,德宏州监测站,颗粒物(PM10),51,51,57,27,46,80,,26,26,16,24,26,17,0.7,0.8
2024-02-12T1400,3677A,98.5881,24.4368,德宏傣族景颇族自治州,芒市人民政府综合楼,细颗粒物(PM2.5),68,65,62,49,45,72,,24,24,20,20,32,13,0.7,0.8
2024-02-12T1400,1901A,104.4239,31.1208,德阳市,东山公园,细颗粒物(PM2.5),85,80,84,63,76,106,,72,72,12,13,4,4,0.7,0.8
2024-02-12T1400,1902A,104.3826,31.1317,德阳市,西小区,细颗粒物(PM2.5),89,97,102,66,92,103,,33,33,13,29,6,5,0.8,1
2024-02-12T1400,1904A,104.3553,31.1091,德阳市,耐火材料厂,细颗粒物(PM2.5),90,74,93,67,89,109,,48,48,7,17,6,7,0.6,0.8
2024-02-12T1400,3639A,104.4019,31.1244,德阳市,市教育局,细颗粒物(PM2.5),85,86,85,63,81,106,,49,49,10,28,5,3,0.6,0.8
2024-02-12T1400,1622A,116.3032,37.4674,德州市,儿童乐园,颗粒物(PM10),92,134,148,58,81,105,,83,82,6,9,13,14,1.0,1
2024-02-12T1400,1624A,116.2991,37.4451,德州市,监理站,,,,148,,82,,,79,77,8,12,,16,0.8,0.9
2024-02-12T1400,3066A,116.2721,37.4379,德州市,九衢泉纯净水厂,细颗粒物(PM2.5),97,139,148,72,86,105,,73,73,11,16,11,14,0.9,1
2024-02-12T1400,3371A,116.3728,37.4403,德州市,开发区人民医院,颗粒物(PM10),92,134,153,58,83,106,,80,80,6,10,11,13,0.7,0.8
2024-02-12T1400,3372A,116.3572,37.4094,德州市,太阳城中学,颗粒物(PM10),89,127,151,58,95,106,,78,78,4,9,11,13,0.9,1
2024-02-12T1400,3511A,116.5652,37.3319,德州市,陵城艺术中心,颗粒物(PM10),89,127,150,58,80,109,,85,85,11,14,15,16,0.8,0.8
2024-02-12T1400,2621A,99.7056,27.8317,迪庆藏族自治州,迪庆州站,,30,15,24,10,16,95,,75,75,5,8,8,8,0.2,0.3
2024-02-12T1400,3180A,99.7136,27.8094,迪庆藏族自治州,质量技术监督局,,30,18,19,4,14,94,,70,70,5,7,7,8,0.4,0.5
2024-02-12T1400,2663A,104.6241,35.5734,定西市,东关小学,,29,29,78,14,47,81,,39,39,7,14,11,18,0.5,0.9
2024-02-12T1400,2664A,104.6194,35.5934,定西市,供电公司,,28,,73,19,51,83,,40,40,2,11,13,15,0.4,0.9
2024-02-12T1400,1389A,113.7547,23.0494,东莞市,莞城梨川,,46,46,62,30,49,117,,82,82,8,19,9,9,0.5,0.7
2024-02-12T1400,1390A,113.7944,23.0128,东莞市,东城石井,,38,35,44,26,34,116,,78,78,7,11,8,7,0.6,0.6
2024-02-12T1400,1391A,113.7383,22.9658,东莞市,南城西平,,35,33,48,22,32,110,,74,74,6,11,8,9,0.6,0.7
2024-02-12T1400,3319A,113.7338,23.0381,东莞市,万江金泰,,50,47,81,35,65,105,,70,70,4,15,8,9,0.7,0.8
2024-02-12T1400,3626A,113.7533,23.0202,东莞市,南城元岭,,,37,51,29,37,102,,74,74,2,8,,10,0.6,0.7
2024-02-12T1400,3627A,113.7875,23.0457,东莞市,东城主山,,43,43,58,29,47,117,,80,80,2,9,11,11,0.6,0.7
2024-02-12T1400,1666A,118.6614,37.4309,东营市,市环保局,颗粒物(PM10),86,122,136,44,88,133,,91,91,13,26,14,24,0.6,0.9
2024-02-12T1400,3036A,118.6904,37.4338,东营市,开发区管委会,颗粒物(PM10),85,120,130,48,84,122,,91,91,16,26,10,19,0.6,0.8
2024-02-12T1400,3365A,118.5719,37.565,东营市,垦利区民丰路,颗粒物(PM10),87,124,139,51,82,128,,96,96,14,24,16,20,0.8,0.9
2024-02-12T1400,3498A,118.5055,37.8612,东营市,河口城区,颗粒物(PM10),101,151,174,53,102,137,,98,98,10,20,13,16,1.0,1.2
2024-02-12T1400,3646A,118.4978,37.4623,东营市,胜利站,颗粒物(PM10),91,132,157,44,90,118,,85,85,20,32,15,23,0.6,0.8
2024-02-12T1400,3734A,118.35,37.26,东营市,理想之城,颗粒物(PM10),86,122,136,53,87,129,,88,88,22,27,15,17,0.7,0.8
2024-02-12T1400,1591A,110.0023,39.8129,鄂尔多斯市,综合楼,颗粒物(PM10),57,63,59,22,19,93,,69,69,17,20,9,9,0.6,0.6
2024-02-12T1400,1592A,109.9486,39.8261,鄂尔多斯市,巴音孟克林场办事处,颗粒物(PM10),52,53,55,22,21,85,,67,66,15,14,14,14,0.5,0.5
2024-02-12T1400,1593A,109.7736,39.5986,鄂尔多斯市,康泽苑,,48,48,56,12,25,91,,55,55,12,19,10,8,0.5,0.6
2024-02-12T1400,1594A,109.8119,39.5989,鄂尔多斯市,华泰汽车城,,41,41,46,17,19,99,,52,52,7,19,8,8,0.4,0.6
2024-02-12T1400,1595A,109.9734,39.7884,鄂尔多斯市,奥林花园,颗粒物(PM10),54,58,55,24,20,83,,52,52,14,24,11,8,0.5,0.6
2024-02-12T1400,2436A,114.8938,30.3994,鄂州市,市政府,"颗粒物(PM10),细颗粒物(PM2.5)",54,58,98,38,59,100,,80,80,10,18,12,10,1.0,1
2024-02-12T1400,2437A,114.8989,30.3714,鄂州市,赵家坝,细颗粒物(PM2.5),55,52,86,39,54,108,,84,84,12,13,9,8,0.7,0.7
2024-02-12T1400,3654A,114.8094,30.4089,鄂州市,精准医疗中心,颗粒物(PM10),57,63,118,34,55,107,,78,78,17,22,14,23,2.4,2.3
2024-02-12T1400,2454A,109.4978,30.2981,恩施土家族苗族自治州,湖北民院,颗粒物(PM10),54,57,70,26,49,85,,41,41,8,15,8,7,1.0,1.1
2024-02-12T1400,2455A,109.4707,30.2798,恩施土家族苗族自治州,州电力总公司,细颗粒物(PM2.5),59,49,79,42,64,74,,32,32,12,19,5,6,0.9,1.2
2024-02-12T1400,3549A,109.5061,30.3772,恩施土家族苗族自治州,龙凤新区,细颗粒物(PM2.5),69,,51,50,47,71,,28,28,13,14,7,9,0.9,1
2024-02-12T1400,2499A,108.3411,21.6158,防城港市,沙万,,,38,49,23,34,99,,72,72,8,16,,7,0.2,0.4
2024-02-12T1400,2500A,108.3514,21.7731,防城港市,防城档案局,,46,46,62,20,46,99,,58,58,10,15,10,7,0.4,0.6
2024-02-12T1400,2501A,108.3506,21.6414,防城港市,大海花园,,46,46,50,20,35,104,,69,69,4,13,4,6,0.2,0.5
2024-02-12T1400,1371A,113.1294,23.0067,佛山市,湾梁,细颗粒物(PM2.5),68,,72,49,69,127,,70,70,8,21,9,9,0.5,0.7
2024-02-12T1400,1372A,113.1083,23.0478,佛山市,华材职中,细颗粒物(PM2.5),64,,80,46,65,124,,60,60,8,34,10,9,0.6,0.8
2024-02-12T1400,1373A,113.144,23.0453,佛山市,南海气象局,细颗粒物(PM2.5),64,46,67,46,55,124,,67,67,9,22,6,6,0.2,0.4
2024-02-12T1400,1374A,113.2881,22.8094,佛山市,顺德苏岗,,,0,49,,41,119,,61,61,5,18,9,10,0.3,0.4
2024-02-12T1400,1376A,112.8383,22.8678,佛山市,高明孔堂,细颗粒物(PM2.5),59,55,52,42,43,124,,68,68,6,7,6,5,0.3,0.4
2024-02-12T1400,1377A,112.8836,23.1588,佛山市,三水监测站,细颗粒物(PM2.5),62,,61,44,53,122,,62,62,11,24,6,6,0.4,0.6
2024-02-12T1400,1378A,112.867,23.185,佛山市,三水云东海,细颗粒物(PM2.5),64,56,46,46,45,122,,61,61,14,18,5,7,0.5,0.5
2024-02-12T1400,3625A,113.2544,22.7642,佛山市,容桂街道办,,35,29,56,14,41,109,,69,69,3,16,6,7,0.4,0.5
2024-02-12T1400,1282A,119.2681,26.0504,福州市,师大,,49,49,50,33,41,118,,81,81,4,7,7,7,0.5,0.5
2024-02-12T1400,1283A,119.2984,26.1028,福州市,五四北路,细颗粒物(PM2.5),57,45,43,40,36,118,,80,80,5,8,4,4,0.6,0.5
2024-02-12T1400,1284A,119.2648,26.0768,福州市,杨桥西路,细颗粒物(PM2.5),58,46,41,41,32,122,,80,80,6,9,4,4,0.6,0.5
2024-02-12T1400,1285A,119.317,26.0746,福州市,紫阳,细颗粒物(PM2.5),54,51,57,38,47,115,,74,74,4,14,6,7,0.7,0.7
2024-02-12T1400,3048A,119.5799,26.0936,福州市,九龙,颗粒物(PM10),55,59,42,34,32,123,,89,89,8,9,7,4,0.9,0.7
2024-02-12T1400,3526A,119.5189,25.9664,福州市,吴航,,41,41,40,27,31,120,,69,69,5,12,5,5,0.4,0.4
2024-02-12T1400,1755A,123.7977,41.8491,抚顺市,望花区,"颗粒物(PM10),细颗粒物(PM2.5)",57,63,79,40,52,97,,65,65,13,32,23,15,0.9,0.9
2024-02-12T1400,1756A,123.9161,41.8822,抚顺市,顺城区,颗粒物(PM10),69,87,83,36,57,114,,68,68,8,28,11,8,0.6,0.8
2024-02-12T1400,1757A,124.0436,41.8611,抚顺市,东洲区,颗粒物(PM10),54,57,64,34,43,106,,84,84,5,10,12,11,1.1,0.8
2024-02-12T1400,1758A,123.9247,41.8642,抚顺市,新抚区,颗粒物(PM10),69,88,82,34,53,118,,76,76,8,30,11,7,0.6,0.9
2024-02-12T1400,1759A,124.0972,41.8961,抚顺市,大伙房水库,颗粒物(PM10),55,59,57,30,37,110,,86,86,5,10,12,10,0.6,0.7
2024-02-12T1400,1760A,123.7086,41.8391,抚顺市,沈抚新城,颗粒物(PM10),60,70,85,40,44,104,,74,74,11,30,19,16,0.9,1.3
2024-02-12T1400,2376A,116.2127,28.0814,抚州市,桐源党溪,颗粒物(PM10),65,79,134,31,82,71,,39,39,2,8,4,6,0,0.1
2024-02-12T1400,2377A,116.3544,27.9831,抚州市,市站,,41,41,98,19,67,86,,51,51,6,22,10,11,0.2,0.4
2024-02-12T1400,2378A,116.3565,27.963,抚州市,血防站,,27,27,84,12,54,81,,49,49,3,12,1,5,0.6,0.9
2024-02-12T1400,2379A,116.3564,28.0007,抚州市,采茶剧团,,45,45,100,22,72,79,,52,52,3,12,4,5,0.7,1
2024-02-12T1400,2380A,116.385,27.9647,抚州市,医学分院,,36,36,85,16,48,87,,59,59,4,9,5,6,0.5,0.8
2024-02-12T1400,2207A,121.6094,41.998,阜新市,工业园区,颗粒物(PM10),146,242,86,73,57,112,,82,82,17,18,12,22,1.1,1
2024-02-12T1400,2208A,121.6697,42.0279,阜新市,长青街,颗粒物(PM10),159,268,89,74,64,114,,83,83,18,18,15,19,1.1,0.8
2024-02-12T1400,2209A,121.6673,42.0705,阜新市,农业园区,颗粒物(PM10),132,213,87,88,58,114,,84,84,19,18,17,25,0.6,0.5
2024-02-12T1400,2210A,121.6717,42.0224,阜新市,东苑,颗粒物(PM10),142,233,90,97,65,126,,88,88,19,23,14,22,1.8,1.6
2024-02-12T1400,2211A,121.6506,42.0498,阜新市,玉龙新城,颗粒物(PM10),113,176,77,80,60,116,,85,85,16,17,16,23,0.8,0.7
2024-02-12T1400,2301A,115.8277,32.8929,阜阳市,市监测站,颗粒物(PM10),56,62,103,36,59,97,,66,66,8,12,8,8,0.7,0.5
2024-02-12T1400,2303A,115.8554,32.8605,阜阳市,开发区,颗粒物(PM10),61,71,123,34,43,103,,77,77,8,10,5,7,0.5,0.4
2024-02-12T1400,2875A,115.784,32.8892,阜阳市,阜阳职业技术学院,颗粒物(PM10),51,51,100,29,48,105,,83,83,8,11,6,7,0.6,0.7
2024-02-12T1400,3468A,115.7901,32.8613,阜阳市,市规划展馆,颗粒物(PM10),61,71,124,34,54,102,,78,78,7,10,6,8,0.6,0.6
2024-02-12T1400,3469A,115.836,32.9183,阜阳市,枣园社区,颗粒物(PM10),64,78,111,36,47,106,,72,72,8,13,6,6,0.5,0.4
2024-02-12T1400,2669A,102.9099,34.9841,甘南藏族自治州,州政府,,25,11,25,10,19,80,,42,42,2,12,11,13,0.4,0.7
2024-02-12T1400,3380A,102.8914,34.9617,甘南藏族自治州,甘肃民族师范学院,,24,8,22,4,10,74,,42,42,4,7,18,15,0.6,0.7
2024-02-12T1400,2570A,101.9603,30.0475,甘孜藏族自治州,水桥子,,21,,11,8,8,67,,57,57,7,6,10,10,0.3,0.2
2024-02-12T1400,3065A,101.9533,29.9972,甘孜藏族自治州,州环保局,,29,13,12,3,4,91,,76,76,2,3,8,8,0.2,0.2
2024-02-12T1400,3414A,115.8347,28.932,赣江新区,桑海产业园,颗粒物(PM10),60,70,75,40,52,102,,60,60,16,17,8,6,0.8,0.9
2024-02-12T1400,2363A,114.9367,25.8664,赣州市,地委,颗粒物(PM10),51,51,59,33,46,98,,51,51,8,17,14,11,1.0,0.9
2024-02-12T1400,2364A,114.9461,25.8481,赣州市,气象台,细颗粒物(PM2.5),53,46,60,37,47,103,,47,47,5,18,7,7,0.6,0.6
2024-02-12T1400,2365A,114.9322,25.8333,赣州市,市图书馆,,50,47,70,35,46,88,,43,43,2,21,13,16,0.6,0.6
2024-02-12T1400,2366A,114.8905,25.8471,赣州市,华坚鞋城,颗粒物(PM10),54,58,73,32,55,83,,44,44,6,18,5,6,0.8,0.8
2024-02-12T1400,3109A,115.0093,25.8613,赣州市,赣县区卫计委,细颗粒物(PM2.5),52,52,59,36,47,88,,45,45,9,16,6,6,0.7,0.8
2024-02-12T1400,2683A,106.2319,36.1417,固原市,马园,,,,59,,35,,,58,58,8,18,6,7,0.6,0.9
2024-02-12T1400,2684A,106.2792,36.0022,固原市,监测站,,36,29,52,25,57,96,,70,70,14,22,5,10,0.4,1.1
2024-02-12T1400,2685A,106.2375,36.0211,固原市,新区,,35,32,56,24,43,88,,53,53,13,31,6,7,0.4,0.8
2024-02-12T1400,3522A,106.2177,35.9959,固原市,原州区十五小,,40,36,40,28,26,88,,85,85,7,8,8,8,0.4,0.5
2024-02-12T1400,2544A,106.6303,30.4576,广安市,市委,细颗粒物(PM2.5),117,115,110,88,98,100,,47,47,10,23,10,8,0.8,0.9
2024-02-12T1400,2545A,106.6271,30.4663,广安市,友谊中学,细颗粒物(PM2.5),119,100,94,90,86,100,,39,39,15,25,9,6,0.9,0.9
2024-02-12T1400,2547A,106.6388,30.4551,广安市,广电花园,细颗粒物(PM2.5),122,95,99,92,98,101,,42,42,12,25,7,5,0.9,1.1
2024-02-12T1400,2902A,106.6351,30.4865,广安市,北辰小学,细颗粒物(PM2.5),125,105,94,95,87,99,,39,39,17,22,9,6,1.0,1
2024-02-12T1400,2523A,105.8945,32.4535,广元市,黑石坡,细颗粒物(PM2.5),75,56,74,55,62,85,,64,62,18,14,6,8,0.8,0.8
2024-02-12T1400,2524A,105.821,32.4444,广元市,老城,细颗粒物(PM2.5),74,73,97,54,67,81,,32,32,18,24,47,7,1.8,1.4
2024-02-12T1400,2526A,105.8628,32.4287,广元市,监测站,细颗粒物(PM2.5),69,53,77,50,63,78,,39,39,16,14,9,5,1.1,1.1
2024-02-12T1400,3617A,105.8047,32.4166,广元市,经开区,细颗粒物(PM2.5),100,83,99,75,78,86,,31,31,21,27,28,12,1.3,1.3
2024-02-12T1400,1345A,113.2347,23.1423,广州市,广雅中学,,46,42,70,32,49,113,,58,58,11,42,6,5,0.5,0.9
2024-02-12T1400,1346A,113.2612,23.105,广州市,市五中,细颗粒物(PM2.5),53,46,76,37,62,118,,63,63,12,42,8,6,0.5,0.8
2024-02-12T1400,1348A,113.3478,23.0916,广州市,广东商学院,细颗粒物(PM2.5),62,50,72,44,57,121,,68,68,10,23,6,5,0.4,0.6
2024-02-12T1400,1349A,113.4332,23.1047,广州市,市八十六中,,50,50,72,5,57,123,,82,82,8,19,9,7,0.3,0.4
2024-02-12T1400,1350A,113.3505,22.9483,广州市,番禺中学,,,44,67,35,54,136,,83,83,13,28,,5,0.5,0.7
2024-02-12T1400,1351A,113.2146,23.3916,广州市,花都师范,细颗粒物(PM2.5),53,44,94,37,73,119,,57,57,10,35,6,7,0.6,0.9
2024-02-12T1400,1352A,113.2597,23.1331,广州市,市监测站,,49,47,64,34,50,123,,71,71,10,36,7,5,0.5,0.7
2024-02-12T1400,1353A,113.5618,23.312,广州市,九龙镇镇龙,,43,37,56,30,45,98,,55,55,6,15,6,6,0.6,0.6
2024-02-12T1400,1354A,113.2765,23.1544,广州市,麓湖,,46,40,51,32,40,122,,72,72,8,25,6,5,0.4,0.5
2024-02-12T1400,1355A,113.443,23.3035,广州市,帽峰山森林公园,,39,31,33,27,27,119,,88,88,4,9,7,7,0.3,0.3
2024-02-12T1400,2846A,113.3221,23.1322,广州市,体育西,,45,39,60,31,47,122,,80,80,6,29,10,8,0.6,0.8
2024-02-12T1400,3298A,113.5717,23.5491,广州市,从化街口,,43,35,66,30,54,95,,52,52,4,14,5,5,0.4,0.5
2024-02-12T1400,3299A,113.3472,23.3692,广州市,白云竹料,,44,44,80,30,65,116,,65,65,5,15,6,7,0.5,0.6
2024-02-12T1400,3300A,113.2981,23.237,广州市,白云嘉禾,,38,36,67,26,51,114,,65,65,10,27,7,7,0.3,0.5
2024-02-12T1400,3301A,113.4256,23.1716,广州市,黄埔科学城,细颗粒物(PM2.5),52,42,56,36,52,113,,72,72,5,11,6,6,0.6,0.6
2024-02-12T1400,3302A,113.3942,23.0483,广州市,番禺大学城,,48,47,60,33,48,128,,83,83,7,20,8,8,0.5,0.6
2024-02-12T1400,3303A,113.4922,22.8168,广州市,南沙黄阁,,45,45,53,26,37,121,,73,73,5,15,5,6,0.5,0.6
2024-02-12T1400,3304A,113.5342,22.7896,广州市,南沙街,,38,35,46,21,33,121,,80,80,10,16,2,4,0.5,0.6
2024-02-12T1400,3443A,113.2902,23.5544,广州市,花都梯面,,35,25,42,17,32,110,,66,66,6,12,6,6,0.2,0.3
2024-02-12T1400,3445A,113.7858,23.7478,广州市,从化良口,,30,27,27,21,18,87,,52,52,3,4,7,6,0.3,0.3
2024-02-12T1400,3446A,113.8051,23.2614,广州市,增城荔城,,48,42,56,33,43,107,,68,68,3,8,8,7,0.6,0.6
2024-02-12T1400,2505A,109.568,23.1478,贵港市,德智高中,细颗粒物(PM2.5),85,71,52,63,56,119,,74,74,14,9,16,7,1.3,0.7
2024-02-12T1400,2506A,109.6047,23.0666,贵港市,江南子站,细颗粒物(PM2.5),87,68,121,64,97,120,,56,56,7,19,17,16,0.7,1.1
2024-02-12T1400,2507A,109.6014,23.0948,贵港市,贵城子站,细颗粒物(PM2.5),72,61,114,52,111,111,,51,51,9,25,17,11,0.8,1.3
2024-02-12T1400,2508A,109.5669,23.1065,贵港市,荷城子站,细颗粒物(PM2.5),64,68,81,46,61,116,,56,56,7,16,15,10,0.9,1
2024-02-12T1400,3405A,109.5886,23.1172,贵港市,新世纪学校,颗粒物(PM10),62,73,89,43,64,112,,62,62,14,18,17,6,1.3,1
2024-02-12T1400,1439A,106.6899,26.5998,贵阳市,马鞍山,,31,31,28,17,19,95,,75,75,7,12,13,11,0.4,0.4
2024-02-12T1400,1440A,106.6971,26.5694,贵阳市,市环保站,,48,,34,33,31,98,,84,84,8,21,9,15,0.5,0.5
2024-02-12T1400,1441A,106.6243,26.6266,贵阳市,鉴湖路,,36,36,32,22,14,93,,88,88,4,5,8,7,0.6,0.4
2024-02-12T1400,1442A,106.7487,26.6343,贵阳市,燕子冲,,39,27,30,27,21,97,,85,85,6,10,9,9,0.6,0.4
2024-02-12T1400,1443A,106.6555,26.4365,贵阳市,碧云窝,,36,36,33,19,14,96,,89,89,4,5,8,9,0.6,0.4
2024-02-12T1400,1444A,106.694,26.5161,贵阳市,中院村,,35,31,31,24,21,92,,88,88,8,14,11,19,0.4,0.3
2024-02-12T1400,1445A,106.7109,26.6027,贵阳市,红边门,,39,39,52,27,34,94,,73,73,8,25,7,28,0.6,0.8
2024-02-12T1400,1446A,106.7164,26.5699,贵阳市,新华路,,39,34,45,27,33,99,,69,69,7,23,9,16,0.5,0.6
2024-02-12T1400,1447A,106.674,26.5424,贵阳市,太慈桥,,34,34,27,17,12,99,,90,90,5,6,6,8,0.4,0.3
2024-02-12T1400,1862A,110.4144,25.3167,桂林市,电子科大尧山校区,,50,37,47,35,42,94,,50,50,4,5,5,4,0.3,0.3
2024-02-12T1400,1863A,110.2819,25.2697,桂林市,监测站,,,74,95,51,98,,,34,34,6,31,8,8,0.5,1
2024-02-12T1400,1864A,110.3089,25.2708,桂林市,龙隐路小学,细颗粒物(PM2.5),63,62,64,45,59,98,,47,47,6,21,6,6,0.6,0.8
2024-02-12T1400,1865A,110.2869,25.2178,桂林市,八中,颗粒物(PM10),55,59,63,33,56,92,,42,42,6,16,6,6,0.4,0.5
2024-02-12T1400,3403A,110.1764,25.2381,桂林市,创业大厦,,45,39,70,31,58,90,,40,40,2,14,8,7,0.5,0.6
2024-02-12T1400,3531A,110.296,25.1253,桂林市,旅游学院,,32,29,52,22,45,96,,42,42,4,10,6,5,0.5,0.6
2024-02-12T1400,2674A,100.2561,34.4714,果洛藏族自治州,玛沁县大武镇,,26,11,19,5,14,81,,48,48,10,12,8,14,0.6,0.4
2024-02-12T1400,1129A,126.5422,45.755,哈尔滨市,岭北,颗粒物(PM10),63,75,67,32,55,94,,178,140,16,18,16,17,1.4,0.8
2024-02-12T1400,1130A,126.561,45.8167,哈尔滨市,松北商大,颗粒物(PM10),61,71,73,32,49,124,,101,101,7,11,10,10,0.6,0.7
2024-02-12T1400,1131A,126.979,45.5419,哈尔滨市,阿城会宁,颗粒物(PM10),58,65,76,26,60,113,,96,96,6,8,14,9,0.4,0.6
2024-02-12T1400,1132A,126.599,45.7222,哈尔滨市,南岗学府路,颗粒物(PM10),65,80,86,33,50,111,,90,90,12,16,14,12,0.6,0.7
2024-02-12T1400,1133A,126.689,45.7733,哈尔滨市,太平宏伟公园,颗粒物(PM10),73,95,77,32,48,122,,99,99,10,13,5,5,0.6,0.6
2024-02-12T1400,1134A,126.635,45.7667,哈尔滨市,道外承德广场,颗粒物(PM10),63,76,80,25,46,113,,92,92,15,23,10,11,0.4,0.6
2024-02-12T1400,1135A,126.685,45.7319,哈尔滨市,香坊红旗大街,颗粒物(PM10),66,82,82,35,63,109,,87,87,14,22,20,4,0.7,0.8
2024-02-12T1400,1137A,126.593,45.7478,哈尔滨市,道里建国路,颗粒物(PM10),65,80,80,42,67,112,,92,92,11,15,9,9,0.6,0.7
2024-02-12T1400,1138A,126.615,45.61,哈尔滨市,平房东轻厂,,,63,73,31,56,118,,98,98,8,11,,10,0.5,0.6
2024-02-12T1400,1139A,126.595,45.9855,哈尔滨市,呼兰师专,,,94,75,38,50,,,81,81,19,20,17,18,0.6,0.6
2024-02-12T1400,1140A,126.6206,45.6842,哈尔滨市,省农科院,颗粒物(PM10),59,67,82,36,60,126,,99,99,2,18,6,7,0.6,0.8
2024-02-12T1400,2688A,93.5128,42.8172,哈密市,地区监测站,颗粒物(PM10),84,118,172,30,39,68,,57,57,7,18,6,5,0.3,0.3
2024-02-12T1400,2689A,93.4961,42.8328,哈密市,哈密师范学校,颗粒物(PM10),89,128,189,29,58,71,,59,59,6,27,7,9,0.3,0.6
2024-02-12T1400,2671A,100.9048,36.9639,海北藏族自治州,海晏县西海镇,,24,11,16,6,10,76,,55,55,3,3,14,13,0.3,0.3
2024-02-12T1400,3867A,102.0738,36.5056,海东市,平安区公安北苑,,24,23,31,6,17,76,,34,34,3,15,16,24,0.3,0.6
2024-02-12T1400,1410A,110.3232,20.0574,海口市,海南大学,,38,38,41,18,25,114,,98,98,3,4,9,10,0.3,0.4
2024-02-12T1400,1411A,110.283,20.0053,海口市,秀英海南医院,,43,43,55,22,37,110,,76,76,2,9,8,9,0.3,0.5
2024-02-12T1400,1412A,110.338,19.9969,海口市,海南师范大学,,42,42,52,19,34,110,,93,93,2,6,7,8,0.4,0.5
2024-02-12T1400,1413A,110.33,20.0356,海口市,龙华路环保局宿舍,,42,42,46,19,28,109,,94,92,3,6,8,8,0.2,0.3
2024-02-12T1400,3539A,110.5111,19.9736,海口市,桂林洋子站,,33,31,42,19,30,105,,84,84,1,4,6,7,0.3,0.4
2024-02-12T1400,2673A,100.6188,36.2866,海南藏族自治州,共和县恰卜恰镇,,23,,28,16,16,73,,45,45,8,17,7,9,0.5,0.5
2024-02-12T1400,2676A,97.3731,37.3753,海西蒙古族藏族自治州,德令哈市,,31,30,21,5,9,98,,89,89,3,5,11,13,0.4,0.5
2024-02-12T1400,1048A,114.5302,36.6116,邯郸市,东污水处理厂,细颗粒物(PM2.5),110,144,149,83,88,102,,48,48,7,21,21,11,1.0,0.9
2024-02-12T1400,1049A,114.4918,36.5713,邯郸市,矿院,细颗粒物(PM2.5),113,134,130,85,82,86,,42,42,7,22,12,6,1.2,0.8
2024-02-12T1400,1050A,114.484,36.6133,邯郸市,丛台公园,细颗粒物(PM2.5),97,121,128,72,77,105,,52,52,1,20,17,8,1.1,0.9
2024-02-12T1400,3458A,114.7895,36.5593,邯郸市,香泉濮院小区,细颗粒物(PM2.5),122,165,141,92,71,98,,60,60,6,8,15,9,0.7,0.6
2024-02-12T1400,3579A,114.50634,36.77178,邯郸市,永年区实验高中,细颗粒物(PM2.5),128,131,143,97,94,108,,62,62,19,37,37,14,1.5,1
2024-02-12T1400,3580A,114.20016,36.44293,邯郸市,峰峰矿区临水派出所,细颗粒物(PM2.5),74,90,66,54,32,110,,73,72,10,7,30,19,1.2,0.7
2024-02-12T1400,2634A,106.9893,33.1842,汉中市,汉川机床厂子校,细颗粒物(PM2.5),65,55,53,47,45,94,,58,58,5,5,14,5,0.8,0.6
2024-02-12T1400,2635A,107.0154,33.0706,汉中市,市监测站,细颗粒物(PM2.5),75,69,92,55,80,100,,49,49,14,27,30,17,1.1,1.6
2024-02-12T1400,2636A,107.0089,33.1138,汉中市,鑫源开发区,细颗粒物(PM2.5),72,67,83,52,81,92,,54,54,12,22,26,18,0.9,1.2
2024-02-12T1400,2637A,107.007,33.0323,汉中市,南郑大河坎水厂,细颗粒物(PM2.5),72,63,82,52,69,101,,50,50,11,15,29,14,0.9,1.1
2024-02-12T1400,1223A,120.2072,30.2111,杭州市,滨江,,,44,78,24,48,95,,69,69,6,14,8,8,,0.8
2024-02-12T1400,1224A,120.0633,30.2747,杭州市,西溪,,40,40,57,27,39,94,,53,53,7,12,8,7,0.5,0.6
2024-02-12T1400,1226A,120.3461,30.3153,杭州市,下沙,,43,43,88,22,52,100,,72,72,3,15,7,8,0.5,0.6
2024-02-12T1400,1227A,120.1269,30.2456,杭州市,卧龙桥,颗粒物(PM10),51,51,62,34,42,98,,56,56,6,14,5,5,0.4,0.4
2024-02-12T1400,1228A,120.1903,30.2692,杭州市,浙江农大,,47,47,77,31,54,99,,67,67,5,20,8,8,0.5,0.6
2024-02-12T1400,1230A,120.1197,30.3119,杭州市,和睦小学,,45,44,76,31,54,85,,54,54,7,20,6,7,0.5,0.6
2024-02-12T1400,1231A,120.3019,30.4183,杭州市,临平镇,,32,32,66,19,50,96,,64,64,2,11,6,6,0.3,0.5
2024-02-12T1400,1232A,120.2697,30.1819,杭州市,城厢镇,,48,48,77,30,55,99,,72,72,7,13,8,7,0.5,0.6
2024-02-12T1400,1233A,120.0883,30.1808,杭州市,云栖,,47,47,60,29,36,102,,55,55,8,15,8,7,0.6,0.6
2024-02-12T1400,3557A,119.9464,30.0494,杭州市,镇二中,,47,47,71,27,50,88,,52,52,4,13,7,7,0.5,0.6
2024-02-12T1400,3558A,119.7183,30.2367,杭州市,市府大楼,,36,36,67,24,45,96,,61,61,6,10,6,5,0.4,0.6
2024-02-12T1400,3656A,120.1556,30.2864,杭州市,消防大队,,49,49,80,34,56,91,,60,60,9,22,8,9,0.7,0.8
2024-02-12T1400,1270A,117.1959,31.7848,合肥市,明珠广场,颗粒物(PM10),60,70,95,31,45,107,,86,86,9,14,9,7,0.6,0.6
2024-02-12T1400,1271A,117.3072,31.8764,合肥市,三里街,颗粒物(PM10),64,78,110,29,61,100,,78,78,11,28,7,7,0.5,0.6
2024-02-12T1400,1272A,117.2588,31.8707,合肥市,琥珀山庄,颗粒物(PM10),63,75,101,31,55,109,,87,87,1,20,6,6,0.7,0.8
2024-02-12T1400,1273A,117.1604,31.9052,合肥市,董铺水库,颗粒物(PM10),71,92,106,41,47,95,,82,82,2,8,3,4,0.4,0.4
2024-02-12T1400,1274A,117.25,31.8571,合肥市,长江中路,颗粒物(PM10),65,80,102,32,54,102,,82,82,9,20,7,8,0.8,0.7
2024-02-12T1400,1275A,117.266,31.9436,合肥市,庐阳区,颗粒物(PM10),64,78,97,29,41,88,,75,75,11,19,6,6,0.6,0.6
2024-02-12T1400,1276A,117.336,31.8586,合肥市,瑶海区,颗粒物(PM10),62,73,112,31,62,101,,82,82,8,20,6,7,0.5,0.6
2024-02-12T1400,1277A,117.3027,31.7964,合肥市,包河区,颗粒物(PM10),59,68,97,36,55,107,,88,88,7,17,6,6,0.5,0.5
2024-02-12T1400,1278A,117.2776,31.7385,合肥市,滨湖新区,颗粒物(PM10),60,70,100,29,47,102,,83,83,5,9,7,6,0.8,0.7
2024-02-12T1400,1279A,117.1318,31.8403,合肥市,高新区,颗粒物(PM10),57,63,87,30,43,101,,85,85,9,12,5,5,0.6,0.7
2024-02-12T1400,3464A,117.3803,31.9147,合肥市,高教基地,颗粒物(PM10),63,76,90,39,45,111,,91,91,2,10,5,5,0.5,0.4
2024-02-12T1400,3614A,79.924,37.0877,和田地区,地区环保局,颗粒物(PM10),55,60,100,8,35,74,,58,54,10,25,10,12,0.4,0.9
2024-02-12T1400,3615A,79.9131,37.113,和田地区,市环保局,颗粒物(PM10),64,77,104,31,45,77,,42,42,24,46,11,12,0.9,2.2
2024-02-12T1400,2516A,108.2011,24.715,河池市,东仁乐园,细颗粒物(PM2.5),53,49,49,37,35,75,,43,43,6,6,5,4,0.6,0.6
2024-02-12T1400,2517A,108.0497,24.6947,河池市,市环保站,颗粒物(PM10),51,52,43,21,35,112,,53,53,7,11,7,7,0.4,0.5
2024-02-12T1400,2518A,108.0983,24.6989,河池市,市疾控中心,,38,38,54,18,44,114,,50,50,7,16,9,8,0.4,0.6
2024-02-12T1400,1696A,114.6778,23.7569,河源市,源西,,42,42,48,19,32,94,,56,56,2,14,5,5,0.5,0.6
2024-02-12T1400,1697A,114.6944,23.7586,河源市,东埔,颗粒物(PM10),52,54,64,30,49,94,,59,59,3,11,8,8,0.4,0.5
2024-02-12T1400,1698A,114.6892,23.7233,河源市,老城,,36,35,57,25,41,98,,54,54,4,8,6,7,0.5,0.5
2024-02-12T1400,1718A,115.4208,35.2464,菏泽市,气象局,颗粒物(PM10),83,116,146,55,57,122,,92,92,7,7,5,4,0.6,0.5
2024-02-12T1400,1719A,115.4747,35.2375,菏泽市,市政协,颗粒物(PM10),81,111,142,53,54,114,,91,91,4,3,5,5,0.5,0.4
2024-02-12T1400,3374A,115.5564,35.0891,菏泽市,定陶老年大学,颗粒物(PM10),78,105,132,51,53,118,,85,85,10,12,8,6,0.4,0.4
2024-02-12T1400,3647A,115.4702,35.2706,菏泽市,菏泽医专,颗粒物(PM10),82,114,137,44,45,113,,92,92,12,11,8,7,0.6,0.5
2024-02-12T1400,2514A,111.5264,24.4172,贺州市,环保小区,,46,40,74,32,66,95,,45,45,7,11,10,9,0.5,0.5
2024-02-12T1400,2515A,111.5608,24.4078,贺州市,政协大楼,,42,42,75,24,55,102,,45,45,8,17,10,9,0.5,0.6
2024-02-12T1400,3534A,111.4744,24.4553,贺州市,西湾,,48,48,65,32,51,103,,47,47,6,13,11,10,0.4,0.5
2024-02-12T1400,2385A,114.17,35.9019,鹤壁市,市监测站,细颗粒物(PM2.5),120,149,124,91,66,88,,56,56,24,21,9,4,0.8,0.7
2024-02-12T1400,2386A,114.2956,35.7511,鹤壁市,市交警支队,颗粒物(PM10),91,132,130,67,70,102,,52,52,7,12,15,9,0.6,0.5
2024-02-12T1400,2387A,114.2878,35.7306,鹤壁市,迎宾馆,细颗粒物(PM2.5),94,117,115,70,72,104,,55,55,13,16,16,9,0.7,0.6
2024-02-12T1400,3474A,114.2617,35.6822,鹤壁市,大新区,颗粒物(PM10),101,152,134,68,63,104,,56,56,11,14,14,9,0.8,0.6
2024-02-12T1400,3596A,114.1572,35.9603,鹤壁市,南山宾馆,细颗粒物(PM2.5),93,132,91,69,47,97,,76,76,20,15,14,10,0.7,0.6
2024-02-12T1400,2244A,130.2537,47.3416,鹤岗市,哈啤分公司,颗粒物(PM10),52,53,77,24,53,86,,76,76,10,22,21,19,0.7,1
2024-02-12T1400,2245A,130.2684,47.3086,鹤岗市,斯达机电,,47,47,77,28,56,84,,86,80,22,20,23,16,0.4,0.7
2024-02-12T1400,2246A,130.3114,47.3388,鹤岗市,东山纸板厂,颗粒物(PM10),60,69,71,23,59,110,,102,101,11,22,17,16,0.4,0.7
2024-02-12T1400,2247A,130.1097,47.3382,鹤岗市,五号水库,,32,32,49,22,41,102,,97,97,7,10,13,10,0.6,0.7
2024-02-12T1400,2263A,127.4833,50.2524,黑河市,交通局,,29,29,40,13,27,76,,77,71,5,7,8,10,0.4,0.5
2024-02-12T1400,2264A,127.5144,50.2341,黑河市,环保局,,42,42,36,15,28,77,,81,76,8,8,11,10,0.4,0.4
2024-02-12T1400,2265A,127.5291,50.2472,黑河市,大黑河岛,,,56,47,16,37,74,,78,73,66,73,15,14,,
2024-02-12T1400,1074A,115.6838,37.7541,衡水市,电机北厂,细颗粒物(PM2.5),113,161,135,85,69,91,,70,67,5,6,8,6,0.7,0.6
2024-02-12T1400,3188A,115.6683,37.7217,衡水市,市城管局,细颗粒物(PM2.5),133,149,129,101,75,87,,64,64,9,10,13,11,0.7,0.7
2024-02-12T1400,3459A,115.5989,37.5491,衡水市,地表水厂,细颗粒物(PM2.5),152,160,129,116,78,92,,63,63,10,11,9,6,0.6,0.7
2024-02-12T1400,2456A,112.5003,26.9167,衡阳市,原169医院,细颗粒物(PM2.5),77,67,104,56,87,72,,37,37,11,12,25,20,1.4,1.1
2024-02-12T1400,2457A,112.6194,26.9258,衡阳市,衡阳化工总厂,颗粒物(PM10),61,72,134,42,113,72,,28,28,5,19,9,13,0.5,0.7
2024-02-12T1400,2458A,112.6211,26.8956,衡阳市,珠晖区环保局,细颗粒物(PM2.5),80,71,171,59,145,77,,37,37,4,25,10,10,0.6,1
2024-02-12T1400,2459A,112.6197,26.8733,衡阳市,市委党校,细颗粒物(PM2.5),62,63,156,44,129,71,,31,31,3,17,12,11,0.8,1
2024-02-12T1400,2460A,112.6006,26.8919,衡阳市,市监测站,细颗粒物(PM2.5),85,86,233,63,207,66,,24,24,7,26,10,10,0.9,1.5
2024-02-12T1400,2461A,112.5664,26.9056,衡阳市,真空机电公司,细颗粒物(PM2.5),77,67,158,56,139,63,,31,31,12,24,10,10,0.8,1.3
2024-02-12T1400,3399A,112.6703,26.882,衡阳市,师范学院,细颗粒物(PM2.5),62,60,107,44,95,74,,32,32,2,8,12,10,0.6,0.9
2024-02-12T1400,2608A,103.3772,23.3993,红河哈尼族彝族自治州,污水处理厂,,36,36,39,25,34,76,,69,69,5,6,8,9,0.6,0.7
2024-02-12T1400,2609A,103.3861,23.35,红河哈尼族彝族自治州,监测站,,26,26,40,16,36,78,,68,68,4,6,7,9,0.7,0.7
2024-02-12T1400,3038A,103.3758,23.368,红河哈尼族彝族自治州,州图书馆,,38,38,33,21,28,71,,67,65,4,5,6,6,0.7,0.7
2024-02-12T1400,1090A,111.6507,40.7517,呼和浩特市,呼市一监,细颗粒物(PM2.5),85,88,85,63,62,96,,66,66,19,26,34,15,0.6,0.8
2024-02-12T1400,1091A,111.6572,40.8033,呼和浩特市,小召,颗粒物(PM10),68,85,109,43,69,95,,52,52,16,48,19,17,0.6,1
2024-02-12T1400,1094A,111.7516,40.8369,呼和浩特市,如意水处理厂,颗粒物(PM10),66,82,48,41,54,93,,51,51,15,42,22,18,0.7,0.9
2024-02-12T1400,1095A,111.7276,40.8062,呼和浩特市,二十九中,颗粒物(PM10),68,85,85,41,50,90,,57,57,16,33,22,17,0.7,0.8
2024-02-12T1400,1096A,111.5512,40.7866,呼和浩特市,工大金川校区,细颗粒物(PM2.5),67,75,74,48,42,92,,60,60,15,28,20,13,0.6,0.7
2024-02-12T1400,1097A,111.717,40.7612,呼和浩特市,化肥厂生活区,颗粒物(PM10),61,72,83,37,54,98,,61,61,15,28,26,20,0.5,0.8
2024-02-12T1400,3698A,111.5968,40.8178,呼和浩特市,红旗小学,颗粒物(PM10),63,75,77,38,46,92,,52,52,20,41,22,16,0.7,0.9
2024-02-12T1400,3699A,111.6518,40.8389,呼和浩特市,海东办,颗粒物(PM10),63,75,94,44,61,83,,50,50,23,45,23,17,0.5,0.8
2024-02-12T1400,2192A,119.7594,49.2261,呼伦贝尔市,区环保局,,28,19,20,9,13,87,,91,87,6,6,6,6,0.3,0.3
2024-02-12T1400,3061A,119.7512,49.1577,呼伦贝尔市,国华电力东,,28,19,21,8,9,88,,91,87,4,4,5,5,0.3,0.2
2024-02-12T1400,1250A,120.0751,30.8669,湖州市,城西水厂,颗粒物(PM10),52,54,92,34,64,104,,66,66,11,21,5,5,0.5,0.6
2024-02-12T1400,2873A,120.0875,30.8955,湖州市,仁皇山新区,颗粒物(PM10),53,56,88,35,60,103,,68,68,13,22,6,6,0.6,0.7
2024-02-12T1400,2907A,120.1844,30.8596,湖州市,吴兴区站,,47,47,87,30,59,102,,66,66,8,12,6,7,0.5,0.6
2024-02-12T1400,3562A,120.4148,30.8538,湖州市,南浔区站,细颗粒物(PM2.5),53,54,86,37,55,109,,84,84,4,11,7,8,0.4,0.4
2024-02-12T1400,1607A,120.9092,40.7136,葫芦岛市,龙港区,细颗粒物(PM2.5),123,124,84,93,69,92,,80,80,18,14,11,10,0.8,0.7
2024-02-12T1400,1608A,120.8392,40.7514,葫芦岛市,化工街,细颗粒物(PM2.5),122,139,106,92,74,83,,65,65,16,20,12,15,1.4,1.4
2024-02-12T1400,1609A,120.8341,40.7073,葫芦岛市,新区,细颗粒物(PM2.5),135,134,91,103,81,89,,78,78,20,26,17,20,0.9,0.8
2024-02-12T1400,1610A,120.8695,40.7677,葫芦岛市,东城区,,,,111,,106,83,,60,60,24,37,18,22,,1.7
2024-02-12T1400,2482A,109.5981,27.5721,怀化市,林科所,细颗粒物(PM2.5),78,73,58,57,45,76,,30,30,4,4,4,3,0.3,0.3
2024-02-12T1400,2483A,109.9453,27.5444,怀化市,河西地税局,细颗粒物(PM2.5),74,73,71,54,61,84,,32,32,5,7,4,4,0.5,0.7
2024-02-12T1400,2484A,109.9781,27.5342,怀化市,市四医院,细颗粒物(PM2.5),88,78,89,65,83,77,,30,30,10,14,5,5,0.9,0.9
2024-02-12T1400,2485A,109.9972,27.5578,怀化市,监测楼,细颗粒物(PM2.5),90,69,118,67,96,72,,28,28,8,14,6,6,0.8,1
2024-02-12T1400,2486A,110.0394,27.583,怀化市,市委党校,细颗粒物(PM2.5),88,82,92,65,80,72,,29,29,6,8,7,6,0.6,0.7
2024-02-12T1400,1210A,119.036,33.5981,淮安市,钵池山,细颗粒物(PM2.5),77,78,135,56,97,104,,84,84,12,19,8,10,0.5,0.8
2024-02-12T1400,1211A,119.007,33.575,淮安市,北京南路,细颗粒物(PM2.5),79,85,145,58,103,116,,91,91,12,20,8,10,0.7,1
2024-02-12T1400,1212A,118.989,33.6067,淮安市,市监测站,颗粒物(PM10),65,80,134,46,88,116,,93,93,11,15,8,10,1.2,1.3
2024-02-12T1400,1213A,119.135,33.5039,淮安市,楚州区监测站,细颗粒物(PM2.5),79,90,170,58,127,117,,78,78,13,26,9,9,0.6,0.7
2024-02-12T1400,1214A,119.0186,33.6297,淮安市,淮阴区监测站,细颗粒物(PM2.5),94,102,172,70,125,114,,94,94,15,26,6,7,0.5,0.7
2024-02-12T1400,3426A,118.8755,33.2894,淮安市,新华书店,颗粒物(PM10),65,79,138,46,95,119,,86,86,16,20,8,8,0.5,0.6
2024-02-12T1400,2282A,116.8004,33.975,淮北市,监测站,颗粒物(PM10),73,96,138,41,60,103,,82,82,6,18,7,9,0.6,0.6
2024-02-12T1400,2283A,116.8091,33.9007,淮北市,烈山区政府,颗粒物(PM10),63,75,120,36,55,108,,84,84,10,14,6,8,0.3,0.4
2024-02-12T1400,3330A,116.8873,33.9836,淮北市,杜集区检察院,颗粒物(PM10),63,75,107,37,48,111,,95,95,14,12,10,11,0.4,0.5
2024-02-12T1400,4017A,116.7923,33.9535,淮北市,市博物馆,颗粒物(PM10),68,85,125,41,57,104,,81,81,12,19,7,10,0.8,0.8
2024-02-12T1400,2277A,116.8305,32.7727,淮南市,潘集区政府,颗粒物(PM10),69,87,127,39,68,106,,79,79,8,12,3,7,0.4,0.4
2024-02-12T1400,2278A,117.0067,32.6524,淮南市,师范学院,颗粒物(PM10),65,80,107,35,48,104,,82,82,8,12,7,7,0.4,0.4
2024-02-12T1400,2279A,116.8569,32.5951,淮南市,谢家集区政府,细颗粒物(PM2.5),65,75,103,47,53,114,,89,89,5,8,4,6,0.4,0.5
2024-02-12T1400,2280A,116.8281,32.633,淮南市,八公山区政府,颗粒物(PM10),59,68,97,33,45,110,,90,90,11,10,2,3,0.5,0.4
2024-02-12T1400,2281A,116.6325,32.6201,淮南市,焦岗湖风景区管理处,颗粒物(PM10),61,71,95,42,45,90,,71,71,5,8,4,3,0.1,0.1
2024-02-12T1400,2894A,117.0566,32.6531,淮南市,经济技术开发区消防队,颗粒物(PM10),61,72,103,32,51,106,,79,79,2,5,5,6,0.4,0.4
2024-02-12T1400,3329A,117.0108,32.5893,淮南市,山南新区,颗粒物(PM10),68,85,127,39,66,113,,87,87,7,9,5,6,0.4,0.4
2024-02-12T1400,2446A,114.9028,30.4742,黄冈市,职工中心,颗粒物(PM10),59,67,101,38,53,113,,84,84,5,8,13,11,0.6,0.6
2024-02-12T1400,2929A,114.8858,30.4519,黄冈市,红卫路,细颗粒物(PM2.5),58,63,92,41,54,104,,80,80,4,8,11,9,0.7,0.7
2024-02-12T1400,3398A,114.9136,30.4445,黄冈市,市林业局,"颗粒物(PM10),细颗粒物(PM2.5)",57,63,86,40,50,112,,84,84,6,9,8,7,0.6,0.5
2024-02-12T1400,2672A,102.0199,35.5102,黄南藏族自治州,同仁县隆务镇,,25,21,29,15,15,78,,58,58,1,5,18,21,0.8,0.9
2024-02-12T1400,2295A,118.2903,29.6963,黄山市,延安路89号,颗粒物(PM10),54,58,65,26,35,90,,43,43,4,5,6,6,0.3,0.3
2024-02-12T1400,2296A,118.327,29.7178,黄山市,黄山东路89号,,48,48,72,23,45,87,,44,44,5,12,6,5,0.6,0.7
2024-02-12T1400,2297A,118.1371,30.2756,黄山市,黄山区政府5号楼,,29,24,67,14,38,92,,49,49,4,8,4,4,0.5,0.6
2024-02-12T1400,2423A,115.0601,30.2313,黄石市,沈家营,颗粒物(PM10),63,75,95,44,61,109,,78,78,20,30,12,19,1.1,1.1
2024-02-12T1400,2424A,115.0817,30.2006,黄石市,陈家湾,,50,49,109,35,73,103,,60,60,9,32,13,14,0.5,1
2024-02-12T1400,2426A,114.8988,30.2019,黄石市,铁山,颗粒物(PM10),51,52,87,30,50,111,,86,86,8,18,5,11,0.6,0.8
2024-02-12T1400,2427A,115.0307,30.2092,黄石市,团城山,,,,103,,51,,,71,71,,22,,16,,1
2024-02-12T1400,3149A,115.0235,30.1578,黄石市,笔架山北路,,46,46,72,26,45,118,,80,80,10,12,11,12,0.7,1
2024-02-12T1400,1392A,114.4183,23.0528,惠州市,河南岸金山湖子站,,50,42,63,35,52,94,,61,61,4,7,6,6,0.5,0.5
2024-02-12T1400,1393A,114.4053,23.0822,惠州市,下埔横江三路子站,细颗粒物(PM2.5),55,52,71,39,53,102,,65,65,7,14,6,6,0.5,0.6
2024-02-12T1400,1394A,114.4103,23.1142,惠州市,江北云山西路子站,细颗粒物(PM2.5),52,47,62,36,52,108,,66,66,2,6,8,9,0.5,0.5
2024-02-12T1400,1395A,114.4645,22.7833,惠州市,惠阳区承修路船湖子站,,34,33,53,20,37,107,,78,78,8,12,9,9,0.5,0.6
2024-02-12T1400,1396A,114.5317,22.7422,惠州市,大亚湾管委会子站,,36,36,38,21,25,110,,89,89,8,13,6,7,0.3,0.4
2024-02-12T1400,3314A,114.4338,22.8134,惠州市,惠阳秋长,,38,34,49,21,39,119,,84,84,5,6,8,8,0.3,0.4
2024-02-12T1400,3452A,114.6517,22.775,惠州市,大亚湾霞涌,,36,36,48,22,38,97,,87,87,12,9,8,8,0.6,0.6
2024-02-12T1400,2240A,130.9762,45.3001,鸡西市,环保局,,38,36,100,26,82,79,,76,76,7,27,9,10,0.3,0.7
2024-02-12T1400,2243A,130.9429,45.3039,鸡西市,第一中学,,30,23,51,17,40,94,,91,91,6,9,8,11,0.2,0.3
2024-02-12T1400,3707A,131.0207,45.3073,鸡西市,欧美日汽修厂,,25,25,131,16,90,80,,70,70,12,32,10,33,1.0,1.8
2024-02-12T1400,3709A,130.9967,45.3106,鸡西市,市政设施管理处,,,39,88,18,71,91,,78,78,,33,6,4,0.6,1
2024-02-12T1400,2367A,114.9754,27.0803,吉安市,红声器材厂,颗粒物(PM10),54,57,86,32,56,74,,40,40,7,15,12,12,0.9,1
2024-02-12T1400,2368A,114.9658,27.0999,吉安市,市森林工业局,,49,47,89,34,72,75,,40,40,6,16,8,8,0.7,0.7
2024-02-12T1400,2369A,114.99,27.1312,吉安市,市环境监测站,,47,47,94,26,71,81,,47,47,6,18,6,6,0.4,0.7
2024-02-12T1400,2370A,115.0093,27.0968,吉安市,青原区法院,,47,47,68,31,48,86,,46,46,9,16,9,10,0.6,0.7
2024-02-12T1400,1772A,126.54,43.8622,吉林市,哈达湾,,39,38,57,27,43,113,,92,92,6,13,4,6,0.6,0.7
2024-02-12T1400,1773A,126.5844,43.8358,吉林市,东局子,,48,48,65,31,49,108,,93,93,9,16,9,10,0.8,0.9
2024-02-12T1400,1774A,126.5052,43.8245,吉林市,电力学院,,37,37,64,24,56,111,,90,90,6,18,8,11,0.6,1
2024-02-12T1400,1775A,126.6133,43.8972,吉林市,江北,颗粒物(PM10),51,51,63,28,45,104,,90,90,9,15,24,13,0.6,0.8
2024-02-12T1400,1776A,126.555,43.8306,吉林市,江南公园,细颗粒物(PM2.5),54,46,68,38,58,114,,94,94,6,15,5,9,0.5,0.7
2024-02-12T1400,2868A,126.4739,43.953,吉林市,九站,,46,46,50,25,37,117,,98,98,9,15,9,10,0.7,0.8
2024-02-12T1400,1299A,116.9862,36.6114,济南市,科干所,颗粒物(PM10),70,90,147,46,62,116,,105,105,3,5,9,10,0.8,0.9
2024-02-12T1400,1300A,116.9376,36.665,济南市,农科所,颗粒物(PM10),78,105,136,42,67,112,,98,98,11,19,8,12,0.7,0.8
2024-02-12T1400,1301A,117.1265,36.6734,济南市,开发区,颗粒物(PM10),64,78,114,39,57,97,,91,90,5,8,8,9,0.7,0.8
2024-02-12T1400,1303A,117.0624,36.6868,济南市,省种子仓库,颗粒物(PM10),70,90,129,31,58,117,,103,103,3,9,7,8,0.8,0.8
2024-02-12T1400,1304A,116.9489,36.6447,济南市,机床二厂,颗粒物(PM10),78,105,138,34,66,121,,106,106,8,12,10,18,0.9,1
2024-02-12T1400,1305A,117.0495,36.663,济南市,市监测站,颗粒物(PM10),68,85,121,44,60,118,,108,108,10,12,14,15,0.6,0.7
2024-02-12T1400,1306A,116.7675,36.5484,济南市,长清党校,颗粒物(PM10),79,107,145,49,73,122,,107,107,11,12,10,11,0.8,0.9
2024-02-12T1400,1616A,117.6795,36.229,济南市,技术学院,颗粒物(PM10),75,100,167,46,107,120,,91,91,18,30,12,17,0.8,1.2
2024-02-12T1400,1961A,117.532,36.6868,济南市,东山小学,颗粒物(PM10),78,105,136,44,70,121,,107,107,10,12,10,11,0.4,0.6
2024-02-12T1400,3059A,117.7161,36.2049,济南市,泰兴公司,颗粒物(PM10),73,95,179,44,119,117,,74,74,9,31,13,13,0.8,1.3
2024-02-12T1400,3064A,117.6867,36.2171,济南市,莱芜战役纪念馆,颗粒物(PM10),73,95,178,44,112,111,,79,79,11,27,12,14,0.7,1.1
2024-02-12T1400,3494A,117.1673,36.9782,济南市,济阳区政府,颗粒物(PM10),74,98,145,39,78,117,,95,95,9,15,9,14,0.5,0.7
2024-02-12T1400,3495A,117.1171,36.63,济南市,锦屏中学,颗粒物(PM10),67,83,117,34,58,116,,107,107,6,8,8,10,0.5,0.6
2024-02-12T1400,3682A,116.9814,36.6819,济南市,济南四建,颗粒物(PM10),76,102,124,51,68,112,,97,97,13,17,12,14,0.7,0.8
2024-02-12T1400,1653A,116.6251,35.4302,济宁市,火炬城,,,,140,,77,104,,78,78,10,13,5,7,0.7,0.9
2024-02-12T1400,1655A,116.5491,35.4042,济宁市,电化厂,颗粒物(PM10),78,106,131,39,56,110,,91,91,9,8,7,7,0.6,0.6
2024-02-12T1400,3500A,116.5814,35.3707,济宁市,北湖一中,颗粒物(PM10),91,132,140,39,65,103,,84,84,34,20,10,8,0.7,0.7
2024-02-12T1400,3501A,116.8249,35.5593,济宁市,服务中心,颗粒物(PM10),84,118,163,39,78,114,,90,90,10,14,5,7,0.8,1
2024-02-12T1400,3678A,116.5907,35.4054,济宁市,市第七中学,颗粒物(PM10),98,146,141,39,67,106,,83,83,8,10,4,6,0.7,0.7
2024-02-12T1400,2255A,130.2751,46.8028,佳木斯市,佳纺,,45,45,74,28,60,109,,102,99,8,10,4,5,0.6,0.7
2024-02-12T1400,2256A,130.3995,46.8307,佳木斯市,发电厂,,40,38,67,28,54,105,,100,97,12,18,15,16,0.5,0.6
2024-02-12T1400,2257A,130.3258,46.7975,佳木斯市,环保局,,46,36,67,32,61,105,,99,95,8,10,8,8,0.5,0.7
2024-02-12T1400,2258A,130.3648,46.8032,佳木斯市,十一中,颗粒物(PM10),53,56,76,32,62,104,,100,95,8,13,6,8,0.6,0.6
2024-02-12T1400,2259A,130.3794,46.7588,佳木斯市,四丰,,38,34,76,23,48,120,,112,109,5,7,1,1,0.3,0.4
2024-02-12T1400,1252A,120.7436,30.778,嘉兴市,清河小学,颗粒物(PM10),53,56,90,29,49,101,,84,84,6,13,7,7,0.4,0.7
2024-02-12T1400,1253A,120.726,30.7478,嘉兴市,嘉兴学院,颗粒物(PM10),52,54,80,32,46,109,,93,93,7,14,6,6,0.6,0.7
2024-02-12T1400,2872A,120.7846,30.7525,嘉兴市,南湖区残联,颗粒物(PM10),59,67,91,39,49,119,,102,102,4,10,6,8,0.6,0.6
2024-02-12T1400,3407A,120.6916,30.7739,嘉兴市,秀洲住建,,46,46,82,30,49,98,,85,85,8,15,7,7,0.5,0.6
2024-02-12T1400,1945A,98.2908,39.7711,嘉峪关市,气象局,颗粒物(PM10),63,75,65,29,22,72,,51,51,19,16,62,15,1.0,0.4
2024-02-12T1400,2884A,98.2672,39.7978,嘉峪关市,酒钢宾馆,颗粒物(PM10),60,70,71,27,23,72,,58,58,16,14,54,22,1.2,0.7
2024-02-12T1400,3248A,98.2643,39.7724,嘉峪关市,雄关区,颗粒物(PM10),61,72,54,26,17,67,,45,45,24,22,53,10,1.7,0.5
2024-02-12T1400,1383A,113.1064,22.6058,江门市,北街,颗粒物(PM10),51,51,66,27,56,109,,59,59,9,22,8,10,0.2,0.8
2024-02-12T1400,1384A,113.0731,22.5835,江门市,西区,细颗粒物(PM2.5),52,44,66,36,49,110,,63,63,9,24,8,11,0.1,0.3
2024-02-12T1400,1385A,113.0219,22.5311,江门市,圭峰西,,49,49,42,23,29,109,,76,76,10,15,7,9,0.3,0.4
2024-02-12T1400,1386A,113.0828,22.5947,江门市,东湖,,48,43,71,33,54,107,,59,59,8,24,7,8,0.4,0.7
2024-02-12T1400,3311A,113.1075,22.5647,江门市,江海富民,颗粒物(PM10),53,55,63,22,38,115,,72,72,9,21,7,8,0.3,0.5
2024-02-12T1400,3449A,113.05,22.4667,江门市,新会银湖,,39,35,55,18,39,123,,64,64,8,16,7,7,0.4,0.6
2024-02-12T1400,1828A,113.227,35.2125,焦作市,市环保局,颗粒物(PM10),81,112,114,57,63,94,,55,55,15,18,12,10,1.0,0.9
2024-02-12T1400,3169A,113.2725,35.2067,焦作市,太极体育中心,颗粒物(PM10),80,110,108,52,59,102,,62,62,19,21,14,11,0.8,0.8
2024-02-12T1400,3335A,113.3137,35.2641,焦作市,马村街道办,细颗粒物(PM2.5),77,92,91,56,44,104,,61,61,12,17,16,11,0.5,0.4
2024-02-12T1400,3336A,113.2465,35.2373,焦作市,焦作技师学院,细颗粒物(PM2.5),70,87,81,51,42,94,,55,55,18,22,21,15,1.1,0.9
2024-02-12T1400,3477A,113.1656,35.2539,焦作市,中站许衡医院,颗粒物(PM10),80,110,82,48,33,94,,76,67,15,13,27,11,0.9,0.5
2024-02-12T1400,3981A,113.2449,35.1803,焦作市,原李万街道办,颗粒物(PM10),72,93,109,41,49,102,,61,61,20,23,15,12,0.8,0.8
2024-02-12T1400,1708A,116.3701,23.5345,揭阳市,新兴,,37,37,78,20,60,106,,67,67,3,12,9,10,0.6,0.9
2024-02-12T1400,1709A,116.3264,23.5443,揭阳市,西马,,40,40,76,19,60,110,,71,71,3,10,9,9,0.4,0.6
2024-02-12T1400,1710A,116.3611,23.5626,揭阳市,东兴,,35,35,56,17,33,103,,70,70,2,13,8,8,0.4,0.6
2024-02-12T1400,1711A,116.4151,23.5294,揭阳市,渔湖,细颗粒物(PM2.5),52,46,79,36,54,100,,65,65,2,12,8,9,0.4,0.7
2024-02-12T1400,3320A,116.403,23.5699,揭阳市,曲溪,,34,32,73,18,55,108,,73,73,1,10,3,5,0.4,0.6
2024-02-12T1400,1944A,102.1692,38.5167,金昌市,天庆家园,颗粒物(PM10),61,71,53,21,25,83,,56,56,14,23,35,31,0.5,0.9
2024-02-12T1400,3170A,102.1864,38.5253,金昌市,市委党校,颗粒物(PM10),57,63,71,34,41,84,,53,53,7,22,33,35,0.7,0.9
2024-02-12T1400,4022A,102.1647,38.5371,金昌市,金川区人防中心,细颗粒物(PM2.5),55,54,46,39,24,76,,60,60,8,13,32,27,0.5,0.6
2024-02-12T1400,1262A,119.647,29.077,金华市,十五中,,39,39,67,25,39,96,,65,65,4,12,4,4,0.5,0.5
2024-02-12T1400,1263A,119.686,29.1029,金华市,监测站,,42,42,64,22,36,99,,63,63,3,13,4,4,0.3,0.4
2024-02-12T1400,3659A,119.656,29.1131,金华市,气象局,,39,39,69,23,40,98,,59,59,1,21,3,3,0.5,0.6
2024-02-12T1400,1767A,121.1115,41.0879,锦州市,南山,细颗粒物(PM2.5),137,179,96,104,84,106,,85,85,20,20,42,33,0.9,0.9
2024-02-12T1400,1768A,121.0533,40.8434,锦州市,开发区,细颗粒物(PM2.5),130,179,96,99,71,92,,72,72,22,29,15,26,1.0,0.9
2024-02-12T1400,1769A,121.1836,41.1119,锦州市,百股街道,细颗粒物(PM2.5),132,176,95,100,69,101,,83,83,16,20,18,37,1.0,1
2024-02-12T1400,1770A,121.1178,41.1222,锦州市,天安街道,颗粒物(PM10),123,195,101,91,78,98,,78,78,19,21,38,28,1.0,1
2024-02-12T1400,1771A,121.1303,41.1386,锦州市,北湖公园,细颗粒物(PM2.5),117,136,82,88,78,103,,83,83,20,20,38,31,1.0,1
2024-02-12T1400,2160A,112.85,35.5051,晋城市,自来水公司,,49,49,108,29,55,99,,51,51,14,28,12,16,1.5,1.5
2024-02-12T1400,2161A,112.8318,35.4936,晋城市,白云商贸,颗粒物(PM10),68,85,101,27,36,101,,58,58,15,22,13,10,1.3,1.1
2024-02-12T1400,2162A,112.8508,35.4887,晋城市,市环保局,颗粒物(PM10),76,101,118,39,50,100,,52,52,17,33,14,12,1.9,1.2
2024-02-12T1400,2163A,112.8676,35.4897,晋城市,技术学院,颗粒物(PM10),60,70,100,31,41,98,,49,49,23,34,14,14,1.6,1.4
2024-02-12T1400,3620A,112.8271,35.4828,晋城市,泽州一中,颗粒物(PM10),79,107,92,27,34,99,,58,58,17,22,14,11,1.6,1.2
2024-02-12T1400,2171A,112.7532,37.6945,晋中市,锦纶小区,颗粒物(PM10),69,88,73,39,34,115,,70,70,13,16,19,17,0.7,0.5
2024-02-12T1400,2173A,112.7249,37.7067,晋中市,南都小区,颗粒物(PM10),62,73,105,32,55,113,,65,65,14,25,20,17,0.6,0.6
2024-02-12T1400,2174A,112.6991,37.6982,晋中市,榆次区政府,,,69,75,34,40,109,,67,67,,19,,17,0.7,0.6
2024-02-12T1400,2865A,112.7195,37.6828,晋中市,榆次三中,颗粒物(PM10),68,85,78,34,34,113,,66,66,11,22,19,17,0.7,0.7
2024-02-12T1400,2439A,112.2014,31.0481,荆门市,竹园小学,细颗粒物(PM2.5),84,96,119,62,89,108,,71,71,11,21,11,12,0.9,0.9
2024-02-12T1400,2440A,112.1969,30.9891,荆门市,掇刀,细颗粒物(PM2.5),98,99,115,73,92,113,,73,73,6,12,11,12,0.8,0.8
2024-02-12T1400,2441A,112.2213,31.0386,荆门市,石化一小,细颗粒物(PM2.5),104,91,122,78,99,114,,68,68,11,20,16,19,0.8,0.9
2024-02-12T1400,3012A,112.1849,31.0362,荆门市,西山林语,细颗粒物(PM2.5),80,95,106,59,81,110,,76,76,11,14,14,16,0.7,0.7
2024-02-12T1400,3547A,112.1632,31.0138,荆门市,龙泉中学南校,细颗粒物(PM2.5),94,96,110,70,89,108,,75,75,11,17,8,11,0.7,0.7
2024-02-12T1400,1844A,112.2494,30.3197,荆州市,市图书馆,细颗粒物(PM2.5),73,69,103,53,88,99,,77,77,10,16,9,9,1.1,1.1
2024-02-12T1400,1845A,112.2008,30.3544,荆州市,市委党校,细颗粒物(PM2.5),67,72,98,48,89,104,,79,79,14,19,7,8,0.7,0.8
2024-02-12T1400,3194A,112.2747,30.3122,荆州市,管委会,,,70,90,59,86,103,,81,81,10,15,,10,0.9,1
2024-02-12T1400,3548A,112.1655,30.3364,荆州市,学苑路,细颗粒物(PM2.5),70,56,91,51,89,97,,73,73,12,18,8,8,1.1,1.1
2024-02-12T1400,2342A,117.3102,29.3867,景德镇市,王港中学,,47,47,70,25,47,103,,58,58,1,4,4,4,0,0
2024-02-12T1400,2343A,117.2117,29.2933,景德镇市,老干部活动中心,,35,35,77,15,47,82,,46,46,7,10,7,6,0.3,0.4
2024-02-12T1400,2344A,117.1894,29.2789,景德镇市,兽医站,,40,40,79,20,48,92,,52,52,6,12,7,7,0.4,0.6
2024-02-12T1400,2345A,117.1547,29.2617,景德镇市,台达陶瓷,,38,38,75,15,49,86,,50,50,5,12,5,5,0.4,0.6
2024-02-12T1400,2346A,117.2461,29.2956,景德镇市,陶研所,,27,24,58,11,36,86,,47,47,5,8,4,4,0.5,0.5
2024-02-12T1400,1803A,115.9872,29.6815,九江市,十里,颗粒物(PM10),57,63,88,38,64,117,,72,72,13,23,12,10,0.7,0.8
2024-02-12T1400,1804A,115.9584,29.7046,九江市,茅山头,"颗粒物(PM10),细颗粒物(PM2.5)",52,54,109,36,85,97,,61,61,15,36,10,13,0.7,1
2024-02-12T1400,1805A,115.9877,29.7295,九江市,西园,细颗粒物(PM2.5),65,74,94,47,70,108,,69,69,22,32,10,8,0.8,0.8
2024-02-12T1400,1806A,116.0172,29.6547,九江市,五七二七厂,颗粒物(PM10),52,53,63,34,41,92,,78,78,10,11,10,9,0.6,0.7
2024-02-12T1400,1808A,115.9114,29.6038,九江市,综合工业园,,45,45,76,31,56,107,,83,83,9,13,12,12,0.3,0.5
2024-02-12T1400,1809A,116.0721,29.7535,九江市,石化总厂,颗粒物(PM10),57,64,98,33,66,108,,93,93,6,11,13,12,0.6,0.8
2024-02-12T1400,1810A,115.9773,29.5698,九江市,庐山气象台,,34,34,34,21,18,93,,105,103,2,2,9,8,0.6,0.9
2024-02-12T1400,3190A,116.0254,29.6994,九江市,外国语学校,颗粒物(PM10),52,53,76,32,53,89,,70,70,18,22,10,9,0.7,0.7
2024-02-12T1400,2658A,98.5061,39.7443,酒泉市,仓门街子站,颗粒物(PM10),68,85,80,31,25,80,,53,53,13,11,37,11,1.0,0.5
2024-02-12T1400,2659A,98.4989,39.7256,酒泉市,油田生活基地,颗粒物(PM10),70,90,78,34,30,81,,55,55,10,9,28,12,0.8,0.5
2024-02-12T1400,2698A,76.0072,39.4467,喀什地区,巡警大队,颗粒物(PM10),89,127,118,48,57,58,,32,32,50,50,9,8,1.5,2.1
2024-02-12T1400,2699A,75.9755,39.4694,喀什地区,吾办,细颗粒物(PM2.5),88,121,124,65,77,54,,23,23,52,61,7,7,1.5,2.2
2024-02-12T1400,4027A,75.9483,39.4689,喀什地区,老干局,颗粒物(PM10),83,116,138,55,70,66,,32,32,28,44,8,5,1.2,2.6
2024-02-12T1400,1824A,114.3389,34.7781,开封市,肿瘤医院,细颗粒物(PM2.5),102,119,142,76,70,99,,72,72,10,11,3,3,0.7,0.6
2024-02-12T1400,1826A,114.2885,34.7965,开封市,世纪星幼儿园,细颗粒物(PM2.5),103,101,145,77,82,107,,79,79,5,7,9,6,0.6,0.5
2024-02-12T1400,3147A,114.3438,34.8106,开封市,龙亭公园,细颗粒物(PM2.5),105,125,142,79,77,100,,72,72,9,11,6,5,1.1,0.7
2024-02-12T1400,3210A,114.3644,34.7964,开封市,汴京公园,细颗粒物(PM2.5),107,116,145,80,80,102,,74,74,9,13,6,4,0.6,0.5
2024-02-12T1400,3473A,114.2485,34.8306,开封市,技师学院,细颗粒物(PM2.5),110,87,130,83,73,106,,79,79,4,6,5,2,0.9,0.7
2024-02-12T1400,3592A,114.4644,34.7556,开封市,祥符区生态环境局,细颗粒物(PM2.5),103,121,150,77,72,105,,75,75,9,11,7,4,0.6,0.5
2024-02-12T1400,1951A,84.895,45.6094,克拉玛依市,长征新村,细颗粒物(PM2.5),223,218,138,173,102,132,,113,113,27,33,16,12,1.5,1.2
2024-02-12T1400,1952A,84.8988,45.5893,克拉玛依市,南林小区,细颗粒物(PM2.5),215,219,138,165,102,129,,116,116,25,29,8,4,1.7,1.3
2024-02-12T1400,1954A,84.905,44.3396,克拉玛依市,独山子区,,38,38,106,18,90,82,,87,87,12,38,8,6,0.6,1
2024-02-12T1400,1955A,85.6979,46.098,克拉玛依市,乌尔禾区商贸楼,细颗粒物(PM2.5),159,159,109,121,88,124,,99,99,28,35,8,10,1.4,1.2
2024-02-12T1400,3612A,85.1045,45.6899,克拉玛依市,白碱滩区新站,细颗粒物(PM2.5),237,251,138,187,94,138,,103,103,21,32,15,12,1.6,1.2
2024-02-12T1400,2697A,76.1454,39.7142,克孜勒苏柯尔克孜自治州,市人民政府,,38,38,61,8,35,91,,73,73,2,11,5,5,0.5,0.9
2024-02-12T1400,3665A,76.1658,39.7157,克孜勒苏柯尔克孜自治州,克州文化中心,颗粒物(PM10),73,96,69,30,38,77,,79,59,31,22,9,7,1.9,1
2024-02-12T1400,1450A,102.8204,24.8886,昆明市,呈贡新区,,33,27,35,23,34,87,,69,69,5,6,6,6,0.7,0.8
2024-02-12T1400,1451A,102.6251,24.9608,昆明市,西山森林公园,,36,25,29,25,26,93,,71,71,6,6,8,7,1.0,1.1
2024-02-12T1400,1452A,102.7252,25.0902,昆明市,龙泉镇,,35,33,39,24,35,92,,58,58,6,11,11,12,0.5,0.7
2024-02-12T1400,1453A,102.7266,25.0375,昆明市,东风东路,,39,32,41,27,35,87,,60,59,9,11,11,11,0.8,0.8
2024-02-12T1400,1454A,102.6742,25.0669,昆明市,金鼎山,,40,40,40,16,34,95,,69,69,4,9,6,8,0.6,0.8
2024-02-12T1400,1455A,102.6644,25.0401,昆明市,碧鸡广场,,30,28,41,21,37,89,,62,62,5,9,8,9,0.8,0.8
2024-02-12T1400,3179A,102.7494,25.0119,昆明市,官渡区博物馆,,35,34,35,24,32,90,,62,62,6,7,8,9,0.7,0.8
2024-02-12T1400,3375A,102.8017,24.8336,昆明市,青年创业园,,35,25,36,24,31,92,,67,67,3,6,9,10,0.7,0.7
2024-02-12T1400,3550A,102.7997,24.9786,昆明市,昆明学院,,29,27,41,20,33,89,,63,63,2,5,7,8,0.6,0.8
2024-02-12T1400,3551A,102.5967,24.6736,昆明市,晋宁区生态环境分局,,45,45,58,19,36,96,,69,69,8,9,3,6,0.7,0.9
2024-02-12T1400,3552A,102.6678,24.9856,昆明市,云天化总部,,33,28,38,23,32,92,,64,64,6,8,7,6,0.8,0.9
2024-02-12T1400,1456A,91.1319,29.6514,拉萨市,八廓街,,27,16,22,10,15,84,,65,65,11,16,6,6,0.3,0.4
2024-02-12T1400,1457A,91.1221,29.6747,拉萨市,市环保局,,25,19,36,10,21,78,,44,44,8,19,6,7,0.5,0.8
2024-02-12T1400,1458A,91.0874,29.6475,拉萨市,区监测站,,27,17,15,6,9,86,,60,60,5,13,4,4,0.4,0.6
2024-02-12T1400,1459A,91.1774,29.6541,拉萨市,西藏大学,,28,19,19,11,11,88,,68,68,6,8,3,4,0.3,0.4
2024-02-12T1400,1460A,90.9798,29.6588,拉萨市,区辐射站,,28,21,23,8,18,87,,64,64,5,16,5,6,0.5,0.7
2024-02-12T1400,1461A,91.0834,29.6292,拉萨市,拉萨火车站,,,14,14,5,9,85,,57,52,6,15,2,4,,0.5
2024-02-12T1400,2520A,109.2203,23.7256,来宾市,来宾技工学校,细颗粒物(PM2.5),67,73,123,48,111,109,,51,51,6,20,9,9,0.6,0.9
2024-02-12T1400,3535A,109.1781,23.7297,来宾市,兴宾区政府,细颗粒物(PM2.5),90,87,134,67,114,125,,65,65,10,22,12,13,0.7,1
2024-02-12T1400,4002A,109.2416,23.7461,来宾市,中南小学,颗粒物(PM10),63,76,198,33,174,114,,50,50,8,29,8,8,0.8,1.4
2024-02-12T1400,1476A,103.631,36.1031,兰州市,兰炼宾馆,"颗粒物(PM10),细颗粒物(PM2.5)",64,78,92,46,56,99,,49,49,45,48,38,24,2.4,1.2
2024-02-12T1400,1478A,103.8412,36.0726,兰州市,生物制品所,细颗粒物(PM2.5),74,69,82,54,52,59,,26,26,49,52,39,21,1.7,1.4
2024-02-12T1400,1479A,103.831,36.0464,兰州市,铁路设计院,细颗粒物(PM2.5),73,83,99,53,61,51,,19,19,59,69,39,29,2.0,1.9
2024-02-12T1400,3186A,103.7158,36.1058,兰州市,教育港,细颗粒物(PM2.5),62,68,80,44,54,100,,41,41,36,50,28,21,1.1,1.1
2024-02-12T1400,3241A,103.7439,36.0842,兰州市,百合公园,颗粒物(PM10),58,65,80,35,49,75,,31,31,42,53,20,15,1.5,1.5
2024-02-12T1400,3242A,103.9611,35.998,兰州市,和平,细颗粒物(PM2.5),75,94,69,55,42,72,,50,45,35,25,36,20,2.0,1.1
2024-02-12T1400,3245A,103.6633,36.533,兰州新区,新区管委会,,31,31,46,21,27,63,,35,35,12,13,27,19,0.6,0.7
2024-02-12T1400,3246A,103.6975,36.4789,兰州新区,舟曲中学,,40,40,51,24,26,74,,43,43,12,14,22,19,0.6,0.7
2024-02-12T1400,1067A,116.6708,39.5111,廊坊市,药材公司,细颗粒物(PM2.5),158,194,151,120,106,114,,59,59,17,24,12,8,0.9,0.8
2024-02-12T1400,1068A,116.7214,39.5589,廊坊市,开发区,细颗粒物(PM2.5),172,182,145,130,118,104,,57,57,20,28,11,7,0.9,0.9
2024-02-12T1400,1070A,116.7244,39.5269,廊坊市,北华航天学院,细颗粒物(PM2.5),160,184,153,122,104,113,,62,62,20,30,10,8,0.9,0.8
2024-02-12T1400,2919A,116.7022,39.5453,廊坊市,河北工业大学,细颗粒物(PM2.5),172,183,141,130,109,107,,56,56,23,29,10,7,0.9,0.8
2024-02-12T1400,2535A,103.7723,29.5462,乐山市,花湖湾,细颗粒物(PM2.5),97,,142,72,116,103,,44,44,10,28,6,9,0.5,0.7
2024-02-12T1400,2536A,103.7627,29.5844,乐山市,牛耳桥,细颗粒物(PM2.5),100,89,116,75,102,107,,39,39,18,40,8,8,0.9,1.2
2024-02-12T1400,2537A,103.7508,29.6006,乐山市,市第三水厂,细颗粒物(PM2.5),107,88,125,80,104,112,,43,43,15,41,9,7,1.0,1.3
2024-02-12T1400,2538A,103.7571,29.5664,乐山市,市监测站,细颗粒物(PM2.5),119,,110,90,93,108,,48,48,12,25,6,8,0.6,0.7
2024-02-12T1400,3361A,103.7311,29.5628,乐山市,理工大学,细颗粒物(PM2.5),99,74,112,74,98,110,,49,49,10,21,6,7,0.8,0.9
2024-02-12T1400,2599A,100.2497,26.8802,丽江市,丽江古城,,29,23,33,14,24,91,,71,71,14,17,7,7,0.5,0.6
2024-02-12T1400,2600A,100.2203,26.8906,丽江市,市中心,,29,10,24,5,16,91,,73,73,7,13,9,9,0.5,0.6
2024-02-12T1400,1267A,119.914,28.4514,丽水市,监测站大楼,,49,49,52,29,35,98,,52,52,3,10,7,6,0.3,0.4
2024-02-12T1400,1268A,119.93,28.4586,丽水市,莲都小学,细颗粒物(PM2.5),52,51,51,36,38,99,,57,57,3,7,4,4,0.4,0.4
2024-02-12T1400,1269A,119.879,28.4231,丽水市,余庄前,,44,44,43,28,30,97,,49,49,4,4,5,4,0.5,0.4
2024-02-12T1400,1173A,119.176,34.5885,连云港市,市环境监测站,细颗粒物(PM2.5),77,100,165,56,112,112,,85,85,14,20,9,10,0.7,0.9
2024-02-12T1400,3000A,119.3581,34.6972,连云港市,德源药业,颗粒物(PM10),74,97,157,46,107,119,,94,94,8,13,7,10,0.5,0.6
2024-02-12T1400,3007A,119.178,34.844,连云港市,新城一中,细颗粒物(PM2.5),90,99,135,67,116,128,,100,100,18,18,11,13,0.8,0.9
2024-02-12T1400,3008A,119.3608,34.7519,连云港市,胡沟管理处,颗粒物(PM10),73,95,141,39,84,116,,103,103,12,13,12,11,0.5,0.6
2024-02-12T1400,3009A,119.1478,34.5911,连云港市,矿山设计院,颗粒物(PM10),79,107,180,53,113,111,,84,84,10,19,8,9,0.6,0.8
2024-02-12T1400,3434A,119.2413,34.6539,连云港市,工贸学校,细颗粒物(PM2.5),90,120,154,67,97,123,,109,109,22,22,11,14,0.7,0.8
2024-02-12T1400,3664A,119.4172,34.7341,连云港市,连云街道,,,116,141,57,83,125,,112,112,7,8,5,9,,0.9
2024-02-12T1400,2571A,102.3431,27.8099,凉山彝族自治州,青龙寺,,30,23,46,7,10,94,,70,70,4,5,5,5,0.8,0.9
2024-02-12T1400,2572A,102.2721,27.8415,凉山彝族自治州,邛海宾馆,,40,40,35,21,28,89,,67,66,6,8,9,12,0.8,0.9
2024-02-12T1400,2573A,102.2625,27.898,凉山彝族自治州,西昌市政府,,30,22,40,18,35,96,,,,4,8,10,13,0.7,1.1
2024-02-12T1400,2574A,102.2685,27.8851,凉山彝族自治州,凉山州政府,,29,24,39,20,29,86,,65,65,4,8,8,11,0.6,1
2024-02-12T1400,2575A,102.237,27.8914,凉山彝族自治州,长安,,29,20,41,16,30,90,,68,65,4,8,13,14,1.0,1.3
2024-02-12T1400,2212A,123.2,41.1953,辽阳市,宏伟区,,,74,37,61,28,86,,81,81,6,8,21,13,,0.8
2024-02-12T1400,2213A,123.1683,41.2495,辽阳市,新华园,细颗粒物(PM2.5),95,76,56,71,43,91,,83,83,8,15,19,20,0.9,1
2024-02-12T1400,2214A,123.2354,41.2639,辽阳市,滨河路,细颗粒物(PM2.5),79,62,40,58,33,83,,78,78,8,8,15,14,1.0,0.8
2024-02-12T1400,2215A,123.149,41.2991,辽阳市,铁西工业园,细颗粒物(PM2.5),82,75,52,60,38,94,,88,88,10,16,19,17,1.0,0.9
2024-02-12T1400,2227A,125.1358,42.8845,辽源市,环保局,,50,50,56,30,44,115,,88,88,6,20,10,10,0.7,1
2024-02-12T1400,3239A,125.0764,42.9078,辽源市,银鹰制药,颗粒物(PM10),54,57,51,28,39,122,,88,88,3,14,7,8,0.6,0.8
2024-02-12T1400,1625A,115.9848,36.4372,聊城市,区政府,颗粒物(PM10),84,117,133,52,62,109,,83,83,4,7,6,6,0.7,0.7
2024-02-12T1400,2878A,116.0072,36.4343,聊城市,聊大东校,细颗粒物(PM2.5),79,99,114,58,63,118,,90,90,9,13,9,8,0.8,0.8
2024-02-12T1400,3200A,115.9819,36.4978,聊城市,监控中心,颗粒物(PM10),87,123,132,46,57,116,,90,90,3,9,9,8,0.8,0.7
2024-02-12T1400,3513A,116.0445,36.4361,聊城市,九州社区,颗粒物(PM10),83,116,135,46,57,114,,87,87,11,13,5,6,0.6,0.6
2024-02-12T1400,4018A,116.0567,36.4608,聊城市,星美广场,颗粒物(PM10),91,132,142,46,58,111,,86,86,8,11,3,3,0.8,0.8
2024-02-12T1400,2632A,94.3681,29.6376,林芝市,林芝监测站,,29,,7,8,6,92,,80,80,1,2,4,4,0.4,0.4
2024-02-12T1400,2633A,94.3616,29.6616,林芝市,林芝人民医院,,28,7,10,4,6,89,,80,80,2,3,8,10,0.4,0.4
2024-02-12T1400,2603A,100.0781,23.8982,临沧市,市环保局,,38,32,35,26,29,92,,38,38,6,7,8,8,0.4,0.6
2024-02-12T1400,2604A,100.0894,23.8822,临沧市,市气象局,,49,42,39,34,34,87,,37,37,6,8,6,7,0.5,0.6
2024-02-12T1400,1733A,111.5531,36.0783,临汾市,临钢医院,颗粒物(PM10),71,92,90,40,36,110,,52,52,11,12,14,8,1.1,0.6
2024-02-12T1400,1734A,111.5028,36.0714,临汾市,技工学校,颗粒物(PM10),73,96,98,36,44,114,,55,55,11,17,17,11,1.1,0.6
2024-02-12T1400,1736A,111.5018,36.0855,临汾市,市委,颗粒物(PM10),72,94,95,38,35,115,,55,55,6,12,16,10,1.2,0.7
2024-02-12T1400,3018A,111.505,36.1014,临汾市,唐尧大酒店,颗粒物(PM10),70,89,92,39,34,115,,53,53,16,22,17,12,1.2,0.7
2024-02-12T1400,3668A,111.5036,36.0414,临汾市,城南,颗粒物(PM10),68,86,104,33,43,117,,51,51,9,14,18,10,1.2,0.7
2024-02-12T1400,2667A,103.2069,35.5993,临夏回族自治州,环保局,,33,33,52,9,25,74,,31,31,10,25,15,19,0.5,1.7
2024-02-12T1400,2668A,103.2417,35.6057,临夏回族自治州,建设大厦,,22,9,37,7,23,68,,45,45,13,13,16,14,0.5,0.8
2024-02-12T1400,1618A,118.3429,35.0532,临沂市,沂河小区,颗粒物(PM10),74,97,152,50,97,92,,74,74,13,20,12,14,0.6,0.9
2024-02-12T1400,1619A,118.295,35.0583,临沂市,鲁南制药厂,颗粒物(PM10),74,97,150,44,89,112,,88,88,9,18,11,16,0.9,1.2
2024-02-12T1400,1620A,118.2794,34.9976,临沂市,新光毛纺厂,颗粒物(PM10),73,95,166,49,100,107,,80,80,11,24,10,17,0.8,1.1
2024-02-12T1400,1621A,118.3956,35.0888,临沂市,河东保险公司,颗粒物(PM10),71,92,152,49,105,113,,77,77,10,23,12,12,1.0,1.1
2024-02-12T1400,3370A,118.3564,35.0215,临沂市,十里堡居委,颗粒物(PM10),71,92,153,36,98,115,,88,88,16,24,7,14,0.9,1.1
2024-02-12T1400,3496A,118.3604,35.1084,临沂市,南坊新区,颗粒物(PM10),75,100,155,39,98,109,,82,82,21,25,14,15,0.8,1
2024-02-12T1400,3860A,118.3920,35.0300,临沂市,皇山花园小区,颗粒物(PM10),76,102,152,43,86,118,,83,83,7,14,12,15,0.9,1
2024-02-12T1400,1870A,109.4856,24.3895,柳州市,柳东小学,细颗粒物(PM2.5),69,53,54,50,48,115,,51,51,12,18,10,10,0.4,0.5
2024-02-12T1400,1871A,109.4157,24.3277,柳州市,环保监测站,细颗粒物(PM2.5),94,84,100,70,82,122,,49,49,9,27,11,10,0.4,0.8
2024-02-12T1400,1872A,109.389,24.341,柳州市,河西水厂,颗粒物(PM10),71,92,111,42,71,126,,47,47,9,25,9,9,0.3,0.8
2024-02-12T1400,1873A,109.4311,24.2921,柳州市,市四中,细颗粒物(PM2.5),82,88,133,60,109,123,,51,51,9,27,9,8,0.3,0.9
2024-02-12T1400,1874A,109.4006,24.3631,柳州市,市九中,细颗粒物(PM2.5),92,69,97,68,77,118,,43,43,8,26,9,8,0.5,0.9
2024-02-12T1400,1875A,109.4958,24.3134,柳州市,古亭山,细颗粒物(PM2.5),62,65,50,44,40,118,,55,55,9,13,10,8,0.6,0.6
2024-02-12T1400,3402A,109.5422,24.3996,柳州市,市二中,颗粒物(PM10),59,67,60,40,50,110,,49,49,10,17,10,8,0.7,0.7
2024-02-12T1400,2307A,116.5079,31.737,六安市,监测大楼,,42,39,83,29,48,99,,76,76,8,11,5,5,0.5,0.6
2024-02-12T1400,2308A,116.4738,31.7643,六安市,皖西学院,,45,45,93,31,47,101,,68,68,8,20,4,4,0.4,0.5
2024-02-12T1400,2309A,116.4996,31.7905,六安市,朝阳厂,,46,40,89,32,60,97,,71,71,4,14,5,6,0.4,0.5
2024-02-12T1400,2310A,116.5567,31.7886,六安市,开发区,颗粒物(PM10),55,60,116,31,57,95,,75,75,10,11,14,7,0.4,0.5
2024-02-12T1400,2577A,104.83,26.5917,六盘水市,黄土坡,,39,39,35,27,24,95,,63,63,7,12,11,13,0.5,0.6
2024-02-12T1400,2578A,104.89,26.5939,六盘水市,水钢,,32,31,32,22,21,100,,82,82,5,6,10,10,0.4,0.4
2024-02-12T1400,2579A,104.8475,26.5894,六盘水市,民中,,35,33,46,24,35,91,,67,67,7,14,12,15,0.4,0.6
2024-02-12T1400,2580A,104.9544,26.5506,六盘水市,双水,,42,29,30,29,21,91,,83,81,5,4,10,9,0.4,0.3
2024-02-12T1400,2336A,117.0217,25.1033,龙岩市,龙岩市监测站,,33,32,33,22,21,104,,63,63,3,8,4,4,0.4,0.3
2024-02-12T1400,2337A,117.0258,25.0661,龙岩市,闽西职业技术学院,,32,30,27,16,16,100,,59,59,2,4,4,3,0.5,0.4
2024-02-12T1400,2338A,117.0196,25.0306,龙岩市,龙岩学院,,33,33,26,17,17,93,,56,56,5,5,3,4,0.5,0.5
2024-02-12T1400,2885A,104.9339,33.3826,陇南市,滨江中学,颗粒物(PM10),54,57,77,37,51,80,,46,46,8,21,6,15,0.8,1.1
2024-02-12T1400,3247A,104.955,33.371,陇南市,市总工会,细颗粒物(PM2.5),64,58,62,46,44,88,,56,56,7,11,6,8,0.8,0.8
2024-02-12T1400,2487A,111.9589,27.8901,娄底市,电视发射台,细颗粒物(PM2.5),93,101,77,69,54,69,,48,48,37,16,32,10,3.3,1.5
2024-02-12T1400,2488A,111.9975,27.725,娄底市,市监测站,细颗粒物(PM2.5),73,75,151,53,124,84,,33,33,9,28,21,22,0.8,1.4
2024-02-12T1400,2489A,112.0194,27.7314,娄底市,市委党校,细颗粒物(PM2.5),74,59,137,54,115,72,,30,30,8,18,12,13,0.5,0.9
2024-02-12T1400,2490A,111.9561,27.7569,娄底市,涟钢,细颗粒物(PM2.5),75,75,135,55,110,60,,31,31,21,20,23,13,1.8,1.5
2024-02-12T1400,2491A,111.9892,27.7044,娄底市,市政府,细颗粒物(PM2.5),80,76,151,59,123,78,,33,33,3,13,12,9,0.6,1
2024-02-12T1400,1893A,105.4324,28.9634,泸州市,九狮山,细颗粒物(PM2.5),83,94,136,61,97,116,,49,49,7,11,10,8,0.4,0.5
2024-02-12T1400,1894A,105.4427,28.9063,泸州市,小市上码头,细颗粒物(PM2.5),92,83,115,68,99,95,,42,42,11,32,7,7,0.8,1
2024-02-12T1400,1895A,105.4241,28.8573,泸州市,兰田宪桥,细颗粒物(PM2.5),109,96,114,82,98,103,,61,61,12,16,8,7,0.7,0.7
2024-02-12T1400,1896A,105.4379,28.8833,泸州市,市环监站,细颗粒物(PM2.5),94,91,116,70,100,97,,63,63,6,16,6,7,0.7,0.8
2024-02-12T1400,3490A,105.3617,28.7703,泸州市,纳溪区环保局,,,103,118,73,95,106,,43,43,,20,11,7,0.8,1
2024-02-12T1400,2183A,111.1406,37.5211,吕梁市,环保局,颗粒物(PM10),57,64,87,30,37,89,,45,45,17,22,5,5,0.7,0.5
2024-02-12T1400,2185A,111.1297,37.5136,吕梁市,自来水公司,颗粒物(PM10),65,79,89,32,45,87,,50,50,18,22,9,10,0.6,0.5
2024-02-12T1400,2867A,111.1283,37.51,吕梁市,马茂庄小学,颗粒物(PM10),64,78,102,29,46,82,,46,46,21,22,7,7,0.6,0.4
2024-02-12T1400,1812A,112.3931,34.6516,洛阳市,市委党校,颗粒物(PM10),67,83,148,46,95,88,,43,43,8,32,11,17,0.4,0.6
2024-02-12T1400,1814A,112.4657,34.6871,洛阳市,豫西宾馆,颗粒物(PM10),70,90,160,47,81,96,,50,50,9,30,10,20,0.2,0.4
2024-02-12T1400,1815A,112.494,34.6886,洛阳市,河南林校,颗粒物(PM10),67,84,132,46,72,98,,46,46,9,27,9,11,0.7,0.8
2024-02-12T1400,1816A,112.3844,34.623,洛阳市,开发区管委会,颗粒物(PM10),59,67,107,39,64,95,,52,52,3,10,5,7,0.5,0.6
2024-02-12T1400,1817A,112.4267,34.6258,洛阳市,市委新办公区,细颗粒物(PM2.5),70,79,121,51,87,93,,51,51,8,20,7,8,0.6,0.7
2024-02-12T1400,3340A,112.6005,34.6326,洛阳市,伊滨,细颗粒物(PM2.5),78,102,147,57,81,99,,,,10,18,17,10,0.7,0.6
2024-02-12T1400,3341A,112.4951,34.6332,洛阳市,中移产业园,细颗粒物(PM2.5),72,87,130,52,85,99,,56,56,11,20,12,11,0.8,0.8
2024-02-12T1400,3593A,112.5736,34.8993,洛阳市,吉利监测站,细颗粒物(PM2.5),105,112,108,79,51,104,,67,67,15,17,18,7,0.7,0.4
2024-02-12T1400,3635A,112.3677,34.662,洛阳市,河科大西苑校区,颗粒物(PM10),66,81,161,44,96,100,,44,44,6,31,4,14,0.0,0.2
2024-02-12T1400,3636A,112.4388,34.6781,洛阳市,英才小学,细颗粒物(PM2.5),73,85,156,53,92,98,,49,49,7,25,6,18,0.5,0.8
2024-02-12T1400,2399A,114.051,33.5699,漯河市,三五一五工厂,,,,130,52,72,107,,80,80,8,14,8,8,0.6,0.6
2024-02-12T1400,2400A,114.0055,33.5698,漯河市,漯河大学,细颗粒物(PM2.5),70,79,111,51,60,116,,85,85,2,5,8,7,0.7,0.7
2024-02-12T1400,2401A,114.0138,33.5828,漯河市,市水利局,细颗粒物(PM2.5),70,80,129,51,70,114,,87,87,6,11,10,10,0.7,0.7
2024-02-12T1400,2402A,114.0261,33.5698,漯河市,市广电局,细颗粒物(PM2.5),75,85,131,55,66,112,,84,84,6,12,5,4,0.9,0.9
2024-02-12T1400,3478A,113.9749,33.5664,漯河市,市图书馆,细颗粒物(PM2.5),77,86,122,56,66,112,,85,85,10,14,13,11,0.5,0.5
2024-02-12T1400,3479A,114.0967,33.5906,漯河市,召陵区卫健委,颗粒物(PM10),68,86,125,46,61,109,,85,85,6,9,8,7,0.6,0.6
2024-02-12T1400,1798A,118.5092,31.6837,马鞍山市,湖东路四小,颗粒物(PM10),55,60,125,34,65,106,,80,80,6,24,9,10,0.8,0.7
2024-02-12T1400,1799A,118.5024,31.6449,马鞍山市,开发区,,50,50,97,31,56,108,,82,82,13,23,6,6,0.6,0.5
2024-02-12T1400,1800A,118.5228,31.7231,马鞍山市,慈湖,,,69,101,36,57,101,,81,81,,21,7,8,0.5,0.4
2024-02-12T1400,1802A,118.6245,31.7241,马鞍山市,濮塘,颗粒物(PM10),54,57,93,30,49,95,,81,80,6,9,6,7,0.4,0.5
2024-02-12T1400,3633A,118.4918,31.6809,马鞍山市,雨山,颗粒物(PM10),60,69,109,35,61,108,,82,82,11,27,10,11,0.5,0.4
2024-02-12T1400,1686A,111.0286,21.4688,茂名市,电白南海,颗粒物(PM10),60,70,68,22,38,105,,81,81,8,13,10,13,0.5,0.6
2024-02-12T1400,1687A,110.9294,21.6533,茂名市,茂石化七小,,,46,62,19,46,111,,83,83,7,15,10,17,,0.7
2024-02-12T1400,1688A,110.9107,21.6687,茂名市,健康路,,36,36,69,24,45,106,,74,74,6,16,7,16,0.5,0.7
2024-02-12T1400,1689A,110.8592,21.6828,茂名市,高岭,,39,39,70,24,50,107,,68,68,6,19,8,12,0.4,0.6
2024-02-12T1400,3450A,111.01,21.5165,茂名市,电白水东,,41,41,51,22,34,102,,87,87,5,9,6,10,0.5,0.6
2024-02-12T1400,2539A,104.0308,30.0478,眉山市,黑龙滩水库,细颗粒物(PM2.5),68,63,75,49,58,117,,69,69,5,6,2,2,0.7,0.7
2024-02-12T1400,2540A,103.8416,30.0874,眉山市,气象局,细颗粒物(PM2.5),85,73,94,63,86,115,,54,54,11,23,10,9,0.8,0.9
2024-02-12T1400,3137A,103.8578,30.0744,眉山市,市委党校,细颗粒物(PM2.5),104,92,105,78,87,106,,48,48,15,32,9,8,0.7,0.8
2024-02-12T1400,3148A,103.8291,30.0564,眉山市,区人社局,细颗粒物(PM2.5),107,95,84,80,84,104,,44,44,22,39,9,10,0.6,0.7
2024-02-12T1400,1690A,116.1231,24.3284,梅州市,梅江月梅,颗粒物(PM10),57,63,35,22,40,99,,56,56,4,6,10,10,0.6,0.6
2024-02-12T1400,1691A,116.0797,24.2719,梅州市,梅县新城,,40,40,58,26,40,109,,62,62,5,11,6,7,0.4,0.4
2024-02-12T1400,1692A,116.1248,24.2654,梅州市,环境监控中心,,38,30,40,26,31,100,,58,58,5,13,5,5,0.5,0.5
2024-02-12T1400,3315A,116.1233,24.2991,梅州市,梅龙,,36,,41,25,36,99,,55,55,5,12,6,7,0.4,0.5
2024-02-12T1400,1878A,104.7778,31.4741,绵阳市,富乐山,细颗粒物(PM2.5),80,66,87,59,76,104,,59,59,6,13,8,7,0.6,0.9
2024-02-12T1400,1879A,104.7563,31.4535,绵阳市,市人大,颗粒物(PM10),65,79,102,46,77,90,,44,44,19,37,6,5,0.6,0.9
2024-02-12T1400,1880A,104.6697,31.4668,绵阳市,高新区自来水公司,细颗粒物(PM2.5),77,65,100,56,86,103,,44,44,13,23,8,7,0.7,0.9
2024-02-12T1400,1881A,104.7287,31.5075,绵阳市,三水厂,细颗粒物(PM2.5),87,80,104,64,93,102,,36,36,6,23,7,6,0.7,1
2024-02-12T1400,3491A,104.69,31.5322,绵阳市,西科大附属小学,细颗粒物(PM2.5),72,60,86,52,75,105,,60,59,10,14,9,8,0.4,0.7
2024-02-12T1400,3492A,104.5648,31.5343,绵阳市,安州区旅游局,细颗粒物(PM2.5),57,62,99,40,83,102,,43,43,10,24,9,7,0.8,1
2024-02-12T1400,1784A,129.61,44.561,牡丹江市,环保大楼,,44,44,79,13,58,97,,80,80,8,29,9,13,0.4,0.8
2024-02-12T1400,1785A,129.6115,44.5782,牡丹江市,文化广场,细颗粒物(PM2.5),53,53,90,37,75,88,,67,67,11,31,12,16,0.5,1
2024-02-12T1400,1786A,129.5904,44.5963,牡丹江市,第一医院,,46,36,82,32,71,94,,65,65,10,39,13,15,0.5,0.9
2024-02-12T1400,1787A,129.6364,44.6075,牡丹江市,机车工厂,,41,41,71,23,55,90,,61,61,11,34,11,11,0.4,0.7
2024-02-12T1400,1788A,129.6386,44.5462,牡丹江市,第一中学,,34,34,56,15,46,96,,77,77,6,17,12,14,0.4,0.7
2024-02-12T1400,2531A,105.0703,29.61,内江市,市监测站,细颗粒物(PM2.5),113,,86,85,92,88,,47,30,24,25,11,9,1.0,1
2024-02-12T1400,2532A,105.0717,29.5947,内江市,东兴区政府,细颗粒物(PM2.5),97,,86,72,83,88,,36,31,23,23,10,11,0.9,0.9
2024-02-12T1400,2533A,105.0653,29.5817,内江市,内江二中,细颗粒物(PM2.5),118,,86,89,92,92,,33,32,19,24,8,8,1.0,1
2024-02-12T1400,2534A,105.0406,29.5822,内江市,内江日报社,细颗粒物(PM2.5),113,,83,85,83,101,,57,32,11,22,8,9,0.9,0.9
2024-02-12T1400,2628A,92.0657,31.4846,那曲市,那曲监测站,,25,21,37,16,26,80,,47,47,5,11,6,8,0.6,1.1
2024-02-12T1400,3128A,92.0506,31.4797,那曲市,那曲会议中心,,28,7,24,1,13,89,,52,52,3,9,6,7,0.3,0.6
2024-02-12T1400,1290A,115.8931,28.6843,南昌市,省外办,细颗粒物(PM2.5),67,70,169,48,130,94,,41,41,6,32,8,8,0.7,1.5
2024-02-12T1400,1291A,115.8886,28.7003,南昌市,省林业公司,颗粒物(PM10),56,61,107,36,82,96,,42,42,12,33,6,6,0.8,1
2024-02-12T1400,1292A,115.8126,28.7442,南昌市,林科所,细颗粒物(PM2.5),58,61,68,41,51,106,,76,76,6,11,11,11,0.6,0.7
2024-02-12T1400,1294A,115.8518,28.687,南昌市,建工学校,颗粒物(PM10),62,74,119,41,88,102,,54,54,4,31,8,7,0.5,0.9
2024-02-12T1400,1295A,115.8921,28.6424,南昌市,象湖,颗粒物(PM10),62,74,164,41,115,107,,51,51,8,34,8,7,0.6,1
2024-02-12T1400,1296A,115.7423,28.7996,南昌市,武术学校,细颗粒物(PM2.5),59,,45,42,41,102,,58,58,5,5,13,10,0.8,0.8
2024-02-12T1400,1298A,115.9314,28.6842,南昌市,省站,细颗粒物(PM2.5),68,79,152,49,110,98,,50,50,7,33,10,10,0.6,1.2
2024-02-12T1400,3046A,115.9084,28.6062,南昌市,机电学校,"颗粒物(PM10),细颗粒物(PM2.5)",58,66,122,41,91,106,,56,56,4,31,9,9,0.7,1.3
2024-02-12T1400,3690A,115.9721,28.7031,南昌市,外国语学校,细颗粒物(PM2.5),69,61,113,50,105,93,,52,52,7,26,8,7,0.6,0.7
2024-02-12T1400,1905A,106.056,30.8064,南充市,西山风景区,细颗粒物(PM2.5),90,,62,67,66,79,,77,54,15,10,5,4,0.9,0.8
2024-02-12T1400,1906A,106.0789,30.8023,南充市,南充市委,细颗粒物(PM2.5),79,77,90,58,66,85,,42,42,15,29,7,5,0.6,0.7
2024-02-12T1400,1907A,106.1031,30.8217,南充市,南充炼油厂,细颗粒物(PM2.5),89,80,85,66,70,91,,39,39,11,18,7,5,0.5,0.5
2024-02-12T1400,1908A,106.1064,30.7856,南充市,高坪区监测站,细颗粒物(PM2.5),78,84,92,57,66,90,,30,30,11,29,9,7,0.5,0.7
2024-02-12T1400,1909A,106.0642,30.7636,南充市,嘉陵区环保局,细颗粒物(PM2.5),92,79,92,68,77,85,,35,35,11,39,5,3,0.7,1
2024-02-12T1400,1910A,106.1087,30.8388,南充市,市环境监测站,细颗粒物(PM2.5),89,75,82,66,64,90,,56,42,20,16,9,8,0.6,0.6
2024-02-12T1400,1151A,118.8086,32.1065,南京市,迈皋桥,颗粒物(PM10),52,53,93,22,47,86,,74,74,7,20,3,4,0.3,0.5
2024-02-12T1400,1152A,118.7538,32.0551,南京市,草场门,,36,36,99,19,50,103,,83,83,12,31,2,4,0.4,0.7
2024-02-12T1400,1153A,118.7794,32.0745,南京市,山西路,,41,41,92,22,51,82,,70,70,16,29,4,5,0.5,0.7
2024-02-12T1400,1154A,118.7752,32.0023,南京市,中华门,,44,44,94,27,54,99,,78,78,4,19,7,8,0.5,0.6
2024-02-12T1400,1155A,118.8109,32.0309,南京市,瑞金路,,46,46,98,22,55,94,,69,69,11,44,4,4,0.4,0.8
2024-02-12T1400,1156A,118.7997,32.0754,南京市,玄武湖,颗粒物(PM10),56,62,103,17,45,103,,89,89,7,17,7,9,0.5,0.3
2024-02-12T1400,1157A,118.6414,32.0931,南京市,浦口,颗粒物(PM10),61,72,99,11,31,95,,79,79,20,17,12,7,1.1,0.8
2024-02-12T1400,1158A,118.7356,31.9996,南京市,奥体中心,,50,50,97,22,48,107,,86,86,3,21,6,7,0.5,0.6
2024-02-12T1400,1159A,118.9125,32.1028,南京市,仙林大学城,,48,48,95,22,46,101,,85,85,7,20,4,5,0.6,0.7
2024-02-12T1400,3422A,118.8436,31.9198,南京市,江宁彩虹桥,颗粒物(PM10),53,55,120,14,62,108,,85,85,2,20,3,4,0.3,0.6
2024-02-12T1400,3423A,119.0138,31.6494,南京市,溧水永阳,,39,39,88,25,60,100,,74,74,8,23,4,4,0.3,0.6
2024-02-12T1400,3424A,118.879,31.3302,南京市,高淳老职中,,38,38,89,22,55,98,,81,81,2,8,4,7,0.4,0.5
2024-02-12T1400,3427A,118.8554,32.3578,南京市,六合雄州,细颗粒物(PM2.5),113,132,126,85,61,111,,84,84,11,23,2,3,0.8,0.7
2024-02-12T1400,1401A,108.3103,22.7881,南宁市,二十一中,,48,48,72,26,67,124,,73,73,6,24,9,8,0.6,0.7
2024-02-12T1400,1402A,108.3141,22.8528,南宁市,北湖,,43,43,71,30,58,117,,61,61,4,22,7,6,0.6,0.7
2024-02-12T1400,1403A,108.3206,22.8225,南宁市,市监测站,颗粒物(PM10),54,57,74,28,64,119,,73,73,6,30,8,8,0.7,0.9
2024-02-12T1400,1404A,108.3829,22.8037,南宁市,大自然花园,细颗粒物(PM2.5),54,50,60,38,50,119,,74,74,9,19,9,7,0.5,0.6
2024-02-12T1400,1405A,108.4394,22.7904,南宁市,仙葫,细颗粒物(PM2.5),52,51,92,36,84,109,,62,62,10,24,9,8,0.6,0.7
2024-02-12T1400,1406A,108.2397,22.8467,南宁市,区农职院,,50,50,43,28,30,123,,74,74,11,13,10,9,0.6,0.7
2024-02-12T1400,1407A,108.3275,22.735,南宁市,英华嘉园,,,52,73,27,60,109,,57,57,8,24,,7,0.3,0.5
2024-02-12T1400,1408A,108.2257,22.7757,南宁市,沙井镇街道办,,43,43,66,26,49,119,,60,60,9,23,7,7,0.5,0.6
2024-02-12T1400,3401A,108.4834,22.7618,南宁市,红星社区,颗粒物(PM10),53,55,70,31,59,117,,66,66,9,17,11,10,0.6,0.7
2024-02-12T1400,2332A,118.1681,26.6369,南平市,南平市监测站,,33,33,47,23,36,86,,50,50,6,11,6,6,1.7,0.8
2024-02-12T1400,2333A,118.1825,26.6489,南平市,南平铝业有限公司,,33,27,52,23,33,81,,46,46,4,8,6,7,0.5,0.5
2024-02-12T1400,2334A,118.1756,26.6272,南平市,南平七中,,41,41,43,24,28,90,,52,52,6,9,4,5,0.4,0.4
2024-02-12T1400,1168A,120.9098,31.9663,南通市,狼山街道,颗粒物(PM10),58,65,116,37,84,124,,88,88,12,34,9,10,0.6,0.8
2024-02-12T1400,1169A,120.86,32.0005,南通市,虹桥,"颗粒物(PM10),细颗粒物(PM2.5)",60,70,118,43,78,110,,94,94,21,46,6,8,0.4,0.6
2024-02-12T1400,1170A,120.87,32.02,南通市,城中,颗粒物(PM10),61,72,125,37,75,121,,97,97,16,39,6,8,0.4,0.9
2024-02-12T1400,1171A,120.94,31.93,南通市,星湖花园,颗粒物(PM10),60,69,124,31,77,115,,88,88,15,42,7,9,0.4,0.8
2024-02-12T1400,1172A,120.81,32.0417,南通市,紫琅学院,颗粒物(PM10),58,65,113,25,68,112,,81,81,22,52,8,10,0.5,0.8
2024-02-12T1400,3291A,121.067,32.062,南通市,通州监测站,颗粒物(PM10),64,78,138,36,91,124,,86,86,19,32,11,10,0.3,0.5
2024-02-12T1400,3432A,120.9348,31.9883,南通市,环境教育馆,颗粒物(PM10),64,78,130,32,88,123,,84,84,28,32,8,9,0.4,0.6
2024-02-12T1400,2404A,112.5224,33.0122,南阳市,瓦房庄,细颗粒物(PM2.5),112,94,97,84,83,93,,77,71,9,13,12,10,0.6,0.6
2024-02-12T1400,2405A,112.5003,32.9735,南阳市,汉画馆,细颗粒物(PM2.5),112,99,102,84,79,94,,73,73,11,13,11,9,0.7,0.6
2024-02-12T1400,2406A,112.5573,33.027,南阳市,气象站,细颗粒物(PM2.5),113,93,100,85,84,94,,81,73,16,18,13,11,0.7,0.6
2024-02-12T1400,2407A,112.5481,32.9689,南阳市,理工学院,细颗粒物(PM2.5),115,89,95,87,73,96,,79,74,,8,10,8,0.8,0.6
2024-02-12T1400,4008A,112.5234,32.9922,南阳市,卧龙区政府,细颗粒物(PM2.5),105,92,94,79,74,92,,77,72,11,15,10,9,0.6,0.6
2024-02-12T1400,1234A,121.8358,29.911,宁波市,区环保大楼,颗粒物(PM10),74,98,98,37,47,122,,104,104,4,16,7,7,0.4,0.6
2024-02-12T1400,1235A,121.56,29.82,宁波市,万里学院,颗粒物(PM10),53,56,82,31,49,112,,100,100,13,16,6,8,0.4,0.5
2024-02-12T1400,1236A,121.713,29.9572,宁波市,龙赛医院,颗粒物(PM10),60,69,80,36,47,118,,100,100,5,13,4,5,0.5,0.7
2024-02-12T1400,1239A,121.633,29.7733,宁波市,钱湖水厂,颗粒物(PM10),55,60,79,29,48,110,,102,100,4,6,5,6,0.6,0.7
2024-02-12T1400,1240A,121.5856,29.8635,宁波市,太古小学,,47,47,72,29,51,111,,101,101,10,16,7,8,0.4,0.6
2024-02-12T1400,1241A,121.524,29.8674,宁波市,市环境监测中心,,47,47,76,23,47,116,,98,98,12,20,6,7,0.5,0.7
2024-02-12T1400,2871A,121.6147,29.9017,宁波市,万里国际学校,颗粒物(PM10),54,57,75,28,49,116,,109,109,11,15,8,9,0.6,0.7
2024-02-12T1400,3710A,121.5594,29.8975,宁波市,白沙活动中心,颗粒物(PM10),55,60,85,28,46,114,,104,104,8,15,7,8,0.6,0.8
2024-02-12T1400,2341A,119.5388,26.6612,宁德市,宁德市监测站,颗粒物(PM10),76,102,42,30,33,106,,71,71,5,6,6,7,0.3,0.6
2024-02-12T1400,3209A,119.5231,26.6562,宁德市,宁德一中,,,48,43,33,38,,,71,71,7,11,6,6,0.3,0.5
2024-02-12T1400,2618A,98.8601,25.8567,怒江傈僳族自治州,州监测站,,25,25,41,16,32,79,,60,60,3,6,9,10,0.5,0.5
2024-02-12T1400,2619A,98.8546,25.8417,怒江傈僳族自治州,泸水一中,,33,33,42,15,36,73,,45,45,7,11,9,9,0.5,0.6
2024-02-12T1400,1888A,101.6891,26.571,攀枝花市,弄弄坪,细颗粒物(PM2.5),52,,63,36,50,100,,35,35,15,30,19,31,1.3,2
2024-02-12T1400,1889A,101.5769,26.5928,攀枝花市,河门口,,43,43,58,30,39,90,,47,47,18,17,24,17,2.0,1.4
2024-02-12T1400,1890A,101.7169,26.585,攀枝花市,炳草岗,,45,35,51,31,41,100,,36,36,16,29,30,29,1.4,1.6
2024-02-12T1400,1891A,101.7369,26.5008,攀枝花市,仁和,,43,34,48,30,39,91,,53,53,8,14,17,12,0.8,1.1
2024-02-12T1400,2835A,101.7227,26.567,攀枝花市,四十中小,,50,48,60,35,40,108,,48,48,11,22,23,21,1.3,1.1
2024-02-12T1400,1604A,122.0303,41.1489,盘锦市,开发区,细颗粒物(PM2.5),132,168,70,100,46,121,,97,97,15,19,14,12,1.0,0.7
2024-02-12T1400,1605A,122.0485,41.0883,盘锦市,兴隆台,细颗粒物(PM2.5),122,161,72,92,45,119,,97,97,15,18,15,15,1.1,0.8
2024-02-12T1400,1606A,121.8297,41.1028,盘锦市,新生街道,细颗粒物(PM2.5),124,159,66,94,40,104,,84,84,20,18,13,11,1.0,0.7
2024-02-12T1400,1832A,113.3257,33.742,平顶山市,新华旅馆,,,107,130,71,75,105,,89,88,,8,11,10,,0.5
2024-02-12T1400,1833A,113.2919,33.737,平顶山市,规划设计院,细颗粒物(PM2.5),112,121,119,84,74,125,,112,106,8,7,15,13,0.9,0.7
2024-02-12T1400,1834A,113.182,33.774,平顶山市,平顶山工学院,细颗粒物(PM2.5),98,104,112,73,70,115,,99,98,11,11,9,7,0.8,0.7
2024-02-12T1400,3204A,113.3025,33.73,平顶山市,规划局,细颗粒物(PM2.5),109,119,138,82,89,93,,82,77,12,12,11,10,0.8,0.7
2024-02-12T1400,3594A,112.8867,33.9116,平顶山市,石龙区,细颗粒物(PM2.5),98,88,105,73,75,108,,84,84,13,13,12,9,0.7,0.6
2024-02-12T1400,2656A,106.6692,35.5461,平凉市,聚贤嘉苑,颗粒物(PM10),51,52,62,31,29,96,,77,77,18,16,11,10,0.4,0.5
2024-02-12T1400,2657A,106.7021,35.5307,平凉市,博物馆,颗粒物(PM10),51,52,71,29,39,97,,68,68,17,19,17,17,0.2,0.5
2024-02-12T1400,2347A,114.0997,27.5002,萍乡市,武功山,,25,21,36,15,29,79,,56,56,4,6,9,8,0.3,0.5
2024-02-12T1400,2348A,113.8385,27.6434,萍乡市,中医院,颗粒物(PM10),67,84,111,43,82,70,,42,42,16,28,10,7,1.2,1.3
2024-02-12T1400,2349A,113.8493,27.6253,萍乡市,市政府车库,细颗粒物(PM2.5),83,88,127,61,97,71,,42,42,16,25,25,18,2.1,1.9
2024-02-12T1400,2350A,113.8676,27.6435,萍乡市,市环保局,细颗粒物(PM2.5),73,77,84,53,63,74,,53,53,9,18,10,9,0.9,0.9
2024-02-12T1400,2351A,113.866,27.6198,萍乡市,安源区政府,颗粒物(PM10),66,82,99,35,64,71,,45,45,20,26,12,10,1.6,1.4
2024-02-12T1400,2319A,119.0141,25.4325,莆田市,荔城区仓后路,,50,46,48,35,36,114,,75,75,5,11,7,7,0.8,0.9
2024-02-12T1400,2320A,119.0015,25.4553,莆田市,莆田市监测站,,42,42,32,29,22,114,,87,87,6,5,9,9,0.4,0.4
2024-02-12T1400,2321A,119.1119,25.4561,莆田市,涵江区六中,,47,47,43,29,29,119,,94,94,2,9,8,8,0.8,0.8
2024-02-12T1400,2322A,119.1013,25.3215,莆田市,秀屿区政府,细颗粒物(PM2.5),55,,46,39,34,117,,94,94,4,6,6,6,0.7,0.8
2024-02-12T1400,2392A,115.0312,35.7636,濮阳市,环保局,细颗粒物(PM2.5),80,101,121,59,57,97,,71,71,6,8,8,6,0.3,0.3
2024-02-12T1400,2394A,115.0574,35.7609,濮阳市,油田运输公司,细颗粒物(PM2.5),82,95,118,60,59,102,,72,72,6,9,11,9,0.7,0.7
2024-02-12T1400,2395A,115.0866,35.7754,濮阳市,油田物探公司,细颗粒物(PM2.5),83,104,127,61,64,101,,68,68,8,13,9,7,0.6,0.6
2024-02-12T1400,3021A,115,35.7668,濮阳市,濮水河管理处,细颗粒物(PM2.5),80,99,120,59,57,97,,72,72,2,5,12,8,0.8,0.6
2024-02-12T1400,2601A,100.98,22.7633,普洱市,市环保局,,38,38,47,26,36,66,,48,48,6,7,4,5,0.6,0.7
2024-02-12T1400,2602A,100.9817,22.8322,普洱市,普洱第二中学,,37,37,40,25,26,74,,41,41,5,8,6,5,0.7,0.8
2024-02-12T1400,2262A,131.0518,45.8751,七台河市,新一中,,35,27,60,17,52,109,,97,97,10,13,12,11,0.8,0.9
2024-02-12T1400,3345A,131.0577,45.7879,七台河市,中波台,,32,28,75,17,62,100,,93,93,14,27,11,11,0.7,1.1
2024-02-12T1400,3637A,131.0176,45.7761,七台河市,人民广场,,38,32,100,26,81,101,,96,96,11,36,13,13,0.8,1.2
2024-02-12T1400,3684A,130.8781,45.8222,七台河市,新建矿广场,,38,,92,26,78,100,,84,84,13,32,13,25,0.6,1
2024-02-12T1400,1779A,123.9305,47.3636,齐齐哈尔市,安居小区,颗粒物(PM10),117,183,69,11,11,68,,62,62,9,8,7,8,0.4,0.4
2024-02-12T1400,1780A,123.9488,47.3386,齐齐哈尔市,中心广场,颗粒物(PM10),116,181,78,16,23,65,,59,59,7,10,7,8,0.4,0.4
2024-02-12T1400,1781A,123.9483,47.3227,齐齐哈尔市,农牧车辆厂,颗粒物(PM10),97,144,66,8,14,68,,60,60,6,7,9,10,0.4,0.4
2024-02-12T1400,1783A,123.945,47.2988,齐齐哈尔市,市环境监测站,颗粒物(PM10),115,179,78,22,18,72,,64,64,4,6,3,5,0.4,0.4
2024-02-12T1400,3662A,123.6333,47.2075,齐齐哈尔市,富区青少年活动中心,颗粒物(PM10),130,210,102,15,13,57,,56,56,20,7,47,11,1.5,0.5
2024-02-12T1400,2591A,107.9783,26.5747,黔东南苗族侗族自治州,市环境监测站,,35,35,32,23,26,97,,80,80,5,9,6,7,0.3,0.3
2024-02-12T1400,2881A,107.8908,26.5311,黔东南苗族侗族自治州,凯里学院,,33,28,28,22,21,105,,97,97,2,2,6,5,0.5,0.5
2024-02-12T1400,2593A,107.5228,26.2403,黔南布依族苗族自治州,小围寨,,31,27,20,14,13,99,,93,93,4,5,6,7,0.3,0.2
2024-02-12T1400,3538A,107.5175,26.2978,黔南布依族苗族自治州,沙坝,,34,34,23,14,18,100,,80,80,2,5,5,6,0.6,0.6
2024-02-12T1400,2589A,104.9022,25.0925,黔西南布依族苗族自治州,场坝街,,24,14,29,6,20,74,,70,70,4,7,2,2,0.5,0.4
2024-02-12T1400,2590A,104.8811,25.0992,黔西南布依族苗族自治州,坪东大道,,23,21,42,15,33,72,,59,59,6,10,2,2,0.2,0.3
2024-02-12T1400,2502A,108.6236,21.9667,钦州市,市环保站,,46,46,121,17,78,103,,56,56,7,24,8,10,0.6,1
2024-02-12T1400,2503A,108.6549,21.9481,钦州市,沙埠小学,,39,39,81,26,69,109,,64,64,6,17,8,9,0.6,0.8
2024-02-12T1400,2504A,108.5989,21.7431,钦州市,港区一小,颗粒物(PM10),55,59,89,24,51,109,,60,60,6,20,8,14,0.5,0.8
2024-02-12T1400,3404A,108.5959,21.9633,钦州市,北职校,,41,41,77,24,63,109,,63,63,6,14,10,11,0.6,0.8
2024-02-12T1400,1042A,119.5134,39.8207,秦皇岛市,北戴河环保局,细颗粒物(PM2.5),144,154,135,110,98,74,,65,65,42,49,13,13,0.9,1.2
2024-02-12T1400,1043A,119.7493,40.0116,秦皇岛市,第一关,细颗粒物(PM2.5),159,166,142,121,98,74,,58,58,37,46,20,19,1.2,1.4
2024-02-12T1400,1044A,119.5897,39.9499,秦皇岛市,监测站,细颗粒物(PM2.5),150,163,130,115,87,77,,37,37,43,58,20,13,1.2,1.4
2024-02-12T1400,1046A,119.5251,39.9041,秦皇岛市,建设大厦,细颗粒物(PM2.5),139,155,118,106,73,81,,52,52,30,39,16,10,1.1,1.2
2024-02-12T1400,3132A,119.610547,39.943889,秦皇岛市,文明里,细颗粒物(PM2.5),139,205,145,106,85,65,,34,34,51,57,16,11,1.1,1.3
2024-02-12T1400,1307A,120.6659,36.2403,青岛市,仰口,颗粒物(PM10),75,100,137,44,98,127,,102,102,22,20,3,6,1.1,1.2
2024-02-12T1400,1310A,120.4134,36.0658,青岛市,市南区东部子站,细颗粒物(PM2.5),119,146,228,90,170,106,,74,74,25,35,10,12,1.1,1.6
2024-02-12T1400,1311A,120.3664,36.1032,青岛市,四方区子站,细颗粒物(PM2.5),122,132,205,92,166,118,,81,81,31,41,9,13,1.3,1.6
2024-02-12T1400,1312A,120.2994,36.054,青岛市,市南区西部子站,细颗粒物(PM2.5),125,144,196,95,142,104,,72,72,17,34,9,10,1.2,1.6
2024-02-12T1400,1313A,120.4581,36.0858,青岛市,崂山区子站,细颗粒物(PM2.5),128,149,238,97,172,111,,77,77,17,27,9,10,1.0,1.5
2024-02-12T1400,1314A,120.1983,35.9608,青岛市,黄岛区子站,细颗粒物(PM2.5),123,144,207,93,156,104,,76,76,25,29,9,10,1.0,1.4
2024-02-12T1400,1315A,120.3999,36.3083,青岛市,城阳区子站,颗粒物(PM10),84,117,164,39,83,122,,88,88,15,32,9,14,0.9,1.1
2024-02-12T1400,1966A,120.0405,35.8735,青岛市,黄岛区4号,细颗粒物(PM2.5),132,141,205,100,156,105,,76,76,21,23,10,9,1.1,1.5
2024-02-12T1400,3362A,120.5014,36.4034,青岛市,即墨2号,颗粒物(PM10),82,113,146,44,92,114,,93,93,16,20,8,15,0.8,1.1
2024-02-12T1400,3642A,120.3503,36.0736,青岛市,市北区南部,细颗粒物(PM2.5),125,170,206,95,150,112,,78,78,20,31,8,10,0.7,1.3
2024-02-12T1400,3643A,120.3948,36.1805,青岛市,李沧区北部,细颗粒物(PM2.5),132,132,193,100,148,,,84,78,,32,,18,,1.3
2024-02-12T1400,1702A,113.0426,23.691,清远市,环保大楼,细颗粒物(PM2.5),60,45,45,43,40,116,,63,63,3,9,4,5,0.7,0.8
2024-02-12T1400,1703A,113.0208,23.7106,清远市,凤城街办,细颗粒物(PM2.5),60,52,50,43,38,122,,65,65,10,22,8,8,0.5,0.6
2024-02-12T1400,3025A,113.0477,23.6344,清远市,技师学院,颗粒物(PM10),53,55,68,35,47,117,,62,62,2,8,6,7,0.4,0.5
2024-02-12T1400,3318A,112.9903,23.7403,清远市,清新太和,细颗粒物(PM2.5),55,53,40,39,27,119,,63,63,9,14,8,7,0.4,0.4
2024-02-12T1400,3455A,113.076,23.7198,清远市,清城东城,,40,40,36,27,27,107,,56,56,7,9,9,9,0.6,0.4
2024-02-12T1400,2661A,107.6325,35.7357,庆阳市,庆阳五中,细颗粒物(PM2.5),62,61,94,44,60,102,,72,72,7,15,10,14,0.6,0.8
2024-02-12T1400,2662A,107.6364,35.7067,庆阳市,市环保局,细颗粒物(PM2.5),62,68,100,44,56,90,,78,78,18,13,31,18,0.6,0.5
2024-02-12T1400,1916A,103.7897,25.5035,曲靖市,环境监测站,,31,12,33,11,21,98,,75,75,2,5,1,3,0.6,0.7
2024-02-12T1400,1917A,103.8,25.5364,曲靖市,烟厂办公区,,30,20,35,13,23,95,,75,75,4,6,5,4,0.5,0.6
2024-02-12T1400,3376A,103.7947,25.462,曲靖市,南苑二区,,29,26,41,15,25,90,,70,70,5,7,4,6,0.6,0.6
2024-02-12T1400,3377A,103.7444,25.5261,曲靖市,曲靖师范学院,,30,25,34,18,31,93,,72,72,4,6,4,7,0.5,0.5
2024-02-12T1400,1264A,118.8692,28.9398,衢州市,环保大楼,颗粒物(PM10),51,52,62,31,38,88,,53,53,10,17,6,5,0.5,0.6
2024-02-12T1400,1265A,118.8709,28.9666,衢州市,实验学校,,50,50,62,33,39,88,,51,51,4,13,2,3,0.2,0.2
2024-02-12T1400,1266A,118.8621,28.9808,衢州市,衢州学院,,46,46,62,30,37,86,,50,50,6,14,7,6,0.2,0.2
2024-02-12T1400,1611A,118.5819,24.9117,泉州市,涂山街,,45,36,50,31,38,122,,85,85,4,8,2,3,0.6,0.6
2024-02-12T1400,1612A,118.5972,24.8978,泉州市,津头埔,,49,42,51,34,38,115,,77,77,8,11,4,4,0.6,0.6
2024-02-12T1400,1613A,118.6663,24.9424,泉州市,万安,,44,44,45,29,29,128,,95,95,6,8,3,3,0.3,0.3
