timepoint,stationcode,longitude,latitude,area,positionname,primarypollutant,aqi,pm10,pm10_24h,pm2_5,pm2_5_24h,o3,o3_24h,o3_8h,o3_8h_24h,no2,no2_24h,so2,so2_24h,co,co_24h
2023-09-15T23:00:00,1001A,116.3621,39.8784,北京市,万寿西宫,"颗粒物(PM10),细颗粒物(PM2.5)",70,89,68,51,36,183,87,171,142,44,39,2,2,0.8,0.6
2023-09-15T23:00:00,1002A,116.2202,40.2915,北京市,定陵,,48,48,46,28,29,195,70,158,113,11,14,3,3,0.6,2.9
2023-09-15T23:00:00,1003A,116.4174,39.9289,北京市,东四,颗粒物(PM10),65,80,66,43,30,199,116,183,163,36,40,2,2,0.7,0.6
2023-09-15T23:00:00,1004A,116.4072,39.8863,北京市,天坛,细颗粒物(PM2.5),60,62,56,43,33,187,54,173,133,29,34,3,3,0.7,0.6
2023-09-15T23:00:00,1005A,116.462,39.9365,北京市,农展馆,颗粒物(PM10),65,80,68,44,32,191,81,178,153,44,47,1,3,0.9,0.6
2023-09-15T23:00:00,1006A,116.3392,39.9295,北京市,官园,颗粒物(PM10),68,86,71,37,29,206,134,190,169,22,28,2,2,0.7,0.7
2023-09-15T23:00:00,1007A,116.2878,39.9611,北京市,海淀万柳,颗粒物(PM10),69,88,66,43,33,171,51,161,131,59,42,1,2,0.8,0.4
2023-09-15T23:00:00,1008A,116.6636,40.135,北京市,顺义新城,颗粒物(PM10),67,84,67,41,33,200,103,178,142,28,28,2,3,0.5,0.5
2023-09-15T23:00:00,1009A,116.6275,40.3275,北京市,怀柔镇,颗粒物(PM10),52,53,52,30,29,222,106,191,156,13,19,3,3,0.5,0.5
2023-09-15T23:00:00,1010A,116.2296,40.217,北京市,昌平镇,颗粒物(PM10),56,61,55,33,30,182,97,160,133,18,26,3,2,0.5,0.5
2023-09-15T23:00:00,1011A,116.3966,39.9821,北京市,奥体中心,颗粒物(PM10),63,76,65,44,32,165,84,151,139,48,43,1,2,0.7,0.5
2023-09-15T23:00:00,1012A,116.184,39.9136,北京市,古城,颗粒物(PM10),68,86,75,40,37,193,59,173,144,62,38,3,3,0.9,0.8
2023-09-15T23:00:00,1015A,117.1444,39.1661,天津市,勤俭道,颗粒物(PM10),67,84,56,40,26,217,141,205,188,28,27,14,17,0.8,0.6
2023-09-15T23:00:00,1017A,117.237,39.1082,天津市,大直沽八号路,颗粒物(PM10),72,93,69,36,27,229,94,198,157,62,44,10,12,0.8,0.7
2023-09-15T23:00:00,1018A,117.202,39.0927,天津市,前进道,颗粒物(PM10),60,70,50,39,27,216,110,194,166,37,33,10,12,0.8,0.7
2023-09-15T23:00:00,1019A,117.1837,39.2133,天津市,淮河道,颗粒物(PM10),65,80,54,40,27,223,144,206,184,33,32,12,13,0.8,0.7
2023-09-15T23:00:00,1021A,117.307,39.0877,天津市,跃进路,颗粒物(PM10),65,79,56,39,26,233,94,210,171,55,38,12,13,0.8,0.7
2023-09-15T23:00:00,1023A,117.707,39.0343,天津市,第四大街,颗粒物(PM10),61,71,51,33,23,222,104,185,139,39,33,5,10,0.6,0.7
2023-09-15T23:00:00,1024A,117.457,38.8394,天津市,永明路,颗粒物(PM10),59,68,47,40,27,250,119,210,174,28,28,12,15,0.6,0.8
2023-09-15T23:00:00,1026A,117.764,39.1587,天津市,汉北路,颗粒物(PM10),56,61,49,33,24,247,81,192,160,49,32,8,13,0.6,0.8
2023-09-15T23:00:00,1027A,117.157,38.9194,天津市,团泊洼,细颗粒物(PM2.5),64,72,44,46,28,200,83,192,162,48,37,8,8,0.8,0.8
2023-09-15T23:00:00,1029A,114.4422,38.0444,石家庄市,职工医院,颗粒物(PM10),93,135,64,64,37,248,40,206,163,93,43,4,9,1.2,0.9
2023-09-15T23:00:00,1030A,114.6063,38.0266,石家庄市,高新区,颗粒物(PM10),73,96,69,48,33,220,52,196,160,74,42,3,5,0.8,0.9
2023-09-15T23:00:00,1031A,114.4898,38.1328,石家庄市,西北水源,细颗粒物(PM2.5),98,122,77,73,34,228,19,192,145,95,45,2,5,1.1,0.8
2023-09-15T23:00:00,1032A,114.4586,38.0058,石家庄市,西南高教,颗粒物(PM10),98,146,65,51,32,246,26,208,157,101,39,1,7,1.0,0.9
2023-09-15T23:00:00,1033A,114.5331,38.0178,石家庄市,世纪公园,颗粒物(PM10),56,62,71,35,31,237,102,205,176,26,32,3,7,0.7,1
2023-09-15T23:00:00,1034A,114.509,38.0457,石家庄市,人民会堂,细颗粒物(PM2.5),64,60,64,46,36,252,115,217,196,20,33,6,11,0.6,0.8
2023-09-15T23:00:00,1035A,114.3524,37.8911,石家庄市,封龙山,臭氧1小时,60,52,53,30,28,216,168,190,188,11,12,5,8,0.9,1
2023-09-15T23:00:00,1037A,118.131,39.6363,唐山市,雷达站,颗粒物(PM10),57,64,55,23,23,220,67,181,129,37,28,4,8,0.5,0.6
2023-09-15T23:00:00,1038A,118.1725,39.6334,唐山市,物资局,颗粒物(PM10),70,90,61,22,22,203,84,172,123,40,37,11,10,0.9,0.7
2023-09-15T23:00:00,1040A,118.1705,39.6506,唐山市,十二中,颗粒物(PM10),62,74,56,28,28,199,68,170,119,45,46,7,9,0.8,0.7
2023-09-15T23:00:00,1041A,118.1869,39.622,唐山市,小山,颗粒物(PM10),77,104,70,24,20,203,70,170,114,43,39,12,11,1.0,0.7
2023-09-15T23:00:00,1042A,119.5134,39.8207,秦皇岛市,北戴河环保局,,38,27,29,12,8,165,120,158,152,20,21,10,15,0.2,0.3
2023-09-15T23:00:00,1043A,119.7493,40.0116,秦皇岛市,第一关,,45,45,42,20,21,151,44,144,104,88,58,9,12,0.5,0.7
2023-09-15T23:00:00,1044A,119.5897,39.9499,秦皇岛市,监测站,,43,43,43,23,19,143,111,136,128,15,26,6,10,0.4,0.8
2023-09-15T23:00:00,1046A,119.5251,39.9041,秦皇岛市,建设大厦,,50,50,47,20,16,164,123,152,138,11,23,8,9,0.7,0.7
2023-09-15T23:00:00,1048A,114.5302,36.6116,邯郸市,东污水处理厂,细颗粒物(PM2.5),58,56,57,41,38,184,75,170,132,35,38,7,10,0.6,1.1
2023-09-15T23:00:00,1049A,114.4918,36.5713,邯郸市,矿院,细颗粒物(PM2.5),54,53,47,38,31,184,88,169,129,27,37,10,5,0.5,0.5
2023-09-15T23:00:00,1050A,114.484,36.6133,邯郸市,丛台公园,细颗粒物(PM2.5),55,50,50,39,34,187,101,170,141,16,31,8,11,0.3,1.2
2023-09-15T23:00:00,1051A,115.493,38.8632,保定市,游泳馆,"颗粒物(PM10),细颗粒物(PM2.5)",64,78,59,46,34,199,38,186,142,77,37,10,13,0.8,0.6
2023-09-15T23:00:00,1052A,115.5213,38.8959,保定市,华电二区,颗粒物(PM10),61,71,48,34,26,195,30,183,136,71,32,7,7,0.8,0.5
2023-09-15T23:00:00,1053A,115.4713,38.9108,保定市,接待中心,颗粒物(PM10),66,81,62,34,27,191,80,182,144,41,34,9,9,0.8,0.6
2023-09-15T23:00:00,1054A,115.4612,38.8416,保定市,地表水厂,颗粒物(PM10),76,102,70,38,30,191,44,176,128,83,47,11,13,0.5,0.4
2023-09-15T23:00:00,1056A,115.5086,38.8639,保定市,监测站,细颗粒物(PM2.5),60,63,63,43,34,207,71,191,148,48,33,3,5,0.8,0.5
2023-09-15T23:00:00,1057A,114.8883,40.8336,张家口市,人民公园,,43,43,44,22,18,154,98,145,128,19,13,2,3,0.4,0.4
2023-09-15T23:00:00,1059A,114.8687,40.8042,张家口市,五金库,,37,37,51,14,26,149,108,141,129,14,13,2,3,0.5,0.6
2023-09-15T23:00:00,1060A,114.8902,40.762,张家口市,世纪豪园,颗粒物(PM10),51,52,48,23,25,151,138,143,137,14,12,3,3,0.3,0.4
2023-09-15T23:00:00,1061A,114.8916,40.8661,张家口市,北泵房,,28,27,42,19,18,162,64,154,117,35,14,6,7,0.4,0.5
2023-09-15T23:00:00,1062A,117.9531,40.9081,承德市,铁路,,42,42,38,23,17,161,66,140,99,32,31,7,8,0.4,0.4
2023-09-15T23:00:00,1063A,117.9392,40.9763,承德市,中国银行,颗粒物(PM10),52,53,39,18,17,167,31,147,86,41,24,8,10,0.5,0.4
2023-09-15T23:00:00,1064A,117.9503,40.928,承德市,开发区,,36,36,37,20,20,171,80,153,123,28,22,5,6,0.5,0.5
2023-09-15T23:00:00,1065A,117.8051,40.9655,承德市,文化中心,,42,42,47,19,21,172,21,150,86,73,35,6,12,0.6,0.5
2023-09-15T23:00:00,1066A,117.9268,41.0026,承德市,离宫,,40,40,39,25,22,168,59,149,102,11,8,2,4,0.4,0.4
2023-09-15T23:00:00,1067A,116.6708,39.5111,廊坊市,药材公司,颗粒物(PM10),77,104,75,54,42,208,56,189,129,52,37,3,11,0.7,0.6
2023-09-15T23:00:00,1068A,116.7214,39.5589,廊坊市,开发区,细颗粒物(PM2.5),73,74,60,53,36,209,48,190,133,44,30,2,5,0.6,0.5
2023-09-15T23:00:00,1070A,116.7244,39.5269,廊坊市,北华航天学院,颗粒物(PM10),72,93,70,49,33,220,58,201,135,57,37,5,10,0.7,0.5
2023-09-15T23:00:00,1071A,116.8842,38.2991,沧州市,沧县城建局,细颗粒物(PM2.5),52,52,50,36,28,194,110,180,146,33,40,8,12,0.6,0.6
2023-09-15T23:00:00,1072A,116.8584,38.3254,沧州市,电视转播站,颗粒物(PM10),52,54,54,34,31,197,114,186,151,23,28,10,11,0.5,0.5
2023-09-15T23:00:00,1073A,116.8709,38.3228,沧州市,市环保局,颗粒物(PM10),54,57,60,32,33,200,104,185,150,26,34,5,10,0.3,0.4
2023-09-15T23:00:00,1074A,115.6838,37.7541,衡水市,电机北厂,颗粒物(PM10),54,58,55,25,28,196,146,185,166,12,15,5,7,0.3,0.3
2023-09-15T23:00:00,1075A,115.6303,37.7316,衡水市,市监测站,颗粒物(PM10),55,60,53,35,28,196,111,178,144,28,25,10,8,0.6,0.6
2023-09-15T23:00:00,1077A,114.4704,37.0886,邢台市,达活泉,颗粒物(PM10),67,84,56,38,24,200,88,183,152,35,22,8,8,1.2,0.8
2023-09-15T23:00:00,1078A,114.5062,37.0349,邢台市,邢师高专,颗粒物(PM10),65,80,57,35,22,182,29,164,122,64,32,5,7,0.5,0.7
2023-09-15T23:00:00,1079A,114.5237,37.0851,邢台市,路桥公司,"颗粒物(PM10),细颗粒物(PM2.5)",65,80,61,47,31,208,62,183,140,52,36,6,8,0.7,0.8
2023-09-15T23:00:00,1080A,114.4725,37.0719,邢台市,市环保局,颗粒物(PM10),63,75,58,44,26,198,99,181,148,20,19,6,9,0.7,0.8
2023-09-15T23:00:00,1081A,112.522,37.8873,太原市,尖草坪,颗粒物(PM10),62,73,68,31,31,183,46,163,98,83,52,7,7,0.8,0.8
2023-09-15T23:00:00,1083A,112.434,38.0108,太原市,上兰,,,,,,,,,,,,,,,,
2023-09-15T23:00:00,1084A,112.469,37.7124,太原市,晋源,颗粒物(PM10),63,75,53,42,29,173,83,159,119,52,39,7,6,1.0,0.9
2023-09-15T23:00:00,1085A,112.5583,37.7394,太原市,小店,颗粒物(PM10),76,102,65,37,28,178,64,165,114,58,38,8,7,0.9,0.8
2023-09-15T23:00:00,1086A,112.5369,37.8692,太原市,桃园,颗粒物(PM10),58,66,60,18,23,169,47,157,101,72,49,6,6,0.8,0.8
2023-09-15T23:00:00,1087A,112.57,37.8195,太原市,坞城,颗粒物(PM10),66,81,55,35,28,179,76,171,115,61,43,9,10,0.9,0.8
2023-09-15T23:00:00,1088A,112.549,37.9854,太原市,南寨,颗粒物(PM10),76,102,68,35,26,176,5,147,68,81,41,6,8,0.6,0.9
2023-09-15T23:00:00,1090A,111.6507,40.7517,呼和浩特市,呼市一监,,28,14,50,12,23,156,88,140,121,13,20,4,8,0.5,0.6
2023-09-15T23:00:00,1091A,111.6572,40.8033,呼和浩特市,小召,,26,19,52,12,22,153,81,138,118,19,20,6,9,0.4,0.5
2023-09-15T23:00:00,1094A,111.7516,40.8369,呼和浩特市,如意水处理厂,,29,29,60,13,20,166,92,148,124,19,22,8,10,0.3,0.4
2023-09-15T23:00:00,1095A,111.7276,40.8062,呼和浩特市,二十九中,,27,25,59,15,24,166,86,150,138,19,23,6,9,0.5,0.7
2023-09-15T23:00:00,1096A,111.5512,40.7866,呼和浩特市,工大金川校区,,31,20,61,8,23,154,97,138,123,19,24,4,8,0.4,0.6
2023-09-15T23:00:00,1097A,111.717,40.7612,呼和浩特市,化肥厂生活区,,35,20,65,10,23,155,112,147,128,13,24,6,8,0.3,0.4
2023-09-15T23:00:00,1098A,123.6836,41.9339,沈阳市,森林路,,,,,,,,,,,,,,,,
2023-09-15T23:00:00,1099A,123.505,41.7406,沈阳市,浑南东路,,,,,,,,,,,,,,,,
2023-09-15T23:00:00,1100A,123.4231,41.6989,沈阳市,新秀街,颗粒物(PM10),58,65,54,20,17,146,82,131,103,34,43,24,22,1.1,0.9
2023-09-15T23:00:00,1102A,123.5903,41.8411,沈阳市,东陵路,,44,44,48,22,19,154,72,142,109,36,28,10,14,0.7,0.9
2023-09-15T23:00:00,1103A,123.4264,41.8467,沈阳市,陵东街,,40,40,44,26,22,161,110,152,134,19,34,8,10,0.7,0.9
2023-09-15T23:00:00,1104A,123.4114,41.7653,沈阳市,文化路,颗粒物(PM10),56,61,50,35,27,160,97,148,125,24,35,14,19,0.9,1
2023-09-15T23:00:00,1105A,123.4678,41.7867,沈阳市,小河沿,颗粒物(PM10),55,60,48,29,21,153,96,143,124,28,37,12,10,1.0,0.9
2023-09-15T23:00:00,1106A,123.4017,41.7972,沈阳市,太原街,,48,47,48,33,22,160,99,149,127,21,31,14,17,0.8,0.9
2023-09-15T23:00:00,1108A,123.3783,41.9228,沈阳市,京沈街,颗粒物(PM10),51,51,57,25,26,174,122,154,128,22,48,11,17,0.6,0.9
2023-09-15T23:00:00,1109A,121.612,38.9741,大连市,甘井子,,,21,49,10,23,129,,122,114,17,19,5,5,,0.5
2023-09-15T23:00:00,1110A,121.565,38.9511,大连市,周水子,,25,19,35,13,20,121,80,115,99,16,33,5,5,0.6,0.7
2023-09-15T23:00:00,1111A,121.5637,38.8845,大连市,星海三站,,29,19,35,9,19,142,91,131,115,5,17,7,6,0.3,0.4
2023-09-15T23:00:00,1112A,121.6302,38.9117,大连市,青泥洼桥,,23,14,24,14,19,123,72,117,93,12,15,5,6,0.5,0.5
2023-09-15T23:00:00,1113A,121.6251,38.8638,大连市,傅家庄,,28,14,22,7,14,142,89,134,119,6,8,7,8,0.5,0.6
2023-09-15T23:00:00,1114A,121.5213,38.8661,大连市,七贤岭,,30,29,23,10,17,153,94,142,108,6,9,5,6,0.3,0.4
2023-09-15T23:00:00,1115A,121.2529,38.8061,大连市,旅顺,,32,12,24,5,14,139,102,133,120,3,8,5,5,0.5,0.6
2023-09-15T23:00:00,1116A,121.7485,39.1311,大连市,金州,,31,31,34,18,17,125,70,117,84,14,17,5,5,0.3,0.4
2023-09-15T23:00:00,1117A,121.7811,39.0496,大连市,开发区,,26,24,36,14,22,124,82,116,105,14,29,11,7,0.5,0.6
2023-09-15T23:00:00,1118A,121.9762,39.0631,大连市,双D港,,22,14,20,9,14,130,69,125,83,10,10,5,5,0.4,0.5
2023-09-15T23:00:00,1119A,125.3325,43.9166,长春市,食品厂,颗粒物(PM10),64,77,37,32,15,115,8,106,52,91,35,5,5,0.9,0.5
2023-09-15T23:00:00,1120A,125.2863,43.9027,长春市,客车厂,颗粒物(PM10),64,78,38,29,14,124,17,117,59,83,28,6,6,0.9,0.5
2023-09-15T23:00:00,1121A,125.2841,43.8463,长春市,邮电学院,颗粒物(PM10),51,52,33,14,10,121,18,113,64,56,21,5,5,0.6,0.4
2023-09-15T23:00:00,1122A,125.3716,43.8772,长春市,劳动公园,颗粒物(PM10),65,80,40,34,13,117,7,110,62,75,31,6,5,1.0,0.4
2023-09-15T23:00:00,1123A,125.3297,43.8805,长春市,园林处,颗粒物(PM10),55,59,31,25,11,119,38,112,78,54,22,6,7,0.7,0.5
2023-09-15T23:00:00,1124A,125.4605,43.79,长春市,净月潭,,18,18,18,12,8,116,57,110,77,11,10,6,6,0.3,0.3
2023-09-15T23:00:00,1125A,125.7194,43.515,长春市,甩湾子,,,,,,,,,,,,,,,,
2023-09-15T23:00:00,1126A,125.3863,43.8447,长春市,经开区环卫处,颗粒物(PM10),91,131,42,34,13,104,1,100,53,82,29,6,6,0.9,0.5
2023-09-15T23:00:00,1127A,125.245,43.7783,长春市,高新区管委会,颗粒物(PM10),52,54,28,16,10,126,10,114,58,64,24,6,7,0.5,0.4
2023-09-15T23:00:00,1128A,125.1761,43.8325,长春市,岱山公园,颗粒物(PM10),62,74,39,21,12,127,7,120,41,100,37,4,5,0.5,0.5
2023-09-15T23:00:00,1129A,126.5422,45.755,哈尔滨市,岭北,颗粒物(PM10),54,58,32,31,15,186,59,168,115,17,13,7,9,0.7,0.6
2023-09-15T23:00:00,1130A,126.561,45.8167,哈尔滨市,松北商大,,38,38,35,24,13,152,52,135,80,15,18,7,8,0.7,0.7
2023-09-15T23:00:00,1131A,126.979,45.5419,哈尔滨市,阿城会宁,细颗粒物(PM2.5),60,35,31,43,21,160,63,138,101,19,11,7,7,0.7,0.6
2023-09-15T23:00:00,1132A,126.599,45.7222,哈尔滨市,南岗学府路,颗粒物(PM10),61,71,54,17,19,183,52,160,85,16,30,6,8,0.8,0.8
2023-09-15T23:00:00,1133A,126.689,45.7733,哈尔滨市,太平宏伟公园,,47,47,45,19,17,164,43,147,91,21,19,5,7,0.6,0.6
2023-09-15T23:00:00,1134A,126.635,45.7667,哈尔滨市,道外承德广场,,50,50,39,16,16,173,58,152,100,18,30,6,7,0.5,0.6
2023-09-15T23:00:00,1135A,126.685,45.7319,哈尔滨市,香坊红旗大街,颗粒物(PM10),64,77,53,23,22,174,48,152,90,31,42,29,13,0.6,0.6
2023-09-15T23:00:00,1136A,126.6411,45.7258,哈尔滨市,动力和平路,,,57,49,,19,175,48,154,91,25,36,8,11,0.6,0.7
2023-09-15T23:00:00,1137A,126.593,45.7478,哈尔滨市,道里建国路,,43,38,49,30,17,142,64,120,72,17,38,13,10,0.7,0.9
2023-09-15T23:00:00,1138A,126.615,45.61,哈尔滨市,平房东轻厂,颗粒物(PM10),53,56,37,24,14,170,14,150,101,79,18,8,8,0.5,0.4
2023-09-15T23:00:00,1139A,126.595,45.9855,哈尔滨市,呼兰师专,,39,28,35,27,18,152,51,141,101,12,16,6,7,0.7,0.6
2023-09-15T23:00:00,1140A,126.6206,45.6842,哈尔滨市,省农科院,颗粒物(PM10),75,100,65,28,16,179,41,161,82,50,43,7,9,0.8,0.6
2023-09-15T23:00:00,1141A,121.4,31.238,上海市,普陀,,39,39,22,27,15,71,5,47,17,62,42,4,4,0.9,0.7
2023-09-15T23:00:00,1142A,121.478,31.2036,上海市,十五厂,颗粒物(PM10),51,51,23,34,17,70,8,59,32,83,43,7,8,0.8,0.6
2023-09-15T23:00:00,1143A,121.467,31.3008,上海市,虹口,,36,36,19,23,15,61,17,51,32,57,46,6,6,0.6,0.6
2023-09-15T23:00:00,1144A,121.412,31.1654,上海市,徐汇上师大,,40,40,23,24,18,64,3,53,22,71,45,6,6,1.0,0.8
2023-09-15T23:00:00,1145A,121.536,31.2659,上海市,杨浦四漂,,44,44,22,24,13,77,6,55,32,53,40,7,7,0.7,0.7
2023-09-15T23:00:00,1147A,121.425,31.2261,上海市,静安监测站,,50,50,22,28,16,78,11,54,26,64,43,3,3,0.8,0.8
2023-09-15T23:00:00,1148A,121.703,31.1907,上海市,浦东川沙,颗粒物(PM10),51,51,23,26,12,90,6,70,24,74,50,6,6,0.7,0.5
2023-09-15T23:00:00,1149A,121.533,31.2284,上海市,浦东新区监测站,,40,40,22,21,13,63,2,49,21,67,42,6,6,0.6,0.5
2023-09-15T23:00:00,1150A,121.577,31.2071,上海市,浦东张江,颗粒物(PM10),51,51,24,29,16,65,2,54,21,72,45,5,5,0.8,0.7
2023-09-15T23:00:00,1151A,118.8086,32.1065,南京市,迈皋桥,,21,21,26,12,10,63,26,58,38,26,24,3,4,0.5,0.4
2023-09-15T23:00:00,1152A,118.7538,32.0551,南京市,草场门,,17,9,24,9,14,74,52,59,48,20,30,1,3,0.6,0.6
2023-09-15T23:00:00,1153A,118.7794,32.0745,南京市,山西路,,19,19,29,9,13,78,50,62,51,17,23,3,3,0.5,0.4
2023-09-15T23:00:00,1154A,118.7752,32.0023,南京市,中华门,,18,9,23,12,14,64,40,54,41,5,24,5,4,0.9,0.8
2023-09-15T23:00:00,1155A,118.8109,32.0309,南京市,瑞金路,,,14,29,5,10,68,,58,44,11,26,4,5,0.4,0.4
2023-09-15T23:00:00,1156A,118.7997,32.0754,南京市,玄武湖,,25,25,31,10,12,62,28,51,37,26,26,3,4,0.7,0.6
2023-09-15T23:00:00,1157A,118.6414,32.0931,南京市,浦口,,19,15,28,13,13,91,36,72,55,20,19,3,6,0.4,0.6
2023-09-15T23:00:00,1158A,118.7356,31.9996,南京市,奥体中心,,20,15,26,14,15,80,47,66,55,22,25,5,6,0.5,0.5
2023-09-15T23:00:00,1159A,118.9125,32.1028,南京市,仙林大学城,,13,12,23,9,13,80,37,64,47,18,25,7,9,0.6,0.6
2023-09-15T23:00:00,1160A,120.561,31.2472,苏州市,上方山,,18,18,14,10,10,60,34,50,45,13,20,7,7,0.6,0.6
2023-09-15T23:00:00,1162A,120.591,31.3019,苏州市,彩香,,19,19,12,13,7,69,45,60,54,12,16,6,6,0.8,0.8
2023-09-15T23:00:00,1163A,120.596,31.3264,苏州市,轧钢厂,,25,25,16,16,10,72,48,63,58,11,18,7,7,0.6,0.7
2023-09-15T23:00:00,1164A,120.613,31.2703,苏州市,吴中区,,25,25,16,17,11,75,48,66,58,12,17,7,8,0.7,0.7
2023-09-15T23:00:00,1165A,120.543,31.2994,苏州市,苏州新区,,23,20,21,16,11,77,39,63,49,27,27,6,6,0.8,0.8
2023-09-15T23:00:00,1166A,120.669,31.3097,苏州市,苏州工业园区,,26,26,16,17,11,70,40,61,57,21,21,6,6,0.7,0.7
2023-09-15T23:00:00,1167A,120.641,31.3708,苏州市,相城区,,22,18,11,15,10,75,48,67,59,16,20,8,8,0.6,0.6
2023-09-15T23:00:00,1168A,120.9098,31.9663,南通市,狼山街道,,19,3,5,0,2,80,58,77,72,15,16,6,6,0.4,0.4
2023-09-15T23:00:00,1169A,120.86,32.0005,南通市,虹桥,,20,7,9,7,7,80,63,79,71,18,18,5,5,0.6,0.6
2023-09-15T23:00:00,1170A,120.87,32.02,南通市,城中,,16,6,11,3,4,72,51,71,64,18,14,6,6,0.5,0.5
2023-09-15T23:00:00,1171A,120.94,31.93,南通市,星湖花园,,18,5,6,0,2,74,57,69,64,15,16,5,5,0.4,0.4
2023-09-15T23:00:00,1172A,120.81,32.0417,南通市,紫琅学院,,17,3,2,0,2,85,53,79,66,18,16,6,6,0.6,0.6
2023-09-15T23:00:00,1173A,119.176,34.5885,连云港市,市环境监测站,,24,24,40,7,16,108,70,99,89,16,34,8,9,0.4,0.6
2023-09-15T23:00:00,1177A,117.179,34.2761,徐州市,黄河新村,,44,44,46,18,26,188,76,167,126,28,31,5,7,0.4,0.4
2023-09-15T23:00:00,1178A,117.1918,34.2384,徐州市,淮塔,颗粒物(PM10),53,56,50,26,22,190,74,170,118,27,27,9,11,0.5,0.4
2023-09-15T23:00:00,1180A,117.256,34.2153,徐州市,新城区,颗粒物(PM10),51,51,47,26,23,183,66,164,108,41,36,6,8,0.7,0.6
2023-09-15T23:00:00,1181A,117.244,34.2911,徐州市,桃园路,,46,46,52,30,24,213,86,180,132,18,26,10,12,0.5,0.5
2023-09-15T23:00:00,1182A,117.2933,34.2778,徐州市,农科院,,31,31,40,21,22,195,83,168,112,23,38,12,10,0.4,0.4
2023-09-15T23:00:00,1186A,119.389,32.3761,扬州市,邗江监测站,,18,14,24,9,13,100,57,85,72,20,16,4,6,0.5,0.5
2023-09-15T23:00:00,1188A,120.269,31.4867,无锡市,雪浪,,28,22,14,19,10,73,29,66,43,33,28,4,4,1.1,0.8
2023-09-15T23:00:00,1189A,120.275,31.6219,无锡市,黄巷,,28,24,16,19,12,63,27,57,31,40,39,6,7,1.1,1.1
2023-09-15T23:00:00,1190A,120.294,31.56,无锡市,曹张,,32,18,14,22,15,66,24,54,29,40,36,9,8,1.0,1
2023-09-15T23:00:00,1191A,120.242,31.5031,无锡市,漆塘,,24,24,13,12,11,73,16,65,37,32,31,5,5,1.1,0.9
2023-09-15T23:00:00,1192A,120.3489,31.5863,无锡市,东亭,,20,14,17,14,15,63,30,54,36,40,39,4,4,0.9,1
2023-09-15T23:00:00,1193A,120.354,31.5475,无锡市,旺庄,,14,14,15,7,13,70,41,57,45,24,30,9,10,0.9,1
2023-09-15T23:00:00,1194A,120.245,31.5631,无锡市,荣巷,,17,17,11,9,10,75,20,69,37,17,15,10,9,1.0,0.9
2023-09-15T23:00:00,1195A,120.299,31.6817,无锡市,堰桥,,20,12,13,14,9,70,34,62,43,14,17,7,7,1.0,0.9
2023-09-15T23:00:00,1196A,119.9633,31.762,常州市,市监测站,,33,33,19,12,11,82,21,70,44,39,28,7,7,0.6,0.7
2023-09-15T23:00:00,1200A,119.9468,31.7069,常州市,武进监测站,,32,32,19,13,10,91,22,78,50,36,21,4,6,0.7,0.8
2023-09-15T23:00:00,1201A,119.9255,31.9087,常州市,安家,,24,24,24,8,12,81,23,74,49,33,23,6,6,0.6,0.6
2023-09-15T23:00:00,1203A,119.6707,32.1875,镇江市,新区办事处,,17,13,18,11,13,79,52,67,58,20,26,1,2,0.6,0.7
2023-09-15T23:00:00,1204A,119.4974,32.1968,镇江市,职教中心,,25,24,28,17,21,99,47,75,60,20,23,2,4,0.3,0.4
2023-09-15T23:00:00,1205A,119.4303,32.1328,镇江市,丹徒区监测站,,36,17,27,25,23,94,42,70,58,20,22,3,3,0.5,0.6
2023-09-15T23:00:00,1206A,119.905,32.4878,泰州市,公园路,,18,17,18,12,15,92,44,81,64,14,12,6,8,0.8,0.8
2023-09-15T23:00:00,1207A,119.9189,32.4625,泰州市,莲花,,15,15,20,9,13,87,41,79,65,14,11,4,6,0.6,0.6
2023-09-15T23:00:00,1209A,119.888,32.4639,泰州市,留学生创业园,,25,25,24,17,15,92,31,84,66,28,14,6,8,0.6,0.6
2023-09-15T23:00:00,1210A,119.036,33.5981,淮安市,钵池山,,22,19,28,15,17,103,52,96,67,17,19,6,6,0.7,0.7
2023-09-15T23:00:00,1211A,119.007,33.575,淮安市,北京南路,,19,19,29,13,13,106,48,97,71,22,18,8,9,0.5,0.5
2023-09-15T23:00:00,1212A,118.989,33.6067,淮安市,市监测站,,22,22,34,9,15,107,58,100,72,18,23,7,8,0.6,0.6
2023-09-15T23:00:00,1213A,119.135,33.5039,淮安市,楚州区监测站,,22,22,26,13,15,99,26,92,59,28,18,8,8,0.5,0.4
2023-09-15T23:00:00,1214A,119.0186,33.6297,淮安市,淮阴区监测站,,24,24,34,14,15,106,53,99,65,21,23,7,8,0.6,0.6
2023-09-15T23:00:00,1215A,120.118,33.4022,盐城市,盐城电厂,,29,29,21,14,9,93,41,87,68,21,9,6,7,0.4,0.4
2023-09-15T23:00:00,1216A,120.156,33.3942,盐城市,市监测站,,32,23,20,22,14,103,57,97,77,22,14,6,8,0.0,0
2023-09-15T23:00:00,1218A,120.2144,33.38,盐城市,开发区管委会,,20,15,16,12,8,90,61,84,71,15,12,9,9,0.2,0.2
2023-09-15T23:00:00,1220A,118.293,33.9528,宿迁市,宿迁学院,,42,42,35,25,21,113,67,111,94,28,28,8,8,0.6,0.6
2023-09-15T23:00:00,1221A,118.2442,33.9592,宿迁市,宿迁中学,,36,36,36,19,19,107,70,104,91,26,23,8,9,0.6,0.6
2023-09-15T23:00:00,1223A,120.2072,30.2111,杭州市,滨江,,26,26,19,11,9,74,43,66,61,28,24,6,6,0.9,0.9
2023-09-15T23:00:00,1224A,120.0633,30.2747,杭州市,西溪,,14,14,11,9,9,56,25,50,45,16,19,2,3,0.9,0.7
2023-09-15T23:00:00,1226A,120.3461,30.3153,杭州市,下沙,,35,23,21,24,16,66,11,56,44,67,44,3,8,0.5,0.5
2023-09-15T23:00:00,1227A,120.1269,30.2456,杭州市,卧龙桥,,19,17,14,13,9,62,12,48,26,17,20,2,3,0.8,0.7
2023-09-15T23:00:00,1228A,120.1903,30.2692,杭州市,浙江农大,,23,13,11,16,13,55,32,49,45,26,28,6,6,0.8,0.7
2023-09-15T23:00:00,1230A,120.1197,30.3119,杭州市,和睦小学,,22,18,12,15,13,53,45,49,48,33,35,7,7,1.0,0.9
2023-09-15T23:00:00,1231A,120.3019,30.4183,杭州市,临平镇,,34,34,21,21,10,82,44,73,67,20,20,4,4,0.7,0.6
2023-09-15T23:00:00,1232A,120.2697,30.1819,杭州市,城厢镇,,26,22,16,18,16,69,47,62,59,26,24,6,6,0.8,0.8
2023-09-15T23:00:00,1233A,120.0883,30.1808,杭州市,云栖,,20,20,15,11,6,53,21,43,32,11,15,7,7,0.7,0.7
2023-09-15T23:00:00,1234A,121.8358,29.911,宁波市,区环保大楼,,19,13,19,10,13,104,58,92,77,20,29,3,5,0.7,0.7
2023-09-15T23:00:00,1235A,121.56,29.82,宁波市,万里学院,,40,36,31,28,21,160,36,122,100,36,29,6,6,0.7,0.6
2023-09-15T23:00:00,1236A,121.713,29.9572,宁波市,龙赛医院,,17,12,31,8,14,157,44,129,93,33,33,8,9,0.6,0.6
2023-09-15T23:00:00,1239A,121.633,29.7733,宁波市,钱湖水厂,,41,41,27,25,17,159,39,114,92,27,12,5,5,0.8,0.7
2023-09-15T23:00:00,1240A,121.5856,29.8635,宁波市,太古小学,,33,33,25,18,16,155,47,123,104,25,26,6,6,0.8,0.7
2023-09-15T23:00:00,1241A,121.524,29.8674,宁波市,市环境监测中心,,31,31,28,18,15,148,41,120,96,25,23,7,7,0.6,0.6
2023-09-15T23:00:00,1242A,120.634,28.0089,温州市,瓯海,,21,21,25,8,13,136,27,107,53,16,10,5,6,0.4,0.4
2023-09-15T23:00:00,1243A,120.6748,27.9939,温州市,南浦,,16,16,23,6,12,135,35,102,56,11,4,4,5,0.4,0.4
2023-09-15T23:00:00,1244A,120.76,27.9747,温州市,龙湾,,13,12,23,5,11,115,40,100,55,12,10,4,4,0.5,0.4
2023-09-15T23:00:00,1245A,120.6709,28.0167,温州市,市站,,20,20,27,5,13,118,37,96,49,20,20,5,5,0.5,0.5
2023-09-15T23:00:00,1247A,120.6053,29.9928,绍兴市,城东开发委,,32,32,19,20,12,101,28,64,43,28,20,6,5,0.8,0.7
2023-09-15T23:00:00,1250A,120.0751,30.8669,湖州市,城西水厂,,40,39,13,28,9,89,11,76,52,69,36,2,2,0.8,0.6
2023-09-15T23:00:00,1252A,120.7436,30.778,嘉兴市,清河小学,,26,26,18,16,10,66,44,58,54,25,26,3,5,0.7,0.8
2023-09-15T23:00:00,1253A,120.726,30.7478,嘉兴市,嘉兴学院,,35,22,15,24,22,70,33,60,52,23,22,4,4,0.6,0.5
2023-09-15T23:00:00,1255A,121.273,28.6459,台州市,黄岩环保大楼,,10,10,24,5,16,119,31,96,60,8,11,6,6,0.4,0.5
2023-09-15T23:00:00,1256A,121.419,28.6542,台州市,台州环保大楼,,16,16,22,9,12,112,34,91,57,11,10,6,6,0.4,0.4
2023-09-15T23:00:00,1257A,121.377,28.5773,台州市,路桥田洋王,,21,21,24,14,18,106,28,94,53,15,14,4,5,0.4,0.4
2023-09-15T23:00:00,1258A,122.122,30.0203,舟山市,定海檀枫,,14,14,16,9,10,113,34,92,62,16,13,6,6,0.4,0.4
2023-09-15T23:00:00,1259A,122.3094,29.9558,舟山市,普陀东港,,10,10,15,7,9,100,29,89,64,13,13,5,5,0.3,0.3
2023-09-15T23:00:00,1260A,122.19,29.9944,舟山市,临城新区,,11,11,15,5,8,119,28,97,64,15,11,6,7,0.3,0.3
2023-09-15T23:00:00,1262A,119.647,29.077,金华市,十五中,,36,36,33,19,16,73,30,61,54,33,24,4,4,0.8,0.7
2023-09-15T23:00:00,1263A,119.686,29.1029,金华市,监测站,,28,28,22,16,12,73,20,63,54,40,25,5,4,0.9,0.7
2023-09-15T23:00:00,1264A,118.8692,28.9398,衢州市,环保大楼,,30,27,16,21,13,61,1,46,34,54,24,4,4,0.8,0.7
2023-09-15T23:00:00,1265A,118.8709,28.9666,衢州市,实验学校,,24,23,14,12,9,67,8,52,37,47,22,5,3,0.5,0.5
2023-09-15T23:00:00,1266A,118.8621,28.9808,衢州市,衢州学院,,37,37,16,23,10,62,5,52,35,44,28,4,3,0.5,0.5
2023-09-15T23:00:00,1267A,119.914,28.4514,丽水市,监测站大楼,,15,7,16,7,8,108,45,88,59,14,13,5,6,0.5,0.5
2023-09-15T23:00:00,1268A,119.93,28.4586,丽水市,莲都小学,,15,15,22,2,9,112,47,89,63,12,10,5,5,0.5,0.5
2023-09-15T23:00:00,1269A,119.879,28.4231,丽水市,余庄前,,20,20,21,7,6,133,8,93,33,22,15,5,6,0.5,0.5
2023-09-15T23:00:00,1270A,117.1959,31.7848,合肥市,明珠广场,,41,41,31,22,18,85,34,76,58,44,28,4,5,0.7,0.7
2023-09-15T23:00:00,1271A,117.3072,31.8764,合肥市,三里街,,34,34,26,22,14,84,30,79,63,42,21,5,5,0.4,0.4
2023-09-15T23:00:00,1272A,117.2588,31.8707,合肥市,琥珀山庄,,36,36,29,19,13,94,54,85,71,24,18,5,5,0.5,0.4
2023-09-15T23:00:00,1273A,117.1604,31.9052,合肥市,董铺水库,,29,29,23,14,8,103,45,95,74,21,12,5,5,0.3,0.3
2023-09-15T23:00:00,1274A,117.25,31.8571,合肥市,长江中路,,39,39,35,19,16,94,52,86,72,25,16,6,7,0.6,0.6
2023-09-15T23:00:00,1275A,117.266,31.9436,合肥市,庐阳区,,36,36,31,17,14,96,30,85,59,44,16,5,5,0.5,0.5
2023-09-15T23:00:00,1276A,117.336,31.8586,合肥市,瑶海区,,31,31,32,18,11,84,28,81,61,32,14,4,5,0.6,0.5
2023-09-15T23:00:00,1277A,117.3027,31.7964,合肥市,包河区,,31,31,32,14,14,73,21,69,36,56,38,6,5,0.4,0.4
2023-09-15T23:00:00,1278A,117.2776,31.7385,合肥市,滨湖新区,,27,27,33,17,14,82,50,76,66,20,19,6,6,0.5,0.4
2023-09-15T23:00:00,1279A,117.1318,31.8403,合肥市,高新区,,36,36,29,17,15,98,41,92,71,38,20,5,6,0.6,0.6
2023-09-15T23:00:00,1280A,119.3903,26.0543,福州市,鼓山,,,,,,,,,,,,,,,,
2023-09-15T23:00:00,1282A,119.2681,26.0504,福州市,师大,,30,30,33,16,16,126,59,112,76,12,10,4,4,0.3,0.4
2023-09-15T23:00:00,1283A,119.2984,26.1028,福州市,五四北路,,27,27,30,12,14,144,61,113,75,8,9,4,3,0.1,0.2
2023-09-15T23:00:00,1284A,119.2648,26.0768,福州市,杨桥西路,,36,36,33,15,16,124,59,109,75,12,9,4,4,0.3,0.3
2023-09-15T23:00:00,1285A,119.317,26.0746,福州市,紫阳,,22,15,30,15,17,145,58,110,68,10,10,4,4,0.4,0.4
2023-09-15T23:00:00,1286A,118.1608,24.8169,厦门市,溪东,,,,,,,,,,,,,,,,
2023-09-15T23:00:00,1287A,118.1514,24.4767,厦门市,洪文,,,,,,,,,,,,,,,,
2023-09-15T23:00:00,1288A,118.0661,24.4444,厦门市,鼓浪屿,,28,28,18,15,10,60,36,51,46,33,23,4,4,0.2,0.2
2023-09-15T23:00:00,1290A,115.8931,28.6843,南昌市,省外办,,19,19,28,12,19,70,35,57,43,10,14,2,3,0.6,0.7
2023-09-15T23:00:00,1291A,115.8886,28.7003,南昌市,省林业公司,,17,17,22,9,14,75,29,61,42,23,20,5,5,0.7,0.7
2023-09-15T23:00:00,1292A,115.8126,28.7442,南昌市,林科所,,11,7,15,5,7,83,35,71,50,14,13,5,6,0.8,0.8
2023-09-15T23:00:00,1294A,115.8518,28.687,南昌市,建工学校,,29,29,28,13,15,84,24,68,48,26,10,7,6,0.7,0.6
2023-09-15T23:00:00,1295A,115.8921,28.6424,南昌市,象湖,,25,25,24,15,12,86,28,67,44,22,11,6,6,0.5,0.5
2023-09-15T23:00:00,1296A,115.7423,28.7996,南昌市,武术学校,,,19,17,10,10,84,24,66,45,4,6,3,2,,0.1
2023-09-15T23:00:00,1298A,115.9314,28.6842,南昌市,省站,,24,24,27,7,11,77,34,60,44,12,13,5,6,0.7,0.7
2023-09-15T23:00:00,1299A,116.9862,36.6114,济南市,科干所,颗粒物(PM10),70,90,50,39,23,212,48,197,153,79,16,6,8,0.7,0.5
2023-09-15T23:00:00,1300A,116.9376,36.665,济南市,农科所,颗粒物(PM10),77,103,53,39,19,216,14,194,134,130,42,7,8,0.9,0.5
2023-09-15T23:00:00,1301A,117.1265,36.6734,济南市,开发区,颗粒物(PM10),67,83,54,39,23,228,68,203,147,72,48,5,7,0.8,0.6
2023-09-15T23:00:00,1303A,117.0624,36.6868,济南市,省种子仓库,颗粒物(PM10),70,90,56,41,22,234,49,216,164,92,43,4,5,0.8,0.5
2023-09-15T23:00:00,1304A,116.9489,36.6447,济南市,机床二厂,颗粒物(PM10),85,120,63,39,20,212,29,197,147,96,36,7,8,0.9,0.6
2023-09-15T23:00:00,1305A,117.0495,36.663,济南市,市监测站,颗粒物(PM10),63,76,56,34,22,229,80,211,166,82,49,3,4,0.8,0.6
2023-09-15T23:00:00,1306A,116.7675,36.5484,济南市,长清党校,颗粒物(PM10),52,54,50,29,25,212,96,199,164,39,30,4,7,0.5,0.5
2023-09-15T23:00:00,1307A,120.6659,36.2403,青岛市,仰口,,22,5,16,9,11,84,68,79,59,7,9,2,6,0.3,0.3
2023-09-15T23:00:00,1310A,120.4134,36.0658,青岛市,市南区东部子站,,25,24,22,17,13,118,61,112,95,40,19,5,6,0.5,0.5
2023-09-15T23:00:00,1311A,120.3664,36.1032,青岛市,四方区子站,,40,29,42,9,16,116,7,106,75,80,52,8,7,1.0,0.6
2023-09-15T23:00:00,1312A,120.2994,36.054,青岛市,市南区西部子站,,33,17,29,2,9,118,105,115,102,8,21,5,6,0.3,0.4
2023-09-15T23:00:00,1313A,120.4581,36.0858,青岛市,崂山区子站,,24,24,30,12,14,119,50,107,76,34,26,8,8,0.4,0.3
2023-09-15T23:00:00,1314A,120.1983,35.9608,青岛市,黄岛区子站,,27,27,36,15,16,115,64,110,101,33,37,5,7,0.4,0.4
2023-09-15T23:00:00,1315A,120.3999,36.3083,青岛市,城阳区子站,,39,39,41,17,17,112,37,104,65,35,34,5,6,0.6,0.6
2023-09-15T23:00:00,1316A,113.69031,34.76122,郑州市,烟厂,颗粒物(PM10),57,64,58,24,27,172,73,165,133,40,30,4,4,0.6,0.6
2023-09-15T23:00:00,1317A,113.65724,34.77134,郑州市,郑纺机,,49,49,57,23,26,172,79,163,134,40,38,4,4,0.8,0.8
2023-09-15T23:00:00,1318A,113.67526,34.80246,郑州市,银行学校,,47,47,48,22,24,172,82,164,138,37,34,6,5,0.6,0.5
2023-09-15T23:00:00,1319A,113.56746,34.81334,郑州市,供水公司,颗粒物(PM10),61,72,55,23,25,164,76,152,121,43,43,4,4,0.7,0.7
2023-09-15T23:00:00,1320A,113.7329,34.7178,郑州市,经开区管委,颗粒物(PM10),57,64,62,25,31,171,49,159,118,48,34,5,5,0.6,0.5
2023-09-15T23:00:00,1321A,113.73961,34.77172,郑州市,四十七中,颗粒物(PM10),51,52,58,22,26,166,72,156,127,31,30,6,5,0.6,0.6
2023-09-15T23:00:00,1322A,113.60532,34.74838,郑州市,市监测站,,,,62,25,28,161,71,153,124,48,39,5,6,0.6,0.6
2023-09-15T23:00:00,1323A,113.64164,34.7525,郑州市,河医大,颗粒物(PM10),55,60,57,26,26,158,77,150,125,40,27,6,7,0.7,0.7
2023-09-15T23:00:00,1324A,113.51488,34.91089,郑州市,岗李水库,,,,,,,,,,,,,,,,
2023-09-15T23:00:00,1325A,114.3677,30.5584,武汉市,东湖梨园,,41,41,28,20,16,216,94,186,161,17,21,8,10,0.6,0.8
2023-09-15T23:00:00,1326A,114.2529,30.558,武汉市,汉阳月湖,,35,35,34,22,17,170,96,149,136,21,29,8,8,0.9,0.7
2023-09-15T23:00:00,1327A,114.282,30.6189,武汉市,汉口花桥,,43,43,36,24,20,168,109,150,133,21,31,6,6,0.9,0.6
2023-09-15T23:00:00,1328A,114.3025,30.5332,武汉市,武昌紫阳,,36,36,32,20,17,215,104,178,160,21,27,7,7,0.8,0.7
2023-09-15T23:00:00,1329A,114.3646,30.6217,武汉市,青山钢花,,49,49,33,31,23,174,100,163,146,23,26,10,10,0.8,0.7
2023-09-15T23:00:00,1330A,114.1566,30.4825,武汉市,沌口新区,,43,41,28,30,20,196,88,160,143,28,29,10,8,0.8,0.6
2023-09-15T23:00:00,1331A,114.3014,30.5944,武汉市,汉口江滩,,39,39,28,24,16,179,114,161,146,16,22,7,7,0.9,0.7
2023-09-15T23:00:00,1333A,114.135,30.6319,武汉市,吴家山,颗粒物(PM10),55,60,30,37,16,167,73,150,116,50,31,8,9,1.0,0.7
2023-09-15T23:00:00,1334A,113.8454,30.2917,武汉市,沉湖七壕,,30,30,25,12,15,142,74,130,96,20,18,4,4,0.8,0.7
2023-09-15T23:00:00,1335A,113.0833,28.2325,长沙市,经开区环保局,,17,17,11,9,9,96,32,86,64,27,15,4,5,0.5,0.4
2023-09-15T23:00:00,1336A,112.8872,28.2189,长沙市,高开区环保局,,38,38,15,12,13,121,55,101,90,19,11,6,6,0.6,0.6
2023-09-15T23:00:00,1337A,113.0792,28.2053,长沙市,马坡岭,,32,32,12,20,11,114,16,97,64,39,15,5,5,0.7,0.5
2023-09-15T23:00:00,1338A,112.9394,28.19,长沙市,湖南师范大学,,38,38,18,19,10,109,23,96,61,25,13,4,4,0.9,0.8
2023-09-15T23:00:00,1339A,113.0178,28.1322,长沙市,雨花区环保局,,22,22,13,8,9,106,36,92,69,26,13,6,6,0.9,0.7
2023-09-15T23:00:00,1340A,112.9792,28.2597,长沙市,伍家岭,,20,13,18,12,10,114,30,99,81,40,15,3,3,0.7,0.5
2023-09-15T23:00:00,1341A,113.0014,28.1944,长沙市,火车新站,,29,29,16,9,9,110,26,95,72,43,19,6,6,0.7,0.6
2023-09-15T23:00:00,1342A,112.9844,28.1178,长沙市,天心区环保局,,26,26,12,12,10,108,24,94,70,41,16,4,3,0.7,0.5
2023-09-15T23:00:00,1343A,112.8908,28.1308,长沙市,湖南中医药大学,,38,38,20,13,10,114,1,99,68,47,15,2,2,1.0,0.9
2023-09-15T23:00:00,1344A,112.9581,28.3611,长沙市,沙坪,颗粒物(PM10),61,71,22,17,9,110,17,89,64,14,7,6,6,0.3,0.2
2023-09-15T23:00:00,1345A,113.2347,23.1423,广州市,广雅中学,,18,13,15,6,8,39,9,20,10,35,37,5,6,0.8,0.9
2023-09-15T23:00:00,1346A,113.2612,23.105,广州市,市五中,,14,12,13,8,8,45,7,28,14,28,22,6,6,0.7,0.7
2023-09-15T23:00:00,1348A,113.3478,23.0916,广州市,广东商学院,,17,13,12,6,4,33,6,24,12,34,32,3,2,0.6,0.6
2023-09-15T23:00:00,1349A,113.4332,23.1047,广州市,市八十六中,,15,14,17,8,8,34,7,24,10,30,31,5,4,0.7,0.6
2023-09-15T23:00:00,1350A,113.3505,22.9483,广州市,番禺中学,,24,24,18,16,10,54,4,39,15,44,37,6,6,0.7,0.7
2023-09-15T23:00:00,1351A,113.2146,23.3916,广州市,花都师范,,22,19,10,15,7,38,4,33,15,38,23,6,6,0.8,0.7
2023-09-15T23:00:00,1352A,113.2597,23.1331,广州市,市监测站,,18,14,13,10,8,44,9,23,12,36,34,6,6,0.5,0.6
2023-09-15T23:00:00,1353A,113.5618,23.312,广州市,九龙镇镇龙,,9,7,9,4,5,33,26,29,27,10,15,4,5,0.3,0.4
2023-09-15T23:00:00,1354A,113.2765,23.1544,广州市,麓湖,,16,12,11,5,5,36,4,23,11,32,28,5,5,0.6,0.6
2023-09-15T23:00:00,1355A,113.443,23.3035,广州市,帽峰山森林公园,,9,9,8,3,4,41,25,35,33,9,12,5,5,0.3,0.4
2023-09-15T23:00:00,1356A,114.1063,22.5545,深圳市,通心岭子站,,12,7,13,2,6,47,25,31,16,23,24,2,2,0.4,0.4
2023-09-15T23:00:00,1357A,114.117,22.5625,深圳市,洪湖,,11,8,16,2,7,43,25,28,16,22,23,5,6,0.6,0.6
2023-09-15T23:00:00,1358A,113.987,22.5417,深圳市,华侨城,,10,10,14,0,4,39,31,32,19,13,19,6,6,0.7,0.7
2023-09-15T23:00:00,1359A,113.9181,22.5171,深圳市,南海子站,,11,3,14,4,8,48,35,35,20,13,21,5,4,0.5,0.5
2023-09-15T23:00:00,1360A,114.2458,22.5689,深圳市,盐田,,18,8,13,0,2,49,15,38,25,35,20,5,5,0.4,0.4
2023-09-15T23:00:00,1361A,114.2283,22.7244,深圳市,龙岗,,,12,13,2,7,42,,34,24,13,15,8,8,0.8,0.8
2023-09-15T23:00:00,1363A,114.494,22.5422,深圳市,南澳,,15,9,12,3,3,55,47,45,45,6,8,5,5,0.6,0.6
2023-09-15T23:00:00,1364A,114.41,22.6342,深圳市,葵涌,,12,6,13,0,2,41,37,31,30,10,13,5,5,0.5,0.5
2023-09-15T23:00:00,1365A,114.297,22.5978,深圳市,梅沙,,13,8,13,0,1,44,39,34,31,6,9,5,5,0.5,0.6
2023-09-15T23:00:00,1366A,114.0678,22.738,深圳市,观澜,,,11,19,3,8,40,,31,15,22,22,7,7,0.6,0.6
2023-09-15T23:00:00,1367A,113.5814,22.2618,珠海市,吉大,,,,,,,,,,,,,,,,
2023-09-15T23:00:00,1368A,113.4881,22.2335,珠海市,前山,,10,7,8,5,6,40,32,32,22,13,23,8,8,0.4,0.4
2023-09-15T23:00:00,1369A,113.628,22.4251,珠海市,唐家,,12,12,14,2,6,58,27,37,28,18,20,4,5,0.3,0.3
2023-09-15T23:00:00,1370A,113.299,22.2281,珠海市,斗门,,15,6,8,2,5,45,45,32,26,4,14,5,6,0.3,0.4
2023-09-15T23:00:00,1371A,113.1294,23.0067,佛山市,湾梁,,20,14,8,9,9,39,3,24,12,40,31,5,6,0.7,0.7
2023-09-15T23:00:00,1372A,113.1083,23.0478,佛山市,华材职中,,21,17,11,12,10,33,4,23,8,42,36,4,5,0.6,0.5
2023-09-15T23:00:00,1373A,113.144,23.0453,佛山市,南海气象局,,25,25,15,9,7,24,2,14,5,35,30,8,8,0.7,0.6
2023-09-15T23:00:00,1374A,113.2881,22.8094,佛山市,顺德苏岗,,23,23,14,12,9,62,0,34,9,39,31,8,7,0.7,0.6
2023-09-15T23:00:00,1376A,112.8383,22.8678,佛山市,高明孔堂,,28,28,22,10,12,31,5,20,10,48,36,6,6,0.8,0.8
2023-09-15T23:00:00,1377A,112.8836,23.1588,佛山市,三水监测站,,21,17,7,14,7,32,2,25,12,42,27,6,3,0.8,0.8
2023-09-15T23:00:00,1378A,112.867,23.185,佛山市,三水云东海,,20,12,10,14,8,32,4,26,16,34,21,4,4,0.8,0.7
2023-09-15T23:00:00,1379A,113.3769,22.5211,中山市,华柏园,,19,14,16,8,11,32,2,24,10,38,29,4,5,0.5,0.5
2023-09-15T23:00:00,1380A,113.3881,22.5497,中山市,张溪,,21,16,19,6,10,37,1,27,9,41,31,4,4,0.4,0.5
2023-09-15T23:00:00,1381A,113.4075,22.5111,中山市,紫马岭,,16,16,18,7,9,40,8,26,12,30,25,5,5,0.3,0.3
2023-09-15T23:00:00,1382A,113.4411,22.4853,中山市,长江旅游区,,,,,,,,,,,,,,,,
2023-09-15T23:00:00,1383A,113.1064,22.6058,江门市,北街,,25,24,20,14,15,53,0,25,8,49,37,6,6,0.6,0.5
2023-09-15T23:00:00,1384A,113.0731,22.5835,江门市,西区,,25,19,18,11,9,47,2,24,9,50,36,6,6,0.7,0.6
2023-09-15T23:00:00,1385A,113.0219,22.5311,江门市,圭峰西,,23,19,16,11,10,51,3,31,15,46,27,4,4,0.8,0.6
2023-09-15T23:00:00,1386A,113.0828,22.5947,江门市,东湖,,22,22,21,14,10,49,3,26,11,41,28,7,6,0.7,0.6
2023-09-15T23:00:00,1389A,113.7547,23.0494,东莞市,莞城梨川,,11,11,16,6,9,56,24,38,22,17,26,5,5,0.7,0.7
2023-09-15T23:00:00,1390A,113.7944,23.0128,东莞市,东城石井,,,18,18,9,9,66,13,41,17,,20,2,2,0.6,0.6
2023-09-15T23:00:00,1391A,113.7383,22.9658,东莞市,南城西平,,16,16,19,7,9,34,7,21,8,32,34,3,4,0.6,0.6
2023-09-15T23:00:00,1392A,114.4183,23.0528,惠州市,河南岸金山湖子站,,12,12,13,7,8,55,29,40,31,12,12,4,5,0.4,0.4
2023-09-15T23:00:00,1393A,114.4053,23.0822,惠州市,下埔横江三路子站,,11,11,14,7,8,53,27,39,31,12,11,6,5,0.5,0.5
2023-09-15T23:00:00,1394A,114.4103,23.1142,惠州市,江北云山西路子站,,10,5,14,3,7,52,29,40,29,7,8,5,6,0.5,0.5
2023-09-15T23:00:00,1395A,114.4645,22.7833,惠州市,惠阳区承修路船湖子站,,11,7,15,3,7,51,35,44,33,12,11,4,4,0.4,0.7
2023-09-15T23:00:00,1396A,114.5317,22.7422,惠州市,大亚湾管委会子站,,15,11,16,5,7,46,24,40,20,30,22,4,5,0.7,0.7
2023-09-15T23:00:00,1397A,112.4267,23.0706,肇庆市,睦岗子站,,15,15,5,8,3,31,20,30,25,25,21,4,4,0.5,0.6
2023-09-15T23:00:00,1398A,112.4645,23.0475,肇庆市,城中子站,,22,21,8,15,4,44,18,44,30,32,19,5,4,0.7,0.7
2023-09-15T23:00:00,1399A,112.5544,23.1522,肇庆市,坑口子站,,18,17,6,12,5,37,20,33,23,30,24,4,4,0.6,0.6
2023-09-15T23:00:00,1400A,112.4753,23.1,肇庆市,七星岩子站,,,,,,,,,,,,,,,,
2023-09-15T23:00:00,1401A,108.3103,22.7881,南宁市,二十一中,,22,22,20,12,10,80,50,64,56,13,17,5,8,0.8,0.8
2023-09-15T23:00:00,1402A,108.3141,22.8528,南宁市,北湖,,20,19,22,14,17,79,52,65,58,12,14,4,15,0.7,0.6
2023-09-15T23:00:00,1403A,108.3206,22.8225,南宁市,市监测站,,20,20,22,11,11,70,48,56,51,22,25,7,13,0.8,0.7
2023-09-15T23:00:00,1404A,108.3829,22.8037,南宁市,大自然花园,,20,20,17,13,7,69,42,60,54,18,16,5,7,0.9,0.8
2023-09-15T23:00:00,1405A,108.4394,22.7904,南宁市,仙葫,,30,22,17,21,10,77,49,68,59,15,12,6,7,0.8,0.8
2023-09-15T23:00:00,1406A,108.2397,22.8467,南宁市,区农职院,,33,26,22,23,7,76,46,68,54,20,14,8,7,0.7,0.8
2023-09-15T23:00:00,1407A,108.3275,22.735,南宁市,英华嘉园,,19,17,21,13,10,70,42,59,54,14,17,6,7,0.6,0.6
2023-09-15T23:00:00,1408A,108.2257,22.7757,南宁市,沙井镇街道办,,45,45,28,15,9,77,20,66,40,45,21,4,8,0.7,0.7
2023-09-15T23:00:00,1409A,110.576,19.9507,海口市,东寨港,,,,,,,,,,,,,,,,
2023-09-15T23:00:00,1410A,110.3232,20.0574,海口市,海南大学,,15,15,18,8,10,90,30,76,44,12,15,6,6,0.3,0.4
2023-09-15T23:00:00,1411A,110.283,20.0053,海口市,秀英海南医院,,19,15,19,5,9,100,7,78,29,38,27,6,6,0.5,0.5
2023-09-15T23:00:00,1412A,110.338,19.9969,海口市,海南师范大学,,15,15,17,10,8,88,28,69,42,11,13,7,7,0.4,0.4
2023-09-15T23:00:00,1413A,110.33,20.0356,海口市,龙华路环保局宿舍,,16,16,17,9,9,87,29,70,40,12,15,7,7,0.2,0.3
2023-09-15T23:00:00,1414A,106.3787,29.8279,重庆市,缙云山,,35,19,22,5,7,188,112,169,160,6,13,8,9,0.2,0.3
2023-09-15T23:00:00,1416A,106.4213,29.8253,重庆市,天生,,48,43,40,33,22,175,34,154,118,58,36,5,6,0.9,0.8
2023-09-15T23:00:00,1417A,106.6263,29.7228,重庆市,两路,,36,31,28,25,18,157,49,136,100,54,41,8,8,0.8,0.8
2023-09-15T23:00:00,1418A,106.2953,29.5983,重庆市,虎溪,,45,45,41,29,21,155,45,133,97,76,44,5,6,0.7,0.6
2023-09-15T23:00:00,1419A,106.5777,29.5102,重庆市,南坪,,48,47,39,33,21,175,89,148,128,29,27,8,8,0.7,0.7
2023-09-15T23:00:00,1420A,106.6556,29.6277,重庆市,唐家沱,,46,46,33,26,18,170,50,152,125,46,31,7,7,0.7,0.7
2023-09-15T23:00:00,1421A,106.6349,29.4906,重庆市,茶园,颗粒物(PM10),51,52,47,23,18,140,39,125,91,96,56,7,6,1.1,0.9
2023-09-15T23:00:00,1422A,106.3754,29.4572,重庆市,白市驿,,48,45,39,33,24,181,90,148,141,43,28,7,8,0.9,0.7
2023-09-15T23:00:00,1425A,106.6205,29.7166,重庆市,空港,,37,37,32,24,16,172,74,156,124,46,30,7,9,0.7,0.7
2023-09-15T23:00:00,1426A,106.4782,29.4875,重庆市,新山村,,43,43,42,29,22,185,73,153,130,63,50,8,8,0.9,0.7
2023-09-15T23:00:00,1427A,106.5616,29.6453,重庆市,礼嘉,,48,48,42,26,22,155,41,147,118,79,49,7,7,1.0,0.9
2023-09-15T23:00:00,1428A,106.4522,29.7091,重庆市,蔡家,,,70,42,33,23,166,,140,132,63,34,8,7,0.8,0.7
2023-09-15T23:00:00,1429A,106.5093,29.3917,重庆市,鱼新街,颗粒物(PM10),51,51,39,33,20,168,44,134,114,66,38,6,7,1.1,0.9
2023-09-15T23:00:00,1431A,103.9728,30.7236,成都市,金泉两河,,44,44,47,18,27,148,8,122,81,58,23,2,7,0.8,0.6
2023-09-15T23:00:00,1432A,104.176,30.6872,成都市,十里店,,50,50,45,28,27,157,71,143,124,32,24,1,4,0.7,0.6
2023-09-15T23:00:00,1433A,104.079,30.5706,成都市,三瓦窑,细颗粒物(PM2.5),59,65,52,42,28,153,44,126,103,65,38,3,5,0.9,0.7
2023-09-15T23:00:00,1434A,104.1114,30.63,成都市,沙河铺,细颗粒物(PM2.5),52,51,55,36,31,132,74,114,102,22,23,1,3,0.7,0.6
2023-09-15T23:00:00,1437A,104.0786,30.6531,成都市,君平街,"颗粒物(PM10),细颗粒物(PM2.5)",55,60,53,39,35,166,60,141,117,42,28,6,10,0.9,0.7
2023-09-15T23:00:00,1438A,103.613,31.0283,成都市,灵岩寺,,45,22,30,17,24,141,141,125,125,4,10,7,18,0.6,0.8
2023-09-15T23:00:00,1439A,106.6899,26.5998,贵阳市,马鞍山,,29,29,23,19,13,146,66,130,108,17,10,4,4,0.4,0.4
2023-09-15T23:00:00,1440A,106.6971,26.5694,贵阳市,市环保站,,34,29,23,20,20,160,106,144,134,23,13,4,4,0.4,0.3
2023-09-15T23:00:00,1441A,106.6243,26.6266,贵阳市,鉴湖路,,44,44,27,24,13,146,92,132,122,21,8,3,3,0.5,0.4
2023-09-15T23:00:00,1442A,106.7487,26.6343,贵阳市,燕子冲,,,34,33,29,21,125,82,117,109,,8,5,5,0.6,0.6
2023-09-15T23:00:00,1443A,106.6555,26.4365,贵阳市,碧云窝,,41,41,32,27,17,135,66,125,108,24,11,4,4,0.6,0.7
2023-09-15T23:00:00,1444A,106.694,26.5161,贵阳市,中院村,,32,31,32,22,16,126,74,116,104,28,14,6,7,0.4,0.3
2023-09-15T23:00:00,1445A,106.7109,26.6027,贵阳市,红边门,细颗粒物(PM2.5),52,41,30,36,23,135,91,126,118,22,12,5,4,0.2,0.2
2023-09-15T23:00:00,1446A,106.7164,26.5699,贵阳市,新华路,,36,36,28,17,18,146,99,133,125,18,11,7,5,0.3,0.4
2023-09-15T23:00:00,1447A,106.674,26.5424,贵阳市,太慈桥,,44,44,23,19,14,138,65,125,111,39,15,4,3,0.5,0.4
2023-09-15T23:00:00,1450A,102.8204,24.8886,昆明市,呈贡新区,颗粒物(PM10),54,57,40,37,25,169,60,138,116,44,22,7,11,0.8,0.6
2023-09-15T23:00:00,1451A,102.6251,24.9608,昆明市,西山森林公园,,40,24,26,19,20,206,127,184,175,7,11,8,9,0.6,0.7
2023-09-15T23:00:00,1452A,102.7252,25.0902,昆明市,龙泉镇,颗粒物(PM10),66,81,38,25,27,157,4,139,104,99,33,8,9,1.0,0.6
2023-09-15T23:00:00,1453A,102.7266,25.0375,昆明市,东风东路,,39,39,38,21,23,178,90,151,138,20,19,11,8,0.6,0.6
2023-09-15T23:00:00,1454A,102.6742,25.0669,昆明市,金鼎山,,43,43,54,18,23,178,93,154,142,16,18,14,9,0.5,0.5
2023-09-15T23:00:00,1455A,102.6644,25.0401,昆明市,碧鸡广场,,41,41,38,26,27,186,80,153,135,27,21,9,8,0.5,0.4
2023-09-15T23:00:00,1456A,91.1319,29.6514,拉萨市,八廓街,,25,25,20,7,10,129,56,116,95,45,22,7,7,0.4,0.3
2023-09-15T23:00:00,1457A,91.1221,29.6747,拉萨市,市环保局,,27,17,18,10,9,117,85,108,94,11,19,5,6,0.3,0.3
2023-09-15T23:00:00,1458A,91.0874,29.6475,拉萨市,区监测站,,21,21,16,10,8,112,64,101,87,27,23,8,8,0.4,0.3
2023-09-15T23:00:00,1459A,91.1774,29.6541,拉萨市,西藏大学,,24,24,14,10,8,124,63,109,94,25,13,9,9,0.6,0.3
2023-09-15T23:00:00,1460A,90.9798,29.6588,拉萨市,区辐射站,,40,40,22,15,10,112,59,102,88,37,24,12,10,0.3,0.2
2023-09-15T23:00:00,1461A,91.0834,29.6292,拉萨市,拉萨火车站,,25,17,19,9,9,107,77,102,97,14,21,6,6,0.4,0.3
2023-09-15T23:00:00,1462A,108.882,34.2749,西安市,高压开关厂,,46,46,52,26,24,176,57,154,118,34,25,8,9,0.6,0.6
2023-09-15T23:00:00,1463A,108.993,34.2629,西安市,兴庆小区,,29,27,44,20,22,174,64,151,115,22,21,6,8,0.6,0.7
2023-09-15T23:00:00,1464A,109.06,34.2572,西安市,纺织城,,33,32,49,17,26,181,20,151,101,66,30,5,7,0.6,0.6
2023-09-15T23:00:00,1465A,108.9356,34.2173,西安市,小寨,,41,41,44,17,20,178,65,152,116,22,23,6,6,0.5,0.6
2023-09-15T23:00:00,1466A,108.954,34.2713,西安市,市人民体育场,,39,39,48,22,27,176,46,150,107,35,25,9,8,0.5,0.6
2023-09-15T23:00:00,1467A,108.8922,34.2322,西安市,高新西区,,,34,43,23,25,184,,159,133,17,20,6,7,0.5,0.6
2023-09-15T23:00:00,1468A,108.935,34.3474,西安市,经开区,颗粒物(PM10),62,73,51,42,26,164,41,145,105,51,20,4,5,0.6,0.5
2023-09-15T23:00:00,1469A,108.906,34.1546,西安市,长安区,颗粒物(PM10),57,64,43,29,24,194,24,166,121,45,27,6,7,0.5,0.4
2023-09-15T23:00:00,1471A,109.2186,34.3731,西安市,临潼区,,50,50,52,29,28,157,25,139,98,45,24,5,7,0.7,0.6
2023-09-15T23:00:00,1472A,108.869,34.378,西安市,草滩,,45,45,46,19,18,181,82,164,131,27,18,9,11,0.5,0.5
2023-09-15T23:00:00,1473A,108.985,34.1978,西安市,曲江文化产业集团,,33,33,46,20,22,177,52,149,111,29,22,8,7,0.5,0.5
2023-09-15T23:00:00,1474A,109.051,34.3213,西安市,广运潭,颗粒物(PM10),67,84,53,41,28,160,10,140,86,62,26,10,9,0.7,0.6
2023-09-15T23:00:00,1476A,103.631,36.1031,兰州市,兰炼宾馆,颗粒物(PM10),57,64,57,27,24,200,21,158,96,72,36,2,14,0.5,0.5
2023-09-15T23:00:00,1477A,104.1373,35.9454,兰州市,榆中兰大校区,,,,,,,,,,,,,,,,
2023-09-15T23:00:00,1478A,103.8412,36.0726,兰州市,生物制品所,颗粒物(PM10),60,69,72,36,34,146,13,112,78,64,46,4,8,0.8,0.8
2023-09-15T23:00:00,1479A,103.831,36.0464,兰州市,铁路设计院,颗粒物(PM10),63,75,62,34,30,149,12,115,76,84,55,6,12,0.9,1
2023-09-15T23:00:00,1483A,101.524,36.6867,西宁市,第五水厂,,,,,,,,,,,,,,,,
2023-09-15T23:00:00,1484A,105.9512,38.6016,银川市,贺兰山马莲口,,45,45,26,23,16,154,140,140,140,9,11,14,8,0.6,0.4
2023-09-15T23:00:00,1488A,106.2328,38.4975,银川市,贺兰山东路,颗粒物(PM10),63,75,46,38,26,172,62,145,117,50,27,18,10,1.0,0.6
2023-09-15T23:00:00,1489A,106.1358,38.5036,银川市,学院路,颗粒物(PM10),97,143,61,31,29,153,45,133,106,60,34,14,11,0.7,0.5
2023-09-15T23:00:00,1490A,87.5801,43.8303,乌鲁木齐市,监测站,,,46,20,,13,60,33,55,46,30,26,5,4,0.4,0.5
2023-09-15T23:00:00,1491A,87.6046,43.768,乌鲁木齐市,收费所,,26,26,18,16,12,75,20,59,46,49,30,1,1,0.5,0.4
2023-09-15T23:00:00,1492A,87.4754,43.9469,乌鲁木齐市,新疆农科院农场,,30,13,29,17,18,71,8,64,48,60,27,2,3,0.5,0.4
2023-09-15T23:00:00,1493A,87.5525,43.8711,乌鲁木齐市,铁路局,,24,24,20,11,11,64,33,58,46,23,23,4,4,0.6,0.6
2023-09-15T23:00:00,1494A,87.6432,43.831,乌鲁木齐市,三十一中学,,26,26,20,5,14,74,45,60,49,20,17,4,4,0.4,0.4
2023-09-15T23:00:00,1496A,87.7216,44.1747,乌鲁木齐市,米东区环保局,,34,34,24,16,13,74,15,72,56,28,11,6,8,0.4,0.4
2023-09-15T23:00:00,1508A,112.9433,27.8614,湘潭市,板塘,,22,22,18,9,8,115,31,101,78,37,16,8,6,0.4,0.3
2023-09-15T23:00:00,1511A,112.9118,27.8403,湘潭市,市监测站,,22,22,14,10,9,108,41,96,80,32,13,5,4,0.7,0.5
2023-09-15T23:00:00,1512A,112.8937,27.8728,湘潭市,江麓,,29,29,18,15,10,109,41,98,78,26,14,7,6,0.5,0.3
2023-09-15T23:00:00,1513A,112.9227,27.8159,湘潭市,岳塘,,20,20,17,9,9,112,38,100,82,21,12,10,9,0.6,0.4
2023-09-15T23:00:00,1514A,112.9074,27.9119,湘潭市,科大,,26,26,19,7,8,101,19,88,66,35,14,8,4,0.8,0.7
2023-09-15T23:00:00,1515A,113.135,27.8244,株洲市,天台山庄,,16,16,11,9,8,90,37,79,60,15,9,5,5,0.9,0.9
2023-09-15T23:00:00,1518A,113.095,27.8867,株洲市,株冶医院,,,,14,12,9,107,0,84,65,42,12,5,4,0.8,0.7
2023-09-15T23:00:00,1519A,113.167,27.8667,株洲市,市四中,,16,16,12,7,7,85,23,73,52,17,8,8,7,0.8,0.7
2023-09-15T23:00:00,1520A,113.143,27.8381,株洲市,火车站,,28,28,15,15,8,91,14,72,49,26,10,5,4,1.1,0.8
2023-09-15T23:00:00,1524A,113.13,27.8528,株洲市,市监测站,,17,17,15,10,10,87,35,76,59,16,10,6,8,0.9,0.8
2023-09-15T23:00:00,1552A,106.805,26.3003,贵阳市,桐木岭,,,,,,,,,,,,,,,,
2023-09-15T23:00:00,1559A,113.251,27.8336,株洲市,大京风景区,,15,15,12,4,6,71,5,62,29,3,4,4,4,0.4,0.4
2023-09-15T23:00:00,1562A,113.0048,27.9153,湘潭市,昭山,,24,24,22,9,8,120,4,92,55,39,21,5,4,0.7,0.6
2023-09-15T23:00:00,1564A,112.4876,27.9164,湘潭市,韶山,,46,46,22,12,8,79,3,68,38,9,8,6,5,0.6,0.5
2023-09-15T23:00:00,1585A,109.8756,40.6532,包头市,市环境监测站,颗粒物(PM10),51,51,33,17,16,150,56,124,93,50,32,10,13,0.6,0.7
2023-09-15T23:00:00,1587A,109.9991,40.5842,包头市,包头八中,,43,43,37,9,14,146,93,132,115,24,21,12,15,0.6,0.7
2023-09-15T23:00:00,1588A,109.8538,40.6821,包头市,青山宾馆,,48,48,32,26,19,158,31,132,94,56,28,10,11,1.0,0.8
2023-09-15T23:00:00,1589A,109.8642,40.6288,包头市,惠龙物流,,44,44,35,22,16,159,62,138,112,45,25,17,14,0.9,0.8
2023-09-15T23:00:00,1590A,110.0377,40.5546,包头市,东河鸿龙湾,,27,19,25,9,14,148,86,135,118,17,14,10,13,0.5,0.6
2023-09-15T23:00:00,1591A,110.0023,39.8129,鄂尔多斯市,综合楼,,27,17,27,7,12,124,85,109,92,25,20,4,6,0.5,0.7
2023-09-15T23:00:00,1592A,109.9486,39.8261,鄂尔多斯市,巴音孟克林场办事处,,31,19,27,12,15,132,98,118,106,19,17,6,7,0.4,0.5
2023-09-15T23:00:00,1593A,109.7736,39.5986,鄂尔多斯市,康泽苑,,19,19,26,9,13,129,57,114,96,23,14,4,5,0.7,0.7
2023-09-15T23:00:00,1594A,109.8119,39.5989,鄂尔多斯市,华泰汽车城,,24,24,27,14,17,125,49,110,89,28,14,6,7,0.5,0.5
2023-09-15T23:00:00,1595A,109.9734,39.7884,鄂尔多斯市,奥林花园,,22,22,32,5,15,125,67,111,91,26,16,4,5,0.7,0.7
2023-09-15T23:00:00,1597A,122.2703,40.7094,营口市,大庆路,细颗粒物(PM2.5),52,39,45,36,27,138,64,129,112,24,18,5,12,0.9,0.8
2023-09-15T23:00:00,1598A,122.2150,40.6511,营口市,镜湖西路,,31,31,39,12,20,138,67,131,114,16,20,4,7,0.5,0.6
2023-09-15T23:00:00,1599A,122.1658,40.6789,营口市,西炮台,,30,30,44,7,18,143,79,132,119,12,21,4,6,0.5,0.6
2023-09-15T23:00:00,1600A,124.3303,40.0625,丹东市,江湾东路,颗粒物(PM10),51,52,38,29,20,95,33,90,60,21,15,10,11,0.8,0.7
2023-09-15T23:00:00,1601A,124.4256,40.1503,丹东市,临江后街,,46,46,30,25,14,94,39,88,68,20,15,8,9,0.8,0.6
2023-09-15T23:00:00,1602A,124.3933,40.1461,丹东市,元宝山,,42,42,35,20,15,86,39,78,60,15,18,8,9,1.1,0.9
2023-09-15T23:00:00,1603A,124.3633,40.1092,丹东市,民主桥,,41,41,29,21,15,96,6,88,57,41,16,5,6,0.7,0.6
2023-09-15T23:00:00,1604A,122.0303,41.1489,盘锦市,开发区,,32,12,32,11,17,148,100,141,116,8,11,2,6,0.6,0.8
2023-09-15T23:00:00,1605A,122.0485,41.0883,盘锦市,兴隆台,,30,16,33,15,19,143,95,135,112,7,14,6,7,0.4,0.7
2023-09-15T23:00:00,1606A,121.8297,41.1028,盘锦市,新生街道,,28,20,33,10,14,154,88,147,111,12,15,7,8,0.3,0.5
2023-09-15T23:00:00,1607A,120.9092,40.7136,葫芦岛市,龙港区,,44,24,28,9,12,147,140,135,135,7,9,8,10,0.4,0.5
2023-09-15T23:00:00,1608A,120.8392,40.7514,葫芦岛市,化工街,,35,22,35,9,15,147,111,128,115,15,22,6,8,0.6,0.7
2023-09-15T23:00:00,1609A,120.8341,40.7073,葫芦岛市,新区,,41,27,30,16,16,147,129,129,127,9,16,6,7,0.5,0.7
2023-09-15T23:00:00,1610A,120.8695,40.7677,葫芦岛市,东城区,,38,27,36,16,20,155,120,134,122,20,26,8,11,0.6,0.8
2023-09-15T23:00:00,1611A,118.5819,24.9117,泉州市,涂山街,,35,35,36,12,17,169,31,143,90,43,20,10,7,0.6,0.6
2023-09-15T23:00:00,1612A,118.5972,24.8978,泉州市,津头埔,,,34,32,17,19,157,,134,91,47,22,8,6,0.5,0.6
2023-09-15T23:00:00,1613A,118.6663,24.9424,泉州市,万安,,20,20,35,13,21,157,38,143,82,39,24,5,4,0.7,0.7
2023-09-15T23:00:00,1614A,118.6117,24.9604,泉州市,清源山,,,,,,,,,,,,,,,,
2023-09-15T23:00:00,1616A,117.6795,36.229,济南市,技术学院,颗粒物(PM10),70,90,57,38,22,241,13,210,144,115,44,10,12,1.4,1
2023-09-15T23:00:00,1618A,118.3429,35.0532,临沂市,沂河小区,,34,34,47,16,22,192,106,172,138,20,25,6,8,0.3,0.5
2023-09-15T23:00:00,1619A,118.295,35.0583,临沂市,鲁南制药厂,,39,39,51,20,20,201,96,181,146,16,33,6,7,0.5,0.6
2023-09-15T23:00:00,1620A,118.2794,34.9976,临沂市,新光毛纺厂,,40,39,61,28,25,190,91,171,131,20,40,12,10,0.6,0.9
2023-09-15T23:00:00,1621A,118.3956,35.0888,临沂市,河东保险公司,,42,39,42,29,22,184,78,168,129,23,29,6,6,0.4,0.4
2023-09-15T23:00:00,1622A,116.3032,37.4674,德州市,儿童乐园,颗粒物(PM10),64,78,72,34,31,185,136,181,167,24,26,12,15,0.9,0.8
2023-09-15T23:00:00,1624A,116.2991,37.4451,德州市,监理站,细颗粒物(PM2.5),64,73,66,46,33,183,104,178,157,42,29,17,18,0.8,0.7
2023-09-15T23:00:00,1625A,115.9848,36.4372,聊城市,区政府,颗粒物(PM10),54,57,58,28,32,185,135,172,159,22,23,17,11,0.4,0.4
2023-09-15T23:00:00,1628A,118.0062,37.3803,滨州市,市环保局,颗粒物(PM10),64,78,64,39,29,233,100,220,171,38,34,20,21,0.6,0.7
2023-09-15T23:00:00,1629A,118.0018,37.3617,滨州市,第二水厂,颗粒物(PM10),64,78,60,30,30,227,89,216,164,52,43,19,17,1.0,1.1
2023-09-15T23:00:00,1630A,117.9776,37.393,滨州市,北中新校,颗粒物(PM10),62,74,69,35,32,240,100,221,165,41,37,19,17,0.8,1
2023-09-15T23:00:00,1631A,118.0414,36.8103,淄博市,人民公园,颗粒物(PM10),69,88,73,31,29,234,50,215,152,80,47,12,11,1.0,1
2023-09-15T23:00:00,1633A,117.8525,36.4847,淄博市,双山,颗粒物(PM10),51,52,45,32,20,242,105,214,170,40,29,7,5,0.5,0.4
2023-09-15T23:00:00,1634A,117.9592,36.6331,淄博市,气象站,颗粒物(PM10),73,95,65,44,30,250,49,216,144,58,38,18,12,0.5,0.4
2023-09-15T23:00:00,1635A,118.3092,36.8194,淄博市,莆田园,颗粒物(PM10),108,166,70,63,27,230,12,212,125,91,44,42,20,4.6,1.9
2023-09-15T23:00:00,1637A,117.558,34.8438,枣庄市,市中区政府,颗粒物(PM10),75,100,63,48,26,232,59,196,145,48,35,12,14,0.4,0.5
2023-09-15T23:00:00,1638A,117.2852,34.7837,枣庄市,薛城环保局,颗粒物(PM10),58,66,58,35,26,208,92,189,142,31,35,6,11,0.6,0.6
2023-09-15T23:00:00,1639A,117.5852,34.7745,枣庄市,峄城区政府,"颗粒物(PM10),细颗粒物(PM2.5)",67,83,60,48,22,233,71,198,143,31,28,8,15,0.6,0.6
2023-09-15T23:00:00,1640A,117.7276,34.5578,枣庄市,台儿庄区环保局,颗粒物(PM10),57,63,46,36,25,184,37,163,94,51,36,7,10,0.6,0.6
2023-09-15T23:00:00,1641A,117.4518,35.0992,枣庄市,山亭区环保局,,39,39,37,24,19,200,118,176,163,19,19,8,7,0.6,0.7
2023-09-15T23:00:00,1642A,121.2514,37.5639,烟台市,开发区,,,22,29,9,17,126,,112,89,18,23,3,5,0.7,0.7
2023-09-15T23:00:00,1643A,121.3719,37.5433,烟台市,轴承厂,,19,19,21,13,15,123,57,112,92,14,13,8,9,0.4,0.3
2023-09-15T23:00:00,1644A,121.3181,37.5436,烟台市,西郊化工站,,39,39,26,17,17,121,42,111,88,28,16,3,2,0.6,0.6
2023-09-15T23:00:00,1645A,121.4478,37.4822,烟台市,莱山环保局,,24,24,17,9,9,120,62,108,91,11,9,7,6,0.5,0.5
2023-09-15T23:00:00,1646A,121.2611,37.4967,烟台市,福山环保局,,24,24,37,7,8,110,49,101,73,25,27,8,7,0.1,0.2
2023-09-15T23:00:00,1650A,119.1437,36.7023,潍坊市,环保局,颗粒物(PM10),54,58,49,35,24,209,92,183,142,26,35,7,8,0.6,0.7
2023-09-15T23:00:00,1653A,116.6251,35.4302,济宁市,火炬城,颗粒物(PM10),55,59,47,19,14,187,110,176,155,23,16,12,12,0.4,0.4
2023-09-15T23:00:00,1655A,116.5491,35.4042,济宁市,电化厂,颗粒物(PM10),61,72,58,29,17,180,124,170,146,25,22,20,8,0.6,0.6
2023-09-15T23:00:00,1656A,117.1437,36.1937,泰安市,监测站,颗粒物(PM10),58,66,49,36,23,199,59,187,160,53,22,9,11,0.8,0.8
2023-09-15T23:00:00,1657A,117.0885,36.2017,泰安市,人口学校,,39,39,40,19,15,201,113,188,160,23,21,11,12,0.6,0.6
2023-09-15T23:00:00,1658A,117.1089,36.1758,泰安市,电力学校,颗粒物(PM10),62,73,59,30,25,207,50,191,146,57,30,8,11,0.7,0.6
2023-09-15T23:00:00,1659A,119.471,35.4209,日照市,监测站,,46,46,30,27,15,150,4,137,90,90,46,8,7,0.9,0.8
2023-09-15T23:00:00,1660A,119.523,35.4216,日照市,市政府广场,,22,22,26,9,12,148,68,137,114,19,36,4,5,0.5,0.5
2023-09-15T23:00:00,1661A,119.5587,35.4044,日照市,港务局,,28,14,30,8,14,147,88,132,117,20,34,6,7,0.5,0.6
2023-09-15T23:00:00,1662A,122.1214,37.4236,威海市,华夏技校,,15,7,19,10,10,96,40,86,64,29,17,4,5,0.5,0.5
2023-09-15T23:00:00,1663A,122.0508,37.5236,威海市,山大分校,,24,12,20,7,10,102,74,97,86,4,8,8,9,0.3,0.3
2023-09-15T23:00:00,1664A,122.1067,37.5072,威海市,市监测站,,21,10,20,7,9,98,65,89,79,9,7,6,6,0.5,0.5
2023-09-15T23:00:00,1666A,118.6614,37.4309,东营市,市环保局,,47,29,33,24,16,223,150,205,180,5,17,6,10,0.5,0.6
2023-09-15T23:00:00,1669A,113.5824,24.7733,韶关市,市八中,,14,14,11,7,5,61,27,56,37,11,9,9,9,0.6,0.6
2023-09-15T23:00:00,1671A,113.5917,24.7972,韶关市,园林处,,25,15,9,17,7,62,38,57,43,7,5,10,10,0.6,0.6
2023-09-15T23:00:00,1672A,113.6735,24.7791,韶关市,韶关学院,,16,13,8,11,4,52,21,50,33,16,8,21,9,0.7,0.6
2023-09-15T23:00:00,1673A,113.5971,24.6863,韶关市,曲江监测站,,30,30,12,11,7,59,15,59,31,31,12,6,7,0.8,0.7
2023-09-15T23:00:00,1674A,116.6794,23.3667,汕头市,金平子站,,23,19,18,16,15,70,67,66,66,16,14,4,5,0.7,0.7
2023-09-15T23:00:00,1675A,116.7244,23.3633,汕头市,龙湖子站,,24,15,18,6,10,90,74,88,86,9,8,5,5,0.5,0.5
2023-09-15T23:00:00,1676A,116.7258,23.2775,汕头市,濠江子站,,22,17,17,12,12,77,69,75,73,10,8,8,7,0.5,0.5
2023-09-15T23:00:00,1677A,116.7519,23.4714,汕头市,澄海子站,,25,25,20,13,16,73,67,70,69,10,10,7,7,0.5,0.4
2023-09-15T23:00:00,1678A,116.6092,23.2539,汕头市,潮阳子站,,20,20,19,11,13,69,61,65,64,6,5,8,8,0.7,0.6
2023-09-15T23:00:00,1680A,110.3539,21.2706,湛江市,湛江影剧院,,14,9,11,5,5,59,43,54,52,6,8,6,8,0.4,0.5
2023-09-15T23:00:00,1681A,110.3928,21.2228,湛江市,市环境监测站,,13,8,11,2,6,62,41,55,53,9,8,6,7,0.4,0.4
2023-09-15T23:00:00,1682A,110.4019,21.1997,湛江市,环保局宿舍,,14,6,11,2,4,64,42,57,55,6,8,4,6,0.4,0.4
2023-09-15T23:00:00,1683A,110.4111,21.2028,湛江市,霞山游泳场,,15,9,12,4,5,66,46,60,58,5,8,4,5,0.4,0.4
2023-09-15T23:00:00,1684A,110.3316,21.2679,湛江市,麻章区环保局,,14,5,13,5,7,56,43,52,50,7,11,6,6,0.5,0.6
2023-09-15T23:00:00,1685A,110.4558,21.2567,湛江市,坡头区环保局,,15,7,9,3,6,69,46,61,58,6,6,4,5,0.3,0.4
2023-09-15T23:00:00,1686A,111.0286,21.4688,茂名市,电白南海,,24,24,17,12,12,53,20,46,38,17,10,7,5,0.6,0.6
2023-09-15T23:00:00,1687A,110.9294,21.6533,茂名市,茂石化七小,,12,12,15,7,10,48,24,42,34,9,10,3,3,0.6,0.6
2023-09-15T23:00:00,1688A,110.9107,21.6687,茂名市,健康路,,14,14,13,5,3,52,31,48,41,10,11,8,8,0.4,0.5
2023-09-15T23:00:00,1689A,110.8592,21.6828,茂名市,高岭,,20,12,17,14,13,54,30,50,42,18,13,16,12,0.9,0.9
2023-09-15T23:00:00,1690A,116.1231,24.3284,梅州市,梅江月梅,,14,14,14,7,7,43,13,37,27,28,18,2,3,0.6,0.6
2023-09-15T23:00:00,1691A,116.0797,24.2719,梅州市,梅县新城,,14,14,13,5,5,50,30,43,40,14,12,5,5,0.6,0.6
2023-09-15T23:00:00,1692A,116.1248,24.2654,梅州市,环境监控中心,,,,15,,8,46,,41,35,36,17,6,7,0.6,0.5
2023-09-15T23:00:00,1693A,115.3653,22.775,汕尾市,市环保局,,13,12,12,8,7,59,41,50,46,6,5,9,11,0.4,0.5
2023-09-15T23:00:00,1694A,115.3706,22.7898,汕尾市,市政府,,13,9,9,3,5,60,40,54,48,6,5,6,5,0.3,0.3
2023-09-15T23:00:00,1695A,115.3622,22.7925,汕尾市,新城中学,,,20,11,7,5,55,,48,45,8,6,,7,0.3,0.4
2023-09-15T23:00:00,1696A,114.6778,23.7569,河源市,源西,,11,4,7,4,5,44,19,36,31,22,14,4,4,0.5,0.6
2023-09-15T23:00:00,1697A,114.6944,23.7586,河源市,东埔,,8,3,11,2,5,49,24,39,34,15,11,5,5,0.5,0.7
2023-09-15T23:00:00,1698A,114.6892,23.7233,河源市,老城,,11,11,8,2,4,48,21,40,34,18,12,4,4,0.6,0.6
2023-09-15T23:00:00,1699A,111.9797,21.8593,阳江市,鸳鸯湖,,24,24,25,10,13,36,13,33,23,22,16,7,6,0.8,0.8
2023-09-15T23:00:00,1701A,111.9491,21.8658,阳江市,马南垌,,29,29,25,17,19,35,16,29,23,20,14,6,6,0.6,0.6
2023-09-15T23:00:00,1702A,113.0426,23.691,清远市,环保大楼,,17,17,6,5,3,39,10,34,26,28,14,7,6,1.0,0.8
2023-09-15T23:00:00,1703A,113.0208,23.7106,清远市,凤城街办,,16,13,6,10,4,32,0,27,20,32,15,5,6,0.9,0.7
2023-09-15T23:00:00,1705A,116.6367,23.6719,潮州市,西园路,,50,42,28,35,17,76,20,66,43,13,9,4,4,0.5,0.4
2023-09-15T23:00:00,1706A,116.6447,23.6706,潮州市,档案局,,37,37,29,20,15,80,20,69,42,16,11,5,6,0.8,0.6
2023-09-15T23:00:00,1708A,116.3701,23.5345,揭阳市,新兴,,22,12,25,15,16,79,25,62,38,14,13,7,8,0.7,0.6
2023-09-15T23:00:00,1709A,116.3264,23.5443,揭阳市,西马,,18,12,26,12,12,84,24,70,44,19,11,5,7,0.9,0.7
2023-09-15T23:00:00,1710A,116.3611,23.5626,揭阳市,东兴,,22,19,28,15,13,82,10,66,32,37,20,33,10,0.9,0.9
2023-09-15T23:00:00,1711A,116.4151,23.5294,揭阳市,渔湖,,,25,29,,68,77,10,66,36,34,17,12,6,0.8,0.6
2023-09-15T23:00:00,1712A,112.0392,22.9169,云浮市,新市府,,12,11,7,3,4,39,15,33,24,24,11,5,5,1.0,1
2023-09-15T23:00:00,1714A,112.0539,22.9539,云浮市,牧羊,,13,13,10,3,3,37,15,28,9,24,24,5,6,0.5,0.6
2023-09-15T23:00:00,1715A,102.575,24.3711,玉溪市,东风水库,,34,34,29,18,20,124,63,115,104,15,11,6,6,0.8,0.8
2023-09-15T23:00:00,1718A,115.4208,35.2464,菏泽市,气象局,颗粒物(PM10),51,51,60,19,30,180,140,173,154,21,20,4,6,0.4,0.4
2023-09-15T23:00:00,1719A,115.4747,35.2375,菏泽市,市政协,颗粒物(PM10),56,62,55,33,32,183,117,174,152,25,17,5,5,0.5,0.5
2023-09-15T23:00:00,1721A,113.3819,40.1097,大同市,果树场,,,,,,,,,,,,,,,,
2023-09-15T23:00:00,1723A,113.2994,40.0758,大同市,云冈宾馆,,35,16,57,15,31,174,110,150,127,12,23,8,12,0.7,0.8
2023-09-15T23:00:00,1724A,113.3444,40.0917,大同市,大同大学,,33,15,57,12,29,176,105,168,129,15,24,11,11,1.0,0.8
2023-09-15T23:00:00,1725A,113.2661,40.1269,大同市,安家小村,,36,12,68,9,30,172,114,150,129,8,21,10,15,0.2,0.5
2023-09-15T23:00:00,1726A,113.2711,40.0844,大同市,教育学院,,35,22,71,11,31,177,112,153,129,13,26,7,12,0.5,0.7
2023-09-15T23:00:00,1727A,113.1147,36.1547,长治市,清华站,,39,38,46,27,27,159,119,147,134,17,21,6,6,0.6,0.6
2023-09-15T23:00:00,1728A,113.1031,36.1989,长治市,监测站,,42,37,43,29,28,156,112,142,134,17,25,6,6,0.6,0.8
2023-09-15T23:00:00,1730A,113.0886,36.2125,长治市,审计局,,39,30,40,27,29,150,119,137,127,13,21,8,8,0.6,0.6
2023-09-15T23:00:00,1731A,113.0844,36.1856,长治市,长治八中,,47,47,49,29,23,154,124,141,134,13,23,10,10,0.6,0.6
2023-09-15T23:00:00,1733A,111.5531,36.0783,临汾市,临钢医院,颗粒物(PM10),74,98,54,30,22,160,18,146,111,66,27,8,11,0.8,0.8
2023-09-15T23:00:00,1734A,111.5028,36.0714,临汾市,技工学校,细颗粒物(PM2.5),58,63,46,41,28,176,84,159,127,28,22,16,11,0.9,0.7
2023-09-15T23:00:00,1736A,111.5018,36.0855,临汾市,市委,颗粒物(PM10),67,84,56,37,25,177,73,160,126,39,24,14,9,0.9,0.9
2023-09-15T23:00:00,1738A,113.5758,37.8572,阳泉市,市中心,颗粒物(PM10),62,73,53,33,28,190,23,170,146,100,50,10,10,1.2,1.1
2023-09-15T23:00:00,1739A,113.4894,37.8731,阳泉市,赛鱼,颗粒物(PM10),52,53,55,33,26,185,15,154,103,73,48,9,11,1.0,0.9
2023-09-15T23:00:00,1740A,113.5819,37.8486,阳泉市,南庄,颗粒物(PM10),67,84,65,28,25,187,99,167,144,19,31,8,10,1.2,1
2023-09-15T23:00:00,1742A,113.5614,37.8703,阳泉市,平坦,颗粒物(PM10),74,98,62,40,31,188,13,173,146,103,53,12,12,1.1,1
2023-09-15T23:00:00,1743A,113.5158,37.8392,阳泉市,大阳泉,细颗粒物(PM2.5),69,83,47,50,30,177,163,150,147,22,23,11,10,1.1,0.9
2023-09-15T23:00:00,1744A,118.9233,42.2816,赤峰市,松山一中,,42,13,36,19,20,163,134,153,140,18,22,13,12,0.4,0.5
2023-09-15T23:00:00,1745A,118.9576,42.2728,赤峰市,哈达街,,38,30,40,18,21,162,119,148,134,18,22,14,16,0.4,0.5
2023-09-15T23:00:00,1746A,118.8788,42.2554,赤峰市,天义路,,45,25,34,18,20,168,144,164,150,13,16,12,13,0.3,0.4
2023-09-15T23:00:00,1748A,123.044,41.1196,鞍山市,深沟寺,,30,30,32,17,19,132,56,127,94,9,9,3,5,0.5,0.7
2023-09-15T23:00:00,1749A,123.011,41.0931,鞍山市,太阳城,,29,29,37,11,17,134,51,127,93,12,13,6,8,0.6,0.8
2023-09-15T23:00:00,1750A,123.0485,41.1442,鞍山市,太平,,30,30,35,15,14,133,70,126,95,7,16,6,9,0.5,0.8
2023-09-15T23:00:00,1751A,122.9642,41.0971,鞍山市,铁西三道街,颗粒物(PM10),56,61,54,23,21,131,41,123,87,29,27,7,7,1.0,0.9
2023-09-15T23:00:00,1752A,122.9341,41.0833,鞍山市,铁西工业园区,颗粒物(PM10),60,70,62,31,22,134,36,126,91,30,28,9,11,1.1,1
2023-09-15T23:00:00,1753A,123.022,41.0821,鞍山市,明达新区,,33,33,42,12,18,122,67,118,93,8,18,3,5,0.5,0.8
2023-09-15T23:00:00,1754A,123.1289,41.0228,鞍山市,千山,,,,,,,,,,,,,,,,
2023-09-15T23:00:00,1755A,123.7977,41.8491,抚顺市,望花区,颗粒物(PM10),62,73,49,35,13,125,52,118,85,40,25,34,14,0.9,0.6
2023-09-15T23:00:00,1756A,123.9161,41.8822,抚顺市,顺城区,颗粒物(PM10),63,76,36,35,15,130,3,114,60,49,24,7,8,0.9,0.7
2023-09-15T23:00:00,1757A,124.0436,41.8611,抚顺市,东洲区,,37,37,29,15,8,138,57,123,86,15,13,9,7,0.7,0.5
2023-09-15T23:00:00,1758A,123.9247,41.8642,抚顺市,新抚区,颗粒物(PM10),53,56,36,22,13,132,4,117,56,38,24,6,9,0.8,0.6
2023-09-15T23:00:00,1759A,124.0972,41.8961,抚顺市,大伙房水库,,23,23,20,9,13,134,51,120,87,13,9,6,6,0.5,0.4
2023-09-15T23:00:00,1760A,123.7086,41.8391,抚顺市,沈抚新城,颗粒物(PM10),58,66,49,31,21,129,42,118,69,39,30,22,21,0.7,0.9
2023-09-15T23:00:00,1761A,123.8275,41.3064,本溪市,大峪,,47,47,36,19,15,106,48,101,82,17,19,5,6,0.6,0.6
2023-09-15T23:00:00,1762A,123.7567,41.3325,本溪市,溪湖,,33,33,46,14,17,102,61,94,75,19,24,11,12,0.9,1.1
2023-09-15T23:00:00,1763A,123.7169,41.3094,本溪市,彩屯,,30,30,58,18,26,94,50,89,60,24,33,9,11,1.5,1.8
2023-09-15T23:00:00,1764A,123.7669,41.2864,本溪市,东明,,32,32,39,14,15,106,77,101,89,10,24,6,8,0.6,0.7
2023-09-15T23:00:00,1765A,123.7992,41.2664,本溪市,新立屯,,28,28,26,11,9,99,55,94,61,20,29,7,8,0.6,0.7
2023-09-15T23:00:00,1766A,123.8142,41.3472,本溪市,威宁,,38,38,37,20,17,95,15,86,50,26,18,6,6,0.6,0.6
2023-09-15T23:00:00,1767A,121.1115,41.0879,锦州市,南山,,30,24,37,16,23,158,95,142,117,26,24,6,10,0.5,0.7
2023-09-15T23:00:00,1768A,121.0533,40.8434,锦州市,开发区,,38,36,56,13,17,140,119,128,122,14,19,5,37,0.6,0.8
2023-09-15T23:00:00,1769A,121.1836,41.1119,锦州市,百股街道,,37,17,27,12,15,165,118,145,128,16,15,8,15,0.5,0.7
2023-09-15T23:00:00,1770A,121.1178,41.1222,锦州市,天安街道,,34,32,42,17,17,157,108,141,118,18,21,9,13,0.8,1
2023-09-15T23:00:00,1771A,121.1303,41.1386,锦州市,北湖公园,,35,30,40,13,18,160,110,143,121,16,16,10,14,0.6,0.7
2023-09-15T23:00:00,1772A,126.54,43.8622,吉林市,哈达湾,颗粒物(PM10),51,52,25,34,16,133,27,116,70,46,21,7,7,0.8,0.6
2023-09-15T23:00:00,1773A,126.5844,43.8358,吉林市,东局子,,40,40,28,16,12,130,40,104,62,36,25,6,7,0.6,0.6
2023-09-15T23:00:00,1774A,126.5052,43.8245,吉林市,电力学院,颗粒物(PM10),68,86,42,42,19,129,12,109,49,35,24,8,8,0.7,0.7
2023-09-15T23:00:00,1775A,126.6133,43.8972,吉林市,江北,颗粒物(PM10),59,67,38,37,16,134,42,110,64,38,18,7,8,0.7,0.7
2023-09-15T23:00:00,1776A,126.555,43.8306,吉林市,江南公园,,35,35,26,15,13,130,55,112,75,15,19,6,6,0.7,0.6
2023-09-15T23:00:00,1778A,126.7061,43.7133,吉林市,丰满,,,,,,,,,,,,,,,,
2023-09-15T23:00:00,1779A,123.9305,47.3636,齐齐哈尔市,安居小区,,15,10,22,9,14,86,45,60,50,5,10,5,5,0.2,0.3
2023-09-15T23:00:00,1780A,123.9488,47.3386,齐齐哈尔市,中心广场,,15,15,20,9,12,77,44,58,45,5,11,1,1,0.0,0.1
2023-09-15T23:00:00,1781A,123.9483,47.3227,齐齐哈尔市,农牧车辆厂,,15,14,24,6,7,88,45,62,48,6,11,6,6,0.3,0.3
2023-09-15T23:00:00,1783A,123.945,47.2988,齐齐哈尔市,市环境监测站,,15,15,17,6,10,81,46,59,48,6,11,4,4,0.2,0.2
2023-09-15T23:00:00,1784A,129.61,44.561,牡丹江市,环保大楼,,50,50,26,14,12,85,4,76,34,34,19,7,5,0.7,0.5
2023-09-15T23:00:00,1785A,129.6115,44.5782,牡丹江市,文化广场,细颗粒物(PM2.5),59,45,31,42,23,84,4,74,29,36,23,8,7,0.7,0.5
2023-09-15T23:00:00,1786A,129.5904,44.5963,牡丹江市,第一医院,,32,25,26,22,18,80,17,73,36,18,18,5,5,0.4,0.4
2023-09-15T23:00:00,1787A,129.6364,44.6075,牡丹江市,机车工厂,颗粒物(PM10),51,52,40,26,18,83,22,76,48,19,15,6,5,0.7,0.6
2023-09-15T23:00:00,1788A,129.6386,44.5462,牡丹江市,第一中学,,39,39,32,15,14,85,6,73,33,20,16,5,5,0.5,0.4
2023-09-15T23:00:00,1789A,124.81117,46.03138,大庆市,大同区,,24,24,44,16,24,150,50,137,87,9,12,6,7,0.4,0.6
2023-09-15T23:00:00,1790A,125.129,46.533,大庆市,龙凤区,,16,16,34,8,15,157,48,138,67,5,13,4,5,0.4,0.5
2023-09-15T23:00:00,1791A,124.902,46.408,大庆市,红岗区,,23,11,31,16,19,159,54,140,81,6,13,4,5,0.2,0.4
2023-09-15T23:00:00,1792A,125.153,46.586,大庆市,萨尔图区,,18,18,39,5,19,152,50,123,65,4,13,6,9,0.1,0.2
2023-09-15T23:00:00,1793A,124.9042,46.6215,大庆市,让胡路区,,16,14,36,9,12,155,50,124,66,5,14,7,8,0.3,0.5
2023-09-15T23:00:00,1794A,118.3606,31.3519,芜湖市,监测站,,29,18,24,20,18,67,49,64,49,21,28,5,7,0.7,0.8
2023-09-15T23:00:00,1795A,118.3714,31.4134,芜湖市,科创中心,,30,22,30,21,21,64,16,53,30,52,41,5,6,0.8,1
2023-09-15T23:00:00,1796A,118.3673,31.3131,芜湖市,四水厂,,23,17,22,16,16,73,57,71,58,18,24,4,4,0.6,0.7
2023-09-15T23:00:00,1798A,118.5092,31.6837,马鞍山市,湖东路四小,,30,19,24,21,21,85,29,65,40,28,25,6,11,0.6,0.6
2023-09-15T23:00:00,1799A,118.5024,31.6449,马鞍山市,开发区,,29,29,30,19,18,81,4,75,39,47,21,7,8,0.7,0.8
2023-09-15T23:00:00,1800A,118.5228,31.7231,马鞍山市,慈湖,,20,14,31,12,16,84,62,65,50,13,27,14,12,0.8,0.8
2023-09-15T23:00:00,1802A,118.6245,31.7241,马鞍山市,濮塘,,18,8,15,10,16,76,55,65,57,2,8,2,2,0.7,0.7
2023-09-15T23:00:00,1803A,115.9872,29.6815,九江市,十里,,27,27,23,18,14,79,22,72,56,31,15,8,8,0.8,0.7
2023-09-15T23:00:00,1804A,115.9584,29.7046,九江市,茅山头,,33,32,20,23,14,86,32,75,64,32,18,12,9,1.0,0.8
2023-09-15T23:00:00,1805A,115.9877,29.7295,九江市,西园,,35,28,22,24,14,97,40,88,76,34,17,11,9,0.7,0.6
2023-09-15T23:00:00,1806A,116.0172,29.6547,九江市,五七二七厂,,20,14,23,14,14,62,43,54,44,8,9,9,9,0.6,0.6
2023-09-15T23:00:00,1808A,115.9114,29.6038,九江市,综合工业园,,34,34,24,13,13,84,15,68,46,34,24,12,12,0.7,0.7
2023-09-15T23:00:00,1809A,116.0721,29.7535,九江市,石化总厂,,29,29,26,18,14,86,25,82,66,16,10,10,9,0.8,0.7
2023-09-15T23:00:00,1810A,115.9773,29.5698,九江市,庐山气象台,,26,7,6,7,6,84,81,80,79,2,2,8,9,0.5,0.7
2023-09-15T23:00:00,1812A,112.3931,34.6516,洛阳市,市委党校,,43,43,65,25,45,170,120,157,146,10,32,4,8,0.3,0.4
2023-09-15T23:00:00,1814A,112.4657,34.6871,洛阳市,豫西宾馆,颗粒物(PM10),54,58,58,34,36,167,67,156,130,35,27,3,3,0.8,0.6
2023-09-15T23:00:00,1815A,112.494,34.6886,洛阳市,河南林校,颗粒物(PM10),55,59,57,31,34,168,56,156,128,34,27,3,6,0.7,0.6
2023-09-15T23:00:00,1816A,112.3844,34.623,洛阳市,开发区管委会,,38,38,59,17,34,172,100,159,141,10,21,3,5,0.3,0.4
2023-09-15T23:00:00,1817A,112.4267,34.6258,洛阳市,市委新办公区,,44,44,57,23,39,164,97,153,139,11,13,2,4,0.4,0.5
2023-09-15T23:00:00,1818A,114.4839,36.0621,安阳市,棉研所,,,,,,,,,,,,,,,,
2023-09-15T23:00:00,1819A,114.3551,36.1017,安阳市,红庙街,颗粒物(PM10),63,75,62,36,28,186,82,170,136,27,18,8,9,0.6,0.6
2023-09-15T23:00:00,1820A,114.361,36.0681,安阳市,银杏小区,,,69,58,,25,189,66,172,144,35,21,10,8,0.6,0.5
2023-09-15T23:00:00,1824A,114.3389,34.7781,开封市,肿瘤医院,颗粒物(PM10),63,75,51,31,27,156,114,150,125,18,14,5,5,0.4,0.5
2023-09-15T23:00:00,1826A,114.2885,34.7965,开封市,世纪星幼儿园,,,64,46,,17,161,108,154,130,24,17,6,6,0.7,0.6
2023-09-15T23:00:00,1828A,113.227,35.2125,焦作市,市环保局,颗粒物(PM10),56,61,56,38,32,172,104,165,143,21,21,6,8,0.7,0.6
2023-09-15T23:00:00,1830A,113.1992,35.2590,焦作市,影视城,,,,,,,,,,,,,,,,
2023-09-15T23:00:00,1832A,113.3257,33.742,平顶山市,新华旅馆,颗粒物(PM10),67,84,56,39,32,152,56,144,114,52,33,5,5,0.7,0.7
2023-09-15T23:00:00,1833A,113.2919,33.737,平顶山市,规划设计院,,,54,54,38,27,150,,139,129,29,38,8,8,0.5,0.6
2023-09-15T23:00:00,1834A,113.182,33.774,平顶山市,平顶山工学院,颗粒物(PM10),52,54,39,22,19,165,110,147,135,22,19,6,5,0.6,0.6
2023-09-15T23:00:00,1835A,111.1922,34.7752,三门峡市,市政府,,45,45,44,22,23,138,83,125,110,26,17,7,8,0.6,0.6
2023-09-15T23:00:00,1836A,111.1587,34.7942,三门峡市,开发区,颗粒物(PM10),51,51,50,26,27,138,89,128,113,17,13,7,7,0.5,0.5
2023-09-15T23:00:00,1838A,111.143,34.7955,三门峡市,风景区,,,,,,,,,,,,,,,,
2023-09-15T23:00:00,1840A,111.2992,30.6981,宜昌市,白龙岗,,39,39,39,14,19,157,50,142,114,43,25,4,5,0.7,0.6
2023-09-15T23:00:00,1841A,111.3549,30.6465,宜昌市,伍家岗,,39,32,28,27,21,166,51,147,108,42,26,7,5,0.6,0.5
2023-09-15T23:00:00,1842A,111.2628,30.6961,宜昌市,点军区,,39,39,34,24,18,176,49,153,125,24,17,8,7,0.5,0.5
2023-09-15T23:00:00,1843A,111.3275,30.7819,宜昌市,夷陵区,,42,42,33,22,18,151,67,138,108,23,19,5,5,0.4,0.4
2023-09-15T23:00:00,1844A,112.2494,30.3197,荆州市,市图书馆,,36,31,28,25,14,143,71,132,113,25,18,6,5,0.7,0.6
2023-09-15T23:00:00,1845A,112.2008,30.3544,荆州市,市委党校,,37,37,34,22,18,150,62,136,108,48,21,5,6,0.5,0.5
2023-09-15T23:00:00,1847A,113.1094,29.3578,岳阳市,南湖风景区,,41,41,24,23,15,142,28,125,92,51,22,8,9,0.9,0.8
2023-09-15T23:00:00,1848A,113.1493,29.4251,岳阳市,城陵矶,,46,46,27,18,12,125,4,110,74,75,34,6,9,0.9,0.8
2023-09-15T23:00:00,1849A,113.1497,29.3575,岳阳市,开发区,,39,39,23,25,16,141,27,129,94,50,22,7,8,0.7,0.7
2023-09-15T23:00:00,1850A,113.2621,29.4758,岳阳市,云溪区,,36,36,21,18,11,126,24,114,80,20,16,7,7,0.8,0.7
2023-09-15T23:00:00,1851A,112.9943,29.4402,岳阳市,君山区,,33,32,21,23,17,121,25,118,83,55,18,8,8,0.6,0.6
2023-09-15T23:00:00,1852A,113.2117,29.355,岳阳市,金凤水库,,25,15,18,14,9,158,80,143,122,8,7,4,4,0.5,0.6
2023-09-15T23:00:00,1854A,111.6975,28.9703,常德市,市二中,,39,36,25,27,17,117,40,113,92,47,13,6,7,0.7,0.6
2023-09-15T23:00:00,1857A,111.7158,29.1456,常德市,白鹤山,,20,14,9,7,5,108,64,103,78,5,4,4,4,0.4,0.1
2023-09-15T23:00:00,1858A,110.5319,29.1217,张家界市,永定新区,,24,24,27,13,18,127,52,117,90,20,12,5,5,0.5,0.5
2023-09-15T23:00:00,1859A,110.4697,29.1242,张家界市,电业局,,19,16,28,13,20,132,55,115,88,20,11,4,4,0.5,0.5
2023-09-15T23:00:00,1860A,110.5594,29.3547,张家界市,未央路,,20,19,24,14,18,120,28,113,78,10,7,2,3,0.4,0.4
2023-09-15T23:00:00,1861A,110.4417,29.315,张家界市,袁家界,,17,6,17,7,11,117,52,109,78,4,6,8,8,0.6,0.5
2023-09-15T23:00:00,1862A,110.4144,25.3167,桂林市,电子科大尧山校区,,25,25,17,13,9,78,53,76,63,6,6,4,4,0.7,0.6
2023-09-15T23:00:00,1863A,110.2819,25.2697,桂林市,监测站,,20,16,18,14,11,92,54,88,71,15,10,10,8,0.7,0.7
2023-09-15T23:00:00,1864A,110.3089,25.2708,桂林市,龙隐路小学,,20,20,17,11,9,89,59,86,72,8,6,12,7,0.7,0.7
2023-09-15T23:00:00,1865A,110.2869,25.2178,桂林市,八中,,26,26,17,13,10,94,43,88,63,24,12,6,4,0.7,0.7
2023-09-15T23:00:00,1866A,109.2262,21.588,北海市,牛尾岭水库,,11,11,13,5,6,44,22,37,35,8,7,4,4,0.6,0.6
2023-09-15T23:00:00,1867A,109.1436,21.4086,北海市,海滩公园,,18,18,17,5,6,62,36,50,49,8,8,5,4,0.7,0.7
2023-09-15T23:00:00,1868A,109.0981,21.4661,北海市,新市环保局,,16,16,16,9,8,69,36,61,57,9,7,5,5,0.8,0.7
2023-09-15T23:00:00,1869A,109.1778,21.5233,北海市,北海工业园,,22,13,19,15,10,58,35,52,49,9,10,6,9,0.8,0.8
2023-09-15T23:00:00,1870A,109.4856,24.3895,柳州市,柳东小学,,19,16,18,9,15,86,58,72,62,5,5,52,16,0.4,0.5
2023-09-15T23:00:00,1871A,109.4157,24.3277,柳州市,环保监测站,,43,43,23,27,14,81,3,70,41,38,15,5,6,1.0,0.7
2023-09-15T23:00:00,1872A,109.389,24.341,柳州市,河西水厂,颗粒物(PM10),54,58,28,26,15,82,1,76,50,51,16,10,11,1.4,0.9
2023-09-15T23:00:00,1873A,109.4311,24.2921,柳州市,市四中,,43,43,27,18,11,96,6,78,46,40,16,8,9,1.2,1
2023-09-15T23:00:00,1874A,109.4006,24.3631,柳州市,市九中,颗粒物(PM10),55,60,31,21,15,71,7,66,41,41,18,8,7,0.9,0.7
2023-09-15T23:00:00,1875A,109.4958,24.3134,柳州市,古亭山,,19,19,22,12,10,96,7,80,47,22,9,6,8,0.8,0.8
2023-09-15T23:00:00,1876A,109.5078,18.2489,三亚市,河东子站,,13,13,15,9,8,75,37,72,52,6,9,3,3,0.4,0.5
2023-09-15T23:00:00,1877A,109.4964,18.2681,三亚市,河西子站,,18,18,17,8,7,76,30,58,48,14,11,2,2,0.3,0.4
2023-09-15T23:00:00,1878A,104.7778,31.4741,绵阳市,富乐山,,32,31,32,22,20,107,47,90,77,17,22,4,4,0.7,0.7
2023-09-15T23:00:00,1879A,104.7563,31.4535,绵阳市,市人大,,40,40,37,23,20,105,27,81,68,53,34,11,10,0.7,0.6
2023-09-15T23:00:00,1880A,104.6697,31.4668,绵阳市,高新区自来水公司,,38,32,30,26,19,123,24,95,77,58,26,8,8,0.6,0.5
2023-09-15T23:00:00,1881A,104.7287,31.5075,绵阳市,三水厂,颗粒物(PM10),55,59,52,28,25,102,6,79,51,68,38,8,8,0.9,0.8
2023-09-15T23:00:00,1882A,104.563,28.793,宜宾市,石马中学,,,,,,,,,,,,,,,,
2023-09-15T23:00:00,1883A,104.6201,28.7728,宜宾市,市委,细颗粒物(PM2.5),74,82,67,54,45,203,83,171,140,36,29,12,13,0.8,0.7
2023-09-15T23:00:00,1884A,104.6055,28.793,宜宾市,宜宾四中,细颗粒物(PM2.5),90,105,72,67,48,200,83,166,131,41,32,10,11,0.8,0.7
2023-09-15T23:00:00,1885A,104.639,28.7562,宜宾市,市政府,细颗粒物(PM2.5),69,70,63,50,43,194,94,167,141,31,29,11,11,0.7,0.7
2023-09-15T23:00:00,1886A,104.5742,28.7199,宜宾市,黄金嘴,细颗粒物(PM2.5),92,94,57,68,38,195,103,160,138,26,32,12,10,0.7,0.6
2023-09-15T23:00:00,1888A,101.6891,26.571,攀枝花市,弄弄坪,颗粒物(PM10),69,87,60,41,33,155,42,138,113,41,25,11,13,1.4,1.4
2023-09-15T23:00:00,1889A,101.5769,26.5928,攀枝花市,河门口,颗粒物(PM10),54,58,54,35,31,195,70,155,126,24,25,19,22,1.3,1.6
2023-09-15T23:00:00,1890A,101.7169,26.585,攀枝花市,炳草岗,"颗粒物(PM10),细颗粒物(PM2.5)",73,95,64,53,37,170,26,153,114,77,35,22,25,1.4,1.1
2023-09-15T23:00:00,1891A,101.7369,26.5008,攀枝花市,仁和,颗粒物(PM10),53,56,47,36,31,159,59,140,105,18,19,8,15,0.6,0.7
2023-09-15T23:00:00,1893A,105.4324,28.9634,泸州市,九狮山,,45,37,28,31,16,114,24,103,74,26,22,5,6,0.4,0.3
2023-09-15T23:00:00,1894A,105.4427,28.9063,泸州市,小市上码头,颗粒物(PM10),60,69,40,42,23,156,108,139,124,11,19,8,9,0.4,0.4
2023-09-15T23:00:00,1895A,105.4241,28.8573,泸州市,兰田宪桥,颗粒物(PM10),56,61,38,25,22,137,55,124,102,34,19,7,8,0.6,0.5
2023-09-15T23:00:00,1896A,105.4379,28.8833,泸州市,市环监站,颗粒物(PM10),59,68,37,29,17,126,74,114,100,26,25,6,11,0.5,0.4
2023-09-15T23:00:00,1901A,104.4239,31.1208,德阳市,东山公园,颗粒物(PM10),54,58,48,25,18,167,59,140,119,29,20,2,3,0.7,0.6
2023-09-15T23:00:00,1902A,104.3826,31.1317,德阳市,西小区,,50,50,53,31,25,169,52,128,111,34,25,1,8,0.7,0.7
2023-09-15T23:00:00,1904A,104.3553,31.1091,德阳市,耐火材料厂,颗粒物(PM10),58,66,61,32,26,173,30,135,107,43,24,1,9,0.8,0.7
2023-09-15T23:00:00,1905A,106.056,30.8064,南充市,西山风景区,,39,17,29,25,24,146,124,136,129,15,12,4,6,0.5,0.5
2023-09-15T23:00:00,1906A,106.0789,30.8023,南充市,南充市委,颗粒物(PM10),56,61,42,37,31,154,45,144,100,36,23,6,7,0.6,0.5
2023-09-15T23:00:00,1907A,106.1031,30.8217,南充市,南充炼油厂,"颗粒物(PM10),细颗粒物(PM2.5)",65,80,44,47,24,151,14,142,102,70,24,6,7,0.8,0.5
2023-09-15T23:00:00,1908A,106.1064,30.7856,南充市,高坪区监测站,颗粒物(PM10),62,74,44,39,26,138,14,132,90,68,28,6,7,0.7,0.4
2023-09-15T23:00:00,1909A,106.0642,30.7636,南充市,嘉陵区环保局,颗粒物(PM10),57,63,42,31,25,156,17,142,110,73,28,5,7,0.7,0.4
2023-09-15T23:00:00,1910A,106.1087,30.8388,南充市,市环境监测站,"颗粒物(PM10),细颗粒物(PM2.5)",62,74,43,44,29,143,46,131,101,38,24,7,8,0.6,0.5
2023-09-15T23:00:00,1911A,106.9222,27.6869,遵义市,丁字口,,45,41,26,31,21,120,25,110,73,47,23,5,5,0.7,0.6
2023-09-15T23:00:00,1912A,106.9242,27.7019,遵义市,凤凰山,,43,32,27,30,20,126,90,122,112,17,13,6,6,0.6,0.6
2023-09-15T23:00:00,1913A,106.8906,27.6486,遵义市,忠庄,颗粒物(PM10),72,93,41,39,17,119,44,114,88,35,17,2,2,0.7,0.5
2023-09-15T23:00:00,1914A,106.9231,27.6506,遵义市,舟水桥,颗粒物(PM10),59,68,32,18,17,107,9,102,63,28,13,5,2,0.6,0.5
2023-09-15T23:00:00,1915A,106.9178,27.72,遵义市,干田坝,,50,39,28,35,17,125,14,118,75,46,19,4,4,0.7,0.6
2023-09-15T23:00:00,1916A,103.7897,25.5035,曲靖市,环境监测站,颗粒物(PM10),53,55,42,35,23,145,77,131,117,22,17,13,8,0.7,0.5
2023-09-15T23:00:00,1917A,103.8,25.5364,曲靖市,烟厂办公区,,50,50,35,20,18,148,92,136,126,14,14,7,6,0.7,0.6
2023-09-15T23:00:00,1918A,108.7197,34.3956,咸阳市,气象站,,,,,,,,,,,,,,,,
2023-09-15T23:00:00,1919A,108.673,34.3155,咸阳市,实验中学,颗粒物(PM10),55,60,52,34,28,182,66,164,133,33,16,8,9,0.6,0.5
2023-09-15T23:00:00,1920A,108.7233,34.3617,咸阳市,师范学院,颗粒物(PM10),60,70,50,40,26,165,58,150,116,46,24,8,8,0.8,0.7
2023-09-15T23:00:00,1922A,109.0656,35.0994,铜川市,党校,颗粒物(PM10),58,66,41,29,25,137,59,130,99,36,22,7,7,0.8,0.7
2023-09-15T23:00:00,1923A,109.0697,35.0697,铜川市,王益区政府,颗粒物(PM10),52,53,42,26,22,137,38,132,103,37,17,6,6,0.8,0.7
2023-09-15T23:00:00,1924A,108.9344,34.9058,铜川市,新区管委会,颗粒物(PM10),57,63,45,29,24,147,70,134,114,27,17,7,7,0.5,0.5
2023-09-15T23:00:00,1926A,109.4131,36.6275,延安市,枣园,颗粒物(PM10),53,55,34,19,20,119,6,110,55,60,28,7,7,0.5,0.5
2023-09-15T23:00:00,1927A,109.4761,36.6028,延安市,延大医附院,,45,45,37,19,18,119,13,113,56,53,29,4,5,0.5,0.5
2023-09-15T23:00:00,1929A,109.5056,36.6106,延安市,百米大道,,45,45,43,21,20,117,23,106,65,55,33,7,8,0.9,0.7
2023-09-15T23:00:00,1930A,107.185,34.3063,宝鸡市,庙沟村,,41,41,32,23,20,134,78,120,101,37,20,8,8,0.5,0.5
2023-09-15T23:00:00,1931A,107.0708,34.3017,宝鸡市,竹园沟,,34,34,31,21,18,161,56,144,106,27,14,5,6,0.6,0.6
2023-09-15T23:00:00,1932A,107.1906,34.3672,宝鸡市,三陆医院,,49,49,51,29,29,169,70,156,137,37,26,8,10,0.6,0.6
2023-09-15T23:00:00,1933A,107.1431,34.3547,宝鸡市,监测站,,44,44,40,24,23,164,64,152,126,36,27,6,7,0.5,0.5
2023-09-15T23:00:00,1934A,107.1186,34.3739,宝鸡市,技工学校,颗粒物(PM10),55,60,49,38,31,164,89,152,134,26,20,8,8,0.6,0.5
2023-09-15T23:00:00,1935A,107.3906,34.3528,宝鸡市,陈仓区环保局家属楼,颗粒物(PM10),61,71,53,42,28,184,55,161,130,64,34,11,9,0.7,0.5
2023-09-15T23:00:00,1936A,107.2058,34.3497,宝鸡市,文理学院,颗粒物(PM10),61,72,45,24,20,169,66,156,132,41,23,7,8,0.7,0.6
2023-09-15T23:00:00,1937A,107.2386,34.3622,宝鸡市,三迪小学,颗粒物(PM10),52,54,47,22,26,166,60,154,131,41,25,5,7,0.6,0.5
2023-09-15T23:00:00,1938A,109.5293,34.5101,渭南市,农科所,细颗粒物(PM2.5),55,51,48,39,30,147,38,136,85,32,24,4,6,0.5,0.6
2023-09-15T23:00:00,1939A,109.4974,34.4877,渭南市,日报社,细颗粒物(PM2.5),64,56,46,46,32,150,29,139,84,38,31,5,6,0.5,0.5
2023-09-15T23:00:00,1940A,109.4636,34.493,渭南市,体育馆,颗粒物(PM10),54,58,48,34,26,155,12,145,79,71,35,3,5,0.7,0.6
2023-09-15T23:00:00,1941A,109.4259,34.5023,渭南市,高新一小,颗粒物(PM10),71,92,54,48,27,155,42,142,101,35,18,6,8,0.6,0.5
2023-09-15T23:00:00,1944A,102.1692,38.5167,金昌市,天庆家园,,32,22,42,3,11,117,102,112,111,10,20,9,12,0.4,0.4
2023-09-15T23:00:00,1945A,98.2908,39.7711,嘉峪关市,气象局,颗粒物(PM10),71,92,53,29,16,123,34,117,91,73,21,3,2,0.4,0.1
2023-09-15T23:00:00,1947A,106.3394,38.817,石嘴山市,沙湖旅游区,,,112,39,,16,140,7,124,76,70,20,17,16,1.3,0.8
2023-09-15T23:00:00,1948A,106.3668,39.0145,石嘴山市,大武口朝阳西街,颗粒物(PM10),73,96,69,38,38,184,55,155,110,83,36,22,36,1.1,1.2
2023-09-15T23:00:00,1949A,106.7704,39.2282,石嘴山市,惠农南大街,,36,36,50,14,19,157,80,132,103,21,24,6,15,0.4,0.7
2023-09-15T23:00:00,1950A,106.7099,39.1325,石嘴山市,红果子镇惠新街,,40,40,56,24,24,178,68,141,98,21,25,6,14,0.3,0.6
2023-09-15T23:00:00,1951A,84.895,45.6094,克拉玛依市,长征新村,,20,18,50,3,6,72,61,67,64,6,7,9,9,0.2,0.2
2023-09-15T23:00:00,1952A,84.8988,45.5893,克拉玛依市,南林小区,,,21,10,8,7,76,,73,72,11,9,5,5,0.1,0.3
2023-09-15T23:00:00,1954A,84.905,44.3396,克拉玛依市,独山子区,,20,20,12,10,11,83,25,79,63,32,8,4,4,0.6,0.5
2023-09-15T23:00:00,1955A,85.6979,46.098,克拉玛依市,乌尔禾区商贸楼,,22,22,24,3,5,85,57,81,75,9,4,6,7,0.4,0.3
2023-09-15T23:00:00,1956A,86.1472,41.7538,巴音郭楞州,孔雀公园,,,37,43,20,14,109,,104,99,8,17,7,9,0.2,0.3
2023-09-15T23:00:00,1957A,86.1972,41.7166,巴音郭楞州,棉纺厂,,29,29,43,13,18,109,88,104,95,10,17,5,7,0.3,0.4
2023-09-15T23:00:00,1958A,86.2357,41.7173,巴音郭楞州,经济开发区,,31,25,36,7,15,113,97,109,105,4,11,7,8,0.2,0.2
2023-09-15T23:00:00,1961A,117.532,36.6868,济南市,东山小学,颗粒物(PM10),63,76,52,34,21,241,121,220,168,43,30,8,8,0.7,0.7
2023-09-15T23:00:00,1966A,120.0405,35.8735,青岛市,黄岛区4号,,48,48,36,14,13,124,45,119,98,40,29,5,6,0.5,0.5
2023-09-15T23:00:00,1982A,122.0693,37.2174,威海市,文登开发区,,19,19,27,7,10,99,51,89,75,16,16,6,7,0.6,0.6
2023-09-15T23:00:00,2031A,113.1817,27.9958,株洲市,云田中学,,16,16,11,7,7,93,34,84,60,10,8,6,6,0.6,0.6
2023-09-15T23:00:00,2054A,114.1099,32.1059,信阳市,平桥分局,,36,36,25,13,11,121,27,115,84,29,17,2,3,0.7,0.7
2023-09-15T23:00:00,2064A,113.9956,32.1271,信阳市,南湾水厂,,33,33,37,12,12,126,64,119,95,11,11,3,3,0.6,0.6
2023-09-15T23:00:00,2065A,114.0775,32.1195,信阳市,市酿酒公司,颗粒物(PM10),53,56,30,23,15,123,34,119,86,38,22,2,2,0.8,0.7
2023-09-15T23:00:00,2066A,114.0609,32.1399,信阳市,审计局,颗粒物(PM10),53,56,35,26,13,127,29,124,92,49,21,4,4,0.9,0.7
2023-09-15T23:00:00,2067A,114.6613,33.6128,周口市,市环境监测站,颗粒物(PM10),60,70,55,30,27,174,82,164,121,49,30,9,10,0.5,0.5
2023-09-15T23:00:00,2068A,114.6758,33.6347,周口市,周口师范,,50,50,51,31,24,169,102,160,130,27,20,5,7,0.6,0.7
2023-09-15T23:00:00,2069A,114.6546,33.5979,周口市,市运管处,颗粒物(PM10),51,51,53,28,27,171,92,161,119,37,28,8,11,0.5,0.6
2023-09-15T23:00:00,2070A,114.6369,33.6406,周口市,川汇区环保局,,40,40,49,27,25,163,117,156,132,16,15,8,10,0.5,0.6
2023-09-15T23:00:00,2075A,117.6336,24.4674,漳州市,九湖,,,,,,,,,,,,,,,,
2023-09-15T23:00:00,2160A,112.85,35.5051,晋城市,自来水公司,颗粒物(PM10),61,71,57,39,28,170,63,160,139,52,28,8,10,1.1,1
2023-09-15T23:00:00,2161A,112.8318,35.4936,晋城市,白云商贸,颗粒物(PM10),75,100,60,31,23,159,37,152,126,60,28,8,9,1.1,1
2023-09-15T23:00:00,2162A,112.8508,35.4887,晋城市,市环保局,颗粒物(PM10),65,80,70,36,27,164,28,152,125,88,37,9,9,1.0,0.9
2023-09-15T23:00:00,2163A,112.8676,35.4897,晋城市,技术学院,颗粒物(PM10),59,67,56,39,25,162,74,151,126,66,38,8,9,1.0,1
2023-09-15T23:00:00,2165A,112.8453,35.546,晋城市,白马寺,,,,,,,,,,,,,,,,
2023-09-15T23:00:00,2166A,112.4397,39.3522,朔州市,平朔,,35,28,49,13,27,157,110,144,126,9,15,4,7,0.5,0.7
2023-09-15T23:00:00,2167A,112.4575,39.3617,朔州市,朔唯,,41,41,59,26,28,148,70,138,116,35,17,5,8,0.5,0.7
2023-09-15T23:00:00,2168A,112.4258,39.3197,朔州市,区政府,,35,32,50,10,28,146,110,136,122,7,13,3,7,0.5,0.7
2023-09-15T23:00:00,2169A,112.4072,39.3278,朔州市,市环保局,,38,30,54,5,26,159,119,148,133,6,14,4,8,0.5,0.8
2023-09-15T23:00:00,2170A,112.4272,39.3681,朔州市,市二中,,34,34,59,13,30,151,102,137,114,10,17,4,7,0.5,0.7
2023-09-15T23:00:00,2171A,112.7532,37.6945,晋中市,锦纶小区,颗粒物(PM10),57,63,53,31,21,198,64,184,140,46,27,8,10,0.5,0.6
2023-09-15T23:00:00,2173A,112.7249,37.7067,晋中市,南都小区,颗粒物(PM10),56,62,56,39,30,198,94,183,147,33,26,8,9,0.7,0.6
2023-09-15T23:00:00,2174A,112.6991,37.6982,晋中市,榆次区政府,颗粒物(PM10),57,64,50,30,23,194,100,179,144,30,26,8,9,0.9,0.8
2023-09-15T23:00:00,2175A,110.9956,35.0147,运城市,运城中学,,40,34,47,16,23,153,126,148,127,5,6,5,5,0.4,0.6
2023-09-15T23:00:00,2178A,110.9686,35.0303,运城市,地区技校,,40,40,44,19,25,139,119,135,121,6,9,5,5,0.6,0.7
2023-09-15T23:00:00,2179A,111.0414,35.1147,运城市,空港新区,细颗粒物(PM2.5),54,44,50,38,28,141,114,136,124,14,12,7,5,0.6,0.6
2023-09-15T23:00:00,2181A,112.7383,38.4519,忻州市,开发区,颗粒物(PM10),68,85,63,34,38,167,23,149,107,75,31,18,23,1.2,1.1
2023-09-15T23:00:00,2182A,112.7003,38.4928,忻州市,会展中心,细颗粒物(PM2.5),64,71,62,46,43,179,38,148,95,54,32,9,15,0.9,0.8
2023-09-15T23:00:00,2183A,111.1406,37.5211,吕梁市,环保局,,30,25,67,7,20,170,95,136,107,12,33,3,4,0.4,0.7
2023-09-15T23:00:00,2185A,111.1297,37.5136,吕梁市,自来水公司,,27,26,58,10,24,175,86,141,118,20,30,5,6,0.4,0.7
2023-09-15T23:00:00,2187A,106.8174,39.6973,乌海市,市林业局,颗粒物(PM10),62,74,50,24,22,143,78,124,89,39,26,40,28,0.7,0.8
2023-09-15T23:00:00,2188A,106.7907,39.6667,乌海市,中海勃湾学校,颗粒物(PM10),64,77,45,20,20,146,33,132,92,81,28,24,24,0.5,0.6
2023-09-15T23:00:00,2191A,122.2532,43.6801,通辽市,艺术职业学校,颗粒物(PM10),55,60,51,20,22,179,127,170,159,18,17,13,8,0.7,0.8
2023-09-15T23:00:00,2192A,119.7594,49.2261,呼伦贝尔市,区环保局,,41,41,36,21,15,66,27,58,39,16,16,7,4,0.4,0.3
2023-09-15T23:00:00,2195A,107.4212,40.761,巴彦淖尔市,附二中,颗粒物(PM10),56,62,51,18,17,144,90,135,110,15,21,3,7,0.4,0.5
2023-09-15T23:00:00,2196A,107.37,40.7372,巴彦淖尔市,市环保大楼,颗粒物(PM10),57,64,51,31,23,135,94,126,108,7,15,4,6,0.4,0.5
2023-09-15T23:00:00,2197A,113.1306,40.9923,乌兰察布市,集宁新区,,35,26,43,22,24,166,112,149,131,15,14,12,12,0.8,0.5
2023-09-15T23:00:00,2200A,122.0392,46.0656,兴安盟,胜华新制药厂,,25,15,28,17,15,107,55,88,63,6,12,2,2,0.3,0.4
2023-09-15T23:00:00,2201A,121.9504,46.0741,兴安盟,科右前旗环保局,,25,23,33,17,18,111,57,93,66,4,9,3,3,0.4,0.5
2023-09-15T23:00:00,2202A,116.1042,43.9317,锡林郭勒盟,市环保监测站,颗粒物(PM10),60,69,45,7,16,128,60,122,91,31,11,11,11,0.3,0.4
2023-09-15T23:00:00,2203A,116.0781,43.9311,锡林郭勒盟,市政府,颗粒物(PM10),61,71,36,10,16,135,64,128,100,40,13,11,11,0.3,0.4
2023-09-15T23:00:00,2204A,105.6467,38.8363,阿拉善盟,西城区西花园,,45,45,42,20,18,138,96,130,119,13,14,10,11,0.6,0.6
2023-09-15T23:00:00,2205A,105.6985,38.8411,阿拉善盟,蒙二幼,颗粒物(PM10),52,54,51,19,18,138,95,130,121,7,11,9,9,0.4,0.5
2023-09-15T23:00:00,2206A,105.724,38.8516,阿拉善盟,环保局新楼,,49,49,37,18,18,137,106,129,123,5,8,6,7,0.4,0.5
2023-09-15T23:00:00,2207A,121.6094,41.998,阜新市,工业园区,,37,33,57,15,22,174,118,162,138,11,19,17,22,0.6,0.8
2023-09-15T23:00:00,2208A,121.6697,42.0279,阜新市,长青街,,38,36,54,18,24,169,119,157,134,13,16,19,20,0.5,0.8
2023-09-15T23:00:00,2209A,121.6673,42.0705,阜新市,农业园区,,39,25,43,16,21,176,122,165,141,12,15,13,17,0.6,0.9
2023-09-15T23:00:00,2210A,121.6717,42.0224,阜新市,东苑,,38,36,48,17,20,173,119,160,139,11,13,24,27,0.7,0.9
2023-09-15T23:00:00,2211A,121.6506,42.0498,阜新市,玉龙新城,,,,55,7,16,157,,147,133,14,24,11,13,0.5,0.7
2023-09-15T23:00:00,2212A,123.2,41.1953,辽阳市,宏伟区,,25,11,27,12,15,124,79,117,94,4,9,7,8,0.4,0.6
2023-09-15T23:00:00,2213A,123.1683,41.2495,辽阳市,新华园,,21,21,44,11,19,115,63,108,82,6,15,8,15,0.4,0.6
2023-09-15T23:00:00,2214A,123.2354,41.2639,辽阳市,滨河路,,22,22,37,9,18,119,56,104,75,13,13,9,9,0.6,0.7
2023-09-15T23:00:00,2215A,123.149,41.2991,辽阳市,铁西工业园,,34,34,46,15,20,140,69,130,94,8,19,8,12,0.5,0.8
2023-09-15T23:00:00,2216A,123.8139,42.3022,铁岭市,汇工街西,颗粒物(PM10),53,55,45,22,19,164,72,146,108,43,22,10,11,0.5,0.5
2023-09-15T23:00:00,2217A,123.8649,42.2923,铁岭市,水上乐园,,48,48,36,24,14,162,61,149,106,33,20,2,5,0.6,0.6
2023-09-15T23:00:00,2218A,123.8486,42.2867,铁岭市,银州路东段,颗粒物(PM10),51,52,43,22,16,148,59,135,91,55,27,5,6,0.9,0.8
2023-09-15T23:00:00,2219A,123.7153,42.2217,铁岭市,金沙江路北,颗粒物(PM10),60,69,45,36,19,170,44,149,90,65,31,9,8,0.8,0.8
2023-09-15T23:00:00,2220A,120.4318,41.5881,朝阳市,西梁,,41,32,42,17,24,152,130,146,138,11,14,11,10,0.7,0.8
2023-09-15T23:00:00,2221A,120.4521,41.5646,朝阳市,河畔小区,,45,26,40,18,19,154,141,149,146,10,12,11,10,0.8,0.8
2023-09-15T23:00:00,2222A,120.4176,41.5648,朝阳市,八里堡,,35,34,44,18,23,145,112,138,126,16,18,9,10,0.8,0.9
2023-09-15T23:00:00,2223A,120.3806,41.5969,朝阳市,农业园区,,31,31,39,20,25,147,78,142,112,18,21,7,8,0.8,0.9
2023-09-15T23:00:00,2225A,124.4002,43.1713,四平市,一商场,颗粒物(PM10),52,54,44,23,17,161,107,140,120,28,22,7,7,0.5,0.4
2023-09-15T23:00:00,2226A,124.388,43.193,四平市,境园,颗粒物(PM10),53,56,42,28,18,169,22,151,103,48,22,4,6,0.5,0.5
2023-09-15T23:00:00,2227A,125.1358,42.8845,辽源市,环保局,,34,34,24,22,13,107,9,104,52,30,22,5,6,0.8,0.7
2023-09-15T23:00:00,2229A,125.9358,41.7173,通化市,光明,,31,31,31,15,12,89,7,82,39,23,18,8,8,0.3,0.5
2023-09-15T23:00:00,2230A,125.9446,41.7325,通化市,铁路,,25,25,32,13,14,90,4,75,40,29,24,5,10,0.5,0.9
2023-09-15T23:00:00,2231A,126.4219,41.9171,白山市,喜丰,颗粒物(PM10),54,58,63,16,15,83,6,70,39,28,24,8,8,0.6,0.6
2023-09-15T23:00:00,2232A,126.4077,41.9419,白山市,环保局,,40,40,32,15,10,93,6,86,36,37,19,6,9,0.5,0.3
2023-09-15T23:00:00,2233A,124.8006,45.1214,松原市,江南,,49,49,50,34,22,179,101,172,140,16,18,8,12,0.7,0.6
2023-09-15T23:00:00,2234A,124.7965,45.1722,松原市,江北,颗粒物(PM10),51,52,41,32,22,174,84,163,126,18,12,4,7,0.7,0.6
2023-09-15T23:00:00,2235A,122.7911,45.6077,白城市,洮北区环保局,,18,12,38,7,18,130,57,124,78,6,13,5,5,0.1,0.3
2023-09-15T23:00:00,2236A,122.8738,45.5725,白城市,市环保局,,22,22,37,6,18,130,60,124,82,8,12,6,8,0.2,0.5
2023-09-15T23:00:00,2237A,129.47,42.8883,延边朝鲜族自治州,妇幼医院,,26,26,26,14,13,66,22,60,50,13,12,9,8,0.5,0.5
2023-09-15T23:00:00,2238A,129.5055,42.9108,延边朝鲜族自治州,延边医院,,18,17,25,12,12,67,51,66,61,11,16,6,6,0.6,0.6
2023-09-15T23:00:00,2239A,129.3964,42.8881,延边朝鲜族自治州,朝阳川镇医院,,23,13,17,16,11,78,25,68,54,12,9,7,6,0.5,0.5
2023-09-15T23:00:00,2240A,130.9762,45.3001,鸡西市,环保局,颗粒物(PM10),65,79,44,32,16,60,11,54,21,38,26,6,5,0.8,0.6
2023-09-15T23:00:00,2243A,130.9429,45.3039,鸡西市,第一中学,,41,41,31,17,11,83,40,77,58,14,11,6,6,0.5,0.4
2023-09-15T23:00:00,2244A,130.2537,47.3416,鹤岗市,哈啤分公司,,18,12,25,12,12,95,46,76,60,1,11,8,11,0.2,0.3
2023-09-15T23:00:00,2245A,130.2684,47.3086,鹤岗市,斯达机电,,29,29,33,12,13,96,50,78,62,3,13,6,9,0.3,0.4
2023-09-15T23:00:00,2246A,130.3114,47.3388,鹤岗市,东山纸板厂,颗粒物(PM10),51,51,61,14,15,91,46,74,58,3,17,8,11,0.2,0.6
2023-09-15T23:00:00,2247A,130.1097,47.3382,鹤岗市,五号水库,,16,14,15,11,9,102,51,82,64,3,7,10,10,0.3,0.3
2023-09-15T23:00:00,2248A,131.1511,46.6937,双鸭山市,双合村,,18,18,36,10,16,100,31,92,55,6,8,8,11,0.2,0.4
2023-09-15T23:00:00,2249A,131.1652,46.6191,双鸭山市,南小市,,14,9,24,6,8,100,44,90,59,8,7,6,5,0.1,0
2023-09-15T23:00:00,2250A,131.1524,46.6554,双鸭山市,环保局,,25,25,25,12,10,87,42,82,57,9,12,8,8,0.1,0.2
2023-09-15T23:00:00,2251A,131.12,46.5656,双鸭山市,苗圃,,48,36,13,33,9,134,53,118,72,7,4,3,4,0.2,0.3
2023-09-15T23:00:00,2252A,128.5159,47.4311,伊春市,环保局,,17,17,19,8,10,92,40,52,39,3,11,4,6,0.3,0.4
2023-09-15T23:00:00,2253A,128.9102,47.7412,伊春市,电力嘉园,,15,10,18,7,8,74,48,62,48,4,9,5,7,0.5,0.7
2023-09-15T23:00:00,2254A,129.5029,48.471,伊春市,汤旺河国家公园,,19,19,16,11,12,51,14,45,32,2,3,12,13,0.2,0.2
2023-09-15T23:00:00,2255A,130.2751,46.8028,佳木斯市,佳纺,,21,21,21,10,10,102,51,88,67,3,7,2,4,0.4,0.5
2023-09-15T23:00:00,2256A,130.3995,46.8307,佳木斯市,发电厂,,26,26,25,9,10,98,48,91,66,3,10,1,2,0.4,0.4
2023-09-15T23:00:00,2257A,130.3258,46.7975,佳木斯市,环保局,,26,26,22,11,7,100,43,89,59,10,11,3,4,0.5,0.3
2023-09-15T23:00:00,2258A,130.3648,46.8032,佳木斯市,十一中,,23,23,23,12,9,91,46,83,62,7,14,4,3,0.4,0.4
2023-09-15T23:00:00,2259A,130.3794,46.7588,佳木斯市,四丰,,,20,12,9,5,,,,,14,6,1,1,0.2,0.1
2023-09-15T23:00:00,2262A,131.0518,45.8751,七台河市,新一中,,27,27,23,12,10,104,46,95,58,13,9,7,8,1.1,1.1
2023-09-15T23:00:00,2263A,127.4833,50.2524,黑河市,交通局,,16,16,18,10,11,57,8,50,24,20,17,2,4,0.4,0.4
2023-09-15T23:00:00,2264A,127.5144,50.2341,黑河市,环保局,,25,19,23,17,10,54,19,48,28,16,15,2,6,0.4,0.4
2023-09-15T23:00:00,2265A,127.5291,50.2472,黑河市,大黑河岛,,,19,15,25,14,,,,,2,2,1,2,0.3,0.4
2023-09-15T23:00:00,2266A,126.9785,46.6365,绥化市,人和东街,,16,8,34,4,13,156,50,132,82,7,16,4,8,0.3,0.4
2023-09-15T23:00:00,2267A,126.964,46.6528,绥化市,党政办公中心,,16,7,29,3,14,143,49,122,76,5,15,6,8,0.3,0.4
2023-09-15T23:00:00,2269A,124.1069,50.4097,大兴安岭地区,科技局,,26,24,18,18,11,63,22,60,36,8,6,4,4,0.3,0.3
2023-09-15T23:00:00,2270A,117.396,32.939,蚌埠市,工人疗养院,,46,46,38,18,12,110,48,103,79,36,15,5,4,0.5,0.4
2023-09-15T23:00:00,2271A,117.3605,32.9427,蚌埠市,百货大楼,,50,50,42,15,14,112,34,108,80,44,16,5,4,0.4,0.3
2023-09-15T23:00:00,2273A,117.4185,32.8911,蚌埠市,蚌埠学院,,36,36,38,16,19,101,61,94,75,13,23,3,6,0.3,0.3
2023-09-15T23:00:00,2274A,117.3533,32.9673,蚌埠市,淮上区政府,,39,39,35,20,18,110,77,104,90,14,16,5,5,0.3,0.3
2023-09-15T23:00:00,2275A,117.3145,32.8977,蚌埠市,高新区,,29,29,35,13,17,118,78,110,86,12,26,4,7,0.4,0.5
2023-09-15T23:00:00,2277A,116.8305,32.7727,淮南市,潘集区政府,,43,43,40,26,21,121,51,105,82,23,19,6,8,0.3,0.3
2023-09-15T23:00:00,2278A,117.0067,32.6524,淮南市,师范学院,,36,36,45,10,20,107,72,96,86,13,18,8,8,0.3,0.4
2023-09-15T23:00:00,2279A,116.8569,32.5951,淮南市,谢家集区政府,,29,29,31,1,8,114,51,101,81,34,18,8,8,0.2,0.2
2023-09-15T23:00:00,2280A,116.8281,32.633,淮南市,八公山区政府,,37,37,44,21,23,116,64,101,77,15,16,11,10,0.3,0.4
2023-09-15T23:00:00,2281A,116.6325,32.6201,淮南市,焦岗湖风景区管理处,,27,27,33,7,15,122,48,107,77,13,19,1,1,0.3,0.3
2023-09-15T23:00:00,2282A,116.8004,33.975,淮北市,监测站,,42,42,32,16,18,166,87,155,117,20,17,6,6,0.5,0.5
2023-09-15T23:00:00,2283A,116.8091,33.9007,淮北市,烈山区政府,颗粒物(PM10),55,59,43,25,21,171,73,156,112,27,16,8,7,0.3,0.4
2023-09-15T23:00:00,2285A,117.8177,30.9412,铜陵市,市第四中学,,46,46,35,25,20,77,17,62,45,29,15,2,3,0.8,0.6
2023-09-15T23:00:00,2286A,117.8059,30.9273,铜陵市,市公路局,,42,39,39,29,21,83,19,66,49,30,18,6,6,0.9,0.7
2023-09-15T23:00:00,2287A,117.7807,30.9413,铜陵市,市新民污水厂,颗粒物(PM10),55,59,46,24,17,74,19,68,46,24,22,5,7,0.8,0.6
2023-09-15T23:00:00,2288A,117.7439,30.8792,铜陵市,市第九中学,颗粒物(PM10),52,53,48,26,21,71,27,67,50,28,21,2,4,0.9,0.7
2023-09-15T23:00:00,2289A,117.846,30.9413,铜陵市,车站新区,颗粒物(PM10),51,52,40,28,27,85,1,65,42,42,21,4,4,0.9,0.7
2023-09-15T23:00:00,2290A,117.8483,30.97,铜陵市,市职教基地,,32,32,30,18,14,76,21,63,51,18,12,4,4,1.0,0.8
2023-09-15T23:00:00,2291A,117.0809,30.5177,安庆市,环科院,,40,31,23,28,21,93,54,85,71,17,12,6,6,0.8,0.7
2023-09-15T23:00:00,2292A,117.0331,30.5119,安庆市,马山宾馆,,40,39,21,28,16,102,58,93,83,16,11,5,4,0.8,0.7
2023-09-15T23:00:00,2294A,116.9896,30.6145,安庆市,安庆大学,,31,31,22,20,17,97,49,87,70,11,9,4,4,0.6,0.5
2023-09-15T23:00:00,2295A,118.2903,29.6963,黄山市,延安路89号,,28,28,21,3,5,79,11,69,37,8,7,4,4,0.5,0.4
2023-09-15T23:00:00,2296A,118.327,29.7178,黄山市,黄山东路89号,,,17,9,8,6,72,,64,48,11,7,4,4,,0.5
2023-09-15T23:00:00,2297A,118.1371,30.2756,黄山市,黄山区政府5号楼,,17,17,22,2,5,66,22,60,38,8,8,6,6,0.5,0.6
2023-09-15T23:00:00,2298A,118.3093,32.3153,滁州市,老年大学,,24,24,24,12,8,96,52,87,69,20,16,6,8,0.3,0.2
2023-09-15T23:00:00,2299A,118.3244,32.2786,滁州市,人大宾馆,,22,15,23,9,8,100,68,95,75,14,17,6,8,0.3,0.3
2023-09-15T23:00:00,2301A,115.8277,32.8929,阜阳市,市监测站,,29,28,37,20,22,154,73,146,107,13,18,6,9,0.4,0.5
2023-09-15T23:00:00,2303A,115.8554,32.8605,阜阳市,开发区,,28,17,44,11,28,155,87,147,112,14,22,7,9,0.4,0.5
2023-09-15T23:00:00,2307A,116.5079,31.737,六安市,监测大楼,,37,37,23,6,6,94,69,90,80,13,12,3,4,0.6,0.6
2023-09-15T23:00:00,2308A,116.4738,31.7643,六安市,皖西学院,,37,37,29,3,8,103,72,94,82,15,15,6,9,0.5,0.4
2023-09-15T23:00:00,2309A,116.4996,31.7905,六安市,朝阳厂,,24,24,24,14,9,104,61,94,78,14,13,6,7,0.5,0.5
2023-09-15T23:00:00,2310A,116.5567,31.7886,六安市,开发区,,38,38,29,6,12,95,47,87,70,21,11,6,5,0.4,0.4
2023-09-15T23:00:00,2311A,115.8072,33.8399,亳州市,污水处理厂,,41,41,45,28,25,184,92,172,134,20,16,13,15,0.4,0.5
2023-09-15T23:00:00,2312A,115.7789,33.8518,亳州市,三国揽胜宫,,34,30,40,18,25,182,108,170,146,17,17,7,10,0.4,0.5
2023-09-15T23:00:00,2314A,117.47,30.6618,池州市,池州学院,,20,8,27,5,19,76,62,60,58,8,14,4,4,0.6,0.7
2023-09-15T23:00:00,2316A,118.7581,30.9454,宣城市,鳌峰子站,,28,20,17,19,12,81,49,72,62,23,16,4,4,0.8,0.7
2023-09-15T23:00:00,2317A,118.7385,30.9743,宣城市,敬亭山子站,,18,16,20,12,13,65,37,58,48,20,23,5,5,0.7,0.7
2023-09-15T23:00:00,2318A,118.7173,30.9427,宣城市,开发区子站,,25,18,18,17,14,70,38,66,57,24,18,5,6,0.7,0.6
2023-09-15T23:00:00,2319A,119.0141,25.4325,莆田市,荔城区仓后路,,39,39,33,26,20,123,69,117,86,13,10,7,7,0.6,0.6
2023-09-15T23:00:00,2320A,119.0015,25.4553,莆田市,莆田市监测站,,26,26,32,18,17,125,52,117,80,10,8,8,8,0.5,0.5
2023-09-15T23:00:00,2321A,119.1119,25.4561,莆田市,涵江区六中,,45,45,29,24,17,119,69,100,80,18,9,10,8,0.7,0.6
2023-09-15T23:00:00,2322A,119.1013,25.3215,莆田市,秀屿区政府,,27,24,28,13,14,107,85,102,88,7,8,7,7,0.7,0.6
2023-09-15T23:00:00,2323A,118.981,25.4792,莆田市,东圳水库,,,,,,,,,,,,,,,,
2023-09-15T23:00:00,2324A,117.6211,26.2625,三明市,三钢,,13,7,17,9,11,65,32,49,38,12,14,11,9,0.3,0.5
2023-09-15T23:00:00,2325A,117.635,26.2714,三明市,三明二中,,12,8,13,6,9,66,37,51,41,14,16,6,6,0.6,0.8
2023-09-15T23:00:00,2326A,117.6028,26.2378,三明市,三元区政府,,13,13,17,7,8,66,38,49,42,10,12,8,10,0.6,0.6
2023-09-15T23:00:00,2327A,117.7275,26.3108,三明市,洋溪,,,,,,,,,,,,,,,,
2023-09-15T23:00:00,2331A,118.0966,26.6761,南平市,茫荡山,,,,,,,,,,,,,,,,
2023-09-15T23:00:00,2332A,118.1681,26.6369,南平市,南平市监测站,,17,17,15,8,10,85,30,71,36,11,8,5,5,0.7,0.6
2023-09-15T23:00:00,2333A,118.1825,26.6489,南平市,南平铝业有限公司,,15,13,20,10,10,86,27,70,40,10,10,4,5,0.6,0.6
2023-09-15T23:00:00,2334A,118.1756,26.6272,南平市,南平七中,,16,16,20,6,8,80,29,72,40,6,5,4,4,0.6,0.5
2023-09-15T23:00:00,2335A,117.0189,25.1181,龙岩市,龙岩师专,,,,,,,,,,,,,,,,
2023-09-15T23:00:00,2336A,117.0217,25.1033,龙岩市,龙岩市监测站,,28,24,21,19,10,80,19,72,49,18,15,5,4,0.6,0.5
2023-09-15T23:00:00,2337A,117.0258,25.0661,龙岩市,闽西职业技术学院,,23,23,24,16,13,79,19,69,48,18,14,8,7,0.4,0.4
2023-09-15T23:00:00,2338A,117.0196,25.0306,龙岩市,龙岩学院,,22,20,22,15,10,77,30,66,49,4,7,5,6,0.3,0.4
2023-09-15T23:00:00,2339A,119.5001,26.6946,宁德市,金涵水库,,,,,,,,,,,,,,,,
2023-09-15T23:00:00,2341A,119.5388,26.6612,宁德市,宁德市监测站,,18,18,28,8,19,126,43,107,66,12,13,4,6,0.5,0.6
2023-09-15T23:00:00,2342A,117.3102,29.3867,景德镇市,王港中学,,25,9,8,17,6,59,18,46,29,3,3,4,4,0.3,0.3
2023-09-15T23:00:00,2343A,117.2117,29.2933,景德镇市,老干部活动中心,,14,14,16,7,14,47,20,37,31,10,10,4,4,0.3,0.3
2023-09-15T23:00:00,2344A,117.1894,29.2789,景德镇市,兽医站,,27,27,14,2,12,57,18,46,35,10,10,7,6,0.6,0.6
2023-09-15T23:00:00,2345A,117.1547,29.2617,景德镇市,台达陶瓷,,10,10,13,4,8,52,24,45,38,14,16,11,15,0.4,0.4
2023-09-15T23:00:00,2346A,117.2461,29.2956,景德镇市,陶研所,,30,30,24,4,4,117,11,48,31,12,7,5,4,0.4,0.3
2023-09-15T23:00:00,2347A,114.0997,27.5002,萍乡市,武功山,,8,3,3,5,3,63,13,54,36,3,3,8,10,0.4,0.4
2023-09-15T23:00:00,2348A,113.8385,27.6434,萍乡市,中医院,,35,24,24,24,21,79,25,66,48,18,10,10,14,0.8,0.7
2023-09-15T23:00:00,2349A,113.8493,27.6253,萍乡市,市政府车库,,26,26,26,16,19,81,16,66,49,20,11,8,17,0.6,0.5
2023-09-15T23:00:00,2350A,113.8676,27.6435,萍乡市,市环保局,,30,30,24,16,17,83,30,70,52,16,8,9,16,0.6,0.6
2023-09-15T23:00:00,2351A,113.866,27.6198,萍乡市,安源区政府,,34,34,26,20,16,74,15,60,45,18,13,8,11,0.8,0.7
2023-09-15T23:00:00,2352A,115.0861,27.9317,新余市,北岗,,16,16,21,10,14,71,10,59,42,7,6,6,13,0.6,0.7
2023-09-15T23:00:00,2353A,114.9886,27.8431,新余市,飞宇,,,36,35,18,18,86,,69,68,8,11,5,12,0.7,0.5
2023-09-15T23:00:00,2354A,114.9231,27.8246,新余市,第二水厂,,28,28,32,10,17,88,44,76,67,14,15,5,7,0.4,0.5
2023-09-15T23:00:00,2355A,114.9308,27.8036,新余市,市气象局,,18,18,30,9,20,81,51,71,66,8,12,6,10,0.8,0.9
2023-09-15T23:00:00,2357A,116.9822,28.1136,鹰潭市,龙虎山,,22,20,18,15,12,84,8,68,38,18,9,5,8,0.3,0.4
2023-09-15T23:00:00,2358A,117.0564,28.2642,鹰潭市,新监测站,细颗粒物(PM2.5),75,64,17,55,10,83,35,69,53,6,4,1,4,0.5,0.4
2023-09-15T23:00:00,2359A,117.0311,28.2475,鹰潭市,财苑宾馆,,29,29,19,8,6,85,31,68,52,12,5,4,5,0.6,0.5
2023-09-15T23:00:00,2360A,117.0222,28.2264,鹰潭市,体育馆,,28,26,21,19,10,86,20,67,45,16,9,3,9,0.6,0.6
2023-09-15T23:00:00,2361A,117.0017,28.2131,鹰潭市,三川水表,,29,29,22,11,10,87,8,65,34,27,16,4,6,0.6,0.6
2023-09-15T23:00:00,2362A,114.9017,25.9149,赣州市,通天岩,,,,,,,,,,,,,,,,
2023-09-15T23:00:00,2363A,114.9367,25.8664,赣州市,地委,,18,18,14,12,8,77,26,67,52,12,7,17,15,0.9,1
2023-09-15T23:00:00,2364A,114.9461,25.8481,赣州市,气象台,,14,14,11,6,9,89,18,74,55,21,12,5,4,0.6,0.8
2023-09-15T23:00:00,2365A,114.9322,25.8333,赣州市,市图书馆,,15,15,24,7,10,75,21,67,49,17,10,5,13,0.7,0.8
2023-09-15T23:00:00,2366A,114.8905,25.8471,赣州市,华坚鞋城,,18,16,18,12,10,80,30,68,56,13,8,5,5,0.8,0.9
2023-09-15T23:00:00,2367A,114.9754,27.0803,吉安市,红声器材厂,,22,22,25,14,11,78,42,69,60,12,11,6,10,0.8,0.7
2023-09-15T23:00:00,2368A,114.9658,27.0999,吉安市,市森林工业局,,25,25,21,17,14,73,38,66,55,16,9,20,17,0.7,0.7
2023-09-15T23:00:00,2369A,114.99,27.1312,吉安市,市环境监测站,,25,25,21,12,10,70,54,63,58,6,10,48,14,0.6,0.7
2023-09-15T23:00:00,2370A,115.0093,27.0968,吉安市,青原区法院,,23,23,20,14,12,75,35,66,52,12,12,14,17,0.4,0.8
2023-09-15T23:00:00,2371A,114.3408,27.8064,宜春市,槟榔水业,,36,36,34,17,13,82,18,49,31,27,18,3,2,0.6,0.8
2023-09-15T23:00:00,2373A,114.3956,27.7844,宜春市,市石油公司,,38,38,32,21,16,80,28,64,50,15,11,4,6,0.8,0.8
2023-09-15T23:00:00,2374A,114.3703,27.7914,宜春市,市气象局,,40,40,32,19,19,83,37,70,59,22,13,7,6,0.8,0.8
2023-09-15T23:00:00,2375A,114.4013,27.8074,宜春市,市广电局,,39,39,28,20,18,81,47,70,63,17,11,14,9,0.9,0.9
2023-09-15T23:00:00,2376A,116.2127,28.0814,抚州市,桐源党溪,,22,22,19,8,6,52,2,47,24,13,4,1,2,0.7,0.8
2023-09-15T23:00:00,2377A,116.3544,27.9831,抚州市,市站,,20,20,21,12,11,63,42,58,51,16,7,1,2,0.7,0.7
2023-09-15T23:00:00,2378A,116.3565,27.963,抚州市,血防站,,26,26,22,15,9,60,28,51,41,23,5,2,2,0.8,0.8
2023-09-15T23:00:00,2379A,116.3564,28.0007,抚州市,采茶剧团,,19,19,18,9,9,54,48,48,44,7,5,3,3,0.8,0.8
2023-09-15T23:00:00,2380A,116.385,27.9647,抚州市,医学分院,,,,,,,,,,,,,,,,
2023-09-15T23:00:00,2381A,118.005,28.4572,上饶市,百草园,,21,21,21,8,13,35,35,28,28,3,4,2,2,0.9,0.9
2023-09-15T23:00:00,2382A,117.9756,28.4436,上饶市,市监测站,,17,15,14,6,6,84,52,74,68,2,6,4,7,0.5,0.5
2023-09-15T23:00:00,2383A,117.9519,28.4628,上饶市,凤凰光学,,16,16,17,10,10,89,47,82,64,3,5,1,3,0.5,0.5
2023-09-15T23:00:00,2385A,114.17,35.9019,鹤壁市,市监测站,颗粒物(PM10),69,87,52,37,33,186,47,130,74,41,23,5,8,0.7,0.5
2023-09-15T23:00:00,2386A,114.2956,35.7511,鹤壁市,市交警支队,颗粒物(PM10),58,65,57,36,29,167,70,155,121,42,38,8,6,0.7,0.6
2023-09-15T23:00:00,2387A,114.2878,35.7306,鹤壁市,迎宾馆,颗粒物(PM10),61,71,50,39,32,168,68,159,126,47,32,10,8,0.8,0.8
2023-09-15T23:00:00,2389A,113.836,35.311,新乡市,环保西院,颗粒物(PM10),55,59,67,34,26,183,75,170,139,37,41,10,9,0.6,0.8
2023-09-15T23:00:00,2390A,113.884,35.272,新乡市,开发区,,44,44,44,29,27,178,83,167,139,31,29,6,6,0.8,0.8
2023-09-15T23:00:00,2391A,113.883,35.303,新乡市,环保东院,颗粒物(PM10),52,54,60,30,27,174,87,164,137,32,34,7,7,0.8,0.7
2023-09-15T23:00:00,2392A,115.0312,35.7636,濮阳市,环保局,颗粒物(PM10),55,60,55,32,35,157,105,148,134,26,20,7,11,0.6,0.6
2023-09-15T23:00:00,2394A,115.0574,35.7609,濮阳市,油田运输公司,颗粒物(PM10),59,68,72,36,41,162,115,153,138,18,18,8,11,0.5,0.5
2023-09-15T23:00:00,2395A,115.0866,35.7754,濮阳市,油田物探公司,细颗粒物(PM2.5),62,71,67,44,42,172,114,162,145,23,19,8,10,0.5,0.5
2023-09-15T23:00:00,2396A,113.8276,34.0159,许昌市,监测站,颗粒物(PM10),53,55,49,23,24,164,94,144,118,27,24,7,6,0.7,0.5
2023-09-15T23:00:00,2398A,113.7906,33.9953,许昌市,开发区,颗粒物(PM10),56,61,45,31,30,160,82,141,105,18,27,4,4,0.6,0.6
2023-09-15T23:00:00,2399A,114.051,33.5699,漯河市,三五一五工厂,颗粒物(PM10),57,63,43,26,22,148,71,145,116,41,21,8,8,0.6,0.5
2023-09-15T23:00:00,2400A,114.0055,33.5698,漯河市,漯河大学,,42,42,34,25,20,149,105,146,134,23,16,10,8,0.6,0.5
2023-09-15T23:00:00,2401A,114.0138,33.5828,漯河市,市水利局,,,44,38,30,26,146,100,144,126,19,11,8,8,,0.5
2023-09-15T23:00:00,2402A,114.0261,33.5698,漯河市,市广电局,,,54,39,31,22,150,,148,141,29,18,3,5,0.6,0.7
2023-09-15T23:00:00,2404A,112.5224,33.0122,南阳市,瓦房庄,,40,40,44,15,21,153,83,144,117,18,20,4,4,0.4,0.4
2023-09-15T23:00:00,2405A,112.5003,32.9735,南阳市,汉画馆,,35,35,37,18,21,152,84,144,115,18,19,6,6,0.5,0.5
2023-09-15T23:00:00,2406A,112.5573,33.027,南阳市,气象站,,41,41,37,15,17,153,70,144,112,28,18,6,7,0.3,0.4
2023-09-15T23:00:00,2407A,112.5481,32.9689,南阳市,理工学院,,41,41,39,20,22,154,75,146,116,26,18,5,5,0.4,0.4
2023-09-15T23:00:00,2408A,115.6702,34.4285,商丘市,环境监测站,颗粒物(PM10),53,55,48,27,25,188,87,175,142,33,20,9,9,0.7,0.6
2023-09-15T23:00:00,2409A,115.6458,34.4045,商丘市,粮食局,,39,39,44,25,28,185,123,168,144,12,13,8,10,0.3,0.4
2023-09-15T23:00:00,2410A,115.6293,34.3948,商丘市,睢阳区环保局,颗粒物(PM10),55,59,55,33,27,199,67,179,141,50,20,9,11,0.6,0.4
2023-09-15T23:00:00,2420A,114.0189,32.9656,驻马店市,市一纸厂,,50,50,39,23,19,132,52,126,98,34,26,6,7,0.6,0.5
2023-09-15T23:00:00,2421A,114.0114,33.015,驻马店市,市彩印厂,,41,41,38,26,22,138,97,135,119,18,16,8,11,0.6,0.4
2023-09-15T23:00:00,2422A,113.9976,32.9771,驻马店市,天方二分厂,,38,35,34,26,26,135,88,130,108,16,20,5,5,0.2,0.3
2023-09-15T23:00:00,2423A,115.0601,30.2313,黄石市,沈家营,,30,30,32,9,10,117,60,109,85,17,13,8,7,0.5,0.4
2023-09-15T23:00:00,2424A,115.0817,30.2006,黄石市,陈家湾,,32,32,29,13,12,127,65,105,96,15,5,18,8,0.4,0.3
2023-09-15T23:00:00,2426A,114.8988,30.2019,黄石市,铁山,,33,33,30,12,12,141,34,119,95,33,18,5,5,0.7,0.8
2023-09-15T23:00:00,2427A,115.0307,30.2092,黄石市,团城山,,28,28,29,5,5,137,74,120,106,12,9,11,8,0.4,0.5
2023-09-15T23:00:00,2428A,111.0419,32.395,十堰市,武当山,,23,18,25,11,18,116,73,107,103,6,7,8,8,0.7,0.8
2023-09-15T23:00:00,2429A,110.78,32.6494,十堰市,滨河新村,,37,37,44,19,26,116,34,112,95,45,18,8,7,1.0,0.8
2023-09-15T23:00:00,2430A,110.7258,32.6389,十堰市,刘家沟,,35,31,44,24,25,122,60,112,92,6,9,6,7,0.7,0.8
2023-09-15T23:00:00,2431A,110.8839,32.5714,十堰市,铁二处,,34,34,35,17,23,131,54,121,97,4,5,6,6,0.6,0.6
2023-09-15T23:00:00,2432A,112.155,32.0197,襄阳市,襄城运动路,,37,37,32,5,15,120,49,116,89,30,20,10,9,0.8,0.6
2023-09-15T23:00:00,2433A,112.1392,32.0564,襄阳市,樊城新华路,,33,33,32,17,17,124,89,120,103,17,17,8,8,0.4,0.4
2023-09-15T23:00:00,2434A,112.1825,32.1142,襄阳市,高新管委会,,34,34,29,16,17,125,70,120,96,22,17,7,7,0.7,0.7
2023-09-15T23:00:00,2435A,112.2106,32.0903,襄阳市,襄州航空路,,33,33,25,15,11,125,74,120,99,20,16,6,7,0.7,0.7
2023-09-15T23:00:00,2436A,114.8938,30.3994,鄂州市,市政府,,20,17,32,4,11,148,63,127,103,10,12,3,4,0.9,0.9
2023-09-15T23:00:00,2437A,114.8989,30.3714,鄂州市,赵家坝,,34,34,34,6,12,142,68,124,107,14,18,5,5,0.6,0.7
2023-09-15T23:00:00,2439A,112.2014,31.0481,荆门市,竹园小学,,41,41,37,17,17,165,92,150,117,20,18,11,12,0.6,0.6
2023-09-15T23:00:00,2440A,112.1969,30.9891,荆门市,掇刀,,30,30,34,17,19,165,89,149,121,22,22,5,7,0.5,0.6
2023-09-15T23:00:00,2441A,112.2213,31.0386,荆门市,石化一小,,42,42,43,20,21,164,82,145,117,27,24,7,10,0.5,0.5
2023-09-15T23:00:00,2443A,113.9153,30.9285,孝感市,文化路,颗粒物(PM10),61,71,32,27,15,135,64,130,102,35,16,7,7,0.8,0.5
2023-09-15T23:00:00,2444A,113.942,30.9075,孝感市,东城区,颗粒物(PM10),55,60,29,21,9,134,56,131,108,36,15,10,7,0.8,0.5
2023-09-15T23:00:00,2446A,114.9028,30.4742,黄冈市,职工中心,,38,38,38,16,18,152,51,140,106,17,8,16,11,1.1,0.8
2023-09-15T23:00:00,2447A,114.3175,29.8142,咸宁市,森林公园,,24,14,16,12,8,102,76,92,85,4,7,5,6,0.6,0.6
2023-09-15T23:00:00,2448A,114.3107,29.8454,咸宁市,市发改委,,28,28,21,11,10,118,59,107,90,10,8,4,5,0.7,0.7
2023-09-15T23:00:00,2449A,114.2936,29.8566,咸宁市,咸安区政府,,24,24,24,14,13,119,60,110,93,13,13,6,6,0.6,0.5
2023-09-15T23:00:00,2451A,113.3583,31.7275,随州市,市委党校,,24,24,29,15,16,118,64,111,93,24,16,7,8,0.7,0.7
2023-09-15T23:00:00,2452A,113.3833,31.6908,随州市,市林业局,,25,24,24,14,16,118,79,111,98,12,16,6,8,0.5,0.6
2023-09-15T23:00:00,2453A,113.3983,31.7308,随州市,市立交桥水厂,,20,18,26,14,16,112,57,104,80,22,18,8,9,0.5,0.6
2023-09-15T23:00:00,2454A,109.4978,30.2981,恩施土家族苗族自治州,湖北民院,,,53,39,26,20,133,,124,108,15,6,13,12,0.9,0.8
2023-09-15T23:00:00,2455A,109.4707,30.2798,恩施土家族苗族自治州,州电力总公司,,,,28,,28,104,47,96,73,17,15,9,8,0.7,0.7
2023-09-15T23:00:00,2456A,112.5003,26.9167,衡阳市,原169医院,,24,24,18,8,9,78,27,62,47,32,14,7,4,0.7,0.6
2023-09-15T23:00:00,2457A,112.6194,26.9258,衡阳市,衡阳化工总厂,,20,20,22,5,11,84,45,76,68,18,12,6,6,0.7,0.7
2023-09-15T23:00:00,2458A,112.6211,26.8956,衡阳市,珠晖区环保局,,,33,24,,,88,45,74,62,22,17,7,6,0.8,0.7
2023-09-15T23:00:00,2459A,112.6197,26.8733,衡阳市,市委党校,,20,18,22,7,11,98,64,85,79,12,11,7,7,0.8,0.8
2023-09-15T23:00:00,2460A,112.6006,26.8919,衡阳市,市监测站,,22,22,21,14,13,89,50,80,74,20,14,10,7,0.8,0.8
2023-09-15T23:00:00,2461A,112.5664,26.9056,衡阳市,真空机电公司,,17,16,21,8,11,90,52,79,74,18,10,6,5,0.9,0.8
