timepoint,stationcode,longitude,latitude,area,positionname,primarypollutant,aqi,pm10,pm10_24h,pm2_5,pm2_5_24h,o3,o3_24h,o3_8h,o3_8h_24h,no2,no2_24h,so2,so2_24h,co,co_24h
2025-05-10T1900,2566A,102.1879,31.914,阿坝藏族羌族自治州,州农科所,,32,32,40,14,12,89,,100,100,8,10,11,11,0.6,0.6
2025-05-10T1900,2568A,102.2502,31.8896,阿坝藏族羌族自治州,马师校,,,32,36,12,19,100,,108,108,8,12,,4,0.4,0.4
2025-05-10T1900,3994A,102.2165,31.9024,阿坝藏族羌族自治州,马尔康中学西区,,36,25,38,17,24,113,,118,118,5,6,4,4,0.3,0.4
2025-05-10T1900,2695A,80.292,41.1694,阿克苏地区,电视台,颗粒物(PM10),125,200,518,55,154,103,,77,77,,37,2,5,0.4,0.5
2025-05-10T1900,2696A,80.2613,41.1551,阿克苏地区,艺术中心,颗粒物(PM10),142,233,597,55,168,93,,73,73,6,22,3,4,0.3,0.4
2025-05-10T1900,2204A,105.6467,38.8363,阿拉善盟,西城区西花园,,40,15,33,8,22,125,,125,125,8,10,4,7,0.5,0.6
2025-05-10T1900,2205A,105.6985,38.8411,阿拉善盟,蒙二幼,,34,15,25,3,14,108,,108,108,7,8,8,9,0.3,0.4
2025-05-10T1900,2206A,105.724,38.8516,阿拉善盟,环保局新楼,,35,11,22,6,16,111,,111,111,4,4,8,9,0.4,0.4
2025-05-10T1900,2708A,88.1264,47.8517,阿勒泰地区,市站,,38,38,32,9,4,98,,104,100,9,9,2,2,0.2,0.1
2025-05-10T1900,2630A,80.1161,32.5,阿里地区,阿里监测站,,42,14,6,3,5,133,,131,131,2,8,7,6,0.4,0.4
2025-05-10T1900,3192A,80.0903,32.5028,阿里地区,阿里藏医院,,45,12,9,3,4,143,,140,140,1,3,8,8,0.3,0.3
2025-05-10T1900,2642A,109.0318,32.6537,安康市,香溪洞,,46,46,43,20,15,131,,125,125,5,7,8,8,0.4,0.4
2025-05-10T1900,2644A,109.0072,32.6975,安康市,汉滨区检察院,,49,49,50,20,19,132,,124,124,4,10,8,9,0.3,0.4
2025-05-10T1900,4054A,109.0325,32.6913,安康市,市邮政管理局,,50,50,54,18,20,128,,126,126,6,12,6,10,0.2,0.3
2025-05-10T1900,2291A,117.0809,30.5177,安庆市,环科院,,27,27,38,18,21,78,,102,99,23,14,3,2,0.4,0.4
2025-05-10T1900,2292A,117.0331,30.5119,安庆市,马山宾馆,,25,25,40,16,21,79,,98,95,22,17,6,4,0.5,0.6
2025-05-10T1900,2294A,116.9896,30.6145,安庆市,安庆大学,,28,22,40,14,18,88,,101,100,22,13,4,4,0.2,0.3
2025-05-10T1900,3173A,117.0598,30.5351,安庆市,市人大,,31,29,45,15,20,97,,108,108,22,15,8,7,0.3,0.4
2025-05-10T1900,3123A,105.9408,26.2431,安顺市,凤凰山,,28,10,28,7,20,88,,92,92,7,9,6,12,0.4,0.5
2025-05-10T1900,3124A,105.9439,26.2564,安顺市,金钟山,,26,14,32,8,19,81,,86,86,7,8,4,9,0.2,0.3
2025-05-10T1900,3125A,105.8983,26.2481,安顺市,娄家坡,,26,13,30,7,19,83,,88,88,9,9,8,12,0.6,0.7
2025-05-10T1900,1819A,114.3551,36.1017,安阳市,红庙街,颗粒物(PM10),51,52,28,22,10,123,,126,126,4,3,1,2,0.4,0.4
2025-05-10T1900,1820A,114.361,36.0681,安阳市,银杏小区,颗粒物(PM10),61,72,32,33,16,123,,129,129,8,4,2,3,0.2,0.3
2025-05-10T1900,3141A,114.3922,36.0878,安阳市,信访局,颗粒物(PM10),53,55,28,26,11,126,,130,130,10,5,2,2,0.4,0.4
2025-05-10T1900,3669A,114.4705,36.0637,安阳市,左辅环卫站,细颗粒物(PM2.5),52,47,26,36,11,113,,132,132,16,11,2,2,0.2,0.3
2025-05-10T1900,3703A,114.2917,36.0949,安阳市,安钢职工学校,细颗粒物(PM2.5),58,46,30,41,18,122,,124,124,7,7,2,4,0.5,0.7
2025-05-10T1900,1748A,123.044,41.1196,鞍山市,深沟寺,,40,40,45,17,23,110,,125,125,15,15,7,6,0.5,0.6
2025-05-10T1900,1749A,123.011,41.0931,鞍山市,太阳城,,35,30,44,14,25,111,,121,121,15,14,8,9,0.7,0.7
2025-05-10T1900,1750A,123.0485,41.1442,鞍山市,太平,颗粒物(PM10),60,70,82,20,25,98,,112,112,18,16,9,8,0.7,0.7
2025-05-10T1900,1751A,122.9642,41.0971,鞍山市,铁西三道街,,46,46,58,16,28,117,,119,119,16,28,7,25,0.6,2.3
2025-05-10T1900,1753A,123.022,41.0821,鞍山市,明达新区,,36,35,44,13,20,113,,121,121,12,11,6,7,0.4,0.4
2025-05-10T1900,4201A,122.9446,41.0826,鞍山市,兴盛南路290号,,39,39,50,16,24,109,,120,120,22,18,8,13,0.6,0.8
2025-05-10T1900,2195A,107.4212,40.761,巴彦淖尔市,附二中,,34,20,34,13,20,108,,110,110,7,16,7,8,0.3,0.4
2025-05-10T1900,2196A,107.37,40.7372,巴彦淖尔市,市环保大楼,,36,29,38,8,22,115,,117,117,9,23,4,4,0.1,0.2
2025-05-10T1900,1956A,86.1472,41.7538,巴音郭楞蒙古自治州,孔雀公园,颗粒物(PM10),58,65,91,22,24,94,,99,99,7,28,7,11,0.3,0.3
2025-05-10T1900,1957A,86.1972,41.7166,巴音郭楞蒙古自治州,棉纺厂,颗粒物(PM10),70,90,98,7,18,103,,106,106,6,16,3,8,0.3,0.3
2025-05-10T1900,1958A,86.2357,41.7173,巴音郭楞蒙古自治州,经济开发区,颗粒物(PM10),60,69,66,14,13,97,,105,105,7,6,7,9,0.3,0.3
2025-05-10T1900,2914A,106.7677,31.8794,巴中市,苏山坪,,43,40,73,19,27,137,,132,132,8,8,5,4,0.2,0.1
2025-05-10T1900,3181A,106.7768,31.8526,巴中市,市五中,,47,47,99,18,33,127,,124,124,11,18,7,6,0.3,0.4
2025-05-10T1900,3183A,106.7418,31.8654,巴中市,圣泉水务公司,,46,46,72,20,27,136,,131,131,7,20,7,7,0.1,0.2
2025-05-10T1900,3616A,106.7616,31.8344,巴中市,市中心医院,,44,44,101,21,45,131,,126,126,8,20,5,4,0.3,0.4
2025-05-10T1900,2235A,122.7911,45.6077,白城市,洮北区环保局,,33,17,29,8,23,104,,113,112,12,13,2,3,0.3,0.4
2025-05-10T1900,2236A,122.8738,45.5725,白城市,市环保局,,36,19,44,8,24,113,,118,118,6,18,1,2,0.3,0.4
2025-05-10T1900,2231A,126.4219,41.9171,白山市,喜丰,,24,24,28,10,12,65,,92,81,14,20,4,7,0.8,0.7
2025-05-10T1900,2232A,126.4077,41.9419,白山市,环保局,,28,28,30,13,9,59,,94,82,21,10,9,9,0.8,0.8
2025-05-10T1900,2647A,104.1724,36.5446,白银市,第三小学,,41,36,47,12,21,131,,123,123,9,14,18,23,0.1,0.4
2025-05-10T1900,2648A,104.1465,36.5482,白银市,动力公司,,42,35,38,12,19,132,,124,124,10,14,16,14,0.3,0.5
2025-05-10T1900,2512A,106.6103,23.9011,百色市,市监测站,,17,11,23,7,15,54,,63,63,14,15,3,4,0.7,0.6
2025-05-10T1900,2513A,106.6538,23.8859,百色市,市中心血站,,23,17,35,16,23,59,,61,61,21,23,4,7,0.7,0.7
2025-05-10T1900,3406A,106.6085,23.8798,百色市,祈福高中,,17,13,41,10,20,53,,58,58,17,21,4,6,0.6,0.6
2025-05-10T1900,2270A,117.396,32.939,蚌埠市,工人疗养院,,50,50,60,26,18,98,,98,98,15,11,4,4,0.4,0.4
2025-05-10T1900,2271A,117.3605,32.9427,蚌埠市,百货大楼,,34,34,61,12,19,102,,102,102,14,8,5,5,0.2,0.2
2025-05-10T1900,2273A,117.4185,32.8911,蚌埠市,蚌埠学院,,29,27,47,13,19,91,,97,96,17,9,3,3,0.5,0.5
2025-05-10T1900,2274A,117.3533,32.9673,蚌埠市,淮上区政府,,41,41,57,17,24,97,,104,104,21,15,4,5,0.5,0.4
2025-05-10T1900,2275A,117.3145,32.8977,蚌埠市,高新区,,30,27,50,15,18,93,,97,97,16,12,4,4,0.3,0.3
2025-05-10T1900,3715A,117.3092,32.9314,蚌埠市,蚌埠田家炳中学,,47,47,61,17,18,87,,101,101,18,9,4,4,0.3,0.3
2025-05-10T1900,1585A,109.8756,40.6532,包头市,市环境监测站,,37,20,33,10,21,116,,112,112,12,29,8,8,0.4,0.4
2025-05-10T1900,1587A,109.9991,40.5842,包头市,包头八中,,45,45,42,7,23,111,,111,111,16,34,8,10,0.4,0.6
2025-05-10T1900,1588A,109.8538,40.6821,包头市,青山宾馆,,35,19,28,7,18,111,,109,109,12,22,9,10,0.4,0.4
2025-05-10T1900,1589A,109.8642,40.6288,包头市,惠龙物流,,35,21,40,7,23,109,,109,109,16,30,13,10,0.5,0.5
2025-05-10T1900,1590A,110.0377,40.5546,包头市,东河鸿龙湾,,37,13,38,8,22,118,,110,110,7,30,9,13,0.5,0.6
2025-05-10T1900,3283A,109.9154,40.5685,包头市,滨河大厦,,37,20,41,3,24,118,,112,112,6,30,7,12,0.4,0.7
2025-05-10T1900,3419A,109.9447,40.6261,包头市,包头市委党校,,37,,27,8,17,116,,112,112,9,24,11,8,0.5,0.4
2025-05-10T1900,3683A,109.8331,40.6576,包头市,昆区政府,,36,10,23,8,20,113,,109,109,16,18,6,7,0.8,0.7
2025-05-10T1900,1930A,107.185,34.3063,宝鸡市,庙沟村,,44,44,47,29,29,132,,133,133,12,8,8,8,0.5,0.5
2025-05-10T1900,1931A,107.0708,34.3017,宝鸡市,竹园沟,颗粒物(PM10),58,66,48,20,24,113,,128,128,7,10,3,3,0.3,0.3
2025-05-10T1900,1932A,107.1906,34.3672,宝鸡市,三陆医院,细颗粒物(PM2.5),55,45,57,39,36,129,,128,128,8,23,5,8,0.3,0.3
2025-05-10T1900,1933A,107.1431,34.3547,宝鸡市,监测站,颗粒物(PM10),54,57,49,25,20,121,,122,122,8,14,4,4,0.5,0.4
2025-05-10T1900,1934A,107.1186,34.3739,宝鸡市,技工学校,颗粒物(PM10),52,53,52,28,24,124,,122,122,6,9,6,8,0.4,0.4
2025-05-10T1900,1935A,107.3906,34.3528,宝鸡市,陈仓区环保局家属楼,颗粒物(PM10),55,59,60,19,24,126,,124,124,10,23,7,18,0.4,0.5
2025-05-10T1900,1936A,107.2058,34.3497,宝鸡市,文理学院,颗粒物(PM10),51,52,53,23,24,126,,126,126,7,14,6,7,0.3,0.3
2025-05-10T1900,1937A,107.2386,34.3622,宝鸡市,三迪小学,,46,40,56,32,31,128,,127,127,6,17,5,7,0.2,0.3
2025-05-10T1900,1051A,115.493,38.8632,保定市,游泳馆,细颗粒物(PM2.5),55,53,34,39,21,128,,128,128,13,9,3,3,0.1,0.1
2025-05-10T1900,1052A,115.5213,38.8959,保定市,华电二区,,45,45,24,31,17,133,,130,130,7,5,1,2,0.2,0.3
2025-05-10T1900,1053A,115.4713,38.9108,保定市,接待中心,颗粒物(PM10),60,69,32,38,18,133,,130,130,12,8,3,3,0.1,0.1
2025-05-10T1900,1054A,115.4612,38.8416,保定市,地表水厂,颗粒物(PM10),63,76,35,41,23,122,,130,130,17,12,3,3,0.3,0.2
2025-05-10T1900,3581A,115.31981,38.95208,保定市,满城区生态环境分局,颗粒物(PM10),54,58,23,34,18,125,,131,131,13,4,5,5,0.4,0.3
2025-05-10T1900,3582A,115.47694,38.76408,保定市,清苑区第二中学,颗粒物(PM10),62,74,43,41,20,117,,132,132,12,5,4,4,0.4,0.3
2025-05-10T1900,3583A,115.62909,39.02311,保定市,徐水物探局,颗粒物(PM10),53,56,30,31,15,117,,126,126,14,8,3,3,0.3,0.2
2025-05-10T1900,4034A,115.5150,38.8590,保定市,植保所站,颗粒物(PM10),65,80,32,39,22,124,,124,124,8,5,3,3,0.4,0.3
2025-05-10T1900,2594A,99.1678,25.1081,保山市,市环境监测站,细颗粒物(PM2.5),54,44,40,38,32,108,,106,106,6,8,3,6,0.6,0.6
2025-05-10T1900,2595A,99.1711,25.1328,保山市,市环保局,细颗粒物(PM2.5),54,41,43,38,27,113,,114,114,5,6,5,6,0.3,0.4
2025-05-10T1900,1867A,109.1436,21.4086,北海市,海滩公园,,24,20,28,7,12,76,,81,81,7,16,5,11,0.7,0.7
2025-05-10T1900,1868A,109.0981,21.4661,北海市,新市环保局,,24,19,24,9,13,76,,86,86,9,15,3,8,0.7,0.7
2025-05-10T1900,1869A,109.1778,21.5233,北海市,北海工业园,,21,13,25,10,14,67,,80,80,9,13,7,11,0.4,0.4
2025-05-10T1900,3400A,109.1911,21.4415,北海市,龙潭自来水厂,,23,19,27,16,19,62,,74,74,7,13,7,11,0.4,0.4
2025-05-10T1900,1001A,116.3621,39.8784,北京市,万寿西宫,细颗粒物(PM2.5),63,53,29,45,22,126,,126,126,22,15,3,2,0.4,0.4
2025-05-10T1900,1003A,116.4174,39.9289,北京市,东四,细颗粒物(PM2.5),58,59,35,41,24,123,,120,120,15,12,3,3,0.5,0.4
2025-05-10T1900,1004A,116.4072,39.8863,北京市,天坛,细颗粒物(PM2.5),59,52,30,42,21,114,,116,116,18,13,3,3,0.4,0.4
2025-05-10T1900,1005A,116.462,39.9365,北京市,农展馆,细颗粒物(PM2.5),55,54,27,39,19,116,,116,116,14,10,3,2,0.7,0.6
2025-05-10T1900,1006A,116.3392,39.9295,北京市,官园,细颗粒物(PM2.5),64,74,34,46,23,115,,118,118,18,13,4,4,0.4,0.4
2025-05-10T1900,1007A,116.2878,39.9611,北京市,海淀万柳,细颗粒物(PM2.5),58,53,31,41,24,107,,104,104,13,11,5,4,0.3,0.3
2025-05-10T1900,1008A,116.6636,40.135,北京市,顺义新城,细颗粒物(PM2.5),63,53,28,45,19,122,,126,126,24,15,4,4,0.4,0.3
2025-05-10T1900,1009A,116.6275,40.3275,北京市,怀柔镇,细颗粒物(PM2.5),59,50,30,42,21,99,,110,110,26,9,2,2,0.5,0.4
2025-05-10T1900,1010A,116.2296,40.217,北京市,昌平镇,,45,45,28,30,21,102,,110,110,22,14,2,2,0.2,0.1
2025-05-10T1900,1011A,116.3966,39.9821,北京市,奥体中心,细颗粒物(PM2.5),54,53,32,38,21,105,,100,100,19,18,3,3,0.4,0.6
2025-05-10T1900,3281A,115.9718,40.4529,北京市,延庆夏都,细颗粒物(PM2.5),57,40,29,40,23,123,,119,119,13,13,3,3,0.3,0.4
2025-05-10T1900,3418A,116.8336,40.4095,北京市,密云新城,颗粒物(PM10),58,65,28,38,18,100,,106,106,30,11,4,4,0.4,0.4
2025-05-10T1900,3672A,116.1541,39.8204,北京市,丰台云岗,细颗粒物(PM2.5),77,56,35,56,26,121,,121,121,14,10,4,3,0.2,0.2
2025-05-10T1900,3673A,116.6804,39.9081,北京市,通州东关,细颗粒物(PM2.5),67,74,37,48,21,133,,122,122,13,10,5,6,0.5,0.5
2025-05-10T1900,3674A,115.9577,39.7603,北京市,房山燕山,细颗粒物(PM2.5),62,57,33,44,25,89,,105,105,34,10,1,1,0.3,0.2
2025-05-10T1900,3675A,116.4672,39.7733,北京市,大兴旧宫,细颗粒物(PM2.5),57,55,33,40,21,121,,117,117,15,13,1,1,0.3,0.3
2025-05-10T1900,3694A,115.986,40.4563,北京市,延庆石河营,,43,43,28,30,10,109,,110,110,15,13,2,2,0.4,0.4
2025-05-10T1900,3695A,116.6151,40.3053,北京市,怀柔新城,细颗粒物(PM2.5),62,53,24,44,19,97,,108,108,23,8,1,1,0.5,0.4
2025-05-10T1900,3696A,116.2545,39.8768,北京市,丰台小屯,细颗粒物(PM2.5),54,56,33,38,22,109,,112,112,16,11,2,2,0.2,0.2
2025-05-10T1900,3697A,116.84,40.3844,北京市,密云镇,细颗粒物(PM2.5),52,52,25,36,19,110,,110,110,14,12,5,5,0.4,0.4
2025-05-10T1900,4182A,116.1942,39.9158,北京市,八角北路9号,细颗粒物(PM2.5),60,56,33,43,25,116,,125,125,18,10,5,4,0.1,0.1
2025-05-10T1900,4194A,117.0790,40.1518,北京市,洳河巡河路,颗粒物(PM10),61,72,33,21,12,121,,118,118,16,6,10,2,0.2,0.2
2025-05-10T1900,1761A,123.8275,41.3064,本溪市,大峪,,34,34,45,21,27,108,,118,118,10,11,6,6,0.5,0.7
2025-05-10T1900,1762A,123.7567,41.3325,本溪市,溪湖,,40,30,57,18,29,125,,125,125,9,11,2,3,0.5,0.7
2025-05-10T1900,1763A,123.7169,41.3094,本溪市,彩屯,,47,47,62,22,31,116,,122,122,18,19,8,10,0.5,0.7
2025-05-10T1900,1764A,123.7669,41.2864,本溪市,东明,,44,44,39,19,23,117,,119,119,15,15,6,7,0.5,0.6
2025-05-10T1900,1765A,123.7992,41.2664,本溪市,新立屯,,42,42,36,17,36,113,,120,120,13,14,5,5,0.4,0.6
2025-05-10T1900,1766A,123.8142,41.3472,本溪市,威宁,,43,43,48,13,26,112,,118,118,9,12,5,5,0.5,0.7
2025-05-10T1900,2587A,105.2864,27.3125,毕节市,八中,,28,27,26,13,15,88,,87,81,6,6,5,5,0.4,0.5
2025-05-10T1900,2588A,105.31,27.2944,毕节市,师专,,34,34,28,14,15,87,,90,82,12,8,3,2,0.4,0.4
2025-05-10T1900,4263A,105.3688,27.3598,毕节市,工业大道,,41,41,29,19,16,86,,92,86,10,8,7,6,0.5,0.6
2025-05-10T1900,1629A,118.0018,37.3617,滨州市,第二水厂,,41,41,24,14,13,121,,114,114,11,10,8,7,0.2,0.3
2025-05-10T1900,1630A,117.9776,37.393,滨州市,北中新校,,36,29,22,22,13,115,,109,109,10,8,4,4,0.4,0.4
2025-05-10T1900,3514A,117.9378,37.3956,滨州市,中海酒店,,42,36,20,29,17,121,,118,118,10,6,6,6,0.5,0.6
2025-05-10T1900,3515A,117.9378,37.3553,滨州市,开发区一中,,46,46,26,17,14,117,,110,110,16,14,23,7,0.7,0.5
2025-05-10T1900,3516A,118.0917,37.694,滨州市,金海六路,,49,49,20,17,9,81,,115,114,48,14,6,7,0.3,0.3
2025-05-10T1900,4028A,117.9956,37.3753,滨州市,滨州市西街道办事处,,41,34,20,22,15,130,,126,126,9,6,5,4,0.2,0.2
2025-05-10T1900,2311A,115.8072,33.8399,亳州市,污水处理厂,,38,28,35,9,9,119,,121,121,13,9,2,2,0.2,0.3
2025-05-10T1900,2312A,115.7789,33.8518,亳州市,三国揽胜宫,,39,28,45,8,8,124,,124,124,11,8,4,4,0.3,0.3
2025-05-10T1900,3332A,115.7633,33.8034,亳州市,亳州学院,,38,21,32,10,9,120,,121,121,12,10,3,2,0.2,0.3
2025-05-10T1900,2693A,82.0485,44.8556,博尔塔拉蒙古自治州,市党校,颗粒物(PM10),51,52,55,24,20,103,,90,90,7,11,6,6,0.6,0.6
2025-05-10T1900,2694A,82.0806,44.8969,博尔塔拉蒙古自治州,市环保局,细颗粒物(PM2.5),60,50,72,43,26,102,,86,86,8,20,1,2,0.4,0.6
2025-05-10T1900,1071A,116.8842,38.2991,沧州市,沧县城建局,,41,41,26,23,16,123,,123,123,18,12,2,3,0.3,0.3
2025-05-10T1900,1072A,116.8584,38.3254,沧州市,电视转播站,,43,43,33,24,20,122,,119,119,15,14,1,2,0.3,0.3
2025-05-10T1900,1073A,116.8709,38.3228,沧州市,市环保局,,46,45,34,25,21,145,,140,140,13,12,7,7,0.3,0.3
2025-05-10T1900,3324A,116.8136,38.3004,沧州市,河北水利电力学院,,42,36,20,29,15,133,,130,130,22,18,3,3,0.3,0.2
2025-05-10T1900,2622A,97.1806,31.1273,昌都市,昌都监测站,,,,23,9,14,128,,119,119,5,4,2,3,0.4,0.4
2025-05-10T1900,3719A,97.1714,31.1406,昌都市,昌都会议中心,,40,14,22,8,15,125,,118,118,2,3,3,3,0.2,0.2
2025-05-10T1900,2690A,88.1236,43.8886,昌吉回族自治州,天山天池,颗粒物(PM10),52,53,22,14,7,123,,134,134,6,6,7,7,0.6,0.5
2025-05-10T1900,2692A,87.2717,44.0297,昌吉回族自治州,新区政务中心,颗粒物(PM10),69,87,66,22,24,133,,141,141,3,16,10,12,0.3,0.6
2025-05-10T1900,3613A,87.3095,44.0142,昌吉回族自治州,亚心广场,颗粒物(PM10),104,158,94,22,41,122,,131,131,7,25,10,13,0.2,0.8
2025-05-10T1900,1119A,125.3325,43.9166,长春市,食品厂,,34,34,27,22,19,90,,107,106,24,19,4,4,0.4,0.4
2025-05-10T1900,1120A,125.2863,43.9027,长春市,客车厂,,33,26,27,23,20,102,,111,111,18,16,4,5,0.2,0.3
2025-05-10T1900,1121A,125.2841,43.8463,长春市,邮电学院,,35,28,21,16,16,109,,114,114,9,14,6,6,0.3,0.4
2025-05-10T1900,1122A,125.3716,43.8772,长春市,劳动公园,,33,27,25,15,19,105,,112,112,13,12,6,6,0.4,0.4
2025-05-10T1900,1123A,125.3297,43.8805,长春市,园林处,,34,22,24,13,15,108,,114,114,10,12,6,6,0.4,0.5
2025-05-10T1900,1124A,125.4605,43.79,长春市,净月潭,,33,26,22,12,14,104,,112,112,7,7,6,6,0.3,0.4
2025-05-10T1900,1126A,125.3863,43.8447,长春市,经开区环卫处,,34,34,40,10,13,102,,109,109,12,13,5,6,0.2,0.3
2025-05-10T1900,1127A,125.245,43.7783,长春市,高新区管委会,,33,26,24,16,18,104,,111,111,16,15,6,6,0.2,0.3
2025-05-10T1900,1128A,125.1761,43.8325,长春市,岱山公园,,37,37,32,20,23,85,,108,107,37,29,4,4,0.3,0.4
2025-05-10T1900,1335A,113.0833,28.2325,长沙市,经开区环保局,颗粒物(PM10),55,60,60,29,25,104,,114,113,18,18,6,5,0.4,0.4
2025-05-10T1900,1336A,112.8872,28.2189,长沙市,高开区环保局,,,57,65,30,26,112,,114,114,,22,,6,0.4,0.5
2025-05-10T1900,1337A,113.0792,28.2053,长沙市,马坡岭,颗粒物(PM10),55,60,64,36,32,106,,118,117,20,20,5,4,0.4,0.5
2025-05-10T1900,1338A,112.9394,28.19,长沙市,湖南师范大学,颗粒物(PM10),58,66,63,35,27,94,,112,110,19,19,3,2,0.3,0.3
2025-05-10T1900,1339A,113.0178,28.1322,长沙市,雨花区环保局,,49,49,62,27,25,106,,115,115,15,22,6,4,0.7,0.8
2025-05-10T1900,1340A,112.9792,28.2597,长沙市,伍家岭,颗粒物(PM10),55,60,67,37,31,94,,105,104,16,22,4,3,0.4,0.5
2025-05-10T1900,1341A,113.0014,28.1944,长沙市,火车新站,颗粒物(PM10),54,58,63,31,26,101,,108,108,17,20,8,7,0.4,0.5
2025-05-10T1900,1342A,112.9844,28.1178,长沙市,天心区环保局,,50,50,64,35,30,105,,114,114,18,20,4,3,0.3,0.4
2025-05-10T1900,1343A,112.8908,28.1308,长沙市,湖南中医药大学,颗粒物(PM10),52,53,61,33,29,105,,110,110,12,25,4,3,0.3,0.5
2025-05-10T1900,1344A,112.9581,28.3611,长沙市,沙坪,,,44,39,40,24,39,,108,98,,14,5,6,0.5,0.3
2025-05-10T1900,1727A,113.1147,36.1547,长治市,清华站,,37,30,26,7,11,118,,122,122,12,10,6,8,0.5,0.6
2025-05-10T1900,1730A,113.0886,36.2125,长治市,审计局,,38,33,35,12,14,121,,123,123,16,14,9,10,0.3,0.4
2025-05-10T1900,1731A,113.0844,36.1856,长治市,长治八中,,36,35,35,18,17,114,,120,120,15,12,9,10,0.4,0.5
2025-05-10T1900,2845A,113.1569,36.1911,长治市,德盛苑,,36,31,30,12,15,115,,120,120,12,10,6,7,0.4,0.5
2025-05-10T1900,3568A,113.06,36.0464,长治市,向阳小学,,,,64,20,22,124,,126,126,16,14,8,8,0.3,0.3
2025-05-10T1900,3569A,112.8792,36.3144,长治市,屯留一中,,37,26,35,14,15,118,,118,118,11,9,8,9,0.3,0.2
2025-05-10T1900,4189A,113.1131,36.19948,长治市,英华南巷50号,,40,26,28,17,15,125,,128,128,10,9,6,8,0.4,0.5
2025-05-10T1900,4190A,113.2367,36.3344,长治市,学府街1号,,39,39,29,13,17,116,,123,123,15,10,4,3,0.4,0.5
2025-05-10T1900,1854A,111.6975,28.9703,常德市,市二中,,34,34,51,17,33,83,,79,79,8,12,5,6,0.5,0.6
2025-05-10T1900,3138A,111.7153,29.0289,常德市,武陵区永安,,32,32,56,16,33,87,,88,88,6,9,6,7,0.3,0.4
2025-05-10T1900,3139A,111.6892,28.9881,常德市,鼎城区玉霞,,31,31,51,14,29,82,,83,82,7,10,4,5,0.4,0.5
2025-05-10T1900,3140A,111.6625,29.0531,常德市,武陵区长庚,,29,29,52,15,30,84,,87,86,8,10,7,7,0.6,0.7
2025-05-10T1900,1196A,119.9633,31.762,常州市,市监测站,,39,39,51,11,19,98,,115,112,12,23,11,11,0.7,0.8
2025-05-10T1900,1200A,119.9468,31.7069,常州市,武进监测站,颗粒物(PM10),59,68,54,14,15,96,,112,110,20,23,10,10,0.6,0.6
2025-05-10T1900,1201A,119.9255,31.9087,常州市,安家,,49,49,66,13,18,100,,113,111,18,28,12,12,0.5,0.5
2025-05-10T1900,3002A,119.9805,31.8174,常州市,行政中心,,32,32,40,9,17,100,,110,109,15,19,10,11,0.4,0.4
2025-05-10T1900,3003A,120.0522,31.7748,常州市,经开区,,39,39,38,8,14,106,,118,116,17,23,1,3,0.5,0.5
2025-05-10T1900,3010A,119.9025,31.7964,常州市,钟楼,,,,45,,17,89,,112,108,,22,7,7,0.6,0.5
2025-05-10T1900,3429A,119.8598,31.7066,常州市,武进经发区,,36,36,44,17,19,96,,109,107,10,14,9,9,0.6,0.6
2025-05-10T1900,3430A,119.5826,31.7245,常州市,金坛城区,,36,36,40,11,16,102,,112,111,11,14,8,8,0.4,0.5
2025-05-10T1900,2220A,120.4318,41.5881,朝阳市,西梁,,32,29,34,9,14,100,,114,112,17,17,5,6,0.3,0.4
2025-05-10T1900,2221A,120.4521,41.5646,朝阳市,河畔小区,,35,22,38,14,16,110,,120,118,12,12,7,7,0.3,0.3
2025-05-10T1900,2222A,120.4176,41.5648,朝阳市,八里堡,,45,45,45,16,16,93,,114,111,24,17,7,6,0.3,0.3
2025-05-10T1900,2223A,120.3806,41.5969,朝阳市,农业园区,,33,25,38,12,17,105,,118,116,11,12,7,8,0.3,0.4
2025-05-10T1900,1705A,116.6367,23.6719,潮州市,西园路,,21,17,19,11,14,67,,98,98,8,8,3,3,0.4,0.3
2025-05-10T1900,3026A,116.6183,23.6608,潮州市,市政府,,27,11,29,10,11,84,,104,104,9,13,3,7,0.7,0.6
2025-05-10T1900,4036A,116.6461,23.6761,潮州市,金山,,28,,27,12,11,89,,112,112,10,10,6,6,0.7,0.6
2025-05-10T1900,2472A,113.0073,25.9061,郴州市,马头岭,颗粒物(PM10),53,56,55,10,19,109,,109,109,6,14,8,12,0.2,0.3
2025-05-10T1900,2473A,113.0116,25.8226,郴州市,市职中,颗粒物(PM10),53,56,50,29,29,114,,116,116,13,14,3,7,0.5,0.6
2025-05-10T1900,2475A,113.0383,25.8071,郴州市,市审计局,颗粒物(PM10),51,52,48,25,27,120,,120,120,11,11,6,7,0.4,0.6
2025-05-10T1900,2476A,113.0348,25.7759,郴州市,市环保局,颗粒物(PM10),53,56,56,27,26,114,,112,112,10,19,3,6,0.4,0.5
2025-05-10T1900,4252A,113.0138,25.8011,郴州市,好美居路49号,,36,30,44,22,26,113,,116,116,14,13,6,9,0.4,0.6
2025-05-10T1900,1431A,103.9728,30.7236,成都市,金泉两河,颗粒物(PM10),68,85,193,33,51,95,,90,90,7,24,2,3,0.6,0.7
2025-05-10T1900,1432A,104.176,30.6872,成都市,十里店,颗粒物(PM10),71,92,180,35,49,129,,128,128,11,17,4,4,0.4,0.4
2025-05-10T1900,1433A,104.079,30.5706,成都市,三瓦窑,颗粒物(PM10),69,87,181,31,53,112,,111,111,21,31,4,5,0.4,0.5
2025-05-10T1900,1434A,104.1114,30.63,成都市,沙河铺,颗粒物(PM10),77,104,151,29,49,119,,115,115,12,21,7,7,0.5,0.6
2025-05-10T1900,1437A,104.0786,30.6531,成都市,君平街,颗粒物(PM10),78,106,189,48,59,99,,93,93,13,26,7,8,0.5,0.5
2025-05-10T1900,2880A,104.0239,30.65639,成都市,大石西路,颗粒物(PM10),75,100,176,52,57,117,,115,115,21,28,4,5,0.4,0.5
2025-05-10T1900,3136A,104.2725,30.5589,成都市,龙泉驿区区政府,颗粒物(PM10),59,68,128,24,34,122,,120,120,16,20,4,4,0.4,0.4
2025-05-10T1900,3357A,104.0106,30.6931,成都市,金博路,颗粒物(PM10),67,83,174,28,50,100,,95,95,11,24,8,8,0.3,0.4
2025-05-10T1900,3359A,104.0578,30.5225,成都市,华阳,颗粒物(PM10),65,80,156,36,56,115,,110,110,10,24,6,7,0.5,0.6
2025-05-10T1900,3488A,104.3853,30.7453,成都市,青白江技师分院,颗粒物(PM10),88,125,140,48,49,133,,134,134,15,27,3,3,0.3,0.3
2025-05-10T1900,3489A,104.0789,30.4072,成都市,科学城,颗粒物(PM10),62,74,171,35,58,121,,119,119,7,16,4,5,0.4,0.4
2025-05-10T1900,4011A,103.8506,30.6947,成都市,光华大道三段,颗粒物(PM10),70,90,163,46,61,135,,130,130,10,22,2,2,0.5,0.6
2025-05-10T1900,4224A,104.2433,30.5353,成都市,鲸龙路1057号,颗粒物(PM10),65,79,169,30,47,121,,118,118,8,17,5,5,0.4,0.4
2025-05-10T1900,1062A,117.9531,40.9081,承德市,铁路,颗粒物(PM10),55,60,22,25,13,81,,107,107,34,13,5,2,0.3,0.2
2025-05-10T1900,1063A,117.9392,40.9763,承德市,中国银行,颗粒物(PM10),56,62,22,39,13,94,,106,106,15,9,2,3,0.3,0.3
2025-05-10T1900,1064A,117.9503,40.928,承德市,开发区,颗粒物(PM10),51,51,29,35,20,86,,107,106,10,11,3,1,0.3,0.3
2025-05-10T1900,1065A,117.8051,40.9655,承德市,文化中心,颗粒物(PM10),64,78,26,45,11,87,,111,111,20,10,4,3,0.4,0.2
2025-05-10T1900,1066A,117.9268,41.0026,承德市,离宫,细颗粒物(PM2.5),92,,28,68,29,68,,108,104,6,7,1,2,0.3,0.2
2025-05-10T1900,2314A,117.47,30.6618,池州市,池州学院,,34,28,37,16,19,107,,106,106,10,9,5,5,0.4,0.4
2025-05-10T1900,3237A,117.4918,30.6617,池州市,展览馆,,34,24,37,16,22,107,,107,107,8,8,5,5,0.4,0.4
2025-05-10T1900,3333A,117.5627,30.695,池州市,第八中学,,34,28,38,15,19,108,,107,107,10,11,5,5,0.4,0.4
2025-05-10T1900,3334A,117.5038,30.6243,池州市,第十二中学,,35,30,39,13,16,109,,108,108,9,11,4,3,0.4,0.4
2025-05-10T1900,1744A,118.9233,42.2816,赤峰市,松山一中,,46,46,24,29,10,84,,108,106,42,19,8,8,0.7,0.4
2025-05-10T1900,1745A,118.9576,42.2728,赤峰市,哈达街,,48,36,23,33,13,88,,96,96,35,21,7,7,0.6,0.4
2025-05-10T1900,1746A,118.8788,42.2554,赤峰市,天义路,细颗粒物(PM2.5),62,,24,44,21,102,,107,107,21,12,7,8,0.5,0.3
2025-05-10T1900,3058A,119.2658,42.0353,赤峰市,银河街,,30,25,24,12,11,95,,100,100,11,8,14,17,0.5,0.5
2025-05-10T1900,3286A,118.9359,42.3147,赤峰市,桥北物流园区,细颗粒物(PM2.5),70,,22,51,18,89,,99,99,32,17,8,7,0.4,0.4
2025-05-10T1900,2521A,107.3476,22.4136,崇左市,市环保局江州分局,,26,22,29,13,15,83,,108,107,4,7,6,6,0.4,0.5
2025-05-10T1900,4256A,107.3750,22.3736,崇左市,石景林东路7号,,29,16,26,16,15,91,,118,117,4,9,3,4,0.5,0.6
2025-05-10T1900,2298A,118.3093,32.3153,滁州市,老年大学,,34,26,42,17,21,106,,101,101,6,6,3,2,0.3,0.2
2025-05-10T1900,2299A,118.3244,32.2786,滁州市,人大宾馆,,31,18,42,8,17,98,,97,97,8,6,7,7,0.3,0.2
2025-05-10T1900,3207A,118.3118,32.3038,滁州市,市政府原办公楼,,34,15,38,10,20,106,,101,101,10,9,3,3,0.1,0.1
2025-05-10T1900,3331A,118.3267,32.2634,滁州市,图书馆,,32,18,39,10,19,100,,92,92,5,6,7,7,0.2,0.2
2025-05-10T1900,2605A,101.5482,25.0441,楚雄彝族自治州,州环境监测站,颗粒物(PM10),58,65,38,35,27,105,,128,125,13,17,8,8,0.6,0.5
2025-05-10T1900,2606A,101.538,25.0492,楚雄彝族自治州,市经济开发区,颗粒物(PM10),81,111,43,38,28,100,,122,119,14,17,6,8,0.7,0.6
2025-05-10T1900,2548A,107.5277,31.2827,达州市,达州职业技术学院,颗粒物(PM10),67,84,116,29,44,115,,108,108,11,26,5,6,0.6,0.7
2025-05-10T1900,2549A,107.5086,31.2186,达州市,市环境监测站,颗粒物(PM10),67,84,125,19,38,120,,112,112,14,28,4,5,0.2,0.3
2025-05-10T1900,2550A,107.4988,31.2132,达州市,凤凰小区,颗粒物(PM10),63,75,128,29,42,117,,109,109,12,27,6,7,0.3,0.4
2025-05-10T1900,2551A,107.5082,31.1986,达州市,达县机关宾馆,颗粒物(PM10),62,73,126,28,40,107,,106,106,21,31,5,5,0.2,0.3
2025-05-10T1900,2552A,107.4644,31.2124,达州市,市政中心,颗粒物(PM10),61,72,131,24,39,112,,106,106,12,26,2,2,0.2,0.3
2025-05-10T1900,2614A,100.1542,25.7054,大理白族自治州,大理市环境监测站,,39,32,34,27,25,84,,109,104,17,8,7,7,0.5,0.3
2025-05-10T1900,2615A,100.2171,25.5811,大理白族自治州,大理古城,,46,38,33,32,22,82,,111,103,19,10,9,8,0.6,0.5
2025-05-10T1900,1109A,121.612,38.9741,大连市,甘井子,,41,28,26,19,22,131,,132,132,18,17,4,4,0.2,0.3
2025-05-10T1900,1110A,121.565,38.9511,大连市,周水子,,42,42,36,22,21,127,,128,128,14,15,6,5,0.3,0.3
2025-05-10T1900,1111A,121.5637,38.8845,大连市,星海三站,,44,32,33,18,21,140,,140,140,8,10,3,3,0.3,0.3
2025-05-10T1900,1112A,121.6302,38.9117,大连市,青泥洼桥,,43,34,38,21,22,136,,138,138,13,10,6,6,0.5,0.6
2025-05-10T1900,1113A,121.6251,38.8638,大连市,傅家庄,,47,30,34,15,21,150,,148,148,12,14,6,7,0.1,0.2
2025-05-10T1900,1114A,121.5213,38.8661,大连市,七贤岭,,46,29,33,16,21,145,,144,144,8,9,5,6,0.4,0.4
2025-05-10T1900,1115A,121.2529,38.8061,大连市,旅顺,,44,34,28,23,21,138,,130,130,12,11,4,4,0.4,0.3
2025-05-10T1900,1116A,121.7485,39.1311,大连市,金州,,,30,38,20,25,136,,137,137,,15,9,8,0.2,0.3
2025-05-10T1900,1117A,121.7811,39.0496,大连市,开发区,,42,42,37,20,23,116,,126,126,24,18,5,4,0.3,0.4
2025-05-10T1900,1118A,121.9762,39.0631,大连市,双D港,,46,46,36,16,23,145,,146,146,10,10,8,7,0.2,0.3
2025-05-10T1900,1789A,124.81117,46.03138,大庆市,大同区,,30,28,40,18,29,93,,120,118,14,14,4,6,0.5,0.6
2025-05-10T1900,1790A,125.129,46.533,大庆市,龙凤区,,40,40,35,22,25,95,,108,106,17,16,5,6,0.6,0.5
2025-05-10T1900,1791A,124.902,46.408,大庆市,红岗区,,35,17,30,10,21,112,,120,118,12,13,6,8,0.2,0.3
2025-05-10T1900,1792A,125.153,46.586,大庆市,萨尔图区,颗粒物(PM10),51,52,37,13,18,84,,98,96,23,14,7,7,0.4,0.4
2025-05-10T1900,1793A,124.9042,46.6215,大庆市,让胡路区,,36,29,36,25,29,95,,104,103,16,18,7,8,0.3,0.4
2025-05-10T1900,3481A,125.141,46.634,大庆市,萨区政府监测点,,33,33,32,14,12,102,,108,108,11,9,5,6,0.4,0.4
2025-05-10T1900,1723A,113.2994,40.0758,大同市,云冈宾馆,,35,11,54,10,40,110,,117,117,9,22,8,13,0.0,0.6
2025-05-10T1900,1724A,113.3444,40.0917,大同市,大同大学,,32,17,51,7,39,100,,110,110,13,30,3,5,0.4,0.6
2025-05-10T1900,1725A,113.2661,40.1269,大同市,安家小村,,33,18,57,10,42,105,,111,111,8,24,8,13,0.3,0.7
2025-05-10T1900,1726A,113.2711,40.0844,大同市,教育学院,,32,12,55,3,38,102,,111,111,12,22,5,8,0.2,0.5
2025-05-10T1900,3282A,113.3397,40.0597,大同市,大同市卫生学校,,32,31,52,8,45,101,,108,108,10,18,7,12,0.3,0.8
2025-05-10T1900,3565A,113.1367,40.1122,大同市,云冈站,,32,14,53,3,40,100,,108,108,12,16,4,6,0.3,0.5
2025-05-10T1900,3566A,113.1186,40.2556,大同市,图书馆,,31,16,58,8,46,97,,104,104,6,18,5,8,0.3,0.7
2025-05-10T1900,3567A,113.5931,40.0461,大同市,区一中,,33,17,41,3,26,104,,117,117,8,15,10,14,0.3,0.6
2025-05-10T1900,4199A,113.2798,40.0997,大同市,魏都大道141号,,36,13,66,7,41,115,,124,124,10,24,4,10,0.3,1
2025-05-10T1900,2269A,124.1069,50.4097,大兴安岭地区,科技局,颗粒物(PM10),57,64,40,35,20,112,,113,113,4,5,5,5,0.4,0.3
2025-05-10T1900,3663A,124.1164,50.4278,大兴安岭地区,红旗社区,,48,48,36,31,23,109,,111,111,5,11,2,4,0.5,0.5
2025-05-10T1900,1600A,124.3303,40.0625,丹东市,江湾东路,,29,24,40,13,20,90,,98,98,14,9,7,6,0.7,0.6
2025-05-10T1900,1601A,124.4256,40.1503,丹东市,临江后街,,32,32,35,16,16,73,,92,91,27,8,6,6,0.8,0.7
2025-05-10T1900,1602A,124.3933,40.1461,丹东市,元宝山,,29,19,37,10,16,90,,86,86,12,9,7,7,0.5,0.5
2025-05-10T1900,1603A,124.3633,40.1092,丹东市,民主桥,,36,36,41,23,20,77,,90,90,29,11,6,5,0.8,0.8
2025-05-10T1900,3541A,109.5726,19.5167,儋州市,第一中学子站,,20,18,16,6,6,63,,73,72,8,5,6,5,0.6,0.6
2025-05-10T1900,3542A,109.5567,19.5187,儋州市,东坡学校子站,,21,13,16,6,7,66,,79,78,8,4,4,6,0.6,0.5
2025-05-10T1900,2616A,98.5842,24.428,德宏傣族景颇族自治州,德宏州监测站,细颗粒物(PM2.5),52,47,64,36,43,113,,109,109,8,17,8,8,0.7,0.8
2025-05-10T1900,3677A,98.5881,24.4368,德宏傣族景颇族自治州,芒市人民政府综合楼,颗粒物(PM10),61,72,72,34,40,133,,126,126,10,13,6,6,0.5,0.5
2025-05-10T1900,1901A,104.4239,31.1208,德阳市,东山公园,颗粒物(PM10),75,99,252,40,67,140,,135,135,13,23,3,4,0.7,0.8
2025-05-10T1900,1902A,104.3826,31.1317,德阳市,西小区,颗粒物(PM10),82,114,248,46,68,144,,132,132,17,32,4,6,0.8,0.9
2025-05-10T1900,1904A,104.3553,31.1091,德阳市,耐火材料厂,颗粒物(PM10),84,117,228,48,70,144,,136,136,16,28,5,7,0.5,0.5
2025-05-10T1900,3639A,104.4019,31.1244,德阳市,市教育局,颗粒物(PM10),76,101,226,41,69,145,,138,138,17,24,4,5,0.5,0.5
2025-05-10T1900,1622A,116.3032,37.4674,德州市,儿童乐园,,45,44,24,31,15,130,,122,122,18,11,5,5,0.4,0.3
2025-05-10T1900,1624A,116.2991,37.4451,德州市,监理站,,,36,20,31,14,139,,127,127,8,8,,9,0.4,0.4
2025-05-10T1900,3066A,116.2721,37.4379,德州市,九衢泉纯净水厂,,49,46,23,34,16,120,,93,93,19,23,7,6,0.4,0.4
2025-05-10T1900,3371A,116.3728,37.4403,德州市,开发区人民医院,,45,44,22,31,14,131,,119,119,9,6,4,5,0.6,0.6
2025-05-10T1900,3372A,116.3572,37.4094,德州市,太阳城中学,,45,44,23,31,16,142,,130,130,7,6,3,4,0.5,0.3
2025-05-10T1900,3511A,116.5652,37.3319,德州市,陵城艺术中心,,42,41,26,24,12,133,,128,128,14,14,2,4,0.3,0.4
2025-05-10T1900,2621A,99.7056,27.8317,迪庆藏族自治州,迪庆州站,,45,45,35,16,14,106,,100,100,8,9,5,6,0.2,0.2
2025-05-10T1900,3180A,99.7136,27.8094,迪庆藏族自治州,质量技术监督局,,34,29,28,3,9,107,,104,104,8,9,5,5,0.3,0.4
2025-05-10T1900,4257A,104.6092,35.5962,定西市,将台街,,43,29,52,12,23,135,,131,131,8,15,5,4,0.4,0.3
2025-05-10T1900,4309A,104.6159,35.5701,定西市,正龙路62号,,44,20,45,9,20,140,,135,135,2,6,8,6,0.3,0.2
2025-05-10T1900,1389A,113.7547,23.0494,东莞市,莞城梨川,,31,31,27,18,17,80,,96,93,13,22,6,7,0.6,0.5
2025-05-10T1900,1390A,113.7944,23.0128,东莞市,东城石井,,27,27,26,16,14,69,,81,81,12,22,4,5,0.7,0.7
2025-05-10T1900,1391A,113.7383,22.9658,东莞市,南城西平,,30,30,30,14,13,74,,97,97,20,42,3,3,0.6,0.6
2025-05-10T1900,3319A,113.7338,23.0381,东莞市,万江金泰,,28,28,27,18,14,78,,90,90,10,21,5,7,0.8,0.7
2025-05-10T1900,3626A,113.7533,23.0202,东莞市,南城元岭,,26,23,24,13,13,83,,95,95,13,23,5,7,0.6,0.6
2025-05-10T1900,3627A,113.7875,23.0457,东莞市,东城主山,,26,26,26,14,14,76,,86,86,9,21,4,5,0.4,0.5
2025-05-10T1900,1666A,118.6614,37.4309,东营市,市环保局,,37,36,21,17,10,117,,121,121,22,13,7,4,0.4,0.4
2025-05-10T1900,3036A,118.6904,37.4338,东营市,开发区管委会,,38,38,27,19,10,119,,123,123,18,7,7,5,0.4,0.3
2025-05-10T1900,3365A,118.5719,37.565,东营市,垦利区民丰路,,,41,23,27,13,113,,117,117,25,19,,5,1.6,0.8
2025-05-10T1900,3498A,118.5055,37.8612,东营市,河口城区,,34,34,21,15,12,105,,106,106,23,17,9,8,0.7,0.6
2025-05-10T1900,3646A,118.4978,37.4623,东营市,胜利站,,39,39,26,19,15,104,,116,116,20,13,8,8,0.5,0.6
2025-05-10T1900,3734A,118.35,37.26,东营市,理想之城,,36,36,29,17,14,114,,118,118,19,14,4,4,0.4,0.5
2025-05-10T1900,1591A,110.0023,39.8129,鄂尔多斯市,综合楼,,35,14,32,3,13,109,,111,111,12,14,7,7,0.4,0.4
2025-05-10T1900,1592A,109.9486,39.8261,鄂尔多斯市,巴音孟克林场办事处,,36,34,36,9,18,114,,117,117,12,15,6,6,0.3,0.3
2025-05-10T1900,1593A,109.7736,39.5986,鄂尔多斯市,康泽苑,,35,22,29,12,16,110,,113,113,6,7,6,6,0.2,0.2
2025-05-10T1900,1594A,109.8119,39.5989,鄂尔多斯市,华泰汽车城,,35,24,32,9,18,111,,117,117,9,10,5,4,0.1,0.2
2025-05-10T1900,1595A,109.9734,39.7884,鄂尔多斯市,奥林花园,,,27,34,,16,116,,118,118,10,14,2,3,0.5,0.5
2025-05-10T1900,2436A,114.8938,30.3994,鄂州市,市政府,,49,44,50,34,21,93,,110,110,26,17,8,9,1.0,1.2
2025-05-10T1900,2437A,114.8989,30.3714,鄂州市,赵家坝,,45,45,46,27,15,77,,123,119,32,10,6,5,0.7,0.5
2025-05-10T1900,3654A,114.8094,30.4089,鄂州市,精准医疗中心,,46,45,45,32,17,92,,108,108,18,11,5,4,0.5,0.4
2025-05-10T1900,2454A,109.4978,30.2981,恩施土家族苗族自治州,湖北民院,,30,30,44,11,17,79,,79,79,2,8,5,5,0.2,0.3
2025-05-10T1900,2455A,109.4707,30.2798,恩施土家族苗族自治州,州电力总公司,,28,28,33,15,17,64,,65,65,6,12,7,6,0.1,0.1
2025-05-10T1900,3549A,109.5061,30.3772,恩施土家族苗族自治州,龙凤新区,,28,27,38,13,16,87,,87,87,4,7,6,6,0.5,0.5
2025-05-10T1900,2499A,108.3411,21.6158,防城港市,沙万,,26,26,29,18,13,59,,67,67,20,18,2,3,0.8,0.9
2025-05-10T1900,2500A,108.3514,21.7731,防城港市,防城档案局,,37,37,57,25,18,55,,68,67,18,25,1,2,0.6,0.6
2025-05-10T1900,2501A,108.3506,21.6414,防城港市,大海花园,,38,37,29,26,17,51,,76,74,30,15,6,4,1.9,0.8
2025-05-10T1900,1371A,113.1294,23.0067,佛山市,湾梁,,25,14,31,9,14,78,,74,74,18,31,7,8,0.7,0.7
2025-05-10T1900,1372A,113.1083,23.0478,佛山市,华材职中,,23,22,33,13,18,73,,70,70,20,42,4,6,0.5,0.6
2025-05-10T1900,1373A,113.144,23.0453,佛山市,南海气象局,,23,16,30,16,17,72,,68,68,17,34,1,2,0.5,0.5
2025-05-10T1900,1374A,113.2881,22.8094,佛山市,顺德苏岗,,22,22,33,12,17,55,,72,72,20,35,6,6,0.6,0.7
2025-05-10T1900,1376A,112.8383,22.8678,佛山市,高明孔堂,,24,13,42,13,21,76,,77,77,20,25,5,8,0.6,0.7
2025-05-10T1900,1377A,112.8836,23.1588,佛山市,三水监测站,,27,27,36,10,18,34,,51,50,53,47,4,6,0.6,0.6
2025-05-10T1900,1378A,112.867,23.185,佛山市,三水云东海,,49,49,46,22,23,36,,52,50,56,37,1,3,0.7,0.7
2025-05-10T1900,3625A,113.2544,22.7642,佛山市,容桂街道办,,21,,32,14,22,67,,85,85,21,41,4,6,0.7,0.8
2025-05-10T1900,1282A,119.2681,26.0504,福州市,师大,,40,28,24,12,10,128,,137,137,12,18,4,4,0.3,0.3
2025-05-10T1900,1283A,119.2984,26.1028,福州市,五四北路,,40,27,28,14,12,128,,136,136,11,22,4,4,0.5,0.5
2025-05-10T1900,1284A,119.2648,26.0768,福州市,杨桥西路,,42,41,29,14,11,132,,138,138,7,14,4,4,0.4,0.4
2025-05-10T1900,1285A,119.317,26.0746,福州市,紫阳,,38,35,30,18,12,120,,131,131,16,20,6,6,0.4,0.4
2025-05-10T1900,3048A,119.5799,26.0936,福州市,九龙,,43,25,22,7,7,136,,123,123,5,12,4,4,0.3,0.3
2025-05-10T1900,3526A,119.5189,25.9664,福州市,吴航,,42,25,28,13,15,132,,134,134,9,18,4,4,0.4,0.5
2025-05-10T1900,1755A,123.7977,41.8491,抚顺市,望花区,,45,45,37,16,22,126,,132,132,15,14,3,5,0.4,0.5
2025-05-10T1900,1756A,123.9161,41.8822,抚顺市,顺城区,,43,43,38,17,20,115,,123,123,20,14,6,6,0.5,0.5
2025-05-10T1900,1757A,124.0436,41.8611,抚顺市,东洲区,,,37,32,15,21,110,,117,117,,12,5,5,0.4,0.5
2025-05-10T1900,1758A,123.9247,41.8642,抚顺市,新抚区,,40,40,32,18,17,112,,115,115,11,9,6,7,0.4,0.5
2025-05-10T1900,1759A,124.0972,41.8961,抚顺市,大伙房水库,,39,39,31,18,25,120,,125,125,12,8,10,9,0.5,0.6
2025-05-10T1900,1760A,123.7086,41.8391,抚顺市,沈抚新城,,38,38,30,15,18,120,,126,126,13,13,6,6,0.4,0.5
2025-05-10T1900,2376A,116.2127,28.0814,抚州市,桐源党溪,,40,40,40,19,16,107,,122,121,3,2,6,6,0.3,0.4
2025-05-10T1900,2377A,116.3544,27.9831,抚州市,市站,,40,40,42,18,18,92,,99,99,6,12,2,2,0.2,0.4
2025-05-10T1900,2378A,116.3565,27.963,抚州市,血防站,,,53,51,14,17,96,,104,104,,17,3,3,0,0.3
2025-05-10T1900,2379A,116.3564,28.0007,抚州市,采茶剧团,,41,41,43,18,17,89,,97,97,2,8,1,3,0.8,0.9
2025-05-10T1900,2380A,116.385,27.9647,抚州市,医学分院,,48,48,43,18,15,96,,104,104,2,5,9,6,1.0,1.1
2025-05-10T1900,2207A,121.6094,41.998,阜新市,工业园区,,35,26,40,9,17,111,,123,121,11,10,8,8,0.3,0.4
2025-05-10T1900,2208A,121.6697,42.0279,阜新市,长青街,,32,13,22,11,18,102,,118,115,11,10,6,7,0.3,0.5
2025-05-10T1900,2209A,121.6673,42.0705,阜新市,农业园区,,31,22,32,3,17,98,,116,113,8,9,6,7,0.3,0.8
2025-05-10T1900,2210A,121.6717,42.0224,阜新市,东苑,,36,24,39,12,18,113,,129,127,11,8,6,7,0.4,0.5
2025-05-10T1900,2211A,121.6506,42.0498,阜新市,玉龙新城,,30,29,34,9,14,94,,120,116,22,12,8,8,0.4,0.5
2025-05-10T1900,2301A,115.8277,32.8929,阜阳市,市监测站,,35,31,31,20,20,111,,111,111,14,9,8,7,0.1,0.1
2025-05-10T1900,2303A,115.8554,32.8605,阜阳市,开发区,,41,41,41,15,13,123,,120,120,11,9,7,6,0.2,0.2
2025-05-10T1900,2875A,115.784,32.8892,阜阳市,阜阳职业技术学院,,40,18,32,15,13,126,,123,123,13,9,7,5,0.3,0.3
2025-05-10T1900,3468A,115.7901,32.8613,阜阳市,市规划展馆,,41,30,31,20,14,131,,126,126,7,5,7,7,0.2,0.2
2025-05-10T1900,3469A,115.836,32.9183,阜阳市,枣园社区,,38,33,39,19,13,120,,119,119,11,8,5,5,0.5,0.4
2025-05-10T1900,2669A,102.9099,34.9841,甘南藏族自治州,州政府,,37,20,43,15,21,116,,113,113,2,6,6,6,0.2,0.2
2025-05-10T1900,3380A,102.8914,34.9617,甘南藏族自治州,甘肃民族师范学院,,46,18,46,7,13,145,,139,139,2,9,7,9,0.3,0.3
2025-05-10T1900,2570A,101.9603,30.0475,甘孜藏族自治州,水桥子,颗粒物(PM10),61,72,51,15,17,93,,94,94,7,11,5,4,0.2,0.2
2025-05-10T1900,3065A,101.9533,29.9972,甘孜藏族自治州,州环保局,颗粒物(PM10),58,66,49,12,13,87,,91,91,10,11,1,1,0.1,0.1
2025-05-10T1900,3414A,115.8347,28.932,赣江新区,桑海产业园,,39,39,50,16,18,106,,117,116,10,20,2,1,0.3,0.4
2025-05-10T1900,2363A,114.9367,25.8664,赣州市,地委,颗粒物(PM10),51,51,37,14,18,116,,114,114,7,8,1,8,0.2,0.4
2025-05-10T1900,2364A,114.9461,25.8481,赣州市,气象台,颗粒物(PM10),52,53,46,18,16,112,,113,113,13,14,8,14,0.3,0.5
2025-05-10T1900,2365A,114.9322,25.8333,赣州市,市图书馆,,44,44,37,18,17,121,,119,119,8,9,5,7,0.4,0.5
2025-05-10T1900,2366A,114.8905,25.8471,赣州市,华坚鞋城,颗粒物(PM10),52,53,38,20,14,123,,117,117,8,11,5,6,0.2,0.4
2025-05-10T1900,3109A,115.0093,25.8613,赣州市,赣县区卫计委,,45,45,33,31,17,109,,105,105,5,10,3,3,0.4,0.5
2025-05-10T1900,2683A,106.2319,36.1417,固原市,马园,,35,24,76,3,34,112,,117,117,17,23,5,5,0.5,0.5
2025-05-10T1900,2684A,106.2792,36.0022,固原市,监测站,,38,25,63,10,31,119,,118,118,7,16,5,6,0.4,0.4
2025-05-10T1900,2685A,106.2375,36.0211,固原市,新区,,35,18,65,10,32,111,,110,110,5,22,5,6,0.0,0.1
2025-05-10T1900,3522A,106.2177,35.9959,固原市,原州区十五小,,38,22,83,9,29,120,,118,118,5,10,8,8,0.1,0.2
2025-05-10T1900,2544A,106.6303,30.4576,广安市,市委,颗粒物(PM10),62,73,121,38,42,119,,114,114,8,12,4,5,0.3,0.3
2025-05-10T1900,2545A,106.6271,30.4663,广安市,友谊中学,颗粒物(PM10),58,65,99,28,38,125,,120,120,14,17,4,5,0.4,0.4
2025-05-10T1900,2547A,106.6388,30.4551,广安市,广电花园,颗粒物(PM10),60,70,103,34,41,120,,114,114,11,14,4,5,0.4,0.4
2025-05-10T1900,2902A,106.6351,30.4865,广安市,北辰小学,颗粒物(PM10),58,65,107,29,37,126,,121,121,11,14,5,6,0.4,0.4
2025-05-10T1900,2523A,105.8945,32.4535,广元市,黑石坡,,44,44,56,3,13,115,,112,112,5,10,4,3,0.4,0.4
2025-05-10T1900,2524A,105.821,32.4444,广元市,老城,,,,64,4,20,122,,120,120,3,27,1,2,0.5,0.6
2025-05-10T1900,2526A,105.8628,32.4287,广元市,监测站,,38,31,52,3,18,121,,119,119,6,15,7,4,0.3,0.4
2025-05-10T1900,3617A,105.8047,32.4166,广元市,经开区,,42,42,75,20,31,122,,121,121,7,30,7,6,0.4,0.6
2025-05-10T1900,1345A,113.2347,23.1423,广州市,广雅中学,,,31,34,12,14,66,,68,68,,41,,4,0.5,0.5
2025-05-10T1900,1346A,113.2612,23.105,广州市,市五中,,26,26,27,15,15,69,,70,70,15,29,1,2,0.9,0.9
2025-05-10T1900,1348A,113.3478,23.0916,广州市,广东商学院,,23,21,25,16,16,73,,73,73,18,30,3,4,0.6,0.6
2025-05-10T1900,1349A,113.4332,23.1047,广州市,市八十六中,,27,27,31,10,13,65,,73,73,33,39,2,2,0.6,0.6
2025-05-10T1900,1350A,113.3505,22.9483,广州市,番禺中学,,25,17,32,13,19,78,,75,75,15,39,4,5,0.5,0.6
2025-05-10T1900,1351A,113.2146,23.3916,广州市,花都师范,,33,33,30,21,16,49,,79,71,34,22,4,5,0.7,0.6
2025-05-10T1900,1352A,113.2597,23.1331,广州市,市监测站,,24,24,33,12,16,71,,69,69,16,40,4,5,0.2,0.3
2025-05-10T1900,1353A,113.5618,23.312,广州市,九龙镇镇龙,,23,12,24,9,14,73,,70,70,13,21,5,5,0.4,0.4
2025-05-10T1900,1354A,113.2765,23.1544,广州市,麓湖,,22,22,26,12,16,66,,62,62,12,29,4,4,0.6,0.6
2025-05-10T1900,1355A,113.443,23.3035,广州市,帽峰山森林公园,,24,8,13,7,5,76,,70,70,6,6,4,5,0.7,0.6
2025-05-10T1900,2846A,113.3221,23.1322,广州市,体育西,,30,30,27,20,15,64,,71,71,19,31,4,4,0.6,0.5
2025-05-10T1900,3298A,113.5717,23.5491,广州市,从化街口,,27,26,32,15,18,84,,74,74,10,22,6,7,0.5,0.6
2025-05-10T1900,3299A,113.3472,23.3692,广州市,白云竹料,,29,29,36,17,19,73,,79,78,14,23,2,3,0.6,0.6
2025-05-10T1900,3300A,113.2981,23.237,广州市,白云嘉禾,,30,30,37,17,19,60,,67,67,30,39,6,6,0.8,0.8
2025-05-10T1900,3301A,113.4256,23.1716,广州市,黄埔科学城,,23,16,25,10,13,73,,64,64,14,18,2,2,0.5,0.5
2025-05-10T1900,3302A,113.3942,23.0483,广州市,番禺大学城,,,20,25,10,13,75,,78,78,23,38,,4,0.6,0.7
2025-05-10T1900,3303A,113.4922,22.8168,广州市,南沙黄阁,,19,15,45,12,23,58,,98,98,25,45,5,6,0.8,0.8
2025-05-10T1900,3304A,113.5342,22.7896,广州市,南沙街,,26,26,41,12,22,64,,109,109,26,40,4,4,0.7,0.7
2025-05-10T1900,3443A,113.2902,23.5544,广州市,花都梯面,,27,27,24,18,14,72,,72,70,9,15,5,5,0.7,0.6
2025-05-10T1900,3445A,113.7858,23.7478,广州市,从化良口,,28,28,23,15,10,71,,79,77,9,10,6,6,0.6,0.5
2025-05-10T1900,3446A,113.8051,23.2614,广州市,增城荔城,,30,30,22,13,9,84,,81,81,7,9,7,8,0.5,0.4
2025-05-10T1900,2506A,109.6047,23.0666,贵港市,江南子站,,30,24,27,15,16,95,,87,87,8,16,2,6,0.6,0.7
2025-05-10T1900,2508A,109.5669,23.1065,贵港市,荷城子站,,28,25,26,17,12,89,,73,73,11,14,4,6,0.3,0.3
2025-05-10T1900,3405A,109.5886,23.1172,贵港市,新世纪学校,,29,24,25,20,16,88,,75,75,7,10,1,2,0.9,0.9
2025-05-10T1900,4260A,109.5933,23.0951,贵港市,中山路155-3号,,32,30,31,19,16,100,,88,88,10,15,3,6,0.6,0.7
2025-05-10T1900,1439A,106.6899,26.5998,贵阳市,马鞍山,,,7,18,,6,71,,82,74,7,8,3,3,0.3,0.4
2025-05-10T1900,1441A,106.6243,26.6266,贵阳市,鉴湖路,,21,17,28,3,10,67,,79,73,7,10,3,4,0.3,0.3
2025-05-10T1900,1442A,106.7487,26.6343,贵阳市,燕子冲,,28,14,25,14,18,89,,93,87,8,10,14,7,0.2,0.2
2025-05-10T1900,1443A,106.6555,26.4365,贵阳市,碧云窝,,30,14,29,3,12,93,,94,88,9,14,4,4,0.1,0.2
2025-05-10T1900,1445A,106.7109,26.6027,贵阳市,红边门,,29,9,24,7,16,91,,97,90,6,8,7,9,0.0,0.1
2025-05-10T1900,1446A,106.7164,26.5699,贵阳市,新华路,,28,9,27,3,11,88,,87,83,6,10,1,5,0.2,0.3
2025-05-10T1900,1447A,106.674,26.5424,贵阳市,太慈桥,,25,9,22,3,10,79,,86,78,12,17,4,5,0.2,0.2
2025-05-10T1900,4230A,106.6882,26.5695,贵阳市,花果园大街66号,,28,,23,11,17,88,,88,81,3,4,3,4,0.1,0.2
2025-05-10T1900,4231A,106.6873,26.5169,贵阳市,漓江路57号,,28,7,22,7,13,88,,90,83,8,11,7,8,0.3,0.3
2025-05-10T1900,1864A,110.3089,25.2708,桂林市,龙隐路小学,,42,42,43,16,15,113,,124,123,7,7,9,9,0.4,0.4
2025-05-10T1900,1865A,110.2869,25.2178,桂林市,八中,,42,42,46,18,16,104,,112,111,11,13,2,4,0.4,0.5
2025-05-10T1900,3531A,110.296,25.1253,桂林市,旅游学院,,35,31,37,19,19,109,,113,113,6,9,2,3,0.6,0.6
2025-05-10T1900,4222A,110.1835,25.2444,桂林市,环湖路276号,颗粒物(PM10),52,53,52,29,25,88,,91,90,8,9,8,12,0.3,0.4
2025-05-10T1900,4301A,110.2803,25.2773,桂林市,信义路13号,,47,47,46,10,15,104,,120,118,11,11,3,3,0.3,0.4
2025-05-10T1900,2674A,100.2561,34.4714,果洛藏族自治州,玛沁县大武镇,,37,17,33,8,14,118,,122,122,2,2,25,22,0.3,0.4
2025-05-10T1900,1129A,126.5422,45.755,哈尔滨市,岭北,,,36,21,20,12,117,,126,126,18,16,,3,0,0.3
2025-05-10T1900,1130A,126.561,45.8167,哈尔滨市,松北商大,,38,38,20,22,13,92,,117,115,20,14,7,7,0.6,0.6
2025-05-10T1900,1131A,126.979,45.5419,哈尔滨市,阿城会宁,,44,44,22,30,13,104,,116,116,20,13,8,6,0.6,0.5
2025-05-10T1900,1132A,126.599,45.7222,哈尔滨市,南岗学府路,,39,39,25,23,9,112,,120,120,13,12,5,5,0.5,0.5
2025-05-10T1900,1133A,126.689,45.7733,哈尔滨市,太平宏伟公园,细颗粒物(PM2.5),55,44,26,39,15,118,,121,121,16,15,4,4,0.6,0.5
2025-05-10T1900,1134A,126.635,45.7667,哈尔滨市,道外承德广场,,36,36,27,24,17,115,,115,115,12,14,6,6,0.3,0.3
2025-05-10T1900,1135A,126.685,45.7319,哈尔滨市,香坊红旗大街,,46,41,21,32,15,118,,120,120,12,13,10,9,0.7,0.6
2025-05-10T1900,1136A,126.6411,45.7258,哈尔滨市,动力和平路,,43,36,22,30,14,110,,114,114,13,10,7,6,0.5,0.4
2025-05-10T1900,1137A,126.593,45.7478,哈尔滨市,道里建国路,,35,,22,24,14,101,,117,117,22,13,4,4,0.4,0.4
2025-05-10T1900,1138A,126.615,45.61,哈尔滨市,平房东轻厂,,29,24,24,15,12,92,,124,123,39,20,6,7,0.5,0.5
2025-05-10T1900,1139A,126.595,45.9855,哈尔滨市,呼兰师专,,35,32,22,18,16,109,,111,111,12,18,8,9,0.5,0.6
2025-05-10T1900,1140A,126.6206,45.6842,哈尔滨市,省农科院,,47,47,27,27,14,101,,116,116,20,15,7,8,0.7,0.7
2025-05-10T1900,2688A,93.5128,42.8172,哈密市,地区监测站,,37,33,42,16,21,116,,109,109,10,27,3,4,0.0,0
2025-05-10T1900,2689A,93.4961,42.8328,哈密市,哈密师范学校,,39,24,37,3,15,124,,125,125,14,30,4,5,0,0.4
2025-05-10T1900,2671A,100.9048,36.9639,海北藏族自治州,海晏县西海镇,,40,,16,6,11,128,,127,127,1,5,9,9,0.4,0.4
2025-05-10T1900,3867A,102.0738,36.5056,海东市,平安区公安北苑,,44,22,40,3,13,138,,130,130,4,7,4,8,0.5,0.6
2025-05-10T1900,1409A,110.576,19.9507,海口市,东寨港,,,8,12,7,8,68,,69,69,3,3,3,7,,
2025-05-10T1900,1410A,110.3232,20.0574,海口市,海南大学,,30,22,22,6,9,94,,84,84,4,6,3,3,0.3,0.4
2025-05-10T1900,1411A,110.283,20.0053,海口市,秀英海南医院,,28,16,23,8,12,88,,79,79,6,6,4,4,0.3,0.3
2025-05-10T1900,1412A,110.338,19.9969,海口市,海南师范大学,,28,19,23,6,10,87,,83,83,7,6,3,3,0.3,0.4
2025-05-10T1900,1413A,110.33,20.0356,海口市,龙华路环保局宿舍,,29,22,23,6,10,92,,85,85,7,7,4,4,0.2,0.2
2025-05-10T1900,3539A,110.5111,19.9736,海口市,桂林洋子站,,24,16,21,8,9,75,,76,76,6,6,4,4,0.2,0.3
2025-05-10T1900,2673A,100.6188,36.2866,海南藏族自治州,共和县恰卜恰镇,,45,21,27,3,8,144,,146,146,4,5,13,12,0.4,0.4
2025-05-10T1900,2676A,97.3731,37.3753,海西蒙古族藏族自治州,德令哈市,,40,27,29,10,12,125,,129,129,2,2,8,8,0.4,0.4
2025-05-10T1900,1048A,114.5302,36.6116,邯郸市,东污水处理厂,,38,38,15,14,8,104,,100,100,16,9,2,3,0.3,0.3
2025-05-10T1900,1049A,114.4918,36.5713,邯郸市,矿院,,40,40,19,24,9,104,,100,100,11,10,3,3,0.3,0.3
2025-05-10T1900,1050A,114.484,36.6133,邯郸市,丛台公园,,41,41,19,23,10,114,,110,110,13,9,2,6,0.4,0.4
2025-05-10T1900,3458A,114.7895,36.5593,邯郸市,香泉濮院小区,,39,39,23,15,8,110,,103,103,11,11,4,3,0.3,0.3
2025-05-10T1900,3579A,114.50634,36.77178,邯郸市,永年区实验高中,细颗粒物(PM2.5),54,55,28,38,16,102,,94,94,6,4,4,4,0.3,0.3
2025-05-10T1900,3580A,114.20016,36.44293,邯郸市,峰峰矿区临水派出所,,36,30,23,19,8,114,,109,109,13,10,1,3,0.4,0.5
2025-05-10T1900,2634A,106.9893,33.1842,汉中市,汉川机床厂子校,颗粒物(PM10),51,52,45,34,26,132,,135,135,5,7,8,8,0.6,0.7
2025-05-10T1900,2635A,107.0154,33.0706,汉中市,市监测站,,43,43,50,19,24,118,,122,122,4,10,5,9,0.2,0.3
2025-05-10T1900,2636A,107.0089,33.1138,汉中市,鑫源开发区,,44,44,46,20,24,122,,126,126,7,12,5,9,0.3,0.5
2025-05-10T1900,2637A,107.007,33.0323,汉中市,南郑大河坎水厂,,40,35,43,22,22,128,,132,132,8,14,6,6,0.3,0.4
2025-05-10T1900,1223A,120.2072,30.2111,杭州市,滨江,,38,31,30,12,13,120,,128,128,16,29,6,6,0.4,0.4
2025-05-10T1900,1224A,120.0633,30.2747,杭州市,西溪,,35,20,16,3,9,109,,115,115,9,16,5,4,0.3,0.4
2025-05-10T1900,1226A,120.3417,30.3150,杭州市,下沙,,36,27,32,11,16,113,,127,126,18,40,7,6,0.4,0.5
2025-05-10T1900,1227A,120.1269,30.2456,杭州市,卧龙桥,,36,22,20,12,10,115,,125,125,8,10,7,6,0.5,0.5
2025-05-10T1900,1228A,120.1903,30.2692,杭州市,浙江农大,,35,31,35,21,21,110,,115,115,13,33,9,8,0.4,0.5
2025-05-10T1900,1230A,120.1197,30.3119,杭州市,和睦小学,,36,27,29,8,13,113,,121,121,9,24,8,7,0.2,0.3
2025-05-10T1900,1231A,120.3019,30.4183,杭州市,临平镇,,36,29,32,9,15,114,,126,126,14,24,5,6,0.3,0.4
2025-05-10T1900,1232A,120.2753,30.1839,杭州市,城厢镇,,34,25,34,14,15,108,,124,123,14,25,7,7,0.3,0.4
2025-05-10T1900,1233A,120.0883,30.1808,杭州市,云栖,,37,30,21,11,8,116,,125,125,14,17,5,5,0.5,0.6
2025-05-10T1900,3557A,119.9464,30.0494,杭州市,镇二中,,,26,23,3,8,,,79,79,12,21,3,3,0.4,0.6
2025-05-10T1900,3558A,119.7183,30.2367,杭州市,市府大楼,,36,21,25,13,14,115,,122,122,10,14,8,7,0.4,0.5
2025-05-10T1900,3656A,120.1556,30.2864,杭州市,消防大队,,35,24,24,13,13,111,,123,123,18,23,4,4,0.5,0.6
2025-05-10T1900,1270A,117.1959,31.7848,合肥市,明珠广场,,31,24,38,7,10,98,,102,102,20,17,5,5,0.4,0.3
2025-05-10T1900,1271A,117.3072,31.8764,合肥市,三里街,,32,22,36,14,12,101,,99,99,12,11,4,4,0.5,0.4
2025-05-10T1900,1272A,117.2588,31.8707,合肥市,琥珀山庄,,31,22,40,14,14,99,,102,102,15,12,4,4,0.5,0.4
2025-05-10T1900,1273A,117.1604,31.9052,合肥市,董铺水库,,32,17,39,3,8,102,,102,102,11,8,3,2,0.4,0.3
2025-05-10T1900,1274A,117.25,31.8571,合肥市,长江中路,,34,19,41,14,14,106,,104,104,12,11,5,5,0.5,0.4
2025-05-10T1900,1275A,117.266,31.9436,合肥市,庐阳区,,33,22,37,9,11,104,,104,104,8,7,6,6,0.4,0.4
2025-05-10T1900,1276A,117.3453,31.8616,合肥市,瑶海区,,32,24,41,10,9,100,,96,96,10,11,5,6,0.3,0.3
2025-05-10T1900,1277A,117.3027,31.7964,合肥市,包河区,,32,19,42,12,13,100,,100,100,19,19,6,6,0.5,0.4
2025-05-10T1900,1278A,117.2776,31.7385,合肥市,滨湖新区,,31,27,41,9,16,97,,99,99,17,17,6,7,0.6,0.5
2025-05-10T1900,1279A,117.1318,31.8403,合肥市,高新区,,34,31,39,8,9,106,,106,106,11,9,2,2,0.4,0.4
2025-05-10T1900,3464A,117.3803,31.9147,合肥市,高教基地,,29,29,40,16,13,90,,96,96,25,16,5,5,0.3,0.3
2025-05-10T1900,3614A,79.924,37.0877,和田地区,地区环保局,颗粒物(PM10),500,806,1093,245,313,51,,57,53,14,10,1,2,0.2,0.2
2025-05-10T1900,3615A,79.9131,37.113,和田地区,市环保局,颗粒物(PM10),500,682,985,203,258,60,,62,59,16,10,3,2,0.3,0.2
2025-05-10T1900,2517A,108.0497,24.6947,河池市,市环保站,,24,14,27,3,14,76,,66,66,6,14,6,6,0.5,0.6
2025-05-10T1900,2518A,108.0983,24.6989,河池市,市疾控中心,,21,11,33,3,18,66,,54,54,8,21,8,8,0.5,0.7
2025-05-10T1900,1696A,114.6778,23.7569,河源市,源西,,29,23,25,17,16,91,,80,80,8,10,4,4,0.7,0.7
2025-05-10T1900,1697A,114.6944,23.7586,河源市,东埔,,34,30,25,16,15,107,,94,94,10,13,4,5,0.3,0.4
2025-05-10T1900,1698A,114.6892,23.7233,河源市,老城,,30,21,25,11,12,94,,84,84,9,15,3,4,0.4,0.5
2025-05-10T1900,1718A,115.4208,35.2464,菏泽市,气象局,细颗粒物(PM2.5),52,40,26,36,14,123,,125,125,13,8,1,2,0.3,0.4
2025-05-10T1900,3374A,115.5564,35.0891,菏泽市,定陶老年大学,,39,36,18,24,6,124,,124,124,10,9,3,3,0.3,0.4
2025-05-10T1900,4184A,115.4797,35.24401,菏泽市,永昌路1号,,43,42,23,30,16,124,,122,122,9,8,4,4,0.2,0.2
2025-05-10T1900,4193A,115.4715,35.2800,菏泽市,长城路999号,,39,39,20,20,7,114,,119,119,18,11,5,5,0.2,0.3
2025-05-10T1900,2514A,111.5264,24.4172,贺州市,环保小区,颗粒物(PM10),63,76,48,37,22,99,,91,91,14,16,6,6,0.7,0.9
2025-05-10T1900,2515A,111.5608,24.4078,贺州市,政协大楼,,,80,42,37,22,94,,93,92,19,16,,9,0.5,0.7
2025-05-10T1900,3534A,111.4744,24.4553,贺州市,西湾,颗粒物(PM10),51,51,38,19,17,111,,97,97,8,14,10,9,0.5,0.7
2025-05-10T1900,2385A,114.17,35.9019,鹤壁市,市监测站,,42,42,28,29,18,124,,133,133,13,9,3,3,0.3,0.4
2025-05-10T1900,2386A,114.2956,35.7511,鹤壁市,市交警支队,颗粒物(PM10),53,55,31,14,12,132,,131,131,13,15,5,6,0.5,0.5
2025-05-10T1900,2387A,114.2878,35.7306,鹤壁市,迎宾馆,细颗粒物(PM2.5),52,44,31,36,17,134,,135,135,10,7,2,3,0.4,0.5
2025-05-10T1900,3474A,114.2617,35.6822,鹤壁市,大新区,,41,41,32,27,13,105,,127,127,23,18,8,8,0.4,0.5
2025-05-10T1900,3596A,114.1572,35.9603,鹤壁市,南山宾馆,,49,48,25,34,21,131,,139,139,8,5,6,5,0.2,0.2
2025-05-10T1900,2244A,130.2537,47.3416,鹤岗市,哈啤分公司,,35,31,20,24,16,102,,107,107,15,8,15,13,0.4,0.3
2025-05-10T1900,2245A,130.2684,47.3086,鹤岗市,斯达机电,,46,36,22,32,17,106,,111,111,12,11,12,12,0.3,0.4
2025-05-10T1900,2246A,130.3114,47.3388,鹤岗市,东山纸板厂,,48,44,31,33,19,90,,108,106,17,15,14,13,0.4,0.7
2025-05-10T1900,2263A,127.4833,50.2524,黑河市,交通局,颗粒物(PM10),58,65,31,35,17,110,,100,100,13,10,7,7,0.3,0.2
2025-05-10T1900,2264A,127.5144,50.2341,黑河市,环保局,颗粒物(PM10),55,59,35,36,22,114,,104,104,14,15,2,4,0.3,0.3
2025-05-10T1900,2265A,127.5291,50.2472,黑河市,大黑河岛,"颗粒物(PM10),细颗粒物(PM2.5)",53,56,34,37,20,115,,92,92,10,10,2,2,0.3,0.3
2025-05-10T1900,1074A,115.6838,37.7541,衡水市,电机北厂,细颗粒物(PM2.5),72,,24,52,15,131,,126,126,13,7,2,4,0.3,0.2
2025-05-10T1900,1075A,115.6303,37.7316,衡水市,市监测站,细颗粒物(PM2.5),67,53,25,48,12,127,,125,125,6,5,4,5,0.3,0.2
2025-05-10T1900,3188A,115.6683,37.7217,衡水市,市城管局,细颗粒物(PM2.5),54,45,23,38,17,128,,124,124,6,5,2,4,0.4,0.4
2025-05-10T1900,3459A,115.5989,37.5491,衡水市,地表水厂,颗粒物(PM10),52,53,29,30,12,124,,125,125,15,7,6,5,0.3,0.3
2025-05-10T1900,2456A,112.5003,26.9167,衡阳市,原169医院,,42,42,50,23,23,123,,134,134,10,16,6,5,0.5,0.6
2025-05-10T1900,2457A,112.6194,26.9258,衡阳市,衡阳化工总厂,,49,49,68,27,29,101,,118,117,17,11,7,7,0.5,0.4
2025-05-10T1900,2458A,112.6211,26.8956,衡阳市,珠晖区环保局,,45,45,59,27,24,110,,124,124,15,21,9,8,0.4,0.5
2025-05-10T1900,2459A,112.6197,26.8733,衡阳市,市委党校,,47,47,54,18,22,107,,120,119,8,9,5,5,0.3,0.4
2025-05-10T1900,2460A,112.6006,26.8919,衡阳市,市监测站,颗粒物(PM10),51,52,57,24,31,105,,120,119,11,12,9,10,0.4,0.4
2025-05-10T1900,2461A,112.5664,26.9056,衡阳市,真空机电公司,颗粒物(PM10),53,55,56,27,25,107,,119,119,11,13,6,6,0.3,0.5
2025-05-10T1900,3399A,112.6703,26.882,衡阳市,师范学院,,42,42,56,24,30,107,,122,121,11,12,8,9,0.5,0.6
2025-05-10T1900,2608A,103.3772,23.3993,红河哈尼族彝族自治州,污水处理厂,,26,26,37,15,26,79,,100,96,9,7,14,6,0.5,0.5
2025-05-10T1900,2609A,103.3861,23.35,红河哈尼族彝族自治州,监测站,,35,32,37,24,28,82,,106,101,5,5,6,6,0.4,0.4
2025-05-10T1900,3038A,103.3758,23.368,红河哈尼族彝族自治州,州图书馆,,30,,34,21,24,76,,94,90,6,6,4,3,0.3,0.3
2025-05-10T1900,1090A,111.6507,40.7517,呼和浩特市,呼市一监,,36,17,48,3,34,113,,106,106,1,17,6,7,0.4,0.5
2025-05-10T1900,1091A,111.6572,40.8033,呼和浩特市,小召,,35,17,44,3,32,111,,106,106,14,23,6,7,0.4,0.6
2025-05-10T1900,1094A,111.7516,40.8369,呼和浩特市,如意水处理厂,,34,7,44,3,30,106,,102,102,5,25,5,7,0.3,0.4
2025-05-10T1900,1095A,111.7276,40.8062,呼和浩特市,二十九中,,35,13,45,7,35,110,,102,102,3,19,4,4,0.4,0.6
2025-05-10T1900,1096A,111.5512,40.7866,呼和浩特市,工大金川校区,,36,12,36,3,26,113,,106,106,6,22,5,6,0.4,0.5
2025-05-10T1900,1097A,111.717,40.7612,呼和浩特市,化肥厂生活区,,35,11,53,3,34,110,,104,104,10,25,5,6,0.3,0.5
2025-05-10T1900,3698A,111.5968,40.8178,呼和浩特市,红旗小学,,36,14,35,3,28,113,,108,108,11,23,3,4,0.4,0.5
2025-05-10T1900,3699A,111.6518,40.8389,呼和浩特市,海东办,,33,9,36,3,28,104,,100,100,5,18,6,8,0.4,0.5
2025-05-10T1900,2192A,119.7594,49.2261,呼伦贝尔市,区环保局,,32,32,52,22,44,99,,106,106,7,13,5,6,0.3,0.4
2025-05-10T1900,3061A,119.7512,49.1577,呼伦贝尔市,国华电力东,,34,34,52,10,28,98,,105,105,6,11,4,5,0.3,0.3
2025-05-10T1900,1250A,120.0751,30.8669,湖州市,城西水厂,,36,36,36,15,16,92,,115,112,33,32,7,6,0.5,0.4
2025-05-10T1900,2873A,120.0830,30.8929,湖州市,仁皇山新区,,35,35,33,16,17,100,,118,116,23,26,5,4,0.5,0.6
2025-05-10T1900,2907A,120.1844,30.8596,湖州市,吴兴区站,,35,35,33,16,15,107,,119,119,15,21,7,7,0.4,0.4
2025-05-10T1900,3562A,120.4148,30.8538,湖州市,南浔区站,,48,48,44,15,15,107,,121,120,15,16,4,4,0.4,0.4
2025-05-10T1900,1607A,120.9049,40.7211,葫芦岛市,龙港区,,36,36,39,19,15,91,,122,117,31,19,9,10,0.4,0.5
2025-05-10T1900,1608A,120.8392,40.7514,葫芦岛市,化工街,,32,24,35,12,16,102,,122,118,21,19,8,11,0.4,0.4
2025-05-10T1900,1609A,120.8341,40.7073,葫芦岛市,新区,,34,27,33,15,16,108,,126,122,18,17,8,9,0.4,0.5
2025-05-10T1900,1610A,120.8695,40.7677,葫芦岛市,东城区,细颗粒物(PM2.5),62,,43,44,23,100,,121,118,23,14,7,7,0.5,0.5
2025-05-10T1900,2482A,109.5981,27.5721,怀化市,林科所,,26,26,33,7,15,53,,90,79,7,7,3,4,0.2,0.3
2025-05-10T1900,2483A,109.9453,27.5444,怀化市,河西地税局,,23,23,32,16,18,62,,83,77,10,13,4,4,0.5,0.5
2025-05-10T1900,2484A,109.9781,27.5342,怀化市,市四医院,,22,22,31,12,15,70,,86,80,8,13,2,2,0.2,0.3
2025-05-10T1900,2485A,109.9972,27.5578,怀化市,监测楼,,24,24,35,13,18,74,,88,83,8,11,3,2,0.2,0.3
2025-05-10T1900,2486A,110.0394,27.583,怀化市,市委党校,,24,22,34,13,18,75,,80,74,4,13,3,3,0.4,0.5
2025-05-10T1900,1210A,119.036,33.5981,淮安市,钵池山,,29,27,26,15,19,92,,100,100,13,15,8,8,0.5,0.5
2025-05-10T1900,1211A,119.007,33.575,淮安市,北京南路,,34,34,25,15,19,78,,91,90,15,18,7,8,0.5,0.6
2025-05-10T1900,1212A,118.989,33.6067,淮安市,市监测站,,27,27,24,12,19,71,,92,90,26,24,8,8,0.3,0.4
2025-05-10T1900,1213A,119.135,33.5039,淮安市,楚州区监测站,,27,22,25,17,17,85,,95,95,13,16,6,6,0.4,0.5
2025-05-10T1900,3426A,118.8755,33.2894,淮安市,新华书店,,30,25,23,7,12,96,,94,94,11,12,7,7,0.4,0.4
2025-05-10T1900,4206A,119.0288,33.6319,淮安市,承德北路606号,,31,31,30,16,20,85,,96,95,14,20,7,7,0.4,0.5
2025-05-10T1900,2282A,116.8004,33.975,淮北市,监测站,,37,32,28,12,12,116,,115,115,14,9,6,5,0.6,0.5
2025-05-10T1900,2283A,116.8091,33.9007,淮北市,烈山区政府,,36,,16,16,14,115,,115,115,11,9,4,3,0.6,0.6
2025-05-10T1900,3330A,116.8873,33.9836,淮北市,杜集区检察院,,39,39,35,14,14,114,,112,112,13,11,6,6,0.6,0.7
2025-05-10T1900,4017A,116.7923,33.9535,淮北市,市博物馆,,36,31,27,16,14,114,,116,116,14,12,6,4,0.5,0.5
2025-05-10T1900,2277A,116.8305,32.7727,淮南市,潘集区政府,,38,38,58,20,21,95,,101,101,18,12,3,2,0.3,0.3
2025-05-10T1900,2279A,116.8569,32.5951,淮南市,谢家集区政府,,28,20,41,16,16,87,,93,93,20,11,4,4,0.2,0.2
2025-05-10T1900,2280A,116.8281,32.633,淮南市,八公山区政府,,33,33,49,16,17,97,,96,96,10,8,5,4,0.3,0.2
2025-05-10T1900,2894A,117.0566,32.6531,淮南市,经济技术开发区消防队,,42,42,50,17,23,100,,92,92,12,11,5,5,0.3,0.3
2025-05-10T1900,3329A,117.0108,32.5893,淮南市,山南新区,,31,28,45,3,11,97,,98,98,13,11,7,7,0.3,0.2
2025-05-10T1900,4209A,117.0031,32.6445,淮南市,国庆中路369号,,45,45,48,16,19,85,,85,85,12,8,7,8,0.4,0.3
2025-05-10T1900,2929A,114.8858,30.4519,黄冈市,红卫路,,39,39,39,21,18,106,,116,116,11,6,7,5,0.4,0.4
2025-05-10T1900,3398A,114.9136,30.4445,黄冈市,市林业局,,39,39,39,16,17,104,,112,112,14,8,10,7,0.9,0.8
2025-05-10T1900,2672A,102.0199,35.5102,黄南藏族自治州,同仁县隆务镇,,41,25,36,3,15,131,,125,125,2,3,4,4,0.1,0.2
2025-05-10T1900,2295A,118.2903,29.6963,黄山市,延安路89号,,34,32,33,14,18,107,,118,117,6,7,6,6,0.2,0.4
2025-05-10T1900,2297A,118.1371,30.2756,黄山市,黄山区政府5号楼,,32,13,33,13,15,102,,112,111,6,5,4,4,0.3,0.4
2025-05-10T1900,4210A,118.3354,29.7203,黄山市,滨江东路7-2号,,36,36,40,22,16,105,,118,117,7,8,5,5,0.4,0.5
2025-05-10T1900,2423A,115.0601,30.2313,黄石市,沈家营,,38,38,45,23,15,88,,105,103,19,8,9,7,0.6,0.5
2025-05-10T1900,2426A,114.8988,30.2019,黄石市,铁山,,45,45,60,24,20,73,,98,92,19,17,8,5,0.5,0.5
2025-05-10T1900,2427A,115.0307,30.2092,黄石市,团城山,,38,38,46,21,12,83,,100,98,19,10,8,7,0.5,0.5
2025-05-10T1900,3149A,115.0235,30.1578,黄石市,笔架山北路,,42,42,41,27,16,81,,106,101,27,15,9,7,0.7,0.6
2025-05-10T1900,4185A,115.0780,30.21118,黄石市,磁湖东路29号,,47,47,45,28,19,96,,110,109,18,12,7,7,0.8,0.6
2025-05-10T1900,1392A,114.4183,23.0528,惠州市,河南岸金山湖子站,,29,29,27,18,15,58,,60,56,16,19,9,9,0.6,0.5
2025-05-10T1900,1393A,114.4053,23.0822,惠州市,下埔横江三路子站,,35,35,30,19,14,59,,68,67,17,19,8,8,0.6,0.6
2025-05-10T1900,1394A,114.4103,23.1142,惠州市,江北云山西路子站,,32,32,28,17,13,67,,71,71,13,20,10,11,0.6,0.6
2025-05-10T1900,1395A,114.4645,22.7833,惠州市,惠阳区承修路船湖子站,,25,25,33,15,16,66,,79,79,16,18,7,9,0.7,0.7
2025-05-10T1900,1396A,114.5317,22.7422,惠州市,大亚湾管委会子站,,23,19,24,11,12,73,,88,88,12,14,8,11,0.5,0.5
2025-05-10T1900,3314A,114.4338,22.8134,惠州市,惠阳秋长,,23,17,27,16,14,56,,83,82,23,18,10,11,0.5,0.4
2025-05-10T1900,3452A,114.6517,22.775,惠州市,大亚湾霞涌,,25,25,20,10,9,79,,81,81,12,11,8,8,0.6,0.5
2025-05-10T1900,2240A,130.9762,45.3001,鸡西市,环保局,,35,23,14,9,8,110,,98,98,12,10,5,5,0.4,0.4
2025-05-10T1900,2243A,130.9429,45.3039,鸡西市,第一中学,,34,25,11,14,7,107,,98,98,10,6,6,6,0.4,0.4
2025-05-10T1900,3709A,130.9967,45.3106,鸡西市,市政设施管理处,,32,26,14,19,7,102,,96,96,12,9,7,7,0.5,0.5
2025-05-10T1900,2367A,114.9754,27.0803,吉安市,红声器材厂,,41,41,44,16,19,113,,127,127,9,12,11,12,0.4,0.5
2025-05-10T1900,2368A,114.9658,27.0999,吉安市,市森林工业局,,38,38,42,15,19,111,,123,123,5,9,9,10,0.2,0.4
2025-05-10T1900,2369A,114.99,27.1312,吉安市,市环境监测站,,41,41,38,21,19,107,,126,126,5,6,10,16,0.3,0.5
2025-05-10T1900,2370A,115.0093,27.0968,吉安市,青原区法院,,39,39,42,14,20,120,,136,136,7,13,10,12,0.2,0.4
2025-05-10T1900,1772A,126.54,43.8622,吉林市,哈达湾,,44,44,26,21,17,104,,109,109,17,12,12,7,0.4,0.4
2025-05-10T1900,1773A,126.5844,43.8358,吉林市,东局子,,35,28,21,24,16,93,,103,103,22,12,7,6,0.4,0.4
2025-05-10T1900,1774A,126.5052,43.8245,吉林市,电力学院,,33,27,27,19,19,104,,107,107,15,12,14,8,0.5,0.7
2025-05-10T1900,1775A,126.6133,43.8972,吉林市,江北,颗粒物(PM10),57,64,42,32,15,86,,102,102,19,11,24,7,0.5,0.4
2025-05-10T1900,1776A,126.555,43.8306,吉林市,江南公园,,30,29,23,21,17,95,,102,102,19,11,8,6,0.3,0.3
2025-05-10T1900,2868A,126.4739,43.953,吉林市,九站,细颗粒物(PM2.5),59,60,29,42,21,55,,103,99,78,21,20,16,0.4,0.4
2025-05-10T1900,1299A,116.9862,36.6114,济南市,科干所,,37,22,17,20,13,116,,113,113,16,12,3,2,0.1,0.2
2025-05-10T1900,1300A,116.9376,36.665,济南市,农科所,,35,24,21,17,14,112,,110,110,10,10,6,6,0.3,0.2
2025-05-10T1900,1301A,117.1265,36.6734,济南市,开发区,,38,32,22,22,17,119,,116,116,11,10,6,6,0.5,0.5
2025-05-10T1900,1303A,117.0624,36.6868,济南市,省种子仓库,,44,44,32,14,11,117,,115,115,9,8,4,3,0.3,0.3
2025-05-10T1900,1304A,116.9489,36.6447,济南市,机床二厂,,37,34,21,12,10,117,,110,110,17,14,7,7,0.4,0.4
2025-05-10T1900,1305A,117.0495,36.663,济南市,市监测站,,35,34,23,20,14,111,,110,110,13,12,7,7,0.3,0.4
2025-05-10T1900,1306A,116.7675,36.5484,济南市,长清党校,,,34,20,,16,125,,120,120,11,12,5,4,0.6,0.5
2025-05-10T1900,1616A,117.6795,36.229,济南市,技术学院,,35,31,9,22,10,109,,112,112,12,11,10,9,0.5,0.5
2025-05-10T1900,1961A,117.532,36.6868,济南市,东山小学,,42,42,26,24,12,109,,114,114,9,6,6,5,0.3,0.2
2025-05-10T1900,3059A,117.7161,36.2049,济南市,泰兴公司,,35,31,14,22,10,109,,110,110,26,15,5,4,0.1,0.2
2025-05-10T1900,3064A,117.6867,36.2171,济南市,莱芜战役纪念馆,,32,29,16,17,8,100,,106,106,27,21,4,5,0.4,0.5
2025-05-10T1900,3494A,117.1673,36.9782,济南市,济阳区政府,,46,46,25,17,11,105,,114,113,20,8,4,4,0.3,0.3
2025-05-10T1900,3495A,117.1171,36.63,济南市,锦屏中学,,36,32,17,17,12,115,,114,114,13,11,6,6,0.3,0.4
2025-05-10T1900,3682A,116.9814,36.6819,济南市,济南四建,,37,27,19,20,14,116,,116,116,15,7,4,3,0.3,0.3
2025-05-10T1900,1653A,116.6251,35.4302,济宁市,火炬城,,,14,20,12,10,110,,107,107,,5,4,4,0.1,0.3
2025-05-10T1900,1655A,116.5491,35.4042,济宁市,电化厂,,34,32,25,12,13,106,,106,106,8,6,1,2,0.3,0.5
2025-05-10T1900,3500A,116.5814,35.3707,济宁市,北湖一中,,42,42,24,23,19,117,,109,109,6,10,3,2,0.2,0.2
2025-05-10T1900,3501A,116.8249,35.5593,济宁市,服务中心,,48,48,32,14,6,106,,107,107,14,9,1,2,0.3,0.2
2025-05-10T1900,3678A,116.5907,35.4054,济宁市,市第七中学,,35,33,23,14,8,110,,109,109,4,5,5,4,0.2,0.3
2025-05-10T1900,2255A,130.2751,46.8028,佳木斯市,佳纺,,,,25,25,18,78,,114,111,27,14,8,6,0.5,0.4
2025-05-10T1900,2256A,130.3995,46.8307,佳木斯市,发电厂,,42,42,20,24,14,89,,115,113,22,9,6,5,0.3,0.3
2025-05-10T1900,2257A,130.3258,46.7975,佳木斯市,环保局,,37,37,29,19,22,98,,111,111,23,20,7,6,0.4,0.4
2025-05-10T1900,2258A,130.3648,46.8032,佳木斯市,十一中,,38,38,22,26,17,81,,108,106,29,18,6,6,0.5,0.4
2025-05-10T1900,2259A,130.3794,46.7588,佳木斯市,四丰,,29,23,17,15,14,92,,103,103,12,13,1,1,0.3,0.3
2025-05-10T1900,1252A,120.7436,30.778,嘉兴市,清河小学,,36,36,36,19,17,101,,115,114,16,17,5,5,0.6,0.8
2025-05-10T1900,1253A,120.726,30.7478,嘉兴市,嘉兴学院,,35,34,31,14,16,110,,121,121,15,22,6,7,0.3,0.3
2025-05-10T1900,2872A,120.7846,30.7525,嘉兴市,南湖区残联,,49,49,41,18,16,118,,130,130,10,14,6,6,0.3,0.3
2025-05-10T1900,3407A,120.6916,30.7739,嘉兴市,秀洲住建,,,37,36,18,18,116,,128,128,8,12,6,6,,0.6
2025-05-10T1900,1945A,98.2908,39.7711,嘉峪关市,气象局,,47,19,24,7,22,148,,137,137,6,14,1,3,0.2,0.2
2025-05-10T1900,2884A,98.2672,39.7978,嘉峪关市,酒钢宾馆,,40,31,30,17,16,128,,122,122,9,11,15,11,0.3,0.4
2025-05-10T1900,3248A,98.2643,39.7724,嘉峪关市,雄关区,,45,18,26,13,11,141,,131,131,9,14,11,10,0.3,0.3
2025-05-10T1900,1383A,113.1064,22.6058,江门市,北街,,20,8,39,8,23,62,,76,76,30,36,2,4,0.4,0.4
2025-05-10T1900,1384A,113.0731,22.5835,江门市,西区,,22,18,38,12,18,70,,78,78,24,41,6,8,0.5,0.6
2025-05-10T1900,1385A,113.0219,22.5311,江门市,圭峰西,,25,6,33,6,23,77,,83,83,15,24,4,5,0.5,0.6
2025-05-10T1900,1386A,113.0828,22.5947,江门市,东湖,,26,,41,18,25,67,,72,72,25,36,7,9,0.5,0.6
2025-05-10T1900,3311A,113.1075,22.5647,江门市,江海富民,,30,30,53,20,30,64,,78,78,26,36,8,9,0.5,0.6
2025-05-10T1900,3449A,113.05,22.4667,江门市,新会银湖,,,,44,10,33,65,,85,85,24,36,1,2,0.7,0.8
2025-05-10T1900,3169A,113.2725,35.2067,焦作市,太极体育中心,颗粒物(PM10),55,59,49,16,26,116,,103,103,10,4,3,3,0.2,0.1
2025-05-10T1900,3335A,113.3137,35.2641,焦作市,马村街道办,,49,49,42,26,20,129,,124,124,15,13,6,8,0.1,0.1
2025-05-10T1900,3336A,113.2465,35.2373,焦作市,焦作技师学院,,49,49,48,17,14,123,,119,119,8,7,4,4,0.4,0.5
2025-05-10T1900,3477A,113.1656,35.2539,焦作市,中站许衡医院,,42,35,36,24,23,134,,130,130,36,10,4,5,0.3,0.4
2025-05-10T1900,3981A,113.2449,35.1803,焦作市,原李万街道办,,47,47,41,27,19,118,,120,120,9,3,6,6,0.3,0.3
2025-05-10T1900,4264A,113.2340,35.2190,焦作市,新安路1731号,,40,40,42,19,17,128,,122,122,11,10,4,5,0.5,0.4
2025-05-10T1900,1708A,116.3701,23.5345,揭阳市,新兴,,,,42,22,20,108,,103,103,13,15,4,7,0.7,0.8
2025-05-10T1900,1709A,116.3264,23.5443,揭阳市,西马,,35,,44,17,17,110,,108,108,8,20,7,9,0.8,1
2025-05-10T1900,1710A,116.3611,23.5626,揭阳市,东兴,,,,39,28,19,114,,109,109,7,18,4,5,0.7,0.9
2025-05-10T1900,1711A,116.4151,23.5294,揭阳市,渔湖,,,,36,0,12,113,,114,114,,24,3,6,0.7,0.8
2025-05-10T1900,3320A,116.403,23.5699,揭阳市,曲溪,,37,21,38,19,18,118,,118,118,19,24,7,10,0.6,0.7
2025-05-10T1900,1944A,102.1692,38.5167,金昌市,天庆家园,,45,36,32,11,18,141,,132,132,9,11,24,15,0.8,0.6
2025-05-10T1900,4022A,102.1647,38.5371,金昌市,金川区人防中心,,46,39,39,24,16,147,,140,140,11,11,4,8,0.6,0.5
2025-05-10T1900,4239A,102.1930,38.5319,金昌市,长春路96号,,45,28,34,7,13,143,,134,134,5,8,5,6,0.6,0.7
2025-05-10T1900,1262A,119.647,29.077,金华市,十五中,,48,48,43,18,20,109,,140,137,17,22,3,5,0.3,0.6
2025-05-10T1900,1263A,119.686,29.1029,金华市,监测站,,44,44,37,20,23,98,,132,129,15,18,3,4,0.2,0.5
2025-05-10T1900,3659A,119.656,29.1131,金华市,气象局,,46,46,43,13,19,105,,140,137,19,24,3,3,0.3,0.6
2025-05-10T1900,1767A,121.1115,41.0879,锦州市,南山,,34,25,34,22,19,107,,118,117,15,11,5,6,0.5,0.5
2025-05-10T1900,1768A,121.0604,40.8428,锦州市,开发区,,29,29,43,20,20,90,,125,120,26,18,6,7,0.5,0.6
2025-05-10T1900,1769A,121.1836,41.1119,锦州市,百股街道,,34,23,41,14,17,108,,119,117,9,10,4,5,0.4,0.5
2025-05-10T1900,1770A,121.1178,41.1222,锦州市,天安街道,细颗粒物(PM2.5),79,,34,58,28,110,,106,,14,10,5,5,0.5,0.5
2025-05-10T1900,1771A,121.1303,41.1386,锦州市,北湖公园,,33,31,32,16,17,105,,118,115,13,11,5,6,0.4,0.5
2025-05-10T1900,2160A,112.85,35.5051,晋城市,自来水公司,,38,38,54,17,17,121,,121,121,18,13,6,6,0.5,0.5
2025-05-10T1900,2161A,112.8318,35.4936,晋城市,白云商贸,,42,42,49,3,13,124,,125,125,16,13,6,5,0.4,0.4
2025-05-10T1900,2162A,112.8508,35.4887,晋城市,市环保局,,46,46,42,14,15,119,,120,120,17,10,5,4,0.4,0.3
2025-05-10T1900,2163A,112.8676,35.4897,晋城市,技术学院,,45,45,42,9,12,114,,112,112,13,11,5,5,0.4,0.5
2025-05-10T1900,3620A,112.8271,35.4828,晋城市,泽州一中,,40,27,29,3,14,127,,125,125,13,11,3,4,0.2,0.3
2025-05-10T1900,2173A,112.7249,37.7067,晋中市,南都小区,,37,36,39,12,17,116,,117,117,10,15,5,8,0.3,0.5
2025-05-10T1900,2174A,112.6991,37.6982,晋中市,榆次区政府,,36,29,38,7,14,114,,91,91,16,18,6,8,0.6,0.4
2025-05-10T1900,2865A,112.7195,37.6828,晋中市,榆次三中,,38,29,37,12,16,120,,119,119,9,14,3,5,0.1,0.4
2025-05-10T1900,4200A,112.7478,37.6954,晋中市,迎宾街26号,,35,31,40,14,17,112,,114,114,10,15,4,6,0.3,0.3
2025-05-10T1900,2439A,112.2014,31.0481,荆门市,竹园小学,颗粒物(PM10),60,69,60,28,25,103,,103,103,16,15,5,5,0.2,0.1
2025-05-10T1900,2440A,112.1969,30.9891,荆门市,掇刀,颗粒物(PM10),61,72,63,26,22,107,,101,101,15,15,6,5,0.2,0.3
2025-05-10T1900,2441A,112.2213,31.0386,荆门市,石化一小,颗粒物(PM10),59,68,61,29,26,104,,101,101,13,13,7,7,0.3,0.3
2025-05-10T1900,3012A,112.1849,31.0362,荆门市,西山林语,颗粒物(PM10),57,63,51,26,22,95,,96,94,11,6,7,8,0.5,0.4
2025-05-10T1900,3547A,112.1632,31.0138,荆门市,龙泉中学南校,颗粒物(PM10),56,62,56,34,24,94,,101,92,14,7,3,4,0.4,0.3
2025-05-10T1900,1844A,112.2494,30.3197,荆州市,市图书馆,颗粒物(PM10),52,53,55,32,28,86,,94,92,21,20,5,6,0.4,0.4
2025-05-10T1900,1845A,112.2008,30.3544,荆州市,市委党校,,49,49,59,26,27,76,,87,82,14,19,7,8,0.5,0.5
2025-05-10T1900,3194A,112.2747,30.3122,荆州市,管委会,,44,44,56,30,30,80,,91,89,18,20,8,8,0.6,0.5
2025-05-10T1900,4268A,112.1722,30.3366,荆州市,学苑路85号,,36,36,52,22,28,80,,88,87,20,22,3,4,0.5,0.5
2025-05-10T1900,2343A,117.2117,29.2933,景德镇市,老干部活动中心,,37,37,51,18,21,105,,120,118,9,18,7,9,0.3,0.5
2025-05-10T1900,2344A,117.1894,29.2789,景德镇市,兽医站,,34,34,61,18,27,102,,114,113,6,25,3,10,0.3,0.6
2025-05-10T1900,2345A,117.1547,29.2617,景德镇市,台达陶瓷,,44,44,68,19,32,105,,118,117,9,28,16,62,0.3,0.8
2025-05-10T1900,2346A,117.2461,29.2956,景德镇市,陶研所,,35,35,44,24,23,104,,119,117,11,13,9,11,0.4,0.5
2025-05-10T1900,1803A,115.9872,29.6815,九江市,十里,,36,33,48,25,24,98,,102,102,10,13,3,2,0.5,0.4
2025-05-10T1900,1804A,115.9584,29.7046,九江市,茅山头,,39,39,53,24,25,92,,94,94,19,22,7,6,0.6,0.6
2025-05-10T1900,1805A,115.9877,29.7295,九江市,西园,,37,37,50,22,26,92,,108,106,41,39,11,14,0.8,0.7
2025-05-10T1900,1808A,115.9114,29.6038,九江市,综合工业园,,35,34,55,24,23,101,,102,101,22,24,10,10,0.6,0.6
2025-05-10T1900,1809A,116.0721,29.7535,九江市,石化总厂,细颗粒物(PM2.5),59,57,69,42,38,85,,100,99,31,35,8,6,0.7,0.6
2025-05-10T1900,1810A,115.9773,29.5698,九江市,庐山气象台,,36,35,63,25,23,98,,93,91,10,9,6,6,0.7,0.8
2025-05-10T1900,3190A,116.0254,29.6994,九江市,外国语学校,,41,41,54,21,24,86,,91,91,21,21,10,8,0.9,0.8
2025-05-10T1900,4253A,116.0102,29.6594,九江市,莲花大道8号,,43,43,57,19,20,96,,100,100,10,8,5,5,0.5,0.5
2025-05-10T1900,4240A,98.4958,39.7339,酒泉市,玉门东路5号,,42,29,32,16,19,133,,126,126,3,7,27,14,0.4,0.3
2025-05-10T1900,4241A,98.5099,39.7506,酒泉市,北大街108号,,43,19,33,11,17,137,,128,128,5,12,23,12,0.3,0.3
2025-05-10T1900,2698A,76.0072,39.4467,喀什地区,巡警大队,颗粒物(PM10),468,568,751,155,213,86,,72,72,,18,4,4,,0.6
2025-05-10T1900,2699A,75.9755,39.4694,喀什地区,吾办,颗粒物(PM10),453,553,679,253,337,86,,82,76,15,17,7,8,0.2,0.3
2025-05-10T1900,4027A,75.9483,39.4689,喀什地区,老干局,颗粒物(PM10),457,557,644,188,230,86,,82,69,8,12,4,3,0.4,0.3
2025-05-10T1900,1824A,114.3389,34.7781,开封市,肿瘤医院,颗粒物(PM10),54,58,34,23,12,125,,125,125,10,5,10,8,0.5,0.5
2025-05-10T1900,1826A,114.2885,34.7965,开封市,世纪星幼儿园,颗粒物(PM10),54,57,38,22,14,136,,134,134,17,12,10,8,0.5,0.5
2025-05-10T1900,3147A,114.3438,34.8106,开封市,龙亭公园,颗粒物(PM10),52,54,37,26,13,134,,131,131,14,11,4,3,0.5,0.5
2025-05-10T1900,3210A,114.3644,34.7964,开封市,汴京公园,,,56,48,30,15,126,,124,124,13,9,,3,0.6,0.6
2025-05-10T1900,3473A,114.2485,34.8306,开封市,技师学院,细颗粒物(PM2.5),89,,34,66,25,133,,134,134,12,9,4,4,0.7,0.7
2025-05-10T1900,3592A,114.4644,34.7556,开封市,祥符区生态环境局,,36,36,34,22,12,114,,125,125,21,9,8,7,0.6,0.6
2025-05-10T1900,1951A,84.895,45.6094,克拉玛依市,长征新村,,31,10,47,6,8,98,,98,96,5,12,8,8,0.2,0.3
2025-05-10T1900,1952A,84.8988,45.5893,克拉玛依市,南林小区,,32,13,50,11,21,100,,105,104,5,16,4,6,0.1,0.3
2025-05-10T1900,1954A,84.905,44.3396,克拉玛依市,独山子区,颗粒物(PM10),59,67,96,23,27,92,,108,96,5,12,7,9,0.5,0.5
2025-05-10T1900,1955A,85.6979,46.098,克拉玛依市,乌尔禾区商贸楼,,32,27,53,3,14,101,,98,98,1,7,13,11,0.4,0.5
2025-05-10T1900,3612A,85.1045,45.6899,克拉玛依市,白碱滩区新站,,36,36,75,12,29,106,,102,102,2,6,11,12,0.4,0.3
2025-05-10T1900,2697A,76.1454,39.7142,克孜勒苏柯尔克孜自治州,市人民政府,颗粒物(PM10),342,453,870,171,317,95,,86,86,,17,,7,0.3,0.3
2025-05-10T1900,3665A,76.1658,39.7157,克孜勒苏柯尔克孜自治州,克州文化中心,颗粒物(PM10),313,430,895,168,319,94,,86,86,7,17,5,8,0.4,0.4
2025-05-10T1900,1450A,102.8204,24.8886,昆明市,呈贡新区,,29,29,41,7,26,84,,88,88,8,12,3,6,0.4,0.6
2025-05-10T1900,1452A,102.7252,25.0902,昆明市,龙泉镇,,39,39,35,7,20,80,,88,88,10,14,7,8,0.3,0.3
2025-05-10T1900,1453A,102.7266,25.0375,昆明市,东风东路,,28,21,48,10,28,89,,88,88,10,20,7,8,0.4,0.5
2025-05-10T1900,1454A,102.6742,25.0669,昆明市,金鼎山,,32,25,39,22,21,80,,89,89,11,16,1,2,0.5,0.6
2025-05-10T1900,1455A,102.6644,25.0401,昆明市,碧鸡广场,,29,,43,20,23,80,,88,88,12,17,5,7,0.4,0.4
2025-05-10T1900,3179A,102.7494,25.0119,昆明市,官渡区博物馆,,38,38,44,10,20,80,,86,86,14,21,6,7,0.4,0.5
2025-05-10T1900,3375A,102.8017,24.8336,昆明市,青年创业园,,26,22,39,11,25,81,,92,91,9,13,7,9,0.4,0.5
2025-05-10T1900,3550A,102.7997,24.9786,昆明市,昆明学院,,28,19,44,7,24,89,,88,88,10,17,4,5,0.4,0.5
2025-05-10T1900,3551A,102.5967,24.6736,昆明市,晋宁区生态环境分局,,25,19,35,7,28,78,,103,99,9,11,6,8,0.5,0.5
2025-05-10T1900,3552A,102.6678,24.9856,昆明市,云天化总部,,27,15,42,7,28,84,,88,87,11,13,5,7,0.5,0.6
2025-05-10T1900,1456A,91.1319,29.6514,拉萨市,八廓街,,49,49,29,7,13,137,,137,137,8,16,6,7,0.3,0.3
2025-05-10T1900,1457A,91.1221,29.6747,拉萨市,市环保局,颗粒物(PM10),56,62,38,8,15,134,,133,133,10,19,1,4,0.4,0.5
2025-05-10T1900,1458A,91.0874,29.6475,拉萨市,区监测站,,44,29,32,10,14,138,,136,136,9,30,6,6,0.4,0.5
2025-05-10T1900,1459A,91.1774,29.6541,拉萨市,西藏大学,,43,36,29,15,12,136,,133,133,11,16,6,7,0.4,0.4
2025-05-10T1900,1460A,90.9798,29.6588,拉萨市,区辐射站,颗粒物(PM10),60,70,36,12,14,125,,128,128,16,26,5,6,0.4,0.4
2025-05-10T1900,1461A,91.0834,29.6292,拉萨市,拉萨火车站,,44,28,27,12,11,138,,134,134,6,18,3,4,0.3,0.4
2025-05-10T1900,2520A,109.2203,23.7256,来宾市,来宾技工学校,,32,29,44,18,20,101,,93,93,9,17,6,8,0.7,0.6
2025-05-10T1900,3535A,109.1781,23.7297,来宾市,兴宾区政府,,39,39,36,18,21,96,,87,87,8,15,4,5,0.6,0.6
2025-05-10T1900,4002A,109.2416,23.7461,来宾市,中南小学,,31,24,41,15,17,97,,90,90,11,17,7,7,0.6,0.6
2025-05-10T1900,1479A,103.831,36.0464,兰州市,铁路设计院,,42,31,53,15,27,133,,121,121,16,40,8,13,0.4,0.6
2025-05-10T1900,3241A,103.7439,36.0842,兰州市,百合公园,,38,23,37,6,17,119,,116,116,8,26,4,7,0.2,0.4
2025-05-10T1900,3242A,103.9611,35.998,兰州市,和平,,42,40,51,14,23,133,,124,124,8,16,8,8,0.4,0.5
2025-05-10T1900,4236A,103.6293,36.0938,兰州市,庄浪东路808号,,40,31,51,15,25,128,,127,127,15,28,10,16,0.3,0.4
2025-05-10T1900,4237A,103.7251,36.1043,兰州市,安宁西路88号,,45,45,57,15,26,138,,131,131,9,19,6,9,0.3,0.3
2025-05-10T1900,4238A,103.8470,36.0676,兰州市,北滨河东路1号,,44,32,52,13,21,138,,130,130,14,39,8,11,0.5,0.6
2025-05-10T1900,3245A,103.6633,36.533,兰州新区,新区管委会,,47,25,36,19,26,148,,139,139,6,12,10,8,0.3,0.3
2025-05-10T1900,3246A,103.6975,36.4789,兰州新区,舟曲中学,,48,21,40,10,17,151,,140,140,8,16,9,7,0.4,0.4
2025-05-10T1900,1067A,116.6708,39.5111,廊坊市,药材公司,细颗粒物(PM2.5),58,60,33,41,21,120,,123,123,11,13,2,1,0.4,0.4
2025-05-10T1900,1068A,116.7214,39.5589,廊坊市,开发区,细颗粒物(PM2.5),57,53,28,40,19,131,,126,126,12,15,2,2,0.3,0.2
2025-05-10T1900,1070A,116.7244,39.5269,廊坊市,北华航天学院,颗粒物(PM10),53,56,36,36,22,128,,125,125,18,16,4,3,0.3,0.2
2025-05-10T1900,2919A,116.7022,39.5453,廊坊市,河北工业大学,细颗粒物(PM2.5),60,55,34,43,21,129,,126,126,10,11,3,2,0.3,0.3
2025-05-10T1900,2535A,103.7723,29.5462,乐山市,花湖湾,颗粒物(PM10),61,72,110,31,43,115,,90,90,6,22,2,4,0.5,0.7
2025-05-10T1900,2536A,103.7627,29.5844,乐山市,牛耳桥,颗粒物(PM10),60,70,116,28,40,110,,91,91,10,24,6,8,0.4,0.6
2025-05-10T1900,2537A,103.7508,29.6006,乐山市,市第三水厂,颗粒物(PM10),63,76,117,26,37,106,,92,92,12,24,5,5,0.6,0.7
2025-05-10T1900,2538A,103.7571,29.5664,乐山市,市监测站,颗粒物(PM10),64,78,118,32,38,105,,89,89,10,21,7,8,0.6,0.8
2025-05-10T1900,3361A,103.7311,29.5628,乐山市,理工大学,颗粒物(PM10),64,77,102,32,40,108,,85,85,7,24,5,6,0.5,0.7
2025-05-10T1900,2599A,100.2497,26.8802,丽江市,丽江古城,,48,48,34,22,19,100,,104,104,11,10,8,9,0.5,0.5
2025-05-10T1900,2600A,100.2203,26.8906,丽江市,市中心,,31,31,26,11,15,92,,105,104,16,12,7,7,0.4,0.4
2025-05-10T1900,1267A,119.914,28.4514,丽水市,监测站大楼,颗粒物(PM10),55,60,41,17,13,123,,124,124,15,17,4,4,0.4,0.5
2025-05-10T1900,1268A,119.93,28.4586,丽水市,莲都小学,颗粒物(PM10),57,63,44,23,17,132,,130,130,14,15,4,4,0.3,0.4
2025-05-10T1900,1269A,119.879,28.4231,丽水市,余庄前,,48,48,37,17,14,101,,126,125,11,10,4,4,0.5,0.5
2025-05-10T1900,1173A,119.176,34.5885,连云港市,市环境监测站,,33,22,19,12,11,104,,105,105,18,17,6,6,0.5,0.5
2025-05-10T1900,3000A,119.3581,34.6972,连云港市,德源药业,,36,27,18,14,10,114,,104,104,10,15,9,9,0.7,0.7
2025-05-10T1900,3007A,119.178,34.844,连云港市,新城一中,,35,26,20,20,13,111,,107,107,14,12,6,6,0.5,0.5
2025-05-10T1900,3008A,119.3608,34.7519,连云港市,胡沟管理处,,34,24,16,14,10,107,,106,106,19,17,6,7,0.6,0.7
2025-05-10T1900,3009A,119.1478,34.5911,连云港市,矿山设计院,,33,27,23,9,11,104,,102,102,20,21,7,6,0.5,0.4
2025-05-10T1900,3434A,119.2413,34.6539,连云港市,工贸学校,,39,29,17,14,11,122,,111,111,15,14,8,8,0.5,0.5
2025-05-10T1900,3664A,119.4172,34.7341,连云港市,连云街道,,39,27,22,15,13,122,,109,109,12,21,7,8,0.6,0.6
2025-05-10T1900,2571A,102.3431,27.8099,凉山彝族自治州,青龙寺,,22,12,22,3,4,70,,72,71,3,4,3,3,0.6,0.6
2025-05-10T1900,2572A,102.2721,27.8415,凉山彝族自治州,邛海宾馆,,26,20,20,8,9,81,,80,80,4,8,9,8,0.6,0.6
2025-05-10T1900,2573A,102.2625,27.898,凉山彝族自治州,西昌市政府,,26,20,20,13,9,82,,82,82,5,6,10,9,0.5,0.6
2025-05-10T1900,2574A,102.2685,27.8851,凉山彝族自治州,凉山州政府,,26,21,18,10,9,81,,79,79,10,10,6,6,0.9,1
2025-05-10T1900,4229A,102.2342,27.8859,凉山彝族自治州,凯乐南路30号,,40,40,27,15,11,67,,65,65,24,16,5,6,0.8,0.9
2025-05-10T1900,2212A,123.2,41.1953,辽阳市,宏伟区,,42,42,41,15,24,128,,135,135,11,12,7,8,0.4,0.5
2025-05-10T1900,2213A,123.1683,41.2495,辽阳市,新华园,,50,50,55,26,32,124,,133,133,10,13,6,7,0.5,0.5
2025-05-10T1900,2214A,123.2354,41.2639,辽阳市,滨河路,,44,44,44,16,24,111,,122,122,15,17,6,7,0.3,0.4
2025-05-10T1900,2215A,123.149,41.2991,辽阳市,铁西工业园,细颗粒物(PM2.5),84,,51,62,36,108,,118,118,11,13,5,6,0.3,0.4
2025-05-10T1900,2227A,125.1358,42.8845,辽源市,环保局,颗粒物(PM10),52,53,32,18,12,121,,121,121,19,14,6,7,0.4,0.5
2025-05-10T1900,3239A,125.0764,42.9078,辽源市,银鹰制药,,50,50,27,21,15,118,,128,128,20,12,4,4,0.3,0.4
2025-05-10T1900,1625A,115.9848,36.4372,聊城市,区政府,,41,41,22,19,13,124,,118,118,12,9,5,4,0.6,0.6
2025-05-10T1900,2878A,116.0072,36.4343,聊城市,聊大东校,,39,31,31,27,18,122,,115,115,11,7,4,5,0.3,0.3
2025-05-10T1900,3200A,115.9819,36.4978,聊城市,监控中心,,38,28,17,24,10,120,,116,116,12,7,5,5,0.3,0.3
2025-05-10T1900,3513A,116.0445,36.4361,聊城市,九州社区,,42,33,23,22,11,134,,128,128,14,8,5,3,0.4,0.4
2025-05-10T1900,4018A,116.0567,36.4608,聊城市,星美广场,,39,31,23,20,9,124,,118,118,10,9,8,8,0.5,0.5
2025-05-10T1900,2632A,94.3681,29.6376,林芝市,林芝监测站,,30,22,22,14,11,95,,100,100,7,14,5,5,0.1,0.2
2025-05-10T1900,2633A,94.3616,29.6616,林芝市,林芝人民医院,,39,39,27,15,12,94,,95,95,2,6,5,5,0.2,0.3
2025-05-10T1900,2603A,100.0781,23.8982,临沧市,市环保局,细颗粒物(PM2.5),65,51,48,47,33,108,,116,116,9,12,11,8,0.5,0.6
2025-05-10T1900,2604A,100.0894,23.8822,临沧市,市气象局,,46,46,42,28,31,118,,126,126,10,13,8,8,0.6,0.7
2025-05-10T1900,1733A,111.5531,36.0783,临汾市,临钢医院,,48,48,39,14,17,117,,112,112,13,12,4,5,0.3,0.4
2025-05-10T1900,1734A,111.5028,36.0714,临汾市,技工学校,,39,30,37,26,25,122,,116,116,6,10,5,7,0.3,0.5
2025-05-10T1900,1736A,111.5018,36.0855,临汾市,市委,,48,48,44,8,15,122,,117,117,10,8,6,7,0.3,0.4
2025-05-10T1900,3018A,111.505,36.1014,临汾市,唐尧大酒店,,42,42,47,14,20,123,,116,116,10,14,3,4,0.2,0.4
2025-05-10T1900,4244A,111.4879,36.0530,临汾市,启星学校,,37,26,38,17,23,118,,114,114,7,9,5,6,0.4,0.6
2025-05-10T1900,4271A,103.2464,35.6123,临夏回族自治州,滨河东路1号,细颗粒物(PM2.5),64,,56,46,48,125,,123,123,2,13,7,5,0.4,0.5
2025-05-10T1900,4310A,103.2093,35.5995,临夏回族自治州,新华街21号,,40,15,54,3,25,126,,118,118,8,19,6,8,0.3,0.4
2025-05-10T1900,1618A,118.3429,35.0532,临沂市,沂河小区,,41,41,26,25,18,109,,102,102,14,12,8,9,0.2,0.3
2025-05-10T1900,1619A,118.295,35.0583,临沂市,鲁南制药厂,,35,27,20,16,12,111,,111,111,25,17,5,6,0.3,0.5
2025-05-10T1900,1620A,118.2794,34.9976,临沂市,新光毛纺厂,,35,27,17,13,13,112,,109,109,20,20,6,7,0.3,0.3
2025-05-10T1900,1621A,118.3956,35.0888,临沂市,河东保险公司,,37,29,16,19,11,118,,108,108,12,10,5,5,0.3,0.3
2025-05-10T1900,3370A,118.3564,35.0215,临沂市,十里堡居委,,39,27,15,14,13,122,,117,117,19,19,2,3,0.4,0.4
2025-05-10T1900,3496A,118.3604,35.1084,临沂市,南坊新区,,35,31,26,14,12,110,,105,105,15,13,6,6,0.3,0.3
2025-05-10T1900,3860A,118.3920,35.0300,临沂市,皇山花园小区,,38,22,16,21,16,120,,112,112,19,19,7,8,0.4,0.5
2025-05-10T1900,1870A,109.4856,24.3895,柳州市,柳东小学,,30,30,38,19,21,86,,80,80,6,15,9,13,0.5,0.6
2025-05-10T1900,1871A,109.4157,24.3277,柳州市,环保监测站,,45,45,41,19,19,75,,80,80,14,19,8,12,0.7,0.7
2025-05-10T1900,1872A,109.389,24.341,柳州市,河西水厂,,42,42,50,25,23,69,,78,77,12,14,5,6,0.7,0.6
2025-05-10T1900,1873A,109.4311,24.2921,柳州市,市四中,,32,32,39,20,18,80,,79,79,13,20,8,10,0.6,0.6
2025-05-10T1900,1874A,109.4006,24.3631,柳州市,市九中,,45,45,44,19,19,60,,69,68,13,16,8,11,0.5,0.6
2025-05-10T1900,1875A,109.4958,24.3134,柳州市,古亭山,,34,34,32,18,14,91,,78,78,5,16,6,7,0.9,0.9
2025-05-10T1900,3402A,109.5422,24.3996,柳州市,市二中,,32,32,42,19,19,86,,84,84,11,24,10,12,0.5,0.6
2025-05-10T1900,2307A,116.5079,31.737,六安市,监测大楼,,35,18,35,15,19,111,,103,103,9,9,1,1,0.3,0.3
2025-05-10T1900,2308A,116.4738,31.7643,六安市,皖西学院,,38,38,44,11,14,115,,114,114,11,10,5,4,0.3,0.2
2025-05-10T1900,2309A,116.4996,31.7905,六安市,朝阳厂,,33,16,31,13,14,103,,102,102,14,12,4,4,0.2,0.2
2025-05-10T1900,2310A,116.5567,31.7886,六安市,开发区,,38,38,48,10,16,102,,103,103,15,11,4,4,0.3,0.3
2025-05-10T1900,2577A,104.83,26.5917,六盘水市,黄土坡,,26,13,19,10,12,82,,95,87,10,9,8,8,0.3,0.3
2025-05-10T1900,2578A,104.89,26.5939,六盘水市,水钢,,27,13,27,3,12,86,,89,87,7,13,8,9,1.2,0.6
2025-05-10T1900,2579A,104.8475,26.5894,六盘水市,民中,,26,17,19,3,8,82,,90,84,9,9,7,8,0.3,0.3
2025-05-10T1900,2580A,104.9544,26.5506,六盘水市,双水,,24,14,20,10,8,74,,88,75,14,12,12,9,1.0,0.6
2025-05-10T1900,2336A,117.0217,25.1033,龙岩市,龙岩市监测站,,45,45,30,13,8,115,,125,125,9,15,6,7,0.5,0.5
2025-05-10T1900,2337A,117.0258,25.0661,龙岩市,闽西职业技术学院,,47,47,31,12,8,105,,119,118,11,14,5,7,0.4,0.5
2025-05-10T1900,2338A,117.0196,25.0306,龙岩市,龙岩学院,,43,43,29,16,12,99,,120,118,12,11,8,6,0.5,0.5
2025-05-10T1900,2885A,104.9339,33.3826,陇南市,滨江中学,颗粒物(PM10),51,52,55,24,20,120,,123,123,4,8,8,10,0.4,0.4
2025-05-10T1900,3247A,104.955,33.371,陇南市,市总工会,,47,47,46,18,19,125,,126,126,5,6,6,8,0.3,0.3
2025-05-10T1900,2487A,111.9589,27.8901,娄底市,电视发射台,,32,32,51,11,19,69,,102,96,2,3,5,6,0.2,0.3
2025-05-10T1900,2488A,111.9975,27.725,娄底市,市监测站,,34,25,50,12,26,108,,110,110,10,17,6,8,0.4,0.4
2025-05-10T1900,2489A,112.0194,27.7314,娄底市,市委党校,,32,32,53,16,25,96,,102,102,5,4,4,4,0.1,0.2
2025-05-10T1900,2490A,111.9561,27.7569,娄底市,涟钢,,38,38,52,17,22,87,,97,97,9,16,6,10,0.0,0.4
2025-05-10T1900,2491A,111.9892,27.7044,娄底市,市政府,,32,28,51,15,26,101,,109,109,7,3,6,5,0.6,0.5
2025-05-10T1900,1894A,105.4427,28.9063,泸州市,小市上码头,颗粒物(PM10),54,57,128,23,52,88,,80,80,12,18,2,3,0.6,0.7
2025-05-10T1900,1895A,105.4241,28.8573,泸州市,兰田宪桥,,,,147,30,58,85,,71,71,7,13,8,9,0.5,0.6
2025-05-10T1900,4272A,105.3689,28.7783,泸州市,纳溪中医医院,,42,42,115,28,56,87,,72,72,12,20,6,8,0.4,0.5
2025-05-10T1900,2183A,111.1406,37.5211,吕梁市,环保局,,39,27,48,23,31,123,,116,116,7,15,2,4,0.3,0.5
2025-05-10T1900,2185A,111.1297,37.5136,吕梁市,自来水公司,,38,28,51,14,28,119,,110,110,10,21,4,6,0.5,0.7
2025-05-10T1900,2867A,111.1283,37.51,吕梁市,马茂庄小学,,37,24,55,9,27,118,,113,113,9,23,5,7,0.3,0.5
2025-05-10T1900,1812A,112.3931,34.6516,洛阳市,市委党校,,37,37,35,25,31,112,,116,116,17,13,4,5,0.4,0.4
2025-05-10T1900,1815A,112.494,34.6886,洛阳市,河南林校,细颗粒物(PM2.5),52,,35,36,27,114,,114,114,10,8,5,5,0.3,0.4
2025-05-10T1900,1816A,112.3844,34.623,洛阳市,开发区管委会,,42,42,38,27,25,112,,114,114,13,10,5,5,0.3,0.4
2025-05-10T1900,1817A,112.4267,34.6258,洛阳市,市委新办公区,,41,41,38,19,23,117,,117,117,12,10,4,5,0.2,0.2
2025-05-10T1900,3340A,112.6005,34.6326,洛阳市,伊滨,,41,41,48,24,24,123,,121,121,9,9,4,5,0.4,0.4
2025-05-10T1900,3341A,112.4951,34.6332,洛阳市,中移产业园,,50,50,44,23,24,124,,123,123,11,10,5,5,0.2,0.3
2025-05-10T1900,3593A,112.5736,34.8993,洛阳市,吉利监测站,,42,42,38,29,25,114,,118,118,14,11,7,7,0.4,0.4
2025-05-10T1900,3635A,112.3677,34.662,洛阳市,河科大西苑校区,,37,36,38,20,21,118,,118,118,11,12,6,7,0.3,0.3
2025-05-10T1900,3636A,112.4388,34.6781,洛阳市,英才小学,,39,39,45,19,19,121,,121,121,19,13,3,4,0.3,0.3
2025-05-10T1900,4214A,112.4600,34.6949,洛阳市,春都路1号院,,44,44,44,22,20,123,,124,124,11,8,2,3,0.3,0.3
2025-05-10T1900,2399A,114.051,33.5699,漯河市,三五一五工厂,,46,46,44,30,22,130,,135,135,9,7,4,5,0.4,0.4
2025-05-10T1900,2400A,114.0055,33.5698,漯河市,漯河大学,,50,50,45,24,20,132,,135,135,10,6,6,6,0.4,0.3
2025-05-10T1900,2401A,114.0138,33.5828,漯河市,市水利局,,44,44,44,27,19,131,,130,130,23,10,4,5,0.2,0.3
2025-05-10T1900,2402A,114.0261,33.5698,漯河市,市广电局,,45,42,35,31,20,129,,133,133,9,6,4,4,0.3,0.3
2025-05-10T1900,3478A,113.9749,33.5664,漯河市,市图书馆,细颗粒物(PM2.5),57,53,48,40,23,131,,135,135,13,10,3,4,0.3,0.3
2025-05-10T1900,4250A,114.0892,33.5882,漯河市,韶山路11号,颗粒物(PM10),52,54,54,30,17,123,,132,132,17,12,4,4,0.4,0.3
2025-05-10T1900,1798A,118.5092,31.6837,马鞍山市,湖东路四小,,33,17,37,8,17,105,,102,102,7,15,8,8,0.6,0.7
2025-05-10T1900,1799A,118.5024,31.6449,马鞍山市,开发区,,34,14,36,6,14,106,,108,108,11,18,6,7,0.4,0.5
2025-05-10T1900,1802A,118.6245,31.7241,马鞍山市,濮塘,,35,16,40,13,18,112,,111,111,4,8,7,9,0.6,0.8
2025-05-10T1900,3633A,118.4918,31.6809,马鞍山市,雨山,,30,22,41,8,15,96,,104,103,17,17,8,8,1.1,0.7
2025-05-10T1900,4191A,118.5274,31.72227,马鞍山市,慈湖高新区,,29,18,42,8,11,91,,96,96,21,24,13,14,0.9,0.9
2025-05-10T1900,1686A,111.0286,21.4688,茂名市,电白南海,,28,22,26,19,16,59,,79,74,10,13,3,6,1.0,1
2025-05-10T1900,1687A,110.9294,21.6533,茂名市,茂石化七小,,,,23,14,12,64,,66,66,12,13,24,10,0.5,0.5
2025-05-10T1900,1688A,110.9107,21.6687,茂名市,健康路,,20,14,22,12,14,64,,69,69,7,9,2,10,0.9,1
2025-05-10T1900,1689A,110.8592,21.6828,茂名市,高岭,,27,27,34,3,11,39,,58,58,10,13,11,13,0.8,0.6
2025-05-10T1900,3450A,111.01,21.5165,茂名市,电白水东,,17,14,21,9,10,52,,65,65,16,16,2,4,0.7,0.7
2025-05-10T1900,2539A,104.0308,30.0478,眉山市,黑龙滩水库,,47,47,99,15,34,118,,117,117,1,11,3,3,0.3,0.5
2025-05-10T1900,2540A,103.8416,30.0874,眉山市,气象局,颗粒物(PM10),65,79,157,24,53,114,,115,115,11,26,3,3,0.2,0.3
2025-05-10T1900,3137A,103.8578,30.0744,眉山市,市委党校,颗粒物(PM10),59,68,131,27,44,115,,113,113,8,22,6,8,0,0.1
2025-05-10T1900,3148A,103.8291,30.0564,眉山市,区人社局,颗粒物(PM10),58,66,106,17,45,111,,113,113,14,27,7,11,0.6,0.7
2025-05-10T1900,1690A,116.1231,24.3284,梅州市,梅江月梅,,47,47,28,7,10,86,,97,97,6,12,5,6,0.7,0.7
2025-05-10T1900,1691A,116.0797,24.2719,梅州市,梅县新城,颗粒物(PM10),51,52,26,12,9,97,,105,105,10,17,6,6,0.6,0.6
2025-05-10T1900,1692A,116.1248,24.2654,梅州市,环境监控中心,,46,46,32,13,13,91,,98,98,8,17,6,8,0.5,0.6
2025-05-10T1900,3315A,116.1233,24.2991,梅州市,梅龙,颗粒物(PM10),54,58,27,24,12,90,,100,100,5,13,6,9,0.3,0.4
2025-05-10T1900,1878A,104.7778,31.4741,绵阳市,富乐山,颗粒物(PM10),76,102,220,35,68,155,,130,130,16,20,8,8,0.5,0.4
2025-05-10T1900,1880A,104.6697,31.4668,绵阳市,高新区自来水公司,颗粒物(PM10),89,128,242,48,64,151,,133,133,16,30,4,5,0.5,0.5
2025-05-10T1900,1881A,104.7287,31.5075,绵阳市,三水厂,颗粒物(PM10),75,100,236,39,73,155,,133,133,17,24,8,8,0.5,0.5
2025-05-10T1900,3491A,104.69,31.5322,绵阳市,西科大附属小学,颗粒物(PM10),98,146,243,51,72,157,,137,137,15,36,8,8,0.5,0.6
2025-05-10T1900,3492A,104.5648,31.5343,绵阳市,安州区旅游局,颗粒物(PM10),103,156,238,48,67,145,,135,135,14,20,11,10,0.4,0.4
2025-05-10T1900,4226A,104.7651,31.4531,绵阳市,绵阳市气象局,颗粒物(PM10),87,123,234,46,70,145,,124,124,17,22,6,7,0.5,0.5
2025-05-10T1900,1784A,129.61,44.561,牡丹江市,环保大楼,,29,28,15,15,15,90,,93,93,21,9,7,6,0.3,0.3
2025-05-10T1900,1785A,129.6115,44.5782,牡丹江市,文化广场,细颗粒物(PM2.5),52,,21,36,16,86,,90,90,27,13,11,10,0.4,0.4
2025-05-10T1900,1786A,129.5904,44.5963,牡丹江市,第一医院,,40,,16,28,13,98,,97,97,15,8,7,7,0.4,0.5
2025-05-10T1900,1787A,129.6364,44.6075,牡丹江市,机车工厂,,31,25,23,11,10,97,,92,92,8,8,10,6,0.6,0.4
2025-05-10T1900,1788A,129.6386,44.5462,牡丹江市,第一中学,,34,22,15,22,13,106,,99,99,12,8,5,4,0.3,0.3
2025-05-10T1900,2531A,105.0703,29.61,内江市,市监测站,颗粒物(PM10),67,83,105,37,63,115,,110,110,9,15,13,14,0.5,0.6
2025-05-10T1900,2532A,105.0717,29.5947,内江市,东兴区政府,颗粒物(PM10),51,52,101,24,54,118,,109,109,8,16,12,13,0.3,0.4
2025-05-10T1900,2533A,105.0653,29.5817,内江市,内江二中,颗粒物(PM10),53,56,110,28,61,115,,105,105,11,19,6,7,0.3,0.5
2025-05-10T1900,2534A,105.0406,29.5822,内江市,内江日报社,细颗粒物(PM2.5),60,50,112,43,70,108,,99,99,4,17,3,3,0.3,0.4
2025-05-10T1900,2628A,92.0657,31.4846,那曲市,那曲监测站,,37,8,44,3,23,117,,113,113,9,17,6,7,0.3,0.6
2025-05-10T1900,4243A,92.0515,31.4787,那曲市,那曲市委宣传部,,40,30,33,11,14,125,,119,119,2,7,4,5,0.3,0.4
2025-05-10T1900,1290A,115.8931,28.6843,南昌市,省外办,,35,34,48,24,26,104,,111,111,12,28,6,6,0.4,0.5
2025-05-10T1900,1291A,115.8886,28.7003,南昌市,省林业公司,,31,29,54,14,23,99,,106,106,11,34,8,8,0.6,0.6
2025-05-10T1900,1292A,115.8126,28.7442,南昌市,林科所,,34,19,44,14,17,107,,116,115,10,18,4,4,0.3,0.4
2025-05-10T1900,1294A,115.8518,28.687,南昌市,建工学校,细颗粒物(PM2.5),60,,63,43,33,107,,117,116,14,25,4,4,0.4,0.5
2025-05-10T1900,1295A,115.8921,28.6424,南昌市,象湖,,50,50,58,17,21,108,,117,117,10,23,8,8,0.5,0.5
2025-05-10T1900,1296A,115.7423,28.7996,南昌市,武术学校,,35,18,33,14,12,109,,115,115,6,4,4,5,0.3,0.4
2025-05-10T1900,3046A,115.9084,28.6062,南昌市,机电学校,,47,47,64,12,23,106,,116,116,12,31,4,4,0.3,0.4
2025-05-10T1900,3690A,115.9721,28.7031,南昌市,外国语学校,,34,34,54,20,24,101,,116,115,20,21,8,7,0.3,0.3
2025-05-10T1900,4192A,115.9316,28.68677,南昌市,南京东路235号,颗粒物(PM10),51,51,66,18,19,106,,116,115,2,13,4,4,0.6,0.7
2025-05-10T1900,1906A,106.0789,30.8023,南充市,南充市委,颗粒物(PM10),63,76,142,38,49,128,,126,126,12,15,5,6,0.2,0.3
2025-05-10T1900,1907A,106.1031,30.8217,南充市,南充炼油厂,颗粒物(PM10),60,70,134,30,49,118,,116,116,11,14,5,6,0.2,0.1
2025-05-10T1900,4227A,106.1083,30.7884,南充市,梨树横街98号,颗粒物(PM10),66,82,144,25,38,119,,117,117,10,14,4,5,0.2,0.2
2025-05-10T1900,4304A,106.1172,30.843,南充市,清泉寺北路188号,颗粒物(PM10),55,59,133,35,45,117,,115,115,12,13,5,5,0.2,0.2
2025-05-10T1900,4305A,106.067,30.7616,南充市,同庆路1号,颗粒物(PM10),60,69,128,31,46,115,,111,111,10,16,4,7,0.3,0.3
2025-05-10T1900,1151A,118.8086,32.1065,南京市,迈皋桥,,31,10,33,9,14,97,,96,96,2,7,4,4,0.1,0.1
2025-05-10T1900,1152A,118.7538,32.0551,南京市,草场门,,31,17,37,9,14,98,,95,95,13,15,3,3,0.1,0.1
2025-05-10T1900,1153A,118.7794,32.0745,南京市,山西路,,32,14,48,3,12,102,,99,99,9,18,4,4,0.1,0.1
2025-05-10T1900,1154A,118.7752,32.0023,南京市,中华门,,29,12,34,9,11,92,,92,92,14,16,5,4,0.4,0.4
2025-05-10T1900,1155A,118.8109,32.0309,南京市,瑞金路,,30,19,37,7,14,94,,93,93,11,14,6,6,0.6,0.5
2025-05-10T1900,1156A,118.7997,32.0754,南京市,玄武湖,,30,18,37,3,9,94,,91,91,6,6,4,4,0.5,0.5
2025-05-10T1900,1157A,118.6414,32.0931,南京市,浦口,,,20,46,6,12,92,,90,83,,14,2,4,0.6,0.6
2025-05-10T1900,1158A,118.7356,31.9996,南京市,奥体中心,,33,12,37,9,12,105,,104,104,11,14,3,3,0.3,0.2
2025-05-10T1900,1159A,118.9125,32.1028,南京市,仙林大学城,,31,19,44,7,14,99,,96,96,9,17,9,10,0.3,0.4
2025-05-10T1900,3422A,118.8436,31.9198,南京市,江宁彩虹桥,,33,15,34,3,12,103,,105,105,7,17,4,3,0.3,0.4
2025-05-10T1900,3427A,118.8554,32.3578,南京市,六合雄州,,30,14,36,3,16,94,,95,95,20,20,5,5,0.3,0.3
2025-05-10T1900,4249A,118.8708,31.3402,南京市,汶溪路181号,,,,47,,17,101,,95,95,9,15,2,3,0.3,0.3
2025-05-10T1900,4312A,119.019,31.6512,南京市,中山西路1号,,32,7,29,6,16,101,,108,107,10,13,5,6,0.4,0.5
2025-05-10T1900,1401A,108.3103,22.7881,南宁市,二十一中,,30,15,23,14,13,96,,89,89,9,12,2,3,0.7,0.7
2025-05-10T1900,1402A,108.3141,22.8528,南宁市,北湖,,35,35,29,12,18,88,,90,90,10,14,5,8,0.6,0.6
2025-05-10T1900,1403A,108.3206,22.8225,南宁市,市监测站,,27,18,23,15,15,85,,82,82,10,12,4,6,0.4,0.5
2025-05-10T1900,1404A,108.3829,22.8037,南宁市,大自然花园,,30,28,27,17,14,95,,92,92,9,11,5,5,0.4,0.4
2025-05-10T1900,1405A,108.4394,22.7904,南宁市,仙葫,,30,24,25,16,15,94,,86,86,6,11,6,6,0.6,0.6
2025-05-10T1900,1406A,108.2397,22.8467,南宁市,区农职院,,29,19,25,12,18,92,,89,89,10,15,4,8,0.9,0.9
2025-05-10T1900,1407A,108.3275,22.735,南宁市,英华嘉园,,37,37,24,18,14,88,,92,92,12,10,7,7,0.5,0.4
2025-05-10T1900,3401A,108.4834,22.7618,南宁市,红星社区,,34,24,28,16,20,106,,100,100,6,14,9,9,0.4,0.5
2025-05-10T1900,4221A,108.2177,22.7774,南宁市,乐贤路16号,,34,34,36,11,13,79,,83,83,8,21,3,4,0.6,0.6
2025-05-10T1900,2332A,118.1681,26.6369,南平市,南平市监测站,,,,31,17,12,69,,112,108,20,10,4,4,,0.6
2025-05-10T1900,2333A,118.1825,26.6489,南平市,南平铝业有限公司,颗粒物(PM10),53,55,34,9,9,80,,121,117,19,12,4,4,0.7,0.6
2025-05-10T1900,2334A,118.1756,26.6272,南平市,南平七中,,44,44,35,14,12,97,,114,113,8,10,5,5,0.6,0.6
2025-05-10T1900,1168A,120.9098,31.9663,南通市,狼山街道,,33,22,30,15,14,103,,112,111,13,23,4,4,0.5,0.6
2025-05-10T1900,1169A,120.86,32.0005,南通市,虹桥,,32,28,33,20,18,100,,112,110,17,27,2,3,0.5,0.6
2025-05-10T1900,1170A,120.87,32.02,南通市,城中,,32,25,39,11,15,100,,114,111,17,24,2,4,0.5,0.6
2025-05-10T1900,1171A,120.94,31.93,南通市,星湖花园,,28,24,33,15,18,87,,84,84,30,43,6,4,0.4,0.4
2025-05-10T1900,1172A,120.81,32.0417,南通市,紫琅学院,,29,19,35,11,14,92,,106,104,16,19,4,5,0.5,0.5
2025-05-10T1900,3291A,121.067,32.062,南通市,通州监测站,,33,22,33,9,13,103,,115,114,9,14,4,5,0.5,0.6
2025-05-10T1900,3432A,120.9348,31.9883,南通市,环境教育馆,,36,27,39,10,15,113,,122,121,11,23,2,3,0.2,0.3
2025-05-10T1900,2404A,112.5224,33.0122,南阳市,瓦房庄,,40,40,55,18,20,118,,121,121,13,11,4,5,0.3,0.3
2025-05-10T1900,2405A,112.5003,32.9735,南阳市,汉画馆,,36,33,42,19,19,115,,119,119,11,12,4,4,0.2,0.2
2025-05-10T1900,2406A,112.5573,33.027,南阳市,气象站,,36,29,45,19,20,114,,117,117,7,7,4,4,0.3,0.3
2025-05-10T1900,2407A,112.5481,32.9689,南阳市,理工学院,,36,35,46,19,21,113,,117,117,12,9,4,3,0.2,0.3
2025-05-10T1900,4008A,112.5234,32.9922,南阳市,卧龙区政府,,35,27,46,22,20,112,,116,116,18,16,4,4,0.4,0.3
2025-05-10T1900,1234A,121.8358,29.911,宁波市,区环保大楼,,49,49,45,27,22,124,,135,135,32,34,10,9,0.3,0.5
2025-05-10T1900,1235A,121.56,29.82,宁波市,万里学院,,45,34,34,12,22,144,,153,151,15,35,4,5,0.3,0.6
2025-05-10T1900,1236A,121.713,29.9572,宁波市,龙赛医院,,43,40,44,12,16,136,,144,144,12,33,7,7,0.3,0.5
2025-05-10T1900,1239A,121.633,29.7733,宁波市,钱湖水厂,,44,13,26,10,16,138,,150,150,18,16,8,8,0.2,0.5
2025-05-10T1900,1240A,121.5856,29.8635,宁波市,太古小学,,45,31,41,14,19,142,,149,149,11,31,6,6,0.3,0.7
2025-05-10T1900,1241A,121.524,29.8674,宁波市,市环境监测中心,,42,32,34,15,17,133,,141,141,16,36,11,11,0.6,0.9
2025-05-10T1900,2871A,121.6147,29.9017,宁波市,万里国际学校,,43,42,37,12,18,136,,140,140,16,36,9,9,0.5,0.8
2025-05-10T1900,3710A,121.5594,29.8975,宁波市,白沙活动中心,,44,34,36,23,20,138,,144,144,12,33,8,8,0.4,0.6
2025-05-10T1900,2341A,119.5388,26.6612,宁德市,宁德市监测站,,40,40,28,16,12,124,,130,130,15,18,5,6,0.4,0.5
2025-05-10T1900,3209A,119.5231,26.6562,宁德市,宁德一中,,39,36,25,12,10,124,,130,130,12,10,3,3,0.3,0.3
2025-05-10T1900,2618A,98.8601,25.8567,怒江傈僳族自治州,州监测站,,50,50,36,23,22,111,,91,91,13,9,9,8,0.4,0.4
2025-05-10T1900,2619A,98.8546,25.8417,怒江傈僳族自治州,泸水一中,颗粒物(PM10),52,53,39,32,20,85,,72,72,22,18,7,7,0.3,0.3
2025-05-10T1900,1888A,101.6891,26.571,攀枝花市,弄弄坪,,37,37,51,9,17,77,,120,115,13,13,5,7,0.5,0.5
2025-05-10T1900,1889A,101.5769,26.5928,攀枝花市,河门口,颗粒物(PM10),57,64,53,22,25,76,,127,121,14,18,8,16,0.9,0.7
2025-05-10T1900,1890A,101.7169,26.585,攀枝花市,炳草岗,,47,47,50,13,19,76,,122,116,13,19,5,6,0.5,0.5
2025-05-10T1900,1891A,101.7369,26.5008,攀枝花市,仁和,,48,48,43,20,22,71,,124,118,13,13,10,10,0.5,0.5
2025-05-10T1900,2835A,101.7227,26.567,攀枝花市,四十中小,,,,32,17,17,84,,129,123,10,10,7,9,0.6,0.6
2025-05-10T1900,1604A,122.0303,41.1489,盘锦市,开发区,,36,34,31,19,18,114,,134,132,15,9,7,8,0.3,0.3
2025-05-10T1900,1605A,122.0485,41.0883,盘锦市,兴隆台,,39,34,38,27,22,119,,119,119,16,12,7,7,0.4,0.5
2025-05-10T1900,1606A,121.8297,41.1028,盘锦市,新生街道,,33,27,27,13,16,103,,132,127,28,19,8,8,0.4,0.4
2025-05-10T1900,1832A,113.3257,33.742,平顶山市,新华旅馆,,49,49,49,22,25,124,,131,131,11,9,4,5,0.4,0.4
2025-05-10T1900,1833A,113.2919,33.737,平顶山市,规划设计院,,43,43,43,22,25,124,,129,129,10,9,5,6,0.3,0.4
2025-05-10T1900,1834A,113.182,33.774,平顶山市,平顶山工学院,,46,46,43,22,22,125,,128,128,5,5,3,4,0.4,0.4
2025-05-10T1900,3204A,113.3025,33.73,平顶山市,规划局,,44,44,42,20,19,122,,127,127,5,5,6,7,0.4,0.4
2025-05-10T1900,3594A,112.8867,33.9116,平顶山市,石龙区,颗粒物(PM10),60,69,67,21,28,126,,126,126,10,10,7,7,0.2,0.2
2025-05-10T1900,2656A,106.6692,35.5461,平凉市,聚贤嘉苑,,38,36,66,6,22,121,,120,120,4,19,8,9,0.1,0.2
2025-05-10T1900,2657A,106.7021,35.5307,平凉市,博物馆,,41,41,64,10,20,122,,124,124,5,15,8,8,0.2,0.3
2025-05-10T1900,2347A,114.0997,27.5002,萍乡市,武功山,,34,34,31,19,13,103,,109,109,8,6,12,13,0.6,0.6
2025-05-10T1900,2348A,113.8385,27.6434,萍乡市,中医院,颗粒物(PM10),51,52,53,13,19,104,,113,113,4,10,8,9,0.4,0.6
2025-05-10T1900,2349A,113.8493,27.6253,萍乡市,市政府车库,,35,35,39,14,25,103,,113,113,11,12,5,6,0.2,0.4
2025-05-10T1900,2350A,113.8676,27.6435,萍乡市,市环保局,,35,35,45,11,22,108,,113,112,7,15,4,7,0.4,0.6
2025-05-10T1900,2351A,113.866,27.6198,萍乡市,安源区政府,,31,24,56,8,18,99,,105,105,6,11,4,6,0.4,0.8
2025-05-10T1900,2319A,119.0141,25.4325,莆田市,荔城区仓后路,,39,39,27,13,10,119,,126,126,10,15,4,4,0.6,0.6
2025-05-10T1900,2320A,119.0015,25.4553,莆田市,莆田市监测站,,,,23,19,12,124,,132,132,7,7,5,5,0.5,0.5
2025-05-10T1900,2321A,119.1119,25.4561,莆田市,涵江区六中,颗粒物(PM10),51,52,27,12,12,123,,130,130,11,17,4,4,0.4,0.4
2025-05-10T1900,2322A,119.1013,25.3215,莆田市,秀屿区政府,,39,32,25,9,14,123,,126,126,5,12,4,4,0.5,0.5
2025-05-10T1900,2392A,115.0312,35.7636,濮阳市,环保局,,42,42,21,23,12,122,,119,119,14,11,6,6,0.5,0.6
2025-05-10T1900,2394A,115.0574,35.7609,濮阳市,油田运输公司,,40,40,26,27,11,121,,128,128,30,13,6,6,0.5,0.6
2025-05-10T1900,3021A,115,35.7668,濮阳市,濮水河管理处,,41,41,20,23,12,111,,125,125,17,10,4,4,0.5,0.5
2025-05-10T1900,4216A,115.0924,35.7686,濮阳市,任丘路479号,,43,43,25,18,11,123,,119,119,17,13,6,6,0.3,0.5
2025-05-10T1900,2601A,100.98,22.7633,普洱市,市环保局,颗粒物(PM10),58,65,63,25,23,128,,121,121,8,7,8,8,0.7,0.7
2025-05-10T1900,2602A,100.9817,22.8322,普洱市,普洱第二中学,,42,42,43,29,25,132,,127,127,8,13,8,7,0.4,0.5
2025-05-10T1900,2262A,131.0518,45.8751,七台河市,新一中,,39,39,12,20,10,112,,118,118,9,6,10,11,0.6,0.9
2025-05-10T1900,3345A,131.0577,45.7879,七台河市,中波台,颗粒物(PM10),60,69,15,38,9,87,,90,90,16,11,5,6,0.4,0.4
2025-05-10T1900,3637A,131.0176,45.7761,七台河市,人民广场,,36,30,14,25,14,107,,107,107,11,7,10,10,0.5,0.5
2025-05-10T1900,3684A,130.8781,45.8222,七台河市,新建矿广场,颗粒物(PM10),62,73,21,31,10,94,,102,102,21,11,10,10,0.6,0.6
2025-05-10T1900,1779A,123.9305,47.3636,齐齐哈尔市,安居小区,,45,45,39,12,21,94,,102,100,18,14,6,4,0.4,0.4
2025-05-10T1900,1780A,123.9488,47.3386,齐齐哈尔市,中心广场,,,50,44,12,22,94,,108,106,22,14,,3,0.4,0.4
2025-05-10T1900,1781A,123.9483,47.3227,齐齐哈尔市,农牧车辆厂,,41,41,43,6,22,95,,103,102,14,12,6,5,0.3,0.4
2025-05-10T1900,1783A,123.945,47.2988,齐齐哈尔市,市环境监测站,,34,34,43,8,22,100,,107,106,10,10,4,3,0.2,0.3
2025-05-10T1900,3662A,123.6333,47.2075,齐齐哈尔市,富区青少年活动中心,,42,42,42,22,28,97,,100,100,7,11,2,3,0.4,0.4
2025-05-10T1900,2591A,107.9783,26.5747,黔东南苗族侗族自治州,市环境监测站,,28,13,24,9,16,89,,81,81,6,14,3,3,0.3,0.4
2025-05-10T1900,2881A,107.8908,26.5311,黔东南苗族侗族自治州,凯里学院,,27,,17,6,13,86,,79,78,5,8,1,2,0.3,0.3
2025-05-10T1900,2593A,107.5228,26.2403,黔南布依族苗族自治州,小围寨,,27,6,17,3,9,86,,84,74,4,9,1,2,0.2,0.2
2025-05-10T1900,3538A,107.5175,26.2978,黔南布依族苗族自治州,沙坝,,30,14,19,3,9,93,,81,81,5,9,3,4,0.3,0.2
2025-05-10T1900,2589A,104.9022,25.0925,黔西南布依族苗族自治州,场坝街,,26,15,27,3,14,83,,96,82,6,6,3,3,0.2,0.3
2025-05-10T1900,2590A,104.8811,25.0992,黔西南布依族苗族自治州,坪东大道,,23,12,26,3,18,72,,86,79,11,9,1,2,0.3,0.3
2025-05-10T1900,2502A,108.6236,21.9667,钦州市,市环保站,,35,29,32,24,13,60,,62,62,20,18,3,3,1.0,0.8
2025-05-10T1900,2503A,108.6549,21.9481,钦州市,沙埠小学,,30,30,32,18,16,58,,66,66,16,18,5,6,0.3,0.3
2025-05-10T1900,2504A,108.5989,21.7431,钦州市,港区一小,,26,26,39,18,16,65,,66,66,15,18,6,8,0.7,0.7
2025-05-10T1900,3404A,108.5959,21.9633,钦州市,北职校,,45,45,35,27,22,64,,62,62,14,18,6,6,0.9,0.9
2025-05-10T1900,1043A,119.7493,40.0116,秦皇岛市,第一关,,33,31,27,23,18,87,,124,119,34,16,4,4,0.3,0.3
2025-05-10T1900,1044A,119.5897,39.9499,秦皇岛市,监测站,,38,38,37,10,11,109,,131,129,16,21,3,4,0.3,0.4
2025-05-10T1900,1046A,119.5251,39.9041,秦皇岛市,建设大厦,,35,35,35,17,14,106,,124,123,21,20,3,3,0.3,0.3
2025-05-10T1900,3132A,119.610547,39.943889,秦皇岛市,文明里,,33,32,33,12,14,105,,126,124,17,16,3,3,0.3,0.3
2025-05-10T1900,4198A,119.5090,39.8253,秦皇岛市,北戴河轮滑馆,,35,35,26,16,15,106,,125,123,13,13,4,4,0.3,0.3
2025-05-10T1900,1307A,120.6659,36.2403,青岛市,仰口,,44,22,19,18,18,140,,133,133,5,4,8,7,0.3,0.3
2025-05-10T1900,1310A,120.4134,36.0658,青岛市,市南区东部子站,,38,29,31,17,16,120,,124,124,25,14,8,7,0.4,0.4
2025-05-10T1900,1311A,120.3664,36.1032,青岛市,四方区子站,,42,24,22,12,15,132,,132,132,12,11,4,5,0.6,0.6
2025-05-10T1900,1312A,120.2994,36.054,青岛市,市南区西部子站,,40,19,22,10,14,125,,123,123,24,17,7,7,0.6,0.6
2025-05-10T1900,1313A,120.4581,36.0858,青岛市,崂山区子站,,41,24,22,14,10,131,,131,131,13,12,8,8,0.4,0.4
2025-05-10T1900,1315A,120.3999,36.3083,青岛市,城阳区子站,,38,29,27,12,15,121,,126,126,18,12,6,5,0.4,0.4
2025-05-10T1900,1966A,120.0405,35.8735,青岛市,黄岛区4号,,39,31,25,17,15,122,,126,126,19,15,8,8,0.5,0.5
2025-05-10T1900,3362A,120.5014,36.4034,青岛市,即墨2号,,38,36,30,15,19,121,,124,124,9,8,7,7,0.5,0.5
2025-05-10T1900,3642A,120.3503,36.0736,青岛市,市北区南部,,38,35,28,12,16,119,,120,120,8,8,8,8,0.3,0.3
2025-05-10T1900,3643A,120.3948,36.1805,青岛市,李沧区北部,细颗粒物(PM2.5),67,,24,48,19,113,,111,111,14,15,8,8,0.5,0.5
2025-05-10T1900,4290A,120.1969,35.9546,青岛市,珠江路669号,,39,24,26,20,17,124,,126,126,12,15,7,6,0.5,0.6
2025-05-10T1900,1702A,113.0426,23.691,清远市,环保大楼,,27,27,22,17,11,85,,112,110,16,15,6,6,0.9,0.8
2025-05-10T1900,1703A,113.0208,23.7106,清远市,凤城街办,,40,40,31,15,14,72,,95,92,21,20,8,7,0.8,0.6
2025-05-10T1900,3025A,113.0477,23.6344,清远市,技师学院,,36,36,32,17,16,77,,94,93,18,23,7,8,0.7,0.6
2025-05-10T1900,3318A,112.9903,23.7403,清远市,清新太和,,34,34,27,15,12,74,,90,88,10,11,9,9,0.6,0.5
2025-05-10T1900,3455A,113.076,23.7198,清远市,清城东城,,39,39,29,19,13,68,,101,96,9,7,8,8,0.7,0.6
2025-05-10T1900,2661A,107.6325,35.7357,庆阳市,庆阳五中,,47,47,64,16,33,123,,118,118,6,5,2,3,0.4,0.5
2025-05-10T1900,2662A,107.6364,35.7067,庆阳市,市环保局,,40,39,72,13,31,128,,122,122,6,6,5,10,0.3,0.3
2025-05-10T1900,1916A,103.7897,25.5035,曲靖市,环境监测站,,26,26,35,15,17,72,,86,70,18,15,8,6,0.6,0.6
2025-05-10T1900,1917A,103.8,25.5364,曲靖市,烟厂办公区,,26,26,32,13,16,72,,88,73,18,11,7,4,0.7,0.6
2025-05-10T1900,3376A,103.7947,25.462,曲靖市,南苑二区,,25,16,33,9,15,79,,90,74,14,13,6,7,0.6,0.7
2025-05-10T1900,3377A,103.7444,25.5261,曲靖市,曲靖师范学院,,27,20,32,9,17,85,,88,79,9,9,6,6,0.4,0.4
2025-05-10T1900,1264A,118.8692,28.9398,衢州市,环保大楼,颗粒物(PM10),55,59,44,23,22,122,,128,127,14,16,3,6,0.4,0.5
2025-05-10T1900,1265A,118.8709,28.9666,衢州市,实验学校,颗粒物(PM10),51,51,36,28,20,123,,130,130,14,17,1,3,0.4,0.5
2025-05-10T1900,1266A,118.8621,28.9808,衢州市,衢州学院,颗粒物(PM10),53,56,39,25,22,111,,120,119,21,21,5,8,0.4,0.5
2025-05-10T1900,1611A,118.5819,24.9117,泉州市,涂山街,,,29,30,12,18,116,,124,124,7,22,4,5,,0.6
2025-05-10T1900,1612A,118.5972,24.8978,泉州市,津头埔,,35,32,30,12,18,112,,122,122,13,25,2,3,0.6,0.6
2025-05-10T1900,1613A,118.6663,24.9424,泉州市,万安,,37,32,27,11,14,117,,129,129,6,15,4,4,0.6,0.6
2025-05-10T1900,3529A,118.6333,24.9264,泉州市,城华南路,,37,24,27,11,16,116,,124,124,9,17,3,4,0.5,0.5
2025-05-10T1900,2626A,88.8876,29.2718,日喀则市,日喀则监测站,,45,30,21,6,6,144,,149,148,5,5,8,6,0.3,0.3
2025-05-10T1900,3726A,88.8781,29.2426,日喀则市,林业技术推广中心,,46,39,20,7,5,146,,146,146,2,2,7,7,0.3,0.3
2025-05-10T1900,1659A,119.471,35.4209,日照市,监测站,,38,36,18,17,10,120,,124,124,20,14,5,5,0.5,0.5
2025-05-10T1900,1660A,119.523,35.4216,日照市,市政府广场,,39,29,18,12,9,122,,122,122,12,8,4,4,0.4,0.4
2025-05-10T1900,1661A,119.5587,35.4044,日照市,港务局,,41,34,20,25,18,129,,131,131,20,14,6,5,0.8,0.8
2025-05-10T1900,3507A,119.5328,35.4625,日照市,职业技术学院,,37,31,20,17,9,118,,124,124,19,11,4,4,0.5,0.5
2025-05-10T1900,3604A,119.3266,35.1044,日照市,岚山环保分局,,41,41,19,23,14,90,,115,114,34,17,5,5,0.7,0.6
2025-05-10T1900,1835A,111.1922,34.7752,三门峡市,市政府,,42,33,37,27,32,134,,127,127,9,12,4,6,0.5,0.6
2025-05-10T1900,1836A,111.1587,34.7942,三门峡市,开发区,,42,42,54,26,30,123,,118,118,9,11,6,7,0.5,0.5
2025-05-10T1900,3039A,111.1911,34.7829,三门峡市,三门峡市第一小学,,44,44,42,29,34,135,,128,128,13,14,8,10,0.4,0.4
2025-05-10T1900,3598A,111.1,34.7167,三门峡市,富达温泉假日酒店,,46,46,54,26,28,130,,125,125,12,10,4,7,0.3,0.2
2025-05-10T1900,2324A,117.6211,26.2625,三明市,三钢,,41,41,36,16,15,111,,112,112,7,9,4,3,0.6,0.5
2025-05-10T1900,2325A,117.635,26.2714,三明市,三明二中,颗粒物(PM10),51,51,33,16,11,101,,107,107,12,9,3,3,0.4,0.5
2025-05-10T1900,2326A,117.6028,26.2378,三明市,三元区政府,颗粒物(PM10),52,54,40,12,11,110,,112,112,10,13,2,3,0.4,0.6
2025-05-10T1900,1876A,109.5078,18.2489,三亚市,河东子站,,24,20,15,11,9,76,,86,86,9,5,5,4,0.3,0.4
2025-05-10T1900,1877A,109.4964,18.2681,三亚市,河西子站,,25,,14,17,8,76,,86,86,11,7,3,2,0.2,0.2
2025-05-10T1900,3540A,109.7348,18.3443,三亚市,君悦子站,,31,14,16,3,5,99,,99,99,4,8,2,2,0.2,0.3
2025-05-10T1900,2625A,91.7706,29.2436,山南市,山南人民医院,颗粒物(PM10),51,52,34,16,14,140,,133,133,3,6,4,4,0.2,0.2
2025-05-10T1900,1674A,116.6794,23.3667,汕头市,金平子站,,40,,26,12,16,128,,121,121,16,21,5,7,0.8,0.9
2025-05-10T1900,1675A,116.7244,23.3633,汕头市,龙湖子站,,40,28,26,14,15,125,,118,118,9,11,5,7,0.4,0.5
2025-05-10T1900,1676A,116.7258,23.2775,汕头市,濠江子站,,42,23,27,11,16,133,,125,125,11,13,4,6,0.7,0.8
2025-05-10T1900,1677A,116.7519,23.4714,汕头市,澄海子站,,38,22,29,12,15,121,,116,116,8,14,2,4,0.7,0.7
2025-05-10T1900,1678A,116.6092,23.2539,汕头市,潮阳子站,,,29,27,13,15,131,,122,122,,11,7,8,0.6,0.6
2025-05-10T1900,3444A,116.454,23.2684,汕头市,潮南峡山,,40,29,32,21,20,128,,122,122,9,5,5,6,0.6,0.7
2025-05-10T1900,3624A,116.4069,23.2533,汕头市,潮南子站,,,53,35,34,21,130,,118,118,12,17,4,5,,0.7
2025-05-10T1900,1693A,115.3653,22.775,汕尾市,市环保局,,34,21,18,14,10,106,,103,103,6,6,6,7,0.5,0.5
2025-05-10T1900,1694A,115.3706,22.7898,汕尾市,市政府,,46,,21,32,10,107,,102,102,8,7,4,4,0.4,0.3
2025-05-10T1900,1695A,115.3622,22.7925,汕尾市,新城中学,,41,41,18,18,10,118,,106,106,6,8,2,2,0.5,0.5
2025-05-10T1900,2645A,109.9154,33.8715,商洛市,监测站,,,36,52,26,26,127,,121,121,,13,4,8,0.3,0.4
2025-05-10T1900,3045A,109.9643,33.8471,商洛市,商州区中学,,39,39,53,23,24,124,,122,122,10,16,3,4,0.3,0.3
2025-05-10T1900,2408A,115.6702,34.4285,商丘市,环境监测站,,40,40,35,15,12,123,,119,119,13,9,3,2,0.2,0.3
2025-05-10T1900,2409A,115.6458,34.4045,商丘市,粮食局,,46,46,66,21,14,118,,115,115,12,8,3,2,0.2,0.2
2025-05-10T1900,2410A,115.6293,34.3948,商丘市,睢阳区环保局,,38,33,32,18,14,119,,118,118,16,11,4,3,0.3,0.3
2025-05-10T1900,3171A,115.6071,34.4465,商丘市,梁园区档案局,,44,44,33,28,14,106,,113,113,24,14,2,2,0.2,0.2
2025-05-10T1900,1141A,121.4,31.238,上海市,普陀,,,51,48,21,23,106,,129,129,,31,5,5,0.5,0.6
2025-05-10T1900,1142A,121.478,31.2036,上海市,十五厂,,,53,45,29,23,113,,137,137,,31,8,8,0.6,0.7
2025-05-10T1900,1143A,121.467,31.3008,上海市,虹口,,49,49,60,21,23,107,,125,125,16,27,6,7,0.3,0.4
2025-05-10T1900,1147A,121.425,31.2261,上海市,静安监测站,,47,47,47,24,22,110,,132,132,28,36,8,8,0.6,0.7
2025-05-10T1900,1148A,121.703,31.1907,上海市,浦东川沙,,,52,48,,24,115,,123,123,25,40,6,7,0.6,0.6
2025-05-10T1900,1149A,121.533,31.2284,上海市,浦东新区监测站,颗粒物(PM10),51,52,45,21,19,115,,135,135,20,27,7,8,0.7,0.7
2025-05-10T1900,1150A,121.577,31.2071,上海市,浦东张江,颗粒物(PM10),51,52,48,19,24,117,,134,134,19,32,6,6,0.7,0.7
2025-05-10T1900,3265A,121.4316,31.3322,上海市,宝山庙行,颗粒物(PM10),52,53,53,24,25,105,,127,125,20,32,6,7,0.5,0.6
2025-05-10T1900,3266A,121.8791,31.4662,上海市,崇明上实东滩,,42,42,33,22,17,117,,138,136,7,16,2,2,0.3,0.5
2025-05-10T1900,3268A,121.3162,31.2838,上海市,嘉定南翔,,43,43,45,18,24,103,,124,124,19,38,6,6,0.7,0.8
2025-05-10T1900,3269A,121.3359,30.7456,上海市,金山新城,,39,34,35,17,18,122,,135,135,11,15,2,4,0.5,0.6
2025-05-10T1900,3270A,121.4996,31.0739,上海市,闵行浦江,,46,46,43,24,24,109,,126,126,22,31,5,6,0.6,0.6
2025-05-10T1900,3271A,121.2886,31.1663,上海市,青浦徐泾,,43,43,43,20,22,99,,122,122,21,31,6,6,0.7,0.6
2025-05-10T1900,3272A,121.2186,31.0378,上海市,松江图书馆,,42,42,38,15,20,114,,129,129,19,27,8,8,0.6,0.6
2025-05-10T1900,3273A,121.3902,31.2059,上海市,长宁仙霞,,47,47,49,24,23,102,,124,123,27,37,7,7,0.8,0.8
2025-05-10T1900,3274A,121.7965,31.0507,上海市,浦东惠南,,49,49,44,34,31,102,,133,131,30,28,8,8,0.9,0.9
2025-05-10T1900,3544A,121.4891,30.925,上海市,奉贤南桥新城,,43,43,40,8,28,117,,132,132,18,23,4,4,0.7,0.7
2025-05-10T1900,4183A,121.4174,31.16637,上海市,冠生园路458号,,44,44,40,27,24,115,,136,136,23,25,8,8,0.6,0.7
2025-05-10T1900,4205A,121.5419,31.2683,上海市,宁武路151号,,,55,49,,23,115,,132,132,17,28,5,5,0.6,0.6
2025-05-10T1900,2382A,117.9756,28.4436,上饶市,市监测站,,50,50,41,19,17,128,,130,130,9,15,4,8,0.3,0.5
2025-05-10T1900,2383A,117.9519,28.4628,上饶市,凤凰光学,,48,48,41,15,17,124,,128,128,8,18,10,11,0.7,0.8
2025-05-10T1900,3685A,117.897,28.4315,上饶市,双创科技城,,45,45,39,14,18,121,,127,127,13,23,8,12,0.5,0.6
2025-05-10T1900,4211A,118.1904,28.4448,上饶市,裕丰大道,,43,43,32,23,18,120,,133,132,10,8,13,9,0.3,0.4
2025-05-10T1900,1669A,113.5824,24.7733,韶关市,市八中,颗粒物(PM10),56,62,41,22,17,102,,103,103,11,15,12,11,0.5,0.6
