timepoint,stationcode,longitude,latitude,area,positionname,primarypollutant,aqi,pm10,pm10_24h,pm2_5,pm2_5_24h,o3,o3_24h,o3_8h,o3_8h_24h,no2,no2_24h,so2,so2_24h,co,co_24h
2023-12-31T0100,2566A,102.1879,31.914,阿坝藏族羌族自治州,州农科所,,,,,15,14,14,,,,12,22,4,8,0.6,0.6
2023-12-31T0100,2568A,102.2502,31.8896,阿坝藏族羌族自治州,马师校,,22,,13,15,16,22,,,,24,19,2,2,0.5,0.6
2023-12-31T0100,3994A,102.2165,31.9024,阿坝藏族羌族自治州,马尔康中学西区,,13,13,19,6,10,35,,,,15,12,4,4,0.4,0.4
2023-12-31T0100,2695A,80.292,41.1694,阿克苏地区,电视台,颗粒物(PM10),156,261,292,63,88,48,,,,27,49,10,10,0.9,2.3
2023-12-31T0100,2696A,80.2613,41.1551,阿克苏地区,艺术中心,颗粒物(PM10),157,264,288,82,94,60,,,,21,43,9,9,0.7,1.7
2023-12-31T0100,2204A,105.6467,38.8363,阿拉善盟,西城区西花园,,48,48,50,21,17,18,,,,52,22,9,8,0.8,0.4
2023-12-31T0100,2205A,105.6985,38.8411,阿拉善盟,蒙二幼,,37,37,56,8,15,48,,,,23,18,7,8,0.5,0.5
2023-12-31T0100,2206A,105.724,38.8516,阿拉善盟,环保局新楼,,33,33,47,9,11,68,,,,10,6,5,4,0.5,0.5
2023-12-31T0100,2708A,88.1264,47.8517,阿勒泰地区,市站,,29,29,21,5,12,42,,,,20,26,4,4,0.2,0.2
2023-12-31T0100,2630A,80.1161,32.5,阿里地区,阿里监测站,,20,14,9,6,4,61,,,,16,13,13,8,0.7,0.6
2023-12-31T0100,3192A,80.0903,32.5028,阿里地区,阿里藏医院,,24,10,15,3,7,76,,,,7,20,18,11,0.5,0.6
2023-12-31T0100,2642A,109.0318,32.6537,安康市,香溪洞,细颗粒物(PM2.5),108,,85,81,73,43,,,,30,22,5,6,0.6,0.5
2023-12-31T0100,2643A,109.0281,32.6939,安康市,安康市监测站,细颗粒物(PM2.5),110,111,127,83,97,5,,,,44,42,8,11,1.0,1.2
2023-12-31T0100,2644A,109.0072,32.6975,安康市,汉滨区检察院,细颗粒物(PM2.5),94,89,114,70,91,8,,,,36,33,8,11,0.6,0.8
2023-12-31T0100,2291A,117.0809,30.5177,安庆市,环科院,细颗粒物(PM2.5),193,170,200,145,173,12,,,,81,53,8,9,1.4,1.6
2023-12-31T0100,2292A,117.0331,30.5119,安庆市,马山宾馆,细颗粒物(PM2.5),176,169,192,133,163,18,,,,77,57,5,7,1.1,1.3
2023-12-31T0100,2294A,116.9896,30.6145,安庆市,安庆大学,细颗粒物(PM2.5),165,155,200,125,160,27,,,,54,57,8,9,1.2,1.5
2023-12-31T0100,3173A,117.0598,30.5351,安庆市,市人大,细颗粒物(PM2.5),190,182,203,143,163,39,,,,50,50,4,5,1.3,1.4
2023-12-31T0100,3122A,105.9606,26.2611,安顺市,伍家关,,,,,,,,,,,,,,,,
2023-12-31T0100,3123A,105.9408,26.2431,安顺市,凤凰山,细颗粒物(PM2.5),70,60,69,51,60,60,,,,22,28,28,44,1.0,1.1
2023-12-31T0100,3124A,105.9439,26.2564,安顺市,金钟山,细颗粒物(PM2.5),65,58,66,47,54,68,,,,19,19,23,32,0.5,0.8
2023-12-31T0100,3125A,105.8983,26.2481,安顺市,娄家坡,细颗粒物(PM2.5),80,69,68,59,57,54,,,,23,16,45,25,1.0,0.8
2023-12-31T0100,1818A,114.4839,36.0621,安阳市,棉研所,,,,,,,,,,,,,,,,
2023-12-31T0100,1819A,114.3551,36.1017,安阳市,红庙街,细颗粒物(PM2.5),188,226,242,141,195,7,,,,75,65,8,8,4.8,2.5
2023-12-31T0100,1820A,114.361,36.0681,安阳市,银杏小区,细颗粒物(PM2.5),272,277,224,222,217,3,,,,77,69,1,3,5.0,2.8
2023-12-31T0100,3141A,114.3922,36.0878,安阳市,信访局,细颗粒物(PM2.5),225,232,241,175,202,8,,,,75,63,3,2,6.2,2.5
2023-12-31T0100,3669A,114.4705,36.0637,安阳市,左辅环卫站,细颗粒物(PM2.5),175,204,243,132,188,7,,,,78,62,2,2,2.9,1.8
2023-12-31T0100,3703A,114.2917,36.0949,安阳市,安钢职工学校,细颗粒物(PM2.5),238,363,289,188,203,13,,,,73,65,8,10,13.7,2.9
2023-12-31T0100,1748A,123.044,41.1196,鞍山市,深沟寺,细颗粒物(PM2.5),135,112,78,103,69,46,,,,22,27,10,9,1.3,1.2
2023-12-31T0100,1749A,123.011,41.0931,鞍山市,太阳城,细颗粒物(PM2.5),129,108,76,98,65,47,,,,25,28,9,9,1.1,1.2
2023-12-31T0100,1750A,123.0485,41.1442,鞍山市,太平,细颗粒物(PM2.5),130,108,86,99,72,48,,,,23,37,13,14,1.2,1.1
2023-12-31T0100,1751A,122.9642,41.0971,鞍山市,铁西三道街,细颗粒物(PM2.5),143,123,101,109,75,25,,,,44,48,21,15,2.7,1.7
2023-12-31T0100,1752A,122.9341,41.0833,鞍山市,铁西工业园区,细颗粒物(PM2.5),134,106,95,102,85,36,,,,31,40,19,16,1.2,1.3
2023-12-31T0100,1753A,123.022,41.0821,鞍山市,明达新区,细颗粒物(PM2.5),129,103,70,98,63,45,,,,24,27,10,10,1.0,1
2023-12-31T0100,1754A,123.1289,41.0228,鞍山市,千山,,,,,,,,,,,,,,,,
2023-12-31T0100,2195A,107.4212,40.761,巴彦淖尔市,附二中,,49,49,76,27,26,65,,,,12,19,4,11,0.4,0.5
2023-12-31T0100,2196A,107.37,40.7372,巴彦淖尔市,市环保大楼,,49,49,72,26,23,67,,,,15,16,5,8,0.4,0.4
2023-12-31T0100,1956A,86.1472,41.7538,巴音郭楞州,孔雀公园,颗粒物(PM10),121,191,262,56,73,68,,,,18,32,7,7,0.6,0.9
2023-12-31T0100,1957A,86.1972,41.7166,巴音郭楞州,棉纺厂,颗粒物(PM10),142,233,307,53,73,55,,,,29,41,4,5,0.7,1.1
2023-12-31T0100,1958A,86.2357,41.7173,巴音郭楞州,经济开发区,颗粒物(PM10),121,191,240,54,67,78,,,,17,30,5,6,0.6,0.8
2023-12-31T0100,2914A,106.7677,31.8794,巴中市,苏山坪,细颗粒物(PM2.5),98,95,133,73,104,78,,,,15,21,4,5,1.0,1.2
2023-12-31T0100,3182A,106.7656,31.8545,巴中市,丽阳花园,细颗粒物(PM2.5),140,140,140,107,117,4,,,,33,33,3,4,1.0,1
2023-12-31T0100,3183A,106.7418,31.8654,巴中市,圣泉水务公司,细颗粒物(PM2.5),130,112,133,99,118,3,,,,42,34,4,5,1.3,1.4
2023-12-31T0100,3616A,106.7616,31.8344,巴中市,市中心医院,细颗粒物(PM2.5),142,133,127,108,111,3,,,,39,31,3,3,1.0,0.9
2023-12-31T0100,2235A,122.7911,45.6077,白城市,洮北区环保局,,19,16,52,13,45,60,,,,6,12,7,5,0.5,0.6
2023-12-31T0100,2236A,122.8738,45.5725,白城市,市环保局,,42,42,74,19,45,61,,,,7,13,7,9,0.4,0.6
2023-12-31T0100,2231A,126.4219,41.9171,白山市,喜丰,细颗粒物(PM2.5),75,89,94,55,54,7,,,,54,48,20,19,1.7,1.5
2023-12-31T0100,2232A,126.4077,41.9419,白山市,环保局,细颗粒物(PM2.5),82,96,105,60,60,6,,,,53,60,14,19,1.7,1.7
2023-12-31T0100,2647A,104.1724,36.5446,白银市,第三小学,颗粒物(PM10),60,70,80,23,30,36,,,,34,42,51,100,0.9,1.4
2023-12-31T0100,2648A,104.1465,36.5482,白银市,动力公司,,41,41,64,23,32,32,,,,27,32,9,65,0.6,0.8
2023-12-31T0100,2512A,106.6103,23.9011,百色市,市监测站,细颗粒物(PM2.5),77,98,89,56,57,23,,,,36,30,10,15,1.0,1
2023-12-31T0100,2513A,106.6538,23.8859,百色市,市中心血站,细颗粒物(PM2.5),94,84,91,70,65,17,,,,50,42,11,19,1.2,1.2
2023-12-31T0100,3406A,106.6085,23.8798,百色市,祈福高中,颗粒物(PM10),76,102,81,53,57,4,,,,50,36,10,12,0.9,1
2023-12-31T0100,2270A,117.396,32.939,蚌埠市,工人疗养院,细颗粒物(PM2.5),186,179,178,140,154,80,,,,20,35,8,7,0.9,1.1
2023-12-31T0100,2271A,117.3605,32.9427,蚌埠市,百货大楼,细颗粒物(PM2.5),183,182,181,138,159,76,,,,23,37,5,4,1.0,1.2
2023-12-31T0100,2273A,117.4185,32.8911,蚌埠市,蚌埠学院,细颗粒物(PM2.5),175,178,169,132,149,,,,,22,37,4,3,1.0,1.1
2023-12-31T0100,2274A,117.3533,32.9673,蚌埠市,淮上区政府,细颗粒物(PM2.5),219,205,179,169,166,72,,,,23,38,6,6,1.0,1
2023-12-31T0100,2275A,117.3145,32.8977,蚌埠市,高新区,细颗粒物(PM2.5),219,195,163,169,155,32,,,,67,54,10,7,1.3,1.3
2023-12-31T0100,3715A,117.3092,32.9314,蚌埠市,蚌埠田家炳中学,细颗粒物(PM2.5),227,212,188,177,161,23,,,,67,53,6,6,1.1,1.1
2023-12-31T0100,1585A,109.8756,40.6532,包头市,市环境监测站,,25,24,94,17,58,58,,,,18,34,11,14,0.7,1.2
2023-12-31T0100,1587A,109.9991,40.5842,包头市,包头八中,,25,25,120,7,67,63,,,,16,37,5,16,0.5,1.1
2023-12-31T0100,1588A,109.8538,40.6821,包头市,青山宾馆,,34,34,111,15,62,56,,,,25,41,13,14,0.6,1.4
2023-12-31T0100,1589A,109.8642,40.6288,包头市,惠龙物流,,24,24,100,12,56,67,,,,16,35,10,13,0.4,1
2023-12-31T0100,1590A,110.0377,40.5546,包头市,东河鸿龙湾,,22,22,100,13,62,61,,,,22,40,10,13,0.6,1
2023-12-31T0100,3283A,109.9154,40.5685,包头市,滨河大厦,,24,21,98,16,75,25,,,,47,37,7,9,0.6,1.2
2023-12-31T0100,3419A,109.9447,40.6261,包头市,包头市委党校,,32,32,92,21,58,43,,,,37,36,9,14,0.6,1.1
2023-12-31T0100,3683A,109.8331,40.6576,包头市,昆区政府,,22,22,93,11,55,68,,,,16,35,9,14,0.4,0.9
2023-12-31T0100,1930A,107.185,34.3063,宝鸡市,庙沟村,颗粒物(PM10),61,72,58,40,41,44,,,,13,7,8,9,0.6,0.6
2023-12-31T0100,1931A,107.0708,34.3017,宝鸡市,竹园沟,,50,49,59,35,43,32,,,,26,27,3,4,0.6,0.7
2023-12-31T0100,1932A,107.1906,34.3672,宝鸡市,三陆医院,细颗粒物(PM2.5),90,101,101,67,70,20,,,,47,54,9,9,0.8,0.9
2023-12-31T0100,1933A,107.1431,34.3547,宝鸡市,监测站,细颗粒物(PM2.5),72,83,86,52,59,13,,,,44,47,4,5,0.8,0.9
2023-12-31T0100,1934A,107.1186,34.3739,宝鸡市,技工学校,细颗粒物(PM2.5),107,85,87,80,67,29,,,,32,43,8,8,0.8,0.9
2023-12-31T0100,1935A,107.3906,34.3528,宝鸡市,陈仓区环保局家属楼,细颗粒物(PM2.5),124,125,137,94,105,13,,,,65,59,13,28,1.2,1.4
2023-12-31T0100,1936A,107.2058,34.3497,宝鸡市,文理学院,细颗粒物(PM2.5),87,89,93,64,58,20,,,,47,48,7,8,1.0,1
2023-12-31T0100,1937A,107.2386,34.3622,宝鸡市,三迪小学,细颗粒物(PM2.5),104,107,101,78,68,20,,,,43,53,9,8,1.1,1.1
2023-12-31T0100,1051A,115.493,38.8632,保定市,游泳馆,细颗粒物(PM2.5),289,251,213,239,211,4,,,,49,52,4,4,2.3,1.9
2023-12-31T0100,1052A,115.5213,38.8959,保定市,华电二区,细颗粒物(PM2.5),302,,186,252,213,3,,,,52,58,5,3,1.9,1.5
2023-12-31T0100,1053A,115.4713,38.9108,保定市,接待中心,细颗粒物(PM2.5),283,,207,233,214,0,,,,60,63,2,2,2.3,1.8
2023-12-31T0100,1054A,115.4612,38.8416,保定市,地表水厂,细颗粒物(PM2.5),305,,202,255,217,4,,,,71,70,3,3,1.8,1.4
2023-12-31T0100,1056A,115.5086,38.8639,保定市,监测站,细颗粒物(PM2.5),296,,197,246,200,2,,,,72,70,6,4,1.1,0.7
2023-12-31T0100,3581A,115.31981,38.95208,保定市,满城区生态环境分局,细颗粒物(PM2.5),246,,176,196,204,2,,,,51,56,3,2,2.0,1.9
2023-12-31T0100,3582A,115.47694,38.76408,保定市,清苑区第二中学,细颗粒物(PM2.5),242,221,199,192,186,6,,,,59,60,1,1,1.7,1.6
2023-12-31T0100,3583A,115.62909,39.02311,保定市,徐水物探局,细颗粒物(PM2.5),274,263,206,224,185,1,,,,60,64,5,5,2.2,1.7
2023-12-31T0100,4004A,115.4202,38.8656,保定市,双鹰农机,细颗粒物(PM2.5),271,227,188,221,190,3,,,,60,66,4,3,2.1,1.6
2023-12-31T0100,2594A,99.1678,25.1081,保山市,市环境监测站,,18,18,19,8,12,38,,,,8,9,5,5,0.4,0.4
2023-12-31T0100,2595A,99.1711,25.1328,保山市,市环保局,,26,18,21,18,16,42,,,,6,6,4,5,0.5,0.5
2023-12-31T0100,1866A,109.2262,21.588,北海市,牛尾岭水库,,,,,,,,,,,,,,,,
2023-12-31T0100,1867A,109.1436,21.4086,北海市,海滩公园,细颗粒物(PM2.5),80,83,53,59,38,22,,,,41,22,14,10,0.7,0.5
2023-12-31T0100,1868A,109.0981,21.4661,北海市,新市环保局,细颗粒物(PM2.5),94,78,49,70,42,38,,,,34,25,18,11,0.9,0.7
2023-12-31T0100,1869A,109.1778,21.5233,北海市,北海工业园,细颗粒物(PM2.5),92,101,63,68,46,12,,,,41,25,10,12,0.7,0.5
2023-12-31T0100,3400A,109.1911,21.4415,北海市,龙潭自来水厂,细颗粒物(PM2.5),89,79,49,66,43,12,,,,33,19,11,12,0.8,0.5
2023-12-31T0100,1001A,116.3621,39.8784,北京市,万寿西宫,,22,18,196,9,164,68,,,,8,87,1,2,0.2,1.5
2023-12-31T0100,1002A,116.2202,40.2915,北京市,定陵,,21,21,94,9,68,60,,,,4,32,4,4,0.2,0.8
2023-12-31T0100,1003A,116.4174,39.9289,北京市,东四,,23,23,176,9,139,61,,,,10,63,3,5,0.4,1.4
2023-12-31T0100,1004A,116.4072,39.8863,北京市,天坛,,22,18,169,8,150,69,,,,12,65,1,2,0.1,1.3
2023-12-31T0100,1005A,116.462,39.9365,北京市,农展馆,,21,21,165,8,136,63,,,,11,68,1,2,0.0,1.1
2023-12-31T0100,1006A,116.3392,39.9295,北京市,官园,,23,22,161,9,129,72,,,,8,62,2,3,0.3,1.2
2023-12-31T0100,1007A,116.2878,39.9611,北京市,海淀万柳,,21,21,139,9,107,67,,,,10,62,3,2,0.3,1.2
2023-12-31T0100,1008A,116.6636,40.135,北京市,顺义新城,,26,26,113,10,84,60,,,,11,51,1,2,0.2,0.9
2023-12-31T0100,1009A,116.6275,40.3275,北京市,怀柔镇,,22,19,90,7,64,70,,,,6,45,2,2,0.3,0.9
2023-12-31T0100,1010A,116.2296,40.217,北京市,昌平镇,,26,26,106,1,61,63,,,,8,46,3,3,0.1,0.8
2023-12-31T0100,1011A,116.3966,39.9821,北京市,奥体中心,,22,22,138,8,117,61,,,,20,66,1,2,0.1,1.2
2023-12-31T0100,1012A,116.184,39.9136,北京市,古城,,23,23,150,8,113,66,,,,5,62,2,3,0.3,1.2
2023-12-31T0100,3281A,115.9718,40.4529,北京市,延庆夏都,,21,21,111,8,84,66,,,,6,40,2,6,0.1,1
2023-12-31T0100,3417A,117.0709,40.1465,北京市,平谷新城,,26,26,140,13,119,63,,,,15,54,3,2,0.3,1.2
2023-12-31T0100,3418A,116.8336,40.4095,北京市,密云新城,,41,41,85,20,56,58,,,,8,33,3,3,0.3,0.6
2023-12-31T0100,3671A,116.088,39.9726,北京市,门头沟三家店,,,,,,,,,,,,,,,,
2023-12-31T0100,3672A,116.1541,39.8204,北京市,丰台云岗,,22,19,138,8,107,70,,,,8,64,2,2,0.2,1
2023-12-31T0100,3673A,116.6804,39.9081,北京市,通州东关,,20,19,155,7,128,63,,,,17,68,2,3,0.2,1.1
2023-12-31T0100,3674A,115.9577,39.7603,北京市,房山燕山,,22,17,129,8,107,69,,,,6,66,3,3,0.2,1.1
2023-12-31T0100,3675A,116.4672,39.7733,北京市,大兴旧宫,,17,16,203,8,183,54,,,,25,99,3,2,0.2,1.6
2023-12-31T0100,3694A,115.986,40.4563,北京市,延庆石河营,,22,22,109,9,80,65,,,,4,37,3,4,0.2,1.3
2023-12-31T0100,3695A,116.6151,40.3053,北京市,怀柔新城,,23,20,87,8,63,72,,,,3,38,3,2,0.1,0.7
2023-12-31T0100,3696A,116.2545,39.8768,北京市,丰台小屯,,22,22,172,8,133,62,,,,9,71,1,1,0.3,1.4
2023-12-31T0100,3697A,116.84,40.3844,北京市,密云镇,,32,32,87,14,63,46,,,,16,42,3,3,0.2,0.8
2023-12-31T0100,1761A,123.8275,41.3064,本溪市,大峪,细颗粒物(PM2.5),214,,83,164,65,26,,,,45,49,10,9,1.6,1.8
2023-12-31T0100,1762A,123.7567,41.3325,本溪市,溪湖,细颗粒物(PM2.5),224,202,99,174,75,33,,,,35,45,13,15,1.5,1.4
2023-12-31T0100,1763A,123.7169,41.3094,本溪市,彩屯,细颗粒物(PM2.5),229,210,125,179,97,31,,,,42,66,6,17,1.7,2.7
2023-12-31T0100,1764A,123.7669,41.2864,本溪市,东明,细颗粒物(PM2.5),249,,66,199,76,24,,,,48,51,12,12,1.4,1.1
2023-12-31T0100,1765A,123.7992,41.2664,本溪市,新立屯,细颗粒物(PM2.5),144,146,55,110,49,21,,,,48,41,10,11,1.5,1
2023-12-31T0100,1766A,123.8142,41.3472,本溪市,威宁,细颗粒物(PM2.5),206,196,113,156,76,24,,,,43,57,5,7,1.6,1.6
2023-12-31T0100,2587A,105.2864,27.3125,毕节市,八中,细颗粒物(PM2.5),94,84,73,70,60,36,,,,21,22,7,11,1.1,1
2023-12-31T0100,2588A,105.31,27.2944,毕节市,师专,细颗粒物(PM2.5),102,92,70,76,59,26,,,,30,31,8,13,1.1,1
2023-12-31T0100,3537A,105.3631,27.3533,毕节市,长征村,细颗粒物(PM2.5),72,,57,52,55,69,,,,13,15,8,8,0.7,0.8
2023-12-31T0100,1629A,118.0018,37.3617,滨州市,第二水厂,细颗粒物(PM2.5),210,227,277,160,217,25,,,,53,72,10,17,1.7,2.3
2023-12-31T0100,1630A,117.9776,37.393,滨州市,北中新校,细颗粒物(PM2.5),214,223,284,164,221,22,,,,54,74,7,10,1.3,2
2023-12-31T0100,3514A,117.9378,37.3956,滨州市,中海酒店,细颗粒物(PM2.5),210,202,263,160,221,32,,,,48,75,11,16,1.4,2
2023-12-31T0100,3515A,117.9378,37.3553,滨州市,开发区一中,细颗粒物(PM2.5),217,219,291,167,228,24,,,,52,73,12,22,1.4,2.1
2023-12-31T0100,3516A,118.0917,37.694,滨州市,金海六路,细颗粒物(PM2.5),225,209,277,175,228,20,,,,51,67,7,10,1.3,1.9
2023-12-31T0100,4028A,117.9956,37.3753,滨州市,滨州市西街道办事处,细颗粒物(PM2.5),218,216,267,168,226,22,,,,48,65,8,15,1.6,2.2
2023-12-31T0100,2311A,115.8072,33.8399,亳州市,污水处理厂,细颗粒物(PM2.5),231,235,197,181,139,24,,,,34,32,5,6,1.4,1.3
2023-12-31T0100,2312A,115.7789,33.8518,亳州市,三国揽胜宫,细颗粒物(PM2.5),214,279,237,164,123,25,,,,37,34,6,7,1.4,1.3
2023-12-31T0100,3332A,115.7633,33.8034,亳州市,亳州学院,细颗粒物(PM2.5),212,239,201,162,122,37,,,,30,29,3,5,1.2,1.2
2023-12-31T0100,2693A,82.0485,44.8556,博尔塔拉蒙古自治州,市党校,,39,37,32,27,15,35,,,,12,11,11,12,0.5,0.5
2023-12-31T0100,2694A,82.0806,44.8969,博尔塔拉蒙古自治州,市环保局,,,62,42,,18,28,,,,26,23,8,9,0.5,0.4
2023-12-31T0100,1071A,116.8842,38.2991,沧州市,沧县城建局,细颗粒物(PM2.5),277,,236,227,240,10,,,,70,71,3,5,1.5,1.7
2023-12-31T0100,1072A,116.8584,38.3254,沧州市,电视转播站,细颗粒物(PM2.5),257,213,233,207,205,5,,,,73,77,6,9,1.6,1.7
2023-12-31T0100,1073A,116.8709,38.3228,沧州市,市环保局,细颗粒物(PM2.5),258,227,231,208,213,6,,,,62,65,3,5,1.7,1.8
2023-12-31T0100,3324A,116.8136,38.3004,沧州市,河北水利电力学院,细颗粒物(PM2.5),259,224,246,209,214,5,,,,65,69,8,11,1.5,1.8
2023-12-31T0100,2622A,97.1806,31.1273,昌都市,昌都监测站,,30,30,30,10,15,22,,,,28,23,6,6,0.7,0.8
2023-12-31T0100,3719A,97.1714,31.1406,昌都市,昌都会议中心,,15,10,13,8,10,47,,,,10,8,4,4,0.5,0.5
2023-12-31T0100,2690A,88.1236,43.8886,昌吉州,天山天池,,18,9,12,2,5,56,,,,4,5,6,6,0.4,0.4
2023-12-31T0100,2692A,87.2717,44.0297,昌吉州,新区政务中心,,46,46,62,25,43,47,,,,17,38,4,4,0.5,0.8
2023-12-31T0100,3613A,87.3095,44.0142,昌吉州,亚心广场,,42,36,49,29,34,46,,,,16,39,5,5,0.6,0.8
2023-12-31T0100,1119A,125.3325,43.9166,长春市,食品厂,细颗粒物(PM2.5),120,,104,91,107,42,,,,24,50,9,18,0.7,1.2
2023-12-31T0100,1120A,125.2863,43.9027,长春市,客车厂,细颗粒物(PM2.5),112,,93,84,105,43,,,,27,55,12,18,0.7,1.2
2023-12-31T0100,1121A,125.2841,43.8463,长春市,邮电学院,细颗粒物(PM2.5),102,87,110,76,108,28,,,,44,50,25,19,0.7,1.1
2023-12-31T0100,1122A,125.3716,43.8772,长春市,劳动公园,细颗粒物(PM2.5),98,76,101,73,96,42,,,,32,53,10,19,1.2,1.2
2023-12-31T0100,1123A,125.3297,43.8805,长春市,园林处,细颗粒物(PM2.5),90,80,93,67,104,43,,,,28,50,8,13,0.8,1.2
2023-12-31T0100,1124A,125.4605,43.79,长春市,净月潭,细颗粒物(PM2.5),105,90,90,79,86,39,,,,24,24,10,10,0.9,1
2023-12-31T0100,1125A,125.7194,43.515,长春市,甩湾子,,,,,,,,,,,,,,,,
2023-12-31T0100,1126A,125.3863,43.8447,长春市,经开区环卫处,细颗粒物(PM2.5),107,116,105,80,100,33,,,,32,45,10,16,0.8,1.1
2023-12-31T0100,1127A,125.245,43.7783,长春市,高新区管委会,细颗粒物(PM2.5),99,81,96,74,106,38,,,,28,41,16,14,1.1,1.3
2023-12-31T0100,1128A,125.1761,43.8325,长春市,岱山公园,细颗粒物(PM2.5),80,77,97,59,103,41,,,,28,52,10,10,0.8,1.2
2023-12-31T0100,1335A,113.0833,28.2325,长沙市,经开区环保局,细颗粒物(PM2.5),246,237,214,196,185,30,,,,59,48,6,6,1.3,1.2
2023-12-31T0100,1336A,112.8872,28.2189,长沙市,高开区环保局,细颗粒物(PM2.5),277,270,215,227,178,10,,,,81,44,6,7,1.9,1.5
2023-12-31T0100,1337A,113.0792,28.2053,长沙市,马坡岭,细颗粒物(PM2.5),258,257,215,208,188,4,,,,77,51,8,7,1.3,1.1
2023-12-31T0100,1338A,112.9394,28.19,长沙市,湖南师范大学,细颗粒物(PM2.5),274,233,217,224,189,29,,,,41,31,4,5,1.6,1.5
2023-12-31T0100,1339A,113.0178,28.1322,长沙市,雨花区环保局,细颗粒物(PM2.5),286,271,216,236,187,1,,,,91,50,4,6,2.4,1.8
2023-12-31T0100,1340A,112.9792,28.2597,长沙市,伍家岭,细颗粒物(PM2.5),243,241,225,193,179,0,,,,58,51,5,5,1.7,1.5
2023-12-31T0100,1341A,113.0014,28.1944,长沙市,火车新站,细颗粒物(PM2.5),267,279,223,217,184,3,,,,76,52,4,4,2.9,1.7
2023-12-31T0100,1342A,112.9844,28.1178,长沙市,天心区环保局,细颗粒物(PM2.5),246,264,216,196,165,2,,,,101,52,8,7,1.9,1.6
2023-12-31T0100,1343A,112.8908,28.1308,长沙市,湖南中医药大学,细颗粒物(PM2.5),263,251,211,213,185,3,,,,52,38,4,4,2.3,1.4
2023-12-31T0100,1344A,112.9581,28.3611,长沙市,沙坪,细颗粒物(PM2.5),179,194,200,135,154,28,,,,28,32,4,5,1.6,1.5
2023-12-31T0100,1727A,113.1147,36.1547,长治市,清华站,,50,50,84,22,57,31,,,,43,34,12,14,0.6,0.9
2023-12-31T0100,1728A,113.1031,36.1989,长治市,监测站,,50,50,88,22,68,23,,,,59,48,14,13,0.5,0.9
2023-12-31T0100,1730A,113.0886,36.2125,长治市,审计局,,48,48,89,22,70,39,,,,37,43,15,16,0.5,0.9
2023-12-31T0100,1731A,113.0844,36.1856,长治市,长治八中,颗粒物(PM10),53,56,101,23,62,38,,,,40,48,16,17,0.6,1
2023-12-31T0100,2845A,113.1569,36.1911,长治市,德盛苑,,45,45,78,22,56,54,,,,23,25,37,16,0.6,0.7
2023-12-31T0100,3568A,113.06,36.0464,长治市,向阳小学,颗粒物(PM10),64,78,99,29,60,39,,,,46,32,12,13,0.7,1
2023-12-31T0100,3569A,112.8792,36.3144,长治市,屯留一中,颗粒物(PM10),57,64,105,24,76,31,,,,57,47,16,16,0.6,1
2023-12-31T0100,3570A,113.235,36.3489,长治市,潞城四中,颗粒物(PM10),62,74,125,19,81,49,,,,23,32,28,18,0.8,1.3
2023-12-31T0100,1854A,111.6975,28.9703,常德市,市二中,细颗粒物(PM2.5),145,183,153,111,118,49,,,,23,24,6,6,1.2,1.2
2023-12-31T0100,1857A,111.7158,29.1456,常德市,白鹤山,细颗粒物(PM2.5),199,225,195,149,147,23,,,,16,16,4,4,1.1,1
2023-12-31T0100,3138A,111.7153,29.0289,常德市,武陵区永安,细颗粒物(PM2.5),176,164,159,133,137,37,,,,30,27,6,7,1.1,1.1
2023-12-31T0100,3139A,111.6892,28.9881,常德市,鼎城区玉霞,细颗粒物(PM2.5),150,195,157,115,117,52,,,,25,28,8,8,1.2,1.2
2023-12-31T0100,3140A,111.6625,29.0531,常德市,武陵区长庚,细颗粒物(PM2.5),137,179,177,104,119,22,,,,25,26,4,5,1.2,1.1
2023-12-31T0100,1196A,119.9633,31.762,常州市,市监测站,细颗粒物(PM2.5),195,177,174,146,128,56,,,,49,79,8,8,1.2,1.2
2023-12-31T0100,1200A,119.9468,31.7069,常州市,武进监测站,细颗粒物(PM2.5),179,185,179,135,123,52,,,,31,60,10,9,1.2,1.3
2023-12-31T0100,1201A,119.9255,31.9087,常州市,安家,细颗粒物(PM2.5),172,174,172,130,132,54,,,,32,62,8,8,1.1,1.4
2023-12-31T0100,3002A,119.9805,31.8174,常州市,行政中心,细颗粒物(PM2.5),192,173,157,144,129,52,,,,37,60,13,14,1.3,1.3
2023-12-31T0100,3003A,120.0522,31.7748,常州市,经开区,细颗粒物(PM2.5),202,169,148,152,134,63,,,,22,55,6,6,1.0,1.2
2023-12-31T0100,3010A,119.9025,31.7964,常州市,钟楼,细颗粒物(PM2.5),206,171,165,156,138,35,,,,48,60,8,8,1.4,1.3
2023-12-31T0100,3429A,119.8598,31.7066,常州市,武进经发区,"颗粒物(PM10),细颗粒物(PM2.5)",119,187,157,90,77,53,,,,32,54,7,7,1.6,1.6
2023-12-31T0100,3430A,119.5826,31.7245,常州市,金坛城区,细颗粒物(PM2.5),145,156,144,111,111,61,,,,24,43,8,8,1.1,1.2
2023-12-31T0100,2220A,120.4318,41.5881,朝阳市,西梁,颗粒物(PM10),51,51,154,32,120,54,,,,15,45,22,48,0.8,2
2023-12-31T0100,2221A,120.4521,41.5646,朝阳市,河畔小区,颗粒物(PM10),54,58,147,33,128,54,,,,14,48,47,58,0.8,1.9
2023-12-31T0100,2222A,120.4176,41.5648,朝阳市,八里堡,细颗粒物(PM2.5),53,47,144,37,118,58,,,,15,47,16,37,0.7,2
2023-12-31T0100,2223A,120.3806,41.5969,朝阳市,农业园区,细颗粒物(PM2.5),65,,161,47,119,43,,,,28,48,10,19,0.8,1.8
2023-12-31T0100,1705A,116.6367,23.6719,潮州市,西园路,细颗粒物(PM2.5),90,101,70,67,44,38,,,,30,25,4,5,0.6,0.6
2023-12-31T0100,1706A,116.6447,23.6706,潮州市,档案局,细颗粒物(PM2.5),115,87,60,87,54,22,,,,36,26,6,7,0.9,0.8
2023-12-31T0100,3026A,116.6183,23.6608,潮州市,市政府,细颗粒物(PM2.5),85,,67,63,51,39,,,,39,33,7,13,1.3,0.9
2023-12-31T0100,2472A,113.0073,25.9061,郴州市,马头岭,细颗粒物(PM2.5),128,181,173,97,97,32,,,,76,52,12,13,1.5,1.5
2023-12-31T0100,2473A,113.0116,25.8226,郴州市,市职中,细颗粒物(PM2.5),147,137,138,112,121,11,,,,55,42,6,10,1.4,1.3
2023-12-31T0100,2474A,113.0161,25.8001,郴州市,兴隆步行街,细颗粒物(PM2.5),170,165,168,129,133,7,,,,69,49,4,8,1.5,1.4
2023-12-31T0100,2475A,113.0383,25.8071,郴州市,市审计局,细颗粒物(PM2.5),142,132,141,108,118,20,,,,48,38,6,12,1.5,1.3
2023-12-31T0100,2476A,113.0348,25.7759,郴州市,市环保局,细颗粒物(PM2.5),160,174,153,122,131,19,,,,79,53,5,14,1.8,1.4
2023-12-31T0100,1431A,103.9728,30.7236,成都市,金泉两河,细颗粒物(PM2.5),189,161,165,142,132,18,,,,28,44,3,2,1.1,1.4
2023-12-31T0100,1432A,104.176,30.6872,成都市,十里店,细颗粒物(PM2.5),199,213,163,149,137,3,,,,44,52,3,2,1.2,1.1
2023-12-31T0100,1433A,104.079,30.5706,成都市,三瓦窑,细颗粒物(PM2.5),234,215,171,184,146,0,,,,37,33,1,2,1.3,1.1
2023-12-31T0100,1434A,104.1114,30.63,成都市,沙河铺,细颗粒物(PM2.5),217,188,163,167,141,1,,,,49,50,3,3,1.1,1
2023-12-31T0100,1437A,104.0786,30.6531,成都市,君平街,细颗粒物(PM2.5),223,198,177,173,153,0,,,,55,60,2,4,1.1,1.1
2023-12-31T0100,1438A,103.613,31.0283,成都市,灵岩寺,细颗粒物(PM2.5),186,,134,140,107,43,,,,28,27,6,12,1.5,1.4
2023-12-31T0100,2880A,104.0239,30.65639,成都市,大石西路,细颗粒物(PM2.5),205,187,163,155,137,0,,,,59,62,4,4,1.2,1.2
2023-12-31T0100,3136A,104.2725,30.5589,成都市,龙泉驿区区政府,细颗粒物(PM2.5),180,178,150,136,117,22,,,,30,26,3,2,1.1,1
2023-12-31T0100,3357A,104.0106,30.6931,成都市,金博路,细颗粒物(PM2.5),192,164,161,144,134,0,,,,42,54,3,3,1.3,1.4
2023-12-31T0100,3359A,104.0578,30.5225,成都市,华阳,细颗粒物(PM2.5),208,190,152,158,123,0,,,,54,45,1,2,1.3,1
2023-12-31T0100,3487A,104.2394,30.5319,成都市,车城东七路,细颗粒物(PM2.5),232,202,162,182,142,13,,,,44,44,3,2,1.3,1
2023-12-31T0100,3488A,104.3853,30.7453,成都市,青白江技师分院,细颗粒物(PM2.5),195,168,152,146,147,3,,,,37,41,2,2,1.5,1.1
2023-12-31T0100,3489A,104.0789,30.4072,成都市,科学城,细颗粒物(PM2.5),220,188,137,170,121,18,,,,43,26,3,3,1.2,0.9
2023-12-31T0100,4011A,103.8506,30.6947,成都市,光华大道三段,细颗粒物(PM2.5),220,177,175,170,156,29,,,,27,44,3,3,0.9,1
2023-12-31T0100,1062A,117.9531,40.9081,承德市,铁路,颗粒物(PM10),62,73,121,26,77,59,,,,14,54,8,14,0.3,1.6
2023-12-31T0100,1063A,117.9392,40.9763,承德市,中国银行,颗粒物(PM10),57,64,97,25,56,54,,,,14,47,1,3,0.3,1.2
2023-12-31T0100,1064A,117.9503,40.928,承德市,开发区,颗粒物(PM10),65,80,104,24,61,66,,,,13,50,7,13,0.3,1.3
2023-12-31T0100,1065A,117.8051,40.9655,承德市,文化中心,颗粒物(PM10),63,75,128,15,66,58,,,,13,44,5,24,0.3,1.2
2023-12-31T0100,1066A,117.9268,41.0026,承德市,离宫,颗粒物(PM10),53,56,88,29,58,60,,,,10,34,4,6,0.2,1
2023-12-31T0100,2314A,117.47,30.6618,池州市,池州学院,细颗粒物(PM2.5),165,164,186,125,146,57,,,,25,36,6,8,1.0,1.3
2023-12-31T0100,3237A,117.4918,30.6617,池州市,展览馆,细颗粒物(PM2.5),152,155,192,116,150,17,,,,31,39,4,6,1.1,1.4
2023-12-31T0100,3333A,117.5627,30.695,池州市,第八中学,细颗粒物(PM2.5),113,111,139,85,107,39,,,,48,32,6,7,1.3,1.5
2023-12-31T0100,3334A,117.5038,30.6243,池州市,第十二中学,细颗粒物(PM2.5),119,104,143,90,127,9,,,,55,37,3,6,1.1,1.3
2023-12-31T0100,1744A,118.9233,42.2816,赤峰市,松山一中,细颗粒物(PM2.5),58,64,71,41,51,31,,,,32,44,14,27,0.9,1.2
2023-12-31T0100,1745A,118.9576,42.2728,赤峰市,哈达街,细颗粒物(PM2.5),59,60,78,42,54,24,,,,40,44,56,51,0.8,1.2
2023-12-31T0100,1746A,118.8788,42.2554,赤峰市,天义路,细颗粒物(PM2.5),69,60,59,50,48,27,,,,35,41,12,22,0.8,1
2023-12-31T0100,3058A,119.2658,42.0353,赤峰市,银河街,,44,44,89,28,64,61,,,,16,29,16,22,0.7,1.2
2023-12-31T0100,3286A,118.9359,42.3147,赤峰市,桥北物流园区,细颗粒物(PM2.5),87,,63,64,65,31,,,,34,47,12,17,1.2,1.2
2023-12-31T0100,2521A,107.3476,22.4136,崇左市,市环保局江州分局,细颗粒物(PM2.5),74,96,86,54,51,19,,,,42,36,7,9,0.9,0.9
2023-12-31T0100,2522A,107.3702,22.3707,崇左市,城南新区,细颗粒物(PM2.5),108,104,72,81,56,3,,,,53,33,6,9,0.9,0.6
2023-12-31T0100,2298A,118.3093,32.3153,滁州市,老年大学,细颗粒物(PM2.5),203,169,150,153,142,62,,,,28,34,6,7,1.1,1.2
2023-12-31T0100,2299A,118.3244,32.2786,滁州市,人大宾馆,细颗粒物(PM2.5),227,183,173,177,162,72,,,,40,43,6,6,1.0,1.1
2023-12-31T0100,3207A,118.3118,32.3038,滁州市,市政府原办公楼,细颗粒物(PM2.5),196,167,149,147,132,67,,,,31,35,6,6,0.8,0.8
2023-12-31T0100,3331A,118.3267,32.2634,滁州市,图书馆,细颗粒物(PM2.5),172,165,162,130,138,74,,,,39,47,6,6,1.2,1.3
2023-12-31T0100,2605A,101.5482,25.0441,楚雄州,州环境监测站,,32,32,27,22,20,5,,,,36,21,7,7,0.7,0.6
2023-12-31T0100,2606A,101.538,25.0492,楚雄州,市经济开发区,,44,44,31,24,19,6,,,,36,23,7,7,0.7,0.6
2023-12-31T0100,2548A,107.5277,31.2827,达州市,达州职业技术学院,细颗粒物(PM2.5),175,178,186,132,144,10,,,,22,26,7,8,1.3,1.3
2023-12-31T0100,2549A,107.5086,31.2186,达州市,市环境监测站,细颗粒物(PM2.5),170,167,184,129,152,3,,,,31,42,6,7,1.4,1.4
2023-12-31T0100,2550A,107.4988,31.2132,达州市,凤凰小区,细颗粒物(PM2.5),163,166,180,124,148,6,,,,33,44,6,8,1.4,1.5
2023-12-31T0100,2551A,107.5082,31.1986,达州市,达县机关宾馆,细颗粒物(PM2.5),148,144,173,113,139,5,,,,39,49,5,6,1.3,1.4
2023-12-31T0100,2552A,107.4644,31.2124,达州市,市政中心,细颗粒物(PM2.5),163,186,196,124,151,4,,,,39,49,7,7,1.5,1.6
2023-12-31T0100,2614A,100.1542,25.7054,大理州,大理市环境监测站,,19,16,20,8,14,60,,,,12,12,5,6,0.6,0.6
2023-12-31T0100,2615A,100.2171,25.5811,大理州,大理古城,,26,26,24,12,16,43,,,,18,19,6,6,0.4,0.8
2023-12-31T0100,1109A,121.612,38.9741,大连市,甘井子,,,,74,,58,,,33,,,46,,7,,0.8
2023-12-31T0100,1110A,121.565,38.9511,大连市,周水子,细颗粒物(PM2.5),149,123,98,114,84,26,,,,24,47,9,12,0.9,1.2
2023-12-31T0100,1111A,121.5637,38.8845,大连市,星海三站,细颗粒物(PM2.5),158,,129,120,84,27,,,,24,37,9,8,1.2,1.3
2023-12-31T0100,1112A,121.6302,38.9117,大连市,青泥洼桥,细颗粒物(PM2.5),144,132,80,110,79,26,,,,32,48,10,9,1.3,1.4
2023-12-31T0100,1113A,121.6251,38.8638,大连市,傅家庄,细颗粒物(PM2.5),144,131,68,110,69,27,,,,28,34,12,11,1.5,1.5
2023-12-31T0100,1114A,121.5213,38.8661,大连市,七贤岭,细颗粒物(PM2.5),143,125,100,109,84,27,,,,25,44,12,13,1.6,1.6
2023-12-31T0100,1115A,121.2529,38.8061,大连市,旅顺,细颗粒物(PM2.5),129,,107,98,91,28,,,,25,28,9,8,1.7,1.8
2023-12-31T0100,1116A,121.7485,39.1311,大连市,金州,细颗粒物(PM2.5),138,111,76,105,71,34,,,,25,29,7,7,1.2,1.5
2023-12-31T0100,1117A,121.7811,39.0496,大连市,开发区,细颗粒物(PM2.5),155,,70,118,61,31,,,,31,37,9,6,1.0,1.1
2023-12-31T0100,1118A,121.9762,39.0631,大连市,双D港,细颗粒物(PM2.5),147,138,65,112,55,21,,,,33,23,8,7,1.4,1.3
2023-12-31T0100,1789A,124.81117,46.03138,大庆市,大同区,,35,,113,24,111,45,,,,11,26,9,9,0.4,0.9
2023-12-31T0100,1790A,125.129,46.533,大庆市,龙凤区,,28,28,71,12,62,60,,,,7,23,3,6,0.3,0.7
2023-12-31T0100,1791A,124.902,46.408,大庆市,红岗区,,30,,65,21,60,59,,,,5,27,7,10,0.7,1
2023-12-31T0100,1792A,125.153,46.586,大庆市,萨尔图区,,20,,69,10,63,64,,,,3,15,6,6,0.2,0.5
2023-12-31T0100,1793A,124.9042,46.6215,大庆市,让胡路区,,22,,63,15,42,50,,,,3,16,5,6,0.3,0.7
2023-12-31T0100,3481A,125.141,46.634,大庆市,萨区政府监测点,,18,13,65,10,53,56,,,,3,13,7,7,0.2,0.5
2023-12-31T0100,1721A,113.3819,40.1097,大同市,果树场,,,,,,,,,,,,,,,,
2023-12-31T0100,1723A,113.2994,40.0758,大同市,云冈宾馆,颗粒物(PM10),55,59,117,28,65,39,,,,39,49,13,21,0.9,1.5
2023-12-31T0100,1724A,113.3444,40.0917,大同市,大同大学,颗粒物(PM10),51,52,124,32,66,49,,,,31,53,16,25,1.1,1.4
2023-12-31T0100,1725A,113.2661,40.1269,大同市,安家小村,,40,31,126,28,68,50,,,,29,48,14,25,0.6,1.5
2023-12-31T0100,1726A,113.2711,40.0844,大同市,教育学院,颗粒物(PM10),55,60,131,14,57,35,,,,46,61,11,25,0.4,1.2
2023-12-31T0100,3282A,113.3397,40.0597,大同市,大同市卫生学校,颗粒物(PM10),52,53,121,32,72,47,,,,25,54,12,20,0.6,1.1
2023-12-31T0100,3565A,113.1367,40.1122,大同市,云冈站,,48,48,117,24,62,32,,,,36,47,30,36,0.5,0.9
2023-12-31T0100,3566A,113.1186,40.2556,大同市,图书馆,,43,38,131,30,94,53,,,,20,47,7,21,0.8,1.5
2023-12-31T0100,3567A,113.5931,40.0461,大同市,区一中,颗粒物(PM10),69,88,177,42,93,50,,,,29,57,20,37,0.8,1.6
2023-12-31T0100,3676A,113.2802,40.0995,大同市,第二人民医院,颗粒物(PM10),62,73,132,32,67,34,,,,44,53,12,22,0.7,1.4
2023-12-31T0100,2269A,124.1069,50.4097,大兴安岭地区,科技局,,36,,20,25,20,36,,,,8,9,6,6,0.5,0.5
2023-12-31T0100,3663A,124.1164,50.4278,大兴安岭地区,红旗社区,细颗粒物(PM2.5),69,53,57,50,51,12,,,,35,36,8,12,0.8,0.7
2023-12-31T0100,1600A,124.3303,40.0625,丹东市,江湾东路,细颗粒物(PM2.5),54,40,54,38,46,54,,,,18,27,17,17,0.8,1
2023-12-31T0100,1601A,124.4256,40.1503,丹东市,临江后街,,35,33,61,24,68,60,,,,12,35,11,15,0.9,1.3
2023-12-31T0100,1602A,124.3933,40.1461,丹东市,元宝山,,49,42,69,34,59,42,,,,19,36,11,15,1.1,1.5
2023-12-31T0100,1603A,124.3633,40.1092,丹东市,民主桥,细颗粒物(PM2.5),85,,68,63,59,50,,,,13,45,10,16,0.8,1.2
2023-12-31T0100,3541A,109.5726,19.5167,儋州市,第一中学子站,,25,25,29,14,12,72,,,,3,4,4,4,0.6,0.6
2023-12-31T0100,3542A,109.5567,19.5187,儋州市,东坡学校子站,,31,31,31,16,14,72,,,,5,5,6,5,0.5,0.5
2023-12-31T0100,2616A,98.5842,24.428,德宏州,德宏州监测站,,40,38,33,28,25,10,,,,35,24,12,14,0.6,0.5
2023-12-31T0100,3677A,98.5881,24.4368,德宏州,芒市人民政府综合楼,,34,34,34,11,20,32,,,,13,17,7,12,0.4,0.5
2023-12-31T0100,1901A,104.4239,31.1208,德阳市,东山公园,细颗粒物(PM2.5),72,86,129,52,116,22,,,,25,29,3,2,0.9,0.9
2023-12-31T0100,1902A,104.3826,31.1317,德阳市,西小区,细颗粒物(PM2.5),135,131,143,103,143,13,,,,29,33,3,3,1.0,1.1
2023-12-31T0100,1904A,104.3553,31.1091,德阳市,耐火材料厂,,,,146,,139,,,16,,,31,,2,,1.0
2023-12-31T0100,3639A,104.4019,31.1244,德阳市,市教育局,细颗粒物(PM2.5),133,125,134,101,131,15,,,,32,32,3,3,1.0,1
2023-12-31T0100,1622A,116.3032,37.4674,德州市,儿童乐园,细颗粒物(PM2.5),223,256,225,173,170,17,,,,57,57,8,9,2.1,1.7
2023-12-31T0100,1624A,116.2991,37.4451,德州市,监理站,细颗粒物(PM2.5),178,168,228,134,185,28,,,,57,63,8,10,2.0,1.7
2023-12-31T0100,3066A,116.2721,37.4379,德州市,九衢泉纯净水厂,细颗粒物(PM2.5),156,155,220,119,165,29,,,,54,62,5,7,2.2,1.9
2023-12-31T0100,3371A,116.3728,37.4403,德州市,开发区人民医院,细颗粒物(PM2.5),195,229,239,146,170,21,,,,52,55,3,4,2.2,1.8
2023-12-31T0100,3372A,116.3572,37.4094,德州市,太阳城中学,细颗粒物(PM2.5),223,201,226,173,182,26,,,,44,50,4,6,2.4,1.9
2023-12-31T0100,3511A,116.5652,37.3319,德州市,陵城艺术中心,细颗粒物(PM2.5),208,205,241,158,179,23,,,,45,49,1,4,1.8,1.8
2023-12-31T0100,2621A,99.7056,27.8317,迪庆州,迪庆州站,,34,34,29,17,16,42,,,,17,13,8,9,0.7,0.6
2023-12-31T0100,3180A,99.7136,27.8094,迪庆州,质量技术监督局,,37,37,26,25,20,41,,,,19,13,7,7,1.1,0.7
2023-12-31T0100,2663A,104.6241,35.5734,定西市,东关小学,"颗粒物(PM10),细颗粒物(PM2.5)",73,96,90,53,47,3,,,,36,27,15,20,1.3,1
2023-12-31T0100,2664A,104.6194,35.5934,定西市,供电公司,细颗粒物(PM2.5),88,,61,65,49,10,,,,34,34,13,16,0.9,0.9
2023-12-31T0100,1389A,113.7547,23.0494,东莞市,莞城梨川,细颗粒物(PM2.5),123,116,103,93,69,12,,,,67,69,8,8,1.0,0.9
2023-12-31T0100,1390A,113.7944,23.0128,东莞市,东城石井,细颗粒物(PM2.5),132,121,85,100,64,5,,,,47,48,8,9,1.1,0.8
2023-12-31T0100,1391A,113.7383,22.9658,东莞市,南城西平,细颗粒物(PM2.5),118,112,87,89,55,2,,,,81,73,9,7,1.2,0.9
2023-12-31T0100,3319A,113.7338,23.0381,东莞市,万江金泰,细颗粒物(PM2.5),163,133,120,124,92,8,,,,61,67,12,12,0.9,0.8
2023-12-31T0100,3626A,113.7533,23.0202,东莞市,南城元岭,细颗粒物(PM2.5),120,126,101,91,64,18,,,,54,62,10,9,1.2,1.1
2023-12-31T0100,3627A,113.7875,23.0457,东莞市,东城主山,细颗粒物(PM2.5),97,85,86,72,62,16,,,,51,60,6,8,0.9,0.9
2023-12-31T0100,1666A,118.6614,37.4309,东营市,市环保局,细颗粒物(PM2.5),238,212,264,188,221,34,,,,43,57,7,10,1.3,1.8
2023-12-31T0100,3036A,118.6904,37.4338,东营市,开发区管委会,细颗粒物(PM2.5),245,218,271,195,230,33,,,,57,70,5,8,1.5,1.9
2023-12-31T0100,3365A,118.5719,37.565,东营市,垦利区民丰路,细颗粒物(PM2.5),235,232,266,185,212,27,,,,51,63,8,8,1.5,2
2023-12-31T0100,3498A,118.5055,37.8612,东营市,河口城区,细颗粒物(PM2.5),238,249,293,188,223,20,,,,61,62,4,5,1.8,2.2
2023-12-31T0100,3646A,118.4978,37.4623,东营市,胜利站,细颗粒物(PM2.5),233,216,284,183,228,31,,,,54,70,8,12,1.3,1.9
2023-12-31T0100,3734A,118.35,37.26,东营市,理想之城,细颗粒物(PM2.5),221,215,256,171,196,36,,,,55,70,5,7,1.5,2
2023-12-31T0100,1591A,110.0023,39.8129,鄂尔多斯市,综合楼,,36,36,86,12,19,38,,,,50,22,10,6,0.6,0.3
2023-12-31T0100,1592A,109.9486,39.8261,鄂尔多斯市,巴音孟克林场办事处,,44,44,74,12,20,23,,,,58,19,11,8,0.6,0.4
2023-12-31T0100,1593A,109.7736,39.5986,鄂尔多斯市,康泽苑,,34,34,73,14,23,55,,,,18,17,6,7,0.4,0.4
2023-12-31T0100,1594A,109.8119,39.5989,鄂尔多斯市,华泰汽车城,,34,34,74,14,24,48,,,,22,22,6,7,0.4,0.4
2023-12-31T0100,1595A,109.9734,39.7884,鄂尔多斯市,奥林花园,,44,44,81,22,20,39,,,,46,20,8,7,0.8,0.7
2023-12-31T0100,2436A,114.8938,30.3994,鄂州市,市政府,细颗粒物(PM2.5),204,188,193,154,190,3,,,,60,45,5,6,1.7,1.8
2023-12-31T0100,2437A,114.8989,30.3714,鄂州市,赵家坝,细颗粒物(PM2.5),213,172,172,163,180,20,,,,48,46,3,5,1.3,1.4
2023-12-31T0100,3654A,114.8094,30.4089,鄂州市,精准医疗中心,细颗粒物(PM2.5),202,249,230,152,180,38,,,,43,41,8,7,1.1,1.1
2023-12-31T0100,2499A,108.3411,21.6158,防城港市,沙万,细颗粒物(PM2.5),68,71,57,49,42,28,,,,35,32,7,8,0.9,0.9
2023-12-31T0100,2500A,108.3514,21.7731,防城港市,防城档案局,细颗粒物(PM2.5),60,68,66,43,33,9,,,,29,30,4,5,0.7,0.5
2023-12-31T0100,2501A,108.3506,21.6414,防城港市,大海花园,细颗粒物(PM2.5),80,,44,59,41,24,,,,39,33,8,7,0.9,0.8
2023-12-31T0100,1371A,113.1294,23.0067,佛山市,湾梁,颗粒物(PM10),60,70,71,33,33,2,,,,51,56,9,8,0.9,0.8
2023-12-31T0100,1372A,113.1083,23.0478,佛山市,华材职中,细颗粒物(PM2.5),73,68,68,53,51,3,,,,60,71,11,10,0.9,0.7
2023-12-31T0100,1373A,113.144,23.0453,佛山市,南海气象局,细颗粒物(PM2.5),59,56,63,42,45,0,,,,68,66,6,5,0.8,0.7
2023-12-31T0100,1374A,113.2881,22.8094,佛山市,顺德苏岗,细颗粒物(PM2.5),73,,51,53,43,0,,,,55,53,7,8,0.9,0.8
2023-12-31T0100,1376A,112.8383,22.8678,佛山市,高明孔堂,,36,33,57,25,39,12,,,,17,28,7,8,0.5,0.5
2023-12-31T0100,1377A,112.8836,23.1588,佛山市,三水监测站,细颗粒物(PM2.5),78,61,52,57,49,1,,,,49,63,5,5,0.7,0.7
2023-12-31T0100,1378A,112.867,23.185,佛山市,三水云东海,,42,40,51,29,45,1,,,,33,55,5,6,0.7,0.7
2023-12-31T0100,3625A,113.2544,22.7642,佛山市,容桂街道办,细颗粒物(PM2.5),62,53,68,44,41,3,,,,74,61,6,6,1.0,0.8
2023-12-31T0100,1280A,119.3903,26.0543,福州市,鼓山,,,,,,,,,,,,,,,,
2023-12-31T0100,1282A,119.2681,26.0504,福州市,师大,细颗粒物(PM2.5),67,77,64,48,39,3,,,,56,46,7,7,0.7,0.7
2023-12-31T0100,1283A,119.2984,26.1028,福州市,五四北路,细颗粒物(PM2.5),59,64,58,42,41,3,,,,59,44,4,4,0.8,0.7
2023-12-31T0100,1284A,119.2648,26.0768,福州市,杨桥西路,颗粒物(PM10),67,84,64,46,35,5,,,,54,40,5,5,0.8,0.7
2023-12-31T0100,1285A,119.317,26.0746,福州市,紫阳,细颗粒物(PM2.5),79,87,69,58,41,3,,,,63,45,5,6,1.1,0.9
2023-12-31T0100,3048A,119.5799,26.0936,福州市,九龙,颗粒物(PM10),75,99,57,52,40,3,,,,76,36,6,6,0.9,0.7
2023-12-31T0100,3526A,119.5189,25.9664,福州市,吴航,细颗粒物(PM2.5),72,89,67,52,39,0,,,,74,49,6,6,1.0,0.7
2023-12-31T0100,1755A,123.7977,41.8491,抚顺市,望花区,细颗粒物(PM2.5),205,190,92,155,76,40,,,,35,50,3,5,1.3,1.1
2023-12-31T0100,1756A,123.9161,41.8822,抚顺市,顺城区,细颗粒物(PM2.5),233,210,84,183,76,38,,,,36,39,6,8,1.3,0.9
2023-12-31T0100,1757A,124.0436,41.8611,抚顺市,东洲区,细颗粒物(PM2.5),208,169,70,158,63,37,,,,30,22,7,10,1.4,0.9
2023-12-31T0100,1758A,123.9247,41.8642,抚顺市,新抚区,细颗粒物(PM2.5),238,,92,188,87,42,,,,34,45,7,10,1.3,0.9
2023-12-31T0100,1759A,124.0972,41.8961,抚顺市,大伙房水库,细颗粒物(PM2.5),206,208,71,156,62,34,,,,34,28,9,10,1.6,1
2023-12-31T0100,1760A,123.7086,41.8391,抚顺市,沈抚新城,细颗粒物(PM2.5),170,195,98,129,76,45,,,,30,47,6,12,1.1,1.3
2023-12-31T0100,2376A,116.2127,28.0814,抚州市,桐源党溪,细颗粒物(PM2.5),137,119,126,104,105,9,,,,26,31,4,12,1.5,1.6
2023-12-31T0100,2377A,116.3544,27.9831,抚州市,市站,细颗粒物(PM2.5),183,179,174,138,126,28,,,,56,52,24,31,1.6,1.5
2023-12-31T0100,2378A,116.3565,27.963,抚州市,血防站,细颗粒物(PM2.5),176,160,152,133,124,19,,,,86,50,6,15,1.8,1.5
2023-12-31T0100,2379A,116.3564,28.0007,抚州市,采茶剧团,细颗粒物(PM2.5),193,164,154,145,130,33,,,,48,46,8,13,1.5,1.5
2023-12-31T0100,2380A,116.385,27.9647,抚州市,医学分院,细颗粒物(PM2.5),165,171,163,125,112,9,,,,70,46,8,16,1.5,1.5
2023-12-31T0100,2207A,121.6094,41.998,阜新市,工业园区,,26,26,162,15,84,54,,,,17,46,6,36,0.7,1.9
2023-12-31T0100,2208A,121.6697,42.0279,阜新市,长青街,,32,32,155,21,116,52,,,,12,39,4,30,0.3,1.4
2023-12-31T0100,2209A,121.6673,42.0705,阜新市,农业园区,,46,46,136,29,111,57,,,,11,33,7,20,0.4,1.1
2023-12-31T0100,2210A,121.6717,42.0224,阜新市,东苑,,32,32,137,20,89,61,,,,16,43,5,37,0.9,1.9
2023-12-31T0100,2211A,121.6506,42.0498,阜新市,玉龙新城,,23,17,112,16,84,56,,,,15,43,6,19,0.4,1.4
2023-12-31T0100,2301A,115.8277,32.8929,阜阳市,市监测站,细颗粒物(PM2.5),240,213,186,190,168,42,,,,38,38,6,7,1.1,1.2
2023-12-31T0100,2303A,115.8554,32.8605,阜阳市,开发区,细颗粒物(PM2.5),200,225,195,150,138,37,,,,40,34,7,8,1.1,1.1
2023-12-31T0100,2875A,115.784,32.8892,阜阳市,阜阳职业技术学院,细颗粒物(PM2.5),216,205,177,166,134,53,,,,30,32,4,4,1.0,1
2023-12-31T0100,3468A,115.7901,32.8613,阜阳市,市规划展馆,细颗粒物(PM2.5),210,166,188,160,149,60,,,,36,31,6,4,1.1,1.2
2023-12-31T0100,3469A,115.836,32.9183,阜阳市,枣园社区,细颗粒物(PM2.5),221,211,192,171,155,42,,,,42,37,3,3,,1.1
2023-12-31T0100,2669A,102.9099,34.9841,甘南州,州政府,颗粒物(PM10),53,56,55,35,29,1,,,,47,37,18,19,1.3,1
2023-12-31T0100,3380A,102.8914,34.9617,甘南州,甘肃民族师范学院,颗粒物(PM10),53,56,54,16,18,1,,,,44,36,11,13,0.8,1
2023-12-31T0100,2570A,101.9603,30.0475,甘孜藏族自治州,水桥子,,17,17,28,3,11,27,,,,28,29,9,9,0.3,0.4
2023-12-31T0100,3065A,101.9533,29.9972,甘孜藏族自治州,州环保局,,20,13,20,3,5,63,,,,4,10,7,8,0.2,0.2
2023-12-31T0100,3414A,115.8347,28.932,赣江新区,桑海产业园,细颗粒物(PM2.5),237,224,230,187,177,22,,,,66,72,6,9,1.3,1.1
2023-12-31T0100,2362A,114.9017,25.9149,赣州市,通天岩,,,,,,,,,,,,,,,,
2023-12-31T0100,2363A,114.9367,25.8664,赣州市,地委,细颗粒物(PM2.5),83,114,102,61,61,16,,,,64,51,8,12,0.9,1.3
2023-12-31T0100,2364A,114.9461,25.8481,赣州市,气象台,细颗粒物(PM2.5),73,94,102,53,64,7,,,,84,65,12,15,1.4,1.4
2023-12-31T0100,2365A,114.9322,25.8333,赣州市,市图书馆,细颗粒物(PM2.5),88,111,110,65,67,5,,,,94,65,11,13,1.1,1
2023-12-31T0100,2366A,114.8905,25.8471,赣州市,华坚鞋城,细颗粒物(PM2.5),82,62,111,60,65,33,,,,52,82,8,13,1.9,1.2
2023-12-31T0100,3109A,115.0093,25.8613,赣州市,赣县区卫计委,颗粒物(PM10),68,85,86,42,60,13,,,,56,51,8,9,1.2,1.3
2023-12-31T0100,2683A,106.2319,36.1417,固原市,马园,颗粒物(PM10),70,89,77,24,30,29,,,,37,35,6,8,1.0,1
2023-12-31T0100,2684A,106.2792,36.0022,固原市,监测站,,49,49,68,8,24,62,,,,36,26,6,8,0.6,0.8
2023-12-31T0100,2685A,106.2375,36.0211,固原市,新区,细颗粒物(PM2.5),72,62,60,52,22,33,,,,38,23,6,5,0.6,0.6
2023-12-31T0100,3522A,106.2177,35.9959,固原市,原州区十五小,,48,48,61,18,25,72,,,,14,18,7,6,0.3,0.5
2023-12-31T0100,2543A,106.6308,30.5278,广安市,小平旧居,,,,,,,,,,,,,,,,
2023-12-31T0100,2544A,106.6303,30.4576,广安市,市委,细颗粒物(PM2.5),221,188,179,171,156,12,,,,38,31,5,6,1.2,1.3
2023-12-31T0100,2545A,106.6271,30.4663,广安市,友谊中学,细颗粒物(PM2.5),217,184,165,167,149,11,,,,44,31,7,7,1.5,1.3
2023-12-31T0100,2547A,106.6388,30.4551,广安市,广电花园,细颗粒物(PM2.5),202,171,159,152,147,8,,,,37,34,3,3,1.4,1.4
2023-12-31T0100,2902A,106.6351,30.4865,广安市,北辰小学,细颗粒物(PM2.5),192,150,163,144,149,9,,,,30,25,5,6,1.2,1.3
2023-12-31T0100,2523A,105.8945,32.4535,广元市,黑石坡,细颗粒物(PM2.5),176,,95,133,87,46,,,,40,35,7,13,1.1,1.1
2023-12-31T0100,2524A,105.821,32.4444,广元市,老城,细颗粒物(PM2.5),125,136,137,95,92,3,,,,56,55,1,19,1.0,1.4
2023-12-31T0100,2526A,105.8628,32.4287,广元市,监测站,细颗粒物(PM2.5),143,129,111,109,89,6,,,,55,49,2,19,1.5,1.3
2023-12-31T0100,3617A,105.8047,32.4166,广元市,经开区,细颗粒物(PM2.5),140,154,149,107,102,3,,,,62,61,6,31,1.3,1.6
2023-12-31T0100,1345A,113.2347,23.1423,广州市,广雅中学,细颗粒物(PM2.5),70,65,73,51,52,2,,,,85,98,7,6,1.4,1.3
2023-12-31T0100,1346A,113.2612,23.105,广州市,市五中,细颗粒物(PM2.5),79,72,68,58,48,2,,,,83,85,8,7,1.2,1.1
2023-12-31T0100,1348A,113.3478,23.0916,广州市,广东商学院,颗粒物(PM10),60,70,62,42,35,2,,,,78,69,6,6,1.5,1.1
2023-12-31T0100,1349A,113.4332,23.1047,广州市,市八十六中,细颗粒物(PM2.5),74,72,63,54,43,3,,,,87,74,5,6,1.5,1.1
2023-12-31T0100,1350A,113.3505,22.9483,广州市,番禺中学,细颗粒物(PM2.5),70,60,61,51,41,2,,,,95,68,5,5,1.1,0.8
2023-12-31T0100,1351A,113.2146,23.3916,广州市,花都师范,细颗粒物(PM2.5),89,85,95,66,64,2,,,,73,77,5,5,0.9,0.8
2023-12-31T0100,1352A,113.2597,23.1331,广州市,市监测站,细颗粒物(PM2.5),74,75,75,54,52,2,,,,91,99,6,5,1.1,0.9
2023-12-31T0100,1353A,113.5618,23.312,广州市,九龙镇镇龙,细颗粒物(PM2.5),68,69,85,49,53,5,,,,46,62,5,5,0.9,0.9
2023-12-31T0100,1354A,113.2765,23.1544,广州市,麓湖,细颗粒物(PM2.5),62,57,66,44,52,2,,,,63,72,4,4,1.0,0.8
2023-12-31T0100,1355A,113.443,23.3035,广州市,帽峰山森林公园,细颗粒物(PM2.5),52,48,60,36,35,19,,,,10,27,10,9,0.4,0.5
2023-12-31T0100,2846A,113.3221,23.1322,广州市,体育西,细颗粒物(PM2.5),77,72,69,56,48,3,,,,103,87,8,7,1.0,0.8
2023-12-31T0100,3298A,113.5717,23.5491,广州市,从化街口,细颗粒物(PM2.5),119,134,121,90,94,1,,,,50,53,5,6,1.2,1
2023-12-31T0100,3299A,113.3472,23.3692,广州市,白云竹料,细颗粒物(PM2.5),130,118,114,99,82,4,,,,64,66,6,6,1.2,0.9
2023-12-31T0100,3300A,113.2981,23.237,广州市,白云嘉禾,细颗粒物(PM2.5),109,103,109,82,80,3,,,,83,91,8,8,1.3,1
2023-12-31T0100,3301A,113.4256,23.1716,广州市,黄埔科学城,细颗粒物(PM2.5),94,75,83,70,71,2,,,,54,60,4,4,1.0,0.9
2023-12-31T0100,3302A,113.3942,23.0483,广州市,番禺大学城,颗粒物(PM10),72,93,100,41,36,0,,,,79,61,8,8,1.4,1
2023-12-31T0100,3303A,113.4922,22.8168,广州市,南沙黄阁,细颗粒物(PM2.5),94,77,71,70,51,6,,,,72,72,4,5,1.0,0.8
2023-12-31T0100,3304A,113.5342,22.7896,广州市,南沙街,细颗粒物(PM2.5),94,92,71,70,44,14,,,,54,69,4,6,0.9,0.7
2023-12-31T0100,3443A,113.2902,23.5544,广州市,花都梯面,细颗粒物(PM2.5),59,57,97,42,69,2,,,,42,62,4,5,0.7,0.8
2023-12-31T0100,3445A,113.7858,23.7478,广州市,从化良口,,38,32,49,26,42,17,,,,18,24,4,6,0.7,0.7
2023-12-31T0100,3446A,113.8051,23.2614,广州市,增城荔城,细颗粒物(PM2.5),73,61,89,53,68,19,,,,26,35,5,6,0.7,0.7
2023-12-31T0100,2505A,109.568,23.1478,贵港市,德智高中,细颗粒物(PM2.5),89,69,80,66,63,39,,,,30,40,25,14,0.9,0.9
2023-12-31T0100,2506A,109.6047,23.0666,贵港市,江南子站,细颗粒物(PM2.5),99,112,100,74,61,12,,,,48,35,11,11,1.0,0.8
2023-12-31T0100,2507A,109.6014,23.0948,贵港市,贵城子站,细颗粒物(PM2.5),122,119,86,92,64,4,,,,55,39,21,15,0.9,0.7
2023-12-31T0100,2508A,109.5669,23.1065,贵港市,荷城子站,细颗粒物(PM2.5),77,83,99,56,58,2,,,,47,36,17,13,1.0,1.2
2023-12-31T0100,3405A,109.5886,23.1172,贵港市,新世纪学校,细颗粒物(PM2.5),78,83,93,57,57,2,,,,59,50,17,14,1.1,1.1
2023-12-31T0100,1439A,106.6899,26.5998,贵阳市,马鞍山,细颗粒物(PM2.5),79,78,69,58,51,0,,,,31,30,3,14,1.0,1
2023-12-31T0100,1440A,106.6971,26.5694,贵阳市,市环保站,,,,,,,,,,,,,,,,
2023-12-31T0100,1441A,106.6243,26.6266,贵阳市,鉴湖路,细颗粒物(PM2.5),64,61,72,46,50,58,,,,31,36,13,13,0.7,0.7
2023-12-31T0100,1442A,106.7487,26.6343,贵阳市,燕子冲,细颗粒物(PM2.5),83,63,69,61,57,24,,,,26,26,6,19,0.8,0.9
2023-12-31T0100,1443A,106.6555,26.4365,贵阳市,碧云窝,细颗粒物(PM2.5),79,85,75,58,54,8,,,,33,22,11,19,1.0,1
2023-12-31T0100,1444A,106.694,26.5161,贵阳市,中院村,细颗粒物(PM2.5),163,175,107,124,78,7,,,,58,44,67,37,2.2,1.4
2023-12-31T0100,1445A,106.7109,26.6027,贵阳市,红边门,细颗粒物(PM2.5),147,136,102,112,78,2,,,,69,51,95,51,2.4,1.5
2023-12-31T0100,1446A,106.7164,26.5699,贵阳市,新华路,细颗粒物(PM2.5),119,151,106,90,74,6,,,,59,46,22,22,1.9,1.3
2023-12-31T0100,1447A,106.674,26.5424,贵阳市,太慈桥,细颗粒物(PM2.5),85,83,71,63,52,7,,,,39,36,5,13,0.8,0.8
2023-12-31T0100,1552A,106.805,26.3003,贵阳市,桐木岭,,,,,,,,,,,,,,,,
2023-12-31T0100,1862A,110.4144,25.3167,桂林市,电子科大尧山校区,细颗粒物(PM2.5),83,80,88,61,73,24,,,,15,15,5,15,0.8,0.8
2023-12-31T0100,1863A,110.2819,25.2697,桂林市,监测站,细颗粒物(PM2.5),147,128,148,112,111,20,,,,64,58,12,16,1.7,1.6
2023-12-31T0100,1864A,110.3089,25.2708,桂林市,龙隐路小学,细颗粒物(PM2.5),132,,116,100,107,36,,,,46,41,15,16,1.4,1.4
2023-12-31T0100,1865A,110.2869,25.2178,桂林市,八中,细颗粒物(PM2.5),142,134,126,108,105,,,,,53,42,9,16,1.2,1.2
2023-12-31T0100,3403A,110.1764,25.2381,桂林市,创业大厦,细颗粒物(PM2.5),168,163,137,127,105,3,,,,72,54,15,20,1.1,0.8
2023-12-31T0100,3531A,110.296,25.1253,桂林市,旅游学院,细颗粒物(PM2.5),175,,113,132,95,3,,,,58,41,6,13,1.2,0.8
2023-12-31T0100,2674A,100.2561,34.4714,果洛藏族自治州,玛沁县大武镇,,39,39,32,20,14,15,,,,25,16,10,13,0.5,0.6
2023-12-31T0100,1129A,126.5422,45.755,哈尔滨市,岭北,,28,,123,19,112,45,,,,29,42,65,22,0,0.3
2023-12-31T0100,1130A,126.561,45.8167,哈尔滨市,松北商大,,27,27,124,17,109,55,,,,18,46,6,10,0.4,1
2023-12-31T0100,1131A,126.979,45.5419,哈尔滨市,阿城会宁,,26,24,125,18,108,62,,,,13,41,2,12,0.4,1.2
2023-12-31T0100,1132A,126.599,45.7222,哈尔滨市,南岗学府路,,41,41,138,19,100,33,,,,38,50,16,14,0.5,1.1
2023-12-31T0100,1133A,126.689,45.7733,哈尔滨市,太平宏伟公园,,31,31,128,20,104,53,,,,15,43,8,10,0.5,0.8
2023-12-31T0100,1134A,126.635,45.7667,哈尔滨市,道外承德广场,,39,39,143,19,107,48,,,,21,55,9,18,0.2,0.9
2023-12-31T0100,1135A,126.685,45.7319,哈尔滨市,香坊红旗大街,,32,32,117,4,116,34,,,,37,52,18,24,1.0,1.3
2023-12-31T0100,1136A,126.6411,45.7258,哈尔滨市,动力和平路,,33,30,122,23,111,39,,,,27,48,14,17,0.3,1.1
2023-12-31T0100,1137A,126.593,45.7478,哈尔滨市,道里建国路,,33,33,121,11,116,48,,,,17,45,3,12,0.0,0.7
2023-12-31T0100,1138A,126.615,45.61,哈尔滨市,平房东轻厂,,49,44,127,34,113,46,,,,27,52,8,14,0.6,1.3
2023-12-31T0100,1139A,126.595,45.9855,哈尔滨市,呼兰师专,,19,19,128,10,120,56,,,,11,42,8,17,0.4,1.2
2023-12-31T0100,1140A,126.6206,45.6842,哈尔滨市,省农科院,,40,40,136,26,102,42,,,,37,55,27,30,0.7,1.3
2023-12-31T0100,2688A,93.5128,42.8172,哈密地区,地区监测站,颗粒物(PM10),82,114,235,51,71,29,,,,48,54,6,11,0.5,1.3
2023-12-31T0100,2689A,93.4961,42.8328,哈密地区,哈密师范学校,颗粒物(PM10),90,130,249,54,71,23,,,,46,51,7,13,0.9,1.9
2023-12-31T0100,2671A,100.9048,36.9639,海北藏族自治州,海晏县西海镇,,21,21,24,11,9,54,,,,4,5,10,10,0.3,0.3
2023-12-31T0100,3867A,102.0738,36.5056,海东地区,平安区公安北苑,,50,50,45,24,18,12,,,,41,32,12,16,0.7,0.7
2023-12-31T0100,1409A,110.576,19.9507,海口市,东寨港,,,,,,,,,,,,,,,,
2023-12-31T0100,1410A,110.3232,20.0574,海口市,海南大学,,38,38,40,23,22,55,,,,47,19,8,8,0.6,0.5
2023-12-31T0100,1411A,110.283,20.0053,海口市,秀英海南医院,,40,40,39,26,20,71,,,,31,14,8,8,0.6,0.4
2023-12-31T0100,1412A,110.338,19.9969,海口市,海南师范大学,,42,36,37,29,21,85,,,,16,10,6,6,0.5,0.4
2023-12-31T0100,1413A,110.33,20.0356,海口市,龙华路环保局宿舍,,38,38,38,24,20,90,,,,15,12,7,7,0.5,0.4
2023-12-31T0100,3539A,110.5111,19.9736,海口市,桂林洋子站,,46,46,36,26,17,30,,,,57,13,7,6,0.4,0.3
2023-12-31T0100,2673A,100.6188,36.2866,海南藏族自治州,共和县恰卜恰镇,,34,34,30,12,14,18,,,,37,27,19,15,0.8,0.7
2023-12-31T0100,2676A,97.3731,37.3753,海西蒙古族藏族自治州,德令哈市,,29,29,27,9,9,68,,,,3,7,14,12,0.4,0.5
2023-12-31T0100,1048A,114.5302,36.6116,邯郸市,东污水处理厂,细颗粒物(PM2.5),240,232,238,190,219,3,,,,65,62,1,3,4.8,2.5
2023-12-31T0100,1049A,114.4918,36.5713,邯郸市,矿院,细颗粒物(PM2.5),150,175,234,115,204,1,,,,65,66,3,3,4.8,2.7
2023-12-31T0100,1050A,114.484,36.6133,邯郸市,丛台公园,细颗粒物(PM2.5),175,181,260,132,210,7,,,,69,67,3,3,5.0,2.8
2023-12-31T0100,3458A,114.7895,36.5593,邯郸市,香泉濮院小区,细颗粒物(PM2.5),162,148,251,123,202,14,,,,75,59,4,5,2.2,1.8
2023-12-31T0100,3579A,114.50634,36.77178,邯郸市,永年区实验高中,细颗粒物(PM2.5),165,133,242,125,199,3,,,,62,67,5,7,2.4,1.9
2023-12-31T0100,3580A,114.20016,36.44293,邯郸市,峰峰矿区临水派出所,细颗粒物(PM2.5),166,153,226,126,188,32,,,,35,53,17,11,1.8,3.3
2023-12-31T0100,2634A,106.9893,33.1842,汉中市,汉川机床厂子校,细颗粒物(PM2.5),118,100,106,89,98,18,,,,17,24,2,3,1.1,1.2
2023-12-31T0100,2635A,107.0154,33.0706,汉中市,市监测站,细颗粒物(PM2.5),166,134,157,126,147,7,,,,50,39,8,8,2.1,2.2
2023-12-31T0100,2636A,107.0089,33.1138,汉中市,鑫源开发区,细颗粒物(PM2.5),107,129,137,80,133,6,,,,37,29,7,8,2.1,2
2023-12-31T0100,2637A,107.007,33.0323,汉中市,南郑大河坎水厂,细颗粒物(PM2.5),180,156,164,136,146,8,,,,43,33,9,7,1.9,1.9
2023-12-31T0100,1223A,120.2072,30.2111,杭州市,滨江,细颗粒物(PM2.5),148,230,198,113,90,1,,,,112,101,10,10,1.4,1.3
2023-12-31T0100,1224A,120.0633,30.2747,杭州市,西溪,细颗粒物(PM2.5),165,162,163,125,125,3,,,,65,80,8,7,1.3,1.1
2023-12-31T0100,1226A,120.3461,30.3153,杭州市,下沙,细颗粒物(PM2.5),258,272,219,208,178,4,,,,122,119,8,7,2.0,1.4
2023-12-31T0100,1227A,120.1269,30.2456,杭州市,卧龙桥,细颗粒物(PM2.5),168,181,179,127,140,2,,,,43,75,4,5,1.1,1.1
2023-12-31T0100,1228A,120.1903,30.2692,杭州市,浙江农大,细颗粒物(PM2.5),208,254,238,158,158,2,,,,97,98,9,9,1.4,1
2023-12-31T0100,1230A,120.1197,30.3119,杭州市,和睦小学,细颗粒物(PM2.5),193,237,216,145,135,4,,,,93,93,6,6,1.2,1.1
2023-12-31T0100,1231A,120.3019,30.4183,杭州市,临平镇,细颗粒物(PM2.5),219,207,201,169,157,4,,,,86,84,7,6,1.4,1.3
2023-12-31T0100,1232A,120.2697,30.1819,杭州市,城厢镇,细颗粒物(PM2.5),206,164,140,156,131,2,,,,109,103,7,7,1.7,1.3
2023-12-31T0100,1233A,120.0883,30.1808,杭州市,云栖,细颗粒物(PM2.5),159,180,200,121,148,4,,,,61,90,7,7,1.1,1.2
2023-12-31T0100,3557A,119.9464,30.0494,杭州市,镇二中,细颗粒物(PM2.5),142,153,170,108,128,3,,,,74,97,5,6,1.5,1.5
2023-12-31T0100,3558A,119.7183,30.2367,杭州市,市府大楼,细颗粒物(PM2.5),190,186,183,143,144,5,,,,61,75,5,6,1.3,1.3
2023-12-31T0100,3656A,120.1556,30.2864,杭州市,消防大队,细颗粒物(PM2.5),237,239,212,187,168,4,,,,111,108,9,9,1.7,1.5
2023-12-31T0100,1270A,117.1959,31.7848,合肥市,明珠广场,细颗粒物(PM2.5),134,134,155,102,115,58,,,,30,46,6,6,1.2,1.3
2023-12-31T0100,1271A,117.3072,31.8764,合肥市,三里街,细颗粒物(PM2.5),170,144,170,129,138,58,,,,32,54,5,5,1.2,1.3
2023-12-31T0100,1272A,117.2588,31.8707,合肥市,琥珀山庄,细颗粒物(PM2.5),144,134,161,110,127,35,,,,58,59,5,6,1.3,1.4
2023-12-31T0100,1273A,117.1604,31.9052,合肥市,董铺水库,细颗粒物(PM2.5),138,149,157,105,116,57,,,,21,30,3,4,0.9,1
2023-12-31T0100,1274A,117.25,31.8571,合肥市,长江中路,细颗粒物(PM2.5),172,144,156,130,138,51,,,,35,47,7,6,1.5,1.5
2023-12-31T0100,1275A,117.266,31.9436,合肥市,庐阳区,细颗粒物(PM2.5),147,151,154,112,116,60,,,,26,43,4,6,0.8,1
2023-12-31T0100,1276A,117.336,31.8586,合肥市,瑶海区,细颗粒物(PM2.5),178,141,168,134,146,57,,,,39,57,2,3,1.2,1.3
2023-12-31T0100,1277A,117.3027,31.7964,合肥市,包河区,细颗粒物(PM2.5),153,134,168,117,148,61,,,,35,54,4,5,1.4,1.5
2023-12-31T0100,1278A,117.2776,31.7385,合肥市,滨湖新区,细颗粒物(PM2.5),149,146,178,114,140,44,,,,47,55,2,3,0.6,0.8
2023-12-31T0100,1279A,117.1318,31.8403,合肥市,高新区,细颗粒物(PM2.5),159,134,149,121,130,66,,,,26,44,6,8,1.1,1.2
2023-12-31T0100,3464A,117.3803,31.9147,合肥市,高教基地,细颗粒物(PM2.5),132,149,169,100,123,55,,,,36,60,3,4,0.8,1.1
2023-12-31T0100,3614A,79.924,37.0877,和田地区,地区环保局,颗粒物(PM10),167,284,288,82,65,45,,,,47,31,27,16,1.5,0.8
2023-12-31T0100,3615A,79.9131,37.113,和田地区,市环保局,颗粒物(PM10),172,293,272,96,70,21,,,,108,52,53,17,7.4,3.6
2023-12-31T0100,2516A,108.2011,24.715,河池市,东仁乐园,细颗粒物(PM2.5),69,56,63,50,54,14,,,,24,20,4,7,0.7,0.7
2023-12-31T0100,2517A,108.0497,24.6947,河池市,市环保站,细颗粒物(PM2.5),137,116,90,104,68,7,,,,51,39,6,6,1.2,1
2023-12-31T0100,2518A,108.0983,24.6989,河池市,市疾控中心,细颗粒物(PM2.5),99,112,102,74,70,4,,,,58,48,6,7,1.2,1.1
2023-12-31T0100,1696A,114.6778,23.7569,河源市,源西,,46,,50,32,39,13,,,,34,42,3,4,0.7,0.8
2023-12-31T0100,1697A,114.6944,23.7586,河源市,东埔,细颗粒物(PM2.5),72,54,70,52,54,18,,,,33,37,6,7,0.8,0.8
2023-12-31T0100,1698A,114.6892,23.7233,河源市,老城,细颗粒物(PM2.5),67,,53,48,60,8,,,,31,32,5,5,0.8,0.9
2023-12-31T0100,1718A,115.4208,35.2464,菏泽市,气象局,细颗粒物(PM2.5),234,244,240,184,205,24,,,,43,42,3,1,1.5,1.4
2023-12-31T0100,1719A,115.4747,35.2375,菏泽市,市政协,细颗粒物(PM2.5),221,248,246,171,202,24,,,,45,46,3,4,1.7,1.5
2023-12-31T0100,3374A,115.5564,35.0891,菏泽市,定陶老年大学,细颗粒物(PM2.5),228,251,238,178,191,16,,,,47,46,2,2,1.5,1.4
2023-12-31T0100,3647A,115.4702,35.2706,菏泽市,菏泽医专,细颗粒物(PM2.5),193,234,237,145,186,26,,,,43,43,2,3,1.7,1.5
2023-12-31T0100,2514A,111.5264,24.4172,贺州市,环保小区,细颗粒物(PM2.5),73,78,78,53,50,10,,,,52,38,7,8,1.0,0.9
2023-12-31T0100,2515A,111.5608,24.4078,贺州市,政协大楼,细颗粒物(PM2.5),80,86,81,59,48,5,,,,61,38,10,9,0.8,0.8
2023-12-31T0100,3534A,111.4744,24.4553,贺州市,西湾,细颗粒物(PM2.5),73,74,79,53,54,10,,,,44,36,5,8,0.8,0.8
2023-12-31T0100,2385A,114.17,35.9019,鹤壁市,市监测站,细颗粒物(PM2.5),148,114,162,113,146,1,,,,53,55,1,3,1.9,1.8
2023-12-31T0100,2386A,114.2956,35.7511,鹤壁市,市交警支队,细颗粒物(PM2.5),231,276,215,181,157,2,,,,81,65,3,4,2.2,1.8
2023-12-31T0100,2387A,114.2878,35.7306,鹤壁市,迎宾馆,细颗粒物(PM2.5),207,215,177,157,145,1,,,,74,60,6,6,2.1,2
2023-12-31T0100,3474A,114.2617,35.6822,鹤壁市,大新区,细颗粒物(PM2.5),192,167,156,144,152,3,,,,73,59,4,5,2.0,1.7
2023-12-31T0100,3596A,114.1572,35.9603,鹤壁市,南山宾馆,细颗粒物(PM2.5),169,183,151,128,105,42,,,,34,46,9,7,1.7,2.2
2023-12-31T0100,2244A,130.2537,47.3416,鹤岗市,哈啤分公司,,20,,20,14,20,59,,,,4,6,11,12,0.2,0.2
2023-12-31T0100,2245A,130.2684,47.3086,鹤岗市,斯达机电,,23,16,27,16,20,60,,,,5,9,8,9,0.1,0.2
2023-12-31T0100,2246A,130.3114,47.3388,鹤岗市,东山纸板厂,,26,26,28,17,23,53,,,,8,11,14,16,0.1,0.2
2023-12-31T0100,2247A,130.1097,47.3382,鹤岗市,五号水库,,21,15,24,14,20,65,,,,4,7,10,10,0.2,0.3
2023-12-31T0100,2263A,127.4833,50.2524,黑河市,交通局,,18,,18,12,16,51,,,,3,10,4,4,0.4,0.5
2023-12-31T0100,2264A,127.5144,50.2341,黑河市,环保局,,28,,19,19,21,51,,,,4,14,4,6,0.2,0.4
2023-12-31T0100,2265A,127.5291,50.2472,黑河市,大黑河岛,,,20,19,12,15,14,,,,5,12,2,3,,
2023-12-31T0100,1074A,115.6838,37.7541,衡水市,电机北厂,细颗粒物(PM2.5),220,181,248,170,215,6,,,,42,45,1,3,2.0,1.8
2023-12-31T0100,1075A,115.6303,37.7316,衡水市,市监测站,细颗粒物(PM2.5),208,,212,158,202,10,,,,50,54,4,6,2.1,1.9
2023-12-31T0100,3188A,115.6683,37.7217,衡水市,市城管局,细颗粒物(PM2.5),200,,210,150,187,11,,,,48,50,3,5,2.1,1.9
2023-12-31T0100,3459A,115.5989,37.5491,衡水市,地表水厂,细颗粒物(PM2.5),193,,225,145,196,4,,,,62,44,1,2,2.2,1.9
2023-12-31T0100,2456A,112.5003,26.9167,衡阳市,原169医院,,,,173,,167,,,25,,,39,,12,,1.4
2023-12-31T0100,2457A,112.6194,26.9258,衡阳市,衡阳化工总厂,细颗粒物(PM2.5),274,270,241,224,216,23,,,,53,32,8,16,1.7,1.5
2023-12-31T0100,2458A,112.6211,26.8956,衡阳市,珠晖区环保局,细颗粒物(PM2.5),285,267,214,235,209,16,,,,57,42,13,13,1.8,1.5
2023-12-31T0100,2459A,112.6197,26.8733,衡阳市,市委党校,细颗粒物(PM2.5),287,272,220,237,206,25,,,,63,33,8,9,1.9,1.5
2023-12-31T0100,2460A,112.6006,26.8919,衡阳市,市监测站,细颗粒物(PM2.5),309,290,258,259,229,5,,,,81,43,11,15,2.9,1.9
2023-12-31T0100,2461A,112.5664,26.9056,衡阳市,真空机电公司,细颗粒物(PM2.5),303,266,220,253,217,10,,,,78,46,9,14,2.8,1.8
2023-12-31T0100,3399A,112.6703,26.882,衡阳市,师范学院,细颗粒物(PM2.5),273,250,232,223,205,42,,,,35,27,10,13,1.7,1.5
2023-12-31T0100,2608A,103.3772,23.3993,红河州,污水处理厂,细颗粒物(PM2.5),53,47,33,37,26,50,,,,13,13,11,20,0.4,0.4
2023-12-31T0100,2609A,103.3861,23.35,红河州,监测站,细颗粒物(PM2.5),63,,42,45,36,66,,,,10,15,6,7,0.6,0.6
2023-12-31T0100,3038A,103.3758,23.368,红河州,州图书馆,"颗粒物(PM10),细颗粒物(PM2.5)",52,53,42,36,32,63,,,,8,12,7,9,0.5,0.5
2023-12-31T0100,1090A,111.6507,40.7517,呼和浩特市,呼市一监,,25,19,131,7,99,78,,,,8,52,11,14,0.4,1.2
2023-12-31T0100,1091A,111.6572,40.8033,呼和浩特市,小召,,22,17,104,6,62,68,,,,18,53,6,10,0.1,0.7
2023-12-31T0100,1094A,111.7516,40.8369,呼和浩特市,如意水处理厂,,22,11,74,5,48,70,,,,19,44,8,11,0.2,0.7
2023-12-31T0100,1095A,111.7276,40.8062,呼和浩特市,二十九中,,21,18,91,6,50,67,,,,12,36,10,13,0.3,0.8
2023-12-31T0100,1096A,111.5512,40.7866,呼和浩特市,工大金川校区,细颗粒物(PM2.5),85,80,158,63,110,25,,,,42,65,7,9,0.6,1.1
2023-12-31T0100,1097A,111.717,40.7612,呼和浩特市,化肥厂生活区,,20,14,126,8,82,64,,,,24,56,10,13,0.3,1
2023-12-31T0100,3698A,111.5968,40.8178,呼和浩特市,红旗小学,,20,19,113,12,72,63,,,,23,56,8,12,0.4,0.9
2023-12-31T0100,3699A,111.6518,40.8389,呼和浩特市,海东办,,22,14,77,7,44,68,,,,28,50,7,11,0.1,0.4
2023-12-31T0100,2192A,119.7594,49.2261,呼伦贝尔市,区环保局,,40,,33,28,29,49,,,,20,32,6,7,0.5,0.5
2023-12-31T0100,3061A,119.7512,49.1577,呼伦贝尔市,国华电力东,,32,,26,22,20,58,,,,10,15,5,7,0.2,0.3
2023-12-31T0100,1250A,120.0751,30.8669,湖州市,城西水厂,细颗粒物(PM2.5),193,187,167,145,126,8,,,,73,87,9,7,1.5,1.1
2023-12-31T0100,2873A,120.0875,30.8955,湖州市,仁皇山新区,细颗粒物(PM2.5),207,184,175,157,146,30,,,,58,83,11,8,1.5,1.3
2023-12-31T0100,2907A,120.1844,30.8596,湖州市,吴兴区站,细颗粒物(PM2.5),208,196,164,158,117,3,,,,80,81,10,6,1.5,1.1
2023-12-31T0100,3562A,120.4148,30.8538,湖州市,南浔区站,细颗粒物(PM2.5),189,174,154,142,105,50,,,,42,70,10,7,1.4,1.2
2023-12-31T0100,1607A,120.9092,40.7136,葫芦岛市,龙港区,细颗粒物(PM2.5),77,63,146,56,145,55,,,,20,44,4,19,0.7,1.4
2023-12-31T0100,1608A,120.8392,40.7514,葫芦岛市,化工街,细颗粒物(PM2.5),67,61,159,48,127,60,,,,2,30,12,16,0.7,1.6
2023-12-31T0100,1609A,120.8341,40.7073,葫芦岛市,新区,细颗粒物(PM2.5),68,64,135,49,136,61,,,,26,53,11,16,0.4,1.4
2023-12-31T0100,1610A,120.8695,40.7677,葫芦岛市,东城区,细颗粒物(PM2.5),63,63,141,45,142,64,,,,10,40,13,21,1.0,2
2023-12-31T0100,2482A,109.5981,27.5721,怀化市,林科所,细颗粒物(PM2.5),92,75,87,68,84,38,,,,4,4,1,3,1.2,0.9
2023-12-31T0100,2483A,109.9453,27.5444,怀化市,河西地税局,细颗粒物(PM2.5),130,106,147,99,134,10,,,,17,28,1,3,1.0,1
2023-12-31T0100,2484A,109.9781,27.5342,怀化市,市四医院,细颗粒物(PM2.5),163,149,158,124,142,3,,,,50,40,5,7,1.3,1.1
2023-12-31T0100,2485A,109.9972,27.5578,怀化市,监测楼,细颗粒物(PM2.5),160,163,169,122,127,2,,,,26,31,4,6,1.5,1.3
2023-12-31T0100,2486A,110.0394,27.583,怀化市,市委党校,细颗粒物(PM2.5),156,136,162,119,140,1,,,,30,30,4,8,1.3,1.2
2023-12-31T0100,1210A,119.036,33.5981,淮安市,钵池山,细颗粒物(PM2.5),237,205,165,187,159,38,,,,31,36,8,8,1.1,1.1
2023-12-31T0100,1211A,119.007,33.575,淮安市,北京南路,细颗粒物(PM2.5),230,193,156,180,150,41,,,,27,40,5,6,1.3,1.4
2023-12-31T0100,1212A,118.989,33.6067,淮安市,市监测站,细颗粒物(PM2.5),243,217,173,193,156,37,,,,33,40,5,6,1.4,1.5
2023-12-31T0100,1213A,119.135,33.5039,淮安市,楚州区监测站,细颗粒物(PM2.5),209,208,160,159,144,44,,,,31,39,6,5,1.5,1.2
2023-12-31T0100,1214A,119.0186,33.6297,淮安市,淮阴区监测站,细颗粒物(PM2.5),235,239,196,185,154,32,,,,34,41,5,4,1.2,1.3
2023-12-31T0100,3426A,118.8755,33.2894,淮安市,新华书店,细颗粒物(PM2.5),247,223,176,197,160,46,,,,26,35,4,4,1.2,1.2
2023-12-31T0100,2282A,116.8004,33.975,淮北市,监测站,细颗粒物(PM2.5),242,212,205,192,159,36,,,,35,33,4,5,1.5,1.3
2023-12-31T0100,2283A,116.8091,33.9007,淮北市,烈山区政府,细颗粒物(PM2.5),261,244,173,211,143,28,,,,42,38,4,5,1.2,1
2023-12-31T0100,3330A,116.8873,33.9836,淮北市,杜集区检察院,细颗粒物(PM2.5),276,262,190,226,146,17,,,,43,38,6,6,1.7,1.4
2023-12-31T0100,4017A,116.7923,33.9535,淮北市,市博物馆,细颗粒物(PM2.5),258,239,203,208,159,34,,,,32,33,5,6,1.6,1.4
2023-12-31T0100,2277A,116.8305,32.7727,淮南市,潘集区政府,细颗粒物(PM2.5),228,218,185,178,151,45,,,,33,38,4,6,1.0,1.1
2023-12-31T0100,2278A,117.0067,32.6524,淮南市,师范学院,细颗粒物(PM2.5),196,217,207,147,162,52,,,,36,44,9,9,1.0,1.1
2023-12-31T0100,2279A,116.8569,32.5951,淮南市,谢家集区政府,细颗粒物(PM2.5),207,,140,157,107,56,,,,35,41,6,6,0.9,1.1
2023-12-31T0100,2280A,116.8281,32.633,淮南市,八公山区政府,细颗粒物(PM2.5),199,197,175,149,148,55,,,,33,27,7,6,0.9,1
2023-12-31T0100,2281A,116.6325,32.6201,淮南市,焦岗湖风景区管理处,细颗粒物(PM2.5),156,154,151,119,108,38,,,,27,25,2,2,0.2,0.1
2023-12-31T0100,2894A,117.0566,32.6531,淮南市,经济技术开发区消防队,细颗粒物(PM2.5),193,192,176,145,152,50,,,,19,34,4,5,0.8,0.9
2023-12-31T0100,3329A,117.0108,32.5893,淮南市,山南新区,细颗粒物(PM2.5),214,210,176,164,163,77,,,,27,38,5,5,1.0,1.2
2023-12-31T0100,2446A,114.9028,30.4742,黄冈市,职工中心,细颗粒物(PM2.5),208,204,207,158,172,56,,,,27,30,11,9,1.3,1.1
2023-12-31T0100,2929A,114.8858,30.4519,黄冈市,红卫路,细颗粒物(PM2.5),211,196,204,161,178,36,,,,40,43,7,7,1.6,1.4
2023-12-31T0100,3398A,114.9136,30.4445,黄冈市,市林业局,细颗粒物(PM2.5),192,180,190,144,172,43,,,,36,40,6,6,1.3,1.3
2023-12-31T0100,2672A,102.0199,35.5102,黄南藏族自治州,同仁县隆务镇,,37,37,37,9,15,48,,,,5,10,6,8,0.4,0.6
2023-12-31T0100,2295A,118.2903,29.6963,黄山市,延安路89号,颗粒物(PM10),64,78,83,40,49,32,,,,15,20,5,6,0.6,0.6
2023-12-31T0100,2296A,118.327,29.7178,黄山市,黄山东路89号,细颗粒物(PM2.5),87,69,92,64,61,12,,,,22,33,4,6,0.6,1.1
2023-12-31T0100,2297A,118.1371,30.2756,黄山市,黄山区政府5号楼,细颗粒物(PM2.5),65,76,78,47,52,24,,,,15,21,4,5,0.9,1
2023-12-31T0100,2423A,115.0601,30.2313,黄石市,沈家营,细颗粒物(PM2.5),114,171,188,86,134,52,,,,23,37,4,5,1.1,1.4
2023-12-31T0100,2424A,115.0817,30.2006,黄石市,陈家湾,颗粒物(PM10),276,403,211,104,162,45,,,,13,38,5,7,1.0,1.3
2023-12-31T0100,2426A,114.8988,30.2019,黄石市,铁山,细颗粒物(PM2.5),156,127,141,119,164,2,,,,42,32,9,10,1.7,1.6
2023-12-31T0100,2427A,115.0307,30.2092,黄石市,团城山,细颗粒物(PM2.5),169,182,176,128,159,69,,,,30,43,4,5,1.2,1.3
2023-12-31T0100,3149A,115.0235,30.1578,黄石市,笔架山北路,细颗粒物(PM2.5),186,164,177,140,159,36,,,,23,29,4,4,1.2,1.3
2023-12-31T0100,1392A,114.4183,23.0528,惠州市,河南岸金山湖子站,细颗粒物(PM2.5),74,85,71,54,42,14,,,,55,40,5,6,0.9,0.8
2023-12-31T0100,1393A,114.4053,23.0822,惠州市,下埔横江三路子站,细颗粒物(PM2.5),63,69,69,45,38,17,,,,48,35,10,12,0.7,0.6
2023-12-31T0100,1394A,114.4103,23.1142,惠州市,江北云山西路子站,颗粒物(PM10),60,69,67,40,35,6,,,,54,36,8,10,0.8,0.8
2023-12-31T0100,1395A,114.4645,22.7833,惠州市,惠阳区承修路船湖子站,细颗粒物(PM2.5),74,94,64,54,32,14,,,,53,38,12,7,0.9,0.6
2023-12-31T0100,1396A,114.5317,22.7422,惠州市,大亚湾管委会子站,颗粒物(PM10),60,70,65,35,29,3,,,,66,48,5,6,0.8,0.8
2023-12-31T0100,3314A,114.4338,22.8134,惠州市,惠阳秋长,细颗粒物(PM2.5),83,100,67,61,34,39,,,,41,33,8,8,0.9,0.9
2023-12-31T0100,3452A,114.6517,22.775,惠州市,大亚湾霞涌,颗粒物(PM10),58,65,50,23,31,22,,,,43,32,7,7,0.4,0.5
2023-12-31T0100,2240A,130.9762,45.3001,鸡西市,环保局,细颗粒物(PM2.5),53,49,33,37,29,47,,,,14,30,7,9,0.7,1
2023-12-31T0100,2243A,130.9429,45.3039,鸡西市,第一中学,细颗粒物(PM2.5),58,59,83,41,62,46,,,,19,32,13,15,0.4,0.6
2023-12-31T0100,3707A,131.0207,45.3073,鸡西市,欧美日汽修厂,细颗粒物(PM2.5),74,58,100,54,80,49,,,,15,30,6,11,1.3,1.1
2023-12-31T0100,3709A,130.9967,45.3106,鸡西市,市政设施管理处,细颗粒物(PM2.5),65,51,82,47,75,52,,,,16,30,4,6,0.5,0.9
2023-12-31T0100,2367A,114.9754,27.0803,吉安市,红声器材厂,细颗粒物(PM2.5),143,157,125,109,87,29,,,,72,56,13,17,1.4,1.3
2023-12-31T0100,2368A,114.9658,27.0999,吉安市,市森林工业局,细颗粒物(PM2.5),148,142,130,113,99,67,,,,40,54,18,21,0.9,0.9
2023-12-31T0100,2369A,114.99,27.1312,吉安市,市环境监测站,细颗粒物(PM2.5),135,144,131,103,91,69,,,,47,55,14,17,1.6,1.4
2023-12-31T0100,2370A,115.0093,27.0968,吉安市,青原区法院,细颗粒物(PM2.5),144,141,122,110,89,21,,,,70,57,17,19,1.8,1.5
2023-12-31T0100,1772A,126.54,43.8622,吉林市,哈达湾,细颗粒物(PM2.5),150,134,93,115,77,26,,,,51,40,20,12,1.4,1.3
2023-12-31T0100,1773A,126.5844,43.8358,吉林市,东局子,细颗粒物(PM2.5),224,198,95,174,77,8,,,,63,36,16,9,1.8,1.2
2023-12-31T0100,1774A,126.5052,43.8245,吉林市,电力学院,细颗粒物(PM2.5),206,165,99,156,85,8,,,,69,51,23,20,1.6,1.5
2023-12-31T0100,1775A,126.6133,43.8972,吉林市,江北,细颗粒物(PM2.5),175,156,106,132,86,17,,,,63,48,18,14,1.7,1.3
2023-12-31T0100,1776A,126.555,43.8306,吉林市,江南公园,细颗粒物(PM2.5),199,162,90,149,82,14,,,,56,35,20,12,1.8,1.4
2023-12-31T0100,1778A,126.7061,43.7133,吉林市,丰满,,,,,,,,,,,,,,,,
2023-12-31T0100,2868A,126.4739,43.953,吉林市,九站,细颗粒物(PM2.5),165,136,121,125,104,13,,,,60,56,16,23,1.4,1.4
2023-12-31T0100,1299A,116.9862,36.6114,济南市,科干所,细颗粒物(PM2.5),236,251,235,186,187,14,,,,63,62,8,10,1.6,1.7
2023-12-31T0100,1300A,116.9376,36.665,济南市,农科所,细颗粒物(PM2.5),228,225,229,178,175,16,,,,50,59,5,8,1.5,1.8
2023-12-31T0100,1301A,117.1265,36.6734,济南市,开发区,细颗粒物(PM2.5),245,230,212,195,184,3,,,,76,70,7,8,1.7,1.8
2023-12-31T0100,1303A,117.0624,36.6868,济南市,省种子仓库,细颗粒物(PM2.5),245,249,240,195,193,9,,,,59,60,4,7,1.7,1.9
2023-12-31T0100,1304A,116.9489,36.6447,济南市,机床二厂,细颗粒物(PM2.5),245,227,229,195,201,15,,,,59,68,5,9,1.6,1.9
2023-12-31T0100,1305A,117.0495,36.663,济南市,市监测站,细颗粒物(PM2.5),248,254,239,198,193,10,,,,67,66,12,15,1.4,1.6
2023-12-31T0100,1306A,116.7675,36.5484,济南市,长清党校,细颗粒物(PM2.5),238,242,222,188,180,25,,,,62,52,5,7,1.8,1.6
2023-12-31T0100,1616A,117.6795,36.229,济南市,技术学院,细颗粒物(PM2.5),199,173,191,149,167,25,,,,43,48,7,9,1.9,2
2023-12-31T0100,1961A,117.532,36.6868,济南市,东山小学,细颗粒物(PM2.5),211,220,204,161,109,15,,,,62,63,5,7,1.3,1.5
2023-12-31T0100,3059A,117.7161,36.2049,济南市,泰兴公司,细颗粒物(PM2.5),195,188,202,146,165,10,,,,63,62,4,6,1.5,1.6
2023-12-31T0100,3064A,117.6867,36.2171,济南市,莱芜战役纪念馆,细颗粒物(PM2.5),185,183,196,139,157,23,,,,55,58,8,10,1.3,1.6
2023-12-31T0100,3494A,117.1673,36.9782,济南市,济阳区政府,细颗粒物(PM2.5),228,227,213,178,161,19,,,,57,66,3,7,1.6,1.9
2023-12-31T0100,3495A,117.1171,36.63,济南市,锦屏中学,细颗粒物(PM2.5),178,183,204,134,173,13,,,,62,81,9,10,1.4,1.7
2023-12-31T0100,3682A,116.9814,36.6819,济南市,济南四建,细颗粒物(PM2.5),243,210,211,193,190,15,,,,60,71,8,12,1.6,1.9
2023-12-31T0100,1653A,116.6251,35.4302,济宁市,火炬城,细颗粒物(PM2.5),247,275,182,197,160,14,,,,49,42,3,3,1.9,1.5
2023-12-31T0100,1655A,116.5491,35.4042,济宁市,电化厂,细颗粒物(PM2.5),255,269,204,205,154,18,,,,47,41,3,3,1.8,1.4
2023-12-31T0100,3500A,116.5814,35.3707,济宁市,北湖一中,细颗粒物(PM2.5),245,255,184,195,155,18,,,,40,37,2,3,1.8,1.4
2023-12-31T0100,3501A,116.8249,35.5593,济宁市,服务中心,细颗粒物(PM2.5),233,293,214,183,150,7,,,,44,35,2,2,1.9,1.4
2023-12-31T0100,3678A,116.5907,35.4054,济宁市,市第七中学,细颗粒物(PM2.5),245,257,182,195,166,14,,,,48,43,3,3,1.8,1.4
2023-12-31T0100,2255A,130.2751,46.8028,佳木斯市,佳纺,,,,57,,48,,,37,,,31,,5,,0.8
2023-12-31T0100,2256A,130.3995,46.8307,佳木斯市,发电厂,,25,23,73,17,55,38,,,,24,24,10,11,0.5,0.6
2023-12-31T0100,2257A,130.3258,46.7975,佳木斯市,环保局,,17,17,46,6,34,47,,,,13,25,4,6,0.4,0.5
2023-12-31T0100,2258A,130.3648,46.8032,佳木斯市,十一中,,25,25,52,16,41,31,,,,25,26,3,6,0.4,0.6
2023-12-31T0100,2259A,130.3794,46.7588,佳木斯市,四丰,,30,30,60,17,34,31,,,,23,29,1,1,0.6,0.9
2023-12-31T0100,1252A,120.7436,30.778,嘉兴市,清河小学,细颗粒物(PM2.5),170,201,135,129,89,6,,,,76,61,7,6,1.6,1.4
2023-12-31T0100,1253A,120.726,30.7478,嘉兴市,嘉兴学院,细颗粒物(PM2.5),185,190,154,139,107,20,,,,66,67,8,8,1.3,1
2023-12-31T0100,2872A,120.7846,30.7525,嘉兴市,南湖区残联,细颗粒物(PM2.5),201,197,148,151,100,10,,,,79,67,8,6,1.4,1
2023-12-31T0100,3407A,120.6916,30.7739,嘉兴市,秀洲住建,细颗粒物(PM2.5),125,112,84,95,88,20,,,,63,59,10,8,1.3,1.2
2023-12-31T0100,1945A,98.2908,39.7711,嘉峪关市,气象局,颗粒物(PM10),79,107,48,27,15,26,,,,56,39,23,6,0.6,0.5
2023-12-31T0100,2884A,98.2672,39.7978,嘉峪关市,酒钢宾馆,颗粒物(PM10),84,117,58,29,17,21,,,,50,27,35,14,0.8,0.5
2023-12-31T0100,3248A,98.2643,39.7724,嘉峪关市,雄关区,颗粒物(PM10),85,120,47,27,16,20,,,,48,37,23,7,0.6,0.5
2023-12-31T0100,1383A,113.1064,22.6058,江门市,北街,,48,44,59,33,44,2,,,,71,63,7,8,0.7,0.8
2023-12-31T0100,1384A,113.0731,22.5835,江门市,西区,,50,50,65,30,43,2,,,,63,55,7,8,0.7,0.8
2023-12-31T0100,1385A,113.0219,22.5311,江门市,圭峰西,,26,18,57,18,43,23,,,,25,41,6,7,0.7,0.9
2023-12-31T0100,1386A,113.0828,22.5947,江门市,东湖,细颗粒物(PM2.5),68,,67,49,59,3,,,,57,52,6,7,0.6,0.6
2023-12-31T0100,3311A,113.1075,22.5647,江门市,江海富民,细颗粒物(PM2.5),82,,99,60,60,4,,,,79,63,8,9,0.9,0.9
2023-12-31T0100,3449A,113.05,22.4667,江门市,新会银湖,细颗粒物(PM2.5),60,43,62,43,53,4,,,,43,51,6,8,0.9,0.8
2023-12-31T0100,1828A,113.227,35.2125,焦作市,市环保局,细颗粒物(PM2.5),113,115,120,85,73,2,,,,60,29,5,12,1.8,0.9
2023-12-31T0100,1830A,113.1992,35.2590,焦作市,影视城,,,,,,,,,,,,,,,,
2023-12-31T0100,3169A,113.2725,35.2067,焦作市,太极体育中心,细颗粒物(PM2.5),122,144,123,92,80,3,,,,61,30,7,10,1.6,0.8
2023-12-31T0100,3335A,113.3137,35.2641,焦作市,马村街道办,细颗粒物(PM2.5),90,111,142,67,93,4,,,,66,39,6,11,1.7,0.9
2023-12-31T0100,3336A,113.2465,35.2373,焦作市,焦作技师学院,细颗粒物(PM2.5),117,113,123,88,82,2,,,,62,34,8,14,1.9,1.1
2023-12-31T0100,3477A,113.1656,35.2539,焦作市,中站许衡医院,细颗粒物(PM2.5),79,86,100,58,59,16,,,,61,35,10,12,1.1,0.5
2023-12-31T0100,3981A,113.2449,35.1803,焦作市,原李万街道办,细颗粒物(PM2.5),140,177,116,107,77,5,,,,51,26,6,9,1.5,0.8
2023-12-31T0100,1708A,116.3701,23.5345,揭阳市,新兴,细颗粒物(PM2.5),85,70,90,63,68,42,,,,55,51,15,16,1.1,1.1
2023-12-31T0100,1709A,116.3264,23.5443,揭阳市,西马,细颗粒物(PM2.5),69,62,88,50,52,57,,,,35,40,17,12,1.1,1
2023-12-31T0100,1710A,116.3611,23.5626,揭阳市,东兴,细颗粒物(PM2.5),89,102,100,66,59,28,,,,60,52,16,16,1.1,1.2
2023-12-31T0100,1711A,116.4151,23.5294,揭阳市,渔湖,颗粒物(PM10),62,74,86,34,46,39,,,,46,46,9,15,1.0,0.9
2023-12-31T0100,3320A,116.403,23.5699,揭阳市,曲溪,颗粒物(PM10),62,74,80,38,43,38,,,,48,39,7,9,0.9,0.9
2023-12-31T0100,1944A,102.1692,38.5167,金昌市,天庆家园,,34,34,42,19,15,44,,,,17,24,10,20,0.6,0.5
2023-12-31T0100,3170A,102.1864,38.5253,金昌市,市委党校,颗粒物(PM10),52,54,69,23,25,48,,,,18,26,22,58,0.7,1
2023-12-31T0100,4022A,102.1647,38.5371,金昌市,金川区人防中心,颗粒物(PM10),62,74,60,15,19,60,,,,9,21,5,53,0.6,0.6
2023-12-31T0100,1262A,119.647,29.077,金华市,十五中,细颗粒物(PM2.5),112,118,156,84,115,29,,,,64,65,4,5,1.1,1.2
2023-12-31T0100,1263A,119.686,29.1029,金华市,监测站,细颗粒物(PM2.5),95,126,174,71,112,54,,,,45,63,7,7,0.9,1
2023-12-31T0100,3659A,119.656,29.1131,金华市,气象局,细颗粒物(PM2.5),93,121,180,69,120,59,,,,36,63,6,7,0.9,1.1
2023-12-31T0100,1767A,121.1115,41.0879,锦州市,南山,,45,40,145,31,150,64,,,,15,42,10,22,0.6,1.4
2023-12-31T0100,1768A,121.0533,40.8434,锦州市,开发区,,,70,170,37,145,54,,,,,50,15,23,0.6,1.5
2023-12-31T0100,1769A,121.1836,41.1119,锦州市,百股街道,颗粒物(PM10),62,73,124,34,128,61,,,,13,38,11,30,0.7,1.4
2023-12-31T0100,1770A,121.1178,41.1222,锦州市,天安街道,,49,49,147,14,148,60,,,,11,36,9,20,0.8,1.6
2023-12-31T0100,1771A,121.1303,41.1386,锦州市,北湖公园,,41,41,121,22,150,62,,,,15,38,12,19,0.6,1.4
2023-12-31T0100,2160A,112.85,35.5051,晋城市,自来水公司,颗粒物(PM10),55,59,108,12,67,72,,,,19,28,3,4,0.3,1
2023-12-31T0100,2161A,112.8318,35.4936,晋城市,白云商贸,颗粒物(PM10),57,64,108,7,57,68,,,,20,27,5,5,0.3,0.9
2023-12-31T0100,2162A,112.8508,35.4887,晋城市,市环保局,颗粒物(PM10),58,65,114,14,63,68,,,,16,26,5,5,0.3,1
2023-12-31T0100,2163A,112.8676,35.4897,晋城市,技术学院,颗粒物(PM10),52,54,107,9,60,68,,,,23,35,6,8,0.3,0.9
2023-12-31T0100,2165A,112.8453,35.546,晋城市,白马寺,,,,,,,,,,,,,,,,
2023-12-31T0100,3620A,112.8271,35.4828,晋城市,泽州一中,颗粒物(PM10),54,58,107,7,53,70,,,,19,26,5,6,0.5,1.1
2023-12-31T0100,2171A,112.7532,37.6945,晋中市,锦纶小区,颗粒物(PM10),57,63,234,31,167,50,,,,36,59,7,15,0.5,1.7
2023-12-31T0100,2173A,112.7249,37.7067,晋中市,南都小区,颗粒物(PM10),62,73,244,28,161,42,,,,37,55,8,15,0.5,1.8
2023-12-31T0100,2174A,112.6991,37.6982,晋中市,榆次区政府,,46,46,228,29,154,47,,,,41,62,8,17,0.4,2
2023-12-31T0100,2865A,112.7195,37.6828,晋中市,榆次三中,颗粒物(PM10),54,58,253,17,177,54,,,,34,60,8,14,0.3,1.7
2023-12-31T0100,2439A,112.2014,31.0481,荆门市,竹园小学,细颗粒物(PM2.5),129,158,213,98,181,3,,,,43,34,8,7,1.4,1.3
2023-12-31T0100,2440A,112.1969,30.9891,荆门市,掇刀,细颗粒物(PM2.5),163,196,201,124,168,6,,,,48,33,15,13,1.3,1.2
2023-12-31T0100,2441A,112.2213,31.0386,荆门市,石化一小,细颗粒物(PM2.5),160,176,220,122,180,5,,,,47,38,12,12,1.1,0.9
2023-12-31T0100,3012A,112.1849,31.0362,荆门市,西山林语,细颗粒物(PM2.5),112,124,190,84,167,4,,,,46,32,10,10,1.0,0.9
2023-12-31T0100,3547A,112.1632,31.0138,荆门市,龙泉中学南校,细颗粒物(PM2.5),99,132,202,74,164,2,,,,44,28,8,8,1.6,1.5
2023-12-31T0100,1844A,112.2494,30.3197,荆州市,市图书馆,细颗粒物(PM2.5),109,121,140,82,159,35,,,,24,28,5,5,1.2,1.2
2023-12-31T0100,1845A,112.2008,30.3544,荆州市,市委党校,细颗粒物(PM2.5),118,144,163,89,153,28,,,,26,27,5,6,1.2,1.2
2023-12-31T0100,3194A,112.2747,30.3122,荆州市,管委会,细颗粒物(PM2.5),138,116,146,105,155,39,,,,20,26,6,6,1.1,1.1
2023-12-31T0100,3548A,112.1655,30.3364,荆州市,学苑路,颗粒物(PM10),76,101,152,48,147,33,,,,23,24,12,8,1.0,1
2023-12-31T0100,2342A,117.3102,29.3867,景德镇市,王港中学,,,,,,,,,,,,,,,,
2023-12-31T0100,2343A,117.2117,29.2933,景德镇市,老干部活动中心,细颗粒物(PM2.5),128,138,118,97,92,3,,,,47,48,8,15,1.3,1
2023-12-31T0100,2344A,117.1894,29.2789,景德镇市,兽医站,细颗粒物(PM2.5),134,164,123,102,81,6,,,,54,46,6,15,1.5,1.3
2023-12-31T0100,2345A,117.1547,29.2617,景德镇市,台达陶瓷,细颗粒物(PM2.5),137,140,135,104,88,2,,,,67,61,4,22,1.5,1.4
2023-12-31T0100,2346A,117.2461,29.2956,景德镇市,陶研所,细颗粒物(PM2.5),109,107,105,82,74,5,,,,44,45,6,12,1.3,1.3
2023-12-31T0100,1803A,115.9872,29.6815,九江市,十里,细颗粒物(PM2.5),183,162,222,138,182,69,,,,42,53,8,10,1.2,1.7
2023-12-31T0100,1804A,115.9584,29.7046,九江市,茅山头,细颗粒物(PM2.5),182,169,213,137,178,26,,,,69,65,8,8,1.4,1.7
2023-12-31T0100,1805A,115.9877,29.7295,九江市,西园,细颗粒物(PM2.5),195,163,195,146,172,70,,,,39,55,12,12,1.2,1.6
2023-12-31T0100,1806A,116.0172,29.6547,九江市,五七二七厂,细颗粒物(PM2.5),147,148,231,112,185,100,,,,20,41,10,11,1.0,1.5
2023-12-31T0100,1808A,115.9114,29.6038,九江市,综合工业园,细颗粒物(PM2.5),204,154,216,154,218,33,,,,109,67,11,14,1.7,2
2023-12-31T0100,1809A,116.0721,29.7535,九江市,石化总厂,细颗粒物(PM2.5),190,185,229,143,181,65,,,,46,58,16,14,1.3,1.7
2023-12-31T0100,1810A,115.9773,29.5698,九江市,庐山气象台,细颗粒物(PM2.5),72,72,54,52,51,101,,,,10,10,7,7,0.4,0.6
2023-12-31T0100,3190A,116.0254,29.6994,九江市,外国语学校,细颗粒物(PM2.5),175,154,203,132,177,74,,,,36,57,4,10,1.2,1.5
2023-12-31T0100,2658A,98.5061,39.7443,酒泉市,仓门街子站,颗粒物(PM10),73,95,76,44,30,9,,,,55,31,3,6,0.8,0.7
2023-12-31T0100,2659A,98.4989,39.7256,酒泉市,油田生活基地,细颗粒物(PM2.5),65,75,83,47,33,8,,,,44,37,3,5,0.6,0.6
2023-12-31T0100,2698A,76.0072,39.4467,喀什地区,巡警大队,颗粒物(PM10),283,408,339,204,117,16,,,,114,73,12,9,6.6,3.3
2023-12-31T0100,2699A,75.9755,39.4694,喀什地区,吾办,颗粒物(PM10),289,412,338,205,140,11,,,,119,84,5,7,4.5,3.3
2023-12-31T0100,4027A,75.9483,39.4689,喀什地区,老干局,颗粒物(PM10),432,532,347,253,112,27,,,,119,64,8,8,8.8,3.6
2023-12-31T0100,1824A,114.3389,34.7781,开封市,肿瘤医院,细颗粒物(PM2.5),153,129,186,117,157,10,,,,36,42,1,3,1.5,1.3
2023-12-31T0100,1826A,114.2885,34.7965,开封市,世纪星幼儿园,细颗粒物(PM2.5),173,,180,131,177,10,,,,45,48,2,3,1.5,1.4
2023-12-31T0100,3147A,114.3438,34.8106,开封市,龙亭公园,细颗粒物(PM2.5),128,108,187,97,171,14,,,,45,49,2,3,1.2,1.1
2023-12-31T0100,3210A,114.3644,34.7964,开封市,汴京公园,细颗粒物(PM2.5),166,134,211,126,181,11,,,,42,45,1,3,1.6,1.4
2023-12-31T0100,3473A,114.2485,34.8306,开封市,技师学院,细颗粒物(PM2.5),114,122,182,86,172,13,,,,40,42,3,2,1.7,1.3
2023-12-31T0100,3592A,114.4644,34.7556,开封市,祥符区生态环境局,细颗粒物(PM2.5),140,152,211,107,163,18,,,,37,45,2,4,1.3,1.1
2023-12-31T0100,1951A,84.895,45.6094,克拉玛依市,长征新村,细颗粒物(PM2.5),74,66,73,54,58,49,,,,28,33,9,10,0.9,0.9
2023-12-31T0100,1952A,84.8988,45.5893,克拉玛依市,南林小区,细颗粒物(PM2.5),84,79,80,62,56,50,,,,22,24,5,3,0.7,0.7
2023-12-31T0100,1954A,84.905,44.3396,克拉玛依市,独山子区,,19,15,18,13,12,35,,,,27,15,5,6,0.6,0.5
2023-12-31T0100,1955A,85.6979,46.098,克拉玛依市,乌尔禾区商贸楼,,21,19,39,8,39,66,,,,12,21,4,7,0.5,0.8
2023-12-31T0100,3612A,85.1045,45.6899,克拉玛依市,白碱滩区新站,细颗粒物(PM2.5),73,68,74,53,52,66,,,,16,23,9,9,0.7,0.7
2023-12-31T0100,2697A,76.1454,39.7142,克孜勒苏柯尔克孜自治州,市人民政府,颗粒物(PM10),150,249,185,107,75,58,,,,20,19,5,5,1.6,1.1
2023-12-31T0100,3665A,76.1658,39.7157,克孜勒苏柯尔克孜自治州,克州文化中心,颗粒物(PM10),146,242,216,93,77,57,,,,35,28,9,9,1.4,1.2
2023-12-31T0100,1450A,102.8204,24.8886,昆明市,呈贡新区,细颗粒物(PM2.5),57,45,39,40,23,6,,,,51,31,7,6,0.6,0.4
2023-12-31T0100,1451A,102.6251,24.9608,昆明市,西山森林公园,,24,14,15,0,10,74,,,,5,7,6,7,0.5,0.5
2023-12-31T0100,1452A,102.7252,25.0902,昆明市,龙泉镇,"颗粒物(PM10),细颗粒物(PM2.5)",55,59,34,39,24,4,,,,41,30,8,9,0.8,0.6
2023-12-31T0100,1453A,102.7266,25.0375,昆明市,东风东路,"颗粒物(PM10),细颗粒物(PM2.5)",59,68,39,42,25,0,,,,46,31,8,9,1.2,0.7
2023-12-31T0100,1454A,102.6742,25.0669,昆明市,金鼎山,细颗粒物(PM2.5),132,156,57,100,38,8,,,,51,34,108,79,1.7,0.8
2023-12-31T0100,1455A,102.6644,25.0401,昆明市,碧鸡广场,颗粒物(PM10),56,61,40,38,25,5,,,,52,34,10,17,0.8,0.7
2023-12-31T0100,3179A,102.7494,25.0119,昆明市,官渡区博物馆,颗粒物(PM10),74,98,48,51,31,3,,,,51,34,10,10,1.3,0.8
2023-12-31T0100,3375A,102.8017,24.8336,昆明市,青年创业园,,33,33,31,16,17,9,,,,42,28,12,12,0.7,0.7
2023-12-31T0100,3550A,102.7997,24.9786,昆明市,昆明学院,颗粒物(PM10),70,90,49,48,28,4,,,,46,29,11,10,0.9,0.6
2023-12-31T0100,3551A,102.5967,24.6736,昆明市,晋宁区生态环境分局,颗粒物(PM10),55,60,34,24,22,21,,,,32,20,6,6,0.5,0.5
2023-12-31T0100,3552A,102.6678,24.9856,昆明市,云天化总部,,40,40,34,23,22,6,,,,56,31,10,16,0.7,0.7
2023-12-31T0100,1456A,91.1319,29.6514,拉萨市,八廓街,细颗粒物(PM2.5),52,51,23,36,14,20,,,,70,32,9,13,1.1,0.5
2023-12-31T0100,1457A,91.1221,29.6747,拉萨市,市环保局,细颗粒物(PM2.5),100,90,46,75,18,8,,,,56,31,11,14,2.5,1.2
2023-12-31T0100,1458A,91.0874,29.6475,拉萨市,区监测站,,41,41,20,25,12,14,,,,69,31,8,12,1.4,0.6
2023-12-31T0100,1459A,91.1774,29.6541,拉萨市,西藏大学,,43,43,24,30,13,40,,,,32,20,7,12,1.2,0.8
2023-12-31T0100,1460A,90.9798,29.6588,拉萨市,区辐射站,,41,41,35,20,23,34,,,,39,37,7,9,0.9,1
2023-12-31T0100,1461A,91.0834,29.6292,拉萨市,拉萨火车站,,35,32,26,20,13,11,,,,69,29,9,7,1.5,0.8
2023-12-31T0100,2520A,109.2203,23.7256,来宾市,来宾技工学校,细颗粒物(PM2.5),90,115,96,67,64,14,,,,43,32,6,11,1.2,1
2023-12-31T0100,3535A,109.1781,23.7297,来宾市,兴宾区政府,细颗粒物(PM2.5),92,119,93,68,65,44,,,,31,23,9,10,1.0,0.9
2023-12-31T0100,4002A,109.2416,23.7461,来宾市,中南小学,细颗粒物(PM2.5),108,143,116,81,72,13,,,,58,45,10,13,1.3,1.2
2023-12-31T0100,1476A,103.631,36.1031,兰州市,兰炼宾馆,颗粒物(PM10),81,112,135,58,79,6,,,,80,83,20,37,1.7,2
2023-12-31T0100,1477A,104.1373,35.9454,兰州市,榆中兰大校区,,,,,,,,,,,,,,,,
2023-12-31T0100,1478A,103.8412,36.0726,兰州市,生物制品所,细颗粒物(PM2.5),75,90,112,55,64,8,,,,70,75,21,21,1.0,1.5
2023-12-31T0100,1479A,103.831,36.0464,兰州市,铁路设计院,细颗粒物(PM2.5),89,106,128,66,80,5,,,,79,89,20,29,1.6,2.5
2023-12-31T0100,3186A,103.7158,36.1058,兰州市,教育港,细颗粒物(PM2.5),73,71,115,53,61,5,,,,66,82,16,26,1.5,1.9
2023-12-31T0100,3241A,103.7439,36.0842,兰州市,百合公园,颗粒物(PM10),71,92,121,51,64,10,,,,61,83,23,21,1.3,1.9
2023-12-31T0100,3242A,103.9611,35.998,兰州市,和平,颗粒物(PM10),72,94,128,50,74,14,,,,61,72,13,27,1.2,2.1
2023-12-31T0100,3245A,103.6633,36.533,兰州新区,新区管委会,细颗粒物(PM2.5),63,73,93,45,48,2,,,,48,36,14,30,1.0,1
2023-12-31T0100,3246A,103.6975,36.4789,兰州新区,舟曲中学,颗粒物(PM10),103,155,117,76,49,7,,,,58,48,32,39,1.2,1
2023-12-31T0100,1067A,116.6708,39.5111,廊坊市,药材公司,,45,45,209,16,164,56,,,,30,98,2,2,0.4,1.6
2023-12-31T0100,1068A,116.7214,39.5589,廊坊市,开发区,,47,47,202,10,181,38,,,,46,100,2,3,0.3,1.5
2023-12-31T0100,1070A,116.7244,39.5269,廊坊市,北华航天学院,,50,50,204,10,172,47,,,,30,86,2,3,0.3,1.5
2023-12-31T0100,2919A,116.7022,39.5453,廊坊市,河北工业大学,颗粒物(PM10),52,53,214,13,172,47,,,,23,86,2,3,0.3,1.5
2023-12-31T0100,2535A,103.7723,29.5462,乐山市,花湖湾,细颗粒物(PM2.5),242,302,222,192,158,50,,,,18,28,3,3,0.8,0.9
2023-12-31T0100,2536A,103.7627,29.5844,乐山市,牛耳桥,细颗粒物(PM2.5),231,207,176,181,151,39,,,,29,42,3,3,1.2,1.5
2023-12-31T0100,2537A,103.7508,29.6006,乐山市,市第三水厂,细颗粒物(PM2.5),208,214,167,158,125,46,,,,29,41,3,3,1.1,1.4
2023-12-31T0100,2538A,103.7571,29.5664,乐山市,市监测站,细颗粒物(PM2.5),203,176,165,153,139,37,,,,29,35,5,6,1.0,1.2
2023-12-31T0100,3361A,103.7311,29.5628,乐山市,理工大学,细颗粒物(PM2.5),206,187,176,156,142,43,,,,26,43,6,7,1.1,1.5
2023-12-31T0100,2598A,100.2143,26.8576,丽江市,西南郊,,,,,,,,,,,,,,,,
2023-12-31T0100,2599A,100.2497,26.8802,丽江市,丽江古城,,41,41,38,20,18,37,,,,26,20,8,8,0.7,0.6
2023-12-31T0100,2600A,100.2203,26.8906,丽江市,市中心,,18,10,22,5,7,56,,,,12,17,6,6,0.7,0.7
2023-12-31T0100,1267A,119.914,28.4514,丽水市,监测站大楼,细颗粒物(PM2.5),82,82,71,60,51,4,,,,34,38,5,6,1.1,1.4
2023-12-31T0100,1268A,119.93,28.4586,丽水市,莲都小学,颗粒物(PM10),86,122,95,59,45,6,,,,41,41,4,4,1.1,0.9
2023-12-31T0100,1269A,119.879,28.4231,丽水市,余庄前,细颗粒物(PM2.5),55,55,57,39,43,3,,,,22,27,4,5,0.6,0.6
2023-12-31T0100,1173A,119.176,34.5885,连云港市,市环境监测站,细颗粒物(PM2.5),245,215,180,195,167,23,,,,46,39,9,9,1.4,1.1
2023-12-31T0100,3000A,119.3581,34.6972,连云港市,德源药业,细颗粒物(PM2.5),245,224,181,195,158,7,,,,58,40,6,5,1.5,1.1
2023-12-31T0100,3007A,119.178,34.844,连云港市,新城一中,细颗粒物(PM2.5),254,,165,204,160,16,,,,50,39,8,8,1.6,1.1
2023-12-31T0100,3008A,119.3608,34.7519,连云港市,胡沟管理处,细颗粒物(PM2.5),235,205,153,185,148,19,,,,48,42,8,6,1.7,1.2
2023-12-31T0100,3009A,119.1478,34.5911,连云港市,矿山设计院,细颗粒物(PM2.5),230,224,188,180,155,13,,,,48,40,4,5,1.5,1.3
2023-12-31T0100,3434A,119.2413,34.6539,连云港市,工贸学校,细颗粒物(PM2.5),254,246,207,204,172,22,,,,44,36,8,8,1.5,1.3
2023-12-31T0100,3664A,119.4172,34.7341,连云港市,连云街道,细颗粒物(PM2.5),254,236,178,204,153,12,,,,62,44,7,6,1.8,1.3
2023-12-31T0100,2571A,102.3431,27.8099,凉山彝族自治州,青龙寺,,37,37,33,16,14,55,,,,8,10,5,8,0.7,0.8
2023-12-31T0100,2572A,102.2721,27.8415,凉山彝族自治州,邛海宾馆,,50,49,53,35,35,42,,,,21,22,14,15,0.8,0.9
2023-12-31T0100,2573A,102.2625,27.898,凉山彝族自治州,西昌市政府,,30,28,43,21,31,64,,,,7,15,11,15,0.5,0.7
2023-12-31T0100,2574A,102.2685,27.8851,凉山彝族自治州,凉山州政府,,40,37,47,28,35,49,,,,16,18,8,12,0.6,0.8
2023-12-31T0100,2575A,102.237,27.8914,凉山彝族自治州,长安,,30,29,48,21,30,59,,,,12,24,12,18,0.3,0.6
2023-12-31T0100,2212A,123.2,41.1953,辽阳市,宏伟区,细颗粒物(PM2.5),140,134,63,107,61,41,,,,25,24,11,12,0.9,0.8
2023-12-31T0100,2213A,123.1683,41.2495,辽阳市,新华园,细颗粒物(PM2.5),145,,68,111,72,42,,,,28,32,4,6,1.1,1.1
2023-12-31T0100,2214A,123.2354,41.2639,辽阳市,滨河路,细颗粒物(PM2.5),200,,62,150,92,39,,,,27,30,9,9,1.0,1.1
2023-12-31T0100,2215A,123.149,41.2991,辽阳市,铁西工业园,细颗粒物(PM2.5),144,120,75,110,94,46,,,,20,29,12,14,0.9,1.1
2023-12-31T0100,2227A,125.1358,42.8845,辽源市,环保局,细颗粒物(PM2.5),176,148,73,133,58,25,,,,46,44,22,16,1.7,1.4
2023-12-31T0100,3239A,125.0764,42.9078,辽源市,银鹰制药,细颗粒物(PM2.5),192,175,81,144,66,36,,,,32,36,7,15,1.5,1.2
2023-12-31T0100,1625A,115.9848,36.4372,聊城市,区政府,细颗粒物(PM2.5),240,282,247,190,187,14,,,,63,53,2,3,2.0,1.7
2023-12-31T0100,2878A,116.0072,36.4343,聊城市,聊大东校,细颗粒物(PM2.5),255,272,234,205,193,15,,,,46,32,3,3,1.5,1.2
2023-12-31T0100,3200A,115.9819,36.4978,聊城市,监控中心,细颗粒物(PM2.5),221,224,237,171,199,16,,,,59,46,3,3,1.7,1.5
2023-12-31T0100,3513A,116.0445,36.4361,聊城市,九州社区,细颗粒物(PM2.5),229,261,224,179,177,12,,,,66,39,2,2,2.1,1.6
2023-12-31T0100,4018A,116.0567,36.4608,聊城市,星美广场,细颗粒物(PM2.5),235,262,226,185,181,14,,,,57,33,3,3,1.7,1.3
2023-12-31T0100,2632A,94.3681,29.6376,林芝市,林芝监测站,,40,40,13,16,10,26,,,,33,15,7,7,0.8,0.4
2023-12-31T0100,2633A,94.3616,29.6616,林芝市,林芝人民医院,,18,11,13,4,8,56,,,,10,12,8,8,0.4,0.4
2023-12-31T0100,2603A,100.0781,23.8982,临沧市,市环保局,,42,36,25,29,20,24,,,,14,14,7,8,0.5,0.5
2023-12-31T0100,2604A,100.0894,23.8822,临沧市,市气象局,,50,37,33,35,26,15,,,,20,17,6,7,0.5,0.4
2023-12-31T0100,1733A,111.5531,36.0783,临汾市,临钢医院,颗粒物(PM10),78,105,241,24,165,3,,,,45,44,7,9,0.6,1.7
2023-12-31T0100,1734A,111.5028,36.0714,临汾市,技工学校,颗粒物(PM10),83,116,249,39,181,6,,,,47,44,8,10,1.0,1.8
2023-12-31T0100,1736A,111.5018,36.0855,临汾市,市委,颗粒物(PM10),80,109,255,28,176,8,,,,61,47,7,8,0.6,1.8
2023-12-31T0100,3018A,111.505,36.1014,临汾市,唐尧大酒店,颗粒物(PM10),76,101,227,17,172,2,,,,57,46,7,8,0.6,1.8
2023-12-31T0100,3668A,111.5036,36.0414,临汾市,城南,颗粒物(PM10),73,95,239,31,169,2,,,,48,42,6,8,0.6,1.7
2023-12-31T0100,2667A,103.2069,35.5993,临夏回族自治州,环保局,颗粒物(PM10),90,129,89,43,35,1,,,,50,50,27,23,3.3,3
2023-12-31T0100,2668A,103.2417,35.6057,临夏回族自治州,建设大厦,颗粒物(PM10),71,91,67,36,33,12,,,,29,33,11,13,1.3,1.5
2023-12-31T0100,1618A,118.3429,35.0532,临沂市,沂河小区,细颗粒物(PM2.5),232,219,204,182,174,18,,,,55,50,8,8,1.3,1.1
2023-12-31T0100,1619A,118.295,35.0583,临沂市,鲁南制药厂,细颗粒物(PM2.5),232,237,204,182,170,8,,,,63,48,4,9,1.5,1.3
2023-12-31T0100,1620A,118.2794,34.9976,临沂市,新光毛纺厂,细颗粒物(PM2.5),214,219,195,164,158,10,,,,64,50,4,5,1.4,1.2
2023-12-31T0100,1621A,118.3956,35.0888,临沂市,河东保险公司,细颗粒物(PM2.5),228,222,197,178,168,20,,,,43,39,3,5,1.7,1.4
2023-12-31T0100,3370A,118.3564,35.0215,临沂市,十里堡居委,细颗粒物(PM2.5),218,217,199,168,164,16,,,,60,51,3,4,1.4,1.2
2023-12-31T0100,3496A,118.3604,35.1084,临沂市,南坊新区,细颗粒物(PM2.5),238,232,195,188,166,14,,,,52,47,6,7,1.8,1.5
2023-12-31T0100,3860A,118.3920,35.0300,临沂市,皇山花园小区,细颗粒物(PM2.5),212,215,194,162,152,22,,,,60,62,5,5,1.5,1.4
2023-12-31T0100,1870A,109.4856,24.3895,柳州市,柳东小学,细颗粒物(PM2.5),198,156,101,148,88,66,,,,35,31,30,23,1.1,1
2023-12-31T0100,1871A,109.4157,24.3277,柳州市,环保监测站,细颗粒物(PM2.5),182,174,141,137,101,29,,,,50,52,18,20,1.3,1.4
2023-12-31T0100,1872A,109.389,24.341,柳州市,河西水厂,细颗粒物(PM2.5),142,195,154,108,88,8,,,,64,55,10,23,1.6,1.8
2023-12-31T0100,1873A,109.4311,24.2921,柳州市,市四中,细颗粒物(PM2.5),178,220,141,134,100,5,,,,82,59,8,18,2.7,1.8
2023-12-31T0100,1874A,109.4006,24.3631,柳州市,市九中,细颗粒物(PM2.5),210,185,154,160,101,14,,,,59,46,12,15,1.4,1.3
2023-12-31T0100,1875A,109.4958,24.3134,柳州市,古亭山,细颗粒物(PM2.5),104,94,87,78,72,3,,,,77,48,11,15,1.1,1.1
2023-12-31T0100,3402A,109.5422,24.3996,柳州市,市二中,细颗粒物(PM2.5),147,133,104,112,83,33,,,,30,27,8,12,1.1,0.9
2023-12-31T0100,2307A,116.5079,31.737,六安市,监测大楼,细颗粒物(PM2.5),95,92,135,71,125,75,,,,26,37,4,5,0.7,1.1
2023-12-31T0100,2308A,116.4738,31.7643,六安市,皖西学院,细颗粒物(PM2.5),99,105,156,74,124,62,,,,29,36,3,7,0.7,1.2
2023-12-31T0100,2309A,116.4996,31.7905,六安市,朝阳厂,细颗粒物(PM2.5),103,87,144,77,134,58,,,,32,36,5,6,0.6,1.1
2023-12-31T0100,2310A,116.5567,31.7886,六安市,开发区,细颗粒物(PM2.5),108,123,163,81,114,54,,,,36,43,4,6,0.7,1.1
2023-12-31T0100,2576A,104.8,26.5892,六盘水市,窑上,,,,,,,,,,,,,,,,
2023-12-31T0100,2577A,104.83,26.5917,六盘水市,黄土坡,细颗粒物(PM2.5),95,98,98,71,73,36,,,,31,28,14,16,1.2,1.3
2023-12-31T0100,2578A,104.89,26.5939,六盘水市,水钢,细颗粒物(PM2.5),108,91,97,81,78,87,,,,15,23,6,14,0.8,1.1
2023-12-31T0100,2579A,104.8475,26.5894,六盘水市,民中,细颗粒物(PM2.5),132,106,94,100,81,61,,,,31,32,14,17,1.3,1.3
2023-12-31T0100,2580A,104.9544,26.5506,六盘水市,双水,细颗粒物(PM2.5),99,90,101,74,76,60,,,,19,22,10,11,1.0,1.2
2023-12-31T0100,2335A,117.0189,25.1181,龙岩市,龙岩师专,,,,,,,,,,,,,,,,
2023-12-31T0100,2336A,117.0217,25.1033,龙岩市,龙岩市监测站,细颗粒物(PM2.5),62,64,62,44,36,1,,,,48,47,7,10,0.9,1.1
2023-12-31T0100,2337A,117.0258,25.0661,龙岩市,闽西职业技术学院,颗粒物(PM10),60,69,68,35,38,1,,,,37,43,9,8,1.0,1
2023-12-31T0100,2338A,117.0196,25.0306,龙岩市,龙岩学院,,43,42,43,30,29,2,,,,36,30,5,7,0.4,0.4
2023-12-31T0100,2665A,105.0822,33.3261,陇南市,汉王镇固水子,,,,,,,,,,,,,,,,
2023-12-31T0100,2885A,104.9339,33.3826,陇南市,滨江中学,细颗粒物(PM2.5),109,121,104,82,59,4,,,,62,56,38,42,4.5,2.7
2023-12-31T0100,3247A,104.955,33.371,陇南市,市总工会,细颗粒物(PM2.5),75,98,91,55,55,11,,,,55,52,10,10,1.3,1
2023-12-31T0100,2487A,111.9589,27.8901,娄底市,电视发射台,细颗粒物(PM2.5),163,162,174,124,149,36,,,,28,31,5,7,1.9,2
2023-12-31T0100,2488A,111.9975,27.725,娄底市,市监测站,细颗粒物(PM2.5),261,243,229,211,200,4,,,,60,45,10,12,2.3,1.7
2023-12-31T0100,2489A,112.0194,27.7314,娄底市,市委党校,细颗粒物(PM2.5),243,225,224,193,190,10,,,,64,64,5,7,1.8,1.5
2023-12-31T0100,2490A,111.9561,27.7569,娄底市,涟钢,细颗粒物(PM2.5),240,222,235,190,202,23,,,,30,41,5,10,1.9,1.9
2023-12-31T0100,2491A,111.9892,27.7044,娄底市,市政府,细颗粒物(PM2.5),242,229,224,192,192,8,,,,54,54,5,9,1.3,1.3
2023-12-31T0100,1893A,105.4324,28.9634,泸州市,九狮山,细颗粒物(PM2.5),211,185,129,161,103,5,,,,25,25,5,5,0.5,0.6
2023-12-31T0100,1894A,105.4427,28.9063,泸州市,小市上码头,细颗粒物(PM2.5),280,253,140,230,113,14,,,,59,27,4,3,1.4,0.7
2023-12-31T0100,1895A,105.4241,28.8573,泸州市,兰田宪桥,细颗粒物(PM2.5),219,194,132,169,108,5,,,,45,31,4,4,1.4,1
2023-12-31T0100,1896A,105.4379,28.8833,泸州市,市环监站,细颗粒物(PM2.5),213,179,123,163,109,6,,,,67,30,4,4,1.2,0.7
2023-12-31T0100,3490A,105.3617,28.7703,泸州市,纳溪区环保局,细颗粒物(PM2.5),160,167,132,122,100,5,,,,43,35,3,3,1.1,1
2023-12-31T0100,2183A,111.1406,37.5211,吕梁市,环保局,颗粒物(PM10),75,100,121,24,50,1,,,,62,50,4,4,0.4,0.8
2023-12-31T0100,2185A,111.1297,37.5136,吕梁市,自来水公司,颗粒物(PM10),72,94,120,40,59,6,,,,60,50,11,8,0.5,0.8
2023-12-31T0100,2867A,111.1283,37.51,吕梁市,马茂庄小学,颗粒物(PM10),75,99,141,24,62,2,,,,63,48,2,4,0.4,0.9
2023-12-31T0100,1812A,112.3931,34.6516,洛阳市,市委党校,细颗粒物(PM2.5),83,104,134,61,101,20,,,,60,38,10,7,0.9,1.1
2023-12-31T0100,1814A,112.4657,34.6871,洛阳市,豫西宾馆,细颗粒物(PM2.5),92,119,157,68,99,9,,,,70,50,7,8,1.0,1.1
2023-12-31T0100,1815A,112.494,34.6886,洛阳市,河南林校,细颗粒物(PM2.5),80,103,134,59,94,4,,,,74,43,6,8,1.0,1
2023-12-31T0100,1816A,112.3844,34.623,洛阳市,开发区管委会,细颗粒物(PM2.5),82,88,118,60,88,41,,,,36,35,2,3,0.7,0.9
2023-12-31T0100,1817A,112.4267,34.6258,洛阳市,市委新办公区,细颗粒物(PM2.5),108,104,124,81,107,46,,,,30,27,5,6,0.9,1
2023-12-31T0100,3340A,112.6005,34.6326,洛阳市,伊滨,颗粒物(PM10),80,109,152,56,96,33,,,,39,33,2,3,0.8,1.1
2023-12-31T0100,3341A,112.4951,34.6332,洛阳市,中移产业园,细颗粒物(PM2.5),92,93,120,68,99,40,,,,45,38,6,6,1.0,1.1
2023-12-31T0100,3593A,112.5736,34.8993,洛阳市,吉利监测站,颗粒物(PM10),79,107,122,46,84,2,,,,70,39,3,4,0.8,1
2023-12-31T0100,3635A,112.3677,34.662,洛阳市,河科大西苑校区,颗粒物(PM10),76,101,144,53,99,29,,,,48,44,9,7,0.7,0.9
2023-12-31T0100,3636A,112.4388,34.6781,洛阳市,英才小学,细颗粒物(PM2.5),90,105,147,67,103,17,,,,58,41,5,7,1.1,1.2
2023-12-31T0100,2399A,114.051,33.5699,漯河市,三五一五工厂,细颗粒物(PM2.5),142,151,152,108,132,44,,,,30,25,4,5,0.9,0.9
2023-12-31T0100,2400A,114.0055,33.5698,漯河市,漯河大学,细颗粒物(PM2.5),114,124,151,86,125,46,,,,21,28,6,7,0.7,0.9
2023-12-31T0100,2401A,114.0138,33.5828,漯河市,市水利局,细颗粒物(PM2.5),138,149,149,105,122,45,,,,29,23,7,8,0.9,1
2023-12-31T0100,2402A,114.0261,33.5698,漯河市,市广电局,细颗粒物(PM2.5),128,147,149,97,120,44,,,,33,26,3,4,0.8,0.9
2023-12-31T0100,3478A,113.9749,33.5664,漯河市,市图书馆,细颗粒物(PM2.5),83,91,159,61,125,45,,,,32,22,7,8,0.6,0.7
2023-12-31T0100,3479A,114.0967,33.5906,漯河市,召陵区卫健委,细颗粒物(PM2.5),107,135,164,80,129,38,,,,32,22,5,7,0.8,0.7
2023-12-31T0100,1798A,118.5092,31.6837,马鞍山市,湖东路四小,细颗粒物(PM2.5),173,150,219,131,171,55,,,,50,57,17,14,1.3,1.5
2023-12-31T0100,1799A,118.5024,31.6449,马鞍山市,开发区,细颗粒物(PM2.5),152,138,186,116,168,64,,,,41,61,20,11,1.2,1
2023-12-31T0100,1800A,118.5228,31.7231,马鞍山市,慈湖,细颗粒物(PM2.5),185,,185,139,172,52,,,,40,55,10,13,1.7,2.4
2023-12-31T0100,1802A,118.6245,31.7241,马鞍山市,濮塘,细颗粒物(PM2.5),124,144,155,94,117,60,,,,19,40,6,7,0.8,1.5
2023-12-31T0100,3633A,118.4918,31.6809,马鞍山市,雨山,细颗粒物(PM2.5),169,144,162,128,165,58,,,,45,53,20,13,1.5,1.6
2023-12-31T0100,1686A,111.0286,21.4688,茂名市,电白南海,细颗粒物(PM2.5),119,105,81,90,64,18,,,,36,31,13,16,0.8,0.7
2023-12-31T0100,1687A,110.9294,21.6533,茂名市,茂石化七小,细颗粒物(PM2.5),98,88,84,73,66,3,,,,28,25,12,21,1.1,1
2023-12-31T0100,1688A,110.9107,21.6687,茂名市,健康路,细颗粒物(PM2.5),98,85,82,73,61,0,,,,24,21,27,24,0.9,0.8
2023-12-31T0100,1689A,110.8592,21.6828,茂名市,高岭,细颗粒物(PM2.5),67,63,80,48,58,0,,,,29,34,22,30,0.6,0.6
2023-12-31T0100,3450A,111.01,21.5165,茂名市,电白水东,细颗粒物(PM2.5),113,105,83,85,57,36,,,,29,31,30,22,1.0,0.9
2023-12-31T0100,2539A,104.0308,30.0478,眉山市,黑龙滩水库,细颗粒物(PM2.5),180,196,137,136,90,56,,,,14,10,4,5,0.8,0.7
2023-12-31T0100,2540A,103.8416,30.0874,眉山市,气象局,细颗粒物(PM2.5),195,155,138,146,124,16,,,,40,32,5,6,1.1,1.1
2023-12-31T0100,3137A,103.8578,30.0744,眉山市,市委党校,细颗粒物(PM2.5),201,166,145,151,127,7,,,,56,41,6,8,0.9,0.8
2023-12-31T0100,3148A,103.8291,30.0564,眉山市,区人社局,细颗粒物(PM2.5),208,,137,158,151,9,,,,58,46,9,10,0.8,1.1
2023-12-31T0100,1690A,116.1231,24.3284,梅州市,梅江月梅,细颗粒物(PM2.5),59,56,51,42,37,8,,,,37,39,8,10,0.6,0.6
2023-12-31T0100,1691A,116.0797,24.2719,梅州市,梅县新城,细颗粒物(PM2.5),60,54,51,43,42,4,,,,28,39,4,5,0.8,0.8
2023-12-31T0100,1692A,116.1248,24.2654,梅州市,环境监控中心,细颗粒物(PM2.5),59,47,58,42,44,1,,,,46,46,4,7,0.7,0.6
2023-12-31T0100,3315A,116.1233,24.2991,梅州市,梅龙,细颗粒物(PM2.5),59,58,52,42,39,2,,,,35,37,6,8,0.8,0.8
2023-12-31T0100,1878A,104.7778,31.4741,绵阳市,富乐山,细颗粒物(PM2.5),155,162,150,118,125,3,,,,39,29,6,6,1.1,1
2023-12-31T0100,1879A,104.7563,31.4535,绵阳市,市人大,细颗粒物(PM2.5),201,189,170,151,142,3,,,,41,35,7,8,1.1,0.9
2023-12-31T0100,1880A,104.6697,31.4668,绵阳市,高新区自来水公司,细颗粒物(PM2.5),109,138,177,82,128,2,,,,36,34,6,7,1.0,1
2023-12-31T0100,1881A,104.7287,31.5075,绵阳市,三水厂,细颗粒物(PM2.5),196,194,174,147,132,4,,,,36,41,6,6,1.5,1.3
2023-12-31T0100,3491A,104.69,31.5322,绵阳市,西科大附属小学,细颗粒物(PM2.5),170,188,168,129,127,2,,,,42,45,2,3,1.5,1.3
2023-12-31T0100,3492A,104.5648,31.5343,绵阳市,安州区旅游局,细颗粒物(PM2.5),139,154,158,106,128,3,,,,47,42,9,9,0.9,0.9
2023-12-31T0100,1784A,129.61,44.561,牡丹江市,环保大楼,"颗粒物(PM10),细颗粒物(PM2.5)",55,60,107,39,78,47,,,,28,52,18,22,0.5,1.2
2023-12-31T0100,1785A,129.6115,44.5782,牡丹江市,文化广场,细颗粒物(PM2.5),75,61,106,55,84,45,,,,29,51,18,24,0.7,1.4
2023-12-31T0100,1786A,129.5904,44.5963,牡丹江市,第一医院,细颗粒物(PM2.5),77,,100,56,82,44,,,,26,49,14,21,0.7,1.3
2023-12-31T0100,1787A,129.6364,44.6075,牡丹江市,机车工厂,颗粒物(PM10),65,80,65,39,42,43,,,,27,39,16,21,0.6,0.9
2023-12-31T0100,1788A,129.6386,44.5462,牡丹江市,第一中学,细颗粒物(PM2.5),60,48,86,43,69,52,,,,20,39,12,15,0.7,1.1
2023-12-31T0100,2531A,105.0703,29.61,内江市,市监测站,细颗粒物(PM2.5),231,,149,181,156,52,,,,23,32,6,8,1.2,1.3
2023-12-31T0100,2532A,105.0717,29.5947,内江市,东兴区政府,细颗粒物(PM2.5),228,194,157,178,145,50,,,,22,29,6,8,0.7,0.8
2023-12-31T0100,2533A,105.0653,29.5817,内江市,内江二中,细颗粒物(PM2.5),235,191,160,185,156,51,,,,24,32,5,7,1.1,1.1
2023-12-31T0100,2534A,105.0406,29.5822,内江市,内江日报社,细颗粒物(PM2.5),214,184,141,164,136,51,,,,25,35,8,9,0.9,1.1
2023-12-31T0100,1290A,115.8931,28.6843,南昌市,省外办,细颗粒物(PM2.5),262,247,275,212,215,39,,,,57,77,8,11,1.5,1.8
2023-12-31T0100,1291A,115.8886,28.7003,南昌市,省林业公司,细颗粒物(PM2.5),240,229,243,190,193,25,,,,73,90,9,15,1.4,1.5
2023-12-31T0100,1292A,115.8126,28.7442,南昌市,林科所,细颗粒物(PM2.5),225,212,181,175,144,57,,,,96,110,8,12,1.3,1.2
2023-12-31T0100,1294A,115.8518,28.687,南昌市,建工学校,细颗粒物(PM2.5),255,276,255,205,178,44,,,,58,79,13,20,1.4,1.6
2023-12-31T0100,1295A,115.8921,28.6424,南昌市,象湖,细颗粒物(PM2.5),246,230,216,196,200,47,,,,51,76,8,13,1.4,1.6
2023-12-31T0100,1296A,115.7423,28.7996,南昌市,武术学校,细颗粒物(PM2.5),92,100,91,68,82,7,,,,13,19,12,13,1.0,1
2023-12-31T0100,1298A,115.9314,28.6842,南昌市,省站,细颗粒物(PM2.5),250,290,284,200,210,37,,,,48,60,14,16,1.2,1.4
2023-12-31T0100,3046A,115.9084,28.6062,南昌市,机电学校,细颗粒物(PM2.5),252,253,264,202,203,61,,,,50,72,11,16,1.3,1.3
2023-12-31T0100,3690A,115.9721,28.7031,南昌市,外国语学校,细颗粒物(PM2.5),242,236,264,192,195,38,,,,53,60,6,11,1.3,1.4
2023-12-31T0100,1905A,106.056,30.8064,南充市,西山风景区,细颗粒物(PM2.5),134,,153,102,125,66,,,,13,22,4,4,0.8,1
2023-12-31T0100,1906A,106.0789,30.8023,南充市,南充市委,细颗粒物(PM2.5),132,132,159,100,129,14,,,,25,34,6,5,0.8,1
2023-12-31T0100,1907A,106.1031,30.8217,南充市,南充炼油厂,细颗粒物(PM2.5),183,153,179,138,146,10,,,,30,32,5,5,0.7,0.9
2023-12-31T0100,1908A,106.1064,30.7856,南充市,高坪区监测站,细颗粒物(PM2.5),249,252,199,199,158,5,,,,37,34,6,6,1.2,0.9
2023-12-31T0100,1909A,106.0642,30.7636,南充市,嘉陵区环保局,细颗粒物(PM2.5),163,164,192,124,141,2,,,,39,37,12,4,0.8,1
2023-12-31T0100,1910A,106.1087,30.8388,南充市,市环境监测站,细颗粒物(PM2.5),156,151,171,119,132,16,,,,30,27,6,6,0.8,0.9
2023-12-31T0100,1151A,118.8086,32.1065,南京市,迈皋桥,细颗粒物(PM2.5),175,167,162,132,133,54,,,,23,54,6,6,1.2,1.4
2023-12-31T0100,1152A,118.7538,32.0551,南京市,草场门,细颗粒物(PM2.5),144,144,143,110,121,67,,,,34,58,4,5,0.9,1.2
2023-12-31T0100,1153A,118.7794,32.0745,南京市,山西路,细颗粒物(PM2.5),195,193,186,146,155,66,,,,26,50,5,7,1.0,1.2
2023-12-31T0100,1154A,118.7752,32.0023,南京市,中华门,细颗粒物(PM2.5),168,151,160,127,125,65,,,,28,63,9,10,1.3,1.7
2023-12-31T0100,1155A,118.8109,32.0309,南京市,瑞金路,细颗粒物(PM2.5),160,178,178,122,123,68,,,,23,69,6,6,1.0,1.4
2023-12-31T0100,1156A,118.7997,32.0754,南京市,玄武湖,细颗粒物(PM2.5),180,139,164,136,136,63,,,,25,50,6,8,1.1,1.3
2023-12-31T0100,1157A,118.6414,32.0931,南京市,浦口,细颗粒物(PM2.5),188,176,183,141,137,79,,,,31,52,7,4,0.7,0.8
2023-12-31T0100,1158A,118.7356,31.9996,南京市,奥体中心,细颗粒物(PM2.5),170,165,169,129,130,69,,,,38,68,7,8,1.1,1.4
2023-12-31T0100,1159A,118.9125,32.1028,南京市,仙林大学城,细颗粒物(PM2.5),185,156,152,139,137,56,,,,38,64,6,6,1.3,1.4
2023-12-31T0100,3422A,118.8436,31.9198,南京市,江宁彩虹桥,细颗粒物(PM2.5),153,165,178,117,128,77,,,,22,56,7,9,1.0,1.4
2023-12-31T0100,3423A,119.0138,31.6494,南京市,溧水永阳,细颗粒物(PM2.5),158,,140,120,143,56,,,,26,49,4,4,1.0,1.3
2023-12-31T0100,3424A,118.879,31.3302,南京市,高淳老职中,细颗粒物(PM2.5),143,136,164,109,139,66,,,,27,56,5,5,0.8,1.3
2023-12-31T0100,3427A,118.8554,32.3578,南京市,六合雄州,细颗粒物(PM2.5),138,154,144,105,104,57,,,,20,35,5,5,1.3,1.4
2023-12-31T0100,1401A,108.3103,22.7881,南宁市,二十一中,细颗粒物(PM2.5),59,58,61,42,42,37,,,,41,32,7,8,1.0,1
2023-12-31T0100,1402A,108.3141,22.8528,南宁市,北湖,细颗粒物(PM2.5),109,107,78,82,52,5,,,,52,36,7,8,1.2,1
2023-12-31T0100,1403A,108.3206,22.8225,南宁市,市监测站,细颗粒物(PM2.5),62,47,60,44,40,28,,,,50,40,10,9,1.0,0.9
2023-12-31T0100,1404A,108.3829,22.8037,南宁市,大自然花园,颗粒物(PM10),52,54,55,33,38,26,,,,26,26,6,8,0.8,0.7
2023-12-31T0100,1405A,108.4394,22.7904,南宁市,仙葫,细颗粒物(PM2.5),63,68,63,45,41,30,,,,41,36,5,6,0.9,0.8
2023-12-31T0100,1406A,108.2397,22.8467,南宁市,区农职院,细颗粒物(PM2.5),74,76,72,54,43,2,,,,64,50,8,10,1.2,1.1
2023-12-31T0100,1407A,108.3275,22.735,南宁市,英华嘉园,细颗粒物(PM2.5),64,67,70,46,44,3,,,,69,51,6,7,1.2,0.9
2023-12-31T0100,1408A,108.2257,22.7757,南宁市,沙井镇街道办,"颗粒物(PM10),细颗粒物(PM2.5)",75,100,108,55,54,0,,,,72,67,5,9,0.9,0.8
2023-12-31T0100,3401A,108.4834,22.7618,南宁市,红星社区,细颗粒物(PM2.5),84,82,62,62,41,16,,,,41,27,7,7,0.8,0.7
2023-12-31T0100,2331A,118.0966,26.6761,南平市,茫荡山,,,,,,,,,,,,,,,,
2023-12-31T0100,2332A,118.1681,26.6369,南平市,南平市监测站,细颗粒物(PM2.5),69,68,50,50,38,1,,,,33,29,5,5,1.3,1
2023-12-31T0100,2333A,118.1825,26.6489,南平市,南平铝业有限公司,细颗粒物(PM2.5),57,54,45,40,31,3,,,,38,30,5,6,1.0,0.9
2023-12-31T0100,2334A,118.1756,26.6272,南平市,南平七中,细颗粒物(PM2.5),58,48,43,41,30,3,,,,36,30,6,6,0.6,0.5
2023-12-31T0100,1168A,120.9098,31.9663,南通市,狼山街道,细颗粒物(PM2.5),199,184,113,149,100,49,,,,38,60,8,8,1.2,1.2
2023-12-31T0100,1169A,120.86,32.0005,南通市,虹桥,细颗粒物(PM2.5),235,209,142,185,121,35,,,,51,71,5,6,1.5,1.4
2023-12-31T0100,1170A,120.87,32.02,南通市,城中,细颗粒物(PM2.5),228,180,123,178,111,35,,,,48,66,7,8,1.3,1.2
2023-12-31T0100,1171A,120.94,31.93,南通市,星湖花园,细颗粒物(PM2.5),211,199,132,161,105,30,,,,60,67,7,8,0.9,1
2023-12-31T0100,1172A,120.81,32.0417,南通市,紫琅学院,细颗粒物(PM2.5),231,216,142,181,116,25,,,,57,70,8,8,1.2,1
2023-12-31T0100,3291A,121.067,32.062,南通市,通州监测站,细颗粒物(PM2.5),235,207,138,185,111,38,,,,44,60,8,8,1.6,1.6
2023-12-31T0100,3432A,120.9348,31.9883,南通市,环境教育馆,细颗粒物(PM2.5),189,171,110,142,97,50,,,,38,61,7,8,1.3,1.3
2023-12-31T0100,2404A,112.5224,33.0122,南阳市,瓦房庄,细颗粒物(PM2.5),262,221,183,212,178,1,,,,62,54,6,7,1.6,1.4
2023-12-31T0100,2405A,112.5003,32.9735,南阳市,汉画馆,细颗粒物(PM2.5),242,224,201,192,168,3,,,,51,48,7,9,1.6,1.4
2023-12-31T0100,2406A,112.5573,33.027,南阳市,气象站,细颗粒物(PM2.5),265,225,188,215,181,7,,,,56,42,4,6,1.6,1.3
2023-12-31T0100,2407A,112.5481,32.9689,南阳市,理工学院,细颗粒物(PM2.5),291,260,179,241,164,4,,,,69,52,7,7,1.9,1
2023-12-31T0100,4008A,112.5234,32.9922,南阳市,卧龙区政府,细颗粒物(PM2.5),254,231,195,204,170,3,,,,67,58,5,7,1.6,1.4
2023-12-31T0100,1234A,121.8358,29.911,宁波市,区环保大楼,细颗粒物(PM2.5),142,138,115,108,79,8,,,,71,69,5,8,1.2,1
2023-12-31T0100,1235A,121.56,29.82,宁波市,万里学院,细颗粒物(PM2.5),155,222,122,118,77,3,,,,102,73,6,7,1.4,0.9
2023-12-31T0100,1236A,121.713,29.9572,宁波市,龙赛医院,颗粒物(PM10),119,188,108,80,53,2,,,,95,72,9,8,1.4,1
2023-12-31T0100,1239A,121.633,29.7733,宁波市,钱湖水厂,细颗粒物(PM2.5),186,161,82,140,74,14,,,,71,43,8,9,1.1,0.8
2023-12-31T0100,1240A,121.5856,29.8635,宁波市,太古小学,细颗粒物(PM2.5),140,191,112,107,77,4,,,,96,74,8,9,1.5,0.9
2023-12-31T0100,1241A,121.524,29.8674,宁波市,市环境监测中心,颗粒物(PM10),127,204,112,95,58,3,,,,96,76,10,11,1.7,1
2023-12-31T0100,2871A,121.6147,29.9017,宁波市,万里国际学校,细颗粒物(PM2.5),225,217,118,175,100,3,,,,102,74,9,9,1.4,0.9
2023-12-31T0100,3710A,121.5594,29.8975,宁波市,白沙活动中心,细颗粒物(PM2.5),92,118,82,68,58,1,,,,82,71,7,8,1.4,1
2023-12-31T0100,2339A,119.5001,26.6946,宁德市,金涵水库,,,,,,,,,,,,,,,,
2023-12-31T0100,2341A,119.5388,26.6612,宁德市,宁德市监测站,细颗粒物(PM2.5),64,63,50,46,37,2,,,,36,32,5,6,0.9,0.8
2023-12-31T0100,3209A,119.5231,26.6562,宁德市,宁德一中,,49,49,46,30,29,15,,,,20,30,3,4,0.8,0.7
2023-12-31T0100,2618A,98.8601,25.8567,怒江州,州监测站,,42,37,30,29,18,21,,,,23,16,8,8,0.4,0.4
2023-12-31T0100,2619A,98.8546,25.8417,怒江州,泸水一中,,45,,28,31,21,11,,,,20,19,7,7,0.5,0.5
2023-12-31T0100,1888A,101.6891,26.571,攀枝花市,弄弄坪,细颗粒物(PM2.5),118,107,67,89,42,6,,,,72,44,19,36,1.7,1.6
2023-12-31T0100,1889A,101.5769,26.5928,攀枝花市,河门口,颗粒物(PM10),55,60,54,33,25,22,,,,31,29,12,16,1.3,1.3
2023-12-31T0100,1890A,101.7169,26.585,攀枝花市,炳草岗,细颗粒物(PM2.5),65,71,64,47,35,7,,,,65,50,31,37,1.5,1.5
2023-12-31T0100,1891A,101.7369,26.5008,攀枝花市,仁和,,32,27,48,22,34,34,,,,17,27,8,19,0.7,1.3
2023-12-31T0100,2835A,101.7227,26.567,攀枝花市,四十中小,细颗粒物(PM2.5),74,83,66,54,37,10,,,,70,50,43,40,2.3,1.8
2023-12-31T0100,1604A,122.0303,41.1489,盘锦市,开发区,细颗粒物(PM2.5),65,54,103,47,105,52,,,,24,54,12,18,0.8,1.7
2023-12-31T0100,1605A,122.0485,41.0883,盘锦市,兴隆台,细颗粒物(PM2.5),72,58,98,52,102,54,,,,20,48,10,17,0.8,1.7
2023-12-31T0100,1606A,121.8297,41.1028,盘锦市,新生街道,细颗粒物(PM2.5),85,,87,63,101,36,,,,34,42,12,12,1.0,1.4
2023-12-31T0100,1832A,113.3257,33.742,平顶山市,新华旅馆,细颗粒物(PM2.5),80,103,166,59,113,61,,,,25,27,9,8,0.6,0.8
2023-12-31T0100,1833A,113.2919,33.737,平顶山市,规划设计院,细颗粒物(PM2.5),79,106,162,58,119,63,,,,28,34,10,9,0.7,1
2023-12-31T0100,1834A,113.182,33.774,平顶山市,平顶山工学院,颗粒物(PM10),75,99,163,48,111,61,,,,29,28,6,6,0.6,0.9
2023-12-31T0100,3204A,113.3025,33.73,平顶山市,规划局,细颗粒物(PM2.5),85,110,161,63,120,59,,,,22,26,10,9,0.7,0.9
2023-12-31T0100,3594A,112.8867,33.9116,平顶山市,石龙区,颗粒物(PM10),76,101,124,47,90,37,,,,65,41,8,8,0.6,0.8
2023-12-31T0100,2656A,106.6692,35.5461,平凉市,聚贤嘉苑,,50,50,55,29,25,16,,,,51,35,8,8,0.7,0.5
2023-12-31T0100,2657A,106.7021,35.5307,平凉市,博物馆,,,,66,,30,,,43,,,25,,11,,0.8
2023-12-31T0100,2347A,114.0997,27.5002,萍乡市,武功山,细颗粒物(PM2.5),119,105,105,90,91,30,,,,16,16,4,5,1.0,1
2023-12-31T0100,2348A,113.8385,27.6434,萍乡市,中医院,,,,224,,183,,,42,,,58,,17,,3.1
2023-12-31T0100,2349A,113.8493,27.6253,萍乡市,市政府车库,细颗粒物(PM2.5),186,190,200,140,144,7,,,,44,41,8,12,2.7,2.3
2023-12-31T0100,2350A,113.8676,27.6435,萍乡市,市环保局,细颗粒物(PM2.5),200,230,229,150,157,3,,,,66,56,9,12,2.7,2.7
2023-12-31T0100,2351A,113.866,27.6198,萍乡市,安源区政府,细颗粒物(PM2.5),219,212,225,169,176,8,,,,53,46,10,14,2.5,1.9
2023-12-31T0100,2319A,119.0141,25.4325,莆田市,荔城区仓后路,细颗粒物(PM2.5),110,115,76,83,49,13,,,,52,43,8,7,1.4,1
2023-12-31T0100,2320A,119.0015,25.4553,莆田市,莆田市监测站,细颗粒物(PM2.5),53,45,53,37,37,48,,,,15,23,7,8,0.7,0.7
2023-12-31T0100,2321A,119.1119,25.4561,莆田市,涵江区六中,颗粒物(PM10),80,109,63,49,38,10,,,,75,60,10,9,1.1,0.9
2023-12-31T0100,2322A,119.1013,25.3215,莆田市,秀屿区政府,细颗粒物(PM2.5),100,83,70,75,49,49,,,,45,38,11,11,0.9,0.8
2023-12-31T0100,2323A,118.981,25.4792,莆田市,东圳水库,,,,,,,,,,,,,,,,
2023-12-31T0100,2392A,115.0312,35.7636,濮阳市,环保局,细颗粒物(PM2.5),216,206,198,166,181,8,,,,57,48,1,3,1.9,1.5
2023-12-31T0100,2394A,115.0574,35.7609,濮阳市,油田运输公司,细颗粒物(PM2.5),215,236,228,165,188,7,,,,62,50,4,4,2.0,1.5
2023-12-31T0100,2395A,115.0866,35.7754,濮阳市,油田物探公司,细颗粒物(PM2.5),210,225,226,160,189,11,,,,55,49,2,2,2.0,1.6
2023-12-31T0100,3021A,115,35.7668,濮阳市,濮水河管理处,细颗粒物(PM2.5),222,227,210,172,181,15,,,,48,42,3,2,2.0,1.6
2023-12-31T0100,2601A,100.98,22.7633,普洱市,市环保局,,45,31,32,31,25,12,,,,15,13,5,4,0.5,0.5
2023-12-31T0100,2602A,100.9817,22.8322,普洱市,普洱第二中学,,43,43,29,16,13,6,,,,28,20,3,6,0.6,0.5
2023-12-31T0100,2262A,131.0518,45.8751,七台河市,新一中,,22,18,44,15,37,62,,,,9,18,12,13,0.3,0.7
2023-12-31T0100,3345A,131.0577,45.7879,七台河市,中波台,,29,,56,20,49,60,,,,11,28,8,9,0.6,0.8
2023-12-31T0100,3637A,131.0176,45.7761,七台河市,人民广场,,28,,64,19,53,60,,,,16,31,8,8,0.4,0.7
2023-12-31T0100,3684A,130.8781,45.8222,七台河市,新建矿广场,细颗粒物(PM2.5),60,,62,43,55,43,,,,24,39,6,22,0.6,0.7
2023-12-31T0100,1779A,123.9305,47.3636,齐齐哈尔市,安居小区,,19,19,36,9,27,49,,,,9,17,8,10,0.3,0.4
2023-12-31T0100,1780A,123.9488,47.3386,齐齐哈尔市,中心广场,,18,13,43,12,28,46,,,,10,18,5,7,0.4,0.5
2023-12-31T0100,1781A,123.9483,47.3227,齐齐哈尔市,农牧车辆厂,,22,22,37,9,27,47,,,,10,18,10,12,0.3,0.5
2023-12-31T0100,1783A,123.945,47.2988,齐齐哈尔市,市环境监测站,,18,17,42,12,29,50,,,,11,19,6,9,0.1,0.3
2023-12-31T0100,3662A,123.6333,47.2075,齐齐哈尔市,富区青少年活动中心,,18,15,33,7,19,56,,,,5,11,7,11,0.4,0.6
2023-12-31T0100,2591A,107.9783,26.5747,黔东南苗族侗族自治州,市环境监测站,细颗粒物(PM2.5),102,96,75,76,65,5,,,,44,36,13,8,1.7,0.9
2023-12-31T0100,2881A,107.8908,26.5311,黔东南苗族侗族自治州,凯里学院,细颗粒物(PM2.5),57,52,73,40,62,8,,,,28,26,4,5,0.6,0.8
2023-12-31T0100,2593A,107.5228,26.2403,黔南布依族苗族自治州,小围寨,细颗粒物(PM2.5),62,46,37,44,36,5,,,,26,13,5,9,0.8,0.7
2023-12-31T0100,3538A,107.5175,26.2978,黔南布依族苗族自治州,沙坝,细颗粒物(PM2.5),67,58,46,48,41,6,,,,21,17,5,5,0.7,0.9
2023-12-31T0100,2589A,104.9022,25.0925,黔西南布依族苗族自治州,场坝街,细颗粒物(PM2.5),99,83,81,74,67,25,,,,30,23,2,6,0.8,0.7
2023-12-31T0100,2590A,104.8811,25.0992,黔西南布依族苗族自治州,坪东大道,细颗粒物(PM2.5),103,91,84,77,72,17,,,,33,26,3,8,0.9,0.8
2023-12-31T0100,2502A,108.6236,21.9667,钦州市,市环保站,细颗粒物(PM2.5),64,66,49,46,30,69,,,,28,25,6,6,0.8,0.7
2023-12-31T0100,2503A,108.6549,21.9481,钦州市,沙埠小学,"颗粒物(PM10),细颗粒物(PM2.5)",77,104,59,56,36,2,,,,62,37,7,8,1.3,1
2023-12-31T0100,2504A,108.5989,21.7431,钦州市,港区一小,细颗粒物(PM2.5),72,69,67,52,38,83,,,,15,33,10,8,0.9,0.8
2023-12-31T0100,3404A,108.5959,21.9633,钦州市,北职校,细颗粒物(PM2.5),92,99,48,68,39,13,,,,52,28,7,7,1.1,0.8
2023-12-31T0100,1042A,119.5134,39.8207,秦皇岛市,北戴河环保局,细颗粒物(PM2.5),175,173,185,132,158,4,,,,92,94,12,12,2.4,2.6
2023-12-31T0100,1043A,119.7493,40.0116,秦皇岛市,第一关,细颗粒物(PM2.5),238,243,228,188,194,5,,,,77,79,28,21,2.3,2.4
2023-12-31T0100,1044A,119.5897,39.9499,秦皇岛市,监测站,细颗粒物(PM2.5),74,96,202,54,161,38,,,,42,89,11,20,0.7,2.3
2023-12-31T0100,1046A,119.5251,39.9041,秦皇岛市,建设大厦,颗粒物(PM10),82,114,200,45,140,60,,,,23,83,6,15,0.6,2.1
2023-12-31T0100,3132A,119.610547,39.943889,秦皇岛市,文明里,颗粒物(PM10),97,144,212,66,150,30,,,,58,100,13,19,0.8,2.2
2023-12-31T0100,1307A,120.6659,36.2403,青岛市,仰口,细颗粒物(PM2.5),235,219,123,185,105,15,,,,52,29,4,5,1.8,1.1
2023-12-31T0100,1310A,120.4134,36.0658,青岛市,市南区东部子站,细颗粒物(PM2.5),267,283,144,217,114,26,,,,55,46,7,6,1.8,1.2
2023-12-31T0100,1311A,120.3664,36.1032,青岛市,四方区子站,细颗粒物(PM2.5),294,283,150,244,131,23,,,,65,55,5,6,1.9,1.4
2023-12-31T0100,1312A,120.2994,36.054,青岛市,市南区西部子站,细颗粒物(PM2.5),260,290,145,210,118,31,,,,52,44,6,7,1.7,1.2
2023-12-31T0100,1313A,120.4581,36.0858,青岛市,崂山区子站,细颗粒物(PM2.5),282,305,154,232,117,24,,,,60,43,7,7,1.8,1.2
2023-12-31T0100,1314A,120.1983,35.9608,青岛市,黄岛区子站,细颗粒物(PM2.5),260,268,151,210,128,12,,,,82,56,6,6,1.9,1.2
2023-12-31T0100,1315A,120.3999,36.3083,青岛市,城阳区子站,细颗粒物(PM2.5),245,307,163,195,104,12,,,,87,53,7,7,1.9,1.3
2023-12-31T0100,1966A,120.0405,35.8735,青岛市,黄岛区4号,细颗粒物(PM2.5),223,202,146,173,125,35,,,,62,51,6,7,1.8,1.3
2023-12-31T0100,3362A,120.5014,36.4034,青岛市,即墨2号,细颗粒物(PM2.5),278,317,174,228,129,8,,,,65,40,11,11,1.9,1.2
2023-12-31T0100,3642A,120.3503,36.0736,青岛市,市北区南部,细颗粒物(PM2.5),277,256,145,227,115,23,,,,65,52,6,7,1.7,1.2
2023-12-31T0100,3643A,120.3948,36.1805,青岛市,李沧区北部,细颗粒物(PM2.5),291,295,157,241,133,19,,,,77,53,10,10,1.8,1.1
2023-12-31T0100,1702A,113.0426,23.691,清远市,环保大楼,细颗粒物(PM2.5),129,159,120,98,96,1,,,,55,62,5,13,1.1,1.3
2023-12-31T0100,1703A,113.0208,23.7106,清远市,凤城街办,细颗粒物(PM2.5),178,183,150,134,111,0,,,,67,65,9,16,1.5,1.1
2023-12-31T0100,3025A,113.0477,23.6344,清远市,技师学院,细颗粒物(PM2.5),107,135,143,80,74,4,,,,55,67,5,12,0.7,0.6
2023-12-31T0100,3318A,112.9903,23.7403,清远市,清新太和,细颗粒物(PM2.5),105,122,131,79,82,26,,,,36,62,10,19,0.9,1
2023-12-31T0100,3455A,113.076,23.7198,清远市,清城东城,细颗粒物(PM2.5),135,159,118,103,77,2,,,,45,57,7,15,0.9,1
2023-12-31T0100,2661A,107.6325,35.7357,庆阳市,庆阳五中,颗粒物(PM10),52,53,68,12,23,64,,,,11,19,5,7,0.5,0.5
2023-12-31T0100,2662A,107.6364,35.7067,庆阳市,市环保局,颗粒物(PM10),51,51,56,16,14,54,,,,10,15,5,10,0.4,0.4
2023-12-31T0100,1916A,103.7897,25.5035,曲靖市,环境监测站,颗粒物(PM10),62,73,47,25,23,5,,,,47,29,3,5,0.5,0.5
2023-12-31T0100,1917A,103.8,25.5364,曲靖市,烟厂办公区,颗粒物(PM10),72,93,54,42,28,4,,,,60,32,5,6,1.1,0.7
2023-12-31T0100,3376A,103.7947,25.462,曲靖市,南苑二区,,23,23,33,16,19,45,,,,12,14,4,6,0.5,0.6
2023-12-31T0100,3377A,103.7444,25.5261,曲靖市,曲靖师范学院,细颗粒物(PM2.5),67,68,59,48,42,17,,,,48,34,90,40,0.9,0.8
2023-12-31T0100,1264A,118.8692,28.9398,衢州市,环保大楼,细颗粒物(PM2.5),109,119,143,82,109,35,,,,61,71,9,7,1.0,1
2023-12-31T0100,1265A,118.8709,28.9666,衢州市,实验学校,细颗粒物(PM2.5),95,106,132,71,94,50,,,,47,63,11,8,0.7,0.8
2023-12-31T0100,1266A,118.8621,28.9808,衢州市,衢州学院,细颗粒物(PM2.5),103,106,125,77,95,48,,,,49,51,11,9,0.8,0.8
2023-12-31T0100,1611A,118.5819,24.9117,泉州市,涂山街,颗粒物(PM10),79,107,74,57,43,30,,,,66,45,6,6,1.0,1
