timepoint,stationcode,longitude,latitude,area,positionname,primarypollutant,aqi,pm10,pm10_24h,pm2_5,pm2_5_24h,o3,o3_24h,o3_8h,o3_8h_24h,no2,no2_24h,so2,so2_24h,co,co_24h
2023-12-31T2000,2566A,102.1879,31.914,阿坝藏族羌族自治州,州农科所,,,,,8,11,19,,25,25,19,18,5,7,0.7,0.6
2023-12-31T2000,2568A,102.2502,31.8896,阿坝藏族羌族自治州,马师校,,39,37,11,27,13,27,,55,50,32,18,2,2,0.8,0.5
2023-12-31T2000,3994A,102.2165,31.9024,阿坝藏族羌族自治州,马尔康中学西区,,34,34,18,22,10,33,,62,58,32,13,4,4,0.6,0.4
2023-12-31T2000,2695A,80.292,41.1694,阿克苏地区,电视台,颗粒物(PM10),167,284,265,82,66,56,,65,65,48,33,10,9,1.1,1.1
2023-12-31T2000,2696A,80.2613,41.1551,阿克苏地区,艺术中心,颗粒物(PM10),155,260,270,77,75,36,,67,67,61,30,9,8,0.9,0.9
2023-12-31T2000,2204A,105.6467,38.8363,阿拉善盟,西城区西花园,颗粒物(PM10),66,82,42,33,17,21,,55,51,55,31,12,10,0.6,0.5
2023-12-31T2000,2205A,105.6985,38.8411,阿拉善盟,蒙二幼,颗粒物(PM10),64,77,44,33,15,42,,62,59,39,25,13,10,0.9,0.7
2023-12-31T2000,2206A,105.724,38.8516,阿拉善盟,环保局新楼,,41,41,32,16,12,80,,76,65,10,10,9,6,0.7,0.6
2023-12-31T2000,2708A,88.1264,47.8517,阿勒泰地区,市站,,15,13,18,6,10,34,,45,34,29,29,4,4,0.2,0.2
2023-12-31T2000,2630A,80.1161,32.5,阿里地区,阿里监测站,,27,,8,2,4,84,,84,84,4,12,10,9,0.5,0.5
2023-12-31T2000,3192A,80.0903,32.5028,阿里地区,阿里藏医院,,29,25,13,1,5,90,,86,86,2,11,4,8,0.4,0.5
2023-12-31T2000,2642A,109.0318,32.6537,安康市,香溪洞,细颗粒物(PM2.5),95,72,74,71,67,91,,63,63,18,21,5,5,0.3,0.5
2023-12-31T2000,2643A,109.0281,32.6939,安康市,安康市监测站,细颗粒物(PM2.5),148,150,116,113,93,15,,23,22,76,43,10,9,2.1,1.2
2023-12-31T2000,2644A,109.0072,32.6975,安康市,汉滨区检察院,细颗粒物(PM2.5),144,141,105,110,83,13,,31,30,74,38,16,11,1.3,0.8
2023-12-31T2000,2291A,117.0809,30.5177,安庆市,环科院,细颗粒物(PM2.5),108,124,148,81,106,94,,104,104,24,38,9,9,0.9,1.1
2023-12-31T2000,2292A,117.0331,30.5119,安庆市,马山宾馆,细颗粒物(PM2.5),97,113,144,72,104,91,,106,106,33,43,8,7,0.6,0.9
2023-12-31T2000,2294A,116.9896,30.6145,安庆市,安庆大学,细颗粒物(PM2.5),104,126,136,78,95,107,,108,108,21,38,10,8,0.8,1.1
2023-12-31T2000,3173A,117.0598,30.5351,安庆市,市人大,细颗粒物(PM2.5),109,124,151,82,102,84,,99,99,36,42,5,5,0.9,1
2023-12-31T2000,3122A,105.9606,26.2611,安顺市,伍家关,,,,,,,,,,,,,,,,
2023-12-31T2000,3123A,105.9408,26.2431,安顺市,凤凰山,细颗粒物(PM2.5),55,48,54,39,46,71,,87,86,16,21,20,32,0.8,1
2023-12-31T2000,3124A,105.9439,26.2564,安顺市,金钟山,,49,44,47,34,37,74,,87,86,11,13,19,20,0.3,0.4
2023-12-31T2000,3125A,105.8983,26.2481,安顺市,娄家坡,细颗粒物(PM2.5),53,48,55,37,47,69,,87,86,14,16,20,28,0.5,0.7
2023-12-31T2000,1818A,114.4839,36.0621,安阳市,棉研所,,,,,,,,,,,,,,,,
2023-12-31T2000,1819A,114.3551,36.1017,安阳市,红庙街,细颗粒物(PM2.5),104,89,160,78,119,36,,64,62,54,52,7,9,1.1,3.5
2023-12-31T2000,1820A,114.361,36.0681,安阳市,银杏小区,细颗粒物(PM2.5),98,88,147,73,126,33,,68,61,53,62,2,4,1.4,3.2
2023-12-31T2000,3141A,114.3922,36.0878,安阳市,信访局,细颗粒物(PM2.5),118,98,161,89,121,33,,58,58,56,53,3,4,1.5,4.3
2023-12-31T2000,3669A,114.4705,36.0637,安阳市,左辅环卫站,细颗粒物(PM2.5),123,122,136,93,103,45,,55,55,46,55,3,3,1.1,3
2023-12-31T2000,3703A,114.2917,36.0949,安阳市,安钢职工学校,细颗粒物(PM2.5),94,87,182,70,122,38,,65,64,51,49,5,8,1.0,3
2023-12-31T2000,1748A,123.044,41.1196,鞍山市,深沟寺,细颗粒物(PM2.5),59,48,71,42,63,31,,49,46,34,22,6,9,1.0,1.1
2023-12-31T2000,1749A,123.011,41.0931,鞍山市,太阳城,,49,43,69,34,59,37,,53,52,33,23,9,10,0.7,0.9
2023-12-31T2000,1750A,123.0485,41.1442,鞍山市,太平,细颗粒物(PM2.5),75,62,70,55,64,31,,53,49,44,24,17,13,1.0,0.9
2023-12-31T2000,1751A,122.9642,41.0971,鞍山市,铁西三道街,,50,48,84,35,68,34,,30,28,36,42,14,20,0.8,2.5
2023-12-31T2000,1752A,122.9341,41.0833,鞍山市,铁西工业园区,细颗粒物(PM2.5),55,50,73,39,63,26,,43,39,48,33,20,21,1.0,1.1
2023-12-31T2000,1753A,123.022,41.0821,鞍山市,明达新区,细颗粒物(PM2.5),52,45,67,36,60,35,,49,47,34,23,10,11,0.7,0.8
2023-12-31T2000,1754A,123.1289,41.0228,鞍山市,千山,,,,,,,,,,,,,,,,
2023-12-31T2000,2195A,107.4212,40.761,巴彦淖尔市,附二中,颗粒物(PM10),86,121,59,51,27,11,,54,50,73,25,17,13,1.1,0.5
2023-12-31T2000,2196A,107.37,40.7372,巴彦淖尔市,市环保大楼,颗粒物(PM10),55,60,52,34,25,12,,53,48,60,25,8,9,0.8,0.5
2023-12-31T2000,1956A,86.1472,41.7538,巴音郭楞州,孔雀公园,颗粒物(PM10),144,237,197,60,55,32,,57,57,55,39,5,7,1.0,0.7
2023-12-31T2000,1957A,86.1972,41.7166,巴音郭楞州,棉纺厂,颗粒物(PM10),135,220,226,55,56,32,,62,62,54,43,3,3,0.9,0.8
2023-12-31T2000,1958A,86.2357,41.7173,巴音郭楞州,经济开发区,颗粒物(PM10),132,214,175,55,47,38,,71,71,58,36,4,4,0.8,0.6
2023-12-31T2000,2914A,106.7677,31.8794,巴中市,苏山坪,细颗粒物(PM2.5),139,134,107,106,80,5,,67,12,43,24,5,4,1.6,1.2
2023-12-31T2000,3182A,106.7656,31.8545,巴中市,丽阳花园,细颗粒物(PM2.5),160,153,125,122,98,4,,9,8,38,36,5,4,1.4,1.1
2023-12-31T2000,3183A,106.7418,31.8654,巴中市,圣泉水务公司,细颗粒物(PM2.5),134,114,98,102,88,3,,16,9,35,33,6,4,1.6,1.2
2023-12-31T2000,3616A,106.7616,31.8344,巴中市,市中心医院,细颗粒物(PM2.5),169,143,112,128,93,4,,9,7,36,35,3,3,1.1,1
2023-12-31T2000,2235A,122.7911,45.6077,白城市,洮北区环保局,细颗粒物(PM2.5),84,76,20,62,17,42,,63,58,35,12,13,9,1.0,0.5
2023-12-31T2000,2236A,122.8738,45.5725,白城市,市环保局,,50,50,35,34,16,6,,64,42,59,16,14,8,0.7,0.5
2023-12-31T2000,2231A,126.4219,41.9171,白山市,喜丰,细颗粒物(PM2.5),80,78,93,59,67,37,,50,48,35,40,13,17,1.3,1.6
2023-12-31T2000,2232A,126.4077,41.9419,白山市,环保局,细颗粒物(PM2.5),107,118,100,80,72,26,,57,54,49,43,14,17,1.3,1.5
2023-12-31T2000,2647A,104.1724,36.5446,白银市,第三小学,颗粒物(PM10),73,96,78,15,28,58,,76,74,22,36,10,65,0.5,1
2023-12-31T2000,2648A,104.1465,36.5482,白银市,动力公司,颗粒物(PM10),63,75,65,12,32,73,,82,82,11,25,4,38,0.3,0.8
2023-12-31T2000,2512A,106.6103,23.9011,百色市,市监测站,细颗粒物(PM2.5),65,78,96,47,61,66,,93,93,26,34,11,15,0.8,1
2023-12-31T2000,2513A,106.6538,23.8859,百色市,市中心血站,细颗粒物(PM2.5),54,55,87,38,63,79,,92,92,18,35,11,20,0.8,1
2023-12-31T2000,3406A,106.6085,23.8798,百色市,祈福高中,细颗粒物(PM2.5),67,64,89,48,61,74,,95,95,17,34,12,15,0.9,1
2023-12-31T2000,2270A,117.396,32.939,蚌埠市,工人疗养院,细颗粒物(PM2.5),158,175,185,120,143,66,,80,80,23,26,8,8,0.9,1
2023-12-31T2000,2271A,117.3605,32.9427,蚌埠市,百货大楼,细颗粒物(PM2.5),160,174,195,122,152,61,,75,75,37,34,5,5,1.1,1.2
2023-12-31T2000,2273A,117.4185,32.8911,蚌埠市,蚌埠学院,细颗粒物(PM2.5),135,161,172,103,134,52,,81,80,50,30,4,4,0.9,1
2023-12-31T2000,2274A,117.3533,32.9673,蚌埠市,淮上区政府,细颗粒物(PM2.5),185,193,206,139,171,54,,72,72,39,34,6,6,1.0,1.1
2023-12-31T2000,2275A,117.3145,32.8977,蚌埠市,高新区,细颗粒物(PM2.5),212,210,181,162,155,16,,76,72,90,55,11,15,1.4,1.3
2023-12-31T2000,3715A,117.3092,32.9314,蚌埠市,蚌埠田家炳中学,细颗粒物(PM2.5),207,212,212,157,170,27,,68,66,67,47,4,6,1.2,1.1
2023-12-31T2000,1585A,109.8756,40.6532,包头市,市环境监测站,颗粒物(PM10),53,56,32,33,21,23,,50,47,58,34,14,14,1.1,0.9
2023-12-31T2000,1587A,109.9991,40.5842,包头市,包头八中,细颗粒物(PM2.5),67,71,62,48,32,40,,50,50,41,38,10,16,0.9,1
2023-12-31T2000,1588A,109.8538,40.6821,包头市,青山宾馆,细颗粒物(PM2.5),67,53,34,48,24,6,,52,47,85,42,13,16,1.2,0.9
2023-12-31T2000,1589A,109.8642,40.6288,包头市,惠龙物流,,45,43,32,31,22,44,,57,57,38,31,11,13,0.8,0.7
2023-12-31T2000,1590A,110.0377,40.5546,包头市,东河鸿龙湾,细颗粒物(PM2.5),73,66,43,53,29,24,,57,54,56,37,12,14,0.8,0.8
2023-12-31T2000,3283A,109.9154,40.5685,包头市,滨河大厦,细颗粒物(PM2.5),55,52,34,39,26,35,,59,58,38,31,6,9,0.8,0.8
2023-12-31T2000,3419A,109.9447,40.6261,包头市,包头市委党校,细颗粒物(PM2.5),60,60,40,43,26,8,,51,46,80,45,16,17,1.3,1
2023-12-31T2000,3683A,109.8331,40.6576,包头市,昆区政府,细颗粒物(PM2.5),57,47,31,40,21,36,,59,53,52,34,14,13,0.9,0.7
2023-12-31T2000,1930A,107.185,34.3063,宝鸡市,庙沟村,颗粒物(PM10),68,85,73,42,44,45,,66,66,21,11,10,10,0.6,0.6
2023-12-31T2000,1931A,107.0708,34.3017,宝鸡市,竹园沟,细颗粒物(PM2.5),122,108,67,92,48,45,,74,73,30,25,5,5,1.0,0.7
2023-12-31T2000,1932A,107.1906,34.3672,宝鸡市,三陆医院,细颗粒物(PM2.5),68,81,94,49,59,46,,71,71,48,41,9,9,0.7,0.8
2023-12-31T2000,1933A,107.1431,34.3547,宝鸡市,监测站,细颗粒物(PM2.5),90,92,80,67,49,38,,71,70,55,39,7,6,0.9,0.8
2023-12-31T2000,1934A,107.1186,34.3739,宝鸡市,技工学校,颗粒物(PM10),64,78,83,44,55,44,,75,74,54,34,10,8,0.7,0.7
2023-12-31T2000,1935A,107.3906,34.3528,宝鸡市,陈仓区环保局家属楼,细颗粒物(PM2.5),89,107,114,66,74,27,,69,67,77,50,9,16,0.8,1.1
2023-12-31T2000,1936A,107.2058,34.3497,宝鸡市,文理学院,细颗粒物(PM2.5),84,83,89,62,49,34,,77,76,62,40,9,8,0.9,0.9
2023-12-31T2000,1937A,107.2386,34.3622,宝鸡市,三迪小学,颗粒物(PM10),67,83,90,46,54,40,,69,68,56,43,9,8,0.9,1
2023-12-31T2000,1051A,115.493,38.8632,保定市,游泳馆,细颗粒物(PM2.5),85,111,168,63,156,8,,50,40,61,41,3,4,1.0,1.8
2023-12-31T2000,1052A,115.5213,38.8959,保定市,华电二区,细颗粒物(PM2.5),87,93,147,64,160,11,,46,40,53,42,4,4,0.7,1.4
2023-12-31T2000,1053A,115.4713,38.9108,保定市,接待中心,细颗粒物(PM2.5),84,109,161,62,151,6,,48,37,66,48,1,2,0.9,1.6
2023-12-31T2000,1054A,115.4612,38.8416,保定市,地表水厂,细颗粒物(PM2.5),82,74,163,60,167,12,,40,34,73,58,3,3,0.4,1.2
2023-12-31T2000,1056A,115.5086,38.8639,保定市,监测站,细颗粒物(PM2.5),75,80,157,55,150,9,,44,38,75,59,1,4,0,0.8
2023-12-31T2000,3581A,115.31981,38.95208,保定市,满城区生态环境分局,细颗粒物(PM2.5),92,85,134,68,136,3,,42,34,83,48,3,3,0.8,1.6
2023-12-31T2000,3582A,115.47694,38.76408,保定市,清苑区第二中学,细颗粒物(PM2.5),67,74,172,48,145,28,,49,45,46,50,3,2,0.6,1.4
2023-12-31T2000,3583A,115.62909,39.02311,保定市,徐水物探局,细颗粒物(PM2.5),79,92,181,58,149,2,,39,33,73,52,1,4,0.7,1.6
2023-12-31T2000,4004A,115.4202,38.8656,保定市,双鹰农机,细颗粒物(PM2.5),84,94,152,62,137,8,,49,39,73,51,1,3,0.8,1.5
2023-12-31T2000,2594A,99.1678,25.1081,保山市,市环境监测站,,34,34,19,13,14,62,,76,76,8,9,5,6,0.4,0.4
2023-12-31T2000,2595A,99.1711,25.1328,保山市,市环保局,,29,26,23,20,16,65,,78,78,3,7,5,5,0.4,0.5
2023-12-31T2000,1866A,109.2262,21.588,北海市,牛尾岭水库,,,,,,,,,,,,,,,,
2023-12-31T2000,1867A,109.1436,21.4086,北海市,海滩公园,细颗粒物(PM2.5),95,92,58,71,46,14,,85,80,98,43,9,10,1.5,0.9
2023-12-31T2000,1868A,109.0981,21.4661,北海市,新市环保局,细颗粒物(PM2.5),85,75,55,63,49,49,,91,89,55,33,8,12,1.1,0.8
2023-12-31T2000,1869A,109.1778,21.5233,北海市,北海工业园,颗粒物(PM10),71,91,72,46,48,17,,75,72,72,35,8,13,0.8,0.6
2023-12-31T2000,3400A,109.1911,21.4415,北海市,龙潭自来水厂,细颗粒物(PM2.5),65,55,51,47,45,80,,100,100,18,22,10,11,0.6,0.6
2023-12-31T2000,1001A,116.3621,39.8784,北京市,万寿西宫,,31,31,21,13,8,42,,62,56,35,18,3,2,0.3,0.2
2023-12-31T2000,1002A,116.2202,40.2915,北京市,定陵,,23,23,20,11,9,40,,61,54,9,6,2,3,0.2,0.2
2023-12-31T2000,1003A,116.4174,39.9289,北京市,东四,,45,45,27,15,10,37,,56,49,28,14,2,2,0.4,0.4
2023-12-31T2000,1004A,116.4072,39.8863,北京市,天坛,,30,30,21,12,9,37,,65,57,29,18,3,2,0.2,0.2
2023-12-31T2000,1005A,116.462,39.9365,北京市,农展馆,,40,40,24,15,9,51,,62,58,30,17,1,2,0.2,0.1
2023-12-31T2000,1006A,116.3392,39.9295,北京市,官园,,39,39,26,14,10,50,,66,62,29,15,2,1,0.4,0.3
2023-12-31T2000,1007A,116.2878,39.9611,北京市,海淀万柳,,39,39,25,12,9,43,,60,52,33,20,3,3,0.5,0.4
2023-12-31T2000,1008A,116.6636,40.135,北京市,顺义新城,颗粒物(PM10),60,70,30,23,11,14,,66,55,64,14,3,3,0.5,0.2
2023-12-31T2000,1009A,116.6275,40.3275,北京市,怀柔镇,颗粒物(PM10),51,52,26,27,10,32,,66,58,33,13,3,2,0.7,0.4
2023-12-31T2000,1010A,116.2296,40.217,北京市,昌平镇,,50,50,27,27,6,43,,64,57,17,11,1,2,0.2,0.2
2023-12-31T2000,1011A,116.3966,39.9821,北京市,奥体中心,,42,42,24,15,9,43,,62,57,35,19,1,1,0.4,0.2
2023-12-31T2000,1012A,116.184,39.9136,北京市,古城,,48,48,26,16,9,29,,62,51,44,15,1,2,0.5,0.4
2023-12-31T2000,3281A,115.9718,40.4529,北京市,延庆夏都,,41,41,25,20,11,18,,63,54,45,12,1,2,0.5,0.2
2023-12-31T2000,3417A,117.0709,40.1465,北京市,平谷新城,颗粒物(PM10),53,56,33,29,16,18,,77,66,55,20,1,2,0.5,0.3
2023-12-31T2000,3418A,116.8336,40.4095,北京市,密云新城,颗粒物(PM10),51,52,33,22,16,35,,76,70,39,12,3,3,0.4,0.2
2023-12-31T2000,3671A,116.088,39.9726,北京市,门头沟三家店,,,,,,,,,,,,,,,,
2023-12-31T2000,3672A,116.1541,39.8204,北京市,丰台云岗,,50,50,22,19,9,28,,63,52,46,17,3,2,0.4,0.2
2023-12-31T2000,3673A,116.6804,39.9081,北京市,通州东关,,40,40,25,15,9,31,,63,53,49,23,1,2,0.4,0.2
2023-12-31T2000,3674A,115.9577,39.7603,北京市,房山燕山,,35,35,24,17,11,31,,66,50,40,20,3,3,0.3,0.2
2023-12-31T2000,3675A,116.4672,39.7733,北京市,大兴旧宫,,25,25,22,9,11,33,,59,52,36,25,3,3,0.3,0.2
2023-12-31T2000,3694A,115.986,40.4563,北京市,延庆石河营,,37,37,23,19,10,12,,65,53,47,9,3,2,0.6,0.3
2023-12-31T2000,3695A,116.6151,40.3053,北京市,怀柔新城,,33,33,23,15,10,49,,67,64,11,7,3,2,0.3,0.2
2023-12-31T2000,3696A,116.2545,39.8768,北京市,丰台小屯,,38,38,25,13,9,4,,58,43,71,21,3,2,0.4,0.3
2023-12-31T2000,3697A,116.84,40.3844,北京市,密云镇,颗粒物(PM10),65,79,38,33,18,8,,68,51,60,19,1,2,0.6,0.3
2023-12-31T2000,1761A,123.8275,41.3064,本溪市,大峪,颗粒物(PM10),56,62,83,39,67,37,,42,42,38,35,9,10,1.2,1.1
2023-12-31T2000,1762A,123.7567,41.3325,本溪市,溪湖,细颗粒物(PM2.5),57,51,85,40,70,43,,48,48,28,27,14,14,0.8,1
2023-12-31T2000,1763A,123.7169,41.3094,本溪市,彩屯,细颗粒物(PM2.5),83,75,86,61,74,37,,44,43,39,34,13,7,1.2,1.2
2023-12-31T2000,1764A,123.7669,41.2864,本溪市,东明,细颗粒物(PM2.5),74,54,72,54,79,40,,44,44,34,35,11,11,0.8,0.9
2023-12-31T2000,1765A,123.7992,41.2664,本溪市,新立屯,细颗粒物(PM2.5),70,61,75,51,66,38,,43,42,36,35,10,10,0.9,1
2023-12-31T2000,1766A,123.8142,41.3472,本溪市,威宁,细颗粒物(PM2.5),69,64,99,50,74,26,,44,40,50,35,5,5,1.0,1.2
2023-12-31T2000,2587A,105.2864,27.3125,毕节市,八中,细颗粒物(PM2.5),120,106,88,91,75,76,,90,90,14,20,7,10,0.9,1
2023-12-31T2000,2588A,105.31,27.2944,毕节市,师专,细颗粒物(PM2.5),127,109,84,96,71,,,92,92,19,26,8,11,0.9,1
2023-12-31T2000,3537A,105.3631,27.3533,毕节市,长征村,细颗粒物(PM2.5),159,132,77,121,73,78,,92,92,15,16,8,11,0.9,0.8
2023-12-31T2000,1629A,118.0018,37.3617,滨州市,第二水厂,颗粒物(PM10),52,53,151,24,109,44,,46,46,28,44,17,11,0.6,1.4
2023-12-31T2000,1630A,117.9776,37.393,滨州市,北中新校,颗粒物(PM10),59,68,153,24,113,41,,47,47,31,42,8,8,0.4,1
2023-12-31T2000,3514A,117.9378,37.3956,滨州市,中海酒店,颗粒物(PM10),54,58,137,28,112,56,,57,57,18,39,11,11,0.6,1.2
2023-12-31T2000,3515A,117.9378,37.3553,滨州市,开发区一中,颗粒物(PM10),55,59,154,23,114,39,,41,41,26,44,19,15,0.4,1.1
2023-12-31T2000,3516A,118.0917,37.694,滨州市,金海六路,颗粒物(PM10),58,65,140,33,112,36,,47,47,29,40,7,7,0.4,1.1
2023-12-31T2000,4028A,117.9956,37.3753,滨州市,滨州市西街道办事处,颗粒物(PM10),54,57,146,27,115,44,,47,47,23,37,14,10,0.6,1.3
2023-12-31T2000,2311A,115.8072,33.8399,亳州市,污水处理厂,细颗粒物(PM2.5),180,191,181,136,136,24,,41,41,38,30,4,4,1.4,1.3
2023-12-31T2000,2312A,115.7789,33.8518,亳州市,三国揽胜宫,细颗粒物(PM2.5),196,214,223,147,134,31,,40,40,38,33,5,5,1.5,1.4
2023-12-31T2000,3332A,115.7633,33.8034,亳州市,亳州学院,细颗粒物(PM2.5),168,193,200,127,136,43,,46,46,27,29,3,3,1.3,1.2
2023-12-31T2000,2693A,82.0485,44.8556,博尔塔拉蒙古自治州,市党校,颗粒物(PM10),53,56,49,36,28,30,,40,29,26,16,15,12,0.5,0.6
2023-12-31T2000,2694A,82.0806,44.8969,博尔塔拉蒙古自治州,市环保局,颗粒物(PM10),58,66,62,32,32,29,,28,28,34,28,22,10,0.4,0.7
2023-12-31T2000,1071A,116.8842,38.2991,沧州市,沧县城建局,细颗粒物(PM2.5),99,103,133,74,118,28,,59,44,47,52,6,4,0.6,1
2023-12-31T2000,1072A,116.8584,38.3254,沧州市,电视转播站,细颗粒物(PM2.5),79,96,128,58,105,20,,58,47,53,52,7,8,0.8,1.1
2023-12-31T2000,1073A,116.8709,38.3228,沧州市,市环保局,细颗粒物(PM2.5),92,93,129,68,111,20,,58,47,44,43,4,4,0.9,1.2
2023-12-31T2000,3324A,116.8136,38.3004,沧州市,河北水利电力学院,细颗粒物(PM2.5),90,95,134,67,115,18,,59,46,49,47,9,9,0.9,1.2
2023-12-31T2000,2622A,97.1806,31.1273,昌都市,昌都监测站,颗粒物(PM10),54,58,30,37,16,17,,48,44,58,24,8,6,1.6,0.8
2023-12-31T2000,3719A,97.1714,31.1406,昌都市,昌都会议中心,,28,23,11,19,10,46,,64,63,22,10,4,4,0.7,0.5
2023-12-31T2000,2690A,88.1236,43.8886,昌吉州,天山天池,,21,11,10,2,5,67,,65,65,4,5,6,6,0.4,0.4
2023-12-31T2000,2692A,87.2717,44.0297,昌吉州,新区政务中心,细颗粒物(PM2.5),88,89,60,65,40,22,,36,36,52,30,4,4,1.1,0.8
2023-12-31T2000,3613A,87.3095,44.0142,昌吉州,亚心广场,细颗粒物(PM2.5),98,90,53,73,43,17,,37,35,48,24,4,5,1.2,0.9
2023-12-31T2000,1119A,125.3325,43.9166,长春市,食品厂,细颗粒物(PM2.5),108,,51,81,56,15,,51,42,61,28,11,9,0.9,0.7
2023-12-31T2000,1120A,125.2863,43.9027,长春市,客车厂,细颗粒物(PM2.5),165,,51,125,59,17,,48,39,62,32,14,11,0.9,0.7
2023-12-31T2000,1121A,125.2841,43.8463,长春市,邮电学院,细颗粒物(PM2.5),67,62,62,48,54,11,,45,37,62,38,28,24,0.6,0.6
2023-12-31T2000,1122A,125.3716,43.8772,长春市,劳动公园,细颗粒物(PM2.5),65,,52,47,63,27,,56,48,52,29,10,11,0.8,0.8
2023-12-31T2000,1123A,125.3297,43.8805,长春市,园林处,细颗粒物(PM2.5),57,61,50,40,47,21,,46,33,56,35,14,11,0.7,0.7
2023-12-31T2000,1124A,125.4605,43.79,长春市,净月潭,,43,39,58,30,47,34,,52,47,25,22,6,10,0.6,0.7
2023-12-31T2000,1125A,125.7194,43.515,长春市,甩湾子,,,,,,,,,,,,,,,,
2023-12-31T2000,1126A,125.3863,43.8447,长春市,经开区环卫处,细颗粒物(PM2.5),55,45,60,39,48,20,,50,41,53,29,9,10,0.7,0.7
2023-12-31T2000,1127A,125.245,43.7783,长春市,高新区管委会,细颗粒物(PM2.5),73,54,56,53,52,10,,52,40,65,32,15,18,0.9,0.9
2023-12-31T2000,1128A,125.1761,43.8325,长春市,岱山公园,细颗粒物(PM2.5),67,53,53,48,46,30,,59,53,44,25,8,9,0.7,0.7
2023-12-31T2000,1335A,113.0833,28.2325,长沙市,经开区环保局,,,,176,61,147,89,,93,93,31,47,6,6,0.6,1.1
2023-12-31T2000,1336A,112.8872,28.2189,长沙市,高开区环保局,细颗粒物(PM2.5),84,106,189,62,155,84,,96,96,24,45,6,6,0.5,1.4
2023-12-31T2000,1337A,113.0792,28.2053,长沙市,马坡岭,细颗粒物(PM2.5),94,115,184,70,158,80,,79,79,34,52,7,6,0.2,0.9
2023-12-31T2000,1338A,112.9394,28.19,长沙市,湖南师范大学,颗粒物(PM10),82,113,188,55,160,90,,95,95,17,30,5,4,0.7,1.4
2023-12-31T2000,1339A,113.0178,28.1322,长沙市,雨花区环保局,细颗粒物(PM2.5),105,116,188,79,169,82,,84,84,27,52,4,4,1.1,1.8
2023-12-31T2000,1340A,112.9792,28.2597,长沙市,伍家岭,颗粒物(PM10),72,93,182,48,141,83,,88,88,24,38,6,5,0.9,1.4
2023-12-31T2000,1341A,113.0014,28.1944,长沙市,火车新站,细颗粒物(PM2.5),85,102,193,63,153,88,,88,88,19,45,4,3,0.8,1.7
2023-12-31T2000,1342A,112.9844,28.1178,长沙市,天心区环保局,颗粒物(PM10),79,107,194,50,138,92,,92,92,24,53,4,7,0.5,1.4
2023-12-31T2000,1343A,112.8908,28.1308,长沙市,湖南中医药大学,细颗粒物(PM2.5),90,109,187,67,159,87,,94,94,18,32,4,4,0.4,1.4
2023-12-31T2000,1344A,112.9581,28.3611,长沙市,沙坪,,,60,139,45,102,86,,95,95,,26,6,5,0.9,1.4
2023-12-31T2000,1727A,113.1147,36.1547,长治市,清华站,颗粒物(PM10),69,87,64,44,30,34,,51,47,47,42,21,22,0.9,0.8
2023-12-31T2000,1728A,113.1031,36.1989,长治市,监测站,细颗粒物(PM2.5),89,80,56,66,31,12,,57,50,81,48,23,22,1.0,0.7
2023-12-31T2000,1730A,113.0886,36.2125,长治市,审计局,细颗粒物(PM2.5),64,73,55,46,30,19,,59,54,63,41,17,23,1.1,0.7
2023-12-31T2000,1731A,113.0844,36.1856,长治市,长治八中,颗粒物(PM10),77,104,64,45,29,12,,59,51,77,44,35,25,1.1,0.8
2023-12-31T2000,2845A,113.1569,36.1911,长治市,德盛苑,,49,46,53,34,28,37,,60,58,43,29,16,27,0.8,0.7
2023-12-31T2000,3568A,113.06,36.0464,长治市,向阳小学,细颗粒物(PM2.5),77,102,72,56,33,43,,73,66,49,40,16,18,0.9,0.8
2023-12-31T2000,3569A,112.8792,36.3144,长治市,屯留一中,颗粒物(PM10),75,99,53,50,22,39,,75,71,70,46,49,19,1.0,0.6
2023-12-31T2000,3570A,113.235,36.3489,长治市,潞城四中,细颗粒物(PM2.5),87,84,68,64,30,33,,68,63,40,26,13,18,1.1,0.7
2023-12-31T2000,1854A,111.6975,28.9703,常德市,市二中,细颗粒物(PM2.5),114,116,147,86,99,94,,105,105,19,18,7,6,0.8,1
2023-12-31T2000,1857A,111.7158,29.1456,常德市,白鹤山,细颗粒物(PM2.5),92,103,160,68,119,53,,57,57,16,14,4,4,0.6,0.9
2023-12-31T2000,3138A,111.7153,29.0289,常德市,武陵区永安,细颗粒物(PM2.5),108,117,137,81,110,84,,96,96,24,22,7,7,0.8,1
2023-12-31T2000,3139A,111.6892,28.9881,常德市,鼎城区玉霞,细颗粒物(PM2.5),114,119,146,86,106,89,,100,100,24,21,9,8,0.9,1.1
2023-12-31T2000,3140A,111.6625,29.0531,常德市,武陵区长庚,细颗粒物(PM2.5),108,121,149,81,91,84,,95,95,20,20,6,5,0.8,1
2023-12-31T2000,1196A,119.9633,31.762,常州市,市监测站,细颗粒物(PM2.5),200,189,193,150,153,70,,84,84,49,55,8,9,1.2,1.2
2023-12-31T2000,1200A,119.9468,31.7069,常州市,武进监测站,细颗粒物(PM2.5),189,189,197,142,146,71,,81,81,28,41,8,10,1.2,1.3
2023-12-31T2000,1201A,119.9255,31.9087,常州市,安家,细颗粒物(PM2.5),190,175,187,143,153,71,,81,81,31,42,8,8,1.3,1.4
2023-12-31T2000,3002A,119.9805,31.8174,常州市,行政中心,细颗粒物(PM2.5),195,177,184,146,152,63,,81,81,43,39,10,13,1.3,1.4
2023-12-31T2000,3003A,120.0522,31.7748,常州市,经开区,细颗粒物(PM2.5),204,198,193,154,159,49,,84,81,42,29,4,6,1.1,1.1
2023-12-31T2000,3010A,119.9025,31.7964,常州市,钟楼,细颗粒物(PM2.5),200,170,185,150,160,65,,77,77,34,44,7,8,1.2,1.3
2023-12-31T2000,3429A,119.8598,31.7066,常州市,武进经发区,细颗粒物(PM2.5),207,192,199,157,137,51,,76,74,54,40,7,7,1.4,1.6
2023-12-31T2000,3430A,119.5826,31.7245,常州市,金坛城区,细颗粒物(PM2.5),204,192,182,154,142,80,,88,88,28,28,8,9,1.3,1.2
2023-12-31T2000,2220A,120.4318,41.5881,朝阳市,西梁,,30,30,35,19,25,49,,62,59,21,17,12,18,0.8,0.8
2023-12-31T2000,2221A,120.4521,41.5646,朝阳市,河畔小区,,28,,32,19,22,58,,64,62,15,14,8,20,0.6,0.7
2023-12-31T2000,2222A,120.4176,41.5648,朝阳市,八里堡,,32,32,32,22,27,48,,62,59,23,18,11,15,0.9,0.7
2023-12-31T2000,2223A,120.3806,41.5969,朝阳市,农业园区,,40,40,36,24,33,43,,62,56,26,18,9,8,0.8,0.7
2023-12-31T2000,1705A,116.6367,23.6719,潮州市,西园路,颗粒物(PM10),63,75,70,40,42,124,,131,131,15,23,4,4,0.5,0.6
2023-12-31T2000,1706A,116.6447,23.6706,潮州市,档案局,细颗粒物(PM2.5),64,,55,46,53,122,,127,127,15,24,7,7,0.6,0.7
2023-12-31T2000,3026A,116.6183,23.6608,潮州市,市政府,细颗粒物(PM2.5),63,62,59,45,49,112,,127,127,22,30,7,12,0.8,0.9
2023-12-31T2000,2472A,113.0073,25.9061,郴州市,马头岭,细颗粒物(PM2.5),122,162,170,92,100,105,,108,108,23,47,8,11,1.4,1.5
2023-12-31T2000,2473A,113.0116,25.8226,郴州市,市职中,细颗粒物(PM2.5),186,154,141,140,124,106,,116,116,26,39,8,10,1.4,1.4
2023-12-31T2000,2474A,113.0161,25.8001,郴州市,兴隆步行街,细颗粒物(PM2.5),196,174,166,147,135,109,,122,122,29,46,6,8,1.4,1.4
2023-12-31T2000,2475A,113.0383,25.8071,郴州市,市审计局,细颗粒物(PM2.5),195,148,137,146,119,112,,123,123,21,34,8,9,1.2,1.4
2023-12-31T2000,2476A,113.0348,25.7759,郴州市,市环保局,细颗粒物(PM2.5),192,160,155,144,126,90,,112,111,38,49,7,11,1.5,1.5
2023-12-31T2000,1431A,103.9728,30.7236,成都市,金泉两河,细颗粒物(PM2.5),179,171,174,135,141,26,,16,16,34,38,3,2,1.2,1.2
2023-12-31T2000,1432A,104.176,30.6872,成都市,十里店,细颗粒物(PM2.5),209,180,167,159,143,18,,22,22,44,42,3,3,1.1,1.2
2023-12-31T2000,1433A,104.079,30.5706,成都市,三瓦窑,细颗粒物(PM2.5),201,192,195,151,162,0,,10,10,45,34,2,2,1.5,1.3
2023-12-31T2000,1434A,104.1114,30.63,成都市,沙河铺,细颗粒物(PM2.5),207,169,170,157,153,18,,30,29,54,44,3,3,1.1,1.1
2023-12-31T2000,1437A,104.0786,30.6531,成都市,君平街,细颗粒物(PM2.5),209,184,193,159,166,19,,16,16,50,51,4,3,1.0,1.1
2023-12-31T2000,1438A,103.613,31.0283,成都市,灵岩寺,细颗粒物(PM2.5),148,,124,113,138,68,,51,48,16,28,6,9,1.4,1.5
2023-12-31T2000,2880A,104.0239,30.65639,成都市,大石西路,细颗粒物(PM2.5),199,164,168,149,155,20,,12,12,50,55,2,3,1.2,1.1
2023-12-31T2000,3136A,104.2725,30.5589,成都市,龙泉驿区区政府,细颗粒物(PM2.5),180,173,146,136,117,6,,60,57,61,33,1,2,1.2,1.1
2023-12-31T2000,3357A,104.0106,30.6931,成都市,金博路,细颗粒物(PM2.5),192,164,166,144,146,19,,10,10,39,45,3,3,1.2,1.3
2023-12-31T2000,3359A,104.0578,30.5225,成都市,华阳,细颗粒物(PM2.5),180,178,183,136,154,0,,4,3,71,49,1,2,1.5,1.3
2023-12-31T2000,3487A,104.2394,30.5319,成都市,车城东七路,细颗粒物(PM2.5),206,172,176,156,161,3,,57,52,63,42,1,2,1.2,1.2
2023-12-31T2000,3488A,104.3853,30.7453,成都市,青白江技师分院,细颗粒物(PM2.5),189,155,124,142,110,21,,45,45,41,31,1,1,1.1,1.2
2023-12-31T2000,3489A,104.0789,30.4072,成都市,科学城,细颗粒物(PM2.5),233,203,183,183,165,2,,22,20,63,42,3,3,1.4,1.2
2023-12-31T2000,4011A,103.8506,30.6947,成都市,光华大道三段,细颗粒物(PM2.5),192,159,174,144,160,33,,38,38,35,35,3,3,1.0,1
2023-12-31T2000,1062A,117.9531,40.9081,承德市,铁路,颗粒物(PM10),73,95,68,44,24,10,,63,42,59,23,10,8,1.1,0.4
2023-12-31T2000,1063A,117.9392,40.9763,承德市,中国银行,颗粒物(PM10),68,86,61,33,21,12,,63,50,54,20,3,2,0.8,0.4
2023-12-31T2000,1064A,117.9503,40.928,承德市,开发区,颗粒物(PM10),62,73,60,39,24,17,,68,55,49,20,8,7,0.8,0.4
2023-12-31T2000,1065A,117.8051,40.9655,承德市,文化中心,颗粒物(PM10),75,100,67,42,18,8,,69,50,62,19,8,6,0.8,0.4
2023-12-31T2000,1066A,117.9268,41.0026,承德市,离宫,颗粒物(PM10),52,54,45,34,25,19,,61,50,37,10,3,3,0.5,0.3
2023-12-31T2000,2314A,117.47,30.6618,池州市,池州学院,细颗粒物(PM2.5),122,140,141,92,106,57,,84,82,47,30,10,8,0.7,0.9
2023-12-31T2000,3237A,117.4918,30.6617,池州市,展览馆,细颗粒物(PM2.5),114,141,128,86,89,53,,87,85,53,33,9,7,0.7,1
2023-12-31T2000,3333A,117.5627,30.695,池州市,第八中学,细颗粒物(PM2.5),105,135,106,79,74,58,,80,80,40,29,6,7,1.0,1.2
2023-12-31T2000,3334A,117.5038,30.6243,池州市,第十二中学,细颗粒物(PM2.5),113,126,111,85,87,58,,84,83,41,34,7,6,0.7,1
2023-12-31T2000,1744A,118.9233,42.2816,赤峰市,松山一中,细颗粒物(PM2.5),73,82,49,53,31,15,,56,41,64,37,32,24,1.1,0.8
2023-12-31T2000,1745A,118.9576,42.2728,赤峰市,哈达街,颗粒物(PM10),56,62,49,32,32,28,,51,47,46,36,33,42,0.8,0.8
2023-12-31T2000,1746A,118.8788,42.2554,赤峰市,天义路,,48,48,43,32,30,35,,65,58,45,30,17,16,0.8,0.7
2023-12-31T2000,3058A,119.2658,42.0353,赤峰市,银河街,细颗粒物(PM2.5),69,73,38,50,27,35,,62,56,38,20,29,19,1.4,0.8
2023-12-31T2000,3286A,118.9359,42.3147,赤峰市,桥北物流园区,细颗粒物(PM2.5),79,74,50,58,45,14,,63,50,75,42,35,16,1.3,1
2023-12-31T2000,2521A,107.3476,22.4136,崇左市,市环保局江州分局,颗粒物(PM10),77,104,91,55,55,62,,109,108,35,33,8,8,0.9,0.8
2023-12-31T2000,2522A,107.3702,22.3707,崇左市,城南新区,颗粒物(PM10),62,74,92,43,65,33,,100,96,51,34,7,7,0.7,0.7
2023-12-31T2000,2298A,118.3093,32.3153,滁州市,老年大学,细颗粒物(PM2.5),170,160,148,129,128,49,,94,90,62,31,8,8,1.1,1.1
2023-12-31T2000,2299A,118.3244,32.2786,滁州市,人大宾馆,细颗粒物(PM2.5),205,179,163,155,144,50,,90,86,70,39,6,7,1.0,0.9
2023-12-31T2000,3207A,118.3118,32.3038,滁州市,市政府原办公楼,细颗粒物(PM2.5),148,147,146,113,119,59,,91,88,56,32,10,9,0.8,0.7
2023-12-31T2000,3331A,118.3267,32.2634,滁州市,图书馆,细颗粒物(PM2.5),145,154,151,111,109,72,,95,94,50,39,6,7,1.1,1.1
2023-12-31T2000,2605A,101.5482,25.0441,楚雄州,州环境监测站,,19,18,26,9,18,60,,69,69,10,20,5,7,0.5,0.6
2023-12-31T2000,2606A,101.538,25.0492,楚雄州,市经济开发区,,30,30,29,17,19,48,,63,63,23,22,5,6,0.6,0.6
2023-12-31T2000,2548A,107.5277,31.2827,达州市,达州职业技术学院,细颗粒物(PM2.5),156,146,133,119,101,9,,18,16,40,28,10,8,1.6,1.2
2023-12-31T2000,2549A,107.5086,31.2186,达州市,市环境监测站,细颗粒物(PM2.5),211,214,142,161,110,3,,7,6,56,40,17,8,2.5,1.4
2023-12-31T2000,2550A,107.4988,31.2132,达州市,凤凰小区,细颗粒物(PM2.5),218,241,145,168,113,7,,12,10,56,41,20,8,2.9,1.5
2023-12-31T2000,2551A,107.5082,31.1986,达州市,达县机关宾馆,细颗粒物(PM2.5),188,207,137,141,103,5,,9,8,54,45,8,5,2.1,1.4
2023-12-31T2000,2552A,107.4644,31.2124,达州市,市政中心,细颗粒物(PM2.5),218,226,164,168,117,4,,6,6,59,46,10,7,2.7,1.7
2023-12-31T2000,2614A,100.1542,25.7054,大理州,大理市环境监测站,,24,22,21,11,15,74,,73,73,9,10,6,6,0.5,0.6
2023-12-31T2000,2615A,100.2171,25.5811,大理州,大理古城,,41,41,25,14,14,48,,74,72,34,17,6,6,0.5,0.4
2023-12-31T2000,1109A,121.612,38.9741,大连市,甘井子,颗粒物(PM10),51,52,41,28,31,54,,61,60,17,18,6,6,0.6,0.6
2023-12-31T2000,1110A,121.565,38.9511,大连市,周水子,,,,68,40,65,60,,61,61,,19,,9,0.6,0.7
2023-12-31T2000,1111A,121.5637,38.8845,大连市,星海三站,细颗粒物(PM2.5),59,,83,42,67,64,,65,65,16,20,11,11,0.7,0.9
2023-12-31T2000,1112A,121.6302,38.9117,大连市,青泥洼桥,细颗粒物(PM2.5),54,46,76,38,65,59,,62,62,23,27,10,10,0.6,0.9
2023-12-31T2000,1113A,121.6251,38.8638,大连市,傅家庄,细颗粒物(PM2.5),53,39,65,37,62,62,,65,65,18,22,10,12,1.0,1.2
2023-12-31T2000,1114A,121.5213,38.8661,大连市,七贤岭,,48,34,63,33,60,72,,72,72,15,19,11,12,0.9,1.1
2023-12-31T2000,1115A,121.2529,38.8061,大连市,旅顺,,25,18,48,17,50,70,,69,69,10,15,9,9,1.0,1.2
2023-12-31T2000,1116A,121.7485,39.1311,大连市,金州,细颗粒物(PM2.5),64,,64,46,65,61,,67,67,17,18,7,8,0.8,1
2023-12-31T2000,1117A,121.7811,39.0496,大连市,开发区,,50,49,71,35,64,56,,61,60,21,22,10,9,0.6,0.7
2023-12-31T2000,1118A,121.9762,39.0631,大连市,双D港,细颗粒物(PM2.5),59,50,75,42,65,60,,69,68,14,20,9,9,0.9,1
2023-12-31T2000,1789A,124.81117,46.03138,大庆市,大同区,细颗粒物(PM2.5),93,74,30,69,29,29,,48,36,33,17,11,10,1.0,0.5
2023-12-31T2000,1790A,125.129,46.533,大庆市,龙凤区,"颗粒物(PM10),细颗粒物(PM2.5)",72,94,29,52,22,16,,59,33,54,19,9,6,1.2,0.5
2023-12-31T2000,1791A,124.902,46.408,大庆市,红岗区,,34,34,24,21,16,32,,56,46,31,13,7,9,0.6,0.6
2023-12-31T2000,1792A,125.153,46.586,大庆市,萨尔图区,细颗粒物(PM2.5),58,60,19,41,14,16,,62,39,59,14,7,7,0.6,0.3
2023-12-31T2000,1793A,124.9042,46.6215,大庆市,让胡路区,,30,24,25,21,16,16,,47,38,42,9,6,6,0.6,0.4
2023-12-31T2000,3481A,125.141,46.634,大庆市,萨区政府监测点,,38,28,19,26,14,33,,54,41,25,11,8,8,0.5,0.3
2023-12-31T2000,1721A,113.3819,40.1097,大同市,果树场,,,,,,,,,,,,,,,,
2023-12-31T2000,1723A,113.2994,40.0758,大同市,云冈宾馆,颗粒物(PM10),67,84,53,47,27,28,,57,49,59,31,14,18,0.9,0.9
2023-12-31T2000,1724A,113.3444,40.0917,大同市,大同大学,细颗粒物(PM2.5),75,77,51,55,27,11,,60,49,76,34,17,18,1.2,1
2023-12-31T2000,1725A,113.2661,40.1269,大同市,安家小村,"颗粒物(PM10),细颗粒物(PM2.5)",68,86,54,49,30,22,,62,47,59,29,18,20,0.8,0.9
2023-12-31T2000,1726A,113.2711,40.0844,大同市,教育学院,细颗粒物(PM2.5),77,91,60,56,28,20,,48,42,73,44,14,19,0.8,0.6
2023-12-31T2000,3282A,113.3397,40.0597,大同市,大同市卫生学校,细颗粒物(PM2.5),89,75,47,66,28,30,,60,49,53,26,12,14,0.8,0.7
2023-12-31T2000,3565A,113.1367,40.1122,大同市,云冈站,细颗粒物(PM2.5),103,135,70,77,36,16,,58,48,56,32,11,35,0.7,0.6
2023-12-31T2000,3566A,113.1186,40.2556,大同市,图书馆,"颗粒物(PM10),细颗粒物(PM2.5)",52,53,48,36,33,39,,61,58,31,25,11,21,1.0,0.9
2023-12-31T2000,3567A,113.5931,40.0461,大同市,区一中,细颗粒物(PM2.5),80,88,68,59,36,37,,64,57,40,30,19,21,1.3,1
2023-12-31T2000,3676A,113.2802,40.0995,大同市,第二人民医院,细颗粒物(PM2.5),94,117,67,70,34,13,,52,42,80,39,16,17,1.2,0.9
2023-12-31T2000,2269A,124.1069,50.4097,大兴安岭地区,科技局,,32,24,17,22,19,44,,45,45,8,7,6,6,0.5,0.5
2023-12-31T2000,3663A,124.1164,50.4278,大兴安岭地区,红旗社区,,18,,36,12,33,47,,37,34,10,26,5,9,0.3,0.5
2023-12-31T2000,1600A,124.3303,40.0625,丹东市,江湾东路,细颗粒物(PM2.5),87,67,73,64,74,50,,61,60,28,29,14,16,1.0,1.2
2023-12-31T2000,1601A,124.4256,40.1503,丹东市,临江后街,细颗粒物(PM2.5),78,71,76,57,64,50,,56,56,26,28,11,13,1.2,1.4
2023-12-31T2000,1602A,124.3933,40.1461,丹东市,元宝山,细颗粒物(PM2.5),80,64,73,59,70,41,,54,53,23,23,13,13,1.3,1.4
2023-12-31T2000,1603A,124.3633,40.1092,丹东市,民主桥,细颗粒物(PM2.5),80,72,79,59,79,41,,53,51,29,28,13,12,1.1,1.2
2023-12-31T2000,3541A,109.5726,19.5167,儋州市,第一中学子站,颗粒物(PM10),56,62,31,35,16,114,,104,104,10,4,4,4,1.0,0.7
2023-12-31T2000,3542A,109.5567,19.5187,儋州市,东坡学校子站,细颗粒物(PM2.5),59,61,33,42,19,125,,114,114,12,6,5,6,0.7,0.6
2023-12-31T2000,2616A,98.5842,24.428,德宏州,德宏州监测站,细颗粒物(PM2.5),55,58,41,39,26,40,,64,64,25,23,14,18,0.8,0.6
2023-12-31T2000,3677A,98.5881,24.4368,德宏州,芒市人民政府综合楼,,49,49,34,24,20,43,,62,62,24,18,13,12,0.6,0.4
2023-12-31T2000,1901A,104.4239,31.1208,德阳市,东山公园,细颗粒物(PM2.5),205,,102,155,87,26,,44,44,36,22,1,3,1.1,0.9
2023-12-31T2000,1902A,104.3826,31.1317,德阳市,西小区,细颗粒物(PM2.5),224,,122,174,122,14,,29,29,50,29,3,3,1.3,1.1
2023-12-31T2000,1904A,104.3553,31.1091,德阳市,耐火材料厂,细颗粒物(PM2.5),208,172,138,158,135,15,,28,28,39,28,3,4,1.1,1.2
2023-12-31T2000,3639A,104.4019,31.1244,德阳市,市教育局,细颗粒物(PM2.5),211,,114,161,107,15,,33,33,46,28,3,3,1.2,1
2023-12-31T2000,1622A,116.3032,37.4674,德州市,儿童乐园,细颗粒物(PM2.5),94,102,163,70,124,22,,32,,64,51,7,9,1.2,1.8
2023-12-31T2000,1624A,116.2991,37.4451,德州市,监理站,细颗粒物(PM2.5),100,107,141,75,112,32,,56,53,69,55,9,8,1.2,1.6
2023-12-31T2000,3066A,116.2721,37.4379,德州市,九衢泉纯净水厂,细颗粒物(PM2.5),93,105,129,69,97,30,,50,49,68,55,12,7,1.3,1.8
2023-12-31T2000,3371A,116.3728,37.4403,德州市,开发区人民医院,细颗粒物(PM2.5),100,117,164,75,113,11,,54,44,78,52,7,4,1.3,1.7
2023-12-31T2000,3372A,116.3572,37.4094,德州市,太阳城中学,细颗粒物(PM2.5),103,106,142,77,115,12,,50,44,70,45,9,5,1.2,1.7
2023-12-31T2000,3511A,116.5652,37.3319,德州市,陵城艺术中心,细颗粒物(PM2.5),156,151,145,119,113,21,,53,51,58,39,11,4,1.5,1.6
2023-12-31T2000,2621A,99.7056,27.8317,迪庆州,迪庆州站,,28,28,30,18,17,67,,80,79,20,13,9,9,0.7,0.6
2023-12-31T2000,3180A,99.7136,27.8094,迪庆州,质量技术监督局,,40,,28,28,19,76,,83,83,8,13,7,7,0.5,0.7
2023-12-31T2000,2663A,104.6241,35.5734,定西市,东关小学,细颗粒物(PM2.5),92,92,100,68,57,61,,67,67,14,27,16,23,0.6,1.3
2023-12-31T2000,2664A,104.6194,35.5934,定西市,供电公司,颗粒物(PM10),80,110,74,50,62,37,,71,71,34,31,14,23,0.6,1.3
2023-12-31T2000,1389A,113.7547,23.0494,东莞市,莞城梨川,颗粒物(PM10),66,81,103,35,58,58,,102,102,56,43,8,7,1.2,0.9
2023-12-31T2000,1390A,113.7944,23.0128,东莞市,东城石井,,26,24,66,18,57,50,,103,101,18,28,7,8,0.7,0.8
2023-12-31T2000,1391A,113.7383,22.9658,东莞市,南城西平,,36,36,72,22,56,65,,108,108,45,50,6,6,0.9,0.9
2023-12-31T2000,3319A,113.7338,23.0381,东莞市,万江金泰,细颗粒物(PM2.5),68,69,86,49,75,45,,99,99,61,39,12,11,1.1,0.8
2023-12-31T2000,3626A,113.7533,23.0202,东莞市,南城元岭,颗粒物(PM10),54,57,77,31,58,31,,108,105,68,38,8,8,1.4,1.1
2023-12-31T2000,3627A,113.7875,23.0457,东莞市,东城主山,,46,46,56,31,48,55,,105,105,51,39,8,7,1.0,0.8
2023-12-31T2000,1666A,118.6614,37.4309,东营市,市环保局,,31,31,142,14,113,62,,71,71,13,32,7,8,0.3,0.9
2023-12-31T2000,3036A,118.6904,37.4338,东营市,开发区管委会,,32,32,145,17,116,68,,75,74,22,45,4,5,0.4,1
2023-12-31T2000,3365A,118.5719,37.565,东营市,垦利区民丰路,,39,39,152,19,115,54,,66,66,26,41,8,8,0.4,1.1
2023-12-31T2000,3498A,118.5055,37.8612,东营市,河口城区,颗粒物(PM10),57,63,160,27,122,57,,62,62,19,44,3,4,0.4,1.3
2023-12-31T2000,3646A,118.4978,37.4623,东营市,胜利站,,48,48,172,19,120,60,,68,68,24,44,8,8,0.2,0.9
2023-12-31T2000,3734A,118.35,37.26,东营市,理想之城,,44,44,144,22,104,47,,68,66,39,48,4,5,0.5,1.1
2023-12-31T2000,1591A,110.0023,39.8129,鄂尔多斯市,综合楼,颗粒物(PM10),87,124,51,46,17,16,,54,42,74,41,19,11,0.9,0.6
2023-12-31T2000,1592A,109.9486,39.8261,鄂尔多斯市,巴音孟克林场办事处,颗粒物(PM10),62,73,39,34,20,20,,53,41,63,38,12,13,0.7,0.7
2023-12-31T2000,1593A,109.7736,39.5986,鄂尔多斯市,康泽苑,"颗粒物(PM10),细颗粒物(PM2.5)",52,53,36,36,22,15,,53,46,70,28,9,9,0.9,0.6
2023-12-31T2000,1594A,109.8119,39.5989,鄂尔多斯市,华泰汽车城,,46,46,39,29,21,5,,52,46,79,34,11,10,1.0,0.5
2023-12-31T2000,1595A,109.9734,39.7884,鄂尔多斯市,奥林花园,颗粒物(PM10),79,107,57,46,25,7,,45,35,79,44,12,10,1.5,1
2023-12-31T2000,2436A,114.8938,30.3994,鄂州市,市政府,细颗粒物(PM2.5),189,143,124,142,107,14,,55,50,78,43,7,6,2.1,1.6
2023-12-31T2000,2437A,114.8989,30.3714,鄂州市,赵家坝,细颗粒物(PM2.5),163,,114,124,107,40,,60,60,68,45,6,4,1.5,1.2
2023-12-31T2000,3654A,114.8094,30.4089,鄂州市,精准医疗中心,细颗粒物(PM2.5),202,163,150,152,96,44,,65,64,55,38,10,9,1.6,1.1
2023-12-31T2000,2499A,108.3411,21.6158,防城港市,沙万,,34,34,75,21,45,62,,71,71,24,38,5,15,0.7,1.2
2023-12-31T2000,2500A,108.3514,21.7731,防城港市,防城档案局,颗粒物(PM10),54,57,80,26,36,48,,82,80,27,24,16,7,0.7,0.7
2023-12-31T2000,2501A,108.3506,21.6414,防城港市,大海花园,,32,32,61,21,46,69,,76,76,29,43,5,15,0.6,1.1
2023-12-31T2000,1371A,113.1294,23.0067,佛山市,湾梁,颗粒物(PM10),85,119,113,48,50,54,,142,137,57,47,9,11,1.2,1
2023-12-31T2000,1372A,113.1083,23.0478,佛山市,华材职中,颗粒物(PM10),87,124,99,48,64,8,,136,124,123,60,10,12,1.2,0.8
2023-12-31T2000,1373A,113.144,23.0453,佛山市,南海气象局,细颗粒物(PM2.5),72,75,89,52,57,92,,140,137,53,59,6,6,0.9,0.8
2023-12-31T2000,1374A,113.2881,22.8094,佛山市,顺德苏岗,细颗粒物(PM2.5),119,121,71,90,68,71,,124,122,69,53,8,9,1.3,1
2023-12-31T2000,1376A,112.8383,22.8678,佛山市,高明孔堂,细颗粒物(PM2.5),82,97,63,60,46,77,,114,114,29,26,8,9,0.8,0.6
2023-12-31T2000,1377A,112.8836,23.1588,佛山市,三水监测站,颗粒物(PM10),102,153,94,68,61,17,,103,91,108,52,5,7,1.4,0.9
2023-12-31T2000,1378A,112.867,23.185,佛山市,三水云东海,细颗粒物(PM2.5),85,88,73,63,57,27,,94,86,52,38,4,7,1.0,0.8
2023-12-31T2000,3625A,113.2544,22.7642,佛山市,容桂街道办,细颗粒物(PM2.5),149,173,89,114,66,71,,138,135,82,58,8,7,1.3,1
2023-12-31T2000,1280A,119.3903,26.0543,福州市,鼓山,,,,,,,,,,,,,,,,
2023-12-31T2000,1282A,119.2681,26.0504,福州市,师大,细颗粒物(PM2.5),89,78,74,66,57,128,,133,133,19,37,6,8,0.7,0.7
2023-12-31T2000,1283A,119.2984,26.1028,福州市,五四北路,细颗粒物(PM2.5),84,71,68,62,56,128,,129,129,18,39,4,4,0.7,0.8
2023-12-31T2000,1284A,119.2648,26.0768,福州市,杨桥西路,细颗粒物(PM2.5),80,77,74,59,55,137,,134,134,16,36,4,6,0.8,0.8
2023-12-31T2000,1285A,119.317,26.0746,福州市,紫阳,细颗粒物(PM2.5),73,73,80,53,60,126,,122,122,14,40,6,7,0.8,1
2023-12-31T2000,3048A,119.5799,26.0936,福州市,九龙,颗粒物(PM10),60,69,71,32,56,134,,147,147,14,38,4,5,0.7,0.8
2023-12-31T2000,3526A,119.5189,25.9664,福州市,吴航,颗粒物(PM10),53,56,82,27,52,133,,144,144,13,39,5,6,0.6,0.8
2023-12-31T2000,1755A,123.7977,41.8491,抚顺市,望花区,细颗粒物(PM2.5),58,57,90,41,72,51,,59,59,26,24,3,3,0.7,0.9
2023-12-31T2000,1756A,123.9161,41.8822,抚顺市,顺城区,细颗粒物(PM2.5),64,60,92,46,84,44,,58,57,35,29,5,6,0.6,0.8
2023-12-31T2000,1757A,124.0436,41.8611,抚顺市,东洲区,细颗粒物(PM2.5),88,,87,65,75,56,,60,60,18,23,8,8,0.7,0.9
2023-12-31T2000,1758A,123.9247,41.8642,抚顺市,新抚区,细颗粒物(PM2.5),67,52,89,48,85,26,,60,56,48,26,5,6,0.7,0.7
2023-12-31T2000,1759A,124.0972,41.8961,抚顺市,大伙房水库,细颗粒物(PM2.5),59,50,89,42,71,54,,58,58,18,23,7,9,0.7,0.9
2023-12-31T2000,1760A,123.7086,41.8391,抚顺市,沈抚新城,细颗粒物(PM2.5),55,58,88,39,64,55,,66,64,22,19,4,5,0.6,0.7
2023-12-31T2000,2376A,116.2127,28.0814,抚州市,桐源党溪,细颗粒物(PM2.5),98,102,112,73,92,91,,103,102,17,19,4,4,1.3,1.5
2023-12-31T2000,2377A,116.3544,27.9831,抚州市,市站,细颗粒物(PM2.5),83,94,137,61,107,109,,114,114,23,32,12,20,1.1,1.4
2023-12-31T2000,2378A,116.3565,27.963,抚州市,血防站,细颗粒物(PM2.5),85,93,130,63,110,102,,106,106,20,31,5,8,1.1,1.5
2023-12-31T2000,2379A,116.3564,28.0007,抚州市,采茶剧团,细颗粒物(PM2.5),70,82,132,51,115,91,,98,98,19,28,4,7,1.0,1.3
2023-12-31T2000,2380A,116.385,27.9647,抚州市,医学分院,细颗粒物(PM2.5),79,92,135,58,97,85,,99,99,17,27,6,11,1.0,1.3
2023-12-31T2000,2207A,121.6094,41.998,阜新市,工业园区,,35,35,19,18,15,18,,69,57,63,21,14,7,1.0,0.7
2023-12-31T2000,2208A,121.6697,42.0279,阜新市,长青街,,26,25,21,18,14,47,,70,66,21,12,3,4,0.4,0.3
2023-12-31T2000,2209A,121.6673,42.0705,阜新市,农业园区,,28,,23,19,19,68,,74,73,12,10,8,8,0.8,0.4
2023-12-31T2000,2210A,121.6717,42.0224,阜新市,东苑,,28,20,22,19,13,56,,76,71,26,16,8,6,1.0,0.8
2023-12-31T2000,2211A,121.6506,42.0498,阜新市,玉龙新城,细颗粒物(PM2.5),83,,21,61,17,17,,70,56,68,20,11,6,1.0,0.4
2023-12-31T2000,2301A,115.8277,32.8929,阜阳市,市监测站,细颗粒物(PM2.5),205,195,192,155,164,35,,56,55,41,39,6,7,1.1,1.2
2023-12-31T2000,2303A,115.8554,32.8605,阜阳市,开发区,细颗粒物(PM2.5),170,219,208,129,141,32,,60,57,46,37,7,8,1.3,1.2
2023-12-31T2000,2875A,115.784,32.8892,阜阳市,阜阳职业技术学院,细颗粒物(PM2.5),185,180,178,139,142,41,,61,60,34,35,4,5,1.0,1
2023-12-31T2000,3468A,115.7901,32.8613,阜阳市,市规划展馆,细颗粒物(PM2.5),178,173,181,134,142,47,,64,63,39,35,5,6,1.2,1.2
2023-12-31T2000,3469A,115.836,32.9183,阜阳市,枣园社区,细颗粒物(PM2.5),205,210,200,155,159,25,,55,54,52,43,4,4,1.2,1.2
2023-12-31T2000,2669A,102.9099,34.9841,甘南州,州政府,颗粒物(PM10),59,68,50,33,28,34,,62,62,31,33,13,16,0.9,1
2023-12-31T2000,3380A,102.8914,34.9617,甘南州,甘肃民族师范学院,颗粒物(PM10),71,91,54,28,18,3,,57,52,53,34,17,14,1.0,0.8
2023-12-31T2000,2570A,101.9603,30.0475,甘孜藏族自治州,水桥子,,41,41,25,20,10,28,,70,66,45,26,10,10,0.5,0.3
2023-12-31T2000,3065A,101.9533,29.9972,甘孜藏族自治州,州环保局,,28,28,18,15,6,57,,69,68,19,9,8,8,0.4,0.2
2023-12-31T2000,3414A,115.8347,28.932,赣江新区,桑海产业园,细颗粒物(PM2.5),97,141,176,72,129,99,,112,112,23,34,8,6,0.7,1
2023-12-31T2000,2362A,114.9017,25.9149,赣州市,通天岩,,,,,,,,,,,,,,,,
2023-12-31T2000,2363A,114.9367,25.8664,赣州市,地委,颗粒物(PM10),95,139,103,65,61,118,,122,122,23,36,15,13,1.2,1
2023-12-31T2000,2364A,114.9461,25.8481,赣州市,气象台,细颗粒物(PM2.5),122,140,99,92,65,123,,127,127,26,44,14,15,1.8,1.5
2023-12-31T2000,2365A,114.9322,25.8333,赣州市,市图书馆,细颗粒物(PM2.5),132,149,105,100,72,128,,130,130,25,41,15,16,1.3,1
2023-12-31T2000,2366A,114.8905,25.8471,赣州市,华坚鞋城,细颗粒物(PM2.5),120,126,93,91,70,126,,126,126,22,32,21,20,1.8,1.7
2023-12-31T2000,3109A,115.0093,25.8613,赣州市,赣县区卫计委,细颗粒物(PM2.5),129,133,87,98,65,127,,125,125,24,38,8,8,1.7,1.4
2023-12-31T2000,2683A,106.2319,36.1417,固原市,马园,颗粒物(PM10),96,142,73,36,29,35,,80,70,35,30,8,7,1.0,1
2023-12-31T2000,2684A,106.2792,36.0022,固原市,监测站,颗粒物(PM10),97,143,67,48,31,43,,93,89,42,25,11,7,0.9,0.7
2023-12-31T2000,2685A,106.2375,36.0211,固原市,新区,颗粒物(PM10),79,108,62,37,28,30,,86,82,38,22,9,7,0.7,0.5
2023-12-31T2000,3522A,106.2177,35.9959,固原市,原州区十五小,颗粒物(PM10),68,86,63,31,26,41,,90,83,38,18,9,7,0.5,0.4
2023-12-31T2000,2543A,106.6308,30.5278,广安市,小平旧居,,,,,,,,,,,,,,,,
2023-12-31T2000,2544A,106.6303,30.4576,广安市,市委,细颗粒物(PM2.5),165,144,150,125,125,11,,19,18,31,29,5,5,1.3,1.3
2023-12-31T2000,2545A,106.6271,30.4663,广安市,友谊中学,细颗粒物(PM2.5),166,140,143,126,129,10,,17,17,34,31,7,7,1.5,1.4
2023-12-31T2000,2547A,106.6388,30.4551,广安市,广电花园,细颗粒物(PM2.5),160,128,142,122,126,10,,15,15,32,33,3,3,1.3,1.4
2023-12-31T2000,2902A,106.6351,30.4865,广安市,北辰小学,细颗粒物(PM2.5),176,142,141,133,121,13,,17,17,25,25,5,5,1.4,1.3
2023-12-31T2000,2523A,105.8945,32.4535,广元市,黑石坡,细颗粒物(PM2.5),155,156,106,118,104,,,33,20,76,44,13,7,1.7,1.2
2023-12-31T2000,2524A,105.821,32.4444,广元市,老城,细颗粒物(PM2.5),188,215,157,141,112,5,,14,14,84,56,22,11,2.1,1.4
2023-12-31T2000,2526A,105.8628,32.4287,广元市,监测站,细颗粒物(PM2.5),178,155,126,134,104,6,,14,12,77,51,10,6,1.9,1.3
2023-12-31T2000,3617A,105.8047,32.4166,广元市,经开区,细颗粒物(PM2.5),201,193,163,151,125,4,,11,10,80,60,40,28,2.1,1.7
2023-12-31T2000,1345A,113.2347,23.1423,广州市,广雅中学,"颗粒物(PM10),细颗粒物(PM2.5)",73,95,85,53,61,9,,99,90,124,81,5,6,1.6,1.4
2023-12-31T2000,1346A,113.2612,23.105,广州市,市五中,细颗粒物(PM2.5),87,99,92,64,66,23,,125,116,80,71,7,9,1.6,1.2
2023-12-31T2000,1348A,113.3478,23.0916,广州市,广东商学院,颗粒物(PM10),75,99,76,46,45,4,,111,102,122,68,6,6,1.4,1.2
2023-12-31T2000,1349A,113.4332,23.1047,广州市,市八十六中,颗粒物(PM10),68,85,68,47,47,10,,90,84,122,65,5,5,1.3,1.2
2023-12-31T2000,1350A,113.3505,22.9483,广州市,番禺中学,细颗粒物(PM2.5),83,105,72,61,55,98,,124,124,81,71,5,5,1.1,1
2023-12-31T2000,1351A,113.2146,23.3916,广州市,花都师范,细颗粒物(PM2.5),93,107,79,69,59,72,,128,128,70,58,8,7,1.1,0.8
2023-12-31T2000,1352A,113.2597,23.1331,广州市,市监测站,细颗粒物(PM2.5),88,102,86,65,65,32,,126,118,110,83,5,6,1.4,1
2023-12-31T2000,1353A,113.5618,23.312,广州市,九龙镇镇龙,颗粒物(PM10),51,52,56,35,40,4,,87,80,63,40,5,5,0.9,0.8
2023-12-31T2000,1354A,113.2765,23.1544,广州市,麓湖,,33,33,67,22,48,48,,126,119,42,51,4,5,0.7,0.9
2023-12-31T2000,1355A,113.443,23.3035,广州市,帽峰山森林公园,,29,13,43,13,31,90,,55,55,5,12,13,12,0.2,0.4
2023-12-31T2000,2846A,113.3221,23.1322,广州市,体育西,细颗粒物(PM2.5),59,64,71,42,55,50,,126,121,72,72,6,8,0.9,0.9
2023-12-31T2000,3298A,113.5717,23.5491,广州市,从化街口,细颗粒物(PM2.5),79,75,85,58,64,12,,103,97,60,39,5,6,1.1,0.9
2023-12-31T2000,3299A,113.3472,23.3692,广州市,白云竹料,细颗粒物(PM2.5),89,109,98,66,81,27,,130,123,72,46,6,7,1.7,1.1
2023-12-31T2000,3300A,113.2981,23.237,广州市,白云嘉禾,颗粒物(PM10),71,91,99,48,77,13,,106,90,91,70,7,8,1.2,1.1
2023-12-31T2000,3301A,113.4256,23.1716,广州市,黄埔科学城,,46,42,58,32,54,10,,92,83,69,42,4,4,0.9,0.9
2023-12-31T2000,3302A,113.3942,23.0483,广州市,番禺大学城,颗粒物(PM10),91,132,110,58,45,76,,116,116,77,62,9,8,1.5,1.4
2023-12-31T2000,3303A,113.4922,22.8168,广州市,南沙黄阁,颗粒物(PM10),67,84,82,34,63,54,,101,98,63,66,14,7,1.3,1
2023-12-31T2000,3304A,113.5342,22.7896,广州市,南沙街,颗粒物(PM10),70,89,81,38,58,56,,113,112,55,61,11,8,1.1,0.9
2023-12-31T2000,3443A,113.2902,23.5544,广州市,花都梯面,细颗粒物(PM2.5),63,63,65,45,47,5,,114,92,70,36,5,7,1.0,0.8
2023-12-31T2000,3445A,113.7858,23.7478,广州市,从化良口,,32,28,23,22,19,59,,78,77,7,13,5,5,0.7,0.7
2023-12-31T2000,3446A,113.8051,23.2614,广州市,增城荔城,,49,44,44,34,38,27,,84,81,34,20,5,6,0.8,0.6
2023-12-31T2000,2505A,109.568,23.1478,贵港市,德智高中,细颗粒物(PM2.5),64,60,72,46,53,129,,126,126,19,32,10,15,0.9,0.9
2023-12-31T2000,2506A,109.6047,23.0666,贵港市,江南子站,细颗粒物(PM2.5),87,114,132,64,72,96,,130,130,36,36,11,15,1.1,1.2
2023-12-31T2000,2507A,109.6014,23.0948,贵港市,贵城子站,细颗粒物(PM2.5),99,82,91,74,73,78,,116,116,42,40,12,18,0.7,0.7
2023-12-31T2000,2508A,109.5669,23.1065,贵港市,荷城子站,细颗粒物(PM2.5),100,132,91,75,59,60,,114,113,44,32,12,15,1.5,1.1
2023-12-31T2000,3405A,109.5886,23.1172,贵港市,新世纪学校,细颗粒物(PM2.5),117,122,80,88,54,62,,124,122,52,42,13,15,1.2,1
2023-12-31T2000,1439A,106.6899,26.5998,贵阳市,马鞍山,细颗粒物(PM2.5),83,70,59,61,51,35,,65,65,20,26,4,7,0.8,0.9
2023-12-31T2000,1440A,106.6971,26.5694,贵阳市,市环保站,,,,,,,,,,,,,,,,
2023-12-31T2000,1441A,106.6243,26.6266,贵阳市,鉴湖路,细颗粒物(PM2.5),62,70,65,44,41,46,,74,74,31,35,8,11,0.5,0.6
2023-12-31T2000,1442A,106.7487,26.6343,贵阳市,燕子冲,细颗粒物(PM2.5),85,75,73,63,60,49,,73,73,17,27,16,19,0.8,0.9
2023-12-31T2000,1443A,106.6555,26.4365,贵阳市,碧云窝,,49,48,75,34,52,64,,79,77,17,24,12,15,0.8,0.9
2023-12-31T2000,1444A,106.694,26.5161,贵阳市,中院村,细颗粒物(PM2.5),55,51,114,39,79,54,,61,61,18,44,12,40,0.5,1.5
2023-12-31T2000,1445A,106.7109,26.6027,贵阳市,红边门,细颗粒物(PM2.5),98,83,100,73,77,39,,64,64,23,48,10,44,0.8,1.4
2023-12-31T2000,1446A,106.7164,26.5699,贵阳市,新华路,细颗粒物(PM2.5),98,85,102,73,72,43,,72,72,26,42,8,15,0.7,1.2
2023-12-31T2000,1447A,106.674,26.5424,贵阳市,太慈桥,颗粒物(PM10),53,56,72,36,51,53,,80,80,28,33,8,9,0.6,0.9
2023-12-31T2000,1552A,106.805,26.3003,贵阳市,桐木岭,,,,,,,,,,,,,,,,
2023-12-31T2000,1862A,110.4144,25.3167,桂林市,电子科大尧山校区,细颗粒物(PM2.5),105,110,99,79,75,111,,126,124,13,13,18,10,1.1,0.9
2023-12-31T2000,1863A,110.2819,25.2697,桂林市,监测站,,,,145,,114,94,,118,116,,48,13,12,1.4,1.6
2023-12-31T2000,1864A,110.3089,25.2708,桂林市,龙隐路小学,细颗粒物(PM2.5),175,,117,132,111,108,,130,129,24,36,19,14,1.4,1.4
2023-12-31T2000,1865A,110.2869,25.2178,桂林市,八中,细颗粒物(PM2.5),150,116,130,115,103,85,,120,118,37,38,17,11,1.4,1.2
2023-12-31T2000,3403A,110.1764,25.2381,桂林市,创业大厦,细颗粒物(PM2.5),138,117,140,105,112,112,,131,130,19,42,12,14,0.8,0.9
2023-12-31T2000,3531A,110.296,25.1253,桂林市,旅游学院,细颗粒物(PM2.5),122,102,122,92,105,108,,125,125,17,36,11,11,0.9,0.9
2023-12-31T2000,2674A,100.2561,34.4714,果洛藏族自治州,玛沁县大武镇,颗粒物(PM10),54,57,31,14,13,53,,73,72,18,16,5,11,0.7,0.6
2023-12-31T2000,1129A,126.5422,45.755,哈尔滨市,岭北,,,58,28,56,23,15,,64,56,64,23,14,32,,0
2023-12-31T2000,1130A,126.561,45.8167,哈尔滨市,松北商大,,42,42,28,24,21,12,,61,46,64,26,6,6,0.8,0.5
2023-12-31T2000,1131A,126.979,45.5419,哈尔滨市,阿城会宁,细颗粒物(PM2.5),134,,42,102,32,15,,53,48,62,25,1,14,1.2,1
2023-12-31T2000,1132A,126.599,45.7222,哈尔滨市,南岗学府路,细颗粒物(PM2.5),57,54,42,40,23,21,,50,38,53,31,54,21,0.8,0.6
2023-12-31T2000,1133A,126.689,45.7733,哈尔滨市,太平宏伟公园,,43,42,34,30,23,46,,64,55,26,19,10,8,0.5,0.4
2023-12-31T2000,1134A,126.635,45.7667,哈尔滨市,道外承德广场,,43,40,39,30,22,40,,55,50,34,27,36,11,0.7,0.4
2023-12-31T2000,1135A,126.685,45.7319,哈尔滨市,香坊红旗大街,细颗粒物(PM2.5),173,,32,131,26,15,,52,29,82,38,28,23,1.5,0.6
2023-12-31T2000,1136A,126.6411,45.7258,哈尔滨市,动力和平路,细颗粒物(PM2.5),87,,34,64,31,21,,44,38,53,38,83,24,0.6,0.4
2023-12-31T2000,1137A,126.593,45.7478,哈尔滨市,道里建国路,,49,44,31,34,19,35,,54,46,35,22,1,10,0.1,0.1
2023-12-31T2000,1138A,126.615,45.61,哈尔滨市,平房东轻厂,细颗粒物(PM2.5),107,115,48,80,38,11,,39,28,79,46,45,19,1.4,0.8
2023-12-31T2000,1139A,126.595,45.9855,哈尔滨市,呼兰师专,细颗粒物(PM2.5),90,,34,67,27,29,,64,56,47,15,15,10,1.0,0.6
2023-12-31T2000,1140A,126.6206,45.6842,哈尔滨市,省农科院,细颗粒物(PM2.5),168,,43,127,32,16,,52,38,87,44,47,33,1.9,0.7
2023-12-31T2000,2688A,93.5128,42.8172,哈密地区,地区监测站,颗粒物(PM10),92,134,140,51,55,37,,54,54,45,50,5,8,0.7,1
2023-12-31T2000,2689A,93.4961,42.8328,哈密地区,哈密师范学校,颗粒物(PM10),108,165,145,46,55,47,,53,53,35,48,10,12,1.0,1.7
2023-12-31T2000,2671A,100.9048,36.9639,海北藏族自治州,海晏县西海镇,,34,34,22,12,11,53,,70,70,8,7,10,12,0.4,0.4
2023-12-31T2000,3867A,102.0738,36.5056,海东地区,平安区公安北苑,颗粒物(PM10),74,97,61,34,32,41,,51,51,40,31,39,28,0.9,1
2023-12-31T2000,1409A,110.576,19.9507,海口市,东寨港,,,,,,,,,,,,,,,,
2023-12-31T2000,1410A,110.3232,20.0574,海口市,海南大学,细颗粒物(PM2.5),87,99,56,64,46,188,,195,195,16,25,9,10,0.7,0.6
2023-12-31T2000,1411A,110.283,20.0053,海口市,秀英海南医院,臭氧1小时,70,72,54,44,41,176,,195,195,20,24,10,9,0.6,0.6
2023-12-31T2000,1412A,110.338,19.9969,海口市,海南师范大学,细颗粒物(PM2.5),82,84,54,60,44,178,,195,195,20,18,8,8,0.7,0.6
2023-12-31T2000,1413A,110.33,20.0356,海口市,龙华路环保局宿舍,"细颗粒物(PM2.5),臭氧1小时",79,90,55,58,42,183,,197,197,19,19,9,9,0.7,0.6
2023-12-31T2000,3539A,110.5111,19.9736,海口市,桂林洋子站,细颗粒物(PM2.5),80,77,56,59,40,180,,188,188,15,22,7,7,0.6,0.5
2023-12-31T2000,2673A,100.6188,36.2866,海南藏族自治州,共和县恰卜恰镇,颗粒物(PM10),62,73,37,25,20,10,,58,54,48,26,20,18,0.9,0.7
2023-12-31T2000,2676A,97.3731,37.3753,海西蒙古族藏族自治州,德令哈市,,43,43,35,23,12,45,,69,67,23,10,14,13,0.7,0.5
2023-12-31T2000,1048A,114.5302,36.6116,邯郸市,东污水处理厂,细颗粒物(PM2.5),70,71,130,51,112,18,,49,46,57,48,3,3,1.0,2.8
2023-12-31T2000,1049A,114.4918,36.5713,邯郸市,矿院,细颗粒物(PM2.5),74,86,121,54,93,8,,50,46,72,49,2,3,1.1,2.7
2023-12-31T2000,1050A,114.484,36.6133,邯郸市,丛台公园,细颗粒物(PM2.5),74,85,141,54,108,29,,61,58,53,50,3,3,1.0,2.9
2023-12-31T2000,3458A,114.7895,36.5593,邯郸市,香泉濮院小区,细颗粒物(PM2.5),74,64,128,54,107,41,,59,59,48,55,4,4,0.7,2
2023-12-31T2000,3579A,114.50634,36.77178,邯郸市,永年区实验高中,细颗粒物(PM2.5),144,146,135,110,111,12,,58,54,89,54,9,7,0.9,2
2023-12-31T2000,3580A,114.20016,36.44293,邯郸市,峰峰矿区临水派出所,细颗粒物(PM2.5),83,83,123,61,96,36,,67,62,42,31,17,12,1.1,1.5
2023-12-31T2000,2634A,106.9893,33.1842,汉中市,汉川机床厂子校,细颗粒物(PM2.5),153,,96,117,85,6,,22,18,49,34,4,3,1.8,1.4
2023-12-31T2000,2635A,107.0154,33.0706,汉中市,市监测站,细颗粒物(PM2.5),175,,120,132,114,7,,14,13,49,40,8,8,2.3,2.1
2023-12-31T2000,2636A,107.0089,33.1138,汉中市,鑫源开发区,细颗粒物(PM2.5),169,,112,128,102,7,,15,13,39,32,8,7,2.1,1.9
2023-12-31T2000,2637A,107.007,33.0323,汉中市,南郑大河坎水厂,细颗粒物(PM2.5),192,167,133,144,121,8,,15,12,39,35,10,9,2.2,1.9
2023-12-31T2000,1223A,120.2072,30.2111,杭州市,滨江,细颗粒物(PM2.5),196,202,163,147,88,71,,87,86,37,52,11,11,1.2,1
2023-12-31T2000,1224A,120.0633,30.2747,杭州市,西溪,细颗粒物(PM2.5),210,225,146,160,108,80,,100,95,44,43,9,8,1.3,1.1
2023-12-31T2000,1226A,120.3461,30.3153,杭州市,下沙,细颗粒物(PM2.5),222,234,184,172,137,39,,91,85,87,66,7,8,1.5,1.3
2023-12-31T2000,1227A,120.1269,30.2456,杭州市,卧龙桥,细颗粒物(PM2.5),170,203,144,129,105,78,,94,90,36,39,7,6,1.2,1
2023-12-31T2000,1228A,120.1903,30.2692,杭州市,浙江农大,细颗粒物(PM2.5),200,217,175,150,114,66,,86,84,44,53,10,10,1.0,0.8
2023-12-31T2000,1230A,120.1197,30.3119,杭州市,和睦小学,细颗粒物(PM2.5),196,212,178,147,115,65,,82,80,44,54,7,7,1.1,0.9
2023-12-31T2000,1231A,120.3019,30.4183,杭州市,临平镇,细颗粒物(PM2.5),183,208,174,138,130,60,,92,90,42,43,6,8,1.5,1.3
2023-12-31T2000,1232A,120.2697,30.1819,杭州市,城厢镇,细颗粒物(PM2.5),216,209,134,166,110,70,,92,90,44,56,6,8,1.3,1.2
2023-12-31T2000,1233A,120.0883,30.1808,杭州市,云栖,细颗粒物(PM2.5),212,237,144,162,99,85,,104,101,43,41,8,8,1.3,1
2023-12-31T2000,3557A,119.9464,30.0494,杭州市,镇二中,细颗粒物(PM2.5),172,183,130,130,93,80,,95,93,44,59,6,6,1.2,1.3
2023-12-31T2000,3558A,119.7183,30.2367,杭州市,市府大楼,细颗粒物(PM2.5),233,283,161,183,118,71,,98,95,46,45,6,6,1.4,1.2
2023-12-31T2000,3656A,120.1556,30.2864,杭州市,消防大队,细颗粒物(PM2.5),208,200,167,158,125,70,,88,85,47,61,9,9,1.5,1.3
2023-12-31T2000,1270A,117.1959,31.7848,合肥市,明珠广场,细颗粒物(PM2.5),85,107,141,63,93,68,,83,83,32,36,7,8,0.8,1
2023-12-31T2000,1271A,117.3072,31.8764,合肥市,三里街,细颗粒物(PM2.5),92,110,145,68,106,64,,81,81,36,38,5,6,0.8,1
2023-12-31T2000,1272A,117.2588,31.8707,合肥市,琥珀山庄,细颗粒物(PM2.5),85,107,142,63,99,80,,90,90,34,45,6,7,0.9,1.2
2023-12-31T2000,1273A,117.1604,31.9052,合肥市,董铺水库,颗粒物(PM10),84,117,163,56,103,68,,87,86,19,21,5,5,0.6,0.8
2023-12-31T2000,1274A,117.25,31.8571,合肥市,长江中路,细颗粒物(PM2.5),107,110,140,80,110,80,,90,90,28,34,8,8,1.3,1.3
2023-12-31T2000,1275A,117.266,31.9436,合肥市,庐阳区,细颗粒物(PM2.5),98,141,157,73,97,61,,80,79,38,32,4,6,0.6,0.8
2023-12-31T2000,1276A,117.336,31.8586,合肥市,瑶海区,细颗粒物(PM2.5),110,117,142,83,109,73,,87,87,37,42,3,4,0.8,1
2023-12-31T2000,1277A,117.3027,31.7964,合肥市,包河区,细颗粒物(PM2.5),92,105,140,68,107,32,,71,64,73,48,5,5,1.0,1.1
2023-12-31T2000,1278A,117.2776,31.7385,合肥市,滨湖新区,细颗粒物(PM2.5),100,124,147,75,98,67,,81,81,30,36,2,3,0.4,0.5
2023-12-31T2000,1279A,117.1318,31.8403,合肥市,高新区,颗粒物(PM10),84,117,146,58,106,66,,84,84,38,33,6,9,0.8,1
2023-12-31T2000,3464A,117.3803,31.9147,合肥市,高教基地,细颗粒物(PM2.5),92,117,142,68,93,75,,91,91,37,39,4,5,0.6,0.8
2023-12-31T2000,3614A,79.924,37.0877,和田地区,地区环保局,颗粒物(PM10),140,230,223,83,66,99,,98,98,37,34,13,17,0.9,0.9
2023-12-31T2000,3615A,79.9131,37.113,和田地区,市环保局,颗粒物(PM10),116,182,210,66,75,86,,93,93,38,51,10,19,1.4,3.8
2023-12-31T2000,2516A,108.2011,24.715,河池市,东仁乐园,细颗粒物(PM2.5),98,78,70,73,60,30,,62,62,19,20,6,6,0.8,0.8
2023-12-31T2000,2517A,108.0497,24.6947,河池市,市环保站,细颗粒物(PM2.5),114,114,99,86,81,21,,51,50,49,41,6,7,1.3,1.1
2023-12-31T2000,2518A,108.0983,24.6989,河池市,市疾控中心,细颗粒物(PM2.5),125,150,108,95,82,7,,36,35,74,53,8,7,1.5,1.2
2023-12-31T2000,1696A,114.6778,23.7569,河源市,源西,颗粒物(PM10),90,129,52,35,36,15,,67,55,59,33,4,5,1.0,0.8
2023-12-31T2000,1697A,114.6944,23.7586,河源市,东埔,颗粒物(PM10),62,74,61,43,50,37,,78,76,44,31,7,8,1.2,0.8
2023-12-31T2000,1698A,114.6892,23.7233,河源市,老城,细颗粒物(PM2.5),54,52,46,38,43,29,,82,80,32,23,5,6,1.1,0.8
2023-12-31T2000,1718A,115.4208,35.2464,菏泽市,气象局,细颗粒物(PM2.5),160,156,190,122,151,22,,45,44,62,43,2,2,1.2,1.5
2023-12-31T2000,1719A,115.4747,35.2375,菏泽市,市政协,细颗粒物(PM2.5),160,164,200,122,147,24,,45,44,59,47,4,4,1.4,1.6
2023-12-31T2000,3374A,115.5564,35.0891,菏泽市,定陶老年大学,细颗粒物(PM2.5),185,175,207,139,159,30,,40,40,48,46,3,2,1.2,1.5
2023-12-31T2000,3647A,115.4702,35.2706,菏泽市,菏泽医专,细颗粒物(PM2.5),138,140,179,105,128,34,,45,45,48,43,4,3,1.2,1.6
2023-12-31T2000,2514A,111.5264,24.4172,贺州市,环保小区,细颗粒物(PM2.5),127,132,83,96,59,95,,120,120,33,32,12,9,1.3,0.9
2023-12-31T2000,2515A,111.5608,24.4078,贺州市,政协大楼,细颗粒物(PM2.5),124,145,84,94,59,56,,127,123,41,33,14,10,1.3,0.8
2023-12-31T2000,3534A,111.4744,24.4553,贺州市,西湾,细颗粒物(PM2.5),132,126,88,100,66,117,,130,130,20,28,8,9,1.2,0.9
2023-12-31T2000,2385A,114.17,35.9019,鹤壁市,市监测站,细颗粒物(PM2.5),109,138,120,82,98,23,,57,53,58,47,3,4,1.1,1.3
2023-12-31T2000,2386A,114.2956,35.7511,鹤壁市,市交警支队,细颗粒物(PM2.5),100,116,151,75,106,29,,49,48,66,61,6,4,1.1,1.7
2023-12-31T2000,2387A,114.2878,35.7306,鹤壁市,迎宾馆,细颗粒物(PM2.5),100,104,120,75,95,33,,56,55,57,55,7,8,1.2,1.8
2023-12-31T2000,3474A,114.2617,35.6822,鹤壁市,大新区,细颗粒物(PM2.5),94,87,107,70,95,32,,52,52,58,54,5,6,1.0,1.6
2023-12-31T2000,3596A,114.1572,35.9603,鹤壁市,南山宾馆,细颗粒物(PM2.5),94,106,124,70,89,44,,65,61,36,33,6,8,1.2,1.4
2023-12-31T2000,2244A,130.2537,47.3416,鹤岗市,哈啤分公司,,26,21,15,18,13,57,,65,58,6,5,11,10,0.3,0.2
2023-12-31T2000,2245A,130.2684,47.3086,鹤岗市,斯达机电,,32,31,21,22,16,55,,64,55,9,7,8,8,0.2,0.1
2023-12-31T2000,2246A,130.3114,47.3388,鹤岗市,东山纸板厂,颗粒物(PM10),54,58,32,24,18,31,,60,49,25,10,11,15,0.4,0.1
2023-12-31T2000,2247A,130.1097,47.3382,鹤岗市,五号水库,,28,23,17,19,12,50,,68,59,10,5,9,10,0.3,0.3
2023-12-31T2000,2263A,127.4833,50.2524,黑河市,交通局,,35,35,19,23,16,29,,51,35,24,11,15,8,0.6,0.5
2023-12-31T2000,2264A,127.5144,50.2341,黑河市,环保局,,33,,20,23,20,43,,49,40,10,12,12,9,0.2,0.2
2023-12-31T2000,2265A,127.5291,50.2472,黑河市,大黑河岛,,,38,22,31,18,25,,24,21,12,10,6,4,,
2023-12-31T2000,1074A,115.6838,37.7541,衡水市,电机北厂,细颗粒物(PM2.5),108,94,126,81,120,0,,45,38,75,42,1,2,1.2,1.6
2023-12-31T2000,1075A,115.6303,37.7316,衡水市,市监测站,细颗粒物(PM2.5),97,100,109,72,98,6,,45,42,73,52,4,4,1.0,1.6
2023-12-31T2000,3188A,115.6683,37.7217,衡水市,市城管局,细颗粒物(PM2.5),90,85,101,67,95,12,,39,37,71,51,4,4,1.1,1.7
2023-12-31T2000,3459A,115.5989,37.5491,衡水市,地表水厂,细颗粒物(PM2.5),93,78,109,69,107,12,,47,44,74,50,1,2,0.9,1.8
2023-12-31T2000,2456A,112.5003,26.9167,衡阳市,原169医院,细颗粒物(PM2.5),129,137,117,98,106,49,,75,73,32,20,4,5,1.1,1.7
2023-12-31T2000,2457A,112.6194,26.9258,衡阳市,衡阳化工总厂,细颗粒物(PM2.5),216,177,209,166,192,65,,87,86,22,33,118,26,1.2,1.4
2023-12-31T2000,2458A,112.6211,26.8956,衡阳市,珠晖区环保局,细颗粒物(PM2.5),206,,192,156,187,55,,85,83,30,40,8,17,1.3,1.5
2023-12-31T2000,2459A,112.6197,26.8733,衡阳市,市委党校,细颗粒物(PM2.5),189,145,198,142,180,71,,95,94,21,33,4,10,1.3,1.5
2023-12-31T2000,2460A,112.6006,26.8919,衡阳市,市监测站,细颗粒物(PM2.5),215,199,232,165,202,68,,94,93,27,42,42,20,1.8,2
2023-12-31T2000,2461A,112.5664,26.9056,衡阳市,真空机电公司,细颗粒物(PM2.5),209,,192,159,194,65,,90,90,25,46,25,13,1.5,1.8
2023-12-31T2000,3399A,112.6703,26.882,衡阳市,师范学院,细颗粒物(PM2.5),200,170,199,150,180,62,,94,91,24,26,10,13,1.4,1.5
2023-12-31T2000,2608A,103.3772,23.3993,红河州,污水处理厂,,38,36,44,26,34,62,,72,70,9,10,5,7,0.3,0.4
2023-12-31T2000,2609A,103.3861,23.35,红河州,监测站,,50,49,38,35,31,59,,74,71,16,11,8,7,0.7,0.6
2023-12-31T2000,3038A,103.3758,23.368,红河州,州图书馆,,39,36,37,27,29,57,,69,67,14,9,7,7,0.5,0.5
2023-12-31T2000,1090A,111.6507,40.7517,呼和浩特市,呼市一监,细颗粒物(PM2.5),100,100,39,75,24,24,,61,56,69,31,13,13,1.2,0.7
2023-12-31T2000,1091A,111.6572,40.8033,呼和浩特市,小召,颗粒物(PM10),81,112,34,48,14,2,,52,42,88,40,13,8,1.1,0.4
2023-12-31T2000,1094A,111.7516,40.8369,呼和浩特市,如意水处理厂,颗粒物(PM10),57,64,27,39,15,5,,63,55,82,38,11,10,1.0,0.5
2023-12-31T2000,1095A,111.7276,40.8062,呼和浩特市,二十九中,颗粒物(PM10),64,77,30,35,13,8,,62,53,80,28,12,11,1.0,0.5
2023-12-31T2000,1096A,111.5512,40.7866,呼和浩特市,工大金川校区,颗粒物(PM10),69,87,68,36,38,6,,46,40,82,49,10,10,0.9,0.7
2023-12-31T2000,1097A,111.717,40.7612,呼和浩特市,化肥厂生活区,细颗粒物(PM2.5),125,119,30,95,20,12,,65,57,88,35,24,13,1.9,0.6
2023-12-31T2000,3698A,111.5968,40.8178,呼和浩特市,红旗小学,颗粒物(PM10),60,70,41,35,21,8,,55,38,92,48,12,10,0.8,0.6
2023-12-31T2000,3699A,111.6518,40.8389,呼和浩特市,海东办,颗粒物(PM10),62,73,30,32,14,5,,42,35,93,55,13,12,0.6,0.3
2023-12-31T2000,2192A,119.7594,49.2261,呼伦贝尔市,区环保局,,30,30,25,16,21,71,,62,62,12,24,6,6,0.5,0.5
2023-12-31T2000,3061A,119.7512,49.1577,呼伦贝尔市,国华电力东,,25,24,23,17,21,74,,67,67,9,12,6,5,0.3,0.3
2023-12-31T2000,1250A,120.0751,30.8669,湖州市,城西水厂,细颗粒物(PM2.5),195,184,179,146,141,62,,89,84,44,62,6,9,1.1,1.2
2023-12-31T2000,2873A,120.0875,30.8955,湖州市,仁皇山新区,细颗粒物(PM2.5),198,184,177,148,146,64,,88,86,43,48,6,10,1.3,1.3
2023-12-31T2000,2907A,120.1844,30.8596,湖州市,吴兴区站,细颗粒物(PM2.5),212,190,181,162,154,60,,88,85,36,52,5,8,1.2,1.3
2023-12-31T2000,3562A,120.4148,30.8538,湖州市,南浔区站,细颗粒物(PM2.5),217,199,189,167,153,55,,84,81,44,44,6,7,1.4,1.4
2023-12-31T2000,1607A,120.9092,40.7136,葫芦岛市,龙港区,,38,38,40,26,31,41,,64,58,31,18,8,9,0.8,0.6
2023-12-31T2000,1608A,120.8392,40.7514,葫芦岛市,化工街,,36,36,35,19,25,48,,64,61,15,5,10,10,0.7,0.6
2023-12-31T2000,1609A,120.8341,40.7073,葫芦岛市,新区,,24,24,31,11,22,58,,66,64,26,24,10,11,0.2,0.2
2023-12-31T2000,1610A,120.8695,40.7677,葫芦岛市,东城区,,29,29,31,14,24,57,,66,63,16,11,10,12,1.0,0.9
2023-12-31T2000,2482A,109.5981,27.5721,怀化市,林科所,细颗粒物(PM2.5),77,,75,56,70,69,,69,69,4,4,3,2,0.9,1
2023-12-31T2000,2483A,109.9453,27.5444,怀化市,河西地税局,细颗粒物(PM2.5),88,67,105,65,97,62,,57,57,11,20,1,1,0.8,1
2023-12-31T2000,2484A,109.9781,27.5342,怀化市,市四医院,细颗粒物(PM2.5),114,,112,86,95,61,,62,62,17,30,5,8,1.0,1.2
2023-12-31T2000,2485A,109.9972,27.5578,怀化市,监测楼,细颗粒物(PM2.5),85,88,133,63,98,48,,51,51,16,22,4,6,0.9,1.2
2023-12-31T2000,2486A,110.0394,27.583,怀化市,市委党校,细颗粒物(PM2.5),112,92,118,84,101,46,,56,56,17,23,5,8,1.0,1.1
2023-12-31T2000,1210A,119.036,33.5981,淮安市,钵池山,细颗粒物(PM2.5),205,188,196,155,174,50,,72,71,43,33,10,10,1.3,1.2
2023-12-31T2000,1211A,119.007,33.575,淮安市,北京南路,细颗粒物(PM2.5),200,188,195,150,174,61,,82,82,38,31,9,8,1.7,1.5
2023-12-31T2000,1212A,118.989,33.6067,淮安市,市监测站,细颗粒物(PM2.5),208,200,209,158,180,61,,83,83,44,37,8,7,1.8,1.5
2023-12-31T2000,1213A,119.135,33.5039,淮安市,楚州区监测站,细颗粒物(PM2.5),199,198,204,149,161,65,,82,81,37,35,8,7,1.6,1.4
2023-12-31T2000,1214A,119.0186,33.6297,淮安市,淮阴区监测站,细颗粒物(PM2.5),202,227,236,152,176,45,,74,73,54,39,8,7,1.6,1.4
2023-12-31T2000,3426A,118.8755,33.2894,淮安市,新华书店,细颗粒物(PM2.5),211,203,218,161,190,45,,60,58,52,34,9,7,1.3,1.3
2023-12-31T2000,2282A,116.8004,33.975,淮北市,监测站,细颗粒物(PM2.5),232,252,239,182,170,28,,39,39,45,32,4,4,1.7,1.5
2023-12-31T2000,2283A,116.8091,33.9007,淮北市,烈山区政府,细颗粒物(PM2.5),237,233,225,187,191,39,,44,44,37,34,4,4,1.2,1.2
2023-12-31T2000,3330A,116.8873,33.9836,淮北市,杜集区检察院,细颗粒物(PM2.5),234,243,229,184,171,33,,43,43,42,33,6,5,1.4,1.5
2023-12-31T2000,4017A,116.7923,33.9535,淮北市,市博物馆,细颗粒物(PM2.5),238,258,246,188,187,23,,34,34,50,32,5,5,1.9,1.7
2023-12-31T2000,2277A,116.8305,32.7727,淮南市,潘集区政府,细颗粒物(PM2.5),193,192,203,145,167,33,,48,48,44,40,4,6,1.0,1.1
2023-12-31T2000,2278A,117.0067,32.6524,淮南市,师范学院,细颗粒物(PM2.5),213,228,223,163,162,35,,55,53,48,43,8,9,1.1,1.1
2023-12-31T2000,2279A,116.8569,32.5951,淮南市,谢家集区政府,细颗粒物(PM2.5),185,185,196,139,151,50,,65,64,41,38,7,7,1.0,1
2023-12-31T2000,2280A,116.8281,32.633,淮南市,八公山区政府,细颗粒物(PM2.5),173,180,195,131,150,47,,66,64,34,28,5,7,0.9,1
2023-12-31T2000,2281A,116.6325,32.6201,淮南市,焦岗湖风景区管理处,细颗粒物(PM2.5),138,154,176,105,131,14,,54,49,51,29,2,2,0.2,0.3
2023-12-31T2000,2894A,117.0566,32.6531,淮南市,经济技术开发区消防队,细颗粒物(PM2.5),188,207,197,141,154,33,,61,59,42,27,4,5,0.9,0.9
2023-12-31T2000,3329A,117.0108,32.5893,淮南市,山南新区,细颗粒物(PM2.5),220,219,191,170,149,47,,75,71,35,29,4,6,1.2,1
2023-12-31T2000,2446A,114.9028,30.4742,黄冈市,职工中心,细颗粒物(PM2.5),147,146,117,112,88,63,,67,67,39,25,12,9,1.3,1.1
2023-12-31T2000,2929A,114.8858,30.4519,黄冈市,红卫路,细颗粒物(PM2.5),166,156,124,126,99,27,,63,61,72,36,9,7,1.9,1.4
2023-12-31T2000,3398A,114.9136,30.4445,黄冈市,市林业局,细颗粒物(PM2.5),152,125,109,116,90,44,,64,64,68,36,6,6,1.3,1.2
2023-12-31T2000,2672A,102.0199,35.5102,黄南藏族自治州,同仁县隆务镇,,30,30,33,9,15,57,,65,64,8,8,7,7,0.8,0.6
2023-12-31T2000,2295A,118.2903,29.6963,黄山市,延安路89号,细颗粒物(PM2.5),92,131,100,68,62,100,,112,112,15,17,8,6,0.5,0.6
2023-12-31T2000,2296A,118.327,29.7178,黄山市,黄山东路89号,细颗粒物(PM2.5),89,110,97,66,66,90,,106,106,19,22,8,5,0.4,0.7
2023-12-31T2000,2297A,118.1371,30.2756,黄山市,黄山区政府5号楼,细颗粒物(PM2.5),87,109,81,64,52,62,,110,106,21,17,4,4,0.9,0.9
2023-12-31T2000,2423A,115.0601,30.2313,黄石市,沈家营,细颗粒物(PM2.5),125,131,135,95,79,15,,44,40,74,38,7,6,1.1,1.3
2023-12-31T2000,2424A,115.0817,30.2006,黄石市,陈家湾,细颗粒物(PM2.5),117,118,198,88,97,94,,43,43,25,33,9,8,0.8,1.4
2023-12-31T2000,2426A,114.8988,30.2019,黄石市,铁山,细颗粒物(PM2.5),160,132,121,122,114,21,,67,66,57,42,12,11,1.8,1.8
2023-12-31T2000,2427A,115.0307,30.2092,黄石市,团城山,细颗粒物(PM2.5),152,139,138,116,105,51,,45,45,58,42,9,7,1.6,1.5
2023-12-31T2000,3149A,115.0235,30.1578,黄石市,笔架山北路,细颗粒物(PM2.5),120,120,137,91,114,71,,64,64,25,29,5,4,1.0,1.3
2023-12-31T2000,1392A,114.4183,23.0528,惠州市,河南岸金山湖子站,,49,49,60,28,43,78,,100,100,35,32,7,6,0.7,0.8
2023-12-31T2000,1393A,114.4053,23.0822,惠州市,下埔横江三路子站,,48,48,54,27,37,75,,99,98,35,30,12,11,0.6,0.6
2023-12-31T2000,1394A,114.4103,23.1142,惠州市,江北云山西路子站,,,35,54,,42,80,,104,100,29,28,12,10,0.6,0.7
2023-12-31T2000,1395A,114.4645,22.7833,惠州市,惠阳区承修路船湖子站,,32,32,60,16,38,101,,105,105,20,32,7,8,0.6,0.6
2023-12-31T2000,1396A,114.5317,22.7422,惠州市,大亚湾管委会子站,,37,37,60,18,33,90,,110,110,46,45,6,6,0.6,0.7
2023-12-31T2000,3314A,114.4338,22.8134,惠州市,惠阳秋长,,41,41,57,16,36,97,,106,106,23,28,8,8,0.6,0.7
2023-12-31T2000,3452A,114.6517,22.775,惠州市,大亚湾霞涌,颗粒物(PM10),56,62,51,23,34,102,,111,111,16,30,9,8,0.4,0.5
2023-12-31T2000,2240A,130.9762,45.3001,鸡西市,环保局,,21,21,30,14,23,42,,50,50,21,14,6,8,0.7,0.7
2023-12-31T2000,2243A,130.9429,45.3039,鸡西市,第一中学,,18,10,30,10,21,57,,56,56,10,18,8,12,0.3,0.3
2023-12-31T2000,3707A,131.0207,45.3073,鸡西市,欧美日汽修厂,,32,32,40,21,29,23,,51,46,42,18,53,10,1.1,1
2023-12-31T2000,3709A,130.9967,45.3106,鸡西市,市政设施管理处,,30,22,32,21,26,31,,55,50,35,18,4,4,0.5,0.4
2023-12-31T2000,2367A,114.9754,27.0803,吉安市,红声器材厂,细颗粒物(PM2.5),82,92,140,60,101,92,,112,112,28,41,14,15,1.0,1.2
2023-12-31T2000,2368A,114.9658,27.0999,吉安市,市森林工业局,细颗粒物(PM2.5),94,85,131,70,108,95,,116,115,27,35,12,19,0.2,0.8
2023-12-31T2000,2369A,114.99,27.1312,吉安市,市环境监测站,细颗粒物(PM2.5),93,82,129,69,96,98,,116,116,32,39,12,15,0.8,1.4
2023-12-31T2000,2370A,115.0093,27.0968,吉安市,青原区法院,细颗粒物(PM2.5),97,90,133,72,103,99,,120,120,29,38,14,19,0.6,1.7
2023-12-31T2000,1772A,126.54,43.8622,吉林市,哈达湾,细颗粒物(PM2.5),94,85,91,70,75,25,,50,42,54,39,20,22,1.2,1.2
2023-12-31T2000,1773A,126.5844,43.8358,吉林市,东局子,细颗粒物(PM2.5),109,98,106,82,91,14,,38,33,56,46,10,17,1.6,1.5
2023-12-31T2000,1774A,126.5052,43.8245,吉林市,电力学院,细颗粒物(PM2.5),85,72,89,63,82,34,,49,42,39,43,17,26,1.2,1.2
2023-12-31T2000,1775A,126.6133,43.8972,吉林市,江北,,,82,93,64,77,14,,55,45,,42,13,16,1.2,1.1
2023-12-31T2000,1776A,126.555,43.8306,吉林市,江南公园,细颗粒物(PM2.5),122,99,103,92,95,9,,42,32,66,43,18,19,3.6,2.3
2023-12-31T2000,1778A,126.7061,43.7133,吉林市,丰满,,,,,,,,,,,,,,,,
2023-12-31T2000,2868A,126.4739,43.953,吉林市,九站,细颗粒物(PM2.5),114,96,90,86,77,20,,49,45,55,45,11,17,1.1,1
2023-12-31T2000,1299A,116.9862,36.6114,济南市,科干所,细颗粒物(PM2.5),144,151,191,110,137,39,,38,38,46,58,7,8,1.2,1.5
2023-12-31T2000,1300A,116.9376,36.665,济南市,农科所,细颗粒物(PM2.5),144,161,184,110,135,3,,32,27,66,51,8,6,1.5,1.4
2023-12-31T2000,1301A,117.1265,36.6734,济南市,开发区,细颗粒物(PM2.5),144,137,172,110,137,16,,34,30,63,58,8,7,1.2,1.4
2023-12-31T2000,1303A,117.0624,36.6868,济南市,省种子仓库,细颗粒物(PM2.5),160,168,198,122,145,9,,35,30,63,52,7,6,1.4,1.5
2023-12-31T2000,1304A,116.9489,36.6447,济南市,机床二厂,细颗粒物(PM2.5),147,147,186,112,149,28,,36,34,58,59,8,7,1.2,1.4
2023-12-31T2000,1305A,117.0495,36.663,济南市,市监测站,细颗粒物(PM2.5),138,151,194,105,142,29,,38,36,57,59,13,12,1.0,1.2
2023-12-31T2000,1306A,116.7675,36.5484,济南市,长清党校,细颗粒物(PM2.5),168,166,193,127,144,6,,45,37,87,60,9,6,1.5,1.6
2023-12-31T2000,1616A,117.6795,36.229,济南市,技术学院,细颗粒物(PM2.5),140,144,146,107,114,36,,52,49,47,39,8,8,1.7,1.7
2023-12-31T2000,1961A,117.532,36.6868,济南市,东山小学,颗粒物(PM10),63,76,177,34,132,44,,36,36,40,59,7,6,0.3,1.2
2023-12-31T2000,3059A,117.7161,36.2049,济南市,泰兴公司,细颗粒物(PM2.5),128,134,172,97,129,29,,50,44,67,60,5,6,1.0,1.3
2023-12-31T2000,3064A,117.6867,36.2171,济南市,莱芜战役纪念馆,细颗粒物(PM2.5),128,151,158,97,111,33,,49,46,59,54,9,10,1.0,1.2
2023-12-31T2000,3494A,117.1673,36.9782,济南市,济阳区政府,颗粒物(PM10),63,76,159,44,127,42,,42,42,32,47,7,4,0.7,1.4
2023-12-31T2000,3495A,117.1171,36.63,济南市,锦屏中学,细颗粒物(PM2.5),113,122,145,85,110,59,,45,45,45,60,12,11,0.8,1.2
2023-12-31T2000,3682A,116.9814,36.6819,济南市,济南四建,细颗粒物(PM2.5),158,158,171,120,144,5,,33,28,77,62,13,9,1.4,1.4
2023-12-31T2000,1653A,116.6251,35.4302,济宁市,火炬城,,,125,209,75,161,21,,37,36,48,43,6,3,,1.7
2023-12-31T2000,1655A,116.5491,35.4042,济宁市,电化厂,细颗粒物(PM2.5),107,130,221,80,164,29,,38,36,51,44,8,4,0.9,1.5
2023-12-31T2000,3500A,116.5814,35.3707,济宁市,北湖一中,,,,214,,172,,,25,,,40,,2,,1.6
2023-12-31T2000,3501A,116.8249,35.5593,济宁市,服务中心,颗粒物(PM10),104,158,236,72,153,30,,35,35,39,39,4,2,1.2,1.6
2023-12-31T2000,3678A,116.5907,35.4054,济宁市,市第七中学,细颗粒物(PM2.5),107,140,204,80,165,25,,36,36,52,44,5,3,1.1,1.6
2023-12-31T2000,2255A,130.2751,46.8028,佳木斯市,佳纺,细颗粒物(PM2.5),120,103,40,91,31,17,,46,32,58,30,13,9,1.6,0.8
2023-12-31T2000,2256A,130.3995,46.8307,佳木斯市,发电厂,颗粒物(PM10),64,77,32,44,22,12,,54,40,66,23,14,11,1.4,0.6
2023-12-31T2000,2257A,130.3258,46.7975,佳木斯市,环保局,细颗粒物(PM2.5),70,71,30,51,19,7,,41,27,69,28,9,7,1.7,0.6
2023-12-31T2000,2258A,130.3648,46.8032,佳木斯市,十一中,细颗粒物(PM2.5),75,66,30,55,20,12,,44,28,59,27,6,5,1.3,0.6
2023-12-31T2000,2259A,130.3794,46.7588,佳木斯市,四丰,,34,34,29,12,18,48,,44,44,12,19,1,1,0.8,0.7
2023-12-31T2000,1252A,120.7436,30.778,嘉兴市,清河小学,细颗粒物(PM2.5),162,178,195,123,137,58,,68,,31,45,6,7,1.3,1.6
2023-12-31T2000,1253A,120.726,30.7478,嘉兴市,嘉兴学院,细颗粒物(PM2.5),159,165,188,121,138,58,,74,71,35,46,8,9,1.2,1.3
2023-12-31T2000,2872A,120.7846,30.7525,嘉兴市,南湖区残联,细颗粒物(PM2.5),178,179,198,134,145,46,,72,66,44,49,6,8,1.2,1.3
2023-12-31T2000,3407A,120.6916,30.7739,嘉兴市,秀洲住建,细颗粒物(PM2.5),192,190,159,144,107,43,,71,63,42,44,8,10,1.6,1.3
2023-12-31T2000,1945A,98.2908,39.7711,嘉峪关市,气象局,颗粒物(PM10),75,100,119,36,29,55,,63,62,41,40,4,27,0.6,0.8
2023-12-31T2000,2884A,98.2672,39.7978,嘉峪关市,酒钢宾馆,颗粒物(PM10),91,132,138,41,34,49,,55,54,41,36,26,69,0,1.3
2023-12-31T2000,3248A,98.2643,39.7724,嘉峪关市,雄关区,颗粒物(PM10),80,110,104,37,28,39,,60,57,49,34,9,23,0,0.7
2023-12-31T2000,1383A,113.1064,22.6058,江门市,北街,细颗粒物(PM2.5),132,104,80,100,73,133,,197,197,58,63,10,10,1.2,0.8
2023-12-31T2000,1384A,113.0731,22.5835,江门市,西区,细颗粒物(PM2.5),109,134,77,82,52,108,,185,185,72,54,11,10,1.2,0.8
2023-12-31T2000,1385A,113.0219,22.5311,江门市,圭峰西,细颗粒物(PM2.5),120,92,57,91,50,153,,186,186,43,35,8,8,1.1,0.9
2023-12-31T2000,1386A,113.0828,22.5947,江门市,东湖,细颗粒物(PM2.5),122,138,84,92,78,116,,182,182,52,51,8,8,1.0,0.7
2023-12-31T2000,3311A,113.1075,22.5647,江门市,江海富民,细颗粒物(PM2.5),182,186,108,137,81,132,,202,202,68,64,11,11,1.1,1
2023-12-31T2000,3449A,113.05,22.4667,江门市,新会银湖,细颗粒物(PM2.5),195,,76,146,74,115,,186,186,61,45,11,9,1.3,1
2023-12-31T2000,1828A,113.227,35.2125,焦作市,市环保局,细颗粒物(PM2.5),89,115,103,66,66,44,,60,60,41,40,7,7,0.7,1.4
2023-12-31T2000,1830A,113.1992,35.2590,焦作市,影视城,,,,,,,,,,,,,,,,
2023-12-31T2000,3169A,113.2725,35.2067,焦作市,太极体育中心,细颗粒物(PM2.5),87,118,107,64,67,46,,62,62,39,41,10,10,0.6,1.3
2023-12-31T2000,3335A,113.3137,35.2641,焦作市,马村街道办,细颗粒物(PM2.5),102,134,104,76,64,28,,57,56,59,44,9,7,0.7,1.2
2023-12-31T2000,3336A,113.2465,35.2373,焦作市,焦作技师学院,细颗粒物(PM2.5),92,101,108,68,74,36,,60,60,49,42,14,11,1.0,1.6
2023-12-31T2000,3477A,113.1656,35.2539,焦作市,中站许衡医院,细颗粒物(PM2.5),79,87,102,58,60,32,,55,55,59,42,11,11,0.6,0.7
2023-12-31T2000,3981A,113.2449,35.1803,焦作市,原李万街道办,细颗粒物(PM2.5),85,114,98,63,72,46,,59,59,34,35,8,11,0.6,1.3
2023-12-31T2000,1708A,116.3701,23.5345,揭阳市,新兴,细颗粒物(PM2.5),62,66,75,44,61,109,,133,130,28,39,11,16,0.8,1.1
2023-12-31T2000,1709A,116.3264,23.5443,揭阳市,西马,颗粒物(PM10),60,69,76,34,53,114,,138,138,21,33,10,13,0.7,1.1
2023-12-31T2000,1710A,116.3611,23.5626,揭阳市,东兴,颗粒物(PM10),61,71,89,40,58,119,,137,136,20,42,10,16,0.8,1.1
2023-12-31T2000,1711A,116.4151,23.5294,揭阳市,渔湖,细颗粒物(PM2.5),55,54,74,39,41,124,,133,133,16,36,8,12,0.6,1
2023-12-31T2000,3320A,116.403,23.5699,揭阳市,曲溪,颗粒物(PM10),61,71,78,42,44,116,,132,132,21,40,11,12,0.6,0.9
2023-12-31T2000,1944A,102.1692,38.5167,金昌市,天庆家园,颗粒物(PM10),82,113,59,45,19,33,,64,61,49,22,37,26,0.8,0.5
2023-12-31T2000,3170A,102.1864,38.5253,金昌市,市委党校,颗粒物(PM10),107,164,72,64,25,24,,71,65,55,21,32,50,1.1,0.6
2023-12-31T2000,4022A,102.1647,38.5371,金昌市,金川区人防中心,颗粒物(PM10),82,113,68,28,20,54,,74,72,18,15,26,27,0.9,0.7
2023-12-31T2000,1262A,119.647,29.077,金华市,十五中,颗粒物(PM10),83,116,121,59,84,84,,109,109,46,53,5,4,0.8,1
2023-12-31T2000,1263A,119.686,29.1029,金华市,监测站,颗粒物(PM10),94,137,129,62,79,86,,109,109,43,50,6,6,0.8,0.9
2023-12-31T2000,3659A,119.656,29.1131,金华市,气象局,颗粒物(PM10),90,129,132,60,83,74,,104,104,46,47,5,6,0.8,0.9
2023-12-31T2000,1767A,121.1115,41.0879,锦州市,南山,,45,,26,31,24,45,,76,69,40,19,12,9,0.8,0.6
2023-12-31T2000,1768A,121.0533,40.8434,锦州市,开发区,,36,32,38,25,27,21,,68,59,56,17,11,10,0.6,0.6
2023-12-31T2000,1769A,121.1836,41.1119,锦州市,百股街道,细颗粒物(PM2.5),73,,34,53,32,41,,70,66,37,18,20,12,1.2,0.8
2023-12-31T2000,1770A,121.1178,41.1222,锦州市,天安街道,,36,,29,25,17,56,,71,68,22,13,9,8,0.8,0.7
2023-12-31T2000,1771A,121.1303,41.1386,锦州市,北湖公园,,50,35,26,35,23,48,,75,70,32,16,13,10,0.8,0.6
2023-12-31T2000,2160A,112.85,35.5051,晋城市,自来水公司,细颗粒物(PM2.5),79,80,66,58,28,60,,78,77,35,24,5,9,0.7,0.7
2023-12-31T2000,2161A,112.8318,35.4936,晋城市,白云商贸,颗粒物(PM10),77,103,77,51,25,59,,74,73,32,24,6,8,0.8,0.7
2023-12-31T2000,2162A,112.8508,35.4887,晋城市,市环保局,细颗粒物(PM2.5),83,94,78,61,30,55,,74,73,31,21,6,10,0.8,0.7
2023-12-31T2000,2163A,112.8676,35.4897,晋城市,技术学院,颗粒物(PM10),82,114,72,58,27,51,,74,72,43,30,8,12,0.8,0.7
2023-12-31T2000,2165A,112.8453,35.546,晋城市,白马寺,,,,,,,,,,,,,,,,
2023-12-31T2000,3620A,112.8271,35.4828,晋城市,泽州一中,颗粒物(PM10),69,88,67,46,22,56,,73,72,32,23,5,9,0.9,0.8
2023-12-31T2000,2171A,112.7532,37.6945,晋中市,锦纶小区,,,78,66,41,28,6,,58,49,,30,20,10,0.9,0.5
2023-12-31T2000,2173A,112.7249,37.7067,晋中市,南都小区,细颗粒物(PM2.5),113,153,67,85,35,5,,55,48,73,31,14,9,1.2,0.6
2023-12-31T2000,2174A,112.6991,37.6982,晋中市,榆次区政府,细颗粒物(PM2.5),148,187,62,113,36,11,,54,50,76,37,18,12,1.2,0.7
2023-12-31T2000,2865A,112.7195,37.6828,晋中市,榆次三中,颗粒物(PM10),79,107,69,48,27,7,,52,47,80,39,12,9,0.9,0.5
2023-12-31T2000,2439A,112.2014,31.0481,荆门市,竹园小学,颗粒物(PM10),81,111,120,49,81,53,,68,68,40,32,9,7,0.8,1.3
2023-12-31T2000,2440A,112.1969,30.9891,荆门市,掇刀,细颗粒物(PM2.5),84,99,128,62,99,58,,68,68,42,36,20,15,0.8,1.2
2023-12-31T2000,2441A,112.2213,31.0386,荆门市,石化一小,细颗粒物(PM2.5),95,125,130,71,100,64,,72,72,40,33,16,11,0.5,0.9
2023-12-31T2000,3012A,112.1849,31.0362,荆门市,西山林语,"颗粒物(PM10),细颗粒物(PM2.5)",65,80,101,47,72,86,,78,78,23,31,12,10,0.6,1
2023-12-31T2000,3547A,112.1632,31.0138,荆门市,龙泉中学南校,颗粒物(PM10),65,79,105,46,75,86,,77,77,20,30,10,8,0.7,1.6
2023-12-31T2000,1844A,112.2494,30.3197,荆州市,市图书馆,细颗粒物(PM2.5),105,99,94,79,86,32,,78,74,70,27,9,6,1.1,1.1
2023-12-31T2000,1845A,112.2008,30.3544,荆州市,市委党校,细颗粒物(PM2.5),119,101,110,90,87,37,,77,74,52,23,6,6,1.2,1.1
2023-12-31T2000,3194A,112.2747,30.3122,荆州市,管委会,细颗粒物(PM2.5),105,88,101,79,88,72,,85,85,35,22,8,7,0.9,1
2023-12-31T2000,3548A,112.1655,30.3364,荆州市,学苑路,细颗粒物(PM2.5),124,94,95,94,71,52,,66,66,27,20,6,8,1.0,0.9
2023-12-31T2000,2342A,117.3102,29.3867,景德镇市,王港中学,,,,,,,,,,,,,,,,
2023-12-31T2000,2343A,117.2117,29.2933,景德镇市,老干部活动中心,细颗粒物(PM2.5),73,72,94,53,77,75,,86,86,14,29,5,7,0.5,0.8
2023-12-31T2000,2344A,117.1894,29.2789,景德镇市,兽医站,细颗粒物(PM2.5),67,70,99,48,66,80,,90,90,18,29,3,6,0.4,0.9
2023-12-31T2000,2345A,117.1547,29.2617,景德镇市,台达陶瓷,颗粒物(PM10),66,82,98,45,68,85,,90,90,19,37,4,7,0.7,1
2023-12-31T2000,2346A,117.2461,29.2956,景德镇市,陶研所,细颗粒物(PM2.5),80,86,84,59,62,41,,93,88,38,30,3,4,1.1,1.1
2023-12-31T2000,1803A,115.9872,29.6815,九江市,十里,细颗粒物(PM2.5),92,119,152,68,102,99,,119,119,30,40,10,8,0.7,1.2
2023-12-31T2000,1804A,115.9584,29.7046,九江市,茅山头,细颗粒物(PM2.5),85,112,144,63,100,92,,108,108,33,46,11,8,0.8,1.2
2023-12-31T2000,1805A,115.9877,29.7295,九江市,西园,细颗粒物(PM2.5),102,114,142,76,118,92,,109,109,32,39,10,12,0.6,1.1
2023-12-31T2000,1806A,116.0172,29.6547,九江市,五七二七厂,细颗粒物(PM2.5),93,98,152,69,105,96,,110,110,27,24,15,10,0.7,1
2023-12-31T2000,1808A,115.9114,29.6038,九江市,综合工业园,细颗粒物(PM2.5),117,120,130,88,123,106,,118,118,28,44,14,12,0.9,1.4
2023-12-31T2000,1809A,116.0721,29.7535,九江市,石化总厂,细颗粒物(PM2.5),94,113,160,70,113,96,,112,112,29,42,10,13,0.7,1.2
2023-12-31T2000,1810A,115.9773,29.5698,九江市,庐山气象台,细颗粒物(PM2.5),69,72,52,50,43,109,,103,103,12,9,6,6,0.7,0.7
2023-12-31T2000,3190A,116.0254,29.6994,九江市,外国语学校,细颗粒物(PM2.5),98,97,135,73,112,86,,102,102,36,40,8,10,0.8,1.2
2023-12-31T2000,2658A,98.5061,39.7443,酒泉市,仓门街子站,颗粒物(PM10),80,110,129,38,37,66,,70,70,14,24,4,9,0.5,0.7
2023-12-31T2000,2659A,98.4989,39.7256,酒泉市,油田生活基地,颗粒物(PM10),76,102,136,37,42,60,,64,64,19,34,4,9,0.5,0.7
2023-12-31T2000,2698A,76.0072,39.4467,喀什地区,巡警大队,颗粒物(PM10),160,269,315,65,104,68,,72,72,30,69,8,8,0.7,2.8
2023-12-31T2000,2699A,75.9755,39.4694,喀什地区,吾办,颗粒物(PM10),174,298,331,74,136,56,,68,68,51,81,8,6,1.2,3.2
2023-12-31T2000,4027A,75.9483,39.4689,喀什地区,老干局,颗粒物(PM10),167,284,360,61,121,68,,66,66,33,66,8,7,0.8,4.2
2023-12-31T2000,1824A,114.3389,34.7781,开封市,肿瘤医院,细颗粒物(PM2.5),144,126,131,110,117,23,,38,38,47,35,3,2,1.4,1.6
2023-12-31T2000,1826A,114.2885,34.7965,开封市,世纪星幼儿园,细颗粒物(PM2.5),124,102,117,94,114,33,,42,42,47,39,4,3,1.2,1.4
2023-12-31T2000,3147A,114.3438,34.8106,开封市,龙亭公园,细颗粒物(PM2.5),125,98,118,95,103,16,,44,42,67,43,3,2,1.1,1.2
2023-12-31T2000,3210A,114.3644,34.7964,开封市,汴京公园,细颗粒物(PM2.5),148,134,128,113,122,19,,40,38,57,39,2,2,1.4,1.6
2023-12-31T2000,3473A,114.2485,34.8306,开封市,技师学院,细颗粒物(PM2.5),102,94,103,76,87,29,,40,40,46,36,1,2,1.0,1.4
2023-12-31T2000,3592A,114.4644,34.7556,开封市,祥符区生态环境局,细颗粒物(PM2.5),165,160,152,125,116,29,,38,38,47,41,15,5,2.6,1.6
2023-12-31T2000,1951A,84.895,45.6094,克拉玛依市,长征新村,,42,,51,29,40,48,,55,51,25,26,9,9,0.7,0.8
2023-12-31T2000,1952A,84.8988,45.5893,克拉玛依市,南林小区,,40,31,53,28,46,48,,58,49,20,20,4,5,0.4,0.6
2023-12-31T2000,1954A,84.905,44.3396,克拉玛依市,独山子区,细颗粒物(PM2.5),54,42,21,38,16,27,,48,46,26,19,6,5,0.9,0.6
2023-12-31T2000,1955A,85.6979,46.098,克拉玛依市,乌尔禾区商贸楼,,38,,19,26,20,56,,60,55,14,16,4,4,0.4,0.5
2023-12-31T2000,3612A,85.1045,45.6899,克拉玛依市,白碱滩区新站,,29,29,41,18,31,50,,62,55,21,18,8,8,0.5,0.6
2023-12-31T2000,2697A,76.1454,39.7142,克孜勒苏柯尔克孜自治州,市人民政府,颗粒物(PM10),139,227,219,74,89,63,,78,78,29,19,6,5,0.8,1.2
2023-12-31T2000,3665A,76.1658,39.7157,克孜勒苏柯尔克孜自治州,克州文化中心,颗粒物(PM10),147,244,252,70,84,71,,81,81,27,26,9,9,,1
2023-12-31T2000,1450A,102.8204,24.8886,昆明市,呈贡新区,,24,24,40,13,22,67,,80,80,13,29,5,7,0.1,0.4
2023-12-31T2000,1451A,102.6251,24.9608,昆明市,西山森林公园,,25,17,15,9,13,80,,90,90,6,8,7,7,0.6,0.6
2023-12-31T2000,1452A,102.7252,25.0902,昆明市,龙泉镇,,32,32,37,16,24,43,,75,75,36,32,8,8,0.5,0.7
2023-12-31T2000,1453A,102.7266,25.0375,昆明市,东风东路,,24,24,44,16,28,59,,75,75,20,33,8,9,0.5,0.7
2023-12-31T2000,1454A,102.6742,25.0669,昆明市,金鼎山,,33,33,88,18,48,54,,77,77,29,36,10,50,0.5,1.2
2023-12-31T2000,1455A,102.6644,25.0401,昆明市,碧鸡广场,,43,43,43,23,25,43,,73,72,38,37,8,11,0.6,0.7
2023-12-31T2000,3179A,102.7494,25.0119,昆明市,官渡区博物馆,,27,27,57,14,35,58,,79,79,22,36,7,10,0.4,0.9
2023-12-31T2000,3375A,102.8017,24.8336,昆明市,青年创业园,,22,22,29,11,15,68,,84,84,8,27,9,13,0.6,0.7
2023-12-31T2000,3550A,102.7997,24.9786,昆明市,昆明学院,,24,24,58,13,31,65,,81,81,14,28,9,11,0.5,0.7
2023-12-31T2000,3551A,102.5967,24.6736,昆明市,晋宁区生态环境分局,,25,,32,17,20,65,,82,81,13,21,10,8,0.3,0.4
2023-12-31T2000,3552A,102.6678,24.9856,昆明市,云天化总部,,22,17,31,10,19,70,,84,84,9,32,8,9,0.6,0.7
2023-12-31T2000,1456A,91.1319,29.6514,拉萨市,八廓街,,44,44,26,27,16,55,,73,72,55,37,9,12,0.7,0.6
2023-12-31T2000,1457A,91.1221,29.6747,拉萨市,市环保局,,30,30,49,14,21,65,,73,73,31,34,7,12,0.7,1.2
2023-12-31T2000,1458A,91.0874,29.6475,拉萨市,区监测站,,31,31,23,15,13,46,,74,72,52,36,6,10,0.6,0.7
2023-12-31T2000,1459A,91.1774,29.6541,拉萨市,西藏大学,,32,32,25,15,13,66,,77,77,30,21,6,10,0.8,0.9
2023-12-31T2000,1460A,90.9798,29.6588,拉萨市,区辐射站,细颗粒物(PM2.5),67,72,42,48,27,28,,59,57,70,42,12,9,1.4,1.1
2023-12-31T2000,1461A,91.0834,29.6292,拉萨市,拉萨火车站,,24,19,29,7,16,76,,72,72,19,39,6,7,0.6,1
2023-12-31T2000,2520A,109.2203,23.7256,来宾市,来宾技工学校,细颗粒物(PM2.5),89,88,113,66,80,88,,123,123,30,34,8,11,1.1,1.2
2023-12-31T2000,3535A,109.1781,23.7297,来宾市,兴宾区政府,细颗粒物(PM2.5),97,90,106,72,84,102,,135,135,27,23,8,10,0.9,1
2023-12-31T2000,4002A,109.2416,23.7461,来宾市,中南小学,细颗粒物(PM2.5),103,114,135,77,96,80,,122,121,40,43,10,13,1.2,1.3
2023-12-31T2000,1476A,103.631,36.1031,兰州市,兰炼宾馆,颗粒物(PM10),89,127,117,53,63,36,,47,47,62,70,17,34,1.0,1.8
2023-12-31T2000,1477A,104.1373,35.9454,兰州市,榆中兰大校区,,,,,,,,,,,,,,,,
2023-12-31T2000,1478A,103.8412,36.0726,兰州市,生物制品所,细颗粒物(PM2.5),94,92,102,70,63,45,,51,51,50,64,20,24,0.6,1.4
2023-12-31T2000,1479A,103.831,36.0464,兰州市,铁路设计院,细颗粒物(PM2.5),77,86,120,56,70,47,,33,33,58,80,17,26,0.9,2.2
2023-12-31T2000,3186A,103.7158,36.1058,兰州市,教育港,颗粒物(PM10),76,102,96,36,50,54,,58,58,41,64,15,22,0.6,1.6
2023-12-31T2000,3241A,103.7439,36.0842,兰州市,百合公园,颗粒物(PM10),86,121,106,51,59,25,,42,42,76,70,17,22,1.0,1.6
2023-12-31T2000,3242A,103.9611,35.998,兰州市,和平,细颗粒物(PM2.5),105,119,114,79,66,37,,52,52,57,63,25,26,1.2,1.8
2023-12-31T2000,3245A,103.6633,36.533,兰州新区,新区管委会,颗粒物(PM10),75,100,90,35,42,65,,70,70,14,29,9,16,0.4,0.9
2023-12-31T2000,3246A,103.6975,36.4789,兰州新区,舟曲中学,颗粒物(PM10),68,85,100,15,42,62,,73,73,18,39,6,29,0.4,0.9
2023-12-31T2000,1067A,116.6708,39.5111,廊坊市,药材公司,,47,47,57,21,21,35,,66,60,44,33,1,2,0.5,0.5
2023-12-31T2000,1068A,116.7214,39.5589,廊坊市,开发区,,50,50,46,23,23,30,,67,58,50,37,3,2,0.5,0.4
2023-12-31T2000,1070A,116.7244,39.5269,廊坊市,北华航天学院,颗粒物(PM10),54,58,51,26,19,37,,66,60,41,28,4,2,0.5,0.4
2023-12-31T2000,2919A,116.7022,39.5453,廊坊市,河北工业大学,颗粒物(PM10),52,54,62,23,22,38,,63,57,33,24,3,2,0.4,0.4
2023-12-31T2000,2535A,103.7723,29.5462,乐山市,花湖湾,细颗粒物(PM2.5),278,309,275,228,193,2,,25,8,48,22,3,2,1.0,0.8
2023-12-31T2000,2536A,103.7627,29.5844,乐山市,牛耳桥,细颗粒物(PM2.5),254,228,204,204,181,7,,28,14,55,37,3,3,1.6,1.3
2023-12-31T2000,2537A,103.7508,29.6006,乐山市,市第三水厂,细颗粒物(PM2.5),229,234,202,179,156,12,,31,14,49,37,3,3,1.4,1.3
2023-12-31T2000,2538A,103.7571,29.5664,乐山市,市监测站,细颗粒物(PM2.5),241,220,186,191,166,4,,29,15,50,31,6,6,1.2,1
2023-12-31T2000,3361A,103.7311,29.5628,乐山市,理工大学,细颗粒物(PM2.5),254,244,199,204,166,3,,32,12,50,34,7,6,1.6,1.3
2023-12-31T2000,2598A,100.2143,26.8576,丽江市,西南郊,,,,,,,,,,,,,,,,
2023-12-31T2000,2599A,100.2497,26.8802,丽江市,丽江古城,颗粒物(PM10),51,51,37,25,17,68,,79,79,25,17,8,8,0.7,0.6
2023-12-31T2000,2600A,100.2203,26.8906,丽江市,市中心,,,27,20,9,6,72,,77,77,,18,,6,0.8,0.7
2023-12-31T2000,1267A,119.914,28.4514,丽水市,监测站大楼,细颗粒物(PM2.5),89,114,79,66,61,73,,114,113,46,29,8,7,1.0,1
2023-12-31T2000,1268A,119.93,28.4586,丽水市,莲都小学,"颗粒物(PM10),细颗粒物(PM2.5)",74,97,106,54,58,90,,113,113,33,31,4,4,0.7,0.9
2023-12-31T2000,1269A,119.879,28.4231,丽水市,余庄前,细颗粒物(PM2.5),78,77,74,57,56,56,,106,102,22,20,4,5,0.6,0.6
2023-12-31T2000,1173A,119.176,34.5885,连云港市,市环境监测站,细颗粒物(PM2.5),113,119,208,85,178,45,,67,65,33,43,8,12,1.0,1.5
2023-12-31T2000,3000A,119.3581,34.6972,连云港市,德源药业,,,88,209,53,170,54,,60,59,26,50,7,8,,1.7
2023-12-31T2000,3007A,119.178,34.844,连云港市,新城一中,细颗粒物(PM2.5),77,72,178,56,177,42,,63,60,40,45,9,11,0.7,1.6
2023-12-31T2000,3008A,119.3608,34.7519,连云港市,胡沟管理处,颗粒物(PM10),65,80,183,46,156,59,,61,61,22,43,9,10,1.3,1.7
2023-12-31T2000,3009A,119.1478,34.5911,连云港市,矿山设计院,细颗粒物(PM2.5),107,122,213,80,160,42,,62,60,30,42,8,8,1.1,1.6
2023-12-31T2000,3434A,119.2413,34.6539,连云港市,工贸学校,细颗粒物(PM2.5),102,115,231,76,179,50,,72,70,32,43,9,11,1.1,1.6
2023-12-31T2000,3664A,119.4172,34.7341,连云港市,连云街道,细颗粒物(PM2.5),64,70,204,46,170,40,,56,54,46,51,5,10,1.1,1.7
2023-12-31T2000,2571A,102.3431,27.8099,凉山彝族自治州,青龙寺,,42,42,39,16,16,72,,100,100,12,10,5,8,0.8,0.9
2023-12-31T2000,2572A,102.2721,27.8415,凉山彝族自治州,邛海宾馆,细颗粒物(PM2.5),105,,51,79,37,72,,91,91,23,20,13,14,1.0,0.9
2023-12-31T2000,2573A,102.2625,27.898,凉山彝族自治州,西昌市政府,,32,32,41,20,29,78,,90,90,15,16,18,16,0.9,0.8
2023-12-31T2000,2574A,102.2685,27.8851,凉山彝族自治州,凉山州政府,,45,45,45,29,32,72,,86,86,17,18,13,12,0.7,0.8
2023-12-31T2000,2575A,102.237,27.8914,凉山彝族自治州,长安,,25,22,51,13,35,80,,87,87,18,27,19,20,0.9,0.6
2023-12-31T2000,2212A,123.2,41.1953,辽阳市,宏伟区,细颗粒物(PM2.5),60,53,71,43,62,30,,44,42,35,24,14,12,0.6,0.7
2023-12-31T2000,2213A,123.1683,41.2495,辽阳市,新华园,细颗粒物(PM2.5),65,53,69,47,65,29,,49,46,42,25,8,5,1.0,0.9
2023-12-31T2000,2214A,123.2354,41.2639,辽阳市,滨河路,细颗粒物(PM2.5),88,,65,65,80,29,,44,39,37,25,11,10,0.9,0.8
2023-12-31T2000,2215A,123.149,41.2991,辽阳市,铁西工业园,细颗粒物(PM2.5),93,,63,69,71,14,,52,41,50,22,12,11,1.0,0.8
2023-12-31T2000,2227A,125.1358,42.8845,辽源市,环保局,细颗粒物(PM2.5),59,54,66,42,54,45,,59,58,32,30,11,16,0.9,1
2023-12-31T2000,3239A,125.0764,42.9078,辽源市,银鹰制药,细颗粒物(PM2.5),92,76,80,68,63,40,,64,59,34,25,9,6,0.9,0.9
2023-12-31T2000,1625A,115.9848,36.4372,聊城市,区政府,细颗粒物(PM2.5),103,106,187,77,134,44,,52,52,47,51,4,3,1.1,1.7
2023-12-31T2000,2878A,116.0072,36.4343,聊城市,聊大东校,细颗粒物(PM2.5),104,97,181,78,142,41,,56,55,38,36,4,4,0.8,1.2
2023-12-31T2000,3200A,115.9819,36.4978,聊城市,监控中心,细颗粒物(PM2.5),163,156,170,124,139,12,,44,41,80,54,1,3,1.4,1.5
2023-12-31T2000,3513A,116.0445,36.4361,聊城市,九州社区,细颗粒物(PM2.5),108,103,178,81,132,45,,57,57,43,45,2,2,1.0,1.7
2023-12-31T2000,4018A,116.0567,36.4608,聊城市,星美广场,细颗粒物(PM2.5),97,102,177,72,134,42,,50,50,38,40,3,3,0.9,1.4
2023-12-31T2000,2632A,94.3681,29.6376,林芝市,林芝监测站,,25,,16,10,9,77,,77,77,4,15,7,7,0.4,0.5
2023-12-31T2000,2633A,94.3616,29.6616,林芝市,林芝人民医院,,24,14,14,6,7,75,,75,75,4,10,8,8,0.2,0.3
2023-12-31T2000,2603A,100.0781,23.8982,临沧市,市环保局,,33,31,26,23,23,55,,73,73,14,14,13,9,0.5,0.5
2023-12-31T2000,2604A,100.0894,23.8822,临沧市,市气象局,,39,39,30,24,25,38,,71,70,22,15,6,6,0.6,0.4
2023-12-31T2000,1733A,111.5531,36.0783,临汾市,临钢医院,细颗粒物(PM2.5),105,136,91,79,38,36,,57,56,56,40,22,13,1.2,0.7
2023-12-31T2000,1734A,111.5028,36.0714,临汾市,技工学校,细颗粒物(PM2.5),112,125,96,84,45,56,,64,64,47,39,23,15,1.2,0.9
2023-12-31T2000,1736A,111.5018,36.0855,临汾市,市委,细颗粒物(PM2.5),97,116,95,72,35,64,,72,72,48,41,22,13,1.1,0.7
2023-12-31T2000,3018A,111.505,36.1014,临汾市,唐尧大酒店,细颗粒物(PM2.5),93,114,93,69,38,51,,58,58,49,40,22,14,1.1,0.8
2023-12-31T2000,3668A,111.5036,36.0414,临汾市,城南,细颗粒物(PM2.5),95,125,92,71,40,50,,64,63,51,38,21,12,1.0,0.7
2023-12-31T2000,2667A,103.2069,35.5993,临夏回族自治州,环保局,颗粒物(PM10),52,53,85,33,34,46,,58,58,32,42,22,25,1.0,2.4
2023-12-31T2000,2668A,103.2417,35.6057,临夏回族自治州,建设大厦,细颗粒物(PM2.5),69,83,68,50,32,52,,67,67,29,25,20,15,1.0,1.2
2023-12-31T2000,1618A,118.3429,35.0532,临沂市,沂河小区,细颗粒物(PM2.5),107,102,170,80,131,54,,57,57,35,51,7,10,0.6,1.1
2023-12-31T2000,1619A,118.295,35.0583,临沂市,鲁南制药厂,细颗粒物(PM2.5),110,112,180,83,134,44,,61,61,38,53,5,9,0.8,1.4
2023-12-31T2000,1620A,118.2794,34.9976,临沂市,新光毛纺厂,细颗粒物(PM2.5),102,102,175,76,120,44,,57,56,37,54,3,7,0.7,1.2
2023-12-31T2000,1621A,118.3956,35.0888,临沂市,河东保险公司,细颗粒物(PM2.5),85,88,162,63,120,44,,59,58,29,39,5,6,0.9,1.4
2023-12-31T2000,3370A,118.3564,35.0215,临沂市,十里堡居委,细颗粒物(PM2.5),79,85,171,58,123,49,,62,61,35,53,3,5,0.6,1.2
2023-12-31T2000,3496A,118.3604,35.1084,临沂市,南坊新区,细颗粒物(PM2.5),107,117,168,80,126,32,,57,56,48,47,9,9,1.1,1.5
2023-12-31T2000,3860A,118.3920,35.0300,临沂市,皇山花园小区,细颗粒物(PM2.5),74,83,164,54,116,49,,61,60,40,58,4,7,0.7,1.3
2023-12-31T2000,1870A,109.4856,24.3895,柳州市,柳东小学,细颗粒物(PM2.5),132,116,114,100,108,107,,120,120,25,26,21,24,0.9,1
2023-12-31T2000,1871A,109.4157,24.3277,柳州市,环保监测站,细颗粒物(PM2.5),123,120,147,93,114,99,,110,110,27,48,14,17,1.0,1.3
2023-12-31T2000,1872A,109.389,24.341,柳州市,河西水厂,细颗粒物(PM2.5),115,119,161,87,102,100,,108,108,21,50,14,19,1.1,1.4
2023-12-31T2000,1873A,109.4311,24.2921,柳州市,市四中,细颗粒物(PM2.5),114,107,146,86,107,98,,116,116,28,51,13,16,1.1,1.6
2023-12-31T2000,1874A,109.4006,24.3631,柳州市,市九中,细颗粒物(PM2.5),114,112,152,86,114,100,,107,107,19,40,12,13,1.0,1.2
2023-12-31T2000,1875A,109.4958,24.3134,柳州市,古亭山,细颗粒物(PM2.5),122,97,99,92,83,109,,122,122,18,43,20,13,1.1,1.1
2023-12-31T2000,3402A,109.5422,24.3996,柳州市,市二中,细颗粒物(PM2.5),129,105,118,98,99,115,,127,127,16,26,15,9,1.0,1
2023-12-31T2000,2307A,116.5079,31.737,六安市,监测大楼,细颗粒物(PM2.5),115,119,129,87,106,75,,95,94,33,30,8,6,0.8,0.9
2023-12-31T2000,2308A,116.4738,31.7643,六安市,皖西学院,细颗粒物(PM2.5),102,114,134,76,93,80,,96,95,28,27,6,5,0.8,0.9
2023-12-31T2000,2309A,116.4996,31.7905,六安市,朝阳厂,细颗粒物(PM2.5),108,113,130,81,106,73,,93,93,30,27,5,6,0.7,0.8
2023-12-31T2000,2310A,116.5567,31.7886,六安市,开发区,细颗粒物(PM2.5),119,149,154,90,99,61,,92,90,40,39,5,5,0.7,0.9
2023-12-31T2000,2576A,104.8,26.5892,六盘水市,窑上,,,,,,,,,,,,,,,,
2023-12-31T2000,2577A,104.83,26.5917,六盘水市,黄土坡,细颗粒物(PM2.5),77,87,76,56,56,48,,92,90,49,26,17,14,1.3,1
2023-12-31T2000,2578A,104.89,26.5939,六盘水市,水钢,细颗粒物(PM2.5),79,80,73,58,61,97,,103,103,18,16,10,8,0.6,0.7
2023-12-31T2000,2579A,104.8475,26.5894,六盘水市,民中,细颗粒物(PM2.5),89,71,77,66,63,81,,92,92,30,28,12,15,0.8,1
2023-12-31T2000,2580A,104.9544,26.5506,六盘水市,双水,颗粒物(PM10),52,53,69,32,53,103,,104,104,15,16,8,9,0.6,0.8
2023-12-31T2000,2335A,117.0189,25.1181,龙岩市,龙岩师专,,,,,,,,,,,,,,,,
2023-12-31T2000,2336A,117.0217,25.1033,龙岩市,龙岩市监测站,颗粒物(PM10),60,70,57,41,39,22,,86,81,61,33,12,11,1.2,0.9
2023-12-31T2000,2337A,117.0258,25.0661,龙岩市,闽西职业技术学院,颗粒物(PM10),62,73,62,43,37,16,,74,68,54,31,5,9,0.9,1
2023-12-31T2000,2338A,117.0196,25.0306,龙岩市,龙岩学院,,46,46,47,32,36,46,,77,77,18,27,3,5,0.5,0.4
2023-12-31T2000,2665A,105.0822,33.3261,陇南市,汉王镇固水子,,,,,,,,,,,,,,,,
2023-12-31T2000,2885A,104.9339,33.3826,陇南市,滨江中学,,,,95,,53,,,12,,,55,,50,,3.1
2023-12-31T2000,3247A,104.955,33.371,陇南市,市总工会,颗粒物(PM10),66,81,79,47,48,68,,73,73,26,42,8,12,0.5,0.9
2023-12-31T2000,2487A,111.9589,27.8901,娄底市,电视发射台,细颗粒物(PM2.5),117,109,116,88,92,97,,96,96,21,27,6,5,1.1,1.4
2023-12-31T2000,2488A,111.9975,27.725,娄底市,市监测站,细颗粒物(PM2.5),140,122,190,107,162,89,,94,94,24,39,7,8,0.7,1.7
2023-12-31T2000,2489A,112.0194,27.7314,娄底市,市委党校,细颗粒物(PM2.5),138,123,181,105,152,87,,88,88,41,57,4,5,0.8,1.5
2023-12-31T2000,2490A,111.9561,27.7569,娄底市,涟钢,细颗粒物(PM2.5),155,139,182,118,153,81,,85,85,26,29,6,6,1.8,1.9
2023-12-31T2000,2491A,111.9892,27.7044,娄底市,市政府,细颗粒物(PM2.5),139,119,178,106,152,94,,94,94,39,46,6,6,0.7,1.1
2023-12-31T2000,1893A,105.4324,28.9634,泸州市,九狮山,细颗粒物(PM2.5),256,231,184,206,148,8,,19,18,38,32,5,5,0.8,0.6
2023-12-31T2000,1894A,105.4427,28.9063,泸州市,小市上码头,细颗粒物(PM2.5),233,216,204,183,169,10,,24,22,43,40,2,2,1.2,1.1
2023-12-31T2000,1895A,105.4241,28.8573,泸州市,兰田宪桥,细颗粒物(PM2.5),218,206,195,168,164,7,,14,14,40,37,4,4,1.3,1.3
2023-12-31T2000,1896A,105.4379,28.8833,泸州市,市环监站,细颗粒物(PM2.5),228,195,186,178,171,7,,17,17,38,37,4,4,1.0,1
2023-12-31T2000,3490A,105.3617,28.7703,泸州市,纳溪区环保局,细颗粒物(PM2.5),252,207,202,202,163,8,,16,16,48,38,4,3,1.4,1.2
2023-12-31T2000,2183A,111.1406,37.5211,吕梁市,环保局,颗粒物(PM10),86,122,79,47,28,2,,40,29,70,52,7,5,1.0,0.5
2023-12-31T2000,2185A,111.1297,37.5136,吕梁市,自来水公司,颗粒物(PM10),74,98,82,47,35,11,,39,31,57,47,6,8,0.8,0.6
2023-12-31T2000,2867A,111.1283,37.51,吕梁市,马茂庄小学,颗粒物(PM10),81,111,89,44,33,2,,40,30,72,50,7,4,1.0,0.5
2023-12-31T2000,1812A,112.3931,34.6516,洛阳市,市委党校,细颗粒物(PM2.5),70,79,104,51,63,41,,56,56,43,47,8,9,0.8,1
2023-12-31T2000,1814A,112.4657,34.6871,洛阳市,豫西宾馆,细颗粒物(PM2.5),74,83,115,54,60,48,,60,60,38,51,6,9,0.6,1
2023-12-31T2000,1815A,112.494,34.6886,洛阳市,河南林校,细颗粒物(PM2.5),72,76,98,52,59,45,,65,64,44,51,8,9,0.5,0.8
2023-12-31T2000,1816A,112.3844,34.623,洛阳市,开发区管委会,细颗粒物(PM2.5),74,88,90,54,55,45,,63,62,43,38,3,4,0.7,0.8
2023-12-31T2000,1817A,112.4267,34.6258,洛阳市,市委新办公区,细颗粒物(PM2.5),87,88,99,64,74,40,,61,60,40,34,5,6,0.8,0.9
2023-12-31T2000,3340A,112.6005,34.6326,洛阳市,伊滨,细颗粒物(PM2.5),93,126,118,69,62,32,,56,54,43,40,3,4,0.9,0.9
2023-12-31T2000,3341A,112.4951,34.6332,洛阳市,中移产业园,细颗粒物(PM2.5),72,80,95,52,66,46,,63,63,34,41,5,7,0.8,1
2023-12-31T2000,3593A,112.5736,34.8993,洛阳市,吉利监测站,细颗粒物(PM2.5),58,60,104,41,52,59,,63,63,29,46,6,5,0.9,0.9
2023-12-31T2000,3635A,112.3677,34.662,洛阳市,河科大西苑校区,细颗粒物(PM2.5),73,80,111,53,63,52,,65,65,36,47,4,10,0.5,0.8
2023-12-31T2000,3636A,112.4388,34.6781,洛阳市,英才小学,细颗粒物(PM2.5),77,75,109,56,63,46,,58,58,33,45,4,7,0.7,1.1
2023-12-31T2000,2399A,114.051,33.5699,漯河市,三五一五工厂,细颗粒物(PM2.5),178,173,141,134,113,39,,68,67,40,30,3,4,1.2,1
2023-12-31T2000,2400A,114.0055,33.5698,漯河市,漯河大学,细颗粒物(PM2.5),166,158,134,126,105,59,,76,76,26,24,5,6,1.0,0.9
2023-12-31T2000,2401A,114.0138,33.5828,漯河市,市水利局,细颗粒物(PM2.5),163,163,141,124,106,52,,72,72,30,29,6,7,1.2,1.1
2023-12-31T2000,2402A,114.0261,33.5698,漯河市,市广电局,细颗粒物(PM2.5),159,168,143,121,103,52,,71,71,36,33,2,3,1.1,1
2023-12-31T2000,3478A,113.9749,33.5664,漯河市,市图书馆,细颗粒物(PM2.5),155,148,137,118,102,58,,71,71,29,32,5,7,0.9,0.8
2023-12-31T2000,3479A,114.0967,33.5906,漯河市,召陵区卫健委,细颗粒物(PM2.5),193,194,149,145,112,11,,61,57,67,31,5,5,1.0,0.9
2023-12-31T2000,1798A,118.5092,31.6837,马鞍山市,湖东路四小,细颗粒物(PM2.5),115,141,152,87,114,63,,83,82,50,50,8,15,0.9,1.1
2023-12-31T2000,1799A,118.5024,31.6449,马鞍山市,开发区,细颗粒物(PM2.5),114,127,140,86,111,81,,92,92,33,46,10,14,0.5,0.8
2023-12-31T2000,1800A,118.5228,31.7231,马鞍山市,慈湖,细颗粒物(PM2.5),124,111,142,94,123,78,,83,83,32,52,7,13,1.2,1.6
2023-12-31T2000,1802A,118.6245,31.7241,马鞍山市,濮塘,细颗粒物(PM2.5),112,134,141,84,88,67,,80,80,25,25,6,7,0.8,1
2023-12-31T2000,3633A,118.4918,31.6809,马鞍山市,雨山,细颗粒物(PM2.5),122,150,146,92,112,73,,87,87,37,45,9,16,0.9,1.3
2023-12-31T2000,1686A,111.0286,21.4688,茂名市,电白南海,颗粒物(PM10),60,70,75,34,61,78,,122,119,47,32,11,15,0.6,0.7
2023-12-31T2000,1687A,110.9294,21.6533,茂名市,茂石化七小,颗粒物(PM10),64,78,69,44,55,77,,99,99,22,22,16,16,0.8,1
2023-12-31T2000,1688A,110.9107,21.6687,茂名市,健康路,细颗粒物(PM2.5),62,61,64,44,46,81,,103,103,18,16,15,16,0.8,0.9
2023-12-31T2000,1689A,110.8592,21.6828,茂名市,高岭,颗粒物(PM10),64,78,61,44,45,62,,108,106,37,23,15,19,0.6,0.9
2023-12-31T2000,3450A,111.01,21.5165,茂名市,电白水东,颗粒物(PM10),53,56,72,34,53,88,,12,,30,30,10,17,0.8,0.9
2023-12-31T2000,2539A,104.0308,30.0478,眉山市,黑龙滩水库,细颗粒物(PM2.5),118,124,157,89,104,74,,69,69,11,13,5,5,0.6,0.8
2023-12-31T2000,2540A,103.8416,30.0874,眉山市,气象局,细颗粒物(PM2.5),282,244,184,232,171,7,,27,26,72,45,8,6,1.7,1.2
2023-12-31T2000,3137A,103.8578,30.0744,眉山市,市委党校,细颗粒物(PM2.5),262,244,188,212,169,4,,32,30,80,51,8,7,1.2,1
2023-12-31T2000,3148A,103.8291,30.0564,眉山市,区人社局,细颗粒物(PM2.5),277,246,161,227,173,6,,26,26,81,52,10,10,1.1,0.9
2023-12-31T2000,1690A,116.1231,24.3284,梅州市,梅江月梅,细颗粒物(PM2.5),80,72,53,59,38,36,,82,80,48,31,9,9,0.6,0.6
2023-12-31T2000,1691A,116.0797,24.2719,梅州市,梅县新城,颗粒物(PM10),74,97,50,53,40,4,,73,67,68,32,5,5,1.3,0.8
2023-12-31T2000,1692A,116.1248,24.2654,梅州市,环境监控中心,细颗粒物(PM2.5),54,50,48,38,37,27,,71,68,56,34,6,7,0.7,0.6
2023-12-31T2000,3315A,116.1233,24.2991,梅州市,梅龙,颗粒物(PM10),69,88,47,47,37,11,,80,75,60,29,7,7,1.3,0.8
2023-12-31T2000,1878A,104.7778,31.4741,绵阳市,富乐山,细颗粒物(PM2.5),204,166,138,154,114,6,,18,16,44,38,7,6,1.5,1.2
2023-12-31T2000,1879A,104.7563,31.4535,绵阳市,市人大,细颗粒物(PM2.5),213,178,162,163,128,3,,13,11,63,42,9,7,1.6,1.2
2023-12-31T2000,1880A,104.6697,31.4668,绵阳市,高新区自来水公司,细颗粒物(PM2.5),200,199,163,150,112,2,,12,11,61,42,7,7,1.4,1.1
2023-12-31T2000,1881A,104.7287,31.5075,绵阳市,三水厂,细颗粒物(PM2.5),213,191,165,163,128,6,,13,12,68,48,7,5,1.9,1.4
2023-12-31T2000,3491A,104.69,31.5322,绵阳市,西科大附属小学,细颗粒物(PM2.5),209,191,150,159,111,3,,10,9,61,46,5,2,1.7,1.4
2023-12-31T2000,3492A,104.5648,31.5343,绵阳市,安州区旅游局,细颗粒物(PM2.5),198,194,141,148,115,3,,30,29,72,45,8,7,1.2,1
2023-12-31T2000,1784A,129.61,44.561,牡丹江市,环保大楼,细颗粒物(PM2.5),77,63,50,56,40,24,,61,46,48,29,11,20,0.8,0.5
2023-12-31T2000,1785A,129.6115,44.5782,牡丹江市,文化广场,细颗粒物(PM2.5),148,131,57,113,49,10,,46,34,69,33,22,19,1.7,0.8
2023-12-31T2000,1786A,129.5904,44.5963,牡丹江市,第一医院,细颗粒物(PM2.5),107,87,61,80,52,21,,52,39,50,27,22,16,1.2,0.7
2023-12-31T2000,1787A,129.6364,44.6075,牡丹江市,机车工厂,细颗粒物(PM2.5),118,142,62,89,45,10,,57,44,63,25,25,22,1.1,0.6
2023-12-31T2000,1788A,129.6386,44.5462,牡丹江市,第一中学,细颗粒物(PM2.5),77,,48,56,42,30,,60,43,35,23,10,12,0.9,0.7
2023-12-31T2000,2531A,105.0703,29.61,内江市,市监测站,细颗粒物(PM2.5),189,,150,142,154,18,,47,25,29,25,7,6,1.3,1.2
2023-12-31T2000,2532A,105.0717,29.5947,内江市,东兴区政府,细颗粒物(PM2.5),165,136,157,125,145,14,,45,22,29,24,7,6,0.8,0.7
2023-12-31T2000,2533A,105.0653,29.5817,内江市,内江二中,细颗粒物(PM2.5),180,,158,136,158,14,,47,23,34,28,6,5,1.2,1.1
2023-12-31T2000,2534A,105.0406,29.5822,内江市,内江日报社,细颗粒物(PM2.5),160,125,152,122,140,21,,46,22,25,27,9,9,1.0,0.9
2023-12-31T2000,1290A,115.8931,28.6843,南昌市,省外办,颗粒物(PM10),114,178,190,83,147,96,,102,102,21,42,9,8,0.9,1.4
2023-12-31T2000,1291A,115.8886,28.7003,南昌市,省林业公司,"颗粒物(PM10),细颗粒物(PM2.5)",104,158,172,78,134,95,,104,104,35,55,8,9,0.8,1.2
2023-12-31T2000,1292A,115.8126,28.7442,南昌市,林科所,细颗粒物(PM2.5),89,124,142,66,110,109,,117,117,39,58,8,8,1.0,1.1
2023-12-31T2000,1294A,115.8518,28.687,南昌市,建工学校,颗粒物(PM10),110,170,185,79,134,100,,109,109,22,39,12,13,0.8,1.2
2023-12-31T2000,1295A,115.8921,28.6424,南昌市,象湖,细颗粒物(PM2.5),112,131,152,84,137,97,,102,102,28,42,10,9,0.8,1.2
2023-12-31T2000,1296A,115.7423,28.7996,南昌市,武术学校,细颗粒物(PM2.5),80,75,89,59,66,97,,107,107,20,16,15,12,0.7,0.9
2023-12-31T2000,1298A,115.9314,28.6842,南昌市,省站,颗粒物(PM10),104,158,194,75,139,98,,104,104,20,35,10,10,0.6,1.1
2023-12-31T2000,3046A,115.9084,28.6062,南昌市,机电学校,颗粒物(PM10),112,174,188,83,141,104,,110,110,22,40,10,10,0.9,1.1
2023-12-31T2000,3690A,115.9721,28.7031,南昌市,外国语学校,细颗粒物(PM2.5),110,157,180,83,139,92,,103,103,31,38,9,7,0.7,1.1
2023-12-31T2000,1905A,106.056,30.8064,南充市,西山风景区,细颗粒物(PM2.5),144,,,110,93,1,,33,2,28,20,6,3,1.0,0.9
2023-12-31T2000,1906A,106.0789,30.8023,南充市,南充市委,细颗粒物(PM2.5),132,110,116,100,90,4,,8,5,29,28,8,4,1.0,0.9
2023-12-31T2000,1907A,106.1031,30.8217,南充市,南充炼油厂,细颗粒物(PM2.5),150,136,133,115,107,1,,7,3,24,26,4,4,0.9,0.8
2023-12-31T2000,1908A,106.1064,30.7856,南充市,高坪区监测站,细颗粒物(PM2.5),152,135,160,116,118,4,,6,5,30,33,6,6,0.9,0.9
2023-12-31T2000,1909A,106.0642,30.7636,南充市,嘉陵区环保局,细颗粒物(PM2.5),132,124,144,100,100,2,,3,3,27,32,5,9,0.9,0.9
2023-12-31T2000,1910A,106.1087,30.8388,南充市,市环境监测站,细颗粒物(PM2.5),128,125,125,97,100,3,,7,5,22,24,5,6,0.9,0.8
2023-12-31T2000,1151A,118.8086,32.1065,南京市,迈皋桥,细颗粒物(PM2.5),149,173,157,114,112,58,,83,81,43,27,6,7,1.0,0.9
2023-12-31T2000,1152A,118.7538,32.0551,南京市,草场门,细颗粒物(PM2.5),122,144,136,92,101,78,,90,90,39,36,4,6,0.9,0.9
2023-12-31T2000,1153A,118.7794,32.0745,南京市,山西路,细颗粒物(PM2.5),163,181,168,124,126,75,,94,92,34,26,6,8,1.0,1
2023-12-31T2000,1154A,118.7752,32.0023,南京市,中华门,细颗粒物(PM2.5),125,149,143,95,104,70,,89,88,41,36,10,11,1.3,1.3
2023-12-31T2000,1155A,118.8109,32.0309,南京市,瑞金路,细颗粒物(PM2.5),134,163,158,102,107,72,,88,88,34,30,6,8,1.0,1
2023-12-31T2000,1156A,118.7997,32.0754,南京市,玄武湖,细颗粒物(PM2.5),138,156,153,105,114,57,,86,83,46,28,7,9,1.1,1
2023-12-31T2000,1157A,118.6414,32.0931,南京市,浦口,细颗粒物(PM2.5),159,169,166,121,119,75,,92,92,35,29,5,6,0.8,0.7
2023-12-31T2000,1158A,118.7356,31.9996,南京市,奥体中心,细颗粒物(PM2.5),132,154,148,100,105,77,,96,95,47,43,6,9,1.1,1.1
2023-12-31T2000,1159A,118.9125,32.1028,南京市,仙林大学城,细颗粒物(PM2.5),147,161,153,112,122,52,,87,85,56,40,5,6,1.1,1.2
2023-12-31T2000,3422A,118.8436,31.9198,南京市,江宁彩虹桥,细颗粒物(PM2.5),144,166,159,110,106,69,,91,90,42,33,8,9,1.2,1.1
2023-12-31T2000,3423A,119.0138,31.6494,南京市,溧水永阳,细颗粒物(PM2.5),214,183,139,164,131,66,,91,90,39,32,3,4,1.3,1.1
2023-12-31T2000,3424A,118.879,31.3302,南京市,高淳老职中,细颗粒物(PM2.5),185,166,146,139,118,79,,92,92,37,36,6,6,1.0,0.9
2023-12-31T2000,3427A,118.8554,32.3578,南京市,六合雄州,细颗粒物(PM2.5),153,176,164,117,107,73,,87,87,26,25,4,6,1.3,1.2
2023-12-31T2000,1401A,108.3103,22.7881,南宁市,二十一中,细颗粒物(PM2.5),78,77,67,57,47,66,,102,102,48,38,6,8,1.2,1.1
2023-12-31T2000,1402A,108.3141,22.8528,南宁市,北湖,细颗粒物(PM2.5),83,91,78,61,51,58,,88,87,46,33,7,9,1.1,0.9
2023-12-31T2000,1403A,108.3206,22.8225,南宁市,市监测站,细颗粒物(PM2.5),77,74,70,56,47,46,,91,90,73,46,7,9,1.2,1
2023-12-31T2000,1404A,108.3829,22.8037,南宁市,大自然花园,细颗粒物(PM2.5),84,84,53,62,40,53,,89,88,50,25,7,8,1.0,0.8
2023-12-31T2000,1405A,108.4394,22.7904,南宁市,仙葫,,,124,70,75,47,,,16,,76,36,6,6,1.2,0.8
2023-12-31T2000,1406A,108.2397,22.8467,南宁市,区农职院,细颗粒物(PM2.5),77,81,68,56,43,19,,92,86,83,40,8,10,1.4,1.1
2023-12-31T2000,1407A,108.3275,22.735,南宁市,英华嘉园,细颗粒物(PM2.5),93,102,68,69,45,8,,84,78,98,47,6,6,1.3,1
2023-12-31T2000,1408A,108.2257,22.7757,南宁市,沙井镇街道办,颗粒物(PM10),111,172,93,64,49,0,,77,73,90,51,5,7,1.0,0.9
2023-12-31T2000,3401A,108.4834,22.7618,南宁市,红星社区,细颗粒物(PM2.5),125,,69,95,52,64,,93,93,37,29,9,8,1.0,0.8
2023-12-31T2000,2331A,118.0966,26.6761,南平市,茫荡山,,,,,,,,,,,,,,,,
2023-12-31T2000,2332A,118.1681,26.6369,南平市,南平市监测站,细颗粒物(PM2.5),94,82,59,70,45,33,,78,77,38,28,10,6,1.6,1.1
2023-12-31T2000,2333A,118.1825,26.6489,南平市,南平铝业有限公司,细颗粒物(PM2.5),85,,51,63,40,28,,67,67,39,30,6,6,1.1,1
2023-12-31T2000,2334A,118.1756,26.6272,南平市,南平七中,细颗粒物(PM2.5),70,76,51,51,40,35,,58,58,32,30,6,6,0.5,0.5
2023-12-31T2000,1168A,120.9098,31.9663,南通市,狼山街道,细颗粒物(PM2.5),145,153,184,111,159,74,,74,74,20,33,8,8,1.0,1.2
2023-12-31T2000,1169A,120.86,32.0005,南通市,虹桥,细颗粒物(PM2.5),149,152,193,114,168,71,,73,73,26,39,4,5,1.2,1.4
2023-12-31T2000,1170A,120.87,32.02,南通市,城中,细颗粒物(PM2.5),135,,157,103,156,66,,69,69,26,36,6,7,1.1,1.3
2023-12-31T2000,1171A,120.94,31.93,南通市,星湖花园,细颗粒物(PM2.5),134,146,191,102,151,65,,68,68,30,42,6,6,0.8,1
2023-12-31T2000,1172A,120.81,32.0417,南通市,紫琅学院,细颗粒物(PM2.5),158,174,199,120,161,58,,67,66,30,38,6,7,0.9,1.1
2023-12-31T2000,3291A,121.067,32.062,南通市,通州监测站,细颗粒物(PM2.5),138,151,196,105,160,76,,76,76,22,36,6,7,1.1,1.4
2023-12-31T2000,3432A,120.9348,31.9883,南通市,环境教育馆,细颗粒物(PM2.5),142,132,164,108,153,73,,77,77,24,33,7,7,1.1,1.3
2023-12-31T2000,2404A,112.5224,33.0122,南阳市,瓦房庄,细颗粒物(PM2.5),97,104,152,72,131,59,,73,72,33,43,6,6,0.8,1.2
2023-12-31T2000,2405A,112.5003,32.9735,南阳市,汉画馆,细颗粒物(PM2.5),102,122,168,76,132,68,,76,76,27,38,9,8,0.8,1.3
2023-12-31T2000,2406A,112.5573,33.027,南阳市,气象站,细颗粒物(PM2.5),94,107,149,70,123,62,,76,75,27,35,5,5,0.8,1.1
2023-12-31T2000,2407A,112.5481,32.9689,南阳市,理工学院,细颗粒物(PM2.5),92,109,158,68,125,65,,78,77,34,47,7,7,0.4,0.9
2023-12-31T2000,4008A,112.5234,32.9922,南阳市,卧龙区政府,细颗粒物(PM2.5),90,114,166,67,126,63,,71,71,40,52,7,6,0.8,1.2
2023-12-31T2000,1234A,121.8358,29.911,宁波市,区环保大楼,细颗粒物(PM2.5),178,187,184,134,143,58,,90,84,44,51,6,8,1.4,1.3
2023-12-31T2000,1235A,121.56,29.82,宁波市,万里学院,细颗粒物(PM2.5),201,240,185,151,106,60,,98,92,39,50,5,7,1.4,1.1
2023-12-31T2000,1236A,121.713,29.9572,宁波市,龙赛医院,颗粒物(PM10),114,177,173,85,78,65,,90,86,44,60,7,10,1.4,1.4
2023-12-31T2000,1239A,121.633,29.7733,宁波市,钱湖水厂,细颗粒物(PM2.5),201,205,161,151,124,64,,97,92,40,46,9,10,1.3,1.1
2023-12-31T2000,1240A,121.5856,29.8635,宁波市,太古小学,细颗粒物(PM2.5),209,198,165,159,111,59,,96,90,50,55,7,9,1.2,1.1
2023-12-31T2000,1241A,121.524,29.8674,宁波市,市环境监测中心,细颗粒物(PM2.5),153,220,168,117,78,59,,98,92,49,54,9,11,1.4,1.2
2023-12-31T2000,2871A,121.6147,29.9017,宁波市,万里国际学校,细颗粒物(PM2.5),211,202,181,161,146,54,,90,84,45,55,8,9,1.4,1.2
2023-12-31T2000,3710A,121.5594,29.8975,宁波市,白沙活动中心,细颗粒物(PM2.5),156,144,113,119,79,42,,89,80,55,51,7,8,1.5,1.3
2023-12-31T2000,2339A,119.5001,26.6946,宁德市,金涵水库,,,,,,,,,,,,,,,,
2023-12-31T2000,2341A,119.5388,26.6612,宁德市,宁德市监测站,细颗粒物(PM2.5),82,78,62,60,56,129,,130,130,15,28,6,6,0.6,0.7
2023-12-31T2000,3209A,119.5231,26.6562,宁德市,宁德一中,细颗粒物(PM2.5),79,76,59,58,44,137,,134,134,15,23,4,4,0.6,0.7
2023-12-31T2000,2618A,98.8601,25.8567,怒江州,州监测站,,36,36,31,23,19,47,,66,66,22,14,8,8,0.5,0.4
2023-12-31T2000,2619A,98.8546,25.8417,怒江州,泸水一中,,41,41,27,22,21,17,,58,56,44,18,7,7,0.8,0.5
2023-12-31T2000,1888A,101.6891,26.571,攀枝花市,弄弄坪,颗粒物(PM10),63,76,62,43,41,56,,84,84,46,36,34,30,2.5,1.5
2023-12-31T2000,1889A,101.5769,26.5928,攀枝花市,河门口,颗粒物(PM10),60,70,53,41,32,73,,88,88,27,28,23,22,1.3,1.4
2023-12-31T2000,1890A,101.7169,26.585,攀枝花市,炳草岗,颗粒物(PM10),57,64,70,37,41,35,,78,78,65,48,24,33,1.2,1.5
2023-12-31T2000,1891A,101.7369,26.5008,攀枝花市,仁和,细颗粒物(PM2.5),92,113,48,68,32,56,,84,84,33,28,21,22,1.4,1.3
2023-12-31T2000,2835A,101.7227,26.567,攀枝花市,四十中小,颗粒物(PM10),81,112,72,59,45,36,,77,77,76,51,24,30,2.1,2
2023-12-31T2000,1604A,122.0303,41.1489,盘锦市,开发区,,29,25,42,20,38,57,,65,64,28,22,10,12,0.7,0.7
2023-12-31T2000,1605A,122.0485,41.0883,盘锦市,兴隆台,,36,,38,25,34,60,,67,66,26,20,13,9,0.7,0.7
2023-12-31T2000,1606A,121.8297,41.1028,盘锦市,新生街道,,35,32,36,24,33,40,,59,53,33,25,11,11,0.7,0.7
2023-12-31T2000,1832A,113.3257,33.742,平顶山市,新华旅馆,细颗粒物(PM2.5),148,159,145,113,77,64,,74,73,31,36,7,9,0.9,0.8
2023-12-31T2000,1833A,113.2919,33.737,平顶山市,规划设计院,细颗粒物(PM2.5),137,150,128,104,80,71,,77,77,35,38,8,10,1.0,0.9
2023-12-31T2000,1834A,113.182,33.774,平顶山市,平顶山工学院,细颗粒物(PM2.5),113,135,126,85,71,76,,83,83,30,29,6,7,1.0,0.8
2023-12-31T2000,3204A,113.3025,33.73,平顶山市,规划局,细颗粒物(PM2.5),130,161,138,99,79,66,,76,76,28,30,10,10,1.1,0.9
2023-12-31T2000,3594A,112.8867,33.9116,平顶山市,石龙区,细颗粒物(PM2.5),132,146,122,100,68,70,,83,82,37,41,8,12,1.1,0.9
2023-12-31T2000,2656A,106.6692,35.5461,平凉市,聚贤嘉苑,颗粒物(PM10),62,74,66,32,34,59,,95,95,43,39,8,10,0.6,0.7
2023-12-31T2000,2657A,106.7021,35.5307,平凉市,博物馆,颗粒物(PM10),65,80,66,35,18,66,,90,90,40,38,7,9,0.4,0.7
2023-12-31T2000,2347A,114.0997,27.5002,萍乡市,武功山,,,,80,,68,,,49,,,14,,4,,0.8
2023-12-31T2000,2348A,113.8385,27.6434,萍乡市,中医院,细颗粒物(PM2.5),89,113,130,66,101,63,,97,94,37,30,21,20,1.1,1.4
2023-12-31T2000,2349A,113.8493,27.6253,萍乡市,市政府车库,细颗粒物(PM2.5),90,95,146,67,116,80,,106,105,34,36,11,10,0.8,2
2023-12-31T2000,2350A,113.8676,27.6435,萍乡市,市环保局,细颗粒物(PM2.5),70,81,163,51,111,91,,105,105,30,47,16,14,0.9,1.9
2023-12-31T2000,2351A,113.866,27.6198,萍乡市,安源区政府,细颗粒物(PM2.5),95,95,162,71,122,81,,104,104,44,44,18,16,3.9,2.8
2023-12-31T2000,2319A,119.0141,25.4325,莆田市,荔城区仓后路,细颗粒物(PM2.5),97,74,82,72,63,132,,136,136,17,35,7,7,0.9,1.1
2023-12-31T2000,2320A,119.0015,25.4553,莆田市,莆田市监测站,细颗粒物(PM2.5),103,78,52,77,41,133,,136,136,17,16,8,7,0.9,0.7
2023-12-31T2000,2321A,119.1119,25.4561,莆田市,涵江区六中,细颗粒物(PM2.5),82,72,76,60,53,139,,144,144,15,49,8,9,0.9,1
2023-12-31T2000,2322A,119.1013,25.3215,莆田市,秀屿区政府,细颗粒物(PM2.5),87,67,86,64,66,129,,138,138,16,40,8,11,0.9,1
2023-12-31T2000,2323A,118.981,25.4792,莆田市,东圳水库,,,,,,,,,,,,,,,,
2023-12-31T2000,2392A,115.0312,35.7636,濮阳市,环保局,细颗粒物(PM2.5),130,113,149,99,127,16,,39,36,65,51,4,2,1.3,1.6
2023-12-31T2000,2394A,115.0574,35.7609,濮阳市,油田运输公司,细颗粒物(PM2.5),133,128,169,101,132,14,,48,44,71,50,5,4,1.4,1.6
2023-12-31T2000,2395A,115.0866,35.7754,濮阳市,油田物探公司,细颗粒物(PM2.5),139,129,162,106,129,5,,42,37,81,49,3,2,1.4,1.6
2023-12-31T2000,3021A,115,35.7668,濮阳市,濮水河管理处,细颗粒物(PM2.5),139,121,156,106,133,6,,38,32,75,49,3,3,1.7,1.8
2023-12-31T2000,2601A,100.98,22.7633,普洱市,市环保局,,48,37,29,33,23,38,,67,66,15,12,5,5,0.5,0.5
2023-12-31T2000,2602A,100.9817,22.8322,普洱市,普洱第二中学,,45,45,30,19,12,35,,71,70,25,20,5,3,0.6,0.5
2023-12-31T2000,2262A,131.0518,45.8751,七台河市,新一中,,26,24,21,18,19,65,,65,65,12,16,12,12,0.4,0.4
2023-12-31T2000,3345A,131.0577,45.7879,七台河市,中波台,细颗粒物(PM2.5),85,77,34,63,29,24,,50,39,56,27,17,12,1.7,0.9
2023-12-31T2000,3637A,131.0176,45.7761,七台河市,人民广场,细颗粒物(PM2.5),68,,30,49,29,32,,52,44,49,29,9,8,0.8,0.5
2023-12-31T2000,3684A,130.8781,45.8222,七台河市,新建矿广场,细颗粒物(PM2.5),73,,25,53,34,43,,54,48,29,24,2,4,0.8,0.5
2023-12-31T2000,1779A,123.9305,47.3636,齐齐哈尔市,安居小区,,34,34,27,16,16,36,,50,36,27,17,10,8,0.5,0.4
2023-12-31T2000,1780A,123.9488,47.3386,齐齐哈尔市,中心广场,颗粒物(PM10),52,53,32,24,19,26,,47,30,36,21,8,6,0.7,0.5
2023-12-31T2000,1781A,123.9483,47.3227,齐齐哈尔市,农牧车辆厂,,35,31,31,24,19,41,,47,35,21,19,10,11,0.4,0.4
2023-12-31T2000,1783A,123.945,47.2988,齐齐哈尔市,市环境监测站,,32,28,30,22,20,46,,48,42,17,19,6,8,0.2,0.2
2023-12-31T2000,3662A,123.6333,47.2075,齐齐哈尔市,富区青少年活动中心,,30,30,28,17,16,41,,50,47,16,12,8,13,0.6,0.6
2023-12-31T2000,2591A,107.9783,26.5747,黔东南苗族侗族自治州,市环境监测站,细颗粒物(PM2.5),75,61,61,55,52,42,,33,33,21,33,6,8,0.9,1
2023-12-31T2000,2881A,107.8908,26.5311,黔东南苗族侗族自治州,凯里学院,细颗粒物(PM2.5),62,52,54,44,45,53,,44,44,19,25,4,5,0.7,0.7
