timepoint,stationcode,longitude,latitude,area,positionname,primarypollutant,aqi,pm10,pm10_24h,pm2_5,pm2_5_24h,o3,o3_24h,o3_8h,o3_8h_24h,no2,no2_24h,so2,so2_24h,co,co_24h
2022-03-11T18:00:00,1001A,116.3621,39.8784,北京市,万寿西宫,颗粒物(PM10),66,81,192,44,119,130,79,72,72,21,48,4,4,0.5,1.2
2022-03-11T18:00:00,1002A,116.2202,40.2915,北京市,定陵(对照点),颗粒物(PM10),61,72,211,34,128,139,76,117,72,22,29,3,4,0.6,1
2022-03-11T18:00:00,1003A,116.4174,39.9289,北京市,东四,颗粒物(PM10),66,81,208,38,108,149,78,72,72,19,42,3,4,0.6,1.3
2022-03-11T18:00:00,1004A,116.4072,39.8863,北京市,天坛,颗粒物(PM10),63,75,155,40,113,105,84,76,76,17,38,5,4,0.6,1.2
2022-03-11T18:00:00,1005A,116.462,39.9365,北京市,农展馆,颗粒物(PM10),67,84,209,41,115,142,83,75,75,18,49,6,7,0.5,1.2
2022-03-11T18:00:00,1006A,116.3392,39.9295,北京市,官园,颗粒物(PM10),65,79,208,42,121,140,79,70,70,16,51,5,7,0.5,1.2
2022-03-11T18:00:00,1007A,116.2878,39.9611,北京市,海淀万柳,颗粒物(PM10),66,82,213,42,126,90,73,82,66,28,61,2,3,0.5,1.2
2022-03-11T18:00:00,1008A,116.6636,40.135,北京市,顺义新城,,,136,227,74,126,123,41,86,49,48,46,,5,0.9,1.1
2022-03-11T18:00:00,1009A,116.6275,40.3275,北京市,怀柔镇,细颗粒物(PM2.5),92,132,223,68,129,112,41,100,47,52,40,5,4,0.9,1
2022-03-11T18:00:00,1010A,116.2296,40.217,北京市,昌平镇,颗粒物(PM10),62,73,212,35,131,155,73,119,63,26,45,5,9,0.7,1.1
2022-03-11T18:00:00,1011A,116.3966,39.9821,北京市,奥体中心,颗粒物(PM10),61,72,208,38,123,127,84,76,76,23,62,3,4,0.5,1.2
2022-03-11T18:00:00,1012A,116.184,39.9136,北京市,古城,颗粒物(PM10),73,95,212,48,124,146,77,69,69,23,49,2,3,0.6,1.2
2022-03-11T18:00:00,1015A,117.1444,39.1661,天津市,勤俭道,细颗粒物(PM2.5),85,117,166,63,85,138,89,103,102,38,41,14,11,1.3,1.1
2022-03-11T18:00:00,1017A,117.237,39.1082,天津市,大直沽八号路,细颗粒物(PM2.5),89,105,153,66,87,156,92,107,107,36,39,16,13,1.2,1.1
2022-03-11T18:00:00,1018A,117.202,39.0927,天津市,前进道,细颗粒物(PM2.5),84,112,165,62,87,141,94,104,104,31,42,14,11,1.1,1
2022-03-11T18:00:00,1019A,117.1837,39.2133,天津市,淮河道,细颗粒物(PM2.5),97,125,171,72,96,124,93,102,102,36,46,14,11,1.2,1.1
2022-03-11T18:00:00,1021A,117.307,39.0877,天津市,跃进路,细颗粒物(PM2.5),102,122,153,76,87,157,90,101,101,41,43,13,10,1.1,0.9
2022-03-11T18:00:00,1023A,117.707,39.0343,天津市,第四大街,细颗粒物(PM2.5),122,155,147,92,78,96,38,89,82,88,61,16,11,1.5,0.9
2022-03-11T18:00:00,1024A,117.457,38.8394,天津市,永明路,,46,45,115,32,66,128,116,119,119,17,33,6,10,0.6,0.7
2022-03-11T18:00:00,1026A,117.764,39.1587,天津市,汉北路,细颗粒物(PM2.5),108,115,127,81,81,128,90,100,100,35,30,15,9,1.4,0.9
2022-03-11T18:00:00,1027A,117.157,38.9194,天津市,团泊洼(对照点),细颗粒物(PM2.5),110,120,151,83,87,136,128,119,119,25,60,17,16,1.2,1
2022-03-11T18:00:00,1029A,114.4422,38.0444,石家庄市,职工医院,细颗粒物(PM2.5),119,142,220,90,133,157,100,86,86,32,46,6,8,0.6,0.9
2022-03-11T18:00:00,1030A,114.6063,38.0266,石家庄市,高新区,细颗粒物(PM2.5),113,133,236,85,135,149,107,87,87,26,40,6,10,0.7,1
2022-03-11T18:00:00,1031A,114.4898,38.1328,石家庄市,西北水源,细颗粒物(PM2.5),95,132,235,71,124,155,112,95,95,19,32,6,9,0.7,1
2022-03-11T18:00:00,1032A,114.4586,38.0058,石家庄市,西南高教,细颗粒物(PM2.5),108,143,227,81,119,131,108,101,80,18,31,5,7,0.7,1
2022-03-11T18:00:00,1033A,114.5331,38.0178,石家庄市,世纪公园,细颗粒物(PM2.5),90,123,211,67,124,158,109,100,86,22,32,8,11,0.6,0.9
2022-03-11T18:00:00,1034A,114.509,38.0457,石家庄市,人民会堂,细颗粒物(PM2.5),87,114,211,64,131,162,112,108,89,21,32,6,10,0.6,1
2022-03-11T18:00:00,1035A,114.3524,37.8911,石家庄市,封龙山(对照点),细颗粒物(PM2.5),135,148,191,103,103,175,82,149,69,,27,7,13,1.0,1.1
2022-03-11T18:00:00,1037A,118.131,39.6363,唐山市,雷达站,颗粒物(PM10),62,74,151,27,83,177,80,88,86,23,26,7,9,0.8,1.3
2022-03-11T18:00:00,1038A,118.1725,39.6334,唐山市,物资局,颗粒物(PM10),66,82,151,28,79,149,72,83,83,32,30,14,15,0.8,1.2
2022-03-11T18:00:00,1040A,118.1705,39.6506,唐山市,十二中,颗粒物(PM10),70,90,184,29,90,138,67,86,79,32,28,6,9,0.6,1
2022-03-11T18:00:00,1041A,118.1869,39.622,唐山市,小山,颗粒物(PM10),58,66,163,33,78,161,87,91,91,30,41,5,9,0.4,1.4
2022-03-11T18:00:00,1042A,119.5134,39.8207,秦皇岛市,北戴河环保局,细颗粒物(PM2.5),68,67,101,49,67,127,125,102,102,23,29,10,12,0.2,0.4
2022-03-11T18:00:00,1043A,119.7493,40.0116,秦皇岛市,第一关,,45,45,124,24,82,127,72,98,97,53,55,8,12,0.3,0.5
2022-03-11T18:00:00,1044A,119.5897,39.9499,秦皇岛市,监测站,,45,45,121,9,73,127,81,92,92,34,39,3,8,0.5,0.5
2022-03-11T18:00:00,1046A,119.5251,39.9041,秦皇岛市,建设大厦,,36,36,120,12,70,125,100,98,98,24,39,3,8,0.3,0.5
2022-03-11T18:00:00,1048A,114.5302,36.6116,邯郸市,东污水处理厂,细颗粒物(PM2.5),156,230,216,119,121,124,69,98,98,34,43,5,7,0.6,0.7
2022-03-11T18:00:00,1049A,114.4918,36.5713,邯郸市,矿院,细颗粒物(PM2.5),173,231,218,131,117,139,84,112,112,27,33,5,7,0.7,0.7
2022-03-11T18:00:00,1050A,114.484,36.6133,邯郸市,丛台公园,细颗粒物(PM2.5),147,213,204,112,103,141,89,111,111,18,26,5,7,0.7,0.7
2022-03-11T18:00:00,1051A,115.493,38.8632,保定市,游泳馆,细颗粒物(PM2.5),120,152,225,91,142,157,120,121,118,33,36,13,13,0.5,0.7
2022-03-11T18:00:00,1052A,115.5213,38.8959,保定市,华电二区,颗粒物(PM10),130,209,275,85,137,159,117,114,114,22,31,17,14,0.7,0.9
2022-03-11T18:00:00,1053A,115.4713,38.9108,保定市,接待中心,颗粒物(PM10),100,149,205,74,130,149,120,114,113,27,39,8,9,1.2,1.4
2022-03-11T18:00:00,1054A,115.4612,38.8416,保定市,地表水厂,细颗粒物(PM2.5),107,158,216,80,108,165,127,129,124,29,32,14,13,0.7,0.8
2022-03-11T18:00:00,1055A,115.4323,38.8697,保定市,胶片厂,颗粒物(PM10),106,162,228,71,129,153,126,135,122,24,34,10,11,0.8,1
2022-03-11T18:00:00,1056A,115.5086,38.8639,保定市,监测站,细颗粒物(PM2.5),107,153,203,80,127,160,124,122,118,29,34,10,10,0.7,0.8
2022-03-11T18:00:00,1057A,114.8883,40.8336,张家口市,人民公园,颗粒物(PM10),90,130,134,32,50,157,123,129,129,16,20,5,8,0.7,0.8
2022-03-11T18:00:00,1059A,114.8687,40.8042,张家口市,五金库,颗粒物(PM10),118,185,151,46,48,152,119,128,128,22,30,6,9,0.6,0.8
2022-03-11T18:00:00,1060A,114.8902,40.762,张家口市,世纪豪园,颗粒物(PM10),91,132,158,47,63,148,113,128,128,20,27,4,6,0.5,0.7
2022-03-11T18:00:00,1061A,114.8916,40.8661,张家口市,北泵房(对照点),颗粒物(PM10),89,128,112,49,51,157,122,130,130,17,18,8,11,0.6,0.6
2022-03-11T18:00:00,1062A,117.9531,40.9081,承德市,铁路,,,51,108,26,52,87,86,76,76,16,43,,8,0.4,0.7
2022-03-11T18:00:00,1063A,117.9392,40.9763,承德市,中国银行,颗粒物(PM10),52,53,115,19,59,88,85,85,85,14,36,7,6,0.3,0.8
2022-03-11T18:00:00,1064A,117.9503,40.928,承德市,开发区,,,,98,,49,94,91,89,89,18,34,8,9,0.5,0.8
2022-03-11T18:00:00,1065A,117.8051,40.9655,承德市,文化中心,颗粒物(PM10),56,61,98,29,48,90,89,86,86,13,34,6,6,0.4,0.8
2022-03-11T18:00:00,1066A,117.9268,41.0026,承德市,离宫(对照点),,41,41,94,22,48,121,82,88,88,12,20,10,10,0.4,0.6
2022-03-11T18:00:00,1067A,116.6708,39.5111,廊坊市,药材公司,颗粒物(PM10),66,81,175,44,99,138,88,94,94,27,39,6,8,0.6,0.9
2022-03-11T18:00:00,1068A,116.7214,39.5589,廊坊市,开发区,颗粒物(PM10),69,88,167,40,95,132,88,94,94,19,34,5,7,0.3,0.8
2022-03-11T18:00:00,1070A,116.7244,39.5269,廊坊市,北华航天学院,颗粒物(PM10),76,101,185,39,111,122,86,93,93,16,38,5,8,0.4,0.9
2022-03-11T18:00:00,1071A,116.8842,38.2991,沧州市,沧县城建局,细颗粒物(PM2.5),70,71,112,51,65,157,112,106,106,19,33,6,8,0.6,0.6
2022-03-11T18:00:00,1072A,116.8584,38.3254,沧州市,电视转播站,颗粒物(PM10),66,82,119,42,60,149,110,102,102,19,32,5,9,0.6,0.6
2022-03-11T18:00:00,1073A,116.8709,38.3228,沧州市,市环保局,颗粒物(PM10),61,71,109,41,66,158,118,111,111,17,33,6,10,0.6,0.7
2022-03-11T18:00:00,1074A,115.6838,37.7541,衡水市,电机北厂,细颗粒物(PM2.5),79,91,153,58,101,159,108,115,100,19,31,8,14,0.3,0.6
2022-03-11T18:00:00,1075A,115.6303,37.7316,衡水市,市监测站,颗粒物(PM10),94,138,206,57,99,143,105,102,101,14,25,13,16,0.2,0.5
2022-03-11T18:00:00,1077A,114.4704,37.0886,邢台市,达活泉,细颗粒物(PM2.5),142,231,288,108,130,142,76,88,88,30,49,8,24,0.7,0.9
2022-03-11T18:00:00,1078A,114.5062,37.0349,邢台市,邢师高专,细颗粒物(PM2.5),138,212,255,105,126,138,81,94,94,32,50,5,7,0.8,1
2022-03-11T18:00:00,1079A,114.5237,37.0851,邢台市,路桥公司,细颗粒物(PM2.5),134,189,229,102,117,147,82,92,92,27,45,7,8,0.8,1
2022-03-11T18:00:00,1080A,114.4725,37.0719,邢台市,市环保局,颗粒物(PM10),138,226,241,102,120,144,79,92,92,31,46,3,8,0.6,0.8
2022-03-11T18:00:00,1081A,112.5139,37.8873,太原市,尖草坪,细颗粒物(PM2.5),163,228,182,124,95,170,134,151,151,28,53,7,10,0.8,0.8
2022-03-11T18:00:00,1083A,112.434,38.0108,太原市,上兰(对照点),细颗粒物(PM2.5),158,224,139,120,75,167,138,154,154,22,20,10,12,0.9,0.8
2022-03-11T18:00:00,1084A,112.469,37.7124,太原市,晋源,细颗粒物(PM2.5),188,273,207,141,119,160,115,138,138,36,75,6,18,0.7,1.3
2022-03-11T18:00:00,1085A,112.5583,37.7394,太原市,小店,细颗粒物(PM2.5),182,273,209,137,110,166,114,135,135,30,85,4,14,1.0,1.3
2022-03-11T18:00:00,1086A,112.5369,37.8692,太原市,桃园,细颗粒物(PM2.5),159,228,190,121,92,166,128,143,143,29,64,7,14,0.7,1
2022-03-11T18:00:00,1087A,112.57,37.8195,太原市,坞城,细颗粒物(PM2.5),166,220,194,126,103,164,134,139,139,28,80,7,14,0.8,1.3
2022-03-11T18:00:00,1088A,112.549,37.9854,太原市,南寨,细颗粒物(PM2.5),159,252,207,121,99,152,129,144,144,26,65,6,9,1.0,1.2
2022-03-11T18:00:00,1090A,111.6507,40.7517,呼和浩特市,呼市一监,颗粒物(PM10),86,122,132,40,45,144,121,116,116,27,34,13,11,0.5,0.6
2022-03-11T18:00:00,1091A,111.6572,40.8033,呼和浩特市,小召,,,,118,,43,138,117,111,111,28,39,,12,0.4,0.6
2022-03-11T18:00:00,1094A,111.7516,40.8369,呼和浩特市,如意水处理厂,颗粒物(PM10),79,107,103,48,38,141,141,126,126,26,41,18,11,0.7,0.5
2022-03-11T18:00:00,1095A,111.7276,40.8062,呼和浩特市,二十九中,颗粒物(PM10),90,129,125,44,38,141,129,119,119,24,25,16,11,0.8,0.7
2022-03-11T18:00:00,1096A,111.5512,40.7866,呼和浩特市,工大金川校区,,,96,114,40,40,143,117,116,116,,,17,13,0.5,0.5
2022-03-11T18:00:00,1097A,111.717,40.7612,呼和浩特市,化肥厂生活区,颗粒物(PM10),79,107,123,53,47,128,116,110,110,24,20,17,14,1.0,0.9
2022-03-11T18:00:00,1098A,123.6836,41.9339,沈阳市,森林路(对照点),,27,19,90,10,55,95,86,90,90,10,29,9,11,0.3,1
2022-03-11T18:00:00,1099A,123.505,41.7406,沈阳市,浑南东路,,30,30,120,6,78,96,82,88,88,16,46,9,18,0.3,1.3
2022-03-11T18:00:00,1100A,123.4231,41.6989,沈阳市,新秀街,,26,20,109,4,65,101,81,90,90,24,56,8,22,0.3,1.3
2022-03-11T18:00:00,1102A,123.5903,41.8411,沈阳市,东陵路,,26,14,73,16,52,96,82,89,89,12,35,11,15,0.4,1
2022-03-11T18:00:00,1103A,123.4264,41.8467,沈阳市,陵东街,,24,10,87,4,48,95,76,88,88,28,55,6,10,0.4,1.1
2022-03-11T18:00:00,1104A,123.4114,41.7653,沈阳市,文化路,,27,15,90,4,58,101,86,92,92,16,46,6,21,0.5,1.2
2022-03-11T18:00:00,1105A,123.4678,41.7867,沈阳市,小河沿,,24,20,97,6,58,92,76,84,84,19,47,8,14,0.4,1.1
2022-03-11T18:00:00,1106A,123.4017,41.7972,沈阳市,太原街,,26,26,95,11,60,93,67,82,82,30,51,8,19,0.5,1.1
2022-03-11T18:00:00,1108A,123.3783,41.9228,沈阳市,京沈街,,28,14,97,6,61,98,89,93,93,13,46,6,17,0.5,1.1
2022-03-11T18:00:00,1109A,121.612,38.9741,大连市,甘井子,颗粒物(PM10),60,69,48,38,33,110,23,102,77,104,42,6,5,0.8,0.6
2022-03-11T18:00:00,1110A,121.565,38.9511,大连市,周水子,颗粒物(PM10),69,87,59,46,32,119,62,100,88,51,26,10,10,0.8,0.7
2022-03-11T18:00:00,1111A,121.5637,38.8845,大连市,星海三站,"颗粒物(PM10),细颗粒物(PM2.5)",53,56,56,37,38,107,33,104,81,76,32,8,5,0.8,0.6
2022-03-11T18:00:00,1112A,121.6302,38.9117,大连市,青泥洼桥,,41,41,46,18,26,126,79,120,96,39,22,8,7,0.7,0.8
2022-03-11T18:00:00,1113A,121.6251,38.8638,大连市,傅家庄,,33,33,42,20,26,109,74,100,91,34,22,15,5,0.4,0.5
2022-03-11T18:00:00,1114A,121.5213,38.8661,大连市,七贤岭,,46,41,56,21,31,119,32,117,94,91,31,43,14,0.8,0.7
2022-03-11T18:00:00,1115A,121.2529,38.8061,大连市,旅顺,细颗粒物(PM2.5),63,50,47,45,27,126,64,116,107,58,22,11,7,0.8,0.7
2022-03-11T18:00:00,1116A,121.7485,39.1311,大连市,金州,细颗粒物(PM2.5),108,105,43,81,36,110,68,107,93,61,23,11,5,1.0,0.7
2022-03-11T18:00:00,1117A,121.7811,39.0496,大连市,开发区,细颗粒物(PM2.5),68,65,47,49,36,107,47,105,74,82,34,7,5,0.9,0.6
2022-03-11T18:00:00,1118A,121.9762,39.0631,大连市,双D港,,35,27,27,24,19,121,71,116,96,42,29,6,6,0.8,0.9
2022-03-11T18:00:00,1119A,125.3325,43.9166,长春市,食品厂,颗粒物(PM10),54,57,64,14,23,76,56,73,72,30,24,5,7,0.4,0.4
2022-03-11T18:00:00,1120A,125.2863,43.9027,长春市,客车厂,颗粒物(PM10),51,51,65,18,28,74,57,71,70,27,20,10,8,0.4,0.4
2022-03-11T18:00:00,1121A,125.2841,43.8463,长春市,邮电学院,颗粒物(PM10),53,56,77,14,27,79,67,77,76,14,19,7,6,0.4,0.5
2022-03-11T18:00:00,1122A,125.3716,43.8772,长春市,劳动公园,,43,43,62,13,22,86,79,84,84,14,19,2,9,0.3,0.4
2022-03-11T18:00:00,1123A,125.3297,43.8805,长春市,园林处,,40,40,58,10,22,82,72,78,77,18,21,5,11,0.3,0.4
2022-03-11T18:00:00,1124A,125.4605,43.79,长春市,净月潭,,35,35,57,7,23,90,82,87,87,13,18,6,8,0.3,0.4
2022-03-11T18:00:00,1125A,125.7194,43.515,长春市,甩湾子(对照点),,43,43,77,18,35,86,76,83,83,10,13,8,8,0.5,0.6
2022-03-11T18:00:00,1126A,125.3863,43.8447,长春市,经开区环卫处,,47,47,58,11,23,80,65,75,74,18,17,18,11,0.4,0.4
2022-03-11T18:00:00,1127A,125.245,43.7783,长春市,高新区管委会,,43,43,58,14,28,90,65,87,85,27,20,7,5,0.4,0.5
2022-03-11T18:00:00,1128A,125.1761,43.8325,长春市,岱山公园,,48,48,68,14,29,81,68,77,76,18,17,6,4,0.3,0.4
2022-03-11T18:00:00,1129A,126.5422,45.755,哈尔滨市,岭北(对照点),,43,43,74,14,18,104,90,97,97,9,5,2,4,0.8,0.3
2022-03-11T18:00:00,1130A,126.561,45.8167,哈尔滨市,松北商大,,34,34,45,15,12,99,74,94,92,26,14,4,8,0.6,0.5
2022-03-11T18:00:00,1131A,126.979,45.5419,哈尔滨市,阿城会宁,,46,46,64,27,19,92,73,86,86,23,20,16,11,1.0,1.2
2022-03-11T18:00:00,1132A,126.599,45.7222,哈尔滨市,南岗学府路,,43,43,59,18,21,89,75,84,84,30,27,14,4,0.6,0.6
2022-03-11T18:00:00,1133A,126.689,45.7733,哈尔滨市,太平宏伟公园,,41,41,67,15,16,95,86,91,91,14,14,10,12,0.6,0.5
2022-03-11T18:00:00,1134A,126.635,45.7667,哈尔滨市,道外承德广场,,42,42,73,16,14,92,77,86,86,21,16,6,8,0.5,0.5
2022-03-11T18:00:00,1135A,126.685,45.7319,哈尔滨市,香坊红旗大街,,43,43,86,21,15,93,79,88,88,17,15,2,7,0.6,0.5
2022-03-11T18:00:00,1136A,126.6411,45.7258,哈尔滨市,动力和平路,,36,36,63,17,12,92,77,88,88,17,15,6,9,0.4,0.4
2022-03-11T18:00:00,1137A,126.593,45.7478,哈尔滨市,道里建国路,,28,28,46,17,16,90,74,86,86,24,18,8,12,0.6,0.4
2022-03-11T18:00:00,1138A,126.615,45.61,哈尔滨市,平房东轻厂,,48,48,61,29,17,91,60,85,84,31,17,15,12,0.9,0.7
2022-03-11T18:00:00,1139A,126.595,45.9855,哈尔滨市,呼兰师专,,42,37,46,29,15,90,77,85,85,16,14,9,7,0.6,0.6
2022-03-11T18:00:00,1140A,126.6206,45.6842,哈尔滨市,省农科院,,46,46,83,21,20,93,55,86,84,34,19,15,11,0.5,0.7
2022-03-11T18:00:00,1141A,121.4,31.238,上海市,普陀,颗粒物(PM10),70,90,72,30,28,132,118,111,111,69,46,9,10,0.9,0.8
2022-03-11T18:00:00,1142A,121.478,31.2036,上海市,十五厂,细颗粒物(PM2.5),68,81,88,49,36,128,104,89,89,65,59,8,6,0.7,0.7
2022-03-11T18:00:00,1143A,121.467,31.3008,上海市,虹口,颗粒物(PM10),70,90,72,29,30,127,91,103,103,75,50,7,7,0.8,0.8
2022-03-11T18:00:00,1144A,121.412,31.1654,上海市,徐汇上师大,颗粒物(PM10),76,102,78,40,33,122,115,101,101,59,58,8,10,0.8,0.8
2022-03-11T18:00:00,1145A,121.536,31.2659,上海市,杨浦四漂,颗粒物(PM10),62,73,72,37,33,124,92,95,95,72,59,10,9,0.5,0.6
2022-03-11T18:00:00,1147A,121.425,31.2261,上海市,静安监测站,颗粒物(PM10),70,89,76,42,32,132,105,105,105,55,52,10,10,0.5,0.5
2022-03-11T18:00:00,1148A,121.703,31.1907,上海市,浦东川沙,颗粒物(PM10),59,68,66,28,30,136,74,106,106,85,48,8,6,0.4,0.5
2022-03-11T18:00:00,1149A,121.533,31.2284,上海市,浦东新区监测站,颗粒物(PM10),64,78,74,32,30,138,103,97,97,62,47,6,6,0.5,0.6
2022-03-11T18:00:00,1150A,121.577,31.2071,上海市,浦东张江,颗粒物(PM10),59,67,75,37,31,114,86,90,90,64,54,6,5,0.7,0.7
2022-03-11T18:00:00,1151A,118.8086,32.1065,南京市,迈皋桥,臭氧1小时,94,90,100,39,38,195,195,160,160,55,78,10,5,0.7,0.7
2022-03-11T18:00:00,1152A,118.7538,32.0551,南京市,草场门,臭氧1小时,103,70,84,46,39,205,205,159,159,38,79,15,9,0.7,0.8
2022-03-11T18:00:00,1153A,118.7794,32.0745,南京市,山西路,臭氧1小时,107,100,90,53,39,213,213,175,175,44,71,12,5,0.5,0.5
2022-03-11T18:00:00,1154A,118.7752,32.0023,南京市,中华门,臭氧1小时,99,90,101,31,39,199,199,152,152,26,56,4,4,0.4,0.5
2022-03-11T18:00:00,1155A,118.8109,32.0309,南京市,瑞金路,臭氧1小时,103,100,96,51,55,206,206,159,159,32,67,12,6,0.4,0.7
2022-03-11T18:00:00,1156A,118.7997,32.0754,南京市,玄武湖,臭氧1小时,90,83,77,36,36,192,192,155,155,56,72,5,4,1.2,1.1
2022-03-11T18:00:00,1157A,118.6414,32.0931,南京市,浦口,臭氧1小时,106,80,91,24,32,212,212,152,152,51,56,11,8,1.0,0.9
2022-03-11T18:00:00,1158A,118.7356,31.9996,南京市,奥体中心,臭氧1小时,99,78,95,36,43,199,199,157,157,33,70,16,10,0.7,0.8
2022-03-11T18:00:00,1159A,118.9125,32.1028,南京市,仙林大学城,臭氧1小时,113,90,83,51,42,232,226,177,177,37,50,13,9,0.9,0.8
2022-03-11T18:00:00,1160A,120.561,31.2472,苏州市,上方山(对照点),颗粒物(PM10),55,59,76,38,42,149,133,119,119,39,55,6,5,0.7,0.7
2022-03-11T18:00:00,1162A,120.591,31.3019,苏州市,彩香,,48,45,71,28,40,157,151,124,124,35,56,8,7,0.7,0.7
2022-03-11T18:00:00,1163A,120.596,31.3264,苏州市,轧钢厂,颗粒物(PM10),66,81,81,29,36,146,138,115,115,47,62,7,7,0.5,0.6
2022-03-11T18:00:00,1164A,120.613,31.2703,苏州市,吴中区,细颗粒物(PM2.5),57,54,78,40,43,153,131,124,124,57,60,6,5,0.6,0.6
2022-03-11T18:00:00,1165A,120.543,31.2994,苏州市,苏州新区,颗粒物(PM10),63,75,80,34,43,165,148,131,131,31,48,8,8,0.5,0.6
2022-03-11T18:00:00,1166A,120.669,31.3097,苏州市,苏州工业园区,细颗粒物(PM2.5),53,52,75,37,33,152,149,115,115,36,54,9,7,0.6,0.7
2022-03-11T18:00:00,1167A,120.641,31.3708,苏州市,相城区,颗粒物(PM10),61,72,79,26,37,158,131,114,114,46,64,5,6,0.6,0.7
2022-03-11T18:00:00,1168A,120.9098,31.9663,南通市,狼山街道,颗粒物(PM10),70,90,88,41,43,206,170,153,153,24,58,9,8,0.5,0.6
2022-03-11T18:00:00,1169A,120.86,32.0005,南通市,虹桥,细颗粒物(PM2.5),80,93,105,59,52,177,149,133,133,30,73,9,11,0.7,0.9
2022-03-11T18:00:00,1170A,120.87,32.02,南通市,城中,颗粒物(PM10),83,115,112,51,48,178,155,142,142,26,71,12,13,0.7,1
2022-03-11T18:00:00,1171A,120.94,31.93,南通市,星湖花园,颗粒物(PM10),70,90,94,46,43,192,170,145,145,26,74,6,7,0.5,0.6
2022-03-11T18:00:00,1172A,120.81,32.0417,南通市,紫琅学院,"颗粒物(PM10),细颗粒物(PM2.5)",64,78,86,46,48,197,163,139,139,30,71,11,13,0.4,0.7
2022-03-11T18:00:00,1173A,119.176,34.5885,连云港市,市环境监测站,,44,44,69,24,40,151,135,138,138,15,22,5,6,0.4,0.4
2022-03-11T18:00:00,1177A,117.179,34.2761,徐州市,黄河新村,颗粒物(PM10),90,129,156,64,76,178,162,158,158,24,39,11,13,0.6,1
2022-03-11T18:00:00,1178A,117.1918,34.2384,徐州市,淮塔,颗粒物(PM10),80,109,149,46,84,176,157,157,157,14,37,13,15,0.7,1.1
2022-03-11T18:00:00,1180A,117.256,34.2153,徐州市,新城区,颗粒物(PM10),83,115,149,52,84,168,130,143,143,40,49,12,14,0.6,1
2022-03-11T18:00:00,1181A,117.244,34.2911,徐州市,桃园路,细颗粒物(PM2.5),109,139,158,82,68,181,156,156,156,,42,10,15,0.8,1.3
2022-03-11T18:00:00,1182A,117.2933,34.2778,徐州市,农科院,颗粒物(PM10),84,117,146,48,87,163,134,136,136,27,53,15,14,0.7,1.2
2022-03-11T18:00:00,1186A,119.389,32.3761,扬州市,邗江监测站,颗粒物(PM10),86,122,130,49,56,203,178,171,171,32,77,16,23,1.2,1.3
2022-03-11T18:00:00,1188A,120.269,31.4867,无锡市,雪浪,颗粒物(PM10),71,92,93,36,35,182,150,146,146,42,59,9,10,1.0,1.1
2022-03-11T18:00:00,1189A,120.275,31.6219,无锡市,黄巷,,,89,110,36,44,211,170,154,154,,96,11,10,,0.9
2022-03-11T18:00:00,1190A,120.294,31.56,无锡市,曹张,颗粒物(PM10),62,74,92,36,45,207,164,151,151,29,57,10,10,0.9,0.9
2022-03-11T18:00:00,1191A,120.242,31.5031,无锡市,漆塘,颗粒物(PM10),78,105,91,39,44,187,160,149,149,59,65,10,9,0.8,0.8
2022-03-11T18:00:00,1192A,120.3489,31.5863,无锡市,东亭,颗粒物(PM10),64,78,102,22,41,207,149,111,111,40,59,10,9,1.3,1.2
2022-03-11T18:00:00,1193A,120.354,31.5475,无锡市,旺庄,颗粒物(PM10),68,85,99,41,48,204,140,142,142,62,78,9,7,0.6,0.8
2022-03-11T18:00:00,1194A,120.245,31.5631,无锡市,荣巷,臭氧1小时,65,75,78,41,41,217,172,158,158,35,59,11,9,0.9,0.7
2022-03-11T18:00:00,1195A,120.299,31.6817,无锡市,堰桥,颗粒物(PM10),74,97,106,39,50,200,138,152,152,84,82,11,9,1.3,1.2
2022-03-11T18:00:00,1196A,119.9633,31.762,常州市,市监测站,颗粒物(PM10),84,118,132,58,56,193,164,154,154,55,84,16,11,1.2,1.1
2022-03-11T18:00:00,1200A,119.9468,31.7069,常州市,武进监测站,细颗粒物(PM2.5),82,103,112,60,60,219,177,171,171,48,67,21,20,1.4,1
2022-03-11T18:00:00,1201A,119.9255,31.9087,常州市,安家,臭氧1小时,82,96,125,47,55,205,185,162,162,46,89,13,11,1.1,1.1
2022-03-11T18:00:00,1203A,119.6707,32.1875,镇江市,新区办事处,细颗粒物(PM2.5),82,109,124,60,61,189,170,161,161,41,100,5,9,0.6,1
2022-03-11T18:00:00,1204A,119.4974,32.1968,镇江市,职教中心,细颗粒物(PM2.5),82,87,99,60,65,214,165,170,170,46,71,7,15,0.7,1.1
2022-03-11T18:00:00,1205A,119.4303,32.1328,镇江市,丹徒区监测站,臭氧1小时,95,90,113,58,72,212,196,176,176,32,76,6,12,0.6,0.7
2022-03-11T18:00:00,1206A,119.905,32.4878,泰州市,公园路,颗粒物(PM10),92,134,126,66,70,194,171,158,158,25,64,15,16,1.1,1.3
2022-03-11T18:00:00,1207A,119.9189,32.4625,泰州市,莲花,颗粒物(PM10),79,107,132,53,74,203,180,168,168,32,68,7,11,0.7,1
2022-03-11T18:00:00,1209A,119.888,32.4639,泰州市,留学生创业园,颗粒物(PM10),102,153,156,72,70,203,180,187,187,27,68,8,12,0.9,1.2
2022-03-11T18:00:00,1210A,119.036,33.5981,淮安市,钵池山,颗粒物(PM10),63,76,116,35,78,140,111,119,119,20,37,7,8,0.8,0.9
2022-03-11T18:00:00,1211A,119.007,33.575,淮安市,北京南路,,,,125,44,91,145,119,122,122,25,41,6,8,0.6,0.8
2022-03-11T18:00:00,1212A,118.989,33.6067,淮安市,市监测站,颗粒物(PM10),76,101,159,36,78,159,123,135,135,24,37,9,11,0.7,0.8
2022-03-11T18:00:00,1213A,119.135,33.5039,淮安市,楚州区监测站,颗粒物(PM10),70,90,126,34,84,162,119,135,135,18,32,8,10,0.7,0.8
2022-03-11T18:00:00,1214A,119.0186,33.6297,淮安市,淮阴区监测站,细颗粒物(PM2.5),70,66,113,51,93,138,109,120,120,26,41,8,10,0.7,0.8
2022-03-11T18:00:00,1215A,120.118,33.4022,盐城市,盐城电厂,,39,39,96,16,59,155,124,134,134,13,26,5,5,0.4,0.5
2022-03-11T18:00:00,1216A,120.156,33.3942,盐城市,市监测站,,39,26,68,20,64,150,122,130,130,17,32,14,15,0.3,0.4
2022-03-11T18:00:00,1218A,120.2144,33.38,盐城市,开发区管委会,,38,25,71,16,42,146,121,126,126,14,27,6,6,0.5,0.6
2022-03-11T18:00:00,1220A,118.293,33.9528,宿迁市,宿迁学院,细颗粒物(PM2.5),77,76,118,56,64,167,152,136,136,22,35,4,6,0.8,1
2022-03-11T18:00:00,1221A,118.2442,33.9592,宿迁市,宿迁中学,颗粒物(PM10),74,98,148,48,67,156,142,130,130,24,30,5,7,0.5,0.6
2022-03-11T18:00:00,1223A,120.2072,30.2111,杭州市,滨江,颗粒物(PM10),63,75,67,34,29,136,127,113,113,48,59,7,6,0.6,0.8
2022-03-11T18:00:00,1224A,120.0633,30.2747,杭州市,西溪,,50,50,52,26,25,151,133,120,120,44,43,4,4,0.3,0.5
2022-03-11T18:00:00,1226A,120.3461,30.3153,杭州市,下沙,颗粒物(PM10),55,60,91,22,35,145,136,121,121,40,65,6,7,0.4,0.7
2022-03-11T18:00:00,1227A,120.1269,30.2456,杭州市,卧龙桥,,50,50,45,22,24,146,116,109,109,32,36,6,6,0.5,0.6
2022-03-11T18:00:00,1228A,120.1903,30.2692,杭州市,浙江农大,,50,50,66,24,32,136,126,110,110,37,54,6,6,0.1,0.6
2022-03-11T18:00:00,1230A,120.1197,30.3119,杭州市,和睦小学,颗粒物(PM10),62,73,114,29,42,141,122,114,114,40,59,5,6,0.8,0.9
2022-03-11T18:00:00,1231A,120.3019,30.4183,杭州市,临平镇,颗粒物(PM10),74,97,109,34,39,159,142,115,115,35,69,5,5,0.7,0.9
2022-03-11T18:00:00,1232A,120.2697,30.1819,杭州市,城厢镇,颗粒物(PM10),61,72,76,17,24,130,116,116,116,47,59,4,6,0.5,0.8
2022-03-11T18:00:00,1233A,120.0883,30.1808,杭州市,云栖,颗粒物(PM10),54,57,49,21,20,142,122,114,114,32,37,7,6,0.5,0.5
2022-03-11T18:00:00,1234A,121.8358,29.911,宁波市,区环保大楼,,45,45,57,19,20,112,78,108,73,22,33,5,6,0.5,0.6
2022-03-11T18:00:00,1235A,121.56,29.82,宁波市,万里学院,,48,48,49,28,25,150,111,127,127,16,18,8,14,0.4,0.4
2022-03-11T18:00:00,1236A,121.713,29.9572,宁波市,龙赛医院,颗粒物(PM10),51,52,56,20,21,133,77,97,97,39,35,18,11,0.4,0.5
2022-03-11T18:00:00,1239A,121.633,29.7733,宁波市,钱湖水厂,颗粒物(PM10),53,56,43,30,22,133,93,114,114,25,15,7,7,0.4,0.5
2022-03-11T18:00:00,1240A,121.5856,29.8635,宁波市,太古小学,,46,46,43,24,28,133,91,109,109,27,28,8,9,0.5,0.6
2022-03-11T18:00:00,1241A,121.524,29.8674,宁波市,市环境监测中心,,40,40,53,24,23,151,97,122,122,27,23,9,15,0.4,0.5
2022-03-11T18:00:00,1242A,120.634,28.0089,温州市,瓯海,,41,41,95,16,45,129,68,101,101,26,47,5,6,0.4,0.6
2022-03-11T18:00:00,1243A,120.6748,27.9939,温州市,南浦,,50,50,96,16,39,126,70,98,98,20,46,6,7,0.5,0.6
2022-03-11T18:00:00,1244A,120.76,27.9747,温州市,龙湾,颗粒物(PM10),52,54,105,14,33,94,64,75,75,27,60,4,6,0.5,0.8
2022-03-11T18:00:00,1245A,120.6709,28.0167,温州市,市站,,38,38,85,11,31,131,70,98,98,23,45,5,6,0.5,0.6
2022-03-11T18:00:00,1247A,120.6053,29.9928,绍兴市,城东开发委,细颗粒物(PM2.5),138,93,64,105,33,161,154,140,140,31,31,6,4,0.6,0.7
2022-03-11T18:00:00,1250A,120.0751,30.8669,湖州市,城西水厂,颗粒物(PM10),51,52,75,22,32,169,138,125,125,40,71,6,9,0.6,0.7
2022-03-11T18:00:00,1252A,120.7436,30.778,嘉兴市,清河小学,颗粒物(PM10),72,93,73,43,30,158,133,114,114,44,51,11,10,0.5,0.5
2022-03-11T18:00:00,1253A,120.726,30.7478,嘉兴市,嘉兴学院,细颗粒物(PM2.5),83,113,78,61,37,176,156,133,133,43,47,12,11,0.5,0.5
2022-03-11T18:00:00,1255A,121.273,28.6459,台州市,黄岩环保大楼,颗粒物(PM10),52,54,63,14,17,116,79,100,100,15,21,6,7,0.3,0.3
2022-03-11T18:00:00,1256A,121.419,28.6542,台州市,台州环保大楼,颗粒物(PM10),62,74,86,24,34,113,73,94,91,18,39,5,6,0.3,0.6
2022-03-11T18:00:00,1257A,121.377,28.5773,台州市,路桥田洋王,,42,42,65,18,30,110,71,90,90,12,33,6,8,0.3,0.6
2022-03-11T18:00:00,1258A,122.122,30.0203,舟山市,定海檀枫,,34,34,39,15,14,101,70,81,81,29,25,6,5,0.3,0.3
2022-03-11T18:00:00,1259A,122.3094,29.9558,舟山市,普陀东港,,30,30,38,8,20,94,58,90,66,42,30,4,4,0.3,0.3
2022-03-11T18:00:00,1260A,122.19,29.9944,舟山市,临城新区,,34,34,34,14,14,107,59,88,85,41,24,4,3,0.3,0.3
2022-03-11T18:00:00,1262A,119.647,29.077,金华市,十五中,,41,31,73,25,40,146,131,124,124,21,45,6,7,0.4,0.5
2022-03-11T18:00:00,1263A,119.686,29.1029,金华市,监测站,,43,43,82,12,44,138,129,114,114,19,51,5,6,0.3,0.5
2022-03-11T18:00:00,1264A,118.8692,28.9398,衢州市,环保大楼,颗粒物(PM10),51,51,68,20,30,140,128,116,116,26,44,7,11,0.6,0.8
2022-03-11T18:00:00,1265A,118.8709,28.9666,衢州市,实验学校,颗粒物(PM10),51,51,56,28,27,155,151,126,126,16,28,3,5,0.6,0.7
2022-03-11T18:00:00,1266A,118.8621,28.9808,衢州市,衢州学院,,48,48,63,25,28,162,141,132,132,17,44,4,5,0.4,0.9
2022-03-11T18:00:00,1267A,119.914,28.4514,丽水市,监测站大楼,细颗粒物(PM2.5),54,41,50,38,32,120,90,99,99,22,21,5,8,0.7,0.5
2022-03-11T18:00:00,1268A,119.93,28.4586,丽水市,莲都小学,,44,44,55,21,23,115,92,96,96,17,22,6,7,0.3,0.3
2022-03-11T18:00:00,1269A,119.879,28.4231,丽水市,余庄前,,29,29,46,14,25,130,90,111,111,10,17,8,8,0.3,0.3
2022-03-11T18:00:00,1270A,117.1959,31.7848,合肥市,明珠广场,颗粒物(PM10),58,66,86,24,31,150,138,134,134,30,74,7,8,0.5,0.5
2022-03-11T18:00:00,1271A,117.3072,31.8764,合肥市,三里街,颗粒物(PM10),60,70,95,22,32,151,121,132,132,44,73,10,10,0.6,0.7
2022-03-11T18:00:00,1272A,117.2588,31.8707,合肥市,琥珀山庄,颗粒物(PM10),59,68,83,22,29,159,148,136,136,19,64,8,9,0.6,0.7
2022-03-11T18:00:00,1273A,117.1604,31.9052,合肥市,董铺水库(对照点),颗粒物(PM10),60,70,87,24,29,145,134,118,118,16,48,9,8,0.6,0.6
2022-03-11T18:00:00,1274A,117.25,31.8571,合肥市,长江中路,颗粒物(PM10),59,68,84,17,28,178,156,148,148,31,63,10,10,0.6,0.6
2022-03-11T18:00:00,1275A,117.266,31.9436,合肥市,庐阳区,颗粒物(PM10),65,80,99,17,27,155,129,122,122,21,58,10,10,0.6,0.7
2022-03-11T18:00:00,1276A,117.336,31.8586,合肥市,瑶海区,颗粒物(PM10),56,61,97,24,32,166,140,144,144,29,69,9,11,0.6,0.8
2022-03-11T18:00:00,1277A,117.3027,31.7964,合肥市,包河区,颗粒物(PM10),54,58,101,27,35,169,145,145,145,28,66,6,8,0.5,0.6
2022-03-11T18:00:00,1278A,117.2776,31.7385,合肥市,滨湖新区,臭氧1小时,55,46,64,19,18,186,164,156,156,18,27,10,10,0.5,0.5
2022-03-11T18:00:00,1279A,117.1318,31.8403,合肥市,高新区,颗粒物(PM10),57,63,74,24,30,174,155,146,146,23,51,12,11,0.8,0.8
2022-03-11T18:00:00,1280A,119.3903,26.0543,福州市,鼓山(对照点),,42,33,45,18,17,151,133,125,125,7,12,5,5,0.3,0.3
2022-03-11T18:00:00,1282A,119.2681,26.0504,福州市,师大,颗粒物(PM10),67,83,70,29,27,139,102,120,120,34,29,6,5,0.6,0.5
2022-03-11T18:00:00,1283A,119.2984,26.1028,福州市,五四北路,颗粒物(PM10),56,62,66,23,25,146,114,116,116,26,32,4,4,0.5,0.4
2022-03-11T18:00:00,1284A,119.2648,26.0768,福州市,杨桥西路,颗粒物(PM10),60,70,66,23,22,131,105,111,111,29,27,5,5,0.7,0.6
2022-03-11T18:00:00,1285A,119.317,26.0746,福州市,紫阳,颗粒物(PM10),56,62,71,29,31,140,99,115,115,34,31,7,6,0.6,0.6
2022-03-11T18:00:00,1286A,118.1608,24.8169,厦门市,溪东(对照点),,,96,52,,31,160,127,141,141,12,5,4,2,0.3,0.4
2022-03-11T18:00:00,1287A,118.1514,24.4767,厦门市,洪文,,40,40,73,28,48,163,125,123,123,16,34,5,7,0.3,0.4
2022-03-11T18:00:00,1288A,118.0661,24.4444,厦门市,鼓浪屿,臭氧1小时,75,74,58,39,34,181,180,147,147,22,35,3,6,0.5,0.5
2022-03-11T18:00:00,1290A,115.8931,28.6843,南昌市,省外办,颗粒物(PM10),61,71,111,37,50,155,115,118,118,20,65,10,11,0.3,1.4
2022-03-11T18:00:00,1291A,115.8886,28.7003,南昌市,省林业公司,颗粒物(PM10),53,56,116,18,35,155,112,109,109,30,64,14,11,0.5,0.8
2022-03-11T18:00:00,1292A,115.8126,28.7442,南昌市,林科所,颗粒物(PM10),51,51,53,21,27,169,143,133,133,16,43,9,11,0.3,0.4
2022-03-11T18:00:00,1294A,115.8518,28.687,南昌市,建工学校,颗粒物(PM10),55,59,100,22,38,150,105,113,113,35,68,12,13,0.5,0.9
2022-03-11T18:00:00,1295A,115.8921,28.6424,南昌市,象湖,颗粒物(PM10),53,55,109,19,40,145,100,110,110,34,70,10,10,0.5,1.1
2022-03-11T18:00:00,1296A,115.7423,28.7996,南昌市,武术学校(对照点),,45,45,37,19,20,151,114,128,128,18,17,18,12,0.5,0.5
2022-03-11T18:00:00,1298A,115.9314,28.6842,南昌市,省站,颗粒物(PM10),55,59,96,23,40,164,108,128,128,25,58,9,10,0.5,0.9
2022-03-11T18:00:00,1299A,116.9862,36.6114,济南市,科干所,颗粒物(PM10),117,183,159,61,66,156,103,133,116,48,42,24,20,1.5,1.2
2022-03-11T18:00:00,1300A,116.9376,36.665,济南市,农科所,颗粒物(PM10),114,178,187,54,74,152,114,125,125,47,68,23,19,1.1,1.2
2022-03-11T18:00:00,1301A,117.1265,36.6734,济南市,开发区,颗粒物(PM10),103,156,163,64,74,160,102,131,112,53,65,24,19,1.3,1
2022-03-11T18:00:00,1303A,117.0624,36.6868,济南市,省种子仓库,颗粒物(PM10),111,171,197,66,88,157,112,121,121,39,78,27,22,1.4,1.6
2022-03-11T18:00:00,1304A,116.9489,36.6447,济南市,机床二厂,颗粒物(PM10),125,200,199,83,90,157,111,123,121,42,48,22,18,1.1,1
2022-03-11T18:00:00,1305A,117.0495,36.663,济南市,市监测站,颗粒物(PM10),116,181,155,72,74,148,104,123,123,50,60,26,19,1.1,0.9
2022-03-11T18:00:00,1306A,116.7675,36.5484,济南市,长清党校,颗粒物(PM10),129,208,178,68,68,173,116,138,138,58,52,20,16,1.3,1.1
2022-03-11T18:00:00,1307A,120.6659,36.2403,青岛市,仰口(对照点),颗粒物(PM10),58,66,51,34,31,136,119,132,129,12,12,4,3,0.6,0.6
2022-03-11T18:00:00,1310A,120.4134,36.0658,青岛市,市南区东部子站,颗粒物(PM10),54,58,58,31,31,129,111,128,113,19,21,4,5,0.5,0.4
2022-03-11T18:00:00,1311A,120.3664,36.1032,青岛市,四方区子站,颗粒物(PM10),52,53,79,29,45,136,99,133,116,48,32,5,4,0.7,0.6
2022-03-11T18:00:00,1312A,120.2994,36.054,青岛市,市南区西部子站,,48,48,60,29,33,144,126,140,115,11,25,5,5,0.5,0.5
2022-03-11T18:00:00,1313A,120.4581,36.0858,青岛市,崂山区子站,颗粒物(PM10),58,66,57,34,30,144,127,142,128,17,22,6,6,0.4,0.4
2022-03-11T18:00:00,1314A,120.1983,35.9608,青岛市,黄岛区子站,颗粒物(PM10),56,61,70,37,42,142,109,136,122,35,41,4,5,0.7,0.7
2022-03-11T18:00:00,1315A,120.3999,36.3083,青岛市,城阳区子站,颗粒物(PM10),58,66,70,24,29,136,100,129,124,30,21,7,5,0.6,0.5
2022-03-11T18:00:00,1316A,113.69031,34.76122,郑州市,烟厂,细颗粒物(PM2.5),97,130,155,72,72,189,167,144,144,25,41,10,14,0.7,0.8
2022-03-11T18:00:00,1317A,113.65724,34.77134,郑州市,郑纺机,,,,151,,63,184,169,153,153,29,48,11,12,0.9,1.1
2022-03-11T18:00:00,1318A,113.67526,34.80246,郑州市,银行学校,颗粒物(PM10),111,171,151,66,59,195,171,149,149,22,33,12,14,0.8,0.8
2022-03-11T18:00:00,1319A,113.56746,34.81334,郑州市,供水公司,颗粒物(PM10),116,181,158,67,63,208,192,158,158,34,47,9,11,0.7,0.8
2022-03-11T18:00:00,1320A,113.7329,34.7178,郑州市,经开区管委,颗粒物(PM10),92,133,151,48,59,186,166,152,152,20,43,9,14,0.8,1
2022-03-11T18:00:00,1321A,113.73961,34.77172,郑州市,四十七中,颗粒物(PM10),106,161,162,55,58,192,167,147,147,25,40,8,12,0.7,0.8
2022-03-11T18:00:00,1322A,113.60532,34.74838,郑州市,市监测站,颗粒物(PM10),102,154,150,51,54,188,175,147,147,26,39,9,12,0.7,0.8
2022-03-11T18:00:00,1323A,113.64164,34.7525,郑州市,河医大,颗粒物(PM10),106,162,162,65,71,181,168,139,139,30,42,6,8,0.8,0.9
2022-03-11T18:00:00,1324A,113.51488,34.91089,郑州市,岗李水库(对照点),颗粒物(PM10),119,188,148,78,55,178,169,143,143,23,29,10,10,0.8,0.9
2022-03-11T18:00:00,1325A,114.3677,30.5584,武汉市,东湖梨园,"颗粒物(PM10),臭氧1小时",55,59,81,29,40,178,164,141,141,15,58,11,11,1.3,1
2022-03-11T18:00:00,1326A,114.2529,30.558,武汉市,汉阳月湖,颗粒物(PM10),55,59,91,36,45,180,152,139,139,28,81,8,11,0.6,1.1
2022-03-11T18:00:00,1327A,114.282,30.6189,武汉市,汉口花桥,颗粒物(PM10),54,58,99,32,48,169,156,136,136,19,72,12,19,0.7,1.3
2022-03-11T18:00:00,1328A,114.3025,30.5332,武汉市,武昌紫阳,细颗粒物(PM2.5),53,54,97,37,50,170,147,134,134,22,75,12,15,0.8,1.3
2022-03-11T18:00:00,1329A,114.3646,30.6217,武汉市,青山钢花,细颗粒物(PM2.5),58,61,135,41,57,173,159,148,148,21,79,14,18,0.8,1.3
2022-03-11T18:00:00,1330A,114.1566,30.4825,武汉市,沌口新区,细颗粒物(PM2.5),58,60,121,41,60,174,146,139,139,25,90,10,19,1.3,1.2
2022-03-11T18:00:00,1331A,114.3014,30.5944,武汉市,汉口江滩,颗粒物(PM10),61,72,106,37,55,157,103,122,122,87,99,12,14,0.7,1.1
2022-03-11T18:00:00,1333A,114.135,30.6319,武汉市,吴家山,颗粒物(PM10),58,65,124,27,49,177,165,137,137,26,76,16,15,0.9,1.5
2022-03-11T18:00:00,1334A,113.8454,30.2917,武汉市,沉湖七壕(对照点),,46,46,71,27,33,179,123,144,144,64,37,9,8,0.5,0.5
2022-03-11T18:00:00,1335A,113.0833,28.2325,长沙市,经开区环保局,,48,38,77,33,59,170,137,129,129,18,71,8,14,0.6,0.8
2022-03-11T18:00:00,1336A,112.8872,28.2189,长沙市,高开区环保局,细颗粒物(PM2.5),59,42,80,42,49,166,160,135,135,13,68,10,12,0.5,1.2
2022-03-11T18:00:00,1337A,113.0792,28.2053,长沙市,马坡岭,颗粒物(PM10),51,52,97,34,58,170,145,132,132,9,58,8,13,0.5,0.7
2022-03-11T18:00:00,1338A,112.9394,28.19,长沙市,湖南师范大学,细颗粒物(PM2.5),64,53,72,46,51,165,147,126,126,15,37,9,12,0.5,0.7
2022-03-11T18:00:00,1339A,113.0178,28.1322,长沙市,雨花区环保局,颗粒物(PM10),51,51,71,29,42,165,144,125,125,10,41,6,15,0.4,0.8
2022-03-11T18:00:00,1340A,112.9792,28.2597,长沙市,伍家岭,颗粒物(PM10),56,62,103,36,49,164,136,122,122,20,63,6,7,0.6,0.9
2022-03-11T18:00:00,1341A,113.0014,28.1944,长沙市,火车新站,颗粒物(PM10),53,55,100,27,64,145,122,109,109,19,77,8,12,0.6,1.1
2022-03-11T18:00:00,1342A,112.9844,28.1178,长沙市,天心区环保局,,46,46,69,28,46,152,132,121,121,14,38,6,11,0.5,0.7
2022-03-11T18:00:00,1343A,112.8908,28.1308,长沙市,湖南中医药大学,细颗粒物(PM2.5),54,43,80,38,51,150,129,113,113,22,60,6,8,0.6,1
2022-03-11T18:00:00,1344A,112.9581,28.3611,长沙市,沙坪(对照点),颗粒物(PM10),56,61,59,35,37,156,147,129,129,17,23,8,12,0.7,0.8
2022-03-11T18:00:00,1345A,113.2347,23.1423,广州市,广雅中学,臭氧1小时,67,65,62,25,26,180,173,141,141,24,47,7,8,0.7,0.7
2022-03-11T18:00:00,1346A,113.2612,23.105,广州市,市五中,臭氧1小时,80,58,56,27,25,193,184,152,152,28,46,4,6,0.6,0.6
2022-03-11T18:00:00,1348A,113.3478,23.0916,广州市,广东商学院,臭氧1小时,67,50,53,22,22,173,173,136,136,28,59,4,6,0.6,0.6
2022-03-11T18:00:00,1349A,113.4332,23.1047,广州市,市八十六中,颗粒物(PM10),59,67,68,26,21,160,158,123,123,33,58,7,9,0.7,0.8
2022-03-11T18:00:00,1350A,113.3505,22.9483,广州市,番禺中学,,49,49,52,21,20,190,152,139,139,21,44,8,9,0.5,0.5
2022-03-11T18:00:00,1351A,113.2146,23.3916,广州市,花都师范,颗粒物(PM10),57,64,72,26,31,204,160,156,156,38,60,4,5,0.6,0.6
2022-03-11T18:00:00,1352A,113.2597,23.1331,广州市,市监测站,臭氧1小时,74,63,57,26,21,195,179,151,151,28,46,5,6,0.7,0.7
2022-03-11T18:00:00,1353A,113.5618,23.312,广州市,九龙镇镇龙,颗粒物(PM10),65,79,88,26,30,117,102,91,91,57,63,5,5,0.6,0.7
2022-03-11T18:00:00,1354A,113.2765,23.1544,广州市,麓湖,,50,50,51,22,21,178,152,138,138,24,47,6,7,0.7,0.7
2022-03-11T18:00:00,1355A,113.443,23.3035,广州市,帽峰山森林公园(对照点),,,,44,,20,134,132,98,98,24,41,7,8,,0.7
2022-03-11T18:00:00,1356A,114.1063,22.5545,深圳市,通心岭子站,,42,42,32,16,11,97,67,80,75,33,14,3,2,0.6,0.5
2022-03-11T18:00:00,1357A,114.117,22.5625,深圳市,洪湖,,43,43,43,15,14,102,74,93,89,31,35,5,5,0.6,0.6
2022-03-11T18:00:00,1358A,113.987,22.5417,深圳市,华侨城,,35,35,30,14,13,92,67,84,80,50,20,9,6,0.5,0.5
2022-03-11T18:00:00,1359A,113.9181,22.5171,深圳市,南海子站,,48,48,38,18,14,90,48,79,66,57,30,6,3,0.4,0.4
2022-03-11T18:00:00,1360A,114.2458,22.5689,深圳市,盐田,,36,31,26,12,11,109,27,98,82,72,18,6,2,0.7,0.7
2022-03-11T18:00:00,1361A,114.2283,22.7244,深圳市,龙岗,,31,31,39,10,15,99,87,92,92,21,38,2,2,0.3,0.3
2022-03-11T18:00:00,1363A,114.494,22.5422,深圳市,南澳,,42,42,27,16,10,104,92,86,86,15,12,4,4,0.8,0.6
2022-03-11T18:00:00,1364A,114.41,22.6342,深圳市,葵涌,,33,33,29,12,10,113,80,102,100,26,16,4,4,0.4,0.3
2022-03-11T18:00:00,1365A,114.297,22.5978,深圳市,梅沙,,38,38,30,14,10,120,91,114,112,25,9,8,8,0.5,0.4
2022-03-11T18:00:00,1366A,114.0678,22.738,深圳市,观澜,颗粒物(PM10),67,83,59,29,20,99,87,86,86,58,44,6,5,0.6,0.9
2022-03-11T18:00:00,1367A,113.5814,22.2618,珠海市,吉大,,41,41,34,20,17,88,79,78,78,16,19,9,9,0.4,0.4
2022-03-11T18:00:00,1368A,113.4881,22.2335,珠海市,前山,,41,41,38,15,12,94,66,87,84,26,29,10,11,0.3,0.3
2022-03-11T18:00:00,1369A,113.628,22.4251,珠海市,唐家,,29,29,31,14,14,110,88,92,92,17,25,7,8,0.2,0.2
2022-03-11T18:00:00,1370A,113.299,22.2281,珠海市,斗门,,27,27,36,11,15,116,85,104,104,15,16,5,6,0.4,0.3
2022-03-11T18:00:00,1371A,113.1294,23.0067,佛山市,湾梁,臭氧1小时,83,73,56,26,19,186,186,152,152,34,28,7,7,0.5,0.4
2022-03-11T18:00:00,1372A,113.1083,23.0478,佛山市,华材职中,臭氧1小时,88,61,47,28,18,190,190,152,152,23,22,10,11,0.4,0.4
2022-03-11T18:00:00,1373A,113.144,23.0453,佛山市,南海气象局,臭氧1小时,55,58,47,31,23,165,164,134,134,31,33,5,6,0.4,0.4
2022-03-11T18:00:00,1374A,113.2881,22.8094,佛山市,顺德苏岗,臭氧1小时,52,48,45,19,19,177,161,142,142,28,39,2,4,0.7,0.7
2022-03-11T18:00:00,1376A,112.8383,22.8678,佛山市,高明孔堂,,,45,37,19,15,120,,101,101,15,12,5,4,0.5,0.5
2022-03-11T18:00:00,1377A,112.8836,23.1588,佛山市,三水监测站,颗粒物(PM10),52,53,58,30,24,135,93,111,111,52,46,9,7,0.2,0.3
2022-03-11T18:00:00,1378A,112.867,23.185,佛山市,三水云东海,,,,57,24,19,169,,119,119,36,39,11,10,0.4,0.4
2022-03-11T18:00:00,1379A,113.3769,22.5211,中山市,华柏园,颗粒物(PM10),55,59,40,21,21,147,94,114,114,17,23,4,4,0.6,0.5
2022-03-11T18:00:00,1380A,113.3881,22.5497,中山市,张溪,颗粒物(PM10),68,85,51,22,25,155,93,122,122,13,26,5,4,0.3,0.4
2022-03-11T18:00:00,1381A,113.4075,22.5111,中山市,紫马岭,,43,43,39,15,12,121,81,99,99,10,22,6,6,0.4,0.4
2022-03-11T18:00:00,1382A,113.4411,22.4853,中山市,长江旅游区(对照点),,33,33,23,16,13,118,83,99,99,11,13,4,4,0.4,0.4
2022-03-11T18:00:00,1383A,113.1064,22.6058,江门市,北街,颗粒物(PM10),53,55,40,24,17,147,147,126,126,27,23,9,8,0.5,0.5
2022-03-11T18:00:00,1384A,113.0731,22.5835,江门市,西区,颗粒物(PM10),56,62,47,29,18,148,138,120,120,30,26,10,6,0.6,0.4
2022-03-11T18:00:00,1385A,113.0219,22.5311,江门市,圭峰西,,48,48,44,23,19,133,130,114,114,16,20,6,5,0.4,0.4
2022-03-11T18:00:00,1386A,113.0828,22.5947,江门市,东湖,颗粒物(PM10),57,64,47,33,15,151,151,124,124,23,19,8,7,0.4,0.3
2022-03-11T18:00:00,1389A,113.7547,23.0494,东莞市,莞城梨川,臭氧1小时,102,74,53,33,21,222,204,168,168,39,37,14,10,0.6,0.5
2022-03-11T18:00:00,1390A,113.7944,23.0128,东莞市,东城石井,臭氧1小时,108,33,47,16,20,246,216,188,188,35,38,8,8,0.4,0.4
2022-03-11T18:00:00,1391A,113.7383,22.9658,东莞市,南城西平,,49,47,56,26,29,228,155,178,178,31,52,10,9,0.6,0.6
2022-03-11T18:00:00,1392A,114.4183,23.0528,惠州市,河南岸金山湖子站,颗粒物(PM10),52,54,44,22,20,134,133,117,117,18,31,4,4,0.5,0.5
2022-03-11T18:00:00,1393A,114.4053,23.0822,惠州市,下埔横江三路子站,,48,48,46,24,18,158,150,131,131,25,28,4,5,0.4,0.4
2022-03-11T18:00:00,1394A,114.4103,23.1142,惠州市,江北云山西路子站,臭氧1小时,52,24,44,27,22,167,161,141,141,21,29,4,5,0.6,0.6
2022-03-11T18:00:00,1395A,114.4645,22.7833,惠州市,惠阳区承修路船湖子站,,49,49,57,19,19,99,70,89,89,16,28,3,4,0.3,0.5
2022-03-11T18:00:00,1396A,114.5317,22.7422,惠州市,大亚湾管委会子站,,34,34,43,14,14,112,83,93,93,17,29,4,5,0.6,0.6
2022-03-11T18:00:00,1397A,112.4267,23.0706,肇庆市,睦岗子站,,43,43,45,22,20,119,115,110,110,18,28,10,15,0.6,0.7
2022-03-11T18:00:00,1398A,112.4645,23.0475,肇庆市,城中子站,,36,36,42,19,19,128,110,108,108,17,27,8,15,0.4,0.4
2022-03-11T18:00:00,1399A,112.5544,23.1522,肇庆市,坑口子站,,48,48,38,22,16,132,128,113,113,22,18,8,11,0.4,0.4
2022-03-11T18:00:00,1400A,112.4753,23.1,肇庆市,七星岩子站(对照点),,45,45,42,22,22,125,106,105,105,17,20,10,15,0.7,0.7
2022-03-11T18:00:00,1401A,108.3103,22.7881,南宁市,二十一中,细颗粒物(PM2.5),52,52,65,36,39,118,103,98,98,16,32,7,11,0.7,0.8
2022-03-11T18:00:00,1402A,108.3141,22.8528,南宁市,北湖,颗粒物(PM10),55,60,73,32,42,117,99,103,103,14,28,9,17,0.7,0.8
2022-03-11T18:00:00,1403A,108.3206,22.8225,南宁市,市监测站,颗粒物(PM10),51,52,67,34,38,122,90,98,98,34,39,9,15,0.7,0.8
2022-03-11T18:00:00,1404A,108.3829,22.8037,南宁市,大自然花园,"颗粒物(PM10),细颗粒物(PM2.5)",53,55,61,37,36,106,97,93,93,14,28,7,9,0.7,0.9
2022-03-11T18:00:00,1405A,108.4394,22.7904,南宁市,仙葫(对照点),颗粒物(PM10),56,61,71,38,40,107,104,98,98,14,28,6,8,0.6,0.8
2022-03-11T18:00:00,1406A,108.2397,22.8467,南宁市,区农职院,颗粒物(PM10),54,58,64,33,38,119,97,96,96,27,39,9,13,0.7,0.7
2022-03-11T18:00:00,1407A,108.3275,22.735,南宁市,英华嘉园,颗粒物(PM10),57,63,73,33,42,103,83,85,85,33,48,8,13,0.8,0.9
2022-03-11T18:00:00,1408A,108.2257,22.7757,南宁市,沙井镇街道办,,,62,82,34,34,110,93,94,94,21,41,,11,,0.8
2022-03-11T18:00:00,1409A,110.576,19.9507,海口市,东寨港(对照点),,32,32,43,19,15,91,81,84,76,5,10,7,7,0.3,0.3
2022-03-11T18:00:00,1410A,110.3232,20.0574,海口市,海南大学,,35,35,37,14,14,94,77,92,75,5,6,3,4,0.4,0.4
2022-03-11T18:00:00,1411A,110.283,20.0053,海口市,秀英海南医院,,46,46,38,23,20,97,88,93,92,2,2,3,3,0.4,0.4
2022-03-11T18:00:00,1412A,110.338,19.9969,海口市,海南师范大学,,46,46,38,19,15,83,78,79,79,6,6,2,2,0.3,0.4
2022-03-11T18:00:00,1413A,110.33,20.0356,海口市,龙华路环保局宿舍,,34,34,36,16,16,97,92,92,92,4,5,5,5,0.5,0.4
2022-03-11T18:00:00,1414A,106.3787,29.8279,重庆市,缙云山(对照点),,48,47,55,28,34,166,153,137,135,19,23,7,11,0.7,0.8
2022-03-11T18:00:00,1416A,106.4213,29.8253,重庆市,天生,颗粒物(PM10),51,52,80,32,48,166,154,141,141,13,42,5,10,0.8,1
2022-03-11T18:00:00,1417A,106.6263,29.7228,重庆市,两路,颗粒物(PM10),52,53,74,26,42,145,138,127,127,38,44,10,13,0.9,1
2022-03-11T18:00:00,1418A,106.2953,29.5983,重庆市,虎溪,,,34,68,13,39,178,,134,134,,65,5,8,,1.1
2022-03-11T18:00:00,1419A,106.5777,29.5102,重庆市,南坪,细颗粒物(PM2.5),58,55,70,41,47,182,162,145,145,30,26,10,15,0.8,0.8
2022-03-11T18:00:00,1420A,106.6556,29.6277,重庆市,唐家沱,颗粒物(PM10),61,72,87,33,48,181,164,147,147,22,48,9,9,0.9,0.9
2022-03-11T18:00:00,1421A,106.6349,29.4906,重庆市,茶园,颗粒物(PM10),60,69,112,33,56,180,160,136,136,27,62,12,15,0.6,1
2022-03-11T18:00:00,1422A,106.3754,29.4572,重庆市,白市驿,臭氧1小时,88,71,81,22,35,193,190,154,154,20,34,13,15,0.8,1
2022-03-11T18:00:00,1425A,106.6205,29.7166,重庆市,空港,颗粒物(PM10),55,59,83,30,42,167,150,144,144,26,29,9,12,0.8,0.8
2022-03-11T18:00:00,1426A,106.4782,29.4875,重庆市,新山村,颗粒物(PM10),60,70,85,36,47,176,162,138,138,41,74,12,14,0.7,1
2022-03-11T18:00:00,1427A,106.5616,29.6453,重庆市,礼嘉,臭氧1小时,70,82,77,28,35,180,176,143,143,35,64,11,13,1.2,1.1
2022-03-11T18:00:00,1428A,106.4522,29.7091,重庆市,蔡家,,,,85,,53,168,160,135,135,22,54,7,7,0.9,1.1
2022-03-11T18:00:00,1429A,106.5093,29.3917,重庆市,鱼新街,臭氧1小时,72,60,85,32,44,182,177,138,138,19,53,11,14,1.0,1.2
2022-03-11T18:00:00,1431A,103.9728,30.7236,成都市,金泉两河,细颗粒物(PM2.5),107,126,133,80,83,202,183,148,148,25,61,11,9,0.6,0.9
2022-03-11T18:00:00,1432A,104.1419,30.6764,成都市,十里店,颗粒物(PM10),88,125,155,55,72,183,153,126,126,24,75,10,9,0.7,0.9
2022-03-11T18:00:00,1433A,104.0594,30.5767,成都市,三瓦窑,细颗粒物(PM2.5),84,104,149,62,78,202,157,130,130,28,96,10,9,0.7,1.2
2022-03-11T18:00:00,1434A,104.1122,30.6306,成都市,沙河铺,细颗粒物(PM2.5),93,110,139,69,78,204,163,138,138,28,70,10,8,0.7,1
2022-03-11T18:00:00,1437A,104.0431,30.6556,成都市,君平街,细颗粒物(PM2.5),98,106,139,73,90,210,165,148,148,30,79,12,11,0.7,1
2022-03-11T18:00:00,1438A,103.6202,31.0201,成都市,灵岩寺(对照点),臭氧1小时,104,97,77,71,49,209,208,176,176,13,15,6,15,0.7,0.7
2022-03-11T18:00:00,1439A,106.6899,26.5998,贵阳市,马鞍山,,36,36,34,22,26,90,79,71,71,15,16,5,6,0.4,0.5
2022-03-11T18:00:00,1440A,106.6971,26.5694,贵阳市,市环保站,,,46,44,14,18,86,67,64,64,24,24,,3,0.4,0.5
2022-03-11T18:00:00,1441A,106.6243,26.6266,贵阳市,鉴湖路,,46,46,42,22,25,85,76,68,68,12,13,4,4,0.5,0.5
2022-03-11T18:00:00,1442A,106.7487,26.6343,贵阳市,燕子冲,细颗粒物(PM2.5),52,34,42,36,33,101,84,80,80,12,17,4,7,0.4,0.4
2022-03-11T18:00:00,1443A,106.6555,26.4365,贵阳市,碧云窝,,34,34,38,14,22,92,77,74,74,11,11,5,6,0.6,0.5
2022-03-11T18:00:00,1444A,106.694,26.5161,贵阳市,中院村,,48,48,43,19,24,83,68,67,67,20,23,5,7,0.5,0.6
2022-03-11T18:00:00,1445A,106.7109,26.6027,贵阳市,红边门,,46,46,42,31,30,70,57,57,57,29,33,11,11,0.3,0.4
2022-03-11T18:00:00,1446A,106.7164,26.5699,贵阳市,新华路,,35,34,39,24,26,92,75,74,74,15,17,5,6,0.3,0.4
2022-03-11T18:00:00,1447A,106.674,26.5424,贵阳市,太慈桥,,,,44,17,19,98,84,78,78,11,16,2,3,0.7,0.4
2022-03-11T18:00:00,1450A,102.8204,24.8886,昆明市,呈贡新区,,40,40,39,16,24,144,122,132,132,7,19,9,11,0.2,0.4
2022-03-11T18:00:00,1451A,102.6251,24.9608,昆明市,西山森林公园(对照点),,39,29,46,13,19,128,123,113,113,4,16,6,10,0.3,0.6
2022-03-11T18:00:00,1452A,102.7252,25.0902,昆明市,龙泉镇,,38,22,53,10,36,134,121,120,120,7,36,9,11,0.4,0.6
2022-03-11T18:00:00,1453A,102.7266,25.0375,昆明市,东风东路,,34,27,48,18,28,127,108,117,117,18,35,8,11,0.4,0.6
2022-03-11T18:00:00,1454A,102.6742,25.0669,昆明市,金鼎山,,33,25,59,11,42,123,103,112,112,23,38,10,14,0.5,0.7
2022-03-11T18:00:00,1455A,102.6644,25.0401,昆明市,碧鸡广场,,38,23,47,9,27,130,119,120,120,16,43,10,16,0.4,0.7
2022-03-11T18:00:00,1456A,91.1319,29.6514,拉萨市,八廓街,,27,11,24,7,11,98,84,86,86,11,15,6,6,0.3,0.3
2022-03-11T18:00:00,1457A,91.1221,29.6747,拉萨市,市环保局,,25,9,29,6,10,80,79,76,76,4,10,4,4,0.3,0.4
2022-03-11T18:00:00,1458A,91.0874,29.6475,拉萨市,区监测站,,30,4,29,2,7,101,94,98,89,3,9,5,5,0.2,0.2
2022-03-11T18:00:00,1459A,91.1774,29.6541,拉萨市,西藏大学,,,,23,,7,85,84,80,79,,11,,5,0.3,0.3
2022-03-11T18:00:00,1460A,90.9798,29.6588,拉萨市,区辐射站,,28,11,32,6,11,92,89,84,84,6,12,5,5,0.4,0.5
2022-03-11T18:00:00,1461A,91.0834,29.6292,拉萨市,拉萨火车站,,31,15,37,1,7,99,97,94,90,4,7,7,7,0.4,0.4
2022-03-11T18:00:00,1462A,108.882,34.2749,西安市,高压开关厂,颗粒物(PM10),117,183,233,58,84,171,170,127,127,27,78,16,18,1.0,1
2022-03-11T18:00:00,1463A,108.993,34.2629,西安市,兴庆小区,颗粒物(PM10),106,161,223,49,72,174,172,122,122,30,74,16,14,2.6,1.5
2022-03-11T18:00:00,1464A,109.06,34.2572,西安市,纺织城,颗粒物(PM10),110,170,230,67,104,172,165,122,122,36,69,16,13,1.0,1
2022-03-11T18:00:00,1465A,108.9356,34.2173,西安市,小寨,颗粒物(PM10),94,138,199,52,83,155,155,96,96,46,97,16,13,1.0,1.3
2022-03-11T18:00:00,1466A,108.954,34.2713,西安市,市人民体育场,颗粒物(PM10),107,163,201,64,82,168,164,127,127,34,78,12,12,1.0,1.1
2022-03-11T18:00:00,1467A,108.8922,34.2322,西安市,高新西区,颗粒物(PM10),119,188,235,63,91,161,161,99,99,42,91,17,16,1.2,1.2
2022-03-11T18:00:00,1468A,108.935,34.3474,西安市,经开区,颗粒物(PM10),91,132,178,49,64,171,167,136,136,25,73,10,11,0.8,0.9
2022-03-11T18:00:00,1469A,108.906,34.1546,西安市,长安区,颗粒物(PM10),159,268,256,94,93,143,133,126,126,77,84,16,13,1.1,1
2022-03-11T18:00:00,1471A,109.2186,34.3731,西安市,临潼区,颗粒物(PM10),105,160,172,45,61,177,158,140,140,28,49,10,11,1.0,0.9
2022-03-11T18:00:00,1472A,108.869,34.378,西安市,草滩(对照点),颗粒物(PM10),104,158,165,63,75,174,159,145,145,32,58,16,13,0.9,0.9
2022-03-11T18:00:00,1473A,108.985,34.1978,西安市,曲江文化产业集团,颗粒物(PM10),140,230,266,62,91,149,149,98,98,52,100,8,6,1.2,1.4
2022-03-11T18:00:00,1474A,109.051,34.3213,西安市,广运潭,颗粒物(PM10),105,160,219,56,73,184,172,131,131,24,69,16,11,0.8,0.8
2022-03-11T18:00:00,1476A,103.631,36.1031,兰州市,兰炼宾馆,颗粒物(PM10),105,159,113,61,53,157,140,128,128,15,65,11,23,1.1,1.6
2022-03-11T18:00:00,1477A,104.1373,35.9454,兰州市,榆中兰大校区(对照点),颗粒物(PM10),97,144,91,33,29,148,143,126,126,13,18,5,9,0.9,0.9
2022-03-11T18:00:00,1478A,103.8412,36.0726,兰州市,生物制品所,颗粒物(PM10),106,161,131,35,31,163,162,125,125,15,91,10,17,0.8,1.3
2022-03-11T18:00:00,1479A,103.831,36.0464,兰州市,铁路设计院,颗粒物(PM10),94,138,131,41,48,135,122,99,99,34,86,9,18,0.7,1.5
2022-03-11T18:00:00,1483A,101.524,36.6867,西宁市,第五水厂(对照点),颗粒物(PM10),134,218,65,15,21,127,87,100,100,3,11,4,9,0.4,0.9
2022-03-11T18:00:00,1484A,105.9512,38.6016,银川市,贺兰山马莲口(对照点),颗粒物(PM10),120,190,170,78,68,156,156,120,120,31,29,33,44,0.8,1
2022-03-11T18:00:00,1488A,106.2328,38.4975,银川市,贺兰山东路,细颗粒物(PM2.5),132,201,222,100,88,155,146,114,114,41,56,28,31,1.2,1.5
2022-03-11T18:00:00,1489A,106.1358,38.5036,银川市,学院路,颗粒物(PM10),136,222,228,71,76,176,162,131,131,38,52,29,38,1.3,1.7
2022-03-11T18:00:00,1490A,87.5801,43.8303,乌鲁木齐市,监测站,细颗粒物(PM2.5),70,62,60,51,37,96,96,62,62,24,56,9,8,0.6,0.9
2022-03-11T18:00:00,1491A,87.6046,43.768,乌鲁木齐市,收费所,细颗粒物(PM2.5),72,83,68,52,44,93,83,65,65,32,52,7,6,0.6,0.7
2022-03-11T18:00:00,1492A,87.4754,43.9469,乌鲁木齐市,新疆农科院农场(对照点),,45,42,97,31,40,98,98,64,64,13,49,8,11,0.3,0.5
2022-03-11T18:00:00,1493A,87.5525,43.8711,乌鲁木齐市,铁路局,细颗粒物(PM2.5),53,54,54,37,38,100,100,68,68,18,57,6,7,0.7,1
2022-03-11T18:00:00,1494A,87.6432,43.831,乌鲁木齐市,三十一中学,细颗粒物(PM2.5),70,78,70,51,37,66,66,48,48,23,42,10,8,0.6,0.8
2022-03-11T18:00:00,1496A,87.7216,44.1747,乌鲁木齐市,米东区环保局,,30,20,62,8,28,97,94,60,60,2,26,8,8,0.3,0.6
2022-03-11T18:00:00,1508A,112.9433,27.8614,湘潭市,板塘,,44,44,82,23,47,128,123,111,111,11,47,9,5,0.4,0.6
2022-03-11T18:00:00,1511A,112.9118,27.8403,湘潭市,市监测站,,46,32,68,32,48,119,114,99,99,34,60,9,15,0.3,0.6
2022-03-11T18:00:00,1512A,112.8937,27.8728,湘潭市,江麓,,45,45,81,28,45,119,111,90,90,20,58,11,16,0.4,0.7
2022-03-11T18:00:00,1513A,112.9227,27.8159,湘潭市,岳塘,,43,40,78,27,43,139,136,124,124,8,38,12,18,0.5,0.8
2022-03-11T18:00:00,1514A,112.9074,27.9119,湘潭市,科大,细颗粒物(PM2.5),68,41,86,49,51,134,130,107,107,18,59,5,14,0.6,0.8
2022-03-11T18:00:00,1515A,113.135,27.8244,株洲市,天台山庄,,39,32,67,27,49,127,113,106,106,19,57,7,13,0.0,0.6
2022-03-11T18:00:00,1518A,113.095,27.8867,株洲市,株冶医院,,46,31,62,24,42,153,145,128,128,11,49,8,13,0.1,0.5
2022-03-11T18:00:00,1519A,113.167,27.8667,株洲市,市四中,细颗粒物(PM2.5),59,20,59,42,50,132,126,111,111,23,42,8,12,0.4,0.6
2022-03-11T18:00:00,1520A,113.143,27.8381,株洲市,火车站,,41,39,87,28,56,143,130,119,119,16,47,8,14,0.5,1.1
2022-03-11T18:00:00,1524A,113.13,27.8528,株洲市,市监测站,,41,41,75,26,49,130,117,109,109,18,56,10,13,0.7,1.1
2022-03-11T18:00:00,1552A,106.805,26.3003,贵阳市,桐木岭(对照点),,39,39,35,22,27,87,82,77,74,5,5,8,5,0.4,0.5
2022-03-11T18:00:00,1559A,113.251,27.8336,株洲市,大京风景区(对照点),细颗粒物(PM2.5),52,44,48,36,44,141,141,115,115,8,11,10,9,0.3,0.5
2022-03-11T18:00:00,1562A,113.0048,27.9153,湘潭市,昭山,,33,31,58,23,45,131,104,110,110,15,54,7,12,0.6,0.7
2022-03-11T18:00:00,1564A,112.4876,27.9164,湘潭市,韶山(对照点),,39,39,58,14,28,112,103,100,100,11,13,5,6,0.5,0.6
2022-03-11T18:00:00,1585A,109.8756,40.6532,包头市,市环境监测站,颗粒物(PM10),80,110,159,56,79,125,120,109,109,31,43,19,20,0.7,0.7
2022-03-11T18:00:00,1587A,109.9991,40.5842,包头市,包头八中,颗粒物(PM10),96,141,230,58,104,133,129,118,118,32,57,21,29,0.8,1.2
2022-03-11T18:00:00,1588A,109.8538,40.6821,包头市,青山宾馆,细颗粒物(PM2.5),98,115,112,73,55,123,117,104,104,37,42,25,17,1.0,0.9
2022-03-11T18:00:00,1589A,109.8642,40.6288,包头市,惠龙物流,颗粒物(PM10),84,117,187,46,79,125,125,112,112,28,39,14,19,0.8,1
2022-03-11T18:00:00,1590A,110.0377,40.5546,包头市,东河鸿龙湾,颗粒物(PM10),89,128,229,57,109,132,127,114,114,27,53,23,25,0.9,1.4
2022-03-11T18:00:00,1591A,110.0023,39.8129,鄂尔多斯市,综合楼,细颗粒物(PM2.5),92,119,193,68,71,158,158,129,129,24,67,11,19,0.6,0.9
2022-03-11T18:00:00,1592A,109.9486,39.8261,鄂尔多斯市,巴音孟克林场办事处,颗粒物(PM10),75,100,182,24,51,148,148,121,121,22,64,14,21,0.6,0.9
2022-03-11T18:00:00,1593A,109.7736,39.5986,鄂尔多斯市,康泽苑,颗粒物(PM10),74,97,134,31,45,169,159,140,140,14,40,6,8,0.7,0.9
2022-03-11T18:00:00,1594A,109.8119,39.5989,鄂尔多斯市,华泰汽车城,颗粒物(PM10),75,100,146,39,52,173,157,140,140,16,49,10,11,0.6,0.7
2022-03-11T18:00:00,1595A,109.9734,39.7884,鄂尔多斯市,奥林花园,颗粒物(PM10),76,101,169,27,57,155,153,129,129,18,54,11,17,0.8,1.1
2022-03-11T18:00:00,1597A,122.2703,40.7094,营口市,大庆路,细颗粒物(PM2.5),57,60,132,40,83,104,74,93,93,37,53,9,12,0.7,1.6
2022-03-11T18:00:00,1598A,122.215,40.6511,营口市,镜湖西路,,47,47,124,12,57,117,93,97,97,22,45,3,13,0.3,1.4
2022-03-11T18:00:00,1599A,122.167,40.6655,营口市,西炮台,,28,28,126,15,80,116,83,90,90,29,56,5,10,0.4,1.3
2022-03-11T18:00:00,1600A,124.3303,40.0625,丹东市,江湾东路,,28,15,42,11,33,108,89,102,96,20,16,8,9,0.4,0.6
2022-03-11T18:00:00,1601A,124.4256,40.1503,丹东市,临江后街,,25,13,41,6,29,107,79,104,95,34,18,6,8,0.4,0.7
2022-03-11T18:00:00,1602A,124.3933,40.1461,丹东市,元宝山,,28,14,41,5,30,100,88,96,86,9,13,8,11,0.3,0.8
2022-03-11T18:00:00,1603A,124.3633,40.1092,丹东市,民主桥,,22,16,41,9,28,103,68,102,85,34,17,10,10,0.5,0.6
2022-03-11T18:00:00,1604A,122.0303,41.1489,盘锦市,开发区,,28,22,114,7,87,111,89,96,96,16,39,4,11,0.6,1.2
2022-03-11T18:00:00,1605A,122.0485,41.0883,盘锦市,兴隆台,,35,35,123,10,74,91,78,83,83,25,48,8,15,0.5,1.1
2022-03-11T18:00:00,1606A,121.8297,41.1028,盘锦市,新生街道,,27,25,89,5,61,105,86,97,97,20,42,6,9,0.5,0.9
2022-03-11T18:00:00,1607A,120.9092,40.7136,葫芦岛市,龙港区,,39,39,147,14,81,109,103,99,99,16,41,10,72,0.1,1
2022-03-11T18:00:00,1608A,120.8392,40.7514,葫芦岛市,化工街,颗粒物(PM10),55,60,129,19,53,110,90,98,98,28,49,50,22,0.3,0.6
2022-03-11T18:00:00,1609A,120.8341,40.7073,葫芦岛市,新区,颗粒物(PM10),60,70,118,34,67,124,115,105,105,30,44,12,39,0.5,0.9
2022-03-11T18:00:00,1610A,120.8695,40.7677,葫芦岛市,东城区,颗粒物(PM10),58,65,112,38,60,111,75,96,96,42,50,56,22,0.7,0.5
2022-03-11T18:00:00,1611A,118.5819,24.9117,泉州市,涂山街,颗粒物(PM10),53,55,72,16,43,185,105,146,146,24,32,8,8,0.6,0.6
2022-03-11T18:00:00,1612A,118.5972,24.8978,泉州市,津头埔,颗粒物(PM10),57,63,75,21,45,178,110,146,146,27,35,8,8,0.5,0.6
2022-03-11T18:00:00,1613A,118.6663,24.9424,泉州市,万安,颗粒物(PM10),61,72,75,32,43,164,111,138,138,21,27,11,9,0.5,0.5
2022-03-11T18:00:00,1614A,118.6117,24.9604,泉州市,清源山(对照点),颗粒物(PM10),60,70,60,31,29,188,142,188,158,16,16,8,8,0.5,0.5
2022-03-11T18:00:00,1616A,117.6795,36.229,济南市,技术学院,颗粒物(PM10),91,132,173,59,92,213,168,187,187,20,43,12,14,0.8,1.1
2022-03-11T18:00:00,1618A,118.3429,35.0532,临沂市,沂河小区,颗粒物(PM10),73,95,140,39,80,189,130,134,134,24,49,12,14,1.1,1.6
2022-03-11T18:00:00,1619A,118.295,35.0583,临沂市,鲁南制药厂,"颗粒物(PM10),细颗粒物(PM2.5)",75,100,133,55,83,197,143,143,143,40,55,12,17,1.4,1.7
2022-03-11T18:00:00,1620A,118.2794,34.9976,临沂市,新光毛纺厂,颗粒物(PM10),70,90,128,43,75,178,129,136,136,42,56,6,11,1.1,1.7
2022-03-11T18:00:00,1621A,118.3956,35.0888,临沂市,河东保险公司,颗粒物(PM10),63,75,133,35,80,194,131,132,132,27,56,9,11,1.1,1.8
2022-03-11T18:00:00,1622A,116.3032,37.4674,德州市,儿童乐园,细颗粒物(PM2.5),83,107,148,61,90,138,130,111,111,23,36,9,14,0.2,0.7
2022-03-11T18:00:00,1624A,116.2991,37.4451,德州市,监理站,细颗粒物(PM2.5),87,117,177,64,100,139,125,105,105,12,25,11,22,0.5,0.7
2022-03-11T18:00:00,1625A,115.9848,36.4372,聊城市,区政府,颗粒物(PM10),132,213,183,79,78,202,153,170,170,35,36,16,17,1.0,1
2022-03-11T18:00:00,1628A,118.0062,37.3803,滨州市,市环保局,颗粒物(PM10),62,73,127,39,61,184,133,137,137,19,33,10,16,0.4,0.6
2022-03-11T18:00:00,1629A,118.0018,37.3617,滨州市,第二水厂,颗粒物(PM10),76,102,135,36,62,141,111,113,113,19,32,16,16,0.5,0.7
2022-03-11T18:00:00,1630A,117.9776,37.393,滨州市,北中新校,,,88,125,,61,166,112,120,120,18,33,12,21,0.5,0.7
2022-03-11T18:00:00,1631A,118.0414,36.8103,淄博市,人民公园,细颗粒物(PM2.5),92,122,167,68,94,151,95,116,116,44,73,14,13,0.6,0.8
2022-03-11T18:00:00,1633A,117.8525,36.4847,淄博市,双山,颗粒物(PM10),110,169,154,81,94,162,123,139,139,40,46,7,10,0.6,0.8
2022-03-11T18:00:00,1634A,117.9592,36.6331,淄博市,气象站,颗粒物(PM10),102,153,161,66,72,177,108,138,135,39,41,15,16,1.0,0.9
2022-03-11T18:00:00,1635A,118.3092,36.8194,淄博市,莆田园,颗粒物(PM10),78,105,144,51,73,140,104,109,109,21,41,8,12,0.2,0.8
2022-03-11T18:00:00,1637A,117.558,34.8438,枣庄市,市中区政府,颗粒物(PM10),91,132,177,51,82,192,183,177,177,25,48,6,10,1.0,1.1
2022-03-11T18:00:00,1638A,117.2852,34.7837,枣庄市,薛城环保局,颗粒物(PM10),88,125,148,46,80,183,182,160,160,20,31,15,32,0.6,0.9
2022-03-11T18:00:00,1639A,117.5852,34.7745,枣庄市,峄城区政府,臭氧1小时,101,129,173,41,84,202,202,171,171,16,41,11,14,0.7,1.1
2022-03-11T18:00:00,1640A,117.7276,34.5578,枣庄市,台儿庄区环保局,颗粒物(PM10),84,117,137,41,75,182,182,157,157,26,43,10,12,0.6,1.1
2022-03-11T18:00:00,1641A,117.4518,35.0992,枣庄市,山亭区环保局,颗粒物(PM10),107,163,141,68,67,214,189,188,188,31,25,18,17,1.8,1
2022-03-11T18:00:00,1642A,121.2514,37.5639,烟台市,开发区,颗粒物(PM10),58,66,80,34,34,138,89,138,81,36,24,5,6,0.4,0.3
2022-03-11T18:00:00,1643A,121.3719,37.5433,烟台市,轴承厂,颗粒物(PM10),78,105,78,36,43,142,116,142,102,20,18,3,4,0.7,0.7
2022-03-11T18:00:00,1644A,121.3181,37.5436,烟台市,西郊化工站,颗粒物(PM10),63,75,77,31,37,148,115,146,99,24,24,4,5,0.8,0.8
2022-03-11T18:00:00,1645A,121.4478,37.4822,烟台市,莱山环保局,颗粒物(PM10),51,52,76,27,34,135,113,132,100,15,15,4,5,0.4,0.5
2022-03-11T18:00:00,1646A,121.2611,37.4967,烟台市,福山环保局,颗粒物(PM10),68,85,79,31,40,144,114,143,90,17,17,4,5,0.7,0.8
2022-03-11T18:00:00,1650A,119.1437,36.7023,潍坊市,环保局,颗粒物(PM10),81,112,92,58,53,147,122,127,127,27,22,5,5,0.7,0.7
2022-03-11T18:00:00,1653A,116.6251,35.4302,济宁市,火炬城,"颗粒物(PM10),臭氧1小时",88,125,130,58,78,195,190,174,174,14,30,12,15,0.9,0.9
2022-03-11T18:00:00,1655A,116.5491,35.4042,济宁市,电化厂,臭氧1小时,88,107,127,56,70,199,190,179,179,28,30,11,14,0.8,1
2022-03-11T18:00:00,1656A,117.1437,36.1937,泰安市,监测站,臭氧1小时,101,129,159,70,96,224,201,202,202,33,41,12,14,0.7,1
2022-03-11T18:00:00,1657A,117.0885,36.2017,泰安市,人口学校,颗粒物(PM10),95,139,152,66,87,213,192,192,192,22,27,13,14,0.6,0.7
2022-03-11T18:00:00,1658A,117.1089,36.1758,泰安市,电力学校,颗粒物(PM10),90,129,158,64,103,208,191,189,189,20,40,12,14,0.9,1.3
2022-03-11T18:00:00,1659A,119.471,35.4209,日照市,监测站,,39,34,57,24,37,133,122,122,122,16,22,4,5,0.4,0.6
2022-03-11T18:00:00,1660A,119.523,35.4216,日照市,市政府广场,,41,41,55,23,36,143,130,133,133,12,15,3,3,0.5,0.6
2022-03-11T18:00:00,1661A,119.5587,35.4044,日照市,港务局,,45,36,50,25,28,151,142,145,145,10,14,3,3,0.5,0.6
2022-03-11T18:00:00,1662A,122.1214,37.4236,威海市,华夏技校,细颗粒物(PM2.5),58,46,58,41,42,141,108,122,95,18,18,2,3,0.4,0.5
2022-03-11T18:00:00,1663A,122.0508,37.5236,威海市,山大分校,,39,39,53,27,30,151,114,142,108,19,17,3,4,0.2,0.2
2022-03-11T18:00:00,1664A,122.1067,37.5072,威海市,市监测站,颗粒物(PM10),53,56,61,33,28,151,112,127,104,18,18,4,4,0.4,0.4
2022-03-11T18:00:00,1666A,118.6614,37.4309,东营市,市环保局,,40,34,85,27,49,132,125,124,124,8,16,5,8,0.4,0.6
2022-03-11T18:00:00,1669A,113.5824,24.7733,韶关市,市八中,颗粒物(PM10),53,55,61,31,29,162,151,145,145,20,32,10,14,0.6,0.6
2022-03-11T18:00:00,1671A,113.5917,24.7972,韶关市,园林处,,46,46,53,21,29,156,146,140,140,12,27,9,13,0.6,0.6
2022-03-11T18:00:00,1672A,113.6735,24.7791,韶关市,韶关学院,,47,46,48,28,28,158,148,142,142,16,18,12,12,0.5,0.5
2022-03-11T18:00:00,1673A,113.5971,24.6863,韶关市,曲江监测站,细颗粒物(PM2.5),57,48,54,40,30,144,139,126,126,21,34,9,13,0.5,0.4
2022-03-11T18:00:00,1674A,116.6794,23.3667,汕头市,金平子站,颗粒物(PM10),54,58,90,36,41,161,138,139,139,32,31,8,12,0.6,0.8
2022-03-11T18:00:00,1675A,116.7244,23.3633,汕头市,龙湖子站,颗粒物(PM10),53,56,71,18,31,141,129,134,134,25,31,7,10,0.5,0.5
2022-03-11T18:00:00,1676A,116.7258,23.2775,汕头市,濠江子站,,50,50,60,22,27,149,130,135,135,21,18,10,11,0.6,0.7
2022-03-11T18:00:00,1677A,116.7519,23.4714,汕头市,澄海子站,颗粒物(PM10),56,62,73,27,33,164,128,144,144,29,30,8,13,0.6,0.6
2022-03-11T18:00:00,1678A,116.6092,23.2539,汕头市,潮阳子站,颗粒物(PM10),55,59,69,21,27,161,137,147,147,19,26,11,13,0.5,0.7
2022-03-11T18:00:00,1680A,110.3539,21.2706,湛江市,湛江影剧院,,40,40,34,17,14,118,74,118,81,8,8,5,5,0.5,0.5
2022-03-11T18:00:00,1681A,110.3928,21.2228,湛江市,市环境监测站,,27,26,32,17,17,132,86,132,90,5,7,4,5,0.4,0.4
2022-03-11T18:00:00,1682A,110.4019,21.1997,湛江市,环保局宿舍,,34,34,34,16,17,127,76,127,86,8,6,4,5,0.4,0.4
2022-03-11T18:00:00,1683A,110.4111,21.2028,湛江市,霞山游泳场,,38,38,33,18,19,116,66,116,77,12,7,5,5,0.4,0.4
2022-03-11T18:00:00,1684A,110.3316,21.2679,湛江市,麻章区环保局,,38,38,39,15,16,112,72,112,80,8,7,5,5,0.4,0.4
2022-03-11T18:00:00,1685A,110.4558,21.2567,湛江市,坡头区环保局,,37,37,35,15,17,124,85,118,87,5,6,5,5,0.3,0.4
2022-03-11T18:00:00,1686A,111.0286,21.4688,茂名市,电白南海,,39,39,37,12,13,117,84,96,90,16,11,7,11,0.5,0.5
2022-03-11T18:00:00,1687A,110.9294,21.6533,茂名市,茂石化七小,,34,34,44,12,18,102,65,87,86,10,9,10,11,0.6,0.6
2022-03-11T18:00:00,1688A,110.9107,21.6687,茂名市,健康路,,29,29,39,3,9,106,71,90,90,10,9,7,13,0.6,0.6
2022-03-11T18:00:00,1689A,110.8592,21.6828,茂名市,高岭,,34,34,45,14,13,110,74,93,92,8,13,9,14,0.6,0.7
2022-03-11T18:00:00,1690A,116.1231,24.3284,梅州市,梅江月梅,,40,34,41,18,23,144,125,125,125,13,22,8,10,0.4,0.4
2022-03-11T18:00:00,1691A,116.0797,24.2719,梅州市,梅县新城,,40,25,43,24,27,150,125,129,129,14,32,5,5,0.4,0.5
2022-03-11T18:00:00,1692A,116.1248,24.2654,梅州市,环境监控中心,,40,31,41,22,26,152,126,130,130,17,35,6,7,0.5,0.5
2022-03-11T18:00:00,1693A,115.3653,22.775,汕尾市,市环保局,,40,31,38,19,19,126,126,110,110,9,15,8,8,0.5,0.5
2022-03-11T18:00:00,1694A,115.3706,22.7898,汕尾市,市政府,,41,18,36,22,22,130,130,110,110,11,14,8,8,0.5,0.5
2022-03-11T18:00:00,1695A,115.3622,22.7925,汕尾市,新城中学,,42,42,39,22,19,131,131,113,113,8,13,6,6,0.5,0.4
2022-03-11T18:00:00,1696A,114.6778,23.7569,河源市,源西(对照点),,41,41,41,15,18,120,104,101,101,13,24,3,4,0.7,0.6
2022-03-11T18:00:00,1697A,114.6944,23.7586,河源市,东埔,,38,32,38,15,18,135,120,112,112,11,19,4,5,0.7,0.7
2022-03-11T18:00:00,1698A,114.6892,23.7233,河源市,老城,,38,36,42,20,20,142,120,116,116,11,20,4,5,0.6,0.6
2022-03-11T18:00:00,1699A,111.9797,21.8593,阳江市,鸳鸯湖(对照点),,32,32,33,20,19,127,95,94,94,2,9,3,5,0.3,0.3
2022-03-11T18:00:00,1701A,111.9491,21.8658,阳江市,马南垌,,33,26,35,23,18,123,83,92,92,7,15,4,5,0.5,0.4
2022-03-11T18:00:00,1702A,113.0426,23.691,清远市,环保大楼(对照点),臭氧1小时,55,45,69,34,57,184,164,136,136,24,37,9,9,0.7,0.7
2022-03-11T18:00:00,1703A,113.0208,23.7106,清远市,凤城街办,臭氧1小时,52,41,55,24,34,185,161,128,128,19,36,9,10,0.7,0.8
2022-03-11T18:00:00,1705A,116.6367,23.6719,潮州市,西园路(对照点),颗粒物(PM10),62,74,50,35,30,153,120,125,125,19,17,11,12,0.7,0.7
2022-03-11T18:00:00,1706A,116.6447,23.6706,潮州市,档案局,颗粒物(PM10),56,61,46,39,29,154,118,124,124,26,18,11,11,0.7,0.6
2022-03-11T18:00:00,1708A,116.3701,23.5345,揭阳市,新兴,颗粒物(PM10),57,64,62,29,38,150,147,130,130,25,34,11,13,0.7,0.8
2022-03-11T18:00:00,1709A,116.3264,23.5443,揭阳市,西马,颗粒物(PM10),57,64,68,30,32,158,158,135,135,16,28,8,9,0.8,0.9
2022-03-11T18:00:00,1710A,116.3611,23.5626,揭阳市,东兴,颗粒物(PM10),52,54,69,27,30,158,158,134,134,20,31,9,14,1.0,0.9
2022-03-11T18:00:00,1711A,116.4151,23.5294,揭阳市,渔湖,颗粒物(PM10),74,98,53,25,32,157,131,128,128,29,39,18,14,1.2,0.7
2022-03-11T18:00:00,1712A,112.0392,22.9169,云浮市,新市府(对照点),,36,36,31,14,20,116,107,99,99,5,9,5,5,0.4,0.4
2022-03-11T18:00:00,1714A,112.0539,22.9539,云浮市,牧羊,颗粒物(PM10),52,53,55,25,24,99,86,84,84,22,30,7,10,0.5,0.6
2022-03-11T18:00:00,1715A,102.575,24.3711,玉溪市,东风水库,,40,38,39,13,24,138,126,120,120,12,18,5,7,0.5,0.9
2022-03-11T18:00:00,1718A,115.4208,35.2464,菏泽市,气象局,颗粒物(PM10),85,120,163,45,89,178,175,159,159,24,32,13,13,0.6,0.8
2022-03-11T18:00:00,1719A,115.4747,35.2375,菏泽市,市政协,颗粒物(PM10),88,125,166,40,86,196,188,173,173,23,33,14,17,0.6,0.8
2022-03-11T18:00:00,1721A,113.3819,40.1097,大同市,果树场(对照点),细颗粒物(PM2.5),118,163,152,89,60,160,142,148,148,16,37,12,17,0.7,0.8
2022-03-11T18:00:00,1723A,113.2994,40.0758,大同市,云冈宾馆,细颗粒物(PM2.5),128,189,190,97,71,155,136,139,139,26,50,10,15,0.9,1.2
2022-03-11T18:00:00,1724A,113.3444,40.0917,大同市,大同大学,颗粒物(PM10),125,199,163,86,55,171,154,157,157,23,31,10,16,0.7,0.8
2022-03-11T18:00:00,1725A,113.2661,40.1269,大同市,安家小村,颗粒物(PM10),133,216,177,55,45,161,143,134,134,25,38,15,22,1.1,1.3
2022-03-11T18:00:00,1726A,113.2711,40.0844,大同市,教育学院,颗粒物(PM10),128,206,188,79,60,152,126,131,131,35,55,14,23,0.8,1.2
2022-03-11T18:00:00,1727A,113.1147,36.1547,长治市,清华站,细颗粒物(PM2.5),125,115,114,95,54,188,188,141,141,26,41,9,10,0.8,0.8
2022-03-11T18:00:00,1728A,113.1031,36.1989,长治市,监测站,细颗粒物(PM2.5),125,101,103,95,58,182,182,146,146,14,32,8,10,0.9,1
2022-03-11T18:00:00,1730A,113.0886,36.2125,长治市,审计局,细颗粒物(PM2.5),119,113,109,90,58,189,189,152,152,20,42,9,9,1.0,1
2022-03-11T18:00:00,1731A,113.0844,36.1856,长治市,长治八中,颗粒物(PM10),96,142,135,54,51,184,184,145,145,23,39,9,12,1.0,0.9
2022-03-11T18:00:00,1733A,111.5531,36.0783,临汾市,临钢医院,颗粒物(PM10),77,103,112,44,50,174,155,154,154,26,47,9,12,1.2,1.4
2022-03-11T18:00:00,1734A,111.5028,36.0714,临汾市,技工学校,,,,127,,60,178,165,161,161,23,47,13,14,1.2,1.3
2022-03-11T18:00:00,1736A,111.5018,36.0855,临汾市,市委,颗粒物(PM10),76,102,114,55,53,172,160,155,155,24,43,9,11,1.5,1.5
2022-03-11T18:00:00,1738A,113.5758,37.8572,阳泉市,市中心,细颗粒物(PM2.5),145,214,232,111,119,166,91,99,99,29,78,7,16,0.9,1.2
2022-03-11T18:00:00,1739A,113.4894,37.8731,阳泉市,赛鱼,细颗粒物(PM2.5),143,163,174,109,104,176,93,104,104,30,81,10,15,0.9,1.1
2022-03-11T18:00:00,1740A,113.5819,37.8486,阳泉市,南庄,颗粒物(PM10),121,191,231,85,103,176,91,101,101,26,54,11,18,0.8,1.1
2022-03-11T18:00:00,1742A,113.5614,37.8703,阳泉市,平坦,细颗粒物(PM2.5),145,224,238,111,121,176,94,102,102,27,85,6,16,0.7,1.1
2022-03-11T18:00:00,1743A,113.5158,37.8392,阳泉市,大阳泉,细颗粒物(PM2.5),148,164,218,113,117,186,95,151,108,26,31,11,18,1.0,1.2
2022-03-11T18:00:00,1744A,118.9233,42.2816,赤峰市,松山一中,,38,38,34,18,14,95,86,85,85,34,32,17,14,0.5,0.6
2022-03-11T18:00:00,1745A,118.9576,42.2728,赤峰市,哈达街,,37,37,35,13,15,95,93,87,87,21,27,19,16,0.5,0.7
2022-03-11T18:00:00,1746A,118.8788,42.2554,赤峰市,天义路,,33,33,31,10,13,102,102,93,93,17,26,5,10,0.6,0.6
2022-03-11T18:00:00,1748A,123.044,41.1196,鞍山市,深沟寺,,37,37,68,11,43,104,89,95,95,14,23,5,6,0.5,0.8
2022-03-11T18:00:00,1749A,123.011,41.0931,鞍山市,太阳城,,40,40,78,13,45,102,94,95,95,14,24,6,7,0.4,0.9
2022-03-11T18:00:00,1750A,123.0485,41.1442,鞍山市,太平,,34,34,78,14,52,102,88,94,94,22,29,9,12,0.6,1.1
2022-03-11T18:00:00,1751A,122.9642,41.0971,鞍山市,铁西三道街,,30,30,78,12,44,90,87,85,85,25,35,11,12,0.8,1.2
2022-03-11T18:00:00,1752A,122.9341,41.0833,鞍山市,铁西工业园区,,44,44,97,22,59,93,71,85,85,48,44,17,14,1.2,1.4
2022-03-11T18:00:00,1753A,123.022,41.0821,鞍山市,明达新区,,30,27,67,15,44,103,93,97,97,18,19,7,10,0.5,0.7
2022-03-11T18:00:00,1754A,123.1289,41.0228,鞍山市,千山(对照点),,22,21,48,14,36,99,69,92,91,19,18,8,7,0.6,0.9
2022-03-11T18:00:00,1755A,123.7977,41.8491,抚顺市,望花区,,28,22,112,7,74,105,88,97,97,16,34,1,9,0.7,1.2
2022-03-11T18:00:00,1756A,123.9161,41.8822,抚顺市,顺城区,,25,24,152,13,92,92,79,86,86,19,43,6,9,0.6,1.4
2022-03-11T18:00:00,1757A,124.0436,41.8611,抚顺市,东洲区,,25,22,97,11,68,95,80,88,88,18,29,6,9,0.6,0.9
2022-03-11T18:00:00,1758A,123.9247,41.8642,抚顺市,新抚区,,26,26,114,9,67,93,76,86,86,22,39,5,6,0.4,0.8
2022-03-11T18:00:00,1759A,124.0972,41.8961,抚顺市,大伙房水库,,27,27,69,10,47,106,85,93,93,14,23,8,10,0.6,0.8
2022-03-11T18:00:00,1760A,123.7086,41.8391,抚顺市,沈抚新城,,28,26,119,16,76,99,87,93,93,8,40,6,11,0.4,1.3
2022-03-11T18:00:00,1761A,123.8275,41.3064,本溪市,大峪,,29,25,61,7,40,100,92,94,94,13,29,13,17,0.2,0.7
2022-03-11T18:00:00,1762A,123.7567,41.3325,本溪市,溪湖,,29,21,85,8,52,98,92,94,94,12,43,11,18,0.4,1.7
2022-03-11T18:00:00,1763A,123.7169,41.3094,本溪市,彩屯,颗粒物(PM10),51,52,108,25,74,102,74,92,92,30,42,10,14,0.6,2.1
2022-03-11T18:00:00,1764A,123.7669,41.2864,本溪市,东明,,34,34,57,15,39,100,81,92,92,26,33,9,9,0.5,0.8
2022-03-11T18:00:00,1765A,123.7992,41.2664,本溪市,新立屯,,43,43,50,11,32,106,86,97,97,17,25,11,10,0.5,0.8
2022-03-11T18:00:00,1766A,123.8142,41.3472,本溪市,威宁,,28,28,75,14,42,92,75,86,86,20,30,6,6,0.5,0.9
2022-03-11T18:00:00,1767A,121.1115,41.0879,锦州市,南山,颗粒物(PM10),51,51,115,20,74,98,89,91,91,16,35,10,45,0.4,0.8
2022-03-11T18:00:00,1768A,121.0533,40.8434,锦州市,开发区,颗粒物(PM10),51,52,113,20,53,97,63,85,85,53,42,13,15,0.7,0.9
2022-03-11T18:00:00,1769A,121.1836,41.1119,锦州市,百股街道,,47,47,114,18,81,110,86,98,98,18,39,26,86,0.6,1.1
2022-03-11T18:00:00,1770A,121.1178,41.1222,锦州市,天安街道,,46,46,112,18,73,96,83,86,86,28,49,5,23,0.6,1.1
2022-03-11T18:00:00,1771A,121.1303,41.1386,锦州市,北湖公园,,48,48,125,15,73,104,78,94,94,37,40,44,21,0.5,0.9
2022-03-11T18:00:00,1772A,126.54,43.8622,吉林市,哈达湾,,32,32,63,8,26,106,83,85,85,7,13,5,6,0.4,0.5
2022-03-11T18:00:00,1773A,126.5844,43.8358,吉林市,东局子,,27,27,68,7,30,103,83,85,85,7,14,4,6,0.4,0.6
2022-03-11T18:00:00,1774A,126.5052,43.8245,吉林市,电力学院,,28,28,63,11,32,105,88,92,92,8,15,7,8,0.4,0.6
2022-03-11T18:00:00,1775A,126.6133,43.8972,吉林市,江北,,32,32,65,10,29,101,81,87,87,12,15,8,7,0.5,0.6
2022-03-11T18:00:00,1776A,126.555,43.8306,吉林市,江南公园,,25,23,62,10,34,98,79,82,82,8,12,5,7,0.3,0.5
2022-03-11T18:00:00,1778A,126.7061,43.7133,吉林市,丰满(对照点),,26,26,63,10,33,109,79,90,83,9,10,6,8,0.4,0.6
2022-03-11T18:00:00,1779A,123.9305,47.3636,齐齐哈尔市,安居小区,,31,31,57,19,16,84,72,82,81,14,8,2,2,0.4,0.2
2022-03-11T18:00:00,1780A,123.9488,47.3386,齐齐哈尔市,中心广场,,29,29,55,9,12,84,71,81,81,12,4,2,2,0.5,0.3
2022-03-11T18:00:00,1781A,123.9483,47.3227,齐齐哈尔市,农牧车辆厂,颗粒物(PM10),51,51,74,7,14,80,62,76,75,18,15,7,48,0.4,0.4
2022-03-11T18:00:00,1783A,123.945,47.2988,齐齐哈尔市,市环境监测站,,40,40,68,18,17,79,70,76,76,8,5,1,4,0.3,0.3
2022-03-11T18:00:00,1784A,129.61,44.561,牡丹江市,环保大楼,,38,38,82,15,32,109,81,84,84,14,16,2,4,0.4,0.6
2022-03-11T18:00:00,1785A,129.6115,44.5782,牡丹江市,文化广场,,41,41,90,25,38,86,73,81,81,18,28,6,8,0.5,0.7
2022-03-11T18:00:00,1787A,129.6364,44.6075,牡丹江市,机车工厂,颗粒物(PM10),59,67,103,37,42,85,84,82,82,5,33,4,9,0.4,0.6
2022-03-11T18:00:00,1788A,129.6386,44.5462,牡丹江市,第一中学,,32,32,80,15,30,85,83,83,83,11,21,1,3,0.5,0.7
2022-03-11T18:00:00,1789A,124.81117,46.03138,大庆市,大同区,,40,29,71,28,27,86,65,82,80,22,9,3,3,0.5,0.4
2022-03-11T18:00:00,1790A,125.129,46.533,大庆市,龙凤区,,31,31,71,10,17,83,72,80,80,23,16,8,6,0.4,0.4
2022-03-11T18:00:00,1791A,124.902,46.408,大庆市,红岗区,,33,33,56,5,13,89,66,85,83,25,9,3,2,0.5,0.4
2022-03-11T18:00:00,1792A,125.153,46.586,大庆市,萨尔图区,,30,30,58,20,28,83,62,80,78,32,15,4,10,0.4,0.3
2022-03-11T18:00:00,1793A,124.9042,46.6215,大庆市,让胡路区,,24,21,71,12,17,88,76,84,84,20,12,5,5,0.0,0.1
2022-03-11T18:00:00,1794A,118.3606,31.3519,芜湖市,监测站,颗粒物(PM10),55,60,81,20,35,186,148,154,154,38,57,8,11,0.6,0.6
2022-03-11T18:00:00,1795A,118.3714,31.4134,芜湖市,科创中心,,46,45,78,20,40,194,147,149,149,30,58,9,12,0.6,0.9
2022-03-11T18:00:00,1796A,118.3673,31.3131,芜湖市,四水厂,颗粒物(PM10),53,56,74,22,34,179,148,153,153,23,49,9,11,0.6,0.8
2022-03-11T18:00:00,1798A,118.5092,31.6837,马鞍山市,湖东路四小,颗粒物(PM10),53,55,75,17,36,179,143,147,147,24,45,9,11,0.8,0.9
2022-03-11T18:00:00,1799A,118.5024,31.6449,马鞍山市,开发区,颗粒物(PM10),56,61,92,39,39,175,141,146,146,38,56,8,10,0.5,0.9
2022-03-11T18:00:00,1800A,118.5228,31.7231,马鞍山市,慈湖,颗粒物(PM10),54,57,101,20,46,158,131,133,133,28,57,9,17,0.6,0.8
2022-03-11T18:00:00,1802A,118.6245,31.7241,马鞍山市,濮塘(对照点),,43,35,50,24,31,149,136,134,134,12,18,8,11,0.5,0.6
2022-03-11T18:00:00,1803A,115.9872,29.6815,九江市,十里,,49,39,61,26,32,164,155,137,137,21,55,9,9,0.3,0.8
2022-03-11T18:00:00,1804A,115.9584,29.7046,九江市,茅山头,,47,45,72,27,36,162,149,129,129,17,59,8,9,0.5,0.6
2022-03-11T18:00:00,1805A,115.9877,29.7295,九江市,西园,,45,39,63,17,33,158,142,122,122,22,64,8,11,0.4,0.7
2022-03-11T18:00:00,1806A,116.0172,29.6547,九江市,五七二七厂,,50,39,46,16,20,157,157,131,131,2,10,8,8,0.4,0.4
2022-03-11T18:00:00,1808A,115.9114,29.6038,九江市,综合工业园,颗粒物(PM10),56,62,64,19,34,146,114,134,134,42,40,9,12,0.6,0.5
2022-03-11T18:00:00,1809A,116.0721,29.7535,九江市,石化总厂,,50,35,60,20,27,162,160,140,140,24,33,12,13,0.3,0.3
2022-03-11T18:00:00,1810A,115.9773,29.5698,九江市,庐山气象台(对照点),,48,38,35,16,17,166,153,152,149,8,8,5,6,0.2,0.2
2022-03-11T18:00:00,1812A,112.3931,34.6516,洛阳市,市委党校,颗粒物(PM10),132,214,168,65,67,171,162,144,144,30,65,9,11,0.8,1
2022-03-11T18:00:00,1814A,112.4657,34.6871,洛阳市,豫西宾馆,颗粒物(PM10),162,273,190,77,67,177,167,150,150,27,61,12,11,0.7,0.8
2022-03-11T18:00:00,1815A,112.494,34.6886,洛阳市,河南林校,颗粒物(PM10),139,227,179,67,61,184,173,154,154,25,55,7,7,1.0,1.1
2022-03-11T18:00:00,1816A,112.3844,34.623,洛阳市,开发区管委会,颗粒物(PM10),126,202,141,73,63,175,167,149,149,22,36,7,8,0.6,0.6
2022-03-11T18:00:00,1817A,112.4267,34.6258,洛阳市,市委新办公区,颗粒物(PM10),126,202,150,68,61,165,153,139,139,27,50,7,7,0.6,0.7
2022-03-11T18:00:00,1818A,114.4839,36.0621,安阳市,棉研所(对照点),细颗粒物(PM2.5),213,325,197,163,89,161,105,122,122,38,35,7,8,1.1,0.8
2022-03-11T18:00:00,1819A,114.3551,36.1017,安阳市,红庙街,细颗粒物(PM2.5),234,308,196,184,90,167,120,136,136,45,43,10,11,1.1,0.9
2022-03-11T18:00:00,1820A,114.361,36.0681,安阳市,银杏小区,细颗粒物(PM2.5),263,321,205,213,107,164,122,126,126,42,45,7,8,1.1,0.9
2022-03-11T18:00:00,1824A,114.3389,34.7781,开封市,肿瘤医院,细颗粒物(PM2.5),85,113,150,63,85,188,176,158,158,15,31,10,11,0.6,0.7
2022-03-11T18:00:00,1826A,114.2885,34.7965,开封市,世纪星幼儿园,颗粒物(PM10),89,128,144,62,54,195,182,164,164,22,30,10,12,0.8,0.8
2022-03-11T18:00:00,1828A,113.2269,35.2127,焦作市,市环保局,细颗粒物(PM2.5),119,162,148,90,75,168,156,142,142,23,26,9,12,0.7,0.8
2022-03-11T18:00:00,1829A,113.2467,35.176,焦作市,高新区政府,细颗粒物(PM2.5),122,159,167,92,85,165,148,137,137,24,33,12,17,0.6,0.5
2022-03-11T18:00:00,1830A,113.1987,35.2703,焦作市,影视城(对照点),细颗粒物(PM2.5),130,162,120,99,49,175,163,152,152,21,16,14,11,1.1,0.9
2022-03-11T18:00:00,1832A,113.3257,33.742,平顶山市,新华旅馆,细颗粒物(PM2.5),117,147,152,88,68,180,171,152,152,15,47,6,7,0.5,0.5
2022-03-11T18:00:00,1833A,113.2919,33.737,平顶山市,规划设计院,颗粒物(PM10),95,139,136,47,53,159,153,136,136,20,36,9,8,0.3,0.4
2022-03-11T18:00:00,1834A,113.182,33.774,平顶山市,平顶山工学院,颗粒物(PM10),85,120,127,62,57,171,165,144,144,13,30,8,7,0.5,0.5
2022-03-11T18:00:00,1835A,111.1922,34.7752,三门峡市,市政府,颗粒物(PM10),121,192,138,74,51,181,170,164,164,29,21,14,13,0.8,0.8
2022-03-11T18:00:00,1836A,111.1587,34.7942,三门峡市,开发区,细颗粒物(PM2.5),128,,144,97,56,179,169,165,165,24,27,11,12,0.6,0.6
2022-03-11T18:00:00,1838A,111.143,34.7955,三门峡市,风景区(对照点),颗粒物(PM10),131,211,151,89,52,180,171,161,161,22,21,14,15,0.8,0.7
2022-03-11T18:00:00,1840A,111.2992,30.6981,宜昌市,白龙岗,颗粒物(PM10),70,90,100,46,61,171,156,132,132,26,43,9,7,0.4,0.6
2022-03-11T18:00:00,1841A,111.3549,30.6465,宜昌市,伍家岗,细颗粒物(PM2.5),77,85,123,56,68,158,135,137,137,20,50,9,7,0.6,1.1
2022-03-11T18:00:00,1842A,111.2628,30.6961,宜昌市,点军区,颗粒物(PM10),75,100,117,53,68,170,158,129,129,27,35,10,8,0.8,0.8
2022-03-11T18:00:00,1843A,111.3275,30.7819,宜昌市,夷陵区,细颗粒物(PM2.5),67,74,101,48,61,172,157,134,134,32,46,6,5,0.5,0.7
2022-03-11T18:00:00,1844A,112.2494,30.3197,荆州市,市图书馆,颗粒物(PM10),61,71,91,43,48,173,142,148,148,20,53,14,17,0.9,1.1
2022-03-11T18:00:00,1845A,112.2008,30.3544,荆州市,市委党校,颗粒物(PM10),69,88,107,49,59,169,137,136,136,21,52,16,16,0.8,1
2022-03-11T18:00:00,1847A,113.1094,29.3578,岳阳市,南湖风景区,细颗粒物(PM2.5),97,55,62,72,38,180,176,148,148,25,40,13,13,0.7,0.8
2022-03-11T18:00:00,1848A,113.1493,29.4251,岳阳市,城陵矶,颗粒物(PM10),52,53,74,28,36,147,136,132,132,48,47,11,13,0.6,0.6
2022-03-11T18:00:00,1849A,113.1497,29.3575,岳阳市,开发区,臭氧1小时,73,45,57,31,29,186,178,158,158,19,28,12,12,0.7,0.6
2022-03-11T18:00:00,1850A,113.2621,29.4758,岳阳市,云溪区,细颗粒物(PM2.5),65,64,59,47,40,183,139,156,156,38,23,19,11,0.8,0.8
2022-03-11T18:00:00,1851A,112.9943,29.4402,岳阳市,君山区,臭氧1小时,72,54,62,34,35,177,177,136,136,22,32,7,9,0.8,0.7
2022-03-11T18:00:00,1852A,113.2117,29.355,岳阳市,金凤水库(对照点),臭氧1小时,60,55,60,28,34,168,168,153,153,24,28,13,14,0.8,0.7
2022-03-11T18:00:00,1854A,111.6975,28.9703,常德市,市二中,颗粒物(PM10),60,69,60,37,40,139,129,117,117,33,23,13,13,0.8,0.8
2022-03-11T18:00:00,1857A,111.7158,29.1456,常德市,白鹤山(对照点),细颗粒物(PM2.5),70,56,57,51,40,174,174,128,128,11,11,12,10,0.6,0.6
2022-03-11T18:00:00,1858A,110.5319,29.1217,张家界市,永定新区,颗粒物(PM10),52,54,77,34,43,135,119,116,116,10,20,3,3,0.5,0.5
2022-03-11T18:00:00,1859A,110.4697,29.1242,张家界市,电业局,,36,36,75,22,32,121,94,83,83,16,29,4,4,0.3,0.5
2022-03-11T18:00:00,1860A,110.5594,29.3547,张家界市,未央路,颗粒物(PM10),53,56,55,4,18,123,114,112,112,8,9,3,3,0.4,0.5
2022-03-11T18:00:00,1861A,110.4417,29.315,张家界市,袁家界(对照点),颗粒物(PM10),54,58,56,31,32,144,131,137,137,32,27,3,3,0.2,0.2
2022-03-11T18:00:00,1862A,110.4144,25.3167,桂林市,电子科大尧山校区(对照点),颗粒物(PM10),55,59,53,36,35,121,104,111,111,8,7,7,6,0.4,0.4
2022-03-11T18:00:00,1863A,110.2819,25.2697,桂林市,监测站,颗粒物(PM10),56,62,73,38,52,107,93,97,97,17,22,6,8,0.7,0.9
2022-03-11T18:00:00,1864A,110.3089,25.2708,桂林市,龙隐路小学,"颗粒物(PM10),细颗粒物(PM2.5)",59,68,62,42,43,109,94,101,101,15,21,6,9,0.6,1
2022-03-11T18:00:00,1865A,110.2869,25.2178,桂林市,八中,颗粒物(PM10),60,69,70,27,40,101,91,94,94,14,21,6,9,0.6,0.6
2022-03-11T18:00:00,1866A,109.2262,21.588,北海市,牛尾岭水库(对照点),,42,42,50,22,34,108,86,94,94,4,9,4,7,0.4,0.6
2022-03-11T18:00:00,1867A,109.1436,21.4086,北海市,海滩公园,,36,36,46,20,21,127,97,110,109,8,10,5,7,0.4,0.8
2022-03-11T18:00:00,1868A,109.0981,21.4661,北海市,新市环保局,,42,42,41,27,27,107,96,102,101,12,7,4,6,0.6,0.6
2022-03-11T18:00:00,1869A,109.1778,21.5233,北海市,北海工业园,,33,33,52,17,32,118,89,98,98,6,10,5,8,0.4,0.6
2022-03-11T18:00:00,1870A,109.4856,24.3895,柳州市,柳东小学,,,79,139,,168,114,,89,89,15,23,11,47,1.0,1.2
2022-03-11T18:00:00,1871A,109.4157,24.3277,柳州市,环保监测站,细颗粒物(PM2.5),104,92,140,78,150,124,110,91,91,22,42,8,28,1.0,1.3
2022-03-11T18:00:00,1872A,109.389,24.341,柳州市,河西水厂,细颗粒物(PM2.5),90,100,180,67,141,119,106,85,85,25,64,9,39,1.1,1.5
2022-03-11T18:00:00,1873A,109.4311,24.2921,柳州市,市四中,颗粒物(PM10),73,96,190,49,118,113,112,88,88,19,42,9,24,0.7,1.2
2022-03-11T18:00:00,1874A,109.4006,24.3631,柳州市,市九中,细颗粒物(PM2.5),100,100,150,75,137,123,103,84,84,26,41,8,24,0.9,1.4
2022-03-11T18:00:00,1875A,109.4958,24.3134,柳州市,古亭山,细颗粒物(PM2.5),74,88,98,54,77,118,112,94,94,14,31,7,9,0.8,0.9
2022-03-11T18:00:00,1876A,109.5078,18.2489,三亚市,河东子站,,33,33,31,13,14,89,70,84,79,6,6,3,3,0.4,0.4
2022-03-11T18:00:00,1877A,109.4964,18.2681,三亚市,河西子站,,35,35,30,14,13,93,80,84,84,5,5,4,4,0.3,0.3
2022-03-11T18:00:00,1878A,104.7778,31.4741,绵阳市,富乐山,细颗粒物(PM2.5),83,91,77,61,47,171,144,139,139,12,31,8,7,1.0,1
2022-03-11T18:00:00,1879A,104.7563,31.4535,绵阳市,市人大,细颗粒物(PM2.5),79,93,95,58,54,195,114,143,143,63,66,15,12,1.2,1.2
2022-03-11T18:00:00,1880A,104.6697,31.4668,绵阳市,高新区自来水公司,细颗粒物(PM2.5),84,104,122,62,57,167,148,125,125,25,57,14,10,1.0,1
2022-03-11T18:00:00,1881A,104.7287,31.5075,绵阳市,三水厂,细颗粒物(PM2.5),80,100,109,59,56,169,156,118,118,17,61,9,6,1.3,1.3
2022-03-11T18:00:00,1882A,104.563,28.793,宜宾市,石马中学(对照点),细颗粒物(PM2.5),88,93,120,65,82,202,185,166,166,15,36,13,13,0.8,0.9
2022-03-11T18:00:00,1883A,104.6201,28.7728,宜宾市,市委,臭氧1小时,98,102,122,65,80,198,198,160,160,17,48,16,17,0.8,1
2022-03-11T18:00:00,1884A,104.6055,28.793,宜宾市,宜宾四中,细颗粒物(PM2.5),90,107,130,67,82,195,180,147,147,30,56,15,17,0.9,1
2022-03-11T18:00:00,1885A,104.639,28.7562,宜宾市,市政府,臭氧1小时,94,98,135,64,83,207,195,157,157,24,73,14,13,0.9,1.1
2022-03-11T18:00:00,1886A,104.5742,28.7199,宜宾市,黄金嘴,臭氧1小时,90,106,115,65,76,207,192,165,165,18,40,14,13,0.7,0.9
2022-03-11T18:00:00,1888A,101.6891,26.571,攀枝花市,弄弄坪,,29,28,63,20,48,131,79,92,92,34,49,27,25,2.0,2.5
2022-03-11T18:00:00,1889A,101.5769,26.5928,攀枝花市,河门口,,48,48,50,16,31,126,116,104,104,6,26,4,30,0.5,1.6
2022-03-11T18:00:00,1890A,101.7169,26.585,攀枝花市,炳草岗,,30,23,73,12,41,135,96,99,99,28,70,14,34,0.7,1.8
2022-03-11T18:00:00,1891A,101.7369,26.5008,攀枝花市,仁和,,34,20,43,12,28,132,106,109,109,11,25,5,11,0.5,0.8
2022-03-11T18:00:00,1893A,105.4324,28.9634,泸州市,九狮山(对照点),颗粒物(PM10),64,77,107,33,57,168,168,136,136,16,27,11,9,0.3,0.5
2022-03-11T18:00:00,1894A,105.4427,28.9063,泸州市,小市上码头,颗粒物(PM10),67,83,130,44,64,159,159,136,136,16,48,12,16,0.7,1
2022-03-11T18:00:00,1895A,105.4241,28.8573,泸州市,兰田宪桥,颗粒物(PM10),62,74,121,35,58,161,146,133,133,19,45,6,10,0.7,0.8
2022-03-11T18:00:00,1896A,105.4379,28.8833,泸州市,市环监站,颗粒物(PM10),65,79,122,32,57,147,144,118,118,19,47,8,17,0.7,0.9
2022-03-11T18:00:00,1901A,104.4239,31.1208,德阳市,东山公园,颗粒物(PM10),81,111,97,58,52,166,154,132,132,19,30,10,9,0.7,0.7
2022-03-11T18:00:00,1902A,104.3826,31.1317,德阳市,西小区,细颗粒物(PM2.5),82,102,114,60,61,173,146,127,127,22,67,11,14,0.9,1
2022-03-11T18:00:00,1904A,104.3553,31.1091,德阳市,耐火材料厂,细颗粒物(PM2.5),92,121,131,68,73,159,143,118,118,28,64,12,18,0.7,0.8
2022-03-11T18:00:00,1905A,106.056,30.8064,南充市,西山风景区(对照点),细颗粒物(PM2.5),70,73,97,51,60,161,148,139,129,9,14,3,14,0.9,1
2022-03-11T18:00:00,1906A,106.0789,30.8023,南充市,南充市委,细颗粒物(PM2.5),88,92,113,65,76,169,147,132,132,14,41,3,4,0.8,1
2022-03-11T18:00:00,1907A,106.1031,30.8217,南充市,南充炼油厂,颗粒物(PM10),91,132,134,53,65,144,126,111,111,7,39,6,8,0.8,1
2022-03-11T18:00:00,1908A,106.1064,30.7856,南充市,高坪区监测站,细颗粒物(PM2.5),77,72,112,56,72,163,136,118,118,20,47,4,5,0.6,1
2022-03-11T18:00:00,1909A,106.0642,30.7636,南充市,嘉陵区环保局,细颗粒物(PM2.5),78,74,101,57,73,172,148,144,144,16,52,12,12,0.9,1.2
2022-03-11T18:00:00,1910A,106.1087,30.8388,南充市,市环境监测站,细颗粒物(PM2.5),73,79,99,53,65,142,124,125,125,19,30,2,9,0.6,0.6
2022-03-11T18:00:00,1911A,106.9222,27.6869,遵义市,丁字口,,35,31,60,22,42,135,111,98,98,14,30,8,14,0.6,0.8
2022-03-11T18:00:00,1912A,106.9242,27.7019,遵义市,凤凰山,,36,29,51,16,37,144,114,102,102,11,15,7,9,0.5,0.5
2022-03-11T18:00:00,1913A,106.8906,27.6486,遵义市,忠庄,,40,40,55,20,36,132,102,94,91,15,18,4,6,0.4,0.5
2022-03-11T18:00:00,1914A,106.9231,27.6506,遵义市,舟水桥,,37,37,67,24,43,136,110,95,95,10,20,4,6,0.3,0.4
2022-03-11T18:00:00,1915A,106.9178,27.72,遵义市,干田坝,,46,35,55,32,41,128,106,94,94,12,22,6,11,0.5,0.7
2022-03-11T18:00:00,1916A,103.7897,25.5035,曲靖市,环境监测站,,46,40,58,13,34,156,145,130,130,16,25,5,9,0.4,0.8
2022-03-11T18:00:00,1917A,103.8,25.5364,曲靖市,烟厂办公区,,46,17,62,10,36,155,146,131,131,9,18,4,9,0.3,0.8
2022-03-11T18:00:00,1918A,108.7197,34.3956,咸阳市,气象站(对照点),颗粒物(PM10),108,165,179,56,66,188,176,157,157,26,69,12,12,1.0,1
2022-03-11T18:00:00,1919A,108.673,34.3155,咸阳市,实验中学,细颗粒物(PM2.5),125,192,213,95,98,182,177,154,154,39,65,15,13,0.9,1
2022-03-11T18:00:00,1920A,108.7233,34.3617,咸阳市,师范学院,颗粒物(PM10),114,178,180,67,79,192,182,165,165,33,69,15,14,1.0,1
2022-03-11T18:00:00,1922A,109.0656,35.0994,铜川市,党校(对照点),细颗粒物(PM2.5),67,82,105,48,47,158,158,145,145,8,39,23,22,0.7,0.8
2022-03-11T18:00:00,1923A,109.0697,35.0697,铜川市,王益区政府,颗粒物(PM10),71,91,118,47,55,161,158,140,140,15,47,10,10,0.5,0.7
2022-03-11T18:00:00,1924A,108.9344,34.9058,铜川市,新区管委会,颗粒物(PM10),81,112,113,42,49,189,181,166,166,22,30,15,20,0.8,0.8
2022-03-11T18:00:00,1926A,109.4131,36.6275,延安市,枣园(对照点),颗粒物(PM10),57,64,82,20,35,151,151,118,118,8,53,4,3,0.5,1
2022-03-11T18:00:00,1927A,109.4761,36.6028,延安市,延大医附院,细颗粒物(PM2.5),60,54,90,43,40,158,131,112,112,25,50,6,6,1.5,1.5
2022-03-11T18:00:00,1929A,109.5056,36.6106,延安市,百米大道,颗粒物(PM10),69,87,105,24,42,164,154,120,120,21,66,11,12,0.8,1.4
2022-03-11T18:00:00,1930A,107.185,34.3063,宝鸡市,庙沟村(对照点),细颗粒物(PM2.5),88,121,141,65,90,174,170,152,152,18,22,12,9,0.7,0.7
2022-03-11T18:00:00,1931A,107.0708,34.3017,宝鸡市,竹园沟,颗粒物(PM10),93,136,134,66,86,182,178,155,155,24,26,12,7,0.8,0.8
2022-03-11T18:00:00,1932A,107.1906,34.3672,宝鸡市,三陆医院,颗粒物(PM10),90,129,175,65,102,177,166,147,147,31,52,13,16,0.9,1
2022-03-11T18:00:00,1933A,107.1431,34.3547,宝鸡市,监测站,颗粒物(PM10),88,126,131,57,80,179,168,146,146,30,34,12,7,0.9,0.9
2022-03-11T18:00:00,1934A,107.1186,34.3739,宝鸡市,技工学校,颗粒物(PM10),96,142,156,62,94,175,159,145,145,33,33,14,11,0.8,0.8
2022-03-11T18:00:00,1935A,107.3906,34.3528,宝鸡市,陈仓区环保局家属楼,颗粒物(PM10),99,147,180,49,84,166,155,138,138,31,49,14,22,1.0,1.8
2022-03-11T18:00:00,1936A,107.2058,34.3497,宝鸡市,文理学院,颗粒物(PM10),89,127,152,57,88,183,175,154,154,29,38,14,11,1.1,1.2
2022-03-11T18:00:00,1937A,107.2386,34.3622,宝鸡市,三迪小学,细颗粒物(PM2.5),93,134,161,69,101,172,158,142,142,33,44,14,12,0.8,0.9
2022-03-11T18:00:00,1938A,109.5293,34.5101,渭南市,农科所(对照点),颗粒物(PM10),102,153,160,48,64,188,168,155,155,27,39,10,10,0.8,0.8
2022-03-11T18:00:00,1939A,109.4974,34.4877,渭南市,日报社,颗粒物(PM10),89,127,159,48,66,196,190,166,166,18,53,12,13,0.8,0.9
2022-03-11T18:00:00,1940A,109.4636,34.493,渭南市,体育馆,颗粒物(PM10),95,139,168,49,65,198,194,167,167,14,54,10,12,0.8,0.9
2022-03-11T18:00:00,1941A,109.4259,34.5023,渭南市,高新一小,颗粒物(PM10),96,142,171,56,84,187,159,154,154,30,58,10,11,0.9,1
2022-03-11T18:00:00,1943A,102.1725,38.5339,金昌市,新川苑,颗粒物(PM10),166,282,266,47,63,113,109,99,99,6,18,4,29,0.4,0.5
2022-03-11T18:00:00,1944A,102.1692,38.5167,金昌市,天庆家园,颗粒物(PM10),166,282,263,39,64,115,109,101,101,4,20,6,29,0.6,0.7
2022-03-11T18:00:00,1945A,98.2908,39.7711,嘉峪关市,气象局,颗粒物(PM10),190,329,212,46,52,103,101,88,88,14,28,14,16,0.4,0.5
2022-03-11T18:00:00,1947A,106.3394,38.817,石嘴山市,沙湖旅游区(对照点),颗粒物(PM10),155,259,290,103,97,197,197,123,123,36,56,90,76,1.8,1.9
2022-03-11T18:00:00,1948A,106.3668,39.0145,石嘴山市,大武口朝阳西街,颗粒物(PM10),106,162,173,46,77,151,148,113,113,13,54,7,43,0.4,1.3
2022-03-11T18:00:00,1949A,106.7704,39.2282,石嘴山市,惠农南大街,,,,302,67,98,147,129,100,100,43,75,36,63,0.9,2.8
2022-03-11T18:00:00,1950A,106.7099,39.1325,石嘴山市,红果子镇惠新街,颗粒物(PM10),112,174,254,53,91,160,142,119,119,20,51,23,22,0.9,1.8
2022-03-11T18:00:00,1951A,84.895,45.6094,克拉玛依市,长征新村,,30,30,16,5,9,75,72,74,64,9,10,6,6,0.3,0.3
2022-03-11T18:00:00,1952A,84.8988,45.5893,克拉玛依市,南林小区,,,,18,,7,84,79,81,68,,11,,3,0.3,0.3
2022-03-11T18:00:00,1954A,84.905,44.3396,克拉玛依市,独山子区,,24,21,44,10,26,82,74,69,69,14,20,4,4,0.5,0.7
2022-03-11T18:00:00,1955A,85.6979,46.098,克拉玛依市,乌尔禾区商贸楼,,27,12,19,9,7,84,84,72,70,1,4,10,9,0.2,0.2
2022-03-11T18:00:00,1956A,86.1472,41.7538,巴音郭楞州,孔雀公园,颗粒物(PM10),89,128,115,41,31,124,124,92,92,7,29,4,4,0.4,0.4
2022-03-11T18:00:00,1957A,86.1972,41.7166,巴音郭楞州,棉纺厂,颗粒物(PM10),82,114,115,31,27,118,112,94,94,14,31,6,6,0.3,0.3
2022-03-11T18:00:00,1958A,86.2357,41.7173,巴音郭楞州,经济开发区,颗粒物(PM10),93,136,124,31,28,113,112,100,100,11,16,4,3,0.4,0.3
2022-03-11T18:00:00,1961A,117.532,36.6868,济南市,东山小学,颗粒物(PM10),122,193,178,66,72,162,122,139,138,43,51,13,15,0.7,0.8
2022-03-11T18:00:00,1966A,120.0405,35.8735,青岛市,黄岛区4号,细颗粒物(PM2.5),58,63,57,41,33,173,110,140,115,33,36,4,5,0.7,0.7
2022-03-11T18:00:00,1982A,122.0693,37.2174,威海市,文登开发区,颗粒物(PM10),58,66,74,36,35,142,104,131,113,14,8,4,3,0.3,0.5
2022-03-11T18:00:00,2031A,113.1817,27.9958,株洲市,云田中学,细颗粒物(PM2.5),55,39,54,39,37,161,141,133,133,8,16,5,10,0.6,0.6
2022-03-11T18:00:00,2054A,114.1099,32.1059,信阳市,平桥分局,臭氧1小时,68,50,70,39,43,184,174,158,158,18,27,12,11,0.6,0.6
2022-03-11T18:00:00,2064A,113.9956,32.1271,信阳市,南湾水厂,臭氧1小时,74,73,76,37,36,190,179,170,170,16,19,11,9,0.7,0.7
2022-03-11T18:00:00,2065A,114.0775,32.1195,信阳市,市酿酒公司,颗粒物(PM10),61,72,87,29,39,181,166,159,159,16,37,11,10,0.6,0.7
2022-03-11T18:00:00,2066A,114.0609,32.1399,信阳市,审计局,臭氧1小时,65,67,79,34,45,185,172,164,164,18,39,10,9,0.5,0.6
2022-03-11T18:00:00,2067A,114.6613,33.6128,周口市,市环境监测站,颗粒物(PM10),84,117,160,41,69,182,164,156,156,20,32,9,11,0.7,0.7
2022-03-11T18:00:00,2068A,114.6758,33.6347,周口市,周口师范,颗粒物(PM10),76,101,154,40,73,177,160,150,150,17,30,14,16,0.8,0.9
2022-03-11T18:00:00,2069A,114.6546,33.5979,周口市,市运管处,颗粒物(PM10),78,106,151,42,75,177,161,150,150,32,39,13,16,0.8,0.9
2022-03-11T18:00:00,2070A,114.6369,33.6406,周口市,川汇区环保局,颗粒物(PM10),81,111,150,49,77,187,173,166,166,15,28,14,11,0.8,0.8
2022-03-11T18:00:00,2075A,117.6336,24.4674,漳州市,九湖(对照点),颗粒物(PM10),63,75,75,37,42,157,157,135,135,23,24,10,10,0.6,0.5
2022-03-11T18:00:00,2160A,112.85,35.5051,晋城市,自来水公司,臭氧1小时,77,100,118,34,44,188,181,161,161,17,45,12,13,1.0,1.3
2022-03-11T18:00:00,2161A,112.8318,35.4936,晋城市,白云商贸,颗粒物(PM10),87,124,140,36,47,188,188,166,166,10,23,10,11,0.7,0.9
2022-03-11T18:00:00,2162A,112.8508,35.4887,晋城市,市环保局,臭氧1小时,78,101,141,39,49,185,182,159,159,5,37,13,14,0.7,1
2022-03-11T18:00:00,2163A,112.8676,35.4897,晋城市,技术学院,颗粒物(PM10),73,95,125,29,49,178,172,154,154,14,44,11,11,0.6,0.9
2022-03-11T18:00:00,2165A,112.8453,35.546,晋城市,白马寺 (对照点),臭氧1小时,69,79,119,24,38,188,175,168,157,18,22,16,17,0.7,0.9
2022-03-11T18:00:00,2166A,112.4397,39.3522,朔州市,平朔,颗粒物(PM10),131,212,202,88,75,172,158,132,132,23,48,4,17,1.1,0.9
2022-03-11T18:00:00,2167A,112.4575,39.3617,朔州市,朔唯,颗粒物(PM10),131,212,217,86,73,178,163,136,136,21,54,8,24,0.6,0.6
2022-03-11T18:00:00,2168A,112.4258,39.3197,朔州市,区政府,颗粒物(PM10),138,226,191,66,62,167,153,128,128,22,41,10,20,1.0,1
2022-03-11T18:00:00,2169A,112.4072,39.3278,朔州市,市环保局,颗粒物(PM10),146,242,190,75,64,174,160,135,135,24,40,6,17,1.0,1
2022-03-11T18:00:00,2170A,112.4272,39.3681,朔州市,市二中,颗粒物(PM10),140,230,214,94,77,170,158,131,131,21,48,10,22,1.0,0.9
2022-03-11T18:00:00,2171A,112.7532,37.6945,晋中市,锦纶小区,细颗粒物(PM2.5),170,288,249,129,116,157,107,145,141,22,33,3,9,0.8,0.9
2022-03-11T18:00:00,2173A,112.7249,37.7067,晋中市,南都小区,颗粒物(PM10),182,314,279,134,117,162,108,143,140,24,39,5,10,0.6,0.9
2022-03-11T18:00:00,2174A,112.6991,37.6982,晋中市,榆次区政府,颗粒物(PM10),164,277,252,122,115,166,109,141,138,28,43,7,13,0.8,1
2022-03-11T18:00:00,2175A,110.9956,35.0147,运城市,运城中学,颗粒物(PM10),143,235,118,57,43,194,189,176,176,19,12,13,11,0.7,0.6
2022-03-11T18:00:00,2178A,110.9686,35.0303,运城市,地区技校,颗粒物(PM10),111,172,123,38,36,181,181,165,165,16,18,12,8,0.7,0.6
2022-03-11T18:00:00,2179A,111.0414,35.1147,运城市,空港新区,颗粒物(PM10),103,156,147,45,50,180,180,162,162,14,29,14,13,0.9,0.9
2022-03-11T18:00:00,2181A,112.7383,38.4519,忻州市,开发区,细颗粒物(PM2.5),132,189,187,100,98,158,109,125,125,25,47,10,14,1.0,1
2022-03-11T18:00:00,2182A,112.7003,38.4928,忻州市,会展中心,细颗粒物(PM2.5),148,228,187,113,88,143,102,116,116,25,64,9,11,1.0,0.9
2022-03-11T18:00:00,2183A,111.1406,37.5211,吕梁市,环保局,颗粒物(PM10),106,161,138,58,34,188,176,138,138,28,56,20,18,0.8,0.6
2022-03-11T18:00:00,2185A,111.1297,37.5136,吕梁市,自来水公司,颗粒物(PM10),103,155,145,48,36,189,176,134,134,32,53,18,15,0.7,0.5
2022-03-11T18:00:00,2187A,106.8174,39.6973,乌海市,市林业局,颗粒物(PM10),84,118,192,48,64,159,154,134,118,13,22,11,15,0.7,0.9
2022-03-11T18:00:00,2188A,106.7907,39.6667,乌海市,中海勃湾学校,颗粒物(PM10),88,126,176,50,59,169,164,134,126,16,24,12,15,0.6,0.8
2022-03-11T18:00:00,2191A,122.2532,43.6801,通辽市,艺术职业学校,,29,23,37,8,9,101,90,97,97,17,20,5,6,0.5,0.5
2022-03-11T18:00:00,2192A,119.7594,49.2261,呼伦贝尔市,区环保局,,29,29,36,12,16,98,81,90,90,12,6,5,5,0.2,0.1
2022-03-11T18:00:00,2195A,107.4212,40.761,巴彦淖尔市,附二中,颗粒物(PM10),139,227,191,53,52,144,137,116,116,28,19,10,15,0.7,0.7
2022-03-11T18:00:00,2196A,107.37,40.7372,巴彦淖尔市,市环保大楼,颗粒物(PM10),117,184,159,51,47,148,142,117,117,23,18,12,15,0.7,0.6
2022-03-11T18:00:00,2197A,113.1306,40.9923,乌兰察布市,集宁新区,细颗粒物(PM2.5),119,186,92,90,35,183,172,146,146,33,20,12,14,0.9,0.6
2022-03-11T18:00:00,2200A,122.0392,46.0656,兴安盟,胜华新制药厂,,26,26,59,15,25,82,72,79,79,18,12,2,2,0.2,0.2
2022-03-11T18:00:00,2201A,121.9504,46.0741,兴安盟,科右前旗环保局,,33,33,58,17,24,82,74,75,75,11,7,3,3,0.3,0.2
2022-03-11T18:00:00,2202A,116.1042,43.9317,锡林郭勒盟,市环保监测站,,29,22,20,2,6,94,90,90,90,3,15,8,9,0.8,0.7
2022-03-11T18:00:00,2203A,116.0781,43.9311,锡林郭勒盟,市政府,,26,13,15,12,4,92,83,88,88,6,17,9,8,0.5,0.6
2022-03-11T18:00:00,2204A,105.6467,38.8363,阿拉善盟,西城区西花园(对照点),颗粒物(PM10),103,156,187,61,71,168,150,142,142,14,14,11,12,0.4,0.6
2022-03-11T18:00:00,2205A,105.6985,38.8411,阿拉善盟,蒙二幼,颗粒物(PM10),109,168,162,61,64,162,153,144,144,13,14,14,15,0.4,0.6
2022-03-11T18:00:00,2206A,105.724,38.8516,阿拉善盟,环保局新楼,,,,112,,63,161,151,140,140,21,16,10,11,0.3,0.4
2022-03-11T18:00:00,2207A,121.6094,41.998,阜新市,工业园区,,27,24,83,8,34,98,84,92,92,23,43,15,16,0.3,0.6
2022-03-11T18:00:00,2208A,121.6697,42.0279,阜新市,长青街,,32,32,68,5,22,89,78,85,85,16,33,22,24,0.2,0.5
2022-03-11T18:00:00,2209A,121.6673,42.0705,阜新市,农业园区,,26,19,29,9,10,93,83,90,90,12,13,9,11,0.3,0.5
2022-03-11T18:00:00,2210A,121.6717,42.0224,阜新市,东苑,,36,36,71,9,25,93,74,89,89,33,39,14,30,0.5,0.8
2022-03-11T18:00:00,2211A,121.6506,42.0498,阜新市,玉龙新城,,26,18,42,4,17,97,83,92,92,14,29,26,14,0.3,0.6
2022-03-11T18:00:00,2212A,123.2,41.1953,辽阳市,宏伟区,,38,38,79,15,52,104,87,96,96,21,27,12,12,0.5,0.9
2022-03-11T18:00:00,2213A,123.1683,41.2495,辽阳市,新华园,,31,31,73,11,59,102,87,92,92,26,33,6,10,0.4,0.7
2022-03-11T18:00:00,2214A,123.2354,41.2639,辽阳市,滨河路,,30,30,78,17,66,98,83,90,90,18,29,13,14,0.3,0.6
2022-03-11T18:00:00,2215A,123.149,41.2991,辽阳市,铁西工业园,颗粒物(PM10),51,51,90,28,58,98,68,87,87,30,34,10,13,0.8,1.3
2022-03-11T18:00:00,2216A,123.8139,42.3022,铁岭市,汇工街西,,28,25,136,8,108,97,87,92,92,15,46,5,20,0.2,1.1
2022-03-11T18:00:00,2217A,123.8649,42.2923,铁岭市,水上乐园,,30,30,103,8,81,98,93,95,95,14,34,5,8,0.3,0.6
2022-03-11T18:00:00,2218A,123.8486,42.2867,铁岭市,银州路东段,,27,24,124,13,82,92,85,89,89,16,38,5,6,0.3,0.7
2022-03-11T18:00:00,2219A,123.7153,42.2217,铁岭市,金沙江路北,,33,33,136,6,88,89,85,86,86,16,52,2,6,0.3,0.7
2022-03-11T18:00:00,2220A,120.4318,41.5881,朝阳市,西梁,,29,11,68,4,27,104,92,97,97,15,33,7,19,0.5,0.8
2022-03-11T18:00:00,2221A,120.4521,41.5646,朝阳市,河畔小区,,30,14,64,4,26,102,94,97,97,10,26,4,15,0.5,0.8
2022-03-11T18:00:00,2222A,120.4176,41.5648,朝阳市,八里堡,,28,27,61,2,22,100,87,94,94,15,32,5,14,0.5,0.8
2022-03-11T18:00:00,2223A,120.3806,41.5969,朝阳市,农业园区,,32,32,60,16,24,101,85,94,94,16,29,5,12,0.6,0.7
2022-03-11T18:00:00,2225A,124.4002,43.1713,四平市,一商场,,45,45,82,11,32,79,64,76,75,20,29,6,9,0.2,0.6
2022-03-11T18:00:00,2226A,124.388,43.193,四平市,境园,,32,32,80,5,36,80,74,80,77,19,42,5,9,0,1.1
2022-03-11T18:00:00,2227A,125.1358,42.8845,辽源市,环保局,,31,31,84,14,63,94,78,86,85,12,19,8,9,0.3,0.6
2022-03-11T18:00:00,2229A,125.9358,41.7173,通化市,光明,,28,19,45,9,22,143,89,107,96,16,16,10,13,0.3,0.4
2022-03-11T18:00:00,2230A,125.9446,41.7325,通化市,铁路,,26,12,47,7,27,128,82,111,90,16,19,9,13,0.3,0.5
2022-03-11T18:00:00,2231A,126.4219,41.9171,白山市,喜丰,,42,42,78,8,22,136,85,125,96,22,14,9,16,0.6,0.8
2022-03-11T18:00:00,2232A,126.4077,41.9419,白山市,环保局,,33,33,62,9,28,109,90,95,93,12,20,8,17,0.6,1
2022-03-11T18:00:00,2233A,124.8006,45.1214,松原市,江南,,46,46,72,16,14,88,65,80,80,24,16,2,2,0.3,0.2
2022-03-11T18:00:00,2234A,124.7965,45.1722,松原市,江北,,38,38,58,8,11,91,75,83,83,15,14,3,2,0.1,0.1
2022-03-11T18:00:00,2235A,122.7911,45.6077,白城市,洮北区环保局,,32,32,74,5,13,80,65,78,77,24,12,5,3,0.5,0.4
2022-03-11T18:00:00,2236A,122.8738,45.5725,白城市,市环保局,,23,23,68,11,19,79,70,76,76,12,12,4,8,0.2,0.3
2022-03-11T18:00:00,2237A,129.47,42.8883,延边朝鲜族自治州,妇幼医院,颗粒物(PM10),51,51,94,9,35,123,72,123,86,26,19,42,12,0.4,0.7
2022-03-11T18:00:00,2238A,129.5055,42.9108,延边朝鲜族自治州,延边医院,,46,46,97,11,43,122,81,122,86,17,24,8,11,0.4,0.8
2022-03-11T18:00:00,2239A,129.3964,42.8881,延边朝鲜族自治州,朝阳川镇医院,,36,36,94,9,31,124,89,116,87,5,10,5,6,0.5,0.5
2022-03-11T18:00:00,2240A,130.9762,45.3001,鸡西市,环保局,,39,39,81,10,33,118,76,91,79,23,21,6,5,0.1,0.2
2022-03-11T18:00:00,2243A,130.9429,45.3039,鸡西市,第一中学,,30,18,84,21,30,128,81,92,84,20,20,6,6,0.1,0.1
2022-03-11T18:00:00,2244A,130.2537,47.3416,鹤岗市,哈啤分公司,,40,30,39,28,18,115,88,92,89,6,8,10,11,0.5,0.4
2022-03-11T18:00:00,2245A,130.2684,47.3086,鹤岗市,斯达机电,,34,34,69,20,22,106,73,95,81,15,13,5,10,0.4,0.4
2022-03-11T18:00:00,2246A,130.3114,47.3388,鹤岗市,东山纸板厂,,28,28,52,17,17,104,83,86,84,7,10,10,13,0.3,0.5
2022-03-11T18:00:00,2248A,131.1511,46.6937,双鸭山市,双合村,,26,26,79,13,28,123,82,94,83,9,11,6,7,0.5,0.6
2022-03-11T18:00:00,2249A,131.1652,46.6191,双鸭山市,南小市,,25,24,78,16,31,125,80,93,83,7,10,1,3,0.4,0.5
2022-03-11T18:00:00,2250A,131.1524,46.6554,双鸭山市,环保局,,29,28,67,20,36,129,88,94,91,12,20,3,4,0.3,0.6
2022-03-11T18:00:00,2251A,131.12,46.5656,双鸭山市,苗圃(对照点),细颗粒物(PM2.5),52,32,67,36,46,141,96,105,99,6,10,1,3,0.4,0.5
2022-03-11T18:00:00,2252A,128.5159,47.4311,伊春市,环保局,,25,16,38,10,13,112,77,84,80,14,10,6,7,0.4,0.4
2022-03-11T18:00:00,2253A,128.9102,47.7412,伊春市,电力嘉园,,27,15,38,17,15,114,85,86,84,7,8,5,5,0.5,0.6
2022-03-11T18:00:00,2254A,129.5029,48.471,伊春市,汤旺河国家公园(对照点),,28,8,22,10,11,108,88,88,87,1,2,5,6,0.2,0.2
2022-03-11T18:00:00,2255A,130.2751,46.8028,佳木斯市,佳纺,,28,28,70,13,31,110,74,82,78,11,10,3,3,0.4,0.5
2022-03-11T18:00:00,2256A,130.3995,46.8307,佳木斯市,发电厂,,26,9,61,16,26,112,83,85,85,2,7,5,5,0.3,0.4
2022-03-11T18:00:00,2257A,130.3258,46.7975,佳木斯市,环保局,,28,28,69,11,27,113,81,84,84,9,10,3,3,0.4,0.4
2022-03-11T18:00:00,2258A,130.3648,46.8032,佳木斯市,十一中,,32,32,67,15,26,112,67,81,79,26,17,9,7,0.5,0.4
2022-03-11T18:00:00,2259A,130.3794,46.7588,佳木斯市,四丰(对照点),,23,20,51,13,25,116,72,79,78,8,7,3,3,0.3,0.4
2022-03-11T18:00:00,2262A,131.0518,45.8751,七台河市,新一中(对照点),,29,22,61,12,22,125,91,100,94,7,10,1,2,0.4,0.5
2022-03-11T18:00:00,2263A,127.4833,50.2524,黑河市,交通局,,28,19,10,12,11,93,87,90,88,4,4,2,3,0.3,0.3
2022-03-11T18:00:00,2264A,127.5144,50.2341,黑河市,环保局,,25,16,14,13,12,91,80,89,83,6,4,6,5,0.3,0.3
2022-03-11T18:00:00,2265A,127.5291,50.2472,黑河市,大黑河岛(对照点),,25,14,16,11,5,82,77,78,74,9,8,5,5,0.3,0.3
2022-03-11T18:00:00,2266A,126.9785,46.6365,绥化市,人和东街,,47,47,50,19,14,82,63,74,74,18,13,5,5,0.4,0.3
2022-03-11T18:00:00,2267A,126.964,46.6528,绥化市,党政办公中心,,35,35,48,19,14,78,64,71,71,12,9,4,4,0.3,0.1
2022-03-11T18:00:00,2269A,124.1069,50.4097,大兴安岭地区,科技局,,27,18,18,10,11,85,84,84,84,6,7,4,4,0.2,0.2
2022-03-11T18:00:00,2270A,117.396,32.939,蚌埠市,工人疗养院,颗粒物(PM10),88,126,148,50,77,208,183,164,164,23,51,10,15,0.7,0.7
2022-03-11T18:00:00,2271A,117.3605,32.9427,蚌埠市,百货大楼,颗粒物(PM10),99,148,173,69,80,202,175,161,161,35,63,12,15,0.8,0.8
2022-03-11T18:00:00,2273A,117.4185,32.8911,蚌埠市,蚌埠学院,细颗粒物(PM2.5),83,114,130,61,72,205,166,149,149,38,54,18,24,0.7,0.7
2022-03-11T18:00:00,2274A,117.3533,32.9673,蚌埠市,淮上区政府,颗粒物(PM10),90,129,151,58,84,200,170,156,156,34,46,15,16,0.7,0.7
2022-03-11T18:00:00,2275A,117.3145,32.8977,蚌埠市,高新区,颗粒物(PM10),87,124,121,61,71,206,178,160,160,30,44,14,15,0.8,0.8
2022-03-11T18:00:00,2277A,116.8305,32.7727,淮南市,潘集区政府,细颗粒物(PM2.5),108,121,131,81,83,181,174,148,148,32,25,10,10,0.7,0.6
2022-03-11T18:00:00,2278A,117.0067,32.6524,淮南市,师范学院,颗粒物(PM10),102,154,134,72,64,178,174,150,150,34,31,16,13,0.7,0.6
2022-03-11T18:00:00,2279A,116.8569,32.5951,淮南市,谢家集区政府,细颗粒物(PM2.5),88,112,119,65,66,186,176,149,149,34,32,15,22,0.7,0.6
2022-03-11T18:00:00,2280A,116.8281,32.633,淮南市,八公山区政府,细颗粒物(PM2.5),84,103,109,62,68,183,180,148,148,24,28,16,21,0.8,0.7
2022-03-11T18:00:00,2281A,116.6325,32.6201,淮南市,焦岗湖风景区管理处(对照点),臭氧1小时,77,92,115,42,59,191,181,160,160,26,37,18,16,0.7,0.6
2022-03-11T18:00:00,2282A,116.8004,33.975,淮北市,监测站,细颗粒物(PM2.5),109,121,155,82,99,172,162,154,154,23,32,10,10,0.8,0.9
2022-03-11T18:00:00,2283A,116.8091,33.9007,淮北市,烈山区政府,颗粒物(PM10),96,141,169,64,89,187,180,172,172,24,33,14,14,0.8,0.8
2022-03-11T18:00:00,2284A,116.7856,33.9477,淮北市,职业技术学院,细颗粒物(PM2.5),107,158,160,80,80,173,166,157,157,22,27,7,7,0.9,0.9
2022-03-11T18:00:00,2285A,117.8177,30.9412,铜陵市,市第四中学,臭氧1小时,63,37,60,24,32,182,170,148,148,28,49,23,20,0.9,1
2022-03-11T18:00:00,2286A,117.8059,30.9273,铜陵市,市公路局,,50,50,68,30,32,174,160,153,153,34,50,20,26,1.2,1.2
2022-03-11T18:00:00,2287A,117.7807,30.9413,铜陵市,市新民污水厂,颗粒物(PM10),61,72,74,34,35,171,157,139,139,43,61,18,14,0.9,0.9
2022-03-11T18:00:00,2288A,117.7439,30.8792,铜陵市,市第九中学,,43,41,84,30,34,143,114,120,120,72,62,23,11,1.2,1.1
2022-03-11T18:00:00,2289A,117.846,30.9413,铜陵市,车站新区,颗粒物(PM10),55,60,70,20,22,155,141,127,127,41,49,22,16,0.9,0.8
2022-03-11T18:00:00,2290A,117.8483,30.97,铜陵市,市职教基地,颗粒物(PM10),51,52,62,24,33,169,150,137,137,38,49,21,14,1.2,0.9
2022-03-11T18:00:00,2291A,117.0809,30.5177,安庆市,环科院,,50,50,52,12,14,165,149,131,131,23,55,11,10,0.5,0.5
2022-03-11T18:00:00,2292A,117.0331,30.5119,安庆市,马山宾馆,,47,39,46,9,12,160,149,137,137,24,52,9,9,0.6,0.6
2022-03-11T18:00:00,2294A,116.9896,30.6145,安庆市,安庆大学,,44,44,46,19,17,169,130,144,144,35,36,6,7,0.6,0.6
2022-03-11T18:00:00,2295A,118.2903,29.6963,黄山市,延安路89号,,41,32,39,11,21,150,131,126,126,9,11,10,9,0.1,0.2
2022-03-11T18:00:00,2296A,118.327,29.7178,黄山市,黄山东路89号,,35,31,43,3,25,139,111,118,118,15,17,9,8,0.4,0.4
2022-03-11T18:00:00,2297A,118.1371,30.2756,黄山市,黄山区政府5号楼,,40,28,51,15,27,144,125,127,127,9,10,9,8,0.5,0.6
2022-03-11T18:00:00,2298A,118.3093,32.3153,滁州市,老年大学,细颗粒物(PM2.5),107,152,133,80,67,219,192,151,151,33,40,17,12,0.8,0.6
2022-03-11T18:00:00,2299A,118.3244,32.2786,滁州市,人大宾馆,细颗粒物(PM2.5),114,157,121,86,64,218,207,158,158,45,55,15,12,0.9,0.9
2022-03-11T18:00:00,2301A,115.8277,32.8929,阜阳市,市监测站,颗粒物(PM10),66,81,125,40,76,169,164,147,147,21,33,13,16,0.8,0.8
2022-03-11T18:00:00,2303A,115.8554,32.8605,阜阳市,开发区,颗粒物(PM10),81,112,141,54,81,167,156,143,143,26,36,12,13,0.6,0.6
2022-03-11T18:00:00,2307A,116.5079,31.737,六安市,监测大楼,"颗粒物(PM10),臭氧1小时",53,55,80,23,37,163,162,147,147,15,41,8,8,0.3,0.4
2022-03-11T18:00:00,2308A,116.4738,31.7643,六安市,皖西学院,臭氧1小时,59,54,83,23,32,176,167,156,156,16,36,9,9,0.5,0.5
2022-03-11T18:00:00,2309A,116.4996,31.7905,六安市,朝阳厂,颗粒物(PM10),59,68,81,20,40,164,157,142,142,18,39,8,9,0.4,0.4
2022-03-11T18:00:00,2310A,116.5567,31.7886,六安市,开发区,臭氧1小时,68,76,99,23,40,184,174,156,156,14,42,8,8,0.4,0.5
2022-03-11T18:00:00,2311A,115.8072,33.8399,亳州市,污水处理厂,颗粒物(PM10),69,87,147,41,83,189,172,161,161,12,22,10,12,0.5,0.6
2022-03-11T18:00:00,2312A,115.7789,33.8518,亳州市,三国揽胜宫,颗粒物(PM10),67,83,128,46,78,186,167,158,158,13,25,7,8,0.6,0.8
2022-03-11T18:00:00,2314A,117.47,30.6618,池州市,池州学院,,49,49,57,26,30,171,144,139,139,15,30,5,9,0.4,0.8
2022-03-11T18:00:00,2316A,118.7581,30.9454,宣城市,鳌峰子站,,44,44,57,25,29,157,134,138,138,18,32,6,10,0.5,0.6
2022-03-11T18:00:00,2317A,118.7385,30.9743,宣城市,敬亭山子站,颗粒物(PM10),51,51,57,16,20,148,110,118,118,35,26,7,7,0.4,0.4
2022-03-11T18:00:00,2318A,118.7173,30.9427,宣城市,开发区子站,,50,50,57,21,27,156,128,132,132,14,25,6,9,0.5,0.5
2022-03-11T18:00:00,2319A,119.0141,25.4325,莆田市,荔城区仓后路,颗粒物(PM10),63,76,71,32,33,158,118,129,129,19,22,5,5,0.5,0.5
2022-03-11T18:00:00,2320A,119.0015,25.4553,莆田市,莆田市监测站,颗粒物(PM10),59,67,57,35,34,166,129,138,138,22,17,7,5,0.4,0.4
2022-03-11T18:00:00,2321A,119.1119,25.4561,莆田市,涵江区六中,颗粒物(PM10),61,71,65,39,36,146,120,131,131,21,31,8,8,0.4,0.5
2022-03-11T18:00:00,2322A,119.1013,25.3215,莆田市,秀屿区政府,细颗粒物(PM2.5),90,69,69,67,54,166,128,143,143,21,25,9,9,0.7,0.6
2022-03-11T18:00:00,2323A,118.981,25.4792,莆田市,东圳水库(对照点),颗粒物(PM10),54,57,49,35,24,169,130,142,142,13,8,5,4,0.3,0.3
2022-03-11T18:00:00,2324A,117.6211,26.2625,三明市,三钢,,46,46,50,25,30,132,101,110,110,27,37,7,14,0.7,1.1
2022-03-11T18:00:00,2325A,117.635,26.2714,三明市,三明二中,细颗粒物(PM2.5),62,46,43,44,26,136,100,114,114,23,31,5,10,0.7,1.1
2022-03-11T18:00:00,2326A,117.6028,26.2378,三明市,三元区政府,颗粒物(PM10),51,52,63,29,35,123,99,105,105,32,38,8,13,1.1,1.3
2022-03-11T18:00:00,2327A,117.7275,26.3108,三明市,洋溪(对照点),颗粒物(PM10),57,64,40,28,25,132,107,118,118,16,15,8,9,0.8,0.8
2022-03-11T18:00:00,2331A,118.0966,26.6761,南平市,茫荡山(对照点),,39,39,31,23,20,110,107,101,101,5,4,6,5,0.4,0.3
2022-03-11T18:00:00,2332A,118.1681,26.6369,南平市,南平市监测站,细颗粒物(PM2.5),55,52,50,39,26,151,100,138,138,23,21,6,8,1.0,0.8
2022-03-11T18:00:00,2333A,118.1825,26.6489,南平市,南平铝业有限公司,细颗粒物(PM2.5),70,69,50,51,33,154,88,129,129,27,24,11,11,0.8,0.7
2022-03-11T18:00:00,2334A,118.1756,26.6272,南平市,南平七中,颗粒物(PM10),61,72,50,41,34,151,85,127,127,38,19,5,5,1.3,0.7
2022-03-11T18:00:00,2335A,117.0189,25.1181,龙岩市,龙岩师专(对照点),,40,40,53,20,32,140,116,120,120,18,29,6,6,0.5,0.6
2022-03-11T18:00:00,2336A,117.0217,25.1033,龙岩市,龙岩市监测站,,40,40,43,19,23,132,110,115,115,19,32,4,6,0.5,0.5
2022-03-11T18:00:00,2337A,117.0258,25.0661,龙岩市,闽西职业技术学院,颗粒物(PM10),51,51,57,24,27,120,90,102,102,27,38,6,9,0.5,0.4
2022-03-11T18:00:00,2338A,117.0196,25.0306,龙岩市,龙岩学院,,34,34,36,22,20,126,108,119,119,11,17,5,4,0.3,0.3
2022-03-11T18:00:00,2339A,119.5001,26.6946,宁德市,金涵水库(对照点),颗粒物(PM10),60,70,39,28,11,100,69,82,82,39,16,8,6,0.7,0.6
2022-03-11T18:00:00,2341A,119.5388,26.6612,宁德市,宁德市监测站,,41,41,35,18,20,96,84,82,82,21,20,7,7,0.6,0.6
2022-03-11T18:00:00,2342A,117.3102,29.3867,景德镇市,王港中学(对照点),,39,35,42,24,22,155,122,134,134,8,10,9,8,0.5,0.5
2022-03-11T18:00:00,2343A,117.2117,29.2933,景德镇市,老干部活动中心,,45,40,71,24,31,162,142,133,133,18,33,3,5,0.6,0.6
2022-03-11T18:00:00,2344A,117.1894,29.2789,景德镇市,兽医站,,50,43,59,35,30,167,157,138,138,18,33,5,7,0.6,0.6
2022-03-11T18:00:00,2345A,117.1547,29.2617,景德镇市,台达陶瓷,颗粒物(PM10),54,58,71,27,30,168,149,134,134,25,40,24,18,0.7,0.5
2022-03-11T18:00:00,2346A,117.2461,29.2956,景德镇市,陶研所,,40,40,62,18,24,146,124,120,120,17,29,5,6,0.5,0.5
2022-03-11T18:00:00,2347A,114.0997,27.5002,萍乡市,武功山(对照点),,33,15,16,9,14,121,103,91,91,14,12,15,14,0.4,0.4
2022-03-11T18:00:00,2348A,113.8385,27.6434,萍乡市,中医院,颗粒物(PM10),58,66,73,34,42,144,101,94,94,42,54,20,13,1.6,1.3
2022-03-11T18:00:00,2349A,113.8493,27.6253,萍乡市,市政府车库,颗粒物(PM10),59,68,86,34,39,130,115,84,84,22,44,15,15,1.0,1.3
2022-03-11T18:00:00,2350A,113.8676,27.6435,萍乡市,市环保局,细颗粒物(PM2.5),53,51,70,37,46,146,118,94,94,32,56,19,22,2.0,1.3
2022-03-11T18:00:00,2351A,113.866,27.6198,萍乡市,安源区政府,颗粒物(PM10),55,59,74,27,38,133,118,81,81,22,46,26,28,0.7,1.4
2022-03-11T18:00:00,2352A,115.0861,27.9317,新余市,北岗(对照点),细颗粒物(PM2.5),67,68,55,48,36,123,113,88,88,13,25,9,17,0.3,0.6
2022-03-11T18:00:00,2353A,114.9886,27.8431,新余市,飞宇,颗粒物(PM10),71,91,86,36,41,116,101,75,75,21,80,10,25,0,0.5
2022-03-11T18:00:00,2354A,114.9231,27.8246,新余市,第二水厂,颗粒物(PM10),76,101,75,10,25,112,107,82,82,19,55,5,6,0.2,0.9
2022-03-11T18:00:00,2355A,114.9308,27.8036,新余市,市气象局,颗粒物(PM10),52,54,87,22,46,121,108,66,66,18,54,9,21,0.6,1.3
2022-03-11T18:00:00,2357A,116.9822,28.1136,鹰潭市,龙虎山(对照点),,48,44,30,15,14,155,152,132,132,4,4,5,2,0.2,0.2
2022-03-11T18:00:00,2358A,117.0564,28.2642,鹰潭市,新监测站,,47,43,55,24,28,153,148,134,134,11,28,9,39,0,0.3
2022-03-11T18:00:00,2359A,117.0311,28.2475,鹰潭市,财苑宾馆,,45,43,59,17,28,156,141,140,140,12,26,16,36,0.2,0.5
2022-03-11T18:00:00,2360A,117.0222,28.2264,鹰潭市,体育馆,,47,38,56,14,23,175,150,145,142,8,27,7,18,0.1,0.4
2022-03-11T18:00:00,2361A,117.0017,28.2131,鹰潭市,三川水表,,49,49,55,12,23,250,138,153,134,18,18,11,15,0.2,0.4
2022-03-11T18:00:00,2362A,114.9017,25.9149,赣州市,通天岩(对照点),,49,49,39,28,19,165,153,127,127,16,20,14,13,0.8,0.8
2022-03-11T18:00:00,2363A,114.9367,25.8664,赣州市,地委,颗粒物(PM10),57,63,63,25,24,172,164,118,118,18,55,5,7,0.7,0.8
2022-03-11T18:00:00,2364A,114.9461,25.8481,赣州市,气象台,臭氧1小时,67,41,47,21,20,186,173,125,125,27,47,8,9,0.8,0.7
2022-03-11T18:00:00,2365A,114.9322,25.8333,赣州市,市图书馆,臭氧1小时,74,49,55,24,20,186,179,125,125,19,50,10,12,0.8,0.8
2022-03-11T18:00:00,2366A,114.8905,25.8471,赣州市,华坚鞋城,颗粒物(PM10),63,75,83,32,27,161,74,100,100,102,67,11,13,1.0,0.9
2022-03-11T18:00:00,2367A,114.9754,27.0803,吉安市,红声器材厂,颗粒物(PM10),59,68,60,26,24,112,73,68,68,50,39,16,11,0.5,0.4
