timepoint,stationcode,longitude,latitude,area,positionname,primarypollutant,aqi,pm10,pm10_24h,pm2_5,pm2_5_24h,o3,o3_24h,o3_8h,o3_8h_24h,no2,no2_24h,so2,so2_24h,co,co_24h
2025-03-23T1600,2566A,102.1879,31.914,阿坝藏族羌族自治州,州农科所,,35,32,40,7,12,111,,99,99,6,10,9,10,0.1,0.2
2025-03-23T1600,2568A,102.2502,31.8896,阿坝藏族羌族自治州,马师校,,,,22,,20,,,69,,,8,,5,,0.4
2025-03-23T1600,3994A,102.2165,31.9024,阿坝藏族羌族自治州,马尔康中学西区,,37,23,23,9,13,117,,110,110,4,6,5,5,0.3,0.4
2025-03-23T1600,2695A,80.292,41.1694,阿克苏地区,电视台,颗粒物(PM10),106,162,225,47,66,151,,96,96,8,23,10,7,0.4,0.6
2025-03-23T1600,2696A,80.2613,41.1551,阿克苏地区,艺术中心,颗粒物(PM10),122,193,250,45,74,142,,79,79,9,32,6,6,0.5,0.9
2025-03-23T1600,2204A,105.6467,38.8363,阿拉善盟,西城区西花园,颗粒物(PM10),500,756,344,170,79,107,,103,100,6,7,11,11,0.7,0.7
2025-03-23T1600,2205A,105.6985,38.8411,阿拉善盟,蒙二幼,颗粒物(PM10),500,722,352,176,93,100,,98,94,7,8,6,6,0.5,0.5
2025-03-23T1600,2206A,105.724,38.8516,阿拉善盟,环保局新楼,颗粒物(PM10),500,710,344,192,96,100,,103,95,4,4,8,8,0.8,0.8
2025-03-23T1600,2708A,88.1264,47.8517,阿勒泰地区,市站,,32,13,23,8,10,102,,102,102,11,6,3,2,0.5,0.4
2025-03-23T1600,2630A,80.1161,32.5,阿里地区,阿里监测站,,39,7,11,3,9,122,,99,99,2,5,6,7,0.4,0.5
2025-03-23T1600,3192A,80.0903,32.5028,阿里地区,阿里藏医院,,,7,7,3,3,127,,,,,,6,6,0.5,0.5
2025-03-23T1600,2642A,109.0318,32.6537,安康市,香溪洞,颗粒物(PM10),57,63,45,28,25,122,,103,103,5,6,7,7,0.0,0.1
2025-03-23T1600,2644A,109.0072,32.6975,安康市,汉滨区检察院,颗粒物(PM10),54,58,54,26,26,121,,89,89,7,22,8,12,0.2,0.4
2025-03-23T1600,4054A,109.0325,32.6913,安康市,市邮政管理局,颗粒物(PM10),56,61,61,19,30,125,,89,89,5,25,6,13,0.3,0.6
2025-03-23T1600,2291A,117.0809,30.5177,安庆市,环科院,细颗粒物(PM2.5),80,91,68,59,39,66,,58,58,52,55,13,11,0.7,0.5
2025-03-23T1600,2292A,117.0331,30.5119,安庆市,马山宾馆,细颗粒物(PM2.5),83,85,66,61,40,41,,55,55,72,45,10,7,0.7,0.6
2025-03-23T1600,2294A,116.9896,30.6145,安庆市,安庆大学,颗粒物(PM10),61,71,68,42,36,112,,97,97,22,33,14,12,0.6,0.5
2025-03-23T1600,3173A,117.0598,30.5351,安庆市,市人大,细颗粒物(PM2.5),74,93,65,54,36,78,,77,77,34,30,14,14,0.8,0.6
2025-03-23T1600,3122A,105.9606,26.2611,安顺市,伍家关,颗粒物(PM10),56,62,54,27,38,126,,111,111,8,13,9,11,0.4,0.5
2025-03-23T1600,3123A,105.9408,26.2431,安顺市,凤凰山,细颗粒物(PM2.5),78,75,52,57,41,127,,106,106,12,20,12,17,0.4,0.5
2025-03-23T1600,3124A,105.9439,26.2564,安顺市,金钟山,细颗粒物(PM2.5),55,54,53,39,39,127,,108,108,9,13,12,14,0.5,0.5
2025-03-23T1600,3125A,105.8983,26.2481,安顺市,娄家坡,细颗粒物(PM2.5),64,62,53,46,43,126,,107,107,10,14,7,12,0.5,0.6
2025-03-23T1600,1818A,114.4839,36.0621,安阳市,棉研所,,,,,,,,,,,,,,,,
2025-03-23T1600,1819A,114.3551,36.1017,安阳市,红庙街,颗粒物(PM10),178,306,128,58,34,103,,73,73,1,21,6,7,0.7,0.6
2025-03-23T1600,1820A,114.361,36.0681,安阳市,银杏小区,颗粒物(PM10),165,279,123,52,41,112,,76,76,5,24,3,6,0.2,0.6
2025-03-23T1600,3141A,114.3922,36.0878,安阳市,信访局,颗粒物(PM10),171,292,119,63,44,118,,85,85,2,23,5,10,0.3,0.6
2025-03-23T1600,3669A,114.4705,36.0637,安阳市,左辅环卫站,颗粒物(PM10),171,292,135,51,39,124,,64,,,33,6,11,0.4,0.6
2025-03-23T1600,3703A,114.2917,36.0949,安阳市,安钢职工学校,颗粒物(PM10),168,285,145,61,46,107,,69,69,4,25,1,7,0.4,0.7
2025-03-23T1600,1748A,123.044,41.1196,鞍山市,深沟寺,细颗粒物(PM2.5),107,134,125,80,69,142,,118,118,33,37,21,35,1.1,1.4
2025-03-23T1600,1749A,123.011,41.0931,鞍山市,太阳城,细颗粒物(PM2.5),122,140,128,92,72,143,,114,114,34,36,17,27,1.1,1.7
2025-03-23T1600,1750A,123.0485,41.1442,鞍山市,太平,细颗粒物(PM2.5),97,135,153,72,79,129,,99,99,39,52,24,25,1.6,1.8
2025-03-23T1600,1751A,122.9642,41.0971,鞍山市,铁西三道街,细颗粒物(PM2.5),115,148,181,87,102,147,,105,105,36,69,15,26,1.5,2
2025-03-23T1600,1753A,123.022,41.0821,鞍山市,明达新区,细颗粒物(PM2.5),122,146,136,92,80,150,,118,118,29,36,18,23,0.8,1.4
2025-03-23T1600,1754A,123.1289,41.0228,鞍山市,千山,,,,62,,31,,,92,,,13,,6,,0.7
2025-03-23T1600,4201A,122.9446,41.0826,鞍山市,兴盛南路290号,细颗粒物(PM2.5),120,167,204,91,104,145,,111,111,44,70,18,30,1.0,1.8
2025-03-23T1600,2195A,107.4212,40.761,巴彦淖尔市,附二中,颗粒物(PM10),500,790,524,155,103,104,,90,90,5,6,6,5,0.4,0.4
2025-03-23T1600,2196A,107.37,40.7372,巴彦淖尔市,市环保大楼,颗粒物(PM10),500,809,475,173,104,108,,96,96,4,5,4,4,0.3,0.3
2025-03-23T1600,1956A,86.1472,41.7538,巴音郭楞蒙古自治州,孔雀公园,颗粒物(PM10),280,406,673,77,111,122,,76,76,7,14,7,6,0.3,0.4
2025-03-23T1600,1957A,86.1972,41.7166,巴音郭楞蒙古自治州,棉纺厂,颗粒物(PM10),339,451,912,68,134,116,,80,80,10,16,4,3,0.3,0.3
2025-03-23T1600,1958A,86.2357,41.7173,巴音郭楞蒙古自治州,经济开发区,颗粒物(PM10),339,451,812,69,118,118,,86,86,8,13,6,5,0.4,0.3
2025-03-23T1600,2914A,106.7677,31.8794,巴中市,苏山坪,,37,37,57,20,43,117,,77,77,11,19,5,4,0.3,0.5
2025-03-23T1600,3181A,106.7768,31.8526,巴中市,市五中,,38,35,80,18,56,121,,73,73,9,29,5,5,0.4,0.8
2025-03-23T1600,3183A,106.7418,31.8654,巴中市,圣泉水务公司,,38,36,53,21,38,121,,74,74,9,29,9,8,0.3,0.6
2025-03-23T1600,3616A,106.7616,31.8344,巴中市,市中心医院,,46,39,64,32,53,127,,78,78,9,32,8,7,0.3,0.6
2025-03-23T1600,2235A,122.7911,45.6077,白城市,洮北区环保局,细颗粒物(PM2.5),166,132,53,126,49,151,,110,110,20,15,8,8,0.8,0.5
2025-03-23T1600,2236A,122.8738,45.5725,白城市,市环保局,细颗粒物(PM2.5),127,149,60,96,45,161,,114,114,18,16,5,4,0.8,0.6
2025-03-23T1600,2231A,126.4219,41.9171,白山市,喜丰,,41,40,112,19,45,130,,122,122,11,28,9,13,0.9,1.2
2025-03-23T1600,2232A,126.4077,41.9419,白山市,环保局,,38,28,99,14,73,120,,107,107,2,15,9,11,1.0,1.2
2025-03-23T1600,2647A,104.1724,36.5446,白银市,第三小学,颗粒物(PM10),55,60,99,14,29,102,,91,91,5,14,13,19,0,0.3
2025-03-23T1600,2648A,104.1465,36.5482,白银市,动力公司,颗粒物(PM10),57,63,92,16,30,104,,96,96,8,13,8,10,0.2,0.5
2025-03-23T1600,2512A,106.6103,23.9011,百色市,市监测站,臭氧1小时,104,78,85,55,57,208,,147,147,17,21,24,19,1.0,1
2025-03-23T1600,2513A,106.6538,23.8859,百色市,市中心血站,臭氧1小时,116,106,100,71,69,231,,148,148,20,25,35,21,1.0,1
2025-03-23T1600,3406A,106.6085,23.8798,百色市,祈福高中,臭氧1小时,105,112,96,56,53,209,,139,139,17,30,26,15,1.0,0.9
2025-03-23T1600,2270A,117.396,32.939,蚌埠市,工人疗养院,颗粒物(PM10),75,100,89,43,37,139,,123,123,24,30,9,7,0.6,0.6
2025-03-23T1600,2271A,117.3605,32.9427,蚌埠市,百货大楼,颗粒物(PM10),76,101,90,42,38,128,,115,115,22,32,10,8,0.4,0.4
2025-03-23T1600,2273A,117.4185,32.8911,蚌埠市,蚌埠学院,颗粒物(PM10),75,100,99,45,43,134,,113,113,15,33,8,7,0.5,0.5
2025-03-23T1600,2274A,117.3533,32.9673,蚌埠市,淮上区政府,颗粒物(PM10),75,100,91,48,41,133,,118,118,22,31,9,9,0.6,0.5
2025-03-23T1600,2275A,117.3145,32.8977,蚌埠市,高新区,颗粒物(PM10),74,97,101,50,49,128,,111,111,17,38,8,7,0.5,0.4
2025-03-23T1600,3715A,117.3092,32.9314,蚌埠市,蚌埠田家炳中学,颗粒物(PM10),75,100,94,49,44,125,,112,112,28,40,10,20,0.4,0.3
2025-03-23T1600,1585A,109.8756,40.6532,包头市,市环境监测站,颗粒物(PM10),293,415,307,97,84,105,,82,82,13,53,12,29,0.6,1.7
2025-03-23T1600,1587A,109.9991,40.5842,包头市,包头八中,颗粒物(PM10),310,428,291,122,96,101,,84,84,11,31,8,16,0.4,0.6
2025-03-23T1600,1588A,109.8538,40.6821,包头市,青山宾馆,颗粒物(PM10),197,344,272,91,92,106,,75,75,8,46,7,16,0.5,1.2
2025-03-23T1600,1589A,109.8642,40.6288,包头市,惠龙物流,颗粒物(PM10),275,402,338,89,82,106,,96,96,13,30,9,22,0.5,0.9
2025-03-23T1600,1590A,110.0377,40.5546,包头市,东河鸿龙湾,颗粒物(PM10),304,423,263,101,69,107,,89,89,7,19,7,10,0.5,0.5
2025-03-23T1600,3283A,109.9154,40.5685,包头市,滨河大厦,颗粒物(PM10),265,395,276,95,75,106,,94,94,6,15,8,9,0.7,0.7
2025-03-23T1600,3419A,109.9447,40.6261,包头市,包头市委党校,颗粒物(PM10),285,409,307,96,81,104,,91,91,8,29,10,22,0.5,0.9
2025-03-23T1600,3683A,109.8331,40.6576,包头市,昆区政府,颗粒物(PM10),238,376,296,84,96,103,,78,78,12,53,9,31,0.7,2
2025-03-23T1600,1930A,107.185,34.3063,宝鸡市,庙沟村,颗粒物(PM10),70,89,74,30,31,115,,106,106,3,13,7,7,0.2,0.2
2025-03-23T1600,1931A,107.0708,34.3017,宝鸡市,竹园沟,颗粒物(PM10),82,114,78,25,29,113,,103,103,5,14,7,7,0.2,0.3
2025-03-23T1600,1932A,107.1906,34.3672,宝鸡市,三陆医院,颗粒物(PM10),75,100,85,25,39,109,,91,91,4,22,4,6,0.4,0.6
2025-03-23T1600,1933A,107.1431,34.3547,宝鸡市,监测站,颗粒物(PM10),88,125,86,30,33,107,,93,93,7,23,7,8,0.5,0.5
2025-03-23T1600,1934A,107.1186,34.3739,宝鸡市,技工学校,颗粒物(PM10),78,106,80,26,34,112,,99,99,5,16,4,7,0.3,0.5
2025-03-23T1600,1935A,107.3906,34.3528,宝鸡市,陈仓区环保局家属楼,颗粒物(PM10),74,97,90,22,40,107,,89,89,2,24,6,13,0.4,0.6
2025-03-23T1600,1936A,107.2058,34.3497,宝鸡市,文理学院,颗粒物(PM10),73,96,83,28,37,113,,97,97,4,19,5,6,0.3,0.4
2025-03-23T1600,1937A,107.2386,34.3622,宝鸡市,三迪小学,颗粒物(PM10),79,108,86,28,37,113,,96,96,9,27,6,7,0.3,0.4
2025-03-23T1600,1051A,115.493,38.8632,保定市,游泳馆,颗粒物(PM10),144,237,133,54,36,108,,93,93,10,30,13,12,0.2,0.3
2025-03-23T1600,1052A,115.5213,38.8959,保定市,华电二区,颗粒物(PM10),129,207,112,59,34,110,,93,93,4,12,3,3,0.3,0.2
2025-03-23T1600,1053A,115.4713,38.9108,保定市,接待中心,颗粒物(PM10),134,218,121,70,44,106,,95,95,11,16,4,3,0.2,0.2
2025-03-23T1600,1054A,115.4612,38.8416,保定市,地表水厂,颗粒物(PM10),161,271,164,59,41,109,,93,93,11,27,4,5,0.3,0.4
2025-03-23T1600,3581A,115.31981,38.95208,保定市,满城区生态环境分局,颗粒物(PM10),157,263,137,63,40,113,,104,101,6,9,2,3,0.1,0.2
2025-03-23T1600,3582A,115.47694,38.76408,保定市,清苑区第二中学,颗粒物(PM10),164,278,163,64,37,106,,90,90,12,21,12,11,0.4,0.3
2025-03-23T1600,3583A,115.62909,39.02311,保定市,徐水物探局,颗粒物(PM10),220,364,157,80,43,107,,88,88,10,28,13,12,0.1,0.1
2025-03-23T1600,4004A,115.4202,38.8656,保定市,双鹰农机,颗粒物(PM10),142,234,136,54,39,109,,96,96,4,22,5,5,0.2,0.3
2025-03-23T1600,4034A,115.5150,38.8590,保定市,植保所站,颗粒物(PM10),131,212,128,58,43,106,,92,92,4,13,3,4,0.3,0.3
2025-03-23T1600,2594A,99.1678,25.1081,保山市,市环境监测站,,46,,47,32,43,114,,64,64,11,15,5,5,0.6,0.6
2025-03-23T1600,2595A,99.1711,25.1328,保山市,市环保局,,40,39,52,28,39,117,,75,75,11,10,4,4,0.8,0.7
2025-03-23T1600,1866A,109.2262,21.588,北海市,牛尾岭水库,,,,33,28,31,105,,98,98,,,6,7,0.6,0.7
2025-03-23T1600,1867A,109.1436,21.4086,北海市,海滩公园,,39,34,42,22,21,124,,128,128,9,12,5,6,0.5,0.5
2025-03-23T1600,1868A,109.0981,21.4661,北海市,新市环保局,,35,30,40,17,26,109,,120,113,9,17,3,4,0.6,0.6
2025-03-23T1600,1869A,109.1778,21.5233,北海市,北海工业园,,37,27,51,22,34,116,,113,113,8,22,7,8,0.2,0.4
2025-03-23T1600,3400A,109.1911,21.4415,北海市,龙潭自来水厂,,37,37,41,23,33,109,,112,112,10,18,6,6,0.4,0.5
2025-03-23T1600,1001A,116.3621,39.8784,北京市,万寿西宫,颗粒物(PM10),110,169,108,53,31,121,,106,106,7,19,3,3,0,0
2025-03-23T1600,1002A,116.2202,40.2915,北京市,定陵,,,,,,,,,,,,,,,,
2025-03-23T1600,1003A,116.4174,39.9289,北京市,东四,颗粒物(PM10),115,179,106,49,31,117,,106,106,8,15,5,5,0.3,0.4
2025-03-23T1600,1004A,116.4072,39.8863,北京市,天坛,颗粒物(PM10),113,176,105,47,31,114,,101,101,8,16,1,2,0.4,0.4
2025-03-23T1600,1005A,116.462,39.9365,北京市,农展馆,颗粒物(PM10),120,190,103,54,32,108,,99,99,5,10,6,7,0.3,0.4
2025-03-23T1600,1006A,116.3392,39.9295,北京市,官园,颗粒物(PM10),123,195,114,53,31,104,,94,94,9,14,7,8,0.4,0.4
2025-03-23T1600,1007A,116.2878,39.9611,北京市,海淀万柳,颗粒物(PM10),116,182,106,52,30,101,,92,92,12,14,4,4,0.4,0.4
2025-03-23T1600,1008A,116.6636,40.135,北京市,顺义新城,颗粒物(PM10),162,273,122,84,37,111,,99,99,7,24,5,6,0,0
2025-03-23T1600,1009A,116.6275,40.3275,北京市,怀柔镇,颗粒物(PM10),156,262,101,78,31,103,,84,84,2,14,3,3,0.4,0.5
2025-03-23T1600,1010A,116.2296,40.217,北京市,昌平镇,颗粒物(PM10),239,377,142,96,38,109,,103,103,7,17,2,3,0.4,0.5
2025-03-23T1600,1011A,116.3966,39.9821,北京市,奥体中心,颗粒物(PM10),130,209,104,61,31,110,,100,100,12,24,3,4,0,0.1
2025-03-23T1600,3281A,115.9718,40.4529,北京市,延庆夏都,颗粒物(PM10),290,413,131,96,41,102,,90,90,6,13,6,7,0.4,0.5
2025-03-23T1600,3418A,116.8336,40.4095,北京市,密云新城,颗粒物(PM10),155,259,84,79,27,101,,83,83,3,12,4,3,0.4,0.4
2025-03-23T1600,3671A,116.088,39.9726,北京市,门头沟三家店,颗粒物(PM10),142,233,164,8,21,97,,,,33,28,5,5,0.4,0.4
2025-03-23T1600,3672A,116.1541,39.8204,北京市,丰台云岗,颗粒物(PM10),107,164,112,57,22,129,,108,105,6,14,4,4,0.4,0.3
2025-03-23T1600,3673A,116.6804,39.9081,北京市,通州东关,颗粒物(PM10),122,194,111,21,13,111,,101,101,9,19,4,5,0.6,0.6
2025-03-23T1600,3674A,115.9577,39.7603,北京市,房山燕山,颗粒物(PM10),126,202,122,34,29,106,,96,93,9,10,4,4,0.3,0.3
2025-03-23T1600,3675A,116.4672,39.7733,北京市,大兴旧宫,颗粒物(PM10),105,160,103,45,30,111,,92,92,7,15,2,2,0.1,0.2
2025-03-23T1600,3694A,115.986,40.4563,北京市,延庆石河营,颗粒物(PM10),235,374,123,94,39,104,,90,90,6,15,5,6,0.3,0.4
2025-03-23T1600,3695A,116.6151,40.3053,北京市,怀柔新城,颗粒物(PM10),157,263,103,81,32,105,,87,87,2,8,5,5,0.3,0.4
2025-03-23T1600,3696A,116.2545,39.8768,北京市,丰台小屯,颗粒物(PM10),109,167,113,57,40,109,,119,119,5,20,2,2,0.2,0.2
2025-03-23T1600,3697A,116.84,40.3844,北京市,密云镇,颗粒物(PM10),154,257,92,75,28,104,,80,80,2,29,5,5,0.2,0.3
2025-03-23T1600,4182A,116.1942,39.9158,北京市,八角北路9号,颗粒物(PM10),115,179,121,43,30,125,,111,111,7,9,4,11,0.2,0.2
2025-03-23T1600,4194A,117.0790,40.1518,北京市,洳河巡河路,颗粒物(PM10),121,192,101,65,36,110,,97,97,24,23,2,2,0.3,0.4
2025-03-23T1600,1761A,123.8275,41.3064,本溪市,大峪,细颗粒物(PM2.5),83,86,83,61,47,151,,115,115,14,34,12,13,0.7,0.8
2025-03-23T1600,1762A,123.7567,41.3325,本溪市,溪湖,颗粒物(PM10),76,101,116,55,63,154,,116,116,18,52,11,16,0.9,1.3
2025-03-23T1600,1763A,123.7169,41.3094,本溪市,彩屯,颗粒物(PM10),87,124,121,60,68,147,,110,110,30,46,23,21,2.3,2.1
2025-03-23T1600,1764A,123.7669,41.2864,本溪市,东明,颗粒物(PM10),75,100,97,50,53,142,,108,108,21,49,12,13,0.8,1
2025-03-23T1600,1765A,123.7992,41.2664,本溪市,新立屯,细颗粒物(PM2.5),75,90,67,55,47,157,,127,127,17,55,11,10,0.8,0.8
2025-03-23T1600,1766A,123.8142,41.3472,本溪市,威宁,颗粒物(PM10),69,88,110,42,56,150,,114,114,10,34,9,9,0.7,0.9
2025-03-23T1600,2587A,105.2864,27.3125,毕节市,八中,,39,37,38,27,27,111,,103,103,9,10,10,10,0.4,0.5
2025-03-23T1600,2588A,105.31,27.2944,毕节市,师专,,38,37,36,25,27,119,,111,111,9,10,7,8,0.6,0.6
2025-03-23T1600,4263A,105.3688,27.3598,毕节市,工业大道,,49,48,46,34,30,125,,116,116,10,11,9,10,0.5,0.5
2025-03-23T1600,1629A,118.0018,37.3617,滨州市,第二水厂,颗粒物(PM10),131,212,128,48,37,80,,69,69,28,28,11,11,1.4,1.3
2025-03-23T1600,1630A,117.9776,37.393,滨州市,北中新校,颗粒物(PM10),123,195,124,63,40,84,,75,75,32,28,15,28,0.3,0.6
2025-03-23T1600,3514A,117.9378,37.3956,滨州市,中海酒店,颗粒物(PM10),112,173,115,56,45,88,,80,80,28,29,23,14,0.6,0.5
2025-03-23T1600,3515A,117.9378,37.3553,滨州市,开发区一中,颗粒物(PM10),139,227,131,48,39,80,,71,71,32,33,15,14,0.4,0.4
2025-03-23T1600,3516A,118.0917,37.694,滨州市,金海六路,颗粒物(PM10),133,215,124,41,36,83,,76,76,27,31,8,9,0.7,0.7
2025-03-23T1600,4028A,117.9956,37.3753,滨州市,滨州市西街道办事处,颗粒物(PM10),133,215,122,58,43,88,,74,74,24,24,10,12,0.3,0.2
2025-03-23T1600,2311A,115.8072,33.8399,亳州市,污水处理厂,颗粒物(PM10),86,121,87,30,29,110,,100,100,21,22,7,6,0.3,0.3
2025-03-23T1600,2312A,115.7789,33.8518,亳州市,三国揽胜宫,颗粒物(PM10),84,118,93,35,32,107,,95,95,14,17,8,8,0.3,0.3
2025-03-23T1600,3332A,115.7633,33.8034,亳州市,亳州学院,颗粒物(PM10),78,105,84,35,32,106,,92,92,13,18,7,8,0.3,0.3
2025-03-23T1600,2693A,82.0485,44.8556,博尔塔拉蒙古自治州,市党校,,46,46,63,18,20,108,,90,90,13,12,13,11,0.2,0.2
2025-03-23T1600,2694A,82.0806,44.8969,博尔塔拉蒙古自治州,市环保局,颗粒物(PM10),51,51,74,9,20,96,,66,66,11,19,3,4,0.4,0.5
2025-03-23T1600,1071A,116.8842,38.2991,沧州市,沧县城建局,颗粒物(PM10),124,197,117,44,36,105,,74,74,12,29,5,5,0.4,0.4
2025-03-23T1600,1072A,116.8584,38.3254,沧州市,电视转播站,颗粒物(PM10),108,165,103,46,34,107,,82,82,13,27,7,7,0.4,0.4
2025-03-23T1600,1073A,116.8709,38.3228,沧州市,市环保局,颗粒物(PM10),107,164,103,42,34,103,,81,81,12,23,10,10,0.4,0.4
2025-03-23T1600,3324A,116.8136,38.3004,沧州市,河北水利电力学院,颗粒物(PM10),136,222,134,45,38,96,,68,68,14,35,8,7,0.3,0.3
2025-03-23T1600,2622A,97.1806,31.1273,昌都市,昌都监测站,,38,38,28,14,12,94,,107,102,2,4,7,7,0.8,0.7
2025-03-23T1600,3719A,97.1714,31.1406,昌都市,昌都会议中心,,36,33,27,14,13,114,,114,114,25,25,2,3,0.1,0.1
2025-03-23T1600,2690A,88.1236,43.8886,昌吉回族自治州,天山天池,,37,15,22,3,8,118,,106,106,5,5,9,6,0.5,0.5
2025-03-23T1600,2692A,87.2717,44.0297,昌吉回族自治州,新区政务中心,,,47,80,,35,107,,56,56,8,27,9,11,0.6,0.8
2025-03-23T1600,3613A,87.3095,44.0142,昌吉回族自治州,亚心广场,颗粒物(PM10),62,73,102,39,37,103,,62,62,9,24,10,10,0.5,0.6
2025-03-23T1600,1119A,125.3325,43.9166,长春市,食品厂,细颗粒物(PM2.5),145,141,159,111,158,171,,172,172,22,35,11,15,0.6,0.8
2025-03-23T1600,1120A,125.2863,43.9027,长春市,客车厂,细颗粒物(PM2.5),130,106,122,99,141,161,,153,153,21,38,9,12,0.6,0.8
2025-03-23T1600,1121A,125.2841,43.8463,长春市,邮电学院,细颗粒物(PM2.5),82,97,123,60,111,163,,162,162,17,25,10,13,0.5,0.7
2025-03-23T1600,1122A,125.3716,43.8772,长春市,劳动公园,细颗粒物(PM2.5),83,89,130,61,122,169,,167,167,16,29,10,14,0.5,0.7
2025-03-23T1600,1123A,125.3297,43.8805,长春市,园林处,颗粒物(PM10),79,107,127,54,118,163,,160,160,18,30,10,14,0.5,0.7
2025-03-23T1600,1124A,125.4605,43.79,长春市,净月潭,颗粒物(PM10),84,117,149,50,124,157,,173,173,11,22,10,13,0.4,0.7
2025-03-23T1600,1125A,125.7194,43.515,长春市,甩湾子,,,,,,,,,,,,,,,,
2025-03-23T1600,1126A,125.3863,43.8447,长春市,经开区环卫处,细颗粒物(PM2.5),80,103,127,59,108,152,,156,156,17,33,10,11,0.5,0.7
2025-03-23T1600,1127A,125.245,43.7783,长春市,高新区管委会,细颗粒物(PM2.5),89,83,121,66,113,157,,155,155,20,30,11,12,0.5,0.6
2025-03-23T1600,1128A,125.1761,43.8325,长春市,岱山公园,细颗粒物(PM2.5),89,119,106,66,98,170,,158,158,24,36,8,10,0.7,0.8
2025-03-23T1600,1335A,113.0833,28.2325,长沙市,经开区环保局,细颗粒物(PM2.5),90,101,92,67,55,65,,48,48,46,70,10,10,0.6,0.8
2025-03-23T1600,1336A,112.8872,28.2189,长沙市,高开区环保局,细颗粒物(PM2.5),57,58,108,40,58,93,,41,41,12,66,7,7,0.4,0.9
2025-03-23T1600,1337A,113.0792,28.2053,长沙市,马坡岭,细颗粒物(PM2.5),85,94,105,63,58,74,,56,56,37,65,10,10,0.4,0.6
2025-03-23T1600,1338A,112.9394,28.19,长沙市,湖南师范大学,细颗粒物(PM2.5),58,63,89,41,52,94,,36,36,10,48,8,8,0.7,1
2025-03-23T1600,1339A,113.0178,28.1322,长沙市,雨花区环保局,细颗粒物(PM2.5),74,84,104,54,56,73,,32,32,44,82,9,10,0.6,0.9
2025-03-23T1600,1340A,112.9792,28.2597,长沙市,伍家岭,颗粒物(PM10),60,70,132,40,60,76,,29,29,25,73,7,6,0.6,0.9
2025-03-23T1600,1341A,113.0014,28.1944,长沙市,火车新站,颗粒物(PM10),72,93,125,48,68,78,,42,42,34,81,9,10,0.7,1.3
2025-03-23T1600,1342A,112.9844,28.1178,长沙市,天心区环保局,细颗粒物(PM2.5),78,84,103,57,59,85,,48,48,35,77,7,8,0.8,1.2
2025-03-23T1600,1343A,112.8908,28.1308,长沙市,湖南中医药大学,细颗粒物(PM2.5),65,66,92,47,51,89,,41,41,18,65,6,6,0.3,0.6
2025-03-23T1600,1344A,112.9581,28.3611,长沙市,沙坪,细颗粒物(PM2.5),60,65,54,43,42,69,,55,52,15,23,11,9,0.8,0.8
2025-03-23T1600,1727A,113.1147,36.1547,长治市,清华站,颗粒物(PM10),111,172,100,36,32,112,,93,93,6,22,2,5,0.2,0.3
2025-03-23T1600,1730A,113.0886,36.2125,长治市,审计局,颗粒物(PM10),102,153,101,36,33,113,,90,90,9,27,5,8,0.2,0.3
2025-03-23T1600,1731A,113.0844,36.1856,长治市,长治八中,颗粒物(PM10),120,189,125,54,43,114,,94,94,9,25,7,9,0.7,0.8
2025-03-23T1600,2845A,113.1569,36.1911,长治市,德盛苑,颗粒物(PM10),109,168,92,36,32,113,,97,97,6,17,3,6,0.2,0.3
2025-03-23T1600,3568A,113.06,36.0464,长治市,向阳小学,颗粒物(PM10),117,184,128,49,42,104,,90,90,13,24,8,11,0.2,0.4
2025-03-23T1600,3569A,112.8792,36.3144,长治市,屯留一中,颗粒物(PM10),98,146,95,34,26,109,,100,100,12,25,6,8,0.5,0.6
2025-03-23T1600,4189A,113.1131,36.19948,长治市,英华南巷50号,颗粒物(PM10),120,189,111,36,35,116,,97,97,9,23,8,13,0.3,0.5
2025-03-23T1600,4190A,113.2367,36.3344,长治市,学府街1号,颗粒物(PM10),144,237,131,48,39,118,,100,100,2,18,2,15,0.3,0.5
2025-03-23T1600,1854A,111.6975,28.9703,常德市,市二中,,46,39,58,32,44,89,,42,42,3,22,4,5,0.5,0.5
2025-03-23T1600,1857A,111.7158,29.1456,常德市,白鹤山,,,,,,,,,,,,,,,,
2025-03-23T1600,3138A,111.7153,29.0289,常德市,武陵区永安,颗粒物(PM10),51,51,54,33,37,98,,61,60,5,15,4,5,0.5,0.5
2025-03-23T1600,3139A,111.6892,28.9881,常德市,鼎城区玉霞,,46,41,68,32,42,104,,48,48,3,29,4,5,0.5,0.6
2025-03-23T1600,3140A,111.6625,29.0531,常德市,武陵区长庚,,50,50,59,34,39,104,,57,54,2,14,5,6,0.5,0.5
2025-03-23T1600,1196A,119.9633,31.762,常州市,市监测站,颗粒物(PM10),58,66,82,32,42,124,,127,127,29,53,8,12,0.6,0.8
2025-03-23T1600,1200A,119.9468,31.7069,常州市,武进监测站,颗粒物(PM10),55,59,70,36,41,131,,128,128,28,47,13,20,0.6,0.8
2025-03-23T1600,1201A,119.9255,31.9087,常州市,安家,颗粒物(PM10),60,69,98,28,48,131,,123,123,30,66,11,23,0.5,0.6
2025-03-23T1600,3002A,119.9805,31.8174,常州市,行政中心,,48,48,61,29,36,129,,126,126,24,35,16,18,0.5,0.6
2025-03-23T1600,3003A,120.0522,31.7748,常州市,经开区,颗粒物(PM10),59,68,76,29,37,149,,142,142,24,44,13,18,0.5,0.7
2025-03-23T1600,3010A,119.9025,31.7964,常州市,钟楼,颗粒物(PM10),60,70,78,36,38,128,,131,131,27,44,9,13,0.6,0.9
2025-03-23T1600,3429A,119.8598,31.7066,常州市,武进经发区,颗粒物(PM10),60,70,81,34,42,130,,131,131,30,44,10,19,0.8,1
2025-03-23T1600,3430A,119.5826,31.7245,常州市,金坛城区,颗粒物(PM10),54,57,76,33,44,139,,129,129,20,29,10,16,0.6,0.7
2025-03-23T1600,2220A,120.4318,41.5881,朝阳市,西梁,颗粒物(PM10),88,126,82,26,41,114,,83,83,5,37,10,17,0.5,0.9
2025-03-23T1600,2221A,120.4521,41.5646,朝阳市,河畔小区,颗粒物(PM10),88,126,73,22,31,115,,87,87,6,28,7,11,0.4,0.7
2025-03-23T1600,2222A,120.4176,41.5648,朝阳市,八里堡,颗粒物(PM10),97,144,79,21,35,102,,78,78,8,31,10,11,0.5,0.7
2025-03-23T1600,2223A,120.3806,41.5969,朝阳市,农业园区,颗粒物(PM10),97,144,80,56,42,110,,84,84,12,33,8,14,0.4,0.8
2025-03-23T1600,1705A,116.6367,23.6719,潮州市,西园路,臭氧1小时,104,79,66,32,40,207,,160,160,23,25,8,6,0.5,0.4
2025-03-23T1600,3026A,116.6183,23.6608,潮州市,市政府,臭氧1小时,98,78,70,32,37,198,,153,153,29,38,9,9,0.6,0.6
2025-03-23T1600,4036A,116.6461,23.6761,潮州市,金山,臭氧1小时,106,83,60,40,35,212,,162,162,24,25,12,9,0.6,0.6
2025-03-23T1600,2472A,113.0073,25.9061,郴州市,马头岭,颗粒物(PM10),56,62,53,33,23,146,,124,124,13,16,12,13,0.6,0.5
2025-03-23T1600,2473A,113.0116,25.8226,郴州市,市职中,臭氧1小时,79,54,76,38,40,183,,139,139,10,36,11,10,0.6,0.6
2025-03-23T1600,2475A,113.0383,25.8071,郴州市,市审计局,臭氧1小时,67,56,59,37,36,173,,138,138,12,33,8,8,0.5,0.6
2025-03-23T1600,2476A,113.0348,25.7759,郴州市,市环保局,"颗粒物(PM10),细颗粒物(PM2.5)",58,66,61,41,37,161,,132,132,16,33,9,9,0.6,0.6
2025-03-23T1600,4252A,113.0138,25.8011,郴州市,好美居路49号,臭氧1小时,74,56,76,42,40,179,,138,138,12,39,11,10,0.6,0.6
2025-03-23T1600,1431A,103.9728,30.7236,成都市,金泉两河,,45,45,88,3,42,111,,80,80,7,46,2,3,0.5,0.9
2025-03-23T1600,1432A,104.176,30.6872,成都市,十里店,,41,41,79,12,47,114,,67,67,27,66,3,4,0.3,0.8
2025-03-23T1600,1433A,104.079,30.5706,成都市,三瓦窑,,41,41,81,19,48,103,,63,63,22,59,6,7,0.6,0.9
2025-03-23T1600,1434A,104.1114,30.63,成都市,沙河铺,,32,32,77,22,55,99,,57,57,16,49,6,6,0.5,0.8
2025-03-23T1600,1437A,104.0786,30.6531,成都市,君平街,,48,48,80,21,49,99,,61,61,17,59,6,8,0.5,1
2025-03-23T1600,1438A,103.613,31.0283,成都市,灵岩寺,,,,,,,,,,,,,,,,
2025-03-23T1600,2880A,104.0239,30.65639,成都市,大石西路,,49,49,85,24,51,107,,66,66,21,56,4,5,0.5,1
2025-03-23T1600,3136A,104.2725,30.5589,成都市,龙泉驿区区政府,,46,46,60,17,39,108,,74,74,15,25,5,5,0.5,0.7
2025-03-23T1600,3357A,104.0106,30.6931,成都市,金博路,,,,81,,45,,,29,,,60,,7,,0.9
2025-03-23T1600,3359A,104.0578,30.5225,成都市,华阳,颗粒物(PM10),51,51,75,31,55,100,,59,59,19,52,9,7,0.5,0.8
2025-03-23T1600,3488A,104.3853,30.7453,成都市,青白江技师分院,,50,50,67,22,42,114,,82,82,18,46,6,7,0.4,0.6
2025-03-23T1600,3489A,104.0789,30.4072,成都市,科学城,,34,34,70,23,51,106,,65,65,12,36,7,6,0.5,0.8
2025-03-23T1600,4011A,103.8506,30.6947,成都市,光华大道三段,,43,43,83,16,50,121,,78,78,14,49,4,5,0.5,0.9
2025-03-23T1600,4224A,104.2433,30.5353,成都市,鲸龙路1057号,,35,30,70,18,47,109,,73,73,14,35,5,5,0.6,0.8
2025-03-23T1600,1062A,117.9531,40.9081,承德市,铁路,颗粒物(PM10),90,129,66,39,16,107,,68,68,7,20,6,7,0.2,0.4
2025-03-23T1600,1063A,117.9392,40.9763,承德市,中国银行,颗粒物(PM10),100,150,76,39,18,108,,77,77,5,19,6,4,0.3,0.3
2025-03-23T1600,1064A,117.9503,40.928,承德市,开发区,颗粒物(PM10),82,113,71,31,21,113,,73,73,6,25,8,8,0.2,0.4
2025-03-23T1600,1065A,117.8051,40.9655,承德市,文化中心,颗粒物(PM10),107,164,101,43,21,112,,75,75,5,29,4,5,0.2,0.3
2025-03-23T1600,1066A,117.9268,41.0026,承德市,离宫,颗粒物(PM10),91,132,72,38,22,100,,70,70,2,12,8,6,0.3,0.2
2025-03-23T1600,2314A,117.47,30.6618,池州市,池州学院,细颗粒物(PM2.5),73,88,66,53,40,76,,75,66,40,30,18,13,1.1,0.9
2025-03-23T1600,3237A,117.4918,30.6617,池州市,展览馆,颗粒物(PM10),67,84,64,46,36,77,,67,67,36,32,20,11,1.2,0.8
2025-03-23T1600,3333A,117.5627,30.695,池州市,第八中学,颗粒物(PM10),63,76,62,42,34,84,,73,73,32,26,18,10,0.9,0.6
2025-03-23T1600,3334A,117.5038,30.6243,池州市,第十二中学,细颗粒物(PM2.5),73,89,62,53,34,74,,76,71,40,26,12,8,0.5,0.7
2025-03-23T1600,1744A,118.9233,42.2816,赤峰市,松山一中,颗粒物(PM10),96,142,81,32,25,95,,89,89,16,33,8,10,0.4,0.6
2025-03-23T1600,1745A,118.9576,42.2728,赤峰市,哈达街,颗粒物(PM10),99,147,77,35,23,97,,86,86,12,19,11,13,0.6,0.7
2025-03-23T1600,1746A,118.8788,42.2554,赤峰市,天义路,颗粒物(PM10),99,147,75,53,32,89,,83,83,12,20,7,7,0.3,0.4
2025-03-23T1600,3058A,119.2658,42.0353,赤峰市,银河街,颗粒物(PM10),71,92,96,26,47,90,,87,87,13,27,11,18,0.4,0.8
2025-03-23T1600,3286A,118.9359,42.3147,赤峰市,桥北物流园区,细颗粒物(PM2.5),97,123,78,72,29,87,,76,76,14,32,7,7,0.3,0.5
2025-03-23T1600,2521A,107.3476,22.4136,崇左市,市环保局江州分局,,50,44,76,23,47,157,,133,133,13,25,6,8,0.4,0.6
2025-03-23T1600,4256A,107.3750,22.3736,崇左市,石景林东路7号,臭氧1小时,60,43,55,28,40,168,,149,149,12,18,6,7,0.4,0.5
2025-03-23T1600,2298A,118.3093,32.3153,滁州市,老年大学,颗粒物(PM10),51,52,65,29,36,130,,122,122,19,28,6,6,0.5,0.6
2025-03-23T1600,2299A,118.3244,32.2786,滁州市,人大宾馆,颗粒物(PM10),52,54,71,25,36,125,,123,123,19,26,9,10,0.4,0.5
2025-03-23T1600,3207A,118.3118,32.3038,滁州市,市政府原办公楼,颗粒物(PM10),51,52,63,31,36,128,,126,126,13,28,6,6,0.3,0.4
2025-03-23T1600,3331A,118.3267,32.2634,滁州市,图书馆,颗粒物(PM10),52,53,64,17,33,125,,122,122,12,21,8,9,0.3,0.4
2025-03-23T1600,2605A,101.5482,25.0441,楚雄彝族自治州,州环境监测站,,33,11,49,10,43,105,,86,86,11,22,8,8,0.6,0.7
2025-03-23T1600,2606A,101.538,25.0492,楚雄彝族自治州,市经济开发区,,33,,50,10,42,105,,89,89,12,18,7,7,0.6,0.8
2025-03-23T1600,2548A,107.5277,31.2827,达州市,达州职业技术学院,颗粒物(PM10),69,87,112,47,65,137,,78,78,15,41,8,9,0.2,0.9
2025-03-23T1600,2549A,107.5086,31.2186,达州市,市环境监测站,颗粒物(PM10),66,81,112,46,66,140,,77,77,23,55,9,11,0.7,1.6
2025-03-23T1600,2550A,107.4988,31.2132,达州市,凤凰小区,颗粒物(PM10),65,80,111,44,70,136,,77,77,21,53,11,13,0.5,1.3
2025-03-23T1600,2551A,107.5082,31.1986,达州市,达县机关宾馆,颗粒物(PM10),67,83,103,44,66,130,,71,71,23,49,7,9,0.7,0.9
2025-03-23T1600,2552A,107.4644,31.2124,达州市,市政中心,颗粒物(PM10),67,84,124,41,72,138,,81,81,22,53,6,13,0.5,1.1
2025-03-23T1600,2614A,100.1542,25.7054,大理白族自治州,大理市环境监测站,细颗粒物(PM2.5),54,44,42,38,38,76,,101,95,16,9,7,7,0.8,0.6
2025-03-23T1600,2615A,100.2171,25.5811,大理白族自治州,大理古城,,,27,34,17,31,106,,112,108,11,9,,7,0.7,0.7
2025-03-23T1600,1109A,121.612,38.9741,大连市,甘井子,细颗粒物(PM2.5),85,115,91,63,47,116,,80,80,44,47,12,11,1.2,1.1
2025-03-23T1600,1110A,121.565,38.9511,大连市,周水子,细颗粒物(PM2.5),89,117,93,66,49,104,,69,69,52,53,17,12,1.3,0.6
2025-03-23T1600,1111A,121.5637,38.8845,大连市,星海三站,细颗粒物(PM2.5),92,115,79,68,43,127,,90,90,27,26,12,10,0.9,0.8
2025-03-23T1600,1112A,121.6302,38.9117,大连市,青泥洼桥,颗粒物(PM10),84,117,92,56,44,137,,73,73,25,38,17,13,0.6,0.6
2025-03-23T1600,1113A,121.6251,38.8638,大连市,傅家庄,细颗粒物(PM2.5),98,122,84,73,45,126,,94,94,39,36,14,11,0.7,0.6
2025-03-23T1600,1114A,121.5213,38.8661,大连市,七贤岭,颗粒物(PM10),89,127,98,52,38,122,,82,82,22,22,13,10,0.7,0.6
2025-03-23T1600,1115A,121.2529,38.8061,大连市,旅顺,颗粒物(PM10),86,122,91,59,43,104,,82,82,41,42,12,9,0.6,0.5
2025-03-23T1600,1116A,121.7485,39.1311,大连市,金州,颗粒物(PM10),95,139,125,64,50,124,,88,88,36,42,14,13,1.0,0.9
2025-03-23T1600,1117A,121.7811,39.0496,大连市,开发区,细颗粒物(PM2.5),93,132,114,69,53,96,,80,80,44,49,9,14,0.8,0.8
2025-03-23T1600,1118A,121.9762,39.0631,大连市,双D港,细颗粒物(PM2.5),84,107,99,62,51,120,,96,96,28,35,5,9,0.9,0.8
2025-03-23T1600,1789A,124.81117,46.03138,大庆市,大同区,细颗粒物(PM2.5),442,532,59,413,46,236,,133,133,55,22,23,8,1.8,0.7
2025-03-23T1600,1790A,125.129,46.533,大庆市,龙凤区,细颗粒物(PM2.5),188,200,43,141,24,162,,94,94,30,17,11,7,0.9,0.4
2025-03-23T1600,1791A,124.902,46.408,大庆市,红岗区,细颗粒物(PM2.5),449,496,50,423,39,253,,123,123,52,13,21,6,1.7,0.5
2025-03-23T1600,1792A,125.153,46.586,大庆市,萨尔图区,细颗粒物(PM2.5),155,172,39,118,18,147,,91,91,22,12,13,8,0.6,0.3
2025-03-23T1600,1793A,124.9042,46.6215,大庆市,让胡路区,细颗粒物(PM2.5),268,262,36,218,27,190,,100,100,27,17,14,9,0.9,0.3
2025-03-23T1600,3481A,125.141,46.634,大庆市,萨区政府监测点,细颗粒物(PM2.5),125,147,38,95,13,150,,97,97,17,9,10,7,0.6,0.3
2025-03-23T1600,1721A,113.3819,40.1097,大同市,果树场,颗粒物(PM10),240,378,186,72,55,90,,64,64,10,34,8,11,0.5,0.8
2025-03-23T1600,1723A,113.2994,40.0758,大同市,云冈宾馆,颗粒物(PM10),364,471,214,63,42,99,,75,75,12,24,8,12,0.5,0.6
2025-03-23T1600,1724A,113.3444,40.0917,大同市,大同大学,颗粒物(PM10),325,440,200,91,52,97,,72,72,8,21,12,16,0.3,0.6
2025-03-23T1600,1725A,113.2661,40.1269,大同市,安家小村,颗粒物(PM10),464,564,250,108,56,99,,80,80,6,16,9,12,0.3,0.8
2025-03-23T1600,1726A,113.2711,40.0844,大同市,教育学院,颗粒物(PM10),378,482,230,91,57,102,,83,83,10,20,7,12,0.4,0.5
2025-03-23T1600,3282A,113.3397,40.0597,大同市,大同市卫生学校,颗粒物(PM10),373,478,223,84,56,91,,69,69,14,39,7,10,0.3,0.5
2025-03-23T1600,3565A,113.1367,40.1122,大同市,云冈站,颗粒物(PM10),378,482,218,120,58,99,,82,82,9,20,9,19,0.3,0.4
2025-03-23T1600,3566A,113.1186,40.2556,大同市,图书馆,颗粒物(PM10),448,548,186,99,54,100,,78,78,5,11,8,10,0.5,0.6
2025-03-23T1600,3567A,113.5931,40.0461,大同市,区一中,颗粒物(PM10),476,576,235,38,26,93,,77,77,14,23,15,27,0.3,0.5
2025-03-23T1600,4199A,113.2798,40.0997,大同市,魏都大道141号,颗粒物(PM10),379,483,220,83,51,102,,77,77,10,24,12,15,0.3,0.5
2025-03-23T1600,2269A,124.1069,50.4097,大兴安岭地区,科技局,,28,28,22,14,16,84,,77,77,6,7,6,8,0.3,0.3
2025-03-23T1600,3663A,124.1164,50.4278,大兴安岭地区,红旗社区,,28,19,16,6,7,88,,81,81,6,9,4,7,0.4,0.4
2025-03-23T1600,1600A,124.3303,40.0625,丹东市,江湾东路,细颗粒物(PM2.5),83,112,122,61,77,133,,116,116,23,35,12,16,0.6,1.4
2025-03-23T1600,1601A,124.4256,40.1503,丹东市,临江后街,颗粒物(PM10),100,150,121,60,65,125,,111,111,22,32,14,13,0.8,1.2
2025-03-23T1600,1602A,124.3933,40.1461,丹东市,元宝山,细颗粒物(PM2.5),80,108,104,59,60,124,,109,109,24,29,11,11,0.6,0.9
2025-03-23T1600,1603A,124.3633,40.1092,丹东市,民主桥,颗粒物(PM10),83,116,110,59,68,130,,110,110,20,40,11,12,0.6,1
2025-03-23T1600,3541A,109.5726,19.5167,儋州市,第一中学子站,,40,38,38,18,21,127,,110,110,9,10,5,5,0.6,0.6
2025-03-23T1600,3542A,109.5567,19.5187,儋州市,东坡学校子站,,45,35,37,23,20,143,,122,122,7,7,6,5,0.6,0.6
2025-03-23T1600,2616A,98.5842,24.428,德宏傣族景颇族自治州,德宏州监测站,,39,36,87,27,69,115,,51,51,8,28,6,8,0.6,0.9
2025-03-23T1600,3677A,98.5881,24.4368,德宏傣族景颇族自治州,芒市人民政府综合楼,颗粒物(PM10),51,52,94,22,65,117,,54,54,8,19,7,8,0.5,0.7
2025-03-23T1600,1901A,104.4239,31.1208,德阳市,东山公园,颗粒物(PM10),59,68,104,36,71,124,,78,78,17,50,3,7,0.4,0.7
2025-03-23T1600,1902A,104.3826,31.1317,德阳市,西小区,颗粒物(PM10),61,72,107,27,68,119,,87,87,21,50,4,8,0.6,0.9
2025-03-23T1600,1904A,104.3553,31.1091,德阳市,耐火材料厂,颗粒物(PM10),61,72,114,29,82,132,,86,86,17,60,5,10,0.3,0.7
2025-03-23T1600,3639A,104.4019,31.1244,德阳市,市教育局,颗粒物(PM10),58,65,97,25,77,127,,83,83,15,59,4,7,0.4,0.8
2025-03-23T1600,1622A,116.3032,37.4674,德州市,儿童乐园,颗粒物(PM10),134,217,136,44,35,117,,86,86,8,29,21,18,0.5,0.7
2025-03-23T1600,1624A,116.2991,37.4451,德州市,监理站,颗粒物(PM10),130,210,132,39,37,120,,87,87,10,33,20,23,0.5,0.6
2025-03-23T1600,3066A,116.2721,37.4379,德州市,九衢泉纯净水厂,颗粒物(PM10),128,205,126,41,36,115,,82,82,14,43,11,13,0.5,0.6
2025-03-23T1600,3371A,116.3728,37.4403,德州市,开发区人民医院,颗粒物(PM10),130,210,127,41,37,116,,85,85,8,28,6,12,0.3,0.4
2025-03-23T1600,3372A,116.3572,37.4094,德州市,太阳城中学,颗粒物(PM10),134,217,130,41,36,116,,86,86,10,34,7,8,0.4,0.5
2025-03-23T1600,3511A,116.5652,37.3319,德州市,陵城艺术中心,颗粒物(PM10),120,190,124,34,37,104,,76,76,19,37,8,9,0.5,0.6
2025-03-23T1600,2621A,99.7056,27.8317,迪庆藏族自治州,迪庆州站,,33,21,19,14,12,104,,109,109,8,9,8,8,0.3,0.4
2025-03-23T1600,3180A,99.7136,27.8094,迪庆藏族自治州,质量技术监督局,,35,24,19,11,11,109,,113,113,8,9,8,9,0.5,0.5
2025-03-23T1600,4257A,104.6092,35.5962,定西市,将台街,颗粒物(PM10),55,59,82,14,34,110,,90,90,8,20,7,9,0.4,0.7
2025-03-23T1600,4309A,104.6159,35.5701,定西市,正龙路62号,颗粒物(PM10),63,76,86,16,38,117,,108,108,3,7,8,9,0.2,0.3
2025-03-23T1600,1389A,113.7547,23.0494,东莞市,莞城梨川,臭氧1小时,123,75,72,45,42,246,,167,167,30,41,7,6,0.7,0.7
2025-03-23T1600,1390A,113.7944,23.0128,东莞市,东城石井,臭氧1小时,126,51,61,28,35,251,,182,182,24,35,8,7,0.6,0.6
2025-03-23T1600,1391A,113.7383,22.9658,东莞市,南城西平,臭氧1小时,121,57,61,35,32,241,,162,162,27,46,8,7,0.7,0.7
2025-03-23T1600,3319A,113.7338,23.0381,东莞市,万江金泰,臭氧1小时,135,71,63,39,34,270,,179,179,23,35,8,7,0.7,0.7
2025-03-23T1600,3626A,113.7533,23.0202,东莞市,南城元岭,臭氧1小时,117,72,65,38,37,234,,159,159,29,40,8,7,0.5,0.6
2025-03-23T1600,3627A,113.7875,23.0457,东莞市,东城主山,臭氧1小时,118,92,82,33,41,236,,162,162,32,52,10,9,0.6,0.6
2025-03-23T1600,1666A,118.6614,37.4309,东营市,市环保局,颗粒物(PM10),115,180,116,46,36,96,,82,82,27,36,9,10,0.5,0.6
2025-03-23T1600,3036A,118.6904,37.4338,东营市,开发区管委会,颗粒物(PM10),129,207,126,56,40,91,,77,77,39,45,8,9,0.6,0.7
2025-03-23T1600,3365A,118.5719,37.565,东营市,垦利区民丰路,颗粒物(PM10),137,224,122,48,38,98,,88,88,27,32,7,6,0.4,0.7
2025-03-23T1600,3498A,118.5055,37.8612,东营市,河口城区,颗粒物(PM10),126,202,127,46,34,100,,88,88,27,27,15,8,0.9,0.9
2025-03-23T1600,3646A,118.4978,37.4623,东营市,胜利站,颗粒物(PM10),119,187,118,48,37,93,,80,80,34,39,13,13,0.8,1
2025-03-23T1600,3734A,118.35,37.26,东营市,理想之城,颗粒物(PM10),134,217,123,53,42,98,,82,82,24,36,10,10,0.5,0.6
2025-03-23T1600,1591A,110.0023,39.8129,鄂尔多斯市,综合楼,颗粒物(PM10),500,637,350,114,67,104,,92,92,7,13,5,8,0.3,0.3
2025-03-23T1600,1592A,109.9486,39.8261,鄂尔多斯市,巴音孟克林场办事处,颗粒物(PM10),500,627,339,117,71,106,,98,98,6,9,6,12,0.3,0.4
2025-03-23T1600,1593A,109.7736,39.5986,鄂尔多斯市,康泽苑,颗粒物(PM10),500,810,303,144,62,105,,96,96,4,9,2,4,0.2,0.3
2025-03-23T1600,1594A,109.8119,39.5989,鄂尔多斯市,华泰汽车城,颗粒物(PM10),500,774,287,139,66,103,,94,94,6,13,3,4,0.3,0.3
2025-03-23T1600,1595A,109.9734,39.7884,鄂尔多斯市,奥林花园,颗粒物(PM10),500,620,311,100,59,98,,93,93,16,20,5,9,0.2,0.3
2025-03-23T1600,2436A,114.8938,30.3994,鄂州市,市政府,细颗粒物(PM2.5),122,133,97,92,62,68,,38,38,46,46,10,14,1.4,1.1
2025-03-23T1600,2437A,114.8989,30.3714,鄂州市,赵家坝,细颗粒物(PM2.5),99,108,82,74,44,49,,62,38,57,35,8,10,1.4,1.1
2025-03-23T1600,3654A,114.8094,30.4089,鄂州市,精准医疗中心,颗粒物(PM10),80,110,98,47,52,90,,60,45,37,48,4,7,0.9,0.9
2025-03-23T1600,2454A,109.4978,30.2981,恩施土家族苗族自治州,湖北民院,,44,44,54,30,51,111,,54,54,7,27,2,2,0.2,0.5
2025-03-23T1600,2455A,109.4707,30.2798,恩施土家族苗族自治州,州电力总公司,,49,48,52,34,44,105,,50,50,11,24,4,4,0.2,0.3
2025-03-23T1600,3549A,109.5061,30.3772,恩施土家族苗族自治州,龙凤新区,,48,43,56,33,43,105,,47,47,12,20,7,6,0.4,0.6
2025-03-23T1600,2499A,108.3411,21.6158,防城港市,沙万,颗粒物(PM10),53,55,49,29,31,101,,90,90,20,23,8,10,0.2,0.3
2025-03-23T1600,2500A,108.3514,21.7731,防城港市,防城档案局,颗粒物(PM10),54,57,78,29,40,119,,101,101,21,28,8,4,0.7,0.6
2025-03-23T1600,2501A,108.3506,21.6414,防城港市,大海花园,颗粒物(PM10),62,74,54,25,31,115,,94,94,12,17,6,9,0.5,0.6
2025-03-23T1600,1371A,113.1294,23.0067,佛山市,湾梁,臭氧1小时,125,80,79,32,30,249,,185,185,30,44,8,9,0.7,0.8
2025-03-23T1600,1372A,113.1083,23.0478,佛山市,华材职中,臭氧1小时,126,66,73,36,38,251,,195,195,30,43,8,7,0.4,0.6
2025-03-23T1600,1373A,113.144,23.0453,佛山市,南海气象局,臭氧1小时,122,90,71,42,39,244,,191,191,26,41,7,7,0.5,0.6
2025-03-23T1600,1374A,113.2881,22.8094,佛山市,顺德苏岗,臭氧1小时,118,79,71,34,35,236,,173,173,22,34,12,9,0.9,0.9
2025-03-23T1600,1376A,112.8383,22.8678,佛山市,高明孔堂,臭氧1小时,112,53,56,32,37,223,,167,167,17,20,7,7,0.4,0.4
2025-03-23T1600,1377A,112.8836,23.1588,佛山市,三水监测站,颗粒物(PM10),62,73,107,37,55,168,,124,124,26,82,4,5,0.5,0.6
2025-03-23T1600,1378A,112.867,23.185,佛山市,三水云东海,臭氧1小时,108,70,78,32,46,216,,157,157,27,62,5,9,0.4,0.6
2025-03-23T1600,3625A,113.2544,22.7642,佛山市,容桂街道办,臭氧1小时,111,70,70,39,39,221,,164,164,28,47,13,12,0.6,0.7
2025-03-23T1600,1280A,119.3903,26.0543,福州市,鼓山,,,,44,,23,,,131,,,9,,3,,0.4
2025-03-23T1600,1282A,119.2681,26.0504,福州市,师大,臭氧1小时,106,88,59,43,36,211,,154,154,21,25,7,6,0.6,0.4
2025-03-23T1600,1283A,119.2984,26.1028,福州市,五四北路,臭氧1小时,103,73,54,42,34,205,,147,147,22,32,7,5,0.7,0.6
2025-03-23T1600,1284A,119.2648,26.0768,福州市,杨桥西路,臭氧1小时,104,120,63,55,37,208,,152,152,27,31,8,6,0.7,0.5
2025-03-23T1600,1285A,119.317,26.0746,福州市,紫阳,颗粒物(PM10),75,100,68,43,38,162,,126,126,58,45,6,6,0.7,0.5
2025-03-23T1600,3048A,119.5799,26.0936,福州市,九龙,细颗粒物(PM2.5),64,52,46,46,31,163,,131,131,17,22,6,5,0.4,0.3
2025-03-23T1600,3526A,119.5189,25.9664,福州市,吴航,臭氧1小时,97,72,53,41,30,197,,144,144,19,32,8,7,0.6,0.6
2025-03-23T1600,1755A,123.7977,41.8491,抚顺市,望花区,颗粒物(PM10),87,124,222,59,156,172,,160,160,26,52,17,19,0.8,1.2
2025-03-23T1600,1756A,123.9161,41.8822,抚顺市,顺城区,颗粒物(PM10),79,108,210,42,141,171,,172,172,26,58,12,17,0.7,1.2
2025-03-23T1600,1757A,124.0436,41.8611,抚顺市,东洲区,颗粒物(PM10),71,92,169,27,125,143,,154,154,18,30,10,10,0.6,1
2025-03-23T1600,1758A,123.9247,41.8642,抚顺市,新抚区,颗粒物(PM10),79,107,207,44,157,157,,160,160,20,52,9,11,0.8,1.2
2025-03-23T1600,1759A,124.0972,41.8961,抚顺市,大伙房水库,颗粒物(PM10),59,68,154,27,130,140,,156,156,11,27,10,13,0.7,1
2025-03-23T1600,1760A,123.7086,41.8391,抚顺市,沈抚新城,臭氧1小时,84,116,206,61,152,187,,158,158,23,57,15,24,1.1,1.9
2025-03-23T1600,2376A,116.2127,28.0814,抚州市,桐源党溪,,47,47,47,20,23,123,,92,92,2,13,14,9,0.3,0.3
2025-03-23T1600,2377A,116.3544,27.9831,抚州市,市站,,44,44,55,20,26,108,,89,89,11,29,14,5,0.7,0.7
2025-03-23T1600,2378A,116.3565,27.963,抚州市,血防站,,46,46,52,20,22,118,,91,91,9,27,15,8,0.7,0.6
2025-03-23T1600,2379A,116.3564,28.0007,抚州市,采茶剧团,,45,45,51,20,24,97,,79,79,10,19,10,4,1.0,0.9
2025-03-23T1600,2380A,116.385,27.9647,抚州市,医学分院,,44,44,57,20,21,90,,71,71,10,30,11,9,0.8,0.8
2025-03-23T1600,2207A,121.6094,41.998,阜新市,工业园区,颗粒物(PM10),77,103,162,37,138,123,,142,142,11,41,8,57,0.4,1.3
2025-03-23T1600,2208A,121.6697,42.0279,阜新市,长青街,颗粒物(PM10),71,91,157,28,133,122,,140,140,12,32,9,57,0.4,1
2025-03-23T1600,2209A,121.6673,42.0705,阜新市,农业园区,颗粒物(PM10),73,96,158,31,116,126,,144,144,9,25,10,103,0.4,1.2
2025-03-23T1600,2210A,121.6717,42.0224,阜新市,东苑,颗粒物(PM10),80,109,160,29,139,118,,134,134,17,37,9,56,0.3,1
2025-03-23T1600,2211A,121.6506,42.0498,阜新市,玉龙新城,颗粒物(PM10),77,103,152,30,123,124,,142,142,11,39,10,29,0.4,2.1
2025-03-23T1600,2301A,115.8277,32.8929,阜阳市,市监测站,颗粒物(PM10),64,78,80,31,47,112,,99,99,18,30,9,9,0.4,0.6
2025-03-23T1600,2303A,115.8554,32.8605,阜阳市,开发区,颗粒物(PM10),71,92,105,36,48,118,,99,99,15,26,9,9,0.3,0.4
2025-03-23T1600,2875A,115.784,32.8892,阜阳市,阜阳职业技术学院,颗粒物(PM10),71,92,84,33,38,112,,95,95,16,30,8,9,0.4,0.5
2025-03-23T1600,3468A,115.7901,32.8613,阜阳市,市规划展馆,颗粒物(PM10),67,84,81,39,43,120,,104,104,16,20,9,9,0.4,0.3
2025-03-23T1600,3469A,115.836,32.9183,阜阳市,枣园社区,,,97,88,35,44,127,,115,115,11,33,9,8,,0.5
2025-03-23T1600,2669A,102.9099,34.9841,甘南藏族自治州,州政府,,34,34,69,14,26,94,,86,86,2,18,5,5,0.2,0.4
2025-03-23T1600,3380A,102.8914,34.9617,甘南藏族自治州,甘肃民族师范学院,,46,46,70,17,26,97,,95,95,2,16,7,7,0.2,0.3
2025-03-23T1600,2570A,101.9603,30.0475,甘孜藏族自治州,水桥子,,48,48,16,3,11,117,,62,62,12,27,4,3,0.5,0.5
2025-03-23T1600,3065A,101.9533,29.9972,甘孜藏族自治州,州环保局,,45,45,22,9,7,117,,82,82,6,21,4,4,0.2,0.3
2025-03-23T1600,3414A,115.8347,28.932,赣江新区,桑海产业园,颗粒物(PM10),63,75,74,28,30,64,,47,47,49,54,18,15,0.4,0.4
2025-03-23T1600,2362A,114.9017,25.9149,赣州市,通天岩,臭氧1小时,101,51,45,9,8,201,,161,161,5,7,19,15,0.6,0.6
2025-03-23T1600,2363A,114.9367,25.8664,赣州市,地委,臭氧1小时,59,58,55,31,27,167,,125,125,21,28,1,5,1.0,0.9
2025-03-23T1600,2364A,114.9461,25.8481,赣州市,气象台,臭氧1小时,104,55,58,29,25,208,,148,148,16,46,9,13,0.6,0.7
2025-03-23T1600,2365A,114.9322,25.8333,赣州市,市图书馆,,,60,58,26,28,195,,130,130,,43,,7,,0.8
2025-03-23T1600,2366A,114.8905,25.8471,赣州市,华坚鞋城,臭氧1小时,64,56,71,28,35,171,,136,136,38,48,12,18,0.6,0.8
2025-03-23T1600,3109A,115.0093,25.8613,赣州市,赣县区卫计委,臭氧1小时,90,60,51,32,28,192,,126,126,11,28,7,7,0.6,0.5
2025-03-23T1600,2683A,106.2319,36.1417,固原市,马园,颗粒物(PM10),137,224,169,21,38,100,,94,94,4,33,5,6,0.3,0.6
2025-03-23T1600,2684A,106.2792,36.0022,固原市,监测站,颗粒物(PM10),72,94,122,16,34,98,,96,96,6,22,6,8,0.2,0.5
2025-03-23T1600,2685A,106.2375,36.0211,固原市,新区,颗粒物(PM10),70,90,130,19,31,96,,94,94,4,22,6,7,0.4,0.5
2025-03-23T1600,3522A,106.2177,35.9959,固原市,原州区十五小,颗粒物(PM10),67,84,108,19,31,99,,96,96,6,14,5,7,0.1,0.3
2025-03-23T1600,2543A,106.6308,30.5278,广安市,小平旧居,,,,,,,,,,,,,,,,
2025-03-23T1600,2544A,106.6303,30.4576,广安市,市委,细颗粒物(PM2.5),73,71,122,53,102,141,,89,89,10,44,10,11,0.4,0.7
2025-03-23T1600,2545A,106.6271,30.4663,广安市,友谊中学,细颗粒物(PM2.5),73,77,125,53,90,146,,87,87,18,48,7,10,0.5,0.9
2025-03-23T1600,2547A,106.6388,30.4551,广安市,广电花园,细颗粒物(PM2.5),65,62,113,47,98,136,,85,85,15,44,8,11,0.5,0.7
2025-03-23T1600,2902A,106.6351,30.4865,广安市,北辰小学,细颗粒物(PM2.5),74,74,109,54,91,154,,89,89,15,41,11,10,0.5,0.8
2025-03-23T1600,2523A,105.8945,32.4535,广元市,黑石坡,颗粒物(PM10),60,69,68,3,33,103,,59,59,4,25,1,11,0.2,0.6
2025-03-23T1600,2524A,105.821,32.4444,广元市,老城,,36,25,57,10,29,114,,67,67,4,43,1,6,0.2,0.7
2025-03-23T1600,2526A,105.8628,32.4287,广元市,监测站,,36,28,45,9,30,114,,70,70,6,28,6,9,0.3,0.6
2025-03-23T1600,3617A,105.8047,32.4166,广元市,经开区,,44,44,65,19,43,93,,59,59,11,44,4,8,0.4,0.7
2025-03-23T1600,1345A,113.2347,23.1423,广州市,广雅中学,臭氧1小时,131,71,91,34,48,261,,182,182,25,62,5,7,0.6,0.6
2025-03-23T1600,1346A,113.2612,23.105,广州市,市五中,臭氧1小时,92,77,77,39,42,193,,158,158,20,52,4,6,0.4,0.6
2025-03-23T1600,1348A,113.3478,23.0916,广州市,广东商学院,臭氧1小时,134,68,80,40,42,268,,187,187,23,64,6,6,0.5,0.7
2025-03-23T1600,1349A,113.4332,23.1047,广州市,市八十六中,臭氧1小时,147,77,70,39,31,293,,193,193,36,74,8,6,0.5,0.5
2025-03-23T1600,1350A,113.3505,22.9483,广州市,番禺中学,臭氧1小时,147,80,76,35,38,293,,199,199,29,52,10,7,0.5,0.6
2025-03-23T1600,1351A,113.2146,23.3916,广州市,花都师范,臭氧1小时,144,98,125,54,65,288,,174,174,28,86,12,8,0.5,0.7
2025-03-23T1600,1352A,113.2597,23.1331,广州市,市监测站,臭氧1小时,124,78,74,32,36,248,,181,181,22,52,6,8,0.5,0.6
2025-03-23T1600,1353A,113.5618,23.312,广州市,九龙镇镇龙,臭氧1小时,119,74,97,36,53,237,,138,138,26,64,7,6,0.5,0.6
2025-03-23T1600,1354A,113.2765,23.1544,广州市,麓湖,臭氧1小时,130,69,78,39,42,259,,181,181,21,84,5,7,0.4,0.7
2025-03-23T1600,1355A,113.443,23.3035,广州市,帽峰山森林公园,臭氧1小时,133,65,63,20,16,265,,181,181,23,35,8,9,0.6,0.5
2025-03-23T1600,2846A,113.3221,23.1322,广州市,体育西,臭氧1小时,127,66,94,31,44,253,,188,188,9,53,6,6,0.5,0.7
2025-03-23T1600,3298A,113.5717,23.5491,广州市,从化街口,臭氧1小时,148,76,82,46,53,296,,206,206,25,43,10,9,0.6,0.7
2025-03-23T1600,3299A,113.3472,23.3692,广州市,白云竹料,臭氧1小时,146,91,123,45,61,292,,182,182,30,71,9,8,0.5,0.6
2025-03-23T1600,3300A,113.2981,23.237,广州市,白云嘉禾,臭氧1小时,143,88,88,45,43,285,,178,178,32,77,7,6,0.4,0.5
2025-03-23T1600,3301A,113.4256,23.1716,广州市,黄埔科学城,臭氧1小时,145,73,77,40,41,289,,187,187,24,61,9,8,0.4,0.6
2025-03-23T1600,3302A,113.3942,23.0483,广州市,番禺大学城,臭氧1小时,152,72,73,38,34,303,,202,202,28,55,12,11,0.4,0.4
2025-03-23T1600,3303A,113.4922,22.8168,广州市,南沙黄阁,臭氧1小时,100,89,66,38,32,200,,162,162,34,40,7,6,0.6,0.6
2025-03-23T1600,3304A,113.5342,22.7896,广州市,南沙街,臭氧1小时,98,76,62,26,28,198,,161,161,27,34,5,5,0.5,0.6
2025-03-23T1600,3443A,113.2902,23.5544,广州市,花都梯面,臭氧1小时,159,104,88,55,51,317,,192,192,32,67,,6,0.7,0.8
2025-03-23T1600,3445A,113.7858,23.7478,广州市,从化良口,臭氧1小时,105,62,50,46,36,210,,176,176,24,17,,7,0.4,0.5
2025-03-23T1600,3446A,113.8051,23.2614,广州市,增城荔城,臭氧1小时,133,79,79,50,48,266,,189,189,26,33,11,9,0.7,0.7
2025-03-23T1600,2505A,109.568,23.1478,贵港市,德智高中,,,,,,,,,,,,,,,,
2025-03-23T1600,2506A,109.6047,23.0666,贵港市,江南子站,臭氧1小时,92,70,112,31,69,193,,156,156,18,32,6,8,0.8,1
2025-03-23T1600,2507A,109.6014,23.0948,贵港市,贵城子站,臭氧1小时,83,57,99,33,64,186,,154,154,13,31,9,12,0.7,0.9
2025-03-23T1600,2508A,109.5669,23.1065,贵港市,荷城子站,颗粒物(PM10),53,56,103,34,67,155,,131,131,14,37,11,13,0.6,0.8
2025-03-23T1600,3405A,109.5886,23.1172,贵港市,新世纪学校,臭氧1小时,68,61,102,39,67,174,,147,147,11,34,8,7,0.5,0.7
2025-03-23T1600,1439A,106.6899,26.5998,贵阳市,马鞍山,颗粒物(PM10),58,66,57,24,33,123,,105,105,8,10,6,9,0.3,0.4
2025-03-23T1600,1441A,106.6243,26.6266,贵阳市,鉴湖路,颗粒物(PM10),57,63,65,29,33,113,,97,97,5,11,7,9,0.4,0.4
2025-03-23T1600,1442A,106.7487,26.6343,贵阳市,燕子冲,细颗粒物(PM2.5),62,70,64,44,45,129,,107,107,14,16,8,11,0.4,0.5
2025-03-23T1600,1443A,106.6555,26.4365,贵阳市,碧云窝,颗粒物(PM10),73,95,75,41,35,130,,106,106,14,16,9,12,0.6,0.5
2025-03-23T1600,1445A,106.7109,26.6027,贵阳市,红边门,颗粒物(PM10),63,75,68,39,42,127,,107,107,12,16,5,10,0.3,0.4
2025-03-23T1600,1446A,106.7164,26.5699,贵阳市,新华路,,,,63,,38,122,,105,105,8,14,14,50,0.5,0.4
2025-03-23T1600,1447A,106.674,26.5424,贵阳市,太慈桥,颗粒物(PM10),60,70,62,29,34,129,,104,104,14,19,10,12,0.3,0.4
2025-03-23T1600,1552A,106.805,26.3003,贵阳市,桐木岭,颗粒物(PM10),71,92,77,39,48,131,,102,102,9,10,22,26,0.5,0.6
2025-03-23T1600,4230A,106.6882,26.5695,贵阳市,花果园大街66号,颗粒物(PM10),59,68,58,41,44,111,,94,94,13,17,6,9,0.6,0.6
2025-03-23T1600,4231A,106.6873,26.5169,贵阳市,漓江路57号,颗粒物(PM10),65,80,66,39,37,116,,95,95,13,17,11,14,0.4,0.4
2025-03-23T1600,1862A,110.4144,25.3167,桂林市,电子科大尧山校区,,,,,,,,,,,,,,,,
2025-03-23T1600,1864A,110.3089,25.2708,桂林市,龙隐路小学,臭氧1小时,92,65,81,38,67,193,,140,140,11,33,12,13,0.9,1.1
2025-03-23T1600,1865A,110.2869,25.2178,桂林市,八中,臭氧1小时,85,66,90,46,63,188,,135,135,15,37,11,11,0.7,0.8
2025-03-23T1600,3531A,110.296,25.1253,桂林市,旅游学院,臭氧1小时,85,53,88,34,61,188,,140,140,10,27,11,12,0.5,0.6
2025-03-23T1600,4222A,110.1835,25.2444,桂林市,环湖路276号,臭氧1小时,80,63,88,44,63,184,,128,128,11,45,8,9,0.5,0.6
2025-03-23T1600,4301A,110.2803,25.2773,桂林市,信义路13号,臭氧1小时,95,61,88,39,72,196,,136,136,11,42,14,17,0.6,0.9
2025-03-23T1600,2674A,100.2561,34.4714,果洛藏族自治州,玛沁县大武镇,,33,31,61,15,22,105,,104,103,2,2,14,15,0.3,0.4
2025-03-23T1600,1129A,126.5422,45.755,哈尔滨市,岭北,,33,28,20,16,14,105,,103,103,16,21,8,16,0.5,1.1
2025-03-23T1600,1130A,126.561,45.8167,哈尔滨市,松北商大,,33,32,27,19,12,105,,93,93,9,23,6,7,0.5,0.5
2025-03-23T1600,1131A,126.979,45.5419,哈尔滨市,阿城会宁,,32,32,40,3,22,97,,87,87,5,25,12,5,0.5,0.8
2025-03-23T1600,1132A,126.599,45.7222,哈尔滨市,南岗学府路,,50,49,31,35,12,96,,88,88,17,17,10,7,0.7,0.6
2025-03-23T1600,1133A,126.689,45.7733,哈尔滨市,太平宏伟公园,,45,45,34,21,18,95,,89,89,15,22,7,7,0.6,0.8
2025-03-23T1600,1134A,126.635,45.7667,哈尔滨市,道外承德广场,颗粒物(PM10),53,55,40,17,24,91,,88,88,20,24,7,7,0.5,0.7
2025-03-23T1600,1135A,126.685,45.7319,哈尔滨市,香坊红旗大街,颗粒物(PM10),51,51,35,13,18,99,,94,94,13,18,10,10,0.5,0.6
2025-03-23T1600,1136A,126.6411,45.7258,哈尔滨市,动力和平路,,36,30,23,25,11,95,,88,88,11,14,14,9,0.6,0.5
2025-03-23T1600,1137A,126.593,45.7478,哈尔滨市,道里建国路,,46,46,24,27,14,95,,86,86,17,16,12,8,0.6,0.5
2025-03-23T1600,1138A,126.615,45.61,哈尔滨市,平房东轻厂,颗粒物(PM10),52,54,43,24,24,98,,93,93,9,30,8,10,0.5,0.7
2025-03-23T1600,1139A,126.595,45.9855,哈尔滨市,呼兰师专,,34,34,29,11,18,87,,78,78,15,26,8,7,0.3,0.5
2025-03-23T1600,1140A,126.6206,45.6842,哈尔滨市,省农科院,,49,49,33,28,19,95,,88,88,17,26,7,9,0.5,0.6
2025-03-23T1600,2688A,93.5128,42.8172,哈密市,地区监测站,颗粒物(PM10),419,519,579,158,111,86,,58,58,6,41,4,5,0.2,0.4
2025-03-23T1600,2689A,93.4961,42.8328,哈密市,哈密师范学校,颗粒物(PM10),256,389,449,205,132,89,,56,56,9,49,7,5,0.1,0.5
2025-03-23T1600,2671A,100.9048,36.9639,海北藏族自治州,海晏县西海镇,,37,37,56,18,20,99,,93,93,1,2,7,8,0.1,0.4
2025-03-23T1600,3867A,102.0738,36.5056,海东市,平安区公安北苑,,44,44,95,12,32,106,,82,82,3,22,9,10,0.6,0.7
2025-03-23T1600,1409A,110.576,19.9507,海口市,东寨港,,,,,,,,,,,,,,,,
2025-03-23T1600,1410A,110.3232,20.0574,海口市,海南大学,,34,27,42,13,22,108,,104,104,5,10,2,2,0.3,0.4
2025-03-23T1600,1411A,110.283,20.0053,海口市,秀英海南医院,,35,35,39,15,21,106,,104,104,8,13,4,4,0.3,0.4
2025-03-23T1600,1412A,110.338,19.9969,海口市,海南师范大学,,37,32,39,11,20,118,,114,114,2,7,3,3,0.4,0.5
2025-03-23T1600,1413A,110.33,20.0356,海口市,龙华路环保局宿舍,,35,33,39,12,22,111,,108,108,2,5,4,4,0.3,0.4
2025-03-23T1600,3539A,110.5111,19.9736,海口市,桂林洋子站,,37,22,42,14,24,117,,110,110,4,8,3,3,0.3,0.4
2025-03-23T1600,2673A,100.6188,36.2866,海南藏族自治州,共和县恰卜恰镇,颗粒物(PM10),66,81,79,20,29,106,,96,96,1,10,14,13,0.4,0.4
2025-03-23T1600,2676A,97.3731,37.3753,海西蒙古族藏族自治州,德令哈市,颗粒物(PM10),73,96,71,12,19,110,,99,99,3,5,12,11,0.4,0.5
2025-03-23T1600,1048A,114.5302,36.6116,邯郸市,东污水处理厂,颗粒物(PM10),129,207,97,46,29,108,,86,86,11,29,3,9,0.2,0.7
2025-03-23T1600,1049A,114.4918,36.5713,邯郸市,矿院,颗粒物(PM10),131,212,114,56,26,102,,78,78,4,23,4,8,0.4,0.6
2025-03-23T1600,1050A,114.484,36.6133,邯郸市,丛台公园,颗粒物(PM10),126,202,117,52,31,104,,78,78,7,27,3,11,0.3,0.8
2025-03-23T1600,3458A,114.7895,36.5593,邯郸市,香泉濮院小区,颗粒物(PM10),149,248,116,48,25,120,,93,93,1,19,5,11,0.6,0.5
2025-03-23T1600,3579A,114.50634,36.77178,邯郸市,永年区实验高中,颗粒物(PM10),111,171,113,48,30,104,,86,86,1,21,5,20,0.5,1.2
2025-03-23T1600,3580A,114.20016,36.44293,邯郸市,峰峰矿区临水派出所,,,,39,63,30,116,,104,104,4,9,12,14,0.4,0.6
2025-03-23T1600,2634A,106.9893,33.1842,汉中市,汉川机床厂子校,颗粒物(PM10),79,108,52,49,29,127,,109,109,4,8,9,9,0.4,0.5
2025-03-23T1600,2635A,107.0154,33.0706,汉中市,市监测站,颗粒物(PM10),62,74,58,26,35,111,,92,92,6,24,5,7,0.4,0.8
2025-03-23T1600,2636A,107.0089,33.1138,汉中市,鑫源开发区,颗粒物(PM10),68,86,60,26,32,110,,96,96,8,26,4,8,0.4,0.7
2025-03-23T1600,2637A,107.007,33.0323,汉中市,南郑大河坎水厂,颗粒物(PM10),68,85,60,28,33,118,,97,97,6,25,5,6,0.3,0.6
2025-03-23T1600,1223A,120.2072,30.2111,杭州市,滨江,颗粒物(PM10),53,55,59,22,35,160,,127,127,12,40,8,8,0.3,0.5
2025-03-23T1600,1224A,120.0633,30.2747,杭州市,西溪,,50,50,49,26,27,152,,123,123,10,30,7,7,0.3,0.4
2025-03-23T1600,1226A,120.3417,30.3150,杭州市,下沙,颗粒物(PM10),51,52,67,22,30,150,,120,120,16,57,7,7,0.4,0.5
2025-03-23T1600,1227A,120.1269,30.2456,杭州市,卧龙桥,,49,49,42,30,25,154,,120,120,11,29,8,6,0.2,0.2
2025-03-23T1600,1228A,120.1903,30.2692,杭州市,浙江农大,,48,44,66,23,36,151,,117,117,13,51,4,4,0.4,0.5
2025-03-23T1600,1230A,120.1197,30.3119,杭州市,和睦小学,,47,46,59,28,35,149,,126,126,15,49,8,8,0.5,0.7
2025-03-23T1600,1231A,120.3019,30.4183,杭州市,临平镇,颗粒物(PM10),53,56,75,20,34,154,,124,124,17,65,6,7,0.3,0.5
2025-03-23T1600,1232A,120.2753,30.1839,杭州市,城厢镇,颗粒物(PM10),52,53,61,26,34,157,,131,131,21,44,8,9,0.4,0.5
2025-03-23T1600,1233A,120.0883,30.1808,杭州市,云栖,颗粒物(PM10),51,52,45,25,21,138,,112,112,33,40,9,8,0.4,0.4
2025-03-23T1600,3557A,119.9464,30.0494,杭州市,镇二中,,44,43,45,24,30,138,,110,110,18,45,7,8,0.4,0.6
2025-03-23T1600,3558A,119.7183,30.2367,杭州市,市府大楼,颗粒物(PM10),51,51,50,25,28,138,,118,118,16,30,10,9,0.5,0.5
2025-03-23T1600,3656A,120.1556,30.2864,杭州市,消防大队,,50,50,58,24,34,157,,124,124,17,44,8,7,0.4,0.5
2025-03-23T1600,1270A,117.1959,31.7848,合肥市,明珠广场,,44,44,76,19,36,115,,93,93,23,55,4,6,0.3,0.4
2025-03-23T1600,1271A,117.3072,31.8764,合肥市,三里街,颗粒物(PM10),54,58,108,22,46,103,,70,70,26,71,6,8,0.4,0.9
2025-03-23T1600,1272A,117.2588,31.8707,合肥市,琥珀山庄,,48,48,83,23,46,119,,90,90,12,53,2,3,0.3,0.8
2025-03-23T1600,1273A,117.1604,31.9052,合肥市,董铺水库,,48,48,77,22,27,125,,104,104,10,51,3,3,0.3,0.4
2025-03-23T1600,1274A,117.25,31.8571,合肥市,长江中路,,,44,79,,43,122,,98,98,16,57,,9,,0.5
2025-03-23T1600,1275A,117.266,31.9436,合肥市,庐阳区,颗粒物(PM10),58,66,78,19,31,126,,100,100,14,47,6,7,0.2,0.4
2025-03-23T1600,1276A,117.3453,31.8616,合肥市,瑶海区,颗粒物(PM10),56,61,88,12,35,115,,76,76,10,68,8,8,0.3,0.6
2025-03-23T1600,1277A,117.3027,31.7964,合肥市,包河区,,48,48,81,19,38,117,,93,93,13,76,4,5,0.4,0.7
2025-03-23T1600,1278A,117.2776,31.7385,合肥市,滨湖新区,,48,48,83,22,41,110,,83,83,21,66,10,11,0.4,0.5
2025-03-23T1600,1279A,117.1318,31.8403,合肥市,高新区,,48,48,70,19,31,126,,102,102,8,44,2,3,0.5,0.6
2025-03-23T1600,3464A,117.3803,31.9147,合肥市,高教基地,颗粒物(PM10),55,59,88,23,40,121,,86,86,20,59,9,9,0.3,0.5
2025-03-23T1600,3614A,79.924,37.0877,和田地区,地区环保局,颗粒物(PM10),57,63,117,21,20,99,,81,81,8,12,3,2,0.7,0.7
2025-03-23T1600,3615A,79.9131,37.113,和田地区,市环保局,,34,32,94,9,13,106,,86,86,4,12,3,2,0.5,0.6
2025-03-23T1600,2516A,108.2011,24.715,河池市,东仁乐园,臭氧1小时,80,72,89,42,64,184,,130,130,11,46,11,10,0.6,0.8
2025-03-23T1600,2517A,108.0497,24.6947,河池市,市环保站,臭氧1小时,73,60,70,36,47,178,,136,136,12,26,9,8,0.6,0.7
2025-03-23T1600,2518A,108.0983,24.6989,河池市,市疾控中心,臭氧1小时,85,38,79,36,59,188,,131,131,8,40,10,10,0.6,0.7
2025-03-23T1600,1696A,114.6778,23.7569,河源市,源西,臭氧1小时,105,70,70,34,37,210,,156,156,13,47,6,6,0.8,0.9
2025-03-23T1600,1697A,114.6944,23.7586,河源市,东埔,臭氧1小时,109,63,71,30,34,218,,168,168,18,43,6,6,0.6,0.7
2025-03-23T1600,1698A,114.6892,23.7233,河源市,老城,臭氧1小时,109,61,60,31,37,218,,166,166,14,31,7,6,0.5,0.5
2025-03-23T1600,1718A,115.4208,35.2464,菏泽市,气象局,颗粒物(PM10),121,192,120,45,43,104,,79,79,13,28,4,6,0.4,0.5
2025-03-23T1600,3374A,115.5564,35.0891,菏泽市,定陶老年大学,颗粒物(PM10),137,224,119,46,41,103,,80,80,17,29,5,7,0.4,0.5
2025-03-23T1600,4184A,115.4797,35.24401,菏泽市,永昌路1号,颗粒物(PM10),140,230,134,44,44,107,,84,84,11,24,,8,0.3,0.4
2025-03-23T1600,4193A,115.4715,35.2800,菏泽市,长城路999号,颗粒物(PM10),123,195,117,36,34,92,,72,72,16,30,7,9,0.5,0.6
2025-03-23T1600,2514A,111.5264,24.4172,贺州市,环保小区,臭氧1小时,103,65,78,52,56,206,,161,161,13,28,11,17,0.6,0.7
2025-03-23T1600,2515A,111.5608,24.4078,贺州市,政协大楼,臭氧1小时,101,48,69,44,51,201,,151,151,14,28,11,23,0.7,0.7
2025-03-23T1600,3534A,111.4744,24.4553,贺州市,西湾,臭氧1小时,83,65,76,47,54,186,,147,147,19,39,9,10,0.6,0.8
2025-03-23T1600,2385A,114.17,35.9019,鹤壁市,市监测站,颗粒物(PM10),141,232,119,43,31,114,,94,94,11,22,6,8,0.3,0.4
2025-03-23T1600,2386A,114.2956,35.7511,鹤壁市,市交警支队,颗粒物(PM10),129,208,108,33,25,116,,69,69,7,29,6,8,0,0.3
2025-03-23T1600,2387A,114.2878,35.7306,鹤壁市,迎宾馆,颗粒物(PM10),187,324,125,32,22,122,,71,71,2,18,4,5,0.4,0.4
2025-03-23T1600,3474A,114.2617,35.6822,鹤壁市,大新区,颗粒物(PM10),138,226,112,49,35,118,,54,54,14,40,7,8,0.5,0.5
2025-03-23T1600,3596A,114.1572,35.9603,鹤壁市,南山宾馆,颗粒物(PM10),143,235,128,42,36,119,,102,102,1,12,3,9,0.3,0.4
2025-03-23T1600,2244A,130.2537,47.3416,鹤岗市,哈啤分公司,,24,21,17,15,15,74,,72,72,7,4,16,15,0.3,0.3
2025-03-23T1600,2245A,130.2684,47.3086,鹤岗市,斯达机电,,25,25,22,10,14,78,,74,74,2,3,14,14,0.3,0.3
2025-03-23T1600,2246A,130.3114,47.3388,鹤岗市,东山纸板厂,,30,24,26,21,18,72,,72,72,12,8,14,19,0.1,0.4
2025-03-23T1600,2247A,130.1097,47.3382,鹤岗市,五号水库,,,,,,,,,,,,,,,,
2025-03-23T1600,2263A,127.4833,50.2524,黑河市,交通局,,25,21,19,13,12,77,,71,71,8,9,6,6,0.3,0.3
2025-03-23T1600,2264A,127.5144,50.2341,黑河市,环保局,,25,8,21,7,15,78,,76,76,5,10,4,4,0.3,0.3
2025-03-23T1600,2265A,127.5291,50.2472,黑河市,大黑河岛,,,14,16,3,7,68,,64,64,5,12,1,3,,
2025-03-23T1600,1074A,115.6838,37.7541,衡水市,电机北厂,颗粒物(PM10),136,222,121,54,37,124,,91,91,8,22,14,13,0.3,0.4
2025-03-23T1600,1075A,115.6303,37.7316,衡水市,市监测站,颗粒物(PM10),120,189,110,56,37,123,,87,87,6,24,13,13,0.3,0.4
2025-03-23T1600,3188A,115.6683,37.7217,衡水市,市城管局,颗粒物(PM10),133,215,123,72,42,121,,83,83,8,27,13,12,0.3,0.4
2025-03-23T1600,3459A,115.5989,37.5491,衡水市,地表水厂,颗粒物(PM10),127,203,128,51,38,134,,103,103,8,29,11,14,0.2,0.3
2025-03-23T1600,2456A,112.5003,26.9167,衡阳市,原169医院,细颗粒物(PM2.5),69,86,76,50,43,83,,60,60,29,45,23,19,0.5,0.6
2025-03-23T1600,2457A,112.6194,26.9258,衡阳市,衡阳化工总厂,细颗粒物(PM2.5),87,96,93,64,60,106,,71,71,25,34,22,14,0.8,0.8
2025-03-23T1600,2458A,112.6211,26.8956,衡阳市,珠晖区环保局,细颗粒物(PM2.5),83,92,85,61,55,98,,79,79,32,41,30,15,1.0,1
2025-03-23T1600,2459A,112.6197,26.8733,衡阳市,市委党校,细颗粒物(PM2.5),79,94,84,58,54,99,,79,79,37,39,34,15,1.0,0.9
2025-03-23T1600,2460A,112.6006,26.8919,衡阳市,市监测站,,,,101,,70,,,107,,,54,,11,,1.3
2025-03-23T1600,2461A,112.5664,26.9056,衡阳市,真空机电公司,细颗粒物(PM2.5),84,111,92,62,56,96,,68,68,36,54,30,17,1.0,1.1
2025-03-23T1600,3399A,112.6703,26.882,衡阳市,师范学院,细颗粒物(PM2.5),89,106,89,66,57,103,,86,86,37,33,31,16,0.9,0.8
2025-03-23T1600,2608A,103.3772,23.3993,红河哈尼族彝族自治州,污水处理厂,细颗粒物(PM2.5),62,69,82,44,65,138,,118,118,7,14,8,15,0.4,0.6
2025-03-23T1600,2609A,103.3861,23.35,红河哈尼族彝族自治州,监测站,细颗粒物(PM2.5),69,65,84,50,58,148,,130,130,6,12,9,12,0.3,0.5
2025-03-23T1600,3038A,103.3758,23.368,红河哈尼族彝族自治州,州图书馆,细颗粒物(PM2.5),63,,75,45,59,143,,126,126,6,12,6,11,0.4,0.5
2025-03-23T1600,1090A,111.6507,40.7517,呼和浩特市,呼市一监,颗粒物(PM10),430,530,242,116,74,104,,72,72,9,23,11,12,0.7,0.8
2025-03-23T1600,1091A,111.6572,40.8033,呼和浩特市,小召,颗粒物(PM10),488,588,240,114,63,101,,71,71,17,36,6,8,0.4,0.5
2025-03-23T1600,1094A,111.7516,40.8369,呼和浩特市,如意水处理厂,颗粒物(PM10),387,489,194,125,64,100,,68,68,11,38,10,11,0.4,0.5
2025-03-23T1600,1095A,111.7276,40.8062,呼和浩特市,二十九中,颗粒物(PM10),484,584,211,118,65,103,,69,69,15,37,8,8,0.5,0.6
2025-03-23T1600,1096A,111.5512,40.7866,呼和浩特市,工大金川校区,颗粒物(PM10),500,605,206,125,65,105,,72,72,12,35,11,12,0.6,0.6
2025-03-23T1600,1097A,111.717,40.7612,呼和浩特市,化肥厂生活区,颗粒物(PM10),431,531,238,110,67,106,,76,76,14,30,11,11,0.4,0.5
2025-03-23T1600,3698A,111.5968,40.8178,呼和浩特市,红旗小学,颗粒物(PM10),500,617,209,131,59,109,,72,72,15,47,9,8,0.6,0.6
2025-03-23T1600,3699A,111.6518,40.8389,呼和浩特市,海东办,颗粒物(PM10),500,654,222,136,61,102,,70,70,11,35,10,9,0.5,0.6
2025-03-23T1600,2192A,119.7594,49.2261,呼伦贝尔市,区环保局,,47,47,27,24,18,86,,76,76,7,11,6,6,0.3,0.3
2025-03-23T1600,3061A,119.7512,49.1577,呼伦贝尔市,国华电力东,,45,45,27,19,12,89,,82,82,5,6,4,4,0.4,0.4
2025-03-23T1600,1250A,120.0751,30.8669,湖州市,城西水厂,颗粒物(PM10),55,59,67,29,32,121,,100,100,48,82,8,10,0.2,0.3
2025-03-23T1600,2873A,120.0830,30.8929,湖州市,仁皇山新区,颗粒物(PM10),53,56,65,27,30,151,,122,122,17,57,5,8,0.4,0.5
2025-03-23T1600,2907A,120.1844,30.8596,湖州市,吴兴区站,颗粒物(PM10),54,58,64,33,34,162,,124,124,12,54,8,10,0.3,0.3
2025-03-23T1600,3562A,120.4148,30.8538,湖州市,南浔区站,臭氧1小时,52,50,76,26,39,161,,133,133,16,45,5,6,0.2,0.4
2025-03-23T1600,1607A,120.9049,40.7211,葫芦岛市,龙港区,颗粒物(PM10),82,114,125,42,69,66,,90,90,44,50,15,88,0.9,1.3
2025-03-23T1600,1608A,120.8392,40.7514,葫芦岛市,化工街,颗粒物(PM10),82,114,138,51,66,86,,95,95,38,57,22,40,0.8,1
2025-03-23T1600,1609A,120.8341,40.7073,葫芦岛市,新区,,,,116,39,74,59,,90,90,45,62,12,74,0.8,1.3
2025-03-23T1600,1610A,120.8695,40.7677,葫芦岛市,东城区,细颗粒物(PM2.5),72,75,133,52,74,101,,102,102,42,63,15,30,1.0,1.2
2025-03-23T1600,2482A,109.5981,27.5721,怀化市,林科所,,,,,68,68,93,,,,7,7,,,9.1,9.1
2025-03-23T1600,2483A,109.9453,27.5444,怀化市,河西地税局,"颗粒物(PM10),细颗粒物(PM2.5)",55,59,58,39,43,90,,51,51,9,19,8,10,0.4,0.5
2025-03-23T1600,2484A,109.9781,27.5342,怀化市,市四医院,颗粒物(PM10),58,65,75,37,49,88,,49,49,10,31,6,13,0.5,0.6
2025-03-23T1600,2485A,109.9972,27.5578,怀化市,监测楼,,49,49,69,30,42,84,,47,47,8,29,9,14,0.3,0.5
2025-03-23T1600,2486A,110.0394,27.583,怀化市,市委党校,,50,50,69,17,46,93,,52,52,7,27,4,13,0.4,0.5
2025-03-23T1600,1210A,119.036,33.5981,淮安市,钵池山,颗粒物(PM10),74,97,83,44,36,138,,112,112,16,24,15,17,1.1,1.3
2025-03-23T1600,1211A,119.007,33.575,淮安市,北京南路,颗粒物(PM10),82,114,86,47,38,128,,101,101,33,39,24,20,1.9,1.6
2025-03-23T1600,1212A,118.989,33.6067,淮安市,市监测站,颗粒物(PM10),74,97,76,39,34,144,,116,116,20,26,11,11,0.8,0.8
2025-03-23T1600,1213A,119.135,33.5039,淮安市,楚州区监测站,颗粒物(PM10),88,125,91,48,35,137,,115,115,15,35,11,10,0.5,0.4
2025-03-23T1600,3426A,118.8755,33.2894,淮安市,新华书店,颗粒物(PM10),69,88,77,47,39,133,,128,128,19,21,11,10,0.9,0.8
2025-03-23T1600,4206A,119.0288,33.6319,淮安市,承德北路606号,颗粒物(PM10),78,105,86,48,69,134,,114,114,21,26,11,10,0.6,0.6
2025-03-23T1600,2282A,116.8004,33.975,淮北市,监测站,颗粒物(PM10),89,127,104,56,46,105,,92,92,22,30,11,11,0.6,0.7
2025-03-23T1600,2283A,116.8091,33.9007,淮北市,烈山区政府,颗粒物(PM10),83,115,116,49,54,109,,97,97,24,44,10,13,0.8,0.8
2025-03-23T1600,3330A,116.8873,33.9836,淮北市,杜集区检察院,颗粒物(PM10),87,124,117,62,52,114,,101,101,23,32,12,12,0.8,0.8
2025-03-23T1600,4017A,116.7923,33.9535,淮北市,市博物馆,颗粒物(PM10),90,129,118,58,54,109,,93,93,21,32,13,13,0.9,0.9
2025-03-23T1600,2277A,116.8305,32.7727,淮南市,潘集区政府,颗粒物(PM10),75,100,97,47,49,124,,113,113,16,25,8,8,0.5,0.5
2025-03-23T1600,2279A,116.8569,32.5951,淮南市,谢家集区政府,颗粒物(PM10),74,98,85,50,39,117,,101,101,19,21,8,9,0.5,0.5
2025-03-23T1600,2280A,116.8281,32.633,淮南市,八公山区政府,颗粒物(PM10),69,87,74,44,36,124,,117,117,8,8,8,8,0.3,0.3
2025-03-23T1600,2281A,116.6325,32.6201,淮南市,焦岗湖风景区管理处,颗粒物(PM10),60,70,68,35,30,86,,71,71,8,14,9,8,0.6,0.6
2025-03-23T1600,2894A,117.0566,32.6531,淮南市,经济技术开发区消防队,颗粒物(PM10),74,97,80,42,33,133,,123,123,12,17,8,9,0.3,0.4
2025-03-23T1600,3329A,117.0108,32.5893,淮南市,山南新区,细颗粒物(PM2.5),85,116,89,63,42,122,,112,112,16,13,12,10,0.8,0.6
2025-03-23T1600,4209A,117.0031,32.6445,淮南市,国庆中路369号,颗粒物(PM10),73,95,86,52,41,124,,114,114,18,21,12,12,0.5,0.6
2025-03-23T1600,2446A,114.9028,30.4742,黄冈市,职工中心,细颗粒物(PM2.5),93,91,71,69,52,73,,52,52,45,43,12,10,0.9,0.8
2025-03-23T1600,2929A,114.8858,30.4519,黄冈市,红卫路,细颗粒物(PM2.5),88,90,75,65,49,78,,55,55,45,35,12,11,1.0,0.9
2025-03-23T1600,3398A,114.9136,30.4445,黄冈市,市林业局,细颗粒物(PM2.5),93,99,81,69,51,81,,52,52,49,44,13,14,0.9,0.8
2025-03-23T1600,2672A,102.0199,35.5102,黄南藏族自治州,同仁县隆务镇,,39,39,81,13,22,102,,98,98,1,2,11,13,0.2,0.2
2025-03-23T1600,2295A,118.2903,29.6963,黄山市,延安路89号,,45,45,47,22,27,134,,84,84,11,14,6,5,0.3,0.3
2025-03-23T1600,2297A,118.1371,30.2756,黄山市,黄山区政府5号楼,颗粒物(PM10),52,53,64,25,38,132,,85,85,6,11,11,9,0.5,0.6
2025-03-23T1600,4210A,118.3354,29.7203,黄山市,滨江东路7-2号,颗粒物(PM10),53,55,54,26,26,120,,83,83,9,15,6,5,0.4,0.4
2025-03-23T1600,2423A,115.0601,30.2313,黄石市,沈家营,细颗粒物(PM2.5),108,129,79,81,49,38,,36,36,72,46,16,12,1.0,0.8
2025-03-23T1600,2426A,114.8988,30.2019,黄石市,铁山,"颗粒物(PM10),细颗粒物(PM2.5)",68,86,96,49,53,74,,46,38,40,44,13,13,0.5,0.4
2025-03-23T1600,2427A,115.0307,30.2092,黄石市,团城山,颗粒物(PM10),73,95,72,49,40,64,,46,46,56,52,7,14,0.8,0.8
2025-03-23T1600,3149A,115.0235,30.1578,黄石市,笔架山北路,颗粒物(PM10),65,80,62,45,42,44,,69,54,58,34,11,14,1.0,0.9
2025-03-23T1600,4185A,115.0780,30.21118,黄石市,磁湖东路29号,细颗粒物(PM2.5),99,124,92,74,53,57,,35,35,73,60,14,12,1.0,0.9
2025-03-23T1600,1392A,114.4183,23.0528,惠州市,河南岸金山湖子站,臭氧1小时,115,65,56,41,31,230,,159,159,22,28,10,11,0.6,0.6
2025-03-23T1600,1393A,114.4053,23.0822,惠州市,下埔横江三路子站,臭氧1小时,127,66,57,31,30,254,,176,176,21,25,9,11,0.5,0.5
2025-03-23T1600,1394A,114.4103,23.1142,惠州市,江北云山西路子站,臭氧1小时,137,67,56,34,29,274,,187,187,24,26,10,12,,0.4
2025-03-23T1600,1395A,114.4645,22.7833,惠州市,惠阳区承修路船湖子站,臭氧1小时,54,41,54,19,26,163,,144,144,19,35,10,10,0.5,0.6
2025-03-23T1600,1396A,114.5317,22.7422,惠州市,大亚湾管委会子站,,50,43,46,15,19,157,,136,136,18,36,8,8,0.4,0.5
2025-03-23T1600,3314A,114.4338,22.8134,惠州市,惠阳秋长,臭氧1小时,77,56,60,23,28,181,,164,164,16,37,12,13,0.6,0.6
2025-03-23T1600,3452A,114.6517,22.775,惠州市,大亚湾霞涌,颗粒物(PM10),53,56,38,16,17,160,,144,144,13,20,5,6,0.3,0.3
2025-03-23T1600,2240A,130.9762,45.3001,鸡西市,环保局,,31,16,22,7,11,97,,89,89,4,10,6,7,0.3,0.3
2025-03-23T1600,2243A,130.9429,45.3039,鸡西市,第一中学,,31,12,11,3,7,98,,89,89,3,5,6,6,0.2,0.2
2025-03-23T1600,3707A,131.0207,45.3073,鸡西市,欧美日汽修厂,,34,26,33,11,16,107,,96,96,3,11,7,9,0.3,0.4
2025-03-23T1600,3709A,130.9967,45.3106,鸡西市,市政设施管理处,,29,19,27,8,11,92,,83,83,5,17,5,6,0.3,0.3
2025-03-23T1600,2367A,114.9754,27.0803,吉安市,红声器材厂,臭氧1小时,62,55,59,24,28,169,,116,116,17,31,11,15,0.4,0.5
2025-03-23T1600,2368A,114.9658,27.0999,吉安市,市森林工业局,颗粒物(PM10),53,55,60,3,27,160,,114,114,17,42,13,15,0.4,0.5
2025-03-23T1600,2369A,114.99,27.1312,吉安市,市环境监测站,颗粒物(PM10),70,90,55,34,27,164,,122,122,13,28,17,27,0.2,0.2
2025-03-23T1600,2370A,115.0093,27.0968,吉安市,青原区法院,臭氧1小时,77,54,55,26,27,181,,128,128,14,33,13,14,0.4,0.4
2025-03-23T1600,1772A,126.54,43.8622,吉林市,哈达湾,,35,20,79,12,54,110,,95,95,9,20,7,9,0.5,0.7
2025-03-23T1600,1773A,126.5844,43.8358,吉林市,东局子,,36,18,49,15,38,115,,99,99,7,16,6,7,0.4,0.5
2025-03-23T1600,1774A,126.5052,43.8245,吉林市,电力学院,,33,8,92,3,80,103,,92,92,13,25,6,9,0.2,0.5
2025-03-23T1600,1775A,126.6133,43.8972,吉林市,江北,,36,27,72,12,53,113,,102,102,12,28,3,5,0.3,0.5
2025-03-23T1600,1776A,126.555,43.8306,吉林市,江南公园,,34,23,50,17,40,106,,93,93,10,18,6,8,0.4,0.5
2025-03-23T1600,1778A,126.7061,43.7133,吉林市,丰满,,49,34,21,34,15,125,,108,108,6,7,6,6,0.3,0.6
2025-03-23T1600,2868A,126.4739,43.953,吉林市,九站,,36,28,113,12,83,115,,103,103,10,32,10,21,0.3,0.7
2025-03-23T1600,1299A,116.9862,36.6114,济南市,科干所,颗粒物(PM10),95,139,105,37,30,120,,94,94,9,25,9,9,0.4,0.5
2025-03-23T1600,1300A,116.9376,36.665,济南市,农科所,颗粒物(PM10),95,139,113,32,28,111,,84,84,20,33,11,10,0.8,0.8
2025-03-23T1600,1301A,117.1265,36.6734,济南市,开发区,颗粒物(PM10),101,151,100,44,31,113,,100,94,18,20,10,9,0.5,0.5
2025-03-23T1600,1303A,117.0624,36.6868,济南市,省种子仓库,颗粒物(PM10),104,158,116,39,32,112,,87,87,13,24,7,7,0.6,0.7
2025-03-23T1600,1304A,116.9489,36.6447,济南市,机床二厂,颗粒物(PM10),108,166,131,37,35,108,,77,77,19,34,12,11,0.7,0.8
2025-03-23T1600,1305A,117.0495,36.663,济南市,市监测站,颗粒物(PM10),107,164,110,34,29,110,,88,88,15,23,11,10,0.5,0.5
2025-03-23T1600,1306A,116.7675,36.5484,济南市,长清党校,颗粒物(PM10),92,134,97,44,31,120,,91,91,23,35,8,10,0.8,0.8
2025-03-23T1600,1616A,117.6795,36.229,济南市,技术学院,颗粒物(PM10),115,180,122,61,55,106,,74,74,29,51,17,18,0.6,1.1
2025-03-23T1600,1961A,117.532,36.6868,济南市,东山小学,颗粒物(PM10),120,190,110,42,27,115,,93,93,5,17,7,8,0.6,0.6
2025-03-23T1600,3059A,117.7161,36.2049,济南市,泰兴公司,颗粒物(PM10),107,163,122,58,57,103,,63,63,29,59,16,14,0.7,0.9
2025-03-23T1600,3064A,117.6867,36.2171,济南市,莱芜战役纪念馆,颗粒物(PM10),109,168,121,53,49,101,,68,68,30,51,13,12,0.6,0.9
2025-03-23T1600,3494A,117.1673,36.9782,济南市,济阳区政府,颗粒物(PM10),117,183,127,49,35,91,,72,72,21,27,,10,0.5,0.4
2025-03-23T1600,3495A,117.1171,36.63,济南市,锦屏中学,颗粒物(PM10),95,139,93,32,25,112,,,,14,16,10,10,0.3,0.3
2025-03-23T1600,3682A,116.9814,36.6819,济南市,济南四建,颗粒物(PM10),101,151,112,42,37,110,,83,83,16,28,9,8,0.3,0.4
2025-03-23T1600,1653A,116.6251,35.4302,济宁市,火炬城,,,117,101,41,46,111,,67,67,17,32,12,14,,0.4
2025-03-23T1600,1655A,116.5491,35.4042,济宁市,电化厂,颗粒物(PM10),111,171,139,44,53,105,,67,67,17,45,12,16,0.6,0.6
2025-03-23T1600,3500A,116.5814,35.3707,济宁市,北湖一中,颗粒物(PM10),87,123,100,29,39,108,,64,64,20,41,16,17,0.4,0.4
2025-03-23T1600,3501A,116.8249,35.5593,济宁市,服务中心,颗粒物(PM10),111,172,132,45,44,86,,55,55,43,60,9,11,0.8,0.7
2025-03-23T1600,3678A,116.5907,35.4054,济宁市,市第七中学,颗粒物(PM10),95,139,110,31,44,107,,67,67,16,38,6,9,0.4,0.5
2025-03-23T1600,2255A,130.2751,46.8028,佳木斯市,佳纺,,29,9,39,3,14,92,,84,84,3,15,3,4,0.5,0.6
2025-03-23T1600,2256A,130.3995,46.8307,佳木斯市,发电厂,,29,11,15,6,9,91,,85,85,5,8,2,3,0.4,0.5
2025-03-23T1600,2257A,130.3258,46.7975,佳木斯市,环保局,,29,6,19,3,11,90,,86,86,8,16,2,3,0.2,0.3
2025-03-23T1600,2258A,130.3648,46.8032,佳木斯市,十一中,,27,12,18,7,12,84,,80,80,7,14,3,5,0.3,0.3
2025-03-23T1600,2259A,130.3794,46.7588,佳木斯市,四丰,,28,6,10,3,7,87,,80,80,2,7,1,1,0.7,0.7
2025-03-23T1600,1252A,120.7436,30.778,嘉兴市,清河小学,颗粒物(PM10),52,54,79,22,43,149,,114,114,23,63,6,7,0.2,0.5
2025-03-23T1600,1253A,120.726,30.7478,嘉兴市,嘉兴学院,颗粒物(PM10),57,63,88,26,47,160,,122,122,24,71,9,10,0.4,0.6
2025-03-23T1600,2872A,120.7846,30.7525,嘉兴市,南湖区残联,臭氧1小时,62,67,80,27,41,169,,136,136,18,44,9,10,0.2,0.4
2025-03-23T1600,3407A,120.6916,30.7739,嘉兴市,秀洲住建,臭氧1小时,70,40,77,29,48,176,,140,140,24,68,8,8,0.2,0.4
2025-03-23T1600,1945A,98.2908,39.7711,嘉峪关市,气象局,颗粒物(PM10),156,261,228,56,46,94,,90,89,8,7,8,6,0.2,0.2
2025-03-23T1600,2884A,98.2672,39.7978,嘉峪关市,酒钢宾馆,颗粒物(PM10),216,361,286,56,48,97,,88,88,5,6,18,13,0.1,0.2
2025-03-23T1600,3248A,98.2643,39.7724,嘉峪关市,雄关区,颗粒物(PM10),114,178,179,32,40,94,,84,84,7,11,2,5,0.3,0.5
2025-03-23T1600,1383A,113.1064,22.6058,江门市,北街,臭氧1小时,100,61,62,29,32,200,,155,155,18,30,5,5,0.5,0.6
2025-03-23T1600,1384A,113.0731,22.5835,江门市,西区,臭氧1小时,107,67,71,28,36,214,,162,162,19,42,9,8,0.4,0.6
2025-03-23T1600,1385A,113.0219,22.5311,江门市,圭峰西,臭氧1小时,77,96,58,32,30,181,,146,146,20,27,8,8,0.4,0.5
2025-03-23T1600,1386A,113.0828,22.5947,江门市,东湖,臭氧1小时,109,58,60,33,39,218,,164,164,15,34,10,9,0.4,0.5
2025-03-23T1600,3311A,113.1075,22.5647,江门市,江海富民,臭氧1小时,104,61,82,31,40,208,,155,155,16,31,9,9,0.5,0.6
2025-03-23T1600,3449A,113.05,22.4667,江门市,新会银湖,臭氧1小时,83,48,60,22,36,186,,149,149,18,37,6,4,0.6,0.5
2025-03-23T1600,1830A,113.1992,35.2590,焦作市,影视城,,,,75,,18,,,,,,11,,14,,0.5
2025-03-23T1600,3169A,113.2725,35.2067,焦作市,太极体育中心,颗粒物(PM10),118,186,114,40,35,131,,96,96,10,24,6,11,0.2,0.5
2025-03-23T1600,3335A,113.3137,35.2641,焦作市,马村街道办,颗粒物(PM10),97,143,119,39,39,122,,103,103,10,20,8,12,0.4,0.6
2025-03-23T1600,3336A,113.2465,35.2373,焦作市,焦作技师学院,颗粒物(PM10),106,161,123,31,33,130,,105,105,8,23,5,9,0.3,0.5
2025-03-23T1600,3477A,113.1656,35.2539,焦作市,中站许衡医院,颗粒物(PM10),87,124,114,23,32,132,,114,114,7,19,8,13,0.4,0.7
2025-03-23T1600,3981A,113.2449,35.1803,焦作市,原李万街道办,颗粒物(PM10),117,183,110,34,28,132,,91,91,11,28,10,13,0.3,0.6
2025-03-23T1600,4264A,113.2340,35.2190,焦作市,新安路1731号,颗粒物(PM10),161,271,129,43,40,130,,99,99,6,22,6,11,0.4,0.6
2025-03-23T1600,1708A,116.3701,23.5345,揭阳市,新兴,臭氧1小时,88,60,71,38,44,190,,143,143,20,40,10,13,0.6,0.8
2025-03-23T1600,1709A,116.3264,23.5443,揭阳市,西马,臭氧1小时,93,60,74,32,44,194,,148,148,14,32,11,13,0.6,0.8
2025-03-23T1600,1710A,116.3611,23.5626,揭阳市,东兴,臭氧1小时,83,66,77,33,40,186,,142,142,8,33,8,11,0.6,0.8
2025-03-23T1600,1711A,116.4151,23.5294,揭阳市,渔湖,臭氧1小时,92,60,66,33,44,193,,130,130,16,45,9,12,0.6,0.7
2025-03-23T1600,3320A,116.403,23.5699,揭阳市,曲溪,臭氧1小时,103,60,73,39,42,206,,153,153,17,42,8,13,0.5,0.7
2025-03-23T1600,1944A,102.1692,38.5167,金昌市,天庆家园,颗粒物(PM10),171,292,121,72,35,92,,93,91,3,6,12,12,0.6,0.8
2025-03-23T1600,4022A,102.1647,38.5371,金昌市,金川区人防中心,颗粒物(PM10),323,438,181,90,36,90,,94,89,6,12,11,11,0.4,0.5
2025-03-23T1600,4239A,102.1930,38.5319,金昌市,长春路96号,颗粒物(PM10),419,519,192,87,38,90,,92,89,4,8,16,14,0.6,0.6
2025-03-23T1600,1262A,119.647,29.077,金华市,十五中,,49,49,51,17,27,152,,122,122,17,36,7,7,0.3,0.5
2025-03-23T1600,1263A,119.686,29.1029,金华市,监测站,,49,49,52,23,27,149,,123,123,15,30,7,7,0.2,0.3
2025-03-23T1600,3659A,119.656,29.1131,金华市,气象局,,49,36,44,20,29,155,,119,119,16,44,10,8,0.3,0.5
2025-03-23T1600,1767A,121.1115,41.0879,锦州市,南山,颗粒物(PM10),74,97,110,46,90,101,,129,129,34,53,15,33,0.9,1.1
2025-03-23T1600,1768A,121.0604,40.8428,锦州市,开发区,颗粒物(PM10),111,171,120,49,93,70,,105,105,55,51,18,23,1.0,1.1
2025-03-23T1600,1769A,121.1836,41.1119,锦州市,百股街道,颗粒物(PM10),75,100,130,46,91,106,,132,132,39,59,14,67,0.9,1.1
2025-03-23T1600,1770A,121.1178,41.1222,锦州市,天安街道,颗粒物(PM10),72,93,121,33,104,104,,132,132,30,53,14,32,1.0,1.3
2025-03-23T1600,1771A,121.1303,41.1386,锦州市,北湖公园,颗粒物(PM10),64,77,112,39,98,99,,133,133,33,51,14,25,0.9,1.1
2025-03-23T1600,2160A,112.85,35.5051,晋城市,自来水公司,颗粒物(PM10),107,164,109,34,27,123,,101,101,12,21,7,9,0.4,0.5
2025-03-23T1600,2161A,112.8318,35.4936,晋城市,白云商贸,颗粒物(PM10),105,159,109,29,25,124,,103,103,12,22,6,7,0.3,0.5
2025-03-23T1600,2162A,112.8508,35.4887,晋城市,市环保局,颗粒物(PM10),108,166,109,34,27,124,,103,103,10,19,5,6,0.3,0.5
2025-03-23T1600,2163A,112.8676,35.4897,晋城市,技术学院,颗粒物(PM10),104,158,100,27,24,111,,92,92,6,16,6,8,0.5,0.6
2025-03-23T1600,2165A,112.8453,35.546,晋城市,白马寺,,,,,,,,,,,,,,,,
2025-03-23T1600,3620A,112.8271,35.4828,晋城市,泽州一中,颗粒物(PM10),122,193,72,41,29,128,,107,107,8,16,8,10,0.3,0.5
2025-03-23T1600,2173A,112.7249,37.7067,晋中市,南都小区,颗粒物(PM10),182,313,189,50,46,108,,85,85,6,40,4,20,0.3,0.7
2025-03-23T1600,2174A,112.6991,37.6982,晋中市,榆次区政府,颗粒物(PM10),187,324,198,54,45,110,,86,86,5,38,4,19,0.3,0.7
2025-03-23T1600,2865A,112.7195,37.6828,晋中市,榆次三中,颗粒物(PM10),265,395,200,48,45,110,,88,88,5,41,2,16,0.2,0.5
2025-03-23T1600,4200A,112.7478,37.6954,晋中市,迎宾街26号,颗粒物(PM10),213,359,195,53,48,112,,90,90,4,36,3,17,0.3,0.5
2025-03-23T1600,2439A,112.2014,31.0481,荆门市,竹园小学,颗粒物(PM10),52,53,87,27,54,143,,82,82,9,26,6,8,0.3,0.5
2025-03-23T1600,2440A,112.1969,30.9891,荆门市,掇刀,,50,50,87,31,52,136,,73,73,8,28,7,9,0.3,0.4
2025-03-23T1600,2441A,112.2213,31.0386,荆门市,石化一小,,44,44,87,23,54,127,,75,75,10,32,10,13,0.2,0.5
2025-03-23T1600,3012A,112.1849,31.0362,荆门市,西山林语,,45,40,70,30,42,141,,82,82,7,18,5,7,0.1,0.3
2025-03-23T1600,3547A,112.1632,31.0138,荆门市,龙泉中学南校,颗粒物(PM10),51,51,81,30,50,131,,74,74,7,20,7,9,0.4,0.4
2025-03-23T1600,1844A,112.2494,30.3197,荆州市,市图书馆,,46,42,53,32,44,124,,76,76,10,28,5,8,0.5,0.5
2025-03-23T1600,1845A,112.2008,30.3544,荆州市,市委党校,细颗粒物(PM2.5),54,41,59,38,45,123,,82,82,8,26,6,8,0.4,0.5
2025-03-23T1600,3194A,112.2747,30.3122,荆州市,管委会,细颗粒物(PM2.5),53,39,59,37,43,124,,85,85,6,21,6,9,0.4,0.4
2025-03-23T1600,4268A,112.1722,30.3366,荆州市,学苑路85号,细颗粒物(PM2.5),55,,43,39,44,126,,84,84,7,30,6,7,0.5,0.6
2025-03-23T1600,2342A,117.3102,29.3867,景德镇市,王港中学,,,,,,,,,,,,,,,,
2025-03-23T1600,2343A,117.2117,29.2933,景德镇市,老干部活动中心,,47,45,60,22,32,149,,90,90,10,32,10,9,0.3,0.4
2025-03-23T1600,2344A,117.1894,29.2789,景德镇市,兽医站,颗粒物(PM10),51,51,62,29,29,145,,42,,12,34,9,8,0.6,0.7
2025-03-23T1600,2345A,117.1547,29.2617,景德镇市,台达陶瓷,颗粒物(PM10),64,77,79,33,34,140,,94,94,20,42,27,34,0.5,0.7
2025-03-23T1600,2346A,117.2461,29.2956,景德镇市,陶研所,,48,48,51,26,34,143,,90,90,14,29,5,4,0.7,0.8
2025-03-23T1600,1803A,115.9872,29.6815,九江市,十里,细颗粒物(PM2.5),64,75,63,46,40,96,,65,65,42,51,19,5,0.9,0.7
2025-03-23T1600,1804A,115.9584,29.7046,九江市,茅山头,颗粒物(PM10),83,116,79,55,36,80,,65,65,56,50,23,9,0.9,0.5
2025-03-23T1600,1805A,115.9877,29.7295,九江市,西园,颗粒物(PM10),67,84,67,45,38,86,,50,50,52,71,31,12,1.1,0.8
2025-03-23T1600,1808A,115.9114,29.6038,九江市,综合工业园,细颗粒物(PM2.5),79,96,72,58,39,94,,83,83,63,52,24,12,1.2,0.7
2025-03-23T1600,1809A,116.0721,29.7535,九江市,石化总厂,颗粒物(PM10),65,80,57,43,41,91,,64,64,44,36,23,16,0.9,0.6
2025-03-23T1600,1810A,115.9773,29.5698,九江市,庐山气象台,,45,42,41,31,27,124,,136,131,12,6,6,8,1.0,0.8
2025-03-23T1600,3190A,116.0254,29.6994,九江市,外国语学校,颗粒物(PM10),71,91,63,39,35,78,,57,55,54,47,18,10,0.9,0.6
2025-03-23T1600,4253A,116.0102,29.6594,九江市,莲花大道8号,细颗粒物(PM2.5),64,72,54,46,29,110,,77,68,32,23,22,15,0.9,0.5
2025-03-23T1600,4240A,98.4958,39.7339,酒泉市,玉门东路5号,颗粒物(PM10),233,373,273,41,45,94,,74,74,1,10,8,11,0.2,0.3
2025-03-23T1600,4241A,98.5099,39.7506,酒泉市,北大街108号,颗粒物(PM10),226,368,293,48,52,90,,75,75,3,14,8,13,0.3,0.5
2025-03-23T1600,2698A,76.0072,39.4467,喀什地区,巡警大队,颗粒物(PM10),90,129,192,21,56,112,,69,69,14,53,5,8,0.5,1.1
2025-03-23T1600,2699A,75.9755,39.4694,喀什地区,吾办,,,100,155,30,58,112,,69,69,16,46,2,3,,0.9
2025-03-23T1600,4027A,75.9483,39.4689,喀什地区,老干局,颗粒物(PM10),81,112,154,28,46,71,,54,54,41,49,4,5,0.5,0.9
2025-03-23T1600,1824A,114.3389,34.7781,开封市,肿瘤医院,颗粒物(PM10),112,174,116,38,33,127,,102,102,9,29,8,9,0.5,0.6
2025-03-23T1600,1826A,114.2885,34.7965,开封市,世纪星幼儿园,颗粒物(PM10),111,171,108,42,32,138,,111,111,19,31,6,7,0.4,0.6
2025-03-23T1600,3147A,114.3438,34.8106,开封市,龙亭公园,,,,105,,32,,,101,,,30,,6,,1.0
2025-03-23T1600,3210A,114.3644,34.7964,开封市,汴京公园,颗粒物(PM10),120,190,120,40,35,134,,107,107,18,32,7,8,0.5,0.6
2025-03-23T1600,3473A,114.2485,34.8306,开封市,技师学院,颗粒物(PM10),112,173,104,36,35,126,,96,96,17,30,12,12,0.6,0.6
2025-03-23T1600,3592A,114.4644,34.7556,开封市,祥符区生态环境局,颗粒物(PM10),118,185,139,45,43,123,,96,96,16,43,6,8,0.6,0.7
2025-03-23T1600,1951A,84.895,45.6094,克拉玛依市,长征新村,,35,,40,24,13,68,,77,57,21,21,8,7,0.3,0.2
2025-03-23T1600,1952A,84.8988,45.5893,克拉玛依市,南林小区,,22,14,42,10,12,68,,79,57,12,11,3,3,0.2,0.2
2025-03-23T1600,1954A,84.905,44.3396,克拉玛依市,独山子区,颗粒物(PM10),78,106,95,44,54,92,,62,55,26,18,47,13,2.2,0.8
2025-03-23T1600,1955A,85.6979,46.098,克拉玛依市,乌尔禾区商贸楼,,23,6,26,6,12,73,,59,56,8,10,6,6,0.3,0.3
2025-03-23T1600,3612A,85.1045,45.6899,克拉玛依市,白碱滩区新站,,19,13,33,3,9,58,,73,54,20,12,10,9,0.5,0.3
2025-03-23T1600,2697A,76.1454,39.7142,克孜勒苏柯尔克孜自治州,市人民政府,颗粒物(PM10),90,129,135,48,42,129,,103,103,11,13,7,5,0.7,0.6
2025-03-23T1600,3665A,76.1658,39.7157,克孜勒苏柯尔克孜自治州,克州文化中心,颗粒物(PM10),83,116,154,47,44,127,,102,102,11,13,8,5,0.6,0.5
2025-03-23T1600,1450A,102.8204,24.8886,昆明市,呈贡新区,,37,37,54,12,46,114,,115,115,11,14,4,5,0.5,0.6
2025-03-23T1600,1451A,102.6251,24.9608,昆明市,西山森林公园,,,,,,,,,,,,,,,,
2025-03-23T1600,1452A,102.7252,25.0902,昆明市,龙泉镇,,35,23,55,13,41,110,,100,100,9,27,6,8,0.5,0.7
2025-03-23T1600,1453A,102.7266,25.0375,昆明市,东风东路,,32,17,59,8,45,100,,98,98,19,26,6,8,0.5,0.6
2025-03-23T1600,1454A,102.6742,25.0669,昆明市,金鼎山,,41,41,62,10,43,105,,99,99,12,30,3,5,0.5,0.6
2025-03-23T1600,1455A,102.6644,25.0401,昆明市,碧鸡广场,,35,16,57,15,45,110,,106,106,12,30,5,8,0.4,0.5
2025-03-23T1600,3179A,102.7494,25.0119,昆明市,官渡区博物馆,颗粒物(PM10),52,54,62,12,44,105,,106,106,16,23,6,8,0.4,0.6
2025-03-23T1600,3375A,102.8017,24.8336,昆明市,青年创业园,,37,20,55,16,44,118,,117,117,7,13,6,8,0.5,0.6
2025-03-23T1600,3550A,102.7997,24.9786,昆明市,昆明学院,,34,19,63,13,48,107,,111,111,16,17,4,6,0.4,0.6
2025-03-23T1600,3551A,102.5967,24.6736,昆明市,晋宁区生态环境分局,颗粒物(PM10),54,58,53,27,47,116,,111,111,11,12,6,10,0.5,0.7
2025-03-23T1600,3552A,102.6678,24.9856,昆明市,云天化总部,,37,16,52,12,39,117,,109,109,11,20,5,8,0.3,0.4
2025-03-23T1600,1456A,91.1319,29.6514,拉萨市,八廓街,,41,15,17,6,8,129,,107,107,6,9,8,6,0.3,0.4
2025-03-23T1600,1457A,91.1221,29.6747,拉萨市,市环保局,,38,16,18,7,9,121,,100,100,11,12,8,7,0.4,0.5
2025-03-23T1600,1458A,91.0874,29.6475,拉萨市,区监测站,,40,13,14,3,7,126,,101,101,6,10,7,5,0.3,0.3
2025-03-23T1600,1459A,91.1774,29.6541,拉萨市,西藏大学,,38,13,15,3,7,119,,100,100,7,10,8,5,0.4,0.5
2025-03-23T1600,1460A,90.9798,29.6588,拉萨市,区辐射站,,40,16,19,6,9,125,,96,96,9,15,7,7,0.4,0.4
2025-03-23T1600,1461A,91.0834,29.6292,拉萨市,拉萨火车站,,40,13,15,3,7,128,,106,106,3,8,4,3,0.2,0.3
2025-03-23T1600,2520A,109.2203,23.7256,来宾市,来宾技工学校,臭氧1小时,62,52,83,28,52,169,,137,137,10,27,7,14,0.6,0.7
2025-03-23T1600,3535A,109.1781,23.7297,来宾市,兴宾区政府,,,,79,,53,168,,133,133,,19,,10,0.7,0.8
2025-03-23T1600,4002A,109.2416,23.7461,来宾市,中南小学,颗粒物(PM10),55,59,90,38,51,160,,130,130,8,33,8,13,0.6,0.8
2025-03-23T1600,1477A,104.1373,35.9454,兰州市,榆中兰大校区,,,,,,,,,,,,,,,,
2025-03-23T1600,1479A,103.831,36.0464,兰州市,铁路设计院,颗粒物(PM10),52,53,80,14,26,99,,87,87,17,47,4,9,0.4,0.7
2025-03-23T1600,3241A,103.7439,36.0842,兰州市,百合公园,颗粒物(PM10),53,56,85,7,27,100,,83,83,2,41,3,9,0.3,0.7
2025-03-23T1600,3242A,103.9611,35.998,兰州市,和平,颗粒物(PM10),64,78,113,17,34,100,,100,100,6,14,6,9,0.3,0.2
2025-03-23T1600,4236A,103.6293,36.0938,兰州市,庄浪东路808号,颗粒物(PM10),51,51,91,17,35,100,,96,96,11,23,8,13,0.3,0.4
2025-03-23T1600,4237A,103.7251,36.1043,兰州市,安宁西路88号,颗粒物(PM10),61,72,97,29,44,112,,103,103,5,34,4,10,0.3,0.5
2025-03-23T1600,4238A,103.8470,36.0676,兰州市,北滨河东路1号,颗粒物(PM10),52,53,89,21,38,104,,86,86,16,54,7,14,0.4,0.9
2025-03-23T1600,3245A,103.6633,36.533,兰州新区,新区管委会,颗粒物(PM10),53,56,77,15,29,106,,97,97,5,14,12,10,0.2,0.4
2025-03-23T1600,3246A,103.6975,36.4789,兰州新区,舟曲中学,颗粒物(PM10),63,76,105,16,29,108,,100,100,2,9,6,8,0.3,0.4
2025-03-23T1600,1067A,116.6708,39.5111,廊坊市,药材公司,颗粒物(PM10),85,120,96,39,28,116,,88,88,8,26,3,3,0.3,0.3
2025-03-23T1600,1068A,116.7214,39.5589,廊坊市,开发区,颗粒物(PM10),102,154,110,44,31,118,,99,99,11,26,3,4,0.3,0.3
2025-03-23T1600,1070A,116.7244,39.5269,廊坊市,北华航天学院,颗粒物(PM10),94,137,96,33,25,113,,95,95,12,24,5,5,0.2,0.3
2025-03-23T1600,2919A,116.7022,39.5453,廊坊市,河北工业大学,颗粒物(PM10),91,131,95,37,28,121,,99,99,5,19,6,7,0.3,0.3
2025-03-23T1600,2535A,103.7723,29.5462,乐山市,花湖湾,,43,43,73,28,53,104,,41,41,21,38,8,8,0.3,0.7
2025-03-23T1600,2536A,103.7627,29.5844,乐山市,牛耳桥,,39,39,75,26,53,95,,40,40,24,40,8,7,0.5,0.9
2025-03-23T1600,2537A,103.7508,29.6006,乐山市,市第三水厂,,45,45,66,25,46,105,,45,45,15,36,5,5,0.2,0.7
2025-03-23T1600,2538A,103.7571,29.5664,乐山市,市监测站,细颗粒物(PM2.5),54,54,66,38,53,100,,44,44,23,42,8,7,0.4,0.9
2025-03-23T1600,3361A,103.7311,29.5628,乐山市,理工大学,颗粒物(PM10),53,56,69,32,45,102,,45,45,24,43,6,6,0.4,0.9
2025-03-23T1600,2598A,100.2143,26.8576,丽江市,西南郊,,,,,,,,,,,,,,,,
2025-03-23T1600,2599A,100.2497,26.8802,丽江市,丽江古城,,32,24,23,17,15,102,,88,88,10,13,7,8,0.5,0.6
2025-03-23T1600,2600A,100.2203,26.8906,丽江市,市中心,,31,12,11,12,9,98,,90,90,14,14,8,8,0.6,0.6
2025-03-23T1600,1267A,119.914,28.4514,丽水市,监测站大楼,颗粒物(PM10),53,56,46,26,29,152,,116,116,10,32,4,4,0.3,0.5
2025-03-23T1600,1268A,119.93,28.4586,丽水市,莲都小学,颗粒物(PM10),57,64,50,21,24,122,,97,97,17,36,5,4,0.4,0.4
2025-03-23T1600,1269A,119.879,28.4231,丽水市,余庄前,臭氧1小时,53,40,41,22,26,162,,122,122,7,20,5,5,0.3,0.3
2025-03-23T1600,1173A,119.176,34.5885,连云港市,市环境监测站,颗粒物(PM10),84,117,99,41,43,96,,93,93,26,27,21,19,0.8,0.7
2025-03-23T1600,3000A,119.3581,34.6972,连云港市,德源药业,颗粒物(PM10),92,134,100,36,41,108,,94,94,21,33,16,15,0.5,0.5
2025-03-23T1600,3007A,119.178,34.844,连云港市,新城一中,颗粒物(PM10),77,104,100,43,58,101,,90,90,25,40,18,26,0.9,0.9
2025-03-23T1600,3008A,119.3608,34.7519,连云港市,胡沟管理处,颗粒物(PM10),71,92,77,34,36,97,,93,93,33,39,18,19,0.6,0.6
2025-03-23T1600,3009A,119.1478,34.5911,连云港市,矿山设计院,颗粒物(PM10),97,144,108,39,41,86,,89,89,41,35,18,22,0.7,0.6
2025-03-23T1600,3434A,119.2413,34.6539,连云港市,工贸学校,颗粒物(PM10),80,109,96,48,49,101,,95,95,28,26,16,15,0.8,0.7
2025-03-23T1600,3664A,119.4172,34.7341,连云港市,连云街道,颗粒物(PM10),81,112,93,41,35,107,,115,89,26,29,16,11,0.8,0.7
2025-03-23T1600,2571A,102.3431,27.8099,凉山彝族自治州,青龙寺,,22,18,37,8,12,69,,73,73,8,13,6,6,0.6,0.7
2025-03-23T1600,2572A,102.2721,27.8415,凉山彝族自治州,邛海宾馆,,29,29,39,13,22,62,,64,64,16,18,5,6,0.5,0.6
2025-03-23T1600,2573A,102.2625,27.898,凉山彝族自治州,西昌市政府,,35,35,49,20,32,67,,62,62,13,18,6,8,0.6,0.7
2025-03-23T1600,2574A,102.2685,27.8851,凉山彝族自治州,凉山州政府,,29,29,46,16,30,71,,67,67,14,22,5,7,0.4,0.5
2025-03-23T1600,4229A,102.2342,27.8859,凉山彝族自治州,凯乐南路30号,,27,27,41,12,20,64,,62,62,23,22,10,9,0.5,0.5
2025-03-23T1600,2212A,123.2,41.1953,辽阳市,宏伟区,颗粒物(PM10),85,119,97,60,67,152,,148,148,27,28,30,19,1.3,1.1
2025-03-23T1600,2213A,123.1683,41.2495,辽阳市,新华园,细颗粒物(PM2.5),94,123,147,70,89,128,,101,101,44,60,33,33,1.8,1.5
2025-03-23T1600,2214A,123.2354,41.2639,辽阳市,滨河路,颗粒物(PM10),85,119,102,58,80,142,,132,132,31,43,28,18,1.4,1.1
2025-03-23T1600,2215A,123.149,41.2991,辽阳市,铁西工业园,颗粒物(PM10),107,164,192,67,117,157,,114,114,35,65,31,29,1.3,2.1
2025-03-23T1600,2227A,125.1358,42.8845,辽源市,环保局,,,,295,,259,,,162,,,51,,12,,1.5
2025-03-23T1600,3239A,125.0764,42.9078,辽源市,银鹰制药,细颗粒物(PM2.5),77,81,188,56,166,154,,138,138,13,40,8,13,0.6,1.2
2025-03-23T1600,1625A,115.9848,36.4372,聊城市,区政府,颗粒物(PM10),128,206,113,40,38,118,,81,81,12,34,10,13,0.4,0.6
2025-03-23T1600,2878A,116.0072,36.4343,聊城市,聊大东校,颗粒物(PM10),124,197,127,48,42,112,,78,78,14,35,9,13,0.6,0.8
2025-03-23T1600,3200A,115.9819,36.4978,聊城市,监控中心,颗粒物(PM10),143,235,125,46,37,116,,81,81,9,32,13,17,0.5,0.7
2025-03-23T1600,3513A,116.0445,36.4361,聊城市,九州社区,颗粒物(PM10),113,176,115,31,36,117,,83,83,18,35,11,14,0.5,0.6
2025-03-23T1600,4018A,116.0567,36.4608,聊城市,星美广场,颗粒物(PM10),106,161,114,28,32,111,,81,81,22,33,11,13,0.5,0.6
2025-03-23T1600,2632A,94.3681,29.6376,林芝市,林芝监测站,,35,11,9,7,6,110,,101,101,4,6,5,5,0.2,0.3
2025-03-23T1600,2633A,94.3616,29.6616,林芝市,林芝人民医院,,33,16,14,3,5,104,,97,97,3,3,7,7,0.1,0.2
2025-03-23T1600,2603A,100.0781,23.8982,临沧市,市环保局,颗粒物(PM10),53,55,57,33,47,126,,79,79,9,15,9,9,0.6,0.9
2025-03-23T1600,2604A,100.0894,23.8822,临沧市,市气象局,,,45,56,37,51,123,,76,76,14,17,8,8,,0.5
2025-03-23T1600,1733A,111.5531,36.0783,临汾市,临钢医院,颗粒物(PM10),143,236,139,36,35,108,,85,85,1,21,2,8,0.3,0.6
2025-03-23T1600,1734A,111.5028,36.0714,临汾市,技工学校,颗粒物(PM10),131,212,120,32,40,111,,86,86,4,29,4,11,0.3,0.6
2025-03-23T1600,1736A,111.5018,36.0855,临汾市,市委,颗粒物(PM10),147,243,134,38,36,113,,86,86,4,29,1,7,0.2,0.5
2025-03-23T1600,3018A,111.505,36.1014,临汾市,唐尧大酒店,颗粒物(PM10),141,232,134,40,32,110,,82,82,4,29,4,9,0.2,0.5
2025-03-23T1600,4244A,111.4879,36.0530,临汾市,启星学校,颗粒物(PM10),146,241,137,44,43,108,,84,84,2,28,1,9,0.2,0.6
2025-03-23T1600,4271A,103.2464,35.6123,临夏回族自治州,滨河东路1号,,,,107,,34,106,,81,81,4,27,3,5,0.2,0.6
2025-03-23T1600,4310A,103.2093,35.5995,临夏回族自治州,新华街21号,,44,44,101,14,42,101,,82,82,9,22,8,10,0.2,0.6
2025-03-23T1600,1618A,118.3429,35.0532,临沂市,沂河小区,颗粒物(PM10),102,153,124,29,56,106,,81,81,18,37,10,17,0.5,0.8
2025-03-23T1600,1619A,118.295,35.0583,临沂市,鲁南制药厂,颗粒物(PM10),109,168,135,33,54,117,,87,87,20,54,11,21,0.3,0.6
2025-03-23T1600,1620A,118.2794,34.9976,临沂市,新光毛纺厂,颗粒物(PM10),104,158,128,35,52,108,,81,81,29,58,11,22,0.7,0.9
2025-03-23T1600,1621A,118.3956,35.0888,临沂市,河东保险公司,颗粒物(PM10),98,146,115,43,51,104,,86,86,36,48,10,13,0.4,0.5
2025-03-23T1600,3370A,118.3564,35.0215,临沂市,十里堡居委,颗粒物(PM10),109,168,126,41,50,105,,82,82,28,45,15,22,0.7,0.8
2025-03-23T1600,3496A,118.3604,35.1084,临沂市,南坊新区,颗粒物(PM10),112,173,119,56,47,91,,80,80,38,41,12,13,0.7,0.7
2025-03-23T1600,3860A,118.3920,35.0300,临沂市,皇山花园小区,颗粒物(PM10),111,171,124,43,50,104,,82,82,25,41,13,18,0.5,0.6
2025-03-23T1600,1870A,109.4856,24.3895,柳州市,柳东小学,臭氧1小时,69,46,88,40,65,175,,136,136,16,36,12,25,0.4,0.6
2025-03-23T1600,1871A,109.4157,24.3277,柳州市,环保监测站,"细颗粒物(PM2.5),臭氧1小时",68,58,98,49,69,174,,133,133,12,37,12,13,0.6,0.9
2025-03-23T1600,1872A,109.389,24.341,柳州市,河西水厂,臭氧1小时,67,58,126,25,71,173,,128,128,14,55,8,12,0.5,1
2025-03-23T1600,1873A,109.4311,24.2921,柳州市,市四中,臭氧1小时,77,56,110,34,68,181,,138,138,15,56,11,12,0.5,1
2025-03-23T1600,1874A,109.4006,24.3631,柳州市,市九中,臭氧1小时,73,56,101,41,62,178,,138,138,11,35,10,13,0.7,1
2025-03-23T1600,1875A,109.4958,24.3134,柳州市,古亭山,臭氧1小时,78,59,76,38,52,182,,135,135,11,51,10,16,0.4,0.6
2025-03-23T1600,3402A,109.5422,24.3996,柳州市,市二中,臭氧1小时,92,54,96,27,64,193,,152,152,13,51,14,34,0.2,0.4
2025-03-23T1600,2307A,116.5079,31.737,六安市,监测大楼,,45,45,60,25,37,120,,108,108,21,30,5,8,0.6,0.7
2025-03-23T1600,2308A,116.4738,31.7643,六安市,皖西学院,颗粒物(PM10),51,52,69,25,35,117,,109,109,13,26,5,6,0.4,0.6
2025-03-23T1600,2309A,116.4996,31.7905,六安市,朝阳厂,,45,39,60,31,35,114,,110,110,15,25,4,5,0.5,0.6
2025-03-23T1600,2310A,116.5567,31.7886,六安市,开发区,,45,45,78,22,37,126,,109,109,16,38,4,5,0.5,0.6
2025-03-23T1600,2576A,104.8,26.5892,六盘水市,窑上,细颗粒物(PM2.5),60,61,64,43,45,117,,102,102,9,10,8,9,0.5,0.6
2025-03-23T1600,2577A,104.83,26.5917,六盘水市,黄土坡,颗粒物(PM10),56,62,61,29,38,120,,106,106,11,16,15,15,0.4,0.5
2025-03-23T1600,2578A,104.89,26.5939,六盘水市,水钢,"颗粒物(PM10),细颗粒物(PM2.5)",58,66,70,41,41,112,,97,97,12,18,13,14,0.7,0.7
2025-03-23T1600,2579A,104.8475,26.5894,六盘水市,民中,颗粒物(PM10),53,56,56,29,37,109,,94,94,13,17,12,13,0.4,0.5
2025-03-23T1600,2580A,104.9544,26.5506,六盘水市,双水,细颗粒物(PM2.5),65,66,64,47,38,114,,105,105,13,17,11,13,0.5,0.6
2025-03-23T1600,2335A,117.0189,25.1181,龙岩市,龙岩师专,,,,,,,,,,,,,,,,
2025-03-23T1600,2336A,117.0217,25.1033,龙岩市,龙岩市监测站,,,,46,,27,,,112,,,32,,12,,0.6
2025-03-23T1600,2337A,117.0258,25.0661,龙岩市,闽西职业技术学院,,47,42,70,26,33,149,,122,122,9,28,6,34,0.3,0.5
2025-03-23T1600,2338A,117.0196,25.0306,龙岩市,龙岩学院,颗粒物(PM10),55,60,63,23,44,151,,105,105,5,19,4,3,0.6,0.7
2025-03-23T1600,2665A,105.0822,33.3261,陇南市,汉王镇固水子,,,,,,,,,,,,,,,,
2025-03-23T1600,2885A,104.9339,33.3826,陇南市,滨江中学,,47,47,59,10,23,93,,86,86,2,13,4,6,0.3,0.5
2025-03-23T1600,3247A,104.955,33.371,陇南市,市总工会,,40,40,50,11,21,98,,91,91,2,10,5,7,0.2,0.3
2025-03-23T1600,2487A,111.9589,27.8901,娄底市,电视发射台,颗粒物(PM10),52,53,47,32,31,102,,86,86,6,6,8,8,0.9,0.9
2025-03-23T1600,2488A,111.9975,27.725,娄底市,市监测站,细颗粒物(PM2.5),84,92,101,62,61,88,,44,44,22,41,23,24,1.2,1.4
2025-03-23T1600,2489A,112.0194,27.7314,娄底市,市委党校,细颗粒物(PM2.5),84,91,104,62,68,85,,43,43,37,45,13,7,1.2,1.2
2025-03-23T1600,2490A,111.9561,27.7569,娄底市,涟钢,细颗粒物(PM2.5),67,74,102,48,64,102,,58,58,13,22,4,10,0.6,0.9
2025-03-23T1600,2491A,111.9892,27.7044,娄底市,市政府,细颗粒物(PM2.5),69,77,94,50,61,93,,49,49,17,31,9,8,0.6,0.7
2025-03-23T1600,1893A,105.4324,28.9634,泸州市,九狮山,,,,,,,,,,,,,,,,
2025-03-23T1600,1894A,105.4427,28.9063,泸州市,小市上码头,细颗粒物(PM2.5),59,59,102,42,77,139,,65,65,20,53,10,10,0.4,0.8
2025-03-23T1600,1895A,105.4241,28.8573,泸州市,兰田宪桥,颗粒物(PM10),56,61,107,35,77,136,,59,59,8,42,10,8,0.5,0.7
2025-03-23T1600,1896A,105.4379,28.8833,泸州市,市环监站,,,,,,,,,,,,,,,,
2025-03-23T1600,4272A,105.3689,28.7783,泸州市,纳溪中医医院,颗粒物(PM10),55,59,97,35,64,130,,55,55,8,38,8,7,0.5,0.7
2025-03-23T1600,2183A,111.1406,37.5211,吕梁市,环保局,颗粒物(PM10),307,425,180,67,46,106,,76,76,4,41,3,2,0.2,0.4
2025-03-23T1600,2185A,111.1297,37.5136,吕梁市,自来水公司,颗粒物(PM10),283,408,208,70,45,101,,71,71,6,35,3,5,0.3,0.5
2025-03-23T1600,2867A,111.1283,37.51,吕梁市,马茂庄小学,颗粒物(PM10),367,473,202,61,42,109,,77,77,5,44,3,5,0.2,0.4
2025-03-23T1600,1812A,112.3931,34.6516,洛阳市,市委党校,颗粒物(PM10),89,128,89,35,32,122,,100,100,8,20,3,6,0.3,0.4
2025-03-23T1600,1815A,112.494,34.6886,洛阳市,河南林校,颗粒物(PM10),101,151,115,45,46,133,,106,106,9,25,4,7,0.5,0.8
2025-03-23T1600,1816A,112.3844,34.623,洛阳市,开发区管委会,颗粒物(PM10),93,136,97,39,38,120,,93,93,7,21,6,7,0.2,0.3
2025-03-23T1600,1817A,112.4267,34.6258,洛阳市,市委新办公区,颗粒物(PM10),92,133,94,39,39,132,,102,102,8,19,4,6,0.7,0.8
2025-03-23T1600,3340A,112.6005,34.6326,洛阳市,伊滨,颗粒物(PM10),107,164,91,38,39,134,,105,105,11,17,5,7,0.3,0.5
2025-03-23T1600,3341A,112.4951,34.6332,洛阳市,中移产业园,颗粒物(PM10),124,197,107,50,49,123,,97,97,11,19,8,8,0.5,0.5
2025-03-23T1600,3593A,112.5736,34.8993,洛阳市,吉利监测站,颗粒物(PM10),99,148,100,44,36,131,,108,108,10,16,6,8,0.4,0.4
2025-03-23T1600,3635A,112.3677,34.662,洛阳市,河科大西苑校区,颗粒物(PM10),103,155,103,35,32,124,,104,104,8,22,6,10,0.5,0.6
2025-03-23T1600,3636A,112.4388,34.6781,洛阳市,英才小学,颗粒物(PM10),95,140,100,41,42,130,,103,103,9,27,9,14,0.3,0.5
2025-03-23T1600,4214A,112.4600,34.6949,洛阳市,春都路1号院,颗粒物(PM10),105,160,130,36,37,135,,108,108,12,31,7,14,0.4,0.6
2025-03-23T1600,2399A,114.051,33.5699,漯河市,三五一五工厂,颗粒物(PM10),80,110,87,39,37,134,,110,110,10,17,6,7,0.5,0.6
2025-03-23T1600,2400A,114.0055,33.5698,漯河市,漯河大学,颗粒物(PM10),80,109,85,29,31,137,,106,106,12,24,7,8,0.4,0.4
2025-03-23T1600,2401A,114.0138,33.5828,漯河市,市水利局,颗粒物(PM10),78,105,84,34,33,136,,106,106,11,18,5,6,0.3,0.4
2025-03-23T1600,2402A,114.0261,33.5698,漯河市,市广电局,颗粒物(PM10),78,105,86,35,35,136,,108,108,9,16,6,7,0.3,0.4
2025-03-23T1600,3478A,113.9749,33.5664,漯河市,市图书馆,颗粒物(PM10),82,113,83,42,36,136,,103,103,10,15,5,7,0.4,0.5
2025-03-23T1600,4250A,114.0892,33.5882,漯河市,韶山路11号,颗粒物(PM10),82,113,89,37,34,141,,118,118,14,16,5,6,0.3,0.3
2025-03-23T1600,1798A,118.5092,31.6837,马鞍山市,湖东路四小,颗粒物(PM10),62,74,77,36,41,108,,104,104,30,53,11,12,0.7,0.8
2025-03-23T1600,1799A,118.5024,31.6449,马鞍山市,开发区,颗粒物(PM10),74,97,92,44,45,83,,89,89,53,76,10,9,0.6,0.8
2025-03-23T1600,1802A,118.6245,31.7241,马鞍山市,濮塘,颗粒物(PM10),66,81,81,36,43,115,,117,117,27,31,13,15,0.7,0.8
2025-03-23T1600,3633A,118.4918,31.6809,马鞍山市,雨山,颗粒物(PM10),64,77,80,37,43,101,,98,98,35,62,12,13,0.7,0.8
2025-03-23T1600,4191A,118.5274,31.72227,马鞍山市,慈湖高新区,颗粒物(PM10),62,74,88,42,48,96,,101,101,42,58,9,11,0.8,0.9
2025-03-23T1600,1686A,111.0286,21.4688,茂名市,电白南海,颗粒物(PM10),57,63,59,34,38,112,,110,110,6,15,3,5,0.7,0.7
2025-03-23T1600,1687A,110.9294,21.6533,茂名市,茂石化七小,,,73,64,46,37,172,,152,152,10,17,,14,0.4,0.6
2025-03-23T1600,1688A,110.9107,21.6687,茂名市,健康路,臭氧1小时,72,83,67,46,41,177,,148,148,13,19,12,19,0.6,0.7
2025-03-23T1600,1689A,110.8592,21.6828,茂名市,高岭,颗粒物(PM10),74,97,86,51,47,176,,130,130,15,24,12,19,0.6,0.6
2025-03-23T1600,3450A,111.01,21.5165,茂名市,电白水东,,40,39,46,17,24,127,,119,119,2,7,3,7,0.2,0.5
2025-03-23T1600,2539A,104.0308,30.0478,眉山市,黑龙滩水库,,34,31,62,20,38,106,,61,61,2,14,2,4,0.5,0.8
2025-03-23T1600,2540A,103.8416,30.0874,眉山市,气象局,,40,40,105,19,62,106,,51,51,16,42,7,12,0.5,1
2025-03-23T1600,3137A,103.8578,30.0744,眉山市,市委党校,,41,41,92,17,63,107,,49,49,15,52,9,14,0.4,0.9
2025-03-23T1600,3148A,103.8291,30.0564,眉山市,区人社局,,38,38,76,14,60,100,,49,49,18,51,8,13,0.5,0.9
2025-03-23T1600,1690A,116.1231,24.3284,梅州市,梅江月梅,臭氧1小时,78,42,56,27,36,182,,141,141,11,31,6,5,0.4,0.5
2025-03-23T1600,1691A,116.0797,24.2719,梅州市,梅县新城,臭氧1小时,75,47,62,26,35,180,,135,135,11,38,7,7,0.4,0.5
2025-03-23T1600,1692A,116.1248,24.2654,梅州市,环境监控中心,臭氧1小时,63,50,61,28,37,170,,146,146,11,42,7,11,0.4,0.6
2025-03-23T1600,3315A,116.1233,24.2991,梅州市,梅龙,臭氧1小时,60,39,53,24,33,168,,143,143,10,28,8,9,0.5,0.7
2025-03-23T1600,1878A,104.7778,31.4741,绵阳市,富乐山,颗粒物(PM10),52,53,84,30,56,134,,81,81,19,48,3,4,0.5,0.8
2025-03-23T1600,1880A,104.6697,31.4668,绵阳市,高新区自来水公司,颗粒物(PM10),54,58,109,29,59,140,,85,85,16,48,4,5,0.4,0.7
2025-03-23T1600,1881A,104.7287,31.5075,绵阳市,三水厂,颗粒物(PM10),63,75,98,34,59,146,,85,85,18,45,6,7,0.5,0.8
2025-03-23T1600,3491A,104.69,31.5322,绵阳市,西科大附属小学,颗粒物(PM10),57,63,89,33,50,144,,89,89,18,48,8,7,0.5,0.7
2025-03-23T1600,3492A,104.5648,31.5343,绵阳市,安州区旅游局,,49,49,86,27,52,131,,86,86,14,38,8,10,0.4,0.7
2025-03-23T1600,4226A,104.7651,31.4531,绵阳市,绵阳市气象局,颗粒物(PM10),51,51,91,18,55,120,,70,70,20,53,4,5,0.5,0.8
2025-03-23T1600,1784A,129.61,44.561,牡丹江市,环保大楼,,33,23,28,18,17,104,,88,88,12,14,8,6,0.3,0.3
2025-03-23T1600,1785A,129.6115,44.5782,牡丹江市,文化广场,,32,29,23,21,20,102,,88,88,12,14,13,10,0.3,0.3
2025-03-23T1600,1786A,129.5904,44.5963,牡丹江市,第一医院,,33,19,24,13,18,104,,90,90,13,12,10,10,0.0,0.1
2025-03-23T1600,1787A,129.6364,44.6075,牡丹江市,机车工厂,,32,21,34,6,20,102,,87,87,8,12,9,23,0.4,0.5
2025-03-23T1600,1788A,129.6386,44.5462,牡丹江市,第一中学,,34,25,21,20,18,108,,96,96,6,8,8,7,0.3,0.3
2025-03-23T1600,2531A,105.0703,29.61,内江市,市监测站,细颗粒物(PM2.5),59,45,73,42,72,132,,70,70,19,45,6,7,0.1,0.4
2025-03-23T1600,2532A,105.0717,29.5947,内江市,东兴区政府,颗粒物(PM10),51,51,80,33,64,133,,67,67,16,40,7,6,0.5,0.8
2025-03-23T1600,2533A,105.0653,29.5817,内江市,内江二中,细颗粒物(PM2.5),58,50,84,41,72,132,,69,69,16,41,10,10,0.7,1
2025-03-23T1600,2534A,105.0406,29.5822,内江市,内江日报社,细颗粒物(PM2.5),58,46,94,41,74,132,,72,72,14,40,12,13,0.5,0.8
2025-03-23T1600,2628A,92.0657,31.4846,那曲市,那曲监测站,,35,14,33,7,11,111,,103,103,4,5,6,6,0.4,0.4
2025-03-23T1600,3128A,92.0506,31.4797,那曲市,那曲会议中心,,,,,,,,,,,,,,,,
2025-03-23T1600,1290A,115.8931,28.6843,南昌市,省外办,颗粒物(PM10),68,86,100,41,63,47,,42,42,63,87,14,12,0.7,1.1
2025-03-23T1600,1291A,115.8886,28.7003,南昌市,省林业公司,,,83,85,44,46,64,,46,46,,70,14,13,,0
2025-03-23T1600,1292A,115.8126,28.7442,南昌市,林科所,颗粒物(PM10),69,88,68,31,32,65,,62,62,53,79,12,12,0.6,0.6
2025-03-23T1600,1294A,115.8518,28.687,南昌市,建工学校,颗粒物(PM10),70,90,87,32,46,52,,49,49,72,79,23,17,0.6,0.8
2025-03-23T1600,1295A,115.8921,28.6424,南昌市,象湖,颗粒物(PM10),65,79,93,39,42,72,,54,54,58,68,20,13,0.7,0.8
2025-03-23T1600,1296A,115.7423,28.7996,南昌市,武术学校,细颗粒物(PM2.5),53,49,25,37,19,61,,71,71,20,12,10,8,0.6,0.5
2025-03-23T1600,3046A,115.9084,28.6062,南昌市,机电学校,颗粒物(PM10),67,84,98,39,48,81,,56,56,52,67,18,12,0.6,0.7
2025-03-23T1600,3690A,115.9721,28.7031,南昌市,外国语学校,细颗粒物(PM2.5),70,82,97,51,45,68,,52,52,46,55,11,9,0.1,0.5
2025-03-23T1600,4192A,115.9316,28.68677,南昌市,南京东路235号,颗粒物(PM10),69,87,108,34,56,64,,72,72,52,69,12,11,0.4,0.7
2025-03-23T1600,1905A,106.056,30.8064,南充市,西山风景区,,,36,83,26,72,150,,100,100,10,29,5,8,,1
2025-03-23T1600,1906A,106.0789,30.8023,南充市,南充市委,,46,45,112,31,84,147,,84,84,16,44,5,8,0.5,0.9
2025-03-23T1600,1907A,106.1031,30.8217,南充市,南充炼油厂,颗粒物(PM10),56,62,116,36,86,137,,82,82,25,48,6,8,0.4,0.8
2025-03-23T1600,1909A,106.0642,30.7636,南充市,嘉陵区环保局,颗粒物(PM10),55,59,113,29,76,129,,75,75,14,41,5,8,0.7,1
2025-03-23T1600,4227A,106.1083,30.7884,南充市,梨树横街98号,,44,40,122,28,65,140,,84,84,13,41,6,9,0.3,0.6
2025-03-23T1600,4304A,106.1172,30.843,南充市,清泉寺北路188号,,,58,117,,81,135,,85,85,17,48,8,10,,0.6
2025-03-23T1600,1151A,118.8086,32.1065,南京市,迈皋桥,颗粒物(PM10),56,62,64,36,38,124,,100,100,35,52,6,16,0.4,0.7
2025-03-23T1600,1152A,118.7538,32.0551,南京市,草场门,颗粒物(PM10),70,90,77,39,37,99,,84,84,40,53,13,15,0.7,0.8
2025-03-23T1600,1153A,118.7794,32.0745,南京市,山西路,颗粒物(PM10),70,90,83,39,37,114,,93,93,31,43,8,10,0.8,1
2025-03-23T1600,1154A,118.7752,32.0023,南京市,中华门,颗粒物(PM10),65,80,75,39,37,107,,96,96,34,61,20,20,0.7,0.8
2025-03-23T1600,1155A,118.8109,32.0309,南京市,瑞金路,颗粒物(PM10),71,92,85,41,40,114,,98,98,26,70,6,7,0.7,1.1
2025-03-23T1600,1156A,118.7997,32.0754,南京市,玄武湖,颗粒物(PM10),71,92,83,36,34,113,,94,94,26,36,10,11,0.5,0.8
2025-03-23T1600,1157A,118.6414,32.0931,南京市,浦口,颗粒物(PM10),85,119,76,23,27,142,,115,115,10,23,7,10,0.3,0.3
2025-03-23T1600,1158A,118.7356,31.9996,南京市,奥体中心,颗粒物(PM10),65,79,84,39,40,113,,93,93,35,69,14,16,0.6,1
2025-03-23T1600,1159A,118.9125,32.1028,南京市,仙林大学城,颗粒物(PM10),71,92,80,41,36,114,,102,102,37,58,14,13,0.9,1.1
2025-03-23T1600,3422A,118.8436,31.9198,南京市,江宁彩虹桥,颗粒物(PM10),71,92,83,41,36,112,,108,108,36,59,16,7,1.2,0.7
2025-03-23T1600,3423A,119.0138,31.6494,南京市,溧水永阳,"颗粒物(PM10),细颗粒物(PM2.5)",57,63,57,40,39,114,,116,116,29,35,13,7,0.8,0.6
2025-03-23T1600,3427A,118.8554,32.3578,南京市,六合雄州,,44,44,74,29,32,117,,115,115,8,31,5,8,0.3,0.5
2025-03-23T1600,4249A,118.8708,31.3402,南京市,汶溪路181号,颗粒物(PM10),59,68,59,34,35,126,,125,125,20,24,10,7,0.5,0.5
2025-03-23T1600,1401A,108.3103,22.7881,南宁市,二十一中,臭氧1小时,70,62,53,44,39,176,,152,152,15,24,7,9,0.5,0.6
2025-03-23T1600,1402A,108.3141,22.8528,南宁市,北湖,臭氧1小时,67,50,60,34,37,173,,141,141,14,29,10,11,0.5,0.5
2025-03-23T1600,1403A,108.3206,22.8225,南宁市,市监测站,臭氧1小时,65,64,57,35,39,172,,146,146,22,24,10,12,0.8,0.8
2025-03-23T1600,1404A,108.3829,22.8037,南宁市,大自然花园,臭氧1小时,74,59,54,41,38,179,,148,148,13,20,8,9,0.6,0.5
2025-03-23T1600,1405A,108.4394,22.7904,南宁市,仙葫,,48,36,54,23,38,151,,132,132,9,21,4,5,0.5,0.4
2025-03-23T1600,1406A,108.2397,22.8467,南宁市,区农职院,臭氧1小时,69,51,66,27,40,175,,150,150,15,28,5,8,0.7,0.8
2025-03-23T1600,1407A,108.3275,22.735,南宁市,英华嘉园,臭氧1小时,75,45,60,28,35,180,,152,152,11,30,9,11,0.5,0.6
2025-03-23T1600,3401A,108.4834,22.7618,南宁市,红星社区,,,41,51,31,34,163,,138,138,,24,10,11,0.7,0.7
2025-03-23T1600,4221A,108.2177,22.7774,南宁市,乐贤路16号,,50,47,70,29,37,158,,136,136,12,42,10,12,0.6,0.6
2025-03-23T1600,2331A,118.0966,26.6761,南平市,茫荡山,,,,,,,,,,,,,,,,
2025-03-23T1600,2332A,118.1681,26.6369,南平市,南平市监测站,,48,38,38,24,24,152,,118,118,5,23,3,3,0.5,0.7
2025-03-23T1600,2333A,118.1825,26.6489,南平市,南平铝业有限公司,,46,37,38,17,24,145,,112,112,4,20,7,9,0.5,0.6
2025-03-23T1600,2334A,118.1756,26.6272,南平市,南平七中,,47,39,34,22,24,148,,112,112,6,22,6,5,0.4,0.5
2025-03-23T1600,1168A,120.9098,31.9663,南通市,狼山街道,颗粒物(PM10),71,92,84,35,45,164,,132,132,31,78,10,11,0.5,0.8
2025-03-23T1600,1169A,120.86,32.0005,南通市,虹桥,,,,91,,55,157,,113,113,,100,12,15,0.6,1
2025-03-23T1600,1170A,120.87,32.02,南通市,城中,颗粒物(PM10),68,86,106,33,51,148,,112,112,30,88,13,17,0.6,1.1
2025-03-23T1600,1171A,120.94,31.93,南通市,星湖花园,颗粒物(PM10),61,72,84,40,46,158,,132,132,40,77,10,12,0.5,0.7
2025-03-23T1600,1172A,120.81,32.0417,南通市,紫琅学院,颗粒物(PM10),67,83,98,31,46,151,,103,103,35,89,8,12,0.9,0.9
2025-03-23T1600,3291A,121.067,32.062,南通市,通州监测站,臭氧1小时,72,80,97,36,51,177,,136,136,20,71,8,11,0.7,1
2025-03-23T1600,3432A,120.9348,31.9883,南通市,环境教育馆,颗粒物(PM10),79,107,102,41,49,170,,132,132,33,75,10,13,0.4,0.9
2025-03-23T1600,2404A,112.5224,33.0122,南阳市,瓦房庄,颗粒物(PM10),64,78,94,34,39,128,,66,66,8,36,4,3,0.5,0.6
2025-03-23T1600,2405A,112.5003,32.9735,南阳市,汉画馆,颗粒物(PM10),64,77,85,31,36,123,,64,64,14,43,5,6,0.4,0.5
2025-03-23T1600,2406A,112.5573,33.027,南阳市,气象站,颗粒物(PM10),67,84,100,27,36,133,,65,65,11,43,7,7,0.5,0.6
2025-03-23T1600,2407A,112.5481,32.9689,南阳市,理工学院,颗粒物(PM10),64,77,86,26,32,128,,66,66,14,41,4,5,0.4,0.5
2025-03-23T1600,4008A,112.5234,32.9922,南阳市,卧龙区政府,颗粒物(PM10),68,86,96,31,40,124,,61,61,11,38,6,5,0.4,0.6
2025-03-23T1600,1234A,121.8358,29.911,宁波市,区环保大楼,颗粒物(PM10),60,70,93,21,34,166,,113,113,22,95,8,12,0.5,0.7
2025-03-23T1600,1235A,121.56,29.82,宁波市,万里学院,臭氧1小时,57,53,55,36,30,165,,147,147,13,31,13,10,0.2,0.4
2025-03-23T1600,1236A,121.713,29.9572,宁波市,龙赛医院,臭氧1小时,95,85,75,33,32,196,,141,141,40,52,10,10,0.5,0.6
2025-03-23T1600,1239A,121.633,29.7733,宁波市,钱湖水厂,臭氧1小时,69,42,43,28,25,175,,145,145,13,18,8,8,0.5,0.6
2025-03-23T1600,1240A,121.5856,29.8635,宁波市,太古小学,臭氧1小时,83,58,57,28,30,186,,149,149,18,32,10,10,0.5,0.5
2025-03-23T1600,1241A,121.524,29.8674,宁波市,市环境监测中心,臭氧1小时,74,52,59,16,32,179,,141,141,27,54,10,12,0.7,0.9
2025-03-23T1600,2871A,121.6147,29.9017,宁波市,万里国际学校,臭氧1小时,84,54,49,34,27,187,,152,152,35,24,11,9,0.5,0.5
2025-03-23T1600,3710A,121.5594,29.8975,宁波市,白沙活动中心,臭氧1小时,97,53,53,30,30,197,,158,158,17,41,9,9,0.6,0.7
2025-03-23T1600,2339A,119.5001,26.6946,宁德市,金涵水库,,,,,,,,,,,,,,,,
2025-03-23T1600,2341A,119.5388,26.6612,宁德市,宁德市监测站,臭氧1小时,79,60,40,26,26,183,,132,132,21,21,9,6,1.0,0.7
2025-03-23T1600,3209A,119.5231,26.6562,宁德市,宁德一中,臭氧1小时,82,51,38,36,28,185,,130,130,18,16,10,7,0.9,0.7
2025-03-23T1600,2618A,98.8601,25.8567,怒江傈僳族自治州,州监测站,,32,32,24,20,15,61,,59,50,8,6,5,4,0.4,0.4
2025-03-23T1600,2619A,98.8546,25.8417,怒江傈僳族自治州,泸水一中,,48,48,22,14,17,47,,46,40,19,12,6,6,0.4,0.4
2025-03-23T1600,1888A,101.6891,26.571,攀枝花市,弄弄坪,细颗粒物(PM2.5),69,56,80,50,49,125,,90,90,10,40,12,36,0.6,1.9
2025-03-23T1600,1889A,101.5769,26.5928,攀枝花市,河门口,细颗粒物(PM2.5),62,59,61,44,40,125,,90,90,12,30,13,18,0.8,1.1
2025-03-23T1600,1890A,101.7169,26.585,攀枝花市,炳草岗,,50,50,72,32,41,130,,86,86,19,48,12,18,0.6,1
2025-03-23T1600,1891A,101.7369,26.5008,攀枝花市,仁和,细颗粒物(PM2.5),64,63,59,46,42,134,,99,99,11,25,7,12,0.6,0.8
2025-03-23T1600,2835A,101.7227,26.567,攀枝花市,四十中小,细颗粒物(PM2.5),59,63,73,42,44,132,,97,97,9,35,10,20,0.8,1.4
2025-03-23T1600,1604A,122.0303,41.1489,盘锦市,开发区,颗粒物(PM10),65,80,120,43,103,113,,96,96,31,48,19,16,0.8,1.1
2025-03-23T1600,1605A,122.0485,41.0883,盘锦市,兴隆台,细颗粒物(PM2.5),85,95,114,63,82,103,,86,86,40,55,14,11,0.9,1
2025-03-23T1600,1606A,121.8297,41.1028,盘锦市,新生街道,细颗粒物(PM2.5),72,78,90,52,89,112,,87,87,36,53,15,11,0.9,1
2025-03-23T1600,1832A,113.3257,33.742,平顶山市,新华旅馆,颗粒物(PM10),84,118,100,20,30,132,,100,100,18,36,4,5,0.2,0.3
2025-03-23T1600,1833A,113.2919,33.737,平顶山市,规划设计院,颗粒物(PM10),79,108,100,33,37,126,,89,89,10,38,6,7,0.4,0.6
2025-03-23T1600,1834A,113.182,33.774,平顶山市,平顶山工学院,颗粒物(PM10),79,108,90,31,33,125,,91,91,4,17,7,7,0.4,0.5
2025-03-23T1600,3204A,113.3025,33.73,平顶山市,规划局,颗粒物(PM10),84,117,99,39,40,129,,92,92,12,35,5,6,0.4,0.6
2025-03-23T1600,3594A,112.8867,33.9116,平顶山市,石龙区,颗粒物(PM10),89,128,119,33,32,128,,115,115,8,26,5,7,0.1,0.2
2025-03-23T1600,2656A,106.6692,35.5461,平凉市,聚贤嘉苑,,,,74,,15,,,121,,,23,,12,,0.5
2025-03-23T1600,2657A,106.7021,35.5307,平凉市,博物馆,颗粒物(PM10),65,79,110,17,34,102,,91,91,7,24,19,21,0.2,0.5
2025-03-23T1600,2347A,114.0997,27.5002,萍乡市,武功山,,50,50,34,34,21,128,,104,104,11,11,14,9,1.2,1.2
2025-03-23T1600,2348A,113.8385,27.6434,萍乡市,中医院,颗粒物(PM10),60,69,73,30,37,122,,78,78,16,35,24,15,0.8,1
2025-03-23T1600,2349A,113.8493,27.6253,萍乡市,市政府车库,颗粒物(PM10),55,60,59,37,41,119,,86,86,22,30,21,11,1.2,1
2025-03-23T1600,2350A,113.8676,27.6435,萍乡市,市环保局,颗粒物(PM10),59,67,71,40,41,122,,74,74,18,41,20,14,0.7,1
2025-03-23T1600,2351A,113.866,27.6198,萍乡市,安源区政府,颗粒物(PM10),59,67,64,28,33,117,,85,85,18,25,24,15,1.0,1.4
2025-03-23T1600,2319A,119.0141,25.4325,莆田市,荔城区仓后路,臭氧1小时,109,84,61,58,42,218,,160,160,27,23,8,4,0.7,0.7
2025-03-23T1600,2320A,119.0015,25.4553,莆田市,莆田市监测站,臭氧1小时,115,83,46,54,33,230,,170,170,27,15,12,5,0.5,0.4
2025-03-23T1600,2321A,119.1119,25.4561,莆田市,涵江区六中,臭氧1小时,102,65,57,50,42,204,,160,160,24,31,6,5,0.4,0.5
2025-03-23T1600,2322A,119.1013,25.3215,莆田市,秀屿区政府,臭氧1小时,99,79,74,38,54,199,,162,162,19,36,6,6,0.5,0.6
2025-03-23T1600,2323A,118.981,25.4792,莆田市,东圳水库,,,,,,,,,,,,,,,,
2025-03-23T1600,2392A,115.0312,35.7636,濮阳市,环保局,颗粒物(PM10),111,171,94,49,35,109,,68,68,20,38,9,9,0.6,0.7
2025-03-23T1600,2394A,115.0574,35.7609,濮阳市,油田运输公司,颗粒物(PM10),126,201,111,43,32,112,,69,69,20,37,7,7,0.8,0.9
2025-03-23T1600,3021A,115,35.7668,濮阳市,濮水河管理处,颗粒物(PM10),137,223,122,45,35,105,,65,65,30,49,10,7,0.7,0.8
2025-03-23T1600,4216A,115.0924,35.7686,濮阳市,任丘路479号,颗粒物(PM10),123,195,112,42,31,121,,82,82,16,33,8,8,0.6,0.6
2025-03-23T1600,2601A,100.98,22.7633,普洱市,市环保局,颗粒物(PM10),72,94,75,33,21,127,,76,76,9,13,4,4,0.8,0.9
2025-03-23T1600,2602A,100.9817,22.8322,普洱市,普洱第二中学,,,,,36,30,113,,73,73,8,16,6,6,0.6,0.8
2025-03-23T1600,2262A,131.0518,45.8751,七台河市,新一中,,,,12,,6,95,,79,,7,7,9,11,0.8,0.6
2025-03-23T1600,3345A,131.0577,45.7879,七台河市,中波台,,26,14,18,3,8,83,,82,82,12,15,9,7,0.5,0.5
2025-03-23T1600,3637A,131.0176,45.7761,七台河市,人民广场,,26,24,30,15,17,81,,80,80,16,16,14,8,0.3,0.6
2025-03-23T1600,3684A,130.8781,45.8222,七台河市,新建矿广场,,27,24,19,9,18,84,,84,84,15,12,10,10,1.0,0.6
2025-03-23T1600,1779A,123.9305,47.3636,齐齐哈尔市,安居小区,颗粒物(PM10),106,161,48,56,19,134,,93,93,18,19,11,8,0.5,0.4
2025-03-23T1600,1780A,123.9488,47.3386,齐齐哈尔市,中心广场,颗粒物(PM10),116,182,56,50,18,122,,84,84,16,16,7,7,0.5,0.4
2025-03-23T1600,1781A,123.9483,47.3227,齐齐哈尔市,农牧车辆厂,颗粒物(PM10),92,134,44,25,14,136,,96,96,12,13,6,6,0.3,0.3
2025-03-23T1600,1783A,123.945,47.2988,齐齐哈尔市,市环境监测站,颗粒物(PM10),88,126,38,37,16,128,,92,92,12,10,4,4,0.4,0.3
2025-03-23T1600,3662A,123.6333,47.2075,齐齐哈尔市,富区青少年活动中心,,,292,73,,20,160,,97,97,20,12,11,7,0.9,0.4
2025-03-23T1600,2591A,107.9783,26.5747,黔东南苗族侗族自治州,市环境监测站,颗粒物(PM10),53,56,61,36,47,119,,93,93,8,20,7,7,0.3,0.5
2025-03-23T1600,2881A,107.8908,26.5311,黔东南苗族侗族自治州,凯里学院,颗粒物(PM10),63,75,62,37,43,132,,103,103,4,9,6,6,0.6,0.7
2025-03-23T1600,2593A,107.5228,26.2403,黔南布依族苗族自治州,小围寨,颗粒物(PM10),52,53,58,24,42,141,,114,114,7,12,8,12,0.8,0.8
2025-03-23T1600,3538A,107.5175,26.2978,黔南布依族苗族自治州,沙坝,颗粒物(PM10),54,58,65,24,44,137,,112,112,10,17,6,10,0.5,0.6
2025-03-23T1600,2589A,104.9022,25.0925,黔西南布依族苗族自治州,场坝街,细颗粒物(PM2.5),63,64,74,45,65,163,,152,152,16,20,12,23,0.5,0.6
2025-03-23T1600,2590A,104.8811,25.0992,黔西南布依族苗族自治州,坪东大道,细颗粒物(PM2.5),62,57,70,44,62,163,,149,149,18,27,11,11,0.4,0.5
2025-03-23T1600,2502A,108.6236,21.9667,钦州市,市环保站,颗粒物(PM10),62,73,77,31,35,153,,126,126,20,36,11,11,0.5,0.6
2025-03-23T1600,2503A,108.6549,21.9481,钦州市,沙埠小学,颗粒物(PM10),53,55,83,22,48,141,,117,117,11,45,8,13,0.5,0.7
2025-03-23T1600,2504A,108.5989,21.7431,钦州市,港区一小,颗粒物(PM10),64,78,90,23,38,113,,98,98,15,56,6,10,0.7,0.9
2025-03-23T1600,3404A,108.5959,21.9633,钦州市,北职校,,48,48,74,18,42,150,,124,124,16,39,9,12,0.7,0.7
2025-03-23T1600,1043A,119.7493,40.0116,秦皇岛市,第一关,颗粒物(PM10),90,130,63,47,24,84,,71,71,37,54,12,10,0.7,0.4
