timepoint,stationcode,longitude,latitude,area,positionname,primarypollutant,aqi,pm10,pm10_24h,pm2_5,pm2_5_24h,o3,o3_24h,o3_8h,o3_8h_24h,no2,no2_24h,so2,so2_24h,co,co_24h
2025-03-23T1200,2566A,102.1879,31.914,阿坝藏族羌族自治州,州农科所,颗粒物(PM10),52,54,37,9,12,106,,76,76,3,11,9,10,0.2,0.2
2025-03-23T1200,2568A,102.2502,31.8896,阿坝藏族羌族自治州,马师校,,42,42,20,14,18,115,,82,82,5,8,5,5,0.4,0.4
2025-03-23T1200,3994A,102.2165,31.9024,阿坝藏族羌族自治州,马尔康中学西区,,40,40,19,13,14,121,,89,89,5,6,5,5,0.3,0.4
2025-03-23T1200,2695A,80.292,41.1694,阿克苏地区,电视台,颗粒物(PM10),131,212,240,53,68,62,,76,70,37,23,8,7,0.7,0.6
2025-03-23T1200,2696A,80.2613,41.1551,阿克苏地区,艺术中心,颗粒物(PM10),136,221,256,58,74,67,,70,69,26,33,5,6,0.8,0.8
2025-03-23T1200,2204A,105.6467,38.8363,阿拉善盟,西城区西花园,颗粒物(PM10),422,522,257,118,60,100,,103,99,6,7,10,11,0.7,0.7
2025-03-23T1200,2205A,105.6985,38.8411,阿拉善盟,蒙二幼,颗粒物(PM10),289,412,261,124,72,93,,98,94,6,8,6,6,0.5,0.5
2025-03-23T1200,2206A,105.724,38.8516,阿拉善盟,环保局新楼,颗粒物(PM10),340,452,262,129,74,94,,103,96,4,4,8,8,0.8,0.8
2025-03-23T1200,2708A,88.1264,47.8517,阿勒泰地区,市站,,31,8,27,6,10,99,,102,102,2,6,2,3,0.4,0.4
2025-03-23T1200,2630A,80.1161,32.5,阿里地区,阿里监测站,,30,13,14,6,10,95,,75,75,4,5,10,7,0.4,0.5
2025-03-23T1200,3192A,80.0903,32.5028,阿里地区,阿里藏医院,,,,,,,,,,,,,,,,
2025-03-23T1200,2642A,109.0318,32.6537,安康市,香溪洞,,43,43,43,23,26,104,,86,86,6,7,6,7,0.2,0.2
2025-03-23T1200,2644A,109.0072,32.6975,安康市,汉滨区检察院,,50,50,54,24,27,93,,44,44,14,23,10,13,0.4,0.4
2025-03-23T1200,4054A,109.0325,32.6913,安康市,市邮政管理局,颗粒物(PM10),55,60,60,26,30,95,,39,39,14,26,10,13,0.5,0.6
2025-03-23T1200,2291A,117.0809,30.5177,安庆市,环科院,细颗粒物(PM2.5),69,75,62,50,35,37,,30,29,70,51,12,10,0.6,0.5
2025-03-23T1200,2292A,117.0331,30.5119,安庆市,马山宾馆,细颗粒物(PM2.5),77,75,60,56,36,33,,50,39,67,42,9,7,0.6,0.6
2025-03-23T1200,2294A,116.9896,30.6145,安庆市,安庆大学,颗粒物(PM10),58,66,64,36,32,102,,84,75,32,30,19,11,0.7,0.5
2025-03-23T1200,3173A,117.0598,30.5351,安庆市,市人大,"颗粒物(PM10),细颗粒物(PM2.5)",64,78,60,46,32,61,,72,65,45,26,15,13,0.6,0.6
2025-03-23T1200,3122A,105.9606,26.2611,安顺市,伍家关,,36,36,54,20,41,110,,94,94,10,13,8,12,0.3,0.5
2025-03-23T1200,3123A,105.9408,26.2431,安顺市,凤凰山,,40,40,51,24,42,105,,94,90,17,19,20,16,0.5,0.5
2025-03-23T1200,3124A,105.9439,26.2564,安顺市,金钟山,,40,40,53,24,40,108,,94,90,10,13,17,13,0.5,0.5
2025-03-23T1200,3125A,105.8983,26.2481,安顺市,娄家坡,,43,40,54,30,44,106,,90,90,11,13,8,13,0.4,0.6
2025-03-23T1200,1818A,114.4839,36.0621,安阳市,棉研所,,,,,,,,,,,,,,,,
2025-03-23T1200,1819A,114.3551,36.1017,安阳市,红庙街,颗粒物(PM10),101,151,104,36,30,81,,48,42,14,21,5,7,0.4,0.6
2025-03-23T1200,1820A,114.361,36.0681,安阳市,银杏小区,颗粒物(PM10),105,160,100,52,36,73,,61,48,33,24,3,6,0.5,0.6
2025-03-23T1200,3141A,114.3922,36.0878,安阳市,信访局,颗粒物(PM10),97,143,98,43,38,93,,68,58,19,25,6,10,0.4,0.6
2025-03-23T1200,3669A,114.4705,36.0637,安阳市,左辅环卫站,颗粒物(PM10),105,159,114,50,35,75,,64,,36,29,10,11,,0.6
2025-03-23T1200,3703A,114.2917,36.0949,安阳市,安钢职工学校,颗粒物(PM10),105,160,116,62,40,65,,58,43,36,25,4,7,0.7,0.7
2025-03-23T1200,1748A,123.044,41.1196,鞍山市,深沟寺,细颗粒物(PM2.5),119,152,113,90,60,124,,66,66,39,35,28,35,1.7,1.4
2025-03-23T1200,1749A,123.011,41.0931,鞍山市,太阳城,细颗粒物(PM2.5),147,192,114,112,62,115,,62,59,57,32,28,25,2.3,1.6
2025-03-23T1200,1750A,123.0485,41.1442,鞍山市,太平,细颗粒物(PM2.5),178,242,139,134,70,91,,48,41,77,48,54,23,2.9,1.6
2025-03-23T1200,1751A,122.9642,41.0971,鞍山市,铁西三道街,细颗粒物(PM2.5),173,225,168,131,93,124,,38,38,57,66,28,24,2.3,1.8
2025-03-23T1200,1753A,123.022,41.0821,鞍山市,明达新区,细颗粒物(PM2.5),155,190,124,118,71,121,,58,58,47,33,27,22,2.0,1.3
2025-03-23T1200,1754A,123.1289,41.0228,鞍山市,千山,,,,60,,27,,,92,,,12,,6,,0.6
2025-03-23T1200,4201A,122.9446,41.0826,鞍山市,兴盛南路290号,细颗粒物(PM2.5),166,225,189,126,95,139,,43,43,56,67,28,28,1.9,1.6
2025-03-23T1200,2195A,107.4212,40.761,巴彦淖尔市,附二中,颗粒物(PM10),500,758,457,130,86,82,,84,82,8,6,5,5,0.4,0.4
2025-03-23T1200,2196A,107.37,40.7372,巴彦淖尔市,市环保大楼,颗粒物(PM10),500,692,408,125,87,90,,86,86,4,5,4,4,0.3,0.3
2025-03-23T1200,1956A,86.1472,41.7538,巴音郭楞蒙古自治州,孔雀公园,颗粒物(PM10),349,459,701,104,110,64,,65,49,30,14,7,6,0.5,0.4
2025-03-23T1200,1957A,86.1972,41.7166,巴音郭楞蒙古自治州,棉纺厂,颗粒物(PM10),492,592,906,112,136,71,,68,58,23,16,5,3,0.3,0.3
2025-03-23T1200,1958A,86.2357,41.7173,巴音郭楞蒙古自治州,经济开发区,颗粒物(PM10),383,486,822,83,118,84,,79,72,11,12,7,5,0.3,0.3
2025-03-23T1200,2914A,106.7677,31.8794,巴中市,苏山坪,细颗粒物(PM2.5),73,66,61,53,47,70,,43,35,18,22,6,4,0.5,0.5
2025-03-23T1200,3181A,106.7768,31.8526,巴中市,市五中,细颗粒物(PM2.5),65,64,84,47,59,76,,20,20,13,33,8,5,0.6,0.8
2025-03-23T1200,3183A,106.7418,31.8654,巴中市,圣泉水务公司,细颗粒物(PM2.5),68,65,56,49,41,72,,21,21,16,33,11,8,0.6,0.6
2025-03-23T1200,3616A,106.7616,31.8344,巴中市,市中心医院,细颗粒物(PM2.5),74,66,66,54,53,79,,20,20,14,34,10,7,0.5,0.6
2025-03-23T1200,2235A,122.7911,45.6077,白城市,洮北区环保局,细颗粒物(PM2.5),83,,44,61,39,104,,72,72,11,14,7,7,0.5,0.5
2025-03-23T1200,2236A,122.8738,45.5725,白城市,市环保局,细颗粒物(PM2.5),63,70,48,45,37,108,,61,61,9,15,4,4,0.6,0.6
2025-03-23T1200,2231A,126.4219,41.9171,白山市,喜丰,细颗粒物(PM2.5),70,81,115,51,43,141,,87,87,20,29,11,14,1.0,1.2
2025-03-23T1200,2232A,126.4077,41.9419,白山市,环保局,细颗粒物(PM2.5),64,68,101,46,73,124,,72,72,8,15,12,11,1.1,1.2
2025-03-23T1200,2647A,104.1724,36.5446,白银市,第三小学,颗粒物(PM10),76,102,102,24,32,88,,78,78,10,14,26,20,0.1,0.3
2025-03-23T1200,2648A,104.1465,36.5482,白银市,动力公司,颗粒物(PM10),76,101,95,26,32,93,,82,82,10,13,22,10,0.3,0.5
2025-03-23T1200,2512A,106.6103,23.9011,百色市,市监测站,细颗粒物(PM2.5),79,101,85,58,56,141,,79,79,23,21,24,19,1.0,1
2025-03-23T1200,2513A,106.6538,23.8859,百色市,市中心血站,细颗粒物(PM2.5),105,103,99,79,67,139,,73,73,24,24,24,20,1.0,0.9
2025-03-23T1200,3406A,106.6085,23.8798,百色市,祈福高中,细颗粒物(PM2.5),69,82,99,50,52,142,,60,60,20,30,18,16,1.0,0.9
2025-03-23T1200,2270A,117.396,32.939,蚌埠市,工人疗养院,颗粒物(PM10),78,105,83,55,33,118,,99,99,31,29,9,7,0.7,0.6
2025-03-23T1200,2271A,117.3605,32.9427,蚌埠市,百货大楼,"颗粒物(PM10),细颗粒物(PM2.5)",77,104,85,56,34,108,,86,86,30,31,10,8,0.5,0.3
2025-03-23T1200,2273A,117.4185,32.8911,蚌埠市,蚌埠学院,颗粒物(PM10),79,107,93,54,39,104,,79,79,28,31,9,7,0.7,0.4
2025-03-23T1200,2274A,117.3533,32.9673,蚌埠市,淮上区政府,细颗粒物(PM2.5),82,107,86,60,38,108,,96,96,33,29,9,8,0.7,0.5
2025-03-23T1200,2275A,117.3145,32.8977,蚌埠市,高新区,细颗粒物(PM2.5),84,97,96,62,45,105,,69,69,25,36,10,7,0.6,0.4
2025-03-23T1200,3715A,117.3092,32.9314,蚌埠市,蚌埠田家炳中学,细颗粒物(PM2.5),85,104,91,63,39,104,,78,78,34,38,11,19,0.5,0.3
2025-03-23T1200,1585A,109.8756,40.6532,包头市,市环境监测站,颗粒物(PM10),500,699,235,168,69,105,,35,35,26,53,28,30,1.6,1.7
2025-03-23T1200,1587A,109.9991,40.5842,包头市,包头八中,颗粒物(PM10),500,649,225,183,79,90,,39,39,15,32,20,18,0.5,0.7
2025-03-23T1200,1588A,109.8538,40.6821,包头市,青山宾馆,颗粒物(PM10),500,652,205,190,77,80,,27,27,34,47,22,16,1.4,1.3
2025-03-23T1200,1589A,109.8642,40.6288,包头市,惠龙物流,颗粒物(PM10),500,766,271,170,71,108,,72,72,20,30,18,23,0.8,0.9
2025-03-23T1200,1590A,110.0377,40.5546,包头市,东河鸿龙湾,颗粒物(PM10),500,614,196,144,55,94,,54,54,7,20,9,11,0.5,0.6
2025-03-23T1200,3283A,109.9154,40.5685,包头市,滨河大厦,颗粒物(PM10),500,638,214,154,62,95,,73,73,7,16,9,10,0.7,0.7
2025-03-23T1200,3419A,109.9447,40.6261,包头市,包头市委党校,颗粒物(PM10),500,736,235,172,67,108,,56,56,19,30,22,23,1.1,0.9
2025-03-23T1200,3683A,109.8331,40.6576,包头市,昆区政府,颗粒物(PM10),500,698,230,187,83,92,,32,32,30,53,22,32,1.8,2
2025-03-23T1200,1930A,107.185,34.3063,宝鸡市,庙沟村,颗粒物(PM10),82,114,64,28,30,111,,97,95,2,13,6,7,0.2,0.3
2025-03-23T1200,1931A,107.0708,34.3017,宝鸡市,竹园沟,,,118,66,29,28,,,88,88,5,14,6,7,0.2,0.3
2025-03-23T1200,1932A,107.1906,34.3672,宝鸡市,三陆医院,颗粒物(PM10),94,137,78,24,39,103,,56,56,6,24,4,6,0.4,0.6
2025-03-23T1200,1933A,107.1431,34.3547,宝鸡市,监测站,颗粒物(PM10),103,155,76,30,32,102,,67,67,7,24,7,8,0.5,0.5
2025-03-23T1200,1934A,107.1186,34.3739,宝鸡市,技工学校,颗粒物(PM10),88,125,72,27,34,107,,73,73,6,18,4,7,0.3,0.5
2025-03-23T1200,1935A,107.3906,34.3528,宝鸡市,陈仓区环保局家属楼,颗粒物(PM10),80,109,81,24,40,101,,55,55,2,25,6,13,0.4,0.7
2025-03-23T1200,1936A,107.2058,34.3497,宝鸡市,文理学院,颗粒物(PM10),90,130,74,27,37,108,,71,71,5,21,5,7,0.3,0.4
2025-03-23T1200,1937A,107.2386,34.3622,宝鸡市,三迪小学,颗粒物(PM10),96,142,78,30,37,108,,63,63,10,28,6,8,0.3,0.4
2025-03-23T1200,1051A,115.493,38.8632,保定市,游泳馆,颗粒物(PM10),127,204,98,57,27,104,,61,61,9,30,11,11,0.2,0.3
2025-03-23T1200,1052A,115.5213,38.8959,保定市,华电二区,颗粒物(PM10),114,177,78,47,24,105,,78,73,5,11,4,3,0.2,0.2
2025-03-23T1200,1053A,115.4713,38.9108,保定市,接待中心,颗粒物(PM10),126,201,85,70,32,102,,80,79,8,16,2,3,0.2,0.2
2025-03-23T1200,1054A,115.4612,38.8416,保定市,地表水厂,颗粒物(PM10),143,236,123,52,32,106,,62,62,9,27,4,5,0.3,0.4
2025-03-23T1200,3581A,115.31981,38.95208,保定市,满城区生态环境分局,颗粒物(PM10),136,222,90,70,27,108,,104,93,6,9,2,3,0.2,0.2
2025-03-23T1200,3582A,115.47694,38.76408,保定市,清苑区第二中学,颗粒物(PM10),148,245,126,48,29,100,,74,68,9,20,9,10,0.3,0.3
2025-03-23T1200,3583A,115.62909,39.02311,保定市,徐水物探局,颗粒物(PM10),155,260,108,61,28,106,,63,63,9,27,12,12,0.1,0.1
2025-03-23T1200,4004A,115.4202,38.8656,保定市,双鹰农机,颗粒物(PM10),133,215,98,69,29,104,,69,69,5,22,4,5,0.2,0.2
2025-03-23T1200,4034A,115.5150,38.8590,保定市,植保所站,颗粒物(PM10),128,206,94,77,34,102,,64,64,1,12,4,4,0.3,0.3
2025-03-23T1200,2594A,99.1678,25.1081,保山市,市环境监测站,细颗粒物(PM2.5),77,65,48,56,42,61,,61,42,25,13,7,6,0.8,0.6
2025-03-23T1200,2595A,99.1711,25.1328,保山市,市环保局,颗粒物(PM10),59,67,54,38,39,67,,75,58,22,8,5,4,0.9,0.6
2025-03-23T1200,1866A,109.2262,21.588,北海市,牛尾岭水库,,,29,32,17,31,105,,76,76,,,6,7,0.6,0.7
2025-03-23T1200,1867A,109.1436,21.4086,北海市,海滩公园,,41,32,44,17,22,129,,126,126,7,13,5,7,0.5,0.5
2025-03-23T1200,1868A,109.0981,21.4661,北海市,新市环保局,,37,32,40,14,26,116,,120,112,10,20,3,4,0.6,0.6
2025-03-23T1200,1869A,109.1778,21.5233,北海市,北海工业园,,39,32,53,24,34,123,,82,82,7,25,7,8,0.2,0.4
2025-03-23T1200,3400A,109.1911,21.4415,北海市,龙潭自来水厂,,38,32,42,15,33,120,,91,91,8,19,6,6,0.4,0.5
2025-03-23T1200,1001A,116.3621,39.8784,北京市,万寿西宫,颗粒物(PM10),112,173,88,53,26,106,,97,97,12,18,3,3,0,0
2025-03-23T1200,1002A,116.2202,40.2915,北京市,定陵,,,,,,,,,,,,,,,,
2025-03-23T1200,1003A,116.4174,39.9289,北京市,东四,颗粒物(PM10),117,183,84,51,26,107,,97,97,9,14,5,5,0.4,0.4
2025-03-23T1200,1004A,116.4072,39.8863,北京市,天坛,颗粒物(PM10),120,190,84,50,26,102,,90,90,11,15,1,2,0.4,0.4
2025-03-23T1200,1005A,116.462,39.9365,北京市,农展馆,颗粒物(PM10),115,180,80,55,25,101,,91,91,4,10,7,6,0.3,0.4
2025-03-23T1200,1006A,116.3392,39.9295,北京市,官园,颗粒物(PM10),123,196,92,55,25,98,,86,86,9,14,8,8,0.4,0.4
2025-03-23T1200,1007A,116.2878,39.9611,北京市,海淀万柳,颗粒物(PM10),116,182,85,56,24,93,,86,86,10,13,4,4,0.4,0.4
2025-03-23T1200,1008A,116.6636,40.135,北京市,顺义新城,颗粒物(PM10),125,199,93,58,27,110,,68,68,8,24,5,6,0.0,0
2025-03-23T1200,1009A,116.6275,40.3275,北京市,怀柔镇,颗粒物(PM10),118,186,73,56,23,101,,46,41,3,14,3,3,0.4,0.5
2025-03-23T1200,1010A,116.2296,40.217,北京市,昌平镇,颗粒物(PM10),136,221,99,61,27,108,,90,90,6,17,3,3,0.5,0.5
2025-03-23T1200,1011A,116.3966,39.9821,北京市,奥体中心,颗粒物(PM10),117,183,81,52,25,100,,90,90,12,23,4,4,0.1,0.1
2025-03-23T1200,3281A,115.9718,40.4529,北京市,延庆夏都,颗粒物(PM10),125,200,85,65,29,100,,60,60,6,13,8,7,0.4,0.5
2025-03-23T1200,3418A,116.8336,40.4095,北京市,密云新城,颗粒物(PM10),109,167,58,56,20,90,,51,51,8,12,3,3,0.4,0.4
2025-03-23T1200,3671A,116.088,39.9726,北京市,门头沟三家店,,30,6,125,3,21,95,,,,2,30,3,6,0.6,0.9
2025-03-23T1200,3672A,116.1541,39.8204,北京市,丰台云岗,颗粒物(PM10),102,153,93,21,17,107,,108,96,15,13,4,4,0.4,0.3
2025-03-23T1200,3673A,116.6804,39.9081,北京市,通州东关,颗粒物(PM10),130,209,86,,12,102,,84,84,9,18,5,5,0.6,0.6
2025-03-23T1200,3674A,115.9577,39.7603,北京市,房山燕山,颗粒物(PM10),96,141,101,39,26,90,,96,88,25,8,5,4,0.4,0.2
2025-03-23T1200,3675A,116.4672,39.7733,北京市,大兴旧宫,颗粒物(PM10),97,143,84,38,25,96,,81,81,9,15,2,2,0.2,0.2
2025-03-23T1200,3694A,115.986,40.4563,北京市,延庆石河营,颗粒物(PM10),121,191,79,58,27,101,,53,53,7,14,7,6,0.3,0.4
2025-03-23T1200,3695A,116.6151,40.3053,北京市,怀柔新城,颗粒物(PM10),110,170,74,53,23,103,,59,50,2,8,4,5,0.3,0.4
2025-03-23T1200,3696A,116.2545,39.8768,北京市,丰台小屯,颗粒物(PM10),107,163,94,51,34,92,,84,84,12,20,2,2,0.2,0.2
2025-03-23T1200,3697A,116.84,40.3844,北京市,密云镇,颗粒物(PM10),107,164,66,54,21,96,,29,29,3,29,5,5,0.3,0.3
2025-03-23T1200,4182A,116.1942,39.9158,北京市,八角北路9号,颗粒物(PM10),111,171,101,41,25,102,,108,106,16,8,5,12,0.3,0.2
2025-03-23T1200,4194A,117.0790,40.1518,北京市,洳河巡河路,颗粒物(PM10),121,191,78,60,28,106,,70,70,20,23,2,2,0.4,0.4
2025-03-23T1200,1761A,123.8275,41.3064,本溪市,大峪,细颗粒物(PM2.5),64,71,81,46,46,129,,63,63,18,35,12,14,0.7,0.8
2025-03-23T1200,1762A,123.7567,41.3325,本溪市,溪湖,颗粒物(PM10),71,91,111,45,59,130,,56,56,21,51,18,16,1.4,1.2
2025-03-23T1200,1763A,123.7169,41.3094,本溪市,彩屯,颗粒物(PM10),75,100,114,52,64,136,,47,47,20,44,13,20,1.4,1.9
2025-03-23T1200,1764A,123.7669,41.2864,本溪市,东明,颗粒物(PM10),70,90,94,42,52,122,,53,53,16,49,11,14,0.7,1
2025-03-23T1200,1765A,123.7992,41.2664,本溪市,新立屯,颗粒物(PM10),57,64,65,35,46,137,,61,61,12,55,9,11,0.7,0.8
2025-03-23T1200,1766A,123.8142,41.3472,本溪市,威宁,颗粒物(PM10),71,92,109,40,54,129,,51,51,14,34,10,9,0.7,0.9
2025-03-23T1200,2587A,105.2864,27.3125,毕节市,八中,,44,44,42,29,30,101,,95,95,14,10,10,11,0.5,0.5
2025-03-23T1200,2588A,105.31,27.2944,毕节市,师专,,40,40,40,28,29,111,,103,103,10,10,8,8,0.6,0.6
2025-03-23T1200,4263A,105.3688,27.3598,毕节市,工业大道,颗粒物(PM10),52,53,46,35,29,118,,107,107,11,11,10,10,0.5,0.5
2025-03-23T1200,1629A,118.0018,37.3617,滨州市,第二水厂,颗粒物(PM10),108,166,112,48,34,70,,64,57,32,26,17,11,1.4,1.2
2025-03-23T1200,1630A,117.9776,37.393,滨州市,北中新校,颗粒物(PM10),106,161,109,48,35,80,,75,61,30,27,28,27,0.6,0.6
2025-03-23T1200,3514A,117.9378,37.3956,滨州市,中海酒店,颗粒物(PM10),101,151,102,58,41,87,,70,63,25,27,24,13,0.8,0.5
2025-03-23T1200,3515A,117.9378,37.3553,滨州市,开发区一中,颗粒物(PM10),117,183,111,53,34,70,,64,58,,31,18,14,,0.4
2025-03-23T1200,3516A,118.0917,37.694,滨州市,金海六路,颗粒物(PM10),108,166,109,46,33,82,,50,50,28,30,12,8,0.8,0.7
2025-03-23T1200,4028A,117.9956,37.3753,滨州市,滨州市西街道办事处,颗粒物(PM10),109,168,106,58,39,78,,74,60,27,23,22,11,0.4,0.2
2025-03-23T1200,2311A,115.8072,33.8399,亳州市,污水处理厂,颗粒物(PM10),74,98,81,37,27,103,,74,74,18,22,8,6,0.3,0.2
2025-03-23T1200,2312A,115.7789,33.8518,亳州市,三国揽胜宫,颗粒物(PM10),81,112,89,37,30,98,,70,70,15,17,9,8,0.4,0.3
2025-03-23T1200,3332A,115.7633,33.8034,亳州市,亳州学院,颗粒物(PM10),70,89,78,36,31,93,,69,69,13,17,9,8,0.4,0.3
2025-03-23T1200,2693A,82.0485,44.8556,博尔塔拉蒙古自治州,市党校,,35,35,64,21,21,85,,79,68,11,12,11,11,0.2,0.2
2025-03-23T1200,2694A,82.0806,44.8969,博尔塔拉蒙古自治州,市环保局,,47,47,78,18,22,76,,53,40,15,22,4,4,0.5,0.6
2025-03-23T1200,1071A,116.8842,38.2991,沧州市,沧县城建局,颗粒物(PM10),118,186,95,43,32,75,,41,39,26,29,6,4,0.4,0.4
2025-03-23T1200,1072A,116.8584,38.3254,沧州市,电视转播站,颗粒物(PM10),112,174,84,51,29,92,,47,47,15,27,8,7,0.4,0.4
2025-03-23T1200,1073A,116.8709,38.3228,沧州市,市环保局,颗粒物(PM10),104,157,84,43,30,87,,52,52,15,22,9,10,0.5,0.4
2025-03-23T1200,3324A,116.8136,38.3004,沧州市,河北水利电力学院,颗粒物(PM10),145,239,108,46,33,78,,34,33,17,34,7,7,0.3,0.3
2025-03-23T1200,2622A,97.1806,31.1273,昌都市,昌都监测站,,49,49,23,18,12,107,,102,102,3,4,6,7,0.8,0.7
2025-03-23T1200,3719A,97.1714,31.1406,昌都市,昌都会议中心,,,48,24,17,12,116,,102,102,,,3,3,0.1,0.1
2025-03-23T1200,2690A,88.1236,43.8886,昌吉回族自治州,天山天池,,,13,23,,11,103,,91,91,4,5,7,6,0.5,0.5
2025-03-23T1200,2692A,87.2717,44.0297,昌吉回族自治州,新区政务中心,颗粒物(PM10),73,96,91,35,31,45,,38,26,30,29,11,10,0.8,0.8
2025-03-23T1200,3613A,87.3095,44.0142,昌吉回族自治州,亚心广场,颗粒物(PM10),73,95,115,29,37,67,,41,35,16,24,8,9,0.4,0.6
2025-03-23T1200,1119A,125.3325,43.9166,长春市,食品厂,细颗粒物(PM2.5),262,217,139,212,142,186,,87,87,38,32,18,14,1.0,0.8
2025-03-23T1200,1120A,125.2863,43.9027,长春市,客车厂,细颗粒物(PM2.5),207,,109,157,126,161,,76,76,30,36,10,11,0.8,0.7
2025-03-23T1200,1121A,125.2841,43.8463,长春市,邮电学院,细颗粒物(PM2.5),166,,111,126,102,171,,89,89,22,23,11,12,0.7,0.6
2025-03-23T1200,1122A,125.3716,43.8772,长春市,劳动公园,细颗粒物(PM2.5),223,,116,173,108,182,,88,88,28,28,14,14,0.9,0.7
2025-03-23T1200,1123A,125.3297,43.8805,长春市,园林处,细颗粒物(PM2.5),219,,111,169,105,175,,88,88,31,28,13,13,0.8,0.6
2025-03-23T1200,1124A,125.4605,43.79,长春市,净月潭,细颗粒物(PM2.5),317,299,123,267,107,205,,100,100,39,20,20,12,1.3,0.7
2025-03-23T1200,1125A,125.7194,43.515,长春市,甩湾子,,,,,,,,,,,,,,,,
2025-03-23T1200,1126A,125.3863,43.8447,长春市,经开区环卫处,细颗粒物(PM2.5),253,,112,203,93,182,,83,83,32,32,15,10,1.0,0.7
2025-03-23T1200,1127A,125.245,43.7783,长春市,高新区管委会,细颗粒物(PM2.5),263,228,106,213,101,180,,88,88,38,29,18,12,1.1,0.6
2025-03-23T1200,1128A,125.1761,43.8325,长春市,岱山公园,细颗粒物(PM2.5),215,,95,165,88,180,,83,83,35,36,12,10,1.0,0.7
2025-03-23T1200,1335A,113.0833,28.2325,长沙市,经开区环保局,颗粒物(PM10),66,82,84,46,48,52,,33,33,61,62,13,9,0.8,0.7
2025-03-23T1200,1336A,112.8872,28.2189,长沙市,高开区环保局,细颗粒物(PM2.5),95,116,103,71,53,21,,10,10,88,61,9,8,1.0,0.9
2025-03-23T1200,1337A,113.0792,28.2053,长沙市,马坡岭,细颗粒物(PM2.5),74,84,99,54,52,53,,39,39,49,58,12,9,0.5,0.6
2025-03-23T1200,1338A,112.9394,28.19,长沙市,湖南师范大学,细颗粒物(PM2.5),89,117,84,66,48,15,,21,10,85,42,10,9,1.2,1
2025-03-23T1200,1339A,113.0178,28.1322,长沙市,雨花区环保局,细颗粒物(PM2.5),78,103,96,57,51,23,,5,5,75,74,13,10,0.9,0.8
2025-03-23T1200,1340A,112.9792,28.2597,长沙市,伍家岭,颗粒物(PM10),87,124,126,60,56,12,,4,4,76,67,6,6,0.9,0.9
2025-03-23T1200,1341A,113.0014,28.1944,长沙市,火车新站,颗粒物(PM10),81,111,118,56,64,28,,16,16,80,75,11,10,0.9,1.3
2025-03-23T1200,1342A,112.9844,28.1178,长沙市,天心区环保局,细颗粒物(PM2.5),92,106,96,68,53,34,,17,17,76,71,12,8,1.0,1.1
2025-03-23T1200,1343A,112.8908,28.1308,长沙市,湖南中医药大学,细颗粒物(PM2.5),87,113,87,64,46,19,,7,7,74,61,14,7,0.8,0.6
2025-03-23T1200,1344A,112.9581,28.3611,长沙市,沙坪,细颗粒物(PM2.5),74,71,49,54,38,46,,55,48,35,19,10,8,1.0,0.8
2025-03-23T1200,1727A,113.1147,36.1547,长治市,清华站,颗粒物(PM10),107,164,73,61,27,102,,65,65,7,22,2,5,0.2,0.3
2025-03-23T1200,1730A,113.0886,36.2125,长治市,审计局,颗粒物(PM10),139,228,73,63,28,105,,60,60,9,27,5,8,0.2,0.3
2025-03-23T1200,1731A,113.0844,36.1856,长治市,长治八中,颗粒物(PM10),145,239,94,65,36,106,,63,63,8,25,6,9,0.7,0.8
2025-03-23T1200,2845A,113.1569,36.1911,长治市,德盛苑,颗粒物(PM10),125,200,65,58,26,105,,81,81,7,17,3,6,0.2,0.3
2025-03-23T1200,3568A,113.06,36.0464,长治市,向阳小学,颗粒物(PM10),119,188,103,55,39,96,,69,69,15,23,9,11,0.3,0.4
2025-03-23T1200,3569A,112.8792,36.3144,长治市,屯留一中,颗粒物(PM10),138,226,77,54,23,107,,72,72,11,26,7,8,0.5,0.6
2025-03-23T1200,4189A,113.1131,36.19948,长治市,英华南巷50号,颗粒物(PM10),136,221,81,75,29,107,,61,61,7,23,8,13,0.4,0.5
2025-03-23T1200,4190A,113.2367,36.3344,长治市,学府街1号,颗粒物(PM10),125,200,95,67,32,110,,73,73,4,18,5,16,0.4,0.5
2025-03-23T1200,1854A,111.6975,28.9703,常德市,市二中,细颗粒物(PM2.5),87,67,55,64,40,23,,34,26,27,22,5,5,0.6,0.5
2025-03-23T1200,1857A,111.7158,29.1456,常德市,白鹤山,,,,,,,,,,,,,,,,
2025-03-23T1200,3138A,111.7153,29.0289,常德市,武陵区永安,细颗粒物(PM2.5),64,62,50,46,33,46,,61,49,23,14,5,5,0.6,0.5
2025-03-23T1200,3139A,111.6892,28.9881,常德市,鼎城区玉霞,细颗粒物(PM2.5),72,91,65,52,39,21,,32,24,32,28,6,5,0.7,0.5
2025-03-23T1200,3140A,111.6625,29.0531,常德市,武陵区长庚,细颗粒物(PM2.5),68,67,55,49,35,32,,57,40,29,13,11,6,0.7,0.5
2025-03-23T1200,1196A,119.9633,31.762,常州市,市监测站,颗粒物(PM10),61,71,80,31,41,145,,70,70,20,52,14,12,0.7,0.8
2025-03-23T1200,1200A,119.9468,31.7069,常州市,武进监测站,颗粒物(PM10),62,74,67,39,40,144,,72,72,28,46,23,19,0.8,0.8
2025-03-23T1200,1201A,119.9255,31.9087,常州市,安家,颗粒物(PM10),58,65,96,29,47,141,,55,55,20,66,15,22,0.5,0.6
2025-03-23T1200,3002A,119.9805,31.8174,常州市,行政中心,颗粒物(PM10),51,52,59,33,35,140,,78,78,19,34,21,17,0.5,0.6
2025-03-23T1200,3003A,120.0522,31.7748,常州市,经开区,颗粒物(PM10),61,72,74,27,36,155,,87,87,23,44,17,17,0.6,0.7
2025-03-23T1200,3010A,119.9025,31.7964,常州市,钟楼,颗粒物(PM10),58,65,76,30,38,152,,75,75,15,43,16,13,0.8,0.9
2025-03-23T1200,3429A,119.8598,31.7066,常州市,武进经发区,颗粒物(PM10),65,79,79,42,41,151,,78,78,25,43,17,19,1.1,0.9
2025-03-23T1200,3430A,119.5826,31.7245,常州市,金坛城区,细颗粒物(PM2.5),67,77,74,48,42,150,,83,83,19,28,15,15,0.7,0.7
2025-03-23T1200,2220A,120.4318,41.5881,朝阳市,西梁,颗粒物(PM10),70,89,73,20,40,90,,37,37,12,37,16,17,0.8,0.9
2025-03-23T1200,2221A,120.4521,41.5646,朝阳市,河畔小区,颗粒物(PM10),70,90,64,18,30,93,,48,48,11,29,10,11,0.5,0.7
2025-03-23T1200,2222A,120.4176,41.5648,朝阳市,八里堡,颗粒物(PM10),67,83,70,16,34,81,,38,38,13,31,14,11,0.9,0.7
2025-03-23T1200,2223A,120.3806,41.5969,朝阳市,农业园区,颗粒物(PM10),75,100,70,31,38,95,,39,39,9,33,11,14,0.5,0.8
2025-03-23T1200,1705A,116.6367,23.6719,潮州市,西园路,臭氧1小时,63,73,64,37,39,170,,91,91,30,24,8,6,0.7,0.4
2025-03-23T1200,3026A,116.6183,23.6608,潮州市,市政府,颗粒物(PM10),81,111,70,44,36,175,,77,77,42,38,15,9,0.9,0.6
2025-03-23T1200,4036A,116.6461,23.6761,潮州市,金山,颗粒物(PM10),68,85,58,38,34,170,,89,89,28,24,10,9,0.7,0.5
2025-03-23T1200,2472A,113.0073,25.9061,郴州市,马头岭,颗粒物(PM10),54,58,50,27,20,142,,79,79,13,16,13,13,0.6,0.5
2025-03-23T1200,2473A,113.0116,25.8226,郴州市,市职中,臭氧1小时,75,52,76,31,38,180,,52,52,13,36,11,10,0.5,0.6
2025-03-23T1200,2475A,113.0383,25.8071,郴州市,市审计局,臭氧1小时,55,56,56,36,33,164,,56,56,18,32,9,8,0.5,0.6
2025-03-23T1200,2476A,113.0348,25.7759,郴州市,市环保局,颗粒物(PM10),58,65,58,36,34,151,,70,70,19,32,12,8,0.5,0.5
2025-03-23T1200,4252A,113.0138,25.8011,郴州市,好美居路49号,颗粒物(PM10),121,191,74,35,38,176,,53,53,12,38,12,10,0.5,0.6
2025-03-23T1200,1431A,103.9728,30.7236,成都市,金泉两河,颗粒物(PM10),60,70,91,8,46,88,,23,23,20,50,3,3,0.6,0.9
2025-03-23T1200,1432A,104.176,30.6872,成都市,十里店,,49,49,88,20,53,70,,22,22,49,71,5,5,0.5,0.8
2025-03-23T1200,1433A,104.079,30.5706,成都市,三瓦窑,,30,30,89,10,52,60,,18,18,31,65,6,7,0.7,0.9
2025-03-23T1200,1434A,104.1114,30.63,成都市,沙河铺,,47,47,83,25,60,51,,15,15,36,54,6,6,0.6,0.9
2025-03-23T1200,1437A,104.0786,30.6531,成都市,君平街,,42,42,85,25,54,60,,24,24,35,65,7,8,0.7,1
2025-03-23T1200,1438A,103.613,31.0283,成都市,灵岩寺,,,,,,,,,,,,,,,,
2025-03-23T1200,2880A,104.0239,30.65639,成都市,大石西路,,45,45,91,24,55,71,,22,22,31,60,5,5,0.7,1
2025-03-23T1200,3136A,104.2725,30.5589,成都市,龙泉驿区区政府,,44,44,64,29,42,81,,52,52,20,27,6,5,0.6,0.8
2025-03-23T1200,3357A,104.0106,30.6931,成都市,金博路,,32,32,78,15,42,68,,17,17,27,57,7,7,0.7,0.9
2025-03-23T1200,3359A,104.0578,30.5225,成都市,华阳,,48,48,83,27,59,59,,20,20,28,57,7,7,0.5,0.8
2025-03-23T1200,3488A,104.3853,30.7453,成都市,青白江技师分院,颗粒物(PM10),55,59,71,22,47,90,,35,35,25,50,6,8,0.5,0.7
2025-03-23T1200,3489A,104.0789,30.4072,成都市,科学城,,42,38,75,29,55,72,,25,25,15,38,6,6,0.6,0.8
2025-03-23T1200,4011A,103.8506,30.6947,成都市,光华大道三段,,46,46,88,13,55,97,,26,26,24,54,5,5,0.7,1
2025-03-23T1200,4224A,104.2433,30.5353,成都市,鲸龙路1057号,,46,45,77,32,51,76,,40,40,22,38,6,6,0.7,0.8
2025-03-23T1200,1062A,117.9531,40.9081,承德市,铁路,颗粒物(PM10),97,144,47,35,11,72,,26,26,17,19,7,7,0.3,0.3
2025-03-23T1200,1063A,117.9392,40.9763,承德市,中国银行,颗粒物(PM10),106,162,55,20,13,82,,30,30,10,19,4,3,0.2,0.3
2025-03-23T1200,1064A,117.9503,40.928,承德市,开发区,颗粒物(PM10),100,150,54,23,18,75,,26,26,18,24,8,7,0.3,0.3
2025-03-23T1200,1065A,117.8051,40.9655,承德市,文化中心,颗粒物(PM10),117,184,76,35,16,85,,26,26,16,29,10,5,0.4,0.4
2025-03-23T1200,1066A,117.9268,41.0026,承德市,离宫,颗粒物(PM10),101,151,50,28,18,70,,34,34,10,11,6,5,0.3,0.2
2025-03-23T1200,2314A,117.47,30.6618,池州市,池州学院,细颗粒物(PM2.5),65,78,60,47,35,65,,75,62,47,25,35,12,2.3,0.8
2025-03-23T1200,3237A,117.4918,30.6617,池州市,展览馆,颗粒物(PM10),60,70,57,39,32,76,,51,48,36,27,22,10,1.8,0.8
2025-03-23T1200,3333A,117.5627,30.695,池州市,第八中学,颗粒物(PM10),55,60,58,32,31,86,,68,64,24,22,10,9,0.5,0.5
2025-03-23T1200,3334A,117.5038,30.6243,池州市,第十二中学,颗粒物(PM10),62,73,56,42,30,79,,76,68,27,22,8,8,0.4,0.6
2025-03-23T1200,1744A,118.9233,42.2816,赤峰市,松山一中,颗粒物(PM10),112,174,60,42,20,95,,45,45,14,32,8,10,0.5,0.6
2025-03-23T1200,1745A,118.9576,42.2728,赤峰市,哈达街,颗粒物(PM10),114,178,54,48,17,91,,52,52,13,19,11,13,0.6,0.7
2025-03-23T1200,1746A,118.8788,42.2554,赤峰市,天义路,颗粒物(PM10),115,180,51,68,24,87,,51,51,13,20,7,7,0.3,0.4
2025-03-23T1200,3058A,119.2658,42.0353,赤峰市,银河街,细颗粒物(PM2.5),138,191,78,105,42,108,,47,47,28,27,23,18,0.9,0.8
2025-03-23T1200,3286A,118.9359,42.3147,赤峰市,桥北物流园区,颗粒物(PM10),114,178,56,78,22,83,,42,42,15,31,8,7,0.4,0.5
2025-03-23T1200,2521A,107.3476,22.4136,崇左市,市环保局江州分局,颗粒物(PM10),54,57,80,26,49,158,,75,75,9,26,8,9,0.5,0.6
2025-03-23T1200,4256A,107.3750,22.3736,崇左市,石景林东路7号,臭氧1小时,60,50,57,31,43,168,,108,108,12,18,6,7,0.5,0.5
2025-03-23T1200,2298A,118.3093,32.3153,滁州市,老年大学,颗粒物(PM10),56,61,64,33,34,147,,62,62,24,27,7,5,0.6,0.6
2025-03-23T1200,2299A,118.3244,32.2786,滁州市,人大宾馆,颗粒物(PM10),63,76,70,43,35,136,,93,93,26,24,12,10,0.6,0.5
2025-03-23T1200,3207A,118.3118,32.3038,滁州市,市政府原办公楼,细颗粒物(PM2.5),55,58,61,39,34,147,,67,67,10,27,7,6,0.4,0.4
2025-03-23T1200,3331A,118.3267,32.2634,滁州市,图书馆,颗粒物(PM10),66,81,62,33,31,133,,106,105,18,20,11,9,0.5,0.4
2025-03-23T1200,2605A,101.5482,25.0441,楚雄彝族自治州,州环境监测站,细颗粒物(PM2.5),67,52,52,48,46,118,,41,41,8,21,8,8,0.7,0.7
2025-03-23T1200,2606A,101.538,25.0492,楚雄彝族自治州,市经济开发区,细颗粒物(PM2.5),65,49,52,47,45,118,,46,46,7,17,6,7,0.8,0.7
2025-03-23T1200,2548A,107.5277,31.2827,达州市,达州职业技术学院,细颗粒物(PM2.5),105,141,117,79,68,70,,20,20,32,48,17,9,0.9,0.9
2025-03-23T1200,2549A,107.5086,31.2186,达州市,市环境监测站,细颗粒物(PM2.5),94,106,117,70,67,75,,16,16,36,62,15,11,1.1,1.6
2025-03-23T1200,2550A,107.4988,31.2132,达州市,凤凰小区,细颗粒物(PM2.5),94,105,116,70,72,80,,20,20,28,59,17,13,1.0,1.3
2025-03-23T1200,2551A,107.5082,31.1986,达州市,达县机关宾馆,细颗粒物(PM2.5),93,112,110,69,68,64,,15,15,36,57,12,9,0.9,1
2025-03-23T1200,2552A,107.4644,31.2124,达州市,市政中心,细颗粒物(PM2.5),89,112,136,66,78,76,,20,20,34,62,22,28,1.2,1.4
2025-03-23T1200,2614A,100.1542,25.7054,大理白族自治州,大理市环境监测站,细颗粒物(PM2.5),63,55,40,45,37,98,,101,98,12,9,7,7,0.8,0.6
2025-03-23T1200,2615A,100.2171,25.5811,大理白族自治州,大理古城,细颗粒物(PM2.5),59,47,33,42,29,90,,112,108,25,8,7,7,0.9,0.7
2025-03-23T1200,1109A,121.612,38.9741,大连市,甘井子,细颗粒物(PM2.5),97,120,80,72,39,72,,58,53,42,43,10,11,1.3,1.1
2025-03-23T1200,1110A,121.565,38.9511,大连市,周水子,细颗粒物(PM2.5),99,118,82,74,40,62,,52,45,42,49,6,12,0.6,0.6
2025-03-23T1200,1111A,121.5637,38.8845,大连市,星海三站,细颗粒物(PM2.5),82,103,73,60,39,82,,70,58,26,27,12,9,0.9,0.8
2025-03-23T1200,1112A,121.6302,38.9117,大连市,青泥洼桥,细颗粒物(PM2.5),100,135,78,75,35,46,,68,44,52,34,13,12,0.8,0.6
2025-03-23T1200,1113A,121.6251,38.8638,大连市,傅家庄,细颗粒物(PM2.5),89,106,78,66,41,91,,68,64,33,36,13,11,0.8,0.6
2025-03-23T1200,1114A,121.5213,38.8661,大连市,七贤岭,颗粒物(PM10),93,135,78,58,30,75,,66,54,26,20,13,9,0.7,0.6
2025-03-23T1200,1115A,121.2529,38.8061,大连市,旅顺,颗粒物(PM10),82,113,83,57,40,81,,54,54,41,44,11,8,0.6,0.5
2025-03-23T1200,1116A,121.7485,39.1311,大连市,金州,颗粒物(PM10),104,157,122,76,46,88,,57,53,40,43,16,13,1.2,0.9
2025-03-23T1200,1117A,121.7811,39.0496,大连市,开发区,细颗粒物(PM2.5),97,128,106,72,47,85,,52,52,35,49,10,16,0.8,0.8
2025-03-23T1200,1118A,121.9762,39.0631,大连市,双D港,细颗粒物(PM2.5),107,112,89,80,42,91,,52,51,36,36,7,10,0.9,0.8
2025-03-23T1200,1789A,124.81117,46.03138,大庆市,大同区,颗粒物(PM10),52,53,33,21,25,85,,61,61,8,18,6,7,0.5,0.5
2025-03-23T1200,1790A,125.129,46.533,大庆市,龙凤区,,32,32,33,17,18,79,,62,62,10,16,7,7,0.4,0.4
2025-03-23T1200,1791A,124.902,46.408,大庆市,红岗区,,29,16,22,10,21,91,,67,67,4,10,4,5,0.3,0.4
2025-03-23T1200,1792A,125.153,46.586,大庆市,萨尔图区,,44,44,25,16,10,76,,68,68,12,10,9,7,0.2,0.2
2025-03-23T1200,1793A,124.9042,46.6215,大庆市,让胡路区,,25,23,22,10,18,80,,64,64,7,17,7,8,0.2,0.3
2025-03-23T1200,3481A,125.141,46.634,大庆市,萨区政府监测点,颗粒物(PM10),53,56,26,17,6,81,,72,72,11,7,8,6,0.3,0.3
2025-03-23T1200,1721A,113.3819,40.1097,大同市,果树场,颗粒物(PM10),219,363,119,107,44,80,,28,28,19,33,9,11,0.6,0.8
2025-03-23T1200,1723A,113.2994,40.0758,大同市,云冈宾馆,颗粒物(PM10),332,445,138,88,31,94,,56,42,13,23,8,12,0.5,0.6
2025-03-23T1200,1724A,113.3444,40.0917,大同市,大同大学,颗粒物(PM10),286,410,123,118,37,92,,48,35,9,21,12,16,0.4,0.6
2025-03-23T1200,1725A,113.2661,40.1269,大同市,安家小村,颗粒物(PM10),401,501,154,126,39,95,,60,53,6,16,9,12,0.3,0.8
2025-03-23T1200,1726A,113.2711,40.0844,大同市,教育学院,颗粒物(PM10),418,518,143,126,43,96,,65,60,11,19,8,12,0.5,0.5
2025-03-23T1200,3282A,113.3397,40.0597,大同市,大同市卫生学校,颗粒物(PM10),319,435,140,110,41,86,,28,28,17,38,8,10,0.3,0.4
2025-03-23T1200,3565A,113.1367,40.1122,大同市,云冈站,颗粒物(PM10),453,553,135,134,38,94,,47,47,8,20,10,19,0.3,0.4
2025-03-23T1200,3566A,113.1186,40.2556,大同市,图书馆,颗粒物(PM10),233,373,107,127,37,91,,50,50,6,10,8,10,0.5,0.5
2025-03-23T1200,3567A,113.5931,40.0461,大同市,区一中,颗粒物(PM10),255,388,144,39,21,86,,49,49,20,23,30,27,0.4,0.5
2025-03-23T1200,4199A,113.2798,40.0997,大同市,魏都大道141号,颗粒物(PM10),402,502,137,113,37,97,,59,48,12,23,12,15,0.4,0.5
2025-03-23T1200,2269A,124.1069,50.4097,大兴安岭地区,科技局,,28,27,22,19,16,77,,71,71,6,6,7,8,0.4,0.3
2025-03-23T1200,3663A,124.1164,50.4278,大兴安岭地区,红旗社区,,27,27,13,10,6,79,,72,72,8,8,5,6,0.4,0.4
2025-03-23T1200,1600A,124.3303,40.0625,丹东市,江湾东路,细颗粒物(PM2.5),92,119,115,68,76,127,,62,62,18,35,15,16,0.8,1.4
2025-03-23T1200,1601A,124.4256,40.1503,丹东市,临江后街,颗粒物(PM10),89,128,112,65,63,120,,45,45,20,32,18,13,0.9,1.2
2025-03-23T1200,1602A,124.3933,40.1461,丹东市,元宝山,细颗粒物(PM2.5),88,116,98,65,59,118,,63,63,22,29,14,10,0.7,0.9
2025-03-23T1200,1603A,124.3633,40.1092,丹东市,民主桥,细颗粒物(PM2.5),89,118,106,66,68,125,,51,51,16,41,14,12,0.7,1
2025-03-23T1200,3541A,109.5726,19.5167,儋州市,第一中学子站,,38,37,37,22,21,121,,90,87,8,10,4,5,0.6,0.6
2025-03-23T1200,3542A,109.5567,19.5187,儋州市,东坡学校子站,,42,36,36,22,19,133,,94,94,6,7,6,5,0.6,0.6
2025-03-23T1200,2616A,98.5842,24.428,德宏傣族景颇族自治州,德宏州监测站,细颗粒物(PM2.5),113,100,92,85,73,22,,28,16,33,29,10,8,1.1,0.9
2025-03-23T1200,3677A,98.5881,24.4368,德宏傣族景颇族自治州,芒市人民政府综合楼,细颗粒物(PM2.5),118,113,101,89,70,24,,41,24,32,20,8,9,0.9,0.7
2025-03-23T1200,1901A,104.4239,31.1208,德阳市,东山公园,细颗粒物(PM2.5),119,132,101,90,73,76,,27,27,59,51,12,7,0.8,0.7
2025-03-23T1200,1902A,104.3826,31.1317,德阳市,西小区,细颗粒物(PM2.5),118,139,112,89,77,84,,,,51,58,8,9,1.0,0.9
2025-03-23T1200,1904A,104.3553,31.1091,德阳市,耐火材料厂,细颗粒物(PM2.5),113,115,122,85,88,94,,26,26,46,68,9,11,0.7,0.8
2025-03-23T1200,3639A,104.4019,31.1244,德阳市,市教育局,细颗粒物(PM2.5),119,116,97,90,80,87,,23,23,56,63,14,7,0.8,0.8
2025-03-23T1200,1622A,116.3032,37.4674,德州市,儿童乐园,颗粒物(PM10),125,200,117,36,32,86,,49,49,24,28,15,16,0.7,0.7
2025-03-23T1200,1624A,116.2991,37.4451,德州市,监理站,颗粒物(PM10),120,190,111,41,33,92,,47,47,22,32,35,23,0.6,0.6
2025-03-23T1200,3066A,116.2721,37.4379,德州市,九衢泉纯净水厂,颗粒物(PM10),117,183,106,39,32,88,,37,37,27,43,19,12,0.6,0.6
2025-03-23T1200,3371A,116.3728,37.4403,德州市,开发区人民医院,颗粒物(PM10),125,200,108,48,33,92,,49,49,21,28,32,11,0.4,0.4
2025-03-23T1200,3372A,116.3572,37.4094,德州市,太阳城中学,颗粒物(PM10),125,200,113,39,33,95,,46,46,19,34,12,8,0.5,0.5
2025-03-23T1200,3511A,116.5652,37.3319,德州市,陵城艺术中心,颗粒物(PM10),122,193,108,46,34,90,,44,42,22,38,9,9,0.5,0.6
2025-03-23T1200,2621A,99.7056,27.8317,迪庆藏族自治州,迪庆州站,,35,23,19,18,12,110,,106,106,7,9,8,8,0.4,0.5
2025-03-23T1200,3180A,99.7136,27.8094,迪庆藏族自治州,质量技术监督局,,36,31,18,13,11,115,,111,111,8,9,9,9,0.6,0.5
2025-03-23T1200,4257A,104.6092,35.5962,定西市,将台街,颗粒物(PM10),61,71,82,17,36,106,,52,50,8,21,8,9,0.5,0.7
2025-03-23T1200,4309A,104.6159,35.5701,定西市,正龙路62号,颗粒物(PM10),61,72,85,20,40,112,,94,94,3,8,7,10,0.2,0.4
2025-03-23T1200,1389A,113.7547,23.0494,东莞市,莞城梨川,细颗粒物(PM2.5),60,62,71,43,42,160,,76,76,40,40,7,6,0.7,0.7
2025-03-23T1200,1390A,113.7944,23.0128,东莞市,东城石井,臭氧1小时,68,42,61,25,36,174,,72,72,32,33,8,7,0.6,0.6
2025-03-23T1200,1391A,113.7383,22.9658,东莞市,南城西平,颗粒物(PM10),54,58,62,36,33,161,,78,78,46,45,8,7,0.7,0.7
2025-03-23T1200,3319A,113.7338,23.0381,东莞市,万江金泰,臭氧1小时,70,61,61,35,34,176,,88,88,36,34,8,7,0.7,0.7
2025-03-23T1200,3626A,113.7533,23.0202,东莞市,南城元岭,颗粒物(PM10),57,63,64,38,37,151,,61,61,38,38,8,8,0.6,0.6
2025-03-23T1200,3627A,113.7875,23.0457,东莞市,东城主山,颗粒物(PM10),62,74,79,37,41,134,,57,57,49,50,9,10,0.6,0.6
2025-03-23T1200,1666A,118.6614,37.4309,东营市,市环保局,颗粒物(PM10),97,144,105,41,33,89,,63,63,36,34,11,9,0.7,0.6
2025-03-23T1200,3036A,118.6904,37.4338,东营市,开发区管委会,颗粒物(PM10),111,171,113,44,37,83,,61,60,44,43,10,9,0.8,0.7
2025-03-23T1200,3365A,118.5719,37.565,东营市,垦利区民丰路,颗粒物(PM10),106,161,105,46,34,97,,65,63,33,30,12,6,,0.7
2025-03-23T1200,3498A,118.5055,37.8612,东营市,河口城区,颗粒物(PM10),108,166,110,34,31,88,,59,58,28,26,14,8,0.9,0.9
2025-03-23T1200,3646A,118.4978,37.4623,东营市,胜利站,颗粒物(PM10),96,141,105,51,33,78,,64,60,42,38,17,13,0.9,0.9
2025-03-23T1200,3734A,118.35,37.26,东营市,理想之城,颗粒物(PM10),101,151,109,44,38,95,,57,57,34,34,15,9,0.8,0.5
2025-03-23T1200,1591A,110.0023,39.8129,鄂尔多斯市,综合楼,颗粒物(PM10),394,495,282,88,54,93,,83,77,9,13,10,8,0.3,0.3
2025-03-23T1200,1592A,109.9486,39.8261,鄂尔多斯市,巴音孟克林场办事处,颗粒物(PM10),324,439,275,88,58,96,,90,87,7,9,8,12,0.4,0.4
2025-03-23T1200,1593A,109.7736,39.5986,鄂尔多斯市,康泽苑,颗粒物(PM10),362,469,231,80,49,95,,80,80,7,8,4,4,0.3,0.3
2025-03-23T1200,1594A,109.8119,39.5989,鄂尔多斯市,华泰汽车城,颗粒物(PM10),337,449,218,95,53,93,,71,71,7,12,5,4,0.4,0.3
2025-03-23T1200,1595A,109.9734,39.7884,鄂尔多斯市,奥林花园,颗粒物(PM10),337,449,247,78,48,94,,73,73,13,19,7,9,0.3,0.3
2025-03-23T1200,2436A,114.8938,30.3994,鄂州市,市政府,细颗粒物(PM2.5),125,151,83,95,50,33,,29,14,71,39,26,14,1.4,1.1
2025-03-23T1200,2437A,114.8989,30.3714,鄂州市,赵家坝,细颗粒物(PM2.5),93,131,77,69,37,28,,62,28,69,27,27,9,1.6,1
2025-03-23T1200,3654A,114.8094,30.4089,鄂州市,精准医疗中心,细颗粒物(PM2.5),108,138,87,81,44,41,,60,31,73,40,9,7,1.1,0.9
2025-03-23T1200,2454A,109.4978,30.2981,恩施土家族苗族自治州,湖北民院,细颗粒物(PM2.5),69,,58,50,53,28,,14,14,20,31,2,2,0.5,0.5
2025-03-23T1200,2455A,109.4707,30.2798,恩施土家族苗族自治州,州电力总公司,细颗粒物(PM2.5),67,54,55,48,45,26,,10,10,23,28,5,5,0.3,0.3
2025-03-23T1200,3549A,109.5061,30.3772,恩施土家族苗族自治州,龙凤新区,细颗粒物(PM2.5),60,50,59,43,42,24,,9,9,19,23,6,6,0.6,0.6
2025-03-23T1200,2499A,108.3411,21.6158,防城港市,沙万,,,,49,,29,,,122,,,21,,11,,0.3
2025-03-23T1200,2500A,108.3514,21.7731,防城港市,防城档案局,细颗粒物(PM2.5),60,60,78,43,40,114,,44,44,22,30,6,5,0.7,0.6
2025-03-23T1200,2501A,108.3506,21.6414,防城港市,大海花园,,45,45,54,27,31,114,,59,59,11,16,7,9,0.7,0.6
2025-03-23T1200,1371A,113.1294,23.0067,佛山市,湾梁,臭氧1小时,93,68,82,28,30,194,,90,90,32,44,10,8,0.8,0.8
2025-03-23T1200,1372A,113.1083,23.0478,佛山市,华材职中,臭氧1小时,92,83,74,40,38,193,,104,104,42,44,10,7,0.6,0.6
2025-03-23T1200,1373A,113.144,23.0453,佛山市,南海气象局,臭氧1小时,90,82,72,34,40,192,,94,94,28,43,9,7,0.6,0.6
2025-03-23T1200,1374A,113.2881,22.8094,佛山市,顺德苏岗,颗粒物(PM10),65,80,70,39,35,169,,88,88,35,34,20,9,1.1,0.9
2025-03-23T1200,1376A,112.8383,22.8678,佛山市,高明孔堂,臭氧1小时,58,46,58,31,39,166,,114,111,10,21,6,7,0.4,0.4
2025-03-23T1200,1377A,112.8836,23.1588,佛山市,三水监测站,"颗粒物(PM10),细颗粒物(PM2.5)",69,88,107,50,56,122,,48,48,39,83,8,4,0.6,0.6
2025-03-23T1200,1378A,112.867,23.185,佛山市,三水云东海,细颗粒物(PM2.5),65,75,80,47,49,156,,64,64,44,65,10,9,0.6,0.6
2025-03-23T1200,3625A,113.2544,22.7642,佛山市,容桂街道办,颗粒物(PM10),69,88,73,48,40,161,,88,88,44,48,24,11,0.8,0.7
2025-03-23T1200,1280A,119.3903,26.0543,福州市,鼓山,,,,42,,22,,,125,,,9,,2,,0.4
2025-03-23T1200,1282A,119.2681,26.0504,福州市,师大,,49,49,54,30,33,154,,83,83,13,25,6,6,0.4,0.4
2025-03-23T1200,1283A,119.2984,26.1028,福州市,五四北路,细颗粒物(PM2.5),55,51,51,39,32,143,,82,82,24,32,6,5,0.6,0.5
2025-03-23T1200,1284A,119.2648,26.0768,福州市,杨桥西路,颗粒物(PM10),51,52,56,34,34,149,,82,82,17,30,6,6,0.4,0.4
2025-03-23T1200,1285A,119.317,26.0746,福州市,紫阳,颗粒物(PM10),67,84,64,41,36,107,,66,66,50,44,6,6,0.5,0.5
2025-03-23T1200,3048A,119.5799,26.0936,福州市,九龙,细颗粒物(PM2.5),63,72,42,45,25,131,,80,80,22,21,8,4,0.4,0.3
2025-03-23T1200,3526A,119.5189,25.9664,福州市,吴航,颗粒物(PM10),56,62,46,37,26,144,,59,59,20,31,7,6,0.4,0.5
2025-03-23T1200,1755A,123.7977,41.8491,抚顺市,望花区,细颗粒物(PM2.5),188,198,216,141,149,183,,104,104,48,52,23,18,1.5,1.2
2025-03-23T1200,1756A,123.9161,41.8822,抚顺市,顺城区,细颗粒物(PM2.5),138,184,200,105,134,195,,118,118,42,58,15,16,1.0,1.1
2025-03-23T1200,1757A,124.0436,41.8611,抚顺市,东洲区,细颗粒物(PM2.5),162,180,166,123,121,178,,116,116,32,31,12,10,1.0,0.9
2025-03-23T1200,1758A,123.9247,41.8642,抚顺市,新抚区,细颗粒物(PM2.5),193,196,195,145,148,187,,106,106,44,51,14,11,1.4,1.1
2025-03-23T1200,1759A,124.0972,41.8961,抚顺市,大伙房水库,细颗粒物(PM2.5),173,145,151,131,126,169,,120,120,24,28,13,13,1.1,1
2025-03-23T1200,1760A,123.7086,41.8391,抚顺市,沈抚新城,细颗粒物(PM2.5),156,226,196,119,146,180,,99,99,42,57,18,23,1.6,1.8
2025-03-23T1200,2376A,116.2127,28.0814,抚州市,桐源党溪,颗粒物(PM10),53,56,48,26,24,94,,39,39,5,14,6,13,0.3,0.2
2025-03-23T1200,2377A,116.3544,27.9831,抚州市,市站,颗粒物(PM10),55,59,54,21,26,84,,66,66,25,30,4,5,0.6,0.7
2025-03-23T1200,2378A,116.3565,27.963,抚州市,血防站,颗粒物(PM10),53,55,51,19,22,84,,59,59,24,26,8,8,0.6,0.6
2025-03-23T1200,2379A,116.3564,28.0007,抚州市,采茶剧团,颗粒物(PM10),55,60,49,24,24,73,,53,53,25,19,5,4,0.9,0.9
2025-03-23T1200,2380A,116.385,27.9647,抚州市,医学分院,颗粒物(PM10),67,83,56,22,20,65,,45,45,29,30,12,9,0.7,0.8
2025-03-23T1200,2207A,121.6094,41.998,阜新市,工业园区,细颗粒物(PM2.5),207,265,147,157,129,169,,93,93,,39,43,54,,1.2
2025-03-23T1200,2208A,121.6697,42.0279,阜新市,长青街,细颗粒物(PM2.5),192,214,143,144,126,178,,98,98,38,30,45,54,1.5,1
2025-03-23T1200,2209A,121.6673,42.0705,阜新市,农业园区,细颗粒物(PM2.5),185,273,142,139,107,169,,112,112,36,23,64,100,1.6,1.2
2025-03-23T1200,2210A,121.6717,42.0224,阜新市,东苑,细颗粒物(PM2.5),211,214,147,161,132,171,,96,96,44,35,58,54,1.4,0.9
2025-03-23T1200,2211A,121.6506,42.0498,阜新市,玉龙新城,细颗粒物(PM2.5),206,241,139,156,115,177,,93,93,36,38,38,26,1.5,2
2025-03-23T1200,2301A,115.8277,32.8929,阜阳市,市监测站,颗粒物(PM10),71,91,76,49,44,94,,80,80,19,29,12,9,0.6,0.6
2025-03-23T1200,2303A,115.8554,32.8605,阜阳市,开发区,颗粒物(PM10),75,99,101,53,45,98,,73,73,18,25,12,9,0.4,0.4
2025-03-23T1200,2875A,115.784,32.8892,阜阳市,阜阳职业技术学院,细颗粒物(PM2.5),74,91,81,54,36,90,,76,76,17,29,10,9,0.5,0.4
2025-03-23T1200,3468A,115.7901,32.8613,阜阳市,市规划展馆,,,108,77,54,40,100,,86,84,17,19,,9,0.5,0.3
2025-03-23T1200,3469A,115.836,32.9183,阜阳市,枣园社区,颗粒物(PM10),79,107,84,48,42,106,,85,85,13,31,10,8,0.5,0.5
2025-03-23T1200,2669A,102.9099,34.9841,甘南藏族自治州,州政府,颗粒物(PM10),52,53,67,23,27,90,,77,77,5,18,4,5,0.3,0.4
2025-03-23T1200,3380A,102.8914,34.9617,甘南藏族自治州,甘肃民族师范学院,颗粒物(PM10),53,56,67,16,26,98,,91,91,2,16,7,8,0.2,0.3
2025-03-23T1200,2570A,101.9603,30.0475,甘孜藏族自治州,水桥子,,16,6,13,3,11,50,,24,24,25,25,3,3,0.6,0.5
2025-03-23T1200,3065A,101.9533,29.9972,甘孜藏族自治州,州环保局,,31,31,18,8,8,67,,32,32,15,22,4,4,0.3,0.3
2025-03-23T1200,3414A,115.8347,28.932,赣江新区,桑海产业园,,48,48,70,30,28,59,,33,22,36,51,18,14,0.4,0.4
2025-03-23T1200,2362A,114.9017,25.9149,赣州市,通天岩,颗粒物(PM10),54,58,44,14,8,162,,99,99,15,7,22,15,0.7,0.6
2025-03-23T1200,2363A,114.9367,25.8664,赣州市,地委,,,50,53,29,26,99,,47,47,,26,12,4,0.9,0.8
2025-03-23T1200,2364A,114.9461,25.8481,赣州市,气象台,颗粒物(PM10),51,52,56,25,24,127,,59,59,34,45,16,12,0.7,0.6
2025-03-23T1200,2365A,114.9322,25.8333,赣州市,市图书馆,颗粒物(PM10),58,65,55,36,26,104,,45,45,37,41,9,6,0.9,0.8
2025-03-23T1200,2366A,114.8905,25.8471,赣州市,华坚鞋城,颗粒物(PM10),58,65,69,26,33,140,,51,51,26,45,30,18,0.7,0.8
2025-03-23T1200,3109A,115.0093,25.8613,赣州市,赣县区卫计委,颗粒物(PM10),59,67,48,32,27,111,,58,58,26,26,9,7,0.5,0.5
2025-03-23T1200,2683A,106.2319,36.1417,固原市,马园,颗粒物(PM10),147,244,127,34,36,96,,65,65,5,34,5,6,0.4,0.6
2025-03-23T1200,2684A,106.2792,36.0022,固原市,监测站,颗粒物(PM10),116,182,112,34,34,96,,85,85,7,22,7,8,0.3,0.5
2025-03-23T1200,2685A,106.2375,36.0211,固原市,新区,颗粒物(PM10),103,155,120,30,31,95,,89,89,6,23,7,7,0.4,0.5
2025-03-23T1200,3522A,106.2177,35.9959,固原市,原州区十五小,颗粒物(PM10),108,166,101,35,30,95,,92,92,8,14,7,7,0.2,0.3
2025-03-23T1200,2543A,106.6308,30.5278,广安市,小平旧居,,,,,,,,,,,,,,,,
2025-03-23T1200,2544A,106.6303,30.4576,广安市,市委,细颗粒物(PM2.5),102,90,132,76,107,79,,33,33,17,51,10,11,0.6,0.8
2025-03-23T1200,2545A,106.6271,30.4663,广安市,友谊中学,细颗粒物(PM2.5),95,100,133,71,94,74,,23,23,25,54,9,9,0.7,0.9
2025-03-23T1200,2547A,106.6388,30.4551,广安市,广电花园,细颗粒物(PM2.5),93,80,124,69,103,73,,29,29,20,50,10,11,0.7,0.8
2025-03-23T1200,2902A,106.6351,30.4865,广安市,北辰小学,细颗粒物(PM2.5),95,98,117,71,95,82,,22,22,24,46,11,10,0.6,0.8
2025-03-23T1200,2523A,105.8945,32.4535,广元市,黑石坡,颗粒物(PM10),67,84,68,36,36,47,,34,16,33,29,18,13,0.7,0.7
2025-03-23T1200,2524A,105.821,32.4444,广元市,老城,颗粒物(PM10),57,63,66,31,35,54,,15,15,26,48,31,9,1.2,0.8
2025-03-23T1200,2526A,105.8628,32.4287,广元市,监测站,,44,44,48,26,32,60,,32,30,27,33,28,11,0.8,0.7
2025-03-23T1200,3617A,105.8047,32.4166,广元市,经开区,细颗粒物(PM2.5),59,63,71,42,48,53,,17,17,23,49,22,10,0.9,0.8
2025-03-23T1200,1345A,113.2347,23.1423,广州市,广雅中学,臭氧1小时,64,73,90,38,48,171,,78,78,32,63,6,6,0.7,0.6
2025-03-23T1200,1346A,113.2612,23.105,广州市,市五中,,,70,77,38,42,169,,79,79,34,52,,6,0.6,0.7
2025-03-23T1200,1348A,113.3478,23.0916,广州市,广东商学院,臭氧1小时,85,68,81,41,42,188,,71,71,30,66,7,6,0.6,0.7
2025-03-23T1200,1349A,113.4332,23.1047,广州市,市八十六中,臭氧1小时,64,66,72,31,33,171,,66,66,39,78,8,6,0.5,0.5
2025-03-23T1200,1350A,113.3505,22.9483,广州市,番禺中学,颗粒物(PM10),65,79,75,33,38,171,,86,86,37,54,8,7,0.5,0.6
2025-03-23T1200,1351A,113.2146,23.3916,广州市,花都师范,细颗粒物(PM2.5),98,127,120,73,62,152,,42,42,54,86,11,7,0.6,0.7
2025-03-23T1200,1352A,113.2597,23.1331,广州市,市监测站,"颗粒物(PM10),臭氧1小时",62,73,72,31,36,169,,82,82,34,53,7,8,0.6,0.6
2025-03-23T1200,1353A,113.5618,23.312,广州市,九龙镇镇龙,颗粒物(PM10),80,109,95,57,52,121,,38,38,57,62,9,6,0.6,0.6
2025-03-23T1200,1354A,113.2765,23.1544,广州市,麓湖,臭氧1小时,70,83,78,40,41,176,,64,64,33,85,6,7,0.5,0.7
2025-03-23T1200,1355A,113.443,23.3035,广州市,帽峰山森林公园,臭氧1小时,55,53,63,13,17,164,,95,95,27,35,9,9,0.5,0.5
2025-03-23T1200,2846A,113.3221,23.1322,广州市,体育西,臭氧1小时,80,82,92,40,44,184,,83,83,19,53,7,6,0.6,0.7
2025-03-23T1200,3298A,113.5717,23.5491,广州市,从化街口,臭氧1小时,107,78,79,50,52,213,,78,78,24,42,13,8,0.6,0.7
2025-03-23T1200,3299A,113.3472,23.3692,广州市,白云竹料,颗粒物(PM10),84,118,121,60,59,160,,54,54,56,72,10,8,0.6,0.6
2025-03-23T1200,3300A,113.2981,23.237,广州市,白云嘉禾,颗粒物(PM10),61,71,87,35,43,168,,64,64,40,78,7,6,0.4,0.5
2025-03-23T1200,3301A,113.4256,23.1716,广州市,黄埔科学城,臭氧1小时,60,66,74,36,40,168,,57,57,35,61,10,8,0.5,0.6
2025-03-23T1200,3302A,113.3942,23.0483,广州市,番禺大学城,臭氧1小时,98,59,73,25,33,198,,86,86,26,56,11,11,0.4,0.4
2025-03-23T1200,3303A,113.4922,22.8168,广州市,南沙黄阁,颗粒物(PM10),61,71,66,32,31,160,,80,80,32,41,8,6,0.6,0.6
2025-03-23T1200,3304A,113.5342,22.7896,广州市,南沙街,颗粒物(PM10),65,79,61,37,28,157,,100,100,40,34,7,5,0.6,0.6
2025-03-23T1200,3443A,113.2902,23.5544,广州市,花都梯面,细颗粒物(PM2.5),73,94,80,53,47,176,,57,57,42,64,8,6,0.8,0.8
2025-03-23T1200,3445A,113.7858,23.7478,广州市,从化良口,,,66,48,50,34,,,83,74,16,16,10,7,0.5,0.4
2025-03-23T1200,3446A,113.8051,23.2614,广州市,增城荔城,细颗粒物(PM2.5),80,90,72,59,43,173,,88,88,33,29,10,8,0.8,0.7
2025-03-23T1200,2505A,109.568,23.1478,贵港市,德智高中,,,,,,,,,,,,,,,,
2025-03-23T1200,2506A,109.6047,23.0666,贵港市,江南子站,颗粒物(PM10),53,56,112,28,71,157,,91,91,13,32,8,8,0.8,0.9
2025-03-23T1200,2507A,109.6014,23.0948,贵港市,贵城子站,颗粒物(PM10),55,60,101,32,66,149,,90,90,15,32,11,12,0.7,0.9
2025-03-23T1200,2508A,109.5669,23.1065,贵港市,荷城子站,颗粒物(PM10),63,75,105,39,67,134,,70,70,18,37,15,13,0.7,0.8
2025-03-23T1200,3405A,109.5886,23.1172,贵港市,新世纪学校,颗粒物(PM10),60,70,103,37,68,147,,86,86,17,34,10,8,0.6,0.7
2025-03-23T1200,1439A,106.6899,26.5998,贵阳市,马鞍山,,41,41,56,17,36,99,,85,85,10,11,7,9,0.3,0.4
2025-03-23T1200,1441A,106.6243,26.6266,贵阳市,鉴湖路,颗粒物(PM10),51,51,68,17,37,93,,85,85,10,11,8,10,0.4,0.4
2025-03-23T1200,1442A,106.7487,26.6343,贵阳市,燕子冲,,,48,64,22,46,99,,85,85,,17,12,13,0.3,0.5
2025-03-23T1200,1443A,106.6555,26.4365,贵阳市,碧云窝,颗粒物(PM10),60,70,73,14,37,96,,89,88,14,16,9,12,0.4,0.5
2025-03-23T1200,1445A,106.7109,26.6027,贵阳市,红边门,颗粒物(PM10),53,56,68,27,45,98,,91,91,16,17,6,11,0.2,0.4
2025-03-23T1200,1446A,106.7164,26.5699,贵阳市,新华路,,,53,63,19,40,99,,89,89,,14,52,72,0.2,0.4
2025-03-23T1200,1447A,106.674,26.5424,贵阳市,太慈桥,颗粒物(PM10),52,53,63,17,36,96,,91,89,19,20,11,12,0.4,0.4
2025-03-23T1200,1552A,106.805,26.3003,贵阳市,桐木岭,颗粒物(PM10),61,72,78,39,52,98,,83,78,9,9,24,26,0.4,0.6
2025-03-23T1200,4230A,106.6882,26.5695,贵阳市,花果园大街66号,,46,46,58,23,46,89,,83,83,14,17,7,10,0.5,0.6
2025-03-23T1200,4231A,106.6873,26.5169,贵阳市,漓江路57号,,48,48,65,19,39,85,,84,83,21,17,13,15,0.4,0.4
2025-03-23T1200,1862A,110.4144,25.3167,桂林市,电子科大尧山校区,,,,,,,,,,,,,,,,
2025-03-23T1200,1864A,110.3089,25.2708,桂林市,龙隐路小学,细颗粒物(PM2.5),89,91,81,66,67,139,,71,71,22,33,14,14,1.1,1.1
2025-03-23T1200,1865A,110.2869,25.2178,桂林市,八中,细颗粒物(PM2.5),80,96,89,59,63,149,,56,56,20,37,13,11,0.7,0.8
2025-03-23T1200,3531A,110.296,25.1253,桂林市,旅游学院,细颗粒物(PM2.5),67,78,89,48,61,154,,72,72,13,27,15,12,0.5,0.6
2025-03-23T1200,4222A,110.1835,25.2444,桂林市,环湖路276号,细颗粒物(PM2.5),77,92,87,56,62,130,,61,61,32,48,10,9,0.6,0.6
2025-03-23T1200,4301A,110.2803,25.2773,桂林市,信义路13号,细颗粒物(PM2.5),79,84,88,58,72,155,,59,59,18,41,16,17,0.7,0.9
2025-03-23T1200,2674A,100.2561,34.4714,果洛藏族自治州,玛沁县大武镇,,48,48,65,16,23,110,,104,97,1,2,18,15,0.4,0.4
2025-03-23T1200,1129A,126.5422,45.755,哈尔滨市,岭北,,34,22,16,18,13,106,,61,61,17,20,15,16,0.9,1.1
2025-03-23T1200,1130A,126.561,45.8167,哈尔滨市,松北商大,,31,24,23,10,11,98,,59,59,8,22,6,6,0.5,0.5
2025-03-23T1200,1131A,126.979,45.5419,哈尔滨市,阿城会宁,,,14,40,3,23,90,,48,48,5,27,,5,0.6,0.9
2025-03-23T1200,1132A,126.599,45.7222,哈尔滨市,南岗学府路,,31,31,26,17,9,96,,66,66,9,16,6,8,0.6,0.6
2025-03-23T1200,1133A,126.689,45.7733,哈尔滨市,太平宏伟公园,颗粒物(PM10),54,58,31,18,16,93,,54,54,12,21,7,7,0.6,0.8
2025-03-23T1200,1134A,126.635,45.7667,哈尔滨市,道外承德广场,,45,43,35,31,20,91,,58,58,21,22,8,7,0.6,0.7
2025-03-23T1200,1135A,126.685,45.7319,哈尔滨市,香坊红旗大街,颗粒物(PM10),56,61,27,15,16,102,,61,61,15,17,11,9,0.6,0.5
2025-03-23T1200,1136A,126.6411,45.7258,哈尔滨市,动力和平路,,30,29,20,18,9,95,,65,65,11,14,7,8,0.6,0.5
2025-03-23T1200,1137A,126.593,45.7478,哈尔滨市,道里建国路,,30,28,20,13,12,94,,62,62,9,15,9,8,0.5,0.4
2025-03-23T1200,1138A,126.615,45.61,哈尔滨市,平房东轻厂,,29,24,38,15,23,92,,66,66,2,30,6,10,0.5,0.7
2025-03-23T1200,1139A,126.595,45.9855,哈尔滨市,呼兰师专,,35,35,25,14,17,80,,50,50,17,24,8,7,0.5,0.5
2025-03-23T1200,1140A,126.6206,45.6842,哈尔滨市,省农科院,,33,33,29,23,16,97,,52,52,14,25,7,9,0.5,0.6
2025-03-23T1200,2688A,93.5128,42.8172,哈密市,地区监测站,颗粒物(PM10),500,1473,469,250,84,48,,36,36,21,41,3,6,0.1,0.4
2025-03-23T1200,2689A,93.4961,42.8328,哈密市,哈密师范学校,颗粒物(PM10),500,1190,355,302,96,47,,26,26,25,48,5,6,0.1,0.5
2025-03-23T1200,2671A,100.9048,36.9639,海北藏族自治州,海晏县西海镇,,41,41,64,16,20,98,,90,85,1,2,11,8,0.4,0.4
2025-03-23T1200,3867A,102.0738,36.5056,海东市,平安区公安北苑,颗粒物(PM10),59,68,100,32,33,91,,38,38,11,21,11,10,0.7,0.7
2025-03-23T1200,1409A,110.576,19.9507,海口市,东寨港,,,,31,,25,,,95,,,5,,6,,0.3
2025-03-23T1200,1410A,110.3232,20.0574,海口市,海南大学,,35,31,44,18,23,110,,96,89,8,10,2,2,0.3,0.4
2025-03-23T1200,1411A,110.283,20.0053,海口市,秀英海南医院,,33,33,39,21,21,101,,86,86,18,13,5,4,0.4,0.4
2025-03-23T1200,1412A,110.338,19.9969,海口市,海南师范大学,,38,35,39,15,21,119,,99,99,7,7,3,3,0.4,0.5
2025-03-23T1200,1413A,110.33,20.0356,海口市,龙华路环保局宿舍,,35,33,40,17,23,112,,97,92,6,6,4,4,0.4,0.4
2025-03-23T1200,3539A,110.5111,19.9736,海口市,桂林洋子站,,36,21,44,13,25,114,,83,83,5,9,3,3,0.3,0.4
2025-03-23T1200,2673A,100.6188,36.2866,海南藏族自治州,共和县恰卜恰镇,细颗粒物(PM2.5),57,61,82,40,27,104,,68,68,5,10,12,12,0.3,0.4
2025-03-23T1200,2676A,97.3731,37.3753,海西蒙古族藏族自治州,德令哈市,颗粒物(PM10),72,93,71,16,19,100,,88,88,6,4,13,11,0.5,0.4
2025-03-23T1200,1048A,114.5302,36.6116,邯郸市,东污水处理厂,颗粒物(PM10),78,105,71,24,23,88,,60,60,22,29,7,9,0.4,0.7
2025-03-23T1200,1049A,114.4918,36.5713,邯郸市,矿院,颗粒物(PM10),82,114,86,27,19,68,,49,49,27,23,8,8,0.7,0.6
2025-03-23T1200,1050A,114.484,36.6133,邯郸市,丛台公园,颗粒物(PM10),73,95,86,32,24,75,,55,54,24,27,8,11,0.5,0.8
2025-03-23T1200,3458A,114.7895,36.5593,邯郸市,香泉濮院小区,颗粒物(PM10),89,127,92,20,20,92,,62,62,13,18,11,10,0.7,0.4
2025-03-23T1200,3579A,114.50634,36.77178,邯郸市,永年区实验高中,颗粒物(PM10),82,113,88,24,24,83,,58,58,15,21,13,20,1.0,1.2
2025-03-23T1200,3580A,114.20016,36.44293,邯郸市,峰峰矿区临水派出所,细颗粒物(PM2.5),57,51,24,40,22,104,,89,89,5,9,16,14,0.6,0.6
2025-03-23T1200,2634A,106.9893,33.1842,汉中市,汉川机床厂子校,颗粒物(PM10),60,69,43,30,25,112,,85,85,6,8,11,9,0.5,0.5
2025-03-23T1200,2635A,107.0154,33.0706,汉中市,市监测站,颗粒物(PM10),51,52,58,27,37,104,,50,50,10,27,6,8,0.5,0.9
2025-03-23T1200,2636A,107.0089,33.1138,汉中市,鑫源开发区,颗粒物(PM10),61,71,56,25,34,98,,69,69,17,29,6,11,0.6,0.9
2025-03-23T1200,2637A,107.007,33.0323,汉中市,南郑大河坎水厂,颗粒物(PM10),63,76,56,24,34,112,,57,57,7,28,5,6,0.4,0.6
2025-03-23T1200,1223A,120.2072,30.2111,杭州市,滨江,颗粒物(PM10),53,56,58,25,35,128,,79,79,28,40,9,8,0.4,0.5
2025-03-23T1200,1224A,120.0633,30.2747,杭州市,西溪,,49,49,50,29,28,149,,50,50,14,30,8,7,0.3,0.4
2025-03-23T1200,1226A,120.3417,30.3150,杭州市,下沙,颗粒物(PM10),53,55,67,24,31,122,,74,74,28,58,8,7,0.5,0.5
2025-03-23T1200,1227A,120.1269,30.2456,杭州市,卧龙桥,,50,50,42,27,25,138,,56,56,19,30,8,6,0.2,0.3
2025-03-23T1200,1228A,120.1903,30.2692,杭州市,浙江农大,,48,48,66,25,36,120,,62,62,25,51,5,4,0.4,0.5
2025-03-23T1200,1230A,120.1197,30.3119,杭州市,和睦小学,,,44,59,29,35,146,,52,52,,49,9,8,0.5,0.7
2025-03-23T1200,1231A,120.3019,30.4183,杭州市,临平镇,颗粒物(PM10),56,62,76,23,33,129,,66,66,30,64,8,7,0.4,0.5
2025-03-23T1200,1232A,120.2753,30.1839,杭州市,城厢镇,颗粒物(PM10),52,53,61,29,34,135,,80,80,32,44,9,9,0.5,0.5
2025-03-23T1200,1233A,120.0883,30.1808,杭州市,云栖,颗粒物(PM10),51,51,44,24,21,128,,51,51,34,39,10,8,0.4,0.4
2025-03-23T1200,3557A,119.9464,30.0494,杭州市,镇二中,,43,43,44,28,30,116,,51,51,27,45,8,8,0.6,0.6
2025-03-23T1200,3558A,119.7183,30.2367,杭州市,市府大楼,,45,45,49,27,27,140,,74,74,15,29,10,9,0.5,0.5
2025-03-23T1200,3656A,120.1556,30.2864,杭州市,消防大队,,47,47,57,25,35,135,,66,66,25,44,9,7,0.4,0.5
2025-03-23T1200,1270A,117.1959,31.7848,合肥市,明珠广场,颗粒物(PM10),58,66,76,34,35,103,,54,54,27,54,6,6,0.5,0.4
2025-03-23T1200,1271A,117.3072,31.8764,合肥市,三里街,颗粒物(PM10),64,78,107,39,45,76,,16,16,51,69,7,8,0.7,0.9
2025-03-23T1200,1272A,117.2588,31.8707,合肥市,琥珀山庄,颗粒物(PM10),62,73,83,41,45,104,,33,33,29,52,4,3,0.5,0.7
2025-03-23T1200,1273A,117.1604,31.9052,合肥市,董铺水库,颗粒物(PM10),65,80,75,29,26,112,,48,48,30,51,4,3,0.4,0.4
2025-03-23T1200,1274A,117.25,31.8571,合肥市,长江中路,颗粒物(PM10),59,68,78,36,41,103,,50,50,36,56,9,9,0.3,0.4
2025-03-23T1200,1275A,117.266,31.9436,合肥市,庐阳区,颗粒物(PM10),63,75,77,29,30,106,,52,52,34,47,7,7,0.4,0.4
2025-03-23T1200,1276A,117.3453,31.8616,合肥市,瑶海区,颗粒物(PM10),73,95,87,32,35,78,,20,20,48,70,9,8,0.5,0.6
2025-03-23T1200,1277A,117.3027,31.7964,合肥市,包河区,颗粒物(PM10),62,73,82,36,37,88,,35,35,38,76,6,5,0.6,0.6
2025-03-23T1200,1278A,117.2776,31.7385,合肥市,滨湖新区,颗粒物(PM10),63,75,82,36,40,76,,36,36,42,64,10,11,0.5,0.5
2025-03-23T1200,1279A,117.1318,31.8403,合肥市,高新区,颗粒物(PM10),60,70,70,31,30,103,,67,67,28,44,4,3,0.7,0.6
2025-03-23T1200,3464A,117.3803,31.9147,合肥市,高教基地,颗粒物(PM10),74,98,87,38,39,74,,27,27,60,58,9,9,0.5,0.5
2025-03-23T1200,3614A,79.924,37.0877,和田地区,地区环保局,颗粒物(PM10),96,141,117,32,19,74,,68,68,12,11,1,1,0.7,0.7
2025-03-23T1200,3615A,79.9131,37.113,和田地区,市环保局,颗粒物(PM10),96,142,94,25,14,83,,68,68,8,12,3,2,0.6,0.5
2025-03-23T1200,2516A,108.2011,24.715,河池市,东仁乐园,颗粒物(PM10),79,108,94,42,65,160,,45,45,17,51,16,11,0.7,0.8
2025-03-23T1200,2517A,108.0497,24.6947,河池市,市环保站,颗粒物(PM10),67,84,72,37,49,165,,66,66,12,26,12,9,0.6,0.7
2025-03-23T1200,2518A,108.0983,24.6989,河池市,市疾控中心,颗粒物(PM10),61,71,83,39,61,162,,46,46,13,41,17,11,0.7,0.7
2025-03-23T1200,1696A,114.6778,23.7569,河源市,源西,颗粒物(PM10),57,64,67,37,35,162,,60,60,19,46,6,6,0.8,0.9
2025-03-23T1200,1697A,114.6944,23.7586,河源市,东埔,臭氧1小时,67,47,69,30,33,173,,76,76,23,42,6,6,0.6,0.7
2025-03-23T1200,1698A,114.6892,23.7233,河源市,老城,臭氧1小时,73,59,57,37,35,178,,69,69,22,30,8,6,0.5,0.5
2025-03-23T1200,1718A,115.4208,35.2464,菏泽市,气象局,颗粒物(PM10),96,142,106,61,40,78,,55,55,24,26,9,6,0.6,0.5
2025-03-23T1200,3374A,115.5564,35.0891,菏泽市,定陶老年大学,颗粒物(PM10),91,132,104,41,38,85,,54,54,21,28,8,7,0.6,0.5
2025-03-23T1200,4184A,115.4797,35.24401,菏泽市,永昌路1号,颗粒物(PM10),104,157,116,53,39,86,,62,62,20,23,10,8,0.5,0.3
2025-03-23T1200,4193A,115.4715,35.2800,菏泽市,长城路999号,颗粒物(PM10),98,146,101,46,30,71,,53,53,31,29,13,9,0.8,0.6
2025-03-23T1200,2514A,111.5264,24.4172,贺州市,环保小区,细颗粒物(PM2.5),72,66,74,52,53,172,,99,99,18,28,16,16,0.7,0.7
2025-03-23T1200,2515A,111.5608,24.4078,贺州市,政协大楼,细颗粒物(PM2.5),67,61,66,48,48,157,,92,92,22,28,21,23,0.7,0.7
2025-03-23T1200,3534A,111.4744,24.4553,贺州市,西湾,细颗粒物(PM2.5),70,75,75,51,52,164,,72,72,19,39,10,10,0.7,0.8
2025-03-23T1200,2385A,114.17,35.9019,鹤壁市,市监测站,颗粒物(PM10),81,112,89,28,27,98,,72,72,17,23,10,8,0.4,0.4
2025-03-23T1200,2386A,114.2956,35.7511,鹤壁市,市交警支队,颗粒物(PM10),85,120,89,17,23,81,,49,30,23,29,5,8,0.2,0.3
2025-03-23T1200,2387A,114.2878,35.7306,鹤壁市,迎宾馆,颗粒物(PM10),95,140,98,20,20,91,,53,34,4,18,3,4,0.3,0.4
2025-03-23T1200,3474A,114.2617,35.6822,鹤壁市,大新区,颗粒物(PM10),97,144,92,40,30,31,,38,18,55,39,8,7,0.7,0.5
2025-03-23T1200,3596A,114.1572,35.9603,鹤壁市,南山宾馆,颗粒物(PM10),89,127,97,35,31,105,,86,84,5,12,5,9,0.4,0.4
2025-03-23T1200,2244A,130.2537,47.3416,鹤岗市,哈啤分公司,,23,12,18,7,16,73,,67,67,4,3,14,14,0.3,0.3
2025-03-23T1200,2245A,130.2684,47.3086,鹤岗市,斯达机电,,21,8,22,6,15,66,,70,70,13,3,23,14,0.3,0.3
2025-03-23T1200,2246A,130.3114,47.3388,鹤岗市,东山纸板厂,,,18,29,14,19,,,61,61,8,7,16,19,0.4,0.5
2025-03-23T1200,2247A,130.1097,47.3382,鹤岗市,五号水库,,,,,,,,,,,,,,,,
2025-03-23T1200,2263A,127.4833,50.2524,黑河市,交通局,,23,20,18,10,13,72,,59,59,9,8,7,7,0.3,0.3
2025-03-23T1200,2264A,127.5144,50.2341,黑河市,环保局,,25,14,21,3,16,80,,62,62,4,10,3,4,0.3,0.3
2025-03-23T1200,2265A,127.5291,50.2472,黑河市,大黑河岛,,,16,17,3,8,68,,42,42,6,14,3,3,,
2025-03-23T1200,1074A,115.6838,37.7541,衡水市,电机北厂,,,,103,,35,,,89,,,22,,13,,0.4
2025-03-23T1200,1075A,115.6303,37.7316,衡水市,市监测站,颗粒物(PM10),106,161,90,58,31,78,,51,51,19,23,14,12,0.4,0.4
2025-03-23T1200,3188A,115.6683,37.7217,衡水市,市城管局,颗粒物(PM10),108,166,100,51,35,79,,47,47,19,26,16,12,0.3,0.4
2025-03-23T1200,3459A,115.5989,37.5491,衡水市,地表水厂,颗粒物(PM10),113,175,108,42,32,98,,68,68,17,29,14,14,0.3,0.3
2025-03-23T1200,2456A,112.5003,26.9167,衡阳市,原169医院,颗粒物(PM10),70,89,75,46,39,69,,35,35,44,41,58,16,0.6,0.5
2025-03-23T1200,2457A,112.6194,26.9258,衡阳市,衡阳化工总厂,细颗粒物(PM2.5),94,112,86,70,52,83,,38,38,34,29,22,12,1.1,0.8
2025-03-23T1200,2458A,112.6211,26.8956,衡阳市,珠晖区环保局,细颗粒物(PM2.5),78,89,78,57,50,85,,36,36,33,36,24,13,1.2,0.9
2025-03-23T1200,2459A,112.6197,26.8733,衡阳市,市委党校,颗粒物(PM10),75,100,77,54,49,86,,34,34,29,35,22,14,1.3,0.8
2025-03-23T1200,2460A,112.6006,26.8919,衡阳市,市监测站,,,,91,,62,,,100,,,44,,13,,1.1
2025-03-23T1200,2461A,112.5664,26.9056,衡阳市,真空机电公司,颗粒物(PM10),75,100,87,53,52,84,,26,26,33,51,28,15,1.1,1.1
2025-03-23T1200,3399A,112.6703,26.882,衡阳市,师范学院,细颗粒物(PM2.5),75,93,81,55,52,94,,46,46,30,29,24,15,1.0,0.7
2025-03-23T1200,2608A,103.3772,23.3993,红河哈尼族彝族自治州,污水处理厂,细颗粒物(PM2.5),57,51,84,40,67,135,,96,91,9,14,11,15,0.5,0.6
2025-03-23T1200,2609A,103.3861,23.35,红河哈尼族彝族自治州,监测站,细颗粒物(PM2.5),65,73,87,47,57,140,,118,109,12,13,12,12,0.5,0.5
2025-03-23T1200,3038A,103.3758,23.368,红河哈尼族彝族自治州,州图书馆,细颗粒物(PM2.5),72,63,80,52,59,134,,109,101,12,13,11,10,0.5,0.5
2025-03-23T1200,1090A,111.6507,40.7517,呼和浩特市,呼市一监,颗粒物(PM10),192,334,160,113,59,70,,36,36,20,23,23,13,0.9,0.8
2025-03-23T1200,1091A,111.6572,40.8033,呼和浩特市,小召,颗粒物(PM10),165,280,162,84,51,61,,42,42,31,36,15,8,0.6,0.5
2025-03-23T1200,1094A,111.7516,40.8369,呼和浩特市,如意水处理厂,颗粒物(PM10),145,239,142,81,52,62,,33,33,25,38,15,11,0.6,0.5
2025-03-23T1200,1095A,111.7276,40.8062,呼和浩特市,二十九中,颗粒物(PM10),144,237,151,87,52,62,,37,37,31,36,19,9,0.7,0.6
2025-03-23T1200,1096A,111.5512,40.7866,呼和浩特市,工大金川校区,颗粒物(PM10),140,229,145,90,51,61,,42,42,33,35,22,12,0.8,0.6
2025-03-23T1200,1097A,111.717,40.7612,呼和浩特市,化肥厂生活区,颗粒物(PM10),175,300,170,78,54,77,,38,38,20,30,18,11,0.6,0.5
2025-03-23T1200,3698A,111.5968,40.8178,呼和浩特市,红旗小学,颗粒物(PM10),147,244,153,85,50,61,,40,40,34,45,12,8,0.7,0.6
2025-03-23T1200,3699A,111.6518,40.8389,呼和浩特市,海东办,颗粒物(PM10),157,263,149,84,48,62,,40,40,23,35,11,9,0.6,0.6
2025-03-23T1200,2192A,119.7594,49.2261,呼伦贝尔市,区环保局,,24,24,23,6,18,72,,,,6,12,6,6,0.3,0.3
2025-03-23T1200,3061A,119.7512,49.1577,呼伦贝尔市,国华电力东,,28,28,26,6,12,72,,80,80,4,6,4,4,0.4,0.4
2025-03-23T1200,1250A,120.0751,30.8669,湖州市,城西水厂,颗粒物(PM10),59,67,64,32,30,132,,41,41,38,80,10,10,0.3,0.3
2025-03-23T1200,2873A,120.0830,30.8929,湖州市,仁皇山新区,颗粒物(PM10),59,68,62,31,29,154,,56,56,18,57,7,8,0.5,0.5
2025-03-23T1200,2907A,120.1844,30.8596,湖州市,吴兴区站,颗粒物(PM10),61,72,61,39,32,120,,54,54,30,53,10,9,0.3,0.3
2025-03-23T1200,3562A,120.4148,30.8538,湖州市,南浔区站,颗粒物(PM10),54,57,74,32,38,153,,59,59,18,44,6,6,0.3,0.3
2025-03-23T1200,1607A,120.9049,40.7211,葫芦岛市,龙港区,细颗粒物(PM2.5),211,257,111,161,61,130,,48,48,39,48,24,90,1.0,1.2
2025-03-23T1200,1608A,120.8392,40.7514,葫芦岛市,化工街,细颗粒物(PM2.5),208,215,124,158,57,113,,42,42,52,53,48,38,1.4,0.9
2025-03-23T1200,1609A,120.8341,40.7073,葫芦岛市,新区,细颗粒物(PM2.5),261,,101,211,65,121,,41,41,52,55,,70,,1.2
2025-03-23T1200,1610A,120.8695,40.7677,葫芦岛市,东城区,细颗粒物(PM2.5),286,,118,236,63,140,,46,46,54,59,66,28,1.9,1.1
2025-03-23T1200,2482A,109.5981,27.5721,怀化市,林科所,,,,66,,46,,,34,,,41,,16,,0.7
2025-03-23T1200,2483A,109.9453,27.5444,怀化市,河西地税局,细颗粒物(PM2.5),68,59,60,49,44,39,,26,25,26,21,13,11,0.5,0.5
2025-03-23T1200,2484A,109.9781,27.5342,怀化市,市四医院,细颗粒物(PM2.5),102,112,78,76,51,36,,17,13,38,33,24,14,0.7,0.6
2025-03-23T1200,2485A,109.9972,27.5578,怀化市,监测楼,细颗粒物(PM2.5),83,91,72,61,44,36,,12,12,35,31,20,15,0.5,0.5
2025-03-23T1200,2486A,110.0394,27.583,怀化市,市委党校,细颗粒物(PM2.5),89,85,72,66,49,39,,16,16,34,29,10,14,0.6,0.5
2025-03-23T1200,1210A,119.036,33.5981,淮安市,钵池山,颗粒物(PM10),68,85,79,45,33,108,,80,80,20,23,16,17,1.1,1.2
2025-03-23T1200,1211A,119.007,33.575,淮安市,北京南路,颗粒物(PM10),75,100,82,49,35,98,,65,65,32,37,30,18,3.0,1.4
2025-03-23T1200,1212A,118.989,33.6067,淮安市,市监测站,颗粒物(PM10),73,95,72,44,32,113,,85,85,24,26,13,10,0.8,0.7
2025-03-23T1200,1213A,119.135,33.5039,淮安市,楚州区监测站,,,100,87,42,33,,,57,57,,36,,9,,0.4
2025-03-23T1200,3426A,118.8755,33.2894,淮安市,新华书店,细颗粒物(PM2.5),84,91,73,62,35,135,,96,96,19,20,10,10,0.8,0.8
2025-03-23T1200,4206A,119.0288,33.6319,淮安市,承德北路606号,颗粒物(PM10),75,100,82,51,74,114,,85,85,23,27,11,10,0.6,0.6
2025-03-23T1200,2282A,116.8004,33.975,淮北市,监测站,颗粒物(PM10),97,143,96,63,41,91,,67,66,28,28,14,11,0.8,0.7
2025-03-23T1200,2283A,116.8091,33.9007,淮北市,烈山区政府,颗粒物(PM10),88,126,108,63,50,110,,64,64,25,43,12,13,0.9,0.8
2025-03-23T1200,3330A,116.8873,33.9836,淮北市,杜集区检察院,颗粒物(PM10),95,140,110,66,47,101,,69,69,34,31,14,11,0.9,0.7
2025-03-23T1200,4017A,116.7923,33.9535,淮北市,市博物馆,颗粒物(PM10),98,145,110,61,49,94,,68,68,24,30,15,13,1.0,0.9
2025-03-23T1200,2277A,116.8305,32.7727,淮南市,潘集区政府,细颗粒物(PM2.5),99,122,93,74,47,113,,93,93,18,25,10,8,0.6,0.5
2025-03-23T1200,2279A,116.8569,32.5951,淮南市,谢家集区政府,细颗粒物(PM2.5),78,87,82,57,37,99,,83,83,22,20,10,8,0.6,0.5
2025-03-23T1200,2280A,116.8281,32.633,淮南市,八公山区政府,细颗粒物(PM2.5),72,90,72,52,33,112,,114,113,11,8,9,8,0.5,0.3
2025-03-23T1200,2281A,116.6325,32.6201,淮南市,焦岗湖风景区管理处,颗粒物(PM10),64,77,64,42,27,73,,51,51,11,14,9,8,0.7,0.5
2025-03-23T1200,2894A,117.0566,32.6531,淮南市,经济技术开发区消防队,颗粒物(PM10),69,87,76,43,32,113,,114,114,20,16,10,8,0.5,0.4
2025-03-23T1200,3329A,117.0108,32.5893,淮南市,山南新区,细颗粒物(PM2.5),83,103,84,61,37,113,,96,96,13,12,11,9,0.7,0.6
2025-03-23T1200,4209A,117.0031,32.6445,淮南市,国庆中路369号,细颗粒物(PM2.5),88,111,83,65,37,104,,100,100,24,20,14,11,0.6,0.6
2025-03-23T1200,2446A,114.9028,30.4742,黄冈市,职工中心,细颗粒物(PM2.5),92,93,63,68,45,47,,40,40,49,38,12,10,1.0,0.8
2025-03-23T1200,2929A,114.8858,30.4519,黄冈市,红卫路,细颗粒物(PM2.5),93,102,67,69,42,53,,52,40,45,30,17,10,1.1,0.8
2025-03-23T1200,3398A,114.9136,30.4445,黄冈市,市林业局,细颗粒物(PM2.5),94,103,72,70,43,68,,40,40,38,39,18,14,1.0,0.8
2025-03-23T1200,2672A,102.0199,35.5102,黄南藏族自治州,同仁县隆务镇,颗粒物(PM10),52,53,84,18,23,98,,95,94,3,2,13,13,0.3,0.2
2025-03-23T1200,2295A,118.2903,29.6963,黄山市,延安路89号,颗粒物(PM10),52,53,43,31,25,91,,44,44,14,12,6,5,0.3,0.2
2025-03-23T1200,2297A,118.1371,30.2756,黄山市,黄山区政府5号楼,颗粒物(PM10),54,58,62,21,36,62,,42,42,23,10,8,8,0.6,0.6
2025-03-23T1200,4210A,118.3354,29.7203,黄山市,滨江东路7-2号,颗粒物(PM10),60,69,51,35,25,74,,41,41,20,13,6,5,0.4,0.4
2025-03-23T1200,2423A,115.0601,30.2313,黄石市,沈家营,细颗粒物(PM2.5),94,115,71,70,41,27,,36,24,75,37,22,11,1.1,0.8
2025-03-23T1200,2426A,114.8988,30.2019,黄石市,铁山,细颗粒物(PM2.5),109,166,85,82,47,27,,46,25,101,37,29,12,1.6,0.4
2025-03-23T1200,2427A,115.0307,30.2092,黄石市,团城山,细颗粒物(PM2.5),99,121,65,74,35,26,,40,19,90,46,23,14,1.1,0.8
2025-03-23T1200,3149A,115.0235,30.1578,黄石市,笔架山北路,细颗粒物(PM2.5),89,93,54,66,36,54,,69,63,55,27,18,13,1.0,0.9
2025-03-23T1200,4185A,115.0780,30.21118,黄石市,磁湖东路29号,细颗粒物(PM2.5),102,125,79,76,46,28,,13,12,77,51,22,11,1.1,0.9
2025-03-23T1200,1392A,114.4183,23.0528,惠州市,河南岸金山湖子站,颗粒物(PM10),63,76,51,42,29,152,,78,78,26,27,11,11,0.6,0.6
2025-03-23T1200,1393A,114.4053,23.0822,惠州市,下埔横江三路子站,颗粒物(PM10),64,78,51,41,28,162,,99,99,29,24,10,11,0.6,0.5
2025-03-23T1200,1394A,114.4103,23.1142,惠州市,江北云山西路子站,,,73,52,43,26,,,98,94,,26,,12,,0.4
2025-03-23T1200,1395A,114.4645,22.7833,惠州市,惠阳区承修路船湖子站,臭氧1小时,74,58,52,32,25,179,,67,67,18,35,10,11,0.6,0.6
2025-03-23T1200,1396A,114.5317,22.7422,惠州市,大亚湾管委会子站,,50,43,44,17,18,157,,69,69,16,37,8,9,0.5,0.5
2025-03-23T1200,3314A,114.4338,22.8134,惠州市,惠阳秋长,臭氧1小时,75,56,56,29,27,180,,75,75,19,36,13,13,0.6,0.6
2025-03-23T1200,3452A,114.6517,22.775,惠州市,大亚湾霞涌,臭氧1小时,58,40,36,19,17,166,,107,107,14,20,6,6,0.3,0.3
2025-03-23T1200,2240A,130.9762,45.3001,鸡西市,环保局,,28,21,21,12,10,89,,66,66,3,10,5,7,0.2,0.3
2025-03-23T1200,2243A,130.9429,45.3039,鸡西市,第一中学,,29,7,12,3,6,90,,74,74,2,5,5,6,0.2,0.2
2025-03-23T1200,3707A,131.0207,45.3073,鸡西市,欧美日汽修厂,,32,12,30,3,15,100,,62,62,4,11,6,8,0.4,0.4
2025-03-23T1200,3709A,130.9967,45.3106,鸡西市,市政设施管理处,,29,29,27,7,11,87,,52,52,3,16,3,6,0.2,0.3
2025-03-23T1200,2367A,114.9754,27.0803,吉安市,红声器材厂,颗粒物(PM10),60,69,56,36,27,105,,67,67,35,30,15,15,0.5,0.5
2025-03-23T1200,2368A,114.9658,27.0999,吉安市,市森林工业局,颗粒物(PM10),54,57,58,28,27,102,,67,67,35,40,18,14,0.3,0.5
2025-03-23T1200,2369A,114.99,27.1312,吉安市,市环境监测站,颗粒物(PM10),54,57,48,26,26,116,,66,66,25,26,22,26,0.2,0.2
2025-03-23T1200,2370A,115.0093,27.0968,吉安市,青原区法院,颗粒物(PM10),56,61,52,30,26,118,,57,57,30,33,14,14,0.3,0.3
2025-03-23T1200,1772A,126.54,43.8622,吉林市,哈达湾,,30,13,81,3,55,96,,62,62,7,20,6,9,0.4,0.7
2025-03-23T1200,1773A,126.5844,43.8358,吉林市,东局子,,31,,51,6,38,99,,74,74,6,16,5,8,0.4,0.6
2025-03-23T1200,1774A,126.5052,43.8245,吉林市,电力学院,,30,6,94,3,82,94,,53,53,9,24,5,9,0.2,0.5
2025-03-23T1200,1775A,126.6133,43.8972,吉林市,江北,,31,21,72,8,53,98,,67,67,14,28,2,5,0.3,0.6
2025-03-23T1200,1776A,126.555,43.8306,吉林市,江南公园,,30,14,51,9,40,94,,67,67,8,19,7,8,0.4,0.5
2025-03-23T1200,1778A,126.7061,43.7133,吉林市,丰满,,34,15,20,14,14,108,,76,76,5,8,5,5,0.4,0.6
2025-03-23T1200,2868A,126.4739,43.953,吉林市,九站,,36,36,117,22,86,104,,63,63,13,32,13,23,0.4,0.7
2025-03-23T1200,1299A,116.9862,36.6114,济南市,科干所,颗粒物(PM10),104,158,92,39,27,91,,78,58,22,25,12,9,0.5,0.5
2025-03-23T1200,1300A,116.9376,36.665,济南市,农科所,颗粒物(PM10),102,154,101,37,25,81,,76,65,32,33,15,10,0.9,0.7
2025-03-23T1200,1301A,117.1265,36.6734,济南市,开发区,颗粒物(PM10),106,161,84,42,27,92,,100,82,21,20,10,9,0.5,0.5
2025-03-23T1200,1303A,117.0624,36.6868,济南市,省种子仓库,颗粒物(PM10),113,175,100,39,29,82,,80,64,25,24,10,7,0.7,0.7
2025-03-23T1200,1304A,116.9489,36.6447,济南市,机床二厂,颗粒物(PM10),114,178,117,44,32,78,,71,48,32,33,15,11,0.9,0.8
2025-03-23T1200,1305A,117.0495,36.663,济南市,市监测站,颗粒物(PM10),109,168,95,29,26,83,,88,70,24,23,13,10,0.5,0.5
2025-03-23T1200,1306A,116.7675,36.5484,济南市,长清党校,颗粒物(PM10),105,159,86,44,29,89,,82,69,32,35,12,9,0.9,0.8
2025-03-23T1200,1616A,117.6795,36.229,济南市,技术学院,细颗粒物(PM2.5),117,173,109,88,50,81,,41,41,48,49,28,16,1.3,1
2025-03-23T1200,1961A,117.532,36.6868,济南市,东山小学,颗粒物(PM10),120,190,90,42,24,94,,93,77,13,17,8,8,0.7,0.7
2025-03-23T1200,3059A,117.7161,36.2049,济南市,泰兴公司,细颗粒物(PM2.5),128,193,107,97,50,69,,24,24,61,56,29,12,2.2,0.9
2025-03-23T1200,3064A,117.6867,36.2171,济南市,莱芜战役纪念馆,颗粒物(PM10),122,193,106,90,43,69,,35,35,58,48,27,11,2.0,0.9
2025-03-23T1200,3494A,117.1673,36.9782,济南市,济阳区政府,颗粒物(PM10),113,176,110,44,30,70,,70,57,26,25,,12,0.6,0.4
2025-03-23T1200,3495A,117.1171,36.63,济南市,锦屏中学,颗粒物(PM10),102,154,77,27,22,90,,,,17,17,12,10,0.3,0.3
2025-03-23T1200,3682A,116.9814,36.6819,济南市,济南四建,颗粒物(PM10),113,175,102,44,34,78,,79,63,30,27,13,8,0.4,0.3
2025-03-23T1200,1653A,116.6251,35.4302,济宁市,火炬城,颗粒物(PM10),84,118,92,53,43,62,,42,29,43,30,16,13,0.5,0.3
2025-03-23T1200,1655A,116.5491,35.4042,济宁市,电化厂,颗粒物(PM10),115,179,126,66,50,48,,31,28,56,44,18,16,0.7,0.6
2025-03-23T1200,3500A,116.5814,35.3707,济宁市,北湖一中,颗粒物(PM10),89,128,92,58,36,54,,38,28,54,39,20,16,0.5,0.4
2025-03-23T1200,3501A,116.8249,35.5593,济宁市,服务中心,颗粒物(PM10),107,164,118,52,39,44,,33,27,74,53,15,10,0.9,0.7
2025-03-23T1200,3678A,116.5907,35.4054,济宁市,市第七中学,颗粒物(PM10),91,131,101,48,41,59,,36,27,49,37,13,9,0.5,0.5
2025-03-23T1200,2255A,130.2751,46.8028,佳木斯市,佳纺,,26,22,40,11,13,82,,54,54,6,15,4,5,0.5,0.6
2025-03-23T1200,2256A,130.3995,46.8307,佳木斯市,发电厂,,27,12,15,9,9,85,,67,67,6,7,3,3,0.4,0.5
2025-03-23T1200,2257A,130.3258,46.7975,佳木斯市,环保局,,27,16,20,14,11,86,,64,64,6,18,2,4,0.2,0.3
2025-03-23T1200,2258A,130.3648,46.8032,佳木斯市,十一中,,25,18,18,14,12,80,,57,57,7,14,4,5,0.3,0.3
2025-03-23T1200,2259A,130.3794,46.7588,佳木斯市,四丰,,25,,11,7,8,80,,66,66,1,7,1,1,0.7,0.7
2025-03-23T1200,1252A,120.7436,30.778,嘉兴市,清河小学,,48,48,78,19,43,131,,49,49,20,63,7,7,0.2,0.5
2025-03-23T1200,1253A,120.726,30.7478,嘉兴市,嘉兴学院,颗粒物(PM10),56,61,86,24,47,134,,46,46,26,71,10,10,0.4,0.7
2025-03-23T1200,2872A,120.7846,30.7525,嘉兴市,南湖区残联,颗粒物(PM10),60,69,78,22,41,141,,59,59,19,43,12,10,0.2,0.4
2025-03-23T1200,3407A,120.6916,30.7739,嘉兴市,秀洲住建,,50,,81,28,49,159,,56,56,16,67,8,8,0.3,0.4
2025-03-23T1200,1945A,98.2908,39.7711,嘉峪关市,气象局,颗粒物(PM10),82,114,233,27,44,89,,90,87,12,6,6,3,0.4,0.2
2025-03-23T1200,2884A,98.2672,39.7978,嘉峪关市,酒钢宾馆,颗粒物(PM10),98,146,297,41,45,82,,87,84,14,5,51,6,0.5,0.2
2025-03-23T1200,3248A,98.2643,39.7724,嘉峪关市,雄关区,颗粒物(PM10),66,82,180,23,38,85,,84,80,14,10,3,4,0.7,0.4
2025-03-23T1200,1383A,113.1064,22.6058,江门市,北街,颗粒物(PM10),64,77,67,30,36,159,,88,88,24,33,5,5,0.5,0.6
2025-03-23T1200,1384A,113.0731,22.5835,江门市,西区,臭氧1小时,69,55,75,33,39,175,,75,75,21,45,9,9,0.5,0.6
2025-03-23T1200,1385A,113.0219,22.5311,江门市,圭峰西,颗粒物(PM10),61,71,61,32,34,155,,107,107,19,30,9,8,0.4,0.5
2025-03-23T1200,1386A,113.0828,22.5947,江门市,东湖,臭氧1小时,74,54,63,45,41,179,,78,78,17,36,10,9,0.4,0.5
2025-03-23T1200,3311A,113.1075,22.5647,江门市,江海富民,颗粒物(PM10),70,90,86,39,43,154,,82,82,26,34,9,9,0.5,0.6
2025-03-23T1200,3449A,113.05,22.4667,江门市,新会银湖,颗粒物(PM10),65,79,63,46,38,164,,64,64,28,38,6,4,0.5,0.5
2025-03-23T1200,1830A,113.1992,35.2590,焦作市,影视城,,,,75,,18,,,,,,11,,14,,0.5
2025-03-23T1200,3169A,113.2725,35.2067,焦作市,太极体育中心,颗粒物(PM10),103,156,99,50,33,77,,72,72,24,23,10,11,0.4,0.5
2025-03-23T1200,3335A,113.3137,35.2641,焦作市,马村街道办,颗粒物(PM10),110,169,103,46,38,97,,80,80,14,19,9,11,0.4,0.6
2025-03-23T1200,3336A,113.2465,35.2373,焦作市,焦作技师学院,颗粒物(PM10),120,190,106,39,32,97,,80,80,17,23,6,9,0.4,0.5
2025-03-23T1200,3477A,113.1656,35.2539,焦作市,中站许衡医院,颗粒物(PM10),115,180,99,31,31,110,,97,97,8,20,8,13,0.4,0.7
2025-03-23T1200,3981A,113.2449,35.1803,焦作市,原李万街道办,颗粒物(PM10),98,145,97,36,25,74,,62,60,27,28,15,13,0.4,0.6
2025-03-23T1200,4264A,113.2340,35.2190,焦作市,新安路1731号,颗粒物(PM10),123,195,106,48,36,82,,76,76,15,21,8,11,0.5,0.6
2025-03-23T1200,1708A,116.3701,23.5345,揭阳市,新兴,颗粒物(PM10),68,85,69,38,43,156,,72,72,24,40,10,13,0.6,0.8
2025-03-23T1200,1709A,116.3264,23.5443,揭阳市,西马,细颗粒物(PM2.5),67,79,69,48,41,159,,75,75,25,31,15,13,0.8,0.8
2025-03-23T1200,1710A,116.3611,23.5626,揭阳市,东兴,颗粒物(PM10),70,89,76,41,39,158,,64,64,13,36,9,12,0.8,0.8
2025-03-23T1200,1711A,116.4151,23.5294,揭阳市,渔湖,细颗粒物(PM2.5),67,63,66,48,44,153,,54,54,14,43,8,12,0.5,0.7
2025-03-23T1200,3320A,116.403,23.5699,揭阳市,曲溪,细颗粒物(PM2.5),74,86,71,54,39,167,,71,71,30,42,9,13,0.6,0.7
2025-03-23T1200,1944A,102.1692,38.5167,金昌市,天庆家园,颗粒物(PM10),134,217,98,60,29,92,,93,90,4,6,11,12,0.7,0.7
2025-03-23T1200,4022A,102.1647,38.5371,金昌市,金川区人防中心,颗粒物(PM10),187,323,154,73,29,92,,94,90,6,14,11,11,0.6,0.5
2025-03-23T1200,4239A,102.1930,38.5319,金昌市,长春路96号,颗粒物(PM10),196,341,150,64,31,92,,92,90,4,8,12,14,0.6,0.6
2025-03-23T1200,1262A,119.647,29.077,金华市,十五中,颗粒物(PM10),51,51,50,26,27,134,,78,78,23,35,10,7,0.4,0.4
2025-03-23T1200,1263A,119.686,29.1029,金华市,监测站,,50,50,51,25,26,134,,76,76,18,29,9,7,0.2,0.3
2025-03-23T1200,3659A,119.656,29.1131,金华市,气象局,,43,43,43,28,29,132,,54,54,26,43,12,8,0.4,0.5
2025-03-23T1200,1767A,121.1115,41.0879,锦州市,南山,细颗粒物(PM2.5),296,,88,246,74,163,,64,64,47,49,20,31,1.4,1.1
2025-03-23T1200,1768A,121.0604,40.8428,锦州市,开发区,细颗粒物(PM2.5),165,210,102,125,82,124,,60,60,41,46,24,21,1.1,1
2025-03-23T1200,1769A,121.1836,41.1119,锦州市,百股街道,细颗粒物(PM2.5),309,311,108,259,76,169,,62,62,52,55,16,65,1.4,1.1
2025-03-23T1200,1770A,121.1178,41.1222,锦州市,天安街道,细颗粒物(PM2.5),310,,100,260,84,166,,66,66,42,49,21,31,1.5,1.2
2025-03-23T1200,1771A,121.1303,41.1386,锦州市,北湖公园,细颗粒物(PM2.5),300,,94,250,79,168,,65,65,44,47,22,23,1.4,1
2025-03-23T1200,2160A,112.85,35.5051,晋城市,自来水公司,颗粒物(PM10),116,182,88,41,23,98,,84,84,17,21,9,9,0.4,0.6
2025-03-23T1200,2161A,112.8318,35.4936,晋城市,白云商贸,颗粒物(PM10),127,204,94,51,20,100,,80,80,18,22,7,7,0.4,0.5
2025-03-23T1200,2162A,112.8508,35.4887,晋城市,市环保局,颗粒物(PM10),120,189,95,44,24,100,,84,84,14,19,6,6,0.3,0.5
2025-03-23T1200,2163A,112.8676,35.4897,晋城市,技术学院,颗粒物(PM10),126,201,86,44,21,90,,77,77,12,16,7,8,0.5,0.6
2025-03-23T1200,2165A,112.8453,35.546,晋城市,白马寺,,,,,,,,,,,,,,,,
2025-03-23T1200,3620A,112.8271,35.4828,晋城市,泽州一中,,,,59,56,26,100,,88,88,14,16,11,10,0.4,0.5
2025-03-23T1200,2173A,112.7249,37.7067,晋中市,南都小区,颗粒物(PM10),148,246,139,53,40,101,,35,35,12,40,10,20,0.5,0.7
2025-03-23T1200,2174A,112.6991,37.6982,晋中市,榆次区政府,颗粒物(PM10),162,273,152,53,39,104,,36,36,14,39,10,19,0.5,0.7
2025-03-23T1200,2865A,112.7195,37.6828,晋中市,榆次三中,颗粒物(PM10),173,295,146,66,37,102,,36,36,13,42,8,16,0.4,0.6
2025-03-23T1200,4200A,112.7478,37.6954,晋中市,迎宾街26号,颗粒物(PM10),169,288,144,68,39,107,,38,38,10,37,10,17,0.4,0.5
2025-03-23T1200,2439A,112.2014,31.0481,荆门市,竹园小学,细颗粒物(PM2.5),115,120,86,87,55,47,,57,33,31,26,10,9,0.6,0.5
2025-03-23T1200,2440A,112.1969,30.9891,荆门市,掇刀,细颗粒物(PM2.5),97,139,86,72,52,50,,59,42,36,27,13,10,0.4,0.4
2025-03-23T1200,2441A,112.2213,31.0386,荆门市,石化一小,细颗粒物(PM2.5),107,136,87,80,55,44,,45,32,38,32,16,13,0.5,0.5
2025-03-23T1200,3012A,112.1849,31.0362,荆门市,西山林语,细颗粒物(PM2.5),87,102,70,64,42,46,,72,47,34,18,8,8,0.3,0.3
2025-03-23T1200,3547A,112.1632,31.0138,荆门市,龙泉中学南校,细颗粒物(PM2.5),89,103,81,66,49,54,,66,41,30,20,13,10,0.5,0.4
2025-03-23T1200,1844A,112.2494,30.3197,荆州市,市图书馆,细颗粒物(PM2.5),59,,56,42,47,64,,51,49,25,28,5,8,0.6,0.5
2025-03-23T1200,1845A,112.2008,30.3544,荆州市,市委党校,细颗粒物(PM2.5),57,57,63,40,47,69,,53,53,20,27,7,9,0.5,0.5
2025-03-23T1200,3194A,112.2747,30.3122,荆州市,管委会,细颗粒物(PM2.5),57,55,62,40,45,74,,60,60,17,22,6,9,0.5,0.4
2025-03-23T1200,4268A,112.1722,30.3366,荆州市,学苑路85号,细颗粒物(PM2.5),54,,49,38,46,63,,48,48,19,30,6,8,0.6,0.6
2025-03-23T1200,2342A,117.3102,29.3867,景德镇市,王港中学,,,,,,,,,,,,,,,,
2025-03-23T1200,2343A,117.2117,29.2933,景德镇市,老干部活动中心,颗粒物(PM10),57,64,58,33,32,63,,42,42,27,32,8,9,0.4,0.4
2025-03-23T1200,2344A,117.1894,29.2789,景德镇市,兽医站,颗粒物(PM10),57,64,62,22,28,62,,38,38,37,34,5,8,0.7,0.6
2025-03-23T1200,2345A,117.1547,29.2617,景德镇市,台达陶瓷,颗粒物(PM10),60,69,77,29,33,75,,46,46,30,41,15,25,0.8,0.7
2025-03-23T1200,2346A,117.2461,29.2956,景德镇市,陶研所,细颗粒物(PM2.5),60,65,50,43,34,60,,38,38,32,28,4,4,0.8,0.8
2025-03-23T1200,1803A,115.9872,29.6815,九江市,十里,颗粒物(PM10),58,66,58,39,36,76,,36,36,39,46,6,3,0.7,0.7
2025-03-23T1200,1804A,115.9584,29.7046,九江市,茅山头,颗粒物(PM10),63,76,70,26,33,82,,49,49,34,44,13,8,0.5,0.5
2025-03-23T1200,1805A,115.9877,29.7295,九江市,西园,颗粒物(PM10),67,83,62,44,35,73,,29,29,52,62,16,10,0.7,0.7
2025-03-23T1200,1808A,115.9114,29.6038,九江市,综合工业园,颗粒物(PM10),60,69,64,35,34,103,,73,73,31,45,14,11,0.7,0.7
2025-03-23T1200,1809A,116.0721,29.7535,九江市,石化总厂,颗粒物(PM10),63,75,50,28,38,67,,64,57,32,30,18,15,0.6,0.6
2025-03-23T1200,1810A,115.9773,29.5698,九江市,庐山气象台,,44,38,41,26,26,139,,136,134,5,6,9,7,0.9,0.7
2025-03-23T1200,3190A,116.0254,29.6994,九江市,外国语学校,颗粒物(PM10),65,80,58,41,32,43,,57,48,64,41,14,9,0.8,0.6
2025-03-23T1200,4253A,116.0102,29.6594,九江市,莲花大道8号,颗粒物(PM10),66,82,49,35,27,53,,77,47,59,19,20,13,0.7,0.5
2025-03-23T1200,4240A,98.4958,39.7339,酒泉市,玉门东路5号,颗粒物(PM10),112,173,266,41,44,83,,73,63,12,9,28,10,0.6,0.3
2025-03-23T1200,4241A,98.5099,39.7506,酒泉市,北大街108号,颗粒物(PM10),102,153,284,28,50,83,,62,59,16,14,28,13,0.9,0.5
2025-03-23T1200,2698A,76.0072,39.4467,喀什地区,巡警大队,颗粒物(PM10),129,207,199,50,58,46,,35,35,52,52,8,8,1.1,1.1
2025-03-23T1200,2699A,75.9755,39.4694,喀什地区,吾办,颗粒物(PM10),110,170,166,54,62,53,,46,46,40,45,,3,0.9,0.9
2025-03-23T1200,4027A,75.9483,39.4689,喀什地区,老干局,颗粒物(PM10),101,151,165,34,49,50,,50,50,41,48,4,5,0.7,0.9
2025-03-23T1200,1824A,114.3389,34.7781,开封市,肿瘤医院,颗粒物(PM10),110,170,100,35,30,98,,82,82,15,27,10,9,0.6,0.6
2025-03-23T1200,1826A,114.2885,34.7965,开封市,世纪星幼儿园,颗粒物(PM10),103,156,94,36,30,104,,93,93,23,31,8,7,0.6,0.6
2025-03-23T1200,3147A,114.3438,34.8106,开封市,龙亭公园,颗粒物(PM10),110,169,96,38,30,97,,88,88,23,28,7,6,1.0,1
2025-03-23T1200,3210A,114.3644,34.7964,开封市,汴京公园,颗粒物(PM10),105,160,102,40,32,102,,91,91,24,32,9,8,0.6,0.6
2025-03-23T1200,3473A,114.2485,34.8306,开封市,技师学院,颗粒物(PM10),99,147,91,35,32,88,,73,73,26,30,14,12,0.7,0.6
2025-03-23T1200,3592A,114.4644,34.7556,开封市,祥符区生态环境局,颗粒物(PM10),113,175,119,42,41,99,,54,54,18,43,8,8,0.7,0.7
2025-03-23T1200,1951A,84.895,45.6094,克拉玛依市,长征新村,,36,,50,25,14,48,,77,65,21,23,8,7,0.3,0.3
2025-03-23T1200,1952A,84.8988,45.5893,克拉玛依市,南林小区,,19,15,52,13,16,50,,79,66,12,13,3,3,0.2,0.3
2025-03-23T1200,1954A,84.905,44.3396,克拉玛依市,独山子区,颗粒物(PM10),65,79,90,39,54,51,,62,46,22,17,8,12,0.6,0.7
2025-03-23T1200,1955A,85.6979,46.098,克拉玛依市,乌尔禾区商贸楼,细颗粒物(PM2.5),55,,40,39,13,46,,59,53,16,13,7,6,0.4,0.4
2025-03-23T1200,3612A,85.1045,45.6899,克拉玛依市,白碱滩区新站,,16,10,49,3,12,51,,73,62,12,18,10,9,0.5,0.3
2025-03-23T1200,2697A,76.1454,39.7142,克孜勒苏柯尔克孜自治州,市人民政府,颗粒物(PM10),89,127,144,38,45,88,,95,92,9,13,4,5,0.5,0.5
2025-03-23T1200,3665A,76.1658,39.7157,克孜勒苏柯尔克孜自治州,克州文化中心,颗粒物(PM10),92,134,162,36,46,91,,92,91,9,13,5,5,0.4,0.5
2025-03-23T1200,1450A,102.8204,24.8886,昆明市,呈贡新区,细颗粒物(PM2.5),59,57,55,42,46,121,,99,99,14,14,6,6,0.6,0.6
2025-03-23T1200,1451A,102.6251,24.9608,昆明市,西山森林公园,,,,,,,,,,,,,,,,
2025-03-23T1200,1452A,102.7252,25.0902,昆明市,龙泉镇,细颗粒物(PM2.5),67,,54,48,42,122,,55,51,16,27,9,8,0.7,0.7
2025-03-23T1200,1453A,102.7266,25.0375,昆明市,东风东路,细颗粒物(PM2.5),62,64,60,44,47,114,,65,60,20,25,9,8,0.7,0.6
2025-03-23T1200,1454A,102.6742,25.0669,昆明市,金鼎山,细颗粒物(PM2.5),60,63,61,43,44,117,,56,56,18,30,4,5,0.6,0.6
2025-03-23T1200,1455A,102.6644,25.0401,昆明市,碧鸡广场,细颗粒物(PM2.5),64,59,58,46,46,119,,72,72,18,30,8,8,0.6,0.5
2025-03-23T1200,3179A,102.7494,25.0119,昆明市,官渡区博物馆,细颗粒物(PM2.5),57,51,61,40,45,121,,62,62,14,22,8,8,0.5,0.6
2025-03-23T1200,3375A,102.8017,24.8336,昆明市,青年创业园,细颗粒物(PM2.5),62,51,56,44,45,130,,92,92,8,13,9,8,0.6,0.6
2025-03-23T1200,3550A,102.7997,24.9786,昆明市,昆明学院,细颗粒物(PM2.5),64,60,64,46,48,125,,80,80,13,17,6,6,0.6,0.6
2025-03-23T1200,3551A,102.5967,24.6736,昆明市,晋宁区生态环境分局,细颗粒物(PM2.5),55,48,52,39,48,122,,87,87,8,13,7,10,0.6,0.7
2025-03-23T1200,3552A,102.6678,24.9856,昆明市,云天化总部,细颗粒物(PM2.5),62,57,52,44,40,131,,71,60,15,20,8,8,0.5,0.4
2025-03-23T1200,1456A,91.1319,29.6514,拉萨市,八廓街,,33,18,17,9,8,104,,98,93,10,9,6,5,0.4,0.4
2025-03-23T1200,1457A,91.1221,29.6747,拉萨市,市环保局,,31,16,19,6,9,97,,92,88,15,12,8,6,0.4,0.5
2025-03-23T1200,1458A,91.0874,29.6475,拉萨市,区监测站,,29,16,15,7,7,92,,92,88,14,10,5,5,0.4,0.3
2025-03-23T1200,1459A,91.1774,29.6541,拉萨市,西藏大学,,31,15,18,6,7,97,,88,86,10,10,4,5,0.4,0.5
2025-03-23T1200,1460A,90.9798,29.6588,拉萨市,区辐射站,,31,20,20,10,8,99,,87,78,13,15,7,7,0.4,0.4
2025-03-23T1200,1461A,91.0834,29.6292,拉萨市,拉萨火车站,,32,14,16,6,7,100,,92,91,11,8,3,3,0.3,0.3
2025-03-23T1200,2520A,109.2203,23.7256,来宾市,来宾技工学校,颗粒物(PM10),53,55,85,31,54,148,,79,79,14,28,15,14,0.7,0.7
2025-03-23T1200,3535A,109.1781,23.7297,来宾市,兴宾区政府,,,62,81,41,53,,,80,72,10,19,10,10,0.7,0.8
2025-03-23T1200,4002A,109.2416,23.7461,来宾市,中南小学,细颗粒物(PM2.5),62,65,90,44,53,142,,72,72,11,34,17,13,0.7,0.8
2025-03-23T1200,1477A,104.1373,35.9454,兰州市,榆中兰大校区,,,,,,,,,,,,,,,,
2025-03-23T1200,1479A,103.831,36.0464,兰州市,铁路设计院,颗粒物(PM10),71,92,82,14,29,94,,82,82,22,50,6,12,0.5,0.7
2025-03-23T1200,3241A,103.7439,36.0842,兰州市,百合公园,颗粒物(PM10),67,83,87,12,31,95,,37,37,6,45,4,13,0.6,0.7
2025-03-23T1200,3242A,103.9611,35.998,兰州市,和平,颗粒物(PM10),109,167,112,33,37,100,,100,99,6,17,7,12,0.3,0.3
2025-03-23T1200,4236A,103.6293,36.0938,兰州市,庄浪东路808号,颗粒物(PM10),71,92,95,27,40,99,,95,94,11,25,9,16,0.3,0.5
2025-03-23T1200,4237A,103.7251,36.1043,兰州市,安宁西路88号,颗粒物(PM10),76,102,100,35,48,108,,78,78,5,38,6,15,0.3,0.5
2025-03-23T1200,4238A,103.8470,36.0676,兰州市,北滨河东路1号,颗粒物(PM10),69,88,90,19,41,104,,38,38,14,56,9,18,0.5,1
2025-03-23T1200,3245A,103.6633,36.533,兰州新区,新区管委会,,47,47,80,19,31,98,,75,75,6,14,9,11,0.4,0.4
2025-03-23T1200,3246A,103.6975,36.4789,兰州新区,舟曲中学,颗粒物(PM10),72,93,108,21,32,100,,91,91,2,9,9,10,0.4,0.5
2025-03-23T1200,1067A,116.6708,39.5111,廊坊市,药材公司,颗粒物(PM10),87,124,83,38,24,90,,62,62,21,25,4,3,0.3,0.3
2025-03-23T1200,1068A,116.7214,39.5589,廊坊市,开发区,颗粒物(PM10),108,166,93,44,27,92,,76,76,24,28,4,3,0.3,0.3
2025-03-23T1200,1070A,116.7244,39.5269,廊坊市,北华航天学院,颗粒物(PM10),95,139,82,30,21,89,,74,74,23,23,5,5,0.3,0.3
2025-03-23T1200,2919A,116.7022,39.5453,廊坊市,河北工业大学,颗粒物(PM10),96,141,80,38,24,92,,75,74,19,18,7,6,0.3,0.3
2025-03-23T1200,2535A,103.7723,29.5462,乐山市,花湖湾,细颗粒物(PM2.5),84,84,76,62,56,26,,14,14,39,38,10,8,0.9,0.7
2025-03-23T1200,2536A,103.7627,29.5844,乐山市,牛耳桥,细颗粒物(PM2.5),78,86,78,57,55,24,,6,6,35,41,9,7,1.0,1
2025-03-23T1200,2537A,103.7508,29.6006,乐山市,市第三水厂,细颗粒物(PM2.5),64,64,70,46,48,22,,8,8,32,38,6,5,0.8,0.7
2025-03-23T1200,2538A,103.7571,29.5664,乐山市,市监测站,细颗粒物(PM2.5),90,84,68,67,54,24,,9,9,34,42,9,7,1.0,0.9
2025-03-23T1200,3361A,103.7311,29.5628,乐山市,理工大学,细颗粒物(PM2.5),67,71,71,48,47,28,,11,11,33,44,8,6,0.8,0.9
2025-03-23T1200,2598A,100.2143,26.8576,丽江市,西南郊,,,,,,,,,,,,,,,,
2025-03-23T1200,2599A,100.2497,26.8802,丽江市,丽江古城,,32,25,24,14,16,101,,76,73,9,13,8,8,0.5,0.7
2025-03-23T1200,2600A,100.2203,26.8906,丽江市,市中心,,36,36,12,12,10,99,,85,83,14,14,8,8,0.6,0.6
2025-03-23T1200,1267A,119.914,28.4514,丽水市,监测站大楼,,49,49,45,24,28,118,,53,53,19,32,6,4,0.5,0.5
2025-03-23T1200,1268A,119.93,28.4586,丽水市,莲都小学,,49,49,48,24,23,102,,48,48,28,36,5,4,0.5,0.4
2025-03-23T1200,1269A,119.879,28.4231,丽水市,余庄前,,44,44,40,26,26,125,,50,50,20,20,7,5,0.4,0.3
2025-03-23T1200,1173A,119.176,34.5885,连云港市,市环境监测站,颗粒物(PM10),82,114,92,51,40,92,,61,61,25,26,17,19,0.6,0.6
2025-03-23T1200,3000A,119.3581,34.6972,连云港市,德源药业,颗粒物(PM10),82,114,93,39,38,106,,53,52,27,32,14,15,0.5,0.4
2025-03-23T1200,3007A,119.178,34.844,连云港市,新城一中,细颗粒物(PM2.5),107,121,94,80,55,89,,50,50,34,39,27,25,1.0,0.9
2025-03-23T1200,3008A,119.3608,34.7519,连云港市,胡沟管理处,颗粒物(PM10),71,92,71,46,32,94,,82,82,33,38,14,18,0.7,0.6
2025-03-23T1200,3009A,119.1478,34.5911,连云港市,矿山设计院,颗粒物(PM10),91,132,100,51,38,87,,66,66,34,32,17,22,0.6,0.6
2025-03-23T1200,3434A,119.2413,34.6539,连云港市,工贸学校,细颗粒物(PM2.5),94,133,88,70,45,90,,85,83,31,25,15,15,0.8,0.7
2025-03-23T1200,3664A,119.4172,34.7341,连云港市,连云街道,颗粒物(PM10),89,128,85,46,32,112,,115,82,25,28,10,11,0.8,0.7
2025-03-23T1200,2571A,102.3431,27.8099,凉山彝族自治州,青龙寺,,33,33,41,10,14,89,,49,49,6,14,7,6,0.6,0.8
2025-03-23T1200,2572A,102.2721,27.8415,凉山彝族自治州,邛海宾馆,,44,44,42,25,25,74,,61,52,17,18,3,6,0.6,0.6
2025-03-23T1200,2573A,102.2625,27.898,凉山彝族自治州,西昌市政府,,40,40,52,25,34,75,,40,40,13,19,10,9,0.6,0.7
2025-03-23T1200,2574A,102.2685,27.8851,凉山彝族自治州,凉山州政府,,32,32,48,18,32,82,,48,48,13,22,7,7,0.3,0.5
2025-03-23T1200,4229A,102.2342,27.8859,凉山彝族自治州,凯乐南路30号,,33,33,44,15,22,80,,51,48,10,22,8,9,0.4,0.5
2025-03-23T1200,2212A,123.2,41.1953,辽阳市,宏伟区,细颗粒物(PM2.5),68,72,92,49,63,151,,89,89,12,26,14,18,0.8,1
2025-03-23T1200,2213A,123.1683,41.2495,辽阳市,新华园,细颗粒物(PM2.5),165,251,136,125,82,108,,48,48,81,56,53,32,2.6,1.4
2025-03-23T1200,2214A,123.2354,41.2639,辽阳市,滨河路,细颗粒物(PM2.5),93,91,98,69,76,144,,70,70,23,41,18,17,1.0,1
2025-03-23T1200,2215A,123.149,41.2991,辽阳市,铁西工业园,细颗粒物(PM2.5),163,222,171,124,106,128,,39,39,71,60,53,24,2.8,1.8
2025-03-23T1200,2227A,125.1358,42.8845,辽源市,环保局,,,,268,,234,,,162,,,47,,12,,1.4
2025-03-23T1200,3239A,125.0764,42.9078,辽源市,银鹰制药,细颗粒物(PM2.5),74,71,199,54,176,140,,68,68,28,42,15,12,0.8,1.2
2025-03-23T1200,1625A,115.9848,36.4372,聊城市,区政府,颗粒物(PM10),97,144,100,38,34,90,,42,42,23,33,15,12,0.7,0.6
2025-03-23T1200,2878A,116.0072,36.4343,聊城市,聊大东校,颗粒物(PM10),108,166,112,35,38,89,,38,38,21,34,15,12,0.9,0.8
2025-03-23T1200,3200A,115.9819,36.4978,聊城市,监控中心,颗粒物(PM10),111,171,109,36,34,83,,44,44,23,31,20,17,0.9,0.7
2025-03-23T1200,3513A,116.0445,36.4361,聊城市,九州社区,颗粒物(PM10),100,149,103,33,33,91,,43,40,26,34,18,14,0.7,0.6
2025-03-23T1200,4018A,116.0567,36.4608,聊城市,星美广场,颗粒物(PM10),95,140,103,29,29,88,,48,46,29,32,16,13,0.8,0.6
2025-03-23T1200,2632A,94.3681,29.6376,林芝市,林芝监测站,,31,6,9,3,6,99,,98,92,7,6,5,5,0.2,0.3
2025-03-23T1200,2633A,94.3616,29.6616,林芝市,林芝人民医院,,31,18,13,7,4,99,,96,90,4,4,7,7,0.1,0.2
2025-03-23T1200,2603A,100.0781,23.8982,临沧市,市环保局,颗粒物(PM10),55,60,60,37,50,82,,26,26,15,17,8,9,0.9,0.9
2025-03-23T1200,2604A,100.0894,23.8822,临沧市,市气象局,,,63,60,54,56,66,,25,25,28,18,8,8,,0.6
2025-03-23T1200,1733A,111.5531,36.0783,临汾市,临钢医院,颗粒物(PM10),131,211,119,41,33,97,,45,45,9,22,10,9,0.7,0.6
2025-03-23T1200,1734A,111.5028,36.0714,临汾市,技工学校,颗粒物(PM10),97,144,102,40,37,101,,40,40,13,29,12,11,0.7,0.6
2025-03-23T1200,1736A,111.5018,36.0855,临汾市,市委,颗粒物(PM10),113,175,113,45,33,100,,42,42,15,29,9,8,0.6,0.5
2025-03-23T1200,3018A,111.505,36.1014,临汾市,唐尧大酒店,颗粒物(PM10),121,192,115,46,29,95,,33,33,16,30,11,9,0.7,0.5
2025-03-23T1200,4244A,111.4879,36.0530,临汾市,启星学校,颗粒物(PM10),120,189,114,34,40,97,,42,42,11,28,9,9,0.7,0.7
2025-03-23T1200,4271A,103.2464,35.6123,临夏回族自治州,滨河东路1号,颗粒物(PM10),52,54,106,20,34,102,,34,34,5,27,3,6,0.3,0.6
2025-03-23T1200,4310A,103.2093,35.5995,临夏回族自治州,新华街21号,颗粒物(PM10),78,105,109,38,49,103,,52,52,4,24,8,11,0.2,0.6
2025-03-23T1200,1618A,118.3429,35.0532,临沂市,沂河小区,颗粒物(PM10),101,151,111,73,52,80,,48,48,40,35,17,16,0.9,0.7
2025-03-23T1200,1619A,118.295,35.0583,临沂市,鲁南制药厂,颗粒物(PM10),107,163,120,76,51,82,,43,43,49,52,20,20,0.8,0.6
2025-03-23T1200,1620A,118.2794,34.9976,临沂市,新光毛纺厂,颗粒物(PM10),104,158,114,70,49,78,,42,42,51,55,28,21,1.0,0.8
2025-03-23T1200,1621A,118.3956,35.0888,临沂市,河东保险公司,颗粒物(PM10),97,144,102,69,45,88,,41,40,54,46,13,12,0.6,0.5
2025-03-23T1200,3370A,118.3564,35.0215,临沂市,十里堡居委,颗粒物(PM10),93,136,112,58,45,80,,41,41,43,42,24,20,1.0,0.8
2025-03-23T1200,3496A,118.3604,35.1084,临沂市,南坊新区,颗粒物(PM10),103,156,107,66,42,85,,51,51,45,38,14,12,0.9,0.7
2025-03-23T1200,3860A,118.3920,35.0300,临沂市,皇山花园小区,颗粒物(PM10),101,151,110,67,46,79,,47,47,45,38,22,17,0.8,0.5
2025-03-23T1200,1870A,109.4856,24.3895,柳州市,柳东小学,细颗粒物(PM2.5),97,79,88,72,65,142,,76,76,23,36,19,25,0.6,0.6
2025-03-23T1200,1871A,109.4157,24.3277,柳州市,环保监测站,细颗粒物(PM2.5),102,,100,76,70,146,,64,64,15,37,13,13,0.7,0.9
2025-03-23T1200,1872A,109.389,24.341,柳州市,河西水厂,颗粒物(PM10),71,92,133,44,75,147,,48,48,17,57,10,12,0.7,1
2025-03-23T1200,1873A,109.4311,24.2921,柳州市,市四中,细颗粒物(PM2.5),70,78,110,51,69,154,,65,65,20,56,14,12,0.7,1
2025-03-23T1200,1874A,109.4006,24.3631,柳州市,市九中,细颗粒物(PM2.5),92,69,103,68,63,149,,68,68,18,35,12,13,0.8,1
2025-03-23T1200,1875A,109.4958,24.3134,柳州市,古亭山,细颗粒物(PM2.5),84,76,76,62,54,152,,56,56,22,51,14,16,0.7,0.6
2025-03-23T1200,3402A,109.5422,24.3996,柳州市,市二中,细颗粒物(PM2.5),70,81,96,51,64,162,,72,72,19,51,18,34,0.4,0.4
2025-03-23T1200,2307A,116.5079,31.737,六安市,监测大楼,颗粒物(PM10),53,55,60,35,36,116,,100,99,28,29,8,7,0.7,0.7
2025-03-23T1200,2308A,116.4738,31.7643,六安市,皖西学院,颗粒物(PM10),59,68,68,32,34,115,,85,85,15,26,6,6,0.5,0.6
2025-03-23T1200,2309A,116.4996,31.7905,六安市,朝阳厂,颗粒物(PM10),52,54,61,32,34,110,,101,101,21,25,6,5,0.6,0.6
2025-03-23T1200,2310A,116.5567,31.7886,六安市,开发区,颗粒物(PM10),60,70,79,33,36,125,,67,67,18,37,7,5,0.6,0.6
2025-03-23T1200,2576A,104.8,26.5892,六盘水市,窑上,细颗粒物(PM2.5),53,51,68,37,47,98,,91,91,10,10,19,9,0.5,0.6
2025-03-23T1200,2577A,104.83,26.5917,六盘水市,黄土坡,,45,45,64,20,42,101,,95,95,13,16,17,15,0.5,0.6
2025-03-23T1200,2578A,104.89,26.5939,六盘水市,水钢,颗粒物(PM10),54,58,73,27,43,91,,89,89,22,18,12,14,0.8,0.6
2025-03-23T1200,2579A,104.8475,26.5894,六盘水市,民中,,49,49,59,27,41,90,,85,85,19,17,13,13,0.4,0.6
2025-03-23T1200,2580A,104.9544,26.5506,六盘水市,双水,,46,46,67,26,40,106,,94,94,14,18,10,13,0.5,0.6
2025-03-23T1200,2335A,117.0189,25.1181,龙岩市,龙岩师专,,,,,,,,,,,,,,,,
2025-03-23T1200,2336A,117.0217,25.1033,龙岩市,龙岩市监测站,,,,46,,27,,,110,,,28,,11,,0.5
2025-03-23T1200,2337A,117.0258,25.0661,龙岩市,闽西职业技术学院,颗粒物(PM10),57,64,68,34,33,132,,73,73,22,28,10,33,0.5,0.5
2025-03-23T1200,2338A,117.0196,25.0306,龙岩市,龙岩学院,颗粒物(PM10),53,55,62,34,49,137,,34,34,18,22,10,3,0.8,0.8
2025-03-23T1200,2665A,105.0822,33.3261,陇南市,汉王镇固水子,,,,,,,,,,,,,,,,
2025-03-23T1200,2885A,104.9339,33.3826,陇南市,滨江中学,颗粒物(PM10),65,79,59,15,25,95,,75,75,3,14,5,7,0.4,0.5
2025-03-23T1200,3247A,104.955,33.371,陇南市,市总工会,颗粒物(PM10),55,59,50,24,22,102,,75,75,2,10,6,7,0.2,0.3
2025-03-23T1200,2487A,111.9589,27.8901,娄底市,电视发射台,,,,47,,30,,,112,,,6,,8,,0.9
2025-03-23T1200,2488A,111.9975,27.725,娄底市,市监测站,细颗粒物(PM2.5),117,151,93,88,57,24,,20,12,64,37,53,21,3.4,1.2
2025-03-23T1200,2489A,112.0194,27.7314,娄底市,市委党校,细颗粒物(PM2.5),102,126,93,76,61,24,,24,20,65,40,16,4,2.1,0.9
2025-03-23T1200,2490A,111.9561,27.7569,娄底市,涟钢,细颗粒物(PM2.5),102,140,94,76,58,57,,42,36,27,22,19,12,1.5,0.9
2025-03-23T1200,2491A,111.9892,27.7044,娄底市,市政府,细颗粒物(PM2.5),95,114,87,71,55,33,,29,25,37,27,8,8,0.8,0.6
2025-03-23T1200,1893A,105.4324,28.9634,泸州市,九狮山,,,,,,,,,,,,,,,,
2025-03-23T1200,1894A,105.4427,28.9063,泸州市,小市上码头,细颗粒物(PM2.5),94,96,106,70,79,57,,12,12,38,59,12,10,0.7,0.8
2025-03-23T1200,1895A,105.4241,28.8573,泸州市,兰田宪桥,细颗粒物(PM2.5),93,108,110,69,80,45,,11,11,31,46,11,8,0.7,0.7
2025-03-23T1200,1896A,105.4379,28.8833,泸州市,市环监站,,,,,,,,,,,,,,,,
2025-03-23T1200,4272A,105.3689,28.7783,泸州市,纳溪中医医院,细颗粒物(PM2.5),105,109,100,79,67,22,,12,12,49,42,9,8,0.8,0.8
2025-03-23T1200,2183A,111.1406,37.5211,吕梁市,环保局,颗粒物(PM10),156,262,140,66,40,81,,32,32,20,41,3,2,0.3,0.3
2025-03-23T1200,2185A,111.1297,37.5136,吕梁市,自来水公司,颗粒物(PM10),152,253,170,57,39,78,,23,23,22,36,2,5,0.4,0.5
2025-03-23T1200,2867A,111.1283,37.51,吕梁市,马茂庄小学,颗粒物(PM10),171,291,152,73,36,83,,27,27,21,44,3,5,0.3,0.4
2025-03-23T1200,1812A,112.3931,34.6516,洛阳市,市委党校,颗粒物(PM10),80,110,77,33,30,93,,68,68,16,21,6,6,0.4,0.5
2025-03-23T1200,1815A,112.494,34.6886,洛阳市,河南林校,颗粒物(PM10),87,124,99,34,43,100,,70,70,17,27,7,7,0.6,0.8
2025-03-23T1200,1816A,112.3844,34.623,洛阳市,开发区管委会,颗粒物(PM10),83,116,86,37,36,95,,58,58,12,21,8,7,0.3,0.3
2025-03-23T1200,1817A,112.4267,34.6258,洛阳市,市委新办公区,颗粒物(PM10),79,108,83,42,37,102,,70,70,16,19,6,7,0.8,0.8
2025-03-23T1200,3340A,112.6005,34.6326,洛阳市,伊滨,颗粒物(PM10),80,109,80,39,37,102,,81,81,17,17,7,7,0.5,0.5
2025-03-23T1200,3341A,112.4951,34.6332,洛阳市,中移产业园,颗粒物(PM10),87,124,90,51,46,94,,71,71,18,19,7,9,0.5,0.5
2025-03-23T1200,3593A,112.5736,34.8993,洛阳市,吉利监测站,颗粒物(PM10),94,137,87,40,33,108,,96,93,12,16,9,8,0.5,0.4
2025-03-23T1200,3635A,112.3677,34.662,洛阳市,河科大西苑校区,颗粒物(PM10),90,129,89,34,30,98,,80,80,14,22,9,10,0.6,0.6
2025-03-23T1200,3636A,112.4388,34.6781,洛阳市,英才小学,颗粒物(PM10),82,113,86,45,38,96,,72,72,18,28,12,14,0.4,0.5
2025-03-23T1200,4214A,112.4600,34.6949,洛阳市,春都路1号院,颗粒物(PM10),97,143,114,33,35,101,,70,70,20,31,10,14,0.5,0.6
2025-03-23T1200,2399A,114.051,33.5699,漯河市,三五一五工厂,颗粒物(PM10),78,105,81,34,35,110,,79,79,12,17,7,7,0.5,0.5
2025-03-23T1200,2400A,114.0055,33.5698,漯河市,漯河大学,颗粒物(PM10),70,89,79,29,29,106,,71,71,14,24,7,8,0.4,0.4
2025-03-23T1200,2401A,114.0138,33.5828,漯河市,市水利局,颗粒物(PM10),76,102,77,34,31,105,,77,77,14,18,5,6,0.4,0.4
2025-03-23T1200,2402A,114.0261,33.5698,漯河市,市广电局,颗粒物(PM10),77,103,79,34,32,108,,80,80,11,15,6,7,0.4,0.4
2025-03-23T1200,3478A,113.9749,33.5664,漯河市,市图书馆,颗粒物(PM10),64,77,77,24,34,99,,76,76,11,15,6,7,0.4,0.5
2025-03-23T1200,4250A,114.0892,33.5882,漯河市,韶山路11号,颗粒物(PM10),79,107,82,35,31,119,,93,93,15,16,5,5,0.3,0.3
2025-03-23T1200,1798A,118.5092,31.6837,马鞍山市,湖东路四小,颗粒物(PM10),67,84,74,44,37,106,,74,74,36,50,15,11,1.0,0.8
2025-03-23T1200,1799A,118.5024,31.6449,马鞍山市,开发区,颗粒物(PM10),71,91,88,49,42,99,,49,49,42,73,14,8,0.9,0.7
2025-03-23T1200,1802A,118.6245,31.7241,马鞍山市,濮塘,颗粒物(PM10),77,103,78,55,40,109,,88,88,44,29,17,14,1.1,0.8
2025-03-23T1200,3633A,118.4918,31.6809,马鞍山市,雨山,,,87,77,52,40,,,43,43,42,59,17,12,1.0,0.8
2025-03-23T1200,4191A,118.5274,31.72227,马鞍山市,慈湖高新区,细颗粒物(PM2.5),74,90,84,54,45,107,,64,64,41,56,12,11,0.9,0.9
2025-03-23T1200,1686A,111.0286,21.4688,茂名市,电白南海,颗粒物(PM10),65,80,58,44,38,122,,77,77,11,16,6,5,0.7,0.7
2025-03-23T1200,1687A,110.9294,21.6533,茂名市,茂石化七小,颗粒物(PM10),68,85,59,44,33,164,,85,85,21,17,22,13,0.6,0.6
2025-03-23T1200,1688A,110.9107,21.6687,茂名市,健康路,细颗粒物(PM2.5),64,75,61,46,36,159,,91,84,22,18,21,17,0.7,0.7
2025-03-23T1200,1689A,110.8592,21.6828,茂名市,高岭,颗粒物(PM10),65,80,83,44,45,142,,56,56,15,24,18,17,0.6,0.6
2025-03-23T1200,3450A,111.01,21.5165,茂名市,电白水东,颗粒物(PM10),54,58,45,27,24,129,,90,90,8,7,9,7,0.5,0.5
2025-03-23T1200,2539A,104.0308,30.0478,眉山市,黑龙滩水库,"颗粒物(PM10),细颗粒物(PM2.5)",55,60,65,39,40,51,,18,18,12,16,7,5,0.9,0.8
2025-03-23T1200,2540A,103.8416,30.0874,眉山市,气象局,细颗粒物(PM2.5),85,94,116,63,70,44,,13,13,36,49,28,13,1.1,1
2025-03-23T1200,3137A,103.8578,30.0744,眉山市,市委党校,细颗粒物(PM2.5),70,75,99,51,70,41,,10,10,41,59,24,15,0.8,1
2025-03-23T1200,3148A,103.8291,30.0564,眉山市,区人社局,细颗粒物(PM2.5),73,,84,53,68,39,,11,11,38,58,28,14,0.9,1
2025-03-23T1200,1690A,116.1231,24.3284,梅州市,梅江月梅,颗粒物(PM10),56,62,55,37,36,157,,68,68,18,31,7,5,0.6,0.5
2025-03-23T1200,1691A,116.0797,24.2719,梅州市,梅县新城,颗粒物(PM10),59,67,61,33,35,150,,59,59,23,38,10,7,0.6,0.5
2025-03-23T1200,1692A,116.1248,24.2654,梅州市,环境监控中心,颗粒物(PM10),57,63,61,36,37,153,,74,74,23,41,9,11,0.6,0.6
2025-03-23T1200,3315A,116.1233,24.2991,梅州市,梅龙,,49,48,52,30,32,155,,82,82,15,28,9,9,0.6,0.7
2025-03-23T1200,1878A,104.7778,31.4741,绵阳市,富乐山,细颗粒物(PM2.5),72,86,84,52,56,88,,21,21,38,50,8,4,0.7,0.8
2025-03-23T1200,1880A,104.6697,31.4668,绵阳市,高新区自来水公司,颗粒物(PM10),71,91,114,41,61,99,,23,23,22,53,9,4,0.5,0.7
2025-03-23T1200,1881A,104.7287,31.5075,绵阳市,三水厂,颗粒物(PM10),78,106,95,55,58,90,,20,20,30,47,9,7,0.7,0.8
2025-03-23T1200,3491A,104.69,31.5322,绵阳市,西科大附属小学,颗粒物(PM10),62,73,94,41,51,101,,29,29,17,52,9,7,0.6,0.7
2025-03-23T1200,3492A,104.5648,31.5343,绵阳市,安州区旅游局,颗粒物(PM10),54,57,88,36,53,103,,30,30,13,41,11,10,0.5,0.7
2025-03-23T1200,4226A,104.7651,31.4531,绵阳市,绵阳市气象局,"颗粒物(PM10),细颗粒物(PM2.5)",70,90,93,51,57,85,,16,16,27,55,11,5,0.6,0.8
2025-03-23T1200,1784A,129.61,44.561,牡丹江市,环保大楼,,27,23,27,3,17,86,,58,58,7,13,6,6,0.2,0.3
2025-03-23T1200,1785A,129.6115,44.5782,牡丹江市,文化广场,,28,,23,14,19,87,,58,58,9,12,9,10,0.3,0.3
2025-03-23T1200,1786A,129.5904,44.5963,牡丹江市,第一医院,,30,15,24,8,19,94,,56,56,7,11,9,9,0.1,0.1
2025-03-23T1200,1787A,129.6364,44.6075,牡丹江市,机车工厂,,28,10,33,8,20,88,,50,50,8,11,7,23,0.4,0.4
2025-03-23T1200,1788A,129.6386,44.5462,牡丹江市,第一中学,,30,13,21,11,17,94,,64,64,3,8,6,7,0.3,0.3
2025-03-23T1200,2531A,105.0703,29.61,内江市,市监测站,细颗粒物(PM2.5),113,95,78,85,75,57,,16,16,34,49,7,7,0.4,0.4
2025-03-23T1200,2532A,105.0717,29.5947,内江市,东兴区政府,细颗粒物(PM2.5),99,84,83,74,66,53,,17,17,32,44,8,6,0.8,0.8
2025-03-23T1200,2533A,105.0653,29.5817,内江市,内江二中,细颗粒物(PM2.5),107,108,90,80,74,58,,15,15,,43,13,10,0.9,1
2025-03-23T1200,2534A,105.0406,29.5822,内江市,内江日报社,细颗粒物(PM2.5),110,,96,83,77,63,,25,23,25,44,14,13,0.7,0.8
2025-03-23T1200,2628A,92.0657,31.4846,那曲市,那曲监测站,,33,32,33,17,11,104,,102,99,5,5,6,6,0.4,0.4
2025-03-23T1200,3128A,92.0506,31.4797,那曲市,那曲会议中心,,,,,,,,,,,,,,,,
2025-03-23T1200,1290A,115.8931,28.6843,南昌市,省外办,细颗粒物(PM2.5),73,94,95,53,60,36,,11,11,104,79,24,10,0.7,1.2
2025-03-23T1200,1291A,115.8886,28.7003,南昌市,省林业公司,,,90,81,51,44,51,,14,14,67,67,27,12,,0
2025-03-23T1200,1292A,115.8126,28.7442,南昌市,林科所,颗粒物(PM10),63,75,64,36,31,85,,39,37,54,75,21,12,0.7,0.6
2025-03-23T1200,1294A,115.8518,28.687,南昌市,建工学校,颗粒物(PM10),68,86,82,32,46,67,,16,16,54,73,40,15,0.5,0.7
2025-03-23T1200,1295A,115.8921,28.6424,南昌市,象湖,颗粒物(PM10),82,113,87,48,40,53,,13,13,64,63,36,11,0.8,0.8
2025-03-23T1200,1296A,115.7423,28.7996,南昌市,武术学校,,32,28,26,21,17,102,,40,40,8,13,11,8,0.5,0.5
2025-03-23T1200,3046A,115.9084,28.6062,南昌市,机电学校,颗粒物(PM10),86,121,93,63,45,46,,14,14,75,63,26,10,0.7,0.7
2025-03-23T1200,3690A,115.9721,28.7031,南昌市,外国语学校,,,137,92,51,44,,,11,11,68,50,19,9,0.7,0.6
2025-03-23T1200,4192A,115.9316,28.68677,南昌市,南京东路235号,颗粒物(PM10),57,63,106,39,54,66,,,,66,64,21,10,0.5,0.7
2025-03-23T1200,1905A,106.056,30.8064,南充市,西山风景区,细颗粒物(PM2.5),104,97,88,78,75,,,22,22,23,32,,9,0.9,1
2025-03-23T1200,1906A,106.0789,30.8023,南充市,南充市委,细颗粒物(PM2.5),140,125,119,107,88,68,,25,25,31,50,11,8,0.9,1
2025-03-23T1200,1907A,106.1031,30.8217,南充市,南充炼油厂,细颗粒物(PM2.5),127,116,123,96,89,70,,26,26,32,53,12,8,0.7,0.8
2025-03-23T1200,1909A,106.0642,30.7636,南充市,嘉陵区环保局,细颗粒物(PM2.5),122,124,121,92,81,63,,20,20,26,49,12,8,1.0,1.1
2025-03-23T1200,4227A,106.1083,30.7884,南充市,梨树横街98号,细颗粒物(PM2.5),95,128,130,71,66,76,,27,27,28,47,12,9,0.6,0.7
2025-03-23T1200,4304A,106.1172,30.843,南充市,清泉寺北路188号,细颗粒物(PM2.5),123,,121,93,79,63,,27,27,31,51,,10,0.6,0.6
2025-03-23T1200,1151A,118.8086,32.1065,南京市,迈皋桥,细颗粒物(PM2.5),70,87,59,51,35,102,,55,55,64,49,54,15,2.3,0.6
2025-03-23T1200,1152A,118.7538,32.0551,南京市,草场门,颗粒物(PM10),73,95,72,46,33,93,,55,52,51,49,24,14,1.4,0.7
2025-03-23T1200,1153A,118.7794,32.0745,南京市,山西路,颗粒物(PM10),75,100,79,48,32,96,,62,59,57,39,25,9,1.8,0.9
2025-03-23T1200,1154A,118.7752,32.0023,南京市,中华门,颗粒物(PM10),68,85,69,41,33,100,,52,52,57,57,35,16,1.3,0.7
2025-03-23T1200,1155A,118.8109,32.0309,南京市,瑞金路,颗粒物(PM10),75,100,78,51,36,103,,41,41,50,66,9,7,1.5,1
2025-03-23T1200,1156A,118.7997,32.0754,南京市,玄武湖,颗粒物(PM10),79,107,77,49,31,95,,48,48,45,34,23,9,1.5,0.8
2025-03-23T1200,1157A,118.6414,32.0931,南京市,浦口,颗粒物(PM10),71,92,71,39,25,126,,78,73,27,22,14,9,0.4,0.2
2025-03-23T1200,1158A,118.7356,31.9996,南京市,奥体中心,颗粒物(PM10),74,98,78,46,36,91,,33,33,60,65,27,14,1.6,0.8
2025-03-23T1200,1159A,118.9125,32.1028,南京市,仙林大学城,颗粒物(PM10),71,92,76,41,32,121,,48,48,33,55,19,12,1.3,1
2025-03-23T1200,3422A,118.8436,31.9198,南京市,江宁彩虹桥,颗粒物(PM10),67,84,79,36,33,140,,50,50,21,56,9,6,0.8,0.6
2025-03-23T1200,3423A,119.0138,31.6494,南京市,溧水永阳,颗粒物(PM10),54,58,55,30,37,131,,81,81,17,34,8,6,0.5,0.6
2025-03-23T1200,3427A,118.8554,32.3578,南京市,六合雄州,颗粒物(PM10),60,70,70,27,29,130,,72,72,14,31,8,7,0.5,0.4
2025-03-23T1200,4249A,118.8708,31.3402,南京市,汶溪路181号,,50,,56,35,34,126,,98,98,22,23,5,7,0.5,0.5
2025-03-23T1200,1401A,108.3103,22.7881,南宁市,二十一中,细颗粒物(PM2.5),72,62,53,52,36,154,,111,111,16,24,8,9,0.7,0.6
2025-03-23T1200,1402A,108.3141,22.8528,南宁市,北湖,细颗粒物(PM2.5),59,45,58,42,36,141,,101,101,17,28,9,11,0.5,0.5
2025-03-23T1200,1403A,108.3206,22.8225,南宁市,市监测站,"颗粒物(PM10),细颗粒物(PM2.5)",60,69,58,43,38,144,,111,111,20,24,10,13,0.8,0.8
2025-03-23T1200,1404A,108.3829,22.8037,南宁市,大自然花园,细颗粒物(PM2.5),59,53,54,42,37,150,,105,105,12,20,9,9,0.6,0.5
2025-03-23T1200,1405A,108.4394,22.7904,南宁市,仙葫,细颗粒物(PM2.5),52,,57,36,39,134,,79,79,12,22,5,5,0.5,0.4
2025-03-23T1200,1406A,108.2397,22.8467,南宁市,区农职院,颗粒物(PM10),60,70,68,37,40,153,,90,90,15,29,8,9,0.7,0.8
2025-03-23T1200,1407A,108.3275,22.735,南宁市,英华嘉园,颗粒物(PM10),57,63,61,39,35,154,,96,96,17,31,10,11,0.6,0.6
2025-03-23T1200,3401A,108.4834,22.7618,南宁市,红星社区,细颗粒物(PM2.5),52,,51,36,34,149,,81,81,9,23,12,12,0.7,0.6
2025-03-23T1200,4221A,108.2177,22.7774,南宁市,乐贤路16号,细颗粒物(PM2.5),54,48,70,38,39,144,,74,74,14,42,13,13,0.6,0.6
2025-03-23T1200,2331A,118.0966,26.6761,南平市,茫荡山,,,,,,,,,,,,,,,,
2025-03-23T1200,2332A,118.1681,26.6369,南平市,南平市监测站,,38,37,38,24,24,120,,58,58,11,23,3,3,0.6,0.7
2025-03-23T1200,2333A,118.1825,26.6489,南平市,南平铝业有限公司,,38,38,37,18,24,119,,60,60,8,20,7,8,0.5,0.6
2025-03-23T1200,2334A,118.1756,26.6272,南平市,南平七中,,48,48,33,22,24,119,,50,50,11,21,6,5,0.4,0.5
2025-03-23T1200,1168A,120.9098,31.9663,南通市,狼山街道,颗粒物(PM10),79,108,80,46,43,146,,53,53,37,78,16,10,1.2,0.8
2025-03-23T1200,1169A,120.86,32.0005,南通市,虹桥,,,90,87,50,52,118,,46,46,49,96,,15,0.8,0.9
2025-03-23T1200,1170A,120.87,32.02,南通市,城中,颗粒物(PM10),78,106,103,46,49,118,,45,45,43,88,15,16,0.8,1.1
2025-03-23T1200,1171A,120.94,31.93,南通市,星湖花园,颗粒物(PM10),73,95,81,51,44,142,,57,57,40,77,21,12,1.3,0.7
2025-03-23T1200,1172A,120.81,32.0417,南通市,紫琅学院,颗粒物(PM10),74,98,95,42,45,101,,33,33,63,85,16,11,1.5,0.8
2025-03-23T1200,3291A,121.067,32.062,南通市,通州监测站,颗粒物(PM10),80,110,94,51,49,137,,58,58,40,70,18,10,1.6,1
2025-03-23T1200,3432A,120.9348,31.9883,南通市,环境教育馆,颗粒物(PM10),78,105,91,54,45,151,,47,47,35,73,15,13,0.9,0.9
2025-03-23T1200,2404A,112.5224,33.0122,南阳市,瓦房庄,颗粒物(PM10),81,111,90,50,36,57,,23,23,26,35,4,3,0.6,0.5
2025-03-23T1200,2405A,112.5003,32.9735,南阳市,汉画馆,颗粒物(PM10),72,94,80,44,34,57,,19,19,27,42,8,5,0.7,0.4
2025-03-23T1200,2406A,112.5573,33.027,南阳市,气象站,颗粒物(PM10),84,117,95,41,33,53,,27,27,36,42,8,6,0.6,0.6
2025-03-23T1200,2407A,112.5481,32.9689,南阳市,理工学院,颗粒物(PM10),75,100,82,40,29,58,,27,27,28,40,6,4,0.7,0.5
2025-03-23T1200,4008A,112.5234,32.9922,南阳市,卧龙区政府,,,107,90,53,37,56,,19,19,23,39,,4,0.7,0.5
2025-03-23T1200,1234A,121.8358,29.911,宁波市,区环保大楼,颗粒物(PM10),61,72,90,23,34,134,,42,42,33,95,11,11,0.6,0.6
2025-03-23T1200,1235A,121.56,29.82,宁波市,万里学院,,49,42,53,23,29,154,,102,102,14,31,12,10,0.3,0.4
2025-03-23T1200,1236A,121.713,29.9572,宁波市,龙赛医院,颗粒物(PM10),53,55,76,28,32,147,,75,75,16,51,9,10,0.5,0.6
2025-03-23T1200,1239A,121.633,29.7733,宁波市,钱湖水厂,,50,41,41,24,24,157,,102,102,14,18,10,8,0.5,0.6
2025-03-23T1200,1240A,121.5856,29.8635,宁波市,太古小学,,49,44,55,24,30,155,,97,97,11,33,10,10,0.5,0.5
2025-03-23T1200,1241A,121.524,29.8674,宁波市,市环境监测中心,,45,45,56,19,32,143,,93,93,34,54,11,11,0.7,0.9
2025-03-23T1200,2871A,121.6147,29.9017,宁波市,万里国际学校,,49,43,48,25,27,156,,102,102,9,24,9,9,0.4,0.5
2025-03-23T1200,3710A,121.5594,29.8975,宁波市,白沙活动中心,,49,43,51,23,30,156,,94,94,14,41,8,8,0.6,0.7
2025-03-23T1200,2339A,119.5001,26.6946,宁德市,金涵水库,,,,,,,,,,,,,,,,
2025-03-23T1200,2341A,119.5388,26.6612,宁德市,宁德市监测站,颗粒物(PM10),55,60,39,25,26,127,,81,81,22,22,7,6,0.7,0.7
2025-03-23T1200,3209A,119.5231,26.6562,宁德市,宁德一中,颗粒物(PM10),51,51,37,30,28,124,,84,84,21,16,7,6,0.6,0.6
2025-03-23T1200,2618A,98.8601,25.8567,怒江傈僳族自治州,州监测站,,28,28,24,17,16,50,,59,45,7,6,4,4,0.4,0.4
2025-03-23T1200,2619A,98.8546,25.8417,怒江傈僳族自治州,泸水一中,,35,,23,24,18,43,,46,29,10,11,6,6,0.4,0.4
2025-03-23T1200,1888A,101.6891,26.571,攀枝花市,弄弄坪,细颗粒物(PM2.5),69,64,82,50,49,97,,34,34,24,41,20,37,0.7,1.9
2025-03-23T1200,1889A,101.5769,26.5928,攀枝花市,河门口,细颗粒物(PM2.5),70,80,63,51,41,90,,36,36,36,32,43,20,2.6,1.4
2025-03-23T1200,1890A,101.7169,26.585,攀枝花市,炳草岗,颗粒物(PM10),58,65,73,39,42,83,,26,26,36,49,27,18,0.8,1
2025-03-23T1200,1891A,101.7369,26.5008,攀枝花市,仁和,细颗粒物(PM2.5),64,70,58,46,43,111,,52,52,24,26,22,14,0.9,0.8
2025-03-23T1200,2835A,101.7227,26.567,攀枝花市,四十中小,颗粒物(PM10),60,69,76,41,45,105,,44,44,20,35,24,21,0.9,1.4
2025-03-23T1200,1604A,122.0303,41.1489,盘锦市,开发区,细颗粒物(PM2.5),99,140,121,74,102,108,,57,57,42,47,23,17,1.0,1.1
2025-03-23T1200,1605A,122.0485,41.0883,盘锦市,兴隆台,颗粒物(PM10),104,157,113,63,79,91,,48,48,44,54,18,12,1.1,1
2025-03-23T1200,1606A,121.8297,41.1028,盘锦市,新生街道,细颗粒物(PM2.5),64,56,93,46,90,87,,51,51,34,52,16,12,0.9,1
2025-03-23T1200,1832A,113.3257,33.742,平顶山市,新华旅馆,颗粒物(PM10),88,126,93,28,28,105,,66,66,27,35,6,5,0.3,0.3
2025-03-23T1200,1833A,113.2919,33.737,平顶山市,规划设计院,颗粒物(PM10),83,115,94,41,36,89,,50,50,29,38,8,7,0.6,0.6
2025-03-23T1200,1834A,113.182,33.774,平顶山市,平顶山工学院,颗粒物(PM10),83,115,82,41,31,90,,70,62,25,17,9,7,0.6,0.5
2025-03-23T1200,3204A,113.3025,33.73,平顶山市,规划局,颗粒物(PM10),87,124,91,44,37,93,,58,58,29,34,8,6,0.6,0.5
2025-03-23T1200,3594A,112.8867,33.9116,平顶山市,石龙区,颗粒物(PM10),81,112,112,26,30,118,,67,67,7,25,6,7,0.1,0.2
2025-03-23T1200,2656A,106.6692,35.5461,平凉市,聚贤嘉苑,,,,74,,19,,,108,,,18,,11,,0.5
2025-03-23T1200,2657A,106.7021,35.5307,平凉市,博物馆,颗粒物(PM10),105,159,103,29,34,104,,60,60,7,25,17,19,0.2,0.5
2025-03-23T1200,2347A,114.0997,27.5002,萍乡市,武功山,,45,31,31,31,18,109,,78,78,9,10,10,9,1.1,1.2
2025-03-23T1200,2348A,113.8385,27.6434,萍乡市,中医院,颗粒物(PM10),77,104,65,42,34,63,,42,42,55,32,34,13,2.6,1
2025-03-23T1200,2349A,113.8493,27.6253,萍乡市,市政府车库,"颗粒物(PM10),细颗粒物(PM2.5)",65,80,54,47,38,79,,52,52,46,28,19,10,1.6,1
2025-03-23T1200,2350A,113.8676,27.6435,萍乡市,市环保局,颗粒物(PM10),66,81,64,43,38,63,,40,40,59,36,20,11,1.5,0.9
2025-03-23T1200,2351A,113.866,27.6198,萍乡市,安源区政府,颗粒物(PM10),66,81,61,38,31,76,,46,46,40,23,19,14,1.4,1.3
2025-03-23T1200,2319A,119.0141,25.4325,莆田市,荔城区仓后路,细颗粒物(PM2.5),68,71,55,49,35,160,,91,91,21,22,4,3,0.7,0.7
2025-03-23T1200,2320A,119.0015,25.4553,莆田市,莆田市监测站,"颗粒物(PM10),细颗粒物(PM2.5)",60,69,40,43,27,160,,104,104,21,14,6,5,0.5,0.4
2025-03-23T1200,2321A,119.1119,25.4561,莆田市,涵江区六中,细颗粒物(PM2.5),88,,52,65,36,183,,76,76,20,30,8,5,0.5,0.5
2025-03-23T1200,2322A,119.1013,25.3215,莆田市,秀屿区政府,细颗粒物(PM2.5),92,96,71,68,50,177,,83,83,23,35,9,6,0.6,0.6
2025-03-23T1200,2323A,118.981,25.4792,莆田市,东圳水库,,,,,,,,,,,,,,,,
2025-03-23T1200,2392A,115.0312,35.7636,濮阳市,环保局,颗粒物(PM10),85,119,80,48,31,64,,37,37,38,36,12,8,0.8,0.6
2025-03-23T1200,2394A,115.0574,35.7609,濮阳市,油田运输公司,颗粒物(PM10),94,138,97,43,28,66,,35,35,36,36,10,7,1.0,0.8
2025-03-23T1200,3021A,115,35.7668,濮阳市,濮水河管理处,颗粒物(PM10),100,149,104,43,31,83,,26,26,46,47,9,6,0.9,0.7
2025-03-23T1200,4216A,115.0924,35.7686,濮阳市,任丘路479号,颗粒物(PM10),98,145,98,37,27,78,,48,48,35,32,10,8,0.7,0.6
2025-03-23T1200,2601A,100.98,22.7633,普洱市,市环保局,颗粒物(PM10),70,90,73,20,19,80,,29,29,16,13,5,4,0.9,0.8
2025-03-23T1200,2602A,100.9817,22.8322,普洱市,普洱第二中学,,,,,25,30,83,,32,32,13,16,7,6,0.8,0.8
2025-03-23T1200,2262A,131.0518,45.8751,七台河市,新一中,,30,11,11,6,6,95,,79,79,5,6,11,11,0.8,0.6
2025-03-23T1200,3345A,131.0577,45.7879,七台河市,中波台,,27,18,17,6,7,84,,63,63,11,14,6,7,0.5,0.5
2025-03-23T1200,3637A,131.0176,45.7761,七台河市,人民广场,,26,22,30,11,17,83,,59,59,8,15,7,8,0.4,0.6
2025-03-23T1200,3684A,130.8781,45.8222,七台河市,新建矿广场,,28,12,16,10,18,87,,60,60,7,12,7,9,0.4,0.5
2025-03-23T1200,1779A,123.9305,47.3636,齐齐哈尔市,安居小区,,41,41,35,14,18,85,,77,77,14,19,9,8,0.4,0.4
2025-03-23T1200,1780A,123.9488,47.3386,齐齐哈尔市,中心广场,颗粒物(PM10),61,72,39,11,17,76,,67,67,14,16,6,7,0.5,0.4
2025-03-23T1200,1781A,123.9483,47.3227,齐齐哈尔市,农牧车辆厂,,44,44,34,6,13,86,,77,77,9,13,6,6,0.3,0.3
2025-03-23T1200,1783A,123.945,47.2988,齐齐哈尔市,市环境监测站,,32,27,28,22,16,83,,74,74,8,10,3,4,0.3,0.3
2025-03-23T1200,3662A,123.6333,47.2075,齐齐哈尔市,富区青少年活动中心,颗粒物(PM10),94,137,44,22,17,81,,63,63,10,11,7,7,0.4,0.4
2025-03-23T1200,2591A,107.9783,26.5747,黔东南苗族侗族自治州,市环境监测站,细颗粒物(PM2.5),73,70,60,53,47,92,,72,68,11,21,9,7,0.4,0.5
2025-03-23T1200,2881A,107.8908,26.5311,黔东南苗族侗族自治州,凯里学院,细颗粒物(PM2.5),63,70,61,45,42,105,,85,77,5,9,10,6,0.6,0.7
2025-03-23T1200,2593A,107.5228,26.2403,黔南布依族苗族自治州,小围寨,颗粒物(PM10),54,58,60,34,45,113,,88,88,8,12,9,13,0.7,0.8
2025-03-23T1200,3538A,107.5175,26.2978,黔南布依族苗族自治州,沙坝,颗粒物(PM10),57,63,66,31,46,115,,82,82,12,17,8,10,0.4,0.6
2025-03-23T1200,2589A,104.9022,25.0925,黔西南布依族苗族自治州,场坝街,细颗粒物(PM2.5),80,,70,59,63,162,,107,107,23,19,15,21,0.5,0.6
2025-03-23T1200,2590A,104.8811,25.0992,黔西南布依族苗族自治州,坪东大道,细颗粒物(PM2.5),79,,68,58,59,161,,96,96,23,26,15,10,0.5,0.5
2025-03-23T1200,2502A,108.6236,21.9667,钦州市,市环保站,颗粒物(PM10),57,63,75,29,34,126,,88,88,22,36,8,11,0.5,0.5
2025-03-23T1200,2503A,108.6549,21.9481,钦州市,沙埠小学,颗粒物(PM10),52,54,83,34,49,122,,72,72,18,46,8,14,0.7,0.7
2025-03-23T1200,2504A,108.5989,21.7431,钦州市,港区一小,,41,41,90,18,39,116,,54,54,12,56,7,10,0.7,0.8
2025-03-23T1200,3404A,108.5959,21.9633,钦州市,北职校,颗粒物(PM10),54,58,76,30,43,128,,60,60,14,40,7,13,0.7,0.7
