timepoint,stationcode,longitude,latitude,area,positionname,primarypollutant,aqi,pm10,pm10_24h,pm2_5,pm2_5_24h,o3,o3_24h,o3_8h,o3_8h_24h,no2,no2_24h,so2,so2_24h,co,co_24h
2025-03-23T1900,2566A,102.1879,31.914,阿坝藏族羌族自治州,州农科所,,40,40,41,15,13,64,,105,101,31,11,11,10,0.1,0.2
2025-03-23T1900,2568A,102.2502,31.8896,阿坝藏族羌族自治州,马师校,,,,24,,21,,,82,,,9,,5,,0.4
2025-03-23T1900,3994A,102.2165,31.9024,阿坝藏族羌族自治州,马尔康中学西区,,32,22,24,9,14,100,,118,116,7,6,4,5,0.2,0.3
2025-03-23T1900,2695A,80.292,41.1694,阿克苏地区,电视台,颗粒物(PM10),121,191,212,49,64,159,,133,133,11,23,6,7,0.4,0.6
2025-03-23T1900,2696A,80.2613,41.1551,阿克苏地区,艺术中心,颗粒物(PM10),126,202,243,84,72,149,,124,124,10,32,5,6,0.5,0.9
2025-03-23T1900,2204A,105.6467,38.8363,阿拉善盟,西城区西花园,,,,396,,93,96,,103,102,9,7,11,11,0.7,0.7
2025-03-23T1900,2205A,105.6985,38.8411,阿拉善盟,蒙二幼,颗粒物(PM10),500,983,436,258,115,87,,98,95,10,8,5,6,0.5,0.5
2025-03-23T1900,2206A,105.724,38.8516,阿拉善盟,环保局新楼,颗粒物(PM10),500,959,427,266,119,89,,103,96,6,4,8,8,0.8,0.8
2025-03-23T1900,2708A,88.1264,47.8517,阿勒泰地区,市站,,31,16,20,3,9,99,,102,101,5,6,2,3,0.4,0.4
2025-03-23T1900,2630A,80.1161,32.5,阿里地区,阿里监测站,,34,12,10,3,8,106,,111,111,1,5,6,7,0.4,0.4
2025-03-23T1900,3192A,80.0903,32.5028,阿里地区,阿里藏医院,,,,14,,6,,,118,118,1,4,6,8,0.4,0.4
2025-03-23T1900,2642A,109.0318,32.6537,安康市,香溪洞,颗粒物(PM10),63,76,48,31,27,116,,117,117,5,7,6,7,0,0.1
2025-03-23T1900,2644A,109.0072,32.6975,安康市,汉滨区检察院,颗粒物(PM10),58,65,55,27,26,114,,117,117,12,20,8,12,0.3,0.4
2025-03-23T1900,4054A,109.0325,32.6913,安康市,市邮政管理局,颗粒物(PM10),61,72,62,26,29,103,,118,118,17,23,7,13,0.6,0.5
2025-03-23T1900,2291A,117.0809,30.5177,安庆市,环科院,细颗粒物(PM2.5),69,78,71,50,42,70,,58,57,47,61,11,11,0.7,0.6
2025-03-23T1900,2292A,117.0331,30.5119,安庆市,马山宾馆,细颗粒物(PM2.5),80,72,68,59,44,52,,57,57,54,48,7,8,0.9,0.7
2025-03-23T1900,2294A,116.9896,30.6145,安庆市,安庆大学,细颗粒物(PM2.5),72,84,71,52,39,48,,97,86,67,37,10,13,0.5,0.6
2025-03-23T1900,3173A,117.0598,30.5351,安庆市,市人大,细颗粒物(PM2.5),69,63,67,50,39,71,,77,74,36,33,10,14,0.8,0.7
2025-03-23T1900,3123A,105.9408,26.2431,安顺市,凤凰山,细颗粒物(PM2.5),68,69,54,49,41,121,,120,120,14,19,11,16,0.4,0.5
2025-03-23T1900,3124A,105.9439,26.2564,安顺市,金钟山,细颗粒物(PM2.5),54,54,53,38,38,124,,122,122,12,13,10,14,0.4,0.5
2025-03-23T1900,3125A,105.8983,26.2481,安顺市,娄家坡,细颗粒物(PM2.5),58,60,53,41,41,120,,118,118,16,14,11,13,0.5,0.6
2025-03-23T1900,1819A,114.3551,36.1017,安阳市,红庙街,颗粒物(PM10),139,228,149,50,37,79,,95,95,20,21,2,7,0.4,0.6
2025-03-23T1900,1820A,114.361,36.0681,安阳市,银杏小区,颗粒物(PM10),131,211,142,54,43,94,,102,102,17,24,1,6,0.3,0.6
2025-03-23T1900,3141A,114.3922,36.0878,安阳市,信访局,颗粒物(PM10),134,218,140,56,46,95,,110,110,20,22,4,10,0.3,0.6
2025-03-23T1900,3669A,114.4705,36.0637,安阳市,左辅环卫站,颗粒物(PM10),137,223,156,48,42,110,,109,109,9,32,5,12,0.3,0.6
2025-03-23T1900,3703A,114.2917,36.0949,安阳市,安钢职工学校,颗粒物(PM10),154,257,164,65,49,84,,96,96,20,25,2,7,0.5,0.7
2025-03-23T1900,1748A,123.044,41.1196,鞍山市,深沟寺,细颗粒物(PM2.5),173,210,136,131,77,113,,136,136,52,39,20,35,1.3,1.5
2025-03-23T1900,1749A,123.011,41.0931,鞍山市,太阳城,细颗粒物(PM2.5),183,215,138,138,80,122,,132,132,44,39,16,27,1.3,1.8
2025-03-23T1900,1750A,123.0485,41.1442,鞍山市,太平,细颗粒物(PM2.5),173,224,160,131,84,106,,123,123,61,52,19,25,1.4,1.8
2025-03-23T1900,1751A,122.9642,41.0971,鞍山市,铁西三道街,细颗粒物(PM2.5),206,257,192,156,109,102,,137,137,73,70,17,26,1.4,2.1
2025-03-23T1900,1753A,123.022,41.0821,鞍山市,明达新区,细颗粒物(PM2.5),176,207,144,133,85,132,,143,143,36,36,17,23,1.1,1.4
2025-03-23T1900,4201A,122.9446,41.0826,鞍山市,兴盛南路290号,细颗粒物(PM2.5),212,275,214,162,111,119,,140,140,60,71,23,31,1.3,1.8
2025-03-23T1900,2195A,107.4212,40.761,巴彦淖尔市,附二中,颗粒物(PM10),130,209,565,49,110,100,,99,99,8,6,6,5,0.4,0.4
2025-03-23T1900,2196A,107.37,40.7372,巴彦淖尔市,市环保大楼,颗粒物(PM10),134,217,514,47,112,106,,106,106,7,6,5,4,0.3,0.3
2025-03-23T1900,1956A,86.1472,41.7538,巴音郭楞蒙古自治州,孔雀公园,颗粒物(PM10),500,707,572,130,104,110,,108,108,10,15,5,6,0.3,0.4
2025-03-23T1900,1957A,86.1972,41.7166,巴音郭楞蒙古自治州,棉纺厂,颗粒物(PM10),500,672,776,133,115,107,,104,104,11,16,2,3,0.3,0.3
2025-03-23T1900,1958A,86.2357,41.7173,巴音郭楞蒙古自治州,经济开发区,颗粒物(PM10),500,832,681,114,102,109,,106,106,10,13,5,5,0.3,0.3
2025-03-23T1900,2914A,106.7677,31.8794,巴中市,苏山坪,,42,42,53,22,39,123,,109,109,15,17,5,4,0.3,0.4
2025-03-23T1900,3181A,106.7768,31.8526,巴中市,市五中,,40,39,75,20,52,126,,112,112,14,24,6,5,0.4,0.7
2025-03-23T1900,3183A,106.7418,31.8654,巴中市,圣泉水务公司,,45,45,50,26,35,130,,113,113,13,25,8,8,0.3,0.5
2025-03-23T1900,3616A,106.7616,31.8344,巴中市,市中心医院,,48,43,60,33,51,134,,118,118,11,27,8,7,0.3,0.6
2025-03-23T1900,2235A,122.7911,45.6077,白城市,洮北区环保局,细颗粒物(PM2.5),207,188,70,157,64,115,,128,128,28,17,9,8,1.0,0.6
2025-03-23T1900,2236A,122.8738,45.5725,白城市,市环保局,细颗粒物(PM2.5),234,232,80,184,61,104,,131,131,47,19,9,5,1.1,0.7
2025-03-23T1900,2231A,126.4219,41.9171,白山市,喜丰,颗粒物(PM10),53,55,103,21,45,125,,133,132,14,27,10,13,1.1,1.1
2025-03-23T1900,2232A,126.4077,41.9419,白山市,环保局,,,68,92,26,66,99,,120,118,,15,12,10,1.2,1.2
2025-03-23T1900,2647A,104.1724,36.5446,白银市,第三小学,颗粒物(PM10),58,65,93,17,27,98,,98,98,11,14,12,17,0,0.3
2025-03-23T1900,2648A,104.1465,36.5482,白银市,动力公司,颗粒物(PM10),58,66,88,16,27,104,,102,102,10,13,9,10,0.2,0.5
2025-03-23T1900,2512A,106.6103,23.9011,百色市,市监测站,细颗粒物(PM2.5),80,95,88,59,59,181,,189,189,23,22,21,20,1.1,1
2025-03-23T1900,2513A,106.6538,23.8859,百色市,市中心血站,细颗粒物(PM2.5),80,101,104,59,71,180,,196,196,25,26,20,22,1.0,1
2025-03-23T1900,3406A,106.6085,23.8798,百色市,祈福高中,颗粒物(PM10),86,121,100,53,55,160,,182,182,31,32,16,16,1.0,1
2025-03-23T1900,2270A,117.396,32.939,蚌埠市,工人疗养院,颗粒物(PM10),73,96,93,42,40,121,,130,129,27,31,8,8,0.6,0.6
2025-03-23T1900,2271A,117.3605,32.9427,蚌埠市,百货大楼,颗粒物(PM10),73,95,93,39,41,108,,120,119,28,33,10,9,0.4,0.4
2025-03-23T1900,2273A,117.4185,32.8911,蚌埠市,蚌埠学院,颗粒物(PM10),82,114,104,52,46,95,,121,119,29,34,7,8,0.6,0.5
2025-03-23T1900,2274A,117.3533,32.9673,蚌埠市,淮上区政府,颗粒物(PM10),78,105,95,52,44,105,,121,120,36,32,9,9,0.6,0.6
2025-03-23T1900,2275A,117.3145,32.8977,蚌埠市,高新区,颗粒物(PM10),81,112,105,51,52,98,,119,118,30,39,8,8,0.5,0.5
2025-03-23T1900,3715A,117.3092,32.9314,蚌埠市,蚌埠田家炳中学,颗粒物(PM10),79,107,99,55,48,85,,115,113,48,43,10,20,0.4,0.4
2025-03-23T1900,1585A,109.8756,40.6532,包头市,市环境监测站,颗粒物(PM10),199,348,336,86,92,93,,101,101,18,52,9,29,0.5,1.7
2025-03-23T1900,1587A,109.9991,40.5842,包头市,包头八中,颗粒物(PM10),194,337,322,97,104,91,,98,98,20,30,8,16,0.5,0.6
2025-03-23T1900,1588A,109.8538,40.6821,包头市,青山宾馆,颗粒物(PM10),199,347,298,97,100,95,,98,98,10,46,7,15,0.5,1.2
2025-03-23T1900,1589A,109.8642,40.6288,包头市,惠龙物流,颗粒物(PM10),187,323,368,64,88,92,,104,104,20,29,12,22,0.7,0.9
2025-03-23T1900,1590A,110.0377,40.5546,包头市,东河鸿龙湾,颗粒物(PM10),189,328,293,75,76,96,,102,102,15,20,9,10,0.7,0.6
2025-03-23T1900,3283A,109.9154,40.5685,包头市,滨河大厦,颗粒物(PM10),179,307,305,75,83,96,,102,102,13,16,14,9,0.9,0.7
2025-03-23T1900,3419A,109.9447,40.6261,包头市,包头市委党校,颗粒物(PM10),181,312,334,72,87,98,,104,104,10,29,5,22,0.4,0.9
2025-03-23T1900,3683A,109.8331,40.6576,包头市,昆区政府,颗粒物(PM10),183,315,323,80,103,93,,96,96,15,52,6,31,0.5,2
2025-03-23T1900,1930A,107.185,34.3063,宝鸡市,庙沟村,颗粒物(PM10),64,78,77,25,30,109,,113,113,7,12,7,7,0.2,0.2
2025-03-23T1900,1931A,107.0708,34.3017,宝鸡市,竹园沟,颗粒物(PM10),71,92,82,33,30,91,,112,109,12,13,6,6,0.3,0.3
2025-03-23T1900,1932A,107.1906,34.3672,宝鸡市,三陆医院,颗粒物(PM10),70,90,88,23,38,97,,106,106,11,21,4,6,0.4,0.5
2025-03-23T1900,1933A,107.1431,34.3547,宝鸡市,监测站,颗粒物(PM10),75,99,91,28,32,96,,103,103,13,21,6,8,0.6,0.5
2025-03-23T1900,1934A,107.1186,34.3739,宝鸡市,技工学校,颗粒物(PM10),71,92,84,31,34,104,,109,109,9,14,4,6,0.3,0.5
2025-03-23T1900,1935A,107.3906,34.3528,宝鸡市,陈仓区环保局家属楼,颗粒物(PM10),68,85,93,21,39,94,,104,104,7,23,6,13,0.5,0.6
2025-03-23T1900,1936A,107.2058,34.3497,宝鸡市,文理学院,颗粒物(PM10),70,89,85,28,35,100,,110,110,12,18,4,6,0.3,0.4
2025-03-23T1900,1937A,107.2386,34.3622,宝鸡市,三迪小学,颗粒物(PM10),72,94,90,32,38,100,,110,110,18,26,5,7,0.3,0.4
2025-03-23T1900,1051A,115.493,38.8632,保定市,游泳馆,颗粒物(PM10),149,248,154,60,41,94,,104,104,20,30,15,12,0.2,0.3
2025-03-23T1900,1052A,115.5213,38.8959,保定市,华电二区,颗粒物(PM10),135,219,131,71,40,98,,107,107,9,12,1,3,0.3,0.3
2025-03-23T1900,1053A,115.4713,38.9108,保定市,接待中心,颗粒物(PM10),140,230,141,79,51,89,,103,103,18,16,3,3,0.2,0.2
2025-03-23T1900,1054A,115.4612,38.8416,保定市,地表水厂,颗粒物(PM10),164,277,188,62,46,97,,105,105,18,28,5,5,0.3,0.4
2025-03-23T1900,3581A,115.31981,38.95208,保定市,满城区生态环境分局,颗粒物(PM10),159,268,164,80,48,88,,109,106,17,10,3,3,0.3,0.2
2025-03-23T1900,3582A,115.47694,38.76408,保定市,清苑区第二中学,颗粒物(PM10),176,301,188,65,42,97,,101,101,14,20,15,11,0.3,0.3
2025-03-23T1900,3583A,115.62909,39.02311,保定市,徐水物探局,颗粒物(PM10),171,291,185,70,47,84,,104,104,21,28,13,13,0.1,0.1
2025-03-23T1900,4004A,115.4202,38.8656,保定市,双鹰农机,颗粒物(PM10),140,230,156,74,45,87,,104,103,16,22,5,5,0.2,0.3
2025-03-23T1900,4034A,115.5150,38.8590,保定市,植保所站,颗粒物(PM10),146,242,153,84,50,92,,102,102,13,13,5,4,0.4,0.3
2025-03-23T1900,2594A,99.1678,25.1081,保山市,市环境监测站,细颗粒物(PM2.5),54,49,47,38,43,114,,100,100,13,15,5,5,0.7,0.6
2025-03-23T1900,2595A,99.1711,25.1328,保山市,市环保局,颗粒物(PM10),52,54,51,30,38,107,,103,103,10,10,4,4,0.8,0.7
2025-03-23T1900,1867A,109.1436,21.4086,北海市,海滩公园,,41,41,40,17,20,106,,128,121,10,11,5,6,0.6,0.5
2025-03-23T1900,1868A,109.0981,21.4661,北海市,新市环保局,,38,38,40,19,25,100,,120,112,12,14,3,4,0.6,0.6
2025-03-23T1900,1869A,109.1778,21.5233,北海市,北海工业园,,36,30,48,22,33,113,,123,122,12,21,7,8,0.3,0.4
2025-03-23T1900,3400A,109.1911,21.4415,北海市,龙潭自来水厂,,36,36,40,21,32,102,,116,112,12,16,6,6,0.4,0.5
2025-03-23T1900,1001A,116.3621,39.8784,北京市,万寿西宫,颗粒物(PM10),155,259,126,74,36,102,,114,113,18,19,3,3,0,0
2025-03-23T1900,1003A,116.4174,39.9289,北京市,东四,颗粒物(PM10),133,216,123,62,36,104,,112,112,17,15,5,5,0.4,0.4
2025-03-23T1900,1004A,116.4072,39.8863,北京市,天坛,颗粒物(PM10),125,199,120,56,35,87,,106,105,14,16,3,2,0.4,0.4
2025-03-23T1900,1005A,116.462,39.9365,北京市,农展馆,颗粒物(PM10),130,209,120,61,36,95,,104,104,14,11,6,7,0.4,0.4
2025-03-23T1900,1006A,116.3392,39.9295,北京市,官园,颗粒物(PM10),143,235,131,68,36,94,,100,100,17,14,7,8,0.4,0.4
2025-03-23T1900,1007A,116.2878,39.9611,北京市,海淀万柳,颗粒物(PM10),128,205,123,60,34,82,,95,94,23,14,4,4,0.5,0.4
2025-03-23T1900,1008A,116.6636,40.135,北京市,顺义新城,颗粒物(PM10),138,225,153,65,45,82,,108,105,39,25,6,6,0.1,0
2025-03-23T1900,1009A,116.6275,40.3275,北京市,怀柔镇,颗粒物(PM10),222,365,139,91,40,94,,102,102,6,14,3,3,0.5,0.5
2025-03-23T1900,1010A,116.2296,40.217,北京市,昌平镇,颗粒物(PM10),333,446,188,102,49,79,,106,102,26,17,2,3,0.5,0.5
2025-03-23T1900,1011A,116.3966,39.9821,北京市,奥体中心,颗粒物(PM10),120,189,122,55,35,99,,106,106,25,23,3,4,0.0,0.1
2025-03-23T1900,3281A,115.9718,40.4529,北京市,延庆夏都,颗粒物(PM10),384,487,184,103,51,91,,99,99,10,14,6,7,0.4,0.5
2025-03-23T1900,3418A,116.8336,40.4095,北京市,密云新城,颗粒物(PM10),239,377,121,,34,75,,98,98,23,12,4,3,0.4,0.4
2025-03-23T1900,3671A,116.088,39.9726,北京市,门头沟三家店,颗粒物(PM10),354,463,202,13,20,38,,98,86,74,36,5,5,0.9,0.5
2025-03-23T1900,3672A,116.1541,39.8204,北京市,丰台云岗,颗粒物(PM10),162,274,132,87,28,100,,118,118,16,13,4,4,0.4,0.3
2025-03-23T1900,3673A,116.6804,39.9081,北京市,通州东关,颗粒物(PM10),119,188,127,20,15,90,,107,106,29,20,4,5,0.6,0.6
2025-03-23T1900,3674A,115.9577,39.7603,北京市,房山燕山,颗粒物(PM10),142,233,143,82,35,86,,98,98,13,10,4,4,0.3,0.3
2025-03-23T1900,3675A,116.4672,39.7733,北京市,大兴旧宫,颗粒物(PM10),166,282,123,83,35,82,,100,100,17,16,1,2,0.2,0.2
2025-03-23T1900,3694A,115.986,40.4563,北京市,延庆石河营,颗粒物(PM10),345,456,171,104,49,93,,100,100,11,15,5,6,0.3,0.4
2025-03-23T1900,3695A,116.6151,40.3053,北京市,怀柔新城,颗粒物(PM10),226,368,141,101,42,90,,103,102,5,8,5,5,0.3,0.4
2025-03-23T1900,3696A,116.2545,39.8768,北京市,丰台小屯,颗粒物(PM10),157,264,133,98,47,58,,124,120,50,22,2,2,0.2,0.2
2025-03-23T1900,3697A,116.84,40.3844,北京市,密云镇,颗粒物(PM10),209,356,126,90,36,88,,103,103,11,29,6,5,0.4,0.3
2025-03-23T1900,4182A,116.1942,39.9158,北京市,八角北路9号,颗粒物(PM10),146,241,141,64,35,91,,114,113,31,10,4,11,0.3,0.2
2025-03-23T1900,4194A,117.0790,40.1518,北京市,洳河巡河路,颗粒物(PM10),105,159,121,54,42,98,,106,106,23,23,3,2,0.4,0.4
2025-03-23T1900,1761A,123.8275,41.3064,本溪市,大峪,细颗粒物(PM2.5),92,113,89,68,50,153,,146,146,16,34,14,13,0.8,0.8
2025-03-23T1900,1762A,123.7567,41.3325,本溪市,溪湖,细颗粒物(PM2.5),110,136,122,83,67,147,,146,146,24,52,15,16,1.2,1.3
2025-03-23T1900,1763A,123.7169,41.3094,本溪市,彩屯,细颗粒物(PM2.5),132,197,130,100,72,131,,139,139,41,47,26,23,2.4,2.3
2025-03-23T1900,1764A,123.7669,41.2864,本溪市,东明,细颗粒物(PM2.5),94,116,104,70,55,141,,137,137,21,47,14,13,1.0,1
2025-03-23T1900,1765A,123.7992,41.2664,本溪市,新立屯,细颗粒物(PM2.5),112,98,69,84,47,155,,151,151,19,48,12,10,0.9,0.8
2025-03-23T1900,1766A,123.8142,41.3472,本溪市,威宁,细颗粒物(PM2.5),94,122,113,70,58,133,,141,141,20,33,11,9,0.8,0.9
2025-03-23T1900,2587A,105.2864,27.3125,毕节市,八中,,42,36,37,29,26,104,,108,108,13,10,9,10,0.5,0.4
2025-03-23T1900,2588A,105.31,27.2944,毕节市,师专,,40,37,35,28,26,113,,116,116,12,10,6,7,0.6,0.6
2025-03-23T1900,4263A,105.3688,27.3598,毕节市,工业大道,,42,42,45,29,30,116,,122,122,12,11,9,9,0.5,0.5
2025-03-23T1900,1629A,118.0018,37.3617,滨州市,第二水厂,颗粒物(PM10),135,219,141,56,41,61,,77,77,38,30,11,11,1.4,1.3
2025-03-23T1900,1630A,117.9776,37.393,滨州市,北中新校,颗粒物(PM10),118,185,136,48,43,73,,85,85,33,30,11,27,0.3,0.6
2025-03-23T1900,3514A,117.9378,37.3956,滨州市,中海酒店,颗粒物(PM10),103,156,123,46,47,84,,90,90,28,29,13,15,0.4,0.5
2025-03-23T1900,3515A,117.9378,37.3553,滨州市,开发区一中,颗粒物(PM10),124,197,146,51,41,68,,78,77,36,34,14,14,0.4,0.4
2025-03-23T1900,3516A,118.0917,37.694,滨州市,金海六路,颗粒物(PM10),128,205,137,51,41,52,,82,80,42,33,9,9,0.8,0.7
2025-03-23T1900,4028A,117.9956,37.3753,滨州市,滨州市西街道办事处,颗粒物(PM10),125,200,137,61,46,76,,86,86,27,25,8,12,0.3,0.2
2025-03-23T1900,2311A,115.8072,33.8399,亳州市,污水处理厂,颗粒物(PM10),80,109,94,35,32,109,,114,114,20,22,5,7,0.3,0.3
2025-03-23T1900,2312A,115.7789,33.8518,亳州市,三国揽胜宫,颗粒物(PM10),86,122,98,36,34,105,,109,109,14,17,7,8,0.3,0.3
2025-03-23T1900,3332A,115.7633,33.8034,亳州市,亳州学院,颗粒物(PM10),78,105,89,37,34,99,,105,105,17,18,7,8,0.4,0.3
2025-03-23T1900,2693A,82.0485,44.8556,博尔塔拉蒙古自治州,市党校,,,51,60,21,19,120,,104,104,11,12,,12,0.2,0.2
2025-03-23T1900,2694A,82.0806,44.8969,博尔塔拉蒙古自治州,市环保局,颗粒物(PM10),56,61,72,37,19,104,,93,93,14,18,4,4,0.4,0.5
2025-03-23T1900,1071A,116.8842,38.2991,沧州市,沧县城建局,颗粒物(PM10),129,208,134,55,40,78,,96,96,32,30,5,5,0.4,0.4
2025-03-23T1900,1072A,116.8584,38.3254,沧州市,电视转播站,颗粒物(PM10),124,197,119,58,40,85,,101,101,27,28,8,8,0.5,0.4
2025-03-23T1900,1073A,116.8709,38.3228,沧州市,市环保局,颗粒物(PM10),118,185,119,56,38,85,,98,98,24,23,10,10,0.4,0.4
2025-03-23T1900,3324A,116.8136,38.3004,沧州市,河北水利电力学院,颗粒物(PM10),157,263,156,72,43,73,,90,90,36,36,8,8,0.4,0.3
2025-03-23T1900,2622A,97.1806,31.1273,昌都市,昌都监测站,,28,28,31,12,13,81,,107,92,3,3,7,7,0.9,0.7
2025-03-23T1900,3719A,97.1714,31.1406,昌都市,昌都会议中心,,39,24,28,13,14,124,,117,117,2,9,2,3,0.1,0.1
2025-03-23T1900,2690A,88.1236,43.8886,昌吉回族自治州,天山天池,,34,34,23,14,9,97,,112,111,6,5,9,6,0.5,0.5
2025-03-23T1900,2692A,87.2717,44.0297,昌吉回族自治州,新区政务中心,,46,46,76,3,35,107,,88,88,8,24,9,10,0.5,0.7
2025-03-23T1900,3613A,87.3095,44.0142,昌吉回族自治州,亚心广场,颗粒物(PM10),53,56,94,19,35,105,,90,90,6,23,9,10,0.4,0.6
2025-03-23T1900,1119A,125.3325,43.9166,长春市,食品厂,细颗粒物(PM2.5),123,94,152,93,151,138,,184,182,36,36,13,15,0.8,0.8
2025-03-23T1900,1120A,125.2863,43.9027,长春市,客车厂,细颗粒物(PM2.5),152,,115,116,134,125,,169,169,46,38,14,12,0.9,0.8
2025-03-23T1900,1121A,125.2841,43.8463,长春市,邮电学院,细颗粒物(PM2.5),175,,117,132,108,144,,178,178,36,25,17,13,0.9,0.7
2025-03-23T1900,1122A,125.3716,43.8772,长春市,劳动公园,细颗粒物(PM2.5),127,129,126,96,116,124,,180,180,33,29,11,14,0.7,0.7
2025-03-23T1900,1123A,125.3297,43.8805,长春市,园林处,细颗粒物(PM2.5),130,,122,99,112,138,,176,176,32,30,12,14,0.7,0.7
2025-03-23T1900,1124A,125.4605,43.79,长春市,净月潭,细颗粒物(PM2.5),139,,144,106,121,140,,184,181,22,22,13,13,0.7,0.7
2025-03-23T1900,1126A,125.3863,43.8447,长春市,经开区环卫处,细颗粒物(PM2.5),118,100,123,89,104,125,,169,168,27,32,11,11,0.7,0.7
2025-03-23T1900,1127A,125.245,43.7783,长春市,高新区管委会,细颗粒物(PM2.5),232,,123,182,118,116,,167,163,46,32,17,13,1.1,0.7
2025-03-23T1900,1128A,125.1761,43.8325,长春市,岱山公园,细颗粒物(PM2.5),236,197,109,186,101,82,,174,168,93,38,16,10,1.2,0.8
2025-03-23T1900,1335A,113.0833,28.2325,长沙市,经开区环保局,细颗粒物(PM2.5),78,95,96,57,58,51,,51,51,60,74,7,10,0.8,0.8
2025-03-23T1900,1336A,112.8872,28.2189,长沙市,高开区环保局,细颗粒物(PM2.5),69,82,109,50,60,69,,64,64,37,68,7,7,0.5,0.9
2025-03-23T1900,1337A,113.0792,28.2053,长沙市,马坡岭,细颗粒物(PM2.5),84,102,110,62,61,41,,59,57,62,69,7,10,0.7,0.6
2025-03-23T1900,1338A,112.9394,28.19,长沙市,湖南师范大学,细颗粒物(PM2.5),69,79,91,50,55,55,,61,61,37,50,7,8,0.9,1
2025-03-23T1900,1339A,113.0178,28.1322,长沙市,雨花区环保局,细颗粒物(PM2.5),74,86,107,54,60,61,,54,54,50,86,8,9,0.7,0.9
2025-03-23T1900,1340A,112.9792,28.2597,长沙市,伍家岭,细颗粒物(PM2.5),75,98,134,55,62,41,,48,48,56,73,5,5,0.9,0.9
2025-03-23T1900,1341A,113.0014,28.1944,长沙市,火车新站,细颗粒物(PM2.5),77,82,126,56,70,63,,60,60,45,84,8,9,0.7,1.3
2025-03-23T1900,1342A,112.9844,28.1178,长沙市,天心区环保局,细颗粒物(PM2.5),80,79,106,59,62,64,,64,64,48,80,6,8,0.8,1.2
2025-03-23T1900,1343A,112.8908,28.1308,长沙市,湖南中医药大学,细颗粒物(PM2.5),83,82,94,61,53,33,,59,59,61,68,6,6,0.5,0.7
2025-03-23T1900,1344A,112.9581,28.3611,长沙市,沙坪,细颗粒物(PM2.5),64,68,56,46,44,51,,55,55,26,25,9,9,0.9,0.8
2025-03-23T1900,1727A,113.1147,36.1547,长治市,清华站,颗粒物(PM10),108,165,114,39,35,100,,108,108,10,22,1,5,0.2,0.3
2025-03-23T1900,1730A,113.0886,36.2125,长治市,审计局,颗粒物(PM10),106,162,116,36,36,98,,108,108,17,27,5,8,0.2,0.3
2025-03-23T1900,1731A,113.0844,36.1856,长治市,长治八中,颗粒物(PM10),123,196,143,55,46,100,,110,110,13,25,7,8,0.7,0.8
2025-03-23T1900,2845A,113.1569,36.1911,长治市,德盛苑,颗粒物(PM10),116,182,107,44,35,102,,109,109,11,17,2,6,0.2,0.3
2025-03-23T1900,3568A,113.06,36.0464,长治市,向阳小学,颗粒物(PM10),106,162,139,46,44,93,,101,101,17,24,8,11,0.2,0.3
2025-03-23T1900,3569A,112.8792,36.3144,长治市,屯留一中,颗粒物(PM10),90,129,106,30,28,97,,108,108,18,25,8,8,0.6,0.6
2025-03-23T1900,4189A,113.1131,36.19948,长治市,英华南巷50号,颗粒物(PM10),116,182,129,41,38,100,,111,111,15,23,8,13,0.3,0.5
2025-03-23T1900,4190A,113.2367,36.3344,长治市,学府街1号,颗粒物(PM10),137,224,150,48,42,101,,114,114,8,17,9,15,0.9,0.6
2025-03-23T1900,1854A,111.6975,28.9703,常德市,市二中,,50,50,57,35,44,82,,69,69,18,21,4,5,0.5,0.6
2025-03-23T1900,3138A,111.7153,29.0289,常德市,武陵区永安,细颗粒物(PM2.5),53,52,54,37,37,88,,80,80,10,14,4,5,0.5,0.5
2025-03-23T1900,3139A,111.6892,28.9881,常德市,鼎城区玉霞,细颗粒物(PM2.5),52,49,67,36,41,90,,80,80,13,27,5,5,0.6,0.6
2025-03-23T1900,3140A,111.6625,29.0531,常德市,武陵区长庚,,49,48,58,34,39,94,,80,80,6,12,4,6,0.5,0.5
2025-03-23T1900,1196A,119.9633,31.762,常州市,市监测站,颗粒物(PM10),60,70,84,35,43,104,,135,133,20,53,6,13,0.7,0.9
2025-03-23T1900,1200A,119.9468,31.7069,常州市,武进监测站,颗粒物(PM10),58,66,72,35,42,108,,137,135,25,47,11,21,0.8,0.8
2025-03-23T1900,1201A,119.9255,31.9087,常州市,安家,,,86,101,46,51,,,136,136,37,68,11,24,0.8,0.7
2025-03-23T1900,3002A,119.9805,31.8174,常州市,行政中心,颗粒物(PM10),53,56,63,28,37,104,,134,132,24,35,14,18,0.5,0.6
2025-03-23T1900,3003A,120.0522,31.7748,常州市,经开区,颗粒物(PM10),61,71,78,27,37,119,,150,149,21,44,10,18,0.5,0.7
2025-03-23T1900,3010A,119.9025,31.7964,常州市,钟楼,颗粒物(PM10),62,74,81,33,40,94,,138,133,32,44,8,13,0.8,0.9
2025-03-23T1900,3429A,119.8598,31.7066,常州市,武进经发区,颗粒物(PM10),62,73,84,39,44,111,,139,136,23,44,9,20,0.9,1
2025-03-23T1900,3430A,119.5826,31.7245,常州市,金坛城区,颗粒物(PM10),62,74,79,41,46,104,,139,136,28,30,10,16,0.9,0.7
2025-03-23T1900,2220A,120.4318,41.5881,朝阳市,西梁,颗粒物(PM10),72,94,89,34,42,83,,100,100,20,36,13,17,0.6,0.9
2025-03-23T1900,2221A,120.4521,41.5646,朝阳市,河畔小区,颗粒物(PM10),69,87,81,27,32,96,,104,104,13,28,8,11,0.5,0.7
2025-03-23T1900,2222A,120.4176,41.5648,朝阳市,八里堡,颗粒物(PM10),77,103,87,37,37,77,,91,91,21,31,10,11,0.5,0.7
2025-03-23T1900,2223A,120.3806,41.5969,朝阳市,农业园区,细颗粒物(PM2.5),100,104,89,75,46,95,,102,102,17,33,14,14,0.7,0.8
2025-03-23T1900,1705A,116.6367,23.6719,潮州市,西园路,细颗粒物(PM2.5),64,76,67,46,40,133,,182,182,29,25,6,6,0.4,0.4
2025-03-23T1900,3026A,116.6183,23.6608,潮州市,市政府,细颗粒物(PM2.5),67,80,71,48,38,121,,175,175,35,38,6,10,0.7,0.6
2025-03-23T1900,4036A,116.6461,23.6761,潮州市,金山,细颗粒物(PM2.5),68,63,61,49,36,138,,188,188,26,25,10,9,0.6,0.6
2025-03-23T1900,2472A,113.0073,25.9061,郴州市,马头岭,颗粒物(PM10),63,75,55,37,25,130,,141,141,18,17,14,13,0.7,0.5
2025-03-23T1900,2473A,113.0116,25.8226,郴州市,市职中,细颗粒物(PM2.5),69,78,75,50,43,128,,168,166,35,38,11,11,0.6,0.6
2025-03-23T1900,2475A,113.0383,25.8071,郴州市,市审计局,细颗粒物(PM2.5),70,68,62,51,38,157,,164,164,16,34,10,8,0.6,0.6
2025-03-23T1900,2476A,113.0348,25.7759,郴州市,市环保局,细颗粒物(PM2.5),72,80,65,52,39,139,,151,151,19,33,10,9,0.6,0.6
2025-03-23T1900,4252A,113.0138,25.8011,郴州市,好美居路49号,细颗粒物(PM2.5),75,75,80,55,43,139,,163,163,22,40,12,10,0.7,0.7
2025-03-23T1900,1431A,103.9728,30.7236,成都市,金泉两河,,46,46,85,29,40,91,,107,107,23,42,4,2,0.6,0.9
2025-03-23T1900,1432A,104.176,30.6872,成都市,十里店,颗粒物(PM10),57,64,76,30,45,104,,96,96,31,60,4,5,0.4,0.7
2025-03-23T1900,1433A,104.079,30.5706,成都市,三瓦窑,颗粒物(PM10),57,64,79,33,44,109,,95,95,25,57,5,7,0.6,0.9
2025-03-23T1900,1434A,104.1114,30.63,成都市,沙河铺,颗粒物(PM10),58,66,75,38,52,95,,86,86,22,45,6,6,0.5,0.8
2025-03-23T1900,1437A,104.0786,30.6531,成都市,君平街,细颗粒物(PM2.5),60,61,75,43,48,92,,85,85,25,54,8,8,0.6,0.9
2025-03-23T1900,2880A,104.0239,30.65639,成都市,大石西路,颗粒物(PM10),62,74,82,29,47,105,,95,95,26,52,6,5,0.6,1
2025-03-23T1900,3136A,104.2725,30.5589,成都市,龙泉驿区区政府,颗粒物(PM10),52,53,58,22,37,111,,98,98,20,24,5,5,0.6,0.7
2025-03-23T1900,3357A,104.0106,30.6931,成都市,金博路,,,,83,,45,,,28,,,61,,7,,1
2025-03-23T1900,3359A,104.0578,30.5225,成都市,华阳,颗粒物(PM10),53,56,73,29,53,105,,90,90,22,49,7,7,0.5,0.8
2025-03-23T1900,3488A,104.3853,30.7453,成都市,青白江技师分院,颗粒物(PM10),60,70,65,30,39,107,,106,106,27,43,8,7,0.5,0.6
2025-03-23T1900,3489A,104.0789,30.4072,成都市,科学城,,35,34,66,18,48,112,,96,96,11,35,4,6,0.5,0.7
2025-03-23T1900,4011A,103.8506,30.6947,成都市,光华大道三段,颗粒物(PM10),59,67,82,23,47,101,,110,110,29,48,6,5,0.6,0.9
2025-03-23T1900,4224A,104.2433,30.5353,成都市,鲸龙路1057号,,37,37,66,20,44,112,,98,98,17,34,4,5,0.7,0.8
2025-03-23T1900,1062A,117.9531,40.9081,承德市,铁路,颗粒物(PM10),118,186,84,62,22,87,,92,92,27,21,7,7,0.3,0.4
2025-03-23T1900,1063A,117.9392,40.9763,承德市,中国银行,颗粒物(PM10),121,191,95,62,24,103,,103,103,12,19,4,4,0.3,0.3
2025-03-23T1900,1064A,117.9503,40.928,承德市,开发区,颗粒物(PM10),104,157,86,41,25,111,,103,103,7,24,8,8,0.2,0.4
2025-03-23T1900,1065A,117.8051,40.9655,承德市,文化中心,颗粒物(PM10),132,213,122,62,27,93,,104,104,21,29,8,5,0.6,0.4
2025-03-23T1900,1066A,117.9268,41.0026,承德市,离宫,颗粒物(PM10),110,169,89,49,27,79,,89,89,5,12,8,6,0.5,0.3
2025-03-23T1900,2314A,117.47,30.6618,池州市,池州学院,细颗粒物(PM2.5),63,70,69,45,42,94,,75,75,26,32,7,14,0.6,0.9
2025-03-23T1900,3237A,117.4918,30.6617,池州市,展览馆,颗粒物(PM10),62,74,67,41,38,81,,75,75,36,34,6,11,0.6,0.9
2025-03-23T1900,3333A,117.5627,30.695,池州市,第八中学,颗粒物(PM10),54,58,65,35,36,111,,90,90,15,27,7,11,0.4,0.6
2025-03-23T1900,3334A,117.5038,30.6243,池州市,第十二中学,细颗粒物(PM2.5),72,76,65,52,37,67,,76,76,43,29,8,9,0.7,0.7
2025-03-23T1900,1744A,118.9233,42.2816,赤峰市,松山一中,颗粒物(PM10),99,148,96,37,28,74,,94,92,35,33,9,10,0.6,0.6
2025-03-23T1900,1745A,118.9576,42.2728,赤峰市,哈达街,颗粒物(PM10),98,145,93,38,27,87,,93,92,21,19,11,13,0.7,0.7
2025-03-23T1900,1746A,118.8788,42.2554,赤峰市,天义路,颗粒物(PM10),96,141,91,49,38,78,,87,86,22,20,7,7,0.4,0.4
2025-03-23T1900,3058A,119.2658,42.0353,赤峰市,银河街,颗粒物(PM10),102,153,108,30,50,83,,94,93,17,28,15,19,0.5,0.8
2025-03-23T1900,3286A,118.9359,42.3147,赤峰市,桥北物流园区,颗粒物(PM10),104,157,94,64,35,64,,84,82,38,32,7,7,0.4,0.5
2025-03-23T1900,2521A,107.3476,22.4136,崇左市,市环保局江州分局,颗粒物(PM10),58,66,74,36,45,137,,151,150,67,32,7,8,0.6,0.6
2025-03-23T1900,4256A,107.3750,22.3736,崇左市,石景林东路7号,细颗粒物(PM2.5),62,51,54,44,39,155,,168,168,22,18,6,6,0.5,0.5
2025-03-23T1900,2298A,118.3093,32.3153,滁州市,老年大学,颗粒物(PM10),57,63,65,32,36,115,,135,131,18,29,7,6,0.6,0.6
2025-03-23T1900,2299A,118.3244,32.2786,滁州市,人大宾馆,颗粒物(PM10),56,61,71,35,36,111,,127,127,22,27,9,10,0.5,0.5
2025-03-23T1900,3207A,118.3118,32.3038,滁州市,市政府原办公楼,,50,50,62,29,36,113,,132,130,16,28,6,6,0.4,0.4
2025-03-23T1900,3331A,118.3267,32.2634,滁州市,图书馆,细颗粒物(PM2.5),53,54,63,37,34,108,,127,126,19,21,8,9,0.4,0.4
2025-03-23T1900,2605A,101.5482,25.0441,楚雄彝族自治州,州环境监测站,,34,24,46,17,41,108,,110,110,11,22,7,8,0.6,0.7
2025-03-23T1900,2606A,101.538,25.0492,楚雄彝族自治州,市经济开发区,,34,22,46,19,39,107,,111,111,12,18,6,7,0.7,0.7
2025-03-23T1900,2548A,107.5277,31.2827,达州市,达州职业技术学院,颗粒物(PM10),68,86,107,40,62,118,,119,119,28,35,8,9,0.3,0.8
2025-03-23T1900,2549A,107.5086,31.2186,达州市,市环境监测站,颗粒物(PM10),65,79,106,36,62,135,,123,123,26,48,7,10,0.7,1.5
2025-03-23T1900,2550A,107.4988,31.2132,达州市,凤凰小区,细颗粒物(PM2.5),64,75,105,46,66,131,,120,120,24,46,9,12,0.5,1.2
2025-03-23T1900,2551A,107.5082,31.1986,达州市,达县机关宾馆,颗粒物(PM10),67,83,99,32,62,98,,108,108,53,46,6,8,0.8,0.9
2025-03-23T1900,2552A,107.4644,31.2124,达州市,市政中心,颗粒物(PM10),71,91,118,39,67,127,,122,122,32,47,7,11,0.5,1
2025-03-23T1900,2614A,100.1542,25.7054,大理白族自治州,大理市环境监测站,,39,,40,27,38,90,,101,92,12,10,6,7,0.7,0.7
2025-03-23T1900,2615A,100.2171,25.5811,大理白族自治州,大理古城,,,,34,,32,,,112,104,18,9,7,7,0.7,0.7
2025-03-23T1900,1109A,121.612,38.9741,大连市,甘井子,颗粒物(PM10),89,127,97,65,51,77,,91,91,62,50,11,12,1.2,1.2
2025-03-23T1900,1110A,121.565,38.9511,大连市,周水子,颗粒物(PM10),86,122,99,58,53,74,,84,84,63,56,16,12,1.0,0.7
2025-03-23T1900,1111A,121.5637,38.8845,大连市,星海三站,细颗粒物(PM2.5),100,133,85,75,46,127,,114,114,27,24,9,10,0.9,0.8
2025-03-23T1900,1112A,121.6302,38.9117,大连市,青泥洼桥,颗粒物(PM10),96,141,98,58,46,111,,107,107,40,35,20,14,0.6,0.6
2025-03-23T1900,1113A,121.6251,38.8638,大连市,傅家庄,细颗粒物(PM2.5),103,139,90,77,49,131,,120,120,39,33,12,12,0.7,0.6
2025-03-23T1900,1114A,121.5213,38.8661,大连市,七贤岭,颗粒物(PM10),106,161,103,61,40,104,,105,105,29,23,9,11,0.7,0.6
2025-03-23T1900,1115A,121.2529,38.8061,大连市,旅顺,颗粒物(PM10),91,131,95,54,44,83,,94,94,48,42,11,9,0.6,0.5
2025-03-23T1900,1116A,121.7485,39.1311,大连市,金州,颗粒物(PM10),97,144,124,58,52,93,,105,105,50,41,22,14,1.0,0.9
2025-03-23T1900,1117A,121.7811,39.0496,大连市,开发区,细颗粒物(PM2.5),97,133,117,72,57,30,,85,80,85,49,10,13,0.9,0.8
2025-03-23T1900,1118A,121.9762,39.0631,大连市,双D港,细颗粒物(PM2.5),84,99,97,62,55,66,,105,102,33,34,6,9,0.8,0.9
2025-03-23T1900,1789A,124.81117,46.03138,大庆市,大同区,细颗粒物(PM2.5),500,574,138,506,111,143,,175,175,68,29,24,11,2.3,0.9
2025-03-23T1900,1790A,125.129,46.533,大庆市,龙凤区,细颗粒物(PM2.5),224,240,72,174,47,118,,124,124,46,21,16,8,1.1,0.5
2025-03-23T1900,1791A,124.902,46.408,大庆市,红岗区,细颗粒物(PM2.5),426,449,115,388,98,154,,168,168,51,19,17,8,1.8,0.7
2025-03-23T1900,1792A,125.153,46.586,大庆市,萨尔图区,细颗粒物(PM2.5),211,193,66,161,40,116,,119,119,32,14,14,9,0.8,0.3
2025-03-23T1900,1793A,124.9042,46.6215,大庆市,让胡路区,细颗粒物(PM2.5),298,316,79,248,61,149,,140,140,39,21,19,11,1.1,0.5
2025-03-23T1900,3481A,125.141,46.634,大庆市,萨区政府监测点,细颗粒物(PM2.5),180,249,67,136,32,124,,126,126,29,12,15,8,0.8,0.4
2025-03-23T1900,1723A,113.2994,40.0758,大同市,云冈宾馆,颗粒物(PM10),240,378,254,64,47,102,,99,99,14,24,8,12,0.5,0.6
2025-03-23T1900,1724A,113.3444,40.0917,大同市,大同大学,颗粒物(PM10),180,310,235,75,59,104,,99,99,7,21,12,16,0.3,0.6
2025-03-23T1900,1725A,113.2661,40.1269,大同市,安家小村,颗粒物(PM10),195,340,291,92,66,105,,99,99,5,16,8,12,0.2,0.8
2025-03-23T1900,1726A,113.2711,40.0844,大同市,教育学院,颗粒物(PM10),193,336,269,83,64,104,,101,101,13,20,8,12,0.4,0.5
2025-03-23T1900,3282A,113.3397,40.0597,大同市,大同市卫生学校,颗粒物(PM10),189,327,260,75,63,98,,94,94,13,39,7,10,0.3,0.5
2025-03-23T1900,3565A,113.1367,40.1122,大同市,云冈站,颗粒物(PM10),191,331,255,87,67,99,,97,97,9,21,11,20,0.3,0.4
2025-03-23T1900,3566A,113.1186,40.2556,大同市,图书馆,颗粒物(PM10),208,355,232,74,61,91,,96,96,7,11,8,10,0.5,0.6
2025-03-23T1900,3567A,113.5931,40.0461,大同市,区一中,颗粒物(PM10),255,388,280,26,29,101,,97,97,12,23,16,27,0.4,0.5
2025-03-23T1900,4199A,113.2798,40.0997,大同市,魏都大道141号,颗粒物(PM10),187,323,258,66,57,104,,102,102,13,24,12,15,0.4,0.5
2025-03-23T1900,2269A,124.1069,50.4097,大兴安岭地区,科技局,,26,20,22,13,16,81,,81,81,5,7,6,8,0.3,0.3
2025-03-23T1900,3663A,124.1164,50.4278,大兴安岭地区,红旗社区,,25,19,18,11,8,78,,84,84,13,10,22,8,0.4,0.4
2025-03-23T1900,1600A,124.3303,40.0625,丹东市,江湾东路,细颗粒物(PM2.5),97,123,127,72,80,122,,133,133,31,35,34,16,0.7,1.4
2025-03-23T1900,1601A,124.4256,40.1503,丹东市,临江后街,颗粒物(PM10),94,138,129,64,68,126,,128,128,20,32,13,13,0.9,1.2
2025-03-23T1900,1602A,124.3933,40.1461,丹东市,元宝山,细颗粒物(PM2.5),84,113,110,62,63,124,,127,127,25,29,9,10,0.6,0.9
2025-03-23T1900,1603A,124.3633,40.1092,丹东市,民主桥,"颗粒物(PM10),细颗粒物(PM2.5)",85,119,114,63,70,126,,133,133,22,40,10,11,0.7,1
2025-03-23T1900,3541A,109.5726,19.5167,儋州市,第一中学子站,,45,45,37,25,21,122,,124,124,11,9,5,5,0.6,0.6
2025-03-23T1900,3542A,109.5567,19.5187,儋州市,东坡学校子站,,42,38,36,25,20,132,,136,136,9,7,6,5,0.6,0.6
2025-03-23T1900,2616A,98.5842,24.428,德宏傣族景颇族自治州,德宏州监测站,细颗粒物(PM2.5),59,52,82,42,64,117,,90,90,16,28,11,8,0.7,0.9
2025-03-23T1900,3677A,98.5881,24.4368,德宏傣族景颇族自治州,芒市人民政府综合楼,颗粒物(PM10),70,90,89,40,61,121,,95,95,14,19,8,8,0.6,0.7
2025-03-23T1900,1901A,104.4239,31.1208,德阳市,东山公园,颗粒物(PM10),61,71,102,31,67,99,,110,110,26,47,4,6,0.4,0.7
2025-03-23T1900,1902A,104.3826,31.1317,德阳市,西小区,颗粒物(PM10),63,75,103,31,59,101,,109,109,26,44,5,7,0.6,0.8
2025-03-23T1900,1904A,104.3553,31.1091,德阳市,耐火材料厂,颗粒物(PM10),62,73,111,32,77,101,,117,117,25,57,6,9,0.4,0.7
2025-03-23T1900,3639A,104.4019,31.1244,德阳市,市教育局,颗粒物(PM10),57,64,95,30,72,101,,115,115,27,56,5,7,0.5,0.8
2025-03-23T1900,1622A,116.3032,37.4674,德州市,儿童乐园,颗粒物(PM10),120,190,153,41,39,103,,106,106,18,29,7,18,0.6,0.7
2025-03-23T1900,1624A,116.2991,37.4451,德州市,监理站,颗粒物(PM10),129,207,148,48,40,93,,106,106,29,33,22,24,0.7,0.6
2025-03-23T1900,3066A,116.2721,37.4379,德州市,九衢泉纯净水厂,颗粒物(PM10),119,188,141,41,39,86,,101,101,30,43,11,13,0.6,0.7
2025-03-23T1900,3371A,116.3728,37.4403,德州市,开发区人民医院,颗粒物(PM10),122,193,143,44,40,106,,108,108,21,28,7,12,0.4,0.4
2025-03-23T1900,3372A,116.3572,37.4094,德州市,太阳城中学,颗粒物(PM10),124,197,146,44,40,88,,103,103,33,34,7,9,0.4,0.5
2025-03-23T1900,3511A,116.5652,37.3319,德州市,陵城艺术中心,颗粒物(PM10),119,188,139,44,41,90,,98,98,33,38,8,9,0.6,0.6
2025-03-23T1900,2621A,99.7056,27.8317,迪庆藏族自治州,迪庆州站,,34,34,20,17,12,96,,109,105,13,9,8,8,0.4,0.4
2025-03-23T1900,3180A,99.7136,27.8094,迪庆藏族自治州,质量技术监督局,,32,24,20,15,11,102,,113,109,11,8,9,9,0.6,0.5
2025-03-23T1900,4257A,104.6092,35.5962,定西市,将台街,,43,43,80,13,32,105,,108,108,10,20,9,9,0.4,0.6
2025-03-23T1900,4309A,104.6159,35.5701,定西市,正龙路62号,颗粒物(PM10),52,53,84,20,36,115,,115,115,3,7,8,9,0.2,0.3
2025-03-23T1900,1389A,113.7547,23.0494,东莞市,莞城梨川,臭氧1小时,90,58,73,29,42,192,,217,217,29,42,6,6,0.7,0.7
2025-03-23T1900,1390A,113.7944,23.0128,东莞市,东城石井,臭氧1小时,103,46,61,21,34,206,,232,232,25,36,7,7,0.6,0.6
2025-03-23T1900,1391A,113.7383,22.9658,东莞市,南城西平,臭氧1小时,57,41,60,16,30,165,,205,205,22,45,6,7,0.6,0.7
2025-03-23T1900,3319A,113.7338,23.0381,东莞市,万江金泰,臭氧1小时,102,48,62,22,33,204,,232,232,22,36,6,7,0.7,0.7
2025-03-23T1900,3626A,113.7533,23.0202,东莞市,南城元岭,臭氧1小时,80,50,65,21,36,184,,209,209,25,40,7,7,0.5,0.6
2025-03-23T1900,3627A,113.7875,23.0457,东莞市,东城主山,臭氧1小时,95,62,82,26,41,196,,209,209,34,54,10,9,0.6,0.6
2025-03-23T1900,1666A,118.6614,37.4309,东营市,市环保局,颗粒物(PM10),128,205,131,46,40,60,,87,86,50,39,14,10,0.6,0.6
2025-03-23T1900,3036A,118.6904,37.4338,东营市,开发区管委会,颗粒物(PM10),136,222,140,61,44,53,,82,81,62,48,13,10,0.7,0.7
2025-03-23T1900,3365A,118.5719,37.565,东营市,垦利区民丰路,颗粒物(PM10),131,212,137,63,41,70,,96,95,41,34,10,6,0.5,0.6
2025-03-23T1900,3498A,118.5055,37.8612,东营市,河口城区,颗粒物(PM10),135,219,142,61,38,67,,95,95,41,29,30,10,1.0,0.9
2025-03-23T1900,3646A,118.4978,37.4623,东营市,胜利站,颗粒物(PM10),135,219,132,61,41,61,,84,84,51,41,12,14,0.9,1
2025-03-23T1900,3734A,118.35,37.26,东营市,理想之城,颗粒物(PM10),133,215,137,63,45,44,,88,85,53,39,10,10,0.6,0.6
2025-03-23T1900,1591A,110.0023,39.8129,鄂尔多斯市,综合楼,颗粒物(PM10),500,708,405,144,78,96,,100,100,16,13,5,8,0.3,0.3
2025-03-23T1900,1592A,109.9486,39.8261,鄂尔多斯市,巴音孟克林场办事处,颗粒物(PM10),500,644,390,139,81,100,,103,103,11,9,6,12,0.4,0.4
2025-03-23T1900,1593A,109.7736,39.5986,鄂尔多斯市,康泽苑,颗粒物(PM10),500,793,391,175,80,103,,102,102,6,9,2,4,0.2,0.3
2025-03-23T1900,1594A,109.8119,39.5989,鄂尔多斯市,华泰汽车城,颗粒物(PM10),500,801,376,180,83,99,,100,100,9,13,3,4,0.3,0.3
2025-03-23T1900,1595A,109.9734,39.7884,鄂尔多斯市,奥林花园,颗粒物(PM10),500,696,366,132,68,101,,100,100,13,19,4,9,0.2,0.3
2025-03-23T1900,2436A,114.8938,30.3994,鄂州市,市政府,细颗粒物(PM2.5),108,114,106,81,69,,,52,52,54,51,10,15,1.4,1.2
2025-03-23T1900,2437A,114.8989,30.3714,鄂州市,赵家坝,细颗粒物(PM2.5),112,112,88,84,50,41,,62,50,55,41,9,11,1.3,1.2
2025-03-23T1900,3654A,114.8094,30.4089,鄂州市,精准医疗中心,细颗粒物(PM2.5),68,81,103,49,55,76,,68,68,38,52,6,7,1.0,1
2025-03-23T1900,2454A,109.4978,30.2981,恩施土家族苗族自治州,湖北民院,细颗粒物(PM2.5),52,44,52,36,48,105,,91,91,21,23,2,2,0.3,0.4
2025-03-23T1900,2455A,109.4707,30.2798,恩施土家族苗族自治州,州电力总公司,细颗粒物(PM2.5),52,51,50,36,41,95,,85,85,16,21,5,4,0.2,0.3
2025-03-23T1900,3549A,109.5061,30.3772,恩施土家族苗族自治州,龙凤新区,,46,46,52,26,40,82,,81,81,21,18,6,6,0.5,0.6
2025-03-23T1900,2499A,108.3411,21.6158,防城港市,沙万,颗粒物(PM10),53,55,50,34,32,93,,104,104,27,22,8,10,0.3,0.3
2025-03-23T1900,2500A,108.3514,21.7731,防城港市,防城档案局,颗粒物(PM10),56,61,79,35,42,99,,117,117,26,29,4,4,0.5,0.6
2025-03-23T1900,2501A,108.3506,21.6414,防城港市,大海花园,颗粒物(PM10),60,69,53,30,31,102,,110,110,19,16,6,9,0.6,0.7
2025-03-23T1900,1371A,113.1294,23.0067,佛山市,湾梁,臭氧1小时,103,85,78,27,29,206,,229,229,36,43,8,9,0.7,0.8
2025-03-23T1900,1372A,113.1083,23.0478,佛山市,华材职中,臭氧1小时,112,73,73,34,38,224,,239,239,36,42,7,7,0.5,0.6
2025-03-23T1900,1373A,113.144,23.0453,佛山市,南海气象局,臭氧1小时,99,106,74,46,40,199,,232,232,37,41,6,7,0.6,0.6
2025-03-23T1900,1374A,113.2881,22.8094,佛山市,顺德苏岗,颗粒物(PM10),70,89,71,34,34,147,,204,204,35,34,7,10,0.8,0.9
2025-03-23T1900,1376A,112.8383,22.8678,佛山市,高明孔堂,颗粒物(PM10),52,53,55,25,36,159,,191,191,12,19,7,7,0.3,0.4
2025-03-23T1900,1377A,112.8836,23.1588,佛山市,三水监测站,颗粒物(PM10),67,83,106,36,54,137,,155,155,57,80,2,5,0.6,0.6
2025-03-23T1900,1378A,112.867,23.185,佛山市,三水云东海,颗粒物(PM10),64,78,77,22,45,125,,190,190,48,62,3,9,0.6,0.6
2025-03-23T1900,3625A,113.2544,22.7642,佛山市,容桂街道办,颗粒物(PM10),63,75,70,34,38,147,,195,195,38,46,8,12,0.6,0.7
2025-03-23T1900,1282A,119.2681,26.0504,福州市,师大,臭氧1小时,83,84,62,59,39,186,,190,190,28,26,7,6,0.4,0.4
2025-03-23T1900,1283A,119.2984,26.1028,福州市,五四北路,臭氧1小时,75,69,56,54,37,180,,184,184,32,33,7,6,0.6,0.6
2025-03-23T1900,1284A,119.2648,26.0768,福州市,杨桥西路,细颗粒物(PM2.5),78,88,68,57,41,179,,185,185,32,32,7,6,0.5,0.5
2025-03-23T1900,1285A,119.317,26.0746,福州市,紫阳,细颗粒物(PM2.5),72,80,71,52,41,172,,165,165,32,46,6,6,0.5,0.5
2025-03-23T1900,3048A,119.5799,26.0936,福州市,九龙,,46,46,48,28,33,139,,154,154,20,24,5,5,0.3,0.3
2025-03-23T1900,3526A,119.5189,25.9664,福州市,吴航,颗粒物(PM10),55,60,57,32,33,156,,177,177,28,34,7,7,0.5,0.6
2025-03-23T1900,1755A,123.7977,41.8491,抚顺市,望花区,细颗粒物(PM2.5),104,151,230,78,157,123,,171,170,37,54,21,20,0.9,1.3
2025-03-23T1900,1756A,123.9161,41.8822,抚顺市,顺城区,颗粒物(PM10),100,150,212,67,141,114,,180,174,44,58,23,18,1.1,1.2
2025-03-23T1900,1757A,124.0436,41.8611,抚顺市,东洲区,细颗粒物(PM2.5),109,164,172,82,125,108,,164,159,47,31,29,12,1.6,1
2025-03-23T1900,1758A,123.9247,41.8642,抚顺市,新抚区,,,,214,,161,113,,169,164,40,51,17,12,1.1,1.3
2025-03-23T1900,1759A,124.0972,41.8961,抚顺市,大伙房水库,细颗粒物(PM2.5),109,156,155,82,129,121,,165,162,32,26,24,13,1.6,1.1
2025-03-23T1900,1760A,123.7086,41.8391,抚顺市,沈抚新城,细颗粒物(PM2.5),94,110,211,70,152,123,,175,173,36,57,15,25,1.0,1.9
2025-03-23T1900,2376A,116.2127,28.0814,抚州市,桐源党溪,,50,50,50,22,24,92,,112,112,3,13,7,9,0.3,0.3
2025-03-23T1900,2377A,116.3544,27.9831,抚州市,市站,颗粒物(PM10),59,68,57,30,27,92,,104,104,25,28,42,11,0.9,0.7
2025-03-23T1900,2378A,116.3565,27.963,抚州市,血防站,颗粒物(PM10),55,60,54,27,23,106,,111,111,15,27,19,10,0.9,0.7
2025-03-23T1900,2379A,116.3564,28.0007,抚州市,采茶剧团,颗粒物(PM10),54,58,53,33,26,80,,92,92,18,20,15,4,1.4,1
2025-03-23T1900,2380A,116.385,27.9647,抚州市,医学分院,颗粒物(PM10),57,64,59,28,23,78,,86,86,20,31,21,12,0.9,0.8
2025-03-23T1900,2207A,121.6094,41.998,阜新市,工业园区,颗粒物(PM10),81,112,172,49,141,93,,148,138,32,42,16,58,0.7,1.3
2025-03-23T1900,2208A,121.6697,42.0279,阜新市,长青街,颗粒物(PM10),69,87,164,33,136,94,,147,136,27,34,23,59,0.6,1
2025-03-23T1900,2209A,121.6673,42.0705,阜新市,农业园区,颗粒物(PM10),70,90,166,34,119,97,,147,139,21,26,15,104,0.6,1.3
2025-03-23T1900,2210A,121.6717,42.0224,阜新市,东苑,颗粒物(PM10),81,111,172,31,142,85,,141,129,34,39,19,58,0.6,1
2025-03-23T1900,2211A,121.6506,42.0498,阜新市,玉龙新城,颗粒物(PM10),78,105,161,35,125,94,,149,138,27,38,14,30,0.7,2.1
2025-03-23T1900,2301A,115.8277,32.8929,阜阳市,市监测站,细颗粒物(PM2.5),63,63,83,45,49,102,,110,110,19,30,8,9,0.5,0.6
2025-03-23T1900,2303A,115.8554,32.8605,阜阳市,开发区,,,90,107,47,51,98,,113,113,19,26,8,10,,0.4
2025-03-23T1900,2875A,115.784,32.8892,阜阳市,阜阳职业技术学院,颗粒物(PM10),63,76,86,43,41,93,,106,106,23,30,8,9,0.5,0.5
2025-03-23T1900,3468A,115.7901,32.8613,阜阳市,市规划展馆,细颗粒物(PM2.5),65,71,85,47,46,106,,117,117,18,20,8,9,0.5,0.4
2025-03-23T1900,3469A,115.836,32.9183,阜阳市,枣园社区,细颗粒物(PM2.5),64,73,91,46,48,109,,119,119,16,33,9,9,0.5,0.5
2025-03-23T1900,2669A,102.9099,34.9841,甘南藏族自治州,州政府,,36,36,66,17,24,89,,92,91,4,17,6,5,0.2,0.4
2025-03-23T1900,3380A,102.8914,34.9617,甘南藏族自治州,甘肃民族师范学院,,47,47,70,11,24,94,,98,97,2,16,7,7,0.2,0.3
2025-03-23T1900,2570A,101.9603,30.0475,甘孜藏族自治州,水桥子,颗粒物(PM10),57,63,21,15,11,77,,83,83,40,29,3,3,0.6,0.6
2025-03-23T1900,3065A,101.9533,29.9972,甘孜藏族自治州,州环保局,,36,36,25,10,8,82,,107,107,23,21,3,4,0.2,0.3
2025-03-23T1900,3414A,115.8347,28.932,赣江新区,桑海产业园,颗粒物(PM10),62,73,71,36,30,34,,65,63,59,55,14,16,0.4,0.4
2025-03-23T1900,2363A,114.9367,25.8664,赣州市,地委,颗粒物(PM10),56,61,57,30,28,131,,153,150,30,31,2,5,1.1,0.9
2025-03-23T1900,2364A,114.9461,25.8481,赣州市,气象台,颗粒物(PM10),55,60,59,28,26,156,,185,185,42,46,11,13,0.9,0.7
2025-03-23T1900,2365A,114.9322,25.8333,赣州市,市图书馆,,,68,60,32,29,,,170,170,48,45,6,8,0.8,0.8
2025-03-23T1900,2366A,114.8905,25.8471,赣州市,华坚鞋城,颗粒物(PM10),51,52,72,32,36,123,,170,170,62,50,11,19,0.9,0.8
2025-03-23T1900,3109A,115.0093,25.8613,赣州市,赣县区卫计委,颗粒物(PM10),59,68,53,39,29,137,,161,161,16,28,7,7,0.7,0.5
2025-03-23T1900,2683A,106.2319,36.1417,固原市,马园,颗粒物(PM10),73,95,174,21,38,96,,98,98,7,30,6,6,0.4,0.6
2025-03-23T1900,2684A,106.2792,36.0022,固原市,监测站,颗粒物(PM10),64,78,123,13,33,95,,98,98,11,22,7,8,0.2,0.4
2025-03-23T1900,2685A,106.2375,36.0211,固原市,新区,颗粒物(PM10),62,74,131,20,30,91,,96,96,11,22,7,7,0.4,0.5
2025-03-23T1900,3522A,106.2177,35.9959,固原市,原州区十五小,颗粒物(PM10),63,76,108,18,30,96,,98,98,10,13,7,7,0.2,0.2
2025-03-23T1900,2544A,106.6303,30.4576,广安市,市委,细颗粒物(PM2.5),74,66,114,54,97,127,,125,125,15,37,8,11,0.5,0.7
2025-03-23T1900,2545A,106.6271,30.4663,广安市,友谊中学,细颗粒物(PM2.5),69,71,118,50,85,133,,129,129,23,42,6,10,0.6,0.8
2025-03-23T1900,2547A,106.6388,30.4551,广安市,广电花园,细颗粒物(PM2.5),69,63,105,50,92,121,,120,120,22,38,7,10,0.5,0.7
2025-03-23T1900,2902A,106.6351,30.4865,广安市,北辰小学,细颗粒物(PM2.5),69,75,104,50,86,137,,135,135,21,37,9,10,0.5,0.7
2025-03-23T1900,2523A,105.8945,32.4535,广元市,黑石坡,颗粒物(PM10),56,62,68,23,30,113,,94,94,6,22,1,10,0.3,0.6
2025-03-23T1900,2524A,105.821,32.4444,广元市,老城,颗粒物(PM10),52,53,52,21,26,128,,104,104,10,38,3,5,0.5,0.7
2025-03-23T1900,2526A,105.8628,32.4287,广元市,监测站,,40,40,43,14,27,128,,106,106,8,23,5,8,0.3,0.5
2025-03-23T1900,3617A,105.8047,32.4166,广元市,经开区,颗粒物(PM10),59,67,64,35,41,121,,92,92,12,40,3,7,0.5,0.7
2025-03-23T1900,1345A,113.2347,23.1423,广州市,广雅中学,臭氧1小时,112,80,90,38,48,223,,234,234,33,61,5,7,0.6,0.6
2025-03-23T1900,1346A,113.2612,23.105,广州市,市五中,臭氧1小时,108,99,81,45,43,216,,206,206,34,51,4,6,0.6,0.6
2025-03-23T1900,1348A,113.3478,23.0916,广州市,广东商学院,臭氧1小时,82,64,80,30,42,185,,236,236,39,65,6,6,0.6,0.7
2025-03-23T1900,1349A,113.4332,23.1047,广州市,市八十六中,臭氧1小时,60,60,70,24,32,168,,232,232,62,76,5,6,0.5,0.5
2025-03-23T1900,1350A,113.3505,22.9483,广州市,番禺中学,臭氧1小时,58,62,76,22,37,166,,236,236,40,52,5,7,0.4,0.6
2025-03-23T1900,1351A,113.2146,23.3916,广州市,花都师范,臭氧1小时,112,69,123,36,64,224,,248,248,41,86,6,8,0.5,0.7
2025-03-23T1900,1352A,113.2597,23.1331,广州市,市监测站,臭氧1小时,107,85,75,39,36,214,,227,227,35,51,6,8,0.6,0.6
2025-03-23T1900,1353A,113.5618,23.312,广州市,九龙镇镇龙,臭氧1小时,117,93,98,44,53,234,,210,210,47,63,8,6,0.6,0.6
2025-03-23T1900,1354A,113.2765,23.1544,广州市,麓湖,臭氧1小时,112,73,79,39,42,223,,234,234,30,84,6,7,0.5,0.7
2025-03-23T1900,1355A,113.443,23.3035,广州市,帽峰山森林公园,臭氧1小时,120,64,63,16,16,239,,229,229,28,35,8,9,0.5,0.5
2025-03-23T1900,2846A,113.3221,23.1322,广州市,体育西,臭氧1小时,100,84,95,36,44,200,,236,236,32,53,6,6,0.6,0.7
2025-03-23T1900,3298A,113.5717,23.5491,广州市,从化街口,臭氧1小时,144,102,85,56,55,287,,278,278,37,44,10,9,0.7,0.8
2025-03-23T1900,3299A,113.3472,23.3692,广州市,白云竹料,臭氧1小时,119,107,122,51,61,238,,257,257,44,70,8,8,0.5,0.6
2025-03-23T1900,3300A,113.2981,23.237,广州市,白云嘉禾,臭氧1小时,109,78,88,37,44,218,,238,238,52,77,6,6,0.4,0.5
2025-03-23T1900,3301A,113.4256,23.1716,广州市,黄埔科学城,臭氧1小时,101,77,78,31,41,201,,243,243,56,64,9,8,0.4,0.6
2025-03-23T1900,3302A,113.3942,23.0483,广州市,番禺大学城,,,62,73,23,33,183,,252,252,45,56,9,11,,0.4
2025-03-23T1900,3303A,113.4922,22.8168,广州市,南沙黄阁,颗粒物(PM10),57,64,66,19,31,144,,188,188,29,38,5,6,0.5,0.6
2025-03-23T1900,3304A,113.5342,22.7896,广州市,南沙街,颗粒物(PM10),59,67,61,19,27,147,,184,184,28,33,4,5,0.5,0.6
2025-03-23T1900,3443A,113.2902,23.5544,广州市,花都梯面,,,98,89,49,51,151,,249,249,53,71,8,7,,0.8
2025-03-23T1900,3445A,113.7858,23.7478,广州市,从化良口,臭氧1小时,121,75,53,48,37,242,,236,236,23,18,9,8,0.5,0.5
2025-03-23T1900,3446A,113.8051,23.2614,广州市,增城荔城,臭氧1小时,120,70,81,36,49,240,,248,248,26,34,9,10,0.7,0.7
2025-03-23T1900,2506A,109.6047,23.0666,贵港市,江南子站,臭氧1小时,70,73,111,39,68,176,,181,181,19,31,6,8,0.8,1
2025-03-23T1900,2507A,109.6014,23.0948,贵港市,贵城子站,颗粒物(PM10),62,74,100,42,63,168,,175,175,20,31,9,11,0.8,0.9
2025-03-23T1900,2508A,109.5669,23.1065,贵港市,荷城子站,颗粒物(PM10),70,90,105,44,68,125,,149,149,34,38,11,13,0.8,0.8
2025-03-23T1900,3405A,109.5886,23.1172,贵港市,新世纪学校,颗粒物(PM10),63,75,102,43,67,156,,168,168,20,34,8,7,0.6,0.7
2025-03-23T1900,1439A,106.6899,26.5998,贵阳市,马鞍山,,44,44,56,27,31,105,,114,114,10,10,6,8,0.3,0.4
2025-03-23T1900,1441A,106.6243,26.6266,贵阳市,鉴湖路,颗粒物(PM10),56,61,63,24,30,105,,106,106,9,10,7,9,0.4,0.4
2025-03-23T1900,1442A,106.7487,26.6343,贵阳市,燕子冲,颗粒物(PM10),54,58,64,34,43,117,,119,118,14,16,6,11,0.4,0.5
2025-03-23T1900,1443A,106.6555,26.4365,贵阳市,碧云窝,颗粒物(PM10),56,61,76,22,34,120,,119,119,13,16,8,12,0.3,0.5
2025-03-23T1900,1445A,106.7109,26.6027,贵阳市,红边门,颗粒物(PM10),59,68,67,29,39,120,,119,119,15,14,6,9,0.3,0.4
2025-03-23T1900,1446A,106.7164,26.5699,贵阳市,新华路,颗粒物(PM10),59,68,63,31,36,113,,115,115,12,13,3,42,0.5,0.4
2025-03-23T1900,1447A,106.674,26.5424,贵阳市,太慈桥,颗粒物(PM10),53,56,60,27,32,116,,117,117,16,17,10,11,0.3,0.4
2025-03-23T1900,4230A,106.6882,26.5695,贵阳市,花果园大街66号,细颗粒物(PM2.5),53,53,58,37,42,108,,104,104,16,15,6,9,0.7,0.6
2025-03-23T1900,4231A,106.6873,26.5169,贵阳市,漓江路57号,颗粒物(PM10),54,58,65,29,36,106,,107,107,17,16,12,14,0.4,0.4
2025-03-23T1900,1864A,110.3089,25.2708,桂林市,龙隐路小学,臭氧1小时,84,62,80,42,66,187,,184,184,10,30,12,13,1.0,1.1
2025-03-23T1900,3531A,110.296,25.1253,桂林市,旅游学院,臭氧1小时,85,48,86,39,60,188,,181,181,11,26,10,12,0.5,0.6
2025-03-23T1900,4222A,110.1835,25.2444,桂林市,环湖路276号,细颗粒物(PM2.5),67,70,88,48,62,153,,167,167,18,45,7,9,0.5,0.6
2025-03-23T1900,4301A,110.2803,25.2773,桂林市,信义路13号,臭氧1小时,67,67,89,46,71,173,,184,184,30,42,14,17,0.7,0.9
2025-03-23T1900,2674A,100.2561,34.4714,果洛藏族自治州,玛沁县大武镇,,35,26,59,14,22,110,,107,107,1,2,16,15,0.3,0.4
2025-03-23T1900,1129A,126.5422,45.755,哈尔滨市,岭北,,43,43,24,26,17,95,,111,111,28,23,10,16,0.4,1.1
2025-03-23T1900,1130A,126.561,45.8167,哈尔滨市,松北商大,,32,28,30,22,14,85,,100,100,13,23,6,7,0.5,0.6
2025-03-23T1900,1131A,126.979,45.5419,哈尔滨市,阿城会宁,,29,29,41,8,21,91,,94,94,8,24,15,6,0.5,0.7
2025-03-23T1900,1132A,126.599,45.7222,哈尔滨市,南岗学府路,,34,34,34,15,14,76,,92,91,21,18,8,7,0.7,0.6
2025-03-23T1900,1133A,126.689,45.7733,哈尔滨市,太平宏伟公园,颗粒物(PM10),54,58,41,28,20,65,,94,90,28,24,11,7,1.4,0.8
2025-03-23T1900,1134A,126.635,45.7667,哈尔滨市,道外承德广场,颗粒物(PM10),54,58,43,29,26,67,,92,91,32,26,12,8,0.4,0.7
2025-03-23T1900,1135A,126.685,45.7319,哈尔滨市,香坊红旗大街,细颗粒物(PM2.5),78,66,40,57,22,60,,98,94,31,20,13,10,0.7,0.6
2025-03-23T1900,1136A,126.6411,45.7258,哈尔滨市,动力和平路,细颗粒物(PM2.5),57,,27,40,14,75,,92,91,20,15,10,9,0.5,0.5
2025-03-23T1900,1137A,126.593,45.7478,哈尔滨市,道里建国路,,31,31,27,20,16,80,,91,90,13,16,9,9,0.5,0.5
2025-03-23T1900,1138A,126.615,45.61,哈尔滨市,平房东轻厂,,48,45,46,33,26,78,,96,94,16,28,9,10,0.7,0.7
2025-03-23T1900,1139A,126.595,45.9855,哈尔滨市,呼兰师专,,50,41,32,35,19,76,,84,84,22,27,10,8,0.4,0.5
2025-03-23T1900,1140A,126.6206,45.6842,哈尔滨市,省农科院,细颗粒物(PM2.5),70,84,39,51,22,57,,92,86,43,29,12,9,0.8,0.6
2025-03-23T1900,2688A,93.5128,42.8172,哈密市,地区监测站,颗粒物(PM10),500,649,621,120,120,87,,75,75,14,41,6,5,0.4,0.4
2025-03-23T1900,2689A,93.4961,42.8328,哈密市,哈密师范学校,颗粒物(PM10),384,487,479,154,145,92,,76,76,15,49,8,5,0.3,0.5
2025-03-23T1900,2671A,100.9048,36.9639,海北藏族自治州,海晏县西海镇,,37,37,49,15,19,102,,99,99,1,2,6,8,0.1,0.3
2025-03-23T1900,3867A,102.0738,36.5056,海东市,平安区公安北苑,,48,48,84,16,30,98,,100,100,9,22,8,11,0.5,0.7
2025-03-23T1900,1410A,110.3232,20.0574,海口市,海南大学,,39,39,42,19,22,107,,108,108,7,10,4,3,0.3,0.4
2025-03-23T1900,1411A,110.283,20.0053,海口市,秀英海南医院,,41,41,38,18,20,100,,107,106,9,13,4,4,0.3,0.4
2025-03-23T1900,1412A,110.338,19.9969,海口市,海南师范大学,,34,34,38,15,20,107,,117,117,5,6,3,3,0.4,0.5
2025-03-23T1900,1413A,110.33,20.0356,海口市,龙华路环保局宿舍,,34,34,38,17,21,108,,112,112,4,5,4,4,0.3,0.4
2025-03-23T1900,3539A,110.5111,19.9736,海口市,桂林洋子站,,38,38,41,22,24,103,,116,115,6,8,4,3,0.3,0.4
2025-03-23T1900,2673A,100.6188,36.2866,海南藏族自治州,共和县恰卜恰镇,,49,49,67,14,27,107,,108,108,1,10,10,12,0.4,0.4
2025-03-23T1900,2676A,97.3731,37.3753,海西蒙古族藏族自治州,德令哈市,,,,71,,20,,,106,106,2,4,11,11,0.4,0.4
2025-03-23T1900,1048A,114.5302,36.6116,邯郸市,东污水处理厂,颗粒物(PM10),134,218,115,53,32,93,,101,101,18,28,2,9,0.3,0.7
2025-03-23T1900,1049A,114.4918,36.5713,邯郸市,矿院,颗粒物(PM10),156,261,135,58,31,82,,92,92,18,23,13,8,0.9,0.7
2025-03-23T1900,1050A,114.484,36.6133,邯郸市,丛台公园,颗粒物(PM10),140,230,137,58,35,89,,96,96,15,27,4,11,0.4,0.8
2025-03-23T1900,3458A,114.7895,36.5593,邯郸市,香泉濮院小区,颗粒物(PM10),123,196,135,40,29,88,,107,107,15,19,4,11,0.5,0.6
2025-03-23T1900,3579A,114.50634,36.77178,邯郸市,永年区实验高中,颗粒物(PM10),152,254,132,62,35,95,,99,99,6,20,4,20,0.5,1.2
2025-03-23T1900,3580A,114.20016,36.44293,邯郸市,峰峰矿区临水派出所,颗粒物(PM10),144,238,75,63,36,108,,112,112,7,8,12,14,0.5,0.6
2025-03-23T1900,2634A,106.9893,33.1842,汉中市,汉川机床厂子校,颗粒物(PM10),67,83,58,28,29,104,,119,119,5,7,8,9,0.4,0.5
2025-03-23T1900,2635A,107.0154,33.0706,汉中市,市监测站,颗粒物(PM10),61,72,61,29,34,97,,108,108,15,22,5,6,0.5,0.8
2025-03-23T1900,2636A,107.0089,33.1138,汉中市,鑫源开发区,颗粒物(PM10),63,75,64,26,31,97,,108,108,15,24,4,8,0.4,0.7
2025-03-23T1900,2637A,107.007,33.0323,汉中市,南郑大河坎水厂,颗粒物(PM10),64,77,64,32,32,95,,114,114,17,23,4,5,0.4,0.5
2025-03-23T1900,1223A,120.2072,30.2111,杭州市,滨江,颗粒物(PM10),58,65,60,30,35,105,,144,144,38,40,8,8,0.4,0.5
2025-03-23T1900,1224A,120.0633,30.2747,杭州市,西溪,颗粒物(PM10),55,60,50,23,27,113,,140,140,17,30,7,7,0.3,0.4
2025-03-23T1900,1226A,120.3417,30.3150,杭州市,下沙,颗粒物(PM10),60,70,68,31,31,100,,134,134,38,58,7,7,0.5,0.5
2025-03-23T1900,1227A,120.1269,30.2456,杭州市,卧龙桥,颗粒物(PM10),51,52,43,31,26,87,,141,139,27,28,7,6,0.3,0.3
2025-03-23T1900,1228A,120.1903,30.2692,杭州市,浙江农大,颗粒物(PM10),55,60,68,31,37,87,,131,130,44,53,4,4,0.5,0.5
2025-03-23T1900,1230A,120.1197,30.3119,杭州市,和睦小学,颗粒物(PM10),55,60,60,34,36,112,,141,138,26,49,8,8,0.6,0.7
2025-03-23T1900,1231A,120.3019,30.4183,杭州市,临平镇,颗粒物(PM10),63,76,77,26,34,121,,138,138,24,65,7,7,0.3,0.5
2025-03-23T1900,1232A,120.2753,30.1839,杭州市,城厢镇,颗粒物(PM10),63,75,63,34,34,95,,143,141,58,46,8,9,0.5,0.5
2025-03-23T1900,1233A,120.0883,30.1808,杭州市,云栖,颗粒物(PM10),51,52,46,24,22,98,,128,128,29,40,8,8,0.4,0.4
2025-03-23T1900,3557A,119.9464,30.0494,杭州市,镇二中,颗粒物(PM10),66,82,48,42,31,79,,125,124,46,45,8,8,0.7,0.6
2025-03-23T1900,3558A,119.7183,30.2367,杭州市,市府大楼,颗粒物(PM10),61,72,52,38,29,119,,133,133,22,30,11,9,0.6,0.6
2025-03-23T1900,3656A,120.1556,30.2864,杭州市,消防大队,颗粒物(PM10),57,64,59,34,35,115,,145,145,31,43,8,7,0.4,0.5
2025-03-23T1900,1270A,117.1959,31.7848,合肥市,明珠广场,,46,46,74,29,36,102,,114,112,19,55,5,6,0.4,0.4
2025-03-23T1900,1271A,117.3072,31.8764,合肥市,三里街,,48,48,106,22,46,103,,103,103,19,72,5,8,0.5,0.9
2025-03-23T1900,1272A,117.2588,31.8707,合肥市,琥珀山庄,"颗粒物(PM10),细颗粒物(PM2.5)",52,53,82,36,46,110,,115,115,16,53,2,3,0.4,0.8
2025-03-23T1900,1273A,117.1604,31.9052,合肥市,董铺水库,颗粒物(PM10),52,53,76,19,27,110,,122,122,16,51,2,3,0.3,0.4
2025-03-23T1900,1274A,117.25,31.8571,合肥市,长江中路,,,56,78,26,43,,,118,118,,60,,9,,0.5
2025-03-23T1900,1275A,117.266,31.9436,合肥市,庐阳区,颗粒物(PM10),53,56,77,19,30,111,,121,121,19,48,6,7,0.3,0.4
2025-03-23T1900,1276A,117.3453,31.8616,合肥市,瑶海区,颗粒物(PM10),51,51,88,22,35,102,,107,107,21,68,7,8,0.4,0.6
2025-03-23T1900,1277A,117.3027,31.7964,合肥市,包河区,,46,46,79,27,38,107,,113,113,15,75,4,5,0.5,0.7
2025-03-23T1900,1278A,117.2776,31.7385,合肥市,滨湖新区,细颗粒物(PM2.5),52,46,81,36,41,100,,101,101,22,67,10,11,0.5,0.5
2025-03-23T1900,1279A,117.1318,31.8403,合肥市,高新区,,46,46,68,24,31,106,,120,120,15,43,2,3,0.6,0.6
2025-03-23T1900,3464A,117.3803,31.9147,合肥市,高教基地,,49,49,86,26,40,110,,114,114,20,59,8,9,0.3,0.5
2025-03-23T1900,3614A,79.924,37.0877,和田地区,地区环保局,颗粒物(PM10),59,68,120,16,21,103,,95,95,10,12,1,2,0.8,0.7
2025-03-23T1900,3615A,79.9131,37.113,和田地区,市环保局,颗粒物(PM10),52,54,94,13,13,109,,102,102,4,12,1,2,0.5,0.6
2025-03-23T1900,2516A,108.2011,24.715,河池市,东仁乐园,细颗粒物(PM2.5),73,68,81,53,63,173,,178,178,14,46,15,10,0.7,0.8
2025-03-23T1900,2517A,108.0497,24.6947,河池市,市环保站,细颗粒物(PM2.5),62,63,69,44,47,167,,175,175,13,26,12,8,0.7,0.7
2025-03-23T1900,2518A,108.0983,24.6989,河池市,市疾控中心,臭氧1小时,80,61,78,40,58,184,,185,185,14,40,15,10,0.7,0.7
2025-03-23T1900,1696A,114.6778,23.7569,河源市,源西,臭氧1小时,95,69,71,39,38,196,,198,198,18,43,6,6,0.9,0.9
2025-03-23T1900,1697A,114.6944,23.7586,河源市,东埔,臭氧1小时,109,52,74,38,36,218,,213,213,29,42,6,6,0.8,0.7
2025-03-23T1900,1698A,114.6892,23.7233,河源市,老城,臭氧1小时,107,85,62,40,38,213,,213,213,32,32,7,7,0.7,0.6
2025-03-23T1900,1718A,115.4208,35.2464,菏泽市,气象局,颗粒物(PM10),123,196,135,48,46,90,,95,95,32,28,4,6,0.4,0.5
2025-03-23T1900,3374A,115.5564,35.0891,菏泽市,定陶老年大学,颗粒物(PM10),114,178,133,36,43,94,,96,96,20,28,5,7,0.4,0.5
2025-03-23T1900,4184A,115.4797,35.24401,菏泽市,永昌路1号,颗粒物(PM10),128,205,154,47,46,93,,99,99,28,24,5,8,,0.4
2025-03-23T1900,4193A,115.4715,35.2800,菏泽市,长城路999号,颗粒物(PM10),119,188,133,41,37,91,,86,86,29,30,7,9,0.5,0.6
2025-03-23T1900,2514A,111.5264,24.4172,贺州市,环保小区,臭氧1小时,87,84,78,50,56,189,,198,198,24,27,13,17,0.9,0.7
2025-03-23T1900,2515A,111.5608,24.4078,贺州市,政协大楼,细颗粒物(PM2.5),64,76,71,46,52,168,,185,185,28,29,11,24,0.8,0.8
2025-03-23T1900,3534A,111.4744,24.4553,贺州市,西湾,细颗粒物(PM2.5),69,66,77,50,55,170,,180,180,25,39,10,10,0.8,0.8
2025-03-23T1900,2385A,114.17,35.9019,鹤壁市,市监测站,颗粒物(PM10),125,200,133,45,34,104,,109,109,13,21,3,7,0.3,0.4
2025-03-23T1900,2386A,114.2956,35.7511,鹤壁市,市交警支队,颗粒物(PM10),115,180,122,26,26,98,,103,103,16,29,5,8,0.1,0.3
2025-03-23T1900,2387A,114.2878,35.7306,鹤壁市,迎宾馆,颗粒物(PM10),127,204,138,32,23,101,,107,107,6,18,4,5,0.3,0.4
2025-03-23T1900,3474A,114.2617,35.6822,鹤壁市,大新区,颗粒物(PM10),108,166,127,33,35,89,,90,90,25,40,8,8,0.6,0.5
2025-03-23T1900,3596A,114.1572,35.9603,鹤壁市,南山宾馆,颗粒物(PM10),132,214,144,45,36,111,,114,114,3,10,3,8,0.3,0.4
2025-03-23T1900,2244A,130.2537,47.3416,鹤岗市,哈啤分公司,,29,29,18,19,15,64,,72,70,10,5,16,15,0.4,0.3
2025-03-23T1900,2245A,130.2684,47.3086,鹤岗市,斯达机电,,23,23,21,13,13,67,,74,73,5,3,14,14,0.3,0.3
2025-03-23T1900,2246A,130.3114,47.3388,鹤岗市,东山纸板厂,,27,27,24,15,17,66,,72,69,12,9,13,18,0.2,0.4
2025-03-23T1900,2263A,127.4833,50.2524,黑河市,交通局,,23,20,19,11,12,72,,76,76,8,9,6,6,0.4,0.3
2025-03-23T1900,2264A,127.5144,50.2341,黑河市,环保局,,25,10,19,9,14,79,,81,81,5,10,4,4,0.4,0.4
2025-03-23T1900,2265A,127.5291,50.2472,黑河市,大黑河岛,,,13,15,3,7,55,,67,66,6,10,3,3,,
2025-03-23T1900,1074A,115.6838,37.7541,衡水市,电机北厂,颗粒物(PM10),125,200,142,54,41,117,,110,110,14,22,12,13,0.3,0.4
2025-03-23T1900,1075A,115.6303,37.7316,衡水市,市监测站,颗粒物(PM10),121,191,128,63,42,100,,106,106,24,24,11,13,0.3,0.4
2025-03-23T1900,3188A,115.6683,37.7217,衡水市,市城管局,颗粒物(PM10),117,184,141,70,47,106,,106,106,16,27,10,13,0.3,0.4
2025-03-23T1900,3459A,115.5989,37.5491,衡水市,地表水厂,颗粒物(PM10),131,211,146,54,42,59,,114,111,57,30,11,14,0.4,0.3
2025-03-23T1900,2456A,112.5003,26.9167,衡阳市,原169医院,细颗粒物(PM2.5),68,77,76,49,45,74,,75,75,27,44,18,20,0.6,0.6
2025-03-23T1900,2457A,112.6194,26.9258,衡阳市,衡阳化工总厂,细颗粒物(PM2.5),93,95,97,69,64,94,,90,90,18,34,18,15,0.8,0.8
2025-03-23T1900,2458A,112.6211,26.8956,衡阳市,珠晖区环保局,细颗粒物(PM2.5),73,91,89,53,57,92,,92,92,21,42,18,16,0.9,1
2025-03-23T1900,2459A,112.6197,26.8733,衡阳市,市委党校,"颗粒物(PM10),细颗粒物(PM2.5)",75,99,90,55,58,93,,98,98,25,41,19,16,0.9,1
2025-03-23T1900,2460A,112.6006,26.8919,衡阳市,市监测站,细颗粒物(PM2.5),94,107,114,70,79,87,,,,29,59,19,11,1.0,1.3
2025-03-23T1900,2461A,112.5664,26.9056,衡阳市,真空机电公司,细颗粒物(PM2.5),84,87,96,62,59,85,,91,91,31,54,17,18,1.0,1.1
2025-03-23T1900,3399A,112.6703,26.882,衡阳市,师范学院,细颗粒物(PM2.5),85,93,94,63,62,94,,101,101,26,34,22,18,0.8,0.8
2025-03-23T1900,2608A,103.3772,23.3993,红河哈尼族彝族自治州,污水处理厂,细颗粒物(PM2.5),87,73,80,64,63,133,,139,139,6,13,16,16,0.5,0.6
2025-03-23T1900,2609A,103.3861,23.35,红河哈尼族彝族自治州,监测站,细颗粒物(PM2.5),69,86,80,50,55,139,,148,148,6,11,8,12,0.3,0.4
2025-03-23T1900,3038A,103.3758,23.368,红河哈尼族彝族自治州,州图书馆,细颗粒物(PM2.5),92,,70,68,59,136,,143,143,7,12,6,10,0.4,0.5
2025-03-23T1900,1090A,111.6507,40.7517,呼和浩特市,呼市一监,颗粒物(PM10),258,390,285,106,85,88,,94,94,16,23,12,13,0.7,0.8
2025-03-23T1900,1091A,111.6572,40.8033,呼和浩特市,小召,颗粒物(PM10),196,342,282,75,71,96,,91,91,14,36,2,8,0.3,0.5
2025-03-23T1900,1094A,111.7516,40.8369,呼和浩特市,如意水处理厂,颗粒物(PM10),197,343,237,88,75,92,,89,89,8,38,5,11,0.3,0.5
2025-03-23T1900,1095A,111.7276,40.8062,呼和浩特市,二十九中,颗粒物(PM10),317,433,257,87,75,97,,92,92,11,37,4,8,0.4,0.6
2025-03-23T1900,1096A,111.5512,40.7866,呼和浩特市,工大金川校区,颗粒物(PM10),178,306,247,84,74,102,,95,95,7,35,5,12,0.4,0.6
2025-03-23T1900,1097A,111.717,40.7612,呼和浩特市,化肥厂生活区,颗粒物(PM10),324,439,289,96,77,91,,97,97,20,30,9,11,0.4,0.6
2025-03-23T1900,3698A,111.5968,40.8178,呼和浩特市,红旗小学,颗粒物(PM10),196,342,271,86,73,109,,99,99,8,45,3,8,0.4,0.6
2025-03-23T1900,3699A,111.6518,40.8389,呼和浩特市,海东办,颗粒物(PM10),198,346,268,114,75,97,,91,91,7,35,5,9,0.4,0.6
2025-03-23T1900,2192A,119.7594,49.2261,呼伦贝尔市,区环保局,,29,23,27,16,18,90,,83,83,8,11,6,6,0.4,0.3
2025-03-23T1900,3061A,119.7512,49.1577,呼伦贝尔市,国华电力东,,29,29,27,17,13,92,,85,85,5,6,4,4,0.4,0.4
2025-03-23T1900,1250A,120.0751,30.8669,湖州市,城西水厂,颗粒物(PM10),57,64,70,32,33,112,,122,122,28,80,9,10,0.3,0.3
2025-03-23T1900,2873A,120.0830,30.8929,湖州市,仁皇山新区,颗粒物(PM10),55,60,67,32,32,115,,144,144,23,57,8,8,0.6,0.5
2025-03-23T1900,2907A,120.1844,30.8596,湖州市,吴兴区站,颗粒物(PM10),55,60,66,32,35,117,,142,142,12,54,9,10,0.3,0.3
2025-03-23T1900,3562A,120.4148,30.8538,湖州市,南浔区站,颗粒物(PM10),56,62,78,28,40,122,,152,152,16,44,5,6,0.4,0.4
2025-03-23T1900,1607A,120.9049,40.7211,葫芦岛市,龙港区,细颗粒物(PM2.5),72,89,135,52,73,37,,92,80,59,55,11,89,0.8,1.3
2025-03-23T1900,1608A,120.8392,40.7514,葫芦岛市,化工街,颗粒物(PM10),86,122,148,58,72,36,,100,89,65,62,20,42,0.8,1
2025-03-23T1900,1609A,120.8341,40.7073,葫芦岛市,新区,颗粒物(PM10),82,113,124,50,79,36,,92,80,70,68,12,75,0.9,1.3
2025-03-23T1900,1610A,120.8695,40.7677,葫芦岛市,东城区,细颗粒物(PM2.5),72,80,139,52,78,31,,108,96,78,68,12,31,1.0,1.2
2025-03-23T1900,2482A,109.5981,27.5721,怀化市,林科所,细颗粒物(PM2.5),107,,40,80,74,,,,,,8,7,7,0.0,3.6
2025-03-23T1900,2483A,109.9453,27.5444,怀化市,河西地税局,细颗粒物(PM2.5),58,58,58,41,42,75,,76,76,24,19,8,10,0.5,0.5
2025-03-23T1900,2484A,109.9781,27.5342,怀化市,市四医院,细颗粒物(PM2.5),59,65,74,42,48,87,,80,80,17,30,6,12,0.5,0.6
2025-03-23T1900,2485A,109.9972,27.5578,怀化市,监测楼,颗粒物(PM10),55,60,68,36,41,76,,75,75,22,29,10,13,0.4,0.5
2025-03-23T1900,2486A,110.0394,27.583,怀化市,市委党校,细颗粒物(PM2.5),57,57,68,40,44,89,,83,83,12,26,4,12,0.4,0.5
2025-03-23T1900,1210A,119.036,33.5981,淮安市,钵池山,颗粒物(PM10),68,85,87,48,39,109,,122,122,21,25,14,18,1.1,1.4
2025-03-23T1900,1211A,119.007,33.575,淮安市,北京南路,颗粒物(PM10),75,100,92,54,41,84,,111,110,44,41,24,22,2.0,1.8
2025-03-23T1900,1212A,118.989,33.6067,淮安市,市监测站,细颗粒物(PM2.5),70,85,79,51,38,105,,126,126,30,28,10,11,1.0,0.8
2025-03-23T1900,1213A,119.135,33.5039,淮安市,楚州区监测站,颗粒物(PM10),77,103,96,49,38,100,,127,125,23,34,10,10,0.6,0.4
2025-03-23T1900,3426A,118.8755,33.2894,淮安市,新华书店,颗粒物(PM10),70,89,80,45,42,106,,134,132,20,21,10,10,0.9,0.8
2025-03-23T1900,4206A,119.0288,33.6319,淮安市,承德北路606号,颗粒物(PM10),78,105,89,55,65,107,,124,124,32,27,10,10,0.7,0.6
2025-03-23T1900,2282A,116.8004,33.975,淮北市,监测站,颗粒物(PM10),88,125,112,47,48,94,,103,103,26,30,10,11,0.7,0.7
2025-03-23T1900,2283A,116.8091,33.9007,淮北市,烈山区政府,颗粒物(PM10),90,130,121,51,57,77,,105,104,36,46,8,14,0.8,0.8
2025-03-23T1900,3330A,116.8873,33.9836,淮北市,杜集区检察院,颗粒物(PM10),84,118,122,44,54,92,,111,111,27,33,10,12,0.8,0.8
2025-03-23T1900,4017A,116.7923,33.9535,淮北市,市博物馆,颗粒物(PM10),85,119,122,53,57,95,,105,105,25,32,13,14,0.9,1
2025-03-23T1900,2277A,116.8305,32.7727,淮南市,潘集区政府,细颗粒物(PM2.5),78,84,100,57,52,99,,119,119,17,26,7,9,0.5,0.5
2025-03-23T1900,2279A,116.8569,32.5951,淮南市,谢家集区政府,颗粒物(PM10),61,72,86,38,41,93,,109,109,18,22,7,9,0.5,0.5
2025-03-23T1900,2280A,116.8281,32.633,淮南市,八公山区政府,颗粒物(PM10),53,56,74,33,37,103,,118,117,9,8,6,8,0.3,0.3
2025-03-23T1900,2281A,116.6325,32.6201,淮南市,焦岗湖风景区管理处,颗粒物(PM10),53,55,69,30,31,78,,82,82,8,14,8,8,0.5,0.6
2025-03-23T1900,2894A,117.0566,32.6531,淮南市,经济技术开发区消防队,颗粒物(PM10),69,88,81,47,35,99,,124,122,16,18,8,9,0.4,0.4
2025-03-23T1900,3329A,117.0108,32.5893,淮南市,山南新区,细颗粒物(PM2.5),77,82,92,56,46,96,,116,116,12,14,9,10,0.4,0.6
2025-03-23T1900,4209A,117.0031,32.6445,淮南市,国庆中路369号,细颗粒物(PM2.5),77,88,88,56,43,92,,116,115,22,22,12,12,0.6,0.6
2025-03-23T1900,2446A,114.9028,30.4742,黄冈市,职工中心,细颗粒物(PM2.5),107,110,78,80,57,50,,62,60,59,45,15,11,1.0,0.9
2025-03-23T1900,2929A,114.8858,30.4519,黄冈市,红卫路,细颗粒物(PM2.5),100,118,83,75,55,47,,65,65,63,40,14,12,1.1,0.9
2025-03-23T1900,3398A,114.9136,30.4445,黄冈市,市林业局,细颗粒物(PM2.5),100,120,90,75,57,42,,65,63,67,49,18,15,1.0,0.9
2025-03-23T1900,2672A,102.0199,35.5102,黄南藏族自治州,同仁县隆务镇,,34,34,76,8,21,99,,101,101,4,2,13,13,0.3,0.2
2025-03-23T1900,2295A,118.2903,29.6963,黄山市,延安路89号,颗粒物(PM10),57,64,48,38,29,91,,108,108,31,16,7,6,0.4,0.3
2025-03-23T1900,2297A,118.1371,30.2756,黄山市,黄山区政府5号楼,颗粒物(PM10),54,58,64,25,38,118,,109,109,8,11,10,9,0.6,0.6
2025-03-23T1900,4210A,118.3354,29.7203,黄山市,滨江东路7-2号,颗粒物(PM10),75,99,58,38,28,44,,92,88,35,18,7,5,0.6,0.4
2025-03-23T1900,2423A,115.0601,30.2313,黄石市,沈家营,颗粒物(PM10),78,106,88,53,54,63,,46,46,43,51,7,12,1.0,0.9
2025-03-23T1900,2426A,114.8988,30.2019,黄石市,铁山,细颗粒物(PM2.5),69,71,99,50,56,79,,62,62,32,46,12,13,0.6,0.5
2025-03-23T1900,2427A,115.0307,30.2092,黄石市,团城山,颗粒物(PM10),69,87,78,44,43,82,,66,66,46,57,7,15,0.9,0.9
2025-03-23T1900,3149A,115.0235,30.1578,黄石市,笔架山北路,细颗粒物(PM2.5),72,80,68,52,47,49,,69,58,47,39,12,14,1.1,1
2025-03-23T1900,4185A,115.0780,30.21118,黄石市,磁湖东路29号,颗粒物(PM10),81,111,100,48,57,99,,61,61,36,64,8,12,0.8,0.9
2025-03-23T1900,1392A,114.4183,23.0528,惠州市,河南岸金山湖子站,颗粒物(PM10),51,52,58,24,31,144,,195,195,26,28,9,11,0.6,0.6
2025-03-23T1900,1393A,114.4053,23.0822,惠州市,下埔横江三路子站,"颗粒物(PM10),臭氧1小时",52,53,60,24,31,161,,221,221,26,26,9,11,0.5,0.5
2025-03-23T1900,1394A,114.4103,23.1142,惠州市,江北云山西路子站,臭氧1小时,68,54,59,21,30,174,,246,246,29,28,10,12,0.6,0.4
2025-03-23T1900,1395A,114.4645,22.7833,惠州市,惠阳区承修路船湖子站,颗粒物(PM10),52,54,55,23,26,133,,166,166,33,34,10,10,0.7,0.6
2025-03-23T1900,1396A,114.5317,22.7422,惠州市,大亚湾管委会子站,颗粒物(PM10),57,63,48,27,20,148,,158,158,32,37,8,8,0.5,0.5
2025-03-23T1900,3314A,114.4338,22.8134,惠州市,惠阳秋长,颗粒物(PM10),53,56,60,24,28,145,,185,185,28,36,14,13,0.6,0.6
2025-03-23T1900,3452A,114.6517,22.775,惠州市,大亚湾霞涌,臭氧1小时,72,42,39,26,18,177,,167,167,16,20,6,6,0.3,0.3
2025-03-23T1900,2240A,130.9762,45.3001,鸡西市,环保局,细颗粒物(PM2.5),108,116,27,81,14,42,,91,86,54,13,15,8,1.0,0.3
2025-03-23T1900,2243A,130.9429,45.3039,鸡西市,第一中学,细颗粒物(PM2.5),228,197,20,178,15,53,,93,89,52,8,16,7,1.0,0.3
2025-03-23T1900,3707A,131.0207,45.3073,鸡西市,欧美日汽修厂,细颗粒物(PM2.5),268,228,45,218,29,52,,101,95,39,14,14,9,1.0,0.5
2025-03-23T1900,3709A,130.9967,45.3106,鸡西市,市政设施管理处,细颗粒物(PM2.5),242,,31,192,21,42,,86,81,46,19,11,6,1.0,0.4
2025-03-23T1900,2367A,114.9754,27.0803,吉安市,红声器材厂,颗粒物(PM10),53,56,61,34,30,122,,144,144,29,32,16,16,0.5,0.5
2025-03-23T1900,2368A,114.9658,27.0999,吉安市,市森林工业局,颗粒物(PM10),52,53,62,27,28,127,,140,140,22,42,12,15,0.5,0.5
2025-03-23T1900,2369A,114.99,27.1312,吉安市,市环境监测站,,44,44,56,30,28,114,,144,144,28,30,22,27,0.2,0.2
2025-03-23T1900,2370A,115.0093,27.0968,吉安市,青原区法院,颗粒物(PM10),56,62,57,33,29,128,,157,157,22,33,13,14,0.4,0.4
2025-03-23T1900,1772A,126.54,43.8622,吉林市,哈达湾,,33,30,76,19,52,104,,105,105,14,19,7,9,0.5,0.7
2025-03-23T1900,1773A,126.5844,43.8358,吉林市,东局子,颗粒物(PM10),52,54,51,25,37,113,,110,110,10,15,6,7,0.4,0.5
2025-03-23T1900,1774A,126.5052,43.8245,吉林市,电力学院,,30,29,89,15,77,95,,99,99,20,25,7,8,0.3,0.5
2025-03-23T1900,1775A,126.6133,43.8972,吉林市,江北,,42,42,68,24,50,92,,107,106,23,26,4,5,0.4,0.5
2025-03-23T1900,1776A,126.555,43.8306,吉林市,江南公园,,39,35,49,27,39,97,,101,101,18,18,6,8,0.5,0.5
2025-03-23T1900,2868A,126.4739,43.953,吉林市,九站,,45,45,107,28,77,88,,107,104,22,30,11,19,0.4,0.7
2025-03-23T1900,1299A,116.9862,36.6114,济南市,科干所,颗粒物(PM10),93,136,112,39,32,119,,112,112,18,25,12,10,0.5,0.5
2025-03-23T1900,1300A,116.9376,36.665,济南市,农科所,颗粒物(PM10),96,142,119,39,31,83,,99,99,39,34,10,10,1.0,0.8
2025-03-23T1900,1301A,117.1265,36.6734,济南市,开发区,颗粒物(PM10),92,134,107,44,33,106,,108,108,26,20,11,10,0.7,0.5
2025-03-23T1900,1303A,117.0624,36.6868,济南市,省种子仓库,颗粒物(PM10),103,156,124,46,34,96,,104,104,28,24,8,8,0.8,0.7
2025-03-23T1900,1304A,116.9489,36.6447,济南市,机床二厂,颗粒物(PM10),107,164,138,44,37,85,,98,98,41,34,12,12,0.9,0.8
2025-03-23T1900,1305A,117.0495,36.663,济南市,市监测站,颗粒物(PM10),99,147,118,39,30,98,,102,102,29,24,12,11,0.6,0.5
2025-03-23T1900,1306A,116.7675,36.5484,济南市,长清党校,颗粒物(PM10),96,142,104,54,33,107,,110,110,45,36,9,10,0.8,0.8
2025-03-23T1900,1616A,117.6795,36.229,济南市,技术学院,颗粒物(PM10),103,156,132,56,59,96,,93,93,37,52,17,19,0.7,1
2025-03-23T1900,1961A,117.532,36.6868,济南市,东山小学,颗粒物(PM10),102,154,120,39,30,87,,106,106,29,17,9,8,0.7,0.7
2025-03-23T1900,3059A,117.7161,36.2049,济南市,泰兴公司,颗粒物(PM10),101,151,131,56,61,67,,86,86,56,60,14,14,0.8,1
2025-03-23T1900,3064A,117.6867,36.2171,济南市,莱芜战役纪念馆,颗粒物(PM10),101,151,131,53,53,92,,90,90,38,53,12,12,0.6,0.9
2025-03-23T1900,3494A,117.1673,36.9782,济南市,济阳区政府,颗粒物(PM10),108,166,135,39,37,88,,89,89,31,28,13,13,0.5,0.5
2025-03-23T1900,3495A,117.1171,36.63,济南市,锦屏中学,颗粒物(PM10),91,132,100,37,26,103,,106,106,23,17,12,11,0.5,0.3
2025-03-23T1900,3682A,116.9814,36.6819,济南市,济南四建,颗粒物(PM10),103,156,121,42,40,85,,99,99,37,29,10,9,0.5,0.4
2025-03-23T1900,1653A,116.6251,35.4302,济宁市,火炬城,颗粒物(PM10),105,160,110,46,49,95,,95,95,21,33,12,14,,0.4
2025-03-23T1900,1655A,116.5491,35.4042,济宁市,电化厂,颗粒物(PM10),130,210,152,46,55,91,,90,90,22,46,11,16,0.5,0.6
2025-03-23T1900,3500A,116.5814,35.3707,济宁市,北湖一中,颗粒物(PM10),96,141,107,39,41,89,,88,88,23,41,14,17,0.3,0.4
2025-03-23T1900,3501A,116.8249,35.5593,济宁市,服务中心,颗粒物(PM10),105,159,143,41,46,91,,81,81,33,60,8,11,0.8,0.8
2025-03-23T1900,3678A,116.5907,35.4054,济宁市,市第七中学,颗粒物(PM10),102,154,118,34,44,92,,92,92,21,37,4,9,0.4,0.5
2025-03-23T1900,2255A,130.2751,46.8028,佳木斯市,佳纺,,36,36,39,14,14,72,,86,82,15,16,4,4,0.6,0.6
2025-03-23T1900,2256A,130.3995,46.8307,佳木斯市,发电厂,,34,34,15,8,9,68,,86,82,20,10,3,3,0.5,0.5
2025-03-23T1900,2257A,130.3258,46.7975,佳木斯市,环保局,,22,16,19,8,11,69,,87,84,25,17,4,3,0.4,0.3
2025-03-23T1900,2258A,130.3648,46.8032,佳木斯市,十一中,,22,22,18,12,12,55,,81,77,29,15,7,5,0.4,0.3
2025-03-23T1900,2259A,130.3794,46.7588,佳木斯市,四丰,,21,21,11,3,7,51,,82,78,27,7,1,1,0.8,0.7
2025-03-23T1900,1252A,120.7436,30.778,嘉兴市,清河小学,颗粒物(PM10),59,67,80,23,43,110,,132,132,28,64,7,7,0.3,0.5
2025-03-23T1900,1253A,120.726,30.7478,嘉兴市,嘉兴学院,颗粒物(PM10),61,71,90,28,47,120,,141,141,24,70,10,10,0.4,0.6
2025-03-23T1900,2872A,120.7846,30.7525,嘉兴市,南湖区残联,颗粒物(PM10),63,75,82,28,41,128,,155,155,20,44,10,10,0.3,0.4
2025-03-23T1900,3407A,120.6916,30.7739,嘉兴市,秀洲住建,,,46,75,26,47,,,169,169,24,66,8,8,0.2,0.4
2025-03-23T1900,1945A,98.2908,39.7711,嘉峪关市,气象局,颗粒物(PM10),174,298,222,58,49,96,,93,93,8,8,12,6,0.2,0.2
2025-03-23T1900,2884A,98.2672,39.7978,嘉峪关市,酒钢宾馆,颗粒物(PM10),187,324,265,51,50,99,,93,93,5,6,3,14,0.2,0.2
2025-03-23T1900,3248A,98.2643,39.7724,嘉峪关市,雄关区,颗粒物(PM10),144,238,176,40,41,96,,92,92,8,11,2,5,0.5,0.5
2025-03-23T1900,1383A,113.1064,22.6058,江门市,北街,臭氧1小时,52,50,58,21,30,161,,184,184,20,28,6,5,0.5,0.6
2025-03-23T1900,1384A,113.0731,22.5835,江门市,西区,颗粒物(PM10),58,65,68,21,32,146,,194,194,27,40,8,8,0.5,0.6
2025-03-23T1900,1385A,113.0219,22.5311,江门市,圭峰西,颗粒物(PM10),51,51,56,21,28,130,,165,164,22,25,7,8,0.4,0.5
2025-03-23T1900,1386A,113.0828,22.5947,江门市,东湖,颗粒物(PM10),52,53,58,32,37,154,,199,199,23,33,10,9,0.5,0.5
2025-03-23T1900,3311A,113.1075,22.5647,江门市,江海富民,颗粒物(PM10),61,71,81,24,38,162,,188,188,20,29,9,9,0.6,0.6
2025-03-23T1900,3449A,113.05,22.4667,江门市,新会银湖,,40,39,56,19,35,128,,168,166,24,36,3,4,0.3,0.5
2025-03-23T1900,3169A,113.2725,35.2067,焦作市,太极体育中心,颗粒物(PM10),116,181,123,37,37,117,,118,118,18,24,6,11,0.3,0.5
2025-03-23T1900,3335A,113.3137,35.2641,焦作市,马村街道办,颗粒物(PM10),107,164,128,49,40,120,,116,116,14,20,8,12,0.4,0.6
2025-03-23T1900,3336A,113.2465,35.2373,焦作市,焦作技师学院,颗粒物(PM10),116,181,134,34,35,125,,123,123,14,24,5,9,0.3,0.5
2025-03-23T1900,3477A,113.1656,35.2539,焦作市,中站许衡医院,颗粒物(PM10),120,189,123,51,34,116,,124,124,28,20,29,15,0.7,0.7
2025-03-23T1900,3981A,113.2449,35.1803,焦作市,原李万街道办,颗粒物(PM10),97,144,118,36,30,113,,118,118,22,28,10,13,0.3,0.5
2025-03-23T1900,4264A,113.2340,35.2190,焦作市,新安路1731号,颗粒物(PM10),116,181,136,39,40,120,,118,118,11,20,6,11,0.4,0.6
2025-03-23T1900,1708A,116.3701,23.5345,揭阳市,新兴,细颗粒物(PM2.5),63,64,72,45,44,127,,166,166,36,40,10,13,0.7,0.8
2025-03-23T1900,1709A,116.3264,23.5443,揭阳市,西马,颗粒物(PM10),79,108,76,39,45,134,,176,176,24,32,11,13,0.8,0.8
2025-03-23T1900,1710A,116.3611,23.5626,揭阳市,东兴,"颗粒物(PM10),细颗粒物(PM2.5)",55,60,76,39,40,138,,173,173,18,31,7,11,0.8,0.8
2025-03-23T1900,1711A,116.4151,23.5294,揭阳市,渔湖,,50,50,67,33,45,145,,166,166,14,44,7,12,0.5,0.7
2025-03-23T1900,3320A,116.403,23.5699,揭阳市,曲溪,颗粒物(PM10),61,71,74,42,42,153,,188,188,25,42,9,13,0.9,0.7
2025-03-23T1900,1944A,102.1692,38.5167,金昌市,天庆家园,颗粒物(PM10),180,310,153,70,41,92,,93,92,3,6,11,12,0.7,0.7
2025-03-23T1900,4022A,102.1647,38.5371,金昌市,金川区人防中心,颗粒物(PM10),260,392,222,63,43,90,,94,91,6,11,10,11,0.5,0.5
2025-03-23T1900,4239A,102.1930,38.5319,金昌市,长春路96号,颗粒物(PM10),300,420,237,80,47,91,,92,90,4,7,12,14,0.6,0.6
2025-03-23T1900,1262A,119.647,29.077,金华市,十五中,细颗粒物(PM2.5),94,103,54,70,29,90,,142,140,64,38,8,7,0.9,0.5
2025-03-23T1900,1263A,119.686,29.1029,金华市,监测站,颗粒物(PM10),59,68,54,34,28,130,,143,143,32,31,6,7,0.3,0.3
2025-03-23T1900,3659A,119.656,29.1131,金华市,气象局,,48,48,44,32,29,125,,144,144,33,44,7,8,0.4,0.5
2025-03-23T1900,1767A,121.1115,41.0879,锦州市,南山,细颗粒物(PM2.5),99,126,120,74,95,70,,137,130,63,56,35,36,1.3,1.2
2025-03-23T1900,1768A,121.0604,40.8428,锦州市,开发区,颗粒物(PM10),88,126,133,58,96,39,,105,82,68,53,12,24,0.9,1.1
2025-03-23T1900,1769A,121.1836,41.1119,锦州市,百股街道,细颗粒物(PM2.5),94,103,135,70,95,53,,140,126,65,59,20,68,1.1,1.2
2025-03-23T1900,1770A,121.1178,41.1222,锦州市,天安街道,细颗粒物(PM2.5),98,132,131,73,111,75,,140,134,59,55,29,34,1.4,1.4
2025-03-23T1900,1771A,121.1303,41.1386,锦州市,北湖公园,细颗粒物(PM2.5),104,122,121,78,103,56,,141,131,72,54,27,27,1.3,1.2
2025-03-23T1900,2160A,112.85,35.5051,晋城市,自来水公司,颗粒物(PM10),116,182,121,41,29,114,,116,116,13,21,7,9,0.4,0.5
2025-03-23T1900,2161A,112.8318,35.4936,晋城市,白云商贸,颗粒物(PM10),120,189,122,36,27,116,,118,118,14,22,5,7,0.3,0.5
2025-03-23T1900,2162A,112.8508,35.4887,晋城市,市环保局,颗粒物(PM10),124,197,121,27,29,115,,117,117,12,19,5,6,0.3,0.4
2025-03-23T1900,2163A,112.8676,35.4897,晋城市,技术学院,颗粒物(PM10),123,195,113,39,26,102,,105,105,9,16,6,8,0.6,0.6
2025-03-23T1900,3620A,112.8271,35.4828,晋城市,泽州一中,颗粒物(PM10),132,214,95,44,32,118,,120,120,10,15,9,10,0.4,0.5
2025-03-23T1900,2173A,112.7249,37.7067,晋中市,南都小区,颗粒物(PM10),175,300,209,53,49,100,,106,106,15,40,5,18,0.4,0.7
2025-03-23T1900,2174A,112.6991,37.6982,晋中市,榆次区政府,颗粒物(PM10),162,273,223,44,48,106,,108,108,9,38,4,19,0.5,0.7
2025-03-23T1900,2865A,112.7195,37.6828,晋中市,榆次三中,颗粒物(PM10),187,324,231,51,49,105,,108,108,10,42,,17,0.2,0.5
2025-03-23T1900,4200A,112.7478,37.6954,晋中市,迎宾街26号,颗粒物(PM10),173,295,221,48,51,110,,112,112,7,36,4,17,0.3,0.5
2025-03-23T1900,2439A,112.2014,31.0481,荆门市,竹园小学,颗粒物(PM10),53,55,85,32,54,138,,120,120,12,26,5,8,0.3,0.5
2025-03-23T1900,2440A,112.1969,30.9891,荆门市,掇刀,颗粒物(PM10),54,57,85,36,52,134,,112,112,12,28,6,9,0.3,0.4
2025-03-23T1900,2441A,112.2213,31.0386,荆门市,石化一小,颗粒物(PM10),55,59,86,31,54,126,,108,108,12,31,8,13,0.3,0.5
2025-03-23T1900,3012A,112.1849,31.0362,荆门市,西山林语,,50,50,68,31,42,139,,119,119,9,18,5,7,0.3,0.3
2025-03-23T1900,3547A,112.1632,31.0138,荆门市,龙泉中学南校,颗粒物(PM10),53,56,79,30,49,127,,110,110,10,19,4,9,0.4,0.5
2025-03-23T1900,1844A,112.2494,30.3197,荆州市,市图书馆,,50,45,52,35,44,113,,103,103,20,27,4,8,0.5,0.6
2025-03-23T1900,1845A,112.2008,30.3544,荆州市,市委党校,细颗粒物(PM2.5),54,49,58,38,46,109,,103,103,20,25,6,8,0.4,0.5
2025-03-23T1900,3194A,112.2747,30.3122,荆州市,管委会,细颗粒物(PM2.5),54,49,58,38,43,119,,107,107,14,20,6,9,0.4,0.5
2025-03-23T1900,4268A,112.1722,30.3366,荆州市,学苑路85号,细颗粒物(PM2.5),58,42,44,41,45,100,,103,103,12,30,7,7,0.5,0.6
2025-03-23T1900,2343A,117.2117,29.2933,景德镇市,老干部活动中心,细颗粒物(PM2.5),57,58,61,40,33,116,,121,121,23,33,17,9,0.5,0.4
2025-03-23T1900,2344A,117.1894,29.2789,景德镇市,兽医站,颗粒物(PM10),60,69,62,31,29,110,,122,122,24,33,19,8,0.8,0.7
2025-03-23T1900,2345A,117.1547,29.2617,景德镇市,台达陶瓷,颗粒物(PM10),65,79,79,31,33,110,,117,117,33,43,25,37,0.8,0.7
2025-03-23T1900,2346A,117.2461,29.2956,景德镇市,陶研所,细颗粒物(PM2.5),75,66,53,55,35,93,,116,116,41,29,4,4,1.2,0.8
2025-03-23T1900,1803A,115.9872,29.6815,九江市,十里,细颗粒物(PM2.5),79,90,70,58,44,91,,90,90,36,54,8,6,0.9,0.8
2025-03-23T1900,1804A,115.9584,29.7046,九江市,茅山头,颗粒物(PM10),84,118,86,57,40,76,,75,75,54,56,12,10,0.7,0.6
2025-03-23T1900,1805A,115.9877,29.7295,九江市,西园,细颗粒物(PM2.5),84,103,74,62,43,82,,70,70,50,77,18,14,0.9,0.8
2025-03-23T1900,1808A,115.9114,29.6038,九江市,综合工业园,细颗粒物(PM2.5),75,84,77,55,42,96,,90,90,54,54,19,13,1.0,0.8
2025-03-23T1900,1809A,116.0721,29.7535,九江市,石化总厂,细颗粒物(PM2.5),93,96,64,69,46,69,,73,73,52,41,18,17,1.0,0.7
2025-03-23T1900,1810A,115.9773,29.5698,九江市,庐山气象台,,42,41,41,26,27,133,,136,131,4,6,7,7,0.9,0.8
2025-03-23T1900,3190A,116.0254,29.6994,九江市,外国语学校,细颗粒物(PM2.5),85,98,70,63,39,72,,71,71,53,52,16,12,0.9,0.7
2025-03-23T1900,4253A,116.0102,29.6594,九江市,莲花大道8号,颗粒物(PM10),68,85,60,48,32,90,,96,96,34,26,14,16,0.8,0.6
2025-03-23T1900,4240A,98.4958,39.7339,酒泉市,玉门东路5号,颗粒物(PM10),444,544,285,88,51,91,,92,92,4,10,7,11,0.3,0.3
2025-03-23T1900,4241A,98.5099,39.7506,酒泉市,北大街108号,颗粒物(PM10),425,525,286,82,54,87,,90,90,6,14,8,12,0.3,0.5
2025-03-23T1900,2698A,76.0072,39.4467,喀什地区,巡警大队,颗粒物(PM10),55,59,182,11,54,106,,96,96,12,53,4,8,0.4,1.1
2025-03-23T1900,2699A,75.9755,39.4694,喀什地区,吾办,颗粒物(PM10),61,71,148,24,55,109,,94,94,17,47,2,3,0.5,0.9
2025-03-23T1900,4027A,75.9483,39.4689,喀什地区,老干局,颗粒物(PM10),60,70,149,17,44,62,,61,61,47,50,4,5,0.5,0.9
2025-03-23T1900,1824A,114.3389,34.7781,开封市,肿瘤医院,颗粒物(PM10),127,204,131,41,36,117,,116,116,19,28,8,9,0.6,0.6
2025-03-23T1900,1826A,114.2885,34.7965,开封市,世纪星幼儿园,颗粒物(PM10),109,168,121,42,34,132,,126,126,22,30,5,7,0.5,0.6
2025-03-23T1900,3147A,114.3438,34.8106,开封市,龙亭公园,颗粒物(PM10),117,183,112,32,34,129,,93,,25,30,10,7,0.9,1
2025-03-23T1900,3210A,114.3644,34.7964,开封市,汴京公园,颗粒物(PM10),120,189,136,43,37,129,,123,123,23,32,6,8,0.5,0.6
2025-03-23T1900,3473A,114.2485,34.8306,开封市,技师学院,颗粒物(PM10),107,163,118,40,38,123,,114,114,19,30,11,12,0.5,0.6
2025-03-23T1900,3592A,114.4644,34.7556,开封市,祥符区生态环境局,颗粒物(PM10),117,183,152,48,45,118,,115,115,23,42,6,8,0.6,0.8
2025-03-23T1900,1951A,84.895,45.6094,克拉玛依市,长征新村,,27,27,33,9,12,68,,77,63,27,18,7,7,0.3,0.2
2025-03-23T1900,1952A,84.8988,45.5893,克拉玛依市,南林小区,,30,30,32,8,10,63,,79,62,18,10,3,3,0.2,0.2
2025-03-23T1900,1954A,84.905,44.3396,克拉玛依市,独山子区,"颗粒物(PM10),细颗粒物(PM2.5)",85,119,97,63,55,84,,76,76,27,19,74,19,1.6,0.9
2025-03-23T1900,1955A,85.6979,46.098,克拉玛依市,乌尔禾区商贸楼,,38,,18,26,11,61,,62,62,13,10,7,6,0.3,0.3
2025-03-23T1900,3612A,85.1045,45.6899,克拉玛依市,白碱滩区新站,,26,26,26,3,6,57,,73,53,20,11,9,9,0.5,0.3
2025-03-23T1900,2697A,76.1454,39.7142,克孜勒苏柯尔克孜自治州,市人民政府,颗粒物(PM10),71,91,131,32,41,131,,122,122,8,13,6,5,0.5,0.6
2025-03-23T1900,3665A,76.1658,39.7157,克孜勒苏柯尔克孜自治州,克州文化中心,颗粒物(PM10),66,82,149,29,43,132,,120,120,7,14,6,6,0.4,0.5
2025-03-23T1900,1450A,102.8204,24.8886,昆明市,呈贡新区,,32,25,52,16,42,102,,118,117,16,14,10,6,0.5,0.6
2025-03-23T1900,1452A,102.7252,25.0902,昆明市,龙泉镇,,34,21,53,16,40,107,,116,116,10,27,7,8,0.5,0.7
2025-03-23T1900,1453A,102.7266,25.0375,昆明市,东风东路,,33,24,56,14,42,105,,113,113,12,26,7,8,0.5,0.6
2025-03-23T1900,1454A,102.6742,25.0669,昆明市,金鼎山,,38,38,58,14,42,102,,112,112,14,30,1,5,0.5,0.6
2025-03-23T1900,1455A,102.6644,25.0401,昆明市,碧鸡广场,,34,20,55,19,44,106,,118,118,14,30,7,8,0.4,0.6
2025-03-23T1900,3179A,102.7494,25.0119,昆明市,官渡区博物馆,,34,18,59,15,42,106,,117,117,12,23,7,8,0.4,0.6
2025-03-23T1900,3375A,102.8017,24.8336,昆明市,青年创业园,,33,22,52,17,40,103,,122,120,13,13,18,8,0.8,0.6
2025-03-23T1900,3550A,102.7997,24.9786,昆明市,昆明学院,,33,24,61,16,45,105,,120,120,14,18,4,6,0.4,0.6
2025-03-23T1900,3551A,102.5967,24.6736,昆明市,晋宁区生态环境分局,,33,22,50,19,44,104,,118,118,15,12,13,7,0.5,0.7
2025-03-23T1900,3552A,102.6678,24.9856,昆明市,云天化总部,,36,19,49,13,38,114,,127,127,12,20,7,8,0.3,0.4
2025-03-23T1900,1456A,91.1319,29.6514,拉萨市,八廓街,,40,14,14,8,8,128,,123,123,10,9,7,6,0.4,0.4
2025-03-23T1900,1457A,91.1221,29.6747,拉萨市,市环保局,,39,21,15,8,8,122,,116,116,12,12,6,7,0.6,0.5
2025-03-23T1900,1458A,91.0874,29.6475,拉萨市,区监测站,,38,16,13,7,7,120,,116,116,13,10,6,5,0.3,0.3
2025-03-23T1900,1459A,91.1774,29.6541,拉萨市,西藏大学,,39,18,13,8,7,122,,115,115,7,10,7,6,0.5,0.5
2025-03-23T1900,1460A,90.9798,29.6588,拉萨市,区辐射站,,37,22,17,9,8,116,,115,115,15,15,7,7,0.4,0.4
2025-03-23T1900,1461A,91.0834,29.6292,拉萨市,拉萨火车站,,40,18,13,7,7,128,,121,121,6,7,4,3,0.2,0.3
2025-03-23T1900,2520A,109.2203,23.7256,来宾市,来宾技工学校,臭氧1小时,54,55,81,37,50,163,,162,162,12,27,7,13,0.6,0.7
2025-03-23T1900,3535A,109.1781,23.7297,来宾市,兴宾区政府,,50,24,76,17,50,159,,161,161,15,20,9,9,0.8,0.8
2025-03-23T1900,4002A,109.2416,23.7461,来宾市,中南小学,颗粒物(PM10),54,57,88,35,49,150,,154,154,14,33,9,13,0.7,0.8
2025-03-23T1900,1479A,103.831,36.0464,兰州市,铁路设计院,,49,49,77,13,24,88,,96,96,28,46,5,8,0.4,0.7
2025-03-23T1900,3241A,103.7439,36.0842,兰州市,百合公园,,46,46,83,9,25,93,,97,97,6,41,5,8,0.4,0.7
2025-03-23T1900,3242A,103.9611,35.998,兰州市,和平,颗粒物(PM10),57,64,112,19,31,92,,101,100,14,14,7,9,0.3,0.2
2025-03-23T1900,4236A,103.6293,36.0938,兰州市,庄浪东路808号,颗粒物(PM10),55,59,88,11,32,91,,99,98,21,22,8,11,0.3,0.4
2025-03-23T1900,4237A,103.7251,36.1043,兰州市,安宁西路88号,颗粒物(PM10),60,70,95,31,42,104,,110,109,10,33,4,9,0.3,0.4
2025-03-23T1900,4238A,103.8470,36.0676,兰州市,北滨河东路1号,颗粒物(PM10),55,59,87,25,37,89,,103,102,27,54,7,13,0.5,0.9
2025-03-23T1900,3245A,103.6633,36.533,兰州新区,新区管委会,,,,75,24,28,108,,104,104,10,14,12,10,0.4,0.4
2025-03-23T1900,3246A,103.6975,36.4789,兰州新区,舟曲中学,颗粒物(PM10),57,64,99,18,27,113,,107,107,5,9,5,7,0.3,0.4
2025-03-23T1900,1067A,116.6708,39.5111,廊坊市,药材公司,颗粒物(PM10),173,295,120,86,36,87,,104,104,15,26,3,3,0.3,0.3
2025-03-23T1900,1068A,116.7214,39.5589,廊坊市,开发区,颗粒物(PM10),242,379,136,94,38,91,,108,108,19,26,3,4,0.3,0.3
2025-03-23T1900,1070A,116.7244,39.5269,廊坊市,北华航天学院,颗粒物(PM10),186,321,120,76,31,88,,103,103,17,24,6,6,0.3,0.3
2025-03-23T1900,2919A,116.7022,39.5453,廊坊市,河北工业大学,颗粒物(PM10),189,328,119,84,34,92,,110,110,12,19,6,7,0.3,0.3
2025-03-23T1900,2535A,103.7723,29.5462,乐山市,花湖湾,,37,37,69,24,50,89,,73,73,12,36,6,8,0.2,0.6
2025-03-23T1900,2536A,103.7627,29.5844,乐山市,牛耳桥,,38,38,70,24,49,82,,69,69,18,38,7,8,0.5,0.9
2025-03-23T1900,2537A,103.7508,29.6006,乐山市,市第三水厂,,43,43,63,22,43,86,,76,76,15,33,4,5,0.2,0.7
2025-03-23T1900,2538A,103.7571,29.5664,乐山市,市监测站,,49,42,64,34,50,80,,71,71,19,39,6,7,0.4,0.8
2025-03-23T1900,3361A,103.7311,29.5628,乐山市,理工大学,颗粒物(PM10),57,64,67,35,43,68,,72,72,35,41,8,6,0.5,0.9
2025-03-23T1900,2599A,100.2497,26.8802,丽江市,丽江古城,,30,21,23,16,15,96,,100,100,10,13,8,8,0.5,0.6
2025-03-23T1900,2600A,100.2203,26.8906,丽江市,市中心,,29,22,12,12,9,92,,96,96,15,14,8,8,0.6,0.6
2025-03-23T1900,1267A,119.914,28.4514,丽水市,监测站大楼,细颗粒物(PM2.5),100,107,49,75,32,40,,130,124,67,34,4,4,1.3,0.6
2025-03-23T1900,1268A,119.93,28.4586,丽水市,莲都小学,颗粒物(PM10),71,92,53,35,25,66,,112,111,45,37,4,4,0.5,0.4
2025-03-23T1900,1269A,119.879,28.4231,丽水市,余庄前,,37,37,43,21,27,81,,141,139,11,20,4,5,0.4,0.4
2025-03-23T1900,1173A,119.176,34.5885,连云港市,市环境监测站,颗粒物(PM10),90,129,107,61,47,108,,103,103,23,29,16,19,0.6,0.7
2025-03-23T1900,3000A,119.3581,34.6972,连云港市,德源药业,颗粒物(PM10),97,144,110,53,44,109,,109,109,25,35,16,15,0.6,0.5
2025-03-23T1900,3007A,119.178,34.844,连云港市,新城一中,"颗粒物(PM10),细颗粒物(PM2.5)",94,137,107,70,62,75,,98,98,44,43,18,27,1.1,0.9
2025-03-23T1900,3008A,119.3608,34.7519,连云港市,胡沟管理处,颗粒物(PM10),80,110,85,51,39,79,,97,96,48,42,18,19,0.7,0.7
2025-03-23T1900,3009A,119.1478,34.5911,连云港市,矿山设计院,颗粒物(PM10),92,134,116,53,45,99,,96,96,32,36,15,23,0.6,0.6
2025-03-23T1900,3434A,119.2413,34.6539,连云港市,工贸学校,颗粒物(PM10),100,150,108,69,54,98,,100,100,29,28,18,16,0.8,0.7
2025-03-23T1900,3664A,119.4172,34.7341,连云港市,连云街道,颗粒物(PM10),92,133,102,45,38,114,,115,112,23,29,13,12,0.8,0.7
2025-03-23T1900,2571A,102.3431,27.8099,凉山彝族自治州,青龙寺,,16,16,33,9,11,38,,75,70,10,13,6,6,0.7,0.7
2025-03-23T1900,2572A,102.2721,27.8415,凉山彝族自治州,邛海宾馆,,31,31,36,18,20,50,,65,64,19,19,3,6,0.5,0.6
2025-03-23T1900,2573A,102.2625,27.898,凉山彝族自治州,西昌市政府,,43,38,46,30,30,52,,68,68,19,19,6,8,0.7,0.7
2025-03-23T1900,2574A,102.2685,27.8851,凉山彝族自治州,凉山州政府,,36,36,42,22,27,61,,74,74,19,21,4,6,0.4,0.5
2025-03-23T1900,4229A,102.2342,27.8859,凉山彝族自治州,凯乐南路30号,,45,45,38,27,19,46,,68,65,29,23,6,9,0.6,0.5
2025-03-23T1900,2212A,123.2,41.1953,辽阳市,宏伟区,细颗粒物(PM2.5),94,119,104,70,71,158,,156,156,14,29,16,19,1.0,1.1
2025-03-23T1900,2213A,123.1683,41.2495,辽阳市,新华园,细颗粒物(PM2.5),133,144,155,101,95,108,,124,124,49,63,18,33,1.6,1.6
2025-03-23T1900,2214A,123.2354,41.2639,辽阳市,滨河路,细颗粒物(PM2.5),103,125,108,77,84,140,,146,146,25,44,13,19,0.9,1.2
2025-03-23T1900,2215A,123.149,41.2991,辽阳市,铁西工业园,细颗粒物(PM2.5),160,188,190,122,123,101,,142,142,56,67,23,29,1.3,2.1
2025-03-23T1900,2227A,125.1358,42.8845,辽源市,环保局,细颗粒物(PM2.5),74,82,189,54,159,69,,143,143,49,40,9,11,1.1,1.1
2025-03-23T1900,3239A,125.0764,42.9078,辽源市,银鹰制药,,50,50,165,29,143,102,,153,152,34,38,9,12,0.8,1.1
2025-03-23T1900,1625A,115.9848,36.4372,聊城市,区政府,颗粒物(PM10),103,156,124,47,41,100,,104,104,28,34,15,13,,0.6
2025-03-23T1900,2878A,116.0072,36.4343,聊城市,聊大东校,颗粒物(PM10),113,175,138,48,45,97,,102,102,29,35,15,13,0.7,0.8
2025-03-23T1900,3200A,115.9819,36.4978,聊城市,监控中心,颗粒物(PM10),110,169,137,48,40,100,,103,103,26,32,17,17,0.7,0.7
2025-03-23T1900,3513A,116.0445,36.4361,聊城市,九州社区,颗粒物(PM10),108,166,126,44,38,99,,108,108,31,35,15,14,0.6,0.6
2025-03-23T1900,4018A,116.0567,36.4608,聊城市,星美广场,颗粒物(PM10),107,164,126,41,35,101,,105,105,31,33,14,14,0.6,0.6
2025-03-23T1900,2632A,94.3681,29.6376,林芝市,林芝监测站,,24,7,7,7,6,76,,102,98,28,8,5,5,0.3,0.3
2025-03-23T1900,2633A,94.3616,29.6616,林芝市,林芝人民医院,,24,12,14,3,5,76,,99,96,24,5,7,7,0.3,0.2
2025-03-23T1900,2603A,100.0781,23.8982,临沧市,市环保局,细颗粒物(PM2.5),52,45,52,36,44,105,,115,115,11,14,8,9,0.6,0.8
2025-03-23T1900,2604A,100.0894,23.8822,临沧市,市气象局,,,74,54,27,47,107,,115,115,15,17,8,8,,0.5
2025-03-23T1900,1733A,111.5531,36.0783,临汾市,临钢医院,颗粒物(PM10),118,186,154,30,37,103,,106,106,6,21,2,8,0.3,0.6
2025-03-23T1900,1734A,111.5028,36.0714,临汾市,技工学校,颗粒物(PM10),107,163,131,33,42,104,,110,110,9,28,4,10,0.3,0.6
2025-03-23T1900,1736A,111.5018,36.0855,临汾市,市委,颗粒物(PM10),120,189,150,34,38,104,,111,111,10,29,1,7,0.2,0.5
2025-03-23T1900,3018A,111.505,36.1014,临汾市,唐尧大酒店,颗粒物(PM10),114,178,148,28,34,105,,108,108,6,29,4,9,0.2,0.5
2025-03-23T1900,4244A,111.4879,36.0530,临汾市,启星学校,颗粒物(PM10),123,196,152,35,44,104,,108,108,6,27,2,9,0.3,0.6
2025-03-23T1900,4271A,103.2464,35.6123,临夏回族自治州,滨河东路1号,,,,112,,34,86,,101,101,13,26,4,4,0.3,0.5
2025-03-23T1900,4310A,103.2093,35.5995,临夏回族自治州,新华街21号,,45,45,96,18,39,94,,100,100,8,20,8,9,0.2,0.6
2025-03-23T1900,1618A,118.3429,35.0532,临沂市,沂河小区,颗粒物(PM10),106,161,133,43,58,81,,94,94,33,38,12,17,0.7,0.8
2025-03-23T1900,1619A,118.295,35.0583,临沂市,鲁南制药厂,颗粒物(PM10),109,168,146,46,56,91,,103,103,38,55,15,21,0.5,0.6
2025-03-23T1900,1620A,118.2794,34.9976,临沂市,新光毛纺厂,颗粒物(PM10),109,168,140,46,54,77,,94,94,48,60,13,23,0.8,0.9
2025-03-23T1900,1621A,118.3956,35.0888,临沂市,河东保险公司,颗粒物(PM10),91,132,123,42,53,97,,102,102,36,50,10,13,0.4,0.5
2025-03-23T1900,3370A,118.3564,35.0215,临沂市,十里堡居委,颗粒物(PM10),115,180,138,53,53,68,,93,92,46,47,20,22,0.7,0.8
2025-03-23T1900,3496A,118.3604,35.1084,临沂市,南坊新区,颗粒物(PM10),100,149,130,44,50,89,,94,94,34,42,10,13,0.7,0.7
2025-03-23T1900,3860A,118.3920,35.0300,临沂市,皇山花园小区,颗粒物(PM10),113,175,134,52,54,78,,94,94,38,43,16,19,0.5,0.6
2025-03-23T1900,1870A,109.4856,24.3895,柳州市,柳东小学,臭氧1小时,77,60,86,38,64,181,,171,171,18,36,14,25,0.5,0.6
2025-03-23T1900,1871A,109.4157,24.3277,柳州市,环保监测站,臭氧1小时,63,64,96,35,68,170,,169,169,16,37,12,13,0.7,0.9
2025-03-23T1900,1872A,109.389,24.341,柳州市,河西水厂,臭氧1小时,63,56,124,39,69,170,,169,169,18,54,8,12,0.6,1
2025-03-23T1900,1873A,109.4311,24.2921,柳州市,市四中,臭氧1小时,73,64,109,39,67,178,,177,177,19,56,12,12,0.6,1
2025-03-23T1900,1874A,109.4006,24.3631,柳州市,市九中,臭氧1小时,70,62,99,34,61,176,,173,173,16,34,11,13,0.8,1
2025-03-23T1900,1875A,109.4958,24.3134,柳州市,古亭山,臭氧1小时,67,69,76,41,51,173,,175,175,12,51,13,16,0.6,0.6
2025-03-23T1900,3402A,109.5422,24.3996,柳州市,市二中,臭氧1小时,74,56,95,33,63,179,,189,189,21,51,14,34,0.3,0.4
2025-03-23T1900,2307A,116.5079,31.737,六安市,监测大楼,,50,50,58,32,38,105,,118,118,28,31,6,8,0.7,0.7
2025-03-23T1900,2308A,116.4738,31.7643,六安市,皖西学院,,46,46,68,31,36,112,,119,119,14,26,5,6,0.5,0.6
2025-03-23T1900,2309A,116.4996,31.7905,六安市,朝阳厂,,44,44,58,26,35,106,,115,114,19,25,4,5,0.6,0.6
2025-03-23T1900,2310A,116.5567,31.7886,六安市,开发区,,48,48,76,29,37,111,,122,122,20,37,6,6,0.6,0.6
2025-03-23T1900,2577A,104.83,26.5917,六盘水市,黄土坡,颗粒物(PM10),57,64,58,28,35,108,,113,113,17,15,13,15,0.5,0.5
2025-03-23T1900,2578A,104.89,26.5939,六盘水市,水钢,,46,46,66,29,37,110,,104,104,12,18,9,14,0.5,0.7
2025-03-23T1900,2579A,104.8475,26.5894,六盘水市,民中,,45,45,54,24,34,105,,102,102,14,18,10,13,0.4,0.5
2025-03-23T1900,2580A,104.9544,26.5506,六盘水市,双水,,46,46,60,15,34,113,,112,112,13,17,9,12,0.5,0.6
2025-03-23T1900,2337A,117.0258,25.0661,龙岩市,闽西职业技术学院,,45,45,70,27,33,121,,143,143,19,27,5,34,0.4,0.5
2025-03-23T1900,2338A,117.0196,25.0306,龙岩市,龙岩学院,,48,48,60,25,42,130,,148,148,7,18,3,3,0.6,0.7
2025-03-23T1900,2885A,104.9339,33.3826,陇南市,滨江中学,颗粒物(PM10),64,77,61,20,22,66,,92,89,23,13,5,6,0.6,0.5
2025-03-23T1900,3247A,104.955,33.371,陇南市,市总工会,,45,45,51,9,20,85,,98,97,3,9,6,7,0.2,0.3
2025-03-23T1900,2487A,111.9589,27.8901,娄底市,电视发射台,,46,46,47,29,31,73,,97,97,8,6,7,8,0.9,0.9
2025-03-23T1900,2488A,111.9975,27.725,娄底市,市监测站,颗粒物(PM10),75,99,102,49,61,67,,68,68,31,43,19,24,1.4,1.5
2025-03-23T1900,2489A,112.0194,27.7314,娄底市,市委党校,细颗粒物(PM2.5),95,110,108,71,72,67,,64,64,40,47,6,7,1.2,1.2
2025-03-23T1900,2490A,111.9561,27.7569,娄底市,涟钢,细颗粒物(PM2.5),78,93,104,57,64,64,,77,77,41,24,6,10,1.6,1
2025-03-23T1900,2491A,111.9892,27.7044,娄底市,市政府,细颗粒物(PM2.5),74,93,97,54,62,68,,71,71,40,30,8,8,1.0,0.8
2025-03-23T1900,1894A,105.4427,28.9063,泸州市,小市上码头,,49,46,97,34,73,103,,106,106,33,50,8,10,0.5,0.7
2025-03-23T1900,1895A,105.4241,28.8573,泸州市,兰田宪桥,,45,45,99,31,73,105,,100,100,15,37,7,8,0.5,0.7
2025-03-23T1900,4272A,105.3689,28.7783,泸州市,纳溪中医医院,颗粒物(PM10),56,61,92,31,60,98,,93,93,24,36,6,7,0.5,0.7
2025-03-23T1900,2183A,111.1406,37.5211,吕梁市,环保局,颗粒物(PM10),191,331,215,60,50,101,,102,102,10,41,3,2,0.3,0.3
2025-03-23T1900,2185A,111.1297,37.5136,吕梁市,自来水公司,颗粒物(PM10),175,300,240,70,50,96,,99,99,12,35,1,5,0.4,0.5
2025-03-23T1900,2867A,111.1283,37.51,吕梁市,马茂庄小学,颗粒物(PM10),222,365,238,65,47,97,,103,103,18,44,2,5,0.2,0.4
2025-03-23T1900,1812A,112.3931,34.6516,洛阳市,市委党校,颗粒物(PM10),96,141,97,35,33,111,,113,113,13,20,3,6,0.3,0.4
2025-03-23T1900,1815A,112.494,34.6886,洛阳市,河南林校,颗粒物(PM10),112,173,126,49,46,117,,121,121,16,25,3,7,0.5,0.6
2025-03-23T1900,1816A,112.3844,34.623,洛阳市,开发区管委会,颗粒物(PM10),99,148,105,40,40,109,,112,112,11,21,5,6,0.2,0.3
2025-03-23T1900,1817A,112.4267,34.6258,洛阳市,市委新办公区,颗粒物(PM10),97,144,102,43,41,122,,122,122,11,19,5,6,0.7,0.8
2025-03-23T1900,3340A,112.6005,34.6326,洛阳市,伊滨,颗粒物(PM10),99,147,100,42,41,125,,123,123,12,17,5,6,0.3,0.5
2025-03-23T1900,3341A,112.4951,34.6332,洛阳市,中移产业园,颗粒物(PM10),123,195,119,50,50,114,,113,113,14,19,6,8,0.5,0.5
2025-03-23T1900,3593A,112.5736,34.8993,洛阳市,吉利监测站,颗粒物(PM10),109,167,108,48,38,119,,123,123,15,16,6,8,0.4,0.4
2025-03-23T1900,3635A,112.3677,34.662,洛阳市,河科大西苑校区,颗粒物(PM10),100,150,113,35,33,115,,116,116,10,20,6,10,0.5,0.6
2025-03-23T1900,3636A,112.4388,34.6781,洛阳市,英才小学,颗粒物(PM10),97,143,110,44,44,118,,119,119,13,27,8,13,0.3,0.5
2025-03-23T1900,4214A,112.4600,34.6949,洛阳市,春都路1号院,颗粒物(PM10),119,187,143,41,39,120,,124,124,18,31,7,14,0.4,0.6
2025-03-23T1900,2399A,114.051,33.5699,漯河市,三五一五工厂,颗粒物(PM10),79,107,92,41,38,107,,121,121,21,18,6,7,0.6,0.6
2025-03-23T1900,2400A,114.0055,33.5698,漯河市,漯河大学,颗粒物(PM10),76,101,89,36,32,103,,121,121,28,25,7,8,0.4,0.4
2025-03-23T1900,2401A,114.0138,33.5828,漯河市,市水利局,颗粒物(PM10),78,105,87,44,35,110,,121,121,21,19,5,6,0.4,0.4
2025-03-23T1900,2402A,114.0261,33.5698,漯河市,市广电局,颗粒物(PM10),73,95,90,35,36,109,,122,122,21,16,7,7,0.4,0.4
2025-03-23T1900,3478A,113.9749,33.5664,漯河市,市图书馆,颗粒物(PM10),75,100,88,42,38,107,,119,119,20,15,5,7,0.5,0.5
2025-03-23T1900,4250A,114.0892,33.5882,漯河市,韶山路11号,颗粒物(PM10),79,108,94,32,35,117,,130,130,23,17,12,6,0.4,0.3
2025-03-23T1900,1798A,118.5092,31.6837,马鞍山市,湖东路四小,颗粒物(PM10),69,87,80,48,44,84,,106,105,33,55,9,12,0.8,0.8
2025-03-23T1900,1799A,118.5024,31.6449,马鞍山市,开发区,细颗粒物(PM2.5),74,73,99,54,48,71,,90,89,44,78,5,9,0.7,0.8
2025-03-23T1900,1802A,118.6245,31.7241,马鞍山市,濮塘,颗粒物(PM10),63,75,83,41,44,92,,121,119,28,33,11,15,0.8,0.8
2025-03-23T1900,3633A,118.4918,31.6809,马鞍山市,雨山,颗粒物(PM10),68,85,83,47,45,74,,102,98,41,63,9,13,0.8,0.9
2025-03-23T1900,4191A,118.5274,31.72227,马鞍山市,慈湖高新区,细颗粒物(PM2.5),69,85,91,50,50,83,,103,101,36,60,8,11,0.8,0.9
2025-03-23T1900,1686A,111.0286,21.4688,茂名市,电白南海,,46,46,58,27,36,98,,114,112,9,15,3,6,0.7,0.7
2025-03-23T1900,1687A,110.9294,21.6533,茂名市,茂石化七小,,,61,67,34,40,129,,171,171,,18,3,15,0.4,0.6
2025-03-23T1900,1688A,110.9107,21.6687,茂名市,健康路,颗粒物(PM10),57,63,67,31,40,131,,167,167,15,18,6,19,0.7,0.7
2025-03-23T1900,1689A,110.8592,21.6828,茂名市,高岭,颗粒物(PM10),60,70,82,29,44,124,,156,156,13,23,10,18,0.5,0.6
2025-03-23T1900,3450A,111.01,21.5165,茂名市,电白水东,,41,41,46,17,24,100,,128,126,4,7,4,7,0.3,0.5
2025-03-23T1900,2539A,104.0308,30.0478,眉山市,黑龙滩水库,,35,35,58,17,35,105,,92,92,2,12,1,3,0.5,0.7
2025-03-23T1900,2540A,103.8416,30.0874,眉山市,气象局,,44,44,95,19,56,108,,88,88,17,37,6,11,0.5,0.9
2025-03-23T1900,3137A,103.8578,30.0744,眉山市,市委党校,颗粒物(PM10),51,51,84,27,56,104,,86,86,22,45,8,13,0.3,0.9
2025-03-23T1900,3148A,103.8291,30.0564,眉山市,区人社局,,38,38,69,19,53,102,,84,84,24,45,8,12,0.4,0.9
2025-03-23T1900,1690A,116.1231,24.3284,梅州市,梅江月梅,"颗粒物(PM10),细颗粒物(PM2.5)",52,53,56,36,36,152,,170,170,14,31,5,5,0.5,0.5
2025-03-23T1900,1691A,116.0797,24.2719,梅州市,梅县新城,细颗粒物(PM2.5),88,,62,65,36,123,,167,167,39,38,7,7,0.7,0.5
2025-03-23T1900,1692A,116.1248,24.2654,梅州市,环境监控中心,细颗粒物(PM2.5),70,69,62,51,37,129,,164,164,40,41,8,11,0.8,0.6
2025-03-23T1900,3315A,116.1233,24.2991,梅州市,梅龙,细颗粒物(PM2.5),64,63,53,46,34,137,,165,165,23,27,8,9,0.7,0.7
2025-03-23T1900,1878A,104.7778,31.4741,绵阳市,富乐山,颗粒物(PM10),56,61,80,30,53,113,,120,120,21,45,2,3,0.5,0.7
2025-03-23T1900,1880A,104.6697,31.4668,绵阳市,高新区自来水公司,,44,44,104,22,56,107,,122,122,23,46,3,5,0.3,0.7
2025-03-23T1900,1881A,104.7287,31.5075,绵阳市,三水厂,,50,50,96,35,59,118,,127,127,22,42,6,7,0.5,0.8
2025-03-23T1900,3491A,104.69,31.5322,绵阳市,西科大附属小学,颗粒物(PM10),52,53,86,22,47,119,,126,126,22,46,7,7,0.4,0.7
2025-03-23T1900,3492A,104.5648,31.5343,绵阳市,安州区旅游局,颗粒物(PM10),60,70,86,27,51,113,,120,120,25,36,6,9,0.5,0.6
2025-03-23T1900,4226A,104.7651,31.4531,绵阳市,绵阳市气象局,颗粒物(PM10),58,66,87,29,51,100,,106,106,24,51,5,4,0.4,0.7
2025-03-23T1900,1784A,129.61,44.561,牡丹江市,环保大楼,颗粒物(PM10),68,85,30,34,18,70,,95,94,32,15,10,7,0.5,0.3
2025-03-23T1900,1785A,129.6115,44.5782,牡丹江市,文化广场,颗粒物(PM10),63,76,28,36,22,65,,92,90,38,16,27,11,0.6,0.3
2025-03-23T1900,1786A,129.5904,44.5963,牡丹江市,第一医院,细颗粒物(PM2.5),109,,26,82,22,66,,95,92,34,15,15,10,0.4,0.2
2025-03-23T1900,1787A,129.6364,44.6075,牡丹江市,机车工厂,颗粒物(PM10),68,86,39,35,21,57,,93,90,32,15,20,24,0.7,0.5
2025-03-23T1900,1788A,129.6386,44.5462,牡丹江市,第一中学,细颗粒物(PM2.5),60,50,24,43,20,68,,101,98,28,10,11,8,0.5,0.3
2025-03-23T1900,2531A,105.0703,29.61,内江市,市监测站,细颗粒物(PM2.5),64,72,71,46,69,106,,110,110,28,41,4,6,0.2,0.4
2025-03-23T1900,2532A,105.0717,29.5947,内江市,东兴区政府,细颗粒物(PM2.5),54,49,75,38,62,110,,108,108,23,36,6,6,0.5,0.8
2025-03-23T1900,2533A,105.0653,29.5817,内江市,内江二中,颗粒物(PM10),61,71,83,34,68,107,,108,108,25,38,9,10,0.7,0.9
2025-03-23T1900,2534A,105.0406,29.5822,内江市,内江日报社,颗粒物(PM10),62,73,90,35,71,105,,110,110,23,37,11,12,0.5,0.7
2025-03-23T1900,2628A,92.0657,31.4846,那曲市,那曲监测站,,32,11,32,7,11,102,,107,107,6,5,6,6,0.4,0.4
2025-03-23T1900,1290A,115.8931,28.6843,南昌市,省外办,颗粒物(PM10),77,104,104,53,64,43,,58,58,61,92,12,12,0.7,1.1
2025-03-23T1900,1291A,115.8886,28.7003,南昌市,省林业公司,,,,88,,46,35,,60,60,63,74,13,14,,
2025-03-23T1900,1292A,115.8126,28.7442,南昌市,林科所,颗粒物(PM10),60,70,70,34,33,57,,70,70,63,83,10,13,0.7,0.6
2025-03-23T1900,1294A,115.8518,28.687,南昌市,建工学校,颗粒物(PM10),66,82,91,43,47,42,,62,62,80,84,18,18,0.6,0.8
2025-03-23T1900,1295A,115.8921,28.6424,南昌市,象湖,颗粒物(PM10),63,76,97,44,43,60,,73,73,61,72,15,14,0.8,0.9
2025-03-23T1900,1296A,115.7423,28.7996,南昌市,武术学校,,45,,25,31,21,54,,79,78,16,13,8,8,0.6,0.5
2025-03-23T1900,3046A,115.9084,28.6062,南昌市,机电学校,颗粒物(PM10),77,104,104,46,50,54,,71,71,61,73,13,12,0.7,0.7
2025-03-23T1900,3690A,115.9721,28.7031,南昌市,外国语学校,颗粒物(PM10),68,86,101,38,47,64,,69,69,46,60,9,9,0.2,0.5
2025-03-23T1900,4192A,115.9316,28.68677,南昌市,南京东路235号,颗粒物(PM10),78,105,114,51,58,53,,72,72,59,74,10,11,0.5,0.8
2025-03-23T1900,1905A,106.056,30.8064,南充市,西山风景区,,48,48,80,32,68,146,,141,141,10,25,5,8,0.7,0.9
2025-03-23T1900,1906A,106.0789,30.8023,南充市,南充市委,,49,49,104,32,79,131,,127,127,26,39,5,7,0.6,0.9
2025-03-23T1900,1907A,106.1031,30.8217,南充市,南充炼油厂,细颗粒物(PM2.5),74,73,111,54,84,127,,122,122,28,44,5,8,0.4,0.7
2025-03-23T1900,1909A,106.0642,30.7636,南充市,嘉陵区环保局,颗粒物(PM10),55,60,106,34,72,127,,115,115,20,34,5,7,0.8,1
2025-03-23T1900,4227A,106.1083,30.7884,南充市,梨树横街98号,颗粒物(PM10),54,58,115,31,62,132,,126,126,24,36,7,9,0.4,0.6
2025-03-23T1900,4304A,106.1172,30.843,南充市,清泉寺北路188号,颗粒物(PM10),60,69,113,32,77,132,,120,120,27,44,8,10,0.3,0.6
2025-03-23T1900,1151A,118.8086,32.1065,南京市,迈皋桥,,40,40,62,27,37,115,,121,121,23,52,4,15,0.3,0.7
2025-03-23T1900,1152A,118.7538,32.0551,南京市,草场门,,46,46,77,24,38,102,,104,104,19,53,8,15,0.6,0.8
2025-03-23T1900,1153A,118.7794,32.0745,南京市,山西路,,44,44,82,22,37,108,,115,115,16,43,3,10,0.7,1
2025-03-23T1900,1154A,118.7752,32.0023,南京市,中华门,,46,46,75,24,38,98,,107,107,12,60,6,20,0.5,0.8
2025-03-23T1900,1155A,118.8109,32.0309,南京市,瑞金路,,48,48,84,22,40,106,,115,115,8,68,7,7,0.5,1.1
2025-03-23T1900,1156A,118.7997,32.0754,南京市,玄武湖,颗粒物(PM10),51,51,83,23,35,107,,114,114,11,37,5,11,0.4,0.8
2025-03-23T1900,1157A,118.6414,32.0931,南京市,浦口,颗粒物(PM10),52,54,76,17,27,123,,136,136,13,24,7,10,0.2,0.3
2025-03-23T1900,1158A,118.7356,31.9996,南京市,奥体中心,颗粒物(PM10),52,53,85,27,41,101,,114,114,26,70,8,17,0.5,1
2025-03-23T1900,1159A,118.9125,32.1028,南京市,仙林大学城,,48,48,79,22,36,106,,118,118,18,58,10,13,0.7,1.1
2025-03-23T1900,3422A,118.8436,31.9198,南京市,江宁彩虹桥,颗粒物(PM10),54,57,83,24,36,110,,125,125,16,60,4,7,0.5,0.7
2025-03-23T1900,3423A,119.0138,31.6494,南京市,溧水永阳,颗粒物(PM10),52,53,58,35,40,83,,119,114,33,37,10,7,0.9,0.6
2025-03-23T1900,3427A,118.8554,32.3578,南京市,六合雄州,,47,47,72,20,32,106,,123,123,17,31,6,8,0.3,0.5
2025-03-23T1900,4249A,118.8708,31.3402,南京市,汶溪路181号,细颗粒物(PM2.5),63,58,60,45,37,77,,126,116,39,26,9,8,1.0,0.6
2025-03-23T1900,1401A,108.3103,22.7881,南宁市,二十一中,臭氧1小时,68,48,54,45,41,174,,169,169,18,25,7,9,0.7,0.6
2025-03-23T1900,1402A,108.3141,22.8528,南宁市,北湖,颗粒物(PM10),54,57,60,36,37,141,,160,160,25,28,9,11,0.6,0.5
2025-03-23T1900,1403A,108.3206,22.8225,南宁市,市监测站,,50,48,56,35,38,155,,161,161,26,24,9,12,0.8,0.8
2025-03-23T1900,1404A,108.3829,22.8037,南宁市,大自然花园,"颗粒物(PM10),细颗粒物(PM2.5)",54,57,54,38,38,158,,167,167,20,20,7,9,0.6,0.6
2025-03-23T1900,1405A,108.4394,22.7904,南宁市,仙葫,,45,45,54,28,38,140,,146,146,12,21,4,5,0.5,0.4
2025-03-23T1900,1406A,108.2397,22.8467,南宁市,区农职院,,49,46,65,32,40,154,,168,168,26,28,5,8,0.8,0.8
2025-03-23T1900,1407A,108.3275,22.735,南宁市,英华嘉园,臭氧1小时,55,48,59,35,35,164,,169,169,25,29,9,10,0.7,0.6
2025-03-23T1900,3401A,108.4834,22.7618,南宁市,红星社区,,,,49,38,34,143,,159,159,20,23,9,11,0.6,0.7
2025-03-23T1900,4221A,108.2177,22.7774,南宁市,乐贤路16号,颗粒物(PM10),51,51,68,33,36,143,,155,155,23,41,11,12,0.7,0.6
2025-03-23T1900,2332A,118.1681,26.6369,南平市,南平市监测站,颗粒物(PM10),59,68,39,40,25,77,,136,134,43,24,3,3,1.3,0.7
2025-03-23T1900,2333A,118.1825,26.6489,南平市,南平铝业有限公司,"颗粒物(PM10),细颗粒物(PM2.5)",57,64,39,40,25,89,,131,130,28,21,7,9,0.8,0.6
2025-03-23T1900,2334A,118.1756,26.6272,南平市,南平七中,颗粒物(PM10),59,68,36,40,25,78,,130,129,41,23,6,5,1.0,0.5
2025-03-23T1900,1168A,120.9098,31.9663,南通市,狼山街道,颗粒物(PM10),62,74,86,31,46,113,,148,147,32,75,8,11,0.5,0.8
2025-03-23T1900,1169A,120.86,32.0005,南通市,虹桥,,,90,93,40,56,,,130,130,,97,,16,,1
2025-03-23T1900,1170A,120.87,32.02,南通市,城中,颗粒物(PM10),75,99,107,37,51,98,,123,123,42,90,12,17,0.9,1.1
2025-03-23T1900,1171A,120.94,31.93,南通市,星湖花园,颗粒物(PM10),62,74,86,27,46,101,,147,144,50,76,8,12,0.4,0.7
2025-03-23T1900,1172A,120.81,32.0417,南通市,紫琅学院,颗粒物(PM10),85,120,102,35,47,109,,127,127,40,90,8,12,0.8,0.9
2025-03-23T1900,3291A,121.067,32.062,南通市,通州监测站,颗粒物(PM10),79,107,100,31,52,117,,155,154,35,72,9,11,0.8,1.1
2025-03-23T1900,3432A,120.9348,31.9883,南通市,环境教育馆,颗粒物(PM10),79,107,105,32,49,127,,155,155,26,73,9,13,0.5,0.9
2025-03-23T1900,2404A,112.5224,33.0122,南阳市,瓦房庄,颗粒物(PM10),75,99,97,32,40,104,,102,102,16,36,3,3,0.4,0.6
2025-03-23T1900,2405A,112.5003,32.9735,南阳市,汉画馆,颗粒物(PM10),65,80,86,31,37,96,,96,96,26,43,5,6,0.3,0.5
2025-03-23T1900,2406A,112.5573,33.027,南阳市,气象站,颗粒物(PM10),69,88,102,24,37,108,,102,102,21,43,6,7,0.5,0.6
2025-03-23T1900,2407A,112.5481,32.9689,南阳市,理工学院,颗粒物(PM10),68,86,88,22,33,102,,101,101,26,41,4,5,0.4,0.5
2025-03-23T1900,4008A,112.5234,32.9922,南阳市,卧龙区政府,颗粒物(PM10),69,87,98,28,40,94,,94,94,22,38,4,5,0.4,0.6
2025-03-23T1900,1234A,121.8358,29.911,宁波市,区环保大楼,颗粒物(PM10),68,86,96,35,35,110,,145,143,60,96,8,12,0.6,0.7
2025-03-23T1900,1235A,121.56,29.82,宁波市,万里学院,颗粒物(PM10),55,60,56,37,32,157,,166,166,27,32,11,11,0.4,0.4
2025-03-23T1900,1236A,121.713,29.9572,宁波市,龙赛医院,颗粒物(PM10),65,80,76,35,32,130,,160,160,43,52,8,9,0.6,0.6
2025-03-23T1900,1239A,121.633,29.7733,宁波市,钱湖水厂,,50,50,44,32,26,154,,169,169,18,17,8,8,0.6,0.6
2025-03-23T1900,1240A,121.5856,29.8635,宁波市,太古小学,颗粒物(PM10),53,56,58,26,30,155,,168,168,22,33,9,10,0.5,0.6
2025-03-23T1900,1241A,121.524,29.8674,宁波市,市环境监测中心,颗粒物(PM10),56,62,61,16,32,140,,164,164,60,57,10,12,0.8,0.9
2025-03-23T1900,2871A,121.6147,29.9017,宁波市,万里国际学校,臭氧1小时,55,56,51,24,27,164,,172,172,17,24,8,9,0.5,0.5
2025-03-23T1900,3710A,121.5594,29.8975,宁波市,白沙活动中心,颗粒物(PM10),57,63,56,34,31,151,,176,176,36,42,8,9,0.7,0.7
2025-03-23T1900,2341A,119.5388,26.6612,宁德市,宁德市监测站,细颗粒物(PM2.5),67,54,42,48,28,160,,160,160,32,21,8,6,1.0,0.7
2025-03-23T1900,3209A,119.5231,26.6562,宁德市,宁德一中,细颗粒物(PM2.5),82,67,40,60,28,140,,156,156,28,16,10,7,1.2,0.7
2025-03-23T1900,2618A,98.8601,25.8567,怒江傈僳族自治州,州监测站,,26,26,23,15,15,76,,63,63,4,6,5,4,0.4,0.4
2025-03-23T1900,2619A,98.8546,25.8417,怒江傈僳族自治州,泸水一中,,24,24,20,14,16,63,,55,55,11,12,6,6,0.4,0.4
2025-03-23T1900,1888A,101.6891,26.571,攀枝花市,弄弄坪,颗粒物(PM10),52,54,79,8,48,88,,114,114,24,40,21,36,2.5,2
2025-03-23T1900,1889A,101.5769,26.5928,攀枝花市,河门口,,32,13,57,6,37,100,,116,116,13,29,11,17,0.5,1
2025-03-23T1900,1890A,101.7169,26.585,攀枝花市,炳草岗,,47,47,73,22,42,91,,114,114,23,48,16,17,0.9,1
2025-03-23T1900,1891A,101.7369,26.5008,攀枝花市,仁和,,34,14,56,14,41,108,,122,122,12,24,6,11,0.5,0.7
2025-03-23T1900,2835A,101.7227,26.567,攀枝花市,四十中小,颗粒物(PM10),51,52,72,32,44,102,,118,118,17,32,13,19,0.9,1.4
2025-03-23T1900,1604A,122.0303,41.1489,盘锦市,开发区,颗粒物(PM10),81,111,124,53,107,78,,102,100,44,49,17,17,0.9,1.1
2025-03-23T1900,1605A,122.0485,41.0883,盘锦市,兴隆台,细颗粒物(PM2.5),87,114,118,64,85,70,,92,90,49,56,9,11,0.9,1.1
2025-03-23T1900,1606A,121.8297,41.1028,盘锦市,新生街道,细颗粒物(PM2.5),74,82,95,54,93,66,,90,89,53,53,10,11,0.8,1
2025-03-23T1900,1832A,113.3257,33.742,平顶山市,新华旅馆,颗粒物(PM10),65,79,100,27,31,114,,122,122,28,37,4,5,0.3,0.3
2025-03-23T1900,1833A,113.2919,33.737,平顶山市,规划设计院,颗粒物(PM10),75,99,102,36,38,104,,114,114,24,39,6,7,0.7,0.6
2025-03-23T1900,1834A,113.182,33.774,平顶山市,平顶山工学院,颗粒物(PM10),73,96,93,34,34,114,,118,118,11,17,7,7,0.5,0.5
2025-03-23T1900,3204A,113.3025,33.73,平顶山市,规划局,颗粒物(PM10),70,90,100,39,41,107,,117,117,24,36,5,6,0.5,0.5
2025-03-23T1900,3594A,112.8867,33.9116,平顶山市,石龙区,颗粒物(PM10),77,103,122,33,33,114,,123,122,25,26,9,8,0.2,0.2
2025-03-23T1900,2657A,106.7021,35.5307,平凉市,博物馆,颗粒物(PM10),75,100,111,27,34,96,,103,102,12,24,19,21,0.3,0.5
2025-03-23T1900,2347A,114.0997,27.5002,萍乡市,武功山,细颗粒物(PM2.5),58,56,36,41,22,76,,112,109,19,12,15,10,1.3,1.2
2025-03-23T1900,2348A,113.8385,27.6434,萍乡市,中医院,细颗粒物(PM2.5),74,96,77,54,38,91,,94,94,36,36,36,17,1.0,1.1
2025-03-23T1900,2349A,113.8493,27.6253,萍乡市,市政府车库,细颗粒物(PM2.5),78,67,62,57,43,98,,99,99,29,32,27,14,0.8,1.1
2025-03-23T1900,2350A,113.8676,27.6435,萍乡市,市环保局,细颗粒物(PM2.5),78,95,76,57,44,91,,91,91,35,43,31,16,0.9,1.1
2025-03-23T1900,2351A,113.866,27.6198,萍乡市,安源区政府,细颗粒物(PM2.5),70,78,68,51,35,107,,103,103,18,27,26,18,0.7,1.4
2025-03-23T1900,2319A,119.0141,25.4325,莆田市,荔城区仓后路,颗粒物(PM10),61,72,63,33,42,125,,183,182,36,24,5,4,0.8,0.7
2025-03-23T1900,2320A,119.0015,25.4553,莆田市,莆田市监测站,颗粒物(PM10),56,61,50,32,35,133,,192,191,26,17,6,5,0.5,0.4
2025-03-23T1900,2321A,119.1119,25.4561,莆田市,涵江区六中,颗粒物(PM10),57,64,61,30,44,134,,183,183,32,32,4,5,0.5,0.5
2025-03-23T1900,2322A,119.1013,25.3215,莆田市,秀屿区政府,颗粒物(PM10),58,66,76,33,55,143,,184,181,28,37,5,6,0.5,0.6
2025-03-23T1900,2392A,115.0312,35.7636,濮阳市,环保局,颗粒物(PM10),101,152,107,38,37,103,,93,93,26,39,8,9,0.5,0.7
2025-03-23T1900,2394A,115.0574,35.7609,濮阳市,油田运输公司,颗粒物(PM10),101,151,125,33,34,109,,98,98,24,37,5,7,0.8,0.9
2025-03-23T1900,3021A,115,35.7668,濮阳市,濮水河管理处,颗粒物(PM10),113,176,138,34,37,93,,92,92,39,50,5,7,0.6,0.8
2025-03-23T1900,4216A,115.0924,35.7686,濮阳市,任丘路479号,颗粒物(PM10),108,165,127,35,34,120,,109,109,20,34,6,8,0.6,0.6
2025-03-23T1900,2601A,100.98,22.7633,普洱市,市环保局,细颗粒物(PM2.5),113,95,76,85,26,120,,116,116,12,13,4,4,0.8,0.9
2025-03-23T1900,2602A,100.9817,22.8322,普洱市,普洱第二中学,,,,,39,31,108,,108,108,15,16,6,6,0.6,0.8
2025-03-23T1900,2262A,131.0518,45.8751,七台河市,新一中,,34,34,13,15,7,88,,79,,10,7,12,11,0.6,0.6
2025-03-23T1900,3345A,131.0577,45.7879,七台河市,中波台,,36,36,18,14,8,79,,83,83,22,16,8,7,0.5,0.5
2025-03-23T1900,3637A,131.0176,45.7761,七台河市,人民广场,,46,45,29,32,18,82,,82,82,19,16,9,8,0.5,0.6
2025-03-23T1900,3684A,130.8781,45.8222,七台河市,新建矿广场,颗粒物(PM10),54,58,25,22,19,66,,85,80,29,14,11,10,1.0,0.6
2025-03-23T1900,1779A,123.9305,47.3636,齐齐哈尔市,安居小区,细颗粒物(PM2.5),299,344,79,249,38,190,,133,133,50,21,18,9,1.3,0.5
2025-03-23T1900,1780A,123.9488,47.3386,齐齐哈尔市,中心广场,细颗粒物(PM2.5),399,413,94,349,46,193,,124,124,37,18,13,8,1.3,0.5
2025-03-23T1900,1781A,123.9483,47.3227,齐齐哈尔市,农牧车辆厂,细颗粒物(PM2.5),258,364,77,208,28,201,,138,138,40,15,15,7,0.8,0.3
2025-03-23T1900,1783A,123.945,47.2988,齐齐哈尔市,市环境监测站,细颗粒物(PM2.5),325,394,74,275,38,197,,132,132,42,13,13,4,1.3,0.4
2025-03-23T1900,3662A,123.6333,47.2075,齐齐哈尔市,富区青少年活动中心,细颗粒物(PM2.5),436,420,115,403,62,134,,127,127,54,16,19,8,1.6,0.6
2025-03-23T1900,2591A,107.9783,26.5747,黔东南苗族侗族自治州,市环境监测站,细颗粒物(PM2.5),62,68,62,44,46,117,,111,111,14,20,7,7,0.4,0.5
2025-03-23T1900,2881A,107.8908,26.5311,黔东南苗族侗族自治州,凯里学院,颗粒物(PM10),67,83,64,42,42,129,,124,124,8,9,7,6,0.6,0.6
2025-03-23T1900,2593A,107.5228,26.2403,黔南布依族苗族自治州,小围寨,颗粒物(PM10),58,66,59,39,41,134,,133,133,9,12,9,12,0.7,0.8
2025-03-23T1900,3538A,107.5175,26.2978,黔南布依族苗族自治州,沙坝,颗粒物(PM10),65,80,66,41,43,134,,132,132,12,17,8,10,0.5,0.6
2025-03-23T1900,2589A,104.9022,25.0925,黔西南布依族苗族自治州,场坝街,细颗粒物(PM2.5),104,,75,78,69,125,,165,162,19,21,18,24,0.4,0.6
2025-03-23T1900,2590A,104.8811,25.0992,黔西南布依族苗族自治州,坪东大道,细颗粒物(PM2.5),97,77,73,72,64,105,,162,156,30,28,16,12,0.3,0.5
2025-03-23T1900,2502A,108.6236,21.9667,钦州市,市环保站,,,,78,22,35,112,,137,137,19,35,7,11,0.4,0.5
2025-03-23T1900,2503A,108.6549,21.9481,钦州市,沙埠小学,颗粒物(PM10),53,55,84,25,48,102,,131,130,21,44,7,13,0.6,0.7
2025-03-23T1900,2504A,108.5989,21.7431,钦州市,港区一小,颗粒物(PM10),62,73,91,23,38,91,,113,110,29,56,6,10,0.7,0.9
2025-03-23T1900,3404A,108.5959,21.9633,钦州市,北职校,颗粒物(PM10),57,64,76,22,43,100,,137,135,25,39,8,12,0.6,0.7
2025-03-23T1900,1043A,119.7493,40.0116,秦皇岛市,第一关,颗粒物(PM10),145,240,83,67,30,68,,78,78,43,58,8,10,0.6,0.5
2025-03-23T1900,1044A,119.5897,39.9499,秦皇岛市,监测站,颗粒物(PM10),108,166,92,28,24,106,,84,84,15,36,7,15,0.5,0.6
2025-03-23T1900,1046A,119.5251,39.9041,秦皇岛市,建设大厦,颗粒物(PM10),130,209,100,40,28,103,,87,87,19,41,8,17,0.5,0.6
2025-03-23T1900,3132A,119.610547,39.943889,秦皇岛市,文明里,颗粒物(PM10),125,199,98,34,23,93,,71,71,22,39,7,14,0.4,0.5
2025-03-23T1900,4198A,119.5090,39.8253,秦皇岛市,北戴河轮滑馆,颗粒物(PM10),123,196,104,34,29,101,,75,75,17,32,9,13,0.3,0.7
2025-03-23T1900,1307A,120.6659,36.2403,青岛市,仰口,颗粒物(PM10),87,124,82,42,34,106,,125,124,22,16,8,6,0.4,0.4
2025-03-23T1900,1310A,120.4134,36.0658,青岛市,市南区东部子站,颗粒物(PM10),106,161,124,66,49,19,,64,53,101,66,15,16,1.0,0.8
2025-03-23T1900,1311A,120.3664,36.1032,青岛市,四方区子站,颗粒物(PM10),103,156,115,58,50,23,,92,72,113,79,13,16,1.2,1.2
2025-03-23T1900,1312A,120.2994,36.054,青岛市,市南区西部子站,颗粒物(PM10),102,153,120,56,45,12,,59,45,119,78,18,14,1.0,1
2025-03-23T1900,1313A,120.4581,36.0858,青岛市,崂山区子站,颗粒物(PM10),95,139,111,58,43,34,,69,58,77,51,15,15,0.9,0.9
2025-03-23T1900,1315A,120.3999,36.3083,青岛市,城阳区子站,颗粒物(PM10),106,161,117,56,38,31,,105,87,113,76,15,14,1.1,1
2025-03-23T1900,1966A,120.0405,35.8735,青岛市,黄岛区4号,颗粒物(PM10),74,97,93,17,34,119,,97,81,12,38,8,12,0.5,0.8
2025-03-23T1900,3362A,120.5014,36.4034,青岛市,即墨2号,颗粒物(PM10),130,209,128,79,51,37,,110,95,90,48,16,14,1.2,0.9
2025-03-23T1900,3642A,120.3503,36.0736,青岛市,市北区南部,颗粒物(PM10),98,145,105,58,46,18,,72,54,88,44,13,14,0.9,1
