timepoint,stationcode,longitude,latitude,area,positionname,primarypollutant,aqi,pm10,pm10_24h,pm2_5,pm2_5_24h,o3,o3_24h,o3_8h,o3_8h_24h,no2,no2_24h,so2,so2_24h,co,co_24h
2024-10-08T1500,2566A,102.1879,31.914,阿坝藏族羌族自治州,州农科所,,23,7,25,3,9,71,,41,41,6,12,7,13,0,0
2024-10-08T1500,2568A,102.2502,31.8896,阿坝藏族羌族自治州,马师校,,26,13,18,9,13,81,,37,37,5,6,4,5,0.2,0.3
2024-10-08T1500,3994A,102.2165,31.9024,阿坝藏族羌族自治州,马尔康中学西区,,24,6,19,6,14,76,,34,34,5,8,6,6,0.3,0.4
2024-10-08T1500,2695A,80.292,41.1694,阿克苏地区,电视台,颗粒物(PM10),97,143,143,43,43,70,,44,37,29,31,6,4,0.6,0.6
2024-10-08T1500,2696A,80.2613,41.1551,阿克苏地区,艺术中心,颗粒物(PM10),87,124,137,32,42,80,,43,43,20,34,3,4,0.7,0.7
2024-10-08T1500,2204A,105.6467,38.8363,阿拉善盟,西城区西花园,,38,35,38,17,23,120,,97,78,8,14,10,10,0.9,0.9
2024-10-08T1500,2205A,105.6985,38.8411,阿拉善盟,蒙二幼,,34,34,36,16,15,104,,89,70,6,12,8,8,0.7,0.7
2024-10-08T1500,2206A,105.724,38.8516,阿拉善盟,环保局新楼,,36,36,30,18,14,104,,101,81,8,9,9,9,0.6,0.5
2024-10-08T1500,2708A,88.1264,47.8517,阿勒泰地区,市站,,30,25,50,21,12,93,,74,60,11,19,7,8,0.4,0.4
2024-10-08T1500,2630A,80.1161,32.5,阿里地区,阿里监测站,,36,7,14,3,7,115,,84,84,1,17,6,6,0.3,0.4
2024-10-08T1500,3192A,80.0903,32.5028,阿里地区,阿里藏医院,,37,10,18,3,7,116,,80,80,2,14,5,6,0.4,0.5
2024-10-08T1500,2643A,109.0281,32.6939,安康市,安康市监测站,,37,35,37,24,26,116,,76,76,7,14,8,14,0.5,0.6
2024-10-08T1500,2644A,109.0072,32.6975,安康市,汉滨区检察院,,35,28,35,19,22,111,,68,68,7,13,8,9,0.4,0.4
2024-10-08T1500,2291A,117.0809,30.5177,安庆市,环科院,,42,42,20,26,17,112,,89,89,12,15,7,7,0.5,0.5
2024-10-08T1500,2292A,117.0331,30.5119,安庆市,马山宾馆,颗粒物(PM10),51,51,20,28,17,116,,96,96,15,17,10,9,0.4,0.4
2024-10-08T1500,2294A,116.9896,30.6145,安庆市,安庆大学,,38,38,20,22,15,109,,93,93,10,9,8,8,0.5,0.5
2024-10-08T1500,3173A,117.0598,30.5351,安庆市,市人大,,45,45,20,29,18,110,,90,90,13,13,7,7,0.5,0.6
2024-10-08T1500,3123A,105.9408,26.2431,安顺市,凤凰山,细颗粒物(PM2.5),52,37,31,36,28,68,,68,68,10,9,8,9,0.5,0.4
2024-10-08T1500,3124A,105.9439,26.2564,安顺市,金钟山,细颗粒物(PM2.5),53,37,31,37,31,71,,69,69,9,9,9,11,0.6,0.5
2024-10-08T1500,3125A,105.8983,26.2481,安顺市,娄家坡,,45,40,34,31,28,72,,69,69,11,10,9,11,0.7,0.6
2024-10-08T1500,1819A,114.3551,36.1017,安阳市,红庙街,细颗粒物(PM2.5),92,83,107,68,90,137,,97,97,20,32,1,3,0.6,1.1
2024-10-08T1500,1820A,114.361,36.0681,安阳市,银杏小区,细颗粒物(PM2.5),104,,98,78,96,141,,88,88,10,24,3,3,0.7,1.2
2024-10-08T1500,3141A,114.3922,36.0878,安阳市,信访局,细颗粒物(PM2.5),103,,112,77,89,136,,81,81,18,42,,2,,1
2024-10-08T1500,3669A,114.4705,36.0637,安阳市,左辅环卫站,颗粒物(PM10),88,126,144,61,86,137,,80,80,19,44,4,4,0.9,1.2
2024-10-08T1500,3703A,114.2917,36.0949,安阳市,安钢职工学校,细颗粒物(PM2.5),100,83,111,75,103,139,,81,81,13,29,1,2,0.6,1
2024-10-08T1500,1748A,123.044,41.1196,鞍山市,深沟寺,,44,44,39,20,22,61,,42,42,43,29,28,12,2.1,1.3
2024-10-08T1500,1749A,123.011,41.0931,鞍山市,太阳城,,30,30,37,18,25,79,,52,52,28,29,20,15,1.1,1.1
2024-10-08T1500,1750A,123.0485,41.1442,鞍山市,太平,,49,49,52,24,28,57,,38,38,50,41,34,20,2.2,1.5
2024-10-08T1500,1751A,122.9642,41.0971,鞍山市,铁西三道街,,43,43,73,18,31,90,,54,54,19,39,12,11,0.6,1.2
2024-10-08T1500,1752A,122.9341,41.0833,鞍山市,铁西工业园区,,39,39,62,20,34,99,,60,60,19,38,13,13,0.5,0.9
2024-10-08T1500,1753A,123.022,41.0821,鞍山市,明达新区,,31,31,42,19,27,79,,50,50,21,26,14,11,1.0,1.1
2024-10-08T1500,2195A,107.4212,40.761,巴彦淖尔市,附二中,颗粒物(PM10),59,68,62,24,29,105,,53,53,16,30,10,12,0.6,0.5
2024-10-08T1500,2196A,107.37,40.7372,巴彦淖尔市,市环保大楼,颗粒物(PM10),57,64,46,32,18,117,,59,59,11,25,8,4,0.5,0.5
2024-10-08T1500,1956A,86.1472,41.7538,巴音郭楞蒙古自治州,孔雀公园,颗粒物(PM10),61,71,122,26,30,96,,61,61,12,48,4,3,0.3,0.5
2024-10-08T1500,1957A,86.1972,41.7166,巴音郭楞蒙古自治州,棉纺厂,颗粒物(PM10),60,70,160,8,33,102,,68,68,6,31,6,6,0.2,0.4
2024-10-08T1500,1958A,86.2357,41.7173,巴音郭楞蒙古自治州,经济开发区,,39,34,149,27,35,104,,85,85,3,16,7,7,0.2,0.2
2024-10-08T1500,2914A,106.7677,31.8794,巴中市,苏山坪,,28,23,33,19,27,86,,67,67,12,17,3,3,0.4,0.5
2024-10-08T1500,3182A,106.7656,31.8545,巴中市,丽阳花园,,29,28,41,20,29,84,,48,48,15,25,5,5,0.5,0.6
2024-10-08T1500,3183A,106.7418,31.8654,巴中市,圣泉水务公司,,28,23,37,18,29,88,,43,43,10,29,5,5,0.4,0.6
2024-10-08T1500,3616A,106.7616,31.8344,巴中市,市中心医院,,28,26,42,11,26,88,,49,49,11,20,5,4,0.4,0.5
2024-10-08T1500,2235A,122.7911,45.6077,白城市,洮北区环保局,,29,17,29,6,13,91,,76,76,6,14,2,4,0.3,0.4
2024-10-08T1500,2236A,122.8738,45.5725,白城市,市环保局,,27,22,28,6,16,86,,72,72,8,15,5,5,0.3,0.4
2024-10-08T1500,2231A,126.4219,41.9171,白山市,喜丰,,19,19,49,7,18,4,,9,6,5,25,7,8,0.4,0.5
2024-10-08T1500,2232A,126.4077,41.9419,白山市,环保局,,27,,43,13,17,85,,60,60,11,19,8,8,0.7,0.7
2024-10-08T1500,2647A,104.1724,36.5446,白银市,第三小学,,46,46,66,18,40,76,,41,41,14,34,12,58,0.7,1.5
2024-10-08T1500,2648A,104.1465,36.5482,白银市,动力公司,,32,32,51,18,33,65,,36,36,8,26,5,12,0.5,1.1
2024-10-08T1500,2512A,106.6103,23.9011,百色市,市监测站,,30,29,38,21,26,92,,55,55,6,13,6,6,0.7,0.8
2024-10-08T1500,2513A,106.6538,23.8859,百色市,市中心血站,,42,30,53,29,35,93,,56,56,7,19,5,5,0.6,0.7
2024-10-08T1500,3406A,106.6085,23.8798,百色市,祈福高中,,35,34,54,24,31,86,,55,55,8,19,4,4,0.7,0.8
2024-10-08T1500,2270A,117.396,32.939,蚌埠市,工人疗养院,颗粒物(PM10),57,64,46,36,26,130,,99,99,8,19,6,6,0.5,0.4
2024-10-08T1500,2271A,117.3605,32.9427,蚌埠市,百货大楼,颗粒物(PM10),54,58,46,32,27,126,,98,98,12,20,6,6,0.6,0.4
2024-10-08T1500,2273A,117.4185,32.8911,蚌埠市,蚌埠学院,,49,46,31,34,28,128,,98,98,7,21,6,7,0.5,0.4
2024-10-08T1500,2274A,117.3533,32.9673,蚌埠市,淮上区政府,细颗粒物(PM2.5),53,48,41,37,30,129,,96,96,8,21,7,6,0.5,0.4
2024-10-08T1500,2275A,117.3145,32.8977,蚌埠市,高新区,细颗粒物(PM2.5),54,51,33,38,27,129,,98,98,14,30,8,7,0.5,0.4
2024-10-08T1500,3715A,117.3092,32.9314,蚌埠市,蚌埠田家炳中学,颗粒物(PM10),56,61,47,33,26,131,,98,98,9,30,6,6,0.4,0.3
2024-10-08T1500,1585A,109.8756,40.6532,包头市,市环境监测站,,,36,53,24,21,98,,58,58,21,45,10,18,,1
2024-10-08T1500,1587A,109.9991,40.5842,包头市,包头八中,,42,42,65,21,35,98,,52,52,22,48,7,16,0.7,1.2
2024-10-08T1500,1588A,109.8538,40.6821,包头市,青山宾馆,,36,36,37,22,23,102,,56,56,23,38,19,17,0.8,0.9
2024-10-08T1500,1589A,109.8642,40.6288,包头市,惠龙物流,,38,38,47,26,26,103,,56,56,20,45,12,17,0.5,0.8
2024-10-08T1500,1590A,110.0377,40.5546,包头市,东河鸿龙湾,,36,36,58,15,24,106,,56,56,14,40,10,12,0.4,0.8
2024-10-08T1500,3283A,109.9154,40.5685,包头市,滨河大厦,,36,33,50,25,26,98,,58,58,20,48,14,17,0.5,0.8
2024-10-08T1500,3419A,109.9447,40.6261,包头市,包头市委党校,,41,41,51,22,26,106,,56,56,19,47,10,21,0.4,0.9
2024-10-08T1500,3683A,109.8331,40.6576,包头市,昆区政府,,50,47,43,35,26,99,,59,59,24,36,22,18,0.6,0.7
2024-10-08T1500,1930A,107.185,34.3063,宝鸡市,庙沟村,细颗粒物(PM2.5),110,137,54,83,37,74,,60,60,22,18,7,7,1.0,0.7
2024-10-08T1500,1931A,107.0708,34.3017,宝鸡市,竹园沟,细颗粒物(PM2.5),133,124,49,101,39,86,,60,60,21,19,8,8,0.7,0.5
2024-10-08T1500,1932A,107.1906,34.3672,宝鸡市,三陆医院,细颗粒物(PM2.5),163,176,78,124,58,100,,75,75,38,41,8,7,1.0,0.6
2024-10-08T1500,1933A,107.1431,34.3547,宝鸡市,监测站,细颗粒物(PM2.5),153,160,66,117,49,100,,65,65,31,25,8,8,0.8,0.6
2024-10-08T1500,1934A,107.1186,34.3739,宝鸡市,技工学校,细颗粒物(PM2.5),199,,68,149,51,112,,67,67,34,29,9,8,0.9,0.7
2024-10-08T1500,1935A,107.3906,34.3528,宝鸡市,陈仓区环保局家属楼,细颗粒物(PM2.5),163,136,80,124,72,139,,83,83,24,40,12,10,0.9,0.7
2024-10-08T1500,1936A,107.2058,34.3497,宝鸡市,文理学院,细颗粒物(PM2.5),115,157,68,87,46,85,,68,68,40,31,10,9,0.9,0.6
2024-10-08T1500,1937A,107.2386,34.3622,宝鸡市,三迪小学,细颗粒物(PM2.5),183,166,70,138,56,103,,73,73,45,39,10,9,1.0,0.7
2024-10-08T1500,1051A,115.493,38.8632,保定市,游泳馆,细颗粒物(PM2.5),74,72,79,54,60,139,,71,71,7,40,6,2,0.7,0.6
2024-10-08T1500,1052A,115.5213,38.8959,保定市,华电二区,细颗粒物(PM2.5),67,54,73,48,55,125,,64,64,15,34,7,3,0.7,0.4
2024-10-08T1500,1053A,115.4713,38.9108,保定市,接待中心,细颗粒物(PM2.5),77,73,81,56,64,124,,71,71,14,33,5,3,0.6,0.5
2024-10-08T1500,1054A,115.4612,38.8416,保定市,地表水厂,细颗粒物(PM2.5),83,65,82,61,64,133,,68,68,10,38,5,3,0.3,0.2
2024-10-08T1500,3581A,115.31981,38.95208,保定市,满城区生态环境分局,细颗粒物(PM2.5),67,78,79,48,52,137,,81,81,15,27,5,4,0.6,0.6
2024-10-08T1500,3582A,115.47694,38.76408,保定市,清苑区第二中学,细颗粒物(PM2.5),79,74,82,58,59,138,,71,71,13,44,9,6,0.7,0.5
2024-10-08T1500,3583A,115.62909,39.02311,保定市,徐水物探局,细颗粒物(PM2.5),67,54,64,48,46,126,,66,66,13,36,7,5,0.6,0.4
2024-10-08T1500,4004A,115.4202,38.8656,保定市,双鹰农机,细颗粒物(PM2.5),73,77,84,53,53,137,,72,72,18,46,5,3,0.7,0.6
2024-10-08T1500,4034A,115.5150,38.8590,保定市,植保所站,细颗粒物(PM2.5),73,63,79,53,56,140,,68,68,16,47,6,4,0.6,0.5
2024-10-08T1500,2594A,99.1678,25.1081,保山市,市环境监测站,,17,17,23,3,10,51,,32,32,4,6,5,5,0.3,0.4
2024-10-08T1500,2595A,99.1711,25.1328,保山市,市环保局,,24,24,22,3,7,55,,38,38,3,5,3,4,0.3,0.3
2024-10-08T1500,1867A,109.1436,21.4086,北海市,海滩公园,颗粒物(PM10),60,69,69,42,42,158,,132,132,8,11,8,9,0.8,0.8
2024-10-08T1500,1868A,109.0981,21.4661,北海市,新市环保局,细颗粒物(PM2.5),64,62,64,46,45,160,,130,130,8,10,7,8,0.7,0.7
2024-10-08T1500,1869A,109.1778,21.5233,北海市,北海工业园,细颗粒物(PM2.5),62,67,69,44,48,156,,129,129,10,13,7,10,0.9,1
2024-10-08T1500,3400A,109.1911,21.4415,北海市,龙潭自来水厂,细颗粒物(PM2.5),67,58,63,48,48,154,,128,128,7,11,9,10,0.7,0.7
2024-10-08T1500,1001A,116.3621,39.8784,北京市,万寿西宫,,28,12,16,3,8,89,,51,51,4,32,1,1,0.6,0.4
2024-10-08T1500,1002A,116.2202,40.2915,北京市,定陵,,22,12,7,7,5,69,,48,48,14,10,1,2,0.2,0.2
2024-10-08T1500,1003A,116.4174,39.9289,北京市,东四,,30,17,23,8,13,93,,57,57,12,26,2,2,0.4,0.5
2024-10-08T1500,1004A,116.4072,39.8863,北京市,天坛,,29,13,19,6,12,91,,51,51,13,24,3,3,0.3,0.4
2024-10-08T1500,1005A,116.462,39.9365,北京市,农展馆,,28,17,21,8,11,87,,50,50,18,32,2,2,0.2,0.4
2024-10-08T1500,1006A,116.3392,39.9295,北京市,官园,,27,17,23,7,12,86,,50,50,8,28,3,3,0.1,0.4
2024-10-08T1500,1007A,116.2878,39.9611,北京市,海淀万柳,,28,16,24,6,12,87,,54,54,16,32,3,3,0.2,0.3
2024-10-08T1500,1008A,116.6636,40.135,北京市,顺义新城,,23,10,11,3,5,71,,52,52,23,25,1,3,0.2,0.2
2024-10-08T1500,1009A,116.6275,40.3275,北京市,怀柔镇,,26,9,7,3,4,83,,53,53,8,9,1,3,0.2,0.3
2024-10-08T1500,1010A,116.2296,40.217,北京市,昌平镇,,25,14,10,6,5,77,,53,53,16,20,4,4,0.2,0.2
2024-10-08T1500,1011A,116.3966,39.9821,北京市,奥体中心,,25,18,21,8,12,79,,45,45,17,38,3,3,0.4,0.4
2024-10-08T1500,1012A,116.184,39.9136,北京市,古城,,37,37,30,11,12,86,,47,47,11,29,3,3,0.5,0.6
2024-10-08T1500,3281A,115.9718,40.4529,北京市,延庆夏都,,25,22,16,14,8,77,,41,41,9,14,3,1,0.3,0.3
2024-10-08T1500,3417A,117.0709,40.1465,北京市,平谷新城,,26,6,10,3,6,82,,54,54,6,11,3,3,0.2,0.2
2024-10-08T1500,3418A,116.8336,40.4095,北京市,密云新城,,25,7,12,3,4,80,,55,55,2,14,1,3,0.2,0.2
2024-10-08T1500,3671A,116.088,39.9726,北京市,门头沟三家店,,30,27,15,9,6,96,,63,63,9,12,2,2,0.2,0.2
2024-10-08T1500,3672A,116.1541,39.8204,北京市,丰台云岗,,30,30,26,12,12,78,,47,47,17,30,3,3,0.2,0.3
2024-10-08T1500,3673A,116.6804,39.9081,北京市,通州东关,,34,22,24,8,9,108,,55,55,11,29,1,2,0.4,0.3
2024-10-08T1500,3674A,115.9577,39.7603,北京市,房山燕山,,24,21,21,9,13,75,,64,64,13,16,3,3,0.2,0.3
2024-10-08T1500,3675A,116.4672,39.7733,北京市,大兴旧宫,,26,16,26,7,10,82,,46,46,14,30,3,3,0.1,0.3
2024-10-08T1500,3694A,115.986,40.4563,北京市,延庆石河营,,25,25,14,14,8,72,,37,37,10,15,3,3,0.3,0.2
2024-10-08T1500,3695A,116.6151,40.3053,北京市,怀柔新城,,25,9,7,3,5,80,,52,52,9,11,3,3,0.1,0.2
2024-10-08T1500,3696A,116.2545,39.8768,北京市,丰台小屯,,28,19,24,9,12,87,,49,49,12,32,1,1,0.4,0.5
2024-10-08T1500,3697A,116.84,40.3844,北京市,密云镇,,26,6,13,3,6,83,,53,53,5,23,3,3,0.1,0.3
2024-10-08T1500,1761A,123.8275,41.3064,本溪市,大峪,,25,21,45,12,21,80,,51,51,18,28,12,12,0.7,1.3
2024-10-08T1500,1762A,123.7567,41.3325,本溪市,溪湖,,32,32,52,9,22,70,,44,44,33,33,16,10,0.7,0.8
2024-10-08T1500,1763A,123.7169,41.3094,本溪市,彩屯,,39,39,52,25,33,71,,40,40,31,40,16,15,1.3,1.4
2024-10-08T1500,1764A,123.7669,41.2864,本溪市,东明,颗粒物(PM10),53,55,64,19,27,64,,48,48,42,42,12,10,1.2,1.5
2024-10-08T1500,1765A,123.7992,41.2664,本溪市,新立屯,,34,34,32,13,15,65,,54,54,34,36,10,8,0.7,1
2024-10-08T1500,1766A,123.8142,41.3472,本溪市,威宁,,35,35,60,10,25,77,,60,60,19,29,10,8,0.5,0.6
2024-10-08T1500,2587A,105.2864,27.3125,毕节市,八中,,22,22,28,15,22,62,,51,51,19,13,7,6,0.5,0.5
2024-10-08T1500,2588A,105.31,27.2944,毕节市,师专,,23,21,28,16,23,60,,56,53,13,11,8,8,0.5,0.5
2024-10-08T1500,3537A,105.3631,27.3533,毕节市,长征村,,42,36,41,29,33,69,,61,61,9,9,10,8,0.6,0.5
2024-10-08T1500,1629A,118.0018,37.3617,滨州市,第二水厂,,41,31,47,17,24,130,,85,85,11,38,8,19,0.4,0.6
2024-10-08T1500,1630A,117.9776,37.393,滨州市,北中新校,,40,31,41,19,20,127,,84,84,11,32,10,10,0.4,0.5
2024-10-08T1500,3514A,117.9378,37.3956,滨州市,中海酒店,,44,36,50,17,31,138,,98,98,14,31,8,17,0.4,0.6
2024-10-08T1500,3515A,117.9378,37.3553,滨州市,开发区一中,,41,39,51,17,25,130,,86,86,11,37,11,34,0.0,0.3
2024-10-08T1500,3516A,118.0917,37.694,滨州市,金海六路,,40,32,45,14,19,125,,85,85,10,35,4,8,0.3,0.4
2024-10-08T1500,4028A,117.9956,37.3753,滨州市,滨州市西街道办事处,,42,27,42,22,29,133,,87,87,10,32,9,19,0.5,0.7
2024-10-08T1500,2311A,115.8072,33.8399,亳州市,污水处理厂,,48,48,52,32,34,148,,94,94,8,21,5,6,0.5,0.5
2024-10-08T1500,2312A,115.7789,33.8518,亳州市,三国揽胜宫,细颗粒物(PM2.5),52,47,43,36,40,139,,89,89,10,17,5,5,0.4,0.4
2024-10-08T1500,3332A,115.7633,33.8034,亳州市,亳州学院,颗粒物(PM10),61,71,69,31,45,146,,99,99,11,21,4,4,0.5,0.5
2024-10-08T1500,2693A,82.0485,44.8556,博尔塔拉蒙古自治州,市党校,,36,36,43,10,15,99,,64,64,6,14,5,8,0.2,0.3
2024-10-08T1500,2694A,82.0806,44.8969,博尔塔拉蒙古自治州,市环保局,,38,38,56,10,17,98,,54,54,9,21,5,7,0.4,0.5
2024-10-08T1500,1071A,116.8842,38.2991,沧州市,沧县城建局,,41,41,52,27,27,129,,82,82,12,47,4,4,0.5,0.6
2024-10-08T1500,1072A,116.8584,38.3254,沧州市,电视转播站,,50,50,44,31,23,139,,87,87,10,38,8,9,0.5,0.5
2024-10-08T1500,1073A,116.8709,38.3228,沧州市,市环保局,细颗粒物(PM2.5),53,52,54,37,32,135,,88,88,8,33,2,3,0.4,0.4
2024-10-08T1500,3324A,116.8136,38.3004,沧州市,河北水利电力学院,颗粒物(PM10),58,66,56,33,38,141,,83,83,10,44,4,4,0.4,0.4
2024-10-08T1500,2622A,97.1806,31.1273,昌都市,昌都监测站,,,,7,2,5,87,,60,60,5,6,8,8,0.6,0.5
2024-10-08T1500,3719A,97.1714,31.1406,昌都市,昌都会议中心,,30,7,7,3,4,95,,66,66,6,4,8,8,0.3,0.3
2024-10-08T1500,2690A,88.1236,43.8886,昌吉回族自治州,天山天池,,32,10,22,3,7,100,,74,69,2,5,8,8,0.5,0.5
2024-10-08T1500,2692A,87.2717,44.0297,昌吉回族自治州,新区政务中心,,33,13,50,3,20,103,,79,79,7,32,4,6,0.6,0.8
2024-10-08T1500,3613A,87.3095,44.0142,昌吉回族自治州,亚心广场,,32,17,65,3,15,101,,75,75,11,38,5,5,0.5,0.7
2024-10-08T1500,1119A,125.3325,43.9166,长春市,食品厂,,25,25,55,15,38,78,,62,62,14,37,5,6,0.2,0.4
2024-10-08T1500,1120A,125.2863,43.9027,长春市,客车厂,,23,20,56,13,41,73,,62,62,15,36,8,7,0.3,0.5
2024-10-08T1500,1121A,125.2841,43.8463,长春市,邮电学院,,26,16,51,10,36,83,,66,66,10,31,7,7,0.2,0.4
2024-10-08T1500,1122A,125.3716,43.8772,长春市,劳动公园,,29,29,53,8,30,89,,70,70,10,33,7,7,0.3,0.4
2024-10-08T1500,1123A,125.3297,43.8805,长春市,园林处,,24,24,48,12,32,75,,64,64,12,27,6,6,0.2,0.4
2024-10-08T1500,1124A,125.4605,43.79,长春市,净月潭,,26,24,32,10,22,82,,72,72,10,15,6,6,0.2,0.3
2024-10-08T1500,1125A,125.7194,43.515,长春市,甩湾子,,24,17,23,11,16,74,,62,62,8,11,6,6,0.4,0.5
2024-10-08T1500,1126A,125.3863,43.8447,长春市,经开区环卫处,,26,17,45,8,27,82,,60,60,11,35,8,8,0.4,0.6
2024-10-08T1500,1127A,125.245,43.7783,长春市,高新区管委会,,27,14,43,7,32,85,,67,67,7,29,6,6,0.3,0.4
2024-10-08T1500,1128A,125.1761,43.8325,长春市,岱山公园,,25,19,54,9,39,80,,64,64,7,33,5,5,0.3,0.5
2024-10-08T1500,1335A,113.0833,28.2325,长沙市,经开区环保局,,23,23,34,15,31,61,,63,56,23,18,4,5,0.4,0.4
2024-10-08T1500,1336A,112.8872,28.2189,长沙市,高开区环保局,,29,21,35,20,35,73,,68,59,8,10,4,5,0.3,0.3
2024-10-08T1500,1337A,113.0792,28.2053,长沙市,马坡岭,,29,26,38,20,33,65,,59,58,14,11,4,4,0.6,0.5
2024-10-08T1500,1338A,112.9394,28.19,长沙市,湖南师范大学,,30,30,39,12,26,74,,68,59,10,11,2,3,0.5,0.5
2024-10-08T1500,1339A,113.0178,28.1322,长沙市,雨花区环保局,,38,37,34,26,34,58,,67,54,16,11,5,6,0.6,0.5
2024-10-08T1500,1340A,112.9792,28.2597,长沙市,伍家岭,,28,28,39,15,34,68,,57,53,6,11,3,4,0.7,0.7
2024-10-08T1500,1341A,113.0014,28.1944,长沙市,火车新站,,34,34,38,19,29,67,,60,52,12,14,4,5,0.5,0.4
2024-10-08T1500,1342A,112.9844,28.1178,长沙市,天心区环保局,,33,33,40,16,32,56,,62,51,18,15,3,4,0.7,0.6
2024-10-08T1500,1343A,112.8908,28.1308,长沙市,湖南中医药大学,,29,29,37,16,33,73,,69,63,8,8,5,5,1.1,1
2024-10-08T1500,1344A,112.9581,28.3611,长沙市,沙坪,,21,13,37,3,18,66,,59,59,7,7,7,8,0.7,0.7
2024-10-08T1500,1727A,113.1147,36.1547,长治市,清华站,"颗粒物(PM10),细颗粒物(PM2.5)",55,60,73,39,74,135,,88,88,15,21,9,7,0.8,1.1
2024-10-08T1500,1728A,113.1031,36.1989,长治市,监测站,细颗粒物(PM2.5),62,54,77,44,70,132,,90,90,17,21,11,9,0.8,1.1
2024-10-08T1500,1730A,113.0886,36.2125,长治市,审计局,细颗粒物(PM2.5),64,46,75,46,80,135,,89,89,12,17,7,6,0.4,0.7
2024-10-08T1500,1731A,113.0844,36.1856,长治市,长治八中,"颗粒物(PM10),细颗粒物(PM2.5)",57,64,91,40,57,135,,90,90,11,20,8,7,0.7,1.1
2024-10-08T1500,2845A,113.1569,36.1911,长治市,德盛苑,细颗粒物(PM2.5),64,51,71,46,69,143,,95,95,14,16,5,4,0.8,1.1
2024-10-08T1500,3568A,113.06,36.0464,长治市,向阳小学,颗粒物(PM10),54,57,104,36,85,138,,95,95,17,23,10,6,0.4,0.9
2024-10-08T1500,3569A,112.8792,36.3144,长治市,屯留一中,颗粒物(PM10),53,55,95,34,92,142,,92,92,10,21,10,9,0.8,1.6
2024-10-08T1500,3570A,113.235,36.3489,长治市,潞城四中,颗粒物(PM10),70,89,97,49,91,140,,84,84,16,27,17,7,1.2,1.2
2024-10-08T1500,1854A,111.6975,28.9703,常德市,市二中,,43,30,40,30,39,132,,94,94,9,22,4,8,0.5,0.6
2024-10-08T1500,3138A,111.7153,29.0289,常德市,武陵区永安,,43,37,45,28,34,135,,103,103,11,18,6,11,0.4,0.8
2024-10-08T1500,3139A,111.6892,28.9881,常德市,鼎城区玉霞,,,40,52,24,35,139,,103,103,9,21,,16,0.7,0.7
2024-10-08T1500,3140A,111.6625,29.0531,常德市,武陵区长庚,,44,37,48,30,36,140,,102,102,11,20,10,12,0.4,0.4
2024-10-08T1500,1196A,119.9633,31.762,常州市,市监测站,,40,30,37,25,24,126,,94,94,12,18,8,8,0.4,0.5
2024-10-08T1500,1200A,119.9468,31.7069,常州市,武进监测站,,40,36,34,20,20,128,,95,95,4,16,10,12,0.6,0.7
2024-10-08T1500,1201A,119.9255,31.9087,常州市,安家,,37,25,38,19,21,117,,88,88,14,26,7,6,0.3,0.3
2024-10-08T1500,3002A,119.9805,31.8174,常州市,行政中心,,37,27,38,20,24,117,,89,89,8,19,4,6,0.2,0.3
2024-10-08T1500,3003A,120.0522,31.7748,常州市,经开区,,36,21,43,14,22,114,,89,89,13,18,7,7,0.1,0.1
2024-10-08T1500,3010A,119.9025,31.7964,常州市,钟楼,,37,37,39,21,23,118,,86,86,14,24,8,9,0,0.5
2024-10-08T1500,3429A,119.8598,31.7066,常州市,武进经发区,,41,28,30,22,19,130,,97,97,8,15,6,6,0.5,0.5
2024-10-08T1500,3430A,119.5826,31.7245,常州市,金坛城区,,44,22,23,19,18,139,,99,99,7,10,8,8,0.6,0.6
2024-10-08T1500,2220A,120.4318,41.5881,朝阳市,西梁,,,,45,6,18,81,,49,49,7,24,8,8,,0.9
2024-10-08T1500,2221A,120.4521,41.5646,朝阳市,河畔小区,,27,,35,11,16,86,,52,52,6,19,8,9,0.6,0.8
2024-10-08T1500,2222A,120.4176,41.5648,朝阳市,八里堡,,27,17,43,13,19,85,,54,54,11,31,11,12,0.5,0.9
2024-10-08T1500,2223A,120.3806,41.5969,朝阳市,农业园区,,27,13,30,7,17,86,,55,55,5,20,8,8,0.4,0.7
2024-10-08T1500,1705A,116.6367,23.6719,潮州市,西园路,,25,19,20,17,19,48,,38,38,8,10,4,4,0.5,0.5
2024-10-08T1500,3026A,116.6183,23.6608,潮州市,市政府,,23,22,24,16,15,68,,58,58,7,7,6,6,0.7,0.6
2024-10-08T1500,4036A,116.6461,23.6761,潮州市,金山,,26,26,21,13,15,63,,51,51,6,7,7,7,0.7,0.6
2024-10-08T1500,2472A,113.0073,25.9061,郴州市,马头岭,颗粒物(PM10),52,54,68,27,34,100,,83,83,9,13,8,9,0.3,0.4
2024-10-08T1500,2473A,113.0116,25.8226,郴州市,市职中,细颗粒物(PM2.5),59,,62,42,56,109,,91,91,13,16,5,6,0.6,0.6
2024-10-08T1500,2474A,113.0161,25.8001,郴州市,兴隆步行街,细颗粒物(PM2.5),54,49,66,38,52,112,,97,97,14,15,4,5,0.3,0.4
2024-10-08T1500,2475A,113.0383,25.8071,郴州市,市审计局,细颗粒物(PM2.5),57,44,63,40,56,105,,94,94,3,6,1,3,0.5,0.5
2024-10-08T1500,2476A,113.0348,25.7759,郴州市,市环保局,,48,45,71,33,54,107,,94,94,8,11,5,7,0.5,0.6
2024-10-08T1500,1431A,103.9728,30.7236,成都市,金泉两河,,22,19,31,3,15,70,,26,26,9,25,3,3,0.4,0.5
2024-10-08T1500,1432A,104.176,30.6872,成都市,十里店,,20,16,29,7,20,61,,33,33,26,33,1,1,0.5,0.6
2024-10-08T1500,1433A,104.079,30.5706,成都市,三瓦窑,,46,46,33,16,23,55,,42,42,30,34,3,3,0.6,0.6
2024-10-08T1500,1434A,104.1114,30.63,成都市,沙河铺,,34,34,34,20,20,61,,37,37,27,24,3,3,0.5,0.6
2024-10-08T1500,1437A,104.0786,30.6531,成都市,君平街,,29,29,29,14,21,58,,40,40,27,32,1,2,0.5,0.6
2024-10-08T1500,2880A,104.0239,30.65639,成都市,大石西路,,,36,37,,21,67,,45,45,18,27,3,3,0.5,0.4
2024-10-08T1500,3136A,104.2725,30.5589,成都市,龙泉驿区区政府,,28,24,21,19,16,79,,66,66,13,16,1,1,0.4,0.4
2024-10-08T1500,3357A,104.0106,30.6931,成都市,金博路,,20,20,29,13,18,63,,38,38,20,29,1,2,0.6,0.6
2024-10-08T1500,3359A,104.0578,30.5225,成都市,华阳,,44,44,29,22,22,45,,46,46,29,22,3,3,0.6,0.7
2024-10-08T1500,3487A,104.2394,30.5319,成都市,车城东七路,,33,31,27,23,19,80,,70,70,10,19,2,2,0.5,0.5
2024-10-08T1500,3488A,104.3853,30.7453,成都市,青白江技师分院,,24,24,23,14,15,74,,54,54,6,19,3,2,0.5,0.5
2024-10-08T1500,3489A,104.0789,30.4072,成都市,科学城,,38,31,24,26,21,82,,67,67,11,19,4,4,0.5,0.5
2024-10-08T1500,4011A,103.8506,30.6947,成都市,光华大道三段,,28,28,41,6,24,58,,34,34,22,18,2,3,0.6,0.7
2024-10-08T1500,1062A,117.9531,40.9081,承德市,铁路,,26,,20,3,7,83,,41,41,13,23,17,11,0.3,0.3
2024-10-08T1500,1063A,117.9392,40.9763,承德市,中国银行,,22,,23,3,10,70,,38,38,14,20,26,6,0.7,0.4
2024-10-08T1500,1064A,117.9503,40.928,承德市,开发区,,25,18,33,8,13,78,,38,38,20,25,20,8,0.5,0.4
2024-10-08T1500,1065A,117.8051,40.9655,承德市,文化中心,,29,21,37,3,10,82,,40,40,16,27,87,22,0.9,0.5
2024-10-08T1500,1066A,117.9268,41.0026,承德市,离宫,,19,7,19,7,17,59,,30,30,10,14,24,5,0.6,0.3
2024-10-08T1500,2314A,117.47,30.6618,池州市,池州学院,,40,25,22,20,17,126,,92,92,10,14,9,8,0.4,0.5
2024-10-08T1500,3237A,117.4918,30.6617,池州市,展览馆,,46,46,28,31,20,122,,82,82,11,15,7,6,0.5,0.5
2024-10-08T1500,3333A,117.5627,30.695,池州市,第八中学,,49,49,27,27,17,117,,83,83,11,13,5,5,0.5,0.6
2024-10-08T1500,3334A,117.5038,30.6243,池州市,第十二中学,,46,46,22,32,17,103,,79,79,18,16,4,4,0.7,0.6
2024-10-08T1500,1744A,118.9233,42.2816,赤峰市,松山一中,,29,8,35,3,18,91,,56,56,11,29,9,10,0.3,0.5
2024-10-08T1500,1745A,118.9576,42.2728,赤峰市,哈达街,,28,12,27,3,13,87,,59,59,12,19,7,7,0.3,0.5
2024-10-08T1500,1746A,118.8788,42.2554,赤峰市,天义路,,29,6,28,3,17,92,,60,60,12,24,6,7,0.3,0.4
2024-10-08T1500,3058A,119.2658,42.0353,赤峰市,银河街,,29,12,50,10,24,91,,59,59,9,24,11,17,0.3,0.6
2024-10-08T1500,3286A,118.9359,42.3147,赤峰市,桥北物流园区,,35,,33,24,22,94,,57,57,16,38,6,9,0.1,0.1
2024-10-08T1500,2521A,107.3476,22.4136,崇左市,市环保局江州分局,,46,46,61,32,38,112,,81,81,5,14,4,4,0.6,0.7
2024-10-08T1500,2522A,107.3702,22.3707,崇左市,城南新区,,46,41,50,32,36,117,,86,86,5,14,4,5,0.6,0.7
2024-10-08T1500,2298A,118.3093,32.3153,滁州市,老年大学,,42,42,20,21,20,116,,89,89,9,11,3,4,0.3,0.3
2024-10-08T1500,2299A,118.3244,32.2786,滁州市,人大宾馆,,,46,32,18,20,114,,95,95,,11,6,6,0.3,0.3
2024-10-08T1500,3207A,118.3118,32.3038,滁州市,市政府原办公楼,,45,33,24,31,23,113,,90,90,12,14,5,6,0.3,0.3
2024-10-08T1500,3331A,118.3267,32.2634,滁州市,图书馆,,46,46,24,13,15,115,,93,93,12,15,4,4,0.4,0.3
2024-10-08T1500,2605A,101.5482,25.0441,楚雄彝族自治州,州环境监测站,,19,12,19,6,16,59,,58,58,4,5,7,7,0.6,0.6
2024-10-08T1500,2606A,101.538,25.0492,楚雄彝族自治州,市经济开发区,,18,,22,8,18,57,,52,52,4,7,5,6,0.5,0.8
2024-10-08T1500,2548A,107.5277,31.2827,达州市,达州职业技术学院,,27,23,32,12,18,86,,49,49,17,28,7,5,1.0,0.8
2024-10-08T1500,2549A,107.5086,31.2186,达州市,市环境监测站,颗粒物(PM10),55,59,38,27,16,80,,44,44,33,32,16,6,1.3,0.7
2024-10-08T1500,2550A,107.4988,31.2132,达州市,凤凰小区,,48,48,34,31,18,86,,48,48,29,32,16,8,1.1,0.7
2024-10-08T1500,2551A,107.5082,31.1986,达州市,达县机关宾馆,细颗粒物(PM2.5),53,48,36,37,18,88,,49,49,27,37,5,5,0.6,0.6
2024-10-08T1500,2552A,107.4644,31.2124,达州市,市政中心,,40,40,44,22,22,96,,47,47,20,37,9,8,0.7,0.8
2024-10-08T1500,2614A,100.1542,25.7054,大理白族自治州,大理市环境监测站,,15,15,16,3,9,46,,38,38,6,6,6,6,0.6,0.6
2024-10-08T1500,2615A,100.2171,25.5811,大理白族自治州,大理古城,,20,13,18,3,10,62,,42,42,6,8,8,7,0.5,0.5
2024-10-08T1500,1109A,121.612,38.9741,大连市,甘井子,,33,25,32,11,22,105,,79,79,14,24,8,8,0.4,0.9
2024-10-08T1500,1110A,121.565,38.9511,大连市,周水子,,32,21,31,8,23,100,,74,74,13,32,9,10,0.4,0.5
2024-10-08T1500,1111A,121.5637,38.8845,大连市,星海三站,,31,17,28,3,21,97,,82,82,8,14,6,6,0.2,0.3
2024-10-08T1500,1112A,121.6302,38.9117,大连市,青泥洼桥,,31,16,34,9,20,97,,71,71,14,22,8,8,0.2,0.3
2024-10-08T1500,1113A,121.6251,38.8638,大连市,傅家庄,,30,17,30,7,21,96,,75,75,10,16,8,8,0.4,0.5
2024-10-08T1500,1114A,121.5213,38.8661,大连市,七贤岭,,33,12,27,6,19,104,,85,85,8,13,7,7,0.6,0.6
2024-10-08T1500,1115A,121.2529,38.8061,大连市,旅顺,,34,9,28,3,25,106,,97,97,8,12,6,7,0.3,0.5
2024-10-08T1500,1116A,121.7485,39.1311,大连市,金州,,36,23,31,13,25,115,,85,85,13,16,7,7,0.5,0.6
2024-10-08T1500,1117A,121.7811,39.0496,大连市,开发区,,,,34,17,25,106,,85,85,16,14,,10,0.4,0.4
2024-10-08T1500,1118A,121.9762,39.0631,大连市,双D港,,35,23,32,10,23,112,,92,92,13,14,8,8,0.6,0.6
2024-10-08T1500,1789A,124.81117,46.03138,大庆市,大同区,,25,18,46,13,36,80,,64,64,6,14,4,3,0.2,0.3
2024-10-08T1500,1790A,125.129,46.533,大庆市,龙凤区,颗粒物(PM10),51,52,64,14,35,77,,63,63,25,28,4,5,0.3,0.5
2024-10-08T1500,1791A,124.902,46.408,大庆市,红岗区,,27,14,43,12,24,85,,68,68,7,16,6,6,0.3,0.4
2024-10-08T1500,1792A,125.153,46.586,大庆市,萨尔图区,,28,28,57,10,33,76,,51,51,10,27,6,7,0.2,0.4
2024-10-08T1500,1793A,124.9042,46.6215,大庆市,让胡路区,,28,,45,19,28,80,,62,62,6,21,4,5,0.3,0.5
2024-10-08T1500,3481A,125.141,46.634,大庆市,萨区政府监测点,,27,19,46,12,28,84,,59,59,4,22,6,7,0.2,0.4
2024-10-08T1500,1721A,113.3819,40.1097,大同市,果树场,,50,50,67,29,25,83,,18,,21,24,13,9,0.6,0.8
2024-10-08T1500,1723A,113.2994,40.0758,大同市,云冈宾馆,颗粒物(PM10),63,75,68,27,26,87,,53,53,23,38,15,12,0.7,1.2
2024-10-08T1500,1724A,113.3444,40.0917,大同市,大同大学,,46,46,47,27,22,83,,54,54,23,31,19,18,0.5,0.7
2024-10-08T1500,1725A,113.2661,40.1269,大同市,安家小村,颗粒物(PM10),59,67,59,32,23,84,,58,58,25,32,20,16,0.5,0.8
2024-10-08T1500,1726A,113.2711,40.0844,大同市,教育学院,颗粒物(PM10),58,66,75,21,29,78,,50,50,28,43,16,14,0.5,1.1
2024-10-08T1500,3282A,113.3397,40.0597,大同市,大同市卫生学校,颗粒物(PM10),53,55,59,26,24,85,,53,53,22,33,15,12,0.6,0.9
2024-10-08T1500,3565A,113.1367,40.1122,大同市,云冈站,颗粒物(PM10),68,85,66,41,26,79,,54,54,26,25,16,14,0.6,0.5
2024-10-08T1500,3566A,113.1186,40.2556,大同市,图书馆,,,59,43,30,21,86,,72,72,27,16,17,12,,0.6
2024-10-08T1500,3567A,113.5931,40.0461,大同市,区一中,,35,35,32,8,12,100,,60,60,15,20,13,11,0.4,0.5
2024-10-08T1500,3676A,113.2802,40.0995,大同市,第二人民医院,颗粒物(PM10),60,69,73,28,30,86,,59,59,24,37,18,17,0.5,1.3
2024-10-08T1500,2269A,124.1069,50.4097,大兴安岭地区,科技局,,35,32,20,24,19,67,,53,53,4,6,7,8,0.5,0.4
2024-10-08T1500,3663A,124.1164,50.4278,大兴安岭地区,红旗社区,,36,29,22,25,13,64,,43,43,8,14,2,2,0.5,0.5
2024-10-08T1500,1600A,124.3303,40.0625,丹东市,江湾东路,,28,28,27,10,13,79,,71,71,8,12,7,7,0.3,0.4
2024-10-08T1500,1601A,124.4256,40.1503,丹东市,临江后街,,29,14,19,6,10,92,,81,81,6,10,6,6,0.4,0.5
2024-10-08T1500,1602A,124.3933,40.1461,丹东市,元宝山,,24,11,16,7,12,76,,70,70,4,7,4,4,0.4,0.8
2024-10-08T1500,1603A,124.3633,40.1092,丹东市,民主桥,,26,19,26,7,10,81,,72,72,9,12,5,5,0.3,0.4
2024-10-08T1500,3541A,109.5726,19.5167,儋州市,第一中学子站,颗粒物(PM10),57,63,31,31,32,144,,136,136,4,7,6,7,0.7,0.5
2024-10-08T1500,3542A,109.5567,19.5187,儋州市,东坡学校子站,臭氧1小时,53,39,45,32,32,162,,140,140,6,6,7,6,0.6,0.7
2024-10-08T1500,2616A,98.5842,24.428,德宏傣族景颇族自治州,德宏州监测站,,25,25,26,11,8,64,,26,26,9,12,16,9,0.3,0.4
2024-10-08T1500,3677A,98.5881,24.4368,德宏傣族景颇族自治州,芒市人民政府综合楼,,24,24,20,9,10,68,,31,31,10,10,14,6,0.5,0.5
2024-10-08T1500,1901A,104.4239,31.1208,德阳市,东山公园,,28,28,27,19,21,78,,54,54,17,15,2,3,0.5,0.5
2024-10-08T1500,1902A,104.3826,31.1317,德阳市,西小区,,49,49,40,31,26,57,,55,55,36,24,2,2,0.5,0.5
2024-10-08T1500,1904A,104.3553,31.1091,德阳市,耐火材料厂,,42,42,39,22,23,63,,49,49,22,26,3,4,0.5,0.5
2024-10-08T1500,3639A,104.4019,31.1244,德阳市,市教育局,,36,36,35,16,20,79,,51,51,19,27,2,2,0.4,0.5
2024-10-08T1500,1622A,116.3032,37.4674,德州市,儿童乐园,颗粒物(PM10),51,51,61,22,33,138,,94,94,15,41,10,12,0.5,0.6
2024-10-08T1500,1624A,116.2991,37.4451,德州市,监理站,,45,31,52,12,28,142,,102,102,12,41,8,9,0.4,0.6
2024-10-08T1500,3066A,116.2721,37.4379,德州市,九衢泉纯净水厂,,44,41,57,14,32,139,,88,88,12,47,10,11,0.5,0.7
2024-10-08T1500,3371A,116.3728,37.4403,德州市,开发区人民医院,,44,36,56,19,30,138,,91,91,8,39,9,12,0.4,0.6
2024-10-08T1500,3372A,116.3572,37.4094,德州市,太阳城中学,,50,36,63,19,34,160,,98,98,15,51,9,12,0.4,0.6
2024-10-08T1500,3511A,116.5652,37.3319,德州市,陵城艺术中心,,41,36,59,14,34,131,,85,85,15,45,8,14,0.5,0.7
2024-10-08T1500,2621A,99.7056,27.8317,迪庆藏族自治州,迪庆州站,,22,10,17,9,8,70,,62,62,9,8,8,9,0.3,0.3
2024-10-08T1500,3180A,99.7136,27.8094,迪庆藏族自治州,质量技术监督局,,24,9,15,3,8,74,,65,65,7,8,6,6,0.3,0.5
2024-10-08T1500,2663A,104.6241,35.5734,定西市,东关小学,,27,27,38,18,26,59,,50,50,11,17,6,5,0.4,0.3
2024-10-08T1500,2664A,104.6194,35.5934,定西市,供电公司,,20,13,37,9,24,62,,50,50,7,19,9,6,0.4,0.5
2024-10-08T1500,1389A,113.7547,23.0494,东莞市,莞城梨川,,45,45,51,29,33,142,,136,136,10,14,7,7,0.7,0.7
2024-10-08T1500,1390A,113.7944,23.0128,东莞市,东城石井,细颗粒物(PM2.5),53,51,44,37,28,159,,144,144,14,13,7,7,0.7,0.6
2024-10-08T1500,1391A,113.7383,22.9658,东莞市,南城西平,细颗粒物(PM2.5),54,54,46,38,29,156,,140,140,11,18,4,3,0.8,0.8
2024-10-08T1500,3319A,113.7338,23.0381,东莞市,万江金泰,,44,44,48,30,31,140,,133,133,8,12,8,8,0.7,0.6
2024-10-08T1500,3626A,113.7533,23.0202,东莞市,南城元岭,颗粒物(PM10),51,51,47,35,30,148,,140,140,7,9,8,8,0.7,0.7
2024-10-08T1500,3627A,113.7875,23.0457,东莞市,东城主山,颗粒物(PM10),52,54,50,30,32,149,,141,141,24,20,8,8,0.7,0.6
2024-10-08T1500,1666A,118.6614,37.4309,东营市,市环保局,,43,31,38,12,18,136,,106,106,12,31,4,8,0.3,0.4
2024-10-08T1500,3036A,118.6904,37.4338,东营市,开发区管委会,,43,34,41,19,21,135,,106,106,12,29,3,8,0.2,0.2
2024-10-08T1500,3365A,118.5719,37.565,东营市,垦利区民丰路,,36,19,34,12,19,113,,87,87,12,40,11,11,0.3,0.5
2024-10-08T1500,3498A,118.5055,37.8612,东营市,河口城区,,39,39,37,24,20,124,,87,87,21,36,7,12,0.5,0.5
2024-10-08T1500,3646A,118.4978,37.4623,东营市,胜利站,,39,30,45,12,23,124,,86,86,11,34,9,15,0.2,0.5
2024-10-08T1500,3734A,118.35,37.26,东营市,理想之城,,40,29,38,24,23,125,,95,95,17,40,5,9,0.3,0.4
2024-10-08T1500,1591A,110.0023,39.8129,鄂尔多斯市,综合楼,,41,41,58,7,21,126,,86,86,12,42,4,7,0.3,0.6
2024-10-08T1500,1592A,109.9486,39.8261,鄂尔多斯市,巴音孟克林场办事处,,35,34,46,14,21,111,,84,84,13,40,8,8,0.4,0.6
2024-10-08T1500,1593A,109.7736,39.5986,鄂尔多斯市,康泽苑,,37,31,25,12,9,117,,75,75,8,16,7,6,0.4,0.4
2024-10-08T1500,1594A,109.8119,39.5989,鄂尔多斯市,华泰汽车城,,36,36,28,19,14,113,,68,68,10,28,11,10,0.4,0.5
2024-10-08T1500,1595A,109.9734,39.7884,鄂尔多斯市,奥林花园,,,31,53,,21,114,,74,74,9,43,8,9,0.4,0.7
2024-10-08T1500,2436A,114.8938,30.3994,鄂州市,市政府,,46,30,20,20,11,146,,103,103,13,18,11,10,0.6,0.5
2024-10-08T1500,2437A,114.8989,30.3714,鄂州市,赵家坝,,46,,19,19,12,146,,104,104,15,18,11,11,0.5,0.5
2024-10-08T1500,3654A,114.8094,30.4089,鄂州市,精准医疗中心,,48,25,22,20,13,151,,107,107,11,17,9,7,0.5,0.5
2024-10-08T1500,2454A,109.4978,30.2981,恩施土家族苗族自治州,湖北民院,,33,31,28,18,17,103,,49,49,14,17,9,9,0.6,0.6
2024-10-08T1500,2455A,109.4707,30.2798,恩施土家族苗族自治州,州电力总公司,,34,34,22,19,14,102,,50,50,14,18,7,7,0.7,0.8
2024-10-08T1500,3549A,109.5061,30.3772,恩施土家族苗族自治州,龙凤新区,,32,25,20,22,12,96,,51,51,16,14,6,6,0.7,0.7
2024-10-08T1500,2499A,108.3411,21.6158,防城港市,沙万,细颗粒物(PM2.5),53,53,54,37,39,133,,117,117,10,12,9,10,0.5,0.6
2024-10-08T1500,2500A,108.3514,21.7731,防城港市,防城档案局,细颗粒物(PM2.5),73,66,94,53,48,128,,95,,11,23,10,10,0.6,0.6
2024-10-08T1500,2501A,108.3506,21.6414,防城港市,大海花园,细颗粒物(PM2.5),53,49,56,37,42,140,,126,123,9,11,8,8,0.5,0.6
2024-10-08T1500,1371A,113.1294,23.0067,佛山市,湾梁,臭氧1小时,97,70,65,48,42,197,,154,154,20,23,8,10,0.8,0.8
2024-10-08T1500,1372A,113.1083,23.0478,佛山市,华材职中,臭氧1小时,84,68,68,52,48,187,,149,149,20,26,10,10,0.6,0.7
2024-10-08T1500,1373A,113.144,23.0453,佛山市,南海气象局,臭氧1小时,88,69,61,46,42,190,,149,149,14,18,9,10,0.6,0.6
2024-10-08T1500,1374A,113.2881,22.8094,佛山市,顺德苏岗,臭氧1小时,88,54,54,41,34,190,,153,153,14,18,8,9,0.7,0.7
2024-10-08T1500,1376A,112.8383,22.8678,佛山市,高明孔堂,臭氧1小时,78,75,71,51,50,182,,148,148,12,19,7,10,0.7,0.8
2024-10-08T1500,1377A,112.8836,23.1588,佛山市,三水监测站,细颗粒物(PM2.5),69,61,66,50,48,164,,132,132,15,21,7,8,0.6,0.6
2024-10-08T1500,1378A,112.867,23.185,佛山市,三水云东海,细颗粒物(PM2.5),68,57,60,49,52,154,,125,125,15,21,11,12,0.7,0.7
2024-10-08T1500,3625A,113.2544,22.7642,佛山市,容桂街道办,臭氧1小时,95,46,49,39,40,196,,162,162,15,20,7,9,0.7,0.8
2024-10-08T1500,1282A,119.2681,26.0504,福州市,师大,,23,12,10,3,3,71,,57,56,18,12,2,1,0.3,0.4
2024-10-08T1500,1283A,119.2984,26.1028,福州市,五四北路,,26,6,10,3,2,82,,68,68,10,10,3,3,0.5,0.5
2024-10-08T1500,1284A,119.2648,26.0768,福州市,杨桥西路,,23,18,10,6,3,73,,64,64,16,11,3,3,0.6,0.6
2024-10-08T1500,1285A,119.317,26.0746,福州市,紫阳,,20,19,15,3,7,62,,54,53,24,19,6,6,0.7,0.6
2024-10-08T1500,3048A,119.5799,26.0936,福州市,九龙,,25,7,11,3,1,77,,69,66,4,4,1,5,0.2,0.4
2024-10-08T1500,3526A,119.5189,25.9664,福州市,吴航,,25,8,5,3,4,80,,76,75,8,6,7,7,0.5,0.5
2024-10-08T1500,1755A,123.7977,41.8491,抚顺市,望花区,,27,27,64,16,31,78,,54,54,17,33,9,8,0.5,0.7
2024-10-08T1500,1756A,123.9161,41.8822,抚顺市,顺城区,,37,37,40,14,23,93,,63,63,18,29,13,7,0.7,0.5
2024-10-08T1500,1757A,124.0436,41.8611,抚顺市,东洲区,,46,46,40,24,28,94,,64,64,17,19,13,7,0.7,0.5
2024-10-08T1500,1758A,123.9247,41.8642,抚顺市,新抚区,颗粒物(PM10),53,56,45,21,26,98,,60,60,22,29,10,5,0.7,0.5
2024-10-08T1500,1759A,124.0972,41.8961,抚顺市,大伙房水库,,33,33,29,18,21,97,,72,72,15,15,10,7,0.5,0.4
2024-10-08T1500,1760A,123.7086,41.8391,抚顺市,沈抚新城,,26,24,50,17,28,82,,59,59,21,33,17,11,0.3,0.7
2024-10-08T1500,2376A,116.2127,28.0814,抚州市,桐源党溪,,,45,32,12,12,58,,62,57,3,3,,5,0.6,0.7
2024-10-08T1500,2377A,116.3544,27.9831,抚州市,市站,,21,21,24,11,11,50,,54,49,8,8,2,2,0.8,0.8
2024-10-08T1500,2378A,116.3565,27.963,抚州市,血防站,,26,26,25,11,11,55,,62,53,1,9,2,3,0.6,0.6
2024-10-08T1500,2379A,116.3564,28.0007,抚州市,采茶剧团,,18,18,22,8,11,51,,56,51,5,4,3,4,0.7,0.7
2024-10-08T1500,2380A,116.385,27.9647,抚州市,医学分院,,24,24,23,9,10,74,,77,67,6,6,5,4,0.6,0.6
2024-10-08T1500,2207A,121.6094,41.998,阜新市,工业园区,,30,23,42,18,17,94,,57,57,13,30,18,13,0.6,0.7
2024-10-08T1500,2208A,121.6697,42.0279,阜新市,长青街,,29,11,44,10,20,91,,52,52,16,20,12,10,0.3,0.6
2024-10-08T1500,2209A,121.6673,42.0705,阜新市,农业园区,,28,28,29,9,17,86,,58,58,11,20,9,14,0.3,0.5
2024-10-08T1500,2210A,121.6717,42.0224,阜新市,东苑,,27,20,49,10,19,86,,52,52,12,29,15,17,0.4,0.7
2024-10-08T1500,2211A,121.6506,42.0498,阜新市,玉龙新城,,31,22,47,18,16,97,,58,58,8,22,11,8,0.2,0.5
2024-10-08T1500,2301A,115.8277,32.8929,阜阳市,市监测站,细颗粒物(PM2.5),54,53,28,38,18,150,,115,115,10,13,6,8,0.4,0.4
2024-10-08T1500,2303A,115.8554,32.8605,阜阳市,开发区,颗粒物(PM10),52,54,35,35,19,146,,107,107,13,18,6,8,0.4,0.3
2024-10-08T1500,2875A,115.784,32.8892,阜阳市,阜阳职业技术学院,颗粒物(PM10),52,53,23,29,15,144,,108,108,12,17,6,7,0.4,0.3
2024-10-08T1500,3468A,115.7901,32.8613,阜阳市,市规划展馆,,47,41,25,28,16,148,,112,112,16,18,6,7,0.6,0.5
2024-10-08T1500,3469A,115.836,32.9183,阜阳市,枣园社区,,47,41,25,31,16,149,,113,113,13,16,7,8,0.5,0.4
2024-10-08T1500,2669A,102.9099,34.9841,甘南藏族自治州,州政府,,31,13,27,11,16,99,,81,81,1,8,6,7,0.3,0.4
2024-10-08T1500,3380A,102.8914,34.9617,甘南藏族自治州,甘肃民族师范学院,,26,13,29,13,20,81,,66,66,4,9,3,4,0.4,0.5
2024-10-08T1500,2570A,101.9603,30.0475,甘孜藏族自治州,水桥子,,19,8,7,6,5,59,,33,33,2,14,5,5,0.3,0.3
2024-10-08T1500,3065A,101.9533,29.9972,甘孜藏族自治州,州环保局,,19,10,8,3,4,58,,38,38,7,15,3,3,0.3,0.3
2024-10-08T1500,3414A,115.8347,28.932,赣江新区,桑海产业园,颗粒物(PM10),51,51,24,32,13,99,,79,79,13,11,9,8,0.6,0.4
2024-10-08T1500,2362A,114.9017,25.9149,赣州市,通天岩,,35,34,48,12,41,111,,97,97,6,8,18,16,0.5,0.5
2024-10-08T1500,2363A,114.9367,25.8664,赣州市,地委,,30,30,46,20,36,94,,80,80,9,11,3,2,1.2,1.2
2024-10-08T1500,2364A,114.9461,25.8481,赣州市,气象台,,35,26,49,24,36,94,,79,79,6,8,7,5,0.9,0.7
2024-10-08T1500,2365A,114.9322,25.8333,赣州市,市图书馆,,34,34,48,17,31,104,,86,86,6,9,5,5,0.7,0.8
2024-10-08T1500,2366A,114.8905,25.8471,赣州市,华坚鞋城,,33,33,48,20,32,94,,78,78,7,9,2,3,0.5,0.5
2024-10-08T1500,3109A,115.0093,25.8613,赣州市,赣县区卫计委,,30,26,42,21,32,91,,80,80,9,11,5,5,0.6,0.7
2024-10-08T1500,2683A,106.2319,36.1417,固原市,马园,,27,21,40,3,19,86,,60,60,6,27,6,6,0.3,0.4
2024-10-08T1500,2684A,106.2792,36.0022,固原市,监测站,,38,29,31,26,27,83,,68,68,11,13,5,6,0.4,0.4
2024-10-08T1500,2685A,106.2375,36.0211,固原市,新区,,25,23,33,12,24,78,,64,62,12,14,5,5,0.4,0.5
2024-10-08T1500,3522A,106.2177,35.9959,固原市,原州区十五小,,27,16,37,11,21,84,,62,62,8,17,5,5,0.5,0.6
2024-10-08T1500,2544A,106.6303,30.4576,广安市,市委,,50,,42,35,29,87,,48,48,13,22,2,2,0.4,0.5
2024-10-08T1500,2545A,106.6271,30.4663,广安市,友谊中学,,33,28,42,23,27,83,,46,46,15,23,3,2,0.7,0.6
2024-10-08T1500,2547A,106.6388,30.4551,广安市,广电花园,,33,33,42,19,27,83,,46,46,13,21,1,2,0.3,0.4
2024-10-08T1500,2902A,106.6351,30.4865,广安市,北辰小学,,32,32,46,15,26,87,,50,50,12,20,4,3,0.4,0.5
2024-10-08T1500,2523A,105.8945,32.4535,广元市,黑石坡,,46,34,25,32,26,33,,27,21,22,12,15,15,0.6,0.4
2024-10-08T1500,2524A,105.821,32.4444,广元市,老城,,48,35,42,33,26,43,,19,19,32,33,13,4,0.5,0.3
2024-10-08T1500,2526A,105.8628,32.4287,广元市,监测站,细颗粒物(PM2.5),54,41,37,38,24,31,,37,22,47,17,8,2,0.8,0.5
2024-10-08T1500,3617A,105.8047,32.4166,广元市,经开区,,,85,48,,31,35,,23,23,,26,40,8,1.2,0.7
2024-10-08T1500,1345A,113.2347,23.1423,广州市,广雅中学,细颗粒物(PM2.5),65,72,71,47,49,166,,138,138,20,25,7,9,0.7,0.8
2024-10-08T1500,1346A,113.2612,23.105,广州市,市五中,颗粒物(PM10),81,111,102,54,52,178,,149,149,10,17,5,7,0.8,0.9
2024-10-08T1500,1348A,113.3478,23.0916,广州市,广东商学院,细颗粒物(PM2.5),65,59,63,47,44,164,,142,142,14,17,6,7,0.7,0.7
2024-10-08T1500,1349A,113.4332,23.1047,广州市,市八十六中,,,57,64,43,40,161,,147,147,10,15,,5,0.7,0.8
2024-10-08T1500,1350A,113.3505,22.9483,广州市,番禺中学,臭氧1小时,79,63,60,44,41,183,,157,157,16,20,6,8,0.6,0.7
2024-10-08T1500,1351A,113.2146,23.3916,广州市,花都师范,细颗粒物(PM2.5),67,62,65,48,47,162,,138,138,8,11,7,8,1.0,0.7
2024-10-08T1500,1352A,113.2597,23.1331,广州市,市监测站,"颗粒物(PM10),细颗粒物(PM2.5)",60,70,69,43,47,164,,141,141,12,25,5,7,0.7,0.9
2024-10-08T1500,1353A,113.5618,23.312,广州市,九龙镇镇龙,细颗粒物(PM2.5),60,59,55,43,37,134,,124,124,10,14,7,8,0.7,0.7
2024-10-08T1500,1354A,113.2765,23.1544,广州市,麓湖,细颗粒物(PM2.5),64,66,72,46,48,166,,138,138,12,26,7,9,0.7,0.7
2024-10-08T1500,1355A,113.443,23.3035,广州市,帽峰山森林公园,,50,43,49,29,35,158,,141,141,6,9,7,9,0.7,0.6
2024-10-08T1500,2846A,113.3221,23.1322,广州市,体育西,细颗粒物(PM2.5),65,64,63,47,44,158,,133,133,13,19,4,6,0.7,0.8
2024-10-08T1500,3298A,113.5717,23.5491,广州市,从化街口,细颗粒物(PM2.5),64,57,60,46,42,136,,132,132,8,13,9,10,0.7,0.7
2024-10-08T1500,3299A,113.3472,23.3692,广州市,白云竹料,细颗粒物(PM2.5),62,65,62,44,47,153,,137,137,9,12,7,9,0.8,0.8
2024-10-08T1500,3300A,113.2981,23.237,广州市,白云嘉禾,"颗粒物(PM10),细颗粒物(PM2.5)",59,67,73,42,47,154,,133,133,13,16,7,8,0.8,0.9
2024-10-08T1500,3301A,113.4256,23.1716,广州市,黄埔科学城,细颗粒物(PM2.5),55,54,59,39,40,155,,141,141,9,12,9,9,1.0,1
2024-10-08T1500,3302A,113.3942,23.0483,广州市,番禺大学城,"细颗粒物(PM2.5),臭氧1小时",59,51,50,42,40,167,,144,144,12,19,12,13,0.3,0.4
2024-10-08T1500,3303A,113.4922,22.8168,广州市,南沙黄阁,臭氧1小时,80,61,59,39,41,184,,150,150,23,28,8,10,0.8,0.9
2024-10-08T1500,3304A,113.5342,22.7896,广州市,南沙街,臭氧1小时,73,53,57,32,38,178,,151,151,15,24,9,11,0.8,0.9
2024-10-08T1500,3443A,113.2902,23.5544,广州市,花都梯面,细颗粒物(PM2.5),72,65,65,52,53,146,,122,122,9,10,8,10,0.7,0.7
2024-10-08T1500,3445A,113.7858,23.7478,广州市,从化良口,细颗粒物(PM2.5),58,52,54,41,38,129,,124,124,6,8,8,10,0.7,0.8
2024-10-08T1500,3446A,113.8051,23.2614,广州市,增城荔城,细颗粒物(PM2.5),62,50,43,44,32,132,,129,129,7,10,6,7,0.7,0.6
2024-10-08T1500,2506A,109.6047,23.0666,贵港市,江南子站,,46,44,58,28,37,146,,122,122,8,10,8,9,0.6,0.7
2024-10-08T1500,2507A,109.6014,23.0948,贵港市,贵城子站,,46,46,56,29,38,145,,119,119,8,11,8,9,0.8,0.9
2024-10-08T1500,2508A,109.5669,23.1065,贵港市,荷城子站,,48,48,60,24,34,141,,114,114,11,13,11,12,0.6,0.6
2024-10-08T1500,3405A,109.5886,23.1172,贵港市,新世纪学校,颗粒物(PM10),51,51,62,24,34,140,,116,116,10,12,8,10,0.5,0.5
2024-10-08T1500,1439A,106.6899,26.5998,贵阳市,马鞍山,,27,14,21,7,12,86,,74,74,9,10,3,3,0.3,0.3
2024-10-08T1500,1440A,106.6971,26.5694,贵阳市,市环保站,,31,19,22,13,20,97,,84,84,7,9,4,4,0.4,0.4
2024-10-08T1500,1441A,106.6243,26.6266,贵阳市,鉴湖路,,23,22,25,12,17,72,,62,62,9,9,5,5,0.4,0.4
2024-10-08T1500,1442A,106.7487,26.6343,贵阳市,燕子冲,,27,,20,14,20,86,,84,84,5,7,7,6,0.3,0.4
2024-10-08T1500,1443A,106.6555,26.4365,贵阳市,碧云窝,,28,14,34,7,18,88,,68,68,8,12,5,5,0.4,0.4
2024-10-08T1500,1444A,106.694,26.5161,贵阳市,中院村,,27,14,26,7,17,84,,71,71,8,11,7,7,0.5,0.6
2024-10-08T1500,1445A,106.7109,26.6027,贵阳市,红边门,,32,24,26,22,19,86,,76,76,12,12,5,5,0.4,0.5
2024-10-08T1500,1446A,106.7164,26.5699,贵阳市,新华路,,29,,20,12,17,90,,78,78,6,8,6,5,0.3,0.4
2024-10-08T1500,1447A,106.674,26.5424,贵阳市,太慈桥,,29,19,22,9,15,91,,75,75,10,10,5,5,0.2,0.3
2024-10-08T1500,1862A,110.4144,25.3167,桂林市,电子科大尧山校区,,36,26,40,19,29,115,,109,109,5,8,5,6,0.5,0.5
2024-10-08T1500,1863A,110.2819,25.2697,桂林市,监测站,,39,35,45,27,35,118,,110,110,8,11,8,11,0.3,0.4
2024-10-08T1500,1865A,110.2869,25.2178,桂林市,八中,,,36,44,20,34,120,,109,109,8,10,8,10,,0.7
2024-10-08T1500,3403A,110.1764,25.2381,桂林市,创业大厦,,39,27,48,24,38,124,,113,113,8,9,9,10,0.4,0.4
2024-10-08T1500,3531A,110.296,25.1253,桂林市,旅游学院,,40,27,38,14,28,127,,112,112,5,7,8,10,0.4,0.4
2024-10-08T1500,2674A,100.2561,34.4714,果洛藏族自治州,玛沁县大武镇,,36,19,19,6,11,115,,99,99,1,2,7,8,0.4,0.4
2024-10-08T1500,1129A,126.5422,45.755,哈尔滨市,岭北,,39,22,58,18,46,122,,94,94,8,21,7,9,0.2,0.2
2024-10-08T1500,1130A,126.561,45.8167,哈尔滨市,松北商大,,50,50,58,23,38,88,,62,62,12,28,8,8,0.4,0.6
2024-10-08T1500,1131A,126.979,45.5419,哈尔滨市,阿城会宁,,32,32,57,16,40,89,,66,66,12,21,11,10,0.4,0.6
2024-10-08T1500,1132A,126.599,45.7222,哈尔滨市,南岗学府路,,39,39,79,17,42,94,,63,63,11,29,6,6,0.3,0.6
2024-10-08T1500,1133A,126.689,45.7733,哈尔滨市,太平宏伟公园,,39,39,71,27,45,89,,58,58,10,31,4,5,0.5,0.7
2024-10-08T1500,1134A,126.635,45.7667,哈尔滨市,道外承德广场,颗粒物(PM10),65,79,74,18,42,83,,61,61,20,40,4,5,0.3,0.7
2024-10-08T1500,1135A,126.685,45.7319,哈尔滨市,香坊红旗大街,,36,36,79,20,50,91,,60,60,11,36,8,8,0.6,0.8
2024-10-08T1500,1136A,126.6411,45.7258,哈尔滨市,动力和平路,,32,32,66,19,47,91,,60,60,11,34,7,8,0.4,0.6
2024-10-08T1500,1137A,126.593,45.7478,哈尔滨市,道里建国路,,49,49,63,21,51,87,,60,60,14,38,13,14,0.3,0.6
2024-10-08T1500,1138A,126.615,45.61,哈尔滨市,平房东轻厂,,38,38,57,19,36,92,,63,63,14,31,6,6,0.4,0.6
2024-10-08T1500,1139A,126.595,45.9855,哈尔滨市,呼兰师专,,34,34,73,11,47,80,,60,60,14,37,3,3,0.4,0.6
2024-10-08T1500,1140A,126.6206,45.6842,哈尔滨市,省农科院,颗粒物(PM10),54,57,96,19,52,73,,57,57,22,43,6,7,0.3,0.8
2024-10-08T1500,2688A,93.5128,42.8172,哈密市,地区监测站,颗粒物(PM10),70,90,80,20,28,107,,60,60,5,43,8,6,0.1,0.4
2024-10-08T1500,2689A,93.4961,42.8328,哈密市,哈密师范学校,,44,44,76,17,27,108,,61,61,5,47,4,6,0.3,0.7
2024-10-08T1500,2671A,100.9048,36.9639,海北藏族自治州,海晏县西海镇,,32,13,31,7,23,101,,92,90,3,9,9,11,0.3,0.5
2024-10-08T1500,3867A,102.0738,36.5056,海东市,平安区公安北苑,,35,25,56,11,35,112,,77,77,9,17,10,16,0.5,0.7
2024-10-08T1500,1410A,110.3232,20.0574,海口市,海南大学,臭氧1小时,57,46,52,32,35,165,,166,148,7,9,4,4,0.6,0.5
2024-10-08T1500,1411A,110.283,20.0053,海口市,秀英海南医院,臭氧1小时,55,48,45,37,34,164,,158,148,11,12,8,7,0.5,0.4
2024-10-08T1500,1412A,110.338,19.9969,海口市,海南师范大学,臭氧1小时,58,54,48,33,35,166,,160,150,8,9,8,8,0.6,0.6
2024-10-08T1500,1413A,110.33,20.0356,海口市,龙华路环保局宿舍,臭氧1小时,55,52,47,33,34,164,,162,148,8,9,6,6,0.5,0.5
2024-10-08T1500,3539A,110.5111,19.9736,海口市,桂林洋子站,臭氧1小时,67,51,55,34,39,173,,150,150,7,9,9,8,0.5,0.4
2024-10-08T1500,2673A,100.6188,36.2866,海南藏族自治州,共和县恰卜恰镇,,31,21,33,8,15,99,,75,75,3,14,8,10,0.4,0.6
2024-10-08T1500,2676A,97.3731,37.3753,海西蒙古族藏族自治州,德令哈市,,35,16,31,8,14,109,,92,92,6,10,12,10,0.4,0.5
2024-10-08T1500,1048A,114.5302,36.6116,邯郸市,东污水处理厂,细颗粒物(PM2.5),117,97,105,88,87,135,,74,74,15,39,3,3,0.7,1.1
2024-10-08T1500,1049A,114.4918,36.5713,邯郸市,矿院,细颗粒物(PM2.5),122,99,117,92,85,134,,70,70,11,32,4,4,0.7,1
2024-10-08T1500,1050A,114.484,36.6133,邯郸市,丛台公园,细颗粒物(PM2.5),118,90,108,89,85,126,,70,70,16,39,4,5,,1.1
2024-10-08T1500,3458A,114.7895,36.5593,邯郸市,香泉濮院小区,细颗粒物(PM2.5),72,85,111,52,75,144,,85,85,11,38,4,4,0.4,0.7
2024-10-08T1500,3579A,114.50634,36.77178,邯郸市,永年区实验高中,细颗粒物(PM2.5),104,123,106,78,67,164,,8,,15,30,6,5,0.7,1
2024-10-08T1500,3580A,114.20016,36.44293,邯郸市,峰峰矿区临水派出所,细颗粒物(PM2.5),125,100,84,95,81,152,,90,90,12,14,6,5,0.9,1.1
2024-10-08T1500,2634A,106.9893,33.1842,汉中市,汉川机床厂子校,"颗粒物(PM10),细颗粒物(PM2.5)",52,54,47,36,31,72,,56,56,17,11,9,9,0.8,0.7
2024-10-08T1500,2635A,107.0154,33.0706,汉中市,市监测站,,50,50,56,30,36,78,,58,58,14,17,11,12,0.7,0.8
2024-10-08T1500,2636A,107.0089,33.1138,汉中市,鑫源开发区,,46,45,51,32,34,72,,58,58,18,19,14,17,0.5,0.5
2024-10-08T1500,2637A,107.007,33.0323,汉中市,南郑大河坎水厂,,46,40,45,32,31,80,,57,57,15,16,10,9,0.6,0.6
2024-10-08T1500,1223A,120.2072,30.2111,杭州市,滨江,,37,24,20,16,13,116,,74,74,16,18,4,4,0.6,0.7
2024-10-08T1500,1224A,120.0633,30.2747,杭州市,西溪,,37,31,13,20,11,118,,74,74,13,17,6,5,0.6,0.7
2024-10-08T1500,1226A,120.3461,30.3153,杭州市,下沙,,39,31,20,17,10,123,,80,80,17,25,6,6,0.6,0.7
2024-10-08T1500,1227A,120.1269,30.2456,杭州市,卧龙桥,,40,24,11,18,12,128,,80,80,15,15,6,5,0.5,0.5
2024-10-08T1500,1228A,120.1903,30.2692,杭州市,浙江农大,,39,26,14,17,14,122,,76,76,11,16,8,8,0.6,0.6
2024-10-08T1500,1230A,120.1197,30.3119,杭州市,和睦小学,,41,28,16,16,9,131,,81,81,18,20,7,6,0.6,0.6
2024-10-08T1500,1231A,120.3019,30.4183,杭州市,临平镇,,44,29,28,22,20,138,,88,88,11,16,5,5,0.5,0.6
2024-10-08T1500,1232A,120.2697,30.1819,杭州市,城厢镇,,39,32,17,17,19,122,,81,81,11,14,7,6,0.6,0.8
2024-10-08T1500,1233A,120.0883,30.1808,杭州市,云栖,,33,33,18,16,6,104,,72,72,12,12,7,6,0.7,0.7
2024-10-08T1500,3557A,119.9464,30.0494,杭州市,镇二中,,38,38,13,11,8,105,,88,80,15,15,8,8,0.7,0.7
2024-10-08T1500,3558A,119.7183,30.2367,杭州市,市府大楼,,37,28,10,18,8,118,,83,83,9,13,6,6,0.6,0.6
2024-10-08T1500,3656A,120.1556,30.2864,杭州市,消防大队,,41,29,12,22,13,131,,86,86,14,17,9,8,0.3,0.4
2024-10-08T1500,1270A,117.1959,31.7848,合肥市,明珠广场,,41,34,25,24,16,131,,86,86,11,30,10,10,0.4,0.4
2024-10-08T1500,1271A,117.3072,31.8764,合肥市,三里街,,46,46,24,27,13,111,,81,81,8,20,3,3,0.5,0.5
2024-10-08T1500,1272A,117.2588,31.8707,合肥市,琥珀山庄,,38,36,24,22,18,121,,91,91,12,21,8,7,0.5,0.5
2024-10-08T1500,1273A,117.1604,31.9052,合肥市,董铺水库,,45,41,15,31,8,106,,77,77,7,18,3,3,0.3,0.3
2024-10-08T1500,1274A,117.25,31.8571,合肥市,长江中路,颗粒物(PM10),51,51,33,33,20,119,,91,91,9,19,8,7,0.5,0.7
2024-10-08T1500,1275A,117.266,31.9436,合肥市,庐阳区,,41,41,26,24,15,123,,90,90,10,21,3,3,0.5,0.5
2024-10-08T1500,1276A,117.336,31.8586,合肥市,瑶海区,,,36,27,21,15,112,,93,93,,30,6,7,0.5,0.4
2024-10-08T1500,1277A,117.3027,31.7964,合肥市,包河区,,44,44,24,29,15,107,,82,82,19,45,5,5,0.6,0.6
2024-10-08T1500,1278A,117.2776,31.7385,合肥市,滨湖新区,颗粒物(PM10),51,51,27,29,17,122,,78,78,14,34,5,4,0.3,0.3
2024-10-08T1500,1279A,117.1318,31.8403,合肥市,高新区,,39,39,23,26,17,114,,86,86,11,20,7,7,0.6,0.6
2024-10-08T1500,3464A,117.3803,31.9147,合肥市,高教基地,,38,31,21,18,11,121,,86,86,8,12,4,4,0.4,0.3
2024-10-08T1500,3614A,79.924,37.0877,和田地区,地区环保局,颗粒物(PM10),119,187,234,57,55,96,,77,76,11,12,7,8,0.4,0.4
2024-10-08T1500,3615A,79.9131,37.113,和田地区,市环保局,颗粒物(PM10),112,173,213,55,66,103,,68,66,8,22,7,7,0.4,0.5
2024-10-08T1500,2516A,108.2011,24.715,河池市,东仁乐园,,33,28,48,18,32,104,,93,93,6,7,4,3,0.6,0.7
2024-10-08T1500,2517A,108.0497,24.6947,河池市,市环保站,,34,29,42,16,32,106,,87,87,8,11,9,10,0.4,0.7
2024-10-08T1500,2518A,108.0983,24.6989,河池市,市疾控中心,,33,26,46,13,39,104,,93,93,10,11,12,11,0.5,0.6
2024-10-08T1500,1696A,114.6778,23.7569,河源市,源西,,,46,43,29,31,110,,112,112,9,14,5,7,,0.6
2024-10-08T1500,1697A,114.6944,23.7586,河源市,东埔,,40,40,43,26,34,116,,117,117,10,12,3,6,0.8,0.8
2024-10-08T1500,1698A,114.6892,23.7233,河源市,老城,,44,44,44,30,31,123,,120,120,8,11,3,5,0.7,0.7
2024-10-08T1500,1718A,115.4208,35.2464,菏泽市,气象局,颗粒物(PM10),58,66,92,29,54,165,,109,109,12,35,4,7,0.5,0.5
2024-10-08T1500,1719A,115.4747,35.2375,菏泽市,市政协,颗粒物(PM10),53,55,89,34,52,158,,118,118,12,32,4,9,0.4,0.5
2024-10-08T1500,3374A,115.5564,35.0891,菏泽市,定陶老年大学,颗粒物(PM10),51,51,94,24,54,143,,94,94,9,26,8,8,0.3,0.4
2024-10-08T1500,3647A,115.4702,35.2706,菏泽市,菏泽医专,臭氧1小时,53,47,83,33,64,162,,102,102,11,32,4,13,0.9,1
2024-10-08T1500,2514A,111.5264,24.4172,贺州市,环保小区,,40,36,54,27,39,126,,113,113,10,15,6,7,0.5,0.6
2024-10-08T1500,2515A,111.5608,24.4078,贺州市,政协大楼,,42,40,54,29,36,130,,114,114,10,12,6,7,0.6,0.5
2024-10-08T1500,3534A,111.4744,24.4553,贺州市,西湾,,43,43,51,26,36,115,,104,104,10,11,7,6,0.5,0.6
2024-10-08T1500,2385A,114.17,35.9019,鹤壁市,市监测站,细颗粒物(PM2.5),127,122,111,96,91,161,,99,99,22,34,3,3,0.7,0.9
2024-10-08T1500,2386A,114.2956,35.7511,鹤壁市,市交警支队,细颗粒物(PM2.5),73,92,111,53,74,147,,83,83,15,34,1,3,0.5,0.7
2024-10-08T1500,2387A,114.2878,35.7306,鹤壁市,迎宾馆,细颗粒物(PM2.5),90,114,122,67,92,155,,87,87,18,30,3,4,0.7,0.9
2024-10-08T1500,3474A,114.2617,35.6822,鹤壁市,大新区,细颗粒物(PM2.5),92,92,82,68,72,145,,81,81,11,21,1,2,0.7,0.8
2024-10-08T1500,3596A,114.1572,35.9603,鹤壁市,南山宾馆,细颗粒物(PM2.5),133,105,127,101,119,155,,92,92,15,20,1,10,0.2,0.4
2024-10-08T1500,2244A,130.2537,47.3416,鹤岗市,哈啤分公司,,30,30,40,14,28,84,,66,66,4,12,14,14,0.5,0.6
2024-10-08T1500,2245A,130.2684,47.3086,鹤岗市,斯达机电,,36,36,48,19,32,80,,57,57,10,17,14,14,0.3,0.4
2024-10-08T1500,2246A,130.3114,47.3388,鹤岗市,东山纸板厂,,45,45,100,31,43,83,,58,58,6,25,17,18,0.1,0.6
2024-10-08T1500,2247A,130.1097,47.3382,鹤岗市,五号水库,,29,21,30,13,20,92,,69,69,5,7,10,8,0.2,0.2
2024-10-08T1500,2263A,127.4833,50.2524,黑河市,交通局,,30,26,32,21,21,66,,62,62,13,12,6,8,0.3,0.4
2024-10-08T1500,2264A,127.5144,50.2341,黑河市,环保局,,32,32,27,19,19,67,,65,65,13,9,11,5,0.3,0.3
2024-10-08T1500,2265A,127.5291,50.2472,黑河市,大黑河岛,,,,,27,23,67,,59,59,11,12,2,4,0.2,0.2
2024-10-08T1500,1074A,115.6838,37.7541,衡水市,电机北厂,,,67,54,31,29,155,,98,98,,33,7,8,0.5,0.4
2024-10-08T1500,1075A,115.6303,37.7316,衡水市,市监测站,颗粒物(PM10),54,57,52,35,25,155,,93,93,16,43,8,7,0.5,0.5
2024-10-08T1500,3188A,115.6683,37.7217,衡水市,市城管局,颗粒物(PM10),53,55,53,33,30,156,,96,96,12,47,8,6,0.5,0.5
2024-10-08T1500,3459A,115.5989,37.5491,衡水市,地表水厂,细颗粒物(PM2.5),55,53,52,39,29,144,,87,87,13,51,3,7,0.4,0.4
2024-10-08T1500,2456A,112.5003,26.9167,衡阳市,原169医院,,38,,43,26,35,75,,84,78,20,19,13,14,0.6,0.6
2024-10-08T1500,2457A,112.6194,26.9258,衡阳市,衡阳化工总厂,细颗粒物(PM2.5),60,53,55,43,51,71,,79,75,10,9,6,6,0.7,0.6
2024-10-08T1500,2458A,112.6211,26.8956,衡阳市,珠晖区环保局,细颗粒物(PM2.5),62,60,53,44,45,69,,83,74,16,13,9,9,0.8,0.7
2024-10-08T1500,2459A,112.6197,26.8733,衡阳市,市委党校,颗粒物(PM10),56,61,51,38,41,75,,86,79,12,12,8,10,0.7,0.6
2024-10-08T1500,2460A,112.6006,26.8919,衡阳市,市监测站,细颗粒物(PM2.5),62,61,54,44,44,74,,88,79,15,12,8,9,0.7,0.6
2024-10-08T1500,2461A,112.5664,26.9056,衡阳市,真空机电公司,细颗粒物(PM2.5),54,48,54,38,44,74,,88,77,10,11,6,6,0.8,0.7
2024-10-08T1500,3399A,112.6703,26.882,衡阳市,师范学院,,50,50,54,27,40,75,,80,78,14,13,8,9,0.7,0.6
2024-10-08T1500,2608A,103.3772,23.3993,红河哈尼族彝族自治州,污水处理厂,,32,24,33,22,30,92,,87,87,7,9,4,6,0.5,0.5
2024-10-08T1500,2609A,103.3861,23.35,红河哈尼族彝族自治州,监测站,,30,30,40,20,29,90,,82,82,8,8,9,8,0.5,0.5
2024-10-08T1500,3038A,103.3758,23.368,红河哈尼族彝族自治州,州图书馆,,,35,37,10,22,86,,82,82,,8,,6,0.4,0.4
2024-10-08T1500,1090A,111.6507,40.7517,呼和浩特市,呼市一监,,34,34,54,17,32,101,,64,64,8,33,9,8,0.4,0.5
2024-10-08T1500,1091A,111.6572,40.8033,呼和浩特市,小召,,46,46,51,22,28,93,,64,64,21,37,14,10,0.5,0.5
2024-10-08T1500,1094A,111.7516,40.8369,呼和浩特市,如意水处理厂,,39,39,48,18,24,92,,62,62,15,35,9,9,0.4,0.4
2024-10-08T1500,1095A,111.7276,40.8062,呼和浩特市,二十九中,,,,53,,29,98,,74,74,16,41,9,7,,0.6
2024-10-08T1500,1096A,111.5512,40.7866,呼和浩特市,工大金川校区,,39,39,54,22,26,107,,61,61,13,41,8,5,0.5,0.6
2024-10-08T1500,1097A,111.717,40.7612,呼和浩特市,化肥厂生活区,,38,38,59,16,26,98,,64,64,14,36,11,10,0.3,0.5
2024-10-08T1500,3698A,111.5968,40.8178,呼和浩特市,红旗小学,颗粒物(PM10),51,51,55,22,27,103,,62,62,18,44,10,6,0.4,0.5
2024-10-08T1500,3699A,111.6518,40.8389,呼和浩特市,海东办,颗粒物(PM10),52,53,47,23,27,98,,66,66,16,43,10,7,0.4,0.6
2024-10-08T1500,2192A,119.7594,49.2261,呼伦贝尔市,区环保局,,23,20,25,12,15,72,,52,52,13,14,6,6,0.1,0.1
2024-10-08T1500,3061A,119.7512,49.1577,呼伦贝尔市,国华电力东,,27,12,23,9,12,84,,61,61,4,6,5,4,0.3,0.3
2024-10-08T1500,1250A,120.0751,30.8669,湖州市,城西水厂,,45,27,24,17,20,142,,91,91,15,25,5,5,0.6,0.7
2024-10-08T1500,2873A,120.0875,30.8955,湖州市,仁皇山新区,,,,32,,29,141,,94,94,13,16,,7,0.5,0.5
2024-10-08T1500,2907A,120.1844,30.8596,湖州市,吴兴区站,,45,36,30,23,22,144,,96,96,12,15,6,6,0.6,0.7
2024-10-08T1500,3562A,120.4148,30.8538,湖州市,南浔区站,,45,45,35,27,26,144,,94,94,19,16,4,3,0.6,0.6
2024-10-08T1500,1607A,120.9092,40.7136,葫芦岛市,龙港区,,30,,65,21,38,90,,62,62,15,45,16,24,0.5,0.8
2024-10-08T1500,1608A,120.8392,40.7514,葫芦岛市,化工街,,27,22,79,12,39,86,,53,53,15,40,20,63,0.3,0.6
2024-10-08T1500,1609A,120.8341,40.7073,葫芦岛市,新区,,44,44,58,14,39,97,,53,53,16,49,18,20,0.5,0.8
2024-10-08T1500,1610A,120.8695,40.7677,葫芦岛市,东城区,,34,34,80,15,35,80,,44,44,15,34,14,189,0.4,0.6
2024-10-08T1500,2482A,109.5981,27.5721,怀化市,林科所,,35,24,18,7,10,112,,90,90,12,12,6,7,0.8,0.7
2024-10-08T1500,2483A,109.9453,27.5444,怀化市,河西地税局,,36,32,27,19,18,113,,88,88,7,10,9,11,0.4,0.3
2024-10-08T1500,2484A,109.9781,27.5342,怀化市,市四医院,,34,33,36,22,22,108,,84,84,4,7,6,12,0.5,0.5
2024-10-08T1500,2485A,109.9972,27.5578,怀化市,监测楼,,36,31,37,22,20,115,,92,92,6,10,6,15,0.5,0.5
2024-10-08T1500,2486A,110.0394,27.583,怀化市,市委党校,,37,37,38,20,21,112,,85,85,6,11,8,26,0.4,0.4
2024-10-08T1500,1210A,119.036,33.5981,淮安市,钵池山,,34,,44,19,36,106,,84,84,7,18,5,5,0.6,0.9
2024-10-08T1500,1211A,119.007,33.575,淮安市,北京南路,,33,27,51,14,29,103,,81,81,15,29,6,7,0.3,0.5
2024-10-08T1500,1212A,118.989,33.6067,淮安市,市监测站,,35,19,39,14,32,112,,87,87,13,34,7,8,0.5,0.7
2024-10-08T1500,1213A,119.135,33.5039,淮安市,楚州区监测站,,38,32,44,13,35,121,,86,86,15,26,7,7,0.6,0.7
2024-10-08T1500,1214A,119.0186,33.6297,淮安市,淮阴区监测站,,35,,48,22,36,110,,84,84,17,35,7,8,0.5,0.7
2024-10-08T1500,3426A,118.8755,33.2894,淮安市,新华书店,,41,31,35,15,19,130,,89,89,12,18,9,9,0.3,0.4
2024-10-08T1500,2282A,116.8004,33.975,淮北市,监测站,,40,33,36,20,22,127,,88,88,8,17,2,2,0.4,0.4
2024-10-08T1500,2283A,116.8091,33.9007,淮北市,烈山区政府,,50,49,49,35,32,144,,97,97,9,32,6,7,0.4,0.3
2024-10-08T1500,3330A,116.8873,33.9836,淮北市,杜集区检察院,颗粒物(PM10),54,58,43,21,16,139,,93,93,11,20,3,2,0,0.4
2024-10-08T1500,4017A,116.7923,33.9535,淮北市,市博物馆,,42,41,35,25,23,133,,93,93,9,19,2,3,0.4,0.5
2024-10-08T1500,2277A,116.8305,32.7727,淮南市,潘集区政府,,48,44,32,33,22,129,,99,99,12,19,7,7,0.4,0.5
2024-10-08T1500,2278A,117.0067,32.6524,淮南市,师范学院,,42,42,32,29,21,127,,102,102,8,19,6,6,0.4,0.3
2024-10-08T1500,2279A,116.8569,32.5951,淮南市,谢家集区政府,,42,,24,27,22,132,,102,102,10,17,7,7,0.3,0.3
2024-10-08T1500,2280A,116.8281,32.633,淮南市,八公山区政府,,42,42,30,27,19,130,,101,101,8,8,10,7,0.3,0.3
2024-10-08T1500,2281A,116.6325,32.6201,淮南市,焦岗湖风景区管理处,,46,46,19,15,12,112,,82,82,5,7,10,8,0.1,0
2024-10-08T1500,2894A,117.0566,32.6531,淮南市,经济技术开发区消防队,颗粒物(PM10),52,53,32,28,17,125,,99,99,7,19,5,5,0.4,0.4
2024-10-08T1500,3329A,117.0108,32.5893,淮南市,山南新区,,40,38,29,22,14,126,,104,104,12,19,2,3,0.4,0.5
2024-10-08T1500,2446A,114.9028,30.4742,黄冈市,职工中心,,45,40,31,25,22,142,,102,102,18,17,8,9,0.5,0.4
2024-10-08T1500,2929A,114.8858,30.4519,黄冈市,红卫路,,46,28,23,16,15,147,,105,105,10,16,8,8,0.6,0.6
2024-10-08T1500,3398A,114.9136,30.4445,黄冈市,市林业局,,45,32,24,19,17,144,,101,101,6,12,8,8,0.5,0.4
2024-10-08T1500,2672A,102.0199,35.5102,黄南藏族自治州,同仁县隆务镇,,33,32,42,7,20,103,,84,84,1,3,9,9,0.4,0.5
2024-10-08T1500,2295A,118.2903,29.6963,黄山市,延安路89号,,41,41,15,26,9,88,,88,88,8,6,6,6,0.4,0.3
2024-10-08T1500,2296A,118.327,29.7178,黄山市,黄山东路89号,,37,37,14,21,7,88,,84,84,6,5,4,4,0.4,0.3
2024-10-08T1500,2297A,118.1371,30.2756,黄山市,黄山区政府5号楼,,44,44,15,23,9,91,,75,75,7,7,7,7,0.4,0.4
2024-10-08T1500,2423A,115.0601,30.2313,黄石市,沈家营,,46,25,24,13,10,146,,101,101,12,16,8,10,0.6,0.5
2024-10-08T1500,2424A,115.0817,30.2006,黄石市,陈家湾,,48,22,22,21,14,153,,97,97,9,16,9,8,0.7,0.6
2024-10-08T1500,2426A,114.8988,30.2019,黄石市,铁山,,49,26,23,22,16,156,,111,111,7,14,10,9,0.5,0.5
2024-10-08T1500,2427A,115.0307,30.2092,黄石市,团城山,,47,29,31,17,11,149,,96,96,9,16,8,7,0.6,0.5
2024-10-08T1500,3149A,115.0235,30.1578,黄石市,笔架山北路,,47,19,23,13,13,150,,98,98,8,14,7,7,0.4,0.4
2024-10-08T1500,1392A,114.4183,23.0528,惠州市,河南岸金山湖子站,,49,46,44,34,29,134,,125,125,7,11,6,7,0.6,0.6
2024-10-08T1500,1393A,114.4053,23.0822,惠州市,下埔横江三路子站,,,43,43,27,30,141,,136,136,8,10,,7,0.7,0.7
2024-10-08T1500,1394A,114.4103,23.1142,惠州市,江北云山西路子站,,50,41,41,35,26,135,,130,130,6,9,6,7,0.6,0.5
2024-10-08T1500,1395A,114.4645,22.7833,惠州市,惠阳区承修路船湖子站,,41,41,50,28,29,126,,115,115,14,16,8,9,0.7,0.7
2024-10-08T1500,1396A,114.5317,22.7422,惠州市,大亚湾管委会子站,,41,41,39,28,26,129,,115,115,14,12,9,9,0.6,0.5
2024-10-08T1500,3314A,114.4338,22.8134,惠州市,惠阳秋长,,42,36,36,29,27,132,,119,119,8,11,7,7,0.5,0.5
2024-10-08T1500,3452A,114.6517,22.775,惠州市,大亚湾霞涌,细颗粒物(PM2.5),69,,34,50,23,113,,105,105,6,8,6,6,0.7,0.7
2024-10-08T1500,2240A,130.9762,45.3001,鸡西市,环保局,,37,37,40,22,23,72,,60,60,2,10,5,6,0.3,0.4
2024-10-08T1500,2243A,130.9429,45.3039,鸡西市,第一中学,,33,33,46,17,25,80,,67,67,3,9,5,5,0.0,0.1
2024-10-08T1500,3707A,131.0207,45.3073,鸡西市,欧美日汽修厂,,38,38,48,21,30,73,,58,58,14,21,7,8,0.0,0.2
2024-10-08T1500,3709A,130.9967,45.3106,鸡西市,市政设施管理处,,44,44,51,19,27,76,,60,60,10,25,5,6,0.1,0.2
2024-10-08T1500,2367A,114.9754,27.0803,吉安市,红声器材厂,,27,25,46,13,24,84,,64,64,14,18,11,12,0.5,0.5
2024-10-08T1500,2368A,114.9658,27.0999,吉安市,市森林工业局,,28,23,42,11,25,88,,67,67,10,17,8,11,0.7,0.7
2024-10-08T1500,2369A,114.99,27.1312,吉安市,市环境监测站,,29,21,39,9,23,91,,69,69,12,16,12,15,0.4,0.5
2024-10-08T1500,2370A,115.0093,27.0968,吉安市,青原区法院,,26,25,39,11,23,82,,62,62,19,19,12,15,0.6,0.6
2024-10-08T1500,1772A,126.54,43.8622,吉林市,哈达湾,,29,18,36,10,24,92,,71,71,8,22,6,6,0.4,0.6
2024-10-08T1500,1773A,126.5844,43.8358,吉林市,东局子,,30,13,32,12,23,94,,73,73,8,21,5,5,0.4,0.5
2024-10-08T1500,1774A,126.5052,43.8245,吉林市,电力学院,,29,,49,17,34,92,,69,69,6,26,5,5,0.5,0.7
2024-10-08T1500,1775A,126.6133,43.8972,吉林市,江北,,28,17,42,10,25,89,,70,70,12,21,8,8,0.6,0.8
2024-10-08T1500,1776A,126.555,43.8306,吉林市,江南公园,,29,19,40,16,28,90,,71,71,10,25,6,6,0.4,0.6
2024-10-08T1500,1778A,126.7061,43.7133,吉林市,丰满,,30,13,21,12,19,94,,44,,4,5,6,6,0,0.3
2024-10-08T1500,2868A,126.4739,43.953,吉林市,九站,,29,28,46,12,26,91,,73,73,7,30,6,7,0.5,0.6
2024-10-08T1500,1299A,116.9862,36.6114,济南市,科干所,,40,29,44,12,20,127,,88,88,14,42,7,6,0.5,0.7
2024-10-08T1500,1300A,116.9376,36.665,济南市,农科所,,39,37,58,10,17,123,,80,80,21,50,5,5,0.6,0.7
2024-10-08T1500,1301A,117.1265,36.6734,济南市,开发区,,38,27,43,12,23,120,,93,93,17,36,4,4,0.4,0.6
2024-10-08T1500,1303A,117.0624,36.6868,济南市,省种子仓库,,38,31,51,12,21,119,,87,87,13,35,4,3,0.2,0.4
2024-10-08T1500,1304A,116.9489,36.6447,济南市,机床二厂,,41,27,56,12,24,129,,90,90,21,47,5,4,0.6,0.8
2024-10-08T1500,1305A,117.0495,36.663,济南市,市监测站,,39,32,42,12,21,123,,94,94,17,38,5,4,0.4,0.6
2024-10-08T1500,1306A,116.7675,36.5484,济南市,长清党校,,43,29,45,12,24,136,,103,103,17,39,5,5,0.5,0.6
2024-10-08T1500,1616A,117.6795,36.229,济南市,技术学院,,36,14,45,3,25,113,,80,80,6,31,8,8,0.3,0.6
2024-10-08T1500,1961A,117.532,36.6868,济南市,东山小学,,44,27,41,15,19,138,,102,102,14,33,4,4,0.3,0.5
2024-10-08T1500,3059A,117.7161,36.2049,济南市,泰兴公司,,36,12,48,7,29,113,,75,75,6,35,8,8,0.2,0.4
2024-10-08T1500,3064A,117.6867,36.2171,济南市,莱芜战役纪念馆,,37,19,55,3,25,116,,79,79,8,35,6,6,0.3,0.6
2024-10-08T1500,3494A,117.1673,36.9782,济南市,济阳区政府,,40,32,64,12,31,127,,81,81,14,40,4,7,0.2,0.5
2024-10-08T1500,3495A,117.1171,36.63,济南市,锦屏中学,,38,20,27,7,16,121,,102,102,20,22,5,4,0.3,0.5
2024-10-08T1500,3682A,116.9814,36.6819,济南市,济南四建,,37,22,50,10,25,118,,81,81,17,50,3,3,0.3,0.6
2024-10-08T1500,1653A,116.6251,35.4302,济宁市,火炬城,,40,24,60,14,41,125,,84,84,11,36,10,9,0.4,0.8
2024-10-08T1500,1655A,116.5491,35.4042,济宁市,电化厂,,39,39,84,12,41,118,,84,84,19,38,9,8,0.9,1.2
2024-10-08T1500,3500A,116.5814,35.3707,济宁市,北湖一中,,40,28,60,19,48,126,,92,92,14,33,7,7,0.4,0.6
2024-10-08T1500,3501A,116.8249,35.5593,济宁市,服务中心,,36,24,62,8,40,115,,79,79,10,41,7,7,0.4,0.8
2024-10-08T1500,3678A,116.5907,35.4054,济宁市,市第七中学,,39,32,63,17,46,123,,88,88,13,33,8,8,0.5,0.8
2024-10-08T1500,2255A,130.2751,46.8028,佳木斯市,佳纺,,44,44,52,25,29,89,,78,78,7,20,6,3,0.5,0.5
2024-10-08T1500,2256A,130.3995,46.8307,佳木斯市,发电厂,,43,43,41,29,29,87,,70,70,8,19,6,6,0.5,0.5
2024-10-08T1500,2257A,130.3258,46.7975,佳木斯市,环保局,,43,43,46,26,28,85,,73,73,8,18,8,8,0.5,0.5
2024-10-08T1500,2258A,130.3648,46.8032,佳木斯市,十一中,,43,43,46,30,30,86,,72,72,12,26,7,7,0.5,0.5
2024-10-08T1500,2259A,130.3794,46.7588,佳木斯市,四丰,,33,32,32,23,22,88,,74,74,8,10,1,1,0.2,0.2
2024-10-08T1500,1252A,120.7436,30.778,嘉兴市,清河小学,,45,29,29,17,15,144,,94,94,19,20,5,4,0.6,0.7
2024-10-08T1500,1253A,120.726,30.7478,嘉兴市,嘉兴学院,,46,35,24,22,23,145,,94,94,18,17,4,3,0.5,0.5
2024-10-08T1500,2872A,120.7846,30.7525,嘉兴市,南湖区残联,,50,34,24,18,22,158,,105,105,13,13,6,6,0.4,0.5
2024-10-08T1500,3407A,120.6916,30.7739,嘉兴市,秀洲住建,,48,34,23,28,19,152,,97,97,14,15,7,6,0.5,0.5
2024-10-08T1500,1945A,98.2908,39.7711,嘉峪关市,气象局,颗粒物(PM10),76,102,63,9,17,114,,96,96,11,21,2,15,0.3,0.3
2024-10-08T1500,2884A,98.2672,39.7978,嘉峪关市,酒钢宾馆,颗粒物(PM10),64,78,65,12,16,121,,101,101,1,15,3,11,0.2,0.4
2024-10-08T1500,3248A,98.2643,39.7724,嘉峪关市,雄关区,颗粒物(PM10),64,77,50,18,19,111,,96,96,3,18,6,10,0.3,0.4
2024-10-08T1500,1383A,113.1064,22.6058,江门市,北街,臭氧1小时,113,98,64,60,48,226,,164,164,15,20,7,7,0.6,0.6
2024-10-08T1500,1384A,113.0731,22.5835,江门市,西区,臭氧1小时,117,81,70,51,45,233,,166,166,17,20,7,9,0.6,0.6
2024-10-08T1500,1385A,113.0219,22.5311,江门市,圭峰西,臭氧1小时,112,75,62,53,49,223,,169,169,18,20,5,6,0.5,0.9
2024-10-08T1500,1386A,113.0828,22.5947,江门市,东湖,臭氧1小时,114,82,67,54,44,228,,164,164,15,18,7,7,0.6,0.6
2024-10-08T1500,3311A,113.1075,22.5647,江门市,江海富民,臭氧1小时,114,73,65,40,37,228,,166,166,17,19,8,9,0.7,0.6
2024-10-08T1500,3449A,113.05,22.4667,江门市,新会银湖,臭氧1小时,113,70,63,50,49,225,,164,164,14,18,7,8,0.7,0.7
2024-10-08T1500,1828A,113.227,35.2125,焦作市,市环保局,细颗粒物(PM2.5),165,141,140,125,112,176,,104,104,14,26,7,5,0.7,0.8
2024-10-08T1500,1830A,113.1992,35.2590,焦作市,影视城,细颗粒物(PM2.5),132,131,105,100,85,175,,98,,15,12,10,6,0.8,0.7
2024-10-08T1500,3169A,113.2725,35.2067,焦作市,太极体育中心,细颗粒物(PM2.5),109,133,155,82,92,162,,85,85,16,33,8,6,0.7,0.8
2024-10-08T1500,3335A,113.3137,35.2641,焦作市,马村街道办,细颗粒物(PM2.5),179,148,124,135,106,158,,93,93,20,23,12,6,0.9,0.8
2024-10-08T1500,3336A,113.2465,35.2373,焦作市,焦作技师学院,细颗粒物(PM2.5),168,149,131,127,105,166,,101,101,17,23,7,4,0.8,0.9
2024-10-08T1500,3477A,113.1656,35.2539,焦作市,中站许衡医院,细颗粒物(PM2.5),137,139,105,104,82,177,,116,116,15,23,9,5,1.0,0.9
2024-10-08T1500,3981A,113.2449,35.1803,焦作市,原李万街道办,细颗粒物(PM2.5),137,133,153,104,110,166,,100,100,29,29,9,7,0.6,1
2024-10-08T1500,1708A,116.3701,23.5345,揭阳市,新兴,,47,47,32,31,23,81,,62,62,14,13,6,6,0.6,0.6
2024-10-08T1500,1709A,116.3264,23.5443,揭阳市,西马,,49,44,34,34,22,83,,64,64,10,11,6,8,0.8,0.7
2024-10-08T1500,1710A,116.3611,23.5626,揭阳市,东兴,颗粒物(PM10),52,54,32,25,20,79,,61,61,19,13,6,5,0.8,0.7
2024-10-08T1500,1711A,116.4151,23.5294,揭阳市,渔湖,,35,35,31,11,15,79,,59,59,19,14,7,8,0.7,0.6
2024-10-08T1500,3320A,116.403,23.5699,揭阳市,曲溪,,32,32,25,22,18,81,,62,62,15,13,1,2,0.6,0.5
2024-10-08T1500,1944A,102.1692,38.5167,金昌市,天庆家园,,35,21,39,12,23,109,,98,98,6,17,9,12,0.7,0.7
2024-10-08T1500,3170A,102.1864,38.5253,金昌市,市委党校,,35,25,53,8,22,111,,97,97,5,17,6,10,0.4,0.6
2024-10-08T1500,4022A,102.1647,38.5371,金昌市,金川区人防中心,,35,26,63,7,23,109,,101,101,6,18,8,10,0.4,0.6
2024-10-08T1500,1262A,119.647,29.077,金华市,十五中,,25,,19,16,7,79,,77,77,22,22,2,2,0.5,0.5
2024-10-08T1500,1263A,119.686,29.1029,金华市,监测站,,28,26,12,19,8,72,,72,72,22,22,2,2,0.6,0.6
2024-10-08T1500,3659A,119.656,29.1131,金华市,气象局,,30,30,12,15,4,78,,72,72,21,25,3,3,0.4,0.4
2024-10-08T1500,1767A,121.1115,41.0879,锦州市,南山,,29,29,50,20,39,73,,57,57,22,29,14,12,0.6,1.1
2024-10-08T1500,1768A,121.0533,40.8434,锦州市,开发区,,44,44,106,23,52,70,,46,46,26,46,13,27,0.6,1.1
2024-10-08T1500,1769A,121.1836,41.1119,锦州市,百股街道,,32,32,41,14,24,74,,54,54,20,27,12,12,0.7,0.9
2024-10-08T1500,1770A,121.1178,41.1222,锦州市,天安街道,,29,29,54,14,30,79,,60,60,21,36,14,12,0.6,0.9
2024-10-08T1500,1771A,121.1303,41.1386,锦州市,北湖公园,,27,22,44,13,26,86,,63,63,18,32,14,12,0.5,0.7
2024-10-08T1500,2160A,112.85,35.5051,晋城市,自来水公司,细颗粒物(PM2.5),73,82,128,53,98,150,,100,100,21,28,10,10,1.1,1.4
2024-10-08T1500,2161A,112.8318,35.4936,晋城市,白云商贸,细颗粒物(PM2.5),83,74,141,61,107,150,,103,103,22,27,6,6,1.0,1.3
2024-10-08T1500,2162A,112.8508,35.4887,晋城市,市环保局,颗粒物(PM10),78,105,146,53,95,150,,103,103,20,29,7,7,1.0,1.3
2024-10-08T1500,2163A,112.8676,35.4897,晋城市,技术学院,细颗粒物(PM2.5),70,67,136,51,94,149,,102,102,24,30,7,7,1.1,1.3
2024-10-08T1500,2165A,112.8453,35.546,晋城市,白马寺,细颗粒物(PM2.5),84,75,123,62,84,141,,100,,18,20,10,10,1.2,1.4
2024-10-08T1500,3620A,112.8271,35.4828,晋城市,泽州一中,细颗粒物(PM2.5),85,96,128,63,108,150,,102,102,23,29,10,10,1.2,1.4
2024-10-08T1500,2171A,112.7532,37.6945,晋中市,锦纶小区,,41,41,56,14,30,122,,72,72,18,27,10,7,0.6,0.6
2024-10-08T1500,2173A,112.7249,37.7067,晋中市,南都小区,,40,40,58,24,34,120,,70,70,19,36,9,6,0.3,0.4
2024-10-08T1500,2174A,112.6991,37.6982,晋中市,榆次区政府,颗粒物(PM10),52,53,61,22,30,120,,71,71,21,31,10,7,0.5,0.5
2024-10-08T1500,2865A,112.7195,37.6828,晋中市,榆次三中,,46,46,58,24,28,120,,69,69,19,29,12,9,0.5,0.6
2024-10-08T1500,2439A,112.2014,31.0481,荆门市,竹园小学,细颗粒物(PM2.5),90,85,78,67,59,175,,111,111,13,28,13,11,0.6,0.6
2024-10-08T1500,2440A,112.1969,30.9891,荆门市,掇刀,细颗粒物(PM2.5),79,83,76,58,56,180,,129,129,14,30,10,10,0.5,0.6
2024-10-08T1500,2441A,112.2213,31.0386,荆门市,石化一小,细颗粒物(PM2.5),84,81,80,62,52,178,,114,114,11,33,14,17,0.5,0.6
2024-10-08T1500,3012A,112.1849,31.0362,荆门市,西山林语,臭氧1小时,74,84,72,53,54,179,,124,124,11,17,8,8,0.5,0.5
2024-10-08T1500,3547A,112.1632,31.0138,荆门市,龙泉中学南校,臭氧1小时,73,82,61,44,36,178,,127,127,17,23,10,7,0.6,0.6
2024-10-08T1500,1844A,112.2494,30.3197,荆州市,市图书馆,,49,,36,22,28,156,,114,114,14,35,9,10,0.5,0.7
2024-10-08T1500,1845A,112.2008,30.3544,荆州市,市委党校,,50,31,38,22,30,157,,114,114,12,30,7,7,0.4,0.6
2024-10-08T1500,3194A,112.2747,30.3122,荆州市,管委会,臭氧1小时,53,27,37,24,28,162,,111,111,12,37,8,9,0.6,0.7
2024-10-08T1500,3548A,112.1655,30.3364,荆州市,学苑路,臭氧1小时,59,38,46,22,32,167,,118,118,12,24,8,8,0.5,0.6
2024-10-08T1500,2343A,117.2117,29.2933,景德镇市,老干部活动中心,,20,9,7,3,3,64,,53,53,5,5,6,7,0.3,0.3
2024-10-08T1500,2344A,117.1894,29.2789,景德镇市,兽医站,,22,17,13,3,3,69,,58,58,2,3,5,6,0.3,0.3
2024-10-08T1500,2345A,117.1547,29.2617,景德镇市,台达陶瓷,,20,19,9,3,4,64,,54,53,10,7,11,7,0.4,0.4
2024-10-08T1500,2346A,117.2461,29.2956,景德镇市,陶研所,,,17,7,7,3,66,,56,56,,7,7,6,0.3,0.3
2024-10-08T1500,1803A,115.9872,29.6815,九江市,十里,,45,45,21,22,10,137,,105,105,11,12,9,8,0.6,0.5
2024-10-08T1500,1804A,115.9584,29.7046,九江市,茅山头,,39,36,20,26,12,124,,99,99,12,12,11,9,0.7,0.6
2024-10-08T1500,1805A,115.9877,29.7295,九江市,西园,,44,41,17,25,13,138,,109,109,11,11,9,8,0.4,0.4
2024-10-08T1500,1806A,116.0172,29.6547,九江市,五七二七厂,,50,37,18,35,17,121,,92,92,11,11,8,7,0.7,0.6
2024-10-08T1500,1808A,115.9114,29.6038,九江市,综合工业园,细颗粒物(PM2.5),54,48,18,38,16,139,,101,101,13,14,9,7,0.4,0.4
2024-10-08T1500,1809A,116.0721,29.7535,九江市,石化总厂,,44,44,20,29,14,128,,100,100,12,10,8,8,0.7,0.6
2024-10-08T1500,1810A,115.9773,29.5698,九江市,庐山气象台,细颗粒物(PM2.5),65,,10,47,9,136,,126,126,5,3,6,6,0.7,0.6
2024-10-08T1500,3190A,116.0254,29.6994,九江市,外国语学校,颗粒物(PM10),54,57,20,27,13,123,,91,91,13,13,6,7,0.2,0.1
2024-10-08T1500,2658A,98.5061,39.7443,酒泉市,仓门街子站,颗粒物(PM10),120,190,68,22,24,119,,87,87,2,15,2,8,0.2,0.4
2024-10-08T1500,2659A,98.4989,39.7256,酒泉市,油田生活基地,颗粒物(PM10),98,146,72,20,25,115,,84,84,4,21,3,8,0.2,0.3
2024-10-08T1500,2698A,76.0072,39.4467,喀什地区,巡警大队,颗粒物(PM10),109,167,190,31,41,46,,12,12,36,52,7,6,0.8,1
2024-10-08T1500,2699A,75.9755,39.4694,喀什地区,吾办,颗粒物(PM10),97,144,176,43,56,52,,16,16,30,45,5,3,0.8,1
2024-10-08T1500,4027A,75.9483,39.4689,喀什地区,老干局,颗粒物(PM10),95,139,215,27,37,50,,20,20,27,44,5,5,0.8,0.8
2024-10-08T1500,1824A,114.3389,34.7781,开封市,肿瘤医院,细颗粒物(PM2.5),105,,130,79,126,166,,99,99,7,23,3,3,0.6,0.8
2024-10-08T1500,1826A,114.2885,34.7965,开封市,世纪星幼儿园,颗粒物(PM10),68,86,113,40,57,167,,100,100,16,31,2,3,0.6,0.8
2024-10-08T1500,3147A,114.3438,34.8106,开封市,龙亭公园,细颗粒物(PM2.5),67,82,125,48,70,166,,97,97,12,29,4,4,0.6,0.8
2024-10-08T1500,3210A,114.3644,34.7964,开封市,汴京公园,细颗粒物(PM2.5),94,104,143,70,109,145,,91,91,16,26,3,3,0.5,0.8
2024-10-08T1500,3473A,114.2485,34.8306,开封市,技师学院,颗粒物(PM10),74,98,119,40,51,168,,92,92,10,34,6,4,0.8,1
2024-10-08T1500,3592A,114.4644,34.7556,开封市,祥符区生态环境局,颗粒物(PM10),88,125,111,60,86,161,,90,90,14,32,3,8,0.4,0.8
2024-10-08T1500,1951A,84.895,45.6094,克拉玛依市,长征新村,,30,20,40,6,8,96,,86,78,1,14,6,6,0.1,0.2
2024-10-08T1500,1952A,84.8988,45.5893,克拉玛依市,南林小区,,31,17,37,11,19,98,,80,69,4,21,6,5,0.2,0.1
2024-10-08T1500,1954A,84.905,44.3396,克拉玛依市,独山子区,,33,25,27,9,12,104,,90,90,11,15,8,8,0.3,0.4
2024-10-08T1500,1955A,85.6979,46.098,克拉玛依市,乌尔禾区商贸楼,,31,11,40,10,6,97,,92,84,1,8,6,6,0.2,0.3
2024-10-08T1500,3612A,85.1045,45.6899,克拉玛依市,白碱滩区新站,,30,24,44,3,10,96,,93,85,5,14,9,8,0.2,0.2
2024-10-08T1500,2697A,76.1454,39.7142,克孜勒苏柯尔克孜自治州,市人民政府,颗粒物(PM10),103,155,137,40,46,84,,48,48,13,29,4,17,0.3,0.4
2024-10-08T1500,3665A,76.1658,39.7157,克孜勒苏柯尔克孜自治州,克州文化中心,颗粒物(PM10),98,146,133,53,48,83,,54,54,15,34,6,21,0.3,0.4
2024-10-08T1500,1450A,102.8204,24.8886,昆明市,呈贡新区,,45,39,32,31,19,21,,23,23,27,17,5,6,0.8,0.8
2024-10-08T1500,1452A,102.7252,25.0902,昆明市,龙泉镇,,18,18,14,3,6,18,,24,17,18,15,6,6,0.8,0.8
2024-10-08T1500,1453A,102.7266,25.0375,昆明市,东风东路,,42,42,21,16,12,16,,19,12,29,19,6,6,0.8,0.7
2024-10-08T1500,1454A,102.6742,25.0669,昆明市,金鼎山,,29,29,15,16,7,19,,25,14,24,17,1,1,0.7,0.7
2024-10-08T1500,1455A,102.6644,25.0401,昆明市,碧鸡广场,,31,31,19,14,12,13,,20,10,30,20,6,6,0.6,0.5
2024-10-08T1500,3179A,102.7494,25.0119,昆明市,官渡区博物馆,,38,38,22,20,13,18,,17,12,34,24,6,6,0.8,0.7
2024-10-08T1500,3375A,102.8017,24.8336,昆明市,青年创业园,细颗粒物(PM2.5),54,42,29,38,22,51,,38,38,14,15,4,4,0.8,0.8
2024-10-08T1500,3550A,102.7997,24.9786,昆明市,昆明学院,,45,45,28,27,16,12,,18,14,36,27,6,6,0.8,0.7
2024-10-08T1500,3551A,102.5967,24.6736,昆明市,晋宁区生态环境分局,细颗粒物(PM2.5),55,44,42,39,34,69,,67,67,11,18,2,2,1.0,1
2024-10-08T1500,3552A,102.6678,24.9856,昆明市,云天化总部,,39,38,23,27,16,12,,19,11,39,23,5,5,0.6,0.4
2024-10-08T1500,1456A,91.1319,29.6514,拉萨市,八廓街,,40,16,21,8,9,125,,91,91,7,20,7,11,0.2,0.3
2024-10-08T1500,1457A,91.1221,29.6747,拉萨市,市环保局,,41,9,17,6,8,129,,87,87,8,19,7,9,0.2,0.3
2024-10-08T1500,1458A,91.0874,29.6475,拉萨市,区监测站,,37,9,19,6,9,117,,83,83,6,34,6,9,0.3,0.4
2024-10-08T1500,1459A,91.1774,29.6541,拉萨市,西藏大学,,40,10,13,6,7,125,,90,90,6,12,7,11,0.3,0.3
2024-10-08T1500,1460A,90.9798,29.6588,拉萨市,区辐射站,,38,9,10,3,13,119,,79,79,5,29,9,11,0.1,0.3
2024-10-08T1500,1461A,91.0834,29.6292,拉萨市,拉萨火车站,,36,6,13,6,9,113,,67,67,6,20,6,6,0.2,0.4
2024-10-08T1500,2520A,109.2203,23.7256,来宾市,来宾技工学校,,41,41,49,26,35,122,,102,102,9,11,9,9,0.8,0.7
2024-10-08T1500,3535A,109.1781,23.7297,来宾市,兴宾区政府,,44,44,51,29,36,118,,105,105,7,8,8,10,0.6,0.6
2024-10-08T1500,4002A,109.2416,23.7461,来宾市,中南小学,颗粒物(PM10),54,58,53,30,35,134,,111,111,6,8,10,12,0.8,0.8
2024-10-08T1500,1476A,103.631,36.1031,兰州市,兰炼宾馆,细颗粒物(PM2.5),57,49,74,40,47,73,,32,32,18,47,10,10,0.5,0.7
2024-10-08T1500,1478A,103.8412,36.0726,兰州市,生物制品所,,,68,62,,39,66,,26,26,16,46,9,10,,0.6
2024-10-08T1500,1479A,103.831,36.0464,兰州市,铁路设计院,细颗粒物(PM2.5),60,61,67,43,43,60,,19,19,25,61,6,7,0.6,0.9
2024-10-08T1500,3186A,103.7158,36.1058,兰州市,教育港,细颗粒物(PM2.5),55,46,71,39,44,63,,24,24,15,49,7,8,0.6,0.7
2024-10-08T1500,3241A,103.7439,36.0842,兰州市,百合公园,,50,44,62,35,39,74,,25,25,16,44,5,8,0.5,0.8
2024-10-08T1500,3242A,103.9611,35.998,兰州市,和平,,31,31,53,21,32,81,,40,40,13,27,24,10,0.9,0.6
2024-10-08T1500,3245A,103.6633,36.533,兰州新区,新区管委会,,49,35,60,34,39,81,,47,47,11,24,17,13,0.8,0.6
2024-10-08T1500,3246A,103.6975,36.4789,兰州新区,舟曲中学,,49,44,62,34,37,84,,53,53,11,26,24,16,0.9,0.6
2024-10-08T1500,1067A,116.6708,39.5111,廊坊市,药材公司,,25,12,30,12,19,80,,53,53,16,34,3,2,0.3,0.3
2024-10-08T1500,1068A,116.7214,39.5589,廊坊市,开发区,,28,18,30,7,14,88,,55,55,12,35,2,2,0.3,0.3
2024-10-08T1500,1070A,116.7244,39.5269,廊坊市,北华航天学院,,28,13,34,3,13,88,,62,62,8,31,2,3,0.2,0.3
2024-10-08T1500,2919A,116.7022,39.5453,廊坊市,河北工业大学,,27,18,35,7,19,86,,57,57,13,32,3,3,0.2,0.3
2024-10-08T1500,2535A,103.7723,29.5462,乐山市,花湖湾,,31,23,40,18,30,99,,48,48,10,16,4,3,0.7,0.8
2024-10-08T1500,2536A,103.7627,29.5844,乐山市,牛耳桥,,33,28,37,23,33,90,,53,53,10,24,4,4,0.4,0.6
2024-10-08T1500,2537A,103.7508,29.6006,乐山市,市第三水厂,,32,29,45,20,40,100,,57,57,8,24,4,4,0.5,0.7
2024-10-08T1500,2538A,103.7571,29.5664,乐山市,市监测站,,30,30,35,16,40,90,,48,48,6,21,5,4,0.5,0.7
2024-10-08T1500,3361A,103.7311,29.5628,乐山市,理工大学,,42,40,45,29,37,99,,50,50,5,21,4,3,0.5,0.7
2024-10-08T1500,2599A,100.2497,26.8802,丽江市,丽江古城,,20,15,18,7,11,62,,44,44,7,10,8,9,0.5,0.6
2024-10-08T1500,2600A,100.2203,26.8906,丽江市,市中心,,21,9,10,3,8,65,,47,47,6,8,6,6,0.5,0.5
2024-10-08T1500,1267A,119.914,28.4514,丽水市,监测站大楼,,25,18,9,3,5,79,,77,77,16,13,6,6,0.5,0.5
2024-10-08T1500,1268A,119.93,28.4586,丽水市,莲都小学,,28,16,10,9,4,88,,83,83,12,13,4,4,0.5,0.5
2024-10-08T1500,1269A,119.879,28.4231,丽水市,余庄前,,23,23,17,7,5,64,,51,51,20,11,4,4,0.5,0.5
2024-10-08T1500,1173A,119.176,34.5885,连云港市,市环境监测站,,40,34,50,17,30,128,,94,94,16,25,11,10,0.7,0.7
2024-10-08T1500,3000A,119.3581,34.6972,连云港市,德源药业,,39,29,44,12,24,124,,99,99,9,26,7,7,0.4,0.4
2024-10-08T1500,3007A,119.178,34.844,连云港市,新城一中,,40,39,55,17,26,126,,94,94,11,22,8,9,0.7,0.8
2024-10-08T1500,3008A,119.3608,34.7519,连云港市,胡沟管理处,,37,22,32,7,17,116,,92,92,10,12,4,3,0.4,0.4
2024-10-08T1500,3009A,119.1478,34.5911,连云港市,矿山设计院,,41,39,50,24,32,131,,94,94,14,24,11,9,0.8,0.8
2024-10-08T1500,3434A,119.2413,34.6539,连云港市,工贸学校,,42,30,37,19,25,132,,93,93,11,24,10,11,0.7,1
2024-10-08T1500,3664A,119.4172,34.7341,连云港市,连云街道,,38,24,33,14,18,120,,96,96,15,23,9,7,0.5,0.5
2024-10-08T1500,2571A,102.3431,27.8099,凉山彝族自治州,青龙寺,,12,6,7,3,3,36,,26,26,1,4,6,6,0.5,0.7
2024-10-08T1500,2572A,102.2721,27.8415,凉山彝族自治州,邛海宾馆,,24,24,18,13,9,33,,28,24,15,14,9,9,0.7,0.7
2024-10-08T1500,2573A,102.2625,27.898,凉山彝族自治州,西昌市政府,,18,16,14,12,11,46,,26,26,11,11,8,8,0.6,0.7
2024-10-08T1500,2574A,102.2685,27.8851,凉山彝族自治州,凉山州政府,,18,17,13,12,10,48,,28,28,10,12,7,7,0.7,0.9
2024-10-08T1500,2575A,102.237,27.8914,凉山彝族自治州,长安,,22,22,17,12,10,39,,20,20,18,17,11,10,0.8,0.9
2024-10-08T1500,2212A,123.2,41.1953,辽阳市,宏伟区,,47,47,42,23,26,64,,67,67,35,27,22,8,1.5,0.7
2024-10-08T1500,2213A,123.1683,41.2495,辽阳市,新华园,,42,42,69,25,27,80,,50,50,21,36,27,14,1.0,0.9
2024-10-08T1500,2214A,123.2354,41.2639,辽阳市,滨河路,,36,36,52,23,30,69,,55,55,31,28,23,14,1.6,1
2024-10-08T1500,2215A,123.149,41.2991,辽阳市,铁西工业园,颗粒物(PM10),51,51,79,23,43,80,,49,49,15,30,19,15,1.0,1
2024-10-08T1500,2227A,125.1358,42.8845,辽源市,环保局,,30,21,38,8,22,95,,69,69,5,20,6,8,0.4,0.7
2024-10-08T1500,3239A,125.0764,42.9078,辽源市,银鹰制药,,30,18,37,6,22,96,,63,63,4,25,6,5,0.5,0.7
2024-10-08T1500,1625A,115.9848,36.4372,聊城市,区政府,,43,33,66,14,34,136,,88,88,14,43,9,10,0.4,0.6
2024-10-08T1500,2878A,116.0072,36.4343,聊城市,聊大东校,,,39,68,20,43,139,,103,103,17,43,10,8,,0.7
2024-10-08T1500,3200A,115.9819,36.4978,聊城市,监控中心,,45,39,66,14,39,142,,96,96,16,45,8,9,0.6,0.7
2024-10-08T1500,3513A,116.0445,36.4361,聊城市,九州社区,,44,38,70,17,37,138,,94,94,5,37,7,10,0.5,0.6
2024-10-08T1500,4018A,116.0567,36.4608,聊城市,星美广场,,,35,79,17,38,143,,107,107,,44,8,9,0.7,0.6
2024-10-08T1500,2632A,94.3681,29.6376,林芝市,林芝监测站,,21,8,4,3,2,65,,40,40,2,3,10,10,0.2,0.2
2024-10-08T1500,2633A,94.3616,29.6616,林芝市,林芝人民医院,,22,15,7,3,3,68,,42,42,6,6,5,5,0.3,0.3
2024-10-08T1500,2603A,100.0781,23.8982,临沧市,市环保局,,22,,21,15,12,48,,34,34,9,10,7,8,0.6,0.6
2024-10-08T1500,2604A,100.0894,23.8822,临沧市,市气象局,,19,15,22,13,17,49,,36,36,9,10,12,6,0.4,0.6
2024-10-08T1500,1733A,111.5531,36.0783,临汾市,临钢医院,颗粒物(PM10),52,53,106,23,62,128,,78,78,16,35,6,8,0.6,1
2024-10-08T1500,1734A,111.5028,36.0714,临汾市,技工学校,,43,30,90,21,60,136,,82,82,18,42,8,10,0.6,1
2024-10-08T1500,1736A,111.5018,36.0855,临汾市,市委,,45,27,88,14,48,144,,90,90,10,32,8,10,0.5,0.9
2024-10-08T1500,3018A,111.505,36.1014,临汾市,唐尧大酒店,,43,38,79,17,46,136,,82,82,12,32,7,8,0.6,0.9
2024-10-08T1500,3668A,111.5036,36.0414,临汾市,城南,,46,34,120,14,72,145,,97,97,15,42,8,8,0.5,1
2024-10-08T1500,2667A,103.2069,35.5993,临夏回族自治州,环保局,,33,31,59,7,22,104,,70,70,3,25,3,3,0.4,0.7
2024-10-08T1500,2668A,103.2417,35.6057,临夏回族自治州,建设大厦,,34,28,52,16,30,107,,72,72,4,21,2,2,0.3,0.6
2024-10-08T1500,1618A,118.3429,35.0532,临沂市,沂河小区,,41,41,61,26,32,129,,92,92,8,27,7,7,0.3,0.5
2024-10-08T1500,1619A,118.295,35.0583,临沂市,鲁南制药厂,,42,31,64,16,25,133,,93,93,10,31,6,6,0.3,0.5
2024-10-08T1500,1620A,118.2794,34.9976,临沂市,新光毛纺厂,,40,24,54,20,29,126,,88,88,16,40,5,5,0.5,0.8
2024-10-08T1500,1621A,118.3956,35.0888,临沂市,河东保险公司,,45,34,48,15,30,141,,98,98,18,35,8,7,0.7,0.8
2024-10-08T1500,3370A,118.3564,35.0215,临沂市,十里堡居委,,41,24,49,12,31,130,,93,93,13,32,6,5,0.5,0.7
2024-10-08T1500,3496A,118.3604,35.1084,临沂市,南坊新区,,42,34,57,19,33,134,,90,90,11,31,8,8,0.4,0.6
2024-10-08T1500,3860A,118.3920,35.0300,临沂市,皇山花园小区,,40,34,56,25,36,125,,88,88,13,38,8,8,0.4,0.8
2024-10-08T1500,1870A,109.4856,24.3895,柳州市,柳东小学,,43,39,45,30,34,113,,99,99,5,7,9,10,0.6,0.6
2024-10-08T1500,1871A,109.4157,24.3277,柳州市,环保监测站,,,45,49,28,34,111,,98,98,,9,9,10,0.6,0.7
2024-10-08T1500,1872A,109.389,24.341,柳州市,河西水厂,,46,46,60,27,36,106,,95,95,8,18,11,18,0.8,1.4
2024-10-08T1500,1873A,109.4311,24.2921,柳州市,市四中,,45,45,44,24,32,122,,106,106,6,8,8,8,0.7,0.8
2024-10-08T1500,1874A,109.4006,24.3631,柳州市,市九中,,40,29,44,28,35,111,,98,98,5,11,6,8,0.9,1
2024-10-08T1500,1875A,109.4958,24.3134,柳州市,古亭山,,48,48,46,30,34,121,,104,104,8,9,10,10,0.8,0.8
2024-10-08T1500,3402A,109.5422,24.3996,柳州市,市二中,,39,39,48,26,35,119,,100,100,9,11,10,11,0.6,0.6
2024-10-08T1500,2307A,116.5079,31.737,六安市,监测大楼,,,35,19,34,11,123,,87,87,,20,4,4,0.4,0.4
2024-10-08T1500,2308A,116.4738,31.7643,六安市,皖西学院,,44,44,17,16,10,121,,80,80,7,14,4,4,0.4,0.4
2024-10-08T1500,2309A,116.4996,31.7905,六安市,朝阳厂,,39,34,14,19,12,123,,91,91,7,13,3,3,0.3,0.3
2024-10-08T1500,2310A,116.5567,31.7886,六安市,开发区,,37,35,19,19,11,117,,82,82,7,16,5,3,0.4,0.4
2024-10-08T1500,2577A,104.83,26.5917,六盘水市,黄土坡,,29,29,24,20,16,52,,62,58,18,11,9,7,0.5,0.4
2024-10-08T1500,2578A,104.89,26.5939,六盘水市,水钢,,49,49,34,32,16,46,,60,50,25,14,7,7,0.6,0.4
2024-10-08T1500,2579A,104.8475,26.5894,六盘水市,民中,,35,32,22,24,16,45,,62,56,26,15,8,8,0.5,0.3
2024-10-08T1500,2580A,104.9544,26.5506,六盘水市,双水,,36,36,27,20,15,55,,56,56,12,8,9,9,0.5,0.4
2024-10-08T1500,2336A,117.0217,25.1033,龙岩市,龙岩市监测站,,23,13,15,9,9,73,,60,60,9,10,3,8,0.6,0.6
2024-10-08T1500,2337A,117.0258,25.0661,龙岩市,闽西职业技术学院,,24,18,16,8,12,75,,63,63,4,6,5,7,0.7,0.6
2024-10-08T1500,2338A,117.0196,25.0306,龙岩市,龙岩学院,,26,26,16,12,13,66,,58,58,11,8,3,4,0.6,0.5
2024-10-08T1500,2885A,104.9339,33.3826,陇南市,滨江中学,,38,38,43,16,21,90,,87,87,7,7,8,8,0.5,0.5
2024-10-08T1500,3247A,104.955,33.371,陇南市,市总工会,,30,27,34,13,9,93,,91,91,6,5,2,3,0.3,0.4
2024-10-08T1500,2487A,111.9589,27.8901,娄底市,电视发射台,,36,28,28,25,27,92,,98,95,6,6,6,7,0.4,0.3
2024-10-08T1500,2488A,111.9975,27.725,娄底市,市监测站,,29,29,37,20,27,90,,93,93,16,12,5,7,0.3,0.4
2024-10-08T1500,2489A,112.0194,27.7314,娄底市,市委党校,,33,32,41,23,30,87,,93,88,9,11,5,6,0.5,0.5
2024-10-08T1500,2490A,111.9561,27.7569,娄底市,涟钢,,25,20,40,15,28,78,,86,78,15,11,7,6,1.5,1.2
2024-10-08T1500,2491A,111.9892,27.7044,娄底市,市政府,,35,32,35,24,26,91,,95,95,8,9,5,6,0.4,0.4
2024-10-08T1500,1893A,105.4324,28.9634,泸州市,九狮山,,32,30,45,22,31,66,,35,35,18,20,5,5,0.6,0.5
2024-10-08T1500,1894A,105.4427,28.9063,泸州市,小市上码头,,36,35,58,25,38,80,,54,54,11,14,4,3,0.5,0.6
2024-10-08T1500,1895A,105.4241,28.8573,泸州市,兰田宪桥,,49,37,49,34,41,82,,50,50,10,15,3,3,0.4,0.5
2024-10-08T1500,1896A,105.4379,28.8833,泸州市,市环监站,,40,35,57,28,45,74,,44,42,10,16,3,3,0.6,0.6
2024-10-08T1500,3490A,105.3617,28.7703,泸州市,纳溪区环保局,,38,30,50,26,34,83,,37,37,9,21,6,6,0.4,0.5
2024-10-08T1500,2183A,111.1406,37.5211,吕梁市,环保局,,34,33,41,18,14,107,,70,70,16,25,2,3,0.4,0.4
2024-10-08T1500,2185A,111.1297,37.5136,吕梁市,自来水公司,,35,29,57,16,13,111,,71,71,13,25,3,3,0.4,0.4
2024-10-08T1500,2867A,111.1283,37.51,吕梁市,马茂庄小学,,37,33,45,10,13,116,,72,72,14,31,4,3,0.3,0.3
2024-10-08T1500,1812A,112.3931,34.6516,洛阳市,市委党校,细颗粒物(PM2.5),140,,106,107,100,175,,99,99,14,35,5,10,0.8,0.9
2024-10-08T1500,1814A,112.4657,34.6871,洛阳市,豫西宾馆,细颗粒物(PM2.5),109,102,113,82,96,170,,85,85,12,32,10,11,0.8,1.1
2024-10-08T1500,1815A,112.494,34.6886,洛阳市,河南林校,细颗粒物(PM2.5),138,110,121,105,109,161,,81,81,12,29,5,4,0.7,0.8
2024-10-08T1500,1816A,112.3844,34.623,洛阳市,开发区管委会,细颗粒物(PM2.5),152,152,139,116,112,182,,99,99,16,28,6,5,0.7,0.8
2024-10-08T1500,1817A,112.4267,34.6258,洛阳市,市委新办公区,细颗粒物(PM2.5),120,150,140,91,103,172,,97,97,13,25,6,4,0.6,0.7
2024-10-08T1500,3340A,112.6005,34.6326,洛阳市,伊滨,细颗粒物(PM2.5),128,115,92,97,90,177,,89,89,16,28,12,9,0.9,0.9
2024-10-08T1500,3341A,112.4951,34.6332,洛阳市,中移产业园,细颗粒物(PM2.5),113,103,122,85,102,184,,104,104,14,28,5,6,0.8,0.9
2024-10-08T1500,3593A,112.5736,34.8993,洛阳市,吉利监测站,细颗粒物(PM2.5),135,133,110,103,90,165,,92,92,20,34,13,8,0.8,0.8
2024-10-08T1500,3635A,112.3677,34.662,洛阳市,河科大西苑校区,细颗粒物(PM2.5),132,129,126,100,94,183,,100,100,17,42,6,14,0.8,1
2024-10-08T1500,3636A,112.4388,34.6781,洛阳市,英才小学,细颗粒物(PM2.5),98,136,148,73,73,173,,90,90,15,36,5,8,0.7,0.9
2024-10-08T1500,2399A,114.051,33.5699,漯河市,三五一五工厂,细颗粒物(PM2.5),119,151,222,90,137,181,,107,107,16,29,8,11,0.7,0.9
2024-10-08T1500,2400A,114.0055,33.5698,漯河市,漯河大学,细颗粒物(PM2.5),156,157,202,119,154,183,,112,112,17,25,7,10,0.9,1
2024-10-08T1500,2401A,114.0138,33.5828,漯河市,市水利局,细颗粒物(PM2.5),156,153,229,119,155,184,,107,107,12,26,7,11,1.0,1.2
2024-10-08T1500,2402A,114.0261,33.5698,漯河市,市广电局,细颗粒物(PM2.5),173,142,208,131,159,181,,111,111,15,24,9,14,0.9,1
2024-10-08T1500,3478A,113.9749,33.5664,漯河市,市图书馆,细颗粒物(PM2.5),115,148,215,87,152,196,,109,109,15,28,16,19,0.7,0.9
2024-10-08T1500,3479A,114.0967,33.5906,漯河市,召陵区卫健委,,,,192,,126,175,,,,11,32,9,9,1.1,1
2024-10-08T1500,1798A,118.5092,31.6837,马鞍山市,湖东路四小,颗粒物(PM10),51,51,31,18,19,123,,88,88,18,25,8,9,0.7,0.9
2024-10-08T1500,1799A,118.5024,31.6449,马鞍山市,开发区,,40,40,29,23,20,119,,86,86,24,31,11,9,0.8,0.8
2024-10-08T1500,1800A,118.5228,31.7231,马鞍山市,慈湖,,46,46,29,28,21,121,,87,87,14,24,8,9,0.7,0.8
2024-10-08T1500,1802A,118.6245,31.7241,马鞍山市,濮塘,,48,48,22,24,19,130,,94,94,18,5,6,8,0.9,1
2024-10-08T1500,3633A,118.4918,31.6809,马鞍山市,雨山,,49,49,28,21,18,117,,83,83,18,31,10,9,1.1,1.4
2024-10-08T1500,1686A,111.0286,21.4688,茂名市,电白南海,臭氧1小时,74,66,62,34,32,179,,138,138,14,14,12,13,0.8,0.8
2024-10-08T1500,1687A,110.9294,21.6533,茂名市,茂石化七小,细颗粒物(PM2.5),62,63,60,44,42,160,,128,128,9,12,11,14,0.9,0.8
2024-10-08T1500,1688A,110.9107,21.6687,茂名市,健康路,臭氧1小时,60,53,58,41,38,168,,134,134,5,10,14,23,0.8,0.8
2024-10-08T1500,1689A,110.8592,21.6828,茂名市,高岭,臭氧1小时,69,68,65,39,41,175,,130,130,9,14,17,21,0.8,0.8
2024-10-08T1500,3450A,111.01,21.5165,茂名市,电白水东,细颗粒物(PM2.5),55,58,50,39,35,163,,130,130,9,10,11,11,0.8,0.8
2024-10-08T1500,2539A,104.0308,30.0478,眉山市,黑龙滩水库,细颗粒物(PM2.5),53,41,34,37,25,103,,82,82,3,4,5,4,0.5,0.5
2024-10-08T1500,2540A,103.8416,30.0874,眉山市,气象局,,,,32,27,27,74,,56,56,14,25,5,6,,0.5
2024-10-08T1500,3137A,103.8578,30.0744,眉山市,市委党校,,36,36,35,17,23,78,,60,60,14,23,9,8,0.5,0.5
2024-10-08T1500,3148A,103.8291,30.0564,眉山市,区人社局,,43,43,37,24,24,79,,52,52,18,24,7,7,0.6,0.6
2024-10-08T1500,1690A,116.1231,24.3284,梅州市,梅江月梅,,40,30,30,28,21,93,,85,85,7,15,8,8,0.7,0.7
2024-10-08T1500,1691A,116.0797,24.2719,梅州市,梅县新城,,30,30,29,14,12,87,,81,81,8,12,4,5,0.7,0.6
2024-10-08T1500,1692A,116.1248,24.2654,梅州市,环境监控中心,,34,34,33,13,15,91,,73,73,14,23,5,7,0.7,0.6
2024-10-08T1500,3315A,116.1233,24.2991,梅州市,梅龙,,32,27,26,22,20,92,,82,82,9,16,10,10,0.7,0.7
2024-10-08T1500,1878A,104.7778,31.4741,绵阳市,富乐山,细颗粒物(PM2.5),60,54,40,43,33,51,,40,40,29,17,2,2,0.6,0.5
2024-10-08T1500,1879A,104.7563,31.4535,绵阳市,市人大,细颗粒物(PM2.5),59,57,51,42,32,44,,38,38,31,23,11,10,0.6,0.6
2024-10-08T1500,1880A,104.6697,31.4668,绵阳市,高新区自来水公司,,49,49,56,27,32,69,,32,32,14,24,3,4,0.5,0.6
2024-10-08T1500,1881A,104.7287,31.5075,绵阳市,三水厂,细颗粒物(PM2.5),62,64,51,44,41,61,,33,33,23,31,6,6,0.6,0.6
2024-10-08T1500,3491A,104.69,31.5322,绵阳市,西科大附属小学,,47,47,47,18,34,73,,36,36,15,35,4,4,0.4,0.5
2024-10-08T1500,3492A,104.5648,31.5343,绵阳市,安州区旅游局,,,,56,,46,67,,34,34,,29,8,11,0.6,0.6
2024-10-08T1500,1784A,129.61,44.561,牡丹江市,环保大楼,,43,34,35,30,23,82,,58,58,9,16,7,7,0.3,0.4
2024-10-08T1500,1785A,129.6115,44.5782,牡丹江市,文化广场,,38,38,39,25,26,77,,52,52,11,18,9,8,0.4,0.4
2024-10-08T1500,1786A,129.5904,44.5963,牡丹江市,第一医院,,40,40,41,26,33,80,,56,56,10,17,7,7,0.3,0.4
2024-10-08T1500,1787A,129.6364,44.6075,牡丹江市,机车工厂,,32,27,37,22,28,79,,53,53,9,17,6,36,0.3,0.4
2024-10-08T1500,1788A,129.6386,44.5462,牡丹江市,第一中学,,41,41,38,16,22,86,,68,68,6,12,6,6,0.3,0.3
2024-10-08T1500,2531A,105.0703,29.61,内江市,市监测站,,46,41,43,32,34,84,,51,51,21,25,6,6,0.2,0.3
2024-10-08T1500,2532A,105.0717,29.5947,内江市,东兴区政府,,42,,42,29,32,88,,53,53,21,25,5,5,0.5,0.5
2024-10-08T1500,2533A,105.0653,29.5817,内江市,内江二中,细颗粒物(PM2.5),52,42,44,36,42,85,,52,52,15,24,5,5,0.5,0.6
2024-10-08T1500,2534A,105.0406,29.5822,内江市,内江日报社,细颗粒物(PM2.5),55,50,46,39,40,77,,59,59,21,27,7,6,0.5,0.5
2024-10-08T1500,2628A,92.0657,31.4846,那曲市,那曲监测站,,32,22,39,3,16,100,,64,64,5,8,6,7,0.3,0.5
2024-10-08T1500,3128A,92.0506,31.4797,那曲市,那曲会议中心,,35,31,54,3,24,109,,64,64,2,14,3,4,0.5,0.6
2024-10-08T1500,1290A,115.8931,28.6843,南昌市,省外办,,35,35,28,22,17,72,,67,67,20,18,9,9,0.8,0.7
2024-10-08T1500,1291A,115.8886,28.7003,南昌市,省林业公司,,27,27,24,12,14,76,,70,70,13,12,6,6,0.4,0.3
2024-10-08T1500,1292A,115.8126,28.7442,南昌市,林科所,,,44,17,27,10,93,,78,78,21,16,7,7,,0.6
2024-10-08T1500,1294A,115.8518,28.687,南昌市,建工学校,,42,42,28,23,15,81,,67,67,16,13,8,7,0.6,0.5
2024-10-08T1500,1295A,115.8921,28.6424,南昌市,象湖,,27,27,23,16,15,79,,71,71,16,17,7,7,0.7,0.6
2024-10-08T1500,1296A,115.7423,28.7996,南昌市,武术学校,,35,,15,24,23,68,,47,47,14,14,1,2,0.6,0.4
2024-10-08T1500,1298A,115.9314,28.6842,南昌市,省站,,35,35,27,20,16,69,,64,64,15,17,9,9,0.6,0.6
2024-10-08T1500,3046A,115.9084,28.6062,南昌市,机电学校,,29,29,31,12,15,72,,62,62,17,17,7,7,0.6,0.6
2024-10-08T1500,3690A,115.9721,28.7031,南昌市,外国语学校,,23,18,26,11,13,73,,67,67,8,13,8,7,0.6,0.7
2024-10-08T1500,1905A,106.056,30.8064,南充市,西山风景区,,40,,29,28,29,72,,59,59,16,16,2,1,0.5,0.9
2024-10-08T1500,1906A,106.0789,30.8023,南充市,南充市委,,32,32,36,18,18,80,,41,41,13,22,3,2,0.4,0.5
2024-10-08T1500,1907A,106.1031,30.8217,南充市,南充炼油厂,,43,33,43,30,31,86,,53,53,13,19,4,3,0.4,0.4
2024-10-08T1500,1908A,106.1064,30.7856,南充市,高坪区监测站,,48,36,42,33,32,77,,48,48,18,27,6,6,0.5,0.5
2024-10-08T1500,1909A,106.0642,30.7636,南充市,嘉陵区环保局,,32,32,44,19,28,76,,49,49,12,25,4,3,0.4,0.5
2024-10-08T1500,1910A,106.1087,30.8388,南充市,市环境监测站,,50,44,43,35,32,79,,54,54,19,23,3,3,0.4,0.4
2024-10-08T1500,1151A,118.8086,32.1065,南京市,迈皋桥,,37,26,20,19,13,118,,93,93,9,17,4,4,0.3,0.4
2024-10-08T1500,1152A,118.7538,32.0551,南京市,草场门,,35,27,19,19,16,110,,89,89,17,24,6,6,0.4,0.3
2024-10-08T1500,1153A,118.7794,32.0745,南京市,山西路,,41,41,26,22,20,115,,92,92,13,18,4,4,0.7,0.5
2024-10-08T1500,1154A,118.7752,32.0023,南京市,中华门,,41,41,26,27,16,117,,94,94,8,16,9,6,0.7,0.5
2024-10-08T1500,1155A,118.8109,32.0309,南京市,瑞金路,,42,34,26,29,17,111,,87,87,7,17,4,4,0.7,0.5
2024-10-08T1500,1156A,118.7997,32.0754,南京市,玄武湖,,35,34,24,24,17,108,,86,86,14,29,6,5,0.5,0.5
2024-10-08T1500,1157A,118.6414,32.0931,南京市,浦口,,38,36,20,26,15,104,,83,83,8,11,5,5,0.4,0.4
2024-10-08T1500,1158A,118.7356,31.9996,南京市,奥体中心,,37,35,27,17,19,118,,96,96,13,20,6,6,0.3,0.3
2024-10-08T1500,1159A,118.9125,32.1028,南京市,仙林大学城,,38,29,27,22,18,120,,89,89,9,26,6,6,0.5,0.6
2024-10-08T1500,3422A,118.8436,31.9198,南京市,江宁彩虹桥,,42,36,21,24,14,134,,97,97,5,14,4,5,0.5,0.5
2024-10-08T1500,3423A,119.0138,31.6494,南京市,溧水永阳,,43,,23,30,14,121,,85,85,8,18,4,4,0.6,0.6
2024-10-08T1500,3424A,118.879,31.3302,南京市,高淳老职中,颗粒物(PM10),52,54,22,28,15,139,,96,96,12,14,7,4,0.7,0.7
2024-10-08T1500,3427A,118.8554,32.3578,南京市,六合雄州,,35,24,21,18,10,112,,84,84,16,17,8,7,0.4,0.4
2024-10-08T1500,1401A,108.3103,22.7881,南宁市,二十一中,臭氧1小时,74,64,57,42,41,179,,132,132,14,18,12,11,0.9,0.9
2024-10-08T1500,1402A,108.3141,22.8528,南宁市,北湖,细颗粒物(PM2.5),58,59,60,41,45,165,,123,123,11,26,13,14,1.0,1
2024-10-08T1500,1403A,108.3206,22.8225,南宁市,市监测站,细颗粒物(PM2.5),58,54,62,41,41,162,,121,121,16,23,12,13,0.8,0.8
2024-10-08T1500,1404A,108.3829,22.8037,南宁市,大自然花园,,,46,56,32,41,136,,115,115,9,13,6,11,,0.4
2024-10-08T1500,1405A,108.4394,22.7904,南宁市,仙葫,细颗粒物(PM2.5),52,48,56,36,44,121,,110,110,8,16,6,8,0.6,0.7
2024-10-08T1500,1406A,108.2397,22.8467,南宁市,区农职院,颗粒物(PM10),57,63,62,37,38,154,,120,120,8,15,8,9,0.7,0.7
2024-10-08T1500,1407A,108.3275,22.735,南宁市,英华嘉园,细颗粒物(PM2.5),54,54,58,38,42,162,,116,116,14,24,8,8,0.7,0.7
2024-10-08T1500,1408A,108.2257,22.7757,南宁市,沙井镇街道办,颗粒物(PM10),57,64,77,37,46,152,,110,110,13,38,5,7,0.8,0.8
2024-10-08T1500,3401A,108.4834,22.7618,南宁市,红星社区,,43,37,55,29,40,136,,119,119,8,16,6,7,0.5,0.6
2024-10-08T1500,2332A,118.1681,26.6369,南平市,南平市监测站,,22,7,12,3,7,70,,56,56,5,8,4,4,0.4,0.4
2024-10-08T1500,2333A,118.1825,26.6489,南平市,南平铝业有限公司,,20,15,13,7,10,64,,54,54,6,8,4,4,0.5,0.5
2024-10-08T1500,2334A,118.1756,26.6272,南平市,南平七中,,22,16,13,9,11,70,,54,54,4,4,2,3,0.5,0.5
2024-10-08T1500,1168A,120.9098,31.9663,南通市,狼山街道,,31,18,23,8,17,97,,85,85,7,10,6,6,0.3,0.5
2024-10-08T1500,1169A,120.86,32.0005,南通市,虹桥,,40,40,33,6,21,96,,82,82,9,13,7,7,0.3,0.5
2024-10-08T1500,1170A,120.87,32.02,南通市,城中,,31,19,31,6,17,98,,84,84,9,14,6,6,0.4,0.5
2024-10-08T1500,1171A,120.94,31.93,南通市,星湖花园,,,17,28,10,18,98,,85,85,11,14,,6,0.5,0.6
2024-10-08T1500,1172A,120.81,32.0417,南通市,紫琅学院,,30,14,23,3,19,94,,81,81,7,11,7,8,0.2,0.4
2024-10-08T1500,3291A,121.067,32.062,南通市,通州监测站,,33,27,30,14,18,105,,85,85,11,10,3,2,0.5,0.6
2024-10-08T1500,3432A,120.9348,31.9883,南通市,环境教育馆,,32,17,28,6,16,102,,87,87,6,10,3,3,0.4,0.5
2024-10-08T1500,2404A,112.5224,33.0122,南阳市,瓦房庄,细颗粒物(PM2.5),77,72,124,56,106,170,,114,114,13,28,5,5,0.7,0.9
2024-10-08T1500,2405A,112.5003,32.9735,南阳市,汉画馆,细颗粒物(PM2.5),74,66,90,54,85,159,,109,109,16,27,7,7,0.6,0.8
2024-10-08T1500,2406A,112.5573,33.027,南阳市,气象站,细颗粒物(PM2.5),70,75,133,51,109,175,,116,116,15,29,8,8,0.6,0.8
2024-10-08T1500,2407A,112.5481,32.9689,南阳市,理工学院,颗粒物(PM10),62,73,112,40,85,167,,111,111,15,33,7,7,0.5,0.7
2024-10-08T1500,4008A,112.5234,32.9922,南阳市,卧龙区政府,细颗粒物(PM2.5),73,80,118,53,89,172,,125,125,12,33,5,5,0.5,0.8
2024-10-08T1500,1234A,121.8358,29.911,宁波市,区环保大楼,,43,35,30,23,19,137,,84,71,20,21,15,8,0.9,0.8
2024-10-08T1500,1235A,121.56,29.82,宁波市,万里学院,细颗粒物(PM2.5),57,44,21,40,21,109,,78,71,22,16,7,6,0.7,0.7
2024-10-08T1500,1236A,121.713,29.9572,宁波市,龙赛医院,,45,29,18,18,12,144,,75,75,19,21,9,9,0.7,0.8
2024-10-08T1500,1239A,121.633,29.7733,宁波市,钱湖水厂,,43,40,26,30,16,98,,82,65,23,15,9,8,0.8,0.7
2024-10-08T1500,1240A,121.5856,29.8635,宁波市,太古小学,,37,36,28,24,11,118,,77,70,20,19,8,8,0.9,0.8
2024-10-08T1500,1241A,121.524,29.8674,宁波市,市环境监测中心,,,22,16,18,10,111,,75,67,20,17,,6,0.7,0.6
2024-10-08T1500,2871A,121.6147,29.9017,宁波市,万里国际学校,颗粒物(PM10),58,65,37,25,13,127,,70,70,27,28,8,8,0.8,0.7
2024-10-08T1500,3710A,121.5594,29.8975,宁波市,白沙活动中心,,39,35,26,18,11,123,,78,73,20,15,9,8,0.6,0.6
2024-10-08T1500,2341A,119.5388,26.6612,宁德市,宁德市监测站,,20,7,9,6,7,62,,53,53,12,13,2,6,0.6,0.6
2024-10-08T1500,3209A,119.5231,26.6562,宁德市,宁德一中,,20,20,9,3,3,63,,57,57,8,5,7,6,0.4,0.4
2024-10-08T1500,2618A,98.8601,25.8567,怒江傈僳族自治州,州监测站,,18,17,25,6,12,57,,33,33,6,9,5,6,0.2,0.3
2024-10-08T1500,2619A,98.8546,25.8417,怒江傈僳族自治州,泸水一中,,19,19,20,3,10,47,,26,26,10,12,6,6,0.3,0.4
2024-10-08T1500,1888A,101.6891,26.571,攀枝花市,弄弄坪,,29,29,22,19,10,51,,31,30,15,15,12,10,0.7,0.6
2024-10-08T1500,1889A,101.5769,26.5928,攀枝花市,河门口,,21,21,30,11,16,49,,31,31,20,24,22,20,1.9,1.5
2024-10-08T1500,1890A,101.7169,26.585,攀枝花市,炳草岗,,28,28,20,8,12,53,,34,32,14,16,15,11,0.7,0.6
2024-10-08T1500,1891A,101.7369,26.5008,攀枝花市,仁和,,,,53,,33,60,,36,36,,24,,19,1.0,0.9
2024-10-08T1500,2835A,101.7227,26.567,攀枝花市,四十中小,,18,18,16,11,7,54,,37,37,14,12,6,6,0.7,0.9
2024-10-08T1500,1604A,122.0303,41.1489,盘锦市,开发区,,38,38,78,20,66,102,,69,69,15,42,9,17,0.5,0.7
2024-10-08T1500,1605A,122.0485,41.0883,盘锦市,兴隆台,,38,27,85,26,68,104,,75,75,22,51,12,9,0.5,1
2024-10-08T1500,1606A,121.8297,41.1028,盘锦市,新生街道,,37,34,49,20,41,117,,73,73,16,32,14,17,0.4,0.6
2024-10-08T1500,1832A,113.3257,33.742,平顶山市,新华旅馆,细颗粒物(PM2.5),163,165,177,124,134,180,,91,91,16,38,12,9,0.8,0.9
2024-10-08T1500,1833A,113.2919,33.737,平顶山市,规划设计院,细颗粒物(PM2.5),158,161,203,120,140,184,,100,100,18,33,10,9,0.9,1.1
2024-10-08T1500,1834A,113.182,33.774,平顶山市,平顶山工学院,细颗粒物(PM2.5),153,192,194,117,140,178,,98,98,14,27,7,9,,1
2024-10-08T1500,3204A,113.3025,33.73,平顶山市,规划局,细颗粒物(PM2.5),152,168,191,116,133,177,,94,94,18,34,7,8,0.8,1
2024-10-08T1500,3594A,112.8867,33.9116,平顶山市,石龙区,细颗粒物(PM2.5),152,188,172,116,118,179,,105,105,19,45,12,13,0.9,1.1
2024-10-08T1500,2656A,106.6692,35.5461,平凉市,聚贤嘉苑,细颗粒物(PM2.5),68,79,55,49,33,91,,63,63,18,33,8,8,0.6,0.5
2024-10-08T1500,2657A,106.7021,35.5307,平凉市,博物馆,细颗粒物(PM2.5),72,75,71,52,39,86,,68,68,32,42,10,11,0.6,0.6
2024-10-08T1500,2347A,114.0997,27.5002,萍乡市,武功山,,38,38,51,21,27,49,,63,56,15,10,6,6,0.7,0.4
2024-10-08T1500,2348A,113.8385,27.6434,萍乡市,中医院,颗粒物(PM10),57,64,53,32,37,50,,59,49,26,16,6,9,0.8,0.7
2024-10-08T1500,2349A,113.8493,27.6253,萍乡市,市政府车库,颗粒物(PM10),64,78,58,32,36,56,,62,56,15,13,7,9,0.7,0.6
2024-10-08T1500,2350A,113.8676,27.6435,萍乡市,市环保局,颗粒物(PM10),57,64,48,36,34,47,,58,46,19,12,5,8,0.6,0.5
2024-10-08T1500,2351A,113.866,27.6198,萍乡市,安源区政府,颗粒物(PM10),53,56,46,32,31,57,,64,59,18,15,5,7,0.5,0.4
2024-10-08T1500,2319A,119.0141,25.4325,莆田市,荔城区仓后路,,27,14,12,3,3,86,,71,71,10,12,7,7,0.5,0.6
2024-10-08T1500,2320A,119.0015,25.4553,莆田市,莆田市监测站,,29,6,9,3,0,92,,76,76,8,7,7,7,0.5,0.5
2024-10-08T1500,2321A,119.1119,25.4561,莆田市,涵江区六中,,30,13,12,3,2,96,,88,88,2,3,1,1,0.4,0.4
2024-10-08T1500,2322A,119.1013,25.3215,莆田市,秀屿区政府,,,,13,2,1,93,,83,83,9,6,6,6,0.6,0.6
2024-10-08T1500,2392A,115.0312,35.7636,濮阳市,环保局,细颗粒物(PM2.5),72,61,77,52,70,147,,98,98,10,27,3,4,0.6,0.8
2024-10-08T1500,2394A,115.0574,35.7609,濮阳市,油田运输公司,细颗粒物(PM2.5),69,70,101,50,72,150,,102,102,10,29,4,7,0.6,0.9
2024-10-08T1500,2395A,115.0866,35.7754,濮阳市,油田物探公司,细颗粒物(PM2.5),73,76,114,53,82,147,,99,99,5,31,2,4,0.6,0.8
2024-10-08T1500,3021A,115,35.7668,濮阳市,濮水河管理处,细颗粒物(PM2.5),74,,55,54,68,144,,88,88,9,16,2,3,0.5,0.6
2024-10-08T1500,2601A,100.98,22.7633,普洱市,市环保局,,32,32,33,13,17,72,,67,67,5,6,4,4,0.4,0.5
2024-10-08T1500,2602A,100.9817,22.8322,普洱市,普洱第二中学,,26,26,38,9,14,77,,66,66,6,13,5,5,0.5,0.6
2024-10-08T1500,2262A,131.0518,45.8751,七台河市,新一中,,30,27,35,11,23,93,,77,77,6,9,9,10,1.2,1.2
2024-10-08T1500,3345A,131.0577,45.7879,七台河市,中波台,,38,38,43,15,26,68,,54,54,17,29,6,7,0.7,0.8
2024-10-08T1500,3637A,131.0176,45.7761,七台河市,人民广场,,32,32,52,22,32,71,,57,57,11,27,6,7,0.4,0.5
2024-10-08T1500,3684A,130.8781,45.8222,七台河市,新建矿广场,,41,41,106,17,33,69,,57,57,13,30,6,8,0.4,0.6
2024-10-08T1500,1779A,123.9305,47.3636,齐齐哈尔市,安居小区,,28,27,28,3,8,87,,75,75,10,15,10,9,0.3,0.3
2024-10-08T1500,1780A,123.9488,47.3386,齐齐哈尔市,中心广场,,28,14,23,3,12,87,,69,69,6,16,2,3,0.1,0.2
2024-10-08T1500,1781A,123.9483,47.3227,齐齐哈尔市,农牧车辆厂,,31,31,40,6,9,85,,71,71,6,15,8,9,0.3,0.3
2024-10-08T1500,1783A,123.945,47.2988,齐齐哈尔市,市环境监测站,,29,24,29,9,12,92,,77,77,5,13,9,9,0.2,0.2
2024-10-08T1500,3662A,123.6333,47.2075,齐齐哈尔市,富区青少年活动中心,,29,25,36,3,10,90,,72,72,7,14,6,7,0.3,0.4
2024-10-08T1500,2591A,107.9783,26.5747,黔东南苗族侗族自治州,市环境监测站,,32,26,34,20,27,101,,91,91,10,11,4,5,0.4,0.4
2024-10-08T1500,2881A,107.8908,26.5311,黔东南苗族侗族自治州,凯里学院,,34,22,28,17,23,106,,96,96,8,10,2,3,0.4,0.5
2024-10-08T1500,2593A,107.5228,26.2403,黔南布依族苗族自治州,小围寨,,35,19,24,17,18,111,,101,101,7,10,6,6,0.4,0.4
2024-10-08T1500,3538A,107.5175,26.2978,黔南布依族苗族自治州,沙坝,,36,18,29,12,21,113,,102,102,6,8,5,5,0.4,0.5
2024-10-08T1500,2589A,104.9022,25.0925,黔西南布依族苗族自治州,场坝街,细颗粒物(PM2.5),53,38,43,37,34,76,,51,51,11,15,13,19,0.3,0.4
2024-10-08T1500,2590A,104.8811,25.0992,黔西南布依族苗族自治州,坪东大道,细颗粒物(PM2.5),67,51,42,48,35,65,,47,47,11,10,11,14,0.4,0.4
2024-10-08T1500,2502A,108.6236,21.9667,钦州市,市环保站,颗粒物(PM10),54,58,75,31,42,132,,113,113,10,17,8,14,0.8,1.5
2024-10-08T1500,2503A,108.6549,21.9481,钦州市,沙埠小学,,,,75,,42,138,,121,121,10,17,,8,0.6,0.7
2024-10-08T1500,2504A,108.5989,21.7431,钦州市,港区一小,细颗粒物(PM2.5),68,79,90,49,48,142,,121,121,20,23,8,11,0.8,0.9
2024-10-08T1500,3404A,108.5959,21.9633,钦州市,北职校,细颗粒物(PM2.5),62,53,65,44,48,134,,118,118,8,13,8,9,0.8,0.9
2024-10-08T1500,1042A,119.5134,39.8207,秦皇岛市,北戴河环保局,,27,,28,6,15,85,,54,54,12,32,2,2,0.3,0.4
2024-10-08T1500,1043A,119.7493,40.0116,秦皇岛市,第一关,,29,,35,15,26,92,,53,53,5,45,2,3,0.2,0.4
2024-10-08T1500,1044A,119.5897,39.9499,秦皇岛市,监测站,,29,20,35,12,25,91,,56,56,9,36,2,2,0.2,0.4
2024-10-08T1500,1046A,119.5251,39.9041,秦皇岛市,建设大厦,,29,20,50,3,21,90,,59,59,7,37,3,5,0.3,0.4
2024-10-08T1500,3132A,119.610547,39.943889,秦皇岛市,文明里,,28,21,44,6,19,88,,52,52,10,36,2,2,0.3,0.5
2024-10-08T1500,1307A,120.6659,36.2403,青岛市,仰口,颗粒物(PM10),51,52,37,24,21,109,,92,92,14,7,8,8,0.7,0.6
2024-10-08T1500,1310A,120.4134,36.0658,青岛市,市南区东部子站,颗粒物(PM10),54,58,41,27,20,132,,92,92,21,20,9,8,0.6,0.5
2024-10-08T1500,1311A,120.3664,36.1032,青岛市,四方区子站,,48,48,39,27,21,149,,102,102,21,26,12,11,0.5,0.4
2024-10-08T1500,1312A,120.2994,36.054,青岛市,市南区西部子站,颗粒物(PM10),52,53,39,20,14,144,,96,96,20,16,11,10,0.7,0.6
2024-10-08T1500,1313A,120.4581,36.0858,青岛市,崂山区子站,,43,41,32,27,15,136,,94,94,18,22,11,10,0.7,0.6
2024-10-08T1500,1314A,120.1983,35.9608,青岛市,黄岛区子站,颗粒物(PM10),51,51,33,29,18,150,,96,96,18,21,11,10,0.6,0.5
2024-10-08T1500,1315A,120.3999,36.3083,青岛市,城阳区子站,,44,39,38,24,19,139,,90,90,17,27,9,10,0.6,0.6
2024-10-08T1500,1966A,120.0405,35.8735,青岛市,黄岛区4号,,48,48,32,17,14,143,,96,96,16,19,8,7,0.5,0.4
2024-10-08T1500,3362A,120.5014,36.4034,青岛市,即墨2号,,42,42,42,13,23,117,,19,,12,27,8,9,0.5,0.5
2024-10-08T1500,3642A,120.3503,36.0736,青岛市,市北区南部,颗粒物(PM10),52,54,38,24,17,141,,97,97,23,27,10,12,0.6,0.6
2024-10-08T1500,3643A,120.3948,36.1805,青岛市,李沧区北部,颗粒物(PM10),54,58,44,34,25,139,,95,95,18,26,11,10,0.8,0.7
2024-10-08T1500,1702A,113.0426,23.691,清远市,环保大楼,颗粒物(PM10),73,95,88,47,52,138,,121,121,11,13,7,8,0.9,0.9
2024-10-08T1500,1703A,113.0208,23.7106,清远市,凤城街办,细颗粒物(PM2.5),69,58,61,50,48,134,,117,117,6,7,9,9,0.8,0.8
2024-10-08T1500,3025A,113.0477,23.6344,清远市,技师学院,细颗粒物(PM2.5),57,57,64,40,44,143,,124,124,7,8,7,8,0.7,0.8
2024-10-08T1500,3318A,112.9903,23.7403,清远市,清新太和,细颗粒物(PM2.5),62,57,64,44,46,136,,120,120,6,7,4,5,0.7,0.7
2024-10-08T1500,3455A,113.076,23.7198,清远市,清城东城,细颗粒物(PM2.5),63,63,59,45,45,142,,126,126,4,4,4,5,0.6,0.6
2024-10-08T1500,2661A,107.6325,35.7357,庆阳市,庆阳五中,颗粒物(PM10),71,92,83,50,47,119,,115,115,15,14,8,8,0.6,0.6
2024-10-08T1500,2662A,107.6364,35.7067,庆阳市,市环保局,颗粒物(PM10),70,89,73,44,43,122,,113,113,14,16,7,8,0.6,0.6
2024-10-08T1500,1916A,103.7897,25.5035,曲靖市,环境监测站,,48,48,26,30,14,45,,44,44,18,18,2,3,0.7,0.6
2024-10-08T1500,1917A,103.8,25.5364,曲靖市,烟厂办公区,颗粒物(PM10),51,51,27,31,14,48,,43,43,15,17,4,4,0.7,0.7
2024-10-08T1500,3376A,103.7947,25.462,曲靖市,南苑二区,颗粒物(PM10),51,51,27,26,14,53,,54,54,15,16,6,9,0.9,0.9
2024-10-08T1500,3377A,103.7444,25.5261,曲靖市,曲靖师范学院,,40,,19,28,17,51,,52,52,14,14,6,8,0.6,0.8
2024-10-08T1500,1264A,118.8692,28.9398,衢州市,环保大楼,,27,27,14,18,9,78,,78,78,17,15,4,5,0.5,0.5
2024-10-08T1500,1265A,118.8709,28.9666,衢州市,实验学校,,32,23,13,22,10,82,,85,85,12,12,2,4,0.4,0.3
2024-10-08T1500,1266A,118.8621,28.9808,衢州市,衢州学院,,,,15,18,10,82,,83,83,15,16,6,7,0.3,0.4
2024-10-08T1500,1611A,118.5819,24.9117,泉州市,涂山街,,32,9,13,6,7,101,,87,87,8,10,2,2,0.4,0.4
2024-10-08T1500,1612A,118.5972,24.8978,泉州市,津头埔,,30,29,19,3,7,96,,82,82,13,11,5,4,0.4,0.4
2024-10-08T1500,1613A,118.6663,24.9424,泉州市,万安,,31,8,13,3,6,99,,87,87,6,6,3,3,0.4,0.4
2024-10-08T1500,3529A,118.6333,24.9264,泉州市,城华南路,,31,11,13,3,7,98,,84,84,5,7,2,4,0.3,0.3
2024-10-08T1500,2626A,88.8876,29.2718,日喀则市,日喀则监测站,,39,13,29,9,13,122,,77,77,3,15,4,4,0.3,0.4
2024-10-08T1500,3726A,88.8781,29.2426,日喀则市,林业技术推广中心,,37,9,18,3,5,116,,86,86,5,11,6,6,0.4,0.4
2024-10-08T1500,1659A,119.471,35.4209,日照市,监测站,,39,17,25,9,15,123,,87,87,9,19,13,11,0.6,0.6
2024-10-08T1500,1660A,119.523,35.4216,日照市,市政府广场,,42,27,25,9,12,132,,100,100,9,13,7,6,0.4,0.4
2024-10-08T1500,1661A,119.5587,35.4044,日照市,港务局,,41,27,25,17,17,130,,105,105,14,12,8,8,0.6,0.6
2024-10-08T1500,3507A,119.5328,35.4625,日照市,职业技术学院,,40,24,24,14,13,127,,102,102,10,12,11,9,0.6,0.6
2024-10-08T1500,3604A,119.3266,35.1044,日照市,岚山环保分局,,38,34,39,14,19,119,,86,86,13,25,14,28,0.8,1.6
2024-10-08T1500,1835A,111.1922,34.7752,三门峡市,市政府,,43,25,90,18,63,136,,108,108,14,34,10,14,0.5,0.8
2024-10-08T1500,1836A,111.1587,34.7942,三门峡市,开发区,,42,22,120,12,82,134,,110,110,18,23,8,14,0.5,0.8
2024-10-08T1500,1838A,111.143,34.7955,三门峡市,风景区,,48,48,93,8,55,140,,,,10,16,9,13,0.6,0.9
2024-10-08T1500,3039A,111.1911,34.7829,三门峡市,三门峡市第一小学,,46,46,92,10,64,131,,103,103,12,19,10,16,0.4,0.8
2024-10-08T1500,3598A,111.1,34.7167,三门峡市,富达温泉假日酒店,,49,49,102,19,76,134,,93,93,16,23,12,15,0.4,0.6
2024-10-08T1500,2324A,117.6211,26.2625,三明市,三钢,,21,11,18,11,18,66,,64,64,3,8,1,1,0.4,0.5
2024-10-08T1500,2325A,117.635,26.2714,三明市,三明二中,,20,11,17,10,14,63,,63,62,8,12,2,3,0.7,0.7
2024-10-08T1500,2326A,117.6028,26.2378,三明市,三元区政府,,23,13,22,3,13,71,,66,65,8,15,1,2,0.6,0.7
2024-10-08T1500,1876A,109.5078,18.2489,三亚市,河东子站,,,47,32,28,19,171,,126,126,8,6,4,4,,0.4
2024-10-08T1500,1877A,109.4964,18.2681,三亚市,河西子站,臭氧1小时,59,30,27,24,19,167,,122,122,5,7,5,4,0.4,0.4
2024-10-08T1500,3540A,109.7348,18.3443,三亚市,君悦子站,颗粒物(PM10),52,53,38,28,18,160,,124,124,6,8,3,3,0.7,0.6
2024-10-08T1500,2624A,91.7608,29.2313,山南市,山南监测站,,35,24,15,10,8,110,,77,75,2,10,9,9,0.3,0.3
2024-10-08T1500,2625A,91.7706,29.2436,山南市,山南人民医院,,35,35,21,3,7,111,,80,76,6,9,9,9,0.2,0.3
2024-10-08T1500,1674A,116.6794,23.3667,汕头市,金平子站,,32,28,17,10,12,100,,69,69,12,14,6,6,0.6,0.6
2024-10-08T1500,1675A,116.7244,23.3633,汕头市,龙湖子站,,31,18,12,6,7,98,,64,64,6,7,8,8,0.7,0.7
2024-10-08T1500,1676A,116.7258,23.2775,汕头市,濠江子站,,28,22,15,11,12,89,,63,63,6,8,6,6,0.8,0.8
2024-10-08T1500,1677A,116.7519,23.4714,汕头市,澄海子站,,30,25,17,11,12,95,,64,64,9,9,7,7,0.9,0.9
2024-10-08T1500,1678A,116.6092,23.2539,汕头市,潮阳子站,,27,21,21,8,10,84,,65,65,5,5,6,6,0.5,0.5
2024-10-08T1500,3444A,116.454,23.2684,汕头市,潮南峡山,,31,31,23,12,12,92,,70,70,14,10,8,7,1.0,0.9
2024-10-08T1500,3624A,116.4069,23.2533,汕头市,潮南子站,,43,43,32,18,16,78,,64,64,22,12,7,6,0.8,0.8
2024-10-08T1500,1693A,115.3653,22.775,汕尾市,市环保局,,38,27,25,26,23,82,,79,79,9,8,9,9,0.5,0.4
2024-10-08T1500,1694A,115.3706,22.7898,汕尾市,市政府,,29,29,24,8,13,74,,71,71,8,9,8,8,0.6,0.6
2024-10-08T1500,1695A,115.3622,22.7925,汕尾市,新城中学,,38,31,29,26,20,76,,72,72,4,4,7,7,0.6,0.5
2024-10-08T1500,2645A,109.9154,33.8715,商洛市,监测站,,47,43,51,25,33,149,,85,85,14,21,7,6,0.6,0.6
2024-10-08T1500,3045A,109.9643,33.8471,商洛市,商州区中学,,43,37,60,30,35,137,,90,90,16,33,8,6,0.5,0.5
2024-10-08T1500,2408A,115.6702,34.4285,商丘市,环境监测站,颗粒物(PM10),51,52,136,34,111,146,,99,99,11,34,6,7,0.6,0.9
2024-10-08T1500,2409A,115.6458,34.4045,商丘市,粮食局,细颗粒物(PM2.5),67,58,127,48,116,157,,109,109,6,21,7,7,0.7,1
2024-10-08T1500,2410A,115.6293,34.3948,商丘市,睢阳区环保局,细颗粒物(PM2.5),52,44,133,36,108,150,,115,115,8,30,5,7,0.4,0.7
2024-10-08T1500,3171A,115.6071,34.4465,商丘市,梁园区档案局,细颗粒物(PM2.5),57,41,128,40,111,146,,101,101,8,37,6,8,0.7,1
2024-10-08T1500,1141A,121.4,31.238,上海市,普陀,,32,,33,15,30,100,,80,80,12,21,4,5,0.4,0.7
2024-10-08T1500,1142A,121.478,31.2036,上海市,十五厂,,33,,30,19,30,105,,85,85,17,22,9,9,0.5,0.6
2024-10-08T1500,1143A,121.467,31.3008,上海市,虹口,,29,,31,17,32,92,,74,74,14,22,8,7,0.7,0.8
2024-10-08T1500,1144A,121.412,31.1654,上海市,徐汇上师大,,33,,33,14,34,105,,84,84,20,24,7,7,0.5,0.8
2024-10-08T1500,1145A,121.536,31.2659,上海市,杨浦四漂,,31,15,31,14,29,98,,80,80,9,19,8,8,0.6,0.9
2024-10-08T1500,1147A,121.425,31.2261,上海市,静安监测站,,33,,33,16,32,103,,82,82,17,26,6,6,0.3,0.5
2024-10-08T1500,1148A,121.703,31.1907,上海市,浦东川沙,,31,,32,13,24,99,,80,80,13,22,6,7,0.6,0.8
2024-10-08T1500,1149A,121.533,31.2284,上海市,浦东新区监测站,,30,,30,14,32,96,,76,76,16,24,7,7,0.6,0.8
2024-10-08T1500,1150A,121.577,31.2071,上海市,浦东张江,,28,,30,14,31,87,,72,72,17,28,5,5,0.6,0.8
2024-10-08T1500,3265A,121.4316,31.3322,上海市,宝山庙行,,31,,31,15,30,98,,80,80,10,20,9,8,0.7,1
