timepoint,stationcode,longitude,latitude,area,positionname,primarypollutant,aqi,pm10,pm10_24h,pm2_5,pm2_5_24h,o3,o3_24h,o3_8h,o3_8h_24h,no2,no2_24h,so2,so2_24h,co,co_24h
2024-09-20T1000,2566A,102.1879,31.914,阿坝藏族羌族自治州,州农科所,,30,30,17,11,7,28,,29,26,13,11,8,7,0,0
2024-09-20T1000,2568A,102.2502,31.8896,阿坝藏族羌族自治州,马师校,,25,25,17,6,8,20,,19,17,6,8,4,4,0.4,0.4
2024-09-20T1000,3994A,102.2165,31.9024,阿坝藏族羌族自治州,马尔康中学西区,,,,17,20,19,21,,21,19,8,8,6,5,,0.4
2024-09-20T1000,2695A,80.292,41.1694,阿克苏地区,电视台,颗粒物(PM10),78,106,127,37,43,36,,54,54,31,29,3,5,0.6,0.7
2024-09-20T1000,2696A,80.2613,41.1551,阿克苏地区,艺术中心,颗粒物(PM10),74,97,121,34,40,33,,42,42,28,32,4,4,0.8,1.1
2024-09-20T1000,2204A,105.6467,38.8363,阿拉善盟,西城区西花园,,30,21,56,16,30,96,,84,84,9,9,8,8,0.6,0.7
2024-09-20T1000,2205A,105.6985,38.8411,阿拉善盟,蒙二幼,,,6,78,3,18,78,,66,66,,7,10,11,0.5,0.6
2024-09-20T1000,2206A,105.724,38.8516,阿拉善盟,环保局新楼,,27,6,50,3,17,86,,72,72,6,7,8,8,0.4,0.4
2024-09-20T1000,2708A,88.1264,47.8517,阿勒泰地区,市站,,,25,28,11,7,,,39,39,38,19,8,8,0.6,0.5
2024-09-20T1000,2630A,80.1161,32.5,阿里地区,阿里监测站,,28,28,4,11,3,17,,52,41,48,15,6,7,0.5,0.4
2024-09-20T1000,3192A,80.0903,32.5028,阿里地区,阿里藏医院,,20,20,7,3,1,42,,59,58,25,10,7,7,0.4,0.3
2024-09-20T1000,2642A,109.0318,32.6537,安康市,香溪洞,颗粒物(PM10),52,54,43,11,13,80,,70,69,7,7,9,7,0.5,0.4
2024-09-20T1000,2643A,109.0281,32.6939,安康市,安康市监测站,,25,22,23,13,14,80,,51,51,6,8,11,9,0.8,0.6
2024-09-20T1000,2644A,109.0072,32.6975,安康市,汉滨区检察院,,25,24,25,13,12,78,,40,40,8,9,10,8,0.6,0.5
2024-09-20T1000,2291A,117.0809,30.5177,安庆市,环科院,,15,13,27,10,17,28,,22,22,6,8,7,7,0.4,0.5
2024-09-20T1000,2292A,117.0331,30.5119,安庆市,马山宾馆,,12,12,23,7,13,29,,25,25,6,8,8,9,0.3,0.3
2024-09-20T1000,2294A,116.9896,30.6145,安庆市,安庆大学,,,,26,8,15,27,,22,22,6,8,7,8,0.3,0.4
2024-09-20T1000,3173A,117.0598,30.5351,安庆市,市人大,,22,22,24,9,16,25,,20,20,5,6,7,7,0.6,0.7
2024-09-20T1000,3123A,105.9408,26.2431,安顺市,凤凰山,,27,26,48,18,42,86,,56,56,6,12,14,12,0.5,0.6
2024-09-20T1000,3124A,105.9439,26.2564,安顺市,金钟山,,,31,40,17,34,,,55,55,5,8,11,11,0.6,0.7
2024-09-20T1000,3125A,105.8983,26.2481,安顺市,娄家坡,,28,20,46,15,35,88,,60,60,6,12,8,11,0.6,0.6
2024-09-20T1000,1819A,114.3551,36.1017,安阳市,红庙街,颗粒物(PM10),58,66,55,40,34,106,,24,24,22,29,9,6,1.3,0.9
2024-09-20T1000,1820A,114.361,36.0681,安阳市,银杏小区,,,67,50,,,101,,23,23,20,22,11,4,1.8,1.3
2024-09-20T1000,3141A,114.3922,36.0878,安阳市,信访局,颗粒物(PM10),57,64,54,32,26,112,,33,33,23,27,10,4,1.5,1.1
2024-09-20T1000,3669A,114.4705,36.0637,安阳市,左辅环卫站,颗粒物(PM10),63,75,58,38,32,91,,37,37,24,28,8,4,1.3,1.1
2024-09-20T1000,3703A,114.2917,36.0949,安阳市,安钢职工学校,颗粒物(PM10),81,112,67,48,36,64,,11,11,38,32,15,6,2.3,1.2
2024-09-20T1000,1748A,123.044,41.1196,鞍山市,深沟寺,,20,20,39,6,20,37,,39,36,13,16,5,6,0.4,0.9
2024-09-20T1000,1749A,123.011,41.0931,鞍山市,太阳城,,19,19,36,8,19,38,,40,37,14,16,6,8,0.4,0.7
2024-09-20T1000,1750A,123.0485,41.1442,鞍山市,太平,,19,19,51,7,25,40,,40,38,18,28,8,10,0.5,1.1
2024-09-20T1000,1751A,122.9642,41.0971,鞍山市,铁西三道街,,28,28,54,6,24,29,,25,24,26,29,13,12,1.2,1.5
2024-09-20T1000,1752A,122.9341,41.0833,鞍山市,铁西工业园区,,28,28,50,8,24,27,,29,26,30,28,18,13,1.4,1.4
2024-09-20T1000,1753A,123.022,41.0821,鞍山市,明达新区,,19,19,42,3,21,34,,36,34,14,17,5,6,0.4,0.7
2024-09-20T1000,2195A,107.4212,40.761,巴彦淖尔市,附二中,,24,24,38,14,19,56,,53,51,4,6,5,5,0.4,0.5
2024-09-20T1000,2196A,107.37,40.7372,巴彦淖尔市,市环保大楼,,25,25,41,11,15,64,,62,59,6,5,4,5,0.4,0.4
2024-09-20T1000,1956A,86.1472,41.7538,巴音郭楞蒙古自治州,孔雀公园,颗粒物(PM10),59,68,82,27,20,83,,89,87,23,24,11,9,0.4,0.4
2024-09-20T1000,1957A,86.1972,41.7166,巴音郭楞蒙古自治州,棉纺厂,颗粒物(PM10),65,79,95,24,27,71,,78,78,28,26,13,8,0.3,0.3
2024-09-20T1000,1958A,86.2357,41.7173,巴音郭楞蒙古自治州,经济开发区,颗粒物(PM10),60,70,81,28,30,98,,96,96,10,13,6,7,0.2,0.3
2024-09-20T1000,2914A,106.7677,31.8794,巴中市,苏山坪,,21,15,25,10,20,67,,87,81,14,8,4,4,0.5,0.5
2024-09-20T1000,3182A,106.7656,31.8545,巴中市,丽阳花园,,28,27,37,19,27,56,,36,36,19,20,5,5,0.7,0.6
2024-09-20T1000,3183A,106.7418,31.8654,巴中市,圣泉水务公司,,23,20,30,16,24,62,,52,50,9,13,3,4,0.5,0.6
2024-09-20T1000,3616A,106.7616,31.8344,巴中市,市中心医院,,32,32,37,19,26,63,,28,28,20,22,6,6,0.7,0.6
2024-09-20T1000,2235A,122.7911,45.6077,白城市,洮北区环保局,,25,25,28,9,7,44,,34,34,8,9,8,6,0.4,0.3
2024-09-20T1000,2236A,122.8738,45.5725,白城市,市环保局,,39,39,40,3,7,42,,35,35,12,14,3,3,0.2,0.2
2024-09-20T1000,2231A,126.4219,41.9171,白山市,喜丰,,25,25,33,10,13,28,,30,30,13,21,6,8,0.5,0.8
2024-09-20T1000,2232A,126.4077,41.9419,白山市,环保局,,31,31,33,12,17,26,,26,26,15,25,6,9,0.5,0.7
2024-09-20T1000,2647A,104.1724,36.5446,白银市,第三小学,,29,8,76,3,15,91,,89,89,9,8,6,18,0.5,0.5
2024-09-20T1000,2648A,104.1465,36.5482,白银市,动力公司,,29,,58,7,18,92,,89,89,4,6,4,19,0.5,0.6
2024-09-20T1000,2512A,106.6103,23.9011,百色市,市监测站,,25,25,24,10,16,37,,59,54,6,9,5,5,0.5,0.5
2024-09-20T1000,2513A,106.6538,23.8859,百色市,市中心血站,,,,31,,16,,,55,53,8,13,2,3,,0.7
2024-09-20T1000,3406A,106.6085,23.8798,百色市,祈福高中,,29,29,33,3,17,47,,55,53,7,11,3,3,0.5,0.6
2024-09-20T1000,2270A,117.396,32.939,蚌埠市,工人疗养院,,,31,27,7,4,29,,27,27,9,5,6,6,,0.1
2024-09-20T1000,2271A,117.3605,32.9427,蚌埠市,百货大楼,,35,35,28,13,5,24,,21,21,4,3,7,6,0.3,0.2
2024-09-20T1000,2273A,117.4185,32.8911,蚌埠市,蚌埠学院,,19,19,22,3,8,28,,27,27,3,6,6,9,0.3,0.2
2024-09-20T1000,2274A,117.3533,32.9673,蚌埠市,淮上区政府,,36,36,23,14,6,25,,21,21,5,5,6,6,0.3,0.2
2024-09-20T1000,2275A,117.3145,32.8977,蚌埠市,高新区,,34,34,22,6,7,24,,25,24,9,5,7,10,0.4,0.3
2024-09-20T1000,3715A,117.3092,32.9314,蚌埠市,蚌埠田家炳中学,,36,36,25,10,7,22,,17,17,5,4,6,6,0.4,0.3
2024-09-20T1000,1587A,109.9991,40.5842,包头市,包头八中,,21,9,27,3,7,65,,63,63,9,17,4,6,0.5,0.6
2024-09-20T1000,1588A,109.8538,40.6821,包头市,青山宾馆,,20,6,20,3,7,63,,68,68,6,11,3,6,0.6,0.7
2024-09-20T1000,1589A,109.8642,40.6288,包头市,惠龙物流,,20,6,24,3,13,62,,66,66,9,13,4,6,0.4,0.6
2024-09-20T1000,1590A,110.0377,40.5546,包头市,东河鸿龙湾,,20,9,26,3,14,61,,60,60,9,13,8,11,0.4,0.6
2024-09-20T1000,3283A,109.9154,40.5685,包头市,滨河大厦,,21,16,24,6,14,66,,65,65,8,15,7,8,0.5,0.7
2024-09-20T1000,3419A,109.9447,40.6261,包头市,包头市委党校,,22,22,28,9,13,55,,60,60,10,16,4,7,0.4,0.6
2024-09-20T1000,3683A,109.8331,40.6576,包头市,昆区政府,,20,6,21,3,7,64,,66,66,7,12,3,5,0.4,0.6
2024-09-20T1000,1930A,107.185,34.3063,宝鸡市,庙沟村,,28,25,51,19,24,58,,64,63,4,10,8,8,0.3,0.5
2024-09-20T1000,1931A,107.0708,34.3017,宝鸡市,竹园沟,,42,42,46,19,26,42,,43,43,7,9,7,7,0.4,0.6
2024-09-20T1000,1932A,107.1906,34.3672,宝鸡市,三陆医院,颗粒物(PM10),54,57,60,28,30,30,,35,35,25,19,6,6,0.6,0.6
2024-09-20T1000,1933A,107.1431,34.3547,宝鸡市,监测站,,43,43,60,16,28,35,,41,41,17,15,6,7,0.7,0.8
2024-09-20T1000,1934A,107.1186,34.3739,宝鸡市,技工学校,细颗粒物(PM2.5),57,61,61,40,39,47,,44,44,15,17,9,8,0.6,0.7
2024-09-20T1000,1935A,107.3906,34.3528,宝鸡市,陈仓区环保局家属楼,,,61,56,20,27,,,42,42,13,19,,9,,0.7
2024-09-20T1000,1936A,107.2058,34.3497,宝鸡市,文理学院,,47,47,62,16,29,30,,41,41,23,17,8,8,0.5,0.6
2024-09-20T1000,1937A,107.2386,34.3622,宝鸡市,三迪小学,颗粒物(PM10),54,57,59,29,30,29,,37,37,33,22,8,8,0.6,0.7
2024-09-20T1000,1051A,115.493,38.8632,保定市,游泳馆,颗粒物(PM10),60,69,46,14,22,41,,30,30,10,17,3,4,0.3,0.3
2024-09-20T1000,1052A,115.5213,38.8959,保定市,华电二区,,50,50,54,34,28,23,,44,39,10,13,2,3,0.4,0.4
2024-09-20T1000,1053A,115.4713,38.9108,保定市,接待中心,颗粒物(PM10),53,56,47,19,26,42,,46,42,12,12,2,3,0.2,0.1
2024-09-20T1000,1054A,115.4612,38.8416,保定市,地表水厂,,46,46,55,14,21,41,,31,30,10,16,2,2,0.3,0.3
2024-09-20T1000,3581A,115.31981,38.95208,保定市,满城区生态环境分局,颗粒物(PM10),67,83,58,31,28,29,,39,35,28,16,3,3,0.5,0.4
2024-09-20T1000,3582A,115.47694,38.76408,保定市,清苑区第二中学,颗粒物(PM10),60,69,51,37,31,38,,21,21,12,15,1,1,0.4,0.4
2024-09-20T1000,3583A,115.62909,39.02311,保定市,徐水物探局,颗粒物(PM10),53,56,51,3,25,41,,34,33,12,18,4,5,0.5,0.6
2024-09-20T1000,4004A,115.4202,38.8656,保定市,双鹰农机,颗粒物(PM10),53,56,52,23,22,48,,36,36,14,20,2,2,0.5,0.5
2024-09-20T1000,4034A,115.5150,38.8590,保定市,植保所站,,,74,53,28,28,45,,25,25,,22,4,5,,0.7
2024-09-20T1000,2594A,99.1678,25.1081,保山市,市环境监测站,细颗粒物(PM2.5),63,67,40,45,24,29,,34,29,25,11,21,8,0.9,0.6
2024-09-20T1000,2595A,99.1711,25.1328,保山市,市环保局,,48,48,40,20,17,46,,49,44,15,8,13,7,0.6,0.5
2024-09-20T1000,1867A,109.1436,21.4086,北海市,海滩公园,,33,33,28,10,11,58,,42,42,10,9,8,6,0.6,0.6
2024-09-20T1000,1868A,109.0981,21.4661,北海市,新市环保局,,31,31,28,12,18,66,,44,44,12,12,6,6,0.7,0.7
2024-09-20T1000,1869A,109.1778,21.5233,北海市,北海工业园,,42,42,32,17,19,63,,42,42,11,13,11,12,0.6,0.6
2024-09-20T1000,3400A,109.1911,21.4415,北海市,龙潭自来水厂,,26,26,26,17,17,56,,31,31,7,8,7,6,0.6,0.6
2024-09-20T1000,1001A,116.3621,39.8784,北京市,万寿西宫,,11,6,52,3,31,35,,34,30,11,18,3,2,0.5,0.8
2024-09-20T1000,1002A,116.2202,40.2915,北京市,定陵,,10,6,54,3,52,31,,39,32,2,10,7,6,0.4,0.7
2024-09-20T1000,1003A,116.4174,39.9289,北京市,东四,,12,6,57,3,35,38,,38,32,11,22,4,5,0.5,0.8
2024-09-20T1000,1004A,116.4072,39.8863,北京市,天坛,,12,6,52,3,31,36,,30,29,14,23,3,2,0.5,0.8
2024-09-20T1000,1005A,116.462,39.9365,北京市,农展馆,,11,6,57,3,35,34,,30,28,10,23,3,2,0.4,0.8
2024-09-20T1000,1006A,116.3392,39.9295,北京市,官园,,11,6,55,3,30,33,,36,31,10,19,4,5,0.5,0.7
2024-09-20T1000,1007A,116.2878,39.9611,北京市,海淀万柳,,14,6,57,3,32,42,,38,38,7,23,3,3,0.4,0.7
2024-09-20T1000,1008A,116.6636,40.135,北京市,顺义新城,,13,6,55,3,34,40,,52,49,4,15,3,2,0.3,0.7
2024-09-20T1000,1009A,116.6275,40.3275,北京市,怀柔镇,,14,6,43,3,27,42,,65,58,7,15,3,2,0.3,0.8
2024-09-20T1000,1010A,116.2296,40.217,北京市,昌平镇,,12,6,64,3,37,36,,52,37,8,21,3,4,0.3,0.7
2024-09-20T1000,1011A,116.3966,39.9821,北京市,奥体中心,,13,6,58,3,34,40,,44,38,10,25,2,3,0.6,0.9
2024-09-20T1000,1012A,116.184,39.9136,北京市,古城,,12,6,69,3,34,38,,22,22,11,30,2,3,0.6,0.9
2024-09-20T1000,3281A,115.9718,40.4529,北京市,延庆夏都,,15,6,50,3,31,46,,94,72,3,9,3,2,0.3,0.6
2024-09-20T1000,3417A,117.0709,40.1465,北京市,平谷新城,,13,6,46,3,24,39,,74,62,3,7,3,3,0.2,0.6
2024-09-20T1000,3418A,116.8336,40.4095,北京市,密云新城,,15,6,54,3,23,45,,58,50,2,10,3,3,0.2,0.6
2024-09-20T1000,3671A,116.088,39.9726,北京市,门头沟三家店,,13,6,57,3,33,40,,31,31,5,20,6,6,0.4,0.6
2024-09-20T1000,3672A,116.1541,39.8204,北京市,丰台云岗,,10,8,57,3,33,32,,21,21,11,21,2,4,0.4,0.6
2024-09-20T1000,3673A,116.6804,39.9081,北京市,通州东关,,12,6,64,3,38,37,,44,41,12,20,3,2,0.3,0.7
2024-09-20T1000,3674A,115.9577,39.7603,北京市,房山燕山,,13,7,45,3,30,41,,32,32,11,13,1,1,0.5,0.7
2024-09-20T1000,3675A,116.4672,39.7733,北京市,大兴旧宫,,14,6,48,3,30,42,,32,31,8,18,3,2,0.3,0.7
2024-09-20T1000,3694A,115.986,40.4563,北京市,延庆石河营,,15,6,47,3,33,46,,88,68,2,8,3,3,0.3,0.6
2024-09-20T1000,3695A,116.6151,40.3053,北京市,怀柔新城,,14,6,42,3,27,43,,68,59,5,11,3,3,0.3,0.7
2024-09-20T1000,3696A,116.2545,39.8768,北京市,丰台小屯,,11,6,50,3,28,33,,23,23,13,23,3,2,0.5,0.7
2024-09-20T1000,3697A,116.84,40.3844,北京市,密云镇,,15,6,42,3,23,46,,43,43,2,15,2,3,0.3,0.7
2024-09-20T1000,1761A,123.8275,41.3064,本溪市,大峪,,18,18,49,3,21,36,,38,36,12,24,8,9,0.6,1.2
2024-09-20T1000,1762A,123.7567,41.3325,本溪市,溪湖,,22,22,48,3,18,43,,37,37,9,23,7,8,0.5,1
2024-09-20T1000,1763A,123.7169,41.3094,本溪市,彩屯,,20,20,40,8,21,31,,22,22,22,31,12,10,0.6,1.1
2024-09-20T1000,1764A,123.7669,41.2864,本溪市,东明,,21,21,42,8,16,37,,39,38,15,25,6,7,0.6,0.9
2024-09-20T1000,1765A,123.7992,41.2664,本溪市,新立屯,,15,15,31,7,10,34,,43,39,16,21,5,5,0.6,0.9
2024-09-20T1000,1766A,123.8142,41.3472,本溪市,威宁,,17,17,40,7,20,40,,36,36,10,25,8,9,0.9,1.2
2024-09-20T1000,2587A,105.2864,27.3125,毕节市,八中,,47,47,29,24,18,50,,32,32,15,12,11,7,0.6,0.4
2024-09-20T1000,2588A,105.31,27.2944,毕节市,师专,,41,41,28,26,20,36,,28,27,31,14,14,9,0.7,0.4
2024-09-20T1000,3537A,105.3631,27.3533,毕节市,长征村,,,55,28,44,23,,,32,28,14,11,,8,0.7,0.5
2024-09-20T1000,1629A,118.0018,37.3617,滨州市,第二水厂,,46,46,37,14,25,44,,30,30,7,11,5,9,0.5,0.6
2024-09-20T1000,1630A,117.9776,37.393,滨州市,北中新校,,48,48,47,14,28,48,,28,28,2,8,6,7,0.4,0.6
2024-09-20T1000,3514A,117.9378,37.3956,滨州市,中海酒店,,44,44,44,9,26,47,,31,31,9,15,5,6,0.5,0.7
2024-09-20T1000,3515A,117.9378,37.3553,滨州市,开发区一中,,,44,43,9,31,,,26,24,10,16,7,17,0.3,0.6
2024-09-20T1000,3516A,118.0917,37.694,滨州市,金海六路,,34,34,31,14,20,61,,39,39,4,7,2,3,0.6,0.7
2024-09-20T1000,4028A,117.9956,37.3753,滨州市,滨州市西街道办事处,,44,44,43,14,30,47,,32,32,4,10,6,9,0.5,0.7
2024-09-20T1000,2311A,115.8072,33.8399,亳州市,污水处理厂,,,21,22,8,4,,,,,8,9,6,5,0.5,0.5
2024-09-20T1000,2312A,115.7789,33.8518,亳州市,三国揽胜宫,,,23,26,8,15,45,,27,24,,6,5,3,0.5,0.5
2024-09-20T1000,3332A,115.7633,33.8034,亳州市,亳州学院,,17,17,20,3,9,50,,34,31,5,6,4,3,0.5,0.5
2024-09-20T1000,2693A,82.0485,44.8556,博尔塔拉蒙古自治州,市党校,,50,50,59,21,17,42,,45,40,10,9,9,8,0.4,0.4
2024-09-20T1000,2694A,82.0806,44.8969,博尔塔拉蒙古自治州,市环保局,颗粒物(PM10),51,52,61,19,16,22,,35,31,19,16,6,6,0.4,0.4
2024-09-20T1000,1071A,116.8842,38.2991,沧州市,沧县城建局,,32,22,43,22,28,50,,26,26,7,20,1,3,0.3,0.6
2024-09-20T1000,1072A,116.8584,38.3254,沧州市,电视转播站,,29,29,46,9,29,54,,29,29,9,22,2,3,0.2,0.5
2024-09-20T1000,1073A,116.8709,38.3228,沧州市,市环保局,,33,29,46,23,34,50,,27,27,7,19,3,5,0.2,0.4
2024-09-20T1000,3324A,116.8136,38.3004,沧州市,河北水利电力学院,,20,,48,14,25,56,,29,29,5,18,2,3,0.1,0.3
2024-09-20T1000,2622A,97.1806,31.1273,昌都市,昌都监测站,,,,9,5,5,56,,56,54,6,6,7,6,0.8,0.7
2024-09-20T1000,2690A,88.1236,43.8886,昌吉回族自治州,天山天池,,20,6,13,3,5,63,,61,60,2,4,8,8,0.4,0.5
2024-09-20T1000,2692A,87.2717,44.0297,昌吉回族自治州,新区政务中心,颗粒物(PM10),59,68,45,34,25,9,,21,21,45,32,7,8,1.1,0.8
2024-09-20T1000,3613A,87.3095,44.0142,昌吉回族自治州,亚心广场,颗粒物(PM10),79,107,68,29,16,13,,10,10,60,46,8,6,1.2,0.8
2024-09-20T1000,1119A,125.3325,43.9166,长春市,食品厂,,15,15,23,7,10,22,,38,33,22,15,6,5,0.3,0.3
2024-09-20T1000,1120A,125.2863,43.9027,长春市,客车厂,,17,17,22,6,10,26,,38,32,18,13,8,6,0.3,0.3
2024-09-20T1000,1121A,125.2841,43.8463,长春市,邮电学院,,22,22,22,10,11,22,,38,32,27,13,8,7,0.3,0.2
2024-09-20T1000,1122A,125.3716,43.8772,长春市,劳动公园,,25,25,25,3,5,23,,42,36,28,13,9,8,0.3,0.4
2024-09-20T1000,1123A,125.3297,43.8805,长春市,园林处,,21,21,24,3,7,22,,40,34,26,12,5,5,0.2,0.2
2024-09-20T1000,1124A,125.4605,43.79,长春市,净月潭,,19,19,20,3,5,32,,42,38,13,8,6,6,0.3,0.3
2024-09-20T1000,1126A,125.3863,43.8447,长春市,经开区环卫处,,25,25,23,7,7,16,,38,31,32,14,10,8,0.3,0.3
2024-09-20T1000,1127A,125.245,43.7783,长春市,高新区管委会,,24,24,23,10,7,22,,39,32,30,13,6,5,0.4,0.4
2024-09-20T1000,1128A,125.1761,43.8325,长春市,岱山公园,,27,27,24,3,8,20,,32,25,25,14,5,4,0.4,0.3
2024-09-20T1000,1335A,113.0833,28.2325,长沙市,经开区环保局,细颗粒物(PM2.5),52,47,43,36,28,34,,40,35,16,16,1,1,0.6,0.6
2024-09-20T1000,1336A,112.8872,28.2189,长沙市,高开区环保局,,48,48,44,29,25,32,,43,38,11,10,4,4,0.5,0.5
2024-09-20T1000,1337A,113.0792,28.2053,长沙市,马坡岭,颗粒物(PM10),53,56,44,36,30,40,,45,40,14,14,4,4,0.7,0.7
2024-09-20T1000,1338A,112.9394,28.19,长沙市,湖南师范大学,细颗粒物(PM2.5),58,54,46,41,30,36,,48,42,8,8,6,6,0.5,0.5
2024-09-20T1000,1339A,113.0178,28.1322,长沙市,雨花区环保局,颗粒物(PM10),51,51,43,28,25,39,,48,42,13,13,5,5,0.6,0.6
2024-09-20T1000,1340A,112.9792,28.2597,长沙市,伍家岭,,50,50,42,35,26,35,,42,37,7,7,2,2,0.8,0.8
2024-09-20T1000,1341A,113.0014,28.1944,长沙市,火车新站,颗粒物(PM10),51,51,44,27,25,33,,44,38,9,9,4,4,0.7,0.7
2024-09-20T1000,1342A,112.9844,28.1178,长沙市,天心区环保局,颗粒物(PM10),58,65,50,29,22,27,,40,34,14,12,3,3,0.5,0.5
2024-09-20T1000,1343A,112.8908,28.1308,长沙市,湖南中医药大学,细颗粒物(PM2.5),58,58,46,41,31,36,,48,42,8,8,6,6,1.1,1
2024-09-20T1000,1344A,112.9581,28.3611,长沙市,沙坪,颗粒物(PM10),52,53,39,25,20,32,,42,35,11,11,2,2,0.8,0.7
2024-09-20T1000,1727A,113.1147,36.1547,长治市,清华站,,31,31,27,12,12,76,,27,27,10,13,9,7,0.7,0.7
2024-09-20T1000,1728A,113.1031,36.1989,长治市,监测站,,25,25,29,14,12,62,,17,17,17,18,11,10,1.0,1
2024-09-20T1000,1730A,113.0886,36.2125,长治市,审计局,,,33,28,,12,,,11,10,,17,,7,0.6,0.5
2024-09-20T1000,1731A,113.0844,36.1856,长治市,长治八中,,34,34,36,14,13,62,,21,21,15,17,9,7,0.7,0.6
2024-09-20T1000,2845A,113.1569,36.1911,长治市,德盛苑,,,27,24,,8,74,,34,34,9,9,7,5,0.7,0.9
2024-09-20T1000,3568A,113.06,36.0464,长治市,向阳小学,,,54,47,36,32,,,22,,11,16,10,7,0.6,0.4
2024-09-20T1000,3569A,112.8792,36.3144,长治市,屯留一中,,30,30,44,19,24,72,,22,22,9,16,8,9,0.5,0.7
2024-09-20T1000,3570A,113.235,36.3489,长治市,潞城四中,,50,50,32,17,19,71,,30,30,12,13,6,6,0.8,0.7
2024-09-20T1000,1854A,111.6975,28.9703,常德市,市二中,,36,27,40,25,29,65,,64,61,8,8,8,9,0.7,0.8
2024-09-20T1000,3138A,111.7153,29.0289,常德市,武陵区永安,,36,36,39,23,29,61,,59,56,8,8,8,9,0.7,0.7
2024-09-20T1000,3139A,111.6892,28.9881,常德市,鼎城区玉霞,,36,36,40,24,28,65,,63,59,9,8,9,9,0.7,0.8
2024-09-20T1000,3140A,111.6625,29.0531,常德市,武陵区长庚,,38,35,41,26,29,62,,56,53,7,9,9,10,0.6,0.7
2024-09-20T1000,1196A,119.9633,31.762,常州市,市监测站,,12,12,18,3,6,7,,20,16,14,5,5,5,0.6,0.5
2024-09-20T1000,1200A,119.9468,31.7069,常州市,武进监测站,,7,7,16,3,6,13,,18,16,6,4,5,5,0.7,0.7
2024-09-20T1000,1201A,119.9255,31.9087,常州市,安家,,10,9,19,7,9,9,,18,16,14,10,7,9,0.6,0.5
2024-09-20T1000,3002A,119.9805,31.8174,常州市,行政中心,,9,9,13,3,4,5,,7,6,12,9,10,9,0.5,0.4
2024-09-20T1000,3003A,120.0522,31.7748,常州市,经开区,,10,10,18,3,4,11,,18,16,12,8,7,8,0.4,0.2
2024-09-20T1000,3010A,119.9025,31.7964,常州市,钟楼,,12,12,18,3,4,9,,15,13,14,9,7,7,0.5,0.6
2024-09-20T1000,3429A,119.8598,31.7066,常州市,武进经发区,,8,8,17,3,6,16,,18,17,8,8,8,9,0.5,0.5
2024-09-20T1000,3430A,119.5826,31.7245,常州市,金坛城区,,11,11,20,3,8,22,,19,19,8,9,6,7,0.6,0.6
2024-09-20T1000,2220A,120.4318,41.5881,朝阳市,西梁,,19,,30,3,10,60,,59,59,7,10,7,9,0.3,0.5
2024-09-20T1000,2221A,120.4521,41.5646,朝阳市,河畔小区,,18,,28,3,15,55,,56,56,7,7,6,7,0.4,0.7
2024-09-20T1000,2222A,120.4176,41.5648,朝阳市,八里堡,,19,,35,9,16,60,,59,59,11,11,7,8,0.5,0.7
2024-09-20T1000,2223A,120.3806,41.5969,朝阳市,农业园区,,18,,28,3,12,56,,51,51,5,8,6,8,0.3,0.6
2024-09-20T1000,1705A,116.6367,23.6719,潮州市,西园路,,37,37,28,15,17,25,,15,14,7,11,4,5,0.5,0.5
2024-09-20T1000,3026A,116.6183,23.6608,潮州市,市政府,,,,25,14,13,,,29,26,,8,,5,,0.7
2024-09-20T1000,4036A,116.6461,23.6761,潮州市,金山,,23,23,28,16,20,28,,16,16,6,10,6,8,0.6,0.6
2024-09-20T1000,2472A,113.0073,25.9061,郴州市,马头岭,,40,40,49,9,18,48,,60,54,5,6,7,8,0.4,0.3
2024-09-20T1000,2473A,113.0116,25.8226,郴州市,市职中,,45,36,38,31,34,49,,56,52,10,11,4,4,0.7,0.7
2024-09-20T1000,2474A,113.0161,25.8001,郴州市,兴隆步行街,,46,46,45,32,28,48,,55,51,12,12,4,5,0.8,0.7
2024-09-20T1000,2475A,113.0383,25.8071,郴州市,市审计局,,45,40,42,31,35,42,,52,48,13,10,3,5,0.8,0.7
2024-09-20T1000,2476A,113.0348,25.7759,郴州市,市环保局,,49,44,42,34,35,44,,51,48,13,14,4,6,0.8,0.7
2024-09-20T1000,1431A,103.9728,30.7236,成都市,金泉两河,颗粒物(PM10),73,96,35,46,13,31,,4,4,23,20,12,4,0.7,0.6
2024-09-20T1000,1432A,104.176,30.6872,成都市,十里店,细颗粒物(PM2.5),68,70,44,49,27,40,,12,12,36,33,11,4,0.6,0.5
2024-09-20T1000,1433A,104.079,30.5706,成都市,三瓦窑,颗粒物(PM10),53,56,45,31,29,31,,6,6,51,30,5,4,0.9,0.7
2024-09-20T1000,1434A,104.1114,30.63,成都市,沙河铺,细颗粒物(PM2.5),72,91,49,52,30,36,,9,9,47,29,7,4,1.1,0.8
2024-09-20T1000,1437A,104.0786,30.6531,成都市,君平街,"颗粒物(PM10),细颗粒物(PM2.5)",64,78,44,46,27,35,,12,12,40,27,16,7,1.0,0.7
2024-09-20T1000,2880A,104.0239,30.65639,成都市,大石西路,颗粒物(PM10),64,78,39,35,21,31,,8,8,36,30,17,7,0.9,0.4
2024-09-20T1000,3136A,104.2725,30.5589,成都市,龙泉驿区区政府,颗粒物(PM10),58,66,49,39,31,66,,50,50,34,20,6,5,0.8,0.7
2024-09-20T1000,3357A,104.0106,30.6931,成都市,金博路,细颗粒物(PM2.5),84,94,37,62,19,27,,5,5,30,24,15,4,0.9,0.7
2024-09-20T1000,3359A,104.0578,30.5225,成都市,华阳,颗粒物(PM10),54,58,46,29,24,32,,7,7,47,28,6,5,0.9,0.7
2024-09-20T1000,3487A,104.2394,30.5319,成都市,车城东七路,细颗粒物(PM2.5),52,48,58,36,38,72,,43,43,19,27,4,3,0.7,0.7
2024-09-20T1000,3488A,104.3853,30.7453,成都市,青白江技师分院,颗粒物(PM10),58,66,55,33,38,32,,8,8,55,38,5,4,1.0,0.8
2024-09-20T1000,3489A,104.0789,30.4072,成都市,科学城,,50,50,56,35,38,37,,10,10,26,29,7,5,0.8,0.8
2024-09-20T1000,4011A,103.8506,30.6947,成都市,光华大道三段,,48,48,30,13,12,50,,23,23,23,17,6,4,0.8,0.6
2024-09-20T1000,1062A,117.9531,40.9081,承德市,铁路,,13,6,38,3,19,39,,55,47,14,21,7,20,0.2,0.5
2024-09-20T1000,1063A,117.9392,40.9763,承德市,中国银行,,15,,38,3,18,46,,55,50,9,14,4,13,0.1,0.5
2024-09-20T1000,1064A,117.9503,40.928,承德市,开发区,,15,15,40,6,20,43,,55,48,10,15,6,18,0.3,0.6
2024-09-20T1000,1065A,117.8051,40.9655,承德市,文化中心,,15,6,43,3,18,47,,56,50,9,14,7,28,0.2,0.5
2024-09-20T1000,1066A,117.9268,41.0026,承德市,离宫,,29,,34,20,28,41,,34,34,4,8,2,5,0.2,0.5
2024-09-20T1000,2314A,117.47,30.6618,池州市,池州学院,,19,19,27,10,14,21,,12,12,6,12,5,7,0.5,0.6
2024-09-20T1000,3237A,117.4918,30.6617,池州市,展览馆,,,16,21,7,11,,,10,10,6,12,,5,0.5,0.6
2024-09-20T1000,3333A,117.5627,30.695,池州市,第八中学,,22,22,31,10,14,18,,10,10,12,14,3,4,0.5,0.6
2024-09-20T1000,3334A,117.5038,30.6243,池州市,第十二中学,,36,36,27,12,14,19,,11,11,10,14,4,4,0.7,0.8
2024-09-20T1000,1744A,118.9233,42.2816,赤峰市,松山一中,,,9,20,3,6,,,58,56,23,19,9,10,0.3,0.2
2024-09-20T1000,1745A,118.9576,42.2728,赤峰市,哈达街,,19,,20,10,11,59,,60,58,11,12,8,9,0.3,0.4
2024-09-20T1000,1746A,118.8788,42.2554,赤峰市,天义路,,20,15,20,14,11,45,,53,51,19,13,6,7,0.1,0.2
2024-09-20T1000,3058A,119.2658,42.0353,赤峰市,银河街,,22,17,23,15,10,52,,53,52,10,9,10,11,0.4,0.4
2024-09-20T1000,3286A,118.9359,42.3147,赤峰市,桥北物流园区,,15,7,23,3,15,48,,60,57,22,13,8,7,0.6,0.5
2024-09-20T1000,2521A,107.3476,22.4136,崇左市,市环保局江州分局,,,39,36,22,20,,,20,11,13,11,,7,0.8,0.7
2024-09-20T1000,2522A,107.3702,22.3707,崇左市,城南新区,,40,40,31,18,24,36,,33,25,15,12,4,3,0.7,0.7
2024-09-20T1000,2298A,118.3093,32.3153,滁州市,老年大学,,,19,20,6,8,28,,29,28,5,4,7,8,,0.1
2024-09-20T1000,2299A,118.3244,32.2786,滁州市,人大宾馆,,15,15,21,8,10,31,,31,29,2,2,6,6,0.3,0.3
2024-09-20T1000,3207A,118.3118,32.3038,滁州市,市政府原办公楼,,16,,14,11,13,27,,27,26,4,5,6,7,0.3,0.3
2024-09-20T1000,3331A,118.3267,32.2634,滁州市,图书馆,,27,27,33,9,10,28,,29,27,3,4,5,5,0.1,0.1
2024-09-20T1000,2605A,101.5482,25.0441,楚雄彝族自治州,州环境监测站,,38,35,30,26,22,36,,17,17,30,24,17,16,0.8,0.7
2024-09-20T1000,2606A,101.538,25.0492,楚雄彝族自治州,市经济开发区,,32,27,31,22,23,49,,19,19,18,21,11,16,0.7,0.7
2024-09-20T1000,2548A,107.5277,31.2827,达州市,达州职业技术学院,,38,34,48,26,29,67,,24,24,14,32,12,8,0.5,0.7
2024-09-20T1000,2549A,107.5086,31.2186,达州市,市环境监测站,,34,34,44,17,21,63,,34,34,29,30,12,9,0.5,0.6
2024-09-20T1000,2550A,107.4988,31.2132,达州市,凤凰小区,,,46,42,12,24,71,,41,41,,27,12,10,0.6,0.6
2024-09-20T1000,2551A,107.5082,31.1986,达州市,达县机关宾馆,,40,36,44,28,22,75,,44,44,22,42,10,8,0.4,0.5
2024-09-20T1000,2552A,107.4644,31.2124,达州市,市政中心,,37,37,47,9,23,70,,40,40,26,31,12,8,0.4,0.6
2024-09-20T1000,2614A,100.1542,25.7054,大理白族自治州,大理市环境监测站,,43,43,32,21,19,53,,40,40,23,21,9,10,0.8,0.6
2024-09-20T1000,2615A,100.2171,25.5811,大理白族自治州,大理古城,,31,31,30,12,17,56,,44,42,11,12,9,9,0.6,0.6
2024-09-20T1000,1109A,121.612,38.9741,大连市,甘井子,,21,21,36,3,16,19,,34,28,27,24,8,9,0.7,0.5
2024-09-20T1000,1110A,121.565,38.9511,大连市,周水子,,,20,33,6,19,13,,34,27,34,32,,7,,0.6
2024-09-20T1000,1111A,121.5637,38.8845,大连市,星海三站,,20,20,24,7,18,22,,50,39,22,15,5,6,0.7,0.4
2024-09-20T1000,1112A,121.6302,38.9117,大连市,青泥洼桥,,19,19,26,8,18,15,,37,28,33,21,6,6,1.1,0.8
2024-09-20T1000,1113A,121.6251,38.8638,大连市,傅家庄,,20,20,23,9,15,19,,51,36,27,16,6,7,0.7,0.4
2024-09-20T1000,1114A,121.5213,38.8661,大连市,七贤岭,,16,16,25,3,19,30,,37,37,18,19,6,7,0.8,0.5
2024-09-20T1000,1115A,121.2529,38.8061,大连市,旅顺,,20,20,13,13,12,42,,55,49,12,19,4,5,0.6,0.5
2024-09-20T1000,1116A,121.7485,39.1311,大连市,金州,,18,18,29,7,22,24,,30,30,22,23,7,8,0.6,0.6
2024-09-20T1000,1117A,121.7811,39.0496,大连市,开发区,,32,32,33,9,18,16,,21,21,22,24,6,8,0.8,0.6
2024-09-20T1000,1118A,121.9762,39.0631,大连市,双D港,,,20,23,10,17,,,41,41,19,16,6,7,0.9,0.8
2024-09-20T1000,1789A,124.81117,46.03138,大庆市,大同区,,,29,22,13,11,30,,30,28,7,6,3,3,,0.3
2024-09-20T1000,1790A,125.129,46.533,大庆市,龙凤区,,25,25,39,15,18,33,,31,29,8,10,3,4,0.3,0.3
2024-09-20T1000,1791A,124.902,46.408,大庆市,红岗区,,31,31,27,7,13,30,,30,27,12,10,6,6,0.3,0.3
2024-09-20T1000,1792A,125.153,46.586,大庆市,萨尔图区,,15,10,16,10,6,34,,32,30,6,9,4,5,0.2,0.2
2024-09-20T1000,1793A,124.9042,46.6215,大庆市,让胡路区,,,16,22,12,17,,,25,23,11,12,4,4,,0.2
2024-09-20T1000,3481A,125.141,46.634,大庆市,萨区政府监测点,,24,24,17,3,7,27,,29,28,12,9,5,5,0.7,0.4
2024-09-20T1000,1723A,113.2994,40.0758,大同市,云冈宾馆,,17,,26,3,19,52,,62,62,9,14,6,8,0.1,0.4
2024-09-20T1000,1724A,113.3444,40.0917,大同市,大同大学,,15,12,29,3,18,48,,56,56,12,12,10,11,0.5,0.5
2024-09-20T1000,1725A,113.2661,40.1269,大同市,安家小村,,16,,32,3,13,51,,63,62,9,13,10,11,0.4,0.5
2024-09-20T1000,1726A,113.2711,40.0844,大同市,教育学院,,16,8,34,3,18,49,,59,59,10,16,6,7,0.4,0.6
2024-09-20T1000,3282A,113.3397,40.0597,大同市,大同市卫生学校,,,,36,11,20,50,,57,57,,12,7,8,,0.8
2024-09-20T1000,3565A,113.1367,40.1122,大同市,云冈站,,25,25,39,3,16,48,,61,60,9,15,10,10,0.6,0.7
2024-09-20T1000,3566A,113.1186,40.2556,大同市,图书馆,,15,12,37,7,16,48,,60,60,10,14,9,10,0.5,0.7
2024-09-20T1000,3567A,113.5931,40.0461,大同市,区一中,,20,6,31,3,18,63,,49,49,6,9,6,7,0.5,0.7
2024-09-20T1000,3676A,113.2802,40.0995,大同市,第二人民医院,,17,,31,7,17,52,,62,62,8,12,9,10,0.4,0.6
2024-09-20T1000,2269A,124.1069,50.4097,大兴安岭地区,科技局,,16,,13,9,13,49,,38,38,3,4,5,5,0.2,0.2
2024-09-20T1000,3663A,124.1164,50.4278,大兴安岭地区,红旗社区,,14,6,5,3,3,44,,29,29,5,5,3,3,0.3,0.3
2024-09-20T1000,1600A,124.3303,40.0625,丹东市,江湾东路,,,31,51,10,23,,,40,40,,11,8,11,0.7,0.9
2024-09-20T1000,1601A,124.4256,40.1503,丹东市,临江后街,,25,15,54,6,22,78,,46,46,3,12,6,7,0.6,0.8
2024-09-20T1000,1602A,124.3933,40.1461,丹东市,元宝山,,20,15,36,11,16,63,,41,41,6,11,3,4,0.5,0.6
2024-09-20T1000,1603A,124.3633,40.1092,丹东市,民主桥,,28,28,39,13,18,66,,47,47,16,13,4,6,0.6,0.7
2024-09-20T1000,3541A,109.5726,19.5167,儋州市,第一中学子站,,14,10,8,3,3,42,,36,36,2,2,4,4,0.5,0.4
2024-09-20T1000,3542A,109.5567,19.5187,儋州市,东坡学校子站,,,9,7,3,4,,,34,33,4,3,4,5,0.4,0.4
2024-09-20T1000,2616A,98.5842,24.428,德宏傣族景颇族自治州,德宏州监测站,颗粒物(PM10),52,54,42,29,30,23,,18,18,15,13,8,12,0.7,0.7
2024-09-20T1000,3677A,98.5881,24.4368,德宏傣族景颇族自治州,芒市人民政府综合楼,,,39,38,28,27,,,34,29,16,11,7,11,,0.9
2024-09-20T1000,1901A,104.4239,31.1208,德阳市,东山公园,,33,33,43,9,27,50,,33,33,18,16,9,8,0.6,0.7
2024-09-20T1000,1902A,104.3826,31.1317,德阳市,西小区,,47,47,49,21,33,39,,25,25,26,20,16,22,0.7,0.8
2024-09-20T1000,1904A,104.3553,31.1091,德阳市,耐火材料厂,颗粒物(PM10),58,65,59,27,38,43,,15,15,19,20,45,25,0.9,0.8
2024-09-20T1000,3639A,104.4019,31.1244,德阳市,市教育局,,45,45,50,19,29,46,,26,26,19,19,10,16,0.7,0.8
2024-09-20T1000,1622A,116.3032,37.4674,德州市,儿童乐园,细颗粒物(PM2.5),70,66,51,51,35,16,,26,19,19,20,9,9,0.7,0.7
2024-09-20T1000,1624A,116.2991,37.4451,德州市,监理站,细颗粒物(PM2.5),73,68,46,53,33,21,,37,26,19,14,10,10,0.7,0.8
2024-09-20T1000,3066A,116.2721,37.4379,德州市,九衢泉纯净水厂,细颗粒物(PM2.5),67,70,48,48,36,21,,33,24,22,16,8,9,0.7,0.7
2024-09-20T1000,3371A,116.3728,37.4403,德州市,开发区人民医院,,,68,44,53,29,33,,32,26,,15,,8,0.7,0.7
2024-09-20T1000,3372A,116.3572,37.4094,德州市,太阳城中学,细颗粒物(PM2.5),67,58,39,48,30,20,,32,24,22,21,10,10,0.7,0.7
2024-09-20T1000,3511A,116.5652,37.3319,德州市,陵城艺术中心,细颗粒物(PM2.5),73,75,47,53,29,25,,29,24,21,15,10,10,0.6,0.6
2024-09-20T1000,2621A,99.7056,27.8317,迪庆藏族自治州,迪庆州站,,29,29,26,18,14,45,,22,22,11,12,9,11,0.3,0.3
2024-09-20T1000,3180A,99.7136,27.8094,迪庆藏族自治州,质量技术监督局,,33,33,22,17,12,40,,24,24,15,12,7,6,0.4,0.3
2024-09-20T1000,2663A,104.6241,35.5734,定西市,东关小学,,23,18,56,11,30,72,,69,69,8,6,4,5,0.2,0.2
2024-09-20T1000,2664A,104.6194,35.5934,定西市,供电公司,,,23,61,,36,67,,65,64,9,5,6,7,0.2,0.2
2024-09-20T1000,1389A,113.7547,23.0494,东莞市,莞城梨川,,32,30,31,22,15,68,,24,24,18,18,6,6,0.7,0.6
2024-09-20T1000,1390A,113.7944,23.0128,东莞市,东城石井,,27,27,27,17,15,77,,15,15,16,18,6,5,0.6,0.5
2024-09-20T1000,1391A,113.7383,22.9658,东莞市,南城西平,,35,35,31,23,18,63,,17,17,28,23,9,8,0.8,0.7
2024-09-20T1000,3319A,113.7338,23.0381,东莞市,万江金泰,,35,35,28,21,16,75,,27,27,18,17,9,7,0.6,0.5
2024-09-20T1000,3626A,113.7533,23.0202,东莞市,南城元岭,,39,39,32,19,15,79,,27,27,16,17,7,7,0.7,0.6
2024-09-20T1000,3627A,113.7875,23.0457,东莞市,东城主山,,35,35,29,19,14,81,,30,30,19,18,8,8,0.5,0.5
2024-09-20T1000,1666A,118.6614,37.4309,东营市,市环保局,,36,36,26,7,16,68,,46,46,11,13,3,8,0.1,0.2
2024-09-20T1000,3036A,118.6904,37.4338,东营市,开发区管委会,,37,37,32,12,17,66,,44,43,10,13,4,8,0.1,0.3
2024-09-20T1000,3365A,118.5719,37.565,东营市,垦利区民丰路,,44,44,24,14,14,55,,32,32,3,5,3,3,0.1,0.1
2024-09-20T1000,3498A,118.5055,37.8612,东营市,河口城区,,41,41,20,12,11,62,,42,42,7,10,5,5,0.4,0.4
2024-09-20T1000,3646A,118.4978,37.4623,东营市,胜利站,,48,48,27,14,15,54,,56,50,4,8,4,4,0.4,0.6
2024-09-20T1000,3734A,118.35,37.26,东营市,理想之城,,36,36,27,12,20,54,,33,33,8,13,3,5,0.2,0.3
2024-09-20T1000,1591A,110.0023,39.8129,鄂尔多斯市,综合楼,,,12,36,,10,55,,53,53,10,15,9,11,0.5,0.7
2024-09-20T1000,1592A,109.9486,39.8261,鄂尔多斯市,巴音孟克林场办事处,,17,9,33,3,12,53,,53,53,10,15,6,7,0.5,0.7
2024-09-20T1000,1593A,109.7736,39.5986,鄂尔多斯市,康泽苑,,18,17,24,3,8,55,,62,59,7,9,9,8,0.5,0.5
2024-09-20T1000,1594A,109.8119,39.5989,鄂尔多斯市,华泰汽车城,,17,14,22,7,13,54,,59,57,7,9,8,7,0.4,0.5
2024-09-20T1000,1595A,109.9734,39.7884,鄂尔多斯市,奥林花园,,22,22,33,3,15,47,,51,50,15,16,4,5,0.5,0.6
2024-09-20T1000,2436A,114.8938,30.3994,鄂州市,市政府,,28,26,37,9,16,88,,37,37,10,15,12,13,0.6,0.9
2024-09-20T1000,2437A,114.8989,30.3714,鄂州市,赵家坝,,30,30,36,10,15,49,,34,34,12,14,10,12,0.7,0.9
2024-09-20T1000,3654A,114.8094,30.4089,鄂州市,精准医疗中心,,26,26,30,8,12,46,,34,33,10,11,5,6,0.4,0.6
2024-09-20T1000,2454A,109.4978,30.2981,恩施土家族苗族自治州,湖北民院,,25,22,22,15,16,77,,65,63,14,12,9,9,0.8,0.7
2024-09-20T1000,2455A,109.4707,30.2798,恩施土家族苗族自治州,州电力总公司,,23,20,21,8,15,73,,64,63,18,16,8,9,0.8,0.7
2024-09-20T1000,3549A,109.5061,30.3772,恩施土家族苗族自治州,龙凤新区,,40,,24,28,15,74,,61,59,11,12,7,6,1.0,0.8
2024-09-20T1000,2499A,108.3411,21.6158,防城港市,沙万,,31,31,37,16,21,58,,39,39,12,18,10,8,0.8,0.8
2024-09-20T1000,2500A,108.3514,21.7731,防城港市,防城档案局,颗粒物(PM10),51,51,60,20,27,55,,21,21,12,24,8,8,0.7,0.7
2024-09-20T1000,2501A,108.3506,21.6414,防城港市,大海花园,,28,28,34,17,21,57,,35,35,10,15,8,6,0.7,0.8
2024-09-20T1000,1371A,113.1294,23.0067,佛山市,湾梁,,31,31,30,15,15,61,,39,34,32,29,8,7,0.7,0.7
2024-09-20T1000,1372A,113.1083,23.0478,佛山市,华材职中,,31,31,32,17,16,65,,31,27,24,31,7,7,0.5,0.5
2024-09-20T1000,1373A,113.144,23.0453,佛山市,南海气象局,,42,42,29,15,17,66,,33,30,16,23,7,6,0.5,0.5
2024-09-20T1000,1374A,113.2881,22.8094,佛山市,顺德苏岗,,22,22,32,14,18,57,,27,27,31,21,14,8,0.8,0.7
2024-09-20T1000,1376A,112.8383,22.8678,佛山市,高明孔堂,,46,46,43,30,22,50,,54,43,48,21,10,6,0.6,0.5
2024-09-20T1000,1377A,112.8836,23.1588,佛山市,三水监测站,,40,36,33,28,21,70,,27,25,21,27,10,8,0.5,0.5
2024-09-20T1000,1378A,112.867,23.185,佛山市,三水云东海,,33,28,30,23,22,68,,19,19,20,24,13,11,0.6,0.6
2024-09-20T1000,3625A,113.2544,22.7642,佛山市,容桂街道办,,28,19,25,19,20,73,,37,37,26,24,14,8,0.7,0.7
2024-09-20T1000,1282A,119.2681,26.0504,福州市,师大,,25,25,21,7,8,58,,23,23,6,10,1,2,0.4,0.4
2024-09-20T1000,1283A,119.2984,26.1028,福州市,五四北路,,21,21,21,9,9,63,,,,6,6,3,3,0.4,0.4
2024-09-20T1000,1284A,119.2648,26.0768,福州市,杨桥西路,,20,16,18,7,5,62,,19,19,6,12,3,3,0.4,0.4
2024-09-20T1000,1285A,119.317,26.0746,福州市,紫阳,,24,24,17,14,3,46,,16,16,16,14,2,2,0.1,0.1
2024-09-20T1000,3048A,119.5799,26.0936,福州市,九龙,,39,39,18,12,5,50,,14,14,13,7,7,5,0.5,0.4
2024-09-20T1000,3526A,119.5189,25.9664,福州市,吴航,,22,22,16,14,9,56,,16,16,9,9,6,6,0.3,0.3
2024-09-20T1000,1755A,123.7977,41.8491,抚顺市,望花区,,19,19,45,3,17,46,,44,44,9,20,6,8,0.2,0.7
2024-09-20T1000,1756A,123.9161,41.8822,抚顺市,顺城区,,15,13,38,6,14,46,,45,44,12,22,5,6,0.2,0.6
2024-09-20T1000,1757A,124.0436,41.8611,抚顺市,东洲区,,13,13,29,3,11,38,,42,40,8,11,9,9,0.3,0.6
2024-09-20T1000,1758A,123.9247,41.8642,抚顺市,新抚区,,15,10,37,7,16,46,,48,46,13,21,3,4,0.1,0.5
2024-09-20T1000,1759A,124.0972,41.8961,抚顺市,大伙房水库,,14,8,29,3,10,42,,46,44,5,8,6,6,0.3,0.5
2024-09-20T1000,1760A,123.7086,41.8391,抚顺市,沈抚新城,,,12,47,3,18,,,44,44,9,25,7,11,0.1,0.6
2024-09-20T1000,2376A,116.2127,28.0814,抚州市,桐源党溪,,35,35,37,16,20,43,,28,28,3,4,5,6,0.7,0.6
2024-09-20T1000,2377A,116.3544,27.9831,抚州市,市站,,,42,36,24,22,42,,42,40,,8,1,2,0.9,0.8
2024-09-20T1000,2378A,116.3565,27.963,抚州市,血防站,,40,40,38,24,22,41,,39,38,10,11,2,4,0.9,0.9
2024-09-20T1000,2379A,116.3564,28.0007,抚州市,采茶剧团,,,33,34,25,21,,,33,32,6,7,6,6,,0.8
2024-09-20T1000,2380A,116.385,27.9647,抚州市,医学分院,,46,46,36,22,20,41,,36,34,10,9,4,5,1.1,1
2024-09-20T1000,2207A,121.6094,41.998,阜新市,工业园区,,,7,30,3,12,49,,62,58,,10,6,10,0.5,0.6
2024-09-20T1000,2208A,121.6697,42.0279,阜新市,长青街,,15,6,29,3,12,45,,57,52,8,8,5,10,0.4,0.5
2024-09-20T1000,2209A,121.6673,42.0705,阜新市,农业园区,,16,6,25,3,10,50,,57,53,8,9,6,8,0.3,0.4
2024-09-20T1000,2210A,121.6717,42.0224,阜新市,东苑,,16,6,31,3,9,51,,58,55,6,10,7,14,0.5,0.6
2024-09-20T1000,2211A,121.6506,42.0498,阜新市,玉龙新城,,17,6,27,3,12,52,,63,58,10,11,8,11,0.5,0.5
2024-09-20T1000,2301A,115.8277,32.8929,阜阳市,市监测站,,,23,23,19,20,,,19,19,,10,,7,0.4,0.5
2024-09-20T1000,2303A,115.8554,32.8605,阜阳市,开发区,,30,,30,21,16,40,,25,25,8,11,7,6,0.4,0.4
2024-09-20T1000,2875A,115.784,32.8892,阜阳市,阜阳职业技术学院,,24,24,27,11,14,38,,25,25,8,9,8,6,0.4,0.3
2024-09-20T1000,3468A,115.7901,32.8613,阜阳市,市规划展馆,,36,36,35,14,12,40,,28,28,9,12,7,7,0.4,0.4
2024-09-20T1000,3469A,115.836,32.9183,阜阳市,枣园社区,,50,50,32,14,12,34,,19,19,7,12,7,6,0.5,0.5
2024-09-20T1000,2669A,102.9099,34.9841,甘南藏族自治州,州政府,,28,18,19,16,16,88,,81,81,6,5,8,9,0.3,0.3
2024-09-20T1000,3380A,102.8914,34.9617,甘南藏族自治州,甘肃民族师范学院,,26,,13,10,9,83,,80,80,7,5,3,4,0.5,0.5
2024-09-20T1000,2570A,101.9603,30.0475,甘孜藏族自治州,水桥子,,29,29,24,13,9,26,,7,7,32,17,5,5,0.4,0.3
2024-09-20T1000,3065A,101.9533,29.9972,甘孜藏族自治州,州环保局,,26,26,20,3,5,30,,12,12,29,22,3,3,0.3,0.3
2024-09-20T1000,3414A,115.8347,28.932,赣江新区,桑海产业园,,29,29,28,17,16,62,,68,68,9,8,14,13,0.7,0.5
2024-09-20T1000,2363A,114.9367,25.8664,赣州市,地委,,24,14,24,14,20,76,,44,44,6,7,10,9,0.8,0.8
2024-09-20T1000,2364A,114.9461,25.8481,赣州市,气象台,,26,26,25,11,16,66,,45,45,8,8,4,6,0.8,0.8
2024-09-20T1000,2365A,114.9322,25.8333,赣州市,市图书馆,,24,21,27,11,16,76,,51,51,6,6,3,4,0.6,0.6
2024-09-20T1000,2366A,114.8905,25.8471,赣州市,华坚鞋城,,,12,25,,16,,,45,45,8,7,,2,0.3,0.4
2024-09-20T1000,3109A,115.0093,25.8613,赣州市,赣县区卫计委,,40,40,24,7,14,66,,33,33,9,8,8,7,0.6,0.7
2024-09-20T1000,2683A,106.2319,36.1417,固原市,马园,,18,6,109,3,34,57,,61,59,9,12,6,6,0.7,0.8
2024-09-20T1000,2684A,106.2792,36.0022,固原市,监测站,,17,,83,10,32,53,,59,55,8,8,4,4,0.4,0.3
2024-09-20T1000,2685A,106.2375,36.0211,固原市,新区,,30,,86,21,36,60,,64,60,5,7,6,5,0.3,0.4
2024-09-20T1000,3522A,106.2177,35.9959,固原市,原州区十五小,,20,10,60,8,31,61,,69,65,6,8,4,5,0.4,0.5
2024-09-20T1000,2544A,106.6303,30.4576,广安市,市委,,45,45,33,31,25,103,,70,70,13,16,3,4,0.5,0.4
2024-09-20T1000,2545A,106.6271,30.4663,广安市,友谊中学,,45,41,36,31,26,101,,69,69,17,20,5,4,0.6,0.5
2024-09-20T1000,2547A,106.6388,30.4551,广安市,广电花园,颗粒物(PM10),51,52,37,29,24,100,,65,65,16,16,3,2,0.5,0.4
2024-09-20T1000,2902A,106.6351,30.4865,广安市,北辰小学,颗粒物(PM10),55,59,40,32,25,99,,75,75,13,13,7,6,0.5,0.4
2024-09-20T1000,2523A,105.8945,32.4535,广元市,黑石坡,,46,46,34,28,30,33,,32,29,12,13,8,10,0.5,0.6
2024-09-20T1000,2524A,105.821,32.4444,广元市,老城,,20,14,36,14,23,53,,25,25,11,28,1,7,0.7,1
2024-09-20T1000,2526A,105.8628,32.4287,广元市,监测站,,34,34,38,8,30,43,,22,22,19,18,4,11,0.8,1
2024-09-20T1000,3617A,105.8047,32.4166,广元市,经开区,,,36,50,23,31,,,9,9,21,24,,10,0.9,0.9
2024-09-20T1000,1345A,113.2347,23.1423,广州市,广雅中学,,25,25,25,13,13,74,,27,27,17,30,6,6,0.7,0.7
2024-09-20T1000,1346A,113.2612,23.105,广州市,市五中,,32,29,28,22,19,72,,34,34,19,26,5,4,0.7,0.7
2024-09-20T1000,1348A,113.3478,23.0916,广州市,广东商学院,,32,32,30,19,17,59,,15,15,23,33,4,5,0.6,0.6
2024-09-20T1000,1349A,113.4332,23.1047,广州市,市八十六中,,26,26,30,15,16,58,,19,19,20,32,4,4,0.6,0.6
2024-09-20T1000,1350A,113.3505,22.9483,广州市,番禺中学,,30,30,30,20,18,63,,33,31,31,25,9,7,0.7,0.6
2024-09-20T1000,1351A,113.2146,23.3916,广州市,花都师范,,32,32,32,18,16,56,,23,23,13,20,5,4,0.8,0.7
2024-09-20T1000,1352A,113.2597,23.1331,广州市,市监测站,,30,30,27,18,16,62,,25,25,18,25,6,6,0.7,0.6
2024-09-20T1000,1353A,113.5618,23.312,广州市,九龙镇镇龙,,,30,30,18,17,,,22,18,9,15,8,7,0.6,0.6
2024-09-20T1000,1354A,113.2765,23.1544,广州市,麓湖,,30,30,31,18,17,68,,16,16,16,30,5,5,0.5,0.6
2024-09-20T1000,1355A,113.443,23.3035,广州市,帽峰山森林公园,,20,19,16,14,11,60,,34,34,11,8,7,6,0.5,0.5
2024-09-20T1000,2846A,113.3221,23.1322,广州市,体育西,,,,29,,17,,,22,22,11,22,,6,0.5,0.5
2024-09-20T1000,3298A,113.5717,23.5491,广州市,从化街口,,25,25,25,14,13,42,,9,9,11,14,8,8,0.6,0.6
2024-09-20T1000,3299A,113.3472,23.3692,广州市,白云竹料,,30,30,34,18,20,41,,22,19,17,17,4,4,0.6,0.5
2024-09-20T1000,3300A,113.2981,23.237,广州市,白云嘉禾,,35,35,34,19,17,52,,22,22,29,34,6,6,0.8,0.7
2024-09-20T1000,3301A,113.4256,23.1716,广州市,黄埔科学城,,26,26,26,17,16,61,,20,20,12,17,8,8,0.6,0.6
2024-09-20T1000,3302A,113.3942,23.0483,广州市,番禺大学城,,31,31,30,21,16,47,,15,15,32,28,10,9,0.6,0.5
2024-09-20T1000,3303A,113.4922,22.8168,广州市,南沙黄阁,,48,48,39,19,21,77,,20,20,41,33,5,5,0.6,0.6
2024-09-20T1000,3304A,113.5342,22.7896,广州市,南沙街,,30,30,34,21,20,75,,21,21,31,25,9,8,0.7,0.6
2024-09-20T1000,3443A,113.2902,23.5544,广州市,花都梯面,,25,25,26,17,15,57,,25,25,6,15,8,6,0.6,0.6
2024-09-20T1000,3445A,113.7858,23.7478,广州市,从化良口,,,22,20,16,12,,,16,16,6,8,6,6,0.7,0.7
2024-09-20T1000,3446A,113.8051,23.2614,广州市,增城荔城,,26,26,23,18,14,49,,19,19,12,12,6,5,0.6,0.5
2024-09-20T1000,2506A,109.6047,23.0666,贵港市,江南子站,颗粒物(PM10),54,58,48,33,26,40,,14,14,28,21,14,9,1.1,0.7
2024-09-20T1000,2507A,109.6014,23.0948,贵港市,贵城子站,,49,49,43,29,25,58,,25,25,13,17,9,7,0.7,0.6
2024-09-20T1000,2508A,109.5669,23.1065,贵港市,荷城子站,,44,44,39,22,17,47,,21,19,18,18,13,10,0.6,0.6
2024-09-20T1000,3405A,109.5886,23.1172,贵港市,新世纪学校,,46,46,27,28,18,47,,49,47,13,5,8,7,0.8,0.7
2024-09-20T1000,1439A,106.6899,26.5998,贵阳市,马鞍山,,26,14,20,3,9,82,,29,29,7,12,3,2,0.6,0.5
2024-09-20T1000,1440A,106.6971,26.5694,贵阳市,市环保站,,27,22,26,15,20,84,,51,51,8,15,3,3,0.4,0.4
2024-09-20T1000,1441A,106.6243,26.6266,贵阳市,鉴湖路,,,22,24,12,12,79,,51,51,8,10,4,4,,0.4
2024-09-20T1000,1442A,106.7487,26.6343,贵阳市,燕子冲,,26,19,19,17,19,83,,23,23,7,15,6,6,0.4,0.4
2024-09-20T1000,1443A,106.6555,26.4365,贵阳市,碧云窝,颗粒物(PM10),53,56,40,14,17,78,,18,18,14,14,4,4,0.4,0.3
2024-09-20T1000,1444A,106.694,26.5161,贵阳市,中院村,,27,27,32,12,18,79,,34,34,8,21,5,6,0.8,0.7
2024-09-20T1000,1445A,106.7109,26.6027,贵阳市,红边门,,28,22,31,19,23,77,,35,35,11,21,5,3,0.6,0.5
2024-09-20T1000,1446A,106.7164,26.5699,贵阳市,新华路,,25,14,21,14,17,80,,48,48,9,16,2,3,0.5,0.5
2024-09-20T1000,1447A,106.674,26.5424,贵阳市,太慈桥,,25,14,22,9,11,80,,34,34,8,18,4,5,0.4,0.4
2024-09-20T1000,1862A,110.4144,25.3167,桂林市,电子科大尧山校区,,36,36,38,17,22,86,,,,6,6,3,5,0.9,0.8
2024-09-20T1000,1863A,110.2819,25.2697,桂林市,监测站,,32,30,37,22,26,67,,76,71,12,9,7,7,0.7,0.6
2024-09-20T1000,1864A,110.3089,25.2708,桂林市,龙隐路小学,,38,38,34,24,24,71,,77,74,8,6,7,10,0.6,0.6
2024-09-20T1000,1865A,110.2869,25.2178,桂林市,八中,,33,33,34,22,23,74,,77,74,9,9,8,9,0.6,0.5
2024-09-20T1000,3403A,110.1764,25.2381,桂林市,创业大厦,,39,36,34,27,29,63,,70,66,9,8,8,10,0.5,0.5
2024-09-20T1000,3531A,110.296,25.1253,桂林市,旅游学院,,35,29,31,24,23,78,,72,72,7,8,8,9,0.5,0.4
2024-09-20T1000,2674A,100.2561,34.4714,果洛藏族自治州,玛沁县大武镇,,32,,9,12,9,100,,90,90,2,2,12,7,0.4,0.4
2024-09-20T1000,1129A,126.5422,45.755,哈尔滨市,岭北,,18,15,12,7,5,56,,58,57,15,9,6,7,0.8,0.6
2024-09-20T1000,1130A,126.561,45.8167,哈尔滨市,松北商大,,28,28,22,3,6,29,,26,24,20,14,8,8,0.3,0.3
2024-09-20T1000,1131A,126.979,45.5419,哈尔滨市,阿城会宁,,27,27,27,14,8,20,,22,20,15,13,10,12,0.5,0.7
2024-09-20T1000,1132A,126.599,45.7222,哈尔滨市,南岗学府路,,32,32,33,3,6,27,,33,29,22,11,6,7,0.4,0.3
2024-09-20T1000,1133A,126.689,45.7733,哈尔滨市,太平宏伟公园,,,,27,,8,,,23,20,18,14,,6,,0.3
2024-09-20T1000,1134A,126.635,45.7667,哈尔滨市,道外承德广场,,23,23,35,3,6,28,,31,28,21,14,4,5,0.9,0.7
2024-09-20T1000,1135A,126.685,45.7319,哈尔滨市,香坊红旗大街,,29,29,35,6,5,26,,30,26,27,13,7,5,0.4,0.4
2024-09-20T1000,1136A,126.6411,45.7258,哈尔滨市,动力和平路,,30,30,21,3,5,26,,29,25,24,13,8,7,0.5,0.4
2024-09-20T1000,1137A,126.593,45.7478,哈尔滨市,道里建国路,,21,21,21,3,5,34,,40,36,14,6,5,6,0.4,0.4
2024-09-20T1000,1138A,126.615,45.61,哈尔滨市,平房东轻厂,,48,48,33,3,7,15,,17,14,36,21,7,6,0.5,0.4
2024-09-20T1000,1139A,126.595,45.9855,哈尔滨市,呼兰师专,,20,20,19,3,6,28,,30,28,17,13,9,9,0.6,0.6
2024-09-20T1000,1140A,126.6206,45.6842,哈尔滨市,省农科院,,24,24,44,3,5,21,,24,20,27,15,6,6,0.7,0.5
2024-09-20T1000,2688A,93.5128,42.8172,哈密市,地区监测站,颗粒物(PM10),98,146,81,39,22,59,,53,40,44,26,16,5,1.6,0.3
2024-09-20T1000,2689A,93.4961,42.8328,哈密市,哈密师范学校,颗粒物(PM10),91,132,70,33,19,44,,47,36,48,25,10,5,1.3,0.4
2024-09-20T1000,2671A,100.9048,36.9639,海北藏族自治州,海晏县西海镇,,24,18,20,13,19,74,,71,71,9,10,15,14,0.6,0.5
2024-09-20T1000,3867A,102.0738,36.5056,海东市,平安区公安北苑,,22,22,29,12,16,50,,64,59,16,13,6,11,0.5,0.5
2024-09-20T1000,1410A,110.3232,20.0574,海口市,海南大学,,16,16,20,7,7,45,,38,38,4,5,5,5,0.4,0.4
2024-09-20T1000,1411A,110.283,20.0053,海口市,秀英海南医院,,15,11,16,3,6,46,,38,38,7,7,4,4,0.3,0.3
2024-09-20T1000,1412A,110.338,19.9969,海口市,海南师范大学,,15,13,17,6,6,45,,36,36,7,7,6,6,0.4,0.3
2024-09-20T1000,1413A,110.33,20.0356,海口市,龙华路环保局宿舍,,15,14,18,6,7,46,,38,38,4,5,3,3,0.3,0.3
2024-09-20T1000,3539A,110.5111,19.9736,海口市,桂林洋子站,,14,9,16,3,6,44,,34,34,3,4,5,5,0.3,0.3
2024-09-20T1000,2673A,100.6188,36.2866,海南藏族自治州,共和县恰卜恰镇,,22,18,24,7,9,69,,73,73,12,7,18,16,0.6,0.5
2024-09-20T1000,2676A,97.3731,37.3753,海西蒙古族藏族自治州,德令哈市,,32,,38,22,17,92,,86,84,12,8,8,8,0.5,0.5
2024-09-20T1000,1048A,114.5302,36.6116,邯郸市,东污水处理厂,颗粒物(PM10),64,77,56,41,30,56,,18,18,30,25,9,3,1.3,0.7
2024-09-20T1000,1049A,114.4918,36.5713,邯郸市,矿院,细颗粒物(PM2.5),64,73,58,46,34,86,,21,21,19,21,19,4,2.0,0.6
2024-09-20T1000,1050A,114.484,36.6133,邯郸市,丛台公园,,,67,50,41,30,,,13,13,15,18,16,5,1.9,0.8
2024-09-20T1000,3458A,114.7895,36.5593,邯郸市,香泉濮院小区,颗粒物(PM10),63,75,60,39,33,66,,26,26,22,26,4,2,0.4,0.4
2024-09-20T1000,3579A,114.50634,36.77178,邯郸市,永年区实验高中,细颗粒物(PM2.5),69,56,52,50,38,82,,22,22,18,24,8,3,1.0,0.6
2024-09-20T1000,3580A,114.20016,36.44293,邯郸市,峰峰矿区临水派出所,,45,45,33,31,26,111,,76,76,10,6,9,4,1.2,0.7
2024-09-20T1000,2634A,106.9893,33.1842,汉中市,汉川机床厂子校,,23,16,24,12,16,73,,51,50,4,6,4,4,0.6,0.6
2024-09-20T1000,2635A,107.0154,33.0706,汉中市,市监测站,,26,23,32,18,20,70,,43,43,6,7,8,8,0.6,0.6
2024-09-20T1000,2636A,107.0089,33.1138,汉中市,鑫源开发区,,29,29,30,13,18,74,,45,45,5,9,9,9,0.5,0.5
2024-09-20T1000,2637A,107.007,33.0323,汉中市,南郑大河坎水厂,,24,24,37,16,24,70,,34,34,6,10,8,8,0.5,0.5
2024-09-20T1000,1223A,120.2072,30.2111,杭州市,滨江,,,21,20,9,9,,,14,14,13,12,5,4,0.7,0.6
2024-09-20T1000,1224A,120.0633,30.2747,杭州市,西溪,,19,19,22,8,7,20,,6,6,14,19,5,6,0.7,0.6
2024-09-20T1000,1226A,120.3461,30.3153,杭州市,下沙,,18,18,22,9,8,24,,20,20,19,20,7,6,0.6,0.5
2024-09-20T1000,1227A,120.1269,30.2456,杭州市,卧龙桥,,18,15,16,12,9,24,,13,13,14,14,5,5,0.5,0.5
2024-09-20T1000,1228A,120.1903,30.2692,杭州市,浙江农大,,14,14,17,7,9,24,,16,15,15,18,7,8,0.6,0.5
2024-09-20T1000,1230A,120.1197,30.3119,杭州市,和睦小学,,15,15,17,9,9,27,,16,15,12,16,6,6,0.6,0.5
2024-09-20T1000,1231A,120.3019,30.4183,杭州市,临平镇,,24,24,19,6,8,26,,17,15,12,10,4,4,0.8,0.7
2024-09-20T1000,1232A,120.2697,30.1819,杭州市,城厢镇,,,18,20,11,10,,,16,15,13,13,6,6,0.8,0.8
2024-09-20T1000,1233A,120.0883,30.1808,杭州市,云栖,,12,12,14,7,7,22,,6,6,15,10,7,7,0.7,0.6
2024-09-20T1000,3557A,119.9464,30.0494,杭州市,镇二中,,25,,17,17,16,28,,12,12,12,15,8,8,0.7,0.7
2024-09-20T1000,3558A,119.7183,30.2367,杭州市,市府大楼,,15,13,12,10,7,28,,16,16,11,12,5,5,0.6,0.6
2024-09-20T1000,3656A,120.1556,30.2864,杭州市,消防大队,,20,20,19,9,9,24,,17,17,9,12,8,8,0.8,0.8
2024-09-20T1000,1270A,117.1959,31.7848,合肥市,明珠广场,,19,19,17,7,7,20,,18,18,10,9,5,5,0.7,0.6
2024-09-20T1000,1271A,117.3072,31.8764,合肥市,三里街,,,,19,,8,,,17,17,8,7,6,6,0.3,0.3
2024-09-20T1000,1272A,117.2588,31.8707,合肥市,琥珀山庄,,24,24,20,11,8,25,,21,21,6,7,6,7,0.3,0.3
2024-09-20T1000,1273A,117.1604,31.9052,合肥市,董铺水库,,29,29,21,9,11,21,,19,19,8,6,2,2,0.2,0.2
2024-09-20T1000,1274A,117.25,31.8571,合肥市,长江中路,,29,29,26,14,14,21,,17,17,8,8,8,8,0.0,0.1
2024-09-20T1000,1275A,117.266,31.9436,合肥市,庐阳区,,22,22,22,9,7,28,,25,25,6,8,6,5,0.4,0.4
2024-09-20T1000,1276A,117.336,31.8586,合肥市,瑶海区,,24,24,22,13,11,20,,18,18,15,9,7,7,0.4,0.4
2024-09-20T1000,1277A,117.3027,31.7964,合肥市,包河区,,25,19,19,17,14,19,,18,18,12,14,5,5,0.4,0.4
2024-09-20T1000,1278A,117.2776,31.7385,合肥市,滨湖新区,,25,22,19,17,12,20,,17,16,11,10,6,6,0.5,0.4
2024-09-20T1000,1279A,117.1318,31.8403,合肥市,高新区,,22,22,19,11,9,22,,16,16,8,10,7,7,0.5,0.6
2024-09-20T1000,3464A,117.3803,31.9147,合肥市,高教基地,,21,21,20,10,9,21,,18,18,8,6,4,4,0.3,0.3
2024-09-20T1000,3614A,79.924,37.0877,和田地区,地区环保局,颗粒物(PM10),150,249,243,58,68,44,,53,51,21,16,9,7,0.7,0.6
2024-09-20T1000,3615A,79.9131,37.113,和田地区,市环保局,颗粒物(PM10),192,333,230,98,70,24,,28,26,41,28,9,7,0.6,0.6
2024-09-20T1000,2516A,108.2011,24.715,河池市,东仁乐园,,41,41,37,21,27,78,,20,20,6,12,6,5,0.7,0.7
2024-09-20T1000,2517A,108.0497,24.6947,河池市,市环保站,,42,42,32,17,21,57,,24,24,13,13,15,11,0.6,0.6
2024-09-20T1000,2518A,108.0983,24.6989,河池市,市疾控中心,,39,39,34,18,22,66,,20,20,12,17,13,10,0.6,0.9
2024-09-20T1000,1696A,114.6778,23.7569,河源市,源西,,25,25,21,16,12,55,,19,19,14,12,5,4,0.6,0.5
2024-09-20T1000,1697A,114.6944,23.7586,河源市,东埔,,28,28,20,14,12,53,,21,21,14,15,4,3,0.7,0.6
2024-09-20T1000,1698A,114.6892,23.7233,河源市,老城,,24,24,22,16,10,56,,22,22,9,10,5,3,0.7,0.6
2024-09-20T1000,1718A,115.4208,35.2464,菏泽市,气象局,,48,48,78,23,45,68,,34,34,10,14,7,5,0.3,0.4
2024-09-20T1000,1719A,115.4747,35.2375,菏泽市,市政协,颗粒物(PM10),53,55,72,27,49,64,,33,33,11,14,13,8,0.3,0.4
2024-09-20T1000,3374A,115.5564,35.0891,菏泽市,定陶老年大学,,36,36,66,19,39,65,,34,34,8,16,10,7,0.4,0.6
2024-09-20T1000,3647A,115.4702,35.2706,菏泽市,菏泽医专,,44,44,72,23,58,70,,32,32,13,16,11,8,0.5,0.6
2024-09-20T1000,2514A,111.5264,24.4172,贺州市,环保小区,,45,45,43,20,23,70,,52,52,10,12,5,5,0.7,0.7
2024-09-20T1000,2515A,111.5608,24.4078,贺州市,政协大楼,,,,41,,25,71,,51,51,11,14,,7,0.7,0.6
2024-09-20T1000,3534A,111.4744,24.4553,贺州市,西湾,,38,38,39,17,24,66,,44,44,9,11,6,6,0.7,0.6
2024-09-20T1000,2385A,114.17,35.9019,鹤壁市,市监测站,,,44,54,27,32,,,40,38,,19,5,4,0.8,1.1
2024-09-20T1000,2386A,114.2956,35.7511,鹤壁市,市交警支队,,48,46,47,33,26,100,,58,58,18,22,10,4,1.3,0.9
2024-09-20T1000,2387A,114.2878,35.7306,鹤壁市,迎宾馆,颗粒物(PM10),52,54,50,20,28,103,,60,60,18,22,12,6,1.4,1
2024-09-20T1000,3474A,114.2617,35.6822,鹤壁市,大新区,,,72,43,,,101,,58,58,16,16,10,6,1.4,1
2024-09-20T1000,3596A,114.1572,35.9603,鹤壁市,南山宾馆,,30,18,41,12,26,96,,88,85,6,7,5,3,0.7,0.8
2024-09-20T1000,2244A,130.2537,47.3416,鹤岗市,哈啤分公司,,20,15,21,14,15,46,,37,37,2,2,14,13,0.5,0.4
2024-09-20T1000,2245A,130.2684,47.3086,鹤岗市,斯达机电,,15,13,23,9,16,45,,35,35,4,6,11,12,0.3,0.3
2024-09-20T1000,2246A,130.3114,47.3388,鹤岗市,东山纸板厂,,30,30,25,19,15,45,,30,30,3,5,16,16,0.7,0.8
2024-09-20T1000,2247A,130.1097,47.3382,鹤岗市,五号水库,,16,13,12,3,7,50,,45,45,3,3,16,16,0.3,0.3
2024-09-20T1000,2263A,127.4833,50.2524,黑河市,交通局,,15,14,15,8,14,47,,39,39,7,8,7,8,0.2,0.3
2024-09-20T1000,2264A,127.5144,50.2341,黑河市,环保局,,17,,17,9,13,52,,43,43,3,8,3,6,0.4,0.4
2024-09-20T1000,1074A,115.6838,37.7541,衡水市,电机北厂,细颗粒物(PM2.5),52,47,46,36,32,44,,20,20,16,20,6,5,0.4,0.4
2024-09-20T1000,1075A,115.6303,37.7316,衡水市,市监测站,颗粒物(PM10),60,70,52,33,27,60,,23,23,23,23,8,6,0.5,0.4
2024-09-20T1000,3188A,115.6683,37.7217,衡水市,市城管局,颗粒物(PM10),52,53,50,32,31,59,,31,31,17,17,3,5,0.5,0.5
2024-09-20T1000,3459A,115.5989,37.5491,衡水市,地表水厂,,48,39,38,33,26,47,,25,25,13,18,6,5,0.5,0.4
2024-09-20T1000,2456A,112.5003,26.9167,衡阳市,原169医院,,46,46,38,23,22,54,,62,58,8,8,13,11,0.8,0.7
2024-09-20T1000,2457A,112.6194,26.9258,衡阳市,衡阳化工总厂,,,49,37,,,52,,56,52,11,7,8,10,0.8,0.7
2024-09-20T1000,2458A,112.6211,26.8956,衡阳市,珠晖区环保局,,,49,34,,,55,,61,58,8,8,7,6,0.9,0.8
2024-09-20T1000,2459A,112.6197,26.8733,衡阳市,市委党校,颗粒物(PM10),52,53,35,32,24,62,,64,60,10,8,8,8,0.9,0.8
2024-09-20T1000,2460A,112.6006,26.8919,衡阳市,市监测站,,,48,34,38,28,,,63,58,9,7,,8,0.8,0.8
2024-09-20T1000,2461A,112.5664,26.9056,衡阳市,真空机电公司,颗粒物(PM10),54,58,37,32,28,54,,60,55,6,5,7,7,0.9,0.9
2024-09-20T1000,3399A,112.6703,26.882,衡阳市,师范学院,,,52,34,22,21,,,62,57,12,8,8,7,0.9,0.8
2024-09-20T1000,2608A,103.3772,23.3993,红河哈尼族彝族自治州,污水处理厂,,38,33,26,26,18,41,,24,24,17,12,39,12,0.6,0.4
2024-09-20T1000,2609A,103.3861,23.35,红河哈尼族彝族自治州,监测站,颗粒物(PM10),69,87,30,24,20,51,,34,34,20,13,28,12,0.5,0.4
2024-09-20T1000,3038A,103.3758,23.368,红河哈尼族彝族自治州,州图书馆,颗粒物(PM10),51,51,27,20,17,57,,29,29,18,13,41,14,0.6,0.3
2024-09-20T1000,1090A,111.6507,40.7517,呼和浩特市,呼市一监,,17,,30,3,15,53,,66,60,5,9,6,7,0.4,0.6
2024-09-20T1000,1091A,111.6572,40.8033,呼和浩特市,小召,,,,39,1,16,60,,68,63,9,15,6,7,0.4,0.7
2024-09-20T1000,1094A,111.7516,40.8369,呼和浩特市,如意水处理厂,,18,6,33,3,18,56,,66,64,7,15,5,6,0.3,0.6
2024-09-20T1000,1095A,111.7276,40.8062,呼和浩特市,二十九中,,19,6,33,3,18,59,,70,69,9,18,4,5,0.4,0.7
2024-09-20T1000,1096A,111.5512,40.7866,呼和浩特市,工大金川校区,,19,10,33,3,16,58,,66,62,11,16,2,3,0.3,0.6
2024-09-20T1000,1097A,111.717,40.7612,呼和浩特市,化肥厂生活区,,,6,31,3,15,,,76,73,8,13,8,9,0.2,0.5
2024-09-20T1000,3698A,111.5968,40.8178,呼和浩特市,红旗小学,,18,,30,3,16,57,,67,61,9,16,3,5,0.3,0.6
2024-09-20T1000,3699A,111.6518,40.8389,呼和浩特市,海东办,,21,6,30,3,18,67,,67,64,7,16,5,5,0.3,0.6
2024-09-20T1000,2192A,119.7594,49.2261,呼伦贝尔市,区环保局,,,31,22,19,16,,,20,18,16,14,8,7,0.4,0.4
2024-09-20T1000,3061A,119.7512,49.1577,呼伦贝尔市,国华电力东,,39,39,25,18,16,41,,25,25,20,9,7,4,0.5,0.3
2024-09-20T1000,1250A,120.0751,30.8669,湖州市,城西水厂,,13,12,18,9,14,30,,18,18,9,11,4,4,0.3,0.3
2024-09-20T1000,2873A,120.0875,30.8955,湖州市,仁皇山新区,,12,12,18,6,9,19,,6,6,7,9,5,6,0.4,0.4
2024-09-20T1000,2907A,120.1844,30.8596,湖州市,吴兴区站,,17,17,17,11,9,17,,7,7,12,10,5,5,0.4,0.4
2024-09-20T1000,1607A,120.9092,40.7136,葫芦岛市,龙港区,,21,17,33,3,20,67,,60,60,16,14,13,21,0.3,0.7
2024-09-20T1000,1608A,120.8392,40.7514,葫芦岛市,化工街,,23,17,37,3,10,71,,60,60,9,15,15,14,0.3,0.6
2024-09-20T1000,1609A,120.8341,40.7073,葫芦岛市,新区,,27,27,35,3,14,74,,63,63,13,18,11,12,0.3,0.6
2024-09-20T1000,1610A,120.8695,40.7677,葫芦岛市,东城区,,22,15,34,3,16,70,,59,59,6,14,8,10,0.3,0.6
2024-09-20T1000,2482A,109.5981,27.5721,怀化市,林科所,,38,38,25,23,16,72,,78,74,10,9,6,6,0.5,0.3
2024-09-20T1000,2483A,109.9453,27.5444,怀化市,河西地税局,,,48,33,32,20,,,77,77,10,10,8,8,,0.7
2024-09-20T1000,2484A,109.9781,27.5342,怀化市,市四医院,,45,36,26,31,20,80,,71,70,7,6,7,8,0.7,0.6
2024-09-20T1000,2485A,109.9972,27.5578,怀化市,监测楼,,49,49,35,26,19,78,,64,64,8,7,5,5,0.7,0.6
2024-09-20T1000,2486A,110.0394,27.583,怀化市,市委党校,,48,44,32,33,21,73,,66,66,7,7,13,15,0.8,0.6
2024-09-20T1000,1210A,119.036,33.5981,淮安市,钵池山,,10,7,12,7,8,31,,26,24,7,8,7,7,0.6,0.5
2024-09-20T1000,1211A,119.007,33.575,淮安市,北京南路,,14,14,14,8,9,28,,23,21,5,6,6,6,0.4,0.4
2024-09-20T1000,1212A,118.989,33.6067,淮安市,市监测站,,14,14,15,7,9,33,,29,27,8,9,6,6,0.4,0.4
2024-09-20T1000,1213A,119.135,33.5039,淮安市,楚州区监测站,,24,24,24,3,7,29,,23,22,6,7,6,6,0.5,0.5
2024-09-20T1000,1214A,119.0186,33.6297,淮安市,淮阴区监测站,,14,14,18,9,10,33,,27,25,7,10,3,3,0.3,0.3
2024-09-20T1000,3426A,118.8755,33.2894,淮安市,新华书店,,,17,17,11,10,41,,20,19,,14,,7,0.3,0.3
2024-09-20T1000,2282A,116.8004,33.975,淮北市,监测站,,32,32,26,9,10,43,,26,26,6,7,8,7,0.6,0.5
2024-09-20T1000,2283A,116.8091,33.9007,淮北市,烈山区政府,,30,30,23,12,12,48,,27,27,5,5,8,6,0.6,0.5
2024-09-20T1000,3330A,116.8873,33.9836,淮北市,杜集区检察院,,34,34,27,14,13,45,,24,24,9,8,10,8,0.6,0.5
2024-09-20T1000,4017A,116.7923,33.9535,淮北市,市博物馆,,21,21,23,12,13,44,,25,25,8,10,5,4,0.7,0.6
2024-09-20T1000,2277A,116.8305,32.7727,淮南市,潘集区政府,,23,23,24,12,13,34,,24,24,5,11,6,6,0.3,0.3
2024-09-20T1000,2278A,117.0067,32.6524,淮南市,师范学院,,38,32,30,26,18,29,,23,23,2,6,8,8,0.1,0.1
2024-09-20T1000,2279A,116.8569,32.5951,淮南市,谢家集区政府,,26,23,20,18,16,26,,19,19,8,10,10,7,0.3,0.3
2024-09-20T1000,2280A,116.8281,32.633,淮南市,八公山区政府,,,38,32,18,13,22,,18,18,7,9,,7,0.2,0.2
2024-09-20T1000,2281A,116.6325,32.6201,淮南市,焦岗湖风景区管理处,,15,15,18,7,7,17,,14,14,2,3,5,4,0,0
2024-09-20T1000,2894A,117.0566,32.6531,淮南市,经济技术开发区消防队,,22,22,21,3,6,26,,19,19,7,10,4,5,0.2,0.2
2024-09-20T1000,3329A,117.0108,32.5893,淮南市,山南新区,,33,33,26,11,6,27,,24,24,8,10,5,6,0.2,0.2
2024-09-20T1000,2446A,114.9028,30.4742,黄冈市,职工中心,,36,36,38,18,21,47,,31,31,8,12,8,8,0.3,0.4
2024-09-20T1000,2929A,114.8858,30.4519,黄冈市,红卫路,,31,31,32,15,20,49,,34,33,11,12,8,8,0.3,0.5
2024-09-20T1000,3398A,114.9136,30.4445,黄冈市,市林业局,,26,26,35,15,18,50,,36,34,7,9,6,8,0.3,0.3
2024-09-20T1000,2672A,102.0199,35.5102,黄南藏族自治州,同仁县隆务镇,,25,14,24,3,11,77,,76,76,10,5,6,8,0.5,0.5
2024-09-20T1000,2295A,118.2903,29.6963,黄山市,延安路89号,,28,28,40,8,12,32,,10,10,5,8,6,6,0.4,0.4
2024-09-20T1000,2296A,118.327,29.7178,黄山市,黄山东路89号,,17,17,26,8,11,35,,15,15,6,8,4,4,0.3,0.3
2024-09-20T1000,2297A,118.1371,30.2756,黄山市,黄山区政府5号楼,,12,12,18,8,9,20,,16,16,6,7,6,6,0.3,0.3
2024-09-20T1000,2423A,115.0601,30.2313,黄石市,沈家营,,40,40,53,9,16,55,,37,36,8,11,7,8,0.4,0.6
2024-09-20T1000,2424A,115.0817,30.2006,黄石市,陈家湾,,27,27,54,3,19,54,,40,37,9,11,15,9,0.3,0.6
2024-09-20T1000,2426A,114.8988,30.2019,黄石市,铁山,,32,32,43,12,20,44,,28,28,11,15,11,8,0.4,0.6
2024-09-20T1000,2427A,115.0307,30.2092,黄石市,团城山,,27,27,46,3,15,53,,35,34,8,13,5,9,0.4,0.7
2024-09-20T1000,3149A,115.0235,30.1578,黄石市,笔架山北路,颗粒物(PM10),53,56,59,3,20,51,,33,27,7,13,10,10,0.6,0.9
2024-09-20T1000,1392A,114.4183,23.0528,惠州市,河南岸金山湖子站,,32,32,25,19,14,51,,21,21,10,9,6,5,0.5,0.5
2024-09-20T1000,1393A,114.4053,23.0822,惠州市,下埔横江三路子站,,31,31,28,16,15,58,,26,26,9,13,5,4,0.6,0.6
2024-09-20T1000,1394A,114.4103,23.1142,惠州市,江北云山西路子站,,28,28,27,15,14,46,,21,21,9,12,6,5,0.5,0.5
2024-09-20T1000,1396A,114.5317,22.7422,惠州市,大亚湾管委会子站,,21,21,35,12,16,56,,28,28,17,16,7,7,0.4,0.6
2024-09-20T1000,3314A,114.4338,22.8134,惠州市,惠阳秋长,,21,19,20,12,15,66,,29,29,13,14,6,6,0.4,0.4
2024-09-20T1000,3452A,114.6517,22.775,惠州市,大亚湾霞涌,,20,20,26,3,19,58,,35,35,7,8,5,5,0.6,0.6
2024-09-20T1000,2240A,130.9762,45.3001,鸡西市,环保局,,19,19,24,9,5,33,,40,36,5,6,6,6,0.2,0.1
2024-09-20T1000,2243A,130.9429,45.3039,鸡西市,第一中学,,21,21,25,8,6,35,,34,33,2,8,5,5,0.0,0.1
2024-09-20T1000,3707A,131.0207,45.3073,鸡西市,欧美日汽修厂,,,41,25,3,8,,,38,34,15,9,8,4,,0
2024-09-20T1000,3709A,130.9967,45.3106,鸡西市,市政设施管理处,,36,36,26,18,6,29,,36,31,13,10,12,6,0.1,0.1
2024-09-20T1000,2367A,114.9754,27.0803,吉安市,红声器材厂,,17,17,34,6,16,44,,52,50,11,10,9,9,0.6,0.6
2024-09-20T1000,2368A,114.9658,27.0999,吉安市,市森林工业局,,15,14,29,8,18,46,,56,54,22,17,8,11,0.6,0.5
2024-09-20T1000,2369A,114.99,27.1312,吉安市,市环境监测站,,18,8,32,3,15,56,,58,57,13,10,12,18,0.8,0.6
2024-09-20T1000,2370A,115.0093,27.0968,吉安市,青原区法院,,,17,31,17,18,44,,63,61,16,13,,11,0.6,0.6
2024-09-20T1000,1772A,126.54,43.8622,吉林市,哈达湾,,29,29,24,9,8,23,,44,36,24,12,9,7,0.8,0.5
2024-09-20T1000,1773A,126.5844,43.8358,吉林市,东局子,,24,24,20,8,9,28,,44,37,16,11,4,5,0.5,0.6
2024-09-20T1000,1775A,126.6133,43.8972,吉林市,江北,,30,30,19,8,8,30,,45,38,10,8,6,6,0.6,0.5
2024-09-20T1000,1776A,126.555,43.8306,吉林市,江南公园,,22,22,23,6,9,27,,45,37,22,12,8,7,0.6,0.6
2024-09-20T1000,2868A,126.4739,43.953,吉林市,九站,,30,30,24,20,10,19,,32,26,24,18,43,19,1.1,0.5
2024-09-20T1000,1299A,116.9862,36.6114,济南市,科干所,,39,39,74,22,48,51,,19,19,31,35,8,7,0.8,0.9
2024-09-20T1000,1300A,116.9376,36.665,济南市,农科所,,44,44,71,24,48,55,,14,14,30,39,6,5,0.6,0.7
2024-09-20T1000,1301A,117.1265,36.6734,济南市,开发区,,44,44,68,22,43,46,,17,17,29,33,8,7,0.7,0.8
2024-09-20T1000,1303A,117.0624,36.6868,济南市,省种子仓库,颗粒物(PM10),52,53,92,14,50,43,,13,13,25,33,7,7,0.6,0.6
2024-09-20T1000,1304A,116.9489,36.6447,济南市,机床二厂,,,44,80,20,45,,,9,9,25,41,,7,0.7,0.8
2024-09-20T1000,1305A,117.0495,36.663,济南市,市监测站,颗粒物(PM10),51,51,77,24,55,50,,19,19,34,38,8,8,0.9,0.9
2024-09-20T1000,1306A,116.7675,36.5484,济南市,长清党校,,34,34,68,20,46,49,,24,24,20,32,8,7,0.9,1
2024-09-20T1000,1616A,117.6795,36.229,济南市,技术学院,,13,12,17,3,8,40,,17,17,4,13,8,8,0.5,0.6
2024-09-20T1000,1961A,117.532,36.6868,济南市,东山小学,,22,22,34,3,13,47,,17,17,20,29,4,4,0.3,0.4
2024-09-20T1000,3059A,117.7161,36.2049,济南市,泰兴公司,,17,17,18,7,8,38,,13,13,7,19,9,8,0.3,0.4
2024-09-20T1000,3064A,117.6867,36.2171,济南市,莱芜战役纪念馆,,,22,21,3,6,,,13,12,8,15,8,6,0.4,0.5
2024-09-20T1000,3494A,117.1673,36.9782,济南市,济阳区政府,,37,37,57,15,36,47,,14,14,21,24,15,10,0.5,0.6
2024-09-20T1000,3495A,117.1171,36.63,济南市,锦屏中学,,29,29,63,7,38,47,,18,18,21,22,7,6,0.7,0.8
2024-09-20T1000,3682A,116.9814,36.6819,济南市,济南四建,,34,34,72,20,48,58,,14,14,18,41,4,3,0.8,0.9
2024-09-20T1000,1653A,116.6251,35.4302,济宁市,火炬城,,25,25,34,9,12,34,,13,13,15,22,13,10,0.7,0.7
2024-09-20T1000,3500A,116.5814,35.3707,济宁市,北湖一中,,26,26,33,14,14,39,,16,16,14,17,8,6,0.4,0.4
2024-09-20T1000,3501A,116.8249,35.5593,济宁市,服务中心,,33,33,37,7,13,52,,18,18,8,17,7,6,0.3,0.4
2024-09-20T1000,3678A,116.5907,35.4054,济宁市,市第七中学,,37,37,35,7,13,34,,12,12,13,21,11,8,0.6,0.6
2024-09-20T1000,2255A,130.2751,46.8028,佳木斯市,佳纺,,14,14,11,7,3,35,,25,25,8,8,3,4,0.4,0.4
2024-09-20T1000,2256A,130.3995,46.8307,佳木斯市,发电厂,,12,6,19,3,5,37,,31,31,5,6,7,6,0.4,0.4
2024-09-20T1000,2257A,130.3258,46.7975,佳木斯市,环保局,,12,11,16,3,5,36,,23,23,6,10,8,8,0.3,0.4
2024-09-20T1000,2258A,130.3648,46.8032,佳木斯市,十一中,,12,9,15,3,5,36,,31,31,11,10,7,7,0.4,0.4
2024-09-20T1000,2259A,130.3794,46.7588,佳木斯市,四丰,,18,,10,12,4,32,,24,24,18,11,1,1,0.2,0.2
2024-09-20T1000,1252A,120.7436,30.778,嘉兴市,清河小学,,19,19,20,8,8,20,,8,8,15,14,4,4,0.4,0.4
2024-09-20T1000,1253A,120.726,30.7478,嘉兴市,嘉兴学院,,18,18,18,12,11,20,,10,10,16,13,2,2,0.4,0.4
2024-09-20T1000,2872A,120.7846,30.7525,嘉兴市,南湖区残联,,20,20,22,13,10,28,,18,18,17,14,4,4,0.5,0.4
2024-09-20T1000,3407A,120.6916,30.7739,嘉兴市,秀洲住建,,18,18,19,10,7,17,,9,9,17,14,4,4,0.7,0.6
2024-09-20T1000,1945A,98.2908,39.7711,嘉峪关市,气象局,,31,31,19,14,11,22,,52,43,18,12,2,4,0.5,0.4
2024-09-20T1000,2884A,98.2672,39.7978,嘉峪关市,酒钢宾馆,颗粒物(PM10),62,73,24,34,15,30,,58,51,34,15,12,12,2.2,0.5
2024-09-20T1000,3248A,98.2643,39.7724,嘉峪关市,雄关区,,37,37,30,9,14,31,,43,38,28,17,10,8,0.6,0.3
2024-09-20T1000,1383A,113.1064,22.6058,江门市,北街,,34,34,33,19,22,93,,42,42,24,18,7,5,0.7,0.7
2024-09-20T1000,1384A,113.0731,22.5835,江门市,西区,,29,23,35,12,16,90,,42,42,22,20,8,7,0.6,0.5
2024-09-20T1000,1385A,113.0219,22.5311,江门市,圭峰西,,48,44,32,33,20,73,,38,38,23,14,4,3,0.9,0.6
2024-09-20T1000,1386A,113.0828,22.5947,江门市,东湖,,28,27,37,9,17,87,,37,37,19,16,5,4,0.6,0.5
2024-09-20T1000,3311A,113.1075,22.5647,江门市,江海富民,,40,38,44,28,18,85,,42,42,31,19,7,6,0.8,0.6
2024-09-20T1000,3449A,113.05,22.4667,江门市,新会银湖,,49,49,33,31,22,69,,24,24,26,18,7,5,0.7,0.6
2024-09-20T1000,1828A,113.227,35.2125,焦作市,市环保局,,44,44,40,30,27,42,,8,8,20,24,13,6,0.5,0.5
2024-09-20T1000,3169A,113.2725,35.2067,焦作市,太极体育中心,,38,33,48,26,24,49,,13,13,15,20,9,4,0.7,0.7
2024-09-20T1000,3335A,113.3137,35.2641,焦作市,马村街道办,,41,41,35,25,26,63,,23,23,20,21,5,3,0.8,0.5
2024-09-20T1000,3336A,113.2465,35.2373,焦作市,焦作技师学院,颗粒物(PM10),51,52,51,29,25,47,,21,21,23,24,12,6,0.8,0.5
2024-09-20T1000,3477A,113.1656,35.2539,焦作市,中站许衡医院,,,,24,,17,,,26,26,26,27,15,5,0.7,0.4
2024-09-20T1000,3981A,113.2449,35.1803,焦作市,原李万街道办,,35,24,33,24,22,42,,8,8,15,20,10,4,0.7,0.7
2024-09-20T1000,1708A,116.3701,23.5345,揭阳市,新兴,,25,25,38,17,15,48,,35,34,10,15,5,9,0.6,0.6
2024-09-20T1000,1709A,116.3264,23.5443,揭阳市,西马,,50,50,36,18,16,46,,34,32,11,11,6,8,0.7,0.6
2024-09-20T1000,1710A,116.3611,23.5626,揭阳市,东兴,,36,36,43,13,16,47,,28,28,9,16,5,10,0.6,0.6
2024-09-20T1000,1711A,116.4151,23.5294,揭阳市,渔湖,,,,39,,14,44,,31,29,12,15,5,7,,0.5
2024-09-20T1000,3320A,116.403,23.5699,揭阳市,曲溪,,26,20,28,18,16,39,,26,24,12,15,2,3,0.5,0.5
2024-09-20T1000,1944A,102.1692,38.5167,金昌市,天庆家园,细颗粒物(PM2.5),74,70,43,54,14,50,,72,67,19,10,9,9,0.5,0.6
2024-09-20T1000,3170A,102.1864,38.5253,金昌市,市委党校,,46,45,26,32,12,56,,80,74,18,9,5,6,0.9,0.7
2024-09-20T1000,4022A,102.1647,38.5371,金昌市,金川区人防中心,,48,47,52,33,10,38,,66,60,23,10,8,11,0.8,0.7
2024-09-20T1000,1262A,119.647,29.077,金华市,十五中,,48,48,23,23,15,19,,8,8,22,20,4,2,0.7,0.5
2024-09-20T1000,1263A,119.686,29.1029,金华市,监测站,,43,43,23,22,12,17,,4,4,23,22,4,3,0.7,0.5
2024-09-20T1000,3659A,119.656,29.1131,金华市,气象局,,47,47,22,21,9,21,,12,12,24,22,4,4,0.6,0.4
2024-09-20T1000,1767A,121.1115,41.0879,锦州市,南山,,18,10,31,3,18,56,,57,56,12,16,6,10,0.5,0.6
2024-09-20T1000,1768A,121.0533,40.8434,锦州市,开发区,,,30,51,7,18,,,54,54,,26,6,8,0.5,0.8
2024-09-20T1000,1769A,121.1836,41.1119,锦州市,百股街道,,16,10,31,3,11,50,,52,52,13,16,7,9,0.5,0.7
2024-09-20T1000,1770A,121.1178,41.1222,锦州市,天安街道,,,8,35,7,16,54,,54,54,12,18,,11,0.4,0.7
2024-09-20T1000,1771A,121.1303,41.1386,锦州市,北湖公园,,19,6,31,3,13,60,,59,59,9,16,7,11,0.2,0.4
2024-09-20T1000,2160A,112.85,35.5051,晋城市,自来水公司,,33,33,36,17,12,70,,33,33,20,22,8,7,0.9,0.7
2024-09-20T1000,2161A,112.8318,35.4936,晋城市,白云商贸,,31,31,31,17,9,75,,37,37,19,22,8,6,0.9,0.7
2024-09-20T1000,2162A,112.8508,35.4887,晋城市,市环保局,,41,41,30,19,14,72,,36,36,20,22,7,5,0.8,0.6
2024-09-20T1000,2163A,112.8676,35.4897,晋城市,技术学院,,27,27,27,17,13,67,,31,31,22,26,8,6,0.9,0.7
2024-09-20T1000,3620A,112.8271,35.4828,晋城市,泽州一中,,,26,24,14,11,,,35,35,25,26,10,8,0.7,0.6
2024-09-20T1000,2171A,112.7532,37.6945,晋中市,锦纶小区,颗粒物(PM10),53,56,38,22,17,61,,52,47,17,14,14,9,0.8,0.4
2024-09-20T1000,2173A,112.7249,37.7067,晋中市,南都小区,,46,46,38,26,20,64,,56,52,17,14,12,7,0.9,0.6
2024-09-20T1000,2174A,112.6991,37.6982,晋中市,榆次区政府,,48,48,37,27,17,62,,55,49,17,14,15,8,0.6,0.4
2024-09-20T1000,2865A,112.7195,37.6828,晋中市,榆次三中,,,56,39,24,16,63,,59,54,18,14,,8,,0.6
2024-09-20T1000,2439A,112.2014,31.0481,荆门市,竹园小学,颗粒物(PM10),51,52,34,34,21,66,,50,50,9,11,11,11,0.6,0.7
2024-09-20T1000,2440A,112.1969,30.9891,荆门市,掇刀,颗粒物(PM10),53,56,32,31,22,70,,56,56,12,13,5,7,0.6,0.7
2024-09-20T1000,2441A,112.2213,31.0386,荆门市,石化一小,细颗粒物(PM2.5),57,59,36,40,25,68,,53,53,10,10,17,14,0.6,0.6
2024-09-20T1000,3012A,112.1849,31.0362,荆门市,西山林语,颗粒物(PM10),54,57,33,36,25,70,,54,54,9,12,8,8,0.8,0.7
2024-09-20T1000,3547A,112.1632,31.0138,荆门市,龙泉中学南校,,42,39,29,29,17,70,,55,54,15,11,9,9,0.6,0.7
2024-09-20T1000,1844A,112.2494,30.3197,荆州市,市图书馆,,,30,27,24,20,,,40,39,14,14,,9,0.8,0.8
2024-09-20T1000,1845A,112.2008,30.3544,荆州市,市委党校,,41,41,28,23,21,63,,44,44,10,12,5,7,0.7,0.8
2024-09-20T1000,3194A,112.2747,30.3122,荆州市,管委会,,49,40,26,34,23,60,,43,43,12,12,9,8,0.7,0.7
2024-09-20T1000,3548A,112.1655,30.3364,荆州市,学苑路,,39,29,23,27,22,64,,46,46,13,14,10,9,0.7,0.8
2024-09-20T1000,2343A,117.2117,29.2933,景德镇市,老干部活动中心,,14,14,20,8,13,41,,30,30,7,11,7,9,0.3,0.3
2024-09-20T1000,2344A,117.1894,29.2789,景德镇市,兽医站,,25,25,32,10,15,47,,24,24,5,12,9,12,0.6,0.7
2024-09-20T1000,2345A,117.1547,29.2617,景德镇市,台达陶瓷,,18,18,24,11,16,46,,24,24,7,16,11,29,0.3,0.3
2024-09-20T1000,2346A,117.2461,29.2956,景德镇市,陶研所,,20,20,26,10,13,48,,19,19,8,11,6,7,0.3,0.4
2024-09-20T1000,1803A,115.9872,29.6815,九江市,十里,,24,24,28,7,13,42,,35,33,11,10,11,9,0.8,0.6
2024-09-20T1000,1804A,115.9584,29.7046,九江市,茅山头,,45,40,24,31,19,41,,32,30,20,13,12,8,0.8,0.6
2024-09-20T1000,1805A,115.9877,29.7295,九江市,西园,,30,28,23,21,16,45,,38,37,11,12,10,11,0.6,0.5
2024-09-20T1000,1806A,116.0172,29.6547,九江市,五七二七厂,,18,18,19,12,16,33,,28,25,13,11,8,8,0.6,0.6
2024-09-20T1000,1808A,115.9114,29.6038,九江市,综合工业园,,,,29,,17,42,,35,32,,24,,14,,0.8
2024-09-20T1000,1809A,116.0721,29.7535,九江市,石化总厂,,25,25,29,16,19,37,,24,23,8,11,10,10,0.6,0.6
2024-09-20T1000,1810A,115.9773,29.5698,九江市,庐山气象台,,11,9,16,3,9,34,,40,35,3,3,17,13,0.9,0.7
2024-09-20T1000,3190A,116.0254,29.6994,九江市,外国语学校,,,23,25,12,12,,,25,20,13,12,7,9,,0.2
2024-09-20T1000,2658A,98.5061,39.7443,酒泉市,仓门街子站,,20,,19,14,13,28,,21,19,10,14,8,14,0.3,0.3
2024-09-20T1000,2659A,98.4989,39.7256,酒泉市,油田生活基地,,16,14,26,11,12,25,,16,15,13,20,8,13,0.3,0.4
2024-09-20T1000,2698A,76.0072,39.4467,喀什地区,巡警大队,颗粒物(PM10),141,231,173,55,39,30,,36,36,49,36,7,5,0.7,0.6
2024-09-20T1000,2699A,75.9755,39.4694,喀什地区,吾办,颗粒物(PM10),136,221,172,72,58,24,,22,22,48,38,5,5,0.7,0.6
2024-09-20T1000,4027A,75.9483,39.4689,喀什地区,老干局,颗粒物(PM10),128,205,192,50,39,41,,35,35,34,32,4,5,0.6,0.6
2024-09-20T1000,1824A,114.3389,34.7781,开封市,肿瘤医院,细颗粒物(PM2.5),72,66,46,52,41,75,,46,46,18,15,7,5,0.9,0.7
2024-09-20T1000,1826A,114.2885,34.7965,开封市,世纪星幼儿园,,,66,46,,,81,,40,40,15,13,6,5,0.9,0.7
2024-09-20T1000,3147A,114.3438,34.8106,开封市,龙亭公园,颗粒物(PM10),67,84,48,32,28,61,,38,38,19,15,7,4,1.0,0.8
2024-09-20T1000,3210A,114.3644,34.7964,开封市,汴京公园,颗粒物(PM10),68,86,47,47,37,72,,43,43,18,16,8,5,1.0,0.8
2024-09-20T1000,3473A,114.2485,34.8306,开封市,技师学院,颗粒物(PM10),68,86,53,28,29,67,,20,20,17,20,12,8,1.1,1
2024-09-20T1000,3592A,114.4644,34.7556,开封市,祥符区生态环境局,细颗粒物(PM2.5),54,42,39,38,33,78,,48,48,14,16,10,8,0.7,0.7
2024-09-20T1000,1951A,84.895,45.6094,克拉玛依市,长征新村,,49,49,35,14,8,30,,56,49,37,15,7,6,0.4,0.3
2024-09-20T1000,1952A,84.8988,45.5893,克拉玛依市,南林小区,,42,42,36,8,17,22,,35,35,47,23,11,10,0.7,0.5
2024-09-20T1000,1954A,84.905,44.3396,克拉玛依市,独山子区,颗粒物(PM10),56,62,48,12,12,21,,64,54,49,16,9,9,1.0,0.4
2024-09-20T1000,1955A,85.6979,46.098,克拉玛依市,乌尔禾区商贸楼,,,,32,,7,,,38,33,,18,,10,,0.4
2024-09-20T1000,3612A,85.1045,45.6899,克拉玛依市,白碱滩区新站,,38,38,28,14,6,34,,58,50,32,12,7,7,0.2,0.1
2024-09-20T1000,2697A,76.1454,39.7142,克孜勒苏柯尔克孜自治州,市人民政府,颗粒物(PM10),105,160,136,58,47,42,,56,55,29,17,8,6,0.4,0.4
2024-09-20T1000,3665A,76.1658,39.7157,克孜勒苏柯尔克孜自治州,克州文化中心,颗粒物(PM10),110,170,139,67,52,61,,69,69,16,16,9,6,0.4,0.4
2024-09-20T1000,1450A,102.8204,24.8886,昆明市,呈贡新区,颗粒物(PM10),52,53,35,30,22,30,,32,23,45,22,5,6,0.7,0.4
2024-09-20T1000,1452A,102.7252,25.0902,昆明市,龙泉镇,,34,34,28,20,13,57,,19,19,18,24,11,7,0.8,0.6
2024-09-20T1000,1453A,102.7266,25.0375,昆明市,东风东路,,38,38,27,22,17,50,,46,42,25,17,14,8,0.5,0.3
2024-09-20T1000,1454A,102.6742,25.0669,昆明市,金鼎山,,37,37,35,19,14,74,,43,43,14,17,13,7,0.5,0.4
2024-09-20T1000,1455A,102.6644,25.0401,昆明市,碧鸡广场,,37,37,28,19,16,70,,45,43,18,17,12,7,0.6,0.5
2024-09-20T1000,3179A,102.7494,25.0119,昆明市,官渡区博物馆,,29,29,33,19,17,66,,26,25,20,28,11,8,0.5,0.4
2024-09-20T1000,3375A,102.8017,24.8336,昆明市,青年创业园,细颗粒物(PM2.5),55,49,27,39,22,41,,24,16,28,18,6,5,0.8,0.6
2024-09-20T1000,3550A,102.7997,24.9786,昆明市,昆明学院,颗粒物(PM10),57,64,45,36,23,44,,23,16,36,26,9,7,0.6,0.4
2024-09-20T1000,3551A,102.5967,24.6736,昆明市,晋宁区生态环境分局,颗粒物(PM10),56,61,34,17,24,75,,37,31,17,16,6,3,0.6,0.5
2024-09-20T1000,3552A,102.6678,24.9856,昆明市,云天化总部,,39,38,28,27,18,72,,49,44,19,15,11,7,0.6,0.5
2024-09-20T1000,1456A,91.1319,29.6514,拉萨市,八廓街,,27,13,11,8,8,84,,91,88,17,11,6,7,0.2,0.2
2024-09-20T1000,1457A,91.1221,29.6747,拉萨市,市环保局,,27,10,12,3,6,85,,92,90,14,10,8,8,0.4,0.4
2024-09-20T1000,1458A,91.0874,29.6475,拉萨市,区监测站,,26,7,9,3,6,81,,85,84,12,10,5,6,0.1,0.2
2024-09-20T1000,1459A,91.1774,29.6541,拉萨市,西藏大学,,23,9,10,6,7,72,,89,84,17,6,6,7,0.5,0.4
2024-09-20T1000,1460A,90.9798,29.6588,拉萨市,区辐射站,,21,16,13,9,7,66,,88,79,24,12,9,8,0.2,0.2
2024-09-20T1000,1461A,91.0834,29.6292,拉萨市,拉萨火车站,,23,8,9,3,6,73,,82,79,17,8,5,6,0.3,0.3
2024-09-20T1000,2520A,109.2203,23.7256,来宾市,来宾技工学校,,39,39,46,24,27,72,,31,31,12,18,8,14,0.7,0.7
2024-09-20T1000,3535A,109.1781,23.7297,来宾市,兴宾区政府,,40,40,35,27,21,73,,32,32,10,12,14,9,0.8,0.7
2024-09-20T1000,4002A,109.2416,23.7461,来宾市,中南小学,,40,40,45,26,27,79,,47,47,10,17,6,8,0.8,0.7
2024-09-20T1000,1476A,103.631,36.1031,兰州市,兰炼宾馆,,40,,47,28,33,68,,63,61,19,15,5,6,0.3,0.4
2024-09-20T1000,1478A,103.8412,36.0726,兰州市,生物制品所,,,,61,,36,,,56,51,31,19,,9,0.4,0.5
2024-09-20T1000,1479A,103.831,36.0464,兰州市,铁路设计院,,45,,64,31,35,62,,54,52,32,27,6,7,0.4,0.5
2024-09-20T1000,3186A,103.7158,36.1058,兰州市,教育港,,36,28,64,25,34,62,,62,59,24,16,5,6,0.4,0.4
2024-09-20T1000,3241A,103.7439,36.0842,兰州市,百合公园,,18,13,55,8,24,55,,59,54,25,22,6,8,0.4,0.4
2024-09-20T1000,3242A,103.9611,35.998,兰州市,和平,,27,11,60,3,26,85,,76,76,8,12,8,10,0.2,0.5
2024-09-20T1000,3245A,103.6633,36.533,兰州新区,新区管委会,,25,23,28,17,19,76,,95,93,12,7,6,7,0.5,0.4
2024-09-20T1000,3246A,103.6975,36.4789,兰州新区,舟曲中学,,26,16,22,6,10,82,,81,81,9,8,6,8,0.4,0.4
2024-09-20T1000,1067A,116.6708,39.5111,廊坊市,药材公司,,30,30,63,12,28,50,,27,27,11,20,3,4,0.5,0.6
2024-09-20T1000,1068A,116.7214,39.5589,廊坊市,开发区,,22,22,67,11,32,50,,28,28,11,27,1,3,0.4,0.7
2024-09-20T1000,1070A,116.7244,39.5269,廊坊市,北华航天学院,,38,38,72,3,28,53,,28,28,8,26,2,4,0.3,0.7
2024-09-20T1000,2919A,116.7022,39.5453,廊坊市,河北工业大学,,39,39,62,10,31,51,,28,28,9,23,2,3,0.3,0.6
2024-09-20T1000,2535A,103.7723,29.5462,乐山市,花湖湾,,,98,50,40,31,,,40,35,29,18,10,5,1.8,1.1
2024-09-20T1000,2536A,103.7627,29.5844,乐山市,牛耳桥,细颗粒物(PM2.5),54,49,48,38,38,41,,35,33,38,24,5,6,0.8,0.8
2024-09-20T1000,2537A,103.7508,29.6006,乐山市,市第三水厂,细颗粒物(PM2.5),59,44,50,42,35,53,,31,28,38,26,4,4,0.7,0.6
2024-09-20T1000,2538A,103.7571,29.5664,乐山市,市监测站,"颗粒物(PM10),细颗粒物(PM2.5)",58,66,64,41,38,60,,56,54,20,17,8,11,0.7,0.8
2024-09-20T1000,3361A,103.7311,29.5628,乐山市,理工大学,,,59,53,45,41,,,41,37,25,18,,8,0.9,1
2024-09-20T1000,2599A,100.2497,26.8802,丽江市,丽江古城,,34,34,26,20,16,53,,36,35,16,11,9,10,0.5,0.7
2024-09-20T1000,2600A,100.2203,26.8906,丽江市,市中心,,38,38,18,18,12,54,,44,40,7,6,6,6,0.6,0.6
2024-09-20T1000,1267A,119.914,28.4514,丽水市,监测站大楼,,10,7,13,3,5,31,,19,19,11,20,4,4,0.5,0.5
2024-09-20T1000,1268A,119.93,28.4586,丽水市,莲都小学,,10,7,15,3,8,32,,17,17,9,18,4,4,0.5,0.5
2024-09-20T1000,1269A,119.879,28.4231,丽水市,余庄前,,,17,13,9,6,18,,9,9,,19,4,4,0.6,0.5
2024-09-20T1000,1173A,119.176,34.5885,连云港市,市环境监测站,,10,7,13,3,5,31,,39,34,9,6,4,5,0.2,0.2
2024-09-20T1000,3000A,119.3581,34.6972,连云港市,德源药业,,10,6,12,3,2,31,,36,32,4,3,4,5,0.2,0.2
2024-09-20T1000,3007A,119.178,34.844,连云港市,新城一中,,16,16,20,6,8,32,,51,43,10,7,3,3,0.7,0.6
2024-09-20T1000,3008A,119.3608,34.7519,连云港市,胡沟管理处,,11,6,12,3,3,35,,49,43,2,7,5,6,0.4,0.4
2024-09-20T1000,3009A,119.1478,34.5911,连云港市,矿山设计院,,10,7,13,3,6,29,,36,31,8,5,3,4,0.5,0.5
2024-09-20T1000,3434A,119.2413,34.6539,连云港市,工贸学校,,10,10,13,3,6,30,,38,34,11,8,6,7,0.4,0.3
2024-09-20T1000,3664A,119.4172,34.7341,连云港市,连云街道,,13,13,18,3,7,20,,30,26,15,13,4,4,0.5,0.5
2024-09-20T1000,2571A,102.3431,27.8099,凉山彝族自治州,青龙寺,,26,26,21,11,9,45,,39,36,13,6,16,10,1.1,0.9
2024-09-20T1000,2572A,102.2721,27.8415,凉山彝族自治州,邛海宾馆,,25,25,28,15,16,46,,35,34,16,13,11,10,0.6,0.5
2024-09-20T1000,2573A,102.2625,27.898,凉山彝族自治州,西昌市政府,,18,16,22,12,15,38,,43,40,20,8,10,8,0.4,0.4
2024-09-20T1000,2574A,102.2685,27.8851,凉山彝族自治州,凉山州政府,,36,36,28,19,16,47,,43,42,18,11,8,7,0.9,0.7
2024-09-20T1000,2575A,102.237,27.8914,凉山彝族自治州,长安,,,,26,,14,42,,28,27,20,13,11,8,,0.5
2024-09-20T1000,2212A,123.2,41.1953,辽阳市,宏伟区,,14,14,38,3,22,34,,32,30,13,17,13,12,0.5,0.8
2024-09-20T1000,2213A,123.1683,41.2495,辽阳市,新华园,,17,17,40,3,18,36,,37,35,15,19,12,11,0.4,0.7
2024-09-20T1000,2214A,123.2354,41.2639,辽阳市,滨河路,,26,21,39,18,20,39,,37,37,14,20,14,12,0.4,0.8
2024-09-20T1000,2215A,123.149,41.2991,辽阳市,铁西工业园,,12,11,51,8,18,36,,35,33,10,19,13,12,0.5,0.9
2024-09-20T1000,2227A,125.1358,42.8845,辽源市,环保局,,,12,22,3,9,,,52,,10,6,7,8,0.5,0.5
2024-09-20T1000,3239A,125.0764,42.9078,辽源市,银鹰制药,,12,12,16,3,6,35,,48,43,10,9,4,5,0.6,0.6
2024-09-20T1000,1625A,115.9848,36.4372,聊城市,区政府,颗粒物(PM10),56,61,57,31,38,80,,38,37,15,20,14,9,0.8,0.8
2024-09-20T1000,2878A,116.0072,36.4343,聊城市,聊大东校,细颗粒物(PM2.5),55,58,60,39,45,74,,45,42,18,20,7,7,0.5,0.6
2024-09-20T1000,3200A,115.9819,36.4978,聊城市,监控中心,颗粒物(PM10),60,70,57,36,35,71,,21,21,22,24,6,6,0.5,0.5
2024-09-20T1000,3513A,116.0445,36.4361,聊城市,九州社区,颗粒物(PM10),57,64,69,35,41,68,,33,33,16,22,1,9,0.5,0.5
2024-09-20T1000,4018A,116.0567,36.4608,聊城市,星美广场,颗粒物(PM10),59,68,58,38,36,77,,34,34,17,19,3,6,0.7,0.6
2024-09-20T1000,2632A,94.3681,29.6376,林芝市,林芝监测站,,16,12,10,6,7,49,,54,52,7,3,9,9,0.2,0.2
2024-09-20T1000,2633A,94.3616,29.6616,林芝市,林芝人民医院,,17,,10,7,7,54,,52,50,9,5,8,8,0.4,0.3
2024-09-20T1000,2603A,100.0781,23.8982,临沧市,市环保局,,24,24,30,9,13,35,,22,21,11,10,8,6,0.6,0.5
2024-09-20T1000,2604A,100.0894,23.8822,临沧市,市气象局,,32,31,23,22,19,34,,26,24,14,10,11,7,0.5,0.4
2024-09-20T1000,1733A,111.5531,36.0783,临汾市,临钢医院,,,59,46,20,18,,,15,14,16,19,11,9,0.9,0.8
2024-09-20T1000,1734A,111.5028,36.0714,临汾市,技工学校,,,63,48,26,21,,,18,18,24,20,12,10,1.1,0.9
2024-09-20T1000,1736A,111.5018,36.0855,临汾市,市委,颗粒物(PM10),60,70,43,18,15,52,,23,23,22,16,10,9,1.1,0.9
2024-09-20T1000,3018A,111.505,36.1014,临汾市,唐尧大酒店,颗粒物(PM10),55,59,39,19,18,50,,22,22,21,16,8,7,1.0,0.8
2024-09-20T1000,3668A,111.5036,36.0414,临汾市,城南,颗粒物(PM10),52,54,47,18,19,66,,22,22,16,20,12,8,1.0,1
2024-09-20T1000,2667A,103.2069,35.5993,临夏回族自治州,环保局,,28,20,30,19,18,44,,56,52,16,9,6,8,0.3,0.4
2024-09-20T1000,2668A,103.2417,35.6057,临夏回族自治州,建设大厦,,26,26,32,10,18,44,,66,60,22,10,7,9,0.3,0.4
2024-09-20T1000,1618A,118.3429,35.0532,临沂市,沂河小区,,31,31,22,15,12,47,,28,28,11,12,8,9,0.3,0.3
2024-09-20T1000,1619A,118.295,35.0583,临沂市,鲁南制药厂,,24,24,16,15,8,48,,28,28,11,13,6,6,0.4,0.4
2024-09-20T1000,1620A,118.2794,34.9976,临沂市,新光毛纺厂,,17,17,12,11,9,50,,32,32,15,16,5,7,0.5,0.6
2024-09-20T1000,1621A,118.3956,35.0888,临沂市,河东保险公司,,36,36,21,10,6,46,,24,24,17,19,7,8,0.4,0.4
2024-09-20T1000,3370A,118.3564,35.0215,临沂市,十里堡居委,,19,19,12,12,7,45,,27,27,12,14,8,9,0.6,0.6
2024-09-20T1000,3496A,118.3604,35.1084,临沂市,南坊新区,,36,36,25,17,4,45,,22,22,13,15,8,9,0.6,0.5
2024-09-20T1000,3860A,118.3920,35.0300,临沂市,皇山花园小区,,31,31,22,6,7,46,,22,22,15,18,8,9,0.5,0.6
2024-09-20T1000,1870A,109.4856,24.3895,柳州市,柳东小学,,32,32,33,21,22,66,,70,68,7,9,8,8,0.7,0.7
2024-09-20T1000,1871A,109.4157,24.3277,柳州市,环保监测站,,47,47,37,28,23,68,,66,61,8,9,9,9,0.9,0.8
2024-09-20T1000,1872A,109.389,24.341,柳州市,河西水厂,颗粒物(PM10),54,57,41,36,24,63,,61,54,9,7,10,9,0.9,0.9
2024-09-20T1000,1873A,109.4311,24.2921,柳州市,市四中,,39,39,38,23,25,78,,76,76,7,8,7,7,0.8,0.7
2024-09-20T1000,1874A,109.4006,24.3631,柳州市,市九中,,45,41,42,31,25,64,,57,52,8,9,7,7,0.7,0.6
2024-09-20T1000,1875A,109.4958,24.3134,柳州市,古亭山,,44,44,35,23,24,78,,72,69,10,14,8,8,0.9,0.8
2024-09-20T1000,3402A,109.5422,24.3996,柳州市,市二中,,30,30,37,20,23,70,,62,62,9,18,8,8,0.7,0.7
2024-09-20T1000,2307A,116.5079,31.737,六安市,监测大楼,,16,16,16,11,9,27,,19,19,4,5,5,5,0.4,0.4
2024-09-20T1000,2308A,116.4738,31.7643,六安市,皖西学院,,33,33,25,10,8,28,,16,16,4,6,5,5,0.2,0.1
2024-09-20T1000,2309A,116.4996,31.7905,六安市,朝阳厂,,23,23,14,10,8,22,,13,13,3,4,1,1,0.3,0.2
2024-09-20T1000,2310A,116.5567,31.7886,六安市,开发区,,32,32,21,21,12,27,,19,19,11,10,5,5,0.5,0.4
2024-09-20T1000,2577A,104.83,26.5917,六盘水市,黄土坡,,,28,25,17,16,,,31,31,18,16,11,9,0.5,0.5
2024-09-20T1000,2578A,104.89,26.5939,六盘水市,水钢,颗粒物(PM10),61,71,43,29,18,43,,27,27,35,21,34,12,3.1,1.3
2024-09-20T1000,2579A,104.8475,26.5894,六盘水市,民中,,27,27,26,12,14,56,,33,33,19,21,12,9,0.4,0.5
2024-09-20T1000,2580A,104.9544,26.5506,六盘水市,双水,颗粒物(PM10),56,61,38,21,17,38,,16,16,36,20,18,10,1.9,0.5
2024-09-20T1000,2336A,117.0217,25.1033,龙岩市,龙岩市监测站,,32,29,19,22,18,54,,24,24,12,15,14,9,0.6,0.5
2024-09-20T1000,2337A,117.0258,25.0661,龙岩市,闽西职业技术学院,,33,32,28,23,17,55,,22,22,10,15,9,7,0.8,0.6
2024-09-20T1000,2338A,117.0196,25.0306,龙岩市,龙岩学院,,37,37,24,18,18,47,,13,13,19,16,5,4,0.8,0.5
2024-09-20T1000,2885A,104.9339,33.3826,陇南市,滨江中学,,38,38,39,22,18,70,,49,49,8,11,8,7,0.6,0.6
2024-09-20T1000,3247A,104.955,33.371,陇南市,市总工会,,38,38,37,11,12,74,,48,48,5,9,8,8,0.4,0.5
2024-09-20T1000,2487A,111.9589,27.8901,娄底市,电视发射台,,44,44,39,19,19,61,,64,56,14,10,7,7,0.3,0.4
2024-09-20T1000,2488A,111.9975,27.725,娄底市,市监测站,,48,47,33,33,22,60,,70,62,9,8,6,6,1.0,1
2024-09-20T1000,2489A,112.0194,27.7314,娄底市,市委党校,细颗粒物(PM2.5),55,52,33,39,23,58,,72,65,9,6,7,6,0.8,0.7
2024-09-20T1000,2490A,111.9561,27.7569,娄底市,涟钢,细颗粒物(PM2.5),57,60,37,40,26,47,,54,50,15,14,14,12,0.7,1
2024-09-20T1000,2491A,111.9892,27.7044,娄底市,市政府,,,,28,45,20,,,68,61,,7,7,6,1.0,0.7
2024-09-20T1000,1893A,105.4324,28.9634,泸州市,九狮山,颗粒物(PM10),71,92,43,44,26,82,,26,26,2,7,8,4,0.5,0.4
2024-09-20T1000,1894A,105.4427,28.9063,泸州市,小市上码头,细颗粒物(PM2.5),60,55,38,43,21,83,,49,49,34,23,8,6,0.8,0.5
2024-09-20T1000,1895A,105.4241,28.8573,泸州市,兰田宪桥,细颗粒物(PM2.5),67,66,37,48,27,84,,46,46,29,19,10,6,0.7,0.4
2024-09-20T1000,1896A,105.4379,28.8833,泸州市,市环监站,,,67,41,55,30,,,53,53,25,18,12,9,,0.5
2024-09-20T1000,3490A,105.3617,28.7703,泸州市,纳溪区环保局,细颗粒物(PM2.5),72,70,44,52,32,94,,32,32,28,28,11,8,0.6,0.4
2024-09-20T1000,2183A,111.1406,37.5211,吕梁市,环保局,,28,28,48,14,21,26,,8,8,12,24,4,4,0.5,0.6
2024-09-20T1000,2185A,111.1297,37.5136,吕梁市,自来水公司,,19,19,46,13,22,31,,13,13,8,21,4,5,0.5,0.6
2024-09-20T1000,2867A,111.1283,37.51,吕梁市,马茂庄小学,,31,31,54,18,23,23,,6,6,17,28,2,5,0.4,0.7
2024-09-20T1000,1812A,112.3931,34.6516,洛阳市,市委党校,,36,36,27,18,22,63,,26,26,8,18,15,5,0.6,0.7
2024-09-20T1000,1814A,112.4657,34.6871,洛阳市,豫西宾馆,颗粒物(PM10),52,54,29,24,16,50,,18,18,18,17,13,6,0.8,0.6
2024-09-20T1000,1815A,112.494,34.6886,洛阳市,河南林校,,,38,20,19,18,,,14,13,19,18,12,7,0.6,0.5
2024-09-20T1000,1816A,112.3844,34.623,洛阳市,开发区管委会,,22,20,21,15,17,57,,19,19,5,15,5,3,0.5,0.5
2024-09-20T1000,1817A,112.4267,34.6258,洛阳市,市委新办公区,,43,,24,30,26,59,,22,22,2,10,4,1,0.7,0.7
2024-09-20T1000,3340A,112.6005,34.6326,洛阳市,伊滨,,40,40,29,24,28,51,,15,15,9,15,10,6,0.7,0.7
2024-09-20T1000,3341A,112.4951,34.6332,洛阳市,中移产业园,,33,30,29,23,22,62,,20,20,6,15,8,3,0.8,0.8
2024-09-20T1000,3593A,112.5736,34.8993,洛阳市,吉利监测站,,29,26,24,20,16,43,,11,11,11,13,4,2,0.5,0.5
2024-09-20T1000,3635A,112.3677,34.662,洛阳市,河科大西苑校区,,33,33,20,15,11,67,,24,24,5,18,15,5,0.7,0.7
2024-09-20T1000,3636A,112.4388,34.6781,洛阳市,英才小学,,45,45,29,30,26,56,,18,18,17,21,16,3,0.8,0.7
2024-09-20T1000,2400A,114.0055,33.5698,漯河市,漯河大学,细颗粒物(PM2.5),62,64,51,44,37,69,,40,40,13,14,6,4,0.9,0.7
2024-09-20T1000,2401A,114.0138,33.5828,漯河市,市水利局,颗粒物(PM10),69,88,64,44,39,64,,37,37,10,10,6,4,0.7,0.7
2024-09-20T1000,2402A,114.0261,33.5698,漯河市,市广电局,,,,46,,25,,,38,38,8,9,,6,1.0,0.9
2024-09-20T1000,3478A,113.9749,33.5664,漯河市,市图书馆,,42,42,49,28,36,70,,42,42,13,12,13,11,0.7,0.6
2024-09-20T1000,3479A,114.0967,33.5906,漯河市,召陵区卫健委,细颗粒物(PM2.5),54,,48,38,35,61,,26,26,7,11,4,4,1.0,1
2024-09-20T1000,1798A,118.5092,31.6837,马鞍山市,湖东路四小,,31,31,23,8,9,30,,20,20,8,14,9,8,0.6,0.6
2024-09-20T1000,1799A,118.5024,31.6449,马鞍山市,开发区,,,40,23,13,10,20,,15,15,16,13,14,7,,0.8
2024-09-20T1000,1800A,118.5228,31.7231,马鞍山市,慈湖,,20,20,29,11,13,30,,20,20,4,11,9,8,0.6,0.7
2024-09-20T1000,1802A,118.6245,31.7241,马鞍山市,濮塘,,15,13,12,10,11,25,,19,19,14,14,7,7,0.6,0.6
2024-09-20T1000,3633A,118.4918,31.6809,马鞍山市,雨山,,24,24,23,8,7,22,,10,10,11,13,17,10,1.4,0.8
2024-09-20T1000,1686A,111.0286,21.4688,茂名市,电白南海,,27,27,35,14,15,65,,50,50,8,9,13,11,0.7,0.7
2024-09-20T1000,1687A,110.9294,21.6533,茂名市,茂石化七小,颗粒物(PM10),51,51,34,27,16,75,,65,65,13,9,23,12,0.7,0.6
2024-09-20T1000,1688A,110.9107,21.6687,茂名市,健康路,,41,41,26,22,11,71,,65,64,13,7,18,16,0.8,0.7
2024-09-20T1000,1689A,110.8592,21.6828,茂名市,高岭,,41,41,34,24,17,71,,49,48,10,14,21,15,0.7,0.6
2024-09-20T1000,3450A,111.01,21.5165,茂名市,电白水东,,25,24,27,17,15,62,,53,53,12,9,6,8,0.5,0.5
2024-09-20T1000,2539A,104.0308,30.0478,眉山市,黑龙滩水库,,50,50,51,23,33,45,,21,18,8,10,5,10,0.5,0.5
2024-09-20T1000,2540A,103.8416,30.0874,眉山市,气象局,,,41,42,39,32,,,17,10,,30,,7,,0.6
2024-09-20T1000,3137A,103.8578,30.0744,眉山市,市委党校,颗粒物(PM10),57,63,51,31,28,48,,23,19,36,30,11,10,0.7,0.5
2024-09-20T1000,3148A,103.8291,30.0564,眉山市,区人社局,,49,49,42,34,25,54,,31,28,39,29,10,9,0.7,0.5
2024-09-20T1000,1690A,116.1231,24.3284,梅州市,梅江月梅,,30,,26,21,14,60,,17,17,2,11,11,8,0.5,0.5
2024-09-20T1000,1691A,116.0797,24.2719,梅州市,梅县新城,,27,27,27,16,16,60,,20,20,7,15,4,5,0.5,0.4
2024-09-20T1000,1692A,116.1248,24.2654,梅州市,环境监控中心,,,27,26,13,17,,,20,19,8,14,5,6,,0.5
2024-09-20T1000,3315A,116.1233,24.2991,梅州市,梅龙,,19,19,19,11,13,56,,26,26,5,8,9,9,0.6,0.6
2024-09-20T1000,1878A,104.7778,31.4741,绵阳市,富乐山,,46,45,44,32,31,36,,27,27,26,20,4,3,0.8,0.8
2024-09-20T1000,1879A,104.7563,31.4535,绵阳市,市人大,,,52,47,22,28,,,29,26,22,24,8,8,0.7,0.6
2024-09-20T1000,1880A,104.6697,31.4668,绵阳市,高新区自来水公司,,46,46,47,22,25,41,,32,28,18,19,4,3,0.8,0.8
2024-09-20T1000,1881A,104.7287,31.5075,绵阳市,三水厂,颗粒物(PM10),59,67,53,30,34,28,,18,14,24,27,7,7,0.7,0.7
2024-09-20T1000,3491A,104.69,31.5322,绵阳市,西科大附属小学,,34,34,47,21,24,43,,32,32,11,19,6,5,0.7,0.7
2024-09-20T1000,3492A,104.5648,31.5343,绵阳市,安州区旅游局,颗粒物(PM10),53,56,41,24,33,35,,22,22,22,17,9,8,0.7,0.7
2024-09-20T1000,1784A,129.61,44.561,牡丹江市,环保大楼,,25,25,27,7,18,37,,41,40,11,8,9,7,0.3,0.3
2024-09-20T1000,1785A,129.6115,44.5782,牡丹江市,文化广场,,41,41,30,21,19,33,,37,34,13,11,9,8,0.2,0.3
2024-09-20T1000,1786A,129.5904,44.5963,牡丹江市,第一医院,,,26,30,19,27,35,,40,38,13,11,,6,0.3,0.3
2024-09-20T1000,1787A,129.6364,44.6075,牡丹江市,机车工厂,,26,26,35,12,21,36,,38,36,9,10,6,13,0.2,0.4
2024-09-20T1000,1788A,129.6386,44.5462,牡丹江市,第一中学,,17,17,26,6,18,45,,42,42,8,9,6,6,0.2,0.3
2024-09-20T1000,2531A,105.0703,29.61,内江市,市监测站,细颗粒物(PM2.5),62,,35,44,34,106,,105,98,23,18,6,5,1.2,1.1
2024-09-20T1000,2532A,105.0717,29.5947,内江市,东兴区政府,,,36,29,35,27,,,100,92,,19,,5,0.8,0.7
2024-09-20T1000,2533A,105.0653,29.5817,内江市,内江二中,细颗粒物(PM2.5),63,46,38,45,33,100,,98,91,26,18,8,8,0.7,0.6
2024-09-20T1000,2534A,105.0406,29.5822,内江市,内江日报社,细颗粒物(PM2.5),54,44,37,38,34,107,,92,86,27,24,9,8,0.7,0.6
2024-09-20T1000,2628A,92.0657,31.4846,那曲市,那曲监测站,细颗粒物(PM2.5),90,90,33,67,34,36,,39,32,16,8,8,7,0.9,0.6
2024-09-20T1000,3128A,92.0506,31.4797,那曲市,那曲会议中心,颗粒物(PM10),69,87,30,34,9,34,,45,40,30,12,6,4,0.9,0.6
2024-09-20T1000,1290A,115.8931,28.6843,南昌市,省外办,,,37,35,22,22,52,,44,43,17,15,,8,0.5,0.4
2024-09-20T1000,1291A,115.8886,28.7003,南昌市,省林业公司,,29,29,30,7,16,53,,46,46,11,10,6,7,0.8,0.7
2024-09-20T1000,1292A,115.8126,28.7442,南昌市,林科所,,20,19,23,14,13,54,,51,51,12,14,8,7,0.6,0.6
2024-09-20T1000,1294A,115.8518,28.687,南昌市,建工学校,,26,21,31,18,14,53,,49,48,11,11,9,9,0.6,0.6
2024-09-20T1000,1295A,115.8921,28.6424,南昌市,象湖,,22,22,24,11,15,53,,49,49,10,10,8,8,0.7,0.6
2024-09-20T1000,1296A,115.7423,28.7996,南昌市,武术学校,,50,36,29,35,18,43,,42,42,4,5,2,2,0.7,0.6
2024-09-20T1000,1298A,115.9314,28.6842,南昌市,省站,,28,28,28,19,19,56,,56,53,19,16,9,9,0.8,0.7
2024-09-20T1000,3046A,115.9084,28.6062,南昌市,机电学校,,,37,38,17,15,47,,42,42,,11,8,8,,0.6
2024-09-20T1000,3690A,115.9721,28.7031,南昌市,外国语学校,,27,27,32,12,13,50,,42,42,9,12,7,7,0.6,0.6
2024-09-20T1000,1905A,106.056,30.8064,南充市,西山风景区,,50,43,36,35,34,83,,78,75,8,6,4,4,0.9,0.8
2024-09-20T1000,1906A,106.0789,30.8023,南充市,南充市委,,,49,48,37,35,83,,59,58,,17,4,4,0.6,0.5
2024-09-20T1000,1907A,106.1031,30.8217,南充市,南充炼油厂,,,,51,,36,95,,70,69,,15,,5,0.5,0.5
2024-09-20T1000,1908A,106.1064,30.7856,南充市,高坪区监测站,,46,46,48,32,34,91,,66,65,15,22,6,7,0.5,0.5
2024-09-20T1000,1909A,106.0642,30.7636,南充市,嘉陵区环保局,细颗粒物(PM2.5),52,43,44,36,30,82,,71,68,23,19,3,4,0.8,0.5
2024-09-20T1000,1910A,106.1087,30.8388,南充市,市环境监测站,细颗粒物(PM2.5),58,64,50,41,37,89,,65,64,12,16,4,5,0.3,0.3
2024-09-20T1000,1151A,118.8086,32.1065,南京市,迈皋桥,,8,6,11,3,5,25,,20,20,7,12,4,4,0.2,0.2
2024-09-20T1000,1152A,118.7538,32.0551,南京市,草场门,,7,7,10,3,4,16,,18,15,13,12,7,6,0.5,0.2
2024-09-20T1000,1153A,118.7794,32.0745,南京市,山西路,,8,7,20,3,6,19,,17,16,15,12,5,4,0.6,0.4
2024-09-20T1000,1154A,118.7752,32.0023,南京市,中华门,,12,12,11,3,5,15,,15,14,11,11,7,6,0.7,0.3
2024-09-20T1000,1155A,118.8109,32.0309,南京市,瑞金路,,,,13,,6,,,18,16,18,15,,4,0.5,0.5
2024-09-20T1000,1156A,118.7997,32.0754,南京市,玄武湖,,16,16,18,3,2,16,,15,14,4,5,6,6,0.4,0.2
2024-09-20T1000,1157A,118.6414,32.0931,南京市,浦口,,12,12,18,3,6,20,,20,20,3,6,4,5,0.4,0.6
2024-09-20T1000,1158A,118.7356,31.9996,南京市,奥体中心,,11,11,14,7,9,19,,19,17,6,8,4,4,0.3,0.3
2024-09-20T1000,1159A,118.9125,32.1028,南京市,仙林大学城,,6,,15,3,10,19,,17,16,9,11,6,7,0.4,0.4
2024-09-20T1000,3422A,118.8436,31.9198,南京市,江宁彩虹桥,,17,17,20,3,6,21,,17,17,9,8,4,4,0.3,0.3
2024-09-20T1000,3423A,119.0138,31.6494,南京市,溧水永阳,,8,6,11,3,8,24,,17,17,10,9,4,4,0.4,0.3
2024-09-20T1000,3424A,118.879,31.3302,南京市,高淳老职中,,13,,15,9,10,25,,20,20,8,9,4,4,0.4,0.4
2024-09-20T1000,3427A,118.8554,32.3578,南京市,六合雄州,,10,10,17,3,4,18,,20,18,3,4,7,7,0.3,0.4
2024-09-20T1000,1401A,108.3103,22.7881,南宁市,二十一中,,,49,39,28,22,,,12,12,26,24,13,7,0.9,0.9
2024-09-20T1000,1402A,108.3141,22.8528,南宁市,北湖,,45,35,38,31,27,58,,17,17,27,27,8,6,0.8,0.7
2024-09-20T1000,1404A,108.3829,22.8037,南宁市,大自然花园,,39,39,34,25,22,60,,23,23,23,17,8,6,0.7,0.6
2024-09-20T1000,1405A,108.4394,22.7904,南宁市,仙葫,,43,43,36,21,21,61,,18,18,20,21,7,6,0.9,0.8
2024-09-20T1000,1406A,108.2397,22.8467,南宁市,区农职院,颗粒物(PM10),54,57,43,31,22,49,,8,8,22,17,11,8,0.8,0.7
2024-09-20T1000,1407A,108.3275,22.735,南宁市,英华嘉园,,,,37,32,22,,,20,20,24,21,12,7,0.7,0.6
2024-09-20T1000,1408A,108.2257,22.7757,南宁市,沙井镇街道办,,,62,41,47,24,,,8,7,19,24,49,4,1.0,0.9
2024-09-20T1000,3401A,108.4834,22.7618,南宁市,红星社区,,33,23,36,23,20,67,,18,18,18,17,10,8,0.8,0.6
2024-09-20T1000,2332A,118.1681,26.6369,南平市,南平市监测站,,16,16,15,11,12,37,,17,17,6,8,4,4,0.4,0.4
2024-09-20T1000,2333A,118.1825,26.6489,南平市,南平铝业有限公司,,18,,15,12,9,40,,20,20,7,9,5,4,0.5,0.5
2024-09-20T1000,2334A,118.1756,26.6272,南平市,南平七中,,,17,17,14,10,,,11,11,6,7,2,3,0.6,0.5
2024-09-20T1000,1168A,120.9098,31.9663,南通市,狼山街道,,,,9,0,2,14,,25,23,12,3,6,6,0.4,0.4
2024-09-20T1000,1169A,120.86,32.0005,南通市,虹桥,,7,6,8,3,3,12,,22,20,13,4,5,5,0.5,0.4
2024-09-20T1000,1170A,120.87,32.02,南通市,城中,,,6,13,3,2,18,,24,23,12,5,,6,0.5,0.5
2024-09-20T1000,1171A,120.94,31.93,南通市,星湖花园,,9,6,5,3,2,9,,19,17,17,7,4,5,0.6,0.4
2024-09-20T1000,1172A,120.81,32.0417,南通市,紫琅学院,,8,6,6,3,1,13,,23,21,16,7,7,7,0.4,0.4
2024-09-20T1000,3291A,121.067,32.062,南通市,通州监测站,,,6,11,3,2,,,30,30,11,4,4,4,0.6,0.5
2024-09-20T1000,3432A,120.9348,31.9883,南通市,环境教育馆,,8,6,12,3,2,18,,25,24,15,7,3,3,0.4,0.4
2024-09-20T1000,2404A,112.5224,33.0122,南阳市,瓦房庄,,41,41,26,20,14,84,,56,56,10,12,4,4,0.5,0.6
2024-09-20T1000,2405A,112.5003,32.9735,南阳市,汉画馆,,35,34,22,24,19,78,,53,53,12,12,7,7,0.5,0.6
2024-09-20T1000,2406A,112.5573,33.027,南阳市,气象站,,43,43,26,19,16,77,,49,49,8,11,8,6,0.6,0.7
2024-09-20T1000,2407A,112.5481,32.9689,南阳市,理工学院,,34,34,20,14,11,81,,59,59,12,11,6,5,0.5,0.6
2024-09-20T1000,4008A,112.5234,32.9922,南阳市,卧龙区政府,,40,40,23,22,17,78,,53,52,14,15,5,5,0.6,0.7
2024-09-20T1000,1234A,121.8358,29.911,宁波市,区环保大楼,,21,21,16,9,5,52,,40,40,6,8,2,2,0.6,0.6
2024-09-20T1000,1235A,121.56,29.82,宁波市,万里学院,,14,12,18,6,8,43,,26,26,10,12,6,5,0.5,0.5
2024-09-20T1000,1236A,121.713,29.9572,宁波市,龙赛医院,,17,9,14,3,6,53,,39,39,5,8,7,7,0.6,0.6
2024-09-20T1000,1239A,121.633,29.7733,宁波市,钱湖水厂,,13,12,14,8,5,39,,26,26,8,8,8,7,1.0,0.9
2024-09-20T1000,1240A,121.5856,29.8635,宁波市,太古小学,,14,14,16,3,6,39,,25,25,15,13,7,7,0.7,0.7
2024-09-20T1000,1241A,121.524,29.8674,宁波市,市环境监测中心,,21,21,20,9,6,38,,23,23,11,11,8,7,0.6,0.6
2024-09-20T1000,2871A,121.6147,29.9017,宁波市,万里国际学校,,15,8,13,3,6,45,,30,30,10,10,6,7,0.4,0.4
2024-09-20T1000,3710A,121.5594,29.8975,宁波市,白沙活动中心,,16,16,20,3,5,39,,27,27,14,10,8,8,0.3,0.3
2024-09-20T1000,2341A,119.5388,26.6612,宁德市,宁德市监测站,,23,23,14,6,7,36,,16,16,12,10,6,6,0.5,0.4
2024-09-20T1000,3209A,119.5231,26.6562,宁德市,宁德一中,,28,28,17,6,10,42,,15,15,9,7,4,4,0.3,0.4
2024-09-20T1000,2618A,98.8601,25.8567,怒江傈僳族自治州,州监测站,,32,32,29,17,20,41,,32,32,9,10,5,5,0.4,0.3
2024-09-20T1000,2619A,98.8546,25.8417,怒江傈僳族自治州,泸水一中,,30,28,29,21,20,24,,22,21,15,16,7,7,0.4,0.4
2024-09-20T1000,1888A,101.6891,26.571,攀枝花市,弄弄坪,颗粒物(PM10),52,53,57,25,30,44,,32,29,23,27,21,23,1.3,1.4
2024-09-20T1000,1889A,101.5769,26.5928,攀枝花市,河门口,,43,43,49,27,31,45,,31,30,14,19,9,13,0.8,1
2024-09-20T1000,1890A,101.7169,26.585,攀枝花市,炳草岗,颗粒物(PM10),67,84,55,41,33,25,,20,18,46,33,23,25,2.9,1.5
2024-09-20T1000,1891A,101.7369,26.5008,攀枝花市,仁和,,43,43,44,29,30,49,,31,30,18,17,12,14,0.9,1
2024-09-20T1000,2835A,101.7227,26.567,攀枝花市,四十中小,颗粒物(PM10),55,59,55,32,31,26,,15,15,40,39,28,17,2.3,1.3
2024-09-20T1000,1604A,122.0303,41.1489,盘锦市,开发区,,,,31,0,12,,,61,59,,12,16,11,0.1,0.2
2024-09-20T1000,1605A,122.0485,41.0883,盘锦市,兴隆台,,16,11,32,3,13,50,,62,58,17,16,4,5,0.2,0.4
2024-09-20T1000,1606A,121.8297,41.1028,盘锦市,新生街道,,16,10,26,8,10,50,,58,56,12,14,8,9,0.2,0.5
2024-09-20T1000,1832A,113.3257,33.742,平顶山市,新华旅馆,,50,50,36,23,25,53,,30,30,13,14,9,5,0.7,0.8
2024-09-20T1000,1833A,113.2919,33.737,平顶山市,规划设计院,,36,33,27,25,17,53,,30,30,13,16,8,6,1.0,1
2024-09-20T1000,1834A,113.182,33.774,平顶山市,平顶山工学院,,36,36,24,22,14,35,,20,20,19,18,18,9,0.8,0.8
2024-09-20T1000,3204A,113.3025,33.73,平顶山市,规划局,,41,41,27,26,21,51,,28,28,14,18,9,4,0.8,0.9
2024-09-20T1000,3594A,112.8867,33.9116,平顶山市,石龙区,,42,42,33,8,10,61,,21,21,6,28,10,9,0.5,0.7
2024-09-20T1000,2656A,106.6692,35.5461,平凉市,聚贤嘉苑,,30,30,55,16,26,67,,78,73,11,15,5,6,0.3,0.4
2024-09-20T1000,2657A,106.7021,35.5307,平凉市,博物馆,,36,36,64,9,25,71,,78,74,3,10,8,7,0.2,0.4
2024-09-20T1000,2347A,114.0997,27.5002,萍乡市,武功山,,28,28,39,3,14,42,,40,39,8,7,10,9,0.7,0.6
2024-09-20T1000,2348A,113.8385,27.6434,萍乡市,中医院,,,,52,,35,,,31,26,,14,,15,1.5,1.1
2024-09-20T1000,2349A,113.8493,27.6253,萍乡市,市政府车库,,47,47,45,23,30,37,,39,35,11,10,14,14,0.9,0.8
2024-09-20T1000,2350A,113.8676,27.6435,萍乡市,市环保局,,45,45,43,29,29,35,,35,31,14,10,15,14,1.2,0.9
2024-09-20T1000,2351A,113.866,27.6198,萍乡市,安源区政府,细颗粒物(PM2.5),53,39,43,37,27,34,,41,37,16,13,10,12,0.6,0.6
2024-09-20T1000,2319A,119.0141,25.4325,莆田市,荔城区仓后路,,31,31,22,16,8,60,,23,23,15,11,8,7,0.6,0.6
2024-09-20T1000,2320A,119.0015,25.4553,莆田市,莆田市监测站,,30,30,20,15,4,71,,22,22,7,3,9,6,0.6,0.5
2024-09-20T1000,2321A,119.1119,25.4561,莆田市,涵江区六中,,23,23,18,10,7,66,,22,22,8,11,10,8,0.7,0.6
2024-09-20T1000,2322A,119.1013,25.3215,莆田市,秀屿区政府,,33,28,27,23,14,55,,18,18,11,14,8,8,0.8,0.6
2024-09-20T1000,2392A,115.0312,35.7636,濮阳市,环保局,细颗粒物(PM2.5),79,,40,58,47,72,,44,44,16,18,10,8,0.5,0.4
2024-09-20T1000,2394A,115.0574,35.7609,濮阳市,油田运输公司,细颗粒物(PM2.5),64,64,52,46,41,71,,48,48,15,14,5,5,0.7,0.6
2024-09-20T1000,2395A,115.0866,35.7754,濮阳市,油田物探公司,,,71,62,57,51,,,29,29,16,22,3,3,0.5,0.4
2024-09-20T1000,3021A,115,35.7668,濮阳市,濮水河管理处,细颗粒物(PM2.5),68,53,38,49,41,73,,27,27,12,17,6,5,0.6,0.5
2024-09-20T1000,2601A,100.98,22.7633,普洱市,市环保局,,31,31,27,21,17,28,,31,30,25,8,11,10,0.8,0.4
2024-09-20T1000,2602A,100.9817,22.8322,普洱市,普洱第二中学,颗粒物(PM10),52,53,31,17,12,31,,21,20,24,11,10,9,0.7,0.5
2024-09-20T1000,2262A,131.0518,45.8751,七台河市,新一中,,15,,10,10,4,40,,39,37,5,5,8,9,1.0,1
2024-09-20T1000,3345A,131.0577,45.7879,七台河市,中波台,,24,24,15,3,6,29,,27,24,16,13,7,6,0.4,0.3
2024-09-20T1000,3637A,131.0176,45.7761,七台河市,人民广场,,25,25,20,9,9,31,,31,28,13,11,9,9,0.3,0.2
2024-09-20T1000,3684A,130.8781,45.8222,七台河市,新建矿广场,,24,24,40,16,18,31,,23,23,12,14,7,5,0.3,0.3
2024-09-20T1000,1779A,123.9305,47.3636,齐齐哈尔市,安居小区,,13,12,19,3,7,41,,31,31,7,12,7,8,0.3,0.3
2024-09-20T1000,1780A,123.9488,47.3386,齐齐哈尔市,中心广场,,35,,14,24,10,38,,36,35,7,12,2,2,0.3,0.3
2024-09-20T1000,1781A,123.9483,47.3227,齐齐哈尔市,农牧车辆厂,,,,20,,5,41,,37,37,7,11,,7,0.3,0.3
2024-09-20T1000,1783A,123.945,47.2988,齐齐哈尔市,市环境监测站,,19,19,16,11,9,40,,36,36,6,11,8,8,0.2,0.2
2024-09-20T1000,3662A,123.6333,47.2075,齐齐哈尔市,富区青少年活动中心,,14,12,32,7,12,44,,34,34,5,11,4,7,0.4,0.6
2024-09-20T1000,2591A,107.9783,26.5747,黔东南苗族侗族自治州,市环境监测站,,27,27,28,18,20,67,,41,41,14,21,4,4,0.6,0.5
2024-09-20T1000,2881A,107.8908,26.5311,黔东南苗族侗族自治州,凯里学院,,26,24,21,18,22,74,,45,45,9,10,3,2,0.7,0.6
2024-09-20T1000,2593A,107.5228,26.2403,黔南布依族苗族自治州,小围寨,,24,24,19,12,12,75,,45,45,10,10,5,5,0.5,0.5
2024-09-20T1000,3538A,107.5175,26.2978,黔南布依族苗族自治州,沙坝,,,,24,12,14,77,,36,36,,10,6,4,0.6,0.6
2024-09-20T1000,2589A,104.9022,25.0925,黔西南布依族苗族自治州,场坝街,,39,39,30,15,21,37,,28,27,25,17,49,24,0.4,0.3
2024-09-20T1000,2590A,104.8811,25.0992,黔西南布依族苗族自治州,坪东大道,,43,40,31,30,22,44,,20,20,21,18,25,12,0.4,0.3
2024-09-20T1000,2503A,108.6549,21.9481,钦州市,沙埠小学,,,50,59,16,28,,,21,17,,26,5,6,0.6,0.9
2024-09-20T1000,2504A,108.5989,21.7431,钦州市,港区一小,颗粒物(PM10),54,58,60,19,22,58,,30,30,22,32,8,7,0.7,0.7
2024-09-20T1000,3404A,108.5959,21.9633,钦州市,北职校,,49,49,52,18,27,67,,32,32,7,18,6,7,0.6,0.7
2024-09-20T1000,1042A,119.5134,39.8207,秦皇岛市,北戴河环保局,,28,28,34,7,10,84,,67,67,9,10,2,2,0.2,0.4
2024-09-20T1000,1043A,119.7493,40.0116,秦皇岛市,第一关,,,,45,15,24,86,,64,64,,25,3,3,0.1,0.5
2024-09-20T1000,1044A,119.5897,39.9499,秦皇岛市,监测站,,28,22,35,19,21,86,,64,64,5,19,3,3,0.2,0.5
2024-09-20T1000,1046A,119.5251,39.9041,秦皇岛市,建设大厦,,26,20,35,11,14,83,,68,68,1,15,1,5,0.2,0.6
2024-09-20T1000,3132A,119.610547,39.943889,秦皇岛市,文明里,,31,31,44,3,11,93,,71,71,6,16,1,3,0.2,0.5
2024-09-20T1000,1307A,120.6659,36.2403,青岛市,仰口,,23,18,15,16,15,53,,54,51,2,3,7,7,0.3,0.2
2024-09-20T1000,1310A,120.4134,36.0658,青岛市,市南区东部子站,,15,14,14,3,8,48,,45,43,4,5,7,6,0.2,0.3
2024-09-20T1000,1311A,120.3664,36.1032,青岛市,四方区子站,,15,12,14,7,8,48,,34,34,12,14,10,10,0.5,0.5
2024-09-20T1000,1312A,120.2994,36.054,青岛市,市南区西部子站,,,14,16,,2,47,,45,43,2,3,8,9,0.6,0.6
2024-09-20T1000,1313A,120.4581,36.0858,青岛市,崂山区子站,,,27,27,,5,52,,49,48,8,9,8,9,0.4,0.4
2024-09-20T1000,1314A,120.1983,35.9608,青岛市,黄岛区子站,,15,6,12,3,7,46,,48,44,8,9,8,9,0.4,0.4
2024-09-20T1000,1315A,120.3999,36.3083,青岛市,城阳区子站,,17,14,15,10,10,52,,51,49,9,12,7,7,0.5,0.5
2024-09-20T1000,1966A,120.0405,35.8735,青岛市,黄岛区4号,,14,9,15,3,6,43,,44,40,5,6,6,6,0.4,0.4
2024-09-20T1000,3362A,120.5014,36.4034,青岛市,即墨2号,,18,18,20,11,13,50,,51,46,5,6,6,6,0.4,0.4
2024-09-20T1000,3642A,120.3503,36.0736,青岛市,市北区南部,,21,21,16,3,7,41,,41,38,12,12,7,7,0.6,0.6
2024-09-20T1000,3643A,120.3948,36.1805,青岛市,李沧区北部,,16,9,15,7,9,51,,46,46,6,12,9,9,0.4,0.5
2024-09-20T1000,1702A,113.0426,23.691,清远市,环保大楼,,33,,18,23,19,77,,35,35,12,11,10,9,1.0,0.8
2024-09-20T1000,1703A,113.0208,23.7106,清远市,凤城街办,,36,36,26,20,16,73,,30,30,8,10,11,8,0.7,0.7
2024-09-20T1000,3025A,113.0477,23.6344,清远市,技师学院,,36,36,32,20,16,60,,20,20,10,16,6,6,0.9,0.8
2024-09-20T1000,3318A,112.9903,23.7403,清远市,清新太和,,30,30,34,16,16,56,,29,29,20,12,1,2,0.9,0.7
2024-09-20T1000,3455A,113.076,23.7198,清远市,清城东城,,26,26,25,10,14,61,,24,24,8,8,2,3,0.9,0.7
2024-09-20T1000,2661A,107.6325,35.7357,庆阳市,庆阳五中,,,35,45,8,20,,,60,57,,7,6,6,,0.4
2024-09-20T1000,2662A,107.6364,35.7067,庆阳市,市环保局,,35,35,43,7,17,54,,62,59,8,9,5,6,0.3,0.4
2024-09-20T1000,1916A,103.7897,25.5035,曲靖市,环境监测站,,44,44,28,26,14,71,,48,48,18,10,21,8,1.2,0.8
2024-09-20T1000,1917A,103.8,25.5364,曲靖市,烟厂办公区,颗粒物(PM10),52,54,28,18,15,69,,48,48,18,10,23,6,1.4,0.8
2024-09-20T1000,3376A,103.7947,25.462,曲靖市,南苑二区,,48,48,24,26,15,74,,42,42,18,12,18,11,1.2,0.8
2024-09-20T1000,3377A,103.7444,25.5261,曲靖市,曲靖师范学院,,36,33,26,25,17,83,,31,31,11,17,16,13,1.5,0.7
2024-09-20T1000,1264A,118.8692,28.9398,衢州市,环保大楼,颗粒物(PM10),91,132,96,21,17,39,,19,19,13,16,3,2,0.6,0.5
2024-09-20T1000,1265A,118.8709,28.9666,衢州市,实验学校,,32,32,26,18,15,26,,10,10,17,16,7,5,0.6,0.5
2024-09-20T1000,1266A,118.8621,28.9808,衢州市,衢州学院,,40,40,19,23,14,31,,12,12,17,18,4,5,0.5,0.5
2024-09-20T1000,1611A,118.5819,24.9117,泉州市,涂山街,,46,46,25,22,13,45,,23,23,19,13,2,2,0.7,0.6
2024-09-20T1000,1612A,118.5972,24.8978,泉州市,津头埔,,32,32,27,17,13,37,,20,20,20,15,4,4,0.5,0.6
2024-09-20T1000,1613A,118.6663,24.9424,泉州市,万安,,36,36,24,16,11,41,,16,16,14,12,2,2,0.6,0.6
2024-09-20T1000,3529A,118.6333,24.9264,泉州市,城华南路,,29,29,24,16,13,40,,18,18,12,10,4,4,0.4,0.4
2024-09-20T1000,2626A,88.8876,29.2718,日喀则市,日喀则监测站,,22,17,12,6,4,69,,69,64,8,7,5,5,0.4,0.4
2024-09-20T1000,3726A,88.8781,29.2426,日喀则市,林业技术推广中心,,18,17,10,12,6,50,,59,51,17,7,6,6,0.6,0.4
2024-09-20T1000,1659A,119.471,35.4209,日照市,监测站,,26,22,13,18,12,32,,30,25,16,10,10,10,0.4,0.3
2024-09-20T1000,1660A,119.523,35.4216,日照市,市政府广场,,18,17,13,12,9,34,,44,37,13,6,12,11,0.6,0.5
2024-09-20T1000,1661A,119.5587,35.4044,日照市,港务局,,29,29,16,18,14,40,,49,40,14,6,10,8,0.6,0.4
2024-09-20T1000,3507A,119.5328,35.4625,日照市,职业技术学院,,25,17,14,17,9,38,,38,34,14,10,10,10,0.5,0.4
2024-09-20T1000,3604A,119.3266,35.1044,日照市,岚山环保分局,,20,14,18,14,9,26,,45,36,18,9,13,9,1.3,0.6
2024-09-20T1000,1835A,111.1922,34.7752,三门峡市,市政府,,29,29,19,19,14,45,,64,56,24,12,12,8,0.6,0.6
2024-09-20T1000,1836A,111.1587,34.7942,三门峡市,开发区,,49,49,25,26,14,43,,56,50,20,10,15,11,0.7,0.6
2024-09-20T1000,3039A,111.1911,34.7829,三门峡市,三门峡市第一小学,,45,45,22,20,12,43,,59,53,23,10,10,8,0.7,0.6
2024-09-20T1000,3598A,111.1,34.7167,三门峡市,富达温泉假日酒店,,47,47,29,30,18,54,,38,38,20,13,18,8,0.5,0.4
2024-09-20T1000,2324A,117.6211,26.2625,三明市,三钢,,22,22,20,13,12,46,,13,13,7,13,6,7,0.3,0.5
2024-09-20T1000,2325A,117.635,26.2714,三明市,三明二中,,36,36,17,13,13,46,,16,16,7,12,3,3,0.5,0.6
2024-09-20T1000,2326A,117.6028,26.2378,三明市,三元区政府,,23,23,19,12,12,47,,13,13,12,13,7,3,1.0,0.8
2024-09-20T1000,1876A,109.5078,18.2489,三亚市,河东子站,,,7,9,3,4,,,48,48,2,2,3,3,0.5,0.5
2024-09-20T1000,1877A,109.4964,18.2681,三亚市,河西子站,,16,12,8,3,4,49,,47,46,4,3,3,4,0.3,0.3
2024-09-20T1000,3540A,109.7348,18.3443,三亚市,君悦子站,,12,6,14,3,5,36,,45,44,12,3,3,3,0.3,0.3
2024-09-20T1000,2624A,91.7608,29.2313,山南市,山南监测站,,21,,13,14,5,67,,80,76,11,4,8,8,0.3,0.2
2024-09-20T1000,2625A,91.7706,29.2436,山南市,山南人民医院,细颗粒物(PM2.5),99,84,24,74,15,62,,82,76,16,7,8,8,0.4,0.3
2024-09-20T1000,1674A,116.6794,23.3667,汕头市,金平子站,,18,,16,12,13,54,,48,47,6,7,6,5,0.7,0.5
2024-09-20T1000,1675A,116.7244,23.3633,汕头市,龙湖子站,,,,19,8,12,49,,43,41,5,4,7,6,0.5,0.5
2024-09-20T1000,1676A,116.7258,23.2775,汕头市,濠江子站,,19,17,16,13,13,52,,42,40,5,7,6,6,0.6,0.5
2024-09-20T1000,1677A,116.7519,23.4714,汕头市,澄海子站,,16,16,20,11,15,50,,48,45,10,8,5,6,0.7,0.6
2024-09-20T1000,1678A,116.6092,23.2539,汕头市,潮阳子站,,25,,20,17,13,51,,47,44,4,3,5,5,0.6,0.6
2024-09-20T1000,3444A,116.454,23.2684,汕头市,潮南峡山,,20,20,25,14,10,49,,37,37,3,5,8,6,0.6,0.6
2024-09-20T1000,3624A,116.4069,23.2533,汕头市,潮南子站,,21,21,30,14,14,46,,39,37,13,11,8,6,0.7,0.6
2024-09-20T1000,1693A,115.3653,22.775,汕尾市,市环保局,,28,28,25,16,16,37,,34,32,12,9,7,7,0.7,0.6
2024-09-20T1000,1694A,115.3706,22.7898,汕尾市,市政府,,,22,24,17,16,,,30,28,,11,7,7,0.5,0.5
2024-09-20T1000,1695A,115.3622,22.7925,汕尾市,新城中学,,37,37,29,14,14,33,,32,30,9,8,6,6,0.7,0.7
2024-09-20T1000,2645A,109.9154,33.8715,商洛市,监测站,,18,17,18,11,9,55,,42,42,10,11,4,5,0.7,0.6
2024-09-20T1000,3045A,109.9643,33.8471,商洛市,商州区中学,,36,36,26,12,11,60,,32,30,12,18,5,6,0.8,0.7
2024-09-20T1000,2408A,115.6702,34.4285,商丘市,环境监测站,,28,,36,19,24,50,,28,25,9,10,8,5,0.4,0.5
2024-09-20T1000,2409A,115.6458,34.4045,商丘市,粮食局,,31,31,36,19,23,53,,34,31,9,8,11,8,0.5,0.5
2024-09-20T1000,2410A,115.6293,34.3948,商丘市,睢阳区环保局,,24,24,38,10,22,46,,28,24,6,6,9,7,0.5,0.5
2024-09-20T1000,3171A,115.6071,34.4465,商丘市,梁园区档案局,,29,29,45,8,23,59,,25,23,7,12,11,9,0.5,0.5
2024-09-20T1000,1141A,121.4,31.238,上海市,普陀,,7,6,16,3,5,22,,23,23,13,10,4,5,0.6,0.5
2024-09-20T1000,1142A,121.478,31.2036,上海市,十五厂,,9,,16,6,10,26,,26,26,16,11,7,7,0.6,0.4
2024-09-20T1000,1143A,121.467,31.3008,上海市,虹口,,8,,16,3,6,23,,26,26,14,10,8,9,0.7,0.6
2024-09-20T1000,1144A,121.412,31.1654,上海市,徐汇上师大,,9,7,17,6,9,25,,24,24,16,14,6,6,0.6,0.6
2024-09-20T1000,1145A,121.536,31.2659,上海市,杨浦四漂,,9,,15,3,6,28,,30,30,14,10,5,5,0.5,0.4
2024-09-20T1000,1147A,121.425,31.2261,上海市,静安监测站,,8,6,16,3,6,23,,25,25,16,12,5,5,0.4,0.4
2024-09-20T1000,1148A,121.703,31.1907,上海市,浦东川沙,,15,15,20,3,4,34,,33,33,16,9,6,6,0.6,0.5
2024-09-20T1000,1149A,121.533,31.2284,上海市,浦东新区监测站,,9,,16,6,7,27,,28,28,16,10,6,6,0.6,0.4
2024-09-20T1000,1150A,121.577,31.2071,上海市,浦东张江,,,,18,11,8,,,24,24,22,12,5,5,0.9,0.8
2024-09-20T1000,3265A,121.4316,31.3322,上海市,宝山庙行,,,,19,38,8,,,28,28,,9,6,6,0.4,0.5
2024-09-20T1000,3266A,121.8791,31.4662,上海市,崇明上实东滩,,13,13,20,6,8,36,,40,40,12,5,8,8,0.4,0.4
2024-09-20T1000,3268A,121.3162,31.2838,上海市,嘉定南翔,,14,6,15,3,5,9,,13,13,27,16,6,6,0.8,0.7
2024-09-20T1000,3269A,121.3359,30.7456,上海市,金山新城,,13,13,21,7,9,31,,17,17,10,12,6,5,0.4,0.4
2024-09-20T1000,3270A,121.4996,31.0739,上海市,闵行浦江,,,,18,0,7,19,,27,27,19,10,5,5,0.7,0.5
2024-09-20T1000,3271A,121.2886,31.1663,上海市,青浦徐泾,,9,7,14,6,6,17,,16,16,17,15,6,6,0.5,0.5
2024-09-20T1000,3272A,121.2186,31.0378,上海市,松江图书馆,,8,7,9,3,6,16,,12,12,16,13,4,3,0.5,0.5
2024-09-20T1000,3273A,121.3902,31.2059,上海市,长宁仙霞,,,,16,4,6,22,,24,24,17,12,7,8,0.9,0.7
2024-09-20T1000,3274A,121.7965,31.0507,上海市,浦东惠南,,13,9,16,3,7,28,,32,32,26,11,8,8,1.0,0.9
2024-09-20T1000,3544A,121.4891,30.925,上海市,奉贤南桥新城,,11,11,15,3,5,28,,24,24,21,12,8,8,0.6,0.5
2024-09-20T1000,2381A,118.005,28.4572,上饶市,百草园,,42,42,28,22,15,22,,13,13,12,12,12,11,0.4,0.3
2024-09-20T1000,2382A,117.9756,28.4436,上饶市,市监测站,,,51,29,16,15,,,20,,,13,31,24,0.8,0.7
2024-09-20T1000,2383A,117.9519,28.4628,上饶市,凤凰光学,颗粒物(PM10),53,56,30,27,18,30,,20,19,16,14,21,20,0.8,0.8
2024-09-20T1000,3413A,118.1953,28.4401,上饶市,广丰区教体局,,49,43,24,34,14,39,,28,28,14,12,55,48,1.2,1
2024-09-20T1000,3685A,117.897,28.4315,上饶市,双创科技城,颗粒物(PM10),53,55,36,26,18,38,,18,18,18,22,29,21,0.6,0.6
2024-09-20T1000,1669A,113.5824,24.7733,韶关市,市八中,,23,23,32,11,19,55,,23,23,4,10,12,13,0.5,0.6
2024-09-20T1000,1671A,113.5917,24.7972,韶关市,园林处,,18,16,24,12,20,56,,25,25,3,12,10,11,0.5,0.6
2024-09-20T1000,1672A,113.6735,24.7791,韶关市,韶关学院,,,,25,,15,,,6,6,7,13,,8,0.4,0.3
2024-09-20T1000,1673A,113.5971,24.6863,韶关市,曲江监测站,,25,25,35,12,18,57,,16,16,7,15,12,12,0.5,0.6
2024-09-20T1000,3622A,113.5556,24.8082,韶关市,碧湖山庄,,30,30,47,17,28,60,,23,23,3,8,10,11,0.5,0.5
2024-09-20T1000,2463A,111.4733,27.2317,邵阳市,市一中,细颗粒物(PM2.5),79,,35,58,24,66,,70,62,12,8,7,7,0.8,0.7
2024-09-20T1000,2464A,111.5283,27.2442,邵阳市,市化工厂,细颗粒物(PM2.5),77,60,32,56,22,66,,67,64,11,9,9,5,0.9,0.7
2024-09-20T1000,2465A,111.4503,27.2537,邵阳市,市罐头厂,细颗粒物(PM2.5),65,66,34,47,25,44,,70,60,14,8,6,7,0.9,0.7
2024-09-20T1000,2466A,111.4328,27.2272,邵阳市,市环保局,细颗粒物(PM2.5),64,47,34,46,28,44,,64,52,10,7,5,5,0.8,0.6
2024-09-20T1000,1247A,120.6053,29.9928,绍兴市,城东开发委,,11,11,14,3,6,27,,20,20,10,12,6,6,0.6,0.5
2024-09-20T1000,2921A,120.5483,30.0003,绍兴市,树下王站,,11,8,10,3,3,35,,22,22,6,10,4,4,0.6,0.5
2024-09-20T1000,3408A,120.5683,29.9361,绍兴市,绍兴中专,,,6,13,3,5,,,20,20,6,11,2,2,0.5,0.5
2024-09-20T1000,3409A,120.4906,30.0861,绍兴市,柯桥区政府,,14,12,18,3,8,42,,18,18,8,16,5,6,0.6,0.6
2024-09-20T1000,3410A,120.8752,30.0249,绍兴市,重华小学,,9,9,18,6,8,28,,9,9,8,15,9,9,0.7,0.7
2024-09-20T1000,3411A,120.8369,30.0137,绍兴市,上虞中学,,14,14,20,8,9,19,,6,6,11,13,9,6,0.6,0.6
2024-09-20T1000,3560A,120.4722,30.0415,绍兴市,柯桥妇保,,16,16,22,3,8,37,,11,11,8,14,7,7,0.5,0.5
2024-09-20T1000,3658A,120.6153,30.0764,绍兴市,袍江中学,,11,11,15,6,8,28,,20,20,8,13,3,3,0.6,0.6
2024-09-20T1000,1356A,114.1063,22.5545,深圳市,通心岭子站,,22,17,29,9,15,68,,35,32,12,14,4,4,0.5,0.5
2024-09-20T1000,1357A,114.117,22.5625,深圳市,洪湖,,20,15,33,6,15,62,,25,24,14,18,7,8,0.5,0.5
2024-09-20T1000,1358A,113.987,22.5417,深圳市,华侨城,,30,21,33,21,14,58,,26,26,16,13,6,8,0.7,0.7
2024-09-20T1000,1359A,113.9181,22.5171,深圳市,南海子站,,26,26,39,9,19,74,,45,41,16,16,7,8,0.5,0.5
2024-09-20T1000,1360A,114.2458,22.5689,深圳市,盐田,,24,24,37,13,13,73,,36,34,14,17,8,8,0.6,0.6
2024-09-20T1000,1361A,114.2283,22.7244,深圳市,龙岗,,26,26,39,12,17,71,,33,33,12,21,5,6,0.6,0.6
2024-09-20T1000,1363A,114.494,22.5422,深圳市,南澳,,21,15,24,11,12,65,,47,47,6,6,8,7,0.4,0.3
2024-09-20T1000,1364A,114.41,22.6342,深圳市,葵涌,,21,16,31,9,14,66,,29,29,12,12,7,7,0.6,0.6
2024-09-20T1000,1365A,114.297,22.5978,深圳市,梅沙,,26,20,29,8,15,83,,49,49,5,5,6,6,0.5,0.4
2024-09-20T1000,1366A,114.0678,22.738,深圳市,观澜,,44,44,41,22,24,74,,18,18,25,27,6,7,0.6,0.6
2024-09-20T1000,3305A,114.0731,22.559,深圳市,莲花,,25,25,30,14,16,38,,24,21,17,15,4,4,0.5,0.5
2024-09-20T1000,3306A,114.0261,22.6198,深圳市,民治,,29,29,38,16,15,55,,16,16,19,28,6,6,0.5,0.6
2024-09-20T1000,3307A,114.1871,22.6451,深圳市,横岗,,23,23,34,16,19,66,,30,30,15,28,6,6,0.7,0.7
2024-09-20T1000,3447A,114.3551,22.7151,深圳市,坪山,,30,30,33,20,26,67,,19,19,15,19,6,6,0.6,0.6
2024-09-20T1000,3623A,113.8953,22.5861,深圳市,西乡,,43,43,40,20,16,56,,19,19,25,28,5,5,0.6,0.5
2024-09-20T1000,1099A,123.505,41.7406,沈阳市,浑南东路,,25,25,48,7,20,42,,40,39,18,31,8,13,0.3,0.9
2024-09-20T1000,1100A,123.4231,41.6989,沈阳市,新秀街,,22,22,49,15,21,35,,41,38,20,26,8,12,0.4,0.9
2024-09-20T1000,1102A,123.5903,41.8411,沈阳市,东陵路,,15,9,44,3,16,46,,40,40,13,25,7,11,0.2,0.8
2024-09-20T1000,1103A,123.4264,41.8467,沈阳市,陵东街,,19,19,34,3,14,25,,44,38,29,27,7,9,0.6,1
2024-09-20T1000,1104A,123.4114,41.7653,沈阳市,文化路,,25,25,45,3,20,27,,45,39,24,23,8,12,0.3,0.8
2024-09-20T1000,1105A,123.4678,41.7867,沈阳市,小河沿,,,22,44,3,19,28,,46,40,26,25,,13,,1.1
2024-09-20T1000,1106A,123.4017,41.7972,沈阳市,太原街,,41,41,56,6,20,20,,41,34,29,33,8,12,0.4,0.8
2024-09-20T1000,1108A,123.3783,41.9228,沈阳市,京沈街,,16,16,38,3,15,29,,42,38,16,20,10,16,0.4,0.7
2024-09-20T1000,2897A,123.2444,41.7347,沈阳市,沈辽西路,,15,14,43,10,21,25,,46,40,28,29,8,11,0.6,1
2024-09-20T1000,2900A,123.5953,41.9086,沈阳市,裕农路,,18,18,36,7,16,35,,38,36,15,26,7,9,0.4,0.8
