timepoint,stationcode,longitude,latitude,area,positionname,primarypollutant,aqi,pm10,pm10_24h,pm2_5,pm2_5_24h,o3,o3_24h,o3_8h,o3_8h_24h,no2,no2_24h,so2,so2_24h,co,co_24h
2023-12-06T2200,2566A,102.1879,31.914,阿坝藏族羌族自治州,州农科所,,,,,,,16,,38,27,15,11,5,8,0.5,0.1
2023-12-06T2200,2568A,102.2502,31.8896,阿坝藏族羌族自治州,马师校,,28,28,22,18,16,25,,77,50,36,20,4,4,0.7,0.6
2023-12-06T2200,3994A,102.2165,31.9024,阿坝藏族羌族自治州,马尔康中学西区,,23,22,21,16,14,29,,80,58,34,12,4,4,0.6,0.5
2023-12-06T2200,2695A,80.292,41.1694,阿克苏地区,电视台,颗粒物(PM10),125,200,146,75,58,6,,78,70,101,50,12,9,3.3,1.4
2023-12-06T2200,2696A,80.2613,41.1551,阿克苏地区,艺术中心,颗粒物(PM10),112,173,131,80,65,8,,64,54,116,57,11,9,2.9,1.3
2023-12-06T2200,2204A,105.6467,38.8363,阿拉善盟,西城区西花园,颗粒物(PM10),52,54,93,22,24,57,,89,75,26,13,10,9,0.5,0.4
2023-12-06T2200,2205A,105.6985,38.8411,阿拉善盟,蒙二幼,,48,48,106,15,26,66,,88,79,21,15,5,5,0.7,0.7
2023-12-06T2200,2206A,105.724,38.8516,阿拉善盟,环保局新楼,,32,32,70,12,23,91,,89,89,5,7,7,8,0.5,0.5
2023-12-06T2200,2708A,88.1264,47.8517,阿勒泰地区,市站,,28,13,10,9,7,15,,44,40,55,34,4,5,0.5,0.4
2023-12-06T2200,2630A,80.1161,32.5,阿里地区,阿里监测站,,28,28,9,12,4,56,,84,82,30,19,11,10,0.6,0.5
2023-12-06T2200,3192A,80.0903,32.5028,阿里地区,阿里藏医院,,25,25,13,6,6,54,,88,86,31,29,11,11,0.6,0.6
2023-12-06T2200,2642A,109.0318,32.6537,安康市,香溪洞,颗粒物(PM10),80,109,79,33,38,60,,60,60,9,19,5,7,0.6,0.8
2023-12-06T2200,2643A,109.0281,32.6939,安康市,安康市监测站,颗粒物(PM10),112,173,102,54,54,9,,29,24,41,30,10,12,0.9,1
2023-12-06T2200,2644A,109.0072,32.6975,安康市,汉滨区检察院,颗粒物(PM10),87,124,90,45,53,12,,34,30,32,27,7,13,0.7,0.8
2023-12-06T2200,2291A,117.0809,30.5177,安庆市,环科院,颗粒物(PM10),98,146,107,64,73,2,,51,29,84,42,9,8,0.9,0.9
2023-12-06T2200,2292A,117.0331,30.5119,安庆市,马山宾馆,颗粒物(PM10),97,144,105,60,70,6,,45,34,89,44,8,7,0.9,1.1
2023-12-06T2200,2294A,116.9896,30.6145,安庆市,安庆大学,细颗粒物(PM2.5),120,172,106,91,70,9,,62,46,77,39,9,9,1.1,1
2023-12-06T2200,3173A,117.0598,30.5351,安庆市,市人大,颗粒物(PM10),112,173,113,77,74,2,,60,40,89,43,6,7,1.6,1.2
2023-12-06T2200,3122A,105.9606,26.2611,安顺市,伍家关,细颗粒物(PM2.5),87,,16,64,33,14,,97,69,47,13,130,23,1.0,0.5
2023-12-06T2200,3123A,105.9408,26.2431,安顺市,凤凰山,细颗粒物(PM2.5),89,79,32,66,27,4,,92,69,72,17,147,25,1.6,0.6
2023-12-06T2200,3124A,105.9439,26.2564,安顺市,金钟山,细颗粒物(PM2.5),60,46,31,43,24,65,,91,86,19,11,84,19,0.6,0.5
2023-12-06T2200,3125A,105.8983,26.2481,安顺市,娄家坡,细颗粒物(PM2.5),88,89,35,65,31,23,,90,73,51,13,43,16,0.9,0.5
2023-12-06T2200,1818A,114.4839,36.0621,安阳市,棉研所,颗粒物(PM10),126,201,182,42,40,25,,79,59,42,19,8,8,0.4,0.4
2023-12-06T2200,1819A,114.3551,36.1017,安阳市,红庙街,颗粒物(PM10),122,194,195,50,38,21,,77,56,57,19,8,8,0.1,0.8
2023-12-06T2200,1820A,114.361,36.0681,安阳市,银杏小区,颗粒物(PM10),123,196,190,44,27,18,,77,53,54,17,8,8,0.7,0.7
2023-12-06T2200,3141A,114.3922,36.0878,安阳市,信访局,颗粒物(PM10),132,214,208,46,29,31,,79,61,43,11,6,7,0.7,0.7
2023-12-06T2200,3669A,114.4705,36.0637,安阳市,左辅环卫站,颗粒物(PM10),131,211,196,64,42,25,,78,59,27,14,7,7,0.5,0.5
2023-12-06T2200,3703A,114.2917,36.0949,安阳市,安钢职工学校,颗粒物(PM10),128,206,210,47,35,36,,77,62,41,17,16,7,0.6,0.6
2023-12-06T2200,1748A,123.044,41.1196,鞍山市,深沟寺,,33,33,63,9,37,24,,50,43,40,22,7,13,0.4,0.8
2023-12-06T2200,1749A,123.011,41.0931,鞍山市,太阳城,,27,27,54,9,22,48,,50,48,18,27,10,20,0.4,1.4
2023-12-06T2200,1750A,123.0485,41.1442,鞍山市,太平,,34,34,60,14,38,21,,46,34,49,30,15,17,0.6,1
2023-12-06T2200,1751A,122.9642,41.0971,鞍山市,铁西三道街,,26,26,63,11,37,43,,51,44,22,27,7,13,0.4,0.9
2023-12-06T2200,1752A,122.9341,41.0833,鞍山市,铁西工业园区,,23,23,60,9,42,40,,52,44,30,30,9,16,0.7,1.3
2023-12-06T2200,1753A,123.022,41.0821,鞍山市,明达新区,,36,36,67,13,39,44,,47,45,23,29,8,16,0.4,1.1
2023-12-06T2200,1754A,123.1289,41.0228,鞍山市,千山,,,,48,,36,,,32,,,21,,7,,0.8
2023-12-06T2200,2195A,107.4212,40.761,巴彦淖尔市,附二中,颗粒物(PM10),71,91,243,27,42,75,,81,78,6,6,2,2,0.4,0.5
2023-12-06T2200,2196A,107.37,40.7372,巴彦淖尔市,市环保大楼,颗粒物(PM10),71,92,232,24,41,74,,82,77,7,6,2,3,0.4,0.4
2023-12-06T2200,1956A,86.1472,41.7538,巴音郭楞州,孔雀公园,颗粒物(PM10),102,154,173,49,45,56,,81,77,31,51,6,5,0.6,0.8
2023-12-06T2200,1957A,86.1972,41.7166,巴音郭楞州,棉纺厂,颗粒物(PM10),130,210,203,42,44,62,,82,79,20,40,3,3,0.5,0.6
2023-12-06T2200,1958A,86.2357,41.7173,巴音郭楞州,经济开发区,颗粒物(PM10),102,154,184,34,36,60,,80,75,28,41,4,4,0.4,0.5
2023-12-06T2200,2914A,106.7677,31.8794,巴中市,苏山坪,颗粒物(PM10),65,80,53,43,34,69,,72,72,12,17,4,4,0.5,0.5
2023-12-06T2200,3182A,106.7656,31.8545,巴中市,丽阳花园,颗粒物(PM10),80,109,68,53,43,4,,32,27,43,28,4,4,0.8,0.8
2023-12-06T2200,3183A,106.7418,31.8654,巴中市,圣泉水务公司,颗粒物(PM10),78,106,65,48,39,2,,38,29,50,30,4,4,0.6,0.7
2023-12-06T2200,3616A,106.7616,31.8344,巴中市,市中心医院,颗粒物(PM10),84,118,60,57,36,4,,31,27,44,24,5,5,0.8,0.6
2023-12-06T2200,2235A,122.7911,45.6077,白城市,洮北区环保局,,23,9,25,9,6,71,,96,72,6,8,5,6,0.5,0.5
2023-12-06T2200,2236A,122.8738,45.5725,白城市,市环保局,,23,23,31,7,8,68,,70,68,6,6,7,4,0.5,0.5
2023-12-06T2200,2231A,126.4219,41.9171,白山市,喜丰,,21,21,52,14,27,52,,83,54,8,13,11,14,0.5,0.8
2023-12-06T2200,2232A,126.4077,41.9419,白山市,环保局,颗粒物(PM10),62,73,59,9,33,51,,81,55,9,19,10,13,0.7,1.2
2023-12-06T2200,2647A,104.1724,36.5446,白银市,第三小学,颗粒物(PM10),181,312,348,52,38,6,,49,25,75,41,23,12,1.4,0.8
2023-12-06T2200,2648A,104.1465,36.5482,白银市,动力公司,颗粒物(PM10),151,251,299,59,50,19,,64,47,64,37,12,8,0.8,0.6
2023-12-06T2200,2512A,106.6103,23.9011,百色市,市监测站,,40,40,34,26,22,27,,58,49,19,15,9,9,0.8,0.8
2023-12-06T2200,2513A,106.6538,23.8859,百色市,市中心血站,颗粒物(PM10),63,76,41,27,28,4,,61,39,51,24,9,9,1.0,0.9
2023-12-06T2200,3406A,106.6085,23.8798,百色市,祈福高中,颗粒物(PM10),63,75,36,30,27,5,,57,39,38,19,8,7,0.8,0.9
2023-12-06T2200,2270A,117.396,32.939,蚌埠市,工人疗养院,颗粒物(PM10),130,209,190,62,57,22,,68,50,62,35,12,9,0.7,0.7
2023-12-06T2200,2271A,117.3605,32.9427,蚌埠市,百货大楼,颗粒物(PM10),133,215,216,65,61,17,,68,49,54,31,9,7,0.7,0.6
2023-12-06T2200,2273A,117.4185,32.8911,蚌埠市,蚌埠学院,颗粒物(PM10),146,241,225,80,65,21,,71,55,65,36,12,7,0.7,0.6
2023-12-06T2200,2274A,117.3533,32.9673,蚌埠市,淮上区政府,颗粒物(PM10),135,219,230,67,63,27,,63,50,56,37,14,10,0.8,0.7
2023-12-06T2200,2275A,117.3145,32.8977,蚌埠市,高新区,颗粒物(PM10),159,268,231,86,68,6,,69,38,81,44,9,7,0.7,0.6
2023-12-06T2200,3715A,117.3092,32.9314,蚌埠市,蚌埠田家炳中学,颗粒物(PM10),155,260,236,83,66,4,,68,36,78,42,31,9,0.6,0.5
2023-12-06T2200,1585A,109.8756,40.6532,包头市,市环境监测站,颗粒物(PM10),109,167,465,37,110,5,,55,34,72,41,12,14,0.8,1
2023-12-06T2200,1587A,109.9991,40.5842,包头市,包头八中,颗粒物(PM10),150,250,628,66,143,3,,53,34,70,38,20,18,1.0,0.8
2023-12-06T2200,1588A,109.8538,40.6821,包头市,青山宾馆,颗粒物(PM10),111,172,440,52,118,5,,51,31,75,45,13,11,0.9,0.9
2023-12-06T2200,1589A,109.8642,40.6288,包头市,惠龙物流,颗粒物(PM10),113,176,477,32,117,3,,62,37,76,44,15,17,0.8,1
2023-12-06T2200,1590A,110.0377,40.5546,包头市,东河鸿龙湾,颗粒物(PM10),170,290,462,105,98,20,,67,47,72,32,35,15,3.0,0.8
2023-12-06T2200,3283A,109.9154,40.5685,包头市,滨河大厦,颗粒物(PM10),128,205,418,64,115,4,,70,43,72,31,16,13,1.2,0.6
2023-12-06T2200,3419A,109.9447,40.6261,包头市,包头市委党校,颗粒物(PM10),111,172,496,68,134,7,,64,41,73,44,13,13,1.1,1.1
2023-12-06T2200,3683A,109.8331,40.6576,包头市,昆区政府,颗粒物(PM10),110,169,467,56,131,3,,49,29,81,48,12,16,0.9,1
2023-12-06T2200,1930A,107.185,34.3063,宝鸡市,庙沟村,颗粒物(PM10),77,104,276,37,54,64,,62,59,5,9,7,7,0.2,0.2
2023-12-06T2200,1931A,107.0708,34.3017,宝鸡市,竹园沟,颗粒物(PM10),98,146,280,71,70,53,,74,59,21,18,4,4,0.7,0.5
2023-12-06T2200,1932A,107.1906,34.3672,宝鸡市,三陆医院,细颗粒物(PM2.5),214,241,346,164,111,7,,54,29,70,53,9,14,1.1,0.7
2023-12-06T2200,1933A,107.1431,34.3547,宝鸡市,监测站,细颗粒物(PM2.5),109,122,306,82,95,7,,57,35,60,34,6,8,1.0,0.6
2023-12-06T2200,1934A,107.1186,34.3739,宝鸡市,技工学校,颗粒物(PM10),115,180,330,77,86,14,,69,38,54,33,7,9,0.7,0.6
2023-12-06T2200,1935A,107.3906,34.3528,宝鸡市,陈仓区环保局家属楼,颗粒物(PM10),152,254,359,94,94,12,,48,27,79,55,10,10,1.1,0.9
2023-12-06T2200,1936A,107.2058,34.3497,宝鸡市,文理学院,颗粒物(PM10),94,138,350,52,81,4,,62,31,71,45,7,8,0.8,0.7
2023-12-06T2200,1937A,107.2386,34.3622,宝鸡市,三迪小学,细颗粒物(PM2.5),132,197,346,100,89,8,,59,32,72,45,8,9,1.4,0.8
2023-12-06T2200,1051A,115.493,38.8632,保定市,游泳馆,颗粒物(PM10),133,215,247,70,83,27,,59,49,44,36,13,10,0.5,0.5
2023-12-06T2200,1052A,115.5213,38.8959,保定市,华电二区,颗粒物(PM10),105,159,222,32,74,28,,53,45,45,40,10,7,0.5,0.4
2023-12-06T2200,1053A,115.4713,38.9108,保定市,接待中心,颗粒物(PM10),125,199,240,59,70,26,,53,43,45,32,10,6,0.5,0.7
2023-12-06T2200,1054A,115.4612,38.8416,保定市,地表水厂,颗粒物(PM10),157,263,272,96,100,8,,46,38,64,45,11,7,0.3,0.4
2023-12-06T2200,1056A,115.5086,38.8639,保定市,监测站,颗粒物(PM10),137,224,252,74,85,23,,48,41,49,42,11,9,0.8,0.6
2023-12-06T2200,3581A,115.31981,38.95208,保定市,满城区生态环境分局,颗粒物(PM10),143,235,287,60,70,36,,57,46,32,27,6,3,0.5,0.4
2023-12-06T2200,3582A,115.47694,38.76408,保定市,清苑区第二中学,颗粒物(PM10),153,255,298,50,75,28,,57,47,37,37,12,8,0.6,0.6
2023-12-06T2200,3583A,115.62909,39.02311,保定市,徐水物探局,颗粒物(PM10),169,288,326,56,65,9,,54,29,60,39,7,5,0.6,0.6
2023-12-06T2200,4004A,115.4202,38.8656,保定市,双鹰农机,颗粒物(PM10),130,209,248,67,75,27,,50,37,40,37,13,8,0.7,0.8
2023-12-06T2200,2594A,99.1678,25.1081,保山市,市环境监测站,,30,25,18,21,13,45,,77,68,12,11,2,2,0.7,0.6
2023-12-06T2200,2595A,99.1711,25.1328,保山市,市环保局,,24,24,22,16,16,55,,80,74,6,6,4,4,0.5,0.5
2023-12-06T2200,1866A,109.2262,21.588,北海市,牛尾岭水库,,36,31,33,25,32,39,,50,50,11,11,6,7,0.4,0.5
2023-12-06T2200,1867A,109.1436,21.4086,北海市,海滩公园,,39,39,49,24,34,62,,65,65,16,19,22,11,0.7,0.8
2023-12-06T2200,1868A,109.0981,21.4661,北海市,新市环保局,细颗粒物(PM2.5),52,44,48,36,39,63,,68,68,16,19,8,10,0.7,0.8
2023-12-06T2200,1869A,109.1778,21.5233,北海市,北海工业园,细颗粒物(PM2.5),53,46,49,37,38,55,,61,61,15,19,8,16,0.8,0.8
2023-12-06T2200,3400A,109.1911,21.4415,北海市,龙潭自来水厂,,42,33,57,29,38,55,,62,62,12,16,8,10,0.6,0.7
2023-12-06T2200,1001A,116.3621,39.8784,北京市,万寿西宫,颗粒物(PM10),389,491,151,133,43,1,,55,23,71,26,2,2,0.5,0.2
2023-12-06T2200,1002A,116.2202,40.2915,北京市,定陵,颗粒物(PM10),149,247,193,77,53,20,,55,31,22,11,3,3,0.3,0.2
2023-12-06T2200,1003A,116.4174,39.9289,北京市,东四,颗粒物(PM10),409,509,169,115,39,10,,55,29,51,25,3,2,0.5,0.4
2023-12-06T2200,1004A,116.4072,39.8863,北京市,天坛,颗粒物(PM10),246,382,126,95,29,9,,60,32,53,22,4,4,0.5,0.3
2023-12-06T2200,1005A,116.462,39.9365,北京市,农展馆,颗粒物(PM10),340,452,147,118,40,9,,53,29,60,27,2,2,0.6,0.4
2023-12-06T2200,1006A,116.3392,39.9295,北京市,官园,颗粒物(PM10),407,507,171,129,42,10,,61,30,53,22,4,3,0.5,0.3
2023-12-06T2200,1007A,116.2878,39.9611,北京市,海淀万柳,颗粒物(PM10),362,469,150,106,31,8,,58,22,73,37,3,3,0.7,0.5
2023-12-06T2200,1008A,116.6636,40.135,北京市,顺义新城,颗粒物(PM10),137,223,162,63,50,2,,53,22,70,30,3,2,0.5,0.3
2023-12-06T2200,1009A,116.6275,40.3275,北京市,怀柔镇,颗粒物(PM10),168,285,142,86,38,30,,61,35,13,14,3,3,0.5,0.3
2023-12-06T2200,1010A,116.2296,40.217,北京市,昌平镇,颗粒物(PM10),160,269,187,76,44,26,,48,26,21,19,1,1,0.3,0.2
2023-12-06T2200,1011A,116.3966,39.9821,北京市,奥体中心,颗粒物(PM10),345,456,151,120,40,3,,48,28,64,30,1,3,0.6,0.2
2023-12-06T2200,1012A,116.184,39.9136,北京市,古城,颗粒物(PM10),256,389,156,98,33,2,,52,19,66,23,4,1,0.9,0.5
2023-12-06T2200,3281A,115.9718,40.4529,北京市,延庆夏都,颗粒物(PM10),104,158,194,39,48,47,,62,51,21,10,2,2,0.2,0.2
2023-12-06T2200,3417A,117.0709,40.1465,北京市,平谷新城,颗粒物(PM10),179,308,135,101,36,3,,53,24,48,26,2,2,0.8,0.4
2023-12-06T2200,3418A,116.8336,40.4095,北京市,密云新城,颗粒物(PM10),189,327,139,84,35,11,,62,32,43,18,3,3,0.5,0.3
2023-12-06T2200,3671A,116.088,39.9726,北京市,门头沟三家店,,,,,,,,,,,,,,,,
2023-12-06T2200,3672A,116.1541,39.8204,北京市,丰台云岗,颗粒物(PM10),248,383,165,99,40,17,,55,26,33,18,7,2,0.5,0.4
2023-12-06T2200,3673A,116.6804,39.9081,北京市,通州东关,颗粒物(PM10),343,454,153,100,34,9,,46,25,55,39,3,3,0.4,0.4
2023-12-06T2200,3674A,115.9577,39.7603,北京市,房山燕山,颗粒物(PM10),245,381,186,106,45,25,,57,35,21,13,5,2,0.2,0
2023-12-06T2200,3675A,116.4672,39.7733,北京市,大兴旧宫,颗粒物(PM10),360,468,135,90,27,2,,50,26,60,24,3,3,0.5,0.3
2023-12-06T2200,3694A,115.986,40.4563,北京市,延庆石河营,颗粒物(PM10),100,150,189,39,48,49,,65,50,18,9,2,2,0.3,0.3
2023-12-06T2200,3695A,116.6151,40.3053,北京市,怀柔新城,颗粒物(PM10),176,302,140,90,40,38,,63,40,12,11,3,3,0.2,0.1
2023-12-06T2200,3696A,116.2545,39.8768,北京市,丰台小屯,颗粒物(PM10),362,469,148,108,30,1,,50,17,76,30,3,3,0.5,0.3
2023-12-06T2200,3697A,116.84,40.3844,北京市,密云镇,颗粒物(PM10),181,312,144,89,38,2,,58,29,52,29,3,3,0.6,0.3
2023-12-06T2200,1761A,123.8275,41.3064,本溪市,大峪,,18,13,61,7,42,56,,57,48,17,30,7,10,0.8,1.1
2023-12-06T2200,1762A,123.7567,41.3325,本溪市,溪湖,,25,25,82,7,54,46,,46,45,21,34,7,17,0.6,1.4
2023-12-06T2200,1763A,123.7169,41.3094,本溪市,彩屯,,27,27,76,14,53,30,,51,46,33,40,10,18,0.6,1.1
2023-12-06T2200,1764A,123.7669,41.2864,本溪市,东明,,27,27,73,5,59,52,,50,46,20,38,8,15,0.3,0.8
2023-12-06T2200,1765A,123.7992,41.2664,本溪市,新立屯,,29,,64,20,51,44,,58,47,22,30,9,14,0.4,0.9
2023-12-06T2200,1766A,123.8142,41.3472,本溪市,威宁,,30,30,75,15,43,29,,48,44,30,35,6,7,0.4,0.6
2023-12-06T2200,2587A,105.2864,27.3125,毕节市,八中,细颗粒物(PM2.5),163,164,45,124,34,35,,90,57,24,18,8,8,0.9,0.7
2023-12-06T2200,2588A,105.31,27.2944,毕节市,师专,细颗粒物(PM2.5),122,121,38,92,29,12,,89,55,45,19,7,7,0.9,0.5
2023-12-06T2200,3537A,105.3631,27.3533,毕节市,长征村,细颗粒物(PM2.5),166,164,68,126,52,50,,97,82,27,13,7,7,0.9,0.8
2023-12-06T2200,1629A,118.0018,37.3617,滨州市,第二水厂,颗粒物(PM10),410,510,233,112,90,5,,58,34,47,44,18,12,0.9,1.1
2023-12-06T2200,1630A,117.9776,37.393,滨州市,北中新校,颗粒物(PM10),379,483,251,102,105,14,,48,33,57,69,12,12,0.6,1
2023-12-06T2200,3514A,117.9378,37.3956,滨州市,中海酒店,颗粒物(PM10),335,448,255,107,104,30,,57,41,41,64,14,17,0.8,0.9
2023-12-06T2200,3515A,117.9378,37.3553,滨州市,开发区一中,颗粒物(PM10),385,488,253,103,101,0,,48,27,58,57,19,20,0.7,0.9
2023-12-06T2200,3516A,118.0917,37.694,滨州市,金海六路,颗粒物(PM10),368,474,215,114,90,1,,54,28,71,55,21,13,0.9,1
2023-12-06T2200,4028A,117.9956,37.3753,滨州市,滨州市西街道办事处,颗粒物(PM10),392,493,239,110,97,7,,53,36,55,54,24,14,0.5,0.7
2023-12-06T2200,2311A,115.8072,33.8399,亳州市,污水处理厂,颗粒物(PM10),112,174,181,40,33,47,,71,52,29,24,5,6,0.3,0.6
2023-12-06T2200,2312A,115.7789,33.8518,亳州市,三国揽胜宫,颗粒物(PM10),118,186,177,41,29,48,,72,64,33,21,8,8,0.5,0.5
2023-12-06T2200,3332A,115.7633,33.8034,亳州市,亳州学院,颗粒物(PM10),122,194,174,47,26,48,,76,65,27,20,8,6,0.6,0.3
2023-12-06T2200,2693A,82.0485,44.8556,博尔塔拉蒙古自治州,市党校,,36,30,56,25,25,31,,28,28,11,16,8,9,0.4,0.4
2023-12-06T2200,2694A,82.0806,44.8969,博尔塔拉蒙古自治州,市环保局,颗粒物(PM10),58,66,58,31,21,8,,28,12,37,21,17,12,0.5,0.4
2023-12-06T2200,1071A,116.8842,38.2991,沧州市,沧县城建局,颗粒物(PM10),185,320,265,99,123,37,,48,40,36,69,8,9,0.8,1.2
2023-12-06T2200,1072A,116.8584,38.3254,沧州市,电视转播站,颗粒物(PM10),169,287,255,73,116,46,,52,48,28,66,9,10,0.6,1.1
2023-12-06T2200,1073A,116.8709,38.3228,沧州市,市环保局,颗粒物(PM10),178,306,239,85,124,32,,54,41,37,59,4,7,0.5,0.9
2023-12-06T2200,3324A,116.8136,38.3004,沧州市,河北水利电力学院,颗粒物(PM10),238,376,320,79,127,4,,43,26,62,70,14,15,0.5,1
2023-12-06T2200,2622A,97.1806,31.1273,昌都市,昌都监测站,颗粒物(PM10),60,70,21,37,11,18,,64,48,54,22,11,9,1.3,0.7
2023-12-06T2200,3719A,97.1714,31.1406,昌都市,昌都会议中心,,26,26,11,15,6,50,,76,68,22,9,6,5,0.3,0.2
2023-12-06T2200,2690A,88.1236,43.8886,昌吉州,天山天池,,22,6,3,0,1,70,,71,64,4,4,6,6,0.4,0.4
2023-12-06T2200,2692A,87.2717,44.0297,昌吉州,新区政务中心,细颗粒物(PM2.5),65,67,53,47,35,9,,34,29,48,39,4,6,0.8,1
2023-12-06T2200,3613A,87.3095,44.0142,昌吉州,亚心广场,,,,57,,35,,,19,,,34,,6,,1.0
2023-12-06T2200,1119A,125.3325,43.9166,长春市,食品厂,,26,26,52,11,45,50,,47,45,20,27,10,10,0.2,0.5
2023-12-06T2200,1120A,125.2863,43.9027,长春市,客车厂,,25,25,48,7,47,44,,47,42,25,29,18,14,0.4,0.6
2023-12-06T2200,1121A,125.2841,43.8463,长春市,邮电学院,,29,29,52,14,49,44,,51,47,23,24,20,14,0.2,0.5
2023-12-06T2200,1122A,125.3716,43.8772,长春市,劳动公园,,18,18,49,9,43,49,,54,52,16,25,11,12,0.3,0.3
2023-12-06T2200,1123A,125.3297,43.8805,长春市,园林处,,27,27,44,9,39,48,,53,48,24,25,7,9,0.4,0.5
2023-12-06T2200,1124A,125.4605,43.79,长春市,净月潭,,23,23,45,8,39,45,,56,53,12,14,7,6,0.2,0.4
2023-12-06T2200,1125A,125.7194,43.515,长春市,甩湾子,,27,27,55,14,45,56,,61,60,1,10,5,6,0.4,0.7
2023-12-06T2200,1126A,125.3863,43.8447,长春市,经开区环卫处,,28,28,48,8,40,49,,54,50,23,26,10,11,0.4,0.6
2023-12-06T2200,1127A,125.245,43.7783,长春市,高新区管委会,,28,28,47,18,53,42,,55,50,25,23,10,9,0.5,0.7
2023-12-06T2200,1128A,125.1761,43.8325,长春市,岱山公园,,22,22,45,9,42,55,,54,50,13,19,4,4,0.3,0.5
2023-12-06T2200,1335A,113.0833,28.2325,长沙市,经开区环保局,颗粒物(PM10),80,109,89,44,52,68,,83,80,39,48,9,9,0.8,0.7
2023-12-06T2200,1336A,112.8872,28.2189,长沙市,高开区环保局,颗粒物(PM10),101,151,90,61,54,5,,90,54,92,56,7,7,1.4,1
2023-12-06T2200,1337A,113.0792,28.2053,长沙市,马坡岭,颗粒物(PM10),89,127,89,55,55,4,,78,58,90,51,8,9,0.9,0.6
2023-12-06T2200,1338A,112.9394,28.19,长沙市,湖南师范大学,颗粒物(PM10),64,78,81,34,54,46,,91,78,36,41,8,10,0.6,0.9
2023-12-06T2200,1339A,113.0178,28.1322,长沙市,雨花区环保局,颗粒物(PM10),86,121,79,52,58,8,,88,73,100,49,3,5,1.1,0.9
2023-12-06T2200,1340A,112.9792,28.2597,长沙市,伍家岭,颗粒物(PM10),102,154,98,57,59,0,,81,54,81,50,6,7,1.4,1
2023-12-06T2200,1341A,113.0014,28.1944,长沙市,火车新站,,,,84,,55,4,,81,52,103,54,4,6,2.0,0.9
2023-12-06T2200,1342A,112.9844,28.1178,长沙市,天心区环保局,颗粒物(PM10),73,96,83,36,51,24,,86,70,78,52,5,6,0.4,0.5
2023-12-06T2200,1343A,112.8908,28.1308,长沙市,湖南中医药大学,颗粒物(PM10),90,130,92,42,54,2,,91,44,65,43,4,6,0.8,1.2
2023-12-06T2200,1344A,112.9581,28.3611,长沙市,沙坪,颗粒物(PM10),52,54,50,35,35,77,,99,91,19,28,6,7,0.5,0.7
2023-12-06T2200,1727A,113.1147,36.1547,长治市,清华站,颗粒物(PM10),88,125,154,31,35,54,,75,65,30,20,10,10,0.4,0.6
2023-12-06T2200,1728A,113.1031,36.1989,长治市,监测站,颗粒物(PM10),83,116,126,36,38,45,,74,64,36,24,10,9,0.8,0.7
2023-12-06T2200,1730A,113.0886,36.2125,长治市,审计局,颗粒物(PM10),83,115,143,31,36,56,,79,66,31,21,10,10,0.4,0.4
2023-12-06T2200,1731A,113.0844,36.1856,长治市,长治八中,颗粒物(PM10),91,131,161,22,32,55,,78,70,31,20,15,12,0.3,0.2
2023-12-06T2200,2845A,113.1569,36.1911,长治市,德盛苑,颗粒物(PM10),83,116,151,31,37,71,,80,75,17,15,12,10,0.6,0.6
2023-12-06T2200,3568A,113.06,36.0464,长治市,向阳小学,颗粒物(PM10),102,154,168,48,43,64,,89,82,33,20,21,10,0.4,0.3
2023-12-06T2200,3569A,112.8792,36.3144,长治市,屯留一中,颗粒物(PM10),94,138,148,37,33,65,,85,79,22,19,16,10,0.6,0.5
2023-12-06T2200,3570A,113.235,36.3489,长治市,潞城四中,颗粒物(PM10),100,150,235,44,46,37,,85,71,32,14,7,8,0.3,0.3
2023-12-06T2200,1854A,111.6975,28.9703,常德市,市二中,颗粒物(PM10),71,91,83,46,52,67,,97,89,26,30,10,11,0.5,0.6
2023-12-06T2200,1857A,111.7158,29.1456,常德市,白鹤山,颗粒物(PM10),66,82,80,37,48,79,,92,88,10,15,8,18,0.3,0.6
2023-12-06T2200,3138A,111.7153,29.0289,常德市,武陵区永安,细颗粒物(PM2.5),95,125,92,71,62,5,,81,64,90,38,13,11,0.8,0.8
2023-12-06T2200,3139A,111.6892,28.9881,常德市,鼎城区玉霞,细颗粒物(PM2.5),98,132,89,73,58,11,,88,67,59,36,9,10,1.1,0.9
2023-12-06T2200,3140A,111.6625,29.0531,常德市,武陵区长庚,细颗粒物(PM2.5),98,142,94,73,59,3,,85,63,82,35,8,9,1.4,0.8
2023-12-06T2200,1196A,119.9633,31.762,常州市,市监测站,颗粒物(PM10),94,138,111,52,68,6,,64,47,74,57,11,12,0.8,0.9
2023-12-06T2200,1200A,119.9468,31.7069,常州市,武进监测站,颗粒物(PM10),105,159,105,53,56,20,,70,51,62,48,10,13,0.7,0.8
2023-12-06T2200,1201A,119.9255,31.9087,常州市,安家,颗粒物(PM10),109,168,131,74,75,6,,70,41,88,63,15,13,0.9,1.1
2023-12-06T2200,3002A,119.9805,31.8174,常州市,行政中心,颗粒物(PM10),97,144,101,69,60,6,,71,50,84,53,13,16,0.9,0.8
2023-12-06T2200,3003A,120.0522,31.7748,常州市,经开区,颗粒物(PM10),124,198,131,62,61,18,,77,58,77,57,9,12,0.7,0.8
2023-12-06T2200,3010A,119.9025,31.7964,常州市,钟楼,颗粒物(PM10),95,140,105,64,65,5,,68,40,82,59,7,11,1.0,1
2023-12-06T2200,3429A,119.8598,31.7066,常州市,武进经发区,颗粒物(PM10),140,230,126,57,54,26,,75,59,56,50,12,11,1.0,0.6
2023-12-06T2200,3430A,119.5826,31.7245,常州市,金坛城区,颗粒物(PM10),132,213,126,46,56,33,,78,65,52,43,10,12,0.8,0.9
2023-12-06T2200,2220A,120.4318,41.5881,朝阳市,西梁,,47,47,55,21,23,29,,52,29,22,24,22,13,0.9,0.9
2023-12-06T2200,2221A,120.4521,41.5646,朝阳市,河畔小区,颗粒物(PM10),53,56,52,22,18,27,,52,37,25,22,17,8,0.8,0.8
2023-12-06T2200,2222A,120.4176,41.5648,朝阳市,八里堡,颗粒物(PM10),69,87,57,36,21,8,,52,26,47,29,30,13,1.2,0.8
2023-12-06T2200,2223A,120.3806,41.5969,朝阳市,农业园区,,49,49,48,32,20,8,,52,21,46,25,25,11,1.1,0.8
2023-12-06T2200,1705A,116.6367,23.6719,潮州市,西园路,,22,,20,15,17,44,,40,40,11,13,5,5,0.6,0.6
2023-12-06T2200,1706A,116.6447,23.6706,潮州市,档案局,,19,14,20,13,16,47,,44,44,10,13,4,4,0.7,0.7
2023-12-06T2200,3026A,116.6183,23.6608,潮州市,市政府,,21,21,26,10,15,46,,45,45,17,17,8,5,0.6,0.6
2023-12-06T2200,2472A,113.0073,25.9061,郴州市,马头岭,,48,48,43,27,22,42,,78,74,30,23,5,13,1.1,1.2
2023-12-06T2200,2473A,113.0116,25.8226,郴州市,市职中,细颗粒物(PM2.5),63,62,42,45,33,7,,81,58,42,24,6,11,1.0,0.9
2023-12-06T2200,2474A,113.0161,25.8001,郴州市,兴隆步行街,细颗粒物(PM2.5),73,84,50,53,34,16,,81,61,55,28,6,8,1.3,0.8
2023-12-06T2200,2475A,113.0383,25.8071,郴州市,市审计局,细颗粒物(PM2.5),67,60,42,48,33,16,,78,61,42,24,5,10,1.2,0.9
2023-12-06T2200,2476A,113.0348,25.7759,郴州市,市环保局,细颗粒物(PM2.5),69,80,52,50,36,5,,64,48,62,29,2,11,1.0,0.9
2023-12-06T2200,1431A,103.9728,30.7236,成都市,金泉两河,细颗粒物(PM2.5),99,94,83,74,56,0,,53,39,68,30,2,2,0.9,0.9
2023-12-06T2200,1432A,104.176,30.6872,成都市,十里店,细颗粒物(PM2.5),105,120,85,79,54,5,,56,48,87,52,1,1,1.2,0.9
2023-12-06T2200,1433A,104.079,30.5706,成都市,三瓦窑,颗粒物(PM10),92,134,113,66,45,0,,48,39,52,31,4,3,1.2,0.9
2023-12-06T2200,1434A,104.1114,30.63,成都市,沙河铺,细颗粒物(PM2.5),109,103,90,82,55,0,,37,30,64,43,3,3,1.2,0.9
2023-12-06T2200,1437A,104.0786,30.6531,成都市,君平街,细颗粒物(PM2.5),94,126,98,70,62,4,,54,45,92,51,4,3,1.3,1.1
2023-12-06T2200,1438A,103.613,31.0283,成都市,灵岩寺,颗粒物(PM10),59,67,32,30,25,73,,83,83,13,15,23,18,1.0,0.9
2023-12-06T2200,2880A,104.0239,30.65639,成都市,大石西路,细颗粒物(PM2.5),107,114,92,80,59,0,,51,39,82,45,3,3,1.5,1
2023-12-06T2200,3136A,104.2725,30.5589,成都市,龙泉驿区区政府,细颗粒物(PM2.5),70,78,90,51,54,48,,66,64,25,35,1,1,0.6,0.7
2023-12-06T2200,3357A,104.0106,30.6931,成都市,金博路,细颗粒物(PM2.5),98,114,90,73,62,2,,53,43,75,36,3,3,1.3,1.1
2023-12-06T2200,3359A,104.0578,30.5225,成都市,华阳,细颗粒物(PM2.5),117,117,94,88,60,0,,53,42,81,44,3,2,1.5,0.9
2023-12-06T2200,3487A,104.2394,30.5319,成都市,车城东七路,细颗粒物(PM2.5),89,123,95,66,60,34,,75,70,54,40,2,2,0.9,0.7
2023-12-06T2200,3488A,104.3853,30.7453,成都市,青白江技师分院,细颗粒物(PM2.5),69,60,70,50,50,54,,68,68,39,37,4,5,0.7,1
2023-12-06T2200,3489A,104.0789,30.4072,成都市,科学城,细颗粒物(PM2.5),103,104,88,77,65,2,,63,49,54,31,3,2,0.9,0.8
2023-12-06T2200,4011A,103.8506,30.6947,成都市,光华大道三段,"颗粒物(PM10),细颗粒物(PM2.5)",72,94,80,52,53,1,,58,41,60,33,3,3,1.3,1
2023-12-06T2200,1062A,117.9531,40.9081,承德市,铁路,颗粒物(PM10),72,93,78,48,23,4,,59,22,55,32,15,10,1.0,0.6
2023-12-06T2200,1063A,117.9392,40.9763,承德市,中国银行,颗粒物(PM10),69,88,77,21,19,9,,63,29,48,21,8,8,0.8,0.6
2023-12-06T2200,1064A,117.9503,40.928,承德市,开发区,颗粒物(PM10),71,92,73,36,26,3,,64,29,55,27,12,10,0.9,0.6
2023-12-06T2200,1065A,117.8051,40.9655,承德市,文化中心,颗粒物(PM10),103,155,90,56,21,8,,66,30,55,25,13,10,1.0,0.6
2023-12-06T2200,1066A,117.9268,41.0026,承德市,离宫,颗粒物(PM10),67,84,51,31,22,6,,60,38,42,14,4,3,0.6,0.4
2023-12-06T2200,2314A,117.47,30.6618,池州市,池州学院,颗粒物(PM10),96,141,99,40,52,30,,69,55,42,30,4,6,0.7,0.7
2023-12-06T2200,3237A,117.4918,30.6617,池州市,展览馆,颗粒物(PM10),98,145,97,11,45,3,,67,43,50,35,4,7,0.6,0.7
2023-12-06T2200,3333A,117.5627,30.695,池州市,第八中学,颗粒物(PM10),99,148,87,29,39,66,,73,69,19,27,4,6,0.3,0.7
2023-12-06T2200,3334A,117.5038,30.6243,池州市,第十二中学,颗粒物(PM10),116,182,92,69,46,13,,75,51,60,38,5,4,0.7,0.6
2023-12-06T2200,1744A,118.9233,42.2816,赤峰市,松山一中,颗粒物(PM10),53,56,29,11,5,31,,68,63,44,16,16,9,1.0,0.5
2023-12-06T2200,1745A,118.9576,42.2728,赤峰市,哈达街,,,,31,,7,,,53,,,15,,13,,0.5
2023-12-06T2200,1746A,118.8788,42.2554,赤峰市,天义路,颗粒物(PM10),58,65,33,15,8,42,,67,62,27,12,6,7,0.5,0.5
2023-12-06T2200,3058A,119.2658,42.0353,赤峰市,银河街,颗粒物(PM10),59,68,42,26,12,22,,63,55,56,14,40,13,1.5,0.5
2023-12-06T2200,3286A,118.9359,42.3147,赤峰市,桥北物流园区,颗粒物(PM10),51,51,37,17,7,30,,65,54,52,20,11,10,0.6,0.5
2023-12-06T2200,2521A,107.3476,22.4136,崇左市,市环保局江州分局,颗粒物(PM10),53,56,38,19,24,14,,64,57,29,15,6,7,0.9,0.9
2023-12-06T2200,2522A,107.3702,22.3707,崇左市,城南新区,颗粒物(PM10),57,64,36,23,26,3,,66,54,42,19,6,7,0.9,0.9
2023-12-06T2200,2298A,118.3093,32.3153,滁州市,老年大学,颗粒物(PM10),118,185,165,51,53,29,,79,62,54,29,9,11,0.8,0.6
2023-12-06T2200,2299A,118.3244,32.2786,滁州市,人大宾馆,颗粒物(PM10),137,224,196,56,59,23,,80,54,61,37,8,9,0.7,0.5
2023-12-06T2200,3207A,118.3118,32.3038,滁州市,市政府原办公楼,颗粒物(PM10),112,174,160,47,51,45,,79,59,44,33,6,8,0.6,0.6
2023-12-06T2200,3331A,118.3267,32.2634,滁州市,图书馆,颗粒物(PM10),127,203,156,43,53,30,,79,59,56,33,9,10,0.7,0.7
2023-12-06T2200,2605A,101.5482,25.0441,楚雄州,州环境监测站,,22,22,25,10,16,65,,80,78,18,24,9,14,0.5,0.5
2023-12-06T2200,2606A,101.538,25.0492,楚雄州,市经济开发区,,28,28,29,14,16,56,,79,75,25,25,8,13,0.6,0.5
2023-12-06T2200,2548A,107.5277,31.2827,达州市,达州职业技术学院,细颗粒物(PM2.5),82,76,60,60,47,6,,32,22,32,27,5,4,0.9,0.7
2023-12-06T2200,2549A,107.5086,31.2186,达州市,市环境监测站,细颗粒物(PM2.5),73,91,70,53,42,2,,21,15,45,36,6,6,0.9,0.8
2023-12-06T2200,2550A,107.4988,31.2132,达州市,凤凰小区,细颗粒物(PM2.5),77,83,66,56,46,5,,28,21,46,36,8,8,0.8,0.8
2023-12-06T2200,2551A,107.5082,31.1986,达州市,达县机关宾馆,细颗粒物(PM2.5),89,100,74,66,43,4,,20,14,46,39,8,7,1.0,0.9
2023-12-06T2200,2552A,107.4644,31.2124,达州市,市政中心,细颗粒物(PM2.5),83,107,82,61,48,3,,21,15,57,43,7,7,1.3,1.1
2023-12-06T2200,2614A,100.1542,25.7054,大理州,大理市环境监测站,,33,33,23,20,16,25,,73,59,39,13,14,7,0.7,0.5
2023-12-06T2200,2615A,100.2171,25.5811,大理州,大理古城,,,34,23,18,14,,,66,,20,13,8,8,0.3,0.6
2023-12-06T2200,1109A,121.612,38.9741,大连市,甘井子,,37,34,84,16,59,9,,69,58,74,44,9,10,0.9,1
2023-12-06T2200,1110A,121.565,38.9511,大连市,周水子,,,29,86,13,63,,,60,48,62,39,20,14,1.5,1.1
2023-12-06T2200,1111A,121.5637,38.8845,大连市,星海三站,,32,32,81,12,58,24,,63,55,50,36,9,11,0.4,0.7
2023-12-06T2200,1112A,121.6302,38.9117,大连市,青泥洼桥,,25,20,80,8,65,26,,53,43,49,47,15,14,0.7,1.1
2023-12-06T2200,1113A,121.6251,38.8638,大连市,傅家庄,,17,14,75,4,56,54,,61,56,26,34,17,18,0.5,1.1
2023-12-06T2200,1114A,121.5213,38.8661,大连市,七贤岭,,,17,71,7,54,50,,76,71,,31,8,11,0.7,1
2023-12-06T2200,1115A,121.2529,38.8061,大连市,旅顺,,27,27,78,11,59,44,,69,65,34,29,14,12,0.8,1.1
2023-12-06T2200,1116A,121.7485,39.1311,大连市,金州,,24,24,84,12,64,45,,63,58,20,29,7,12,0.7,1.1
2023-12-06T2200,1117A,121.7811,39.0496,大连市,开发区,,41,41,96,14,61,13,,55,41,66,47,16,13,0.6,0.9
2023-12-06T2200,1118A,121.9762,39.0631,大连市,双D港,,26,26,89,6,53,51,,66,58,18,27,8,10,0.5,0.9
2023-12-06T2200,1789A,124.81117,46.03138,大庆市,大同区,,30,30,35,12,11,49,,54,48,5,9,6,6,0.3,0.4
2023-12-06T2200,1790A,125.129,46.533,大庆市,龙凤区,,29,29,26,17,13,36,,54,43,20,19,8,7,0.4,0.4
2023-12-06T2200,1791A,124.902,46.408,大庆市,红岗区,,26,25,26,18,14,49,,58,49,2,7,4,5,0.2,0.3
2023-12-06T2200,1792A,125.153,46.586,大庆市,萨尔图区,,46,46,34,11,12,26,,45,31,22,20,6,7,0.5,0.4
2023-12-06T2200,1793A,124.9042,46.6215,大庆市,让胡路区,,42,42,33,12,11,40,,50,41,10,12,3,3,0.4,0.4
2023-12-06T2200,3481A,125.141,46.634,大庆市,萨区政府监测点,,23,23,23,13,9,37,,54,37,11,14,9,8,0.4,0.5
2023-12-06T2200,1721A,113.3819,40.1097,大同市,果树场,颗粒物(PM10),101,152,279,39,75,26,,58,43,42,23,12,9,0.5,0.4
2023-12-06T2200,1723A,113.2994,40.0758,大同市,云冈宾馆,颗粒物(PM10),131,211,337,75,77,39,,68,52,39,19,16,10,0.6,0.4
2023-12-06T2200,1724A,113.3444,40.0917,大同市,大同大学,颗粒物(PM10),118,186,326,36,79,44,,71,59,40,20,15,9,0.7,0.5
2023-12-06T2200,1725A,113.2661,40.1269,大同市,安家小村,颗粒物(PM10),135,219,337,47,76,12,,73,57,68,16,26,9,0.7,0.5
2023-12-06T2200,1726A,113.2711,40.0844,大同市,教育学院,颗粒物(PM10),131,212,357,38,73,42,,67,53,39,21,11,6,0.5,0.4
2023-12-06T2200,3282A,113.3397,40.0597,大同市,大同市卫生学校,颗粒物(PM10),116,181,298,44,70,25,,62,46,53,23,14,8,0.6,0.4
2023-12-06T2200,3565A,113.1367,40.1122,大同市,云冈站,颗粒物(PM10),99,148,320,22,77,70,,76,70,12,12,11,11,0.3,0.5
2023-12-06T2200,3566A,113.1186,40.2556,大同市,图书馆,颗粒物(PM10),101,151,308,29,72,60,,77,74,23,13,29,10,0.5,0.4
2023-12-06T2200,3567A,113.5931,40.0461,大同市,区一中,颗粒物(PM10),130,210,379,35,59,34,,64,55,42,22,16,6,0.7,0.6
2023-12-06T2200,3676A,113.2802,40.0995,大同市,第二人民医院,颗粒物(PM10),131,212,356,38,75,43,,69,56,37,18,14,9,0.6,0.4
2023-12-06T2200,2269A,124.1069,50.4097,大兴安岭地区,科技局,,26,,19,18,17,49,,64,52,4,8,3,4,0.4,0.5
2023-12-06T2200,3663A,124.1164,50.4278,大兴安岭地区,红旗社区,,16,,11,7,9,51,,64,53,5,10,5,6,0.3,0.3
2023-12-06T2200,1600A,124.3303,40.0625,丹东市,江湾东路,,19,19,57,8,41,55,,60,52,17,25,17,13,0.5,0.8
2023-12-06T2200,1601A,124.4256,40.1503,丹东市,临江后街,,19,19,63,8,39,52,,57,52,13,22,9,12,0.6,0.9
2023-12-06T2200,1602A,124.3933,40.1461,丹东市,元宝山,,16,15,53,3,36,50,,60,51,12,19,9,11,0.6,0.8
2023-12-06T2200,1603A,124.3633,40.1092,丹东市,民主桥,,25,25,61,9,37,51,,52,47,11,25,8,10,0.5,0.8
2023-12-06T2200,3541A,109.5726,19.5167,儋州市,第一中学子站,,32,26,40,22,27,49,,68,61,10,11,4,4,0.9,0.9
2023-12-06T2200,3542A,109.5567,19.5187,儋州市,东坡学校子站,,36,31,42,25,26,51,,67,60,8,11,4,5,0.9,0.9
2023-12-06T2200,2616A,98.5842,24.428,德宏州,德宏州监测站,细颗粒物(PM2.5),57,59,43,40,28,32,,66,59,27,23,12,15,0.8,0.6
2023-12-06T2200,3677A,98.5881,24.4368,德宏州,芒市人民政府综合楼,,43,43,40,29,23,42,,69,65,18,18,12,13,0.5,0.5
2023-12-06T2200,1901A,104.4239,31.1208,德阳市,东山公园,颗粒物(PM10),91,131,114,50,55,70,,71,71,22,34,1,2,0.6,0.7
2023-12-06T2200,1902A,104.3826,31.1317,德阳市,西小区,颗粒物(PM10),105,160,110,78,68,7,,52,43,71,43,3,2,1.0,1
2023-12-06T2200,1904A,104.3553,31.1091,德阳市,耐火材料厂,细颗粒物(PM2.5),114,171,119,86,64,6,,53,46,68,38,2,2,1.1,0.9
2023-12-06T2200,3639A,104.4019,31.1244,德阳市,市教育局,细颗粒物(PM2.5),87,109,93,64,56,11,,61,50,69,41,3,2,1.0,0.9
2023-12-06T2200,1622A,116.3032,37.4674,德州市,儿童乐园,颗粒物(PM10),155,259,351,56,120,38,,59,52,48,57,12,12,0.8,1.1
2023-12-06T2200,1624A,116.2991,37.4451,德州市,监理站,颗粒物(PM10),155,259,357,58,120,37,,60,54,52,58,14,15,0.7,1
2023-12-06T2200,3066A,116.2721,37.4379,德州市,九衢泉纯净水厂,颗粒物(PM10),159,267,350,58,120,27,,56,44,55,60,8,9,0.8,1.1
2023-12-06T2200,3371A,116.3728,37.4403,德州市,开发区人民医院,颗粒物(PM10),174,298,365,70,116,37,,57,47,37,52,9,10,0.8,1.1
2023-12-06T2200,3372A,116.3572,37.4094,德州市,太阳城中学,颗粒物(PM10),178,305,360,85,134,21,,57,39,44,54,8,10,0.8,1.1
2023-12-06T2200,3511A,116.5652,37.3319,德州市,陵城艺术中心,颗粒物(PM10),230,371,374,73,130,30,,60,48,38,47,7,8,0.6,1
2023-12-06T2200,2621A,99.7056,27.8317,迪庆州,迪庆州站,,27,27,25,6,14,65,,39,,12,15,9,8,0.5,0.6
2023-12-06T2200,3180A,99.7136,27.8094,迪庆州,质量技术监督局,,26,26,27,17,15,71,,73,72,7,11,7,7,0.4,0.4
2023-12-06T2200,2663A,104.6241,35.5734,定西市,东关小学,颗粒物(PM10),87,124,388,47,74,15,,62,42,31,26,15,16,0.6,0.8
2023-12-06T2200,2664A,104.6194,35.5934,定西市,供电公司,颗粒物(PM10),86,121,340,41,75,10,,62,42,50,37,18,13,0.9,0.7
2023-12-06T2200,1389A,113.7547,23.0494,东莞市,莞城梨川,,38,38,42,22,25,16,,28,21,42,39,8,8,0.7,0.8
2023-12-06T2200,1390A,113.7944,23.0128,东莞市,东城石井,,30,30,38,19,24,3,,32,24,32,29,8,9,0.9,0.8
2023-12-06T2200,1391A,113.7383,22.9658,东莞市,南城西平,,41,41,44,23,25,0,,19,13,56,48,6,7,1.0,0.9
2023-12-06T2200,3319A,113.7338,23.0381,东莞市,万江金泰,,44,44,47,24,28,6,,22,14,44,38,10,10,0.8,1
2023-12-06T2200,3626A,113.7533,23.0202,东莞市,南城元岭,,,35,43,19,24,18,,30,25,36,31,8,8,,0.9
2023-12-06T2200,3627A,113.7875,23.0457,东莞市,东城主山,,34,34,38,22,23,8,,33,28,46,35,7,8,0.8,0.8
2023-12-06T2200,1666A,118.6614,37.4309,东营市,市环保局,颗粒物(PM10),230,371,163,92,78,10,,67,37,71,50,26,12,0.7,0.7
2023-12-06T2200,3036A,118.6904,37.4338,东营市,开发区管委会,颗粒物(PM10),195,339,158,95,76,8,,73,35,85,61,24,9,0.8,0.8
2023-12-06T2200,3365A,118.5719,37.565,东营市,垦利区民丰路,颗粒物(PM10),245,381,159,83,72,6,,68,30,77,55,36,12,1.0,0.9
2023-12-06T2200,3498A,118.5055,37.8612,东营市,河口城区,颗粒物(PM10),183,315,161,78,73,6,,71,36,61,39,9,6,1.1,1
2023-12-06T2200,3646A,118.4978,37.4623,东营市,胜利站,颗粒物(PM10),215,360,177,100,85,9,,64,29,80,62,30,17,0.8,0.8
2023-12-06T2200,3734A,118.35,37.26,东营市,理想之城,颗粒物(PM10),181,312,165,97,74,10,,68,31,85,64,22,11,0.9,0.9
2023-12-06T2200,1591A,110.0023,39.8129,鄂尔多斯市,综合楼,颗粒物(PM10),108,166,370,36,75,41,,75,62,44,19,10,6,0.5,0.4
2023-12-06T2200,1592A,109.9486,39.8261,鄂尔多斯市,巴音孟克林场办事处,颗粒物(PM10),85,119,325,29,69,67,,77,72,15,11,22,7,0.6,0.4
2023-12-06T2200,1593A,109.7736,39.5986,鄂尔多斯市,康泽苑,颗粒物(PM10),96,141,334,48,91,30,,74,62,47,20,7,7,0.6,0.4
2023-12-06T2200,1594A,109.8119,39.5989,鄂尔多斯市,华泰汽车城,颗粒物(PM10),98,146,354,34,76,23,,78,54,56,19,10,7,0.6,0.4
2023-12-06T2200,1595A,109.9734,39.7884,鄂尔多斯市,奥林花园,颗粒物(PM10),97,144,368,29,73,25,,69,45,56,26,5,11,0.6,0.5
2023-12-06T2200,2436A,114.8938,30.3994,鄂州市,市政府,颗粒物(PM10),89,128,126,60,75,58,,76,70,45,45,8,12,1.3,1.5
2023-12-06T2200,2437A,114.8989,30.3714,鄂州市,赵家坝,颗粒物(PM10),102,154,115,54,70,70,,83,78,45,52,10,10,1.2,1.1
2023-12-06T2200,3654A,114.8094,30.4089,鄂州市,精准医疗中心,颗粒物(PM10),113,176,175,63,71,63,,92,86,42,46,11,11,1.1,0.9
2023-12-06T2200,2499A,108.3411,21.6158,防城港市,沙万,,44,44,43,30,29,51,,60,60,18,18,4,5,0.5,0.6
2023-12-06T2200,2500A,108.3514,21.7731,防城港市,防城档案局,颗粒物(PM10),62,74,62,35,30,49,,54,52,27,28,4,4,0.6,0.6
2023-12-06T2200,2501A,108.3506,21.6414,防城港市,大海花园,,42,42,40,24,26,58,,58,58,20,23,4,4,0.5,0.7
2023-12-06T2200,1371A,113.1294,23.0067,佛山市,湾梁,,46,46,43,18,19,13,,26,18,45,42,12,12,0.8,0.8
2023-12-06T2200,1372A,113.1083,23.0478,佛山市,华材职中,,44,44,37,26,25,6,,24,15,56,46,8,9,0.8,0.8
2023-12-06T2200,1373A,113.144,23.0453,佛山市,南海气象局,,45,45,37,22,22,4,,23,15,58,43,11,7,0.8,0.7
2023-12-06T2200,1374A,113.2881,22.8094,佛山市,顺德苏岗,,42,42,42,19,20,0,,26,16,55,49,10,9,0.8,0.8
2023-12-06T2200,1376A,112.8383,22.8678,佛山市,高明孔堂,颗粒物(PM10),52,53,44,24,24,5,,28,18,38,38,7,10,0.8,0.8
2023-12-06T2200,1377A,112.8836,23.1588,佛山市,三水监测站,,46,46,35,31,29,5,,23,16,50,36,7,8,1.1,1
2023-12-06T2200,1378A,112.867,23.185,佛山市,三水云东海,,38,38,28,21,23,2,,21,13,39,31,5,7,0.9,0.9
2023-12-06T2200,3625A,113.2544,22.7642,佛山市,容桂街道办,颗粒物(PM10),52,53,39,22,18,3,,30,20,57,49,6,5,0.8,0.8
2023-12-06T2200,1280A,119.3903,26.0543,福州市,鼓山,,,,20,,10,,,,,,8,,3,,
2023-12-06T2200,1282A,119.2681,26.0504,福州市,师大,,34,34,34,16,16,20,,65,32,40,27,5,5,0.7,0.7
2023-12-06T2200,1283A,119.2984,26.1028,福州市,五四北路,,46,46,38,23,19,5,,60,28,52,28,3,3,0.9,0.7
2023-12-06T2200,1284A,119.2648,26.0768,福州市,杨桥西路,,33,33,35,23,19,26,,62,32,34,28,3,3,0.5,0.5
2023-12-06T2200,1285A,119.317,26.0746,福州市,紫阳,颗粒物(PM10),74,97,41,46,19,4,,57,25,61,31,5,5,1.6,0.8
2023-12-06T2200,3048A,119.5799,26.0936,福州市,九龙,,39,39,25,20,13,12,,74,57,52,20,4,4,0.4,0.4
2023-12-06T2200,3526A,119.5189,25.9664,福州市,吴航,颗粒物(PM10),52,54,30,28,18,1,,44,22,58,34,6,4,1.1,0.7
2023-12-06T2200,1755A,123.7977,41.8491,抚顺市,望花区,,32,32,68,21,46,27,,58,50,54,36,14,15,0.7,0.7
2023-12-06T2200,1756A,123.9161,41.8822,抚顺市,顺城区,细颗粒物(PM2.5),52,43,84,36,65,9,,51,38,45,40,6,7,0.6,1.1
2023-12-06T2200,1757A,124.0436,41.8611,抚顺市,东洲区,,26,26,76,11,54,51,,52,46,12,31,7,8,0.4,0.8
2023-12-06T2200,1758A,123.9247,41.8642,抚顺市,新抚区,细颗粒物(PM2.5),52,37,75,36,55,19,,53,41,35,37,7,8,0.5,0.8
2023-12-06T2200,1759A,124.0972,41.8961,抚顺市,大伙房水库,,22,22,72,8,50,53,,54,51,10,29,7,9,0.3,0.7
2023-12-06T2200,1760A,123.7086,41.8391,抚顺市,沈抚新城,,39,39,74,18,46,27,,55,46,48,44,12,10,0.4,0.5
2023-12-06T2200,2376A,116.2127,28.0814,抚州市,桐源党溪,细颗粒物(PM2.5),75,77,53,55,36,0,,36,21,27,27,2,6,1.4,1.2
2023-12-06T2200,2377A,116.3544,27.9831,抚州市,市站,,,,59,,39,,,54,47,45,33,2,4,0.9,1
2023-12-06T2200,2378A,116.3565,27.963,抚州市,血防站,细颗粒物(PM2.5),79,76,62,58,40,20,,56,53,52,32,2,2,1.2,1.1
2023-12-06T2200,2379A,116.3564,28.0007,抚州市,采茶剧团,细颗粒物(PM2.5),87,90,56,64,41,43,,52,50,33,32,4,15,1.1,1.1
2023-12-06T2200,2380A,116.385,27.9647,抚州市,医学分院,细颗粒物(PM2.5),77,85,57,56,31,31,,54,51,43,31,7,5,1.1,1
2023-12-06T2200,2207A,121.6094,41.998,阜新市,工业园区,颗粒物(PM10),74,98,82,33,26,7,,56,38,58,34,14,12,1.0,0.8
2023-12-06T2200,2208A,121.6697,42.0279,阜新市,长青街,细颗粒物(PM2.5),90,92,59,67,29,4,,56,38,64,33,18,13,1.4,1
2023-12-06T2200,2209A,121.6673,42.0705,阜新市,农业园区,颗粒物(PM10),58,66,52,29,21,26,,55,44,40,18,18,13,0.6,0.6
2023-12-06T2200,2210A,121.6717,42.0224,阜新市,东苑,颗粒物(PM10),71,92,56,36,17,12,,61,41,52,26,22,18,1.0,0.7
2023-12-06T2200,2211A,121.6506,42.0498,阜新市,玉龙新城,颗粒物(PM10),67,84,56,34,17,7,,55,25,49,28,12,9,1.2,0.7
2023-12-06T2200,2301A,115.8277,32.8929,阜阳市,市监测站,颗粒物(PM10),109,167,141,59,50,38,,73,48,45,28,7,8,0.5,0.4
2023-12-06T2200,2303A,115.8554,32.8605,阜阳市,开发区,颗粒物(PM10),142,233,192,73,43,21,,77,47,64,34,12,11,0.7,0.5
2023-12-06T2200,2875A,115.784,32.8892,阜阳市,阜阳职业技术学院,颗粒物(PM10),133,215,169,55,48,64,,78,60,25,24,5,6,0.5,0.5
2023-12-06T2200,3468A,115.7901,32.8613,阜阳市,市规划展馆,颗粒物(PM10),116,182,153,48,40,74,,77,66,24,26,4,5,0.3,0.3
2023-12-06T2200,3469A,115.836,32.9183,阜阳市,枣园社区,颗粒物(PM10),113,176,145,51,39,40,,79,52,47,29,5,5,0.4,0.5
2023-12-06T2200,2669A,102.9099,34.9841,甘南州,州政府,细颗粒物(PM2.5),82,77,62,60,30,7,,79,56,55,21,28,15,1.2,0.6
2023-12-06T2200,3380A,102.8914,34.9617,甘南州,甘肃民族师范学院,颗粒物(PM10),64,78,64,36,18,6,,77,54,52,19,3,9,0.6,0.4
2023-12-06T2200,2570A,101.9603,30.0475,甘孜藏族自治州,水桥子,,40,40,20,20,9,11,,78,52,51,26,9,9,0.6,0.4
2023-12-06T2200,3065A,101.9533,29.9972,甘孜藏族自治州,州环保局,,23,23,18,2,6,51,,86,62,19,11,8,8,0.5,0.3
2023-12-06T2200,3414A,115.8347,28.932,赣江新区,桑海产业园,细颗粒物(PM2.5),93,114,84,69,48,1,,29,9,65,49,6,4,0.8,0.7
2023-12-06T2200,2362A,114.9017,25.9149,赣州市,通天岩,,,,,,,,,,,,,,,,
2023-12-06T2200,2363A,114.9367,25.8664,赣州市,地委,颗粒物(PM10),78,105,47,31,22,1,,73,47,53,23,7,9,1.2,1.2
2023-12-06T2200,2364A,114.9461,25.8481,赣州市,气象台,,,106,44,31,22,1,,65,,67,30,,11,1.4,1
2023-12-06T2200,2365A,114.9322,25.8333,赣州市,市图书馆,颗粒物(PM10),74,98,39,40,21,3,,72,52,51,22,8,9,1.3,1
2023-12-06T2200,2366A,114.8905,25.8471,赣州市,华坚鞋城,颗粒物(PM10),68,86,42,27,22,5,,66,39,67,25,14,12,1.8,1.2
2023-12-06T2200,3109A,115.0093,25.8613,赣州市,赣县区卫计委,,43,43,35,26,22,11,,70,46,45,24,8,9,1.1,0.9
2023-12-06T2200,2683A,106.2319,36.1417,固原市,马园,颗粒物(PM10),178,305,229,92,54,79,,84,81,8,9,5,4,0.7,0.5
2023-12-06T2200,2684A,106.2792,36.0022,固原市,监测站,颗粒物(PM10),144,237,180,56,32,73,,80,72,15,11,5,4,0.5,0.4
2023-12-06T2200,2685A,106.2375,36.0211,固原市,新区,颗粒物(PM10),101,151,168,48,30,65,,80,75,15,9,4,3,0.3,0.2
2023-12-06T2200,3522A,106.2177,35.9959,固原市,原州区十五小,颗粒物(PM10),136,221,169,51,34,82,,84,82,8,6,3,2,0.4,0.3
2023-12-06T2200,2543A,106.6308,30.5278,广安市,小平旧居,,,,,,,,,,,,,,,,
2023-12-06T2200,2544A,106.6303,30.4576,广安市,市委,细颗粒物(PM2.5),115,130,77,87,60,7,,64,48,61,33,10,9,1.4,0.9
2023-12-06T2200,2545A,106.6271,30.4663,广安市,友谊中学,细颗粒物(PM2.5),95,100,69,71,54,9,,60,48,38,27,7,8,1.1,0.9
2023-12-06T2200,2547A,106.6388,30.4551,广安市,广电花园,细颗粒物(PM2.5),119,119,76,90,62,9,,60,45,53,32,10,9,1.8,1
2023-12-06T2200,2902A,106.6351,30.4865,广安市,北辰小学,细颗粒物(PM2.5),115,115,75,87,56,10,,58,46,46,29,8,9,0.9,0.7
2023-12-06T2200,2523A,105.8945,32.4535,广元市,黑石坡,颗粒物(PM10),56,62,91,23,33,79,,84,84,12,23,9,8,0.4,0.5
2023-12-06T2200,2524A,105.821,32.4444,广元市,老城,颗粒物(PM10),103,156,156,42,48,3,,47,33,68,43,1,4,0.8,0.9
2023-12-06T2200,2526A,105.8628,32.4287,广元市,监测站,颗粒物(PM10),83,116,127,52,40,8,,53,44,64,36,7,6,0.8,0.8
2023-12-06T2200,3617A,105.8047,32.4166,广元市,经开区,颗粒物(PM10),116,182,152,54,59,5,,62,51,70,39,3,7,0.7,0.8
2023-12-06T2200,1345A,113.2347,23.1423,广州市,广雅中学,颗粒物(PM10),57,64,52,29,25,3,,20,14,70,52,6,6,1.1,1
2023-12-06T2200,1346A,113.2612,23.105,广州市,市五中,颗粒物(PM10),51,51,49,30,27,6,,25,20,61,50,9,8,1.0,0.9
2023-12-06T2200,1348A,113.3478,23.0916,广州市,广东商学院,,42,42,40,24,23,5,,24,18,58,44,7,6,0.8,0.8
2023-12-06T2200,1349A,113.4332,23.1047,广州市,市八十六中,,35,35,40,20,22,28,,31,30,38,39,5,5,0.6,0.9
2023-12-06T2200,1350A,113.3505,22.9483,广州市,番禺中学,,38,38,41,18,24,20,,32,27,53,51,6,6,0.7,0.8
2023-12-06T2200,1351A,113.2146,23.3916,广州市,花都师范,,39,39,32,25,21,38,,40,40,35,29,11,8,0.7,0.7
2023-12-06T2200,1352A,113.2597,23.1331,广州市,市监测站,颗粒物(PM10),56,62,55,31,27,3,,20,15,65,52,6,5,0.9,0.9
2023-12-06T2200,1353A,113.5618,23.312,广州市,九龙镇镇龙,,30,30,43,19,23,27,,38,38,25,30,6,7,0.7,0.8
2023-12-06T2200,1354A,113.2765,23.1544,广州市,麓湖,,,48,42,26,24,5,,22,15,,42,6,5,0.8,0.8
2023-12-06T2200,1355A,113.443,23.3035,广州市,帽峰山森林公园,,23,23,28,11,17,62,,53,53,14,17,9,10,0.5,0.8
2023-12-06T2200,2846A,113.3221,23.1322,广州市,体育西,,50,50,42,28,25,6,,26,22,62,39,9,7,1.0,0.9
2023-12-06T2200,3298A,113.5717,23.5491,广州市,从化街口,,26,26,35,17,22,13,,52,47,48,29,5,8,0.8,0.8
2023-12-06T2200,3299A,113.3472,23.3692,广州市,白云竹料,,48,48,38,27,24,6,,38,28,59,34,8,7,1.0,1
2023-12-06T2200,3300A,113.2981,23.237,广州市,白云嘉禾,颗粒物(PM10),69,88,51,39,25,5,,22,15,64,49,10,9,1.2,0.9
2023-12-06T2200,3301A,113.4256,23.1716,广州市,黄埔科学城,,23,20,34,16,22,34,,34,34,26,32,5,5,0.8,0.9
2023-12-06T2200,3302A,113.3942,23.0483,广州市,番禺大学城,,29,29,41,20,20,21,,38,32,52,43,8,8,0.8,0.9
2023-12-06T2200,3303A,113.4922,22.8168,广州市,南沙黄阁,,47,47,49,17,26,6,,29,20,62,54,7,7,0.9,1
2023-12-06T2200,3304A,113.5342,22.7896,广州市,南沙街,,44,44,50,18,26,3,,22,16,59,56,10,10,0.9,1
2023-12-06T2200,3443A,113.2902,23.5544,广州市,花都梯面,,20,18,27,14,20,50,,43,43,16,27,8,8,0.6,0.8
2023-12-06T2200,3445A,113.7858,23.7478,广州市,从化良口,,20,11,17,7,14,64,,68,68,4,12,5,5,0.4,0.6
2023-12-06T2200,3446A,113.8051,23.2614,广州市,增城荔城,,33,33,33,22,22,4,,31,21,23,20,5,9,0.7,0.7
2023-12-06T2200,2505A,109.568,23.1478,贵港市,德智高中,,39,39,31,20,22,77,,79,79,18,18,8,7,0.7,0.8
2023-12-06T2200,2506A,109.6047,23.0666,贵港市,江南子站,颗粒物(PM10),68,85,42,42,26,8,,69,59,59,22,8,9,1.3,0.9
2023-12-06T2200,2507A,109.6014,23.0948,贵港市,贵城子站,细颗粒物(PM2.5),77,75,36,56,27,12,,60,52,56,21,8,9,1.4,0.8
2023-12-06T2200,2508A,109.5669,23.1065,贵港市,荷城子站,细颗粒物(PM2.5),52,51,35,36,23,32,,62,60,37,19,9,11,1.0,1
2023-12-06T2200,3405A,109.5886,23.1172,贵港市,新世纪学校,,49,46,36,34,24,44,,64,60,35,21,8,8,0.9,0.9
2023-12-06T2200,1439A,106.6899,26.5998,贵阳市,马鞍山,,,58,35,51,32,11,,72,,,14,71,10,0.8,0.5
2023-12-06T2200,1440A,106.6971,26.5694,贵阳市,市环保站,细颗粒物(PM2.5),89,95,47,66,38,7,,66,41,73,27,34,12,1.0,0.4
2023-12-06T2200,1441A,106.6243,26.6266,贵阳市,鉴湖路,细颗粒物(PM2.5),64,58,44,46,28,53,,84,70,36,17,6,6,0.6,0.6
2023-12-06T2200,1442A,106.7487,26.6343,贵阳市,燕子冲,细颗粒物(PM2.5),77,70,42,56,35,16,,82,61,48,17,7,8,0.8,0.6
2023-12-06T2200,1443A,106.6555,26.4365,贵阳市,碧云窝,细颗粒物(PM2.5),94,88,52,70,31,23,,85,67,26,16,24,13,0.8,0.6
2023-12-06T2200,1444A,106.694,26.5161,贵阳市,中院村,细颗粒物(PM2.5),125,146,58,95,40,7,,74,52,81,25,55,15,1.6,0.6
2023-12-06T2200,1445A,106.7109,26.6027,贵阳市,红边门,细颗粒物(PM2.5),92,92,48,68,36,3,,78,51,64,23,74,19,1.3,0.6
2023-12-06T2200,1446A,106.7164,26.5699,贵阳市,新华路,颗粒物(PM10),100,149,52,61,37,6,,83,57,69,24,25,10,1.3,0.7
2023-12-06T2200,1447A,106.674,26.5424,贵阳市,太慈桥,细颗粒物(PM2.5),58,58,38,41,29,14,,78,50,45,23,7,6,0.6,0.5
2023-12-06T2200,1552A,106.805,26.3003,贵阳市,桐木岭,细颗粒物(PM2.5),69,71,55,50,38,41,,79,70,4,6,38,13,1.1,1
2023-12-06T2200,1862A,110.4144,25.3167,桂林市,电子科大尧山校区,颗粒物(PM10),51,51,32,19,22,49,,91,81,10,8,5,7,0.6,0.6
2023-12-06T2200,1863A,110.2819,25.2697,桂林市,监测站,颗粒物(PM10),51,52,51,25,32,54,,80,76,40,27,14,14,0.6,0.7
2023-12-06T2200,1864A,110.3089,25.2708,桂林市,龙隐路小学,,44,44,43,30,36,72,,79,78,18,22,19,16,0.5,0.6
2023-12-06T2200,1865A,110.2869,25.2178,桂林市,八中,"颗粒物(PM10),细颗粒物(PM2.5)",52,54,46,36,34,44,,76,68,51,30,10,10,0.5,0.6
2023-12-06T2200,3403A,110.1764,25.2381,桂林市,创业大厦,颗粒物(PM10),54,58,53,36,38,66,,90,88,30,23,24,26,0.4,0.5
2023-12-06T2200,3531A,110.296,25.1253,桂林市,旅游学院,颗粒物(PM10),51,51,32,34,23,58,,91,84,24,18,14,10,0.7,0.7
2023-12-06T2200,2674A,100.2561,34.4714,果洛藏族自治州,玛沁县大武镇,,45,45,39,28,17,39,,83,72,16,10,7,7,0.6,0.5
2023-12-06T2200,1129A,126.5422,45.755,哈尔滨市,岭北,,18,18,28,7,21,55,,62,60,9,11,8,8,0,1.2
2023-12-06T2200,1130A,126.561,45.8167,哈尔滨市,松北商大,,43,43,40,10,25,52,,56,52,11,19,4,5,0.4,0.5
2023-12-06T2200,1131A,126.979,45.5419,哈尔滨市,阿城会宁,,46,46,56,14,40,57,,58,56,12,20,8,10,0.4,0.4
2023-12-06T2200,1132A,126.599,45.7222,哈尔滨市,南岗学府路,颗粒物(PM10),56,62,59,7,22,46,,54,47,19,25,8,9,0.5,0.6
2023-12-06T2200,1133A,126.689,45.7733,哈尔滨市,太平宏伟公园,,43,43,42,9,23,50,,58,52,9,15,6,8,0.3,0.5
2023-12-06T2200,1134A,126.635,45.7667,哈尔滨市,道外承德广场,,43,43,46,11,25,40,,57,46,23,21,4,7,0.6,0.7
2023-12-06T2200,1135A,126.685,45.7319,哈尔滨市,香坊红旗大街,,40,40,47,13,24,48,,55,48,19,25,9,11,0.4,0.5
2023-12-06T2200,1136A,126.6411,45.7258,哈尔滨市,动力和平路,颗粒物(PM10),51,51,48,12,29,45,,54,49,24,25,7,8,0.4,0.4
2023-12-06T2200,1137A,126.593,45.7478,哈尔滨市,道里建国路,,39,39,44,12,25,51,,54,51,12,21,4,7,0.4,0.5
2023-12-06T2200,1138A,126.615,45.61,哈尔滨市,平房东轻厂,,44,44,49,12,31,45,,61,54,30,25,3,5,0.5,0.6
2023-12-06T2200,1139A,126.595,45.9855,哈尔滨市,呼兰师专,,35,35,46,9,29,58,,67,63,12,20,4,7,0.4,0.5
2023-12-06T2200,1140A,126.6206,45.6842,哈尔滨市,省农科院,,48,48,56,12,32,44,,54,46,21,28,8,12,0.6,0.7
2023-12-06T2200,2688A,93.5128,42.8172,哈密地区,地区监测站,颗粒物(PM10),84,118,111,40,37,42,,55,48,32,47,6,6,0.7,0.7
2023-12-06T2200,2689A,93.4961,42.8328,哈密地区,哈密师范学校,颗粒物(PM10),91,131,125,42,37,28,,54,47,44,48,9,8,0.6,0.6
2023-12-06T2200,2671A,100.9048,36.9639,海北藏族自治州,海晏县西海镇,,27,27,28,10,10,73,,85,80,6,4,15,14,0.5,0.5
2023-12-06T2200,3867A,102.0738,36.5056,海东地区,平安区公安北苑,,37,37,87,16,26,40,,73,69,27,23,8,14,0.5,0.6
2023-12-06T2200,1409A,110.576,19.9507,海口市,东寨港,,,,,,,,,,,,,,,,
2023-12-06T2200,1410A,110.3232,20.0574,海口市,海南大学,,34,34,38,22,30,53,,98,72,8,17,7,8,0.6,0.7
2023-12-06T2200,1411A,110.283,20.0053,海口市,秀英海南医院,,30,30,40,18,31,54,,106,70,15,17,7,8,0.6,0.7
2023-12-06T2200,1412A,110.338,19.9969,海口市,海南师范大学,,27,27,41,10,32,59,,92,74,13,18,6,7,0.6,0.7
2023-12-06T2200,1413A,110.33,20.0356,海口市,龙华路环保局宿舍,,27,27,37,12,31,58,,103,71,11,15,8,9,0.6,0.6
2023-12-06T2200,3539A,110.5111,19.9736,海口市,桂林洋子站,,,,39,,32,,,85,,,17,,7,,0.6
2023-12-06T2200,2673A,100.6188,36.2866,海南藏族自治州,共和县恰卜恰镇,,34,34,42,12,23,36,,84,71,39,24,9,8,0.4,1
2023-12-06T2200,2676A,97.3731,37.3753,海西蒙古族藏族自治州,德令哈市,,34,34,32,8,11,49,,73,62,26,25,9,9,0.4,0.4
2023-12-06T2200,1048A,114.5302,36.6116,邯郸市,东污水处理厂,颗粒物(PM10),120,190,252,53,62,16,,66,49,53,27,5,4,0.7,0.6
2023-12-06T2200,1049A,114.4918,36.5713,邯郸市,矿院,颗粒物(PM10),99,148,172,54,50,10,,57,42,61,23,5,5,0.9,0.7
2023-12-06T2200,1050A,114.484,36.6133,邯郸市,丛台公园,颗粒物(PM10),106,162,189,66,54,34,,74,59,43,22,7,7,0.6,0.5
2023-12-06T2200,3458A,114.7895,36.5593,邯郸市,香泉濮院小区,颗粒物(PM10),133,216,328,51,71,44,,71,64,21,20,10,10,0.1,0.2
2023-12-06T2200,3579A,114.50634,36.77178,邯郸市,永年区实验高中,颗粒物(PM10),118,185,274,64,80,38,,80,63,40,28,14,8,0.4,0.3
2023-12-06T2200,3580A,114.20016,36.44293,邯郸市,峰峰矿区临水派出所,颗粒物(PM10),111,171,207,48,51,44,,82,63,32,12,10,7,0.9,0.4
2023-12-06T2200,2634A,106.9893,33.1842,汉中市,汉川机床厂子校,颗粒物(PM10),129,208,144,55,57,35,,58,52,13,23,3,5,0.7,1.1
2023-12-06T2200,2635A,107.0154,33.0706,汉中市,市监测站,颗粒物(PM10),172,294,161,115,87,12,,35,27,58,39,10,9,1.8,1.7
2023-12-06T2200,2636A,107.0089,33.1138,汉中市,鑫源开发区,细颗粒物(PM2.5),180,304,165,136,84,10,,42,35,55,35,10,11,1.6,1.4
2023-12-06T2200,2637A,107.007,33.0323,汉中市,南郑大河坎水厂,颗粒物(PM10),170,289,167,123,75,15,,36,28,36,32,7,7,1.2,1.3
2023-12-06T2200,1223A,120.2072,30.2111,杭州市,滨江,颗粒物(PM10),97,144,67,42,30,30,,73,66,60,37,10,9,0.9,0.7
2023-12-06T2200,1224A,120.0633,30.2747,杭州市,西溪,颗粒物(PM10),63,75,54,33,32,4,,76,55,56,29,6,6,0.7,0.7
2023-12-06T2200,1226A,120.3461,30.3153,杭州市,下沙,颗粒物(PM10),102,153,78,44,40,9,,61,48,89,51,11,8,0.8,0.8
2023-12-06T2200,1227A,120.1269,30.2456,杭州市,卧龙桥,颗粒物(PM10),66,81,57,26,25,23,,73,58,31,23,7,8,0.8,0.8
2023-12-06T2200,1228A,120.1903,30.2692,杭州市,浙江农大,颗粒物(PM10),81,112,57,47,31,4,,62,49,70,40,8,8,0.6,0.5
2023-12-06T2200,1230A,120.1197,30.3119,杭州市,和睦小学,颗粒物(PM10),83,116,75,45,39,7,,59,48,87,47,5,8,0.9,0.9
2023-12-06T2200,1231A,120.3019,30.4183,杭州市,临平镇,颗粒物(PM10),116,181,95,35,37,24,,60,48,53,41,9,7,0.7,0.8
2023-12-06T2200,1232A,120.2697,30.1819,杭州市,城厢镇,颗粒物(PM10),83,116,68,54,39,4,,61,50,89,49,6,7,1.2,0.7
2023-12-06T2200,1233A,120.0883,30.1808,杭州市,云栖,颗粒物(PM10),65,79,48,24,25,35,,66,60,28,25,6,6,0.8,0.8
2023-12-06T2200,3557A,119.9464,30.0494,杭州市,镇二中,颗粒物(PM10),81,111,57,58,35,4,,64,37,69,41,5,5,1.0,0.8
2023-12-06T2200,3558A,119.7183,30.2367,杭州市,市府大楼,颗粒物(PM10),87,123,64,57,37,17,,85,68,53,33,5,6,0.8,0.7
2023-12-06T2200,3656A,120.1556,30.2864,杭州市,消防大队,颗粒物(PM10),83,115,72,45,34,9,,67,53,90,47,10,10,1.0,0.7
2023-12-06T2200,1270A,117.1959,31.7848,合肥市,明珠广场,颗粒物(PM10),96,141,156,39,48,9,,57,26,76,52,7,8,0.7,0.7
2023-12-06T2200,1271A,117.3072,31.8764,合肥市,三里街,颗粒物(PM10),114,178,164,46,48,7,,64,36,89,49,10,8,1.4,0.8
2023-12-06T2200,1272A,117.2588,31.8707,合肥市,琥珀山庄,颗粒物(PM10),100,149,152,66,46,8,,68,39,80,41,5,6,1.3,0.8
2023-12-06T2200,1273A,117.1604,31.9052,合肥市,董铺水库,颗粒物(PM10),109,168,171,29,41,18,,104,77,66,26,5,5,0.5,0.5
2023-12-06T2200,1274A,117.25,31.8571,合肥市,长江中路,颗粒物(PM10),102,153,144,42,46,4,,63,41,80,39,9,9,0.9,0.8
2023-12-06T2200,1275A,117.266,31.9436,合肥市,庐阳区,颗粒物(PM10),101,151,168,29,40,26,,66,48,60,39,5,5,0.6,0.6
2023-12-06T2200,1276A,117.336,31.8586,合肥市,瑶海区,颗粒物(PM10),123,195,191,48,48,4,,63,39,85,45,6,4,0.8,0.6
2023-12-06T2200,1277A,117.3027,31.7964,合肥市,包河区,颗粒物(PM10),102,153,159,34,51,3,,61,31,88,52,7,6,0.5,0.5
2023-12-06T2200,1278A,117.2776,31.7385,合肥市,滨湖新区,颗粒物(PM10),103,156,169,36,49,1,,63,24,100,52,8,6,0.6,0.6
2023-12-06T2200,1279A,117.1318,31.8403,合肥市,高新区,颗粒物(PM10),104,158,156,31,40,16,,68,52,73,38,10,9,0.7,0.8
2023-12-06T2200,3464A,117.3803,31.9147,合肥市,高教基地,颗粒物(PM10),112,173,170,38,42,6,,71,44,81,39,5,5,0.7,0.5
2023-12-06T2200,3614A,79.924,37.0877,和田地区,地区环保局,颗粒物(PM10),148,246,143,71,39,70,,93,87,55,26,30,15,1.2,0.8
2023-12-06T2200,3615A,79.9131,37.113,和田地区,市环保局,颗粒物(PM10),120,189,135,80,42,28,,92,74,86,36,14,13,0.9,1.1
2023-12-06T2200,2516A,108.2011,24.715,河池市,东仁乐园,,38,27,32,26,27,23,,55,46,11,11,4,5,0.5,0.6
2023-12-06T2200,2517A,108.0497,24.6947,河池市,市环保站,颗粒物(PM10),55,60,47,25,27,8,,72,54,41,22,6,7,0.8,0.7
2023-12-06T2200,2518A,108.0983,24.6989,河池市,市疾控中心,颗粒物(PM10),70,90,57,46,32,6,,73,45,50,29,6,7,0.8,0.8
2023-12-06T2200,1696A,114.6778,23.7569,河源市,源西,,26,22,23,18,14,29,,51,45,41,19,5,4,0.7,0.6
2023-12-06T2200,1697A,114.6944,23.7586,河源市,东埔,,30,30,28,17,18,49,,60,60,25,14,8,6,0.6,0.6
2023-12-06T2200,1698A,114.6892,23.7233,河源市,老城,,34,34,26,19,19,38,,60,59,32,14,6,5,0.7,0.6
2023-12-06T2200,1718A,115.4208,35.2464,菏泽市,气象局,颗粒物(PM10),134,217,242,50,57,47,,77,67,41,35,7,4,0.4,0.5
2023-12-06T2200,1719A,115.4747,35.2375,菏泽市,市政协,颗粒物(PM10),128,205,244,51,59,52,,70,64,39,38,6,3,0.5,0.6
2023-12-06T2200,3374A,115.5564,35.0891,菏泽市,定陶老年大学,颗粒物(PM10),118,185,216,46,52,40,,70,59,35,26,4,5,0.5,0.5
2023-12-06T2200,3647A,115.4702,35.2706,菏泽市,菏泽医专,颗粒物(PM10),126,202,232,36,52,59,,76,70,31,33,8,6,0.4,0.5
2023-12-06T2200,2514A,111.5264,24.4172,贺州市,环保小区,细颗粒物(PM2.5),72,84,56,52,30,17,,54,36,33,30,7,8,0.9,0.9
2023-12-06T2200,2515A,111.5608,24.4078,贺州市,政协大楼,颗粒物(PM10),54,58,52,37,30,20,,62,46,32,26,8,8,0.8,0.8
2023-12-06T2200,3534A,111.4744,24.4553,贺州市,西湾,细颗粒物(PM2.5),75,96,46,55,26,6,,68,54,61,27,8,8,1.2,0.9
2023-12-06T2200,2385A,114.17,35.9019,鹤壁市,市监测站,颗粒物(PM10),102,154,137,55,45,4,,78,48,61,24,4,3,1.1,0.5
2023-12-06T2200,2386A,114.2956,35.7511,鹤壁市,市交警支队,颗粒物(PM10),120,189,153,32,29,3,,71,50,66,27,12,10,0.4,0.2
2023-12-06T2200,2387A,114.2878,35.7306,鹤壁市,迎宾馆,颗粒物(PM10),117,183,153,38,26,2,,74,50,69,31,4,5,0.5,0.4
2023-12-06T2200,3474A,114.2617,35.6822,鹤壁市,大新区,,,,161,,30,,,52,,,30,,6,,0.3
2023-12-06T2200,3596A,114.1572,35.9603,鹤壁市,南山宾馆,颗粒物(PM10),100,150,170,39,33,43,,86,64,40,22,8,7,0.6,0.5
2023-12-06T2200,2244A,130.2537,47.3416,鹤岗市,哈啤分公司,,28,26,50,19,35,66,,50,50,7,27,11,15,0.2,0.5
2023-12-06T2200,2245A,130.2684,47.3086,鹤岗市,斯达机电,,31,31,56,14,36,64,,52,52,9,33,10,14,0.1,0.4
2023-12-06T2200,2246A,130.3114,47.3388,鹤岗市,东山纸板厂,,36,36,65,18,40,62,,39,39,9,43,13,18,0.4,1
2023-12-06T2200,2247A,130.1097,47.3382,鹤岗市,五号水库,,28,28,49,18,34,68,,61,61,7,26,9,10,0.2,0.4
2023-12-06T2200,2263A,127.4833,50.2524,黑河市,交通局,,20,19,30,14,22,48,,58,50,8,11,7,9,0.3,0.4
2023-12-06T2200,2264A,127.5144,50.2341,黑河市,环保局,,36,,40,25,25,44,,55,46,9,15,9,17,0.3,0.3
2023-12-06T2200,2265A,127.5291,50.2472,黑河市,大黑河岛,,32,32,32,11,22,46,,59,48,8,11,12,16,0.4,0.5
2023-12-06T2200,1074A,115.6838,37.7541,衡水市,电机北厂,颗粒物(PM10),118,186,296,59,106,46,,60,58,23,33,9,9,0.4,0.7
2023-12-06T2200,1075A,115.6303,37.7316,衡水市,市监测站,颗粒物(PM10),124,198,278,46,94,36,,58,50,36,46,12,12,0.3,0.6
2023-12-06T2200,3188A,115.6683,37.7217,衡水市,市城管局,颗粒物(PM10),125,199,295,66,107,31,,55,49,38,38,8,9,0.4,0.7
2023-12-06T2200,3459A,115.5989,37.5491,衡水市,地表水厂,颗粒物(PM10),137,223,304,63,102,7,,57,32,57,39,9,7,0.6,0.7
2023-12-06T2200,2456A,112.5003,26.9167,衡阳市,原169医院,颗粒物(PM10),79,108,63,52,34,10,,77,59,58,30,9,13,1.1,0.8
2023-12-06T2200,2457A,112.6194,26.9258,衡阳市,衡阳化工总厂,细颗粒物(PM2.5),123,124,79,93,63,3,,90,60,73,41,7,10,1.3,1
2023-12-06T2200,2458A,112.6211,26.8956,衡阳市,珠晖区环保局,细颗粒物(PM2.5),132,146,75,100,57,6,,86,61,71,38,11,14,2.6,1.3
2023-12-06T2200,2459A,112.6197,26.8733,衡阳市,市委党校,细颗粒物(PM2.5),97,112,70,72,49,5,,100,77,79,31,12,9,1.3,1.1
2023-12-06T2200,2460A,112.6006,26.8919,衡阳市,市监测站,细颗粒物(PM2.5),140,155,80,107,58,3,,78,51,78,42,8,12,2.4,1.3
2023-12-06T2200,2461A,112.5664,26.9056,衡阳市,真空机电公司,细颗粒物(PM2.5),102,105,73,76,54,4,,81,61,92,42,8,10,2.1,1.3
2023-12-06T2200,3399A,112.6703,26.882,衡阳市,师范学院,细颗粒物(PM2.5),103,102,59,77,44,20,,99,83,61,25,9,12,1.1,0.9
2023-12-06T2200,2608A,103.3772,23.3993,红河州,污水处理厂,细颗粒物(PM2.5),59,54,33,42,28,57,,52,52,11,15,7,16,0.4,0.5
2023-12-06T2200,2609A,103.3861,23.35,红河州,监测站,,49,49,29,31,22,62,,55,55,14,14,5,16,0.5,0.6
2023-12-06T2200,3038A,103.3758,23.368,红河州,州图书馆,细颗粒物(PM2.5),55,,28,39,20,61,,54,54,10,13,7,19,0.4,0.4
2023-12-06T2200,1090A,111.6507,40.7517,呼和浩特市,呼市一监,颗粒物(PM10),139,227,442,63,100,36,,51,45,31,22,8,7,0.7,0.6
2023-12-06T2200,1091A,111.6572,40.8033,呼和浩特市,小召,颗粒物(PM10),152,254,412,69,114,35,,51,46,42,33,20,14,0.7,0.6
2023-12-06T2200,1094A,111.7516,40.8369,呼和浩特市,如意水处理厂,颗粒物(PM10),132,214,324,67,86,2,,43,31,71,38,16,12,1.0,0.7
2023-12-06T2200,1095A,111.7276,40.8062,呼和浩特市,二十九中,颗粒物(PM10),137,224,371,80,90,15,,50,41,56,36,17,13,1.0,0.7
2023-12-06T2200,1096A,111.5512,40.7866,呼和浩特市,工大金川校区,颗粒物(PM10),132,214,426,64,110,29,,43,35,39,33,23,13,0.6,0.6
2023-12-06T2200,1097A,111.717,40.7612,呼和浩特市,化肥厂生活区,颗粒物(PM10),130,210,387,53,104,48,,48,42,23,27,8,12,0.5,0.6
2023-12-06T2200,3698A,111.5968,40.8178,呼和浩特市,红旗小学,颗粒物(PM10),151,251,373,70,88,9,,36,16,72,48,32,13,0.9,0.8
2023-12-06T2200,3699A,111.6518,40.8389,呼和浩特市,海东办,颗粒物(PM10),135,219,368,86,84,3,,44,30,77,41,15,11,1.3,0.7
2023-12-06T2200,2192A,119.7594,49.2261,呼伦贝尔市,区环保局,,25,18,27,17,18,58,,70,58,7,7,5,5,0.2,0.3
2023-12-06T2200,3061A,119.7512,49.1577,呼伦贝尔市,国华电力东,,22,18,25,15,12,65,,74,64,4,4,5,5,0.2,0.2
2023-12-06T2200,1250A,120.0751,30.8669,湖州市,城西水厂,颗粒物(PM10),139,227,116,53,42,4,,61,32,87,64,11,8,0.7,0.6
2023-12-06T2200,2873A,120.0875,30.8955,湖州市,仁皇山新区,颗粒物(PM10),140,230,105,58,42,6,,71,52,85,53,13,9,0.7,0.7
2023-12-06T2200,2907A,120.1844,30.8596,湖州市,吴兴区站,颗粒物(PM10),119,188,93,46,38,3,,71,55,90,52,8,7,0.8,0.7
2023-12-06T2200,3562A,120.4148,30.8538,湖州市,南浔区站,颗粒物(PM10),113,175,95,41,44,45,,62,59,43,49,8,8,0.4,0.6
2023-12-06T2200,1607A,120.9092,40.7136,葫芦岛市,龙港区,,16,16,59,8,31,43,,55,45,22,33,17,15,0.2,0.4
2023-12-06T2200,1608A,120.8392,40.7514,葫芦岛市,化工街,颗粒物(PM10),73,95,79,41,35,12,,53,32,44,25,63,25,1.3,0.9
2023-12-06T2200,1609A,120.8341,40.7073,葫芦岛市,新区,,17,13,58,4,27,38,,61,45,33,39,6,11,0.4,1
2023-12-06T2200,1610A,120.8695,40.7677,葫芦岛市,东城区,细颗粒物(PM2.5),64,47,68,46,36,19,,60,30,42,33,17,27,1.3,0.9
2023-12-06T2200,2482A,109.5981,27.5721,怀化市,林科所,,31,31,39,17,27,55,,88,81,4,4,5,4,1.0,1
2023-12-06T2200,2483A,109.9453,27.5444,怀化市,河西地税局,,50,50,51,34,34,16,,80,57,28,22,3,5,0.4,0.5
2023-12-06T2200,2484A,109.9781,27.5342,怀化市,市四医院,颗粒物(PM10),84,118,61,46,35,0,,70,50,57,30,6,8,1.0,0.6
2023-12-06T2200,2485A,109.9972,27.5578,怀化市,监测楼,细颗粒物(PM2.5),84,86,51,62,40,12,,70,48,42,29,5,8,1.0,0.9
2023-12-06T2200,2486A,110.0394,27.583,怀化市,市委党校,颗粒物(PM10),63,75,49,41,30,2,,84,52,45,24,7,11,0.6,0.7
2023-12-06T2200,1210A,119.036,33.5981,淮安市,钵池山,颗粒物(PM10),150,249,158,87,76,17,,73,52,75,34,11,10,1.0,0.8
2023-12-06T2200,1211A,119.007,33.575,淮安市,北京南路,颗粒物(PM10),156,261,166,87,79,14,,70,39,70,45,10,12,0.9,0.9
2023-12-06T2200,1212A,118.989,33.6067,淮安市,市监测站,颗粒物(PM10),153,256,171,97,83,31,,72,50,55,40,8,9,0.9,0.8
2023-12-06T2200,1213A,119.135,33.5039,淮安市,楚州区监测站,颗粒物(PM10),160,269,175,83,78,9,,72,44,75,40,8,8,0.7,0.7
2023-12-06T2200,1214A,119.0186,33.6297,淮安市,淮阴区监测站,颗粒物(PM10),175,300,187,77,79,17,,70,43,70,39,8,8,0.7,0.7
2023-12-06T2200,3426A,118.8755,33.2894,淮安市,新华书店,颗粒物(PM10),143,236,164,66,80,44,,77,68,37,32,9,11,0.7,0.8
2023-12-06T2200,2282A,116.8004,33.975,淮北市,监测站,颗粒物(PM10),124,197,231,58,65,6,,64,39,77,33,9,7,1.4,0.8
2023-12-06T2200,2283A,116.8091,33.9007,淮北市,烈山区政府,颗粒物(PM10),154,257,237,78,70,7,,72,40,77,45,9,8,0.6,0.6
2023-12-06T2200,3330A,116.8873,33.9836,淮北市,杜集区检察院,颗粒物(PM10),125,200,249,63,73,25,,70,53,44,26,7,8,0.7,0.8
2023-12-06T2200,4017A,116.7923,33.9535,淮北市,市博物馆,颗粒物(PM10),143,235,236,68,68,4,,67,39,79,38,9,8,0.9,0.7
2023-12-06T2200,2277A,116.8305,32.7727,淮南市,潘集区政府,颗粒物(PM10),132,214,233,80,64,38,,71,54,40,29,9,9,0.6,0.6
2023-12-06T2200,2278A,117.0067,32.6524,淮南市,师范学院,颗粒物(PM10),119,188,215,42,52,55,,68,51,25,35,8,9,0.6,0.6
2023-12-06T2200,2279A,116.8569,32.5951,淮南市,谢家集区政府,颗粒物(PM10),124,197,197,36,43,44,,78,61,38,28,7,8,0.6,0.6
2023-12-06T2200,2280A,116.8281,32.633,淮南市,八公山区政府,颗粒物(PM10),111,172,179,33,38,52,,76,72,33,17,7,7,0.4,0.5
2023-12-06T2200,2281A,116.6325,32.6201,淮南市,焦岗湖风景区管理处,颗粒物(PM10),109,168,146,54,46,49,,67,59,22,21,2,2,0.2,0.2
2023-12-06T2200,2894A,117.0566,32.6531,淮南市,经济技术开发区消防队,颗粒物(PM10),115,179,216,44,48,50,,73,60,31,24,6,6,0.2,0.3
2023-12-06T2200,3329A,117.0108,32.5893,淮南市,山南新区,颗粒物(PM10),133,216,252,55,58,50,,72,53,22,26,7,7,0.4,0.5
2023-12-06T2200,2446A,114.9028,30.4742,黄冈市,职工中心,颗粒物(PM10),83,115,141,52,72,76,,80,75,25,33,11,13,0.8,0.9
2023-12-06T2200,2929A,114.8858,30.4519,黄冈市,红卫路,颗粒物(PM10),79,107,128,53,70,77,,85,82,27,37,7,8,0.7,0.9
2023-12-06T2200,3398A,114.9136,30.4445,黄冈市,市林业局,颗粒物(PM10),83,116,113,59,65,60,,94,85,45,38,17,8,1.3,0.8
2023-12-06T2200,2672A,102.0199,35.5102,黄南藏族自治州,同仁县隆务镇,,38,38,55,16,20,54,,80,69,11,9,11,12,0.4,0.4
2023-12-06T2200,2295A,118.2903,29.6963,黄山市,延安路89号,颗粒物(PM10),76,101,51,54,33,17,,40,31,18,17,5,5,0.6,0.4
2023-12-06T2200,2296A,118.327,29.7178,黄山市,黄山东路89号,颗粒物(PM10),73,96,73,50,43,4,,38,23,31,22,5,5,0.8,0.7
2023-12-06T2200,2297A,118.1371,30.2756,黄山市,黄山区政府5号楼,细颗粒物(PM2.5),74,96,87,54,40,22,,80,59,20,15,4,5,0.6,0.5
2023-12-06T2200,2423A,115.0601,30.2313,黄石市,沈家营,颗粒物(PM10),85,119,116,61,58,68,,98,93,35,42,5,11,0.9,1.1
2023-12-06T2200,2424A,115.0817,30.2006,黄石市,陈家湾,颗粒物(PM10),73,95,108,49,70,48,,79,72,28,47,8,10,1.0,1.1
2023-12-06T2200,2426A,114.8988,30.2019,黄石市,铁山,颗粒物(PM10),82,113,109,59,74,39,,91,66,42,44,5,10,1.0,1.3
2023-12-06T2200,2427A,115.0307,30.2092,黄石市,团城山,颗粒物(PM10),97,144,129,65,66,52,,98,91,55,49,9,10,0.8,1
2023-12-06T2200,3149A,115.0235,30.1578,黄石市,笔架山北路,细颗粒物(PM2.5),95,124,112,71,70,51,,98,86,49,47,11,12,1.0,1.1
2023-12-06T2200,1392A,114.4183,23.0528,惠州市,河南岸金山湖子站,,25,25,32,16,21,60,,54,54,13,14,7,6,0.8,1
2023-12-06T2200,1393A,114.4053,23.0822,惠州市,下埔横江三路子站,,25,25,32,16,20,63,,57,57,14,18,9,9,0.6,0.7
2023-12-06T2200,1394A,114.4103,23.1142,惠州市,江北云山西路子站,,24,24,31,15,18,61,,55,55,14,17,8,7,0.6,0.7
2023-12-06T2200,1395A,114.4645,22.7833,惠州市,惠阳区承修路船湖子站,,,34,42,16,22,,,59,59,,22,8,8,0.5,1
2023-12-06T2200,1396A,114.5317,22.7422,惠州市,大亚湾管委会子站,,25,25,42,15,22,60,,60,60,16,31,6,6,0.7,0.8
2023-12-06T2200,3314A,114.4338,22.8134,惠州市,惠阳秋长,,21,19,31,14,21,67,,66,66,7,19,6,6,0.6,0.8
2023-12-06T2200,3452A,114.6517,22.775,惠州市,大亚湾霞涌,,40,,27,28,23,55,,55,55,12,17,7,6,0.5,0.4
2023-12-06T2200,2240A,130.9762,45.3001,鸡西市,环保局,,,8,5,,,49,,42,42,11,23,4,6,0.5,1
2023-12-06T2200,2243A,130.9429,45.3039,鸡西市,第一中学,,18,10,54,9,40,57,,67,53,10,24,6,12,0.1,0.4
2023-12-06T2200,3707A,131.0207,45.3073,鸡西市,欧美日汽修厂,,15,11,134,10,96,48,,36,36,15,56,12,44,0.8,1.6
2023-12-06T2200,3709A,130.9967,45.3106,鸡西市,市政设施管理处,,18,18,87,10,71,54,,43,43,13,49,2,6,0.5,1.3
2023-12-06T2200,2367A,114.9754,27.0803,吉安市,红声器材厂,,,60,50,43,30,33,,68,59,,39,13,16,1.0,0.7
2023-12-06T2200,2368A,114.9658,27.0999,吉安市,市森林工业局,细颗粒物(PM2.5),65,71,46,47,31,5,,62,44,68,33,10,15,1.1,0.7
2023-12-06T2200,2369A,114.99,27.1312,吉安市,市环境监测站,颗粒物(PM10),64,77,47,45,30,0,,67,48,68,33,9,9,0.9,0.8
2023-12-06T2200,2370A,115.0093,27.0968,吉安市,青原区法院,细颗粒物(PM2.5),54,56,47,38,31,15,,67,44,48,33,11,15,0.8,0.8
2023-12-06T2200,1772A,126.54,43.8622,吉林市,哈达湾,,21,17,49,5,33,65,,66,55,5,16,7,9,0.4,0.7
2023-12-06T2200,1773A,126.5844,43.8358,吉林市,东局子,,20,12,44,8,35,61,,62,52,12,19,6,7,0.5,0.7
2023-12-06T2200,1774A,126.5052,43.8245,吉林市,电力学院,,20,14,48,9,36,64,,64,56,7,17,7,9,0.4,0.6
2023-12-06T2200,1775A,126.6133,43.8972,吉林市,江北,,20,16,48,6,33,64,,62,56,14,24,9,10,0.5,0.6
2023-12-06T2200,1776A,126.555,43.8306,吉林市,江南公园,,20,17,48,10,39,61,,61,53,12,19,7,9,0.4,0.6
2023-12-06T2200,1778A,126.7061,43.7133,吉林市,丰满,,21,15,46,8,37,67,,72,58,3,10,8,11,0.4,0.6
2023-12-06T2200,2868A,126.4739,43.953,吉林市,九站,,19,16,53,7,40,60,,62,53,13,19,4,7,0.5,0.7
2023-12-06T2200,1299A,116.9862,36.6114,济南市,科干所,颗粒物(PM10),142,234,309,39,107,80,,68,68,9,38,8,10,0.6,1
2023-12-06T2200,1300A,116.9376,36.665,济南市,农科所,颗粒物(PM10),156,261,324,44,115,46,,46,42,37,59,7,9,0.5,0.9
2023-12-06T2200,1301A,117.1265,36.6734,济南市,开发区,颗粒物(PM10),131,212,272,46,98,72,,57,57,17,40,7,10,0.4,0.7
2023-12-06T2200,1303A,117.0624,36.6868,济南市,省种子仓库,颗粒物(PM10),134,217,297,34,104,73,,60,60,16,40,7,10,0.5,0.8
2023-12-06T2200,1304A,116.9489,36.6447,济南市,机床二厂,颗粒物(PM10),168,286,332,54,137,63,,50,46,28,61,10,14,0.7,1.2
2023-12-06T2200,1305A,117.0495,36.663,济南市,市监测站,颗粒物(PM10),138,225,286,42,100,81,,66,66,14,41,10,14,0.5,0.8
2023-12-06T2200,1306A,116.7675,36.5484,济南市,长清党校,颗粒物(PM10),158,266,336,44,130,70,,63,63,33,55,9,11,0.5,0.9
2023-12-06T2200,1616A,117.6795,36.229,济南市,技术学院,颗粒物(PM10),318,434,252,100,99,25,,66,45,59,62,11,12,0.6,0.7
2023-12-06T2200,1961A,117.532,36.6868,济南市,东山小学,颗粒物(PM10),171,291,246,51,90,70,,62,59,22,51,9,11,0.6,0.9
2023-12-06T2200,3059A,117.7161,36.2049,济南市,泰兴公司,颗粒物(PM10),296,417,254,112,100,5,,60,30,76,61,16,11,1.1,0.8
2023-12-06T2200,3064A,117.6867,36.2171,济南市,莱芜战役纪念馆,颗粒物(PM10),282,407,241,90,96,16,,59,36,73,66,13,12,0.8,0.9
2023-12-06T2200,3494A,117.1673,36.9782,济南市,济阳区政府,颗粒物(PM10),269,398,320,73,132,18,,56,38,74,63,9,8,0.7,1.1
2023-12-06T2200,3495A,117.1171,36.63,济南市,锦屏中学,颗粒物(PM10),142,234,277,42,94,82,,68,68,12,33,8,10,0.4,0.8
2023-12-06T2200,3682A,116.9814,36.6819,济南市,济南四建,颗粒物(PM10),157,263,320,51,130,65,,53,53,22,49,9,14,0.2,0.8
2023-12-06T2200,1653A,116.6251,35.4302,济宁市,火炬城,颗粒物(PM10),157,264,230,63,79,15,,58,44,67,45,9,8,0.7,0.8
2023-12-06T2200,1655A,116.5491,35.4042,济宁市,电化厂,颗粒物(PM10),156,261,288,56,89,38,,56,38,42,48,10,10,0.5,0.7
2023-12-06T2200,3500A,116.5814,35.3707,济宁市,北湖一中,颗粒物(PM10),145,239,244,56,85,38,,57,49,36,37,12,10,0.0,0.3
2023-12-06T2200,3501A,116.8249,35.5593,济宁市,服务中心,颗粒物(PM10),232,372,271,74,101,20,,55,38,55,48,11,8,0.4,0.7
2023-12-06T2200,3678A,116.5907,35.4054,济宁市,市第七中学,颗粒物(PM10),149,247,237,58,81,14,,61,47,63,40,8,8,0.6,0.7
2023-12-06T2200,2255A,130.2751,46.8028,佳木斯市,佳纺,,21,21,62,11,49,57,,61,58,12,34,5,7,0.3,0.7
2023-12-06T2200,2256A,130.3995,46.8307,佳木斯市,发电厂,,23,19,41,16,31,61,,63,60,13,21,5,6,0.3,0.5
2023-12-06T2200,2257A,130.3258,46.7975,佳木斯市,环保局,,24,24,56,11,46,54,,60,56,18,28,4,7,0.3,0.5
2023-12-06T2200,2258A,130.3648,46.8032,佳木斯市,十一中,,22,22,49,12,41,57,,56,54,14,25,4,7,0.3,0.6
2023-12-06T2200,2259A,130.3794,46.7588,佳木斯市,四丰,,19,15,49,8,31,59,,70,59,6,16,1,1,0.4,0.7
2023-12-06T2200,1252A,120.7436,30.778,嘉兴市,清河小学,颗粒物(PM10),116,182,103,35,38,43,,62,53,44,50,10,10,0.2,0.4
2023-12-06T2200,1253A,120.726,30.7478,嘉兴市,嘉兴学院,颗粒物(PM10),105,160,97,38,45,50,,66,60,35,46,10,9,0.6,0.8
2023-12-06T2200,2872A,120.7846,30.7525,嘉兴市,南湖区残联,颗粒物(PM10),101,152,94,40,44,38,,64,54,52,51,8,8,0.8,0.8
2023-12-06T2200,3407A,120.6916,30.7739,嘉兴市,秀洲住建,颗粒物(PM10),118,185,101,44,47,29,,65,52,55,49,10,9,0.8,0.9
2023-12-06T2200,1945A,98.2908,39.7711,嘉峪关市,气象局,颗粒物(PM10),86,122,58,19,15,68,,75,70,21,28,7,13,0.6,0.7
2023-12-06T2200,2884A,98.2672,39.7978,嘉峪关市,酒钢宾馆,颗粒物(PM10),89,127,68,22,16,66,,68,65,17,25,12,19,0.3,0.5
2023-12-06T2200,3248A,98.2643,39.7724,嘉峪关市,雄关区,颗粒物(PM10),74,97,52,21,15,59,,72,66,21,28,8,13,0.3,0.4
2023-12-06T2200,1383A,113.1064,22.6058,江门市,北街,,34,34,39,21,25,4,,33,23,64,57,10,10,0.8,0.8
2023-12-06T2200,1384A,113.0731,22.5835,江门市,西区,,46,46,42,15,25,7,,32,22,55,53,10,10,0.8,0.8
2023-12-06T2200,1385A,113.0219,22.5311,江门市,圭峰西,,26,22,32,18,24,42,,42,39,26,32,10,6,0.6,0.7
2023-12-06T2200,1386A,113.0828,22.5947,江门市,东湖,,34,34,41,14,26,6,,33,23,56,52,8,8,0.7,0.7
2023-12-06T2200,3311A,113.1075,22.5647,江门市,江海富民,,38,38,47,26,24,6,,35,25,63,58,12,11,0.9,0.9
2023-12-06T2200,3449A,113.05,22.4667,江门市,新会银湖,,31,31,38,20,25,20,,39,30,43,47,12,10,0.7,0.8
2023-12-06T2200,1828A,113.227,35.2125,焦作市,市环保局,颗粒物(PM10),120,189,191,59,44,22,,78,47,61,23,14,9,0.5,0.3
2023-12-06T2200,1830A,113.1992,35.2590,焦作市,影视城,颗粒物(PM10),87,124,147,32,32,73,,76,75,14,14,3,4,0.5,0.6
2023-12-06T2200,3169A,113.2725,35.2067,焦作市,太极体育中心,颗粒物(PM10),118,186,209,52,43,34,,81,57,50,20,16,9,0.6,0.4
2023-12-06T2200,3335A,113.3137,35.2641,焦作市,马村街道办,颗粒物(PM10),115,179,198,55,44,46,,83,68,40,17,9,4,0.5,0.4
2023-12-06T2200,3336A,113.2465,35.2373,焦作市,焦作技师学院,颗粒物(PM10),119,188,189,51,40,27,,84,57,62,25,15,8,0.4,0.2
2023-12-06T2200,3477A,113.1656,35.2539,焦作市,中站许衡医院,颗粒物(PM10),105,160,182,33,37,62,,75,69,29,20,9,10,0.5,0.5
2023-12-06T2200,3981A,113.2449,35.1803,焦作市,原李万街道办,颗粒物(PM10),113,175,207,53,38,18,,82,53,58,21,13,9,0.5,0.3
2023-12-06T2200,1708A,116.3701,23.5345,揭阳市,新兴,,30,30,38,17,28,33,,45,35,22,25,10,14,0.7,0.7
2023-12-06T2200,1709A,116.3264,23.5443,揭阳市,西马,,21,21,40,12,27,44,,44,40,14,23,8,10,0.6,0.7
2023-12-06T2200,1710A,116.3611,23.5626,揭阳市,东兴,,33,33,42,13,26,27,,39,32,30,26,11,12,0.8,0.9
2023-12-06T2200,1711A,116.4151,23.5294,揭阳市,渔湖,,46,46,46,20,24,25,,46,35,29,27,10,18,0.8,0.7
2023-12-06T2200,3320A,116.403,23.5699,揭阳市,曲溪,,33,33,43,19,25,27,,44,34,29,28,2,6,0.8,0.8
2023-12-06T2200,1944A,102.1692,38.5167,金昌市,天庆家园,颗粒物(PM10),75,99,74,49,24,29,,76,52,49,30,11,12,0.9,0.8
2023-12-06T2200,3170A,102.1864,38.5253,金昌市,市委党校,细颗粒物(PM2.5),84,115,100,62,37,18,,79,52,68,31,11,30,1.6,0.9
2023-12-06T2200,4022A,102.1647,38.5371,金昌市,金川区人防中心,颗粒物(PM10),52,54,76,23,19,53,,80,68,23,19,9,19,0.5,0.7
2023-12-06T2200,1262A,119.647,29.077,金华市,十五中,细颗粒物(PM2.5),72,84,67,52,41,19,,61,48,66,42,15,8,1.1,0.9
2023-12-06T2200,1263A,119.686,29.1029,金华市,监测站,细颗粒物(PM2.5),72,59,49,52,41,24,,61,47,60,46,16,8,1.0,0.9
2023-12-06T2200,3659A,119.656,29.1131,金华市,气象局,细颗粒物(PM2.5),68,83,74,49,43,16,,50,41,65,44,13,6,1.3,1.1
2023-12-06T2200,1767A,121.1115,41.0879,锦州市,南山,,26,22,65,18,37,14,,55,36,49,29,29,14,0.5,0.7
2023-12-06T2200,1768A,121.0533,40.8434,锦州市,开发区,,18,,74,12,40,47,,53,42,17,39,8,17,0.5,0.8
2023-12-06T2200,1769A,121.1836,41.1119,锦州市,百股街道,,42,,61,29,37,10,,53,30,55,35,60,29,0.7,0.8
2023-12-06T2200,1770A,121.1178,41.1222,锦州市,天安街道,,29,26,65,20,39,28,,57,35,37,28,31,21,0.4,0.7
2023-12-06T2200,1771A,121.1303,41.1386,锦州市,北湖公园,,23,22,59,16,32,28,,56,35,32,25,30,18,0.4,0.8
2023-12-06T2200,2160A,112.85,35.5051,晋城市,自来水公司,颗粒物(PM10),125,200,188,41,36,51,,79,64,37,26,11,8,0.9,0.7
2023-12-06T2200,2161A,112.8318,35.4936,晋城市,白云商贸,颗粒物(PM10),122,194,197,48,39,28,,86,68,60,23,7,6,0.9,0.5
2023-12-06T2200,2162A,112.8508,35.4887,晋城市,市环保局,颗粒物(PM10),108,166,189,51,41,27,,82,60,59,23,8,7,0.9,0.7
2023-12-06T2200,2163A,112.8676,35.4897,晋城市,技术学院,颗粒物(PM10),125,199,210,48,37,57,,90,74,42,23,7,6,0.8,0.6
2023-12-06T2200,2165A,112.8453,35.546,晋城市,白马寺,颗粒物(PM10),107,164,167,40,42,83,,88,87,16,14,8,8,0.5,0.5
2023-12-06T2200,3620A,112.8271,35.4828,晋城市,泽州一中,颗粒物(PM10),102,154,186,46,37,57,,87,78,37,19,8,7,0.9,0.7
2023-12-06T2200,2171A,112.7532,37.6945,晋中市,锦纶小区,颗粒物(PM10),117,183,412,46,76,35,,74,58,49,24,14,7,0.9,0.4
2023-12-06T2200,2173A,112.7249,37.7067,晋中市,南都小区,颗粒物(PM10),112,173,385,41,66,39,,76,64,46,23,15,9,0.9,0.5
2023-12-06T2200,2174A,112.6991,37.6982,晋中市,榆次区政府,颗粒物(PM10),100,150,337,47,72,39,,77,63,43,22,14,8,0.8,0.6
2023-12-06T2200,2865A,112.7195,37.6828,晋中市,榆次三中,颗粒物(PM10),125,200,459,48,74,39,,72,61,40,22,22,11,0.9,0.6
2023-12-06T2200,2439A,112.2014,31.0481,荆门市,竹园小学,,,,107,40,51,70,,70,68,29,35,8,9,0.5,0.8
2023-12-06T2200,2440A,112.1969,30.9891,荆门市,掇刀,颗粒物(PM10),86,122,103,45,59,69,,80,74,27,32,12,11,0.6,0.7
2023-12-06T2200,2441A,112.2213,31.0386,荆门市,石化一小,,,,112,45,67,67,,82,76,33,37,14,13,0.5,0.7
2023-12-06T2200,3012A,112.1849,31.0362,荆门市,西山林语,颗粒物(PM10),69,88,87,40,42,72,,75,70,27,24,8,9,0.5,0.6
2023-12-06T2200,3547A,112.1632,31.0138,荆门市,龙泉中学南校,颗粒物(PM10),86,122,96,48,51,56,,78,71,32,25,10,11,0.4,0.5
2023-12-06T2200,1844A,112.2494,30.3197,荆州市,市图书馆,颗粒物(PM10),84,118,99,58,56,67,,78,71,32,42,12,11,0.6,0.7
2023-12-06T2200,1845A,112.2008,30.3544,荆州市,市委党校,细颗粒物(PM2.5),102,112,97,76,60,63,,77,66,43,44,11,10,0.7,0.9
2023-12-06T2200,3194A,112.2747,30.3122,荆州市,管委会,细颗粒物(PM2.5),85,117,92,63,57,67,,82,75,43,45,12,11,0.7,0.9
2023-12-06T2200,3548A,112.1655,30.3364,荆州市,学苑路,细颗粒物(PM2.5),123,110,98,93,68,50,,78,66,46,36,8,10,0.9,0.9
2023-12-06T2200,2342A,117.3102,29.3867,景德镇市,王港中学,,,,33,,28,,,31,,,6,,2,,0.5
2023-12-06T2200,2343A,117.2117,29.2933,景德镇市,老干部活动中心,,,,66,,51,,,13,,,27,,6,,0.8
2023-12-06T2200,2344A,117.1894,29.2789,景德镇市,兽医站,细颗粒物(PM2.5),82,110,69,60,46,2,,26,21,44,35,15,14,1.1,0.9
2023-12-06T2200,2345A,117.1547,29.2617,景德镇市,台达陶瓷,细颗粒物(PM2.5),87,88,69,64,46,7,,28,22,48,36,46,20,1.4,1.1
2023-12-06T2200,2346A,117.2461,29.2956,景德镇市,陶研所,颗粒物(PM10),59,67,63,37,41,9,,18,16,39,38,4,10,1.1,1
2023-12-06T2200,1803A,115.9872,29.6815,九江市,十里,细颗粒物(PM2.5),94,130,97,70,47,6,,91,53,90,46,10,10,1.4,1
2023-12-06T2200,1804A,115.9584,29.7046,九江市,茅山头,细颗粒物(PM2.5),77,95,83,56,49,1,,76,46,62,44,14,13,1.1,1
2023-12-06T2200,1805A,115.9877,29.7295,九江市,西园,颗粒物(PM10),83,116,92,58,54,6,,68,50,74,43,10,11,1.0,0.9
2023-12-06T2200,1806A,116.0172,29.6547,九江市,五七二七厂,颗粒物(PM10),75,99,76,48,43,77,,104,100,21,23,13,14,1.0,0.9
2023-12-06T2200,1808A,115.9114,29.6038,九江市,综合工业园,细颗粒物(PM2.5),93,105,83,69,56,5,,80,43,57,42,11,13,1.1,0.9
2023-12-06T2200,1809A,116.0721,29.7535,九江市,石化总厂,"颗粒物(PM10),细颗粒物(PM2.5)",82,114,100,60,54,17,,70,51,39,43,12,14,0.8,0.9
2023-12-06T2200,1810A,115.9773,29.5698,九江市,庐山气象台,颗粒物(PM10),65,79,46,32,32,101,,109,109,9,9,6,8,0.5,0.8
2023-12-06T2200,3190A,116.0254,29.6994,九江市,外国语学校,细颗粒物(PM2.5),94,122,82,70,49,14,,82,53,58,46,10,13,1.0,0.9
2023-12-06T2200,2658A,98.5061,39.7443,酒泉市,仓门街子站,颗粒物(PM10),84,117,109,22,31,53,,45,,37,43,7,11,0.4,1
2023-12-06T2200,2659A,98.4989,39.7256,酒泉市,油田生活基地,颗粒物(PM10),97,144,92,27,27,68,,68,61,18,42,6,12,0.4,0.7
2023-12-06T2200,2698A,76.0072,39.4467,喀什地区,巡警大队,颗粒物(PM10),164,277,224,116,71,11,,91,85,135,66,20,10,3.8,1.9
2023-12-06T2200,2699A,75.9755,39.4694,喀什地区,吾办,细颗粒物(PM2.5),176,284,248,133,97,10,,78,64,122,76,11,7,3.8,2.3
2023-12-06T2200,4027A,75.9483,39.4689,喀什地区,老干局,颗粒物(PM10),330,444,283,190,115,28,,80,74,139,68,22,13,5.7,2.7
2023-12-06T2200,1824A,114.3389,34.7781,开封市,肿瘤医院,颗粒物(PM10),131,212,213,54,39,28,,77,56,,16,6,5,0.1,0
2023-12-06T2200,1826A,114.2885,34.7965,开封市,世纪星幼儿园,颗粒物(PM10),114,178,194,46,35,30,,72,49,48,22,4,4,0.4,0.4
2023-12-06T2200,3147A,114.3438,34.8106,开封市,龙亭公园,颗粒物(PM10),123,196,214,48,33,41,,82,65,36,16,3,3,0.6,0.4
2023-12-06T2200,3210A,114.3644,34.7964,开封市,汴京公园,颗粒物(PM10),143,235,213,85,33,18,,72,43,,21,5,4,0.5,0.4
2023-12-06T2200,3473A,114.2485,34.8306,开封市,技师学院,颗粒物(PM10),120,189,192,40,29,48,,79,65,29,13,8,7,0.1,0.1
2023-12-06T2200,3592A,114.4644,34.7556,开封市,祥符区生态环境局,颗粒物(PM10),141,232,149,55,37,26,,81,50,59,28,3,4,0.5,0.4
2023-12-06T2200,1951A,84.895,45.6094,克拉玛依市,长征新村,,28,28,23,13,11,23,,36,35,26,24,10,10,0.4,0.5
2023-12-06T2200,1952A,84.8988,45.5893,克拉玛依市,南林小区,,24,24,26,15,16,17,,37,34,33,26,3,3,0.5,0.7
2023-12-06T2200,1954A,84.905,44.3396,克拉玛依市,独山子区,细颗粒物(PM2.5),65,48,45,47,32,23,,43,34,24,18,4,4,0.7,0.6
2023-12-06T2200,1955A,85.6979,46.098,克拉玛依市,乌尔禾区商贸楼,,40,34,16,28,8,12,,38,34,36,17,10,9,0.6,0.4
2023-12-06T2200,3612A,85.1045,45.6899,克拉玛依市,白碱滩区新站,,22,22,18,8,7,28,,31,24,23,27,10,9,0.3,0.3
2023-12-06T2200,2697A,76.1454,39.7142,克孜勒苏柯尔克孜自治州,市人民政府,颗粒物(PM10),111,172,112,70,53,38,,95,89,75,24,7,5,1.2,0.7
2023-12-06T2200,3665A,76.1658,39.7157,克孜勒苏柯尔克孜自治州,克州文化中心,颗粒物(PM10),146,242,129,82,50,17,,92,82,98,31,14,8,2.3,0.8
2023-12-06T2200,1450A,102.8204,24.8886,昆明市,呈贡新区,,42,42,30,29,17,12,,62,48,65,24,7,6,0.9,0.7
2023-12-06T2200,1451A,102.6251,24.9608,昆明市,西山森林公园,,24,21,18,1,10,74,,78,78,8,10,9,6,0.7,0.6
2023-12-06T2200,1452A,102.7252,25.0902,昆明市,龙泉镇,,42,42,32,24,18,23,,74,57,45,28,9,10,0.9,0.7
2023-12-06T2200,1453A,102.7266,25.0375,昆明市,东风东路,,42,42,29,20,16,40,,67,50,41,23,9,9,0.6,0.6
2023-12-06T2200,1454A,102.6742,25.0669,昆明市,金鼎山,,33,33,27,23,18,62,,75,63,27,22,2,3,0.6,0.6
2023-12-06T2200,1455A,102.6644,25.0401,昆明市,碧鸡广场,,39,39,31,21,16,54,,70,53,32,27,11,10,0.6,0.5
2023-12-06T2200,3179A,102.7494,25.0119,昆明市,官渡区博物馆,,38,38,29,26,18,13,,64,43,65,28,9,9,0.6,0.5
2023-12-06T2200,3375A,102.8017,24.8336,昆明市,青年创业园,,21,17,27,10,18,67,,76,72,18,20,9,9,0.5,0.6
2023-12-06T2200,3550A,102.7997,24.9786,昆明市,昆明学院,,49,49,35,25,19,38,,66,52,40,23,10,9,0.5,0.4
2023-12-06T2200,3551A,102.5967,24.6736,昆明市,晋宁区生态环境分局,细颗粒物(PM2.5),55,40,31,39,17,58,,75,69,24,12,2,2,0.7,0.6
2023-12-06T2200,3552A,102.6678,24.9856,昆明市,云天化总部,,44,44,33,24,18,39,,63,46,36,24,10,8,0.8,0.7
2023-12-06T2200,1456A,91.1319,29.6514,拉萨市,八廓街,细颗粒物(PM2.5),67,74,24,48,15,18,,90,78,64,16,6,3,1.5,0.5
2023-12-06T2200,1457A,91.1221,29.6747,拉萨市,市环保局,细颗粒物(PM2.5),88,100,27,65,17,16,,82,62,58,21,10,6,1.9,0.6
2023-12-06T2200,1458A,91.0874,29.6475,拉萨市,区监测站,,47,47,17,24,10,6,,88,74,78,25,8,8,0.8,0.6
2023-12-06T2200,1459A,91.1774,29.6541,拉萨市,西藏大学,,42,42,18,19,10,50,,86,74,25,12,7,6,0.7,0.5
2023-12-06T2200,1460A,90.9798,29.6588,拉萨市,区辐射站,颗粒物(PM10),66,81,27,45,15,21,,77,57,65,22,11,7,1.1,0.6
2023-12-06T2200,1461A,91.0834,29.6292,拉萨市,拉萨火车站,,44,44,17,28,9,32,,75,66,61,19,6,5,0.9,0.5
2023-12-06T2200,2520A,109.2203,23.7256,来宾市,来宾技工学校,颗粒物(PM10),67,83,45,36,28,10,,74,59,46,20,6,6,1.2,1
2023-12-06T2200,3535A,109.1781,23.7297,来宾市,兴宾区政府,,47,47,37,32,27,51,,77,72,15,14,7,7,0.7,0.9
2023-12-06T2200,4002A,109.2416,23.7461,来宾市,中南小学,颗粒物(PM10),75,99,45,36,29,5,,74,55,48,22,7,8,1.4,1
2023-12-06T2200,1476A,103.631,36.1031,兰州市,兰炼宾馆,颗粒物(PM10),148,246,371,91,89,3,,28,12,106,74,27,26,2.3,1.4
2023-12-06T2200,1477A,104.1373,35.9454,兰州市,榆中兰大校区,,,,,,,,,,,,,,,,
2023-12-06T2200,1478A,103.8412,36.0726,兰州市,生物制品所,颗粒物(PM10),140,229,454,72,84,1,,23,11,83,73,13,14,1.8,1.4
2023-12-06T2200,1479A,103.831,36.0464,兰州市,铁路设计院,颗粒物(PM10),158,266,419,109,99,7,,24,15,119,85,32,22,3.6,1.8
2023-12-06T2200,3186A,103.7158,36.1058,兰州市,教育港,颗粒物(PM10),126,201,420,83,85,5,,31,15,81,68,22,26,2.6,1.5
2023-12-06T2200,3241A,103.7439,36.0842,兰州市,百合公园,颗粒物(PM10),156,262,420,96,76,3,,22,9,105,74,13,18,2.9,1.5
2023-12-06T2200,3242A,103.9611,35.998,兰州市,和平,颗粒物(PM10),58,66,439,35,121,54,,47,47,37,48,16,16,0.8,1.2
2023-12-06T2200,3245A,103.6633,36.533,兰州新区,新区管委会,颗粒物(PM10),124,198,197,80,47,2,,54,28,57,31,21,12,1.5,0.7
2023-12-06T2200,3246A,103.6975,36.4789,兰州新区,舟曲中学,颗粒物(PM10),194,338,307,98,60,3,,49,25,78,40,14,12,1.2,0.8
2023-12-06T2200,1067A,116.6708,39.5111,廊坊市,药材公司,颗粒物(PM10),350,460,191,113,51,4,,51,29,65,37,9,3,0.7,0.7
2023-12-06T2200,1068A,116.7214,39.5589,廊坊市,开发区,颗粒物(PM10),268,397,147,98,44,13,,52,23,54,41,8,4,0.6,0.5
2023-12-06T2200,1070A,116.7244,39.5269,廊坊市,北华航天学院,颗粒物(PM10),299,419,179,93,41,10,,48,25,63,44,13,8,0.6,0.5
2023-12-06T2200,2919A,116.7022,39.5453,廊坊市,河北工业大学,颗粒物(PM10),320,436,185,113,46,8,,48,25,54,35,14,8,0.5,0.4
2023-12-06T2200,2535A,103.7723,29.5462,乐山市,花湖湾,细颗粒物(PM2.5),89,122,88,66,52,1,,44,42,66,33,4,4,1.2,1.1
2023-12-06T2200,2536A,103.7627,29.5844,乐山市,牛耳桥,细颗粒物(PM2.5),88,96,71,65,51,2,,34,28,54,40,3,3,1.2,1.3
2023-12-06T2200,2537A,103.7508,29.6006,乐山市,市第三水厂,细颗粒物(PM2.5),100,122,83,75,52,5,,38,35,67,43,5,4,1.3,1.1
2023-12-06T2200,2538A,103.7571,29.5664,乐山市,市监测站,细颗粒物(PM2.5),93,94,67,69,46,6,,53,50,70,35,4,4,1.0,1
2023-12-06T2200,3361A,103.7311,29.5628,乐山市,理工大学,细颗粒物(PM2.5),114,115,79,86,57,9,,53,50,59,33,6,5,1.2,1.3
2023-12-06T2200,2598A,100.2143,26.8576,丽江市,西南郊,,17,9,18,8,7,54,,71,58,13,14,4,4,1.0,0.9
2023-12-06T2200,2599A,100.2497,26.8802,丽江市,丽江古城,,28,28,39,17,22,56,,65,53,22,26,9,9,0.8,0.7
2023-12-06T2200,2600A,100.2203,26.8906,丽江市,市中心,,21,18,19,7,7,65,,64,64,11,16,7,6,0.7,0.7
2023-12-06T2200,1267A,119.914,28.4514,丽水市,监测站大楼,,42,42,40,25,22,3,,28,18,34,33,7,6,0.8,0.8
2023-12-06T2200,1268A,119.93,28.4586,丽水市,莲都小学,颗粒物(PM10),55,60,42,34,22,3,,35,23,46,33,6,6,0.7,0.7
2023-12-06T2200,1269A,119.879,28.4231,丽水市,余庄前,,35,35,32,20,21,3,,21,12,13,21,5,5,0.5,0.5
2023-12-06T2200,1173A,119.176,34.5885,连云港市,市环境监测站,颗粒物(PM10),192,334,165,100,80,25,,60,40,55,44,14,11,1.0,1
2023-12-06T2200,3000A,119.3581,34.6972,连云港市,德源药业,颗粒物(PM10),156,261,150,70,64,5,,56,26,75,49,11,8,0.8,0.9
2023-12-06T2200,3007A,119.178,34.844,连云港市,新城一中,颗粒物(PM10),138,225,134,103,88,16,,70,44,67,53,23,12,0.8,0.8
2023-12-06T2200,3008A,119.3608,34.7519,连云港市,胡沟管理处,颗粒物(PM10),169,288,142,73,62,3,,66,26,77,45,15,11,1.0,0.8
2023-12-06T2200,3009A,119.1478,34.5911,连云港市,矿山设计院,颗粒物(PM10),200,349,177,90,77,21,,53,30,55,46,12,9,0.6,0.6
2023-12-06T2200,3434A,119.2413,34.6539,连云港市,工贸学校,颗粒物(PM10),163,276,148,83,77,20,,69,48,57,37,15,12,0.7,0.7
2023-12-06T2200,3664A,119.4172,34.7341,连云港市,连云街道,颗粒物(PM10),158,265,125,59,59,60,,64,60,22,28,7,7,0.5,0.6
2023-12-06T2200,2571A,102.3431,27.8099,凉山彝族自治州,青龙寺,,26,18,17,18,13,50,,71,62,8,8,7,8,0.6,0.6
2023-12-06T2200,2572A,102.2721,27.8415,凉山彝族自治州,邛海宾馆,,23,19,21,16,14,30,,75,56,32,14,11,11,0.7,0.6
2023-12-06T2200,2573A,102.2625,27.898,凉山彝族自治州,西昌市政府,,20,20,23,13,15,54,,76,62,10,12,7,11,0.5,0.6
2023-12-06T2200,2574A,102.2685,27.8851,凉山彝族自治州,凉山州政府,,28,28,30,14,17,37,,74,59,24,15,10,10,0.5,0.5
2023-12-06T2200,2575A,102.237,27.8914,凉山彝族自治州,长安,,33,33,24,19,14,45,,71,56,15,14,11,13,0.5,0.6
2023-12-06T2200,2212A,123.2,41.1953,辽阳市,宏伟区,,23,,55,16,51,42,,49,46,17,23,11,13,0.4,0.7
2023-12-06T2200,2213A,123.1683,41.2495,辽阳市,新华园,,29,22,59,20,48,26,,44,39,33,25,25,15,0.8,1
2023-12-06T2200,2214A,123.2354,41.2639,辽阳市,滨河路,,32,27,53,22,56,34,,46,42,26,24,14,13,0.6,1
2023-12-06T2200,2215A,123.149,41.2991,辽阳市,铁西工业园,,37,37,75,23,60,33,,46,39,27,28,15,13,0.5,0.9
2023-12-06T2200,2227A,125.1358,42.8845,辽源市,环保局,,19,19,41,7,30,49,,57,55,15,15,8,10,0.6,0.8
2023-12-06T2200,3239A,125.0764,42.9078,辽源市,银鹰制药,,19,19,50,5,35,57,,55,54,8,17,5,12,0.5,0.8
2023-12-06T2200,1625A,115.9848,36.4372,聊城市,区政府,颗粒物(PM10),133,216,329,46,94,46,,68,65,38,35,6,6,0.4,0.7
2023-12-06T2200,2878A,116.0072,36.4343,聊城市,聊大东校,颗粒物(PM10),120,190,287,59,101,45,,66,60,35,32,6,7,0.4,0.7
2023-12-06T2200,3200A,115.9819,36.4978,聊城市,监控中心,颗粒物(PM10),123,196,293,36,108,56,,65,61,28,42,6,6,0.3,0.6
2023-12-06T2200,3513A,116.0445,36.4361,聊城市,九州社区,颗粒物(PM10),122,194,299,47,87,34,,70,55,49,32,4,5,0.6,0.8
2023-12-06T2200,4018A,116.0567,36.4608,聊城市,星美广场,颗粒物(PM10),139,228,304,47,95,49,,68,59,38,43,6,6,0.5,0.7
2023-12-06T2200,2632A,94.3681,29.6376,林芝市,林芝监测站,,20,8,8,5,3,63,,76,74,7,6,7,6,0.4,0.4
2023-12-06T2200,2633A,94.3616,29.6616,林芝市,林芝人民医院,,21,11,10,7,5,65,,74,73,8,8,7,7,0.4,0.3
2023-12-06T2200,2603A,100.0781,23.8982,临沧市,市环保局,颗粒物(PM10),60,70,25,32,19,24,,70,55,22,13,6,6,0.6,0.4
2023-12-06T2200,2604A,100.0894,23.8822,临沧市,市气象局,,50,50,30,30,22,13,,68,50,34,16,4,3,0.7,0.5
2023-12-06T2200,1733A,111.5531,36.0783,临汾市,临钢医院,颗粒物(PM10),151,252,275,56,49,2,,70,45,58,28,3,3,0.8,0.6
2023-12-06T2200,1734A,111.5028,36.0714,临汾市,技工学校,颗粒物(PM10),137,223,280,58,51,7,,76,52,68,29,8,7,0.8,0.7
2023-12-06T2200,1736A,111.5018,36.0855,临汾市,市委,颗粒物(PM10),181,312,273,78,51,6,,76,50,76,29,9,7,0.6,0.3
2023-12-06T2200,3018A,111.505,36.1014,临汾市,唐尧大酒店,颗粒物(PM10),137,224,233,62,50,1,,66,40,65,28,5,4,0.9,0.6
2023-12-06T2200,3668A,111.5036,36.0414,临汾市,城南,颗粒物(PM10),174,297,294,79,60,3,,69,47,62,33,6,6,0.6,0.4
2023-12-06T2200,2667A,103.2069,35.5993,临夏回族自治州,环保局,细颗粒物(PM2.5),149,167,234,114,63,11,,44,,63,47,18,12,1.6,1
2023-12-06T2200,2668A,103.2417,35.6057,临夏回族自治州,建设大厦,细颗粒物(PM2.5),144,155,209,110,55,27,,65,52,26,25,13,11,0.9,0.9
2023-12-06T2200,1618A,118.3429,35.0532,临沂市,沂河小区,颗粒物(PM10),248,383,211,71,97,28,,62,40,58,60,15,14,0.7,0.8
2023-12-06T2200,1619A,118.295,35.0583,临沂市,鲁南制药厂,颗粒物(PM10),293,415,233,86,100,7,,63,32,78,62,25,18,0.8,0.9
2023-12-06T2200,1620A,118.2794,34.9976,临沂市,新光毛纺厂,颗粒物(PM10),296,417,224,62,89,8,,63,40,75,55,34,16,1.0,1.1
2023-12-06T2200,1621A,118.3956,35.0888,临沂市,河东保险公司,颗粒物(PM10),181,312,193,62,93,6,,64,38,73,55,8,8,1.0,0.9
2023-12-06T2200,3370A,118.3564,35.0215,临沂市,十里堡居委,颗粒物(PM10),248,383,216,88,88,9,,64,32,70,58,15,8,1.1,1.1
2023-12-06T2200,3496A,118.3604,35.1084,临沂市,南坊新区,颗粒物(PM10),209,356,206,68,84,21,,61,37,62,57,9,10,0.8,0.9
2023-12-06T2200,3860A,118.3920,35.0300,临沂市,皇山花园小区,颗粒物(PM10),216,361,202,72,81,8,,66,42,71,50,16,12,0.7,0.7
2023-12-06T2200,1870A,109.4856,24.3895,柳州市,柳东小学,,46,40,40,32,36,86,,85,85,8,14,10,15,0.3,0.4
2023-12-06T2200,1871A,109.4157,24.3277,柳州市,环保监测站,细颗粒物(PM2.5),100,112,57,75,39,3,,66,50,70,32,9,14,1.5,1
2023-12-06T2200,1872A,109.389,24.341,柳州市,河西水厂,,,113,64,50,34,,,62,49,63,30,10,18,1.2,1.1
2023-12-06T2200,1873A,109.4311,24.2921,柳州市,市四中,颗粒物(PM10),68,86,53,48,35,8,,69,47,76,35,9,12,1.5,1.1
2023-12-06T2200,1874A,109.4006,24.3631,柳州市,市九中,细颗粒物(PM2.5),73,82,67,53,43,14,,63,42,53,31,6,12,1.1,1.1
2023-12-06T2200,1875A,109.4958,24.3134,柳州市,古亭山,,40,40,41,26,32,1,,67,46,55,21,12,11,0.5,0.6
2023-12-06T2200,3402A,109.5422,24.3996,柳州市,市二中,颗粒物(PM10),57,63,48,38,35,10,,76,60,50,18,7,11,1.0,0.7
2023-12-06T2200,2307A,116.5079,31.737,六安市,监测大楼,颗粒物(PM10),91,132,112,42,37,44,,75,62,40,26,6,5,0.4,0.4
2023-12-06T2200,2308A,116.4738,31.7643,六安市,皖西学院,颗粒物(PM10),104,158,144,40,35,29,,81,62,56,25,5,5,0.5,0.4
2023-12-06T2200,2309A,116.4996,31.7905,六安市,朝阳厂,颗粒物(PM10),87,124,123,44,36,46,,81,67,40,20,6,7,0.6,0.5
2023-12-06T2200,2310A,116.5567,31.7886,六安市,开发区,颗粒物(PM10),116,181,159,53,42,5,,72,44,75,33,7,6,0.7,0.6
2023-12-06T2200,2576A,104.8,26.5892,六盘水市,窑上,,40,32,32,28,25,53,,92,74,6,8,2,3,0.5,0.6
2023-12-06T2200,2577A,104.83,26.5917,六盘水市,黄土坡,,46,45,26,32,18,20,,83,58,44,17,8,10,0.7,0.7
2023-12-06T2200,2578A,104.89,26.5939,六盘水市,水钢,细颗粒物(PM2.5),70,72,33,51,26,46,,91,76,38,16,16,9,0.8,0.8
2023-12-06T2200,2579A,104.8475,26.5894,六盘水市,民中,细颗粒物(PM2.5),67,69,30,48,16,4,,85,60,68,17,30,11,1.6,0.8
2023-12-06T2200,2580A,104.9544,26.5506,六盘水市,双水,,49,41,22,34,16,57,,90,80,14,11,8,7,0.7,0.7
2023-12-06T2200,2335A,117.0189,25.1181,龙岩市,龙岩师专,,,,,,,,,,,,,,,,
2023-12-06T2200,2336A,117.0217,25.1033,龙岩市,龙岩市监测站,,23,22,31,16,19,14,,51,39,35,25,5,6,0.7,0.8
2023-12-06T2200,2337A,117.0258,25.0661,龙岩市,闽西职业技术学院,颗粒物(PM10),60,69,34,13,20,2,,51,36,44,23,11,10,0.4,0.8
2023-12-06T2200,2338A,117.0196,25.0306,龙岩市,龙岩学院,,20,20,30,10,22,23,,49,43,18,17,5,7,0.5,0.6
2023-12-06T2200,2665A,105.0822,33.3261,陇南市,汉王镇固水子,,,,,,,,,,,,,,,,
2023-12-06T2200,2885A,104.9339,33.3826,陇南市,滨江中学,颗粒物(PM10),163,276,335,118,77,6,,55,28,81,42,63,41,4.8,1.8
2023-12-06T2200,3247A,104.955,33.371,陇南市,市总工会,颗粒物(PM10),101,152,266,53,60,21,,64,45,40,23,15,14,0.9,0.4
2023-12-06T2200,2487A,111.9589,27.8901,娄底市,电视发射台,颗粒物(PM10),53,55,52,25,26,8,,65,30,48,23,5,5,0.6,0.9
2023-12-06T2200,2488A,111.9975,27.725,娄底市,市监测站,细颗粒物(PM2.5),142,180,95,108,62,8,,89,64,84,50,13,14,3.1,1.3
2023-12-06T2200,2489A,112.0194,27.7314,娄底市,市委党校,细颗粒物(PM2.5),105,134,87,79,56,6,,79,52,74,44,4,7,1.7,1.2
2023-12-06T2200,2490A,111.9561,27.7569,娄底市,涟钢,颗粒物(PM10),106,161,96,69,53,8,,75,49,57,39,8,11,1.2,1.2
2023-12-06T2200,2491A,111.9892,27.7044,娄底市,市政府,细颗粒物(PM2.5),100,122,85,75,55,7,,83,54,52,33,21,20,0.8,0.9
2023-12-06T2200,1893A,105.4324,28.9634,泸州市,九狮山,细颗粒物(PM2.5),78,81,66,57,42,48,,72,67,20,21,5,6,0.7,0.6
2023-12-06T2200,1894A,105.4427,28.9063,泸州市,小市上码头,细颗粒物(PM2.5),93,98,90,69,63,56,,78,73,25,27,6,7,0.7,0.9
2023-12-06T2200,1895A,105.4241,28.8573,泸州市,兰田宪桥,细颗粒物(PM2.5),104,99,86,78,65,29,,64,54,43,27,7,7,0.8,0.8
2023-12-06T2200,1896A,105.4379,28.8833,泸州市,市环监站,细颗粒物(PM2.5),105,90,79,79,72,27,,58,47,43,29,13,6,0.9,0.9
2023-12-06T2200,3490A,105.3617,28.7703,泸州市,纳溪区环保局,细颗粒物(PM2.5),100,102,81,75,60,25,,65,55,45,28,7,8,0.7,0.7
2023-12-06T2200,2183A,111.1406,37.5211,吕梁市,环保局,颗粒物(PM10),127,204,354,58,85,4,,57,32,66,35,7,7,0.6,0.5
2023-12-06T2200,2185A,111.1297,37.5136,吕梁市,自来水公司,颗粒物(PM10),152,253,339,74,86,6,,60,40,56,28,13,6,0.5,0.4
2023-12-06T2200,2867A,111.1283,37.51,吕梁市,马茂庄小学,颗粒物(PM10),133,216,337,68,89,2,,58,32,68,39,6,3,0.8,0.6
2023-12-06T2200,1812A,112.3931,34.6516,洛阳市,市委党校,颗粒物(PM10),123,195,214,59,58,5,,78,48,78,29,7,8,1.1,0.6
2023-12-06T2200,1814A,112.4657,34.6871,洛阳市,豫西宾馆,颗粒物(PM10),125,200,247,60,60,2,,76,44,80,35,6,7,1.0,0.6
2023-12-06T2200,1815A,112.494,34.6886,洛阳市,河南林校,颗粒物(PM10),124,198,226,71,59,4,,72,36,70,34,3,4,0.8,0.6
2023-12-06T2200,1816A,112.3844,34.623,洛阳市,开发区管委会,颗粒物(PM10),108,165,195,53,54,11,,81,57,58,23,2,3,0.6,0.5
2023-12-06T2200,1817A,112.4267,34.6258,洛阳市,市委新办公区,颗粒物(PM10),103,156,215,58,54,7,,83,57,74,27,2,3,0.9,0.6
2023-12-06T2200,3340A,112.6005,34.6326,洛阳市,伊滨,颗粒物(PM10),130,209,203,57,51,8,,82,52,69,27,2,3,0.6,0.5
2023-12-06T2200,3341A,112.4951,34.6332,洛阳市,中移产业园,颗粒物(PM10),105,160,218,60,56,5,,79,49,65,24,6,5,1.1,0.5
2023-12-06T2200,3593A,112.5736,34.8993,洛阳市,吉利监测站,颗粒物(PM10),137,223,185,44,41,12,,79,48,63,28,6,7,0.4,0.4
2023-12-06T2200,3635A,112.3677,34.662,洛阳市,河科大西苑校区,颗粒物(PM10),132,214,238,74,57,5,,77,45,72,28,3,4,1.1,0.6
2023-12-06T2200,3636A,112.4388,34.6781,洛阳市,英才小学,颗粒物(PM10),122,193,231,57,52,6,,80,47,88,36,7,6,1.4,0.6
2023-12-06T2200,2399A,114.051,33.5699,漯河市,三五一五工厂,颗粒物(PM10),118,186,215,45,53,56,,85,73,32,21,4,8,0.3,0.5
2023-12-06T2200,2400A,114.0055,33.5698,漯河市,漯河大学,颗粒物(PM10),120,189,195,41,49,51,,85,71,30,21,5,7,0.5,0.6
2023-12-06T2200,2401A,114.0138,33.5828,漯河市,市水利局,颗粒物(PM10),126,202,217,46,51,61,,75,67,16,19,6,8,0.4,0.6
2023-12-06T2200,2402A,114.0261,33.5698,漯河市,市广电局,颗粒物(PM10),124,198,204,50,53,54,,85,72,30,19,3,4,0.3,0.4
2023-12-06T2200,3478A,113.9749,33.5664,漯河市,市图书馆,颗粒物(PM10),118,186,176,44,54,62,,84,76,16,16,2,6,0.4,0.5
2023-12-06T2200,3479A,114.0967,33.5906,漯河市,召陵区卫健委,颗粒物(PM10),119,187,187,44,51,64,,84,74,18,17,3,6,0.4,0.5
2023-12-06T2200,1798A,118.5092,31.6837,马鞍山市,湖东路四小,颗粒物(PM10),114,178,125,46,45,,,68,56,75,45,11,15,0.7,1
2023-12-06T2200,1799A,118.5024,31.6449,马鞍山市,开发区,颗粒物(PM10),101,152,127,59,53,4,,49,27,75,48,11,12,0.5,0.6
2023-12-06T2200,1800A,118.5228,31.7231,马鞍山市,慈湖,颗粒物(PM10),140,230,153,54,55,1,,64,46,85,52,12,14,1.1,1.2
2023-12-06T2200,1802A,118.6245,31.7241,马鞍山市,濮塘,颗粒物(PM10),131,211,174,63,57,24,,74,62,52,28,9,9,0.7,0.9
2023-12-06T2200,3633A,118.4918,31.6809,马鞍山市,雨山,颗粒物(PM10),122,193,159,52,51,10,,71,52,67,42,10,13,0.6,0.9
2023-12-06T2200,1686A,111.0286,21.4688,茂名市,电白南海,,31,31,76,14,49,39,,30,26,14,24,12,12,0.6,0.9
2023-12-06T2200,1687A,110.9294,21.6533,茂名市,茂石化七小,,49,39,73,34,61,26,,36,27,22,24,10,13,0.8,1
2023-12-06T2200,1688A,110.9107,21.6687,茂名市,健康路,,39,36,67,27,57,28,,30,28,19,23,15,18,0.5,0.7
2023-12-06T2200,1689A,110.8592,21.6828,茂名市,高岭,,34,34,41,12,19,32,,32,32,19,19,11,16,0.8,0.9
2023-12-06T2200,3450A,111.01,21.5165,茂名市,电白水东,,18,14,62,12,45,47,,37,30,14,24,6,11,0.7,1
2023-12-06T2200,2539A,104.0308,30.0478,眉山市,黑龙滩水库,细颗粒物(PM2.5),90,110,83,67,51,34,,57,57,11,20,4,5,0.7,0.6
2023-12-06T2200,2540A,103.8416,30.0874,眉山市,气象局,细颗粒物(PM2.5),138,138,85,105,70,5,,50,45,56,42,8,8,1.2,0.9
2023-12-06T2200,3137A,103.8578,30.0744,眉山市,市委党校,细颗粒物(PM2.5),122,141,98,92,68,2,,50,34,60,51,10,8,1.4,1
2023-12-06T2200,3148A,103.8291,30.0564,眉山市,区人社局,细颗粒物(PM2.5),144,127,77,110,77,5,,43,39,77,50,11,9,1.7,1.1
2023-12-06T2200,1690A,116.1231,24.3284,梅州市,梅江月梅,,22,19,17,15,12,23,,40,37,18,21,5,5,0.5,0.6
2023-12-06T2200,1691A,116.0797,24.2719,梅州市,梅县新城,,29,28,18,20,15,6,,45,36,35,15,7,7,0.7,0.7
2023-12-06T2200,1692A,116.1248,24.2654,梅州市,环境监控中心,,26,22,21,18,14,6,,38,27,36,25,4,4,0.7,0.7
2023-12-06T2200,3315A,116.1233,24.2991,梅州市,梅龙,,32,31,16,22,14,3,,39,29,33,17,4,4,1.1,0.8
2023-12-06T2200,1878A,104.7778,31.4741,绵阳市,富乐山,颗粒物(PM10),71,92,90,39,49,57,,75,72,19,25,7,7,0.6,0.7
2023-12-06T2200,1879A,104.7563,31.4535,绵阳市,市人大,颗粒物(PM10),85,119,104,47,53,6,,60,47,73,39,9,11,0.9,0.8
2023-12-06T2200,1880A,104.6697,31.4668,绵阳市,高新区自来水公司,颗粒物(PM10),122,193,135,52,52,3,,67,51,69,35,13,10,1.2,0.8
2023-12-06T2200,1881A,104.7287,31.5075,绵阳市,三水厂,颗粒物(PM10),101,152,115,55,56,1,,55,38,63,38,8,7,1.0,0.8
2023-12-06T2200,3491A,104.69,31.5322,绵阳市,西科大附属小学,颗粒物(PM10),102,154,104,48,50,8,,65,52,74,37,6,6,0.9,0.7
2023-12-06T2200,3492A,104.5648,31.5343,绵阳市,安州区旅游局,颗粒物(PM10),108,165,123,66,56,3,,61,44,63,32,8,9,1.1,0.8
2023-12-06T2200,1784A,129.61,44.561,牡丹江市,环保大楼,,23,20,47,16,32,66,,76,47,9,27,6,10,0.2,0.5
2023-12-06T2200,1785A,129.6115,44.5782,牡丹江市,文化广场,,35,26,51,24,37,62,,70,41,10,29,10,14,0.3,0.6
2023-12-06T2200,1786A,129.5904,44.5963,牡丹江市,第一医院,,45,39,50,31,40,66,,72,47,7,27,7,11,0.3,0.6
2023-12-06T2200,1787A,129.6364,44.6075,牡丹江市,机车工厂,,38,34,84,26,63,61,,47,39,8,42,12,17,0.2,0.9
2023-12-06T2200,1788A,129.6386,44.5462,牡丹江市,第一中学,,35,35,47,17,30,64,,82,45,6,22,6,10,0.3,0.5
2023-12-06T2200,2531A,105.0703,29.61,内江市,市监测站,细颗粒物(PM2.5),113,,67,85,69,28,,64,55,56,40,4,5,1.1,1
2023-12-06T2200,2532A,105.0717,29.5947,内江市,东兴区政府,细颗粒物(PM2.5),103,91,66,77,57,15,,85,77,67,28,9,9,1.0,0.7
2023-12-06T2200,2533A,105.0653,29.5817,内江市,内江二中,细颗粒物(PM2.5),117,,74,88,69,55,,81,77,39,30,6,6,0.7,0.7
2023-12-06T2200,2534A,105.0406,29.5822,内江市,内江日报社,细颗粒物(PM2.5),97,102,71,72,59,20,,71,57,74,44,7,6,0.9,0.8
2023-12-06T2200,1290A,115.8931,28.6843,南昌市,省外办,细颗粒物(PM2.5),125,152,114,95,71,3,,10,6,70,54,6,5,1.4,1.1
2023-12-06T2200,1291A,115.8886,28.7003,南昌市,省林业公司,细颗粒物(PM2.5),98,122,87,73,58,1,,17,8,56,56,10,6,1.3,1.1
2023-12-06T2200,1292A,115.8126,28.7442,南昌市,林科所,细颗粒物(PM2.5),67,80,66,48,47,4,,19,12,75,50,10,8,1.0,1.1
2023-12-06T2200,1294A,115.8518,28.687,南昌市,建工学校,细颗粒物(PM2.5),122,150,103,92,60,3,,15,10,73,59,13,8,1.5,1.1
2023-12-06T2200,1295A,115.8921,28.6424,南昌市,象湖,细颗粒物(PM2.5),108,141,99,81,68,1,,14,8,66,51,8,8,2.0,1.4
2023-12-06T2200,1296A,115.7423,28.7996,南昌市,武术学校,颗粒物(PM10),51,51,38,25,23,4,,45,22,20,19,2,3,0.6,0.6
2023-12-06T2200,1298A,115.9314,28.6842,南昌市,省站,细颗粒物(PM2.5),133,164,114,101,68,4,,18,10,60,45,7,5,1.4,1
2023-12-06T2200,3046A,115.9084,28.6062,南昌市,机电学校,颗粒物(PM10),104,158,98,66,61,7,,20,15,55,45,10,6,0.6,0.7
2023-12-06T2200,3690A,115.9721,28.7031,南昌市,外国语学校,细颗粒物(PM2.5),109,135,100,82,54,2,,17,9,51,47,7,6,1.4,1.1
2023-12-06T2200,1905A,106.056,30.8064,南充市,西山风景区,细颗粒物(PM2.5),93,77,59,69,50,45,,60,58,31,18,7,6,0.9,0.7
2023-12-06T2200,1906A,106.0789,30.8023,南充市,南充市委,,,,50,,49,,,20,,,33,,26,,0.2
2023-12-06T2200,1907A,106.1031,30.8217,南充市,南充炼油厂,细颗粒物(PM2.5),104,118,76,78,52,12,,67,60,54,32,4,6,1.0,0.9
2023-12-06T2200,1908A,106.1064,30.7856,南充市,高坪区监测站,细颗粒物(PM2.5),118,131,90,89,62,4,,59,44,65,38,8,29,1.4,0.7
2023-12-06T2200,1909A,106.0642,30.7636,南充市,嘉陵区环保局,细颗粒物(PM2.5),94,128,97,70,54,2,,64,47,67,38,10,17,1.0,0.6
2023-12-06T2200,1910A,106.1087,30.8388,南充市,市环境监测站,细颗粒物(PM2.5),108,101,78,81,54,25,,57,52,45,32,6,7,0.8,0.7
2023-12-06T2200,1151A,118.8086,32.1065,南京市,迈皋桥,颗粒物(PM10),132,213,163,44,45,5,,81,57,77,48,4,7,0.7,0.7
2023-12-06T2200,1152A,118.7538,32.0551,南京市,草场门,颗粒物(PM10),136,222,164,46,46,25,,75,64,67,55,5,8,,0.4
2023-12-06T2200,1153A,118.7794,32.0745,南京市,山西路,颗粒物(PM10),146,241,183,44,54,39,,77,58,45,41,6,10,0.7,0.9
2023-12-06T2200,1154A,118.7752,32.0023,南京市,中华门,颗粒物(PM10),130,210,160,39,47,6,,72,48,75,45,5,7,0.8,0.9
2023-12-06T2200,1155A,118.8109,32.0309,南京市,瑞金路,颗粒物(PM10),119,188,159,44,46,7,,65,42,99,57,7,6,1.0,0.7
2023-12-06T2200,1156A,118.7997,32.0754,南京市,玄武湖,颗粒物(PM10),111,172,125,41,49,15,,68,51,60,44,8,11,0.6,0.7
2023-12-06T2200,1157A,118.6414,32.0931,南京市,浦口,颗粒物(PM10),153,256,180,43,48,20,,85,68,56,33,4,6,0.5,0.6
2023-12-06T2200,1158A,118.7356,31.9996,南京市,奥体中心,颗粒物(PM10),123,196,162,39,48,28,,76,56,62,49,10,10,0.3,0.5
2023-12-06T2200,1159A,118.9125,32.1028,南京市,仙林大学城,颗粒物(PM10),145,239,168,48,51,1,,72,43,88,54,5,9,1.0,1
2023-12-06T2200,3422A,118.8436,31.9198,南京市,江宁彩虹桥,颗粒物(PM10),151,251,166,39,47,7,,81,55,93,50,8,9,0.8,0.9
2023-12-06T2200,3423A,119.0138,31.6494,南京市,溧水永阳,颗粒物(PM10),141,232,161,58,59,24,,74,61,43,30,4,4,0.9,0.9
2023-12-06T2200,3424A,118.879,31.3302,南京市,高淳老职中,颗粒物(PM10),114,177,136,46,53,38,,72,56,40,36,4,7,0.3,0.5
2023-12-06T2200,3427A,118.8554,32.3578,南京市,六合雄州,颗粒物(PM10),137,223,140,56,50,12,,67,41,61,28,9,11,0.7,0.8
2023-12-06T2200,1401A,108.3103,22.7881,南宁市,二十一中,细颗粒物(PM2.5),54,52,41,38,29,10,,70,60,71,26,12,9,1.2,1
2023-12-06T2200,1402A,108.3141,22.8528,南宁市,北湖,颗粒物(PM10),83,116,47,60,34,6,,60,43,53,25,17,10,1.5,1
2023-12-06T2200,1403A,108.3206,22.8225,南宁市,市监测站,细颗粒物(PM2.5),53,46,42,37,30,6,,57,46,79,33,11,10,1.0,1
2023-12-06T2200,1404A,108.3829,22.8037,南宁市,大自然花园,,34,34,35,22,27,13,,63,54,59,24,7,8,0.8,0.7
2023-12-06T2200,1405A,108.4394,22.7904,南宁市,仙葫,颗粒物(PM10),65,80,40,38,25,9,,58,45,63,27,11,8,1.0,0.8
2023-12-06T2200,1406A,108.2397,22.8467,南宁市,区农职院,颗粒物(PM10),55,59,46,25,29,4,,62,44,48,28,9,9,0.8,0.8
2023-12-06T2200,1407A,108.3275,22.735,南宁市,英华嘉园,,50,50,43,34,29,4,,57,44,66,31,7,8,1.1,0.8
2023-12-06T2200,1408A,108.2257,22.7757,南宁市,沙井镇街道办,细颗粒物(PM2.5),85,104,49,63,32,2,,57,38,56,34,22,11,0.9,0.8
2023-12-06T2200,3401A,108.4834,22.7618,南宁市,红星社区,颗粒物(PM10),56,62,36,39,26,13,,62,50,47,25,7,8,0.9,0.9
2023-12-06T2200,2331A,118.0966,26.6761,南平市,茫荡山,,,,,,,,,,,,,,,,
2023-12-06T2200,2332A,118.1681,26.6369,南平市,南平市监测站,,23,23,22,14,16,10,,50,31,34,21,4,4,0.6,0.9
2023-12-06T2200,2333A,118.1825,26.6489,南平市,南平铝业有限公司,,26,,21,18,16,5,,57,36,36,21,10,5,0.7,0.7
2023-12-06T2200,2334A,118.1756,26.6272,南平市,南平七中,,21,21,20,12,13,14,,57,43,28,19,5,5,0.6,0.7
2023-12-06T2200,1168A,120.9098,31.9663,南通市,狼山街道,细颗粒物(PM2.5),134,178,126,102,82,70,,89,87,29,60,9,10,1.0,1.1
2023-12-06T2200,1169A,120.86,32.0005,南通市,虹桥,细颗粒物(PM2.5),158,196,131,120,86,70,,95,86,41,66,8,10,1.0,1
2023-12-06T2200,1170A,120.87,32.02,南通市,城中,细颗粒物(PM2.5),152,181,121,116,80,57,,85,75,46,61,10,12,0.8,0.8
2023-12-06T2200,1171A,120.94,31.93,南通市,星湖花园,细颗粒物(PM2.5),134,189,142,102,84,61,,62,61,38,84,8,10,0.9,1
2023-12-06T2200,1172A,120.81,32.0417,南通市,紫琅学院,细颗粒物(PM2.5),159,224,147,121,81,57,,82,73,41,64,10,11,0.6,0.8
2023-12-06T2200,3291A,121.067,32.062,南通市,通州监测站,细颗粒物(PM2.5),110,149,148,83,86,22,,94,78,49,63,7,12,0.9,0.9
2023-12-06T2200,3432A,120.9348,31.9883,南通市,环境教育馆,细颗粒物(PM2.5),137,163,115,104,80,53,,90,76,43,60,10,11,0.8,0.8
2023-12-06T2200,2404A,112.5224,33.0122,南阳市,瓦房庄,颗粒物(PM10),69,87,112,36,56,39,,73,46,38,41,8,7,0.6,0.7
2023-12-06T2200,2405A,112.5003,32.9735,南阳市,汉画馆,颗粒物(PM10),84,117,130,37,50,43,,76,46,30,32,5,5,0.5,0.6
2023-12-06T2200,2406A,112.5573,33.027,南阳市,气象站,颗粒物(PM10),76,101,122,22,50,30,,73,62,50,39,10,10,0.5,0.7
2023-12-06T2200,2407A,112.5481,32.9689,南阳市,理工学院,颗粒物(PM10),78,105,122,37,52,26,,80,59,57,42,6,5,0.3,0.5
2023-12-06T2200,4008A,112.5234,32.9922,南阳市,卧龙区政府,颗粒物(PM10),78,105,127,39,51,41,,73,48,37,42,6,5,0.4,0.7
2023-12-06T2200,1234A,121.8358,29.911,宁波市,区环保大楼,颗粒物(PM10),109,167,89,45,43,10,,78,50,82,50,10,7,0.6,0.7
2023-12-06T2200,1235A,121.56,29.82,宁波市,万里学院,颗粒物(PM10),91,131,85,38,33,4,,72,48,86,48,7,7,0.8,0.7
2023-12-06T2200,1236A,121.713,29.9572,宁波市,龙赛医院,颗粒物(PM10),87,123,81,39,37,11,,76,49,85,64,8,8,0.8,0.7
2023-12-06T2200,1239A,121.633,29.7733,宁波市,钱湖水厂,颗粒物(PM10),95,140,75,44,38,4,,67,45,85,35,10,8,0.7,0.7
2023-12-06T2200,1240A,121.5856,29.8635,宁波市,太古小学,颗粒物(PM10),74,98,78,30,35,32,,71,53,62,54,11,10,0.9,1
2023-12-06T2200,1241A,121.524,29.8674,宁波市,市环境监测中心,颗粒物(PM10),85,119,70,40,35,2,,63,40,85,53,10,10,1.2,1
2023-12-06T2200,2871A,121.6147,29.9017,宁波市,万里国际学校,颗粒物(PM10),82,113,85,45,53,10,,66,37,87,61,10,8,0.8,0.8
2023-12-06T2200,3710A,121.5594,29.8975,宁波市,白沙活动中心,,,102,70,,35,30,,68,45,64,58,10,8,0.7,0.8
2023-12-06T2200,2339A,119.5001,26.6946,宁德市,金涵水库,,,,,,,,,,,,,,,,
2023-12-06T2200,2341A,119.5388,26.6612,宁德市,宁德市监测站,,25,23,28,17,21,36,,67,42,14,21,4,4,0.6,0.7
2023-12-06T2200,3209A,119.5231,26.6562,宁德市,宁德一中,,,,42,17,16,37,,60,45,14,18,6,6,0.8,0.9
2023-12-06T2200,2618A,98.8601,25.8567,怒江州,州监测站,,48,48,36,22,20,30,,57,49,23,17,9,8,0.5,0.4
2023-12-06T2200,2619A,98.8546,25.8417,怒江州,泸水一中,,30,30,30,21,20,16,,50,37,30,21,7,6,0.6,0.5
2023-12-06T2200,1888A,101.6891,26.571,攀枝花市,弄弄坪,,36,36,47,15,21,29,,58,45,35,35,8,16,0.8,0.9
2023-12-06T2200,1889A,101.5769,26.5928,攀枝花市,河门口,,36,36,46,19,22,42,,62,58,18,31,8,19,0.6,1.2
2023-12-06T2200,1890A,101.7169,26.585,攀枝花市,炳草岗,,38,38,49,15,18,8,,54,36,56,39,9,20,1.1,1
2023-12-06T2200,1891A,101.7369,26.5008,攀枝花市,仁和,,32,32,28,16,16,34,,67,57,24,27,6,7,0.5,0.6
2023-12-06T2200,2835A,101.7227,26.567,攀枝花市,四十中小,,29,29,35,10,17,41,,70,61,36,30,10,25,0.8,0.9
2023-12-06T2200,1604A,122.0303,41.1489,盘锦市,开发区,,25,25,66,11,51,46,,59,54,22,34,12,13,0.6,1
2023-12-06T2200,1605A,122.0485,41.0883,盘锦市,兴隆台,,35,24,61,24,55,32,,57,49,41,34,14,12,0.7,0.8
2023-12-06T2200,1606A,121.8297,41.1028,盘锦市,新生街道,,34,34,66,19,40,8,,54,42,56,34,15,11,0.6,0.8
2023-12-06T2200,1832A,113.3257,33.742,平顶山市,新华旅馆,颗粒物(PM10),112,174,197,48,47,32,,81,63,42,16,7,8,0.6,0.5
2023-12-06T2200,1833A,113.2919,33.737,平顶山市,规划设计院,颗粒物(PM10),111,172,179,53,47,11,,82,53,60,22,7,8,0.9,0.6
2023-12-06T2200,1834A,113.182,33.774,平顶山市,平顶山工学院,颗粒物(PM10),108,166,176,41,41,59,,92,82,24,20,4,6,0.5,0.7
2023-12-06T2200,3204A,113.3025,33.73,平顶山市,规划局,颗粒物(PM10),119,188,211,50,46,20,,77,56,52,23,7,8,0.7,0.8
2023-12-06T2200,3594A,112.8867,33.9116,平顶山市,石龙区,颗粒物(PM10),97,143,216,39,43,76,,96,85,21,20,5,6,0.7,0.7
2023-12-06T2200,2656A,106.6692,35.5461,平凉市,聚贤嘉苑,颗粒物(PM10),66,81,102,24,23,31,,86,63,50,32,9,7,0.6,0.4
2023-12-06T2200,2657A,106.7021,35.5307,平凉市,博物馆,颗粒物(PM10),84,118,124,48,34,16,,80,56,67,35,26,12,1.3,0.8
2023-12-06T2200,2347A,114.0997,27.5002,萍乡市,武功山,,40,32,24,28,21,60,,84,75,11,10,3,4,0.7,0.7
2023-12-06T2200,2348A,113.8385,27.6434,萍乡市,中医院,细颗粒物(PM2.5),78,75,78,57,52,29,,81,68,55,35,12,21,1.2,1.6
2023-12-06T2200,2349A,113.8493,27.6253,萍乡市,市政府车库,细颗粒物(PM2.5),89,80,73,66,53,30,,77,62,44,37,11,16,0.9,1.2
2023-12-06T2200,2350A,113.8676,27.6435,萍乡市,市环保局,细颗粒物(PM2.5),68,72,70,49,49,38,,84,74,42,31,10,16,1.0,1.2
2023-12-06T2200,2351A,113.866,27.6198,萍乡市,安源区政府,细颗粒物(PM2.5),73,82,69,53,49,41,,92,80,33,28,15,17,0.7,0.9
2023-12-06T2200,2319A,119.0141,25.4325,莆田市,荔城区仓后路,颗粒物(PM10),58,65,36,34,14,11,,60,40,42,25,7,6,1.1,0.8
2023-12-06T2200,2320A,119.0015,25.4553,莆田市,莆田市监测站,,31,31,21,11,8,44,,68,50,13,13,6,6,0.6,0.6
2023-12-06T2200,2321A,119.1119,25.4561,莆田市,涵江区六中,颗粒物(PM10),64,78,37,30,15,21,,64,43,54,34,9,8,1.0,0.7
2023-12-06T2200,2322A,119.1013,25.3215,莆田市,秀屿区政府,,50,50,39,34,20,42,,76,65,50,26,10,9,1.0,0.7
2023-12-06T2200,2323A,118.981,25.4792,莆田市,东圳水库,,,,,,,,,,,,,,,,
2023-12-06T2200,2392A,115.0312,35.7636,濮阳市,环保局,颗粒物(PM10),116,181,192,48,46,45,,69,61,28,23,5,6,0.3,0.4
2023-12-06T2200,2394A,115.0574,35.7609,濮阳市,油田运输公司,颗粒物(PM10),119,187,207,44,42,44,,66,55,32,27,5,6,0.5,0.6
2023-12-06T2200,2395A,115.0866,35.7754,濮阳市,油田物探公司,颗粒物(PM10),124,198,214,45,44,35,,68,52,42,29,3,4,0.5,0.5
2023-12-06T2200,3021A,115,35.7668,濮阳市,濮水河管理处,颗粒物(PM10),122,193,193,60,47,28,,68,57,41,24,6,7,0.4,0.5
2023-12-06T2200,2601A,100.98,22.7633,普洱市,市环保局,,32,29,27,22,13,40,,71,63,12,11,5,5,0.5,0.5
2023-12-06T2200,2602A,100.9817,22.8322,普洱市,普洱第二中学,,32,32,26,15,8,21,,75,62,27,16,5,6,0.5,0.5
2023-12-06T2200,2262A,131.0518,45.8751,七台河市,新一中,,23,16,53,8,41,73,,94,51,10,23,9,11,0.8,1.1
2023-12-06T2200,3345A,131.0577,45.7879,七台河市,中波台,细颗粒物(PM2.5),62,55,56,44,46,52,,79,26,24,36,8,10,0.5,0.7
2023-12-06T2200,3637A,131.0176,45.7761,七台河市,人民广场,,45,40,68,31,53,40,,80,22,38,42,12,9,0.5,1
2023-12-06T2200,3684A,130.8781,45.8222,七台河市,新建矿广场,,40,,54,28,46,55,,76,29,16,31,12,13,0.5,0.8
2023-12-06T2200,1779A,123.9305,47.3636,齐齐哈尔市,安居小区,,20,14,21,14,14,49,,61,53,7,7,6,6,0.3,0.3
2023-12-06T2200,1780A,123.9488,47.3386,齐齐哈尔市,中心广场,,20,20,20,9,6,44,,56,47,8,7,4,4,0.2,0.2
2023-12-06T2200,1781A,123.9483,47.3227,齐齐哈尔市,农牧车辆厂,,19,19,25,2,6,46,,55,48,5,9,8,9,0.4,0.5
2023-12-06T2200,1783A,123.945,47.2988,齐齐哈尔市,市环境监测站,,14,14,21,4,6,43,,54,45,7,8,7,5,0.3,0.3
2023-12-06T2200,3662A,123.6333,47.2075,齐齐哈尔市,富区青少年活动中心,,17,17,40,6,17,40,,55,46,16,18,8,14,0.4,0.4
2023-12-06T2200,2591A,107.9783,26.5747,黔东南苗族侗族自治州,市环境监测站,,,51,53,33,36,,,58,43,58,34,7,7,0.8,0.8
2023-12-06T2200,2881A,107.8908,26.5311,黔东南苗族侗族自治州,凯里学院,,46,46,43,32,33,11,,81,51,44,23,4,5,0.6,0.7
2023-12-06T2200,2593A,107.5228,26.2403,黔南布依族苗族自治州,小围寨,,45,41,30,31,25,24,,65,56,26,13,5,5,0.6,0.5
2023-12-06T2200,3538A,107.5175,26.2978,黔南布依族苗族自治州,沙坝,细颗粒物(PM2.5),55,53,33,39,25,24,,78,59,22,16,7,7,0.7,0.7
2023-12-06T2200,2589A,104.9022,25.0925,黔西南布依族苗族自治州,场坝街,颗粒物(PM10),53,55,36,35,26,16,,69,50,42,19,2,7,0.6,0.4
2023-12-06T2200,2590A,104.8811,25.0992,黔西南布依族苗族自治州,坪东大道,细颗粒物(PM2.5),70,67,38,51,31,5,,66,40,50,21,3,4,1.0,0.6
2023-12-06T2200,2502A,108.6236,21.9667,钦州市,市环保站,,44,44,44,22,25,57,,52,51,20,23,9,9,1.5,1.3
2023-12-06T2200,2503A,108.6549,21.9481,钦州市,沙埠小学,颗粒物(PM10),54,57,44,37,29,23,,53,49,50,25,9,8,1.1,0.9
2023-12-06T2200,2504A,108.5989,21.7431,钦州市,港区一小,颗粒物(PM10),72,94,59,35,30,16,,49,41,59,29,15,12,1.5,1
2023-12-06T2200,3404A,108.5959,21.9633,钦州市,北职校,细颗粒物(PM2.5),52,51,42,36,31,51,,52,51,16,19,8,8,1.0,1.2
2023-12-06T2200,1042A,119.5134,39.8207,秦皇岛市,北戴河环保局,颗粒物(PM10),77,104,90,16,46,22,,68,52,47,46,10,14,0.5,1.2
2023-12-06T2200,1043A,119.7493,40.0116,秦皇岛市,第一关,颗粒物(PM10),63,76,73,29,34,5,,68,30,54,36,19,12,0.8,0.7
2023-12-06T2200,1044A,119.5897,39.9499,秦皇岛市,监测站,颗粒物(PM10),87,123,85,45,48,7,,66,35,78,57,23,13,1.7,1.1
2023-12-06T2200,1046A,119.5251,39.9041,秦皇岛市,建设大厦,颗粒物(PM10),75,100,87,43,41,10,,70,44,64,38,20,9,1.0,1
2023-12-06T2200,3132A,119.610547,39.943889,秦皇岛市,文明里,颗粒物(PM10),82,113,97,21,41,18,,62,35,50,55,10,11,0.7,0.9
2023-12-06T2200,1307A,120.6659,36.2403,青岛市,仰口,颗粒物(PM10),59,68,110,22,56,58,,76,69,15,32,6,8,0.7,1
2023-12-06T2200,1310A,120.4134,36.0658,青岛市,市南区东部子站,颗粒物(PM10),56,61,138,17,73,15,,65,44,66,44,9,12,0.7,0.8
2023-12-06T2200,1311A,120.3664,36.1032,青岛市,四方区子站,颗粒物(PM10),68,85,123,22,77,5,,66,40,82,52,9,9,1.0,0.9
2023-12-06T2200,1312A,120.2994,36.054,青岛市,市南区西部子站,颗粒物(PM10),52,53,116,10,60,17,,71,58,63,40,8,9,0.4,0.6
2023-12-06T2200,1313A,120.4581,36.0858,青岛市,崂山区子站,,46,46,118,7,58,33,,68,52,44,41,7,9,0.5,0.7
2023-12-06T2200,1314A,120.1983,35.9608,青岛市,黄岛区子站,,48,48,118,17,65,7,,66,34,88,52,13,11,0.5,0.7
2023-12-06T2200,1315A,120.3999,36.3083,青岛市,城阳区子站,颗粒物(PM10),69,88,131,29,64,10,,66,41,78,54,13,12,1.2,1
2023-12-06T2200,1966A,120.0405,35.8735,青岛市,黄岛区4号,颗粒物(PM10),75,100,133,34,72,10,,72,36,78,53,14,12,1.3,1.1
2023-12-06T2200,3362A,120.5014,36.4034,青岛市,即墨2号,颗粒物(PM10),73,96,146,26,83,9,,57,35,68,56,16,14,0.8,0.9
2023-12-06T2200,3642A,120.3503,36.0736,青岛市,市北区南部,颗粒物(PM10),53,55,137,14,68,19,,57,41,61,49,5,8,0.5,0.8
2023-12-06T2200,3643A,120.3948,36.1805,青岛市,李沧区北部,颗粒物(PM10),67,83,139,22,79,9,,67,44,87,61,12,13,1.1,1
2023-12-06T2200,1702A,113.0426,23.691,清远市,环保大楼,细颗粒物(PM2.5),52,47,24,36,23,13,,26,25,40,21,4,4,1.5,1.1
2023-12-06T2200,1703A,113.0208,23.7106,清远市,凤城街办,颗粒物(PM10),64,77,31,43,20,3,,21,17,49,27,5,5,1.5,1
2023-12-06T2200,3025A,113.0477,23.6344,清远市,技师学院,,36,36,31,22,18,29,,25,25,19,25,8,9,0.6,0.7
