timepoint,stationcode,longitude,latitude,area,positionname,primarypollutant,aqi,pm10,pm10_24h,pm2_5,pm2_5_24h,o3,o3_24h,o3_8h,o3_8h_24h,no2,no2_24h,so2,so2_24h,co,co_24h
2025-05-02T2100,2566A,102.1879,31.914,阿坝藏族羌族自治州,州农科所,颗粒物(PM10),69,87,24,23,10,54,,92,86,30,12,14,11,0.7,0.6
2025-05-02T2100,2568A,102.2502,31.8896,阿坝藏族羌族自治州,马师校,,25,24,21,17,13,62,,107,101,27,17,5,5,0.5,0.4
2025-05-02T2100,3994A,102.2165,31.9024,阿坝藏族羌族自治州,马尔康中学西区,,,27,20,18,13,,,122,122,14,7,5,4,0.4,0.4
2025-05-02T2100,2695A,80.292,41.1694,阿克苏地区,电视台,颗粒物(PM10),203,352,153,100,46,84,,99,98,11,21,6,6,0.7,0.7
2025-05-02T2100,2696A,80.2613,41.1551,阿克苏地区,艺术中心,颗粒物(PM10),290,413,177,93,48,70,,95,94,26,27,4,4,0.5,0.6
2025-05-02T2100,2204A,105.6467,38.8363,阿拉善盟,西城区西花园,颗粒物(PM10),93,135,137,44,50,104,,108,108,10,12,4,5,0.6,0.6
2025-05-02T2100,2205A,105.6985,38.8411,阿拉善盟,蒙二幼,,,134,156,,58,90,,93,93,6,6,8,8,0.5,0.4
2025-05-02T2100,2206A,105.724,38.8516,阿拉善盟,环保局新楼,颗粒物(PM10),82,113,132,28,45,96,,100,100,4,3,8,8,0.5,0.4
2025-05-02T2100,2708A,88.1264,47.8517,阿勒泰地区,市站,,29,24,36,8,6,91,,91,91,12,9,3,3,0.3,0.3
2025-05-02T2100,2630A,80.1161,32.5,阿里地区,阿里监测站,,39,6,9,3,5,123,,117,117,4,7,3,6,0.4,0.4
2025-05-02T2100,3192A,80.0903,32.5028,阿里地区,阿里藏医院,,42,12,19,3,6,132,,127,127,1,5,5,7,0.3,0.3
2025-05-02T2100,2642A,109.0318,32.6537,安康市,香溪洞,颗粒物(PM10),57,63,71,26,28,122,,131,127,4,6,7,8,0.5,0.5
2025-05-02T2100,2644A,109.0072,32.6975,安康市,汉滨区检察院,颗粒物(PM10),70,90,83,28,31,76,,132,118,20,13,8,26,0.5,0.4
2025-05-02T2100,4054A,109.0325,32.6913,安康市,市邮政管理局,颗粒物(PM10),81,112,84,45,31,49,,134,114,35,11,12,15,0.6,0.2
2025-05-02T2100,2291A,117.0809,30.5177,安庆市,环科院,,45,45,57,20,26,106,,133,126,19,36,2,3,0.5,0.7
2025-05-02T2100,2292A,117.0331,30.5119,安庆市,马山宾馆,,50,50,55,25,26,36,,131,108,81,44,5,6,0.4,0.5
2025-05-02T2100,2294A,116.9896,30.6145,安庆市,安庆大学,,46,46,55,17,24,103,,135,126,23,23,7,5,0.3,0.5
2025-05-02T2100,3173A,117.0598,30.5351,安庆市,市人大,,,49,58,18,15,,,142,138,44,30,8,8,0.4,0.5
2025-05-02T2100,3122A,105.9606,26.2611,安顺市,伍家关,,45,42,57,25,24,142,,157,155,7,14,4,6,0.3,0.3
2025-05-02T2100,3123A,105.9408,26.2431,安顺市,凤凰山,颗粒物(PM10),52,53,61,30,32,113,,135,132,14,26,7,11,0.5,0.5
2025-05-02T2100,3124A,105.9439,26.2564,安顺市,金钟山,,40,29,65,28,27,123,,138,137,8,9,6,11,0.4,0.3
2025-05-02T2100,3125A,105.8983,26.2481,安顺市,娄家坡,,45,45,61,26,26,122,,140,138,9,9,7,13,0.3,0.3
2025-05-02T2100,1818A,114.4839,36.0621,安阳市,棉研所,,,,,,,,,,,,,,,,
2025-05-02T2100,1819A,114.3551,36.1017,安阳市,红庙街,颗粒物(PM10),121,192,104,27,31,131,,152,148,1,7,4,6,0.4,0.4
2025-05-02T2100,1820A,114.361,36.0681,安阳市,银杏小区,颗粒物(PM10),148,246,102,35,60,142,,194,183,6,12,4,7,0.4,0.4
2025-05-02T2100,3141A,114.3922,36.0878,安阳市,信访局,颗粒物(PM10),365,472,131,28,33,138,,160,157,12,14,4,6,0.4,0.5
2025-05-02T2100,3669A,114.4705,36.0637,安阳市,左辅环卫站,颗粒物(PM10),104,158,91,30,39,138,,160,158,12,15,4,6,0.6,0.5
2025-05-02T2100,3703A,114.2917,36.0949,安阳市,安钢职工学校,颗粒物(PM10),133,216,113,28,40,121,,146,139,12,16,5,8,0.6,0.7
2025-05-02T2100,1748A,123.044,41.1196,鞍山市,深沟寺,,36,36,33,14,15,82,,91,90,20,18,6,10,0.5,0.9
2025-05-02T2100,1749A,123.011,41.0931,鞍山市,太阳城,,38,38,32,17,17,68,,81,79,21,18,6,10,0.6,1
2025-05-02T2100,1750A,123.0485,41.1442,鞍山市,太平,,37,37,40,16,16,74,,79,79,16,20,9,12,0.6,0.9
2025-05-02T2100,1751A,122.9642,41.0971,鞍山市,铁西三道街,,36,36,46,16,21,77,,86,84,19,30,4,9,0.5,0.9
2025-05-02T2100,1753A,123.022,41.0821,鞍山市,明达新区,,39,39,33,15,14,77,,85,85,15,16,7,10,0.3,0.6
2025-05-02T2100,1754A,123.1289,41.0228,鞍山市,千山,,,,17,,6,,,60,,,12,,6,,0.7
2025-05-02T2100,4201A,122.9446,41.0826,鞍山市,兴盛南路290号,,32,32,46,16,20,75,,84,83,20,28,4,10,0.6,0.9
2025-05-02T2100,2195A,107.4212,40.761,巴彦淖尔市,附二中,,28,28,76,19,19,74,,84,82,6,6,6,7,0.5,0.6
2025-05-02T2100,2196A,107.37,40.7372,巴彦淖尔市,市环保大楼,,43,34,68,30,26,80,,93,90,10,9,3,4,0.4,0.4
2025-05-02T2100,1956A,86.1472,41.7538,巴音郭楞蒙古自治州,孔雀公园,颗粒物(PM10),173,296,156,36,36,99,,93,93,4,10,6,8,0.2,0.2
2025-05-02T2100,1957A,86.1972,41.7166,巴音郭楞蒙古自治州,棉纺厂,颗粒物(PM10),372,477,175,58,34,91,,90,90,8,9,2,3,0.2,0.2
2025-05-02T2100,1958A,86.2357,41.7173,巴音郭楞蒙古自治州,经济开发区,颗粒物(PM10),327,441,138,46,22,88,,86,86,5,4,6,7,0.2,0.2
2025-05-02T2100,2914A,106.7677,31.8794,巴中市,苏山坪,颗粒物(PM10),56,62,59,27,27,139,,141,138,8,8,4,4,0.3,0.4
2025-05-02T2100,3181A,106.7768,31.8526,巴中市,市五中,颗粒物(PM10),65,80,67,33,28,91,,139,129,13,14,7,7,0.5,0.5
2025-05-02T2100,3183A,106.7418,31.8654,巴中市,圣泉水务公司,颗粒物(PM10),67,83,60,41,28,57,,142,123,42,19,6,7,0.5,0.4
2025-05-02T2100,3616A,106.7616,31.8344,巴中市,市中心医院,颗粒物(PM10),70,89,70,36,34,59,,137,123,37,18,5,5,0.7,0.5
2025-05-02T2100,2235A,122.7911,45.6077,白城市,洮北区环保局,,,31,27,7,11,79,,93,89,,15,3,3,0.4,0.4
2025-05-02T2100,2236A,122.8738,45.5725,白城市,市环保局,,34,34,23,12,13,63,,94,80,21,16,1,1,0.4,0.3
2025-05-02T2100,2231A,126.4219,41.9171,白山市,喜丰,,25,25,25,10,12,54,,87,82,28,11,7,6,0.6,0.6
2025-05-02T2100,2232A,126.4077,41.9419,白山市,环保局,,47,47,27,17,12,39,,85,75,26,13,4,5,0.7,0.4
2025-05-02T2100,2647A,104.1724,36.5446,白银市,第三小学,颗粒物(PM10),194,338,203,98,59,100,,103,102,3,20,8,42,0.4,0.8
2025-05-02T2100,2648A,104.1465,36.5482,白银市,动力公司,颗粒物(PM10),169,288,189,120,63,103,,103,102,6,14,6,27,0.2,0.6
2025-05-02T2100,2512A,106.6103,23.9011,百色市,市监测站,颗粒物(PM10),52,53,46,34,24,115,,140,134,18,20,8,8,0.6,0.6
2025-05-02T2100,2513A,106.6538,23.8859,百色市,市中心血站,,38,,63,23,29,120,,139,134,18,26,8,8,0.7,0.7
2025-05-02T2100,3406A,106.6085,23.8798,百色市,祈福高中,,46,46,63,25,22,116,,133,128,14,26,10,8,0.7,0.6
2025-05-02T2100,2270A,117.396,32.939,蚌埠市,工人疗养院,,,86,94,29,26,,,160,156,14,15,6,6,0.6,0.5
2025-05-02T2100,2271A,117.3605,32.9427,蚌埠市,百货大楼,颗粒物(PM10),72,94,90,32,25,116,,155,146,21,18,10,7,0.7,0.5
2025-05-02T2100,2273A,117.4185,32.8911,蚌埠市,蚌埠学院,颗粒物(PM10),63,75,93,27,28,129,,155,149,7,13,5,5,0.6,0.5
2025-05-02T2100,2274A,117.3533,32.9673,蚌埠市,淮上区政府,颗粒物(PM10),67,83,92,42,33,127,,161,153,15,17,8,6,0.6,0.4
2025-05-02T2100,2275A,117.3145,32.8977,蚌埠市,高新区,颗粒物(PM10),69,88,92,30,31,115,,153,145,20,18,8,7,0.7,0.5
2025-05-02T2100,3715A,117.3092,32.9314,蚌埠市,蚌埠田家炳中学,颗粒物(PM10),68,86,92,32,35,126,,164,154,14,17,7,11,0.4,0.4
2025-05-02T2100,1585A,109.8756,40.6532,包头市,市环境监测站,,25,19,50,12,16,79,,88,84,9,19,6,10,0.3,0.5
2025-05-02T2100,1587A,109.9991,40.5842,包头市,包头八中,,25,20,50,8,16,79,,91,88,11,19,8,17,0.4,0.6
2025-05-02T2100,1588A,109.8538,40.6821,包头市,青山宾馆,,24,17,45,7,16,76,,91,87,10,11,9,10,0.3,0.4
2025-05-02T2100,1589A,109.8642,40.6288,包头市,惠龙物流,,26,10,39,3,18,83,,92,89,9,17,7,13,0.3,0.4
2025-05-02T2100,1590A,110.0377,40.5546,包头市,东河鸿龙湾,,23,23,49,10,14,71,,87,83,15,16,7,11,0.4,0.4
2025-05-02T2100,3283A,109.9154,40.5685,包头市,滨河大厦,,25,,41,10,17,78,,90,87,6,13,10,13,0.4,0.4
2025-05-02T2100,3419A,109.9447,40.6261,包头市,包头市委党校,,25,23,56,7,14,78,,88,86,8,17,6,13,0.3,0.4
2025-05-02T2100,3683A,109.8331,40.6576,包头市,昆区政府,,25,17,45,11,18,80,,93,89,12,14,5,7,0.4,0.5
2025-05-02T2100,1930A,107.185,34.3063,宝鸡市,庙沟村,,,,45,,17,,,128,,,4,,8,,0.5
2025-05-02T2100,1931A,107.0708,34.3017,宝鸡市,竹园沟,,,59,53,,21,96,,132,122,6,6,8,8,0.3,0.3
2025-05-02T2100,1932A,107.1906,34.3672,宝鸡市,三陆医院,颗粒物(PM10),51,52,76,28,42,92,,130,119,16,33,6,7,0.3,0.4
2025-05-02T2100,1933A,107.1431,34.3547,宝鸡市,监测站,,,,69,13,26,97,,112,,9,18,4,5,0.1,0.3
2025-05-02T2100,1934A,107.1186,34.3739,宝鸡市,技工学校,细颗粒物(PM2.5),63,,60,45,23,97,,128,117,9,12,8,8,0.4,0.4
2025-05-02T2100,1935A,107.3906,34.3528,宝鸡市,陈仓区环保局家属楼,,35,34,73,14,29,111,,144,129,8,17,7,17,0.3,0.5
2025-05-02T2100,1936A,107.2058,34.3497,宝鸡市,文理学院,,40,40,61,18,30,107,,132,122,7,20,7,7,0.3,0.4
2025-05-02T2100,1937A,107.2386,34.3622,宝鸡市,三迪小学,,,,81,,38,,,129,,,30,,7,,0.5
2025-05-02T2100,1051A,115.493,38.8632,保定市,游泳馆,,39,39,94,9,32,83,,122,116,10,24,2,7,0.1,0.3
2025-05-02T2100,1052A,115.5213,38.8959,保定市,华电二区,,33,26,82,23,42,77,,122,113,9,23,3,4,0.3,0.5
2025-05-02T2100,1053A,115.4713,38.9108,保定市,接待中心,,37,37,95,7,40,71,,110,102,7,26,2,4,0.3,0.5
2025-05-02T2100,1054A,115.4612,38.8416,保定市,地表水厂,颗粒物(PM10),55,60,96,3,33,83,,123,116,9,22,2,5,0.1,0.4
2025-05-02T2100,3581A,115.31981,38.95208,保定市,满城区生态环境分局,细颗粒物(PM2.5),73,,112,53,35,79,,129,118,9,23,1,3,0.3,0.5
2025-05-02T2100,3582A,115.47694,38.76408,保定市,清苑区第二中学,,33,33,128,10,37,75,,128,120,13,20,5,7,0.3,0.4
2025-05-02T2100,3583A,115.62909,39.02311,保定市,徐水物探局,颗粒物(PM10),70,89,102,3,34,75,,118,108,18,21,3,3,0.2,0.4
2025-05-02T2100,4004A,115.4202,38.8656,保定市,双鹰农机,,37,37,114,10,47,85,,123,116,4,19,2,6,0.2,0.4
2025-05-02T2100,4034A,115.5150,38.8590,保定市,植保所站,,,39,96,29,44,,,120,118,5,21,3,3,0.2,0.8
2025-05-02T2100,2594A,99.1678,25.1081,保山市,市环境监测站,,45,33,21,31,19,64,,106,102,8,8,8,6,0.5,0.5
2025-05-02T2100,2595A,99.1711,25.1328,保山市,市环保局,,37,37,23,23,12,71,,111,108,4,6,7,7,0.4,0.4
2025-05-02T2100,1866A,109.2262,21.588,北海市,牛尾岭水库,,,27,25,20,19,63,,96,89,,7,6,7,0.7,0.6
2025-05-02T2100,1867A,109.1436,21.4086,北海市,海滩公园,,39,39,31,15,13,109,,109,109,4,8,5,6,0.6,0.8
2025-05-02T2100,1868A,109.0981,21.4661,北海市,新市环保局,,34,20,24,17,16,106,,106,106,8,9,3,3,0.6,0.6
2025-05-02T2100,1869A,109.1778,21.5233,北海市,北海工业园,,29,26,31,20,22,89,,110,105,10,11,7,9,0.5,0.5
2025-05-02T2100,3400A,109.1911,21.4415,北海市,龙潭自来水厂,,32,21,22,17,19,101,,103,103,9,10,8,9,0.5,0.5
2025-05-02T2100,1001A,116.3621,39.8784,北京市,万寿西宫,,25,20,43,9,17,77,,98,92,11,19,6,8,0.6,0.8
2025-05-02T2100,1002A,116.2202,40.2915,北京市,定陵,,,,,,,,,,,,,,,,
2025-05-02T2100,1003A,116.4174,39.9289,北京市,东四,,41,41,52,21,19,71,,90,84,13,21,2,5,0.5,0.7
2025-05-02T2100,1004A,116.4072,39.8863,北京市,天坛,,19,18,40,9,18,60,,87,80,13,21,1,4,0.6,0.8
2025-05-02T2100,1005A,116.462,39.9365,北京市,农展馆,,21,21,40,12,17,65,,84,79,16,22,2,4,0.7,0.9
2025-05-02T2100,1006A,116.3392,39.9295,北京市,官园,,21,18,41,10,16,67,,79,76,15,21,4,7,0.4,0.6
2025-05-02T2100,1007A,116.2878,39.9611,北京市,海淀万柳,,24,24,38,10,17,46,,75,68,16,16,5,6,0.4,0.6
2025-05-02T2100,1008A,116.6636,40.135,北京市,顺义新城,,23,23,45,10,13,63,,80,73,13,17,6,10,0.3,0.6
2025-05-02T2100,1009A,116.6275,40.3275,北京市,怀柔镇,,22,20,27,9,10,68,,80,77,7,12,2,3,0.3,0.4
2025-05-02T2100,1010A,116.2296,40.217,北京市,昌平镇,,21,21,30,12,16,60,,77,74,9,15,2,3,0.3,0.5
2025-05-02T2100,1011A,116.3966,39.9821,北京市,奥体中心,,26,21,37,10,17,38,,82,73,52,28,3,5,0.3,0.5
2025-05-02T2100,3281A,115.9718,40.4529,北京市,延庆夏都,,21,18,22,12,12,66,,80,74,12,11,4,3,0.4,0.4
2025-05-02T2100,3418A,116.8336,40.4095,北京市,密云新城,,38,38,22,18,11,36,,77,68,13,9,3,3,0.5,0.5
2025-05-02T2100,3671A,116.088,39.9726,北京市,门头沟三家店,,,,,,,,,,,,,,,,
2025-05-02T2100,3672A,116.1541,39.8204,北京市,丰台云岗,,22,20,47,7,16,69,,88,84,15,22,3,5,0.3,0.5
2025-05-02T2100,3673A,116.6804,39.9081,北京市,通州东关,,34,34,59,12,18,54,,87,78,28,20,9,8,0.5,0.8
2025-05-02T2100,3674A,115.9577,39.7603,北京市,房山燕山,,27,12,45,6,19,84,,91,89,4,23,1,2,0.2,0.4
2025-05-02T2100,3675A,116.4672,39.7733,北京市,大兴旧宫,,22,22,47,9,17,57,,90,83,15,19,3,3,0.3,0.6
2025-05-02T2100,3694A,115.986,40.4563,北京市,延庆石河营,,20,16,20,12,12,63,,76,69,7,7,2,2,0.4,0.4
2025-05-02T2100,3695A,116.6151,40.3053,北京市,怀柔新城,,24,15,26,9,12,74,,83,80,3,9,1,2,0.3,0.4
2025-05-02T2100,3696A,116.2545,39.8768,北京市,丰台小屯,,20,19,34,8,17,63,,83,78,13,21,2,4,0.3,0.6
2025-05-02T2100,3697A,116.84,40.3844,北京市,密云镇,,40,40,23,20,11,36,,79,71,30,18,5,5,0.5,0.4
2025-05-02T2100,4182A,116.1942,39.9158,北京市,八角北路9号,,23,16,42,8,17,73,,84,82,5,24,3,5,0.2,0.5
2025-05-02T2100,4194A,117.0790,40.1518,北京市,洳河巡河路,,36,36,32,19,13,53,,89,80,17,11,2,4,0.4,0.5
2025-05-02T2100,1761A,123.8275,41.3064,本溪市,大峪,,33,33,26,15,13,47,,89,79,25,24,8,8,0.8,0.8
2025-05-02T2100,1762A,123.7567,41.3325,本溪市,溪湖,颗粒物(PM10),51,51,54,13,20,78,,90,88,15,18,8,5,0.6,1
2025-05-02T2100,1763A,123.7169,41.3094,本溪市,彩屯,,27,27,47,11,19,83,,92,90,16,23,10,11,0.6,1.1
2025-05-02T2100,1764A,123.7669,41.2864,本溪市,东明,,40,40,38,15,14,66,,84,80,24,26,14,11,1.1,1.2
2025-05-02T2100,1765A,123.7992,41.2664,本溪市,新立屯,,38,38,24,12,11,23,,88,71,60,23,7,7,0.7,0.8
2025-05-02T2100,1766A,123.8142,41.3472,本溪市,威宁,,26,26,32,8,15,62,,87,82,15,15,5,5,0.7,0.9
2025-05-02T2100,2587A,105.2864,27.3125,毕节市,八中,颗粒物(PM10),55,60,43,35,27,75,,121,112,21,13,7,8,0.7,0.5
2025-05-02T2100,2588A,105.31,27.2944,毕节市,师专,细颗粒物(PM2.5),75,81,62,55,30,76,,124,117,34,20,11,10,0.8,0.6
2025-05-02T2100,4263A,105.3688,27.3598,毕节市,工业大道,颗粒物(PM10),71,91,72,44,29,78,,128,122,35,23,10,9,0.7,0.5
2025-05-02T2100,1629A,118.0018,37.3617,滨州市,第二水厂,,44,44,82,9,32,92,,151,135,10,20,7,10,0.4,0.6
2025-05-02T2100,1630A,117.9776,37.393,滨州市,北中新校,,34,34,59,17,28,95,,155,138,14,24,13,10,0.3,0.6
2025-05-02T2100,3514A,117.9378,37.3956,滨州市,中海酒店,,36,36,45,17,28,101,,160,142,9,19,11,11,0.5,0.7
2025-05-02T2100,3515A,117.9378,37.3553,滨州市,开发区一中,,48,48,82,9,25,93,,157,140,18,27,8,9,0.4,0.6
2025-05-02T2100,3516A,118.0917,37.694,滨州市,金海六路,,28,24,65,12,28,89,,142,131,16,16,6,10,0.1,0.3
2025-05-02T2100,4028A,117.9956,37.3753,滨州市,滨州市西街道办事处,颗粒物(PM10),51,51,70,22,33,101,,167,148,12,21,5,8,0.1,0.7
2025-05-02T2100,2311A,115.8072,33.8399,亳州市,污水处理厂,颗粒物(PM10),126,201,101,35,24,127,,149,146,12,12,4,3,0.4,0.3
2025-05-02T2100,2312A,115.7789,33.8518,亳州市,三国揽胜宫,颗粒物(PM10),80,110,88,33,22,126,,157,153,9,9,6,5,0.4,0.3
2025-05-02T2100,3332A,115.7633,33.8034,亳州市,亳州学院,颗粒物(PM10),121,192,96,33,19,129,,152,148,12,11,4,4,0.5,0.4
2025-05-02T2100,2693A,82.0485,44.8556,博尔塔拉蒙古自治州,市党校,,34,34,25,15,14,92,,93,93,14,15,6,5,0.8,0.8
2025-05-02T2100,2694A,82.0806,44.8969,博尔塔拉蒙古自治州,市环保局,,43,43,46,13,14,90,,96,96,14,12,2,2,0.8,0.7
2025-05-02T2100,1071A,116.8842,38.2991,沧州市,沧县城建局,,48,48,73,27,39,109,,128,118,14,25,3,4,0.5,0.4
2025-05-02T2100,1072A,116.8584,38.3254,沧州市,电视转播站,,50,50,75,19,31,92,,123,114,23,25,4,6,0.3,0.3
2025-05-02T2100,1073A,116.8709,38.3228,沧州市,市环保局,细颗粒物(PM2.5),55,54,76,39,36,108,,133,124,16,22,4,6,0.5,0.4
2025-05-02T2100,3324A,116.8136,38.3004,沧州市,河北水利电力学院,,36,31,73,18,28,113,,133,125,15,20,4,9,0.4,0.4
2025-05-02T2100,2622A,97.1806,31.1273,昌都市,昌都监测站,,39,9,8,9,7,124,,99,99,4,3,3,3,0.2,0.2
2025-05-02T2100,3719A,97.1714,31.1406,昌都市,昌都会议中心,,39,12,12,11,9,124,,120,120,5,4,3,3,0.3,0.2
2025-05-02T2100,2690A,88.1236,43.8886,昌吉回族自治州,天山天池,,13,,11,3,5,40,,63,59,5,6,6,6,0.5,0.5
2025-05-02T2100,2692A,87.2717,44.0297,昌吉回族自治州,新区政务中心,,34,34,33,13,12,17,,36,32,37,21,14,9,0.8,0.4
2025-05-02T2100,3613A,87.3095,44.0142,昌吉回族自治州,亚心广场,,34,34,37,9,13,33,,49,37,45,24,9,8,0.5,0.3
2025-05-02T2100,1119A,125.3325,43.9166,长春市,食品厂,,48,42,28,33,17,52,,84,76,33,20,4,5,0.6,0.4
2025-05-02T2100,1120A,125.2863,43.9027,长春市,客车厂,,39,39,28,27,19,48,,87,75,36,20,5,5,0.5,0.3
2025-05-02T2100,1121A,125.2841,43.8463,长春市,邮电学院,,32,22,23,22,19,59,,92,80,22,15,6,6,0.6,0.5
2025-05-02T2100,1122A,125.3716,43.8772,长春市,劳动公园,细颗粒物(PM2.5),57,48,28,40,20,42,,92,80,36,15,6,7,0.6,0.4
2025-05-02T2100,1123A,125.3297,43.8805,长春市,园林处,,35,24,26,24,17,62,,88,81,26,17,6,6,0.4,0.3
2025-05-02T2100,1124A,125.4605,43.79,长春市,净月潭,,19,,22,12,15,60,,86,79,8,10,6,6,0.3,0.4
2025-05-02T2100,1125A,125.7194,43.515,长春市,甩湾子,,,,,,,,,,,,,,,,
2025-05-02T2100,1126A,125.3863,43.8447,长春市,经开区环卫处,,31,31,37,13,14,31,,87,75,48,22,6,6,0.5,0.4
2025-05-02T2100,1127A,125.245,43.7783,长春市,高新区管委会,,37,37,24,19,17,59,,89,80,24,18,6,6,0.3,0.3
2025-05-02T2100,1128A,125.1761,43.8325,长春市,岱山公园,,33,33,25,17,18,58,,86,77,29,21,4,5,0.3,0.4
2025-05-02T2100,1335A,113.0833,28.2325,长沙市,经开区环保局,颗粒物(PM10),59,68,76,27,28,109,,152,143,23,24,7,8,0.5,0.5
2025-05-02T2100,1336A,112.8872,28.2189,长沙市,高开区环保局,颗粒物(PM10),61,72,81,29,30,114,,151,144,11,20,9,9,0.6,0.6
2025-05-02T2100,1337A,113.0792,28.2053,长沙市,马坡岭,颗粒物(PM10),65,80,76,32,31,97,,152,141,27,25,6,6,0.4,0.4
2025-05-02T2100,1338A,112.9394,28.19,长沙市,湖南师范大学,颗粒物(PM10),59,68,75,30,27,95,,158,146,21,19,6,8,0.4,0.5
2025-05-02T2100,1339A,113.0178,28.1322,长沙市,雨花区环保局,颗粒物(PM10),57,64,82,26,33,123,,147,142,11,29,9,7,0.3,0.6
2025-05-02T2100,1340A,112.9792,28.2597,长沙市,伍家岭,,,83,91,36,33,97,,157,144,25,32,,6,0.6,0.7
2025-05-02T2100,1341A,113.0014,28.1944,长沙市,火车新站,,,78,89,29,37,,,152,148,,37,,10,,0.8
2025-05-02T2100,1342A,112.9844,28.1178,长沙市,天心区环保局,颗粒物(PM10),59,67,78,31,30,119,,153,146,17,23,7,6,0.6,0.6
2025-05-02T2100,1343A,112.8908,28.1308,长沙市,湖南中医药大学,细颗粒物(PM2.5),93,91,88,69,33,68,,144,128,44,33,8,6,0.5,0.6
2025-05-02T2100,1344A,112.9581,28.3611,长沙市,沙坪,颗粒物(PM10),58,66,57,34,29,85,,156,144,17,16,6,7,0.7,0.6
2025-05-02T2100,1727A,113.1147,36.1547,长治市,清华站,颗粒物(PM10),69,88,81,44,27,135,,126,126,15,10,7,8,0.9,0.6
2025-05-02T2100,1730A,113.0886,36.2125,长治市,审计局,细颗粒物(PM2.5),79,82,81,58,29,142,,130,130,17,17,9,10,0.7,0.5
2025-05-02T2100,1731A,113.0844,36.1856,长治市,长治八中,颗粒物(PM10),70,90,92,48,40,133,,124,124,17,15,9,10,0.8,0.6
2025-05-02T2100,2845A,113.1569,36.1911,长治市,德盛苑,颗粒物(PM10),61,72,74,34,31,139,,126,126,12,10,7,6,0.7,0.5
2025-05-02T2100,3568A,113.06,36.0464,长治市,向阳小学,细颗粒物(PM2.5),77,94,114,56,37,124,,124,120,15,15,13,13,0.7,0.4
2025-05-02T2100,3569A,112.8792,36.3144,长治市,屯留一中,细颗粒物(PM2.5),74,94,67,54,29,127,,114,114,18,14,15,11,1.5,0.6
2025-05-02T2100,4189A,113.1131,36.19948,长治市,英华南巷50号,细颗粒物(PM2.5),85,86,92,63,38,136,,130,130,19,15,6,7,0.8,0.5
2025-05-02T2100,4190A,113.2367,36.3344,长治市,学府街1号,细颗粒物(PM2.5),97,95,101,72,50,130,,137,137,22,32,6,10,1.1,0.9
2025-05-02T2100,1854A,111.6975,28.9703,常德市,市二中,颗粒物(PM10),67,84,75,47,33,86,,124,114,12,10,7,7,0.7,0.7
2025-05-02T2100,1857A,111.7158,29.1456,常德市,白鹤山,,,,,,,,,,,,,,,,
2025-05-02T2100,3138A,111.7153,29.0289,常德市,武陵区永安,颗粒物(PM10),67,84,84,38,31,90,,120,113,12,12,9,9,0.6,0.6
2025-05-02T2100,3139A,111.6892,28.9881,常德市,鼎城区玉霞,颗粒物(PM10),79,108,79,57,32,67,,120,108,17,14,5,5,0.7,0.6
2025-05-02T2100,3140A,111.6625,29.0531,常德市,武陵区长庚,颗粒物(PM10),64,77,82,36,34,94,,116,112,11,14,8,10,0.6,0.2
2025-05-02T2100,1196A,119.9633,31.762,常州市,市监测站,颗粒物(PM10),65,79,72,25,26,160,,183,181,16,21,10,10,0.7,0.8
2025-05-02T2100,1200A,119.9468,31.7069,常州市,武进监测站,颗粒物(PM10),56,62,59,26,23,163,,188,186,22,24,11,12,0.7,0.7
2025-05-02T2100,1201A,119.9255,31.9087,常州市,安家,颗粒物(PM10),64,77,68,34,26,170,,181,181,18,22,11,12,0.3,0.3
2025-05-02T2100,3002A,119.9805,31.8174,常州市,行政中心,臭氧1小时,65,66,59,26,23,172,,185,184,18,19,17,18,0.4,0.5
2025-05-02T2100,3003A,120.0522,31.7748,常州市,经开区,,,,68,,22,,,187,,,28,,12,,0.7
2025-05-02T2100,3010A,119.9025,31.7964,常州市,钟楼,臭氧1小时,68,73,65,27,23,174,,191,190,17,20,7,8,0.5,0.5
2025-05-02T2100,3429A,119.8598,31.7066,常州市,武进经发区,颗粒物(PM10),60,69,70,28,30,160,,185,183,17,18,15,12,0.8,0.7
2025-05-02T2100,3430A,119.5826,31.7245,常州市,金坛城区,颗粒物(PM10),68,86,77,30,27,173,,171,170,16,17,9,10,0.6,0.6
2025-05-02T2100,2220A,120.4318,41.5881,朝阳市,西梁,,36,36,40,11,17,81,,91,90,11,20,9,9,0.4,0.5
2025-05-02T2100,2221A,120.4521,41.5646,朝阳市,河畔小区,,27,27,35,17,23,80,,91,90,12,13,6,8,0.4,0.4
2025-05-02T2100,2222A,120.4176,41.5648,朝阳市,八里堡,,34,34,45,15,15,79,,85,84,11,23,6,8,0.4,0.5
2025-05-02T2100,2223A,120.3806,41.5969,朝阳市,农业园区,,36,,31,25,15,82,,92,92,10,16,6,8,0.3,0.4
2025-05-02T2100,1705A,116.6367,23.6719,潮州市,西园路,细颗粒物(PM2.5),65,56,40,47,37,128,,140,140,12,9,7,4,0.7,0.6
2025-05-02T2100,3026A,116.6183,23.6608,潮州市,市政府,细颗粒物(PM2.5),64,57,54,46,31,130,,135,135,10,10,6,5,0.9,0.8
2025-05-02T2100,4036A,116.6461,23.6761,潮州市,金山,颗粒物(PM10),53,55,50,36,34,112,,131,130,17,14,12,8,0.8,0.8
2025-05-02T2100,2472A,113.0073,25.9061,郴州市,马头岭,颗粒物(PM10),64,77,56,23,12,64,,104,94,18,13,9,9,0.4,0.4
2025-05-02T2100,2473A,113.0116,25.8226,郴州市,市职中,颗粒物(PM10),59,67,56,30,27,89,,118,108,12,11,6,8,0.6,0.6
2025-05-02T2100,2475A,113.0383,25.8071,郴州市,市审计局,颗粒物(PM10),56,62,52,27,26,68,,119,105,20,15,4,5,0.5,0.6
2025-05-02T2100,2476A,113.0348,25.7759,郴州市,市环保局,颗粒物(PM10),56,61,58,29,24,89,,113,108,14,18,4,5,0.5,0.5
2025-05-02T2100,4252A,113.0138,25.8011,郴州市,好美居路49号,细颗粒物(PM2.5),52,43,59,36,27,98,,120,113,13,15,8,11,0.6,0.6
2025-05-02T2100,1431A,103.9728,30.7236,成都市,金泉两河,细颗粒物(PM2.5),70,76,66,51,31,79,,167,150,37,29,3,4,0.9,0.9
2025-05-02T2100,1432A,104.176,30.6872,成都市,十里店,颗粒物(PM10),69,88,74,49,33,96,,167,153,32,35,6,6,0.5,0.5
2025-05-02T2100,1433A,104.079,30.5706,成都市,三瓦窑,颗粒物(PM10),69,87,69,41,34,98,,174,162,36,52,5,6,0.6,0.8
2025-05-02T2100,1434A,104.1114,30.63,成都市,沙河铺,颗粒物(PM10),58,66,65,32,33,81,,129,120,26,36,7,8,0.6,0.8
2025-05-02T2100,1437A,104.0786,30.6531,成都市,君平街,细颗粒物(PM2.5),72,84,73,52,39,64,,129,117,43,42,6,9,0.8,0.9
2025-05-02T2100,1438A,103.613,31.0283,成都市,灵岩寺,,,,,,,,,,,,,,,,
2025-05-02T2100,2880A,104.0239,30.65639,成都市,大石西路,颗粒物(PM10),66,82,75,42,40,55,,150,131,44,42,5,6,0.5,0.6
2025-05-02T2100,3136A,104.2725,30.5589,成都市,龙泉驿区区政府,颗粒物(PM10),62,73,55,27,21,111,,148,141,16,16,5,5,0.6,0.5
2025-05-02T2100,3357A,104.0106,30.6931,成都市,金博路,颗粒物(PM10),61,72,65,32,30,81,,152,138,42,37,8,9,0.6,0.6
2025-05-02T2100,3359A,104.0578,30.5225,成都市,华阳,,,66,65,44,44,,,150,147,27,42,7,6,0.8,1
2025-05-02T2100,3488A,104.3853,30.7453,成都市,青白江技师分院,颗粒物(PM10),66,81,55,33,24,118,,157,142,34,30,4,4,0.2,0.2
2025-05-02T2100,3489A,104.0789,30.4072,成都市,科学城,颗粒物(PM10),59,68,56,26,30,110,,145,138,22,28,4,4,0.5,0.5
2025-05-02T2100,4011A,103.8506,30.6947,成都市,光华大道三段,细颗粒物(PM2.5),97,91,68,72,41,101,,201,187,38,26,3,4,1.0,0.8
2025-05-02T2100,4224A,104.2433,30.5353,成都市,鲸龙路1057号,颗粒物(PM10),75,100,64,44,31,89,,140,132,42,41,6,6,0.6,0.5
2025-05-02T2100,1062A,117.9531,40.9081,承德市,铁路,,49,49,26,31,12,17,,56,48,33,24,5,5,1.2,0.5
2025-05-02T2100,1063A,117.9392,40.9763,承德市,中国银行,,42,42,30,29,10,21,,55,48,27,20,9,6,1.4,0.5
2025-05-02T2100,1064A,117.9503,40.928,承德市,开发区,,43,31,25,30,18,25,,58,50,26,23,11,9,1.2,0.5
2025-05-02T2100,1065A,117.8051,40.9655,承德市,文化中心,,36,36,37,15,9,32,,57,52,16,24,15,13,0.3,0.5
2025-05-02T2100,1066A,117.9268,41.0026,承德市,离宫,细颗粒物(PM2.5),58,,32,41,28,20,,54,45,18,18,3,3,1.1,0.4
2025-05-02T2100,2314A,117.47,30.6618,池州市,池州学院,颗粒物(PM10),55,59,55,28,25,116,,138,133,11,14,7,8,0.4,0.6
2025-05-02T2100,3237A,117.4918,30.6617,池州市,展览馆,颗粒物(PM10),54,57,53,26,23,116,,141,135,10,12,6,7,0.5,0.6
2025-05-02T2100,3333A,117.5627,30.695,池州市,第八中学,颗粒物(PM10),51,51,55,22,23,111,,144,138,7,8,6,7,0.3,0.5
2025-05-02T2100,3334A,117.5038,30.6243,池州市,第十二中学,颗粒物(PM10),55,60,55,30,22,96,,142,132,14,12,4,5,0.4,0.7
2025-05-02T2100,1744A,118.9233,42.2816,赤峰市,松山一中,,24,21,19,9,8,75,,75,74,15,26,12,12,0.4,0.5
2025-05-02T2100,1745A,118.9576,42.2728,赤峰市,哈达街,,28,28,21,3,6,72,,76,74,18,23,10,11,0.4,0.4
2025-05-02T2100,1746A,118.8788,42.2554,赤峰市,天义路,,24,17,17,14,11,76,,82,79,14,19,7,9,0.3,0.4
2025-05-02T2100,3058A,119.2658,42.0353,赤峰市,银河街,,22,20,36,15,16,52,,76,70,20,18,15,27,0.6,0.6
2025-05-02T2100,3286A,118.9359,42.3147,赤峰市,桥北物流园区,,32,32,23,6,11,70,,78,76,14,26,7,8,0.3,0.6
2025-05-02T2100,2521A,107.3476,22.4136,崇左市,市环保局江州分局,,38,38,38,20,21,90,,134,124,5,11,5,5,0.5,0.6
2025-05-02T2100,4256A,107.3750,22.3736,崇左市,石景林东路7号,,39,,32,27,17,93,,138,127,8,14,4,4,0.5,0.5
2025-05-02T2100,2298A,118.3093,32.3153,滁州市,老年大学,颗粒物(PM10),52,53,68,23,26,137,,164,156,6,17,5,6,0.3,0.4
2025-05-02T2100,2299A,118.3244,32.2786,滁州市,人大宾馆,颗粒物(PM10),56,61,67,29,27,131,,167,157,11,20,10,11,0.3,0.4
2025-05-02T2100,3207A,118.3118,32.3038,滁州市,市政府原办公楼,颗粒物(PM10),51,51,58,24,28,134,,164,155,7,18,8,8,0.3,0.4
2025-05-02T2100,3331A,118.3267,32.2634,滁州市,图书馆,颗粒物(PM10),60,69,73,33,30,124,,157,148,8,16,9,11,0.3,0.5
2025-05-02T2100,2605A,101.5482,25.0441,楚雄彝族自治州,州环境监测站,,30,19,26,18,19,95,,116,108,10,12,6,6,0.5,0.5
2025-05-02T2100,2606A,101.538,25.0492,楚雄彝族自治州,市经济开发区,,31,31,28,17,20,94,,112,106,11,12,6,7,0.6,0.6
2025-05-02T2100,2548A,107.5277,31.2827,达州市,达州职业技术学院,颗粒物(PM10),78,105,80,42,29,32,,141,118,53,24,6,6,0.7,0.5
2025-05-02T2100,2549A,107.5086,31.2186,达州市,市环境监测站,颗粒物(PM10),83,115,78,53,29,34,,144,121,75,32,6,6,0.9,0.4
2025-05-02T2100,2550A,107.4988,31.2132,达州市,凤凰小区,颗粒物(PM10),89,127,78,56,30,15,,147,122,96,33,8,9,1.3,0.5
2025-05-02T2100,2551A,107.5082,31.1986,达州市,达县机关宾馆,颗粒物(PM10),79,107,82,44,29,4,,142,106,86,40,6,6,0.8,0.5
2025-05-02T2100,2552A,107.4644,31.2124,达州市,市政中心,颗粒物(PM10),77,104,81,41,27,4,,148,121,107,38,5,4,1.0,0.5
2025-05-02T2100,2614A,100.1542,25.7054,大理白族自治州,大理市环境监测站,,33,,17,23,18,82,,94,94,12,12,7,7,0.3,0.3
2025-05-02T2100,2615A,100.2171,25.5811,大理白族自治州,大理古城,,29,29,21,17,15,48,,98,90,26,12,7,8,0.5,0.4
2025-05-02T2100,1109A,121.612,38.9741,大连市,甘井子,,28,24,31,12,8,88,,91,85,22,28,5,9,0.4,0.3
2025-05-02T2100,1110A,121.565,38.9511,大连市,周水子,,29,29,35,14,12,89,,86,84,15,22,5,6,0.4,0.3
2025-05-02T2100,1111A,121.5637,38.8845,大连市,星海三站,,28,22,28,12,10,88,,93,92,15,18,2,3,0.3,0.3
2025-05-02T2100,1112A,121.6302,38.9117,大连市,青泥洼桥,,,21,20,8,7,,,98,95,5,12,6,6,0.3,0.2
2025-05-02T2100,1113A,121.6251,38.8638,大连市,傅家庄,,31,16,25,8,6,98,,101,101,12,15,4,4,0.2,0.2
2025-05-02T2100,1114A,121.5213,38.8661,大连市,七贤岭,,32,22,24,11,7,101,,95,95,13,15,6,5,0.4,0.3
2025-05-02T2100,1115A,121.2529,38.8061,大连市,旅顺,,25,17,22,8,9,79,,76,76,18,27,3,3,0.3,0.3
2025-05-02T2100,1116A,121.7485,39.1311,大连市,金州,,35,15,25,8,10,110,,90,90,11,23,6,7,0.3,0.2
2025-05-02T2100,1117A,121.7811,39.0496,大连市,开发区,颗粒物(PM10),56,62,70,11,13,81,,80,77,18,31,3,4,0.3,0.4
2025-05-02T2100,1118A,121.9762,39.0631,大连市,双D港,,30,7,20,7,7,96,,80,76,10,16,5,6,0.3,0.2
2025-05-02T2100,1789A,124.81117,46.03138,大庆市,大同区,,39,39,30,18,19,55,,92,84,18,8,5,5,0.5,0.4
2025-05-02T2100,1790A,125.129,46.533,大庆市,龙凤区,,40,40,29,24,14,46,,102,89,40,17,5,5,0.6,0.5
2025-05-02T2100,1791A,124.902,46.408,大庆市,红岗区,,24,24,16,14,11,63,,104,96,27,9,6,6,0.3,0.3
2025-05-02T2100,1792A,125.153,46.586,大庆市,萨尔图区,颗粒物(PM10),64,77,33,28,13,26,,92,76,52,16,7,6,0.6,0.3
2025-05-02T2100,1793A,124.9042,46.6215,大庆市,让胡路区,,40,31,22,28,15,79,,96,92,15,8,6,6,0.4,0.3
2025-05-02T2100,3481A,125.141,46.634,大庆市,萨区政府监测点,,38,38,25,7,5,53,,100,89,30,11,5,6,0.4,0.4
2025-05-02T2100,1721A,113.3819,40.1097,大同市,果树场,,22,16,22,3,13,69,,88,83,9,10,5,5,0.2,0.3
2025-05-02T2100,1723A,113.2994,40.0758,大同市,云冈宾馆,,27,22,26,3,11,84,,96,90,11,13,10,9,0.5,0.6
2025-05-02T2100,1724A,113.3444,40.0917,大同市,大同大学,,24,17,28,12,9,74,,86,81,15,15,10,7,0.6,0.5
2025-05-02T2100,1725A,113.2661,40.1269,大同市,安家小村,,25,9,32,6,9,79,,88,84,9,14,17,18,0.1,0.3
2025-05-02T2100,1726A,113.2711,40.0844,大同市,教育学院,,28,,29,19,13,80,,92,87,12,13,9,10,0.3,0.4
2025-05-02T2100,3282A,113.3397,40.0597,大同市,大同市卫生学校,,,30,28,7,10,,,87,83,12,10,10,7,0.5,0.5
2025-05-02T2100,3565A,113.1367,40.1122,大同市,云冈站,,22,12,37,3,11,70,,82,81,13,11,14,15,0.5,0.5
2025-05-02T2100,3566A,113.1186,40.2556,大同市,图书馆,,21,13,26,3,10,66,,82,77,6,8,9,12,0.3,0.5
2025-05-02T2100,3567A,113.5931,40.0461,大同市,区一中,,40,34,30,28,12,58,,98,80,20,12,12,12,0.5,0.4
2025-05-02T2100,4199A,113.2798,40.0997,大同市,魏都大道141号,,27,16,34,7,11,85,,98,93,12,12,14,14,0.5,0.6
2025-05-02T2100,2269A,124.1069,50.4097,大兴安岭地区,科技局,,25,22,19,15,16,78,,92,89,5,4,4,4,0.3,0.3
2025-05-02T2100,3663A,124.1164,50.4278,大兴安岭地区,红旗社区,,24,,9,3,7,76,,92,88,1,5,4,5,0.3,0.3
2025-05-02T2100,1600A,124.3303,40.0625,丹东市,江湾东路,,30,30,27,16,18,67,,92,85,16,12,9,10,0.5,0.6
2025-05-02T2100,1601A,124.4256,40.1503,丹东市,临江后街,,43,43,26,23,15,49,,87,79,28,12,7,7,0.9,0.6
2025-05-02T2100,1602A,124.3933,40.1461,丹东市,元宝山,,27,27,25,16,15,68,,88,85,17,11,8,8,0.6,0.6
2025-05-02T2100,1603A,124.3633,40.1092,丹东市,民主桥,,36,36,33,16,16,66,,89,83,19,15,10,10,0.9,1
2025-05-02T2100,3541A,109.5726,19.5167,儋州市,第一中学子站,,27,27,16,15,10,68,,70,70,6,4,5,6,0.6,0.6
2025-05-02T2100,3542A,109.5567,19.5187,儋州市,东坡学校子站,,23,20,16,12,8,73,,78,77,5,3,4,4,0.6,0.5
2025-05-02T2100,2616A,98.5842,24.428,德宏傣族景颇族自治州,德宏州监测站,,27,27,19,18,12,57,,91,88,16,9,8,10,0.8,0.6
2025-05-02T2100,3677A,98.5881,24.4368,德宏傣族景颇族自治州,芒市人民政府综合楼,颗粒物(PM10),55,60,29,15,13,59,,98,95,14,9,5,5,0.6,0.5
2025-05-02T2100,1901A,104.4239,31.1208,德阳市,东山公园,颗粒物(PM10),59,67,61,27,32,134,,159,157,10,13,5,6,0.7,0.8
2025-05-02T2100,1902A,104.3826,31.1317,德阳市,西小区,颗粒物(PM10),60,69,70,35,38,122,,166,158,24,30,6,6,0.7,0.7
2025-05-02T2100,1904A,104.3553,31.1091,德阳市,耐火材料厂,颗粒物(PM10),67,84,72,42,38,112,,170,161,25,25,8,8,0.6,0.6
2025-05-02T2100,3639A,104.4019,31.1244,德阳市,市教育局,颗粒物(PM10),61,71,62,34,34,118,,170,160,24,27,7,7,0.6,0.6
2025-05-02T2100,1622A,116.3032,37.4674,德州市,儿童乐园,颗粒物(PM10),65,80,90,31,28,110,,159,144,9,16,6,9,0.4,0.5
2025-05-02T2100,1624A,116.2991,37.4451,德州市,监理站,,,48,85,17,24,109,,159,143,7,16,,20,0.3,0.5
2025-05-02T2100,3066A,116.2721,37.4379,德州市,九衢泉纯净水厂,颗粒物(PM10),67,83,79,34,28,105,,153,139,8,20,7,9,0.6,0.7
2025-05-02T2100,3371A,116.3728,37.4403,德州市,开发区人民医院,颗粒物(PM10),57,63,83,14,22,87,,145,135,25,19,5,8,0.5,0.6
2025-05-02T2100,3372A,116.3572,37.4094,德州市,太阳城中学,颗粒物(PM10),59,68,87,9,34,115,,163,149,9,24,4,8,0.6,0.4
2025-05-02T2100,3511A,116.5652,37.3319,德州市,陵城艺术中心,颗粒物(PM10),79,107,101,14,30,105,,160,148,13,22,3,9,0.2,0.2
2025-05-02T2100,2621A,99.7056,27.8317,迪庆藏族自治州,迪庆州站,,26,21,24,18,14,83,,103,99,12,10,5,4,0.4,0.4
2025-05-02T2100,3180A,99.7136,27.8094,迪庆藏族自治州,质量技术监督局,,27,22,20,3,11,85,,107,103,12,11,4,4,0.6,0.6
2025-05-02T2100,4257A,104.6092,35.5962,定西市,将台街,颗粒物(PM10),256,389,113,125,35,94,,129,118,6,25,4,7,0.0,0.1
2025-05-02T2100,4309A,104.6159,35.5701,定西市,正龙路62号,颗粒物(PM10),275,402,108,110,32,96,,130,119,5,13,8,11,0.2,0.3
2025-05-02T2100,1389A,113.7547,23.0494,东莞市,莞城梨川,,44,44,47,29,37,107,,167,161,27,21,6,7,0.7,0.7
2025-05-02T2100,1390A,113.7944,23.0128,东莞市,东城石井,,37,31,39,16,22,117,,154,147,18,19,4,4,0.7,0.8
2025-05-02T2100,1391A,113.7383,22.9658,东莞市,南城西平,,38,38,39,22,26,112,,173,165,29,24,3,3,0.5,0.6
2025-05-02T2100,3319A,113.7338,23.0381,东莞市,万江金泰,,44,44,42,26,29,97,,156,150,29,23,6,5,0.7,0.7
2025-05-02T2100,3626A,113.7533,23.0202,东莞市,南城元岭,,42,42,41,19,28,98,,163,156,29,20,4,3,0.7,0.7
2025-05-02T2100,3627A,113.7875,23.0457,东莞市,东城主山,,39,36,42,19,26,122,,159,157,18,19,4,4,0.4,0.5
2025-05-02T2100,1666A,118.6614,37.4309,东营市,市环保局,,34,27,47,9,13,106,,147,139,16,24,4,9,0.3,0.5
2025-05-02T2100,3036A,118.6904,37.4338,东营市,开发区管委会,,48,48,70,9,18,106,,140,136,14,22,4,8,0.3,0.5
2025-05-02T2100,3365A,118.5719,37.565,东营市,垦利区民丰路,,34,34,56,17,19,102,,139,129,4,14,4,7,0.7,0.8
2025-05-02T2100,3498A,118.5055,37.8612,东营市,河口城区,,39,39,55,3,14,89,,133,121,22,19,7,6,0.8,0.8
2025-05-02T2100,3646A,118.4978,37.4623,东营市,胜利站,,40,40,62,14,17,91,,127,120,17,25,7,11,0.7,0.8
2025-05-02T2100,3734A,118.35,37.26,东营市,理想之城,,46,46,60,12,19,98,,142,133,14,20,4,8,0.5,0.6
2025-05-02T2100,1591A,110.0023,39.8129,鄂尔多斯市,综合楼,,31,31,97,9,21,80,,98,94,15,29,5,9,0.3,0.4
2025-05-02T2100,1592A,109.9486,39.8261,鄂尔多斯市,巴音孟克林场办事处,,31,31,82,17,28,79,,102,97,17,26,7,11,0.3,0.4
2025-05-02T2100,1593A,109.7736,39.5986,鄂尔多斯市,康泽苑,,29,29,84,7,25,86,,103,99,9,20,6,6,0.4,0.5
2025-05-02T2100,1594A,109.8119,39.5989,鄂尔多斯市,华泰汽车城,,25,19,78,7,20,80,,99,94,13,28,5,7,0.2,0.4
2025-05-02T2100,1595A,109.9734,39.7884,鄂尔多斯市,奥林花园,,34,34,82,9,19,81,,101,96,15,30,5,7,0.4,0.5
2025-05-02T2100,2436A,114.8938,30.3994,鄂州市,市政府,颗粒物(PM10),57,64,67,28,31,120,,157,150,19,25,9,12,0.5,0.5
2025-05-02T2100,2437A,114.8989,30.3714,鄂州市,赵家坝,颗粒物(PM10),56,62,62,25,22,108,,168,154,11,8,5,7,0.7,0.8
2025-05-02T2100,3654A,114.8094,30.4089,鄂州市,精准医疗中心,颗粒物(PM10),61,71,60,38,27,90,,156,145,17,22,10,9,1.0,0.7
2025-05-02T2100,2454A,109.4978,30.2981,恩施土家族苗族自治州,湖北民院,颗粒物(PM10),73,95,119,37,45,67,,110,103,19,12,10,7,0.5,0.4
2025-05-02T2100,2455A,109.4707,30.2798,恩施土家族苗族自治州,州电力总公司,颗粒物(PM10),66,81,101,38,43,55,,112,105,32,18,6,5,0.3,0.3
2025-05-02T2100,3549A,109.5061,30.3772,恩施土家族苗族自治州,龙凤新区,颗粒物(PM10),80,109,109,35,42,52,,108,98,16,9,6,6,0.5,0.5
2025-05-02T2100,2499A,108.3411,21.6158,防城港市,沙万,,32,,37,22,21,74,,90,87,5,12,3,5,0.6,0.7
2025-05-02T2100,2500A,108.3514,21.7731,防城港市,防城档案局,,42,,49,29,27,86,,110,104,11,14,7,4,0.6,0.9
2025-05-02T2100,2501A,108.3506,21.6414,防城港市,大海花园,,29,28,36,16,19,90,,112,105,5,9,3,7,0.5,0.7
2025-05-02T2100,1371A,113.1294,23.0067,佛山市,湾梁,,39,39,47,22,24,122,,165,158,17,21,8,9,0.7,0.7
2025-05-02T2100,1372A,113.1083,23.0478,佛山市,华材职中,,44,44,49,27,31,130,,176,170,19,26,8,8,0.6,0.6
2025-05-02T2100,1373A,113.144,23.0453,佛山市,南海气象局,颗粒物(PM10),51,51,49,29,26,114,,161,154,18,20,2,3,0.6,0.6
2025-05-02T2100,1374A,113.2881,22.8094,佛山市,顺德苏岗,颗粒物(PM10),52,54,43,24,23,127,,176,163,11,17,6,6,0.5,0.6
2025-05-02T2100,1376A,112.8383,22.8678,佛山市,高明孔堂,,46,46,40,22,28,129,,168,162,9,13,5,6,0.6,0.6
2025-05-02T2100,1377A,112.8836,23.1588,佛山市,三水监测站,,48,48,59,22,35,101,,162,152,34,33,2,6,0.5,0.6
2025-05-02T2100,1378A,112.867,23.185,佛山市,三水云东海,颗粒物(PM10),55,60,68,20,40,118,,181,170,28,27,2,3,0.5,0.6
2025-05-02T2100,3625A,113.2544,22.7642,佛山市,容桂街道办,,39,39,35,24,26,118,,161,150,20,21,5,5,0.8,0.7
2025-05-02T2100,1280A,119.3903,26.0543,福州市,鼓山,,,,39,,20,,,105,,,4,,2,,0.3
2025-05-02T2100,1282A,119.2681,26.0504,福州市,师大,颗粒物(PM10),59,67,46,28,24,150,,154,154,10,13,4,5,0.5,0.5
2025-05-02T2100,1283A,119.2984,26.1028,福州市,五四北路,颗粒物(PM10),58,65,41,27,29,115,,150,147,23,22,4,4,0.5,0.6
2025-05-02T2100,1284A,119.2648,26.0768,福州市,杨桥西路,颗粒物(PM10),57,63,52,27,26,130,,154,152,14,15,4,4,0.3,0.4
2025-05-02T2100,1285A,119.317,26.0746,福州市,紫阳,颗粒物(PM10),62,73,52,25,27,102,,141,136,60,26,6,6,0.4,0.5
2025-05-02T2100,3048A,119.5799,26.0936,福州市,九龙,,43,43,42,24,26,108,,147,140,7,13,3,4,0.3,0.4
2025-05-02T2100,3526A,119.5189,25.9664,福州市,吴航,颗粒物(PM10),51,51,44,25,28,140,,155,154,8,18,4,4,0.5,0.6
2025-05-02T2100,1755A,123.7977,41.8491,抚顺市,望花区,,47,47,43,14,25,69,,89,85,26,23,20,11,0.6,0.8
2025-05-02T2100,1756A,123.9161,41.8822,抚顺市,顺城区,,42,42,38,15,19,72,,90,87,26,28,12,9,0.5,0.6
2025-05-02T2100,1757A,124.0436,41.8611,抚顺市,东洲区,,44,44,24,15,14,68,,88,83,20,15,12,8,0.7,0.6
2025-05-02T2100,1758A,123.9247,41.8642,抚顺市,新抚区,,39,39,33,17,19,69,,87,84,18,16,10,9,0.8,0.7
2025-05-02T2100,1759A,124.0972,41.8961,抚顺市,大伙房水库,颗粒物(PM10),52,54,24,9,14,73,,93,89,17,10,19,10,0.9,0.7
2025-05-02T2100,1760A,123.7086,41.8391,抚顺市,沈抚新城,,43,43,52,14,25,60,,87,83,31,30,11,11,0.4,0.9
2025-05-02T2100,2376A,116.2127,28.0814,抚州市,桐源党溪,颗粒物(PM10),55,60,50,36,23,64,,116,102,3,3,4,4,0.3,0.4
2025-05-02T2100,2377A,116.3544,27.9831,抚州市,市站,,,,53,,22,28,,96,83,,9,,3,,0.9
2025-05-02T2100,2378A,116.3565,27.963,抚州市,血防站,颗粒物(PM10),56,61,51,26,21,70,,100,95,27,7,2,2,0.7,0.5
2025-05-02T2100,2379A,116.3564,28.0007,抚州市,采茶剧团,,50,50,49,24,24,80,,94,90,10,6,2,1,0.5,0.2
2025-05-02T2100,2380A,116.385,27.9647,抚州市,医学分院,颗粒物(PM10),53,56,49,28,21,69,,103,99,13,5,3,4,0.9,0.7
2025-05-02T2100,2207A,121.6094,41.998,阜新市,工业园区,,34,34,43,12,22,86,,94,93,10,20,13,21,0.5,0.6
2025-05-02T2100,2208A,121.6697,42.0279,阜新市,长青街,,26,24,33,13,20,83,,90,90,14,25,12,22,0.5,0.6
2025-05-02T2100,2209A,121.6673,42.0705,阜新市,农业园区,,32,32,35,9,12,79,,89,89,11,14,11,19,0.5,0.5
2025-05-02T2100,2210A,121.6717,42.0224,阜新市,东苑,,29,29,47,20,24,87,,90,90,11,23,13,30,0.5,0.7
2025-05-02T2100,2211A,121.6506,42.0498,阜新市,玉龙新城,,30,30,40,18,18,82,,94,93,13,24,13,18,0.6,0.6
2025-05-02T2100,2301A,115.8277,32.8929,阜阳市,市监测站,颗粒物(PM10),75,99,85,37,32,140,,154,152,8,15,8,8,0.2,0.3
2025-05-02T2100,2303A,115.8554,32.8605,阜阳市,开发区,颗粒物(PM10),81,112,107,27,28,143,,159,157,12,16,7,8,0.1,0.2
2025-05-02T2100,2875A,115.784,32.8892,阜阳市,阜阳职业技术学院,颗粒物(PM10),69,88,90,37,36,148,,147,,8,11,5,6,0.3,0.3
2025-05-02T2100,3468A,115.7901,32.8613,阜阳市,市规划展馆,颗粒物(PM10),65,80,97,33,33,148,,168,165,8,10,7,8,0.3,0.3
2025-05-02T2100,3469A,115.836,32.9183,阜阳市,枣园社区,颗粒物(PM10),72,93,94,33,31,144,,159,156,8,19,8,9,0.4,0.4
2025-05-02T2100,2669A,102.9099,34.9841,甘南藏族自治州,州政府,颗粒物(PM10),283,408,74,97,26,70,,94,90,2,18,7,7,0.3,0.3
2025-05-02T2100,3380A,102.8914,34.9617,甘南藏族自治州,甘肃民族师范学院,颗粒物(PM10),242,379,78,90,21,78,,102,99,9,24,7,7,0.3,0.4
2025-05-02T2100,2570A,101.9603,30.0475,甘孜藏族自治州,水桥子,,27,21,28,9,9,84,,82,80,7,25,5,5,0.2,0.2
2025-05-02T2100,3065A,101.9533,29.9972,甘孜藏族自治州,州环保局,,,8,27,3,6,,,103,99,8,14,2,1,0.1,0.5
2025-05-02T2100,3414A,115.8347,28.932,赣江新区,桑海产业园,颗粒物(PM10),60,70,53,22,22,100,,155,147,23,10,6,6,0.3,0.3
2025-05-02T2100,2362A,114.9017,25.9149,赣州市,通天岩,颗粒物(PM10),56,62,45,3,7,110,,138,128,4,5,5,3,0.9,0.9
2025-05-02T2100,2363A,114.9367,25.8664,赣州市,地委,颗粒物(PM10),53,56,44,26,24,96,,135,127,19,11,2,7,1.1,1.1
2025-05-02T2100,2364A,114.9461,25.8481,赣州市,气象台,颗粒物(PM10),55,60,49,22,21,102,,137,130,13,14,10,11,0.3,0.3
2025-05-02T2100,2365A,114.9322,25.8333,赣州市,市图书馆,颗粒物(PM10),52,54,46,30,25,89,,128,120,15,11,4,6,0.5,0.5
2025-05-02T2100,2366A,114.8905,25.8471,赣州市,华坚鞋城,,,65,49,22,22,,,139,135,,10,,6,,0.5
2025-05-02T2100,3109A,115.0093,25.8613,赣州市,赣县区卫计委,颗粒物(PM10),58,65,45,36,25,69,,123,114,20,11,3,3,1.0,1
2025-05-02T2100,2683A,106.2319,36.1417,固原市,马园,颗粒物(PM10),500,882,205,181,56,96,,122,104,10,27,5,5,0.6,0.6
2025-05-02T2100,2684A,106.2792,36.0022,固原市,监测站,颗粒物(PM10),500,769,169,203,51,96,,117,104,8,11,5,6,0.3,0.3
2025-05-02T2100,2685A,106.2375,36.0211,固原市,新区,颗粒物(PM10),500,748,148,166,42,92,,111,99,6,11,5,6,0.5,0.4
2025-05-02T2100,3522A,106.2177,35.9959,固原市,原州区十五小,颗粒物(PM10),483,583,123,196,44,,,119,108,6,6,8,9,0.3,0.3
2025-05-02T2100,2543A,106.6308,30.5278,广安市,小平旧居,,,,,,,,,,,,,,,,
2025-05-02T2100,2544A,106.6303,30.4576,广安市,市委,颗粒物(PM10),101,152,100,70,42,21,,144,115,81,30,6,6,1.3,0.6
2025-05-02T2100,2545A,106.6271,30.4663,广安市,友谊中学,颗粒物(PM10),75,100,75,50,36,48,,154,131,53,30,4,4,0.9,0.7
2025-05-02T2100,2547A,106.6388,30.4551,广安市,广电花园,,,105,78,59,39,,,149,132,109,32,8,6,1.2,0.6
2025-05-02T2100,2902A,106.6351,30.4865,广安市,北辰小学,颗粒物(PM10),68,86,79,40,36,69,,153,136,28,19,8,6,0.6,0.5
2025-05-02T2100,2523A,105.8945,32.4535,广元市,黑石坡,颗粒物(PM10),54,58,64,27,15,132,,135,134,7,11,3,5,0.2,0.4
2025-05-02T2100,2524A,105.821,32.4444,广元市,老城,颗粒物(PM10),61,71,58,29,22,80,,147,135,35,21,3,7,0.5,0.6
2025-05-02T2100,2526A,105.8628,32.4287,广元市,监测站,,46,46,45,18,19,130,,150,145,6,10,4,7,0.4,0.5
2025-05-02T2100,3617A,105.8047,32.4166,广元市,经开区,颗粒物(PM10),60,69,74,37,42,106,,150,143,32,22,5,22,0.5,0.8
2025-05-02T2100,1345A,113.2347,23.1423,广州市,广雅中学,颗粒物(PM10),51,52,49,27,27,137,,178,174,12,16,4,4,0.9,0.9
2025-05-02T2100,1346A,113.2612,23.105,广州市,市五中,,48,48,45,24,28,129,,170,167,9,14,2,2,0.9,0.9
2025-05-02T2100,1348A,113.3478,23.0916,广州市,广东商学院,,46,46,49,25,30,127,,182,176,18,30,4,4,0.6,0.8
2025-05-02T2100,1349A,113.4332,23.1047,广州市,市八十六中,,45,45,53,20,28,130,,188,184,20,37,3,3,0.7,0.8
2025-05-02T2100,1350A,113.3505,22.9483,广州市,番禺中学,,45,36,44,31,30,125,,181,175,16,20,6,6,0.7,0.8
2025-05-02T2100,1351A,113.2146,23.3916,广州市,花都师范,颗粒物(PM10),53,55,50,22,31,128,,168,165,29,27,5,5,0.8,0.8
2025-05-02T2100,1352A,113.2597,23.1331,广州市,市监测站,,,53,46,27,26,,,146,146,20,24,6,6,0.6,0.8
2025-05-02T2100,1353A,113.5618,23.312,广州市,九龙镇镇龙,颗粒物(PM10),53,55,53,24,28,122,,150,150,28,22,6,5,0.6,0.6
2025-05-02T2100,1354A,113.2765,23.1544,广州市,麓湖,,47,47,46,24,25,134,,170,168,18,23,6,5,0.6,0.7
2025-05-02T2100,1355A,113.443,23.3035,广州市,帽峰山森林公园,,43,43,42,24,23,135,,157,157,15,9,8,6,0.8,0.7
2025-05-02T2100,2846A,113.3221,23.1322,广州市,体育西,,49,49,47,21,28,121,,170,166,23,28,5,5,0.5,0.6
2025-05-02T2100,3298A,113.5717,23.5491,广州市,从化街口,颗粒物(PM10),64,78,47,36,26,159,,137,137,24,15,8,6,0.6,0.6
2025-05-02T2100,3299A,113.3472,23.3692,广州市,白云竹料,颗粒物(PM10),54,57,55,27,30,152,,170,170,18,20,3,3,0.6,0.8
2025-05-02T2100,3300A,113.2981,23.237,广州市,白云嘉禾,颗粒物(PM10),54,57,53,29,33,139,,172,171,25,30,6,6,0.7,0.8
2025-05-02T2100,3301A,113.4256,23.1716,广州市,黄埔科学城,,50,50,47,26,28,124,,160,160,13,17,2,2,0.6,0.6
2025-05-02T2100,3302A,113.3942,23.0483,广州市,番禺大学城,,42,36,45,22,26,132,,189,182,20,28,6,7,0.6,0.7
2025-05-02T2100,3303A,113.4922,22.8168,广州市,南沙黄阁,,37,34,49,18,29,116,,169,158,12,22,6,6,0.8,0.9
2025-05-02T2100,3304A,113.5342,22.7896,广州市,南沙街,,42,42,44,20,27,119,,177,164,14,17,5,5,0.8,0.8
2025-05-02T2100,3443A,113.2902,23.5544,广州市,花都梯面,颗粒物(PM10),58,65,46,31,25,165,,135,135,18,15,5,5,0.7,0.7
2025-05-02T2100,3445A,113.7858,23.7478,广州市,从化良口,,,59,36,30,22,,,99,93,18,8,7,7,0.6,0.4
2025-05-02T2100,3446A,113.8051,23.2614,广州市,增城荔城,颗粒物(PM10),51,52,45,24,28,115,,152,152,17,11,8,7,0.4,0.4
2025-05-02T2100,2505A,109.568,23.1478,贵港市,德智高中,,,,,,,,,,,,,,,,
2025-05-02T2100,2506A,109.6047,23.0666,贵港市,江南子站,,40,36,56,28,36,87,,131,106,11,31,3,6,0.7,1
2025-05-02T2100,2508A,109.5669,23.1065,贵港市,荷城子站,,41,41,45,19,22,77,,121,100,13,25,4,6,0.4,0.5
2025-05-02T2100,3405A,109.5886,23.1172,贵港市,新世纪学校,,35,29,39,24,25,87,,128,108,17,20,7,6,0.9,0.9
2025-05-02T2100,4260A,109.5933,23.0951,贵港市,中山路155-3号,,43,39,56,30,37,94,,138,114,14,29,4,5,0.6,0.8
2025-05-02T2100,1439A,106.6899,26.5998,贵阳市,马鞍山,,31,31,46,7,15,65,,126,116,13,17,4,5,0.6,0.6
2025-05-02T2100,1441A,106.6243,26.6266,贵阳市,鉴湖路,颗粒物(PM10),53,56,66,19,26,104,,132,128,15,27,6,6,0.3,0.4
2025-05-02T2100,1442A,106.7487,26.6343,贵阳市,燕子冲,,44,44,58,19,29,86,,136,128,18,22,3,3,0.2,0.2
2025-05-02T2100,1443A,106.6555,26.4365,贵阳市,碧云窝,颗粒物(PM10),54,58,72,19,28,103,,128,124,15,15,6,6,0.4,0.4
2025-05-02T2100,1445A,106.7109,26.6027,贵阳市,红边门,颗粒物(PM10),52,53,63,29,30,77,,131,123,42,29,4,4,0.3,0.3
2025-05-02T2100,1446A,106.7164,26.5699,贵阳市,新华路,颗粒物(PM10),51,51,62,24,29,90,,128,120,21,25,18,23,0.3,0.4
2025-05-02T2100,1447A,106.674,26.5424,贵阳市,太慈桥,,46,46,57,19,24,87,,121,115,27,27,7,7,0.2,0.3
2025-05-02T2100,1552A,106.805,26.3003,贵阳市,桐木岭,颗粒物(PM10),58,66,74,29,34,104,,130,126,2,3,1,3,0.6,0.6
2025-05-02T2100,4230A,106.6882,26.5695,贵阳市,花果园大街66号,颗粒物(PM10),53,56,71,27,37,89,,121,117,30,37,5,6,0.4,0.6
2025-05-02T2100,4231A,106.6873,26.5169,贵阳市,漓江路57号,,39,39,66,17,31,91,,125,119,13,26,10,10,0.3,0.5
2025-05-02T2100,1862A,110.4144,25.3167,桂林市,电子科大尧山校区,,,,,,,,,,,,,,,,
2025-05-02T2100,1864A,110.3089,25.2708,桂林市,龙隐路小学,颗粒物(PM10),55,60,71,35,26,79,,125,118,19,12,10,16,0.7,0.5
2025-05-02T2100,1865A,110.2869,25.2178,桂林市,八中,颗粒物(PM10),65,79,79,28,24,68,,119,110,20,17,1,3,0.7,0.6
2025-05-02T2100,3531A,110.296,25.1253,桂林市,旅游学院,颗粒物(PM10),57,63,66,29,27,80,,122,116,19,16,7,6,0.7,0.6
2025-05-02T2100,4222A,110.1835,25.2444,桂林市,环湖路276号,颗粒物(PM10),65,80,76,36,32,69,,108,103,17,26,7,12,0.4,0.4
2025-05-02T2100,4301A,110.2803,25.2773,桂林市,信义路13号,颗粒物(PM10),64,77,77,42,29,56,,128,116,37,18,3,9,0.6,0.4
2025-05-02T2100,2674A,100.2561,34.4714,果洛藏族自治州,玛沁县大武镇,,49,49,36,20,14,111,,128,126,3,6,23,23,0.4,0.4
2025-05-02T2100,1129A,126.5422,45.755,哈尔滨市,岭北,,44,44,28,29,20,82,,106,102,27,17,11,12,0.8,0.9
2025-05-02T2100,1130A,126.561,45.8167,哈尔滨市,松北商大,细颗粒物(PM2.5),65,66,32,47,21,28,,98,86,69,17,6,5,0.7,0.5
2025-05-02T2100,1131A,126.979,45.5419,哈尔滨市,阿城会宁,颗粒物(PM10),52,53,27,25,19,67,,100,93,29,14,5,6,0.6,0.5
2025-05-02T2100,1132A,126.599,45.7222,哈尔滨市,南岗学府路,颗粒物(PM10),71,92,41,37,17,74,,100,96,29,18,8,8,0.5,0.4
2025-05-02T2100,1133A,126.689,45.7733,哈尔滨市,太平宏伟公园,"颗粒物(PM10),细颗粒物(PM2.5)",55,60,38,39,25,86,,104,103,28,25,5,5,0.6,0.5
2025-05-02T2100,1134A,126.635,45.7667,哈尔滨市,道外承德广场,细颗粒物(PM2.5),67,62,33,48,25,59,,99,95,50,22,6,6,0.7,0.5
2025-05-02T2100,1135A,126.685,45.7319,哈尔滨市,香坊红旗大街,细颗粒物(PM2.5),84,70,42,62,29,79,,105,102,32,23,8,8,0.7,0.4
2025-05-02T2100,1136A,126.6411,45.7258,哈尔滨市,动力和平路,细颗粒物(PM2.5),64,48,36,46,22,73,,95,92,31,21,6,7,0.4,0.4
2025-05-02T2100,1137A,126.593,45.7478,哈尔滨市,道里建国路,细颗粒物(PM2.5),70,,32,51,23,67,,98,94,36,22,4,4,0.7,0.6
2025-05-02T2100,1138A,126.615,45.61,哈尔滨市,平房东轻厂,,46,46,30,24,19,42,,103,90,53,14,13,8,0.5,0.4
2025-05-02T2100,1139A,126.595,45.9855,哈尔滨市,呼兰师专,细颗粒物(PM2.5),78,76,43,57,30,60,,95,89,41,26,8,7,0.5,0.4
2025-05-02T2100,1140A,126.6206,45.6842,哈尔滨市,省农科院,细颗粒物(PM2.5),97,95,48,72,26,21,,91,78,69,25,9,6,0.7,0.5
2025-05-02T2100,2688A,93.5128,42.8172,哈密市,地区监测站,细颗粒物(PM2.5),200,273,268,150,66,,,98,98,13,8,5,3,0.3,0.3
2025-05-02T2100,2689A,93.4961,42.8328,哈密市,哈密师范学校,颗粒物(PM10),152,253,334,53,58,80,,90,90,10,9,4,5,0.1,0.2
2025-05-02T2100,2671A,100.9048,36.9639,海北藏族自治州,海晏县西海镇,颗粒物(PM10),54,57,29,23,16,99,,106,106,5,4,11,10,0.4,0.3
2025-05-02T2100,3867A,102.0738,36.5056,海东市,平安区公安北苑,颗粒物(PM10),434,534,73,135,25,72,,107,101,6,12,8,9,0.4,0.5
2025-05-02T2100,1409A,110.576,19.9507,海口市,东寨港,,,,18,,9,,,52,,,4,,4,,0.7
2025-05-02T2100,1410A,110.3232,20.0574,海口市,海南大学,,23,23,19,15,12,51,,81,69,6,13,2,2,0.4,0.4
2025-05-02T2100,1411A,110.283,20.0053,海口市,秀英海南医院,,25,22,22,17,15,39,,81,72,18,18,4,4,0.4,0.4
2025-05-02T2100,1412A,110.338,19.9969,海口市,海南师范大学,,23,23,21,15,13,51,,83,74,24,12,4,4,0.5,0.4
2025-05-02T2100,1413A,110.33,20.0356,海口市,龙华路环保局宿舍,,26,26,18,15,12,50,,85,73,9,13,4,4,0.4,0.4
2025-05-02T2100,3539A,110.5111,19.9736,海口市,桂林洋子站,,29,29,25,15,13,46,,83,70,11,11,3,4,0.3,0.3
2025-05-02T2100,2673A,100.6188,36.2866,海南藏族自治州,共和县恰卜恰镇,颗粒物(PM10),56,61,46,9,18,76,,111,107,34,16,13,13,0.4,0.4
2025-05-02T2100,2676A,97.3731,37.3753,海西蒙古族藏族自治州,德令哈市,颗粒物(PM10),58,66,46,13,16,117,,117,117,1,2,11,12,0.3,0.4
2025-05-02T2100,1048A,114.5302,36.6116,邯郸市,东污水处理厂,颗粒物(PM10),64,77,76,7,23,115,,140,137,12,20,4,8,0.4,0.5
2025-05-02T2100,1049A,114.4918,36.5713,邯郸市,矿院,颗粒物(PM10),117,183,90,19,25,110,,132,130,9,19,4,8,0.4,0.4
2025-05-02T2100,1050A,114.484,36.6133,邯郸市,丛台公园,颗粒物(PM10),74,98,87,24,30,121,,146,144,10,16,3,6,0.3,0.4
2025-05-02T2100,3458A,114.7895,36.5593,邯郸市,香泉濮院小区,颗粒物(PM10),93,135,110,14,20,115,,141,138,10,13,4,7,0.2,0.3
2025-05-02T2100,3579A,114.50634,36.77178,邯郸市,永年区实验高中,颗粒物(PM10),107,164,107,50,35,116,,140,138,10,25,5,8,0.3,0.3
2025-05-02T2100,3580A,114.20016,36.44293,邯郸市,峰峰矿区临水派出所,,,139,81,18,32,,,118,,8,16,9,14,0.2,0.5
2025-05-02T2100,2634A,106.9893,33.1842,汉中市,汉川机床厂子校,细颗粒物(PM2.5),53,48,61,37,39,128,,169,161,7,9,8,9,0.6,0.6
2025-05-02T2100,2635A,107.0154,33.0706,汉中市,市监测站,颗粒物(PM10),56,62,71,35,26,113,,163,154,12,13,6,6,0.6,0.6
2025-05-02T2100,2636A,107.0089,33.1138,汉中市,鑫源开发区,细颗粒物(PM2.5),53,54,64,37,27,97,,156,145,16,12,5,9,0.5,0.6
2025-05-02T2100,2637A,107.007,33.0323,汉中市,南郑大河坎水厂,,49,49,63,30,32,111,,157,146,11,13,4,5,0.6,0.6
2025-05-02T2100,1223A,120.2072,30.2111,杭州市,滨江,颗粒物(PM10),56,61,62,35,25,128,,165,161,24,26,7,7,0.6,0.6
2025-05-02T2100,1224A,120.0633,30.2747,杭州市,西溪,,30,30,36,14,22,83,,142,128,20,21,5,5,0.4,0.4
2025-05-02T2100,1226A,120.3417,30.3150,杭州市,下沙,颗粒物(PM10),52,53,63,24,27,125,,172,166,27,28,11,11,0.4,0.4
2025-05-02T2100,1227A,120.1269,30.2456,杭州市,卧龙桥,,43,43,49,24,26,39,,145,119,38,20,6,7,0.6,0.6
2025-05-02T2100,1228A,120.1903,30.2692,杭州市,浙江农大,颗粒物(PM10),58,66,67,38,29,95,,151,144,39,34,10,10,0.3,0.3
2025-05-02T2100,1230A,120.1197,30.3119,杭州市,和睦小学,,45,45,52,24,24,105,,147,139,19,20,7,7,0.5,0.5
2025-05-02T2100,1231A,120.3019,30.4183,杭州市,临平镇,颗粒物(PM10),55,60,66,20,24,132,,169,165,25,24,6,7,0.4,0.4
2025-05-02T2100,1232A,120.2753,30.1839,杭州市,城厢镇,,,48,56,22,28,,,168,165,28,24,7,8,0.5,0.5
2025-05-02T2100,1233A,120.0883,30.1808,杭州市,云栖,,41,41,50,16,19,51,,132,113,44,36,5,6,0.5,0.6
2025-05-02T2100,3557A,119.9464,30.0494,杭州市,镇二中,颗粒物(PM10),56,62,46,26,25,60,,129,114,55,31,4,4,0.5,0.5
2025-05-02T2100,3558A,119.7183,30.2367,杭州市,市府大楼,颗粒物(PM10),56,62,42,34,24,74,,139,126,30,19,8,8,0.6,0.4
2025-05-02T2100,3656A,120.1556,30.2864,杭州市,消防大队,颗粒物(PM10),51,51,53,29,27,96,,149,140,33,27,4,5,0.5,0.5
2025-05-02T2100,1270A,117.1959,31.7848,合肥市,明珠广场,颗粒物(PM10),51,51,62,22,23,146,,154,151,9,17,7,7,0.3,0.3
2025-05-02T2100,1271A,117.3072,31.8764,合肥市,三里街,颗粒物(PM10),67,83,72,19,23,131,,143,140,13,31,6,6,0.5,0.5
2025-05-02T2100,1272A,117.2588,31.8707,合肥市,琥珀山庄,颗粒物(PM10),56,61,69,27,27,140,,153,149,12,24,4,4,0.5,0.5
2025-05-02T2100,1273A,117.1604,31.9052,合肥市,董铺水库,颗粒物(PM10),60,70,69,19,19,131,,133,123,7,15,1,2,0.4,0.3
2025-05-02T2100,1274A,117.25,31.8571,合肥市,长江中路,颗粒物(PM10),57,63,69,30,27,138,,148,144,11,20,9,9,0.5,0.5
2025-05-02T2100,1275A,117.266,31.9436,合肥市,庐阳区,颗粒物(PM10),54,58,68,27,25,137,,154,149,11,22,10,9,0.3,0.2
2025-05-02T2100,1276A,117.3453,31.8616,合肥市,瑶海区,颗粒物(PM10),52,53,77,22,21,130,,139,135,10,29,7,7,0.3,0.3
2025-05-02T2100,1277A,117.3027,31.7964,合肥市,包河区,颗粒物(PM10),57,63,71,22,23,139,,149,147,13,29,8,7,0.4,0.4
2025-05-02T2100,1278A,117.2776,31.7385,合肥市,滨湖新区,颗粒物(PM10),53,56,61,27,28,133,,141,139,12,16,9,8,0.5,0.5
2025-05-02T2100,1279A,117.1318,31.8403,合肥市,高新区,颗粒物(PM10),52,53,65,22,21,139,,146,143,11,18,3,3,0.4,0.3
2025-05-02T2100,3464A,117.3803,31.9147,合肥市,高教基地,颗粒物(PM10),54,58,71,24,27,133,,155,149,4,14,7,7,0.4,0.4
2025-05-02T2100,3614A,79.924,37.0877,和田地区,地区环保局,颗粒物(PM10),133,215,216,50,46,96,,94,94,12,14,1,3,0.4,0.3
2025-05-02T2100,3615A,79.9131,37.113,和田地区,市环保局,颗粒物(PM10),109,168,180,54,57,82,,96,96,24,23,3,2,0.2,0.3
2025-05-02T2100,2516A,108.2011,24.715,河池市,东仁乐园,,,,,,,,,,,,,,,,
2025-05-02T2100,2517A,108.0497,24.6947,河池市,市环保站,,36,28,44,17,18,114,,130,128,6,12,8,9,0.6,0.5
2025-05-02T2100,2518A,108.0983,24.6989,河池市,市疾控中心,,42,42,51,22,22,105,,133,131,25,25,10,11,0.6,0.5
2025-05-02T2100,1696A,114.6778,23.7569,河源市,源西,,40,38,42,28,25,126,,112,112,13,18,4,4,0.6,0.7
2025-05-02T2100,1697A,114.6944,23.7586,河源市,东埔,,,83,34,26,23,132,,125,125,,16,,4,0.8,0.9
2025-05-02T2100,1698A,114.6892,23.7233,河源市,老城,,47,47,42,25,24,130,,120,120,9,12,4,4,0.5,0.5
2025-05-02T2100,1718A,115.4208,35.2464,菏泽市,气象局,细颗粒物(PM2.5),100,93,138,75,43,136,,156,155,12,14,6,7,0.5,0.4
2025-05-02T2100,3374A,115.5564,35.0891,菏泽市,定陶老年大学,颗粒物(PM10),58,66,116,34,30,132,,146,146,12,13,4,6,0.7,0.5
2025-05-02T2100,4184A,115.4797,35.24401,菏泽市,永昌路1号,细颗粒物(PM2.5),70,81,127,51,49,138,,156,156,11,12,5,7,0.4,0.3
2025-05-02T2100,4193A,115.4715,35.2800,菏泽市,长城路999号,颗粒物(PM10),59,68,117,35,32,127,,149,148,16,17,8,10,0.4,0.3
2025-05-02T2100,2514A,111.5264,24.4172,贺州市,环保小区,细颗粒物(PM2.5),54,51,50,38,22,98,,119,117,9,13,4,7,0.8,0.7
2025-05-02T2100,2515A,111.5608,24.4078,贺州市,政协大楼,,50,50,44,20,23,90,,124,119,17,15,9,7,0.6,0.5
2025-05-02T2100,3534A,111.4744,24.4553,贺州市,西湾,细颗粒物(PM2.5),52,46,49,36,26,94,,128,123,16,16,8,7,0.7,0.7
2025-05-02T2100,2385A,114.17,35.9019,鹤壁市,市监测站,颗粒物(PM10),97,144,88,58,40,125,,157,151,19,18,5,6,0.8,0.7
2025-05-02T2100,2386A,114.2956,35.7511,鹤壁市,市交警支队,颗粒物(PM10),93,136,90,39,30,135,,158,155,20,21,10,9,0.8,0.7
2025-05-02T2100,2387A,114.2878,35.7306,鹤壁市,迎宾馆,细颗粒物(PM2.5),124,168,114,94,43,137,,162,158,15,15,6,6,0.7,0.6
2025-05-02T2100,3474A,114.2617,35.6822,鹤壁市,大新区,颗粒物(PM10),109,167,93,47,36,132,,159,154,16,21,9,10,0.8,0.6
2025-05-02T2100,3596A,114.1572,35.9603,鹤壁市,南山宾馆,颗粒物(PM10),130,209,105,59,49,131,,158,150,12,18,6,10,0.6,0.7
2025-05-02T2100,2244A,130.2537,47.3416,鹤岗市,哈啤分公司,,29,,24,20,22,83,,95,88,3,6,15,14,0.3,0.3
2025-05-02T2100,2245A,130.2684,47.3086,鹤岗市,斯达机电,,29,29,35,18,25,80,,92,88,5,9,11,12,0.2,0.2
2025-05-02T2100,2246A,130.3114,47.3388,鹤岗市,东山纸板厂,,25,24,38,17,27,77,,93,85,9,13,12,12,0.1,0.3
2025-05-02T2100,2247A,130.1097,47.3382,鹤岗市,五号水库,,,,,,,,,,,,,,,,
2025-05-02T2100,2263A,127.4833,50.2524,黑河市,交通局,,28,28,20,15,15,67,,85,80,8,8,7,7,0.2,0.4
2025-05-02T2100,2264A,127.5144,50.2341,黑河市,环保局,,25,25,19,15,16,66,,91,85,13,10,3,5,0.2,0.2
2025-05-02T2100,2265A,127.5291,50.2472,黑河市,大黑河岛,,20,15,14,7,10,62,,77,52,20,12,2,2,0.3,0.3
2025-05-02T2100,1074A,115.6838,37.7541,衡水市,电机北厂,颗粒物(PM10),52,54,81,21,31,106,,158,145,11,15,1,7,0.3,0.4
2025-05-02T2100,1075A,115.6303,37.7316,衡水市,市监测站,颗粒物(PM10),52,54,73,11,19,107,,157,145,10,14,9,12,0.4,0.4
2025-05-02T2100,3188A,115.6683,37.7217,衡水市,市城管局,,48,48,77,21,28,108,,159,147,8,16,4,7,0.3,0.4
2025-05-02T2100,3459A,115.5989,37.5491,衡水市,地表水厂,,49,49,91,13,25,111,,163,150,8,18,6,9,0.3,0.4
2025-05-02T2100,2456A,112.5003,26.9167,衡阳市,原169医院,,,,63,,29,,,139,132,22,14,3,10,0.5,0.4
2025-05-02T2100,2457A,112.6194,26.9258,衡阳市,衡阳化工总厂,颗粒物(PM10),101,152,80,69,36,83,,133,125,23,16,13,10,0.6,0.5
2025-05-02T2100,2458A,112.6211,26.8956,衡阳市,珠晖区环保局,颗粒物(PM10),66,82,69,33,26,92,,139,132,30,14,9,11,0.6,0.6
2025-05-02T2100,2459A,112.6197,26.8733,衡阳市,市委党校,颗粒物(PM10),61,72,66,30,26,97,,129,124,16,12,6,6,0.5,0.5
2025-05-02T2100,2460A,112.6006,26.8919,衡阳市,市监测站,细颗粒物(PM2.5),87,103,74,64,36,93,,128,123,18,17,12,13,0.8,0.7
2025-05-02T2100,2461A,112.5664,26.9056,衡阳市,真空机电公司,颗粒物(PM10),82,114,81,41,32,79,,128,120,32,19,6,7,0.7,0.9
2025-05-02T2100,3399A,112.6703,26.882,衡阳市,师范学院,细颗粒物(PM2.5),88,93,74,65,36,89,,128,119,16,12,10,10,0.8,0.7
2025-05-02T2100,2608A,103.3772,23.3993,红河哈尼族彝族自治州,污水处理厂,,36,33,37,25,25,78,,103,90,6,9,5,15,0.4,0.4
2025-05-02T2100,2609A,103.3861,23.35,红河哈尼族彝族自治州,监测站,,45,45,39,22,22,86,,115,102,7,9,6,9,0.3,0.3
2025-05-02T2100,3038A,103.3758,23.368,红河哈尼族彝族自治州,州图书馆,,30,,29,21,23,73,,95,84,6,9,1,7,0.3,0.3
2025-05-02T2100,1090A,111.6507,40.7517,呼和浩特市,呼市一监,,28,17,16,6,6,87,,93,91,2,3,4,3,0.4,0.4
2025-05-02T2100,1091A,111.6572,40.8033,呼和浩特市,小召,,25,12,16,8,6,80,,87,84,9,11,9,9,0.6,0.4
2025-05-02T2100,1094A,111.7516,40.8369,呼和浩特市,如意水处理厂,,26,16,18,8,8,82,,88,85,5,7,4,4,0.3,0.3
2025-05-02T2100,1095A,111.7276,40.8062,呼和浩特市,二十九中,,27,14,16,10,9,85,,90,88,2,3,3,4,0.3,0.4
2025-05-02T2100,1096A,111.5512,40.7866,呼和浩特市,工大金川校区,,26,,24,16,7,81,,94,87,8,10,5,5,0.4,0.4
2025-05-02T2100,1097A,111.717,40.7612,呼和浩特市,化肥厂生活区,,27,16,20,6,6,84,,91,89,6,8,8,8,0.3,0.3
2025-05-02T2100,3698A,111.5968,40.8178,呼和浩特市,红旗小学,,28,12,13,7,6,88,,100,95,9,10,4,4,0.3,0.3
2025-05-02T2100,3699A,111.6518,40.8389,呼和浩特市,海东办,,27,9,11,7,7,84,,91,88,3,6,6,6,0.4,0.4
2025-05-02T2100,2192A,119.7594,49.2261,呼伦贝尔市,区环保局,,29,28,25,20,21,78,,88,88,7,11,6,6,0.3,0.4
2025-05-02T2100,3061A,119.7512,49.1577,呼伦贝尔市,国华电力东,,39,39,28,13,14,79,,92,91,7,8,6,6,0.3,0.3
2025-05-02T2100,1250A,120.0751,30.8669,湖州市,城西水厂,颗粒物(PM10),59,68,60,30,28,112,,155,146,33,30,8,7,0.6,0.5
2025-05-02T2100,2873A,120.0830,30.8929,湖州市,仁皇山新区,颗粒物(PM10),58,65,57,31,26,118,,152,144,36,24,6,6,0.9,0.7
2025-05-02T2100,2907A,120.1844,30.8596,湖州市,吴兴区站,颗粒物(PM10),55,60,63,29,29,128,,160,156,28,19,8,7,0.6,0.5
2025-05-02T2100,3562A,120.4148,30.8538,湖州市,南浔区站,颗粒物(PM10),61,71,70,30,31,112,,172,163,28,20,6,5,0.7,0.6
2025-05-02T2100,1607A,120.9049,40.7211,葫芦岛市,龙港区,,26,26,37,13,10,82,,95,95,16,30,8,10,0.5,0.4
2025-05-02T2100,1608A,120.8392,40.7514,葫芦岛市,化工街,,36,36,41,14,14,61,,91,86,34,40,8,11,0.5,0.5
2025-05-02T2100,1609A,120.8341,40.7073,葫芦岛市,新区,,32,32,35,15,11,79,,90,90,21,38,7,8,0.5,0.5
2025-05-02T2100,1610A,120.8695,40.7677,葫芦岛市,东城区,,45,33,45,31,21,59,,90,85,36,36,5,44,0.6,0.6
2025-05-02T2100,2482A,109.5981,27.5721,怀化市,林科所,颗粒物(PM10),59,68,78,23,26,61,,98,92,11,14,3,6,0.4,0.5
2025-05-02T2100,2483A,109.9453,27.5444,怀化市,河西地税局,颗粒物(PM10),68,86,64,41,28,21,,85,71,37,14,6,6,0.6,0.5
2025-05-02T2100,2484A,109.9781,27.5342,怀化市,市四医院,颗粒物(PM10),61,71,84,34,34,32,,101,87,34,22,10,13,0.7,0.6
2025-05-02T2100,2485A,109.9972,27.5578,怀化市,监测楼,颗粒物(PM10),63,75,83,28,33,56,,100,90,15,17,2,6,0.3,0.3
2025-05-02T2100,2486A,110.0394,27.583,怀化市,市委党校,颗粒物(PM10),62,74,71,32,34,30,,99,86,32,15,7,7,0.7,0.6
2025-05-02T2100,1210A,119.036,33.5981,淮安市,钵池山,颗粒物(PM10),60,70,66,27,28,130,,171,164,16,20,18,12,0.3,0.5
2025-05-02T2100,1211A,119.007,33.575,淮安市,北京南路,颗粒物(PM10),56,61,68,23,27,119,,175,164,23,22,10,11,0.4,0.6
2025-05-02T2100,1212A,118.989,33.6067,淮安市,市监测站,,,75,64,29,31,,,164,160,29,22,27,14,6.6,1.1
2025-05-02T2100,1213A,119.135,33.5039,淮安市,楚州区监测站,颗粒物(PM10),61,71,79,28,34,122,,165,157,14,23,8,10,0.3,0.6
2025-05-02T2100,3426A,118.8755,33.2894,淮安市,新华书店,颗粒物(PM10),56,62,70,26,32,121,,159,151,15,19,9,11,0.5,0.6
2025-05-02T2100,4206A,119.0288,33.6319,淮安市,承德北路606号,颗粒物(PM10),62,73,73,26,28,127,,169,161,15,21,13,11,0.5,0.6
2025-05-02T2100,2282A,116.8004,33.975,淮北市,监测站,,,136,100,59,37,,,163,162,35,18,9,9,0.9,0.7
2025-05-02T2100,2283A,116.8091,33.9007,淮北市,烈山区政府,颗粒物(PM10),76,102,124,48,38,105,,150,144,26,18,8,9,0.8,0.7
2025-05-02T2100,3330A,116.8873,33.9836,淮北市,杜集区检察院,细颗粒物(PM2.5),97,97,94,72,44,121,,160,154,22,16,8,8,0.6,0.6
2025-05-02T2100,4017A,116.7923,33.9535,淮北市,市博物馆,颗粒物(PM10),79,107,107,40,39,133,,162,158,22,17,6,9,0.7,0.6
2025-05-02T2100,2277A,116.8305,32.7727,淮南市,潘集区政府,颗粒物(PM10),71,92,97,36,42,99,,147,135,20,17,4,5,0.4,0.3
2025-05-02T2100,2279A,116.8569,32.5951,淮南市,谢家集区政府,颗粒物(PM10),63,75,77,29,29,104,,145,134,17,17,4,6,0.2,0.2
2025-05-02T2100,2280A,116.8281,32.633,淮南市,八公山区政府,颗粒物(PM10),66,81,90,28,31,106,,143,133,8,10,5,6,0.3,0.3
2025-05-02T2100,2281A,116.6325,32.6201,淮南市,焦岗湖风景区管理处,,,,,,,,,,,,,,,,
2025-05-02T2100,2894A,117.0566,32.6531,淮南市,经济技术开发区消防队,颗粒物(PM10),56,62,79,37,49,121,,151,145,10,18,6,7,0.3,0.3
2025-05-02T2100,3329A,117.0108,32.5893,淮南市,山南新区,颗粒物(PM10),71,92,100,27,30,122,,153,146,12,16,8,9,0.6,0.4
2025-05-02T2100,4209A,117.0031,32.6445,淮南市,国庆中路369号,颗粒物(PM10),63,76,73,23,37,115,,147,141,10,10,9,9,0.3,0.4
2025-05-02T2100,2446A,114.9028,30.4742,黄冈市,职工中心,,,,,,,,,,,,,,,,
2025-05-02T2100,2929A,114.8858,30.4519,黄冈市,红卫路,颗粒物(PM10),53,56,59,25,28,116,,159,148,15,17,7,11,0.8,0.7
2025-05-02T2100,3398A,114.9136,30.4445,黄冈市,市林业局,颗粒物(PM10),56,62,65,27,32,98,,175,163,25,24,8,15,0.7,0.8
2025-05-02T2100,2672A,102.0199,35.5102,黄南藏族自治州,同仁县隆务镇,,,135,42,28,13,,,105,105,4,4,5,4,0.2,0.2
2025-05-02T2100,2295A,118.2903,29.6963,黄山市,延安路89号,,42,42,44,24,29,81,,123,115,9,10,7,6,0.4,0.4
2025-05-02T2100,2297A,118.1371,30.2756,黄山市,黄山区政府5号楼,,45,44,50,31,19,107,,125,120,8,7,7,4,0.7,0.6
2025-05-02T2100,4210A,118.3354,29.7203,黄山市,滨江东路7-2号,细颗粒物(PM2.5),53,52,51,37,21,66,,127,115,21,9,6,5,0.6,0.5
2025-05-02T2100,2423A,115.0601,30.2313,黄石市,沈家营,颗粒物(PM10),56,61,66,27,27,72,,156,135,38,30,7,8,0.8,0.9
2025-05-02T2100,2426A,114.8988,30.2019,黄石市,铁山,颗粒物(PM10),60,70,61,27,23,72,,158,134,14,13,10,11,0.2,0.7
2025-05-02T2100,2427A,115.0307,30.2092,黄石市,团城山,颗粒物(PM10),55,60,60,21,22,102,,151,140,20,26,9,10,0.5,0.7
2025-05-02T2100,3149A,115.0235,30.1578,黄石市,笔架山北路,颗粒物(PM10),53,56,50,18,20,114,,150,139,17,14,11,10,0.7,0.7
2025-05-02T2100,4185A,115.0780,30.21118,黄石市,磁湖东路29号,颗粒物(PM10),63,75,58,33,32,90,,157,138,35,44,10,11,0.8,0.8
2025-05-02T2100,1392A,114.4183,23.0528,惠州市,河南岸金山湖子站,,,42,43,28,30,,,133,133,17,18,9,9,0.6,0.6
2025-05-02T2100,1393A,114.4053,23.0822,惠州市,下埔横江三路子站,颗粒物(PM10),74,97,51,24,28,130,,138,138,16,16,9,9,0.8,0.7
2025-05-02T2100,1394A,114.4103,23.1142,惠州市,江北云山西路子站,,47,42,38,23,23,148,,146,146,8,14,11,11,0.6,0.6
2025-05-02T2100,1395A,114.4645,22.7833,惠州市,惠阳区承修路船湖子站,颗粒物(PM10),55,59,49,34,28,157,,139,139,13,19,9,8,0.5,0.5
2025-05-02T2100,1396A,114.5317,22.7422,惠州市,大亚湾管委会子站,臭氧1小时,75,51,46,32,27,180,,151,151,11,18,9,8,0.7,0.6
2025-05-02T2100,3314A,114.4338,22.8134,惠州市,惠阳秋长,臭氧1小时,64,44,45,29,27,171,,157,157,15,19,13,10,0.7,0.7
2025-05-02T2100,3452A,114.6517,22.775,惠州市,大亚湾霞涌,臭氧1小时,87,31,37,28,21,189,,158,158,10,14,10,8,0.6,0.6
2025-05-02T2100,2240A,130.9762,45.3001,鸡西市,环保局,,,,26,,16,,,100,,,5,,6,,0.4
2025-05-02T2100,2243A,130.9429,45.3039,鸡西市,第一中学,,31,31,24,20,17,78,,98,93,11,6,6,6,0.4,0.4
2025-05-02T2100,3707A,131.0207,45.3073,鸡西市,欧美日汽修厂,颗粒物(PM10),53,55,28,34,31,52,,94,84,26,11,8,5,0.6,0.5
2025-05-02T2100,3709A,130.9967,45.3106,鸡西市,市政设施管理处,,40,40,30,26,19,49,,95,84,29,10,7,7,0.6,0.5
2025-05-02T2100,2367A,114.9754,27.0803,吉安市,红声器材厂,颗粒物(PM10),68,85,55,32,27,25,,114,91,54,14,11,13,0.9,0.6
2025-05-02T2100,2368A,114.9658,27.0999,吉安市,市森林工业局,颗粒物(PM10),56,61,53,27,28,49,,112,96,26,15,9,11,0.6,0.5
2025-05-02T2100,2369A,114.99,27.1312,吉安市,市环境监测站,颗粒物(PM10),55,59,50,33,26,24,,123,97,33,11,8,11,0.5,0.6
2025-05-02T2100,2370A,115.0093,27.0968,吉安市,青原区法院,颗粒物(PM10),62,74,53,39,28,33,,116,93,38,14,14,13,0.5,0.5
2025-05-02T2100,1772A,126.54,43.8622,吉林市,哈达湾,,,15,25,10,15,,,92,92,9,14,6,6,0.3,0.4
2025-05-02T2100,1773A,126.5844,43.8358,吉林市,东局子,,28,18,19,14,14,88,,92,90,10,12,5,5,0.3,0.4
2025-05-02T2100,1774A,126.5052,43.8245,吉林市,电力学院,,30,13,19,8,14,93,,97,96,6,12,4,4,0.5,0.6
2025-05-02T2100,1775A,126.6133,43.8972,吉林市,江北,,28,22,24,13,13,88,,97,93,12,12,5,6,0.2,0.3
2025-05-02T2100,1776A,126.555,43.8306,吉林市,江南公园,,27,19,22,10,14,85,,90,88,8,11,5,5,0.3,0.3
2025-05-02T2100,1778A,126.7061,43.7133,吉林市,丰满,,,,,,,,,,,,,,,,
2025-05-02T2100,2868A,126.4739,43.953,吉林市,九站,,26,10,21,9,14,81,,94,88,10,16,8,8,0.4,0.4
2025-05-02T2100,1299A,116.9862,36.6114,济南市,科干所,,,105,71,12,22,,,168,160,20,14,4,6,0.4,0.4
2025-05-02T2100,1300A,116.9376,36.665,济南市,农科所,颗粒物(PM10),79,107,75,22,25,89,,164,148,18,18,7,8,0.4,0.4
2025-05-02T2100,1301A,117.1265,36.6734,济南市,开发区,颗粒物(PM10),78,105,65,22,30,87,,168,153,19,16,8,9,0.6,0.6
2025-05-02T2100,1303A,117.0624,36.6868,济南市,省种子仓库,颗粒物(PM10),108,166,95,17,23,91,,168,152,15,21,5,6,0.4,0.4
2025-05-02T2100,1304A,116.9489,36.6447,济南市,机床二厂,颗粒物(PM10),89,127,90,29,32,84,,158,142,20,22,8,10,0.4,0.5
2025-05-02T2100,1305A,117.0495,36.663,济南市,市监测站,,,134,74,15,30,,,162,155,,20,8,10,0.5,0.5
2025-05-02T2100,1306A,116.7675,36.5484,济南市,长清党校,"颗粒物(PM10),细颗粒物(PM2.5)",59,68,74,42,31,91,,162,147,18,16,5,8,0.6,0.6
2025-05-02T2100,1616A,117.6795,36.229,济南市,技术学院,颗粒物(PM10),79,107,84,36,30,146,,169,168,20,26,12,13,0.8,0.7
2025-05-02T2100,1961A,117.532,36.6868,济南市,东山小学,颗粒物(PM10),75,100,82,24,22,107,,174,163,16,17,8,9,0.4,0.4
2025-05-02T2100,3059A,117.7161,36.2049,济南市,泰兴公司,颗粒物(PM10),59,68,75,39,33,145,,170,168,18,29,6,8,0.5,0.4
2025-05-02T2100,3064A,117.6867,36.2171,济南市,莱芜战役纪念馆,颗粒物(PM10),64,78,82,39,26,143,,165,164,22,27,6,8,0.9,0.8
2025-05-02T2100,3494A,117.1673,36.9782,济南市,济阳区政府,颗粒物(PM10),84,117,99,12,29,103,,171,152,12,24,6,9,0.4,0.6
2025-05-02T2100,3495A,117.1171,36.63,济南市,锦屏中学,颗粒物(PM10),72,93,66,24,26,89,,167,153,20,15,6,7,0.5,0.5
2025-05-02T2100,3682A,116.9814,36.6819,济南市,济南四建,颗粒物(PM10),78,105,73,15,24,90,,168,149,18,19,5,7,0.4,0.5
2025-05-02T2100,1653A,116.6251,35.4302,济宁市,火炬城,颗粒物(PM10),105,160,115,44,42,,,143,143,9,12,,9,0.7,0.4
2025-05-02T2100,1655A,116.5491,35.4042,济宁市,电化厂,颗粒物(PM10),80,110,83,36,34,136,,138,138,7,10,3,5,0.7,0.5
2025-05-02T2100,3500A,116.5814,35.3707,济宁市,北湖一中,颗粒物(PM10),126,202,130,34,21,121,,130,129,10,15,4,6,0.5,0.4
2025-05-02T2100,3501A,116.8249,35.5593,济宁市,服务中心,颗粒物(PM10),86,122,92,31,29,132,,144,143,15,20,3,4,0.7,0.3
2025-05-02T2100,3678A,116.5907,35.4054,济宁市,市第七中学,颗粒物(PM10),104,158,121,31,27,138,,142,142,11,16,6,7,0.5,0.4
2025-05-02T2100,2255A,130.2751,46.8028,佳木斯市,佳纺,颗粒物(PM10),52,53,36,25,27,36,,98,77,33,12,6,6,0.7,0.5
2025-05-02T2100,2256A,130.3995,46.8307,佳木斯市,发电厂,,45,45,31,21,27,44,,100,82,39,15,5,4,0.5,0.4
2025-05-02T2100,2257A,130.3258,46.7975,佳木斯市,环保局,颗粒物(PM10),52,54,34,22,27,40,,102,82,42,14,6,5,0.6,0.4
2025-05-02T2100,2258A,130.3648,46.8032,佳木斯市,十一中,,48,48,31,28,29,20,,98,75,69,16,6,5,0.9,0.4
2025-05-02T2100,2259A,130.3794,46.7588,佳木斯市,四丰,,39,39,28,10,18,57,,89,78,14,8,1,1,0.3,0.3
2025-05-02T2100,1252A,120.7436,30.778,嘉兴市,清河小学,颗粒物(PM10),61,72,69,22,26,120,,170,158,23,19,7,7,0.9,0.8
2025-05-02T2100,1253A,120.726,30.7478,嘉兴市,嘉兴学院,颗粒物(PM10),56,62,65,24,26,122,,181,169,21,17,8,8,0.8,0.6
2025-05-02T2100,2872A,120.7846,30.7525,嘉兴市,南湖区残联,颗粒物(PM10),61,72,73,27,27,131,,184,171,15,13,8,8,0.7,0.6
2025-05-02T2100,3407A,120.6916,30.7739,嘉兴市,秀洲住建,颗粒物(PM10),54,57,59,25,27,134,,197,185,14,13,9,8,0.6,0.6
2025-05-02T2100,1945A,98.2908,39.7711,嘉峪关市,气象局,颗粒物(PM10),85,119,152,27,43,97,,99,99,6,11,3,17,0.8,1.1
2025-05-02T2100,2884A,98.2672,39.7978,嘉峪关市,酒钢宾馆,颗粒物(PM10),87,124,155,58,48,89,,95,94,17,13,19,28,1.1,0.5
2025-05-02T2100,3248A,98.2643,39.7724,嘉峪关市,雄关区,颗粒物(PM10),76,101,118,31,36,101,,101,101,7,12,5,12,0.7,0.8
2025-05-02T2100,1383A,113.1064,22.6058,江门市,北街,,43,43,37,19,25,125,,157,143,9,10,2,2,0.6,0.6
2025-05-02T2100,1384A,113.0731,22.5835,江门市,西区,,42,42,37,26,22,118,,154,141,16,17,6,6,0.6,0.6
2025-05-02T2100,1385A,113.0219,22.5311,江门市,圭峰西,,36,36,38,25,28,113,,140,132,14,11,3,3,0.5,0.5
2025-05-02T2100,1386A,113.0828,22.5947,江门市,东湖,,40,39,40,26,24,126,,151,140,15,16,8,8,0.6,0.6
2025-05-02T2100,3311A,113.1075,22.5647,江门市,江海富民,,42,42,40,22,23,130,,151,139,9,13,8,8,0.5,0.5
2025-05-02T2100,3449A,113.05,22.4667,江门市,新会银湖,,38,28,38,26,29,115,,150,138,16,17,2,2,0.6,0.6
2025-05-02T2100,1830A,113.1992,35.2590,焦作市,影视城,,,,53,,17,,,,,,18,,16,,0.8
2025-05-02T2100,3169A,113.2725,35.2067,焦作市,太极体育中心,颗粒物(PM10),107,163,141,55,40,151,,204,197,13,19,6,18,0.4,0.3
2025-05-02T2100,3335A,113.3137,35.2641,焦作市,马村街道办,细颗粒物(PM2.5),99,129,124,74,47,135,,186,177,17,19,9,14,0.5,0.4
2025-05-02T2100,3336A,113.2465,35.2373,焦作市,焦作技师学院,,,,130,,42,,,194,191,16,18,9,13,0.9,0.8
2025-05-02T2100,3477A,113.1656,35.2539,焦作市,中站许衡医院,颗粒物(PM10),84,118,107,58,41,136,,190,182,13,22,8,16,0.8,0.8
2025-05-02T2100,3981A,113.2449,35.1803,焦作市,原李万街道办,颗粒物(PM10),88,126,139,48,37,142,,195,186,15,19,12,19,0.4,0.4
2025-05-02T2100,4264A,113.2340,35.2190,焦作市,新安路1731号,细颗粒物(PM2.5),93,122,132,69,46,142,,198,189,14,17,10,12,0.9,0.8
2025-05-02T2100,1708A,116.3701,23.5345,揭阳市,新兴,颗粒物(PM10),67,84,58,46,36,126,,139,135,16,16,8,9,0.9,0.8
2025-05-02T2100,1709A,116.3264,23.5443,揭阳市,西马,细颗粒物(PM2.5),79,70,62,58,34,126,,143,139,12,15,13,11,1.2,1
2025-05-02T2100,1710A,116.3611,23.5626,揭阳市,东兴,细颗粒物(PM2.5),53,45,71,37,36,126,,141,138,12,22,7,9,0.7,0.7
2025-05-02T2100,1711A,116.4151,23.5294,揭阳市,渔湖,颗粒物(PM10),51,52,74,31,37,140,,146,144,12,37,5,6,0.8,1
2025-05-02T2100,3320A,116.403,23.5699,揭阳市,曲溪,颗粒物(PM10),59,68,61,33,36,141,,145,143,18,25,8,8,0.8,0.8
2025-05-02T2100,1944A,102.1692,38.5167,金昌市,天庆家园,颗粒物(PM10),104,158,137,46,37,98,,101,101,5,5,12,10,0.7,0.6
2025-05-02T2100,4022A,102.1647,38.5371,金昌市,金川区人防中心,颗粒物(PM10),109,167,152,59,45,101,,103,103,7,5,7,8,0.5,0.5
2025-05-02T2100,4239A,102.1930,38.5319,金昌市,长春路96号,颗粒物(PM10),121,192,145,50,40,96,,96,96,2,3,5,13,0.8,0.7
2025-05-02T2100,1262A,119.647,29.077,金华市,十五中,颗粒物(PM10),56,61,56,32,24,114,,146,143,30,22,3,3,0.5,0.4
2025-05-02T2100,1263A,119.686,29.1029,金华市,监测站,颗粒物(PM10),62,73,58,38,28,99,,132,126,24,20,5,4,0.4,0.4
2025-05-02T2100,3659A,119.656,29.1131,金华市,气象局,颗粒物(PM10),65,79,56,34,22,78,,143,134,49,22,2,2,0.7,0.5
2025-05-02T2100,1767A,121.1115,41.0879,锦州市,南山,,36,,35,25,23,58,,94,90,34,19,12,11,0.7,0.8
2025-05-02T2100,1768A,121.0604,40.8428,锦州市,开发区,,48,48,57,20,15,63,,83,83,34,43,53,15,0.5,0.6
2025-05-02T2100,1769A,121.1836,41.1119,锦州市,百股街道,,33,33,33,9,15,63,,93,90,31,17,16,9,0.6,0.7
2025-05-02T2100,1770A,121.1178,41.1222,锦州市,天安街道,,35,35,30,15,14,64,,93,90,29,17,8,12,0.7,0.7
2025-05-02T2100,1771A,121.1303,41.1386,锦州市,北湖公园,,28,27,34,19,14,65,,93,90,26,16,9,15,0.6,0.6
2025-05-02T2100,2160A,112.85,35.5051,晋城市,自来水公司,颗粒物(PM10),76,101,97,29,23,86,,140,124,21,18,10,9,1.1,0.6
2025-05-02T2100,2161A,112.8318,35.4936,晋城市,白云商贸,颗粒物(PM10),80,110,93,27,23,88,,142,126,24,20,9,7,1.1,0.6
2025-05-02T2100,2162A,112.8508,35.4887,晋城市,市环保局,颗粒物(PM10),96,141,117,68,28,82,,133,119,18,20,10,6,0.7,0.3
2025-05-02T2100,2163A,112.8676,35.4897,晋城市,技术学院,颗粒物(PM10),78,106,99,22,24,82,,134,119,22,22,8,7,0.8,0.5
2025-05-02T2100,2165A,112.8453,35.546,晋城市,白马寺,颗粒物(PM10),72,94,68,37,29,94,,139,125,16,9,8,6,0.9,0.4
2025-05-02T2100,3620A,112.8271,35.4828,晋城市,泽州一中,颗粒物(PM10),63,76,89,27,25,89,,133,123,21,16,7,5,1.2,0.7
2025-05-02T2100,2173A,112.7249,37.7067,晋中市,南都小区,颗粒物(PM10),71,92,102,36,29,88,,124,119,9,21,4,9,0.4,0.4
2025-05-02T2100,2174A,112.6991,37.6982,晋中市,榆次区政府,颗粒物(PM10),75,100,95,27,21,87,,125,118,14,24,5,10,0.3,0.5
2025-05-02T2100,2865A,112.7195,37.6828,晋中市,榆次三中,细颗粒物(PM2.5),113,112,114,85,32,93,,133,129,8,21,3,9,0.4,0.6
2025-05-02T2100,4200A,112.7478,37.6954,晋中市,迎宾街26号,颗粒物(PM10),79,107,102,22,23,88,,126,122,12,23,3,9,0.2,0.5
2025-05-02T2100,2439A,112.2014,31.0481,荆门市,竹园小学,颗粒物(PM10),76,102,105,39,37,116,,146,140,12,12,5,7,0.3,0.3
2025-05-02T2100,2440A,112.1969,30.9891,荆门市,掇刀,颗粒物(PM10),71,91,101,31,32,112,,141,137,7,8,4,6,0.3,0.3
2025-05-02T2100,2441A,112.2213,31.0386,荆门市,石化一小,颗粒物(PM10),74,98,101,39,39,110,,140,135,14,12,5,11,0.3,0.2
2025-05-02T2100,3012A,112.1849,31.0362,荆门市,西山林语,颗粒物(PM10),70,89,91,34,34,115,,141,136,7,8,8,9,0.4,0.5
2025-05-02T2100,3547A,112.1632,31.0138,荆门市,龙泉中学南校,,,,100,,38,108,,136,130,,13,3,10,0.3,0.5
2025-05-02T2100,1844A,112.2494,30.3197,荆州市,市图书馆,颗粒物(PM10),68,86,82,38,34,116,,134,130,16,14,6,6,0.5,0.4
2025-05-02T2100,1845A,112.2008,30.3544,荆州市,市委党校,颗粒物(PM10),66,81,85,36,34,112,,120,119,15,14,8,8,0.5,0.5
2025-05-02T2100,3194A,112.2747,30.3122,荆州市,管委会,颗粒物(PM10),65,79,81,41,39,111,,130,127,16,13,8,8,0.7,0.6
2025-05-02T2100,4268A,112.1722,30.3366,荆州市,学苑路85号,,,131,71,44,33,,,128,126,9,18,4,4,0.5,0.4
2025-05-02T2100,2342A,117.3102,29.3867,景德镇市,王港中学,,,,,,,,,,,,,,,,
2025-05-02T2100,2343A,117.2117,29.2933,景德镇市,老干部活动中心,,48,48,49,24,24,88,,136,127,13,15,7,8,0.5,0.5
2025-05-02T2100,2344A,117.1894,29.2789,景德镇市,兽医站,,49,49,51,32,24,87,,132,122,10,12,5,6,0.3,0.5
2025-05-02T2100,2345A,117.1547,29.2617,景德镇市,台达陶瓷,颗粒物(PM10),64,77,61,33,29,62,,132,119,41,25,60,35,0.5,0.6
2025-05-02T2100,2346A,117.2461,29.2956,景德镇市,陶研所,,41,41,43,24,27,78,,129,117,14,12,7,8,0.5,0.5
2025-05-02T2100,1803A,115.9872,29.6815,九江市,十里,颗粒物(PM10),51,51,46,28,24,100,,146,140,17,20,3,3,0.5,0.5
2025-05-02T2100,1804A,115.9584,29.7046,九江市,茅山头,颗粒物(PM10),54,58,52,31,24,111,,142,137,21,20,5,5,0.6,0.3
2025-05-02T2100,1805A,115.9877,29.7295,九江市,西园,,48,48,46,23,23,126,,148,146,28,42,8,10,0.7,0.8
2025-05-02T2100,1808A,115.9114,29.6038,九江市,综合工业园,,46,34,58,20,22,146,,152,152,13,20,10,9,0.6,0.7
2025-05-02T2100,1809A,116.0721,29.7535,九江市,石化总厂,,50,50,58,17,30,124,,153,146,17,16,13,11,0.6,0.7
2025-05-02T2100,1810A,115.9773,29.5698,九江市,庐山气象台,,45,43,41,18,20,142,,141,141,6,5,6,7,0.9,0.8
2025-05-02T2100,3190A,116.0254,29.6994,九江市,外国语学校,,42,39,50,16,23,134,,153,147,11,18,5,9,0.6,0.7
2025-05-02T2100,4253A,116.0102,29.6594,九江市,莲花大道8号,,47,47,44,25,22,110,,143,139,7,7,3,5,0.5,0.5
2025-05-02T2100,4240A,98.4958,39.7339,酒泉市,玉门东路5号,颗粒物(PM10),84,117,165,45,47,99,,99,99,1,3,7,9,0.2,0.2
2025-05-02T2100,4241A,98.5099,39.7506,酒泉市,北大街108号,颗粒物(PM10),67,83,158,32,37,94,,94,94,4,7,8,9,0.2,0.2
2025-05-02T2100,2698A,76.0072,39.4467,喀什地区,巡警大队,颗粒物(PM10),91,132,100,28,19,79,,91,88,11,12,3,3,0.4,0.4
2025-05-02T2100,2699A,75.9755,39.4694,喀什地区,吾办,颗粒物(PM10),148,245,96,83,33,79,,89,83,38,17,5,6,0.3,0.3
2025-05-02T2100,4027A,75.9483,39.4689,喀什地区,老干局,颗粒物(PM10),138,225,90,37,20,86,,90,89,6,9,6,5,0.2,0.2
2025-05-02T2100,1824A,114.3389,34.7781,开封市,肿瘤医院,颗粒物(PM10),262,393,168,36,30,130,,166,161,8,9,8,10,0.5,0.4
2025-05-02T2100,1826A,114.2885,34.7965,开封市,世纪星幼儿园,,,,165,,50,,,132,,,17,,7,,0.7
2025-05-02T2100,3147A,114.3438,34.8106,开封市,龙亭公园,颗粒物(PM10),148,245,183,76,72,128,,169,163,13,14,2,4,0.9,0.7
2025-05-02T2100,3210A,114.3644,34.7964,开封市,汴京公园,颗粒物(PM10),220,364,204,63,40,133,,178,172,11,15,2,6,0.8,0.6
2025-05-02T2100,3473A,114.2485,34.8306,开封市,技师学院,细颗粒物(PM2.5),206,265,171,156,73,127,,163,159,16,12,4,6,0.9,0.7
2025-05-02T2100,3592A,114.4644,34.7556,开封市,祥符区生态环境局,颗粒物(PM10),132,214,120,41,53,129,,117,,16,19,8,10,0.7,0.4
2025-05-02T2100,1951A,84.895,45.6094,克拉玛依市,长征新村,,23,19,28,8,7,72,,76,76,10,13,8,8,0.3,0.3
2025-05-02T2100,1952A,84.8988,45.5893,克拉玛依市,南林小区,,32,32,28,9,10,79,,82,82,3,7,8,6,0.1,0.2
2025-05-02T2100,1954A,84.905,44.3396,克拉玛依市,独山子区,细颗粒物(PM2.5),72,85,29,52,15,59,,54,54,8,10,10,10,0.5,0.5
2025-05-02T2100,1955A,85.6979,46.098,克拉玛依市,乌尔禾区商贸楼,,31,23,24,6,9,97,,97,97,5,9,7,7,0.2,0.2
2025-05-02T2100,3612A,85.1045,45.6899,克拉玛依市,白碱滩区新站,,33,33,33,9,6,84,,84,84,6,16,12,11,0.4,0.3
2025-05-02T2100,2697A,76.1454,39.7142,克孜勒苏柯尔克孜自治州,市人民政府,颗粒物(PM10),56,62,56,21,20,90,,94,93,1,3,8,6,0.2,0.2
2025-05-02T2100,3665A,76.1658,39.7157,克孜勒苏柯尔克孜自治州,克州文化中心,,41,41,48,14,22,93,,97,95,2,2,8,12,0.3,0.3
2025-05-02T2100,1450A,102.8204,24.8886,昆明市,呈贡新区,,40,,25,28,16,94,,124,117,13,10,8,5,0.6,0.5
2025-05-02T2100,1451A,102.6251,24.9608,昆明市,西山森林公园,,,,,,,,,,,,,,,,
2025-05-02T2100,1452A,102.7252,25.0902,昆明市,龙泉镇,,29,25,25,13,15,90,,117,110,12,19,8,9,0.3,0.3
2025-05-02T2100,1453A,102.7266,25.0375,昆明市,东风东路,,36,28,30,25,19,91,,122,114,20,16,9,9,0.5,0.4
2025-05-02T2100,1454A,102.6742,25.0669,昆明市,金鼎山,,28,26,31,14,15,87,,120,111,19,15,2,3,0.4,0.4
2025-05-02T2100,1455A,102.6644,25.0401,昆明市,碧鸡广场,,28,21,28,15,15,89,,116,108,16,16,7,7,0.5,0.4
2025-05-02T2100,3179A,102.7494,25.0119,昆明市,官渡区博物馆,,30,25,30,18,16,93,,125,119,17,14,8,8,0.4,0.4
2025-05-02T2100,3375A,102.8017,24.8336,昆明市,青年创业园,,30,19,22,13,11,96,,122,116,7,10,8,8,0.3,0.2
2025-05-02T2100,3550A,102.7997,24.9786,昆明市,昆明学院,,29,27,27,14,12,91,,123,116,16,13,6,6,0.3,0.3
2025-05-02T2100,3551A,102.5967,24.6736,昆明市,晋宁区生态环境分局,,28,9,23,7,19,89,,114,105,8,9,6,6,0.3,0.3
2025-05-02T2100,3552A,102.6678,24.9856,昆明市,云天化总部,,29,27,26,13,13,91,,116,109,26,15,7,7,0.3,0.3
2025-05-02T2100,1456A,91.1319,29.6514,拉萨市,八廓街,,47,18,18,9,9,148,,159,159,14,10,5,5,0.4,0.9
2025-05-02T2100,1457A,91.1221,29.6747,拉萨市,市环保局,,45,18,13,9,7,143,,152,152,12,10,3,3,0.5,0.5
2025-05-02T2100,1458A,91.0874,29.6475,拉萨市,区监测站,,46,14,10,8,7,146,,150,150,13,11,5,5,0.3,0.3
2025-05-02T2100,1459A,91.1774,29.6541,拉萨市,西藏大学,,47,12,12,7,7,150,,157,157,10,10,5,5,0.4,0.4
2025-05-02T2100,1460A,90.9798,29.6588,拉萨市,区辐射站,,43,20,13,7,7,136,,149,147,17,13,9,8,0.3,0.3
2025-05-02T2100,1461A,91.0834,29.6292,拉萨市,拉萨火车站,,47,11,9,10,7,149,,152,152,9,8,3,3,0.5,0.4
2025-05-02T2100,2520A,109.2203,23.7256,来宾市,来宾技工学校,,43,,55,30,29,106,,156,148,10,25,6,11,0.7,0.7
2025-05-02T2100,3535A,109.1781,23.7297,来宾市,兴宾区政府,,49,49,45,31,26,90,,144,132,17,17,5,6,0.6,0.5
2025-05-02T2100,4002A,109.2416,23.7461,来宾市,中南小学,,44,44,56,26,24,103,,150,142,9,25,5,7,0.7,0.6
2025-05-02T2100,1477A,104.1373,35.9454,兰州市,榆中兰大校区,,,,,,,,,,,,,,,,
2025-05-02T2100,1479A,103.831,36.0464,兰州市,铁路设计院,颗粒物(PM10),199,347,183,106,52,91,,105,100,14,55,7,16,0.4,0.9
2025-05-02T2100,3241A,103.7439,36.0842,兰州市,百合公园,颗粒物(PM10),197,343,167,114,53,87,,105,97,4,42,3,12,0.3,0.6
2025-05-02T2100,3242A,103.9611,35.998,兰州市,和平,,,518,177,,82,85,,110,102,9,17,14,19,0.4,0.6
2025-05-02T2100,4236A,103.6293,36.0938,兰州市,庄浪东路808号,颗粒物(PM10),236,375,181,147,66,89,,110,102,13,39,9,21,0.3,0.5
2025-05-02T2100,4237A,103.7251,36.1043,兰州市,安宁西路88号,颗粒物(PM10),280,406,224,120,62,103,,127,116,1,34,4,17,0.2,0.5
2025-05-02T2100,4238A,103.8470,36.0676,兰州市,北滨河东路1号,颗粒物(PM10),245,381,204,126,61,103,,112,108,8,47,8,19,0.4,0.8
2025-05-02T2100,3245A,103.6633,36.533,兰州新区,新区管委会,颗粒物(PM10),142,234,179,106,73,105,,106,103,4,14,9,16,0.3,0.4
2025-05-02T2100,3246A,103.6975,36.4789,兰州新区,舟曲中学,颗粒物(PM10),398,498,245,122,65,109,,115,109,6,20,6,13,0.3,0.4
2025-05-02T2100,1067A,116.6708,39.5111,廊坊市,药材公司,,24,24,52,10,19,68,,103,92,16,21,1,5,0.3,0.6
2025-05-02T2100,1068A,116.7214,39.5589,廊坊市,开发区,,32,22,52,22,23,57,,95,78,21,23,2,4,0.3,0.5
2025-05-02T2100,1070A,116.7244,39.5269,廊坊市,北华航天学院,,40,40,74,8,22,68,,96,88,15,24,3,7,0.3,0.6
2025-05-02T2100,2919A,116.7022,39.5453,廊坊市,河北工业大学,,29,29,62,12,20,64,,101,90,20,24,5,8,0.3,0.6
2025-05-02T2100,2535A,103.7723,29.5462,乐山市,花湖湾,"颗粒物(PM10),臭氧1小时",60,69,58,39,35,168,,196,195,19,23,11,10,0.7,0.7
2025-05-02T2100,2536A,103.7627,29.5844,乐山市,牛耳桥,颗粒物(PM10),65,79,61,35,37,54,,180,160,64,33,8,9,0.8,0.5
2025-05-02T2100,2537A,103.7508,29.6006,乐山市,市第三水厂,颗粒物(PM10),58,66,57,38,35,53,,173,158,63,31,6,6,1.2,0.7
2025-05-02T2100,2538A,103.7571,29.5664,乐山市,市监测站,颗粒物(PM10),61,71,62,38,37,167,,178,178,13,25,9,8,0.8,0.8
2025-05-02T2100,3361A,103.7311,29.5628,乐山市,理工大学,,,,54,,32,164,,189,183,19,26,,8,,0.7
2025-05-02T2100,2598A,100.2143,26.8576,丽江市,西南郊,,31,31,18,15,11,82,,99,98,7,4,5,4,0.4,0.3
2025-05-02T2100,2599A,100.2497,26.8802,丽江市,丽江古城,,35,32,19,24,14,89,,94,94,16,10,10,8,0.7,0.6
2025-05-02T2100,2600A,100.2203,26.8906,丽江市,市中心,,,20,14,14,11,,,85,85,11,6,7,6,0.3,0.8
2025-05-02T2100,1267A,119.914,28.4514,丽水市,监测站大楼,,48,48,47,29,21,131,,132,132,10,18,3,3,0.4,0.3
2025-05-02T2100,1268A,119.93,28.4586,丽水市,莲都小学,颗粒物(PM10),51,52,50,23,21,137,,135,135,7,13,3,3,0.5,0.4
2025-05-02T2100,1269A,119.879,28.4231,丽水市,余庄前,颗粒物(PM10),54,57,48,21,14,132,,136,136,8,9,3,3,0.4,0.3
2025-05-02T2100,1173A,119.176,34.5885,连云港市,市环境监测站,颗粒物(PM10),59,68,66,34,27,151,,187,184,18,13,8,8,0.6,0.6
2025-05-02T2100,3000A,119.3581,34.6972,连云港市,德源药业,颗粒物(PM10),53,56,58,22,22,140,,174,170,14,15,9,10,0.6,0.5
2025-05-02T2100,3007A,119.178,34.844,连云港市,新城一中,颗粒物(PM10),66,81,66,30,28,150,,163,162,8,18,7,9,0.6,0.6
2025-05-02T2100,3008A,119.3608,34.7519,连云港市,胡沟管理处,颗粒物(PM10),54,58,51,29,21,94,,168,158,63,30,16,17,0.7,0.7
2025-05-02T2100,3009A,119.1478,34.5911,连云港市,矿山设计院,颗粒物(PM10),76,102,86,34,27,144,,184,181,22,19,9,11,0.6,0.6
2025-05-02T2100,3434A,119.2413,34.6539,连云港市,工贸学校,颗粒物(PM10),56,61,64,35,27,142,,189,186,24,16,10,11,0.7,0.6
2025-05-02T2100,3664A,119.4172,34.7341,连云港市,连云街道,颗粒物(PM10),71,92,85,30,23,106,,181,173,48,17,11,9,0.6,0.5
2025-05-02T2100,2571A,102.3431,27.8099,凉山彝族自治州,青龙寺,,47,47,32,11,8,91,,121,116,10,5,4,4,0.6,0.6
2025-05-02T2100,2572A,102.2721,27.8415,凉山彝族自治州,邛海宾馆,,42,35,33,23,19,132,,127,127,8,14,10,10,0.7,0.7
2025-05-02T2100,2573A,102.2625,27.898,凉山彝族自治州,西昌市政府,,38,38,35,21,19,121,,120,120,9,9,11,12,0.6,0.6
2025-05-02T2100,2574A,102.2685,27.8851,凉山彝族自治州,凉山州政府,,39,34,36,17,16,123,,120,120,10,13,8,9,0.6,0.6
2025-05-02T2100,4229A,102.2342,27.8859,凉山彝族自治州,凯乐南路30号,,43,43,41,19,17,111,,111,111,15,15,26,14,1.4,0.8
2025-05-02T2100,2212A,123.2,41.1953,辽阳市,宏伟区,,30,30,32,12,12,85,,90,90,15,17,7,11,0.5,0.8
2025-05-02T2100,2213A,123.1683,41.2495,辽阳市,新华园,,41,41,43,17,18,67,,83,80,26,24,14,13,1.1,0.9
2025-05-02T2100,2214A,123.2354,41.2639,辽阳市,滨河路,,46,46,39,17,17,72,,88,86,27,22,12,11,1.0,0.7
2025-05-02T2100,2215A,123.149,41.2991,辽阳市,铁西工业园,颗粒物(PM10),53,55,49,21,23,66,,84,81,19,23,14,14,0.6,0.8
2025-05-02T2100,2227A,125.1358,42.8845,辽源市,环保局,,44,44,31,22,12,69,,102,96,24,14,8,6,0.5,0.3
2025-05-02T2100,3239A,125.0764,42.9078,辽源市,银鹰制药,,27,24,18,14,12,85,,108,104,17,18,3,3,0.4,0.3
2025-05-02T2100,1625A,115.9848,36.4372,聊城市,区政府,颗粒物(PM10),112,174,116,23,29,113,,152,146,12,13,6,9,0.5,0.6
2025-05-02T2100,2878A,116.0072,36.4343,聊城市,聊大东校,颗粒物(PM10),120,190,115,27,42,110,,155,148,10,12,6,10,0.4,0.5
2025-05-02T2100,3200A,115.9819,36.4978,聊城市,监控中心,颗粒物(PM10),71,92,93,27,33,114,,154,147,11,13,7,10,0.5,0.5
2025-05-02T2100,3513A,116.0445,36.4361,聊城市,九州社区,颗粒物(PM10),68,86,78,20,24,115,,165,157,11,13,8,8,0.5,0.6
2025-05-02T2100,4018A,116.0567,36.4608,聊城市,星美广场,颗粒物(PM10),67,84,82,14,21,109,,157,149,19,20,9,12,0.6,0.7
2025-05-02T2100,2632A,94.3681,29.6376,林芝市,林芝监测站,,32,8,7,7,4,100,,105,105,8,7,5,5,0.3,0.2
2025-05-02T2100,2633A,94.3616,29.6616,林芝市,林芝人民医院,,32,15,10,10,6,101,,106,106,4,3,6,5,0.4,0.4
2025-05-02T2100,2603A,100.0781,23.8982,临沧市,市环保局,,50,39,26,35,28,48,,78,74,11,8,6,5,0.8,0.7
2025-05-02T2100,2604A,100.0894,23.8822,临沧市,市气象局,,35,29,23,24,20,49,,88,86,12,9,8,7,0.8,0.7
2025-05-02T2100,1733A,111.5531,36.0783,临汾市,临钢医院,颗粒物(PM10),109,167,133,14,38,106,,141,126,7,23,5,10,0.5,0.8
2025-05-02T2100,1734A,111.5028,36.0714,临汾市,技工学校,颗粒物(PM10),105,159,122,25,34,103,,149,134,30,21,7,13,0.3,0.5
2025-05-02T2100,1736A,111.5018,36.0855,临汾市,市委,颗粒物(PM10),104,158,127,19,37,,,152,148,5,19,7,12,0.3,0.5
2025-05-02T2100,3018A,111.505,36.1014,临汾市,唐尧大酒店,颗粒物(PM10),86,122,128,23,32,103,,141,126,10,23,4,8,0.4,0.5
2025-05-02T2100,4244A,111.4879,36.0530,临汾市,启星学校,颗粒物(PM10),101,152,121,30,40,108,,150,134,7,24,7,12,0.3,0.6
2025-05-02T2100,4271A,103.2464,35.6123,临夏回族自治州,滨河东路1号,细颗粒物(PM2.5),170,,72,129,32,78,,129,120,3,20,8,6,0.3,0.5
2025-05-02T2100,4310A,103.2093,35.5995,临夏回族自治州,新华街21号,颗粒物(PM10),500,618,147,198,53,78,,116,101,10,24,4,5,0.2,0.4
2025-05-02T2100,1618A,118.3429,35.0532,临沂市,沂河小区,颗粒物(PM10),86,122,87,50,42,105,,171,164,30,22,16,13,1.2,0.4
2025-05-02T2100,1619A,118.295,35.0583,临沂市,鲁南制药厂,,,105,76,,41,121,,173,168,32,27,12,12,1.2,0.6
2025-05-02T2100,1620A,118.2794,34.9976,临沂市,新光毛纺厂,细颗粒物(PM2.5),70,70,64,51,35,139,,176,173,25,30,12,14,0.6,0.4
2025-05-02T2100,1621A,118.3956,35.0888,临沂市,河东保险公司,颗粒物(PM10),79,107,69,38,29,107,,185,175,33,27,19,9,1.8,0.4
2025-05-02T2100,3370A,118.3564,35.0215,临沂市,十里堡居委,颗粒物(PM10),78,105,81,46,34,116,,179,173,32,29,8,8,1.3,0.6
2025-05-02T2100,3496A,118.3604,35.1084,临沂市,南坊新区,颗粒物(PM10),74,97,77,53,35,100,,168,161,36,23,17,10,1.7,0.5
2025-05-02T2100,3860A,118.3920,35.0300,临沂市,皇山花园小区,颗粒物(PM10),84,117,81,45,36,107,,180,173,34,27,15,11,1.7,0.5
2025-05-02T2100,1870A,109.4856,24.3895,柳州市,柳东小学,,47,30,49,22,28,148,,148,148,9,17,10,13,0.8,0.6
2025-05-02T2100,1871A,109.4157,24.3277,柳州市,环保监测站,颗粒物(PM10),53,55,57,21,30,126,,137,134,15,26,9,11,0.5,0.5
2025-05-02T2100,1872A,109.389,24.341,柳州市,河西水厂,颗粒物(PM10),51,51,74,24,32,127,,139,136,12,32,5,14,0.7,0.6
2025-05-02T2100,1873A,109.4311,24.2921,柳州市,市四中,,42,42,60,28,25,125,,142,139,15,24,8,10,0.9,0.9
2025-05-02T2100,1874A,109.4006,24.3631,柳州市,市九中,颗粒物(PM10),53,55,61,26,27,134,,148,144,13,20,9,11,0.7,0.6
2025-05-02T2100,1875A,109.4958,24.3134,柳州市,古亭山,,,,46,31,19,,,137,137,,21,8,9,0.7,0.7
2025-05-02T2100,3402A,109.5422,24.3996,柳州市,市二中,,41,23,49,22,25,129,,140,139,12,26,15,13,0.5,0.5
2025-05-02T2100,2307A,116.5079,31.737,六安市,监测大楼,颗粒物(PM10),59,67,56,28,19,129,,136,131,9,12,7,6,0.2,0.2
2025-05-02T2100,2308A,116.4738,31.7643,六安市,皖西学院,颗粒物(PM10),67,83,66,26,20,143,,140,138,10,14,6,5,0.2,0.2
2025-05-02T2100,2309A,116.4996,31.7905,六安市,朝阳厂,颗粒物(PM10),62,73,57,27,21,126,,124,122,10,15,5,4,0.2,0.2
2025-05-02T2100,2310A,116.5567,31.7886,六安市,开发区,颗粒物(PM10),71,91,75,33,31,136,,137,134,8,14,6,7,0.3,0.3
2025-05-02T2100,2576A,104.8,26.5892,六盘水市,窑上,,44,44,44,23,20,88,,128,121,5,5,4,6,0.3,0.3
2025-05-02T2100,2577A,104.83,26.5917,六盘水市,黄土坡,颗粒物(PM10),53,56,49,25,22,121,,136,136,20,13,9,9,0.7,0.5
2025-05-02T2100,2578A,104.89,26.5939,六盘水市,水钢,颗粒物(PM10),51,51,91,24,42,134,,137,137,9,31,10,18,0.3,2.7
2025-05-02T2100,2579A,104.8475,26.5894,六盘水市,民中,颗粒物(PM10),54,57,51,27,24,119,,133,133,17,19,11,10,0.4,0.4
2025-05-02T2100,2580A,104.9544,26.5506,六盘水市,双水,,46,46,64,15,23,126,,135,135,14,18,10,11,0.4,0.5
2025-05-02T2100,2335A,117.0189,25.1181,龙岩市,龙岩师专,,,,,,,,,,,,,,,,
2025-05-02T2100,2336A,117.0217,25.1033,龙岩市,龙岩市监测站,臭氧1小时,60,51,48,41,25,168,,157,157,16,14,11,9,0.6,0.5
2025-05-02T2100,2337A,117.0258,25.0661,龙岩市,闽西职业技术学院,颗粒物(PM10),61,72,53,34,22,150,,143,143,12,15,15,14,0.7,0.6
2025-05-02T2100,2338A,117.0196,25.0306,龙岩市,龙岩学院,"颗粒物(PM10),细颗粒物(PM2.5)",57,63,48,40,27,163,,148,148,9,9,10,9,0.6,0.6
2025-05-02T2100,2665A,105.0822,33.3261,陇南市,汉王镇固水子,,,,,,,,,,,,,,,,
2025-05-02T2100,2885A,104.9339,33.3826,陇南市,滨江中学,颗粒物(PM10),75,99,66,30,26,70,,129,113,21,10,9,11,0.4,0.4
2025-05-02T2100,3247A,104.955,33.371,陇南市,市总工会,颗粒物(PM10),58,65,57,20,21,80,,132,118,18,7,6,7,0.4,0.2
2025-05-02T2100,2487A,111.9589,27.8901,娄底市,电视发射台,颗粒物(PM10),61,71,69,31,23,54,,120,96,8,4,6,7,0.6,0.4
2025-05-02T2100,2488A,111.9975,27.725,娄底市,市监测站,细颗粒物(PM2.5),73,85,86,53,44,91,,121,115,16,33,12,10,0.8,0.9
2025-05-02T2100,2489A,112.0194,27.7314,娄底市,市委党校,颗粒物(PM10),75,99,84,46,35,84,,119,111,14,16,4,4,0.5,0.3
2025-05-02T2100,2490A,111.9561,27.7569,娄底市,涟钢,"颗粒物(PM10),细颗粒物(PM2.5)",97,144,92,72,38,69,,111,105,28,21,17,15,0.8,0.8
2025-05-02T2100,2491A,111.9892,27.7044,娄底市,市政府,细颗粒物(PM2.5),67,82,77,48,36,82,,120,112,10,11,6,6,0.4,0.5
2025-05-02T2100,1893A,105.4324,28.9634,泸州市,九狮山,,,,,,,,,,,,,,,,
2025-05-02T2100,1894A,105.4427,28.9063,泸州市,小市上码头,颗粒物(PM10),84,117,72,48,33,128,,175,173,25,18,10,12,0.6,0.5
2025-05-02T2100,1895A,105.4241,28.8573,泸州市,兰田宪桥,颗粒物(PM10),68,86,79,42,35,98,,160,155,31,19,10,10,0.6,0.5
2025-05-02T2100,1896A,105.4379,28.8833,泸州市,市环监站,,,,,,,,,,,,,,,,
2025-05-02T2100,4272A,105.3689,28.7783,泸州市,纳溪中医医院,颗粒物(PM10),87,123,75,54,41,56,,163,152,55,24,8,9,0.8,0.5
2025-05-02T2100,2183A,111.1406,37.5211,吕梁市,环保局,颗粒物(PM10),73,95,135,37,48,92,,113,109,11,27,3,5,0.3,0.4
2025-05-02T2100,2185A,111.1297,37.5136,吕梁市,自来水公司,细颗粒物(PM2.5),79,88,178,58,50,90,,109,106,13,28,3,5,0.4,0.5
2025-05-02T2100,2867A,111.1283,37.51,吕梁市,马茂庄小学,颗粒物(PM10),74,97,143,24,33,94,,114,111,12,36,4,6,0.3,0.4
2025-05-02T2100,1812A,112.3931,34.6516,洛阳市,市委党校,颗粒物(PM10),108,165,105,48,33,141,,143,143,25,21,10,5,0.8,0.6
2025-05-02T2100,1815A,112.494,34.6886,洛阳市,河南林校,颗粒物(PM10),103,156,135,58,37,145,,163,162,14,19,9,10,0.6,0.4
2025-05-02T2100,1816A,112.3844,34.623,洛阳市,开发区管委会,颗粒物(PM10),117,183,107,61,48,148,,154,154,18,22,11,10,0.7,0.5
2025-05-02T2100,1817A,112.4267,34.6258,洛阳市,市委新办公区,颗粒物(PM10),120,189,108,50,32,139,,153,153,20,18,10,9,0.7,0.4
2025-05-02T2100,3340A,112.6005,34.6326,洛阳市,伊滨,颗粒物(PM10),115,180,146,51,42,152,,178,175,18,18,10,10,0.7,0.5
2025-05-02T2100,3341A,112.4951,34.6332,洛阳市,中移产业园,颗粒物(PM10),290,413,144,53,42,146,,174,170,19,21,10,10,0.9,0.7
2025-05-02T2100,3593A,112.5736,34.8993,洛阳市,吉利监测站,颗粒物(PM10),140,230,137,56,41,144,,178,178,16,19,11,11,0.7,0.5
2025-05-02T2100,3635A,112.3677,34.662,洛阳市,河科大西苑校区,颗粒物(PM10),133,216,120,44,30,156,,164,164,16,22,11,12,0.8,0.6
2025-05-02T2100,3636A,112.4388,34.6781,洛阳市,英才小学,颗粒物(PM10),112,173,116,46,33,149,,166,165,18,27,9,10,0.9,0.7
2025-05-02T2100,4214A,112.4600,34.6949,洛阳市,春都路1号院,颗粒物(PM10),116,182,130,51,36,152,,173,171,14,20,8,7,0.7,0.6
2025-05-02T2100,2399A,114.051,33.5699,漯河市,三五一五工厂,颗粒物(PM10),220,364,119,52,34,146,,138,138,10,10,6,5,0.7,0.6
2025-05-02T2100,2400A,114.0055,33.5698,漯河市,漯河大学,颗粒物(PM10),229,370,114,61,36,146,,138,135,10,10,8,7,0.5,0.4
2025-05-02T2100,2401A,114.0138,33.5828,漯河市,市水利局,颗粒物(PM10),364,471,135,51,40,145,,138,137,10,9,7,6,0.2,0.2
2025-05-02T2100,2402A,114.0261,33.5698,漯河市,市广电局,颗粒物(PM10),309,427,129,54,35,145,,136,135,11,9,6,5,0.6,0.4
2025-05-02T2100,3478A,113.9749,33.5664,漯河市,市图书馆,颗粒物(PM10),199,347,129,58,42,144,,136,134,14,14,5,6,0.6,0.5
2025-05-02T2100,4250A,114.0892,33.5882,漯河市,韶山路11号,颗粒物(PM10),184,318,129,52,37,142,,140,139,11,9,6,4,0.7,0.5
2025-05-02T2100,1798A,118.5092,31.6837,马鞍山市,湖东路四小,颗粒物(PM10),53,56,75,25,23,128,,168,161,12,18,9,9,0.6,0.6
2025-05-02T2100,1799A,118.5024,31.6449,马鞍山市,开发区,颗粒物(PM10),55,60,102,29,35,116,,160,150,22,29,11,10,0.7,0.7
2025-05-02T2100,1802A,118.6245,31.7241,马鞍山市,濮塘,颗粒物(PM10),58,65,66,28,25,135,,177,170,10,10,9,11,0.7,0.6
2025-05-02T2100,3633A,118.4918,31.6809,马鞍山市,雨山,颗粒物(PM10),57,63,74,26,28,118,,164,156,17,19,10,11,0.6,0.7
2025-05-02T2100,4191A,118.5274,31.72227,马鞍山市,慈湖高新区,颗粒物(PM10),57,63,72,26,31,118,,155,149,14,21,9,12,0.6,0.6
2025-05-02T2100,1686A,111.0286,21.4688,茂名市,电白南海,,39,39,36,24,27,41,,77,60,14,13,1,4,0.9,1
2025-05-02T2100,1687A,110.9294,21.6533,茂名市,茂石化七小,,36,36,41,17,25,46,,85,63,8,12,2,16,0.8,0.9
2025-05-02T2100,1688A,110.9107,21.6687,茂名市,健康路,,25,24,32,17,20,51,,94,70,4,9,1,6,0.8,0.9
2025-05-02T2100,1689A,110.8592,21.6828,茂名市,高岭,,44,44,51,14,23,44,,83,62,7,14,3,8,0.7,0.9
2025-05-02T2100,3450A,111.01,21.5165,茂名市,电白水东,,24,24,27,9,17,46,,69,56,8,15,1,5,0.8,1
2025-05-02T2100,2539A,104.0308,30.0478,眉山市,黑龙滩水库,,49,49,33,23,16,93,,174,165,20,12,2,3,0.5,0.4
2025-05-02T2100,2540A,103.8416,30.0874,眉山市,气象局,颗粒物(PM10),61,72,70,27,36,132,,177,173,25,41,5,7,0.4,0.5
2025-05-02T2100,3137A,103.8578,30.0744,眉山市,市委党校,颗粒物(PM10),68,85,62,39,28,86,,167,157,60,49,9,11,0.8,0.5
2025-05-02T2100,3148A,103.8291,30.0564,眉山市,区人社局,,,76,56,31,32,,,171,171,72,56,10,11,0.8,0.6
2025-05-02T2100,1690A,116.1231,24.3284,梅州市,梅江月梅,颗粒物(PM10),59,68,54,29,32,121,,126,126,8,14,9,6,0.8,0.8
2025-05-02T2100,1691A,116.0797,24.2719,梅州市,梅县新城,颗粒物(PM10),56,62,51,30,31,134,,141,141,11,15,7,6,0.7,0.6
2025-05-02T2100,1692A,116.1248,24.2654,梅州市,环境监控中心,,,,49,,28,,,132,132,20,17,9,20,0.6,0.6
2025-05-02T2100,3315A,116.1233,24.2991,梅州市,梅龙,颗粒物(PM10),58,66,49,31,27,122,,132,132,9,9,8,10,0.8,0.8
2025-05-02T2100,1878A,104.7778,31.4741,绵阳市,富乐山,颗粒物(PM10),56,62,58,32,33,123,,163,157,12,15,7,8,0.4,0.4
2025-05-02T2100,1880A,104.6697,31.4668,绵阳市,高新区自来水公司,,42,40,46,29,32,96,,157,148,31,34,5,5,0.6,0.6
2025-05-02T2100,1881A,104.7287,31.5075,绵阳市,三水厂,颗粒物(PM10),56,61,77,28,39,69,,161,145,51,38,8,9,0.6,0.6
2025-05-02T2100,3491A,104.69,31.5322,绵阳市,西科大附属小学,颗粒物(PM10),85,120,69,56,34,36,,167,148,89,33,8,8,0.8,0.6
2025-05-02T2100,3492A,104.5648,31.5343,绵阳市,安州区旅游局,颗粒物(PM10),61,72,58,31,29,63,,166,149,56,20,6,8,0.7,0.5
2025-05-02T2100,4226A,104.7651,31.4531,绵阳市,绵阳市气象局,颗粒物(PM10),57,64,63,32,32,121,,150,147,18,26,2,3,0.5,0.5
2025-05-02T2100,1784A,129.61,44.561,牡丹江市,环保大楼,,37,37,17,23,15,34,,91,76,36,12,6,5,0.5,0.3
2025-05-02T2100,1785A,129.6115,44.5782,牡丹江市,文化广场,细颗粒物(PM2.5),54,54,24,38,18,32,,88,71,43,16,18,9,0.8,0.5
2025-05-02T2100,1786A,129.5904,44.5963,牡丹江市,第一医院,,48,48,20,29,19,46,,95,78,24,9,8,8,0.6,0.4
2025-05-02T2100,1787A,129.6364,44.6075,牡丹江市,机车工厂,,30,28,22,21,14,59,,91,79,14,10,66,29,0.4,0.4
2025-05-02T2100,1788A,129.6386,44.5462,牡丹江市,第一中学,,42,,21,29,17,49,,97,77,16,13,7,7,0.5,0.5
2025-05-02T2100,2531A,105.0703,29.61,内江市,市监测站,细颗粒物(PM2.5),83,103,56,61,38,40,,166,146,68,23,11,12,1.1,0.6
2025-05-02T2100,2532A,105.0717,29.5947,内江市,东兴区政府,,,98,55,54,31,29,,168,150,,22,,15,,0.8
2025-05-02T2100,2533A,105.0653,29.5817,内江市,内江二中,颗粒物(PM10),72,94,63,49,38,59,,163,148,66,28,8,8,0.8,0.5
2025-05-02T2100,2534A,105.0406,29.5822,内江市,内江日报社,细颗粒物(PM2.5),69,79,55,50,38,63,,165,154,73,26,14,14,0.8,0.5
2025-05-02T2100,2628A,92.0657,31.4846,那曲市,那曲监测站,,39,39,24,17,12,116,,110,109,9,18,6,7,0.3,0.5
2025-05-02T2100,4243A,92.0515,31.4787,那曲市,那曲市委宣传部,,,31,22,13,12,,,121,121,2,10,5,7,0.2,0.4
2025-05-02T2100,1290A,115.8931,28.6843,南昌市,省外办,,,49,55,34,35,113,,137,134,,27,7,9,0.6,0.6
2025-05-02T2100,1291A,115.8886,28.7003,南昌市,省林业公司,颗粒物(PM10),53,56,59,29,31,109,,139,135,14,17,9,12,0.7,0.7
2025-05-02T2100,1292A,115.8126,28.7442,南昌市,林科所,,41,41,47,24,23,87,,154,142,25,30,5,6,0.3,0.4
2025-05-02T2100,1294A,115.8518,28.687,南昌市,建工学校,细颗粒物(PM2.5),60,53,66,43,51,103,,135,130,26,26,6,8,0.6,0.6
2025-05-02T2100,1295A,115.8921,28.6424,南昌市,象湖,,46,46,59,22,29,79,,140,129,35,29,8,11,0.7,0.7
2025-05-02T2100,1296A,115.7423,28.7996,南昌市,武术学校,,39,,31,27,13,71,,147,128,6,3,5,5,0.5,0.4
2025-05-02T2100,3046A,115.9084,28.6062,南昌市,机电学校,颗粒物(PM10),61,72,68,36,31,87,,149,139,33,24,6,7,0.5,0.5
2025-05-02T2100,3690A,115.9721,28.7031,南昌市,外国语学校,颗粒物(PM10),55,60,61,16,26,119,,154,150,22,16,9,10,0.3,0.4
2025-05-02T2100,4192A,115.9316,28.68677,南昌市,南京东路235号,颗粒物(PM10),56,61,67,36,31,102,,152,144,30,26,12,13,0.8,0.8
2025-05-02T2100,1905A,106.056,30.8064,南充市,西山风景区,,,,,,,,,,,,,,,,
2025-05-02T2100,1906A,106.0789,30.8023,南充市,南充市委,颗粒物(PM10),77,103,73,45,36,51,,165,146,69,29,6,5,0.9,0.6
2025-05-02T2100,1907A,106.1031,30.8217,南充市,南充炼油厂,颗粒物(PM10),70,90,76,44,38,82,,165,156,51,18,6,5,0.7,0.5
2025-05-02T2100,4227A,106.1083,30.7884,南充市,梨树横街98号,颗粒物(PM10),83,115,79,51,33,87,,164,153,49,27,6,4,0.5,0.4
2025-05-02T2100,4304A,106.1172,30.843,南充市,清泉寺北路188号,颗粒物(PM10),70,90,70,39,36,105,,162,156,37,15,7,6,0.2,0.2
2025-05-02T2100,4305A,106.067,30.7616,南充市,同庆路1号,颗粒物(PM10),76,102,77,41,36,7,,162,136,115,36,5,5,0.8,0.3
2025-05-02T2100,1151A,118.8086,32.1065,南京市,迈皋桥,,46,46,52,24,22,119,,154,147,16,26,4,6,0.8,0.6
2025-05-02T2100,1152A,118.7538,32.0551,南京市,草场门,颗粒物(PM10),56,61,69,19,25,116,,152,145,22,25,6,4,0.5,0.4
2025-05-02T2100,1153A,118.7794,32.0745,南京市,山西路,颗粒物(PM10),64,78,80,24,21,126,,163,155,15,23,9,7,0.5,0.5
2025-05-02T2100,1154A,118.7752,32.0023,南京市,中华门,颗粒物(PM10),53,56,64,19,21,117,,147,141,14,18,8,8,0.4,0.4
2025-05-02T2100,1155A,118.8109,32.0309,南京市,瑞金路,颗粒物(PM10),51,51,63,22,20,123,,157,149,14,12,6,6,0.3,0.4
2025-05-02T2100,1156A,118.7997,32.0754,南京市,玄武湖,颗粒物(PM10),52,53,61,18,17,120,,152,146,8,9,10,9,0.5,0.5
2025-05-02T2100,1157A,118.6414,32.0931,南京市,浦口,颗粒物(PM10),58,65,76,25,20,112,,153,146,24,21,7,7,0.5,0.5
2025-05-02T2100,1158A,118.7356,31.9996,南京市,奥体中心,颗粒物(PM10),53,56,66,27,23,128,,169,161,12,15,5,6,0.4,0.4
2025-05-02T2100,1159A,118.9125,32.1028,南京市,仙林大学城,颗粒物(PM10),52,53,69,22,21,134,,164,155,15,18,12,11,0.5,0.5
2025-05-02T2100,3422A,118.8436,31.9198,南京市,江宁彩虹桥,颗粒物(PM10),63,76,69,22,24,130,,169,160,16,19,5,4,0.4,0.4
2025-05-02T2100,3427A,118.8554,32.3578,南京市,六合雄州,颗粒物(PM10),64,77,69,29,25,118,,164,155,36,38,20,10,1.4,0.6
2025-05-02T2100,4249A,118.8708,31.3402,南京市,汶溪路181号,,,,49,28,25,112,,144,138,14,20,4,4,0.4,0.4
2025-05-02T2100,4312A,119.019,31.6512,南京市,中山西路1号,,44,44,50,18,23,128,,154,150,16,20,7,9,0.7,0.6
2025-05-02T2100,1401A,108.3103,22.7881,南宁市,二十一中,,46,42,49,32,30,128,,136,135,10,24,6,5,0.9,0.8
2025-05-02T2100,1402A,108.3141,22.8528,南宁市,北湖,颗粒物(PM10),57,64,47,31,25,127,,144,138,12,32,7,8,1.0,0.8
2025-05-02T2100,1403A,108.3206,22.8225,南宁市,市监测站,,50,50,48,30,30,112,,120,117,11,24,7,11,0.9,0.6
2025-05-02T2100,1404A,108.3829,22.8037,南宁市,大自然花园,颗粒物(PM10),51,51,40,30,24,128,,144,140,7,17,6,6,0.8,0.6
2025-05-02T2100,1405A,108.4394,22.7904,南宁市,仙葫,,48,36,48,33,30,108,,122,120,7,25,7,6,0.9,0.8
2025-05-02T2100,1406A,108.2397,22.8467,南宁市,区农职院,细颗粒物(PM2.5),59,65,52,42,25,128,,143,138,12,18,8,8,1.0,0.7
2025-05-02T2100,1407A,108.3275,22.735,南宁市,英华嘉园,,39,35,51,27,35,122,,135,134,18,34,10,8,0.8,0.7
2025-05-02T2100,3401A,108.4834,22.7618,南宁市,红星社区,,50,40,44,35,28,123,,149,143,7,20,9,9,0.7,0.5
2025-05-02T2100,4221A,108.2177,22.7774,南宁市,乐贤路16号,颗粒物(PM10),53,56,59,29,34,113,,129,127,14,27,7,6,0.8,0.6
2025-05-02T2100,2331A,118.0966,26.6761,南平市,茫荡山,,,,,,,,,,,,,,,,
2025-05-02T2100,2332A,118.1681,26.6369,南平市,南平市监测站,,43,29,36,17,25,137,,117,117,6,11,4,4,0.7,0.9
2025-05-02T2100,2333A,118.1825,26.6489,南平市,南平铝业有限公司,,43,35,41,15,24,135,,103,103,2,10,3,4,0.5,0.8
2025-05-02T2100,2334A,118.1756,26.6272,南平市,南平七中,,43,39,56,23,24,137,,122,122,4,9,4,4,0.6,0.7
2025-05-02T2100,1168A,120.9098,31.9663,南通市,狼山街道,颗粒物(PM10),61,71,65,25,25,109,,187,180,58,31,10,6,0.5,0.6
2025-05-02T2100,1169A,120.86,32.0005,南通市,虹桥,颗粒物(PM10),54,58,56,24,29,146,,193,188,28,31,3,5,0.6,0.7
2025-05-02T2100,1170A,120.87,32.02,南通市,城中,颗粒物(PM10),66,81,70,24,26,148,,202,197,29,29,5,6,0.4,0.4
2025-05-02T2100,1171A,120.94,31.93,南通市,星湖花园,颗粒物(PM10),57,63,62,25,27,138,,178,175,29,30,5,6,0.5,0.6
2025-05-02T2100,1172A,120.81,32.0417,南通市,紫琅学院,颗粒物(PM10),58,66,61,21,23,84,,165,146,75,37,6,7,0.6,0.7
2025-05-02T2100,3291A,121.067,32.062,南通市,通州监测站,颗粒物(PM10),56,61,65,22,27,136,,191,186,26,17,7,8,0.5,0.5
2025-05-02T2100,3432A,120.9348,31.9883,南通市,环境教育馆,颗粒物(PM10),57,63,67,22,31,154,,191,188,19,28,6,5,0.3,0.4
2025-05-02T2100,2404A,112.5224,33.0122,南阳市,瓦房庄,颗粒物(PM10),81,111,101,35,28,128,,149,147,13,13,6,7,0.5,0.5
2025-05-02T2100,2405A,112.5003,32.9735,南阳市,汉画馆,颗粒物(PM10),79,108,98,33,30,117,,143,140,15,12,6,6,0.4,0.3
2025-05-02T2100,2406A,112.5573,33.027,南阳市,气象站,颗粒物(PM10),90,129,112,44,36,125,,149,147,14,10,6,6,0.3,0.5
2025-05-02T2100,2407A,112.5481,32.9689,南阳市,理工学院,颗粒物(PM10),81,111,100,34,30,124,,146,144,14,14,5,6,0.4,0.4
2025-05-02T2100,4008A,112.5234,32.9922,南阳市,卧龙区政府,颗粒物(PM10),82,113,107,34,33,120,,150,146,19,13,5,6,0.5,0.5
2025-05-02T2100,1234A,121.8358,29.911,宁波市,区环保大楼,颗粒物(PM10),52,53,50,15,24,145,,149,148,24,18,8,9,0.4,0.4
2025-05-02T2100,1235A,121.56,29.82,宁波市,万里学院,,47,47,52,25,24,140,,154,154,13,25,6,6,0.4,0.5
2025-05-02T2100,1236A,121.713,29.9572,宁波市,龙赛医院,,,,99,15,16,151,,159,159,3,20,5,6,0.6,0.6
2025-05-02T2100,1239A,121.633,29.7733,宁波市,钱湖水厂,,48,48,44,17,19,142,,157,156,6,9,8,8,0.4,0.4
2025-05-02T2100,1240A,121.5856,29.8635,宁波市,太古小学,颗粒物(PM10),52,53,54,17,16,136,,147,146,10,26,6,6,0.8,0.8
2025-05-02T2100,1241A,121.524,29.8674,宁波市,市环境监测中心,,47,47,50,20,20,136,,145,144,13,23,8,9,0.6,0.6
2025-05-02T2100,2871A,121.6147,29.9017,宁波市,万里国际学校,颗粒物(PM10),51,51,53,18,18,150,,158,158,6,16,8,9,0.5,0.5
2025-05-02T2100,3710A,121.5594,29.8975,宁波市,白沙活动中心,,50,50,52,19,23,136,,147,146,5,23,8,8,0.5,0.6
2025-05-02T2100,2339A,119.5001,26.6946,宁德市,金涵水库,,,,,,,,,,,,,,,,
2025-05-02T2100,2341A,119.5388,26.6612,宁德市,宁德市监测站,颗粒物(PM10),53,56,45,25,25,115,,155,150,16,18,5,5,0.6,0.6
2025-05-02T2100,3209A,119.5231,26.6562,宁德市,宁德一中,,42,42,40,23,24,116,,148,144,11,10,7,7,0.4,0.4
2025-05-02T2100,2618A,98.8601,25.8567,怒江傈僳族自治州,州监测站,,42,42,22,18,10,72,,85,85,12,5,7,7,0.3,0.2
2025-05-02T2100,2619A,98.8546,25.8417,怒江傈僳族自治州,泸水一中,,25,25,19,7,10,43,,64,64,19,9,6,6,0.5,0.3
2025-05-02T2100,1888A,101.6891,26.571,攀枝花市,弄弄坪,,30,27,31,13,14,96,,128,119,9,13,8,18,0.4,1
2025-05-02T2100,1889A,101.5769,26.5928,攀枝花市,河门口,,,27,28,15,13,,,112,111,8,8,5,7,0.4,0.4
2025-05-02T2100,1890A,101.7169,26.585,攀枝花市,炳草岗,,29,26,37,14,13,90,,130,118,15,16,2,5,0.4,0.6
2025-05-02T2100,1891A,101.7369,26.5008,攀枝花市,仁和,,31,21,29,11,16,97,,122,112,7,11,7,9,0.4,0.4
2025-05-02T2100,2835A,101.7227,26.567,攀枝花市,四十中小,,33,26,28,17,16,104,,139,129,7,9,6,12,0.4,0.6
2025-05-02T2100,1604A,122.0303,41.1489,盘锦市,开发区,,33,17,28,9,17,104,,100,100,11,27,8,11,0.4,0.5
2025-05-02T2100,1605A,122.0485,41.0883,盘锦市,兴隆台,,28,,37,9,15,87,,87,87,16,30,8,10,0.5,0.6
2025-05-02T2100,1606A,121.8297,41.1028,盘锦市,新生街道,,33,12,24,6,13,103,,104,104,17,24,7,14,0.4,0.5
2025-05-02T2100,1832A,113.3257,33.742,平顶山市,新华旅馆,颗粒物(PM10),270,399,122,37,23,150,,153,153,14,13,6,6,0.5,0.4
2025-05-02T2100,1833A,113.2919,33.737,平顶山市,规划设计院,颗粒物(PM10),162,274,114,60,41,146,,148,148,17,13,6,6,0.6,0.4
2025-05-02T2100,1834A,113.182,33.774,平顶山市,平顶山工学院,颗粒物(PM10),185,319,111,48,38,154,,154,154,11,9,7,4,0.5,0.2
2025-05-02T2100,3204A,113.3025,33.73,平顶山市,规划局,颗粒物(PM10),334,447,128,54,29,150,,149,149,9,7,7,7,0.5,0.3
2025-05-02T2100,3594A,112.8867,33.9116,平顶山市,石龙区,颗粒物(PM10),263,394,134,,47,158,,162,162,15,15,10,8,0.3,0.2
2025-05-02T2100,2656A,106.6692,35.5461,平凉市,聚贤嘉苑,,,,65,,24,,,76,,,26,,10,,0.5
2025-05-02T2100,2657A,106.7021,35.5307,平凉市,博物馆,颗粒物(PM10),498,598,138,103,31,102,,121,115,5,18,9,11,0.4,0.6
2025-05-02T2100,2347A,114.0997,27.5002,萍乡市,武功山,颗粒物(PM10),53,55,41,35,16,80,,109,98,10,8,15,14,0.4,0.3
2025-05-02T2100,2348A,113.8385,27.6434,萍乡市,中医院,颗粒物(PM10),53,56,64,31,28,61,,119,105,20,12,12,11,0.7,0.8
2025-05-02T2100,2349A,113.8493,27.6253,萍乡市,市政府车库,颗粒物(PM10),55,59,53,30,32,54,,121,104,22,12,7,8,0.5,1
2025-05-02T2100,2350A,113.8676,27.6435,萍乡市,市环保局,颗粒物(PM10),63,76,69,39,34,64,,124,107,19,15,7,8,0.7,1
2025-05-02T2100,2351A,113.866,27.6198,萍乡市,安源区政府,颗粒物(PM10),64,77,67,31,29,60,,109,97,12,13,7,5,0.5,1.6
2025-05-02T2100,2319A,119.0141,25.4325,莆田市,荔城区仓后路,颗粒物(PM10),54,58,57,26,32,131,,141,141,16,15,4,4,0.8,0.7
2025-05-02T2100,2320A,119.0015,25.4553,莆田市,莆田市监测站,,38,36,46,22,24,121,,143,141,10,10,4,5,0.5,0.5
2025-05-02T2100,2321A,119.1119,25.4561,莆田市,涵江区六中,,50,50,56,17,32,145,,149,149,12,21,4,4,0.5,0.5
2025-05-02T2100,2322A,119.1013,25.3215,莆田市,秀屿区政府,颗粒物(PM10),51,52,61,24,42,142,,150,150,11,15,5,6,0.6,0.7
2025-05-02T2100,2323A,118.981,25.4792,莆田市,东圳水库,,,,,,,,,,,,,,,,
2025-05-02T2100,2392A,115.0312,35.7636,濮阳市,环保局,颗粒物(PM10),73,96,88,25,28,122,,153,151,16,16,8,9,0.7,0.6
2025-05-02T2100,2394A,115.0574,35.7609,濮阳市,油田运输公司,,,,90,33,29,133,,166,163,14,16,7,8,0.9,0.8
2025-05-02T2100,3021A,115,35.7668,濮阳市,濮水河管理处,颗粒物(PM10),83,115,87,31,30,124,,159,155,13,14,5,7,0.8,0.7
2025-05-02T2100,4216A,115.0924,35.7686,濮阳市,任丘路479号,颗粒物(PM10),88,125,88,39,30,126,,160,157,14,15,7,9,0.8,0.7
2025-05-02T2100,2601A,100.98,22.7633,普洱市,市环保局,,,31,32,10,15,39,,74,64,10,8,6,6,,0.5
2025-05-02T2100,2602A,100.9817,22.8322,普洱市,普洱第二中学,,13,12,19,9,14,41,,75,67,9,9,6,6,0.5,0.5
2025-05-02T2100,2262A,131.0518,45.8751,七台河市,新一中,,36,36,25,18,19,71,,112,101,17,11,11,11,0.7,0.7
2025-05-02T2100,3345A,131.0577,45.7879,七台河市,中波台,,39,39,30,21,21,57,,91,83,30,18,8,7,0.4,0.4
2025-05-02T2100,3637A,131.0176,45.7761,七台河市,人民广场,细颗粒物(PM2.5),60,,42,43,31,49,,98,85,42,21,10,11,0.7,0.6
2025-05-02T2100,3684A,130.8781,45.8222,七台河市,新建矿广场,,33,29,37,23,19,47,,88,77,20,18,10,11,0.5,0.5
2025-05-02T2100,1779A,123.9305,47.3636,齐齐哈尔市,安居小区,,23,23,22,7,9,70,,90,87,15,11,3,3,0.4,0.4
2025-05-02T2100,1780A,123.9488,47.3386,齐齐哈尔市,中心广场,,33,33,26,7,7,76,,88,87,20,13,7,7,0.4,0.3
2025-05-02T2100,1781A,123.9483,47.3227,齐齐哈尔市,农牧车辆厂,,25,24,27,17,11,74,,90,88,13,10,5,5,0.3,0.2
2025-05-02T2100,1783A,123.945,47.2988,齐齐哈尔市,市环境监测站,,24,23,24,10,8,76,,92,90,10,9,3,3,0.5,0.4
2025-05-02T2100,3662A,123.6333,47.2075,齐齐哈尔市,富区青少年活动中心,,22,15,28,12,15,68,,89,85,8,10,2,2,0.5,0.5
2025-05-02T2100,2591A,107.9783,26.5747,黔东南苗族侗族自治州,市环境监测站,,49,49,50,24,27,90,,113,110,13,14,4,4,0.4,0.4
2025-05-02T2100,2881A,107.8908,26.5311,黔东南苗族侗族自治州,凯里学院,颗粒物(PM10),51,51,48,26,26,110,,120,119,3,11,3,3,0.3,0.3
2025-05-02T2100,2593A,107.5228,26.2403,黔南布依族苗族自治州,小围寨,,44,44,39,22,19,77,,129,121,15,11,4,3,0.2,0.2
2025-05-02T2100,3538A,107.5175,26.2978,黔南布依族苗族自治州,沙坝,,48,48,44,27,19,83,,116,111,16,10,5,4,0.3,0.3
2025-05-02T2100,2589A,104.9022,25.0925,黔西南布依族苗族自治州,场坝街,颗粒物(PM10),60,69,52,36,29,99,,130,124,14,17,4,23,0.4,0.4
2025-05-02T2100,2590A,104.8811,25.0992,黔西南布依族苗族自治州,坪东大道,,,57,34,24,19,,,125,116,26,20,4,5,0.5,0.3
2025-05-02T2100,2502A,108.6236,21.9667,钦州市,市环保站,,39,39,41,19,22,74,,129,116,22,19,6,5,0.9,0.9
2025-05-02T2100,2503A,108.6549,21.9481,钦州市,沙埠小学,,36,,48,25,30,72,,126,111,25,22,10,9,1.3,1
2025-05-02T2100,2504A,108.5989,21.7431,钦州市,港区一小,,40,40,63,19,25,94,,112,106,15,27,8,9,0.8,0.9
2025-05-02T2100,3404A,108.5959,21.9633,钦州市,北职校,,43,43,44,22,30,67,,120,103,23,21,10,8,0.9,0.9
2025-05-02T2100,1043A,119.7493,40.0116,秦皇岛市,第一关,,41,40,34,21,18,21,,84,78,81,45,4,4,0.4,0.3
2025-05-02T2100,1044A,119.5897,39.9499,秦皇岛市,监测站,,46,46,46,16,15,76,,84,84,24,35,4,4,0.4,0.4
2025-05-02T2100,1046A,119.5251,39.9041,秦皇岛市,建设大厦,,46,46,46,28,16,65,,87,86,36,42,4,6,0.4,0.4
2025-05-02T2100,3132A,119.610547,39.943889,秦皇岛市,文明里,,38,38,46,21,16,75,,78,77,26,36,4,3,0.4,0.3
2025-05-02T2100,4198A,119.5090,39.8253,秦皇岛市,北戴河轮滑馆,,40,40,33,21,14,56,,80,76,34,31,5,4,0.5,0.4
2025-05-02T2100,1307A,120.6659,36.2403,青岛市,仰口,,44,44,38,18,18,126,,134,131,9,9,6,7,0.5,0.5
2025-05-02T2100,1310A,120.4134,36.0658,青岛市,市南区东部子站,,39,39,46,7,16,110,,125,120,9,15,7,8,0.4,0.4
2025-05-02T2100,1311A,120.3664,36.1032,青岛市,四方区子站,,41,41,44,14,17,130,,143,139,23,24,2,10,0.6,0.6
2025-05-02T2100,1312A,120.2994,36.054,青岛市,市南区西部子站,,41,41,41,10,15,116,,128,126,12,25,7,7,0.6,0.7
2025-05-02T2100,1313A,120.4581,36.0858,青岛市,崂山区子站,,41,41,38,7,11,121,,135,130,8,12,8,8,0.4,0.5
2025-05-02T2100,1315A,120.3999,36.3083,青岛市,城阳区子站,,36,36,45,17,14,107,,147,134,20,22,3,2,0.5,0.5
2025-05-02T2100,1966A,120.0405,35.8735,青岛市,黄岛区4号,,46,46,44,14,16,122,,139,136,14,14,8,8,0.5,0.6
2025-05-02T2100,3362A,120.5014,36.4034,青岛市,即墨2号,,34,33,44,10,11,107,,139,126,11,10,7,8,0.5,0.6
2025-05-02T2100,3642A,120.3503,36.0736,青岛市,市北区南部,,43,43,45,14,16,111,,126,122,8,11,6,8,0.6,0.7
2025-05-02T2100,3643A,120.3948,36.1805,青岛市,李沧区北部,颗粒物(PM10),51,51,50,12,19,118,,133,128,17,21,8,8,0.5,0.6
2025-05-02T2100,4290A,120.1969,35.9546,青岛市,珠江路669号,,41,41,47,15,23,114,,133,127,17,18,6,7,0.5,0.6
2025-05-02T2100,1702A,113.0426,23.691,清远市,环保大楼,,48,48,40,29,32,145,,188,186,19,14,6,8,0.8,0.8
2025-05-02T2100,1703A,113.0208,23.7106,清远市,凤城街办,颗粒物(PM10),55,60,44,23,28,122,,163,160,24,18,9,6,0.6,0.6
2025-05-02T2100,3025A,113.0477,23.6344,清远市,技师学院,颗粒物(PM10),56,62,46,29,27,116,,159,157,23,19,7,9,0.6,0.6
2025-05-02T2100,3318A,112.9903,23.7403,清远市,清新太和,颗粒物(PM10),57,64,47,30,25,132,,161,160,20,12,7,8,0.7,0.7
2025-05-02T2100,3455A,113.076,23.7198,清远市,清城东城,颗粒物(PM10),54,58,46,31,27,136,,160,159,21,12,7,8,0.7,0.7
2025-05-02T2100,2661A,107.6325,35.7357,庆阳市,庆阳五中,颗粒物(PM10),491,591,144,134,45,94,,118,110,4,11,2,7,0.4,0.5
2025-05-02T2100,2662A,107.6364,35.7067,庆阳市,市环保局,颗粒物(PM10),436,536,133,133,39,,,120,113,4,7,5,8,0.3,0.6
2025-05-02T2100,1916A,103.7897,25.5035,曲靖市,环境监测站,,39,39,41,16,17,112,,134,132,15,19,6,6,0.4,0.4
2025-05-02T2100,1917A,103.8,25.5364,曲靖市,烟厂办公区,,42,42,47,14,20,115,,138,136,12,17,4,12,0.4,0.4
2025-05-02T2100,3376A,103.7947,25.462,曲靖市,南苑二区,,37,37,37,10,14,118,,137,135,12,13,8,6,0.4,0.4
2025-05-02T2100,3377A,103.7444,25.5261,曲靖市,曲靖师范学院,,38,31,43,16,23,119,,139,137,9,17,6,28,0.3,0.3
2025-05-02T2100,1264A,118.8692,28.9398,衢州市,环保大楼,颗粒物(PM10),54,58,44,26,21,58,,120,109,36,16,4,4,0.6,0.5
