timepoint,stationcode,longitude,latitude,area,positionname,primarypollutant,aqi,pm10,pm10_24h,pm2_5,pm2_5_24h,o3,o3_24h,o3_8h,o3_8h_24h,no2,no2_24h,so2,so2_24h,co,co_24h
2024-09-25T2000,2566A,102.1879,31.914,阿坝藏族羌族自治州,州农科所,,20,20,19,10,9,26,,60,56,29,11,9,8,0.0,0
2024-09-25T2000,2568A,102.2502,31.8896,阿坝藏族羌族自治州,马师校,,,25,19,,8,28,,65,59,14,6,4,4,0.4,0.3
2024-09-25T2000,3994A,102.2165,31.9024,阿坝藏族羌族自治州,马尔康中学西区,,30,27,17,21,16,36,,65,62,12,9,6,6,0.5,0.4
2024-09-25T2000,2695A,80.292,41.1694,阿克苏地区,电视台,颗粒物(PM10),125,200,161,70,49,109,,119,119,11,30,3,3,0.4,0.6
2024-09-25T2000,2696A,80.2613,41.1551,阿克苏地区,艺术中心,颗粒物(PM10),119,187,154,64,45,113,,116,116,8,35,3,4,0.4,1.2
2024-09-25T2000,2204A,105.6467,38.8363,阿拉善盟,西城区西花园,颗粒物(PM10),57,64,40,26,21,98,,132,127,24,15,11,10,0.7,0.8
2024-09-25T2000,2205A,105.6985,38.8411,阿拉善盟,蒙二幼,颗粒物(PM10),55,59,38,18,11,99,,117,116,18,11,6,7,0.5,0.5
2024-09-25T2000,2206A,105.724,38.8516,阿拉善盟,环保局新楼,,49,49,34,17,11,108,,114,114,10,8,9,9,0.5,0.4
2024-09-25T2000,2708A,88.1264,47.8517,阿勒泰地区,市站,,26,26,29,9,8,48,,72,71,31,16,9,8,0.5,0.4
2024-09-25T2000,2630A,80.1161,32.5,阿里地区,阿里监测站,,36,7,15,3,6,114,,109,109,4,13,7,8,0.3,0.3
2024-09-25T2000,3192A,80.0903,32.5028,阿里地区,阿里藏医院,,36,12,17,3,5,114,,108,108,4,10,6,6,0.3,0.3
2024-09-25T2000,2642A,109.0318,32.6537,安康市,香溪洞,,42,27,46,15,23,132,,133,133,7,12,9,10,0.3,0.4
2024-09-25T2000,2643A,109.0281,32.6939,安康市,安康市监测站,颗粒物(PM10),75,100,47,50,28,58,,130,123,44,16,10,13,1.4,0.7
2024-09-25T2000,2644A,109.0072,32.6975,安康市,汉滨区检察院,,44,44,42,26,26,84,,133,130,25,15,10,9,0.5,0.5
2024-09-25T2000,2291A,117.0809,30.5177,安庆市,环科院,颗粒物(PM10),57,64,49,33,31,152,,176,176,18,24,9,9,0.7,0.7
2024-09-25T2000,2292A,117.0331,30.5119,安庆市,马山宾馆,细颗粒物(PM2.5),53,52,48,37,33,154,,179,179,20,23,10,10,0.7,0.7
2024-09-25T2000,2294A,116.9896,30.6145,安庆市,安庆大学,颗粒物(PM10),55,59,45,34,28,141,,163,161,12,18,9,8,0.4,0.5
2024-09-25T2000,3173A,117.0598,30.5351,安庆市,市人大,细颗粒物(PM2.5),57,53,50,40,33,142,,173,173,20,19,9,9,0.7,0.7
2024-09-25T2000,3123A,105.9408,26.2431,安顺市,凤凰山,细颗粒物(PM2.5),189,148,55,142,45,138,,166,164,18,15,10,11,1.0,0.7
2024-09-25T2000,3124A,105.9439,26.2564,安顺市,金钟山,细颗粒物(PM2.5),163,,44,124,38,131,,164,161,18,9,10,12,1.0,0.7
2024-09-25T2000,3125A,105.8983,26.2481,安顺市,娄家坡,细颗粒物(PM2.5),134,120,49,102,38,141,,164,163,18,11,10,10,0.9,0.7
2024-09-25T2000,1819A,114.3551,36.1017,安阳市,红庙街,细颗粒物(PM2.5),84,112,102,62,55,144,,195,193,31,28,10,9,0.8,0.7
2024-09-25T2000,1820A,114.361,36.0681,安阳市,银杏小区,颗粒物(PM10),84,117,101,49,46,142,,192,190,26,24,8,8,0.8,0.7
2024-09-25T2000,3141A,114.3922,36.0878,安阳市,信访局,颗粒物(PM10),94,137,104,59,58,145,,200,197,38,32,8,8,0.9,0.8
2024-09-25T2000,3669A,114.4705,36.0637,安阳市,左辅环卫站,颗粒物(PM10),114,178,142,79,72,125,,191,186,42,36,8,9,0.7,0.7
2024-09-25T2000,3703A,114.2917,36.0949,安阳市,安钢职工学校,细颗粒物(PM2.5),90,113,114,67,65,136,,186,183,34,31,10,13,0.9,1
2024-09-25T2000,1748A,123.044,41.1196,鞍山市,深沟寺,细颗粒物(PM2.5),57,54,32,40,20,10,,112,26,27,15,4,4,0.6,0.6
2024-09-25T2000,1749A,123.011,41.0931,鞍山市,太阳城,"颗粒物(PM10),细颗粒物(PM2.5)",54,57,37,38,20,9,,107,29,25,14,6,6,0.5,0.5
2024-09-25T2000,1750A,123.0485,41.1442,鞍山市,太平,细颗粒物(PM2.5),68,78,41,49,22,7,,106,31,52,26,8,7,0.8,0.7
2024-09-25T2000,1751A,122.9642,41.0971,鞍山市,铁西三道街,细颗粒物(PM2.5),82,81,59,60,35,9,,81,32,49,33,6,6,0.7,0.9
2024-09-25T2000,1752A,122.9341,41.0833,鞍山市,铁西工业园区,细颗粒物(PM2.5),77,80,49,56,27,7,,87,24,53,30,6,7,0.7,0.8
2024-09-25T2000,1753A,123.022,41.0821,鞍山市,明达新区,细颗粒物(PM2.5),62,64,35,44,20,7,,108,30,43,17,5,5,0.6,0.6
2024-09-25T2000,2195A,107.4212,40.761,巴彦淖尔市,附二中,颗粒物(PM10),68,86,38,25,17,76,,107,105,28,15,24,8,0.6,0.6
2024-09-25T2000,2196A,107.37,40.7372,巴彦淖尔市,市环保大楼,,39,39,32,16,10,75,,108,106,30,13,4,5,0.5,0.4
2024-09-25T2000,1956A,86.1472,41.7538,巴音郭楞蒙古自治州,孔雀公园,颗粒物(PM10),68,86,46,19,15,87,,102,102,16,18,7,9,0.7,0.3
2024-09-25T2000,1957A,86.1972,41.7166,巴音郭楞蒙古自治州,棉纺厂,颗粒物(PM10),61,72,42,27,15,92,,104,104,16,17,5,6,0.2,0.2
2024-09-25T2000,1958A,86.2357,41.7173,巴音郭楞蒙古自治州,经济开发区,颗粒物(PM10),52,53,31,15,12,97,,104,104,13,7,8,7,0.3,0.3
2024-09-25T2000,2914A,106.7677,31.8794,巴中市,苏山坪,,42,41,34,29,25,110,,127,127,17,10,4,4,0.5,0.4
2024-09-25T2000,3182A,106.7656,31.8545,巴中市,丽阳花园,细颗粒物(PM2.5),84,82,52,62,41,61,,125,121,39,24,6,5,1.0,0.7
2024-09-25T2000,3183A,106.7418,31.8654,巴中市,圣泉水务公司,细颗粒物(PM2.5),62,60,41,44,34,42,,125,118,58,19,4,4,0.8,0.6
2024-09-25T2000,3616A,106.7616,31.8344,巴中市,市中心医院,,48,47,55,33,38,59,,124,119,45,25,5,5,0.7,0.6
2024-09-25T2000,2235A,122.7911,45.6077,白城市,洮北区环保局,,,37,15,29,12,24,,52,,,9,11,5,0.9,0.2
2024-09-25T2000,2236A,122.8738,45.5725,白城市,市环保局,,43,43,31,15,6,5,,76,61,61,15,7,5,0.5,0.3
2024-09-25T2000,2231A,126.4219,41.9171,白山市,喜丰,,36,36,51,21,18,83,,69,60,12,21,5,9,0.7,0.6
2024-09-25T2000,2232A,126.4077,41.9419,白山市,环保局,,33,33,43,11,16,55,,56,53,16,24,8,9,0.8,0.7
2024-09-25T2000,2647A,104.1724,36.5446,白银市,第三小学,,29,19,87,7,31,92,,101,101,13,13,6,13,0.6,0.7
2024-09-25T2000,2648A,104.1465,36.5482,白银市,动力公司,,30,,83,7,26,93,,100,100,6,10,4,9,0.2,0.4
2024-09-25T2000,2512A,106.6103,23.9011,百色市,市监测站,颗粒物(PM10),59,67,44,38,24,87,,142,138,19,15,8,10,0.7,0.5
2024-09-25T2000,2513A,106.6538,23.8859,百色市,市中心血站,颗粒物(PM10),68,86,54,35,30,131,,153,153,19,23,26,12,0.9,0.6
2024-09-25T2000,3406A,106.6085,23.8798,百色市,祈福高中,颗粒物(PM10),74,98,63,30,27,59,,130,124,50,27,8,8,0.8,0.6
2024-09-25T2000,2270A,117.396,32.939,蚌埠市,工人疗养院,颗粒物(PM10),59,68,63,31,29,111,,153,145,25,36,6,10,0.5,0.4
2024-09-25T2000,2271A,117.3605,32.9427,蚌埠市,百货大楼,颗粒物(PM10),58,65,63,23,27,101,,152,145,38,40,6,9,0.5,0.5
2024-09-25T2000,2273A,117.4185,32.8911,蚌埠市,蚌埠学院,颗粒物(PM10),62,73,53,36,30,76,,148,140,41,36,9,9,0.5,0.4
2024-09-25T2000,2274A,117.3533,32.9673,蚌埠市,淮上区政府,颗粒物(PM10),56,61,61,34,37,102,,142,137,27,39,6,7,0.4,0.3
2024-09-25T2000,2275A,117.3145,32.8977,蚌埠市,高新区,颗粒物(PM10),52,53,55,25,34,105,,159,151,34,32,7,9,0.5,0.4
2024-09-25T2000,3715A,117.3092,32.9314,蚌埠市,蚌埠田家炳中学,颗粒物(PM10),60,69,74,33,34,101,,156,147,29,42,6,10,0.4,0.4
2024-09-25T2000,1585A,109.8756,40.6532,包头市,市环境监测站,,34,34,25,16,13,57,,88,86,50,25,5,12,0.6,0.7
2024-09-25T2000,1587A,109.9991,40.5842,包头市,包头八中,,43,42,43,15,20,35,,93,89,86,30,7,12,0.9,0.8
2024-09-25T2000,1588A,109.8538,40.6821,包头市,青山宾馆,,36,19,18,8,9,25,,89,83,72,22,5,10,0.6,0.7
2024-09-25T2000,1589A,109.8642,40.6288,包头市,惠龙物流,,39,39,16,13,6,77,,58,,36,22,6,8,0.7,0.7
2024-09-25T2000,1590A,110.0377,40.5546,包头市,东河鸿龙湾,,34,34,29,13,15,40,,101,97,59,23,12,17,0.9,1.1
2024-09-25T2000,3283A,109.9154,40.5685,包头市,滨河大厦,,34,28,18,11,11,38,,100,96,68,26,10,11,0.7,0.6
2024-09-25T2000,3419A,109.9447,40.6261,包头市,包头市委党校,,36,27,27,11,14,43,,95,92,72,25,10,15,0.7,0.6
2024-09-25T2000,3683A,109.8331,40.6576,包头市,昆区政府,,27,26,21,6,12,49,,91,88,54,20,4,10,0.5,0.6
2024-09-25T2000,1930A,107.185,34.3063,宝鸡市,庙沟村,,36,34,40,20,28,114,,133,133,7,11,9,9,0.3,0.4
2024-09-25T2000,1931A,107.0708,34.3017,宝鸡市,竹园沟,,42,42,38,21,24,94,,137,136,21,14,7,8,0.5,0.5
2024-09-25T2000,1932A,107.1906,34.3672,宝鸡市,三陆医院,颗粒物(PM10),64,78,68,44,40,126,,140,140,36,33,8,10,0.8,0.7
2024-09-25T2000,1933A,107.1431,34.3547,宝鸡市,监测站,颗粒物(PM10),61,72,56,35,32,88,,134,134,24,19,7,7,0.6,0.6
2024-09-25T2000,1934A,107.1186,34.3739,宝鸡市,技工学校,细颗粒物(PM2.5),57,56,59,40,40,104,,135,135,36,22,8,9,0.7,0.6
2024-09-25T2000,1935A,107.3906,34.3528,宝鸡市,陈仓区环保局家属楼,细颗粒物(PM2.5),99,115,66,74,38,82,,139,136,80,35,12,10,1.0,0.7
2024-09-25T2000,1936A,107.2058,34.3497,宝鸡市,文理学院,颗粒物(PM10),64,77,57,34,33,118,,144,144,29,20,9,9,0.6,0.6
2024-09-25T2000,1937A,107.2386,34.3622,宝鸡市,三迪小学,细颗粒物(PM2.5),99,83,68,74,36,111,,136,136,57,32,10,10,0.8,0.6
2024-09-25T2000,1051A,115.493,38.8632,保定市,游泳馆,,37,37,67,9,54,80,,136,124,24,26,2,3,0.3,0.4
2024-09-25T2000,1052A,115.5213,38.8959,保定市,华电二区,,39,39,72,19,52,52,,124,109,39,32,4,4,0.1,0.2
2024-09-25T2000,1053A,115.4713,38.9108,保定市,接待中心,,31,31,75,6,61,68,,120,110,32,31,2,3,0.0,0.3
2024-09-25T2000,1054A,115.4612,38.8416,保定市,地表水厂,颗粒物(PM10),60,69,81,15,51,82,,133,122,15,30,2,2,0,0.2
2024-09-25T2000,3581A,115.31981,38.95208,保定市,满城区生态环境分局,颗粒物(PM10),58,66,86,22,52,60,,130,115,41,29,4,4,0.4,0.6
2024-09-25T2000,3582A,115.47694,38.76408,保定市,清苑区第二中学,,39,39,78,24,50,72,,144,124,32,35,1,2,0.2,0.4
2024-09-25T2000,3583A,115.62909,39.02311,保定市,徐水物探局,,37,37,70,7,51,53,,112,103,36,36,4,5,0.3,0.5
2024-09-25T2000,4004A,115.4202,38.8656,保定市,双鹰农机,,38,38,80,19,47,83,,136,126,26,30,2,2,0.3,0.5
2024-09-25T2000,4034A,115.5150,38.8590,保定市,植保所站,,34,34,75,20,55,81,,137,124,25,30,4,5,0.2,0.4
2024-09-25T2000,2594A,99.1678,25.1081,保山市,市环境监测站,,38,,36,26,22,60,,87,83,10,10,4,5,0.4,0.4
2024-09-25T2000,2595A,99.1711,25.1328,保山市,市环保局,,27,27,38,9,16,69,,85,81,4,8,5,6,0.3,0.4
2024-09-25T2000,1867A,109.1436,21.4086,北海市,海滩公园,,32,32,36,20,22,97,,111,111,8,9,5,6,0.6,0.6
2024-09-25T2000,1868A,109.0981,21.4661,北海市,新市环保局,,39,36,34,27,25,84,,99,99,16,9,4,5,0.8,0.7
2024-09-25T2000,1869A,109.1778,21.5233,北海市,北海工业园,,42,40,44,29,27,85,,98,98,14,12,5,7,0.7,0.7
2024-09-25T2000,3400A,109.1911,21.4415,北海市,龙潭自来水厂,,40,34,35,28,29,78,,108,108,17,8,5,6,0.7,0.7
2024-09-25T2000,1001A,116.3621,39.8784,北京市,万寿西宫,,18,10,56,7,42,56,,81,78,23,21,1,1,0.5,0.6
2024-09-25T2000,1002A,116.2202,40.2915,北京市,定陵,,8,6,27,3,30,14,,64,54,7,6,1,1,0.3,0.4
2024-09-25T2000,1003A,116.4174,39.9289,北京市,东四,,20,10,56,7,43,62,,80,77,20,21,2,2,0.5,0.6
2024-09-25T2000,1004A,116.4072,39.8863,北京市,天坛,,11,6,41,3,32,22,,79,70,22,18,3,3,0.3,0.5
2024-09-25T2000,1005A,116.462,39.9365,北京市,农展馆,,14,9,47,3,34,41,,72,67,27,26,3,3,0.3,0.5
2024-09-25T2000,1006A,116.3392,39.9295,北京市,官园,,16,9,52,6,38,46,,77,74,31,23,5,5,0.5,0.6
2024-09-25T2000,1007A,116.2878,39.9611,北京市,海淀万柳,,21,8,47,3,36,29,,79,74,42,27,2,3,0.5,0.5
2024-09-25T2000,1008A,116.6636,40.135,北京市,顺义新城,,16,6,42,3,29,49,,73,69,16,15,3,3,0.2,0.4
2024-09-25T2000,1009A,116.6275,40.3275,北京市,怀柔镇,,18,9,34,6,24,36,,72,66,35,14,3,3,0.4,0.5
2024-09-25T2000,1010A,116.2296,40.217,北京市,昌平镇,,11,11,40,6,24,35,,69,64,22,17,2,3,0.4,0.5
2024-09-25T2000,1011A,116.3966,39.9821,北京市,奥体中心,,21,7,51,3,38,32,,69,62,41,30,2,2,0.5,0.5
2024-09-25T2000,1012A,116.184,39.9136,北京市,古城,,21,21,60,11,39,33,,76,69,41,28,3,3,0.5,0.5
2024-09-25T2000,3281A,115.9718,40.4529,北京市,延庆夏都,,19,6,36,3,26,58,,84,82,14,11,1,3,0.3,0.4
2024-09-25T2000,3417A,117.0709,40.1465,北京市,平谷新城,,22,22,43,14,27,59,,79,75,11,8,1,1,0.6,0.4
2024-09-25T2000,3418A,116.8336,40.4095,北京市,密云新城,,17,6,36,3,22,53,,72,70,9,11,3,3,0.2,0.4
2024-09-25T2000,3671A,116.088,39.9726,北京市,门头沟三家店,,21,14,35,7,22,11,,76,65,41,17,6,6,0.3,0.4
2024-09-25T2000,3672A,116.1541,39.8204,北京市,丰台云岗,,17,12,42,6,33,53,,71,70,30,16,3,3,0.3,0.4
2024-09-25T2000,3673A,116.6804,39.9081,北京市,通州东关,,30,22,62,12,40,23,,78,66,59,35,3,3,0.4,0.4
2024-09-25T2000,3674A,115.9577,39.7603,北京市,房山燕山,,21,9,41,6,30,66,,73,73,13,11,3,3,0.3,0.5
2024-09-25T2000,3675A,116.4672,39.7733,北京市,大兴旧宫,,11,6,47,3,30,35,,79,71,11,27,3,3,0.3,0.5
2024-09-25T2000,3694A,115.986,40.4563,北京市,延庆石河营,,17,6,29,3,24,54,,76,75,11,10,3,3,0.3,0.4
2024-09-25T2000,3695A,116.6151,40.3053,北京市,怀柔新城,,15,6,35,3,27,45,,73,68,17,9,3,3,0.3,0.4
2024-09-25T2000,3696A,116.2545,39.8768,北京市,丰台小屯,,21,13,51,6,34,23,,72,67,42,22,3,3,0.5,0.6
2024-09-25T2000,3697A,116.84,40.3844,北京市,密云镇,,14,11,39,6,24,36,,70,64,27,18,2,2,0.3,0.4
2024-09-25T2000,1761A,123.8275,41.3064,本溪市,大峪,,40,40,38,28,21,24,,57,34,17,25,8,9,0.9,0.7
2024-09-25T2000,1762A,123.7567,41.3325,本溪市,溪湖,,35,35,40,24,21,34,,46,38,17,29,8,9,0.9,1.3
2024-09-25T2000,1763A,123.7169,41.3094,本溪市,彩屯,,42,38,41,29,23,10,,40,27,37,33,8,10,0.8,1
2024-09-25T2000,1764A,123.7669,41.2864,本溪市,东明,,38,32,30,26,18,27,,69,34,33,26,5,6,1.1,0.9
2024-09-25T2000,1765A,123.7992,41.2664,本溪市,新立屯,,26,26,23,15,12,33,,83,47,20,24,5,5,0.7,0.7
2024-09-25T2000,1766A,123.8142,41.3472,本溪市,威宁,,48,33,38,33,21,8,,32,25,39,29,9,8,0.9,0.6
2024-09-25T2000,2587A,105.2864,27.3125,毕节市,八中,细颗粒物(PM2.5),80,66,43,59,36,76,,106,102,12,12,6,7,0.7,0.6
2024-09-25T2000,2588A,105.31,27.2944,毕节市,师专,细颗粒物(PM2.5),77,76,50,56,35,93,,118,115,12,16,9,9,0.7,0.6
2024-09-25T2000,3537A,105.3631,27.3533,毕节市,长征村,细颗粒物(PM2.5),84,76,59,62,47,101,,124,122,6,9,9,10,0.7,0.7
2024-09-25T2000,1629A,118.0018,37.3617,滨州市,第二水厂,颗粒物(PM10),75,100,90,44,48,163,,194,191,25,38,11,31,0.6,0.7
2024-09-25T2000,1630A,117.9776,37.393,滨州市,北中新校,颗粒物(PM10),78,105,75,44,40,163,,197,195,20,29,12,16,0.9,1
2024-09-25T2000,3514A,117.9378,37.3956,滨州市,中海酒店,颗粒物(PM10),73,95,71,41,37,168,,193,192,28,39,10,15,0.8,0.8
2024-09-25T2000,3516A,118.0917,37.694,滨州市,金海六路,臭氧1小时,101,102,80,56,42,201,,203,203,21,43,8,10,0.8,0.8
2024-09-25T2000,4028A,117.9956,37.3753,滨州市,滨州市西街道办事处,颗粒物(PM10),74,97,78,46,49,163,,205,202,31,38,12,30,0.9,1
2024-09-25T2000,2311A,115.8072,33.8399,亳州市,污水处理厂,颗粒物(PM10),62,74,57,24,30,147,,175,170,26,24,14,11,0.5,0.3
2024-09-25T2000,2312A,115.7789,33.8518,亳州市,三国揽胜宫,细颗粒物(PM2.5),57,54,50,40,34,129,,171,165,24,18,7,7,0.6,0.5
2024-09-25T2000,3332A,115.7633,33.8034,亳州市,亳州学院,颗粒物(PM10),55,59,59,33,41,143,,182,178,22,16,6,5,0.5,0.4
2024-09-25T2000,2693A,82.0485,44.8556,博尔塔拉蒙古自治州,市党校,颗粒物(PM10),55,59,40,6,13,90,,97,97,6,8,6,6,0.0,0.4
2024-09-25T2000,2694A,82.0806,44.8969,博尔塔拉蒙古自治州,市环保局,,40,40,39,15,14,84,,92,92,9,11,7,5,0.3,0.3
2024-09-25T2000,1071A,116.8842,38.2991,沧州市,沧县城建局,细颗粒物(PM2.5),108,131,92,81,56,185,,197,197,36,48,7,8,0.9,0.5
2024-09-25T2000,1072A,116.8584,38.3254,沧州市,电视转播站,细颗粒物(PM2.5),107,120,79,80,55,172,,191,191,40,45,6,7,0.9,0.5
2024-09-25T2000,1073A,116.8709,38.3228,沧州市,市环保局,细颗粒物(PM2.5),124,138,90,94,56,157,,191,191,41,44,7,8,0.8,0.5
2024-09-25T2000,3324A,116.8136,38.3004,沧州市,河北水利电力学院,细颗粒物(PM2.5),115,132,94,87,63,200,,194,194,32,38,9,7,0.8,0.5
2024-09-25T2000,2622A,97.1806,31.1273,昌都市,昌都监测站,,32,32,11,12,5,42,,69,69,49,11,7,7,0.9,0.5
2024-09-25T2000,3719A,97.1714,31.1406,昌都市,昌都会议中心,,22,15,10,9,6,68,,79,79,12,6,8,8,0.2,0.2
2024-09-25T2000,2690A,88.1236,43.8886,昌吉回族自治州,天山天池,,30,16,16,10,7,94,,106,106,5,5,8,11,0.5,0.6
2024-09-25T2000,2692A,87.2717,44.0297,昌吉回族自治州,新区政务中心,,33,,33,23,17,86,,109,109,16,17,7,7,0.5,0.6
2024-09-25T2000,3613A,87.3095,44.0142,昌吉回族自治州,亚心广场,,48,48,43,19,12,84,,110,110,24,26,4,6,0.6,0.6
2024-09-25T2000,1119A,125.3325,43.9166,长春市,食品厂,颗粒物(PM10),68,86,32,36,14,6,,70,57,74,28,6,5,1.0,0.4
2024-09-25T2000,1120A,125.2863,43.9027,长春市,客车厂,颗粒物(PM10),71,91,28,43,14,8,,70,54,78,24,9,6,1.5,0.4
2024-09-25T2000,1121A,125.2841,43.8463,长春市,邮电学院,,28,25,24,19,11,8,,77,63,45,19,7,7,0.6,0.3
2024-09-25T2000,1122A,125.3716,43.8772,长春市,劳动公园,,50,39,27,35,11,20,,82,72,54,22,8,9,0.6,0.1
2024-09-25T2000,1123A,125.3297,43.8805,长春市,园林处,,31,31,21,12,12,10,,69,58,55,19,4,5,0.6,0.4
2024-09-25T2000,1124A,125.4605,43.79,长春市,净月潭,,14,14,15,9,9,27,,71,61,11,10,6,6,0.3,0.3
2024-09-25T2000,1126A,125.3863,43.8447,长春市,经开区环卫处,颗粒物(PM10),64,77,23,17,8,4,,73,60,60,22,9,8,1.0,0.4
2024-09-25T2000,1127A,125.245,43.7783,长春市,高新区管委会,,45,45,27,27,10,5,,78,63,55,17,5,5,0.6,0.4
2024-09-25T2000,1128A,125.1761,43.8325,长春市,岱山公园,,35,35,29,12,15,10,,76,56,64,26,4,4,0.5,0.4
2024-09-25T2000,1335A,113.0833,28.2325,长沙市,经开区环保局,细颗粒物(PM2.5),72,70,63,52,41,167,,213,209,30,26,3,2,0.6,0.5
2024-09-25T2000,1336A,112.8872,28.2189,长沙市,高开区环保局,颗粒物(PM10),64,78,77,45,49,165,,216,212,20,38,5,6,0.6,0.5
2024-09-25T2000,1337A,113.0792,28.2053,长沙市,马坡岭,细颗粒物(PM2.5),70,81,73,51,47,170,,229,224,20,23,6,6,0.6,0.6
2024-09-25T2000,1338A,112.9394,28.19,长沙市,湖南师范大学,臭氧1小时,62,65,75,42,45,169,,229,224,15,22,8,7,0.6,0.6
2024-09-25T2000,1339A,113.0178,28.1322,长沙市,雨花区环保局,臭氧1小时,78,76,72,44,42,182,,229,228,19,33,8,7,0.6,0.6
2024-09-25T2000,1340A,112.9792,28.2597,长沙市,伍家岭,,,,75,,49,154,,218,212,26,35,5,4,0.8,0.8
2024-09-25T2000,1341A,113.0014,28.1944,长沙市,火车新站,细颗粒物(PM2.5),67,71,65,48,46,164,,222,219,21,30,6,6,0.7,0.6
2024-09-25T2000,1342A,112.9844,28.1178,长沙市,天心区环保局,颗粒物(PM10),69,87,81,35,35,166,,223,220,30,41,5,5,0.5,0.6
2024-09-25T2000,1343A,112.8908,28.1308,长沙市,湖南中医药大学,细颗粒物(PM2.5),83,82,80,61,57,140,,240,231,36,35,6,6,0.8,0.8
2024-09-25T2000,1344A,112.9581,28.3611,长沙市,沙坪,细颗粒物(PM2.5),69,63,51,50,39,169,,200,198,9,13,10,10,0.7,1.2
2024-09-25T2000,1727A,113.1147,36.1547,长治市,清华站,,35,35,68,22,41,48,,117,111,56,33,9,10,0.8,0.9
2024-09-25T2000,1728A,113.1031,36.1989,长治市,监测站,,49,49,63,22,41,56,,108,104,42,26,14,12,1.6,1
2024-09-25T2000,1730A,113.0886,36.2125,长治市,审计局,,42,42,60,19,50,62,,108,104,49,29,15,10,1.0,0.7
2024-09-25T2000,1731A,113.0844,36.1856,长治市,长治八中,,43,43,75,11,38,55,,113,105,48,27,11,11,1.3,1
2024-09-25T2000,2845A,113.1569,36.1911,长治市,德盛苑,,33,21,52,7,36,103,,127,118,13,17,5,9,0.7,1
2024-09-25T2000,3568A,113.06,36.0464,长治市,向阳小学,,50,50,81,32,51,81,,122,119,28,24,10,11,0.3,0.5
2024-09-25T2000,3569A,112.8792,36.3144,长治市,屯留一中,,46,46,67,23,47,65,,104,99,40,29,11,12,1.3,1.3
2024-09-25T2000,3570A,113.235,36.3489,长治市,潞城四中,,47,47,83,21,56,26,,111,99,55,34,6,9,0.5,1
2024-09-25T2000,1854A,111.6975,28.9703,常德市,市二中,细颗粒物(PM2.5),162,145,87,123,65,136,,188,183,31,25,15,11,1.0,0.8
2024-09-25T2000,3138A,111.7153,29.0289,常德市,武陵区永安,细颗粒物(PM2.5),149,123,93,114,69,152,,200,196,26,22,15,13,0.8,0.7
2024-09-25T2000,3139A,111.6892,28.9881,常德市,鼎城区玉霞,细颗粒物(PM2.5),124,113,91,94,65,143,,199,193,28,26,12,11,0.9,0.8
2024-09-25T2000,3140A,111.6625,29.0531,常德市,武陵区长庚,细颗粒物(PM2.5),103,100,92,77,64,157,,204,200,25,21,12,12,0.7,0.6
2024-09-25T2000,1196A,119.9633,31.762,常州市,市监测站,颗粒物(PM10),62,74,59,39,26,143,,175,173,28,23,11,10,0.8,0.6
2024-09-25T2000,1200A,119.9468,31.7069,常州市,武进监测站,颗粒物(PM10),55,60,51,34,26,152,,182,180,23,18,9,9,0.9,0.8
2024-09-25T2000,1201A,119.9255,31.9087,常州市,安家,颗粒物(PM10),51,52,52,33,28,88,,176,166,48,32,9,10,0.7,0.6
2024-09-25T2000,3002A,119.9805,31.8174,常州市,行政中心,颗粒物(PM10),60,69,52,35,23,134,,179,175,33,23,14,13,0.7,0.5
2024-09-25T2000,3003A,120.0522,31.7748,常州市,经开区,,48,48,55,32,28,133,,174,173,27,30,8,10,0.6,0.5
2024-09-25T2000,3010A,119.9025,31.7964,常州市,钟楼,,,41,54,19,24,134,,170,167,,25,10,11,0.6,0.4
2024-09-25T2000,3429A,119.8598,31.7066,常州市,武进经发区,颗粒物(PM10),67,83,59,43,29,112,,169,163,51,35,10,9,0.9,0.7
2024-09-25T2000,3430A,119.5826,31.7245,常州市,金坛城区,臭氧1小时,62,46,44,32,26,169,,176,176,17,20,10,10,0.7,0.8
2024-09-25T2000,2220A,120.4318,41.5881,朝阳市,西梁,颗粒物(PM10),52,54,27,26,20,27,,80,68,43,13,12,8,0.7,0.5
2024-09-25T2000,2221A,120.4521,41.5646,朝阳市,河畔小区,,26,26,25,16,24,34,,91,75,41,10,10,8,0.7,0.7
2024-09-25T2000,2222A,120.4176,41.5648,朝阳市,八里堡,颗粒物(PM10),63,76,30,12,21,20,,84,70,55,18,11,8,0.8,0.7
2024-09-25T2000,2223A,120.3806,41.5969,朝阳市,农业园区,,33,25,27,23,27,39,,84,66,22,11,7,8,0.5,0.5
2024-09-25T2000,1705A,116.6367,23.6719,潮州市,西园路,细颗粒物(PM2.5),53,,28,37,12,38,,93,86,20,10,3,4,0.5,0.6
2024-09-25T2000,3026A,116.6183,23.6608,潮州市,市政府,,35,35,32,13,10,35,,106,95,26,13,11,8,0.5,0.5
2024-09-25T2000,4036A,116.6461,23.6761,潮州市,金山,,21,21,24,12,10,52,,101,94,16,10,8,7,0.8,0.7
2024-09-25T2000,2472A,113.0073,25.9061,郴州市,马头岭,,29,29,33,7,13,54,,56,56,8,6,7,7,0.5,0.6
2024-09-25T2000,2473A,113.0116,25.8226,郴州市,市职中,,36,34,34,25,27,44,,62,55,17,15,3,4,0.6,0.6
2024-09-25T2000,2474A,113.0161,25.8001,郴州市,兴隆步行街,,33,31,41,23,28,39,,57,54,20,17,3,4,0.7,0.6
2024-09-25T2000,2475A,113.0383,25.8071,郴州市,市审计局,,40,32,35,28,28,22,,56,49,30,20,3,5,0.5,0.7
2024-09-25T2000,2476A,113.0348,25.7759,郴州市,市环保局,,43,31,36,30,32,34,,55,52,19,17,4,5,0.6,0.6
2024-09-25T2000,1431A,103.9728,30.7236,成都市,金泉两河,颗粒物(PM10),64,77,66,24,22,144,,187,187,26,20,3,6,1.1,0.7
2024-09-25T2000,1432A,104.176,30.6872,成都市,十里店,细颗粒物(PM2.5),87,102,82,64,56,146,,183,183,29,28,4,6,0.8,0.8
2024-09-25T2000,1433A,104.079,30.5706,成都市,三瓦窑,细颗粒物(PM2.5),67,75,79,48,58,167,,198,198,24,42,2,4,0.7,0.7
2024-09-25T2000,1434A,104.1114,30.63,成都市,沙河铺,细颗粒物(PM2.5),72,79,77,52,52,161,,185,185,26,29,4,5,0.8,0.8
2024-09-25T2000,1437A,104.0786,30.6531,成都市,君平街,臭氧1小时,63,62,80,39,50,170,,200,200,22,26,3,5,0.8,0.8
2024-09-25T2000,2880A,104.0239,30.65639,成都市,大石西路,细颗粒物(PM2.5),78,72,73,57,49,159,,198,198,29,26,4,7,0.8,0.9
2024-09-25T2000,3136A,104.2725,30.5589,成都市,龙泉驿区区政府,细颗粒物(PM2.5),64,63,67,46,46,121,,175,173,19,22,4,5,0.8,0.7
2024-09-25T2000,3357A,104.0106,30.6931,成都市,金博路,臭氧1小时,62,69,71,41,46,169,,190,190,28,27,1,3,0.8,0.7
2024-09-25T2000,3359A,104.0578,30.5225,成都市,华阳,细颗粒物(PM2.5),67,63,80,48,57,158,,182,182,16,31,4,5,0.8,0.8
2024-09-25T2000,3487A,104.2394,30.5319,成都市,车城东七路,细颗粒物(PM2.5),78,86,84,57,56,178,,207,207,16,25,4,4,0.7,0.8
2024-09-25T2000,3488A,104.3853,30.7453,成都市,青白江技师分院,细颗粒物(PM2.5),62,69,73,44,49,85,,173,171,56,47,2,4,0.8,0.8
2024-09-25T2000,3489A,104.0789,30.4072,成都市,科学城,臭氧1小时,88,56,79,41,58,190,,206,206,16,27,4,5,0.7,0.8
2024-09-25T2000,4011A,103.8506,30.6947,成都市,光华大道三段,臭氧1小时,72,58,56,41,37,177,,193,193,16,17,3,4,0.6,0.6
2024-09-25T2000,1062A,117.9531,40.9081,承德市,铁路,颗粒物(PM10),52,53,51,25,33,15,,67,61,42,22,8,9,0.5,0.5
2024-09-25T2000,1063A,117.9392,40.9763,承德市,中国银行,,37,37,51,12,32,19,,67,62,24,16,4,5,0.3,0.4
2024-09-25T2000,1064A,117.9503,40.928,承德市,开发区,,26,26,50,11,34,41,,70,68,19,21,7,9,0.3,0.4
2024-09-25T2000,1065A,117.8051,40.9655,承德市,文化中心,,34,34,49,17,28,16,,60,52,35,21,8,8,0.2,0.3
2024-09-25T2000,1066A,117.9268,41.0026,承德市,离宫,,33,28,55,23,42,9,,53,41,12,7,3,2,0.3,0.4
2024-09-25T2000,2314A,117.47,30.6618,池州市,池州学院,细颗粒物(PM2.5),58,64,48,41,30,133,,174,171,22,16,22,8,0.8,0.9
2024-09-25T2000,3237A,117.4918,30.6617,池州市,展览馆,颗粒物(PM10),53,56,45,36,26,131,,173,171,20,16,8,6,0.8,0.9
2024-09-25T2000,3333A,117.5627,30.695,池州市,第八中学,颗粒物(PM10),60,69,50,31,27,123,,170,168,28,19,10,5,0.6,0.7
2024-09-25T2000,3334A,117.5038,30.6243,池州市,第十二中学,细颗粒物(PM2.5),58,58,45,41,28,127,,176,174,26,28,8,5,0.7,1
2024-09-25T2000,1744A,118.9233,42.2816,赤峰市,松山一中,,30,29,12,3,7,16,,74,63,60,19,9,9,1.0,0.4
2024-09-25T2000,1745A,118.9576,42.2728,赤峰市,哈达街,,31,31,15,18,8,26,,85,67,30,14,15,9,0.6,0.4
2024-09-25T2000,1746A,118.8788,42.2554,赤峰市,天义路,,45,45,14,14,8,1,,78,61,53,16,6,6,0.8,0.3
2024-09-25T2000,3058A,119.2658,42.0353,赤峰市,银河街,,38,38,22,6,10,33,,84,74,28,12,12,13,0.5,0.4
2024-09-25T2000,3286A,118.9359,42.3147,赤峰市,桥北物流园区,,41,41,19,16,8,8,,86,64,53,18,10,7,0.6,0.5
2024-09-25T2000,2521A,107.3476,22.4136,崇左市,市环保局江州分局,,48,48,41,28,23,101,,118,117,9,8,3,4,0.8,0.7
2024-09-25T2000,2522A,107.3702,22.3707,崇左市,城南新区,,41,41,35,24,22,88,,124,121,13,9,4,4,0.9,0.8
2024-09-25T2000,2298A,118.3093,32.3153,滁州市,老年大学,,46,46,34,24,21,89,,145,134,29,17,7,7,0.4,0.3
2024-09-25T2000,2299A,118.3244,32.2786,滁州市,人大宾馆,颗粒物(PM10),57,63,38,27,20,63,,147,132,40,18,6,7,0.5,0.4
2024-09-25T2000,3207A,118.3118,32.3038,滁州市,市政府原办公楼,,45,45,35,30,26,64,,142,129,44,19,7,6,0.6,0.4
2024-09-25T2000,3331A,118.3267,32.2634,滁州市,图书馆,,44,44,34,28,19,87,,147,133,26,16,5,5,0.4,0.3
2024-09-25T2000,2605A,101.5482,25.0441,楚雄彝族自治州,州环境监测站,,33,29,27,23,22,83,,96,94,8,19,8,14,0.6,0.7
2024-09-25T2000,2606A,101.538,25.0492,楚雄彝族自治州,市经济开发区,,44,44,31,24,23,78,,92,90,11,19,5,11,0.7,0.6
2024-09-25T2000,2548A,107.5277,31.2827,达州市,达州职业技术学院,颗粒物(PM10),51,52,53,20,32,54,,134,126,60,35,7,10,0.8,0.8
2024-09-25T2000,2549A,107.5086,31.2186,达州市,市环境监测站,颗粒物(PM10),63,76,55,31,26,82,,135,131,53,36,8,9,0.8,0.6
2024-09-25T2000,2550A,107.4988,31.2132,达州市,凤凰小区,颗粒物(PM10),58,66,48,39,29,125,,149,148,26,31,9,11,0.6,0.6
2024-09-25T2000,2551A,107.5082,31.1986,达州市,达县机关宾馆,颗粒物(PM10),74,97,58,36,28,50,,136,125,98,52,7,9,0.8,0.5
2024-09-25T2000,2552A,107.4644,31.2124,达州市,市政中心,颗粒物(PM10),62,74,54,39,29,69,,132,124,73,40,44,12,1.8,0.7
2024-09-25T2000,2614A,100.1542,25.7054,大理白族自治州,大理市环境监测站,,30,22,27,21,17,66,,77,76,11,8,7,7,0.6,0.6
2024-09-25T2000,2615A,100.2171,25.5811,大理白族自治州,大理古城,,40,37,27,28,19,49,,98,93,20,13,7,7,0.5,0.4
2024-09-25T2000,1109A,121.612,38.9741,大连市,甘井子,细颗粒物(PM2.5),72,87,40,52,25,78,,165,139,27,22,9,9,0.6,0.5
2024-09-25T2000,1110A,121.565,38.9511,大连市,周水子,细颗粒物(PM2.5),73,62,38,53,28,54,,153,127,54,37,8,8,1.0,0.9
2024-09-25T2000,1111A,121.5637,38.8845,大连市,星海三站,细颗粒物(PM2.5),67,74,36,48,22,81,,139,132,24,15,7,7,0.5,0.4
2024-09-25T2000,1112A,121.6302,38.9117,大连市,青泥洼桥,细颗粒物(PM2.5),97,122,42,72,24,68,,143,128,45,24,8,7,0.5,0.4
2024-09-25T2000,1113A,121.6251,38.8638,大连市,傅家庄,细颗粒物(PM2.5),100,,31,75,19,62,,84,,36,11,8,8,0.6,0.2
2024-09-25T2000,1114A,121.5213,38.8661,大连市,七贤岭,颗粒物(PM10),76,102,43,49,24,96,,161,145,18,17,7,8,0.6,0.5
2024-09-25T2000,1115A,121.2529,38.8061,大连市,旅顺,,42,38,30,29,18,102,,156,148,14,15,6,7,0.5,0.5
2024-09-25T2000,1116A,121.7485,39.1311,大连市,金州,细颗粒物(PM2.5),68,65,33,49,24,82,,158,139,19,16,7,8,0.9,0.8
2024-09-25T2000,1117A,121.7811,39.0496,大连市,开发区,细颗粒物(PM2.5),80,86,40,59,26,73,,156,138,32,24,6,6,0.8,0.5
2024-09-25T2000,1118A,121.9762,39.0631,大连市,双D港,细颗粒物(PM2.5),75,65,27,55,19,105,,142,142,23,17,8,8,0.9,0.6
2024-09-25T2000,1789A,124.81117,46.03138,大庆市,大同区,,29,22,18,20,17,60,,76,74,15,7,3,3,0.4,0.6
2024-09-25T2000,1790A,125.129,46.533,大庆市,龙凤区,,35,35,24,16,15,46,,80,74,37,12,2,2,0.4,0.3
2024-09-25T2000,1791A,124.902,46.408,大庆市,红岗区,,49,45,25,34,16,53,,80,74,30,12,5,5,0.5,0.3
2024-09-25T2000,1792A,125.153,46.586,大庆市,萨尔图区,,50,50,21,29,13,28,,74,66,57,14,5,5,0.6,0.3
2024-09-25T2000,1793A,124.9042,46.6215,大庆市,让胡路区,,50,50,31,25,17,37,,77,71,40,12,4,4,0.4,0.3
2024-09-25T2000,3481A,125.141,46.634,大庆市,萨区政府监测点,,35,35,23,15,9,51,,79,77,27,12,5,5,0.6,0.5
2024-09-25T2000,1721A,113.3819,40.1097,大同市,果树场,颗粒物(PM10),55,60,16,24,10,40,,87,82,30,12,7,7,0.6,0.5
2024-09-25T2000,1723A,113.2994,40.0758,大同市,云冈宾馆,,32,32,17,15,8,60,,100,97,42,15,10,9,0.6,0.6
2024-09-25T2000,1724A,113.3444,40.0917,大同市,大同大学,,25,24,16,9,10,78,,92,90,19,16,8,9,0.4,0.5
2024-09-25T2000,1725A,113.2661,40.1269,大同市,安家小村,,26,26,13,7,7,46,,96,90,51,16,13,12,0.5,0.5
2024-09-25T2000,1726A,113.2711,40.0844,大同市,教育学院,,35,35,18,16,10,63,,93,90,41,20,10,9,0.5,0.5
2024-09-25T2000,3282A,113.3397,40.0597,大同市,大同市卫生学校,,28,28,20,11,10,65,,97,95,33,14,8,9,0.4,0.5
2024-09-25T2000,3565A,113.1367,40.1122,大同市,云冈站,,20,18,22,3,8,64,,100,97,18,13,11,13,0.3,0.5
2024-09-25T2000,3566A,113.1186,40.2556,大同市,图书馆,,30,30,17,11,9,52,,94,89,25,14,9,13,0.4,0.5
2024-09-25T2000,3567A,113.5931,40.0461,大同市,区一中,,26,8,18,3,10,82,,93,92,8,12,7,8,0.5,0.5
2024-09-25T2000,3676A,113.2802,40.0995,大同市,第二人民医院,,30,30,17,10,9,58,,98,94,40,14,14,12,0.4,0.5
2024-09-25T2000,2269A,124.1069,50.4097,大兴安岭地区,科技局,,33,28,16,23,13,60,,78,75,19,6,9,6,0.4,0.3
2024-09-25T2000,3663A,124.1164,50.4278,大兴安岭地区,红旗社区,,24,24,13,12,9,51,,79,74,17,11,4,3,0.4,0.3
2024-09-25T2000,1600A,124.3303,40.0625,丹东市,江湾东路,,48,48,45,27,24,25,,95,80,39,20,9,11,1.0,0.9
2024-09-25T2000,1601A,124.4256,40.1503,丹东市,临江后街,,50,50,46,26,24,48,,80,69,20,17,7,8,0.8,0.7
2024-09-25T2000,1602A,124.3933,40.1461,丹东市,元宝山,,36,36,33,16,15,67,,73,67,7,14,4,4,0.4,0.5
2024-09-25T2000,1603A,124.3633,40.1092,丹东市,民主桥,,39,39,32,25,18,10,,98,78,50,26,5,6,0.9,0.7
2024-09-25T2000,3541A,109.5726,19.5167,儋州市,第一中学子站,,35,35,20,21,11,101,,93,93,7,7,6,6,0.6,0.6
2024-09-25T2000,3542A,109.5567,19.5187,儋州市,东坡学校子站,,33,27,17,19,10,105,,96,96,7,6,5,4,0.6,0.6
2024-09-25T2000,2616A,98.5842,24.428,德宏傣族景颇族自治州,德宏州监测站,,37,37,44,18,25,30,,65,63,14,14,6,18,0.8,0.7
2024-09-25T2000,3677A,98.5881,24.4368,德宏傣族景颇族自治州,芒市人民政府综合楼,,26,26,35,18,26,40,,72,69,10,14,6,14,0.7,0.8
2024-09-25T2000,1901A,104.4239,31.1208,德阳市,东山公园,臭氧1小时,72,53,62,31,36,177,,162,162,16,21,5,5,0.6,0.8
2024-09-25T2000,1902A,104.3826,31.1317,德阳市,西小区,颗粒物(PM10),55,60,68,34,43,158,,162,162,30,31,4,6,0.7,0.6
2024-09-25T2000,1904A,104.3553,31.1091,德阳市,耐火材料厂,颗粒物(PM10),73,96,79,47,43,129,,153,153,44,27,4,10,0.7,0.7
2024-09-25T2000,3639A,104.4019,31.1244,德阳市,市教育局,颗粒物(PM10),55,60,67,34,38,138,,154,154,62,36,2,3,0.7,0.7
2024-09-25T2000,1622A,116.3032,37.4674,德州市,儿童乐园,颗粒物(PM10),90,129,85,46,38,126,,190,185,50,27,13,13,0.6,0.6
2024-09-25T2000,1624A,116.2991,37.4451,德州市,监理站,颗粒物(PM10),75,100,82,46,41,146,,202,199,37,28,12,13,0.6,0.5
2024-09-25T2000,3066A,116.2721,37.4379,德州市,九衢泉纯净水厂,颗粒物(PM10),69,88,81,39,39,161,,194,194,29,32,11,12,0.6,0.6
2024-09-25T2000,3371A,116.3728,37.4403,德州市,开发区人民医院,颗粒物(PM10),78,105,84,46,37,89,,186,177,72,35,11,13,0.7,0.6
2024-09-25T2000,3372A,116.3572,37.4094,德州市,太阳城中学,颗粒物(PM10),76,102,86,39,39,113,,182,176,58,49,8,14,0.7,0.6
2024-09-25T2000,3511A,116.5652,37.3319,德州市,陵城艺术中心,颗粒物(PM10),90,129,82,56,41,93,,177,169,54,40,11,14,0.7,0.7
2024-09-25T2000,2621A,99.7056,27.8317,迪庆藏族自治州,迪庆州站,,22,22,14,11,8,52,,64,64,10,9,8,8,0.5,0.4
2024-09-25T2000,3180A,99.7136,27.8094,迪庆藏族自治州,质量技术监督局,,16,16,14,8,8,50,,65,63,10,9,6,6,0.4,0.4
2024-09-25T2000,2664A,104.6194,35.5934,定西市,供电公司,,32,30,34,22,23,91,,99,99,7,8,7,7,0.2,0.2
2024-09-25T2000,1389A,113.7547,23.0494,东莞市,莞城梨川,颗粒物(PM10),53,56,25,32,16,138,,154,154,28,23,6,6,0.9,0.8
2024-09-25T2000,1390A,113.7944,23.0128,东莞市,东城石井,,42,41,26,22,16,134,,152,152,20,23,5,5,0.8,0.7
2024-09-25T2000,1391A,113.7383,22.9658,东莞市,南城西平,颗粒物(PM10),51,52,29,31,19,141,,165,165,26,26,6,5,1.0,0.8
2024-09-25T2000,3319A,113.7338,23.0381,东莞市,万江金泰,颗粒物(PM10),52,54,29,29,18,142,,158,158,28,23,8,8,0.7,0.6
2024-09-25T2000,3626A,113.7533,23.0202,东莞市,南城元岭,颗粒物(PM10),52,53,29,27,17,148,,153,153,20,21,6,6,0.8,0.7
2024-09-25T2000,3627A,113.7875,23.0457,东莞市,东城主山,,49,44,31,30,18,155,,168,168,24,24,7,7,0.7,0.6
2024-09-25T2000,1666A,118.6614,37.4309,东营市,市环保局,臭氧1小时,112,63,54,34,26,224,,225,225,15,29,7,12,0.5,0.4
2024-09-25T2000,3036A,118.6904,37.4338,东营市,开发区管委会,臭氧1小时,118,78,62,51,33,236,,226,226,16,30,7,11,0.6,0.4
2024-09-25T2000,3365A,118.5719,37.565,东营市,垦利区民丰路,细颗粒物(PM2.5),73,90,56,53,32,170,,191,191,24,27,10,10,0.6,0.5
2024-09-25T2000,3498A,118.5055,37.8612,东营市,河口城区,臭氧1小时,89,92,64,63,36,191,,212,212,20,17,8,9,0.8,0.5
2024-09-25T2000,3646A,118.4978,37.4623,东营市,胜利站,臭氧1小时,99,53,54,41,36,199,,212,212,16,26,10,15,0.4,0.6
2024-09-25T2000,3734A,118.35,37.26,东营市,理想之城,臭氧1小时,99,73,60,46,37,199,,207,207,26,34,5,9,0.5,0.4
2024-09-25T2000,1591A,110.0023,39.8129,鄂尔多斯市,综合楼,颗粒物(PM10),57,63,33,12,7,57,,104,98,58,28,12,14,0.7,0.5
2024-09-25T2000,1592A,109.9486,39.8261,鄂尔多斯市,巴音孟克林场办事处,颗粒物(PM10),59,68,34,14,9,45,,96,89,59,37,7,8,0.5,0.5
2024-09-25T2000,1593A,109.7736,39.5986,鄂尔多斯市,康泽苑,,27,27,23,3,6,57,,104,97,35,13,8,8,0.4,0.3
2024-09-25T2000,1594A,109.8119,39.5989,鄂尔多斯市,华泰汽车城,,34,34,22,12,10,19,,98,86,61,18,8,9,0.6,0.4
2024-09-25T2000,1595A,109.9734,39.7884,鄂尔多斯市,奥林花园,,,58,31,,9,44,,96,90,53,30,6,7,0.7,0.5
2024-09-25T2000,2436A,114.8938,30.3994,鄂州市,市政府,颗粒物(PM10),59,67,60,38,33,140,,194,189,34,31,14,17,1.4,1.3
2024-09-25T2000,2437A,114.8989,30.3714,鄂州市,赵家坝,细颗粒物(PM2.5),62,68,66,44,33,136,,208,202,35,35,12,16,0.7,1.1
2024-09-25T2000,3654A,114.8094,30.4089,鄂州市,精准医疗中心,颗粒物(PM10),58,65,66,39,36,155,,207,203,22,31,11,15,0.8,1.2
2024-09-25T2000,2454A,109.4978,30.2981,恩施土家族苗族自治州,湖北民院,细颗粒物(PM2.5),75,70,46,55,33,83,,128,125,32,21,10,9,0.8,0.6
2024-09-25T2000,2455A,109.4707,30.2798,恩施土家族苗族自治州,州电力总公司,细颗粒物(PM2.5),63,72,42,45,29,76,,129,127,45,30,10,10,1.3,0.9
2024-09-25T2000,3549A,109.5061,30.3772,恩施土家族苗族自治州,龙凤新区,细颗粒物(PM2.5),57,62,41,40,30,72,,118,114,25,17,6,7,1.0,0.7
2024-09-25T2000,2499A,108.3411,21.6158,防城港市,沙万,,42,42,41,24,25,69,,89,87,17,14,8,8,0.8,0.8
2024-09-25T2000,2500A,108.3514,21.7731,防城港市,防城档案局,,48,48,65,33,35,62,,80,78,11,19,8,8,0.7,0.7
2024-09-25T2000,2501A,108.3506,21.6414,防城港市,大海花园,,35,34,41,24,30,71,,85,84,10,12,9,7,1.0,0.9
2024-09-25T2000,1371A,113.1294,23.0067,佛山市,湾梁,,48,48,38,28,20,112,,138,138,31,35,8,7,0.9,0.9
2024-09-25T2000,1372A,113.1083,23.0478,佛山市,华材职中,颗粒物(PM10),52,53,42,31,24,98,,132,132,38,40,8,8,0.7,0.7
2024-09-25T2000,1373A,113.144,23.0453,佛山市,南海气象局,,47,47,37,27,21,88,,120,120,34,30,7,6,0.7,0.8
2024-09-25T2000,1374A,113.2881,22.8094,佛山市,顺德苏岗,,39,22,28,22,19,124,,152,152,22,31,7,8,0.8,0.8
2024-09-25T2000,1376A,112.8383,22.8678,佛山市,高明孔堂,颗粒物(PM10),54,58,42,25,24,64,,125,122,27,26,5,5,0.7,0.6
2024-09-25T2000,1377A,112.8836,23.1588,佛山市,三水监测站,颗粒物(PM10),52,53,28,27,23,53,,128,126,55,23,6,6,0.8,0.7
2024-09-25T2000,1378A,112.867,23.185,佛山市,三水云东海,,47,47,29,21,21,41,,102,99,22,20,7,7,0.8,0.8
2024-09-25T2000,3625A,113.2544,22.7642,佛山市,容桂街道办,,41,,30,27,24,129,,145,145,25,38,6,7,0.8,0.9
2024-09-25T2000,1282A,119.2681,26.0504,福州市,师大,,20,20,16,6,9,47,,76,70,16,14,2,2,0.6,0.7
2024-09-25T2000,1283A,119.2984,26.1028,福州市,五四北路,,23,23,16,8,9,61,,86,84,16,15,3,3,0.5,0.5
2024-09-25T2000,1284A,119.2648,26.0768,福州市,杨桥西路,,24,15,17,6,6,74,,86,83,13,14,3,3,0.6,0.7
2024-09-25T2000,1285A,119.317,26.0746,福州市,紫阳,,18,18,21,7,10,52,,78,78,24,22,4,3,0.5,0.6
2024-09-25T2000,3048A,119.5799,26.0936,福州市,九龙,,20,17,16,3,7,62,,91,89,3,4,5,6,0.4,0.5
2024-09-25T2000,3526A,119.5189,25.9664,福州市,吴航,,14,8,19,3,13,43,,78,76,14,16,6,6,0.5,0.7
2024-09-25T2000,1755A,123.7977,41.8491,抚顺市,望花区,,37,37,25,25,13,6,,63,44,46,21,9,13,0.7,0.7
2024-09-25T2000,1756A,123.9161,41.8822,抚顺市,顺城区,,50,50,28,33,15,8,,50,43,40,28,5,6,0.7,0.6
2024-09-25T2000,1757A,124.0436,41.8611,抚顺市,东洲区,,35,24,24,24,17,18,,50,34,19,19,5,6,0.5,0.5
2024-09-25T2000,1758A,123.9247,41.8642,抚顺市,新抚区,,45,45,28,18,9,6,,46,41,39,31,3,3,0.4,0.3
2024-09-25T2000,1759A,124.0972,41.8961,抚顺市,大伙房水库,,18,15,20,12,11,28,,66,41,17,9,6,6,0.4,0.4
2024-09-25T2000,1760A,123.7086,41.8391,抚顺市,沈抚新城,,33,27,23,23,14,13,,64,56,46,24,7,8,0.4,0.3
2024-09-25T2000,2376A,116.2127,28.0814,抚州市,桐源党溪,,46,46,42,22,23,48,,103,92,13,8,6,9,0.7,0.6
2024-09-25T2000,2377A,116.3544,27.9831,抚州市,市站,,50,50,36,29,22,82,,97,95,14,15,2,2,1.1,1
2024-09-25T2000,2378A,116.3565,27.963,抚州市,血防站,,50,45,37,35,28,77,,104,101,20,16,3,8,1.1,0.9
2024-09-25T2000,2379A,116.3564,28.0007,抚州市,采茶剧团,,45,44,34,31,22,94,,102,102,6,9,5,6,0.5,0.5
2024-09-25T2000,2380A,116.385,27.9647,抚州市,医学分院,,44,44,36,20,17,84,,103,101,13,12,4,4,0.7,0.7
2024-09-25T2000,2207A,121.6094,41.998,阜新市,工业园区,颗粒物(PM10),70,89,24,17,25,4,,90,72,65,17,12,10,1.0,0.6
2024-09-25T2000,2208A,121.6697,42.0279,阜新市,长青街,,50,50,23,17,17,14,,86,68,39,10,10,8,0.7,0.5
2024-09-25T2000,2209A,121.6673,42.0705,阜新市,农业园区,,21,,19,3,16,66,,83,77,11,10,9,6,0.2,0.3
2024-09-25T2000,2210A,121.6717,42.0224,阜新市,东苑,颗粒物(PM10),53,55,21,15,11,22,,91,73,52,14,10,10,0.7,0.7
2024-09-25T2000,2211A,121.6506,42.0498,阜新市,玉龙新城,颗粒物(PM10),83,116,27,22,16,9,,94,71,56,16,7,9,0.9,0.5
2024-09-25T2000,2301A,115.8277,32.8929,阜阳市,市监测站,颗粒物(PM10),56,62,59,25,33,124,,183,178,21,24,7,8,0.5,0.5
2024-09-25T2000,2303A,115.8554,32.8605,阜阳市,开发区,颗粒物(PM10),67,84,69,24,34,141,,188,184,23,29,7,8,0.6,0.6
2024-09-25T2000,2875A,115.784,32.8892,阜阳市,阜阳职业技术学院,颗粒物(PM10),52,53,48,22,24,141,,187,183,17,17,6,7,0.4,0.5
2024-09-25T2000,3468A,115.7901,32.8613,阜阳市,市规划展馆,颗粒物(PM10),58,66,54,21,30,134,,184,180,23,22,6,8,0.4,0.4
2024-09-25T2000,3469A,115.836,32.9183,阜阳市,枣园社区,,46,43,57,32,34,134,,181,176,28,34,9,8,0.6,0.6
2024-09-25T2000,2669A,102.9099,34.9841,甘南藏族自治州,州政府,,36,36,31,16,19,68,,89,87,17,16,12,11,0.3,0.2
2024-09-25T2000,3380A,102.8914,34.9617,甘南藏族自治州,甘肃民族师范学院,颗粒物(PM10),51,52,35,16,13,62,,85,82,30,23,4,4,0.3,0.5
2024-09-25T2000,2570A,101.9603,30.0475,甘孜藏族自治州,水桥子,,23,22,13,16,7,36,,64,64,23,17,5,5,0.8,0.3
2024-09-25T2000,3065A,101.9533,29.9972,甘孜藏族自治州,州环保局,,23,23,15,3,5,31,,66,64,21,19,3,3,0.3,0.2
2024-09-25T2000,3414A,115.8347,28.932,赣江新区,桑海产业园,,44,44,48,21,23,104,,147,140,29,30,12,13,0.3,0.3
2024-09-25T2000,2362A,114.9017,25.9149,赣州市,通天岩,,26,21,27,18,21,34,,59,54,3,3,4,7,0.3,0.4
2024-09-25T2000,2363A,114.9367,25.8664,赣州市,地委,,36,36,27,24,21,48,,62,61,19,12,2,8,1.1,0.9
2024-09-25T2000,2364A,114.9461,25.8481,赣州市,气象台,,39,36,28,27,21,42,,58,57,24,10,9,9,0.6,0.5
2024-09-25T2000,2365A,114.9322,25.8333,赣州市,市图书馆,,30,30,27,16,15,47,,63,62,26,12,4,4,0.7,0.7
2024-09-25T2000,2366A,114.8905,25.8471,赣州市,华坚鞋城,,36,36,26,20,16,35,,58,56,29,13,2,2,0.6,0.5
2024-09-25T2000,3109A,115.0093,25.8613,赣州市,赣县区卫计委,,30,,23,21,15,39,,52,50,24,14,6,6,0.8,0.7
2024-09-25T2000,2683A,106.2319,36.1417,固原市,马园,,49,49,39,12,10,66,,101,92,23,18,6,6,0.7,0.8
2024-09-25T2000,2684A,106.2792,36.0022,固原市,监测站,,29,27,23,13,11,90,,104,102,17,11,3,3,0.3,0.2
2024-09-25T2000,2685A,106.2375,36.0211,固原市,新区,,27,25,27,9,13,85,,99,98,22,9,5,5,0.4,0.4
2024-09-25T2000,3522A,106.2177,35.9959,固原市,原州区十五小,,30,24,26,12,11,95,,103,103,16,9,5,5,0.5,0.5
2024-09-25T2000,2544A,106.6303,30.4576,广安市,市委,颗粒物(PM10),65,80,55,43,39,164,,182,182,26,15,5,5,0.6,0.5
2024-09-25T2000,2545A,106.6271,30.4663,广安市,友谊中学,臭氧1小时,70,72,52,40,37,176,,180,180,22,17,7,6,0.7,0.6
2024-09-25T2000,2547A,106.6388,30.4551,广安市,广电花园,细颗粒物(PM2.5),62,69,56,44,39,162,,174,174,21,16,3,3,0.6,0.5
2024-09-25T2000,2902A,106.6351,30.4865,广安市,北辰小学,臭氧1小时,70,79,62,42,37,176,,185,185,19,15,9,9,0.6,0.5
2024-09-25T2000,2523A,105.8945,32.4535,广元市,黑石坡,,25,16,32,14,24,79,,107,106,14,14,9,8,0.3,0.5
2024-09-25T2000,2524A,105.821,32.4444,广元市,老城,,49,49,39,17,21,16,,109,94,72,33,2,2,1.0,1
2024-09-25T2000,2526A,105.8628,32.4287,广元市,监测站,,43,32,33,30,24,79,,112,110,17,16,5,3,0.8,0.8
2024-09-25T2000,3617A,105.8047,32.4166,广元市,经开区,,36,36,56,19,38,35,,110,101,53,30,5,9,0.7,0.8
2024-09-25T2000,1345A,113.2347,23.1423,广州市,广雅中学,,46,46,39,28,22,52,,127,125,69,39,7,6,1.1,1
2024-09-25T2000,1346A,113.2612,23.105,广州市,市五中,颗粒物(PM10),54,57,55,36,27,86,,140,140,35,30,6,5,0.8,0.9
2024-09-25T2000,1348A,113.3478,23.0916,广州市,广东商学院,颗粒物(PM10),52,53,32,34,22,101,,147,147,45,35,6,4,0.8,0.8
2024-09-25T2000,1349A,113.4332,23.1047,广州市,市八十六中,,47,47,31,27,18,98,,139,139,33,31,4,4,0.6,0.7
2024-09-25T2000,1350A,113.3505,22.9483,广州市,番禺中学,,49,48,31,34,18,129,,157,157,34,33,6,5,0.8,0.8
2024-09-25T2000,1351A,113.2146,23.3916,广州市,花都师范,,36,36,27,22,20,92,,123,123,26,16,4,4,1.0,0.9
2024-09-25T2000,1353A,113.5618,23.312,广州市,九龙镇镇龙,,43,37,27,30,20,75,,128,128,50,20,7,6,0.8,0.7
2024-09-25T2000,1354A,113.2765,23.1544,广州市,麓湖,颗粒物(PM10),51,51,35,31,22,48,,117,115,47,30,5,5,0.8,0.7
2024-09-25T2000,1355A,113.443,23.3035,广州市,帽峰山森林公园,,33,33,21,20,13,84,,132,132,12,16,5,4,0.4,0.4
2024-09-25T2000,2846A,113.3221,23.1322,广州市,体育西,颗粒物(PM10),51,51,34,32,22,99,,142,142,32,30,6,5,0.8,0.8
2024-09-25T2000,3298A,113.5717,23.5491,广州市,从化街口,,44,44,30,25,20,40,,111,109,32,20,8,9,1.0,0.8
2024-09-25T2000,3299A,113.3472,23.3692,广州市,白云竹料,细颗粒物(PM2.5),58,62,34,41,23,69,,131,130,37,19,5,5,0.6,0.7
2024-09-25T2000,3300A,113.2981,23.237,广州市,白云嘉禾,颗粒物(PM10),62,73,44,32,20,33,,134,132,82,40,7,7,1.4,1.1
2024-09-25T2000,3301A,113.4256,23.1716,广州市,黄埔科学城,,46,46,27,26,17,66,,138,138,37,21,3,5,0.7,0.7
2024-09-25T2000,3302A,113.3942,23.0483,广州市,番禺大学城,,42,37,35,29,16,108,,156,156,34,31,8,9,0.4,0.4
2024-09-25T2000,3303A,113.4922,22.8168,广州市,南沙黄阁,,28,12,37,7,22,87,,183,179,21,37,5,5,0.7,0.7
2024-09-25T2000,3304A,113.5342,22.7896,广州市,南沙街,,25,14,33,7,27,78,,174,171,11,32,6,7,0.7,0.7
2024-09-25T2000,3443A,113.2902,23.5544,广州市,花都梯面,,31,31,23,18,15,28,,90,89,16,11,5,6,0.8,0.8
2024-09-25T2000,3445A,113.7858,23.7478,广州市,从化良口,,21,21,18,13,10,42,,87,87,15,10,7,6,0.8,0.8
2024-09-25T2000,3446A,113.8051,23.2614,广州市,增城荔城,,40,40,27,27,21,126,,158,158,20,13,5,6,0.6,0.5
2024-09-25T2000,2506A,109.6047,23.0666,贵港市,江南子站,细颗粒物(PM2.5),59,,28,42,26,59,,68,68,20,15,8,8,1.1,0.8
2024-09-25T2000,2507A,109.6014,23.0948,贵港市,贵城子站,细颗粒物(PM2.5),57,47,38,40,31,62,,69,69,15,13,7,8,0.8,0.7
2024-09-25T2000,2508A,109.5669,23.1065,贵港市,荷城子站,,39,39,34,24,21,71,,69,69,12,12,10,11,0.7,0.6
2024-09-25T2000,3405A,109.5886,23.1172,贵港市,新世纪学校,,39,39,34,25,22,67,,70,70,10,11,7,8,0.7,0.7
2024-09-25T2000,1439A,106.6899,26.5998,贵阳市,马鞍山,,36,36,33,14,16,100,,136,130,11,15,6,6,0.6,0.6
2024-09-25T2000,1440A,106.6971,26.5694,贵阳市,市环保站,颗粒物(PM10),57,63,42,38,30,122,,151,147,22,18,4,6,0.5,0.5
2024-09-25T2000,1441A,106.6243,26.6266,贵阳市,鉴湖路,,44,44,42,29,22,121,,145,143,10,16,6,6,0.5,0.5
2024-09-25T2000,1442A,106.7487,26.6343,贵阳市,燕子冲,,42,39,30,29,25,115,,142,138,14,16,7,7,0.4,0.4
2024-09-25T2000,1443A,106.6555,26.4365,贵阳市,碧云窝,颗粒物(PM10),79,107,54,36,25,80,,146,135,47,19,6,5,0.5,0.4
2024-09-25T2000,1444A,106.694,26.5161,贵阳市,中院村,颗粒物(PM10),51,51,46,31,28,111,,148,144,23,28,7,8,0.6,0.6
2024-09-25T2000,1445A,106.7109,26.6027,贵阳市,红边门,细颗粒物(PM2.5),62,58,43,44,32,112,,143,139,23,20,8,7,0.5,0.5
2024-09-25T2000,1446A,106.7164,26.5699,贵阳市,新华路,,45,44,36,31,25,122,,146,143,17,16,6,7,0.4,0.4
2024-09-25T2000,1447A,106.674,26.5424,贵阳市,太慈桥,,46,46,37,29,22,115,,154,150,20,18,4,6,0.5,0.4
2024-09-25T2000,1862A,110.4144,25.3167,桂林市,电子科大尧山校区,,42,,47,29,30,54,,105,89,12,9,4,7,0.7,0.6
2024-09-25T2000,1863A,110.2819,25.2697,桂林市,监测站,细颗粒物(PM2.5),54,,48,38,33,73,,105,94,9,12,6,11,0.8,0.8
2024-09-25T2000,1864A,110.3089,25.2708,桂林市,龙隐路小学,细颗粒物(PM2.5),52,,47,36,36,76,,104,94,8,10,6,16,0.7,0.6
2024-09-25T2000,1865A,110.2869,25.2178,桂林市,八中,细颗粒物(PM2.5),58,45,48,41,36,74,,100,92,11,13,6,11,0.6,0.6
2024-09-25T2000,3403A,110.1764,25.2381,桂林市,创业大厦,,45,44,55,31,39,68,,102,94,11,15,8,18,0.5,0.5
2024-09-25T2000,3531A,110.296,25.1253,桂林市,旅游学院,细颗粒物(PM2.5),55,44,43,39,34,68,,98,91,8,12,8,12,0.4,0.4
2024-09-25T2000,2674A,100.2561,34.4714,果洛藏族自治州,玛沁县大武镇,,29,22,27,17,16,91,,100,100,5,6,6,8,0.4,0.4
2024-09-25T2000,1129A,126.5422,45.755,哈尔滨市,岭北,,42,42,25,27,15,72,,99,95,35,18,5,7,0.7,0.7
2024-09-25T2000,1130A,126.561,45.8167,哈尔滨市,松北商大,细颗粒物(PM2.5),100,,33,75,26,36,,68,54,43,28,7,8,0.5,0.4
2024-09-25T2000,1131A,126.979,45.5419,哈尔滨市,阿城会宁,细颗粒物(PM2.5),52,44,36,36,14,21,,65,61,38,21,11,11,0.7,0.5
2024-09-25T2000,1132A,126.599,45.7222,哈尔滨市,南岗学府路,颗粒物(PM10),59,68,36,28,13,28,,77,69,52,23,6,7,0.8,0.5
2024-09-25T2000,1133A,126.689,45.7733,哈尔滨市,太平宏伟公园,颗粒物(PM10),64,78,31,34,15,32,,74,68,42,23,7,7,0.8,0.5
2024-09-25T2000,1134A,126.635,45.7667,哈尔滨市,道外承德广场,颗粒物(PM10),52,54,33,21,18,42,,72,67,49,31,6,6,0.4,0.4
2024-09-25T2000,1135A,126.685,45.7319,哈尔滨市,香坊红旗大街,细颗粒物(PM2.5),88,97,38,65,17,30,,79,70,58,28,6,7,1.1,0.6
2024-09-25T2000,1136A,126.6411,45.7258,哈尔滨市,动力和平路,细颗粒物(PM2.5),60,55,28,43,17,30,,75,67,59,23,6,6,0.8,0.6
2024-09-25T2000,1137A,126.593,45.7478,哈尔滨市,道里建国路,颗粒物(PM10),55,59,32,37,18,16,,75,59,74,29,8,10,0.7,0.9
2024-09-25T2000,1138A,126.615,45.61,哈尔滨市,平房东轻厂,颗粒物(PM10),56,62,27,17,12,4,,68,53,90,25,8,6,0.7,0.5
2024-09-25T2000,1139A,126.595,45.9855,哈尔滨市,呼兰师专,,,,25,,16,36,,67,61,,23,5,9,0.7,0.6
2024-09-25T2000,1140A,126.6206,45.6842,哈尔滨市,省农科院,细颗粒物(PM2.5),87,93,39,64,23,5,,65,50,90,38,3,2,0.8,0.4
2024-09-25T2000,2688A,93.5128,42.8172,哈密市,地区监测站,,40,40,69,17,23,90,,99,99,34,35,9,5,0.3,0.3
2024-09-25T2000,2689A,93.4961,42.8328,哈密市,哈密师范学校,颗粒物(PM10),72,94,59,17,26,73,,97,97,27,38,6,6,0.6,0.5
2024-09-25T2000,2671A,100.9048,36.9639,海北藏族自治州,海晏县西海镇,,27,14,29,13,20,85,,99,97,4,8,14,16,0.3,0.4
2024-09-25T2000,3867A,102.0738,36.5056,海东市,平安区公安北苑,,,,53,,20,80,,103,102,18,14,,13,0.5,0.4
2024-09-25T2000,1410A,110.3232,20.0574,海口市,海南大学,,30,22,14,17,10,96,,112,110,13,15,3,5,0.4,0.5
2024-09-25T2000,1411A,110.283,20.0053,海口市,秀英海南医院,,33,25,19,17,11,105,,115,114,11,15,5,5,0.5,0.5
2024-09-25T2000,1412A,110.338,19.9969,海口市,海南师范大学,,32,23,18,16,10,102,,117,117,12,16,6,5,0.5,0.6
2024-09-25T2000,1413A,110.33,20.0356,海口市,龙华路环保局宿舍,,32,24,16,15,12,100,,117,115,10,12,4,4,0.5,0.5
2024-09-25T2000,3539A,110.5111,19.9736,海口市,桂林洋子站,,30,27,21,17,13,95,,119,119,11,11,6,6,0.4,0.5
2024-09-25T2000,2673A,100.6188,36.2866,海南藏族自治州,共和县恰卜恰镇,颗粒物(PM10),59,67,44,20,16,79,,94,92,12,11,9,10,0.3,0.5
2024-09-25T2000,2676A,97.3731,37.3753,海西蒙古族藏族自治州,德令哈市,,34,34,38,20,14,103,,100,100,11,7,8,9,0.3,0.4
2024-09-25T2000,1048A,114.5302,36.6116,邯郸市,东污水处理厂,细颗粒物(PM2.5),138,141,105,105,67,130,,146,143,35,38,5,4,0.8,0.7
2024-09-25T2000,1049A,114.4918,36.5713,邯郸市,矿院,细颗粒物(PM2.5),132,149,110,100,68,127,,148,145,31,30,5,5,0.7,0.5
2024-09-25T2000,1050A,114.484,36.6133,邯郸市,丛台公园,细颗粒物(PM2.5),124,140,101,94,66,121,,148,144,36,29,6,5,0.8,0.7
2024-09-25T2000,3458A,114.7895,36.5593,邯郸市,香泉濮院小区,,,,114,,58,112,,157,152,46,31,5,5,0.6,0.5
2024-09-25T2000,3579A,114.50634,36.77178,邯郸市,永年区实验高中,细颗粒物(PM2.5),144,206,128,110,67,97,,143,135,57,42,6,5,1.0,0.9
2024-09-25T2000,3580A,114.20016,36.44293,邯郸市,峰峰矿区临水派出所,细颗粒物(PM2.5),112,145,120,84,61,133,,158,154,29,20,6,10,1.1,1.3
2024-09-25T2000,2634A,106.9893,33.1842,汉中市,汉川机床厂子校,,37,37,36,24,25,98,,135,133,7,8,5,5,0.4,0.5
2024-09-25T2000,2635A,107.0154,33.0706,汉中市,市监测站,颗粒物(PM10),57,64,80,38,49,62,,150,141,46,26,9,12,1.1,0.9
2024-09-25T2000,2636A,107.0089,33.1138,汉中市,鑫源开发区,,45,,61,31,42,87,,151,146,33,25,10,15,0.5,0.8
2024-09-25T2000,2637A,107.007,33.0323,汉中市,南郑大河坎水厂,,,39,62,28,46,71,,135,129,,16,,9,0.7,0.7
2024-09-25T2000,1223A,120.2072,30.2111,杭州市,滨江,颗粒物(PM10),75,100,62,46,30,119,,165,165,38,24,5,4,1.0,0.8
2024-09-25T2000,1224A,120.0633,30.2747,杭州市,西溪,颗粒物(PM10),55,60,51,38,30,115,,158,154,25,27,6,6,0.9,0.8
2024-09-25T2000,1226A,120.3461,30.3153,杭州市,下沙,细颗粒物(PM2.5),67,70,50,48,33,108,,155,148,63,48,6,6,1.0,0.8
2024-09-25T2000,1227A,120.1269,30.2456,杭州市,卧龙桥,,48,46,45,33,34,74,,164,152,29,25,6,6,0.8,0.6
2024-09-25T2000,1228A,120.1903,30.2692,杭州市,浙江农大,细颗粒物(PM2.5),69,68,47,50,35,118,,150,147,40,30,8,8,0.7,0.6
2024-09-25T2000,1230A,120.1197,30.3119,杭州市,和睦小学,,49,49,49,30,28,151,,176,176,32,27,8,6,0.8,0.8
2024-09-25T2000,1231A,120.3019,30.4183,杭州市,临平镇,颗粒物(PM10),77,103,67,44,34,120,,165,162,33,27,5,5,1.0,0.9
2024-09-25T2000,1232A,120.2697,30.1819,杭州市,城厢镇,细颗粒物(PM2.5),94,101,56,70,41,111,,170,166,51,28,7,6,1.0,0.8
2024-09-25T2000,1233A,120.0883,30.1808,杭州市,云栖,,36,34,37,25,26,47,,141,130,39,26,7,7,0.9,0.9
2024-09-25T2000,3557A,119.9464,30.0494,杭州市,镇二中,细颗粒物(PM2.5),62,65,47,44,33,143,,170,170,27,23,8,8,0.8,0.8
2024-09-25T2000,3558A,119.7183,30.2367,杭州市,市府大楼,细颗粒物(PM2.5),75,94,52,55,32,148,,168,166,27,19,6,6,0.8,0.7
2024-09-25T2000,3656A,120.1556,30.2864,杭州市,消防大队,颗粒物(PM10),55,59,53,34,33,139,,171,169,26,24,9,8,0.9,0.8
2024-09-25T2000,1270A,117.1959,31.7848,合肥市,明珠广场,颗粒物(PM10),54,58,52,31,23,117,,181,178,41,45,12,8,0.9,0.7
2024-09-25T2000,1271A,117.3072,31.8764,合肥市,三里街,颗粒物(PM10),54,58,47,34,23,132,,153,153,20,34,12,9,0.6,0.5
2024-09-25T2000,1272A,117.2588,31.8707,合肥市,琥珀山庄,颗粒物(PM10),56,61,48,33,27,122,,171,168,30,33,10,8,0.6,0.5
2024-09-25T2000,1273A,117.1604,31.9052,合肥市,董铺水库,,46,46,54,17,24,113,,152,149,53,30,3,4,0.4,0.4
2024-09-25T2000,1274A,117.25,31.8571,合肥市,长江中路,颗粒物(PM10),60,70,56,39,28,142,,171,171,23,33,12,9,0.7,0.6
2024-09-25T2000,1275A,117.266,31.9436,合肥市,庐阳区,颗粒物(PM10),63,75,63,29,31,97,,166,158,48,44,6,6,0.6,0.5
2024-09-25T2000,1276A,117.336,31.8586,合肥市,瑶海区,颗粒物(PM10),69,88,57,49,27,104,,146,144,39,49,9,5,0.7,0.5
2024-09-25T2000,1277A,117.3027,31.7964,合肥市,包河区,"颗粒物(PM10),细颗粒物(PM2.5)",52,53,60,36,31,90,,160,154,66,69,20,17,0.7,0.7
2024-09-25T2000,1278A,117.2776,31.7385,合肥市,滨湖新区,颗粒物(PM10),52,53,47,34,22,143,,165,165,14,42,9,7,0.6,0.6
2024-09-25T2000,1279A,117.1318,31.8403,合肥市,高新区,细颗粒物(PM2.5),55,58,48,39,26,129,,159,159,27,43,11,8,0.7,0.7
2024-09-25T2000,3464A,117.3803,31.9147,合肥市,高教基地,,42,42,38,29,22,100,,146,140,18,24,6,5,0.4,0.3
2024-09-25T2000,3614A,79.924,37.0877,和田地区,地区环保局,颗粒物(PM10),148,245,216,81,69,105,,106,106,8,15,8,8,0.6,0.7
2024-09-25T2000,3615A,79.9131,37.113,和田地区,市环保局,,,,268,,74,97,,103,103,13,32,6,8,0.5,0.8
2024-09-25T2000,2516A,108.2011,24.715,河池市,东仁乐园,颗粒物(PM10),51,52,48,27,25,85,,124,120,12,11,6,7,0.6,0.6
2024-09-25T2000,2517A,108.0497,24.6947,河池市,市环保站,,38,26,35,26,29,112,,129,128,8,14,11,11,0.6,0.5
2024-09-25T2000,2518A,108.0983,24.6989,河池市,市疾控中心,,43,41,55,30,41,99,,125,122,18,19,25,13,0.6,0.6
2024-09-25T2000,1696A,114.6778,23.7569,河源市,源西,,40,40,22,14,13,21,,51,50,33,16,4,4,0.8,0.7
2024-09-25T2000,1697A,114.6944,23.7586,河源市,东埔,,26,22,27,18,14,41,,61,61,27,23,2,3,0.9,0.8
2024-09-25T2000,1698A,114.6892,23.7233,河源市,老城,,30,30,25,11,16,29,,59,59,17,15,2,3,0.7,0.7
2024-09-25T2000,1718A,115.4208,35.2464,菏泽市,气象局,颗粒物(PM10),84,117,75,41,30,145,,216,212,54,23,6,6,0.5,0.3
2024-09-25T2000,1719A,115.4747,35.2375,菏泽市,市政协,颗粒物(PM10),82,113,65,47,28,137,,208,203,43,18,5,6,0.6,0.3
2024-09-25T2000,3374A,115.5564,35.0891,菏泽市,定陶老年大学,颗粒物(PM10),62,73,63,31,26,126,,196,190,27,20,6,8,0.5,0.3
2024-09-25T2000,3647A,115.4702,35.2706,菏泽市,菏泽医专,颗粒物(PM10),88,125,68,44,24,130,,208,203,57,25,8,7,0.7,0.5
2024-09-25T2000,2514A,111.5264,24.4172,贺州市,环保小区,,40,40,33,24,22,47,,70,68,21,13,5,4,0.9,0.8
2024-09-25T2000,2515A,111.5608,24.4078,贺州市,政协大楼,颗粒物(PM10),53,56,40,20,27,57,,74,70,22,15,6,5,0.8,0.8
2024-09-25T2000,3534A,111.4744,24.4553,贺州市,西湾,,,34,28,26,24,42,,72,66,14,11,5,10,,0.6
2024-09-25T2000,2385A,114.17,35.9019,鹤壁市,市监测站,细颗粒物(PM2.5),104,143,102,78,61,138,,212,206,37,25,9,8,1.1,1.1
2024-09-25T2000,2386A,114.2956,35.7511,鹤壁市,市交警支队,细颗粒物(PM2.5),113,140,109,85,58,132,,216,210,60,39,3,8,0.8,0.9
2024-09-25T2000,2387A,114.2878,35.7306,鹤壁市,迎宾馆,细颗粒物(PM2.5),108,144,120,81,67,155,,220,217,46,39,7,8,0.9,1
2024-09-25T2000,3474A,114.2617,35.6822,鹤壁市,大新区,细颗粒物(PM2.5),90,107,104,67,70,171,,215,214,37,43,10,12,0.8,0.9
2024-09-25T2000,3596A,114.1572,35.9603,鹤壁市,南山宾馆,细颗粒物(PM2.5),107,137,107,80,70,141,,206,200,29,20,5,8,0.9,1.2
2024-09-25T2000,2244A,130.2537,47.3416,鹤岗市,哈啤分公司,,22,18,27,15,18,53,,38,37,6,7,14,14,0.6,0.6
2024-09-25T2000,2245A,130.2684,47.3086,鹤岗市,斯达机电,,33,,29,23,21,56,,39,36,7,14,12,13,0.4,0.4
2024-09-25T2000,2246A,130.3114,47.3388,鹤岗市,东山纸板厂,,20,,58,14,17,48,,33,31,8,18,17,17,0.4,0.4
2024-09-25T2000,2247A,130.1097,47.3382,鹤岗市,五号水库,,20,18,17,7,9,61,,42,40,4,8,17,17,0.5,0.5
2024-09-25T2000,2263A,127.4833,50.2524,黑河市,交通局,,33,,18,23,17,47,,67,51,12,12,7,7,0.4,0.4
2024-09-25T2000,2264A,127.5144,50.2341,黑河市,环保局,,28,19,16,19,15,55,,72,56,6,8,4,4,0.4,0.5
2024-09-25T2000,2265A,127.5291,50.2472,黑河市,大黑河岛,,,,,26,17,54,,63,54,11,13,2,2,0.2,0.2
2024-09-25T2000,1074A,115.6838,37.7541,衡水市,电机北厂,细颗粒物(PM2.5),90,113,85,67,47,133,,156,156,28,27,9,10,0.5,0.4
2024-09-25T2000,1075A,115.6303,37.7316,衡水市,市监测站,颗粒物(PM10),81,111,85,52,42,132,,161,159,37,29,13,11,0.6,0.4
2024-09-25T2000,3188A,115.6683,37.7217,衡水市,市城管局,细颗粒物(PM2.5),89,123,84,66,46,127,,171,168,40,27,10,10,0.6,0.4
2024-09-25T2000,3459A,115.5989,37.5491,衡水市,地表水厂,颗粒物(PM10),67,83,77,35,41,117,,143,141,31,36,7,8,0.5,0.5
2024-09-25T2000,2456A,112.5003,26.9167,衡阳市,原169医院,细颗粒物(PM2.5),93,125,72,69,44,77,,155,142,26,26,14,13,1.0,0.8
2024-09-25T2000,2457A,112.6194,26.9258,衡阳市,衡阳化工总厂,细颗粒物(PM2.5),112,95,72,84,54,76,,154,145,16,17,11,12,0.9,0.8
2024-09-25T2000,2458A,112.6211,26.8956,衡阳市,珠晖区环保局,细颗粒物(PM2.5),79,91,71,58,42,80,,158,148,12,19,11,11,1.0,1
2024-09-25T2000,2459A,112.6197,26.8733,衡阳市,市委党校,细颗粒物(PM2.5),108,94,74,81,49,80,,162,151,16,20,11,13,0.9,0.9
2024-09-25T2000,2460A,112.6006,26.8919,衡阳市,市监测站,细颗粒物(PM2.5),89,86,69,66,48,82,,166,155,12,15,11,14,1.0,0.9
2024-09-25T2000,2461A,112.5664,26.9056,衡阳市,真空机电公司,细颗粒物(PM2.5),89,104,74,66,42,70,,157,146,24,19,14,11,1.2,0.9
2024-09-25T2000,3399A,112.6703,26.882,衡阳市,师范学院,细颗粒物(PM2.5),77,93,72,56,40,76,,151,137,15,20,12,12,0.9,0.9
2024-09-25T2000,2608A,103.3772,23.3993,红河哈尼族彝族自治州,污水处理厂,,36,25,27,25,21,63,,100,88,6,8,4,6,0.4,0.5
2024-09-25T2000,2609A,103.3861,23.35,红河哈尼族彝族自治州,监测站,,43,43,30,29,25,66,,96,83,10,6,12,8,0.4,0.5
2024-09-25T2000,3038A,103.3758,23.368,红河哈尼族彝族自治州,州图书馆,,32,,28,22,15,68,,93,82,5,6,6,7,0.3,0.4
2024-09-25T2000,1090A,111.6507,40.7517,呼和浩特市,呼市一监,颗粒物(PM10),56,61,10,18,3,49,,100,92,37,12,6,6,0.4,0.4
2024-09-25T2000,1091A,111.6572,40.8033,呼和浩特市,小召,,,,9,,3,57,,100,94,,16,,6,0.6,0.4
2024-09-25T2000,1094A,111.7516,40.8369,呼和浩特市,如意水处理厂,,26,26,7,7,2,68,,97,94,36,18,7,6,0.5,0.3
2024-09-25T2000,1095A,111.7276,40.8062,呼和浩特市,二十九中,,33,33,12,14,3,78,,102,100,36,18,6,4,0.6,0.4
2024-09-25T2000,1096A,111.5512,40.7866,呼和浩特市,工大金川校区,颗粒物(PM10),54,58,18,14,4,40,,93,87,62,24,3,3,0.5,0.4
2024-09-25T2000,1097A,111.717,40.7612,呼和浩特市,化肥厂生活区,,40,40,8,9,2,41,,99,91,60,14,8,8,0.6,0.4
2024-09-25T2000,3698A,111.5968,40.8178,呼和浩特市,红旗小学,颗粒物(PM10),62,73,14,13,4,9,,95,84,95,24,5,3,0.5,0.3
2024-09-25T2000,3699A,111.6518,40.8389,呼和浩特市,海东办,颗粒物(PM10),54,58,14,14,5,29,,100,92,76,27,5,4,0.5,0.4
2024-09-25T2000,2192A,119.7594,49.2261,呼伦贝尔市,区环保局,颗粒物(PM10),80,110,33,52,20,9,,75,68,72,23,8,7,1.4,0.5
2024-09-25T2000,3061A,119.7512,49.1577,呼伦贝尔市,国华电力东,颗粒物(PM10),73,96,28,41,19,13,,81,74,50,12,2,2,0.7,0.4
2024-09-25T2000,1250A,120.0751,30.8669,湖州市,城西水厂,细颗粒物(PM2.5),60,60,67,43,45,128,,180,176,63,41,6,6,0.6,0.6
2024-09-25T2000,2873A,120.0875,30.8955,湖州市,仁皇山新区,臭氧1小时,64,60,73,43,42,171,,192,192,27,34,8,9,0.8,0.7
2024-09-25T2000,2907A,120.1844,30.8596,湖州市,吴兴区站,臭氧1小时,90,68,55,55,38,192,,197,197,27,34,7,7,0.8,0.7
2024-09-25T2000,3562A,120.4148,30.8538,湖州市,南浔区站,臭氧1小时,85,68,56,50,42,188,,183,183,23,23,8,7,0.9,0.8
2024-09-25T2000,1607A,120.9092,40.7136,葫芦岛市,龙港区,,29,29,32,9,18,64,,119,81,23,19,10,15,0.4,0.6
2024-09-25T2000,1608A,120.8392,40.7514,葫芦岛市,化工街,颗粒物(PM10),51,51,34,14,17,41,,80,74,48,27,14,19,0.6,0.5
2024-09-25T2000,1609A,120.8341,40.7073,葫芦岛市,新区,,35,35,29,13,23,44,,106,76,44,26,29,15,0.6,0.5
2024-09-25T2000,1610A,120.8695,40.7677,葫芦岛市,东城区,,30,30,30,12,21,25,,78,68,53,26,8,12,0.4,0.4
2024-09-25T2000,2482A,109.5981,27.5721,怀化市,林科所,,40,31,34,10,20,126,,142,139,12,18,4,12,0.4,0.5
2024-09-25T2000,2483A,109.9453,27.5444,怀化市,河西地税局,颗粒物(PM10),60,70,48,35,29,77,,147,132,27,18,10,8,0.8,0.7
2024-09-25T2000,2484A,109.9781,27.5342,怀化市,市四医院,颗粒物(PM10),52,54,54,30,33,104,,143,138,22,20,13,9,0.6,0.5
2024-09-25T2000,2485A,109.9972,27.5578,怀化市,监测楼,,,,53,,27,94,,146,139,,17,13,6,0.7,0.4
2024-09-25T2000,2486A,110.0394,27.583,怀化市,市委党校,颗粒物(PM10),66,82,57,32,34,98,,143,137,19,24,23,10,0.7,0.7
2024-09-25T2000,1210A,119.036,33.5981,淮安市,钵池山,,26,19,37,18,25,75,,94,93,12,17,4,6,0.5,0.7
2024-09-25T2000,1211A,119.007,33.575,淮安市,北京南路,,27,27,43,18,32,72,,93,91,14,22,6,6,0.4,0.5
2024-09-25T2000,1212A,118.989,33.6067,淮安市,市监测站,,26,19,40,9,26,81,,102,101,21,30,6,7,0.4,0.5
2024-09-25T2000,1213A,119.135,33.5039,淮安市,楚州区监测站,,22,22,52,8,22,68,,85,84,16,23,6,6,0.7,0.8
2024-09-25T2000,1214A,119.0186,33.6297,淮安市,淮阴区监测站,,23,22,42,16,25,68,,97,94,29,27,2,3,0.4,0.5
2024-09-25T2000,3426A,118.8755,33.2894,淮安市,新华书店,颗粒物(PM10),51,52,46,27,23,116,,116,116,23,18,7,8,0.8,0.8
2024-09-25T2000,2282A,116.8004,33.975,淮北市,监测站,颗粒物(PM10),51,51,40,26,20,111,,151,147,27,16,7,8,0.6,0.6
2024-09-25T2000,2283A,116.8091,33.9007,淮北市,烈山区政府,,47,47,47,27,26,127,,162,159,16,22,6,8,0.4,0.6
2024-09-25T2000,3330A,116.8873,33.9836,淮北市,杜集区检察院,颗粒物(PM10),56,62,48,26,25,139,,158,156,8,11,8,9,0.6,0.6
2024-09-25T2000,4017A,116.7923,33.9535,淮北市,市博物馆,,46,46,40,24,24,133,,160,159,22,19,6,8,0.7,0.7
2024-09-25T2000,2277A,116.8305,32.7727,淮南市,潘集区政府,颗粒物(PM10),57,63,67,33,39,143,,148,148,20,30,7,8,0.4,0.4
2024-09-25T2000,2278A,117.0067,32.6524,淮南市,师范学院,细颗粒物(PM2.5),85,80,68,63,41,142,,179,173,21,27,8,9,0.6,0.7
2024-09-25T2000,2279A,116.8569,32.5951,淮南市,谢家集区政府,颗粒物(PM10),59,68,62,39,43,163,,190,188,23,27,9,13,0.5,0.7
2024-09-25T2000,2280A,116.8281,32.633,淮南市,八公山区政府,颗粒物(PM10),59,67,76,41,45,166,,190,190,13,19,13,12,0.4,0.4
2024-09-25T2000,2281A,116.6325,32.6201,淮南市,焦岗湖风景区管理处,颗粒物(PM10),55,59,55,38,28,84,,137,130,14,22,5,6,0.1,0.1
2024-09-25T2000,2894A,117.0566,32.6531,淮南市,经济技术开发区消防队,颗粒物(PM10),55,60,68,31,28,133,,181,176,28,40,8,8,0.4,0.3
2024-09-25T2000,3329A,117.0108,32.5893,淮南市,山南新区,颗粒物(PM10),64,77,70,40,32,137,,183,178,28,21,6,6,0.6,0.6
2024-09-25T2000,2446A,114.9028,30.4742,黄冈市,职工中心,细颗粒物(PM2.5),59,60,68,42,40,165,,196,193,10,13,10,10,0.7,0.7
2024-09-25T2000,2929A,114.8858,30.4519,黄冈市,红卫路,"颗粒物(PM10),细颗粒物(PM2.5)",58,65,58,41,36,144,,200,195,25,22,10,11,0.9,0.8
2024-09-25T2000,3398A,114.9136,30.4445,黄冈市,市林业局,臭氧1小时,73,77,75,32,35,178,,216,213,24,22,11,12,0.8,0.7
2024-09-25T2000,2672A,102.0199,35.5102,黄南藏族自治州,同仁县隆务镇,颗粒物(PM10),59,68,46,10,16,77,,89,89,8,6,6,7,0.4,0.4
2024-09-25T2000,2295A,118.2903,29.6963,黄山市,延安路89号,,41,41,43,13,12,79,,130,122,10,7,6,6,0.3,0.4
2024-09-25T2000,2296A,118.327,29.7178,黄山市,黄山东路89号,,36,27,36,25,14,81,,122,118,10,8,5,5,0.4,0.4
2024-09-25T2000,2297A,118.1371,30.2756,黄山市,黄山区政府5号楼,,38,37,29,26,20,65,,116,111,11,7,7,6,0.5,0.4
2024-09-25T2000,2423A,115.0601,30.2313,黄石市,沈家营,颗粒物(PM10),51,52,58,28,27,154,,198,194,21,22,12,16,0.6,0.7
2024-09-25T2000,2424A,115.0817,30.2006,黄石市,陈家湾,颗粒物(PM10),58,66,51,37,25,134,,197,190,21,15,10,13,0.9,0.9
2024-09-25T2000,2426A,114.8988,30.2019,黄石市,铁山,臭氧1小时,80,47,47,33,28,184,,222,221,13,16,10,11,0.5,0.5
2024-09-25T2000,2427A,115.0307,30.2092,黄石市,团城山,臭氧1小时,80,57,50,29,22,184,,206,205,16,15,9,12,0.7,0.7
2024-09-25T2000,3149A,115.0235,30.1578,黄石市,笔架山北路,臭氧1小时,64,43,44,23,23,171,,204,202,16,11,19,13,0.8,0.8
2024-09-25T2000,1392A,114.4183,23.0528,惠州市,河南岸金山湖子站,,23,19,17,13,12,73,,86,86,15,9,4,5,0.6,0.6
2024-09-25T2000,1393A,114.4053,23.0822,惠州市,下埔横江三路子站,,26,26,21,13,13,74,,103,103,19,12,3,4,0.8,0.7
2024-09-25T2000,1394A,114.4103,23.1142,惠州市,江北云山西路子站,,25,25,23,17,12,76,,101,101,25,13,4,5,0.7,0.7
2024-09-25T2000,1395A,114.4645,22.7833,惠州市,惠阳区承修路船湖子站,,19,19,21,10,14,48,,75,75,26,20,6,5,0.8,0.7
2024-09-25T2000,1396A,114.5317,22.7422,惠州市,大亚湾管委会子站,,21,21,16,9,10,63,,77,77,31,21,7,7,0.6,0.6
2024-09-25T2000,3314A,114.4338,22.8134,惠州市,惠阳秋长,,,,16,12,13,56,,95,93,27,20,,6,,0.7
2024-09-25T2000,3452A,114.6517,22.775,惠州市,大亚湾霞涌,,26,19,15,18,11,40,,74,72,19,9,4,4,0.7,0.6
2024-09-25T2000,2240A,130.9762,45.3001,鸡西市,环保局,,30,30,38,14,12,70,,75,75,5,13,5,6,0.1,0.3
2024-09-25T2000,2243A,130.9429,45.3039,鸡西市,第一中学,,27,27,31,11,11,73,,80,79,6,14,5,5,0.1,0.2
2024-09-25T2000,3707A,131.0207,45.3073,鸡西市,欧美日汽修厂,,31,31,39,12,16,75,,76,76,10,13,5,5,0.2,0.1
2024-09-25T2000,3709A,130.9967,45.3106,鸡西市,市政设施管理处,,35,35,47,15,13,73,,74,74,9,16,7,7,0.3,0.2
2024-09-25T2000,2367A,114.9754,27.0803,吉安市,红声器材厂,,39,39,45,24,26,49,,92,82,15,14,8,12,0.6,0.7
2024-09-25T2000,2368A,114.9658,27.0999,吉安市,市森林工业局,,39,36,46,27,32,48,,98,85,20,20,8,11,0.6,0.6
2024-09-25T2000,2369A,114.99,27.1312,吉安市,市环境监测站,,35,35,42,23,27,55,,103,93,13,13,13,19,0.6,0.6
2024-09-25T2000,2370A,115.0093,27.0968,吉安市,青原区法院,,42,37,42,29,28,49,,93,84,16,15,8,12,0.7,0.7
2024-09-25T2000,1772A,126.54,43.8622,吉林市,哈达湾,细颗粒物(PM2.5),67,48,25,48,16,16,,64,48,47,21,5,6,0.9,0.6
2024-09-25T2000,1773A,126.5844,43.8358,吉林市,东局子,,28,28,26,14,10,32,,65,48,31,20,4,4,0.8,0.6
2024-09-25T2000,1774A,126.5052,43.8245,吉林市,电力学院,颗粒物(PM10),63,75,34,36,21,8,,65,47,40,22,3,3,1.0,0.6
2024-09-25T2000,1775A,126.6133,43.8972,吉林市,江北,颗粒物(PM10),53,55,31,32,16,13,,60,37,40,19,5,6,0.8,0.7
2024-09-25T2000,1776A,126.555,43.8306,吉林市,江南公园,颗粒物(PM10),52,54,34,27,15,26,,67,50,33,21,6,6,0.8,0.7
2024-09-25T2000,1778A,126.7061,43.7133,吉林市,丰满,,13,,11,9,8,33,,72,57,4,4,5,5,0.7,0.6
2024-09-25T2000,2868A,126.4739,43.953,吉林市,九站,,36,36,31,25,14,37,,68,54,21,16,5,6,0.7,0.6
2024-09-25T2000,1299A,116.9862,36.6114,济南市,科干所,颗粒物(PM10),65,80,63,32,26,148,,200,195,41,39,7,7,0.8,0.7
2024-09-25T2000,1300A,116.9376,36.665,济南市,农科所,颗粒物(PM10),73,95,77,32,27,105,,186,178,64,50,5,6,0.9,0.6
2024-09-25T2000,1301A,117.1265,36.6734,济南市,开发区,颗粒物(PM10),74,98,63,42,29,137,,197,191,48,37,8,6,0.7,0.6
2024-09-25T2000,1303A,117.0624,36.6868,济南市,省种子仓库,颗粒物(PM10),79,107,77,36,28,131,,195,189,51,48,8,6,0.6,0.4
2024-09-25T2000,1304A,116.9489,36.6447,济南市,机床二厂,颗粒物(PM10),72,93,88,34,28,134,,205,198,62,56,7,5,1.0,0.8
2024-09-25T2000,1305A,117.0495,36.663,济南市,市监测站,颗粒物(PM10),75,100,66,42,28,132,,203,195,56,46,7,6,0.9,0.7
2024-09-25T2000,1306A,116.7675,36.5484,济南市,长清党校,颗粒物(PM10),79,107,58,34,25,160,,208,201,43,32,8,8,0.8,0.8
2024-09-25T2000,1616A,117.6795,36.229,济南市,技术学院,细颗粒物(PM2.5),77,97,81,56,47,171,,197,196,40,48,15,14,0.9,1.1
2024-09-25T2000,1961A,117.532,36.6868,济南市,东山小学,颗粒物(PM10),79,107,64,39,30,116,,214,201,66,41,8,5,0.8,0.5
2024-09-25T2000,3059A,117.7161,36.2049,济南市,泰兴公司,"颗粒物(PM10),臭氧1小时",67,83,73,41,39,173,,195,194,41,60,14,12,0.6,0.8
2024-09-25T2000,3064A,117.6867,36.2171,济南市,莱芜战役纪念馆,臭氧1小时,74,88,82,41,40,179,,195,195,34,54,8,8,0.8,1
2024-09-25T2000,3494A,117.1673,36.9782,济南市,济阳区政府,颗粒物(PM10),64,78,78,34,31,169,,196,196,21,45,10,7,0.6,0.6
2024-09-25T2000,3495A,117.1171,36.63,济南市,锦屏中学,颗粒物(PM10),53,56,46,24,21,123,,205,195,41,24,5,6,0.7,0.5
2024-09-25T2000,3682A,116.9814,36.6819,济南市,济南四建,颗粒物(PM10),68,85,70,37,30,125,,192,185,55,66,5,4,0.9,0.8
2024-09-25T2000,1653A,116.6251,35.4302,济宁市,火炬城,细颗粒物(PM2.5),58,62,56,41,33,161,,198,196,20,20,11,12,0.8,0.8
2024-09-25T2000,1655A,116.5491,35.4042,济宁市,电化厂,颗粒物(PM10),71,91,86,34,35,138,,183,180,34,30,12,15,0.2,0.4
2024-09-25T2000,3500A,116.5814,35.3707,济宁市,北湖一中,颗粒物(PM10),55,59,56,31,37,158,,189,188,30,27,3,5,0.6,0.6
2024-09-25T2000,3501A,116.8249,35.5593,济宁市,服务中心,颗粒物(PM10),70,90,74,43,37,131,,204,199,48,37,9,9,0.8,0.6
2024-09-25T2000,3678A,116.5907,35.4054,济宁市,市第七中学,颗粒物(PM10),54,58,63,36,36,143,,196,192,36,27,8,13,0.9,0.8
2024-09-25T2000,2255A,130.2751,46.8028,佳木斯市,佳纺,,22,,48,15,26,48,,33,33,7,27,5,5,0.5,0.7
2024-09-25T2000,2256A,130.3995,46.8307,佳木斯市,发电厂,,19,19,37,13,22,55,,32,32,7,22,6,6,0.6,0.5
2024-09-25T2000,2257A,130.3258,46.7975,佳木斯市,环保局,,15,,48,10,26,42,,30,30,11,34,8,9,0.5,0.7
2024-09-25T2000,2258A,130.3648,46.8032,佳木斯市,十一中,,20,16,38,14,20,52,,30,30,13,34,7,7,0.5,0.7
2024-09-25T2000,2259A,130.3794,46.7588,佳木斯市,四丰,,16,12,21,8,10,50,,32,32,10,21,1,1,0.3,0.3
2024-09-25T2000,1252A,120.7436,30.778,嘉兴市,清河小学,颗粒物(PM10),65,80,61,44,31,70,,121,115,43,31,4,4,1.4,1.1
2024-09-25T2000,1253A,120.726,30.7478,嘉兴市,嘉兴学院,,,92,51,68,49,82,,130,123,,30,3,3,1.0,0.9
2024-09-25T2000,2872A,120.7846,30.7525,嘉兴市,南湖区残联,细颗粒物(PM2.5),78,60,54,57,42,87,,130,125,35,29,4,5,1.2,0.9
2024-09-25T2000,3407A,120.6916,30.7739,嘉兴市,秀洲住建,颗粒物(PM10),60,70,52,42,30,34,,138,122,72,29,5,5,1.2,1
2024-09-25T2000,1945A,98.2908,39.7711,嘉峪关市,气象局,颗粒物(PM10),62,73,71,24,23,115,,124,124,18,16,8,18,0.3,0.3
2024-09-25T2000,2884A,98.2672,39.7978,嘉峪关市,酒钢宾馆,颗粒物(PM10),63,75,74,29,24,109,,122,121,30,19,14,23,0.4,0.5
2024-09-25T2000,3248A,98.2643,39.7724,嘉峪关市,雄关区,颗粒物(PM10),60,69,65,31,22,112,,118,118,19,17,10,14,0.3,0.3
2024-09-25T2000,1383A,113.1064,22.6058,江门市,北街,,47,47,38,31,24,116,,114,114,28,36,4,4,1.0,1
2024-09-25T2000,1384A,113.0731,22.5835,江门市,西区,,44,44,34,25,20,97,,98,98,25,37,6,5,0.8,0.8
2024-09-25T2000,1385A,113.0219,22.5311,江门市,圭峰西,,24,20,31,15,19,76,,98,95,17,26,3,3,0.9,0.8
2024-09-25T2000,1386A,113.0828,22.5947,江门市,东湖,,46,46,34,32,20,118,,104,104,22,30,4,4,0.7,0.7
2024-09-25T2000,3311A,113.1075,22.5647,江门市,江海富民,,31,25,43,20,26,98,,111,110,19,34,6,6,0.7,0.8
2024-09-25T2000,3449A,113.05,22.4667,江门市,新会银湖,,24,12,34,6,28,74,,108,102,10,28,4,4,0.9,1
2024-09-25T2000,1828A,113.227,35.2125,焦作市,市环保局,细颗粒物(PM2.5),95,124,103,71,66,169,,211,211,34,30,12,12,0.7,0.6
2024-09-25T2000,1830A,113.1992,35.2590,焦作市,影视城,臭氧1小时,109,93,72,66,48,217,,236,234,19,18,16,12,1.1,0.9
2024-09-25T2000,3169A,113.2725,35.2067,焦作市,太极体育中心,细颗粒物(PM2.5),84,116,116,62,63,169,,206,206,30,33,12,11,1.0,0.9
2024-09-25T2000,3335A,113.3137,35.2641,焦作市,马村街道办,细颗粒物(PM2.5),109,153,96,82,60,152,,202,202,40,29,11,8,1.4,0.7
2024-09-25T2000,3336A,113.2465,35.2373,焦作市,焦作技师学院,细颗粒物(PM2.5),89,107,93,66,62,170,,208,208,35,26,16,14,1.1,0.7
2024-09-25T2000,3477A,113.1656,35.2539,焦作市,中站许衡医院,臭氧1小时,100,94,76,51,45,200,,224,224,39,31,15,9,0.7,0.6
2024-09-25T2000,3981A,113.2449,35.1803,焦作市,原李万街道办,颗粒物(PM10),86,121,105,61,72,174,,211,211,35,33,12,13,0.7,0.7
2024-09-25T2000,1708A,116.3701,23.5345,揭阳市,新兴,,14,,23,9,12,43,,74,68,9,18,4,5,0.6,0.7
2024-09-25T2000,1709A,116.3264,23.5443,揭阳市,西马,,20,20,26,8,11,36,,68,62,13,17,4,5,0.5,0.6
2024-09-25T2000,1710A,116.3611,23.5626,揭阳市,东兴,,14,9,25,8,9,44,,78,70,10,15,3,4,0.9,0.8
2024-09-25T2000,1711A,116.4151,23.5294,揭阳市,渔湖,,,,24,14,11,46,,90,80,10,19,4,5,0.5,0.7
2024-09-25T2000,3320A,116.403,23.5699,揭阳市,曲溪,,23,23,22,15,11,36,,84,74,18,18,3,3,0.6,0.6
2024-09-25T2000,1944A,102.1692,38.5167,金昌市,天庆家园,,41,41,63,22,36,114,,113,113,5,15,10,18,0.3,0.5
2024-09-25T2000,3170A,102.1864,38.5253,金昌市,市委党校,,48,48,92,18,33,113,,109,109,6,16,10,15,0.5,0.6
2024-09-25T2000,4022A,102.1647,38.5371,金昌市,金川区人防中心,,45,45,79,21,32,96,,96,96,6,13,10,21,0.5,0.6
2024-09-25T2000,1262A,119.647,29.077,金华市,十五中,,34,34,41,20,30,92,,132,129,31,20,2,2,0.7,0.7
2024-09-25T2000,1263A,119.686,29.1029,金华市,监测站,,30,30,38,20,24,78,,124,119,42,23,2,2,0.7,0.8
2024-09-25T2000,3659A,119.656,29.1131,金华市,气象局,,32,32,37,12,18,68,,118,114,49,27,5,4,0.6,0.6
2024-09-25T2000,1767A,121.1115,41.0879,锦州市,南山,,29,25,23,20,28,30,,93,72,52,18,17,11,0.7,0.6
2024-09-25T2000,1768A,121.0533,40.8434,锦州市,开发区,,26,26,35,14,29,56,,78,76,32,29,6,11,0.8,0.8
2024-09-25T2000,1769A,121.1836,41.1119,锦州市,百股街道,,42,31,25,17,15,20,,93,69,55,17,125,17,0.6,0.6
2024-09-25T2000,1770A,121.1178,41.1222,锦州市,天安街道,,49,49,27,23,28,13,,84,69,78,20,34,12,0.8,0.6
2024-09-25T2000,1771A,121.1303,41.1386,锦州市,北湖公园,颗粒物(PM10),78,106,39,48,31,20,,89,74,63,19,8,12,0.9,0.7
2024-09-25T2000,2160A,112.85,35.5051,晋城市,自来水公司,臭氧1小时,98,88,101,56,60,198,,192,192,27,34,14,13,1.1,1.7
2024-09-25T2000,2161A,112.8318,35.4936,晋城市,白云商贸,臭氧1小时,99,114,102,63,60,199,,189,189,27,34,13,12,1.1,1.6
2024-09-25T2000,2162A,112.8508,35.4887,晋城市,市环保局,臭氧1小时,88,95,101,53,58,190,,190,190,30,40,12,10,1.0,1.6
2024-09-25T2000,2163A,112.8676,35.4897,晋城市,技术学院,臭氧1小时,97,112,102,51,59,197,,194,194,32,44,13,11,1.0,1.4
2024-09-25T2000,3620A,112.8271,35.4828,晋城市,泽州一中,臭氧1小时,85,89,97,58,62,188,,185,185,31,35,16,17,1.1,1.7
2024-09-25T2000,2171A,112.7532,37.6945,晋中市,锦纶小区,颗粒物(PM10),124,197,116,92,55,58,,110,106,77,41,17,16,1.6,1
2024-09-25T2000,2173A,112.7249,37.7067,晋中市,南都小区,细颗粒物(PM2.5),133,180,109,101,55,61,,110,108,76,53,14,14,1.6,1.4
2024-09-25T2000,2174A,112.6991,37.6982,晋中市,榆次区政府,颗粒物(PM10),113,175,119,71,46,67,,106,106,72,42,18,16,1.2,1
2024-09-25T2000,2865A,112.7195,37.6828,晋中市,榆次三中,细颗粒物(PM2.5),125,197,114,95,51,57,,112,109,77,45,15,17,1.4,1.1
2024-09-25T2000,2439A,112.2014,31.0481,荆门市,竹园小学,细颗粒物(PM2.5),80,103,98,59,60,125,,210,201,34,35,13,15,1.3,0.7
2024-09-25T2000,2440A,112.1969,30.9891,荆门市,掇刀,颗粒物(PM10),76,101,102,55,66,91,,206,192,63,36,14,16,0.9,0.7
2024-09-25T2000,2441A,112.2213,31.0386,荆门市,石化一小,,,102,101,63,61,124,,206,196,44,42,23,23,,0.6
2024-09-25T2000,3012A,112.1849,31.0362,荆门市,西山林语,细颗粒物(PM2.5),70,73,82,51,51,138,,210,203,26,23,10,12,0.7,0.7
2024-09-25T2000,3547A,112.1632,31.0138,荆门市,龙泉中学南校,细颗粒物(PM2.5),79,84,90,58,53,149,,212,205,30,39,12,15,0.7,0.6
2024-09-25T2000,1844A,112.2494,30.3197,荆州市,市图书馆,细颗粒物(PM2.5),75,86,82,55,58,160,,215,210,30,34,46,15,0.8,0.8
2024-09-25T2000,1845A,112.2008,30.3544,荆州市,市委党校,,,89,90,49,68,163,,221,216,34,28,55,11,,0.7
2024-09-25T2000,3194A,112.2747,30.3122,荆州市,管委会,细颗粒物(PM2.5),84,83,78,62,59,173,,215,210,26,42,44,16,0.8,0.8
2024-09-25T2000,3548A,112.1655,30.3364,荆州市,学苑路,细颗粒物(PM2.5),100,76,97,75,73,179,,229,226,29,28,43,12,0.6,0.7
2024-09-25T2000,2343A,117.2117,29.2933,景德镇市,老干部活动中心,细颗粒物(PM2.5),55,56,32,39,20,69,,117,111,18,14,12,9,0.7,0.5
2024-09-25T2000,2344A,117.1894,29.2789,景德镇市,兽医站,颗粒物(PM10),52,53,34,31,19,31,,122,108,72,16,40,12,0.7,0.7
2024-09-25T2000,2345A,117.1547,29.2617,景德镇市,台达陶瓷,颗粒物(PM10),57,63,36,36,19,65,,117,109,38,19,52,25,0.6,0.5
2024-09-25T2000,2346A,117.2461,29.2956,景德镇市,陶研所,,41,41,27,24,13,78,,126,119,16,12,7,6,0.5,0.4
2024-09-25T2000,1803A,115.9872,29.6815,九江市,十里,颗粒物(PM10),51,52,54,24,29,122,,187,180,28,28,13,11,0.7,0.7
2024-09-25T2000,1804A,115.9584,29.7046,九江市,茅山头,,,74,48,19,30,110,,167,161,,27,8,9,0.8,0.7
2024-09-25T2000,1805A,115.9877,29.7295,九江市,西园,,45,45,44,20,27,121,,172,164,30,21,10,11,0.6,0.6
2024-09-25T2000,1806A,116.0172,29.6547,九江市,五七二七厂,,40,39,39,22,32,127,,172,169,11,15,9,12,0.6,0.7
2024-09-25T2000,1808A,115.9114,29.6038,九江市,综合工业园,细颗粒物(PM2.5),75,82,55,55,35,116,,191,184,58,42,17,16,0.8,0.7
2024-09-25T2000,1809A,116.0721,29.7535,九江市,石化总厂,颗粒物(PM10),55,59,50,31,27,125,,149,146,34,22,10,9,0.6,0.6
2024-09-25T2000,1810A,115.9773,29.5698,九江市,庐山气象台,臭氧1小时,58,44,37,30,27,166,,172,172,5,6,7,12,1.1,0.9
2024-09-25T2000,3190A,116.0254,29.6994,九江市,外国语学校,颗粒物(PM10),51,52,51,32,28,112,,182,174,36,22,17,17,0.5,0.3
2024-09-25T2000,2658A,98.5061,39.7443,酒泉市,仓门街子站,颗粒物(PM10),79,107,74,31,23,85,,124,122,31,19,270,30,0.6,0.5
2024-09-25T2000,2659A,98.4989,39.7256,酒泉市,油田生活基地,颗粒物(PM10),89,127,80,36,27,92,,130,128,32,20,15,17,0.5,0.4
2024-09-25T2000,2698A,76.0072,39.4467,喀什地区,巡警大队,颗粒物(PM10),323,438,359,89,81,92,,88,88,10,42,4,6,0.4,0.8
2024-09-25T2000,2699A,75.9755,39.4694,喀什地区,吾办,颗粒物(PM10),357,465,356,154,118,86,,86,86,16,39,6,6,0.4,0.8
2024-09-25T2000,4027A,75.9483,39.4689,喀什地区,老干局,颗粒物(PM10),408,508,387,112,84,52,,72,71,27,36,5,5,0.5,0.6
2024-09-25T2000,1824A,114.3389,34.7781,开封市,肿瘤医院,细颗粒物(PM2.5),138,148,99,105,60,134,,214,209,,30,12,9,,0.5
2024-09-25T2000,1826A,114.2885,34.7965,开封市,世纪星幼儿园,颗粒物(PM10),84,117,95,51,43,139,,220,216,37,23,9,9,1.0,0.7
2024-09-25T2000,3147A,114.3438,34.8106,开封市,龙亭公园,细颗粒物(PM2.5),144,148,99,110,48,123,,213,206,52,27,9,7,1.1,0.8
2024-09-25T2000,3210A,114.3644,34.7964,开封市,汴京公园,细颗粒物(PM2.5),145,140,96,111,55,112,,206,198,48,28,10,9,0.9,0.5
2024-09-25T2000,3473A,114.2485,34.8306,开封市,技师学院,细颗粒物(PM2.5),97,125,97,72,41,131,,210,206,49,24,12,12,0.8,0.6
2024-09-25T2000,3592A,114.4644,34.7556,开封市,祥符区生态环境局,颗粒物(PM10),102,153,106,64,49,106,,188,182,72,51,9,9,0.7,0.6
2024-09-25T2000,1951A,84.895,45.6094,克拉玛依市,长征新村,,,,20,,7,72,,83,83,18,7,7,7,0.3,0.2
2024-09-25T2000,1952A,84.8988,45.5893,克拉玛依市,南林小区,,22,22,23,11,10,56,,81,81,25,11,9,9,0.4,1.4
2024-09-25T2000,1954A,84.905,44.3396,克拉玛依市,独山子区,,35,35,57,14,18,109,,103,103,24,18,11,10,0.5,0.6
2024-09-25T2000,1955A,85.6979,46.098,克拉玛依市,乌尔禾区商贸楼,,36,36,29,3,5,66,,71,71,15,13,21,19,0.3,0.3
2024-09-25T2000,3612A,85.1045,45.6899,克拉玛依市,白碱滩区新站,,28,28,31,3,7,80,,84,84,19,12,8,8,0.1,0.1
2024-09-25T2000,2697A,76.1454,39.7142,克孜勒苏柯尔克孜自治州,市人民政府,颗粒物(PM10),242,379,252,127,84,102,,101,101,4,16,3,9,0.4,0.5
2024-09-25T2000,3665A,76.1658,39.7157,克孜勒苏柯尔克孜自治州,克州文化中心,颗粒物(PM10),235,374,289,134,92,99,,100,100,6,15,7,11,0.4,0.4
2024-09-25T2000,1450A,102.8204,24.8886,昆明市,呈贡新区,,42,42,45,21,28,94,,116,113,14,28,6,6,0.6,0.6
2024-09-25T2000,1452A,102.7252,25.0902,昆明市,龙泉镇,,43,43,36,13,20,110,,135,135,15,24,7,7,0.7,0.8
2024-09-25T2000,1453A,102.7266,25.0375,昆明市,东风东路,,33,30,38,23,24,98,,120,120,16,24,5,6,0.4,0.5
2024-09-25T2000,1454A,102.6742,25.0669,昆明市,金鼎山,,,41,43,15,23,99,,122,122,,26,6,16,,0.5
2024-09-25T2000,1455A,102.6644,25.0401,昆明市,碧鸡广场,,36,33,39,25,26,91,,115,114,28,23,6,7,0.7,0.7
2024-09-25T2000,3179A,102.7494,25.0119,昆明市,官渡区博物馆,,33,33,40,16,21,104,,129,128,13,31,6,7,0.5,0.6
2024-09-25T2000,3375A,102.8017,24.8336,昆明市,青年创业园,,34,34,28,23,22,97,,118,116,13,23,4,4,0.5,0.5
2024-09-25T2000,3550A,102.7997,24.9786,昆明市,昆明学院,,35,35,45,23,30,80,,126,122,31,26,5,7,0.5,0.5
2024-09-25T2000,3551A,102.5967,24.6736,昆明市,晋宁区生态环境分局,颗粒物(PM10),58,66,41,29,31,98,,124,122,18,15,2,2,0.7,0.6
2024-09-25T2000,3552A,102.6678,24.9856,昆明市,云天化总部,,34,33,35,20,24,107,,124,123,13,23,5,6,0.5,0.5
2024-09-25T2000,1456A,91.1319,29.6514,拉萨市,八廓街,,31,,13,9,9,98,,107,107,9,18,7,6,0.2,0.2
2024-09-25T2000,1457A,91.1221,29.6747,拉萨市,市环保局,,33,14,15,8,10,103,,107,107,8,18,7,8,0.5,0.5
2024-09-25T2000,1458A,91.0874,29.6475,拉萨市,区监测站,,30,7,13,7,8,93,,98,98,9,21,5,5,0.2,0.3
2024-09-25T2000,1459A,91.1774,29.6541,拉萨市,西藏大学,,31,8,13,3,8,99,,104,104,5,14,6,6,0.5,0.5
2024-09-25T2000,1460A,90.9798,29.6588,拉萨市,区辐射站,,32,13,15,12,8,102,,96,96,3,22,8,9,0.1,0.2
2024-09-25T2000,1461A,91.0834,29.6292,拉萨市,拉萨火车站,,29,7,9,7,7,92,,98,98,8,12,5,5,0.2,0.3
2024-09-25T2000,2520A,109.2203,23.7256,来宾市,来宾技工学校,,20,,44,14,29,60,,93,87,10,15,5,9,0.7,0.8
2024-09-25T2000,3535A,109.1781,23.7297,来宾市,兴宾区政府,,28,20,47,19,31,57,,99,94,13,10,54,11,0.7,0.7
2024-09-25T2000,4002A,109.2416,23.7461,来宾市,中南小学,,,,44,,24,65,,96,90,12,19,8,10,0.9,0.7
2024-09-25T2000,1476A,103.631,36.1031,兰州市,兰炼宾馆,,48,37,66,33,37,92,,125,122,10,18,7,7,0.3,0.4
2024-09-25T2000,1478A,103.8412,36.0726,兰州市,生物制品所,,43,31,51,30,29,80,,102,102,19,21,10,10,0.3,0.4
2024-09-25T2000,1479A,103.831,36.0464,兰州市,铁路设计院,,40,35,52,28,32,69,,92,92,37,29,8,8,0.4,0.5
2024-09-25T2000,3186A,103.7158,36.1058,兰州市,教育港,,43,41,59,30,36,89,,115,114,14,16,6,8,0.3,0.4
2024-09-25T2000,3241A,103.7439,36.0842,兰州市,百合公园,,,40,54,18,24,82,,111,109,,22,,10,,0.5
2024-09-25T2000,3242A,103.9611,35.998,兰州市,和平,,,58,51,29,26,93,,101,101,11,14,,11,0.2,0.3
2024-09-25T2000,3245A,103.6633,36.533,兰州新区,新区管委会,,32,29,102,15,37,101,,108,108,9,10,4,9,0.3,0.4
2024-09-25T2000,3246A,103.6975,36.4789,兰州新区,舟曲中学,,30,13,117,6,40,95,,109,108,17,11,5,12,0.3,0.4
2024-09-25T2000,1067A,116.6708,39.5111,廊坊市,药材公司,,40,40,64,15,37,24,,85,71,50,27,2,3,0.6,0.6
2024-09-25T2000,1068A,116.7214,39.5589,廊坊市,开发区,,25,25,58,11,33,22,,87,72,44,30,1,2,0.3,0.3
2024-09-25T2000,1070A,116.7244,39.5269,廊坊市,北华航天学院,颗粒物(PM10),60,69,64,15,36,1,,87,65,64,31,2,2,0.8,0.5
2024-09-25T2000,2919A,116.7022,39.5453,廊坊市,河北工业大学,,30,30,57,12,36,34,,87,76,43,28,2,2,0.3,0.4
2024-09-25T2000,2535A,103.7723,29.5462,乐山市,花湖湾,细颗粒物(PM2.5),72,69,60,52,38,123,,151,146,16,21,2,3,0.9,0.8
2024-09-25T2000,2536A,103.7627,29.5844,乐山市,牛耳桥,细颗粒物(PM2.5),59,64,57,42,43,117,,152,152,27,27,4,7,0.8,0.7
2024-09-25T2000,2537A,103.7508,29.6006,乐山市,市第三水厂,细颗粒物(PM2.5),58,57,60,41,44,134,,163,163,22,27,4,8,0.7,0.7
2024-09-25T2000,2538A,103.7571,29.5664,乐山市,市监测站,细颗粒物(PM2.5),72,60,61,52,46,128,,154,154,18,20,4,7,1.0,0.7
2024-09-25T2000,3361A,103.7311,29.5628,乐山市,理工大学,细颗粒物(PM2.5),59,55,60,42,47,129,,165,165,16,23,2,3,0.9,0.9
2024-09-25T2000,2599A,100.2497,26.8802,丽江市,丽江古城,,33,31,27,23,22,59,,70,66,13,11,10,10,0.8,0.8
2024-09-25T2000,2600A,100.2203,26.8906,丽江市,市中心,,26,23,20,18,17,57,,68,64,15,12,8,7,0.7,0.7
2024-09-25T2000,1267A,119.914,28.4514,丽水市,监测站大楼,,48,42,16,33,12,94,,92,92,18,13,4,4,0.7,0.6
2024-09-25T2000,1268A,119.93,28.4586,丽水市,莲都小学,,47,47,22,25,12,101,,100,100,18,14,5,4,0.7,0.6
2024-09-25T2000,1269A,119.879,28.4231,丽水市,余庄前,,40,40,16,20,9,30,,90,79,11,10,3,3,0.6,0.5
2024-09-25T2000,1173A,119.176,34.5885,连云港市,市环境监测站,,36,34,28,9,11,115,,148,146,18,24,5,7,0.4,0.5
2024-09-25T2000,3000A,119.3581,34.6972,连云港市,德源药业,,32,19,28,9,12,100,,150,144,16,28,5,6,0.3,0.4
2024-09-25T2000,3007A,119.178,34.844,连云港市,新城一中,,31,31,40,6,14,87,,159,150,44,29,4,8,0.5,0.8
2024-09-25T2000,3008A,119.3608,34.7519,连云港市,胡沟管理处,,36,36,26,17,12,84,,145,136,48,23,9,9,0.5,0.5
2024-09-25T2000,3009A,119.1478,34.5911,连云港市,矿山设计院,,37,31,30,12,14,116,,148,146,15,21,5,6,0.7,0.7
2024-09-25T2000,3434A,119.2413,34.6539,连云港市,工贸学校,,38,17,20,9,10,121,,153,151,12,17,7,8,0.8,0.8
2024-09-25T2000,3664A,119.4172,34.7341,连云港市,连云街道,,36,18,20,10,10,115,,153,146,10,19,4,6,0.4,0.4
2024-09-25T2000,2571A,102.3431,27.8099,凉山彝族自治州,青龙寺,,10,10,10,6,4,31,,73,70,5,4,4,4,0.5,0.4
2024-09-25T2000,2572A,102.2721,27.8415,凉山彝族自治州,邛海宾馆,,22,22,11,11,7,44,,72,70,13,9,5,7,0.7,0.5
2024-09-25T2000,2573A,102.2625,27.898,凉山彝族自治州,西昌市政府,,22,10,13,8,8,68,,72,72,12,10,7,7,0.5,0.4
2024-09-25T2000,2574A,102.2685,27.8851,凉山彝族自治州,凉山州政府,,29,29,12,15,8,72,,79,79,14,9,6,6,0.5,0.7
2024-09-25T2000,2575A,102.237,27.8914,凉山彝族自治州,长安,,16,,14,3,7,49,,71,71,20,13,8,8,0.8,0.5
2024-09-25T2000,2212A,123.2,41.1953,辽阳市,宏伟区,,30,,22,21,15,9,,94,23,27,15,9,9,0.6,0.5
2024-09-25T2000,2213A,123.1683,41.2495,辽阳市,新华园,,48,48,26,31,18,11,,77,31,40,19,16,10,0.7,0.6
2024-09-25T2000,2214A,123.2354,41.2639,辽阳市,滨河路,,43,31,22,30,13,10,,83,28,34,18,11,11,0.6,0.5
2024-09-25T2000,2215A,123.149,41.2991,辽阳市,铁西工业园,,47,47,28,23,12,3,,76,26,28,16,13,10,0.8,0.7
2024-09-25T2000,2227A,125.1358,42.8845,辽源市,环保局,,33,33,24,15,12,13,,72,54,38,19,7,8,0.8,0.6
2024-09-25T2000,3239A,125.0764,42.9078,辽源市,银鹰制药,,28,28,23,12,12,8,,69,54,47,28,23,8,0.7,0.7
2024-09-25T2000,1625A,115.9848,36.4372,聊城市,区政府,颗粒物(PM10),74,97,74,40,28,158,,203,200,35,27,11,19,0.5,0.5
2024-09-25T2000,3200A,115.9819,36.4978,聊城市,监控中心,颗粒物(PM10),81,111,70,51,31,107,,200,187,85,31,9,15,0.4,0.3
2024-09-25T2000,3513A,116.0445,36.4361,聊城市,九州社区,颗粒物(PM10),69,87,75,40,34,125,,205,198,52,28,3,10,0.6,0.6
2024-09-25T2000,4018A,116.0567,36.4608,聊城市,星美广场,颗粒物(PM10),81,112,75,53,32,126,,198,192,49,23,8,9,0.5,0.4
2024-09-25T2000,2632A,94.3681,29.6376,林芝市,林芝监测站,,23,,6,7,5,72,,72,72,3,6,9,9,0.2,0.2
2024-09-25T2000,2633A,94.3616,29.6616,林芝市,林芝人民医院,,,10,8,6,5,73,,73,73,8,6,8,8,,0.2
2024-09-25T2000,2603A,100.0781,23.8982,临沧市,市环保局,细颗粒物(PM2.5),58,,21,41,16,58,,74,73,11,10,4,5,0.5,0.5
2024-09-25T2000,2604A,100.0894,23.8822,临沧市,市气象局,,40,34,24,28,22,59,,73,73,12,10,4,6,0.5,0.5
2024-09-25T2000,1733A,111.5531,36.0783,临汾市,临钢医院,颗粒物(PM10),64,78,89,16,32,86,,112,110,29,34,4,6,0.6,0.9
2024-09-25T2000,1734A,111.5028,36.0714,临汾市,技工学校,颗粒物(PM10),58,66,98,24,46,100,,121,121,39,42,5,7,0.6,0.9
2024-09-25T2000,1736A,111.5018,36.0855,临汾市,市委,颗粒物(PM10),58,65,93,14,39,103,,124,124,29,35,6,8,0.7,0.9
2024-09-25T2000,3018A,111.505,36.1014,临汾市,唐尧大酒店,颗粒物(PM10),59,67,80,25,38,87,,111,111,35,38,4,6,0.6,1
2024-09-25T2000,3668A,111.5036,36.0414,临汾市,城南,颗粒物(PM10),54,57,111,17,55,111,,122,118,21,45,5,6,0.6,1
2024-09-25T2000,2667A,103.2069,35.5993,临夏回族自治州,环保局,,41,41,38,23,16,98,,99,99,10,7,9,9,0.4,0.3
2024-09-25T2000,2668A,103.2417,35.6057,临夏回族自治州,建设大厦,颗粒物(PM10),58,66,62,18,17,92,,99,99,18,9,10,10,0.4,0.3
2024-09-25T2000,1618A,118.3429,35.0532,临沂市,沂河小区,臭氧1小时,78,97,66,41,31,182,,197,197,36,30,8,10,0.6,0.5
2024-09-25T2000,1619A,118.295,35.0583,临沂市,鲁南制药厂,臭氧1小时,99,102,79,29,38,199,,220,220,36,40,8,10,0.7,0.6
2024-09-25T2000,1620A,118.2794,34.9976,临沂市,新光毛纺厂,颗粒物(PM10),65,80,78,39,46,152,,206,203,30,46,8,11,0.8,0.8
2024-09-25T2000,1621A,118.3956,35.0888,临沂市,河东保险公司,颗粒物(PM10),89,127,55,41,28,123,,204,200,94,48,8,8,0.9,0.7
2024-09-25T2000,3370A,118.3564,35.0215,临沂市,十里堡居委,颗粒物(PM10),68,85,54,48,32,156,,191,191,36,30,9,12,0.8,0.7
2024-09-25T2000,3496A,118.3604,35.1084,临沂市,南坊新区,"颗粒物(PM10),臭氧1小时",70,90,61,44,28,176,,213,213,43,32,9,10,0.8,0.7
2024-09-25T2000,3860A,118.3920,35.0300,临沂市,皇山花园小区,细颗粒物(PM2.5),87,119,58,64,36,124,,176,174,55,34,9,9,0.7,0.5
2024-09-25T2000,1870A,109.4856,24.3895,柳州市,柳东小学,,42,36,42,29,29,84,,122,118,9,10,9,9,0.7,0.7
2024-09-25T2000,1871A,109.4157,24.3277,柳州市,环保监测站,颗粒物(PM10),52,53,46,34,32,85,,125,120,8,10,8,11,0.7,0.7
2024-09-25T2000,1872A,109.389,24.341,柳州市,河西水厂,,48,48,49,27,30,92,,126,122,7,10,8,12,1.0,1
2024-09-25T2000,1873A,109.4311,24.2921,柳州市,市四中,,,,44,,23,87,,133,127,8,10,6,9,,1
2024-09-25T2000,1874A,109.4006,24.3631,柳州市,市九中,,47,47,52,31,30,96,,131,126,9,12,5,9,0.9,0.9
2024-09-25T2000,1875A,109.4958,24.3134,柳州市,古亭山,,35,24,41,24,26,78,,130,122,16,14,7,10,0.9,0.9
2024-09-25T2000,3402A,109.5422,24.3996,柳州市,市二中,,,,42,,29,83,,122,116,13,16,,10,,0.6
2024-09-25T2000,2307A,116.5079,31.737,六安市,监测大楼,颗粒物(PM10),53,55,35,35,23,117,,163,161,23,19,5,6,0.5,0.4
2024-09-25T2000,2308A,116.4738,31.7643,六安市,皖西学院,颗粒物(PM10),53,55,50,26,25,120,,168,166,25,21,6,6,0.3,0.3
2024-09-25T2000,2309A,116.4996,31.7905,六安市,朝阳厂,,47,47,45,23,25,124,,165,162,18,21,1,2,0.4,0.4
2024-09-25T2000,2310A,116.5567,31.7886,六安市,开发区,颗粒物(PM10),58,66,53,31,25,106,,163,154,22,20,2,3,0.5,0.5
2024-09-25T2000,2577A,104.83,26.5917,六盘水市,黄土坡,,45,40,45,31,35,102,,130,124,13,14,6,9,0.6,0.6
2024-09-25T2000,2578A,104.89,26.5939,六盘水市,水钢,细颗粒物(PM2.5),62,,48,44,37,77,,133,119,29,16,7,11,1.2,0.6
2024-09-25T2000,2579A,104.8475,26.5894,六盘水市,民中,,42,32,42,29,32,105,,130,124,12,14,7,10,0.5,0.5
2024-09-25T2000,2580A,104.9544,26.5506,六盘水市,双水,颗粒物(PM10),51,51,45,33,30,77,,124,116,27,10,8,9,0.6,0.4
2024-09-25T2000,2336A,117.0217,25.1033,龙岩市,龙岩市监测站,,18,18,14,3,6,33,,51,47,13,13,5,5,0.6,0.5
2024-09-25T2000,2337A,117.0258,25.0661,龙岩市,闽西职业技术学院,,33,33,22,8,11,5,,48,40,24,16,3,11,0.6,0.5
2024-09-25T2000,2338A,117.0196,25.0306,龙岩市,龙岩学院,,10,8,15,3,6,29,,48,45,4,7,1,4,0.4,0.4
2024-09-25T2000,2885A,104.9339,33.3826,陇南市,滨江中学,,47,47,43,23,18,60,,92,90,22,13,7,10,0.7,0.7
2024-09-25T2000,3247A,104.955,33.371,陇南市,市总工会,,33,33,36,10,12,75,,94,94,6,10,8,10,0.5,0.5
2024-09-25T2000,2487A,111.9589,27.8901,娄底市,电视发射台,,44,44,51,28,30,108,,147,136,9,7,4,5,0.6,0.5
2024-09-25T2000,2488A,111.9975,27.725,娄底市,市监测站,细颗粒物(PM2.5),68,52,78,49,48,158,,166,163,10,24,9,16,0.6,0.9
2024-09-25T2000,2489A,112.0194,27.7314,娄底市,市委党校,细颗粒物(PM2.5),65,71,65,47,42,152,,156,153,11,16,9,9,0.6,0.8
2024-09-25T2000,2490A,111.9561,27.7569,娄底市,涟钢,细颗粒物(PM2.5),72,92,71,52,45,124,,142,140,20,19,11,10,0.9,0.9
2024-09-25T2000,2491A,111.9892,27.7044,娄底市,市政府,细颗粒物(PM2.5),74,62,64,54,45,129,,167,162,20,17,9,9,0.7,0.7
2024-09-25T2000,1893A,105.4324,28.9634,泸州市,九狮山,细颗粒物(PM2.5),70,81,102,51,66,74,,113,109,21,23,5,5,0,0.5
2024-09-25T2000,1894A,105.4427,28.9063,泸州市,小市上码头,细颗粒物(PM2.5),73,69,84,53,64,66,,117,113,35,27,5,6,1.0,0.8
2024-09-25T2000,1895A,105.4241,28.8573,泸州市,兰田宪桥,细颗粒物(PM2.5),87,70,76,64,65,82,,121,119,21,23,4,5,0.8,0.7
2024-09-25T2000,1896A,105.4379,28.8833,泸州市,市环监站,细颗粒物(PM2.5),90,90,90,67,73,94,,120,118,27,24,6,7,0.8,0.8
2024-09-25T2000,3490A,105.3617,28.7703,泸州市,纳溪区环保局,细颗粒物(PM2.5),85,85,83,63,64,54,,119,110,44,36,5,7,1.0,0.8
2024-09-25T2000,2183A,111.1406,37.5211,吕梁市,环保局,颗粒物(PM10),76,102,73,32,30,12,,65,65,62,41,5,6,0.9,0.9
2024-09-25T2000,2185A,111.1297,37.5136,吕梁市,自来水公司,颗粒物(PM10),63,76,88,31,34,50,,70,70,30,39,4,7,0.8,0.9
2024-09-25T2000,2867A,111.1283,37.51,吕梁市,马茂庄小学,颗粒物(PM10),76,102,83,33,29,16,,67,67,62,46,8,5,0.8,1
2024-09-25T2000,1812A,112.3931,34.6516,洛阳市,市委党校,臭氧1小时,101,129,94,68,54,201,,212,212,26,25,11,12,0.8,0.7
2024-09-25T2000,1814A,112.4657,34.6871,洛阳市,豫西宾馆,颗粒物(PM10),99,148,111,62,52,186,,207,207,25,41,13,18,0.7,0.8
2024-09-25T2000,1815A,112.494,34.6886,洛阳市,河南林校,细颗粒物(PM2.5),95,134,91,71,53,179,,210,210,33,38,10,11,0.9,0.9
2024-09-25T2000,1816A,112.3844,34.623,洛阳市,开发区管委会,臭氧1小时,103,119,84,70,52,205,,220,220,23,21,5,6,0.6,0.6
2024-09-25T2000,1817A,112.4267,34.6258,洛阳市,市委新办公区,细颗粒物(PM2.5),103,120,84,77,56,184,,207,207,27,17,6,6,0.9,0.7
2024-09-25T2000,3340A,112.6005,34.6326,洛阳市,伊滨,细颗粒物(PM2.5),90,118,85,67,65,189,,,,24,28,12,12,0.9,1.2
2024-09-25T2000,3341A,112.4951,34.6332,洛阳市,中移产业园,臭氧1小时,94,130,83,69,50,195,,221,221,25,22,7,7,0.9,0.7
2024-09-25T2000,3593A,112.5736,34.8993,洛阳市,吉利监测站,颗粒物(PM10),104,157,85,76,46,187,,209,209,37,32,11,6,0.7,0.6
2024-09-25T2000,3635A,112.3677,34.662,洛阳市,河科大西苑校区,臭氧1小时,104,142,102,57,50,207,,216,216,26,38,9,12,0.8,0.8
2024-09-25T2000,3636A,112.4388,34.6781,洛阳市,英才小学,细颗粒物(PM2.5),98,141,111,73,54,189,,211,211,28,43,8,12,0.8,0.9
2024-09-25T2000,2399A,114.051,33.5699,漯河市,三五一五工厂,颗粒物(PM10),101,151,102,51,47,133,,193,185,34,28,7,9,0.6,0.6
2024-09-25T2000,2400A,114.0055,33.5698,漯河市,漯河大学,颗粒物(PM10),83,115,88,39,41,149,,201,197,32,24,6,7,0.6,0.6
2024-09-25T2000,2401A,114.0138,33.5828,漯河市,市水利局,颗粒物(PM10),97,144,91,36,38,144,,198,193,27,20,8,7,0.6,0.5
2024-09-25T2000,2402A,114.0261,33.5698,漯河市,市广电局,颗粒物(PM10),89,127,88,37,44,155,,199,194,24,24,11,12,0.6,0.6
2024-09-25T2000,3478A,113.9749,33.5664,漯河市,市图书馆,,,,87,,39,157,,206,202,,29,,7,0.6,0.6
2024-09-25T2000,3479A,114.0967,33.5906,漯河市,召陵区卫健委,颗粒物(PM10),98,145,92,42,45,113,,189,180,46,24,14,9,0.6,0.6
2024-09-25T2000,1798A,118.5092,31.6837,马鞍山市,湖东路四小,细颗粒物(PM2.5),58,49,54,41,27,155,,177,177,24,39,9,10,1.0,0.8
2024-09-25T2000,1799A,118.5024,31.6449,马鞍山市,开发区,颗粒物(PM10),62,74,60,36,30,108,,171,169,46,55,8,10,1.1,1.1
2024-09-25T2000,1800A,118.5228,31.7231,马鞍山市,慈湖,颗粒物(PM10),55,60,44,32,27,92,,172,160,52,41,8,10,1.3,1.1
2024-09-25T2000,1802A,118.6245,31.7241,马鞍山市,濮塘,,48,38,30,33,21,122,,170,161,14,14,8,8,1.1,0.8
2024-09-25T2000,3633A,118.4918,31.6809,马鞍山市,雨山,颗粒物(PM10),54,58,47,30,26,147,,164,164,20,35,10,13,1.2,1
2024-09-25T2000,1686A,111.0286,21.4688,茂名市,电白南海,,32,31,30,14,12,102,,112,112,8,11,9,12,0.7,0.7
2024-09-25T2000,1687A,110.9294,21.6533,茂名市,茂石化七小,,42,39,29,29,17,67,,92,89,17,13,19,14,1.0,1
2024-09-25T2000,1688A,110.9107,21.6687,茂名市,健康路,,,27,22,17,11,73,,94,92,,10,29,27,0.9,1
2024-09-25T2000,1689A,110.8592,21.6828,茂名市,高岭,,44,44,31,27,17,39,,90,81,20,13,5,9,0.9,0.9
2024-09-25T2000,3450A,111.01,21.5165,茂名市,电白水东,,28,22,20,17,12,87,,96,96,10,12,14,9,0.8,0.8
2024-09-25T2000,2539A,104.0308,30.0478,眉山市,黑龙滩水库,细颗粒物(PM2.5),60,57,62,43,49,138,,164,164,7,15,5,5,0.7,0.6
2024-09-25T2000,2540A,103.8416,30.0874,眉山市,气象局,细颗粒物(PM2.5),62,70,63,44,46,140,,161,161,26,33,6,7,0.7,0.6
2024-09-25T2000,3137A,103.8578,30.0744,眉山市,市委党校,细颗粒物(PM2.5),70,80,66,51,42,129,,154,154,42,30,8,9,0.9,0.6
2024-09-25T2000,3148A,103.8291,30.0564,眉山市,区人社局,细颗粒物(PM2.5),70,70,54,51,37,151,,162,162,25,31,6,8,0.6,0.6
2024-09-25T2000,1690A,116.1231,24.3284,梅州市,梅江月梅,,15,15,20,3,11,28,,70,67,10,9,6,6,0.4,0.5
2024-09-25T2000,1691A,116.0797,24.2719,梅州市,梅县新城,,40,40,21,20,15,7,,59,55,41,15,4,4,0.8,0.6
2024-09-25T2000,1692A,116.1248,24.2654,梅州市,环境监控中心,,26,26,26,15,14,21,,58,55,33,16,4,5,0.6,0.5
2024-09-25T2000,3315A,116.1233,24.2991,梅州市,梅龙,,29,29,18,13,13,26,,71,67,20,12,9,8,0.7,0.7
2024-09-25T2000,1878A,104.7778,31.4741,绵阳市,富乐山,,43,42,45,30,34,115,,135,135,21,18,3,3,0.7,0.6
2024-09-25T2000,1879A,104.7563,31.4535,绵阳市,市人大,颗粒物(PM10),54,58,57,36,34,129,,145,145,24,27,10,10,0.7,0.6
2024-09-25T2000,1880A,104.6697,31.4668,绵阳市,高新区自来水公司,颗粒物(PM10),58,66,58,39,32,114,,144,144,31,28,4,5,0.8,0.8
2024-09-25T2000,1881A,104.7287,31.5075,绵阳市,三水厂,细颗粒物(PM2.5),55,52,66,39,41,71,,136,136,69,36,7,7,0.8,0.8
2024-09-25T2000,3491A,104.69,31.5322,绵阳市,西科大附属小学,颗粒物(PM10),55,60,60,37,34,123,,143,143,41,32,4,6,0.6,0.8
2024-09-25T2000,3492A,104.5648,31.5343,绵阳市,安州区旅游局,细颗粒物(PM2.5),58,56,57,41,40,139,,149,149,24,17,7,7,0.7,0.6
2024-09-25T2000,1784A,129.61,44.561,牡丹江市,环保大楼,,29,23,33,20,18,71,,80,77,8,18,7,7,0.4,0.4
2024-09-25T2000,1785A,129.6115,44.5782,牡丹江市,文化广场,,38,,41,26,25,68,,72,70,11,22,8,9,0.5,0.5
2024-09-25T2000,1786A,129.5904,44.5963,牡丹江市,第一医院,,43,,37,30,24,64,,79,75,14,18,6,7,0.4,0.4
2024-09-25T2000,1787A,129.6364,44.6075,牡丹江市,机车工厂,,39,,42,27,20,58,,66,59,14,22,21,26,0.4,0.4
2024-09-25T2000,1788A,129.6386,44.5462,牡丹江市,第一中学,,28,28,31,17,16,75,,76,72,8,21,6,6,0.3,0.3
2024-09-25T2000,2531A,105.0703,29.61,内江市,市监测站,细颗粒物(PM2.5),74,74,50,54,48,115,,143,142,21,19,3,4,0.8,0.7
2024-09-25T2000,2532A,105.0717,29.5947,内江市,东兴区政府,细颗粒物(PM2.5),70,75,52,51,41,120,,148,147,20,21,4,5,1.1,0.9
2024-09-25T2000,2533A,105.0653,29.5817,内江市,内江二中,细颗粒物(PM2.5),102,,56,76,54,116,,142,141,16,20,8,9,0.8,0.7
2024-09-25T2000,2534A,105.0406,29.5822,内江市,内江日报社,细颗粒物(PM2.5),85,83,58,63,50,117,,144,143,22,24,6,8,0.8,0.7
2024-09-25T2000,2628A,92.0657,31.4846,那曲市,那曲监测站,,42,42,39,11,12,55,,77,75,17,8,6,7,0.5,0.6
2024-09-25T2000,3128A,92.0506,31.4797,那曲市,那曲会议中心,,27,16,32,7,11,85,,90,90,7,8,3,4,0.3,0.3
2024-09-25T2000,1290A,115.8931,28.6843,南昌市,省外办,,50,50,51,29,31,119,,145,142,14,26,8,12,0.6,0.6
2024-09-25T2000,1291A,115.8886,28.7003,南昌市,省林业公司,,46,46,52,29,26,126,,157,153,13,22,6,11,0.6,0.7
2024-09-25T2000,1292A,115.8126,28.7442,南昌市,林科所,,39,39,46,17,23,92,,170,159,40,36,4,6,0.5,0.6
2024-09-25T2000,1294A,115.8518,28.687,南昌市,建工学校,,47,47,54,30,25,119,,160,156,19,26,7,11,0.6,0.6
2024-09-25T2000,1295A,115.8921,28.6424,南昌市,象湖,,43,43,48,27,29,121,,168,163,16,22,8,13,0.8,0.9
2024-09-25T2000,1296A,115.7423,28.7996,南昌市,武术学校,,25,25,18,11,19,79,,143,129,14,16,2,2,0.4,0.4
2024-09-25T2000,1298A,115.9314,28.6842,南昌市,省站,,49,40,43,34,29,116,,145,142,24,28,9,11,0.7,0.6
2024-09-25T2000,3046A,115.9084,28.6062,南昌市,机电学校,颗粒物(PM10),55,59,56,27,27,103,,147,142,23,23,8,10,0.7,0.7
2024-09-25T2000,3690A,115.9721,28.7031,南昌市,外国语学校,,40,40,48,25,25,115,,143,140,12,17,7,8,0.5,0.6
2024-09-25T2000,1905A,106.056,30.8064,南充市,西山风景区,,47,38,46,31,40,148,,155,155,7,8,2,5,0.5,0.6
2024-09-25T2000,1906A,106.0789,30.8023,南充市,南充市委,细颗粒物(PM2.5),59,66,60,42,45,111,,148,147,36,19,4,6,0.7,0.5
2024-09-25T2000,1907A,106.1031,30.8217,南充市,南充炼油厂,细颗粒物(PM2.5),72,84,66,52,47,120,,160,159,39,15,4,5,0.5,0.3
2024-09-25T2000,1908A,106.1064,30.7856,南充市,高坪区监测站,颗粒物(PM10),58,65,63,39,44,113,,153,151,42,20,6,8,0.7,0.5
2024-09-25T2000,1909A,106.0642,30.7636,南充市,嘉陵区环保局,颗粒物(PM10),57,64,60,34,39,107,,142,141,34,19,2,4,0.6,0.5
2024-09-25T2000,1910A,106.1087,30.8388,南充市,市环境监测站,细颗粒物(PM2.5),65,60,62,47,44,128,,150,150,39,17,5,7,0.5,0.4
2024-09-25T2000,1151A,118.8086,32.1065,南京市,迈皋桥,,26,26,29,17,16,76,,168,148,17,38,4,6,0.4,0.5
2024-09-25T2000,1152A,118.7538,32.0551,南京市,草场门,,37,36,37,14,20,118,,157,152,27,41,6,7,0.3,0.4
2024-09-25T2000,1153A,118.7794,32.0745,南京市,山西路,,39,36,42,19,21,124,,163,158,19,29,3,4,0.4,0.6
2024-09-25T2000,1154A,118.7752,32.0023,南京市,中华门,,45,44,39,12,17,142,,165,165,21,36,5,6,0.5,0.5
2024-09-25T2000,1155A,118.8109,32.0309,南京市,瑞金路,,43,36,39,22,18,137,,171,168,14,31,7,10,0.3,0.5
2024-09-25T2000,1156A,118.7997,32.0754,南京市,玄武湖,,35,28,38,12,17,109,,152,144,26,48,6,7,0.3,0.6
2024-09-25T2000,1157A,118.6414,32.0931,南京市,浦口,,45,45,26,19,15,101,,133,127,8,11,5,5,0.6,0.6
2024-09-25T2000,1158A,118.7356,31.9996,南京市,奥体中心,臭氧1小时,54,53,41,29,24,163,,177,177,27,35,6,7,0.6,0.5
2024-09-25T2000,1159A,118.9125,32.1028,南京市,仙林大学城,,39,31,38,17,16,124,,178,166,21,39,6,7,0.5,0.6
2024-09-25T2000,3422A,118.8436,31.9198,南京市,江宁彩虹桥,颗粒物(PM10),51,52,43,29,21,138,,199,187,30,38,4,5,0.7,0.6
2024-09-25T2000,3423A,119.0138,31.6494,南京市,溧水永阳,,34,34,34,21,19,107,,153,149,25,26,4,4,0.9,0.7
2024-09-25T2000,3424A,118.879,31.3302,南京市,高淳老职中,,46,,34,27,23,145,,172,170,14,16,8,6,0.7,0.5
2024-09-25T2000,3427A,118.8554,32.3578,南京市,六合雄州,颗粒物(PM10),61,72,38,34,18,67,,123,112,24,25,7,7,0.4,0.4
2024-09-25T2000,1401A,108.3103,22.7881,南宁市,二十一中,颗粒物(PM10),55,60,55,36,35,94,,137,137,13,20,5,7,0.9,0.9
2024-09-25T2000,1402A,108.3141,22.8528,南宁市,北湖,细颗粒物(PM2.5),72,71,58,52,36,101,,140,140,18,22,4,12,0.9,0.8
2024-09-25T2000,1403A,108.3206,22.8225,南宁市,市监测站,细颗粒物(PM2.5),57,47,58,40,35,93,,139,139,18,22,6,11,0.9,0.9
2024-09-25T2000,1404A,108.3829,22.8037,南宁市,大自然花园,细颗粒物(PM2.5),54,48,47,38,32,91,,122,122,14,19,5,6,0.7,0.5
2024-09-25T2000,1405A,108.4394,22.7904,南宁市,仙葫,细颗粒物(PM2.5),62,48,44,44,40,96,,121,121,13,16,7,9,1.0,0.9
2024-09-25T2000,1406A,108.2397,22.8467,南宁市,区农职院,细颗粒物(PM2.5),73,68,64,53,37,106,,127,127,22,17,5,15,1.0,1
2024-09-25T2000,1407A,108.3275,22.735,南宁市,英华嘉园,颗粒物(PM10),54,57,58,34,39,85,,120,120,17,28,5,6,0.9,0.9
2024-09-25T2000,1408A,108.2257,22.7757,南宁市,沙井镇街道办,细颗粒物(PM2.5),75,86,56,55,32,91,,132,128,30,25,2,4,0.8,0.7
2024-09-25T2000,3401A,108.4834,22.7618,南宁市,红星社区,细颗粒物(PM2.5),60,57,43,43,33,71,,116,113,25,15,8,9,0.8,0.7
2024-09-25T2000,2332A,118.1681,26.6369,南平市,南平市监测站,,14,14,12,9,8,33,,50,47,11,10,4,5,0.6,0.5
2024-09-25T2000,2333A,118.1825,26.6489,南平市,南平铝业有限公司,,13,8,11,6,6,39,,49,48,9,9,4,4,0.6,0.6
2024-09-25T2000,2334A,118.1756,26.6272,南平市,南平七中,,31,31,17,9,8,25,,47,43,13,11,5,3,0.9,0.7
2024-09-25T2000,1168A,120.9098,31.9663,南通市,狼山街道,,19,12,19,12,18,59,,99,94,16,16,6,6,0.5,0.6
2024-09-25T2000,1169A,120.86,32.0005,南通市,虹桥,,27,27,27,14,19,50,,107,98,20,15,6,6,0.7,0.7
2024-09-25T2000,1170A,120.87,32.02,南通市,城中,,27,27,30,16,19,42,,99,90,28,17,5,6,0.8,0.8
2024-09-25T2000,1171A,120.94,31.93,南通市,星湖花园,,21,13,15,8,14,65,,106,97,19,21,5,5,0.4,0.7
2024-09-25T2000,1172A,120.81,32.0417,南通市,紫琅学院,,19,19,23,9,20,52,,120,110,21,16,7,8,0.5,0.5
2024-09-25T2000,3291A,121.067,32.062,南通市,通州监测站,,24,7,16,7,8,75,,91,86,10,10,2,3,0.6,0.7
2024-09-25T2000,3432A,120.9348,31.9883,南通市,环境教育馆,,22,22,27,11,15,55,,100,92,22,20,3,4,0.5,0.6
2024-09-25T2000,2404A,112.5224,33.0122,南阳市,瓦房庄,颗粒物(PM10),75,100,88,51,52,127,,199,193,53,31,6,8,0.8,0.8
2024-09-25T2000,2405A,112.5003,32.9735,南阳市,汉画馆,"颗粒物(PM10),细颗粒物(PM2.5)",62,74,93,44,58,123,,184,178,26,42,6,7,0.6,0.6
2024-09-25T2000,2406A,112.5573,33.027,南阳市,气象站,颗粒物(PM10),67,83,85,31,38,153,,208,204,38,28,8,11,0.7,0.7
2024-09-25T2000,2407A,112.5481,32.9689,南阳市,理工学院,颗粒物(PM10),69,87,85,41,46,144,,200,195,32,28,8,9,0.6,0.6
2024-09-25T2000,4008A,112.5234,32.9922,南阳市,卧龙区政府,颗粒物(PM10),71,91,96,37,48,126,,197,190,50,36,6,7,0.9,0.7
2024-09-25T2000,1234A,121.8358,29.911,宁波市,区环保大楼,颗粒物(PM10),57,64,59,34,32,74,,76,75,42,48,5,5,0.9,1
2024-09-25T2000,1235A,121.56,29.82,宁波市,万里学院,,,60,42,,39,124,,114,114,26,26,5,5,1.0,0.8
2024-09-25T2000,1236A,121.713,29.9572,宁波市,龙赛医院,,46,44,36,32,25,77,,75,75,40,33,7,8,0.9,0.9
2024-09-25T2000,1239A,121.633,29.7733,宁波市,钱湖水厂,"颗粒物(PM10),细颗粒物(PM2.5)",55,59,42,39,32,81,,90,90,32,25,8,8,0.9,0.8
2024-09-25T2000,1240A,121.5856,29.8635,宁波市,太古小学,颗粒物(PM10),65,79,48,46,28,114,,106,106,26,23,7,7,1.2,1
2024-09-25T2000,1241A,121.524,29.8674,宁波市,市环境监测中心,细颗粒物(PM2.5),64,65,42,46,27,119,,119,119,40,31,13,12,1.0,0.8
2024-09-25T2000,2871A,121.6147,29.9017,宁波市,万里国际学校,细颗粒物(PM2.5),57,50,36,40,30,92,,90,90,38,31,7,7,0.9,0.7
2024-09-25T2000,3710A,121.5594,29.8975,宁波市,白沙活动中心,颗粒物(PM10),71,91,56,44,27,114,,105,105,27,23,8,8,0.8,0.6
2024-09-25T2000,2341A,119.5388,26.6612,宁德市,宁德市监测站,,11,,15,6,11,34,,68,63,16,15,6,6,0.6,0.9
2024-09-25T2000,3209A,119.5231,26.6562,宁德市,宁德一中,,,,19,9,16,41,,72,67,8,9,4,5,,0.8
2024-09-25T2000,2618A,98.8601,25.8567,怒江傈僳族自治州,州监测站,,30,30,24,21,16,53,,70,58,12,8,4,5,0.6,0.3
2024-09-25T2000,2619A,98.8546,25.8417,怒江傈僳族自治州,泸水一中,,33,33,21,18,15,57,,53,53,17,12,6,6,0.5,0.4
2024-09-25T2000,1888A,101.6891,26.571,攀枝花市,弄弄坪,,46,46,50,21,26,75,,102,102,22,27,11,14,0.5,0.8
2024-09-25T2000,1889A,101.5769,26.5928,攀枝花市,河门口,,45,44,52,31,32,85,,106,106,14,24,8,14,0.7,1.1
2024-09-25T2000,1890A,101.7169,26.585,攀枝花市,炳草岗,,42,42,57,23,34,71,,97,97,27,34,6,22,0.5,0.8
2024-09-25T2000,1891A,101.7369,26.5008,攀枝花市,仁和,细颗粒物(PM2.5),55,52,42,39,30,77,,112,112,12,17,8,10,0.7,0.6
2024-09-25T2000,2835A,101.7227,26.567,攀枝花市,四十中小,,38,38,47,22,28,91,,105,105,9,30,8,25,0.5,0.7
2024-09-25T2000,1604A,122.0303,41.1489,盘锦市,开发区,,39,36,21,27,16,58,,90,80,24,14,11,10,0.4,0.2
2024-09-25T2000,1605A,122.0485,41.0883,盘锦市,兴隆台,,30,28,19,21,15,34,,89,75,50,22,4,4,0.4,0.3
2024-09-25T2000,1606A,121.8297,41.1028,盘锦市,新生街道,,28,,18,19,12,39,,100,76,32,15,8,8,0.4,0.4
2024-09-25T2000,1832A,113.3257,33.742,平顶山市,新华旅馆,颗粒物(PM10),78,105,120,42,45,156,,200,198,31,41,9,8,0.8,0.7
2024-09-25T2000,1833A,113.2919,33.737,平顶山市,规划设计院,颗粒物(PM10),67,84,110,39,47,142,,206,201,41,36,8,9,0.8,0.6
2024-09-25T2000,1834A,113.182,33.774,平顶山市,平顶山工学院,颗粒物(PM10),67,84,106,29,46,160,,207,206,31,32,9,12,0.6,0.6
2024-09-25T2000,3204A,113.3025,33.73,平顶山市,规划局,颗粒物(PM10),92,134,127,49,52,156,,202,201,32,37,6,7,0.7,0.7
2024-09-25T2000,3594A,112.8867,33.9116,平顶山市,石龙区,颗粒物(PM10),86,122,140,42,38,168,,193,193,29,60,18,15,1.0,0.6
2024-09-25T2000,2656A,106.6692,35.5461,平凉市,聚贤嘉苑,,32,31,34,17,17,100,,117,117,23,18,6,6,0.3,0.3
2024-09-25T2000,2657A,106.7021,35.5307,平凉市,博物馆,,49,49,39,18,16,71,,119,115,42,13,7,7,0.9,0.2
2024-09-25T2000,2347A,114.0997,27.5002,萍乡市,武功山,,39,39,32,10,7,75,,98,93,6,6,9,9,0.5,0.4
2024-09-25T2000,2348A,113.8385,27.6434,萍乡市,中医院,,40,40,52,19,33,90,,133,127,20,13,8,18,1.0,0.8
2024-09-25T2000,2349A,113.8493,27.6253,萍乡市,市政府车库,细颗粒物(PM2.5),69,,49,50,36,99,,132,128,15,20,16,24,0.8,1
2024-09-25T2000,2350A,113.8676,27.6435,萍乡市,市环保局,,47,47,56,28,38,85,,118,113,16,13,9,23,0.8,0.7
2024-09-25T2000,2351A,113.866,27.6198,萍乡市,安源区政府,颗粒物(PM10),58,66,52,27,32,105,,134,130,22,28,10,20,0.6,0.7
2024-09-25T2000,2319A,119.0141,25.4325,莆田市,荔城区仓后路,,27,27,25,12,15,65,,75,72,22,16,8,8,0.9,0.8
2024-09-25T2000,2320A,119.0015,25.4553,莆田市,莆田市监测站,,22,22,21,7,6,42,,79,72,12,9,6,6,0.6,0.6
2024-09-25T2000,2321A,119.1119,25.4561,莆田市,涵江区六中,,22,22,23,11,15,48,,86,75,23,21,8,8,0.9,0.8
2024-09-25T2000,2322A,119.1013,25.3215,莆田市,秀屿区政府,,39,39,22,12,15,73,,90,83,10,10,7,8,0.8,0.8
2024-09-25T2000,2392A,115.0312,35.7636,濮阳市,环保局,细颗粒物(PM2.5),110,125,75,83,47,184,,214,214,32,26,13,12,0.7,0.4
2024-09-25T2000,2394A,115.0574,35.7609,濮阳市,油田运输公司,颗粒物(PM10),101,151,86,69,50,179,,218,218,33,27,8,9,0.8,0.6
2024-09-25T2000,2395A,115.0866,35.7754,濮阳市,油田物探公司,细颗粒物(PM2.5),118,173,101,89,56,169,,221,220,38,29,8,9,0.7,0.5
2024-09-25T2000,3021A,115,35.7668,濮阳市,濮水河管理处,细颗粒物(PM2.5),100,118,75,75,46,142,,195,192,28,24,7,8,0.6,0.4
2024-09-25T2000,2601A,100.98,22.7633,普洱市,市环保局,,,,32,,19,51,,65,64,,6,4,10,0.5,0.4
2024-09-25T2000,2602A,100.9817,22.8322,普洱市,普洱第二中学,,36,36,32,14,15,52,,71,69,15,12,9,9,0.7,0.6
2024-09-25T2000,2262A,131.0518,45.8751,七台河市,新一中,,24,21,18,12,10,75,,81,78,6,9,9,9,1.2,1.1
2024-09-25T2000,3345A,131.0577,45.7879,七台河市,中波台,,18,18,25,3,5,49,,57,55,17,18,6,6,0.3,0.3
2024-09-25T2000,3637A,131.0176,45.7761,七台河市,人民广场,,25,17,28,17,12,56,,64,61,16,14,9,8,0.4,0.3
2024-09-25T2000,3684A,130.8781,45.8222,七台河市,新建矿广场,,19,,41,13,17,55,,56,48,10,24,5,6,0.6,0.4
2024-09-25T2000,1779A,123.9305,47.3636,齐齐哈尔市,安居小区,颗粒物(PM10),58,65,22,34,12,18,,82,70,66,14,11,10,1.0,0.4
2024-09-25T2000,1780A,123.9488,47.3386,齐齐哈尔市,中心广场,颗粒物(PM10),54,57,26,3,6,35,,78,68,51,16,2,2,0.7,0.5
2024-09-25T2000,1781A,123.9483,47.3227,齐齐哈尔市,农牧车辆厂,颗粒物(PM10),56,61,32,12,6,17,,81,66,57,15,8,8,0.6,0.3
2024-09-25T2000,1783A,123.945,47.2988,齐齐哈尔市,市环境监测站,颗粒物(PM10),53,55,23,35,13,22,,82,70,53,15,8,8,0.7,0.3
2024-09-25T2000,3662A,123.6333,47.2075,齐齐哈尔市,富区青少年活动中心,颗粒物(PM10),62,74,30,28,21,59,,83,78,25,17,5,7,0.6,0.5
2024-09-25T2000,2591A,107.9783,26.5747,黔东南苗族侗族自治州,市环境监测站,,39,36,34,27,25,85,,133,126,41,22,5,5,0.5,0.5
2024-09-25T2000,2881A,107.8908,26.5311,黔东南苗族侗族自治州,凯里学院,,41,41,27,20,19,114,,145,139,13,16,3,3,0.8,0.8
2024-09-25T2000,2593A,107.5228,26.2403,黔南布依族苗族自治州,小围寨,,43,22,26,19,18,137,,166,164,6,10,6,6,0.5,0.6
2024-09-25T2000,3538A,107.5175,26.2978,黔南布依族苗族自治州,沙坝,,41,41,31,24,20,102,,157,152,21,11,4,5,0.5,0.6
2024-09-25T2000,2589A,104.9022,25.0925,黔西南布依族苗族自治州,场坝街,,48,48,44,31,33,104,,122,120,11,15,3,29,0.4,0.4
2024-09-25T2000,2590A,104.8811,25.0992,黔西南布依族苗族自治州,坪东大道,,40,35,42,28,32,75,,107,104,16,16,7,8,0.5,0.4
2024-09-25T2000,2502A,108.6236,21.9667,钦州市,市环保站,颗粒物(PM10),58,66,48,27,25,57,,77,75,32,15,7,7,0.8,0.7
2024-09-25T2000,2503A,108.6549,21.9481,钦州市,沙埠小学,细颗粒物(PM2.5),72,59,46,52,27,57,,82,80,25,14,7,6,1.0,0.9
2024-09-25T2000,2504A,108.5989,21.7431,钦州市,港区一小,颗粒物(PM10),68,85,64,35,31,60,,94,92,47,23,5,6,0.9,0.8
2024-09-25T2000,3404A,108.5959,21.9633,钦州市,北职校,细颗粒物(PM2.5),65,61,51,47,36,40,,90,84,44,14,5,6,0.9,0.8
2024-09-25T2000,1042A,119.5134,39.8207,秦皇岛市,北戴河环保局,,24,19,53,6,24,76,,118,85,13,18,3,4,0.3,0.6
2024-09-25T2000,1043A,119.7493,40.0116,秦皇岛市,第一关,,48,47,57,33,41,11,,91,56,73,57,4,4,0.4,0.6
2024-09-25T2000,1044A,119.5897,39.9499,秦皇岛市,监测站,,32,29,57,22,41,14,,91,60,50,29,3,4,0.4,0.6
2024-09-25T2000,1046A,119.5251,39.9041,秦皇岛市,建设大厦,,34,34,57,11,29,21,,107,67,47,24,2,6,0.3,0.7
2024-09-25T2000,3132A,119.610547,39.943889,秦皇岛市,文明里,,45,45,64,7,26,38,,106,71,35,25,2,5,0.4,0.7
2024-09-25T2000,1307A,120.6659,36.2403,青岛市,仰口,,38,36,18,22,14,121,,125,125,8,5,7,7,0.5,0.4
2024-09-25T2000,1310A,120.4134,36.0658,青岛市,市南区东部子站,,41,22,24,3,8,131,,155,152,16,16,6,7,0.5,0.5
2024-09-25T2000,1311A,120.3664,36.1032,青岛市,四方区子站,,42,24,27,12,12,133,,168,165,26,31,9,10,0.6,0.6
2024-09-25T2000,1312A,120.2994,36.054,青岛市,市南区西部子站,,45,24,27,7,6,141,,163,161,9,16,9,9,0.6,0.6
2024-09-25T2000,1313A,120.4581,36.0858,青岛市,崂山区子站,,,,16,,4,96,,147,141,,17,,9,,0.5
2024-09-25T2000,1314A,120.1983,35.9608,青岛市,黄岛区子站,,42,19,29,10,12,134,,166,161,11,30,8,10,0.4,0.5
2024-09-25T2000,1315A,120.3999,36.3083,青岛市,城阳区子站,颗粒物(PM10),51,51,38,15,15,91,,192,176,60,41,9,9,0.7,0.7
2024-09-25T2000,1966A,120.0405,35.8735,青岛市,黄岛区4号,,43,22,29,14,11,137,,169,168,9,20,6,7,0.5,0.5
2024-09-25T2000,3362A,120.5014,36.4034,青岛市,即墨2号,颗粒物(PM10),75,99,34,42,13,165,,168,164,38,17,15,8,0.7,0.5
2024-09-25T2000,3642A,120.3503,36.0736,青岛市,市北区南部,,,,27,,9,122,,159,156,,28,,8,,0.7
2024-09-25T2000,3643A,120.3948,36.1805,青岛市,李沧区北部,,36,36,32,19,14,110,,180,168,37,26,9,9,0.7,0.6
2024-09-25T2000,1702A,113.0426,23.691,清远市,环保大楼,颗粒物(PM10),58,65,25,34,19,58,,88,88,31,14,6,6,1.2,1
2024-09-25T2000,1703A,113.0208,23.7106,清远市,凤城街办,,38,38,21,20,15,59,,92,92,24,12,7,6,1.1,0.9
2024-09-25T2000,3025A,113.0477,23.6344,清远市,技师学院,,,45,21,31,13,51,,95,95,27,11,,7,0.9,0.6
2024-09-25T2000,3318A,112.9903,23.7403,清远市,清新太和,,20,20,23,13,15,49,,83,83,12,17,2,2,0.7,0.8
2024-09-25T2000,3455A,113.076,23.7198,清远市,清城东城,,34,34,20,22,13,55,,96,96,16,6,2,2,0.9,0.9
2024-09-25T2000,2661A,107.6325,35.7357,庆阳市,庆阳五中,,40,40,40,17,15,101,,116,115,18,10,7,7,0.4,0.3
2024-09-25T2000,2662A,107.6364,35.7067,庆阳市,市环保局,,40,40,37,19,14,100,,114,113,20,11,6,6,0.5,0.4
2024-09-25T2000,1916A,103.7897,25.5035,曲靖市,环境监测站,,50,50,47,18,26,105,,137,132,15,12,5,6,0.8,0.8
2024-09-25T2000,1917A,103.8,25.5364,曲靖市,烟厂办公区,,45,45,46,30,28,104,,137,133,14,12,4,4,0.4,0.5
2024-09-25T2000,3376A,103.7947,25.462,曲靖市,南苑二区,颗粒物(PM10),54,57,45,33,30,111,,134,130,16,11,9,10,0.5,0.5
2024-09-25T2000,3377A,103.7444,25.5261,曲靖市,曲靖师范学院,颗粒物(PM10),54,58,41,34,33,123,,138,137,16,14,10,12,0.6,0.7
2024-09-25T2000,1264A,118.8692,28.9398,衢州市,环保大楼,,32,32,31,21,23,73,,122,116,37,18,3,3,0.6,0.6
2024-09-25T2000,1265A,118.8709,28.9666,衢州市,实验学校,,37,37,32,24,27,68,,113,102,35,19,7,5,0.7,0.6
2024-09-25T2000,1266A,118.8621,28.9808,衢州市,衢州学院,,23,23,38,11,22,47,,108,92,29,23,7,6,0.7,0.7
2024-09-25T2000,1611A,118.5819,24.9117,泉州市,涂山街,,31,31,26,21,20,88,,127,126,21,28,3,3,0.7,0.7
2024-09-25T2000,1612A,118.5972,24.8978,泉州市,津头埔,,36,36,28,25,23,81,,127,125,24,31,5,5,0.7,0.8
2024-09-25T2000,1613A,118.6663,24.9424,泉州市,万安,,30,30,25,15,19,94,,141,139,16,22,3,3,0.7,0.7
2024-09-25T2000,3529A,118.6333,24.9264,泉州市,城华南路,,28,21,21,18,14,87,,126,125,18,21,4,3,0.4,0.5
2024-09-25T2000,2626A,88.8876,29.2718,日喀则市,日喀则监测站,,25,6,9,3,4,78,,102,93,14,9,5,5,0.4,0.3
2024-09-25T2000,3726A,88.8781,29.2426,日喀则市,林业技术推广中心,,27,6,6,3,0,84,,100,95,8,6,6,6,0.4,0.4
2024-09-25T2000,1659A,119.471,35.4209,日照市,监测站,,36,36,23,18,13,110,,151,148,26,42,11,11,0.7,0.5
2024-09-25T2000,1660A,119.523,35.4216,日照市,市政府广场,,45,24,24,6,12,142,,167,166,12,24,10,10,0.5,0.5
2024-09-25T2000,1661A,119.5587,35.4044,日照市,港务局,,43,22,24,14,15,137,,174,169,8,19,8,8,0.3,0.3
2024-09-25T2000,3507A,119.5328,35.4625,日照市,职业技术学院,,37,34,23,22,11,118,,167,164,17,22,8,9,0.6,0.6
2024-09-25T2000,3604A,119.3266,35.1044,日照市,岚山环保分局,,40,29,28,14,15,127,,153,151,18,19,10,18,0.7,1
2024-09-25T2000,1835A,111.1922,34.7752,三门峡市,市政府,颗粒物(PM10),64,77,56,45,28,139,,177,177,44,35,14,15,0.9,0.7
2024-09-25T2000,1836A,111.1587,34.7942,三门峡市,开发区,颗粒物(PM10),70,90,67,46,39,151,,166,166,28,20,13,14,0.7,0.5
2024-09-25T2000,1838A,111.143,34.7955,三门峡市,风景区,细颗粒物(PM2.5),64,60,60,46,37,158,,182,178,29,19,12,14,0.9,0.9
2024-09-25T2000,3039A,111.1911,34.7829,三门峡市,三门峡市第一小学,细颗粒物(PM2.5),74,83,65,54,46,155,,170,170,28,23,11,14,0.8,0.6
2024-09-25T2000,3598A,111.1,34.7167,三门峡市,富达温泉假日酒店,臭氧1小时,80,77,76,39,42,184,,181,181,16,36,15,16,0.9,0.9
2024-09-25T2000,2324A,117.6211,26.2625,三明市,三钢,,26,26,25,6,14,18,,40,36,19,16,8,9,1.0,1
2024-09-25T2000,2325A,117.635,26.2714,三明市,三明二中,,12,,25,8,15,29,,42,41,10,14,4,5,1.0,1
2024-09-25T2000,2326A,117.6028,26.2378,三明市,三元区政府,,27,27,28,13,16,12,,43,37,20,15,2,4,0.5,0.6
2024-09-25T2000,1876A,109.5078,18.2489,三亚市,河东子站,,20,10,16,3,6,62,,87,77,4,7,3,3,0.2,0.4
2024-09-25T2000,1877A,109.4964,18.2681,三亚市,河西子站,,20,8,13,7,5,64,,86,77,2,7,3,3,0.4,0.5
2024-09-25T2000,3540A,109.7348,18.3443,三亚市,君悦子站,,18,18,18,3,6,56,,72,64,12,10,3,3,0.3,0.4
