timepoint,stationcode,longitude,latitude,area,positionname,primarypollutant,aqi,pm10,pm10_24h,pm2_5,pm2_5_24h,o3,o3_24h,o3_8h,o3_8h_24h,no2,no2_24h,so2,so2_24h,co,co_24h
2024-09-25T1300,2566A,102.1879,31.914,阿坝藏族羌族自治州,州农科所,,22,22,22,7,11,66,,33,33,6,13,7,8,0,0
2024-09-25T1300,2568A,102.2502,31.8896,阿坝藏族羌族自治州,马师校,,,12,21,7,8,68,,33,33,,7,,4,0.3,0.4
2024-09-25T1300,3994A,102.2165,31.9024,阿坝藏族羌族自治州,马尔康中学西区,,23,11,17,3,17,71,,32,32,5,8,6,6,0.4,0.5
2024-09-25T1300,2695A,80.292,41.1694,阿克苏地区,电视台,颗粒物(PM10),88,126,139,31,43,90,,63,63,16,30,4,3,0.4,0.6
2024-09-25T1300,2696A,80.2613,41.1551,阿克苏地区,艺术中心,颗粒物(PM10),106,161,132,30,41,87,,53,53,17,34,5,4,0.5,1.2
2024-09-25T1300,2204A,105.6467,38.8363,阿拉善盟,西城区西花园,,,,37,,19,141,,106,106,10,16,,9,0.8,0.8
2024-09-25T1300,2205A,105.6985,38.8411,阿拉善盟,蒙二幼,颗粒物(PM10),51,51,36,13,10,114,,87,87,8,11,10,7,0.4,0.5
2024-09-25T1300,2206A,105.724,38.8516,阿拉善盟,环保局新楼,,,43,30,14,9,112,,99,99,9,7,10,9,,0.4
2024-09-25T1300,2708A,88.1264,47.8517,阿勒泰地区,市站,,36,36,28,3,8,69,,50,44,8,15,8,8,0.4,0.4
2024-09-25T1300,2630A,80.1161,32.5,阿里地区,阿里监测站,,32,12,14,3,5,102,,72,72,6,13,7,7,0.3,0.3
2024-09-25T1300,3192A,80.0903,32.5028,阿里地区,阿里藏医院,,32,20,15,6,5,100,,76,73,6,11,6,6,0.4,0.3
2024-09-25T1300,2642A,109.0318,32.6537,安康市,香溪洞,颗粒物(PM10),62,74,44,25,22,128,,69,69,8,14,11,9,0.4,0.4
2024-09-25T1300,2643A,109.0281,32.6939,安康市,安康市监测站,,50,50,48,28,28,138,,70,70,11,15,10,13,0.6,0.6
2024-09-25T1300,2644A,109.0072,32.6975,安康市,汉滨区检察院,,42,39,42,29,25,134,,66,66,11,15,10,9,0.5,0.5
2024-09-25T1300,2291A,117.0809,30.5177,安庆市,环科院,臭氧1小时,55,46,46,27,29,164,,84,84,22,23,10,9,0.7,0.7
2024-09-25T1300,2292A,117.0331,30.5119,安庆市,马山宾馆,臭氧1小时,54,51,47,26,32,163,,97,97,23,23,10,10,0.6,0.7
2024-09-25T1300,2294A,116.9896,30.6145,安庆市,安庆大学,臭氧1小时,73,48,45,24,28,178,,99,99,15,18,9,8,0.4,0.5
2024-09-25T1300,3173A,117.0598,30.5351,安庆市,市人大,臭氧1小时,58,55,48,30,28,166,,94,94,16,18,11,10,0.6,0.7
2024-09-25T1300,3123A,105.9408,26.2431,安顺市,凤凰山,,,33,41,24,32,168,,101,101,,14,7,10,0.6,0.7
2024-09-25T1300,3124A,105.9439,26.2564,安顺市,金钟山,臭氧1小时,62,30,38,24,30,169,,121,121,8,8,9,11,0.6,0.6
2024-09-25T1300,3125A,105.8983,26.2481,安顺市,娄家坡,臭氧1小时,55,29,42,21,33,164,,113,113,8,11,8,10,0.6,0.7
2024-09-25T1300,1819A,114.3551,36.1017,安阳市,红庙街,臭氧1小时,93,100,90,50,47,194,,94,94,19,25,12,8,0.9,0.6
2024-09-25T1300,1820A,114.361,36.0681,安阳市,银杏小区,臭氧1小时,85,100,93,48,39,188,,94,94,16,22,12,7,0.9,0.5
2024-09-25T1300,3141A,114.3922,36.0878,安阳市,信访局,臭氧1小时,98,112,90,66,50,198,,99,99,24,29,11,7,1.0,0.7
2024-09-25T1300,3669A,114.4705,36.0637,安阳市,左辅环卫站,颗粒物(PM10),111,171,122,80,59,186,,84,84,25,35,11,8,0.9,0.6
2024-09-25T1300,3703A,114.2917,36.0949,安阳市,安钢职工学校,颗粒物(PM10),79,107,104,56,58,182,,86,86,19,29,14,13,1.2,0.8
2024-09-25T1300,1748A,123.044,41.1196,鞍山市,深沟寺,,40,40,28,26,16,36,,112,69,15,12,4,5,0.6,0.6
2024-09-25T1300,1749A,123.011,41.0931,鞍山市,太阳城,,45,45,32,27,16,33,,107,66,14,14,6,7,0.5,0.6
2024-09-25T1300,1750A,123.0485,41.1442,鞍山市,太平,,44,44,33,22,17,41,,106,59,20,22,7,8,0.6,0.7
2024-09-25T1300,1751A,122.9642,41.0971,鞍山市,铁西三道街,细颗粒物(PM2.5),74,85,53,54,29,32,,81,39,26,30,6,7,0.8,0.9
2024-09-25T1300,1752A,122.9341,41.0833,鞍山市,铁西工业园区,颗粒物(PM10),53,55,42,30,22,27,,87,55,29,23,7,8,0.9,0.8
2024-09-25T1300,1753A,123.022,41.0821,鞍山市,明达新区,,46,46,31,28,16,32,,108,66,16,14,5,6,0.5,0.6
2024-09-25T1300,2195A,107.4212,40.761,巴彦淖尔市,附二中,,32,24,43,8,20,102,,62,62,7,15,6,8,0.5,0.6
2024-09-25T1300,2196A,107.37,40.7372,巴彦淖尔市,市环保大楼,,33,25,37,7,12,104,,53,53,4,13,5,6,0.4,0.4
2024-09-25T1300,1956A,86.1472,41.7538,巴音郭楞蒙古自治州,孔雀公园,,33,33,45,3,13,85,,73,67,13,18,8,9,0.3,0.3
2024-09-25T1300,1957A,86.1972,41.7166,巴音郭楞蒙古自治州,棉纺厂,,43,43,38,15,16,89,,69,69,16,17,9,6,0.2,0.2
2024-09-25T1300,1958A,86.2357,41.7173,巴音郭楞蒙古自治州,经济开发区,,35,35,28,21,13,93,,88,84,12,7,7,7,0.3,0.3
2024-09-25T1300,2914A,106.7677,31.8794,巴中市,苏山坪,,37,30,36,21,26,116,,84,84,12,10,4,4,0.4,0.4
2024-09-25T1300,3182A,106.7656,31.8545,巴中市,丽阳花园,,38,31,54,22,43,121,,59,59,12,26,6,5,0.6,0.7
2024-09-25T1300,3183A,106.7418,31.8654,巴中市,圣泉水务公司,,37,26,44,21,36,118,,72,72,11,19,4,4,0.5,0.6
2024-09-25T1300,3616A,106.7616,31.8344,巴中市,市中心医院,,37,29,56,18,39,118,,52,52,8,25,5,5,0.5,0.6
2024-09-25T1300,2236A,122.8738,45.5725,白城市,市环保局,,25,14,34,3,9,80,,58,53,7,13,5,5,0.2,0.3
2024-09-25T1300,2231A,126.4219,41.9171,白山市,喜丰,,,,50,,13,92,,41,41,12,19,13,8,0.6,0.6
2024-09-25T1300,2232A,126.4077,41.9419,白山市,环保局,,38,38,44,7,16,83,,33,33,15,21,6,8,0.7,0.7
2024-09-25T1300,2647A,104.1724,36.5446,白银市,第三小学,颗粒物(PM10),74,98,103,38,31,96,,70,70,9,12,8,12,0.6,0.7
2024-09-25T1300,2648A,104.1465,36.5482,白银市,动力公司,颗粒物(PM10),71,92,98,29,28,99,,67,67,6,10,8,9,0.3,0.4
2024-09-25T1300,2512A,106.6103,23.9011,百色市,市监测站,,47,47,40,23,21,132,,69,69,9,14,11,8,0.6,0.5
2024-09-25T1300,2513A,106.6538,23.8859,百色市,市中心血站,颗粒物(PM10),54,57,50,33,27,138,,64,64,10,24,9,12,0.6,0.6
2024-09-25T1300,3406A,106.6085,23.8798,百色市,祈福高中,,50,50,59,24,27,126,,55,55,11,25,9,6,0.6,0.6
2024-09-25T1300,2270A,117.396,32.939,蚌埠市,工人疗养院,,48,33,63,16,29,152,,77,77,8,35,8,10,0.3,0.5
2024-09-25T1300,2271A,117.3605,32.9427,蚌埠市,百货大楼,,48,29,65,10,28,152,,86,86,7,40,8,9,0.3,0.5
2024-09-25T1300,2273A,117.4185,32.8911,蚌埠市,蚌埠学院,,46,39,53,24,30,147,,75,75,17,36,12,8,0.4,0.3
2024-09-25T1300,2274A,117.3533,32.9673,蚌埠市,淮上区政府,,49,39,64,21,38,156,,82,82,8,40,8,7,0.2,0.4
2024-09-25T1300,2275A,117.3145,32.8977,蚌埠市,高新区,臭氧1小时,67,36,56,19,34,173,,80,80,11,30,8,8,0.3,0.4
2024-09-25T1300,3715A,117.3092,32.9314,蚌埠市,蚌埠田家炳中学,臭氧1小时,72,46,75,21,35,177,,78,78,8,42,8,10,0.3,0.4
2024-09-25T1300,1585A,109.8756,40.6532,包头市,市环境监测站,,47,47,27,28,12,75,,54,53,23,18,17,9,0.9,0.6
2024-09-25T1300,1587A,109.9991,40.5842,包头市,包头八中,,48,41,45,33,17,77,,40,40,21,25,15,11,0.8,0.7
2024-09-25T1300,1588A,109.8538,40.6821,包头市,青山宾馆,,43,43,21,29,7,74,,56,55,22,15,12,8,0.9,0.6
2024-09-25T1300,1590A,110.0377,40.5546,包头市,东河鸿龙湾,,44,44,32,18,13,78,,39,39,18,21,27,16,0.7,1.1
2024-09-25T1300,3283A,109.9154,40.5685,包头市,滨河大厦,,,,23,,11,85,,49,49,15,24,,12,0.7,0.7
2024-09-25T1300,3419A,109.9447,40.6261,包头市,包头市委党校,,43,34,26,30,12,80,,50,,21,20,24,13,0.9,0.5
2024-09-25T1300,3683A,109.8331,40.6576,包头市,昆区政府,细颗粒物(PM2.5),67,54,22,48,9,69,,59,56,28,15,18,7,1.2,0.5
2024-09-25T1300,1930A,107.185,34.3063,宝鸡市,庙沟村,,36,33,50,25,33,113,,94,89,7,14,10,9,0.4,0.4
2024-09-25T1300,1931A,107.0708,34.3017,宝鸡市,竹园沟,,37,24,49,21,31,117,,72,72,9,14,8,8,0.5,0.5
2024-09-25T1300,1932A,107.1906,34.3672,宝鸡市,三陆医院,颗粒物(PM10),52,54,76,22,43,112,,51,51,13,36,12,10,0.5,0.7
2024-09-25T1300,1933A,107.1431,34.3547,宝鸡市,监测站,颗粒物(PM10),52,53,64,19,36,114,,56,56,10,22,10,7,0.5,0.6
2024-09-25T1300,1934A,107.1186,34.3739,宝鸡市,技工学校,,,45,71,,47,117,,65,65,14,24,9,9,0.4,0.7
2024-09-25T1300,1935A,107.3906,34.3528,宝鸡市,陈仓区环保局家属楼,,37,34,69,18,40,116,,58,58,12,35,10,10,0.6,0.7
2024-09-25T1300,1936A,107.2058,34.3497,宝鸡市,文理学院,,36,29,65,23,35,114,,58,58,12,23,16,9,0.5,0.6
2024-09-25T1300,1937A,107.2386,34.3622,宝鸡市,三迪小学,颗粒物(PM10),51,52,69,16,39,118,,56,56,13,34,23,10,0.5,0.6
2024-09-25T1300,1051A,115.493,38.8632,保定市,游泳馆,,42,39,78,21,60,133,,81,81,8,28,2,5,0.2,0.5
2024-09-25T1300,1052A,115.5213,38.8959,保定市,华电二区,,40,40,81,18,59,121,,64,64,8,33,4,5,0,0.3
2024-09-25T1300,1053A,115.4713,38.9108,保定市,接待中心,,36,33,85,13,71,114,,67,67,8,32,4,4,0.1,0.3
2024-09-25T1300,1054A,115.4612,38.8416,保定市,地表水厂,颗粒物(PM10),52,54,86,20,56,129,,74,74,7,33,2,3,0,0.2
2024-09-25T1300,3581A,115.31981,38.95208,保定市,满城区生态环境分局,,46,46,103,27,63,123,,78,78,14,31,5,5,0.4,0.6
2024-09-25T1300,3582A,115.47694,38.76408,保定市,清苑区第二中学,,45,42,91,31,56,137,,86,86,8,37,2,3,0.3,0.5
2024-09-25T1300,3583A,115.62909,39.02311,保定市,徐水物探局,,36,30,80,19,59,115,,61,61,12,37,4,7,0.3,0.7
2024-09-25T1300,4004A,115.4202,38.8656,保定市,双鹰农机,细颗粒物(PM2.5),52,47,93,36,53,131,,79,79,11,32,2,3,0.3,0.6
2024-09-25T1300,4034A,115.5150,38.8590,保定市,植保所站,,46,41,84,32,60,134,,77,77,9,32,3,6,0.3,0.4
2024-09-25T1300,2594A,99.1678,25.1081,保山市,市环境监测站,,46,42,35,32,21,108,,47,47,8,10,5,5,0.4,0.4
2024-09-25T1300,2595A,99.1711,25.1328,保山市,市环保局,,47,47,38,18,14,114,,54,54,7,7,6,6,0.5,0.4
2024-09-25T1300,1867A,109.1436,21.4086,北海市,海滩公园,,43,43,36,27,21,117,,60,60,8,9,6,6,0.7,0.6
2024-09-25T1300,1868A,109.0981,21.4661,北海市,新市环保局,,35,,32,24,24,93,,64,64,6,8,4,6,0.7,0.7
2024-09-25T1300,1869A,109.1778,21.5233,北海市,北海工业园,颗粒物(PM10),52,53,42,24,27,101,,58,58,8,13,6,7,0.6,0.7
2024-09-25T1300,3400A,109.1911,21.4415,北海市,龙潭自来水厂,,49,49,33,18,27,97,,52,52,6,8,6,6,0.7,0.7
2024-09-25T1300,1001A,116.3621,39.8784,北京市,万寿西宫,,27,7,73,6,49,85,,65,65,8,23,1,2,0.3,0.7
2024-09-25T1300,1002A,116.2202,40.2915,北京市,定陵,,20,6,43,3,42,63,,51,51,4,10,1,2,0.2,0.5
2024-09-25T1300,1003A,116.4174,39.9289,北京市,东四,,27,7,72,3,51,84,,66,66,7,22,2,3,0.4,0.7
2024-09-25T1300,1004A,116.4072,39.8863,北京市,天坛,,27,6,55,3,40,84,,53,53,7,19,3,3,0.3,0.5
2024-09-25T1300,1005A,116.462,39.9365,北京市,农展馆,,24,6,62,3,42,76,,49,49,7,26,3,3,0.3,0.6
2024-09-25T1300,1006A,116.3392,39.9295,北京市,官园,,27,7,70,3,45,84,,58,58,8,24,5,6,0.4,0.6
2024-09-25T1300,1007A,116.2878,39.9611,北京市,海淀万柳,,27,6,65,3,45,85,,43,43,8,28,3,4,0.3,0.5
2024-09-25T1300,1008A,116.6636,40.135,北京市,顺义新城,,23,6,57,3,37,73,,69,69,3,19,3,3,0.2,0.5
2024-09-25T1300,1009A,116.6275,40.3275,北京市,怀柔镇,,24,6,51,3,33,75,,62,62,9,18,3,3,0.3,0.6
2024-09-25T1300,1010A,116.2296,40.217,北京市,昌平镇,,22,6,61,3,35,68,,36,36,6,21,3,3,0.3,0.5
2024-09-25T1300,1011A,116.3966,39.9821,北京市,奥体中心,,24,6,66,3,45,74,,59,59,9,30,2,3,0.4,0.6
2024-09-25T1300,1012A,116.184,39.9136,北京市,古城,,25,6,76,3,46,78,,53,53,6,29,3,3,0.3,0.6
2024-09-25T1300,3281A,115.9718,40.4529,北京市,延庆夏都,,26,6,53,3,34,81,,47,47,4,14,3,2,0.2,0.5
2024-09-25T1300,3417A,117.0709,40.1465,北京市,平谷新城,,25,6,60,3,37,78,,62,62,1,11,1,2,0.3,0.4
2024-09-25T1300,3418A,116.8336,40.4095,北京市,密云新城,,24,6,55,3,31,75,,71,70,8,15,3,3,0.2,0.5
2024-09-25T1300,3671A,116.088,39.9726,北京市,门头沟三家店,,23,6,52,3,32,73,,44,44,4,18,6,7,0.2,0.5
2024-09-25T1300,3672A,116.1541,39.8204,北京市,丰台云岗,,21,6,57,3,41,66,,40,40,6,17,3,4,0.2,0.5
2024-09-25T1300,3673A,116.6804,39.9081,北京市,通州东关,,25,6,77,3,48,79,,59,59,5,35,3,3,0.2,0.5
2024-09-25T1300,3674A,115.9577,39.7603,北京市,房山燕山,,22,6,59,3,38,68,,53,53,9,12,3,2,0.2,0.5
2024-09-25T1300,3675A,116.4672,39.7733,北京市,大兴旧宫,,27,6,60,3,37,84,,50,50,5,28,3,3,0.2,0.5
2024-09-25T1300,3694A,115.986,40.4563,北京市,延庆石河营,,24,6,45,3,33,74,,39,39,4,13,3,3,0.2,0.5
2024-09-25T1300,3695A,116.6151,40.3053,北京市,怀柔新城,,24,6,51,3,35,74,,73,63,3,14,3,3,0.2,0.5
2024-09-25T1300,3696A,116.2545,39.8768,北京市,丰台小屯,,24,8,66,3,41,75,,38,38,7,24,3,3,0.4,0.6
2024-09-25T1300,3697A,116.84,40.3844,北京市,密云镇,,23,6,56,3,34,73,,66,66,5,20,3,3,0.2,0.4
2024-09-25T1300,1761A,123.8275,41.3064,本溪市,大峪,细颗粒物(PM2.5),64,75,31,46,16,50,,57,26,46,19,9,9,0.9,0.5
2024-09-25T1300,1762A,123.7567,41.3325,本溪市,溪湖,颗粒物(PM10),53,56,39,31,18,57,,44,36,30,27,9,9,1.1,1.3
2024-09-25T1300,1763A,123.7169,41.3094,本溪市,彩屯,颗粒物(PM10),52,54,39,33,20,64,,40,37,31,28,9,12,1.0,1.2
2024-09-25T1300,1764A,123.7669,41.2864,本溪市,东明,,,63,30,31,13,62,,69,55,,18,8,6,1.4,0.7
2024-09-25T1300,1765A,123.7992,41.2664,本溪市,新立屯,颗粒物(PM10),51,52,24,25,8,84,,83,68,27,21,6,5,1.1,0.7
2024-09-25T1300,1766A,123.8142,41.3472,本溪市,威宁,细颗粒物(PM2.5),52,44,39,36,15,32,,24,20,52,23,9,8,0.9,0.5
2024-09-25T1300,2587A,105.2864,27.3125,毕节市,八中,,45,41,36,31,29,111,,60,60,12,12,12,7,0.5,0.5
2024-09-25T1300,2588A,105.31,27.2944,毕节市,师专,,42,42,41,29,29,125,,69,69,13,15,17,9,0.6,0.6
2024-09-25T1300,3537A,105.3631,27.3533,毕节市,长征村,细颗粒物(PM2.5),57,50,49,40,40,132,,70,70,8,8,12,8,0.6,0.6
2024-09-25T1300,1629A,118.0018,37.3617,滨州市,第二水厂,臭氧1小时,98,56,89,29,48,198,,101,101,13,39,18,32,0.6,0.7
2024-09-25T1300,1630A,117.9776,37.393,滨州市,北中新校,臭氧1小时,93,56,70,22,39,194,,101,101,7,30,13,17,0.7,1
2024-09-25T1300,3514A,117.9378,37.3956,滨州市,中海酒店,臭氧1小时,85,56,67,27,36,188,,93,93,13,41,12,14,0.4,0.8
2024-09-25T1300,3516A,118.0917,37.694,滨州市,金海六路,臭氧1小时,93,58,74,14,38,194,,92,92,12,46,8,9,0.7,0.8
2024-09-25T1300,4028A,117.9956,37.3753,滨州市,滨州市西街道办事处,臭氧1小时,104,53,76,29,48,207,,115,115,11,40,12,31,0.7,1
2024-09-25T1300,2311A,115.8072,33.8399,亳州市,污水处理厂,臭氧1小时,68,38,53,18,27,174,,118,118,10,24,6,12,0.3,0.3
2024-09-25T1300,2312A,115.7789,33.8518,亳州市,三国揽胜宫,臭氧1小时,62,48,45,22,31,169,,107,107,15,18,5,7,0.4,0.4
2024-09-25T1300,3332A,115.7633,33.8034,亳州市,亳州学院,臭氧1小时,80,48,53,26,37,184,,128,128,11,16,4,4,0.4,0.4
2024-09-25T1300,2693A,82.0485,44.8556,博尔塔拉蒙古自治州,市党校,,44,44,41,10,15,78,,57,54,11,9,7,6,0.5,0.4
2024-09-25T1300,2694A,82.0806,44.8969,博尔塔拉蒙古自治州,市环保局,,38,38,41,14,16,69,,43,38,11,12,7,5,0.3,0.3
2024-09-25T1300,1071A,116.8842,38.2991,沧州市,沧县城建局,颗粒物(PM10),62,73,82,40,50,168,,94,94,21,48,9,7,0.4,0.5
2024-09-25T1300,1072A,116.8584,38.3254,沧州市,电视转播站,臭氧1小时,68,68,71,48,48,174,,96,96,21,43,7,6,0.4,0.5
2024-09-25T1300,1073A,116.8709,38.3228,沧州市,市环保局,臭氧1小时,75,69,80,43,48,180,,95,95,19,42,8,8,0.4,0.4
2024-09-25T1300,3324A,116.8136,38.3004,沧州市,河北水利电力学院,细颗粒物(PM2.5),74,83,85,54,55,173,,102,102,24,37,9,7,0.5,0.5
2024-09-25T1300,2622A,97.1806,31.1273,昌都市,昌都监测站,,20,19,10,3,4,62,,30,30,5,10,7,7,0.5,0.5
2024-09-25T1300,3719A,97.1714,31.1406,昌都市,昌都会议中心,,20,14,9,3,6,62,,35,35,7,5,8,8,0.2,0.2
2024-09-25T1300,2690A,88.1236,43.8886,昌吉回族自治州,天山天池,,32,,18,9,10,102,,71,71,4,5,12,14,0.6,0.5
2024-09-25T1300,2692A,87.2717,44.0297,昌吉回族自治州,新区政务中心,,34,34,37,9,17,100,,71,59,18,17,9,8,0.7,0.6
2024-09-25T1300,3613A,87.3095,44.0142,昌吉回族自治州,亚心广场,颗粒物(PM10),51,51,45,14,12,97,,70,58,25,27,8,6,0.6,0.6
2024-09-25T1300,1119A,125.3325,43.9166,长春市,食品厂,,25,12,34,8,13,80,,60,60,14,25,5,5,0.3,0.3
2024-09-25T1300,1120A,125.2863,43.9027,长春市,客车厂,,26,6,26,3,12,81,,66,61,11,16,6,6,0.4,0.3
2024-09-25T1300,1121A,125.2841,43.8463,长春市,邮电学院,,25,6,28,3,12,80,,67,67,8,21,7,7,0.2,0.3
2024-09-25T1300,1122A,125.3716,43.8772,长春市,劳动公园,,27,,30,6,11,85,,68,68,12,22,8,9,0.1,0.2
2024-09-25T1300,1123A,125.3297,43.8805,长春市,园林处,,24,,23,6,12,76,,66,66,8,17,4,5,0.3,0.3
2024-09-25T1300,1124A,125.4605,43.79,长春市,净月潭,,22,,15,8,8,68,,65,65,12,10,6,6,0.3,0.3
2024-09-25T1300,1126A,125.3863,43.8447,长春市,经开区环卫处,,24,6,24,3,8,74,,59,59,12,24,8,8,0.4,0.4
2024-09-25T1300,1127A,125.245,43.7783,长春市,高新区管委会,,27,6,20,3,9,86,,71,71,9,16,4,6,0.3,0.4
2024-09-25T1300,1128A,125.1761,43.8325,长春市,岱山公园,,27,,33,14,16,86,,64,64,5,28,3,4,0.3,0.4
2024-09-25T1300,1335A,113.0833,28.2325,长沙市,经开区环保局,臭氧1小时,107,66,64,27,42,214,,123,123,15,26,2,3,0.5,0.5
2024-09-25T1300,1336A,112.8872,28.2189,长沙市,高开区环保局,臭氧1小时,116,82,72,49,47,231,,115,115,16,37,6,6,0.6,0.5
2024-09-25T1300,1337A,113.0792,28.2053,长沙市,马坡岭,臭氧1小时,118,75,71,48,47,236,,124,124,13,22,6,6,0.6,0.6
2024-09-25T1300,1338A,112.9394,28.19,长沙市,湖南师范大学,臭氧1小时,120,78,70,43,40,239,,120,120,14,21,8,6,0.7,0.5
2024-09-25T1300,1339A,113.0178,28.1322,长沙市,雨花区环保局,臭氧1小时,102,65,70,34,39,204,,93,93,8,32,7,7,0.5,0.6
2024-09-25T1300,1340A,112.9792,28.2597,长沙市,伍家岭,臭氧1小时,110,70,72,36,46,220,,97,97,8,30,,4,0.8,0.8
2024-09-25T1300,1341A,113.0014,28.1944,长沙市,火车新站,臭氧1小时,113,,67,48,43,225,,104,104,16,30,6,6,,0.6
2024-09-25T1300,1342A,112.9844,28.1178,长沙市,天心区环保局,臭氧1小时,103,67,75,24,32,206,,88,88,15,40,5,5,0.5,0.6
2024-09-25T1300,1343A,112.8908,28.1308,长沙市,湖南中医药大学,臭氧1小时,125,88,72,49,54,249,,114,114,22,34,6,6,0.8,0.7
2024-09-25T1300,1344A,112.9581,28.3611,长沙市,沙坪,臭氧1小时,101,43,49,36,35,202,,117,117,11,13,11,10,1.4,1.1
2024-09-25T1300,1727A,113.1147,36.1547,长治市,清华站,细颗粒物(PM2.5),64,75,69,46,45,129,,67,67,22,31,17,9,1.4,0.9
2024-09-25T1300,1728A,113.1031,36.1989,长治市,监测站,颗粒物(PM10),57,64,65,34,45,115,,80,69,24,26,16,12,1.5,0.9
2024-09-25T1300,1730A,113.0886,36.2125,长治市,审计局,细颗粒物(PM2.5),64,59,63,46,54,118,,84,68,22,29,16,10,1.4,0.6
2024-09-25T1300,1731A,113.0844,36.1856,长治市,长治八中,细颗粒物(PM2.5),60,67,78,43,39,128,,81,78,22,27,15,11,1.6,0.9
2024-09-25T1300,2845A,113.1569,36.1911,长治市,德盛苑,颗粒物(PM10),57,64,55,34,41,131,,127,96,15,18,15,9,1.2,1
2024-09-25T1300,3568A,113.06,36.0464,长治市,向阳小学,颗粒物(PM10),63,75,87,40,54,134,,92,79,21,25,12,11,0.5,0.5
2024-09-25T1300,3569A,112.8792,36.3144,长治市,屯留一中,,36,27,73,15,51,113,,62,62,7,28,9,11,1.0,1.3
2024-09-25T1300,3570A,113.235,36.3489,长治市,潞城四中,颗粒物(PM10),66,82,92,36,64,118,,67,67,15,36,6,9,0.4,1
2024-09-25T1300,1854A,111.6975,28.9703,常德市,市二中,臭氧1小时,88,72,84,50,60,190,,89,89,10,24,11,11,0.7,0.7
2024-09-25T1300,3138A,111.7153,29.0289,常德市,武陵区永安,臭氧1小时,102,76,87,52,62,203,,126,126,12,22,12,13,0.5,0.8
2024-09-25T1300,3139A,111.6892,28.9881,常德市,鼎城区玉霞,臭氧1小时,99,62,88,40,62,199,,94,94,9,26,12,12,0.7,0.8
2024-09-25T1300,3140A,111.6625,29.0531,常德市,武陵区长庚,臭氧1小时,105,73,86,50,59,209,,115,115,13,20,12,12,0.6,0.6
2024-09-25T1300,1196A,119.9633,31.762,常州市,市监测站,臭氧1小时,70,38,54,23,22,176,,92,92,14,21,9,9,0.5,0.5
2024-09-25T1300,1200A,119.9468,31.7069,常州市,武进监测站,臭氧1小时,87,45,46,28,22,189,,103,103,11,18,9,9,0.7,0.7
2024-09-25T1300,1201A,119.9255,31.9087,常州市,安家,臭氧1小时,60,49,50,30,25,168,,91,91,17,32,10,10,0.6,0.5
2024-09-25T1300,3002A,119.9805,31.8174,常州市,行政中心,臭氧1小时,75,31,47,19,21,180,,92,92,12,21,12,12,0.5,0.5
2024-09-25T1300,3003A,120.0522,31.7748,常州市,经开区,臭氧1小时,62,71,51,30,25,169,,75,75,26,29,9,11,0.6,0.4
2024-09-25T1300,3010A,119.9025,31.7964,常州市,钟楼,臭氧1小时,70,48,53,26,21,176,,86,86,12,24,9,10,0.4,0.3
2024-09-25T1300,3429A,119.8598,31.7066,常州市,武进经发区,臭氧1小时,75,50,53,27,26,180,,82,82,14,33,9,9,0.7,0.7
2024-09-25T1300,3430A,119.5826,31.7245,常州市,金坛城区,臭氧1小时,68,36,41,22,22,174,,95,95,12,21,10,9,0.7,0.7
2024-09-25T1300,2220A,120.4318,41.5881,朝阳市,西梁,,25,6,31,3,22,78,,79,64,4,10,7,8,0.2,0.6
2024-09-25T1300,2221A,120.4521,41.5646,朝阳市,河畔小区,,25,,33,12,26,79,,91,64,4,8,6,8,0.5,0.8
2024-09-25T1300,2222A,120.4176,41.5648,朝阳市,八里堡,,26,14,35,9,24,82,,84,66,8,14,7,9,0.4,0.8
2024-09-25T1300,2223A,120.3806,41.5969,朝阳市,农业园区,,25,9,31,3,29,77,,84,63,3,11,8,8,0.3,0.6
2024-09-25T1300,1705A,116.6367,23.6719,潮州市,西园路,,,,16,13,6,110,,33,33,,10,13,4,0.8,0.6
2024-09-25T1300,3026A,116.6183,23.6608,潮州市,市政府,颗粒物(PM10),59,68,27,18,8,132,,52,52,16,14,13,7,0.6,0.5
2024-09-25T1300,4036A,116.6461,23.6761,潮州市,金山,颗粒物(PM10),58,65,17,39,6,133,,50,50,18,9,13,6,0.8,0.7
2024-09-25T1300,2472A,113.0073,25.9061,郴州市,马头岭,,22,22,40,10,16,51,,45,45,4,6,7,8,0.5,0.6
2024-09-25T1300,2473A,113.0116,25.8226,郴州市,市职中,,29,24,40,20,32,69,,48,48,13,15,4,6,0.6,0.6
2024-09-25T1300,2474A,113.0161,25.8001,郴州市,兴隆步行街,,44,44,49,13,31,61,,45,45,18,18,3,5,0.7,0.6
2024-09-25T1300,2475A,113.0383,25.8071,郴州市,市审计局,,39,28,39,27,32,61,,38,38,15,20,4,7,0.9,0.8
2024-09-25T1300,2476A,113.0348,25.7759,郴州市,市环保局,,35,24,41,24,35,58,,35,35,11,17,5,6,0.6,0.6
2024-09-25T1300,1431A,103.9728,30.7236,成都市,金泉两河,颗粒物(PM10),53,55,62,3,21,159,,68,68,7,19,6,6,0.5,0.6
2024-09-25T1300,1432A,104.176,30.6872,成都市,十里店,颗粒物(PM10),52,53,79,28,50,142,,54,54,17,30,9,5,0.7,0.8
2024-09-25T1300,1433A,104.079,30.5706,成都市,三瓦窑,臭氧1小时,68,73,73,39,52,174,,62,62,19,42,4,4,0.6,0.6
2024-09-25T1300,1434A,104.1114,30.63,成都市,沙河铺,细颗粒物(PM2.5),74,80,73,54,47,157,,64,64,18,30,7,4,0.7,0.8
2024-09-25T1300,1437A,104.0786,30.6531,成都市,君平街,颗粒物(PM10),61,72,72,38,45,156,,71,71,24,26,7,5,0.7,0.8
2024-09-25T1300,2880A,104.0239,30.65639,成都市,大石西路,"细颗粒物(PM2.5),臭氧1小时",62,61,66,44,43,169,,77,77,18,26,9,7,0.6,1
2024-09-25T1300,3136A,104.2725,30.5589,成都市,龙泉驿区区政府,臭氧1小时,67,70,62,44,41,173,,81,81,18,24,8,5,0.7,0.7
2024-09-25T1300,3357A,104.0106,30.6931,成都市,金博路,颗粒物(PM10),59,68,65,30,40,154,,58,58,12,26,3,3,0.7,0.7
2024-09-25T1300,3359A,104.0578,30.5225,成都市,华阳,细颗粒物(PM2.5),79,92,73,58,49,153,,54,54,21,30,6,5,0.9,0.8
2024-09-25T1300,3487A,104.2394,30.5319,成都市,车城东七路,细颗粒物(PM2.5),83,94,77,61,51,175,,88,88,26,25,7,4,0.7,0.8
2024-09-25T1300,3488A,104.3853,30.7453,成都市,青白江技师分院,细颗粒物(PM2.5),85,63,68,63,46,167,,54,54,17,48,7,4,0.8,0.8
2024-09-25T1300,3489A,104.0789,30.4072,成都市,科学城,细颗粒物(PM2.5),97,99,75,72,55,184,,64,64,28,26,6,5,0.9,0.8
2024-09-25T1300,4011A,103.8506,30.6947,成都市,光华大道三段,臭氧1小时,78,74,53,33,34,182,,72,72,11,17,6,4,0.6,0.6
2024-09-25T1300,1062A,117.9531,40.9081,承德市,铁路,,23,6,62,3,39,71,,50,50,10,25,8,10,0.3,0.5
2024-09-25T1300,1063A,117.9392,40.9763,承德市,中国银行,,22,13,60,3,37,68,,57,57,10,17,5,6,0.3,0.5
2024-09-25T1300,1064A,117.9503,40.928,承德市,开发区,,33,33,58,15,37,70,,55,55,17,22,7,10,0.3,0.5
2024-09-25T1300,1065A,117.8051,40.9655,承德市,文化中心,,18,18,60,3,34,56,,45,45,16,20,7,10,0.2,0.5
2024-09-25T1300,1066A,117.9268,41.0026,承德市,离宫,,38,,66,26,45,57,,48,48,5,8,1,2,0.3,0.5
2024-09-25T1300,2314A,117.47,30.6618,池州市,池州学院,臭氧1小时,67,36,46,23,29,173,,90,90,12,16,11,8,0.7,0.9
2024-09-25T1300,3237A,117.4918,30.6617,池州市,展览馆,臭氧1小时,63,44,44,24,23,170,,88,88,10,16,9,6,0.7,0.9
2024-09-25T1300,3333A,117.5627,30.695,池州市,第八中学,,50,30,49,23,27,160,,83,83,14,19,6,5,0.5,0.7
2024-09-25T1300,3334A,117.5038,30.6243,池州市,第十二中学,臭氧1小时,55,42,43,22,27,164,,77,77,10,28,6,4,0.5,1.1
2024-09-25T1300,1744A,118.9233,42.2816,赤峰市,松山一中,,25,9,15,3,8,77,,68,68,12,17,9,9,0.3,0.4
2024-09-25T1300,1745A,118.9576,42.2728,赤峰市,哈达街,,,16,16,12,10,90,,72,,10,12,,9,0.2,0.4
2024-09-25T1300,1746A,118.8788,42.2554,赤峰市,天义路,,25,8,16,3,8,79,,68,68,11,14,7,6,0.2,0.3
2024-09-25T1300,3058A,119.2658,42.0353,赤峰市,银河街,,28,12,31,6,15,88,,67,67,9,11,11,15,0.3,0.4
2024-09-25T1300,3286A,118.9359,42.3147,赤峰市,桥北物流园区,,30,7,20,3,11,93,,79,79,11,14,7,7,0.4,0.5
2024-09-25T1300,2521A,107.3476,22.4136,崇左市,市环保局江州分局,,40,40,39,22,21,113,,90,90,5,7,4,4,0.7,0.7
2024-09-25T1300,2522A,107.3702,22.3707,崇左市,城南新区,,38,38,33,20,20,121,,99,99,7,9,4,4,0.8,0.7
2024-09-25T1300,2298A,118.3093,32.3153,滁州市,老年大学,,48,29,33,13,20,153,,78,78,6,16,6,7,0.2,0.3
2024-09-25T1300,2299A,118.3244,32.2786,滁州市,人大宾馆,,48,29,37,12,19,152,,97,97,10,17,7,6,0.3,0.3
2024-09-25T1300,3207A,118.3118,32.3038,滁州市,市政府原办公楼,,47,23,34,20,25,149,,90,90,7,19,6,6,0.3,0.4
2024-09-25T1300,3331A,118.3267,32.2634,滁州市,图书馆,,47,30,34,9,20,150,,91,91,5,15,5,5,0.3,0.3
2024-09-25T1300,2605A,101.5482,25.0441,楚雄彝族自治州,州环境监测站,,30,25,26,17,21,96,,8,,4,19,8,14,0.6,0.8
2024-09-25T1300,2606A,101.538,25.0492,楚雄彝族自治州,市经济开发区,,30,24,30,17,22,94,,36,36,5,19,5,11,0.6,0.6
2024-09-25T1300,2548A,107.5277,31.2827,达州市,达州职业技术学院,,42,37,54,21,32,132,,59,59,10,37,10,9,0.6,0.8
2024-09-25T1300,2549A,107.5086,31.2186,达州市,市环境监测站,,43,36,55,14,26,137,,58,58,20,38,10,10,0.5,0.6
2024-09-25T1300,2550A,107.4988,31.2132,达州市,凤凰小区,,48,31,50,19,30,153,,70,70,15,34,12,11,0.5,0.6
2024-09-25T1300,2551A,107.5082,31.1986,达州市,达县机关宾馆,,45,36,56,19,29,144,,62,62,21,50,10,9,0.4,0.6
2024-09-25T1300,2552A,107.4644,31.2124,达州市,市政中心,,47,47,55,22,30,143,,62,62,20,38,25,10,1.2,0.7
2024-09-25T1300,2614A,100.1542,25.7054,大理白族自治州,大理市环境监测站,,33,33,27,14,17,73,,74,70,6,8,7,7,0.6,0.6
2024-09-25T1300,2615A,100.2171,25.5811,大理白族自治州,大理古城,,30,26,25,9,17,93,,56,56,6,13,7,7,0.4,0.3
2024-09-25T1300,1109A,121.612,38.9741,大连市,甘井子,臭氧1小时,68,38,27,28,15,174,,113,113,23,21,12,8,0.6,0.5
2024-09-25T1300,1110A,121.565,38.9511,大连市,周水子,,50,42,31,32,18,160,,91,91,21,33,11,8,0.8,0.8
2024-09-25T1300,1111A,121.5637,38.8845,大连市,星海三站,,40,36,26,22,13,127,,88,88,8,13,7,6,0.3,0.3
2024-09-25T1300,1112A,121.6302,38.9117,大连市,青泥洼桥,,44,36,24,22,12,140,,80,80,13,18,8,7,0.3,0.3
2024-09-25T1300,1113A,121.6251,38.8638,大连市,傅家庄,颗粒物(PM10),63,75,18,18,8,120,,,,8,8,8,8,0.4,0.1
2024-09-25T1300,1114A,121.5213,38.8661,大连市,七贤岭,,,39,27,26,15,150,,96,96,,16,8,7,0.5,0.5
2024-09-25T1300,1115A,121.2529,38.8061,大连市,旅顺,臭氧1小时,57,50,20,29,11,165,,103,103,16,14,9,6,0.5,0.4
2024-09-25T1300,1116A,121.7485,39.1311,大连市,金州,臭氧1小时,87,34,21,28,14,189,,107,107,14,14,10,7,0.8,0.7
2024-09-25T1300,1117A,121.7811,39.0496,大连市,开发区,,50,46,29,27,15,158,,94,94,17,20,7,6,0.5,0.5
2024-09-25T1300,1118A,121.9762,39.0631,大连市,双D港,,38,28,16,22,11,120,,74,74,12,14,8,7,0.7,0.5
2024-09-25T1300,1789A,124.81117,46.03138,大庆市,大同区,,23,,24,13,22,73,,67,67,4,9,3,4,0.3,0.8
2024-09-25T1300,1790A,125.129,46.533,大庆市,龙凤区,,25,22,34,10,16,80,,79,71,9,15,2,2,0.3,0.4
2024-09-25T1300,1791A,124.902,46.408,大庆市,红岗区,,25,23,30,11,20,78,,72,70,8,13,6,6,0.3,0.4
2024-09-25T1300,1792A,125.153,46.586,大庆市,萨尔图区,,28,28,23,15,14,76,,73,63,11,14,5,5,0.3,0.3
2024-09-25T1300,1793A,124.9042,46.6215,大庆市,让胡路区,,30,30,32,11,20,80,,68,62,7,12,4,4,0.2,0.3
2024-09-25T1300,3481A,125.141,46.634,大庆市,萨区政府监测点,,25,24,29,14,10,79,,73,63,9,15,6,6,0.4,0.6
2024-09-25T1300,1723A,113.2994,40.0758,大同市,云冈宾馆,,30,12,27,3,12,96,,70,70,10,17,8,10,0.6,0.7
2024-09-25T1300,1724A,113.3444,40.0917,大同市,大同大学,,28,15,27,3,14,89,,59,59,9,17,7,10,0.4,0.6
2024-09-25T1300,1725A,113.2661,40.1269,大同市,安家小村,,30,6,26,3,12,94,,72,72,9,17,11,13,0.4,0.6
2024-09-25T1300,1726A,113.2711,40.0844,大同市,教育学院,,29,13,31,8,14,91,,65,65,14,22,8,10,0.5,0.6
2024-09-25T1300,3282A,113.3397,40.0597,大同市,大同市卫生学校,,29,20,31,6,14,91,,63,63,9,15,8,10,0.4,0.6
2024-09-25T1300,3565A,113.1367,40.1122,大同市,云冈站,,32,11,38,3,14,100,,65,65,6,16,9,13,0.3,0.7
2024-09-25T1300,3566A,113.1186,40.2556,大同市,图书馆,,30,16,30,13,14,93,,61,61,10,16,16,14,0.4,0.6
2024-09-25T1300,3567A,113.5931,40.0461,大同市,区一中,,,9,29,8,14,88,,38,,7,13,,11,0.5,0.6
2024-09-25T1300,3676A,113.2802,40.0995,大同市,第二人民医院,,30,15,32,3,13,96,,70,70,8,15,11,13,0.4,0.5
2024-09-25T1300,2269A,124.1069,50.4097,大兴安岭地区,科技局,,26,,16,10,13,81,,54,54,4,7,6,6,0.3,0.3
2024-09-25T1300,3663A,124.1164,50.4278,大兴安岭地区,红旗社区,,26,7,12,7,8,81,,43,43,2,10,3,3,0.3,0.3
2024-09-25T1300,1600A,124.3303,40.0625,丹东市,江湾东路,,35,35,42,10,23,103,,56,56,5,18,12,16,0.6,0.9
2024-09-25T1300,1601A,124.4256,40.1503,丹东市,临江后街,,32,23,48,9,24,101,,57,57,8,18,8,8,0.6,0.7
2024-09-25T1300,1602A,124.3933,40.1461,丹东市,元宝山,,27,22,32,8,15,85,,49,49,8,16,4,4,0.4,0.5
2024-09-25T1300,1603A,124.3633,40.1092,丹东市,民主桥,,36,31,29,14,16,115,,56,56,5,23,6,5,0.5,0.7
2024-09-25T1300,3541A,109.5726,19.5167,儋州市,第一中学子站,,25,14,15,8,8,79,,54,54,3,7,6,6,0.5,0.6
2024-09-25T1300,3542A,109.5567,19.5187,儋州市,东坡学校子站,,25,11,14,8,7,80,,52,52,3,6,3,4,0.5,0.6
2024-09-25T1300,2616A,98.5842,24.428,德宏傣族景颇族自治州,德宏州监测站,颗粒物(PM10),52,53,43,31,25,89,,26,26,11,14,24,19,0.7,0.7
2024-09-25T1300,3677A,98.5881,24.4368,德宏傣族景颇族自治州,芒市人民政府综合楼,细颗粒物(PM2.5),53,48,34,37,26,90,,33,33,13,14,24,14,0.8,0.7
2024-09-25T1300,1901A,104.4239,31.1208,德阳市,东山公园,,47,47,65,21,38,129,,63,63,10,23,3,5,0.7,0.8
2024-09-25T1300,1902A,104.3826,31.1317,德阳市,西小区,颗粒物(PM10),51,52,69,28,45,124,,49,49,13,32,2,6,0.6,0.7
2024-09-25T1300,1904A,104.3553,31.1091,德阳市,耐火材料厂,颗粒物(PM10),52,53,80,25,44,120,,51,51,12,30,5,10,0.5,0.7
2024-09-25T1300,3639A,104.4019,31.1244,德阳市,市教育局,颗粒物(PM10),51,52,70,26,39,117,,57,57,13,34,1,3,0.6,0.7
2024-09-25T1300,1622A,116.3032,37.4674,德州市,儿童乐园,臭氧1小时,98,78,76,31,36,198,,121,121,14,23,12,13,0.5,0.6
2024-09-25T1300,1624A,116.2991,37.4451,德州市,监理站,臭氧1小时,101,78,76,29,40,202,,115,115,15,26,11,13,0.4,0.5
2024-09-25T1300,3066A,116.2721,37.4379,德州市,九衢泉纯净水厂,臭氧1小时,90,70,79,27,39,192,,104,104,14,32,11,12,0.5,0.6
2024-09-25T1300,3371A,116.3728,37.4403,德州市,开发区人民医院,臭氧1小时,92,70,77,24,36,193,,96,96,10,32,11,13,0.6,0.6
2024-09-25T1300,3372A,116.3572,37.4094,德州市,太阳城中学,臭氧1小时,88,75,81,24,38,190,,93,93,17,47,10,15,0.6,0.6
2024-09-25T1300,3511A,116.5652,37.3319,德州市,陵城艺术中心,臭氧1小时,82,75,73,29,39,185,,90,90,20,38,14,15,0.6,0.7
2024-09-25T1300,2621A,99.7056,27.8317,迪庆藏族自治州,迪庆州站,,21,12,15,8,9,66,,49,49,7,10,8,8,0.3,0.5
2024-09-25T1300,3180A,99.7136,27.8094,迪庆藏族自治州,质量技术监督局,,22,13,16,7,8,68,,52,52,9,10,6,5,0.3,0.4
2024-09-25T1300,2663A,104.6241,35.5734,定西市,东关小学,,32,25,32,15,27,101,,87,81,4,9,6,7,0.2,0.2
2024-09-25T1300,2664A,104.6194,35.5934,定西市,供电公司,,33,28,37,10,27,103,,81,77,1,8,8,8,0.2,0.2
2024-09-25T1300,1389A,113.7547,23.0494,东莞市,莞城梨川,,47,19,25,11,17,149,,45,45,18,24,6,6,0.8,0.8
2024-09-25T1300,1390A,113.7944,23.0128,东莞市,东城石井,臭氧1小时,60,26,27,17,18,168,,45,45,18,29,6,5,0.7,0.7
2024-09-25T1300,1391A,113.7383,22.9658,东莞市,南城西平,,50,23,29,15,21,158,,50,50,17,30,5,5,0.8,0.9
2024-09-25T1300,3319A,113.7338,23.0381,东莞市,万江金泰,,50,22,29,12,18,157,,47,47,16,24,8,7,0.6,0.6
2024-09-25T1300,3626A,113.7533,23.0202,东莞市,南城元岭,,47,29,29,15,20,149,,44,44,16,25,6,7,0.7,0.8
2024-09-25T1300,3627A,113.7875,23.0457,东莞市,东城主山,臭氧1小时,57,31,30,17,17,165,,49,49,18,26,7,6,0.6,0.6
2024-09-25T1300,1666A,118.6614,37.4309,东营市,市环保局,臭氧1小时,104,46,49,19,24,208,,125,125,16,31,7,12,0.3,0.4
2024-09-25T1300,3036A,118.6904,37.4338,东营市,开发区管委会,臭氧1小时,102,54,59,24,29,203,,115,115,14,32,6,11,0.3,0.4
2024-09-25T1300,3365A,118.5719,37.565,东营市,垦利区民丰路,臭氧1小时,87,58,51,27,28,189,,114,114,15,28,9,9,0.4,0.5
2024-09-25T1300,3498A,118.5055,37.8612,东营市,河口城区,臭氧1小时,92,68,56,32,31,193,,118,118,11,17,14,8,0.6,0.4
2024-09-25T1300,3646A,118.4978,37.4623,东营市,胜利站,臭氧1小时,102,56,49,19,32,204,,108,108,12,28,11,15,0.2,0.6
2024-09-25T1300,3734A,118.35,37.26,东营市,理想之城,臭氧1小时,97,44,56,19,35,197,,109,109,17,33,10,9,0.1,0.4
2024-09-25T1300,1591A,110.0023,39.8129,鄂尔多斯市,综合楼,,33,22,44,3,10,105,,58,58,10,27,12,14,0.5,0.5
2024-09-25T1300,1593A,109.7736,39.5986,鄂尔多斯市,康泽苑,,34,9,31,3,10,108,,58,58,3,12,8,8,0.3,0.4
2024-09-25T1300,1594A,109.8119,39.5989,鄂尔多斯市,华泰汽车城,,33,19,32,3,13,105,,55,55,3,16,8,9,0.3,0.5
2024-09-25T1300,1595A,109.9734,39.7884,鄂尔多斯市,奥林花园,,32,14,41,7,12,100,,48,48,9,30,6,6,0.5,0.5
2024-09-25T1300,2436A,114.8938,30.3994,鄂州市,市政府,臭氧1小时,104,48,57,30,32,208,,118,118,18,30,20,16,1.6,1.2
2024-09-25T1300,2437A,114.8989,30.3714,鄂州市,赵家坝,臭氧1小时,104,57,65,23,30,207,,113,113,17,34,16,16,1.1,1.1
2024-09-25T1300,3654A,114.8094,30.4089,鄂州市,精准医疗中心,臭氧1小时,110,56,64,33,34,220,,121,121,18,30,14,14,1.1,1.1
2024-09-25T1300,2454A,109.4978,30.2981,恩施土家族苗族自治州,湖北民院,,49,49,37,26,29,120,,70,70,18,18,9,9,0.6,0.6
2024-09-25T1300,2455A,109.4707,30.2798,恩施土家族苗族自治州,州电力总公司,颗粒物(PM10),51,51,37,28,25,120,,66,66,25,28,10,9,0.9,0.9
2024-09-25T1300,3549A,109.5061,30.3772,恩施土家族苗族自治州,龙凤新区,,43,40,36,30,27,130,,75,75,12,16,7,7,0.7,0.7
2024-09-25T1300,2499A,108.3411,21.6158,防城港市,沙万,,32,32,42,19,25,88,,72,72,7,15,8,8,0.7,0.7
2024-09-25T1300,2500A,108.3514,21.7731,防城港市,防城档案局,,29,29,66,20,36,77,,57,57,9,19,8,8,0.7,0.7
2024-09-25T1300,2501A,108.3506,21.6414,防城港市,大海花园,,32,26,45,22,30,86,,69,66,8,12,6,7,0.9,0.9
2024-09-25T1300,1371A,113.1294,23.0067,佛山市,湾梁,,36,36,36,25,16,111,,37,37,28,41,7,7,0.8,0.9
2024-09-25T1300,1372A,113.1083,23.0478,佛山市,华材职中,颗粒物(PM10),51,51,39,27,21,114,,32,32,36,45,8,7,0.7,0.7
2024-09-25T1300,1373A,113.144,23.0453,佛山市,南海气象局,颗粒物(PM10),52,53,35,26,17,100,,32,32,30,34,7,6,0.7,0.7
2024-09-25T1300,1374A,113.2881,22.8094,佛山市,顺德苏岗,,48,,31,19,21,151,,45,45,15,37,8,8,0.8,0.9
2024-09-25T1300,1376A,112.8383,22.8678,佛山市,高明孔堂,,48,48,43,26,24,117,,41,41,22,31,5,5,0.6,0.6
2024-09-25T1300,1377A,112.8836,23.1588,佛山市,三水监测站,,50,39,21,35,20,124,,40,40,18,22,6,6,0.6,0.7
2024-09-25T1300,1378A,112.867,23.185,佛山市,三水云东海,细颗粒物(PM2.5),62,60,21,44,19,96,,31,31,28,19,9,7,0.8,0.8
2024-09-25T1300,3625A,113.2544,22.7642,佛山市,容桂街道办,,45,29,33,22,26,142,,41,41,20,45,7,7,0.8,0.9
2024-09-25T1300,1282A,119.2681,26.0504,福州市,师大,,28,14,18,3,12,88,,39,39,5,17,2,2,0.6,0.7
2024-09-25T1300,1283A,119.2984,26.1028,福州市,五四北路,,33,6,17,3,13,104,,42,42,7,18,3,3,0.4,0.6
2024-09-25T1300,1284A,119.2648,26.0768,福州市,杨桥西路,,32,15,18,3,11,100,,43,43,5,17,3,3,0.6,0.7
2024-09-25T1300,1285A,119.317,26.0746,福州市,紫阳,,32,21,21,3,13,100,,34,34,10,25,3,3,0.6,0.6
2024-09-25T1300,3048A,119.5799,26.0936,福州市,九龙,,28,8,17,3,9,87,,46,46,2,4,6,6,0.4,0.5
2024-09-25T1300,3526A,119.5189,25.9664,福州市,吴航,,29,10,24,9,16,90,,38,38,10,18,5,6,0.6,0.7
2024-09-25T1300,1755A,123.7977,41.8491,抚顺市,望花区,,17,12,28,9,12,52,,63,45,10,19,10,13,0.4,0.6
2024-09-25T1300,1756A,123.9161,41.8822,抚顺市,顺城区,,18,18,30,7,14,51,,29,29,11,26,4,7,0.4,0.7
2024-09-25T1300,1757A,124.0436,41.8611,抚顺市,东洲区,,26,26,25,14,16,29,,50,28,28,18,5,8,0.6,0.5
2024-09-25T1300,1758A,123.9247,41.8642,抚顺市,新抚区,,18,18,32,3,9,50,,26,21,16,30,3,4,0.3,0.4
2024-09-25T1300,1759A,124.0972,41.8961,抚顺市,大伙房水库,,48,48,22,13,11,36,,66,46,20,8,6,6,0.6,0.4
2024-09-25T1300,1760A,123.7086,41.8391,抚顺市,沈抚新城,,20,20,27,13,13,55,,51,46,14,23,7,8,0.2,0.3
2024-09-25T1300,2376A,116.2127,28.0814,抚州市,桐源党溪,,38,38,41,25,22,103,,52,52,3,8,7,9,0.7,0.6
2024-09-25T1300,2377A,116.3544,27.9831,抚州市,市站,,32,32,34,19,19,92,,53,53,8,14,3,2,1.0,1
2024-09-25T1300,2378A,116.3565,27.963,抚州市,血防站,,38,36,35,26,24,99,,57,57,8,16,11,8,0.9,0.8
2024-09-25T1300,2379A,116.3564,28.0007,抚州市,采茶剧团,,31,29,31,15,19,98,,52,52,4,9,8,6,0.5,0.5
2024-09-25T1300,2380A,116.385,27.9647,抚州市,医学分院,,34,34,35,13,15,95,,55,55,5,11,4,4,0.7,0.6
2024-09-25T1300,2207A,121.6094,41.998,阜新市,工业园区,,30,16,37,12,29,96,,85,75,7,13,6,12,0.4,0.7
2024-09-25T1300,2208A,121.6697,42.0279,阜新市,长青街,,28,,33,9,20,89,,86,71,5,10,5,9,0.4,0.6
2024-09-25T1300,2209A,121.6673,42.0705,阜新市,农业园区,,,11,31,,23,86,,83,71,6,11,4,7,0.2,0.5
2024-09-25T1300,2210A,121.6717,42.0224,阜新市,东苑,,29,6,30,3,14,92,,91,76,6,11,2,6,0.5,0.7
2024-09-25T1300,2211A,121.6506,42.0498,阜新市,玉龙新城,,31,,32,9,19,98,,83,77,6,12,7,11,0.4,0.6
2024-09-25T1300,2301A,115.8277,32.8929,阜阳市,市监测站,臭氧1小时,82,54,56,23,31,185,,105,105,9,23,8,8,0.4,0.5
2024-09-25T1300,2303A,115.8554,32.8605,阜阳市,开发区,臭氧1小时,83,52,65,28,33,186,,95,95,13,28,7,8,0.6,0.6
2024-09-25T1300,2875A,115.784,32.8892,阜阳市,阜阳职业技术学院,臭氧1小时,82,48,45,30,21,185,,118,118,12,17,7,7,0.5,0.5
2024-09-25T1300,3468A,115.7901,32.8613,阜阳市,市规划展馆,,,35,53,19,29,182,,111,111,14,22,,8,0.3,0.4
2024-09-25T1300,3469A,115.836,32.9183,阜阳市,枣园社区,臭氧1小时,78,49,55,22,33,182,,93,93,12,34,8,8,0.5,0.6
2024-09-25T1300,2669A,102.9099,34.9841,甘南藏族自治州,州政府,,28,,30,19,18,87,,44,44,2,15,11,11,0.1,0.3
2024-09-25T1300,3380A,102.8914,34.9617,甘南藏族自治州,甘肃民族师范学院,,26,,32,10,14,83,,43,43,5,21,4,5,0.3,0.6
2024-09-25T1300,2570A,101.9603,30.0475,甘孜藏族自治州,水桥子,,16,,12,11,7,42,,14,14,12,19,6,5,0.3,0.3
2024-09-25T1300,3065A,101.9533,29.9972,甘孜藏族自治州,州环保局,,18,13,13,6,5,55,,24,24,13,20,3,3,0.2,0.2
2024-09-25T1300,3414A,115.8347,28.932,赣江新区,桑海产业园,,49,41,47,21,21,156,,80,80,11,29,12,13,0.3,0.3
2024-09-25T1300,2362A,114.9017,25.9149,赣州市,通天岩,,30,30,30,19,23,55,,47,45,5,3,4,8,0.3,0.4
2024-09-25T1300,2363A,114.9367,25.8664,赣州市,地委,,35,35,22,22,20,67,,51,47,15,9,2,9,1.0,0.9
2024-09-25T1300,2364A,114.9461,25.8481,赣州市,气象台,,46,46,25,19,18,58,,52,42,12,8,9,9,0.5,0.5
2024-09-25T1300,2365A,114.9322,25.8333,赣州市,市图书馆,,33,33,25,13,14,61,,58,39,14,9,5,5,0.7,0.6
2024-09-25T1300,2366A,114.8905,25.8471,赣州市,华坚鞋城,,34,34,23,22,14,61,,36,36,12,10,3,2,0.6,0.4
2024-09-25T1300,3109A,115.0093,25.8613,赣州市,赣县区卫计委,,44,44,23,20,14,54,,48,45,16,10,6,6,0.7,0.6
2024-09-25T1300,2683A,106.2319,36.1417,固原市,马园,,34,6,55,3,13,108,,82,82,8,16,6,7,0.7,0.8
2024-09-25T1300,2684A,106.2792,36.0022,固原市,监测站,,,,35,5,13,105,,90,90,6,12,3,4,0.2,0.2
2024-09-25T1300,2685A,106.2375,36.0211,固原市,新区,,32,10,38,8,16,102,,89,89,4,8,5,6,0.3,0.4
2024-09-25T1300,3522A,106.2177,35.9959,固原市,原州区十五小,,33,6,35,3,14,104,,90,89,3,11,5,6,0.4,0.5
2024-09-25T1300,2544A,106.6303,30.4576,广安市,市委,颗粒物(PM10),53,55,49,34,35,156,,88,88,19,14,9,3,0.6,0.5
2024-09-25T1300,2545A,106.6271,30.4663,广安市,友谊中学,,50,44,45,35,34,153,,91,91,21,16,9,4,0.8,0.6
2024-09-25T1300,2547A,106.6388,30.4551,广安市,广电花园,颗粒物(PM10),57,64,51,37,35,149,,86,86,21,15,6,2,0.6,0.5
2024-09-25T1300,2902A,106.6351,30.4865,广安市,北辰小学,颗粒物(PM10),58,65,57,30,34,155,,87,87,19,15,14,7,0.8,0.5
2024-09-25T1300,2523A,105.8945,32.4535,广元市,黑石坡,,31,29,34,16,27,99,,47,47,8,18,6,8,0.4,0.5
2024-09-25T1300,2524A,105.821,32.4444,广元市,老城,,32,15,45,7,23,100,,56,56,6,35,3,3,0.8,1.1
2024-09-25T1300,2526A,105.8628,32.4287,广元市,监测站,,35,17,38,3,25,110,,62,62,7,19,1,4,0.7,0.9
2024-09-25T1300,3617A,105.8047,32.4166,广元市,经开区,,31,26,64,16,44,99,,45,45,7,32,4,12,0.6,0.9
2024-09-25T1300,1345A,113.2347,23.1423,广州市,广雅中学,,48,48,35,28,19,111,,28,28,35,39,5,6,1.0,1
2024-09-25T1300,1346A,113.2612,23.105,广州市,市五中,颗粒物(PM10),71,91,52,40,24,123,,37,37,24,32,5,5,0.7,1
2024-09-25T1300,1348A,113.3478,23.0916,广州市,广东商学院,,46,43,28,32,19,113,,31,31,31,36,4,4,0.8,0.8
2024-09-25T1300,1349A,113.4332,23.1047,广州市,市八十六中,,34,30,29,18,16,107,,29,29,19,35,3,4,0.6,0.7
2024-09-25T1300,1350A,113.3505,22.9483,广州市,番禺中学,,44,32,31,18,19,138,,46,46,20,39,5,5,0.8,0.8
2024-09-25T1300,1351A,113.2146,23.3916,广州市,花都师范,细颗粒物(PM2.5),62,53,26,44,18,107,,32,32,21,15,8,4,1.1,0.8
2024-09-25T1300,1353A,113.5618,23.312,广州市,九龙镇镇龙,,34,34,20,23,13,71,,29,29,24,15,6,6,0.7,0.7
2024-09-25T1300,1354A,113.2765,23.1544,广州市,麓湖,,40,40,30,26,18,121,,31,31,25,30,5,5,0.7,0.7
2024-09-25T1300,1355A,113.443,23.3035,广州市,帽峰山森林公园,,29,27,15,18,10,92,,31,31,21,17,5,4,0.5,0.4
2024-09-25T1300,2846A,113.3221,23.1322,广州市,体育西,,44,44,30,30,20,106,,24,24,28,32,5,5,0.8,0.8
2024-09-25T1300,3298A,113.5717,23.5491,广州市,从化街口,,31,21,26,19,16,99,,30,30,11,20,8,9,0.7,0.8
2024-09-25T1300,3299A,113.3472,23.3692,广州市,白云竹料,,,39,26,27,18,99,,35,35,26,16,5,5,,0.7
2024-09-25T1300,3300A,113.2981,23.237,广州市,白云嘉禾,颗粒物(PM10),52,53,36,24,17,118,,28,28,33,39,7,6,1.1,1.1
2024-09-25T1300,3301A,113.4256,23.1716,广州市,黄埔科学城,,32,32,22,20,14,95,,31,31,24,21,6,6,0.8,0.7
2024-09-25T1300,3302A,113.3942,23.0483,广州市,番禺大学城,,49,49,34,22,17,135,,36,36,22,36,6,9,0.4,0.4
2024-09-25T1300,3303A,113.4922,22.8168,广州市,南沙黄阁,,48,46,33,30,23,151,,46,46,31,41,5,5,0.7,0.7
2024-09-25T1300,3304A,113.5342,22.7896,广州市,南沙街,细颗粒物(PM2.5),88,,30,65,19,166,,48,48,23,35,6,7,0.8,0.7
2024-09-25T1300,3443A,113.2902,23.5544,广州市,花都梯面,,25,25,21,16,14,69,,28,28,12,10,6,6,0.7,0.8
2024-09-25T1300,3445A,113.7858,23.7478,广州市,从化良口,,27,15,15,12,9,86,,28,28,6,9,6,6,0.8,0.8
2024-09-25T1300,3446A,113.8051,23.2614,广州市,增城荔城,细颗粒物(PM2.5),58,43,20,41,15,139,,46,46,13,11,8,6,0.6,0.5
2024-09-25T1300,2506A,109.6047,23.0666,贵港市,江南子站,,19,14,35,13,26,52,,48,46,17,14,7,8,0.7,0.8
2024-09-25T1300,2507A,109.6014,23.0948,贵港市,贵城子站,,26,19,39,18,30,55,,49,49,14,13,6,7,0.7,0.7
2024-09-25T1300,2508A,109.5669,23.1065,贵港市,荷城子站,,22,22,36,9,22,60,,54,54,14,12,9,11,0.6,0.6
2024-09-25T1300,3405A,109.5886,23.1172,贵港市,新世纪学校,,21,17,35,10,23,67,,52,52,7,10,7,8,0.7,0.8
2024-09-25T1300,1439A,106.6899,26.5998,贵阳市,马鞍山,,46,27,28,9,14,147,,70,70,13,15,7,6,0.6,0.6
2024-09-25T1300,1440A,106.6971,26.5694,贵阳市,市环保站,,49,27,38,20,27,154,,90,90,6,17,5,6,0.4,0.4
2024-09-25T1300,1441A,106.6243,26.6266,贵阳市,鉴湖路,,49,39,38,22,19,156,,76,76,12,16,6,6,0.5,0.4
2024-09-25T1300,1442A,106.7487,26.6343,贵阳市,燕子冲,,45,24,26,17,22,144,,75,75,6,15,8,6,0.3,0.4
2024-09-25T1300,1443A,106.6555,26.4365,贵阳市,碧云窝,,,34,52,17,21,157,,74,74,,18,5,5,,0.4
2024-09-25T1300,1444A,106.694,26.5161,贵阳市,中院村,,49,34,43,17,26,156,,72,72,7,27,7,8,0.5,0.5
2024-09-25T1300,1445A,106.7109,26.6027,贵阳市,红边门,,46,31,39,27,28,146,,79,79,10,20,6,6,0.4,0.5
2024-09-25T1300,1446A,106.7164,26.5699,贵阳市,新华路,,46,19,32,17,22,145,,93,93,6,15,6,7,0.3,0.3
2024-09-25T1300,1447A,106.674,26.5424,贵阳市,太慈桥,,48,27,35,17,20,151,,75,75,8,18,6,6,0.3,0.4
2024-09-25T1300,1862A,110.4144,25.3167,桂林市,电子科大尧山校区,,48,47,44,33,29,117,,101,101,6,10,7,7,0.7,0.6
2024-09-25T1300,1863A,110.2819,25.2697,桂林市,监测站,细颗粒物(PM2.5),52,52,48,36,30,115,,96,96,9,12,9,11,0.8,0.8
2024-09-25T1300,1864A,110.3089,25.2708,桂林市,龙隐路小学,颗粒物(PM10),61,71,47,39,32,115,,97,97,6,10,10,16,0.7,0.6
2024-09-25T1300,1865A,110.2869,25.2178,桂林市,八中,细颗粒物(PM2.5),55,56,48,39,34,110,,85,85,12,13,10,12,0.5,0.6
2024-09-25T1300,3403A,110.1764,25.2381,桂林市,创业大厦,细颗粒物(PM2.5),58,58,53,41,38,115,,75,75,11,14,10,18,0.6,0.5
2024-09-25T1300,3531A,110.296,25.1253,桂林市,旅游学院,,33,24,44,22,33,104,,69,69,4,13,10,12,0.4,0.4
2024-09-25T1300,2674A,100.2561,34.4714,果洛藏族自治州,玛沁县大武镇,,33,19,28,6,15,104,,54,54,2,6,9,9,0.4,0.4
2024-09-25T1300,1129A,126.5422,45.755,哈尔滨市,岭北,,33,8,25,3,13,103,,79,79,6,17,6,7,0.7,0.7
2024-09-25T1300,1130A,126.561,45.8167,哈尔滨市,松北商大,,,21,29,,13,77,,55,55,10,25,7,8,0.3,0.5
2024-09-25T1300,1131A,126.979,45.5419,哈尔滨市,阿城会宁,,24,,32,7,12,74,,50,50,15,18,12,11,0.6,0.5
2024-09-25T1300,1132A,126.599,45.7222,哈尔滨市,南岗学府路,,29,14,41,3,12,90,,53,53,7,21,6,7,0.4,0.5
2024-09-25T1300,1133A,126.689,45.7733,哈尔滨市,太平宏伟公园,,27,,32,12,14,84,,47,47,13,23,6,8,0.4,0.5
2024-09-25T1300,1134A,126.635,45.7667,哈尔滨市,道外承德广场,,27,16,36,12,18,86,,50,50,11,32,5,6,0.4,0.4
2024-09-25T1300,1135A,126.685,45.7319,哈尔滨市,香坊红旗大街,,29,22,36,8,14,90,,46,46,8,29,7,8,0.4,0.6
2024-09-25T1300,1136A,126.6411,45.7258,哈尔滨市,动力和平路,,28,,31,12,17,89,,49,49,10,23,5,7,0.5,0.6
2024-09-25T1300,1137A,126.593,45.7478,哈尔滨市,道里建国路,,28,16,33,9,15,89,,51,51,10,24,5,9,0.2,1
2024-09-25T1300,1138A,126.615,45.61,哈尔滨市,平房东轻厂,,26,,30,10,14,83,,47,47,11,17,8,6,0.4,0.5
2024-09-25T1300,1139A,126.595,45.9855,哈尔滨市,呼兰师专,,24,,32,9,17,75,,60,60,11,27,9,9,0.5,0.7
2024-09-25T1300,1140A,126.6206,45.6842,哈尔滨市,省农科院,,25,6,45,3,19,79,,43,43,13,37,2,3,0.3,0.4
2024-09-25T1300,2688A,93.5128,42.8172,哈密市,地区监测站,颗粒物(PM10),67,83,69,17,24,62,,82,76,35,33,5,4,0.3,0.3
2024-09-25T1300,2689A,93.4961,42.8328,哈密市,哈密师范学校,颗粒物(PM10),61,72,58,30,25,54,,75,69,35,37,5,5,0.4,0.4
2024-09-25T1300,2671A,100.9048,36.9639,海北藏族自治州,海晏县西海镇,,33,,29,21,20,103,,83,78,7,7,18,16,0.4,0.4
2024-09-25T1300,3867A,102.0738,36.5056,海东市,平安区公安北苑,,39,39,50,18,18,102,,58,56,6,14,9,15,0.3,0.4
2024-09-25T1300,1410A,110.3232,20.0574,海口市,海南大学,,,,10,,7,109,,64,64,,14,,6,0.5,0.5
2024-09-25T1300,1412A,110.338,19.9969,海口市,海南师范大学,,39,16,16,8,8,123,,68,68,10,16,6,5,0.5,0.6
2024-09-25T1300,1413A,110.33,20.0356,海口市,龙华路环保局宿舍,,36,17,15,7,10,113,,73,73,7,13,4,4,0.4,0.5
2024-09-25T1300,3539A,110.5111,19.9736,海口市,桂林洋子站,,40,14,18,9,11,127,,64,64,7,12,6,6,0.4,0.5
2024-09-25T1300,2673A,100.6188,36.2866,海南藏族自治州,共和县恰卜恰镇,,33,30,40,23,15,97,,62,62,4,13,17,10,0.6,0.5
2024-09-25T1300,2676A,97.3731,37.3753,海西蒙古族藏族自治州,德令哈市,,36,36,33,15,14,94,,74,74,6,7,10,9,0.4,0.4
2024-09-25T1300,1048A,114.5302,36.6116,邯郸市,东污水处理厂,细颗粒物(PM2.5),107,110,87,80,51,145,,77,77,26,34,4,3,1.0,0.6
2024-09-25T1300,1049A,114.4918,36.5713,邯郸市,矿院,细颗粒物(PM2.5),100,108,88,75,48,145,,81,81,19,26,5,5,0.9,0.4
2024-09-25T1300,1050A,114.484,36.6133,邯郸市,丛台公园,细颗粒物(PM2.5),82,79,82,60,48,148,,85,85,17,25,6,4,1.0,0.6
2024-09-25T1300,3458A,114.7895,36.5593,邯郸市,香泉濮院小区,颗粒物(PM10),91,131,99,64,43,159,,81,81,25,26,5,4,0.5,0.4
2024-09-25T1300,3579A,114.50634,36.77178,邯郸市,永年区实验高中,,,120,102,63,52,150,,92,92,26,33,,5,1.3,0.8
2024-09-25T1300,3580A,114.20016,36.44293,邯郸市,峰峰矿区临水派出所,颗粒物(PM10),80,110,108,49,52,152,,115,115,15,20,8,11,1.0,1.2
2024-09-25T1300,2634A,106.9893,33.1842,汉中市,汉川机床厂子校,,43,42,37,24,24,135,,70,70,7,10,7,5,0.6,0.5
2024-09-25T1300,2635A,107.0154,33.0706,汉中市,市监测站,细颗粒物(PM2.5),62,62,76,44,47,158,,67,67,11,24,11,12,0.8,0.8
2024-09-25T1300,2636A,107.0089,33.1138,汉中市,鑫源开发区,颗粒物(PM10),55,59,63,35,41,157,,68,68,13,26,13,15,0.7,0.8
2024-09-25T1300,2637A,107.007,33.0323,汉中市,南郑大河坎水厂,,47,47,63,30,47,142,,64,64,9,17,10,9,0.6,0.7
2024-09-25T1300,1223A,120.2072,30.2111,杭州市,滨江,臭氧1小时,52,51,58,24,27,161,,81,81,21,22,5,4,0.8,0.8
2024-09-25T1300,1224A,120.0633,30.2747,杭州市,西溪,臭氧1小时,57,45,48,25,29,165,,91,91,20,26,7,5,0.8,0.8
2024-09-25T1300,1226A,120.3461,30.3153,杭州市,下沙,臭氧1小时,60,51,41,30,26,168,,102,102,33,39,7,6,0.8,0.8
2024-09-25T1300,1227A,120.1269,30.2456,杭州市,卧龙桥,臭氧1小时,69,44,44,28,33,175,,86,86,22,24,7,6,0.6,0.6
2024-09-25T1300,1228A,120.1903,30.2692,杭州市,浙江农大,,49,41,42,26,31,155,,105,105,27,28,9,8,0.6,0.6
2024-09-25T1300,1230A,120.1197,30.3119,杭州市,和睦小学,,,43,48,25,26,176,,99,99,23,26,7,6,,0.8
2024-09-25T1300,1231A,120.3019,30.4183,杭州市,临平镇,颗粒物(PM10),66,82,60,36,30,162,,97,97,18,25,5,5,0.9,0.8
2024-09-25T1300,1232A,120.2697,30.1819,杭州市,城厢镇,臭氧1小时,64,47,48,30,36,171,,90,90,21,25,7,6,0.8,0.8
2024-09-25T1300,1233A,120.0883,30.1808,杭州市,云栖,,46,40,38,25,26,145,,67,67,22,26,7,6,0.9,0.8
2024-09-25T1300,3557A,119.9464,30.0494,杭州市,镇二中,,49,40,45,29,33,154,,90,90,18,25,8,7,0.7,0.8
2024-09-25T1300,3558A,119.7183,30.2367,杭州市,市府大楼,臭氧1小时,63,48,45,35,26,170,,94,94,14,19,7,6,0.7,0.7
2024-09-25T1300,3656A,120.1556,30.2864,杭州市,消防大队,臭氧1小时,54,48,51,27,31,163,,105,105,23,24,9,8,0.9,0.8
2024-09-25T1300,1270A,117.1959,31.7848,合肥市,明珠广场,臭氧1小时,58,51,49,19,21,166,,87,87,18,44,8,7,0.7,0.7
2024-09-25T1300,1271A,117.3072,31.8764,合肥市,三里街,,48,41,44,19,21,151,,78,78,18,33,10,8,0.4,0.5
2024-09-25T1300,1272A,117.2588,31.8707,合肥市,琥珀山庄,臭氧1小时,63,53,44,28,24,170,,94,94,17,31,10,8,0.5,0.5
2024-09-25T1300,1273A,117.1604,31.9052,合肥市,董铺水库,颗粒物(PM10),52,53,51,19,23,150,,72,72,9,28,4,4,0.4,0.4
2024-09-25T1300,1274A,117.25,31.8571,合肥市,长江中路,臭氧1小时,57,51,51,30,25,165,,96,96,17,32,9,8,0.5,0.6
2024-09-25T1300,1275A,117.266,31.9436,合肥市,庐阳区,臭氧1小时,79,41,61,24,29,183,,87,87,12,43,6,6,0.5,0.5
2024-09-25T1300,1276A,117.336,31.8586,合肥市,瑶海区,颗粒物(PM10),51,51,51,21,23,148,,71,71,18,49,5,4,0.4,0.5
2024-09-25T1300,1277A,117.3027,31.7964,合肥市,包河区,颗粒物(PM10),53,56,57,22,28,141,,63,63,25,70,16,16,0.6,0.6
2024-09-25T1300,1278A,117.2776,31.7385,合肥市,滨湖新区,,,63,44,31,20,159,,84,84,,43,8,6,0.6,0.6
2024-09-25T1300,1279A,117.1318,31.8403,合肥市,高新区,,49,41,45,18,24,154,,75,75,14,43,8,8,0.6,0.7
2024-09-25T1300,3464A,117.3803,31.9147,合肥市,高教基地,,48,38,35,12,22,153,,73,73,6,23,6,4,0.3,0.3
2024-09-25T1300,3614A,79.924,37.0877,和田地区,地区环保局,颗粒物(PM10),117,184,200,63,64,95,,64,64,6,15,9,8,0.6,0.7
2024-09-25T1300,3615A,79.9131,37.113,和田地区,市环保局,颗粒物(PM10),114,178,251,79,70,93,,52,52,7,34,9,8,0.6,0.8
2024-09-25T1300,2516A,108.2011,24.715,河池市,东仁乐园,颗粒物(PM10),56,62,44,33,22,127,,65,65,7,10,7,7,0.6,0.5
2024-09-25T1300,2517A,108.0497,24.6947,河池市,市环保站,,43,43,34,25,29,130,,71,71,7,14,11,12,0.5,0.5
2024-09-25T1300,2518A,108.0983,24.6989,河池市,市疾控中心,,,,53,,40,127,,63,63,11,19,11,13,0.6,0.6
2024-09-25T1300,1696A,114.6778,23.7569,河源市,源西,,23,23,18,12,13,44,,16,16,7,16,4,4,0.7,0.7
2024-09-25T1300,1697A,114.6944,23.7586,河源市,东埔,,44,44,23,10,13,55,,18,18,17,24,2,3,0.7,0.8
2024-09-25T1300,1698A,114.6892,23.7233,河源市,老城,,28,28,22,17,17,55,,18,18,10,17,3,3,0.7,0.8
2024-09-25T1300,1718A,115.4208,35.2464,菏泽市,气象局,臭氧1小时,103,77,62,23,25,205,,133,133,12,21,7,6,0.3,0.3
2024-09-25T1300,1719A,115.4747,35.2375,菏泽市,市政协,臭氧1小时,99,68,51,20,22,199,,132,132,10,16,6,6,0.3,0.3
2024-09-25T1300,3374A,115.5564,35.0891,菏泽市,定陶老年大学,臭氧1小时,101,66,55,22,21,201,,114,114,12,20,9,8,0.3,0.3
2024-09-25T1300,3647A,115.4702,35.2706,菏泽市,菏泽医专,臭氧1小时,98,73,53,25,18,198,,135,135,14,22,7,6,0.5,0.4
2024-09-25T1300,2514A,111.5264,24.4172,贺州市,环保小区,,38,38,38,26,25,74,,54,54,11,14,5,4,0.8,0.8
2024-09-25T1300,2515A,111.5608,24.4078,贺州市,政协大楼,,48,,43,33,30,80,,57,57,12,14,6,5,0.8,0.7
2024-09-25T1300,3534A,111.4744,24.4553,贺州市,西湾,,46,32,34,32,25,74,,50,50,9,11,6,6,0.7,0.6
2024-09-25T1300,2385A,114.17,35.9019,鹤壁市,市监测站,臭氧1小时,103,109,88,57,53,205,,123,123,19,22,10,6,1.3,1
2024-09-25T1300,2386A,114.2956,35.7511,鹤壁市,市交警支队,臭氧1小时,94,106,98,61,49,195,,98,98,27,36,16,7,1.3,0.8
2024-09-25T1300,2387A,114.2878,35.7306,鹤壁市,迎宾馆,臭氧1小时,97,123,104,59,58,197,,106,106,23,38,16,8,1.2,0.8
2024-09-25T1300,3474A,114.2617,35.6822,鹤壁市,大新区,细颗粒物(PM2.5),100,82,94,75,63,198,,102,102,22,43,15,11,1.1,0.8
2024-09-25T1300,3596A,114.1572,35.9603,鹤壁市,南山宾馆,臭氧1小时,100,101,93,50,64,200,,124,124,15,18,8,8,1.2,1
2024-09-25T1300,2244A,130.2537,47.3416,鹤岗市,哈啤分公司,,23,23,29,14,19,32,,38,32,7,7,14,15,0.6,0.6
2024-09-25T1300,2245A,130.2684,47.3086,鹤岗市,斯达机电,,29,23,33,20,22,30,,39,31,10,15,12,13,0.4,0.4
2024-09-25T1300,2246A,130.3114,47.3388,鹤岗市,东山纸板厂,,22,19,76,15,20,30,,33,33,16,21,17,17,0.3,0.4
2024-09-25T1300,2247A,130.1097,47.3382,鹤岗市,五号水库,,21,21,17,11,9,31,,42,40,16,7,18,17,0.5,0.5
2024-09-25T1300,2263A,127.4833,50.2524,黑河市,交通局,,28,22,23,19,18,63,,67,57,14,15,8,7,0.4,0.4
2024-09-25T1300,2264A,127.5144,50.2341,黑河市,环保局,,,24,18,19,14,75,,72,63,8,9,4,4,,0.5
2024-09-25T1300,2265A,127.5291,50.2472,黑河市,大黑河岛,,,,,21,16,67,,63,56,16,14,2,2,0.2,0.2
2024-09-25T1300,1074A,115.6838,37.7541,衡水市,电机北厂,颗粒物(PM10),70,90,74,36,40,154,,97,97,22,23,10,10,0.4,0.4
2024-09-25T1300,1075A,115.6303,37.7316,衡水市,市监测站,"颗粒物(PM10),细颗粒物(PM2.5)",74,98,76,54,37,139,,96,96,32,26,10,11,0.4,0.4
2024-09-25T1300,3188A,115.6683,37.7217,衡水市,市城管局,颗粒物(PM10),64,78,74,34,39,168,,101,101,18,24,11,9,0.4,0.4
2024-09-25T1300,3459A,115.5989,37.5491,衡水市,地表水厂,颗粒物(PM10),60,70,74,37,40,153,,71,71,18,36,9,9,0.5,0.4
2024-09-25T1300,2456A,112.5003,26.9167,衡阳市,原169医院,,,65,60,34,37,170,,78,78,10,24,12,14,,0.7
2024-09-25T1300,2457A,112.6194,26.9258,衡阳市,衡阳化工总厂,颗粒物(PM10),65,80,64,33,47,154,,89,89,7,16,10,12,0.7,0.7
2024-09-25T1300,2458A,112.6211,26.8956,衡阳市,珠晖区环保局,颗粒物(PM10),60,69,63,34,37,162,,86,86,12,20,10,11,0.9,0.9
2024-09-25T1300,2459A,112.6197,26.8733,衡阳市,市委党校,,,71,63,34,39,170,,89,89,12,19,13,14,,0.8
2024-09-25T1300,2460A,112.6006,26.8919,衡阳市,市监测站,颗粒物(PM10),64,77,62,38,41,169,,104,104,10,14,10,14,0.8,0.8
2024-09-25T1300,2461A,112.5664,26.9056,衡阳市,真空机电公司,颗粒物(PM10),59,67,63,34,35,160,,92,92,8,17,10,11,0.8,0.9
2024-09-25T1300,3399A,112.6703,26.882,衡阳市,师范学院,臭氧1小时,67,71,61,42,33,173,,87,87,13,16,14,11,0.8,0.8
2024-09-25T1300,2608A,103.3772,23.3993,红河哈尼族彝族自治州,污水处理厂,,35,18,30,17,25,112,,71,71,5,9,6,9,0.4,0.5
2024-09-25T1300,2609A,103.3861,23.35,红河哈尼族彝族自治州,监测站,,33,18,34,13,26,104,,77,77,4,6,8,9,0.4,0.5
2024-09-25T1300,3038A,103.3758,23.368,红河哈尼族彝族自治州,州图书馆,,32,17,31,11,17,102,,77,77,4,6,6,9,0.3,0.4
2024-09-25T1300,1090A,111.6507,40.7517,呼和浩特市,呼市一监,,30,6,6,3,2,94,,66,66,3,11,5,5,0.3,0.4
2024-09-25T1300,1091A,111.6572,40.8033,呼和浩特市,小召,,31,6,19,3,10,99,,66,66,7,20,6,7,0.4,0.5
2024-09-25T1300,1094A,111.7516,40.8369,呼和浩特市,如意水处理厂,,29,6,23,3,9,90,,57,57,6,25,6,7,0.3,0.4
2024-09-25T1300,1095A,111.7276,40.8062,呼和浩特市,二十九中,,30,6,24,3,12,94,,61,61,9,24,4,5,0.4,0.5
2024-09-25T1300,1096A,111.5512,40.7866,呼和浩特市,工大金川校区,,30,6,22,3,8,94,,55,55,11,26,3,3,0.3,0.5
2024-09-25T1300,1097A,111.717,40.7612,呼和浩特市,化肥厂生活区,,30,6,19,3,9,96,,71,71,5,19,8,9,0.4,0.6
2024-09-25T1300,3698A,111.5968,40.8178,呼和浩特市,红旗小学,,,9,20,3,10,94,,59,59,10,26,,4,0.3,0.4
2024-09-25T1300,3699A,111.6518,40.8389,呼和浩特市,海东办,,30,,23,3,15,96,,53,53,9,32,4,5,0.3,0.4
2024-09-25T1300,2192A,119.7594,49.2261,呼伦贝尔市,区环保局,,25,24,28,15,18,80,,29,29,10,22,6,7,0.4,0.5
2024-09-25T1300,3061A,119.7512,49.1577,呼伦贝尔市,国华电力东,,25,,24,17,16,76,,16,,9,10,2,2,0.4,0.3
2024-09-25T1300,1250A,120.0751,30.8669,湖州市,城西水厂,臭氧1小时,68,66,60,44,38,174,,88,88,19,39,6,6,0.6,0.5
2024-09-25T1300,2873A,120.0875,30.8955,湖州市,仁皇山新区,臭氧1小时,73,52,76,37,37,178,,96,96,16,35,9,9,0.8,0.7
2024-09-25T1300,2907A,120.1844,30.8596,湖州市,吴兴区站,,,42,52,33,32,158,,88,88,,33,7,6,0.8,0.7
2024-09-25T1300,3562A,120.4148,30.8538,湖州市,南浔区站,,49,34,53,23,38,154,,94,94,14,23,7,7,0.7,0.8
2024-09-25T1300,1607A,120.9092,40.7136,葫芦岛市,龙港区,,26,,33,6,21,83,,119,74,16,15,15,14,0.4,0.7
2024-09-25T1300,1608A,120.8392,40.7514,葫芦岛市,化工街,,26,6,40,3,20,83,,75,61,6,24,18,20,0.2,0.6
2024-09-25T1300,1609A,120.8341,40.7073,葫芦岛市,新区,,27,6,35,3,26,84,,106,73,12,23,17,14,0.3,0.6
2024-09-25T1300,1610A,120.8695,40.7677,葫芦岛市,东城区,,26,9,34,3,24,82,,74,61,7,23,12,13,0.1,0.5
2024-09-25T1300,2482A,109.5981,27.5721,怀化市,林科所,,46,43,33,26,20,146,,87,87,10,18,4,14,0.5,0.5
2024-09-25T1300,2483A,109.9453,27.5444,怀化市,河西地税局,,49,47,45,32,28,154,,78,78,8,18,9,8,0.6,0.7
2024-09-25T1300,2484A,109.9781,27.5342,怀化市,市四医院,颗粒物(PM10),57,63,54,32,33,150,,86,86,6,20,9,9,0.5,0.5
2024-09-25T1300,2485A,109.9972,27.5578,怀化市,监测楼,,47,41,54,20,27,150,,85,85,7,18,5,5,0.4,0.4
2024-09-25T1300,2486A,110.0394,27.583,怀化市,市委党校,,46,45,54,27,38,147,,87,87,7,27,14,8,0.7,0.7
2024-09-25T1300,1210A,119.036,33.5981,淮安市,钵池山,,35,27,36,24,24,96,,60,60,9,18,5,7,0.5,0.8
2024-09-25T1300,1211A,119.007,33.575,淮安市,北京南路,,33,31,45,23,32,97,,54,54,10,24,6,7,0.4,0.5
2024-09-25T1300,1212A,118.989,33.6067,淮安市,市监测站,,32,27,43,17,28,101,,55,55,15,32,6,7,0.5,0.6
2024-09-25T1300,1213A,119.135,33.5039,淮安市,楚州区监测站,,39,39,54,15,24,88,,45,45,9,24,6,6,0.8,0.9
2024-09-25T1300,1214A,119.0186,33.6297,淮安市,淮阴区监测站,,32,29,45,20,26,100,,56,56,13,27,3,3,0.4,0.5
2024-09-25T1300,3426A,118.8755,33.2894,淮安市,新华书店,颗粒物(PM10),51,52,44,31,20,81,,106,86,24,17,8,8,0.8,0.8
2024-09-25T1300,2282A,116.8004,33.975,淮北市,监测站,,48,34,39,17,19,152,,106,106,8,16,8,8,0.4,0.6
2024-09-25T1300,2283A,116.8091,33.9007,淮北市,烈山区政府,,48,28,48,16,25,151,,101,101,7,23,8,8,0.4,0.6
2024-09-25T1300,3330A,116.8873,33.9836,淮北市,杜集区检察院,,48,30,47,13,25,152,,96,96,2,11,9,9,0.5,0.6
2024-09-25T1300,4017A,116.7923,33.9535,淮北市,市博物馆,,48,24,40,16,24,153,,102,102,10,19,8,8,0.5,0.7
2024-09-25T1300,2277A,116.8305,32.7727,淮南市,潘集区政府,,49,41,66,31,38,155,,87,87,13,31,8,7,0.4,0.4
2024-09-25T1300,2278A,117.0067,32.6524,淮南市,师范学院,臭氧1小时,78,47,66,41,39,182,,115,115,9,25,11,8,0.6,0.6
2024-09-25T1300,2279A,116.8569,32.5951,淮南市,谢家集区政府,臭氧1小时,90,50,61,40,43,192,,120,120,14,27,10,13,0.5,0.6
2024-09-25T1300,2280A,116.8281,32.633,淮南市,八公山区政府,臭氧1小时,78,65,73,35,44,182,,102,102,14,19,14,11,0.5,0.4
2024-09-25T1300,2281A,116.6325,32.6201,淮南市,焦岗湖风景区管理处,,42,36,52,21,24,133,,71,71,5,20,7,6,0.1,0.1
2024-09-25T1300,2894A,117.0566,32.6531,淮南市,经济技术开发区消防队,臭氧1小时,73,55,65,26,26,178,,102,102,16,39,12,7,0.3,0.3
2024-09-25T1300,3329A,117.0108,32.5893,淮南市,山南新区,臭氧1小时,78,62,65,29,31,182,,134,134,16,19,6,5,0.5,0.5
2024-09-25T1300,2446A,114.9028,30.4742,黄冈市,职工中心,臭氧1小时,103,64,68,33,40,205,,126,126,8,14,11,10,0.7,0.7
2024-09-25T1300,2929A,114.8858,30.4519,黄冈市,红卫路,臭氧1小时,105,51,56,30,35,210,,134,134,,23,12,11,0.8,0.8
2024-09-25T1300,3398A,114.9136,30.4445,黄冈市,市林业局,臭氧1小时,112,69,72,28,33,223,,138,138,12,22,13,12,0.7,0.7
2024-09-25T1300,2672A,102.0199,35.5102,黄南藏族自治州,同仁县隆务镇,,40,40,41,15,15,92,,58,58,5,6,7,7,0.4,0.4
2024-09-25T1300,2295A,118.2903,29.6963,黄山市,延安路89号,,40,28,43,8,11,125,,71,71,3,7,6,6,0.3,0.4
2024-09-25T1300,2296A,118.327,29.7178,黄山市,黄山东路89号,,37,26,36,10,15,116,,72,72,4,8,5,5,0.3,0.4
2024-09-25T1300,2297A,118.1371,30.2756,黄山市,黄山区政府5号楼,,40,22,30,20,20,125,,62,62,6,7,7,6,0.4,0.4
2024-09-25T1300,2423A,115.0601,30.2313,黄石市,沈家营,臭氧1小时,103,61,56,18,26,205,,122,122,10,23,14,16,0.7,0.7
2024-09-25T1300,2424A,115.0817,30.2006,黄石市,陈家湾,臭氧1小时,106,55,48,22,24,211,,141,139,12,14,15,15,1.0,0.9
2024-09-25T1300,2426A,114.8988,30.2019,黄石市,铁山,臭氧1小时,105,49,46,20,26,210,,151,151,10,15,10,10,0.6,0.4
2024-09-25T1300,2427A,115.0307,30.2092,黄石市,团城山,臭氧1小时,101,48,48,19,20,202,,136,136,9,14,12,12,0.6,0.7
2024-09-25T1300,3149A,115.0235,30.1578,黄石市,笔架山北路,臭氧1小时,95,34,44,22,21,196,,140,140,7,11,11,12,0.8,0.7
2024-09-25T1300,1392A,114.4183,23.0528,惠州市,河南岸金山湖子站,,23,20,17,16,13,70,,29,29,8,10,4,5,0.5,0.6
2024-09-25T1300,1393A,114.4053,23.0822,惠州市,下埔横江三路子站,,27,22,21,11,13,85,,34,34,9,12,3,4,0.6,0.7
2024-09-25T1300,1394A,114.4103,23.1142,惠州市,江北云山西路子站,,29,16,22,8,11,91,,35,35,5,13,4,5,0.6,0.6
2024-09-25T1300,1395A,114.4645,22.7833,惠州市,惠阳区承修路船湖子站,,20,7,23,6,17,62,,24,24,12,25,5,6,0.5,0.8
2024-09-25T1300,1396A,114.5317,22.7422,惠州市,大亚湾管委会子站,,20,8,16,3,10,62,,27,27,7,21,6,7,0.5,0.6
2024-09-25T1300,3314A,114.4338,22.8134,惠州市,惠阳秋长,,23,6,15,3,14,73,,31,31,10,22,5,5,0.5,0.7
2024-09-25T1300,3452A,114.6517,22.775,惠州市,大亚湾霞涌,,23,23,14,14,10,59,,30,30,6,10,4,4,0.5,0.6
2024-09-25T1300,2240A,130.9762,45.3001,鸡西市,环保局,,38,38,36,9,12,73,,38,38,1,15,5,6,0.2,0.3
2024-09-25T1300,2243A,130.9429,45.3039,鸡西市,第一中学,,27,27,33,7,10,76,,39,39,2,16,4,5,0.1,0.2
2024-09-25T1300,3707A,131.0207,45.3073,鸡西市,欧美日汽修厂,,30,28,38,21,13,74,,41,41,5,13,4,5,0.0,0.1
2024-09-25T1300,3709A,130.9967,45.3106,鸡西市,市政设施管理处,,49,49,45,6,14,74,,38,38,6,20,6,7,0.2,0.2
2024-09-25T1300,2367A,114.9754,27.0803,吉安市,红声器材厂,,48,48,46,28,25,111,,72,72,11,14,12,12,0.7,0.7
2024-09-25T1300,2368A,114.9658,27.0999,吉安市,市森林工业局,,,44,47,,30,103,,72,72,18,21,12,11,0.6,0.5
2024-09-25T1300,2369A,114.99,27.1312,吉安市,市环境监测站,,44,44,41,27,26,116,,76,76,10,13,26,18,0.7,0.6
2024-09-25T1300,2370A,115.0093,27.0968,吉安市,青原区法院,,48,48,42,31,26,104,,69,69,16,15,23,11,0.7,0.7
2024-09-25T1300,1772A,126.54,43.8622,吉林市,哈达湾,,25,25,23,17,13,58,,62,62,14,19,5,6,0.6,0.5
2024-09-25T1300,1773A,126.5844,43.8358,吉林市,东局子,,32,32,23,10,9,60,,64,64,16,17,4,4,0.7,0.6
2024-09-25T1300,1774A,126.5052,43.8245,吉林市,电力学院,,28,28,32,17,22,59,,55,55,12,22,2,3,0.6,0.6
2024-09-25T1300,1775A,126.6133,43.8972,吉林市,江北,,43,43,36,23,16,51,,60,60,22,16,6,6,0.7,0.7
2024-09-25T1300,1776A,126.555,43.8306,吉林市,江南公园,,29,29,28,18,13,62,,65,65,13,20,5,6,0.7,0.6
2024-09-25T1300,1778A,126.7061,43.7133,吉林市,丰满,,24,10,10,8,7,76,,65,65,6,3,5,5,0.7,0.6
2024-09-25T1300,2868A,126.4739,43.953,吉林市,九站,,33,33,37,18,15,56,,68,64,14,20,5,6,0.6,0.6
2024-09-25T1300,1299A,116.9862,36.6114,济南市,科干所,臭氧1小时,100,63,56,20,24,200,,125,125,15,36,8,8,0.6,0.7
2024-09-25T1300,1300A,116.9376,36.665,济南市,农科所,臭氧1小时,93,68,70,24,26,194,,103,103,20,48,7,6,0.5,0.6
2024-09-25T1300,1301A,117.1265,36.6734,济南市,开发区,臭氧1小时,102,66,54,29,27,203,,132,132,21,36,7,6,0.5,0.6
2024-09-25T1300,1303A,117.0624,36.6868,济南市,省种子仓库,臭氧1小时,93,73,66,27,26,194,,111,111,17,55,8,6,0.3,0.4
2024-09-25T1300,1304A,116.9489,36.6447,济南市,机床二厂,臭氧1小时,103,63,85,20,27,206,,115,115,16,56,6,5,0.7,0.8
2024-09-25T1300,1305A,117.0495,36.663,济南市,市监测站,臭氧1小时,101,71,57,22,26,202,,120,120,23,44,7,7,0.6,0.7
2024-09-25T1300,1306A,116.7675,36.5484,济南市,长清党校,臭氧1小时,106,59,50,24,24,211,,132,132,14,30,8,9,0.7,0.8
2024-09-25T1300,1616A,117.6795,36.229,济南市,技术学院,臭氧1小时,98,44,75,27,45,198,,106,106,13,45,13,12,0.9,0.9
2024-09-25T1300,1961A,117.532,36.6868,济南市,东山小学,臭氧1小时,102,56,54,24,26,204,,144,144,22,38,6,5,0.5,0.5
2024-09-25T1300,3059A,117.7161,36.2049,济南市,泰兴公司,臭氧1小时,88,46,71,24,37,190,,90,90,12,59,12,11,0.6,0.6
2024-09-25T1300,3064A,117.6867,36.2171,济南市,莱芜战役纪念馆,臭氧1小时,94,53,77,22,38,195,,97,97,15,53,9,8,0.8,0.8
2024-09-25T1300,3494A,117.1673,36.9782,济南市,济阳区政府,臭氧1小时,87,59,77,17,30,189,,118,118,18,45,6,7,0.5,0.6
2024-09-25T1300,3495A,117.1171,36.63,济南市,锦屏中学,臭氧1小时,101,61,36,24,20,201,,139,139,23,20,7,6,0.5,0.5
2024-09-25T1300,3682A,116.9814,36.6819,济南市,济南四建,臭氧1小时,92,56,63,22,30,193,,95,95,17,63,5,4,0.6,0.8
2024-09-25T1300,1653A,116.6251,35.4302,济宁市,火炬城,臭氧1小时,88,32,50,22,30,190,,110,110,10,20,11,12,0.6,0.8
2024-09-25T1300,1655A,116.5491,35.4042,济宁市,电化厂,臭氧1小时,82,55,79,22,31,185,,116,116,16,30,16,12,0.0,0.5
2024-09-25T1300,3500A,116.5814,35.3707,济宁市,北湖一中,臭氧1小时,83,51,51,22,34,186,,110,110,15,24,4,6,0.4,0.6
2024-09-25T1300,3501A,116.8249,35.5593,济宁市,服务中心,臭氧1小时,90,68,70,22,35,192,,94,94,14,37,9,10,0.4,0.5
2024-09-25T1300,3678A,116.5907,35.4054,济宁市,市第七中学,臭氧1小时,88,64,57,22,33,190,,119,119,14,24,9,13,0.6,0.7
2024-09-25T1300,2255A,130.2751,46.8028,佳木斯市,佳纺,,50,50,51,24,25,13,,16,16,32,31,4,5,0.7,0.7
2024-09-25T1300,2256A,130.3995,46.8307,佳木斯市,发电厂,,,20,42,17,20,27,,20,20,18,26,6,7,,0.4
2024-09-25T1300,2257A,130.3258,46.7975,佳木斯市,环保局,,45,45,47,21,24,23,,11,11,25,37,9,9,0.7,0.7
2024-09-25T1300,2258A,130.3648,46.8032,佳木斯市,十一中,,37,37,39,15,18,28,,21,21,30,38,7,7,0.6,0.6
2024-09-25T1300,2259A,130.3794,46.7588,佳木斯市,四丰,,15,6,19,3,9,24,,25,22,30,19,1,1,0.4,0.3
2024-09-25T1300,1252A,120.7436,30.778,嘉兴市,清河小学,颗粒物(PM10),56,61,54,31,25,136,,82,82,27,28,5,4,1.1,1
2024-09-25T1300,1253A,120.726,30.7478,嘉兴市,嘉兴学院,,,,45,,41,151,,80,80,24,29,,3,0.9,0.9
2024-09-25T1300,2872A,120.7846,30.7525,嘉兴市,南湖区残联,细颗粒物(PM2.5),53,51,46,37,34,129,,90,90,26,27,5,5,0.9,0.8
2024-09-25T1300,3407A,120.6916,30.7739,嘉兴市,秀洲住建,臭氧1小时,59,51,46,35,25,167,,87,87,20,24,6,6,0.9,0.9
2024-09-25T1300,1945A,98.2908,39.7711,嘉峪关市,气象局,颗粒物(PM10),56,61,69,19,21,121,,78,78,6,15,28,16,0.4,0.2
2024-09-25T1300,2884A,98.2672,39.7978,嘉峪关市,酒钢宾馆,颗粒物(PM10),63,75,75,24,22,107,,76,76,23,18,67,20,1.5,0.5
2024-09-25T1300,3248A,98.2643,39.7724,嘉峪关市,雄关区,,45,45,64,28,22,112,,71,71,7,16,12,13,0.2,0.3
2024-09-25T1300,1383A,113.1064,22.6058,江门市,北街,颗粒物(PM10),52,54,41,27,31,140,,44,44,19,46,4,4,0.9,1
2024-09-25T1300,1384A,113.0731,22.5835,江门市,西区,,33,17,39,12,24,105,,37,37,11,48,5,5,0.5,0.8
2024-09-25T1300,1385A,113.0219,22.5311,江门市,圭峰西,,36,36,36,10,28,104,,47,47,8,34,3,4,0.8,0.9
2024-09-25T1300,1386A,113.0828,22.5947,江门市,东湖,,39,22,43,18,25,123,,41,41,13,39,4,4,0.6,0.7
2024-09-25T1300,3311A,113.1075,22.5647,江门市,江海富民,,43,43,49,21,28,126,,46,46,11,44,6,7,0.6,0.9
2024-09-25T1300,3449A,113.05,22.4667,江门市,新会银湖,,37,28,41,19,39,118,,51,51,8,40,4,5,0.9,1
2024-09-25T1300,1828A,113.227,35.2125,焦作市,市环保局,细颗粒物(PM2.5),94,112,95,70,59,193,,98,98,22,29,18,9,0.6,0.6
2024-09-25T1300,1830A,113.1992,35.2590,焦作市,影视城,臭氧1小时,103,99,62,48,42,206,,140,138,22,18,16,10,1.1,0.7
2024-09-25T1300,3169A,113.2725,35.2067,焦作市,太极体育中心,细颗粒物(PM2.5),89,125,106,66,57,186,,87,87,23,32,17,8,1.0,0.9
2024-09-25T1300,3335A,113.3137,35.2641,焦作市,马村街道办,臭氧1小时,93,89,85,62,53,194,,105,105,21,27,16,6,0.6,0.6
2024-09-25T1300,3336A,113.2465,35.2373,焦作市,焦作技师学院,臭氧1小时,93,94,80,68,54,194,,106,106,21,23,20,11,0.7,0.6
2024-09-25T1300,3477A,113.1656,35.2539,焦作市,中站许衡医院,臭氧1小时,102,65,67,38,40,204,,126,126,25,35,15,8,0.7,0.6
2024-09-25T1300,3981A,113.2449,35.1803,焦作市,原李万街道办,细颗粒物(PM2.5),114,125,96,86,66,193,,94,94,26,32,20,11,0.8,0.6
2024-09-25T1300,1708A,116.3701,23.5345,揭阳市,新兴,,26,26,22,12,12,83,,39,39,5,23,4,5,0.5,0.7
2024-09-25T1300,1709A,116.3264,23.5443,揭阳市,西马,,23,17,25,10,11,73,,38,38,2,21,4,5,0.4,0.6
2024-09-25T1300,1710A,116.3611,23.5626,揭阳市,东兴,,25,16,24,10,8,77,,41,41,2,18,3,4,0.7,0.9
2024-09-25T1300,1711A,116.4151,23.5294,揭阳市,渔湖,,32,19,22,12,10,101,,43,43,5,22,4,5,0.5,0.7
2024-09-25T1300,3320A,116.403,23.5699,揭阳市,曲溪,,,22,22,11,10,85,,41,41,5,20,,3,0.4,0.6
2024-09-25T1300,1944A,102.1692,38.5167,金昌市,天庆家园,颗粒物(PM10),61,71,100,32,43,101,,70,70,14,14,77,16,0.3,0.5
2024-09-25T1300,3170A,102.1864,38.5253,金昌市,市委党校,颗粒物(PM10),67,84,131,32,40,98,,68,68,15,15,49,13,0.7,0.7
2024-09-25T1300,4022A,102.1647,38.5371,金昌市,金川区人防中心,颗粒物(PM10),78,106,116,35,38,88,,66,66,17,13,87,19,0.8,0.6
2024-09-25T1300,1262A,119.647,29.077,金华市,十五中,,42,30,44,22,32,134,,80,80,20,21,2,2,0.7,0.7
2024-09-25T1300,1263A,119.686,29.1029,金华市,监测站,,40,31,40,21,26,126,,74,74,21,24,2,2,0.8,0.8
2024-09-25T1300,3659A,119.656,29.1131,金华市,气象局,,38,28,41,12,22,119,,67,67,25,29,5,4,0.5,0.6
2024-09-25T1300,1767A,121.1115,41.0879,锦州市,南山,,25,13,33,12,32,80,,93,67,9,16,10,12,0.4,0.7
2024-09-25T1300,1768A,121.0533,40.8434,锦州市,开发区,,25,16,58,8,34,77,,76,51,9,31,7,12,0.6,0.9
2024-09-25T1300,1769A,121.1836,41.1119,锦州市,百股街道,,25,14,31,3,18,78,,93,61,7,14,21,13,0.4,0.7
2024-09-25T1300,1770A,121.1178,41.1222,锦州市,天安街道,,26,7,37,7,33,81,,84,67,7,16,10,13,0.4,0.7
2024-09-25T1300,1771A,121.1303,41.1386,锦州市,北湖公园,,26,24,42,8,33,83,,89,66,8,17,10,13,0.4,0.7
2024-09-25T1300,2160A,112.85,35.5051,晋城市,自来水公司,颗粒物(PM10),51,52,96,24,58,160,,98,98,14,34,11,13,0.9,1.7
2024-09-25T1300,2161A,112.8318,35.4936,晋城市,白云商贸,颗粒物(PM10),62,74,99,29,59,159,,104,104,16,35,10,12,1.0,1.6
2024-09-25T1300,2162A,112.8508,35.4887,晋城市,市环保局,颗粒物(PM10),59,68,99,29,58,161,,95,95,16,40,9,10,0.9,1.5
2024-09-25T1300,2163A,112.8676,35.4897,晋城市,技术学院,臭氧1小时,55,53,99,34,57,164,,92,92,19,44,10,12,0.9,1.4
2024-09-25T1300,3620A,112.8271,35.4828,晋城市,泽州一中,颗粒物(PM10),57,64,97,31,61,164,,108,108,16,36,12,16,1.0,1.7
2024-09-25T1300,2171A,112.7532,37.6945,晋中市,锦纶小区,颗粒物(PM10),92,134,92,66,42,94,,58,58,34,34,20,12,1.3,0.9
2024-09-25T1300,2173A,112.7249,37.7067,晋中市,南都小区,颗粒物(PM10),82,113,88,49,44,82,,55,55,43,45,18,12,1.6,1.3
2024-09-25T1300,2174A,112.6991,37.6982,晋中市,榆次区政府,颗粒物(PM10),95,139,92,61,37,85,,59,59,43,35,19,12,1.2,0.8
2024-09-25T1300,2865A,112.7195,37.6828,晋中市,榆次三中,颗粒物(PM10),91,132,94,66,39,94,,57,57,35,39,23,13,1.4,1
2024-09-25T1300,2439A,112.2014,31.0481,荆门市,竹园小学,臭氧1小时,115,118,92,52,56,230,,110,110,21,34,20,15,0.7,0.7
2024-09-25T1300,2440A,112.1969,30.9891,荆门市,掇刀,臭氧1小时,104,65,95,42,61,207,,123,123,18,35,13,15,0.5,0.7
2024-09-25T1300,2441A,112.2213,31.0386,荆门市,石化一小,臭氧1小时,112,116,93,47,56,224,,113,113,18,39,30,21,0.5,0.5
2024-09-25T1300,3012A,112.1849,31.0362,荆门市,西山林语,臭氧1小时,106,98,76,34,46,211,,129,129,14,21,12,12,0.6,0.7
2024-09-25T1300,3547A,112.1632,31.0138,荆门市,龙泉中学南校,臭氧1小时,105,70,85,41,47,210,,124,124,20,37,16,14,0.5,0.6
2024-09-25T1300,1844A,112.2494,30.3197,荆州市,市图书馆,臭氧1小时,117,63,78,58,54,233,,115,115,22,34,13,11,0.7,0.8
2024-09-25T1300,1845A,112.2008,30.3544,荆州市,市委党校,臭氧1小时,115,,84,66,62,229,,124,124,17,27,10,9,0.6,0.7
2024-09-25T1300,3194A,112.2747,30.3122,荆州市,管委会,臭氧1小时,117,69,73,55,54,234,,108,108,20,41,13,11,0.6,0.8
2024-09-25T1300,3548A,112.1655,30.3364,荆州市,学苑路,臭氧1小时,110,99,92,47,67,219,,118,118,14,27,7,10,0.6,0.7
2024-09-25T1300,2343A,117.2117,29.2933,景德镇市,老干部活动中心,,37,30,27,15,16,116,,64,64,6,14,7,10,0.4,0.5
2024-09-25T1300,2344A,117.1894,29.2789,景德镇市,兽医站,,39,28,34,17,18,122,,64,64,5,13,8,12,0.5,0.7
2024-09-25T1300,2345A,117.1547,29.2617,景德镇市,台达陶瓷,,39,34,35,17,18,124,,61,61,14,19,42,21,0.4,0.5
2024-09-25T1300,2346A,117.2461,29.2956,景德镇市,陶研所,,40,24,22,6,10,127,,63,63,6,12,7,6,0.4,0.4
2024-09-25T1300,1803A,115.9872,29.6815,九江市,十里,,,,49,,25,204,,107,107,22,26,11,11,0.7,0.7
2024-09-25T1300,1804A,115.9584,29.7046,九江市,茅山头,臭氧1小时,79,40,42,26,27,183,,81,81,18,26,11,9,0.7,0.7
2024-09-25T1300,1805A,115.9877,29.7295,九江市,西园,臭氧1小时,90,44,42,26,25,192,,118,118,16,21,12,11,0.6,0.6
2024-09-25T1300,1806A,116.0172,29.6547,九江市,五七二七厂,臭氧1小时,68,39,34,25,31,174,,95,95,19,14,13,11,0.9,0.7
2024-09-25T1300,1808A,115.9114,29.6038,九江市,综合工业园,臭氧1小时,95,48,48,34,32,196,,96,96,26,40,20,16,0.8,0.6
2024-09-25T1300,1809A,116.0721,29.7535,九江市,石化总厂,,50,45,49,26,26,157,,98,98,13,21,11,9,0.7,0.6
2024-09-25T1300,1810A,115.9773,29.5698,九江市,庐山气象台,,,,32,46,24,144,,158,142,8,6,,11,1.1,0.8
2024-09-25T1300,3190A,116.0254,29.6994,九江市,外国语学校,臭氧1小时,101,54,47,21,26,202,,110,110,18,22,21,17,0.4,0.3
2024-09-25T1300,2658A,98.5061,39.7443,酒泉市,仓门街子站,颗粒物(PM10),68,85,69,24,21,126,,64,64,10,18,27,17,0.7,0.5
2024-09-25T1300,2659A,98.4989,39.7256,酒泉市,油田生活基地,颗粒物(PM10),59,68,75,22,25,125,,71,71,8,18,20,16,0.5,0.4
2024-09-25T1300,2698A,76.0072,39.4467,喀什地区,巡警大队,颗粒物(PM10),500,612,215,161,51,79,,47,47,14,42,5,6,0.4,0.8
2024-09-25T1300,2699A,75.9755,39.4694,喀什地区,吾办,颗粒物(PM10),500,606,198,190,71,75,,35,35,12,39,6,6,0.4,0.8
2024-09-25T1300,4027A,75.9483,39.4689,喀什地区,老干局,颗粒物(PM10),439,539,238,166,49,81,,49,49,8,33,5,5,0.4,0.6
2024-09-25T1300,1824A,114.3389,34.7781,开封市,肿瘤医院,臭氧1小时,100,70,92,35,52,200,,107,107,15,30,9,8,0.4,0.4
2024-09-25T1300,1826A,114.2885,34.7965,开封市,世纪星幼儿园,臭氧1小时,103,85,90,32,39,206,,114,114,12,22,9,8,0.6,0.6
2024-09-25T1300,3147A,114.3438,34.8106,开封市,龙亭公园,臭氧1小时,101,75,91,31,41,201,,114,114,14,26,7,6,0.7,0.7
2024-09-25T1300,3210A,114.3644,34.7964,开封市,汴京公园,臭氧1小时,94,79,88,34,48,195,,106,106,16,27,9,8,0.5,0.5
2024-09-25T1300,3473A,114.2485,34.8306,开封市,技师学院,臭氧1小时,99,96,91,34,36,199,,126,126,18,22,11,11,0.5,0.5
2024-09-25T1300,3592A,114.4644,34.7556,开封市,祥符区生态环境局,臭氧1小时,78,70,96,31,44,182,,84,84,14,52,8,8,0.5,0.5
2024-09-25T1300,1951A,84.895,45.6094,克拉玛依市,长征新村,,38,38,25,20,6,63,,64,55,18,8,7,7,0.3,0.2
2024-09-25T1300,1952A,84.8988,45.5893,克拉玛依市,南林小区,,32,32,27,13,10,59,,48,30,19,12,9,9,2.1,1.3
2024-09-25T1300,1954A,84.905,44.3396,克拉玛依市,独山子区,,,,60,26,17,81,,66,65,15,15,13,10,1.2,0.5
2024-09-25T1300,1955A,85.6979,46.098,克拉玛依市,乌尔禾区商贸楼,,27,27,28,3,6,56,,52,30,14,11,19,18,0.3,0.2
2024-09-25T1300,3612A,85.1045,45.6899,克拉玛依市,白碱滩区新站,,34,34,36,3,7,66,,60,36,18,13,9,8,0.2,0.1
2024-09-25T1300,2697A,76.1454,39.7142,克孜勒苏柯尔克孜自治州,市人民政府,颗粒物(PM10),300,420,142,127,50,95,,61,61,7,17,7,9,0.4,0.5
2024-09-25T1300,3665A,76.1658,39.7157,克孜勒苏柯尔克孜自治州,克州文化中心,颗粒物(PM10),500,688,175,181,54,99,,72,72,1,15,6,11,0.4,0.4
2024-09-25T1300,1450A,102.8204,24.8886,昆明市,呈贡新区,,39,34,46,27,28,124,,62,62,10,29,6,5,0.6,0.6
2024-09-25T1300,1452A,102.7252,25.0902,昆明市,龙泉镇,,41,,39,18,23,129,,70,70,9,26,6,7,0.7,0.8
2024-09-25T1300,1453A,102.7266,25.0375,昆明市,东风东路,,36,27,41,20,25,115,,72,72,9,26,5,6,0.4,0.5
2024-09-25T1300,1454A,102.6742,25.0669,昆明市,金鼎山,,37,30,45,24,24,118,,69,69,11,28,3,5,0.4,0.6
2024-09-25T1300,1455A,102.6644,25.0401,昆明市,碧鸡广场,,36,23,41,17,25,113,,70,70,8,24,6,7,0.6,0.7
2024-09-25T1300,3179A,102.7494,25.0119,昆明市,官渡区博物馆,,,29,42,20,23,125,,72,72,5,33,6,7,,0.6
2024-09-25T1300,3375A,102.8017,24.8336,昆明市,青年创业园,,40,32,32,23,25,125,,59,59,6,25,4,4,0.5,0.5
2024-09-25T1300,3550A,102.7997,24.9786,昆明市,昆明学院,,41,34,48,22,31,131,,76,76,10,27,6,7,0.4,0.6
2024-09-25T1300,3551A,102.5967,24.6736,昆明市,晋宁区生态环境分局,,40,19,40,17,30,126,,74,74,6,14,2,3,0.5,0.6
2024-09-25T1300,3552A,102.6678,24.9856,昆明市,云天化总部,,36,24,36,18,24,114,,79,79,7,24,5,6,0.5,0.6
2024-09-25T1300,1456A,91.1319,29.6514,拉萨市,八廓街,,29,11,13,10,9,91,,94,93,15,18,6,7,0.3,0.2
2024-09-25T1300,1457A,91.1221,29.6747,拉萨市,市环保局,,27,,18,9,10,84,,90,85,16,18,8,8,0.6,0.5
2024-09-25T1300,1458A,91.0874,29.6475,拉萨市,区监测站,,,11,12,6,7,81,,87,82,,21,5,6,,0.3
2024-09-25T1300,1459A,91.1774,29.6541,拉萨市,西藏大学,,28,9,13,9,8,87,,90,87,13,12,5,6,0.5,0.5
2024-09-25T1300,1460A,90.9798,29.6588,拉萨市,区辐射站,,27,9,16,6,9,84,,90,88,18,23,8,9,0.2,0.2
2024-09-25T1300,1461A,91.0834,29.6292,拉萨市,拉萨火车站,,27,,9,8,7,84,,90,85,16,11,4,5,0.3,0.3
2024-09-25T1300,2520A,109.2203,23.7256,来宾市,来宾技工学校,,44,44,45,27,30,97,,55,55,10,16,7,9,0.7,0.7
2024-09-25T1300,3535A,109.1781,23.7297,来宾市,兴宾区政府,细颗粒物(PM2.5),60,62,45,43,29,109,,58,58,8,10,10,8,0.7,0.7
2024-09-25T1300,4002A,109.2416,23.7461,来宾市,中南小学,,48,48,43,26,23,106,,61,61,9,18,9,10,0.7,0.7
2024-09-25T1300,1476A,103.631,36.1031,兰州市,兰炼宾馆,颗粒物(PM10),63,75,77,36,36,125,,74,74,19,16,7,10,0.5,0.4
2024-09-25T1300,1478A,103.8412,36.0726,兰州市,生物制品所,颗粒物(PM10),52,54,58,30,31,95,,59,59,21,20,9,11,0.5,0.4
2024-09-25T1300,1479A,103.831,36.0464,兰州市,铁路设计院,颗粒物(PM10),56,62,58,36,32,85,,64,57,24,27,6,9,0.5,0.4
2024-09-25T1300,3186A,103.7158,36.1058,兰州市,教育港,"颗粒物(PM10),细颗粒物(PM2.5)",60,69,72,43,37,121,,73,73,13,15,9,10,0.4,0.4
2024-09-25T1300,3241A,103.7439,36.0842,兰州市,百合公园,颗粒物(PM10),59,68,61,32,26,113,,65,65,12,21,12,12,0.5,0.5
2024-09-25T1300,3242A,103.9611,35.998,兰州市,和平,,49,49,53,29,25,91,,74,72,12,13,11,12,0.4,0.3
2024-09-25T1300,3245A,103.6633,36.533,兰州新区,新区管委会,颗粒物(PM10),57,64,117,34,41,106,,71,71,6,10,10,10,0.4,0.4
2024-09-25T1300,3246A,103.6975,36.4789,兰州新区,舟曲中学,颗粒物(PM10),60,70,138,31,43,108,,82,82,5,11,8,12,0.4,0.4
2024-09-25T1300,1067A,116.6708,39.5111,廊坊市,药材公司,,29,22,79,10,46,91,,61,61,8,26,2,4,0.4,0.6
2024-09-25T1300,1068A,116.7214,39.5589,廊坊市,开发区,,29,17,73,6,40,92,,51,51,7,30,2,3,0.2,0.4
2024-09-25T1300,1070A,116.7244,39.5269,廊坊市,北华航天学院,,28,14,77,3,45,89,,62,62,6,29,2,3,0.2,0.5
2024-09-25T1300,2919A,116.7022,39.5453,廊坊市,河北工业大学,,29,17,71,9,45,92,,58,58,6,28,2,3,0.2,0.4
2024-09-25T1300,2535A,103.7723,29.5462,乐山市,花湖湾,,48,47,58,33,36,104,,43,29,19,21,4,3,0.8,0.8
2024-09-25T1300,2536A,103.7627,29.5844,乐山市,牛耳桥,颗粒物(PM10),52,54,57,35,44,114,,41,41,21,27,7,8,0.7,0.7
2024-09-25T1300,2537A,103.7508,29.6006,乐山市,市第三水厂,细颗粒物(PM2.5),57,57,62,40,46,130,,44,44,18,28,7,8,0.6,0.6
2024-09-25T1300,2538A,103.7571,29.5664,乐山市,市监测站,细颗粒物(PM2.5),64,59,59,46,44,114,,46,42,19,20,8,8,0.9,0.6
2024-09-25T1300,3361A,103.7311,29.5628,乐山市,理工大学,细颗粒物(PM2.5),58,55,58,41,47,115,,32,32,19,23,4,4,0.9,0.8
2024-09-25T1300,2599A,100.2497,26.8802,丽江市,丽江古城,,36,29,28,25,22,86,,68,64,12,12,10,10,0.7,0.7
2024-09-25T1300,2600A,100.2203,26.8906,丽江市,市中心,,33,33,20,14,16,80,,68,57,9,11,11,7,0.7,0.7
2024-09-25T1300,1267A,119.914,28.4514,丽水市,监测站大楼,,29,19,12,12,8,91,,61,61,8,13,4,4,0.6,0.5
2024-09-25T1300,1268A,119.93,28.4586,丽水市,莲都小学,,29,20,15,10,11,91,,62,62,9,14,4,4,0.6,0.6
2024-09-25T1300,1269A,119.879,28.4231,丽水市,余庄前,,32,14,17,9,9,100,,61,61,9,12,3,3,0.5,0.4
2024-09-25T1300,1173A,119.176,34.5885,连云港市,市环境监测站,,44,29,27,3,11,140,,78,78,11,24,6,7,0.4,0.5
2024-09-25T1300,3000A,119.3581,34.6972,连云港市,德源药业,,,,26,17,11,157,,82,82,13,26,6,5,0.4,0.3
2024-09-25T1300,3007A,119.178,34.844,连云港市,新城一中,臭氧1小时,65,47,41,22,12,172,,98,98,19,26,7,8,0.6,0.7
2024-09-25T1300,3008A,119.3608,34.7519,连云港市,胡沟管理处,臭氧1小时,55,36,21,14,9,164,,89,89,9,18,9,8,0.5,0.4
2024-09-25T1300,3009A,119.1478,34.5911,连云港市,矿山设计院,,45,34,28,14,13,144,,80,80,10,21,7,6,0.7,0.7
2024-09-25T1300,3434A,119.2413,34.6539,连云港市,工贸学校,,50,32,18,17,8,159,,88,88,13,17,9,8,0.8,0.8
2024-09-25T1300,3664A,119.4172,34.7341,连云港市,连云街道,臭氧1小时,88,38,17,23,8,190,,96,96,17,20,9,5,0.6,0.4
2024-09-25T1300,2571A,102.3431,27.8099,凉山彝族自治州,青龙寺,,22,7,15,3,6,68,,61,53,3,4,4,4,0.4,0.5
2024-09-25T1300,2572A,102.2721,27.8415,凉山彝族自治州,邛海宾馆,,19,9,15,7,10,58,,68,56,9,10,6,7,0.5,0.5
2024-09-25T1300,2573A,102.2625,27.898,凉山彝族自治州,西昌市政府,,17,12,18,10,13,53,,59,45,14,10,7,8,0.4,0.5
2024-09-25T1300,2574A,102.2685,27.8851,凉山彝族自治州,凉山州政府,,20,14,18,7,13,61,,63,53,13,11,6,7,0.5,0.8
2024-09-25T1300,2575A,102.237,27.8914,凉山彝族自治州,长安,,17,10,21,7,11,54,,63,46,17,13,8,9,0.6,0.5
2024-09-25T1300,2212A,123.2,41.1953,辽阳市,宏伟区,,29,25,20,20,12,31,,94,60,16,10,9,9,0.7,0.4
2024-09-25T1300,2213A,123.1683,41.2495,辽阳市,新华园,,26,,24,18,16,41,,77,51,17,15,7,9,0.5,0.5
2024-09-25T1300,2214A,123.2354,41.2639,辽阳市,滨河路,,21,21,20,9,9,43,,83,57,17,13,9,10,0.5,0.5
2024-09-25T1300,2215A,123.149,41.2991,辽阳市,铁西工业园,,,,31,9,12,33,,76,46,13,14,9,11,0.6,0.7
2024-09-25T1300,2227A,125.1358,42.8845,辽源市,环保局,,20,14,24,3,11,61,,67,67,11,17,14,7,0.5,0.6
2024-09-25T1300,3239A,125.0764,42.9078,辽源市,银鹰制药,,,,26,,12,60,,57,57,,30,4,5,0.6,0.6
2024-09-25T1300,1625A,115.9848,36.4372,聊城市,区政府,臭氧1小时,92,75,65,27,26,193,,129,129,17,26,12,19,0.5,0.5
2024-09-25T1300,2878A,116.0072,36.4343,聊城市,聊大东校,臭氧1小时,102,78,72,36,35,203,,127,127,16,28,12,23,0.5,0.5
2024-09-25T1300,3200A,115.9819,36.4978,聊城市,监控中心,,,79,61,29,27,198,,137,137,18,26,,16,0.3,0.3
2024-09-25T1300,3513A,116.0445,36.4361,聊城市,九州社区,臭氧1小时,101,64,70,20,31,202,,128,128,8,28,5,10,0.5,0.6
2024-09-25T1300,4018A,116.0567,36.4608,聊城市,星美广场,臭氧1小时,100,72,70,23,30,200,,131,131,10,22,3,9,0.4,0.4
2024-09-25T1300,2632A,94.3681,29.6376,林芝市,林芝监测站,,16,7,6,3,5,51,,21,20,4,6,10,9,0.2,0.2
2024-09-25T1300,2633A,94.3616,29.6616,林芝市,林芝人民医院,,,8,7,3,4,50,,24,23,7,6,8,8,,0.2
2024-09-25T1300,2603A,100.0781,23.8982,临沧市,市环保局,,31,31,21,7,14,73,,35,35,7,10,4,6,0.4,0.4
2024-09-25T1300,2604A,100.0894,23.8822,临沧市,市气象局,,33,,22,23,22,69,,34,34,6,10,5,6,0.4,0.4
2024-09-25T1300,1733A,111.5531,36.0783,临汾市,临钢医院,,33,26,96,11,37,104,,62,62,10,35,4,7,0.6,1
2024-09-25T1300,1734A,111.5028,36.0714,临汾市,技工学校,,45,45,110,11,54,111,,67,67,11,43,4,8,0.5,1
2024-09-25T1300,1736A,111.5018,36.0855,临汾市,市委,,35,25,109,12,48,111,,67,67,8,38,6,9,0.5,1
2024-09-25T1300,3018A,111.505,36.1014,临汾市,唐尧大酒店,,33,33,88,16,43,98,,56,56,12,39,4,7,0.7,1.1
2024-09-25T1300,3668A,111.5036,36.0414,临汾市,城南,,37,32,124,18,63,117,,10,,6,48,6,7,0.5,1.2
2024-09-25T1300,2667A,103.2069,35.5993,临夏回族自治州,环保局,,35,35,40,12,17,103,,78,74,6,8,8,10,0.3,0.4
2024-09-25T1300,2668A,103.2417,35.6057,临夏回族自治州,建设大厦,,41,41,61,11,18,105,,79,75,5,10,11,11,0.3,0.4
2024-09-25T1300,1618A,118.3429,35.0532,临沂市,沂河小区,臭氧1小时,72,61,58,32,27,177,,84,84,19,27,9,10,0.5,0.5
2024-09-25T1300,1619A,118.295,35.0583,临沂市,鲁南制药厂,臭氧1小时,98,56,69,27,35,198,,88,88,18,38,8,10,0.5,0.6
2024-09-25T1300,1620A,118.2794,34.9976,临沂市,新光毛纺厂,臭氧1小时,101,56,71,35,42,201,,90,90,27,43,6,11,0.7,0.8
2024-09-25T1300,1621A,118.3956,35.0888,临沂市,河东保险公司,臭氧1小时,72,36,48,24,24,177,,86,86,16,46,8,8,0.6,0.7
2024-09-25T1300,3370A,118.3564,35.0215,临沂市,十里堡居委,臭氧1小时,69,39,48,22,28,175,,84,84,15,28,10,12,0.6,0.7
2024-09-25T1300,3496A,118.3604,35.1084,临沂市,南坊新区,臭氧1小时,85,56,53,27,23,188,,84,84,16,30,10,10,0.7,0.6
2024-09-25T1300,3860A,118.3920,35.0300,临沂市,皇山花园小区,,50,36,50,20,32,160,,77,77,13,33,8,9,0.4,0.5
2024-09-25T1300,1870A,109.4856,24.3895,柳州市,柳东小学,,46,44,42,32,28,123,,82,82,7,10,9,9,0.7,0.7
2024-09-25T1300,1871A,109.4157,24.3277,柳州市,环保监测站,,49,42,45,34,31,124,,84,84,7,10,10,12,0.7,0.8
2024-09-25T1300,1872A,109.389,24.341,柳州市,河西水厂,,44,44,50,28,29,128,,76,76,6,10,9,12,0.9,1
2024-09-25T1300,1873A,109.4311,24.2921,柳州市,市四中,颗粒物(PM10),58,66,42,24,22,134,,100,100,6,10,9,9,1.0,1
2024-09-25T1300,1874A,109.4006,24.3631,柳州市,市九中,颗粒物(PM10),53,55,53,31,30,138,,81,81,6,13,8,9,0.9,0.9
2024-09-25T1300,1875A,109.4958,24.3134,柳州市,古亭山,颗粒物(PM10),55,60,40,33,25,142,,95,95,13,14,11,10,0.9,0.8
2024-09-25T1300,3402A,109.5422,24.3996,柳州市,市二中,,50,50,42,26,29,130,,86,86,10,18,9,10,0.6,0.6
2024-09-25T1300,2307A,116.5079,31.737,六安市,监测大楼,,50,37,34,12,22,158,,87,87,10,19,5,6,0.4,0.4
2024-09-25T1300,2308A,116.4738,31.7643,六安市,皖西学院,臭氧1小时,62,53,50,12,24,169,,80,80,11,21,6,6,0.3,0.3
2024-09-25T1300,2309A,116.4996,31.7905,六安市,朝阳厂,臭氧1小时,64,44,44,8,24,171,,71,71,8,21,2,2,0.4,0.4
2024-09-25T1300,2310A,116.5567,31.7886,六安市,开发区,臭氧1小时,60,49,51,26,24,168,,88,88,12,19,4,2,0.5,0.5
2024-09-25T1300,2577A,104.83,26.5917,六盘水市,黄土坡,细颗粒物(PM2.5),55,47,40,39,32,144,,91,91,11,14,9,11,0.5,0.6
2024-09-25T1300,2578A,104.89,26.5939,六盘水市,水钢,,,,45,,29,146,,97,97,8,13,12,11,,0.4
2024-09-25T1300,2579A,104.8475,26.5894,六盘水市,民中,,49,44,40,34,29,142,,94,94,10,14,9,11,0.4,0.5
2024-09-25T1300,2580A,104.9544,26.5506,六盘水市,双水,,41,41,44,24,27,127,,93,93,7,9,8,10,0.4,0.4
2024-09-25T1300,2336A,117.0217,25.1033,龙岩市,龙岩市监测站,,18,18,12,3,6,56,,29,29,9,12,5,5,0.5,0.5
2024-09-25T1300,2337A,117.0258,25.0661,龙岩市,闽西职业技术学院,,18,18,19,10,10,55,,23,23,8,14,4,11,0.5,0.5
2024-09-25T1300,2338A,117.0196,25.0306,龙岩市,龙岩学院,,18,18,14,8,6,50,,26,26,7,7,5,4,0.4,0.4
2024-09-25T1300,2885A,104.9339,33.3826,陇南市,滨江中学,,35,35,45,12,19,99,,47,47,8,13,8,10,0.6,0.7
2024-09-25T1300,3247A,104.955,33.371,陇南市,市总工会,,33,33,39,20,11,101,,49,49,6,10,10,10,0.4,0.5
2024-09-25T1300,2487A,111.9589,27.8901,娄底市,电视发射台,,49,36,49,28,29,155,,106,106,6,7,5,5,0.5,0.5
2024-09-25T1300,2488A,111.9975,27.725,娄底市,市监测站,臭氧1小时,78,70,81,33,48,182,,97,97,9,24,11,17,0.7,1
2024-09-25T1300,2489A,112.0194,27.7314,娄底市,市委党校,,,45,62,,41,169,,98,98,,15,7,9,0.7,0.8
2024-09-25T1300,2490A,111.9561,27.7569,娄底市,涟钢,,49,49,69,24,44,149,,85,85,16,18,12,8,0.9,0.7
2024-09-25T1300,2491A,111.9892,27.7044,娄底市,市政府,臭氧1小时,72,62,63,43,45,177,,82,82,11,17,11,9,0.6,0.6
2024-09-25T1300,1893A,105.4324,28.9634,泸州市,九狮山,,,,93,,57,106,,54,54,17,21,7,5,0.4,0.5
2024-09-25T1300,1894A,105.4427,28.9063,泸州市,小市上码头,细颗粒物(PM2.5),87,92,75,64,55,105,,61,61,18,24,6,6,0.8,0.8
2024-09-25T1300,1895A,105.4241,28.8573,泸州市,兰田宪桥,细颗粒物(PM2.5),89,75,67,66,55,107,,68,68,14,24,5,5,0.7,0.6
2024-09-25T1300,1896A,105.4379,28.8833,泸州市,市环监站,细颗粒物(PM2.5),84,78,73,62,61,103,,68,68,16,23,7,7,0.8,0.7
2024-09-25T1300,3490A,105.3617,28.7703,泸州市,纳溪区环保局,细颗粒物(PM2.5),99,78,75,74,57,123,,59,59,16,32,8,6,0.8,0.8
2024-09-25T1300,2183A,111.1406,37.5211,吕梁市,环保局,颗粒物(PM10),70,90,71,31,31,25,,10,9,46,39,11,5,2.2,0.7
2024-09-25T1300,2185A,111.1297,37.5136,吕梁市,自来水公司,颗粒物(PM10),70,90,88,32,35,24,,8,8,53,38,14,7,2.5,0.8
2024-09-25T1300,2867A,111.1283,37.51,吕梁市,马茂庄小学,颗粒物(PM10),70,90,83,31,31,23,,8,8,51,44,12,5,2.4,0.8
2024-09-25T1300,1812A,112.3931,34.6516,洛阳市,市委党校,臭氧1小时,82,94,85,55,50,185,,80,80,19,23,21,11,0.8,0.6
2024-09-25T1300,1814A,112.4657,34.6871,洛阳市,豫西宾馆,臭氧1小时,88,96,100,42,48,190,,81,81,12,41,17,18,0.9,0.8
2024-09-25T1300,1815A,112.494,34.6886,洛阳市,河南林校,臭氧1小时,93,80,79,45,49,194,,79,79,14,37,14,11,1.0,0.8
2024-09-25T1300,1816A,112.3844,34.623,洛阳市,开发区管委会,臭氧1小时,90,93,77,45,49,192,,76,76,16,20,15,5,0.6,0.5
2024-09-25T1300,1817A,112.4267,34.6258,洛阳市,市委新办公区,臭氧1小时,79,86,75,45,51,183,,77,77,14,14,12,7,0.8,0.6
2024-09-25T1300,3340A,112.6005,34.6326,洛阳市,伊滨,,,82,78,56,62,,,,,18,27,16,13,1.5,1.1
2024-09-25T1300,3341A,112.4951,34.6332,洛阳市,中移产业园,,,84,71,57,43,194,,88,88,,20,16,8,0.9,0.6
2024-09-25T1300,3593A,112.5736,34.8993,洛阳市,吉利监测站,臭氧1小时,95,85,70,46,37,196,,92,92,13,31,10,4,0.7,0.5
2024-09-25T1300,3635A,112.3677,34.662,洛阳市,河科大西苑校区,臭氧1小时,82,94,91,43,47,185,,81,81,22,36,20,11,0.8,0.7
2024-09-25T1300,3636A,112.4388,34.6781,洛阳市,英才小学,颗粒物(PM10),87,124,98,50,50,188,,77,77,19,43,16,12,0.9,0.8
2024-09-25T1300,2399A,114.051,33.5699,漯河市,三五一五工厂,臭氧1小时,94,76,98,26,47,195,,114,114,10,28,8,9,0.5,0.6
2024-09-25T1300,2400A,114.0055,33.5698,漯河市,漯河大学,臭氧1小时,102,83,88,27,42,204,,118,118,13,24,7,7,0.6,0.6
2024-09-25T1300,2401A,114.0138,33.5828,漯河市,市水利局,臭氧1小时,101,83,88,24,38,202,,116,116,8,20,8,7,0.5,0.5
2024-09-25T1300,2402A,114.0261,33.5698,漯河市,市广电局,臭氧1小时,102,73,85,34,44,203,,116,116,9,24,12,12,0.6,0.6
2024-09-25T1300,3478A,113.9749,33.5664,漯河市,市图书馆,臭氧1小时,102,75,90,10,39,203,,114,114,10,28,6,7,0.5,0.6
2024-09-25T1300,3479A,114.0967,33.5906,漯河市,召陵区卫健委,臭氧1小时,93,59,88,27,45,194,,109,109,8,22,9,9,0.4,0.7
2024-09-25T1300,1798A,118.5092,31.6837,马鞍山市,湖东路四小,臭氧1小时,68,60,47,26,24,174,,82,82,24,38,18,10,1.2,0.8
2024-09-25T1300,1799A,118.5024,31.6449,马鞍山市,开发区,臭氧1小时,55,57,55,33,27,164,,71,71,33,54,21,10,1.6,1
2024-09-25T1300,1800A,118.5228,31.7231,马鞍山市,慈湖,臭氧1小时,80,42,38,35,23,184,,83,83,17,40,14,9,1.3,1
2024-09-25T1300,1802A,118.6245,31.7241,马鞍山市,濮塘,臭氧1小时,73,40,26,26,17,178,,96,96,14,14,10,8,0.9,0.8
2024-09-25T1300,3633A,118.4918,31.6809,马鞍山市,雨山,颗粒物(PM10),53,56,42,33,23,156,,78,78,29,35,25,13,1.7,1
2024-09-25T1300,1686A,111.0286,21.4688,茂名市,电白南海,,36,36,30,14,12,107,,52,52,5,13,11,12,0.6,0.6
2024-09-25T1300,1687A,110.9294,21.6533,茂名市,茂石化七小,,30,24,22,14,13,95,,43,43,6,14,6,14,0.8,1
2024-09-25T1300,1688A,110.9107,21.6687,茂名市,健康路,,31,17,17,9,9,98,,46,46,4,11,11,26,0.9,1
2024-09-25T1300,1689A,110.8592,21.6828,茂名市,高岭,,29,,24,14,13,92,,44,44,8,12,7,8,0.9,0.9
2024-09-25T1300,3450A,111.01,21.5165,茂名市,电白水东,,28,17,18,9,11,88,,45,45,6,14,7,9,0.8,0.8
2024-09-25T1300,2539A,104.0308,30.0478,眉山市,黑龙滩水库,细颗粒物(PM2.5),79,76,62,58,48,124,,51,51,14,15,4,5,0.7,0.6
2024-09-25T1300,2540A,103.8416,30.0874,眉山市,气象局,细颗粒物(PM2.5),62,51,64,44,46,130,,43,43,16,35,10,8,0.6,0.6
2024-09-25T1300,3137A,103.8578,30.0744,眉山市,市委党校,颗粒物(PM10),64,78,65,41,41,125,,50,50,20,30,12,9,0.6,0.6
2024-09-25T1300,3148A,103.8291,30.0564,眉山市,区人社局,,49,,53,34,36,123,,50,50,22,33,15,8,0.6,0.6
2024-09-25T1300,1690A,116.1231,24.3284,梅州市,梅江月梅,,24,16,21,8,14,74,,30,30,6,9,6,6,0.5,0.5
2024-09-25T1300,1691A,116.0797,24.2719,梅州市,梅县新城,,22,16,21,15,18,61,,28,28,6,14,4,4,0.5,0.6
2024-09-25T1300,1692A,116.1248,24.2654,梅州市,环境监控中心,,22,22,24,11,15,55,,23,23,8,15,5,5,0.5,0.6
2024-09-25T1300,3315A,116.1233,24.2991,梅州市,梅龙,,24,14,17,8,14,75,,35,35,6,11,8,8,0.6,0.7
2024-09-25T1300,1878A,104.7778,31.4741,绵阳市,富乐山,,38,37,45,26,34,110,,62,62,7,19,3,3,0.6,0.6
2024-09-25T1300,1879A,104.7563,31.4535,绵阳市,市人大,,45,45,59,22,34,105,,52,52,14,31,10,11,0.5,0.6
2024-09-25T1300,1880A,104.6697,31.4668,绵阳市,高新区自来水公司,,36,36,58,19,31,100,,40,40,12,30,4,5,0.6,0.7
2024-09-25T1300,1881A,104.7287,31.5075,绵阳市,三水厂,,,54,69,34,41,107,,27,27,7,40,,7,0.6,0.8
2024-09-25T1300,3491A,104.69,31.5322,绵阳市,西科大附属小学,,35,35,61,23,33,93,,36,36,12,33,4,6,0.5,0.8
2024-09-25T1300,3492A,104.5648,31.5343,绵阳市,安州区旅游局,,35,24,56,24,41,108,,53,53,8,18,6,8,0.6,0.6
2024-09-25T1300,1784A,129.61,44.561,牡丹江市,环保大楼,,30,28,31,16,16,95,,48,48,5,19,7,7,0.3,0.4
2024-09-25T1300,1785A,129.6115,44.5782,牡丹江市,文化广场,,44,44,45,23,24,92,,45,45,8,23,8,9,0.3,0.6
2024-09-25T1300,1786A,129.5904,44.5963,牡丹江市,第一医院,,46,46,41,30,22,98,,47,47,6,22,7,7,0.2,0.4
2024-09-25T1300,1787A,129.6364,44.6075,牡丹江市,机车工厂,,33,33,44,13,20,91,,42,42,9,18,6,36,0.2,0.4
2024-09-25T1300,1788A,129.6386,44.5462,牡丹江市,第一中学,,32,32,29,14,18,94,,48,48,6,22,6,6,0.2,0.3
2024-09-25T1300,2531A,105.0703,29.61,内江市,市监测站,细颗粒物(PM2.5),68,,43,49,44,144,,101,101,20,18,5,4,0.7,0.7
2024-09-25T1300,2532A,105.0717,29.5947,内江市,东兴区政府,细颗粒物(PM2.5),60,52,46,43,37,140,,98,97,26,24,6,5,1.0,0.9
2024-09-25T1300,2533A,105.0653,29.5817,内江市,内江二中,细颗粒物(PM2.5),73,66,52,53,46,132,,96,93,20,20,11,9,0.7,0.6
2024-09-25T1300,2534A,105.0406,29.5822,内江市,内江日报社,细颗粒物(PM2.5),67,,53,48,44,135,,95,95,24,24,9,7,0.7,0.7
2024-09-25T1300,2628A,92.0657,31.4846,那曲市,那曲监测站,,,39,35,16,12,81,,53,45,6,7,8,7,,0.6
2024-09-25T1300,3128A,92.0506,31.4797,那曲市,那曲会议中心,,45,45,31,15,11,86,,54,51,9,9,4,4,0.4,0.5
2024-09-25T1300,1290A,115.8931,28.6843,南昌市,省外办,细颗粒物(PM2.5),55,50,49,39,30,156,,76,76,12,26,10,12,0.6,0.6
2024-09-25T1300,1291A,115.8886,28.7003,南昌市,省林业公司,,,41,50,19,23,160,,84,84,14,21,,11,0.6,0.7
2024-09-25T1300,1292A,115.8126,28.7442,南昌市,林科所,臭氧1小时,74,53,42,24,21,179,,101,101,16,36,6,6,0.6,0.6
2024-09-25T1300,1294A,115.8518,28.687,南昌市,建工学校,臭氧1小时,63,62,51,29,22,170,,86,86,14,27,10,11,0.6,0.6
2024-09-25T1300,1295A,115.8921,28.6424,南昌市,象湖,臭氧1小时,92,62,45,38,27,193,,83,83,16,23,12,13,1.1,0.8
2024-09-25T1300,1296A,115.7423,28.7996,南昌市,武术学校,,48,18,18,12,14,151,,73,73,11,15,4,2,0.5,0.5
2024-09-25T1300,1298A,115.9314,28.6842,南昌市,省站,,48,33,41,29,27,153,,81,81,23,28,10,11,0.6,0.6
2024-09-25T1300,3046A,115.9084,28.6062,南昌市,机电学校,颗粒物(PM10),61,71,53,29,24,161,,81,81,12,23,11,10,0.8,0.7
2024-09-25T1300,3690A,115.9721,28.7031,南昌市,外国语学校,,45,43,45,25,23,143,,88,88,8,17,7,8,0.5,0.6
2024-09-25T1300,1905A,106.056,30.8064,南充市,西山风景区,,46,42,44,32,40,137,,86,86,6,8,9,5,0.5,0.6
2024-09-25T1300,1906A,106.0789,30.8023,南充市,南充市委,细颗粒物(PM2.5),58,62,58,41,44,135,,75,75,11,19,5,5,0.5,0.5
2024-09-25T1300,1907A,106.1031,30.8217,南充市,南充炼油厂,"颗粒物(PM10),细颗粒物(PM2.5)",52,54,63,36,45,142,,81,81,7,14,4,5,0.3,0.3
2024-09-25T1300,1908A,106.1064,30.7856,南充市,高坪区监测站,,43,40,62,25,42,137,,81,81,12,19,6,7,0.4,0.5
2024-09-25T1300,1909A,106.0642,30.7636,南充市,嘉陵区环保局,颗粒物(PM10),53,56,58,34,37,133,,78,78,13,18,5,4,0.5,0.5
2024-09-25T1300,1910A,106.1087,30.8388,南充市,市环境监测站,"颗粒物(PM10),细颗粒物(PM2.5)",60,69,60,43,43,139,,79,79,11,14,6,6,0.4,0.4
2024-09-25T1300,1151A,118.8086,32.1065,南京市,迈皋桥,,,35,28,19,15,165,,82,82,,39,8,5,0.7,0.5
2024-09-25T1300,1152A,118.7538,32.0551,南京市,草场门,,,36,37,17,19,162,,82,82,,41,5,8,0.4,0.4
2024-09-25T1300,1153A,118.7794,32.0745,南京市,山西路,臭氧1小时,58,41,41,19,20,166,,92,92,10,29,4,4,0.5,0.6
2024-09-25T1300,1154A,118.7752,32.0023,南京市,中华门,,50,31,39,9,16,159,,87,87,11,39,5,6,0.4,0.5
2024-09-25T1300,1155A,118.8109,32.0309,南京市,瑞金路,臭氧1小时,63,44,38,19,18,170,,101,101,15,33,10,10,0.5,0.5
2024-09-25T1300,1156A,118.7997,32.0754,南京市,玄武湖,,48,41,36,16,16,153,,78,78,14,48,8,6,0.5,0.6
2024-09-25T1300,1157A,118.6414,32.0931,南京市,浦口,,45,32,24,18,15,142,,94,94,7,12,5,5,0.6,0.6
2024-09-25T1300,1158A,118.7356,31.9996,南京市,奥体中心,臭氧1小时,68,37,37,24,22,174,,96,96,11,35,6,7,0.5,0.5
2024-09-25T1300,1159A,118.9125,32.1028,南京市,仙林大学城,臭氧1小时,103,46,37,17,15,205,,112,112,19,39,11,7,0.7,0.5
2024-09-25T1300,3422A,118.8436,31.9198,南京市,江宁彩虹桥,,,43,39,24,19,195,,99,99,11,36,7,4,,0.6
2024-09-25T1300,3423A,119.0138,31.6494,南京市,溧水永阳,臭氧1小时,52,27,31,26,18,161,,83,83,9,27,4,4,0.9,0.6
2024-09-25T1300,3424A,118.879,31.3302,南京市,高淳老职中,,,,30,,20,172,,108,108,10,15,7,5,,0.4
2024-09-25T1300,3427A,118.8554,32.3578,南京市,六合雄州,,39,16,34,3,15,124,,61,61,9,25,6,7,0.3,0.3
2024-09-25T1300,1401A,108.3103,22.7881,南宁市,二十一中,"颗粒物(PM10),细颗粒物(PM2.5)",62,74,47,44,30,111,,72,66,25,19,8,8,1.0,0.9
2024-09-25T1300,1402A,108.3141,22.8528,南宁市,北湖,细颗粒物(PM2.5),58,48,44,41,28,106,,78,78,27,20,11,12,0.9,0.8
2024-09-25T1300,1403A,108.3206,22.8225,南宁市,市监测站,颗粒物(PM10),65,80,48,40,29,111,,80,71,27,21,10,11,1.0,0.9
2024-09-25T1300,1404A,108.3829,22.8037,南宁市,大自然花园,颗粒物(PM10),52,53,41,35,26,109,,72,72,18,17,7,6,0.7,0.5
2024-09-25T1300,1405A,108.4394,22.7904,南宁市,仙葫,细颗粒物(PM2.5),80,,40,59,35,121,,81,81,13,15,9,9,0.9,0.9
2024-09-25T1300,1406A,108.2397,22.8467,南宁市,区农职院,,,68,60,46,30,108,,70,70,,17,11,16,0.9,1
2024-09-25T1300,1407A,108.3275,22.735,南宁市,英华嘉园,细颗粒物(PM2.5),64,74,49,46,35,105,,63,63,25,25,7,6,1.0,0.9
2024-09-25T1300,1408A,108.2257,22.7757,南宁市,沙井镇街道办,,45,40,51,31,29,126,,74,74,12,27,6,4,0.7,0.7
2024-09-25T1300,3401A,108.4834,22.7618,南宁市,红星社区,,50,40,38,35,30,119,,85,85,13,15,12,9,0.7,0.7
2024-09-25T1300,2332A,118.1681,26.6369,南平市,南平市监测站,,17,10,13,8,7,53,,36,36,7,10,6,5,0.5,0.5
2024-09-25T1300,2333A,118.1825,26.6489,南平市,南平铝业有限公司,,17,15,11,6,6,52,,35,35,7,9,4,4,0.6,0.6
2024-09-25T1300,2334A,118.1756,26.6272,南平市,南平七中,,26,26,15,7,8,53,,29,29,9,11,4,4,0.7,0.7
2024-09-25T1300,1168A,120.9098,31.9663,南通市,狼山街道,,35,24,16,18,16,110,,72,72,9,16,7,6,0.6,0.5
2024-09-25T1300,1169A,120.86,32.0005,南通市,虹桥,,35,27,22,24,16,111,,74,74,10,15,7,6,0.7,0.7
2024-09-25T1300,1170A,120.87,32.02,南通市,城中,,36,36,26,19,16,100,,68,68,10,16,7,6,0.7,0.7
2024-09-25T1300,1171A,120.94,31.93,南通市,星湖花园,,36,22,14,14,12,113,,75,75,10,20,5,5,0.5,0.7
2024-09-25T1300,1172A,120.81,32.0417,南通市,紫琅学院,,38,29,18,24,16,121,,68,68,10,16,10,8,0.5,0.5
2024-09-25T1300,3291A,121.067,32.062,南通市,通州监测站,,31,19,16,9,9,98,,74,74,8,10,3,3,0.7,0.6
2024-09-25T1300,3432A,120.9348,31.9883,南通市,环境教育馆,,35,24,25,13,13,112,,74,74,9,20,4,3,0.7,0.6
2024-09-25T1300,2404A,112.5224,33.0122,南阳市,瓦房庄,臭氧1小时,100,81,87,44,51,200,,115,115,16,31,9,8,0.6,0.8
2024-09-25T1300,2405A,112.5003,32.9735,南阳市,汉画馆,臭氧1小时,75,81,93,50,58,180,,83,83,17,43,10,7,0.4,0.6
2024-09-25T1300,2406A,112.5573,33.027,南阳市,气象站,臭氧1小时,104,99,85,41,38,207,,116,116,23,30,12,11,0.7,0.7
2024-09-25T1300,2407A,112.5481,32.9689,南阳市,理工学院,臭氧1小时,89,83,85,40,46,191,,108,108,16,28,10,9,0.5,0.6
2024-09-25T1300,4008A,112.5234,32.9922,南阳市,卧龙区政府,臭氧1小时,92,99,97,42,47,193,,104,104,15,36,9,7,0.6,0.7
2024-09-25T1300,1234A,121.8358,29.911,宁波市,区环保大楼,颗粒物(PM10),56,62,51,34,28,98,,40,40,35,51,10,4,1.0,0.9
2024-09-25T1300,1235A,121.56,29.82,宁波市,万里学院,细颗粒物(PM2.5),65,,38,47,33,106,,68,68,24,25,6,5,0.9,0.7
2024-09-25T1300,1236A,121.713,29.9572,宁波市,龙赛医院,,,,33,,21,61,,53,53,37,31,8,8,0.9,0.9
2024-09-25T1300,1239A,121.633,29.7733,宁波市,钱湖水厂,,43,38,38,30,29,93,,53,53,28,24,8,8,0.9,0.7
2024-09-25T1300,1240A,121.5856,29.8635,宁波市,太古小学,颗粒物(PM10),52,54,43,33,23,95,,71,71,24,23,7,7,1.0,0.9
2024-09-25T1300,1241A,121.524,29.8674,宁波市,市环境监测中心,,45,45,38,31,23,108,,70,70,30,29,12,12,0.9,0.7
2024-09-25T1300,2871A,121.6147,29.9017,宁波市,万里国际学校,,43,37,32,30,27,82,,61,61,33,28,7,7,0.8,0.7
2024-09-25T1300,3710A,121.5594,29.8975,宁波市,白沙活动中心,颗粒物(PM10),52,54,47,30,22,97,,69,69,23,22,8,8,0.7,0.5
2024-09-25T1300,2341A,119.5388,26.6612,宁德市,宁德市监测站,,26,13,18,8,14,81,,40,40,10,15,6,6,0.7,0.9
2024-09-25T1300,3209A,119.5231,26.6562,宁德市,宁德一中,,26,22,21,11,17,81,,42,42,9,10,5,5,0.7,0.7
2024-09-25T1300,2618A,98.8601,25.8567,怒江傈僳族自治州,州监测站,,29,29,24,19,17,49,,54,54,6,7,5,5,0.2,0.2
2024-09-25T1300,2619A,98.8546,25.8417,怒江傈僳族自治州,泸水一中,,16,16,21,10,14,46,,27,27,9,11,6,6,0.5,0.4
2024-09-25T1300,1888A,101.6891,26.571,攀枝花市,弄弄坪,,40,40,46,26,26,76,,41,41,22,27,14,14,0.5,0.8
2024-09-25T1300,1889A,101.5769,26.5928,攀枝花市,河门口,颗粒物(PM10),56,61,51,34,30,88,,34,34,28,25,43,14,2.1,1.1
2024-09-25T1300,1890A,101.7169,26.585,攀枝花市,炳草岗,,47,47,54,20,33,77,,40,40,23,34,12,22,0.5,0.9
2024-09-25T1300,1891A,101.7369,26.5008,攀枝花市,仁和,,35,35,36,22,27,104,,56,56,11,16,15,7,0.5,0.6
2024-09-25T1300,2835A,101.7227,26.567,攀枝花市,四十中小,,42,42,76,22,33,87,,50,50,11,32,11,25,0.5,0.7
2024-09-25T1300,1604A,122.0303,41.1489,盘锦市,开发区,,28,26,25,6,19,88,,90,76,9,13,8,10,0.3,0.2
2024-09-25T1300,1605A,122.0485,41.0883,盘锦市,兴隆台,,27,12,22,7,17,84,,89,71,15,20,5,5,0.2,0.4
2024-09-25T1300,1606A,121.8297,41.1028,盘锦市,新生街道,,27,18,23,8,13,84,,100,70,11,14,8,8,0.2,0.4
2024-09-25T1300,1832A,113.3257,33.742,平顶山市,新华旅馆,臭氧1小时,92,84,115,40,45,193,,84,84,18,41,10,8,0.6,0.6
2024-09-25T1300,1833A,113.2919,33.737,平顶山市,规划设计院,臭氧1小时,101,87,107,41,46,202,,93,93,17,35,10,8,0.6,0.6
2024-09-25T1300,1834A,113.182,33.774,平顶山市,平顶山工学院,臭氧1小时,98,96,104,36,45,198,,90,90,17,31,12,11,0.6,0.5
2024-09-25T1300,3204A,113.3025,33.73,平顶山市,规划局,臭氧1小时,93,90,124,39,49,194,,79,79,16,36,8,7,0.5,0.8
2024-09-25T1300,3594A,112.8867,33.9116,平顶山市,石龙区,颗粒物(PM10),61,71,136,26,36,164,,92,92,14,59,11,14,0.5,0.6
2024-09-25T1300,2656A,106.6692,35.5461,平凉市,聚贤嘉苑,,39,39,44,12,23,111,,93,93,13,22,7,7,0.3,0.4
2024-09-25T1300,2657A,106.7021,35.5307,平凉市,博物馆,,37,32,44,11,20,116,,98,98,6,16,7,8,0.1,0.3
2024-09-25T1300,2347A,114.0997,27.5002,萍乡市,武功山,,31,22,33,3,7,98,,57,57,5,7,10,8,0.4,0.4
2024-09-25T1300,2348A,113.8385,27.6434,萍乡市,中医院,,49,49,52,31,34,145,,79,79,6,12,18,18,0.8,0.8
2024-09-25T1300,2349A,113.8493,27.6253,萍乡市,市政府车库,,48,46,53,33,40,144,,73,73,9,20,20,23,1.2,1
2024-09-25T1300,2350A,113.8676,27.6435,萍乡市,市环保局,,48,48,57,29,40,128,,74,74,5,12,16,24,1.0,0.7
2024-09-25T1300,2351A,113.866,27.6198,萍乡市,安源区政府,,44,31,54,17,33,140,,69,69,15,29,17,20,1.0,0.7
2024-09-25T1300,2319A,119.0141,25.4325,莆田市,荔城区仓后路,,27,27,25,3,21,82,,44,44,10,16,8,8,0.6,0.9
2024-09-25T1300,2320A,119.0015,25.4553,莆田市,莆田市监测站,,46,46,24,3,10,85,,45,45,9,10,7,6,0.5,0.7
2024-09-25T1300,2321A,119.1119,25.4561,莆田市,涵江区六中,,30,24,24,3,20,93,,55,55,7,22,9,8,0.6,0.8
2024-09-25T1300,2322A,119.1013,25.3215,莆田市,秀屿区政府,,30,11,22,3,21,95,,57,57,2,12,7,7,0.7,0.8
2024-09-25T1300,2392A,115.0312,35.7636,濮阳市,环保局,臭氧1小时,88,76,59,42,35,190,,113,113,18,24,13,11,0.5,0.4
2024-09-25T1300,2394A,115.0574,35.7609,濮阳市,油田运输公司,臭氧1小时,98,76,67,42,41,198,,114,114,20,26,9,8,0.5,0.5
2024-09-25T1300,2395A,115.0866,35.7754,濮阳市,油田物探公司,臭氧1小时,103,83,84,44,46,205,,116,116,17,28,9,8,0.4,0.4
2024-09-25T1300,3021A,115,35.7668,濮阳市,濮水河管理处,臭氧1小时,73,94,60,50,36,178,,101,101,24,23,13,7,0.4,0.3
2024-09-25T1300,2601A,100.98,22.7633,普洱市,市环保局,,31,31,31,13,21,59,,40,40,6,7,11,11,0.5,0.4
2024-09-25T1300,2602A,100.9817,22.8322,普洱市,普洱第二中学,,35,35,33,8,17,66,,39,39,6,12,9,8,0.6,0.6
2024-09-25T1300,2262A,131.0518,45.8751,七台河市,新一中,,27,24,21,10,9,86,,67,67,6,10,9,8,1.1,1.1
2024-09-25T1300,3345A,131.0577,45.7879,七台河市,中波台,颗粒物(PM10),55,59,26,3,6,62,,50,50,13,18,6,6,0.2,0.4
2024-09-25T1300,3637A,131.0176,45.7761,七台河市,人民广场,,22,22,34,3,13,69,,60,60,7,16,8,8,0.3,0.4
2024-09-25T1300,3684A,130.8781,45.8222,七台河市,新建矿广场,,46,46,54,10,19,64,,51,51,10,27,5,6,0.1,0.4
2024-09-25T1300,1779A,123.9305,47.3636,齐齐哈尔市,安居小区,,,,23,,14,88,,51,51,4,13,10,11,0.3,0.4
2024-09-25T1300,1780A,123.9488,47.3386,齐齐哈尔市,中心广场,,26,23,28,9,6,83,,47,47,8,16,2,2,0.4,0.5
2024-09-25T1300,1781A,123.9483,47.3227,齐齐哈尔市,农牧车辆厂,,28,27,28,7,11,88,,50,50,4,14,8,8,0.2,0.3
2024-09-25T1300,1783A,123.945,47.2988,齐齐哈尔市,市环境监测站,,28,21,21,6,15,88,,48,48,5,14,8,8,0.2,0.3
2024-09-25T1300,3662A,123.6333,47.2075,齐齐哈尔市,富区青少年活动中心,,27,23,30,3,22,86,,51,51,12,18,5,7,0.3,0.6
2024-09-25T1300,2591A,107.9783,26.5747,黔东南苗族侗族自治州,市环境监测站,,43,38,32,25,25,136,,73,73,18,22,6,4,0.4,0.5
2024-09-25T1300,2881A,107.8908,26.5311,黔东南苗族侗族自治州,凯里学院,,50,29,28,19,19,157,,83,83,8,16,3,3,0.8,0.8
2024-09-25T1300,2593A,107.5228,26.2403,黔南布依族苗族自治州,小围寨,,50,24,23,14,17,160,,82,82,5,10,7,5,0.5,0.5
2024-09-25T1300,3538A,107.5175,26.2978,黔南布依族苗族自治州,沙坝,,47,26,30,14,18,149,,78,78,5,11,6,4,0.5,0.6
2024-09-25T1300,2589A,104.9022,25.0925,黔西南布依族苗族自治州,场坝街,,41,22,45,18,34,131,,60,60,8,16,4,29,0.3,0.4
2024-09-25T1300,2590A,104.8811,25.0992,黔西南布依族苗族自治州,坪东大道,,38,37,42,23,32,119,,54,54,7,16,10,8,0.3,0.4
2024-09-25T1300,2502A,108.6236,21.9667,钦州市,市环保站,,41,41,50,19,26,78,,58,58,12,14,6,7,0.7,0.7
2024-09-25T1300,2503A,108.6549,21.9481,钦州市,沙埠小学,,41,41,48,24,26,86,,62,61,9,15,5,6,0.9,0.8
2024-09-25T1300,2504A,108.5989,21.7431,钦州市,港区一小,颗粒物(PM10),60,70,70,33,31,91,,56,56,17,25,5,6,0.8,0.7
2024-09-25T1300,3404A,108.5959,21.9633,钦州市,北职校,,,,50,,35,89,,64,64,9,13,6,6,0.8,0.8
2024-09-25T1300,1042A,119.5134,39.8207,秦皇岛市,北戴河环保局,,37,37,59,16,26,96,,118,113,10,18,3,5,0.4,0.7
2024-09-25T1300,1043A,119.7493,40.0116,秦皇岛市,第一关,,35,35,63,19,42,91,,78,78,11,51,1,6,0.4,0.7
2024-09-25T1300,1044A,119.5897,39.9499,秦皇岛市,监测站,,40,40,61,26,43,95,,86,83,12,26,3,4,0.4,0.7
2024-09-25T1300,1046A,119.5251,39.9041,秦皇岛市,建设大厦,,36,33,62,20,32,115,,104,100,6,20,3,8,0.4,0.8
2024-09-25T1300,3132A,119.610547,39.943889,秦皇岛市,文明里,,38,38,71,14,30,102,,104,100,8,24,2,6,0.4,0.7
2024-09-25T1300,1307A,120.6659,36.2403,青岛市,仰口,,44,30,12,17,11,139,,93,93,4,5,7,6,0.5,0.4
2024-09-25T1300,1310A,120.4134,36.0658,青岛市,市南区东部子站,臭氧1小时,79,44,20,19,7,183,,105,105,19,15,10,6,0.6,0.5
2024-09-25T1300,1311A,120.3664,36.1032,青岛市,四方区子站,臭氧1小时,93,61,21,31,8,194,,99,99,37,27,14,10,0.7,0.5
2024-09-25T1300,1312A,120.2994,36.054,青岛市,市南区西部子站,臭氧1小时,79,51,22,15,4,183,,99,99,14,15,11,9,0.7,0.6
2024-09-25T1300,1313A,120.4581,36.0858,青岛市,崂山区子站,,47,29,12,7,2,150,,94,94,18,16,10,8,0.6,0.5
2024-09-25T1300,1314A,120.1983,35.9608,青岛市,黄岛区子站,臭氧1小时,93,56,24,24,10,194,,82,82,26,30,11,10,0.6,0.5
2024-09-25T1300,1315A,120.3999,36.3083,青岛市,城阳区子站,臭氧1小时,102,48,29,20,12,203,,97,97,18,37,10,8,0.7,0.6
2024-09-25T1300,1966A,120.0405,35.8735,青岛市,黄岛区4号,臭氧1小时,98,61,23,19,7,198,,106,106,33,19,10,6,0.7,0.5
2024-09-25T1300,3362A,120.5014,36.4034,青岛市,即墨2号,臭氧1小时,88,41,23,20,8,190,,106,106,10,14,9,7,0.5,0.4
2024-09-25T1300,3642A,120.3503,36.0736,青岛市,市北区南部,臭氧1小时,84,40,22,24,7,187,,92,92,24,25,8,7,0.8,0.6
2024-09-25T1300,3643A,120.3948,36.1805,青岛市,李沧区北部,,,61,25,31,11,193,,106,106,25,24,11,9,,0.6
2024-09-25T1300,1702A,113.0426,23.691,清远市,环保大楼,,42,,18,29,15,81,,36,36,10,12,6,6,0.9,0.9
2024-09-25T1300,1703A,113.0208,23.7106,清远市,凤城街办,,30,27,17,21,12,85,,32,32,9,10,8,6,0.8,0.9
2024-09-25T1300,3025A,113.0477,23.6344,清远市,技师学院,,28,24,18,14,11,87,,35,35,10,11,6,6,0.6,0.6
2024-09-25T1300,3318A,112.9903,23.7403,清远市,清新太和,,35,35,21,23,14,58,,23,23,22,19,1,1,0.8,0.7
2024-09-25T1300,3455A,113.076,23.7198,清远市,清城东城,,26,25,17,15,11,83,,35,35,4,5,2,2,0.8,0.9
2024-09-25T1300,2661A,107.6325,35.7357,庆阳市,庆阳五中,,38,26,52,11,20,119,,94,94,6,12,7,8,0.3,0.4
2024-09-25T1300,2662A,107.6364,35.7067,庆阳市,市环保局,,36,25,46,9,18,115,,96,93,8,13,5,7,0.4,0.5
2024-09-25T1300,1916A,103.7897,25.5035,曲靖市,环境监测站,颗粒物(PM10),60,69,45,32,27,149,,95,95,9,11,8,6,0.8,0.8
2024-09-25T1300,1917A,103.8,25.5364,曲靖市,烟厂办公区,颗粒物(PM10),52,53,45,34,26,152,,87,87,9,11,4,4,0.5,0.5
2024-09-25T1300,3376A,103.7947,25.462,曲靖市,南苑二区,,50,50,43,35,29,135,,90,90,8,10,14,10,0.5,0.6
2024-09-25T1300,3377A,103.7444,25.5261,曲靖市,曲靖师范学院,,46,35,40,32,31,143,,87,87,9,13,11,12,0.7,0.7
2024-09-25T1300,1264A,118.8692,28.9398,衢州市,环保大楼,,40,8,38,7,28,125,,76,76,9,19,2,3,0.5,0.6
2024-09-25T1300,1265A,118.8709,28.9666,衢州市,实验学校,,38,14,35,10,32,119,,69,69,7,19,6,6,0.6,0.6
2024-09-25T1300,1266A,118.8621,28.9808,衢州市,衢州学院,,37,15,44,7,27,118,,71,71,12,22,6,6,0.7,0.7
2024-09-25T1300,1611A,118.5819,24.9117,泉州市,涂山街,,32,9,21,6,19,100,,45,45,8,30,2,3,0.6,0.8
2024-09-25T1300,1612A,118.5972,24.8978,泉州市,津头埔,,32,12,22,9,21,102,,44,44,9,34,4,5,0.6,0.8
2024-09-25T1300,1613A,118.6663,24.9424,泉州市,万安,,37,18,20,9,18,118,,46,46,7,24,2,2,0.6,0.8
2024-09-25T1300,3529A,118.6333,24.9264,泉州市,城华南路,,33,17,19,13,12,104,,43,43,8,22,3,3,0.4,0.5
2024-09-25T1300,2626A,88.8876,29.2718,日喀则市,日喀则监测站,,31,10,10,7,4,99,,102,98,6,7,5,5,0.4,0.3
2024-09-25T1300,3726A,88.8781,29.2426,日喀则市,林业技术推广中心,,30,6,6,3,1,93,,99,99,8,6,6,6,0.4,0.4
2024-09-25T1300,1659A,119.471,35.4209,日照市,监测站,,,27,18,15,11,145,,74,74,,39,11,11,0.6,0.5
2024-09-25T1300,1660A,119.523,35.4216,日照市,市政府广场,臭氧1小时,63,36,18,15,9,170,,100,100,10,22,12,10,0.5,0.4
2024-09-25T1300,1661A,119.5587,35.4044,日照市,港务局,臭氧1小时,88,39,20,22,13,190,,111,111,10,18,11,8,0.4,0.3
2024-09-25T1300,3507A,119.5328,35.4625,日照市,职业技术学院,臭氧1小时,64,34,18,12,8,171,,94,94,11,21,11,9,0.6,0.5
2024-09-25T1300,3604A,119.3266,35.1044,日照市,岚山环保分局,,46,39,23,18,12,147,,100,100,16,19,13,17,0.8,1
2024-09-25T1300,1835A,111.1922,34.7752,三门峡市,市政府,,,,46,,22,148,,63,63,19,33,18,13,,0.6
2024-09-25T1300,1836A,111.1587,34.7942,三门峡市,开发区,细颗粒物(PM2.5),59,66,54,42,31,129,,62,62,17,20,18,13,0.5,0.4
2024-09-25T1300,1838A,111.143,34.7955,三门峡市,风景区,,,,46,,29,139,,69,69,19,18,,12,0.9,0.9
2024-09-25T1300,3039A,111.1911,34.7829,三门峡市,三门峡市第一小学,细颗粒物(PM2.5),75,82,52,55,30,134,,69,69,21,23,17,13,0.7,0.6
2024-09-25T1300,3598A,111.1,34.7167,三门峡市,富达温泉假日酒店,颗粒物(PM10),68,86,66,44,36,164,,59,59,21,37,28,14,0.9,0.8
2024-09-25T1300,2324A,117.6211,26.2625,三明市,三钢,,15,11,26,9,14,45,,17,17,9,16,11,8,1.3,0.8
2024-09-25T1300,2325A,117.635,26.2714,三明市,三明二中,,19,14,26,13,15,45,,18,18,13,14,12,5,1.3,1
2024-09-25T1300,2326A,117.6028,26.2378,三明市,三元区政府,,18,18,32,10,20,48,,19,19,9,16,4,5,0.5,0.8
2024-09-25T1300,1876A,109.5078,18.2489,三亚市,河东子站,,29,8,15,3,6,92,,57,57,7,7,3,3,0.4,0.4
2024-09-25T1300,1877A,109.4964,18.2681,三亚市,河西子站,,30,10,13,3,5,93,,52,52,3,7,4,3,0.4,0.5
2024-09-25T1300,3540A,109.7348,18.3443,三亚市,君悦子站,,23,7,18,3,6,71,,51,51,5,11,3,3,0.3,0.5
2024-09-25T1300,2624A,91.7608,29.2313,山南市,山南监测站,,42,42,26,7,5,94,,83,83,4,4,8,8,0.3,0.2
2024-09-25T1300,2625A,91.7706,29.2436,山南市,山南人民医院,,31,31,40,8,8,98,,88,88,6,7,9,8,0.3,0.3
2024-09-25T1300,1674A,116.6794,23.3667,汕头市,金平子站,,30,24,25,7,12,94,,48,48,2,18,5,5,0.7,1
2024-09-25T1300,1675A,116.7244,23.3633,汕头市,龙湖子站,,27,24,18,13,7,84,,43,43,2,16,7,7,0.5,0.8
2024-09-25T1300,1676A,116.7258,23.2775,汕头市,濠江子站,,29,29,20,18,9,86,,41,41,9,15,7,6,0.7,0.9
2024-09-25T1300,1677A,116.7519,23.4714,汕头市,澄海子站,,32,25,20,11,10,102,,57,57,7,21,6,10,0.8,1
2024-09-25T1300,1678A,116.6092,23.2539,汕头市,潮阳子站,,28,,20,12,20,89,,43,43,1,12,5,5,0.5,0.7
2024-09-25T1300,3444A,116.454,23.2684,汕头市,潮南峡山,,25,14,24,12,17,78,,44,44,1,12,6,5,0.5,0.5
2024-09-25T1300,3624A,116.4069,23.2533,汕头市,潮南子站,,26,26,27,12,16,77,,40,40,10,19,5,5,0.6,0.7
2024-09-25T1300,1693A,115.3653,22.775,汕尾市,市环保局,,20,19,15,3,6,62,,30,30,4,9,7,7,0.6,0.7
2024-09-25T1300,1694A,115.3706,22.7898,汕尾市,市政府,,19,,13,9,7,58,,30,30,6,11,6,7,0.4,0.5
2024-09-25T1300,1695A,115.3622,22.7925,汕尾市,新城中学,,20,19,15,3,5,61,,33,33,3,8,6,6,0.6,0.7
2024-09-25T1300,2645A,109.9154,33.8715,商洛市,监测站,,43,43,41,25,20,130,,57,57,9,17,5,6,0.4,0.4
2024-09-25T1300,3045A,109.9643,33.8471,商洛市,商州区中学,颗粒物(PM10),51,51,65,28,22,136,,48,48,12,29,6,7,0.7,0.7
2024-09-25T1300,2408A,115.6702,34.4285,商丘市,环境监测站,臭氧1小时,80,39,48,22,29,184,,100,100,11,25,5,6,0.4,0.4
2024-09-25T1300,2409A,115.6458,34.4045,商丘市,粮食局,臭氧1小时,98,46,43,32,31,198,,137,137,6,12,9,9,0.5,0.5
2024-09-25T1300,2410A,115.6293,34.3948,商丘市,睢阳区环保局,臭氧1小时,80,53,52,14,26,184,,107,107,15,32,6,6,0.4,0.4
2024-09-25T1300,3171A,115.6071,34.4465,商丘市,梁园区档案局,臭氧1小时,70,48,44,12,26,176,,115,115,8,21,10,11,0.4,0.4
2024-09-25T1300,1141A,121.4,31.238,上海市,普陀,,15,,27,7,22,47,,23,23,28,44,4,4,0.8,0.9
2024-09-25T1300,1142A,121.478,31.2036,上海市,十五厂,,22,17,16,15,12,55,,47,46,30,33,8,8,0.5,0.5
2024-09-25T1300,1143A,121.467,31.3008,上海市,虹口,,16,,24,8,18,50,,36,36,27,39,8,8,0.5,0.6
2024-09-25T1300,1144A,121.412,31.1654,上海市,徐汇上师大,,22,,22,15,21,48,,32,32,36,42,6,6,0.7,0.7
2024-09-25T1300,1145A,121.536,31.2659,上海市,杨浦四漂,,24,16,22,11,14,75,,47,47,22,34,6,6,0.5,0.6
2024-09-25T1300,1147A,121.425,31.2261,上海市,静安监测站,,18,,27,11,21,57,,31,31,28,41,5,5,0.5,0.6
2024-09-25T1300,1148A,121.703,31.1907,上海市,浦东川沙,,23,14,16,3,7,72,,51,51,25,33,6,6,0.7,0.7
2024-09-25T1300,1149A,121.533,31.2284,上海市,浦东新区监测站,,21,15,15,9,12,67,,49,49,21,30,6,6,0.6,0.7
2024-09-25T1300,1150A,121.577,31.2071,上海市,浦东张江,,18,15,16,3,11,57,,48,48,26,32,5,5,0.8,0.8
2024-09-25T1300,3265A,121.4316,31.3322,上海市,宝山庙行,,17,,26,8,21,42,,27,27,34,46,6,6,0.7,0.8
2024-09-25T1300,3266A,121.8791,31.4662,上海市,崇明上实东滩,,27,8,10,3,5,86,,63,63,4,7,10,10,0.5,0.5
2024-09-25T1300,3268A,121.3162,31.2838,上海市,嘉定南翔,,18,7,28,6,25,37,,17,17,35,49,6,6,0.7,0.8
2024-09-25T1300,3269A,121.3359,30.7456,上海市,金山新城,细颗粒物(PM2.5),62,,33,44,30,80,,62,62,20,21,5,4,0.7,0.7
2024-09-25T1300,3270A,121.4996,31.0739,上海市,闵行浦江,,17,15,17,10,12,54,,39,39,25,34,5,5,0.5,0.9
2024-09-25T1300,3271A,121.2886,31.1663,上海市,青浦徐泾,,26,13,33,12,30,23,,16,16,52,49,6,6,0.9,0.7
2024-09-25T1300,3272A,121.2186,31.0378,上海市,松江图书馆,,42,,36,29,30,51,,46,46,39,29,4,4,1.0,0.8
2024-09-25T1300,3273A,121.3902,31.2059,上海市,长宁仙霞,,18,8,25,7,22,57,,23,23,29,47,8,8,0.9,1
