timepoint,stationcode,longitude,latitude,area,positionname,primarypollutant,aqi,pm10,pm10_24h,pm2_5,pm2_5_24h,o3,o3_24h,o3_8h,o3_8h_24h,no2,no2_24h,so2,so2_24h,co,co_24h
2025-04-21T1000,2566A,102.1879,31.914,阿坝藏族羌族自治州,州农科所,,38,38,24,10,8,56,,50,49,17,8,14,12,0.5,0.5
2025-04-21T1000,2568A,102.2502,31.8896,阿坝藏族羌族自治州,马师校,,19,11,13,11,15,60,,49,49,17,13,5,5,0.5,0.4
2025-04-21T1000,3994A,102.2165,31.9024,阿坝藏族羌族自治州,马尔康中学西区,,24,14,15,14,13,74,,61,61,8,6,4,4,0.4,0.4
2025-04-21T1000,2695A,80.292,41.1694,阿克苏地区,电视台,"颗粒物(PM10),细颗粒物(PM2.5)",500,3532,988,619,149,81,,93,93,3,5,8,4,0.6,0.5
2025-04-21T1000,2696A,80.2613,41.1551,阿克苏地区,艺术中心,"颗粒物(PM10),细颗粒物(PM2.5)",500,3820,1094,701,174,81,,92,92,5,6,3,4,0.3,0.3
2025-04-21T1000,2204A,105.6467,38.8363,阿拉善盟,西城区西花园,颗粒物(PM10),420,520,302,101,70,86,,105,96,8,10,5,7,0.7,0.8
2025-04-21T1000,2205A,105.6985,38.8411,阿拉善盟,蒙二幼,颗粒物(PM10),500,911,305,162,84,73,,93,85,9,10,7,9,0.5,0.7
2025-04-21T1000,2206A,105.724,38.8516,阿拉善盟,环保局新楼,颗粒物(PM10),500,745,275,191,97,79,,100,92,4,6,10,11,0.7,0.7
2025-04-21T1000,2708A,88.1264,47.8517,阿勒泰地区,市站,,26,12,13,3,6,83,,74,74,5,3,3,3,0.2,0.2
2025-04-21T1000,2630A,80.1161,32.5,阿里地区,阿里监测站,,38,15,15,10,8,120,,122,122,5,2,6,7,0.4,0.4
2025-04-21T1000,3192A,80.0903,32.5028,阿里地区,阿里藏医院,,42,19,22,6,6,132,,133,133,3,1,6,6,0.3,0.3
2025-04-21T1000,2642A,109.0318,32.6537,安康市,香溪洞,颗粒物(PM10),51,52,54,33,32,87,,120,105,6,8,7,7,0.9,0.8
2025-04-21T1000,2644A,109.0072,32.6975,安康市,汉滨区检察院,颗粒物(PM10),55,59,57,34,32,61,,85,68,14,9,7,13,0.6,0.6
2025-04-21T1000,4054A,109.0325,32.6913,安康市,市邮政管理局,颗粒物(PM10),65,80,57,42,32,60,,87,70,20,9,15,9,0.8,0.5
2025-04-21T1000,2291A,117.0809,30.5177,安庆市,环科院,,26,26,70,14,37,62,,101,85,25,21,8,11,1.0,0.9
2025-04-21T1000,2292A,117.0331,30.5119,安庆市,马山宾馆,,34,34,67,18,39,61,,107,88,25,20,3,7,0.9,0.9
2025-04-21T1000,2294A,116.9896,30.6145,安庆市,安庆大学,,32,,71,22,41,69,,89,81,15,17,3,5,0.6,0.8
2025-04-21T1000,3173A,117.0598,30.5351,安庆市,市人大,,22,,70,13,38,70,,107,90,21,20,7,10,0.6,0.7
2025-04-21T1000,3122A,105.9606,26.2611,安顺市,伍家关,,31,25,30,13,20,97,,96,95,6,4,4,4,0.4,0.4
2025-04-21T1000,3123A,105.9408,26.2431,安顺市,凤凰山,,31,24,31,16,21,97,,95,92,6,5,8,7,0.6,0.6
2025-04-21T1000,3124A,105.9439,26.2564,安顺市,金钟山,,31,28,30,16,22,98,,96,93,6,6,6,6,0.5,0.5
2025-04-21T1000,3125A,105.8983,26.2481,安顺市,娄家坡,,32,26,30,19,23,100,,99,95,5,5,7,6,0.5,0.6
2025-04-21T1000,1818A,114.4839,36.0621,安阳市,棉研所,,,,,,,,,,,,,,,,
2025-04-21T1000,1819A,114.3551,36.1017,安阳市,红庙街,颗粒物(PM10),55,59,59,35,34,89,,94,93,4,4,4,4,0.5,0.6
2025-04-21T1000,1820A,114.361,36.0681,安阳市,银杏小区,细颗粒物(PM2.5),53,48,62,37,36,93,,98,97,8,8,6,6,0.4,0.5
2025-04-21T1000,3141A,114.3922,36.0878,安阳市,信访局,颗粒物(PM10),53,56,76,30,27,99,,108,105,5,9,3,2,0.0,0.1
2025-04-21T1000,3669A,114.4705,36.0637,安阳市,左辅环卫站,颗粒物(PM10),58,66,77,29,31,94,,95,94,12,12,4,4,0.2,0.3
2025-04-21T1000,3703A,114.2917,36.0949,安阳市,安钢职工学校,,,,65,,33,87,,94,92,14,9,,4,,0.5
2025-04-21T1000,1748A,123.044,41.1196,鞍山市,深沟寺,,38,16,34,13,21,119,,80,80,11,20,5,10,0.4,0.8
2025-04-21T1000,1749A,123.011,41.0931,鞍山市,太阳城,,35,10,46,3,23,109,,65,65,7,21,4,6,0.5,1
2025-04-21T1000,1750A,123.0485,41.1442,鞍山市,太平,,,,49,,23,,,60,60,7,22,8,11,0.4,0.9
2025-04-21T1000,1751A,122.9642,41.0971,鞍山市,铁西三道街,,35,26,67,3,34,109,,44,44,16,44,5,8,0.6,1.2
2025-04-21T1000,1753A,123.022,41.0821,鞍山市,明达新区,,35,13,38,6,21,110,,66,66,6,18,5,7,0.3,0.6
2025-04-21T1000,1754A,123.1289,41.0228,鞍山市,千山,,,,17,,7,,,85,,,8,,5,,0.4
2025-04-21T1000,4201A,122.9446,41.0826,鞍山市,兴盛南路290号,,,16,69,6,34,,,37,37,16,42,6,12,0.3,1.1
2025-04-21T1000,2195A,107.4212,40.761,巴彦淖尔市,附二中,颗粒物(PM10),360,468,270,130,81,86,,92,86,5,11,4,8,0.4,0.6
2025-04-21T1000,2196A,107.37,40.7372,巴彦淖尔市,市环保大楼,颗粒物(PM10),367,473,283,126,89,82,,88,82,7,13,5,7,0.3,0.4
2025-04-21T1000,1956A,86.1472,41.7538,巴音郭楞蒙古自治州,孔雀公园,颗粒物(PM10),52,53,92,10,18,75,,67,66,8,8,5,5,0.3,0.2
2025-04-21T1000,1957A,86.1972,41.7166,巴音郭楞蒙古自治州,棉纺厂,颗粒物(PM10),58,66,107,3,10,72,,64,61,10,10,3,3,0.2,0.2
2025-04-21T1000,1958A,86.2357,41.7173,巴音郭楞蒙古自治州,经济开发区,,43,43,84,7,8,77,,71,69,8,5,7,6,0.2,0.2
2025-04-21T1000,2914A,106.7677,31.8794,巴中市,苏山坪,,29,21,23,13,14,91,,97,95,6,6,3,4,0.4,0.4
2025-04-21T1000,3181A,106.7768,31.8526,巴中市,市五中,,32,32,31,16,15,60,,66,58,26,13,6,6,0.9,0.8
2025-04-21T1000,3183A,106.7418,31.8654,巴中市,圣泉水务公司,,23,23,24,13,14,68,,71,62,16,9,4,4,0.6,0.6
2025-04-21T1000,3616A,106.7616,31.8344,巴中市,市中心医院,,28,28,26,18,18,69,,64,54,20,11,7,7,0.8,0.7
2025-04-21T1000,2235A,122.7911,45.6077,白城市,洮北区环保局,颗粒物(PM10),57,63,48,39,28,70,,77,70,23,14,6,3,0.6,0.5
2025-04-21T1000,2236A,122.8738,45.5725,白城市,市环保局,,,70,52,45,31,57,,69,60,,12,9,5,0.7,0.6
2025-04-21T1000,2231A,126.4219,41.9171,白山市,喜丰,颗粒物(PM10),64,77,58,10,19,86,,28,28,21,27,7,10,1.0,1.1
2025-04-21T1000,2232A,126.4077,41.9419,白山市,环保局,,,60,43,18,17,,,31,30,15,21,16,13,0.7,0.7
2025-04-21T1000,2647A,104.1724,36.5446,白银市,第三小学,颗粒物(PM10),226,368,237,64,63,87,,94,88,6,5,7,10,0.4,0.5
2025-04-21T1000,2648A,104.1465,36.5482,白银市,动力公司,颗粒物(PM10),177,304,207,67,59,90,,98,92,6,6,5,8,0.4,0.4
2025-04-21T1000,2512A,106.6103,23.9011,百色市,市监测站,颗粒物(PM10),60,69,47,35,26,32,,26,23,36,19,7,5,0.9,0.7
2025-04-21T1000,2513A,106.6538,23.8859,百色市,市中心血站,颗粒物(PM10),76,102,63,51,36,31,,10,10,46,32,10,6,1.1,0.8
2025-04-21T1000,3406A,106.6085,23.8798,百色市,祈福高中,颗粒物(PM10),68,86,63,44,31,23,,11,11,40,27,11,7,1.1,0.9
2025-04-21T1000,2270A,117.396,32.939,蚌埠市,工人疗养院,颗粒物(PM10),63,76,52,35,18,93,,65,65,22,20,8,6,0.9,0.6
2025-04-21T1000,2271A,117.3605,32.9427,蚌埠市,百货大楼,颗粒物(PM10),62,74,56,33,20,84,,65,64,29,25,9,7,0.9,0.5
2025-04-21T1000,2273A,117.4185,32.8911,蚌埠市,蚌埠学院,颗粒物(PM10),59,68,46,41,18,98,,73,72,18,15,7,4,0.9,0.6
2025-04-21T1000,2274A,117.3533,32.9673,蚌埠市,淮上区政府,颗粒物(PM10),65,80,52,41,22,83,,71,66,34,22,9,6,0.8,0.4
2025-04-21T1000,2275A,117.3145,32.8977,蚌埠市,高新区,,,68,44,36,20,89,,75,72,20,15,8,6,,0.4
2025-04-21T1000,3715A,117.3092,32.9314,蚌埠市,蚌埠田家炳中学,颗粒物(PM10),63,75,55,36,21,90,,72,70,23,19,9,7,0.7,0.4
2025-04-21T1000,1585A,109.8756,40.6532,包头市,市环境监测站,,,,73,,30,,,91,86,8,22,7,12,0.2,0.5
2025-04-21T1000,1587A,109.9991,40.5842,包头市,包头八中,颗粒物(PM10),69,87,87,15,32,85,,95,89,9,25,12,19,0.3,0.6
2025-04-21T1000,1588A,109.8538,40.6821,包头市,青山宾馆,颗粒物(PM10),65,80,66,19,33,73,,89,81,8,20,9,13,0.4,0.7
2025-04-21T1000,1589A,109.8642,40.6288,包头市,惠龙物流,颗粒物(PM10),81,112,72,38,30,82,,99,92,9,20,7,13,0.2,0.5
2025-04-21T1000,1590A,110.0377,40.5546,包头市,东河鸿龙湾,颗粒物(PM10),64,77,85,22,28,81,,92,85,8,22,7,12,0.4,0.6
2025-04-21T1000,3283A,109.9154,40.5685,包头市,滨河大厦,颗粒物(PM10),65,80,74,33,30,82,,90,85,6,22,11,14,0.4,0.6
2025-04-21T1000,3419A,109.9447,40.6261,包头市,包头市委党校,颗粒物(PM10),65,80,73,19,29,82,,100,93,6,19,8,12,0.4,0.4
2025-04-21T1000,3683A,109.8331,40.6576,包头市,昆区政府,颗粒物(PM10),82,113,72,18,33,79,,95,88,9,21,5,11,0.4,0.7
2025-04-21T1000,1930A,107.185,34.3063,宝鸡市,庙沟村,颗粒物(PM10),111,171,97,52,37,86,,97,96,6,8,7,8,0.5,0.6
2025-04-21T1000,1931A,107.0708,34.3017,宝鸡市,竹园沟,颗粒物(PM10),141,231,108,59,37,49,,54,54,10,19,8,9,0.5,0.5
2025-04-21T1000,1932A,107.1906,34.3672,宝鸡市,三陆医院,颗粒物(PM10),101,151,109,53,43,66,,78,75,18,22,6,8,0.6,0.7
2025-04-21T1000,1933A,107.1431,34.3547,宝鸡市,监测站,颗粒物(PM10),102,154,120,55,63,,,78,78,14,26,,10,0.3,0.4
2025-04-21T1000,1934A,107.1186,34.3739,宝鸡市,技工学校,颗粒物(PM10),93,135,109,66,49,79,,76,76,7,15,8,10,0.6,0.8
2025-04-21T1000,1935A,107.3906,34.3528,宝鸡市,陈仓区环保局家属楼,颗粒物(PM10),110,170,109,50,41,76,,78,78,13,18,8,10,0.5,0.6
2025-04-21T1000,1936A,107.2058,34.3497,宝鸡市,文理学院,颗粒物(PM10),107,164,109,67,56,78,,86,84,13,18,6,9,0.5,0.6
2025-04-21T1000,1937A,107.2386,34.3622,宝鸡市,三迪小学,颗粒物(PM10),98,145,111,60,44,76,,84,78,15,21,6,8,0.5,0.7
2025-04-21T1000,1051A,115.493,38.8632,保定市,游泳馆,颗粒物(PM10),67,84,105,45,59,108,,93,93,13,21,4,3,0.2,0.2
2025-04-21T1000,1052A,115.5213,38.8959,保定市,华电二区,颗粒物(PM10),60,70,82,38,48,111,,97,97,9,13,4,5,0.5,0.6
2025-04-21T1000,1053A,115.4713,38.9108,保定市,接待中心,颗粒物(PM10),68,85,83,47,55,106,,100,98,11,13,3,4,0.6,0.7
2025-04-21T1000,1054A,115.4612,38.8416,保定市,地表水厂,,,71,88,35,46,,,95,92,14,18,5,6,0.5,0.5
2025-04-21T1000,3581A,115.31981,38.95208,保定市,满城区生态环境分局,细颗粒物(PM2.5),70,73,81,51,53,93,,82,80,15,15,15,14,0.4,0.5
2025-04-21T1000,3582A,115.47694,38.76408,保定市,清苑区第二中学,"颗粒物(PM10),细颗粒物(PM2.5)",63,75,92,45,57,110,,88,88,10,17,6,6,0.4,0.4
2025-04-21T1000,3583A,115.62909,39.02311,保定市,徐水物探局,颗粒物(PM10),69,87,93,39,49,98,,86,82,18,19,4,4,0.5,0.5
2025-04-21T1000,4004A,115.4202,38.8656,保定市,双鹰农机,细颗粒物(PM2.5),52,52,76,36,45,98,,92,90,13,16,6,7,0.3,0.3
2025-04-21T1000,4034A,115.5150,38.8590,保定市,植保所站,颗粒物(PM10),62,73,82,38,54,103,,81,81,12,19,1,3,0.6,0.5
2025-04-21T1000,2594A,99.1678,25.1081,保山市,市环境监测站,细颗粒物(PM2.5),59,52,32,42,24,35,,46,38,19,9,8,6,0.6,0.5
2025-04-21T1000,2595A,99.1711,25.1328,保山市,市环保局,,,52,36,21,18,,,56,48,19,8,8,7,0.7,0.5
2025-04-21T1000,1866A,109.2262,21.588,北海市,牛尾岭水库,,,39,25,28,13,33,,13,13,,12,6,6,0.6,0.6
2025-04-21T1000,1867A,109.1436,21.4086,北海市,海滩公园,,38,38,44,10,11,34,,24,24,9,14,6,5,0.7,0.8
2025-04-21T1000,1868A,109.0981,21.4661,北海市,新市环保局,,,,29,,12,,,42,39,17,12,,4,0.7,0.6
2025-04-21T1000,1869A,109.1778,21.5233,北海市,北海工业园,,48,48,36,27,19,39,,20,20,10,10,7,8,0.8,0.7
2025-04-21T1000,3400A,109.1911,21.4415,北海市,龙潭自来水厂,,33,33,34,22,20,37,,,,8,11,7,6,0.4,0.4
2025-04-21T1000,1001A,116.3621,39.8784,北京市,万寿西宫,细颗粒物(PM2.5),102,103,70,76,43,67,,51,51,39,32,13,10,1.3,0.8
2025-04-21T1000,1002A,116.2202,40.2915,北京市,定陵,,,,,,,,,,,,,,,,
2025-04-21T1000,1003A,116.4174,39.9289,北京市,东四,细颗粒物(PM2.5),108,116,79,81,47,65,,50,50,37,30,13,11,1.3,0.9
2025-04-21T1000,1004A,116.4072,39.8863,北京市,天坛,细颗粒物(PM2.5),105,112,69,79,41,59,,49,49,39,31,8,6,1.3,0.9
2025-04-21T1000,1005A,116.462,39.9365,北京市,农展馆,细颗粒物(PM2.5),97,112,72,72,43,67,,49,49,32,29,13,11,1.4,0.8
2025-04-21T1000,1006A,116.3392,39.9295,北京市,官园,细颗粒物(PM2.5),83,95,72,61,43,51,,41,40,33,22,10,8,1.0,0.7
2025-04-21T1000,1007A,116.2878,39.9611,北京市,海淀万柳,颗粒物(PM10),65,80,70,44,37,39,,39,32,48,36,10,7,0.9,0.7
2025-04-21T1000,1008A,116.6636,40.135,北京市,顺义新城,细颗粒物(PM2.5),80,103,69,59,41,69,,68,68,31,24,13,11,1.0,0.6
2025-04-21T1000,1009A,116.6275,40.3275,北京市,怀柔镇,颗粒物(PM10),55,60,61,37,42,70,,62,61,26,21,10,7,1.0,0.7
2025-04-21T1000,1010A,116.2296,40.217,北京市,昌平镇,细颗粒物(PM2.5),74,79,72,54,44,65,,62,56,31,29,6,3,0.8,0.4
2025-04-21T1000,1011A,116.3966,39.9821,北京市,奥体中心,颗粒物(PM10),82,114,72,59,36,57,,44,42,42,36,8,6,1.3,0.9
2025-04-21T1000,3281A,115.9718,40.4529,北京市,延庆夏都,细颗粒物(PM2.5),59,64,77,42,48,84,,90,83,20,18,8,5,0.6,0.6
2025-04-21T1000,3418A,116.8336,40.4095,北京市,密云新城,颗粒物(PM10),55,60,57,32,33,69,,57,51,22,21,10,9,0.9,0.7
2025-04-21T1000,3671A,116.088,39.9726,北京市,门头沟三家店,颗粒物(PM10),73,95,93,50,43,49,,43,39,50,39,8,4,0.7,0.6
2025-04-21T1000,3672A,116.1541,39.8204,北京市,丰台云岗,细颗粒物(PM2.5),72,71,57,52,44,38,,39,30,48,32,7,6,0.9,0.7
2025-04-21T1000,3673A,116.6804,39.9081,北京市,通州东关,细颗粒物(PM2.5),100,119,74,75,45,61,,55,55,33,30,12,10,1.3,0.8
2025-04-21T1000,3674A,115.9577,39.7603,北京市,房山燕山,细颗粒物(PM2.5),60,67,78,43,50,40,,40,33,50,32,7,6,0.8,0.6
2025-04-21T1000,3675A,116.4672,39.7733,北京市,大兴旧宫,细颗粒物(PM2.5),108,123,77,81,41,51,,37,37,35,31,4,3,0.9,0.5
2025-04-21T1000,3694A,115.986,40.4563,北京市,延庆石河营,颗粒物(PM10),58,66,73,38,46,74,,82,76,12,17,3,3,0.5,0.6
2025-04-21T1000,3695A,116.6151,40.3053,北京市,怀柔新城,"颗粒物(PM10),细颗粒物(PM2.5)",60,69,58,43,38,69,,62,61,24,19,7,5,1.2,0.9
2025-04-21T1000,3696A,116.2545,39.8768,北京市,丰台小屯,细颗粒物(PM2.5),72,67,40,52,39,48,,38,37,40,30,7,4,0.8,0.5
2025-04-21T1000,3697A,116.84,40.3844,北京市,密云镇,颗粒物(PM10),56,62,59,36,38,64,,52,49,31,23,11,9,0.8,0.5
2025-04-21T1000,4182A,116.1942,39.9158,北京市,八角北路9号,颗粒物(PM10),67,83,89,46,42,45,,30,24,42,38,11,8,0.6,0.5
2025-04-21T1000,4194A,117.0790,40.1518,北京市,洳河巡河路,细颗粒物(PM2.5),75,75,53,55,39,87,,92,90,22,14,11,9,1.3,0.7
2025-04-21T1000,1761A,123.8275,41.3064,本溪市,大峪,,,15,43,3,19,,,40,40,5,28,6,8,0.4,0.8
2025-04-21T1000,1762A,123.7567,41.3325,本溪市,溪湖,,35,35,40,8,19,111,,76,76,10,22,7,9,0.7,1.2
2025-04-21T1000,1763A,123.7169,41.3094,本溪市,彩屯,,40,40,43,17,24,112,,78,78,20,23,18,12,1.6,1.2
2025-04-21T1000,1764A,123.7669,41.2864,本溪市,东明,颗粒物(PM10),51,51,49,12,18,115,,72,72,6,26,7,10,0.6,1.1
2025-04-21T1000,1765A,123.7992,41.2664,本溪市,新立屯,,37,33,30,8,14,116,,97,97,9,31,9,10,0.5,0.6
2025-04-21T1000,1766A,123.8142,41.3472,本溪市,威宁,颗粒物(PM10),64,78,66,3,20,109,,37,37,3,22,6,6,0.4,0.8
2025-04-21T1000,2587A,105.2864,27.3125,毕节市,八中,,32,32,46,18,23,82,,27,27,15,14,14,7,0.8,0.7
2025-04-21T1000,2588A,105.31,27.2944,毕节市,师专,,,33,46,20,32,,,10,9,26,27,11,10,,0.5
2025-04-21T1000,4263A,105.3688,27.3598,毕节市,工业大道,,44,44,48,26,29,69,,22,22,23,20,9,7,0.9,0.9
2025-04-21T1000,1629A,118.0018,37.3617,滨州市,第二水厂,颗粒物(PM10),68,85,69,44,33,92,,46,46,34,29,15,11,1.1,0.9
2025-04-21T1000,1630A,117.9776,37.393,滨州市,北中新校,"颗粒物(PM10),细颗粒物(PM2.5)",62,73,62,44,32,96,,57,57,32,26,10,7,0.7,0.5
2025-04-21T1000,3514A,117.9378,37.3956,滨州市,中海酒店,颗粒物(PM10),57,63,60,36,38,106,,68,68,25,21,15,11,1.0,0.8
2025-04-21T1000,3515A,117.9378,37.3553,滨州市,开发区一中,,,,71,,32,102,,51,51,31,30,,8,0.5,0.5
2025-04-21T1000,3516A,118.0917,37.694,滨州市,金海六路,颗粒物(PM10),62,73,54,36,27,113,,67,67,23,21,15,19,0.8,0.6
2025-04-21T1000,4028A,117.9956,37.3753,滨州市,滨州市西街道办事处,细颗粒物(PM2.5),70,80,63,51,39,103,,60,60,27,23,14,9,0.8,0.6
2025-04-21T1000,2311A,115.8072,33.8399,亳州市,污水处理厂,,36,36,41,20,14,52,,87,74,15,12,3,5,0.4,0.3
2025-04-21T1000,2312A,115.7789,33.8518,亳州市,三国揽胜宫,,,,46,23,13,50,,89,78,15,12,3,5,0.4,0.3
2025-04-21T1000,3332A,115.7633,33.8034,亳州市,亳州学院,,42,42,38,23,12,53,,92,77,18,13,1,2,0.5,0.3
2025-04-21T1000,2693A,82.0485,44.8556,博尔塔拉蒙古自治州,市党校,,36,36,36,17,14,39,,33,28,25,32,2,2,0.3,0.2
2025-04-21T1000,2694A,82.0806,44.8969,博尔塔拉蒙古自治州,市环保局,颗粒物(PM10),53,55,48,16,12,35,,46,38,22,15,4,3,0.5,0.4
2025-04-21T1000,1071A,116.8842,38.2991,沧州市,沧县城建局,细颗粒物(PM2.5),67,69,81,48,40,99,,71,71,20,26,10,8,0.5,0.4
2025-04-21T1000,1072A,116.8584,38.3254,沧州市,电视转播站,细颗粒物(PM2.5),70,74,74,51,48,102,,73,73,18,24,8,8,0.4,0.3
2025-04-21T1000,1073A,116.8709,38.3228,沧州市,市环保局,,,,70,,41,,,71,71,17,23,16,14,0.5,0.4
2025-04-21T1000,3324A,116.8136,38.3004,沧州市,河北水利电力学院,颗粒物(PM10),65,80,74,32,38,104,,81,81,17,21,14,12,0.5,0.4
2025-04-21T1000,2622A,97.1806,31.1273,昌都市,昌都监测站,,,,9,9,8,72,,72,66,5,4,2,2,,0.1
2025-04-21T1000,3719A,97.1714,31.1406,昌都市,昌都会议中心,,22,14,14,6,10,69,,72,65,7,4,2,2,0.2,0.2
2025-04-21T1000,2690A,88.1236,43.8886,昌吉回族自治州,天山天池,,,,9,0,6,102,,100,100,4,4,2,3,0.5,0.5
2025-04-21T1000,2692A,87.2717,44.0297,昌吉回族自治州,新区政务中心,,27,27,20,13,8,48,,34,34,24,17,6,6,0.4,0.4
2025-04-21T1000,3613A,87.3095,44.0142,昌吉回族自治州,亚心广场,,36,36,24,12,12,49,,31,30,25,22,6,6,0.4,0.3
2025-04-21T1000,1119A,125.3325,43.9166,长春市,食品厂,颗粒物(PM10),53,56,52,24,31,96,,88,86,19,20,10,10,0.5,0.5
2025-04-21T1000,1120A,125.2863,43.9027,长春市,客车厂,颗粒物(PM10),54,57,47,24,31,94,,90,89,25,22,8,8,0.6,0.5
2025-04-21T1000,1121A,125.2841,43.8463,长春市,邮电学院,颗粒物(PM10),57,63,57,25,34,105,,88,88,17,19,9,9,0.5,0.5
2025-04-21T1000,1122A,125.3716,43.8772,长春市,劳动公园,颗粒物(PM10),51,51,51,20,31,103,,87,87,13,16,8,9,0.8,0.8
2025-04-21T1000,1123A,125.3297,43.8805,长春市,园林处,,50,50,52,18,28,101,,88,88,14,16,10,10,0.6,0.6
2025-04-21T1000,1124A,125.4605,43.79,长春市,净月潭,颗粒物(PM10),65,80,60,46,38,105,,91,91,19,17,9,8,0.6,0.5
2025-04-21T1000,1125A,125.7194,43.515,长春市,甩湾子,,,,,,,,,,,,,,,,
2025-04-21T1000,1126A,125.3863,43.8447,长春市,经开区环卫处,颗粒物(PM10),57,64,51,27,29,88,,80,80,21,19,6,6,0.6,0.6
2025-04-21T1000,1127A,125.245,43.7783,长春市,高新区管委会,,44,44,48,23,34,99,,83,83,17,20,10,9,0.6,0.6
2025-04-21T1000,1128A,125.1761,43.8325,长春市,岱山公园,颗粒物(PM10),76,101,52,40,35,96,,,,31,28,10,8,0.7,0.6
2025-04-21T1000,1335A,113.0833,28.2325,长沙市,经开区环保局,,36,36,46,16,29,67,,57,54,8,13,8,6,0.6,0.5
2025-04-21T1000,1336A,112.8872,28.2189,长沙市,高开区环保局,,32,32,45,16,24,63,,58,55,6,7,8,5,1.1,1
2025-04-21T1000,1337A,113.0792,28.2053,长沙市,马坡岭,,36,36,42,18,23,64,,52,50,6,9,5,4,0.6,0.6
2025-04-21T1000,1338A,112.9394,28.19,长沙市,湖南师范大学,,38,38,44,18,23,63,,46,46,9,10,5,4,0.6,0.6
2025-04-21T1000,1339A,113.0178,28.1322,长沙市,雨花区环保局,,,33,41,15,20,,,58,54,6,9,5,4,0.5,0.5
2025-04-21T1000,1340A,112.9792,28.2597,长沙市,伍家岭,,40,40,51,21,32,57,,52,49,13,16,3,2,0.8,0.7
2025-04-21T1000,1341A,113.0014,28.1944,长沙市,火车新站,,42,42,50,22,24,67,,54,50,8,15,8,7,0.7,0.8
2025-04-21T1000,1342A,112.9844,28.1178,长沙市,天心区环保局,,34,34,43,17,25,64,,54,52,6,10,3,2,0.8,0.9
2025-04-21T1000,1343A,112.8908,28.1308,长沙市,湖南中医药大学,,40,40,47,17,30,65,,47,46,8,15,6,2,1.2,1
2025-04-21T1000,1344A,112.9581,28.3611,长沙市,沙坪,,35,35,58,15,24,59,,54,52,10,10,8,6,0.6,0.6
2025-04-21T1000,1727A,113.1147,36.1547,长治市,清华站,颗粒物(PM10),87,123,57,48,27,125,,130,126,21,9,9,6,0.7,0.5
2025-04-21T1000,1730A,113.0886,36.2125,长治市,审计局,细颗粒物(PM2.5),67,66,48,48,32,122,,140,134,24,12,10,9,0.6,0.4
2025-04-21T1000,1731A,113.0844,36.1856,长治市,长治八中,颗粒物(PM10),73,95,58,47,33,125,,140,134,24,12,13,9,0.9,0.6
2025-04-21T1000,2845A,113.1569,36.1911,长治市,德盛苑,颗粒物(PM10),57,64,48,36,26,110,,124,116,22,10,6,4,0.9,0.6
2025-04-21T1000,3568A,113.06,36.0464,长治市,向阳小学,颗粒物(PM10),76,102,73,47,37,125,,145,137,26,12,12,10,0.6,0.5
2025-04-21T1000,3569A,112.8792,36.3144,长治市,屯留一中,细颗粒物(PM2.5),69,63,63,50,34,139,,136,136,15,15,10,9,0.1,0.1
2025-04-21T1000,4189A,113.1131,36.19948,长治市,英华南巷50号,细颗粒物(PM2.5),67,81,54,48,30,122,,139,133,25,12,8,5,1.1,0.8
2025-04-21T1000,4190A,113.2367,36.3344,长治市,学府街1号,细颗粒物(PM2.5),87,87,69,64,44,116,,92,92,34,24,12,3,1.7,0.9
2025-04-21T1000,1854A,111.6975,28.9703,常德市,市二中,细颗粒物(PM2.5),79,,68,58,54,54,,36,36,15,17,7,8,1.0,0.9
2025-04-21T1000,1857A,111.7158,29.1456,常德市,白鹤山,,,,,,,,,,,,,,,,
2025-04-21T1000,3138A,111.7153,29.0289,常德市,武陵区永安,细颗粒物(PM2.5),63,72,70,45,46,54,,44,44,18,17,2,4,0.8,0.7
2025-04-21T1000,3139A,111.6892,28.9881,常德市,鼎城区玉霞,细颗粒物(PM2.5),62,65,69,44,44,55,,33,33,12,14,4,6,0.9,0.9
2025-04-21T1000,3140A,111.6625,29.0531,常德市,武陵区长庚,细颗粒物(PM2.5),59,64,69,42,43,44,,53,49,20,14,7,8,0.9,0.8
2025-04-21T1000,1196A,119.9633,31.762,常州市,市监测站,颗粒物(PM10),80,110,72,51,30,107,,62,62,18,24,10,12,0.8,0.9
2025-04-21T1000,1200A,119.9468,31.7069,常州市,武进监测站,颗粒物(PM10),83,115,86,25,22,110,,63,63,24,33,15,15,0.6,0.8
2025-04-21T1000,1201A,119.9255,31.9087,常州市,安家,颗粒物(PM10),75,100,60,45,25,91,,62,62,34,27,11,11,0.5,0.5
2025-04-21T1000,3002A,119.9805,31.8174,常州市,行政中心,颗粒物(PM10),75,99,61,44,28,94,,60,60,35,27,19,16,1.0,0.6
2025-04-21T1000,3003A,120.0522,31.7748,常州市,经开区,颗粒物(PM10),61,72,56,31,23,97,,64,64,37,29,11,13,0.6,0.7
2025-04-21T1000,3010A,119.9025,31.7964,常州市,钟楼,颗粒物(PM10),72,94,51,36,25,100,,62,62,23,24,7,9,0.6,0.6
2025-04-21T1000,3429A,119.8598,31.7066,常州市,武进经发区,颗粒物(PM10),60,69,49,25,21,114,,67,67,18,25,10,11,1.0,1.1
2025-04-21T1000,3430A,119.5826,31.7245,常州市,金坛城区,,,80,48,21,18,,,59,58,15,23,,8,0.7,0.7
2025-04-21T1000,2220A,120.4318,41.5881,朝阳市,西梁,,41,41,36,19,19,88,,89,89,18,13,11,13,0.5,0.5
2025-04-21T1000,2221A,120.4521,41.5646,朝阳市,河畔小区,颗粒物(PM10),57,64,34,24,18,92,,100,99,18,12,10,13,0.6,0.6
2025-04-21T1000,2222A,120.4176,41.5648,朝阳市,八里堡,,37,37,36,20,18,80,,82,82,26,16,9,10,0.6,0.8
2025-04-21T1000,2223A,120.3806,41.5969,朝阳市,农业园区,颗粒物(PM10),52,53,52,27,23,74,,80,74,38,17,13,11,0.8,0.8
2025-04-21T1000,1705A,116.6367,23.6719,潮州市,西园路,细颗粒物(PM2.5),65,56,32,47,38,28,,8,8,15,21,5,8,0.6,0.7
2025-04-21T1000,3026A,116.6183,23.6608,潮州市,市政府,颗粒物(PM10),52,53,52,34,31,38,,13,13,16,24,5,12,0.6,0.7
2025-04-21T1000,4036A,116.6461,23.6761,潮州市,金山,细颗粒物(PM2.5),63,57,49,45,34,38,,10,10,16,23,8,10,0.6,0.8
2025-04-21T1000,2472A,113.0073,25.9061,郴州市,马头岭,,29,29,24,10,8,43,,55,50,8,7,7,7,0.8,0.8
2025-04-21T1000,2473A,113.0116,25.8226,郴州市,市职中,,28,25,20,19,16,48,,60,55,6,6,2,2,0.5,0.6
2025-04-21T1000,2475A,113.0383,25.8071,郴州市,市审计局,,39,39,24,19,15,53,,64,59,7,7,2,3,0.3,0.4
2025-04-21T1000,2476A,113.0348,25.7759,郴州市,市环保局,,30,30,22,18,18,44,,54,50,6,7,8,8,0.4,0.5
2025-04-21T1000,4252A,113.0138,25.8011,郴州市,好美居路49号,,48,48,23,20,16,45,,60,54,7,7,3,4,0.6,0.6
2025-04-21T1000,1431A,103.9728,30.7236,成都市,金泉两河,颗粒物(PM10),58,66,68,24,36,73,,67,67,17,20,5,5,0.8,0.8
2025-04-21T1000,1432A,104.176,30.6872,成都市,十里店,,50,50,77,25,33,66,,53,53,20,26,5,5,0.7,0.8
2025-04-21T1000,1433A,104.079,30.5706,成都市,三瓦窑,,47,47,61,10,32,77,,53,53,18,37,5,5,0.7,0.8
2025-04-21T1000,1434A,104.1114,30.63,成都市,沙河铺,,49,49,63,18,33,65,,49,49,20,29,7,7,0.8,0.9
2025-04-21T1000,1437A,104.0786,30.6531,成都市,君平街,颗粒物(PM10),51,51,67,19,43,60,,45,45,26,37,8,8,0.8,0.9
2025-04-21T1000,1438A,103.613,31.0283,成都市,灵岩寺,,,,,,,,,,,,,,,,
2025-04-21T1000,2880A,104.0239,30.65639,成都市,大石西路,细颗粒物(PM2.5),62,60,73,44,47,62,,42,42,25,31,6,5,0.4,0.5
2025-04-21T1000,3136A,104.2725,30.5589,成都市,龙泉驿区区政府,,29,29,37,12,18,81,,83,76,15,14,6,6,0.6,0.6
2025-04-21T1000,3357A,104.0106,30.6931,成都市,金博路,,49,43,62,34,33,44,,28,28,20,28,8,8,0.7,0.9
2025-04-21T1000,3359A,104.0578,30.5225,成都市,华阳,,45,44,52,31,38,73,,54,54,20,31,7,7,0.4,0.8
2025-04-21T1000,3488A,104.3853,30.7453,成都市,青白江技师分院,,33,31,46,23,25,90,,65,65,12,29,7,8,0.3,0.4
2025-04-21T1000,3489A,104.0789,30.4072,成都市,科学城,,44,44,55,28,32,62,,50,50,28,23,5,5,0.5,0.5
2025-04-21T1000,4011A,103.8506,30.6947,成都市,光华大道三段,颗粒物(PM10),54,57,64,36,40,83,,78,77,20,21,3,3,0.7,0.7
2025-04-21T1000,4224A,104.2433,30.5353,成都市,鲸龙路1057号,,37,37,52,19,29,76,,76,72,26,30,6,6,0.7,0.8
2025-04-21T1000,1062A,117.9531,40.9081,承德市,铁路,颗粒物(PM10),52,53,47,27,19,93,,73,71,32,21,13,9,0.8,0.5
2025-04-21T1000,1063A,117.9392,40.9763,承德市,中国银行,,44,44,51,12,19,87,,75,69,19,15,6,4,0.6,0.4
2025-04-21T1000,1064A,117.9503,40.928,承德市,开发区,,40,40,42,28,24,94,,71,67,30,19,10,6,0.7,0.4
2025-04-21T1000,1065A,117.8051,40.9655,承德市,文化中心,,,,58,,21,88,,94,85,22,15,,14,0.6,0.5
2025-04-21T1000,1066A,117.9268,41.0026,承德市,离宫,,,44,45,25,31,64,,58,56,12,10,,21,0.3,0.4
2025-04-21T1000,2314A,117.47,30.6618,池州市,池州学院,细颗粒物(PM2.5),55,51,70,39,39,62,,105,86,30,18,4,8,1.1,0.9
2025-04-21T1000,3237A,117.4918,30.6617,池州市,展览馆,颗粒物(PM10),54,57,65,31,38,53,,103,83,32,17,4,6,1.2,1
2025-04-21T1000,3333A,117.5627,30.695,池州市,第八中学,颗粒物(PM10),56,62,63,34,35,48,,101,81,38,17,6,7,1.1,0.9
2025-04-21T1000,3334A,117.5038,30.6243,池州市,第十二中学,,48,48,68,32,35,57,,88,71,29,18,5,7,1.3,1.1
2025-04-21T1000,1744A,118.9233,42.2816,赤峰市,松山一中,,43,43,46,21,18,90,,127,116,40,20,12,12,0.8,0.6
2025-04-21T1000,1745A,118.9576,42.2728,赤峰市,哈达街,颗粒物(PM10),53,56,49,29,22,32,,134,107,79,24,16,13,1.2,0.6
2025-04-21T1000,1746A,118.8788,42.2554,赤峰市,天义路,,,,37,,28,107,,140,128,33,19,9,9,0.7,0.6
2025-04-21T1000,3058A,119.2658,42.0353,赤峰市,银河街,颗粒物(PM10),59,67,59,23,21,71,,78,72,34,16,23,18,1.0,0.6
2025-04-21T1000,3286A,118.9359,42.3147,赤峰市,桥北物流园区,颗粒物(PM10),53,56,46,32,31,26,,128,102,71,22,11,9,1.1,0.7
2025-04-21T1000,2521A,107.3476,22.4136,崇左市,市环保局江州分局,,26,26,37,18,24,54,,48,46,9,8,9,7,0.4,0.4
2025-04-21T1000,4256A,107.3750,22.3736,崇左市,石景林东路7号,,40,40,33,9,21,62,,59,56,8,8,8,6,0.3,0.4
2025-04-21T1000,2298A,118.3093,32.3153,滁州市,老年大学,细颗粒物(PM2.5),55,52,46,39,27,77,,56,56,31,27,6,6,0.6,0.4
2025-04-21T1000,2299A,118.3244,32.2786,滁州市,人大宾馆,细颗粒物(PM2.5),58,54,39,41,20,74,,55,55,34,25,10,12,0.6,0.5
2025-04-21T1000,3207A,118.3118,32.3038,滁州市,市政府原办公楼,,,,39,,26,,,132,,,20,,8,,0.4
2025-04-21T1000,3331A,118.3267,32.2634,滁州市,图书馆,,,,52,,28,,,136,,,21,,11,,0.6
2025-04-21T1000,2605A,101.5482,25.0441,楚雄彝族自治州,州环境监测站,,35,26,25,21,16,110,,109,105,8,11,8,8,0.5,0.5
2025-04-21T1000,2606A,101.538,25.0492,楚雄彝族自治州,市经济开发区,,35,18,25,18,16,110,,106,105,6,7,6,6,0.6,0.6
2025-04-21T1000,2548A,107.5277,31.2827,达州市,达州职业技术学院,颗粒物(PM10),51,51,34,16,9,61,,31,31,19,19,40,10,0.9,0.7
2025-04-21T1000,2549A,107.5086,31.2186,达州市,市环境监测站,颗粒物(PM10),53,56,32,12,7,40,,40,34,46,23,18,7,0.4,0.3
2025-04-21T1000,2550A,107.4988,31.2132,达州市,凤凰小区,,39,39,27,12,8,57,,50,46,37,23,18,11,0.7,0.5
2025-04-21T1000,2551A,107.5082,31.1986,达州市,达县机关宾馆,,39,39,28,15,8,54,,37,37,30,21,17,7,0.5,0.4
2025-04-21T1000,2552A,107.4644,31.2124,达州市,市政中心,颗粒物(PM10),52,54,32,14,7,60,,47,44,27,18,17,5,0.5,0.4
2025-04-21T1000,2614A,100.1542,25.7054,大理白族自治州,大理市环境监测站,,26,24,18,17,18,83,,88,84,10,7,7,7,0.6,0.5
2025-04-21T1000,2615A,100.2171,25.5811,大理白族自治州,大理古城,,26,20,18,10,17,82,,81,77,9,8,7,7,0.6,0.5
2025-04-21T1000,1109A,121.612,38.9741,大连市,甘井子,,46,46,47,27,29,95,,69,69,24,29,8,7,0.4,0.5
2025-04-21T1000,1110A,121.565,38.9511,大连市,周水子,,37,37,51,22,40,92,,59,59,21,24,8,10,0.4,0.6
2025-04-21T1000,1111A,121.5637,38.8845,大连市,星海三站,,49,40,54,34,47,87,,64,64,23,22,8,8,0.3,0.5
2025-04-21T1000,1112A,121.6302,38.9117,大连市,青泥洼桥,,35,32,39,24,29,102,,71,71,16,16,7,7,0.6,0.8
2025-04-21T1000,1113A,121.6251,38.8638,大连市,傅家庄,,43,40,49,30,38,78,,62,62,32,31,10,11,0.2,0.4
2025-04-21T1000,1114A,121.5213,38.8661,大连市,七贤岭,细颗粒物(PM2.5),52,42,54,36,41,74,,52,52,30,28,6,7,0.8,0.9
2025-04-21T1000,1115A,121.2529,38.8061,大连市,旅顺,,,,38,32,40,75,,58,58,,26,10,9,0.6,0.7
2025-04-21T1000,1116A,121.7485,39.1311,大连市,金州,,33,10,32,8,21,103,,80,80,20,20,8,9,0.2,0.4
2025-04-21T1000,1117A,121.7811,39.0496,大连市,开发区,颗粒物(PM10),51,51,58,32,44,84,,56,56,32,34,5,5,0.7,0.9
2025-04-21T1000,1118A,121.9762,39.0631,大连市,双D港,,42,32,52,29,42,109,,80,80,13,21,8,9,0.5,0.6
2025-04-21T1000,1789A,124.81117,46.03138,大庆市,大同区,颗粒物(PM10),59,67,61,31,32,61,,74,68,23,12,6,5,0.7,0.7
2025-04-21T1000,1790A,125.129,46.533,大庆市,龙凤区,颗粒物(PM10),56,61,67,24,36,77,,81,75,14,16,7,9,0.5,0.5
2025-04-21T1000,1791A,124.902,46.408,大庆市,红岗区,颗粒物(PM10),53,55,45,25,26,77,,81,77,16,12,10,9,0.4,0.5
2025-04-21T1000,1792A,125.153,46.586,大庆市,萨尔图区,颗粒物(PM10),60,70,70,22,37,69,,80,72,22,18,11,10,0.5,0.5
2025-04-21T1000,1793A,124.9042,46.6215,大庆市,让胡路区,颗粒物(PM10),52,53,52,25,37,73,,72,69,16,15,7,7,0.4,0.4
2025-04-21T1000,3481A,125.141,46.634,大庆市,萨区政府监测点,颗粒物(PM10),54,58,63,14,28,81,,90,82,15,13,7,8,0.5,0.5
2025-04-21T1000,1721A,113.3819,40.1097,大同市,果树场,细颗粒物(PM2.5),77,56,71,56,47,71,,101,87,18,16,11,8,0.9,0.6
2025-04-21T1000,1723A,113.2994,40.0758,大同市,云冈宾馆,,,,89,,48,,,114,103,22,22,12,10,0.7,0.5
2025-04-21T1000,1724A,113.3444,40.0917,大同市,大同大学,颗粒物(PM10),59,68,75,37,44,82,,117,101,18,13,16,15,1.0,0.6
2025-04-21T1000,1725A,113.2661,40.1269,大同市,安家小村,,49,49,75,22,48,91,,109,96,16,15,14,13,0.7,0.6
2025-04-21T1000,1726A,113.2711,40.0844,大同市,教育学院,,,67,84,27,46,,,110,99,23,20,12,10,0.8,0.6
2025-04-21T1000,3282A,113.3397,40.0597,大同市,大同市卫生学校,颗粒物(PM10),61,72,81,37,47,82,,109,98,22,19,10,9,1.3,0.7
2025-04-21T1000,3565A,113.1367,40.1122,大同市,云冈站,颗粒物(PM10),54,58,99,23,56,97,,102,93,9,17,11,12,0.5,0.6
2025-04-21T1000,3566A,113.1186,40.2556,大同市,图书馆,颗粒物(PM10),59,68,81,40,52,83,,96,85,27,18,14,11,1.3,0.9
2025-04-21T1000,3567A,113.5931,40.0461,大同市,区一中,颗粒物(PM10),62,74,82,34,42,97,,108,91,13,16,16,14,1.1,0.7
2025-04-21T1000,4199A,113.2798,40.0997,大同市,魏都大道141号,颗粒物(PM10),57,63,86,29,45,82,,117,103,26,21,17,14,1.1,0.8
2025-04-21T1000,2269A,124.1069,50.4097,大兴安岭地区,科技局,,24,24,28,14,20,75,,64,64,15,6,3,4,0.2,0.3
2025-04-21T1000,3663A,124.1164,50.4278,大兴安岭地区,红旗社区,,29,9,16,6,12,92,,58,58,3,7,4,5,0.3,0.4
2025-04-21T1000,1600A,124.3303,40.0625,丹东市,江湾东路,,50,50,41,26,28,99,,42,42,12,18,15,14,0.7,0.8
2025-04-21T1000,1601A,124.4256,40.1503,丹东市,临江后街,颗粒物(PM10),52,53,43,25,22,92,,44,44,20,21,12,8,0.8,0.7
2025-04-21T1000,1602A,124.3933,40.1461,丹东市,元宝山,,48,48,36,23,19,90,,50,50,18,17,14,9,0.8,0.6
2025-04-21T1000,1603A,124.3633,40.1092,丹东市,民主桥,颗粒物(PM10),53,55,40,23,20,100,,34,34,12,27,14,11,0.7,0.7
2025-04-21T1000,3541A,109.5726,19.5167,儋州市,第一中学子站,,11,,22,7,16,35,,40,34,2,6,5,6,0.4,0.5
2025-04-21T1000,3542A,109.5567,19.5187,儋州市,东坡学校子站,,24,24,29,8,17,38,,41,35,3,6,5,5,0.4,0.5
2025-04-21T1000,2616A,98.5842,24.428,德宏傣族景颇族自治州,德宏州监测站,细颗粒物(PM2.5),57,54,47,40,36,10,,18,11,24,17,7,9,0.8,0.6
2025-04-21T1000,3677A,98.5881,24.4368,德宏傣族景颇族自治州,芒市人民政府综合楼,细颗粒物(PM2.5),63,60,58,45,34,14,,25,18,23,14,7,8,0.7,0.5
2025-04-21T1000,1901A,104.4239,31.1208,德阳市,东山公园,,43,37,41,30,26,71,,88,75,12,12,5,6,0.8,0.7
2025-04-21T1000,1902A,104.3826,31.1317,德阳市,西小区,,,,56,,33,68,,70,67,21,19,5,6,,0.8
2025-04-21T1000,1904A,104.3553,31.1091,德阳市,耐火材料厂,颗粒物(PM10),51,51,61,26,34,71,,64,63,18,19,6,7,0.6,0.6
2025-04-21T1000,3639A,104.4019,31.1244,德阳市,市教育局,,40,40,50,20,32,72,,76,70,15,19,6,7,0.5,0.5
2025-04-21T1000,1622A,116.3032,37.4674,德州市,儿童乐园,颗粒物(PM10),52,53,95,19,46,110,,106,102,15,21,7,10,0.5,0.7
2025-04-21T1000,1624A,116.2991,37.4451,德州市,监理站,颗粒物(PM10),52,53,87,24,51,108,,104,100,11,16,10,13,0.4,0.6
2025-04-21T1000,3066A,116.2721,37.4379,德州市,九衢泉纯净水厂,颗粒物(PM10),54,58,81,22,40,98,,95,90,20,27,7,9,0.6,0.9
2025-04-21T1000,3371A,116.3728,37.4403,德州市,开发区人民医院,颗粒物(PM10),56,61,89,14,37,96,,92,92,16,20,9,11,0.6,0.8
2025-04-21T1000,3372A,116.3572,37.4094,德州市,太阳城中学,颗粒物(PM10),52,53,93,22,45,100,,95,95,13,24,5,8,0.8,1.1
2025-04-21T1000,3511A,116.5652,37.3319,德州市,陵城艺术中心,颗粒物(PM10),58,66,82,34,47,102,,106,98,25,24,6,6,0.6,0.7
2025-04-21T1000,2621A,99.7056,27.8317,迪庆藏族自治州,迪庆州站,,39,39,22,15,11,86,,86,78,18,10,11,10,0.5,0.4
2025-04-21T1000,3180A,99.7136,27.8094,迪庆藏族自治州,质量技术监督局,,30,28,17,8,9,94,,98,92,18,10,11,11,0.5,0.5
2025-04-21T1000,4257A,104.6092,35.5962,定西市,将台街,颗粒物(PM10),67,83,159,37,52,89,,110,104,12,8,4,6,0.1,0
2025-04-21T1000,4309A,104.6159,35.5701,定西市,正龙路62号,颗粒物(PM10),55,59,166,34,46,94,,111,106,8,6,7,8,0.2,0.2
2025-04-21T1000,1389A,113.7547,23.0494,东莞市,莞城梨川,,19,13,22,13,17,37,,31,31,5,9,5,4,0.4,0.4
2025-04-21T1000,1390A,113.7944,23.0128,东莞市,东城石井,,16,16,24,10,15,38,,24,24,8,13,4,4,0.2,0.2
2025-04-21T1000,1391A,113.7383,22.9658,东莞市,南城西平,,20,20,23,12,14,39,,34,34,9,8,2,2,0.5,0.5
2025-04-21T1000,3319A,113.7338,23.0381,东莞市,万江金泰,,,21,26,12,16,,,17,17,6,9,3,3,0.6,0.6
2025-04-21T1000,3626A,113.7533,23.0202,东莞市,南城元岭,,23,23,26,16,16,38,,31,31,4,7,6,5,0.7,0.7
2025-04-21T1000,3627A,113.7875,23.0457,东莞市,东城主山,,26,26,28,15,15,38,,27,27,10,13,3,3,0.5,0.5
2025-04-21T1000,1666A,118.6614,37.4309,东营市,市环保局,,46,46,42,17,21,97,,87,86,22,22,12,10,0.5,0.5
2025-04-21T1000,3036A,118.6904,37.4338,东营市,开发区管委会,颗粒物(PM10),56,62,49,24,24,102,,92,92,26,31,8,9,0.7,0.6
2025-04-21T1000,3365A,118.5719,37.565,东营市,垦利区民丰路,,,53,43,27,25,,,87,83,22,20,7,5,1.0,0.8
2025-04-21T1000,3498A,118.5055,37.8612,东营市,河口城区,颗粒物(PM10),52,53,48,22,22,119,,85,85,16,16,7,6,0.9,0.7
2025-04-21T1000,3646A,118.4978,37.4623,东营市,胜利站,颗粒物(PM10),60,69,51,24,22,79,,75,70,27,23,11,10,0.9,0.7
2025-04-21T1000,3734A,118.35,37.26,东营市,理想之城,颗粒物(PM10),52,53,49,29,24,87,,76,75,22,22,9,9,0.7,0.6
2025-04-21T1000,1591A,110.0023,39.8129,鄂尔多斯市,综合楼,颗粒物(PM10),155,259,145,61,39,77,,105,100,12,16,2,4,0.2,0.4
2025-04-21T1000,1592A,109.9486,39.8261,鄂尔多斯市,巴音孟克林场办事处,颗粒物(PM10),126,202,145,63,42,78,,95,91,10,15,7,8,0.5,0.7
2025-04-21T1000,1593A,109.7736,39.5986,鄂尔多斯市,康泽苑,颗粒物(PM10),119,188,146,51,43,84,,97,95,6,12,3,5,0.2,0.4
2025-04-21T1000,1594A,109.8119,39.5989,鄂尔多斯市,华泰汽车城,颗粒物(PM10),134,217,142,58,42,79,,91,89,7,12,5,7,0.3,0.5
2025-04-21T1000,1595A,109.9734,39.7884,鄂尔多斯市,奥林花园,颗粒物(PM10),142,234,148,56,41,79,,104,97,11,16,1,4,0.2,0.5
2025-04-21T1000,2436A,114.8938,30.3994,鄂州市,市政府,,,,71,22,32,58,,79,71,16,14,7,8,0.7,0.8
2025-04-21T1000,2437A,114.8989,30.3714,鄂州市,赵家坝,颗粒物(PM10),51,51,66,15,26,57,,75,69,12,10,4,5,0.8,0.9
2025-04-21T1000,3654A,114.8094,30.4089,鄂州市,精准医疗中心,,38,38,56,18,29,49,,72,64,15,11,3,11,1.0,1.4
2025-04-21T1000,2454A,109.4978,30.2981,恩施土家族苗族自治州,湖北民院,,22,22,28,11,17,62,,61,61,14,9,5,6,0.4,0.4
2025-04-21T1000,2455A,109.4707,30.2798,恩施土家族苗族自治州,州电力总公司,,18,18,26,11,18,53,,47,47,15,16,4,5,0.6,0.6
2025-04-21T1000,3549A,109.5061,30.3772,恩施土家族苗族自治州,龙凤新区,,16,12,27,11,18,47,,46,46,14,12,5,6,0.5,0.5
2025-04-21T1000,2499A,108.3411,21.6158,防城港市,沙万,,,34,27,17,15,,,24,24,4,7,2,3,0.6,0.6
2025-04-21T1000,2500A,108.3514,21.7731,防城港市,防城档案局,,27,27,27,12,16,48,,36,36,2,3,4,4,0.3,0.3
2025-04-21T1000,2501A,108.3506,21.6414,防城港市,大海花园,,32,32,26,11,11,51,,36,36,1,3,4,3,0.3,0.3
2025-04-21T1000,1371A,113.1294,23.0067,佛山市,湾梁,,25,24,30,17,17,36,,22,22,13,16,7,7,0.6,0.6
2025-04-21T1000,1372A,113.1083,23.0478,佛山市,华材职中,,27,27,30,16,18,36,,25,25,14,15,7,6,0.5,0.4
2025-04-21T1000,1373A,113.144,23.0453,佛山市,南海气象局,,30,30,41,17,18,33,,18,18,12,17,7,6,0.5,0.5
2025-04-21T1000,1374A,113.2881,22.8094,佛山市,顺德苏岗,,,34,32,22,15,27,,25,25,,11,,6,0.6,0.6
2025-04-21T1000,1376A,112.8383,22.8678,佛山市,高明孔堂,,24,24,30,16,15,41,,32,32,4,6,5,5,0.5,0.5
2025-04-21T1000,1377A,112.8836,23.1588,佛山市,三水监测站,,40,39,33,28,20,31,,16,16,16,24,4,4,0.4,0.4
2025-04-21T1000,1378A,112.867,23.185,佛山市,三水云东海,,42,42,39,16,20,36,,21,21,17,22,4,2,0.5,0.5
2025-04-21T1000,3625A,113.2544,22.7642,佛山市,容桂街道办,,28,19,22,19,18,30,,19,19,14,16,6,5,0.5,0.5
2025-04-21T1000,1280A,119.3903,26.0543,福州市,鼓山,,,,30,,11,,,84,,,10,,2,,0.4
2025-04-21T1000,1282A,119.2681,26.0504,福州市,师大,细颗粒物(PM2.5),52,42,26,36,16,113,,77,77,12,15,3,4,0.5,0.4
2025-04-21T1000,1283A,119.2984,26.1028,福州市,五四北路,细颗粒物(PM2.5),53,49,25,37,18,94,,62,62,21,19,4,4,0.6,0.6
2025-04-21T1000,1284A,119.2648,26.0768,福州市,杨桥西路,细颗粒物(PM2.5),59,47,27,42,17,107,,74,74,13,15,4,4,0.5,0.4
2025-04-21T1000,1285A,119.317,26.0746,福州市,紫阳,细颗粒物(PM2.5),58,47,30,41,19,94,,63,62,28,27,5,5,0.6,0.5
2025-04-21T1000,3048A,119.5799,26.0936,福州市,九龙,细颗粒物(PM2.5),87,80,28,64,20,144,,98,98,9,9,4,4,0.5,0.4
2025-04-21T1000,3526A,119.5189,25.9664,福州市,吴航,,,,37,62,24,155,,89,89,10,14,4,4,0.7,0.6
2025-04-21T1000,1755A,123.7977,41.8491,抚顺市,望花区,颗粒物(PM10),54,58,76,13,33,113,,38,38,25,38,10,14,0.4,0.8
2025-04-21T1000,1756A,123.9161,41.8822,抚顺市,顺城区,颗粒物(PM10),63,75,75,18,32,112,,38,38,30,43,9,12,0.7,0.9
2025-04-21T1000,1757A,124.0436,41.8611,抚顺市,东洲区,,47,47,52,7,24,118,,53,53,10,22,6,10,0.4,0.7
2025-04-21T1000,1758A,123.9247,41.8642,抚顺市,新抚区,颗粒物(PM10),67,83,67,16,32,110,,38,38,18,32,8,10,0.6,0.9
2025-04-21T1000,1759A,124.0972,41.8961,抚顺市,大伙房水库,,40,39,44,8,24,126,,61,61,3,14,8,10,0.4,0.8
2025-04-21T1000,1760A,123.7086,41.8391,抚顺市,沈抚新城,颗粒物(PM10),53,56,62,10,27,120,,46,46,16,32,8,13,0.7,0.9
2025-04-21T1000,2376A,116.2127,28.0814,抚州市,桐源党溪,,,,35,12,13,59,,30,30,2,3,5,9,0.7,0.7
2025-04-21T1000,2377A,116.3544,27.9831,抚州市,市站,,29,29,22,11,9,51,,38,38,6,7,5,4,1.3,1.2
2025-04-21T1000,2378A,116.3565,27.963,抚州市,血防站,,37,37,25,13,9,48,,32,32,2,5,3,6,1.5,1.3
2025-04-21T1000,2379A,116.3564,28.0007,抚州市,采茶剧团,,24,24,20,13,8,50,,34,34,3,3,1,2,1.1,1.1
2025-04-21T1000,2380A,116.385,27.9647,抚州市,医学分院,,28,28,20,11,7,51,,34,34,9,6,4,4,1.2,1.3
2025-04-21T1000,2207A,121.6094,41.998,阜新市,工业园区,颗粒物(PM10),58,65,47,26,19,87,,91,88,25,18,17,18,0.7,0.7
2025-04-21T1000,2208A,121.6697,42.0279,阜新市,长青街,颗粒物(PM10),53,56,45,29,18,92,,97,96,21,17,12,14,0.6,0.6
2025-04-21T1000,2209A,121.6673,42.0705,阜新市,农业园区,,50,50,41,29,23,90,,96,94,19,14,12,14,0.5,0.5
2025-04-21T1000,2210A,121.6717,42.0224,阜新市,东苑,,,56,48,37,16,89,,99,96,,16,15,20,,0.6
2025-04-21T1000,2211A,121.6506,42.0498,阜新市,玉龙新城,,39,33,43,27,20,89,,94,91,18,14,14,18,0.6,0.7
2025-04-21T1000,2301A,115.8277,32.8929,阜阳市,市监测站,,39,39,47,24,26,42,,85,66,26,17,6,8,0.6,0.5
2025-04-21T1000,2303A,115.8554,32.8605,阜阳市,开发区,,,,57,28,21,42,,88,66,,17,6,7,0.6,0.5
2025-04-21T1000,2875A,115.784,32.8892,阜阳市,阜阳职业技术学院,,34,34,45,20,21,42,,91,71,23,13,4,6,0.4,0.4
2025-04-21T1000,3468A,115.7901,32.8613,阜阳市,市规划展馆,颗粒物(PM10),60,69,57,37,23,50,,98,78,23,14,7,8,0.7,0.5
2025-04-21T1000,3469A,115.836,32.9183,阜阳市,枣园社区,颗粒物(PM10),63,75,50,37,19,38,,88,65,22,15,7,10,0.5,0.4
2025-04-21T1000,2669A,102.9099,34.9841,甘南藏族自治州,州政府,颗粒物(PM10),72,93,122,41,41,68,,78,74,8,4,8,10,0.3,0.3
2025-04-21T1000,3380A,102.8914,34.9617,甘南藏族自治州,甘肃民族师范学院,颗粒物(PM10),87,123,156,33,39,83,,86,82,6,4,7,8,0.4,0.4
2025-04-21T1000,2570A,101.9603,30.0475,甘孜藏族自治州,水桥子,,47,47,24,12,11,24,,26,20,38,19,5,5,0.6,0.4
2025-04-21T1000,3065A,101.9533,29.9972,甘孜藏族自治州,州环保局,,32,32,30,10,8,53,,44,40,22,16,2,2,0.5,0.5
2025-04-21T1000,3414A,115.8347,28.932,赣江新区,桑海产业园,,36,36,37,15,17,41,,30,30,23,21,7,7,0.5,0.4
2025-04-21T1000,2362A,114.9017,25.9149,赣州市,通天岩,,44,34,25,6,6,139,,69,69,3,4,9,2,0.7,0.8
2025-04-21T1000,2363A,114.9367,25.8664,赣州市,地委,,30,30,24,21,15,57,,54,54,7,8,11,6,0.9,0.9
2025-04-21T1000,2364A,114.9461,25.8481,赣州市,气象台,,31,31,27,17,13,58,,58,58,8,9,10,8,0.6,0.6
2025-04-21T1000,2365A,114.9322,25.8333,赣州市,市图书馆,,30,30,24,19,17,50,,47,47,7,8,4,4,0.6,0.7
2025-04-21T1000,2366A,114.8905,25.8471,赣州市,华坚鞋城,,37,37,25,22,14,58,,52,52,8,7,8,5,0.4,0.4
2025-04-21T1000,3109A,115.0093,25.8613,赣州市,赣县区卫计委,,36,36,31,16,14,52,,32,32,4,11,4,4,0.3,0.5
2025-04-21T1000,2683A,106.2319,36.1417,固原市,马园,,38,38,290,23,119,83,,103,97,14,12,6,6,0.6,0.6
2025-04-21T1000,2684A,106.2792,36.0022,固原市,监测站,,48,48,239,19,59,88,,100,95,8,7,5,6,0.3,0.3
2025-04-21T1000,2685A,106.2375,36.0211,固原市,新区,,46,46,232,18,47,84,,96,91,8,9,5,6,0.4,0.4
2025-04-21T1000,3522A,106.2177,35.9959,固原市,原州区十五小,,,101,200,,52,92,,102,99,7,8,10,11,0.3,0.3
2025-04-21T1000,2543A,106.6308,30.5278,广安市,小平旧居,,,,,,,,,,,,,,,,
2025-04-21T1000,2544A,106.6303,30.4576,广安市,市委,,36,36,28,17,16,73,,73,72,10,8,10,11,0.4,0.4
2025-04-21T1000,2545A,106.6271,30.4663,广安市,友谊中学,,30,30,23,14,15,70,,71,70,15,13,2,3,1.0,0.9
2025-04-21T1000,2547A,106.6388,30.4551,广安市,广电花园,,47,47,30,18,15,52,,67,60,28,14,5,5,0.4,0.3
2025-04-21T1000,2902A,106.6351,30.4865,广安市,北辰小学,,32,32,28,15,14,62,,63,61,11,9,6,6,0.3,0.3
2025-04-21T1000,2523A,105.8945,32.4535,广元市,黑石坡,颗粒物(PM10),149,248,84,85,17,86,,92,89,7,11,3,3,0.2,0.3
2025-04-21T1000,2524A,105.821,32.4444,广元市,老城,颗粒物(PM10),149,248,63,89,26,92,,77,72,5,6,1,2,0.6,0.8
2025-04-21T1000,2526A,105.8628,32.4287,广元市,监测站,"颗粒物(PM10),细颗粒物(PM2.5)",120,190,50,91,23,91,,91,85,5,5,5,6,0.3,0.4
2025-04-21T1000,3617A,105.8047,32.4166,广元市,经开区,颗粒物(PM10),124,197,63,73,33,91,,76,71,8,9,4,6,0.4,0.5
2025-04-21T1000,1345A,113.2347,23.1423,广州市,广雅中学,,30,30,34,17,20,29,,17,17,16,26,3,3,0.5,0.3
2025-04-21T1000,1346A,113.2612,23.105,广州市,市五中,,30,30,34,19,20,32,,17,17,13,19,2,2,0.6,0.6
2025-04-21T1000,1348A,113.3478,23.0916,广州市,广东商学院,,26,26,34,16,21,30,,13,13,14,24,3,3,0.5,0.5
2025-04-21T1000,1349A,113.4332,23.1047,广州市,市八十六中,,28,28,33,15,17,26,,9,9,18,33,4,4,0.5,0.5
2025-04-21T1000,1350A,113.3505,22.9483,广州市,番禺中学,,34,34,34,20,20,30,,13,13,16,21,4,4,0.5,0.4
2025-04-21T1000,1351A,113.2146,23.3916,广州市,花都师范,,32,32,38,19,23,31,,14,14,15,24,4,4,0.8,0.8
2025-04-21T1000,1352A,113.2597,23.1331,广州市,市监测站,,32,32,36,18,19,27,,14,14,17,22,5,5,0.5,0.5
2025-04-21T1000,1353A,113.5618,23.312,广州市,九龙镇镇龙,,29,29,36,18,22,22,,12,12,22,24,6,6,0.4,0.4
2025-04-21T1000,1354A,113.2765,23.1544,广州市,麓湖,,28,28,33,19,18,35,,19,19,13,21,3,4,0.4,0.4
2025-04-21T1000,1355A,113.443,23.3035,广州市,帽峰山森林公园,,23,23,28,15,16,37,,21,21,7,15,6,6,0.6,0.6
2025-04-21T1000,2846A,113.3221,23.1322,广州市,体育西,,31,31,36,21,22,31,,13,13,16,28,4,4,0.4,0.4
2025-04-21T1000,3298A,113.5717,23.5491,广州市,从化街口,,25,25,36,16,23,34,,19,19,11,16,9,9,0.5,0.5
2025-04-21T1000,3299A,113.3472,23.3692,广州市,白云竹料,,27,27,38,17,21,37,,23,23,14,21,2,2,0.5,0.5
2025-04-21T1000,3300A,113.2981,23.237,广州市,白云嘉禾,,29,29,37,19,22,30,,9,9,18,29,5,4,0.7,0.7
2025-04-21T1000,3301A,113.4256,23.1716,广州市,黄埔科学城,,33,33,38,17,20,31,,13,13,17,26,7,7,0.2,0.2
2025-04-21T1000,3302A,113.3942,23.0483,广州市,番禺大学城,,25,25,29,16,16,33,,17,17,15,22,5,6,0.5,0.4
2025-04-21T1000,3303A,113.4922,22.8168,广州市,南沙黄阁,,34,34,30,16,17,28,,24,24,16,14,4,4,0.6,0.5
2025-04-21T1000,3304A,113.5342,22.7896,广州市,南沙街,,24,24,26,16,16,26,,20,20,14,14,4,4,0.5,0.5
2025-04-21T1000,3443A,113.2902,23.5544,广州市,花都梯面,,25,24,38,17,22,28,,16,16,16,22,4,4,0.4,0.5
2025-04-21T1000,3445A,113.7858,23.7478,广州市,从化良口,,20,17,27,14,23,48,,11,11,4,15,6,6,0.1,0.3
2025-04-21T1000,3446A,113.8051,23.2614,广州市,增城荔城,,26,26,31,16,18,34,,16,16,9,13,6,6,0.1,0.1
2025-04-21T1000,2505A,109.568,23.1478,贵港市,德智高中,,,,,,,,,,,,,,,,
2025-04-21T1000,2506A,109.6047,23.0666,贵港市,江南子站,,35,34,36,24,22,38,,38,30,5,10,3,4,0.5,0.6
2025-04-21T1000,2508A,109.5669,23.1065,贵港市,荷城子站,,45,45,38,17,17,32,,40,35,13,11,5,5,0.2,0.2
2025-04-21T1000,3405A,109.5886,23.1172,贵港市,新世纪学校,,36,36,36,25,22,43,,48,43,12,12,5,6,0.7,0.7
2025-04-21T1000,4260A,109.5933,23.0951,贵港市,中山路155-3号,,46,46,38,22,22,39,,39,34,9,12,6,6,0.4,0.4
2025-04-21T1000,1439A,106.6899,26.5998,贵阳市,马鞍山,,36,36,32,14,15,89,,89,86,10,9,5,4,0.4,0.4
2025-04-21T1000,1441A,106.6243,26.6266,贵阳市,鉴湖路,,44,44,43,17,20,89,,89,86,7,8,13,12,0.4,0.4
2025-04-21T1000,1442A,106.7487,26.6343,贵阳市,燕子冲,,39,39,32,27,25,92,,86,84,11,11,5,3,0.4,0.4
2025-04-21T1000,1443A,106.6555,26.4365,贵阳市,碧云窝,,46,46,44,22,20,100,,97,95,7,8,8,6,0.5,0.4
2025-04-21T1000,1445A,106.7109,26.6027,贵阳市,红边门,颗粒物(PM10),51,51,46,34,30,90,,86,84,16,17,6,4,0.3,0.3
2025-04-21T1000,1446A,106.7164,26.5699,贵阳市,新华路,,,46,40,29,27,90,,85,82,12,12,,20,0.6,0.4
2025-04-21T1000,1447A,106.674,26.5424,贵阳市,太慈桥,颗粒物(PM10),53,56,42,27,22,85,,93,87,16,13,8,6,0.2,0.2
2025-04-21T1000,1552A,106.805,26.3003,贵阳市,桐木岭,颗粒物(PM10),51,51,50,34,31,102,,99,97,1,2,20,9,0.7,0.7
2025-04-21T1000,4230A,106.6882,26.5695,贵阳市,花果园大街66号,,,36,30,26,26,96,,95,92,8,7,7,5,,0.4
2025-04-21T1000,4231A,106.6873,26.5169,贵阳市,漓江路57号,,39,39,34,24,22,90,,88,86,7,7,10,9,0.3,0.4
2025-04-21T1000,1862A,110.4144,25.3167,桂林市,电子科大尧山校区,,,,,,,,,,,,,,,,
2025-04-21T1000,1864A,110.3089,25.2708,桂林市,龙隐路小学,,,48,47,28,29,,,17,17,11,14,11,13,0.7,0.8
2025-04-21T1000,1865A,110.2869,25.2178,桂林市,八中,,40,40,45,27,26,43,,23,23,16,21,2,2,0.9,1.1
2025-04-21T1000,3531A,110.296,25.1253,桂林市,旅游学院,,32,29,31,22,23,51,,29,29,11,18,8,4,0.6,0.7
2025-04-21T1000,4222A,110.1835,25.2444,桂林市,环湖路276号,,31,31,41,14,31,62,,31,31,6,16,6,15,0.3,0.4
2025-04-21T1000,4301A,110.2803,25.2773,桂林市,信义路13号,,43,43,45,24,34,59,,34,34,13,18,3,6,1.2,1.3
2025-04-21T1000,2674A,100.2561,34.4714,果洛藏族自治州,玛沁县大武镇,颗粒物(PM10),79,107,62,32,19,64,,66,56,15,3,16,8,0.6,0.3
2025-04-21T1000,1129A,126.5422,45.755,哈尔滨市,岭北,,50,50,74,29,59,109,,94,94,22,23,13,13,0.9,1
2025-04-21T1000,1130A,126.561,45.8167,哈尔滨市,松北商大,颗粒物(PM10),58,66,72,25,59,93,,80,80,17,19,12,12,0.8,0.8
2025-04-21T1000,1131A,126.979,45.5419,哈尔滨市,阿城会宁,颗粒物(PM10),86,121,130,57,92,109,,95,95,22,28,12,13,0.7,0.7
2025-04-21T1000,1132A,126.599,45.7222,哈尔滨市,南岗学府路,,,,117,,72,,,70,70,22,33,,12,0.8,0.8
2025-04-21T1000,1133A,126.689,45.7733,哈尔滨市,太平宏伟公园,颗粒物(PM10),70,89,102,35,80,98,,83,83,25,25,8,8,0.8,0.9
2025-04-21T1000,1134A,126.635,45.7667,哈尔滨市,道外承德广场,颗粒物(PM10),58,65,81,34,71,87,,72,72,27,28,8,9,0.8,0.8
2025-04-21T1000,1135A,126.685,45.7319,哈尔滨市,香坊红旗大街,颗粒物(PM10),90,129,110,36,80,88,,74,74,32,31,13,12,0.9,0.9
2025-04-21T1000,1136A,126.6411,45.7258,哈尔滨市,动力和平路,颗粒物(PM10),64,77,103,30,94,86,,72,72,26,26,13,12,0.7,0.7
2025-04-21T1000,1137A,126.593,45.7478,哈尔滨市,道里建国路,颗粒物(PM10),64,77,91,30,69,94,,76,76,21,29,14,14,0.8,1
2025-04-21T1000,1138A,126.615,45.61,哈尔滨市,平房东轻厂,,,81,112,39,80,98,,78,78,11,20,,13,0.7,0.8
2025-04-21T1000,1139A,126.595,45.9855,哈尔滨市,呼兰师专,,,,,,,,,,,,,,,,
2025-04-21T1000,1140A,126.6206,45.6842,哈尔滨市,省农科院,颗粒物(PM10),135,219,137,36,90,89,,63,63,23,43,3,7,0.6,0.8
2025-04-21T1000,2688A,93.5128,42.8172,哈密市,地区监测站,颗粒物(PM10),56,61,30,22,11,67,,73,71,10,10,5,3,0.2,0.2
2025-04-21T1000,2689A,93.4961,42.8328,哈密市,哈密师范学校,,46,46,30,12,8,69,,70,68,9,10,5,4,0.2,0.1
2025-04-21T1000,2671A,100.9048,36.9639,海北藏族自治州,海晏县西海镇,颗粒物(PM10),87,124,113,52,44,96,,80,80,4,5,11,10,0.6,0.5
2025-04-21T1000,3867A,102.0738,36.5056,海东市,平安区公安北苑,颗粒物(PM10),66,82,153,41,51,90,,98,92,6,4,9,12,0.5,0.5
2025-04-21T1000,1409A,110.576,19.9507,海口市,东寨港,,,,,,,,,,,,,,,,
2025-04-21T1000,1410A,110.3232,20.0574,海口市,海南大学,,22,22,26,10,13,39,,31,31,4,7,2,2,0.4,0.4
2025-04-21T1000,1411A,110.283,20.0053,海口市,秀英海南医院,,26,26,27,14,16,39,,30,30,6,12,4,4,0.2,0.2
2025-04-21T1000,1412A,110.338,19.9969,海口市,海南师范大学,,23,23,25,13,14,40,,30,30,5,7,4,3,0.3,0.4
2025-04-21T1000,1413A,110.33,20.0356,海口市,龙华路环保局宿舍,,24,24,25,13,15,39,,31,31,2,4,4,4,0.3,0.2
2025-04-21T1000,3539A,110.5111,19.9736,海口市,桂林洋子站,,18,18,22,11,14,41,,33,33,3,5,4,4,0.2,0.2
2025-04-21T1000,2673A,100.6188,36.2866,海南藏族自治州,共和县恰卜恰镇,颗粒物(PM10),109,168,145,70,63,100,,72,71,8,6,13,11,0.5,0.4
2025-04-21T1000,2676A,97.3731,37.3753,海西蒙古族藏族自治州,德令哈市,颗粒物(PM10),124,198,274,68,70,87,,79,79,7,5,12,13,0.5,0.4
2025-04-21T1000,1048A,114.5302,36.6116,邯郸市,东污水处理厂,,,,56,19,22,90,,88,87,17,19,2,1,0.4,0.4
2025-04-21T1000,1049A,114.4918,36.5713,邯郸市,矿院,,43,43,52,24,28,81,,79,79,7,9,4,3,0.3,0.4
2025-04-21T1000,1050A,114.484,36.6133,邯郸市,丛台公园,,48,46,55,33,31,94,,96,95,12,11,6,6,0.4,0.4
2025-04-21T1000,3458A,114.7895,36.5593,邯郸市,香泉濮院小区,颗粒物(PM10),52,54,67,17,23,88,,95,92,11,12,8,6,0.4,0.4
2025-04-21T1000,3579A,114.50634,36.77178,邯郸市,永年区实验高中,颗粒物(PM10),58,65,67,33,35,94,,98,96,12,8,7,5,0.5,0.4
2025-04-21T1000,3580A,114.20016,36.44293,邯郸市,峰峰矿区临水派出所,颗粒物(PM10),58,66,65,32,35,107,,96,96,8,7,6,5,0.9,0.7
2025-04-21T1000,2634A,106.9893,33.1842,汉中市,汉川机床厂子校,颗粒物(PM10),90,129,49,47,29,105,,104,102,4,6,6,6,0.4,0.5
2025-04-21T1000,2635A,107.0154,33.0706,汉中市,市监测站,颗粒物(PM10),64,77,52,36,30,73,,97,90,6,7,5,5,0.7,0.7
2025-04-21T1000,2636A,107.0089,33.1138,汉中市,鑫源开发区,颗粒物(PM10),69,87,48,46,27,79,,101,97,9,10,4,5,0.6,0.6
2025-04-21T1000,2637A,107.007,33.0323,汉中市,南郑大河坎水厂,"颗粒物(PM10),细颗粒物(PM2.5)",59,67,49,42,33,77,,80,78,8,12,3,4,0.6,0.7
2025-04-21T1000,1223A,120.2072,30.2111,杭州市,滨江,颗粒物(PM10),63,76,71,42,39,78,,70,64,43,28,9,8,0.5,0.5
2025-04-21T1000,1224A,120.0633,30.2747,杭州市,西溪,颗粒物(PM10),64,77,60,44,34,79,,74,66,30,20,6,6,0.8,0.8
2025-04-21T1000,1226A,120.3417,30.3150,杭州市,下沙,,,,87,,49,,,80,71,40,23,,7,0.6,0.6
2025-04-21T1000,1227A,120.1269,30.2456,杭州市,卧龙桥,细颗粒物(PM2.5),69,77,65,50,38,83,,58,57,37,24,8,7,0.6,0.6
2025-04-21T1000,1228A,120.1903,30.2692,杭州市,浙江农大,颗粒物(PM10),61,72,64,41,38,64,,71,64,41,26,4,3,0.5,0.5
2025-04-21T1000,1230A,120.1197,30.3119,杭州市,和睦小学,颗粒物(PM10),60,69,74,33,31,82,,79,73,31,21,8,7,0.6,0.6
2025-04-21T1000,1231A,120.3019,30.4183,杭州市,临平镇,细颗粒物(PM2.5),69,73,53,50,37,71,,86,77,26,17,6,6,0.7,0.6
2025-04-21T1000,1232A,120.2753,30.1839,杭州市,城厢镇,细颗粒物(PM2.5),78,80,68,57,45,96,,70,67,34,25,12,9,0.7,0.6
2025-04-21T1000,1233A,120.0883,30.1808,杭州市,云栖,,,,68,,37,,,37,35,,36,,10,,0.8
2025-04-21T1000,3557A,119.9464,30.0494,杭州市,镇二中,颗粒物(PM10),63,75,68,44,40,88,,67,63,35,30,3,2,0.6,0.6
2025-04-21T1000,3558A,119.7183,30.2367,杭州市,市府大楼,颗粒物(PM10),55,60,63,37,37,79,,81,74,27,22,8,8,0.5,0.6
2025-04-21T1000,3656A,120.1556,30.2864,杭州市,消防大队,细颗粒物(PM2.5),59,63,62,42,35,79,,76,70,38,26,4,4,0.9,0.9
2025-04-21T1000,1270A,117.1959,31.7848,合肥市,明珠广场,细颗粒物(PM2.5),52,51,58,36,29,77,,121,104,23,17,3,5,0.8,0.6
2025-04-21T1000,1271A,117.3072,31.8764,合肥市,三里街,颗粒物(PM10),56,61,51,36,23,46,,93,76,40,22,5,7,0.9,0.6
2025-04-21T1000,1272A,117.2588,31.8707,合肥市,琥珀山庄,细颗粒物(PM2.5),63,51,55,45,25,74,,101,90,30,23,3,5,0.9,0.7
2025-04-21T1000,1273A,117.1604,31.9052,合肥市,董铺水库,颗粒物(PM10),51,51,61,25,35,80,,116,103,15,9,1,3,0.7,0.5
2025-04-21T1000,1274A,117.25,31.8571,合肥市,长江中路,颗粒物(PM10),56,61,60,39,31,77,,109,97,27,22,8,10,0.8,0.7
2025-04-21T1000,1275A,117.266,31.9436,合肥市,庐阳区,细颗粒物(PM2.5),58,56,52,41,23,55,,93,73,42,24,7,8,0.7,0.5
2025-04-21T1000,1276A,117.3453,31.8616,合肥市,瑶海区,颗粒物(PM10),57,63,56,39,25,48,,89,74,46,28,6,8,1.0,0.7
2025-04-21T1000,1277A,117.3027,31.7964,合肥市,包河区,颗粒物(PM10),56,61,58,39,29,64,,99,82,26,22,6,8,0.8,0.6
2025-04-21T1000,1278A,117.2776,31.7385,合肥市,滨湖新区,细颗粒物(PM2.5),62,48,56,44,33,71,,114,98,23,17,6,8,0.7,0.6
2025-04-21T1000,1279A,117.1318,31.8403,合肥市,高新区,细颗粒物(PM2.5),58,51,60,41,30,78,,122,106,27,20,2,4,0.9,0.7
2025-04-21T1000,3464A,117.3803,31.9147,合肥市,高教基地,细颗粒物(PM2.5),57,53,46,40,17,56,,89,68,34,18,5,7,0.7,0.5
2025-04-21T1000,3614A,79.924,37.0877,和田地区,地区环保局,颗粒物(PM10),89,127,261,41,101,59,,51,51,8,12,1,2,0.3,0.3
2025-04-21T1000,3615A,79.9131,37.113,和田地区,市环保局,颗粒物(PM10),183,315,244,89,85,64,,58,58,6,6,3,2,0.5,0.3
2025-04-21T1000,2516A,108.2011,24.715,河池市,东仁乐园,,,,,,,,,,,,,,,,
2025-04-21T1000,2517A,108.0497,24.6947,河池市,市环保站,,49,49,47,21,27,66,,50,50,5,13,6,6,0.4,0.6
2025-04-21T1000,2518A,108.0983,24.6989,河池市,市疾控中心,,32,31,46,22,28,66,,44,44,10,26,9,9,0.5,0.6
2025-04-21T1000,1696A,114.6778,23.7569,河源市,源西,,35,24,36,24,31,35,,24,23,9,19,3,4,0.8,0.9
2025-04-21T1000,1697A,114.6944,23.7586,河源市,东埔,,39,39,34,20,25,33,,23,21,14,20,4,4,0.6,0.7
2025-04-21T1000,1698A,114.6892,23.7233,河源市,老城,,29,24,37,20,29,35,,26,24,11,17,4,4,0.4,0.5
2025-04-21T1000,1718A,115.4208,35.2464,菏泽市,气象局,颗粒物(PM10),62,73,67,36,32,68,,91,81,20,15,4,4,0.5,0.4
2025-04-21T1000,3374A,115.5564,35.0891,菏泽市,定陶老年大学,颗粒物(PM10),51,51,55,27,24,65,,84,76,19,16,5,4,0.5,0.4
2025-04-21T1000,4184A,115.4797,35.24401,菏泽市,永昌路1号,细颗粒物(PM2.5),64,75,69,46,38,56,,74,67,18,16,6,5,0.4,0.3
2025-04-21T1000,4193A,115.4715,35.2800,菏泽市,长城路999号,颗粒物(PM10),58,66,66,39,29,66,,85,76,20,18,8,7,0.4,0.2
2025-04-21T1000,2514A,111.5264,24.4172,贺州市,环保小区,,50,50,35,27,23,28,,43,36,20,16,7,7,0.7,0.7
2025-04-21T1000,2515A,111.5608,24.4078,贺州市,政协大楼,,40,33,30,28,18,32,,43,38,14,13,8,8,0.4,1.1
2025-04-21T1000,3534A,111.4744,24.4553,贺州市,西湾,,37,37,33,18,20,30,,36,36,14,14,8,8,0.6,0.6
2025-04-21T1000,2385A,114.17,35.9019,鹤壁市,市监测站,颗粒物(PM10),58,65,67,33,39,97,,97,92,16,14,8,6,0.5,0.5
2025-04-21T1000,2386A,114.2956,35.7511,鹤壁市,市交警支队,,,67,68,38,35,,,98,95,15,14,7,7,0.5,0.2
2025-04-21T1000,2387A,114.2878,35.7306,鹤壁市,迎宾馆,颗粒物(PM10),62,74,77,23,24,89,,100,96,10,12,5,4,0.5,0.6
2025-04-21T1000,3474A,114.2617,35.6822,鹤壁市,大新区,细颗粒物(PM2.5),58,61,68,41,39,80,,88,86,11,14,8,8,0.7,0.8
2025-04-21T1000,3596A,114.1572,35.9603,鹤壁市,南山宾馆,颗粒物(PM10),53,55,63,32,41,100,,98,92,16,15,6,4,0.5,0.6
2025-04-21T1000,2244A,130.2537,47.3416,鹤岗市,哈啤分公司,,,32,29,12,17,,,36,36,,9,,14,,0.4
2025-04-21T1000,2245A,130.2684,47.3086,鹤岗市,斯达机电,,32,32,31,17,18,39,,44,43,17,9,11,11,0.3,0.3
2025-04-21T1000,2246A,130.3114,47.3388,鹤岗市,东山纸板厂,,32,32,56,20,22,40,,25,25,12,16,12,12,0.3,0.9
2025-04-21T1000,2247A,130.1097,47.3382,鹤岗市,五号水库,,,,,,,,,,,,,,,,
2025-04-21T1000,2263A,127.4833,50.2524,黑河市,交通局,,19,15,23,13,16,36,,47,44,16,9,6,7,0.6,0.6
2025-04-21T1000,2264A,127.5144,50.2341,黑河市,环保局,,26,,18,18,18,43,,52,48,8,6,3,3,0.3,0.3
2025-04-21T1000,2265A,127.5291,50.2472,黑河市,大黑河岛,,,,,,,,,,,,,,,,
2025-04-21T1000,1074A,115.6838,37.7541,衡水市,电机北厂,颗粒物(PM10),59,67,76,37,41,102,,116,111,13,14,7,8,0.3,0.4
2025-04-21T1000,1075A,115.6303,37.7316,衡水市,市监测站,颗粒物(PM10),55,59,69,25,34,102,,110,105,14,16,14,14,0.3,0.4
2025-04-21T1000,3188A,115.6683,37.7217,衡水市,市城管局,细颗粒物(PM2.5),53,53,68,37,41,100,,111,106,13,16,9,8,0.4,0.4
2025-04-21T1000,3459A,115.5989,37.5491,衡水市,地表水厂,颗粒物(PM10),62,74,76,26,35,106,,101,99,12,18,10,8,0.4,0.4
2025-04-21T1000,2456A,112.5003,26.9167,衡阳市,原169医院,,41,41,34,19,18,70,,40,40,7,14,10,5,0.5,0.7
2025-04-21T1000,2457A,112.6194,26.9258,衡阳市,衡阳化工总厂,,50,50,37,17,16,70,,47,47,4,6,7,6,0.4,0.4
2025-04-21T1000,2458A,112.6211,26.8956,衡阳市,珠晖区环保局,,,29,28,,,69,,45,45,5,10,8,7,0.6,0.6
2025-04-21T1000,2459A,112.6197,26.8733,衡阳市,市委党校,,,45,28,,,70,,48,48,4,6,4,4,0.5,0.6
2025-04-21T1000,2460A,112.6006,26.8919,衡阳市,市监测站,,31,31,31,16,20,68,,46,46,6,10,9,9,0.7,0.7
2025-04-21T1000,2461A,112.5664,26.9056,衡阳市,真空机电公司,,42,42,33,19,18,62,,41,41,11,8,7,5,1.2,0.8
2025-04-21T1000,3399A,112.6703,26.882,衡阳市,师范学院,颗粒物(PM10),73,95,39,21,19,69,,49,49,7,9,6,7,0.6,0.6
2025-04-21T1000,2608A,103.3772,23.3993,红河哈尼族彝族自治州,污水处理厂,,45,,30,31,30,87,,83,83,8,6,4,4,0.3,0.3
2025-04-21T1000,2609A,103.3861,23.35,红河哈尼族彝族自治州,监测站,,38,38,40,22,26,85,,81,81,10,6,6,6,0.2,0.2
2025-04-21T1000,3038A,103.3758,23.368,红河哈尼族彝族自治州,州图书馆,,29,20,25,20,19,91,,89,89,6,5,5,5,0.3,0.3
2025-04-21T1000,1090A,111.6507,40.7517,呼和浩特市,呼市一监,,,31,72,16,37,,,85,80,9,19,9,10,0.6,0.7
2025-04-21T1000,1091A,111.6572,40.8033,呼和浩特市,小召,,44,44,68,20,37,91,,92,88,19,24,7,8,0.6,0.6
2025-04-21T1000,1094A,111.7516,40.8369,呼和浩特市,如意水处理厂,,34,34,80,20,37,89,,89,84,17,25,8,9,0.6,0.7
2025-04-21T1000,1095A,111.7276,40.8062,呼和浩特市,二十九中,,43,43,72,18,41,90,,89,85,14,17,4,5,0.7,0.7
2025-04-21T1000,1096A,111.5512,40.7866,呼和浩特市,工大金川校区,,50,50,68,25,35,68,,92,76,30,24,7,8,0.6,0.7
2025-04-21T1000,1097A,111.717,40.7612,呼和浩特市,化肥厂生活区,,30,30,83,19,47,90,,92,87,18,22,8,10,0.6,0.7
2025-04-21T1000,3698A,111.5968,40.8178,呼和浩特市,红旗小学,,36,36,62,23,33,80,,95,82,20,27,4,6,0.6,0.6
2025-04-21T1000,3699A,111.6518,40.8389,呼和浩特市,海东办,,34,34,64,22,35,92,,99,98,15,19,8,8,0.6,0.7
2025-04-21T1000,2192A,119.7594,49.2261,呼伦贝尔市,区环保局,,32,32,30,17,20,79,,71,70,17,13,5,5,0.3,0.3
2025-04-21T1000,3061A,119.7512,49.1577,呼伦贝尔市,国华电力东,,28,28,26,11,13,88,,84,84,9,6,4,4,0.3,0.2
2025-04-21T1000,1250A,120.0751,30.8669,湖州市,城西水厂,细颗粒物(PM2.5),67,81,56,48,34,69,,90,83,27,20,6,7,0.6,0.6
2025-04-21T1000,2873A,120.0830,30.8929,湖州市,仁皇山新区,细颗粒物(PM2.5),68,66,54,49,30,87,,100,99,30,23,4,5,0.9,0.8
2025-04-21T1000,2907A,120.1844,30.8596,湖州市,吴兴区站,细颗粒物(PM2.5),58,47,51,41,32,77,,83,79,24,18,6,7,0.4,0.4
2025-04-21T1000,3562A,120.4148,30.8538,湖州市,南浔区站,颗粒物(PM10),57,64,58,35,30,78,,86,83,25,21,4,5,0.6,0.6
2025-04-21T1000,1607A,120.9049,40.7211,葫芦岛市,龙港区,颗粒物(PM10),51,52,32,32,27,101,,92,88,15,14,11,10,0.6,0.6
2025-04-21T1000,1608A,120.8392,40.7514,葫芦岛市,化工街,,41,41,43,24,29,101,,83,83,18,24,10,10,0.6,0.7
2025-04-21T1000,1609A,120.8341,40.7073,葫芦岛市,新区,,49,,33,34,34,102,,87,85,19,20,9,9,0.7,0.8
2025-04-21T1000,1610A,120.8695,40.7677,葫芦岛市,东城区,细颗粒物(PM2.5),55,44,35,39,37,96,,82,82,21,26,5,6,0.7,0.7
2025-04-21T1000,2482A,109.5981,27.5721,怀化市,林科所,,43,43,45,27,20,24,,24,19,13,7,16,12,0.6,0.4
2025-04-21T1000,2483A,109.9453,27.5444,怀化市,河西地税局,,47,47,40,32,27,34,,23,21,15,10,12,10,0.7,0.5
2025-04-21T1000,2484A,109.9781,27.5342,怀化市,市四医院,,,35,51,,24,42,,29,28,11,8,10,7,0.8,0.7
2025-04-21T1000,2485A,109.9972,27.5578,怀化市,监测楼,细颗粒物(PM2.5),59,64,48,42,32,42,,35,32,10,6,10,9,0.7,0.6
2025-04-21T1000,2486A,110.0394,27.583,怀化市,市委党校,细颗粒物(PM2.5),57,40,39,40,30,33,,29,27,8,10,5,6,0.8,0.7
2025-04-21T1000,1210A,119.036,33.5981,淮安市,钵池山,,44,44,34,30,26,93,,78,78,16,16,8,7,0.4,0.2
2025-04-21T1000,1211A,119.007,33.575,淮安市,北京南路,,48,48,34,26,22,92,,84,84,15,11,8,8,0.7,0.5
2025-04-21T1000,1212A,118.989,33.6067,淮安市,市监测站,,,,31,,21,,,112,,,11,,7,,0.6
2025-04-21T1000,1213A,119.135,33.5039,淮安市,楚州区监测站,,43,39,36,30,27,91,,78,78,8,12,8,7,0.7,0.6
2025-04-21T1000,3426A,118.8755,33.2894,淮安市,新华书店,,46,46,32,27,17,91,,87,87,15,11,10,8,0.7,0.4
2025-04-21T1000,4206A,119.0288,33.6319,淮安市,承德北路606号,,46,44,40,32,28,91,,84,84,14,11,8,7,0.4,0.4
2025-04-21T1000,2282A,116.8004,33.975,淮北市,监测站,,42,41,44,29,23,78,,95,87,15,11,6,6,0.6,0.5
2025-04-21T1000,2283A,116.8091,33.9007,淮北市,烈山区政府,,45,45,53,22,19,74,,88,80,14,11,4,4,0.8,0.7
2025-04-21T1000,3330A,116.8873,33.9836,淮北市,杜集区检察院,,39,39,43,26,19,83,,97,90,15,13,6,6,0.8,0.7
2025-04-21T1000,4017A,116.7923,33.9535,淮北市,市博物馆,,43,43,38,25,19,76,,90,82,12,10,5,5,0.8,0.6
2025-04-21T1000,2277A,116.8305,32.7727,淮南市,潘集区政府,颗粒物(PM10),53,56,54,36,29,66,,64,57,23,20,11,7,0.8,0.4
2025-04-21T1000,2279A,116.8569,32.5951,淮南市,谢家集区政府,细颗粒物(PM2.5),54,49,48,38,24,72,,80,70,32,18,8,6,0.8,0.6
2025-04-21T1000,2280A,116.8281,32.633,淮南市,八公山区政府,颗粒物(PM10),63,75,61,40,24,75,,84,73,20,12,9,7,0.7,0.4
2025-04-21T1000,2281A,116.6325,32.6201,淮南市,焦岗湖风景区管理处,,,,,,,,,,,,,,,,
2025-04-21T1000,2894A,117.0566,32.6531,淮南市,经济技术开发区消防队,颗粒物(PM10),56,61,51,39,28,74,,72,66,30,22,9,7,0.8,0.5
2025-04-21T1000,3329A,117.0108,32.5893,淮南市,山南新区,颗粒物(PM10),65,80,53,31,17,78,,78,70,23,15,10,8,1.0,0.5
2025-04-21T1000,4209A,117.0031,32.6445,淮南市,国庆中路369号,颗粒物(PM10),65,80,51,37,26,74,,78,68,23,15,12,10,0.6,0.4
2025-04-21T1000,2446A,114.9028,30.4742,黄冈市,职工中心,,26,18,52,18,36,68,,90,82,11,11,7,9,0.6,0.7
2025-04-21T1000,2929A,114.8858,30.4519,黄冈市,红卫路,,29,22,56,20,37,59,,83,74,7,7,6,7,0.7,0.7
2025-04-21T1000,3398A,114.9136,30.4445,黄冈市,市林业局,,29,24,55,20,35,53,,76,67,5,7,6,7,0.6,0.6
2025-04-21T1000,2672A,102.0199,35.5102,黄南藏族自治州,同仁县隆务镇,颗粒物(PM10),91,131,166,55,46,96,,108,102,7,4,5,8,0.3,0.2
2025-04-21T1000,2295A,118.2903,29.6963,黄山市,延安路89号,细颗粒物(PM2.5),77,92,64,56,41,62,,47,47,19,9,5,5,0.8,0.7
2025-04-21T1000,2297A,118.1371,30.2756,黄山市,黄山区政府5号楼,,,,76,,42,,,112,,,6,,4,,0.8
2025-04-21T1000,4210A,118.3354,29.7203,黄山市,滨江东路7-2号,细颗粒物(PM2.5),68,76,69,49,36,51,,55,55,30,11,5,5,0.9,0.7
2025-04-21T1000,2423A,115.0601,30.2313,黄石市,沈家营,颗粒物(PM10),54,58,80,22,28,39,,65,55,20,19,7,8,1.0,0.9
2025-04-21T1000,2426A,114.8988,30.2019,黄石市,铁山,,,45,73,28,32,,,70,65,,12,,8,,0.5
2025-04-21T1000,2427A,115.0307,30.2092,黄石市,团城山,颗粒物(PM10),53,56,65,16,22,38,,69,60,18,11,8,8,0.7,0.6
2025-04-21T1000,3149A,115.0235,30.1578,黄石市,笔架山北路,颗粒物(PM10),54,57,57,18,23,51,,72,66,5,3,6,7,0.8,0.8
2025-04-21T1000,4185A,115.0780,30.21118,黄石市,磁湖东路29号,颗粒物(PM10),52,53,66,24,31,44,,67,56,22,13,7,8,0.8,0.8
2025-04-21T1000,1392A,114.4183,23.0528,惠州市,河南岸金山湖子站,,19,19,28,12,16,34,,20,20,11,15,7,8,0.3,0.3
2025-04-21T1000,1393A,114.4053,23.0822,惠州市,下埔横江三路子站,,,24,33,13,18,,,20,20,10,15,8,8,0.5,0.6
2025-04-21T1000,1394A,114.4103,23.1142,惠州市,江北云山西路子站,,23,21,31,16,17,34,,22,22,9,13,9,9,0.4,0.4
2025-04-21T1000,1395A,114.4645,22.7833,惠州市,惠阳区承修路船湖子站,,23,23,27,14,17,33,,23,23,10,14,7,7,0.4,0.4
2025-04-21T1000,1396A,114.5317,22.7422,惠州市,大亚湾管委会子站,,26,18,27,18,16,38,,28,28,4,10,7,7,0.6,0.6
2025-04-21T1000,3314A,114.4338,22.8134,惠州市,惠阳秋长,,27,27,26,15,17,39,,26,26,9,15,8,9,0.5,0.5
2025-04-21T1000,3452A,114.6517,22.775,惠州市,大亚湾霞涌,,30,,20,21,17,28,,23,23,14,15,7,6,0.4,0.3
2025-04-21T1000,2240A,130.9762,45.3001,鸡西市,环保局,细颗粒物(PM2.5),104,108,99,78,71,77,,31,31,18,35,9,7,0.5,0.7
2025-04-21T1000,2243A,130.9429,45.3039,鸡西市,第一中学,细颗粒物(PM2.5),77,85,93,56,70,66,,36,36,28,30,19,9,0.6,0.7
2025-04-21T1000,3707A,131.0207,45.3073,鸡西市,欧美日汽修厂,细颗粒物(PM2.5),97,93,136,72,98,68,,34,34,18,26,9,10,0.5,0.8
2025-04-21T1000,3709A,130.9967,45.3106,鸡西市,市政设施管理处,颗粒物(PM10),92,133,128,61,87,68,,29,29,20,36,9,8,0.6,0.8
2025-04-21T1000,2367A,114.9754,27.0803,吉安市,红声器材厂,,42,42,28,20,14,72,,51,51,6,6,10,13,0.5,0.6
2025-04-21T1000,2368A,114.9658,27.0999,吉安市,市森林工业局,,39,39,30,24,16,72,,50,50,6,7,10,12,0.5,0.4
2025-04-21T1000,2369A,114.99,27.1312,吉安市,市环境监测站,,42,42,24,23,13,75,,51,51,4,6,12,17,0.6,0.6
2025-04-21T1000,2370A,115.0093,27.0968,吉安市,青原区法院,,34,34,25,23,16,77,,54,54,3,8,13,14,0.3,0.4
2025-04-21T1000,1772A,126.54,43.8622,吉林市,哈达湾,,36,26,73,16,47,115,,85,85,13,25,8,9,0.4,0.6
2025-04-21T1000,1773A,126.5844,43.8358,吉林市,东局子,,44,44,55,18,37,99,,83,83,18,25,7,7,0.6,0.7
2025-04-21T1000,1774A,126.5052,43.8245,吉林市,电力学院,,34,19,112,12,96,107,,49,49,19,34,7,7,0.5,1
2025-04-21T1000,1775A,126.6133,43.8972,吉林市,江北,,36,36,65,13,39,105,,74,74,17,22,7,7,0.6,0.8
2025-04-21T1000,1776A,126.555,43.8306,吉林市,江南公园,,35,30,51,21,40,112,,81,81,13,19,7,7,0.4,0.6
2025-04-21T1000,1778A,126.7061,43.7133,吉林市,丰满,,,,,,,,,,,,,,,,
2025-04-21T1000,2868A,126.4739,43.953,吉林市,九站,,37,35,83,21,61,117,,84,84,13,28,9,12,0.7,0.9
2025-04-21T1000,1299A,116.9862,36.6114,济南市,科干所,,43,39,62,17,26,135,,93,93,11,21,10,12,0.4,0.5
2025-04-21T1000,1300A,116.9376,36.665,济南市,农科所,,,61,80,12,26,,,69,64,,28,,9,0.4,0.4
2025-04-21T1000,1301A,117.1265,36.6734,济南市,开发区,,40,32,62,22,28,128,,101,101,15,20,7,9,0.4,0.6
2025-04-21T1000,1303A,117.0624,36.6868,济南市,省种子仓库,,46,46,100,19,37,108,,58,58,26,45,5,7,0.7,0.9
2025-04-21T1000,1304A,116.9489,36.6447,济南市,机床二厂,颗粒物(PM10),55,59,84,15,32,118,,78,77,18,32,8,10,0.4,0.5
2025-04-21T1000,1305A,117.0495,36.663,济南市,市监测站,,44,44,79,15,32,112,,79,78,26,34,8,10,0.5,0.6
2025-04-21T1000,1306A,116.7675,36.5484,济南市,长清党校,,40,37,56,22,28,125,,108,99,17,19,7,8,0.6,0.6
2025-04-21T1000,1616A,117.6795,36.229,济南市,技术学院,,48,48,56,27,29,92,,81,78,36,27,23,14,1.4,1
2025-04-21T1000,1961A,117.532,36.6868,济南市,东山小学,,44,44,66,20,24,134,,100,99,10,18,8,10,0.5,0.5
2025-04-21T1000,3059A,117.7161,36.2049,济南市,泰兴公司,颗粒物(PM10),53,56,60,27,31,99,,77,77,29,27,21,12,1.3,0.9
2025-04-21T1000,3064A,117.6867,36.2171,济南市,莱芜战役纪念馆,,48,48,47,19,26,94,,82,79,33,27,16,9,1.1,0.9
2025-04-21T1000,3494A,117.1673,36.9782,济南市,济阳区政府,颗粒物(PM10),73,95,75,27,30,99,,92,89,18,20,12,10,0.7,0.6
2025-04-21T1000,3495A,117.1171,36.63,济南市,锦屏中学,,,32,54,12,22,,,84,80,,19,,6,,0.3
2025-04-21T1000,3682A,116.9814,36.6819,济南市,济南四建,颗粒物(PM10),53,56,80,17,34,106,,72,68,29,39,5,7,0.4,0.6
2025-04-21T1000,1653A,116.6251,35.4302,济宁市,火炬城,,32,32,50,17,27,80,,77,73,13,12,8,7,0.3,0.4
2025-04-21T1000,1655A,116.5491,35.4042,济宁市,电化厂,,40,40,51,19,28,83,,77,74,13,13,2,2,0.3,0.4
2025-04-21T1000,3500A,116.5814,35.3707,济宁市,北湖一中,,34,34,50,14,18,88,,79,76,13,14,6,5,0.3,0.4
2025-04-21T1000,3501A,116.8249,35.5593,济宁市,服务中心,,38,38,48,17,23,82,,69,67,15,16,3,4,0.3,0.4
2025-04-21T1000,3678A,116.5907,35.4054,济宁市,市第七中学,,40,40,54,22,24,90,,82,78,4,5,6,7,0.4,0.5
2025-04-21T1000,2255A,130.2751,46.8028,佳木斯市,佳纺,细颗粒物(PM2.5),83,86,64,61,45,15,,7,7,27,22,9,8,0.9,0.7
2025-04-21T1000,2256A,130.3995,46.8307,佳木斯市,发电厂,,42,42,37,28,28,12,,9,9,35,25,22,5,1.5,0.5
2025-04-21T1000,2257A,130.3258,46.7975,佳木斯市,环保局,颗粒物(PM10),60,69,54,41,38,9,,6,6,37,31,5,4,0.8,0.6
2025-04-21T1000,2258A,130.3648,46.8032,佳木斯市,十一中,颗粒物(PM10),52,53,42,31,30,12,,8,8,35,30,14,8,1.0,0.7
2025-04-21T1000,2259A,130.3794,46.7588,佳木斯市,四丰,,29,28,19,20,12,16,,35,28,32,13,1,1,1.2,1
2025-04-21T1000,1252A,120.7436,30.778,嘉兴市,清河小学,,35,35,42,15,20,71,,85,77,30,18,6,5,0.9,0.9
2025-04-21T1000,1253A,120.726,30.7478,嘉兴市,嘉兴学院,,33,33,41,21,23,87,,90,84,20,16,7,6,0.8,0.7
2025-04-21T1000,2872A,120.7846,30.7525,嘉兴市,南湖区残联,,34,34,48,19,24,87,,93,86,24,16,7,6,0.7,0.6
2025-04-21T1000,3407A,120.6916,30.7739,嘉兴市,秀洲住建,,40,40,39,16,22,91,,96,92,20,15,8,7,0.9,0.7
2025-04-21T1000,1945A,98.2908,39.7711,嘉峪关市,气象局,,39,39,86,9,16,78,,72,70,9,14,6,22,0.3,0.7
2025-04-21T1000,2884A,98.2672,39.7978,嘉峪关市,酒钢宾馆,,,,94,,22,,,72,68,12,14,18,48,0.6,0.6
2025-04-21T1000,3248A,98.2643,39.7724,嘉峪关市,雄关区,,37,37,72,20,24,75,,74,72,15,18,11,18,0.2,0.6
2025-04-21T1000,1383A,113.1064,22.6058,江门市,北街,,,34,26,14,17,39,,26,26,,4,3,2,,0.4
2025-04-21T1000,1384A,113.0731,22.5835,江门市,西区,,19,13,27,13,16,40,,28,28,9,10,7,7,0.4,0.4
2025-04-21T1000,1385A,113.0219,22.5311,江门市,圭峰西,,44,44,30,9,16,36,,25,25,8,11,4,4,0.3,0.3
2025-04-21T1000,1386A,113.0828,22.5947,江门市,东湖,,32,22,25,22,16,42,,29,29,8,8,8,7,0.3,0.4
2025-04-21T1000,3311A,113.1075,22.5647,江门市,江海富民,,38,38,37,18,18,41,,24,24,3,8,6,7,0.3,0.4
2025-04-21T1000,3449A,113.05,22.4667,江门市,新会银湖,颗粒物(PM10),69,88,31,14,18,41,,31,31,6,6,3,3,0.2,0.2
2025-04-21T1000,1830A,113.1992,35.2590,焦作市,影视城,,,,24,,20,,,,,,10,,347,,0.2
2025-04-21T1000,3169A,113.2725,35.2067,焦作市,太极体育中心,颗粒物(PM10),62,74,79,41,45,93,,100,92,10,8,11,8,0.2,0.2
2025-04-21T1000,3335A,113.3137,35.2641,焦作市,马村街道办,颗粒物(PM10),59,68,76,34,37,85,,94,87,16,12,15,9,0.3,0.3
2025-04-21T1000,3336A,113.2465,35.2373,焦作市,焦作技师学院,颗粒物(PM10),57,63,64,36,35,93,,101,93,15,12,11,8,0.5,0.4
2025-04-21T1000,3477A,113.1656,35.2539,焦作市,中站许衡医院,颗粒物(PM10),62,74,61,36,39,96,,110,101,20,13,12,9,0.6,0.6
2025-04-21T1000,3981A,113.2449,35.1803,焦作市,原李万街道办,颗粒物(PM10),55,60,75,34,33,85,,99,91,18,13,20,15,0.2,0.2
2025-04-21T1000,4264A,113.2340,35.2190,焦作市,新安路1731号,颗粒物(PM10),68,86,75,35,50,91,,98,90,13,11,10,9,0.6,0.7
2025-04-21T1000,1708A,116.3701,23.5345,揭阳市,新兴,颗粒物(PM10),52,53,37,21,26,46,,25,25,9,12,8,6,0.6,0.6
2025-04-21T1000,1709A,116.3264,23.5443,揭阳市,西马,,31,31,38,15,22,44,,25,25,4,7,7,7,0.6,0.6
2025-04-21T1000,1710A,116.3611,23.5626,揭阳市,东兴,,48,48,41,18,22,47,,27,27,7,9,7,6,0.9,0.9
2025-04-21T1000,1711A,116.4151,23.5294,揭阳市,渔湖,颗粒物(PM10),52,53,41,21,21,50,,22,22,5,12,6,5,0.6,0.7
2025-04-21T1000,3320A,116.403,23.5699,揭阳市,曲溪,,40,40,35,22,23,52,,28,28,11,13,12,7,0.5,0.6
2025-04-21T1000,1944A,102.1692,38.5167,金昌市,天庆家园,颗粒物(PM10),75,99,128,22,27,86,,94,92,4,3,6,9,0.7,0.6
2025-04-21T1000,4022A,102.1647,38.5371,金昌市,金川区人防中心,颗粒物(PM10),102,153,196,22,30,87,,95,92,4,4,3,6,0.4,0.4
2025-04-21T1000,4239A,102.1930,38.5319,金昌市,长春路96号,颗粒物(PM10),105,160,160,30,29,83,,91,88,2,2,14,13,0.6,0.6
2025-04-21T1000,1262A,119.647,29.077,金华市,十五中,颗粒物(PM10),64,77,106,38,63,88,,105,90,29,26,4,3,0.7,0.8
2025-04-21T1000,1263A,119.686,29.1029,金华市,监测站,颗粒物(PM10),80,110,119,42,69,89,,108,91,31,31,4,4,0.6,0.8
2025-04-21T1000,3659A,119.656,29.1131,金华市,气象局,颗粒物(PM10),52,54,97,26,57,92,,111,97,23,28,2,2,0.6,0.7
2025-04-21T1000,1767A,121.1115,41.0879,锦州市,南山,细颗粒物(PM2.5),54,,34,38,35,92,,81,80,23,24,11,22,0.6,0.7
2025-04-21T1000,1768A,121.0604,40.8428,锦州市,开发区,细颗粒物(PM2.5),57,53,61,40,38,86,,74,74,31,33,7,19,0.7,0.7
2025-04-21T1000,1769A,121.1836,41.1119,锦州市,百股街道,,32,28,33,22,21,96,,86,84,19,20,3,9,0.6,0.6
2025-04-21T1000,1770A,121.1178,41.1222,锦州市,天安街道,,,66,38,39,37,80,,74,72,,24,10,19,0.7,0.8
2025-04-21T1000,1771A,121.1303,41.1386,锦州市,北湖公园,细颗粒物(PM2.5),55,48,37,39,33,89,,84,82,26,25,10,18,0.7,0.7
2025-04-21T1000,2160A,112.85,35.5051,晋城市,自来水公司,颗粒物(PM10),55,60,62,24,25,131,,142,138,19,12,8,8,0.8,0.6
2025-04-21T1000,2161A,112.8318,35.4936,晋城市,白云商贸,颗粒物(PM10),67,83,73,27,25,130,,138,134,22,14,7,6,0.7,0.6
2025-04-21T1000,2162A,112.8508,35.4887,晋城市,市环保局,颗粒物(PM10),59,68,76,29,25,118,,129,124,19,11,6,6,0.4,0.4
2025-04-21T1000,2163A,112.8676,35.4897,晋城市,技术学院,颗粒物(PM10),61,72,67,27,24,128,,137,132,23,14,7,7,1.0,0.7
2025-04-21T1000,2165A,112.8453,35.546,晋城市,白马寺,,,,65,,36,135,,141,137,,9,,6,,0.5
2025-04-21T1000,3620A,112.8271,35.4828,晋城市,泽州一中,颗粒物(PM10),55,60,70,31,30,139,,140,136,16,12,9,9,0.7,0.6
2025-04-21T1000,2173A,112.7249,37.7067,晋中市,南都小区,颗粒物(PM10),75,100,90,53,45,51,,100,89,40,16,8,7,0.8,0.5
2025-04-21T1000,2174A,112.6991,37.6982,晋中市,榆次区政府,细颗粒物(PM2.5),87,90,91,64,41,36,,98,84,48,19,5,7,0.9,0.5
2025-04-21T1000,2865A,112.7195,37.6828,晋中市,榆次三中,细颗粒物(PM2.5),79,92,94,58,45,45,,90,75,48,20,7,6,1.0,0.7
2025-04-21T1000,4200A,112.7478,37.6954,晋中市,迎宾街26号,颗粒物(PM10),69,88,95,48,36,52,,90,78,32,15,6,6,0.8,0.6
2025-04-21T1000,2439A,112.2014,31.0481,荆门市,竹园小学,细颗粒物(PM2.5),88,,69,65,54,69,,90,81,12,12,6,8,0.5,0.4
2025-04-21T1000,2440A,112.1969,30.9891,荆门市,掇刀,细颗粒物(PM2.5),100,77,70,75,58,120,,134,127,14,12,12,14,0.5,0.5
2025-04-21T1000,2441A,112.2213,31.0386,荆门市,石化一小,细颗粒物(PM2.5),95,,69,71,63,64,,69,58,16,17,9,13,0.8,0.7
2025-04-21T1000,3012A,112.1849,31.0362,荆门市,西山林语,细颗粒物(PM2.5),89,74,62,66,52,59,,72,66,9,8,7,9,0.4,0.3
2025-04-21T1000,3547A,112.1632,31.0138,荆门市,龙泉中学南校,细颗粒物(PM2.5),70,60,59,51,38,60,,79,72,18,17,5,8,0.6,0.5
2025-04-21T1000,1844A,112.2494,30.3197,荆州市,市图书馆,颗粒物(PM10),52,54,52,34,34,47,,73,65,15,14,4,9,0.8,0.6
2025-04-21T1000,1845A,112.2008,30.3544,荆州市,市委党校,细颗粒物(PM2.5),52,48,61,36,37,46,,68,61,14,14,5,9,0.8,0.7
2025-04-21T1000,3194A,112.2747,30.3122,荆州市,管委会,,48,44,53,33,37,50,,72,63,12,11,7,12,0.8,0.7
2025-04-21T1000,4268A,112.1722,30.3366,荆州市,学苑路85号,细颗粒物(PM2.5),63,,40,45,48,43,,51,49,14,18,2,6,0.6,0.5
2025-04-21T1000,2342A,117.3102,29.3867,景德镇市,王港中学,,,,,,,,,,,,,,,,
2025-04-21T1000,2343A,117.2117,29.2933,景德镇市,老干部活动中心,,46,46,35,26,18,67,,78,78,13,11,8,9,0.6,0.5
2025-04-21T1000,2344A,117.1894,29.2789,景德镇市,兽医站,颗粒物(PM10),52,53,43,21,22,59,,74,73,15,14,3,6,0.5,0.5
2025-04-21T1000,2345A,117.1547,29.2617,景德镇市,台达陶瓷,,,59,46,25,27,56,,53,53,19,22,,57,,0.7
2025-04-21T1000,2346A,117.2461,29.2956,景德镇市,陶研所,,44,44,34,29,24,73,,80,80,10,9,6,7,0.3,0.3
2025-04-21T1000,1803A,115.9872,29.6815,九江市,十里,,,,47,,31,,,29,23,15,15,4,6,0.6,0.6
2025-04-21T1000,1804A,115.9584,29.7046,九江市,茅山头,,35,35,46,16,32,28,,18,14,23,25,7,11,0.9,0.9
2025-04-21T1000,1805A,115.9877,29.7295,九江市,西园,,,36,57,10,23,,,20,16,35,44,8,13,1.0,1
2025-04-21T1000,1808A,115.9114,29.6038,九江市,综合工业园,,38,38,57,14,32,39,,31,31,35,38,11,11,0.8,0.8
2025-04-21T1000,1809A,116.0721,29.7535,九江市,石化总厂,,48,,43,33,33,58,,62,53,20,15,10,12,0.9,0.9
2025-04-21T1000,1810A,115.9773,29.5698,九江市,庐山气象台,,22,16,23,15,16,67,,74,69,6,6,8,7,0.9,0.8
2025-04-21T1000,3190A,116.0254,29.6994,九江市,外国语学校,,20,17,31,14,26,32,,40,32,19,19,6,7,0.8,0.9
2025-04-21T1000,4253A,116.0102,29.6594,九江市,莲花大道8号,,23,,30,16,28,37,,36,34,15,9,5,4,0.6,0.6
2025-04-21T1000,4240A,98.4958,39.7339,酒泉市,玉门东路5号,,36,36,85,22,28,78,,86,83,6,3,8,7,0.3,0.2
2025-04-21T1000,4241A,98.5099,39.7506,酒泉市,北大街108号,,34,34,78,15,23,78,,82,80,6,4,9,8,0.2,0.2
2025-04-21T1000,2698A,76.0072,39.4467,喀什地区,巡警大队,颗粒物(PM10),131,212,316,63,66,50,,77,70,24,11,3,3,0.5,0.4
2025-04-21T1000,2699A,75.9755,39.4694,喀什地区,吾办,颗粒物(PM10),101,151,262,63,94,53,,77,70,17,15,9,6,1.1,0.6
2025-04-21T1000,4027A,75.9483,39.4689,喀什地区,老干局,颗粒物(PM10),92,134,218,47,59,62,,81,75,10,9,2,2,0.2,0.4
2025-04-21T1000,1824A,114.3389,34.7781,开封市,肿瘤医院,,50,49,55,35,29,87,,93,88,16,12,10,9,0.6,0.5
2025-04-21T1000,1826A,114.2885,34.7965,开封市,世纪星幼儿园,细颗粒物(PM2.5),74,61,62,54,22,100,,105,100,22,17,6,5,0.8,0.7
2025-04-21T1000,3147A,114.3438,34.8106,开封市,龙亭公园,,47,47,52,26,24,85,,92,87,20,15,4,4,0.9,0.8
2025-04-21T1000,3210A,114.3644,34.7964,开封市,汴京公园,颗粒物(PM10),55,60,71,3,26,86,,89,86,17,15,5,5,1.0,1
2025-04-21T1000,3473A,114.2485,34.8306,开封市,技师学院,细颗粒物(PM2.5),59,59,66,42,44,86,,,,24,14,5,5,1.2,1
2025-04-21T1000,3592A,114.4644,34.7556,开封市,祥符区生态环境局,,,58,62,26,23,72,,84,78,,20,,7,0.7,0.6
2025-04-21T1000,1951A,84.895,45.6094,克拉玛依市,长征新村,,18,14,11,7,7,57,,44,42,15,11,6,6,0.3,0.2
2025-04-21T1000,1952A,84.8988,45.5893,克拉玛依市,南林小区,,17,15,13,8,8,54,,31,29,17,12,3,3,0.2,0.2
2025-04-21T1000,1954A,84.905,44.3396,克拉玛依市,独山子区,,21,18,17,3,10,66,,59,56,12,7,7,8,0.3,0.3
2025-04-21T1000,1955A,85.6979,46.098,克拉玛依市,乌尔禾区商贸楼,,31,31,16,3,6,54,,58,54,16,6,6,5,0.4,0.3
2025-04-21T1000,3612A,85.1045,45.6899,克拉玛依市,白碱滩区新站,,20,20,21,8,8,61,,48,46,9,6,9,8,0.5,0.4
2025-04-21T1000,2697A,76.1454,39.7142,克孜勒苏柯尔克孜自治州,市人民政府,颗粒物(PM10),377,481,529,136,139,93,,100,95,4,3,5,7,0.7,0.5
2025-04-21T1000,3665A,76.1658,39.7157,克孜勒苏柯尔克孜自治州,克州文化中心,颗粒物(PM10),500,638,570,162,148,89,,94,92,3,3,5,7,0.3,0.3
2025-04-21T1000,1450A,102.8204,24.8886,昆明市,呈贡新区,,45,36,33,31,22,92,,86,83,11,10,5,5,0.5,0.5
2025-04-21T1000,1451A,102.6251,24.9608,昆明市,西山森林公园,,,,,,,,,,,,,,,,
2025-04-21T1000,1452A,102.7252,25.0902,昆明市,龙泉镇,,29,28,28,20,18,92,,86,84,14,12,9,9,0.4,0.4
2025-04-21T1000,1453A,102.7266,25.0375,昆明市,东风东路,,42,35,29,29,20,95,,91,89,18,12,14,9,0.6,0.4
2025-04-21T1000,1454A,102.6742,25.0669,昆明市,金鼎山,,38,38,30,19,16,104,,91,89,16,15,5,6,0.3,0.3
2025-04-21T1000,1455A,102.6644,25.0401,昆明市,碧鸡广场,,37,37,34,19,18,90,,80,78,16,17,11,7,0.5,0.4
2025-04-21T1000,3179A,102.7494,25.0119,昆明市,官渡区博物馆,,31,,31,21,18,99,,88,88,14,10,9,7,0.5,0.4
2025-04-21T1000,3375A,102.8017,24.8336,昆明市,青年创业园,,36,36,32,21,18,98,,80,77,7,9,8,7,0.5,0.5
2025-04-21T1000,3550A,102.7997,24.9786,昆明市,昆明学院,,32,30,32,20,19,102,,86,85,7,9,5,5,0.4,0.3
2025-04-21T1000,3551A,102.5967,24.6736,昆明市,晋宁区生态环境分局,细颗粒物(PM2.5),62,44,22,44,18,86,,78,75,9,7,9,8,0.6,0.4
2025-04-21T1000,3552A,102.6678,24.9856,昆明市,云天化总部,,36,30,26,25,18,96,,89,88,10,8,9,7,0.5,0.3
2025-04-21T1000,1456A,91.1319,29.6514,拉萨市,八廓街,,27,22,18,7,9,85,,94,88,12,10,23,10,0.5,0.4
2025-04-21T1000,1457A,91.1221,29.6747,拉萨市,市环保局,,41,41,23,11,9,65,,85,76,23,16,18,7,0.5,0.4
2025-04-21T1000,1458A,91.0874,29.6475,拉萨市,区监测站,,23,23,17,8,7,72,,82,78,21,17,23,9,0.8,0.7
2025-04-21T1000,1459A,91.1774,29.6541,拉萨市,西藏大学,,25,16,18,6,7,79,,86,79,12,11,22,10,0.2,0.2
2025-04-21T1000,1460A,90.9798,29.6588,拉萨市,区辐射站,,36,36,23,17,10,64,,63,54,35,23,13,10,0.5,0.4
2025-04-21T1000,1461A,91.0834,29.6292,拉萨市,拉萨火车站,,21,20,17,8,8,66,,62,60,21,16,16,4,0.3,0.3
2025-04-21T1000,2520A,109.2203,23.7256,来宾市,来宾技工学校,,45,45,42,31,22,66,,67,61,5,6,7,11,0.7,0.7
2025-04-21T1000,3535A,109.1781,23.7297,来宾市,兴宾区政府,,33,33,34,23,23,64,,67,62,4,6,5,5,0.6,0.7
2025-04-21T1000,4002A,109.2416,23.7461,来宾市,中南小学,细颗粒物(PM2.5),57,45,38,40,22,56,,60,54,7,6,10,10,0.6,0.6
2025-04-21T1000,1477A,104.1373,35.9454,兰州市,榆中兰大校区,,,,,,,,,,,,,,,,
2025-04-21T1000,1479A,103.831,36.0464,兰州市,铁路设计院,颗粒物(PM10),96,141,177,35,53,84,,93,85,16,16,7,10,0.3,0.4
2025-04-21T1000,3241A,103.7439,36.0842,兰州市,百合公园,颗粒物(PM10),91,131,170,28,44,82,,86,79,8,6,4,7,0.3,0.4
2025-04-21T1000,3242A,103.9611,35.998,兰州市,和平,细颗粒物(PM2.5),80,90,244,59,83,84,,91,85,6,7,14,12,0.7,0.6
2025-04-21T1000,4236A,103.6293,36.0938,兰州市,庄浪东路808号,颗粒物(PM10),78,105,201,45,57,85,,89,84,18,14,10,16,0.2,0.3
2025-04-21T1000,4237A,103.7251,36.1043,兰州市,安宁西路88号,颗粒物(PM10),106,162,245,73,66,,,99,93,4,5,6,10,0.2,0.3
2025-04-21T1000,4238A,103.8470,36.0676,兰州市,北滨河东路1号,颗粒物(PM10),101,151,192,43,54,94,,100,94,8,10,10,12,0.5,0.6
2025-04-21T1000,3245A,103.6633,36.533,兰州新区,新区管委会,颗粒物(PM10),102,153,208,40,57,88,,88,85,5,6,7,10,0.3,0.3
2025-04-21T1000,3246A,103.6975,36.4789,兰州新区,舟曲中学,颗粒物(PM10),114,178,275,53,61,95,,97,94,10,8,4,6,0.2,0.2
2025-04-21T1000,1067A,116.6708,39.5111,廊坊市,药材公司,细颗粒物(PM2.5),108,112,75,81,44,57,,38,38,41,30,7,6,0.6,0.5
2025-04-21T1000,1068A,116.7214,39.5589,廊坊市,开发区,颗粒物(PM10),87,123,81,60,42,53,,32,32,38,32,6,5,0.7,0.5
2025-04-21T1000,1070A,116.7244,39.5269,廊坊市,北华航天学院,,,,83,,44,51,,34,34,35,27,8,8,0.7,0.5
2025-04-21T1000,2919A,116.7022,39.5453,廊坊市,河北工业大学,细颗粒物(PM2.5),99,112,75,74,50,53,,35,35,37,29,9,9,0.7,0.5
2025-04-21T1000,2535A,103.7723,29.5462,乐山市,花湖湾,细颗粒物(PM2.5),64,75,67,46,40,66,,69,62,38,20,13,9,0.7,0.7
2025-04-21T1000,2536A,103.7627,29.5844,乐山市,牛耳桥,细颗粒物(PM2.5),69,84,69,50,41,61,,61,61,47,30,13,10,0.8,0.7
2025-04-21T1000,2537A,103.7508,29.6006,乐山市,市第三水厂,,,72,63,52,37,,,68,68,34,24,10,7,0.7,0.6
2025-04-21T1000,2538A,103.7571,29.5664,乐山市,市监测站,,,78,71,47,45,77,,74,68,,,12,9,0.8,0.7
2025-04-21T1000,3361A,103.7311,29.5628,乐山市,理工大学,细颗粒物(PM2.5),64,67,65,46,42,51,,50,45,46,24,11,7,0.7,0.6
2025-04-21T1000,2598A,100.2143,26.8576,丽江市,西南郊,臭氧1小时,126,28,24,6,8,252,,127,127,1,3,228,14,0.3,0.4
2025-04-21T1000,2599A,100.2497,26.8802,丽江市,丽江古城,,31,17,18,3,12,97,,96,94,11,10,5,5,0.5,0.4
2025-04-21T1000,2600A,100.2203,26.8906,丽江市,市中心,,30,16,9,8,8,96,,92,89,8,7,5,5,0.4,0.3
2025-04-21T1000,1267A,119.914,28.4514,丽水市,监测站大楼,,36,36,47,16,27,84,,78,78,12,19,3,3,0.6,0.6
2025-04-21T1000,1268A,119.93,28.4586,丽水市,莲都小学,,35,35,55,17,27,83,,64,64,9,19,3,3,0.4,0.5
2025-04-21T1000,1269A,119.879,28.4231,丽水市,余庄前,颗粒物(PM10),54,57,46,37,29,69,,25,25,18,12,4,3,0.7,0.7
2025-04-21T1000,1173A,119.176,34.5885,连云港市,市环境监测站,,35,31,36,19,22,109,,108,108,8,10,6,7,0.5,0.5
2025-04-21T1000,3000A,119.3581,34.6972,连云港市,德源药业,,36,36,31,24,19,114,,95,95,15,14,10,10,0.7,0.5
2025-04-21T1000,3007A,119.178,34.844,连云港市,新城一中,,41,41,43,17,16,104,,76,76,12,23,7,8,0.7,0.6
2025-04-21T1000,3008A,119.3608,34.7519,连云港市,胡沟管理处,,32,31,28,22,17,94,,74,74,29,38,14,15,0.7,0.6
2025-04-21T1000,3009A,119.1478,34.5911,连云港市,矿山设计院,,36,36,39,14,22,107,,106,106,13,15,8,10,0.5,0.5
2025-04-21T1000,3434A,119.2413,34.6539,连云港市,工贸学校,,37,29,26,19,20,117,,117,117,12,13,9,10,0.8,0.7
2025-04-21T1000,3664A,119.4172,34.7341,连云港市,连云街道,,41,41,35,20,19,112,,60,60,19,31,9,11,0.6,0.5
2025-04-21T1000,2571A,102.3431,27.8099,凉山彝族自治州,青龙寺,,30,21,19,3,7,95,,77,77,4,8,10,8,0.5,0.5
2025-04-21T1000,2572A,102.2721,27.8415,凉山彝族自治州,邛海宾馆,,28,28,31,16,16,84,,96,89,15,11,7,11,0.6,0.7
2025-04-21T1000,2573A,102.2625,27.898,凉山彝族自治州,西昌市政府,,31,22,19,12,14,97,,84,84,9,10,13,14,0.6,0.8
2025-04-21T1000,2574A,102.2685,27.8851,凉山彝族自治州,凉山州政府,,31,12,20,6,15,98,,88,88,11,15,9,11,0.4,0.6
2025-04-21T1000,4229A,102.2342,27.8859,凉山彝族自治州,凯乐南路30号,,29,29,27,10,15,85,,76,76,15,19,21,14,1.5,1
2025-04-21T1000,2212A,123.2,41.1953,辽阳市,宏伟区,,49,49,31,11,15,124,,104,104,6,12,12,13,0.5,0.7
2025-04-21T1000,2213A,123.1683,41.2495,辽阳市,新华园,,41,31,57,13,27,129,,72,72,5,26,11,16,0.6,1.1
2025-04-21T1000,2214A,123.2354,41.2639,辽阳市,滨河路,,36,23,38,9,20,114,,65,65,8,25,13,22,0.5,0.8
2025-04-21T1000,2215A,123.149,41.2991,辽阳市,铁西工业园,,41,41,84,15,42,107,,40,40,17,41,11,21,0.3,1.1
2025-04-21T1000,2227A,125.1358,42.8845,辽源市,环保局,,48,48,50,22,28,105,,72,72,21,27,7,8,0.4,0.6
2025-04-21T1000,3239A,125.0764,42.9078,辽源市,银鹰制药,,48,48,39,28,24,104,,70,70,21,24,8,7,0.5,0.5
2025-04-21T1000,1625A,115.9848,36.4372,聊城市,区政府,,,,74,,29,96,,102,95,,14,,11,0.8,0.8
2025-04-21T1000,2878A,116.0072,36.4343,聊城市,聊大东校,颗粒物(PM10),64,78,78,30,37,86,,99,89,17,16,9,10,0.4,0.5
2025-04-21T1000,3200A,115.9819,36.4978,聊城市,监控中心,颗粒物(PM10),58,66,70,27,33,98,,109,100,14,13,8,8,0.4,0.4
2025-04-21T1000,3513A,116.0445,36.4361,聊城市,九州社区,颗粒物(PM10),51,52,63,16,27,100,,106,98,9,10,4,7,0.4,0.5
2025-04-21T1000,4018A,116.0567,36.4608,聊城市,星美广场,颗粒物(PM10),55,60,73,12,25,96,,99,90,16,16,10,10,0.6,0.7
2025-04-21T1000,2632A,94.3681,29.6376,林芝市,林芝监测站,,18,7,5,3,5,55,,67,62,13,6,5,5,0.6,0.6
2025-04-21T1000,2633A,94.3616,29.6616,林芝市,林芝人民医院,,16,14,12,3,5,51,,59,58,10,4,5,5,0.6,0.5
2025-04-21T1000,2603A,100.0781,23.8982,临沧市,市环保局,,,38,39,18,33,,,43,39,13,12,5,7,0.7,0.6
2025-04-21T1000,2604A,100.0894,23.8822,临沧市,市气象局,细颗粒物(PM2.5),52,39,37,36,29,41,,49,43,19,11,7,8,0.8,0.6
2025-04-21T1000,1733A,111.5531,36.0783,临汾市,临钢医院,,,,,,,,,,,,,,,,
2025-04-21T1000,1734A,111.5028,36.0714,临汾市,技工学校,细颗粒物(PM2.5),65,72,78,47,42,74,,101,94,20,10,8,8,0.8,0.8
2025-04-21T1000,1736A,111.5018,36.0855,临汾市,市委,颗粒物(PM10),78,105,85,37,31,82,,109,102,22,13,6,7,0.9,0.8
2025-04-21T1000,3018A,111.505,36.1014,临汾市,唐尧大酒店,颗粒物(PM10),72,93,92,31,31,79,,100,94,21,14,10,10,0.8,0.7
2025-04-21T1000,4244A,111.4879,36.0530,临汾市,启星学校,细颗粒物(PM2.5),60,64,84,43,38,68,,100,90,22,13,8,7,0.7,0.7
2025-04-21T1000,4271A,103.2464,35.6123,临夏回族自治州,滨河东路1号,颗粒物(PM10),81,112,220,51,62,84,,85,82,3,6,6,13,0.2,0.3
2025-04-21T1000,4310A,103.2093,35.5995,临夏回族自治州,新华街21号,细颗粒物(PM2.5),87,110,204,64,68,91,,96,92,8,8,4,9,0.3,0.3
2025-04-21T1000,1618A,118.3429,35.0532,临沂市,沂河小区,细颗粒物(PM2.5),54,56,60,38,39,91,,70,70,15,16,12,9,0.3,0.5
2025-04-21T1000,1619A,118.295,35.0583,临沂市,鲁南制药厂,,46,46,45,19,40,101,,88,88,20,17,12,10,0.3,0.3
2025-04-21T1000,1620A,118.2794,34.9976,临沂市,新光毛纺厂,,,,50,,35,104,,86,86,,21,9,9,,0.4
2025-04-21T1000,1621A,118.3956,35.0888,临沂市,河东保险公司,,36,36,49,24,31,100,,67,67,13,18,4,4,0.4,0.4
2025-04-21T1000,3370A,118.3564,35.0215,临沂市,十里堡居委,,34,34,45,19,31,102,,76,76,18,19,6,4,0.4,0.5
2025-04-21T1000,3496A,118.3604,35.1084,临沂市,南坊新区,颗粒物(PM10),58,66,62,39,32,100,,75,75,15,17,8,8,0.7,0.7
2025-04-21T1000,3860A,118.3920,35.0300,临沂市,皇山花园小区,,36,34,49,25,37,102,,67,67,11,14,9,8,0.6,0.6
2025-04-21T1000,1870A,109.4856,24.3895,柳州市,柳东小学,,40,40,33,24,21,67,,74,68,13,12,10,10,0.5,0.5
2025-04-21T1000,1871A,109.4157,24.3277,柳州市,环保监测站,,42,34,39,29,22,61,,67,62,10,8,11,10,0.8,0.7
2025-04-21T1000,1872A,109.389,24.341,柳州市,河西水厂,颗粒物(PM10),55,60,45,25,20,63,,65,61,8,8,6,6,0.6,0.6
2025-04-21T1000,1873A,109.4311,24.2921,柳州市,市四中,颗粒物(PM10),71,91,42,20,21,53,,58,53,14,12,8,7,0.5,0.5
2025-04-21T1000,1874A,109.4006,24.3631,柳州市,市九中,,39,36,41,27,17,61,,66,62,8,7,8,9,0.8,0.7
2025-04-21T1000,1875A,109.4958,24.3134,柳州市,古亭山,,41,41,40,20,20,56,,66,59,7,6,7,6,0.6,0.6
2025-04-21T1000,3402A,109.5422,24.3996,柳州市,市二中,,39,39,33,22,19,52,,63,56,8,8,12,13,0.4,0.4
2025-04-21T1000,2307A,116.5079,31.737,六安市,监测大楼,,23,21,53,16,36,71,,126,106,18,16,5,7,0.6,0.6
2025-04-21T1000,2308A,116.4738,31.7643,六安市,皖西学院,,25,19,65,15,35,80,,126,109,14,15,5,6,0.6,0.7
2025-04-21T1000,2309A,116.4996,31.7905,六安市,朝阳厂,,30,,54,21,34,69,,120,100,17,18,4,5,0.5,0.5
2025-04-21T1000,2310A,116.5567,31.7886,六安市,开发区,,40,40,67,26,35,69,,107,90,23,24,5,7,0.6,0.7
2025-04-21T1000,2576A,104.8,26.5892,六盘水市,窑上,,31,27,34,18,24,97,,85,85,6,7,7,6,0.3,0.3
2025-04-21T1000,2577A,104.83,26.5917,六盘水市,黄土坡,,33,26,37,22,22,105,,94,94,8,14,10,10,0.4,0.4
2025-04-21T1000,2578A,104.89,26.5939,六盘水市,水钢,,34,29,38,8,16,108,,100,98,8,9,10,10,0.4,0.4
2025-04-21T1000,2579A,104.8475,26.5894,六盘水市,民中,,33,21,34,9,17,103,,99,96,9,14,10,10,0.5,0.5
2025-04-21T1000,2580A,104.9544,26.5506,六盘水市,双水,,34,31,39,3,13,107,,98,98,10,11,10,10,0.2,0.2
2025-04-21T1000,2335A,117.0189,25.1181,龙岩市,龙岩师专,,,,,,,,,,,,,,,,
2025-04-21T1000,2336A,117.0217,25.1033,龙岩市,龙岩市监测站,,49,49,29,31,19,48,,9,9,21,25,5,5,0.9,0.7
2025-04-21T1000,2337A,117.0258,25.0661,龙岩市,闽西职业技术学院,,33,33,26,20,16,42,,11,11,16,23,8,13,0.7,0.6
2025-04-21T1000,2338A,117.0196,25.0306,龙岩市,龙岩学院,,37,37,23,24,15,63,,18,18,7,12,9,5,0.6,0.5
2025-04-21T1000,2665A,105.0822,33.3261,陇南市,汉王镇固水子,,,,,,,,,,,,,,,,
2025-04-21T1000,2885A,104.9339,33.3826,陇南市,滨江中学,颗粒物(PM10),61,72,82,34,34,81,,96,88,8,3,8,8,0.5,0.5
2025-04-21T1000,3247A,104.955,33.371,陇南市,市总工会,,,59,77,32,32,96,,118,109,10,4,6,6,,0.5
2025-04-21T1000,2487A,111.9589,27.8901,娄底市,电视发射台,,32,29,74,22,26,60,,19,19,6,5,3,2,0.3,0.4
2025-04-21T1000,2488A,111.9975,27.725,娄底市,市监测站,颗粒物(PM10),54,57,52,35,33,45,,32,32,30,26,12,11,0.9,0.7
2025-04-21T1000,2489A,112.0194,27.7314,娄底市,市委党校,,36,34,49,25,33,56,,38,38,9,9,4,3,0.5,0.5
2025-04-21T1000,2490A,111.9561,27.7569,娄底市,涟钢,颗粒物(PM10),54,58,55,32,33,50,,24,24,9,13,13,15,0.4,0.6
2025-04-21T1000,2491A,111.9892,27.7044,娄底市,市政府,,28,27,47,19,29,53,,34,34,6,11,2,2,0.4,0.5
2025-04-21T1000,1893A,105.4324,28.9634,泸州市,九狮山,,,,,,,,,,,,,,,,
2025-04-21T1000,1894A,105.4427,28.9063,泸州市,小市上码头,颗粒物(PM10),62,73,49,23,18,34,,29,27,27,26,8,7,0.6,0.5
2025-04-21T1000,1895A,105.4241,28.8573,泸州市,兰田宪桥,,50,48,40,35,28,65,,24,24,20,16,13,9,0.7,0.6
2025-04-21T1000,1896A,105.4379,28.8833,泸州市,市环监站,,,,,,,,,,,,,,,,
2025-04-21T1000,4272A,105.3689,28.7783,泸州市,纳溪中医医院,颗粒物(PM10),66,82,49,37,23,62,,21,21,15,24,8,7,0.8,0.7
2025-04-21T1000,2183A,111.1406,37.5211,吕梁市,环保局,,,59,81,22,34,,,99,92,6,12,11,13,,0.4
2025-04-21T1000,2185A,111.1297,37.5136,吕梁市,自来水公司,,49,49,73,22,31,99,,100,94,9,12,8,9,0.5,0.6
2025-04-21T1000,2867A,111.1283,37.51,吕梁市,马茂庄小学,颗粒物(PM10),57,64,74,23,32,101,,84,79,7,20,6,7,0.3,0.5
2025-04-21T1000,1812A,112.3931,34.6516,洛阳市,市委党校,颗粒物(PM10),57,63,67,28,36,70,,78,73,21,14,5,5,0.7,0.8
2025-04-21T1000,1815A,112.494,34.6886,洛阳市,河南林校,颗粒物(PM10),57,63,69,38,42,78,,77,74,20,18,8,8,0.5,0.6
2025-04-21T1000,1816A,112.3844,34.623,洛阳市,开发区管委会,颗粒物(PM10),62,74,82,37,46,71,,85,77,26,16,6,7,0.5,0.5
2025-04-21T1000,1817A,112.4267,34.6258,洛阳市,市委新办公区,颗粒物(PM10),58,66,76,31,38,70,,80,73,26,18,6,7,0.7,0.8
2025-04-21T1000,3340A,112.6005,34.6326,洛阳市,伊滨,,,,66,,41,70,,86,74,23,21,7,10,0.6,0.6
2025-04-21T1000,3341A,112.4951,34.6332,洛阳市,中移产业园,颗粒物(PM10),61,72,85,29,40,73,,75,70,21,19,8,8,0.7,0.8
2025-04-21T1000,3593A,112.5736,34.8993,洛阳市,吉利监测站,颗粒物(PM10),56,61,79,31,36,87,,92,86,18,17,6,8,0.6,0.7
2025-04-21T1000,3635A,112.3677,34.662,洛阳市,河科大西苑校区,颗粒物(PM10),61,71,78,32,37,72,,82,77,22,14,9,9,0.5,0.6
2025-04-21T1000,3636A,112.4388,34.6781,洛阳市,英才小学,颗粒物(PM10),61,72,75,26,36,74,,76,72,26,20,8,7,0.7,0.8
2025-04-21T1000,4214A,112.4600,34.6949,洛阳市,春都路1号院,颗粒物(PM10),55,59,66,26,35,83,,83,80,17,15,6,5,0.7,0.8
2025-04-21T1000,2399A,114.051,33.5699,漯河市,三五一五工厂,,,,107,32,33,64,,90,80,14,12,3,4,1.0,0.9
2025-04-21T1000,2400A,114.0055,33.5698,漯河市,漯河大学,细颗粒物(PM2.5),55,39,62,39,34,70,,96,86,16,11,4,6,0.6,0.5
2025-04-21T1000,2401A,114.0138,33.5828,漯河市,市水利局,,46,46,62,31,33,59,,96,85,14,7,3,5,0.5,0.5
2025-04-21T1000,2402A,114.0261,33.5698,漯河市,市广电局,细颗粒物(PM2.5),65,,63,47,31,68,,94,84,14,10,3,4,0.8,0.7
2025-04-21T1000,3478A,113.9749,33.5664,漯河市,市图书馆,细颗粒物(PM2.5),63,,62,45,33,67,,97,88,17,14,4,4,0.7,0.6
2025-04-21T1000,4250A,114.0892,33.5882,漯河市,韶山路11号,细颗粒物(PM2.5),67,53,66,48,30,64,,86,77,18,15,2,4,0.8,0.6
2025-04-21T1000,1798A,118.5092,31.6837,马鞍山市,湖东路四小,颗粒物(PM10),58,65,45,38,18,69,,82,75,32,20,9,10,0.8,0.6
2025-04-21T1000,1799A,118.5024,31.6449,马鞍山市,开发区,细颗粒物(PM2.5),79,68,46,58,24,70,,74,71,35,24,8,8,1.0,0.7
2025-04-21T1000,1802A,118.6245,31.7241,马鞍山市,濮塘,颗粒物(PM10),54,57,44,33,20,61,,74,68,15,12,7,8,0.7,0.5
2025-04-21T1000,3633A,118.4918,31.6809,马鞍山市,雨山,,,,45,33,17,61,,85,77,33,19,8,9,,0.7
2025-04-21T1000,4191A,118.5274,31.72227,马鞍山市,慈湖高新区,颗粒物(PM10),64,77,42,34,21,48,,73,65,38,19,8,8,0.8,0.6
2025-04-21T1000,1686A,111.0286,21.4688,茂名市,电白南海,,32,27,30,22,23,32,,31,30,8,7,2,1,0.6,0.6
2025-04-21T1000,1687A,110.9294,21.6533,茂名市,茂石化七小,,31,31,31,17,15,33,,30,30,7,7,2,2,0.7,0.6
2025-04-21T1000,1688A,110.9107,21.6687,茂名市,健康路,,24,24,29,14,16,37,,34,34,3,4,2,2,0.7,0.7
2025-04-21T1000,1689A,110.8592,21.6828,茂名市,高岭,,34,34,37,9,12,32,,32,32,5,6,2,3,0.6,0.6
2025-04-21T1000,3450A,111.01,21.5165,茂名市,电白水东,,19,19,23,12,12,34,,31,30,11,10,1,1,0.5,0.5
2025-04-21T1000,2539A,104.0308,30.0478,眉山市,黑龙滩水库,,36,32,25,25,16,68,,41,41,4,14,3,3,0.4,0.4
2025-04-21T1000,2540A,103.8416,30.0874,眉山市,气象局,颗粒物(PM10),89,127,88,61,44,32,,34,31,52,34,6,5,0.9,0.8
2025-04-21T1000,3137A,103.8578,30.0744,眉山市,市委党校,颗粒物(PM10),74,97,70,51,37,30,,38,32,57,37,11,10,1.1,0.9
2025-04-21T1000,3148A,103.8291,30.0564,眉山市,区人社局,细颗粒物(PM2.5),77,95,65,56,38,36,,51,44,49,34,16,15,1.2,1
2025-04-21T1000,1690A,116.1231,24.3284,梅州市,梅江月梅,,26,24,33,18,24,41,,11,11,7,14,5,6,0.5,0.6
2025-04-21T1000,1691A,116.0797,24.2719,梅州市,梅县新城,,30,30,34,16,25,40,,10,10,6,19,6,6,0.5,0.7
2025-04-21T1000,1692A,116.1248,24.2654,梅州市,环境监控中心,,28,26,29,19,20,30,,9,9,13,20,7,8,0.7,0.7
2025-04-21T1000,3315A,116.1233,24.2991,梅州市,梅龙,,,24,29,14,24,,,9,9,7,13,7,8,0.5,0.6
2025-04-21T1000,1878A,104.7778,31.4741,绵阳市,富乐山,,49,49,53,24,29,87,,78,77,7,13,7,9,0.4,0.5
2025-04-21T1000,1880A,104.6697,31.4668,绵阳市,高新区自来水公司,颗粒物(PM10),71,91,58,39,30,72,,58,58,14,22,3,4,0.2,0.4
2025-04-21T1000,1881A,104.7287,31.5075,绵阳市,三水厂,颗粒物(PM10),56,62,62,35,34,84,,49,49,7,22,7,8,0.4,0.6
2025-04-21T1000,3491A,104.69,31.5322,绵阳市,西科大附属小学,颗粒物(PM10),62,73,63,30,33,74,,58,58,8,22,6,7,0.6,0.7
2025-04-21T1000,3492A,104.5648,31.5343,绵阳市,安州区旅游局,,,53,52,17,26,,,86,83,12,15,10,11,0.5,0.7
2025-04-21T1000,4226A,104.7651,31.4531,绵阳市,绵阳市气象局,颗粒物(PM10),69,87,51,34,29,90,,73,73,6,18,3,5,0.4,0.6
2025-04-21T1000,1784A,129.61,44.561,牡丹江市,环保大楼,细颗粒物(PM2.5),115,109,65,87,47,97,,47,47,31,28,10,7,0.7,0.5
2025-04-21T1000,1785A,129.6115,44.5782,牡丹江市,文化广场,细颗粒物(PM2.5),114,100,88,86,62,94,,50,50,36,33,14,14,0.9,0.9
2025-04-21T1000,1786A,129.5904,44.5963,牡丹江市,第一医院,细颗粒物(PM2.5),83,105,59,61,46,99,,54,54,29,19,12,7,0.7,0.5
2025-04-21T1000,1787A,129.6364,44.6075,牡丹江市,机车工厂,细颗粒物(PM2.5),119,148,72,90,45,100,,46,46,31,22,12,24,0.9,0.6
2025-04-21T1000,1788A,129.6386,44.5462,牡丹江市,第一中学,细颗粒物(PM2.5),77,71,54,56,42,108,,48,48,22,21,11,8,0.8,0.7
2025-04-21T1000,2531A,105.0703,29.61,内江市,市监测站,,35,27,26,24,20,89,,84,78,10,15,12,9,0.6,0.6
2025-04-21T1000,2532A,105.0717,29.5947,内江市,东兴区政府,,31,31,21,19,14,72,,74,66,13,16,14,11,0.6,0.6
2025-04-21T1000,2533A,105.0653,29.5817,内江市,内江二中,,45,35,33,31,22,71,,71,63,18,19,12,9,0.5,0.5
2025-04-21T1000,2534A,105.0406,29.5822,内江市,内江日报社,,37,37,41,20,25,68,,66,60,13,24,15,16,0.5,0.5
2025-04-21T1000,2628A,92.0657,31.4846,那曲市,那曲监测站,颗粒物(PM10),80,110,49,51,18,49,,38,38,47,25,11,7,1.4,1
2025-04-21T1000,4243A,92.0515,31.4787,那曲市,那曲市委宣传部,细颗粒物(PM2.5),68,79,46,49,22,56,,43,41,31,19,13,6,0.8,0.5
2025-04-21T1000,1290A,115.8931,28.6843,南昌市,省外办,,38,38,28,19,18,49,,33,33,19,18,10,7,0.5,0.5
2025-04-21T1000,1291A,115.8886,28.7003,南昌市,省林业公司,,29,29,30,14,18,46,,24,24,16,17,12,9,0.6,0.6
2025-04-21T1000,1292A,115.8126,28.7442,南昌市,林科所,,22,22,23,12,15,51,,20,20,7,28,4,2,0.5,0.5
2025-04-21T1000,1294A,115.8518,28.687,南昌市,建工学校,,21,21,30,3,17,57,,28,28,18,25,6,4,0.7,0.7
2025-04-21T1000,1295A,115.8921,28.6424,南昌市,象湖,,25,24,22,17,13,62,,36,36,13,18,12,8,0.7,0.6
2025-04-21T1000,1296A,115.7423,28.7996,南昌市,武术学校,,21,21,30,10,19,59,,22,22,2,5,15,13,0.7,0.8
2025-04-21T1000,3046A,115.9084,28.6062,南昌市,机电学校,,32,32,30,17,13,61,,34,34,11,16,8,3,0.4,0.4
2025-04-21T1000,3690A,115.9721,28.7031,南昌市,外国语学校,,35,35,23,16,11,59,,39,39,10,8,13,10,0.4,0.5
2025-04-21T1000,4192A,115.9316,28.68677,南昌市,南京东路235号,,35,35,31,20,14,58,,38,38,16,16,15,11,0.8,0.8
2025-04-21T1000,1905A,106.056,30.8064,南充市,西山风景区,,23,22,20,15,20,72,,80,75,6,6,5,5,0.6,0.5
2025-04-21T1000,1906A,106.0789,30.8023,南充市,南充市委,,40,40,29,19,16,65,,76,70,17,12,4,4,0.6,0.5
2025-04-21T1000,1907A,106.1031,30.8217,南充市,南充炼油厂,,43,43,35,15,17,68,,75,70,9,9,4,4,0.5,0.5
2025-04-21T1000,4227A,106.1083,30.7884,南充市,梨树横街98号,,34,34,28,23,18,61,,74,70,18,12,3,4,0.3,0.2
2025-04-21T1000,4304A,106.1172,30.843,南充市,清泉寺北路188号,,47,47,33,10,13,64,,73,68,10,9,4,4,0.3,0.3
2025-04-21T1000,4305A,106.067,30.7616,南充市,同庆路1号,,35,35,28,19,19,62,,67,64,16,11,4,4,0.5,0.4
2025-04-21T1000,1151A,118.8086,32.1065,南京市,迈皋桥,细颗粒物(PM2.5),55,58,39,39,20,63,,56,56,47,33,4,4,0.7,0.4
2025-04-21T1000,1152A,118.7538,32.0551,南京市,草场门,颗粒物(PM10),68,85,45,36,19,67,,61,61,36,24,6,6,0.8,0.6
2025-04-21T1000,1153A,118.7794,32.0745,南京市,山西路,"颗粒物(PM10),细颗粒物(PM2.5)",62,73,52,44,19,77,,64,64,26,22,6,5,0.5,0.3
2025-04-21T1000,1154A,118.7752,32.0023,南京市,中华门,,,,42,,17,,,115,,,12,,12,,0.3
2025-04-21T1000,1155A,118.8109,32.0309,南京市,瑞金路,颗粒物(PM10),71,92,48,34,22,65,,58,58,21,13,7,6,0.4,0.3
2025-04-21T1000,1156A,118.7997,32.0754,南京市,玄武湖,"颗粒物(PM10),细颗粒物(PM2.5)",59,68,43,42,18,70,,64,64,21,15,8,8,0.8,0.6
2025-04-21T1000,1157A,118.6414,32.0931,南京市,浦口,颗粒物(PM10),66,82,53,34,18,67,,63,63,36,26,7,7,0.8,0.6
2025-04-21T1000,1158A,118.7356,31.9996,南京市,奥体中心,颗粒物(PM10),69,88,51,41,20,59,,62,60,38,21,10,9,0.8,0.6
2025-04-21T1000,1159A,118.9125,32.1028,南京市,仙林大学城,,,,48,58,24,,,62,59,30,20,11,11,,0.7
2025-04-21T1000,3422A,118.8436,31.9198,南京市,江宁彩虹桥,颗粒物(PM10),52,54,42,34,19,56,,55,54,36,22,4,4,0.8,0.7
2025-04-21T1000,3427A,118.8554,32.3578,南京市,六合雄州,颗粒物(PM10),64,77,34,27,17,67,,50,50,44,22,7,7,0.8,0.5
2025-04-21T1000,4249A,118.8708,31.3402,南京市,汶溪路181号,,48,46,44,33,26,98,,96,93,33,23,6,6,0.7,0.5
2025-04-21T1000,4312A,119.019,31.6512,南京市,中山西路1号,,41,41,38,22,20,103,,87,87,20,19,7,7,0.6,0.5
2025-04-21T1000,1401A,108.3103,22.7881,南宁市,二十一中,,27,27,29,11,17,44,,49,43,15,11,4,3,0.5,0.6
2025-04-21T1000,1402A,108.3141,22.8528,南宁市,北湖,,15,14,30,10,18,46,,55,49,14,9,6,5,0.4,0.5
2025-04-21T1000,1403A,108.3206,22.8225,南宁市,市监测站,,26,26,29,13,18,39,,48,42,13,8,5,4,0.3,0.4
2025-04-21T1000,1404A,108.3829,22.8037,南宁市,大自然花园,,19,19,32,13,18,54,,54,50,8,5,6,5,0.4,0.5
2025-04-21T1000,1405A,108.4394,22.7904,南宁市,仙葫,,25,25,26,13,17,53,,45,43,4,4,7,6,0.4,0.5
2025-04-21T1000,1406A,108.2397,22.8467,南宁市,区农职院,,28,28,35,7,17,41,,48,43,14,12,4,4,0.6,0.5
2025-04-21T1000,1407A,108.3275,22.735,南宁市,英华嘉园,,25,25,28,12,17,49,,46,41,13,11,7,7,0.5,0.5
2025-04-21T1000,3401A,108.4834,22.7618,南宁市,红星社区,,23,23,27,15,18,63,,52,51,4,3,9,8,0.6,0.7
2025-04-21T1000,4221A,108.2177,22.7774,南宁市,乐贤路16号,,35,35,35,15,20,40,,32,30,11,15,10,7,0.4,0.5
2025-04-21T1000,2331A,118.0966,26.6761,南平市,茫荡山,,,,,,,,,,,,,,,,
2025-04-21T1000,2332A,118.1681,26.6369,南平市,南平市监测站,,20,20,30,14,22,52,,16,16,7,15,4,6,0.8,0.9
2025-04-21T1000,2333A,118.1825,26.6489,南平市,南平铝业有限公司,,25,25,28,10,16,52,,14,14,8,16,4,5,0.8,0.9
2025-04-21T1000,2334A,118.1756,26.6272,南平市,南平七中,,35,35,27,16,16,51,,18,18,7,11,4,5,0.7,0.8
2025-04-21T1000,1168A,120.9098,31.9663,南通市,狼山街道,,31,31,32,7,14,83,,101,96,21,13,4,3,0.8,0.7
2025-04-21T1000,1169A,120.86,32.0005,南通市,虹桥,颗粒物(PM10),53,56,39,14,18,86,,101,96,26,17,1,2,0.3,0.2
2025-04-21T1000,1170A,120.87,32.02,南通市,城中,,32,32,33,11,15,93,,101,98,18,16,2,2,0.6,0.5
2025-04-21T1000,1171A,120.94,31.93,南通市,星湖花园,,27,27,25,16,15,78,,102,97,29,20,4,2,0.7,0.5
2025-04-21T1000,1172A,120.81,32.0417,南通市,紫琅学院,,29,29,27,11,14,88,,94,92,16,15,4,4,0.5,0.5
2025-04-21T1000,3291A,121.067,32.062,南通市,通州监测站,,30,24,26,14,13,94,,102,100,6,7,5,4,0.5,0.5
2025-04-21T1000,3432A,120.9348,31.9883,南通市,环境教育馆,,30,27,29,10,14,93,,100,99,14,11,2,2,0.2,0.2
2025-04-21T1000,2404A,112.5224,33.0122,南阳市,瓦房庄,颗粒物(PM10),52,53,59,30,24,80,,91,85,13,12,4,4,0.8,0.6
2025-04-21T1000,2405A,112.5003,32.9735,南阳市,汉画馆,,42,42,56,25,28,76,,82,78,16,16,4,5,0.7,0.6
2025-04-21T1000,2406A,112.5573,33.027,南阳市,气象站,细颗粒物(PM2.5),52,41,57,36,33,71,,92,84,14,12,3,3,0.8,0.6
2025-04-21T1000,2407A,112.5481,32.9689,南阳市,理工学院,,45,45,54,26,28,76,,88,82,13,12,3,3,0.8,0.6
2025-04-21T1000,4008A,112.5234,32.9922,南阳市,卧龙区政府,,50,39,52,35,33,73,,93,85,20,14,3,4,0.8,0.7
2025-04-21T1000,1234A,121.8358,29.911,宁波市,区环保大楼,,26,19,45,10,26,81,,64,64,15,34,8,9,0.7,0.7
2025-04-21T1000,1235A,121.56,29.82,宁波市,万里学院,,33,29,44,23,32,86,,74,74,11,20,5,6,0.5,0.6
2025-04-21T1000,1236A,121.713,29.9572,宁波市,龙赛医院,,32,28,31,16,20,102,,54,54,10,27,10,10,0.6,0.7
2025-04-21T1000,1239A,121.633,29.7733,宁波市,钱湖水厂,,29,25,47,20,29,86,,78,78,8,17,8,9,0.6,0.8
2025-04-21T1000,1240A,121.5856,29.8635,宁波市,太古小学,,37,37,52,15,21,97,,71,71,8,20,8,10,0.7,0.7
2025-04-21T1000,1241A,121.524,29.8674,宁波市,市环境监测中心,,34,34,45,9,21,90,,71,71,16,24,9,11,0.8,0.9
2025-04-21T1000,2871A,121.6147,29.9017,宁波市,万里国际学校,,33,19,54,18,24,104,,63,63,5,28,7,9,0.6,0.7
2025-04-21T1000,3710A,121.5594,29.8975,宁波市,白沙活动中心,,30,27,41,14,22,95,,64,64,14,24,7,8,0.5,0.6
2025-04-21T1000,2339A,119.5001,26.6946,宁德市,金涵水库,,,,,,,,,,,,,,,,
2025-04-21T1000,2341A,119.5388,26.6612,宁德市,宁德市监测站,,,51,29,40,25,64,,64,64,16,21,,4,0.7,0.5
2025-04-21T1000,3209A,119.5231,26.6562,宁德市,宁德一中,,,60,32,47,27,59,,62,59,17,15,,5,0.4,0.4
2025-04-21T1000,2618A,98.8601,25.8567,怒江傈僳族自治州,州监测站,,29,29,29,19,18,39,,33,32,7,7,8,9,0.3,0.3
2025-04-21T1000,2619A,98.8546,25.8417,怒江傈僳族自治州,泸水一中,,35,27,27,24,18,26,,14,14,10,11,6,6,0.4,0.3
2025-04-21T1000,1888A,101.6891,26.571,攀枝花市,弄弄坪,,48,48,35,13,16,80,,84,76,26,18,9,14,0.7,1.1
2025-04-21T1000,1889A,101.5769,26.5928,攀枝花市,河门口,颗粒物(PM10),63,76,33,26,15,55,,86,69,37,13,23,14,1.1,0.6
2025-04-21T1000,1890A,101.7169,26.585,攀枝花市,炳草岗,,39,39,25,20,14,74,,89,81,33,15,16,12,0.5,0.4
2025-04-21T1000,1891A,101.7369,26.5008,攀枝花市,仁和,,30,26,26,14,15,94,,88,83,15,10,8,9,0.4,0.4
2025-04-21T1000,2835A,101.7227,26.567,攀枝花市,四十中小,,26,26,22,12,11,82,,98,90,26,10,9,7,0.7,0.6
2025-04-21T1000,1604A,122.0303,41.1489,盘锦市,开发区,,34,25,23,7,23,106,,84,84,20,19,8,9,0.4,0.5
2025-04-21T1000,1605A,122.0485,41.0883,盘锦市,兴隆台,,34,26,26,7,24,106,,83,83,13,19,10,10,0.5,0.6
2025-04-21T1000,1606A,121.8297,41.1028,盘锦市,新生街道,,37,19,21,12,25,118,,90,90,16,19,9,9,0.5,0.6
2025-04-21T1000,1832A,113.3257,33.742,平顶山市,新华旅馆,细颗粒物(PM2.5),52,40,56,36,43,59,,93,78,19,16,4,5,0.5,0.6
2025-04-21T1000,1833A,113.2919,33.737,平顶山市,规划设计院,,,50,66,36,39,,,92,83,20,16,3,4,,0.5
2025-04-21T1000,1834A,113.182,33.774,平顶山市,平顶山工学院,,49,46,62,34,37,63,,89,69,12,12,3,3,0.4,0.4
2025-04-21T1000,3204A,113.3025,33.73,平顶山市,规划局,,46,46,66,28,30,48,,95,77,22,12,4,6,0.5,0.4
2025-04-21T1000,3594A,112.8867,33.9116,平顶山市,石龙区,颗粒物(PM10),51,51,78,32,40,92,,92,86,12,15,6,7,0.4,0.4
2025-04-21T1000,2656A,106.6692,35.5461,平凉市,聚贤嘉苑,,38,38,205,25,50,87,,112,102,9,10,2,9,0.5,0.5
2025-04-21T1000,2657A,106.7021,35.5307,平凉市,博物馆,颗粒物(PM10),51,52,208,25,42,87,,111,101,10,8,10,12,0.4,0.4
2025-04-21T1000,2347A,114.0997,27.5002,萍乡市,武功山,,34,34,10,21,8,69,,41,41,4,4,15,15,0.5,0.6
2025-04-21T1000,2348A,113.8385,27.6434,萍乡市,中医院,,50,50,35,23,22,57,,45,42,9,6,17,16,1.2,0.8
2025-04-21T1000,2349A,113.8493,27.6253,萍乡市,市政府车库,,,72,33,35,23,,,40,36,13,11,16,10,1.8,1.6
2025-04-21T1000,2350A,113.8676,27.6435,萍乡市,市环保局,细颗粒物(PM2.5),60,54,34,43,25,54,,40,37,12,9,17,12,1.5,0.7
2025-04-21T1000,2351A,113.866,27.6198,萍乡市,安源区政府,细颗粒物(PM2.5),54,54,36,38,28,44,,40,37,18,12,28,18,2.3,1.1
2025-04-21T1000,2319A,119.0141,25.4325,莆田市,荔城区仓后路,,,,33,,24,,,55,55,23,20,,3,1.1,0.8
2025-04-21T1000,2320A,119.0015,25.4553,莆田市,莆田市监测站,,46,44,28,32,24,68,,53,53,12,12,5,5,0.8,0.6
2025-04-21T1000,2321A,119.1119,25.4561,莆田市,涵江区六中,细颗粒物(PM2.5),52,43,30,36,25,64,,48,48,20,23,4,5,0.8,0.6
2025-04-21T1000,2322A,119.1013,25.3215,莆田市,秀屿区政府,,45,43,27,31,26,86,,70,70,11,10,6,4,1.2,0.7
2025-04-21T1000,2323A,118.981,25.4792,莆田市,东圳水库,,,,,,,,,,,,,,,,
2025-04-21T1000,2392A,115.0312,35.7636,濮阳市,环保局,,46,43,53,32,34,78,,99,90,15,14,8,7,0.6,0.6
2025-04-21T1000,2394A,115.0574,35.7609,濮阳市,油田运输公司,颗粒物(PM10),53,56,66,34,35,80,,102,92,20,19,7,6,0.9,0.8
2025-04-21T1000,3021A,115,35.7668,濮阳市,濮水河管理处,颗粒物(PM10),56,62,64,39,35,77,,98,89,16,14,6,5,0.8,0.8
2025-04-21T1000,4216A,115.0924,35.7686,濮阳市,任丘路479号,颗粒物(PM10),57,64,77,38,37,85,,107,98,12,10,8,7,0.7,0.7
2025-04-21T1000,2601A,100.98,22.7633,普洱市,市环保局,,45,45,39,10,14,60,,55,52,8,8,8,7,0.5,0.4
2025-04-21T1000,2602A,100.9817,22.8322,普洱市,普洱第二中学,,27,27,31,12,23,64,,51,51,14,16,7,7,1.0,0.9
2025-04-21T1000,2262A,131.0518,45.8751,七台河市,新一中,,50,37,55,35,43,97,,56,56,19,21,16,13,1.0,0.9
2025-04-21T1000,3345A,131.0577,45.7879,七台河市,中波台,颗粒物(PM10),54,58,73,35,54,100,,35,35,22,26,7,7,0.6,0.7
2025-04-21T1000,3637A,131.0176,45.7761,七台河市,人民广场,颗粒物(PM10),59,68,101,36,64,114,,48,48,16,33,10,10,0.6,0.9
2025-04-21T1000,3684A,130.8781,45.8222,七台河市,新建矿广场,颗粒物(PM10),71,92,111,24,57,96,,31,31,19,35,6,13,0.7,0.8
2025-04-21T1000,1779A,123.9305,47.3636,齐齐哈尔市,安居小区,细颗粒物(PM2.5),238,231,78,188,43,50,,51,43,32,19,7,6,1.1,0.5
2025-04-21T1000,1780A,123.9488,47.3386,齐齐哈尔市,中心广场,细颗粒物(PM2.5),255,275,82,205,45,55,,58,51,36,19,8,8,1.0,0.4
2025-04-21T1000,1781A,123.9483,47.3227,齐齐哈尔市,农牧车辆厂,细颗粒物(PM2.5),158,207,63,120,28,55,,55,49,31,16,6,5,0.6,0.2
2025-04-21T1000,1783A,123.945,47.2988,齐齐哈尔市,市环境监测站,细颗粒物(PM2.5),192,229,64,144,37,54,,56,50,30,14,4,3,1.2,0.5
2025-04-21T1000,3662A,123.6333,47.2075,齐齐哈尔市,富区青少年活动中心,细颗粒物(PM2.5),247,203,72,197,50,58,,49,45,24,14,4,4,1.1,0.7
2025-04-21T1000,2591A,107.9783,26.5747,黔东南苗族侗族自治州,市环境监测站,,38,34,33,26,22,91,,88,88,4,7,3,3,0.5,0.5
2025-04-21T1000,2881A,107.8908,26.5311,黔东南苗族侗族自治州,凯里学院,,39,31,28,27,22,88,,90,89,2,4,3,2,0.2,0.2
2025-04-21T1000,2593A,107.5228,26.2403,黔南布依族苗族自治州,小围寨,,35,34,27,24,21,92,,83,82,6,6,4,4,0.4,0.4
2025-04-21T1000,3538A,107.5175,26.2978,黔南布依族苗族自治州,沙坝,,41,41,31,24,21,86,,75,75,6,6,4,4,0.4,0.5
2025-04-21T1000,2589A,104.9022,25.0925,黔西南布依族苗族自治州,场坝街,,33,11,29,7,16,103,,88,87,11,12,4,6,0.2,0.3
2025-04-21T1000,2590A,104.8811,25.0992,黔西南布依族苗族自治州,坪东大道,,32,,30,13,16,100,,76,75,7,11,3,5,0.2,0.2
2025-04-21T1000,2502A,108.6236,21.9667,钦州市,市环保站,,34,34,30,14,12,46,,37,37,17,13,10,4,1.1,0.8
2025-04-21T1000,2503A,108.6549,21.9481,钦州市,沙埠小学,颗粒物(PM10),54,58,40,20,19,56,,30,30,14,18,13,9,1.2,1.1
2025-04-21T1000,2504A,108.5989,21.7431,钦州市,港区一小,颗粒物(PM10),66,81,54,16,17,42,,25,25,14,18,12,10,0.6,0.5
2025-04-21T1000,3404A,108.5959,21.9633,钦州市,北职校,,38,38,32,17,15,49,,33,33,13,11,12,8,0.5,0.3
2025-04-21T1000,1043A,119.7493,40.0116,秦皇岛市,第一关,细颗粒物(PM2.5),55,46,54,39,44,106,,71,71,14,33,4,5,0.3,0.5
2025-04-21T1000,1044A,119.5897,39.9499,秦皇岛市,监测站,,48,48,59,31,32,96,,61,61,16,30,4,4,0.4,0.6
2025-04-21T1000,1046A,119.5251,39.9041,秦皇岛市,建设大厦,颗粒物(PM10),69,88,61,29,30,94,,45,45,20,41,3,4,0.4,0.6
2025-04-21T1000,3132A,119.610547,39.943889,秦皇岛市,文明里,颗粒物(PM10),54,58,61,26,37,93,,65,65,17,32,3,4,0.3,0.4
2025-04-21T1000,4198A,119.5090,39.8253,秦皇岛市,北戴河轮滑馆,,42,41,47,29,37,82,,68,68,18,19,2,3,0.3,0.4
2025-04-21T1000,1307A,120.6659,36.2403,青岛市,仰口,细颗粒物(PM2.5),64,,24,46,22,77,,94,90,20,15,7,6,0.6,0.4
2025-04-21T1000,1310A,120.4134,36.0658,青岛市,市南区东部子站,,,46,40,29,23,,,69,69,23,25,9,8,0.5,0.4
2025-04-21T1000,1311A,120.3664,36.1032,青岛市,四方区子站,,31,24,38,19,26,97,,92,92,18,24,6,6,0.6,0.6
2025-04-21T1000,1312A,120.2994,36.054,青岛市,市南区西部子站,,46,41,30,32,22,65,,71,71,30,34,8,7,0.9,0.8
2025-04-21T1000,1313A,120.4581,36.0858,青岛市,崂山区子站,,41,41,36,24,18,73,,74,74,19,22,10,9,0.7,0.6
2025-04-21T1000,1315A,120.3999,36.3083,青岛市,城阳区子站,,34,31,44,3,19,106,,89,89,15,23,7,8,0.5,0.6
2025-04-21T1000,1966A,120.0405,35.8735,青岛市,黄岛区4号,,35,29,24,24,18,81,,94,91,25,19,9,8,0.8,0.8
2025-04-21T1000,3362A,120.5014,36.4034,青岛市,即墨2号,,40,40,37,27,22,99,,83,82,12,16,8,7,0.6,0.6
2025-04-21T1000,3642A,120.3503,36.0736,青岛市,市北区南部,,26,26,33,14,23,79,,77,77,12,18,8,9,0.7,0.7
2025-04-21T1000,3643A,120.3948,36.1805,青岛市,李沧区北部,,30,22,32,14,26,94,,83,83,22,32,8,8,0.5,0.6
2025-04-21T1000,4290A,120.1969,35.9546,青岛市,珠江路669号,,46,46,39,32,29,73,,90,84,27,21,9,7,0.7,0.7
2025-04-21T1000,1702A,113.0426,23.691,清远市,环保大楼,,36,36,56,18,24,34,,23,23,14,23,6,6,0.7,0.8
2025-04-21T1000,1703A,113.0208,23.7106,清远市,凤城街办,,28,28,39,17,22,28,,20,20,17,26,6,6,0.5,0.6
2025-04-21T1000,3025A,113.0477,23.6344,清远市,技师学院,,30,30,38,19,21,29,,21,21,16,21,6,7,0.4,0.4
2025-04-21T1000,3318A,112.9903,23.7403,清远市,清新太和,,36,36,39,22,23,29,,18,18,17,23,8,7,0.5,0.5
2025-04-21T1000,3455A,113.076,23.7198,清远市,清城东城,,35,35,43,19,23,31,,15,15,14,23,7,7,0.7,0.8
2025-04-21T1000,2661A,107.6325,35.7357,庆阳市,庆阳五中,颗粒物(PM10),65,80,114,29,35,78,,106,101,7,7,2,4,0.4,0.5
2025-04-21T1000,2662A,107.6364,35.7067,庆阳市,市环保局,颗粒物(PM10),58,65,107,25,27,97,,111,110,6,6,6,7,0.4,0.5
2025-04-21T1000,1916A,103.7897,25.5035,曲靖市,环境监测站,,31,29,34,14,14,98,,90,90,10,10,6,5,0.1,0.2
2025-04-21T1000,1917A,103.8,25.5364,曲靖市,烟厂办公区,,34,24,32,17,15,106,,99,99,8,7,3,4,0.4,0.3
2025-04-21T1000,3376A,103.7947,25.462,曲靖市,南苑二区,,28,28,30,16,15,88,,83,83,7,7,4,4,0.2,0.2
2025-04-21T1000,3377A,103.7444,25.5261,曲靖市,曲靖师范学院,,32,32,33,18,19,100,,88,88,7,8,6,6,0.3,0.3
2025-04-21T1000,1264A,118.8692,28.9398,衢州市,环保大楼,细颗粒物(PM2.5),107,133,96,80,60,,,90,84,26,18,5,5,0.8,0.7
2025-04-21T1000,1265A,118.8709,28.9666,衢州市,实验学校,细颗粒物(PM2.5),109,121,96,82,67,107,,92,88,29,24,5,5,0.7,0.6
2025-04-21T1000,1266A,118.8621,28.9808,衢州市,衢州学院,细颗粒物(PM2.5),117,123,97,88,69,106,,88,86,23,23,4,5,0.9,0.8
2025-04-21T1000,1611A,118.5819,24.9117,泉州市,涂山街,,27,23,29,10,33,86,,63,63,17,18,6,4,0.8,0.7
2025-04-21T1000,1612A,118.5972,24.8978,泉州市,津头埔,,29,16,27,10,36,92,,62,62,14,23,4,2,0.7,0.7
2025-04-21T1000,1613A,118.6663,24.9424,泉州市,万安,,27,26,29,12,32,84,,64,64,14,16,5,4,0.7,0.6
2025-04-21T1000,1614A,118.6117,24.9604,泉州市,清源山,,,,,,,,,,,,,,,,
2025-04-21T1000,3529A,118.6333,24.9264,泉州市,城华南路,,25,18,34,12,33,77,,60,60,20,20,5,3,0.8,0.6
2025-04-21T1000,2626A,88.8876,29.2718,日喀则市,日喀则监测站,,50,50,19,19,8,64,,68,64,18,13,3,4,0.6,0.4
2025-04-21T1000,3726A,88.8781,29.2426,日喀则市,林业技术推广中心,,32,32,17,12,3,81,,100,94,11,4,6,6,0.3,0.2
2025-04-21T1000,1659A,119.471,35.4209,日照市,监测站,,39,39,41,24,27,107,,60,60,22,32,5,6,0.6,0.6
2025-04-21T1000,1660A,119.523,35.4216,日照市,市政府广场,,44,44,36,24,19,101,,96,96,13,19,4,4,0.7,0.6
2025-04-21T1000,1661A,119.5587,35.4044,日照市,港务局,细颗粒物(PM2.5),59,,34,42,31,105,,99,99,13,19,7,7,0.9,0.8
2025-04-21T1000,3507A,119.5328,35.4625,日照市,职业技术学院,,35,31,33,24,18,109,,94,94,7,12,5,5,0.7,0.6
2025-04-21T1000,3604A,119.3266,35.1044,日照市,岚山环保分局,,45,44,39,31,23,100,,104,102,18,26,5,6,0.7,0.6
2025-04-21T1000,1835A,111.1922,34.7752,三门峡市,市政府,,,,109,,51,,,121,118,,18,,7,,0.9
2025-04-21T1000,1836A,111.1587,34.7942,三门峡市,开发区,颗粒物(PM10),66,82,111,44,56,111,,118,116,17,16,7,7,0.7,0.8
2025-04-21T1000,1838A,111.143,34.7955,三门峡市,风景区,颗粒物(PM10),62,73,90,27,31,112,,118,116,11,11,9,9,0.6,0.6
2025-04-21T1000,3039A,111.1911,34.7829,三门峡市,三门峡市第一小学,颗粒物(PM10),71,92,103,36,47,119,,126,122,14,12,5,8,0.8,0.8
2025-04-21T1000,3598A,111.1,34.7167,三门峡市,富达温泉假日酒店,颗粒物(PM10),72,93,94,40,47,108,,112,108,22,14,9,7,0.4,0.4
2025-04-21T1000,2324A,117.6211,26.2625,三明市,三钢,,48,39,28,33,22,32,,17,17,21,16,14,6,2.8,0.8
2025-04-21T1000,2325A,117.635,26.2714,三明市,三明二中,细颗粒物(PM2.5),59,,26,42,23,31,,16,16,21,16,11,5,2.5,0.9
2025-04-21T1000,2326A,117.6028,26.2378,三明市,三元区政府,细颗粒物(PM2.5),53,43,30,37,21,34,,12,12,26,16,18,4,2.8,1
2025-04-21T1000,2327A,117.7275,26.3108,三明市,洋溪,,,,,,,,,,,,,,,,
2025-04-21T1000,1876A,109.5078,18.2489,三亚市,河东子站,,18,15,20,12,12,34,,26,26,6,4,3,4,0.3,0.2
2025-04-21T1000,1877A,109.4964,18.2681,三亚市,河西子站,,24,24,19,10,13,35,,22,22,7,7,2,2,0.2,0.2
2025-04-21T1000,3540A,109.7348,18.3443,三亚市,君悦子站,,16,16,21,9,10,45,,20,20,4,8,4,3,0.2,0.2
2025-04-21T1000,2624A,91.7608,29.2313,山南市,山南监测站,,36,36,30,15,8,73,,92,84,11,5,3,3,0.4,0.3
