timepoint,stationcode,longitude,latitude,area,positionname,primarypollutant,aqi,pm10,pm10_24h,pm2_5,pm2_5_24h,o3,o3_24h,o3_8h,o3_8h_24h,no2,no2_24h,so2,so2_24h,co,co_24h
2024-05-11T2100,2566A,102.1879,31.914,阿坝藏族羌族自治州,州农科所,,11,10,24,6,12,33,,52,47,11,16,3,3,0.3,0.5
2024-05-11T2100,2568A,102.2502,31.8896,阿坝藏族羌族自治州,马师校,,19,16,13,13,14,38,,73,63,7,9,4,3,0.3,0.3
2024-05-11T2100,3994A,102.2165,31.9024,阿坝藏族羌族自治州,马尔康中学西区,,35,,21,24,14,43,,76,68,5,6,3,3,0.3,0.3
2024-05-11T2100,2695A,80.292,41.1694,阿克苏地区,电视台,颗粒物(PM10),77,103,184,44,53,107,,124,124,17,29,4,6,0.3,0.4
2024-05-11T2100,2696A,80.2613,41.1551,阿克苏地区,艺术中心,颗粒物(PM10),79,107,187,39,67,84,,126,122,47,49,3,4,0.5,0.6
2024-05-11T2100,2204A,105.6467,38.8363,阿拉善盟,西城区西花园,颗粒物(PM10),97,144,98,32,25,108,,124,122,16,8,8,8,0.5,0.6
2024-05-11T2100,2205A,105.6985,38.8411,阿拉善盟,蒙二幼,细颗粒物(PM2.5),79,,107,58,37,112,,118,117,9,7,8,9,0.4,0.4
2024-05-11T2100,2206A,105.724,38.8516,阿拉善盟,环保局新楼,颗粒物(PM10),112,174,109,59,33,114,,116,116,8,5,8,9,0.4,0.4
2024-05-11T2100,2708A,88.1264,47.8517,阿勒泰地区,市站,,38,38,27,2,5,110,,120,118,10,7,5,5,0.2,0.2
2024-05-11T2100,2630A,80.1161,32.5,阿里地区,阿里监测站,,,8,27,2,9,152,,152,152,6,15,6,5,,0.5
2024-05-11T2100,3192A,80.0903,32.5028,阿里地区,阿里藏医院,臭氧1小时,58,14,18,5,6,166,,163,163,3,7,9,11,0.4,0.5
2024-05-11T2100,2642A,109.0318,32.6537,安康市,香溪洞,颗粒物(PM10),61,71,37,25,12,81,,95,95,4,5,7,7,0.4,0.5
2024-05-11T2100,2643A,109.0281,32.6939,安康市,安康市监测站,颗粒物(PM10),68,86,49,32,23,33,,95,90,26,12,10,10,0.5,0.5
2024-05-11T2100,2644A,109.0072,32.6975,安康市,汉滨区检察院,颗粒物(PM10),57,63,43,22,22,44,,89,88,12,11,7,9,0.4,0.5
2024-05-11T2100,2291A,117.0809,30.5177,安庆市,环科院,,28,23,41,19,32,70,,68,68,26,23,7,8,0.7,0.7
2024-05-11T2100,2292A,117.0331,30.5119,安庆市,马山宾馆,,35,,40,24,35,78,,64,64,17,29,6,8,0.7,0.7
2024-05-11T2100,2294A,116.9896,30.6145,安庆市,安庆大学,,25,20,39,17,31,69,,84,74,12,16,6,8,0.5,0.6
2024-05-11T2100,3173A,117.0598,30.5351,安庆市,市人大,,29,23,38,20,30,82,,71,71,9,13,4,7,0.7,0.7
2024-05-11T2100,3123A,105.9408,26.2431,安顺市,凤凰山,,26,14,18,11,13,82,,101,94,7,6,9,8,0.2,0.3
2024-05-11T2100,3124A,105.9439,26.2564,安顺市,金钟山,,24,10,17,8,13,76,,96,88,8,6,5,5,0.1,0.2
2024-05-11T2100,3125A,105.8983,26.2481,安顺市,娄家坡,,26,26,30,11,16,75,,97,90,9,5,7,7,0.4,0.4
2024-05-11T2100,1819A,114.3551,36.1017,安阳市,红庙街,颗粒物(PM10),145,240,257,61,56,99,,120,118,11,6,6,5,0.6,0.5
2024-05-11T2100,1820A,114.361,36.0681,安阳市,银杏小区,颗粒物(PM10),145,240,276,90,76,94,,116,115,9,3,9,7,0.3,0.3
2024-05-11T2100,3141A,114.3922,36.0878,安阳市,信访局,颗粒物(PM10),150,249,261,66,69,92,,117,115,14,7,5,3,0.4,0.5
2024-05-11T2100,3669A,114.4705,36.0637,安阳市,左辅环卫站,颗粒物(PM10),122,194,247,52,55,80,,114,109,16,7,8,7,0.5,0.5
2024-05-11T2100,3703A,114.2917,36.0949,安阳市,安钢职工学校,颗粒物(PM10),177,304,303,72,65,90,,118,114,17,12,6,8,0.4,0.7
2024-05-11T2100,1748A,123.044,41.1196,鞍山市,深沟寺,颗粒物(PM10),94,138,109,32,28,53,,95,80,30,10,20,8,2.5,0.7
2024-05-11T2100,1749A,123.011,41.0931,鞍山市,太阳城,颗粒物(PM10),79,108,92,18,20,70,,98,86,16,14,8,7,0.6,0.8
2024-05-11T2100,1750A,123.0485,41.1442,鞍山市,太平,颗粒物(PM10),85,120,116,40,30,68,,93,83,17,13,8,6,0.4,0.5
2024-05-11T2100,1751A,122.9642,41.0971,鞍山市,铁西三道街,颗粒物(PM10),83,115,119,23,30,61,,98,84,21,17,3,4,0.5,0.5
2024-05-11T2100,1752A,122.9341,41.0833,鞍山市,铁西工业园区,颗粒物(PM10),77,104,112,21,26,58,,100,85,23,12,10,6,0.3,0.5
2024-05-11T2100,1753A,123.022,41.0821,鞍山市,明达新区,颗粒物(PM10),80,109,90,17,22,66,,90,82,15,13,9,9,0.5,0.7
2024-05-11T2100,2195A,107.4212,40.761,巴彦淖尔市,附二中,颗粒物(PM10),58,65,60,26,29,96,,121,118,11,17,1,4,0.3,0.3
2024-05-11T2100,2196A,107.37,40.7372,巴彦淖尔市,市环保大楼,颗粒物(PM10),52,54,72,14,20,102,,120,118,10,14,2,3,0.4,0.4
2024-05-11T2100,1956A,86.1472,41.7538,巴音郭楞蒙古自治州,孔雀公园,,,,87,,24,108,,127,125,17,42,7,6,0.3,0.4
2024-05-11T2100,1957A,86.1972,41.7166,巴音郭楞蒙古自治州,棉纺厂,颗粒物(PM10),55,59,97,24,25,118,,126,126,13,36,3,3,0.3,0.3
2024-05-11T2100,1958A,86.2357,41.7173,巴音郭楞蒙古自治州,经济开发区,颗粒物(PM10),59,68,86,23,28,136,,135,135,6,14,7,7,0.2,0.2
2024-05-11T2100,2914A,106.7677,31.8794,巴中市,苏山坪,颗粒物(PM10),106,162,68,60,28,50,,81,70,31,11,6,4,0.6,0.4
2024-05-11T2100,3182A,106.7656,31.8545,巴中市,丽阳花园,颗粒物(PM10),118,185,67,84,37,18,,72,59,42,23,6,5,0.8,0.6
2024-05-11T2100,3183A,106.7418,31.8654,巴中市,圣泉水务公司,颗粒物(PM10),90,129,60,56,29,6,,67,56,52,26,5,4,0.7,0.6
2024-05-11T2100,3616A,106.7616,31.8344,巴中市,市中心医院,颗粒物(PM10),89,127,66,57,37,12,,70,57,44,21,5,5,0.6,0.6
2024-05-11T2100,2235A,122.7911,45.6077,白城市,洮北区环保局,,24,9,12,6,9,75,,80,78,2,3,6,5,0.3,0.3
2024-05-11T2100,2236A,122.8738,45.5725,白城市,市环保局,,33,33,31,7,6,78,,82,81,9,8,4,4,0.3,0.2
2024-05-11T2100,2231A,126.4219,41.9171,白山市,喜丰,颗粒物(PM10),89,128,48,29,13,90,,108,91,11,6,12,10,1.2,1.1
2024-05-11T2100,2232A,126.4077,41.9419,白山市,环保局,颗粒物(PM10),91,131,53,45,21,95,,109,90,11,7,9,9,0.8,0.8
2024-05-11T2100,2647A,104.1724,36.5446,白银市,第三小学,颗粒物(PM10),60,70,49,24,23,90,,126,123,38,14,12,16,0.7,0.9
2024-05-11T2100,2648A,104.1465,36.5482,白银市,动力公司,颗粒物(PM10),58,66,49,19,20,113,,128,128,18,12,15,16,0.4,0.8
2024-05-11T2100,2512A,106.6103,23.9011,百色市,市监测站,,25,25,39,15,21,77,,91,84,6,11,4,8,0.6,0.7
2024-05-11T2100,2513A,106.6538,23.8859,百色市,市中心血站,,46,46,46,21,22,60,,79,74,13,18,4,7,0.6,0.7
2024-05-11T2100,3406A,106.6085,23.8798,百色市,祈福高中,,27,23,43,14,19,85,,86,84,5,13,6,12,0.5,1
2024-05-11T2100,2270A,117.396,32.939,蚌埠市,工人疗养院,颗粒物(PM10),153,256,85,68,41,77,,88,84,18,13,6,7,0.4,0.5
2024-05-11T2100,2271A,117.3605,32.9427,蚌埠市,百货大楼,颗粒物(PM10),158,266,90,63,44,75,,86,82,23,14,3,5,0.5,0.6
2024-05-11T2100,2273A,117.4185,32.8911,蚌埠市,蚌埠学院,颗粒物(PM10),159,268,83,69,47,62,,75,74,24,15,6,9,0.5,0.7
2024-05-11T2100,2274A,117.3533,32.9673,蚌埠市,淮上区政府,颗粒物(PM10),157,263,80,67,47,85,,85,83,7,10,5,6,0.4,0.5
2024-05-11T2100,2275A,117.3145,32.8977,蚌埠市,高新区,颗粒物(PM10),155,259,82,69,47,65,,83,83,29,13,7,7,0.5,0.6
2024-05-11T2100,3715A,117.3092,32.9314,蚌埠市,蚌埠田家炳中学,颗粒物(PM10),152,254,86,70,47,87,,84,84,7,9,5,7,0.4,0.5
2024-05-11T2100,1585A,109.8756,40.6532,包头市,市环境监测站,,32,18,63,11,13,102,,110,109,10,15,8,9,0.2,0.3
2024-05-11T2100,1587A,109.9991,40.5842,包头市,包头八中,,35,35,77,16,30,109,,124,122,14,22,7,10,0.3,0.4
2024-05-11T2100,1588A,109.8538,40.6821,包头市,青山宾馆,,33,29,55,6,17,105,,109,109,5,12,9,10,0.3,0.3
2024-05-11T2100,1589A,109.8642,40.6288,包头市,惠龙物流,,33,23,69,8,20,104,,112,111,10,22,9,17,0.1,0.6
2024-05-11T2100,1590A,110.0377,40.5546,包头市,东河鸿龙湾,,30,22,66,2,17,96,,109,107,13,22,6,9,0.5,0.6
2024-05-11T2100,3283A,109.9154,40.5685,包头市,滨河大厦,,34,10,62,4,21,107,,111,111,4,19,7,16,0.3,0.6
2024-05-11T2100,3419A,109.9447,40.6261,包头市,包头市委党校,,31,22,65,12,15,98,,110,108,13,15,9,11,0.2,0.3
2024-05-11T2100,3683A,109.8331,40.6576,包头市,昆区政府,,33,22,62,4,23,105,,110,110,9,18,7,12,0.2,0.5
2024-05-11T2100,1930A,107.185,34.3063,宝鸡市,庙沟村,颗粒物(PM10),51,52,106,15,27,100,,114,113,7,8,8,9,0.4,0.4
2024-05-11T2100,1931A,107.0708,34.3017,宝鸡市,竹园沟,颗粒物(PM10),52,53,92,15,26,75,,126,117,22,14,5,5,0.5,0.4
2024-05-11T2100,1932A,107.1906,34.3672,宝鸡市,三陆医院,颗粒物(PM10),53,56,87,17,24,63,,128,118,44,23,5,6,0.5,0.4
2024-05-11T2100,1933A,107.1431,34.3547,宝鸡市,监测站,颗粒物(PM10),61,72,88,26,28,66,,123,114,37,19,7,8,0.4,0.4
2024-05-11T2100,1934A,107.1186,34.3739,宝鸡市,技工学校,颗粒物(PM10),57,63,87,26,29,75,,130,122,26,16,9,7,0.4,0.3
2024-05-11T2100,1935A,107.3906,34.3528,宝鸡市,陈仓区环保局家属楼,颗粒物(PM10),63,75,99,21,29,82,,136,127,16,12,4,4,0.2,0.2
2024-05-11T2100,1936A,107.2058,34.3497,宝鸡市,文理学院,颗粒物(PM10),60,69,89,12,26,60,,136,123,45,17,6,6,0.3,0.3
2024-05-11T2100,1937A,107.2386,34.3622,宝鸡市,三迪小学,颗粒物(PM10),63,76,86,35,28,69,,129,119,48,19,5,7,0.3,0.3
2024-05-11T2100,1051A,115.493,38.8632,保定市,游泳馆,颗粒物(PM10),83,115,279,12,37,84,,118,113,19,4,1,2,0.2,0.2
2024-05-11T2100,1052A,115.5213,38.8959,保定市,华电二区,细颗粒物(PM2.5),129,,166,98,46,92,,115,111,22,8,3,3,0.1,0.1
2024-05-11T2100,1053A,115.4713,38.9108,保定市,接待中心,颗粒物(PM10),53,56,161,14,34,96,,113,110,17,5,2,2,0.1,0.1
2024-05-11T2100,1054A,115.4612,38.8416,保定市,地表水厂,颗粒物(PM10),73,95,204,27,58,77,,111,105,31,11,7,2,0.1,0
2024-05-11T2100,3581A,115.31981,38.95208,保定市,满城区生态环境分局,颗粒物(PM10),59,68,196,19,38,83,,116,111,22,7,1,2,0.3,0.2
2024-05-11T2100,3582A,115.47694,38.76408,保定市,清苑区第二中学,颗粒物(PM10),78,106,257,22,33,72,,118,108,37,11,4,4,0.3,0.2
2024-05-11T2100,3583A,115.62909,39.02311,保定市,徐水物探局,颗粒物(PM10),70,90,234,14,28,93,,115,110,20,5,3,3,0.2,0.2
2024-05-11T2100,4004A,115.4202,38.8656,保定市,双鹰农机,颗粒物(PM10),65,80,195,26,42,92,,123,118,27,8,3,3,0.1,0
2024-05-11T2100,4034A,115.5150,38.8590,保定市,植保所站,颗粒物(PM10),81,111,200,37,49,90,,124,118,28,6,2,3,0.3,0.2
2024-05-11T2100,2594A,99.1678,25.1081,保山市,市环境监测站,,38,38,34,18,17,95,,112,111,7,8,8,8,0.5,0.9
2024-05-11T2100,2595A,99.1711,25.1328,保山市,市环保局,,40,40,41,16,15,112,,122,122,4,5,7,7,0.5,0.5
2024-05-11T2100,1867A,109.1436,21.4086,北海市,海滩公园,,28,20,34,7,10,87,,94,94,4,4,6,6,0.5,0.5
2024-05-11T2100,1868A,109.0981,21.4661,北海市,新市环保局,,21,21,30,12,11,63,,87,82,8,5,5,5,0.6,0.6
2024-05-11T2100,1869A,109.1778,21.5233,北海市,北海工业园,,36,36,36,20,14,79,,85,78,8,5,6,6,0.5,0.5
2024-05-11T2100,3400A,109.1911,21.4415,北海市,龙潭自来水厂,,26,21,31,17,18,82,,87,87,4,3,5,5,0.6,0.7
2024-05-11T2100,1001A,116.3621,39.8784,北京市,万寿西宫,,40,40,171,8,33,97,,103,103,9,7,3,3,0.2,0.1
2024-05-11T2100,1003A,116.4174,39.9289,北京市,东四,颗粒物(PM10),51,51,247,11,45,86,,92,92,12,8,3,2,0.5,0.4
2024-05-11T2100,1004A,116.4072,39.8863,北京市,天坛,,35,35,176,8,34,90,,100,99,12,8,1,1,0.2,0.1
2024-05-11T2100,1005A,116.462,39.9365,北京市,农展馆,,43,43,235,9,57,83,,92,91,17,9,2,2,0.2,0.2
2024-05-11T2100,1006A,116.3392,39.9295,北京市,官园,,46,46,190,8,34,96,,107,106,14,10,2,2,0.1,0
2024-05-11T2100,1007A,116.2878,39.9611,北京市,海淀万柳,,37,37,170,9,34,92,,101,101,11,20,4,4,0.2,0.2
2024-05-11T2100,1008A,116.6636,40.135,北京市,顺义新城,颗粒物(PM10),62,74,318,13,69,87,,98,96,9,13,3,3,0.1,0.1
2024-05-11T2100,1009A,116.6275,40.3275,北京市,怀柔镇,颗粒物(PM10),65,80,279,22,60,91,,96,95,5,5,3,3,0.2,0.3
2024-05-11T2100,1010A,116.2296,40.217,北京市,昌平镇,颗粒物(PM10),56,61,198,15,32,76,,84,83,11,15,3,3,0.0,0.1
2024-05-11T2100,1011A,116.3966,39.9821,北京市,奥体中心,,43,43,221,10,64,77,,86,85,13,13,2,3,0.2,0.2
2024-05-11T2100,1012A,116.184,39.9136,北京市,古城,,34,34,177,8,29,93,,98,98,12,9,1,2,0,0
2024-05-11T2100,3281A,115.9718,40.4529,北京市,延庆夏都,颗粒物(PM10),58,66,222,20,61,93,,102,101,6,5,3,3,0.1,0.1
2024-05-11T2100,3417A,117.0709,40.1465,北京市,平谷新城,颗粒物(PM10),75,99,292,17,68,78,,93,91,7,5,3,3,0.2,0.1
2024-05-11T2100,3418A,116.8336,40.4095,北京市,密云新城,颗粒物(PM10),71,91,291,24,66,77,,93,90,8,5,3,3,0.3,0.2
2024-05-11T2100,3672A,116.1541,39.8204,北京市,丰台云岗,,35,35,175,8,32,80,,93,91,14,5,3,3,0.1,0.2
2024-05-11T2100,3673A,116.6804,39.9081,北京市,通州东关,颗粒物(PM10),73,96,314,17,69,64,,93,88,22,7,3,3,0.3,0.2
2024-05-11T2100,3674A,115.9577,39.7603,北京市,房山燕山,,38,38,176,8,35,81,,87,86,8,5,3,3,0.2,0.2
2024-05-11T2100,3675A,116.4672,39.7733,北京市,大兴旧宫,,38,38,185,6,33,91,,101,100,12,8,3,3,0.2,0.1
2024-05-11T2100,3694A,115.986,40.4563,北京市,延庆石河营,颗粒物(PM10),54,57,203,12,48,100,,109,108,6,3,3,3,0.2,0.1
2024-05-11T2100,3695A,116.6151,40.3053,北京市,怀柔新城,颗粒物(PM10),60,70,277,16,57,92,,96,95,2,2,3,3,0.1,0.1
2024-05-11T2100,3696A,116.2545,39.8768,北京市,丰台小屯,,39,39,184,8,32,90,,97,96,8,6,3,3,0.2,0.2
2024-05-11T2100,3697A,116.84,40.3844,北京市,密云镇,颗粒物(PM10),68,86,272,21,70,73,,90,87,10,6,3,3,0.1,0.1
2024-05-11T2100,1761A,123.8275,41.3064,本溪市,大峪,颗粒物(PM10),97,144,117,20,24,76,,102,93,11,10,12,11,0.5,0.7
2024-05-11T2100,1762A,123.7567,41.3325,本溪市,溪湖,颗粒物(PM10),93,135,118,13,23,74,,101,93,10,15,9,10,0.3,0.9
2024-05-11T2100,1763A,123.7169,41.3094,本溪市,彩屯,颗粒物(PM10),71,91,99,18,25,72,,98,89,14,18,12,10,0.5,1.2
2024-05-11T2100,1764A,123.7669,41.2864,本溪市,东明,颗粒物(PM10),98,145,148,29,24,65,,88,81,19,17,15,14,0.8,1
2024-05-11T2100,1765A,123.7992,41.2664,本溪市,新立屯,颗粒物(PM10),88,126,117,29,36,70,,100,90,17,12,18,12,1.0,0.6
2024-05-11T2100,1766A,123.8142,41.3472,本溪市,威宁,颗粒物(PM10),109,168,135,28,35,70,,93,85,12,16,7,7,0.4,0.5
2024-05-11T2100,2587A,105.2864,27.3125,毕节市,八中,,29,13,22,8,19,90,,92,91,7,6,4,4,0.4,0.5
2024-05-11T2100,2588A,105.31,27.2944,毕节市,师专,,27,11,24,8,20,84,,88,86,8,7,6,6,0.4,0.5
2024-05-11T2100,3537A,105.3631,27.3533,毕节市,长征村,,31,10,35,7,27,97,,98,95,6,6,6,6,0.4,0.5
2024-05-11T2100,1629A,118.0018,37.3617,滨州市,第二水厂,颗粒物(PM10),87,124,376,34,85,93,,118,117,34,15,12,7,0.4,0.5
2024-05-11T2100,1630A,117.9776,37.393,滨州市,北中新校,颗粒物(PM10),69,88,372,24,106,75,,102,100,36,17,12,11,0.7,0.6
2024-05-11T2100,3514A,117.9378,37.3956,滨州市,中海酒店,颗粒物(PM10),56,61,310,27,87,103,,117,116,23,11,12,10,0.1,0.5
2024-05-11T2100,3515A,117.9378,37.3553,滨州市,开发区一中,颗粒物(PM10),73,95,424,24,88,85,,112,110,32,10,12,12,0.7,0.6
2024-05-11T2100,3516A,118.0917,37.694,滨州市,金海六路,颗粒物(PM10),72,93,403,14,79,74,,123,120,40,12,9,8,0.5,0.4
2024-05-11T2100,4028A,117.9956,37.3753,滨州市,滨州市西街道办事处,颗粒物(PM10),74,97,396,22,102,95,,112,112,28,14,14,9,0.6,0.6
2024-05-11T2100,2311A,115.8072,33.8399,亳州市,污水处理厂,颗粒物(PM10),155,259,189,60,45,90,,119,117,12,5,10,10,0.2,0.3
2024-05-11T2100,2312A,115.7789,33.8518,亳州市,三国揽胜宫,颗粒物(PM10),154,257,187,62,48,97,,118,117,9,5,10,10,0.3,0.5
2024-05-11T2100,3332A,115.7633,33.8034,亳州市,亳州学院,颗粒物(PM10),152,254,194,54,42,105,,124,123,8,6,10,10,0.3,0.5
2024-05-11T2100,2693A,82.0485,44.8556,博尔塔拉蒙古自治州,市党校,颗粒物(PM10),53,56,40,19,11,101,,138,133,8,8,13,12,0.0,0.3
2024-05-11T2100,2694A,82.0806,44.8969,博尔塔拉蒙古自治州,市环保局,颗粒物(PM10),62,74,53,14,16,106,,136,132,10,18,9,10,0.3,0.4
2024-05-11T2100,1071A,116.8842,38.2991,沧州市,沧县城建局,颗粒物(PM10),76,101,339,31,82,90,,117,116,32,14,1,2,0.3,0.3
2024-05-11T2100,1072A,116.8584,38.3254,沧州市,电视转播站,颗粒物(PM10),77,104,281,19,55,62,,114,109,46,12,5,4,0.2,0.2
2024-05-11T2100,1073A,116.8709,38.3228,沧州市,市环保局,"颗粒物(PM10),细颗粒物(PM2.5)",72,93,296,52,97,85,,120,116,38,16,5,3,0.6,0.3
2024-05-11T2100,3324A,116.8136,38.3004,沧州市,河北水利电力学院,颗粒物(PM10),59,68,328,29,82,91,,117,113,31,15,4,4,0.2,0.1
2024-05-11T2100,2622A,97.1806,31.1273,昌都市,昌都监测站,,,,14,14,11,121,,122,122,7,6,,9,0.3,0.3
2024-05-11T2100,3719A,97.1714,31.1406,昌都市,昌都会议中心,,36,14,20,10,14,115,,127,125,7,7,6,6,0.4,0.4
2024-05-11T2100,2690A,88.1236,43.8886,昌吉回族自治州,天山天池,,34,34,9,5,3,96,,149,146,8,6,7,6,0.5,0.4
2024-05-11T2100,2692A,87.2717,44.0297,昌吉回族自治州,新区政务中心,,,34,42,,25,131,,151,150,17,22,9,11,0.4,0.5
2024-05-11T2100,3613A,87.3095,44.0142,昌吉回族自治州,亚心广场,,48,48,51,12,11,118,,160,156,38,27,5,8,0.5,0.4
2024-05-11T2100,1119A,125.3325,43.9166,长春市,食品厂,,20,14,81,10,13,62,,85,68,20,14,6,6,0.3,0.3
2024-05-11T2100,1120A,125.2863,43.9027,长春市,客车厂,,20,15,89,9,16,62,,82,67,16,11,4,4,0.3,0.3
2024-05-11T2100,1121A,125.2841,43.8463,长春市,邮电学院,,22,18,98,11,14,70,,82,71,12,11,7,7,0.3,0.3
2024-05-11T2100,1122A,125.3716,43.8772,长春市,劳动公园,,24,18,82,7,18,74,,91,78,11,10,4,4,0.2,0.3
2024-05-11T2100,1123A,125.3297,43.8805,长春市,园林处,,21,13,73,0,7,66,,84,72,16,11,4,4,0.2,0.2
2024-05-11T2100,1124A,125.4605,43.79,长春市,净月潭,,24,17,76,5,9,74,,88,75,7,6,7,7,0.2,0.2
2024-05-11T2100,1126A,125.3863,43.8447,长春市,经开区环卫处,,25,9,73,8,11,77,,87,77,9,9,5,5,0.3,0.3
2024-05-11T2100,1127A,125.245,43.7783,长春市,高新区管委会,,21,13,76,6,12,66,,84,73,13,8,6,6,0.4,0.4
2024-05-11T2100,1128A,125.1761,43.8325,长春市,岱山公园,,21,,85,12,17,66,,81,70,15,11,5,5,0.4,0.3
2024-05-11T2100,1335A,113.0833,28.2325,长沙市,经开区环保局,细颗粒物(PM2.5),93,79,51,69,38,46,,61,53,24,18,7,9,0.8,0.7
2024-05-11T2100,1336A,112.8872,28.2189,长沙市,高开区环保局,细颗粒物(PM2.5),63,70,52,45,38,77,,75,75,15,16,4,7,0.7,0.7
2024-05-11T2100,1337A,113.0792,28.2053,长沙市,马坡岭,细颗粒物(PM2.5),117,,52,88,47,32,,58,44,31,18,6,8,0.8,0.7
2024-05-11T2100,1338A,112.9394,28.19,长沙市,湖南师范大学,细颗粒物(PM2.5),88,74,56,65,41,85,,73,73,6,14,3,4,0.6,0.6
2024-05-11T2100,1339A,113.0178,28.1322,长沙市,雨花区环保局,细颗粒物(PM2.5),77,76,46,56,31,61,,70,64,16,13,5,6,0.8,0.7
2024-05-11T2100,1340A,112.9792,28.2597,长沙市,伍家岭,细颗粒物(PM2.5),84,82,55,62,39,57,,56,54,19,22,5,6,0.6,0.6
2024-05-11T2100,1341A,113.0014,28.1944,长沙市,火车新站,细颗粒物(PM2.5),85,75,51,63,37,76,,69,67,15,23,3,4,0.9,0.9
2024-05-11T2100,1342A,112.9844,28.1178,长沙市,天心区环保局,细颗粒物(PM2.5),83,61,47,61,36,62,,66,60,28,27,2,4,0.5,0.5
2024-05-11T2100,1343A,112.8908,28.1308,长沙市,湖南中医药大学,细颗粒物(PM2.5),79,75,50,58,40,70,,66,66,17,21,7,8,0.8,0.8
2024-05-11T2100,1344A,112.9581,28.3611,长沙市,沙坪,颗粒物(PM10),76,102,74,41,32,72,,75,71,10,11,7,27,0.6,0.6
2024-05-11T2100,1727A,113.1147,36.1547,长治市,清华站,颗粒物(PM10),52,54,116,12,20,105,,129,128,19,14,11,10,0.4,0.3
2024-05-11T2100,1728A,113.1031,36.1989,长治市,监测站,颗粒物(PM10),56,61,105,17,23,100,,130,128,26,20,16,15,0.7,0.7
2024-05-11T2100,1730A,113.0886,36.2125,长治市,审计局,,48,48,90,17,23,96,,126,124,25,17,19,14,0.4,0.3
2024-05-11T2100,1731A,113.0844,36.1856,长治市,长治八中,颗粒物(PM10),59,67,133,11,27,102,,130,128,27,19,12,9,0.5,0.4
2024-05-11T2100,2845A,113.1569,36.1911,长治市,德盛苑,颗粒物(PM10),52,53,97,9,22,102,,130,127,15,12,11,8,0.4,0.5
2024-05-11T2100,3568A,113.06,36.0464,长治市,向阳小学,颗粒物(PM10),74,98,134,32,30,108,,136,134,29,18,17,14,0.5,0.5
2024-05-11T2100,3569A,112.8792,36.3144,长治市,屯留一中,颗粒物(PM10),51,52,98,13,19,115,,132,130,15,11,8,11,0.7,0.6
2024-05-11T2100,3570A,113.235,36.3489,长治市,潞城四中,颗粒物(PM10),55,60,120,19,27,94,,134,130,22,17,8,7,0.2,0.3
2024-05-11T2100,1854A,111.6975,28.9703,常德市,市二中,颗粒物(PM10),61,72,52,32,38,105,,118,117,10,16,8,9,0.5,0.6
2024-05-11T2100,3138A,111.7153,29.0289,常德市,武陵区永安,颗粒物(PM10),64,77,52,29,39,108,,117,117,6,10,8,9,0.4,0.5
2024-05-11T2100,3139A,111.6892,28.9881,常德市,鼎城区玉霞,颗粒物(PM10),63,76,56,35,37,108,,119,119,7,14,6,8,0.4,0.6
2024-05-11T2100,3140A,111.6625,29.0531,常德市,武陵区长庚,颗粒物(PM10),61,71,51,26,36,110,,115,115,6,11,8,9,0.5,0.6
2024-05-11T2100,1196A,119.9633,31.762,常州市,市监测站,,42,42,65,26,32,75,,98,89,13,25,8,9,0.8,0.7
2024-05-11T2100,1200A,119.9468,31.7069,常州市,武进监测站,,36,30,48,25,28,68,,102,89,19,20,7,10,0.7,0.6
2024-05-11T2100,1201A,119.9255,31.9087,常州市,安家,颗粒物(PM10),69,87,66,34,32,80,,85,84,14,25,6,10,0.7,0.8
2024-05-11T2100,3002A,119.9805,31.8174,常州市,行政中心,,36,36,58,22,28,78,,88,85,8,18,9,11,0.4,0.4
2024-05-11T2100,3003A,120.0522,31.7748,常州市,经开区,,39,39,54,19,31,73,,87,82,14,28,7,8,0.5,0.7
2024-05-11T2100,3010A,119.9025,31.7964,常州市,钟楼,,44,44,52,28,30,66,,74,71,14,26,7,8,0.8,0.8
2024-05-11T2100,3429A,119.8598,31.7066,常州市,武进经发区,,43,43,55,26,30,70,,100,89,14,19,3,4,0.8,0.7
2024-05-11T2100,3430A,119.5826,31.7245,常州市,金坛城区,,48,43,37,33,20,68,,103,91,15,17,6,7,0.8,0.8
2024-05-11T2100,2220A,120.4318,41.5881,朝阳市,西梁,,25,16,84,12,25,78,,87,86,8,6,9,9,0.3,0.3
2024-05-11T2100,2221A,120.4521,41.5646,朝阳市,河畔小区,,26,21,152,12,26,82,,90,89,10,9,7,8,0.3,0.3
2024-05-11T2100,2222A,120.4176,41.5648,朝阳市,八里堡,,45,35,152,31,22,75,,88,86,12,9,8,8,0.5,0.5
2024-05-11T2100,2223A,120.3806,41.5969,朝阳市,农业园区,细颗粒物(PM2.5),63,,91,45,37,80,,96,94,11,6,7,7,0.3,0.3
2024-05-11T2100,1705A,116.6367,23.6719,潮州市,西园路,颗粒物(PM10),62,74,45,32,26,58,,134,119,25,16,9,7,0.5,0.3
2024-05-11T2100,3026A,116.6183,23.6608,潮州市,市政府,颗粒物(PM10),64,78,56,37,25,62,,141,125,25,18,9,9,0.9,0.7
2024-05-11T2100,4036A,116.6461,23.6761,潮州市,金山,颗粒物(PM10),56,61,46,31,26,57,,133,119,26,16,11,9,0.7,0.6
2024-05-11T2100,2472A,113.0073,25.9061,郴州市,马头岭,,22,14,38,2,10,68,,98,78,13,9,3,3,0.7,0.7
2024-05-11T2100,2473A,113.0116,25.8226,郴州市,市职中,,26,13,23,5,16,83,,120,92,6,5,4,5,0.5,0.5
2024-05-11T2100,2474A,113.0161,25.8001,郴州市,兴隆步行街,,28,10,29,8,17,88,,117,92,6,7,5,5,0.5,0.5
2024-05-11T2100,2475A,113.0383,25.8071,郴州市,市审计局,,26,15,24,6,13,83,,114,90,6,7,3,4,0.4,0.5
2024-05-11T2100,2476A,113.0348,25.7759,郴州市,市环保局,,25,23,29,5,17,78,,114,89,8,6,3,4,0.6,0.6
2024-05-11T2100,1431A,103.9728,30.7236,成都市,金泉两河,颗粒物(PM10),58,66,60,20,30,63,,81,80,16,13,1,2,0.5,0.4
2024-05-11T2100,1432A,104.176,30.6872,成都市,十里店,颗粒物(PM10),67,84,68,34,41,60,,91,88,43,31,5,5,0.8,0.8
2024-05-11T2100,1433A,104.079,30.5706,成都市,三瓦窑,细颗粒物(PM2.5),73,80,67,53,44,46,,77,74,49,34,3,2,0.5,0.5
2024-05-11T2100,1434A,104.1114,30.63,成都市,沙河铺,颗粒物(PM10),68,85,63,31,37,39,,72,69,47,29,5,4,0.5,0.5
2024-05-11T2100,1437A,104.0786,30.6531,成都市,君平街,颗粒物(PM10),66,82,62,29,36,47,,85,80,44,26,4,4,0.6,0.7
2024-05-11T2100,2880A,104.0239,30.65639,成都市,大石西路,颗粒物(PM10),67,84,57,36,33,48,,87,83,46,28,3,3,0.5,0.5
2024-05-11T2100,3136A,104.2725,30.5589,成都市,龙泉驿区区政府,颗粒物(PM10),53,56,56,19,38,76,,86,86,19,22,3,3,0.4,0.6
2024-05-11T2100,3357A,104.0106,30.6931,成都市,金博路,颗粒物(PM10),57,64,57,32,32,58,,83,81,25,18,3,2,0.5,0.5
2024-05-11T2100,3359A,104.0578,30.5225,成都市,华阳,颗粒物(PM10),57,63,57,31,40,70,,85,85,21,24,2,2,0.4,0.4
2024-05-11T2100,3487A,104.2394,30.5319,成都市,车城东七路,,50,50,64,20,47,71,,90,90,20,24,3,3,0.5,0.6
2024-05-11T2100,3488A,104.3853,30.7453,成都市,青白江技师分院,颗粒物(PM10),63,76,68,22,46,66,,85,84,37,32,5,3,0.6,0.6
2024-05-11T2100,3489A,104.0789,30.4072,成都市,科学城,,40,40,55,18,34,51,,83,82,25,25,2,2,0.6,0.7
2024-05-11T2100,4011A,103.8506,30.6947,成都市,光华大道三段,颗粒物(PM10),62,74,54,29,31,69,,80,80,22,17,3,2,0.4,0.5
2024-05-11T2100,1062A,117.9531,40.9081,承德市,铁路,,33,33,355,6,74,87,,96,95,6,4,6,7,0.2,0.1
2024-05-11T2100,1063A,117.9392,40.9763,承德市,中国银行,,44,44,345,10,67,68,,94,90,26,6,8,8,0.2,0.2
2024-05-11T2100,1064A,117.9503,40.928,承德市,开发区,,28,24,305,14,54,87,,96,95,7,6,5,5,0.2,0.2
2024-05-11T2100,1065A,117.8051,40.9655,承德市,文化中心,,44,44,385,10,65,78,,98,95,9,5,6,8,0.3,0.2
2024-05-11T2100,1066A,117.9268,41.0026,承德市,离宫,,37,37,273,19,53,78,,93,90,3,2,3,3,0.2,0.2
2024-05-11T2100,2314A,117.47,30.6618,池州市,池州学院,,26,22,40,16,30,83,,84,84,8,13,4,5,0.5,0.6
2024-05-11T2100,3237A,117.4918,30.6617,池州市,展览馆,,22,19,32,13,24,69,,72,72,8,11,3,4,0.6,0.6
2024-05-11T2100,3333A,117.5627,30.695,池州市,第八中学,,20,18,37,13,27,62,,76,74,17,10,3,4,0.6,0.7
2024-05-11T2100,3334A,117.5038,30.6243,池州市,第十二中学,,23,18,36,15,28,71,,76,76,18,16,4,4,0.6,0.7
2024-05-11T2100,1744A,118.9233,42.2816,赤峰市,松山一中,,32,28,121,22,16,86,,87,87,13,10,8,8,0.4,0.3
2024-05-11T2100,1745A,118.9576,42.2728,赤峰市,哈达街,,25,15,118,12,16,77,,74,74,17,16,8,9,0.3,0.3
2024-05-11T2100,1746A,118.8788,42.2554,赤峰市,天义路,,33,33,105,8,19,82,,84,83,22,17,5,5,0.3,0.2
2024-05-11T2100,3058A,119.2658,42.0353,赤峰市,银河街,,33,33,175,10,27,82,,86,86,13,10,10,10,0.3,0.2
2024-05-11T2100,3286A,118.9359,42.3147,赤峰市,桥北物流园区,,27,19,92,11,20,84,,82,82,15,8,8,7,0.4,0.4
2024-05-11T2100,2521A,107.3476,22.4136,崇左市,市环保局江州分局,,50,50,33,34,18,94,,92,92,5,8,10,8,0.6,0.6
2024-05-11T2100,2522A,107.3702,22.3707,崇左市,城南新区,,46,46,30,28,16,98,,93,93,7,9,7,6,0.7,0.6
2024-05-11T2100,2298A,118.3093,32.3153,滁州市,老年大学,,,98,39,44,25,,,106,72,9,7,8,7,0.5,0.6
2024-05-11T2100,2299A,118.3244,32.2786,滁州市,人大宾馆,颗粒物(PM10),65,80,32,35,34,83,,104,78,11,12,6,6,0.7,0.7
2024-05-11T2100,3207A,118.3118,32.3038,滁州市,市政府原办公楼,颗粒物(PM10),74,97,34,42,33,83,,105,74,11,9,7,6,0.6,0.6
2024-05-11T2100,3331A,118.3267,32.2634,滁州市,图书馆,颗粒物(PM10),73,96,45,34,32,87,,99,78,7,8,7,7,0.8,0.8
2024-05-11T2100,2605A,101.5482,25.0441,楚雄彝族自治州,州环境监测站,,31,20,19,14,14,97,,113,112,17,8,7,6,0.5,0.5
2024-05-11T2100,2606A,101.538,25.0492,楚雄彝族自治州,市经济开发区,,49,49,26,19,15,96,,109,108,18,12,6,5,0.5,0.5
2024-05-11T2100,2548A,107.5277,31.2827,达州市,达州职业技术学院,颗粒物(PM10),53,55,36,17,9,6,,24,14,30,27,9,8,0.9,0.7
2024-05-11T2100,2549A,107.5086,31.2186,达州市,市环境监测站,颗粒物(PM10),55,60,43,22,15,14,,25,16,40,33,10,8,0.8,0.8
2024-05-11T2100,2550A,107.4988,31.2132,达州市,凤凰小区,颗粒物(PM10),57,63,43,27,17,6,,28,19,45,30,12,10,1.0,0.9
2024-05-11T2100,2551A,107.5082,31.1986,达州市,达县机关宾馆,颗粒物(PM10),60,70,43,35,20,2,,26,12,41,32,6,6,1.0,0.5
2024-05-11T2100,2552A,107.4644,31.2124,达州市,市政中心,颗粒物(PM10),66,82,45,31,17,4,,28,15,47,33,12,11,1.8,0.9
2024-05-11T2100,2614A,100.1542,25.7054,大理白族自治州,大理市环境监测站,颗粒物(PM10),54,57,36,15,19,106,,116,114,31,14,6,6,0.5,0.5
2024-05-11T2100,2615A,100.2171,25.5811,大理白族自治州,大理古城,,30,23,29,16,20,93,,125,116,17,12,7,7,0.7,0.6
2024-05-11T2100,1109A,121.612,38.9741,大连市,甘井子,颗粒物(PM10),71,92,153,16,47,94,,106,105,20,18,8,9,0.4,0.5
2024-05-11T2100,1110A,121.565,38.9511,大连市,周水子,颗粒物(PM10),69,87,136,22,45,89,,103,100,24,19,7,8,0.5,0.5
2024-05-11T2100,1111A,121.5637,38.8845,大连市,星海三站,颗粒物(PM10),65,79,119,13,31,91,,104,101,14,12,5,5,0.6,0.6
2024-05-11T2100,1112A,121.6302,38.9117,大连市,青泥洼桥,颗粒物(PM10),60,69,129,19,34,83,,101,98,31,17,7,7,0.4,0.5
2024-05-11T2100,1113A,121.6251,38.8638,大连市,傅家庄,颗粒物(PM10),58,66,128,16,40,94,,107,100,15,10,6,6,0.4,0.5
2024-05-11T2100,1114A,121.5213,38.8661,大连市,七贤岭,颗粒物(PM10),64,77,125,9,39,105,,112,112,13,17,8,8,0.5,0.5
2024-05-11T2100,1115A,121.2529,38.8061,大连市,旅顺,颗粒物(PM10),61,71,138,11,44,97,,101,94,15,20,7,8,0.5,0.5
2024-05-11T2100,1116A,121.7485,39.1311,大连市,金州,颗粒物(PM10),83,115,162,33,54,76,,96,89,23,14,9,7,0.6,0.6
2024-05-11T2100,1117A,121.7811,39.0496,大连市,开发区,颗粒物(PM10),93,135,148,23,43,92,,96,94,21,19,4,6,0.5,0.5
2024-05-11T2100,1118A,121.9762,39.0631,大连市,双D港,颗粒物(PM10),68,86,135,22,35,90,,105,99,20,14,7,7,0.6,0.6
2024-05-11T2100,1789A,124.81117,46.03138,大庆市,大同区,,22,14,19,14,19,68,,86,72,3,5,7,7,0.3,0.4
2024-05-11T2100,1790A,125.129,46.533,大庆市,龙凤区,,29,,17,20,18,62,,76,66,12,9,5,6,0.1,0.3
2024-05-11T2100,1791A,124.902,46.408,大庆市,红岗区,,29,22,22,20,13,68,,71,71,4,6,7,6,0.2,0.4
2024-05-11T2100,1792A,125.153,46.586,大庆市,萨尔图区,,17,12,13,5,8,54,,73,61,16,9,7,8,0.0,0.1
2024-05-11T2100,1793A,124.9042,46.6215,大庆市,让胡路区,,23,,22,16,17,62,,68,,5,6,3,4,0.2,0.3
2024-05-11T2100,3481A,125.141,46.634,大庆市,萨区政府监测点,,26,26,18,8,7,58,,71,63,6,6,7,7,0.1,0.1
2024-05-11T2100,1723A,113.2994,40.0758,大同市,云冈宾馆,,34,27,135,14,37,107,,128,127,10,9,4,5,0.5,0.5
2024-05-11T2100,1724A,113.3444,40.0917,大同市,大同大学,,30,29,140,20,43,96,,123,121,9,5,11,11,0.4,0.3
2024-05-11T2100,1725A,113.2661,40.1269,大同市,安家小村,,31,25,146,10,36,99,,119,118,7,6,7,7,0.3,0.3
2024-05-11T2100,1726A,113.2711,40.0844,大同市,教育学院,,35,32,152,8,23,112,,130,129,9,9,5,6,0.3,0.3
2024-05-11T2100,3282A,113.3397,40.0597,大同市,大同市卫生学校,,33,19,137,6,25,105,,125,124,13,10,6,6,0.5,0.3
2024-05-11T2100,3565A,113.1367,40.1122,大同市,云冈站,,43,43,147,19,37,94,,124,122,17,8,26,8,0.3,0.2
2024-05-11T2100,3566A,113.1186,40.2556,大同市,图书馆,,30,25,130,11,23,94,,115,113,10,9,9,10,0.3,0.3
2024-05-11T2100,3567A,113.5931,40.0461,大同市,区一中,,32,21,179,7,49,102,,129,127,8,11,4,5,0.2,0.2
2024-05-11T2100,3676A,113.2802,40.0995,大同市,第二人民医院,,32,19,155,7,23,102,,124,123,9,7,7,8,0.3,0.3
2024-05-11T2100,2269A,124.1069,50.4097,大兴安岭地区,科技局,细颗粒物(PM2.5),62,60,36,44,23,65,,75,72,11,6,7,6,0.4,0.3
2024-05-11T2100,3663A,124.1164,50.4278,大兴安岭地区,红旗社区,细颗粒物(PM2.5),54,39,19,38,19,73,,83,79,7,5,5,5,0.5,0.3
2024-05-11T2100,1600A,124.3303,40.0625,丹东市,江湾东路,颗粒物(PM10),146,241,69,59,22,22,,104,89,61,14,10,7,0.8,0.4
2024-05-11T2100,1601A,124.4256,40.1503,丹东市,临江后街,颗粒物(PM10),106,161,59,49,15,92,,109,104,11,10,8,9,0.8,0.6
2024-05-11T2100,1602A,124.3933,40.1461,丹东市,元宝山,颗粒物(PM10),148,245,67,55,21,66,,100,91,22,11,11,9,1.3,0.6
2024-05-11T2100,1603A,124.3633,40.1092,丹东市,民主桥,颗粒物(PM10),143,236,64,68,18,59,,96,89,33,14,12,11,0.9,0.4
2024-05-11T2100,3541A,109.5726,19.5167,儋州市,第一中学子站,,25,25,26,10,13,59,,75,71,6,3,4,4,0.4,0.5
2024-05-11T2100,3542A,109.5567,19.5187,儋州市,东坡学校子站,,28,28,26,13,13,55,,78,72,5,4,5,5,0.5,0.5
2024-05-11T2100,2616A,98.5842,24.428,德宏傣族景颇族自治州,德宏州监测站,,46,46,28,32,23,92,,119,117,24,13,6,5,0.6,0.6
2024-05-11T2100,3677A,98.5881,24.4368,德宏傣族景颇族自治州,芒市人民政府综合楼,,44,44,34,18,18,94,,113,112,19,12,5,7,0.6,0.5
2024-05-11T2100,1901A,104.4239,31.1208,德阳市,东山公园,颗粒物(PM10),66,82,77,31,36,64,,89,86,28,23,3,4,0.4,0.6
2024-05-11T2100,1902A,104.3826,31.1317,德阳市,西小区,颗粒物(PM10),60,69,82,32,44,62,,78,77,27,35,1,2,0.5,0.7
2024-05-11T2100,1904A,104.3553,31.1091,德阳市,耐火材料厂,颗粒物(PM10),61,72,83,27,46,64,,82,81,23,32,5,4,0.5,0.6
2024-05-11T2100,3639A,104.4019,31.1244,德阳市,市教育局,颗粒物(PM10),59,67,80,29,41,56,,79,77,26,29,5,4,0.5,0.6
2024-05-11T2100,1622A,116.3032,37.4674,德州市,儿童乐园,,,,251,24,34,102,,127,126,26,13,6,7,0.5,0.5
2024-05-11T2100,1624A,116.2991,37.4451,德州市,监理站,颗粒物(PM10),76,102,239,19,40,101,,132,130,26,13,7,9,0.4,0.4
2024-05-11T2100,3066A,116.2721,37.4379,德州市,九衢泉纯净水厂,颗粒物(PM10),80,110,227,24,39,84,,128,124,41,19,5,5,0.3,0.3
2024-05-11T2100,3371A,116.3728,37.4403,德州市,开发区人民医院,颗粒物(PM10),73,95,268,22,42,74,,127,121,36,8,7,7,0.3,0.3
2024-05-11T2100,3372A,116.3572,37.4094,德州市,太阳城中学,颗粒物(PM10),75,100,284,27,52,58,,125,116,51,14,6,6,0.3,0.4
2024-05-11T2100,3511A,116.5652,37.3319,德州市,陵城艺术中心,颗粒物(PM10),74,97,297,14,52,88,,118,115,25,14,4,5,0.4,0.4
2024-05-11T2100,2621A,99.7056,27.8317,迪庆藏族自治州,迪庆州站,,38,26,22,10,14,120,,149,142,11,10,7,8,0.5,0.4
2024-05-11T2100,3180A,99.7136,27.8094,迪庆藏族自治州,质量技术监督局,,39,19,21,3,7,122,,146,139,9,10,7,7,0.6,0.6
2024-05-11T2100,2663A,104.6241,35.5734,定西市,东关小学,颗粒物(PM10),64,78,64,24,23,96,,134,130,22,13,5,4,0.3,0.2
2024-05-11T2100,2664A,104.6194,35.5934,定西市,供电公司,颗粒物(PM10),56,61,56,28,25,79,,128,123,33,18,4,5,0.2,0.2
2024-05-11T2100,1389A,113.7547,23.0494,东莞市,莞城梨川,,33,33,41,12,17,53,,143,110,20,17,8,8,0.7,0.7
2024-05-11T2100,1390A,113.7944,23.0128,东莞市,东城石井,,33,33,35,15,16,48,,146,112,20,17,6,7,0.7,0.7
2024-05-11T2100,1391A,113.7383,22.9658,东莞市,南城西平,,37,37,38,12,15,60,,130,103,15,20,4,5,0.7,0.7
2024-05-11T2100,3319A,113.7338,23.0381,东莞市,万江金泰,,40,40,37,14,15,48,,135,103,20,15,7,7,0.6,0.6
2024-05-11T2100,3626A,113.7533,23.0202,东莞市,南城元岭,,38,38,39,13,15,51,,142,106,17,15,8,8,0.7,0.7
2024-05-11T2100,3627A,113.7875,23.0457,东莞市,东城主山,,32,32,36,12,15,51,,150,114,17,15,8,8,0.5,0.6
2024-05-11T2100,1666A,118.6614,37.4309,东营市,市环保局,颗粒物(PM10),57,63,382,29,99,107,,126,126,28,14,7,8,0.2,0.1
2024-05-11T2100,3036A,118.6904,37.4338,东营市,开发区管委会,颗粒物(PM10),65,80,416,12,84,104,,125,125,20,11,3,4,0.3,0.3
2024-05-11T2100,3365A,118.5719,37.565,东营市,垦利区民丰路,细颗粒物(PM2.5),79,78,390,58,104,61,,119,114,58,16,9,9,0.5,0.4
2024-05-11T2100,3498A,118.5055,37.8612,东营市,河口城区,颗粒物(PM10),62,73,413,17,93,101,,124,123,16,9,5,5,0.1,0.2
2024-05-11T2100,3646A,118.4978,37.4623,东营市,胜利站,颗粒物(PM10),56,61,362,19,87,110,,126,126,21,13,9,11,0.3,0.3
2024-05-11T2100,3734A,118.35,37.26,东营市,理想之城,,,83,379,41,139,,,128,128,43,13,8,12,0.7,0.6
2024-05-11T2100,1591A,110.0023,39.8129,鄂尔多斯市,综合楼,颗粒物(PM10),56,61,90,9,22,86,,115,112,26,14,2,3,0.4,0.4
2024-05-11T2100,1592A,109.9486,39.8261,鄂尔多斯市,巴音孟克林场办事处,颗粒物(PM10),62,73,83,19,20,79,,111,107,29,14,6,6,0.5,0.5
2024-05-11T2100,1593A,109.7736,39.5986,鄂尔多斯市,康泽苑,,48,48,84,12,30,110,,120,120,12,8,4,4,0.3,0.3
2024-05-11T2100,1594A,109.8119,39.5989,鄂尔多斯市,华泰汽车城,,36,36,90,12,31,96,,113,111,19,10,4,4,0.3,0.3
2024-05-11T2100,1595A,109.9734,39.7884,鄂尔多斯市,奥林花园,颗粒物(PM10),64,78,83,41,24,85,,112,108,27,20,5,6,0.5,0.5
2024-05-11T2100,2436A,114.8938,30.3994,鄂州市,市政府,颗粒物(PM10),91,131,70,31,36,61,,71,66,14,17,8,10,0.6,1
2024-05-11T2100,2437A,114.8989,30.3714,鄂州市,赵家坝,颗粒物(PM10),75,100,63,36,38,66,,74,74,6,11,2,8,0.4,0.8
2024-05-11T2100,3654A,114.8094,30.4089,鄂州市,精准医疗中心,颗粒物(PM10),98,146,68,34,34,73,,75,75,9,16,7,8,0.4,1
2024-05-11T2100,2454A,109.4978,30.2981,恩施土家族苗族自治州,湖北民院,颗粒物(PM10),58,66,34,30,14,61,,100,96,26,15,8,8,0.6,0.6
2024-05-11T2100,2455A,109.4707,30.2798,恩施土家族苗族自治州,州电力总公司,颗粒物(PM10),57,64,31,28,19,65,,95,92,25,17,8,8,0.6,0.6
2024-05-11T2100,3549A,109.5061,30.3772,恩施土家族苗族自治州,龙凤新区,颗粒物(PM10),54,57,23,23,13,44,,94,87,21,11,7,7,0.6,0.6
2024-05-11T2100,2499A,108.3411,21.6158,防城港市,沙万,,25,25,36,17,17,46,,74,65,21,21,6,6,0.7,0.8
2024-05-11T2100,2500A,108.3514,21.7731,防城港市,防城档案局,,25,25,31,16,18,50,,70,62,10,11,6,6,0.6,0.6
2024-05-11T2100,2501A,108.3506,21.6414,防城港市,大海花园,,26,26,31,13,16,41,,71,58,23,16,6,6,0.5,0.6
2024-05-11T2100,1371A,113.1294,23.0067,佛山市,湾梁,,44,44,42,16,15,70,,138,126,16,23,9,9,0.3,0.3
2024-05-11T2100,1372A,113.1083,23.0478,佛山市,华材职中,,46,46,40,20,17,69,,141,128,20,23,2,2,0.5,0.5
2024-05-11T2100,1373A,113.144,23.0453,佛山市,南海气象局,,43,43,40,21,18,68,,138,125,18,23,9,8,0.7,0.6
2024-05-11T2100,1374A,113.2881,22.8094,佛山市,顺德苏岗,,41,41,37,19,16,60,,118,105,15,24,5,5,0.7,0.7
2024-05-11T2100,1376A,112.8383,22.8678,佛山市,高明孔堂,,45,45,35,20,18,72,,109,101,15,16,6,6,0.6,0.5
2024-05-11T2100,1377A,112.8836,23.1588,佛山市,三水监测站,,48,48,41,27,20,33,,136,118,49,38,7,6,0.7,0.6
2024-05-11T2100,1378A,112.867,23.185,佛山市,三水云东海,,34,34,37,21,20,55,,152,135,36,32,6,4,0.6,0.5
2024-05-11T2100,3625A,113.2544,22.7642,佛山市,容桂街道办,,34,34,36,12,13,58,,111,101,22,24,5,4,0.5,0.4
2024-05-11T2100,1282A,119.2681,26.0504,福州市,师大,颗粒物(PM10),59,67,47,38,20,123,,170,166,20,13,6,5,0.5,0.4
2024-05-11T2100,1283A,119.2984,26.1028,福州市,五四北路,"颗粒物(PM10),细颗粒物(PM2.5)",57,63,44,40,20,136,,172,170,23,17,6,4,0.6,0.5
2024-05-11T2100,1284A,119.2648,26.0768,福州市,杨桥西路,颗粒物(PM10),61,71,48,36,22,126,,171,168,24,18,6,4,0.5,0.4
2024-05-11T2100,1285A,119.317,26.0746,福州市,紫阳,颗粒物(PM10),60,70,49,34,20,123,,164,160,20,15,6,4,0.4,0.4
2024-05-11T2100,3048A,119.5799,26.0936,福州市,九龙,,36,36,34,20,16,76,,138,123,10,16,4,6,0.4,0.4
2024-05-11T2100,3526A,119.5189,25.9664,福州市,吴航,颗粒物(PM10),53,56,43,26,19,130,,163,160,15,16,6,5,0.6,0.6
2024-05-11T2100,1755A,123.7977,41.8491,抚顺市,望花区,颗粒物(PM10),145,239,130,32,29,69,,101,87,14,13,3,5,0.3,0.6
2024-05-11T2100,1756A,123.9161,41.8822,抚顺市,顺城区,颗粒物(PM10),134,217,114,24,21,77,,104,91,10,12,6,7,0.2,0.4
2024-05-11T2100,1757A,124.0436,41.8611,抚顺市,东洲区,颗粒物(PM10),125,199,106,35,28,72,,101,88,8,9,4,5,0.2,0.3
2024-05-11T2100,1758A,123.9247,41.8642,抚顺市,新抚区,颗粒物(PM10),132,213,116,26,24,71,,99,85,10,11,4,6,0.2,0.4
2024-05-11T2100,1759A,124.0972,41.8961,抚顺市,大伙房水库,颗粒物(PM10),135,219,115,24,21,70,,110,93,12,7,6,7,0.1,0.1
2024-05-11T2100,1760A,123.7086,41.8391,抚顺市,沈抚新城,颗粒物(PM10),153,256,144,30,27,71,,97,86,8,8,4,5,0.2,0.3
2024-05-11T2100,2376A,116.2127,28.0814,抚州市,桐源党溪,细颗粒物(PM2.5),59,53,50,42,30,62,,82,68,10,6,4,5,0.7,0.6
2024-05-11T2100,2377A,116.3544,27.9831,抚州市,市站,,50,46,46,35,29,86,,96,90,10,12,4,7,0.9,0.9
2024-05-11T2100,2378A,116.3565,27.963,抚州市,血防站,,45,38,45,31,27,82,,92,84,10,13,2,4,0.8,0.8
2024-05-11T2100,2379A,116.3564,28.0007,抚州市,采茶剧团,细颗粒物(PM2.5),53,44,45,37,28,82,,89,84,8,12,3,5,0.8,0.9
2024-05-11T2100,2380A,116.385,27.9647,抚州市,医学分院,,42,40,47,29,25,89,,90,85,8,14,4,6,1.0,1
2024-05-11T2100,2207A,121.6094,41.998,阜新市,工业园区,颗粒物(PM10),70,90,144,23,25,72,,89,83,14,9,5,6,0.5,0.5
2024-05-11T2100,2208A,121.6697,42.0279,阜新市,长青街,细颗粒物(PM2.5),65,70,122,47,29,78,,89,84,11,10,4,5,0.4,0.4
2024-05-11T2100,2209A,121.6673,42.0705,阜新市,农业园区,颗粒物(PM10),79,108,162,7,16,75,,85,81,6,5,5,5,0.4,0.4
2024-05-11T2100,2210A,121.6717,42.0224,阜新市,东苑,颗粒物(PM10),75,99,150,17,21,75,,85,81,10,10,4,5,0.4,0.4
2024-05-11T2100,2211A,121.6506,42.0498,阜新市,玉龙新城,颗粒物(PM10),74,98,131,8,10,74,,85,80,10,8,6,6,0.3,0.5
2024-05-11T2100,2301A,115.8277,32.8929,阜阳市,市监测站,颗粒物(PM10),172,294,114,102,51,101,,113,113,25,13,8,7,0.3,0.5
2024-05-11T2100,2303A,115.8554,32.8605,阜阳市,开发区,颗粒物(PM10),236,375,134,60,38,94,,111,111,23,10,5,7,0.3,0.5
2024-05-11T2100,2875A,115.784,32.8892,阜阳市,阜阳职业技术学院,颗粒物(PM10),193,336,138,109,47,111,,121,121,14,11,6,6,0.3,0.4
2024-05-11T2100,3468A,115.7901,32.8613,阜阳市,市规划展馆,颗粒物(PM10),225,367,146,76,42,114,,120,120,12,10,6,6,0.3,0.5
2024-05-11T2100,3469A,115.836,32.9183,阜阳市,枣园社区,颗粒物(PM10),181,311,115,66,41,97,,112,112,21,12,6,7,0.2,0.5
2024-05-11T2100,2669A,102.9099,34.9841,甘南藏族自治州,州政府,颗粒物(PM10),68,86,36,30,17,53,,106,98,33,8,10,7,0.7,0.5
2024-05-11T2100,3380A,102.8914,34.9617,甘南藏族自治州,甘肃民族师范学院,颗粒物(PM10),73,96,38,33,16,23,,108,94,58,12,9,9,0.8,0.6
2024-05-11T2100,2570A,101.9603,30.0475,甘孜藏族自治州,水桥子,,19,6,8,3,5,60,,95,83,27,11,2,2,0.3,0.3
2024-05-11T2100,3065A,101.9533,29.9972,甘孜藏族自治州,州环保局,,24,16,8,7,5,35,,92,84,48,17,2,1,0.2,0.3
2024-05-11T2100,3414A,115.8347,28.932,赣江新区,桑海产业园,,25,9,59,9,32,80,,86,86,13,31,7,8,0.7,0.7
2024-05-11T2100,2363A,114.9367,25.8664,赣州市,地委,,28,28,33,15,21,59,,107,78,11,10,9,13,0.4,0.4
2024-05-11T2100,2364A,114.9461,25.8481,赣州市,气象台,,33,33,31,15,19,64,,110,78,5,6,8,9,0.4,0.4
2024-05-11T2100,2365A,114.9322,25.8333,赣州市,市图书馆,,32,32,32,16,17,57,,102,70,12,9,5,6,0.8,0.8
2024-05-11T2100,2366A,114.8905,25.8471,赣州市,华坚鞋城,,30,30,38,18,19,56,,104,78,16,9,6,11,0.5,0.5
2024-05-11T2100,3109A,115.0093,25.8613,赣州市,赣县区卫计委,,30,30,38,12,21,53,,89,72,19,14,5,9,0.6,0.5
2024-05-11T2100,2683A,106.2319,36.1417,固原市,马园,颗粒物(PM10),78,106,95,17,24,60,,124,115,42,20,5,5,0.5,0.4
2024-05-11T2100,2684A,106.2792,36.0022,固原市,监测站,颗粒物(PM10),72,94,101,28,26,74,,124,119,30,14,4,3,0.4,0.3
2024-05-11T2100,2685A,106.2375,36.0211,固原市,新区,颗粒物(PM10),70,89,108,32,27,21,,126,114,87,19,3,3,0.5,0.3
2024-05-11T2100,3522A,106.2177,35.9959,固原市,原州区十五小,,,87,117,38,43,,,129,129,21,11,,5,0.2,0.1
2024-05-11T2100,2544A,106.6303,30.4576,广安市,市委,颗粒物(PM10),77,103,47,44,25,29,,65,58,38,15,6,6,0.8,0.7
2024-05-11T2100,2545A,106.6271,30.4663,广安市,友谊中学,颗粒物(PM10),68,86,39,41,24,31,,69,62,40,16,7,6,0.8,0.7
2024-05-11T2100,2547A,106.6388,30.4551,广安市,广电花园,颗粒物(PM10),69,88,44,44,25,35,,67,61,27,13,7,7,0.7,0.7
2024-05-11T2100,2902A,106.6351,30.4865,广安市,北辰小学,颗粒物(PM10),75,99,46,36,24,33,,70,60,25,11,8,8,0.7,0.7
2024-05-11T2100,2523A,105.8945,32.4535,广元市,黑石坡,颗粒物(PM10),59,68,63,35,18,60,,92,87,17,5,5,5,0.2,0.2
2024-05-11T2100,2524A,105.821,32.4444,广元市,老城,颗粒物(PM10),80,109,86,38,22,26,,121,75,52,16,9,6,0.5,0.6
2024-05-11T2100,2526A,105.8628,32.4287,广元市,监测站,颗粒物(PM10),66,82,76,31,20,61,,104,92,14,6,4,3,0.4,0.3
2024-05-11T2100,3617A,105.8047,32.4166,广元市,经开区,颗粒物(PM10),79,107,94,31,27,19,,94,74,56,16,6,6,0.6,0.5
2024-05-11T2100,1345A,113.2347,23.1423,广州市,广雅中学,,,47,40,20,21,,,143,139,30,31,5,6,0.9,0.8
2024-05-11T2100,1346A,113.2612,23.105,广州市,市五中,,50,50,41,24,20,64,,148,132,26,25,4,4,0.7,0.6
2024-05-11T2100,1348A,113.3478,23.0916,广州市,广东商学院,,45,45,41,22,21,58,,124,105,31,35,4,6,0.5,0.5
2024-05-11T2100,1349A,113.4332,23.1047,广州市,市八十六中,,,,41,,16,,,106,88,60,45,4,6,0.7,0.8
2024-05-11T2100,1350A,113.3505,22.9483,广州市,番禺中学,,40,40,36,19,16,61,,122,107,28,25,5,5,0.5,0.5
2024-05-11T2100,1351A,113.2146,23.3916,广州市,花都师范,,50,50,46,25,20,76,,148,141,28,30,5,6,0.6,0.5
2024-05-11T2100,1352A,113.2597,23.1331,广州市,市监测站,,49,49,41,21,17,56,,130,116,25,25,5,6,0.6,0.5
2024-05-11T2100,1353A,113.5618,23.312,广州市,九龙镇镇龙,,42,42,46,17,19,42,,135,111,29,25,6,6,0.5,0.5
2024-05-11T2100,1354A,113.2765,23.1544,广州市,麓湖,,48,48,40,23,18,50,,138,122,34,24,5,6,0.6,0.5
2024-05-11T2100,1355A,113.443,23.3035,广州市,帽峰山森林公园,,39,39,35,14,14,42,,132,116,36,21,7,6,0.5,0.4
2024-05-11T2100,2846A,113.3221,23.1322,广州市,体育西,,50,50,40,22,19,56,,128,112,30,26,5,6,0.6,0.7
2024-05-11T2100,3298A,113.5717,23.5491,广州市,从化街口,,35,35,37,16,20,58,,136,129,26,19,6,6,0.6,0.6
2024-05-11T2100,3299A,113.3472,23.3692,广州市,白云竹料,颗粒物(PM10),53,56,45,20,18,50,,126,116,37,29,5,5,0.6,0.6
2024-05-11T2100,3300A,113.2981,23.237,广州市,白云嘉禾,颗粒物(PM10),52,53,44,20,19,39,,134,117,48,37,5,6,0.8,0.7
2024-05-11T2100,3301A,113.4256,23.1716,广州市,黄埔科学城,,47,47,46,16,20,35,,118,93,38,26,6,7,0.6,0.6
2024-05-11T2100,3302A,113.3942,23.0483,广州市,番禺大学城,,41,41,42,15,15,58,,111,94,27,29,10,11,0.5,0.4
2024-05-11T2100,3303A,113.4922,22.8168,广州市,南沙黄阁,,39,39,38,15,16,68,,101,86,21,22,5,6,0.7,0.7
2024-05-11T2100,3304A,113.5342,22.7896,广州市,南沙街,,38,38,36,13,14,70,,98,83,14,16,6,6,0.6,0.6
2024-05-11T2100,3443A,113.2902,23.5544,广州市,花都梯面,颗粒物(PM10),52,53,44,21,20,77,,146,138,27,26,4,4,0.6,0.6
2024-05-11T2100,3445A,113.7858,23.7478,广州市,从化良口,,37,37,27,18,14,98,,110,110,13,11,5,5,0.7,0.6
2024-05-11T2100,3446A,113.8051,23.2614,广州市,增城荔城,,47,47,45,18,18,58,,167,145,23,19,4,5,0.6,0.7
2024-05-11T2100,2506A,109.6047,23.0666,贵港市,江南子站,,34,34,43,23,27,55,,80,73,11,15,6,8,0.5,0.6
2024-05-11T2100,2507A,109.6014,23.0948,贵港市,贵城子站,,42,42,56,25,31,44,,77,70,19,15,6,8,0.5,0.6
2024-05-11T2100,2508A,109.5669,23.1065,贵港市,荷城子站,,41,41,43,17,23,42,,73,64,19,14,8,10,0.6,0.6
2024-05-11T2100,3405A,109.5886,23.1172,贵港市,新世纪学校,,48,48,43,27,25,47,,84,75,16,12,10,10,0.8,0.8
2024-05-11T2100,1439A,106.6899,26.5998,贵阳市,马鞍山,,25,9,15,0,5,78,,97,91,12,11,6,6,0.4,0.4
2024-05-11T2100,1440A,106.6971,26.5694,贵阳市,市环保站,,22,17,18,6,16,70,,96,88,24,19,4,5,0.3,0.3
2024-05-11T2100,1441A,106.6243,26.6266,贵阳市,鉴湖路,,25,9,13,2,8,79,,88,85,7,6,3,4,0.4,0.4
2024-05-11T2100,1442A,106.7487,26.6343,贵阳市,燕子冲,,24,7,17,7,10,76,,90,86,9,8,7,7,0.5,0.5
2024-05-11T2100,1443A,106.6555,26.4365,贵阳市,碧云窝,,26,14,18,5,7,82,,103,96,12,8,4,6,0.5,0.6
2024-05-11T2100,1444A,106.694,26.5161,贵阳市,中院村,,24,12,18,5,9,74,,97,89,12,8,6,7,0.5,0.4
2024-05-11T2100,1445A,106.7109,26.6027,贵阳市,红边门,,26,9,19,7,16,82,,103,96,12,11,4,4,0.6,0.5
2024-05-11T2100,1446A,106.7164,26.5699,贵阳市,新华路,,25,14,17,7,12,80,,98,92,11,11,4,3,0.4,0.5
2024-05-11T2100,1447A,106.674,26.5424,贵阳市,太慈桥,,26,7,14,2,8,81,,98,93,11,11,4,5,0.4,0.4
2024-05-11T2100,1862A,110.4144,25.3167,桂林市,电子科大尧山校区,,30,6,30,5,19,93,,74,74,3,8,4,4,0.6,0.7
2024-05-11T2100,1863A,110.2819,25.2697,桂林市,监测站,,27,19,46,17,34,84,,73,73,9,18,4,5,0.6,0.8
2024-05-11T2100,1864A,110.3089,25.2708,桂林市,龙隐路小学,,28,,39,18,34,88,,69,69,7,16,4,5,0.6,0.8
2024-05-11T2100,1865A,110.2869,25.2178,桂林市,八中,,26,,40,12,26,83,,68,68,7,16,4,5,0.6,0.8
2024-05-11T2100,3403A,110.1764,25.2381,桂林市,创业大厦,,28,,32,9,25,87,,72,72,5,16,6,22,0.5,0.6
2024-05-11T2100,3531A,110.296,25.1253,桂林市,旅游学院,,27,5,25,5,19,86,,70,69,6,13,4,6,0.5,0.7
2024-05-11T2100,2674A,100.2561,34.4714,果洛藏族自治州,玛沁县大武镇,,36,,10,21,11,114,,115,114,11,11,8,9,0.4,0.4
2024-05-11T2100,1129A,126.5422,45.755,哈尔滨市,岭北,,20,7,19,3,9,62,,84,70,8,11,9,8,0.2,0.5
2024-05-11T2100,1130A,126.561,45.8167,哈尔滨市,松北商大,,20,8,31,4,8,64,,86,68,6,8,4,4,0.5,0.5
2024-05-11T2100,1131A,126.979,45.5419,哈尔滨市,阿城会宁,,19,11,41,5,9,60,,88,68,6,6,5,6,0.5,0.5
2024-05-11T2100,1132A,126.599,45.7222,哈尔滨市,南岗学府路,,19,13,37,2,8,59,,86,68,11,10,4,4,0.4,0.4
2024-05-11T2100,1133A,126.689,45.7733,哈尔滨市,太平宏伟公园,,20,,36,9,11,61,,86,68,11,11,8,8,0.3,0.3
2024-05-11T2100,1134A,126.635,45.7667,哈尔滨市,道外承德广场,,19,17,40,10,15,59,,84,63,12,15,7,8,0.4,0.3
2024-05-11T2100,1135A,126.685,45.7319,哈尔滨市,香坊红旗大街,,19,12,41,7,9,60,,82,66,5,8,4,5,0.5,0.5
2024-05-11T2100,1136A,126.6411,45.7258,哈尔滨市,动力和平路,,26,26,41,4,8,59,,83,67,10,11,3,5,0.3,0.4
2024-05-11T2100,1137A,126.593,45.7478,哈尔滨市,道里建国路,,19,10,34,4,10,58,,84,64,11,12,4,5,0.2,0.6
2024-05-11T2100,1138A,126.615,45.61,哈尔滨市,平房东轻厂,,19,4,39,3,10,59,,86,68,7,6,6,6,0.2,0.2
2024-05-11T2100,1139A,126.595,45.9855,哈尔滨市,呼兰师专,,19,8,29,2,11,60,,74,68,7,10,6,7,0.4,0.4
2024-05-11T2100,1140A,126.6206,45.6842,哈尔滨市,省农科院,,20,11,43,5,14,61,,82,68,9,13,5,4,0.5,0.4
2024-05-11T2100,2688A,93.5128,42.8172,哈密市,地区监测站,颗粒物(PM10),53,55,37,22,16,84,,138,133,56,29,3,3,0.6,0.3
2024-05-11T2100,2689A,93.4961,42.8328,哈密市,哈密师范学校,颗粒物(PM10),64,77,46,17,16,93,,135,130,30,31,7,6,0.4,0.4
2024-05-11T2100,2671A,100.9048,36.9639,海北藏族自治州,海晏县西海镇,,30,23,21,17,14,93,,126,123,13,9,8,9,0.3,0.3
2024-05-11T2100,3867A,102.0738,36.5056,海东市,平安区公安北苑,,35,35,21,6,13,108,,131,130,16,12,8,8,0.4,0.4
2024-05-11T2100,1410A,110.3232,20.0574,海口市,海南大学,,33,33,32,15,13,44,,74,68,11,6,4,4,0.5,0.5
2024-05-11T2100,1411A,110.283,20.0053,海口市,秀英海南医院,,32,27,30,22,14,17,,70,56,44,12,5,5,0.5,0.4
2024-05-11T2100,1412A,110.338,19.9969,海口市,海南师范大学,,23,21,28,16,14,37,,76,68,14,5,6,6,0.5,0.5
2024-05-11T2100,1413A,110.33,20.0356,海口市,龙华路环保局宿舍,,27,27,32,17,14,39,,71,64,14,7,6,6,0.3,0.3
2024-05-11T2100,3539A,110.5111,19.9736,海口市,桂林洋子站,,31,31,29,14,12,34,,67,57,7,5,6,5,0.3,0.3
2024-05-11T2100,2673A,100.6188,36.2866,海南藏族自治州,共和县恰卜恰镇,颗粒物(PM10),51,51,20,6,6,118,,136,135,18,9,11,12,0.6,0.5
2024-05-11T2100,2676A,97.3731,37.3753,海西蒙古族藏族自治州,德令哈市,颗粒物(PM10),52,54,42,15,13,147,,150,150,7,8,7,4,0.5,0.6
2024-05-11T2100,1048A,114.5302,36.6116,邯郸市,东污水处理厂,颗粒物(PM10),103,156,206,56,64,74,,107,104,35,12,7,6,0.2,0.3
2024-05-11T2100,1049A,114.4918,36.5713,邯郸市,矿院,颗粒物(PM10),86,121,152,53,60,88,,110,109,23,10,7,7,0.5,0.5
2024-05-11T2100,1050A,114.484,36.6133,邯郸市,丛台公园,颗粒物(PM10),104,158,210,34,51,,,119,119,18,8,6,6,0.3,0.3
2024-05-11T2100,3458A,114.7895,36.5593,邯郸市,香泉濮院小区,颗粒物(PM10),120,190,238,36,48,104,,127,125,15,7,7,6,0.4,0.2
2024-05-11T2100,3579A,114.50634,36.77178,邯郸市,永年区实验高中,颗粒物(PM10),108,166,218,50,58,110,,125,125,17,13,9,8,0.3,0.4
2024-05-11T2100,3580A,114.20016,36.44293,邯郸市,峰峰矿区临水派出所,颗粒物(PM10),107,163,222,52,63,99,,122,121,14,13,6,7,0.3,0.7
2024-05-11T2100,2634A,106.9893,33.1842,汉中市,汉川机床厂子校,颗粒物(PM10),79,107,95,35,24,49,,113,105,23,11,4,6,0.6,0.5
2024-05-11T2100,2635A,107.0154,33.0706,汉中市,市监测站,颗粒物(PM10),88,126,83,36,23,61,,118,110,34,11,9,8,0.5,0.4
2024-05-11T2100,2636A,107.0089,33.1138,汉中市,鑫源开发区,颗粒物(PM10),85,119,83,30,24,55,,118,110,35,14,10,9,0.5,0.5
2024-05-11T2100,2637A,107.007,33.0323,汉中市,南郑大河坎水厂,颗粒物(PM10),89,127,80,54,25,45,,110,100,30,9,7,7,0.5,0.4
2024-05-11T2100,1223A,120.2072,30.2111,杭州市,滨江,细颗粒物(PM2.5),60,64,50,43,29,50,,90,81,26,17,4,5,1.0,0.7
2024-05-11T2100,1224A,120.0633,30.2747,杭州市,西溪,,50,50,52,34,34,20,,77,62,21,15,6,6,0.7,0.7
2024-05-11T2100,1226A,120.3461,30.3153,杭州市,下沙,细颗粒物(PM2.5),59,58,54,42,33,62,,88,83,23,27,6,7,0.8,0.6
2024-05-11T2100,1227A,120.1269,30.2456,杭州市,卧龙桥,,49,37,44,34,35,21,,76,58,13,18,4,4,0.8,0.7
2024-05-11T2100,1228A,120.1903,30.2692,杭州市,浙江农大,,48,42,43,33,28,38,,79,71,27,22,6,6,0.7,0.6
2024-05-11T2100,1230A,120.1197,30.3119,杭州市,和睦小学,细颗粒物(PM2.5),57,48,53,40,35,46,,86,78,20,17,6,7,0.8,0.7
2024-05-11T2100,1231A,120.3019,30.4183,杭州市,临平镇,细颗粒物(PM2.5),69,70,70,50,37,11,,87,65,66,29,4,5,1.0,0.7
2024-05-11T2100,1232A,120.2697,30.1819,杭州市,城厢镇,细颗粒物(PM2.5),62,54,48,44,40,53,,79,74,26,26,5,6,0.9,0.7
2024-05-11T2100,1233A,120.0883,30.1808,杭州市,云栖,,43,43,44,23,30,14,,76,58,18,27,6,6,0.9,0.8
2024-05-11T2100,3557A,119.9464,30.0494,杭州市,镇二中,,50,43,52,35,38,37,,87,75,30,27,7,7,1.0,0.9
2024-05-11T2100,3558A,119.7183,30.2367,杭州市,市府大楼,,43,34,48,30,35,46,,80,67,13,18,6,6,0.7,0.8
2024-05-11T2100,3656A,120.1556,30.2864,杭州市,消防大队,,45,45,51,31,33,46,,84,75,33,29,6,6,1.0,0.9
2024-05-11T2100,1270A,117.1959,31.7848,合肥市,明珠广场,细颗粒物(PM2.5),77,70,50,56,38,78,,87,71,16,22,6,7,0.8,0.8
2024-05-11T2100,1271A,117.3072,31.8764,合肥市,三里街,颗粒物(PM10),60,70,50,34,32,72,,74,69,19,24,6,6,0.5,0.5
2024-05-11T2100,1272A,117.2588,31.8707,合肥市,琥珀山庄,颗粒物(PM10),57,63,46,29,24,81,,89,74,11,15,4,4,0.8,0.8
2024-05-11T2100,1273A,117.1604,31.9052,合肥市,董铺水库,细颗粒物(PM2.5),62,66,46,44,33,90,,101,81,10,12,2,1,0.5,0.5
2024-05-11T2100,1274A,117.25,31.8571,合肥市,长江中路,颗粒物(PM10),60,70,49,40,38,79,,89,77,10,14,4,5,0.7,0.7
2024-05-11T2100,1275A,117.266,31.9436,合肥市,庐阳区,颗粒物(PM10),67,83,49,41,35,90,,80,78,10,16,2,3,0.5,0.5
2024-05-11T2100,1276A,117.336,31.8586,合肥市,瑶海区,细颗粒物(PM2.5),55,56,47,39,34,78,,75,73,12,21,7,7,0.8,0.8
2024-05-11T2100,1277A,117.3027,31.7964,合肥市,包河区,颗粒物(PM10),54,58,53,34,38,62,,87,66,27,22,4,6,0.5,0.5
2024-05-11T2100,1278A,117.2776,31.7385,合肥市,滨湖新区,颗粒物(PM10),56,61,46,39,38,72,,87,68,16,16,5,6,0.7,0.6
2024-05-11T2100,1279A,117.1318,31.8403,合肥市,高新区,细颗粒物(PM2.5),68,70,48,49,39,70,,89,73,18,19,6,6,0.9,0.8
2024-05-11T2100,3464A,117.3803,31.9147,合肥市,高教基地,颗粒物(PM10),58,66,44,22,34,66,,75,55,8,14,4,5,0.5,0.5
2024-05-11T2100,3614A,79.924,37.0877,和田地区,地区环保局,,,290,393,,105,101,,111,111,10,8,7,7,0.4,0.5
2024-05-11T2100,3615A,79.9131,37.113,和田地区,市环保局,颗粒物(PM10),139,228,382,56,102,90,,105,105,22,13,5,6,0.6,0.4
2024-05-11T2100,2516A,108.2011,24.715,河池市,东仁乐园,,34,34,43,20,19,5,,18,12,13,7,3,3,0.7,0.7
2024-05-11T2100,2517A,108.0497,24.6947,河池市,市环保站,,30,30,30,20,18,27,,67,58,20,13,7,8,0.6,0.5
2024-05-11T2100,2518A,108.0983,24.6989,河池市,市疾控中心,颗粒物(PM10),51,51,34,22,17,14,,68,54,31,16,8,9,0.6,0.6
2024-05-11T2100,1697A,114.6944,23.7586,河源市,东埔,,50,50,39,20,19,76,,94,87,12,13,7,7,0.6,0.6
2024-05-11T2100,1698A,114.6892,23.7233,河源市,老城,,36,36,37,13,14,76,,95,88,8,8,6,7,0.5,0.5
2024-05-11T2100,1718A,115.4208,35.2464,菏泽市,气象局,颗粒物(PM10),200,349,304,88,72,86,,118,116,32,18,3,6,0.3,0.3
2024-05-11T2100,1719A,115.4747,35.2375,菏泽市,市政协,颗粒物(PM10),169,288,305,80,73,90,,114,111,20,12,4,7,0.1,0.1
2024-05-11T2100,3374A,115.5564,35.0891,菏泽市,定陶老年大学,颗粒物(PM10),172,293,288,56,53,79,,111,106,26,15,4,5,0.4,0.4
2024-05-11T2100,3647A,115.4702,35.2706,菏泽市,菏泽医专,颗粒物(PM10),187,323,300,59,54,100,,120,119,22,13,1,6,0.2,0.2
2024-05-11T2100,2514A,111.5264,24.4172,贺州市,环保小区,,46,46,47,27,26,52,,90,78,16,15,9,8,0.8,0.7
2024-05-11T2100,2515A,111.5608,24.4078,贺州市,政协大楼,,47,47,46,24,27,44,,95,77,22,14,11,9,0.7,0.6
2024-05-11T2100,3534A,111.4744,24.4553,贺州市,西湾,颗粒物(PM10),56,62,52,30,28,26,,86,73,40,22,8,8,0.7,0.6
2024-05-11T2100,2385A,114.17,35.9019,鹤壁市,市监测站,颗粒物(PM10),394,495,270,80,81,86,,118,115,14,7,10,11,0.6,0.8
2024-05-11T2100,2386A,114.2956,35.7511,鹤壁市,市交警支队,颗粒物(PM10),138,226,238,50,56,87,,117,114,23,14,7,8,0.3,0.4
2024-05-11T2100,2387A,114.2878,35.7306,鹤壁市,迎宾馆,颗粒物(PM10),136,221,253,57,65,87,,118,114,24,15,10,12,0.4,0.4
2024-05-11T2100,3474A,114.2617,35.6822,鹤壁市,大新区,颗粒物(PM10),141,232,287,52,72,62,,111,105,22,18,9,10,0.3,0.3
2024-05-11T2100,3596A,114.1572,35.9603,鹤壁市,南山宾馆,颗粒物(PM10),142,234,302,60,66,91,,126,121,24,12,12,11,0.5,0.7
2024-05-11T2100,2244A,130.2537,47.3416,鹤岗市,哈啤分公司,,18,16,16,8,9,55,,68,66,6,8,13,13,0.4,0.5
2024-05-11T2100,2245A,130.2684,47.3086,鹤岗市,斯达机电,,28,21,20,19,19,55,,68,66,7,16,10,10,0.7,0.7
2024-05-11T2100,2246A,130.3114,47.3388,鹤岗市,东山纸板厂,,28,,19,19,14,53,,67,61,6,8,12,13,0.4,0.4
2024-05-11T2100,2247A,130.1097,47.3382,鹤岗市,五号水库,,22,22,18,8,8,60,,82,76,5,8,11,11,0.1,0.1
2024-05-11T2100,2263A,127.4833,50.2524,黑河市,交通局,,40,29,31,28,25,74,,93,84,7,8,4,4,0.3,0.3
2024-05-11T2100,2264A,127.5144,50.2341,黑河市,环保局,,43,,27,30,28,75,,94,85,9,8,4,6,0.4,0.4
2024-05-11T2100,2265A,127.5291,50.2472,黑河市,大黑河岛,,,,12,40,28,52,,81,68,14,12,6,5,0.6,0.5
2024-05-11T2100,1074A,115.6838,37.7541,衡水市,电机北厂,颗粒物(PM10),66,82,178,30,41,95,,125,123,26,10,3,2,0.2,0.2
2024-05-11T2100,1075A,115.6303,37.7316,衡水市,市监测站,,,78,163,,51,104,,124,123,19,11,3,3,0.2,0.2
2024-05-11T2100,3188A,115.6683,37.7217,衡水市,市城管局,颗粒物(PM10),61,71,157,11,43,93,,124,122,30,11,2,2,0.3,0.2
2024-05-11T2100,3459A,115.5989,37.5491,衡水市,地表水厂,颗粒物(PM10),78,106,176,30,37,42,,126,112,67,12,1,2,0.0,0.1
2024-05-11T2100,2456A,112.5003,26.9167,衡阳市,原169医院,,23,16,49,16,38,51,,76,68,11,19,7,10,0.8,0.8
2024-05-11T2100,2457A,112.6194,26.9258,衡阳市,衡阳化工总厂,,28,28,44,16,30,56,,97,79,19,14,7,10,0.5,0.6
2024-05-11T2100,2458A,112.6211,26.8956,衡阳市,珠晖区环保局,,24,,43,13,26,76,,99,87,14,17,6,8,0.7,0.8
2024-05-11T2100,2459A,112.6197,26.8733,衡阳市,市委党校,,27,27,39,8,22,73,,96,88,12,13,8,10,0.7,0.7
2024-05-11T2100,2460A,112.6006,26.8919,衡阳市,市监测站,,21,21,43,12,29,63,,100,86,17,15,6,9,0.7,0.8
2024-05-11T2100,2461A,112.5664,26.9056,衡阳市,真空机电公司,,20,16,43,14,30,53,,92,77,15,16,6,14,0.7,1
2024-05-11T2100,3399A,112.6703,26.882,衡阳市,师范学院,,23,,36,10,24,71,,95,84,15,12,7,8,0.6,0.6
2024-05-11T2100,2608A,103.3772,23.3993,红河哈尼族彝族自治州,污水处理厂,,40,33,24,28,19,88,,106,105,10,7,7,7,0.4,0.4
2024-05-11T2100,2609A,103.3861,23.35,红河哈尼族彝族自治州,监测站,,31,31,22,18,17,90,,106,104,12,9,8,9,0.4,0.4
2024-05-11T2100,3038A,103.3758,23.368,红河哈尼族彝族自治州,州图书馆,,48,,22,33,19,95,,105,105,7,7,4,4,0.4,0.4
2024-05-11T2100,1090A,111.6507,40.7517,呼和浩特市,呼市一监,,35,14,79,9,25,112,,128,127,8,9,4,6,0.3,0.3
2024-05-11T2100,1091A,111.6572,40.8033,呼和浩特市,小召,,33,27,79,7,19,105,,122,120,12,11,5,5,0.4,0.4
2024-05-11T2100,1094A,111.7516,40.8369,呼和浩特市,如意水处理厂,,32,18,85,5,15,100,,115,114,6,7,5,5,0.3,0.3
2024-05-11T2100,1095A,111.7276,40.8062,呼和浩特市,二十九中,,35,19,87,8,22,109,,124,123,7,8,1,2,0.3,0.3
2024-05-11T2100,1096A,111.5512,40.7866,呼和浩特市,工大金川校区,,30,16,79,6,25,94,,117,115,14,12,5,5,0.2,0.2
2024-05-11T2100,1097A,111.717,40.7612,呼和浩特市,化肥厂生活区,,34,20,94,6,25,108,,120,120,8,9,5,7,0.2,0.2
2024-05-11T2100,3698A,111.5968,40.8178,呼和浩特市,红旗小学,,32,14,85,5,25,102,,125,123,12,11,2,3,0.2,0.2
2024-05-11T2100,3699A,111.6518,40.8389,呼和浩特市,海东办,,34,12,80,5,26,107,,124,122,7,11,7,7,0.3,0.3
2024-05-11T2100,2192A,119.7594,49.2261,呼伦贝尔市,区环保局,,47,47,30,31,20,80,,95,93,10,10,4,4,0.5,0.4
2024-05-11T2100,3061A,119.7512,49.1577,呼伦贝尔市,国华电力东,,33,33,26,16,15,85,,98,95,7,6,3,3,0.3,0.2
2024-05-11T2100,1250A,120.0751,30.8669,湖州市,城西水厂,,34,15,61,7,39,23,,75,55,68,39,3,4,0.7,0.8
2024-05-11T2100,2873A,120.0875,30.8955,湖州市,仁皇山新区,,29,,55,20,44,31,,73,62,42,36,5,5,0.9,0.9
2024-05-11T2100,2907A,120.1844,30.8596,湖州市,吴兴区站,,46,34,54,32,43,24,,80,69,44,25,4,4,0.7,0.7
2024-05-11T2100,3562A,120.4148,30.8538,湖州市,南浔区站,细颗粒物(PM2.5),62,,49,44,45,54,,73,72,23,29,4,5,0.7,0.6
2024-05-11T2100,1607A,120.9092,40.7136,葫芦岛市,龙港区,,33,33,169,13,22,80,,92,89,16,11,7,6,0.5,0.5
2024-05-11T2100,1608A,120.8392,40.7514,葫芦岛市,化工街,,31,31,182,17,27,64,,93,88,32,23,8,9,0.4,0.3
2024-05-11T2100,1609A,120.8341,40.7073,葫芦岛市,新区,,27,27,157,10,22,80,,97,94,21,15,11,7,0.5,0.5
2024-05-11T2100,1610A,120.8695,40.7677,葫芦岛市,东城区,,29,29,152,6,20,69,,90,86,22,19,5,5,0.5,0.6
2024-05-11T2100,2482A,109.5981,27.5721,怀化市,林科所,,23,18,15,5,8,72,,105,91,5,5,11,7,0.5,0.5
2024-05-11T2100,2483A,109.9453,27.5444,怀化市,河西地税局,,30,30,19,19,12,51,,106,84,11,11,10,4,0.5,0.5
2024-05-11T2100,2484A,109.9781,27.5342,怀化市,市四医院,,,,20,18,13,64,,109,90,8,9,6,4,0.5,0.4
2024-05-11T2100,2485A,109.9972,27.5578,怀化市,监测楼,,29,29,19,17,14,50,,100,82,10,9,10,9,0.6,0.6
2024-05-11T2100,2486A,110.0394,27.583,怀化市,市委党校,,22,22,19,13,12,47,,101,84,12,10,8,7,0.6,0.6
2024-05-11T2100,1210A,119.036,33.5981,淮安市,钵池山,颗粒物(PM10),126,202,99,51,48,71,,103,74,16,17,7,8,0.5,0.8
2024-05-11T2100,1211A,119.007,33.575,淮安市,北京南路,颗粒物(PM10),145,239,107,57,44,75,,97,76,16,20,7,8,0.5,0.7
2024-05-11T2100,1212A,118.989,33.6067,淮安市,市监测站,颗粒物(PM10),144,237,118,56,49,80,,99,79,18,20,5,8,0.5,1
2024-05-11T2100,1213A,119.135,33.5039,淮安市,楚州区监测站,颗粒物(PM10),120,190,110,48,41,62,,103,74,25,23,6,7,0.5,0.7
2024-05-11T2100,1214A,119.0186,33.6297,淮安市,淮阴区监测站,颗粒物(PM10),142,234,120,56,49,75,,101,74,22,24,5,7,0.4,0.7
2024-05-11T2100,2282A,116.8004,33.975,淮北市,监测站,颗粒物(PM10),121,192,132,49,45,79,,125,122,35,15,9,8,0.5,0.6
2024-05-11T2100,2283A,116.8091,33.9007,淮北市,烈山区政府,颗粒物(PM10),151,252,178,56,47,97,,134,133,16,16,6,8,0.4,0.6
2024-05-11T2100,3330A,116.8873,33.9836,淮北市,杜集区检察院,颗粒物(PM10),155,260,160,76,59,82,,135,131,28,15,6,7,0.3,0.6
2024-05-11T2100,4017A,116.7923,33.9535,淮北市,市博物馆,颗粒物(PM10),129,208,152,43,43,84,,130,126,28,12,8,8,0.6,0.7
2024-05-11T2100,2277A,116.8305,32.7727,淮南市,潘集区政府,颗粒物(PM10),107,163,82,69,48,69,,91,88,20,14,5,6,0.4,0.4
2024-05-11T2100,2278A,117.0067,32.6524,淮南市,师范学院,颗粒物(PM10),92,134,71,65,49,59,,93,74,22,10,9,9,0.4,0.3
2024-05-11T2100,2279A,116.8569,32.5951,淮南市,谢家集区政府,颗粒物(PM10),79,108,56,44,30,79,,88,88,17,13,5,6,0.3,0.3
2024-05-11T2100,2280A,116.8281,32.633,淮南市,八公山区政府,颗粒物(PM10),83,116,72,49,47,83,,85,85,11,11,3,4,0.4,0.4
2024-05-11T2100,2281A,116.6325,32.6201,淮南市,焦岗湖风景区管理处,颗粒物(PM10),110,170,73,11,14,48,,70,68,38,16,2,2,0.1,0.2
2024-05-11T2100,2894A,117.0566,32.6531,淮南市,经济技术开发区消防队,颗粒物(PM10),83,116,66,53,42,63,,94,78,25,16,5,5,0.5,0.5
2024-05-11T2100,3329A,117.0108,32.5893,淮南市,山南新区,颗粒物(PM10),87,123,71,63,50,68,,96,85,24,15,6,6,0.6,0.5
2024-05-11T2100,2446A,114.9028,30.4742,黄冈市,职工中心,颗粒物(PM10),101,152,77,38,49,75,,77,77,3,11,5,8,0.3,0.6
2024-05-11T2100,2929A,114.8858,30.4519,黄冈市,红卫路,颗粒物(PM10),93,136,65,40,43,66,,73,73,11,16,4,7,0.6,0.9
2024-05-11T2100,3398A,114.9136,30.4445,黄冈市,市林业局,颗粒物(PM10),88,125,69,35,50,77,,84,84,2,7,2,4,0.3,0.4
2024-05-11T2100,2672A,102.0199,35.5102,黄南藏族自治州,同仁县隆务镇,,33,33,17,6,7,93,,123,119,2,2,8,8,0.5,0.5
2024-05-11T2100,2295A,118.2903,29.6963,黄山市,延安路89号,,45,45,62,24,19,58,,83,80,9,7,6,6,0.6,0.6
2024-05-11T2100,2296A,118.327,29.7178,黄山市,黄山东路89号,颗粒物(PM10),52,53,43,20,19,14,,80,67,22,10,5,5,0.7,0.6
2024-05-11T2100,2297A,118.1371,30.2756,黄山市,黄山区政府5号楼,,33,25,31,23,23,58,,68,63,6,8,4,4,0.8,0.8
2024-05-11T2100,2424A,115.0817,30.2006,黄石市,陈家湾,,,79,78,34,39,56,,65,65,,28,5,8,0.9,1.2
2024-05-11T2100,2426A,114.8988,30.2019,黄石市,铁山,颗粒物(PM10),75,100,61,37,38,72,,77,77,13,21,6,8,0.6,0.9
2024-05-11T2100,1392A,114.4183,23.0528,惠州市,河南岸金山湖子站,,34,34,32,14,14,60,,94,79,8,7,5,5,0.5,0.5
2024-05-11T2100,1393A,114.4053,23.0822,惠州市,下埔横江三路子站,,39,39,36,16,14,62,,105,86,12,10,6,7,0.6,0.5
2024-05-11T2100,1394A,114.4103,23.1142,惠州市,江北云山西路子站,,34,34,32,13,13,64,,111,93,12,6,6,7,0.9,0.8
2024-05-11T2100,1395A,114.4645,22.7833,惠州市,惠阳区承修路船湖子站,,35,35,29,16,12,82,,91,82,12,13,4,4,0.5,0.4
2024-05-11T2100,1396A,114.5317,22.7422,惠州市,大亚湾管委会子站,,,41,33,16,12,100,,102,101,15,12,,5,,0.8
2024-05-11T2100,3314A,114.4338,22.8134,惠州市,惠阳秋长,,41,41,35,15,18,93,,109,98,7,9,5,5,0.7,0.7
2024-05-11T2100,3452A,114.6517,22.775,惠州市,大亚湾霞涌,,29,29,29,13,10,84,,105,99,4,7,5,6,0.4,0.5
2024-05-11T2100,2240A,130.9762,45.3001,鸡西市,环保局,,37,37,24,10,14,33,,59,58,39,11,7,6,0.7,0.5
2024-05-11T2100,2243A,130.9429,45.3039,鸡西市,第一中学,,27,27,25,10,13,65,,75,75,10,12,9,8,0.4,0.4
2024-05-11T2100,3707A,131.0207,45.3073,鸡西市,欧美日汽修厂,,35,35,23,22,17,55,,63,63,17,11,6,3,0.6,0.4
2024-05-11T2100,3709A,130.9967,45.3106,鸡西市,市政设施管理处,,41,41,23,25,14,22,,56,54,22,15,7,7,0.6,0.5
2024-05-11T2100,2367A,114.9754,27.0803,吉安市,红声器材厂,,32,20,40,13,21,101,,101,89,12,16,6,10,0.5,0.5
2024-05-11T2100,2368A,114.9658,27.0999,吉安市,市森林工业局,,30,20,42,14,26,94,,102,87,12,16,10,13,0.4,0.5
2024-05-11T2100,2369A,114.99,27.1312,吉安市,市环境监测站,,34,23,39,12,21,106,,114,97,9,12,14,17,0.6,0.6
2024-05-11T2100,2370A,115.0093,27.0968,吉安市,青原区法院,,30,23,37,20,22,93,,103,86,10,12,11,14,0.5,0.5
2024-05-11T2100,1772A,126.54,43.8622,吉林市,哈达湾,颗粒物(PM10),51,51,86,13,19,67,,107,86,12,6,4,5,0.5,0.4
2024-05-11T2100,1773A,126.5844,43.8358,吉林市,东局子,颗粒物(PM10),77,103,79,22,21,62,,106,82,14,8,4,4,0.5,0.5
2024-05-11T2100,1774A,126.5052,43.8245,吉林市,电力学院,颗粒物(PM10),72,93,93,20,19,70,,106,86,10,7,8,8,0.4,0.4
2024-05-11T2100,1775A,126.6133,43.8972,吉林市,江北,颗粒物(PM10),60,69,85,16,16,65,,103,81,16,10,8,7,0.5,0.5
2024-05-11T2100,1776A,126.555,43.8306,吉林市,江南公园,颗粒物(PM10),81,111,102,20,21,65,,106,84,13,7,4,4,0.4,0.4
2024-05-11T2100,2868A,126.4739,43.953,吉林市,九站,颗粒物(PM10),58,66,94,10,16,65,,104,80,12,8,6,5,0.4,0.4
2024-05-11T2100,1299A,116.9862,36.6114,济南市,科干所,细颗粒物(PM2.5),119,100,275,90,56,106,,121,121,18,13,6,6,0.6,0.6
2024-05-11T2100,1300A,116.9376,36.665,济南市,农科所,颗粒物(PM10),70,90,298,20,65,90,,120,118,27,13,4,5,0.5,0.5
2024-05-11T2100,1301A,117.1265,36.6734,济南市,开发区,颗粒物(PM10),83,115,286,37,68,88,,122,119,38,13,6,6,0.5,0.5
2024-05-11T2100,1303A,117.0624,36.6868,济南市,省种子仓库,颗粒物(PM10),97,144,352,36,78,88,,115,113,47,14,3,3,0.3,0.3
2024-05-11T2100,1304A,116.9489,36.6447,济南市,机床二厂,颗粒物(PM10),83,115,338,42,67,91,,123,121,32,10,8,8,0.4,0.2
2024-05-11T2100,1305A,117.0495,36.663,济南市,市监测站,细颗粒物(PM2.5),83,105,299,61,66,97,,126,124,38,17,7,7,0.4,0.3
2024-05-11T2100,1306A,116.7675,36.5484,济南市,长清党校,颗粒物(PM10),83,115,315,42,89,97,,125,124,28,12,6,6,0.5,0.5
2024-05-11T2100,1616A,117.6795,36.229,济南市,技术学院,细颗粒物(PM2.5),144,,269,110,71,106,,120,120,23,14,10,9,0.3,0.3
2024-05-11T2100,1961A,117.532,36.6868,济南市,东山小学,颗粒物(PM10),70,90,293,34,70,82,,122,119,27,12,4,6,0.2,0.3
2024-05-11T2100,3059A,117.7161,36.2049,济南市,泰兴公司,颗粒物(PM10),81,112,244,31,56,102,,120,119,18,10,8,10,0.5,0.6
2024-05-11T2100,3064A,117.6867,36.2171,济南市,莱芜战役纪念馆,颗粒物(PM10),80,110,246,29,55,103,,115,115,19,11,6,7,0.5,0.6
2024-05-11T2100,3494A,117.1673,36.9782,济南市,济阳区政府,颗粒物(PM10),89,127,350,42,79,103,,118,118,22,23,9,8,0.6,1.7
2024-05-11T2100,3495A,117.1171,36.63,济南市,锦屏中学,颗粒物(PM10),85,120,271,37,70,89,,126,124,25,9,6,6,0.4,0.3
2024-05-11T2100,3682A,116.9814,36.6819,济南市,济南四建,颗粒物(PM10),89,127,324,22,73,96,,119,118,28,13,6,6,0.4,0.3
2024-05-11T2100,1653A,116.6251,35.4302,济宁市,火炬城,颗粒物(PM10),89,128,222,17,37,105,,118,118,13,6,8,8,0.4,0.4
2024-05-11T2100,1655A,116.5491,35.4042,济宁市,电化厂,颗粒物(PM10),103,156,246,39,50,,,117,117,28,10,7,6,0.4,0.5
2024-05-11T2100,3500A,116.5814,35.3707,济宁市,北湖一中,颗粒物(PM10),86,122,231,27,51,94,,109,109,18,8,2,3,0.3,0.2
2024-05-11T2100,3501A,116.8249,35.5593,济宁市,服务中心,颗粒物(PM10),93,135,254,62,55,77,,112,108,24,11,3,3,0.5,0.4
2024-05-11T2100,3678A,116.5907,35.4054,济宁市,市第七中学,颗粒物(PM10),100,149,252,41,52,108,,122,122,13,7,7,5,0.4,0.3
2024-05-11T2100,2255A,130.2751,46.8028,佳木斯市,佳纺,,26,26,18,17,13,72,,94,88,7,8,4,4,0.4,0.4
2024-05-11T2100,2256A,130.3995,46.8307,佳木斯市,发电厂,,26,20,14,9,10,82,,90,87,7,10,5,5,0.4,0.4
2024-05-11T2100,2257A,130.3258,46.7975,佳木斯市,环保局,,32,32,21,10,11,59,,87,80,19,13,4,4,0.5,0.4
2024-05-11T2100,2258A,130.3648,46.8032,佳木斯市,十一中,,24,24,19,14,14,74,,86,83,11,16,5,5,0.4,0.5
2024-05-11T2100,2259A,130.3794,46.7588,佳木斯市,四丰,,,19,18,,,77,,93,90,8,7,1,1,0.5,0.5
2024-05-11T2100,1252A,120.7436,30.778,嘉兴市,清河小学,"颗粒物(PM10),细颗粒物(PM2.5)",53,55,53,37,28,62,,85,82,24,26,3,4,1.1,0.8
2024-05-11T2100,1253A,120.726,30.7478,嘉兴市,嘉兴学院,细颗粒物(PM2.5),64,50,48,46,33,60,,80,77,14,20,4,5,0.7,0.6
2024-05-11T2100,2872A,120.7846,30.7525,嘉兴市,南湖区残联,细颗粒物(PM2.5),62,52,53,44,32,65,,108,104,18,19,4,6,0.7,0.5
2024-05-11T2100,3407A,120.6916,30.7739,嘉兴市,秀洲住建,,47,47,46,30,27,47,,78,73,25,19,4,5,0.9,0.7
2024-05-11T2100,1945A,98.2908,39.7711,嘉峪关市,气象局,,36,27,33,0,13,114,,137,134,11,20,4,12,0.4,0.4
2024-05-11T2100,2884A,98.2672,39.7978,嘉峪关市,酒钢宾馆,,37,24,34,7,14,116,,137,134,10,14,5,17,0.2,0.4
2024-05-11T2100,3248A,98.2643,39.7724,嘉峪关市,雄关区,,35,24,29,16,15,110,,137,135,12,17,5,9,0.3,0.4
2024-05-11T2100,1383A,113.1064,22.6058,江门市,北街,,22,21,35,15,16,64,,105,91,13,19,4,4,0.6,0.5
2024-05-11T2100,1384A,113.0731,22.5835,江门市,西区,,46,46,39,21,17,66,,112,100,17,18,8,8,0.5,0.4
2024-05-11T2100,1385A,113.0219,22.5311,江门市,圭峰西,,38,38,35,17,16,71,,108,100,15,16,4,4,0.7,0.6
2024-05-11T2100,1386A,113.0828,22.5947,江门市,东湖,,41,41,37,20,20,70,,112,98,14,18,8,6,0.6,0.6
2024-05-11T2100,3311A,113.1075,22.5647,江门市,江海富民,,41,41,49,21,18,65,,110,97,15,19,5,5,0.5,0.4
2024-05-11T2100,3449A,113.05,22.4667,江门市,新会银湖,,26,26,34,16,17,68,,111,102,18,16,4,3,0.6,0.6
2024-05-11T2100,1828A,113.227,35.2125,焦作市,市环保局,颗粒物(PM10),144,237,156,61,53,99,,124,124,20,12,5,4,0.4,0.4
2024-05-11T2100,3169A,113.2725,35.2067,焦作市,太极体育中心,颗粒物(PM10),158,265,189,57,45,100,,122,122,19,15,9,5,0.2,0.2
2024-05-11T2100,3335A,113.3137,35.2641,焦作市,马村街道办,颗粒物(PM10),152,254,185,66,47,88,,119,117,18,9,4,4,0.4,0.4
2024-05-11T2100,3336A,113.2465,35.2373,焦作市,焦作技师学院,颗粒物(PM10),180,310,178,56,42,91,,117,117,24,13,3,3,0.4,0.3
2024-05-11T2100,3477A,113.1656,35.2539,焦作市,中站许衡医院,颗粒物(PM10),151,252,143,68,46,106,,127,127,18,10,7,7,0.3,0.3
2024-05-11T2100,3981A,113.2449,35.1803,焦作市,原李万街道办,颗粒物(PM10),129,208,160,58,39,94,,112,112,12,10,11,8,0.5,0.4
2024-05-11T2100,1708A,116.3701,23.5345,揭阳市,新兴,颗粒物(PM10),81,111,62,41,30,85,,144,135,32,23,8,11,0.7,0.7
2024-05-11T2100,1709A,116.3264,23.5443,揭阳市,西马,颗粒物(PM10),65,79,64,26,28,90,,142,132,17,19,7,9,0.9,0.8
2024-05-11T2100,1710A,116.3611,23.5626,揭阳市,东兴,颗粒物(PM10),66,81,63,26,28,91,,143,136,15,17,8,11,0.8,0.8
2024-05-11T2100,1711A,116.4151,23.5294,揭阳市,渔湖,颗粒物(PM10),56,61,62,26,24,82,,141,133,11,23,7,14,0.8,0.7
2024-05-11T2100,3320A,116.403,23.5699,揭阳市,曲溪,,49,49,53,26,26,79,,145,136,18,21,8,13,1.2,0.7
2024-05-11T2100,1944A,102.1692,38.5167,金昌市,天庆家园,,34,22,30,10,12,107,,137,133,15,16,7,14,0.4,0.4
2024-05-11T2100,3170A,102.1864,38.5253,金昌市,市委党校,,38,19,37,6,14,120,,139,136,6,20,16,27,0.4,0.5
2024-05-11T2100,4022A,102.1647,38.5371,金昌市,金川区人防中心,,36,20,31,7,12,115,,139,134,10,12,7,15,0.7,0.5
2024-05-11T2100,1262A,119.647,29.077,金华市,十五中,细颗粒物(PM2.5),67,60,48,48,33,54,,88,86,28,23,4,5,0.8,0.6
2024-05-11T2100,1263A,119.686,29.1029,金华市,监测站,细颗粒物(PM2.5),57,60,48,40,30,42,,87,84,35,22,2,3,0.7,0.5
2024-05-11T2100,3659A,119.656,29.1131,金华市,气象局,细颗粒物(PM2.5),62,57,47,44,29,64,,88,87,26,23,4,6,0.9,0.5
2024-05-11T2100,1767A,121.1115,41.0879,锦州市,南山,,29,21,119,11,21,90,,102,99,14,13,9,9,0.5,0.5
2024-05-11T2100,1768A,121.0533,40.8434,锦州市,开发区,,31,31,159,6,24,43,,91,81,51,30,15,11,0.4,0.5
2024-05-11T2100,1769A,121.1836,41.1119,锦州市,百股街道,,29,19,126,9,26,90,,101,98,12,14,7,8,0.5,0.5
2024-05-11T2100,1770A,121.1178,41.1222,锦州市,天安街道,,28,22,126,5,19,88,,96,94,8,12,8,13,0.5,0.6
2024-05-11T2100,1771A,121.1303,41.1386,锦州市,北湖公园,,27,17,104,5,17,84,,94,92,11,14,6,9,0.5,0.6
2024-05-11T2100,2160A,112.85,35.5051,晋城市,自来水公司,颗粒物(PM10),116,181,114,36,18,113,,129,128,30,18,9,6,0.7,0.6
2024-05-11T2100,2161A,112.8318,35.4936,晋城市,白云商贸,颗粒物(PM10),102,154,113,29,14,110,,130,128,35,17,11,9,0.6,0.4
2024-05-11T2100,2162A,112.8508,35.4887,晋城市,市环保局,颗粒物(PM10),128,205,135,41,18,111,,128,127,30,16,10,8,0.6,0.5
2024-05-11T2100,2163A,112.8676,35.4897,晋城市,技术学院,颗粒物(PM10),115,179,133,41,23,110,,127,126,33,18,10,10,0.7,0.8
2024-05-11T2100,3620A,112.8271,35.4828,晋城市,泽州一中,颗粒物(PM10),83,116,122,31,15,114,,131,130,30,19,8,7,1.0,0.6
2024-05-11T2100,2171A,112.7532,37.6945,晋中市,锦纶小区,颗粒物(PM10),64,78,198,14,32,89,,116,112,31,16,8,9,0.2,0.2
2024-05-11T2100,2173A,112.7249,37.7067,晋中市,南都小区,颗粒物(PM10),59,67,182,17,30,84,,116,110,34,15,8,7,0.3,0.2
2024-05-11T2100,2174A,112.6991,37.6982,晋中市,榆次区政府,颗粒物(PM10),69,88,83,23,18,83,,120,114,37,15,8,6,0.3,0.2
2024-05-11T2100,2865A,112.7195,37.6828,晋中市,榆次三中,颗粒物(PM10),64,78,214,17,37,96,,119,116,25,12,8,8,0.4,0.3
2024-05-11T2100,2439A,112.2014,31.0481,荆门市,竹园小学,颗粒物(PM10),107,163,81,31,43,96,,126,124,23,15,8,10,0.6,0.6
2024-05-11T2100,2440A,112.1969,30.9891,荆门市,掇刀,颗粒物(PM10),110,170,82,33,47,108,,131,131,25,17,8,10,0.5,0.6
2024-05-11T2100,2441A,112.2213,31.0386,荆门市,石化一小,颗粒物(PM10),98,146,88,34,49,104,,131,131,24,18,16,10,0.7,0.8
2024-05-11T2100,3012A,112.1849,31.0362,荆门市,西山林语,颗粒物(PM10),107,164,74,20,39,122,,132,132,12,11,10,10,0.7,0.6
2024-05-11T2100,3547A,112.1632,31.0138,荆门市,龙泉中学南校,颗粒物(PM10),108,165,79,37,33,107,,129,129,15,12,10,9,0.3,0.5
2024-05-11T2100,1844A,112.2494,30.3197,荆州市,市图书馆,颗粒物(PM10),78,105,56,35,39,67,,108,106,43,17,6,7,0.7,0.7
2024-05-11T2100,1845A,112.2008,30.3544,荆州市,市委党校,颗粒物(PM10),71,92,61,31,37,71,,113,110,35,16,7,7,0.7,0.8
2024-05-11T2100,3194A,112.2747,30.3122,荆州市,管委会,颗粒物(PM10),73,95,63,25,38,79,,108,106,28,14,6,5,0.6,0.6
2024-05-11T2100,3548A,112.1655,30.3364,荆州市,学苑路,颗粒物(PM10),64,78,53,34,46,93,,121,120,19,11,6,6,0.5,0.6
2024-05-11T2100,2343A,117.2117,29.2933,景德镇市,老干部活动中心,,33,30,36,23,28,53,,62,59,11,13,4,7,0.4,0.5
2024-05-11T2100,2344A,117.1894,29.2789,景德镇市,兽医站,,40,40,40,20,28,38,,76,69,9,13,7,8,0.7,0.7
2024-05-11T2100,2345A,117.1547,29.2617,景德镇市,台达陶瓷,,32,22,55,22,28,41,,72,67,33,28,5,12,0.4,0.4
2024-05-11T2100,2346A,117.2461,29.2956,景德镇市,陶研所,,31,31,33,19,20,69,,74,74,9,9,4,6,0.3,0.2
2024-05-11T2100,1803A,115.9872,29.6815,九江市,十里,,44,44,50,28,42,50,,72,66,4,9,10,91,1.0,0.8
2024-05-11T2100,1804A,115.9584,29.7046,九江市,茅山头,细颗粒物(PM2.5),58,43,49,41,40,30,,68,60,49,38,11,11,1.0,0.8
2024-05-11T2100,1805A,115.9877,29.7295,九江市,西园,,42,34,52,29,39,19,,63,51,51,35,16,21,1.2,0.9
2024-05-11T2100,1806A,116.0172,29.6547,九江市,五七二七厂,,43,33,40,30,34,63,,56,56,15,16,10,10,1.0,0.8
2024-05-11T2100,1808A,115.9114,29.6038,九江市,综合工业园,,40,40,46,27,34,33,,64,58,44,31,10,11,1.1,1
2024-05-11T2100,1809A,116.0721,29.7535,九江市,石化总厂,,39,39,45,19,34,33,,74,55,59,25,13,15,1.1,0.8
2024-05-11T2100,1810A,115.9773,29.5698,九江市,庐山气象台,,32,,17,6,15,101,,92,80,5,4,7,10,0.9,0.8
2024-05-11T2100,3190A,116.0254,29.6994,九江市,外国语学校,,45,34,40,31,39,59,,63,63,35,28,9,13,1.0,0.8
2024-05-11T2100,2658A,98.5061,39.7443,酒泉市,仓门街子站,,44,44,31,8,15,99,,130,126,19,13,9,14,0.4,0.4
2024-05-11T2100,2659A,98.4989,39.7256,酒泉市,油田生活基地,,44,44,33,16,18,108,,133,130,15,14,12,14,0.3,0.3
2024-05-11T2100,2698A,76.0072,39.4467,喀什地区,巡警大队,颗粒物(PM10),137,224,452,51,84,90,,112,111,37,19,2,2,0.3,0.2
2024-05-11T2100,2699A,75.9755,39.4694,喀什地区,吾办,颗粒物(PM10),146,242,443,88,155,101,,112,112,23,18,4,4,0.4,0.3
2024-05-11T2100,4027A,75.9483,39.4689,喀什地区,老干局,颗粒物(PM10),148,246,513,65,110,87,,112,110,29,16,5,5,0.4,0.3
2024-05-11T2100,1824A,114.3389,34.7781,开封市,肿瘤医院,颗粒物(PM10),163,276,219,49,35,79,,118,111,28,11,6,3,0.4,0.3
2024-05-11T2100,1826A,114.2885,34.7965,开封市,世纪星幼儿园,细颗粒物(PM2.5),150,204,161,115,52,86,,111,109,22,12,21,6,0.2,0.3
2024-05-11T2100,3147A,114.3438,34.8106,开封市,龙亭公园,颗粒物(PM10),129,207,209,43,55,88,,110,106,16,10,5,5,0.3,0.4
2024-05-11T2100,3210A,114.3644,34.7964,开封市,汴京公园,颗粒物(PM10),136,222,192,69,58,91,,114,110,19,12,4,4,0.3,0.4
2024-05-11T2100,3473A,114.2485,34.8306,开封市,技师学院,颗粒物(PM10),122,193,198,52,47,95,,113,112,20,13,10,6,0.2,0.3
2024-05-11T2100,3592A,114.4644,34.7556,开封市,祥符区生态环境局,颗粒物(PM10),138,226,217,77,68,67,,101,93,31,18,6,7,0.2,0.3
2024-05-11T2100,1951A,84.895,45.6094,克拉玛依市,长征新村,颗粒物(PM10),63,76,22,19,5,83,,138,133,4,10,8,9,0.2,0.2
2024-05-11T2100,1952A,84.8988,45.5893,克拉玛依市,南林小区,颗粒物(PM10),66,81,28,11,15,88,,136,132,6,20,7,7,0.3,0.5
2024-05-11T2100,1954A,84.905,44.3396,克拉玛依市,独山子区,,45,31,36,13,15,144,,153,153,8,9,8,9,0.4,0.4
2024-05-11T2100,1955A,85.6979,46.098,克拉玛依市,乌尔禾区商贸楼,颗粒物(PM10),83,116,22,25,9,90,,126,122,2,11,11,11,0.2,0.2
2024-05-11T2100,3612A,85.1045,45.6899,克拉玛依市,白碱滩区新站,颗粒物(PM10),57,63,19,24,13,95,,134,130,3,10,8,8,0.1,0.1
2024-05-11T2100,2697A,76.1454,39.7142,克孜勒苏柯尔克孜自治州,市人民政府,颗粒物(PM10),122,193,370,69,135,113,,115,115,4,7,7,6,0.2,0.3
2024-05-11T2100,3665A,76.1658,39.7157,克孜勒苏柯尔克孜自治州,克州文化中心,颗粒物(PM10),128,206,368,65,124,125,,123,123,2,6,8,8,0.3,0.3
2024-05-11T2100,1450A,102.8204,24.8886,昆明市,呈贡新区,,34,24,23,16,15,107,,124,123,14,11,1,4,0.6,0.7
2024-05-11T2100,1452A,102.7252,25.0902,昆明市,龙泉镇,颗粒物(PM10),51,51,27,10,13,109,,125,124,13,17,6,7,0.4,0.3
2024-05-11T2100,1453A,102.7266,25.0375,昆明市,东风东路,,33,23,24,11,13,105,,116,115,11,12,6,7,0.5,0.5
2024-05-11T2100,1454A,102.6742,25.0669,昆明市,金鼎山,,,,27,,15,,,125,125,10,14,7,3,0.5,0.5
2024-05-11T2100,1455A,102.6644,25.0401,昆明市,碧鸡广场,,39,27,24,27,18,112,,120,120,10,14,4,5,0.5,0.6
2024-05-11T2100,3179A,102.7494,25.0119,昆明市,官渡区博物馆,,48,48,24,19,15,113,,128,128,12,10,8,9,0.4,0.5
2024-05-11T2100,3375A,102.8017,24.8336,昆明市,青年创业园,,35,26,23,16,14,112,,130,129,11,11,8,8,0.5,0.5
2024-05-11T2100,3550A,102.7997,24.9786,昆明市,昆明学院,,36,24,24,12,15,113,,126,126,14,12,8,9,0.5,0.6
2024-05-11T2100,3551A,102.5967,24.6736,昆明市,晋宁区生态环境分局,,34,27,23,14,15,108,,122,122,12,10,2,3,0.7,0.7
2024-05-11T2100,3552A,102.6678,24.9856,昆明市,云天化总部,,36,23,19,12,12,114,,128,127,10,6,7,8,0.6,0.6
2024-05-11T2100,1456A,91.1319,29.6514,拉萨市,八廓街,,39,27,22,13,13,123,,138,136,16,9,8,7,0.3,0.3
2024-05-11T2100,1457A,91.1221,29.6747,拉萨市,市环保局,,39,26,25,13,13,123,,128,128,19,19,6,6,0.3,0.4
2024-05-11T2100,1458A,91.0874,29.6475,拉萨市,区监测站,,39,21,20,10,12,124,,133,132,19,17,6,5,0.2,0.2
2024-05-11T2100,1459A,91.1774,29.6541,拉萨市,西藏大学,,37,29,23,20,12,117,,137,134,23,12,4,4,0.4,0.3
2024-05-11T2100,1460A,90.9798,29.6588,拉萨市,区辐射站,,35,26,27,13,15,111,,129,127,25,22,7,7,0.4,0.4
2024-05-11T2100,1461A,91.0834,29.6292,拉萨市,拉萨火车站,,38,19,20,11,12,121,,134,133,20,17,7,6,0.2,0.4
2024-05-11T2100,2520A,109.2203,23.7256,来宾市,来宾技工学校,,37,37,40,21,24,55,,81,78,13,9,6,7,0.7,0.7
2024-05-11T2100,3535A,109.1781,23.7297,来宾市,兴宾区政府,,33,33,34,14,21,59,,76,74,13,8,5,6,0.6,0.6
2024-05-11T2100,4002A,109.2416,23.7461,来宾市,中南小学,,50,39,42,35,27,53,,86,82,18,12,9,7,0.9,0.8
2024-05-11T2100,1476A,103.631,36.1031,兰州市,兰炼宾馆,颗粒物(PM10),71,91,46,46,28,99,,144,141,42,28,6,5,0.3,0.3
2024-05-11T2100,1478A,103.8412,36.0726,兰州市,生物制品所,颗粒物(PM10),63,75,52,37,37,90,,129,127,47,32,10,12,0.4,0.3
2024-05-11T2100,1479A,103.831,36.0464,兰州市,铁路设计院,颗粒物(PM10),59,68,53,31,24,91,,126,125,54,36,8,11,0.4,0.4
2024-05-11T2100,3186A,103.7158,36.1058,兰州市,教育港,颗粒物(PM10),83,115,58,43,28,92,,144,141,42,20,7,7,0.5,0.4
2024-05-11T2100,3241A,103.7439,36.0842,兰州市,百合公园,颗粒物(PM10),64,78,48,30,21,82,,132,129,42,25,2,4,0.5,0.3
2024-05-11T2100,3242A,103.9611,35.998,兰州市,和平,颗粒物(PM10),61,72,53,24,18,97,,138,134,21,22,8,10,0.4,0.5
2024-05-11T2100,3245A,103.6633,36.533,兰州新区,新区管委会,颗粒物(PM10),70,90,49,41,23,118,,132,132,14,11,11,12,0.5,0.4
2024-05-11T2100,3246A,103.6975,36.4789,兰州新区,舟曲中学,颗粒物(PM10),74,97,56,22,22,108,,128,128,24,10,15,13,0.4,0.4
2024-05-11T2100,1067A,116.6708,39.5111,廊坊市,药材公司,,30,26,296,10,144,94,,103,102,12,9,3,3,0.4,0.4
2024-05-11T2100,1068A,116.7214,39.5589,廊坊市,开发区,,33,33,288,10,53,90,,103,102,14,9,2,1,0.3,0.2
2024-05-11T2100,1070A,116.7244,39.5269,廊坊市,北华航天学院,,,,370,,70,91,,102,100,17,12,1,2,0.2,0.2
2024-05-11T2100,2919A,116.7022,39.5453,廊坊市,河北工业大学,,39,39,297,11,64,86,,100,98,14,8,3,3,0.3,0.2
2024-05-11T2100,2535A,103.7723,29.5462,乐山市,花湖湾,,26,19,30,18,24,70,,82,82,16,15,3,3,0.5,0.7
2024-05-11T2100,2536A,103.7627,29.5844,乐山市,牛耳桥,,37,37,31,14,23,67,,86,85,24,22,4,5,0.4,0.6
2024-05-11T2100,2537A,103.7508,29.6006,乐山市,市第三水厂,,44,44,33,17,21,64,,81,81,25,20,3,4,0.4,0.5
2024-05-11T2100,2538A,103.7571,29.5664,乐山市,市监测站,,41,41,34,21,23,72,,90,90,19,15,5,7,0.4,0.6
2024-05-11T2100,3361A,103.7311,29.5628,乐山市,理工大学,,40,40,32,21,23,51,,85,83,22,16,6,7,0.4,0.6
2024-05-11T2100,2599A,100.2497,26.8802,丽江市,丽江古城,,37,21,30,15,18,118,,132,130,12,11,7,6,0.5,0.5
2024-05-11T2100,2600A,100.2203,26.8906,丽江市,市中心,,37,17,22,14,12,116,,131,127,12,11,9,9,0.5,0.6
2024-05-11T2100,1267A,119.914,28.4514,丽水市,监测站大楼,,50,50,33,29,29,14,,71,63,40,20,3,3,0.8,0.4
2024-05-11T2100,1268A,119.93,28.4586,丽水市,莲都小学,,39,39,38,20,23,9,,72,62,34,28,4,4,0.6,0.5
2024-05-11T2100,1269A,119.879,28.4231,丽水市,余庄前,,32,32,36,20,26,4,,63,52,11,17,3,3,0.6,0.5
2024-05-11T2100,1173A,119.176,34.5885,连云港市,市环境监测站,颗粒物(PM10),258,390,229,80,68,80,,91,90,17,18,6,7,0.2,0.3
2024-05-11T2100,3000A,119.3581,34.6972,连云港市,德源药业,颗粒物(PM10),179,307,210,66,61,42,,94,84,46,19,5,6,0.4,0.5
2024-05-11T2100,3007A,119.178,34.844,连云港市,新城一中,颗粒物(PM10),166,281,161,95,59,58,,104,91,45,26,5,7,0.5,0.7
2024-05-11T2100,3008A,119.3608,34.7519,连云港市,胡沟管理处,颗粒物(PM10),178,305,199,63,55,80,,123,83,20,16,6,8,0.3,0.5
2024-05-11T2100,3009A,119.1478,34.5911,连云港市,矿山设计院,颗粒物(PM10),255,388,246,85,68,78,,93,91,20,20,6,8,0.6,0.7
2024-05-11T2100,3434A,119.2413,34.6539,连云港市,工贸学校,颗粒物(PM10),172,294,245,70,65,90,,124,100,12,13,7,9,0.4,0.6
2024-05-11T2100,3664A,119.4172,34.7341,连云港市,连云街道,颗粒物(PM10),169,288,189,64,52,60,,140,96,41,14,3,4,0.4,0.7
2024-05-11T2100,2571A,102.3431,27.8099,凉山彝族自治州,青龙寺,,24,10,13,3,6,76,,83,68,6,8,7,6,0.5,0.5
2024-05-11T2100,2572A,102.2721,27.8415,凉山彝族自治州,邛海宾馆,,25,9,13,5,7,79,,91,86,7,12,9,9,0.6,0.6
2024-05-11T2100,2573A,102.2625,27.898,凉山彝族自治州,西昌市政府,,25,11,13,11,9,77,,89,80,6,7,10,8,0.5,0.5
2024-05-11T2100,2574A,102.2685,27.8851,凉山彝族自治州,凉山州政府,,25,10,16,5,10,77,,88,82,7,9,8,7,0.5,0.5
2024-05-11T2100,2575A,102.237,27.8914,凉山彝族自治州,长安,,25,14,20,7,11,80,,92,88,9,13,11,12,0.6,0.7
2024-05-11T2100,2212A,123.2,41.1953,辽阳市,宏伟区,颗粒物(PM10),79,108,110,17,20,67,,89,80,12,12,9,10,0.5,0.5
2024-05-11T2100,2213A,123.1683,41.2495,辽阳市,新华园,颗粒物(PM10),78,105,115,21,25,60,,94,80,18,14,9,10,0.4,0.5
2024-05-11T2100,2214A,123.2354,41.2639,辽阳市,滨河路,颗粒物(PM10),88,126,137,55,40,64,,95,84,14,11,8,8,0.3,0.3
2024-05-11T2100,2215A,123.149,41.2991,辽阳市,铁西工业园,颗粒物(PM10),86,122,128,21,27,53,,94,78,20,14,11,11,0.3,0.4
2024-05-11T2100,2227A,125.1358,42.8845,辽源市,环保局,颗粒物(PM10),72,93,59,12,12,82,,100,88,4,6,6,6,0.4,0.4
2024-05-11T2100,3239A,125.0764,42.9078,辽源市,银鹰制药,颗粒物(PM10),84,117,78,17,16,74,,92,81,11,11,15,9,0.4,0.4
2024-05-11T2100,1625A,115.9848,36.4372,聊城市,区政府,颗粒物(PM10),108,166,274,33,54,96,,123,122,27,12,4,4,0.5,0.5
2024-05-11T2100,2878A,116.0072,36.4343,聊城市,聊大东校,颗粒物(PM10),89,128,275,34,54,92,,122,120,23,10,5,5,0.4,0.5
2024-05-11T2100,3200A,115.9819,36.4978,聊城市,监控中心,颗粒物(PM10),73,95,210,27,38,83,,123,120,39,10,5,6,0.4,0.4
2024-05-11T2100,3513A,116.0445,36.4361,聊城市,九州社区,颗粒物(PM10),103,155,254,34,54,94,,128,125,24,10,3,5,0.3,0.4
2024-05-11T2100,4018A,116.0567,36.4608,聊城市,星美广场,颗粒物(PM10),98,145,278,24,50,104,,123,121,26,16,4,5,0.4,0.5
2024-05-11T2100,2632A,94.3681,29.6376,林芝市,林芝监测站,,,16,8,3,8,,,125,125,4,3,6,6,0.4,0.5
2024-05-11T2100,2633A,94.3616,29.6616,林芝市,林芝人民医院,,35,18,12,12,7,109,,125,125,11,6,7,7,0.3,0.4
2024-05-11T2100,2603A,100.0781,23.8982,临沧市,市环保局,,50,43,27,35,20,97,,116,114,15,11,8,7,0.3,0.3
2024-05-11T2100,2604A,100.0894,23.8822,临沧市,市气象局,,46,37,27,32,23,103,,114,112,12,14,6,7,0.6,0.6
2024-05-11T2100,1733A,111.5531,36.0783,临汾市,临钢医院,颗粒物(PM10),61,72,212,19,36,95,,122,117,24,12,6,6,0.4,0.3
2024-05-11T2100,1734A,111.5028,36.0714,临汾市,技工学校,颗粒物(PM10),70,90,171,28,37,82,,122,118,39,15,3,4,0.4,0.3
2024-05-11T2100,1736A,111.5018,36.0855,临汾市,市委,颗粒物(PM10),69,88,201,23,42,76,,131,125,40,6,6,6,0.7,0.6
2024-05-11T2100,3018A,111.505,36.1014,临汾市,唐尧大酒店,颗粒物(PM10),69,88,193,18,36,80,,121,116,35,11,3,4,0.5,0.4
2024-05-11T2100,3668A,111.5036,36.0414,临汾市,城南,颗粒物(PM10),69,88,173,28,36,68,,124,117,59,17,5,5,0.4,0.3
2024-05-11T2100,2667A,103.2069,35.5993,临夏回族自治州,环保局,颗粒物(PM10),64,78,54,25,21,65,,111,108,34,7,4,3,0.4,0.3
2024-05-11T2100,2668A,103.2417,35.6057,临夏回族自治州,建设大厦,颗粒物(PM10),76,102,49,30,19,66,,112,110,37,7,9,8,0.4,0.3
2024-05-11T2100,1618A,118.3429,35.0532,临沂市,沂河小区,颗粒物(PM10),198,346,306,140,115,81,,105,105,21,23,16,12,0.4,0.4
2024-05-11T2100,1619A,118.295,35.0583,临沂市,鲁南制药厂,颗粒物(PM10),165,280,284,104,86,88,,116,115,21,20,18,10,0.4,0.4
2024-05-11T2100,1620A,118.2794,34.9976,临沂市,新光毛纺厂,颗粒物(PM10),176,302,293,70,63,85,,113,109,20,22,11,10,0.6,0.6
2024-05-11T2100,1621A,118.3956,35.0888,临沂市,河东保险公司,颗粒物(PM10),187,324,280,78,81,73,,107,105,37,19,13,9,0.5,0.3
2024-05-11T2100,3370A,118.3564,35.0215,临沂市,十里堡居委,颗粒物(PM10),194,337,305,78,114,80,,110,108,23,21,13,12,0.5,0.4
2024-05-11T2100,3496A,118.3604,35.1084,临沂市,南坊新区,颗粒物(PM10),191,332,286,66,72,81,,110,108,31,20,16,11,0.6,0.5
2024-05-11T2100,3860A,118.3920,35.0300,临沂市,皇山花园小区,颗粒物(PM10),230,371,320,82,72,74,,109,107,38,19,18,13,0.7,0.5
2024-05-11T2100,1870A,109.4856,24.3895,柳州市,柳东小学,,28,28,32,16,19,82,,89,89,11,9,7,7,0.5,0.5
2024-05-11T2100,1871A,109.4157,24.3277,柳州市,环保监测站,,44,44,38,22,20,65,,82,81,15,9,7,7,0.7,0.7
2024-05-11T2100,1872A,109.389,24.341,柳州市,河西水厂,,35,34,39,24,22,69,,82,82,14,8,6,6,0.9,0.8
2024-05-11T2100,1873A,109.4311,24.2921,柳州市,市四中,,,,39,24,21,70,,85,84,17,10,6,5,0.7,0.7
2024-05-11T2100,1874A,109.4006,24.3631,柳州市,市九中,,,52,43,,22,66,,65,,21,14,7,6,1.1,0.7
2024-05-11T2100,1875A,109.4958,24.3134,柳州市,古亭山,,42,42,36,21,19,66,,85,83,27,12,5,5,0.5,0.5
2024-05-11T2100,3402A,109.5422,24.3996,柳州市,市二中,,30,30,35,18,18,80,,86,86,13,12,8,9,0.4,0.4
2024-05-11T2100,2307A,116.5079,31.737,六安市,监测大楼,细颗粒物(PM2.5),73,94,50,53,31,97,,88,88,10,11,5,5,0.7,0.6
2024-05-11T2100,2308A,116.4738,31.7643,六安市,皖西学院,颗粒物(PM10),79,108,61,56,29,100,,93,93,12,10,4,4,0.6,0.6
2024-05-11T2100,2309A,116.4996,31.7905,六安市,朝阳厂,细颗粒物(PM2.5),77,92,48,56,30,88,,82,82,10,8,6,5,0.5,0.4
2024-05-11T2100,2310A,116.5567,31.7886,六安市,开发区,颗粒物(PM10),79,108,59,52,34,86,,86,86,18,14,9,9,0.7,0.7
2024-05-11T2100,2577A,104.83,26.5917,六盘水市,黄土坡,,28,9,15,3,11,88,,90,88,6,11,5,6,0.3,0.4
2024-05-11T2100,2578A,104.89,26.5939,六盘水市,水钢,,24,14,18,3,13,76,,91,76,22,15,8,8,0.3,0.5
2024-05-11T2100,2579A,104.8475,26.5894,六盘水市,民中,,27,8,13,2,8,85,,87,87,8,10,6,6,0.4,0.5
2024-05-11T2100,2580A,104.9544,26.5506,六盘水市,双水,,29,2,9,2,8,90,,95,93,6,6,6,6,0.4,0.4
2024-05-11T2100,2336A,117.0217,25.1033,龙岩市,龙岩市监测站,,25,22,40,17,27,65,,88,77,8,19,7,7,0.4,0.5
2024-05-11T2100,2337A,117.0258,25.0661,龙岩市,闽西职业技术学院,,20,19,44,14,26,53,,83,70,8,18,12,15,0.4,0.5
2024-05-11T2100,2338A,117.0196,25.0306,龙岩市,龙岩学院,,19,15,34,9,20,58,,94,76,5,8,2,3,0.5,0.5
2024-05-11T2100,2885A,104.9339,33.3826,陇南市,滨江中学,颗粒物(PM10),87,123,77,32,21,84,,100,99,2,3,4,5,0.6,0.6
2024-05-11T2100,3247A,104.955,33.371,陇南市,市总工会,颗粒物(PM10),82,114,63,23,12,81,,94,91,3,5,5,6,0.4,0.6
2024-05-11T2100,2487A,111.9589,27.8901,娄底市,电视发射台,,42,42,40,29,26,23,,66,62,5,7,6,5,0.8,1
2024-05-11T2100,2488A,111.9975,27.725,娄底市,市监测站,颗粒物(PM10),57,63,53,28,38,35,,72,61,30,16,4,6,1.2,0.9
2024-05-11T2100,2489A,112.0194,27.7314,娄底市,市委党校,细颗粒物(PM2.5),57,53,51,40,38,13,,67,54,45,16,7,8,1.0,0.6
2024-05-11T2100,2490A,111.9561,27.7569,娄底市,涟钢,,44,44,49,22,35,41,,58,53,20,20,9,14,0.6,0.8
2024-05-11T2100,2491A,111.9892,27.7044,娄底市,市政府,,29,21,43,20,35,34,,76,57,15,16,5,8,0.6,0.7
2024-05-11T2100,1893A,105.4324,28.9634,泸州市,九狮山,颗粒物(PM10),59,67,41,17,19,59,,67,64,9,10,5,5,0.2,0.2
2024-05-11T2100,1894A,105.4427,28.9063,泸州市,小市上码头,,49,49,39,28,26,60,,67,63,15,12,6,6,0.2,0.3
2024-05-11T2100,1895A,105.4241,28.8573,泸州市,兰田宪桥,,45,45,38,25,25,62,,70,65,8,10,5,5,0.3,0.3
2024-05-11T2100,1896A,105.4379,28.8833,泸州市,市环监站,颗粒物(PM10),51,51,35,22,26,62,,70,64,16,13,4,4,0.3,0.4
2024-05-11T2100,3490A,105.3617,28.7703,泸州市,纳溪区环保局,颗粒物(PM10),59,68,33,22,21,52,,70,58,27,23,3,2,0.2,0.3
2024-05-11T2100,2183A,111.1406,37.5211,吕梁市,环保局,细颗粒物(PM2.5),57,,307,40,64,31,,122,109,70,14,2,2,0.3,0.3
2024-05-11T2100,2185A,111.1297,37.5136,吕梁市,自来水公司,颗粒物(PM10),55,60,242,25,64,81,,116,113,25,11,4,4,0.4,0.2
2024-05-11T2100,2867A,111.1283,37.51,吕梁市,马茂庄小学,颗粒物(PM10),84,118,270,28,62,55,,123,114,45,14,4,2,0.4,0.2
2024-05-11T2100,1812A,112.3931,34.6516,洛阳市,市委党校,颗粒物(PM10),106,162,154,61,50,108,,121,120,16,19,4,5,0.3,0.4
2024-05-11T2100,1814A,112.4657,34.6871,洛阳市,豫西宾馆,颗粒物(PM10),122,193,173,51,40,99,,125,123,29,18,12,9,0.3,0.4
2024-05-11T2100,1815A,112.494,34.6886,洛阳市,河南林校,颗粒物(PM10),120,189,155,55,43,101,,122,121,26,19,11,8,0.3,0.4
2024-05-11T2100,1816A,112.3844,34.623,洛阳市,开发区管委会,颗粒物(PM10),111,172,155,60,53,110,,122,121,11,13,4,5,0.2,0.3
2024-05-11T2100,1817A,112.4267,34.6258,洛阳市,市委新办公区,颗粒物(PM10),108,165,152,46,43,109,,124,123,18,17,6,7,0.5,0.6
2024-05-11T2100,3340A,112.6005,34.6326,洛阳市,伊滨,颗粒物(PM10),121,191,156,50,43,105,,119,119,22,18,7,7,0.2,0.4
2024-05-11T2100,3341A,112.4951,34.6332,洛阳市,中移产业园,颗粒物(PM10),110,170,157,68,48,110,,123,123,17,17,5,7,0.2,0.5
2024-05-11T2100,3593A,112.5736,34.8993,洛阳市,吉利监测站,颗粒物(PM10),107,163,158,50,38,112,,124,122,20,21,3,3,0.4,0.4
2024-05-11T2100,3635A,112.3677,34.662,洛阳市,河科大西苑校区,颗粒物(PM10),112,174,175,54,41,101,,119,118,14,14,4,5,0.3,0.4
2024-05-11T2100,3636A,112.4388,34.6781,洛阳市,英才小学,颗粒物(PM10),123,195,170,42,38,101,,125,120,24,18,10,8,0.5,0.5
2024-05-11T2100,2399A,114.051,33.5699,漯河市,三五一五工厂,颗粒物(PM10),142,234,226,64,52,94,,130,127,21,10,6,6,0.4,0.5
2024-05-11T2100,2400A,114.0055,33.5698,漯河市,漯河大学,颗粒物(PM10),134,217,213,48,54,,,140,140,27,12,8,8,0.3,0.4
2024-05-11T2100,2401A,114.0138,33.5828,漯河市,市水利局,颗粒物(PM10),141,232,242,73,59,99,,130,129,20,11,9,8,0.4,0.4
2024-05-11T2100,2402A,114.0261,33.5698,漯河市,市广电局,颗粒物(PM10),138,225,245,55,48,86,,131,127,34,10,6,5,0.3,0.5
2024-05-11T2100,3478A,113.9749,33.5664,漯河市,市图书馆,细颗粒物(PM2.5),168,254,209,127,60,101,,140,137,19,7,4,6,0.4,0.5
2024-05-11T2100,3479A,114.0967,33.5906,漯河市,召陵区卫健委,颗粒物(PM10),149,247,229,87,76,89,,126,121,26,10,10,6,0.4,0.4
2024-05-11T2100,1798A,118.5092,31.6837,马鞍山市,湖东路四小,细颗粒物(PM2.5),73,56,45,53,36,40,,88,66,23,19,5,7,1.0,0.9
2024-05-11T2100,1799A,118.5024,31.6449,马鞍山市,开发区,细颗粒物(PM2.5),77,,44,56,34,35,,82,66,24,20,7,9,1.2,1
2024-05-11T2100,1800A,118.5228,31.7231,马鞍山市,慈湖,细颗粒物(PM2.5),79,85,52,58,38,38,,82,58,29,27,4,7,1.0,1
2024-05-11T2100,1802A,118.6245,31.7241,马鞍山市,濮塘,细颗粒物(PM2.5),70,69,40,51,28,46,,88,67,16,13,3,4,1.5,0.9
2024-05-11T2100,3633A,118.4918,31.6809,马鞍山市,雨山,颗粒物(PM10),65,79,50,41,29,40,,84,62,22,20,9,11,1.0,1
2024-05-11T2100,1686A,111.0286,21.4688,茂名市,电白南海,,48,48,43,19,16,73,,86,78,9,7,8,8,0.5,0.5
2024-05-11T2100,1687A,110.9294,21.6533,茂名市,茂石化七小,,44,44,41,19,19,62,,77,70,10,10,11,11,0.7,0.7
2024-05-11T2100,1688A,110.9107,21.6687,茂名市,健康路,,36,36,38,12,14,60,,75,68,9,8,9,9,0.6,0.6
2024-05-11T2100,1689A,110.8592,21.6828,茂名市,高岭,颗粒物(PM10),54,58,45,19,19,47,,73,66,20,14,7,11,0.8,0.7
2024-05-11T2100,3450A,111.01,21.5165,茂名市,电白水东,,36,36,35,17,15,71,,83,75,14,13,5,6,0.5,0.5
2024-05-11T2100,2539A,104.0308,30.0478,眉山市,黑龙滩水库,,41,41,50,20,35,41,,62,60,11,20,3,3,0.3,0.4
2024-05-11T2100,2540A,103.8416,30.0874,眉山市,气象局,,47,47,46,24,34,73,,75,75,18,23,10,9,0.3,0.4
2024-05-11T2100,3137A,103.8578,30.0744,眉山市,市委党校,,44,44,46,17,25,54,,63,62,33,28,6,6,0.4,0.4
2024-05-11T2100,3148A,103.8291,30.0564,眉山市,区人社局,,41,41,44,17,28,64,,70,70,25,27,9,7,0.3,0.4
2024-05-11T2100,1690A,116.1231,24.3284,梅州市,梅江月梅,,42,35,35,29,19,98,,102,91,9,17,8,6,0.6,0.6
2024-05-11T2100,1691A,116.0797,24.2719,梅州市,梅县新城,,35,30,39,24,21,74,,100,82,10,20,3,4,0.4,0.5
2024-05-11T2100,1692A,116.1248,24.2654,梅州市,环境监控中心,,28,25,39,19,19,64,,88,74,14,28,3,8,0.5,0.6
2024-05-11T2100,3315A,116.1233,24.2991,梅州市,梅龙,颗粒物(PM10),52,53,36,22,17,88,,100,83,12,13,9,10,0.8,0.7
2024-05-11T2100,1878A,104.7778,31.4741,绵阳市,富乐山,颗粒物(PM10),63,76,50,31,27,44,,64,63,37,29,8,8,0.5,0.5
2024-05-11T2100,1879A,104.7563,31.4535,绵阳市,市人大,颗粒物(PM10),71,92,63,35,26,41,,59,57,47,40,4,5,0.6,0.6
2024-05-11T2100,1880A,104.6697,31.4668,绵阳市,高新区自来水公司,颗粒物(PM10),71,91,72,29,26,11,,68,58,76,41,14,11,0.5,0.5
2024-05-11T2100,1881A,104.7287,31.5075,绵阳市,三水厂,颗粒物(PM10),61,71,57,30,30,18,,55,52,72,47,10,8,0.6,0.6
2024-05-11T2100,3491A,104.69,31.5322,绵阳市,西科大附属小学,颗粒物(PM10),67,83,50,33,22,33,,62,48,50,37,10,7,0.5,0.5
2024-05-11T2100,3492A,104.5648,31.5343,绵阳市,安州区旅游局,颗粒物(PM10),68,85,66,40,34,31,,68,62,41,26,8,6,0.6,0.6
2024-05-11T2100,1784A,129.61,44.561,牡丹江市,环保大楼,颗粒物(PM10),60,69,38,30,23,94,,94,93,6,13,5,6,0.3,0.3
2024-05-11T2100,1785A,129.6115,44.5782,牡丹江市,文化广场,颗粒物(PM10),82,113,50,45,34,86,,89,85,11,16,8,9,0.3,0.4
2024-05-11T2100,1786A,129.5904,44.5963,牡丹江市,第一医院,颗粒物(PM10),78,105,43,31,21,84,,92,88,10,13,4,5,0.4,0.4
2024-05-11T2100,1787A,129.6364,44.6075,牡丹江市,机车工厂,颗粒物(PM10),76,102,43,21,14,85,,89,86,11,14,4,5,0.3,0.3
2024-05-11T2100,1788A,129.6386,44.5462,牡丹江市,第一中学,颗粒物(PM10),78,106,46,25,21,94,,100,96,9,15,5,6,0.3,0.3
2024-05-11T2100,2531A,105.0703,29.61,内江市,市监测站,,,65,50,27,39,62,,73,70,24,20,,6,0.4,0.5
2024-05-11T2100,2532A,105.0717,29.5947,内江市,东兴区政府,颗粒物(PM10),62,73,53,22,27,51,,75,71,36,19,10,9,0.4,0.5
2024-05-11T2100,2533A,105.0653,29.5817,内江市,内江二中,颗粒物(PM10),55,59,48,35,38,54,,67,63,26,21,8,7,0.3,0.4
2024-05-11T2100,2534A,105.0406,29.5822,内江市,内江日报社,颗粒物(PM10),51,51,53,19,31,53,,76,70,26,22,6,6,0.4,0.5
2024-05-11T2100,2628A,92.0657,31.4846,那曲市,那曲监测站,,38,22,27,10,13,121,,138,135,15,7,6,5,0.8,0.6
2024-05-11T2100,3128A,92.0506,31.4797,那曲市,那曲会议中心,,42,32,30,11,11,134,,145,143,5,4,3,2,0.5,0.4
2024-05-11T2100,1290A,115.8931,28.6843,南昌市,省外办,颗粒物(PM10),51,51,58,34,39,46,,65,64,36,34,7,6,0.8,0.7
2024-05-11T2100,1291A,115.8886,28.7003,南昌市,省林业公司,,39,29,55,27,42,66,,72,72,24,44,5,5,0.6,0.6
2024-05-11T2100,1292A,115.8126,28.7442,南昌市,林科所,,18,17,41,12,32,53,,76,71,28,32,6,7,0.7,0.5
2024-05-11T2100,1294A,115.8518,28.687,南昌市,建工学校,细颗粒物(PM2.5),62,64,68,44,44,66,,72,72,16,37,4,4,0.7,0.8
2024-05-11T2100,1295A,115.8921,28.6424,南昌市,象湖,颗粒物(PM10),51,52,56,30,42,69,,72,72,15,36,6,5,0.7,0.8
2024-05-11T2100,1296A,115.7423,28.7996,南昌市,武术学校,,34,34,22,23,29,38,,57,45,2,3,9,7,0.5,0.4
2024-05-11T2100,1298A,115.9314,28.6842,南昌市,省站,,49,44,54,34,45,63,,72,72,12,26,8,8,0.8,0.9
2024-05-11T2100,3046A,115.9084,28.6062,南昌市,机电学校,,35,30,62,24,42,74,,68,68,10,30,8,8,0.7,0.8
2024-05-11T2100,3690A,115.9721,28.7031,南昌市,外国语学校,细颗粒物(PM2.5),54,41,57,38,43,60,,67,67,19,32,4,4,0.6,0.7
2024-05-11T2100,1905A,106.056,30.8064,南充市,西山风景区,颗粒物(PM10),67,83,52,34,32,46,,75,70,17,10,6,3,0.4,0.5
2024-05-11T2100,1906A,106.0789,30.8023,南充市,南充市委,颗粒物(PM10),86,121,61,52,37,10,,41,36,59,28,10,5,0.5,0.4
2024-05-11T2100,1907A,106.1031,30.8217,南充市,南充炼油厂,颗粒物(PM10),89,127,79,56,39,18,,53,51,50,26,9,6,0.6,0.4
2024-05-11T2100,1908A,106.1064,30.7856,南充市,高坪区监测站,颗粒物(PM10),91,131,64,45,34,16,,46,43,51,31,8,6,0.2,0.2
2024-05-11T2100,1909A,106.0642,30.7636,南充市,嘉陵区环保局,颗粒物(PM10),84,117,73,48,34,18,,50,45,42,31,6,6,0.4,0.4
2024-05-11T2100,1910A,106.1087,30.8388,南充市,市环境监测站,颗粒物(PM10),93,135,75,40,39,10,,50,48,61,25,8,6,0.9,0.7
2024-05-11T2100,1151A,118.8086,32.1065,南京市,迈皋桥,颗粒物(PM10),65,80,39,44,25,67,,88,64,18,20,4,4,0.6,0.8
2024-05-11T2100,1152A,118.7538,32.0551,南京市,草场门,颗粒物(PM10),59,68,39,36,33,68,,88,70,12,15,2,3,0.4,0.6
2024-05-11T2100,1153A,118.7794,32.0745,南京市,山西路,颗粒物(PM10),63,75,43,31,22,64,,87,68,11,12,4,4,0.4,0.5
2024-05-11T2100,1154A,118.7752,32.0023,南京市,中华门,颗粒物(PM10),53,56,34,34,27,69,,81,66,12,16,6,8,0.7,0.9
2024-05-11T2100,1155A,118.8109,32.0309,南京市,瑞金路,颗粒物(PM10),56,62,43,36,30,71,,78,64,2,10,6,9,0.3,0.5
2024-05-11T2100,1156A,118.7997,32.0754,南京市,玄武湖,颗粒物(PM10),55,60,44,38,26,63,,84,60,10,11,6,8,0.6,1
2024-05-11T2100,1157A,118.6414,32.0931,南京市,浦口,,39,39,38,23,23,64,,76,66,9,10,4,5,0.4,0.6
2024-05-11T2100,1158A,118.7356,31.9996,南京市,奥体中心,颗粒物(PM10),58,65,39,34,33,60,,78,68,13,14,6,8,0.5,0.8
2024-05-11T2100,1159A,118.9125,32.1028,南京市,仙林大学城,颗粒物(PM10),65,80,40,39,21,79,,89,70,15,19,8,12,0.6,0.9
2024-05-11T2100,3422A,118.8436,31.9198,南京市,江宁彩虹桥,,,33,41,29,28,,,86,73,12,13,3,4,0.8,0.8
2024-05-11T2100,3423A,119.0138,31.6494,南京市,溧水永阳,,32,31,28,22,25,58,,101,87,18,13,4,4,0.6,0.5
2024-05-11T2100,3424A,118.879,31.3302,南京市,高淳老职中,,20,,29,14,25,64,,84,77,18,13,4,4,0.5,0.4
2024-05-11T2100,3427A,118.8554,32.3578,南京市,六合雄州,颗粒物(PM10),77,104,39,40,32,83,,92,72,7,9,3,4,0.5,0.7
2024-05-11T2100,1401A,108.3103,22.7881,南宁市,二十一中,,27,27,34,14,15,78,,85,84,11,10,5,4,1.2,0.9
2024-05-11T2100,1402A,108.3141,22.8528,南宁市,北湖,颗粒物(PM10),51,52,34,19,18,69,,84,81,13,10,5,4,0.8,0.7
2024-05-11T2100,1403A,108.3206,22.8225,南宁市,市监测站,,28,,33,19,17,67,,80,78,20,12,6,5,0.7,0.6
2024-05-11T2100,1404A,108.3829,22.8037,南宁市,大自然花园,,26,22,30,18,17,75,,83,83,10,8,5,4,0.6,0.5
2024-05-11T2100,1405A,108.4394,22.7904,南宁市,仙葫,,28,28,31,17,16,69,,74,74,12,10,5,4,0.9,0.8
2024-05-11T2100,1406A,108.2397,22.8467,南宁市,区农职院,,30,29,34,21,18,71,,87,84,18,16,7,5,0.7,0.7
2024-05-11T2100,1407A,108.3275,22.735,南宁市,英华嘉园,,31,31,33,21,18,59,,71,69,22,18,6,6,0.7,0.6
2024-05-11T2100,1408A,108.2257,22.7757,南宁市,沙井镇街道办,,46,46,38,22,19,58,,78,74,17,16,5,5,0.6,0.6
2024-05-11T2100,3401A,108.4834,22.7618,南宁市,红星社区,,39,39,30,24,18,75,,86,86,14,10,10,7,0.8,0.7
2024-05-11T2100,2332A,118.1681,26.6369,南平市,南平市监测站,,50,49,40,35,25,58,,121,104,24,21,5,6,0.9,0.7
2024-05-11T2100,2333A,118.1825,26.6489,南平市,南平铝业有限公司,细颗粒物(PM2.5),67,52,39,48,30,50,,115,101,32,21,8,7,1.0,0.7
2024-05-11T2100,2334A,118.1756,26.6272,南平市,南平七中,细颗粒物(PM2.5),58,50,36,41,26,61,,123,113,22,17,4,5,1.0,0.8
2024-05-11T2100,1168A,120.9098,31.9663,南通市,狼山街道,,30,12,34,5,22,93,,62,60,8,40,8,9,0.7,0.6
2024-05-11T2100,1169A,120.86,32.0005,南通市,虹桥,,30,16,70,7,22,95,,54,53,9,44,4,6,0.6,0.6
2024-05-11T2100,1170A,120.87,32.02,南通市,城中,,21,16,44,13,27,65,,47,46,11,36,4,6,0.7,0.8
2024-05-11T2100,1171A,120.94,31.93,南通市,星湖花园,,25,,34,9,20,78,,70,70,15,39,7,8,0.8,0.7
2024-05-11T2100,1172A,120.81,32.0417,南通市,紫琅学院,,36,6,40,5,21,113,,60,60,11,52,9,11,0.5,0.6
2024-05-11T2100,3291A,121.067,32.062,南通市,通州监测站,,34,14,41,7,19,107,,85,85,6,28,8,10,0.8,0.7
2024-05-11T2100,3432A,120.9348,31.9883,南通市,环境教育馆,,28,19,44,12,25,89,,69,69,16,41,7,8,0.7,0.6
2024-05-11T2100,2404A,112.5224,33.0122,南阳市,瓦房庄,颗粒物(PM10),108,165,122,36,39,113,,132,132,25,15,6,5,0.5,0.4
2024-05-11T2100,2405A,112.5003,32.9735,南阳市,汉画馆,颗粒物(PM10),116,182,137,53,52,92,,129,127,38,16,5,5,0.5,0.5
2024-05-11T2100,2406A,112.5573,33.027,南阳市,气象站,颗粒物(PM10),120,189,134,34,37,116,,138,138,26,14,4,3,0.8,0.8
2024-05-11T2100,2407A,112.5481,32.9689,南阳市,理工学院,颗粒物(PM10),112,173,133,41,43,112,,138,137,23,13,5,4,0.6,0.6
2024-05-11T2100,4008A,112.5234,32.9922,南阳市,卧龙区政府,颗粒物(PM10),113,175,134,37,47,101,,134,132,34,16,5,5,0.7,0.7
2024-05-11T2100,1234A,121.8358,29.911,宁波市,区环保大楼,颗粒物(PM10),52,53,29,18,10,29,,80,70,34,12,4,4,0.9,0.7
2024-05-11T2100,1235A,121.56,29.82,宁波市,万里学院,,30,30,29,19,16,62,,83,81,18,15,4,4,0.6,0.5
2024-05-11T2100,1236A,121.713,29.9572,宁波市,龙赛医院,,34,34,27,16,10,36,,77,71,35,13,6,5,0.6,0.5
2024-05-11T2100,1239A,121.633,29.7733,宁波市,钱湖水厂,,28,28,23,18,17,55,,73,70,8,4,3,3,0.8,0.7
2024-05-11T2100,1240A,121.5856,29.8635,宁波市,太古小学,,28,25,20,19,11,45,,70,68,29,18,5,5,0.9,0.7
2024-05-11T2100,1241A,121.524,29.8674,宁波市,市环境监测中心,,31,31,28,21,14,56,,75,74,22,19,8,8,0.7,0.6
2024-05-11T2100,2871A,121.6147,29.9017,宁波市,万里国际学校,,34,34,31,21,18,46,,81,78,35,16,4,3,0.6,0.5
2024-05-11T2100,3710A,121.5594,29.8975,宁波市,白沙活动中心,,34,34,31,16,10,49,,75,73,25,18,9,9,0.7,0.5
2024-05-11T2100,2341A,119.5388,26.6612,宁德市,宁德市监测站,,38,38,35,24,22,102,,127,127,17,15,8,8,0.6,0.8
2024-05-11T2100,3209A,119.5231,26.6562,宁德市,宁德一中,颗粒物(PM10),51,52,37,23,17,92,,124,122,16,14,7,7,0.7,0.8
2024-05-11T2100,2618A,98.8601,25.8567,怒江傈僳族自治州,州监测站,,32,27,31,22,24,83,,86,86,4,10,8,7,0.4,0.4
2024-05-11T2100,2619A,98.8546,25.8417,怒江傈僳族自治州,泸水一中,,32,27,33,22,27,60,,71,71,15,15,6,6,0.4,0.4
2024-05-11T2100,1888A,101.6891,26.571,攀枝花市,弄弄坪,,37,37,42,13,19,118,,136,131,20,20,24,18,0.6,0.6
2024-05-11T2100,1889A,101.5769,26.5928,攀枝花市,河门口,,41,27,39,15,21,130,,136,135,16,22,25,24,0.5,1
2024-05-11T2100,1890A,101.7169,26.585,攀枝花市,炳草岗,,41,41,47,14,19,126,,147,144,18,27,42,35,0.5,0.5
2024-05-11T2100,1891A,101.7369,26.5008,攀枝花市,仁和,,40,24,29,14,18,127,,140,138,11,13,7,8,0.4,0.4
2024-05-11T2100,2835A,101.7227,26.567,攀枝花市,四十中小,,39,28,33,16,19,122,,146,140,20,16,19,27,0.7,0.6
2024-05-11T2100,1604A,122.0303,41.1489,盘锦市,开发区,,40,40,102,22,17,75,,98,88,15,15,5,5,0.3,0.4
2024-05-11T2100,1605A,122.0485,41.0883,盘锦市,兴隆台,颗粒物(PM10),51,52,102,5,13,76,,95,86,15,17,8,7,0.4,0.4
2024-05-11T2100,1606A,121.8297,41.1028,盘锦市,新生街道,,43,43,89,8,18,64,,103,84,25,14,10,8,0.4,0.4
2024-05-11T2100,1832A,113.3257,33.742,平顶山市,新华旅馆,颗粒物(PM10),163,275,173,55,48,119,,139,138,25,13,9,8,0.4,0.4
2024-05-11T2100,1833A,113.2919,33.737,平顶山市,规划设计院,颗粒物(PM10),159,268,154,72,43,109,,122,122,23,13,9,8,0.7,0.6
2024-05-11T2100,1834A,113.182,33.774,平顶山市,平顶山工学院,颗粒物(PM10),155,259,165,66,48,115,,125,124,17,10,7,6,0.6,0.5
2024-05-11T2100,3204A,113.3025,33.73,平顶山市,规划局,颗粒物(PM10),189,327,192,69,41,113,,131,130,23,10,8,6,0.4,0.4
2024-05-11T2100,3594A,112.8867,33.9116,平顶山市,石龙区,颗粒物(PM10),124,198,185,44,40,101,,125,121,14,12,9,6,0.5,0.5
2024-05-11T2100,2656A,106.6692,35.5461,平凉市,聚贤嘉苑,颗粒物(PM10),68,86,113,28,25,117,,131,130,15,12,5,6,0.1,0.2
2024-05-11T2100,2657A,106.7021,35.5307,平凉市,博物馆,颗粒物(PM10),82,113,111,26,26,117,,138,136,18,10,7,6,0.4,0.2
2024-05-11T2100,2347A,114.0997,27.5002,萍乡市,武功山,,19,7,26,5,6,58,,84,70,5,7,8,8,0.3,0.4
2024-05-11T2100,2348A,113.8385,27.6434,萍乡市,中医院,,23,23,54,13,40,58,,73,70,22,17,2,15,1.0,0.8
2024-05-11T2100,2349A,113.8493,27.6253,萍乡市,市政府车库,,18,14,46,12,42,52,,72,69,24,21,9,21,1.0,1.4
2024-05-11T2100,2350A,113.8676,27.6435,萍乡市,市环保局,,17,17,55,11,40,48,,71,68,28,18,4,18,1.1,0.8
2024-05-11T2100,2351A,113.866,27.6198,萍乡市,安源区政府,,18,15,59,11,38,56,,71,70,17,21,10,19,0.9,0.9
2024-05-11T2100,2319A,119.0141,25.4325,莆田市,荔城区仓后路,,44,44,51,25,24,97,,182,158,20,16,6,6,0.8,0.7
2024-05-11T2100,2320A,119.0015,25.4553,莆田市,莆田市监测站,,49,42,45,34,22,83,,186,161,20,14,8,8,0.7,0.7
2024-05-11T2100,2321A,119.1119,25.4561,莆田市,涵江区六中,颗粒物(PM10),51,51,42,22,20,92,,181,144,23,21,9,9,0.6,0.7
2024-05-11T2100,2322A,119.1013,25.3215,莆田市,秀屿区政府,,48,48,38,15,19,101,,151,126,12,15,9,12,0.6,0.7
2024-05-11T2100,2392A,115.0312,35.7636,濮阳市,环保局,颗粒物(PM10),123,196,207,44,41,98,,119,118,16,9,8,8,0.3,0.4
2024-05-11T2100,2394A,115.0574,35.7609,濮阳市,油田运输公司,颗粒物(PM10),137,223,214,48,45,97,,118,117,14,7,9,9,0.3,0.3
2024-05-11T2100,2395A,115.0866,35.7754,濮阳市,油田物探公司,颗粒物(PM10),117,184,175,56,55,86,,116,113,23,10,8,8,,0.3
2024-05-11T2100,3021A,115,35.7668,濮阳市,濮水河管理处,颗粒物(PM10),111,171,194,62,42,75,,113,109,23,9,8,8,0.3,0.2
2024-05-11T2100,2601A,100.98,22.7633,普洱市,市环保局,,40,40,29,24,21,76,,101,99,10,9,8,8,0.4,0.4
2024-05-11T2100,2602A,100.9817,22.8322,普洱市,普洱第二中学,,48,48,34,14,16,68,,100,96,10,20,9,9,0.5,0.5
2024-05-11T2100,2262A,131.0518,45.8751,七台河市,新一中,,22,15,14,11,12,68,,88,87,10,9,9,9,0.7,0.6
2024-05-11T2100,3345A,131.0577,45.7879,七台河市,中波台,,18,17,14,11,7,47,,75,71,35,16,8,8,0.4,0.2
2024-05-11T2100,3637A,131.0176,45.7761,七台河市,人民广场,,25,25,20,15,15,45,,68,65,26,17,8,9,0.5,0.5
2024-05-11T2100,3684A,130.8781,45.8222,七台河市,新建矿广场,,40,29,17,28,19,27,,80,70,40,25,10,16,0.8,0.6
2024-05-11T2100,1779A,123.9305,47.3636,齐齐哈尔市,安居小区,,25,18,10,12,7,80,,66,66,5,8,3,29,0.5,0.5
2024-05-11T2100,1780A,123.9488,47.3386,齐齐哈尔市,中心广场,,26,,10,16,9,82,,68,66,6,8,6,7,0.4,0.3
2024-05-11T2100,1781A,123.9483,47.3227,齐齐哈尔市,农牧车辆厂,,27,19,14,10,3,84,,71,69,5,7,7,7,0.4,0.3
2024-05-11T2100,1783A,123.945,47.2988,齐齐哈尔市,市环境监测站,,26,21,12,10,6,83,,69,69,6,7,4,4,0.3,0.2
2024-05-11T2100,3662A,123.6333,47.2075,齐齐哈尔市,富区青少年活动中心,,26,9,8,6,4,83,,74,73,7,8,5,6,0.3,0.3
2024-05-11T2100,2591A,107.9783,26.5747,黔东南苗族侗族自治州,市环境监测站,,25,18,19,17,15,77,,89,88,10,12,3,2,0.6,0.5
2024-05-11T2100,2881A,107.8908,26.5311,黔东南苗族侗族自治州,凯里学院,,30,18,16,15,13,93,,104,104,4,4,2,2,0.4,0.3
2024-05-11T2100,2593A,107.5228,26.2403,黔南布依族苗族自治州,小围寨,,25,9,13,9,8,78,,94,93,6,5,3,5,0.6,0.5
2024-05-11T2100,3538A,107.5175,26.2978,黔南布依族苗族自治州,沙坝,,27,12,17,9,8,86,,99,99,5,5,3,4,0.5,0.5
2024-05-11T2100,2589A,104.9022,25.0925,黔西南布依族苗族自治州,场坝街,,34,34,15,22,7,83,,101,101,18,19,2,3,0.4,0.3
2024-05-11T2100,2590A,104.8811,25.0992,黔西南布依族苗族自治州,坪东大道,,,,15,,6,92,,105,105,5,11,3,3,0.3,0.1
2024-05-11T2100,2502A,108.6236,21.9667,钦州市,市环保站,,48,48,36,17,12,40,,81,71,23,11,7,7,0.7,0.7
2024-05-11T2100,2503A,108.6549,21.9481,钦州市,沙埠小学,,42,42,37,24,19,37,,80,68,24,13,6,6,0.9,0.9
2024-05-11T2100,2504A,108.5989,21.7431,钦州市,港区一小,,37,37,40,17,17,63,,88,84,14,14,6,8,0.6,0.7
2024-05-11T2100,3404A,108.5959,21.9633,钦州市,北职校,,35,35,32,15,16,36,,76,64,22,10,7,6,0.6,0.6
2024-05-11T2100,1042A,119.5134,39.8207,秦皇岛市,北戴河环保局,,50,50,403,11,68,86,,99,96,16,15,2,6,0.2,0.3
2024-05-11T2100,1043A,119.7493,40.0116,秦皇岛市,第一关,颗粒物(PM10),62,73,381,25,66,19,,97,79,61,17,4,3,0.4,0.3
2024-05-11T2100,1044A,119.5897,39.9499,秦皇岛市,监测站,颗粒物(PM10),61,72,348,30,75,67,,105,98,35,16,2,2,0.4,0.3
2024-05-11T2100,1046A,119.5251,39.9041,秦皇岛市,建设大厦,颗粒物(PM10),51,51,386,29,60,72,,99,91,29,12,2,3,0.2,0.2
2024-05-11T2100,3132A,119.610547,39.943889,秦皇岛市,文明里,颗粒物(PM10),68,85,438,23,67,74,,95,90,19,12,2,2,0.4,0.4
2024-05-11T2100,1307A,120.6659,36.2403,青岛市,仰口,颗粒物(PM10),106,161,194,31,53,110,,124,94,8,9,4,4,0.4,0.5
2024-05-11T2100,1310A,120.4134,36.0658,青岛市,市南区东部子站,颗粒物(PM10),131,212,175,41,36,85,,97,82,13,16,5,7,0.4,0.4
2024-05-11T2100,1311A,120.3664,36.1032,青岛市,四方区子站,颗粒物(PM10),135,219,193,63,55,71,,103,94,40,24,4,4,0.5,0.4
2024-05-11T2100,1312A,120.2994,36.054,青岛市,市南区西部子站,颗粒物(PM10),134,217,206,54,51,89,,98,91,20,22,6,6,0.4,0.4
2024-05-11T2100,1313A,120.4581,36.0858,青岛市,崂山区子站,颗粒物(PM10),123,195,175,41,39,81,,100,83,20,21,7,8,0.4,0.4
2024-05-11T2100,1314A,120.1983,35.9608,青岛市,黄岛区子站,颗粒物(PM10),148,246,198,54,52,91,,102,96,17,24,6,6,0.4,0.5
2024-05-11T2100,1315A,120.3999,36.3083,青岛市,城阳区子站,颗粒物(PM10),80,110,194,22,45,102,,107,107,23,19,8,8,0.4,0.5
2024-05-11T2100,1966A,120.0405,35.8735,青岛市,黄岛区4号,颗粒物(PM10),185,320,216,61,49,79,,103,99,30,17,8,8,0.7,0.6
2024-05-11T2100,3362A,120.5014,36.4034,青岛市,即墨2号,颗粒物(PM10),78,106,197,32,45,106,,120,110,18,14,6,6,0.5,0.5
2024-05-11T2100,3642A,120.3503,36.0736,青岛市,市北区南部,颗粒物(PM10),128,205,159,51,44,98,,104,92,15,23,4,5,0.4,0.4
2024-05-11T2100,3643A,120.3948,36.1805,青岛市,李沧区北部,颗粒物(PM10),150,249,208,63,49,51,,104,94,53,23,8,8,0.5,0.5
2024-05-11T2100,1702A,113.0426,23.691,清远市,环保大楼,颗粒物(PM10),54,58,50,32,30,137,,162,162,28,29,4,5,1.1,0.9
2024-05-11T2100,1703A,113.0208,23.7106,清远市,凤城街办,颗粒物(PM10),57,64,59,29,30,127,,173,169,43,38,5,6,1.3,0.5
2024-05-11T2100,3025A,113.0477,23.6344,清远市,技师学院,颗粒物(PM10),76,102,64,50,27,116,,178,176,51,31,5,5,0.7,0.6
2024-05-11T2100,3318A,112.9903,23.7403,清远市,清新太和,颗粒物(PM10),52,54,50,26,24,144,,168,168,24,26,7,8,0.5,0.5
2024-05-11T2100,3455A,113.076,23.7198,清远市,清城东城,"颗粒物(PM10),臭氧1小时",59,68,61,36,38,167,,191,191,32,23,5,6,0.7,0.6
2024-05-11T2100,2661A,107.6325,35.7357,庆阳市,庆阳五中,颗粒物(PM10),73,96,140,29,43,106,,120,118,18,8,4,4,0.3,0.2
2024-05-11T2100,2662A,107.6364,35.7067,庆阳市,市环保局,颗粒物(PM10),70,89,146,29,31,101,,120,117,21,8,7,5,0.4,0.3
2024-05-11T2100,1916A,103.7897,25.5035,曲靖市,环境监测站,,34,34,27,13,13,81,,130,120,13,11,5,3,0.4,0.4
2024-05-11T2100,1917A,103.8,25.5364,曲靖市,烟厂办公区,,28,28,31,11,15,78,,128,116,10,13,4,4,0.6,0.5
2024-05-11T2100,3376A,103.7947,25.462,曲靖市,南苑二区,,27,15,23,12,14,84,,133,124,16,11,7,4,0.7,0.6
2024-05-11T2100,3377A,103.7444,25.5261,曲靖市,曲靖师范学院,,44,44,37,9,21,78,,132,121,27,23,8,12,0.5,0.5
2024-05-11T2100,1264A,118.8692,28.9398,衢州市,环保大楼,,36,30,47,25,35,50,,75,69,24,21,4,4,0.7,0.8
2024-05-11T2100,1265A,118.8709,28.9666,衢州市,实验学校,,35,31,49,24,36,55,,82,76,22,19,7,6,0.6,0.6
2024-05-11T2100,1266A,118.8621,28.9808,衢州市,衢州学院,,36,29,44,25,35,59,,83,72,24,25,4,5,0.5,0.5
2024-05-11T2100,1611A,118.5819,24.9117,泉州市,涂山街,细颗粒物(PM2.5),115,138,63,87,28,74,,157,127,25,27,4,6,0.5,0.5
2024-05-11T2100,1612A,118.5972,24.8978,泉州市,津头埔,细颗粒物(PM2.5),89,94,56,66,26,78,,154,122,24,32,3,6,0.6,0.6
2024-05-11T2100,1613A,118.6663,24.9424,泉州市,万安,,34,34,55,12,24,81,,165,135,13,25,1,3,0.5,0.5
2024-05-11T2100,3529A,118.6333,24.9264,泉州市,城华南路,颗粒物(PM10),59,67,54,34,24,75,,154,121,19,28,4,6,0.3,0.4
2024-05-11T2100,2626A,88.8876,29.2718,日喀则市,日喀则监测站,,40,39,30,10,12,126,,136,134,6,14,5,5,0.3,0.4
2024-05-11T2100,3726A,88.8781,29.2426,日喀则市,林业技术推广中心,,,23,24,7,9,113,,132,128,10,10,,6,0.5,0.5
2024-05-11T2100,1659A,119.471,35.4209,日照市,监测站,颗粒物(PM10),144,237,266,56,77,79,,90,85,29,36,8,10,0.6,0.7
2024-05-11T2100,1660A,119.523,35.4216,日照市,市政府广场,颗粒物(PM10),159,268,272,60,67,81,,94,82,34,35,8,9,0.5,0.6
2024-05-11T2100,1661A,119.5587,35.4044,日照市,港务局,颗粒物(PM10),167,283,295,66,66,62,,92,79,46,24,10,9,0.7,0.6
2024-05-11T2100,3507A,119.5328,35.4625,日照市,职业技术学院,颗粒物(PM10),174,298,285,68,73,46,,94,80,60,24,7,8,0.4,0.5
2024-05-11T2100,3604A,119.3266,35.1044,日照市,岚山环保分局,颗粒物(PM10),197,344,242,68,69,101,,99,95,10,19,5,11,0.4,1
2024-05-11T2100,1835A,111.1922,34.7752,三门峡市,市政府,颗粒物(PM10),86,121,186,46,37,56,,120,111,66,18,11,9,0.5,0.4
2024-05-11T2100,1836A,111.1587,34.7942,三门峡市,开发区,细颗粒物(PM2.5),118,184,207,89,50,91,,132,127,20,12,9,9,0.5,0.5
2024-05-11T2100,3039A,111.1911,34.7829,三门峡市,三门峡市第一小学,细颗粒物(PM2.5),133,155,228,101,36,89,,121,116,30,16,10,10,0.4,0.4
2024-05-11T2100,3598A,111.1,34.7167,三门峡市,富达温泉假日酒店,颗粒物(PM10),95,139,218,18,60,86,,118,114,27,20,14,24,0.5,0.4
2024-05-11T2100,2324A,117.6211,26.2625,三明市,三钢,,38,38,51,24,37,34,,106,82,13,16,6,12,0.8,1.2
2024-05-11T2100,2325A,117.635,26.2714,三明市,三明二中,,42,42,51,26,33,48,,109,87,22,20,5,8,1.0,1.1
2024-05-11T2100,2326A,117.6028,26.2378,三明市,三元区政府,颗粒物(PM10),54,58,58,28,34,37,,111,81,34,27,7,11,0.8,0.8
2024-05-11T2100,1876A,109.5078,18.2489,三亚市,河东子站,,29,29,22,14,11,40,,58,48,6,4,4,4,0.4,0.4
2024-05-11T2100,1877A,109.4964,18.2681,三亚市,河西子站,,25,25,20,15,11,42,,58,49,5,4,2,2,0.2,0.3
2024-05-11T2100,3540A,109.7348,18.3443,三亚市,君悦子站,,16,,28,11,11,46,,58,51,3,6,2,2,0.3,0.4
2024-05-11T2100,2624A,91.7608,29.2313,山南市,山南监测站,,40,28,21,14,12,128,,133,133,5,6,7,8,0.2,0.2
2024-05-11T2100,2625A,91.7706,29.2436,山南市,山南人民医院,,42,26,24,12,12,133,,140,140,10,9,7,8,0.3,0.2
2024-05-11T2100,1674A,116.6794,23.3667,汕头市,金平子站,,39,39,41,17,21,107,,124,114,14,11,3,7,0.7,0.7
2024-05-11T2100,1675A,116.7244,23.3633,汕头市,龙湖子站,,37,37,38,18,18,109,,127,117,18,16,5,8,0.8,0.8
2024-05-11T2100,1676A,116.7258,23.2775,汕头市,濠江子站,,43,43,35,25,18,103,,103,101,10,12,6,7,0.7,0.7
2024-05-11T2100,1677A,116.7519,23.4714,汕头市,澄海子站,颗粒物(PM10),54,58,39,28,21,98,,120,103,22,16,5,11,1.0,0.8
2024-05-11T2100,1678A,116.6092,23.2539,汕头市,潮阳子站,,42,42,47,19,21,88,,128,117,7,11,4,6,0.9,0.9
2024-05-11T2100,3444A,116.454,23.2684,汕头市,潮南峡山,,41,41,41,15,11,96,,128,120,2,4,5,5,0.6,0.6
