timepoint,stationcode,longitude,latitude,area,positionname,primarypollutant,aqi,pm10,pm10_24h,pm2_5,pm2_5_24h,o3,o3_24h,o3_8h,o3_8h_24h,no2,no2_24h,so2,so2_24h,co,co_24h
2026-03-27T2000,2568A,102.2503,31.8896,阿坝藏族羌族自治州,马师校,,44,44,25,6,6,96,96,104,102,6,6,5,5,0.2,0.4
2026-03-27T2000,3994A,102.2174,31.9016,阿坝藏族羌族自治州,马尔康中学西区,,34,16,14,9,7,107,107,101,101,4,7,3,3,0.2,0.2
2026-03-27T2000,2695A,80.2899,41.1684,阿克苏地区,电视台,颗粒物(PM10),184,317,324,110,92,106,106,107,107,6,10,2,2,0.5,0.4
2026-03-27T2000,2696A,80.2592,41.1541,阿克苏地区,艺术中心,颗粒物(PM10),181,311,335,136,90,111,111,112,112,7,14,4,4,0.2,0.3
2026-03-27T2000,2205A,105.699,38.8409,阿拉善盟,蒙二幼,颗粒物(PM10),500,911,128,142,33,90,90,107,104,3,6,8,8,0.5,0.5
2026-03-27T2000,2206A,105.7198,38.8508,阿拉善盟,环保局新楼,颗粒物(PM10),339,451,99,131,31,84,84,107,97,5,7,8,9,0.6,0.6
2026-03-27T2000,2708A,88.1266,47.8515,阿勒泰地区,市站,,28,17,18,7,3,87,87,89,89,7,12,5,6,0.2,0.2
2026-03-27T2000,4166A,88.1198,47.7931,阿勒泰地区,阿勒泰路33号,,29,19,12,3,2,90,90,91,91,7,8,5,6,0.2,0.2
2026-03-27T2000,2630A,80.1171,32.4999,阿里地区,阿里监测站,,35,7,6,3,3,110,110,114,114,1,4,6,6,0.3,0.3
2026-03-27T2000,3192A,80.0906,32.5029,阿里地区,阿里藏医院,NA,NA,9,7,3,4,114,114,119,119,NA,3,5,6,0.1,0.2
2026-03-27T2000,2644A,109.0088,32.6974,安康市,汉滨区检察院,颗粒物(PM10),54,55,42,22,21,49,49,104,101,45,17,5,6,0.7,0.5
2026-03-27T2000,4054A,109.0324,32.6913,安康市,市邮政管理局,颗粒物(PM10),70,77,51,38,23,34,34,102,96,54,19,5,10,1.6,0.8
2026-03-27T2000,2291A,117.0806,30.5181,安庆市,环科院,细颗粒物(PM2.5),56,50,76,38,72,118,118,138,138,17,29,9,10,0.7,0.9
2026-03-27T2000,2292A,117.0331,30.5118,安庆市,马山宾馆,细颗粒物(PM2.5),58,59,69,39,74,104,104,131,129,22,28,6,7,0.8,1.1
2026-03-27T2000,2294A,116.9897,30.6146,安庆市,安庆大学,细颗粒物(PM2.5),72,62,67,46,56,133,133,138,138,14,16,5,5,0.7,0.8
2026-03-27T2000,3173A,117.0598,30.5351,安庆市,市人大,细颗粒物(PM2.5),60,51,72,40,63,81,81,133,129,44,31,8,8,0.5,0.9
2026-03-27T2000,3123A,105.9408,26.2431,安顺市,凤凰山,,50,50,47,29,30,41,41,59,51,16,12,14,17,0.8,0.7
2026-03-27T2000,3124A,105.9443,26.2567,安顺市,金钟山,,43,39,45,30,30,43,43,54,46,9,8,6,12,0.8,0.8
2026-03-27T2000,3125A,105.8983,26.248,安顺市,娄家坡,,39,37,44,27,32,42,42,54,48,8,9,12,15,1.0,1
2026-03-27T2000,1819A,114.3552,36.1017,安阳市,红庙街,细颗粒物(PM2.5),155,146,115,118,82,123,123,139,139,20,20,5,5,0.6,0.6
2026-03-27T2000,1820A,114.361,36.0681,安阳市,银杏小区,细颗粒物(PM2.5),165,154,117,125,88,126,126,142,142,25,25,5,5,0.7,0.4
2026-03-27T2000,3141A,114.3921,36.0879,安阳市,信访局,细颗粒物(PM2.5),159,137,112,121,86,132,132,146,146,22,23,4,4,0.7,0.6
2026-03-27T2000,3669A,114.4706,36.0634,安阳市,左辅环卫站,细颗粒物(PM2.5),170,185,152,129,99,121,121,140,140,18,19,5,5,0.6,0.5
2026-03-27T2000,4117A,114.2918,36.0769,安阳市,钢三路198号,细颗粒物(PM2.5),160,185,153,122,85,117,117,131,131,20,22,5,5,0.7,0.6
2026-03-27T2000,1748A,123.0441,41.1201,鞍山市,深沟寺,颗粒物(PM10),72,80,68,42,46,83,83,111,109,36,24,10,13,0.8,1
2026-03-27T2000,1749A,123.011,41.0931,鞍山市,太阳城,细颗粒物(PM2.5),72,64,67,46,51,94,94,112,111,22,23,9,17,0.6,1
2026-03-27T2000,1750A,123.0483,41.1445,鞍山市,太平,细颗粒物(PM2.5),141,189,79,105,48,46,46,110,103,75,25,17,17,1.6,1.2
2026-03-27T2000,1751A,122.964,41.0968,鞍山市,铁西三道街,细颗粒物(PM2.5),113,105,79,74,51,63,63,103,99,62,33,9,21,1.0,1.7
2026-03-27T2000,1753A,123.0219,41.0822,鞍山市,明达新区,细颗粒物(PM2.5),64,64,75,42,51,86,86,108,107,23,22,10,15,0.7,0.9
2026-03-27T2000,4201A,122.944647,41.082639,鞍山市,兴盛南路290号,NA,NA,NA,82,118,57,36,36,107,99,82,33,18,16,1.5,1.2
2026-03-27T2000,2195A,107.4206,40.7609,巴彦淖尔市,附二中,颗粒物(PM10),90,105,49,35,16,82,82,98,98,19,9,16,11,0.5,0.4
2026-03-27T2000,2196A,107.37,40.7372,巴彦淖尔市,市环保大楼,颗粒物(PM10),84,97,47,34,17,88,88,102,102,21,10,11,9,0.4,0.4
2026-03-27T2000,1956A,86.1476,41.7529,巴音郭楞蒙古自治州,孔雀公园,颗粒物(PM10),272,400,169,70,33,89,89,93,93,4,18,8,8,0.2,0.3
2026-03-27T2000,1957A,86.1971,41.7166,巴音郭楞蒙古自治州,棉纺厂,颗粒物(PM10),432,532,200,68,35,93,93,97,97,3,12,/,/,/,/
2026-03-27T2000,1958A,86.236,41.7172,巴音郭楞蒙古自治州,经济开发区,颗粒物(PM10),333,446,174,56,29,84,84,88,88,6,14,6,6,0.3,0.3
2026-03-27T2000,3181A,106.776805,31.852614,巴中市,市五中,,47,47,39,31,21,77,77,96,95,10,18,8,7,0.6,0.7
2026-03-27T2000,3183A,106.7419,31.8654,巴中市,圣泉水务公司,颗粒物(PM10),54,55,40,24,17,65,65,100,97,19,23,10,9,0.8,0.8
2026-03-27T2000,3616A,106.7617,31.8343,巴中市,市中心医院,颗粒物(PM10),66,72,50,31,24,56,56,99,95,17,16,10,10,0.7,0.7
2026-03-27T2000,2235A,122.7909,45.608,白城市,洮北区环保局,细颗粒物(PM2.5),179,189,88,135,70,71,71,109,102,56,25,10,7,1.1,0.6
2026-03-27T2000,2236A,122.8741,45.5725,白城市,市环保局,颗粒物(PM10),75,85,72,38,52,35,35,98,86,49,19,6,5,0.4,0.4
2026-03-27T2000,2231A,126.4219,41.9172,白山市,喜丰,颗粒物(PM10),78,88,68,43,27,110,110,118,118,21,24,12,9,0.8,0.8
2026-03-27T2000,2232A,126.4082,41.9416,白山市,环保局,细颗粒物(PM2.5),68,65,46,44,25,115,115,120,120,11,13,11,10,0.7,0.8
2026-03-27T2000,2647A,104.1727,36.5448,白银市,第三小学,,23,NA,60,10,25,73,73,94,86,9,17,1,43,0.2,0.4
2026-03-27T2000,2648A,104.1467,36.5482,白银市,动力公司,,22,NA,54,3,23,68,68,92,83,6,19,4,22,0.2,0.4
2026-03-27T2000,2512A,106.6102,23.901,百色市,市监测站,细颗粒物(PM2.5),70,56,59,45,45,100,100,113,113,11,15,11,17,0.6,0.8
2026-03-27T2000,2513A,106.6524,23.8842,百色市,市中心血站,细颗粒物(PM2.5),70,NA,70,45,52,103,103,114,114,10,17,9,15,0.6,0.8
2026-03-27T2000,4133A,106.6273,23.8798,百色市,龙景西路,细颗粒物(PM2.5),66,71,78,43,53,109,109,122,122,9,18,12,19,0.5,0.7
2026-03-27T2000,2270A,117.396,32.9389,蚌埠市,工人疗养院,细颗粒物(PM2.5),110,108,121,70,90,102,102,111,111,38,49,8,8,0.5,0.6
2026-03-27T2000,2271A,117.3606,32.9428,蚌埠市,百货大楼,细颗粒物(PM2.5),102,89,102,62,79,106,106,116,116,40,50,8,8,0.6,0.7
2026-03-27T2000,2273A,117.4183,32.8909,蚌埠市,蚌埠学院,细颗粒物(PM2.5),94,78,94,57,82,103,103,106,106,32,42,6,7,0.5,0.6
2026-03-27T2000,2274A,117.3534,32.9672,蚌埠市,淮上区政府,细颗粒物(PM2.5),111,110,100,72,73,96,96,116,116,56,42,7,8,0.7,0.7
2026-03-27T2000,2275A,117.3143,32.8977,蚌埠市,高新区,细颗粒物(PM2.5),105,90,101,65,80,94,94,98,98,39,46,9,10,0.6,0.7
2026-03-27T2000,3715A,117.3091,32.9314,蚌埠市,蚌埠田家炳中学,细颗粒物(PM2.5),114,129,116,75,84,82,82,106,106,58,50,8,8,0.6,0.6
2026-03-27T2000,1585A,109.8761,40.6533,包头市,市环境监测站,细颗粒物(PM2.5),72,76,42,46,21,100,100,116,116,30,22,5,16,0.5,0.7
2026-03-27T2000,1587A,109.9992,40.5843,包头市,包头八中,颗粒物(PM10),68,75,55,36,30,95,95,113,113,24,29,6,11,0.3,0.5
2026-03-27T2000,1589A,109.8641,40.6288,包头市,惠龙物流,细颗粒物(PM2.5),86,62,37,53,21,106,106,113,113,20,20,5,14,0.5,0.6
2026-03-27T2000,1590A,110.0376,40.5546,包头市,东河鸿龙湾,细颗粒物(PM2.5),78,60,47,49,32,86,86,121,120,45,35,11,12,0.6,0.7
2026-03-27T2000,3283A,109.9154,40.5684,包头市,滨河大厦,颗粒物(PM10),58,60,36,38,22,102,102,122,122,19,25,7,11,0.4,0.5
2026-03-27T2000,3419A,109.9449,40.6259,包头市,包头市委党校,颗粒物(PM10),55,57,39,33,18,102,102,114,114,21,29,5,11,0.4,0.5
2026-03-27T2000,3683A,109.8332,40.6577,包头市,昆区政府,细颗粒物(PM2.5),66,71,40,43,21,112,112,114,114,24,25,2,14,0.6,0.8
2026-03-27T2000,1931A,107.0802,34.3129,宝鸡市,竹园沟,颗粒物(PM10),54,55,45,28,22,91,91,137,134,19,17,6,7,0.4,0.4
2026-03-27T2000,1933A,107.1429,34.3549,宝鸡市,监测站,颗粒物(PM10),63,67,57,28,23,103,103,124,124,32,23,6,7,0.4,0.3
2026-03-27T2000,1934A,107.1172,34.3759,宝鸡市,技工学校,颗粒物(PM10),78,88,62,27,31,116,116,134,134,24,17,4,5,0.5,0.5
2026-03-27T2000,1936A,107.2025,34.3518,宝鸡市,文理学院,颗粒物(PM10),62,66,59,29,28,116,116,132,130,22,19,5,5,0.4,0.5
2026-03-27T2000,1937A,107.2396,34.3626,宝鸡市,三迪小学,颗粒物(PM10),60,64,64,31,33,112,112,129,129,29,25,5,5,0.5,0.5
2026-03-27T2000,4155A,107.1721,34.3558,宝鸡市,滨河北路,颗粒物(PM10),60,64,64,33,34,117,117,128,128,21,20,6,6,0.5,0.6
2026-03-27T2000,4308A,107.3898,34.3601,宝鸡市,陈仓区北开路21号,颗粒物(PM10),68,75,74,35,37,117,117,132,132,20,27,8,31,0.5,0.7
2026-03-27T2000,1051A,115.4803,38.8568,保定市,游泳馆,NA,NA,72,113,30,80,74,74,80,NA,NA,27,1,6,0.2,0.6
2026-03-27T2000,1052A,115.509,38.8895,保定市,华电二区,颗粒物(PM10),57,59,104,23,68,68,68,101,99,17,23,3,4,0.4,0.7
2026-03-27T2000,1053A,115.4588,38.9037,保定市,接待中心,NA,NA,80,101,39,68,NA,NA,122,122,17,25,2,4,0.2,0.4
2026-03-27T2000,1054A,115.4484,38.8344,保定市,地表水厂,颗粒物(PM10),69,76,113,19,58,71,71,115,109,28,25,6,9,0.2,0.4
2026-03-27T2000,3581A,115.3136,38.9511,保定市,满城区生态环境分局,颗粒物(PM10),80,92,136,38,70,81,81,125,121,17,21,2,4,0.4,0.5
2026-03-27T2000,3582A,115.4709,38.7628,保定市,清苑区第二中学,颗粒物(PM10),65,71,121,17,61,69,69,103,98,23,23,7,9,0.3,0.4
2026-03-27T2000,3583A,115.6231,39.0223,保定市,徐水物探局,颗粒物(PM10),75,85,128,27,65,77,77,124,119,21,27,2,4,0.4,0.5
2026-03-27T2000,4004A,115.4199,38.8665,保定市,双鹰农机,颗粒物(PM10),76,86,124,42,74,66,66,118,112,35,23,4,6,0.2,0.4
2026-03-27T2000,4034A,115.515,38.8589,保定市,植保所站,颗粒物(PM10),78,89,118,30,62,66,66,114,106,30,27,2,3,0.3,0.3
2026-03-27T2000,2594A,99.1589,25.1137,保山市,市环境监测站,细颗粒物(PM2.5),64,62,41,42,29,134,134,134,134,8,8,5,6,0.4,0.3
2026-03-27T2000,2595A,99.1616,25.1381,保山市,市环保局,细颗粒物(PM2.5),78,66,46,49,31,137,137,134,134,4,6,6,6,0.3,0.2
2026-03-27T2000,1867A,109.1435,21.4085,北海市,海滩公园,NA,NA,42,30,22,13,NA,NA,70,70,26,8,6,7,1.1,0.5
2026-03-27T2000,1868A,109.0983,21.466,北海市,新市环保局,,37,37,26,15,12,59,59,68,68,17,8,8,8,0.6,0.6
2026-03-27T2000,1869A,109.1775,21.5232,北海市,北海工业园,,48,48,34,23,15,60,60,66,66,10,6,6,6,0.8,0.7
2026-03-27T2000,3400A,109.1844,21.4396,北海市,龙潭自来水厂,,29,29,25,18,13,66,66,65,65,7,5,7,6,1.0,0.9
2026-03-27T2000,1001A,116.3611,39.8786,北京市,万寿西宫,颗粒物(PM10),84,97,24,43,11,124,124,117,117,26,14,6,3,0.6,0.3
2026-03-27T2000,1003A,116.4174,39.9289,北京市,东四,颗粒物(PM10),86,100,27,49,13,133,133,117,117,22,15,9,6,0.5,0.2
2026-03-27T2000,1004A,116.4073,39.8858,北京市,天坛,颗粒物(PM10),75,84,24,45,13,107,107,100,100,19,12,6,4,0.6,0.4
2026-03-27T2000,1005A,116.4622,39.9364,北京市,农展馆,颗粒物(PM10),83,96,35,49,20,129,129,110,110,19,16,8,5,0.6,0.4
2026-03-27T2000,1006A,116.3399,39.9293,北京市,官园,颗粒物(PM10),85,98,21,50,10,114,114,98,98,23,18,6,2,0.6,0.3
2026-03-27T2000,1007A,116.2879,39.9613,北京市,海淀万柳,颗粒物(PM10),90,105,20,54,10,97,97,86,86,25,18,6,3,0.6,0.2
2026-03-27T2000,1008A,116.6635,40.1349,北京市,顺义新城,细颗粒物(PM2.5),74,82,25,47,13,110,110,102,102,26,9,6,3,0.5,0.3
2026-03-27T2000,1009A,116.6275,40.327,北京市,怀柔镇,,41,41,10,21,4,88,88,93,92,24,11,5,4,0.5,0.4
2026-03-27T2000,1010A,116.2295,40.217,北京市,昌平镇,细颗粒物(PM2.5),101,90,16,61,8,106,106,98,98,17,11,5,2,0.6,0.3
2026-03-27T2000,1011A,116.3968,39.982,北京市,奥体中心,颗粒物(PM10),88,102,23,50,10,113,113,96,96,23,19,8,4,0.6,0.2
2026-03-27T2000,3418A,116.8336,40.4095,北京市,密云新城,,25,25,10,8,4,70,70,93,91,35,9,3,3,0.4,0.3
2026-03-27T2000,3671A,116.0879,39.9725,北京市,门头沟三家店,颗粒物(PM10),97,115,27,52,10,106,106,98,98,25,21,7,4,0.6,0.3
2026-03-27T2000,3672A,116.1507,39.8246,北京市,丰台云岗,颗粒物(PM10),93,109,32,55,15,119,119,113,113,21,17,4,4,0.7,0.4
2026-03-27T2000,3674A,115.9578,39.7602,北京市,房山燕山,颗粒物(PM10),89,104,38,53,19,116,116,106,106,16,16,7,5,0.5,0.4
2026-03-27T2000,3675A,116.4669,39.7734,北京市,大兴旧宫,颗粒物(PM10),56,58,42,24,22,97,97,108,108,19,21,5,4,0.5,0.4
2026-03-27T2000,3694A,115.9859,40.4562,北京市,延庆石河营,颗粒物(PM10),55,56,17,17,6,94,94,89,89,20,19,1,3,0.3,0.2
2026-03-27T2000,3695A,116.6151,40.3052,北京市,怀柔新城,,43,43,12,20,5,86,86,94,93,19,5,4,3,0.5,0.3
2026-03-27T2000,3696A,116.2542,39.8764,北京市,丰台小屯,颗粒物(PM10),85,98,24,49,12,107,107,101,101,28,18,5,3,0.6,0.3
2026-03-27T2000,3697A,116.8399,40.3843,北京市,密云镇,,24,21,13,7,5,75,75,94,92,28,12,5,4,0.3,0.3
2026-03-27T2000,4057A,115.9423,40.4431,北京市,延庆百泉,,47,47,16,20,6,88,88,93,93,20,22,2,2,0.4,0.3
2026-03-27T2000,4058A,116.6598,39.9164,北京市,通州新华,颗粒物(PM10),85,98,44,44,21,111,111,99,99,19,25,6,4,0.6,0.4
2026-03-27T2000,4182A,116.1942,39.9158,北京市,石景山八角,颗粒物(PM10),105,132,30,60,12,102,102,94,94,24,14,7,3,0.6,0.3
2026-03-27T2000,4194A,117.078628,40.151726,北京市,平谷新城,颗粒物(PM10),51,51,25,22,13,76,76,94,93,27,13,3,2,0.5,0.4
2026-03-27T2000,1761A,123.8274146,41.31234549,本溪市,大峪,颗粒物(PM10),60,64,106,36,69,89,89,112,111,14,24,10,12,0.6,1
2026-03-27T2000,1763A,123.7169,41.3094,本溪市,彩屯,细颗粒物(PM2.5),102,88,104,62,69,55,55,122,113,43,21,9,12,1.0,1
2026-03-27T2000,1764A,123.7672166,41.28649327,本溪市,东明,细颗粒物(PM2.5),96,70,105,58,66,73,73,118,115,40,26,8,12,0.7,1
2026-03-27T2000,1765A,123.799345,41.266614,本溪市,新立屯,"颗粒物(PM10),细颗粒物(PM2.5)",60,64,101,40,68,31,31,114,103,61,35,8,9,0.7,1
2026-03-27T2000,1766A,123.829144,41.336777,本溪市,威宁,颗粒物(PM10),55,57,145,36,80,64,64,113,108,32,34,8,8,0.4,0.8
2026-03-27T2000,2587A,105.287,27.3133,毕节市,八中,,32,32,23,18,14,43,43,66,60,16,10,10,10,0.7,0.6
2026-03-27T2000,2588A,105.3079,27.2987,毕节市,师专,,21,21,26,13,16,47,47,64,58,11,9,8,9,0.6,0.6
2026-03-27T2000,4263A,105.3688,27.3598,毕节市,工业大道,,28,NA,25,19,17,51,51,68,64,10,8,10,10,/,/
2026-03-27T2000,1629A,117.9961,37.3604,滨州市,第二水厂,颗粒物(PM10),55,56,114,12,62,58,58,106,97,33,21,12,15,0.1,0.5
2026-03-27T2000,1630A,117.9789,37.3931,滨州市,北中新校,颗粒物(PM10),60,63,110,16,64,54,54,102,92,37,31,2,13,0.3,0.4
2026-03-27T2000,3514A,117.9379,37.3959,滨州市,中海酒店,,48,48,108,12,60,78,78,108,102,25,30,9,16,0.4,0.6
2026-03-27T2000,3515A,117.9381509,37.35547456,滨州市,开发区一中,颗粒物(PM10),56,58,120,10,61,61,61,101,94,28,24,9,13,0.4,0.7
2026-03-27T2000,3516A,118.0914,37.6938,滨州市,金海六路,颗粒物(PM10),55,56,101,14,56,61,61,96,89,32,40,6,8,0.2,0.5
2026-03-27T2000,4028A,117.9955,37.3752,滨州市,滨州市西街道办事处,颗粒物(PM10),60,63,119,13,59,58,58,104,95,26,18,11,13,0.1,0.3
2026-03-27T2000,2311A,115.8071,33.8399,亳州市,污水处理厂,颗粒物(PM10),80,91,87,43,53,131,131,164,161,23,23,12,8,0.2,0.2
2026-03-27T2000,2312A,115.7789,33.8519,亳州市,三国揽胜宫,细颗粒物(PM2.5),84,84,88,52,54,119,119,154,151,24,18,8,8,0.2,0.2
2026-03-27T2000,3332A,115.7631,33.803,亳州市,亳州学院,颗粒物(PM10),74,83,86,43,55,133,133,159,157,17,14,7,7,0.3,0.3
2026-03-27T2000,2693A,82.0482,44.8553,博尔塔拉蒙古自治州,市党校,颗粒物(PM10),67,73,62,12,10,113,113,106,106,5,6,3,3,0.4,0.4
2026-03-27T2000,2694A,82.0805,44.8966,博尔塔拉蒙古自治州,市环保局,颗粒物(PM10),73,82,52,27,13,105,105,100,100,10,15,3,3,0.4,0.4
2026-03-27T2000,1071A,116.8733,38.2922,沧州市,沧县城建局,,42,42,93,18,48,59,59,81,77,32,33,6,6,0.1,0.3
2026-03-27T2000,1072A,116.8462,38.3189,沧州市,电视转播站,,34,34,90,20,53,69,69,84,83,24,32,1,2,0.4,0.5
2026-03-27T2000,1073A,116.8588,38.3161,沧州市,市环保局,,40,40,100,19,50,65,65,85,82,24,33,7,8,0.2,0.3
2026-03-27T2000,3324A,116.8011,38.294,沧州市,河北水利电力学院,NA,NA,39,99,18,56,NA,NA,87,87,24,35,3,9,0.1,0.3
2026-03-27T2000,2622A,97.1813,31.1289,昌都市,昌都监测站,NA,NA,NA,15,3,5,98,98,96,96,7,12,5,4,0.5,0.5
2026-03-27T2000,3719A,97.1707,31.1428,昌都市,昌都会议中心,,27,13,10,8,6,86,86,95,93,12,5,5,5,0.4,0.3
2026-03-27T2000,2692A,87.2722,44.0298,昌吉回族自治州,新区政务中心,,33,24,27,17,19,105,105,98,98,10,16,4,4,0.4,0.5
2026-03-27T2000,3613A,87.3069,44.0093,昌吉回族自治州,亚心广场,,36,29,39,18,17,113,113,100,100,7,22,10,9,0.4,0.6
2026-03-27T2000,4164A,87.2057,43.9289,昌吉回族自治州,财政所,颗粒物(PM10),52,52,48,22,15,103,103,90,90,18,16,10,8,0.5,0.4
2026-03-27T2000,1120A,125.2874,43.9024,长春市,客车厂,细颗粒物(PM2.5),110,74,75,70,48,27,27,109,94,87,32,9,8,0.8,0.5
2026-03-27T2000,1121A,125.2943,43.8508,长春市,邮电学院,细颗粒物(PM2.5),88,76,79,54,48,56,56,106,96,40,26,8,8,0.6,0.5
2026-03-27T2000,1122A,125.3648,43.8745,长春市,劳动公园,细颗粒物(PM2.5),103,84,69,63,43,55,55,106,98,39,21,10,8,0.7,0.6
2026-03-27T2000,1123A,125.3233,43.8781,长春市,园林处,细颗粒物(PM2.5),94,58,72,57,48,49,49,105,96,48,21,8,7,0.8,0.6
2026-03-27T2000,1124A,125.4604,43.7904,长春市,净月潭,细颗粒物(PM2.5),60,52,68,40,46,77,77,108,105,22,26,5,6,0.4,0.5
2026-03-27T2000,1126A,125.38,43.8422,长春市,经开区环卫处,细颗粒物(PM2.5),74,80,78,47,47,30,30,110,98,72,29,5,6,0.8,0.6
2026-03-27T2000,1127A,125.234,43.7761,长春市,高新区管委会,NA,NA,120,87,NA,54,26,26,109,94,77,34,9,8,0.9,0.6
2026-03-27T2000,1128A,125.1695,43.83,长春市,岱山公园,细颗粒物(PM2.5),134,106,88,97,60,10,10,102,86,106,38,8,6,0.8,0.6
2026-03-27T2000,4281A,125.334645,43.916281,长春市,北亚泰大街1068号,细颗粒物(PM2.5),90,77,73,55,47,21,21,99,84,79,31,9,8,0.7,0.5
2026-03-27T2000,1335A,113.082,28.2421,长沙市,经开区环保局,细颗粒物(PM2.5),82,83,55,51,39,63,63,85,78,22,13,3,3,0.6,0.6
2026-03-27T2000,1336A,112.8873,28.2202,长沙市,高开区环保局,NA,NA,77,49,51,40,NA,NA,74,73,18,13,6,5,0.8,0.7
2026-03-27T2000,1337A,113.0785,28.2012,长沙市,马坡岭,细颗粒物(PM2.5),100,80,55,60,44,64,64,81,75,29,21,5,5,0.9,0.8
2026-03-27T2000,1338A,112.9448,28.1894,长沙市,湖南师范大学,细颗粒物(PM2.5),84,76,53,52,42,72,72,85,83,17,12,5,4,0.8,0.8
2026-03-27T2000,1339A,113.0177,28.1322,长沙市,雨花区环保局,NA,NA,NA,51,NA,41,NA,NA,78,78,NA,11,NA,3,NA,0.8
2026-03-27T2000,1340A,112.9795,28.2593,长沙市,伍家岭,细颗粒物(PM2.5),103,90,59,63,47,66,66,78,77,22,16,4,4,0.8,0.6
2026-03-27T2000,1341A,113.002,28.1944,长沙市,火车新站,细颗粒物(PM2.5),108,83,56,68,51,79,79,82,81,18,14,4,4,0.7,0.6
2026-03-27T2000,1342A,112.9846,28.1177,长沙市,天心区环保局,细颗粒物(PM2.5),114,78,57,75,59,71,71,79,76,26,18,6,6,0.9,0.8
2026-03-27T2000,1343A,112.8906,28.1307,长沙市,湖南中医药大学,细颗粒物(PM2.5),86,67,46,53,44,71,71,80,76,16,13,6,5,0.7,0.6
2026-03-27T2000,1727A,113.1146,36.1547,长治市,清华站,细颗粒物(PM2.5),94,69,84,57,48,146,146,157,157,12,23,5,9,0.8,0.8
2026-03-27T2000,1730A,113.0887,36.2126,长治市,审计局,细颗粒物(PM2.5),82,59,81,51,50,147,147,158,158,13,21,9,14,0.8,0.9
2026-03-27T2000,1731A,113.0845,36.1856,长治市,长治八中,细颗粒物(PM2.5),96,81,103,58,54,143,143,155,155,15,21,11,16,0.8,0.8
2026-03-27T2000,2845A,113.1561,36.1912,长治市,德盛苑,细颗粒物(PM2.5),92,57,80,56,52,152,152,163,163,16,19,9,15,0.7,1
2026-03-27T2000,3568A,113.0603,36.0464,长治市,向阳小学,细颗粒物(PM2.5),101,111,120,61,51,146,146,165,165,22,26,10,12,0.9,0.8
2026-03-27T2000,3569A,112.8788,36.315,长治市,屯留一中,细颗粒物(PM2.5),82,68,91,51,55,138,138,158,158,19,37,12,15,2.0,0.9
2026-03-27T2000,4189A,113.113092,36.199482,长治市,英华南巷50号,细颗粒物(PM2.5),88,83,92,54,51,147,147,160,160,16,25,8,13,0.8,1.3
2026-03-27T2000,4190A,113.23666,36.33435,长治市,学府街1号,细颗粒物(PM2.5),90,85,84,55,47,145,145,167,167,12,26,5,8,0.8,1
2026-03-27T2000,1854A,111.696,28.9725,常德市,市二中,NA,NA,NA,24,26,17,56,56,81,81,22,15,7,6,1.1,1
2026-03-27T2000,3138A,111.7152,29.0288,常德市,武陵区永安,,46,43,29,32,22,65,65,78,78,23,19,6,6,0.9,0.8
2026-03-27T2000,3139A,111.6891,28.9881,常德市,鼎城区玉霞,,43,34,28,30,17,40,40,74,73,42,24,7,7,1.2,1
2026-03-27T2000,3140A,111.6651,29.0526,常德市,武陵区长庚,,50,50,30,34,22,55,55,73,73,27,21,7,7,1.2,1
2026-03-27T2000,1196A,119.9524,31.7586,常州市,市监测站,颗粒物(PM10),69,76,78,24,33,100,100,109,109,34,45,20,12,0.5,0.7
2026-03-27T2000,1200A,119.9351,31.703,常州市,武进监测站,,48,48,59,21,30,114,114,108,108,18,35,8,10,0.4,0.5
2026-03-27T2000,3002A,119.9701,31.813,常州市,行政中心,颗粒物(PM10),83,96,73,36,36,52,52,106,100,68,45,11,7,0.7,0.4
2026-03-27T2000,3003A,120.0434,31.7726,常州市,经开区,颗粒物(PM10),56,58,66,23,32,92,92,110,108,31,39,7,10,0.6,0.6
2026-03-27T2000,3010A,119.8919,31.7892,常州市,钟楼,,50,50,61,18,32,95,95,122,120,41,43,7,9,0.2,0.4
2026-03-27T2000,3429A,119.8595,31.706,常州市,武进经发区,,46,46,56,27,35,114,114,123,123,26,38,8,9,0.4,0.5
2026-03-27T2000,3430A,119.5812,31.7256,常州市,金坛城区,,36,36,50,25,36,108,108,128,127,23,27,8,9,0.4,0.6
2026-03-27T2000,4089A,119.9551,31.863,常州市,崇义南街5-H号,颗粒物(PM10),80,91,64,44,34,52,52,111,106,64,42,9,7,0.8,0.6
2026-03-27T2000,2220A,120.4318,41.588,朝阳市,西梁,颗粒物(PM10),53,54,43,29,22,87,87,109,108,18,19,10,11,0.4,0.4
2026-03-27T2000,2221A,120.452,41.565,朝阳市,河畔小区,,35,35,39,17,16,95,95,114,113,16,16,9,9,0.5,0.5
2026-03-27T2000,2222A,120.4176,41.5648,朝阳市,八里堡,颗粒物(PM10),60,63,43,22,19,86,86,111,110,17,18,11,10,0.3,0.4
2026-03-27T2000,3026A,116.6179,23.6608,潮州市,市政府,,50,50,54,33,28,87,87,128,125,14,12,4,5,0.6,0.5
2026-03-27T2000,4036A,116.646,23.676,潮州市,金山,,43,43,47,29,27,86,86,124,122,18,16,4,5,0.3,0.4
2026-03-27T2000,2473A,113.0116,25.8228,郴州市,市职中,,29,21,24,20,20,53,53,44,44,14,13,4,4,0.6,0.7
2026-03-27T2000,2475A,113.0381,25.8074,郴州市,市审计局,NA,NA,19,24,18,18,NA,NA,56,56,14,14,13,4,/,/
2026-03-27T2000,2476A,113.0348,25.7757,郴州市,市环保局,,28,26,34,19,19,54,54,42,42,16,17,6,5,0.4,0.4
2026-03-27T2000,4252A,113.0138,25.8011,郴州市,好美居路49号,,26,25,23,18,20,58,58,49,49,16,14,5,4,/,/
2026-03-27T2000,1431A,103.9727,30.7242,成都市,金泉两河,颗粒物(PM10),51,51,58,24,37,73,73,94,94,27,37,2,4,0.5,0.5
2026-03-27T2000,1432A,104.1423,30.6765,成都市,十里店,颗粒物(PM10),53,54,60,19,32,88,88,97,97,14,31,4,5,0.5,0.6
2026-03-27T2000,1433A,104.0594,30.5765,成都市,三瓦窑,颗粒物(PM10),53,54,63,20,38,90,90,93,93,9,37,3,3,0.6,0.7
2026-03-27T2000,1434A,104.1122,30.6306,成都市,沙河铺,NA,NA,NA,51,NA,32,75,75,86,86,20,40,5,5,0.4,0.5
2026-03-27T2000,2880A,104.0219,30.6561,成都市,大石西路,颗粒物(PM10),53,54,60,21,39,83,83,95,93,16,37,7,8,0.5,0.7
2026-03-27T2000,3136A,104.2724,30.559,成都市,龙泉驿区区政府,NA,NA,NA,41,NA,24,73,73,98,98,NA,15,NA,7,0.5,0.5
2026-03-27T2000,3357A,104.0028,30.6891,成都市,金博路,,45,45,53,21,37,76,76,99,99,25,43,6,8,0.7,0.8
2026-03-27T2000,3359A,104.056,30.5228,成都市,华阳,,39,39,58,19,33,90,90,98,98,20,41,4,4,0.6,0.7
2026-03-27T2000,3488A,104.387954,30.746684,成都市,青石路225号,颗粒物(PM10),53,54,41,26,27,50,50,100,95,45,23,8,7,0.7,0.6
2026-03-27T2000,3489A,104.0788,30.4054,成都市,科学城,,35,35,45,20,24,84,84,95,95,12,26,8,8,0.6,0.7
2026-03-27T2000,4011A,103.8505,30.6946,成都市,光华大道三段,细颗粒物(PM2.5),64,67,58,42,34,78,78,103,103,38,36,4,5,0.7,0.6
2026-03-27T2000,4144A,104.3257,30.6406,成都市,八角井街185号,颗粒物(PM10),58,61,46,19,26,74,74,88,88,18,18,4,4,0.4,0.5
2026-03-27T2000,4224A,104.2433276,30.53529463,成都市,鲸龙路1057号,,45,45,50,20,26,68,68,98,98,29,27,6,6,0.5,0.5
2026-03-27T2000,1062A,117.9531,40.908,承德市,铁路,颗粒物(PM10),51,51,32,19,8,48,48,87,79,36,16,4,4,0.3,0.3
2026-03-27T2000,1063A,117.9397,40.9763,承德市,中国银行,,33,33,27,11,6,50,50,87,83,20,13,6,3,0.5,0.3
2026-03-27T2000,4073A,117.9462,40.95,承德市,杏林街1号,,29,25,24,20,10,56,56,97,94,28,12,2,3,0.4,0.3
2026-03-27T2000,4274A,117.7994,40.9605,承德市,滨河大街98号,,32,NA,30,22,9,70,70,95,93,9,11,9,9,0.3,0.2
2026-03-27T2000,2314A,117.4698,30.6617,池州市,池州学院,细颗粒物(PM2.5),72,54,64,46,49,130,130,142,142,37,33,8,5,0.7,0.9
2026-03-27T2000,3237A,117.4918,30.6617,池州市,展览馆,细颗粒物(PM2.5),56,39,64,38,53,122,122,140,140,26,30,4,4,0.7,1
2026-03-27T2000,3333A,117.5626,30.695,池州市,第八中学,,50,45,58,35,44,108,108,129,129,37,31,4,5,0.6,0.9
2026-03-27T2000,3334A,117.5037,30.6242,池州市,第十二中学,"颗粒物(PM10),细颗粒物(PM2.5)",54,55,59,37,43,100,100,130,130,46,39,5,4,0.7,0.9
2026-03-27T2000,1744A,118.9229,42.2816,赤峰市,松山一中,,36,27,26,25,11,61,61,82,79,22,19,4,5,0.4,0.4
2026-03-27T2000,1745A,118.9588,42.2733,赤峰市,哈达街,,24,24,29,12,11,63,63,84,80,22,15,6,8,0.4,0.4
2026-03-27T2000,1746A,118.8792,42.2551,赤峰市,天义路,,26,22,20,18,11,72,72,98,93,19,14,5,6,0.4,0.4
2026-03-27T2000,3058A,119.2656,42.0356,赤峰市,银河街,,34,34,42,10,19,81,81,103,98,6,8,11,13,0.4,0.4
2026-03-27T2000,3286A,118.9359,42.3146,赤峰市,桥北物流园区,,21,21,28,11,11,58,58,86,80,18,15,4,4,0.3,0.5
2026-03-27T2000,2521A,107.3473,22.4137,崇左市,市环保局江州分局,细颗粒物(PM2.5),74,69,51,47,34,90,90,90,90,6,8,6,7,0.6,0.6
2026-03-27T2000,4256A,107.375,22.3736,崇左市,石景林东路7号,细颗粒物(PM2.5),72,52,43,46,34,91,91,97,97,10,11,3,4,0.8,0.6
2026-03-27T2000,3207A,118.31131,32.3033,滁州市,市政府原办公楼,细颗粒物(PM2.5),74,67,64,47,53,69,69,102,101,47,40,6,8,0.5,0.5
2026-03-27T2000,3331A,118.3268,32.2633,滁州市,图书馆,颗粒物(PM10),54,55,64,30,37,76,76,102,102,39,38,11,11,0.4,0.5
2026-03-27T2000,4101A,118.3196,32.3335,滁州市,银山路666号,颗粒物(PM10),70,78,69,41,46,59,59,105,104,50,43,10,12,0.8,0.8
2026-03-27T2000,4102A,118.3426,32.2979,滁州市,黄山路555号,颗粒物(PM10),68,75,82,37,47,71,71,109,108,54,45,9,10,0.7,0.8
2026-03-27T2000,2606A,101.5379,25.0492,楚雄彝族自治州,市经济开发区,,48,41,31,33,20,118,118,120,120,11,7,4,5,0.4,0.4
2026-03-27T2000,4153A,101.5536,25.0343,楚雄彝族自治州,团结路562号,,40,28,24,28,19,126,126,124,124,6,6,3,2,0.3,0.2
2026-03-27T2000,2549A,107.5087,31.2186,达州市,市环境监测站,颗粒物(PM10),83,95,52,42,20,9,9,54,47,71,36,7,8,0.9,0.4
2026-03-27T2000,2550A,107.4988,31.2132,达州市,凤凰小区,颗粒物(PM10),98,117,53,51,19,5,5,51,42,75,37,7,7,1.3,0.5
2026-03-27T2000,2551A,107.5081,31.1987,达州市,达县机关宾馆,颗粒物(PM10),72,80,51,37,20,4,4,53,43,66,38,5,6,0.7,0.6
2026-03-27T2000,2552A,107.4644,31.2124,达州市,市政中心,颗粒物(PM10),100,119,59,37,18,7,7,61,54,76,39,8,7,1.3,0.7
2026-03-27T2000,2614A,100.2168,25.5818,大理白族自治州,大理市环境监测站,细颗粒物(PM2.5),58,41,30,39,25,111,111,106,106,6,7,7,7,0.4,0.4
2026-03-27T2000,2615A,100.1542,25.7055,大理白族自治州,大理古城,,40,33,25,28,21,114,114,111,111,7,8,5,5,0.4,0.4
2026-03-27T2000,1109A,121.6119,38.974,大连市,甘井子,,36,36,46,19,32,67,67,97,93,40,25,9,8,0.8,0.6
2026-03-27T2000,1110A,121.565,38.9509,大连市,周水子,,40,40,61,15,35,48,48,90,82,56,30,8,8,0.4,0.4
2026-03-27T2000,1111A,121.5637,38.8849,大连市,星海三站,,29,29,53,18,36,67,67,89,85,24,19,9,9,0.4,0.4
2026-03-27T2000,1112A,121.6301,38.9117,大连市,青泥洼桥,,33,33,54,16,35,63,63,90,86,42,33,6,6,0.5,0.6
2026-03-27T2000,1113A,121.6248,38.8643,大连市,傅家庄,,22,22,48,11,32,68,68,87,84,28,19,10,9,0.7,0.8
2026-03-27T2000,1114A,121.5117,38.8636,大连市,七贤岭,,29,10,56,9,38,92,92,106,93,16,17,5,6,0.4,0.7
2026-03-27T2000,1116A,121.7507,39.1339,大连市,金州,,34,34,60,21,40,88,88,98,94,25,20,10,11,0.6,0.8
2026-03-27T2000,1117A,121.7811,39.0495,大连市,开发区,,40,40,57,22,34,64,64,90,83,44,29,9,8,0.4,0.7
2026-03-27T2000,1118A,121.9762,39.0631,大连市,双D港,,41,41,55,16,29,97,97,107,102,17,15,7,6,0.4,0.5
2026-03-27T2000,4082A,121.2548,38.8188,大连市,旅顺,颗粒物(PM10),53,53,57,32,40,46,46,89,79,35,18,4,6,0.6,0.6
2026-03-27T2000,1789A,124.8085,46.0381,大庆市,大同区,细颗粒物(PM2.5),125,125,60,87,35,90,90,108,106,46,17,9,5,0.8,0.4
2026-03-27T2000,1790A,125.1166,46.5255,大庆市,龙凤区,颗粒物(PM10),139,221,54,92,32,29,29,95,81,70,22,9,4,0.8,0.3
2026-03-27T2000,1791A,124.8894,46.4007,大庆市,红岗区,细颗粒物(PM2.5),117,111,43,78,25,68,68,96,91,37,10,17,13,0.7,0.4
2026-03-27T2000,1792A,125.1391,46.578,大庆市,萨尔图区,颗粒物(PM10),89,104,48,47,25,38,38,91,80,62,21,8,6,0.8,0.5
2026-03-27T2000,1793A,124.9026,46.6217,大庆市,让胡路区,细颗粒物(PM2.5),90,91,46,55,27,54,54,92,86,49,14,6,6,0.5,0.3
2026-03-27T2000,3481A,125.127,46.6277,大庆市,萨区政府监测点,细颗粒物(PM2.5),72,74,43,46,24,44,44,87,79,47,10,10,10,0.6,0.4
2026-03-27T2000,1723A,113.2926,40.0759,大同市,云冈宾馆,,40,40,31,21,12,86,86,98,98,19,12,6,10,0.6,1.1
2026-03-27T2000,1724A,113.3437,40.0921,大同市,大同大学,,31,31,34,20,12,84,84,105,104,32,18,7,10,0.7,0.9
2026-03-27T2000,1725A,113.2637,40.129,大同市,安家小村,,42,42,36,17,12,86,86,104,102,23,17,9,12,0.4,0.8
2026-03-27T2000,3282A,113.3399,40.0586,大同市,大同市卫生学校,,39,31,29,27,11,94,94,111,111,24,15,5,8,0.5,0.8
2026-03-27T2000,3565A,113.1371,40.1122,大同市,云冈站,,28,27,35,12,14,89,89,102,102,8,18,10,13,0.4,0.6
2026-03-27T2000,3566A,113.1186,40.2556,大同市,图书馆,,40,29,32,28,15,65,65,102,97,14,12,6,9,0.4,1
2026-03-27T2000,3567A,113.5931,40.0459,大同市,区一中,细颗粒物(PM2.5),56,NA,39,38,21,85,85,118,113,16,9,13,13,0.6,0.4
2026-03-27T2000,4199A,113.2798248,40.09972476,大同市,魏都大道141号,细颗粒物(PM2.5),52,40,38,36,14,67,67,102,99,43,19,9,11,0.7,1.1
2026-03-27T2000,2269A,124.1068,50.4091,大兴安岭地区,科技局,NA,NA,21,21,6,10,NA,NA,78,78,4,5,6,8,0.2,0.6
2026-03-27T2000,3663A,124.117,50.4279,大兴安岭地区,红旗社区,,24,NA,16,6,10,76,76,80,80,2,15,8,8,0.2,0.3
2026-03-27T2000,1600A,124.33,40.0625,丹东市,江湾东路,,37,28,71,17,52,118,118,111,111,17,26,9,11,0.3,0.9
2026-03-27T2000,1601A,124.4242,40.1513,丹东市,临江后街,,44,44,95,26,66,112,112,103,103,18,22,8,8,0.4,1
2026-03-27T2000,1602A,124.3935,40.1461,丹东市,元宝山,,45,45,88,26,60,124,124,106,106,16,23,9,10,0.5,0.8
2026-03-27T2000,1603A,124.3634,40.1093,丹东市,民主桥,,49,49,84,28,60,127,127,109,109,21,31,8,10,0.5,0.9
2026-03-27T2000,3541A,109.5726195,19.51688767,儋州市,第一中学子站,,45,45,42,22,25,90,90,92,92,6,6,6,6,0.5,0.5
2026-03-27T2000,3542A,109.5567,19.5187,儋州市,东坡学校子站,NA,NA,NA,39,NA,23,90,90,101,101,NA,8,6,8,0.6,0.5
2026-03-27T2000,2616A,98.5611,24.4273,德宏傣族景颇族自治州,德宏州监测站,细颗粒物(PM2.5),110,NA,55,70,52,108,108,124,124,16,13,9,9,0.7,0.6
2026-03-27T2000,3677A,98.5887,24.4366,德宏傣族景颇族自治州,芒市人民政府综合楼,细颗粒物(PM2.5),114,103,83,75,46,97,97,114,114,21,15,5,4,0.8,0.9
2026-03-27T2000,1901A,104.424,31.1209,德阳市,东山公园,,34,34,40,21,27,89,89,98,98,7,14,4,4,0.5,0.5
2026-03-27T2000,1902A,104.3827,31.1318,德阳市,西小区,,45,45,56,18,32,81,81,98,98,16,31,3,6,0.6,0.7
2026-03-27T2000,1904A,104.3553,31.1091,德阳市,耐火材料厂,颗粒物(PM10),59,62,61,24,33,76,76,102,101,24,31,2,5,0.5,0.6
2026-03-27T2000,4145A,104.4144,31.1495,德阳市,市林业局,,45,45,49,20,28,69,69,103,101,28,33,3,3,0.5,0.6
2026-03-27T2000,1622A,116.3034,37.4675,德州市,儿童乐园,颗粒物(PM10),60,63,140,18,78,87,87,124,116,25,31,14,16,0.5,0.7
2026-03-27T2000,1624A,116.2992,37.4449,德州市,监理站,颗粒物(PM10),63,68,140,18,74,97,97,132,125,29,34,6,9,0.5,0.7
2026-03-27T2000,3066A,116.2722,37.438,德州市,九衢泉纯净水厂,颗粒物(PM10),56,58,127,15,70,95,95,125,119,36,51,6,9,0.5,0.7
2026-03-27T2000,3371A,116.3693,37.44,德州市,开发区人民医院,颗粒物(PM10),60,63,136,18,77,80,80,118,111,29,31,9,12,0.4,0.6
2026-03-27T2000,3511A,116.5687,37.3331,德州市,陵城艺术中心,颗粒物(PM10),70,78,136,27,83,66,66,105,98,19,25,7,10,0.6,0.8
2026-03-27T2000,4292A,116.352738,37.420875,德州市,新河东路,颗粒物(PM10),60,63,139,17,76,83,83,114,109,18,30,11,14,0.5,0.7
2026-03-27T2000,2621A,99.7054,27.8319,迪庆藏族自治州,迪庆州站,,31,31,23,14,13,98,98,94,94,8,9,6,5,0.5,0.5
2026-03-27T2000,3180A,99.7122,27.8129,迪庆藏族自治州,质量技术监督局,,33,25,23,16,11,103,103,106,105,11,9,6,6,0.6,0.6
2026-03-27T2000,4257A,104.6092,35.5962,定西市,将台街,,49,49,59,17,31,100,100,118,117,12,23,8,9,0.4,0.5
2026-03-27T2000,4309A,104.6159,35.5701,定西市,正龙路62号,,43,43,59,18,28,97,97,114,113,13,16,2,3,0.4,0.4
2026-03-27T2000,4071A,114.9883,38.5232,定州市,交通局,颗粒物(PM10),73,82,131,22,75,76,76,107,104,26,29,5,5,0.4,0.5
2026-03-27T2000,4072A,115.0045,38.5136,定州市,第五中学,颗粒物(PM10),73,82,144,27,70,68,68,106,102,34,33,10,10,0.4,0.5
2026-03-27T2000,1390A,113.7943,23.0132,东莞市,东城石井,,32,32,43,19,24,62,62,98,92,24,24,3,3,0.6,0.6
2026-03-27T2000,1391A,113.7384,22.9659,东莞市,南城西平,,29,29,38,15,21,48,48,73,70,15,22,4,4,0.5,0.6
2026-03-27T2000,3319A,113.7283,23.041,东莞市,万江金泰,,34,34,45,20,29,50,50,80,72,22,20,6,6,0.7,0.8
2026-03-27T2000,4129A,113.8666,23.1062,东莞市,裕兴路,颗粒物(PM10),60,64,59,32,32,40,40,96,84,42,24,5,6,0.8,0.8
2026-03-27T2000,4130A,114.0076,22.9739,东莞市,教育路1号,颗粒物(PM10),60,63,55,36,29,42,42,92,80,41,27,6,5,0.7,0.7
2026-03-27T2000,4131A,113.7981,22.8124,东莞市,长怡路1号,,44,44,41,21,19,21,21,67,55,46,22,4,4,0.7,0.7
2026-03-27T2000,1666A,118.6612,37.4313,东营市,市环保局,,25,17,89,3,58,77,77,92,88,16,25,6,10,0.4,0.6
2026-03-27T2000,3036A,118.6903,37.4337,东营市,开发区管委会,,26,19,88,3,54,81,81,94,90,19,27,5,9,0.3,0.5
2026-03-27T2000,3365A,118.5721,37.5654,东营市,垦利区民丰路,颗粒物(PM10),72,80,103,25,56,56,56,100,92,41,27,4,4,0.5,0.8
2026-03-27T2000,3498A,118.5063,37.8606,东营市,河口城区,,39,39,92,3,47,68,68,115,92,26,16,7,8,0.5,0.7
2026-03-27T2000,3646A,118.4979,37.4623,东营市,胜利站,,22,21,98,3,51,68,68,90,86,19,27,7,11,0.4,0.7
2026-03-27T2000,3734A,118.5753,37.4405,东营市,理想之城,颗粒物(PM10),51,51,97,3,47,74,74,97,90,27,40,6,6,0.6,0.8
2026-03-27T2000,1591A,110.0024,39.8127,鄂尔多斯市,综合楼,"颗粒物(PM10),细颗粒物(PM2.5)",74,83,73,47,22,100,100,102,102,31,39,7,8,0.4,0.3
2026-03-27T2000,1592A,109.9485,39.8259,鄂尔多斯市,巴音孟克林场办事处,颗粒物(PM10),60,63,59,34,19,99,99,108,108,30,29,6,7,0.3,0.3
2026-03-27T2000,1593A,109.7734,39.5987,鄂尔多斯市,康泽苑,颗粒物(PM10),56,58,60,19,20,110,110,122,122,16,24,6,7,0.3,0.4
2026-03-27T2000,1594A,109.8121,39.5987,鄂尔多斯市,华泰汽车城,颗粒物(PM10),56,58,59,21,20,66,66,122,118,54,30,5,6,0.4,0.4
2026-03-27T2000,1595A,109.9734,39.7884,鄂尔多斯市,奥林花园,颗粒物(PM10),68,75,62,28,16,117,117,107,107,18,27,7,7,0.4,0.3
2026-03-27T2000,2436A,114.894,30.3989,鄂州市,市政府,NA,NA,NA,47,NA,29,94,94,107,107,NA,21,NA,9,0.3,0.4
2026-03-27T2000,2437A,114.8986,30.3714,鄂州市,赵家坝,细颗粒物(PM2.5),52,50,52,36,30,126,126,139,139,13,12,9,8,0.7,0.8
2026-03-27T2000,3654A,114.8093,30.4091,鄂州市,精准医疗中心,颗粒物(PM10),51,51,49,32,30,128,128,138,138,22,10,4,7,0.6,0.7
2026-03-27T2000,2454A,109.4978,30.2979,恩施土家族苗族自治州,湖北民院,,39,36,22,27,11,39,39,68,68,2,7,7,6,0.8,0.7
2026-03-27T2000,3549A,109.5061,30.3771,恩施土家族苗族自治州,龙凤新区,,31,31,18,20,9,25,25,61,60,19,6,7,7,0.5,0.4
2026-03-27T2000,2499A,108.3411,21.6159,防城港市,沙万,颗粒物(PM10),65,70,51,22,20,34,34,44,44,39,22,8,7,0.6,0.6
2026-03-27T2000,2500A,108.3515,21.7733,防城港市,防城档案局,,47,47,33,23,21,52,52,54,53,14,8,8,7,0.7,0.6
2026-03-27T2000,2501A,108.3506,21.6414,防城港市,大海花园,颗粒物(PM10),53,54,31,36,28,43,43,56,56,24,18,10,9,0.5,0.5
2026-03-27T2000,1371A,113.1293,23.0065,佛山市,湾梁,,42,41,35,29,26,32,32,65,54,35,23,/,/,/,/
2026-03-27T2000,1372A,113.1082,23.0477,佛山市,华材职中,细颗粒物(PM2.5),58,46,33,39,27,19,19,65,56,49,24,7,8,0.5,0.4
2026-03-27T2000,1373A,113.1439,23.045,佛山市,南海气象局,细颗粒物(PM2.5),64,NA,40,42,27,12,12,56,46,48,25,/,/,/,/
2026-03-27T2000,1374A,113.2879,22.8094,佛山市,顺德苏岗,,40,38,38,28,21,35,35,61,56,26,16,/,/,0.5,0.5
2026-03-27T2000,1376A,112.8384,22.8678,佛山市,高明孔堂,,34,34,29,21,18,50,50,70,68,18,13,/,/,/,/
2026-03-27T2000,1377A,112.8835,23.1584,佛山市,三水监测站,,49,48,35,34,24,38,38,55,46,47,32,4,4,0.5,0.5
2026-03-27T2000,1378A,112.8668,23.185,佛山市,三水云东海,颗粒物(PM10),63,68,46,36,21,48,48,66,64,38,26,/,/,/,/
2026-03-27T2000,3625A,113.2568,22.7629,佛山市,容桂街道办,,36,34,26,25,20,39,39,66,61,28,20,/,/,/,/
2026-03-27T2000,1282A,119.2681,26.0506,福州市,师大,,31,26,27,12,18,97,97,108,108,19,18,3,3,0.2,0.4
2026-03-27T2000,1283A,119.2983,26.1028,福州市,五四北路,,30,30,26,21,20,96,96,106,106,18,19,4,4,0.4,0.5
2026-03-27T2000,1284A,119.2648,26.0769,福州市,杨桥西路,,31,28,24,14,17,97,97,111,111,17,17,4,4,/,/
2026-03-27T2000,3048A,119.5799,26.0937,福州市,九龙,,37,18,24,3,19,116,116,117,117,9,12,4,5,0.2,0.5
2026-03-27T2000,3526A,119.5188,25.9666,福州市,吴航,,35,12,30,8,21,110,110,110,110,10,18,5,5,0.3,0.7
2026-03-27T2000,4104A,119.3106,26.0648,福州市,路通桥巷6号,,28,25,32,19,24,86,86,104,104,17,15,/,/,/,/
2026-03-27T2000,1755A,123.7974,41.8494,抚顺市,望花区,细颗粒物(PM2.5),106,90,96,66,52,53,53,112,105,55,25,12,13,0.9,0.7
2026-03-27T2000,1756A,123.9161,41.8827,抚顺市,顺城区,细颗粒物(PM2.5),140,NA,85,103,60,35,35,120,107,77,28,13,13,1.2,0.9
2026-03-27T2000,1757A,124.0437,41.8615,抚顺市,东洲区,细颗粒物(PM2.5),98,94,107,59,64,82,82,119,116,31,23,12,11,0.8,0.9
2026-03-27T2000,1758A,123.9246,41.8638,抚顺市,新抚区,细颗粒物(PM2.5),92,100,104,56,53,48,48,129,117,59,23,12,13,0.8,0.7
2026-03-27T2000,1759A,124.0972,41.8961,抚顺市,大伙房水库,细颗粒物(PM2.5),98,74,92,59,56,107,107,130,128,19,24,9,10,0.7,0.8
2026-03-27T2000,1760A,123.708,41.8386,抚顺市,沈抚新城,细颗粒物(PM2.5),105,80,111,65,63,60,60,110,106,56,32,10,12,0.9,0.8
2026-03-27T2000,2377A,116.3544,27.9833,抚州市,市站,细颗粒物(PM2.5),60,48,28,40,25,87,87,93,93,12,7,44,9,0.9,0.9
2026-03-27T2000,2378A,116.3562,27.9631,抚州市,血防站,,45,44,33,31,21,90,90,99,99,12,6,40,8,0.8,0.8
2026-03-27T2000,2379A,116.3561,28.0007,抚州市,采茶剧团,NA,NA,44,30,27,20,NA,NA,97,97,13,6,35,11,0.9,0.7
2026-03-27T2000,2380A,116.3854,27.9648,抚州市,医学分院,,43,43,37,22,17,93,93,101,101,9,6,9,8,1.1,1.1
2026-03-27T2000,2207A,121.6095,41.9978,阜新市,工业园区,颗粒物(PM10),83,96,43,39,15,86,86,102,100,23,14,17,9,0.6,0.4
2026-03-27T2000,2208A,121.6567,42.0188,阜新市,长青街,颗粒物(PM10),69,76,28,33,9,93,93,104,104,25,14,16,6,0.6,0.4
2026-03-27T2000,2209A,121.6672,42.07,阜新市,农业园区,颗粒物(PM10),64,69,32,37,10,94,94,100,99,22,13,12,5,0.6,0.5
2026-03-27T2000,2211A,121.6343,42.0455,阜新市,玉龙新城,颗粒物(PM10),68,75,36,34,10,91,91,102,99,23,17,13,8,0.6,0.4
2026-03-27T2000,2301A,115.8276,32.8929,阜阳市,市监测站,细颗粒物(PM2.5),102,106,107,62,71,119,119,145,145,28,25,7,7,0.5,0.6
2026-03-27T2000,2303A,115.8551,32.8606,阜阳市,开发区,颗粒物(PM10),95,112,122,55,75,126,126,146,146,23,22,7,7,0.7,0.7
2026-03-27T2000,2875A,115.783962,32.889217,阜阳市,阜阳职业技术学院,颗粒物(PM10),78,88,91,32,58,147,147,160,160,18,18,10,9,0.6,0.6
2026-03-27T2000,3468A,115.79,32.8614,阜阳市,市规划展馆,细颗粒物(PM2.5),90,79,104,55,71,127,127,152,152,22,18,11,9,0.7,0.8
2026-03-27T2000,3469A,115.835101,32.918568,阜阳市,枣园社区,细颗粒物(PM2.5),100,90,100,60,74,124,124,149,149,23,21,8,7,0.7,0.7
2026-03-27T2000,2669A,102.9097,34.9841,甘南藏族自治州,州政府,NA,NA,89,38,NA,22,78,78,86,85,4,4,4,5,0.3,0.3
2026-03-27T2000,3380A,102.8915,34.9618,甘南藏族自治州,甘肃民族师范学院,颗粒物(PM10),83,96,42,30,21,83,83,109,106,24,9,1,1,0.3,0.4
2026-03-27T2000,2570A,101.96,30.048,甘孜藏族自治州,水桥子,,26,11,8,3,4,83,83,86,86,8,7,6,6,0.3,0.1
2026-03-27T2000,3065A,101.9534,29.9976,甘孜藏族自治州,州环保局,,27,6,7,3,5,86,86,88,88,11,10,5,5,0.4,0.3
2026-03-27T2000,2363A,114.9368,25.8663,赣州市,地委,,27,27,19,17,9,52,52,51,51,11,10,2,3,1.0,0.8
2026-03-27T2000,2364A,114.946,25.8483,赣州市,气象台,,28,27,23,19,12,59,59,58,58,16,14,4,4,1.0,0.8
2026-03-27T2000,2365A,114.932,25.8332,赣州市,市图书馆,,25,25,18,15,9,61,61,57,57,8,10,5,4,1.2,1
2026-03-27T2000,2366A,114.8905,25.8472,赣州市,华坚鞋城,,25,25,19,6,8,49,49,54,54,18,12,6,6,0.7,0.5
2026-03-27T2000,3109A,115.0094,25.8614,赣州市,赣县区卫计委,,21,21,22,14,10,47,47,45,45,15,15,1,3,0.6,0.8
2026-03-27T2000,2684A,106.2753,36.0057,固原市,监测站,颗粒物(PM10),57,59,57,31,30,114,114,127,127,16,25,10,10,0.4,0.5
2026-03-27T2000,2685A,106.2384,36.0189,固原市,新区,,48,48,62,32,28,113,113,126,126,17,26,8,8,0.5,0.6
2026-03-27T2000,2544A,106.6307,30.4577,广安市,市委,细颗粒物(PM2.5),84,61,40,52,29,50,50,74,74,40,24,7,7,0.9,0.8
2026-03-27T2000,2545A,106.6266,30.4662,广安市,友谊中学,细颗粒物(PM2.5),62,64,33,41,23,49,49,69,69,39,20,8,7,0.9,0.7
2026-03-27T2000,2547A,106.6386,30.4551,广安市,广电花园,细颗粒物(PM2.5),86,66,48,53,29,48,48,68,68,36,23,6,6,1.0,0.9
2026-03-27T2000,2902A,106.6347,30.4868,广安市,北辰小学,颗粒物(PM10),61,65,41,30,27,46,46,70,70,35,18,6,6,1.0,0.8
2026-03-27T2000,2524A,105.8211,32.4444,广元市,老城,,44,44,53,23,25,83,83,86,86,24,46,11,16,0.7,0.8
2026-03-27T2000,2526A,105.8629,32.429,广元市,监测站,颗粒物(PM10),55,56,49,21,21,72,72,78,78,27,29,12,13,0.5,0.7
2026-03-27T2000,3617A,105.8047,32.4167,广元市,经开区,,43,43,61,22,32,87,87,80,80,18,43,5,18,0.6,0.8
2026-03-27T2000,1345A,113.2346,23.1423,广州市,广雅中学,颗粒物(PM10),52,52,36,32,20,27,27,63,59,41,21,2,3,0.7,0.6
2026-03-27T2000,1346A,113.2611,23.105,广州市,市五中,细颗粒物(PM2.5),56,48,37,38,26,33,33,71,66,38,24,7,6,/,/
2026-03-27T2000,1348A,113.3477,23.0916,广州市,广东商学院,,35,35,34,23,22,32,32,54,49,31,29,5,5,0.7,0.6
2026-03-27T2000,1349A,113.4332,23.105,广州市,市八十六中,,28,28,32,17,18,17,17,52,42,55,43,5,6,/,/
2026-03-27T2000,1350A,113.3506,22.9488,广州市,番禺中学,,35,35,36,22,21,44,44,69,65,27,27,4,4,0.6,0.6
2026-03-27T2000,1351A,113.2147,23.3918,广州市,花都师范,,49,49,45,28,25,45,45,73,71,38,29,6,6,0.9,0.8
2026-03-27T2000,1352A,113.2599,23.1329,广州市,市监测站,NA,NA,NA,36,NA,20,NA,NA,63,63,31,21,1,1,/,/
2026-03-27T2000,1353A,113.5618,23.3119,广州市,九龙镇镇龙,,34,34,50,17,26,28,28,79,73,46,31,7,6,0.4,0.5
2026-03-27T2000,1354A,113.2764,23.1544,广州市,麓湖,,41,41,35,26,20,37,37,68,65,26,22,3,3,0.5,0.4
2026-03-27T2000,2846A,113.3209,23.1323,广州市,体育西,,42,42,39,23,18,35,35,60,57,35,28,5,5,0.6,0.6
2026-03-27T2000,3298A,113.5718,23.5493,广州市,从化街口,颗粒物(PM10),53,54,54,32,32,64,64,100,100,26,21,6,6,0.7,0.7
2026-03-27T2000,3299A,113.3463,23.369,广州市,白云竹料,,49,49,42,27,22,33,33,71,67,38,28,4,4,0.6,0.6
2026-03-27T2000,3300A,113.2981,23.2365,广州市,白云嘉禾,,48,48,40,29,23,38,38,66,62,35,30,7,8,/,/
2026-03-27T2000,3301A,113.4256,23.1716,广州市,黄埔科学城,NA,NA,48,39,23,22,46,46,68,58,NA,37,7,6,NA,0.5
2026-03-27T2000,3302A,113.3942,23.0485,广州市,番禺大学城,NA,NA,36,37,17,18,47,47,44,NA,28,27,3,5,NA,0.6
2026-03-27T2000,3303A,113.4923,22.8169,广州市,南沙黄阁,,34,34,35,21,19,55,55,67,66,21,28,6,6,/,/
2026-03-27T2000,3304A,113.534,22.7893,广州市,南沙街,,32,32,34,21,20,57,57,60,59,14,24,8,9,0.5,0.5
2026-03-27T2000,3443A,113.2905,23.5541,广州市,花都梯面,颗粒物(PM10),61,65,44,40,23,31,31,71,66,31,26,7,8,/,/
2026-03-27T2000,3445A,113.786,23.7479,广州市,从化良口,,43,42,35,30,26,97,97,84,84,19,20,4,4,/,/
2026-03-27T2000,3446A,113.805,23.2614,广州市,增城荔城,细颗粒物(PM2.5),74,73,55,47,36,70,70,108,100,33,25,7,6,0.6,0.5
2026-03-27T2000,2506A,109.604387,23.066791,贵港市,江南子站,颗粒物(PM10),83,95,59,47,31,35,35,54,52,28,20,9,11,0.9,0.7
2026-03-27T2000,2508A,109.5669,23.1065,贵港市,荷城子站,NA,NA,NA,50,54,29,43,43,50,50,24,21,10,11,0.7,0.6
2026-03-27T2000,3405A,109.5886,23.1172,贵港市,新世纪学校,细颗粒物(PM2.5),72,78,52,46,30,42,42,53,52,25,21,/,/,0.7,0.6
2026-03-27T2000,4260A,109.5933,23.095,贵港市,中山路155-3号,"颗粒物(PM10),细颗粒物(PM2.5)",82,94,65,51,32,48,48,54,54,18,20,/,/,0.7,0.7
2026-03-27T2000,1439A,106.6863,26.6035,贵阳市,马鞍山,,20,NA,23,14,14,55,55,54,54,6,9,2,3,/,/
2026-03-27T2000,1441A,106.6241,26.6266,贵阳市,鉴湖路,,22,22,31,8,16,43,43,46,46,13,13,4,4,0.4,0.5
2026-03-27T2000,1442A,106.7468,26.6344,贵阳市,燕子冲,,29,29,31,15,15,60,60,59,59,8,9,6,6,0.6,0.7
2026-03-27T2000,1443A,106.6556,26.4362,贵阳市,碧云窝,,31,31,35,17,17,46,46,46,46,17,15,7,6,/,/
2026-03-27T2000,1445A,106.6963,26.6063,贵阳市,红边门,,27,27,32,14,16,56,56,57,57,13,13,8,8,/,/
2026-03-27T2000,1446A,106.7162383,26.56964667,贵阳市,新华路,,34,34,35,15,14,58,58,57,57,11,12,6,6,0.8,0.8
2026-03-27T2000,1447A,106.6742,26.542,贵阳市,太慈桥,,29,29,29,13,15,55,55,54,54,13,12,2,2,/,/
2026-03-27T2000,4230A,106.688212,26.56952,贵阳市,花果园大街66号,,25,NA,18,17,16,55,55,52,52,9,10,2,2,/,/
2026-03-27T2000,4231A,106.687268,26.516892,贵阳市,漓江路57号,NA,NA,17,24,13,17,NA,NA,52,52,12,12,6,6,0.8,0.9
2026-03-27T2000,1864A,110.3091,25.2705,桂林市,龙隐路小学,,19,12,29,12,21,60,60,63,62,13,10,3,4,0.8,0.8
2026-03-27T2000,1865A,110.2849361,25.22909545,桂林市,八中,,17,17,31,3,11,50,50,54,53,16,12,3,3,0.9,1
2026-03-27T2000,3531A,110.296,25.1254,桂林市,旅游学院,,28,28,41,3,24,68,68,72,72,11,10,5,5,0.8,0.9
2026-03-27T2000,4222A,110.1835,25.2444,桂林市,环湖路276号,,20,9,28,3,22,61,61,67,67,9,9,4,4,0.8,0.8
2026-03-27T2000,4301A,110.2803,25.2773,桂林市,信义路13号,,19,13,30,3,23,58,58,60,60,14,12,3,4,0.9,1
2026-03-27T2000,2674A,100.2262,34.4854,果洛藏族自治州,玛沁县大武镇,颗粒物(PM10),58,61,52,22,18,114,114,119,119,1,3,17,19,0.2,0.3
2026-03-27T2000,1130A,126.5557,45.8109,哈尔滨市,松北商大,细颗粒物(PM2.5),126,122,85,88,59,39,39,110,99,57,19,11,11,0.6,0.4
2026-03-27T2000,1132A,126.6162,45.719,哈尔滨市,南岗学府路,细颗粒物(PM2.5),175,177,90,132,61,83,83,110,104,48,22,17,12,0.6,0.2
2026-03-27T2000,1133A,126.6894,45.7733,哈尔滨市,太平宏伟公园,细颗粒物(PM2.5),112,77,66,73,50,90,90,114,113,26,18,10,12,0.5,0.4
2026-03-27T2000,1134A,126.6361,45.7672,哈尔滨市,道外承德广场,细颗粒物(PM2.5),120,142,100,81,54,83,83,111,109,33,20,10,10,1.0,0.9
2026-03-27T2000,1136A,126.644,45.7261,哈尔滨市,动力和平路,细颗粒物(PM2.5),146,122,92,110,61,70,70,113,107,39,19,15,14,1.0,1
2026-03-27T2000,1137A,126.5933,45.7479,哈尔滨市,道里建国路,细颗粒物(PM2.5),141,NA,73,105,56,61,61,104,97,62,28,NA,3,0.9,0.6
2026-03-27T2000,1138A,126.6127,45.6119,哈尔滨市,平房东轻厂,细颗粒物(PM2.5),152,132,86,116,97,37,37,95,84,NA,75,11,9,1.0,0.9
2026-03-27T2000,1139A,126.5875,45.9827,哈尔滨市,呼兰师专,细颗粒物(PM2.5),338,NA,109,288,95,47,47,103,92,87,25,27,12,2.1,0.9
2026-03-27T2000,1140A,126.6299,45.6799,哈尔滨市,省农科院,细颗粒物(PM2.5),246,256,123,196,80,51,51,95,90,52,27,17,11,1.2,0.8
2026-03-27T2000,4282A,126.6769,45.7379,哈尔滨市,华山路1号,细颗粒物(PM2.5),120,122,81,82,56,82,82,107,106,31,19,10,9,0.9,0.8
2026-03-27T2000,4283A,126.9717,45.5356,哈尔滨市,解放大街52号,颗粒物(PM10),296,417,244,208,164,96,96,122,119,60,37,30,19,1.6,0.8
2026-03-27T2000,2688A,93.5124,42.8176,哈密市,地区监测站,,36,36,32,17,12,91,91,93,93,8,8,6,6,0.2,0.2
2026-03-27T2000,2689A,93.5014,42.8312,哈密市,哈密师范学校,,33,18,21,18,12,103,103,69,NA,8,10,5,6,0.3,0.3
2026-03-27T2000,2671A,100.9016,36.9464,海北藏族自治州,海晏县西海镇,颗粒物(PM10),88,103,55,25,21,114,114,117,117,1,3,9,8,0.4,0.4
2026-03-27T2000,3867A,102.074,36.5056,海东市,平安区公安局北苑,颗粒物(PM10),82,94,56,28,27,107,107,115,115,15,8,5,13,0.5,0.8
2026-03-27T2000,4163A,102.0984,36.5119,海东市,滨河路,颗粒物(PM10),90,105,54,28,29,74,74,97,96,38,23,4,11,0.5,0.9
2026-03-27T2000,1410A,110.3189,20.0596,海口市,海南大学,,33,33,26,21,17,54,54,78,74,5,4,6,5,0.4,0.3
2026-03-27T2000,1411A,110.2827,20.0051,海口市,秀英海南医院,,30,26,23,21,16,44,44,70,64,13,10,8,8,0.3,0.3
2026-03-27T2000,1412A,110.3391,19.9979,海口市,海南师范大学,,37,37,27,18,16,55,55,80,75,6,4,6,6,0.4,0.4
2026-03-27T2000,1413A,110.3303,20.0359,海口市,龙华路环保局宿舍,,37,37,26,22,16,55,55,85,80,8,6,/,/,0.5,0.5
2026-03-27T2000,3539A,110.5111,19.9737,海口市,桂林洋子站,,32,32,26,21,15,49,49,68,62,8,5,/,/,/,/
2026-03-27T2000,4134A,110.1952,20.0451,海口市,长滨二路9号,,33,31,26,23,15,52,52,70,63,7,6,/,/,/,/
2026-03-27T2000,2673A,100.6158,36.2985,海南藏族自治州,共和县恰卜恰镇,颗粒物(PM10),84,97,62,23,21,134,134,134,134,2,7,9,9,0.2,0.3
2026-03-27T2000,2676A,97.373,37.376,海西蒙古族藏族自治州,德令哈市,臭氧1小时(O3_1h),73,62,74,22,22,178,178,159,159,1,2,17,15,0.3,0.3
2026-03-27T2000,1049A,114.492,36.5712,邯郸市,矿院,细颗粒物(PM2.5),126,124,106,88,63,118,118,127,127,17,21,7,5,0.5,0.5
2026-03-27T2000,1050A,114.4839,36.6136,邯郸市,丛台公园,细颗粒物(PM2.5),139,139,118,102,78,120,120,130,130,22,24,10,8,0.6,0.7
2026-03-27T2000,3458A,114.7893,36.5592,邯郸市,香泉濮院小区,细颗粒物(PM2.5),142,175,139,106,91,107,107,126,126,22,20,2,3,0.6,0.5
2026-03-27T2000,3580A,114.1998,36.4439,邯郸市,峰峰矿区临水派出所,细颗粒物(PM2.5),233,NA,100,183,78,125,125,144,144,20,21,1,7,0.6,0.9
2026-03-27T2000,4068A,114.5209,36.7697,邯郸市,建安街268号,细颗粒物(PM2.5),150,154,122,115,83,86,86,118,116,43,31,4,5,0.6,0.6
2026-03-27T2000,4069A,114.5488,36.6177,邯郸市,丛台东路558号,细颗粒物(PM2.5),140,148,120,104,89,108,108,130,130,23,25,3,4,0.6,0.6
2026-03-27T2000,2635A,107.0155,33.0707,汉中市,市监测站,颗粒物(PM10),65,70,51,35,25,77,77,97,97,25,19,9,7,0.5,0.4
2026-03-27T2000,2636A,107.0083,33.114,汉中市,鑫源开发区,细颗粒物(PM2.5),84,65,42,52,22,66,66,106,105,40,18,5,5,0.6,0.4
2026-03-27T2000,2637A,107.0072,33.0323,汉中市,南郑大河坎水厂,颗粒物(PM10),58,61,49,29,23,68,68,103,102,31,22,5,5,0.5,0.4
2026-03-27T2000,1223A,120.2073,30.2111,杭州市,滨江,,38,38,30,24,21,85,85,93,93,29,23,7,7,0.3,0.2
2026-03-27T2000,1224A,120.0625,30.2737,杭州市,西溪,,28,28,36,14,22,45,45,90,87,21,20,8,8,0.7,0.6
2026-03-27T2000,1226A,120.3417,30.315,杭州市,下沙,,47,47,40,24,22,78,78,96,92,23,26,8,8,0.7,0.7
2026-03-27T2000,1227A,120.1252,30.2465,杭州市,卧龙桥,,21,21,32,13,23,26,26,94,84,29,20,6,7,0.3,0.3
2026-03-27T2000,1228A,120.1902,30.2691,杭州市,浙江农大,,38,38,29,22,20,83,83,98,98,33,27,6,6,0.4,0.3
2026-03-27T2000,1230A,120.1195,30.3121,杭州市,和睦小学,,48,48,45,24,26,74,74,103,103,36,25,6,6,0.7,0.7
2026-03-27T2000,1231A,120.3076,30.4146,杭州市,临平镇,,35,34,39,24,27,82,82,112,110,28,25,6,6,0.8,0.7
2026-03-27T2000,1232A,120.2753,30.1839,杭州市,城厢镇,,46,40,39,32,22,47,47,72,69,52,30,10,9,0.7,0.6
2026-03-27T2000,1233A,120.0883,30.1808,杭州市,云栖,,21,21,30,13,20,22,22,88,81,35,29,6,6,0.7,0.7
2026-03-27T2000,3557A,119.9463,30.0496,杭州市,镇二中,,41,41,34,28,34,35,35,70,66,49,30,4,4,0.6,0.7
2026-03-27T2000,3558A,119.7184,30.2367,杭州市,市府大楼,,39,39,45,26,38,45,45,86,84,39,28,6,6,0.4,0.2
2026-03-27T2000,3656A,120.1554,30.2863,杭州市,消防大队,,43,42,37,30,26,74,74,92,92,32,25,8,8,0.6,0.6
2026-03-27T2000,1270A,117.1957,31.7845,合肥市,明珠广场,颗粒物(PM10),70,78,93,32,55,94,94,117,117,35,32,8,8,0.7,0.7
2026-03-27T2000,1271A,117.307,31.8765,合肥市,三里街,细颗粒物(PM2.5),72,75,83,46,55,87,87,111,111,48,32,8,9,0.7,0.8
2026-03-27T2000,1272A,117.2587,31.8703,合肥市,琥珀山庄,颗粒物(PM10),68,75,84,36,50,99,99,118,118,37,37,7,9,0.9,0.8
2026-03-27T2000,1275A,117.2593,31.9376,合肥市,庐阳区,颗粒物(PM10),74,83,85,38,52,87,87,117,117,51,37,6,6,0.9,0.9
2026-03-27T2000,1276A,117.345251,31.861615,合肥市,瑶海区,颗粒物(PM10),75,85,86,39,48,105,105,118,118,37,37,8,9,0.8,0.8
2026-03-27T2000,1277A,117.3033,31.7967,合肥市,包河区,颗粒物(PM10),83,95,89,36,48,30,30,101,94,124,59,11,11,0.9,0.8
2026-03-27T2000,1278A,117.278,31.7392,合肥市,滨湖新区,颗粒物(PM10),72,80,89,37,55,108,108,116,116,24,28,6,6,0.7,0.7
2026-03-27T2000,1279A,117.1324,31.8395,合肥市,高新区,颗粒物(PM10),68,75,96,29,60,87,87,114,114,50,35,6,7,0.9,0.9
2026-03-27T2000,3464A,117.3802,31.9148,合肥市,高教基地,颗粒物(PM10),67,73,76,32,46,76,76,114,113,44,31,9,10,0.7,0.7
2026-03-27T2000,4098A,117.2518,31.8404,合肥市,中国科学技术大学,颗粒物(PM10),70,78,84,39,53,110,110,124,124,28,27,8,9,0.8,0.7
2026-03-27T2000,3614A,79.9241,37.0878,和田地区,地区环保局,颗粒物(PM10),175,300,348,62,74,113,113,103,103,2,7,2,2,0.2,0.2
2026-03-27T2000,3615A,79.9132,37.1137,和田地区,市环保局,颗粒物(PM10),167,283,328,65,77,101,101,95,95,5,8,1,3,0.3,0.4
2026-03-27T2000,2517A,108.0496,24.6957,河池市,市环保站,,43,43,52,26,36,29,29,41,40,6,7,4,7,0.6,0.6
2026-03-27T2000,4302A,108.0901,24.6945,河池市,上任中路54号,,50,50,57,24,35,25,25,37,36,8,17,6,7,0.8,0.8
2026-03-27T2000,1697A,114.6962,23.7538,河源市,东埔,,43,43,40,29,27,63,63,82,80,15,11,7,6,0.9,0.8
2026-03-27T2000,1698A,114.6895,23.7232,河源市,老城,颗粒物(PM10),54,55,42,34,27,67,67,82,80,13,11,6,7,0.9,0.9
2026-03-27T2000,3374A,115.5562,35.089,菏泽市,定陶老年大学,颗粒物(PM10),84,97,102,39,57,152,152,168,165,18,19,6,7,0.5,0.5
2026-03-27T2000,4114A,115.4239,35.2593,菏泽市,黄河路600号,颗粒物(PM10),103,126,118,49,64,106,106,153,149,38,26,3,5,0.6,0.5
2026-03-27T2000,4115A,115.5025,35.2727,菏泽市,菏泽市人社局,颗粒物(PM10),90,105,101,44,62,96,96,152,147,44,22,6,8,0.4,0.4
2026-03-27T2000,4184A,115.479691,35.244011,菏泽市,永昌路1号,颗粒物(PM10),87,101,105,44,60,160,160,175,175,21,23,3,5,0.3,0.6
2026-03-27T2000,4193A,115.471542,35.280012,菏泽市,长城路999号,颗粒物(PM10),87,101,99,44,57,140,140,161,160,18,18,2,9,0.3,0.3
2026-03-27T2000,2514A,111.5264,24.4178,贺州市,环保小区,,28,28,66,11,48,38,38,39,39,17,20,5,5,0.8,1.3
2026-03-27T2000,2515A,111.561,24.4074,贺州市,政协大楼,,27,27,61,11,48,40,40,45,37,14,27,5,6,0.9,1.2
2026-03-27T2000,3534A,111.4744,24.455,贺州市,西湾,,25,25,73,8,42,39,39,35,35,13,18,6,6,0.9,0.9
2026-03-27T2000,2385A,114.17,35.9019,鹤壁市,市监测站,细颗粒物(PM2.5),179,182,127,135,78,113,113,147,146,28,23,8,8,0.9,0.8
2026-03-27T2000,2386A,114.2953,35.7512,鹤壁市,市交警支队,细颗粒物(PM2.5),182,185,138,137,86,111,111,141,141,28,27,9,10,0.7,0.7
2026-03-27T2000,2387A,114.2877,35.7302,鹤壁市,迎宾馆,细颗粒物(PM2.5),179,205,155,135,88,120,120,145,145,29,28,12,11,0.8,0.8
2026-03-27T2000,3474A,114.2616,35.6824,鹤壁市,大新区,细颗粒物(PM2.5),169,146,127,128,90,124,124,148,148,20,29,8,9,1.0,0.9
2026-03-27T2000,3596A,114.1573,35.9607,鹤壁市,南山宾馆,细颗粒物(PM2.5),163,206,163,124,83,117,117,142,142,21,16,9,12,0.6,0.7
2026-03-27T2000,2244A,130.2537,47.3416,鹤岗市,哈啤分公司,,31,31,33,21,27,94,94,102,100,11,12,8,8,0.5,0.4
2026-03-27T2000,2245A,130.2683,47.3087,鹤岗市,斯达机电,,33,31,42,23,27,96,96,102,101,9,13,9,11,0.3,0.3
2026-03-27T2000,2246A,130.3114,47.3388,鹤岗市,东山纸板厂,,38,38,74,22,38,90,90,108,104,3,13,8,11,0.6,1
2026-03-27T2000,2263A,127.4832,50.2524,黑河市,交通局,,26,18,41,14,23,81,81,84,84,6,16,5,7,0.4,0.6
2026-03-27T2000,2264A,127.5146,50.2339,黑河市,环保局,,26,23,48,11,32,81,81,89,87,12,27,7,8,0.4,0.6
2026-03-27T2000,1074A,115.6839,37.754,衡水市,电机北厂,颗粒物(PM10),60,64,115,34,61,74,74,116,107,26,38,2,5,0.1,0.3
2026-03-27T2000,1075A,115.6303,37.7318,衡水市,市监测站,颗粒物(PM10),62,66,118,25,63,84,84,117,110,20,26,3,5,0.3,0.5
2026-03-27T2000,3188A,115.6684,37.7216,衡水市,市城管局,,48,48,115,19,44,77,77,115,106,22,30,4,7,0.4,0.5
2026-03-27T2000,3459A,115.599,37.5491,衡水市,地表水厂,NA,NA,100,120,28,73,64,64,119,108,39,38,NA,7,0.3,0.4
2026-03-27T2000,2457A,112.6209,26.9268,衡阳市,衡阳化工总厂,,39,32,32,27,26,32,32,61,45,22,14,3,4,1.1,1
2026-03-27T2000,2458A,112.621,26.8957,衡阳市,珠晖区环保局,,41,41,35,28,27,36,36,58,46,21,20,6,6,1.1,1
2026-03-27T2000,2459A,112.628,26.8654,衡阳市,市委党校,,43,43,32,30,27,39,39,63,49,18,12,5,4,1.0,0.9
2026-03-27T2000,2460A,112.6007,26.8977,衡阳市,市监测站,细颗粒物(PM2.5),54,37,32,37,25,39,39,57,45,22,19,6,7,0.9,0.8
2026-03-27T2000,2461A,112.5658,26.9013,衡阳市,真空机电公司,,40,31,31,28,26,50,50,62,52,17,17,6,6,1.0,1
2026-03-27T2000,3399A,112.6703,26.8817,衡阳市,师范学院,,39,39,35,27,26,44,44,68,52,14,10,4,9,0.9,0.9
2026-03-27T2000,3038A,103.3757,23.3679,红河哈尼族彝族自治州,州图书馆,NA,NA,95,80,NA,67,143,143,163,160,11,11,6,6,0.7,0.7
2026-03-27T2000,4154A,103.401,23.3561,红河哈尼族彝族自治州,蒙自市朝阳路,细颗粒物(PM2.5),121,96,71,83,65,140,140,165,162,16,12,11,11,0.9,0.7
2026-03-27T2000,1090A,111.6506,40.7517,呼和浩特市,呼市一监,颗粒物(PM10),55,56,28,32,15,84,84,103,102,22,12,9,9,0.4,0.5
2026-03-27T2000,1094A,111.7516,40.8369,呼和浩特市,如意水处理厂,,45,45,22,20,12,65,65,103,98,43,19,10,9,0.5,0.4
2026-03-27T2000,1095A,111.727798,40.806187,呼和浩特市,二十九中,,42,42,29,26,14,74,74,95,93,32,13,10,8,0.4,0.5
2026-03-27T2000,1097A,111.717,40.7617,呼和浩特市,化肥厂生活区,颗粒物(PM10),75,85,32,46,18,67,67,101,98,48,15,8,7,0.6,0.4
2026-03-27T2000,3699A,111.6519,40.8389,呼和浩特市,海东办,颗粒物(PM10),51,51,19,24,10,72,72,94,92,37,17,6,5,0.4,0.3
2026-03-27T2000,4275A,111.591512,40.827312,呼和浩特市,成吉思汗西街8号,颗粒物(PM10),70,78,25,32,11,42,42,98,92,63,21,6,4,0.5,0.3
2026-03-27T2000,4276A,111.6597,40.8077,呼和浩特市,公园东路75号,颗粒物(PM10),55,56,27,20,13,92,92,96,96,22,16,9,9,0.4,0.4
2026-03-27T2000,4277A,111.5427,40.7846,呼和浩特市,金海路35号,颗粒物(PM10),60,64,27,36,13,67,67,100,97,38,18,9,9,0.5,0.3
2026-03-27T2000,3061A,119.7511,49.1576,呼伦贝尔市,国华电力东,,26,26,20,16,9,74,74,86,84,8,6,5,5,0.2,0.2
2026-03-27T2000,4279A,119.7569,49.2222,呼伦贝尔市,伊敏大街东7号,,28,28,19,17,8,78,78,89,88,12,8,6,6,0.5,0.4
2026-03-27T2000,1250A,120.075,30.867,湖州市,城西水厂,,45,40,48,28,33,141,141,145,145,17,23,6,6,0.6,0.6
2026-03-27T2000,2873A,120.083,30.8929,湖州市,仁皇山新区,,43,42,50,27,32,136,136,146,146,22,28,5,6,0.6,0.6
2026-03-27T2000,2907A,120.1846,30.8592,湖州市,吴兴区站,,34,34,55,14,28,104,104,138,137,22,19,5,6,0.5,0.6
2026-03-27T2000,3562A,120.4146,30.8538,湖州市,南浔区站,,29,28,54,13,30,90,90,118,117,19,21,4,5,0.5,0.5
2026-03-27T2000,1607A,120.904878,40.721091,葫芦岛市,龙港区,,28,14,45,12,34,89,89,103,103,21,25,10,15,0.4,0.5
2026-03-27T2000,1608A,120.8382,40.7521,葫芦岛市,化工街,,39,34,51,27,26,72,72,96,94,32,32,22,20,0.5,0.5
2026-03-27T2000,1609A,120.8339,40.7078,葫芦岛市,新区,,25,17,39,14,27,80,80,94,92,20,24,14,14,0.4,0.5
2026-03-27T2000,1610A,120.8697,40.7679,葫芦岛市,东城区,,36,NA,46,25,28,69,69,99,96,38,26,15,18,0.7,0.6
2026-03-27T2000,2483A,109.9297,27.5383,怀化市,河西地税局,,26,19,19,18,12,51,51,54,53,10,12,3,4,/,/
2026-03-27T2000,2484A,109.9783,27.5342,怀化市,市四医院,,26,26,20,17,8,47,47,55,55,12,12,5,7,0.6,0.5
2026-03-27T2000,2485A,109.9971,27.5579,怀化市,监测楼,,29,26,18,20,13,49,49,54,54,13,14,3,5,0.4,0.4
2026-03-27T2000,1210A,119.0566,33.5991,淮安市,钵池山,细颗粒物(PM2.5),86,83,74,53,54,93,93,124,124,38,37,10,11,0.6,0.5
2026-03-27T2000,1211A,119.0083,33.578,淮安市,北京南路,细颗粒物(PM2.5),108,110,76,68,58,55,55,112,107,58,33,9,12,0.7,0.7
2026-03-27T2000,1212A,118.9938,33.6083,淮安市,市监测站,细颗粒物(PM2.5),102,90,68,62,57,93,93,132,131,42,35,7,9,0.7,0.7
2026-03-27T2000,1213A,119.135,33.5038,淮安市,楚州区监测站,颗粒物(PM10),65,71,70,38,49,76,76,110,107,35,35,8,8,0.5,0.5
2026-03-27T2000,3426A,118.8757,33.2897,淮安市,新华书店,"颗粒物(PM10),细颗粒物(PM2.5)",62,66,91,41,52,64,64,103,100,41,41,8,10,0.5,0.6
2026-03-27T2000,4092A,119.119691,33.550006,淮安市,枚皋中路89号,颗粒物(PM10),66,72,77,31,51,70,70,114,111,21,31,10,12,0.9,0.8
2026-03-27T2000,4206A,119.028838,33.631911,淮安市,承德北路606号,细颗粒物(PM2.5),92,105,91,56,57,87,87,121,119,36,37,11,11,0.9,0.5
2026-03-27T2000,2282A,116.8005,33.9749,淮北市,监测站,细颗粒物(PM2.5),92,93,114,56,78,146,146,201,196,31,23,7,8,0.7,0.7
2026-03-27T2000,2283A,116.8094,33.9008,淮北市,烈山区政府,颗粒物(PM10),88,103,102,52,72,144,144,184,178,34,26,3,8,0.6,0.6
2026-03-27T2000,4017A,116.7926,33.9534,淮北市,市博物馆,细颗粒物(PM2.5),90,90,114,55,81,152,152,189,186,28,23,6,8,0.6,0.7
2026-03-27T2000,4100A,116.8322,33.9884,淮北市,杜集区第一实验学校,颗粒物(PM10),88,102,120,43,73,130,130,179,174,34,26,7,8,0.5,0.6
2026-03-27T2000,2277A,116.8304,32.7726,淮南市,潘集区政府,细颗粒物(PM2.5),101,106,102,61,67,92,92,110,110,33,35,8,9,0.6,0.7
2026-03-27T2000,2279A,116.8569,32.5949,淮南市,谢家集区政府,细颗粒物(PM2.5),105,116,78,65,52,105,105,109,109,42,33,14,12,0.9,0.7
2026-03-27T2000,2280A,116.8279,32.6333,淮南市,八公山区政府,细颗粒物(PM2.5),113,103,91,74,69,98,98,109,109,31,22,10,11,0.8,0.8
2026-03-27T2000,2894A,117.0561,32.6536,淮南市,经济技术开发区消防队,细颗粒物(PM2.5),110,114,90,70,60,78,78,95,94,50,34,9,9,0.8,0.7
2026-03-27T2000,3329A,117.011,32.5891,淮南市,山南新区,细颗粒物(PM2.5),107,114,90,67,57,112,112,114,114,35,29,10,10,0.9,0.7
2026-03-27T2000,4209A,117.003137,32.644456,淮南市,国庆中路369号,细颗粒物(PM2.5),112,102,86,73,65,96,96,96,96,31,26,12,12,0.9,0.7
2026-03-27T2000,2446A,114.9021,30.474,黄冈市,职工中心,,50,42,53,35,34,124,124,136,136,13,11,6,6,0.7,0.7
2026-03-27T2000,2929A,114.8858,30.4519,黄冈市,红卫路,细颗粒物(PM2.5),52,42,49,36,34,115,115,141,140,16,11,5,5,0.4,0.5
2026-03-27T2000,3398A,114.9134,30.4446,黄冈市,市林业局,颗粒物(PM10),62,66,59,29,35,108,108,132,132,24,12,4,4,0.6,0.7
2026-03-27T2000,2672A,102.02,35.5101,黄南藏族自治州,同仁县隆务镇,颗粒物(PM10),102,125,64,48,26,104,104,108,108,6,3,12,9,0.3,0.3
2026-03-27T2000,2295A,118.2905,29.6965,黄山市,延安路89号,,21,21,22,10,10,57,57,82,79,15,12,5,4,0.5,0.5
2026-03-27T2000,2297A,118.1369,30.2755,黄山市,黄山区政府5号楼,,28,28,25,12,17,33,33,81,75,10,9,3,3,0.7,0.6
2026-03-27T2000,4210A,118.335445,29.720283,黄山市,滨江东路7-2号,,26,26,30,9,10,54,54,84,80,13,8,/,/,/,/
2026-03-27T2000,2423A,115.0547,30.2332,黄石市,沈家营,颗粒物(PM10),60,63,62,34,34,76,76,111,110,20,11,4,7,1.0,0.9
2026-03-27T2000,2426A,114.899,30.211,黄石市,铁山,"颗粒物(PM10),细颗粒物(PM2.5)",60,64,48,40,35,87,87,132,129,17,13,11,9,1.4,1.2
2026-03-27T2000,2427A,115.0259,30.2108,黄石市,团城山,颗粒物(PM10),63,67,56,41,37,106,106,116,116,15,12,4,4,0.8,0.8
2026-03-27T2000,3149A,115.0174,30.1591,黄石市,笔架山北路,颗粒物(PM10),78,89,80,37,36,99,99,125,125,17,15,8,9,0.8,0.9
2026-03-27T2000,4185A,115.078022,30.21118,黄石市,磁湖东路29号,细颗粒物(PM2.5),74,79,64,47,35,113,113,133,133,8,14,3,4,0.9,0.8
2026-03-27T2000,1392A,114.4181,23.0528,惠州市,河南岸金山湖子站,NA,NA,36,44,19,25,75,75,94,91,10,10,NA,7,0.6,0.7
2026-03-27T2000,1393A,114.4055,23.0824,惠州市,下埔横江三路子站,,46,46,50,23,27,72,72,97,92,13,11,4,5,0.6,0.6
2026-03-27T2000,1395A,114.4645,22.7832,惠州市,惠阳区承修路船湖子站,,49,49,44,22,21,89,89,91,88,11,9,6,6,0.3,0.3
2026-03-27T2000,1396A,114.5316,22.7423,惠州市,大亚湾管委会子站,,41,41,47,20,21,88,88,91,91,6,9,3,3,0.5,0.5
2026-03-27T2000,3314A,114.4334,22.8134,惠州市,惠阳秋长,,36,36,36,22,21,90,90,97,90,12,9,/,/,/,/
2026-03-27T2000,3452A,114.6521,22.7755,惠州市,大亚湾霞涌,,37,37,36,17,20,101,101,101,101,10,9,/,/,/,/
2026-03-27T2000,4300A,114.4089,23.1147,惠州市,文华一路1号,,41,41,43,23,26,69,69,98,92,15,11,/,/,/,/
2026-03-27T2000,2240A,130.9618,45.2926,鸡西市,环保局,细颗粒物(PM2.5),192,182,161,144,134,69,69,115,104,25,20,11,10,0.6,0.5
2026-03-27T2000,2243A,130.9294,45.2959,鸡西市,第一中学,细颗粒物(PM2.5),211,180,152,161,134,60,60,110,98,34,20,9,9,0.8,0.6
2026-03-27T2000,3707A,131.0069,45.2988,鸡西市,欧美日汽修厂,细颗粒物(PM2.5),215,200,175,165,138,53,53,111,99,34,27,18,12,1.4,1.1
2026-03-27T2000,2367A,114.9753,27.0803,吉安市,红声器材厂,,39,39,34,27,20,38,38,64,62,27,19,5,7,1.2,1.2
2026-03-27T2000,2369A,114.9903,27.1313,吉安市,市环境监测站,,40,39,31,28,21,56,56,63,63,16,18,7,8,/,/
2026-03-27T2000,2370A,115.009527,27.096792,吉安市,青原区法院,,42,42,32,28,20,46,46,65,61,24,17,8,5,1.1,1
2026-03-27T2000,1772A,126.54,43.8622,吉林市,哈达湾,细颗粒物(PM2.5),168,144,125,127,100,119,119,132,132,28,22,13,9,1.0,0.8
2026-03-27T2000,1773A,126.5843,43.8358,吉林市,东局子,细颗粒物(PM2.5),206,168,117,156,102,58,58,128,122,76,26,8,6,1.5,1.2
2026-03-27T2000,1774A,126.5051,43.8243,吉林市,电力学院,细颗粒物(PM2.5),216,276,118,166,91,59,59,143,136,74,25,12,8,1.9,0.9
2026-03-27T2000,1775A,126.6133,43.8971,吉林市,江北,细颗粒物(PM2.5),172,195,114,130,82,59,59,129,123,61,26,13,10,1.7,0.9
2026-03-27T2000,1776A,126.5549,43.8304,吉林市,江南公园,细颗粒物(PM2.5),211,183,111,161,100,93,93,128,127,48,25,13,9,1.2,0.9
2026-03-27T2000,2868A,126.4737,43.953,吉林市,九站,细颗粒物(PM2.5),272,268,122,222,102,59,59,118,112,84,35,21,11,1.3,0.6
2026-03-27T2000,1299A,116.9866,36.6118,济南市,科干所,细颗粒物(PM2.5),111,127,113,72,63,112,112,160,153,36,21,13,11,1.0,0.8
2026-03-27T2000,1300A,116.9379,36.6652,济南市,农科所,颗粒物(PM10),106,134,119,63,69,86,86,155,143,47,31,13,9,0.9,0.6
2026-03-27T2000,1301A,117.1265,36.6736,济南市,开发区,颗粒物(PM10),108,139,115,62,65,85,85,157,140,49,27,11,9,0.9,0.8
2026-03-27T2000,1303A,117.0616,36.6865,济南市,省种子仓库,颗粒物(PM10),115,158,132,61,66,84,84,158,142,43,28,11,8,0.9,0.7
2026-03-27T2000,1304A,116.9495185,36.644937,济南市,机床二厂,颗粒物(PM10),110,144,125,66,69,89,89,155,144,46,30,12,9,0.9,0.7
2026-03-27T2000,1305A,117.0496,36.6629,济南市,市监测站,颗粒物(PM10),110,144,125,65,61,88,88,151,139,44,31,10,8,0.9,0.7
2026-03-27T2000,1306A,116.7674,36.5458,济南市,长清党校,细颗粒物(PM2.5),117,154,121,78,63,109,109,155,149,37,20,9,9,0.7,0.6
2026-03-27T2000,1961A,117.5323,36.6865,济南市,东山小学,颗粒物(PM10),101,122,126,39,60,90,90,162,149,36,39,11,7,0.7,0.7
2026-03-27T2000,3059A,117.7181,36.205,济南市,泰兴公司,颗粒物(PM10),107,136,115,63,59,120,120,165,157,29,48,14,13,0.5,0.9
2026-03-27T2000,3064A,117.6861,36.2172,济南市,莱芜战役纪念馆,颗粒物(PM10),106,134,119,54,56,114,114,161,157,34,39,9,9,0.7,0.8
2026-03-27T2000,3494A,117.1673,36.9782,济南市,济阳区政府,颗粒物(PM10),75,85,139,27,80,88,88,120,117,21,32,13,12,0.5,0.5
2026-03-27T2000,3495A,117.1168,36.6299,济南市,锦屏中学,细颗粒物(PM2.5),107,132,103,67,66,90,90,152,141,44,23,12,9,0.6,0.4
2026-03-27T2000,4108A,117.7107,36.2385,济南市,山财大街5号,颗粒物(PM10),98,117,109,54,57,116,116,163,156,39,42,13,12,0.6,0.7
2026-03-27T2000,4109A,116.9744,36.6889,济南市,无影山路12号,颗粒物(PM10),103,127,111,61,70,80,80,143,132,43,28,13,9,1.0,0.8
2026-03-27T2000,1653A,116.6229,35.4288,济宁市,火炬城,颗粒物(PM10),83,95,87,51,60,175,175,182,182,16,21,6,6,0.7,0.7
2026-03-27T2000,3500A,116.5808,35.3703,济宁市,北湖一中,颗粒物(PM10),84,97,83,42,56,172,172,186,186,19,21,10,12,0.6,0.6
2026-03-27T2000,3501A,116.8251,35.5592,济宁市,服务中心,颗粒物(PM10),95,113,124,42,65,144,144,184,182,27,28,3,6,0.5,0.5
2026-03-27T2000,3678A,116.5907,35.4054,济宁市,市第七中学,颗粒物(PM10),165,279,100,46,57,184,184,193,193,18,24,7,9,0.7,0.7
2026-03-27T2000,4111A,116.6075,35.4566,济宁市,任和路,颗粒物(PM10),102,124,114,40,57,145,145,185,180,22,25,7,8,0.5,0.6
2026-03-27T2000,4112A,116.5648,35.3921,济宁市,文体南路1号,颗粒物(PM10),93,110,112,45,54,166,166,189,187,28,24,5,7,0.6,0.6
2026-03-27T2000,4122A,112.6071,35.1015,济源市,市委党校,细颗粒物(PM2.5),106,131,155,66,69,125,125,156,155,29,31,8,13,0.5,0.9
2026-03-27T2000,4123A,112.596,35.0702,济源市,沁园中路1号,颗粒物(PM10),92,108,141,48,77,114,114,150,150,32,44,5,11,0.7,1.3
2026-03-27T2000,2255A,130.2749,46.8028,佳木斯市,佳纺,细颗粒物(PM2.5),122,142,92,84,63,80,80,114,106,24,27,7,7,0.5,0.5
2026-03-27T2000,2257A,130.3258,46.7975,佳木斯市,环保局,细颗粒物(PM2.5),139,129,86,102,61,65,65,113,104,NA,32,9,7,NA,0.5
2026-03-27T2000,4285A,130.363,46.806,佳木斯市,顺和街,细颗粒物(PM2.5),126,114,77,88,64,76,76,104,97,30,26,6,4,0.5,0.4
2026-03-27T2000,4286A,130.3952,46.8268,佳木斯市,长安路196号,细颗粒物(PM2.5),149,NA,75,113,56,79,79,105,100,26,19,6,4,0.7,0.5
2026-03-27T2000,1252A,120.7439,30.778,嘉兴市,清河小学,,29,13,29,3,14,92,92,118,115,41,28,6,6,0.2,0.3
2026-03-27T2000,1253A,120.7261,30.7477,嘉兴市,嘉兴学院,,31,12,33,8,18,98,98,126,123,25,25,5,6,0.4,0.4
2026-03-27T2000,2872A,120.7845,30.7524,嘉兴市,南湖区残联,,26,22,23,7,18,83,83,108,105,22,19,4,5,0.5,0.6
2026-03-27T2000,3407A,120.6915,30.7741,嘉兴市,秀洲住建,NA,NA,10,31,3,16,99,99,127,124,19,26,6,8,NA,0.3
2026-03-27T2000,1945A,98.291,39.7705,嘉峪关市,气象局,颗粒物(PM10),60,63,58,15,17,96,96,109,106,14,9,27,13,0.8,0.7
2026-03-27T2000,2884A,98.2672,39.7978,嘉峪关市,酒钢宾馆,颗粒物(PM10),63,68,65,18,18,96,96,108,102,13,8,36,21,0.9,0.6
2026-03-27T2000,3248A,98.2644,39.7723,嘉峪关市,雄关区,颗粒物(PM10),56,58,60,16,18,93,93,105,104,16,11,9,9,0.8,0.5
2026-03-27T2000,1383A,113.1063,22.6058,江门市,北街,,33,33,31,18,19,28,28,58,51,19,15,/,/,/,/
2026-03-27T2000,1384A,113.073,22.5835,江门市,西区,,28,22,32,19,18,45,45,64,61,19,15,/,/,/,/
2026-03-27T2000,1385A,113.0218,22.531,江门市,圭峰西,,28,21,27,19,19,53,53,66,63,16,12,/,/,/,/
2026-03-27T2000,1386A,113.0826,22.5947,江门市,东湖,,32,31,30,22,19,44,44,60,55,16,12,7,7,0.5,0.4
2026-03-27T2000,3311A,113.1077,22.5647,江门市,江海富民,,43,43,44,26,20,40,40,68,62,19,15,/,/,0.4,0.4
2026-03-27T2000,3449A,113.0496,22.4669,江门市,新会银湖,NA,NA,NA,30,20,18,15,15,60,50,36,25,7,7,0.3,0.3
2026-03-27T2000,3335A,113.3137,35.2643,焦作市,马村街道办,细颗粒物(PM2.5),131,156,124,94,71,128,128,149,149,19,24,11,12,0.6,0.7
2026-03-27T2000,3336A,113.2464,35.2374,焦作市,焦作技师学院,细颗粒物(PM2.5),129,148,122,91,67,137,137,153,153,19,30,11,14,0.8,0.8
2026-03-27T2000,3477A,113.1656,35.2536,焦作市,中站许衡医院,细颗粒物(PM2.5),121,145,106,83,55,156,156,168,168,20,21,13,13,0.7,1
2026-03-27T2000,3981A,113.2456,35.18,焦作市,原李万街道办,细颗粒物(PM2.5),121,155,128,83,72,127,127,147,147,16,35,20,14,0.8,0.7
2026-03-27T2000,4264A,113.234,35.219,焦作市,新安路1731号,细颗粒物(PM2.5),122,157,141,84,73,142,142,162,162,20,39,13,16,0.7,0.9
2026-03-27T2000,4295A,113.2722,35.2121,焦作市,人民路3066号,细颗粒物(PM2.5),133,166,146,96,78,130,130,157,157,16,30,12,13,0.7,0.6
2026-03-27T2000,1708A,116.3701,23.5345,揭阳市,新兴,颗粒物(PM10),51,51,50,27,27,79,79,107,105,19,18,14,10,0.8,0.8
2026-03-27T2000,1709A,116.3261,23.5442,揭阳市,西马,颗粒物(PM10),61,65,55,30,26,78,78,111,108,18,16,9,8,0.9,0.8
2026-03-27T2000,1710A,116.361,23.5627,揭阳市,东兴,,48,48,50,33,27,75,75,113,107,23,19,6,8,/,/
2026-03-27T2000,1711A,116.4151,23.5295,揭阳市,渔湖,颗粒物(PM10),54,55,53,23,31,90,90,125,123,14,16,6,6,/,/
2026-03-27T2000,3320A,116.4028,23.5699,揭阳市,曲溪,颗粒物(PM10),54,55,46,25,25,88,88,117,117,15,16,9,11,1.2,0.6
2026-03-27T2000,1944A,102.1691,38.5166,金昌市,天庆家园,,38,36,73,20,20,121,121,104,104,4,3,3,3,0.5,0.4
2026-03-27T2000,4022A,102.1648,38.5369,金昌市,金川区人防中心,,44,44,79,24,23,118,118,102,102,4,4,6,6,0.3,0.1
2026-03-27T2000,4239A,102.193042,38.531887,金昌市,长春路96号,,35,34,69,18,27,110,110,96,96,4,4,5,6,0.4,0.4
2026-03-27T2000,1262A,119.6478,29.0773,金华市,十五中,,30,30,36,16,25,37,37,57,54,24,29,2,3,0.7,0.7
2026-03-27T2000,1263A,119.6859,29.1032,金华市,监测站,,29,27,35,20,26,36,36,60,56,31,30,5,2,0.7,0.7
2026-03-27T2000,3659A,119.656,29.1132,金华市,气象局,,36,36,36,23,27,26,26,52,49,38,35,2,3,0.6,0.7
2026-03-27T2000,1767A,121.1114,41.0879,锦州市,南山,,32,18,42,15,21,100,100,107,107,24,19,11,10,0.4,0.5
2026-03-27T2000,1768A,121.060361,40.842794,锦州市,开发区,颗粒物(PM10),75,85,63,14,28,58,58,94,87,53,30,8,9,0.3,0.6
2026-03-27T2000,1769A,121.1836,41.1118,锦州市,百股街道,,33,25,54,17,35,103,103,108,108,23,25,10,10,0.5,0.6
2026-03-27T2000,1770A,121.1176,41.1224,锦州市,天安街道,,38,38,41,18,20,98,98,102,102,22,17,9,7,0.4,0.4
2026-03-27T2000,1771A,121.1303,41.1385,锦州市,北湖公园,,34,34,40,18,22,106,106,107,107,19,14,7,6,0.5,0.5
2026-03-27T2000,2160A,112.8496,35.5051,晋城市,自来水公司,颗粒物(PM10),101,121,103,52,39,160,160,168,168,24,29,8,8,0.4,0.6
2026-03-27T2000,2162A,112.8509,35.4886,晋城市,市环保局,颗粒物(PM10),92,108,100,55,47,161,161,172,172,14,23,9,9,0.6,0.7
2026-03-27T2000,3620A,112.8258,35.4804,晋城市,泽州一中,颗粒物(PM10),76,86,103,41,39,164,164,170,170,15,19,7,7,0.4,0.8
2026-03-27T2000,4078A,112.8246,35.5152,晋城市,前书院路,颗粒物(PM10),90,106,105,53,38,153,153,156,156,16,23,10,9,1.0,1
2026-03-27T2000,4079A,112.8864,35.4773,晋城市,祥云街666号,NA,NA,NA,94,NA,50,130,130,154,154,NA,24,9,10,0.6,0.8
2026-03-27T2000,2174A,112.6992,37.6984,晋中市,榆次区政府,颗粒物(PM10),95,112,131,48,66,95,95,138,135,43,33,11,13,0.8,0.7
2026-03-27T2000,2865A,112.7195,37.683,晋中市,榆次三中,颗粒物(PM10),102,124,132,48,58,104,104,147,144,30,34,11,12,0.6,0.6
2026-03-27T2000,4080A,112.7375,37.7215,晋中市,广安街188号,颗粒物(PM10),118,166,136,61,62,76,76,138,132,47,35,14,14,0.7,0.6
2026-03-27T2000,4200A,112.7478,37.6954,晋中市,迎宾街26号,颗粒物(PM10),102,124,131,59,64,93,93,145,141,47,31,11,12,0.8,0.7
2026-03-27T2000,2439A,112.2012,31.048,荆门市,竹园小学,颗粒物(PM10),57,59,47,34,27,68,68,123,118,42,19,1,1,0,0.2
2026-03-27T2000,2440A,112.1968,30.9892,荆门市,掇刀,颗粒物(PM10),57,59,42,38,24,103,103,130,128,23,18,6,7,0.7,0.7
2026-03-27T2000,3012A,112.1849,31.0361,荆门市,西山林语,,42,38,40,29,27,79,79,128,123,20,13,4,5,0.3,0.5
2026-03-27T2000,3547A,112.1631,31.0134,荆门市,龙泉中学南校,,40,40,39,21,18,115,115,135,134,18,12,4,4,0.1,0.2
2026-03-27T2000,4124A,112.2213,31.0654,荆门市,新台西路6号,颗粒物(PM10),60,63,52,30,33,102,102,125,125,26,25,14,7,0.4,0.6
2026-03-27T2000,1844A,112.2493,30.3198,荆州市,市图书馆,细颗粒物(PM2.5),60,NA,30,40,27,115,115,128,128,23,22,8,6,0.5,0.5
2026-03-27T2000,1845A,112.2009,30.3543,荆州市,市委党校,颗粒物(PM10),53,53,36,32,24,87,87,115,113,33,22,8,7,0.8,0.8
2026-03-27T2000,3194A,112.2749,30.3124,荆州市,管委会,细颗粒物(PM2.5),68,52,33,44,28,108,108,124,124,17,17,12,10,0.6,0.7
2026-03-27T2000,4268A,112.1722,30.3366,荆州市,学苑路85号,NA,NA,45,33,34,25,106,106,142,140,20,10,NA,1,0.5,0.5
2026-03-27T2000,2343A,117.2114,29.2931,景德镇市,老干部活动中心,细颗粒物(PM2.5),58,NA,27,39,31,37,37,97,87,26,10,6,6,0.9,0.7
2026-03-27T2000,2344A,117.1893,29.2789,景德镇市,兽医站,颗粒物(PM10),57,59,40,30,27,48,48,102,93,23,12,5,4,1.0,0.8
2026-03-27T2000,2346A,117.246,29.2958,景德镇市,陶研所,,39,34,26,27,23,35,35,91,82,29,20,4,4,0.6,0.7
2026-03-27T2000,4289A,117.154766,29.256967,景德镇市,青少年活动中心,颗粒物(PM10),69,76,35,37,29,19,19,93,79,53,18,15,8,/,/
2026-03-27T2000,1803A,115.9873,29.6816,九江市,十里,细颗粒物(PM2.5),66,57,59,43,36,98,98,110,110,38,32,7,7,1.0,1.1
2026-03-27T2000,1804A,115.9583,29.7047,九江市,茅山头,细颗粒物(PM2.5),78,78,58,49,36,104,104,120,120,31,25,4,4,0.8,0.7
2026-03-27T2000,1805A,115.9877,29.7295,九江市,西园,细颗粒物(PM2.5),76,68,65,48,41,106,106,124,124,48,45,4,6,0.9,0.9
2026-03-27T2000,1808A,115.9112,29.6038,九江市,综合工业园,颗粒物(PM10),51,51,57,28,35,107,107,105,104,22,34,10,10,0.7,0.8
2026-03-27T2000,3190A,116.0254,29.6995,九江市,外国语学校,"颗粒物(PM10),细颗粒物(PM2.5)",62,66,52,41,46,100,100,116,116,34,30,6,7,0.9,0.9
2026-03-27T2000,4253A,116.010205,29.659402,九江市,莲花大道8号,颗粒物(PM10),55,57,57,31,36,110,110,112,112,15,23,5,6,0.6,0.8
2026-03-27T2000,4240A,98.495752,39.733935,酒泉市,玉门东路5号,颗粒物(PM10),53,53,54,24,19,90,90,95,95,4,5,5,6,0.2,0.2
2026-03-27T2000,4241A,98.5099,39.7506,酒泉市,北大街108号,,48,48,58,22,20,86,86,91,91,6,5,5,6,0.3,0.3
2026-03-27T2000,2698A,76.0071,39.466,喀什地区,巡警大队,颗粒物(PM10),500,606,729,172,199,102,102,96,96,6,13,3,3,0.2,0.3
2026-03-27T2000,2699A,75.9756,39.4693,喀什地区,吾办,颗粒物(PM10),500,618,715,177,177,96,96,94,94,11,14,3,4,0.3,0.3
2026-03-27T2000,4027A,75.9485,39.4688,喀什地区,老干局,颗粒物(PM10),500,652,735,159,166,107,107,101,101,5,12,3,2,0.3,0.3
2026-03-27T2000,1824A,114.3389,34.778,开封市,肿瘤医院,颗粒物(PM10),60,64,86,32,60,120,120,147,145,24,29,10,7,0.5,0.6
2026-03-27T2000,1826A,114.2884,34.7966,开封市,世纪星幼儿园,颗粒物(PM10),60,63,83,39,54,121,121,145,143,23,31,10,11,0.5,0.6
2026-03-27T2000,3147A,114.3434,34.8101,开封市,龙亭公园,颗粒物(PM10),59,62,89,33,54,129,129,154,152,24,30,11,11,0.6,1
2026-03-27T2000,3210A,114.3645,34.7955,开封市,汴京公园,细颗粒物(PM2.5),78,66,85,49,61,117,117,154,150,31,30,8,6,0.6,0.6
2026-03-27T2000,3473A,114.2485,34.8306,开封市,技师学院,,50,50,77,30,53,136,136,153,152,13,21,8,10,0.5,0.9
2026-03-27T2000,3592A,114.4518,34.7503,开封市,祥符区生态环境局,颗粒物(PM10),70,77,96,39,57,93,93,148,140,48,38,7,7,0.6,0.6
2026-03-27T2000,1951A,84.886,45.6029,克拉玛依市,长征新村,,33,26,24,8,5,103,103,97,97,6,12,6,6,0.3,0.4
2026-03-27T2000,1952A,84.8894,45.5827,克拉玛依市,南林小区,,35,23,24,3,0,109,109,103,103,3,10,5,5,0.1,0.1
2026-03-27T2000,1954A,84.896,44.3328,克拉玛依市,独山子区,,38,38,43,20,15,112,112,113,113,12,16,6,5,0.5,0.6
2026-03-27T2000,1955A,85.6888,46.0909,克拉玛依市,乌尔禾区商贸楼,,34,34,35,9,9,97,97,93,93,4,14,2,2,0.3,0.4
2026-03-27T2000,3612A,85.1045,45.6895,克拉玛依市,白碱滩区新站,,35,30,30,6,4,111,111,101,101,1,10,5,5,0.1,0.2
2026-03-27T2000,2697A,76.1457,39.7143,克孜勒苏柯尔克孜自治州,市人民政府,颗粒物(PM10),500,639,774,174,185,107,107,103,103,2,10,4,4,0.1,0.1
2026-03-27T2000,3665A,76.1654,39.7157,克孜勒苏柯尔克孜自治州,克州文化中心,颗粒物(PM10),500,651,771,172,182,103,103,99,99,3,7,6,5,0.3,0.4
2026-03-27T2000,1450A,102.8203,24.889,昆明市,呈贡新区,,39,39,31,26,22,121,121,136,134,9,9,2,4,0.5,0.5
2026-03-27T2000,1452A,102.7253,25.0904,昆明市,龙泉镇,,41,41,47,24,24,109,109,120,117,10,38,4,5,0.5,0.5
2026-03-27T2000,1453A,102.7267,25.0378,昆明市,东风东路,,38,38,35,24,21,114,114,126,123,11,13,2,6,0.4,0.5
2026-03-27T2000,1454A,102.6744,25.0671,昆明市,金鼎山,,43,43,44,23,22,109,109,121,118,13,27,3,4,0.5,0.7
2026-03-27T2000,1455A,102.6643,25.0401,昆明市,碧鸡广场,,35,33,39,24,22,109,109,118,116,16,23,5,7,0.3,0.4
2026-03-27T2000,3179A,102.7491,25.012,昆明市,官渡区博物馆,,36,35,34,22,19,114,114,129,127,12,15,4,6,0.3,0.4
2026-03-27T2000,3375A,102.8016,24.8336,昆明市,青年创业园,,40,26,32,26,21,125,125,132,130,5,9,4,5,0.3,0.4
2026-03-27T2000,3550A,102.8,24.9787,昆明市,昆明学院,,35,34,39,24,21,111,111,127,124,8,13,5,7,0.4,0.5
2026-03-27T2000,3551A,102.5969,24.6738,昆明市,晋宁区生态环境分局,,46,36,29,32,21,130,130,129,129,4,8,2,2,0.2,0.3
2026-03-27T2000,3552A,102.6673,24.9861,昆明市,云天化总部,,38,30,32,26,18,120,120,129,127,7,20,4,6,0.3,0.4
2026-03-27T2000,1456A,91.132,29.6515,拉萨市,八廓街,,35,16,15,3,6,109,109,113,112,8,6,5,4,0.4,0.4
2026-03-27T2000,1457A,91.1221,29.6748,拉萨市,市环保局,,29,6,11,3,6,90,90,104,101,16,8,4,4,0.4,0.4
2026-03-27T2000,1458A,91.0874,29.6476,拉萨市,区监测站,,32,6,9,3,5,102,102,109,108,14,9,4,4,0.5,0.4
2026-03-27T2000,1459A,91.1774,29.6541,拉萨市,西藏大学,,32,8,10,3,6,101,101,108,104,11,9,4,4,0.3,0.4
2026-03-27T2000,1460A,90.9798,29.6586,拉萨市,区辐射站,,27,22,11,8,6,85,85,100,96,23,11,4,4,0.5,0.4
2026-03-27T2000,1461A,91.0831,29.6292,拉萨市,拉萨火车站,NA,NA,9,12,7,9,NA,NA,106,106,6,7,4,4,0.5,0.4
2026-03-27T2000,2520A,109.2203,23.7252,来宾市,来宾技工学校,颗粒物(PM10),53,54,71,36,53,33,33,42,40,10,16,4,8,1.2,1.3
2026-03-27T2000,3535A,109.1781,23.7293,来宾市,兴宾区政府,颗粒物(PM10),91,107,77,43,53,32,32,43,43,14,19,6,10,1.0,1
2026-03-27T2000,4002A,109.2312,23.7428,来宾市,中南小学,细颗粒物(PM2.5),54,47,73,37,60,34,34,45,43,12,21,6,10,0.9,1
2026-03-27T2000,1479A,103.8309,36.0467,兰州市,铁路设计院,NA,NA,NA,48,NA,24,NA,NA,84,NA,NA,22,NA,3,NA,0.3
2026-03-27T2000,3241A,103.7439,36.0841,兰州市,百合公园,,35,35,43,15,27,60,60,79,72,18,14,5,7,0.6,0.5
2026-03-27T2000,3242A,103.9613,35.9985,兰州市,和平,,45,NA,40,31,26,51,51,87,81,32,16,16,12,1.1,0.7
2026-03-27T2000,4236A,103.629272,36.093822,兰州市,庄浪东路808号,,43,43,55,20,29,57,57,87,72,35,24,6,8,0.6,0.5
2026-03-27T2000,4237A,103.7251,36.104344,兰州市,安宁西路88号,,40,40,53,16,28,72,72,93,87,19,15,6,9,0.3,0.3
2026-03-27T2000,4238A,103.846982,36.067567,兰州市,北滨河东路1号,,29,28,44,20,26,58,58,86,78,33,26,7,8,0.6,0.5
2026-03-27T2000,1067A,116.6712,39.5109,廊坊市,药材公司,NA,NA,69,97,36,57,NA,NA,120,120,21,26,2,4,0.4,0.6
2026-03-27T2000,1068A,116.7215,39.5592,廊坊市,开发区,颗粒物(PM10),74,83,65,33,31,82,82,115,112,21,13,3,3,0.4,0.4
2026-03-27T2000,1070A,116.7246,39.5273,廊坊市,北华航天学院,颗粒物(PM10),75,84,96,19,50,80,80,120,116,22,23,6,5,0.4,0.5
2026-03-27T2000,2919A,116.7022,39.5454,廊坊市,河北工业大学,颗粒物(PM10),73,82,90,37,50,82,82,117,114,26,20,5,4,0.4,0.5
2026-03-27T2000,2536A,103.7629,29.5844,乐山市,牛耳桥,颗粒物(PM10),61,65,58,30,32,63,63,84,84,35,39,9,8,0.9,0.8
2026-03-27T2000,2537A,103.7501,29.6002,乐山市,市第三水厂,颗粒物(PM10),60,63,57,31,33,57,57,73,73,41,42,5,5,0.9,0.8
2026-03-27T2000,2538A,103.7571,29.5664,乐山市,市监测站,,50,50,56,24,26,74,74,81,81,23,30,6,6,0.9,0.9
2026-03-27T2000,3361A,103.7313,29.563,乐山市,理工大学,颗粒物(PM10),57,59,57,27,30,70,70,77,76,30,34,9,9,0.9,1
2026-03-27T2000,2599A,100.2497,26.8802,丽江市,丽江古城,,32,25,22,17,10,100,100,102,102,8,7,10,10,0.5,0.4
2026-03-27T2000,2600A,100.2203,26.8906,丽江市,市中心,,33,16,12,13,10,103,103,106,105,10,9,7,7,0.4,0.4
2026-03-27T2000,1267A,119.9141,28.4513,丽水市,监测站大楼,,40,28,21,28,15,61,61,71,71,20,11,4,4,0.5,0.3
2026-03-27T2000,1268A,119.93,28.4589,丽水市,莲都小学,,48,48,26,26,13,65,65,73,73,22,15,/,/,/,/
2026-03-27T2000,1269A,119.8794,28.4232,丽水市,余庄前,,30,30,23,18,15,39,39,65,58,16,13,3,4,0.6,0.4
2026-03-27T2000,1173A,119.1759,34.5885,连云港市,市环境监测站,细颗粒物(PM2.5),112,119,105,73,75,138,138,166,165,32,37,9,13,0.7,0.6
2026-03-27T2000,3000A,119.3577,34.6971,连云港市,德源药业,细颗粒物(PM2.5),103,124,119,63,70,107,107,174,165,44,42,6,8,0.5,0.6
2026-03-27T2000,3007A,119.178,34.8442,连云港市,新城一中,细颗粒物(PM2.5),102,105,121,62,92,121,121,168,163,38,53,10,12,0.9,0.9
2026-03-27T2000,3008A,119.3607,34.7519,连云港市,胡沟管理处,颗粒物(PM10),84,97,97,51,58,151,151,174,173,31,34,12,14,0.6,0.3
2026-03-27T2000,3009A,119.1478,34.5913,连云港市,矿山设计院,细颗粒物(PM2.5),101,110,115,61,71,161,161,172,172,23,42,10,13,0.8,0.8
2026-03-27T2000,3434A,119.2414,34.6539,连云港市,工贸学校,细颗粒物(PM2.5),82,73,92,51,65,154,154,181,176,20,24,11,15,0.5,0.5
2026-03-27T2000,3664A,119.4171,34.734,连云港市,连云街道,细颗粒物(PM2.5),102,106,116,62,73,170,170,169,169,21,30,7,10,0.5,0.6
2026-03-27T2000,2573A,102.2629,27.8981,凉山彝族自治州,西昌市政府,,32,24,22,19,16,100,100,118,117,8,8,7,8,0.6,0.6
2026-03-27T2000,2574A,102.2686,27.885,凉山彝族自治州,凉山州政府,,31,31,25,16,13,85,85,104,103,12,10,4,4,0.5,0.4
2026-03-27T2000,4229A,102.2342,27.8859,凉山彝族自治州,凯乐南路30号,,31,27,31,11,12,97,97,111,110,15,20,10,13,0.6,0.5
2026-03-27T2000,2212A,123.1978,41.2036,辽阳市,宏伟区,细颗粒物(PM2.5),102,83,89,62,53,104,104,125,124,21,15,13,11,0.7,0.8
2026-03-27T2000,2213A,123.1684,41.2497,辽阳市,新华园,细颗粒物(PM2.5),155,NA,85,118,56,75,75,122,118,48,19,17,13,1.1,0.7
2026-03-27T2000,2214A,123.2355,41.2663,辽阳市,滨河路,细颗粒物(PM2.5),109,84,84,69,53,84,84,112,109,36,20,18,11,0.6,0.7
2026-03-27T2000,4083A,123.153,41.2874,辽阳市,铁西路150号,细颗粒物(PM2.5),139,NA,97,102,58,80,80,109,107,38,22,15,12,1.0,0.7
2026-03-27T2000,2227A,125.1359,42.8845,辽源市,环保局,细颗粒物(PM2.5),130,118,104,93,71,46,46,112,102,49,19,10,8,0.9,0.6
2026-03-27T2000,4085A,125.0998,42.9134,辽源市,安宁大街333号,细颗粒物(PM2.5),142,126,110,106,76,60,60,118,108,30,15,8,6,0.9,0.7
2026-03-27T2000,1625A,115.9789,36.4372,聊城市,区政府,细颗粒物(PM2.5),142,174,131,106,77,121,121,146,144,27,23,9,9,0.9,0.8
2026-03-27T2000,3200A,115.9772,36.4986,聊城市,监控中心,细颗粒物(PM2.5),160,207,127,122,79,102,102,164,156,36,24,12,12,0.9,0.7
2026-03-27T2000,3513A,116.0443,36.436,聊城市,九州社区,细颗粒物(PM2.5),144,186,133,108,81,122,122,163,157,34,25,7,6,0.7,0.6
2026-03-27T2000,4018A,116.0564,36.4609,聊城市,星美广场,细颗粒物(PM2.5),140,193,136,103,80,115,115,161,152,41,27,8,8,0.8,0.8
2026-03-27T2000,4113A,116.0091,36.4495,聊城市,利民路,细颗粒物(PM2.5),143,178,115,107,76,130,130,166,162,33,21,8,8,0.7,0.6
2026-03-27T2000,2632A,94.3683,29.6373,林芝市,林芝监测站,,28,9,6,7,5,88,88,99,98,7,3,6,11,0.5,0.4
2026-03-27T2000,2633A,94.3616,29.6634,林芝市,林芝人民医院,,30,NA,11,15,8,94,94,104,103,7,3,6,4,0.7,0.6
2026-03-27T2000,2603A,100.0779,23.8981,临沧市,市环保局,细颗粒物(PM2.5),68,60,45,44,36,124,124,139,139,10,9,9,9,0.5,0.5
2026-03-27T2000,2604A,100.0894,23.882,临沧市,市气象局,细颗粒物(PM2.5),68,48,43,44,37,138,138,142,142,6,10,7,9,0.2,0.2
2026-03-27T2000,1733A,111.5552,36.0791,临汾市,临钢医院,NA,NA,NA,130,NA,57,NA,NA,124,NA,NA,39,NA,12,NA,1.2
2026-03-27T2000,1734A,111.4984,36.0734,临汾市,技工学校,细颗粒物(PM2.5),119,141,122,80,70,127,127,157,157,33,30,10,12,0.9,1.1
2026-03-27T2000,1736A,111.5017,36.0857,临汾市,市委,颗粒物(PM10),107,136,131,65,62,143,143,164,164,28,30,11,12,0.9,1
2026-03-27T2000,3018A,111.5048,36.1015,临汾市,唐尧大酒店,颗粒物(PM10),107,137,133,64,61,139,139,160,160,28,34,13,15,1.0,1.1
2026-03-27T2000,4244A,111.4879,36.053,临汾市,启星学校,颗粒物(PM10),107,136,120,62,56,123,123,158,158,48,42,12,13,1.0,1.2
2026-03-27T2000,4271A,103.2464,35.6123,临夏回族自治州,滨河东路1号,颗粒物(PM10),68,75,65,30,32,48,48,75,70,38,28,5,5,0.5,0.5
2026-03-27T2000,4310A,103.207136,35.599807,临夏回族自治州,新华街21号,NA,NA,46,51,31,31,NA,NA,72,69,11,8,8,8,0.8,0.7
2026-03-27T2000,1618A,118.3429,35.0532,临沂市,沂河小区,颗粒物(PM10),107,136,135,50,78,138,138,187,184,29,36,19,23,0.5,0.6
2026-03-27T2000,1619A,118.2962,35.0568,临沂市,鲁南制药厂,颗粒物(PM10),106,134,142,48,81,140,140,195,188,36,49,23,26,0.5,0.6
2026-03-27T2000,1620A,118.2793,34.9976,临沂市,新光毛纺厂,颗粒物(PM10),102,124,131,52,84,129,129,198,189,40,51,17,25,0.5,0.5
2026-03-27T2000,1621A,118.3955,35.0889,临沂市,河东保险公司,颗粒物(PM10),101,122,121,47,72,156,156,195,192,31,35,14,18,0.5,0.5
2026-03-27T2000,3370A,118.3563,35.0215,临沂市,十里堡居委,颗粒物(PM10),104,129,126,50,83,139,139,194,189,38,49,21,24,0.6,0.7
2026-03-27T2000,3496A,118.359,35.1067,临沂市,南坊新区,颗粒物(PM10),95,112,119,47,76,147,147,186,184,27,35,15,20,0.5,0.5
2026-03-27T2000,3860A,118.3915,35.0297,临沂市,皇山花园小区,NA,NA,NA,127,NA,82,151,151,189,186,32,38,17,21,0.6,0.6
2026-03-27T2000,1870A,109.4854,24.3898,柳州市,柳东小学,,23,23,53,16,37,51,51,44,44,9,13,4,12,0.9,0.9
2026-03-27T2000,1871A,109.4109,24.3304,柳州市,环保监测站,,32,32,51,22,38,36,36,32,32,15,19,4,12,1.1,1.1
2026-03-27T2000,1872A,109.3886,24.3408,柳州市,河西水厂,NA,NA,NA,65,NA,42,32,32,30,30,13,21,6,17,NA,1.2
2026-03-27T2000,1873A,109.4263,24.2951,柳州市,市四中,,30,30,55,14,39,44,44,39,39,10,16,6,13,1.0,1
2026-03-27T2000,1874A,109.396,24.3658,柳州市,市九中,,30,27,54,21,40,28,28,26,26,11,18,8,16,1.0,1.1
2026-03-27T2000,1875A,109.4912,24.3164,柳州市,古亭山,,22,15,51,15,41,59,59,48,48,10,13,6,10,0.8,0.9
2026-03-27T2000,3402A,109.5422,24.3994,柳州市,市二中,,18,17,47,12,35,53,53,49,49,11,14,6,10,0.9,0.9
2026-03-27T2000,2307A,116.5078,31.7369,六安市,监测大楼,颗粒物(PM10),55,57,75,32,61,92,92,106,106,32,24,5,5,0.5,0.6
2026-03-27T2000,2308A,116.4738,31.7642,六安市,皖西学院,颗粒物(PM10),70,77,82,30,64,95,95,117,116,29,17,6,6,0.4,0.5
2026-03-27T2000,2309A,116.4997,31.7904,六安市,朝阳厂,颗粒物(PM10),57,59,79,31,63,94,94,111,110,33,27,6,7,0.4,0.5
2026-03-27T2000,2310A,116.5566,31.7885,六安市,开发区,颗粒物(PM10),102,123,87,37,65,38,38,111,100,87,26,7,7,0.4,0.6
2026-03-27T2000,2577A,104.8293,26.592,六盘水市,黄土坡,,48,42,42,33,27,58,58,74,63,19,13,7,7,0.5,0.5
2026-03-27T2000,2579A,104.8481,26.5898,六盘水市,民中,颗粒物(PM10),52,52,41,34,28,52,52,72,57,24,13,4,4,0.9,0.6
2026-03-27T2000,2580A,104.9541,26.5506,六盘水市,双水,颗粒物(PM10),53,53,46,30,29,60,60,66,58,14,13,5,5,0.6,0.6
2026-03-27T2000,4151A,104.8899,26.5685,六盘水市,钟山大道中段564号,颗粒物(PM10),56,58,53,30,29,61,61,74,61,11,10,7,8,0.6,0.6
2026-03-27T2000,2336A,117.022,25.1031,龙岩市,龙岩市监测站,,39,NA,42,27,32,79,79,97,96,12,12,8,8,0.9,0.7
2026-03-27T2000,2337A,117.0257,25.0662,龙岩市,闽西职业技术学院,,46,46,42,28,29,71,71,90,89,14,11,8,8,0.7,0.7
2026-03-27T2000,2338A,117.0195,25.0306,龙岩市,龙岩学院,,36,NA,40,25,29,72,72,94,93,6,9,4,5,/,/
2026-03-27T2000,2885A,104.9344,33.3827,陇南市,滨江中学,颗粒物(PM10),74,83,72,32,25,58,58,65,65,25,33,9,8,1.2,1
2026-03-27T2000,3247A,104.9551,33.3709,陇南市,市总工会,颗粒物(PM10),68,75,64,17,19,65,65,70,66,16,22,6,6,0.8,0.7
2026-03-27T2000,2488A,111.9984,27.7346,娄底市,市监测站,细颗粒物(PM2.5),56,48,31,38,23,39,39,60,54,28,18,4,4,0.8,0.7
2026-03-27T2000,2491A,111.9888,27.7035,娄底市,市政府,,49,34,25,34,21,35,35,67,61,24,13,1,2,0.7,0.6
2026-03-27T2000,4127A,111.9812,27.7591,娄底市,涟钢职大,,41,41,28,24,17,45,45,61,58,22,18,1,1,1.1,1.1
2026-03-27T2000,4128A,112.0303,27.7457,娄底市,娄底体校,细颗粒物(PM2.5),54,49,35,37,21,29,29,52,46,24,10,3,3,2.3,0.8
2026-03-27T2000,1894A,105.4427,28.9063,泸州市,小市上码头,细颗粒物(PM2.5),86,60,61,53,53,51,51,66,65,25,20,13,12,0.7,0.6
2026-03-27T2000,1895A,105.4241,28.8573,泸州市,兰田宪桥,细颗粒物(PM2.5),76,72,68,48,44,48,48,60,60,24,24,10,10,1.1,1
2026-03-27T2000,1896A,105.4378,28.8833,泸州市,市环监站,细颗粒物(PM2.5),80,81,79,50,49,46,46,58,58,29,26,6,8,0.9,0.9
2026-03-27T2000,4272A,105.3689,28.7783,泸州市,纳溪中医医院,细颗粒物(PM2.5),76,59,60,48,45,51,51,63,63,20,24,9,9,1.0,0.9
2026-03-27T2000,2183A,111.1447,37.5212,吕梁市,环保局,颗粒物(PM10),85,98,100,50,36,79,79,138,134,56,42,8,9,0.4,0.3
2026-03-27T2000,2185A,111.1285,37.5338,吕梁市,自来水公司,细颗粒物(PM2.5),86,92,116,53,41,114,114,141,141,28,41,7,10,0.7,0.6
2026-03-27T2000,2867A,111.1225,37.5093,吕梁市,马茂庄小学,颗粒物(PM10),80,91,110,47,34,90,90,131,130,63,45,8,8,0.7,0.6
2026-03-27T2000,1812A,112.3934,34.6517,洛阳市,市委党校,细颗粒物(PM2.5),96,93,91,58,54,145,145,151,151,24,30,12,10,0.8,0.8
2026-03-27T2000,1815A,112.494,34.6883,洛阳市,河南林校,细颗粒物(PM2.5),106,133,104,66,55,135,135,155,155,36,44,14,14,0.7,0.8
2026-03-27T2000,1816A,112.3843,34.623,洛阳市,开发区管委会,颗粒物(PM10),109,141,107,60,51,136,136,155,155,25,24,15,13,0.6,0.6
2026-03-27T2000,1817A,112.4263,34.6249,洛阳市,市委新办公区,细颗粒物(PM2.5),102,115,105,62,57,132,132,152,152,29,29,12,11,0.7,0.7
2026-03-27T2000,3340A,112.6005,34.6323,洛阳市,伊滨,颗粒物(PM10),79,90,91,49,54,128,128,150,150,25,27,9,9,0.6,0.7
2026-03-27T2000,3341A,112.495,34.6338,洛阳市,中移产业园,细颗粒物(PM2.5),94,107,92,57,54,134,134,152,152,35,31,13,13,0.6,0.7
2026-03-27T2000,3593A,112.5736,34.8993,洛阳市,吉利监测站,细颗粒物(PM2.5),90,89,93,55,50,138,138,154,154,27,28,12,12,0.5,0.6
2026-03-27T2000,3635A,112.3678,34.6623,洛阳市,河科大西苑校区,颗粒物(PM10),88,102,99,48,53,156,156,163,163,22,32,13,13,0.6,0.7
2026-03-27T2000,3636A,112.4387,34.678,洛阳市,英才小学,细颗粒物(PM2.5),102,115,120,62,61,140,140,154,154,32,49,14,15,0.9,1
2026-03-27T2000,4214A,112.460027,34.694929,洛阳市,春都路1号院,颗粒物(PM10),97,115,121,58,63,137,137,164,160,33,43,12,13,0.8,1
2026-03-27T2000,2399A,114.051,33.5721,漯河市,三五一五工厂,颗粒物(PM10),62,66,93,35,51,120,120,144,140,26,29,5,6,0.1,0.4
2026-03-27T2000,2400A,114.0055,33.5698,漯河市,漯河大学,颗粒物(PM10),58,61,74,32,50,133,133,142,141,20,29,6,7,0.4,0.6
2026-03-27T2000,2401A,114.0134,33.5826,漯河市,市水利局,颗粒物(PM10),62,66,75,32,46,125,125,141,139,19,26,6,6,0.4,0.6
2026-03-27T2000,2402A,114.0261,33.5697,漯河市,市广电局,颗粒物(PM10),60,63,74,34,50,125,125,144,141,17,24,6,6,0.5,0.6
2026-03-27T2000,3478A,113.9691,33.568,漯河市,市图书馆,颗粒物(PM10),59,62,83,23,45,116,116,136,134,26,25,6,7,0.4,0.6
2026-03-27T2000,4250A,114.089259,33.588274,漯河市,韶山路11号,颗粒物(PM10),63,68,90,30,50,112,112,136,132,24,40,6,7,0.2,0.5
2026-03-27T2000,1798A,118.5084,31.6838,马鞍山市,湖东路四小,,42,42,58,16,41,122,122,135,135,21,23,7,10,0.4,0.6
2026-03-27T2000,1799A,118.5019,31.6449,马鞍山市,开发区,,47,47,61,10,40,86,86,138,133,45,28,8,8,0.3,0.5
2026-03-27T2000,3633A,118.4914,31.681,马鞍山市,雨山,,40,40,62,15,35,124,124,135,135,23,25,7,9,0.4,0.6
2026-03-27T2000,4191A,118.527362,31.722269,马鞍山市,慈湖高新区,,31,31,65,11,37,96,96,131,129,40,25,6,8,0.2,0.4
2026-03-27T2000,1686A,111.0285,21.469,茂名市,电白南海,,27,27,24,16,12,54,54,59,59,9,7,5,5,0.7,0.7
2026-03-27T2000,1687A,110.9294,21.6533,茂名市,茂石化七小,,39,39,29,18,15,46,46,52,52,11,11,6,6,0.5,0.4
2026-03-27T2000,1688A,110.9108,21.6688,茂名市,健康路,,27,27,23,15,13,50,50,58,58,10,10,4,4,0.5,0.5
2026-03-27T2000,1689A,110.8592,21.6826,茂名市,高岭,,41,41,34,16,16,52,52,59,59,12,12,3,7,/,/
2026-03-27T2000,3450A,111.0101,21.5165,茂名市,电白水东,,27,27,17,15,11,52,52,55,54,8,9,2,3,/,/
2026-03-27T2000,2540A,103.8414,30.0871,眉山市,气象局,颗粒物(PM10),88,102,65,46,21,49,49,89,89,46,36,7,9,0.9,0.6
2026-03-27T2000,3148A,103.829,30.0563,眉山市,区人社局,细颗粒物(PM2.5),76,84,62,48,25,67,67,88,88,48,47,9,11,0.8,0.8
2026-03-27T2000,4148A,103.8836,30.0695,眉山市,眉职院,颗粒物(PM10),72,80,54,41,24,66,66,91,91,32,36,7,7,0.9,0.7
2026-03-27T2000,1690A,116.1248,24.3307,梅州市,梅江月梅,细颗粒物(PM2.5),64,48,44,42,33,54,54,86,82,23,15,/,/,/,/
2026-03-27T2000,1691A,116.0798,24.2719,梅州市,梅县新城,,49,46,44,34,33,57,57,82,80,22,16,9,9,0.7,0.7
2026-03-27T2000,3315A,116.1234,24.2994,梅州市,梅龙,,44,44,44,27,33,66,66,84,83,14,14,7,8,1.0,1
2026-03-27T2000,1878A,104.7775,31.4741,绵阳市,富乐山,,42,42,41,15,22,88,88,104,104,8,13,6,7,0.7,0.8
2026-03-27T2000,1880A,104.6698,31.4668,绵阳市,高新区自来水公司,,46,46,61,20,27,80,80,100,100,20,35,9,9,0.6,0.6
2026-03-27T2000,3491A,104.6899,31.5324,绵阳市,西科大附属小学,,47,47,61,21,29,88,88,109,108,21,34,7,7,0.5,0.5
2026-03-27T2000,3492A,104.5647,31.5343,绵阳市,安州区旅游局,,42,42,55,28,27,84,84,101,98,20,19,5,6,0.6,0.6
2026-03-27T2000,4146A,104.7092,31.4972,绵阳市,科技城新区公安局,,48,48,60,19,29,85,85,96,96,15,29,8,8,0.7,0.7
2026-03-27T2000,4226A,104.765114,31.453094,绵阳市,绵阳市气象局,,44,44,49,18,25,84,84,95,94,14,26,10,11,0.6,0.6
2026-03-27T2000,1784A,129.61,44.561,牡丹江市,环保大楼,细颗粒物(PM2.5),128,NA,158,90,161,113,113,108,107,18,24,2,4,0.6,0.8
2026-03-27T2000,1787A,129.6364,44.6075,牡丹江市,机车工厂,细颗粒物(PM2.5),114,99,179,75,162,90,90,102,100,21,30,9,8,0.7,1
2026-03-27T2000,1788A,129.6386,44.5462,牡丹江市,第一中学,细颗粒物(PM2.5),123,108,146,85,143,108,108,105,104,15,23,3,5,0.5,0.7
2026-03-27T2000,4287A,129.5992,44.5964,牡丹江市,东晓云街98号,细颗粒物(PM2.5),119,92,179,80,161,114,114,108,108,10,21,2,4,0.5,0.9
2026-03-27T2000,2531A,105.0703,29.61,内江市,市监测站,,44,44,47,25,36,67,67,94,94,25,23,8,8,0.7,0.7
2026-03-27T2000,2533A,105.0657,29.5807,内江市,内江二中,,49,49,61,26,37,77,77,98,98,23,24,9,10,0.6,0.6
2026-03-27T2000,2534A,105.0407,29.5828,内江市,内江日报社,,47,47,55,24,37,78,78,102,102,23,33,8,8,0.6,0.7
2026-03-27T2000,4147A,105.0433,29.6105,内江市,玉峰路西段888号,,44,44,50,30,40,85,85,103,103,22,27,12,11,0.5,0.5
2026-03-27T2000,2628A,92.0653,31.4846,那曲市,那曲监测站,,32,26,34,18,24,101,101,111,109,15,20,4,5,0.7,0.9
2026-03-27T2000,4243A,92.0515,31.4787,那曲市,那曲市委宣传部,,35,17,21,12,12,112,112,114,114,2,10,6,7,0.4,0.6
2026-03-27T2000,1291A,115.8887,28.7006,南昌市,省林业公司,颗粒物(PM10),53,53,25,32,18,83,83,99,98,19,14,4,4,0.6,0.3
2026-03-27T2000,1292A,115.813,28.7443,南昌市,林科所,,46,46,21,32,16,41,41,88,82,59,24,8,7,0.7,0.6
2026-03-27T2000,1294A,115.8518,28.687,南昌市,建工学校,,49,49,29,34,18,86,86,102,102,27,19,8,8,0.9,0.7
2026-03-27T2000,1295A,115.8926,28.6425,南昌市,象湖,细颗粒物(PM2.5),54,42,22,37,20,93,93,106,106,22,19,7,8,0.9,0.8
2026-03-27T2000,3046A,115.9084,28.6062,南昌市,机电学校,颗粒物(PM10),60,64,39,28,19,97,97,115,114,17,14,4,4,0.7,0.7
2026-03-27T2000,3690A,115.9718,28.7032,南昌市,外国语学校,细颗粒物(PM2.5),58,47,27,39,23,99,99,107,107,19,14,8,8,0.8,0.7
2026-03-27T2000,4106A,115.7923,28.6873,南昌市,工业二路,NA,NA,68,36,36,19,80,80,101,99,NA,18,4,4,0.8,0.7
2026-03-27T2000,4192A,115.931587,28.686774,南昌市,南京东路235号,细颗粒物(PM2.5),60,53,33,40,19,96,96,108,108,15,9,6,5,0.5,0.5
2026-03-27T2000,1906A,106.0791,30.8022,南充市,南充市委,颗粒物(PM10),51,51,43,27,24,51,51,71,71,32,29,7,7,0.7,0.7
2026-03-27T2000,1907A,106.1038,30.8215,南充市,南充炼油厂,颗粒物(PM10),55,57,45,30,23,50,50,68,68,28,20,5,5,0.4,0.4
2026-03-27T2000,4227A,106.108336,30.788436,南充市,梨树横街98号,颗粒物(PM10),51,51,40,30,24,70,70,76,76,18,21,6,6,0.5,0.4
2026-03-27T2000,4304A,106.1172,30.843,南充市,清泉寺北路188号,颗粒物(PM10),52,52,40,22,20,78,78,83,83,11,13,6,6,0.5,0.5
2026-03-27T2000,4305A,106.067,30.7616,南充市,同庆路1号,,49,43,42,34,23,67,67,72,72,20,24,8,7,0.6,0.6
2026-03-27T2000,1151A,118.8033,32.1085,南京市,迈皋桥,颗粒物(PM10),72,80,53,44,27,83,83,121,114,41,28,8,7,0.5,0.3
2026-03-27T2000,1152A,118.7487,32.057,南京市,草场门,颗粒物(PM10),65,70,53,37,24,84,84,117,112,52,35,11,10,0.5,0.3
2026-03-27T2000,1154A,118.770105,32.004342,南京市,中华门,颗粒物(PM10),63,68,49,35,22,80,80,129,125,35,25,6,6,0.8,0.7
2026-03-27T2000,1155A,118.8059,32.0329,南京市,瑞金路,NA,NA,NA,49,NA,22,NA,NA,126,126,39,26,NA,4,1.2,0.9
2026-03-27T2000,1156A,118.7946,32.0774,南京市,玄武湖,颗粒物(PM10),68,74,54,36,29,73,73,118,110,47,22,10,9,0.7,0.6
2026-03-27T2000,1157A,118.6415,32.0964,南京市,浦口,颗粒物(PM10),90,105,71,53,33,74,74,105,101,47,39,8,7,0.5,0.4
2026-03-27T2000,1158A,118.730129,32.000956,南京市,奥体中心,颗粒物(PM10),65,71,58,36,23,91,91,122,119,31,21,8,8,0.5,0.3
2026-03-27T2000,1159A,118.9072,32.1047,南京市,仙林大学城,颗粒物(PM10),70,78,60,44,26,79,79,114,110,41,30,10,10,0.6,0.5
2026-03-27T2000,3422A,118.8443,31.919,南京市,江宁彩虹桥,颗粒物(PM10),53,54,57,20,20,132,132,142,142,36,29,3,4,0.6,0.6
2026-03-27T2000,3427A,118.8497,32.3599,南京市,六合雄州,细颗粒物(PM2.5),94,89,75,57,45,36,36,80,78,70,64,3,4,0.9,0.8
2026-03-27T2000,4086A,118.7641,32.0841,南京市,新模范马路66号,颗粒物(PM10),74,83,54,38,21,73,73,121,114,41,23,4,4,0.5,0.4
2026-03-27T2000,4249A,118.8707617,31.34017673,南京市,汶溪路181号,NA,NA,55,47,3,30,NA,NA,140,140,22,24,5,7,0.1,0.2
2026-03-27T2000,4312A,119.019,31.6512,南京市,中山西路1号,,41,41,45,6,26,101,101,118,118,24,24,4,4,0.3,0.4
2026-03-27T2000,1401A,108.3098,22.788,南宁市,二十一中,,43,NA,32,30,23,58,58,65,65,9,10,3,4,0.7,0.7
2026-03-27T2000,1402A,108.3135,22.8529,南宁市,北湖,,40,NA,34,28,26,62,62,71,71,10,10,2,4,0.8,0.8
2026-03-27T2000,1403A,108.3205,22.8222,南宁市,市监测站,,35,29,33,24,22,63,63,74,74,9,7,2,4,0.7,0.7
2026-03-27T2000,1404A,108.3828,22.8038,南宁市,大自然花园,,40,34,34,28,22,68,68,76,76,8,9,5,5,0.9,0.9
2026-03-27T2000,1406A,108.2397,22.8462,南宁市,区农职院,,48,NA,36,33,24,61,61,74,72,11,12,4,6,0.7,0.7
2026-03-27T2000,1407A,108.3285,22.7356,南宁市,英华嘉园,NA,NA,NA,44,NA,23,58,58,71,71,15,16,3,5,NA,0.6
2026-03-27T2000,3401A,108.4829,22.762,南宁市,红星社区,,40,30,30,28,20,64,64,74,74,12,10,4,6,0.7,0.7
2026-03-27T2000,4132A,108.2927,23.1477,南宁市,起凤路9号,细颗粒物(PM2.5),52,50,40,36,28,56,56,72,72,10,7,4,4,0.5,0.5
2026-03-27T2000,4221A,108.2177,22.7774,南宁市,乐贤路16号,,38,36,38,26,23,54,54,69,69,14,15,7,7,0.7,0.7
2026-03-27T2000,2332A,118.1682,26.6371,南平市,南平市监测站,,21,19,22,11,15,67,67,85,84,10,8,4,4,0.8,0.7
2026-03-27T2000,2334A,118.1757,26.6276,南平市,南平七中,,23,16,23,10,14,73,73,85,84,9,9,12,4,0.7,0.6
2026-03-27T2000,1168A,120.9056,31.9669,南通市,狼山街道,颗粒物(PM10),54,55,46,16,23,83,83,97,97,28,34,5,6,0.4,0.4
2026-03-27T2000,1170A,120.8635,32.0231,南通市,城中,颗粒物(PM10),62,66,58,25,28,73,73,93,93,33,27,9,7,1.0,0.6
2026-03-27T2000,1171A,120.9376,31.9301,南通市,星湖花园,颗粒物(PM10),54,55,42,20,22,68,68,103,102,33,26,4,5,0.5,0.4
2026-03-27T2000,1172A,120.8053,32.046,南通市,紫琅学院,颗粒物(PM10),57,59,48,23,28,71,71,101,100,42,36,7,7,0.9,0.6
2026-03-27T2000,3291A,121.0631,32.0644,南通市,通州监测站,颗粒物(PM10),53,53,43,20,24,86,86,104,104,20,16,4,4,0.5,0.4
2026-03-27T2000,3432A,120.9348,31.9874,南通市,环境教育馆,颗粒物(PM10),53,53,45,19,24,47,47,101,97,49,33,6,5,0.8,0.5
2026-03-27T2000,4091A,120.8692,31.9885,南通市,洪江路,,46,46,46,17,27,66,66,81,81,39,33,6,6,0.9,0.7
2026-03-27T2000,2404A,112.5338,33.0086,南阳市,瓦房庄,颗粒物(PM10),60,64,60,22,34,107,107,122,122,13,16,4,4,0.8,0.7
2026-03-27T2000,2405A,112.5002,32.9734,南阳市,汉画馆,颗粒物(PM10),51,51,61,35,48,87,87,119,117,18,20,5,6,0.6,0.7
2026-03-27T2000,2406A,112.5778,33.0144,南阳市,气象站,颗粒物(PM10),58,61,62,25,35,115,115,131,131,19,19,5,5,0.5,0.6
2026-03-27T2000,2407A,112.548,32.9687,南阳市,理工学院,颗粒物(PM10),58,61,62,27,40,107,107,123,123,18,20,6,6,0.6,0.6
2026-03-27T2000,4008A,112.5233,32.9921,南阳市,卧龙区政府,,39,37,59,27,39,94,94,121,120,18,18,6,7,0.6,0.6
2026-03-27T2000,1234A,121.8352,29.9111,宁波市,区环保大楼,NA,NA,27,24,14,12,62,62,89,85,38,27,6,6,NA,0.3
2026-03-27T2000,1235A,121.5595,29.8208,宁波市,万里学院,,33,26,22,23,10,52,52,98,87,35,16,6,6,0.6,0.6
2026-03-27T2000,1236A,121.713,29.9564,宁波市,龙赛医院,,33,24,21,11,9,25,25,88,78,66,24,7,5,0.3,0.4
2026-03-27T2000,1240A,121.5855,29.8635,宁波市,太古小学,,24,24,21,13,10,56,56,73,70,30,21,3,3,0.3,0.2
2026-03-27T2000,1241A,121.5239,29.8673,宁波市,市环境监测中心,,26,24,28,18,11,63,63,90,84,29,20,7,7,0.5,0.4
2026-03-27T2000,2871A,121.6156,29.9015,宁波市,万里国际学校,,27,21,24,9,10,86,86,96,95,17,17,3,4,0.5,0.5
2026-03-27T2000,3710A,121.5593,29.8976,宁波市,白沙活动中心,,21,21,25,11,11,67,67,93,88,25,19,4,4,0.3,0.3
2026-03-27T2000,4095A,121.8962,29.7529,宁波市,中科路88号,,23,23,17,12,7,70,70,108,99,30,14,5,5,0.4,0.4
2026-03-27T2000,2341A,119.5387,26.6611,宁德市,宁德市监测站,,33,10,26,10,17,105,105,114,114,14,20,4,5,0.4,0.6
2026-03-27T2000,3209A,119.5231,26.6562,宁德市,宁德一中,,34,22,24,9,18,106,106,113,113,10,12,4,4,0.2,0.5
2026-03-27T2000,2618A,98.859,25.8541,怒江傈僳族自治州,州监测站,细颗粒物(PM2.5),62,47,35,41,26,125,125,118,118,6,7,8,7,0.5,0.5
2026-03-27T2000,2619A,98.8607,25.8168,怒江傈僳族自治州,泸水一中,细颗粒物(PM2.5),62,NA,34,41,26,93,93,106,106,35,21,5,5,0.6,0.6
2026-03-27T2000,1888A,101.6891,26.571,攀枝花市,弄弄坪,,34,31,44,13,22,106,106,118,116,16,29,10,12,1.3,1.4
2026-03-27T2000,1889A,101.577,26.5914,攀枝花市,河门口,,33,30,39,20,25,105,105,107,106,12,23,9,13,0.5,0.7
2026-03-27T2000,1891A,101.7365,26.4986,攀枝花市,仁和,,42,35,24,29,22,72,72,108,103,29,11,6,5,0.8,0.5
2026-03-27T2000,2835A,101.7222,26.567,攀枝花市,四十中小,,42,37,41,29,21,72,72,112,106,40,31,6,9,1.2,1
2026-03-27T2000,1604A,122.0303,41.1489,盘锦市,开发区,NA,NA,51,45,33,27,NA,NA,110,110,NA,12,9,8,0.4,0.3
2026-03-27T2000,1605A,122.0486,41.0883,盘锦市,兴隆台,细颗粒物(PM2.5),92,79,40,56,28,62,62,107,100,44,20,10,7,0.7,0.7
2026-03-27T2000,1606A,121.8297,41.1026,盘锦市,新生街道,,31,29,45,17,30,30,30,111,98,62,39,7,13,0.4,0.4
2026-03-27T2000,1832A,113.3257,33.7423,平顶山市,新华旅馆,颗粒物(PM10),64,69,105,32,55,116,116,133,132,12,26,6,6,0.3,0.5
2026-03-27T2000,1833A,113.2917,33.737,平顶山市,规划设计院,颗粒物(PM10),61,65,99,36,56,112,112,127,127,16,29,8,8,0.6,0.7
2026-03-27T2000,1834A,113.182,33.7738,平顶山市,平顶山工学院,,50,50,87,26,52,123,123,135,135,13,21,6,6,0.4,0.5
2026-03-27T2000,3594A,112.8736,33.9068,平顶山市,石龙区,颗粒物(PM10),68,74,87,29,43,113,113,138,137,23,33,9,8,0.6,0.8
2026-03-27T2000,4116A,113.284,33.7139,平顶山市,姚电大道23号,,47,47,109,23,56,116,116,124,124,17,31,6,6,0.3,0.3
2026-03-27T2000,2656A,106.6633,35.5338,平凉市,聚贤嘉苑,颗粒物(PM10),72,80,63,32,32,109,109,139,137,31,22,7,6,0.3,0.3
2026-03-27T2000,2657A,106.7021,35.5307,平凉市,博物馆,颗粒物(PM10),74,83,65,36,32,118,118,138,138,25,21,10,9,0.6,0.6
2026-03-27T2000,2348A,113.8384,27.6436,萍乡市,中医院,,50,47,53,35,29,54,54,86,78,18,15,6,6,0.9,1.1
2026-03-27T2000,2350A,113.8677,27.6438,萍乡市,市环保局,细颗粒物(PM2.5),64,47,35,42,32,63,63,93,86,13,15,10,9,0.7,0.9
2026-03-27T2000,2351A,113.8663,27.6202,萍乡市,安源区政府,,46,39,34,32,27,48,48,73,69,12,12,9,6,0.5,0.6
2026-03-27T2000,4107A,113.8686,27.6668,萍乡市,联洪村委会,颗粒物(PM10),65,70,46,42,29,40,40,81,74,23,16,10,4,0.9,0.7
2026-03-27T2000,2319A,119.0142,25.4324,莆田市,荔城区仓后路,,29,22,26,13,22,90,90,94,94,18,20,/,/,/,/
2026-03-27T2000,2320A,119.0016,25.4553,莆田市,莆田市监测站,,30,NA,26,13,19,95,95,95,95,16,18,3,3,0.4,0.4
2026-03-27T2000,2321A,119.112,25.4561,莆田市,涵江区六中,,38,NA,27,26,24,95,95,105,105,20,26,/,/,0.5,0.5
2026-03-27T2000,2322A,119.1014,25.3215,莆田市,秀屿区政府,,33,12,25,12,20,103,103,109,109,9,10,4,4,0.5,0.6
2026-03-27T2000,2392A,115.0312,35.7636,濮阳市,环保局,细颗粒物(PM2.5),132,132,105,95,69,125,125,155,154,27,22,8,8,0.9,0.8
2026-03-27T2000,3021A,115,35.7667,濮阳市,濮水河管理处,细颗粒物(PM2.5),133,167,130,96,74,107,107,164,160,37,30,9,10,0.8,0.7
2026-03-27T2000,4118A,115.0552,35.7816,濮阳市,中原东路68号,细颗粒物(PM2.5),140,185,123,104,70,118,118,155,150,27,20,8,9,1.0,0.8
2026-03-27T2000,4216A,115.0923632,35.76857718,濮阳市,任丘路479号,细颗粒物(PM2.5),140,175,134,104,76,125,125,167,164,40,31,8,9,0.7,0.7
2026-03-27T2000,2601A,100.9801,22.7634,普洱市,市环保局,细颗粒物(PM2.5),92,104,78,56,44,154,154,156,156,14,11,7,7,0.7,0.6
2026-03-27T2000,2602A,100.9763,22.8237,普洱市,普洱第二中学,细颗粒物(PM2.5),106,106,86,66,51,142,142,149,149,18,25,11,11,0.6,0.5
2026-03-27T2000,3345A,131.0413,45.7795,七台河市,中波台,细颗粒物(PM2.5),211,186,173,161,137,72,72,118,107,52,30,10,9,1.0,0.8
2026-03-27T2000,3637A,131.0136,45.7688,七台河市,人民广场,细颗粒物(PM2.5),198,219,181,148,131,80,80,109,100,45,34,12,12,1.1,1
2026-03-27T2000,3684A,130.8639,45.8144,七台河市,新建矿广场,细颗粒物(PM2.5),270,278,199,220,148,56,56,112,102,41,29,13,12,1.3,0.9
2026-03-27T2000,1779A,123.9307,47.3641,齐齐哈尔市,安居小区,细颗粒物(PM2.5),130,119,57,92,37,66,66,106,100,34,13,15,10,0.8,0.5
2026-03-27T2000,1780A,123.9497,47.3389,齐齐哈尔市,中心广场,NA,NA,NA,52,NA,33,NA,NA,108,108,NA,14,NA,4,NA,0.5
2026-03-27T2000,1781A,123.9483,47.3229,齐齐哈尔市,农牧车辆厂,细颗粒物(PM2.5),76,75,56,48,37,81,81,102,101,14,11,8,8,0.3,0.2
2026-03-27T2000,1783A,123.9442,47.2994,齐齐哈尔市,市环境监测站,颗粒物(PM10),59,62,44,35,36,83,83,108,105,14,13,4,4,0.6,0.5
2026-03-27T2000,3662A,123.6341,47.2079,齐齐哈尔市,富区青少年活动中心,细颗粒物(PM2.5),149,164,66,113,40,53,53,102,94,47,15,14,6,1.2,0.4
2026-03-27T2000,2591A,107.9765,26.5724,黔东南苗族侗族自治州,市环境监测站,,15,15,22,10,14,48,48,57,56,8,9,2,3,0.6,0.7
2026-03-27T2000,2881A,107.8909,26.531,黔东南苗族侗族自治州,凯里学院,,22,22,18,11,16,53,53,62,61,8,10,3,4,0.7,0.8
2026-03-27T2000,2593A,107.5223,26.2371,黔南布依族苗族自治州,小围寨,,22,22,15,7,11,50,50,54,54,6,7,5,5,0.6,0.7
2026-03-27T2000,3538A,107.5175,26.2977,黔南布依族苗族自治州,沙坝,,25,24,21,17,13,48,48,51,51,7,9,6,4,0.5,0.5
2026-03-27T2000,2589A,104.9022,25.0943,黔西南布依族苗族自治州,场坝街,细颗粒物(PM2.5),58,51,48,39,43,126,126,126,126,8,8,9,8,0.7,0.6
2026-03-27T2000,2590A,104.8812,25.0994,黔西南布依族苗族自治州,坪东大道,细颗粒物(PM2.5),88,61,50,54,45,122,122,122,122,9,9,6,6,0.9,0.7
2026-03-27T2000,2502A,108.6238,21.9667,钦州市,市环保站,,41,41,33,25,17,56,56,57,57,14,16,6,6,0.5,0.5
2026-03-27T2000,2503A,108.655,21.9481,钦州市,沙埠小学,,38,38,37,25,22,53,53,54,54,13,17,4,4,0.6,0.6
2026-03-27T2000,2504A,108.5989,21.7435,钦州市,港区一小,颗粒物(PM10),75,84,44,27,22,62,62,52,52,21,18,2,2,0.8,0.7
2026-03-27T2000,3404A,108.5959,21.9634,钦州市,北职校,细颗粒物(PM2.5),58,56,35,39,21,42,42,54,54,23,15,6,6,0.6,0.5
2026-03-27T2000,1046A,119.5247,39.9346,秦皇岛市,建设大厦,,33,33,65,3,31,78,78,88,88,16,28,4,5,0.3,0.4
2026-03-27T2000,3132A,119.5979,39.938,秦皇岛市,文明里,,32,32,67,7,28,76,76,83,82,10,23,8,9,0.3,0.4
2026-03-27T2000,4066A,119.7458,39.9952,秦皇岛市,南园路157号,,27,27,70,7,39,77,77,84,83,16,44,6,9,0.2,0.4
2026-03-27T2000,4067A,119.5131,39.8858,秦皇岛市,翠岛大街1号,,32,32,54,3,32,77,77,84,84,18,28,8,8,0.3,0.4
2026-03-27T2000,4198A,119.509013,39.825305,秦皇岛市,北戴河轮滑馆,NA,NA,33,74,6,38,NA,NA,83,83,20,30,8,9,0.2,0.4
2026-03-27T2000,1310A,120.404,36.0625,青岛市,市南区东部子站,细颗粒物(PM2.5),120,127,130,82,91,153,153,146,146,16,27,12,14,0.7,0.7
2026-03-27T2000,1311A,120.362344,36.10282,青岛市,四方区子站,细颗粒物(PM2.5),126,117,135,88,96,168,168,178,178,19,33,8,11,0.9,0.9
2026-03-27T2000,1312A,120.294373,36.054183,青岛市,市南区西部子站,细颗粒物(PM2.5),128,127,126,90,99,147,147,136,136,26,38,6,7,0.8,0.8
2026-03-27T2000,1313A,120.4581,36.0858,青岛市,崂山区子站,细颗粒物(PM2.5),112,122,119,73,77,165,165,144,144,24,40,9,11,0.8,0.8
2026-03-27T2000,1315A,120.3945,36.3083,青岛市,城阳区子站,细颗粒物(PM2.5),150,190,151,114,95,116,116,169,163,54,34,10,11,1.0,0.9
2026-03-27T2000,3642A,120.3454,36.0735,青岛市,市北区南部,细颗粒物(PM2.5),120,138,133,81,88,165,165,172,172,14,27,5,7,1.0,1.1
2026-03-27T2000,3643A,120.3897,36.18,青岛市,李沧区北部,细颗粒物(PM2.5),122,127,139,84,92,156,156,161,161,26,36,10,13,0.8,0.8
2026-03-27T2000,4110A,120.5222,36.4089,青岛市,盟旺路653号,细颗粒物(PM2.5),121,138,137,83,82,180,180,186,184,7,19,5,8,0.9,1
2026-03-27T2000,4290A,120.196923,35.954556,青岛市,珠江路669号,细颗粒物(PM2.5),149,156,147,113,104,117,117,137,137,46,44,7,8,0.8,0.8
2026-03-27T2000,4291A,120.0424,35.8656,青岛市,黄岛区人民政府广场,细颗粒物(PM2.5),137,144,130,100,85,138,138,148,148,36,44,12,12,0.8,0.9
2026-03-27T2000,1703A,113.0218,23.7086,清远市,凤城街办,颗粒物(PM10),60,63,42,37,25,66,66,75,75,38,31,/,/,/,/
2026-03-27T2000,3025A,113.0479,23.6343,清远市,技师学院,颗粒物(PM10),65,70,48,38,24,61,61,85,85,38,29,5,6,0.4,0.4
2026-03-27T2000,3318A,112.9898,23.7403,清远市,清新太和,颗粒物(PM10),60,64,45,35,25,72,72,82,82,32,27,7,7,0.6,0.5
2026-03-27T2000,3455A,113.076,23.72,清远市,清城东城,颗粒物(PM10),64,69,47,39,26,75,75,82,82,29,27,/,/,/,/
2026-03-27T2000,2661A,107.6325,35.7357,庆阳市,庆阳五中,颗粒物(PM10),66,72,68,35,34,142,142,152,152,20,17,3,6,0.4,0.4
2026-03-27T2000,2662A,107.6361,35.7067,庆阳市,市环保局,颗粒物(PM10),63,68,64,36,33,141,141,148,148,18,18,7,11,0.4,0.4
2026-03-27T2000,1916A,103.7897,25.5036,曲靖市,环境监测站,,43,43,36,18,19,127,127,146,145,9,11,5,5,0.3,0.9
2026-03-27T2000,1917A,103.8013,25.5357,曲靖市,烟厂办公区,,37,31,41,22,22,118,118,131,130,5,26,4,6,0.4,0.6
2026-03-27T2000,3376A,103.7926,25.4651,曲靖市,南苑二区,,35,32,30,21,17,112,112,123,123,12,13,4,4,0.3,0.4
2026-03-27T2000,3377A,103.7442,25.5259,曲靖市,曲靖师范学院,,47,47,40,22,26,125,125,134,134,6,14,2,5,0.3,0.5
2026-03-27T2000,1264A,118.8694,28.94,衢州市,环保大楼,,46,42,30,32,23,30,30,49,48,30,23,/,/,/,/
2026-03-27T2000,1266A,118.8622,28.9809,衢州市,衢州学院,NA,NA,33,28,27,23,30,30,48,48,NA,26,3,3,NA,0.5
2026-03-27T2000,4097A,118.9646,28.9832,衢州市,衢州三中,,49,41,33,34,27,26,26,50,49,32,26,6,6,0.7,0.6
2026-03-27T2000,1611A,118.5818,24.9116,泉州市,涂山街,,27,26,33,16,23,84,84,101,101,18,21,3,4,0.6,0.7
2026-03-27T2000,1612A,118.597,24.8976,泉州市,津头埔,,29,25,32,15,24,90,90,107,107,14,19,2,4,0.5,0.6
2026-03-27T2000,1613A,118.6669,24.9422,泉州市,万安,,27,27,34,15,25,84,84,105,105,11,16,3,5,0.4,0.6
2026-03-27T2000,4105A,118.6355,24.9148,泉州市,霞新路6号,NA,NA,NA,36,NA,24,NA,NA,106,106,14,18,/,/,0.4,0.6
2026-03-27T2000,2626A,88.8873,29.2723,日喀则市,日喀则监测站,,43,12,13,11,6,137,137,114,114,6,4,8,8,0.4,0.4
2026-03-27T2000,3726A,88.8775,29.2425,日喀则市,林业技术推广中心,,38,19,21,3,1,119,119,116,116,6,5,5,4,0.4,0.4
2026-03-27T2000,1659A,119.4711,35.421,日照市,监测站,细颗粒物(PM2.5),141,175,138,105,92,142,142,183,182,54,54,17,14,1.2,1
2026-03-27T2000,1660A,119.523,35.4216,日照市,市政府广场,细颗粒物(PM2.5),165,173,137,125,96,132,132,186,184,45,44,13,15,1.0,0.9
2026-03-27T2000,1661A,119.5511,35.4113,日照市,港务局,细颗粒物(PM2.5),190,193,162,143,98,92,92,180,180,54,59,8,13,1.0,1
2026-03-27T2000,3507A,119.5326,35.4627,日照市,职业技术学院,细颗粒物(PM2.5),163,173,154,124,91,132,132,194,192,48,46,12,14,1.2,1.1
2026-03-27T2000,3604A,119.3267,35.1043,日照市,岚山环保分局,细颗粒物(PM2.5),116,129,147,77,96,195,195,197,197,29,45,15,23,0.7,1.1
2026-03-27T2000,1835A,111.1922,34.7752,三门峡市,市政府,颗粒物(PM10),58,60,79,35,42,121,121,134,134,21,35,10,14,0.4,0.4
2026-03-27T2000,1836A,111.1588,34.794,三门峡市,开发区,颗粒物(PM10),67,73,100,40,53,134,134,141,141,17,26,9,12,0.4,0.5
2026-03-27T2000,3039A,111.1911,34.7829,三门峡市,三门峡市第一小学,颗粒物(PM10),54,55,87,35,46,128,128,140,140,16,29,12,17,0.4,0.5
2026-03-27T2000,3598A,111.1031,34.719,三门峡市,富达温泉假日酒店,颗粒物(PM10),70,78,104,30,62,130,130,145,145,24,31,13,20,0.2,0.4
2026-03-27T2000,2324A,117.621,26.2626,三明市,三钢,,27,27,22,15,18,53,53,78,76,14,14,4,9,0.8,0.9
2026-03-27T2000,2325A,117.6352,26.2714,三明市,三明二中,,19,17,21,12,15,60,60,74,74,8,15,2,8,0.8,1.1
2026-03-27T2000,2326A,117.6028,26.2377,三明市,三元区政府,,25,25,19,12,18,67,67,84,84,9,16,6,10,0.9,1.1
2026-03-27T2000,1877A,109.4962,18.2682,三亚市,河西子站,,26,26,25,14,15,58,58,64,60,3,4,4,4,0.4,0.5
2026-03-27T2000,3540A,109.7348,18.3443,三亚市,君悦子站,,20,20,24,11,14,53,53,64,60,4,5,4,4,0.3,0.4
2026-03-27T2000,4135A,109.1714,18.3739,三亚市,城东小学站,,28,28,29,15,15,50,50,61,56,7,6,/,/,/,/
2026-03-27T2000,2624A,91.7592,29.234,山南市,山南监测站,,35,12,10,11,4,112,112,113,113,2,3,8,7,0.3,0.3
2026-03-27T2000,2625A,91.7701,29.2436,山南市,山南人民医院,,35,19,12,10,4,110,110,112,112,3,2,10,8,0.3,0.3
2026-03-27T2000,1674A,116.6795,23.3666,汕头市,金平子站,,32,32,33,22,18,95,95,117,117,19,16,5,5,0.6,0.6
2026-03-27T2000,1675A,116.7248,23.3632,汕头市,龙湖子站,,33,32,35,23,18,96,96,107,107,12,14,5,5,/,/
2026-03-27T2000,1676A,116.7257,23.2774,汕头市,濠江子站,,29,29,33,20,18,89,89,101,101,13,13,7,7,/,/
2026-03-27T2000,1677A,116.7518,23.4712,汕头市,澄海子站,,30,26,39,17,19,94,94,110,110,12,14,6,8,0.7,0.7
2026-03-27T2000,1678A,116.6088,23.2539,汕头市,潮阳子站,,35,32,36,24,19,98,98,108,108,9,10,6,6,0.7,0.5
