timepoint,stationcode,longitude,latitude,area,positionname,primarypollutant,aqi,pm10,pm10_24h,pm2_5,pm2_5_24h,o3,o3_24h,o3_8h,o3_8h_24h,no2,no2_24h,so2,so2_24h,co,co_24h
2026-03-27T1200,2568A,102.2503,31.8896,阿坝藏族羌族自治州,马师校,NA,NA,24,20,8,6,NA,NA,52,NA,7,6,NA,5,0.5,0.4
2026-03-27T1200,3994A,102.2174,31.9016,阿坝藏族羌族自治州,马尔康中学西区,,28,16,13,6,7,88,88,57,57,6,7,2,3,0.2,0.2
2026-03-27T1200,2695A,80.2899,41.1684,阿克苏地区,电视台,颗粒物(PM10),116,161,648,49,155,86,86,73,66,12,10,2,2,0.4,0.4
2026-03-27T1200,2696A,80.2592,41.1541,阿克苏地区,艺术中心,颗粒物(PM10),114,155,643,68,139,94,94,76,51,14,14,5,4,0.6,0.2
2026-03-27T1200,2205A,105.699,38.8409,阿拉善盟,蒙二幼,颗粒物(PM10),73,81,73,16,22,98,98,107,94,4,7,8,9,0.5,0.5
2026-03-27T1200,2206A,105.7198,38.8508,阿拉善盟,环保局新楼,颗粒物(PM10),78,89,66,27,22,89,89,107,90,8,7,10,9,0.6,0.6
2026-03-27T1200,2708A,88.1266,47.8515,阿勒泰地区,市站,,23,22,18,3,3,72,72,70,70,24,13,17,6,0.2,0.2
2026-03-27T1200,4166A,88.1198,47.7931,阿勒泰地区,阿勒泰路33号,,25,15,15,3,2,78,78,78,77,13,8,8,6,0.2,0.2
2026-03-27T1200,2630A,80.1171,32.4999,阿里地区,阿里监测站,,32,12,8,6,3,100,100,98,89,11,4,7,7,0.4,0.3
2026-03-27T1200,3192A,80.0906,32.5029,阿里地区,阿里藏医院,,33,9,8,6,4,105,105,106,94,6,3,6,6,0.3,0.2
2026-03-27T1200,2644A,109.0088,32.6974,安康市,汉滨区检察院,,46,46,43,28,23,71,71,30,30,11,18,6,6,0.6,0.6
2026-03-27T1200,4054A,109.0324,32.6913,安康市,市邮政管理局,颗粒物(PM10),51,51,50,24,23,80,80,28,28,6,21,5,11,0.6,0.8
2026-03-27T1200,2291A,117.0806,30.5181,安庆市,环科院,细颗粒物(PM2.5),92,61,85,56,82,115,115,53,53,11,35,9,11,0.7,1
2026-03-27T1200,2292A,117.0331,30.5118,安庆市,马山宾馆,细颗粒物(PM2.5),82,63,76,51,79,117,117,53,53,9,34,5,8,0.8,1.2
2026-03-27T1200,2294A,116.9897,30.6146,安庆市,安庆大学,细颗粒物(PM2.5),70,59,77,45,64,125,125,80,80,8,19,5,4,0.7,0.9
2026-03-27T1200,3173A,117.0598,30.5351,安庆市,市人大,NA,NA,63,80,45,71,113,113,49,49,15,38,8,9,NA,1
2026-03-27T1200,3123A,105.9408,26.2431,安顺市,凤凰山,,35,29,44,24,30,57,57,56,56,11,11,10,18,0.7,0.7
2026-03-27T1200,3124A,105.9443,26.2567,安顺市,金钟山,NA,NA,NA,41,NA,30,NA,NA,52,52,8,8,6,14,0.8,0.7
2026-03-27T1200,3125A,105.8983,26.248,安顺市,娄家坡,,46,38,42,32,31,51,51,50,50,10,8,18,15,1.0,0.9
2026-03-27T1200,1819A,114.3552,36.1017,安阳市,红庙街,细颗粒物(PM2.5),110,112,98,70,61,108,108,60,60,17,19,4,5,0.5,0.5
2026-03-27T1200,1820A,114.361,36.0681,安阳市,银杏小区,NA,NA,NA,96,NA,63,110,110,50,50,NA,21,5,5,NA,0.3
2026-03-27T1200,3141A,114.3921,36.0879,安阳市,信访局,细颗粒物(PM2.5),114,124,95,75,65,114,114,57,57,20,21,4,4,0.6,0.5
2026-03-27T1200,3669A,114.4706,36.0634,安阳市,左辅环卫站,颗粒物(PM10),118,166,126,74,66,110,110,58,58,15,18,5,5,0.4,0.4
2026-03-27T1200,4117A,114.2918,36.0769,安阳市,钢三路198号,颗粒物(PM10),105,132,124,58,63,101,101,50,50,16,20,5,5,0.6,0.6
2026-03-27T1200,1748A,123.0441,41.1201,鞍山市,深沟寺,NA,NA,51,99,28,69,99,99,68,68,NA,27,11,15,0.8,1.1
2026-03-27T1200,1749A,123.011,41.0931,鞍山市,太阳城,颗粒物(PM10),51,51,100,33,75,95,95,68,68,21,26,22,18,1.2,1.2
2026-03-27T1200,1750A,123.0483,41.1445,鞍山市,太平,颗粒物(PM10),58,61,100,31,65,99,99,67,67,16,27,11,19,0.8,1.4
2026-03-27T1200,1751A,122.964,41.0968,鞍山市,铁西三道街,颗粒物(PM10),62,66,109,32,74,96,96,56,56,19,34,14,19,1.1,1.7
2026-03-27T1200,1753A,123.0219,41.0822,鞍山市,明达新区,颗粒物(PM10),53,54,105,30,73,92,92,68,68,21,25,20,16,1.1,1.1
2026-03-27T1200,4201A,122.944647,41.082639,鞍山市,兴盛南路290号,NA,NA,62,115,35,78,100,100,54,54,18,33,8,16,NA,1.3
2026-03-27T1200,2195A,107.4206,40.7609,巴彦淖尔市,附二中,,41,41,56,18,14,77,77,68,65,8,8,14,10,0.4,0.3
2026-03-27T1200,2196A,107.37,40.7372,巴彦淖尔市,市环保大楼,,45,45,49,15,14,79,79,78,72,13,9,15,8,0.4,0.3
2026-03-27T1200,1956A,86.1476,41.7529,巴音郭楞蒙古自治州,孔雀公园,颗粒物(PM10),107,138,107,32,25,87,87,46,42,7,17,9,8,0.2,0.3
2026-03-27T1200,1957A,86.1971,41.7166,巴音郭楞蒙古自治州,棉纺厂,颗粒物(PM10),119,167,148,27,30,82,82,54,54,12,12,/,/,/,/
2026-03-27T1200,1958A,86.236,41.7172,巴音郭楞蒙古自治州,经济开发区,颗粒物(PM10),96,114,118,24,24,72,72,50,49,11,14,8,6,0.3,0.3
2026-03-27T1200,3181A,106.776805,31.852614,巴中市,市五中,,33,33,37,18,18,79,79,38,38,17,17,8,7,0.7,0.7
2026-03-27T1200,3183A,106.7419,31.8654,巴中市,圣泉水务公司,,34,34,38,12,17,84,84,37,37,12,22,10,9,0.8,0.7
2026-03-27T1200,3616A,106.7617,31.8343,巴中市,市中心医院,,47,47,42,16,22,86,86,39,39,9,15,11,10,0.6,0.7
2026-03-27T1200,2235A,122.7909,45.608,白城市,洮北区环保局,,50,50,100,30,71,104,104,76,76,12,24,4,7,0.3,0.6
2026-03-27T1200,2236A,122.8741,45.5725,白城市,市环保局,,33,29,92,23,56,93,93,52,52,5,16,3,5,0.2,0.4
2026-03-27T1200,2231A,126.4219,41.9172,白山市,喜丰,NA,NA,NA,59,NA,23,100,100,51,51,NA,26,2,9,0.6,0.8
2026-03-27T1200,2232A,126.4082,41.9416,白山市,环保局,,33,33,42,11,21,100,100,49,49,6,15,10,10,0.6,0.8
2026-03-27T1200,2647A,104.1727,36.5448,白银市,第三小学,颗粒物(PM10),53,54,57,26,24,100,100,81,81,9,18,22,45,0.2,0.5
2026-03-27T1200,2648A,104.1467,36.5482,白银市,动力公司,NA,NA,NA,51,17,24,94,94,80,80,9,20,14,24,0.3,0.5
2026-03-27T1200,2512A,106.6102,23.901,百色市,市监测站,细颗粒物(PM2.5),88,82,59,54,44,89,89,52,43,17,16,27,18,0.9,1
2026-03-27T1200,2513A,106.6524,23.8842,百色市,市中心血站,NA,NA,73,67,52,50,89,89,57,40,NA,16,NA,17,0.8,0.8
2026-03-27T1200,4133A,106.6273,23.8798,百色市,龙景西路,细颗粒物(PM2.5),101,112,73,61,51,86,86,42,26,16,19,26,21,0.7,0.7
2026-03-27T1200,2270A,117.396,32.9389,蚌埠市,工人疗养院,细颗粒物(PM2.5),129,120,120,91,91,67,67,49,47,NA,45,NA,7,0.6,0.6
2026-03-27T1200,2271A,117.3606,32.9428,蚌埠市,百货大楼,细颗粒物(PM2.5),120,108,109,81,82,70,70,50,50,44,47,9,8,0.7,0.7
2026-03-27T1200,2273A,117.4183,32.8909,蚌埠市,蚌埠学院,细颗粒物(PM2.5),120,88,96,81,83,62,62,51,35,36,45,7,7,0.6,0.6
2026-03-27T1200,2274A,117.3534,32.9672,蚌埠市,淮上区政府,细颗粒物(PM2.5),111,97,104,72,85,86,86,NA,NA,41,32,9,8,0.8,0.7
2026-03-27T1200,2275A,117.3143,32.8977,蚌埠市,高新区,细颗粒物(PM2.5),124,90,102,86,82,57,57,52,40,47,43,13,10,0.8,0.7
2026-03-27T1200,3715A,117.3091,32.9314,蚌埠市,蚌埠田家炳中学,细颗粒物(PM2.5),128,122,115,90,87,54,54,43,43,53,45,10,8,0.6,0.6
2026-03-27T1200,1585A,109.8761,40.6533,包头市,市环境监测站,,44,44,34,22,16,86,86,64,64,25,16,24,10,0.8,0.4
2026-03-27T1200,1587A,109.9992,40.5843,包头市,包头八中,,46,46,59,22,27,93,93,35,35,13,27,16,9,0.4,0.5
2026-03-27T1200,1589A,109.8641,40.6288,包头市,惠龙物流,,42,42,33,13,14,82,82,59,58,21,15,16,8,0.7,0.4
2026-03-27T1200,1590A,110.0376,40.5546,包头市,东河鸿龙湾,,38,38,52,21,29,98,98,41,41,11,33,13,11,0.5,0.6
2026-03-27T1200,3283A,109.9154,40.5684,包头市,滨河大厦,,46,46,35,16,18,100,100,49,49,12,23,12,9,0.4,0.4
2026-03-27T1200,3419A,109.9449,40.6259,包头市,包头市委党校,,32,32,33,20,12,84,84,37,37,22,25,15,8,0.7,0.4
2026-03-27T1200,3683A,109.8332,40.6577,包头市,昆区政府,,49,49,31,31,14,82,82,70,66,38,18,32,6,1.4,0.6
2026-03-27T1200,1931A,107.0802,34.3129,宝鸡市,竹园沟,颗粒物(PM10),57,59,45,36,22,117,117,55,55,16,18,8,7,0.4,0.4
2026-03-27T1200,1933A,107.1429,34.3549,宝鸡市,监测站,颗粒物(PM10),62,66,57,21,22,92,92,44,44,19,25,7,7,0.3,0.3
2026-03-27T1200,1934A,107.1172,34.3759,宝鸡市,技工学校,颗粒物(PM10),65,70,63,25,29,97,97,58,58,14,19,4,5,0.4,0.5
2026-03-27T1200,1936A,107.2025,34.3518,宝鸡市,文理学院,NA,NA,56,60,25,27,NA,NA,45,45,16,20,NA,5,0.5,0.5
2026-03-27T1200,1937A,107.2396,34.3626,宝鸡市,三迪小学,颗粒物(PM10),59,62,66,33,32,72,72,44,44,22,26,5,5,0.5,0.5
2026-03-27T1200,4155A,107.1721,34.3558,宝鸡市,滨河北路,颗粒物(PM10),55,56,64,30,34,101,101,48,48,12,22,7,6,0.6,0.7
2026-03-27T1200,4308A,107.3898,34.3601,宝鸡市,陈仓区北开路21号,颗粒物(PM10),55,57,76,32,38,89,89,52,52,16,28,11,31,0.5,0.7
2026-03-27T1200,1051A,115.4803,38.8568,保定市,游泳馆,细颗粒物(PM2.5),96,97,144,58,116,105,105,78,78,19,29,6,8,0.8,0.7
2026-03-27T1200,1052A,115.509,38.8895,保定市,华电二区,NA,NA,83,147,52,112,85,85,60,60,14,27,3,4,NA,0.9
2026-03-27T1200,1053A,115.4588,38.9037,保定市,接待中心,细颗粒物(PM2.5),78,74,138,49,107,110,110,74,74,17,30,5,6,0.6,0.5
2026-03-27T1200,1054A,115.4484,38.8344,保定市,地表水厂,颗粒物(PM10),91,107,162,50,98,111,111,82,82,18,30,10,10,0.5,0.5
2026-03-27T1200,3581A,115.3136,38.9511,保定市,满城区生态环境分局,颗粒物(PM10),90,105,180,36,110,112,112,78,78,11,27,6,6,0.6,0.6
2026-03-27T1200,3582A,115.4709,38.7628,保定市,清苑区第二中学,颗粒物(PM10),90,105,162,33,99,95,95,72,72,6,25,10,11,0.4,0.5
2026-03-27T1200,3583A,115.6231,39.0223,保定市,徐水物探局,颗粒物(PM10),98,117,179,49,113,112,112,74,74,13,32,5,5,0.6,0.6
2026-03-27T1200,4004A,115.4199,38.8665,保定市,双鹰农机,颗粒物(PM10),102,124,168,59,117,115,115,81,81,19,27,8,7,0.5,0.5
2026-03-27T1200,4034A,115.515,38.8589,保定市,植保所站,NA,NA,NA,168,NA,107,102,102,71,71,NA,32,5,5,0.4,0.3
2026-03-27T1200,2594A,99.1589,25.1137,保山市,市环境监测站,,41,41,36,25,26,119,119,82,78,10,8,6,5,0.3,0.3
2026-03-27T1200,2595A,99.1616,25.1381,保山市,市环保局,颗粒物(PM10),53,54,41,32,28,119,119,91,84,8,6,6,5,0.3,0.2
2026-03-27T1200,1867A,109.1435,21.4085,北海市,海滩公园,NA,NA,34,32,3,11,61,61,51,51,6,8,NA,7,0.4,0.4
2026-03-27T1200,1868A,109.0983,21.466,北海市,新市环保局,,26,26,24,15,11,58,58,46,46,5,7,9,8,0.6,0.6
2026-03-27T1200,1869A,109.1775,21.5232,北海市,北海工业园,,25,25,30,14,13,53,53,39,39,4,6,6,6,0.7,0.7
2026-03-27T1200,3400A,109.1844,21.4396,北海市,龙潭自来水厂,,23,23,23,12,12,53,53,43,43,3,5,6,6,0.9,0.9
2026-03-27T1200,1001A,116.3611,39.8786,北京市,万寿西宫,,31,7,78,3,50,97,97,84,84,11,17,2,5,0.3,0.6
2026-03-27T1200,1003A,116.4174,39.9289,北京市,东四,,31,9,87,3,57,98,98,84,84,9,19,5,8,0.1,0.5
2026-03-27T1200,1004A,116.4073,39.8858,北京市,天坛,,26,7,80,3,52,81,81,74,74,9,15,3,6,0.4,0.7
2026-03-27T1200,1005A,116.4622,39.9364,北京市,农展馆,,26,7,91,3,62,81,81,76,76,10,19,4,7,0.2,0.8
2026-03-27T1200,1006A,116.3399,39.9293,北京市,官园,,25,7,78,3,56,80,80,68,68,12,23,3,4,0.2,0.5
2026-03-27T1200,1007A,116.2879,39.9613,北京市,海淀万柳,,23,9,78,3,51,71,71,60,60,12,21,3,5,0.2,0.5
2026-03-27T1200,1008A,116.6635,40.1349,北京市,顺义新城,,31,6,83,3,55,99,99,85,85,3,11,3,6,0.2,0.5
2026-03-27T1200,1009A,116.6275,40.327,北京市,怀柔镇,,28,6,65,3,44,89,89,72,72,9,14,4,6,0.3,0.6
2026-03-27T1200,1010A,116.2295,40.217,北京市,昌平镇,,29,6,58,3,38,91,91,79,78,9,13,2,4,0.3,0.5
2026-03-27T1200,1011A,116.3968,39.982,北京市,奥体中心,,25,8,76,3,40,78,78,63,63,12,22,3,6,0.1,0.4
2026-03-27T1200,3418A,116.8336,40.4095,北京市,密云新城,,29,6,64,3,37,90,90,83,83,7,8,2,4,0.3,0.5
2026-03-27T1200,3671A,116.0879,39.9725,北京市,门头沟三家店,,24,13,82,3,52,75,75,41,41,13,25,4,6,0.3,0.6
2026-03-27T1200,3672A,116.1507,39.8246,北京市,丰台云岗,NA,NA,NA,90,3,55,85,85,65,65,12,20,3,6,0.4,0.7
2026-03-27T1200,3674A,115.9578,39.7602,北京市,房山燕山,,23,12,92,3,58,73,73,62,57,13,19,4,6,0.2,0.7
2026-03-27T1200,3675A,116.4669,39.7734,北京市,大兴旧宫,,29,7,99,3,64,90,90,67,67,7,24,3,6,0.3,0.7
2026-03-27T1200,3694A,115.9859,40.4562,北京市,延庆石河营,,23,16,24,6,11,72,72,34,34,13,18,3,3,0.2,0.3
2026-03-27T1200,3695A,116.6151,40.3052,北京市,怀柔新城,,28,6,70,3,45,88,88,74,74,1,8,3,5,0.3,0.6
2026-03-27T1200,3696A,116.2542,39.8764,北京市,丰台小屯,,27,8,80,3,52,84,84,70,70,11,21,2,4,0.2,0.5
2026-03-27T1200,3697A,116.8399,40.3843,北京市,密云镇,,29,6,70,3,42,91,91,82,82,7,14,4,6,0.3,0.5
2026-03-27T1200,4057A,115.9423,40.4431,北京市,延庆百泉,,24,15,23,3,10,74,74,37,37,15,22,1,2,0.4,0.4
2026-03-27T1200,4058A,116.6598,39.9164,北京市,通州新华,,29,8,108,3,64,92,92,72,72,6,32,3,6,0.2,0.7
2026-03-27T1200,4182A,116.1942,39.9158,北京市,石景山八角,,23,12,85,3,51,71,71,55,55,9,14,3,4,0.2,0.5
2026-03-27T1200,4194A,117.078628,40.151726,北京市,平谷新城,NA,NA,NA,93,16,59,86,86,78,70,12,17,2,5,0.4,0.8
2026-03-27T1200,1761A,123.8274146,41.31234549,本溪市,大峪,,32,32,109,16,72,96,96,62,62,13,26,10,12,0.6,1.2
2026-03-27T1200,1763A,123.7169,41.3094,本溪市,彩屯,颗粒物(PM10),51,51,118,21,79,108,108,76,76,9,22,9,14,0.7,1.1
2026-03-27T1200,1764A,123.7672166,41.28649327,本溪市,东明,颗粒物(PM10),67,73,109,23,73,100,100,73,73,14,27,8,13,0.6,1.2
2026-03-27T1200,1765A,123.799345,41.266614,本溪市,新立屯,颗粒物(PM10),57,59,103,17,74,98,98,52,52,10,37,8,10,0.6,1
2026-03-27T1200,1766A,123.829144,41.336777,本溪市,威宁,NA,NA,NA,149,NA,84,100,100,55,55,11,35,8,8,0.4,0.9
2026-03-27T1200,2587A,105.287,27.3133,毕节市,八中,,20,NA,23,7,17,63,63,66,61,9,10,10,10,0.6,0.6
2026-03-27T1200,2588A,105.3079,27.2987,毕节市,师专,,19,12,29,6,18,60,60,64,59,9,8,9,10,0.6,0.5
2026-03-27T1200,4263A,105.3688,27.3598,毕节市,工业大道,NA,NA,12,25,10,18,68,68,67,64,NA,8,9,10,/,/
2026-03-27T1200,1629A,117.9961,37.3604,滨州市,第二水厂,颗粒物(PM10),84,97,138,32,80,106,106,95,91,14,23,11,17,0.2,0.7
2026-03-27T1200,1630A,117.9789,37.3931,滨州市,北中新校,NA,NA,85,123,28,74,97,97,90,NA,15,30,NA,17,0.2,0.4
2026-03-27T1200,3514A,117.9379,37.3959,滨州市,中海酒店,颗粒物(PM10),78,88,132,30,73,108,108,92,92,15,35,9,18,0.3,0.7
2026-03-27T1200,3515A,117.9381509,37.35547456,滨州市,开发区一中,颗粒物(PM10),101,122,139,34,76,103,103,92,89,14,27,8,16,0.5,0.7
2026-03-27T1200,3516A,118.0914,37.6938,滨州市,金海六路,,41,41,128,3,75,97,97,92,92,6,42,6,11,0.3,0.6
2026-03-27T1200,4028A,117.9955,37.3752,滨州市,滨州市西街道办事处,颗粒物(PM10),90,105,139,31,74,106,106,92,91,11,20,10,15,0.1,0.4
2026-03-27T1200,2311A,115.8071,33.8399,亳州市,污水处理厂,细颗粒物(PM2.5),88,87,89,54,56,155,155,86,86,14,23,7,8,0.2,0.2
2026-03-27T1200,2312A,115.7789,33.8519,亳州市,三国揽胜宫,颗粒物(PM10),103,127,88,NA,54,142,142,80,80,NA,18,7,8,0.2,0.2
2026-03-27T1200,3332A,115.7631,33.803,亳州市,亳州学院,细颗粒物(PM2.5),92,90,88,56,58,148,148,96,96,10,14,8,7,0.3,0.3
2026-03-27T1200,2693A,82.0482,44.8553,博尔塔拉蒙古自治州,市党校,,43,43,55,10,9,83,83,62,59,7,5,5,3,0.5,0.4
2026-03-27T1200,2694A,82.0805,44.8966,博尔塔拉蒙古自治州,市环保局,,36,36,43,13,11,60,60,40,40,29,16,4,3,0.3,0.4
2026-03-27T1200,1071A,116.8733,38.2922,沧州市,沧县城建局,,40,40,118,13,65,79,79,79,79,14,35,4,6,0,0.4
2026-03-27T1200,1072A,116.8462,38.3189,沧州市,电视转播站,颗粒物(PM10),53,53,114,11,73,83,83,79,79,13,33,3,4,0.3,0.5
2026-03-27T1200,1073A,116.8588,38.3161,沧州市,市环保局,颗粒物(PM10),53,53,129,3,66,84,84,80,80,9,34,7,9,0.1,0.4
2026-03-27T1200,3324A,116.8011,38.294,沧州市,河北水利电力学院,颗粒物(PM10),51,51,125,17,75,85,85,85,85,11,36,8,12,0.0,0.5
2026-03-27T1200,2622A,97.1813,31.1289,昌都市,昌都监测站,,26,16,19,3,5,82,82,68,68,11,13,4,4,0.5,0.5
2026-03-27T1200,3719A,97.1707,31.1428,昌都市,昌都会议中心,NA,NA,7,9,3,5,NA,NA,81,75,NA,4,5,5,0.3,0.3
2026-03-27T1200,2692A,87.2722,44.0298,昌吉回族自治州,新区政务中心,,36,33,25,25,16,59,59,24,24,18,17,5,4,0.6,0.5
2026-03-27T1200,3613A,87.3069,44.0093,昌吉回族自治州,亚心广场,,46,46,32,23,12,64,64,26,26,15,22,8,8,0.6,0.5
2026-03-27T1200,4164A,87.2057,43.9289,昌吉回族自治州,财政所,颗粒物(PM10),75,85,41,9,12,61,61,32,32,20,16,9,7,0.6,0.4
2026-03-27T1200,1120A,125.2874,43.9024,长春市,客车厂,,45,45,87,29,59,106,106,67,67,12,32,7,8,0.3,0.5
2026-03-27T1200,1121A,125.2943,43.8508,长春市,邮电学院,,41,41,91,24,56,98,98,62,62,6,27,7,9,0.3,0.5
2026-03-27T1200,1122A,125.3648,43.8745,长春市,劳动公园,,47,47,81,32,50,102,102,68,68,9,23,7,8,0.5,0.6
2026-03-27T1200,1123A,125.3233,43.8781,长春市,园林处,,40,33,84,28,58,101,101,64,64,7,21,7,8,0.4,0.6
2026-03-27T1200,1124A,125.4604,43.7904,长春市,净月潭,,33,30,79,23,55,98,98,60,60,12,27,5,7,0.4,0.5
2026-03-27T1200,1126A,125.38,43.8422,长春市,经开区环卫处,,44,44,90,27,56,103,103,62,62,9,29,6,7,0.5,0.6
2026-03-27T1200,1127A,125.234,43.7761,长春市,高新区管委会,,46,43,95,32,61,103,103,58,58,11,35,7,8,0.4,0.6
2026-03-27T1200,1128A,125.1695,43.83,长春市,岱山公园,,45,39,98,31,68,100,100,64,64,11,39,5,7,0.4,0.6
2026-03-27T1200,4281A,125.334645,43.916281,长春市,北亚泰大街1068号,,40,33,88,28,56,97,97,58,58,11,31,7,8,0.3,0.5
2026-03-27T1200,1335A,113.082,28.2421,长沙市,经开区环保局,颗粒物(PM10),65,70,43,42,30,92,92,67,67,10,11,4,2,0.6,0.6
2026-03-27T1200,1336A,112.8873,28.2202,长沙市,高开区环保局,细颗粒物(PM2.5),76,65,38,48,32,70,70,60,60,20,12,6,5,0.8,0.7
2026-03-27T1200,1337A,113.0785,28.2012,长沙市,马坡岭,细颗粒物(PM2.5),70,66,43,45,34,83,83,66,66,20,19,7,4,0.8,0.8
2026-03-27T1200,1338A,112.9448,28.1894,长沙市,湖南师范大学,细颗粒物(PM2.5),68,70,42,44,34,86,86,71,69,12,11,5,4,0.8,0.7
2026-03-27T1200,1339A,113.0177,28.1322,长沙市,雨花区环保局,NA,NA,66,42,41,33,75,75,68,67,16,10,4,3,NA,0.8
2026-03-27T1200,1340A,112.9795,28.2593,长沙市,伍家岭,NA,NA,NA,44,NA,36,NA,NA,59,53,17,14,NA,3,NA,0.5
2026-03-27T1200,1341A,113.002,28.1944,长沙市,火车新站,细颗粒物(PM2.5),86,66,43,53,39,80,80,72,68,17,13,4,3,0.7,0.6
2026-03-27T1200,1342A,112.9846,28.1177,长沙市,天心区环保局,细颗粒物(PM2.5),101,77,45,61,46,80,80,70,70,20,16,6,5,0.8,0.8
2026-03-27T1200,1343A,112.8906,28.1307,长沙市,湖南中医药大学,细颗粒物(PM2.5),78,67,36,49,35,85,85,72,72,14,11,6,5,0.6,0.6
2026-03-27T1200,1727A,113.1146,36.1547,长治市,清华站,细颗粒物(PM2.5),102,114,85,62,46,115,115,62,61,28,24,24,9,1.2,0.7
2026-03-27T1200,1730A,113.0887,36.2126,长治市,审计局,细颗粒物(PM2.5),106,105,83,66,48,116,116,81,72,30,23,21,14,1.1,0.9
2026-03-27T1200,1731A,113.0845,36.1856,长治市,长治八中,"颗粒物(PM10),细颗粒物(PM2.5)",103,126,107,63,54,118,118,74,72,24,22,23,16,1.1,0.7
2026-03-27T1200,2845A,113.1561,36.1912,长治市,德盛苑,细颗粒物(PM2.5),116,114,79,77,49,116,116,113,96,32,18,23,15,1.2,0.9
2026-03-27T1200,3568A,113.0603,36.0464,长治市,向阳小学,颗粒物(PM10),100,119,121,56,50,134,134,88,85,28,27,13,12,1.0,0.7
2026-03-27T1200,3569A,112.8788,36.315,长治市,屯留一中,细颗粒物(PM2.5),105,90,96,65,56,135,135,51,51,29,38,24,15,1.2,0.9
2026-03-27T1200,4189A,113.113092,36.199482,长治市,英华南巷50号,NA,NA,NA,93,NA,47,120,120,82,73,NA,27,NA,13,1.5,1.3
2026-03-27T1200,4190A,113.23666,36.33435,长治市,学府街1号,颗粒物(PM10),90,105,82,50,39,147,147,66,66,8,27,10,8,0.9,0.9
2026-03-27T1200,1854A,111.696,28.9725,常德市,市二中,,30,NA,20,21,15,49,49,28,27,11,15,7,6,1.0,1
2026-03-27T1200,3138A,111.7152,29.0288,常德市,武陵区永安,,35,30,26,24,20,46,46,38,36,15,19,6,6,0.8,0.8
2026-03-27T1200,3139A,111.6891,28.9881,常德市,鼎城区玉霞,NA,NA,NA,16,20,14,51,51,26,26,15,22,7,7,1.0,1
2026-03-27T1200,3140A,111.6651,29.0526,常德市,武陵区长庚,,30,30,27,21,20,37,37,26,26,13,22,7,7,1.0,1
2026-03-27T1200,1196A,119.9524,31.7586,常州市,市监测站,颗粒物(PM10),66,72,76,32,36,101,101,40,40,32,49,13,12,0.7,0.7
2026-03-27T1200,1200A,119.9351,31.703,常州市,武进监测站,颗粒物(PM10),53,54,60,28,32,93,93,40,40,25,37,10,11,0.5,0.5
2026-03-27T1200,3002A,119.9701,31.813,常州市,行政中心,颗粒物(PM10),52,52,75,25,38,99,99,39,39,28,46,7,7,0.4,0.4
2026-03-27T1200,3003A,120.0434,31.7726,常州市,经开区,,35,29,68,12,35,109,109,39,39,17,43,10,10,0.5,0.6
2026-03-27T1200,3010A,119.8919,31.7892,常州市,钟楼,颗粒物(PM10),53,54,63,28,35,113,113,46,46,29,47,8,9,0.3,0.4
2026-03-27T1200,3429A,119.8595,31.706,常州市,武进经发区,细颗粒物(PM2.5),66,65,59,43,39,90,90,40,40,26,44,10,9,0.5,0.5
2026-03-27T1200,3430A,119.5812,31.7256,常州市,金坛城区,细颗粒物(PM2.5),54,52,55,37,41,112,112,52,52,15,28,10,10,0.6,0.6
2026-03-27T1200,4089A,119.9551,31.863,常州市,崇义南街5-H号,"颗粒物(PM10),细颗粒物(PM2.5)",60,64,63,40,35,99,99,40,40,31,42,7,6,0.5,0.6
2026-03-27T1200,2220A,120.4318,41.588,朝阳市,西梁,,48,48,59,25,26,97,97,55,55,16,19,12,11,0.5,0.5
2026-03-27T1200,2221A,120.452,41.565,朝阳市,河畔小区,颗粒物(PM10),55,57,57,17,21,101,101,67,67,15,16,10,9,0.5,0.5
2026-03-27T1200,2222A,120.4176,41.5648,朝阳市,八里堡,,43,43,62,22,25,97,97,54,54,15,18,10,11,0.5,0.4
2026-03-27T1200,3026A,116.6179,23.6608,潮州市,市政府,颗粒物(PM10),65,70,54,34,28,106,106,79,79,9,13,5,5,0.5,0.5
2026-03-27T1200,4036A,116.646,23.676,潮州市,金山,,49,49,44,27,26,101,101,78,78,12,17,5,5,0.4,0.4
2026-03-27T1200,2473A,113.0116,25.8228,郴州市,市职中,,32,22,36,22,30,31,31,35,34,12,12,5,7,0.7,0.7
2026-03-27T1200,2475A,113.0381,25.8074,郴州市,市审计局,,28,24,39,19,28,51,51,54,54,11,13,4,6,/,/
2026-03-27T1200,2476A,113.0348,25.7757,郴州市,市环保局,,28,26,47,19,30,31,31,31,31,13,16,6,8,0.4,0.4
2026-03-27T1200,4252A,113.0138,25.8011,郴州市,好美居路49号,,32,25,37,22,34,36,36,40,39,14,13,4,6,/,/
2026-03-27T1200,1431A,103.9727,30.7242,成都市,金泉两河,细颗粒物(PM2.5),103,104,53,63,31,37,37,16,16,39,36,11,3,0.6,0.5
2026-03-27T1200,1432A,104.1423,30.6765,成都市,十里店,细颗粒物(PM2.5),70,67,59,45,31,55,55,38,27,37,33,8,5,0.6,0.5
2026-03-27T1200,1433A,104.0594,30.5765,成都市,三瓦窑,细颗粒物(PM2.5),82,55,60,51,34,35,35,16,8,39,36,4,3,0.8,0.8
2026-03-27T1200,1434A,104.1122,30.6306,成都市,沙河铺,细颗粒物(PM2.5),72,58,54,46,28,40,40,32,22,55,40,6,5,0.6,0.5
2026-03-27T1200,2880A,104.0219,30.6561,成都市,大石西路,NA,NA,52,61,47,36,NA,NA,12,6,30,35,NA,7,NA,0.6
2026-03-27T1200,3136A,104.2724,30.559,成都市,龙泉驿区区政府,,49,48,40,34,22,66,66,70,56,19,16,7,6,0.5,0.5
2026-03-27T1200,3357A,104.0028,30.6891,成都市,金博路,细颗粒物(PM2.5),82,64,52,51,33,48,48,16,16,43,42,12,7,0.8,0.7
2026-03-27T1200,3359A,104.056,30.5228,成都市,华阳,细颗粒物(PM2.5),72,75,56,46,30,22,22,22,9,57,39,4,4,0.8,0.7
2026-03-27T1200,3488A,104.387954,30.746684,成都市,青石路225号,,50,NA,40,35,23,86,86,68,59,13,23,9,7,0.7,0.6
2026-03-27T1200,3489A,104.0788,30.4054,成都市,科学城,颗粒物(PM10),60,63,41,35,20,27,27,34,18,38,25,10,8,0.8,0.6
2026-03-27T1200,4011A,103.8505,30.6946,成都市,光华大道三段,颗粒物(PM10),68,75,53,43,27,52,52,27,22,38,34,9,4,0.6,0.5
2026-03-27T1200,4144A,104.3257,30.6406,成都市,八角井街185号,细颗粒物(PM2.5),60,44,45,40,23,54,54,62,47,25,18,4,4,0.5,0.5
2026-03-27T1200,4224A,104.2433276,30.53529463,成都市,鲸龙路1057号,细颗粒物(PM2.5),64,67,46,42,24,66,66,54,44,23,26,7,6,0.6,0.5
2026-03-27T1200,1062A,117.9531,40.908,承德市,铁路,,25,23,44,3,12,80,80,51,51,4,13,2,6,0.2,0.3
2026-03-27T1200,1063A,117.9397,40.9763,承德市,中国银行,,25,11,39,3,8,79,79,49,49,7,13,2,4,0.2,0.3
2026-03-27T1200,4073A,117.9462,40.95,承德市,杏林街1号,,27,19,37,3,13,85,85,57,57,9,12,3,4,0.2,0.3
2026-03-27T1200,4274A,117.7994,40.9605,承德市,滨河大街98号,,28,17,44,3,11,88,88,58,58,8,12,16,11,0.3,0.3
2026-03-27T1200,2314A,117.4698,30.6617,池州市,池州学院,细颗粒物(PM2.5),60,49,75,40,53,94,94,51,51,32,40,6,5,1.0,1
2026-03-27T1200,3237A,117.4918,30.6617,池州市,展览馆,NA,NA,60,77,50,60,94,94,46,46,31,37,5,4,NA,1
2026-03-27T1200,3333A,117.5626,30.695,池州市,第八中学,,49,46,67,34,47,97,97,46,46,26,38,4,5,1.3,1
2026-03-27T1200,3334A,117.5037,30.6242,池州市,第十二中学,细颗粒物(PM2.5),54,48,66,37,48,99,99,53,53,28,44,3,3,0.9,1
2026-03-27T1200,1744A,118.9229,42.2816,赤峰市,松山一中,,27,27,48,3,14,81,81,39,39,12,19,5,5,0.4,0.4
2026-03-27T1200,1745A,118.9588,42.2733,赤峰市,哈达街,,40,40,48,6,13,88,88,52,52,10,15,8,9,0.4,0.4
2026-03-27T1200,1746A,118.8792,42.2551,赤峰市,天义路,,32,16,36,3,13,100,100,54,54,7,16,5,6,0.4,0.4
2026-03-27T1200,3058A,119.2656,42.0356,赤峰市,银河街,颗粒物(PM10),66,72,77,14,22,102,102,57,57,1,8,10,12,0.4,0.4
2026-03-27T1200,3286A,118.9359,42.3146,赤峰市,桥北物流园区,,29,14,36,10,16,91,91,47,47,4,15,4,4,0.5,0.5
2026-03-27T1200,2521A,107.3473,22.4137,崇左市,市环保局江州分局,NA,NA,49,48,30,33,62,62,59,52,NA,8,6,7,0.5,0.6
2026-03-27T1200,4256A,107.375,22.3736,崇左市,石景林东路7号,细颗粒物(PM2.5),54,51,45,37,33,72,72,60,53,10,12,4,5,0.6,0.6
2026-03-27T1200,3207A,118.31131,32.3033,滁州市,市政府原办公楼,细颗粒物(PM2.5),98,59,65,59,57,77,77,45,45,40,35,10,8,0.6,0.5
2026-03-27T1200,3331A,118.3268,32.2633,滁州市,图书馆,"颗粒物(PM10),细颗粒物(PM2.5)",66,72,66,43,39,79,79,46,46,33,34,12,11,0.5,0.5
2026-03-27T1200,4101A,118.3196,32.3335,滁州市,银山路666号,细颗粒物(PM2.5),90,68,72,55,50,68,68,38,38,49,40,17,13,1.0,0.8
2026-03-27T1200,4102A,118.3426,32.2979,滁州市,黄山路555号,细颗粒物(PM2.5),82,77,85,51,51,80,80,45,45,41,40,11,10,0.9,0.8
2026-03-27T1200,2606A,101.5379,25.0492,楚雄彝族自治州,市经济开发区,,37,25,27,18,18,118,118,100,91,4,8,4,5,0.3,0.5
2026-03-27T1200,4153A,101.5536,25.0343,楚雄彝族自治州,团结路562号,,38,24,22,19,17,121,121,108,104,4,6,3,2,0.2,0.2
2026-03-27T1200,2549A,107.5087,31.2186,达州市,市环境监测站,,42,42,44,17,15,51,51,20,20,19,30,8,7,0.2,0.4
2026-03-27T1200,2550A,107.4988,31.2132,达州市,凤凰小区,NA,NA,NA,43,NA,15,NA,NA,70,17,NA,29,NA,7,NA,0.5
2026-03-27T1200,2551A,107.5081,31.1987,达州市,达县机关宾馆,,46,46,42,15,17,53,53,25,25,20,33,7,6,0.4,0.6
2026-03-27T1200,2552A,107.4644,31.2124,达州市,市政中心,,45,45,50,14,15,53,53,20,20,23,33,8,7,0.4,0.6
2026-03-27T1200,2614A,100.2168,25.5818,大理白族自治州,大理市环境监测站,,38,NA,27,26,22,96,96,90,85,6,6,7,7,0.4,0.4
2026-03-27T1200,2615A,100.1542,25.7055,大理白族自治州,大理古城,,35,30,24,18,20,109,109,83,83,6,8,5,5,0.4,0.4
2026-03-27T1200,1109A,121.6119,38.974,大连市,甘井子,,31,20,57,12,41,98,98,80,80,14,27,8,9,0.5,0.7
2026-03-27T1200,1110A,121.565,38.9509,大连市,周水子,,40,40,75,12,50,91,91,73,73,17,43,9,8,0.3,0.6
2026-03-27T1200,1111A,121.5637,38.8849,大连市,星海三站,,32,32,61,8,46,89,89,79,79,11,21,7,5,0.2,0.5
2026-03-27T1200,1112A,121.6301,38.9117,大连市,青泥洼桥,,28,22,75,11,52,88,88,73,73,22,35,6,7,0.4,0.8
2026-03-27T1200,1113A,121.6248,38.8643,大连市,傅家庄,,27,18,53,10,37,86,86,84,78,16,18,8,8,0.6,0.8
2026-03-27T1200,1114A,121.5117,38.8636,大连市,七贤岭,,31,8,77,8,52,97,97,106,91,10,23,6,6,0.5,0.8
2026-03-27T1200,1116A,121.7507,39.1339,大连市,金州,,30,21,81,10,58,94,94,98,88,13,23,10,12,0.6,0.8
2026-03-27T1200,1117A,121.7811,39.0495,大连市,开发区,,38,38,68,9,45,92,92,88,85,12,36,9,9,0.6,0.9
2026-03-27T1200,1118A,121.9762,39.0631,大连市,双D港,,34,33,55,11,35,106,106,107,103,13,14,5,6,0.2,0.6
2026-03-27T1200,4082A,121.2548,38.8188,大连市,旅顺,,29,24,68,9,52,92,92,80,80,9,17,6,6,0.5,0.6
2026-03-27T1200,1789A,124.8085,46.0381,大庆市,大同区,颗粒物(PM10),61,65,66,28,32,101,101,72,72,13,14,4,5,0.3,0.3
2026-03-27T1200,1790A,125.1166,46.5255,大庆市,龙凤区,NA,NA,40,62,16,30,NA,NA,57,56,11,18,5,4,0.1,0.2
2026-03-27T1200,1791A,124.8894,46.4007,大庆市,红岗区,,30,27,51,15,27,93,93,65,65,4,8,12,12,0.3,0.4
2026-03-27T1200,1792A,125.1391,46.578,大庆市,萨尔图区,,32,32,60,8,26,88,88,60,60,12,18,6,6,0.4,0.5
2026-03-27T1200,1793A,124.9026,46.6217,大庆市,让胡路区,,31,31,57,9,28,89,89,63,63,6,10,5,6,0.2,0.3
2026-03-27T1200,3481A,125.127,46.6277,大庆市,萨区政府监测点,,27,27,55,14,28,82,82,52,52,2,7,10,9,0.3,0.3
2026-03-27T1200,1723A,113.2926,40.0759,大同市,云冈宾馆,,27,25,34,6,16,84,84,58,58,9,11,10,9,1.3,1
2026-03-27T1200,1724A,113.3437,40.0921,大同市,大同大学,,29,28,39,3,13,91,91,66,66,15,17,9,9,1.4,0.9
2026-03-27T1200,1725A,113.2637,40.129,大同市,安家小村,,30,20,44,3,14,95,95,53,53,10,16,10,12,0.5,0.9
2026-03-27T1200,3282A,113.3399,40.0586,大同市,大同市卫生学校,,30,22,34,7,12,94,94,70,70,15,15,9,8,1.1,0.8
2026-03-27T1200,3565A,113.1371,40.1122,大同市,云冈站,,30,15,42,8,15,94,94,49,49,7,18,9,13,0.4,0.6
2026-03-27T1200,3566A,113.1186,40.2556,大同市,图书馆,NA,NA,28,38,3,14,NA,NA,57,57,9,11,6,9,0.8,1.2
2026-03-27T1200,3567A,113.5931,40.0459,大同市,区一中,颗粒物(PM10),68,74,43,25,22,117,117,89,89,10,8,16,12,0.4,0.4
2026-03-27T1200,4199A,113.2798248,40.09972476,大同市,魏都大道141号,,34,34,43,3,15,89,89,52,52,12,17,11,11,1.1,1.1
2026-03-27T1200,2269A,124.1068,50.4091,大兴安岭地区,科技局,,25,NA,21,12,11,77,77,53,53,2,5,8,8,0.7,0.7
2026-03-27T1200,3663A,124.117,50.4279,大兴安岭地区,红旗社区,,25,9,18,3,11,79,79,40,40,4,17,7,9,0.2,0.3
2026-03-27T1200,1600A,124.33,40.0625,丹东市,江湾东路,,36,27,95,22,70,114,114,60,60,16,30,9,13,0.3,1
2026-03-27T1200,1601A,124.4242,40.1513,丹东市,临江后街,,36,36,116,20,83,99,99,55,55,12,24,4,11,0.3,1.1
2026-03-27T1200,1602A,124.3935,40.1461,丹东市,元宝山,,38,38,106,22,74,102,102,59,59,10,27,6,12,0.4,1
2026-03-27T1200,1603A,124.3634,40.1093,丹东市,民主桥,,35,33,105,23,76,111,111,59,59,14,32,6,11,0.3,1
2026-03-27T1200,3541A,109.5726195,19.51688767,儋州市,第一中学子站,,33,33,41,22,23,80,80,49,49,4,6,6,6,0.6,0.5
2026-03-27T1200,3542A,109.5567,19.5187,儋州市,东坡学校子站,,32,32,35,18,22,90,90,53,53,5,7,7,8,0.5,0.5
2026-03-27T1200,2616A,98.5611,24.4273,德宏傣族景颇族自治州,德宏州监测站,细颗粒物(PM2.5),102,NA,48,62,42,75,75,30,28,12,12,9,8,0.6,0.6
2026-03-27T1200,3677A,98.5887,24.4366,德宏傣族景颇族自治州,芒市人民政府综合楼,颗粒物(PM10),90,106,72,38,41,75,75,45,45,20,14,5,3,1.0,0.7
2026-03-27T1200,1901A,104.424,31.1209,德阳市,东山公园,,36,36,41,24,25,84,84,55,51,6,15,4,4,0.6,0.5
2026-03-27T1200,1902A,104.3827,31.1318,德阳市,西小区,,49,49,58,27,30,82,82,40,40,11,32,3,5,0.7,0.6
2026-03-27T1200,1904A,104.3553,31.1091,德阳市,耐火材料厂,,48,48,61,28,31,83,83,38,38,16,31,4,5,0.6,0.6
2026-03-27T1200,4145A,104.4144,31.1495,德阳市,市林业局,,42,42,52,24,27,87,87,42,42,5,37,3,3,0.5,0.5
2026-03-27T1200,1622A,116.3034,37.4675,德州市,儿童乐园,细颗粒物(PM2.5),149,188,146,113,82,126,126,71,71,23,30,16,16,0.8,0.8
2026-03-27T1200,1624A,116.2992,37.4449,德州市,监理站,细颗粒物(PM2.5),141,183,145,105,78,134,134,83,83,26,32,10,9,1.1,0.7
2026-03-27T1200,3066A,116.2722,37.438,德州市,九衢泉纯净水厂,细颗粒物(PM2.5),139,163,141,102,80,126,126,72,72,37,54,11,10,0.8,0.7
2026-03-27T1200,3371A,116.3693,37.44,德州市,开发区人民医院,细颗粒物(PM2.5),133,158,144,96,81,114,114,64,64,20,30,14,12,0.7,0.6
2026-03-27T1200,3511A,116.5687,37.3331,德州市,陵城艺术中心,细颗粒物(PM2.5),142,153,140,106,84,100,100,56,56,15,25,8,10,0.8,0.7
2026-03-27T1200,4292A,116.352738,37.420875,德州市,新河东路,细颗粒物(PM2.5),139,173,144,102,79,109,109,64,64,16,31,17,13,0.8,0.7
2026-03-27T1200,2621A,99.7054,27.8319,迪庆藏族自治州,迪庆州站,,31,25,24,12,13,97,97,71,70,7,8,5,5,0.5,0.5
2026-03-27T1200,3180A,99.7122,27.8129,迪庆藏族自治州,质量技术监督局,,35,32,22,9,12,112,112,87,84,8,9,6,6,0.6,0.6
2026-03-27T1200,4257A,104.6092,35.5962,定西市,将台街,,45,45,55,16,28,111,111,40,40,12,22,10,9,0.4,0.5
2026-03-27T1200,4309A,104.6159,35.5701,定西市,正龙路62号,,42,42,56,24,26,101,101,54,52,13,16,5,3,0.3,0.4
2026-03-27T1200,4071A,114.9883,38.5232,定州市,交通局,颗粒物(PM10),88,103,175,39,114,97,97,70,70,18,34,6,6,0.5,0.6
2026-03-27T1200,4072A,115.0045,38.5136,定州市,第五中学,颗粒物(PM10),90,106,188,36,101,96,96,72,72,16,39,10,11,0.5,0.6
2026-03-27T1200,1390A,113.7943,23.0132,东莞市,东城石井,,41,41,40,22,21,82,82,67,67,18,23,3,3,0.6,0.6
2026-03-27T1200,1391A,113.7384,22.9659,东莞市,南城西平,,35,35,37,19,20,71,71,53,53,20,21,4,4,0.6,0.6
2026-03-27T1200,3319A,113.7283,23.041,东莞市,万江金泰,,44,44,43,26,29,78,78,69,69,19,18,7,6,0.8,0.7
2026-03-27T1200,4129A,113.8666,23.1062,东莞市,裕兴路,颗粒物(PM10),58,60,52,34,28,96,96,58,58,21,20,7,6,0.8,0.8
2026-03-27T1200,4130A,114.0076,22.9739,东莞市,教育路1号,,42,42,49,20,25,91,91,63,63,19,22,5,5,0.7,0.7
2026-03-27T1200,4131A,113.7981,22.8124,东莞市,长怡路1号,,35,35,37,16,17,64,64,67,64,17,18,5,4,0.6,0.6
2026-03-27T1200,1666A,118.6612,37.4313,东营市,市环保局,,36,36,119,6,77,91,91,90,90,9,27,7,12,0.4,0.6
2026-03-27T1200,3036A,118.6903,37.4337,东营市,开发区管委会,,39,39,116,7,73,94,94,94,94,11,29,6,12,0.3,0.6
2026-03-27T1200,3365A,118.5721,37.5654,东营市,垦利区民丰路,NA,NA,44,112,6,69,NA,NA,90,90,8,28,2,5,0.7,0.9
2026-03-27T1200,3498A,118.5063,37.8606,东营市,河口城区,,34,34,123,3,66,99,99,115,101,8,17,6,11,0.4,0.8
2026-03-27T1200,3646A,118.4979,37.4623,东营市,胜利站,颗粒物(PM10),58,60,124,8,70,88,88,79,79,7,33,8,13,0.4,0.9
2026-03-27T1200,3734A,118.5753,37.4405,东营市,理想之城,,44,44,124,6,64,97,97,89,89,17,42,4,8,0.6,0.9
2026-03-27T1200,1591A,110.0024,39.8127,鄂尔多斯市,综合楼,颗粒物(PM10),74,83,70,17,23,64,64,47,41,37,37,6,8,0.3,0.3
2026-03-27T1200,1592A,109.9485,39.8259,鄂尔多斯市,巴音孟克林场办事处,颗粒物(PM10),74,83,57,15,19,69,69,48,46,30,29,7,7,0.2,0.3
2026-03-27T1200,1593A,109.7734,39.5987,鄂尔多斯市,康泽苑,,44,44,59,3,20,90,90,56,56,18,24,7,7,0.3,0.4
2026-03-27T1200,1594A,109.8121,39.5987,鄂尔多斯市,华泰汽车城,,39,39,59,9,21,91,91,43,43,16,29,7,7,0.3,0.4
2026-03-27T1200,1595A,109.9734,39.7884,鄂尔多斯市,奥林花园,颗粒物(PM10),67,73,59,14,17,56,56,70,64,47,26,8,7,0.3,0.4
2026-03-27T1200,2436A,114.894,30.3989,鄂州市,市政府,细颗粒物(PM2.5),74,70,50,47,29,94,94,60,60,19,23,10,9,0.5,0.5
2026-03-27T1200,2437A,114.8986,30.3714,鄂州市,赵家坝,细颗粒物(PM2.5),82,69,53,51,29,125,125,79,79,7,14,9,8,0.8,0.9
2026-03-27T1200,3654A,114.8093,30.4091,鄂州市,精准医疗中心,细颗粒物(PM2.5),84,61,52,52,31,121,121,83,83,8,13,11,8,0.6,0.7
2026-03-27T1200,2454A,109.4978,30.2979,恩施土家族苗族自治州,湖北民院,,21,21,18,3,10,27,27,15,15,2,9,6,6,0.7,0.7
2026-03-27T1200,3549A,109.5061,30.3771,恩施土家族苗族自治州,龙凤新区,NA,NA,19,12,10,6,32,32,14,14,10,4,NA,7,0.5,0.5
2026-03-27T1200,2499A,108.3411,21.6159,防城港市,沙万,,37,37,54,25,16,31,31,27,24,17,18,6,8,0.7,0.5
2026-03-27T1200,2500A,108.3515,21.7733,防城港市,防城档案局,,34,34,30,21,19,56,56,31,31,5,5,6,6,0.5,0.5
2026-03-27T1200,2501A,108.3506,21.6414,防城港市,大海花园,,45,NA,29,31,31,39,39,41,36,18,16,8,8,0.5,0.4
2026-03-27T1200,1371A,113.1293,23.0065,佛山市,湾梁,,44,44,31,26,21,62,62,33,33,18,15,/,/,/,/
2026-03-27T1200,1372A,113.1082,23.0477,佛山市,华材职中,,46,46,30,28,22,60,60,37,37,23,18,8,8,0.4,0.4
2026-03-27T1200,1373A,113.1439,23.045,佛山市,南海气象局,颗粒物(PM10),55,56,34,25,22,56,56,33,33,22,20,/,/,/,/
2026-03-27T1200,1374A,113.2879,22.8094,佛山市,顺德苏岗,,46,46,36,23,18,62,62,42,42,16,12,/,/,0.5,0.5
2026-03-27T1200,1376A,112.8384,22.8678,佛山市,高明孔堂,,26,26,27,16,17,62,62,38,38,13,12,/,/,/,/
2026-03-27T1200,1377A,112.8835,23.1584,佛山市,三水监测站,,46,46,31,20,19,62,62,27,27,20,21,4,4,0.4,0.4
2026-03-27T1200,1378A,112.8668,23.185,佛山市,三水云东海,,42,42,44,17,18,68,68,27,27,15,22,/,/,/,/
2026-03-27T1200,3625A,113.2568,22.7629,佛山市,容桂街道办,,34,34,26,21,18,71,71,49,49,18,17,/,/,/,/
2026-03-27T1200,1282A,119.2681,26.0506,福州市,师大,,31,31,27,21,17,76,76,57,52,18,19,3,3,0.4,0.4
2026-03-27T1200,1283A,119.2983,26.1028,福州市,五四北路,,42,41,23,29,16,68,68,48,48,23,19,4,4,0.5,0.5
2026-03-27T1200,1284A,119.2648,26.0769,福州市,杨桥西路,,28,22,23,16,15,87,87,52,52,14,17,3,4,/,/
2026-03-27T1200,3048A,119.5799,26.0937,福州市,九龙,,38,30,24,26,19,91,91,56,56,13,14,5,4,0.5,0.6
2026-03-27T1200,3526A,119.5188,25.9666,福州市,吴航,NA,NA,42,28,30,20,75,75,50,50,19,19,NA,5,1.0,0.8
2026-03-27T1200,4104A,119.3106,26.0648,福州市,路通桥巷6号,,43,41,27,30,22,67,67,50,46,17,15,/,/,/,/
2026-03-27T1200,1755A,123.7974,41.8494,抚顺市,望花区,颗粒物(PM10),65,71,106,19,61,103,103,76,76,13,28,9,14,0.5,0.8
2026-03-27T1200,1756A,123.9161,41.8827,抚顺市,顺城区,颗粒物(PM10),52,52,86,30,61,114,114,78,78,17,29,11,14,0.7,0.9
2026-03-27T1200,1757A,124.0437,41.8615,抚顺市,东洲区,颗粒物(PM10),61,65,106,27,66,106,106,70,70,19,25,11,12,0.8,1
2026-03-27T1200,1758A,123.9246,41.8638,抚顺市,新抚区,颗粒物(PM10),67,73,109,28,60,119,119,84,84,15,24,13,14,0.5,0.8
2026-03-27T1200,1759A,124.0972,41.8961,抚顺市,大伙房水库,颗粒物(PM10),60,63,88,25,55,120,120,80,80,19,26,9,10,0.6,0.8
2026-03-27T1200,1760A,123.708,41.8386,抚顺市,沈抚新城,NA,NA,56,122,16,74,98,98,65,65,NA,34,8,13,0.6,0.9
2026-03-27T1200,2377A,116.3544,27.9833,抚州市,市站,,38,26,25,26,21,78,78,63,63,4,6,9,7,0.8,0.9
2026-03-27T1200,2378A,116.3562,27.9631,抚州市,血防站,,29,29,29,20,18,81,81,62,62,5,7,8,6,0.7,0.8
2026-03-27T1200,2379A,116.3561,28.0007,抚州市,采茶剧团,,26,26,28,12,17,78,78,64,64,5,7,11,10,0.6,0.7
2026-03-27T1200,2380A,116.3854,27.9648,抚州市,医学分院,,32,32,39,14,16,83,83,66,66,4,7,12,7,1.0,1.2
2026-03-27T1200,2207A,121.6095,41.9978,阜新市,工业园区,,30,20,65,3,30,96,96,70,70,8,15,7,9,0.3,0.5
2026-03-27T1200,2208A,121.6567,42.0188,阜新市,长青街,,31,14,52,3,26,98,98,72,72,9,15,4,7,0.4,0.5
2026-03-27T1200,2209A,121.6672,42.07,阜新市,农业园区,,31,27,59,6,24,97,97,78,78,10,15,4,6,0.4,0.5
2026-03-27T1200,2211A,121.6343,42.0455,阜新市,玉龙新城,,31,20,57,3,25,97,97,65,65,9,17,7,9,0.4,0.5
2026-03-27T1200,2301A,115.8276,32.8929,阜阳市,市监测站,细颗粒物(PM2.5),92,87,108,56,72,116,116,84,80,20,27,9,7,0.6,0.6
2026-03-27T1200,2303A,115.8551,32.8606,阜阳市,开发区,细颗粒物(PM2.5),103,99,124,63,74,104,104,80,76,21,24,8,7,0.6,0.7
2026-03-27T1200,2875A,115.783962,32.889217,阜阳市,阜阳职业技术学院,细颗粒物(PM2.5),108,91,92,68,62,130,130,100,98,21,19,10,9,0.6,0.6
2026-03-27T1200,3468A,115.79,32.8614,阜阳市,市规划展馆,细颗粒物(PM2.5),117,123,106,78,73,115,115,94,86,17,20,11,9,0.8,0.7
2026-03-27T1200,3469A,115.835101,32.918568,阜阳市,枣园社区,细颗粒物(PM2.5),100,81,104,60,76,121,121,82,82,16,21,7,7,0.6,0.7
2026-03-27T1200,2669A,102.9097,34.9841,甘南藏族自治州,州政府,,30,30,30,10,21,83,83,80,74,4,4,5,5,0.3,0.3
2026-03-27T1200,3380A,102.8915,34.9618,甘南藏族自治州,甘肃民族师范学院,,35,20,34,6,23,109,109,106,97,6,9,1,1,0.4,0.5
2026-03-27T1200,2570A,101.96,30.048,甘孜藏族自治州,水桥子,,26,10,8,3,4,83,83,74,74,4,7,6,6,0.1,0.1
2026-03-27T1200,3065A,101.9534,29.9976,甘孜藏族自治州,州环保局,,28,6,8,3,4,87,87,78,78,8,10,5,5,0.4,0.3
2026-03-27T1200,2363A,114.9368,25.8663,赣州市,地委,,17,17,23,8,11,44,44,37,37,10,11,3,3,0.8,0.8
2026-03-27T1200,2364A,114.946,25.8483,赣州市,气象台,,28,22,25,19,13,49,49,43,43,14,15,5,5,0.8,0.8
2026-03-27T1200,2365A,114.932,25.8332,赣州市,市图书馆,,20,20,18,14,11,48,48,44,44,14,12,4,4,1.0,1
2026-03-27T1200,2366A,114.8905,25.8472,赣州市,华坚鞋城,NA,NA,22,27,7,11,48,48,43,43,13,13,NA,5,0.5,0.5
2026-03-27T1200,3109A,115.0094,25.8614,赣州市,赣县区卫计委,NA,NA,NA,21,25,12,46,46,27,27,NA,14,3,3,NA,0.9
2026-03-27T1200,2684A,106.2753,36.0057,固原市,监测站,颗粒物(PM10),58,60,59,19,30,104,104,63,63,11,24,11,10,0.3,0.5
2026-03-27T1200,2685A,106.2384,36.0189,固原市,新区,NA,NA,73,62,NA,26,104,104,50,50,11,25,8,8,0.4,0.5
2026-03-27T1200,2544A,106.6307,30.4577,广安市,市委,,41,41,34,25,25,49,49,38,36,17,22,6,6,0.7,0.7
2026-03-27T1200,2545A,106.6266,30.4662,广安市,友谊中学,,30,29,29,21,19,46,46,36,31,14,19,8,7,0.7,0.6
2026-03-27T1200,2547A,106.6386,30.4551,广安市,广电花园,NA,NA,51,41,25,24,48,48,37,36,NA,21,5,5,0.8,0.8
2026-03-27T1200,2902A,106.6347,30.4868,广安市,北辰小学,,47,47,34,30,23,45,45,37,30,20,15,5,5,0.8,0.7
2026-03-27T1200,2524A,105.8211,32.4444,广元市,老城,细颗粒物(PM2.5),88,77,42,54,20,21,21,19,12,54,43,39,12,1.9,0.7
2026-03-27T1200,2526A,105.8629,32.429,广元市,监测站,颗粒物(PM10),62,66,45,33,17,25,25,42,30,53,24,16,11,0.9,0.6
2026-03-27T1200,3617A,105.8047,32.4167,广元市,经开区,细颗粒物(PM2.5),105,117,52,65,27,21,21,21,16,52,39,56,12,1.4,0.6
2026-03-27T1200,1345A,113.2346,23.1423,广州市,广雅中学,,39,39,34,22,18,49,49,40,40,22,17,3,3,0.7,0.6
2026-03-27T1200,1346A,113.2611,23.105,广州市,市五中,,43,41,35,30,23,63,63,45,45,23,20,6,7,/,/
2026-03-27T1200,1348A,113.3477,23.0916,广州市,广东商学院,,35,34,31,24,20,59,59,27,27,18,25,5,5,0.6,0.6
2026-03-27T1200,1349A,113.4332,23.105,广州市,市八十六中,,29,29,30,16,16,57,57,25,25,24,37,5,5,/,/
2026-03-27T1200,1350A,113.3506,22.9488,广州市,番禺中学,,41,41,36,22,19,68,68,34,34,17,25,4,4,0.6,0.6
2026-03-27T1200,1351A,113.2147,23.3918,广州市,花都师范,,48,48,43,28,25,58,58,36,36,25,26,6,6,0.8,0.8
2026-03-27T1200,1352A,113.2599,23.1329,广州市,市监测站,,45,45,33,24,18,51,51,36,36,22,19,1,1,/,/
2026-03-27T1200,1353A,113.5618,23.3119,广州市,九龙镇镇龙,颗粒物(PM10),53,54,48,29,24,66,66,37,37,28,26,6,6,0.5,0.4
2026-03-27T1200,1354A,113.2764,23.1544,广州市,麓湖,,39,39,32,23,17,58,58,36,36,18,19,3,3,0.5,0.4
2026-03-27T1200,2846A,113.3209,23.1323,广州市,体育西,,46,46,37,19,17,59,59,32,32,21,25,5,5,0.6,0.6
2026-03-27T1200,3298A,113.5718,23.5493,广州市,从化街口,颗粒物(PM10),53,53,48,32,28,68,68,39,39,15,19,6,6,0.7,0.7
2026-03-27T1200,3299A,113.3463,23.369,广州市,白云竹料,,32,32,39,18,20,60,60,28,28,16,26,3,4,0.6,0.6
2026-03-27T1200,3300A,113.2981,23.2365,广州市,白云嘉禾,,44,44,36,27,20,65,65,32,32,21,27,8,8,/,/
2026-03-27T1200,3301A,113.4256,23.1716,广州市,黄埔科学城,NA,NA,35,35,22,20,NA,NA,23,23,22,34,NA,6,0.5,0.5
2026-03-27T1200,3302A,113.3942,23.0485,广州市,番禺大学城,,42,42,33,18,16,66,66,40,40,24,24,5,5,0.7,0.6
2026-03-27T1200,3303A,113.4923,22.8169,广州市,南沙黄阁,,37,37,35,20,17,65,65,42,42,20,26,6,7,/,/
2026-03-27T1200,3304A,113.534,22.7893,广州市,南沙街,,38,38,36,17,18,61,61,44,44,16,22,9,8,0.5,0.5
2026-03-27T1200,3443A,113.2905,23.5541,广州市,花都梯面,NA,NA,43,37,24,19,52,52,27,27,NA,24,NA,9,/,/
2026-03-27T1200,3445A,113.786,23.7479,广州市,从化良口,NA,NA,28,32,22,24,NA,NA,12,11,12,19,NA,4,/,/
2026-03-27T1200,3446A,113.805,23.2614,广州市,增城荔城,细颗粒物(PM2.5),70,50,48,45,29,98,98,60,60,17,23,6,6,0.5,0.5
2026-03-27T1200,2506A,109.604387,23.066791,贵港市,江南子站,,48,48,55,32,29,46,46,26,26,10,17,9,10,0.6,0.7
2026-03-27T1200,2508A,109.5669,23.1065,贵港市,荷城子站,NA,NA,48,47,32,27,48,48,34,32,NA,17,11,10,0.5,0.6
2026-03-27T1200,3405A,109.5886,23.1172,贵港市,新世纪学校,,48,44,49,33,27,47,47,31,30,17,18,/,/,0.6,0.6
2026-03-27T1200,4260A,109.5933,23.095,贵港市,中山路155-3号,颗粒物(PM10),53,53,59,36,29,44,44,28,28,14,18,/,/,0.6,0.6
2026-03-27T1200,1439A,106.6863,26.6035,贵阳市,马鞍山,,15,9,29,3,20,47,47,37,34,6,9,3,3,/,/
2026-03-27T1200,1441A,106.6241,26.6266,贵阳市,鉴湖路,,19,19,38,3,22,38,38,39,36,15,14,4,4,0.5,0.5
2026-03-27T1200,1442A,106.7468,26.6344,贵阳市,燕子冲,,17,17,36,3,20,51,51,44,41,8,9,6,6,0.7,0.6
2026-03-27T1200,1443A,106.6556,26.4362,贵阳市,碧云窝,,31,31,38,3,22,42,42,43,41,17,14,6,6,/,/
2026-03-27T1200,1445A,106.6963,26.6063,贵阳市,红边门,,17,17,36,3,20,48,48,47,41,12,13,9,9,/,/
2026-03-27T1200,1446A,106.7162383,26.56964667,贵阳市,新华路,,24,24,39,3,19,50,50,49,47,11,13,6,7,1.0,0.7
2026-03-27T1200,1447A,106.6742,26.542,贵阳市,太慈桥,,17,17,33,3,19,49,49,45,41,11,12,3,3,/,/
2026-03-27T1200,4230A,106.688212,26.56952,贵阳市,花果园大街66号,,15,NA,23,6,20,48,48,46,42,9,10,2,3,/,/
2026-03-27T1200,4231A,106.687268,26.516892,贵阳市,漓江路57号,NA,NA,14,27,11,19,49,49,47,44,11,12,NA,7,1.0,1
2026-03-27T1200,1864A,110.3091,25.2705,桂林市,龙隐路小学,,20,13,47,10,32,64,64,51,51,10,11,3,5,0.8,0.8
2026-03-27T1200,1865A,110.2849361,25.22909545,桂林市,八中,,17,12,48,3,18,54,54,41,41,13,12,3,5,0.9,1
2026-03-27T1200,3531A,110.296,25.1254,桂林市,旅游学院,,23,23,51,7,35,66,66,54,54,11,10,5,7,0.9,0.9
2026-03-27T1200,4222A,110.1835,25.2444,桂林市,环湖路276号,,18,14,44,9,33,56,56,52,52,10,11,4,5,0.9,0.8
2026-03-27T1200,4301A,110.2803,25.2773,桂林市,信义路13号,,20,20,46,11,36,55,55,49,49,14,13,4,6,1.0,1
2026-03-27T1200,2674A,100.2262,34.4854,果洛藏族自治州,玛沁县大武镇,颗粒物(PM10),89,104,41,25,14,105,105,84,84,2,3,21,17,0.3,0.3
2026-03-27T1200,1130A,126.5557,45.8109,哈尔滨市,松北商大,细颗粒物(PM2.5),100,87,72,60,56,105,105,68,68,12,18,11,11,0.3,0.3
2026-03-27T1200,1132A,126.6162,45.719,哈尔滨市,南岗学府路,颗粒物(PM10),55,57,79,35,53,117,117,77,77,14,22,13,12,0.1,0.2
2026-03-27T1200,1133A,126.6894,45.7733,哈尔滨市,太平宏伟公园,颗粒物(PM10),73,81,62,40,46,102,102,71,71,14,18,11,10,0.3,0.2
2026-03-27T1200,1134A,126.6361,45.7672,哈尔滨市,道外承德广场,颗粒物(PM10),70,78,100,33,58,99,99,70,70,13,20,11,10,0.4,0.8
2026-03-27T1200,1136A,126.644,45.7261,哈尔滨市,动力和平路,NA,NA,NA,76,NA,52,101,101,68,68,10,19,13,15,NA,1.2
2026-03-27T1200,1137A,126.5933,45.7479,哈尔滨市,道里建国路,颗粒物(PM10),75,85,68,39,51,98,98,68,68,18,25,3,4,0.4,0.5
2026-03-27T1200,1138A,126.6127,45.6119,哈尔滨市,平房东轻厂,细颗粒物(PM2.5),114,NA,74,75,85,98,98,58,58,50,75,8,9,0.7,0.8
2026-03-27T1200,1139A,126.5875,45.9827,哈尔滨市,呼兰师专,细颗粒物(PM2.5),138,132,104,101,88,102,102,66,66,19,24,12,12,0.8,0.8
2026-03-27T1200,1140A,126.6299,45.6799,哈尔滨市,省农科院,颗粒物(PM10),62,66,120,34,72,94,94,66,66,10,29,10,11,0.5,0.8
2026-03-27T1200,4282A,126.6769,45.7379,哈尔滨市,华山路1号,颗粒物(PM10),63,68,74,38,61,94,94,71,71,18,19,15,9,0.7,0.7
2026-03-27T1200,4283A,126.9717,45.5356,哈尔滨市,解放大街52号,细颗粒物(PM2.5),107,127,203,67,142,114,114,53,53,18,35,18,18,0.3,0.7
2026-03-27T1200,2688A,93.5124,42.8176,哈密市,地区监测站,,33,33,26,7,12,83,83,65,64,5,9,6,6,0.1,0.1
2026-03-27T1200,2689A,93.5014,42.8312,哈密市,哈密师范学校,NA,NA,NA,17,NA,14,NA,NA,82,NA,NA,10,NA,7,NA,0.2
2026-03-27T1200,2671A,100.9016,36.9464,海北藏族自治州,海晏县西海镇,颗粒物(PM10),107,136,33,39,16,106,106,73,73,1,3,5,8,0.3,0.4
2026-03-27T1200,3867A,102.074,36.5056,海东市,平安区公安局北苑,,47,47,49,27,31,102,102,99,97,4,8,11,14,0.6,0.8
2026-03-27T1200,4163A,102.0984,36.5119,海东市,滨河路,,43,37,42,30,31,82,82,73,72,16,24,7,12,0.7,0.9
2026-03-27T1200,1410A,110.3189,20.0596,海口市,海南大学,,28,27,25,19,15,80,80,62,62,4,4,5,5,0.3,0.3
2026-03-27T1200,1411A,110.2827,20.0051,海口市,秀英海南医院,,26,26,22,18,15,77,77,56,56,5,10,8,8,0.3,0.3
2026-03-27T1200,1412A,110.3391,19.9979,海口市,海南师范大学,,29,25,25,20,16,82,82,63,63,3,4,6,6,0.3,0.4
2026-03-27T1200,1413A,110.3303,20.0359,海口市,龙华路环保局宿舍,,30,26,25,21,15,82,82,64,64,6,6,/,/,0.5,0.5
2026-03-27T1200,3539A,110.5111,19.9737,海口市,桂林洋子站,,28,28,25,15,14,72,72,58,58,4,5,/,/,/,/
2026-03-27T1200,4134A,110.1952,20.0451,海口市,长滨二路9号,,34,34,23,19,13,83,83,58,58,4,5,/,/,/,/
2026-03-27T1200,2673A,100.6158,36.2985,海南藏族自治州,共和县恰卜恰镇,颗粒物(PM10),95,113,42,35,18,114,114,83,83,2,8,9,10,0.3,0.3
2026-03-27T1200,2676A,97.373,37.376,海西蒙古族藏族自治州,德令哈市,,49,49,76,17,23,152,152,148,148,1,2,14,15,0.4,0.3
2026-03-27T1200,1049A,114.492,36.5712,邯郸市,矿院,细颗粒物(PM2.5),105,124,86,65,47,100,100,56,56,17,19,6,4,0.6,0.5
2026-03-27T1200,1050A,114.4839,36.6136,邯郸市,丛台公园,细颗粒物(PM2.5),122,127,96,84,58,106,106,64,64,19,20,7,8,0.6,0.6
2026-03-27T1200,3458A,114.7893,36.5592,邯郸市,香泉濮院小区,颗粒物(PM10),108,140,115,67,59,96,96,67,67,20,16,3,2,0.4,0.4
2026-03-27T1200,3580A,114.1998,36.4439,邯郸市,峰峰矿区临水派出所,细颗粒物(PM2.5),86,80,88,53,57,121,121,89,85,12,19,1,9,0.6,0.9
2026-03-27T1200,4068A,114.5209,36.7697,邯郸市,建安街268号,细颗粒物(PM2.5),120,127,102,82,64,96,96,50,50,21,27,4,5,0.6,0.5
2026-03-27T1200,4069A,114.5488,36.6177,邯郸市,丛台东路558号,细颗粒物(PM2.5),120,126,103,81,67,99,99,45,45,13,24,4,4,0.6,0.5
2026-03-27T1200,2635A,107.0155,33.0707,汉中市,市监测站,,47,47,49,22,24,74,74,39,39,12,18,7,7,0.4,0.5
2026-03-27T1200,2636A,107.0083,33.114,汉中市,鑫源开发区,NA,NA,40,38,19,18,79,79,50,50,NA,16,5,5,0.4,0.4
2026-03-27T1200,2637A,107.0072,33.0323,汉中市,南郑大河坎水厂,,50,50,45,18,21,76,76,33,33,10,20,5,5,0.4,0.4
2026-03-27T1200,1223A,120.2073,30.2111,杭州市,滨江,,32,32,43,22,30,76,76,56,53,24,26,7,7,0.2,0.3
2026-03-27T1200,1224A,120.0625,30.2737,杭州市,西溪,,30,30,56,18,35,71,71,41,41,20,26,8,8,0.6,0.7
2026-03-27T1200,1226A,120.3417,30.315,杭州市,下沙,NA,NA,42,52,24,33,NA,NA,45,42,17,30,8,9,0.7,0.7
2026-03-27T1200,1227A,120.1252,30.2465,杭州市,卧龙桥,,28,25,50,17,36,88,88,52,52,14,26,6,8,0.2,0.3
2026-03-27T1200,1228A,120.1902,30.2691,杭州市,浙江农大,,26,22,44,18,33,80,80,60,52,25,31,6,7,0.3,0.4
2026-03-27T1200,1230A,120.1195,30.3121,杭州市,和睦小学,,37,37,66,20,43,75,75,43,43,18,32,7,7,0.7,0.8
2026-03-27T1200,1231A,120.3076,30.4146,杭州市,临平镇,,35,30,61,24,42,99,99,58,58,14,32,6,7,0.7,0.7
2026-03-27T1200,1232A,120.2753,30.1839,杭州市,城厢镇,,38,38,52,26,26,67,67,54,50,31,28,9,9,0.6,0.6
2026-03-27T1200,1233A,120.0883,30.1808,杭州市,云栖,,26,25,46,16,30,82,82,43,43,22,36,5,6,0.7,0.8
2026-03-27T1200,3557A,119.9463,30.0496,杭州市,镇二中,NA,NA,NA,41,20,45,70,70,38,38,26,30,5,4,NA,0.9
2026-03-27T1200,3558A,119.7184,30.2367,杭州市,市府大楼,,49,NA,70,34,57,58,58,30,30,21,34,6,7,0.2,0.3
2026-03-27T1200,3656A,120.1554,30.2863,杭州市,消防大队,,36,35,52,25,40,71,71,50,45,21,31,7,8,0.6,0.6
2026-03-27T1200,1270A,117.1957,31.7845,合肥市,明珠广场,细颗粒物(PM2.5),115,119,90,76,57,54,54,47,39,44,29,8,8,0.8,0.7
2026-03-27T1200,1271A,117.307,31.8765,合肥市,三里街,细颗粒物(PM2.5),113,117,84,74,55,72,72,64,64,39,33,NA,9,1.0,0.9
2026-03-27T1200,1272A,117.2587,31.8703,合肥市,琥珀山庄,细颗粒物(PM2.5),106,114,84,66,51,75,75,72,72,48,37,9,9,0.9,0.8
2026-03-27T1200,1275A,117.2593,31.9376,合肥市,庐阳区,细颗粒物(PM2.5),104,102,88,64,55,78,78,59,59,39,37,6,6,1.0,0.9
2026-03-27T1200,1276A,117.345251,31.861615,合肥市,瑶海区,细颗粒物(PM2.5),98,112,88,59,49,68,68,58,58,52,38,9,9,0.8,0.8
2026-03-27T1200,1277A,117.3033,31.7967,合肥市,包河区,细颗粒物(PM2.5),96,107,90,58,50,69,69,54,54,53,52,12,11,0.8,0.8
2026-03-27T1200,1278A,117.278,31.7392,合肥市,滨湖新区,细颗粒物(PM2.5),101,90,88,61,56,96,96,54,54,15,24,7,6,0.7,0.7
2026-03-27T1200,1279A,117.1324,31.8395,合肥市,高新区,细颗粒物(PM2.5),120,124,95,82,60,69,69,56,49,42,32,7,7,1.0,0.9
2026-03-27T1200,3464A,117.3802,31.9148,合肥市,高教基地,细颗粒物(PM2.5),78,80,79,49,47,79,79,61,61,35,30,10,10,0.6,0.7
2026-03-27T1200,4098A,117.2518,31.8404,合肥市,中国科学技术大学,细颗粒物(PM2.5),110,110,85,70,53,75,75,70,70,35,27,10,9,0.8,0.8
2026-03-27T1200,3614A,79.9241,37.0878,和田地区,地区环保局,颗粒物(PM10),500,600,303,126,52,82,82,84,74,3,7,3,2,0.2,0.2
2026-03-27T1200,3615A,79.9132,37.1137,和田地区,市环保局,颗粒物(PM10),279,405,262,133,55,74,74,81,70,14,9,3,2,0.5,0.4
2026-03-27T1200,2517A,108.0496,24.6957,河池市,市环保站,颗粒物(PM10),51,51,53,26,38,42,42,29,29,7,8,8,7,0.6,0.6
2026-03-27T1200,4302A,108.0901,24.6945,河池市,上任中路54号,,44,44,58,29,39,37,37,27,26,12,20,9,7,0.9,0.8
2026-03-27T1200,1697A,114.6962,23.7538,河源市,东埔,,46,46,38,32,26,80,80,66,66,13,11,6,6,0.8,0.8
2026-03-27T1200,1698A,114.6895,23.7232,河源市,老城,,48,46,41,33,27,80,80,68,68,13,11,8,7,0.9,0.8
2026-03-27T1200,3374A,115.5562,35.089,菏泽市,定陶老年大学,NA,NA,NA,103,NA,60,NA,NA,72,70,10,18,NA,7,0.4,0.5
2026-03-27T1200,4114A,115.4239,35.2593,菏泽市,黄河路600号,细颗粒物(PM2.5),94,105,122,57,68,140,140,84,84,10,26,6,5,0.5,0.5
2026-03-27T1200,4115A,115.5025,35.2727,菏泽市,菏泽市人社局,细颗粒物(PM2.5),104,101,102,64,63,139,139,90,90,14,21,7,7,0.4,0.4
2026-03-27T1200,4184A,115.479691,35.244011,菏泽市,永昌路1号,细颗粒物(PM2.5),94,96,105,57,60,155,155,96,96,15,23,5,5,0.5,0.6
2026-03-27T1200,4193A,115.471542,35.280012,菏泽市,长城路999号,细颗粒物(PM2.5),90,92,104,55,58,144,144,98,98,12,18,8,10,0.3,0.3
2026-03-27T1200,2514A,111.5264,24.4178,贺州市,环保小区,,47,47,90,25,65,38,38,36,36,12,24,5,7,1.6,1.3
2026-03-27T1200,2515A,111.561,24.4074,贺州市,政协大楼,NA,NA,59,80,29,67,34,34,45,45,NA,36,6,8,NA,1.3
2026-03-27T1200,3534A,111.4744,24.455,贺州市,西湾,,44,44,96,23,58,32,32,32,32,13,24,7,7,0.9,0.9
2026-03-27T1200,2385A,114.17,35.9019,鹤壁市,市监测站,细颗粒物(PM2.5),120,131,106,82,61,115,115,68,68,25,21,9,8,0.9,0.7
2026-03-27T1200,2386A,114.2953,35.7512,鹤壁市,市交警支队,细颗粒物(PM2.5),134,150,117,97,66,107,107,49,49,21,25,12,10,0.7,0.6
2026-03-27T1200,2387A,114.2877,35.7302,鹤壁市,迎宾馆,细颗粒物(PM2.5),139,186,131,102,69,111,111,52,52,21,27,13,11,0.8,0.7
2026-03-27T1200,3474A,114.2616,35.6824,鹤壁市,大新区,细颗粒物(PM2.5),147,141,107,111,72,120,120,45,45,20,29,10,9,1.0,0.9
2026-03-27T1200,3596A,114.1573,35.9607,鹤壁市,南山宾馆,颗粒物(PM10),121,174,144,80,66,113,113,88,88,16,15,10,12,0.6,0.6
2026-03-27T1200,2244A,130.2537,47.3416,鹤岗市,哈啤分公司,,36,26,46,25,39,104,104,98,98,13,15,8,8,0.4,0.5
2026-03-27T1200,2245A,130.2683,47.3087,鹤岗市,斯达机电,,36,36,55,22,40,95,95,92,91,18,15,19,11,0.3,0.4
2026-03-27T1200,2246A,130.3114,47.3388,鹤岗市,东山纸板厂,,38,34,108,26,53,107,107,74,74,1,19,11,12,0.5,1.1
2026-03-27T1200,2263A,127.4832,50.2524,黑河市,交通局,NA,NA,38,45,15,26,NA,NA,62,61,18,19,6,7,0.7,0.6
2026-03-27T1200,2264A,127.5146,50.2339,黑河市,环保局,,32,27,50,22,36,91,91,67,67,11,29,7,8,0.5,0.7
2026-03-27T1200,1074A,115.6839,37.754,衡水市,电机北厂,细颗粒物(PM2.5),112,141,125,73,67,123,123,68,68,18,38,5,7,0.4,0.4
2026-03-27T1200,1075A,115.6303,37.7318,衡水市,市监测站,细颗粒物(PM2.5),120,139,126,82,70,122,122,76,76,18,27,7,7,0.6,0.6
2026-03-27T1200,3188A,115.6684,37.7216,衡水市,市城管局,颗粒物(PM10),106,134,124,NA,51,121,121,72,72,18,32,8,7,0.7,0.5
2026-03-27T1200,3459A,115.599,37.5491,衡水市,地表水厂,细颗粒物(PM2.5),162,162,122,123,71,125,125,58,58,15,37,8,7,0.7,0.4
2026-03-27T1200,2457A,112.6209,26.9268,衡阳市,衡阳化工总厂,,44,44,25,27,19,57,57,60,60,16,12,4,4,1.1,1
2026-03-27T1200,2458A,112.621,26.8957,衡阳市,珠晖区环保局,,47,47,30,32,19,59,59,52,52,17,20,6,6,1.0,1
2026-03-27T1200,2459A,112.628,26.8654,衡阳市,市委党校,,49,41,26,34,20,67,67,63,63,14,12,3,3,0.9,0.9
2026-03-27T1200,2460A,112.6007,26.8977,衡阳市,市监测站,,36,36,26,22,19,54,54,57,57,22,18,7,7,0.8,0.8
2026-03-27T1200,2461A,112.5658,26.9013,衡阳市,真空机电公司,,38,37,26,26,19,56,56,57,57,20,17,6,6,1.0,1
2026-03-27T1200,3399A,112.6703,26.8817,衡阳市,师范学院,NA,NA,NA,28,NA,19,76,76,67,67,9,9,7,10,0.9,0.9
2026-03-27T1200,3038A,103.3757,23.3679,红河哈尼族彝族自治州,州图书馆,细颗粒物(PM2.5),102,77,73,62,63,165,165,122,122,9,10,6,6,0.6,0.6
2026-03-27T1200,4154A,103.401,23.3561,红河哈尼族彝族自治州,蒙自市朝阳路,细颗粒物(PM2.5),98,60,65,59,59,163,163,122,122,9,12,10,11,0.7,0.6
2026-03-27T1200,1090A,111.6506,40.7517,呼和浩特市,呼市一监,,30,17,30,3,16,93,93,73,73,10,10,7,8,0.4,0.4
2026-03-27T1200,1094A,111.7516,40.8369,呼和浩特市,如意水处理厂,,42,NA,26,29,15,99,99,68,68,9,16,8,8,0.2,0.4
2026-03-27T1200,1095A,111.727798,40.806187,呼和浩特市,二十九中,,29,17,35,3,16,90,90,65,65,6,10,7,8,0.3,0.4
2026-03-27T1200,1097A,111.717,40.7617,呼和浩特市,化肥厂生活区,,31,16,33,3,18,97,97,75,75,9,12,5,6,0.3,0.4
2026-03-27T1200,3699A,111.6519,40.8389,呼和浩特市,海东办,,27,14,23,7,9,86,86,55,55,11,14,4,5,0.3,0.3
2026-03-27T1200,4275A,111.591512,40.827312,呼和浩特市,成吉思汗西街8号,,29,7,29,7,10,90,90,61,56,10,18,2,3,0.3,0.3
2026-03-27T1200,4276A,111.6597,40.8077,呼和浩特市,公园东路75号,,29,14,31,6,14,90,90,69,69,13,14,8,8,0.3,0.4
2026-03-27T1200,4277A,111.5427,40.7846,呼和浩特市,金海路35号,,28,15,29,10,11,88,88,67,60,14,14,10,7,0.3,0.3
2026-03-27T1200,3061A,119.7511,49.1576,呼伦贝尔市,国华电力东,,26,25,19,11,9,82,82,69,69,6,6,6,5,0.2,0.2
2026-03-27T1200,4279A,119.7569,49.2222,呼伦贝尔市,伊敏大街东7号,,26,26,19,8,8,83,83,71,71,6,7,7,7,0.4,0.4
2026-03-27T1200,1250A,120.075,30.867,湖州市,城西水厂,,48,43,60,33,42,109,109,66,66,21,28,6,7,0.6,0.7
2026-03-27T1200,2873A,120.083,30.8929,湖州市,仁皇山新区,,49,45,62,34,37,107,107,60,60,22,34,6,6,0.6,0.7
2026-03-27T1200,2907A,120.1846,30.8592,湖州市,吴兴区站,,48,48,68,26,36,112,112,59,59,13,24,5,7,0.6,0.7
2026-03-27T1200,3562A,120.4146,30.8538,湖州市,南浔区站,颗粒物(PM10),57,59,63,31,38,94,94,58,58,20,27,5,6,0.5,0.6
2026-03-27T1200,1607A,120.904878,40.721091,葫芦岛市,龙港区,,46,46,80,12,60,94,94,67,67,15,27,23,16,0.5,0.7
2026-03-27T1200,1608A,120.8382,40.7521,葫芦岛市,化工街,,28,27,88,8,58,87,87,70,70,18,34,18,21,0.4,0.6
2026-03-27T1200,1609A,120.8339,40.7078,葫芦岛市,新区,NA,NA,35,75,16,66,82,82,74,73,NA,27,12,14,0.4,0.6
2026-03-27T1200,1610A,120.8697,40.7679,葫芦岛市,东城区,,32,32,71,16,61,92,92,79,79,18,28,13,16,0.5,0.7
2026-03-27T1200,2483A,109.9297,27.5383,怀化市,河西地税局,,16,NA,19,10,10,49,49,54,54,13,12,3,4,/,/
2026-03-27T1200,2484A,109.9783,27.5342,怀化市,市四医院,,16,13,20,8,7,50,50,48,48,12,11,6,7,0.5,0.5
2026-03-27T1200,2485A,109.9971,27.5579,怀化市,监测楼,,16,12,18,11,11,51,51,44,44,12,14,4,5,0.3,0.4
2026-03-27T1200,1210A,119.0566,33.5991,淮安市,钵池山,NA,NA,68,78,54,59,96,96,49,49,NA,34,12,10,0.5,0.5
2026-03-27T1200,1211A,119.0083,33.578,淮安市,北京南路,细颗粒物(PM2.5),84,68,78,52,64,94,94,40,40,25,29,12,11,0.6,0.6
2026-03-27T1200,1212A,118.9938,33.6083,淮安市,市监测站,细颗粒物(PM2.5),92,61,73,56,61,96,96,40,40,31,33,10,9,0.6,0.7
2026-03-27T1200,1213A,119.135,33.5038,淮安市,楚州区监测站,细颗粒物(PM2.5),98,78,84,59,66,93,93,42,42,26,35,9,8,0.5,0.5
2026-03-27T1200,3426A,118.8757,33.2897,淮安市,新华书店,细颗粒物(PM2.5),94,92,105,57,62,82,82,34,34,30,40,12,10,0.6,0.6
2026-03-27T1200,4092A,119.119691,33.550006,淮安市,枚皋中路89号,细颗粒物(PM2.5),96,84,86,58,62,98,98,41,41,32,30,15,12,1.0,0.8
2026-03-27T1200,4206A,119.028838,33.631911,淮安市,承德北路606号,细颗粒物(PM2.5),92,78,98,56,61,100,100,37,37,21,35,12,11,0.5,0.5
2026-03-27T1200,2282A,116.8005,33.9749,淮北市,监测站,细颗粒物(PM2.5),127,136,105,89,71,186,186,121,121,20,21,8,7,0.7,0.7
2026-03-27T1200,2283A,116.8094,33.9008,淮北市,烈山区政府,细颗粒物(PM2.5),114,78,100,75,70,180,180,108,108,18,24,7,8,0.6,0.6
2026-03-27T1200,4017A,116.7926,33.9534,淮北市,市博物馆,细颗粒物(PM2.5),130,135,107,93,75,178,178,116,116,20,21,9,7,0.7,0.6
2026-03-27T1200,4100A,116.8322,33.9884,淮北市,杜集区第一实验学校,细颗粒物(PM2.5),122,120,113,84,71,166,166,100,100,20,22,10,7,0.6,0.6
2026-03-27T1200,2277A,116.8304,32.7726,淮南市,潘集区政府,细颗粒物(PM2.5),104,93,99,64,67,80,80,55,55,34,33,11,8,0.7,0.7
2026-03-27T1200,2279A,116.8569,32.5949,淮南市,谢家集区政府,细颗粒物(PM2.5),90,88,78,55,49,98,98,77,68,26,32,11,11,0.7,0.7
2026-03-27T1200,2280A,116.8279,32.6333,淮南市,八公山区政府,细颗粒物(PM2.5),110,87,88,71,65,88,88,76,72,23,21,13,11,0.8,0.7
2026-03-27T1200,2894A,117.0561,32.6536,淮南市,经济技术开发区消防队,细颗粒物(PM2.5),90,80,87,55,58,81,81,64,61,26,30,8,9,0.5,0.6
2026-03-27T1200,3329A,117.011,32.5891,淮南市,山南新区,细颗粒物(PM2.5),84,84,90,52,55,87,87,88,78,32,27,9,9,0.6,0.6
2026-03-27T1200,4209A,117.003137,32.644456,淮南市,国庆中路369号,细颗粒物(PM2.5),100,74,85,60,64,92,92,76,69,21,24,11,12,0.6,0.7
2026-03-27T1200,2446A,114.9021,30.474,黄冈市,职工中心,细颗粒物(PM2.5),84,73,54,52,35,114,114,88,88,7,14,6,7,0.6,0.8
2026-03-27T1200,2929A,114.8858,30.4519,黄冈市,红卫路,细颗粒物(PM2.5),84,73,51,52,33,122,122,94,94,9,14,5,5,0.5,0.6
2026-03-27T1200,3398A,114.9134,30.4446,黄冈市,市林业局,细颗粒物(PM2.5),94,80,58,57,35,116,116,92,92,5,15,3,4,0.7,0.7
2026-03-27T1200,2672A,102.02,35.5101,黄南藏族自治州,同仁县隆务镇,,37,37,32,22,17,106,106,90,90,4,4,10,10,0.3,0.3
2026-03-27T1200,2295A,118.2905,29.6965,黄山市,延安路89号,,24,12,32,3,21,75,75,53,52,11,13,4,4,0.5,0.5
2026-03-27T1200,2297A,118.1369,30.2755,黄山市,黄山区政府5号楼,,28,28,29,15,20,72,72,53,53,9,10,3,3,0.8,0.6
2026-03-27T1200,4210A,118.335445,29.720283,黄山市,滨江东路7-2号,,26,25,34,3,18,81,81,52,52,6,9,/,/,/,/
2026-03-27T1200,2423A,115.0547,30.2332,黄石市,沈家营,颗粒物(PM10),68,75,61,41,31,85,85,52,52,10,11,21,8,1.0,0.9
2026-03-27T1200,2426A,114.899,30.211,黄石市,铁山,细颗粒物(PM2.5),78,53,44,49,30,112,112,63,63,6,15,8,10,1.4,1.1
2026-03-27T1200,2427A,115.0259,30.2108,黄石市,团城山,细颗粒物(PM2.5),66,64,53,43,33,87,87,54,54,10,13,4,4,0.8,0.8
2026-03-27T1200,3149A,115.0174,30.1591,黄石市,笔架山北路,颗粒物(PM10),85,99,72,45,33,83,83,56,56,15,14,9,9,0.9,0.9
2026-03-27T1200,4185A,115.078022,30.21118,黄石市,磁湖东路29号,颗粒物(PM10),73,82,62,41,32,102,102,67,67,3,15,3,4,0.9,0.8
2026-03-27T1200,1392A,114.4181,23.0528,惠州市,河南岸金山湖子站,,39,39,42,25,24,93,93,80,80,9,9,6,7,0.8,0.7
2026-03-27T1200,1393A,114.4055,23.0824,惠州市,下埔横江三路子站,,41,41,47,24,26,99,99,83,83,8,10,4,5,0.6,0.6
2026-03-27T1200,1395A,114.4645,22.7832,惠州市,惠阳区承修路船湖子站,,43,43,44,22,22,84,84,91,82,10,9,6,6,0.3,0.3
2026-03-27T1200,1396A,114.5316,22.7423,惠州市,大亚湾管委会子站,,48,48,46,21,21,79,79,83,74,11,10,4,3,0.5,0.5
2026-03-27T1200,3314A,114.4334,22.8134,惠州市,惠阳秋长,,38,36,35,26,21,84,84,97,86,10,9,/,/,/,/
2026-03-27T1200,3452A,114.6521,22.7755,惠州市,大亚湾霞涌,,43,43,32,26,19,81,81,92,80,8,8,/,/,/,/
2026-03-27T1200,4300A,114.4089,23.1147,惠州市,文华一路1号,,35,35,41,23,25,102,102,82,82,10,11,/,/,/,/
2026-03-27T1200,2240A,130.9618,45.2926,鸡西市,环保局,细颗粒物(PM2.5),135,179,134,98,113,112,112,102,102,13,20,8,9,0.3,0.5
2026-03-27T1200,2243A,130.9294,45.2959,鸡西市,第一中学,细颗粒物(PM2.5),139,120,129,102,111,107,107,97,97,12,17,8,8,0.4,0.5
2026-03-27T1200,3707A,131.0069,45.2988,鸡西市,欧美日汽修厂,细颗粒物(PM2.5),150,149,154,114,116,110,110,93,93,18,26,9,12,0.9,1.1
2026-03-27T1200,2367A,114.9753,27.0803,吉安市,红声器材厂,,34,34,29,19,15,50,50,40,40,17,23,8,7,1.4,1.2
2026-03-27T1200,2369A,114.9903,27.1313,吉安市,市环境监测站,,35,35,24,19,16,53,53,44,44,14,20,8,8,/,/
2026-03-27T1200,2370A,115.009527,27.096792,吉安市,青原区法院,NA,NA,NA,27,NA,16,59,59,45,45,NA,19,7,4,1.2,0.9
2026-03-27T1200,1772A,126.54,43.8622,吉林市,哈达湾,细颗粒物(PM2.5),96,83,165,58,141,97,97,70,70,11,25,6,11,0.6,1
2026-03-27T1200,1773A,126.5843,43.8358,吉林市,东局子,细颗粒物(PM2.5),96,63,157,58,138,100,100,59,59,11,28,4,7,1.0,1.3
2026-03-27T1200,1774A,126.5051,43.8243,吉林市,电力学院,细颗粒物(PM2.5),102,64,140,62,124,116,116,77,77,13,25,6,9,0.7,1
2026-03-27T1200,1775A,126.6133,43.8971,吉林市,江北,细颗粒物(PM2.5),101,84,157,61,126,103,103,63,63,16,29,9,12,0.7,1
2026-03-27T1200,1776A,126.5549,43.8304,吉林市,江南公园,细颗粒物(PM2.5),98,75,150,59,133,102,102,66,66,13,28,7,11,0.7,1
2026-03-27T1200,2868A,126.4737,43.953,吉林市,九站,细颗粒物(PM2.5),64,56,159,42,140,98,98,58,58,11,35,6,12,0.4,0.8
2026-03-27T1200,1299A,116.9866,36.6118,济南市,科干所,颗粒物(PM10),80,92,99,48,50,157,157,129,128,14,16,8,9,0.7,0.7
2026-03-27T1200,1300A,116.9379,36.6652,济南市,农科所,细颗粒物(PM2.5),82,88,105,51,59,155,155,97,97,14,28,8,8,0.5,0.6
2026-03-27T1200,1301A,117.1265,36.6736,济南市,开发区,细颗粒物(PM2.5),92,93,95,56,51,161,161,120,120,21,21,7,7,0.7,0.7
2026-03-27T1200,1303A,117.0616,36.6865,济南市,省种子仓库,颗粒物(PM10),91,107,115,53,55,158,158,104,104,16,24,6,7,0.6,0.7
2026-03-27T1200,1304A,116.9495185,36.644937,济南市,机床二厂,细颗粒物(PM2.5),86,88,110,53,61,151,151,102,102,16,26,7,8,0.6,0.7
2026-03-27T1200,1305A,117.0496,36.6629,济南市,市监测站,颗粒物(PM10),91,107,109,48,50,149,149,104,104,21,25,6,6,0.5,0.6
2026-03-27T1200,1306A,116.7674,36.5458,济南市,长清党校,颗粒物(PM10),85,98,111,46,54,151,151,110,110,8,17,7,9,0.5,0.6
2026-03-27T1200,1961A,117.5323,36.6865,济南市,东山小学,细颗粒物(PM2.5),113,132,109,74,49,156,156,94,94,25,35,10,6,0.7,0.7
2026-03-27T1200,3059A,117.7181,36.205,济南市,泰兴公司,细颗粒物(PM2.5),107,134,118,67,58,148,148,40,40,28,45,21,14,NA,0.9
2026-03-27T1200,3064A,117.6861,36.2172,济南市,莱芜战役纪念馆,细颗粒物(PM2.5),108,122,119,68,56,149,149,57,57,26,38,16,9,1.4,0.8
2026-03-27T1200,3494A,117.1673,36.9782,济南市,济阳区政府,细颗粒物(PM2.5),192,205,133,144,74,113,113,68,68,31,32,16,11,0.7,0.5
2026-03-27T1200,3495A,117.1168,36.6299,济南市,锦屏中学,细颗粒物(PM2.5),88,90,85,54,52,152,152,119,119,23,18,7,7,0.4,0.3
2026-03-27T1200,4108A,117.7107,36.2385,济南市,山财大街5号,细颗粒物(PM2.5),111,117,110,72,57,159,159,76,76,22,43,15,12,0.8,0.8
2026-03-27T1200,4109A,116.9744,36.6889,济南市,无影山路12号,细颗粒物(PM2.5),94,85,100,57,61,139,139,101,101,21,25,6,8,0.7,0.8
2026-03-27T1200,1653A,116.6229,35.4288,济宁市,火炬城,细颗粒物(PM2.5),107,70,85,67,63,167,167,102,102,16,22,5,6,0.7,0.7
2026-03-27T1200,3500A,116.5808,35.3703,济宁市,北湖一中,细颗粒物(PM2.5),106,70,79,66,59,173,173,88,88,14,21,10,12,0.6,0.6
2026-03-27T1200,3501A,116.8251,35.5592,济宁市,服务中心,细颗粒物(PM2.5),110,125,121,70,68,163,163,90,90,22,27,6,6,0.5,0.5
2026-03-27T1200,3678A,116.5907,35.4054,济宁市,市第七中学,细颗粒物(PM2.5),107,81,90,67,59,181,181,98,98,16,24,8,10,0.6,0.7
2026-03-27T1200,4111A,116.6075,35.4566,济宁市,任和路,细颗粒物(PM2.5),110,105,112,70,60,178,178,74,74,16,25,8,8,NA,0.7
2026-03-27T1200,4112A,116.5648,35.3921,济宁市,文体南路1号,颗粒物(PM10),101,122,111,59,61,177,177,96,96,14,24,6,7,0.6,0.6
2026-03-27T1200,4122A,112.6071,35.1015,济源市,市委党校,颗粒物(PM10),114,154,165,66,75,127,127,63,63,21,36,21,13,1.2,1
2026-03-27T1200,4123A,112.596,35.0702,济源市,沁园中路1号,细颗粒物(PM2.5),104,122,143,64,79,114,114,55,55,25,51,19,12,1.3,1.3
2026-03-27T1200,2255A,130.2749,46.8028,佳木斯市,佳纺,,48,48,106,30,65,117,117,64,64,8,32,5,6,0.3,0.6
2026-03-27T1200,2257A,130.3258,46.7975,佳木斯市,环保局,颗粒物(PM10),60,64,97,30,67,114,114,54,54,12,37,7,6,0.3,0.6
2026-03-27T1200,4285A,130.363,46.806,佳木斯市,顺和街,,50,50,91,34,69,106,106,67,67,13,28,4,4,0.3,0.5
2026-03-27T1200,4286A,130.3952,46.8268,佳木斯市,长安路196号,,45,45,90,26,59,108,108,74,74,10,20,3,4,0.4,0.5
2026-03-27T1200,1252A,120.7439,30.778,嘉兴市,清河小学,,36,15,40,3,15,113,113,66,66,17,33,6,7,0.3,0.4
2026-03-27T1200,1253A,120.7261,30.7477,嘉兴市,嘉兴学院,,38,17,43,10,23,121,121,69,69,15,31,6,7,0.5,0.5
2026-03-27T1200,2872A,120.7845,30.7524,嘉兴市,南湖区残联,,35,10,30,7,24,110,110,60,60,5,26,4,5,0.6,0.6
2026-03-27T1200,3407A,120.6915,30.7741,嘉兴市,秀洲住建,,38,15,44,6,23,120,120,69,69,14,32,8,9,0.3,0.4
2026-03-27T1200,1945A,98.291,39.7705,嘉峪关市,气象局,颗粒物(PM10),56,58,53,10,19,109,109,107,107,3,10,11,9,0.6,0.7
2026-03-27T1200,2884A,98.2672,39.7978,嘉峪关市,酒钢宾馆,颗粒物(PM10),51,51,52,14,19,105,105,107,107,7,10,20,24,0.6,0.8
2026-03-27T1200,3248A,98.2644,39.7723,嘉峪关市,雄关区,颗粒物(PM10),54,55,59,12,19,103,103,NA,NA,8,13,5,14,0.6,0.4
2026-03-27T1200,1383A,113.1063,22.6058,江门市,北街,,42,42,29,21,17,66,66,42,42,15,13,/,/,/,/
2026-03-27T1200,1384A,113.073,22.5835,江门市,西区,,26,26,30,18,16,67,67,48,48,12,13,/,/,/,/
2026-03-27T1200,1385A,113.0218,22.531,江门市,圭峰西,NA,NA,32,26,20,16,74,74,47,47,NA,9,/,/,/,/
2026-03-27T1200,1386A,113.0826,22.5947,江门市,东湖,,27,27,28,13,16,67,67,47,47,10,11,7,7,0.4,0.4
2026-03-27T1200,3311A,113.1077,22.5647,江门市,江海富民,,45,45,42,17,17,69,69,47,47,11,13,/,/,0.4,0.4
2026-03-27T1200,3449A,113.0496,22.4669,江门市,新会银湖,,31,31,27,16,15,67,67,29,29,18,22,8,7,0.3,0.3
2026-03-27T1200,3335A,113.3137,35.2643,焦作市,马村街道办,细颗粒物(PM2.5),122,128,119,84,66,109,109,64,64,22,25,16,11,0.8,0.6
2026-03-27T1200,3336A,113.2464,35.2374,焦作市,焦作技师学院,细颗粒物(PM2.5),116,126,118,77,62,111,111,68,68,26,30,22,12,1.0,0.7
2026-03-27T1200,3477A,113.1656,35.2536,焦作市,中站许衡医院,细颗粒物(PM2.5),112,122,100,73,48,139,139,103,103,18,22,15,12,0.9,0.9
2026-03-27T1200,3981A,113.2456,35.18,焦作市,原李万街道办,细颗粒物(PM2.5),103,119,129,63,70,112,112,47,47,17,38,18,14,0.8,0.7
2026-03-27T1200,4264A,113.234,35.219,焦作市,新安路1731号,细颗粒物(PM2.5),114,136,138,75,68,121,121,67,67,23,41,20,15,1.0,0.9
2026-03-27T1200,4295A,113.2722,35.2121,焦作市,人民路3066号,细颗粒物(PM2.5),122,121,131,84,73,121,121,62,62,15,32,16,12,0.7,0.6
2026-03-27T1200,1708A,116.3701,23.5345,揭阳市,新兴,颗粒物(PM10),63,67,48,32,26,90,90,74,74,22,19,12,9,0.8,0.8
2026-03-27T1200,1709A,116.3261,23.5442,揭阳市,西马,颗粒物(PM10),52,52,57,24,28,103,103,74,74,15,18,8,8,0.8,0.9
2026-03-27T1200,1710A,116.361,23.5627,揭阳市,东兴,NA,NA,NA,49,28,26,94,94,72,71,NA,20,NA,8,/,/
2026-03-27T1200,1711A,116.4151,23.5295,揭阳市,渔湖,颗粒物(PM10),59,62,47,35,25,106,106,83,83,18,17,5,6,/,/
2026-03-27T1200,3320A,116.4028,23.5699,揭阳市,曲溪,颗粒物(PM10),55,57,45,32,23,92,92,77,75,18,16,20,11,0.6,0.7
2026-03-27T1200,1944A,102.1691,38.5166,金昌市,天庆家园,,27,14,80,3,25,85,85,88,86,3,3,3,4,0.4,0.4
2026-03-27T1200,4022A,102.1648,38.5369,金昌市,金川区人防中心,颗粒物(PM10),60,64,94,8,27,85,85,NA,NA,4,4,6,6,0.3,0
2026-03-27T1200,4239A,102.193042,38.531887,金昌市,长春路96号,,25,13,81,3,31,80,80,84,81,4,4,6,6,0.4,0.4
2026-03-27T1200,1262A,119.6478,29.0773,金华市,十五中,,25,24,45,17,34,60,60,27,27,15,35,2,3,0.8,0.6
2026-03-27T1200,1263A,119.6859,29.1032,金华市,监测站,,28,26,45,19,33,61,61,29,29,21,36,2,3,1.2,0.8
2026-03-27T1200,3659A,119.656,29.1132,金华市,气象局,NA,NA,31,41,22,32,47,47,28,28,26,38,3,3,NA,0.8
2026-03-27T1200,1767A,121.1114,41.0879,锦州市,南山,,30,25,71,10,55,96,96,71,71,12,23,8,12,0.4,0.6
2026-03-27T1200,1768A,121.060361,40.842794,锦州市,开发区,,32,32,98,10,66,95,95,66,66,9,33,11,11,0.3,0.8
2026-03-27T1200,1769A,121.1836,41.1118,锦州市,百股街道,,30,26,89,8,76,96,96,65,65,11,31,11,13,0.4,0.8
2026-03-27T1200,1770A,121.1176,41.1224,锦州市,天安街道,,29,26,73,9,54,90,90,72,72,12,22,7,9,0.3,0.6
2026-03-27T1200,1771A,121.1303,41.1385,锦州市,北湖公园,,31,21,71,11,55,98,98,80,80,9,18,6,8,0.4,0.6
2026-03-27T1200,2160A,112.8496,35.5051,晋城市,自来水公司,颗粒物(PM10),72,80,96,30,32,137,137,62,62,18,28,17,7,1.1,0.5
2026-03-27T1200,2162A,112.8509,35.4886,晋城市,市环保局,颗粒物(PM10),78,88,97,37,40,145,145,62,62,13,22,16,8,1.2,0.6
2026-03-27T1200,3620A,112.8258,35.4804,晋城市,泽州一中,颗粒物(PM10),111,147,98,36,34,137,137,72,72,20,17,11,6,0.7,1
2026-03-27T1200,4078A,112.8246,35.5152,晋城市,前书院路,颗粒物(PM10),80,92,99,31,33,133,133,56,56,15,22,16,8,1.5,1
2026-03-27T1200,4079A,112.8864,35.4773,晋城市,祥云街666号,颗粒物(PM10),90,106,86,48,43,128,128,66,66,22,21,24,10,1.9,0.6
2026-03-27T1200,2174A,112.6992,37.6984,晋中市,榆次区政府,细颗粒物(PM2.5),96,102,127,58,62,117,117,70,70,12,36,9,13,0.5,0.7
2026-03-27T1200,2865A,112.7195,37.683,晋中市,榆次三中,颗粒物(PM10),91,107,127,54,54,123,123,68,68,10,37,9,13,0.3,0.6
2026-03-27T1200,4080A,112.7375,37.7215,晋中市,广安街188号,颗粒物(PM10),90,105,129,51,57,118,118,77,77,13,35,13,14,0.3,0.6
2026-03-27T1200,4200A,112.7478,37.6954,晋中市,迎宾街26号,颗粒物(PM10),88,102,125,51,60,124,124,75,75,11,32,8,12,0.5,0.7
2026-03-27T1200,2439A,112.2012,31.048,荆门市,竹园小学,颗粒物(PM10),57,59,53,31,30,106,106,52,52,15,20,1,1,0,0.7
2026-03-27T1200,2440A,112.1968,30.9892,荆门市,掇刀,颗粒物(PM10),55,56,42,3,24,117,117,57,57,13,21,8,6,0.8,0.8
2026-03-27T1200,3012A,112.1849,31.0361,荆门市,西山林语,细颗粒物(PM2.5),64,56,41,42,26,114,114,62,62,13,14,6,4,0.4,0.6
2026-03-27T1200,3547A,112.1631,31.0134,荆门市,龙泉中学南校,,43,43,39,28,18,122,122,65,65,10,13,4,3,0.2,0.3
2026-03-27T1200,4124A,112.2213,31.0654,荆门市,新台西路6号,细颗粒物(PM2.5),52,44,54,36,36,100,100,48,48,16,28,10,6,0.4,0.6
2026-03-27T1200,1844A,112.2493,30.3198,荆州市,市图书馆,,43,NA,32,30,29,112,112,54,54,12,22,7,6,0.5,0.6
2026-03-27T1200,1845A,112.2009,30.3543,荆州市,市委党校,,45,32,36,31,25,103,103,43,43,17,22,8,7,0.7,0.9
2026-03-27T1200,3194A,112.2749,30.3124,荆州市,管委会,,49,35,35,34,31,105,105,52,52,9,18,12,10,0.6,0.7
2026-03-27T1200,4268A,112.1722,30.3366,荆州市,学苑路85号,,38,28,33,25,28,121,121,53,53,7,11,1,1,0.5,0.6
2026-03-27T1200,2343A,117.2114,29.2931,景德镇市,老干部活动中心,细颗粒物(PM2.5),64,NA,27,42,28,88,88,64,64,8,8,6,6,0.7,0.7
2026-03-27T1200,2344A,117.1893,29.2789,景德镇市,兽医站,细颗粒物(PM2.5),58,52,35,39,22,97,97,62,62,10,11,5,4,0.8,0.8
2026-03-27T1200,2346A,117.246,29.2958,景德镇市,陶研所,细颗粒物(PM2.5),58,39,26,39,22,84,84,61,61,17,18,5,4,0.7,0.8
2026-03-27T1200,4289A,117.154766,29.256967,景德镇市,青少年活动中心,细颗粒物(PM2.5),74,NA,29,47,25,88,88,51,51,13,14,10,6,/,/
2026-03-27T1200,1803A,115.9873,29.6816,九江市,十里,颗粒物(PM10),60,64,57,38,34,72,72,49,49,23,38,7,8,1.1,1.2
2026-03-27T1200,1804A,115.9583,29.7047,九江市,茅山头,细颗粒物(PM2.5),82,63,55,51,35,82,82,48,48,18,30,4,4,0.8,0.8
2026-03-27T1200,1805A,115.9877,29.7295,九江市,西园,细颗粒物(PM2.5),78,63,68,49,42,77,77,54,54,35,55,6,7,0.9,0.9
2026-03-27T1200,1808A,115.9112,29.6038,九江市,综合工业园,,50,50,57,34,32,88,88,55,55,22,36,9,9,0.8,0.8
2026-03-27T1200,3190A,116.0254,29.6995,九江市,外国语学校,细颗粒物(PM2.5),84,56,49,52,46,75,75,47,47,19,36,6,8,0.9,1
2026-03-27T1200,4253A,116.010205,29.659402,九江市,莲花大道8号,颗粒物(PM10),62,66,52,40,31,77,77,56,56,23,23,6,6,0.8,0.8
2026-03-27T1200,4240A,98.495752,39.733935,酒泉市,玉门东路5号,颗粒物(PM10),55,56,44,14,19,87,87,88,88,8,5,7,6,0.3,0.3
2026-03-27T1200,4241A,98.5099,39.7506,酒泉市,北大街108号,,44,44,47,15,21,86,86,85,85,5,6,6,6,0.3,0.3
2026-03-27T1200,2698A,76.0071,39.466,喀什地区,巡警大队,颗粒物(PM10),500,814,594,184,161,73,73,72,71,12,12,3,4,0.3,0.3
2026-03-27T1200,2699A,75.9756,39.4693,喀什地区,吾办,颗粒物(PM10),500,844,577,183,142,73,73,70,69,12,14,5,3,0.3,0.3
2026-03-27T1200,4027A,75.9485,39.4688,喀什地区,老干局,颗粒物(PM10),500,839,591,158,133,77,77,74,70,10,12,3,2,0.2,0.3
2026-03-27T1200,1824A,114.3389,34.778,开封市,肿瘤医院,细颗粒物(PM2.5),62,60,92,41,65,137,137,78,78,12,30,7,7,0.6,0.7
2026-03-27T1200,1826A,114.2884,34.7966,开封市,世纪星幼儿园,颗粒物(PM10),58,61,89,29,58,137,137,72,72,14,32,12,11,0.5,0.6
2026-03-27T1200,3147A,114.3434,34.8101,开封市,龙亭公园,"颗粒物(PM10),细颗粒物(PM2.5)",64,69,92,42,57,146,146,83,83,16,30,10,10,1.0,1
2026-03-27T1200,3210A,114.3645,34.7955,开封市,汴京公园,细颗粒物(PM2.5),66,60,89,43,64,146,146,81,81,17,31,7,6,0.6,0.6
2026-03-27T1200,3473A,114.2485,34.8306,开封市,技师学院,,50,50,82,30,58,147,147,81,81,12,22,10,9,0.8,1
2026-03-27T1200,3592A,114.4518,34.7503,开封市,祥符区生态环境局,颗粒物(PM10),64,69,106,40,61,140,140,75,75,13,39,7,7,0.6,0.7
2026-03-27T1200,1951A,84.886,45.6029,克拉玛依市,长征新村,,50,50,22,3,4,65,65,66,65,22,12,6,6,0.4,0.4
2026-03-27T1200,1952A,84.8894,45.5827,克拉玛依市,南林小区,,27,27,24,3,0,78,78,68,68,10,10,6,6,0.1,0.1
2026-03-27T1200,1954A,84.896,44.3328,克拉玛依市,独山子区,,44,44,32,9,10,85,85,55,54,13,13,5,5,0.5,0.5
2026-03-27T1200,1955A,85.6888,46.0909,克拉玛依市,乌尔禾区商贸楼,,29,29,33,3,11,66,66,46,45,16,14,5,2,0.3,0.3
2026-03-27T1200,3612A,85.1045,45.6895,克拉玛依市,白碱滩区新站,,44,44,30,3,4,56,56,67,53,31,11,6,4,0.2,0.2
2026-03-27T1200,2697A,76.1457,39.7143,克孜勒苏柯尔克孜自治州,市人民政府,颗粒物(PM10),500,621,659,117,155,82,82,69,62,14,10,4,4,0.2,0.1
2026-03-27T1200,3665A,76.1654,39.7157,克孜勒苏柯尔克孜自治州,克州文化中心,颗粒物(PM10),433,533,634,129,148,78,78,78,75,16,6,5,5,0.4,0.3
2026-03-27T1200,1450A,102.8203,24.889,昆明市,呈贡新区,,44,30,28,24,19,139,139,111,111,6,9,5,4,0.5,0.5
2026-03-27T1200,1452A,102.7253,25.0904,昆明市,龙泉镇,,39,14,60,12,22,123,123,51,51,6,41,5,5,0.4,0.5
2026-03-27T1200,1453A,102.7267,25.0378,昆明市,东风东路,,40,39,32,16,20,128,128,102,102,10,12,7,6,0.5,0.5
2026-03-27T1200,1454A,102.6744,25.0671,昆明市,金鼎山,,40,23,43,14,22,125,125,56,56,8,27,3,4,0.5,0.7
2026-03-27T1200,1455A,102.6643,25.0401,昆明市,碧鸡广场,,39,31,37,12,20,122,122,68,68,8,23,6,7,0.3,0.4
2026-03-27T1200,3179A,102.7491,25.012,昆明市,官渡区博物馆,,41,38,31,18,15,129,129,87,87,11,15,8,6,0.4,0.4
2026-03-27T1200,3375A,102.8016,24.8336,昆明市,青年创业园,,43,33,31,20,19,135,135,100,100,5,9,6,6,0.4,0.4
2026-03-27T1200,3550A,102.8,24.9787,昆明市,昆明学院,NA,NA,34,34,11,18,125,125,85,85,9,13,NA,7,NA,0.5
2026-03-27T1200,3551A,102.5969,24.6738,昆明市,晋宁区生态环境分局,,41,15,28,15,19,131,131,101,101,3,8,2,2,0.2,0.3
2026-03-27T1200,3552A,102.6673,24.9861,昆明市,云天化总部,NA,NA,35,29,24,16,130,130,76,76,NA,19,7,6,NA,0.4
2026-03-27T1200,1456A,91.132,29.6515,拉萨市,八廓街,,36,7,17,3,6,114,114,111,105,5,6,4,5,0.5,0.5
2026-03-27T1200,1457A,91.1221,29.6748,拉萨市,市环保局,,34,11,14,10,6,108,108,104,98,8,7,4,4,0.4,0.4
2026-03-27T1200,1458A,91.0874,29.6476,拉萨市,区监测站,,34,7,10,3,5,106,106,105,96,9,10,4,5,0.5,0.3
2026-03-27T1200,1459A,91.1774,29.6541,拉萨市,西藏大学,,33,6,11,6,6,103,103,108,99,11,9,4,4,0.4,0.4
2026-03-27T1200,1460A,90.9798,29.6586,拉萨市,区辐射站,,30,13,13,7,6,95,95,100,91,13,11,5,4,0.4,0.3
2026-03-27T1200,1461A,91.0831,29.6292,拉萨市,拉萨火车站,,33,NA,12,14,7,103,103,105,97,11,8,4,4,0.4,0.5
2026-03-27T1200,2520A,109.2203,23.7252,来宾市,来宾技工学校,细颗粒物(PM2.5),102,82,57,62,40,36,36,36,24,22,12,10,8,1.5,1.1
2026-03-27T1200,3535A,109.1781,23.7293,来宾市,兴宾区政府,细颗粒物(PM2.5),98,80,58,59,37,35,35,37,26,25,14,13,9,1.2,0.9
2026-03-27T1200,4002A,109.2312,23.7428,来宾市,中南小学,细颗粒物(PM2.5),103,80,61,63,44,40,40,26,25,22,17,12,10,1.2,0.9
2026-03-27T1200,1479A,103.8309,36.0467,兰州市,铁路设计院,,40,40,44,21,23,91,91,82,77,16,22,4,4,0.2,0.3
2026-03-27T1200,3241A,103.7439,36.0841,兰州市,百合公园,,43,43,38,25,25,85,85,79,75,8,12,16,6,0.5,0.4
2026-03-27T1200,3242A,103.9613,35.9985,兰州市,和平,NA,NA,NA,40,NA,26,82,82,71,62,NA,13,NA,11,0.9,0.7
2026-03-27T1200,4236A,103.629272,36.093822,兰州市,庄浪东路808号,颗粒物(PM10),69,76,58,35,28,78,78,87,78,25,22,18,8,0.5,0.4
2026-03-27T1200,4237A,103.7251,36.104344,兰州市,安宁西路88号,颗粒物(PM10),61,65,54,30,30,96,96,86,85,11,14,25,9,0.4,0.3
2026-03-27T1200,4238A,103.846982,36.067567,兰州市,北滨河东路1号,,43,43,44,25,27,90,90,76,71,16,24,8,8,0.4,0.5
2026-03-27T1200,1067A,116.6712,39.5109,廊坊市,药材公司,细颗粒物(PM2.5),104,91,139,64,92,106,106,80,80,22,28,5,5,0.7,0.8
2026-03-27T1200,1068A,116.7215,39.5592,廊坊市,开发区,颗粒物(PM10),65,70,113,38,71,107,107,80,80,9,16,3,4,0.5,0.6
2026-03-27T1200,1070A,116.7246,39.5273,廊坊市,北华航天学院,"颗粒物(PM10),细颗粒物(PM2.5)",88,102,141,54,90,114,114,81,81,12,26,8,6,0.6,0.7
2026-03-27T1200,2919A,116.7022,39.5454,廊坊市,河北工业大学,颗粒物(PM10),76,86,141,43,85,106,106,82,82,13,21,5,6,0.5,0.7
2026-03-27T1200,2536A,103.7629,29.5844,乐山市,牛耳桥,颗粒物(PM10),58,60,47,38,27,37,37,13,13,30,36,10,7,0.8,0.7
2026-03-27T1200,2537A,103.7501,29.6002,乐山市,市第三水厂,细颗粒物(PM2.5),68,67,46,44,26,34,34,15,12,40,36,9,4,1.0,0.8
2026-03-27T1200,2538A,103.7571,29.5664,乐山市,市监测站,颗粒物(PM10),71,79,47,39,19,50,50,23,18,27,27,10,4,1.1,0.7
2026-03-27T1200,3361A,103.7313,29.563,乐山市,理工大学,NA,NA,71,48,49,24,NA,NA,16,11,32,30,NA,7,1.1,0.8
2026-03-27T1200,2599A,100.2497,26.8802,丽江市,丽江古城,,34,25,22,6,9,106,106,94,94,6,7,10,10,0.4,0.4
2026-03-27T1200,2600A,100.2203,26.8906,丽江市,市中心,,34,21,13,6,10,108,108,98,98,9,9,8,7,0.4,0.4
2026-03-27T1200,1267A,119.9141,28.4513,丽水市,监测站大楼,,27,27,18,14,14,60,60,68,60,12,11,4,4,0.3,0.3
2026-03-27T1200,1268A,119.93,28.4589,丽水市,莲都小学,,22,22,22,10,12,58,58,55,54,12,14,/,/,/,/
2026-03-27T1200,1269A,119.8794,28.4232,丽水市,余庄前,,21,21,20,12,13,64,64,37,37,11,12,4,4,0.4,0.4
2026-03-27T1200,1173A,119.1759,34.5885,连云港市,市环境监测站,细颗粒物(PM2.5),126,124,98,88,71,149,149,65,65,26,38,21,11,0.8,0.6
2026-03-27T1200,3000A,119.3577,34.6971,连云港市,德源药业,细颗粒物(PM2.5),117,119,108,78,64,168,168,63,63,26,40,18,7,0.7,0.5
2026-03-27T1200,3007A,119.178,34.8442,连云港市,新城一中,细颗粒物(PM2.5),145,139,117,109,92,163,163,70,70,22,57,17,11,1.0,0.8
2026-03-27T1200,3008A,119.3607,34.7519,连云港市,胡沟管理处,细颗粒物(PM2.5),101,105,92,61,56,161,161,91,91,28,35,20,13,0.3,0.2
2026-03-27T1200,3009A,119.1478,34.5913,连云港市,矿山设计院,细颗粒物(PM2.5),121,129,108,83,68,160,160,61,61,23,45,22,11,1.0,0.8
2026-03-27T1200,3434A,119.2414,34.6539,连云港市,工贸学校,细颗粒物(PM2.5),123,NA,87,85,61,160,160,105,105,24,25,31,13,0.7,0.4
2026-03-27T1200,3664A,119.4171,34.734,连云港市,连云街道,细颗粒物(PM2.5),126,132,115,88,68,157,157,116,116,32,29,14,8,0.8,0.6
2026-03-27T1200,2573A,102.2629,27.8981,凉山彝族自治州,西昌市政府,,34,24,21,18,14,108,108,77,73,8,8,9,9,0.6,0.6
2026-03-27T1200,2574A,102.2686,27.885,凉山彝族自治州,凉山州政府,,30,28,22,15,11,94,94,61,61,9,9,5,5,0.5,0.4
2026-03-27T1200,4229A,102.2342,27.8859,凉山彝族自治州,凯乐南路30号,,32,31,31,13,11,101,101,58,58,12,20,24,12,0.5,0.5
2026-03-27T1200,2212A,123.1978,41.2036,辽阳市,宏伟区,颗粒物(PM10),78,89,115,26,77,108,108,77,77,10,19,9,12,0.6,1
2026-03-27T1200,2213A,123.1684,41.2497,辽阳市,新华园,颗粒物(PM10),76,86,117,31,80,106,106,69,69,12,23,11,15,0.5,0.9
2026-03-27T1200,2214A,123.2355,41.2663,辽阳市,滨河路,颗粒物(PM10),80,92,108,29,76,100,100,70,70,13,23,8,12,0.5,0.9
2026-03-27T1200,4083A,123.153,41.2874,辽阳市,铁西路150号,NA,NA,106,133,33,89,92,92,54,54,NA,29,10,14,0.5,1
2026-03-27T1200,2227A,125.1359,42.8845,辽源市,环保局,颗粒物(PM10),62,66,109,34,78,108,108,73,73,9,19,7,9,0.4,0.6
2026-03-27T1200,4085A,125.0998,42.9134,辽源市,安宁大街333号,颗粒物(PM10),73,81,116,46,83,114,114,79,79,9,16,5,7,0.6,0.7
2026-03-27T1200,1625A,115.9789,36.4372,聊城市,区政府,细颗粒物(PM2.5),101,94,119,61,65,136,136,76,76,13,21,8,8,0.7,0.8
2026-03-27T1200,3200A,115.9772,36.4986,聊城市,监控中心,细颗粒物(PM2.5),86,97,113,53,65,154,154,97,97,12,22,10,11,0.6,0.6
2026-03-27T1200,3513A,116.0443,36.436,聊城市,九州社区,细颗粒物(PM2.5),90,84,127,55,73,159,159,92,92,12,24,6,6,0.5,0.6
2026-03-27T1200,4018A,116.0564,36.4609,聊城市,星美广场,细颗粒物(PM2.5),104,102,127,64,69,153,153,79,79,NA,24,NA,9,0.7,0.8
2026-03-27T1200,4113A,116.0091,36.4495,聊城市,利民路,细颗粒物(PM2.5),92,75,107,56,65,156,156,92,92,10,19,7,8,0.5,0.6
2026-03-27T1200,2632A,94.3683,29.6373,林芝市,林芝监测站,,30,7,8,3,6,93,93,85,85,2,2,12,9,0.4,0.4
2026-03-27T1200,2633A,94.3616,29.6634,林芝市,林芝人民医院,NA,NA,9,11,7,7,94,94,86,86,4,3,NA,3,NA,0.6
2026-03-27T1200,2603A,100.0779,23.8981,临沧市,市环保局,颗粒物(PM10),64,69,41,37,33,124,124,66,66,7,9,9,9,0.5,0.5
2026-03-27T1200,2604A,100.0894,23.882,临沧市,市气象局,细颗粒物(PM2.5),60,60,39,40,34,122,122,71,71,13,10,8,9,0.3,0.2
2026-03-27T1200,1733A,111.5552,36.0791,临汾市,临钢医院,NA,NA,NA,133,NA,59,NA,NA,126,NA,NA,35,NA,14,NA,1.2
2026-03-27T1200,1734A,111.4984,36.0734,临汾市,技工学校,细颗粒物(PM2.5),108,121,132,68,73,113,113,42,42,18,33,18,13,1.2,1.1
2026-03-27T1200,1736A,111.5017,36.0857,临汾市,市委,细颗粒物(PM2.5),110,135,138,70,65,118,118,45,45,18,33,18,13,1.1,1.2
2026-03-27T1200,3018A,111.5048,36.1015,临汾市,唐尧大酒店,细颗粒物(PM2.5),102,122,140,62,64,112,112,39,39,19,37,20,16,1.2,1.2
2026-03-27T1200,4244A,111.4879,36.053,临汾市,启星学校,细颗粒物(PM2.5),104,117,128,64,58,121,121,40,40,22,46,22,14,1.2,1.3
2026-03-27T1200,4271A,103.2464,35.6123,临夏回族自治州,滨河东路1号,颗粒物(PM10),56,58,62,30,31,85,85,42,38,17,25,6,5,0.4,0.4
2026-03-27T1200,4310A,103.207136,35.599807,临夏回族自治州,新华街21号,,48,48,48,30,30,76,76,72,69,7,7,9,8,0.7,0.7
2026-03-27T1200,1618A,118.3429,35.0532,临沂市,沂河小区,细颗粒物(PM2.5),127,144,128,89,75,162,162,104,104,37,33,20,23,0.6,0.6
2026-03-27T1200,1619A,118.2962,35.0568,临沂市,鲁南制药厂,细颗粒物(PM2.5),138,153,133,101,78,NA,NA,86,86,45,46,32,25,0.6,0.6
2026-03-27T1200,1620A,118.2793,34.9976,临沂市,新光毛纺厂,细颗粒物(PM2.5),135,144,124,98,81,199,199,98,98,39,50,20,24,0.5,0.5
2026-03-27T1200,1621A,118.3955,35.0889,临沂市,河东保险公司,细颗粒物(PM2.5),127,139,116,89,72,177,177,112,112,39,32,19,19,0.5,0.4
2026-03-27T1200,3370A,118.3563,35.0215,临沂市,十里堡居委,细颗粒物(PM2.5),122,100,122,84,81,178,178,90,90,31,47,17,24,0.6,0.7
2026-03-27T1200,3496A,118.359,35.1067,临沂市,南坊新区,细颗粒物(PM2.5),128,132,114,90,73,164,164,104,104,39,33,19,20,0.4,0.4
2026-03-27T1200,3860A,118.3915,35.0297,临沂市,皇山花园小区,细颗粒物(PM2.5),126,127,126,88,83,172,172,100,100,38,38,17,23,0.7,0.7
2026-03-27T1200,1870A,109.4854,24.3898,柳州市,柳东小学,细颗粒物(PM2.5),109,NA,55,69,40,31,31,32,29,20,12,11,12,1.1,0.9
2026-03-27T1200,1871A,109.4109,24.3304,柳州市,环保监测站,细颗粒物(PM2.5),101,NA,55,61,34,26,26,28,23,28,18,15,12,1.2,1
2026-03-27T1200,1872A,109.3886,24.3408,柳州市,河西水厂,细颗粒物(PM2.5),101,86,64,61,38,19,19,28,19,32,19,22,16,1.2,1
2026-03-27T1200,1873A,109.4263,24.2951,柳州市,市四中,细颗粒物(PM2.5),80,62,54,50,35,30,30,30,25,20,15,13,13,1.0,0.9
2026-03-27T1200,1874A,109.396,24.3658,柳州市,市九中,细颗粒物(PM2.5),112,111,55,73,36,22,22,26,20,29,16,18,17,1.2,0.9
2026-03-27T1200,1875A,109.4912,24.3164,柳州市,古亭山,细颗粒物(PM2.5),105,66,54,65,39,36,36,31,29,18,11,11,10,1.0,0.8
2026-03-27T1200,3402A,109.5422,24.3994,柳州市,市二中,细颗粒物(PM2.5),108,74,57,68,40,26,26,26,24,22,14,10,11,1.0,0.8
2026-03-27T1200,2307A,116.5078,31.7369,六安市,监测大楼,细颗粒物(PM2.5),112,85,74,73,64,92,92,70,70,27,22,5,5,0.7,0.6
2026-03-27T1200,2308A,116.4738,31.7642,六安市,皖西学院,细颗粒物(PM2.5),114,98,81,75,65,106,106,83,80,17,16,6,6,0.6,0.6
2026-03-27T1200,2309A,116.4997,31.7904,六安市,朝阳厂,细颗粒物(PM2.5),120,91,79,81,62,97,97,74,68,29,25,7,7,0.5,0.6
2026-03-27T1200,2310A,116.5566,31.7885,六安市,开发区,细颗粒物(PM2.5),117,107,84,78,68,99,99,78,75,28,21,7,7,0.7,0.6
2026-03-27T1200,2577A,104.8293,26.592,六盘水市,黄土坡,,23,22,45,16,29,62,62,74,66,11,12,6,7,0.5,0.5
2026-03-27T1200,2579A,104.8481,26.5898,六盘水市,民中,,34,34,43,22,30,54,54,72,63,16,12,4,5,0.6,0.7
2026-03-27T1200,2580A,104.9541,26.5506,六盘水市,双水,,34,34,45,14,29,61,61,66,62,11,11,3,5,0.6,0.5
2026-03-27T1200,4151A,104.8899,26.5685,六盘水市,钟山大道中段564号,NA,NA,NA,53,NA,30,61,61,74,66,NA,9,NA,8,0.6,0.6
2026-03-27T1200,2336A,117.022,25.1031,龙岩市,龙岩市监测站,,45,45,39,31,33,86,86,71,71,9,19,6,9,0.7,0.7
2026-03-27T1200,2337A,117.0257,25.0662,龙岩市,闽西职业技术学院,,43,42,39,30,29,80,80,64,61,8,15,6,8,0.7,0.7
2026-03-27T1200,2338A,117.0195,25.0306,龙岩市,龙岩学院,,49,49,39,30,30,82,82,56,56,5,12,4,5,/,/
2026-03-27T1200,2885A,104.9344,33.3827,陇南市,滨江中学,颗粒物(PM10),76,86,66,31,24,36,36,33,28,46,31,8,7,0.9,1
2026-03-27T1200,3247A,104.9551,33.3709,陇南市,市总工会,NA,NA,NA,47,NA,14,NA,NA,50,NA,NA,20,7,6,0.7,0.6
2026-03-27T1200,2488A,111.9984,27.7346,娄底市,市监测站,,48,39,24,33,16,70,70,36,36,15,16,3,3,1.1,0.6
2026-03-27T1200,2491A,111.9888,27.7035,娄底市,市政府,,46,NA,20,32,14,73,73,29,29,13,12,4,3,0.8,0.6
2026-03-27T1200,4127A,111.9812,27.7591,娄底市,涟钢职大,,26,10,23,6,11,50,50,29,29,13,18,2,1,2.6,0.8
2026-03-27T1200,4128A,112.0303,27.7457,娄底市,娄底体校,,40,30,30,28,14,63,63,28,28,9,7,4,3,0.6,0.7
2026-03-27T1200,1894A,105.4427,28.9063,泸州市,小市上码头,细颗粒物(PM2.5),78,57,52,49,45,59,59,53,44,18,17,13,11,0.7,0.6
2026-03-27T1200,1895A,105.4241,28.8573,泸州市,兰田宪桥,细颗粒物(PM2.5),64,64,58,42,37,51,51,33,33,21,20,12,9,1.1,1
2026-03-27T1200,1896A,105.4378,28.8833,泸州市,市环监站,NA,NA,75,67,47,41,42,42,48,36,NA,23,NA,7,1.0,0.9
2026-03-27T1200,4272A,105.3689,28.7783,泸州市,纳溪中医医院,细颗粒物(PM2.5),88,65,53,54,37,37,37,20,20,26,20,10,7,1.0,0.8
2026-03-27T1200,2183A,111.1447,37.5212,吕梁市,环保局,颗粒物(PM10),79,90,97,24,34,117,117,45,45,17,43,12,9,0.4,0.4
2026-03-27T1200,2185A,111.1285,37.5338,吕梁市,自来水公司,颗粒物(PM10),79,90,113,26,36,108,108,36,36,22,42,12,10,0.8,0.6
2026-03-27T1200,2867A,111.1225,37.5093,吕梁市,马茂庄小学,颗粒物(PM10),81,93,108,22,32,101,101,37,37,23,46,11,8,0.8,0.6
2026-03-27T1200,1812A,112.3934,34.6517,洛阳市,市委党校,颗粒物(PM10),65,71,97,32,56,100,100,50,50,12,34,11,11,0.6,0.9
2026-03-27T1200,1815A,112.494,34.6883,洛阳市,河南林校,颗粒物(PM10),68,74,108,25,56,108,108,50,50,22,49,15,16,0.6,0.8
2026-03-27T1200,1816A,112.3843,34.623,洛阳市,开发区管委会,颗粒物(PM10),90,105,109,29,53,109,109,54,54,13,27,15,14,0.4,0.6
2026-03-27T1200,1817A,112.4263,34.6249,洛阳市,市委新办公区,颗粒物(PM10),67,73,114,38,62,116,116,57,57,13,34,12,13,0.5,0.8
2026-03-27T1200,3340A,112.6005,34.6323,洛阳市,伊滨,颗粒物(PM10),65,70,104,25,60,114,114,62,62,14,32,11,11,0.6,0.7
2026-03-27T1200,3341A,112.495,34.6338,洛阳市,中移产业园,颗粒物(PM10),68,75,102,33,59,119,119,59,59,17,37,13,16,0.5,0.7
2026-03-27T1200,3593A,112.5736,34.8993,洛阳市,吉利监测站,颗粒物(PM10),100,119,97,54,52,90,90,76,76,31,34,17,13,0.7,0.7
2026-03-27T1200,3635A,112.3678,34.6623,洛阳市,河科大西苑校区,颗粒物(PM10),67,73,101,30,54,112,112,58,58,12,37,13,14,0.5,0.7
2026-03-27T1200,3636A,112.4387,34.678,洛阳市,英才小学,颗粒物(PM10),74,83,124,31,62,107,107,39,39,20,53,14,16,0.7,1.1
2026-03-27T1200,4214A,112.460027,34.694929,洛阳市,春都路1号院,NA,NA,NA,123,NA,61,NA,NA,19,19,17,47,13,14,0.7,1
2026-03-27T1200,2399A,114.051,33.5721,漯河市,三五一五工厂,颗粒物(PM10),62,66,103,30,56,146,146,72,72,10,29,6,6,0.4,0.4
2026-03-27T1200,2400A,114.0055,33.5698,漯河市,漯河大学,颗粒物(PM10),55,56,85,33,59,145,145,71,71,12,31,7,7,0.5,0.7
2026-03-27T1200,2401A,114.0134,33.5826,漯河市,市水利局,,45,39,85,27,54,142,142,73,73,9,27,6,6,0.4,0.6
2026-03-27T1200,2402A,114.0261,33.5697,漯河市,市广电局,,46,42,85,28,56,147,147,77,77,5,26,6,6,0.5,0.7
2026-03-27T1200,3478A,113.9691,33.568,漯河市,市图书馆,颗粒物(PM10),65,71,93,32,53,137,137,75,75,13,26,8,7,0.5,0.7
2026-03-27T1200,4250A,114.089259,33.588274,漯河市,韶山路11号,颗粒物(PM10),60,63,101,28,59,136,136,56,56,12,41,8,8,0.4,0.6
2026-03-27T1200,1798A,118.5084,31.6838,马鞍山市,湖东路四小,细颗粒物(PM2.5),88,59,66,54,50,116,116,66,66,18,24,9,9,0.6,0.5
2026-03-27T1200,1799A,118.5019,31.6449,马鞍山市,开发区,细颗粒物(PM2.5),84,65,73,52,51,123,123,62,62,18,27,7,8,0.5,0.5
2026-03-27T1200,3633A,118.4914,31.681,马鞍山市,雨山,细颗粒物(PM2.5),62,64,70,41,43,120,120,68,68,18,25,8,7,0.6,0.5
2026-03-27T1200,4191A,118.527362,31.722269,马鞍山市,慈湖高新区,细颗粒物(PM2.5),68,72,75,44,46,111,111,65,65,19,25,8,8,0.4,0.4
2026-03-27T1200,1686A,111.0285,21.469,茂名市,电白南海,,24,24,23,12,11,56,56,45,45,6,8,5,5,0.7,0.6
2026-03-27T1200,1687A,110.9294,21.6533,茂名市,茂石化七小,,41,41,29,18,14,47,47,33,33,11,11,6,6,0.5,0.4
2026-03-27T1200,1688A,110.9108,21.6688,茂名市,健康路,,29,29,22,18,14,49,49,37,37,12,10,4,5,0.6,0.5
2026-03-27T1200,1689A,110.8592,21.6826,茂名市,高岭,,46,46,35,22,15,45,45,37,37,17,12,4,6,/,/
2026-03-27T1200,3450A,111.0101,21.5165,茂名市,电白水东,,19,19,16,11,10,54,54,40,40,8,8,3,3,/,/
2026-03-27T1200,2540A,103.8414,30.0871,眉山市,气象局,颗粒物(PM10),57,59,56,25,14,30,30,18,12,38,33,10,8,0.6,0.6
2026-03-27T1200,3148A,103.829,30.0563,眉山市,区人社局,颗粒物(PM10),73,82,56,36,18,19,19,25,14,57,43,12,10,0.8,0.7
2026-03-27T1200,4148A,103.8836,30.0695,眉山市,眉职院,颗粒物(PM10),63,68,44,33,17,29,29,14,9,41,33,8,6,0.7,0.7
2026-03-27T1200,1690A,116.1248,24.3307,梅州市,梅江月梅,,36,36,44,21,34,80,80,55,54,11,14,/,/,/,/
2026-03-27T1200,1691A,116.0798,24.2719,梅州市,梅县新城,,36,36,47,23,35,76,76,53,48,12,17,10,9,0.7,0.7
2026-03-27T1200,3315A,116.1234,24.2994,梅州市,梅龙,,31,31,43,20,33,77,77,56,52,10,14,6,9,0.9,1
2026-03-27T1200,1878A,104.7775,31.4741,绵阳市,富乐山,,41,41,39,19,21,84,84,58,58,14,13,6,6,0.8,0.7
2026-03-27T1200,1880A,104.6698,31.4668,绵阳市,高新区自来水公司,,50,50,59,23,25,85,85,42,42,17,35,8,9,0.6,0.6
2026-03-27T1200,3491A,104.6899,31.5324,绵阳市,西科大附属小学,,44,44,57,22,27,95,95,45,45,10,33,8,7,0.5,0.4
2026-03-27T1200,3492A,104.5647,31.5343,绵阳市,安州区旅游局,NA,NA,38,53,24,25,NA,NA,62,62,15,17,7,5,NA,0.5
2026-03-27T1200,4146A,104.7092,31.4972,绵阳市,科技城新区公安局,颗粒物(PM10),58,60,57,21,28,83,83,37,37,14,29,7,8,0.7,0.7
2026-03-27T1200,4226A,104.765114,31.453094,绵阳市,绵阳市气象局,,42,42,48,20,24,86,86,47,47,10,28,10,10,0.6,0.6
2026-03-27T1200,1784A,129.61,44.561,牡丹江市,环保大楼,细颗粒物(PM2.5),128,96,172,90,172,110,110,95,84,15,26,3,4,0.5,0.8
2026-03-27T1200,1787A,129.6364,44.6075,牡丹江市,机车工厂,细颗粒物(PM2.5),137,101,189,100,170,102,102,67,62,17,32,7,9,0.6,1.1
2026-03-27T1200,1788A,129.6386,44.5462,牡丹江市,第一中学,细颗粒物(PM2.5),127,NA,156,89,154,107,107,77,73,11,25,4,6,0.5,0.8
2026-03-27T1200,4287A,129.5992,44.5964,牡丹江市,东晓云街98号,细颗粒物(PM2.5),133,100,186,96,169,107,107,79,75,11,23,3,4,0.6,0.9
2026-03-27T1200,2531A,105.0703,29.61,内江市,市监测站,细颗粒物(PM2.5),94,57,42,57,29,73,73,45,40,32,19,9,8,0.8,0.6
2026-03-27T1200,2533A,105.0657,29.5807,内江市,内江二中,细颗粒物(PM2.5),94,74,56,57,31,60,60,57,43,37,22,11,9,0.7,0.5
2026-03-27T1200,2534A,105.0407,29.5828,内江市,内江日报社,细颗粒物(PM2.5),84,NA,50,52,32,72,72,29,28,31,31,9,8,0.7,0.6
2026-03-27T1200,4147A,105.0433,29.6105,内江市,玉峰路西段888号,细颗粒物(PM2.5),94,59,45,57,33,79,79,53,51,37,24,12,10,0.6,0.5
2026-03-27T1200,2628A,92.0653,31.4846,那曲市,那曲监测站,,37,21,32,13,24,118,118,64,64,7,20,1,6,0.5,0.9
2026-03-27T1200,4243A,92.0515,31.4787,那曲市,那曲市委宣传部,NA,NA,NA,18,NA,10,NA,NA,121,NA,NA,10,NA,7,NA,0.6
2026-03-27T1200,1291A,115.8887,28.7006,南昌市,省林业公司,,29,29,17,13,15,92,92,49,49,8,15,4,3,0.2,0.1
2026-03-27T1200,1292A,115.813,28.7443,南昌市,林科所,,29,29,17,13,14,83,83,44,44,15,22,8,7,0.6,0.5
2026-03-27T1200,1294A,115.8518,28.687,南昌市,建工学校,,45,45,24,20,15,92,92,57,57,14,18,9,8,0.8,0.7
2026-03-27T1200,1295A,115.8926,28.6425,南昌市,象湖,,34,34,17,20,18,94,94,59,59,20,18,8,7,0.8,0.8
2026-03-27T1200,3046A,115.9084,28.6062,南昌市,机电学校,颗粒物(PM10),52,52,34,25,21,110,110,61,61,9,16,5,4,0.7,0.7
2026-03-27T1200,3690A,115.9718,28.7032,南昌市,外国语学校,,33,33,22,20,20,88,88,57,57,14,14,8,7,0.7,0.7
2026-03-27T1200,4106A,115.7923,28.6873,南昌市,工业二路,,42,42,30,17,17,91,91,47,47,15,20,5,4,0.7,0.7
2026-03-27T1200,4192A,115.931587,28.686774,南昌市,南京东路235号,,36,36,29,15,16,94,94,59,59,9,9,6,5,0.5,0.4
2026-03-27T1200,1906A,106.0791,30.8022,南充市,南充市委,,40,40,40,21,21,56,56,35,35,18,27,7,7,0.6,0.6
2026-03-27T1200,1907A,106.1038,30.8215,南充市,南充炼油厂,,40,40,43,19,20,52,52,34,34,16,19,5,5,0.4,0.4
2026-03-27T1200,4227A,106.108336,30.788436,南充市,梨树横街98号,,41,41,34,22,19,59,59,43,43,13,20,6,6,0.4,0.4
2026-03-27T1200,4304A,106.1172,30.843,南充市,清泉寺北路188号,,30,30,38,17,18,69,69,45,45,7,12,6,6,0.4,0.4
2026-03-27T1200,4305A,106.067,30.7616,南充市,同庆路1号,,44,44,38,21,20,50,50,38,38,22,22,7,6,0.6,0.6
2026-03-27T1200,1151A,118.8033,32.1085,南京市,迈皋桥,,39,31,54,10,29,124,124,74,74,12,21,6,6,0.3,0.3
2026-03-27T1200,1152A,118.7487,32.057,南京市,草场门,,36,24,50,3,25,115,115,74,74,24,29,9,10,0.2,0.3
2026-03-27T1200,1154A,118.770105,32.004342,南京市,中华门,,37,27,53,7,26,116,116,60,60,18,22,5,5,0.6,0.7
2026-03-27T1200,1155A,118.8059,32.0329,南京市,瑞金路,,35,29,52,7,26,111,111,60,60,14,24,4,4,0.8,1
2026-03-27T1200,1156A,118.7946,32.0774,南京市,玄武湖,NA,NA,41,53,NA,31,122,122,69,69,4,15,8,9,0.5,0.6
2026-03-27T1200,1157A,118.6415,32.0964,南京市,浦口,,46,46,62,18,30,106,106,52,52,29,33,6,6,0.4,0.3
2026-03-27T1200,1158A,118.730129,32.000956,南京市,奥体中心,,37,36,60,3,26,118,118,67,67,8,17,7,8,0.2,0.3
2026-03-27T1200,1159A,118.9072,32.1047,南京市,仙林大学城,,46,46,60,12,28,117,117,66,66,16,25,9,9,0.4,0.5
2026-03-27T1200,3422A,118.8443,31.919,南京市,江宁彩虹桥,NA,NA,NA,63,NA,27,124,124,65,65,NA,31,4,4,0.5,0.7
2026-03-27T1200,3427A,118.8497,32.3599,南京市,六合雄州,细颗粒物(PM2.5),100,97,75,60,47,51,51,20,20,63,61,4,4,1.0,0.8
2026-03-27T1200,4086A,118.7641,32.0841,南京市,新模范马路66号,,39,31,53,3,21,122,122,70,70,10,16,5,4,0.3,0.4
2026-03-27T1200,4249A,118.8707617,31.34017673,南京市,汶溪路181号,细颗粒物(PM2.5),52,NA,54,36,37,108,108,53,53,16,27,8,7,0.2,0.3
2026-03-27T1200,4312A,119.019,31.6512,南京市,中山西路1号,,46,46,56,30,38,105,105,58,58,22,27,4,4,0.4,0.5
2026-03-27T1200,1401A,108.3098,22.788,南宁市,二十一中,,36,36,36,25,24,44,44,39,37,12,10,4,4,0.7,0.7
2026-03-27T1200,1402A,108.3135,22.8529,南宁市,北湖,,42,37,38,29,27,52,52,48,47,12,10,3,4,0.8,0.8
2026-03-27T1200,1403A,108.3205,22.8222,南宁市,市监测站,,40,40,36,22,23,55,55,48,47,8,6,3,3,0.7,0.7
2026-03-27T1200,1404A,108.3828,22.8038,南宁市,大自然花园,,29,29,35,19,23,57,57,51,49,8,9,5,6,0.8,0.8
2026-03-27T1200,1406A,108.2397,22.8462,南宁市,区农职院,NA,NA,37,41,29,24,NA,NA,41,41,14,12,6,7,0.6,0.6
2026-03-27T1200,1407A,108.3285,22.7356,南宁市,英华嘉园,颗粒物(PM10),51,51,48,23,23,54,54,40,38,16,16,6,5,0.6,0.5
2026-03-27T1200,3401A,108.4829,22.762,南宁市,红星社区,,20,16,36,14,21,57,57,47,45,6,10,5,7,0.6,0.6
2026-03-27T1200,4132A,108.2927,23.1477,南宁市,起凤路9号,,40,36,41,28,29,62,62,54,54,6,7,3,4,0.5,0.5
2026-03-27T1200,4221A,108.2177,22.7774,南宁市,乐贤路16号,NA,NA,39,41,25,24,53,53,37,37,10,16,5,7,NA,0.8
2026-03-27T1200,2332A,118.1682,26.6371,南平市,南平市监测站,,25,19,24,12,19,78,78,56,56,7,9,4,4,0.7,0.7
2026-03-27T1200,2334A,118.1757,26.6276,南平市,南平七中,,25,24,23,10,18,80,80,56,55,7,8,2,2,0.5,0.5
2026-03-27T1200,1168A,120.9056,31.9669,南通市,狼山街道,,43,43,48,22,25,73,73,50,50,37,32,9,5,0.5,0.4
2026-03-27T1200,1170A,120.8635,32.0231,南通市,城中,颗粒物(PM10),52,52,58,30,28,70,70,49,49,30,25,11,6,0.7,0.6
2026-03-27T1200,1171A,120.9376,31.9301,南通市,星湖花园,,29,29,47,12,25,72,72,50,50,37,28,12,5,0.7,0.4
2026-03-27T1200,1172A,120.8053,32.046,南通市,紫琅学院,,35,34,49,24,27,81,81,43,43,32,42,12,6,0.7,0.6
2026-03-27T1200,3291A,121.0631,32.0644,南通市,通州监测站,颗粒物(PM10),56,58,41,29,23,76,76,61,61,16,16,5,3,0.4,0.4
2026-03-27T1200,3432A,120.9348,31.9874,南通市,环境教育馆,,46,46,47,26,24,74,74,42,42,29,33,7,5,0.5,0.5
2026-03-27T1200,4091A,120.8692,31.9885,南通市,洪江路,NA,NA,47,47,30,28,60,60,45,45,NA,29,11,5,0.8,0.7
2026-03-27T1200,2404A,112.5338,33.0086,南阳市,瓦房庄,颗粒物(PM10),61,65,73,37,47,102,102,42,42,10,19,4,5,0.7,0.8
2026-03-27T1200,2405A,112.5002,32.9734,南阳市,汉画馆,细颗粒物(PM2.5),80,61,74,50,55,98,98,39,39,15,24,6,6,0.7,0.7
2026-03-27T1200,2406A,112.5778,33.0144,南阳市,气象站,颗粒物(PM10),58,60,80,20,47,105,105,48,48,12,22,5,6,0.5,0.6
2026-03-27T1200,2407A,112.548,32.9687,南阳市,理工学院,颗粒物(PM10),54,55,77,27,54,102,102,40,40,7,23,6,7,0.5,0.7
2026-03-27T1200,4008A,112.5233,32.9921,南阳市,卧龙区政府,,45,45,80,24,52,101,101,48,48,14,21,7,8,0.6,0.7
2026-03-27T1200,1234A,121.8352,29.9111,宁波市,区环保大楼,NA,NA,24,27,13,13,86,86,74,73,22,26,NA,6,0.3,0.3
2026-03-27T1200,1235A,121.5595,29.8208,宁波市,万里学院,,31,18,26,8,11,99,99,88,88,9,16,5,6,0.5,0.6
2026-03-27T1200,1236A,121.713,29.9564,宁波市,龙赛医院,,27,17,23,7,10,85,85,77,77,19,21,5,5,0.3,0.4
2026-03-27T1200,1240A,121.5855,29.8635,宁波市,太古小学,,24,16,23,7,11,74,74,70,67,16,22,3,3,0.2,0.2
2026-03-27T1200,1241A,121.5239,29.8673,宁波市,市环境监测中心,,29,22,33,7,12,92,92,79,79,16,20,7,8,0.3,0.4
2026-03-27T1200,2871A,121.6156,29.9015,宁波市,万里国际学校,,30,22,27,7,12,94,94,84,82,18,18,3,4,0.5,0.5
2026-03-27T1200,3710A,121.5593,29.8976,宁波市,白沙活动中心,,30,21,30,7,14,95,95,81,81,17,20,4,5,0.3,0.3
2026-03-27T1200,4095A,121.8962,29.7529,宁波市,中科路88号,,35,15,19,6,8,110,110,108,108,11,12,5,6,0.4,0.4
2026-03-27T1200,2341A,119.5387,26.6611,宁德市,宁德市监测站,,39,39,24,22,15,92,92,45,45,13,22,6,5,0.7,0.5
2026-03-27T1200,3209A,119.5231,26.6562,宁德市,宁德一中,,36,36,22,25,17,89,89,53,53,13,13,5,4,0.6,0.4
2026-03-27T1200,2618A,98.859,25.8541,怒江傈僳族自治州,州监测站,,33,33,33,18,24,80,80,58,54,6,8,6,7,0.5,0.5
2026-03-27T1200,2619A,98.8607,25.8168,怒江傈僳族自治州,泸水一中,,32,32,29,18,23,72,72,41,41,13,20,5,5,0.5,0.6
2026-03-27T1200,1888A,101.6891,26.571,攀枝花市,弄弄坪,,40,40,42,21,22,121,121,61,61,12,28,4,12,0.7,1.3
2026-03-27T1200,1889A,101.577,26.5914,攀枝花市,河门口,,40,40,42,27,25,112,112,48,48,15,23,13,13,1.1,0.7
2026-03-27T1200,1891A,101.7365,26.4986,攀枝花市,仁和,,35,24,23,24,20,108,108,69,69,6,11,5,6,0.4,0.5
2026-03-27T1200,2835A,101.7222,26.567,攀枝花市,四十中小,,47,47,38,19,21,118,118,55,55,11,31,10,10,0.8,1
2026-03-27T1200,1604A,122.0303,41.1489,盘锦市,开发区,,31,25,72,8,61,99,99,83,83,8,13,6,10,0.2,0.5
2026-03-27T1200,1605A,122.0486,41.0883,盘锦市,兴隆台,,31,19,60,9,59,98,98,80,80,12,22,6,9,0.6,0.9
2026-03-27T1200,1606A,121.8297,41.1026,盘锦市,新生街道,NA,NA,23,67,9,60,NA,NA,48,48,14,41,12,16,0.2,0.6
2026-03-27T1200,1832A,113.3257,33.7423,平顶山市,新华旅馆,细颗粒物(PM2.5),82,90,116,51,64,122,122,50,50,15,29,8,6,0.5,0.5
2026-03-27T1200,1833A,113.2917,33.737,平顶山市,规划设计院,颗粒物(PM10),100,119,112,54,63,105,105,44,44,24,32,10,8,0.7,0.7
2026-03-27T1200,1834A,113.182,33.7738,平顶山市,平顶山工学院,细颗粒物(PM2.5),102,102,102,62,62,107,107,58,58,17,25,8,7,0.6,0.6
2026-03-27T1200,3594A,112.8736,33.9068,平顶山市,石龙区,颗粒物(PM10),64,69,103,23,55,120,120,61,61,15,35,10,8,0.7,0.9
2026-03-27T1200,4116A,113.284,33.7139,平顶山市,姚电大道23号,颗粒物(PM10),105,131,134,60,67,94,94,41,41,26,35,5,6,0.5,0.4
2026-03-27T1200,2656A,106.6633,35.5338,平凉市,聚贤嘉苑,,47,47,61,27,31,128,128,78,78,10,22,10,5,0.2,0.3
2026-03-27T1200,2657A,106.7021,35.5307,平凉市,博物馆,颗粒物(PM10),56,58,68,29,35,125,125,69,69,9,21,9,8,0.4,0.6
2026-03-27T1200,2348A,113.8384,27.6436,萍乡市,中医院,,40,40,43,23,26,89,89,46,46,8,17,7,6,1.5,1.1
2026-03-27T1200,2350A,113.8677,27.6438,萍乡市,市环保局,,49,NA,30,34,26,90,90,52,52,10,17,8,8,1.2,0.8
2026-03-27T1200,2351A,113.8663,27.6202,萍乡市,安源区政府,NA,NA,NA,30,NA,22,67,67,44,44,9,14,4,6,0.8,0.6
2026-03-27T1200,4107A,113.8686,27.6668,萍乡市,联洪村委会,,35,29,37,24,23,79,79,40,40,8,17,3,3,0.8,0.7
2026-03-27T1200,2319A,119.0142,25.4324,莆田市,荔城区仓后路,,29,NA,31,20,24,54,54,52,50,20,20,/,/,/,/
2026-03-27T1200,2320A,119.0016,25.4553,莆田市,莆田市监测站,,35,35,25,17,21,52,52,50,50,20,16,3,2,0.5,0.4
2026-03-27T1200,2321A,119.112,25.4561,莆田市,涵江区六中,NA,NA,NA,29,NA,19,50,50,46,34,NA,28,/,/,NA,0.5
2026-03-27T1200,2322A,119.1014,25.3215,莆田市,秀屿区政府,,31,31,27,16,19,93,93,76,76,8,12,4,4,0.7,0.6
2026-03-27T1200,2392A,115.0312,35.7636,濮阳市,环保局,细颗粒物(PM2.5),116,128,83,77,52,128,128,85,85,26,19,12,8,0.9,0.7
2026-03-27T1200,3021A,115,35.7667,濮阳市,濮水河管理处,细颗粒物(PM2.5),135,163,109,98,56,137,137,77,77,32,29,15,9,0.8,0.7
2026-03-27T1200,4118A,115.0552,35.7816,濮阳市,中原东路68号,NA,NA,NA,91,NA,51,128,128,80,79,NA,16,13,7,NA,0.7
2026-03-27T1200,4216A,115.0923632,35.76857718,濮阳市,任丘路479号,细颗粒物(PM2.5),123,150,112,85,58,148,148,77,77,27,29,14,8,0.8,0.6
2026-03-27T1200,2601A,100.9801,22.7634,普洱市,市环保局,颗粒物(PM10),95,112,69,30,38,146,146,89,89,16,11,8,7,0.7,0.6
2026-03-27T1200,2602A,100.9763,22.8237,普洱市,普洱第二中学,细颗粒物(PM2.5),104,107,79,64,42,141,141,63,63,11,26,11,11,0.5,0.5
2026-03-27T1200,3345A,131.0413,45.7795,七台河市,中波台,细颗粒物(PM2.5),160,186,164,122,126,126,126,84,84,17,27,6,8,0.6,0.7
2026-03-27T1200,3637A,131.0136,45.7688,七台河市,人民广场,细颗粒物(PM2.5),176,186,163,133,119,114,114,73,73,21,32,12,12,0.9,0.9
2026-03-27T1200,3684A,130.8639,45.8144,七台河市,新建矿广场,细颗粒物(PM2.5),160,144,183,122,126,113,113,68,68,19,26,11,12,0.7,0.8
2026-03-27T1200,1779A,123.9307,47.3641,齐齐哈尔市,安居小区,颗粒物(PM10),61,65,67,32,31,98,98,72,72,9,11,10,10,0.4,0.4
2026-03-27T1200,1780A,123.9497,47.3389,齐齐哈尔市,中心广场,NA,NA,NA,47,NA,26,NA,NA,69,NA,NA,14,NA,3,NA,0.5
2026-03-27T1200,1781A,123.9483,47.3229,齐齐哈尔市,农牧车辆厂,NA,NA,61,63,46,28,91,91,72,72,NA,10,7,7,0.1,0.1
2026-03-27T1200,1783A,123.9442,47.2994,齐齐哈尔市,市环境监测站,颗粒物(PM10),55,57,62,31,27,96,96,72,72,10,12,5,4,0.5,0.5
2026-03-27T1200,3662A,123.6341,47.2079,齐齐哈尔市,富区青少年活动中心,颗粒物(PM10),54,55,93,34,40,96,96,72,72,11,12,5,5,0.4,0.4
2026-03-27T1200,2591A,107.9765,26.5724,黔东南苗族侗族自治州,市环境监测站,,20,19,21,14,13,53,53,44,44,11,9,3,3,0.7,0.7
2026-03-27T1200,2881A,107.8909,26.531,黔东南苗族侗族自治州,凯里学院,NA,NA,NA,16,28,13,NA,NA,46,46,8,10,5,5,0.9,0.9
2026-03-27T1200,2593A,107.5223,26.2371,黔南布依族苗族自治州,小围寨,,15,7,17,3,13,48,48,36,36,6,8,3,5,0.6,0.7
2026-03-27T1200,3538A,107.5175,26.2977,黔南布依族苗族自治州,沙坝,,30,NA,22,21,15,45,45,32,32,8,8,4,5,0.5,0.6
2026-03-27T1200,2589A,104.9022,25.0943,黔西南布依族苗族自治州,场坝街,细颗粒物(PM2.5),78,NA,47,49,39,113,113,96,96,7,7,7,8,0.5,0.5
2026-03-27T1200,2590A,104.8812,25.0994,黔西南布依族苗族自治州,坪东大道,细颗粒物(PM2.5),80,52,46,50,40,106,106,91,91,7,10,5,6,0.7,0.7
2026-03-27T1200,2502A,108.6238,21.9667,钦州市,市环保站,,22,22,34,13,15,26,26,31,26,17,15,3,5,0.6,0.5
2026-03-27T1200,2503A,108.655,21.9481,钦州市,沙埠小学,,31,31,39,19,22,21,21,18,16,20,17,3,5,0.7,0.6
2026-03-27T1200,2504A,108.5989,21.7435,钦州市,港区一小,,33,33,48,23,19,23,23,48,28,21,13,2,2,0.6,0.6
2026-03-27T1200,3404A,108.5959,21.9634,钦州市,北职校,,25,24,35,17,19,30,30,30,29,14,13,4,6,0.6,0.5
2026-03-27T1200,1046A,119.5247,39.9346,秦皇岛市,建设大厦,,27,24,98,7,61,84,84,74,74,12,34,4,6,0.2,0.5
2026-03-27T1200,3132A,119.5979,39.938,秦皇岛市,文明里,,32,32,100,3,55,78,78,58,58,10,31,8,10,0.3,0.6
2026-03-27T1200,4066A,119.7458,39.9952,秦皇岛市,南园路157号,NA,NA,39,102,3,68,82,82,51,51,14,57,7,10,NA,0.6
2026-03-27T1200,4067A,119.5131,39.8858,秦皇岛市,翠岛大街1号,,24,10,83,10,56,75,75,65,65,23,35,8,9,0.2,0.5
2026-03-27T1200,4198A,119.509013,39.825305,秦皇岛市,北戴河轮滑馆,,26,25,98,6,60,81,81,64,64,16,34,8,9,0.2,0.5
2026-03-27T1200,1310A,120.404,36.0625,青岛市,市南区东部子站,细颗粒物(PM2.5),147,163,122,111,89,109,109,74,74,44,32,18,15,0.9,0.8
2026-03-27T1200,1311A,120.362344,36.10282,青岛市,四方区子站,细颗粒物(PM2.5),165,195,118,125,86,139,139,85,85,53,34,16,12,1.1,1
2026-03-27T1200,1312A,120.294373,36.054183,青岛市,市南区西部子站,细颗粒物(PM2.5),195,193,112,146,90,148,148,69,65,49,38,14,7,1.1,0.8
2026-03-27T1200,1313A,120.4581,36.0858,青岛市,崂山区子站,细颗粒物(PM2.5),134,144,114,97,76,87,87,78,68,64,47,15,11,1.0,0.8
2026-03-27T1200,1315A,120.3945,36.3083,青岛市,城阳区子站,细颗粒物(PM2.5),147,180,127,111,76,163,163,91,91,25,33,14,10,1.0,0.9
2026-03-27T1200,3642A,120.3454,36.0735,青岛市,市北区南部,细颗粒物(PM2.5),160,176,113,122,81,122,122,88,77,55,29,14,7,1.3,1.1
2026-03-27T1200,3643A,120.3897,36.18,青岛市,李沧区北部,细颗粒物(PM2.5),176,212,120,133,76,114,114,99,90,66,35,18,13,0.9,0.8
2026-03-27T1200,4110A,120.5222,36.4089,青岛市,盟旺路653号,细颗粒物(PM2.5),140,146,112,103,65,NA,NA,110,94,NA,18,11,8,1.2,1
2026-03-27T1200,4290A,120.196923,35.954556,青岛市,珠江路669号,细颗粒物(PM2.5),162,185,128,123,92,90,90,64,49,74,40,13,8,0.9,0.7
2026-03-27T1200,4291A,120.0424,35.8656,青岛市,黄岛区人民政府广场,细颗粒物(PM2.5),127,127,117,89,76,124,124,64,64,43,47,15,11,0.9,0.9
2026-03-27T1200,1703A,113.0218,23.7086,清远市,凤城街办,,37,37,38,24,22,51,51,19,18,17,28,/,/,/,/
2026-03-27T1200,3025A,113.0479,23.6343,清远市,技师学院,,44,44,43,22,22,51,51,20,20,17,27,5,6,0.3,0.4
2026-03-27T1200,3318A,112.9898,23.7403,清远市,清新太和,颗粒物(PM10),52,52,43,30,24,49,49,21,19,21,24,7,7,0.5,0.5
2026-03-27T1200,3455A,113.076,23.72,清远市,清城东城,,41,41,43,22,23,55,55,20,20,15,25,/,/,/,/
2026-03-27T1200,2661A,107.6325,35.7357,庆阳市,庆阳五中,"颗粒物(PM10),细颗粒物(PM2.5)",60,64,66,40,32,130,130,96,92,14,16,4,7,0.4,0.4
2026-03-27T1200,2662A,107.6361,35.7067,庆阳市,市环保局,颗粒物(PM10),65,71,61,35,32,126,126,107,106,18,17,13,10,0.4,0.4
2026-03-27T1200,1916A,103.7897,25.5036,曲靖市,环境监测站,,43,26,30,17,17,136,136,93,93,8,11,6,5,1.0,0.9
2026-03-27T1200,1917A,103.8013,25.5357,曲靖市,烟厂办公区,,38,33,40,13,20,119,119,50,50,6,28,4,6,0.5,0.6
2026-03-27T1200,3376A,103.7926,25.4651,曲靖市,南苑二区,,35,33,27,12,16,112,112,84,84,14,13,3,4,0.5,0.4
2026-03-27T1200,3377A,103.7442,25.5259,曲靖市,曲靖师范学院,,39,36,37,15,23,124,124,71,71,7,14,4,5,0.4,0.5
2026-03-27T1200,1264A,118.8694,28.94,衢州市,环保大楼,,39,33,33,27,25,37,37,41,32,28,20,/,/,/,/
2026-03-27T1200,1266A,118.8622,28.9809,衢州市,衢州学院,,39,31,29,27,24,34,34,42,33,30,24,3,4,0.5,0.5
2026-03-27T1200,4097A,118.9646,28.9832,衢州市,衢州三中,,45,36,36,31,28,38,38,38,32,26,25,6,6,0.7,0.6
2026-03-27T1200,1611A,118.5818,24.9116,泉州市,涂山街,,50,46,35,35,22,74,74,60,57,22,21,4,4,0.7,0.7
2026-03-27T1200,1612A,118.597,24.8976,泉州市,津头埔,,49,47,35,34,24,70,70,60,57,23,19,3,4,0.7,0.6
2026-03-27T1200,1613A,118.6669,24.9422,泉州市,万安,,48,42,36,33,23,74,74,55,55,15,17,4,5,0.6,0.5
2026-03-27T1200,4105A,118.6355,24.9148,泉州市,霞新路6号,,42,41,36,29,22,72,72,54,54,16,20,/,/,0.6,0.6
2026-03-27T1200,2626A,88.8873,29.2723,日喀则市,日喀则监测站,,31,7,13,3,6,98,98,98,88,4,4,8,7,0.4,0.3
2026-03-27T1200,3726A,88.8775,29.2425,日喀则市,林业技术推广中心,,33,26,22,3,1,103,103,101,94,6,5,5,4,0.4,0.4
2026-03-27T1200,1659A,119.4711,35.421,日照市,监测站,细颗粒物(PM2.5),130,139,126,92,88,156,156,57,57,36,54,17,14,0.9,1
2026-03-27T1200,1660A,119.523,35.4216,日照市,市政府广场,细颗粒物(PM2.5),142,151,126,106,91,148,148,78,78,37,46,18,15,0.9,0.9
2026-03-27T1200,1661A,119.5511,35.4113,日照市,港务局,细颗粒物(PM2.5),159,193,153,121,88,61,61,39,39,NA,59,20,10,NA,0.9
2026-03-27T1200,3507A,119.5326,35.4627,日照市,职业技术学院,细颗粒物(PM2.5),136,156,146,99,84,147,147,87,87,45,48,18,15,1.1,1.1
2026-03-27T1200,3604A,119.3267,35.1043,日照市,岚山环保分局,细颗粒物(PM2.5),168,166,137,127,88,130,130,93,93,50,44,21,21,1.0,1
2026-03-27T1200,1835A,111.1922,34.7752,三门峡市,市政府,细颗粒物(PM2.5),78,87,84,49,42,76,76,36,36,32,37,30,15,0.6,0.5
2026-03-27T1200,1836A,111.1588,34.794,三门峡市,开发区,细颗粒物(PM2.5),105,113,110,65,57,77,77,40,40,27,27,29,15,0.7,0.5
2026-03-27T1200,3039A,111.1911,34.7829,三门峡市,三门峡市第一小学,颗粒物(PM10),89,104,94,51,48,82,82,44,44,31,32,36,19,0.8,0.6
2026-03-27T1200,3598A,111.1031,34.719,三门峡市,富达温泉假日酒店,细颗粒物(PM2.5),98,95,115,59,69,100,100,38,38,24,33,20,26,0.3,0.5
2026-03-27T1200,2324A,117.621,26.2626,三明市,三钢,,26,22,17,18,17,64,64,56,51,13,12,10,8,1.2,0.6
2026-03-27T1200,2325A,117.6352,26.2714,三明市,三明二中,,21,21,15,12,14,63,63,51,48,11,13,4,5,0.9,0.7
2026-03-27T1200,2326A,117.6028,26.2377,三明市,三元区政府,,26,19,15,18,16,50,50,53,46,17,17,16,10,1.3,1
2026-03-27T1200,1877A,109.4962,18.2682,三亚市,河西子站,,25,25,25,16,15,68,68,58,58,4,4,4,4,0.5,0.5
2026-03-27T1200,3540A,109.7348,18.3443,三亚市,君悦子站,,23,NA,21,16,14,69,69,58,55,4,4,5,4,0.5,0.4
2026-03-27T1200,4135A,109.1714,18.3739,三亚市,城东小学站,,35,35,26,17,16,67,67,52,51,5,6,/,/,/,/
2026-03-27T1200,2624A,91.7592,29.234,山南市,山南监测站,,33,6,12,3,3,104,104,101,100,7,3,8,6,0.4,0.3
2026-03-27T1200,2625A,91.7701,29.2436,山南市,山南人民医院,,34,8,18,3,4,108,108,103,103,5,3,8,8,0.3,0.3
2026-03-27T1200,1674A,116.6795,23.3666,汕头市,金平子站,,49,49,32,23,16,100,100,96,88,19,16,6,5,0.7,0.6
2026-03-27T1200,1675A,116.7248,23.3632,汕头市,龙湖子站,,40,40,33,21,16,97,97,90,83,14,15,6,5,/,/
2026-03-27T1200,1676A,116.7257,23.2774,汕头市,濠江子站,,46,46,31,20,16,82,82,85,79,17,14,8,7,/,/
2026-03-27T1200,1677A,116.7518,23.4712,汕头市,澄海子站,颗粒物(PM10),63,68,38,32,17,92,92,83,76,20,15,9,7,0.8,0.7
2026-03-27T1200,1678A,116.6088,23.2539,汕头市,潮阳子站,,49,49,32,32,17,96,96,90,81,14,11,7,6,0.6,0.5
2026-03-27T1200,3444A,116.4539,23.2684,汕头市,潮南峡山,颗粒物(PM10),55,56,38,29,20,122,122,93,91,12,11,7,7,0.7,0.7
2026-03-27T1200,3624A,116.4069,23.2533,汕头市,潮南子站,颗粒物(PM10),68,74,46,34,24,107,107,84,80,13,10,6,6,/,/
2026-03-27T1200,1693A,115.3653,22.7751,汕尾市,市环保局,,40,40,35,25,24,106,106,93,86,9,9,5,5,0.5,0.5
2026-03-27T1200,1695A,115.362,22.7926,汕尾市,新城中学,,45,45,33,22,23,94,94,83,76,10,10,6,6,0.6,0.6
2026-03-27T1200,2645A,109.9155,33.8714,商洛市,监测站,颗粒物(PM10),54,55,49,25,20,113,113,51,51,12,26,6,8,0.4,0.5
2026-03-27T1200,3045A,109.9647,33.8486,商洛市,商州区中学,NA,NA,65,49,25,21,111,111,41,41,10,30,6,7,NA,0.6
2026-03-27T1200,2408A,115.6701,34.4283,商丘市,环境监测站,颗粒物(PM10),65,71,93,38,57,149,149,67,67,9,33,5,4,0.4,0.5
2026-03-27T1200,2409A,115.6458,34.4047,商丘市,粮食局,颗粒物(PM10),70,77,82,38,57,146,146,78,78,15,30,4,3,0.4,0.5
2026-03-27T1200,3171A,115.6069,34.4465,商丘市,梁园区档案局,细颗粒物(PM2.5),60,58,77,40,55,151,151,77,77,12,29,5,4,0.5,0.6
2026-03-27T1200,4119A,115.6701,34.3767,商丘市,北海东路185号,NA,NA,82,87,33,51,151,151,60,60,11,35,6,5,NA,0.5
2026-03-27T1200,4120A,115.6172,34.3704,商丘市,中山大街3号,颗粒物(PM10),81,93,107,39,61,145,145,60,60,12,35,6,5,0.3,0.4
2026-03-27T1200,1141A,121.401,31.2382,上海市,普陀,,33,33,41,21,27,60,60,55,53,51,43,6,6,0.5,0.4
2026-03-27T1200,1142A,121.4774,31.2043,上海市,十五厂,,42,42,45,26,27,52,52,47,41,49,44,6,5,0.6,0.5
2026-03-27T1200,1143A,121.4673,31.3011,上海市,虹口,,25,24,43,17,26,66,66,46,40,37,35,6,6,0.5,0.5
2026-03-27T1200,1147A,121.4253,31.226,上海市,静安监测站,,30,30,36,18,23,61,61,58,54,46,39,8,8,0.5,0.5
2026-03-27T1200,1148A,121.7029,31.1905,上海市,浦东川沙,,37,37,38,22,20,60,60,42,37,44,48,7,7,0.6,0.6
2026-03-27T1200,1149A,121.5339,31.229,上海市,浦东新区监测站,NA,NA,NA,38,NA,21,NA,NA,42,30,48,36,6,6,0.4,0.3
2026-03-27T1200,1150A,121.5776,31.2038,上海市,浦东张江,,32,32,35,20,22,56,56,46,37,39,35,7,7,0.1,0.2
2026-03-27T1200,3265A,121.4242,31.3303,上海市,宝山庙行,,24,21,47,9,28,74,74,36,36,35,46,5,5,0.4,0.4
2026-03-27T1200,3266A,121.8789,31.4662,上海市,崇明上实东滩,,22,18,18,15,14,68,68,54,54,35,33,9,8,0.2,0.2
2026-03-27T1200,3268A,121.316,31.2839,上海市,嘉定南翔,,22,20,35,13,22,58,58,39,34,44,40,5,5,0.5,0.5
2026-03-27T1200,3269A,121.3357,30.7455,上海市,金山新城,,28,24,25,18,17,89,89,71,69,20,25,5,5,0.5,0.4
