timepoint,stationcode,longitude,latitude,area,positionname,primarypollutant,aqi,pm10,pm10_24h,pm2_5,pm2_5_24h,o3,o3_24h,o3_8h,o3_8h_24h,no2,no2_24h,so2,so2_24h,co,co_24h
2023-09-07T13:00:00,1001A,116.3621,39.8784,北京市,万寿西宫,"细颗粒物(PM2.5),臭氧1小时",53,54,92,37,71,184,162,104,98,6,18,3,3,0.8,0.8
2023-09-07T13:00:00,1002A,116.2202,40.2915,北京市,定陵,细颗粒物(PM2.5),75,67,70,55,57,205,171,73,73,17,10,3,3,0.8,0.7
2023-09-07T13:00:00,1003A,116.4174,39.9289,北京市,东四,臭氧1小时,67,59,87,43,60,205,173,117,113,8,16,1,2,0.7,0.7
2023-09-07T13:00:00,1004A,116.4072,39.8863,北京市,天坛,细颗粒物(PM2.5),60,54,70,43,57,184,163,87,87,10,18,3,3,0.7,0.6
2023-09-07T13:00:00,1005A,116.462,39.9365,北京市,农展馆,细颗粒物(PM2.5),62,68,91,44,66,195,167,123,101,10,26,1,2,0.8,0.9
2023-09-07T13:00:00,1006A,116.3392,39.9295,北京市,官园,臭氧1小时,79,60,85,42,69,213,183,131,108,9,17,3,3,0.6,0.6
2023-09-07T13:00:00,1007A,116.2878,39.9611,北京市,海淀万柳,"细颗粒物(PM2.5),臭氧1小时",60,67,86,43,59,190,168,86,86,10,28,3,3,0.6,0.6
2023-09-07T13:00:00,1008A,116.6636,40.135,北京市,顺义新城,臭氧1小时,79,62,111,44,76,267,183,85,85,8,25,1,2,0.7,0.7
2023-09-07T13:00:00,1009A,116.6275,40.3275,北京市,怀柔镇,臭氧1小时,103,99,90,73,68,227,205,100,100,17,15,3,3,0.7,0.7
2023-09-07T13:00:00,1010A,116.2296,40.217,北京市,昌平镇,细颗粒物(PM2.5),69,35,64,50,59,219,168,97,78,13,23,3,2,0.6,0.7
2023-09-07T13:00:00,1011A,116.3966,39.9821,北京市,奥体中心,颗粒物(PM10),57,63,78,32,58,176,144,120,81,9,22,3,3,0.9,1
2023-09-07T13:00:00,1012A,116.184,39.9136,北京市,古城,细颗粒物(PM2.5),68,55,83,49,53,177,162,82,82,9,23,3,3,0.8,0.7
2023-09-07T13:00:00,1015A,117.1444,39.1661,天津市,勤俭道,臭氧1小时,103,64,102,48,77,212,205,136,135,7,14,7,8,1.0,1.1
2023-09-07T13:00:00,1017A,117.237,39.1082,天津市,大直沽八号路,臭氧1小时,85,65,102,50,75,206,188,126,126,10,17,4,4,0.9,1
2023-09-07T13:00:00,1018A,117.202,39.0927,天津市,前进道,细颗粒物(PM2.5),68,57,92,49,176,204,126,112,112,13,22,5,4,1.0,1.1
2023-09-07T13:00:00,1019A,117.1837,39.2133,天津市,淮河道,臭氧1小时,102,58,105,40,73,223,203,138,138,7,17,4,5,1.0,1.2
2023-09-07T13:00:00,1021A,117.307,39.0877,天津市,跃进路,臭氧1小时,101,76,103,45,72,225,201,126,124,11,23,6,7,1.0,1.2
2023-09-07T13:00:00,1023A,117.707,39.0343,天津市,第四大街,细颗粒物(PM2.5),102,96,101,76,77,228,184,126,126,17,26,9,5,1.3,1.2
2023-09-07T13:00:00,1024A,117.457,38.8394,天津市,永明路,臭氧1小时,105,84,97,59,72,210,210,135,135,10,19,7,7,1.3,1.2
2023-09-07T13:00:00,1026A,117.764,39.1587,天津市,汉北路,臭氧1小时,105,97,106,64,73,209,209,126,126,10,26,7,7,1.3,1.2
2023-09-07T13:00:00,1027A,117.157,38.9194,天津市,团泊洼,臭氧1小时,77,54,94,35,67,207,181,113,113,9,19,2,3,1.1,1.1
2023-09-07T13:00:00,1029A,114.4422,38.0444,石家庄市,职工医院,,,60,79,45,52,217,191,125,104,10,26,,2,0.7,0.6
2023-09-07T13:00:00,1030A,114.6063,38.0266,石家庄市,高新区,臭氧1小时,101,58,80,,55,223,201,108,108,14,24,,2,0.7,0.8
2023-09-07T13:00:00,1031A,114.4898,38.1328,石家庄市,西北水源,,,,,,,,,,,,,,,,
2023-09-07T13:00:00,1032A,114.4586,38.0058,石家庄市,西南高教,细颗粒物(PM2.5),70,45,75,51,51,211,173,103,96,8,19,4,2,0.8,0.7
2023-09-07T13:00:00,1033A,114.5331,38.0178,石家庄市,世纪公园,,,,97,29,43,207,188,101,101,,21,4,2,0.8,0.8
2023-09-07T13:00:00,1034A,114.509,38.0457,石家庄市,人民会堂,臭氧1小时,98,71,78,51,52,224,198,123,110,9,21,6,6,0.6,0.6
2023-09-07T13:00:00,1035A,114.3524,37.8911,石家庄市,封龙山,颗粒物(PM10),66,81,73,44,40,184,161,160,150,12,10,6,4,1.2,0.9
2023-09-07T13:00:00,1037A,118.131,39.6363,唐山市,雷达站,细颗粒物(PM2.5),82,92,110,60,73,194,184,106,106,17,24,1,2,0.9,0.9
2023-09-07T13:00:00,1038A,118.1725,39.6334,唐山市,物资局,臭氧1小时,89,100,98,55,65,194,191,94,94,12,25,4,5,1.1,1
2023-09-07T13:00:00,1040A,118.1705,39.6506,唐山市,十二中,臭氧1小时,88,82,94,63,65,192,190,98,98,12,26,2,3,0.9,1
2023-09-07T13:00:00,1041A,118.1869,39.622,唐山市,小山,臭氧1小时,94,100,113,59,67,195,195,92,92,10,31,2,3,1.1,1.1
2023-09-07T13:00:00,1042A,119.5134,39.8207,秦皇岛市,北戴河环保局,颗粒物(PM10),67,84,56,40,33,157,154,110,110,14,26,12,12,0.8,0.3
2023-09-07T13:00:00,1043A,119.7493,40.0116,秦皇岛市,第一关,细颗粒物(PM2.5),75,92,79,55,45,160,156,69,69,12,61,12,11,1.3,0.7
2023-09-07T13:00:00,1044A,119.5897,39.9499,秦皇岛市,监测站,细颗粒物(PM2.5),102,88,66,76,46,155,155,77,77,5,33,9,8,1.4,0.8
2023-09-07T13:00:00,1046A,119.5251,39.9041,秦皇岛市,建设大厦,颗粒物(PM10),75,99,72,40,23,170,170,78,78,9,37,4,8,1.1,0.6
2023-09-07T13:00:00,1048A,114.5302,36.6116,邯郸市,东污水处理厂,臭氧1小时,69,31,61,31,52,180,175,103,103,4,26,7,7,0.6,1
2023-09-07T13:00:00,1049A,114.4918,36.5713,邯郸市,矿院,臭氧1小时,73,43,56,39,52,184,178,96,96,11,31,4,4,0.7,0.8
2023-09-07T13:00:00,1050A,114.484,36.6133,邯郸市,丛台公园,臭氧1小时,80,38,70,32,45,185,184,106,106,4,19,7,7,0.6,0.8
2023-09-07T13:00:00,1051A,115.493,38.8632,保定市,游泳馆,细颗粒物(PM2.5),72,44,77,52,62,190,174,115,107,11,23,7,7,0.4,0.5
2023-09-07T13:00:00,1052A,115.5213,38.8959,保定市,华电二区,臭氧1小时,68,52,71,38,48,196,174,132,113,3,12,4,7,0.5,0.6
2023-09-07T13:00:00,1053A,115.4713,38.9108,保定市,接待中心,,,,80,,54,187,168,119,119,,11,,6,0.6,0.6
2023-09-07T13:00:00,1054A,115.4612,38.8416,保定市,地表水厂,臭氧1小时,55,49,91,35,51,179,164,99,99,5,25,8,9,0.7,0.7
2023-09-07T13:00:00,1056A,115.5086,38.8639,保定市,监测站,臭氧1小时,75,41,83,37,54,198,180,112,110,6,18,6,7,0.5,0.5
2023-09-07T13:00:00,1057A,114.8883,40.8336,张家口市,人民公园,,45,40,41,15,17,150,144,91,91,8,10,4,3,0.3,0.3
2023-09-07T13:00:00,1059A,114.8687,40.8042,张家口市,五金库,颗粒物(PM10),53,56,57,29,31,152,146,128,99,7,12,2,2,0.4,0.5
2023-09-07T13:00:00,1060A,114.8902,40.762,张家口市,世纪豪园,,44,42,56,27,35,148,138,116,116,6,13,3,4,0.3,0.4
2023-09-07T13:00:00,1061A,114.8916,40.8661,张家口市,北泵房,,49,38,38,19,21,154,154,94,94,6,9,7,6,0.4,0.4
2023-09-07T13:00:00,1062A,117.9531,40.9081,承德市,铁路,颗粒物(PM10),57,63,80,39,52,189,155,88,88,13,29,7,9,0.7,0.8
2023-09-07T13:00:00,1063A,117.9392,40.9763,承德市,中国银行,"颗粒物(PM10),细颗粒物(PM2.5)",59,68,86,42,53,200,163,94,93,8,18,8,10,0.6,0.7
2023-09-07T13:00:00,1064A,117.9503,40.928,承德市,开发区,,50,45,68,23,43,203,160,106,106,15,32,5,7,0.7,0.8
2023-09-07T13:00:00,1065A,117.8051,40.9655,承德市,文化中心,颗粒物(PM10),60,70,83,37,51,167,164,89,89,10,28,7,15,0.7,0.8
2023-09-07T13:00:00,1066A,117.9268,41.0026,承德市,离宫,细颗粒物(PM2.5),55,53,85,39,41,182,163,90,90,6,11,4,3,0.7,0.7
2023-09-07T13:00:00,1067A,116.6708,39.5111,廊坊市,药材公司,细颗粒物(PM2.5),82,87,104,60,71,182,168,101,101,8,18,1,2,0.8,0.7
2023-09-07T13:00:00,1068A,116.7214,39.5589,廊坊市,开发区,细颗粒物(PM2.5),80,86,96,59,66,189,172,111,111,8,16,2,2,0.9,0.7
2023-09-07T13:00:00,1070A,116.7244,39.5269,廊坊市,北华航天学院,细颗粒物(PM2.5),74,89,112,54,61,192,175,117,117,8,17,3,4,0.8,0.8
2023-09-07T13:00:00,1071A,116.8842,38.2991,沧州市,沧县城建局,臭氧1小时,75,67,87,49,62,210,180,126,126,7,16,6,7,0.9,1
2023-09-07T13:00:00,1072A,116.8584,38.3254,沧州市,电视转播站,臭氧1小时,77,57,88,44,65,215,181,135,135,5,13,7,9,0.7,0.9
2023-09-07T13:00:00,1073A,116.8709,38.3228,沧州市,市环保局,臭氧1小时,70,54,95,46,60,204,176,128,128,8,14,2,5,0.7,0.8
2023-09-07T13:00:00,1074A,115.6838,37.7541,衡水市,电机北厂,臭氧1小时,85,68,66,43,50,201,188,121,104,4,14,4,5,0.7,0.8
2023-09-07T13:00:00,1075A,115.6303,37.7316,衡水市,市监测站,臭氧1小时,83,61,68,44,44,187,186,111,111,9,18,4,3,0.6,0.8
2023-09-07T13:00:00,1077A,114.4704,37.0886,邢台市,达活泉,臭氧1小时,111,95,85,45,42,222,222,123,123,5,15,19,7,1.5,0.8
2023-09-07T13:00:00,1078A,114.5062,37.0349,邢台市,邢师高专,臭氧1小时,105,113,86,72,53,210,210,97,97,8,30,34,6,2.0,0.7
2023-09-07T13:00:00,1079A,114.5237,37.0851,邢台市,路桥公司,臭氧1小时,105,83,72,51,46,210,210,111,111,9,24,23,9,1.7,0.8
2023-09-07T13:00:00,1080A,114.4725,37.0719,邢台市,市环保局,臭氧1小时,113,102,84,57,47,226,226,127,127,4,13,25,9,1.8,0.8
2023-09-07T13:00:00,1081A,112.522,37.8873,太原市,尖草坪,臭氧1小时,84,65,62,44,37,187,187,97,97,10,41,6,5,0.7,0.7
2023-09-07T13:00:00,1083A,112.434,38.0108,太原市,上兰,,,,,,,,,,,,,,,,
2023-09-07T13:00:00,1084A,112.469,37.7124,太原市,晋源,臭氧1小时,87,76,60,51,39,189,189,111,111,12,29,7,5,0.8,0.8
2023-09-07T13:00:00,1085A,112.5583,37.7394,太原市,小店,臭氧1小时,87,65,60,42,35,189,189,118,118,11,26,6,5,0.7,0.7
2023-09-07T13:00:00,1086A,112.5369,37.8692,太原市,桃园,臭氧1小时,78,66,57,42,31,182,182,94,94,10,39,5,4,0.7,0.7
2023-09-07T13:00:00,1087A,112.57,37.8195,太原市,坞城,臭氧1小时,93,62,50,40,32,194,194,120,120,11,27,8,7,0.7,0.7
2023-09-07T13:00:00,1088A,112.549,37.9854,太原市,南寨,臭氧1小时,88,70,63,41,34,190,190,82,82,13,28,13,6,1.1,0.7
2023-09-07T13:00:00,1090A,111.6507,40.7517,呼和浩特市,呼市一监,细颗粒物(PM2.5),69,63,52,50,37,176,112,108,89,17,16,8,6,0.7,0.6
2023-09-07T13:00:00,1091A,111.6572,40.8033,呼和浩特市,小召,细颗粒物(PM2.5),64,75,56,46,30,164,106,117,92,25,22,9,7,0.9,0.6
2023-09-07T13:00:00,1094A,111.7516,40.8369,呼和浩特市,如意水处理厂,颗粒物(PM10),64,77,59,45,29,161,113,96,96,23,23,10,9,0.8,0.6
2023-09-07T13:00:00,1095A,111.7276,40.8062,呼和浩特市,二十九中,细颗粒物(PM2.5),73,80,57,53,32,168,116,94,94,20,21,10,8,0.9,0.7
2023-09-07T13:00:00,1096A,111.5512,40.7866,呼和浩特市,工大金川校区,细颗粒物(PM2.5),82,72,60,60,35,182,108,117,96,20,18,6,8,0.8,0.6
2023-09-07T13:00:00,1097A,111.717,40.7612,呼和浩特市,化肥厂生活区,颗粒物(PM10),76,101,72,46,31,150,103,84,80,39,44,9,8,0.7,0.5
2023-09-07T13:00:00,1098A,123.6836,41.9339,沈阳市,森林路,,,,,,,,,,,,,,,,
2023-09-07T13:00:00,1099A,123.505,41.7406,沈阳市,浑南东路,,42,32,38,14,14,133,133,57,57,8,31,8,10,0.6,0.9
2023-09-07T13:00:00,1100A,123.4231,41.6989,沈阳市,新秀街,,42,35,39,11,12,132,132,54,54,17,47,12,12,0.7,0.7
2023-09-07T13:00:00,1102A,123.5903,41.8411,沈阳市,东陵路,,40,37,38,17,13,127,126,60,60,8,23,12,10,0.5,0.7
2023-09-07T13:00:00,1103A,123.4264,41.8467,沈阳市,陵东街,,46,33,36,15,16,146,146,56,56,12,35,10,9,0.7,0.9
2023-09-07T13:00:00,1104A,123.4114,41.7653,沈阳市,文化路,,45,38,47,18,20,144,144,61,61,12,38,8,9,0.7,0.9
2023-09-07T13:00:00,1105A,123.4678,41.7867,沈阳市,小河沿,,44,37,45,12,16,138,138,56,56,12,40,8,8,0.7,1.1
2023-09-07T13:00:00,1106A,123.4017,41.7972,沈阳市,太原街,,45,35,40,12,22,142,142,60,60,14,41,11,12,0.8,1
2023-09-07T13:00:00,1108A,123.3783,41.9228,沈阳市,京沈街,,44,39,53,22,20,138,138,62,62,10,18,13,15,0.8,1
2023-09-07T13:00:00,1109A,121.612,38.9741,大连市,甘井子,,40,19,35,9,17,163,126,102,102,16,19,4,5,0.5,0.6
2023-09-07T13:00:00,1110A,121.565,38.9511,大连市,周水子,,38,18,29,9,16,161,120,78,78,12,38,3,6,0.8,0.9
2023-09-07T13:00:00,1111A,121.5637,38.8845,大连市,星海三站,,44,30,32,15,18,199,140,91,91,8,21,7,9,0.4,0.6
2023-09-07T13:00:00,1112A,121.6302,38.9117,大连市,青泥洼桥,,38,5,31,8,17,173,119,87,87,7,36,6,7,0.4,0.8
2023-09-07T13:00:00,1113A,121.6251,38.8638,大连市,傅家庄,,50,32,34,25,23,234,158,122,122,11,21,8,10,0.6,0.7
2023-09-07T13:00:00,1114A,121.5213,38.8661,大连市,七贤岭,,49,24,34,14,15,193,155,114,114,6,14,7,7,0.6,0.7
2023-09-07T13:00:00,1115A,121.2529,38.8061,大连市,旅顺,臭氧1小时,65,30,32,21,20,172,172,111,111,12,20,7,6,0.9,0.8
2023-09-07T13:00:00,1116A,121.7485,39.1311,大连市,金州,,42,12,36,9,17,166,132,96,96,13,20,9,11,0.3,0.5
2023-09-07T13:00:00,1117A,121.7811,39.0496,大连市,开发区,,38,37,46,8,24,171,119,96,96,11,35,5,11,0.6,0.8
2023-09-07T13:00:00,1118A,121.9762,39.0631,大连市,双D港,,43,20,40,14,23,160,137,126,107,11,18,8,10,0.5,1
2023-09-07T13:00:00,1119A,125.3325,43.9166,长春市,食品厂,,34,28,88,11,43,107,107,62,62,13,44,4,6,0.4,0.6
2023-09-07T13:00:00,1120A,125.2863,43.9027,长春市,客车厂,,37,37,80,7,39,103,103,62,62,10,42,5,6,0.4,0.7
2023-09-07T13:00:00,1121A,125.2841,43.8463,长春市,邮电学院,,34,24,58,14,29,108,108,58,58,5,27,6,5,0.3,0.5
2023-09-07T13:00:00,1122A,125.3716,43.8772,长春市,劳动公园,,36,28,67,15,31,114,114,62,62,10,35,5,4,0.4,0.6
2023-09-07T13:00:00,1123A,125.3297,43.8805,长春市,园林处,,34,22,50,10,22,108,108,64,64,8,32,6,6,0.4,0.6
2023-09-07T13:00:00,1124A,125.4605,43.79,长春市,净月潭,,34,12,21,8,11,110,108,70,70,5,9,6,6,0.3,0.3
2023-09-07T13:00:00,1125A,125.7194,43.515,长春市,甩湾子,,,,,,,,,,,,,,,,
2023-09-07T13:00:00,1126A,125.3863,43.8447,长春市,经开区环卫处,,34,26,69,9,25,107,107,60,60,10,32,5,5,0.3,0.5
2023-09-07T13:00:00,1127A,125.245,43.7783,长春市,高新区管委会,,32,9,38,9,19,106,102,65,65,5,29,6,6,0.4,0.4
2023-09-07T13:00:00,1128A,125.1761,43.8325,长春市,岱山公园,,33,12,57,11,24,107,104,66,66,8,37,5,5,0.3,0.5
2023-09-07T13:00:00,1129A,126.5422,45.755,哈尔滨市,岭北,,42,20,38,10,22,134,134,84,84,7,17,14,13,0,0
2023-09-07T13:00:00,1130A,126.561,45.8167,哈尔滨市,松北商大,,41,41,42,15,17,115,115,70,70,7,26,8,7,0.5,0.6
2023-09-07T13:00:00,1131A,126.979,45.5419,哈尔滨市,阿城会宁,,38,15,49,11,27,120,120,73,73,6,16,8,7,0.7,0.6
2023-09-07T13:00:00,1132A,126.599,45.7222,哈尔滨市,南岗学府路,,38,35,53,14,22,121,121,68,68,4,29,8,9,0.6,0.6
2023-09-07T13:00:00,1133A,126.689,45.7733,哈尔滨市,太平宏伟公园,,40,40,56,13,20,110,110,63,63,8,28,5,6,0.4,0.5
2023-09-07T13:00:00,1134A,126.635,45.7667,哈尔滨市,道外承德广场,,37,27,51,13,22,116,116,70,70,13,33,5,6,0.6,0.4
2023-09-07T13:00:00,1135A,126.685,45.7319,哈尔滨市,香坊红旗大街,,41,41,59,10,29,113,113,64,64,16,36,12,12,0.4,0.6
2023-09-07T13:00:00,1136A,126.6411,45.7258,哈尔滨市,动力和平路,,,39,50,,,115,115,63,63,14,33,10,11,0.4,0.6
2023-09-07T13:00:00,1137A,126.593,45.7478,哈尔滨市,道里建国路,,38,36,51,19,22,120,120,73,73,13,30,7,8,0.7,1
2023-09-07T13:00:00,1138A,126.615,45.61,哈尔滨市,平房东轻厂,,40,40,49,18,21,114,114,72,72,4,22,6,7,0.4,0.4
2023-09-07T13:00:00,1139A,126.595,45.9855,哈尔滨市,呼兰师专,颗粒物(PM10),59,68,51,17,29,114,114,66,66,10,25,8,7,0.6,0.7
2023-09-07T13:00:00,1140A,126.6206,45.6842,哈尔滨市,省农科院,,40,40,67,11,25,126,126,72,72,9,38,7,8,0.5,0.6
2023-09-07T13:00:00,1141A,121.4,31.238,上海市,普陀,,37,34,36,19,17,118,118,85,85,13,16,6,5,0.7,0.6
2023-09-07T13:00:00,1142A,121.478,31.2036,上海市,十五厂,,45,45,38,24,23,113,113,88,88,20,20,10,11,0.9,0.8
2023-09-07T13:00:00,1143A,121.467,31.3008,上海市,虹口,,31,26,36,17,21,98,98,76,76,21,24,7,6,0.6,0.6
2023-09-07T13:00:00,1144A,121.412,31.1654,上海市,徐汇上师大,,41,32,33,23,20,130,130,91,91,14,19,6,6,0.5,0.5
2023-09-07T13:00:00,1145A,121.536,31.2659,上海市,杨浦四漂,,38,38,38,22,20,116,107,93,91,15,14,6,6,0.6,0.6
2023-09-07T13:00:00,1147A,121.425,31.2261,上海市,静安监测站,,39,34,34,24,21,124,124,95,95,17,18,4,4,0.8,0.8
2023-09-07T13:00:00,1148A,121.703,31.1907,上海市,浦东川沙,,34,31,36,22,19,111,108,96,93,3,8,5,5,0.7,0.7
2023-09-07T13:00:00,1149A,121.533,31.2284,上海市,浦东新区监测站,,34,28,33,18,18,108,108,80,80,11,16,6,6,0.5,0.5
2023-09-07T13:00:00,1150A,121.577,31.2071,上海市,浦东张江,,33,29,35,23,21,100,99,82,76,10,17,5,5,0.6,0.6
2023-09-07T13:00:00,1151A,118.8086,32.1065,南京市,迈皋桥,,45,42,31,22,14,142,142,72,72,16,18,5,4,0.5,0.3
2023-09-07T13:00:00,1152A,118.7538,32.0551,南京市,草场门,,43,36,29,22,13,136,136,81,81,13,17,2,3,0.6,0.6
2023-09-07T13:00:00,1153A,118.7794,32.0745,南京市,山西路,,46,41,35,19,15,145,145,81,81,9,16,3,4,0.5,0.3
2023-09-07T13:00:00,1154A,118.7752,32.0023,南京市,中华门,,39,31,26,14,12,123,123,76,76,3,13,3,4,0.8,0.7
2023-09-07T13:00:00,1155A,118.8109,32.0309,南京市,瑞金路,,40,31,27,17,14,128,128,73,73,2,8,12,12,0.4,0.3
2023-09-07T13:00:00,1156A,118.7997,32.0754,南京市,玄武湖,,42,34,33,16,13,134,134,74,74,10,19,6,5,0.7,0.6
2023-09-07T13:00:00,1157A,118.6414,32.0931,南京市,浦口,,48,30,31,19,14,152,152,70,70,17,23,6,5,0.4,0.3
2023-09-07T13:00:00,1158A,118.7356,31.9996,南京市,奥体中心,,39,32,29,17,18,124,124,78,78,6,14,5,6,0.5,0.4
2023-09-07T13:00:00,1159A,118.9125,32.1028,南京市,仙林大学城,,48,39,29,29,16,153,153,83,83,12,16,10,9,0.8,0.6
2023-09-07T13:00:00,1160A,120.561,31.2472,苏州市,上方山,颗粒物(PM10),51,51,29,27,21,138,138,81,81,10,10,7,7,0.5,0.4
2023-09-07T13:00:00,1162A,120.591,31.3019,苏州市,彩香,臭氧1小时,55,40,35,29,24,164,164,104,104,6,7,7,7,0.7,0.6
2023-09-07T13:00:00,1163A,120.596,31.3264,苏州市,轧钢厂,臭氧1小时,63,62,39,25,22,170,170,108,108,7,10,8,8,0.8,0.7
2023-09-07T13:00:00,1164A,120.613,31.2703,苏州市,吴中区,臭氧1小时,53,44,38,28,21,162,162,103,103,10,13,7,8,0.7,0.6
2023-09-07T13:00:00,1165A,120.543,31.2994,苏州市,苏州新区,,,46,30,,27,173,173,107,107,7,11,7,7,0.7,0.7
2023-09-07T13:00:00,1166A,120.669,31.3097,苏州市,苏州工业园区,臭氧1小时,52,38,34,27,23,161,161,105,105,11,13,8,8,0.7,0.6
2023-09-07T13:00:00,1167A,120.641,31.3708,苏州市,相城区,,50,45,34,20,23,159,159,108,108,8,10,7,9,0.7,0.6
2023-09-07T13:00:00,1168A,120.9098,31.9663,南通市,狼山街道,,40,34,30,21,15,126,125,107,107,11,15,8,8,0.5,0.5
2023-09-07T13:00:00,1169A,120.86,32.0005,南通市,虹桥,,37,33,31,22,22,125,118,114,114,9,11,5,5,0.6,0.6
2023-09-07T13:00:00,1170A,120.87,32.02,南通市,城中,,35,26,28,20,18,116,109,106,106,9,14,6,6,0.6,0.5
2023-09-07T13:00:00,1171A,120.94,31.93,南通市,星湖花园,,37,29,28,16,15,119,116,103,103,2,12,6,6,0.5,0.5
2023-09-07T13:00:00,1172A,120.81,32.0417,南通市,紫琅学院,,37,31,29,16,15,123,118,103,103,6,15,6,6,0.6,0.5
2023-09-07T13:00:00,1173A,119.176,34.5885,连云港市,市环境监测站,,,51,43,31,24,176,163,106,106,13,24,8,8,,0.5
2023-09-07T13:00:00,1177A,117.179,34.2761,徐州市,黄河新村,臭氧1小时,80,44,64,30,39,208,184,116,114,11,23,6,11,0.5,0.5
2023-09-07T13:00:00,1178A,117.1918,34.2384,徐州市,淮塔,臭氧1小时,82,50,71,23,43,216,185,115,115,9,23,11,12,0.4,0.5
2023-09-07T13:00:00,1180A,117.256,34.2153,徐州市,新城区,臭氧1小时,77,56,70,24,40,209,181,111,111,14,26,8,8,0.5,0.6
2023-09-07T13:00:00,1181A,117.244,34.2911,徐州市,桃园路,臭氧1小时,79,66,78,26,42,210,183,110,110,8,28,12,12,0.7,0.8
2023-09-07T13:00:00,1182A,117.2933,34.2778,徐州市,农科院,臭氧1小时,84,39,68,25,42,210,187,105,105,9,48,10,11,0.4,0.5
2023-09-07T13:00:00,1186A,119.389,32.3761,扬州市,邗江监测站,,42,39,33,29,20,127,127,92,92,10,11,6,6,0.5,0.5
2023-09-07T13:00:00,1188A,120.269,31.4867,无锡市,雪浪,,48,41,32,22,17,152,152,102,102,10,12,4,6,0.6,0.6
2023-09-07T13:00:00,1189A,120.275,31.6219,无锡市,黄巷,,45,45,35,27,19,137,137,92,92,12,20,6,6,0.8,0.8
2023-09-07T13:00:00,1190A,120.294,31.56,无锡市,曹张,,43,35,35,24,19,137,137,97,97,11,16,8,8,0.7,0.6
2023-09-07T13:00:00,1191A,120.242,31.5031,无锡市,漆塘,,49,44,31,29,19,155,155,105,105,11,17,6,6,0.7,0.7
2023-09-07T13:00:00,1192A,120.3489,31.5863,无锡市,东亭,,41,36,35,27,24,129,129,91,91,9,17,4,5,0.7,0.7
2023-09-07T13:00:00,1193A,120.354,31.5475,无锡市,旺庄,,47,39,32,27,22,148,148,106,106,5,10,9,9,0.8,0.8
2023-09-07T13:00:00,1194A,120.245,31.5631,无锡市,荣巷,,,,26,27,16,155,155,99,99,8,11,9,10,0.6,0.6
2023-09-07T13:00:00,1195A,120.299,31.6817,无锡市,堰桥,,42,36,30,22,18,134,134,96,96,7,13,5,6,0.5,0.5
2023-09-07T13:00:00,1196A,119.9633,31.762,常州市,市监测站,颗粒物(PM10),54,57,41,34,21,162,162,102,102,15,18,8,9,0.6,0.5
2023-09-07T13:00:00,1200A,119.9468,31.7069,常州市,武进监测站,臭氧1小时,63,45,40,31,19,170,170,107,107,8,13,6,7,0.8,0.8
2023-09-07T13:00:00,1201A,119.9255,31.9087,常州市,安家,臭氧1小时,68,56,37,42,24,174,174,89,89,12,16,9,7,1.3,0.7
2023-09-07T13:00:00,1203A,119.6707,32.1875,镇江市,新区办事处,,43,34,33,19,20,135,135,102,102,14,15,3,3,0.6,0.7
2023-09-07T13:00:00,1204A,119.4974,32.1968,镇江市,职教中心,,47,30,33,21,23,150,150,98,98,9,15,6,3,1.0,0.7
2023-09-07T13:00:00,1205A,119.4303,32.1328,镇江市,丹徒区监测站,臭氧1小时,68,46,36,25,28,174,174,102,102,10,12,3,3,0.7,0.6
2023-09-07T13:00:00,1206A,119.905,32.4878,泰州市,公园路,,39,36,32,27,23,126,117,104,104,6,9,6,7,0.7,0.7
2023-09-07T13:00:00,1207A,119.9189,32.4625,泰州市,莲花,,39,32,29,19,19,129,122,113,113,5,7,4,4,0.5,0.5
2023-09-07T13:00:00,1209A,119.888,32.4639,泰州市,留学生创业园,,39,36,36,21,20,131,124,111,111,8,10,6,6,0.5,0.5
2023-09-07T13:00:00,1210A,119.036,33.5981,淮安市,钵池山,,44,41,31,20,23,145,140,102,102,7,14,6,6,0.7,0.6
2023-09-07T13:00:00,1211A,119.007,33.575,淮安市,北京南路,,49,44,34,21,22,154,154,120,120,11,16,8,8,0.7,0.5
2023-09-07T13:00:00,1212A,118.989,33.6067,淮安市,市监测站,,49,41,38,27,21,154,154,116,116,12,18,6,6,0.6,0.5
2023-09-07T13:00:00,1213A,119.135,33.5039,淮安市,楚州区监测站,,38,34,33,19,21,128,120,106,106,6,13,7,8,0.7,0.6
2023-09-07T13:00:00,1214A,119.0186,33.6297,淮安市,淮阴区监测站,,47,41,39,22,22,153,148,107,107,10,21,7,7,0.8,0.6
2023-09-07T13:00:00,1215A,120.118,33.4022,盐城市,盐城电厂,,46,41,41,24,25,148,146,111,111,1,11,6,6,0.5,0.4
2023-09-07T13:00:00,1216A,120.156,33.3942,盐城市,市监测站,,50,39,37,20,24,160,158,118,118,9,22,4,4,0.5,0.4
2023-09-07T13:00:00,1218A,120.2144,33.38,盐城市,开发区管委会,,45,34,28,16,20,143,143,121,121,5,7,8,10,0.6,0.5
2023-09-07T13:00:00,1220A,118.293,33.9528,宿迁市,宿迁学院,,47,33,39,2,29,148,148,96,96,9,19,9,9,0.6,0.4
2023-09-07T13:00:00,1221A,118.2442,33.9592,宿迁市,宿迁中学,,45,42,43,17,27,145,142,97,87,12,20,8,7,0.6,0.6
2023-09-07T13:00:00,1223A,120.2072,30.2111,杭州市,滨江,,44,29,38,19,20,140,138,75,75,10,16,7,7,0.6,0.6
2023-09-07T13:00:00,1224A,120.0633,30.2747,杭州市,西溪,,39,30,35,18,24,122,122,66,66,7,11,3,3,0.6,0.6
2023-09-07T13:00:00,1226A,120.3461,30.3153,杭州市,下沙,,35,28,33,16,18,134,112,69,69,4,15,4,4,0.5,0.5
2023-09-07T13:00:00,1227A,120.1269,30.2456,杭州市,卧龙桥,,42,33,33,18,23,134,134,65,65,8,13,3,4,0.6,0.6
2023-09-07T13:00:00,1228A,120.1903,30.2692,杭州市,浙江农大,,39,27,29,17,21,124,123,69,69,13,18,8,8,0.6,0.5
2023-09-07T13:00:00,1230A,120.1197,30.3119,杭州市,和睦小学,,,,36,15,22,131,131,72,72,13,22,,8,0.7,0.6
2023-09-07T13:00:00,1231A,120.3019,30.4183,杭州市,临平镇,,37,25,34,13,14,123,116,76,76,4,12,4,4,0.4,0.5
2023-09-07T13:00:00,1232A,120.2697,30.1819,杭州市,城厢镇,,,44,39,26,28,140,136,75,75,,20,5,7,0.6,0.5
2023-09-07T13:00:00,1233A,120.0883,30.1808,杭州市,云栖,,42,34,37,17,19,132,132,60,60,6,13,7,6,0.6,0.6
2023-09-07T13:00:00,1234A,121.8358,29.911,宁波市,区环保大楼,,39,24,24,14,16,124,124,64,64,9,24,3,4,0.5,0.5
2023-09-07T13:00:00,1235A,121.56,29.82,宁波市,万里学院,,47,37,35,18,19,150,150,63,63,14,27,5,6,0.5,0.5
2023-09-07T13:00:00,1236A,121.713,29.9572,宁波市,龙赛医院,,39,29,38,17,17,123,123,67,67,5,19,7,8,0.5,0.5
2023-09-07T13:00:00,1239A,121.633,29.7733,宁波市,钱湖水厂,,48,22,35,20,19,153,153,72,72,9,20,6,6,0.6,0.6
2023-09-07T13:00:00,1240A,121.5856,29.8635,宁波市,太古小学,,43,26,27,21,17,135,135,62,62,17,27,6,5,0.6,0.7
2023-09-07T13:00:00,1241A,121.524,29.8674,宁波市,市环境监测中心,,45,24,26,16,16,144,144,77,77,6,16,8,8,0.3,0.4
2023-09-07T13:00:00,1242A,120.634,28.0089,温州市,瓯海,,33,32,40,23,25,104,104,44,44,13,29,6,8,0.5,0.6
2023-09-07T13:00:00,1243A,120.6748,27.9939,温州市,南浦,,35,28,37,15,18,111,111,51,51,8,25,5,6,0.4,0.5
2023-09-07T13:00:00,1244A,120.76,27.9747,温州市,龙湾,颗粒物(PM10),53,56,40,16,20,117,117,53,53,13,33,7,7,0.4,0.5
2023-09-07T13:00:00,1245A,120.6709,28.0167,温州市,市站,,34,33,39,13,21,106,106,49,49,9,26,5,6,0.4,0.6
2023-09-07T13:00:00,1247A,120.6053,29.9928,绍兴市,城东开发委,,,,31,,18,122,122,62,62,8,13,6,6,0.3,0.4
2023-09-07T13:00:00,1250A,120.0751,30.8669,湖州市,城西水厂,,34,18,33,10,21,133,107,67,67,6,15,2,3,0.4,0.4
2023-09-07T13:00:00,1252A,120.7436,30.778,嘉兴市,清河小学,,42,30,32,17,17,132,132,76,76,11,17,5,6,0.3,0.3
2023-09-07T13:00:00,1253A,120.726,30.7478,嘉兴市,嘉兴学院,,43,32,31,18,19,136,136,77,77,10,15,4,4,0.5,0.5
2023-09-07T13:00:00,1255A,121.273,28.6459,台州市,黄岩环保大楼,,37,19,40,12,25,117,117,63,63,5,15,6,6,0.4,0.5
2023-09-07T13:00:00,1256A,121.419,28.6542,台州市,台州环保大楼,,35,23,30,18,19,109,109,70,70,5,9,6,6,0.4,0.4
2023-09-07T13:00:00,1257A,121.377,28.5773,台州市,路桥田洋王,,35,24,34,18,20,110,110,69,69,3,8,4,4,0.3,0.4
2023-09-07T13:00:00,1258A,122.122,30.0203,舟山市,定海檀枫,,32,22,24,13,16,102,102,74,74,6,7,6,6,0.4,0.5
2023-09-07T13:00:00,1259A,122.3094,29.9558,舟山市,普陀东港,,41,23,25,16,16,129,129,96,96,6,6,5,4,0.4,0.5
2023-09-07T13:00:00,1260A,122.19,29.9944,舟山市,临城新区,,36,23,23,13,13,114,114,83,83,3,6,7,8,0.4,0.4
2023-09-07T13:00:00,1262A,119.647,29.077,金华市,十五中,,38,19,38,10,20,128,119,72,72,8,30,3,4,0.3,0.4
2023-09-07T13:00:00,1263A,119.686,29.1029,金华市,监测站,,41,29,44,16,27,132,129,71,71,8,34,4,5,0.3,0.5
2023-09-07T13:00:00,1264A,118.8692,28.9398,衢州市,环保大楼,,37,21,43,15,29,116,116,60,60,9,22,3,5,0.3,0.4
2023-09-07T13:00:00,1265A,118.8709,28.9666,衢州市,实验学校,,,26,43,21,23,123,123,67,67,8,20,2,3,,0.5
2023-09-07T13:00:00,1266A,118.8621,28.9808,衢州市,衢州学院,,35,20,36,11,26,111,111,60,60,10,25,4,4,0.3,0.3
2023-09-07T13:00:00,1267A,119.914,28.4514,丽水市,监测站大楼,,37,37,32,20,13,113,113,42,42,8,20,6,6,0.4,0.5
2023-09-07T13:00:00,1268A,119.93,28.4586,丽水市,莲都小学,,43,43,38,22,16,116,116,44,44,8,21,6,6,0.4,0.5
2023-09-07T13:00:00,1269A,119.879,28.4231,丽水市,余庄前,,35,23,33,12,12,112,112,42,42,8,16,5,5,0.4,0.5
2023-09-07T13:00:00,1270A,117.1959,31.7848,合肥市,明珠广场,,39,31,30,22,16,122,122,62,62,13,19,5,5,0.6,0.6
2023-09-07T13:00:00,1271A,117.3072,31.8764,合肥市,三里街,,32,24,29,14,18,102,102,51,51,9,18,5,5,0.3,0.3
2023-09-07T13:00:00,1272A,117.2588,31.8707,合肥市,琥珀山庄,,36,29,29,14,15,115,115,64,64,7,13,5,5,0.6,0.6
2023-09-07T13:00:00,1273A,117.1604,31.9052,合肥市,董铺水库,,36,24,28,9,14,115,115,64,64,6,14,5,5,0.3,0.3
2023-09-07T13:00:00,1274A,117.25,31.8571,合肥市,长江中路,,36,31,34,16,18,113,113,61,61,6,12,7,7,0.5,0.5
2023-09-07T13:00:00,1275A,117.266,31.9436,合肥市,庐阳区,,34,29,32,17,18,107,107,58,58,8,18,5,5,0.4,0.4
2023-09-07T13:00:00,1276A,117.336,31.8586,合肥市,瑶海区,,33,31,34,11,14,105,105,57,57,3,10,8,5,0.5,0.5
2023-09-07T13:00:00,1277A,117.3027,31.7964,合肥市,包河区,,35,34,33,12,17,110,110,48,48,14,38,4,7,0.6,0.5
2023-09-07T13:00:00,1278A,117.2776,31.7385,合肥市,滨湖新区,,44,44,31,19,16,119,117,70,70,6,14,8,7,0.4,0.3
2023-09-07T13:00:00,1279A,117.1318,31.8403,合肥市,高新区,,,36,30,21,18,120,120,77,77,,20,7,8,0.5,0.6
2023-09-07T13:00:00,1280A,119.3903,26.0543,福州市,鼓山,,,,,,,,,,,,,,,,
2023-09-07T13:00:00,1282A,119.2681,26.0504,福州市,师大,,,23,22,26,24,80,,80,80,8,12,3,3,0.4,0.7
2023-09-07T13:00:00,1283A,119.2984,26.1028,福州市,五四北路,,30,30,17,14,7,78,78,46,46,8,18,3,2,0.6,0.5
2023-09-07T13:00:00,1284A,119.2648,26.0768,福州市,杨桥西路,,29,29,19,13,8,79,79,44,44,5,17,4,3,0.5,0.3
2023-09-07T13:00:00,1285A,119.317,26.0746,福州市,紫阳,,33,33,17,9,7,74,73,38,38,7,18,4,3,0.5,0.5
2023-09-07T13:00:00,1286A,118.1608,24.8169,厦门市,溪东,,,,,,,,,,,,,,,,
2023-09-07T13:00:00,1287A,118.1514,24.4767,厦门市,洪文,,28,27,18,14,8,89,89,62,62,2,4,1,2,0.3,0.3
2023-09-07T13:00:00,1288A,118.0661,24.4444,厦门市,鼓浪屿,,25,22,16,14,11,78,78,54,54,1,4,1,1,0.4,0.4
2023-09-07T13:00:00,1290A,115.8931,28.6843,南昌市,省外办,,31,31,32,19,18,90,90,58,58,9,15,3,5,0.5,0.6
2023-09-07T13:00:00,1291A,115.8886,28.7003,南昌市,省林业公司,,28,22,31,12,16,88,88,58,58,6,19,5,8,0.6,0.7
2023-09-07T13:00:00,1292A,115.8126,28.7442,南昌市,林科所,,30,17,21,9,12,96,94,75,75,4,10,6,6,0.4,0.3
2023-09-07T13:00:00,1294A,115.8518,28.687,南昌市,建工学校,,33,18,29,6,12,103,103,74,74,2,13,4,6,0.4,0.5
2023-09-07T13:00:00,1295A,115.8921,28.6424,南昌市,象湖,,31,20,21,9,16,97,97,69,69,4,11,5,5,0.4,0.4
2023-09-07T13:00:00,1296A,115.7423,28.7996,南昌市,武术学校,,31,18,20,9,18,101,99,59,59,6,7,6,7,0.2,0.3
2023-09-07T13:00:00,1298A,115.9314,28.6842,南昌市,省站,,31,22,29,18,15,98,98,66,66,2,9,6,6,0.6,0.6
2023-09-07T13:00:00,1299A,116.9862,36.6114,济南市,科干所,臭氧1小时,101,58,70,37,44,244,202,116,116,10,24,7,8,0.5,0.6
2023-09-07T13:00:00,1300A,116.9376,36.665,济南市,农科所,臭氧1小时,107,56,82,29,47,262,213,94,94,11,42,8,8,0.5,0.6
2023-09-07T13:00:00,1301A,117.1265,36.6734,济南市,开发区,臭氧1小时,109,83,81,34,41,229,218,107,107,28,50,8,8,0.7,0.8
2023-09-07T13:00:00,1303A,117.0624,36.6868,济南市,省种子仓库,臭氧1小时,106,85,94,34,47,243,211,89,89,30,49,9,9,0.5,0.7
2023-09-07T13:00:00,1304A,116.9489,36.6447,济南市,机床二厂,臭氧1小时,102,66,82,27,42,246,203,103,103,13,34,6,8,0.5,0.7
2023-09-07T13:00:00,1305A,117.0495,36.663,济南市,市监测站,臭氧1小时,111,90,79,39,45,244,222,103,103,37,47,5,7,0.7,0.7
2023-09-07T13:00:00,1306A,116.7675,36.5484,济南市,长清党校,臭氧1小时,99,63,80,32,55,252,199,118,118,12,30,4,4,0.6,0.6
2023-09-07T13:00:00,1307A,120.6659,36.2403,青岛市,仰口,,34,24,39,22,31,120,107,103,84,7,7,6,6,0.6,0.5
2023-09-07T13:00:00,1310A,120.4134,36.0658,青岛市,市南区东部子站,,44,27,51,17,30,198,140,121,102,5,18,7,7,0.6,0.6
2023-09-07T13:00:00,1311A,120.3664,36.1032,青岛市,四方区子站,颗粒物(PM10),53,56,68,31,38,202,155,172,77,18,35,8,8,0.7,0.7
2023-09-07T13:00:00,1312A,120.2994,36.054,青岛市,市南区西部子站,,45,29,64,22,34,181,143,79,79,14,34,7,7,0.6,0.6
2023-09-07T13:00:00,1313A,120.4581,36.0858,青岛市,崂山区子站,,47,19,44,19,32,214,148,121,121,8,20,9,8,0.4,0.4
2023-09-07T13:00:00,1314A,120.1983,35.9608,青岛市,黄岛区子站,,49,34,65,20,39,226,156,91,91,13,41,7,8,0.7,0.7
2023-09-07T13:00:00,1315A,120.3999,36.3083,青岛市,城阳区子站,,44,36,66,17,32,153,138,94,94,11,31,6,8,0.5,0.7
2023-09-07T13:00:00,1316A,113.69031,34.76122,郑州市,烟厂,臭氧1小时,90,65,90,20,50,218,192,126,112,9,24,2,3,0.5,0.8
2023-09-07T13:00:00,1317A,113.65724,34.77134,郑州市,郑纺机,,,,89,21,50,216,192,139,119,,17,3,2,0.5,0.8
2023-09-07T13:00:00,1318A,113.67526,34.80246,郑州市,银行学校,,,,,,,,,,,,,,,,
2023-09-07T13:00:00,1319A,113.56746,34.81334,郑州市,供水公司,臭氧1小时,99,45,86,22,46,208,199,123,109,14,26,3,4,0.4,0.6
2023-09-07T13:00:00,1320A,113.7329,34.7178,郑州市,经开区管委,臭氧1小时,75,30,94,20,53,213,180,124,107,9,30,4,4,0.7,0.9
2023-09-07T13:00:00,1321A,113.73961,34.77172,郑州市,四十七中,臭氧1小时,78,36,83,7,49,202,182,107,107,9,15,3,3,0.6,0.8
2023-09-07T13:00:00,1322A,113.60532,34.74838,郑州市,市监测站,,,59,94,29,52,212,186,142,92,,26,5,6,0.5,0.7
2023-09-07T13:00:00,1323A,113.64164,34.7525,郑州市,河医大,臭氧1小时,78,54,80,22,48,194,182,127,101,11,27,4,5,0.6,0.8
2023-09-07T13:00:00,1324A,113.51488,34.91089,郑州市,岗李水库,,,,,,,,,,,,,,,,
2023-09-07T13:00:00,1325A,114.3677,30.5584,武汉市,东湖梨园,,42,33,29,17,18,134,134,79,79,8,21,8,11,0.4,0.8
2023-09-07T13:00:00,1326A,114.2529,30.558,武汉市,汉阳月湖,,47,33,29,19,15,149,149,77,77,16,28,8,8,0.7,0.8
2023-09-07T13:00:00,1327A,114.282,30.6189,武汉市,汉口花桥,,50,40,32,22,20,160,160,88,88,15,18,10,6,0.9,0.7
2023-09-07T13:00:00,1328A,114.3025,30.5332,武汉市,武昌紫阳,,39,22,28,16,16,145,124,82,82,8,20,9,10,0.3,0.6
2023-09-07T13:00:00,1329A,114.3646,30.6217,武汉市,青山钢花,,44,28,29,24,21,140,140,84,84,13,20,8,9,0.6,0.7
2023-09-07T13:00:00,1330A,114.1566,30.4825,武汉市,沌口新区,,49,28,30,24,22,156,156,92,92,12,22,8,9,0.5,0.6
2023-09-07T13:00:00,1331A,114.3014,30.5944,武汉市,汉口江滩,臭氧1小时,53,33,27,20,14,162,162,90,90,7,17,9,7,0.6,0.6
2023-09-07T13:00:00,1333A,114.135,30.6319,武汉市,吴家山,,46,20,27,20,16,147,147,89,89,10,15,9,8,0.7,0.6
2023-09-07T13:00:00,1334A,113.8454,30.2917,武汉市,沉湖七壕,臭氧1小时,54,33,28,15,13,163,163,74,74,14,20,4,4,0.6,0.7
2023-09-07T13:00:00,1335A,113.0833,28.2325,长沙市,经开区环保局,,24,14,24,11,17,78,76,59,59,2,17,6,6,0.3,0.4
2023-09-07T13:00:00,1336A,112.8872,28.2189,长沙市,高开区环保局,,33,14,32,22,22,106,104,61,61,1,15,6,6,0.4,0.6
2023-09-07T13:00:00,1337A,113.0792,28.2053,长沙市,马坡岭,,27,21,31,16,21,99,86,67,67,2,20,5,12,0.7,0.7
2023-09-07T13:00:00,1338A,112.9394,28.19,长沙市,湖南师范大学,,32,22,28,12,18,104,101,66,66,2,12,4,3,0.5,0.7
2023-09-07T13:00:00,1339A,113.0178,28.1322,长沙市,雨花区环保局,,29,17,23,15,17,96,91,60,60,3,21,6,6,0.2,0.2
2023-09-07T13:00:00,1340A,112.9792,28.2597,长沙市,伍家岭,,30,30,30,11,23,87,85,50,50,5,23,2,2,0.5,0.6
2023-09-07T13:00:00,1341A,113.0014,28.1944,长沙市,火车新站,,30,11,15,14,17,95,95,60,60,3,22,5,5,0.6,0.8
2023-09-07T13:00:00,1342A,112.9844,28.1178,长沙市,天心区环保局,,31,20,22,18,17,100,98,62,62,5,23,3,3,0.4,0.5
2023-09-07T13:00:00,1343A,112.8908,28.1308,长沙市,湖南中医药大学,,32,27,33,18,21,116,102,64,64,2,19,2,2,0.6,0.8
2023-09-07T13:00:00,1344A,112.9581,28.3611,长沙市,沙坪,,32,32,41,11,16,89,80,62,62,1,10,6,5,0.3,0.4
2023-09-07T13:00:00,1345A,113.2347,23.1423,广州市,广雅中学,,14,13,14,9,7,56,21,14,14,28,28,6,7,1.0,0.9
2023-09-07T13:00:00,1346A,113.2612,23.105,广州市,市五中,,18,14,13,12,8,79,30,18,18,16,19,6,7,0.7,0.7
2023-09-07T13:00:00,1348A,113.3478,23.0916,广州市,广东商学院,,20,20,19,11,6,70,19,18,13,23,25,3,3,0.5,0.4
2023-09-07T13:00:00,1349A,113.4332,23.1047,广州市,市八十六中,,16,16,12,9,6,64,15,16,10,20,20,4,4,0.7,0.6
2023-09-07T13:00:00,1350A,113.3505,22.9483,广州市,番禺中学,,13,8,13,8,9,88,20,14,14,26,28,5,5,0.8,0.7
2023-09-07T13:00:00,1351A,113.2146,23.3916,广州市,花都师范,,,,7,,3,58,,29,16,,11,,6,,0.8
2023-09-07T13:00:00,1352A,113.2597,23.1331,广州市,市监测站,,20,20,16,12,8,67,24,14,14,27,32,6,7,0.7,0.6
2023-09-07T13:00:00,1353A,113.5618,23.312,广州市,九龙镇镇龙,,9,4,10,3,5,54,26,14,14,12,16,7,7,0.4,0.4
2023-09-07T13:00:00,1354A,113.2765,23.1544,广州市,麓湖,,19,18,11,13,6,69,15,15,9,26,25,6,6,0.8,0.7
2023-09-07T13:00:00,1355A,113.443,23.3035,广州市,帽峰山森林公园,,9,2,6,1,3,51,26,23,19,11,11,5,5,0.3,0.3
2023-09-07T13:00:00,1356A,114.1063,22.5545,深圳市,通心岭子站,,26,24,28,18,16,147,25,27,14,36,30,4,6,0.7,0.7
2023-09-07T13:00:00,1357A,114.117,22.5625,深圳市,洪湖,,20,20,36,14,18,133,30,32,17,31,32,5,5,0.6,0.6
2023-09-07T13:00:00,1358A,113.987,22.5417,深圳市,华侨城,,22,22,26,12,12,137,33,13,12,29,32,7,7,0.8,0.8
2023-09-07T13:00:00,1359A,113.9181,22.5171,深圳市,南海子站,,32,32,38,11,13,122,44,14,14,22,33,5,5,0.6,0.7
2023-09-07T13:00:00,1360A,114.2458,22.5689,深圳市,盐田,,17,12,36,4,25,76,54,30,27,34,68,4,4,0.5,0.7
2023-09-07T13:00:00,1361A,114.2283,22.7244,深圳市,龙岗,,15,15,24,10,14,136,35,22,18,26,26,8,8,0.9,0.8
2023-09-07T13:00:00,1363A,114.494,22.5422,深圳市,南澳,,24,7,32,3,25,155,76,60,60,6,14,5,5,0.6,0.7
2023-09-07T13:00:00,1364A,114.41,22.6342,深圳市,葵涌,,23,6,34,3,24,141,73,49,49,12,22,5,5,0.5,0.7
2023-09-07T13:00:00,1365A,114.297,22.5978,深圳市,梅沙,,21,13,35,3,21,119,66,39,31,14,22,5,6,0.6,0.7
2023-09-07T13:00:00,1366A,114.0678,22.738,深圳市,观澜,,15,15,29,7,14,135,37,13,13,24,29,6,6,0.7,0.7
2023-09-07T13:00:00,1367A,113.5814,22.2618,珠海市,吉大,,26,23,29,18,16,150,46,61,24,29,21,6,5,0.7,0.7
2023-09-07T13:00:00,1368A,113.4881,22.2335,珠海市,前山,,23,23,25,15,19,151,50,86,26,24,24,8,8,0.5,0.5
2023-09-07T13:00:00,1369A,113.628,22.4251,珠海市,唐家,,26,17,23,18,12,142,71,33,30,11,16,5,6,0.5,0.4
2023-09-07T13:00:00,1370A,113.299,22.2281,珠海市,斗门,,28,28,22,14,13,157,55,37,25,17,19,7,8,0.6,0.5
2023-09-07T13:00:00,1371A,113.1294,23.0067,佛山市,湾梁,,,,6,10,9,78,28,26,20,18,15,4,5,0.6,0.5
2023-09-07T13:00:00,1372A,113.1083,23.0478,佛山市,华材职中,,13,2,8,7,9,73,22,23,13,25,21,5,5,0.4,0.4
2023-09-07T13:00:00,1373A,113.144,23.0453,佛山市,南海气象局,,12,6,12,4,9,72,18,23,14,24,19,7,7,0.6,0.5
2023-09-07T13:00:00,1374A,113.2881,22.8094,佛山市,顺德苏岗,,10,4,15,2,6,100,17,22,14,20,16,6,8,0.6,0.6
2023-09-07T13:00:00,1376A,112.8383,22.8678,佛山市,高明孔堂,,12,2,15,4,8,93,36,28,27,13,17,5,6,0.6,0.6
2023-09-07T13:00:00,1377A,112.8836,23.1588,佛山市,三水监测站,,12,0,6,8,9,67,23,23,16,22,20,4,3,0.7,0.7
2023-09-07T13:00:00,1378A,112.867,23.185,佛山市,三水云东海,,16,16,15,6,7,57,23,14,14,21,17,5,4,0.6,0.6
2023-09-07T13:00:00,1379A,113.3769,22.5211,中山市,华柏园,,26,26,15,13,10,142,48,30,28,24,21,6,6,0.6,0.5
2023-09-07T13:00:00,1380A,113.3881,22.5497,中山市,张溪,,29,20,21,20,15,152,36,29,25,24,19,4,5,0.5,0.5
2023-09-07T13:00:00,1381A,113.4075,22.5111,中山市,紫马岭,,23,23,17,11,9,147,50,28,28,18,16,5,6,0.5,0.5
2023-09-07T13:00:00,1382A,113.4411,22.4853,中山市,长江旅游区,,,,,,,,,,,,,,,,
2023-09-07T13:00:00,1383A,113.1064,22.6058,江门市,北街,,14,14,15,5,7,117,34,32,25,15,18,5,6,0.4,0.4
2023-09-07T13:00:00,1384A,113.0731,22.5835,江门市,西区,,14,6,17,3,11,113,43,32,32,12,19,4,6,0.6,0.6
2023-09-07T13:00:00,1385A,113.0219,22.5311,江门市,圭峰西,,19,19,15,4,6,115,50,36,36,8,13,3,4,0.5,0.5
2023-09-07T13:00:00,1386A,113.0828,22.5947,江门市,东湖,,14,5,12,3,7,108,42,34,30,10,14,7,8,0.5,0.5
2023-09-07T13:00:00,1389A,113.7547,23.0494,东莞市,莞城梨川,,14,4,16,3,9,61,13,11,10,27,24,5,7,0.7,0.7
2023-09-07T13:00:00,1390A,113.7944,23.0128,东莞市,东城石井,,12,5,17,4,9,62,8,9,6,23,15,2,2,0.8,0.8
2023-09-07T13:00:00,1391A,113.7383,22.9658,东莞市,南城西平,,17,9,16,6,8,57,3,4,3,34,31,6,5,1.0,1
2023-09-07T13:00:00,1392A,114.4183,23.0528,惠州市,河南岸金山湖子站,,20,7,12,6,9,81,62,53,53,13,13,4,4,0.5,0.5
2023-09-07T13:00:00,1393A,114.4053,23.0822,惠州市,下埔横江三路子站,,17,9,11,10,8,69,52,53,49,18,12,4,4,0.6,0.5
2023-09-07T13:00:00,1394A,114.4103,23.1142,惠州市,江北云山西路子站,,20,6,9,4,6,70,64,53,53,9,11,4,4,0.6,0.6
2023-09-07T13:00:00,1395A,114.4645,22.7833,惠州市,惠阳区承修路船湖子站,,15,15,29,9,17,55,25,44,15,29,24,4,4,0.8,0.9
2023-09-07T13:00:00,1396A,114.5317,22.7422,惠州市,大亚湾管委会子站,,20,11,33,8,20,130,61,107,35,27,31,5,5,0.6,0.6
2023-09-07T13:00:00,1397A,112.4267,23.0706,肇庆市,睦岗子站,,,6,10,4,6,79,40,33,28,,14,6,18,0.4,0.4
2023-09-07T13:00:00,1398A,112.4645,23.0475,肇庆市,城中子站,,13,10,12,3,5,74,41,28,28,13,23,9,9,0.6,0.6
2023-09-07T13:00:00,1399A,112.5544,23.1522,肇庆市,坑口子站,,10,0,5,1,4,62,31,24,22,15,14,3,4,0.3,0.3
2023-09-07T13:00:00,1400A,112.4753,23.1,肇庆市,七星岩子站,,,,,,,,,,,,,,,,
2023-09-07T13:00:00,1401A,108.3103,22.7881,南宁市,二十一中,,38,38,39,22,25,130,119,59,49,11,22,6,9,0.6,0.8
2023-09-07T13:00:00,1402A,108.3141,22.8528,南宁市,北湖,,35,17,45,22,29,122,111,53,53,6,26,5,9,0.6,0.8
2023-09-07T13:00:00,1403A,108.3206,22.8225,南宁市,市监测站,,35,26,41,21,25,112,110,57,49,15,33,9,13,0.6,0.7
2023-09-07T13:00:00,1404A,108.3829,22.8037,南宁市,大自然花园,,,28,30,18,22,99,81,66,49,,12,6,8,0.6,0.7
2023-09-07T13:00:00,1405A,108.4394,22.7904,南宁市,仙葫,,26,26,40,16,24,41,39,23,23,8,20,7,9,0.5,0.6
2023-09-07T13:00:00,1406A,108.2397,22.8467,南宁市,区农职院,,37,16,40,20,22,142,117,56,56,8,23,8,12,0.7,0.8
2023-09-07T13:00:00,1407A,108.3275,22.735,南宁市,英华嘉园,,29,14,39,18,26,126,91,62,49,8,24,6,8,0.6,0.7
2023-09-07T13:00:00,1408A,108.2257,22.7757,南宁市,沙井镇街道办,,38,38,59,18,33,150,113,45,45,8,33,6,8,0.6,0.8
2023-09-07T13:00:00,1409A,110.576,19.9507,海口市,东寨港,,,,,,,,,,,,,,,,
2023-09-07T13:00:00,1410A,110.3232,20.0574,海口市,海南大学,,41,31,22,23,11,131,131,71,71,6,16,6,7,0.6,0.4
2023-09-07T13:00:00,1411A,110.283,20.0053,海口市,秀英海南医院,,41,31,23,24,13,131,131,67,67,9,18,6,7,0.6,0.5
2023-09-07T13:00:00,1412A,110.338,19.9969,海口市,海南师范大学,,,38,23,25,12,147,147,76,76,10,13,8,8,,0.4
2023-09-07T13:00:00,1413A,110.33,20.0356,海口市,龙华路环保局宿舍,,41,31,21,23,12,129,129,73,73,5,13,7,7,0.5,0.5
2023-09-07T13:00:00,1414A,106.3787,29.8279,重庆市,缙云山,,42,25,21,16,14,168,133,91,91,14,12,12,12,0.3,0.3
2023-09-07T13:00:00,1416A,106.4213,29.8253,重庆市,天生,,43,36,39,12,21,158,135,82,82,13,24,6,7,0.5,0.6
2023-09-07T13:00:00,1417A,106.6263,29.7228,重庆市,两路,,47,14,25,14,21,149,149,65,65,23,43,8,10,0.6,0.9
2023-09-07T13:00:00,1418A,106.2953,29.5983,重庆市,虎溪,,44,24,35,20,23,177,138,58,58,11,34,6,5,0.5,0.6
2023-09-07T13:00:00,1419A,106.5777,29.5102,重庆市,南坪,,50,34,36,18,19,157,157,84,84,17,17,10,8,0.7,0.6
2023-09-07T13:00:00,1420A,106.6556,29.6277,重庆市,唐家沱,臭氧1小时,62,23,38,11,18,169,169,76,76,12,35,8,8,0.5,0.6
2023-09-07T13:00:00,1421A,106.6349,29.4906,重庆市,茶园,,40,26,46,17,16,126,126,66,66,10,39,6,7,0.6,0.7
2023-09-07T13:00:00,1422A,106.3754,29.4572,重庆市,白市驿,,47,34,29,20,17,149,148,81,81,15,18,7,8,0.7,0.6
2023-09-07T13:00:00,1425A,106.6205,29.7166,重庆市,空港,臭氧1小时,68,29,33,9,15,175,174,85,85,12,30,8,8,0.7,0.7
2023-09-07T13:00:00,1426A,106.4782,29.4875,重庆市,新山村,臭氧1小时,58,32,34,11,16,166,166,85,85,19,29,7,10,0.6,0.6
2023-09-07T13:00:00,1427A,106.5616,29.6453,重庆市,礼嘉,,43,22,29,12,16,136,136,60,60,15,30,11,11,0.7,0.7
2023-09-07T13:00:00,1428A,106.4522,29.7091,重庆市,蔡家,,47,35,55,11,27,162,150,68,68,13,28,8,8,0.7,0.8
2023-09-07T13:00:00,1429A,106.5093,29.3917,重庆市,鱼新街,,40,19,26,10,15,125,125,57,57,12,32,5,6,0.7,0.7
2023-09-07T13:00:00,1431A,103.9728,30.7236,成都市,金泉两河,颗粒物(PM10),58,65,56,34,35,145,104,60,60,10,19,4,5,0.5,0.6
2023-09-07T13:00:00,1432A,104.176,30.6872,成都市,十里店,细颗粒物(PM2.5),60,58,69,43,47,144,132,60,60,13,24,6,6,0.5,0.7
2023-09-07T13:00:00,1433A,104.079,30.5706,成都市,三瓦窑,颗粒物(PM10),54,57,64,35,43,161,136,70,70,19,29,4,4,0.6,0.6
2023-09-07T13:00:00,1434A,104.1114,30.63,成都市,沙河铺,颗粒物(PM10),54,58,70,28,47,153,126,80,62,19,24,5,6,0.6,0.7
2023-09-07T13:00:00,1437A,104.0786,30.6531,成都市,君平街,细颗粒物(PM2.5),65,55,67,47,50,161,138,97,71,18,22,6,8,0.6,0.7
2023-09-07T13:00:00,1438A,103.613,31.0283,成都市,灵岩寺,,40,22,32,15,25,141,125,110,96,2,6,7,12,0.7,0.8
2023-09-07T13:00:00,1439A,106.6899,26.5998,贵阳市,马鞍山,,29,17,19,14,10,100,91,61,61,6,10,24,5,0.4,0.4
2023-09-07T13:00:00,1440A,106.6971,26.5694,贵阳市,市环保站,,29,7,20,15,18,100,91,82,79,5,10,3,4,0.2,0.2
2023-09-07T13:00:00,1441A,106.6243,26.6266,贵阳市,鉴湖路,,28,24,27,19,13,98,86,76,72,6,9,4,4,0.4,0.4
2023-09-07T13:00:00,1442A,106.7487,26.6343,贵阳市,燕子冲,,,,20,,17,94,81,59,56,5,9,5,5,0.5,0.6
2023-09-07T13:00:00,1443A,106.6555,26.4365,贵阳市,碧云窝,,30,22,33,14,16,125,93,64,64,6,11,4,5,0.2,0.3
2023-09-07T13:00:00,1444A,106.694,26.5161,贵阳市,中院村,,34,34,28,9,15,100,80,69,66,6,14,6,8,0.2,0.2
2023-09-07T13:00:00,1445A,106.7109,26.6027,贵阳市,红边门,,39,22,25,27,19,96,89,72,72,5,10,4,5,0.5,0.4
2023-09-07T13:00:00,1446A,106.7164,26.5699,贵阳市,新华路,,29,17,23,14,17,100,90,77,77,4,9,4,6,0.3,0.3
2023-09-07T13:00:00,1447A,106.674,26.5424,贵阳市,太慈桥,,27,12,17,9,11,101,86,75,72,4,11,4,4,0.3,0.4
2023-09-07T13:00:00,1450A,102.8204,24.8886,昆明市,呈贡新区,,34,34,30,18,18,124,85,62,59,11,16,4,8,0.5,0.5
2023-09-07T13:00:00,1451A,102.6251,24.9608,昆明市,西山森林公园,,26,16,21,18,15,159,69,91,57,4,5,7,8,0.7,0.7
2023-09-07T13:00:00,1452A,102.7252,25.0902,昆明市,龙泉镇,,25,5,27,12,16,131,80,54,54,8,21,12,10,0.4,0.5
2023-09-07T13:00:00,1453A,102.7266,25.0375,昆明市,东风东路,,26,26,29,18,17,131,75,52,48,10,19,6,9,0.5,0.5
2023-09-07T13:00:00,1454A,102.6742,25.0669,昆明市,金鼎山,,23,18,33,16,17,140,69,67,37,11,17,7,10,0.3,0.4
2023-09-07T13:00:00,1455A,102.6644,25.0401,昆明市,碧鸡广场,,23,22,29,16,17,144,68,64,39,10,19,6,8,0.5,0.5
2023-09-07T13:00:00,1456A,91.1319,29.6514,拉萨市,八廓街,,,17,19,15,10,128,,70,70,10,19,7,6,0.4,0.3
2023-09-07T13:00:00,1457A,91.1221,29.6747,拉萨市,市环保局,,31,12,19,9,9,123,97,58,58,8,20,6,6,0.2,0.3
2023-09-07T13:00:00,1458A,91.0874,29.6475,拉萨市,区监测站,,29,12,18,8,9,117,92,56,56,9,26,8,8,0.2,0.3
2023-09-07T13:00:00,1459A,91.1774,29.6541,拉萨市,西藏大学,,31,14,13,9,8,124,99,73,67,7,10,9,8,0.2,0.3
2023-09-07T13:00:00,1460A,90.9798,29.6588,拉萨市,区辐射站,,29,14,26,8,10,121,92,66,45,8,25,10,10,0.2,0.2
2023-09-07T13:00:00,1461A,91.0834,29.6292,拉萨市,拉萨火车站,,29,20,22,5,8,119,92,74,58,7,16,6,6,0.1,0.2
2023-09-07T13:00:00,1462A,108.882,34.2749,西安市,高压开关厂,臭氧1小时,90,85,54,45,28,192,192,115,115,20,25,9,8,0.8,0.7
2023-09-07T13:00:00,1463A,108.993,34.2629,西安市,兴庆小区,臭氧1小时,64,71,42,27,20,171,171,107,107,17,14,7,6,0.6,0.5
2023-09-07T13:00:00,1464A,109.06,34.2572,西安市,纺织城,颗粒物(PM10),59,68,45,40,33,166,166,108,90,15,21,6,6,0.7,0.6
2023-09-07T13:00:00,1465A,108.9356,34.2173,西安市,小寨,臭氧1小时,87,69,41,43,23,189,189,96,96,25,18,7,6,0.7,0.6
2023-09-07T13:00:00,1466A,108.954,34.2713,西安市,市人民体育场,臭氧1小时,68,79,51,45,30,174,174,108,108,17,16,8,7,0.6,0.5
2023-09-07T13:00:00,1467A,108.8922,34.2322,西安市,高新西区,臭氧1小时,99,66,41,44,27,199,199,113,113,22,13,7,6,0.7,0.5
2023-09-07T13:00:00,1468A,108.935,34.3474,西安市,经开区,颗粒物(PM10),54,57,51,33,29,156,156,106,106,8,13,5,4,0.5,0.5
2023-09-07T13:00:00,1469A,108.906,34.1546,西安市,长安区,臭氧1小时,80,64,43,44,26,184,184,74,74,26,22,8,8,0.6,0.3
2023-09-07T13:00:00,1471A,109.2186,34.3731,西安市,临潼区,颗粒物(PM10),58,65,54,35,32,159,159,110,81,12,16,7,6,0.6,0.5
2023-09-07T13:00:00,1472A,108.869,34.378,西安市,草滩,臭氧1小时,84,71,55,24,19,187,187,119,119,14,30,10,8,0.4,0.4
2023-09-07T13:00:00,1473A,108.985,34.1978,西安市,曲江文化产业集团,臭氧1小时,79,70,43,44,24,183,183,97,90,22,18,6,5,0.7,0.5
2023-09-07T13:00:00,1474A,109.051,34.3213,西安市,广运潭,颗粒物(PM10),56,62,46,29,27,147,147,104,94,9,15,9,7,0.6,0.5
2023-09-07T13:00:00,1476A,103.631,36.1031,兰州市,兰炼宾馆,,29,27,75,20,40,168,91,82,73,9,14,2,2,0.2,0.3
2023-09-07T13:00:00,1477A,104.1373,35.9454,兰州市,榆中兰大校区,,,,,,,,,,,,,,,,
2023-09-07T13:00:00,1478A,103.8412,36.0726,兰州市,生物制品所,,49,35,106,34,47,136,72,76,65,18,15,3,4,0.9,0.8
2023-09-07T13:00:00,1479A,103.831,36.0464,兰州市,铁路设计院,,43,27,97,30,48,143,84,85,68,20,17,5,5,0.4,0.4
2023-09-07T13:00:00,1483A,101.524,36.6867,西宁市,第五水厂,,,,,,,,,,,,,,,,
2023-09-07T13:00:00,1484A,105.9512,38.6016,银川市,贺兰山马莲口,颗粒物(PM10),133,215,76,62,27,140,74,79,75,10,10,3,4,0.4,0.4
2023-09-07T13:00:00,1488A,106.2328,38.4975,银川市,贺兰山东路,,49,49,85,27,35,164,76,99,70,23,21,9,12,0.6,0.6
2023-09-07T13:00:00,1489A,106.1358,38.5036,银川市,学院路,,,,74,,25,147,68,91,58,21,14,14,11,0.5,0.6
2023-09-07T13:00:00,1490A,87.5801,43.8303,乌鲁木齐市,监测站,颗粒物(PM10),55,60,37,14,12,106,24,30,12,67,45,5,5,0.7,0.5
2023-09-07T13:00:00,1491A,87.6046,43.768,乌鲁木齐市,收费所,,48,48,34,16,17,123,53,22,21,44,40,1,3,0.7,0.4
2023-09-07T13:00:00,1492A,87.4754,43.9469,乌鲁木齐市,新疆农科院农场,颗粒物(PM10),76,101,67,21,14,89,49,14,14,34,45,5,24,0.7,0.6
2023-09-07T13:00:00,1493A,87.5525,43.8711,乌鲁木齐市,铁路局,颗粒物(PM10),60,70,42,25,12,98,44,20,16,49,44,6,5,0.7,0.5
2023-09-07T13:00:00,1494A,87.6432,43.831,乌鲁木齐市,三十一中学,,45,45,36,20,12,120,68,34,34,24,33,7,5,0.4,0.3
2023-09-07T13:00:00,1496A,87.7216,44.1747,乌鲁木齐市,米东区环保局,,38,38,29,17,12,107,73,28,28,18,20,12,7,0.3,0.3
2023-09-07T13:00:00,1508A,112.9433,27.8614,湘潭市,板塘,,25,22,29,17,14,97,75,51,51,8,21,4,5,0.4,0.5
2023-09-07T13:00:00,1511A,112.9118,27.8403,湘潭市,市监测站,,26,22,27,14,17,93,81,56,56,5,18,4,4,0.4,0.5
2023-09-07T13:00:00,1512A,112.8937,27.8728,湘潭市,江麓,,27,16,34,14,20,101,86,53,53,4,21,10,12,0.4,0.3
2023-09-07T13:00:00,1513A,112.9227,27.8159,湘潭市,岳塘,,28,24,28,16,17,100,88,60,60,8,19,5,7,0.1,0.2
2023-09-07T13:00:00,1514A,112.9074,27.9119,湘潭市,科大,,31,31,37,14,20,92,83,46,46,3,23,4,4,0.3,0.4
2023-09-07T13:00:00,1515A,113.135,27.8244,株洲市,天台山庄,,,16,26,13,15,89,79,52,52,,18,5,5,0.5,0.6
2023-09-07T13:00:00,1518A,113.095,27.8867,株洲市,株冶医院,,24,24,24,12,12,82,74,49,49,4,13,4,4,0.4,0.4
2023-09-07T13:00:00,1519A,113.167,27.8667,株洲市,市四中,,24,16,26,13,15,77,75,50,50,2,13,7,7,0.3,0.4
2023-09-07T13:00:00,1520A,113.143,27.8381,株洲市,火车站,,27,27,26,14,16,90,75,52,52,4,15,5,5,0.3,0.4
2023-09-07T13:00:00,1524A,113.13,27.8528,株洲市,市监测站,,24,18,26,11,18,90,75,47,47,3,17,7,7,0.5,0.7
2023-09-07T13:00:00,1552A,106.805,26.3003,贵阳市,桐木岭,,,,,,,,,,,,,,,,
2023-09-07T13:00:00,1559A,113.251,27.8336,株洲市,大京风景区,,23,17,21,11,12,79,73,50,50,1,4,5,5,0.3,0.3
2023-09-07T13:00:00,1562A,113.0048,27.9153,湘潭市,昭山,,25,24,30,14,16,92,77,48,48,6,20,4,4,0.3,0.4
2023-09-07T13:00:00,1564A,112.4876,27.9164,湘潭市,韶山,,,33,38,18,17,96,96,47,47,,8,,6,0.3,0.4
2023-09-07T13:00:00,1585A,109.8756,40.6532,包头市,市环境监测站,颗粒物(PM10),56,62,61,30,30,184,96,109,104,31,21,14,13,0.8,0.8
2023-09-07T13:00:00,1587A,109.9991,40.5842,包头市,包头八中,细颗粒物(PM2.5),64,76,67,46,35,185,103,114,106,31,23,30,18,1.2,0.9
2023-09-07T13:00:00,1588A,109.8538,40.6821,包头市,青山宾馆,颗粒物(PM10),68,85,56,42,32,183,102,112,110,23,19,14,12,1.1,0.8
2023-09-07T13:00:00,1589A,109.8642,40.6288,包头市,惠龙物流,颗粒物(PM10),55,60,66,38,30,188,105,107,106,29,24,17,14,0.9,0.9
2023-09-07T13:00:00,1590A,110.0377,40.5546,包头市,东河鸿龙湾,颗粒物(PM10),60,70,64,40,32,186,102,107,94,32,26,37,23,1.1,0.8
2023-09-07T13:00:00,1591A,110.0023,39.8129,鄂尔多斯市,综合楼,颗粒物(PM10),63,75,78,36,29,157,102,119,104,22,20,8,8,0.8,0.7
2023-09-07T13:00:00,1592A,109.9486,39.8261,鄂尔多斯市,巴音孟克林场办事处,颗粒物(PM10),67,83,69,41,34,170,118,130,116,15,16,9,8,0.6,0.6
2023-09-07T13:00:00,1593A,109.7736,39.5986,鄂尔多斯市,康泽苑,颗粒物(PM10),68,85,56,39,35,164,107,124,109,14,14,6,6,0.6,0.6
2023-09-07T13:00:00,1594A,109.8119,39.5989,鄂尔多斯市,华泰汽车城,颗粒物(PM10),67,83,54,41,35,157,99,119,100,13,13,8,8,0.6,0.6
2023-09-07T13:00:00,1595A,109.9734,39.7884,鄂尔多斯市,奥林花园,,,73,71,36,32,158,107,118,106,,15,8,8,0.7,0.7
2023-09-07T13:00:00,1597A,122.2703,40.7094,营口市,大庆路,,41,25,43,13,23,135,131,79,79,10,29,5,8,0.6,1
2023-09-07T13:00:00,1598A,122.2150,40.6511,营口市,镜湖西路,,43,32,38,10,17,137,137,84,84,11,27,8,9,0.7,0.7
2023-09-07T13:00:00,1599A,122.1658,40.6789,营口市,西炮台,,49,38,43,15,16,154,154,86,86,6,32,6,7,0.7,0.8
2023-09-07T13:00:00,1600A,124.3303,40.0625,丹东市,江湾东路,,34,34,26,16,11,102,92,57,57,9,23,10,7,0.6,0.6
2023-09-07T13:00:00,1601A,124.4256,40.1503,丹东市,临江后街,,32,29,19,8,6,102,102,57,57,6,21,9,9,0.6,0.5
2023-09-07T13:00:00,1602A,124.3933,40.1461,丹东市,元宝山,,31,29,19,11,9,98,98,47,47,9,15,12,9,0.6,0.5
2023-09-07T13:00:00,1603A,124.3633,40.1092,丹东市,民主桥,,31,27,18,11,6,99,99,56,56,4,21,7,5,0.7,0.6
2023-09-07T13:00:00,1604A,122.0303,41.1489,盘锦市,开发区,臭氧1小时,72,46,43,14,22,177,177,96,96,15,52,8,11,1.0,0.8
2023-09-07T13:00:00,1605A,122.0485,41.0883,盘锦市,兴隆台,臭氧1小时,64,39,48,23,21,171,171,92,92,11,40,8,10,0.9,0.8
2023-09-07T13:00:00,1606A,121.8297,41.1028,盘锦市,新生街道,,,86,31,20,13,200,200,109,109,,35,22,10,1.1,0.7
2023-09-07T13:00:00,1607A,120.9092,40.7136,葫芦岛市,龙港区,,47,47,41,29,20,141,134,78,78,16,35,18,36,0.4,0.4
2023-09-07T13:00:00,1608A,120.8392,40.7514,葫芦岛市,化工街,,41,27,48,14,20,147,129,64,64,11,39,10,22,0.2,0.4
2023-09-07T13:00:00,1609A,120.8341,40.7073,葫芦岛市,新区,,,,55,16,31,157,115,80,80,9,42,10,14,0.7,0.9
2023-09-07T13:00:00,1610A,120.8695,40.7677,葫芦岛市,东城区,,47,47,51,11,13,157,135,75,75,17,44,14,30,0.5,0.7
2023-09-07T13:00:00,1611A,118.5819,24.9117,泉州市,涂山街,,32,24,18,11,6,100,100,82,82,6,9,4,5,0.5,0.5
2023-09-07T13:00:00,1612A,118.5972,24.8978,泉州市,津头埔,,32,28,18,14,12,100,100,75,75,10,14,4,5,0.5,0.5
2023-09-07T13:00:00,1613A,118.6663,24.9424,泉州市,万安,,34,25,19,15,12,108,108,82,82,8,11,2,2,0.5,0.5
2023-09-07T13:00:00,1614A,118.6117,24.9604,泉州市,清源山,,,,,,,,,,,,,,,,
2023-09-07T13:00:00,1616A,117.6795,36.229,济南市,技术学院,臭氧1小时,52,29,54,14,26,208,161,89,89,14,27,12,10,0.7,0.8
2023-09-07T13:00:00,1618A,118.3429,35.0532,临沂市,沂河小区,臭氧1小时,52,39,53,19,28,161,161,97,97,10,18,7,7,0.3,0.5
2023-09-07T13:00:00,1619A,118.295,35.0583,临沂市,鲁南制药厂,臭氧1小时,85,36,48,17,27,191,188,124,124,8,14,5,6,0.3,0.4
2023-09-07T13:00:00,1620A,118.2794,34.9976,临沂市,新光毛纺厂,,50,29,42,14,22,166,160,105,105,8,19,8,9,0.6,0.7
2023-09-07T13:00:00,1621A,118.3956,35.0888,临沂市,河东保险公司,臭氧1小时,58,34,50,18,28,170,166,94,94,8,25,4,5,0.4,0.6
2023-09-07T13:00:00,1622A,116.3032,37.4674,德州市,儿童乐园,臭氧1小时,110,78,76,39,46,220,220,129,129,15,20,15,11,1.1,1
2023-09-07T13:00:00,1624A,116.2991,37.4451,德州市,监理站,臭氧1小时,107,70,69,41,47,213,213,124,124,8,11,15,13,0.9,0.8
2023-09-07T13:00:00,1625A,115.9848,36.4372,聊城市,区政府,臭氧1小时,104,73,77,47,55,213,208,120,119,5,18,8,7,0.6,0.6
2023-09-07T13:00:00,1628A,118.0062,37.3803,滨州市,市环保局,,47,25,55,12,35,162,150,112,112,13,19,8,10,0.3,0.3
2023-09-07T13:00:00,1629A,118.0018,37.3617,滨州市,第二水厂,臭氧1小时,53,22,54,12,35,170,162,112,112,3,12,3,5,0.5,0.7
2023-09-07T13:00:00,1630A,117.9776,37.393,滨州市,北中新校,,47,25,62,11,37,176,149,113,104,7,16,8,10,0.2,0.6
2023-09-07T13:00:00,1631A,118.0414,36.8103,淄博市,人民公园,臭氧1小时,106,41,76,14,40,249,212,140,140,12,31,13,11,0.5,0.9
2023-09-07T13:00:00,1633A,117.8525,36.4847,淄博市,双山,,42,19,44,6,23,194,134,77,77,9,21,3,4,0.2,0.4
2023-09-07T13:00:00,1634A,117.9592,36.6331,淄博市,气象站,臭氧1小时,60,28,58,22,31,188,168,83,83,6,22,12,12,0.2,0.4
2023-09-07T13:00:00,1635A,118.3092,36.8194,淄博市,莆田园,臭氧1小时,62,31,80,17,42,177,169,84,84,15,34,6,15,0.5,1.6
2023-09-07T13:00:00,1637A,117.558,34.8438,枣庄市,市中区政府,臭氧1小时,80,53,85,22,42,202,184,116,116,16,33,8,12,0.4,0.5
2023-09-07T13:00:00,1638A,117.2852,34.7837,枣庄市,薛城环保局,臭氧1小时,93,61,74,29,41,194,194,123,123,14,34,7,9,0.6,0.8
2023-09-07T13:00:00,1639A,117.5852,34.7745,枣庄市,峄城区政府,臭氧1小时,87,56,86,22,41,215,189,106,106,13,29,12,11,0.7,0.7
2023-09-07T13:00:00,1640A,117.7276,34.5578,枣庄市,台儿庄区环保局,臭氧1小时,84,46,96,24,66,224,187,98,98,12,39,11,12,0.8,0.9
2023-09-07T13:00:00,1641A,117.4518,35.0992,枣庄市,山亭区环保局,臭氧1小时,94,51,55,34,34,195,195,136,136,14,19,14,10,0.6,0.5
2023-09-07T13:00:00,1642A,121.2514,37.5639,烟台市,开发区,臭氧1小时,90,34,53,22,32,194,192,94,94,17,28,6,5,0.8,1
2023-09-07T13:00:00,1643A,121.3719,37.5433,烟台市,轴承厂,,49,34,45,26,34,176,156,110,110,10,16,10,8,0.4,0.6
2023-09-07T13:00:00,1644A,121.3181,37.5436,烟台市,西郊化工站,,45,29,50,10,36,179,143,100,100,16,22,2,2,0.6,0.8
2023-09-07T13:00:00,1645A,121.4478,37.4822,烟台市,莱山环保局,臭氧1小时,97,36,38,29,26,197,197,110,110,14,18,9,7,0.6,0.7
2023-09-07T13:00:00,1646A,121.2611,37.4967,烟台市,福山环保局,臭氧1小时,58,46,61,12,27,177,166,84,84,23,31,11,8,0.8,1
2023-09-07T13:00:00,1650A,119.1437,36.7023,潍坊市,环保局,臭氧1小时,89,44,40,21,26,191,191,114,114,14,18,16,9,1.3,0.7
2023-09-07T13:00:00,1653A,116.6251,35.4302,济宁市,火炬城,臭氧1小时,80,49,68,24,27,190,184,124,124,9,19,9,10,0.6,0.7
2023-09-07T13:00:00,1655A,116.5491,35.4042,济宁市,电化厂,臭氧1小时,70,62,75,29,31,182,176,121,121,6,17,9,11,0.7,0.7
2023-09-07T13:00:00,1656A,117.1437,36.1937,泰安市,监测站,臭氧1小时,95,58,58,35,35,196,196,124,108,8,13,11,11,0.6,0.8
2023-09-07T13:00:00,1657A,117.0885,36.2017,泰安市,人口学校,臭氧1小时,102,56,47,28,26,230,204,141,134,13,13,9,9,0.7,0.7
2023-09-07T13:00:00,1658A,117.1089,36.1758,泰安市,电力学校,臭氧1小时,103,61,72,34,35,217,206,120,100,6,16,12,11,0.6,0.6
2023-09-07T13:00:00,1659A,119.471,35.4209,日照市,监测站,臭氧1小时,92,51,51,34,33,193,193,103,103,17,41,8,7,0.8,0.8
2023-09-07T13:00:00,1660A,119.523,35.4216,日照市,市政府广场,臭氧1小时,78,46,50,35,29,182,182,109,109,10,23,7,7,0.6,0.7
2023-09-07T13:00:00,1661A,119.5587,35.4044,日照市,港务局,臭氧1小时,69,51,55,35,34,205,175,113,113,12,22,9,9,0.6,0.6
2023-09-07T13:00:00,1662A,122.1214,37.4236,威海市,华夏技校,,45,31,30,27,24,158,144,143,112,17,15,10,6,0.5,0.6
2023-09-07T13:00:00,1663A,122.0508,37.5236,威海市,山大分校,,46,39,44,20,30,209,147,124,115,8,13,10,10,0.6,0.7
2023-09-07T13:00:00,1664A,122.1067,37.5072,威海市,市监测站,,42,32,46,17,28,184,133,122,94,6,15,11,11,0.6,0.8
2023-09-07T13:00:00,1666A,118.6614,37.4309,东营市,市环保局,,41,14,34,9,24,153,129,107,107,4,5,14,6,0.2,0.4
2023-09-07T13:00:00,1669A,113.5824,24.7733,韶关市,市八中,,18,18,11,6,8,55,40,32,32,3,6,9,11,0.4,0.5
2023-09-07T13:00:00,1671A,113.5917,24.7972,韶关市,园林处,,12,6,11,4,8,40,38,29,27,1,3,9,11,0.5,0.5
2023-09-07T13:00:00,1672A,113.6735,24.7791,韶关市,韶关学院,,13,8,10,3,5,39,39,27,27,3,5,8,11,0.3,0.4
2023-09-07T13:00:00,1673A,113.5971,24.6863,韶关市,曲江监测站,,14,9,13,4,7,42,42,30,29,3,7,7,8,0.5,0.5
2023-09-07T13:00:00,1674A,116.6794,23.3667,汕头市,金平子站,,18,16,14,5,9,102,55,55,44,14,17,4,4,0.7,0.7
2023-09-07T13:00:00,1675A,116.7244,23.3633,汕头市,龙湖子站,,21,11,12,3,8,118,67,66,56,10,14,5,5,0.6,0.6
2023-09-07T13:00:00,1676A,116.7258,23.2775,汕头市,濠江子站,,18,10,13,7,10,107,57,56,46,8,15,7,7,0.3,0.4
2023-09-07T13:00:00,1677A,116.7519,23.4714,汕头市,澄海子站,,,16,16,10,10,102,55,65,43,12,13,6,3,,0.2
2023-09-07T13:00:00,1678A,116.6092,23.2539,汕头市,潮阳子站,,,,13,2,10,111,,55,43,7,10,8,7,,0.4
2023-09-07T13:00:00,1680A,110.3539,21.2706,湛江市,湛江影剧院,颗粒物(PM10),52,54,48,30,29,126,115,88,82,6,11,15,19,0.8,0.9
2023-09-07T13:00:00,1681A,110.3928,21.2228,湛江市,市环境监测站,细颗粒物(PM2.5),64,56,47,46,35,131,129,91,80,9,12,14,13,0.7,0.7
2023-09-07T13:00:00,1682A,110.4019,21.1997,湛江市,环保局宿舍,细颗粒物(PM2.5),65,56,48,47,36,140,140,88,82,15,14,14,13,0.7,0.6
2023-09-07T13:00:00,1683A,110.4111,21.2028,湛江市,霞山游泳场,细颗粒物(PM2.5),57,52,47,40,30,137,137,95,86,10,12,13,13,0.6,0.6
2023-09-07T13:00:00,1684A,110.3316,21.2679,湛江市,麻章区环保局,,,56,50,42,38,119,110,89,89,8,13,10,12,,0.7
2023-09-07T13:00:00,1685A,110.4558,21.2567,湛江市,坡头区环保局,,50,38,39,35,31,124,124,92,82,8,12,12,11,0.5,0.5
2023-09-07T13:00:00,1686A,111.0286,21.4688,茂名市,电白南海,,42,36,34,29,23,162,115,73,73,7,10,10,10,0.6,0.6
2023-09-07T13:00:00,1687A,110.9294,21.6533,茂名市,茂石化七小,,39,39,35,27,27,122,110,78,78,6,10,12,12,0.6,0.6
2023-09-07T13:00:00,1688A,110.9107,21.6687,茂名市,健康路,,35,29,33,19,19,126,110,84,82,4,7,7,10,0.6,0.7
2023-09-07T13:00:00,1689A,110.8592,21.6828,茂名市,高岭,,35,34,40,24,27,122,96,71,71,8,14,9,8,0.7,0.7
2023-09-07T13:00:00,1690A,116.1231,24.3284,梅州市,梅江月梅,,10,10,7,5,3,57,30,53,31,10,10,2,2,0.5,0.6
2023-09-07T13:00:00,1691A,116.0797,24.2719,梅州市,梅县新城,,17,17,11,5,5,67,24,53,26,17,14,6,6,0.8,0.7
2023-09-07T13:00:00,1692A,116.1248,24.2654,梅州市,环境监控中心,,10,8,11,6,7,78,30,72,32,16,12,7,7,0.6,0.5
2023-09-07T13:00:00,1693A,115.3653,22.775,汕尾市,市环保局,,25,7,15,6,10,126,77,106,83,3,5,7,6,0.5,0.6
2023-09-07T13:00:00,1694A,115.3706,22.7898,汕尾市,市政府,,30,16,19,14,11,205,95,115,89,4,6,8,7,0.4,0.7
2023-09-07T13:00:00,1695A,115.3622,22.7925,汕尾市,新城中学,,22,15,18,8,11,114,70,95,76,3,6,6,6,0.7,0.7
2023-09-07T13:00:00,1696A,114.6778,23.7569,河源市,源西,,15,8,6,5,3,62,48,52,52,8,10,4,4,0.7,0.7
2023-09-07T13:00:00,1697A,114.6944,23.7586,河源市,东埔,,15,8,9,3,2,59,46,51,51,8,8,5,5,0.8,0.7
2023-09-07T13:00:00,1698A,114.6892,23.7233,河源市,老城,,14,10,8,4,5,54,43,46,46,9,9,4,4,0.7,0.6
2023-09-07T13:00:00,1699A,111.9797,21.8593,阳江市,鸳鸯湖,,25,15,25,14,17,88,78,50,45,6,10,5,5,0.8,0.8
2023-09-07T13:00:00,1701A,111.9491,21.8658,阳江市,马南垌,,24,17,28,15,18,91,75,56,43,3,9,6,6,0.4,0.5
2023-09-07T13:00:00,1702A,113.0426,23.691,清远市,环保大楼,,11,3,8,4,7,46,33,23,18,6,12,6,6,0.6,0.6
2023-09-07T13:00:00,1703A,113.0208,23.7106,清远市,凤城街办,,9,9,9,6,5,43,21,25,16,14,13,5,5,0.6,0.6
2023-09-07T13:00:00,1705A,116.6367,23.6719,潮州市,西园路,,18,7,14,6,10,91,55,57,49,6,9,4,4,0.4,0.4
2023-09-07T13:00:00,1706A,116.6447,23.6706,潮州市,档案局,,19,3,15,4,9,95,59,61,52,4,7,5,6,0.4,0.4
2023-09-07T13:00:00,1708A,116.3701,23.5345,揭阳市,新兴,,18,12,20,12,13,91,40,52,37,12,12,8,8,0.7,0.8
2023-09-07T13:00:00,1709A,116.3264,23.5443,揭阳市,西马,,13,10,19,5,10,94,40,50,40,12,11,5,5,0.7,0.8
2023-09-07T13:00:00,1710A,116.3611,23.5626,揭阳市,东兴,,13,13,22,5,11,86,41,50,40,16,16,3,4,0.7,0.8
2023-09-07T13:00:00,1711A,116.4151,23.5294,揭阳市,渔湖,,16,8,19,2,9,94,49,57,40,12,14,4,4,0.6,0.8
2023-09-07T13:00:00,1712A,112.0392,22.9169,云浮市,新市府,,21,21,15,12,10,65,51,28,28,9,9,7,7,0.8,0.8
2023-09-07T13:00:00,1714A,112.0539,22.9539,云浮市,牧羊,,21,21,27,13,8,61,40,19,19,16,21,8,12,0.4,0.4
2023-09-07T13:00:00,1715A,102.575,24.3711,玉溪市,东风水库,,27,27,30,18,20,88,71,37,34,7,13,8,8,0.8,0.9
2023-09-07T13:00:00,1718A,115.4208,35.2464,菏泽市,气象局,臭氧1小时,118,94,87,56,49,236,236,145,132,18,30,6,6,0.8,0.7
2023-09-07T13:00:00,1719A,115.4747,35.2375,菏泽市,市政协,臭氧1小时,117,79,84,48,55,238,233,139,139,13,24,10,8,0.6,0.7
2023-09-07T13:00:00,1721A,113.3819,40.1097,大同市,果树场,,,,,,,,,,,,,,,,
2023-09-07T13:00:00,1723A,113.2994,40.0758,大同市,云冈宾馆,,50,48,53,31,25,159,159,94,94,13,26,10,10,0.5,0.5
2023-09-07T13:00:00,1724A,113.3444,40.0917,大同市,大同大学,臭氧1小时,52,43,42,27,23,161,161,109,109,9,22,10,10,0.4,0.4
2023-09-07T13:00:00,1725A,113.2661,40.1269,大同市,安家小村,,,,56,,22,158,158,107,107,10,20,13,13,0.4,0.5
2023-09-07T13:00:00,1726A,113.2711,40.0844,大同市,教育学院,"颗粒物(PM10),臭氧1小时",55,60,57,29,24,164,164,98,98,14,28,9,9,0.6,0.7
2023-09-07T13:00:00,1727A,113.1147,36.1547,长治市,清华站,,49,44,59,24,36,164,156,98,94,6,18,8,9,0.5,1
2023-09-07T13:00:00,1728A,113.1031,36.1989,长治市,监测站,臭氧1小时,67,48,55,24,36,180,173,106,106,12,28,6,8,0.7,1.3
2023-09-07T13:00:00,1730A,113.0886,36.2125,长治市,审计局,臭氧1小时,54,42,51,27,37,163,163,95,95,8,22,8,9,0.5,1
2023-09-07T13:00:00,1731A,113.0844,36.1856,长治市,长治八中,臭氧1小时,53,45,60,24,33,167,162,90,90,9,23,10,10,0.5,0.9
2023-09-07T13:00:00,1733A,111.5531,36.0783,临汾市,临钢医院,臭氧1小时,69,76,85,47,46,186,175,117,116,10,17,8,9,1.0,1
2023-09-07T13:00:00,1734A,111.5028,36.0714,临汾市,技工学校,颗粒物(PM10),70,90,91,50,55,180,175,123,123,10,17,9,9,0.9,0.9
2023-09-07T13:00:00,1736A,111.5018,36.0855,临汾市,市委,"颗粒物(PM10),细颗粒物(PM2.5)",70,89,89,51,52,170,168,120,120,11,19,10,10,0.8,0.8
2023-09-07T13:00:00,1738A,113.5758,37.8572,阳泉市,市中心,细颗粒物(PM2.5),57,48,55,40,36,161,140,58,58,19,32,19,13,0.9,0.9
2023-09-07T13:00:00,1739A,113.4894,37.8731,阳泉市,赛鱼,,46,42,55,25,33,164,147,58,58,16,30,13,9,0.7,0.8
2023-09-07T13:00:00,1740A,113.5819,37.8486,阳泉市,南庄,颗粒物(PM10),52,54,74,30,36,165,145,60,60,18,25,15,12,0.8,0.9
2023-09-07T13:00:00,1742A,113.5614,37.8703,阳泉市,平坦,,49,49,70,24,40,163,150,65,65,20,34,17,13,0.7,0.8
2023-09-07T13:00:00,1743A,113.5158,37.8392,阳泉市,大阳泉,细颗粒物(PM2.5),57,38,55,40,47,166,147,121,90,22,21,20,14,0.8,0.8
2023-09-07T13:00:00,1744A,118.9233,42.2816,赤峰市,松山一中,,47,42,68,23,36,175,150,81,81,17,33,11,15,0.5,1
2023-09-07T13:00:00,1745A,118.9576,42.2728,赤峰市,哈达街,,47,38,68,29,42,176,148,80,80,14,30,14,19,0.5,0.8
2023-09-07T13:00:00,1746A,118.8788,42.2554,赤峰市,天义路,细颗粒物(PM2.5),52,31,51,36,39,194,158,100,100,9,25,9,11,0.3,0.6
2023-09-07T13:00:00,1748A,123.044,41.1196,鞍山市,深沟寺,,39,28,28,17,10,129,124,80,80,8,14,4,6,0.6,0.6
2023-09-07T13:00:00,1749A,123.011,41.0931,鞍山市,太阳城,,41,34,26,15,11,142,129,85,85,7,16,6,9,0.7,0.8
2023-09-07T13:00:00,1750A,123.0485,41.1442,鞍山市,太平,,45,45,33,18,13,130,124,83,83,9,24,7,10,0.6,0.7
2023-09-07T13:00:00,1751A,122.9642,41.0971,鞍山市,铁西三道街,,45,45,57,17,21,134,127,62,62,9,44,6,10,0.7,1
2023-09-07T13:00:00,1752A,122.9341,41.0833,鞍山市,铁西工业园区,,,,61,,19,126,125,61,61,7,42,8,12,0.7,1
2023-09-07T13:00:00,1753A,123.022,41.0821,鞍山市,明达新区,,38,37,39,16,14,133,120,80,80,8,22,4,7,0.7,1.1
2023-09-07T13:00:00,1754A,123.1289,41.0228,鞍山市,千山,,,,,,,,,,,,,,,,
2023-09-07T13:00:00,1755A,123.7977,41.8491,抚顺市,望花区,,43,36,45,15,18,136,136,71,71,14,29,14,7,0.5,0.6
2023-09-07T13:00:00,1756A,123.9161,41.8822,抚顺市,顺城区,颗粒物(PM10),54,57,33,17,13,133,133,64,64,15,26,10,6,0.9,0.5
2023-09-07T13:00:00,1757A,124.0436,41.8611,抚顺市,东洲区,,39,30,20,13,8,124,124,60,60,8,10,7,6,0.5,0.4
2023-09-07T13:00:00,1758A,123.9247,41.8642,抚顺市,新抚区,,47,47,41,12,13,131,131,59,59,14,28,10,8,0.8,0.5
2023-09-07T13:00:00,1759A,124.0972,41.8961,抚顺市,大伙房水库,,35,19,14,9,6,114,110,58,58,3,8,7,6,0.4,0.3
2023-09-07T13:00:00,1760A,123.7086,41.8391,抚顺市,沈抚新城,,43,43,42,18,17,129,120,53,53,7,28,13,15,0.6,1
2023-09-07T13:00:00,1761A,123.8275,41.3064,本溪市,大峪,,32,30,33,18,12,106,101,50,50,7,21,6,6,0.5,0.7
2023-09-07T13:00:00,1762A,123.7567,41.3325,本溪市,溪湖,,41,41,40,12,11,108,93,39,39,10,26,13,10,0.7,0.9
2023-09-07T13:00:00,1763A,123.7169,41.3094,本溪市,彩屯,,33,33,45,17,18,99,80,34,34,23,33,16,10,1.5,1.3
2023-09-07T13:00:00,1764A,123.7669,41.2864,本溪市,东明,,31,21,37,12,12,118,97,52,52,6,28,7,7,0.6,0.7
2023-09-07T13:00:00,1765A,123.7992,41.2664,本溪市,新立屯,,30,29,24,7,10,105,94,52,52,7,30,8,8,0.5,0.5
2023-09-07T13:00:00,1766A,123.8142,41.3472,本溪市,威宁,,28,19,28,9,10,94,88,38,38,6,22,6,6,0.5,0.6
2023-09-07T13:00:00,1767A,121.1115,41.0879,锦州市,南山,颗粒物(PM10),51,52,44,25,20,156,156,81,81,18,30,18,8,0.6,0.6
2023-09-07T13:00:00,1768A,121.0533,40.8434,锦州市,开发区,颗粒物(PM10),56,61,67,17,30,135,135,68,68,20,47,18,42,0.7,0.7
2023-09-07T13:00:00,1769A,121.1836,41.1119,锦州市,百股街道,,47,34,29,12,13,152,148,78,78,11,25,13,9,0.6,0.6
2023-09-07T13:00:00,1770A,121.1178,41.1222,锦州市,天安街道,颗粒物(PM10),58,66,49,20,19,164,164,77,77,17,31,24,14,0.6,0.6
2023-09-07T13:00:00,1771A,121.1303,41.1386,锦州市,北湖公园,臭氧1小时,60,50,36,19,17,168,168,76,76,15,24,24,12,0.7,0.7
2023-09-07T13:00:00,1772A,126.54,43.8622,吉林市,哈达湾,,37,19,39,9,23,121,116,73,73,6,20,6,8,0.5,0.6
2023-09-07T13:00:00,1773A,126.5844,43.8358,吉林市,东局子,,29,23,34,12,15,115,90,63,63,6,21,6,7,0.6,0.7
2023-09-07T13:00:00,1774A,126.5052,43.8245,吉林市,电力学院,,36,23,51,8,20,116,113,66,66,7,20,9,9,0.6,0.6
2023-09-07T13:00:00,1775A,126.6133,43.8972,吉林市,江北,,34,27,43,9,20,111,108,61,61,6,26,8,9,0.6,0.7
2023-09-07T13:00:00,1776A,126.555,43.8306,吉林市,江南公园,,30,24,32,17,18,112,94,68,68,11,18,6,6,1.0,0.6
2023-09-07T13:00:00,1778A,126.7061,43.7133,吉林市,丰满,,,,,,,,,,,,,,,,
2023-09-07T13:00:00,1779A,123.9305,47.3636,齐齐哈尔市,安居小区,颗粒物(PM10),87,124,53,26,22,111,111,70,70,12,16,5,6,0.5,0.4
2023-09-07T13:00:00,1780A,123.9488,47.3386,齐齐哈尔市,中心广场,细颗粒物(PM2.5),60,63,44,43,28,117,117,74,74,9,14,3,7,0.6,0.4
2023-09-07T13:00:00,1781A,123.9483,47.3227,齐齐哈尔市,农牧车辆厂,颗粒物(PM10),85,119,47,30,19,117,117,77,77,7,10,8,8,0.5,0.3
2023-09-07T13:00:00,1783A,123.945,47.2988,齐齐哈尔市,市环境监测站,颗粒物(PM10),67,83,37,30,19,117,117,78,78,8,8,6,4,0.5,0.3
2023-09-07T13:00:00,1784A,129.61,44.561,牡丹江市,环保大楼,,32,14,21,5,11,100,100,46,46,6,12,5,6,0.4,0.4
2023-09-07T13:00:00,1785A,129.6115,44.5782,牡丹江市,文化广场,,31,26,33,4,19,99,99,44,44,7,15,6,9,0.3,0.4
2023-09-07T13:00:00,1786A,129.5904,44.5963,牡丹江市,第一医院,,30,17,26,4,13,95,95,41,41,7,13,5,7,0.3,0.3
2023-09-07T13:00:00,1787A,129.6364,44.6075,牡丹江市,机车工厂,,,,34,,8,98,98,45,45,,10,,3,0.4,0.5
2023-09-07T13:00:00,1788A,129.6386,44.5462,牡丹江市,第一中学,,29,13,18,4,7,92,92,40,40,5,10,5,5,0.4,0.4
2023-09-07T13:00:00,1789A,124.81117,46.03138,大庆市,大同区,颗粒物(PM10),55,59,47,10,27,100,100,73,73,7,15,6,9,0.3,0.4
2023-09-07T13:00:00,1790A,125.129,46.533,大庆市,龙凤区,,,118,40,17,11,101,101,72,72,,14,4,4,0.2,0.3
2023-09-07T13:00:00,1791A,124.902,46.408,大庆市,红岗区,颗粒物(PM10),51,52,33,13,18,108,86,70,70,6,12,4,4,0.4,0.5
2023-09-07T13:00:00,1792A,125.153,46.586,大庆市,萨尔图区,颗粒物(PM10),55,60,38,13,18,94,91,68,68,8,14,7,6,0.4,0.5
2023-09-07T13:00:00,1793A,124.9042,46.6215,大庆市,让胡路区,,43,43,25,4,8,101,101,74,74,5,11,4,4,0.3,0.4
2023-09-07T13:00:00,1794A,118.3606,31.3519,芜湖市,监测站,,33,22,30,17,20,107,103,61,61,4,11,6,6,0.5,0.5
2023-09-07T13:00:00,1795A,118.3714,31.4134,芜湖市,科创中心,,33,24,37,17,22,109,104,59,59,10,26,7,8,0.4,0.7
2023-09-07T13:00:00,1796A,118.3673,31.3131,芜湖市,四水厂,,37,37,32,18,20,113,108,63,63,9,16,4,4,0.5,0.5
2023-09-07T13:00:00,1798A,118.5092,31.6837,马鞍山市,湖东路四小,,34,26,29,11,21,108,108,65,65,8,12,5,6,0.4,0.4
2023-09-07T13:00:00,1799A,118.5024,31.6449,马鞍山市,开发区,,36,26,29,14,13,115,115,64,64,3,9,6,7,0.7,0.7
2023-09-07T13:00:00,1800A,118.5228,31.7231,马鞍山市,慈湖,,34,32,31,19,20,108,108,66,66,9,14,10,13,0.6,0.6
2023-09-07T13:00:00,1802A,118.6245,31.7241,马鞍山市,濮塘,,34,23,20,15,19,106,106,66,66,2,5,4,4,0.8,0.7
2023-09-07T13:00:00,1803A,115.9872,29.6815,九江市,十里,,45,45,43,24,25,142,142,82,82,12,15,9,9,0.8,0.7
2023-09-07T13:00:00,1804A,115.9584,29.7046,九江市,茅山头,,44,35,32,25,24,138,138,85,85,18,19,12,10,0.7,0.7
2023-09-07T13:00:00,1805A,115.9877,29.7295,九江市,西园,,44,41,35,22,15,141,138,90,90,20,19,11,10,0.8,0.6
2023-09-07T13:00:00,1806A,116.0172,29.6547,九江市,五七二七厂,,46,33,32,18,19,146,146,83,83,9,9,15,11,0.8,0.7
2023-09-07T13:00:00,1808A,115.9114,29.6038,九江市,综合工业园,,46,41,37,28,23,146,146,90,90,17,20,13,14,0.8,0.8
2023-09-07T13:00:00,1809A,116.0721,29.7535,九江市,石化总厂,,49,49,40,17,22,143,143,86,86,13,21,8,9,0.8,0.8
2023-09-07T13:00:00,1810A,115.9773,29.5698,九江市,庐山气象台,,34,22,20,22,18,120,107,89,89,5,4,6,9,0.8,0.7
2023-09-07T13:00:00,1812A,112.3931,34.6516,洛阳市,市委党校,细颗粒物(PM2.5),77,72,100,56,72,207,178,101,94,5,21,4,7,0.5,0.6
2023-09-07T13:00:00,1814A,112.4657,34.6871,洛阳市,豫西宾馆,,,64,99,38,66,201,163,100,100,4,20,,5,0.3,0.9
2023-09-07T13:00:00,1815A,112.494,34.6886,洛阳市,河南林校,,50,38,87,31,59,204,159,90,90,6,21,6,7,0.7,0.7
2023-09-07T13:00:00,1816A,112.3844,34.623,洛阳市,开发区管委会,臭氧1小时,73,69,93,45,58,211,178,98,95,7,20,1,2,0.4,0.6
2023-09-07T13:00:00,1817A,112.4267,34.6258,洛阳市,市委新办公区,细颗粒物(PM2.5),78,69,98,57,82,207,176,103,99,2,13,8,7,0.5,0.7
2023-09-07T13:00:00,1818A,114.4839,36.0621,安阳市,棉研所,,,,,,,,,,,,,,,,
2023-09-07T13:00:00,1819A,114.3551,36.1017,安阳市,红庙街,臭氧1小时,101,62,84,37,46,204,202,119,119,4,20,5,6,0.8,1.1
2023-09-07T13:00:00,1820A,114.361,36.0681,安阳市,银杏小区,臭氧1小时,105,60,79,,,209,209,115,115,1,17,7,6,0.6,0.8
2023-09-07T13:00:00,1824A,114.3389,34.7781,开封市,肿瘤医院,臭氧1小时,84,62,92,33,59,218,187,120,120,3,16,5,9,0.6,0.9
2023-09-07T13:00:00,1826A,114.2885,34.7965,开封市,世纪星幼儿园,,,52,85,,66,214,192,110,110,10,21,6,7,0.5,0.8
2023-09-07T13:00:00,1828A,113.227,35.2125,焦作市,市环保局,臭氧1小时,84,48,75,28,51,209,187,133,121,6,16,6,8,0.5,0.7
2023-09-07T13:00:00,1830A,113.1992,35.2590,焦作市,影视城,,,,,,,,,,,,,,,,
2023-09-07T13:00:00,1832A,113.3257,33.742,平顶山市,新华旅馆,颗粒物(PM10),51,51,85,28,44,196,151,106,106,9,28,4,5,0.5,0.7
2023-09-07T13:00:00,1833A,113.2919,33.737,平顶山市,规划设计院,颗粒物(PM10),51,51,77,29,47,197,150,111,92,9,25,7,7,0.6,0.8
2023-09-07T13:00:00,1834A,113.182,33.774,平顶山市,平顶山工学院,,,,111,29,47,200,175,110,110,12,23,7,5,0.8,0.9
2023-09-07T13:00:00,1835A,111.1922,34.7752,三门峡市,市政府,颗粒物(PM10),52,53,66,31,43,166,146,145,122,8,14,4,5,0.7,0.8
2023-09-07T13:00:00,1836A,111.1587,34.7942,三门峡市,开发区,,,50,90,40,50,177,152,129,116,11,20,,7,0.6,0.7
2023-09-07T13:00:00,1838A,111.143,34.7955,三门峡市,风景区,,,,,,,,,,,,,,,,
2023-09-07T13:00:00,1840A,111.2992,30.6981,宜昌市,白龙岗,,46,44,38,19,19,147,147,71,71,11,19,2,2,0.5,0.6
2023-09-07T13:00:00,1841A,111.3549,30.6465,宜昌市,伍家岗,,48,26,27,17,21,152,152,79,79,7,15,5,5,0.5,0.5
2023-09-07T13:00:00,1842A,111.2628,30.6961,宜昌市,点军区,,47,22,37,14,21,150,150,72,72,11,15,7,7,0.6,0.5
2023-09-07T13:00:00,1843A,111.3275,30.7819,宜昌市,夷陵区,,47,37,35,17,17,148,148,67,67,12,18,5,5,0.3,0.4
2023-09-07T13:00:00,1844A,112.2494,30.3197,荆州市,市图书馆,,,,40,20,25,136,136,94,94,9,14,12,11,0.6,0.6
2023-09-07T13:00:00,1845A,112.2008,30.3544,荆州市,市委党校,,46,46,49,28,27,135,129,96,96,5,16,11,11,0.7,0.7
2023-09-07T13:00:00,1847A,113.1094,29.3578,岳阳市,南湖风景区,,46,36,37,23,24,146,146,97,97,11,18,13,12,0.7,0.6
2023-09-07T13:00:00,1848A,113.1493,29.4251,岳阳市,城陵矶,,40,40,41,24,25,134,127,82,82,11,26,12,11,0.8,0.7
2023-09-07T13:00:00,1849A,113.1497,29.3575,岳阳市,开发区,,43,33,37,20,25,138,137,87,87,8,17,9,10,0.6,0.7
2023-09-07T13:00:00,1850A,113.2621,29.4758,岳阳市,云溪区,,38,19,35,17,26,120,120,81,81,8,14,8,9,0.6,0.7
2023-09-07T13:00:00,1851A,112.9943,29.4402,岳阳市,君山区,,42,31,36,13,28,152,132,88,88,7,12,9,9,0.6,0.6
2023-09-07T13:00:00,1852A,113.2117,29.355,岳阳市,金凤水库,,36,20,25,9,17,125,115,87,87,1,4,3,3,0.7,0.7
2023-09-07T13:00:00,1854A,111.6975,28.9703,常德市,市二中,,39,39,38,27,28,127,122,85,85,4,7,7,7,0.6,0.6
2023-09-07T13:00:00,1857A,111.7158,29.1456,常德市,白鹤山,,34,20,23,5,7,124,108,78,78,2,4,6,7,0.5,0.5
2023-09-07T13:00:00,1858A,110.5319,29.1217,张家界市,永定新区,,34,32,40,16,27,114,108,68,68,6,15,5,6,0.3,0.3
2023-09-07T13:00:00,1859A,110.4697,29.1242,张家界市,电业局,,33,30,40,14,23,111,104,63,63,4,13,3,3,0.4,0.5
2023-09-07T13:00:00,1860A,110.5594,29.3547,张家界市,未央路,,33,31,33,17,20,106,105,67,67,3,7,3,3,0.4,0.4
2023-09-07T13:00:00,1861A,110.4417,29.315,张家界市,袁家界,,30,22,23,13,17,101,95,94,90,3,4,8,8,0.6,0.6
2023-09-07T13:00:00,1862A,110.4144,25.3167,桂林市,电子科大尧山校区,,22,22,19,14,14,87,67,52,52,5,6,4,4,0.5,0.6
2023-09-07T13:00:00,1863A,110.2819,25.2697,桂林市,监测站,,37,37,28,21,15,100,69,54,54,7,10,6,7,0.6,0.6
2023-09-07T13:00:00,1864A,110.3089,25.2708,桂林市,龙隐路小学,,23,23,24,14,19,98,69,54,54,4,7,6,7,0.6,0.7
2023-09-07T13:00:00,1865A,110.2869,25.2178,桂林市,八中,,25,25,23,11,15,96,70,54,54,7,9,4,4,0.7,0.8
2023-09-07T13:00:00,1866A,109.2262,21.588,北海市,牛尾岭水库,,25,17,41,11,29,99,79,46,46,6,15,4,5,0.5,0.7
2023-09-07T13:00:00,1867A,109.1436,21.4086,北海市,海滩公园,,32,26,46,10,25,175,100,103,76,6,12,5,5,0.6,0.7
2023-09-07T13:00:00,1868A,109.0981,21.4661,北海市,新市环保局,,35,28,41,17,28,151,111,113,76,4,9,5,8,0.5,0.6
2023-09-07T13:00:00,1869A,109.1778,21.5233,北海市,北海工业园,,30,30,52,17,34,128,96,93,67,6,13,6,8,0.5,0.6
2023-09-07T13:00:00,1870A,109.4856,24.3895,柳州市,柳东小学,细颗粒物(PM2.5),53,29,25,37,24,94,62,61,48,4,6,10,10,0.3,0.3
2023-09-07T13:00:00,1871A,109.4157,24.3277,柳州市,环保监测站,,38,38,27,24,20,85,49,56,38,15,10,4,5,0.9,0.6
2023-09-07T13:00:00,1872A,109.389,24.341,柳州市,河西水厂,,34,34,33,21,23,83,54,44,40,8,12,6,7,0.3,0.3
2023-09-07T13:00:00,1873A,109.4311,24.2921,柳州市,市四中,,50,50,27,19,18,90,46,63,42,25,13,16,9,1.5,0.8
2023-09-07T13:00:00,1874A,109.4006,24.3631,柳州市,市九中,颗粒物(PM10),51,51,35,28,21,87,28,48,28,37,13,32,10,1.8,0.7
2023-09-07T13:00:00,1875A,109.4958,24.3134,柳州市,古亭山,,49,49,25,21,17,100,68,57,51,8,9,8,7,0.6,0.6
2023-09-07T13:00:00,1876A,109.5078,18.2489,三亚市,河东子站,,28,10,12,7,7,92,88,81,62,5,5,3,3,0.5,0.5
2023-09-07T13:00:00,1877A,109.4964,18.2681,三亚市,河西子站,,28,6,11,7,6,90,88,75,56,2,4,1,1,0.4,0.4
2023-09-07T13:00:00,1878A,104.7778,31.4741,绵阳市,富乐山,,49,41,53,34,37,154,118,58,58,8,25,7,5,0.6,0.7
2023-09-07T13:00:00,1879A,104.7563,31.4535,绵阳市,市人大,细颗粒物(PM2.5),63,44,56,45,38,142,116,55,55,12,26,11,10,0.5,0.6
2023-09-07T13:00:00,1880A,104.6697,31.4668,绵阳市,高新区自来水公司,,43,33,57,28,33,165,135,67,67,11,24,9,8,0.5,0.6
2023-09-07T13:00:00,1881A,104.7287,31.5075,绵阳市,三水厂,颗粒物(PM10),51,52,71,34,42,151,126,50,50,9,35,9,8,0.5,0.8
2023-09-07T13:00:00,1882A,104.563,28.793,宜宾市,石马中学,,,,,,,,,,,,,,,,
2023-09-07T13:00:00,1883A,104.6201,28.7728,宜宾市,市委,臭氧1小时,69,64,65,44,40,196,175,91,91,15,28,13,14,0.7,0.7
2023-09-07T13:00:00,1884A,104.6055,28.793,宜宾市,宜宾四中,,,53,71,36,44,230,165,95,95,,33,15,14,,0.6
2023-09-07T13:00:00,1885A,104.639,28.7562,宜宾市,市政府,臭氧1小时,101,91,75,54,41,202,201,100,100,18,33,12,13,0.7,0.6
2023-09-07T13:00:00,1886A,104.5742,28.7199,宜宾市,黄金嘴,臭氧1小时,94,74,49,53,32,213,195,94,94,18,28,13,13,0.6,0.6
2023-09-07T13:00:00,1888A,101.6891,26.571,攀枝花市,弄弄坪,颗粒物(PM10),58,65,52,33,29,136,46,62,61,47,21,28,12,3.1,1.4
2023-09-07T13:00:00,1889A,101.5769,26.5928,攀枝花市,河门口,,28,23,43,15,27,214,89,84,83,16,22,10,19,0.8,1.3
2023-09-07T13:00:00,1890A,101.7169,26.585,攀枝花市,炳草岗,,50,43,49,35,28,143,50,57,50,45,32,22,17,1.8,1.1
2023-09-07T13:00:00,1891A,101.7369,26.5008,攀枝花市,仁和,颗粒物(PM10),51,52,44,33,31,157,76,69,58,32,20,25,12,2.3,0.9
2023-09-07T13:00:00,1893A,105.4324,28.9634,泸州市,九狮山,,40,18,28,10,16,125,125,66,66,16,20,6,6,0.4,0.4
2023-09-07T13:00:00,1894A,105.4427,28.9063,泸州市,小市上码头,,,21,35,11,26,132,,65,65,6,18,5,11,0.3,0.4
2023-09-07T13:00:00,1895A,105.4241,28.8573,泸州市,兰田宪桥,,35,19,43,13,28,130,112,58,58,3,20,6,8,0.2,0.3
2023-09-07T13:00:00,1896A,105.4379,28.8833,泸州市,市环监站,,31,17,40,5,19,120,99,65,65,9,23,5,12,0.4,0.5
2023-09-07T13:00:00,1901A,104.4239,31.1208,德阳市,东山公园,颗粒物(PM10),54,57,71,21,35,141,124,94,86,7,19,3,10,0.5,0.7
2023-09-07T13:00:00,1902A,104.3826,31.1317,德阳市,西小区,颗粒物(PM10),53,55,63,28,40,137,114,83,83,12,23,1,7,0.6,0.7
2023-09-07T13:00:00,1904A,104.3553,31.1091,德阳市,耐火材料厂,颗粒物(PM10),54,57,70,22,37,142,113,77,77,11,20,3,6,0.8,0.8
2023-09-07T13:00:00,1905A,106.056,30.8064,南充市,西山风景区,,41,21,43,21,34,138,130,79,72,5,14,3,5,0.5,0.6
2023-09-07T13:00:00,1906A,106.0789,30.8023,南充市,南充市委,臭氧1小时,55,51,57,35,40,164,164,68,68,13,26,8,7,0.4,0.5
2023-09-07T13:00:00,1907A,106.1031,30.8217,南充市,南充炼油厂,,50,50,67,23,40,155,155,74,74,10,19,10,11,0.4,0.5
2023-09-07T13:00:00,1908A,106.1064,30.7856,南充市,高坪区监测站,,49,38,56,30,40,156,156,78,78,12,27,8,10,0.3,0.4
2023-09-07T13:00:00,1909A,106.0642,30.7636,南充市,嘉陵区环保局,,45,45,56,24,34,142,142,69,69,12,32,7,7,0.2,0.4
2023-09-07T13:00:00,1910A,106.1087,30.8388,南充市,市环境监测站,,45,44,61,24,39,142,142,72,72,14,22,10,10,0.4,0.4
2023-09-07T13:00:00,1911A,106.9222,27.6869,遵义市,丁字口,,29,26,32,10,20,93,90,54,54,12,23,4,5,0.6,0.7
2023-09-07T13:00:00,1912A,106.9242,27.7019,遵义市,凤凰山,,28,22,28,13,23,112,87,83,60,7,12,7,7,0.6,0.5
2023-09-07T13:00:00,1913A,106.8906,27.6486,遵义市,忠庄,,31,29,37,10,22,108,97,61,57,4,12,2,2,0.4,0.5
2023-09-07T13:00:00,1914A,106.9231,27.6506,遵义市,舟水桥,,31,22,34,15,23,108,98,54,54,5,13,2,2,0.7,0.8
2023-09-07T13:00:00,1915A,106.9178,27.72,遵义市,干田坝,,31,22,28,12,18,106,99,52,52,7,18,6,6,0.6,0.6
2023-09-07T13:00:00,1916A,103.7897,25.5035,曲靖市,环境监测站,,34,30,30,11,14,107,107,65,65,8,12,2,5,0.5,0.6
2023-09-07T13:00:00,1917A,103.8,25.5364,曲靖市,烟厂办公区,,33,20,29,14,14,110,104,65,56,5,10,4,13,0.4,0.5
2023-09-07T13:00:00,1918A,108.7197,34.3956,咸阳市,气象站,,,,,,,,,,,,,,,,
2023-09-07T13:00:00,1919A,108.673,34.3155,咸阳市,实验中学,臭氧1小时,78,62,56,34,32,182,182,122,122,11,15,7,7,0.5,0.5
2023-09-07T13:00:00,1920A,108.7233,34.3617,咸阳市,师范学院,臭氧1小时,70,51,55,34,35,176,176,120,120,14,24,5,4,0.6,0.5
2023-09-07T13:00:00,1922A,109.0656,35.0994,铜川市,党校,,42,31,58,24,36,149,132,104,104,13,19,12,12,0.6,0.7
2023-09-07T13:00:00,1923A,109.0697,35.0697,铜川市,王益区政府,,42,27,49,26,32,153,132,82,82,8,13,6,6,0.5,0.6
2023-09-07T13:00:00,1924A,108.9344,34.9058,铜川市,新区管委会,颗粒物(PM10),52,54,57,29,33,152,149,115,115,13,18,7,7,0.6,0.6
2023-09-07T13:00:00,1926A,109.4131,36.6275,延安市,枣园,颗粒物(PM10),58,65,56,38,33,146,59,16,16,34,31,7,7,0.7,0.6
2023-09-07T13:00:00,1927A,109.4761,36.6028,延安市,延大医附院,细颗粒物(PM2.5),65,68,58,47,36,143,63,19,19,41,32,5,5,0.8,0.6
2023-09-07T13:00:00,1929A,109.5056,36.6106,延安市,百米大道,颗粒物(PM10),61,71,64,39,41,147,87,50,33,34,33,7,11,1.0,1
2023-09-07T13:00:00,1930A,107.185,34.3063,宝鸡市,庙沟村,颗粒物(PM10),53,55,47,34,28,153,125,108,72,44,17,9,8,0.3,0.2
2023-09-07T13:00:00,1931A,107.0708,34.3017,宝鸡市,竹园沟,颗粒物(PM10),58,66,45,39,29,186,163,88,88,13,15,8,6,0.7,0.7
2023-09-07T13:00:00,1932A,107.1906,34.3672,宝鸡市,三陆医院,细颗粒物(PM2.5),67,75,64,48,39,195,138,71,71,19,29,18,13,0.6,0.6
2023-09-07T13:00:00,1933A,107.1431,34.3547,宝鸡市,监测站,颗粒物(PM10),60,70,58,41,35,190,142,76,76,22,28,14,8,0.6,0.5
2023-09-07T13:00:00,1934A,107.1186,34.3739,宝鸡市,技工学校,颗粒物(PM10),62,73,58,35,40,191,142,79,79,15,21,17,8,0.7,0.6
2023-09-07T13:00:00,1935A,107.3906,34.3528,宝鸡市,陈仓区环保局家属楼,颗粒物(PM10),56,61,70,38,36,196,142,72,72,15,37,17,10,0.7,0.7
2023-09-07T13:00:00,1936A,107.2058,34.3497,宝鸡市,文理学院,颗粒物(PM10),65,79,64,40,34,195,138,84,78,17,24,14,7,0.7,0.6
2023-09-07T13:00:00,1937A,107.2386,34.3622,宝鸡市,三迪小学,,,77,65,48,39,188,136,80,80,17,25,,9,0.6,0.6
2023-09-07T13:00:00,1938A,109.5293,34.5101,渭南市,农科所,细颗粒物(PM2.5),55,53,53,39,32,149,149,80,80,8,21,6,5,0.5,0.5
2023-09-07T13:00:00,1939A,109.4974,34.4877,渭南市,日报社,,49,46,56,28,35,155,155,74,74,10,38,7,5,0.4,0.5
2023-09-07T13:00:00,1940A,109.4636,34.493,渭南市,体育馆,"颗粒物(PM10),臭氧1小时",52,53,56,27,33,161,161,75,75,7,40,5,4,0.5,0.6
2023-09-07T13:00:00,1941A,109.4259,34.5023,渭南市,高新一小,颗粒物(PM10),62,74,66,31,35,153,153,97,97,10,16,6,6,0.5,0.5
2023-09-07T13:00:00,1943A,102.1725,38.5339,金昌市,新川苑,,,,,,,,,,,,,,,,
2023-09-07T13:00:00,1944A,102.1692,38.5167,金昌市,天庆家园,,36,31,177,2,40,134,113,86,86,9,13,5,5,1.1,0.6
2023-09-07T13:00:00,1945A,98.2908,39.7711,嘉峪关市,气象局,,48,48,72,17,16,121,121,66,66,6,20,3,6,0.1,0.2
2023-09-07T13:00:00,1947A,106.3394,38.817,石嘴山市,沙湖旅游区,,43,16,88,30,26,160,96,90,90,10,13,8,12,0.4,0.6
2023-09-07T13:00:00,1948A,106.3668,39.0145,石嘴山市,大武口朝阳西街,,36,7,82,4,26,155,113,109,109,6,10,3,5,0.3,0.4
2023-09-07T13:00:00,1949A,106.7704,39.2282,石嘴山市,惠农南大街,,33,29,109,23,30,154,95,99,99,18,14,9,9,0.6,0.4
2023-09-07T13:00:00,1950A,106.7099,39.1325,石嘴山市,红果子镇惠新街,,34,34,104,9,27,158,85,81,81,17,16,10,16,0.3,0.3
2023-09-07T13:00:00,1951A,84.895,45.6094,克拉玛依市,长征新村,,45,45,24,3,5,95,78,59,59,12,21,10,10,0.3,0.4
2023-09-07T13:00:00,1952A,84.8988,45.5893,克拉玛依市,南林小区,,38,38,27,11,11,95,79,39,39,14,31,7,7,0.3,0.6
2023-09-07T13:00:00,1954A,84.905,44.3396,克拉玛依市,独山子区,,28,22,17,9,10,122,88,98,60,26,14,16,10,0.7,0.5
2023-09-07T13:00:00,1955A,85.6979,46.098,克拉玛依市,乌尔禾区商贸楼,,29,4,23,12,6,94,90,40,38,6,12,6,7,0.3,0.4
2023-09-07T13:00:00,1956A,86.1472,41.7538,巴音郭楞州,孔雀公园,颗粒物(PM10),60,70,89,14,22,117,90,90,86,18,24,9,9,0.3,0.4
2023-09-07T13:00:00,1957A,86.1972,41.7166,巴音郭楞州,棉纺厂,颗粒物(PM10),57,64,92,25,28,127,98,79,79,6,26,7,8,0.3,0.4
2023-09-07T13:00:00,1958A,86.2357,41.7173,巴音郭楞州,经济开发区,颗粒物(PM10),55,59,88,11,25,125,102,90,90,5,13,10,10,0.3,0.3
2023-09-07T13:00:00,1961A,117.532,36.6868,济南市,东山小学,臭氧1小时,75,46,60,20,28,239,180,99,99,10,31,6,7,0.5,0.6
2023-09-07T13:00:00,1966A,120.0405,35.8735,青岛市,黄岛区4号,,50,41,64,27,37,184,160,113,113,7,26,6,8,0.6,0.5
2023-09-07T13:00:00,1982A,122.0693,37.2174,威海市,文登开发区,,45,34,56,19,32,175,144,130,96,10,15,7,8,0.4,0.7
2023-09-07T13:00:00,2031A,113.1817,27.9958,株洲市,云田中学,,23,16,23,9,16,78,73,50,50,3,12,6,6,0.5,0.6
2023-09-07T13:00:00,2054A,114.1099,32.1059,信阳市,平桥分局,,,9,32,16,17,140,110,70,70,,13,4,3,0.5,0.6
2023-09-07T13:00:00,2064A,113.9956,32.1271,信阳市,南湾水厂,,34,29,42,15,19,146,106,75,72,4,10,3,3,0.5,0.5
2023-09-07T13:00:00,2065A,114.0775,32.1195,信阳市,市酿酒公司,,34,28,36,15,17,141,108,79,70,10,17,3,3,0.5,0.5
2023-09-07T13:00:00,2066A,114.0609,32.1399,信阳市,审计局,,35,5,30,19,18,148,112,93,93,3,9,4,4,0.6,0.6
2023-09-07T13:00:00,2067A,114.6613,33.6128,周口市,市环境监测站,,35,12,58,14,34,194,110,108,96,11,19,4,7,0.4,0.6
2023-09-07T13:00:00,2068A,114.6758,33.6347,周口市,周口师范,,43,43,68,12,30,189,107,85,77,3,13,3,5,0.3,0.5
2023-09-07T13:00:00,2069A,114.6546,33.5979,周口市,市运管处,,35,32,65,7,31,186,109,110,96,8,18,7,10,0.4,0.6
2023-09-07T13:00:00,2070A,114.6369,33.6406,周口市,川汇区环保局,,33,32,58,5,29,182,105,92,77,2,14,6,7,0.4,0.6
2023-09-07T13:00:00,2075A,117.6336,24.4674,漳州市,九湖,,,,,,,,,,,,,,,,
2023-09-07T13:00:00,2160A,112.85,35.5051,晋城市,自来水公司,,,80,80,29,45,198,179,123,123,10,17,,9,0.9,1.1
2023-09-07T13:00:00,2161A,112.8318,35.4936,晋城市,白云商贸,臭氧1小时,80,60,75,24,42,189,184,128,128,14,21,9,9,0.8,1
2023-09-07T13:00:00,2162A,112.8508,35.4887,晋城市,市环保局,臭氧1小时,70,53,88,34,48,183,176,114,114,12,27,8,8,0.8,1
2023-09-07T13:00:00,2163A,112.8676,35.4897,晋城市,技术学院,臭氧1小时,72,68,69,29,42,186,177,110,110,14,30,8,8,0.8,1
2023-09-07T13:00:00,2165A,112.8453,35.546,晋城市,白马寺,,,,,,,,,,,,,,,,
2023-09-07T13:00:00,2166A,112.4397,39.3522,朔州市,平朔,颗粒物(PM10),51,51,52,32,33,159,152,105,96,8,15,5,7,0.7,0.6
2023-09-07T13:00:00,2167A,112.4575,39.3617,朔州市,朔唯,颗粒物(PM10),51,52,65,27,34,152,146,117,91,4,13,8,8,0.7,0.7
2023-09-07T13:00:00,2168A,112.4258,39.3197,朔州市,区政府,颗粒物(PM10),51,52,50,23,33,151,144,102,102,7,14,6,6,0.6,0.6
2023-09-07T13:00:00,2169A,112.4072,39.3278,朔州市,市环保局,,,104,60,33,31,152,151,108,103,10,15,6,6,,0.6
2023-09-07T13:00:00,2170A,112.4272,39.3681,朔州市,市二中,,50,49,54,35,35,154,150,99,99,8,17,7,9,0.7,0.8
2023-09-07T13:00:00,2171A,112.7532,37.6945,晋中市,锦纶小区,臭氧1小时,65,53,49,29,23,173,172,101,101,12,21,8,9,0.6,0.5
2023-09-07T13:00:00,2173A,112.7249,37.7067,晋中市,南都小区,臭氧1小时,72,40,50,29,32,177,177,118,118,12,20,7,7,0.5,0.5
2023-09-07T13:00:00,2174A,112.6991,37.6982,晋中市,榆次区政府,臭氧1小时,73,54,46,35,28,178,178,118,118,12,20,11,10,0.7,0.7
2023-09-07T13:00:00,2175A,110.9956,35.0147,运城市,运城中学,,,94,82,53,44,189,157,182,157,,7,4,4,0.5,0.5
2023-09-07T13:00:00,2178A,110.9686,35.0303,运城市,地区技校,颗粒物(PM10),64,77,72,36,47,173,151,171,146,6,7,4,5,0.6,0.7
2023-09-07T13:00:00,2179A,111.0414,35.1147,运城市,空港新区,,,91,86,49,50,178,159,176,164,5,8,4,4,,0.7
2023-09-07T13:00:00,2181A,112.7383,38.4519,忻州市,开发区,细颗粒物(PM2.5),67,61,62,48,42,166,154,78,78,14,26,42,14,0.8,0.7
2023-09-07T13:00:00,2182A,112.7003,38.4928,忻州市,会展中心,细颗粒物(PM2.5),74,62,63,54,43,162,162,95,78,12,25,20,8,0.7,0.7
2023-09-07T13:00:00,2183A,111.1406,37.5211,吕梁市,环保局,颗粒物(PM10),65,80,134,30,44,183,161,112,112,8,40,3,3,0.7,0.7
2023-09-07T13:00:00,2185A,111.1297,37.5136,吕梁市,自来水公司,臭氧1小时,55,53,101,33,50,191,164,95,95,10,34,4,5,0.6,0.7
2023-09-07T13:00:00,2187A,106.8174,39.6973,乌海市,市林业局,,31,22,183,21,47,141,98,105,98,4,11,8,14,0.5,0.6
2023-09-07T13:00:00,2188A,106.7907,39.6667,乌海市,中海勃湾学校,颗粒物(PM10),67,83,200,13,45,150,104,110,106,4,9,6,13,0.3,0.5
2023-09-07T13:00:00,2191A,122.2532,43.6801,通辽市,艺术职业学校,,43,35,38,9,13,136,136,106,106,12,19,7,6,0.8,0.7
2023-09-07T13:00:00,2192A,119.7594,49.2261,呼伦贝尔市,区环保局,颗粒物(PM10),91,131,46,22,23,132,132,99,99,9,14,5,6,0.4,0.4
2023-09-07T13:00:00,2195A,107.4212,40.761,巴彦淖尔市,附二中,颗粒物(PM10),55,60,141,14,39,138,86,114,85,7,9,3,5,0.5,0.5
2023-09-07T13:00:00,2196A,107.37,40.7372,巴彦淖尔市,市环保大楼,颗粒物(PM10),64,78,136,29,35,136,85,112,80,5,5,3,4,0.4,0.5
2023-09-07T13:00:00,2197A,113.1306,40.9923,乌兰察布市,集宁新区,细颗粒物(PM2.5),58,47,45,41,24,156,144,118,118,6,16,11,15,0.6,0.9
2023-09-07T13:00:00,2200A,122.0392,46.0656,兴安盟,胜华新制药厂,颗粒物(PM10),61,72,30,36,16,124,124,80,80,7,10,4,4,0.6,0.4
2023-09-07T13:00:00,2201A,121.9504,46.0741,兴安盟,科右前旗环保局,颗粒物(PM10),62,73,35,30,22,138,138,92,92,6,7,4,4,0.9,0.6
2023-09-07T13:00:00,2202A,116.1042,43.9317,锡林郭勒盟,市环保监测站,颗粒物(PM10),63,75,40,28,11,142,133,122,122,3,8,9,10,0.4,0.3
2023-09-07T13:00:00,2203A,116.0781,43.9311,锡林郭勒盟,市政府,颗粒物(PM10),54,58,30,22,10,152,141,127,127,5,12,11,11,0.4,0.3
2023-09-07T13:00:00,2204A,105.6467,38.8363,阿拉善盟,西城区西花园,,30,19,118,18,42,116,93,92,92,10,9,8,8,0.6,0.6
2023-09-07T13:00:00,2205A,105.6985,38.8411,阿拉善盟,蒙二幼,,,,172,,37,136,112,110,110,5,9,8,8,0.4,0.5
2023-09-07T13:00:00,2206A,105.724,38.8516,阿拉善盟,环保局新楼,,35,17,106,6,33,137,111,109,109,6,6,6,6,0.4,0.5
2023-09-07T13:00:00,2207A,121.6094,41.998,阜新市,工业园区,,,,52,10,17,164,162,84,84,9,27,11,10,,0.8
2023-09-07T13:00:00,2208A,121.6697,42.0279,阜新市,长青街,,48,46,60,13,24,154,152,77,77,14,30,12,14,0.6,1.7
2023-09-07T13:00:00,2209A,121.6673,42.0705,阜新市,农业园区,,49,43,46,15,26,161,155,97,97,11,22,13,24,0.7,0.8
2023-09-07T13:00:00,2210A,121.6717,42.0224,阜新市,东苑,,,52,73,,31,159,158,78,78,7,30,12,17,0.7,2.3
2023-09-07T13:00:00,2211A,121.6506,42.0498,阜新市,玉龙新城,,47,46,71,14,20,152,149,76,76,11,30,11,10,0.6,0.7
2023-09-07T13:00:00,2212A,123.2,41.1953,辽阳市,宏伟区,,40,40,30,15,13,134,105,79,79,6,20,7,12,0.4,0.6
2023-09-07T13:00:00,2213A,123.1683,41.2495,辽阳市,新华园,,35,35,53,18,17,126,101,61,61,5,28,8,23,0.5,0.8
2023-09-07T13:00:00,2214A,123.2354,41.2639,辽阳市,滨河路,,43,43,44,14,17,124,102,60,60,6,27,7,12,0.5,1
2023-09-07T13:00:00,2215A,123.149,41.2991,辽阳市,铁西工业园,,38,34,60,17,26,148,120,62,62,10,60,8,11,0.7,0.8
2023-09-07T13:00:00,2216A,123.8139,42.3022,铁岭市,汇工街西,颗粒物(PM10),64,78,31,19,13,129,129,70,70,15,24,9,22,0.6,0.5
2023-09-07T13:00:00,2217A,123.8649,42.2923,铁岭市,水上乐园,,,42,25,12,9,132,132,71,71,13,16,6,3,,0.5
2023-09-07T13:00:00,2218A,123.8486,42.2867,铁岭市,银州路东段,,46,46,22,16,7,117,117,60,60,16,18,6,4,0.6,0.4
2023-09-07T13:00:00,2219A,123.7153,42.2217,铁岭市,金沙江路北,,47,47,28,16,11,130,130,59,59,19,29,14,8,0.7,0.5
2023-09-07T13:00:00,2220A,120.4318,41.5881,朝阳市,西梁,颗粒物(PM10),51,51,67,34,37,160,152,77,77,5,26,9,13,1.0,0.9
2023-09-07T13:00:00,2221A,120.4521,41.5646,朝阳市,河畔小区,细颗粒物(PM2.5),54,37,61,38,30,170,156,85,85,6,24,9,13,1.0,0.8
2023-09-07T13:00:00,2222A,120.4176,41.5648,朝阳市,八里堡,,48,42,64,33,38,150,149,84,84,7,28,8,14,1.1,1
2023-09-07T13:00:00,2223A,120.3806,41.5969,朝阳市,农业园区,,,87,63,45,35,147,139,67,67,,26,10,12,1.1,0.9
2023-09-07T13:00:00,2225A,124.4002,43.1713,四平市,一商场,,34,29,60,8,42,108,108,77,77,8,32,7,17,0.2,0.4
2023-09-07T13:00:00,2226A,124.388,43.193,四平市,境园,,36,23,74,13,22,114,114,65,65,3,21,4,5,0.3,0.3
2023-09-07T13:00:00,2227A,125.1358,42.8845,辽源市,环保局,,30,16,25,8,14,109,94,50,50,3,18,7,10,0.4,0.7
2023-09-07T13:00:00,2229A,125.9358,41.7173,通化市,光明,,34,31,39,18,19,107,107,41,41,8,21,10,14,0.7,0.5
2023-09-07T13:00:00,2230A,125.9446,41.7325,通化市,铁路,,35,19,31,12,17,112,112,42,42,7,22,9,13,0.6,0.8
2023-09-07T13:00:00,2231A,126.4219,41.9171,白山市,喜丰,颗粒物(PM10),61,71,61,13,13,103,103,45,45,8,19,7,10,0.4,0.5
2023-09-07T13:00:00,2232A,126.4077,41.9419,白山市,环保局,,34,16,38,8,11,106,106,50,50,1,13,10,12,0.2,0.1
2023-09-07T13:00:00,2233A,124.8006,45.1214,松原市,江南,,34,29,49,13,37,108,108,78,78,6,15,7,9,0.5,0.5
2023-09-07T13:00:00,2234A,124.7965,45.1722,松原市,江北,,34,14,37,10,28,106,106,86,86,6,11,4,4,0.4,0.4
2023-09-07T13:00:00,2235A,122.7911,45.6077,白城市,洮北区环保局,颗粒物(PM10),54,57,31,11,13,125,115,92,92,5,11,5,6,0.1,0.1
2023-09-07T13:00:00,2236A,122.8738,45.5725,白城市,市环保局,,36,36,24,7,10,112,112,92,92,5,10,8,7,0.1,0.2
2023-09-07T13:00:00,2237A,129.47,42.8883,延边朝鲜族自治州,妇幼医院,,35,25,23,10,9,110,110,51,51,9,12,9,8,0.5,0.5
2023-09-07T13:00:00,2238A,129.5055,42.9108,延边朝鲜族自治州,延边医院,,,28,38,14,18,114,114,52,52,,22,,7,0.5,0.6
2023-09-07T13:00:00,2239A,129.3964,42.8881,延边朝鲜族自治州,朝阳川镇医院,,35,19,16,9,8,112,112,52,52,5,8,8,8,0.5,0.5
2023-09-07T13:00:00,2240A,130.9762,45.3001,鸡西市,环保局,颗粒物(PM10),53,55,51,17,21,54,54,26,26,19,22,11,8,0.3,0.4
2023-09-07T13:00:00,2243A,130.9429,45.3039,鸡西市,第一中学,,38,38,42,16,18,85,84,42,42,8,17,7,8,0.2,0.2
2023-09-07T13:00:00,2244A,130.2537,47.3416,鹤岗市,哈啤分公司,,23,17,27,5,14,73,73,36,36,9,13,12,13,0.3,0.3
2023-09-07T13:00:00,2245A,130.2684,47.3086,鹤岗市,斯达机电,,25,13,31,5,13,77,77,38,38,6,14,9,10,0.4,0.5
2023-09-07T13:00:00,2246A,130.3114,47.3388,鹤岗市,东山纸板厂,,,16,38,8,14,77,77,33,33,7,16,,11,0.4,0.5
2023-09-07T13:00:00,2247A,130.1097,47.3382,鹤岗市,五号水库,,24,7,11,4,7,82,75,39,39,5,7,10,10,0.3,0.3
2023-09-07T13:00:00,2248A,131.1511,46.6937,双鸭山市,双合村,,33,33,40,9,14,91,91,57,57,6,14,10,11,0.2,0.6
2023-09-07T13:00:00,2249A,131.1652,46.6191,双鸭山市,南小市,,29,29,25,13,11,88,88,52,52,4,8,5,6,0.1,0.1
2023-09-07T13:00:00,2250A,131.1524,46.6554,双鸭山市,环保局,,26,17,32,5,14,82,82,58,58,8,14,8,10,0.2,0.3
2023-09-07T13:00:00,2251A,131.12,46.5656,双鸭山市,苗圃,,39,6,14,5,7,123,123,84,84,4,5,4,4,0.3,0.4
2023-09-07T13:00:00,2252A,128.5159,47.4311,伊春市,环保局,,30,12,28,11,17,93,93,40,40,5,10,5,6,0.3,0.5
2023-09-07T13:00:00,2253A,128.9102,47.7412,伊春市,电力嘉园,,34,34,20,5,12,100,100,41,41,5,9,4,7,0.5,0.7
2023-09-07T13:00:00,2254A,129.5029,48.471,伊春市,汤旺河国家公园,,,26,18,16,11,76,,44,44,2,2,15,13,0.3,0.2
2023-09-07T13:00:00,2255A,130.2751,46.8028,佳木斯市,佳纺,,24,24,34,15,14,76,76,50,50,6,14,6,4,0.5,0.4
2023-09-07T13:00:00,2256A,130.3995,46.8307,佳木斯市,发电厂,,32,32,33,10,19,78,78,49,49,5,18,7,7,0.5,0.6
2023-09-07T13:00:00,2257A,130.3258,46.7975,佳木斯市,环保局,,30,30,42,12,22,76,76,50,50,4,18,3,6,0.4,0.5
2023-09-07T13:00:00,2258A,130.3648,46.8032,佳木斯市,十一中,,28,28,35,11,20,78,72,44,44,7,23,4,6,0.5,0.5
2023-09-07T13:00:00,2259A,130.3794,46.7588,佳木斯市,四丰,,31,18,16,10,7,98,98,70,70,2,7,1,1,0.3,0.3
2023-09-07T13:00:00,2262A,131.0518,45.8751,七台河市,新一中,,37,21,18,10,10,116,116,66,66,5,6,8,9,0.7,0.6
2023-09-07T13:00:00,2263A,127.4833,50.2524,黑河市,交通局,,,15,16,5,11,75,75,46,46,8,12,,9,0.6,0.5
2023-09-07T13:00:00,2264A,127.5144,50.2341,黑河市,环保局,,25,25,28,3,11,80,80,55,51,4,8,3,7,0.5,0.5
2023-09-07T13:00:00,2265A,127.5291,50.2472,黑河市,大黑河岛,,,2,13,11,13,,,,,2,2,1,3,0.5,0.4
2023-09-07T13:00:00,2266A,126.9785,46.6365,绥化市,人和东街,,49,49,48,17,26,126,126,66,66,10,15,5,9,0.4,0.4
2023-09-07T13:00:00,2267A,126.964,46.6528,绥化市,党政办公中心,,40,40,50,20,32,121,121,66,66,8,16,6,18,0.4,0.4
2023-09-07T13:00:00,2269A,124.1069,50.4097,大兴安岭地区,科技局,,25,25,25,10,8,56,56,40,40,3,8,4,4,0.4,0.3
2023-09-07T13:00:00,2270A,117.396,32.939,蚌埠市,工人疗养院,,32,20,37,7,13,104,102,60,60,2,17,3,5,0.3,0.3
2023-09-07T13:00:00,2271A,117.3605,32.9427,蚌埠市,百货大楼,,39,39,41,13,15,115,115,63,63,5,15,5,6,0.2,0.3
2023-09-07T13:00:00,2273A,117.4185,32.8911,蚌埠市,蚌埠学院,,29,24,34,15,19,92,92,54,54,14,31,11,9,0.3,0.3
2023-09-07T13:00:00,2274A,117.3533,32.9673,蚌埠市,淮上区政府,,35,34,35,20,19,112,112,60,60,5,17,5,5,0.3,0.3
2023-09-07T13:00:00,2275A,117.3145,32.8977,蚌埠市,高新区,,,22,25,8,14,112,112,74,74,9,15,5,5,,0.4
2023-09-07T13:00:00,2277A,116.8305,32.7727,淮南市,潘集区政府,,44,35,35,18,19,138,138,69,69,8,15,7,8,0.2,0.2
2023-09-07T13:00:00,2278A,117.0067,32.6524,淮南市,师范学院,,40,31,35,19,15,128,128,76,76,11,14,11,9,0.3,0.3
2023-09-07T13:00:00,2279A,116.8569,32.5951,淮南市,谢家集区政府,,39,21,29,8,8,124,124,83,83,6,18,7,8,0.1,0.1
2023-09-07T13:00:00,2280A,116.8281,32.633,淮南市,八公山区政府,,40,34,38,17,19,126,126,69,69,8,14,10,8,0.3,0.3
2023-09-07T13:00:00,2281A,116.6325,32.6201,淮南市,焦岗湖风景区管理处,,29,29,30,8,7,90,83,55,55,2,14,3,3,0.2,0.2
2023-09-07T13:00:00,2282A,116.8004,33.975,淮北市,监测站,,50,31,47,27,31,174,159,107,107,7,14,2,2,0.3,0.4
2023-09-07T13:00:00,2283A,116.8091,33.9007,淮北市,烈山区政府,臭氧1小时,53,36,48,24,31,178,162,115,115,6,10,7,6,0.4,0.4
2023-09-07T13:00:00,2285A,117.8177,30.9412,铜陵市,市第四中学,,27,14,33,0,18,112,86,59,52,2,9,2,6,0,0.2
2023-09-07T13:00:00,2286A,117.8059,30.9273,铜陵市,市公路局,,30,24,35,17,22,124,95,68,57,5,11,5,6,0.3,0.4
2023-09-07T13:00:00,2287A,117.7807,30.9413,铜陵市,市新民污水厂,,30,28,44,12,18,127,93,59,59,4,13,6,7,0.3,0.4
2023-09-07T13:00:00,2288A,117.7439,30.8792,铜陵市,市第九中学,,30,28,47,11,19,120,94,71,64,5,16,4,9,0.2,0.7
2023-09-07T13:00:00,2289A,117.846,30.9413,铜陵市,车站新区,,30,21,34,13,22,121,93,62,52,4,12,5,5,0.3,0.4
2023-09-07T13:00:00,2290A,117.8483,30.97,铜陵市,市职教基地,,25,10,31,1,13,116,80,49,49,5,10,4,4,0.4,0.5
2023-09-07T13:00:00,2291A,117.0809,30.5177,安庆市,环科院,,48,43,42,25,23,152,152,78,78,11,15,6,8,0.6,0.6
2023-09-07T13:00:00,2292A,117.0331,30.5119,安庆市,马山宾馆,,,44,33,25,23,152,152,90,90,,14,5,6,0.6,0.7
2023-09-07T13:00:00,2294A,116.9896,30.6145,安庆市,安庆大学,,,38,34,,21,131,131,79,79,8,10,6,6,0.6,0.6
2023-09-07T13:00:00,2295A,118.2903,29.6963,黄山市,延安路89号,,,,34,,7,100,91,49,49,2,7,4,4,,0.3
2023-09-07T13:00:00,2296A,118.327,29.7178,黄山市,黄山东路89号,,27,22,20,6,6,84,84,52,52,2,8,4,4,0.3,0.4
2023-09-07T13:00:00,2297A,118.1371,30.2756,黄山市,黄山区政府5号楼,,32,16,29,15,11,105,100,56,56,5,7,6,6,0.3,0.4
2023-09-07T13:00:00,2298A,118.3093,32.3153,滁州市,老年大学,,33,27,27,10,11,105,105,72,72,7,14,10,9,0.2,0.2
2023-09-07T13:00:00,2299A,118.3244,32.2786,滁州市,人大宾馆,,33,21,24,14,15,105,104,67,67,10,15,7,8,0.3,0.4
2023-09-07T13:00:00,2301A,115.8277,32.8929,阜阳市,市监测站,,35,16,23,16,15,115,110,75,75,3,11,7,7,0.3,0.4
2023-09-07T13:00:00,2303A,115.8554,32.8605,阜阳市,开发区,,36,33,34,22,27,114,114,70,70,8,17,8,9,0.4,0.4
2023-09-07T13:00:00,2307A,116.5079,31.737,六安市,监测大楼,,36,30,28,9,10,120,115,56,56,5,13,4,5,0.5,0.4
2023-09-07T13:00:00,2308A,116.4738,31.7643,六安市,皖西学院,,38,32,35,12,10,124,121,58,58,7,17,8,8,0.1,0.2
2023-09-07T13:00:00,2309A,116.4996,31.7905,六安市,朝阳厂,,38,18,27,16,11,121,119,57,57,5,18,10,10,0.5,0.5
2023-09-07T13:00:00,2310A,116.5567,31.7886,六安市,开发区,,39,39,37,18,16,117,113,57,57,4,15,6,6,0.4,0.4
2023-09-07T13:00:00,2311A,115.8072,33.8399,亳州市,污水处理厂,,42,31,53,17,30,164,133,81,81,2,16,8,13,0.5,0.7
2023-09-07T13:00:00,2312A,115.7789,33.8518,亳州市,三国揽胜宫,,41,32,49,22,33,161,131,101,93,5,14,7,11,0.6,0.7
2023-09-07T13:00:00,2314A,117.47,30.6618,池州市,池州学院,,44,41,47,26,30,140,140,77,77,10,27,6,6,0.6,0.7
2023-09-07T13:00:00,2316A,118.7581,30.9454,宣城市,鳌峰子站,,32,27,37,19,24,122,100,79,58,15,18,4,4,0.5,0.6
2023-09-07T13:00:00,2317A,118.7385,30.9743,宣城市,敬亭山子站,,,30,42,20,23,120,97,51,51,16,23,7,7,,0.5
2023-09-07T13:00:00,2318A,118.7173,30.9427,宣城市,开发区子站,,31,31,35,18,23,123,95,78,54,13,16,5,5,0.4,0.5
2023-09-07T13:00:00,2319A,119.0141,25.4325,莆田市,荔城区仓后路,,26,25,14,13,8,82,82,51,51,6,8,8,8,0.7,0.8
2023-09-07T13:00:00,2320A,119.0015,25.4553,莆田市,莆田市监测站,,27,8,15,10,6,85,85,56,56,4,3,6,6,0.5,0.5
2023-09-07T13:00:00,2321A,119.1119,25.4561,莆田市,涵江区六中,,35,35,18,12,10,92,92,77,65,5,9,7,7,0.6,0.6
2023-09-07T13:00:00,2322A,119.1013,25.3215,莆田市,秀屿区政府,,31,31,19,14,9,84,84,62,60,9,10,7,7,0.6,0.6
2023-09-07T13:00:00,2323A,118.981,25.4792,莆田市,东圳水库,,,,,,,,,,,,,,,,
2023-09-07T13:00:00,2324A,117.6211,26.2625,三明市,三钢,,20,16,15,12,10,63,63,40,40,6,7,6,7,0.5,0.5
2023-09-07T13:00:00,2325A,117.635,26.2714,三明市,三明二中,,22,13,17,15,12,64,64,39,39,10,13,3,4,0.6,0.6
2023-09-07T13:00:00,2326A,117.6028,26.2378,三明市,三元区政府,,23,23,17,10,12,66,66,42,42,6,10,7,8,0.6,0.6
2023-09-07T13:00:00,2327A,117.7275,26.3108,三明市,洋溪,,,,,,,,,,,,,,,,
2023-09-07T13:00:00,2331A,118.0966,26.6761,南平市,茫荡山,,,,,,,,,,,,,,,,
2023-09-07T13:00:00,2332A,118.1681,26.6369,南平市,南平市监测站,,20,18,20,12,11,63,63,34,34,8,10,4,4,0.6,0.5
2023-09-07T13:00:00,2333A,118.1825,26.6489,南平市,南平铝业有限公司,,19,17,19,13,11,54,54,27,27,7,12,3,4,0.5,0.6
2023-09-07T13:00:00,2334A,118.1756,26.6272,南平市,南平七中,,24,24,18,12,12,56,52,28,28,2,6,4,4,0.5,0.5
2023-09-07T13:00:00,2335A,117.0189,25.1181,龙岩市,龙岩师专,,,,,,,,,,,,,,,,
2023-09-07T13:00:00,2336A,117.0217,25.1033,龙岩市,龙岩市监测站,,19,19,9,10,4,59,59,45,45,9,8,6,4,0.4,0.3
2023-09-07T13:00:00,2337A,117.0258,25.0661,龙岩市,闽西职业技术学院,,18,16,10,8,4,56,56,42,42,4,5,6,5,0.3,0.3
2023-09-07T13:00:00,2338A,117.0196,25.0306,龙岩市,龙岩学院,,25,25,9,13,6,52,52,36,36,7,7,6,3,0.4,0.3
2023-09-07T13:00:00,2339A,119.5001,26.6946,宁德市,金涵水库,,,,,,,,,,,,,,,,
2023-09-07T13:00:00,2341A,119.5388,26.6612,宁德市,宁德市监测站,,30,30,33,9,20,58,58,35,35,8,16,4,4,0.4,0.7
2023-09-07T13:00:00,2342A,117.3102,29.3867,景德镇市,王港中学,,42,16,17,29,12,83,83,40,40,3,4,3,4,0.3,0.4
2023-09-07T13:00:00,2343A,117.2117,29.2933,景德镇市,老干部活动中心,,29,23,21,11,16,92,92,48,48,5,7,4,4,0.2,0.2
2023-09-07T13:00:00,2344A,117.1894,29.2789,景德镇市,兽医站,,41,41,24,22,20,90,90,51,51,5,9,5,6,0.4,0.4
2023-09-07T13:00:00,2345A,117.1547,29.2617,景德镇市,台达陶瓷,,30,20,20,20,13,95,95,53,53,5,9,4,4,0.3,0.3
2023-09-07T13:00:00,2346A,117.2461,29.2956,景德镇市,陶研所,,29,16,31,3,10,91,91,51,51,5,7,4,4,0.3,0.3
2023-09-07T13:00:00,2347A,114.0997,27.5002,萍乡市,武功山,,15,5,10,3,5,50,46,26,26,2,4,9,9,0.3,0.3
2023-09-07T13:00:00,2348A,113.8385,27.6434,萍乡市,中医院,,22,17,31,12,22,78,70,58,57,5,8,9,21,0.5,0.5
2023-09-07T13:00:00,2349A,113.8493,27.6253,萍乡市,市政府车库,,36,36,35,23,22,77,68,56,56,7,9,14,24,1.0,0.5
2023-09-07T13:00:00,2350A,113.8676,27.6435,萍乡市,市环保局,,28,28,29,16,21,89,79,66,65,3,8,5,22,0.4,0.4
2023-09-07T13:00:00,2351A,113.866,27.6198,萍乡市,安源区政府,,,25,35,,24,80,69,56,56,8,15,8,17,0.7,1.2
2023-09-07T13:00:00,2352A,115.0861,27.9317,新余市,北岗,,34,34,27,13,19,82,82,43,43,2,8,13,15,0.6,0.6
2023-09-07T13:00:00,2353A,114.9886,27.8431,新余市,飞宇,,38,38,43,22,21,81,80,50,46,6,13,8,15,0.3,0.3
2023-09-07T13:00:00,2354A,114.9231,27.8246,新余市,第二水厂,,38,38,38,18,19,91,66,47,38,9,15,6,8,0.1,0.2
2023-09-07T13:00:00,2355A,114.9308,27.8036,新余市,市气象局,,39,39,37,15,23,82,76,61,45,4,11,8,12,0.7,0.6
2023-09-07T13:00:00,2357A,116.9822,28.1136,鹰潭市,龙虎山,,29,21,29,20,22,76,62,59,42,3,3,4,5,0.4,0.4
2023-09-07T13:00:00,2358A,117.0564,28.2642,鹰潭市,新监测站,,43,43,42,22,28,133,133,71,71,5,12,10,10,0.6,0.6
2023-09-07T13:00:00,2359A,117.0311,28.2475,鹰潭市,财苑宾馆,,41,32,42,20,25,130,130,73,73,5,11,6,7,0.4,0.4
2023-09-07T13:00:00,2360A,117.0222,28.2264,鹰潭市,体育馆,,37,32,41,15,27,118,118,65,65,4,10,5,6,0.3,0.4
2023-09-07T13:00:00,2361A,117.0017,28.2131,鹰潭市,三川水表,,36,22,40,25,25,115,115,62,62,3,11,5,4,0.7,0.6
2023-09-07T13:00:00,2362A,114.9017,25.9149,赣州市,通天岩,,,,,,,,,,,,,,,,
2023-09-07T13:00:00,2363A,114.9367,25.8664,赣州市,地委,,17,14,18,9,8,52,52,32,32,3,5,12,13,0.9,1
2023-09-07T13:00:00,2364A,114.9461,25.8481,赣州市,气象台,,17,17,16,7,11,50,50,28,28,10,12,6,6,0.7,0.6
2023-09-07T13:00:00,2365A,114.9322,25.8333,赣州市,市图书馆,,22,22,20,11,10,51,51,30,30,8,10,4,6,0.7,0.8
2023-09-07T13:00:00,2366A,114.8905,25.8471,赣州市,华坚鞋城,,26,26,24,7,12,52,52,30,30,6,7,3,2,0.6,0.6
2023-09-07T13:00:00,2367A,114.9754,27.0803,吉安市,红声器材厂,,29,29,37,15,22,63,53,52,45,8,11,2,9,0.6,0.6
2023-09-07T13:00:00,2368A,114.9658,27.0999,吉安市,市森林工业局,,27,27,37,16,22,63,52,41,41,3,10,12,13,1.2,1.4
2023-09-07T13:00:00,2369A,114.99,27.1312,吉安市,市环境监测站,,25,25,35,9,18,62,53,48,38,5,13,14,9,0.6,0.6
2023-09-07T13:00:00,2370A,115.0093,27.0968,吉安市,青原区法院,,26,26,35,14,20,61,52,47,43,10,12,14,17,0.6,0.6
2023-09-07T13:00:00,2371A,114.3408,27.8064,宜春市,槟榔水业,,36,36,30,19,17,75,72,45,45,12,14,2,2,0.9,1
2023-09-07T13:00:00,2373A,114.3956,27.7844,宜春市,市石油公司,,50,50,37,24,22,80,73,51,51,10,12,6,6,0.7,0.7
2023-09-07T13:00:00,2374A,114.3703,27.7914,宜春市,市气象局,,45,45,36,20,23,78,76,52,52,12,14,6,5,0.8,0.8
2023-09-07T13:00:00,2375A,114.4013,27.8074,宜春市,市广电局,,,59,37,40,23,82,80,55,55,,10,11,7,0.8,0.8
2023-09-07T13:00:00,2376A,116.2127,28.0814,抚州市,桐源党溪,,42,42,37,27,22,78,75,44,44,7,4,4,3,0.8,0.7
2023-09-07T13:00:00,2377A,116.3544,27.9831,抚州市,市站,颗粒物(PM10),53,56,49,32,30,84,68,45,43,15,16,5,5,0.6,0.6
2023-09-07T13:00:00,2378A,116.3565,27.963,抚州市,血防站,颗粒物(PM10),52,53,49,32,27,83,68,51,43,5,9,5,5,0.7,0.7
2023-09-07T13:00:00,2379A,116.3564,28.0007,抚州市,采茶剧团,,47,47,43,27,28,84,71,39,39,8,13,2,2,1.0,1
2023-09-07T13:00:00,2380A,116.385,27.9647,抚州市,医学分院,,40,40,43,24,24,82,69,48,42,11,14,8,9,0.7,0.7
2023-09-07T13:00:00,2381A,118.005,28.4572,上饶市,百草园,,,,,,,,,,,,,,,,
2023-09-07T13:00:00,2382A,117.9756,28.4436,上饶市,市监测站,,40,39,38,20,21,128,128,80,80,5,9,7,8,0.3,0.4
2023-09-07T13:00:00,2383A,117.9519,28.4628,上饶市,凤凰光学,,39,28,38,12,20,122,122,65,65,5,12,4,4,0.3,0.4
2023-09-07T13:00:00,2385A,114.17,35.9019,鹤壁市,市监测站,臭氧1小时,100,50,77,43,51,208,200,140,140,10,26,7,7,0.8,0.8
2023-09-07T13:00:00,2386A,114.2956,35.7511,鹤壁市,市交警支队,臭氧1小时,87,54,73,37,47,194,189,125,125,10,24,7,7,0.6,0.7
2023-09-07T13:00:00,2387A,114.2878,35.7306,鹤壁市,迎宾馆,臭氧1小时,93,57,62,39,44,201,194,119,119,15,29,9,11,0.7,0.8
2023-09-07T13:00:00,2389A,113.836,35.311,新乡市,环保西院,臭氧1小时,92,54,70,35,43,213,193,120,112,9,21,8,7,0.6,1
2023-09-07T13:00:00,2390A,113.884,35.272,新乡市,开发区,臭氧1小时,80,41,53,24,40,206,184,121,121,3,14,4,5,0.5,0.6
2023-09-07T13:00:00,2391A,113.883,35.303,新乡市,环保东院,臭氧1小时,82,56,75,28,40,208,185,130,130,9,23,5,7,0.5,0.7
2023-09-07T13:00:00,2392A,115.0312,35.7636,濮阳市,环保局,臭氧1小时,123,82,67,66,53,245,245,145,145,16,17,6,7,0.9,0.8
2023-09-07T13:00:00,2394A,115.0574,35.7609,濮阳市,油田运输公司,臭氧1小时,117,94,86,69,56,234,234,145,145,15,15,10,10,0.8,0.8
2023-09-07T13:00:00,2395A,115.0866,35.7754,濮阳市,油田物探公司,臭氧1小时,108,86,82,63,60,216,216,125,125,11,14,6,7,0.7,0.7
2023-09-07T13:00:00,2396A,113.8276,34.0159,许昌市,监测站,,50,50,81,17,49,221,142,104,104,8,19,4,5,0.2,0.5
2023-09-07T13:00:00,2398A,113.7906,33.9953,许昌市,开发区,,43,41,84,19,53,213,137,89,89,4,18,3,3,0.4,0.7
2023-09-07T13:00:00,2399A,114.051,33.5699,漯河市,三五一五工厂,,34,20,61,10,33,188,108,92,83,1,20,7,14,0.3,0.6
2023-09-07T13:00:00,2400A,114.0055,33.5698,漯河市,漯河大学,,37,25,58,14,33,195,116,116,91,6,19,7,10,0.3,0.6
2023-09-07T13:00:00,2401A,114.0138,33.5828,漯河市,市水利局,,36,24,59,15,39,192,114,120,85,5,19,7,13,0.3,0.6
2023-09-07T13:00:00,2402A,114.0261,33.5698,漯河市,市广电局,,36,24,60,14,35,194,113,127,94,4,16,6,12,0.2,0.5
2023-09-07T13:00:00,2404A,112.5224,33.0122,南阳市,瓦房庄,,39,29,57,22,32,162,123,126,109,3,12,4,5,0.4,0.7
2023-09-07T13:00:00,2405A,112.5003,32.9735,南阳市,汉画馆,,39,35,52,18,31,164,124,119,114,7,12,6,6,0.5,0.6
2023-09-07T13:00:00,2406A,112.5573,33.027,南阳市,气象站,,37,30,54,13,29,162,117,110,103,8,13,8,8,0.6,0.7
2023-09-07T13:00:00,2407A,112.5481,32.9689,南阳市,理工学院,,39,30,54,14,33,168,124,124,112,4,11,5,5,0.3,0.5
2023-09-07T13:00:00,2408A,115.6702,34.4285,商丘市,环境监测站,臭氧1小时,52,40,61,23,31,170,161,123,108,5,20,6,8,0.5,0.6
2023-09-07T13:00:00,2409A,115.6458,34.4045,商丘市,粮食局,臭氧1小时,57,35,53,28,32,176,165,117,106,5,19,3,4,0.5,0.6
2023-09-07T13:00:00,2410A,115.6293,34.3948,商丘市,睢阳区环保局,臭氧1小时,57,49,77,21,32,180,165,98,98,5,25,6,7,0.5,0.5
2023-09-07T13:00:00,2420A,114.0189,32.9656,驻马店市,市一纸厂,,,25,46,15,25,170,114,93,65,3,19,,7,,0.5
2023-09-07T13:00:00,2421A,114.0114,33.015,驻马店市,市彩印厂,,34,20,44,10,25,173,108,102,82,4,11,7,11,0.2,0.4
2023-09-07T13:00:00,2422A,113.9976,32.9771,驻马店市,天方二分厂,,34,17,48,20,31,165,108,87,71,2,13,5,7,0,0.1
2023-09-07T13:00:00,2423A,115.0601,30.2313,黄石市,沈家营,臭氧1小时,57,42,39,20,15,165,165,91,91,9,17,13,8,0.8,0.5
2023-09-07T13:00:00,2424A,115.0817,30.2006,黄石市,陈家湾,颗粒物(PM10),51,51,40,28,19,160,160,84,84,6,11,13,8,0.6,0.5
2023-09-07T13:00:00,2426A,114.8988,30.2019,黄石市,铁山,臭氧1小时,53,35,29,16,16,162,162,104,104,9,15,13,11,0.7,0.6
2023-09-07T13:00:00,2427A,115.0307,30.2092,黄石市,团城山,臭氧1小时,59,42,36,23,12,167,167,93,93,8,15,12,8,0.8,0.6
2023-09-07T13:00:00,2428A,111.0419,32.395,十堰市,武当山,,,33,29,22,21,136,136,110,110,7,6,8,10,,0.8
2023-09-07T13:00:00,2429A,110.78,32.6494,十堰市,滨河新村,颗粒物(PM10),51,52,59,33,35,146,146,80,80,7,27,8,9,0.6,0.9
2023-09-07T13:00:00,2430A,110.7258,32.6389,十堰市,刘家沟,,47,44,58,32,34,150,150,77,77,2,9,8,9,0.7,0.8
2023-09-07T13:00:00,2431A,110.8839,32.5714,十堰市,铁二处,颗粒物(PM10),52,54,42,23,25,158,156,98,98,2,6,7,6,0.7,0.7
2023-09-07T13:00:00,2432A,112.155,32.0197,襄阳市,襄城运动路,,45,42,53,22,26,141,141,88,88,10,19,7,8,0.5,0.6
2023-09-07T13:00:00,2433A,112.1392,32.0564,襄阳市,樊城新华路,颗粒物(PM10),52,53,58,18,29,140,140,92,92,8,20,8,8,0.4,0.5
2023-09-07T13:00:00,2434A,112.1825,32.1142,襄阳市,高新管委会,,44,36,55,22,32,139,139,94,94,7,16,7,7,0.7,0.8
2023-09-07T13:00:00,2435A,112.2106,32.0903,襄阳市,襄州航空路,,46,46,54,18,27,134,134,96,96,9,20,8,8,0.6,0.7
2023-09-07T13:00:00,2436A,114.8938,30.3994,鄂州市,市政府,,40,23,30,13,14,128,128,82,82,4,15,3,3,0.6,0.6
2023-09-07T13:00:00,2437A,114.8989,30.3714,鄂州市,赵家坝,,,,35,,15,128,128,84,84,11,20,6,5,,0.5
2023-09-07T13:00:00,2439A,112.2014,31.0481,荆门市,竹园小学,颗粒物(PM10),51,52,56,19,28,158,140,119,119,8,13,8,10,0.5,0.6
2023-09-07T13:00:00,2440A,112.1969,30.9891,荆门市,掇刀,,43,32,49,22,28,151,136,115,115,7,10,9,7,0.4,0.5
2023-09-07T13:00:00,2441A,112.2213,31.0386,荆门市,石化一小,,45,29,57,24,29,161,143,115,115,6,12,11,10,0.5,0.5
2023-09-07T13:00:00,2443A,113.9153,30.9285,孝感市,文化路,,37,28,30,20,18,116,116,76,76,4,12,6,7,0.4,0.5
2023-09-07T13:00:00,2444A,113.942,30.9075,孝感市,东城区,,39,14,28,9,14,122,122,79,79,5,12,7,7,0.4,0.5
2023-09-07T13:00:00,2446A,114.9028,30.4742,黄冈市,职工中心,,47,47,30,18,17,117,117,85,85,1,2,8,8,0.6,0.6
2023-09-07T13:00:00,2447A,114.3175,29.8142,咸宁市,森林公园,,36,8,29,19,18,113,113,85,85,4,9,5,6,0.7,0.7
2023-09-07T13:00:00,2448A,114.3107,29.8454,咸宁市,市发改委,,42,24,25,19,15,133,132,100,100,2,6,10,11,0.4,0.4
2023-09-07T13:00:00,2449A,114.2936,29.8566,咸宁市,咸安区政府,,42,30,30,21,21,134,134,101,101,7,10,10,11,0.5,0.6
2023-09-07T13:00:00,2451A,113.3583,31.7275,随州市,市委党校,,35,35,36,22,21,124,104,105,75,2,7,7,8,0.5,0.6
2023-09-07T13:00:00,2452A,113.3833,31.6908,随州市,市林业局,,33,21,31,16,21,131,103,123,74,4,11,4,5,0.6,0.6
2023-09-07T13:00:00,2453A,113.3983,31.7308,随州市,市立交桥水厂,,30,25,30,14,20,122,96,81,70,2,12,8,9,0.6,0.6
2023-09-07T13:00:00,2454A,109.4978,30.2981,恩施土家族苗族自治州,湖北民院,,43,32,40,30,26,139,111,66,66,21,18,10,10,0.7,0.7
2023-09-07T13:00:00,2455A,109.4707,30.2798,恩施土家族苗族自治州,州电力总公司,,38,31,39,26,38,115,98,57,57,8,18,8,8,0.6,0.8
2023-09-07T13:00:00,2456A,112.5003,26.9167,衡阳市,原169医院,,28,28,23,16,23,81,81,50,50,7,14,8,8,0.6,0.6
2023-09-07T13:00:00,2457A,112.6194,26.9258,衡阳市,衡阳化工总厂,,36,36,29,24,18,98,98,70,70,5,7,7,9,0.5,0.6
2023-09-07T13:00:00,2458A,112.6211,26.8956,衡阳市,珠晖区环保局,,,,29,,,95,95,60,60,7,15,6,7,0.6,0.6
2023-09-07T13:00:00,2459A,112.6197,26.8733,衡阳市,市委党校,,32,24,29,14,15,100,100,69,69,5,7,6,6,0.6,0.6
2023-09-07T13:00:00,2460A,112.6006,26.8919,衡阳市,市监测站,,40,40,30,23,18,99,99,71,71,7,11,7,10,0.6,0.6
2023-09-07T13:00:00,2461A,112.5664,26.9056,衡阳市,真空机电公司,,,29,27,,16,95,95,69,69,,10,6,6,0.6,0.6
2023-09-07T13:00:00,2462A,111.5239,27.3033,邵阳市,市水土所,,36,29,30,25,28,77,74,54,54,4,5,7,6,0.6,0.6
2023-09-07T13:00:00,2463A,111.4733,27.2317,邵阳市,市一中,,44,44,39,16,22,90,88,75,70,6,8,4,4,0.5,0.5
2023-09-07T13:00:00,2464A,111.5283,27.2442,邵阳市,市化工厂,,28,20,29,16,20,88,88,68,68,4,7,5,5,0.6,0.6
