timepoint,stationcode,longitude,latitude,area,positionname,primarypollutant,aqi,pm10,pm10_24h,pm2_5,pm2_5_24h,o3,o3_24h,o3_8h,o3_8h_24h,no2,no2_24h,so2,so2_24h,co,co_24h
2026-04-14T1900,2568A,102.2503,31.8896,阿坝藏族羌族自治州,马师校,,32,22,14,9,8,101,101,96,96,8,6,6,6,0.4,0.4
2026-04-14T1900,3994A,102.2174,31.9016,阿坝藏族羌族自治州,马尔康中学西区,,30,27,10,11,9,96,96,91,91,7,6,3,4,0.3,0.3
2026-04-14T1900,2695A,80.2899,41.1684,阿克苏地区,电视台,,49,45,75,34,24,133,133,116,116,5,12,2,2,0.5,0.5
2026-04-14T1900,2696A,80.2592,41.1541,阿克苏地区,艺术中心,颗粒物(PM10),53,53,84,25,29,136,136,120,120,5,22,4,4,0.3,0.5
2026-04-14T1900,2205A,105.699,38.8409,阿拉善盟,蒙二幼,,36,21,45,9,14,113,113,115,115,6,4,9,9,0.5,0.5
2026-04-14T1900,2206A,105.7198,38.8508,阿拉善盟,环保局新楼,,32,21,48,6,21,100,100,105,105,6,4,8,8,0.4,0.5
2026-04-14T1900,2708A,88.1266,47.8515,阿勒泰地区,市站,颗粒物(PM10),140,223,32,49,6,91,91,88,88,4,8,5,6,0.2,0.2
2026-04-14T1900,4166A,88.1198,47.7931,阿勒泰地区,阿勒泰路33号,颗粒物(PM10),401,501,54,73,7,91,91,87,87,3,5,6,6,0.2,0.2
2026-04-14T1900,2630A,80.1171,32.4999,阿里地区,阿里监测站,,42,10,12,3,4,134,134,130,130,1,3,5,6,0.4,0.4
2026-04-14T1900,3192A,80.0906,32.5029,阿里地区,阿里藏医院,,45,9,10,3,3,141,141,136,136,1,2,5,5,0.4,0.4
2026-04-14T1900,2644A,109.0088,32.6974,安康市,汉滨区检察院,,25,25,31,11,17,55,55,78,78,17,9,5,6,0.6,0.5
2026-04-14T1900,4054A,109.0324,32.6913,安康市,市邮政管理局,NA,NA,38,33,22,19,53,53,86,85,26,12,4,6,NA,0.7
2026-04-14T1900,2291A,117.0806,30.5181,安庆市,环科院,,26,20,17,6,14,81,81,95,95,12,8,5,5,0.5,0.7
2026-04-14T1900,2292A,117.0331,30.5118,安庆市,马山宾馆,,25,17,16,3,13,77,77,90,90,9,7,4,4,0.4,0.6
2026-04-14T1900,2294A,116.9897,30.6146,安庆市,安庆大学,,27,14,17,3,9,86,86,90,90,6,6,2,2,0.4,0.6
2026-04-14T1900,3173A,117.0598,30.5351,安庆市,市人大,,24,18,17,6,11,74,74,91,90,12,8,6,6,0.5,0.7
2026-04-14T1900,3123A,105.9408,26.2431,安顺市,凤凰山,颗粒物(PM10),63,68,44,35,27,101,101,96,96,8,8,6,7,0.6,0.5
2026-04-14T1900,3124A,105.9443,26.2567,安顺市,金钟山,细颗粒物(PM2.5),66,57,35,43,26,95,95,86,86,6,6,7,7,0.6,0.5
2026-04-14T1900,3125A,105.8983,26.248,安顺市,娄家坡,细颗粒物(PM2.5),70,58,37,45,28,97,97,91,91,7,7,7,19,0.6,0.6
2026-04-14T1900,1819A,114.3552,36.1017,安阳市,红庙街,颗粒物(PM10),98,116,80,24,44,103,103,128,128,11,22,3,5,0.0,0.3
2026-04-14T1900,1820A,114.361,36.0681,安阳市,银杏小区,颗粒物(PM10),85,99,78,22,47,103,103,127,127,8,20,4,6,0,0.2
2026-04-14T1900,3141A,114.3921,36.0879,安阳市,信访局,,48,48,70,22,45,110,110,137,133,4,19,2,4,0.3,0.5
2026-04-14T1900,3669A,114.4706,36.0634,安阳市,左辅环卫站,,39,39,88,20,42,97,97,115,115,13,22,1,2,0.3,0.4
2026-04-14T1900,4117A,114.2918,36.0769,安阳市,钢三路198号,,32,32,82,20,47,94,94,118,118,9,18,2,4,0.4,0.6
2026-04-14T1900,1748A,123.0441,41.1201,鞍山市,深沟寺,细颗粒物(PM2.5),130,136,124,92,78,70,70,115,115,32,44,9,18,1.0,1
2026-04-14T1900,1749A,123.011,41.0931,鞍山市,太阳城,细颗粒物(PM2.5),145,147,132,109,90,80,80,105,105,29,45,12,28,1.3,1.8
2026-04-14T1900,1750A,123.0483,41.1445,鞍山市,太平,细颗粒物(PM2.5),133,140,129,96,77,85,85,116,116,33,38,10,16,1.0,1
2026-04-14T1900,1751A,122.964,41.0968,鞍山市,铁西三道街,细颗粒物(PM2.5),140,147,138,103,95,74,74,112,112,50,52,25,48,1.8,2.4
2026-04-14T1900,1753A,123.0219,41.0822,鞍山市,明达新区,细颗粒物(PM2.5),134,135,131,97,89,83,83,104,104,30,44,12,29,1.2,1.7
2026-04-14T1900,4201A,122.944647,41.082639,鞍山市,兴盛南路290号,细颗粒物(PM2.5),146,142,143,110,98,86,86,109,109,40,55,13,40,1.5,2.1
2026-04-14T1900,2195A,107.4206,40.7609,巴彦淖尔市,附二中,,50,50,199,13,41,114,114,115,115,6,6,9,10,0.3,0.3
2026-04-14T1900,2196A,107.37,40.7372,巴彦淖尔市,市环保大楼,,43,43,173,14,38,113,113,115,115,6,6,6,6,0.3,0.3
2026-04-14T1900,1956A,86.1476,41.7529,巴音郭楞蒙古自治州,孔雀公园,,39,31,75,27,32,100,100,97,97,6,13,10,10,0.1,0.2
2026-04-14T1900,1957A,86.1971,41.7166,巴音郭楞蒙古自治州,棉纺厂,颗粒物(PM10),67,73,89,3,30,98,98,99,99,6,7,/,/,/,/
2026-04-14T1900,1958A,86.236,41.7172,巴音郭楞蒙古自治州,经济开发区,,30,30,76,3,19,88,88,90,90,11,11,7,8,0.2,0.2
2026-04-14T1900,3181A,106.776805,31.852614,巴中市,市五中,,23,16,22,3,13,71,71,66,66,8,12,8,8,0.6,0.8
2026-04-14T1900,3183A,106.7419,31.8654,巴中市,圣泉水务公司,,23,17,18,6,11,73,73,70,70,7,13,8,8,0.6,0.7
2026-04-14T1900,3616A,106.7617,31.8343,巴中市,市中心医院,,27,10,19,3,13,84,84,78,78,5,11,8,8,0.5,0.6
2026-04-14T1900,2235A,122.7909,45.608,白城市,洮北区环保局,,48,42,45,33,27,111,111,109,109,5,28,4,7,0.1,0.2
2026-04-14T1900,2236A,122.8741,45.5725,白城市,市环保局,颗粒物(PM10),56,58,46,29,22,64,64,94,90,32,36,4,5,0,0
2026-04-14T1900,2231A,126.4219,41.9172,白山市,喜丰,细颗粒物(PM2.5),140,139,193,103,143,103,103,116,115,34,34,12,14,1.1,1.1
2026-04-14T1900,2232A,126.4082,41.9416,白山市,环保局,细颗粒物(PM2.5),136,114,150,99,155,124,124,123,123,22,28,13,14,0.9,0.9
2026-04-14T1900,2647A,104.1727,36.5448,白银市,第三小学,,34,32,24,22,10,108,108,106,106,6,4,5,7,0.3,0.3
2026-04-14T1900,2648A,104.1467,36.5482,白银市,动力公司,,35,30,24,16,10,112,112,108,108,6,6,7,8,0.2,0.3
2026-04-14T1900,2512A,106.6102,23.901,百色市,市监测站,细颗粒物(PM2.5),115,120,98,76,70,148,148,166,166,13,19,16,20,0.9,1
2026-04-14T1900,2513A,106.6524,23.8842,百色市,市中心血站,细颗粒物(PM2.5),137,NA,105,100,116,148,148,166,166,8,12,16,18,1.2,1.2
2026-04-14T1900,4133A,106.6273,23.8798,百色市,龙景西路,细颗粒物(PM2.5),113,124,105,74,79,150,150,170,170,13,18,16,22,0.7,0.8
2026-04-14T1900,2270A,117.396,32.9389,蚌埠市,工人疗养院,颗粒物(PM10),60,64,50,22,25,102,102,121,121,24,15,6,4,0.3,0.3
2026-04-14T1900,2271A,117.3606,32.9428,蚌埠市,百货大楼,,42,42,36,20,19,115,115,126,124,10,9,8,5,0.3,0.4
2026-04-14T1900,2273A,117.4183,32.8909,蚌埠市,蚌埠学院,,39,39,31,15,20,112,112,123,123,14,18,6,5,0.4,0.4
2026-04-14T1900,2274A,117.3534,32.9672,蚌埠市,淮上区政府,,46,46,36,17,21,115,115,128,128,14,12,7,5,0.4,0.3
2026-04-14T1900,2275A,117.3143,32.8977,蚌埠市,高新区,,41,41,32,15,19,108,108,120,120,15,12,8,7,0.4,0.4
2026-04-14T1900,3715A,117.3091,32.9314,蚌埠市,蚌埠田家炳中学,颗粒物(PM10),51,51,44,19,21,100,100,124,124,23,13,5,5,0.3,0.3
2026-04-14T1900,1585A,109.8761,40.6533,包头市,市环境监测站,颗粒物(PM10),65,70,99,16,30,120,120,124,124,17,25,8,12,0.6,0.7
2026-04-14T1900,1587A,109.9992,40.5843,包头市,包头八中,颗粒物(PM10),68,74,103,20,35,116,116,118,118,13,22,8,17,0.3,0.7
2026-04-14T1900,1589A,109.8641,40.6288,包头市,惠龙物流,颗粒物(PM10),56,58,100,18,31,115,115,117,117,11,19,8,11,0.4,0.6
2026-04-14T1900,1590A,110.0376,40.5546,包头市,东河鸿龙湾,,48,48,85,19,33,123,123,123,123,10,22,10,15,0.3,0.5
2026-04-14T1900,3283A,109.9154,40.5684,包头市,滨河大厦,颗粒物(PM10),53,54,92,22,33,116,116,122,122,14,19,9,12,0.3,0.4
2026-04-14T1900,3419A,109.9449,40.6259,包头市,包头市委党校,,50,50,88,13,27,124,124,122,122,7,23,8,12,0.3,0.4
2026-04-14T1900,3683A,109.8332,40.6577,包头市,昆区政府,颗粒物(PM10),54,55,99,16,32,111,111,120,120,25,27,5,11,0.7,0.9
2026-04-14T1900,1931A,107.0802,34.3129,宝鸡市,竹园沟,细颗粒物(PM2.5),82,80,60,51,40,133,133,121,121,14,14,8,8,0.5,0.5
2026-04-14T1900,1933A,107.1429,34.3549,宝鸡市,监测站,颗粒物(PM10),100,120,78,53,50,133,133,120,120,26,16,7,6,0.5,0.4
2026-04-14T1900,1934A,107.1172,34.3759,宝鸡市,技工学校,NA,NA,NA,69,NA,46,113,113,119,119,18,13,5,5,0.6,0.6
2026-04-14T1900,1936A,107.2025,34.3518,宝鸡市,文理学院,颗粒物(PM10),79,90,67,45,44,130,130,119,119,16,14,6,6,0.6,0.6
2026-04-14T1900,1937A,107.2396,34.3626,宝鸡市,三迪小学,颗粒物(PM10),75,84,69,47,44,128,128,121,121,16,13,7,6,0.7,0.6
2026-04-14T1900,4155A,107.1721,34.3558,宝鸡市,滨河北路,"颗粒物(PM10),细颗粒物(PM2.5)",80,91,69,50,46,124,124,115,115,17,13,8,8,0.7,0.6
2026-04-14T1900,4308A,107.3898,34.3601,宝鸡市,陈仓区北开路21号,颗粒物(PM10),75,85,71,43,44,126,126,123,123,10,12,10,10,0.6,0.6
2026-04-14T1900,1051A,115.4803,38.8568,保定市,游泳馆,细颗粒物(PM2.5),108,122,101,68,58,115,115,126,126,29,33,3,3,0.8,0.5
2026-04-14T1900,1052A,115.509,38.8895,保定市,华电二区,细颗粒物(PM2.5),84,95,94,52,52,112,112,126,126,26,28,7,4,0.7,0.5
2026-04-14T1900,1053A,115.4588,38.9037,保定市,接待中心,细颗粒物(PM2.5),102,104,99,62,54,105,105,118,118,28,24,3,2,0.6,0.4
2026-04-14T1900,1054A,115.4484,38.8344,保定市,地表水厂,NA,NA,116,120,58,57,NA,NA,130,130,28,38,6,6,0.7,0.5
2026-04-14T1900,3581A,115.3136,38.9511,保定市,满城区生态环境分局,颗粒物(PM10),107,136,137,56,49,107,107,120,120,30,32,6,5,0.7,0.5
2026-04-14T1900,3582A,115.4709,38.7628,保定市,清苑区第二中学,颗粒物(PM10),115,159,124,47,50,114,114,125,125,31,39,7,5,0.8,0.5
2026-04-14T1900,3583A,115.6231,39.0223,保定市,徐水物探局,颗粒物(PM10),115,159,136,60,54,87,87,111,111,35,30,6,4,1.1,0.7
2026-04-14T1900,4004A,115.4199,38.8665,保定市,双鹰农机,颗粒物(PM10),106,134,129,60,57,116,116,129,129,29,33,8,5,0.7,0.5
2026-04-14T1900,4034A,115.515,38.8589,保定市,植保所站,细颗粒物(PM2.5),94,100,111,57,56,111,111,123,123,30,34,6,5,0.8,0.6
2026-04-14T1900,2594A,99.1589,25.1137,保山市,市环境监测站,细颗粒物(PM2.5),88,89,75,54,40,141,141,136,136,8,9,8,6,0.3,0.3
2026-04-14T1900,2595A,99.1616,25.1381,保山市,市环保局,细颗粒物(PM2.5),98,106,82,59,47,140,140,138,138,7,8,9,7,0.4,0.4
2026-04-14T1900,1867A,109.1435,21.4085,北海市,海滩公园,颗粒物(PM10),58,60,45,30,28,103,103,103,103,8,8,7,6,0.5,0.5
2026-04-14T1900,1868A,109.0983,21.466,北海市,新市环保局,NA,NA,65,43,39,28,108,108,98,98,NA,9,3,4,0.7,0.6
2026-04-14T1900,1869A,109.1775,21.5232,北海市,北海工业园,细颗粒物(PM2.5),68,68,54,44,31,107,107,100,100,10,15,6,9,0.8,0.8
2026-04-14T1900,3400A,109.1844,21.4396,北海市,龙潭自来水厂,颗粒物(PM10),56,58,44,22,23,92,92,95,95,5,6,8,6,0.6,0.6
2026-04-14T1900,1001A,116.3611,39.8786,北京市,万寿西宫,颗粒物(PM10),88,102,123,43,48,98,98,90,90,29,42,6,6,0.7,0.7
2026-04-14T1900,1003A,116.4174,39.9289,北京市,东四,颗粒物(PM10),93,109,123,48,48,107,107,100,100,34,44,5,5,0.6,0.6
2026-04-14T1900,1004A,116.4073,39.8858,北京市,天坛,颗粒物(PM10),78,89,99,41,42,79,79,83,83,27,36,6,6,0.7,0.8
2026-04-14T1900,1005A,116.4622,39.9364,北京市,农展馆,颗粒物(PM10),85,99,115,45,45,108,108,97,97,23,38,6,6,0.8,0.7
2026-04-14T1900,1006A,116.3399,39.9293,北京市,官园,NA,NA,NA,121,46,47,93,93,86,86,30,36,5,6,NA,1
2026-04-14T1900,1007A,116.2879,39.9613,北京市,海淀万柳,颗粒物(PM10),80,92,109,42,42,83,83,81,81,28,43,6,6,0.6,0.6
2026-04-14T1900,1008A,116.6635,40.1349,北京市,顺义新城,颗粒物(PM10),82,94,110,42,39,91,91,91,91,25,33,7,7,0.7,0.7
2026-04-14T1900,1009A,116.6275,40.327,北京市,怀柔镇,细颗粒物(PM2.5),88,90,93,54,40,90,90,90,90,18,18,6,6,0.9,0.8
2026-04-14T1900,1010A,116.2295,40.217,北京市,昌平镇,颗粒物(PM10),75,84,103,46,40,91,91,88,88,26,32,4,5,0.8,0.7
2026-04-14T1900,1011A,116.3968,39.982,北京市,奥体中心,颗粒物(PM10),85,99,113,40,42,100,100,93,93,30,43,7,6,0.8,0.7
2026-04-14T1900,3418A,116.8336,40.4095,北京市,密云新城,颗粒物(PM10),82,94,110,46,42,85,85,86,86,21,28,5,5,0.7,0.7
2026-04-14T1900,3671A,116.0879,39.9725,北京市,门头沟三家店,颗粒物(PM10),83,95,119,49,42,90,90,90,90,29,38,4,4,0.6,0.5
2026-04-14T1900,3672A,116.1507,39.8246,北京市,丰台云岗,颗粒物(PM10),88,102,129,53,48,91,91,91,91,35,48,5,5,0.7,0.7
2026-04-14T1900,3674A,115.9578,39.7602,北京市,房山燕山,颗粒物(PM10),95,113,110,54,45,78,78,83,83,40,31,7,5,0.9,0.6
2026-04-14T1900,3675A,116.4669,39.7734,北京市,大兴旧宫,颗粒物(PM10),83,95,118,44,46,92,92,91,91,25,42,6,8,0.9,0.8
2026-04-14T1900,3694A,115.9859,40.4562,北京市,延庆石河营,细颗粒物(PM2.5),100,86,95,60,42,79,79,91,90,27,20,1,2,0.7,0.6
2026-04-14T1900,3695A,116.6151,40.3052,北京市,怀柔新城,颗粒物(PM10),83,95,95,46,37,79,79,93,93,19,19,5,6,0.9,0.8
2026-04-14T1900,3696A,116.2542,39.8764,北京市,丰台小屯,颗粒物(PM10),80,91,111,47,51,86,86,85,85,34,50,5,5,0.7,0.6
2026-04-14T1900,3697A,116.8399,40.3843,北京市,密云镇,颗粒物(PM10),81,93,97,41,37,82,82,86,86,23,31,6,7,0.8,0.7
2026-04-14T1900,4057A,115.9423,40.4431,北京市,延庆百泉,颗粒物(PM10),78,89,104,48,41,75,75,82,82,25,22,1,2,0.6,0.5
2026-04-14T1900,4058A,116.6598,39.9164,北京市,通州新华,颗粒物(PM10),88,102,118,45,46,100,100,90,90,27,41,7,6,0.8,0.7
2026-04-14T1900,4182A,116.1942,39.9158,北京市,石景山八角,颗粒物(PM10),89,104,134,44,46,91,91,87,87,33,53,6,4,0.6,0.6
2026-04-14T1900,4194A,117.078628,40.151726,北京市,平谷新城,颗粒物(PM10),87,101,94,43,39,65,65,76,76,42,31,7,6,1.0,0.7
2026-04-14T1900,1761A,123.8274146,41.31234549,本溪市,大峪,细颗粒物(PM2.5),121,138,130,83,76,122,122,142,142,28,40,10,17,0.9,2
2026-04-14T1900,1763A,123.7169,41.3094,本溪市,彩屯,细颗粒物(PM2.5),125,133,135,87,90,122,122,151,151,24,43,14,22,0.8,1.5
2026-04-14T1900,1764A,123.7672166,41.28649327,本溪市,东明,细颗粒物(PM2.5),115,120,127,76,87,121,121,139,139,26,51,18,23,0.7,1.8
2026-04-14T1900,1765A,123.799345,41.266614,本溪市,新立屯,细颗粒物(PM2.5),128,122,119,90,80,124,124,136,136,25,51,15,22,0.8,2.5
2026-04-14T1900,1766A,123.829144,41.336777,本溪市,威宁,细颗粒物(PM2.5),139,166,140,102,81,107,107,134,134,36,45,7,12,0.8,1.2
2026-04-14T1900,2587A,105.287,27.3133,毕节市,八中,,20,20,12,13,12,62,62,71,63,10,6,11,10,0.6,0.5
2026-04-14T1900,2588A,105.3079,27.2987,毕节市,师专,,26,26,16,13,11,61,61,70,65,6,4,9,9,0.5,0.4
2026-04-14T1900,4263A,105.3688,27.3598,毕节市,工业大道,,29,29,16,19,9,74,74,78,77,6,4,12,10,/,/
2026-04-14T1900,1629A,117.9961,37.3604,滨州市,第二水厂,颗粒物(PM10),55,56,93,31,56,149,149,152,152,10,26,10,12,0.6,0.7
2026-04-14T1900,1630A,117.9789,37.3931,滨州市,北中新校,颗粒物(PM10),53,53,84,31,47,155,155,157,157,15,30,18,18,0.5,0.7
2026-04-14T1900,3514A,117.9379,37.3959,滨州市,中海酒店,颗粒物(PM10),72,80,85,42,46,158,158,161,161,22,31,12,16,0.5,0.6
2026-04-14T1900,3515A,117.9381509,37.35547456,滨州市,开发区一中,颗粒物(PM10),72,80,99,42,61,147,147,146,146,18,31,9,12,0.7,0.9
2026-04-14T1900,3516A,118.0914,37.6938,滨州市,金海六路,细颗粒物(PM2.5),90,95,75,55,43,127,127,157,151,35,26,10,9,0.4,0.4
2026-04-14T1900,4028A,117.9955,37.3752,滨州市,滨州市西街道办事处,颗粒物(PM10),55,56,90,25,49,146,146,156,156,10,21,10,12,0.4,0.5
2026-04-14T1900,2311A,115.8071,33.8399,亳州市,污水处理厂,,37,37,25,10,11,117,117,122,122,12,13,6,8,0,0
2026-04-14T1900,2312A,115.7789,33.8519,亳州市,三国揽胜宫,,36,30,25,10,9,114,114,113,113,11,10,7,6,0.0,0
2026-04-14T1900,3332A,115.7631,33.803,亳州市,亳州学院,,42,42,30,13,10,106,106,118,118,12,7,7,6,0.2,0.1
2026-04-14T1900,2693A,82.0482,44.8553,博尔塔拉蒙古自治州,市党校,颗粒物(PM10),111,148,118,14,14,104,104,103,103,1,4,2,2,0.2,0.3
2026-04-14T1900,2694A,82.0805,44.8966,博尔塔拉蒙古自治州,市环保局,颗粒物(PM10),100,120,122,12,18,99,99,96,96,7,18,3,2,0.2,0.3
2026-04-14T1900,1071A,116.8733,38.2922,沧州市,沧县城建局,颗粒物(PM10),84,97,79,50,42,102,102,126,126,30,28,8,5,0.5,0.5
2026-04-14T1900,1072A,116.8462,38.3189,沧州市,电视转播站,细颗粒物(PM2.5),102,94,82,62,43,108,108,136,136,28,26,9,9,0.4,0.5
2026-04-14T1900,1073A,116.8588,38.3161,沧州市,市环保局,颗粒物(PM10),88,103,87,45,38,105,105,136,136,23,23,9,8,0.6,0.5
2026-04-14T1900,3324A,116.8011,38.294,沧州市,河北水利电力学院,细颗粒物(PM2.5),107,90,78,67,44,104,104,130,130,29,24,8,7,0.5,0.5
2026-04-14T1900,2622A,97.1813,31.1289,昌都市,昌都监测站,,37,10,6,8,3,117,117,122,122,9,6,9,9,0.4,0.3
2026-04-14T1900,3719A,97.1707,31.1428,昌都市,昌都会议中心,,41,NA,8,15,5,129,129,124,124,4,6,6,6,0.2,0.2
2026-04-14T1900,2692A,87.2722,44.0298,昌吉回族自治州,新区政务中心,颗粒物(PM10),96,114,73,7,14,92,92,99,99,6,20,4,5,0.2,0.3
2026-04-14T1900,3613A,87.3069,44.0093,昌吉回族自治州,亚心广场,颗粒物(PM10),86,100,90,17,16,96,96,102,102,3,15,5,6,0.2,0.3
2026-04-14T1900,4164A,87.2057,43.9289,昌吉回族自治州,财政所,颗粒物(PM10),115,158,101,NA,12,90,90,99,99,13,13,7,7,0.2,0.2
2026-04-14T1900,1120A,125.2874,43.9024,长春市,客车厂,,43,43,44,27,31,86,86,99,98,24,26,7,7,0.4,0.4
2026-04-14T1900,1121A,125.2943,43.8508,长春市,邮电学院,颗粒物(PM10),54,55,44,33,30,94,94,107,106,14,14,7,8,0.3,0.3
2026-04-14T1900,1122A,125.3648,43.8745,长春市,劳动公园,颗粒物(PM10),55,56,51,37,34,82,82,105,102,25,22,7,8,0.3,0.4
2026-04-14T1900,1123A,125.3233,43.8781,长春市,园林处,,48,48,46,33,34,94,94,109,108,18,20,7,7,0.3,0.3
2026-04-14T1900,1124A,125.4604,43.7904,长春市,净月潭,,42,42,35,29,26,91,91,109,108,13,11,6,6,0.3,0.3
2026-04-14T1900,1126A,125.38,43.8422,长春市,经开区环卫处,细颗粒物(PM2.5),56,49,47,38,32,91,91,105,104,21,26,6,6,0.4,0.4
2026-04-14T1900,1127A,125.234,43.7761,长春市,高新区管委会,,49,49,37,34,28,86,86,101,98,24,17,7,7,0.5,0.5
2026-04-14T1900,1128A,125.1695,43.83,长春市,岱山公园,颗粒物(PM10),56,58,43,35,29,70,70,96,94,40,26,6,5,0.5,0.5
2026-04-14T1900,4281A,125.334645,43.916281,长春市,北亚泰大街1068号,,48,48,49,30,33,90,90,104,103,18,22,6,8,0.3,0.3
2026-04-14T1900,1335A,113.082,28.2421,长沙市,经开区环保局,,27,27,24,14,15,53,53,70,51,22,14,4,4,0.4,0.4
2026-04-14T1900,1336A,112.8873,28.2202,长沙市,高开区环保局,,21,21,21,11,14,65,65,75,66,10,6,5,6,0.4,0.4
2026-04-14T1900,1337A,113.0785,28.2012,长沙市,马坡岭,,25,25,26,16,18,57,57,70,52,14,8,5,5,0.8,0.7
2026-04-14T1900,1338A,112.9448,28.1894,长沙市,湖南师范大学,,23,20,23,11,14,72,72,81,69,8,6,4,5,0.6,0.6
2026-04-14T1900,1339A,113.0177,28.1322,长沙市,雨花区环保局,,24,24,21,13,15,68,68,76,61,9,6,3,3,0.5,0.5
2026-04-14T1900,1340A,112.9795,28.2593,长沙市,伍家岭,,28,28,24,13,15,62,62,70,61,14,10,4,3,0.3,0.3
2026-04-14T1900,1341A,113.002,28.1944,长沙市,火车新站,,23,23,22,16,17,67,67,75,62,10,7,4,3,0.4,0.4
2026-04-14T1900,1342A,112.9846,28.1177,长沙市,天心区环保局,,21,NA,23,14,18,66,66,80,62,10,8,5,5,0.5,0.5
2026-04-14T1900,1343A,112.8906,28.1307,长沙市,湖南中医药大学,,19,17,21,10,15,59,59,83,67,19,9,5,5,0.5,0.5
2026-04-14T1900,1727A,113.1146,36.1547,长治市,清华站,,42,42,30,20,16,110,110,135,132,24,8,8,8,0.4,0.5
2026-04-14T1900,1730A,113.0887,36.2126,长治市,审计局,,38,38,34,25,19,112,112,131,131,15,10,9,8,0.3,0.4
2026-04-14T1900,1731A,113.0845,36.1856,长治市,长治八中,,43,43,38,18,17,110,110,130,130,21,15,9,9,0.5,0.5
2026-04-14T1900,2845A,113.1561,36.1912,长治市,德盛苑,,35,35,28,23,14,106,106,137,135,15,10,8,8,0.4,0.5
2026-04-14T1900,3568A,113.0603,36.0464,长治市,向阳小学,颗粒物(PM10),52,52,53,16,18,118,118,140,140,17,18,6,7,0.5,0.6
2026-04-14T1900,3569A,112.8788,36.315,长治市,屯留一中,,30,30,35,20,16,92,92,117,116,29,25,8,8,0.5,0.5
2026-04-14T1900,4189A,113.113092,36.199482,长治市,英华南巷50号,,48,48,36,27,19,114,114,134,133,15,10,6,7,0.7,0.8
2026-04-14T1900,4190A,113.23666,36.33435,长治市,学府街1号,颗粒物(PM10),53,53,37,21,17,110,110,128,128,18,22,7,5,0.7,0.6
2026-04-14T1900,1854A,111.696,28.9725,常德市,市二中,NA,NA,26,23,10,21,88,88,78,78,NA,4,7,8,0.7,0.8
2026-04-14T1900,3138A,111.7152,29.0288,常德市,武陵区永安,,29,22,24,8,23,91,91,82,82,7,6,5,5,0.6,0.6
2026-04-14T1900,3139A,111.6891,28.9881,常德市,鼎城区玉霞,,29,21,22,10,21,91,91,80,80,4,5,8,8,0.6,0.8
2026-04-14T1900,3140A,111.6651,29.0526,常德市,武陵区长庚,,30,22,24,12,22,93,93,80,80,5,5,8,8,0.6,0.7
2026-04-14T1900,1196A,119.9524,31.7586,常州市,市监测站,颗粒物(PM10),68,74,78,33,32,72,72,80,80,31,26,9,9,1.0,0.9
2026-04-14T1900,1200A,119.9351,31.703,常州市,武进监测站,颗粒物(PM10),63,67,70,33,32,70,70,80,80,33,27,4,5,0.8,0.9
2026-04-14T1900,3002A,119.9701,31.813,常州市,行政中心,颗粒物(PM10),55,56,59,30,33,68,68,69,69,31,28,5,5,0.5,0.6
2026-04-14T1900,3003A,120.0434,31.7726,常州市,经开区,NA,NA,64,81,32,35,NA,NA,75,75,31,23,2,3,1.0,1
2026-04-14T1900,3010A,119.8919,31.7892,常州市,钟楼,,50,50,50,34,36,71,71,75,75,35,26,7,7,0.8,0.4
2026-04-14T1900,3429A,119.8595,31.706,常州市,武进经发区,颗粒物(PM10),51,51,49,29,30,72,72,84,84,34,35,4,4,0.9,0.9
2026-04-14T1900,3430A,119.5812,31.7256,常州市,金坛城区,,38,38,39,26,27,86,86,82,82,11,10,7,7,0.7,0.7
2026-04-14T1900,4089A,119.9551,31.863,常州市,崇义南街5-H号,颗粒物(PM10),66,72,57,33,30,66,66,72,72,32,24,6,6,0.6,0.7
2026-04-14T1900,2220A,120.4318,41.588,朝阳市,西梁,细颗粒物(PM2.5),66,NA,50,43,27,91,91,99,98,21,23,10,15,0.7,0.6
2026-04-14T1900,2221A,120.452,41.565,朝阳市,河畔小区,,46,32,40,32,23,97,97,103,103,15,16,7,16,0.5,0.5
2026-04-14T1900,2222A,120.4176,41.5648,朝阳市,八里堡,细颗粒物(PM2.5),68,49,47,44,28,95,95,102,102,24,23,9,18,0.8,0.6
2026-04-14T1900,3026A,116.6179,23.6608,潮州市,市政府,,48,48,42,31,21,39,39,64,62,23,22,13,15,0.6,0.5
2026-04-14T1900,4036A,116.646,23.676,潮州市,金山,,38,38,30,23,18,44,44,68,67,14,14,6,4,0.6,0.4
2026-04-14T1900,2473A,113.0116,25.8228,郴州市,市职中,,19,19,27,11,25,35,35,42,38,14,11,6,6,0.7,0.7
2026-04-14T1900,2475A,113.0381,25.8074,郴州市,市审计局,,24,24,27,8,23,54,54,51,50,8,8,2,2,/,/
2026-04-14T1900,2476A,113.0348,25.7757,郴州市,市环保局,,26,26,32,10,23,44,44,43,40,16,14,6,7,0.6,0.6
2026-04-14T1900,4252A,113.0138,25.8011,郴州市,好美居路49号,,20,16,26,14,20,45,45,50,47,13,10,8,8,/,/
2026-04-14T1900,1431A,103.9727,30.7242,成都市,金泉两河,,35,22,31,17,20,111,111,111,111,17,20,3,2,0.3,0.3
2026-04-14T1900,1432A,104.1423,30.6765,成都市,十里店,颗粒物(PM10),52,52,33,19,21,109,109,107,107,9,17,3,4,0.5,0.6
2026-04-14T1900,1433A,104.0594,30.5765,成都市,三瓦窑,,35,34,31,12,22,110,110,105,105,4,19,2,3,0.5,0.6
2026-04-14T1900,1434A,104.1122,30.6306,成都市,沙河铺,NA,NA,38,35,14,20,NA,NA,86,86,15,22,2,2,0.4,0.5
2026-04-14T1900,2880A,104.0219,30.6561,成都市,大石西路,颗粒物(PM10),53,54,35,17,22,113,113,101,101,14,22,4,4,0.5,0.6
2026-04-14T1900,3136A,104.2724,30.559,成都市,龙泉驿区区政府,,35,17,24,14,17,109,109,98,98,5,11,6,6,0.3,0.4
2026-04-14T1900,3357A,104.0028,30.6891,成都市,金博路,,38,38,24,17,20,118,118,109,109,15,24,5,6,0.5,0.6
2026-04-14T1900,3359A,104.056,30.5228,成都市,华阳,NA,NA,29,31,13,21,108,108,109,109,NA,19,4,4,0.4,0.5
2026-04-14T1900,3488A,104.387954,30.746684,成都市,青石路225号,,43,43,36,15,19,117,117,108,108,12,19,5,6,0.4,0.6
2026-04-14T1900,3489A,104.0788,30.4054,成都市,科学城,,36,22,28,14,19,115,115,103,103,4,12,7,8,0.3,0.4
2026-04-14T1900,4011A,103.8505,30.6946,成都市,光华大道三段,,46,46,35,18,20,112,112,113,113,16,23,3,3,0.3,0.4
2026-04-14T1900,4144A,104.3257,30.6406,成都市,八角井街185号,,41,41,34,12,16,110,110,99,99,8,13,3,4,0.3,0.4
2026-04-14T1900,4224A,104.2433276,30.53529463,成都市,鲸龙路1057号,,35,24,29,13,15,110,110,99,99,6,11,5,6,0.5,0.6
2026-04-14T1900,1062A,117.9531,40.908,承德市,铁路,细颗粒物(PM2.5),78,78,66,49,29,61,61,73,68,33,25,11,8,1.1,0.7
2026-04-14T1900,1063A,117.9397,40.9763,承德市,中国银行,颗粒物(PM10),83,96,70,47,28,66,66,77,75,31,20,15,6,1.3,0.7
2026-04-14T1900,4073A,117.9462,40.95,承德市,杏林街1号,细颗粒物(PM2.5),78,85,68,49,32,70,70,81,79,26,19,16,7,1.4,0.8
2026-04-14T1900,4274A,117.7994,40.9605,承德市,滨河大街98号,细颗粒物(PM2.5),92,74,85,56,33,68,68,75,73,21,24,17,16,1.2,0.9
2026-04-14T1900,2314A,117.4698,30.6617,池州市,池州学院,,25,16,23,13,16,78,78,95,95,30,23,4,3,0.7,0.9
2026-04-14T1900,3237A,117.4918,30.6617,池州市,展览馆,,29,18,25,11,17,90,90,101,101,19,20,2,2,0.4,0.7
2026-04-14T1900,3333A,117.5626,30.695,池州市,第八中学,,26,14,23,9,16,81,81,89,89,27,24,3,4,0.5,0.8
2026-04-14T1900,3334A,117.5037,30.6242,池州市,第十二中学,NA,NA,12,22,6,16,79,79,93,93,NA,22,2,3,0.8,1
2026-04-14T1900,1744A,118.9229,42.2816,赤峰市,松山一中,细颗粒物(PM2.5),62,43,29,41,18,47,47,70,67,36,20,17,10,0.9,0.5
2026-04-14T1900,1745A,118.9588,42.2733,赤峰市,哈达街,细颗粒物(PM2.5),68,51,32,44,21,50,50,72,72,44,21,22,20,0.9,0.7
2026-04-14T1900,1746A,118.8792,42.2551,赤峰市,天义路,,49,NA,23,34,17,60,60,73,73,22,14,5,6,0.5,0.4
2026-04-14T1900,3058A,119.2656,42.0356,赤峰市,银河街,细颗粒物(PM2.5),68,52,49,44,28,85,85,73,73,18,16,10,15,0.6,0.4
2026-04-14T1900,3286A,118.9359,42.3146,赤峰市,桥北物流园区,细颗粒物(PM2.5),58,50,32,39,21,59,59,71,66,31,18,21,8,0.9,0.5
2026-04-14T1900,2521A,107.3473,22.4137,崇左市,市环保局江州分局,细颗粒物(PM2.5),140,148,99,103,75,138,138,129,129,15,13,2,3,1.2,1
2026-04-14T1900,4256A,107.375,22.3736,崇左市,石景林东路7号,细颗粒物(PM2.5),138,131,86,101,71,149,149,140,140,12,12,3,4,1.3,1
2026-04-14T1900,3207A,118.31131,32.3033,滁州市,市政府原办公楼,,38,32,31,26,30,75,75,106,105,11,10,4,5,0.4,0.4
2026-04-14T1900,3331A,118.3268,32.2633,滁州市,图书馆,,32,32,40,17,23,67,67,102,101,11,13,9,9,0.3,0.3
2026-04-14T1900,4101A,118.3196,32.3335,滁州市,银山路666号,,37,37,38,21,24,85,85,110,109,7,9,6,6,0.5,0.5
2026-04-14T1900,4102A,118.3426,32.2979,滁州市,黄山路555号,颗粒物(PM10),51,51,50,20,27,70,70,112,110,10,9,5,6,0.6,0.6
2026-04-14T1900,2606A,101.5379,25.0492,楚雄彝族自治州,市经济开发区,细颗粒物(PM2.5),82,86,69,51,40,134,134,137,137,9,10,4,4,0.6,0.5
2026-04-14T1900,4153A,101.5536,25.0343,楚雄彝族自治州,团结路562号,细颗粒物(PM2.5),72,69,60,46,37,143,143,143,143,6,9,2,2,0.4,0.4
2026-04-14T1900,2549A,107.5087,31.2186,达州市,市环境监测站,,30,30,19,8,6,42,42,47,47,22,21,5,6,0.3,0.3
2026-04-14T1900,2550A,107.4988,31.2132,达州市,凤凰小区,,27,27,18,12,7,45,45,52,52,22,21,4,5,0.3,0.3
2026-04-14T1900,2551A,107.5081,31.1987,达州市,达县机关宾馆,,29,29,20,6,9,38,38,49,49,27,25,4,5,0.4,0.4
2026-04-14T1900,2552A,107.4644,31.2124,达州市,市政中心,,30,30,25,7,6,46,46,54,54,27,24,5,5,0.4,0.4
2026-04-14T1900,2614A,100.2168,25.5818,大理白族自治州,大理市环境监测站,细颗粒物(PM2.5),78,73,60,49,40,116,116,120,120,10,11,4,4,0.3,0.3
2026-04-14T1900,2615A,100.1542,25.7055,大理白族自治州,大理古城,颗粒物(PM10),62,66,54,36,35,120,120,121,121,5,7,2,3,0.3,0.3
2026-04-14T1900,1109A,121.6119,38.974,大连市,甘井子,颗粒物(PM10),68,74,93,35,42,149,149,161,161,28,35,10,10,0.5,0.5
2026-04-14T1900,1110A,121.565,38.9509,大连市,周水子,细颗粒物(PM2.5),100,104,90,60,49,118,118,141,141,49,49,8,8,0.8,0.7
2026-04-14T1900,1111A,121.5637,38.8849,大连市,星海三站,,48,48,62,29,32,95,95,129,124,41,31,3,4,0.6,0.5
2026-04-14T1900,1112A,121.6301,38.9117,大连市,青泥洼桥,细颗粒物(PM2.5),80,83,85,50,45,129,129,142,142,42,37,8,6,0.8,0.7
2026-04-14T1900,1113A,121.6248,38.8643,大连市,傅家庄,,39,39,66,21,34,124,124,140,140,14,18,6,7,0.5,0.5
2026-04-14T1900,1114A,121.5117,38.8636,大连市,七贤岭,颗粒物(PM10),65,70,59,35,32,112,112,126,126,34,24,8,7,0.7,0.6
2026-04-14T1900,1116A,121.7507,39.1339,大连市,金州,颗粒物(PM10),103,127,115,61,56,145,145,153,153,40,49,14,7,0.7,0.8
2026-04-14T1900,1117A,121.7811,39.0495,大连市,开发区,颗粒物(PM10),84,97,100,45,50,111,111,136,136,53,58,14,13,0.7,0.7
2026-04-14T1900,1118A,121.9762,39.0631,大连市,双D港,细颗粒物(PM2.5),68,70,95,44,53,149,149,139,139,24,29,8,9,0.5,0.6
2026-04-14T1900,4082A,121.2548,38.8188,大连市,旅顺,细颗粒物(PM2.5),115,121,69,76,42,130,130,137,137,28,21,13,9,0.8,0.6
2026-04-14T1900,1789A,124.8085,46.0381,大庆市,大同区,颗粒物(PM10),53,54,49,31,31,95,95,112,110,26,21,5,4,0.5,0.5
2026-04-14T1900,1790A,125.1166,46.5255,大庆市,龙凤区,颗粒物(PM10),55,56,59,32,33,85,85,105,104,30,25,6,16,0.3,0.3
2026-04-14T1900,1791A,124.8894,46.4007,大庆市,红岗区,,38,35,40,26,25,89,89,103,102,13,14,12,13,0.2,0.3
2026-04-14T1900,1792A,125.1391,46.578,大庆市,萨尔图区,,44,44,53,19,26,102,102,111,111,19,21,7,9,0.5,0.5
2026-04-14T1900,1793A,124.9026,46.6217,大庆市,让胡路区,,50,50,50,26,26,91,91,101,101,25,32,4,5,0.4,0.5
2026-04-14T1900,3481A,125.127,46.6277,大庆市,萨区政府监测点,,43,43,47,19,24,104,104,104,104,12,16,8,10,0.3,0.4
2026-04-14T1900,1723A,113.2926,40.0759,大同市,云冈宾馆,颗粒物(PM10),68,75,55,24,23,115,115,114,114,12,22,4,8,0.3,0.5
2026-04-14T1900,1724A,113.3437,40.0921,大同市,大同大学,颗粒物(PM10),73,81,66,25,22,120,120,117,117,12,28,3,4,0.3,0.6
2026-04-14T1900,1725A,113.2637,40.129,大同市,安家小村,颗粒物(PM10),75,85,63,20,21,108,108,111,111,18,22,11,13,0.2,0.7
2026-04-14T1900,3282A,113.3399,40.0586,大同市,大同市卫生学校,颗粒物(PM10),80,91,66,14,22,128,128,128,128,11,20,4,7,0.3,0.6
2026-04-14T1900,3565A,113.1371,40.1122,大同市,云冈站,颗粒物(PM10),72,80,59,23,21,118,118,116,116,6,20,6,6,0.4,0.6
2026-04-14T1900,3566A,113.1186,40.2556,大同市,图书馆,颗粒物(PM10),85,98,55,25,21,107,107,111,111,16,16,4,7,0.3,0.5
2026-04-14T1900,3567A,113.5931,40.0459,大同市,区一中,NA,NA,NA,53,NA,22,NA,NA,139,NA,NA,13,NA,10,NA,0.5
2026-04-14T1900,4199A,113.2798248,40.09972476,大同市,魏都大道141号,NA,NA,39,64,24,24,NA,NA,114,114,NA,21,NA,10,NA,0.9
2026-04-14T1900,2269A,124.1068,50.4091,大兴安岭地区,科技局,,32,32,21,19,10,77,77,76,76,5,4,8,8,0.2,0.2
2026-04-14T1900,3663A,124.117,50.4279,大兴安岭地区,红旗社区,,29,29,17,12,9,90,90,89,89,11,10,19,9,0.2,0.2
2026-04-14T1900,1600A,124.33,40.0625,丹东市,江湾东路,颗粒物(PM10),83,95,98,43,38,123,123,136,136,22,26,6,10,0.5,0.7
2026-04-14T1900,1601A,124.4242,40.1513,丹东市,临江后街,颗粒物(PM10),92,108,113,41,44,108,108,128,128,19,26,12,12,0.9,0.9
2026-04-14T1900,1602A,124.3935,40.1461,丹东市,元宝山,颗粒物(PM10),73,82,97,36,36,123,123,127,127,24,28,10,10,0.5,0.7
2026-04-14T1900,1603A,124.3634,40.1093,丹东市,民主桥,颗粒物(PM10),82,94,90,39,36,124,124,131,131,25,33,15,10,0.4,0.5
2026-04-14T1900,3541A,109.5726195,19.51688767,儋州市,第一中学子站,,50,50,57,31,39,106,106,121,121,7,8,8,10,0.4,0.5
2026-04-14T1900,3542A,109.5567,19.5187,儋州市,东坡学校子站,颗粒物(PM10),51,51,56,32,38,105,105,118,118,8,7,8,8,0.7,0.7
2026-04-14T1900,2616A,98.5611,24.4273,德宏傣族景颇族自治州,德宏州监测站,NA,NA,NA,73,NA,56,145,145,132,132,14,21,11,7,0.3,0.4
2026-04-14T1900,3677A,98.5887,24.4366,德宏傣族景颇族自治州,芒市人民政府综合楼,颗粒物(PM10),109,143,111,60,50,130,130,120,120,13,16,14,9,0.4,0.5
2026-04-14T1900,1901A,104.424,31.1209,德阳市,东山公园,,31,29,26,13,18,97,97,106,106,6,15,3,4,0.4,0.5
2026-04-14T1900,1902A,104.3827,31.1318,德阳市,西小区,,46,46,40,13,18,99,99,100,100,9,22,3,4,0.4,0.5
2026-04-14T1900,1904A,104.3553,31.1091,德阳市,耐火材料厂,颗粒物(PM10),55,57,38,14,20,109,109,119,119,14,22,2,2,0.3,0.4
2026-04-14T1900,4145A,104.4144,31.1495,德阳市,市林业局,,33,33,31,12,18,104,104,116,116,7,18,4,5,0.5,0.6
2026-04-14T1900,1622A,116.3034,37.4675,德州市,儿童乐园,颗粒物(PM10),74,83,116,39,53,152,152,154,154,12,25,8,14,0.7,0.8
2026-04-14T1900,1624A,116.2992,37.4449,德州市,监理站,颗粒物(PM10),75,85,109,33,50,148,148,155,155,19,27,9,15,0.5,0.7
2026-04-14T1900,3066A,116.2722,37.438,德州市,九衢泉纯净水厂,颗粒物(PM10),74,83,110,41,53,119,119,137,137,30,22,5,11,0.7,0.8
2026-04-14T1900,3371A,116.3693,37.44,德州市,开发区人民医院,颗粒物(PM10),75,85,110,37,52,152,152,152,152,15,26,10,15,0.7,0.7
2026-04-14T1900,3511A,116.5687,37.3331,德州市,陵城艺术中心,细颗粒物(PM2.5),80,68,93,50,55,136,136,142,142,13,17,5,10,0.7,0.9
2026-04-14T1900,4292A,116.352738,37.420875,德州市,新河东路,颗粒物(PM10),74,83,103,37,54,132,132,142,142,15,20,10,14,0.7,0.9
2026-04-14T1900,2621A,99.7054,27.8319,迪庆藏族自治州,迪庆州站,,39,37,26,18,15,124,124,129,128,12,10,8,9,0.4,0.5
2026-04-14T1900,3180A,99.7122,27.8129,迪庆藏族自治州,质量技术监督局,,41,35,24,14,14,130,130,135,134,12,12,6,6,0.5,0.5
2026-04-14T1900,4257A,104.6092,35.5962,定西市,将台街,,48,48,55,29,18,121,121,118,118,6,16,5,7,0.1,0.1
2026-04-14T1900,4309A,104.6159,35.5701,定西市,正龙路62号,,42,42,56,20,20,123,123,116,116,7,11,4,5,0.3,0.3
2026-04-14T1900,4071A,114.9883,38.5232,定州市,交通局,颗粒物(PM10),109,143,123,60,47,126,126,125,125,28,37,8,9,0.7,0.6
2026-04-14T1900,4072A,115.0045,38.5136,定州市,第五中学,颗粒物(PM10),119,167,129,60,44,127,127,127,127,26,45,5,6,0.7,0.6
2026-04-14T1900,1390A,113.7943,23.0132,东莞市,东城石井,,21,21,23,12,13,47,47,59,59,15,15,5,5,0.5,0.4
2026-04-14T1900,1391A,113.7384,22.9659,东莞市,南城西平,,19,19,20,9,9,48,48,56,55,10,12,5,4,0.5,0.5
2026-04-14T1900,3319A,113.7283,23.041,东莞市,万江金泰,NA,NA,26,22,17,12,43,43,54,53,NA,12,NA,6,0.6,0.6
2026-04-14T1900,4129A,113.8666,23.1062,东莞市,裕兴路,,28,28,32,12,15,40,40,58,58,19,20,5,6,0.7,0.7
2026-04-14T1900,4130A,114.0076,22.9739,东莞市,教育路1号,,28,28,32,9,13,43,43,60,60,17,21,6,6,0.6,0.6
2026-04-14T1900,4131A,113.7981,22.8124,东莞市,长怡路1号,,24,24,25,9,10,39,39,51,50,14,13,5,5,0.6,0.7
2026-04-14T1900,1666A,118.6612,37.4313,东营市,市环保局,NA,NA,NA,62,NA,38,138,138,178,178,NA,21,NA,10,NA,0.4
2026-04-14T1900,3036A,118.6903,37.4337,东营市,开发区管委会,细颗粒物(PM2.5),100,68,63,60,44,130,130,181,181,30,24,12,8,0.7,0.7
2026-04-14T1900,3365A,118.5721,37.5654,东营市,垦利区民丰路,细颗粒物(PM2.5),86,58,57,53,36,143,143,199,196,26,23,9,8,0.8,0.8
2026-04-14T1900,3498A,118.5063,37.8606,东营市,河口城区,"颗粒物(PM10),细颗粒物(PM2.5)",72,80,73,46,35,123,123,165,164,32,24,14,12,0.8,0.8
2026-04-14T1900,3646A,118.4979,37.4623,东营市,胜利站,细颗粒物(PM2.5),84,77,70,52,44,148,148,172,172,22,20,10,10,0.8,0.8
2026-04-14T1900,3734A,118.5753,37.4405,东营市,理想之城,颗粒物(PM10),79,90,70,44,33,172,172,191,191,32,28,8,7,0.6,0.6
2026-04-14T1900,1591A,110.0024,39.8127,鄂尔多斯市,综合楼,,41,41,152,14,33,124,124,124,124,9,13,6,6,0.3,0.3
2026-04-14T1900,1592A,109.9485,39.8259,鄂尔多斯市,巴音孟克林场办事处,,39,31,147,13,25,124,124,125,125,8,10,4,4,0.3,0.3
2026-04-14T1900,1593A,109.7734,39.5987,鄂尔多斯市,康泽苑,,41,31,115,10,21,129,129,127,127,6,9,8,8,0.3,0.2
2026-04-14T1900,1594A,109.8121,39.5987,鄂尔多斯市,华泰汽车城,,36,31,117,13,24,114,114,114,114,9,12,7,8,0.3,0.3
2026-04-14T1900,1595A,109.9734,39.7884,鄂尔多斯市,奥林花园,,36,34,143,11,21,114,114,119,119,17,17,6,5,0.2,0.2
2026-04-14T1900,2436A,114.894,30.3989,鄂州市,市政府,,23,17,22,16,10,60,60,64,64,20,15,8,9,0.7,0.7
2026-04-14T1900,2437A,114.8986,30.3714,鄂州市,赵家坝,NA,NA,NA,23,NA,9,NA,NA,69,69,NA,7,NA,8,NA,0.4
2026-04-14T1900,3654A,114.8093,30.4091,鄂州市,精准医疗中心,,21,16,22,8,10,65,65,70,70,8,7,4,5,0.5,0.7
2026-04-14T1900,2454A,109.4978,30.2979,恩施土家族苗族自治州,湖北民院,,21,21,20,9,13,64,64,58,58,4,10,7,7,0.5,0.7
2026-04-14T1900,3549A,109.5061,30.3771,恩施土家族苗族自治州,龙凤新区,NA,NA,NA,15,NA,11,56,56,47,47,7,4,NA,7,NA,0.4
2026-04-14T1900,2499A,108.3411,21.6159,防城港市,沙万,颗粒物(PM10),63,68,53,28,29,73,73,87,84,21,13,6,7,0.5,0.7
2026-04-14T1900,2500A,108.3515,21.7733,防城港市,防城档案局,细颗粒物(PM2.5),54,42,48,37,34,96,96,96,96,4,4,7,8,0.7,0.7
2026-04-14T1900,2501A,108.3506,21.6414,防城港市,大海花园,"颗粒物(PM10),细颗粒物(PM2.5)",64,69,45,42,34,76,76,99,96,17,6,8,9,0.6,0.6
2026-04-14T1900,1371A,113.1293,23.0065,佛山市,湾梁,,31,31,24,15,15,38,38,52,51,16,15,/,/,/,/
2026-04-14T1900,1372A,113.1082,23.0477,佛山市,华材职中,,29,29,24,18,17,44,44,54,54,15,15,3,4,0.3,0.3
2026-04-14T1900,1373A,113.1439,23.045,佛山市,南海气象局,,30,30,27,21,17,37,37,47,47,19,18,/,/,/,/
2026-04-14T1900,1374A,113.2879,22.8094,佛山市,顺德苏岗,,28,28,24,12,12,42,42,51,51,11,11,/,/,0.6,0.5
2026-04-14T1900,1376A,112.8384,22.8678,佛山市,高明孔堂,,27,27,22,12,12,43,43,53,52,8,8,/,/,/,/
2026-04-14T1900,1377A,112.8835,23.1584,佛山市,三水监测站,,48,48,26,22,18,28,28,44,43,27,24,3,3,0.4,0.3
2026-04-14T1900,1378A,112.8668,23.185,佛山市,三水云东海,,48,48,41,19,16,34,34,44,43,22,21,/,/,/,/
2026-04-14T1900,3625A,113.2568,22.7629,佛山市,容桂街道办,,20,19,20,14,14,38,38,45,45,15,15,/,/,/,/
2026-04-14T1900,1282A,119.2681,26.0506,福州市,师大,颗粒物(PM10),51,51,49,22,32,88,88,95,95,19,22,4,4,0.4,0.4
2026-04-14T1900,1283A,119.2983,26.1028,福州市,五四北路,颗粒物(PM10),53,54,46,30,34,96,96,98,98,20,21,5,4,0.3,0.3
2026-04-14T1900,1284A,119.2648,26.0769,福州市,杨桥西路,,48,48,46,26,34,95,95,99,99,17,20,5,4,/,/
2026-04-14T1900,3048A,119.5799,26.0937,福州市,九龙,,40,40,32,24,23,60,60,87,86,19,18,5,5,0.5,0.4
2026-04-14T1900,3526A,119.5188,25.9666,福州市,吴航,,24,24,44,14,30,76,76,87,87,16,21,6,6,0.5,0.6
2026-04-14T1900,4104A,119.3106,26.0648,福州市,路通桥巷6号,,38,37,46,26,32,89,89,91,91,15,20,/,/,/,/
2026-04-14T1900,1755A,123.7974,41.8494,抚顺市,望花区,细颗粒物(PM2.5),115,137,111,76,82,103,103,143,142,32,29,13,11,1.0,0.9
2026-04-14T1900,1756A,123.9161,41.8827,抚顺市,顺城区,细颗粒物(PM2.5),134,105,103,97,82,76,76,131,128,52,38,11,12,1.0,0.8
2026-04-14T1900,1757A,124.0437,41.8615,抚顺市,东洲区,NA,NA,NA,114,NA,89,98,98,149,144,NA,28,8,12,0.8,0.7
2026-04-14T1900,1758A,123.9246,41.8638,抚顺市,新抚区,细颗粒物(PM2.5),130,NA,118,92,88,75,75,146,139,40,32,8,11,1.1,0.9
2026-04-14T1900,1759A,124.0972,41.8961,抚顺市,大伙房水库,细颗粒物(PM2.5),131,114,113,94,92,101,101,154,151,24,23,8,11,0.8,0.7
2026-04-14T1900,1760A,123.708,41.8386,抚顺市,沈抚新城,细颗粒物(PM2.5),112,128,115,73,80,94,94,130,130,39,37,12,12,0.8,0.9
2026-04-14T1900,2377A,116.3544,27.9833,抚州市,市站,,32,22,26,17,20,101,101,94,94,10,9,3,3,1.1,1
2026-04-14T1900,2378A,116.3562,27.9631,抚州市,血防站,,30,20,27,14,20,95,95,89,89,9,8,7,7,0.8,0.8
2026-04-14T1900,2379A,116.3561,28.0007,抚州市,采茶剧团,,30,21,36,11,17,93,93,89,89,8,7,9,8,1.0,0.9
2026-04-14T1900,2380A,116.3854,27.9648,抚州市,医学分院,,30,16,34,10,15,96,96,88,88,6,7,6,8,1.5,1.4
2026-04-14T1900,2207A,121.6095,41.9978,阜新市,工业园区,,30,28,44,21,24,84,84,98,98,14,16,1,6,0.4,0.4
2026-04-14T1900,2208A,121.6567,42.0188,阜新市,长青街,,29,NA,34,20,24,83,83,97,97,15,17,6,10,0.6,0.4
2026-04-14T1900,2209A,121.6672,42.07,阜新市,农业园区,,29,29,38,14,24,83,83,99,99,13,13,3,6,0.4,0.5
2026-04-14T1900,2211A,121.6343,42.0455,阜新市,玉龙新城,,26,22,39,15,24,82,82,99,99,16,19,4,6,0.4,0.4
2026-04-14T1900,2301A,115.8276,32.8929,阜阳市,市监测站,NA,NA,43,25,15,13,NA,NA,89,89,24,15,5,5,0.3,0.2
2026-04-14T1900,2303A,115.8551,32.8606,阜阳市,开发区,,41,41,25,18,13,81,81,91,91,14,13,5,5,0.5,0.4
2026-04-14T1900,2875A,115.783962,32.889217,阜阳市,阜阳职业技术学院,,47,47,24,12,14,88,88,93,93,10,8,6,6,0.5,0.4
2026-04-14T1900,3468A,115.79,32.8614,阜阳市,市规划展馆,,36,36,27,18,15,91,91,94,94,13,10,7,7,0.5,0.5
2026-04-14T1900,3469A,115.835101,32.918568,阜阳市,枣园社区,,32,32,24,12,16,80,80,90,90,14,11,6,6,0.4,0.4
2026-04-14T1900,2669A,102.9097,34.9841,甘南藏族自治州,州政府,,36,36,28,23,13,103,103,98,98,5,11,2,2,0.2,0.3
2026-04-14T1900,3380A,102.8915,34.9618,甘南藏族自治州,甘肃民族师范学院,,42,42,26,17,14,124,124,118,118,2,9,3,2,0.1,0.2
2026-04-14T1900,2570A,101.96,30.048,甘孜藏族自治州,水桥子,,25,12,9,3,3,80,80,86,86,9,11,6,6,0.2,0.2
2026-04-14T1900,3065A,101.9534,29.9976,甘孜藏族自治州,州环保局,,25,24,7,7,3,78,78,97,95,24,13,4,4,0.4,0.3
2026-04-14T1900,2363A,114.9368,25.8663,赣州市,地委,,30,30,47,18,27,49,49,57,56,9,19,1,2,1.2,1
2026-04-14T1900,2364A,114.946,25.8483,赣州市,气象台,,34,34,42,20,29,47,47,63,61,12,17,5,6,1.0,0.8
2026-04-14T1900,2365A,114.932,25.8332,赣州市,市图书馆,,39,NA,40,27,32,57,57,68,67,9,15,4,5,1.1,0.9
2026-04-14T1900,2366A,114.8905,25.8472,赣州市,华坚鞋城,,30,28,46,21,33,43,43,61,59,13,16,6,8,1.2,0.9
2026-04-14T1900,3109A,115.0094,25.8614,赣州市,赣县区卫计委,,36,NA,47,25,28,41,41,54,52,19,24,2,4,1.0,0.8
2026-04-14T1900,2684A,106.2753,36.0057,固原市,监测站,,45,45,58,14,16,109,109,109,109,9,18,5,5,0.3,0.4
2026-04-14T1900,2685A,106.2384,36.0189,固原市,新区,,49,49,54,12,14,103,103,109,109,16,13,5,5,0.4,0.4
2026-04-14T1900,2544A,106.6307,30.4577,广安市,市委,NA,NA,NA,13,NA,12,NA,NA,61,61,8,9,6,6,0.4,0.4
2026-04-14T1900,2545A,106.6266,30.4662,广安市,友谊中学,,31,31,16,7,11,78,78,61,61,13,8,8,8,0.6,0.6
2026-04-14T1900,2547A,106.6386,30.4551,广安市,广电花园,,29,29,19,8,13,73,73,56,56,15,11,6,5,0.4,0.4
2026-04-14T1900,2902A,106.6347,30.4868,广安市,北辰小学,,24,22,17,11,13,75,75,63,63,13,8,7,8,0.5,0.4
2026-04-14T1900,2524A,105.8211,32.4444,广元市,老城,,33,33,25,22,14,86,86,94,94,11,20,4,3,0.6,0.6
2026-04-14T1900,2526A,105.8629,32.429,广元市,监测站,,44,44,31,13,11,77,77,93,93,12,13,4,3,0.4,0.5
2026-04-14T1900,3617A,105.8047,32.4167,广元市,经开区,,36,36,30,17,16,88,88,93,93,14,20,11,6,0.5,0.5
2026-04-14T1900,1345A,113.2346,23.1423,广州市,广雅中学,,35,35,30,16,15,37,37,45,45,18,18,3,2,0.6,0.5
2026-04-14T1900,1346A,113.2611,23.105,广州市,市五中,,30,30,26,18,17,43,43,55,55,21,21,4,2,/,/
2026-04-14T1900,1348A,113.3477,23.0916,广州市,广东商学院,,33,33,25,18,16,19,19,36,34,33,23,4,4,0.6,0.5
2026-04-14T1900,1349A,113.4332,23.105,广州市,市八十六中,,17,17,19,9,11,20,20,27,26,34,28,6,6,/,/
2026-04-14T1900,1350A,113.3506,22.9488,广州市,番禺中学,,27,27,26,15,13,46,46,50,50,14,19,5,4,0.5,0.5
2026-04-14T1900,1351A,113.2147,23.3918,广州市,花都师范,颗粒物(PM10),52,52,36,24,18,26,26,40,38,42,28,6,6,0.8,0.7
2026-04-14T1900,1352A,113.2599,23.1329,广州市,市监测站,,30,30,28,17,14,41,41,50,50,13,14,4,2,/,/
2026-04-14T1900,1353A,113.5618,23.3119,广州市,九龙镇镇龙,,34,34,34,18,18,25,25,28,28,32,29,5,6,0.5,0.4
2026-04-14T1900,1354A,113.2764,23.1544,广州市,麓湖,,31,31,27,18,15,42,42,49,49,17,17,6,4,0.5,0.5
2026-04-14T1900,2846A,113.3209,23.1323,广州市,体育西,NA,NA,35,31,17,13,18,18,35,32,35,24,NA,5,0.6,0.5
2026-04-14T1900,3298A,113.5718,23.5493,广州市,从化街口,,36,36,30,20,17,34,34,46,45,23,17,8,7,0.6,0.6
2026-04-14T1900,3299A,113.3463,23.369,广州市,白云竹料,NA,NA,NA,37,19,15,22,22,34,32,39,24,4,3,0.8,0.6
2026-04-14T1900,3300A,113.2981,23.2365,广州市,白云嘉禾,,38,38,33,17,15,24,24,33,29,34,29,5,8,/,/
2026-04-14T1900,3301A,113.4256,23.1716,广州市,黄埔科学城,,36,36,28,18,14,19,19,28,27,37,31,6,6,0.5,0.5
2026-04-14T1900,3302A,113.3942,23.0485,广州市,番禺大学城,,27,27,23,12,10,29,29,42,40,29,22,4,4,0.5,0.5
2026-04-14T1900,3303A,113.4923,22.8169,广州市,南沙黄阁,,26,26,23,14,11,40,40,45,45,14,12,5,5,/,/
2026-04-14T1900,3304A,113.534,22.7893,广州市,南沙街,,28,28,21,12,11,40,40,45,45,13,14,4,5,0.5,0.3
2026-04-14T1900,3443A,113.2905,23.5541,广州市,花都梯面,,37,37,33,17,17,28,28,35,35,28,22,8,8,/,/
2026-04-14T1900,3445A,113.786,23.7479,广州市,从化良口,,35,34,28,24,20,51,51,62,62,13,17,4,4,/,/
2026-04-14T1900,3446A,113.805,23.2614,广州市,增城荔城,,27,27,31,15,17,39,39,48,48,17,19,5,6,0.4,0.4
2026-04-14T1900,2506A,109.604387,23.066791,贵港市,江南子站,颗粒物(PM10),62,66,56,33,30,74,74,83,83,13,13,8,9,0.8,0.7
2026-04-14T1900,2508A,109.5669,23.1065,贵港市,荷城子站,细颗粒物(PM2.5),62,63,51,41,34,67,67,73,73,17,17,14,11,0.9,0.9
2026-04-14T1900,3405A,109.5886,23.1172,贵港市,新世纪学校,细颗粒物(PM2.5),62,61,56,41,34,72,72,72,72,15,20,/,/,0.8,0.7
2026-04-14T1900,4260A,109.5933,23.095,贵港市,中山路155-3号,颗粒物(PM10),60,63,62,35,33,72,72,80,80,14,14,/,/,0.8,0.8
2026-04-14T1900,1439A,106.6863,26.6035,贵阳市,马鞍山,细颗粒物(PM2.5),54,53,30,37,21,55,55,67,67,13,10,4,4,/,/
2026-04-14T1900,1441A,106.6241,26.6266,贵阳市,鉴湖路,颗粒物(PM10),60,63,46,39,23,69,69,75,75,13,10,5,6,0.9,0.7
2026-04-14T1900,1442A,106.7468,26.6344,贵阳市,燕子冲,颗粒物(PM10),53,53,36,29,20,69,69,69,69,12,8,4,5,0.7,1
2026-04-14T1900,1443A,106.6556,26.4362,贵阳市,碧云窝,颗粒物(PM10),58,61,48,26,21,79,79,93,93,11,10,6,6,/,/
2026-04-14T1900,1445A,106.6963,26.6063,贵阳市,红边门,颗粒物(PM10),55,56,35,26,24,64,64,72,71,14,9,3,10,/,/
2026-04-14T1900,1446A,106.7162383,26.56964667,贵阳市,新华路,颗粒物(PM10),53,53,37,31,19,64,64,74,74,16,9,13,9,0.2,0.4
2026-04-14T1900,1447A,106.6742,26.542,贵阳市,太慈桥,,39,39,32,24,21,68,68,72,72,13,9,3,4,/,/
2026-04-14T1900,4230A,106.688212,26.56952,贵阳市,花果园大街66号,,43,39,22,30,21,69,69,72,72,13,8,2,3,/,/
2026-04-14T1900,4231A,106.687268,26.516892,贵阳市,漓江路57号,,44,44,25,21,21,58,58,67,67,14,9,5,6,0.9,0.9
2026-04-14T1900,1864A,110.3091,25.2705,桂林市,龙隐路小学,,22,19,23,15,13,65,65,62,62,7,8,3,3,0.6,0.6
2026-04-14T1900,1865A,110.2849361,25.22909545,桂林市,八中,,22,22,25,6,12,55,55,53,53,13,13,3,3,0.7,0.8
2026-04-14T1900,3531A,110.296,25.1254,桂林市,旅游学院,,36,36,29,12,16,58,58,57,57,10,10,6,6,0.8,0.8
2026-04-14T1900,4222A,110.1835,25.2444,桂林市,环湖路276号,,19,12,20,7,15,60,60,58,58,6,8,2,5,0.6,0.6
2026-04-14T1900,4301A,110.2803,25.2773,桂林市,信义路13号,,20,16,22,10,18,63,63,59,59,11,11,4,4,0.8,0.8
2026-04-14T1900,2674A,100.2262,34.4854,果洛藏族自治州,玛沁县大武镇,NA,NA,42,46,27,21,113,113,110,110,NA,2,20,21,0.4,0.4
2026-04-14T1900,1130A,126.5557,45.8109,哈尔滨市,松北商大,,48,37,44,33,28,91,91,106,105,14,33,12,7,0.3,0.4
2026-04-14T1900,1132A,126.6162,45.719,哈尔滨市,南岗学府路,,49,49,55,26,25,91,91,105,104,13,29,5,8,0,0.1
2026-04-14T1900,1133A,126.6894,45.7733,哈尔滨市,太平宏伟公园,细颗粒物(PM2.5),72,61,57,46,32,78,78,99,97,26,26,6,6,0.4,0.4
2026-04-14T1900,1134A,126.6361,45.7672,哈尔滨市,道外承德广场,颗粒物(PM10),70,78,59,38,22,75,75,96,94,34,30,23,9,0,0.6
2026-04-14T1900,1136A,126.644,45.7261,哈尔滨市,动力和平路,,48,48,55,32,31,93,93,100,99,16,31,4,6,0.4,0.7
2026-04-14T1900,1137A,126.5933,45.7479,哈尔滨市,道里建国路,细颗粒物(PM2.5),52,41,45,36,24,84,84,102,101,25,37,7,4,0.3,1
2026-04-14T1900,1138A,126.6127,45.6119,哈尔滨市,平房东轻厂,NA,NA,48,51,34,38,NA,NA,71,71,NA,113,12,10,0.5,0.7
2026-04-14T1900,1139A,126.5875,45.9827,哈尔滨市,呼兰师专,NA,NA,NA,53,NA,33,NA,NA,79,NA,NA,46,NA,9,NA,0.2
2026-04-14T1900,1140A,126.6299,45.6799,哈尔滨市,省农科院,,50,50,75,24,34,95,95,100,100,12,31,6,10,0.4,0.7
2026-04-14T1900,4282A,126.6769,45.7379,哈尔滨市,华山路1号,NA,NA,56,53,28,33,95,95,NA,NA,14,10,NA,3,0.6,1.1
2026-04-14T1900,4283A,126.9717,45.5356,哈尔滨市,解放大街52号,颗粒物(PM10),70,78,75,35,26,83,83,101,97,26,31,8,8,0.6,0.7
2026-04-14T1900,2688A,93.5124,42.8176,哈密市,地区监测站,,36,34,38,9,12,113,113,110,110,4,13,9,10,0.1,0.2
2026-04-14T1900,2689A,93.5014,42.8312,哈密市,哈密师范学校,,41,41,52,13,17,110,110,109,109,5,19,8,9,0.2,0.2
2026-04-14T1900,2671A,100.9016,36.9464,海北藏族自治州,海晏县西海镇,,39,34,30,23,19,122,122,116,116,1,4,8,7,0.7,0.4
2026-04-14T1900,3867A,102.074,36.5056,海东市,平安区公安局北苑,,45,45,45,19,24,122,122,121,121,9,9,9,13,0.5,0.5
2026-04-14T1900,4163A,102.0984,36.5119,海东市,滨河路,,43,43,36,25,25,89,89,103,101,30,26,5,9,0.6,0.6
2026-04-14T1900,1410A,110.3189,20.0596,海口市,海南大学,,27,27,38,15,24,66,66,109,105,5,6,5,6,0.3,0.4
2026-04-14T1900,1411A,110.2827,20.0051,海口市,秀英海南医院,,23,23,31,15,24,48,48,99,93,17,9,8,7,0.3,0.3
2026-04-14T1900,1412A,110.3391,19.9979,海口市,海南师范大学,,30,30,36,14,23,63,63,105,101,6,6,6,6,0.4,0.4
2026-04-14T1900,1413A,110.3303,20.0359,海口市,龙华路环保局宿舍,,34,34,35,16,24,66,66,108,104,7,7,/,/,0.6,0.6
2026-04-14T1900,3539A,110.5111,19.9737,海口市,桂林洋子站,NA,NA,NA,24,14,18,52,52,81,76,6,5,/,/,/,/
2026-04-14T1900,4134A,110.1952,20.0451,海口市,长滨二路9号,,36,36,41,18,27,72,72,118,111,12,8,/,/,/,/
2026-04-14T1900,2673A,100.6158,36.2985,海南藏族自治州,共和县恰卜恰镇,,47,47,41,25,20,136,136,128,128,1,6,7,9,0.2,0.3
2026-04-14T1900,2676A,97.373,37.376,海西蒙古族藏族自治州,德令哈市,颗粒物(PM10),75,85,45,31,18,148,148,149,149,8,2,15,15,0.3,0.3
2026-04-14T1900,1049A,114.492,36.5712,邯郸市,矿院,,42,40,79,29,42,116,116,137,137,6,19,7,7,0.3,0.6
2026-04-14T1900,1050A,114.4839,36.6136,邯郸市,丛台公园,,45,37,75,31,46,118,118,136,136,8,20,11,12,0.3,0.5
2026-04-14T1900,3458A,114.7893,36.5592,邯郸市,香泉濮院小区,,40,40,91,23,50,106,106,132,132,8,20,1,3,0.3,0.4
2026-04-14T1900,3580A,114.1998,36.4439,邯郸市,峰峰矿区临水派出所,细颗粒物(PM2.5),52,51,73,36,50,130,130,151,151,13,20,9,10,0.4,0.7
2026-04-14T1900,4068A,114.5209,36.7697,邯郸市,建安街268号,颗粒物(PM10),53,53,86,30,45,116,116,140,140,10,22,2,3,0.3,0.5
2026-04-14T1900,4069A,114.5488,36.6177,邯郸市,丛台东路558号,,39,36,82,27,48,111,111,135,135,6,30,3,5,0.4,0.6
2026-04-14T1900,2635A,107.0155,33.0707,汉中市,市监测站,,34,34,27,12,16,93,93,102,102,2,4,4,4,0.4,0.4
2026-04-14T1900,2636A,107.0083,33.114,汉中市,鑫源开发区,,28,23,24,11,16,87,87,98,98,9,10,5,4,0.3,0.3
2026-04-14T1900,2637A,107.0072,33.0323,汉中市,南郑大河坎水厂,,30,30,30,13,17,91,91,98,98,7,11,3,4,0.4,0.4
2026-04-14T1900,1223A,120.2073,30.2111,杭州市,滨江,,33,33,38,20,24,50,50,49,43,27,23,7,7,1.2,1
2026-04-14T1900,1224A,120.0625,30.2737,杭州市,西溪,,21,21,28,13,20,36,36,41,41,16,25,4,4,1.1,0.9
2026-04-14T1900,1226A,120.3417,30.315,杭州市,下沙,NA,NA,46,58,20,23,56,56,56,56,24,24,NA,6,1.1,0.8
2026-04-14T1900,1227A,120.1252,30.2465,杭州市,卧龙桥,,25,25,29,17,20,29,29,40,40,31,30,7,7,0.6,0.4
2026-04-14T1900,1228A,120.1902,30.2691,杭州市,浙江农大,,29,25,24,20,24,45,45,44,44,39,30,7,7,0.8,0.4
2026-04-14T1900,1230A,120.1195,30.3121,杭州市,和睦小学,颗粒物(PM10),56,58,57,22,24,39,39,44,44,36,29,6,6,0.9,0.7
2026-04-14T1900,1231A,120.3076,30.4146,杭州市,临平镇,,33,33,35,23,24,66,66,66,66,24,22,6,6,0.9,0.6
2026-04-14T1900,1232A,120.2753,30.1839,杭州市,城厢镇,,28,28,28,18,24,52,52,52,52,31,28,5,5,0.9,0.6
2026-04-14T1900,1233A,120.0883,30.1808,杭州市,云栖,,19,19,25,12,17,41,41,43,43,16,22,6,6,0.9,0.8
2026-04-14T1900,3557A,119.9463,30.0496,杭州市,镇二中,,25,25,40,16,30,45,45,44,44,34,26,4,4,0.8,0.7
2026-04-14T1900,3558A,119.7184,30.2367,杭州市,市府大楼,,22,15,21,15,27,44,44,45,45,22,16,6,6,0.8,0.7
2026-04-14T1900,3656A,120.1554,30.2863,杭州市,消防大队,,41,41,50,20,22,46,46,48,48,38,30,4,4,1.1,0.8
2026-04-14T1900,1270A,117.1957,31.7845,合肥市,明珠广场,,44,44,28,19,16,79,79,88,87,20,15,6,6,0.6,0.5
2026-04-14T1900,1271A,117.307,31.8765,合肥市,三里街,,48,48,31,23,16,70,70,82,80,23,17,6,6,0.6,0.5
2026-04-14T1900,1272A,117.2587,31.8703,合肥市,琥珀山庄,,46,46,30,23,16,72,72,86,84,26,18,6,6,0.8,0.6
2026-04-14T1900,1275A,117.2593,31.9376,合肥市,庐阳区,,46,46,32,20,16,84,84,90,90,13,12,5,5,0.6,0.7
2026-04-14T1900,1276A,117.345251,31.861615,合肥市,瑶海区,颗粒物(PM10),56,58,35,19,13,69,69,86,84,28,14,6,6,0.6,0.5
2026-04-14T1900,1277A,117.3033,31.7967,合肥市,包河区,,39,39,31,16,13,44,44,76,73,54,31,8,8,0.8,0.7
2026-04-14T1900,1278A,117.278,31.7392,合肥市,滨湖新区,,39,39,32,16,13,78,78,81,81,19,14,4,5,0.5,0.5
2026-04-14T1900,1279A,117.1324,31.8395,合肥市,高新区,,41,41,31,16,14,78,78,90,89,16,8,5,5,0.6,0.5
2026-04-14T1900,3464A,117.3802,31.9148,合肥市,高教基地,,48,48,31,21,14,66,66,82,79,16,12,8,8,0.5,0.5
2026-04-14T1900,4098A,117.2518,31.8404,合肥市,中国科学技术大学,,44,44,26,18,14,80,80,89,88,15,9,5,5,0.6,0.6
2026-04-14T1900,3614A,79.9241,37.0878,和田地区,地区环保局,颗粒物(PM10),121,173,406,72,178,129,129,115,115,2,3,2,2,0.3,0.3
2026-04-14T1900,3615A,79.9132,37.1137,和田地区,市环保局,颗粒物(PM10),127,188,386,46,172,120,120,105,105,4,8,3,5,0.2,0.3
2026-04-14T1900,2517A,108.0496,24.6957,河池市,市环保站,颗粒物(PM10),53,54,59,33,38,42,42,79,55,3,6,5,6,0.7,0.8
2026-04-14T1900,4302A,108.0901,24.6945,河池市,上任中路54号,颗粒物(PM10),54,55,53,29,35,40,40,79,50,5,10,6,7,0.8,0.9
2026-04-14T1900,1697A,114.6962,23.7538,河源市,东埔,,40,40,31,25,18,40,40,54,54,16,11,5,6,0.6,0.5
2026-04-14T1900,1698A,114.6895,23.7232,河源市,老城,细颗粒物(PM2.5),68,60,40,44,21,33,33,52,51,20,12,6,6,0.6,0.4
2026-04-14T1900,3374A,115.5562,35.089,菏泽市,定陶老年大学,,38,31,34,10,13,119,119,129,129,16,15,5,5,0.2,0.2
2026-04-14T1900,4114A,115.4239,35.2593,菏泽市,黄河路600号,,50,50,45,12,18,109,109,120,120,11,11,3,4,0.3,0.3
2026-04-14T1900,4115A,115.5025,35.2727,菏泽市,菏泽市人社局,,38,38,34,9,16,120,120,128,128,5,7,6,7,0.2,0.2
2026-04-14T1900,4184A,115.479691,35.244011,菏泽市,永昌路1号,,42,33,37,10,16,132,132,139,139,13,14,2,3,0.3,0.3
2026-04-14T1900,4193A,115.471542,35.280012,菏泽市,长城路999号,,41,39,36,10,15,130,130,135,135,9,11,6,6,0.1,0.2
2026-04-14T1900,2514A,111.5264,24.4178,贺州市,环保小区,颗粒物(PM10),60,63,43,34,27,44,44,56,56,22,16,8,7,0.7,0.4
2026-04-14T1900,2515A,111.561,24.4074,贺州市,政协大楼,细颗粒物(PM2.5),60,59,35,40,28,54,54,68,67,19,13,10,9,0.8,0.7
2026-04-14T1900,3534A,111.4744,24.455,贺州市,西湾,颗粒物(PM10),60,64,51,25,26,30,30,64,61,21,14,10,9,0.8,0.6
2026-04-14T1900,2385A,114.17,35.9019,鹤壁市,市监测站,,44,44,68,22,49,99,99,128,128,12,20,5,7,0.4,0.8
2026-04-14T1900,2386A,114.2953,35.7512,鹤壁市,市交警支队,,45,45,71,20,38,88,88,113,113,20,25,4,6,0.4,0.6
2026-04-14T1900,2387A,114.2877,35.7302,鹤壁市,迎宾馆,,40,40,78,25,39,88,88,116,116,9,17,5,6,0.4,0.5
2026-04-14T1900,3474A,114.2616,35.6824,鹤壁市,大新区,,40,29,61,28,44,88,88,114,113,20,24,8,8,0.5,0.6
2026-04-14T1900,3596A,114.1573,35.9607,鹤壁市,南山宾馆,颗粒物(PM10),53,54,90,28,47,96,96,125,125,15,19,8,9,0.4,0.8
2026-04-14T1900,2244A,130.2537,47.3416,鹤岗市,哈啤分公司,细颗粒物(PM2.5),68,NA,22,44,11,70,70,85,84,22,8,12,9,0.5,0.3
2026-04-14T1900,2245A,130.2683,47.3087,鹤岗市,斯达机电,,50,49,29,35,11,81,81,83,83,14,7,11,10,0.4,0.3
2026-04-14T1900,2246A,130.3114,47.3388,鹤岗市,东山纸板厂,颗粒物(PM10),75,84,36,42,12,76,76,90,89,21,11,9,7,0.5,0.5
2026-04-14T1900,2263A,127.4832,50.2524,黑河市,交通局,,36,36,20,15,13,64,64,78,78,16,9,5,6,0.4,0.3
2026-04-14T1900,2264A,127.5146,50.2339,黑河市,环保局,,39,39,21,20,11,68,68,79,79,20,12,8,7,0.4,0.3
2026-04-14T1900,1074A,115.6839,37.754,衡水市,电机北厂,细颗粒物(PM2.5),86,82,97,53,46,144,144,148,148,16,32,6,9,0.3,0.4
2026-04-14T1900,1075A,115.6303,37.7318,衡水市,市监测站,颗粒物(PM10),70,78,98,29,42,136,136,144,144,19,33,5,7,0.4,0.5
2026-04-14T1900,3188A,115.6684,37.7216,衡水市,市城管局,"颗粒物(PM10),细颗粒物(PM2.5)",80,92,96,50,44,140,140,152,152,17,28,2,7,0.5,0.5
2026-04-14T1900,3459A,115.599,37.5491,衡水市,地表水厂,颗粒物(PM10),82,94,89,34,38,116,116,143,143,26,25,4,5,0.4,0.4
2026-04-14T1900,2457A,112.6209,26.9268,衡阳市,衡阳化工总厂,,24,24,19,8,11,54,54,75,58,10,7,5,4,0.6,0.6
2026-04-14T1900,2458A,112.621,26.8957,衡阳市,珠晖区环保局,,17,17,19,3,9,52,52,72,54,12,12,6,6,0.8,0.8
2026-04-14T1900,2459A,112.628,26.8654,衡阳市,市委党校,,19,16,17,6,11,60,60,79,58,4,4,7,7,0.8,0.8
2026-04-14T1900,2460A,112.6007,26.8977,衡阳市,市监测站,,22,18,20,15,13,55,55,71,55,12,9,7,6,0.8,0.7
2026-04-14T1900,2461A,112.5658,26.9013,衡阳市,真空机电公司,,23,NA,22,16,13,53,53,72,60,14,10,8,6,1.0,1
2026-04-14T1900,3399A,112.6703,26.8817,衡阳市,师范学院,,18,18,19,10,13,56,56,84,63,9,7,8,5,0.7,0.7
2026-04-14T1900,3038A,103.3757,23.3679,红河哈尼族彝族自治州,州图书馆,细颗粒物(PM2.5),64,60,68,42,46,152,152,152,152,6,9,5,6,0.3,0.4
2026-04-14T1900,4154A,103.401,23.3561,红河哈尼族彝族自治州,蒙自市朝阳路,细颗粒物(PM2.5),58,45,53,39,44,154,154,151,150,6,11,5,6,0.5,0.5
2026-04-14T1900,1090A,111.6506,40.7517,呼和浩特市,呼市一监,颗粒物(PM10),95,112,77,33,29,127,127,122,122,10,17,8,9,0.4,0.5
2026-04-14T1900,1094A,111.7516,40.8369,呼和浩特市,如意水处理厂,颗粒物(PM10),83,96,73,27,28,135,135,124,124,8,20,8,8,0.3,0.4
2026-04-14T1900,1095A,111.727798,40.806187,呼和浩特市,二十九中,颗粒物(PM10),104,128,85,25,31,127,127,116,116,8,14,10,9,0.3,0.5
2026-04-14T1900,1097A,111.717,40.7617,呼和浩特市,化肥厂生活区,颗粒物(PM10),90,105,76,44,38,126,126,122,122,15,20,8,8,0.4,0.5
2026-04-14T1900,3699A,111.6519,40.8389,呼和浩特市,海东办,颗粒物(PM10),102,124,87,19,31,124,124,116,116,11,25,7,6,0.2,0.4
2026-04-14T1900,4275A,111.591512,40.827312,呼和浩特市,成吉思汗西街8号,颗粒物(PM10),102,124,90,19,30,118,118,112,112,14,35,7,7,0.3,0.5
2026-04-14T1900,4276A,111.6597,40.8077,呼和浩特市,公园东路75号,颗粒物(PM10),105,132,87,19,31,118,118,108,108,12,20,6,6,0.3,0.5
2026-04-14T1900,4277A,111.5427,40.7846,呼和浩特市,金海路35号,颗粒物(PM10),104,129,85,16,29,121,121,116,116,16,27,6,7,0.3,0.4
2026-04-14T1900,3061A,119.7511,49.1576,呼伦贝尔市,国华电力东,,28,28,23,16,12,86,86,92,91,9,10,5,5,0.3,0.3
2026-04-14T1900,4279A,119.7569,49.2222,呼伦贝尔市,伊敏大街东7号,,30,30,28,20,11,90,90,93,93,10,12,6,6,0.5,0.4
2026-04-14T1900,1250A,120.075,30.867,湖州市,城西水厂,,39,33,27,27,22,91,91,54,53,24,23,5,4,0.9,0.7
2026-04-14T1900,2873A,120.083,30.8929,湖州市,仁皇山新区,,40,31,28,28,24,88,88,59,59,18,21,5,4,0.9,0.9
2026-04-14T1900,2907A,120.1846,30.8592,湖州市,吴兴区站,,46,35,31,32,26,105,105,69,69,20,23,5,5,0.7,0.6
2026-04-14T1900,3562A,120.4146,30.8538,湖州市,南浔区站,NA,NA,40,35,37,29,103,103,97,97,13,17,NA,4,1.0,0.8
2026-04-14T1900,1607A,120.904878,40.721091,葫芦岛市,龙港区,NA,NA,61,69,36,33,NA,NA,79,76,34,35,11,41,0.6,0.8
2026-04-14T1900,1608A,120.8382,40.7521,葫芦岛市,化工街,细颗粒物(PM2.5),80,NA,61,50,35,66,66,73,69,35,34,14,17,0.7,0.5
2026-04-14T1900,1609A,120.8339,40.7078,葫芦岛市,新区,细颗粒物(PM2.5),64,68,54,42,33,72,72,74,70,30,33,9,18,0.6,0.6
2026-04-14T1900,1610A,120.8697,40.7679,葫芦岛市,东城区,细颗粒物(PM2.5),68,NA,57,44,36,70,70,76,68,32,37,9,18,0.6,0.6
2026-04-14T1900,2483A,109.9297,27.5383,怀化市,河西地税局,,23,23,21,12,16,35,35,62,49,14,7,5,5,/,/
2026-04-14T1900,2484A,109.9783,27.5342,怀化市,市四医院,NA,NA,26,27,13,16,43,43,60,49,10,7,NA,2,0.5,0.4
2026-04-14T1900,2485A,109.9971,27.5579,怀化市,监测楼,NA,NA,NA,25,NA,17,NA,NA,58,NA,NA,7,NA,4,NA,0.5
2026-04-14T1900,1210A,119.0566,33.5991,淮安市,钵池山,,34,34,48,17,28,104,104,114,114,14,18,8,8,0.5,0.5
2026-04-14T1900,1211A,119.0083,33.578,淮安市,北京南路,,48,48,42,20,32,99,99,109,109,12,14,9,9,0.4,0.4
2026-04-14T1900,1212A,118.9938,33.6083,淮安市,市监测站,,36,31,39,19,32,115,115,122,122,13,18,7,7,0.5,0.4
2026-04-14T1900,1213A,119.135,33.5038,淮安市,楚州区监测站,,46,46,46,24,30,96,96,109,109,12,13,7,7,0.2,0.2
2026-04-14T1900,3426A,118.8757,33.2897,淮安市,新华书店,颗粒物(PM10),66,72,58,35,26,107,107,114,114,17,21,8,9,0.8,0.6
2026-04-14T1900,4092A,119.119691,33.550006,淮安市,枚皋中路89号,NA,NA,NA,42,15,29,106,106,113,113,NA,13,7,11,NA,0.6
2026-04-14T1900,4206A,119.028838,33.631911,淮安市,承德北路606号,,48,48,56,17,29,98,98,110,110,15,20,8,8,0.4,0.4
2026-04-14T1900,2282A,116.8005,33.9749,淮北市,监测站,颗粒物(PM10),54,55,38,22,20,114,114,138,138,19,14,8,8,0.4,0.4
2026-04-14T1900,2283A,116.8094,33.9008,淮北市,烈山区政府,颗粒物(PM10),51,51,39,22,19,115,115,143,142,15,11,8,8,0.5,0.4
2026-04-14T1900,4017A,116.7926,33.9534,淮北市,市博物馆,颗粒物(PM10),53,53,37,23,21,119,119,142,142,16,10,11,8,0.5,0.5
2026-04-14T1900,4100A,116.8322,33.9884,淮北市,杜集区第一实验学校,颗粒物(PM10),63,68,55,19,19,114,114,132,132,18,16,7,7,0.3,0.3
2026-04-14T1900,2277A,116.8304,32.7726,淮南市,潘集区政府,颗粒物(PM10),54,55,29,20,18,76,76,94,94,26,19,6,6,0.4,0.3
2026-04-14T1900,2279A,116.8569,32.5949,淮南市,谢家集区政府,,47,47,28,25,21,81,81,85,85,12,12,8,9,0.2,0.3
2026-04-14T1900,2280A,116.8279,32.6333,淮南市,八公山区政府,,40,40,32,24,23,77,77,87,87,10,12,6,7,0.3,0.4
2026-04-14T1900,2894A,117.0561,32.6536,淮南市,经济技术开发区消防队,,44,44,30,25,19,83,83,97,97,22,15,8,7,0.4,0.3
2026-04-14T1900,3329A,117.011,32.5891,淮南市,山南新区,NA,NA,54,25,17,22,NA,NA,95,95,20,12,8,7,0.4,0.4
2026-04-14T1900,4209A,117.003137,32.644456,淮南市,国庆中路369号,颗粒物(PM10),58,60,39,24,20,73,73,86,86,18,12,6,5,0.2,0.2
2026-04-14T1900,2446A,114.9021,30.474,黄冈市,职工中心,,22,19,24,10,12,69,69,66,66,7,7,6,6,0.4,0.4
2026-04-14T1900,2929A,114.8858,30.4519,黄冈市,红卫路,,22,21,22,10,14,69,69,68,68,8,6,5,5,0.1,0.2
2026-04-14T1900,3398A,114.9134,30.4446,黄冈市,市林业局,,22,21,24,12,15,70,70,70,70,6,4,4,4,0.2,0.3
2026-04-14T1900,2672A,102.02,35.5101,黄南藏族自治州,同仁县隆务镇,NA,NA,50,27,28,13,NA,NA,124,124,2,2,11,10,0.2,0.2
2026-04-14T1900,2295A,118.2905,29.6965,黄山市,延安路89号,,22,22,12,15,7,45,45,51,51,12,8,4,4,0.7,0.6
2026-04-14T1900,2297A,118.1369,30.2755,黄山市,黄山区政府5号楼,NA,NA,34,19,7,8,NA,NA,64,64,8,8,3,3,NA,0.7
2026-04-14T1900,4210A,118.335445,29.720283,黄山市,滨江东路7-2号,,42,42,30,15,5,39,39,53,51,10,8,/,/,/,/
2026-04-14T1900,2423A,115.0547,30.2332,黄石市,沈家营,,26,26,33,13,12,43,43,68,65,11,7,5,10,1.0,1
2026-04-14T1900,2426A,114.899,30.211,黄石市,铁山,,32,32,28,15,14,58,58,69,67,11,7,6,7,0.7,0.9
2026-04-14T1900,2427A,115.0259,30.2108,黄石市,团城山,,28,25,28,19,15,38,38,52,50,8,5,6,8,0.7,0.6
2026-04-14T1900,3149A,115.0174,30.1591,黄石市,笔架山北路,,36,36,35,16,12,52,52,72,68,16,5,8,7,0.8,0.8
2026-04-14T1900,4185A,115.078022,30.21118,黄石市,磁湖东路29号,,30,30,30,17,14,65,65,77,77,11,7,3,4,0.8,0.8
2026-04-14T1900,1392A,114.4181,23.0528,惠州市,河南岸金山湖子站,,29,29,29,17,15,47,47,63,63,12,14,6,6,0.5,0.5
2026-04-14T1900,1393A,114.4055,23.0824,惠州市,下埔横江三路子站,,29,29,32,15,15,46,46,62,62,12,12,5,5,0.6,0.6
2026-04-14T1900,1395A,114.4645,22.7832,惠州市,惠阳区承修路船湖子站,,28,28,25,14,11,40,40,49,49,9,8,5,5,0.4,0.4
2026-04-14T1900,1396A,114.5316,22.7423,惠州市,大亚湾管委会子站,,19,19,27,8,11,41,41,44,44,2,8,3,4,0.5,0.4
2026-04-14T1900,3314A,114.4334,22.8134,惠州市,惠阳秋长,,24,24,23,10,13,45,45,55,55,10,12,/,/,/,/
2026-04-14T1900,3452A,114.6521,22.7755,惠州市,大亚湾霞涌,NA,NA,15,13,10,8,NA,NA,46,46,8,8,/,/,/,/
2026-04-14T1900,4300A,114.4089,23.1147,惠州市,文华一路1号,,25,25,27,16,14,48,48,65,65,13,12,/,/,/,/
2026-04-14T1900,2240A,130.9618,45.2926,鸡西市,环保局,NA,NA,NA,26,NA,13,NA,NA,105,105,NA,10,NA,7,NA,0.2
2026-04-14T1900,2243A,130.9294,45.2959,鸡西市,第一中学,,38,38,21,24,13,66,66,100,97,12,7,4,5,0.2,0.1
2026-04-14T1900,3707A,131.0069,45.2988,鸡西市,欧美日汽修厂,,41,41,33,22,15,63,63,94,92,7,14,3,3,0.5,0.5
2026-04-14T1900,2367A,114.9753,27.0803,吉安市,红声器材厂,,27,27,39,8,22,62,62,49,49,16,15,7,7,1.4,1.4
2026-04-14T1900,2369A,114.9903,27.1313,吉安市,市环境监测站,,25,25,37,3,25,65,65,52,52,15,16,9,11,/,/
2026-04-14T1900,2370A,115.009527,27.096792,吉安市,青原区法院,,20,20,37,11,25,63,63,50,50,18,17,7,8,1.0,1
2026-04-14T1900,1772A,126.54,43.8622,吉林市,哈达湾,细颗粒物(PM2.5),102,73,52,62,39,91,91,114,112,28,17,10,9,0.5,0.3
2026-04-14T1900,1773A,126.5843,43.8358,吉林市,东局子,细颗粒物(PM2.5),104,111,67,64,41,83,83,110,107,26,27,7,5,1.2,1
2026-04-14T1900,1774A,126.5051,43.8243,吉林市,电力学院,细颗粒物(PM2.5),94,84,67,57,45,97,97,128,122,28,25,14,9,1.0,0.9
2026-04-14T1900,1775A,126.6133,43.8971,吉林市,江北,细颗粒物(PM2.5),124,128,58,86,33,64,64,94,91,48,12,18,10,1.1,0.5
2026-04-14T1900,1776A,126.5549,43.8304,吉林市,江南公园,细颗粒物(PM2.5),94,74,57,57,41,87,87,116,110,30,28,11,8,0.7,0.6
2026-04-14T1900,2868A,126.4737,43.953,吉林市,九站,细颗粒物(PM2.5),117,118,63,78,41,87,87,93,89,26,27,24,13,0.7,0.7
2026-04-14T1900,1299A,116.9866,36.6118,济南市,科干所,颗粒物(PM10),55,56,61,20,38,128,128,137,137,15,15,7,8,0.3,0.3
2026-04-14T1900,1300A,116.9379,36.6652,济南市,农科所,NA,NA,NA,59,NA,31,NA,NA,127,127,17,22,7,7,0.3,0.3
2026-04-14T1900,1301A,117.1265,36.6736,济南市,开发区,,49,49,74,13,37,136,136,148,148,21,27,7,7,0.4,0.5
2026-04-14T1900,1303A,117.0616,36.6865,济南市,省种子仓库,NA,NA,61,95,13,41,NA,NA,143,143,12,28,4,9,0.5,0.6
2026-04-14T1900,1304A,116.9495185,36.644937,济南市,机床二厂,颗粒物(PM10),58,61,65,20,32,135,135,135,135,16,21,7,7,0.5,0.5
2026-04-14T1900,1305A,117.0496,36.6629,济南市,市监测站,颗粒物(PM10),53,54,70,15,32,126,126,135,135,20,24,4,5,0.7,0.8
2026-04-14T1900,1306A,116.7674,36.5458,济南市,长清党校,颗粒物(PM10),53,54,61,14,26,115,115,124,124,11,14,5,6,0.5,0.5
2026-04-14T1900,1961A,117.5323,36.6865,济南市,东山小学,颗粒物(PM10),69,76,94,23,43,148,148,152,152,15,30,5,6,0.3,0.5
2026-04-14T1900,3059A,117.7181,36.205,济南市,泰兴公司,颗粒物(PM10),56,58,61,15,31,122,122,149,149,26,27,13,11,0.5,0.6
2026-04-14T1900,3064A,117.6861,36.2172,济南市,莱芜战役纪念馆,颗粒物(PM10),51,51,65,13,31,126,126,156,152,17,20,12,10,1.4,0.8
2026-04-14T1900,3494A,117.1673,36.9782,济南市,济阳区政府,颗粒物(PM10),57,59,89,28,52,122,122,131,131,23,30,4,9,0.5,0.7
2026-04-14T1900,3495A,117.1168,36.6299,济南市,锦屏中学,颗粒物(PM10),51,51,54,18,33,119,119,130,130,24,16,4,5,0.2,0.2
2026-04-14T1900,4108A,117.7107,36.2385,济南市,山财大街5号,颗粒物(PM10),65,70,62,18,31,127,127,154,154,26,30,6,9,0.6,0.8
2026-04-14T1900,4109A,116.9744,36.6889,济南市,无影山路12号,,48,48,62,16,34,122,122,129,129,19,28,6,7,0.7,0.7
2026-04-14T1900,1653A,116.6229,35.4288,济宁市,火炬城,,38,26,36,9,17,120,120,130,130,10,11,8,9,0.5,0.5
2026-04-14T1900,3500A,116.5808,35.3703,济宁市,北湖一中,,46,46,42,8,19,124,124,139,139,18,18,6,7,0.1,0.2
2026-04-14T1900,3501A,116.8251,35.5592,济宁市,服务中心,NA,NA,47,42,12,24,NA,NA,132,132,13,18,2,2,0.5,0.6
2026-04-14T1900,3678A,116.5907,35.4054,济宁市,市第七中学,,42,41,46,7,17,133,133,147,147,15,15,4,6,0.5,0.5
2026-04-14T1900,4111A,116.6075,35.4566,济宁市,任和路,,46,46,51,10,19,128,128,140,140,13,15,6,7,0.3,0.4
2026-04-14T1900,4112A,116.5648,35.3921,济宁市,文体南路1号,,49,49,50,9,16,120,120,135,135,20,18,4,6,0.4,0.5
2026-04-14T1900,4122A,112.6071,35.1015,济源市,市委党校,颗粒物(PM10),73,82,69,32,30,134,134,125,125,20,20,7,9,0.3,0.7
2026-04-14T1900,4123A,112.596,35.0702,济源市,沁园中路1号,颗粒物(PM10),63,67,50,35,26,136,136,128,128,16,18,4,6,0.4,0.7
2026-04-14T1900,2255A,130.2749,46.8028,佳木斯市,佳纺,NA,NA,NA,17,NA,12,69,69,96,93,NA,7,5,4,0.4,0.3
2026-04-14T1900,2257A,130.3258,46.7975,佳木斯市,环保局,,42,NA,17,29,11,87,87,95,94,15,10,6,5,0.4,0.3
2026-04-14T1900,4285A,130.363,46.806,佳木斯市,顺和街,,40,NA,15,28,12,82,82,90,89,20,12,3,2,0.2,0.3
2026-04-14T1900,4286A,130.3952,46.8268,佳木斯市,长安路196号,,46,NA,13,32,9,73,73,93,91,30,11,7,5,0.4,0.3
2026-04-14T1900,1252A,120.7439,30.778,嘉兴市,清河小学,,43,34,23,30,16,104,104,92,92,22,22,7,6,0.8,0.7
2026-04-14T1900,1253A,120.7261,30.7477,嘉兴市,嘉兴学院,,35,24,17,23,19,112,112,93,93,20,25,5,5,0.8,0.6
2026-04-14T1900,2872A,120.7845,30.7524,嘉兴市,南湖区残联,,36,33,20,25,18,113,113,97,97,21,23,4,3,1.0,0.8
2026-04-14T1900,3407A,120.6915,30.7741,嘉兴市,秀洲住建,NA,NA,30,22,21,20,NA,NA,98,98,NA,19,NA,5,NA,0.4
2026-04-14T1900,1945A,98.291,39.7705,嘉峪关市,气象局,颗粒物(PM10),65,70,37,24,12,117,117,117,117,6,15,13,12,0.6,0.7
2026-04-14T1900,2884A,98.2672,39.7978,嘉峪关市,酒钢宾馆,颗粒物(PM10),63,68,40,21,11,121,121,120,120,5,10,16,12,0.6,0.6
2026-04-14T1900,3248A,98.2644,39.7723,嘉峪关市,雄关区,颗粒物(PM10),59,62,45,23,10,118,118,116,116,6,17,8,9,0.3,0.3
2026-04-14T1900,1383A,113.1063,22.6058,江门市,北街,,19,19,21,13,12,40,40,46,46,10,10,/,/,/,/
2026-04-14T1900,1384A,113.073,22.5835,江门市,西区,,30,30,24,10,12,42,42,49,49,12,12,/,/,/,/
2026-04-14T1900,1385A,113.0218,22.531,江门市,圭峰西,,24,24,23,11,13,40,40,45,45,11,12,/,/,/,/
2026-04-14T1900,1386A,113.0826,22.5947,江门市,东湖,,25,25,24,15,11,43,43,49,49,9,9,6,6,0.4,0.4
2026-04-14T1900,3311A,113.1077,22.5647,江门市,江海富民,,34,34,34,9,11,39,39,47,47,11,10,/,/,0.3,0.4
2026-04-14T1900,3449A,113.0496,22.4669,江门市,新会银湖,,20,20,19,8,10,41,41,46,45,11,12,6,6,0.5,0.4
2026-04-14T1900,3335A,113.3137,35.2643,焦作市,马村街道办,,45,44,46,31,22,125,125,125,125,12,12,9,8,0.3,0.4
2026-04-14T1900,3336A,113.2464,35.2374,焦作市,焦作技师学院,,45,45,49,30,24,128,128,125,125,8,11,8,9,0.7,0.9
2026-04-14T1900,3477A,113.1656,35.2536,焦作市,中站许衡医院,细颗粒物(PM2.5),62,44,43,41,26,126,126,130,130,10,11,9,11,0.5,0.5
2026-04-14T1900,3981A,113.2456,35.18,焦作市,原李万街道办,,46,46,60,25,31,130,130,124,124,8,18,8,7,0.2,0.3
2026-04-14T1900,4264A,113.234,35.219,焦作市,新安路1731号,颗粒物(PM10),53,54,46,25,24,142,142,135,135,16,20,10,10,0.7,0.7
2026-04-14T1900,4295A,113.2722,35.2121,焦作市,人民路3066号,颗粒物(PM10),53,54,53,26,29,126,126,128,128,14,19,5,5,0.3,0.5
2026-04-14T1900,1708A,116.3701,23.5345,揭阳市,新兴,,36,27,29,25,18,36,36,53,52,12,11,6,7,0.7,0.5
2026-04-14T1900,1709A,116.3261,23.5442,揭阳市,西马,,43,43,41,25,19,36,36,52,52,16,16,4,5,0.6,0.5
2026-04-14T1900,1710A,116.361,23.5627,揭阳市,东兴,,30,24,31,21,18,43,43,61,60,10,13,2,3,/,/
2026-04-14T1900,1711A,116.4151,23.5295,揭阳市,渔湖,,32,32,32,19,17,47,47,67,66,17,16,2,4,/,/
2026-04-14T1900,3320A,116.4028,23.5699,揭阳市,曲溪,,41,41,38,16,17,40,40,65,63,10,12,9,9,0.5,0.5
2026-04-14T1900,1944A,102.1691,38.5166,金昌市,天庆家园,NA,NA,53,34,30,14,132,132,133,133,NA,6,NA,18,0.4,0.7
2026-04-14T1900,4022A,102.1648,38.5369,金昌市,金川区人防中心,,46,46,34,25,14,127,127,129,129,8,9,5,7,0.3,0.3
2026-04-14T1900,4239A,102.193042,38.531887,金昌市,长春路96号,,42,42,34,22,15,124,124,125,125,3,6,7,8,0.3,0.3
2026-04-14T1900,1262A,119.6478,29.0773,金华市,十五中,,50,46,56,35,44,39,39,51,50,32,25,3,3,0.6,0.8
2026-04-14T1900,1263A,119.6859,29.1032,金华市,监测站,NA,NA,NA,53,NA,38,36,36,45,44,NA,31,5,4,NA,0.7
2026-04-14T1900,3659A,119.656,29.1132,金华市,气象局,,43,37,54,30,48,38,38,43,43,35,34,3,3,0.7,0.8
2026-04-14T1900,1767A,121.1114,41.0879,锦州市,南山,细颗粒物(PM2.5),103,NA,46,63,33,53,53,99,88,36,21,9,12,0.9,0.6
2026-04-14T1900,1768A,121.060361,40.842794,锦州市,开发区,细颗粒物(PM2.5),103,72,58,63,41,36,36,82,67,57,26,7,13,0.8,0.6
2026-04-14T1900,1769A,121.1836,41.1118,锦州市,百股街道,细颗粒物(PM2.5),123,NA,53,85,38,42,42,93,80,42,24,4,12,1.2,0.8
2026-04-14T1900,1770A,121.1176,41.1224,锦州市,天安街道,细颗粒物(PM2.5),72,NA,48,46,32,71,71,95,93,28,22,8,8,0.8,0.6
2026-04-14T1900,1771A,121.1303,41.1385,锦州市,北湖公园,细颗粒物(PM2.5),70,NA,46,45,32,68,68,97,93,26,17,10,10,0.6,0.5
2026-04-14T1900,2160A,112.8496,35.5051,晋城市,自来水公司,,45,NA,46,31,16,137,137,138,138,10,14,6,5,0.6,0.6
2026-04-14T1900,2162A,112.8509,35.4886,晋城市,市环保局,NA,NA,NA,41,NA,18,NA,NA,134,134,9,11,9,7,0.4,0.3
2026-04-14T1900,3620A,112.8258,35.4804,晋城市,泽州一中,颗粒物(PM10),54,55,41,29,21,130,130,135,135,14,16,5,4,0.7,0.6
2026-04-14T1900,4078A,112.8246,35.5152,晋城市,前书院路,颗粒物(PM10),52,52,39,32,17,125,125,129,129,10,13,8,6,0.4,0.3
2026-04-14T1900,4079A,112.8864,35.4773,晋城市,祥云街666号,细颗粒物(PM2.5),64,51,36,42,22,132,132,131,131,13,16,10,7,0.5,0.5
2026-04-14T1900,2174A,112.6992,37.6984,晋中市,榆次区政府,颗粒物(PM10),80,92,84,35,51,121,121,129,129,14,24,5,7,0.5,0.8
2026-04-14T1900,2865A,112.7195,37.683,晋中市,榆次三中,颗粒物(PM10),86,100,106,25,53,131,131,133,133,9,29,5,6,0.4,0.6
2026-04-14T1900,4080A,112.7375,37.7215,晋中市,广安街188号,颗粒物(PM10),78,89,100,31,53,120,120,125,125,12,33,5,5,0.1,0.4
2026-04-14T1900,4200A,112.7478,37.6954,晋中市,迎宾街26号,颗粒物(PM10),88,102,103,37,60,133,133,134,134,12,24,5,5,0.4,0.5
2026-04-14T1900,2439A,112.2012,31.048,荆门市,竹园小学,颗粒物(PM10),61,65,53,34,25,75,75,74,74,18,13,1,3,0.2,0.2
2026-04-14T1900,2440A,112.1968,30.9892,荆门市,掇刀,颗粒物(PM10),58,61,52,38,28,84,84,85,85,14,9,11,7,0.6,0.5
2026-04-14T1900,3012A,112.1849,31.0361,荆门市,西山林语,颗粒物(PM10),60,64,50,24,23,66,66,78,77,14,10,6,5,0.4,0.4
2026-04-14T1900,3547A,112.1631,31.0134,荆门市,龙泉中学南校,颗粒物(PM10),57,59,46,32,26,88,88,89,89,14,11,5,4,0.3,0.3
2026-04-14T1900,4124A,112.2213,31.0654,荆门市,新台西路6号,颗粒物(PM10),54,55,40,30,27,84,84,80,80,14,13,7,7,0.5,0.4
2026-04-14T1900,1844A,112.2493,30.3198,荆州市,市图书馆,NA,NA,31,25,NA,24,66,66,83,82,20,12,6,5,0.5,0.5
2026-04-14T1900,1845A,112.2009,30.3543,荆州市,市委党校,,32,23,33,22,24,73,73,60,NA,12,15,6,6,0.7,0.7
2026-04-14T1900,3194A,112.2749,30.3124,荆州市,管委会,,32,32,27,17,22,55,55,75,74,18,9,7,6,0.5,0.5
2026-04-14T1900,4268A,112.1722,30.3366,荆州市,学苑路85号,,29,NA,33,17,24,91,91,93,93,5,6,1,1,0.4,0.2
2026-04-14T1900,2343A,117.2114,29.2931,景德镇市,老干部活动中心,,29,23,10,20,13,63,63,70,70,9,6,5,5,0.8,0.7
2026-04-14T1900,2344A,117.1893,29.2789,景德镇市,兽医站,,24,24,22,14,6,60,60,70,70,16,10,4,4,0.8,0.7
2026-04-14T1900,2346A,117.246,29.2958,景德镇市,陶研所,,26,26,12,13,8,60,60,66,66,17,13,5,4,0.9,0.7
2026-04-14T1900,4289A,117.154766,29.256967,景德镇市,青少年活动中心,,31,31,18,18,12,52,52,66,66,24,12,40,15,/,/
2026-04-14T1900,1803A,115.9873,29.6816,九江市,十里,,38,38,28,22,15,43,43,68,62,35,18,7,7,1.0,0.9
2026-04-14T1900,1804A,115.9583,29.7047,九江市,茅山头,,35,35,24,18,16,53,53,73,66,27,16,3,4,0.8,0.7
2026-04-14T1900,1805A,115.9877,29.7295,九江市,西园,,41,41,29,21,15,39,39,68,59,63,33,4,3,0.8,0.8
2026-04-14T1900,1808A,115.9112,29.6038,九江市,综合工业园,,38,38,23,22,17,34,34,65,62,58,28,7,6,0.8,0.7
2026-04-14T1900,3190A,116.0254,29.6995,九江市,外国语学校,,36,30,24,25,16,41,41,59,56,41,22,8,8,1.1,0.9
2026-04-14T1900,4253A,116.010205,29.659402,九江市,莲花大道8号,,44,44,30,22,15,45,45,61,60,14,15,4,4,0.9,0.8
2026-04-14T1900,4240A,98.495752,39.733935,酒泉市,玉门东路5号,颗粒物(PM10),68,75,42,29,15,100,100,104,104,6,9,6,7,0.2,0.2
2026-04-14T1900,4241A,98.5099,39.7506,酒泉市,北大街108号,颗粒物(PM10),60,63,39,27,14,96,96,100,100,4,8,8,9,0.2,0.2
2026-04-14T1900,2698A,76.0071,39.466,喀什地区,巡警大队,颗粒物(PM10),53,53,141,14,42,138,138,109,109,6,29,4,4,0.2,0.5
2026-04-14T1900,2699A,75.9756,39.4693,喀什地区,吾办,,47,47,108,8,36,131,131,112,112,8,16,4,4,0.3,0.5
2026-04-14T1900,4027A,75.9485,39.4688,喀什地区,老干局,,43,43,103,9,30,134,134,111,111,6,16,3,2,0.3,0.4
2026-04-14T1900,1824A,114.3389,34.778,开封市,肿瘤医院,,32,32,39,7,26,97,97,121,118,11,13,6,6,0.4,0.5
2026-04-14T1900,1826A,114.2884,34.7966,开封市,世纪星幼儿园,,34,34,34,12,25,100,100,125,123,16,17,7,7,0.4,0.5
2026-04-14T1900,3147A,114.3434,34.8101,开封市,龙亭公园,,33,32,35,17,24,105,105,122,121,13,16,7,7,0.6,0.6
2026-04-14T1900,3210A,114.3645,34.7955,开封市,汴京公园,NA,NA,NA,40,22,23,104,104,126,124,NA,14,5,5,0.4,0.9
2026-04-14T1900,3473A,114.2485,34.8306,开封市,技师学院,,33,26,30,18,23,103,103,125,124,13,16,4,5,0.3,0.4
2026-04-14T1900,3592A,114.4518,34.7503,开封市,祥符区生态环境局,,38,38,33,24,28,94,94,112,112,25,25,7,7,0.4,0.5
2026-04-14T1900,1951A,84.886,45.6029,克拉玛依市,长征新村,,48,48,36,9,11,101,101,98,98,2,13,6,6,0.3,0.4
2026-04-14T1900,1952A,84.8894,45.5827,克拉玛依市,南林小区,,34,28,28,3,7,107,107,103,103,2,10,4,4,0.1,0.2
2026-04-14T1900,1954A,84.896,44.3328,克拉玛依市,独山子区,颗粒物(PM10),106,135,90,18,10,101,101,101,101,4,7,4,5,0.3,0.3
2026-04-14T1900,1955A,85.6888,46.0909,克拉玛依市,乌尔禾区商贸楼,,44,44,56,14,14,110,110,89,89,6,16,2,3,0.3,0.4
2026-04-14T1900,3612A,85.1045,45.6895,克拉玛依市,白碱滩区新站,,36,36,58,3,11,109,109,107,107,2,8,6,7,0.2,0.1
2026-04-14T1900,2697A,76.1457,39.7143,克孜勒苏柯尔克孜自治州,市人民政府,,41,15,60,12,30,129,129,121,121,4,12,4,5,0.0,0.1
2026-04-14T1900,3665A,76.1654,39.7157,克孜勒苏柯尔克孜自治州,克州文化中心,,41,19,53,10,21,130,130,121,121,1,7,8,11,0.1,0.1
2026-04-14T1900,1450A,102.8203,24.889,昆明市,呈贡新区,颗粒物(PM10),60,64,60,38,42,138,138,148,146,9,14,4,6,0.4,0.6
2026-04-14T1900,1452A,102.7253,25.0904,昆明市,龙泉镇,颗粒物(PM10),65,71,59,39,36,126,126,127,127,7,15,5,5,0.6,0.6
2026-04-14T1900,1453A,102.7267,25.0378,昆明市,东风东路,颗粒物(PM10),68,75,61,38,38,131,131,137,136,14,16,2,5,0.5,0.6
2026-04-14T1900,1454A,102.6744,25.0671,昆明市,金鼎山,细颗粒物(PM2.5),80,77,60,50,37,129,129,134,133,14,13,3,3,0.6,0.6
2026-04-14T1900,1455A,102.6643,25.0401,昆明市,碧鸡广场,细颗粒物(PM2.5),66,66,64,43,39,130,130,129,129,9,19,4,6,0.4,0.5
2026-04-14T1900,3179A,102.7491,25.012,昆明市,官渡区博物馆,颗粒物(PM10),68,74,60,42,36,130,130,136,135,11,13,3,6,0.5,0.6
2026-04-14T1900,3375A,102.8016,24.8336,昆明市,青年创业园,颗粒物(PM10),58,60,61,36,38,142,142,145,145,4,10,5,6,0.4,0.5
2026-04-14T1900,3550A,102.8,24.9787,昆明市,昆明学院,颗粒物(PM10),64,69,61,33,32,134,134,139,139,8,10,4,7,0.6,0.7
2026-04-14T1900,3551A,102.5969,24.6738,昆明市,晋宁区生态环境分局,"颗粒物(PM10),细颗粒物(PM2.5)",60,64,55,40,42,143,143,142,142,3,7,3,5,0.5,0.6
2026-04-14T1900,3552A,102.6673,24.9861,昆明市,云天化总部,颗粒物(PM10),66,72,63,35,32,141,141,142,142,8,13,4,7,0.5,0.6
2026-04-14T1900,1456A,91.132,29.6515,拉萨市,八廓街,,40,27,24,9,9,125,125,129,129,6,9,4,7,0.2,0.2
2026-04-14T1900,1457A,91.1221,29.6748,拉萨市,市环保局,,35,24,20,3,7,111,111,115,115,10,13,4,8,0.3,0.4
2026-04-14T1900,1458A,91.0874,29.6476,拉萨市,区监测站,,39,22,17,6,10,122,122,125,125,9,11,5,8,0.2,0.2
2026-04-14T1900,1459A,91.1774,29.6541,拉萨市,西藏大学,,38,23,21,3,7,120,120,123,123,8,11,4,7,0.1,0.2
2026-04-14T1900,1460A,90.9798,29.6586,拉萨市,区辐射站,,37,18,22,7,9,117,117,115,115,5,14,4,7,0.2,0.3
2026-04-14T1900,1461A,91.0831,29.6292,拉萨市,拉萨火车站,,40,14,17,11,7,125,125,126,126,6,8,4,6,0.2,0.2
2026-04-14T1900,2520A,109.2203,23.7252,来宾市,来宾技工学校,细颗粒物(PM2.5),80,79,58,50,37,96,96,99,99,6,6,5,6,0.7,0.6
2026-04-14T1900,3535A,109.1781,23.7293,来宾市,兴宾区政府,细颗粒物(PM2.5),80,72,59,50,39,113,113,107,107,7,7,7,9,0.8,0.6
2026-04-14T1900,4002A,109.2312,23.7428,来宾市,中南小学,细颗粒物(PM2.5),92,74,58,56,39,97,97,100,100,11,10,6,6,0.6,0.6
2026-04-14T1900,1479A,103.8309,36.0467,兰州市,铁路设计院,颗粒物(PM10),53,53,41,27,16,119,119,117,117,18,14,5,5,0.6,0.4
2026-04-14T1900,3241A,103.7439,36.0841,兰州市,百合公园,,42,35,41,29,17,125,125,123,123,12,9,3,6,0,0.4
2026-04-14T1900,3242A,103.9613,35.9985,兰州市,和平,,44,44,32,18,18,131,131,128,128,8,8,7,9,0.4,0.3
2026-04-14T1900,4236A,103.629272,36.093822,兰州市,庄浪东路808号,颗粒物(PM10),53,53,47,24,19,125,125,156,155,12,8,7,9,0.3,0.3
2026-04-14T1900,4237A,103.7251,36.104344,兰州市,安宁西路88号,颗粒物(PM10),63,68,43,32,18,136,136,141,141,13,11,6,8,0.3,0.2
2026-04-14T1900,4238A,103.846982,36.067567,兰州市,北滨河东路1号,,42,42,32,29,17,129,129,123,123,15,15,9,9,0.5,0.4
2026-04-14T1900,1067A,116.6712,39.5109,廊坊市,药材公司,细颗粒物(PM2.5),100,103,102,60,52,90,90,94,94,28,40,5,7,0.8,0.9
2026-04-14T1900,1068A,116.7215,39.5592,廊坊市,开发区,细颗粒物(PM2.5),98,103,102,59,52,84,84,96,96,28,31,3,6,0.7,0.8
2026-04-14T1900,1070A,116.7246,39.5273,廊坊市,北华航天学院,颗粒物(PM10),92,108,105,54,46,90,90,96,96,28,40,6,11,0.7,0.8
2026-04-14T1900,2919A,116.7022,39.5454,廊坊市,河北工业大学,细颗粒物(PM2.5),101,104,104,61,50,93,93,97,97,28,36,6,9,0.7,0.8
2026-04-14T1900,2536A,103.7629,29.5844,乐山市,牛耳桥,,36,19,24,8,11,114,114,103,103,17,21,7,6,0.4,0.5
2026-04-14T1900,2537A,103.7501,29.6002,乐山市,市第三水厂,,37,20,24,6,10,116,116,105,105,15,20,4,4,0.4,0.5
2026-04-14T1900,2538A,103.7571,29.5664,乐山市,市监测站,,36,16,24,3,9,114,114,103,103,17,17,3,4,0.4,0.5
2026-04-14T1900,3361A,103.7313,29.563,乐山市,理工大学,,36,23,23,8,10,113,113,111,111,16,16,5,4,0.4,0.5
2026-04-14T1900,2599A,100.2497,26.8802,丽江市,丽江古城,,38,38,36,26,17,119,119,128,127,14,10,7,8,0.7,0.6
2026-04-14T1900,2600A,100.2203,26.8906,丽江市,市中心,,38,27,26,19,16,121,121,132,129,16,11,7,7,0.5,0.5
2026-04-14T1900,1267A,119.9141,28.4513,丽水市,监测站大楼,,33,31,30,23,23,74,74,106,106,18,14,4,4,0.8,0.7
2026-04-14T1900,1268A,119.93,28.4589,丽水市,莲都小学,,32,31,36,22,25,73,73,97,NA,20,17,/,/,/,/
2026-04-14T1900,1269A,119.8794,28.4232,丽水市,余庄前,,43,43,36,29,22,60,60,96,95,15,12,5,5,0.9,0.7
2026-04-14T1900,1173A,119.1759,34.5885,连云港市,市环境监测站,,45,44,46,31,28,114,114,127,127,29,26,12,10,0.8,0.5
2026-04-14T1900,3000A,119.3577,34.6971,连云港市,德源药业,,44,44,48,24,21,125,125,131,131,35,42,6,6,0.3,0.3
2026-04-14T1900,3007A,119.178,34.8442,连云港市,新城一中,,38,38,40,24,27,106,106,125,122,44,25,5,5,0.5,0.5
2026-04-14T1900,3008A,119.3607,34.7519,连云港市,胡沟管理处,NA,NA,NA,24,19,21,70,70,121,111,NA,23,NA,14,0.5,0.4
2026-04-14T1900,3009A,119.1478,34.5913,连云港市,矿山设计院,颗粒物(PM10),51,51,51,27,29,116,116,127,127,25,23,10,10,0.7,0.5
2026-04-14T1900,3434A,119.2414,34.6539,连云港市,工贸学校,,46,40,42,17,20,145,145,131,131,12,26,11,10,0.3,0.3
2026-04-14T1900,3664A,119.4171,34.734,连云港市,连云街道,,37,37,41,14,19,107,107,132,129,18,28,1,4,0.4,0.4
2026-04-14T1900,2573A,102.2629,27.8981,凉山彝族自治州,西昌市政府,,44,36,31,24,20,138,138,140,140,6,10,5,6,0.5,0.5
2026-04-14T1900,2574A,102.2686,27.885,凉山彝族自治州,凉山州政府,,43,43,31,22,17,122,122,122,122,5,9,4,6,0.4,0.5
2026-04-14T1900,4229A,102.2342,27.8859,凉山彝族自治州,凯乐南路30号,,43,43,31,16,11,127,127,128,128,11,12,8,4,0.8,0.5
2026-04-14T1900,2212A,123.1978,41.2036,辽阳市,宏伟区,细颗粒物(PM2.5),141,NA,114,105,86,94,94,140,140,22,29,5,12,0.9,0.8
2026-04-14T1900,2213A,123.1684,41.2497,辽阳市,新华园,细颗粒物(PM2.5),131,NA,113,94,88,102,102,140,140,22,32,10,15,0.7,0.7
2026-04-14T1900,2214A,123.2355,41.2663,辽阳市,滨河路,细颗粒物(PM2.5),150,NA,108,115,87,NA,NA,131,131,31,40,6,14,0.8,0.8
2026-04-14T1900,4083A,123.153,41.2874,辽阳市,铁西路150号,细颗粒物(PM2.5),129,NA,107,91,83,90,90,119,119,24,36,7,12,0.7,0.6
2026-04-14T1900,2227A,125.1359,42.8845,辽源市,环保局,细颗粒物(PM2.5),74,55,50,47,35,118,118,124,124,14,13,6,8,0.6,0.5
2026-04-14T1900,4085A,125.0998,42.9134,辽源市,安宁大街333号,细颗粒物(PM2.5),78,54,55,49,36,110,110,122,122,16,12,7,7,0.5,0.4
2026-04-14T1900,1625A,115.9789,36.4372,聊城市,区政府,,38,36,65,7,28,119,119,130,130,10,14,6,8,0.6,0.7
2026-04-14T1900,3200A,115.9772,36.4986,聊城市,监控中心,,46,46,72,12,35,138,138,138,138,13,20,7,10,0.3,0.4
2026-04-14T1900,3513A,116.0443,36.436,聊城市,九州社区,,44,44,74,9,32,134,134,140,140,13,17,7,9,0.3,0.4
2026-04-14T1900,4018A,116.0564,36.4609,聊城市,星美广场,,41,41,69,21,33,126,126,128,128,11,18,6,10,0.5,0.6
2026-04-14T1900,4113A,116.0091,36.4495,聊城市,利民路,NA,NA,NA,62,NA,39,NA,NA,138,138,10,18,8,8,0.3,0.4
2026-04-14T1900,2632A,94.3683,29.6373,林芝市,林芝监测站,,36,17,8,3,4,115,115,116,116,6,6,5,4,0.5,0.5
2026-04-14T1900,2633A,94.3616,29.6634,林芝市,林芝人民医院,,37,14,9,6,7,117,117,116,116,2,4,4,4,0.5,0.5
2026-04-14T1900,2603A,100.0779,23.8981,临沧市,市环保局,细颗粒物(PM2.5),90,100,81,55,53,157,157,157,157,8,10,9,8,0.6,0.8
2026-04-14T1900,2604A,100.0894,23.882,临沧市,市气象局,细颗粒物(PM2.5),102,95,83,62,57,157,157,155,155,7,9,9,8,0.6,0.8
2026-04-14T1900,1733A,111.5552,36.0791,临汾市,临钢医院,颗粒物(PM10),60,63,58,31,29,118,118,133,133,16,22,12,9,1.1,1
2026-04-14T1900,1734A,111.4984,36.0734,临汾市,技工学校,细颗粒物(PM2.5),70,75,54,45,35,100,100,123,123,18,22,12,9,0.9,0.7
2026-04-14T1900,1736A,111.5017,36.0857,临汾市,市委,颗粒物(PM10),66,72,63,33,26,108,108,128,128,17,23,13,9,1.0,0.8
2026-04-14T1900,3018A,111.5048,36.1015,临汾市,唐尧大酒店,颗粒物(PM10),69,76,72,35,27,113,113,129,129,16,24,12,8,0.9,0.7
2026-04-14T1900,4244A,111.4879,36.053,临汾市,启星学校,颗粒物(PM10),60,64,60,35,34,90,90,114,114,21,28,12,9,1.0,0.9
2026-04-14T1900,4271A,103.2464,35.6123,临夏回族自治州,滨河东路1号,NA,NA,41,42,NA,19,NA,NA,103,103,NA,13,NA,9,NA,0.3
2026-04-14T1900,4310A,103.207136,35.599807,临夏回族自治州,新华街21号,颗粒物(PM10),53,53,37,22,19,92,92,91,91,7,6,8,7,0.2,0.2
2026-04-14T1900,1618A,118.3429,35.0532,临沂市,沂河小区,,46,46,46,12,19,116,116,134,134,16,23,11,14,0.3,0.6
2026-04-14T1900,1619A,118.2962,35.0568,临沂市,鲁南制药厂,,39,36,46,9,21,122,122,143,143,14,23,11,15,0.1,0.4
2026-04-14T1900,1620A,118.2793,34.9976,临沂市,新光毛纺厂,,39,39,49,9,24,118,118,138,136,13,24,10,12,0.2,0.5
2026-04-14T1900,1621A,118.3955,35.0889,临沂市,河东保险公司,,46,46,49,7,21,115,115,142,142,27,28,10,14,0.4,0.6
2026-04-14T1900,3370A,118.3563,35.0215,临沂市,十里堡居委,,38,9,41,8,22,121,121,139,139,19,27,9,14,0.4,0.7
2026-04-14T1900,3496A,118.359,35.1067,临沂市,南坊新区,,46,46,54,6,23,121,121,141,141,19,28,11,14,0.5,0.7
2026-04-14T1900,3860A,118.3915,35.0297,临沂市,皇山花园小区,,39,34,45,7,21,124,124,140,140,20,29,8,12,0.3,0.6
2026-04-14T1900,1870A,109.4854,24.3898,柳州市,柳东小学,NA,NA,61,43,60,33,53,53,88,88,14,10,5,4,NA,0.9
2026-04-14T1900,1871A,109.4109,24.3304,柳州市,环保监测站,颗粒物(PM10),80,92,49,46,32,52,52,84,84,21,16,6,6,1.0,0.9
2026-04-14T1900,1872A,109.3886,24.3408,柳州市,河西水厂,细颗粒物(PM2.5),116,87,55,77,42,33,33,83,82,32,15,16,10,2.1,0.9
2026-04-14T1900,1873A,109.4263,24.2951,柳州市,市四中,细颗粒物(PM2.5),94,71,51,57,34,56,56,86,86,15,12,7,7,0.9,0.8
2026-04-14T1900,1874A,109.396,24.3658,柳州市,市九中,细颗粒物(PM2.5),74,70,56,47,34,41,41,82,82,23,12,11,8,1.0,0.7
2026-04-14T1900,1875A,109.4912,24.3164,柳州市,古亭山,颗粒物(PM10),58,60,46,38,32,66,66,92,92,10,10,4,4,0.8,0.7
2026-04-14T1900,3402A,109.5422,24.3994,柳州市,市二中,,45,36,43,31,33,62,62,90,90,10,11,6,7,0.8,0.7
2026-04-14T1900,2307A,116.5078,31.7369,六安市,监测大楼,,25,21,10,15,12,78,78,88,88,16,8,4,3,0.3,0.3
2026-04-14T1900,2308A,116.4738,31.7642,六安市,皖西学院,,29,NA,9,13,10,91,91,93,93,7,5,4,4,0.3,0.3
2026-04-14T1900,2309A,116.4997,31.7904,六安市,朝阳厂,,26,22,8,13,10,82,82,87,87,14,9,6,5,0.3,0.2
2026-04-14T1900,2310A,116.5566,31.7885,六安市,开发区,NA,NA,NA,6,14,12,89,89,93,93,18,13,5,4,NA,0.4
2026-04-14T1900,2577A,104.8293,26.592,六盘水市,黄土坡,,49,47,42,34,27,94,94,109,109,10,12,5,8,0.3,0.6
2026-04-14T1900,2579A,104.8481,26.5898,六盘水市,民中,颗粒物(PM10),56,58,43,32,25,83,83,96,96,13,13,4,6,0.4,0.7
2026-04-14T1900,2580A,104.9541,26.5506,六盘水市,双水,颗粒物(PM10),53,53,43,35,26,97,97,110,110,11,11,5,8,0.3,0.4
2026-04-14T1900,4151A,104.8899,26.5685,六盘水市,钟山大道中段564号,颗粒物(PM10),57,59,50,35,25,95,95,106,106,7,8,2,3,0.6,0.6
2026-04-14T1900,2336A,117.022,25.1031,龙岩市,龙岩市监测站,NA,NA,39,25,27,19,NA,NA,78,78,13,6,6,6,0.6,0.4
2026-04-14T1900,2337A,117.0257,25.0662,龙岩市,闽西职业技术学院,,49,NA,25,34,19,64,64,74,74,6,5,5,6,0.6,0.5
2026-04-14T1900,2338A,117.0195,25.0306,龙岩市,龙岩学院,,39,31,26,27,17,60,60,75,74,6,6,3,3,/,/
2026-04-14T1900,2885A,104.9344,33.3827,陇南市,滨江中学,颗粒物(PM10),68,75,92,30,35,94,94,90,90,11,19,7,9,0.6,0.7
2026-04-14T1900,3247A,104.9551,33.3709,陇南市,市总工会,颗粒物(PM10),63,67,84,30,34,104,104,94,94,7,14,8,8,0.5,0.5
2026-04-14T1900,2488A,111.9984,27.7346,娄底市,市监测站,,14,13,18,9,13,44,44,66,52,14,11,2,6,0.4,0.5
2026-04-14T1900,2491A,111.9888,27.7035,娄底市,市政府,,17,12,18,7,13,52,52,79,60,10,9,2,2,0.5,0.4
2026-04-14T1900,4127A,111.9812,27.7591,娄底市,涟钢职大,,19,19,18,3,10,48,48,71,61,15,8,6,2,0.6,0.6
2026-04-14T1900,4128A,112.0303,27.7457,娄底市,娄底体校,,19,19,23,7,11,47,47,61,54,2,2,3,3,0.3,0.3
2026-04-14T1900,1894A,105.4427,28.9063,泸州市,小市上码头,,31,14,19,8,14,97,97,88,88,10,11,8,8,0.7,0.7
2026-04-14T1900,1895A,105.4241,28.8573,泸州市,兰田宪桥,,29,12,21,3,11,90,90,82,82,8,11,4,4,1.0,1
2026-04-14T1900,1896A,105.4378,28.8833,泸州市,市环监站,,30,14,26,6,13,93,93,85,85,12,14,7,8,0.7,0.7
2026-04-14T1900,4272A,105.3689,28.7783,泸州市,纳溪中医医院,,29,13,24,8,14,91,91,87,87,12,13,7,7,0.7,0.8
2026-04-14T1900,2183A,111.1447,37.5212,吕梁市,环保局,颗粒物(PM10),52,52,53,18,15,118,118,118,118,10,26,4,4,0.2,0.3
2026-04-14T1900,2185A,111.1285,37.5338,吕梁市,自来水公司,NA,NA,56,50,18,16,111,111,116,115,NA,22,2,6,0.4,0.4
2026-04-14T1900,2867A,111.1225,37.5093,吕梁市,马茂庄小学,NA,NA,NA,46,17,12,117,117,43,NA,8,30,5,5,0.8,0.5
2026-04-14T1900,1812A,112.3934,34.6517,洛阳市,市委党校,,40,40,45,27,28,121,121,129,128,18,18,24,12,0.6,0.6
2026-04-14T1900,1815A,112.494,34.6883,洛阳市,河南林校,颗粒物(PM10),52,52,52,26,26,127,127,138,138,20,18,25,17,0.7,0.6
2026-04-14T1900,1816A,112.3843,34.623,洛阳市,开发区管委会,,44,44,48,24,29,122,122,131,131,17,15,19,14,0.7,0.7
2026-04-14T1900,1817A,112.4263,34.6249,洛阳市,市委新办公区,颗粒物(PM10),53,54,46,26,36,124,124,132,132,19,17,27,14,0.5,0.5
2026-04-14T1900,3340A,112.6005,34.6323,洛阳市,伊滨,,50,47,42,35,28,126,126,127,127,11,15,11,11,0.6,0.6
2026-04-14T1900,3341A,112.495,34.6338,洛阳市,中移产业园,,45,45,55,28,35,121,121,130,130,23,21,20,16,0.9,0.8
2026-04-14T1900,3593A,112.5736,34.8993,洛阳市,吉利监测站,NA,NA,NA,41,NA,21,NA,NA,136,136,NA,17,NA,10,NA,0.3
2026-04-14T1900,3635A,112.3678,34.6623,洛阳市,河科大西苑校区,,40,37,46,19,29,128,128,134,134,15,16,22,12,0.5,0.5
2026-04-14T1900,3636A,112.4387,34.678,洛阳市,英才小学,,46,46,55,27,29,124,124,134,134,27,22,30,16,0.7,0.6
2026-04-14T1900,4214A,112.460027,34.694929,洛阳市,春都路1号院,,50,50,49,27,29,138,138,148,148,19,19,27,13,0.8,0.8
2026-04-14T1900,2399A,114.051,33.5721,漯河市,三五一五工厂,,38,NA,31,26,28,88,88,101,98,16,16,4,4,0.3,0.2
2026-04-14T1900,2400A,114.0055,33.5698,漯河市,漯河大学,,36,NA,26,25,32,89,89,100,99,14,15,5,5,0.3,0.4
2026-04-14T1900,2401A,114.0134,33.5826,漯河市,市水利局,,36,NA,32,25,27,91,91,101,101,12,14,4,4,0.4,0.5
2026-04-14T1900,2402A,114.0261,33.5697,漯河市,市广电局,,29,22,30,19,27,92,92,104,103,10,11,4,4,0.4,0.5
2026-04-14T1900,3478A,113.9691,33.568,漯河市,市图书馆,,29,26,36,16,26,92,92,99,99,12,16,7,6,0.3,0.3
2026-04-14T1900,4250A,114.089259,33.588274,漯河市,韶山路11号,,39,NA,38,27,27,85,85,95,94,17,20,5,5,0.5,0.6
2026-04-14T1900,1798A,118.5084,31.6838,马鞍山市,湖东路四小,,47,47,38,23,28,66,66,76,74,19,19,6,8,0.6,0.7
2026-04-14T1900,1799A,118.5019,31.6449,马鞍山市,开发区,,42,42,28,17,20,67,67,83,83,26,20,8,6,0.8,0.7
2026-04-14T1900,3633A,118.4914,31.681,马鞍山市,雨山,,37,37,28,18,20,63,63,76,76,25,21,8,7,0.7,0.8
2026-04-14T1900,4191A,118.527362,31.722269,马鞍山市,慈湖高新区,,29,29,34,20,27,59,59,77,74,23,18,8,9,0.3,0.4
2026-04-14T1900,1686A,111.0285,21.469,茂名市,电白南海,,27,27,30,10,11,47,47,50,49,4,5,4,4,0.7,0.7
2026-04-14T1900,1687A,110.9294,21.6533,茂名市,茂石化七小,,31,31,30,13,13,43,43,50,49,9,8,5,6,0.6,0.5
2026-04-14T1900,1688A,110.9108,21.6688,茂名市,健康路,,22,22,21,12,13,42,42,50,49,11,8,4,4,0.6,0.6
2026-04-14T1900,1689A,110.8592,21.6826,茂名市,高岭,,29,29,37,11,13,49,49,54,54,6,7,2,2,/,/
2026-04-14T1900,3450A,111.0101,21.5165,茂名市,电白水东,,17,17,17,10,11,46,46,49,48,7,6,1,2,/,/
2026-04-14T1900,2540A,103.8414,30.0871,眉山市,气象局,,48,48,35,7,11,104,104,113,113,15,18,8,10,0.5,0.6
2026-04-14T1900,3148A,103.829,30.0563,眉山市,区人社局,,34,34,40,6,13,99,99,102,102,21,24,7,10,0.5,0.5
2026-04-14T1900,4148A,103.8836,30.0695,眉山市,眉职院,,30,21,32,3,10,96,96,107,107,12,15,7,9,0.6,0.6
2026-04-14T1900,1690A,116.1248,24.3307,梅州市,梅江月梅,细颗粒物(PM2.5),84,54,28,52,20,34,34,56,54,15,12,/,/,/,/
2026-04-14T1900,1691A,116.0798,24.2719,梅州市,梅县新城,细颗粒物(PM2.5),52,NA,23,36,16,32,32,60,58,22,11,8,9,0.6,0.4
2026-04-14T1900,3315A,116.1234,24.2994,梅州市,梅龙,,39,34,26,27,16,55,55,46,NA,14,11,6,8,0.7,0.5
2026-04-14T1900,1878A,104.7775,31.4741,绵阳市,富乐山,,39,39,28,19,15,93,93,99,99,9,13,6,7,0.5,0.6
2026-04-14T1900,1880A,104.6698,31.4668,绵阳市,高新区自来水公司,,31,31,28,15,14,93,93,102,102,10,13,6,6,0.6,0.6
2026-04-14T1900,3491A,104.6899,31.5324,绵阳市,西科大附属小学,,37,37,34,13,16,90,90,106,106,11,14,5,6,0.4,0.5
2026-04-14T1900,3492A,104.5647,31.5343,绵阳市,安州区旅游局,,48,48,33,12,15,94,94,109,109,8,12,6,8,0.4,0.5
2026-04-14T1900,4146A,104.7092,31.4972,绵阳市,科技城新区公安局,,32,32,33,14,15,90,90,97,97,8,15,6,7,0.5,0.6
2026-04-14T1900,4226A,104.765114,31.453094,绵阳市,绵阳市气象局,NA,NA,52,29,11,14,NA,NA,91,91,8,13,NA,9,0.3,0.4
2026-04-14T1900,1784A,129.61,44.561,牡丹江市,环保大楼,颗粒物(PM10),80,92,35,49,19,71,71,101,97,33,14,4,4,0.6,0.4
2026-04-14T1900,1787A,129.6364,44.6075,牡丹江市,机车工厂,,38,38,47,24,25,77,77,95,94,16,14,11,8,0.5,0.5
2026-04-14T1900,1788A,129.6386,44.5462,牡丹江市,第一中学,细颗粒物(PM2.5),115,134,31,76,17,35,35,103,95,59,13,5,4,0.7,0.3
2026-04-14T1900,4287A,129.5992,44.5964,牡丹江市,东晓云街98号,细颗粒物(PM2.5),74,81,43,47,20,65,65,102,98,28,10,4,3,0.7,0.5
2026-04-14T1900,2531A,105.0703,29.61,内江市,市监测站,,33,17,27,11,14,105,105,101,101,11,11,8,8,0.5,0.5
2026-04-14T1900,2533A,105.0657,29.5807,内江市,内江二中,NA,NA,NA,33,NA,16,76,76,98,97,NA,11,7,6,NA,0.3
2026-04-14T1900,2534A,105.0407,29.5828,内江市,内江日报社,,35,29,22,12,15,110,110,107,107,10,12,7,6,0.4,0.4
2026-04-14T1900,4147A,105.0433,29.6105,内江市,玉峰路西段888号,,35,25,24,13,19,112,112,105,105,11,12,6,5,0.4,0.5
2026-04-14T1900,2628A,92.0653,31.4846,那曲市,那曲监测站,,43,43,32,18,23,128,128,128,128,7,15,9,10,0.5,0.9
2026-04-14T1900,4243A,92.0515,31.4787,那曲市,那曲市委宣传部,NA,NA,43,16,9,12,131,131,130,130,NA,8,NA,10,0.4,0.6
2026-04-14T1900,1291A,115.8887,28.7006,南昌市,省林业公司,,30,22,15,21,12,66,66,81,78,8,8,3,4,0.6,0.5
2026-04-14T1900,1292A,115.813,28.7443,南昌市,林科所,,38,NA,11,26,12,58,58,87,78,17,9,7,7,1.2,1.1
2026-04-14T1900,1294A,115.8518,28.687,南昌市,建工学校,,35,24,22,24,12,60,60,82,77,23,14,9,9,1.1,1
2026-04-14T1900,1295A,115.8926,28.6425,南昌市,象湖,NA,NA,NA,12,25,17,NA,NA,87,86,13,9,8,8,1.1,1
2026-04-14T1900,3046A,115.9084,28.6062,南昌市,机电学校,NA,NA,NA,23,NA,15,67,67,90,86,17,12,4,4,0.8,0.7
2026-04-14T1900,3690A,115.9718,28.7032,南昌市,外国语学校,,36,26,20,25,17,72,72,85,82,16,18,8,8,0.8,0.8
2026-04-14T1900,4106A,115.7923,28.6873,南昌市,工业二路,,39,37,24,27,12,60,60,80,75,17,12,5,5,0.9,0.8
2026-04-14T1900,4192A,115.931587,28.686774,南昌市,南京东路235号,,33,27,23,23,14,67,67,88,84,16,8,5,5,0.6,0.5
2026-04-14T1900,1906A,106.0791,30.8022,南充市,南充市委,,22,12,26,6,17,70,70,69,69,10,17,7,7,0.2,0.3
2026-04-14T1900,1907A,106.1038,30.8215,南充市,南充炼油厂,,25,12,26,6,18,78,78,69,69,6,12,5,5,0.2,0.3
2026-04-14T1900,4227A,106.108336,30.788436,南充市,梨树横街98号,,23,11,27,6,19,72,72,69,69,8,17,5,6,0.2,0.3
2026-04-14T1900,4304A,106.1172,30.843,南充市,清泉寺北路188号,,27,10,23,3,19,84,84,68,68,6,9,6,6,0.3,0.2
2026-04-14T1900,4305A,106.067,30.7616,南充市,同庆路1号,,22,16,25,6,17,69,69,65,65,10,18,6,6,0.3,0.4
2026-04-14T1900,1151A,118.8033,32.1085,南京市,迈皋桥,,29,29,36,6,22,77,77,101,101,24,28,4,5,0.6,0.7
2026-04-14T1900,1152A,118.7487,32.057,南京市,草场门,,29,29,39,13,27,81,81,90,90,23,24,4,3,0.4,0.5
2026-04-14T1900,1154A,118.770105,32.004342,南京市,中华门,,31,31,48,12,26,73,73,88,88,24,21,4,5,0.7,0.8
2026-04-14T1900,1155A,118.8059,32.0329,南京市,瑞金路,,36,36,55,11,28,78,78,95,95,32,15,5,5,0.5,0.6
2026-04-14T1900,1156A,118.7946,32.0774,南京市,玄武湖,,28,28,40,3,23,80,80,92,92,11,15,4,4,0.3,0.5
2026-04-14T1900,1157A,118.6415,32.0964,南京市,浦口,,45,45,30,7,16,80,80,99,99,13,10,4,4,0.6,0.7
2026-04-14T1900,1158A,118.730129,32.000956,南京市,奥体中心,,40,40,45,11,20,70,70,74,74,26,24,6,7,0.3,0.4
2026-04-14T1900,1159A,118.9072,32.1047,南京市,仙林大学城,NA,NA,46,41,8,19,NA,NA,113,113,24,22,8,8,0.6,0.6
2026-04-14T1900,3422A,118.8443,31.919,南京市,江宁彩虹桥,,29,29,36,7,25,90,90,100,100,28,29,4,4,0.7,1
2026-04-14T1900,3427A,118.8497,32.3599,南京市,六合雄州,,32,25,34,12,23,102,102,111,111,26,20,3,4,0.6,0.7
2026-04-14T1900,4086A,118.7641,32.0841,南京市,新模范马路66号,,39,39,44,6,20,84,84,97,97,22,22,3,4,0.4,0.5
2026-04-14T1900,4249A,118.8707617,31.34017673,南京市,汶溪路181号,,32,32,28,17,17,93,93,97,97,16,17,4,5,0.6,0.7
2026-04-14T1900,4312A,119.019,31.6512,南京市,中山西路1号,,39,39,30,14,20,67,67,78,78,21,17,4,4,0.6,0.5
2026-04-14T1900,1401A,108.3098,22.788,南宁市,二十一中,颗粒物(PM10),55,56,52,37,39,109,109,102,102,8,9,1,2,0.9,0.9
2026-04-14T1900,1402A,108.3135,22.8529,南宁市,北湖,细颗粒物(PM2.5),66,60,55,43,46,106,106,105,105,10,8,2,2,0.9,0.8
2026-04-14T1900,1403A,108.3205,22.8222,南宁市,市监测站,颗粒物(PM10),63,67,55,37,38,112,112,108,108,7,6,2,2,0.6,0.5
2026-04-14T1900,1404A,108.3828,22.8038,南宁市,大自然花园,细颗粒物(PM2.5),60,56,55,40,41,116,116,109,109,8,9,6,6,0.8,0.8
2026-04-14T1900,1406A,108.2397,22.8462,南宁市,区农职院,颗粒物(PM10),53,53,57,36,38,100,100,101,101,10,9,5,4,0.7,0.6
2026-04-14T1900,1407A,108.3285,22.7356,南宁市,英华嘉园,细颗粒物(PM2.5),62,57,59,41,39,117,117,110,110,8,9,4,5,0.8,0.7
2026-04-14T1900,3401A,108.4829,22.762,南宁市,红星社区,细颗粒物(PM2.5),58,59,55,39,38,119,119,112,112,8,8,5,5,0.9,0.8
2026-04-14T1900,4132A,108.2927,23.1477,南宁市,起凤路9号,细颗粒物(PM2.5),82,71,71,51,52,97,97,115,115,11,8,4,4,0.7,0.7
2026-04-14T1900,4221A,108.2177,22.7774,南宁市,乐贤路16号,颗粒物(PM10),58,60,58,37,42,103,103,103,103,10,13,4,5,0.5,0.5
2026-04-14T1900,2332A,118.1682,26.6371,南平市,南平市监测站,颗粒物(PM10),52,52,43,33,30,82,82,107,107,13,11,4,4,0.7,0.6
2026-04-14T1900,2334A,118.1757,26.6276,南平市,南平七中,,45,40,41,31,26,79,79,102,102,12,10,3,2,0.6,0.6
2026-04-14T1900,1168A,120.9056,31.9669,南通市,狼山街道,,19,16,19,13,14,46,46,80,61,15,15,3,3,0.5,0.5
2026-04-14T1900,1170A,120.8635,32.0231,南通市,城中,,28,21,24,19,15,52,52,80,60,15,13,3,3,0.4,0.4
2026-04-14T1900,1171A,120.9376,31.9301,南通市,星湖花园,,22,21,23,15,16,49,49,82,62,12,12,3,3,0.6,0.7
2026-04-14T1900,1172A,120.8053,32.046,南通市,紫琅学院,,30,30,15,19,14,55,55,88,67,19,15,4,4,0.7,0.7
2026-04-14T1900,3291A,121.0631,32.0644,南通市,通州监测站,,23,12,17,11,10,72,72,90,72,12,6,3,3,0.5,0.5
2026-04-14T1900,3432A,120.9348,31.9874,南通市,环境教育馆,,20,19,22,14,13,51,51,83,60,20,18,4,4,0.5,0.5
2026-04-14T1900,4091A,120.8692,31.9885,南通市,洪江路,,36,36,24,24,16,41,41,80,61,21,17,3,4,0.8,0.8
2026-04-14T1900,2404A,112.5338,33.0086,南阳市,瓦房庄,,45,45,45,23,24,102,102,102,102,17,17,4,4,0.5,0.5
2026-04-14T1900,2405A,112.5002,32.9734,南阳市,汉画馆,颗粒物(PM10),53,54,49,24,23,105,105,101,101,13,15,6,6,0.6,0.6
2026-04-14T1900,2406A,112.5778,33.0144,南阳市,气象站,,48,48,43,28,23,110,110,105,105,16,17,6,6,0.4,0.4
2026-04-14T1900,2407A,112.548,32.9687,南阳市,理工学院,,50,50,47,23,29,108,108,102,102,10,12,5,6,0.4,0.5
2026-04-14T1900,4008A,112.5233,32.9921,南阳市,卧龙区政府,,49,45,42,34,25,101,101,102,102,16,18,7,7,0.5,0.5
2026-04-14T1900,1234A,121.8352,29.9111,宁波市,区环保大楼,NA,NA,45,40,30,24,66,66,81,81,46,45,6,7,NA,0.6
2026-04-14T1900,1235A,121.5595,29.8208,宁波市,万里学院,,49,NA,27,34,25,74,74,75,75,22,22,7,7,0.8,0.6
2026-04-14T1900,1236A,121.713,29.9564,宁波市,龙赛医院,颗粒物(PM10),52,52,27,33,18,56,56,68,68,45,27,6,6,0.7,0.4
2026-04-14T1900,1240A,121.5855,29.8635,宁波市,太古小学,,36,36,31,22,20,71,71,68,68,25,23,3,4,0.7,0.6
2026-04-14T1900,1241A,121.5239,29.8673,宁波市,市环境监测中心,,49,NA,24,34,30,68,68,70,70,27,21,9,10,0.7,0.5
2026-04-14T1900,2871A,121.6156,29.9015,宁波市,万里国际学校,,42,33,23,29,20,58,58,67,67,42,28,4,5,0.7,0.6
2026-04-14T1900,3710A,121.5593,29.8976,宁波市,白沙活动中心,,25,22,19,17,15,64,64,70,70,28,21,5,5,0.6,0.5
2026-04-14T1900,4095A,121.8962,29.7529,宁波市,中科路88号,,46,37,31,32,21,77,77,78,78,24,39,8,8,0.7,0.4
2026-04-14T1900,2341A,119.5387,26.6611,宁德市,宁德市监测站,,45,41,33,31,24,79,79,84,84,35,22,7,7,0.7,0.6
2026-04-14T1900,3209A,119.5231,26.6562,宁德市,宁德一中,颗粒物(PM10),55,56,35,30,25,82,82,84,84,24,16,5,4,0.4,0.3
2026-04-14T1900,2618A,98.859,25.8541,怒江傈僳族自治州,州监测站,细颗粒物(PM2.5),72,73,39,46,24,105,105,99,99,18,14,10,9,0.4,0.2
2026-04-14T1900,2619A,98.8607,25.8168,怒江傈僳族自治州,泸水一中,"颗粒物(PM10),细颗粒物(PM2.5)",66,72,39,43,26,85,85,85,85,33,16,6,6,0.8,0.6
2026-04-14T1900,1888A,101.6891,26.571,攀枝花市,弄弄坪,,50,50,57,29,36,124,124,128,128,12,24,29,25,1.5,1.4
2026-04-14T1900,1889A,101.577,26.5914,攀枝花市,河门口,颗粒物(PM10),53,54,75,32,39,127,127,130,130,10,23,8,18,0.6,0.8
2026-04-14T1900,1891A,101.7365,26.4986,攀枝花市,仁和,NA,NA,35,48,24,34,NA,NA,133,133,12,11,6,6,0.5,0.6
2026-04-14T1900,2835A,101.7222,26.567,攀枝花市,四十中小,,45,45,50,24,31,114,114,129,129,18,22,11,11,1.0,0.9
2026-04-14T1900,1604A,122.0303,41.1489,盘锦市,开发区,细颗粒物(PM2.5),117,80,54,78,45,81,81,104,101,25,15,6,7,0.5,0.3
2026-04-14T1900,1605A,122.0486,41.0883,盘锦市,兴隆台,细颗粒物(PM2.5),107,NA,50,67,44,78,78,103,102,33,19,9,11,NA,0.5
2026-04-14T1900,1606A,121.8297,41.1026,盘锦市,新生街道,颗粒物(PM10),64,69,49,34,27,58,58,91,81,50,23,5,7,0.6,0.5
2026-04-14T1900,1832A,113.3257,33.7423,平顶山市,新华旅馆,NA,NA,58,61,28,31,NA,NA,105,105,17,19,5,6,0.5,0.5
2026-04-14T1900,1833A,113.2917,33.737,平顶山市,规划设计院,,44,44,62,30,33,94,94,107,107,13,16,7,7,0.4,0.6
2026-04-14T1900,1834A,113.182,33.7738,平顶山市,平顶山工学院,颗粒物(PM10),54,55,50,28,32,103,103,120,118,12,15,8,9,0.2,0.3
2026-04-14T1900,3594A,112.8736,33.9068,平顶山市,石龙区,细颗粒物(PM2.5),90,70,49,55,27,103,103,125,123,18,23,9,9,0.3,0.3
2026-04-14T1900,4116A,113.284,33.7139,平顶山市,姚电大道23号,,40,40,61,28,34,96,96,108,108,17,22,6,8,0.4,0.5
2026-04-14T1900,2656A,106.6633,35.5338,平凉市,聚贤嘉苑,颗粒物(PM10),65,70,68,21,20,113,113,115,115,11,16,6,6,0.3,0.3
2026-04-14T1900,2657A,106.7021,35.5307,平凉市,博物馆,颗粒物(PM10),67,73,67,23,21,116,116,116,116,8,13,8,8,0.3,0.3
2026-04-14T1900,2348A,113.8384,27.6436,萍乡市,中医院,,25,25,31,10,23,28,28,47,33,19,17,6,6,0.9,1
2026-04-14T1900,2350A,113.8677,27.6438,萍乡市,市环保局,,30,30,27,18,25,27,27,52,34,24,19,4,4,1.1,1
2026-04-14T1900,2351A,113.8663,27.6202,萍乡市,安源区政府,,27,27,30,13,19,21,21,48,28,14,12,5,6,1.0,0.6
2026-04-14T1900,4107A,113.8686,27.6668,萍乡市,联洪村委会,,30,30,38,16,23,21,21,39,28,19,15,3,4,0.6,0.6
2026-04-14T1900,2319A,119.0142,25.4324,莆田市,荔城区仓后路,,45,45,38,22,23,54,54,81,81,19,17,/,/,/,/
2026-04-14T1900,2320A,119.0016,25.4553,莆田市,莆田市监测站,NA,NA,46,37,23,23,39,39,87,83,NA,13,2,3,NA,0.4
2026-04-14T1900,2321A,119.112,25.4561,莆田市,涵江区六中,,41,41,36,11,18,36,36,82,80,22,19,/,/,0.6,0.5
2026-04-14T1900,2322A,119.1014,25.3215,莆田市,秀屿区政府,,21,21,27,13,18,35,35,74,71,16,11,5,5,0.3,0.3
2026-04-14T1900,2392A,115.0312,35.7636,濮阳市,环保局,,38,21,42,19,23,119,119,117,117,9,13,3,4,0.4,0.5
2026-04-14T1900,3021A,115,35.7667,濮阳市,濮水河管理处,NA,NA,NA,50,NA,24,102,102,117,115,15,12,4,4,NA,0.4
2026-04-14T1900,4118A,115.0552,35.7816,濮阳市,中原东路68号,,37,31,49,16,21,118,118,120,120,11,12,2,4,0.3,0.4
2026-04-14T1900,4216A,115.0923632,35.76857718,濮阳市,任丘路479号,,38,37,49,14,20,120,120,124,124,12,9,2,4,0.4,0.6
2026-04-14T1900,2601A,100.9801,22.7634,普洱市,市环保局,颗粒物(PM10),103,126,113,41,49,170,170,168,168,11,12,NA,5,0.7,0.8
2026-04-14T1900,2602A,100.9763,22.8237,普洱市,普洱第二中学,颗粒物(PM10),104,130,101,51,51,155,155,106,NA,17,29,7,6,0.6,0.8
2026-04-14T1900,3345A,131.0413,45.7795,七台河市,中波台,,35,NA,21,24,13,92,92,98,98,11,12,3,5,0.3,0.3
2026-04-14T1900,3637A,131.0136,45.7688,七台河市,人民广场,,31,31,29,20,11,89,89,99,98,16,14,9,10,0.5,0.5
2026-04-14T1900,3684A,130.8639,45.8144,七台河市,新建矿广场,颗粒物(PM10),96,114,31,35,12,58,58,85,83,27,13,15,10,0.3,0.2
2026-04-14T1900,1779A,123.9307,47.3641,齐齐哈尔市,安居小区,颗粒物(PM10),51,51,45,19,20,93,93,108,106,18,19,4,3,0.4,0.3
2026-04-14T1900,1780A,123.9497,47.3389,齐齐哈尔市,中心广场,颗粒物(PM10),53,53,51,24,24,88,88,102,101,15,19,4,4,0.4,0.4
2026-04-14T1900,1781A,123.9483,47.3229,齐齐哈尔市,农牧车辆厂,,44,44,49,19,25,103,103,110,110,10,22,7,7,0.2,0.3
2026-04-14T1900,1783A,123.9442,47.2994,齐齐哈尔市,市环境监测站,,39,39,48,24,24,96,96,106,105,11,28,3,3,0.5,0.4
2026-04-14T1900,3662A,123.6341,47.2079,齐齐哈尔市,富区青少年活动中心,,49,49,51,17,19,89,89,103,102,9,11,3,4,0.5,0.6
2026-04-14T1900,2591A,107.9765,26.5724,黔东南苗族侗族自治州,市环境监测站,,19,17,19,11,13,60,60,66,59,8,5,2,2,0.5,0.4
2026-04-14T1900,2881A,107.8909,26.531,黔东南苗族侗族自治州,凯里学院,,22,22,23,15,14,61,61,66,66,7,5,2,2,0.6,0.6
2026-04-14T1900,2593A,107.5223,26.2371,黔南布依族苗族自治州,小围寨,,35,27,18,24,14,48,48,56,49,9,6,3,4,0.4,0.4
2026-04-14T1900,3538A,107.5175,26.2977,黔南布依族苗族自治州,沙坝,,34,34,24,17,13,43,43,46,45,11,7,4,3,0.7,0.6
2026-04-14T1900,2589A,104.9022,25.0943,黔西南布依族苗族自治州,场坝街,,48,38,48,29,36,153,153,153,153,10,14,6,19,0.4,0.5
2026-04-14T1900,2590A,104.8812,25.0994,黔西南布依族苗族自治州,坪东大道,,47,37,44,31,35,149,149,151,151,9,19,4,7,0.4,0.5
2026-04-14T1900,2502A,108.6238,21.9667,钦州市,市环保站,颗粒物(PM10),62,66,57,39,32,91,91,105,105,18,12,8,6,0.8,0.8
2026-04-14T1900,2503A,108.655,21.9481,钦州市,沙埠小学,细颗粒物(PM2.5),68,73,62,44,37,84,84,89,89,20,15,11,6,0.7,0.7
2026-04-14T1900,2504A,108.5989,21.7435,钦州市,港区一小,颗粒物(PM10),63,67,71,37,40,95,95,89,89,11,18,2,2,0.6,0.7
2026-04-14T1900,3404A,108.5959,21.9634,钦州市,北职校,颗粒物(PM10),57,59,59,36,34,92,92,106,106,12,11,6,6,0.6,0.6
2026-04-14T1900,1046A,119.5247,39.9346,秦皇岛市,建设大厦,颗粒物(PM10),67,73,64,42,28,81,81,99,99,38,35,6,7,0.6,0.4
2026-04-14T1900,3132A,119.5979,39.938,秦皇岛市,文明里,颗粒物(PM10),63,68,73,34,31,70,70,92,92,56,42,10,12,0.5,0.4
2026-04-14T1900,4066A,119.7458,39.9952,秦皇岛市,南园路157号,细颗粒物(PM2.5),96,70,68,58,33,65,65,90,89,47,35,8,10,0.6,0.4
2026-04-14T1900,4067A,119.5131,39.8858,秦皇岛市,翠岛大街1号,细颗粒物(PM2.5),54,51,52,37,30,85,85,98,98,28,30,7,10,0.5,0.4
2026-04-14T1900,4198A,119.509013,39.825305,秦皇岛市,北戴河轮滑馆,颗粒物(PM10),58,60,58,33,27,96,96,104,104,24,34,8,10,0.4,0.3
2026-04-14T1900,1310A,120.404,36.0625,青岛市,市南区东部子站,,36,36,48,12,26,84,84,102,101,72,42,8,7,0.3,0.4
2026-04-14T1900,1311A,120.362344,36.10282,青岛市,四方区子站,,42,39,47,22,25,133,133,131,131,22,34,6,6,0.7,0.8
2026-04-14T1900,1312A,120.294373,36.054183,青岛市,市南区西部子站,,34,34,49,15,30,71,71,90,83,61,44,5,5,0.5,0.6
2026-04-14T1900,1313A,120.4581,36.0858,青岛市,崂山区子站,颗粒物(PM10),51,51,43,16,22,98,98,104,104,49,28,10,10,0.6,0.5
2026-04-14T1900,1315A,120.3945,36.3083,青岛市,城阳区子站,颗粒物(PM10),56,58,67,16,31,110,110,146,139,42,35,7,7,0.7,0.7
2026-04-14T1900,3642A,120.3454,36.0735,青岛市,市北区南部,,32,31,42,10,21,100,100,137,134,40,22,6,5,0.4,0.5
2026-04-14T1900,3643A,120.3897,36.18,青岛市,李沧区北部,,44,44,54,20,23,123,123,124,124,25,33,9,10,0.6,0.6
2026-04-14T1900,4110A,120.5222,36.4089,青岛市,盟旺路653号,,40,25,44,3,2,125,125,143,140,17,15,4,4,0.6,0.6
2026-04-14T1900,4290A,120.196923,35.954556,青岛市,珠江路669号,,44,44,69,17,35,118,118,131,130,23,37,5,7,0.6,0.6
2026-04-14T1900,4291A,120.0424,35.8656,青岛市,黄岛区人民政府广场,,41,41,49,7,25,118,118,123,122,23,25,7,9,0.5,0.6
2026-04-14T1900,1703A,113.0218,23.7086,清远市,凤城街办,NA,NA,52,38,29,18,29,29,48,48,NA,27,/,/,/,/
2026-04-14T1900,3025A,113.0479,23.6343,清远市,技师学院,颗粒物(PM10),56,58,39,25,18,18,18,49,47,42,29,4,4,0.4,0.3
2026-04-14T1900,3318A,112.9898,23.7403,清远市,清新太和,颗粒物(PM10),53,53,38,28,20,38,38,49,49,35,25,7,8,0.6,0.5
2026-04-14T1900,3455A,113.076,23.72,清远市,清城东城,颗粒物(PM10),51,51,39,27,20,25,25,50,50,35,26,/,/,/,/
2026-04-14T1900,2661A,107.6325,35.7357,庆阳市,庆阳五中,颗粒物(PM10),107,137,96,40,34,117,117,111,111,15,12,5,4,0.3,0.4
2026-04-14T1900,2662A,107.6361,35.7067,庆阳市,市环保局,颗粒物(PM10),111,148,95,44,36,121,121,116,116,18,14,7,6,0.4,0.5
2026-04-14T1900,1916A,103.7897,25.5036,曲靖市,环境监测站,NA,NA,NA,59,25,32,148,148,155,155,NA,12,6,7,0,0.7
2026-04-14T1900,1917A,103.8013,25.5357,曲靖市,烟厂办公区,颗粒物(PM10),53,53,60,24,30,130,130,142,141,7,10,5,7,0.3,0.5
2026-04-14T1900,3376A,103.7926,25.4651,曲靖市,南苑二区,,48,48,58,31,31,137,137,147,147,7,10,4,4,0.3,0.4
2026-04-14T1900,3377A,103.7442,25.5259,曲靖市,曲靖师范学院,颗粒物(PM10),63,68,69,35,44,136,136,149,147,6,26,3,8,0.3,0.5
2026-04-14T1900,1264A,118.8694,28.94,衢州市,环保大楼,"颗粒物(PM10),细颗粒物(PM2.5)",56,58,41,38,28,36,36,42,42,38,24,/,/,/,/
2026-04-14T1900,1266A,118.8622,28.9809,衢州市,衢州学院,细颗粒物(PM2.5),52,44,33,36,26,42,42,45,45,34,29,5,5,0.6,0.5
2026-04-14T1900,4097A,118.9646,28.9832,衢州市,衢州三中,颗粒物(PM10),55,56,40,37,28,39,39,46,46,32,22,7,7,0.6,0.6
2026-04-14T1900,1611A,118.5818,24.9116,泉州市,涂山街,,39,39,31,11,18,29,29,62,59,23,20,4,4,0.5,0.6
2026-04-14T1900,1612A,118.597,24.8976,泉州市,津头埔,,36,36,28,12,17,34,34,64,62,17,17,3,4,0.4,0.4
2026-04-14T1900,1613A,118.6669,24.9422,泉州市,万安,,29,29,29,12,18,35,35,61,59,11,14,4,4,0.4,0.4
2026-04-14T1900,4105A,118.6355,24.9148,泉州市,霞新路6号,,20,20,25,12,17,31,31,60,58,16,17,/,/,0.4,0.4
2026-04-14T1900,2626A,88.8873,29.2723,日喀则市,日喀则监测站,NA,NA,NA,39,18,14,NA,NA,129,129,5,11,9,9,0.3,0.4
2026-04-14T1900,3726A,88.8775,29.2425,日喀则市,林业技术推广中心,颗粒物(PM10),60,64,54,3,9,144,144,131,131,3,8,4,5,0.3,0.4
2026-04-14T1900,1659A,119.4711,35.421,日照市,监测站,,46,46,48,15,23,97,97,126,123,49,39,11,9,0.6,0.6
2026-04-14T1900,1660A,119.523,35.4216,日照市,市政府广场,颗粒物(PM10),51,51,42,13,21,109,109,137,134,43,26,7,7,0.6,0.6
2026-04-14T1900,1661A,119.5511,35.4113,日照市,港务局,颗粒物(PM10),51,51,43,9,16,101,101,120,114,44,25,6,5,0.6,0.6
2026-04-14T1900,3507A,119.5326,35.4627,日照市,职业技术学院,,39,27,35,10,19,123,123,139,138,31,26,9,8,0.5,0.5
2026-04-14T1900,3604A,119.3267,35.1043,日照市,岚山环保分局,颗粒物(PM10),51,51,65,22,20,113,113,122,120,39,30,12,12,0.6,0.7
2026-04-14T1900,1835A,111.1922,34.7752,三门峡市,市政府,,40,40,37,28,23,109,109,114,114,13,10,10,11,0.4,0.5
2026-04-14T1900,1836A,111.1588,34.794,三门峡市,开发区,,41,41,44,28,27,113,113,115,115,9,9,12,14,0.4,0.4
2026-04-14T1900,3039A,111.1911,34.7829,三门峡市,三门峡市第一小学,细颗粒物(PM2.5),52,45,42,36,25,113,113,118,118,13,10,12,15,0.5,0.5
2026-04-14T1900,3598A,111.1031,34.719,三门峡市,富达温泉假日酒店,,49,49,51,27,28,112,112,116,116,19,17,17,18,0.4,0.4
2026-04-14T1900,2324A,117.621,26.2626,三明市,三钢,细颗粒物(PM2.5),54,53,48,37,36,68,68,98,98,17,15,24,11,2.2,1.7
2026-04-14T1900,2325A,117.6352,26.2714,三明市,三明二中,NA,NA,NA,46,39,33,68,68,94,94,16,16,6,3,0.8,0.8
2026-04-14T1900,2326A,117.6028,26.2377,三明市,三元区政府,"颗粒物(PM10),细颗粒物(PM2.5)",58,61,48,39,38,58,58,93,92,23,17,11,10,0.8,0.8
2026-04-14T1900,1877A,109.4962,18.2682,三亚市,河西子站,NA,NA,32,30,12,17,NA,NA,78,67,4,4,4,4,0.3,0.4
2026-04-14T1900,3540A,109.7348,18.3443,三亚市,君悦子站,,23,23,30,10,13,53,53,74,65,3,4,3,4,0.4,0.4
2026-04-14T1900,4135A,109.1714,18.3739,三亚市,城东小学站,,27,27,35,10,18,52,52,78,66,4,4,/,/,/,/
2026-04-14T1900,2624A,91.7592,29.234,山南市,山南监测站,颗粒物(PM10),51,51,26,13,5,113,113,121,121,3,4,9,10,0.2,0.2
2026-04-14T1900,2625A,91.7701,29.2436,山南市,山南人民医院,颗粒物(PM10),77,87,36,15,6,112,112,119,119,6,4,9,9,0.2,0.3
2026-04-14T1900,1674A,116.6795,23.3666,汕头市,金平子站,,23,23,16,16,12,44,44,55,53,14,10,4,4,0.6,0.5
2026-04-14T1900,1675A,116.7248,23.3632,汕头市,龙湖子站,,24,24,18,14,12,42,42,48,47,4,5,5,6,/,/
2026-04-14T1900,1676A,116.7257,23.2774,汕头市,濠江子站,,34,34,22,12,12,38,38,45,44,12,12,8,8,/,/
2026-04-14T1900,1677A,116.7518,23.4712,汕头市,澄海子站,,32,32,22,17,13,46,46,58,57,8,7,6,7,0.6,0.6
2026-04-14T1900,1678A,116.6088,23.2539,汕头市,潮阳子站,,35,28,21,24,13,44,44,50,50,6,7,6,6,0.5,0.5
2026-04-14T1900,3444A,116.4539,23.2684,汕头市,潮南峡山,,25,25,19,17,12,46,46,56,56,3,3,6,7,0.6,0.6
2026-04-14T1900,3624A,116.4069,23.2533,汕头市,潮南子站,,29,29,22,15,11,45,45,52,52,2,3,5,6,/,/
2026-04-14T1900,1693A,115.3653,22.7751,汕尾市,市环保局,,19,19,15,13,10,49,49,50,50,7,4,5,5,0.4,0.3
2026-04-14T1900,1695A,115.362,22.7926,汕尾市,新城中学,,18,NA,15,12,9,52,52,53,53,7,6,6,6,0.4,0.1
2026-04-14T1900,2645A,109.9155,33.8714,商洛市,监测站,,31,29,32,19,21,98,98,114,114,18,18,8,9,0.5,0.5
2026-04-14T1900,3045A,109.9647,33.8486,商洛市,商州区中学,,37,37,40,16,22,91,91,113,113,17,21,5,8,0.5,0.6
2026-04-14T1900,2408A,115.6701,34.4283,商丘市,环境监测站,,36,36,27,18,18,112,112,122,122,9,11,3,3,0.3,0.3
2026-04-14T1900,2409A,115.6458,34.4047,商丘市,粮食局,,34,31,22,15,16,108,108,122,121,12,12,4,5,0.3,0.3
2026-04-14T1900,3171A,115.6069,34.4465,商丘市,梁园区档案局,,37,34,27,17,17,118,118,128,128,12,14,4,4,0.3,0.3
2026-04-14T1900,4119A,115.6701,34.3767,商丘市,北海东路185号,,33,26,24,16,13,103,103,122,121,14,12,5,5,0.3,0.3
2026-04-14T1900,4120A,115.6172,34.3704,商丘市,中山大街3号,NA,NA,30,25,18,16,84,84,121,118,NA,14,5,6,0.3,0.3
2026-04-14T1900,1141A,121.401,31.2382,上海市,普陀,细颗粒物(PM2.5),76,60,29,48,23,41,41,68,55,52,31,6,5,1.4,0.7
2026-04-14T1900,1142A,121.4774,31.2043,上海市,十五厂,细颗粒物(PM2.5),68,63,31,44,26,54,54,62,62,53,35,5,4,1.4,0.7
2026-04-14T1900,1143A,121.4673,31.3011,上海市,虹口,细颗粒物(PM2.5),82,56,30,51,25,15,15,64,43,78,32,5,4,1.2,0.7
2026-04-14T1900,1147A,121.4253,31.226,上海市,静安监测站,细颗粒物(PM2.5),72,51,27,46,24,40,40,67,58,64,36,8,7,1.4,0.8
2026-04-14T1900,1148A,121.7029,31.1905,上海市,浦东川沙,细颗粒物(PM2.5),70,53,31,45,26,31,31,79,40,72,39,8,7,1.1,0.7
2026-04-14T1900,1149A,121.5339,31.229,上海市,浦东新区监测站,细颗粒物(PM2.5),74,62,30,47,26,39,39,64,50,63,34,5,5,1.4,0.6
2026-04-14T1900,1150A,121.5776,31.2038,上海市,浦东张江,,50,41,27,35,24,31,31,65,48,59,33,6,6,0.7,0.3
2026-04-14T1900,3265A,121.4242,31.3303,上海市,宝山庙行,细颗粒物(PM2.5),60,62,31,40,23,14,14,61,43,83,37,6,6,1.0,0.5
2026-04-14T1900,3266A,121.8789,31.4662,上海市,崇明上实东滩,,28,22,16,19,14,86,86,91,76,8,9,5,7,0.4,0.3
2026-04-14T1900,3268A,121.316,31.2839,上海市,嘉定南翔,细颗粒物(PM2.5),70,62,29,45,25,18,18,57,44,67,29,4,4,1.4,0.6
2026-04-14T1900,3269A,121.3357,30.7455,上海市,金山新城,,42,31,22,29,22,74,74,83,83,34,19,4,3,1.2,0.8
2026-04-14T1900,3270A,121.4996,31.0741,上海市,闵行浦江,细颗粒物(PM2.5),60,53,28,40,24,63,63,59,59,44,32,6,6,1.0,0.6
2026-04-14T1900,3271A,121.2886,31.1663,上海市,青浦徐泾,细颗粒物(PM2.5),78,62,32,49,27,49,49,61,60,53,33,4,4,1.4,0.7
