timepoint,stationcode,longitude,latitude,area,positionname,primarypollutant,aqi,pm10,pm10_24h,pm2_5,pm2_5_24h,o3,o3_24h,o3_8h,o3_8h_24h,no2,no2_24h,so2,so2_24h,co,co_24h
2025-04-10T2100,2566A,102.1879,31.914,阿坝藏族羌族自治州,州农科所,,32,32,23,10,9,69,,85,82,9,8,12,12,0.4,0.4
2025-04-10T2100,2568A,102.2502,31.8896,阿坝藏族羌族自治州,马师校,,,,21,,15,84,,100,97,8,11,5,5,0.3,0.4
2025-04-10T2100,3994A,102.2165,31.9024,阿坝藏族羌族自治州,马尔康中学西区,,29,29,21,16,13,84,,105,99,8,10,3,3,0.2,0.8
2025-04-10T2100,2695A,80.292,41.1694,阿克苏地区,电视台,颗粒物(PM10),500,1400,609,224,89,100,,104,104,6,25,7,7,0.5,0.8
2025-04-10T2100,2696A,80.2613,41.1551,阿克苏地区,艺术中心,颗粒物(PM10),500,1496,629,241,99,99,,103,103,5,29,3,4,0.5,0.8
2025-04-10T2100,2204A,105.6467,38.8363,阿拉善盟,西城区西花园,颗粒物(PM10),84,117,73,46,17,105,,126,124,10,9,19,18,0.7,0.7
2025-04-10T2100,2205A,105.6985,38.8411,阿拉善盟,蒙二幼,颗粒物(PM10),89,128,78,51,19,94,,112,110,9,7,6,7,0.4,0.4
2025-04-10T2100,2206A,105.724,38.8516,阿拉善盟,环保局新楼,颗粒物(PM10),114,178,74,55,21,105,,116,116,4,4,9,9,0.4,0.4
2025-04-10T2100,2708A,88.1264,47.8517,阿勒泰地区,市站,,23,15,11,10,4,72,,74,74,12,6,6,2,0.6,0.6
2025-04-10T2100,2630A,80.1161,32.5,阿里地区,阿里监测站,,37,15,9,9,6,118,,124,124,4,5,7,8,0.5,0.5
2025-04-10T2100,3192A,80.0903,32.5028,阿里地区,阿里藏医院,,35,17,12,3,4,112,,116,116,1,2,6,7,0.4,0.4
2025-04-10T2100,2642A,109.0318,32.6537,安康市,香溪洞,颗粒物(PM10),53,55,51,18,22,116,,122,122,5,7,6,10,0.5,0.5
2025-04-10T2100,2644A,109.0072,32.6975,安康市,汉滨区检察院,颗粒物(PM10),55,59,52,25,23,79,,124,118,18,14,8,16,0.4,0.4
2025-04-10T2100,4054A,109.0325,32.6913,安康市,市邮政管理局,,,,52,,21,,,125,125,,13,,14,,0.4
2025-04-10T2100,2291A,117.0809,30.5177,安庆市,环科院,细颗粒物(PM2.5),68,71,60,49,34,9,,133,108,119,29,8,10,0.8,0.7
2025-04-10T2100,2292A,117.0331,30.5119,安庆市,马山宾馆,细颗粒物(PM2.5),67,66,53,48,35,62,,133,113,72,27,6,9,0.8,0.7
2025-04-10T2100,2294A,116.9896,30.6145,安庆市,安庆大学,颗粒物(PM10),61,71,62,43,33,81,,142,131,23,17,4,5,0.5,0.5
2025-04-10T2100,3173A,117.0598,30.5351,安庆市,市人大,细颗粒物(PM2.5),68,71,59,49,34,66,,140,128,41,14,7,9,0.9,0.6
2025-04-10T2100,3122A,105.9606,26.2611,安顺市,伍家关,细颗粒物(PM2.5),92,72,95,68,56,95,,102,102,4,8,3,4,0.7,0.8
2025-04-10T2100,3123A,105.9408,26.2431,安顺市,凤凰山,细颗粒物(PM2.5),57,51,52,40,43,93,,105,104,9,10,6,6,0.6,0.7
2025-04-10T2100,3124A,105.9439,26.2564,安顺市,金钟山,细颗粒物(PM2.5),57,48,69,40,49,98,,110,109,9,8,6,5,0.8,0.8
2025-04-10T2100,3125A,105.8983,26.2481,安顺市,娄家坡,细颗粒物(PM2.5),63,55,48,45,44,97,,111,109,9,10,6,6,0.7,0.9
2025-04-10T2100,1818A,114.4839,36.0621,安阳市,棉研所,,,,,,,,,,,,,,,,
2025-04-10T2100,1819A,114.3551,36.1017,安阳市,红庙街,颗粒物(PM10),74,97,111,41,77,112,,146,140,11,17,5,6,0.6,0.9
2025-04-10T2100,1820A,114.361,36.0681,安阳市,银杏小区,颗粒物(PM10),76,102,115,35,84,118,,154,147,12,17,6,8,0.3,0.7
2025-04-10T2100,3141A,114.3922,36.0878,安阳市,信访局,,,92,121,,75,119,,160,152,17,20,3,4,0.4,0.8
2025-04-10T2100,3669A,114.4705,36.0637,安阳市,左辅环卫站,颗粒物(PM10),78,105,142,28,86,105,,61,,16,25,3,6,0,0.6
2025-04-10T2100,3703A,114.2917,36.0949,安阳市,安钢职工学校,颗粒物(PM10),78,105,130,43,80,119,,146,141,13,27,5,6,0.6,1.1
2025-04-10T2100,1748A,123.044,41.1196,鞍山市,深沟寺,细颗粒物(PM2.5),72,92,63,52,40,101,,142,137,27,22,17,14,0.9,0.8
2025-04-10T2100,1749A,123.011,41.0931,鞍山市,太阳城,颗粒物(PM10),64,78,66,43,44,106,,139,134,22,20,9,8,1.1,1.1
2025-04-10T2100,1750A,123.0485,41.1442,鞍山市,太平,细颗粒物(PM2.5),77,101,71,56,42,98,,133,129,27,22,18,13,1.1,1
2025-04-10T2100,1751A,122.9642,41.0971,鞍山市,铁西三道街,细颗粒物(PM2.5),99,122,76,74,50,83,,142,133,50,31,16,10,1.3,1.1
2025-04-10T2100,1753A,123.022,41.0821,鞍山市,明达新区,颗粒物(PM10),64,77,64,45,43,111,,141,138,21,19,13,11,0.8,0.7
2025-04-10T2100,1754A,123.1289,41.0228,鞍山市,千山,,,,29,,19,,,86,,,11,,5,,0.9
2025-04-10T2100,4201A,122.9446,41.0826,鞍山市,兴盛南路290号,细颗粒物(PM2.5),129,159,81,98,55,88,,141,133,41,28,19,14,1.3,1
2025-04-10T2100,2195A,107.4212,40.761,巴彦淖尔市,附二中,颗粒物(PM10),146,242,84,81,23,85,,113,107,13,12,7,6,0.3,0.3
2025-04-10T2100,2196A,107.37,40.7372,巴彦淖尔市,市环保大楼,颗粒物(PM10),136,221,89,77,30,80,,115,107,14,12,6,6,0.2,0.2
2025-04-10T2100,1956A,86.1472,41.7538,巴音郭楞蒙古自治州,孔雀公园,颗粒物(PM10),102,153,266,26,44,103,,107,104,9,8,4,7,0.2,0.2
2025-04-10T2100,1957A,86.1972,41.7166,巴音郭楞蒙古自治州,棉纺厂,颗粒物(PM10),180,309,350,24,43,95,,100,100,14,10,2,3,0.2,0.2
2025-04-10T2100,1958A,86.2357,41.7173,巴音郭楞蒙古自治州,经济开发区,颗粒物(PM10),119,188,194,30,19,98,,,,15,9,5,7,0.1,0.2
2025-04-10T2100,2914A,106.7677,31.8794,巴中市,苏山坪,颗粒物(PM10),56,61,52,33,25,138,,138,138,9,8,5,4,0.4,0.3
2025-04-10T2100,3181A,106.7768,31.8526,巴中市,市五中,,,,69,,32,,,85,,,25,,6,,0.7
2025-04-10T2100,3183A,106.7418,31.8654,巴中市,圣泉水务公司,"颗粒物(PM10),细颗粒物(PM2.5)",68,86,57,49,28,48,,139,121,57,30,4,4,0.7,0.6
2025-04-10T2100,3616A,106.7616,31.8344,巴中市,市中心医院,颗粒物(PM10),65,79,60,35,31,61,,136,126,40,23,7,7,0.9,0.7
2025-04-10T2100,2235A,122.7911,45.6077,白城市,洮北区环保局,细颗粒物(PM2.5),118,111,63,89,42,92,,130,119,29,20,11,6,0.6,0.3
2025-04-10T2100,2236A,122.8738,45.5725,白城市,市环保局,细颗粒物(PM2.5),152,141,70,116,46,67,,124,110,38,19,9,6,0.8,0.5
2025-04-10T2100,2231A,126.4219,41.9171,白山市,喜丰,细颗粒物(PM2.5),57,61,75,40,33,82,,119,112,25,29,15,15,1.1,1.1
2025-04-10T2100,2232A,126.4077,41.9419,白山市,环保局,颗粒物(PM10),78,106,61,56,31,45,,121,104,46,24,7,7,1.2,1.1
2025-04-10T2100,2647A,104.1724,36.5446,白银市,第三小学,,,,87,,27,,,124,,,22,,45,,0.7
2025-04-10T2100,2648A,104.1465,36.5482,白银市,动力公司,颗粒物(PM10),121,192,84,73,26,112,,120,120,6,16,11,17,0.3,0.5
2025-04-10T2100,2512A,106.6103,23.9011,百色市,市监测站,细颗粒物(PM2.5),55,51,45,39,31,92,,106,104,11,14,9,11,0.6,0.7
2025-04-10T2100,2513A,106.6538,23.8859,百色市,市中心血站,,50,50,51,34,35,99,,110,107,10,17,5,9,0.7,0.8
2025-04-10T2100,3406A,106.6085,23.8798,百色市,祈福高中,颗粒物(PM10),55,59,57,35,30,96,,106,105,8,18,5,9,0.6,0.7
2025-04-10T2100,2270A,117.396,32.939,蚌埠市,工人疗养院,颗粒物(PM10),91,132,143,67,72,138,,158,158,21,28,7,6,0.8,0.8
2025-04-10T2100,2271A,117.3605,32.9427,蚌埠市,百货大楼,细颗粒物(PM2.5),94,129,142,70,77,129,,153,153,25,34,7,8,0.8,0.8
2025-04-10T2100,2273A,117.4185,32.8911,蚌埠市,蚌埠学院,细颗粒物(PM2.5),98,114,122,73,76,111,,156,147,42,27,15,8,0.9,0.8
2025-04-10T2100,2274A,117.3533,32.9673,蚌埠市,淮上区政府,细颗粒物(PM2.5),100,122,134,75,77,127,,151,150,24,29,6,8,0.7,0.7
2025-04-10T2100,2275A,117.3145,32.8977,蚌埠市,高新区,细颗粒物(PM2.5),89,119,125,66,75,136,,160,158,22,28,8,11,0.9,0.9
2025-04-10T2100,3715A,117.3092,32.9314,蚌埠市,蚌埠田家炳中学,颗粒物(PM10),89,127,153,64,74,143,,168,168,22,38,8,10,0.7,0.6
2025-04-10T2100,1585A,109.8756,40.6532,包头市,市环境监测站,颗粒物(PM10),80,110,66,15,20,106,,114,114,11,41,9,20,0.4,0.7
2025-04-10T2100,1587A,109.9991,40.5842,包头市,包头八中,颗粒物(PM10),82,113,84,26,30,102,,110,110,14,38,10,22,0.3,0.7
2025-04-10T2100,1588A,109.8538,40.6821,包头市,青山宾馆,颗粒物(PM10),68,85,66,19,26,104,,110,110,8,41,8,16,0.4,0.7
2025-04-10T2100,1589A,109.8642,40.6288,包头市,惠龙物流,颗粒物(PM10),74,98,65,18,23,112,,116,116,8,35,6,22,0.3,0.7
2025-04-10T2100,1590A,110.0377,40.5546,包头市,东河鸿龙湾,颗粒物(PM10),81,111,69,20,21,106,,115,115,14,32,8,15,0.2,0.3
2025-04-10T2100,3283A,109.9154,40.5685,包头市,滨河大厦,颗粒物(PM10),65,79,60,20,20,108,,113,113,8,35,9,15,0.4,0.6
2025-04-10T2100,3419A,109.9447,40.6261,包头市,包头市委党校,颗粒物(PM10),77,104,64,22,22,102,,112,112,10,33,6,17,0.3,0.6
2025-04-10T2100,3683A,109.8331,40.6576,包头市,昆区政府,颗粒物(PM10),73,96,65,18,28,108,,112,112,10,42,2,13,0.5,0.9
2025-04-10T2100,1930A,107.185,34.3063,宝鸡市,庙沟村,颗粒物(PM10),73,95,131,41,46,102,,127,127,26,15,8,8,0.5,0.4
2025-04-10T2100,1931A,107.0708,34.3017,宝鸡市,竹园沟,颗粒物(PM10),82,114,131,40,48,86,,131,128,26,16,8,8,0.5,0.4
2025-04-10T2100,1932A,107.1906,34.3672,宝鸡市,三陆医院,颗粒物(PM10),73,96,129,46,50,99,,126,125,22,26,6,8,0.6,0.5
2025-04-10T2100,1933A,107.1431,34.3547,宝鸡市,监测站,颗粒物(PM10),83,115,143,52,65,89,,126,123,26,17,9,9,0.5,0.4
2025-04-10T2100,1934A,107.1186,34.3739,宝鸡市,技工学校,细颗粒物(PM2.5),80,107,151,59,62,104,,124,124,20,15,10,9,0.6,0.5
2025-04-10T2100,1935A,107.3906,34.3528,宝鸡市,陈仓区环保局家属楼,颗粒物(PM10),81,112,141,41,48,78,,124,121,42,30,9,36,0.4,0.5
2025-04-10T2100,1936A,107.2058,34.3497,宝鸡市,文理学院,,,,141,,63,89,,130,126,28,23,7,7,0.5,0.4
2025-04-10T2100,1937A,107.2386,34.3622,宝鸡市,三迪小学,颗粒物(PM10),73,96,143,42,60,100,,126,124,25,27,8,8,0.5,0.5
2025-04-10T2100,1051A,115.493,38.8632,保定市,游泳馆,颗粒物(PM10),75,100,81,47,42,122,,141,141,19,29,8,6,0.3,0.3
2025-04-10T2100,1052A,115.5213,38.8959,保定市,华电二区,细颗粒物(PM2.5),89,72,66,66,47,114,,140,140,18,18,1,3,0.6,0.7
2025-04-10T2100,1053A,115.4713,38.9108,保定市,接待中心,颗粒物(PM10),66,81,77,43,28,122,,139,139,13,19,5,3,0.4,0.5
2025-04-10T2100,1054A,115.4612,38.8416,保定市,地表水厂,颗粒物(PM10),77,104,83,45,39,107,,141,140,35,30,6,5,0.7,0.6
2025-04-10T2100,3581A,115.31981,38.95208,保定市,满城区生态环境分局,细颗粒物(PM2.5),94,110,82,70,46,108,,131,131,25,24,9,4,0.6,0.4
2025-04-10T2100,3582A,115.47694,38.76408,保定市,清苑区第二中学,颗粒物(PM10),85,119,94,58,41,98,,139,135,34,28,8,7,0.5,0.4
2025-04-10T2100,3583A,115.62909,39.02311,保定市,徐水物探局,颗粒物(PM10),91,131,104,53,40,109,,137,136,26,31,12,10,0.5,0.4
2025-04-10T2100,4004A,115.4202,38.8656,保定市,双鹰农机,颗粒物(PM10),74,97,79,50,39,106,,130,130,22,30,7,6,0.4,0.3
2025-04-10T2100,4034A,115.5150,38.8590,保定市,植保所站,颗粒物(PM10),71,92,77,51,42,89,,137,134,40,26,4,2,0.9,0.8
2025-04-10T2100,2594A,99.1678,25.1081,保山市,市环境监测站,细颗粒物(PM2.5),63,68,80,45,51,126,,138,136,10,14,7,6,0.6,0.7
2025-04-10T2100,2595A,99.1711,25.1328,保山市,市环保局,颗粒物(PM10),56,61,83,38,48,137,,145,144,7,11,6,6,0.6,0.7
2025-04-10T2100,1866A,109.2262,21.588,北海市,牛尾岭水库,,,30,29,26,21,44,,72,69,,,6,6,0.7,0.6
2025-04-10T2100,1867A,109.1436,21.4086,北海市,海滩公园,,32,32,37,20,20,79,,96,95,17,19,6,6,0.6,0.6
2025-04-10T2100,1868A,109.0981,21.4661,北海市,新市环保局,,42,39,38,29,21,86,,85,84,16,14,4,4,0.5,0.5
2025-04-10T2100,1869A,109.1778,21.5233,北海市,北海工业园,颗粒物(PM10),60,70,43,39,28,57,,86,81,31,15,7,8,0.7,0.6
2025-04-10T2100,3400A,109.1911,21.4415,北海市,龙潭自来水厂,,36,36,40,24,28,81,,100,99,15,15,7,7,0.5,0.5
2025-04-10T2100,1001A,116.3621,39.8784,北京市,万寿西宫,颗粒物(PM10),74,98,104,42,51,132,,152,152,26,46,8,8,0.7,0.7
2025-04-10T2100,1002A,116.2202,40.2915,北京市,定陵,,,,,,,,,,,,,,,,
2025-04-10T2100,1003A,116.4174,39.9289,北京市,东四,颗粒物(PM10),84,118,110,47,54,125,,142,142,20,39,8,8,0.6,0.7
2025-04-10T2100,1004A,116.4072,39.8863,北京市,天坛,颗粒物(PM10),68,86,92,36,55,111,,134,134,23,38,3,3,0.7,0.7
2025-04-10T2100,1005A,116.462,39.9365,北京市,农展馆,颗粒物(PM10),79,107,101,40,49,135,,148,148,21,37,9,8,0.8,0.9
2025-04-10T2100,1006A,116.3392,39.9295,北京市,官园,颗粒物(PM10),75,100,101,46,44,121,,134,134,17,41,7,7,0.5,0.6
2025-04-10T2100,1007A,116.2878,39.9611,北京市,海淀万柳,颗粒物(PM10),74,97,97,37,40,112,,123,123,25,43,6,5,0.6,0.7
2025-04-10T2100,1008A,116.6636,40.135,北京市,顺义新城,颗粒物(PM10),75,100,106,41,53,137,,151,151,23,41,8,8,0.5,0.7
2025-04-10T2100,1009A,116.6275,40.3275,北京市,怀柔镇,颗粒物(PM10),65,80,67,37,33,109,,127,127,27,23,4,4,0.6,0.5
2025-04-10T2100,1010A,116.2296,40.217,北京市,昌平镇,颗粒物(PM10),70,89,75,32,29,119,,135,135,26,31,3,3,0.6,0.5
2025-04-10T2100,1011A,116.3966,39.9821,北京市,奥体中心,颗粒物(PM10),67,83,97,40,49,133,,148,148,23,51,4,4,0.7,0.9
2025-04-10T2100,3281A,115.9718,40.4529,北京市,延庆夏都,颗粒物(PM10),67,83,49,34,24,130,,130,130,16,24,7,6,0.5,0.4
2025-04-10T2100,3418A,116.8336,40.4095,北京市,密云新城,颗粒物(PM10),67,83,71,27,31,124,,129,129,19,23,6,5,0.4,0.4
2025-04-10T2100,3671A,116.088,39.9726,北京市,门头沟三家店,颗粒物(PM10),108,165,113,51,38,93,,111,111,38,41,6,5,0.5,0.5
2025-04-10T2100,3672A,116.1541,39.8204,北京市,丰台云岗,颗粒物(PM10),84,117,108,49,44,112,,139,139,29,52,9,9,0.6,0.6
2025-04-10T2100,3673A,116.6804,39.9081,北京市,通州东关,颗粒物(PM10),83,115,115,48,57,124,,136,136,26,47,7,8,0.6,0.7
2025-04-10T2100,3674A,115.9577,39.7603,北京市,房山燕山,,,98,79,,62,116,,129,129,19,28,5,6,0.5,0.4
2025-04-10T2100,3675A,116.4672,39.7733,北京市,大兴旧宫,颗粒物(PM10),65,79,98,40,44,117,,144,143,22,36,8,6,0.6,0.6
2025-04-10T2100,3694A,115.986,40.4563,北京市,延庆石河营,颗粒物(PM10),70,89,48,35,23,132,,126,126,15,23,5,5,0.5,0.4
2025-04-10T2100,3695A,116.6151,40.3053,北京市,怀柔新城,颗粒物(PM10),62,74,66,29,35,101,,125,125,24,16,3,4,0.7,0.6
2025-04-10T2100,3696A,116.2545,39.8768,北京市,丰台小屯,颗粒物(PM10),79,108,99,43,41,105,,127,127,28,50,3,3,0.4,0.5
2025-04-10T2100,3697A,116.84,40.3844,北京市,密云镇,颗粒物(PM10),64,78,70,25,32,133,,137,137,14,32,7,6,0.5,0.5
2025-04-10T2100,4182A,116.1942,39.9158,北京市,八角北路9号,颗粒物(PM10),83,116,111,55,51,109,,131,131,28,51,5,5,0.6,0.6
2025-04-10T2100,4194A,117.0790,40.1518,北京市,洳河巡河路,颗粒物(PM10),65,80,75,33,44,114,,147,145,25,24,3,4,0.5,0.5
2025-04-10T2100,1761A,123.8275,41.3064,本溪市,大峪,,,,,,,,,,,,,,,,
2025-04-10T2100,1762A,123.7567,41.3325,本溪市,溪湖,颗粒物(PM10),53,56,77,29,49,105,,136,134,22,29,12,12,0.6,1.3
2025-04-10T2100,1763A,123.7169,41.3094,本溪市,彩屯,颗粒物(PM10),64,78,130,39,49,95,,144,136,36,30,22,13,2.4,1.6
2025-04-10T2100,1764A,123.7669,41.2864,本溪市,东明,,47,47,58,24,27,116,,124,123,14,30,8,10,0.6,1.1
2025-04-10T2100,1765A,123.7992,41.2664,本溪市,新立屯,,40,39,46,28,34,119,,129,127,15,33,7,7,0.6,0.7
2025-04-10T2100,1766A,123.8142,41.3472,本溪市,威宁,颗粒物(PM10),68,86,75,46,46,74,,127,117,21,22,5,6,1.0,1.1
2025-04-10T2100,2587A,105.2864,27.3125,毕节市,八中,细颗粒物(PM2.5),72,65,77,52,61,106,,127,125,15,14,8,10,0.8,0.8
2025-04-10T2100,2588A,105.31,27.2944,毕节市,师专,细颗粒物(PM2.5),65,64,90,47,67,120,,138,136,13,25,8,13,0.6,0.8
2025-04-10T2100,4263A,105.3688,27.3598,毕节市,工业大道,细颗粒物(PM2.5),65,63,102,47,69,114,,129,128,15,25,9,11,0.8,1
2025-04-10T2100,1629A,118.0018,37.3617,滨州市,第二水厂,颗粒物(PM10),68,85,100,44,51,81,,156,150,44,36,11,13,0.6,0.8
2025-04-10T2100,1630A,117.9776,37.393,滨州市,北中新校,颗粒物(PM10),63,75,91,36,52,102,,159,150,40,37,17,11,0.6,0.8
2025-04-10T2100,3514A,117.9378,37.3956,滨州市,中海酒店,颗粒物(PM10),78,105,71,39,54,119,,162,158,24,23,12,11,0.8,0.7
2025-04-10T2100,3515A,117.9378,37.3553,滨州市,开发区一中,细颗粒物(PM2.5),77,95,90,56,56,101,,152,148,43,39,16,15,0.5,0.4
2025-04-10T2100,3516A,118.0917,37.694,滨州市,金海六路,颗粒物(PM10),61,71,71,31,43,99,,148,135,32,30,9,10,0.5,0.5
2025-04-10T2100,4028A,117.9956,37.3753,滨州市,滨州市西街道办事处,颗粒物(PM10),63,75,69,44,40,98,,172,163,35,23,9,8,0.4,0.5
2025-04-10T2100,2311A,115.8072,33.8399,亳州市,污水处理厂,颗粒物(PM10),91,132,140,66,83,126,,162,156,14,21,9,8,0.7,0.8
2025-04-10T2100,2312A,115.7789,33.8518,亳州市,三国揽胜宫,细颗粒物(PM2.5),85,109,117,63,78,119,,158,151,20,24,5,7,0.7,0.7
2025-04-10T2100,3332A,115.7633,33.8034,亳州市,亳州学院,颗粒物(PM10),95,140,151,54,67,128,,164,158,13,14,6,9,0.7,0.8
2025-04-10T2100,2693A,82.0485,44.8556,博尔塔拉蒙古自治州,市党校,颗粒物(PM10),55,59,72,11,13,125,,120,120,27,23,3,1,0.3,0.3
2025-04-10T2100,2694A,82.0806,44.8969,博尔塔拉蒙古自治州,市环保局,颗粒物(PM10),60,70,78,13,14,126,,129,129,13,14,3,2,0.2,0.3
2025-04-10T2100,1071A,116.8842,38.2991,沧州市,沧县城建局,颗粒物(PM10),75,99,74,45,46,109,,133,128,25,20,5,5,0.4,0.3
2025-04-10T2100,1072A,116.8584,38.3254,沧州市,电视转播站,细颗粒物(PM2.5),83,96,81,61,53,111,,142,138,24,18,7,3,0.4,0.3
2025-04-10T2100,1073A,116.8709,38.3228,沧州市,市环保局,"颗粒物(PM10),细颗粒物(PM2.5)",72,94,74,52,52,109,,143,139,25,20,6,5,0.5,0.4
2025-04-10T2100,3324A,116.8136,38.3004,沧州市,河北水利电力学院,细颗粒物(PM2.5),74,92,78,54,49,107,,137,133,28,26,9,8,0.4,0.3
2025-04-10T2100,2622A,97.1806,31.1273,昌都市,昌都监测站,,39,12,14,9,7,124,,122,122,2,5,2,2,0.3,0.3
2025-04-10T2100,3719A,97.1714,31.1406,昌都市,昌都会议中心,,37,,12,15,11,117,,119,119,4,6,4,3,0.3,0.2
2025-04-10T2100,2690A,88.1236,43.8886,昌吉回族自治州,天山天池,,17,17,19,3,5,31,,78,69,5,5,4,4,0.5,0.5
2025-04-10T2100,2692A,87.2717,44.0297,昌吉回族自治州,新区政务中心,,30,28,29,14,9,95,,109,108,15,6,4,6,0.3,0.3
2025-04-10T2100,3613A,87.3095,44.0142,昌吉回族自治州,亚心广场,,31,31,31,3,6,92,,102,101,14,9,7,7,0.4,0.4
2025-04-10T2100,1119A,125.3325,43.9166,长春市,食品厂,细颗粒物(PM2.5),150,160,85,115,56,114,,146,136,37,25,13,10,0.9,0.7
2025-04-10T2100,1120A,125.2863,43.9027,长春市,客车厂,细颗粒物(PM2.5),198,159,80,148,58,100,,146,138,50,26,11,8,1.0,0.7
2025-04-10T2100,1121A,125.2841,43.8463,长春市,邮电学院,细颗粒物(PM2.5),142,170,85,108,59,118,,156,145,38,23,11,9,0.9,0.6
2025-04-10T2100,1122A,125.3716,43.8772,长春市,劳动公园,细颗粒物(PM2.5),119,119,76,90,54,130,,155,147,26,20,10,9,0.9,0.7
2025-04-10T2100,1123A,125.3297,43.8805,长春市,园林处,细颗粒物(PM2.5),135,150,77,103,53,125,,155,146,29,20,12,9,0.9,0.6
2025-04-10T2100,1124A,125.4605,43.79,长春市,净月潭,细颗粒物(PM2.5),162,160,80,123,57,103,,146,138,33,18,10,8,0.9,0.6
2025-04-10T2100,1125A,125.7194,43.515,长春市,甩湾子,,,,,,,,,,,,,,,,
2025-04-10T2100,1126A,125.3863,43.8447,长春市,经开区环卫处,细颗粒物(PM2.5),119,145,90,90,57,94,,146,138,38,24,10,8,0.9,0.7
2025-04-10T2100,1127A,125.245,43.7783,长春市,高新区管委会,细颗粒物(PM2.5),147,158,78,112,61,100,,150,133,37,24,11,10,0.9,0.6
2025-04-10T2100,1128A,125.1761,43.8325,长春市,岱山公园,细颗粒物(PM2.5),221,183,84,171,63,46,,158,135,108,32,13,7,1.2,0.7
2025-04-10T2100,1335A,113.0833,28.2325,长沙市,经开区环保局,细颗粒物(PM2.5),73,74,52,53,37,103,,146,143,32,16,6,6,0.9,0.6
2025-04-10T2100,1336A,112.8872,28.2189,长沙市,高开区环保局,细颗粒物(PM2.5),80,82,62,59,47,111,,156,153,26,17,5,5,1.2,1
2025-04-10T2100,1337A,113.0792,28.2053,长沙市,马坡岭,细颗粒物(PM2.5),77,86,55,56,37,51,,143,134,62,20,3,4,0.8,0.5
2025-04-10T2100,1338A,112.9394,28.19,长沙市,湖南师范大学,,,66,58,44,40,,,145,145,14,17,6,5,0.9,0.8
2025-04-10T2100,1339A,113.0178,28.1322,长沙市,雨花区环保局,细颗粒物(PM2.5),72,74,54,52,38,131,,141,141,20,17,4,4,0.7,0.6
2025-04-10T2100,1340A,112.9792,28.2597,长沙市,伍家岭,细颗粒物(PM2.5),80,95,64,59,42,52,,147,139,73,26,3,3,1.5,0.9
2025-04-10T2100,1341A,113.0014,28.1944,长沙市,火车新站,细颗粒物(PM2.5),89,92,61,66,37,80,,143,137,50,22,7,7,1.2,0.8
2025-04-10T2100,1342A,112.9844,28.1178,长沙市,天心区环保局,细颗粒物(PM2.5),80,81,55,59,42,106,,149,147,34,18,4,4,0.9,0.6
2025-04-10T2100,1343A,112.8908,28.1308,长沙市,湖南中医药大学,细颗粒物(PM2.5),83,99,61,61,46,28,,145,125,73,28,2,3,1.0,0.9
2025-04-10T2100,1344A,112.9581,28.3611,长沙市,沙坪,颗粒物(PM10),74,97,117,50,33,72,,118,115,15,10,5,5,0.9,0.8
2025-04-10T2100,1727A,113.1147,36.1547,长治市,清华站,,49,49,60,22,20,80,,117,112,29,24,7,8,0.7,0.8
2025-04-10T2100,1730A,113.0886,36.2125,长治市,审计局,,41,41,51,17,24,85,,117,113,29,32,7,12,0.2,0.3
2025-04-10T2100,1731A,113.0844,36.1856,长治市,长治八中,颗粒物(PM10),54,58,61,17,46,62,,119,112,49,30,10,14,0.5,0.6
2025-04-10T2100,2845A,113.1569,36.1911,长治市,德盛苑,,39,39,43,17,18,90,,117,114,21,15,5,9,0.3,0.6
2025-04-10T2100,3568A,113.06,36.0464,长治市,向阳小学,颗粒物(PM10),55,59,67,30,23,84,,125,120,31,24,12,14,0.4,0.5
2025-04-10T2100,3569A,112.8792,36.3144,长治市,屯留一中,,42,42,42,14,10,78,,113,110,28,27,9,9,0.3,0.3
2025-04-10T2100,4189A,113.1131,36.19948,长治市,英华南巷50号,,47,47,61,22,23,56,,120,112,53,29,4,10,0.5,0.7
2025-04-10T2100,4190A,113.2367,36.3344,长治市,学府街1号,颗粒物(PM10),63,75,91,22,36,47,,129,115,52,42,7,8,1.1,1
2025-04-10T2100,1854A,111.6975,28.9703,常德市,市二中,细颗粒物(PM2.5),64,47,38,46,36,85,,105,104,26,16,13,8,1.0,0.9
2025-04-10T2100,1857A,111.7158,29.1456,常德市,白鹤山,,,,,,,,,,,,,,,,
2025-04-10T2100,3138A,111.7153,29.0289,常德市,武陵区永安,细颗粒物(PM2.5),60,66,54,43,37,84,,120,116,18,12,3,3,0.8,0.9
2025-04-10T2100,3139A,111.6892,28.9881,常德市,鼎城区玉霞,,,,44,,33,69,,116,110,10,13,6,6,,0.9
2025-04-10T2100,3140A,111.6625,29.0531,常德市,武陵区长庚,细颗粒物(PM2.5),60,56,54,43,39,100,,128,125,11,8,8,7,0.9,0.9
2025-04-10T2100,1196A,119.9633,31.762,常州市,市监测站,颗粒物(PM10),64,77,186,44,91,90,,178,158,51,74,11,15,1.1,1.5
2025-04-10T2100,1200A,119.9468,31.7069,常州市,武进监测站,颗粒物(PM10),72,94,167,41,69,101,,192,169,40,70,12,18,0.6,1
2025-04-10T2100,1201A,119.9255,31.9087,常州市,安家,颗粒物(PM10),67,83,181,34,81,70,,172,150,37,59,8,14,0.4,0.9
2025-04-10T2100,3002A,119.9805,31.8174,常州市,行政中心,细颗粒物(PM2.5),58,64,150,41,86,94,,167,153,39,61,18,24,0.8,1.2
2025-04-10T2100,3003A,120.0522,31.7748,常州市,经开区,颗粒物(PM10),72,94,132,44,81,85,,141,133,43,74,14,17,0.9,1.3
2025-04-10T2100,3010A,119.9025,31.7964,常州市,钟楼,颗粒物(PM10),61,71,172,40,85,95,,165,153,36,61,8,13,0.9,1.2
2025-04-10T2100,3429A,119.8598,31.7066,常州市,武进经发区,颗粒物(PM10),69,87,149,41,75,101,,195,174,37,71,10,14,1.2,1.3
2025-04-10T2100,3430A,119.5826,31.7245,常州市,金坛城区,,48,,77,33,50,114,,206,192,30,35,10,12,1.1,1
2025-04-10T2100,2220A,120.4318,41.5881,朝阳市,西梁,,50,50,49,22,26,119,,118,118,15,19,14,14,0.6,0.6
2025-04-10T2100,2221A,120.4521,41.5646,朝阳市,河畔小区,,50,50,40,23,23,130,,127,127,12,14,7,9,0.5,0.6
2025-04-10T2100,2222A,120.4176,41.5648,朝阳市,八里堡,细颗粒物(PM2.5),68,60,48,49,28,111,,115,115,26,20,20,15,1.8,0.9
2025-04-10T2100,2223A,120.3806,41.5969,朝阳市,农业园区,颗粒物(PM10),54,58,57,25,32,128,,129,129,9,23,9,11,0.5,0.7
2025-04-10T2100,1705A,116.6367,23.6719,潮州市,西园路,,,,,,,,,,,,,,,,
2025-04-10T2100,3026A,116.6183,23.6608,潮州市,市政府,,49,49,57,30,28,48,,106,93,24,24,7,9,1.0,1
2025-04-10T2100,4036A,116.6461,23.6761,潮州市,金山,,42,42,48,26,29,45,,115,101,30,24,10,9,0.7,0.7
2025-04-10T2100,2472A,113.0073,25.9061,郴州市,马头岭,颗粒物(PM10),67,84,30,20,12,46,,83,78,17,14,8,8,0.9,0.9
2025-04-10T2100,2473A,113.0116,25.8226,郴州市,市职中,颗粒物(PM10),54,58,36,36,23,21,,100,84,24,13,4,5,0.8,0.7
2025-04-10T2100,2475A,113.0383,25.8071,郴州市,市审计局,颗粒物(PM10),75,100,23,35,18,46,,104,93,21,12,2,2,0.8,0.6
2025-04-10T2100,2476A,113.0348,25.7759,郴州市,市环保局,颗粒物(PM10),61,72,30,33,18,43,,94,85,21,11,4,4,0.7,0.6
2025-04-10T2100,4252A,113.0138,25.8011,郴州市,好美居路49号,细颗粒物(PM2.5),63,61,26,45,19,16,,101,87,53,15,3,4,1.4,0.8
2025-04-10T2100,1431A,103.9728,30.7236,成都市,金泉两河,颗粒物(PM10),70,89,85,38,32,126,,192,190,21,32,3,4,1.0,1
2025-04-10T2100,1432A,104.176,30.6872,成都市,十里店,颗粒物(PM10),76,101,101,50,34,113,,172,168,27,31,4,4,0.8,0.7
2025-04-10T2100,1433A,104.079,30.5706,成都市,三瓦窑,颗粒物(PM10),77,104,85,51,38,145,,169,169,39,52,5,5,0.8,0.7
2025-04-10T2100,1434A,104.1114,30.63,成都市,沙河铺,细颗粒物(PM2.5),65,78,81,47,42,66,,150,141,43,40,6,6,1.0,0.9
2025-04-10T2100,1437A,104.0786,30.6531,成都市,君平街,细颗粒物(PM2.5),82,93,83,60,42,132,,166,166,29,42,7,8,0.9,0.9
2025-04-10T2100,1438A,103.613,31.0283,成都市,灵岩寺,,,,,,,,,,,,,,,,
2025-04-10T2100,2880A,104.0239,30.65639,成都市,大石西路,细颗粒物(PM2.5),84,103,88,62,43,113,,173,170,31,47,5,5,0.8,0.8
2025-04-10T2100,3136A,104.2725,30.5589,成都市,龙泉驿区区政府,颗粒物(PM10),70,90,71,41,28,113,,142,140,16,19,4,5,0.8,0.7
2025-04-10T2100,3357A,104.0106,30.6931,成都市,金博路,,,85,79,50,34,110,,178,175,,51,8,8,0.6,0.7
2025-04-10T2100,3359A,104.0578,30.5225,成都市,华阳,"颗粒物(PM10),细颗粒物(PM2.5)",70,90,78,51,51,137,,168,166,38,45,6,6,1.2,1.2
2025-04-10T2100,3488A,104.3853,30.7453,成都市,青白江技师分院,细颗粒物(PM2.5),63,68,70,45,29,117,,172,168,48,39,6,8,0.6,0.5
2025-04-10T2100,3489A,104.0789,30.4072,成都市,科学城,颗粒物(PM10),63,76,74,42,43,121,,160,155,25,26,5,5,0.8,0.8
2025-04-10T2100,4011A,103.8506,30.6947,成都市,光华大道三段,颗粒物(PM10),68,85,83,48,40,132,,194,190,24,33,3,3,0.8,0.8
2025-04-10T2100,4224A,104.2433,30.5353,成都市,鲸龙路1057号,颗粒物(PM10),70,89,83,44,39,114,,167,156,38,33,4,5,0.8,1
2025-04-10T2100,1062A,117.9531,40.9081,承德市,铁路,颗粒物(PM10),72,93,44,42,18,148,,122,122,20,23,8,8,0.3,0.4
2025-04-10T2100,1063A,117.9392,40.9763,承德市,中国银行,颗粒物(PM10),75,99,46,42,19,152,,126,126,14,17,4,5,0.3,0.4
2025-04-10T2100,1064A,117.9503,40.928,承德市,开发区,颗粒物(PM10),68,85,43,34,20,150,,126,126,17,20,9,9,0.4,0.4
2025-04-10T2100,1065A,117.8051,40.9655,承德市,文化中心,颗粒物(PM10),75,99,53,45,23,161,,130,130,12,23,6,11,0.3,0.5
2025-04-10T2100,1066A,117.9268,41.0026,承德市,离宫,颗粒物(PM10),66,82,41,43,26,80,,65,65,11,14,30,26,0.4,0.4
2025-04-10T2100,2314A,117.47,30.6618,池州市,池州学院,颗粒物(PM10),70,89,62,43,31,97,,140,134,30,15,6,8,0.6,0.5
2025-04-10T2100,3237A,117.4918,30.6617,池州市,展览馆,颗粒物(PM10),66,82,61,35,28,68,,136,125,33,15,4,6,0.6,0.6
2025-04-10T2100,3333A,117.5627,30.695,池州市,第八中学,颗粒物(PM10),65,79,64,34,29,137,,142,142,12,17,6,9,0.4,0.5
2025-04-10T2100,3334A,117.5038,30.6243,池州市,第十二中学,颗粒物(PM10),75,99,64,53,30,52,,143,127,57,15,6,6,0.7,0.6
2025-04-10T2100,1744A,118.9233,42.2816,赤峰市,松山一中,,34,31,39,12,15,108,,103,101,15,32,8,9,0.4,0.5
2025-04-10T2100,1745A,118.9576,42.2728,赤峰市,哈达街,,38,38,38,14,15,98,,102,98,17,27,12,10,0.5,0.5
2025-04-10T2100,1746A,118.8788,42.2554,赤峰市,天义路,,35,,28,19,19,111,,102,102,12,21,6,8,0.3,0.4
2025-04-10T2100,3058A,119.2658,42.0353,赤峰市,银河街,颗粒物(PM10),60,70,69,22,36,102,,99,96,15,23,19,25,0.5,0.6
2025-04-10T2100,3286A,118.9359,42.3147,赤峰市,桥北物流园区,,31,31,43,20,28,98,,92,91,14,35,7,12,0.5,0.6
2025-04-10T2100,2521A,107.3476,22.4136,崇左市,市环保局江州分局,,41,41,45,26,30,100,,119,119,6,7,5,7,0.8,0.7
2025-04-10T2100,4256A,107.3750,22.3736,崇左市,石景林东路7号,,35,33,45,24,34,91,,124,122,10,8,5,6,0.7,0.7
2025-04-10T2100,2298A,118.3093,32.3153,滁州市,老年大学,细颗粒物(PM2.5),97,99,88,72,57,116,,167,162,26,19,6,6,0.6,0.5
2025-04-10T2100,2299A,118.3244,32.2786,滁州市,人大宾馆,细颗粒物(PM2.5),120,137,97,91,54,109,,165,158,48,32,10,10,0.7,0.6
2025-04-10T2100,3207A,118.3118,32.3038,滁州市,市政府原办公楼,细颗粒物(PM2.5),112,120,90,84,58,118,,166,161,25,13,5,5,0.7,0.5
2025-04-10T2100,3331A,118.3267,32.2634,滁州市,图书馆,细颗粒物(PM2.5),119,147,99,90,54,115,,160,154,32,19,11,9,0.8,0.6
2025-04-10T2100,2605A,101.5482,25.0441,楚雄彝族自治州,州环境监测站,细颗粒物(PM2.5),54,47,60,38,49,144,,145,145,9,16,7,9,0.6,0.7
2025-04-10T2100,2606A,101.538,25.0492,楚雄彝族自治州,市经济开发区,颗粒物(PM10),61,72,61,42,48,138,,143,142,13,18,6,8,0.7,0.7
2025-04-10T2100,2548A,107.5277,31.2827,达州市,达州职业技术学院,颗粒物(PM10),78,106,57,38,22,33,,127,102,54,28,7,7,0.7,0.2
2025-04-10T2100,2549A,107.5086,31.2186,达州市,市环境监测站,颗粒物(PM10),61,72,61,31,22,70,,135,118,47,37,6,6,0.9,0.7
2025-04-10T2100,2550A,107.4988,31.2132,达州市,凤凰小区,颗粒物(PM10),64,78,58,31,23,62,,138,118,52,35,8,9,0.7,0.6
2025-04-10T2100,2551A,107.5082,31.1986,达州市,达县机关宾馆,颗粒物(PM10),67,83,63,27,27,3,,132,97,94,46,7,7,0.7,0.5
2025-04-10T2100,2552A,107.4644,31.2124,达州市,市政中心,颗粒物(PM10),82,113,65,44,22,4,,139,115,105,41,5,4,1.5,0.6
2025-04-10T2100,2614A,100.1542,25.7054,大理白族自治州,大理市环境监测站,,,44,46,26,28,,,138,,9,9,7,7,0.1,0.4
2025-04-10T2100,2615A,100.2171,25.5811,大理白族自治州,大理古城,颗粒物(PM10),52,54,46,32,33,128,,130,129,7,10,7,7,0.6,0.7
2025-04-10T2100,1109A,121.612,38.9741,大连市,甘井子,,43,43,57,27,41,67,,116,110,61,37,7,6,0.4,0.7
2025-04-10T2100,1110A,121.565,38.9511,大连市,周水子,,42,42,60,28,45,76,,103,94,42,40,8,10,0.4,0.4
2025-04-10T2100,1111A,121.5637,38.8845,大连市,星海三站,,45,40,60,31,46,60,,96,80,36,27,7,8,0.6,0.5
2025-04-10T2100,1112A,121.6302,38.9117,大连市,青泥洼桥,,31,31,46,21,33,99,,128,121,28,26,10,9,0.4,0.5
2025-04-10T2100,1113A,121.6251,38.8638,大连市,傅家庄,,32,32,48,20,37,75,,79,78,41,35,8,8,0.2,0.3
2025-04-10T2100,1114A,121.5213,38.8661,大连市,七贤岭,,36,36,55,24,37,74,,110,92,43,28,6,6,0.4,0.5
2025-04-10T2100,1115A,121.2529,38.8061,大连市,旅顺,,35,28,53,24,47,81,,92,91,33,30,7,7,0.5,0.5
2025-04-10T2100,1116A,121.7485,39.1311,大连市,金州,,40,23,51,17,39,126,,122,122,20,26,7,9,0.4,0.6
2025-04-10T2100,1117A,121.7811,39.0496,大连市,开发区,,37,37,54,20,38,90,,106,99,27,29,9,10,0.7,0.8
2025-04-10T2100,1118A,121.9762,39.0631,大连市,双D港,,,31,46,22,38,90,,98,68,,30,14,15,0.4,0.7
2025-04-10T2100,1789A,124.81117,46.03138,大庆市,大同区,细颗粒物(PM2.5),90,94,85,67,56,83,,118,110,29,15,6,7,0.7,0.6
2025-04-10T2100,1790A,125.129,46.533,大庆市,龙凤区,细颗粒物(PM2.5),205,216,122,155,82,120,,146,143,40,26,10,9,1.1,0.9
2025-04-10T2100,1791A,124.902,46.408,大庆市,红岗区,细颗粒物(PM2.5),306,276,91,256,75,129,,151,151,36,18,12,9,1.2,0.6
2025-04-10T2100,1792A,125.153,46.586,大庆市,萨尔图区,细颗粒物(PM2.5),233,,141,183,112,128,,160,159,33,29,11,11,0.8,0.8
2025-04-10T2100,1793A,124.9042,46.6215,大庆市,让胡路区,细颗粒物(PM2.5),216,189,143,166,121,94,,165,157,53,27,11,9,1.2,0.7
2025-04-10T2100,3481A,125.141,46.634,大庆市,萨区政府监测点,细颗粒物(PM2.5),195,197,154,146,107,116,,150,150,35,25,9,10,0.9,0.7
2025-04-10T2100,1721A,113.3819,40.1097,大同市,果树场,颗粒物(PM10),64,78,50,37,27,24,,91,81,51,27,10,12,0.7,0.7
2025-04-10T2100,1723A,113.2994,40.0758,大同市,云冈宾馆,颗粒物(PM10),55,60,47,17,25,65,,101,98,49,35,12,13,0.2,0.6
2025-04-10T2100,1724A,113.3444,40.0917,大同市,大同大学,,46,46,50,19,27,78,,98,97,26,30,16,18,0.4,0.7
2025-04-10T2100,1725A,113.2661,40.1269,大同市,安家小村,颗粒物(PM10),51,52,59,23,28,71,,95,92,42,30,14,15,0.5,1
2025-04-10T2100,1726A,113.2711,40.0844,大同市,教育学院,颗粒物(PM10),60,69,57,35,28,62,,98,94,42,34,11,12,0.5,0.8
2025-04-10T2100,3282A,113.3397,40.0597,大同市,大同市卫生学校,颗粒物(PM10),58,65,56,25,29,56,,95,90,51,38,9,12,0.5,0.8
2025-04-10T2100,3565A,113.1367,40.1122,大同市,云冈站,,41,41,43,16,19,67,,98,94,19,25,13,13,0.4,0.5
2025-04-10T2100,3566A,113.1186,40.2556,大同市,图书馆,,44,44,32,19,20,53,,91,82,26,14,18,11,0.4,0.6
2025-04-10T2100,3567A,113.5931,40.0461,大同市,区一中,颗粒物(PM10),51,51,60,14,25,75,,103,95,27,23,20,18,0.4,0.6
2025-04-10T2100,4199A,113.2798,40.0997,大同市,魏都大道141号,颗粒物(PM10),58,65,69,26,29,67,,101,98,44,35,16,16,0.5,0.9
2025-04-10T2100,2269A,124.1069,50.4097,大兴安岭地区,科技局,,32,25,23,22,18,76,,94,90,6,4,2,5,0.2,0.4
2025-04-10T2100,3663A,124.1164,50.4278,大兴安岭地区,红旗社区,,25,,10,3,8,78,,91,88,1,4,4,4,0.2,0.3
2025-04-10T2100,1600A,124.3303,40.0625,丹东市,江湾东路,细颗粒物(PM2.5),68,67,46,49,37,84,,112,107,18,17,8,9,0.4,0.6
2025-04-10T2100,1601A,124.4256,40.1503,丹东市,临江后街,细颗粒物(PM2.5),68,65,42,49,31,80,,106,101,18,13,5,6,0.9,0.7
2025-04-10T2100,1602A,124.3933,40.1461,丹东市,元宝山,细颗粒物(PM2.5),58,58,40,41,29,75,,103,101,22,15,7,7,1.2,0.5
2025-04-10T2100,1603A,124.3633,40.1092,丹东市,民主桥,细颗粒物(PM2.5),60,49,43,43,31,87,,111,110,12,14,7,8,1.0,0.8
2025-04-10T2100,3541A,109.5726,19.5167,儋州市,第一中学子站,,,,38,,23,60,,75,67,,7,5,5,0.6,0.6
2025-04-10T2100,3542A,109.5567,19.5187,儋州市,东坡学校子站,,38,38,40,22,22,70,,82,75,9,7,5,5,0.6,0.5
2025-04-10T2100,2616A,98.5842,24.428,德宏傣族景颇族自治州,德宏州监测站,细颗粒物(PM2.5),65,74,103,47,78,76,,126,118,14,26,8,9,0.8,1
2025-04-10T2100,3677A,98.5881,24.4368,德宏傣族景颇族自治州,芒市人民政府综合楼,颗粒物(PM10),74,97,126,45,76,83,,140,132,14,19,7,8,0.8,0.9
2025-04-10T2100,1901A,104.4239,31.1208,德阳市,东山公园,颗粒物(PM10),78,105,79,42,32,176,,174,174,16,16,7,5,0.5,0.5
2025-04-10T2100,1902A,104.3826,31.1317,德阳市,西小区,颗粒物(PM10),77,103,89,50,38,132,,172,172,37,27,6,5,0.8,0.7
2025-04-10T2100,1904A,104.3553,31.1091,德阳市,耐火材料厂,颗粒物(PM10),81,112,92,46,38,153,,186,186,29,31,8,7,0.6,0.5
2025-04-10T2100,3639A,104.4019,31.1244,德阳市,市教育局,颗粒物(PM10),73,95,76,48,37,145,,180,180,35,24,7,6,0.8,0.7
2025-04-10T2100,1622A,116.3032,37.4674,德州市,儿童乐园,颗粒物(PM10),97,144,96,66,52,143,,157,157,21,21,8,8,0.7,0.6
2025-04-10T2100,1624A,116.2991,37.4451,德州市,监理站,颗粒物(PM10),100,149,101,63,53,137,,153,153,21,29,12,11,0.6,0.5
2025-04-10T2100,3066A,116.2721,37.4379,德州市,九衢泉纯净水厂,颗粒物(PM10),93,136,101,56,49,119,,148,145,37,46,10,10,0.8,0.7
2025-04-10T2100,3371A,116.3728,37.4403,德州市,开发区人民医院,颗粒物(PM10),93,136,99,56,46,144,,162,162,22,33,8,10,0.7,0.7
2025-04-10T2100,3372A,116.3572,37.4094,德州市,太阳城中学,,,149,101,68,55,,,153,153,25,41,6,8,0.5,0.5
2025-04-10T2100,3511A,116.5652,37.3319,德州市,陵城艺术中心,"颗粒物(PM10),细颗粒物(PM2.5)",92,134,99,68,62,132,,152,151,28,29,4,8,0.8,0.7
2025-04-10T2100,2621A,99.7056,27.8317,迪庆藏族自治州,迪庆州站,,35,34,50,22,27,110,,116,115,10,12,8,10,0.5,0.6
2025-04-10T2100,3180A,99.7136,27.8094,迪庆藏族自治州,质量技术监督局,,34,34,38,23,23,108,,117,116,11,12,10,9,0.6,0.6
2025-04-10T2100,4257A,104.6092,35.5962,定西市,将台街,颗粒物(PM10),55,60,97,25,24,119,,125,125,10,21,7,6,0.4,0.5
2025-04-10T2100,4309A,104.6159,35.5701,定西市,正龙路62号,颗粒物(PM10),67,83,100,37,32,114,,124,123,8,11,11,12,0.3,0.3
2025-04-10T2100,1389A,113.7547,23.0494,东莞市,莞城梨川,,41,41,39,22,25,56,,129,113,23,18,5,5,0.5,0.6
2025-04-10T2100,1390A,113.7944,23.0128,东莞市,东城石井,,35,35,33,20,19,61,,128,113,24,18,6,6,0.6,0.6
2025-04-10T2100,1391A,113.7383,22.9658,东莞市,南城西平,,33,33,31,15,17,51,,117,102,28,15,6,6,0.6,0.6
2025-04-10T2100,3319A,113.7338,23.0381,东莞市,万江金泰,,36,36,37,18,20,45,,133,113,25,14,6,6,0.9,0.9
2025-04-10T2100,3626A,113.7533,23.0202,东莞市,南城元岭,,33,33,33,17,19,52,,119,105,22,15,6,6,0.7,0.7
2025-04-10T2100,3627A,113.7875,23.0457,东莞市,东城主山,,40,40,38,19,17,57,,126,112,31,22,3,3,0.7,0.7
2025-04-10T2100,1666A,118.6614,37.4309,东营市,市环保局,颗粒物(PM10),59,68,58,22,28,124,,145,143,13,27,7,9,0.5,0.6
2025-04-10T2100,3036A,118.6904,37.4338,东营市,开发区管委会,颗粒物(PM10),64,77,60,29,34,128,,142,142,29,33,7,7,0.7,0.6
2025-04-10T2100,3365A,118.5719,37.565,东营市,垦利区民丰路,颗粒物(PM10),59,68,56,17,30,128,,145,141,24,30,10,6,0.9,0.9
2025-04-10T2100,3498A,118.5055,37.8612,东营市,河口城区,颗粒物(PM10),56,61,70,12,32,120,,170,160,22,28,8,7,0.8,0.9
2025-04-10T2100,3646A,118.4978,37.4623,东营市,胜利站,颗粒物(PM10),54,58,70,29,32,118,,144,139,25,30,10,10,0.8,0.8
2025-04-10T2100,3734A,118.35,37.26,东营市,理想之城,,,90,69,,33,108,,146,138,24,40,24,9,0.6,0.6
2025-04-10T2100,1591A,110.0023,39.8129,鄂尔多斯市,综合楼,颗粒物(PM10),147,244,78,56,18,94,,108,107,19,27,4,7,0.1,0.3
2025-04-10T2100,1592A,109.9486,39.8261,鄂尔多斯市,巴音孟克林场办事处,颗粒物(PM10),133,215,62,56,17,93,,111,110,15,16,5,7,0.1,0.2
2025-04-10T2100,1593A,109.7736,39.5986,鄂尔多斯市,康泽苑,颗粒物(PM10),128,205,64,51,14,97,,110,109,10,16,4,5,0.2,0.3
2025-04-10T2100,1594A,109.8119,39.5989,鄂尔多斯市,华泰汽车城,颗粒物(PM10),124,197,69,53,18,93,,107,106,12,30,3,4,0.3,0.3
2025-04-10T2100,1595A,109.9734,39.7884,鄂尔多斯市,奥林花园,颗粒物(PM10),133,215,78,51,16,68,,110,104,47,45,20,8,0.3,0.4
2025-04-10T2100,2436A,114.8938,30.3994,鄂州市,市政府,颗粒物(PM10),88,125,76,61,36,78,,151,144,59,26,11,11,0.8,0.7
2025-04-10T2100,2437A,114.8989,30.3714,鄂州市,赵家坝,颗粒物(PM10),73,96,77,40,30,101,,122,121,34,33,7,8,1.1,1.1
2025-04-10T2100,3654A,114.8094,30.4089,鄂州市,精准医疗中心,颗粒物(PM10),58,66,67,35,29,131,,165,161,31,21,4,4,0.5,0.7
2025-04-10T2100,2454A,109.4978,30.2981,恩施土家族苗族自治州,湖北民院,,48,48,38,33,28,97,,122,118,27,25,8,6,0.5,0.4
2025-04-10T2100,2455A,109.4707,30.2798,恩施土家族苗族自治州,州电力总公司,,50,50,34,33,22,90,,108,104,12,13,4,5,0.0,0
2025-04-10T2100,3549A,109.5061,30.3772,恩施土家族苗族自治州,龙凤新区,颗粒物(PM10),52,53,33,29,20,49,,116,102,21,11,7,6,0.6,0.4
2025-04-10T2100,2499A,108.3411,21.6158,防城港市,沙万,颗粒物(PM10),51,52,64,31,27,32,,35,35,20,37,1,4,0.7,0.6
2025-04-10T2100,2500A,108.3514,21.7731,防城港市,防城档案局,,33,32,45,23,30,43,,53,49,10,17,2,5,0.6,0.6
2025-04-10T2100,2501A,108.3506,21.6414,防城港市,大海花园,,42,42,49,20,24,34,,50,39,17,33,2,5,0.7,0.7
2025-04-10T2100,1371A,113.1294,23.0067,佛山市,湾梁,,36,36,39,17,20,61,,145,127,21,21,7,7,0.5,0.5
2025-04-10T2100,1372A,113.1083,23.0478,佛山市,华材职中,,39,39,38,23,23,56,,154,136,28,22,6,6,0.6,0.6
2025-04-10T2100,1373A,113.144,23.0453,佛山市,南海气象局,,40,38,48,28,28,49,,136,117,25,20,6,6,0.6,0.7
2025-04-10T2100,1374A,113.2881,22.8094,佛山市,顺德苏岗,颗粒物(PM10),51,52,42,22,20,41,,118,97,24,18,6,6,0.7,0.7
2025-04-10T2100,1376A,112.8383,22.8678,佛山市,高明孔堂,,35,35,31,20,21,65,,108,97,8,10,5,5,0.6,0.6
2025-04-10T2100,1377A,112.8836,23.1588,佛山市,三水监测站,细颗粒物(PM2.5),57,48,46,40,31,40,,125,105,36,35,1,3,0.5,0.6
2025-04-10T2100,1378A,112.867,23.185,佛山市,三水云东海,,37,37,48,21,30,50,,133,118,30,32,3,3,0.5,0.6
2025-04-10T2100,3625A,113.2544,22.7642,佛山市,容桂街道办,,31,31,35,17,25,39,,106,86,29,24,6,7,0.7,0.7
2025-04-10T2100,1280A,119.3903,26.0543,福州市,鼓山,,,,24,,20,,,107,,,7,,3,,0.5
2025-04-10T2100,1282A,119.2681,26.0504,福州市,师大,,49,42,31,34,31,106,,132,131,19,12,5,4,0.5,0.5
2025-04-10T2100,1283A,119.2984,26.1028,福州市,五四北路,,43,43,28,27,34,104,,121,120,25,20,5,4,0.7,0.7
2025-04-10T2100,1284A,119.2648,26.0768,福州市,杨桥西路,,48,48,37,26,31,113,,132,131,19,15,5,4,0.7,0.7
2025-04-10T2100,1285A,119.317,26.0746,福州市,紫阳,,44,44,32,28,36,91,,108,105,35,24,6,5,0.5,0.5
2025-04-10T2100,3048A,119.5799,26.0936,福州市,九龙,,36,36,28,19,27,85,,125,122,10,12,3,4,0.4,0.6
2025-04-10T2100,3526A,119.5189,25.9664,福州市,吴航,,,25,40,18,31,,,130,130,16,14,4,4,0.6,0.8
2025-04-10T2100,1755A,123.7977,41.8491,抚顺市,望花区,细颗粒物(PM2.5),158,155,101,120,68,91,,150,138,51,36,28,22,1.1,1.1
2025-04-10T2100,1756A,123.9161,41.8822,抚顺市,顺城区,细颗粒物(PM2.5),138,159,105,105,65,99,,155,148,44,37,21,14,1.8,1.2
2025-04-10T2100,1757A,124.0436,41.8611,抚顺市,东洲区,细颗粒物(PM2.5),202,218,117,152,77,81,,143,132,45,28,23,12,1.5,1.1
2025-04-10T2100,1758A,123.9247,41.8642,抚顺市,新抚区,细颗粒物(PM2.5),103,138,88,77,52,90,,144,135,41,31,20,11,1.3,1.2
2025-04-10T2100,1759A,124.0972,41.8961,抚顺市,大伙房水库,细颗粒物(PM2.5),183,154,85,138,69,103,,150,143,33,19,26,12,1.3,0.9
2025-04-10T2100,1760A,123.7086,41.8391,抚顺市,沈抚新城,细颗粒物(PM2.5),104,119,93,78,53,101,,156,151,44,34,20,16,1.0,1
2025-04-10T2100,2376A,116.2127,28.0814,抚州市,桐源党溪,,38,38,40,22,25,41,,103,87,3,3,6,7,0.6,0.7
2025-04-10T2100,2377A,116.3544,27.9831,抚州市,市站,颗粒物(PM10),53,56,35,30,20,38,,94,82,47,9,4,7,1.3,1.1
2025-04-10T2100,2378A,116.3565,27.963,抚州市,血防站,,47,47,37,25,20,54,,100,94,24,7,4,8,1.3,1.5
2025-04-10T2100,2379A,116.3564,28.0007,抚州市,采茶剧团,,46,44,31,32,20,57,,98,91,29,5,1,2,1.3,1.2
2025-04-10T2100,2380A,116.385,27.9647,抚州市,医学分院,,43,43,30,24,19,60,,98,92,21,8,4,4,1.0,0.5
2025-04-10T2100,2207A,121.6094,41.998,阜新市,工业园区,颗粒物(PM10),87,124,70,46,32,133,,131,131,32,20,18,16,1.0,0.6
2025-04-10T2100,2208A,121.6697,42.0279,阜新市,长青街,细颗粒物(PM2.5),95,111,66,71,43,138,,129,129,23,20,15,16,1.0,0.7
2025-04-10T2100,2209A,121.6673,42.0705,阜新市,农业园区,细颗粒物(PM2.5),104,113,64,78,39,144,,134,134,18,14,15,14,0.9,0.7
2025-04-10T2100,2210A,121.6717,42.0224,阜新市,东苑,细颗粒物(PM2.5),102,103,63,76,42,128,,122,122,30,24,19,20,0.9,0.6
2025-04-10T2100,2211A,121.6506,42.0498,阜新市,玉龙新城,细颗粒物(PM2.5),114,120,64,86,45,133,,131,131,30,22,18,15,1.1,0.7
2025-04-10T2100,2301A,115.8277,32.8929,阜阳市,市监测站,颗粒物(PM10),99,148,123,62,59,78,,152,138,42,26,9,9,0.5,0.4
2025-04-10T2100,2303A,115.8554,32.8605,阜阳市,开发区,颗粒物(PM10),136,221,150,52,46,60,,153,136,58,24,7,8,0.7,0.5
2025-04-10T2100,2875A,115.784,32.8892,阜阳市,阜阳职业技术学院,颗粒物(PM10),98,146,132,63,50,67,,162,144,47,26,8,9,0.7,0.5
2025-04-10T2100,3468A,115.7901,32.8613,阜阳市,市规划展馆,颗粒物(PM10),98,146,132,46,49,101,,160,147,27,19,9,11,0.6,0.6
2025-04-10T2100,3469A,115.836,32.9183,阜阳市,枣园社区,颗粒物(PM10),101,151,142,42,56,53,,159,140,72,32,7,9,0.7,0.6
2025-04-10T2100,2669A,102.9099,34.9841,甘南藏族自治州,州政府,颗粒物(PM10),60,70,105,31,34,92,,103,102,6,21,9,9,0.3,0.4
2025-04-10T2100,3380A,102.8914,34.9617,甘南藏族自治州,甘肃民族师范学院,颗粒物(PM10),66,82,119,27,30,104,,111,111,7,28,9,9,0.5,0.5
2025-04-10T2100,2570A,101.9603,30.0475,甘孜藏族自治州,水桥子,,34,33,37,19,15,108,,115,114,9,26,5,4,0.1,0.2
2025-04-10T2100,3065A,101.9533,29.9972,甘孜藏族自治州,州环保局,颗粒物(PM10),52,53,41,16,11,96,,115,113,15,16,5,4,0.5,0.4
2025-04-10T2100,3414A,115.8347,28.932,赣江新区,桑海产业园,,46,46,47,17,28,57,,144,122,50,21,4,5,0.4,0.6
2025-04-10T2100,2362A,114.9017,25.9149,赣州市,通天岩,,43,43,44,14,11,56,,126,107,5,6,8,6,1.2,1.1
2025-04-10T2100,2363A,114.9367,25.8664,赣州市,地委,颗粒物(PM10),51,52,54,30,37,52,,114,102,25,13,2,2,1.4,1.3
2025-04-10T2100,2364A,114.9461,25.8481,赣州市,气象台,颗粒物(PM10),64,78,57,30,33,78,,134,121,22,18,7,11,0.9,0.9
2025-04-10T2100,2365A,114.9322,25.8333,赣州市,市图书馆,颗粒物(PM10),51,51,52,34,37,68,,138,125,24,15,4,6,1.0,0.9
2025-04-10T2100,2366A,114.8905,25.8471,赣州市,华坚鞋城,颗粒物(PM10),55,60,54,34,34,61,,143,123,36,18,11,12,0.7,0.5
2025-04-10T2100,3109A,115.0093,25.8613,赣州市,赣县区卫计委,,50,50,46,28,33,64,,119,108,25,9,4,6,0.6,0.5
2025-04-10T2100,2683A,106.2319,36.1417,固原市,马园,颗粒物(PM10),81,112,93,25,23,89,,111,102,14,31,5,5,0.5,0.6
2025-04-10T2100,2684A,106.2792,36.0022,固原市,监测站,颗粒物(PM10),69,87,78,21,23,101,,119,116,16,17,4,5,0.4,0.4
2025-04-10T2100,2685A,106.2375,36.0211,固原市,新区,颗粒物(PM10),62,74,83,24,24,81,,116,111,33,28,6,6,0.4,0.4
2025-04-10T2100,3522A,106.2177,35.9959,固原市,原州区十五小,颗粒物(PM10),82,114,84,38,25,90,,120,118,29,12,7,8,0.3,0.2
2025-04-10T2100,2543A,106.6308,30.5278,广安市,小平旧居,,,,,,,,,,,,,,,,
2025-04-10T2100,2544A,106.6303,30.4576,广安市,市委,颗粒物(PM10),99,147,89,54,44,22,,140,119,80,28,8,9,1.5,0.7
2025-04-10T2100,2545A,106.6271,30.4663,广安市,友谊中学,,,76,76,40,41,61,,145,129,43,27,4,4,,0.9
2025-04-10T2100,2547A,106.6388,30.4551,广安市,广电花园,颗粒物(PM10),94,137,91,48,43,21,,140,110,80,33,10,11,1.2,0.7
2025-04-10T2100,2902A,106.6351,30.4865,广安市,北辰小学,颗粒物(PM10),75,100,84,45,42,74,,151,137,34,21,10,10,0.6,0.5
2025-04-10T2100,2523A,105.8945,32.4535,广元市,黑石坡,颗粒物(PM10),63,75,72,40,16,137,,130,130,8,11,2,1,0.3,0.3
2025-04-10T2100,2524A,105.821,32.4444,广元市,老城,颗粒物(PM10),61,72,61,34,20,76,,133,128,43,18,1,3,0.5,0.6
2025-04-10T2100,2526A,105.8628,32.4287,广元市,监测站,颗粒物(PM10),51,51,50,26,21,127,,140,140,11,10,8,8,0.4,0.4
2025-04-10T2100,3617A,105.8047,32.4166,广元市,经开区,颗粒物(PM10),63,76,71,40,34,123,,126,126,15,21,4,9,0.7,0.7
2025-04-10T2100,1345A,113.2347,23.1423,广州市,广雅中学,,50,50,47,25,23,47,,126,114,32,27,4,4,0.8,0.8
2025-04-10T2100,1346A,113.2612,23.105,广州市,市五中,,45,45,42,21,22,34,,141,124,50,25,2,2,0.8,0.7
2025-04-10T2100,1348A,113.3478,23.0916,广州市,广东商学院,,44,44,48,23,32,23,,152,124,58,43,4,4,0.5,0.6
2025-04-10T2100,1349A,113.4332,23.1047,广州市,市八十六中,,41,41,48,14,20,14,,99,81,67,50,4,4,0.8,0.8
2025-04-10T2100,1350A,113.3505,22.9483,广州市,番禺中学,,42,42,43,20,24,37,,139,118,41,26,4,5,0.6,0.6
2025-04-10T2100,1351A,113.2146,23.3916,广州市,花都师范,,47,47,71,20,36,65,,180,158,37,30,4,4,0.7,0.7
2025-04-10T2100,1352A,113.2597,23.1331,广州市,市监测站,,46,46,43,22,22,32,,134,120,55,31,5,5,0.5,0.5
2025-04-10T2100,1353A,113.5618,23.312,广州市,九龙镇镇龙,,49,49,53,25,29,48,,123,114,51,37,6,6,0.7,0.6
2025-04-10T2100,1354A,113.2765,23.1544,广州市,麓湖,,40,40,42,22,24,42,,160,136,44,28,4,4,0.5,0.6
2025-04-10T2100,1355A,113.443,23.3035,广州市,帽峰山森林公园,颗粒物(PM10),54,57,42,10,27,41,,142,132,52,27,6,4,0.8,0.7
2025-04-10T2100,2846A,113.3221,23.1322,广州市,体育西,颗粒物(PM10),52,54,48,25,28,27,,140,125,47,29,4,4,1.0,1
2025-04-10T2100,3298A,113.5717,23.5491,广州市,从化街口,颗粒物(PM10),57,63,55,35,34,108,,147,147,31,23,9,9,0.9,0.8
2025-04-10T2100,3299A,113.3472,23.3692,广州市,白云竹料,颗粒物(PM10),55,60,58,29,31,68,,163,156,40,33,7,7,0.7,0.7
2025-04-10T2100,3300A,113.2981,23.237,广州市,白云嘉禾,颗粒物(PM10),51,52,53,27,32,32,,152,142,58,46,5,5,0.8,0.7
2025-04-10T2100,3301A,113.4256,23.1716,广州市,黄埔科学城,,50,50,51,21,29,27,,128,114,46,33,7,7,0.3,0.4
2025-04-10T2100,3302A,113.3942,23.0483,广州市,番禺大学城,,40,40,50,19,24,25,,142,119,55,34,10,10,0.5,0.5
2025-04-10T2100,3303A,113.4922,22.8168,广州市,南沙黄阁,,30,30,40,17,22,48,,96,84,25,22,5,5,0.8,0.8
2025-04-10T2100,3304A,113.5342,22.7896,广州市,南沙街,,35,35,35,16,20,48,,94,81,20,19,4,4,0.7,0.6
2025-04-10T2100,3443A,113.2902,23.5544,广州市,花都梯面,颗粒物(PM10),55,60,54,30,30,90,,151,151,31,33,5,5,0.9,0.9
2025-04-10T2100,3445A,113.7858,23.7478,广州市,从化良口,细颗粒物(PM2.5),55,57,46,39,33,123,,132,132,18,16,7,6,0.8,0.8
2025-04-10T2100,3446A,113.8051,23.2614,广州市,增城荔城,颗粒物(PM10),51,52,47,30,27,84,,164,157,23,22,6,7,0.3,0.4
2025-04-10T2100,2505A,109.568,23.1478,贵港市,德智高中,,,,,,,,,,,,,,,,
2025-04-10T2100,2506A,109.6047,23.0666,贵港市,江南子站,,48,48,56,33,34,70,,100,95,15,21,3,6,0.7,0.8
2025-04-10T2100,2508A,109.5669,23.1065,贵港市,荷城子站,颗粒物(PM10),53,55,54,34,30,58,,87,83,17,20,4,6,0.4,0.4
2025-04-10T2100,3405A,109.5886,23.1172,贵港市,新世纪学校,颗粒物(PM10),56,61,53,34,35,60,,92,87,26,25,6,8,0.8,0.8
2025-04-10T2100,4260A,109.5933,23.0951,贵港市,中山路155-3号,,49,48,58,34,35,63,,99,89,19,19,6,8,0.9,0.9
2025-04-10T2100,1439A,106.6899,26.5998,贵阳市,马鞍山,,46,46,53,27,34,87,,100,100,11,17,4,4,0.5,0.7
2025-04-10T2100,1441A,106.6243,26.6266,贵阳市,鉴湖路,颗粒物(PM10),57,63,64,29,37,86,,103,100,13,13,12,11,0.6,0.6
2025-04-10T2100,1442A,106.7487,26.6343,贵阳市,燕子冲,细颗粒物(PM2.5),55,56,59,39,45,86,,108,107,21,20,2,3,0.4,0.5
2025-04-10T2100,1443A,106.6555,26.4365,贵阳市,碧云窝,颗粒物(PM10),56,61,62,24,35,94,,108,108,11,15,4,6,0.5,0.6
2025-04-10T2100,1445A,106.7109,26.6027,贵阳市,红边门,颗粒物(PM10),53,56,62,36,46,83,,100,99,20,28,3,6,0.4,0.6
2025-04-10T2100,1446A,106.7164,26.5699,贵阳市,新华路,颗粒物(PM10),54,58,59,34,41,87,,100,100,12,22,7,14,0.3,0.7
2025-04-10T2100,1447A,106.674,26.5424,贵阳市,太慈桥,颗粒物(PM10),51,51,56,29,36,75,,100,98,27,24,7,6,0.6,0.7
2025-04-10T2100,1552A,106.805,26.3003,贵阳市,桐木岭,细颗粒物(PM2.5),62,63,60,44,39,97,,100,100,3,4,4,4,0.9,0.9
2025-04-10T2100,4230A,106.6882,26.5695,贵阳市,花果园大街66号,细颗粒物(PM2.5),55,48,53,39,44,84,,102,101,22,26,5,6,0.3,0.4
2025-04-10T2100,4231A,106.6873,26.5169,贵阳市,漓江路57号,颗粒物(PM10),51,51,60,34,42,88,,110,109,16,24,10,11,0.6,0.7
2025-04-10T2100,1862A,110.4144,25.3167,桂林市,电子科大尧山校区,,,,,,,,,,,,,,,,
2025-04-10T2100,1864A,110.3089,25.2708,桂林市,龙隐路小学,细颗粒物(PM2.5),69,64,82,50,60,38,,116,107,35,26,8,9,1.1,1.2
2025-04-10T2100,1865A,110.2869,25.2178,桂林市,八中,细颗粒物(PM2.5),80,85,82,59,63,15,,112,100,51,27,9,9,1.1,0.9
2025-04-10T2100,3531A,110.296,25.1253,桂林市,旅游学院,细颗粒物(PM2.5),64,58,58,46,53,60,,100,96,29,24,8,8,0.6,0.8
2025-04-10T2100,4222A,110.1835,25.2444,桂林市,环湖路276号,细颗粒物(PM2.5),83,83,80,61,71,44,,100,91,30,29,6,9,0.9,0.8
2025-04-10T2100,4301A,110.2803,25.2773,桂林市,信义路13号,细颗粒物(PM2.5),72,89,85,52,58,21,,120,107,59,28,8,9,1.2,1
2025-04-10T2100,2674A,100.2561,34.4714,果洛藏族自治州,玛沁县大武镇,,49,49,58,23,18,112,,117,117,2,4,11,13,0.3,0.4
2025-04-10T2100,1129A,126.5422,45.755,哈尔滨市,岭北,细颗粒物(PM2.5),305,285,175,255,128,122,,179,173,61,34,26,24,1.7,1.3
2025-04-10T2100,1130A,126.561,45.8167,哈尔滨市,松北商大,细颗粒物(PM2.5),309,284,191,259,138,98,,176,162,69,34,15,13,1.4,1
2025-04-10T2100,1131A,126.979,45.5419,哈尔滨市,阿城会宁,细颗粒物(PM2.5),458,507,226,436,165,27,,164,113,115,38,24,10,2.5,1.2
2025-04-10T2100,1132A,126.599,45.7222,哈尔滨市,南岗学府路,细颗粒物(PM2.5),293,343,202,243,116,88,,166,155,91,32,16,11,1.7,1.1
2025-04-10T2100,1133A,126.689,45.7733,哈尔滨市,太平宏伟公园,细颗粒物(PM2.5),341,308,191,291,124,62,,181,165,97,30,15,10,1.7,1.1
2025-04-10T2100,1134A,126.635,45.7667,哈尔滨市,道外承德广场,细颗粒物(PM2.5),255,270,181,205,130,87,,170,161,79,34,13,10,1.3,0.9
2025-04-10T2100,1135A,126.685,45.7319,哈尔滨市,香坊红旗大街,细颗粒物(PM2.5),350,354,216,300,139,66,,170,158,102,38,23,13,1.4,0.9
2025-04-10T2100,1136A,126.6411,45.7258,哈尔滨市,动力和平路,细颗粒物(PM2.5),330,299,211,280,136,100,,162,157,74,34,15,12,1.3,0.9
2025-04-10T2100,1137A,126.593,45.7478,哈尔滨市,道里建国路,细颗粒物(PM2.5),328,303,184,278,129,73,,164,152,99,36,18,14,2.0,1
2025-04-10T2100,1138A,126.615,45.61,哈尔滨市,平房东轻厂,细颗粒物(PM2.5),305,331,197,255,133,51,,155,136,96,30,16,12,1.5,1
2025-04-10T2100,1139A,126.595,45.9855,哈尔滨市,呼兰师专,细颗粒物(PM2.5),331,289,177,281,140,62,,175,149,90,32,15,12,1.5,1.1
2025-04-10T2100,1140A,126.6206,45.6842,哈尔滨市,省农科院,细颗粒物(PM2.5),339,368,226,289,133,41,,149,123,143,47,21,13,1.6,0.9
2025-04-10T2100,2688A,93.5128,42.8172,哈密市,地区监测站,,,,106,8,19,82,,90,88,5,11,,6,0.1,0.3
2025-04-10T2100,2689A,93.4961,42.8328,哈密市,哈密师范学校,颗粒物(PM10),80,110,92,22,20,84,,98,95,11,13,4,6,0.6,0.6
2025-04-10T2100,2671A,100.9048,36.9639,海北藏族自治州,海晏县西海镇,,33,33,25,17,13,92,,111,108,3,4,7,6,0.4,0.3
2025-04-10T2100,3867A,102.0738,36.5056,海东市,平安区公安北苑,颗粒物(PM10),71,92,68,16,25,104,,109,109,4,11,7,9,0.4,0.5
2025-04-10T2100,1409A,110.576,19.9507,海口市,东寨港,,36,27,23,25,21,11,,22,21,7,7,10,9,0.6,0.5
2025-04-10T2100,1410A,110.3232,20.0574,海口市,海南大学,,40,40,38,23,21,72,,71,71,14,15,2,2,0.5,0.5
2025-04-10T2100,1411A,110.283,20.0053,海口市,秀英海南医院,,45,45,38,29,26,80,,67,67,12,21,4,4,0.5,0.4
2025-04-10T2100,1412A,110.338,19.9969,海口市,海南师范大学,,,,42,,24,,,56,,,11,,3,,0.5
2025-04-10T2100,1413A,110.33,20.0356,海口市,龙华路环保局宿舍,,42,42,35,23,22,72,,71,71,10,11,4,4,0.4,0.4
2025-04-10T2100,3539A,110.5111,19.9736,海口市,桂林洋子站,,37,37,33,23,21,37,,75,72,20,11,4,4,0.4,0.4
2025-04-10T2100,2673A,100.6188,36.2866,海南藏族自治州,共和县恰卜恰镇,颗粒物(PM10),56,62,52,16,24,68,,116,109,36,14,13,13,0.4,0.4
2025-04-10T2100,2676A,97.3731,37.3753,海西蒙古族藏族自治州,德令哈市,,48,48,51,21,14,111,,118,118,1,2,14,12,0.4,0.4
2025-04-10T2100,1048A,114.5302,36.6116,邯郸市,东污水处理厂,颗粒物(PM10),64,78,91,27,45,109,,134,132,26,37,3,5,0.4,0.7
2025-04-10T2100,1049A,114.4918,36.5713,邯郸市,矿院,颗粒物(PM10),66,81,87,29,52,76,,109,105,21,21,4,5,0.4,0.7
2025-04-10T2100,1050A,114.484,36.6133,邯郸市,丛台公园,颗粒物(PM10),69,87,93,34,53,105,,136,133,23,27,9,11,0.4,0.8
2025-04-10T2100,3458A,114.7895,36.5593,邯郸市,香泉濮院小区,颗粒物(PM10),75,100,110,31,53,106,,139,128,17,20,5,7,0.3,0.7
2025-04-10T2100,3579A,114.50634,36.77178,邯郸市,永年区实验高中,颗粒物(PM10),72,93,109,35,57,118,,134,132,12,25,6,10,0.5,1.2
2025-04-10T2100,3580A,114.20016,36.44293,邯郸市,峰峰矿区临水派出所,颗粒物(PM10),72,94,87,45,57,127,,149,146,13,15,7,13,0.7,1
2025-04-10T2100,2634A,106.9893,33.1842,汉中市,汉川机床厂子校,细颗粒物(PM2.5),84,81,71,62,36,88,,133,128,10,5,8,7,0.7,0.5
2025-04-10T2100,2635A,107.0154,33.0706,汉中市,市监测站,颗粒物(PM10),76,102,85,40,35,80,,128,124,29,13,6,7,0.9,0.6
2025-04-10T2100,2636A,107.0089,33.1138,汉中市,鑫源开发区,细颗粒物(PM2.5),74,78,80,54,36,71,,133,127,36,15,5,6,0.5,0.4
2025-04-10T2100,2637A,107.007,33.0323,汉中市,南郑大河坎水厂,细颗粒物(PM2.5),72,91,77,52,35,81,,134,128,36,17,6,6,0.7,0.5
2025-04-10T2100,1223A,120.2072,30.2111,杭州市,滨江,细颗粒物(PM2.5),102,132,72,76,36,99,,149,142,51,27,8,7,0.6,0.5
2025-04-10T2100,1224A,120.0633,30.2747,杭州市,西溪,颗粒物(PM10),72,94,65,32,37,133,,131,121,27,20,6,6,0.4,0.5
2025-04-10T2100,1226A,120.3417,30.3150,杭州市,下沙,细颗粒物(PM2.5),117,144,81,88,40,92,,135,128,50,44,8,7,0.5,0.5
2025-04-10T2100,1227A,120.1269,30.2456,杭州市,卧龙桥,颗粒物(PM10),74,98,58,49,35,123,,129,118,34,23,7,6,0.5,0.4
2025-04-10T2100,1228A,120.1903,30.2692,杭州市,浙江农大,细颗粒物(PM2.5),102,120,71,76,38,121,,140,137,18,24,3,2,0.5,0.5
2025-04-10T2100,1230A,120.1197,30.3119,杭州市,和睦小学,颗粒物(PM10),88,125,70,49,40,123,,148,140,33,22,7,7,0.7,0.7
2025-04-10T2100,1231A,120.3019,30.4183,杭州市,临平镇,颗粒物(PM10),95,139,85,65,40,129,,162,147,29,31,7,6,0.5,0.6
2025-04-10T2100,1232A,120.2753,30.1839,杭州市,城厢镇,颗粒物(PM10),101,152,72,64,37,91,,149,139,55,30,10,8,0.7,0.7
2025-04-10T2100,1233A,120.0883,30.1808,杭州市,云栖,颗粒物(PM10),81,111,58,47,29,110,,136,110,46,35,10,10,0.6,0.7
2025-04-10T2100,3557A,119.9464,30.0494,杭州市,镇二中,颗粒物(PM10),55,60,53,26,34,75,,126,108,35,28,3,1,0.4,0.5
2025-04-10T2100,3558A,119.7183,30.2367,杭州市,市府大楼,颗粒物(PM10),62,73,61,32,32,52,,132,108,31,17,7,7,0.7,0.7
2025-04-10T2100,3656A,120.1556,30.2864,杭州市,消防大队,细颗粒物(PM2.5),90,126,77,67,38,117,,147,143,44,28,4,4,0.6,0.7
2025-04-10T2100,1270A,117.1959,31.7848,合肥市,明珠广场,颗粒物(PM10),76,102,86,44,35,98,,132,129,34,31,3,3,0.5,0.4
2025-04-10T2100,1271A,117.3072,31.8764,合肥市,三里街,颗粒物(PM10),76,102,95,34,33,89,,121,117,38,38,4,4,0.8,0.8
2025-04-10T2100,1272A,117.2588,31.8707,合肥市,琥珀山庄,颗粒物(PM10),73,95,93,38,38,92,,128,124,26,26,2,3,0.5,0.5
2025-04-10T2100,1273A,117.1604,31.9052,合肥市,董铺水库,颗粒物(PM10),82,114,96,39,36,120,,137,136,15,10,2,1,0.3,0.3
2025-04-10T2100,1274A,117.25,31.8571,合肥市,长江中路,颗粒物(PM10),73,95,94,39,38,112,,130,129,26,27,7,7,0.5,0.5
2025-04-10T2100,1275A,117.266,31.9436,合肥市,庐阳区,颗粒物(PM10),84,117,100,36,36,89,,129,125,36,27,6,6,0.4,0.4
2025-04-10T2100,1276A,117.3453,31.8616,合肥市,瑶海区,颗粒物(PM10),78,105,107,37,35,87,,117,112,44,48,6,6,0.5,0.6
2025-04-10T2100,1277A,117.3027,31.7964,合肥市,包河区,颗粒物(PM10),71,92,88,36,37,84,,128,125,44,43,6,6,0.4,0.5
2025-04-10T2100,1278A,117.2776,31.7385,合肥市,滨湖新区,颗粒物(PM10),71,92,86,36,40,112,,128,128,19,32,6,6,0.5,0.5
2025-04-10T2100,1279A,117.1318,31.8403,合肥市,高新区,颗粒物(PM10),75,100,92,33,36,116,,128,127,21,21,2,2,0.5,0.5
2025-04-10T2100,3464A,117.3803,31.9147,合肥市,高教基地,颗粒物(PM10),80,110,97,31,34,96,,132,129,27,31,5,5,0.3,0.3
2025-04-10T2100,3614A,79.924,37.0877,和田地区,地区环保局,颗粒物(PM10),125,200,548,39,111,76,,90,90,16,17,3,2,0.5,0.5
2025-04-10T2100,3615A,79.9131,37.113,和田地区,市环保局,颗粒物(PM10),124,198,1105,35,148,82,,97,96,11,16,1,2,0.6,0.6
2025-04-10T2100,2516A,108.2011,24.715,河池市,东仁乐园,细颗粒物(PM2.5),100,106,129,75,89,32,,65,64,28,22,13,10,1.5,1.5
2025-04-10T2100,2517A,108.0497,24.6947,河池市,市环保站,细颗粒物(PM2.5),75,70,111,55,76,44,,69,69,17,16,16,8,0.8,0.9
2025-04-10T2100,2518A,108.0983,24.6989,河池市,市疾控中心,细颗粒物(PM2.5),83,100,109,61,81,26,,68,66,42,24,13,9,1.1,1
2025-04-10T2100,1696A,114.6778,23.7569,河源市,源西,细颗粒物(PM2.5),60,66,40,43,30,101,,119,118,30,18,4,4,0.7,0.5
2025-04-10T2100,1697A,114.6944,23.7586,河源市,东埔,细颗粒物(PM2.5),67,65,44,48,36,122,,135,135,28,18,4,4,0.8,0.6
2025-04-10T2100,1698A,114.6892,23.7233,河源市,老城,细颗粒物(PM2.5),72,62,43,52,33,125,,137,137,28,18,4,4,0.6,0.6
2025-04-10T2100,1718A,115.4208,35.2464,菏泽市,气象局,颗粒物(PM10),96,142,136,61,82,139,,164,159,20,18,5,7,0.5,0.6
2025-04-10T2100,3374A,115.5564,35.0891,菏泽市,定陶老年大学,颗粒物(PM10),95,139,124,56,69,140,,155,151,18,23,4,6,0.7,0.6
2025-04-10T2100,4184A,115.4797,35.24401,菏泽市,永昌路1号,颗粒物(PM10),120,189,157,66,77,132,,149,144,19,19,7,9,0.4,0.5
2025-04-10T2100,4193A,115.4715,35.2800,菏泽市,长城路999号,颗粒物(PM10),100,150,136,61,76,149,,164,160,19,23,3,7,0.4,0.6
2025-04-10T2100,2514A,111.5264,24.4172,贺州市,环保小区,细颗粒物(PM2.5),59,66,78,42,49,111,,124,124,15,29,7,7,0.9,0.9
2025-04-10T2100,2515A,111.5608,24.4078,贺州市,政协大楼,细颗粒物(PM2.5),69,59,63,50,49,84,,114,110,28,26,9,9,0.8,0.8
2025-04-10T2100,3534A,111.4744,24.4553,贺州市,西湾,,,,80,,59,106,,119,119,13,29,8,6,0.8,0.9
2025-04-10T2100,2385A,114.17,35.9019,鹤壁市,市监测站,,,,121,,73,,,154,,,20,,7,,1.2
2025-04-10T2100,2386A,114.2956,35.7511,鹤壁市,市交警支队,颗粒物(PM10),89,128,136,49,71,112,,159,150,27,30,11,8,0.8,1.1
2025-04-10T2100,2387A,114.2878,35.7306,鹤壁市,迎宾馆,颗粒物(PM10),88,126,136,36,64,116,,166,154,23,20,6,7,0.6,1
2025-04-10T2100,3474A,114.2617,35.6822,鹤壁市,大新区,颗粒物(PM10),88,125,146,45,78,84,,156,140,43,24,7,9,0.7,1
2025-04-10T2100,3596A,114.1572,35.9603,鹤壁市,南山宾馆,细颗粒物(PM2.5),97,135,124,72,71,134,,164,161,18,17,6,8,0.5,0.7
2025-04-10T2100,2244A,130.2537,47.3416,鹤岗市,哈啤分公司,,45,45,59,28,34,82,,104,101,6,15,14,17,0.2,0.3
2025-04-10T2100,2245A,130.2684,47.3086,鹤岗市,斯达机电,,48,44,75,33,46,86,,107,104,6,16,12,14,0.3,0.5
2025-04-10T2100,2246A,130.3114,47.3388,鹤岗市,东山纸板厂,,46,46,124,27,50,82,,101,98,5,21,12,16,0.2,1.2
2025-04-10T2100,2247A,130.1097,47.3382,鹤岗市,五号水库,,,,,,,,,,,,,,,,
2025-04-10T2100,2263A,127.4833,50.2524,黑河市,交通局,,49,49,30,25,14,34,,79,64,25,11,7,6,0.5,0.4
2025-04-10T2100,2264A,127.5144,50.2341,黑河市,环保局,,49,49,26,26,17,31,,84,69,37,12,6,4,0.5,0.5
2025-04-10T2100,2265A,127.5291,50.2472,黑河市,大黑河岛,,,,,,,,,,,,,,,,
2025-04-10T2100,1074A,115.6838,37.7541,衡水市,电机北厂,颗粒物(PM10),71,92,90,44,49,129,,170,160,13,18,1,3,0.3,0.5
2025-04-10T2100,1075A,115.6303,37.7316,衡水市,市监测站,颗粒物(PM10),67,83,85,41,49,111,,172,158,23,28,4,9,0.3,0.4
2025-04-10T2100,3188A,115.6683,37.7217,衡水市,市城管局,颗粒物(PM10),68,85,82,47,52,120,,167,156,16,25,5,8,0.5,0.6
2025-04-10T2100,3459A,115.5989,37.5491,衡水市,地表水厂,颗粒物(PM10),77,103,93,34,51,82,,173,151,39,44,11,13,0.4,0.5
2025-04-10T2100,2456A,112.5003,26.9167,衡阳市,原169医院,细颗粒物(PM2.5),63,60,70,45,48,68,,101,97,24,22,6,8,0.8,0.8
2025-04-10T2100,2457A,112.6194,26.9258,衡阳市,衡阳化工总厂,细颗粒物(PM2.5),73,66,65,53,47,66,,116,108,18,12,8,10,0.9,0.9
2025-04-10T2100,2458A,112.6211,26.8956,衡阳市,珠晖区环保局,,,59,60,,56,68,,115,106,16,10,7,10,1.2,0.9
2025-04-10T2100,2459A,112.6197,26.8733,衡阳市,市委党校,,,54,64,,,76,,112,105,13,13,4,4,0.8,0.8
2025-04-10T2100,2460A,112.6006,26.8919,衡阳市,市监测站,,,,62,,44,65,,117,105,23,16,,10,1.0,0.9
2025-04-10T2100,2461A,112.5664,26.9056,衡阳市,真空机电公司,细颗粒物(PM2.5),57,61,68,40,48,69,,122,109,25,18,6,9,0.9,1.1
2025-04-10T2100,3399A,112.6703,26.882,衡阳市,师范学院,细颗粒物(PM2.5),65,62,61,47,43,62,,113,104,19,13,10,12,0.9,0.9
2025-04-10T2100,2608A,103.3772,23.3993,红河哈尼族彝族自治州,污水处理厂,细颗粒物(PM2.5),100,75,66,75,57,128,,138,134,8,11,10,10,0.5,0.5
2025-04-10T2100,2609A,103.3861,23.35,红河哈尼族彝族自治州,监测站,细颗粒物(PM2.5),87,81,71,64,50,130,,135,133,7,8,8,8,0.5,0.5
2025-04-10T2100,3038A,103.3758,23.368,红河哈尼族彝族自治州,州图书馆,细颗粒物(PM2.5),80,71,62,59,50,130,,142,140,10,10,8,8,0.4,0.4
2025-04-10T2100,1090A,111.6507,40.7517,呼和浩特市,呼市一监,颗粒物(PM10),96,141,62,32,23,97,,109,109,15,23,17,11,0.6,0.6
2025-04-10T2100,1091A,111.6572,40.8033,呼和浩特市,小召,颗粒物(PM10),74,97,57,26,22,84,,101,101,30,35,9,8,0.5,0.6
2025-04-10T2100,1094A,111.7516,40.8369,呼和浩特市,如意水处理厂,颗粒物(PM10),60,69,47,27,19,82,,102,102,33,37,12,8,0.5,0.5
2025-04-10T2100,1095A,111.7276,40.8062,呼和浩特市,二十九中,颗粒物(PM10),62,74,51,26,19,90,,107,107,22,27,9,6,0.5,0.4
2025-04-10T2100,1096A,111.5512,40.7866,呼和浩特市,工大金川校区,颗粒物(PM10),68,86,50,23,18,97,,110,110,24,37,9,9,0.4,0.5
2025-04-10T2100,1097A,111.717,40.7612,呼和浩特市,化肥厂生活区,颗粒物(PM10),83,115,57,31,21,93,,108,108,26,32,19,10,0.5,0.5
2025-04-10T2100,3698A,111.5968,40.8178,呼和浩特市,红旗小学,颗粒物(PM10),79,107,58,21,17,94,,102,101,31,39,6,7,0.5,0.5
2025-04-10T2100,3699A,111.6518,40.8389,呼和浩特市,海东办,颗粒物(PM10),73,95,51,22,18,86,,103,103,29,37,8,9,0.7,0.7
2025-04-10T2100,2192A,119.7594,49.2261,呼伦贝尔市,区环保局,"颗粒物(PM10),细颗粒物(PM2.5)",53,56,38,37,28,69,,97,89,22,11,7,6,0.4,0.3
2025-04-10T2100,3061A,119.7512,49.1577,呼伦贝尔市,国华电力东,,44,44,30,30,22,71,,103,97,19,6,4,3,0.4,0.3
2025-04-10T2100,1250A,120.0751,30.8669,湖州市,城西水厂,颗粒物(PM10),94,137,96,64,47,120,,179,173,38,62,8,9,0.6,0.7
2025-04-10T2100,2873A,120.0830,30.8929,湖州市,仁皇山新区,颗粒物(PM10),79,107,98,52,50,87,,178,163,54,58,6,7,0.9,1
2025-04-10T2100,2907A,120.1844,30.8596,湖州市,吴兴区站,细颗粒物(PM2.5),99,140,89,74,46,120,,186,178,35,38,8,9,0.5,0.7
2025-04-10T2100,3562A,120.4148,30.8538,湖州市,南浔区站,颗粒物(PM10),90,129,98,57,52,100,,186,168,37,33,8,6,0.6,0.7
2025-04-10T2100,1607A,120.9049,40.7211,葫芦岛市,龙港区,细颗粒物(PM2.5),87,65,51,64,45,166,,168,168,15,18,11,9,0.7,0.5
2025-04-10T2100,1608A,120.8392,40.7514,葫芦岛市,化工街,细颗粒物(PM2.5),89,97,69,66,44,144,,151,151,30,35,10,14,0.8,0.7
2025-04-10T2100,1609A,120.8341,40.7073,葫芦岛市,新区,细颗粒物(PM2.5),94,83,50,70,47,164,,162,162,23,27,12,9,0.9,0.6
2025-04-10T2100,1610A,120.8695,40.7677,葫芦岛市,东城区,细颗粒物(PM2.5),113,,47,85,56,159,,160,160,30,36,10,6,1.0,0.7
2025-04-10T2100,2482A,109.5981,27.5721,怀化市,林科所,,50,50,54,30,37,53,,85,81,20,14,3,6,0.6,0.6
2025-04-10T2100,2483A,109.9453,27.5444,怀化市,河西地税局,细颗粒物(PM2.5),67,55,51,48,44,38,,87,79,19,12,9,10,0.8,0.6
2025-04-10T2100,2484A,109.9781,27.5342,怀化市,市四医院,颗粒物(PM10),53,56,71,35,48,41,,96,88,29,21,6,8,1.1,0.8
2025-04-10T2100,2485A,109.9972,27.5578,怀化市,监测楼,细颗粒物(PM2.5),62,65,62,44,44,51,,98,91,18,18,7,8,0.8,0.8
2025-04-10T2100,2486A,110.0394,27.583,怀化市,市委党校,细颗粒物(PM2.5),57,55,57,40,46,60,,101,95,11,15,5,6,1.0,1
2025-04-10T2100,1210A,119.036,33.5981,淮安市,钵池山,颗粒物(PM10),51,51,83,27,57,99,,130,124,23,24,10,12,0.4,0.6
2025-04-10T2100,1211A,119.007,33.575,淮安市,北京南路,,39,39,81,23,54,106,,134,126,17,27,8,10,0.4,0.7
2025-04-10T2100,1212A,118.989,33.6067,淮安市,市监测站,,39,39,77,17,47,106,,130,125,17,26,8,10,0.5,0.7
2025-04-10T2100,1213A,119.135,33.5039,淮安市,楚州区监测站,,44,44,84,29,58,91,,123,112,15,22,7,9,0.4,0.6
2025-04-10T2100,3426A,118.8755,33.2894,淮安市,新华书店,,41,41,90,22,51,112,,155,141,12,21,8,10,0.5,0.6
2025-04-10T2100,4206A,119.0288,33.6319,淮安市,承德北路606号,颗粒物(PM10),52,53,95,28,58,100,,127,120,16,28,8,9,0.5,0.6
2025-04-10T2100,2282A,116.8004,33.975,淮北市,监测站,颗粒物(PM10),76,102,111,43,52,150,,165,163,13,20,7,8,0.6,0.7
2025-04-10T2100,2283A,116.8091,33.9007,淮北市,烈山区政府,颗粒物(PM10),79,108,117,57,68,144,,165,161,21,26,7,8,0.6,0.7
2025-04-10T2100,3330A,116.8873,33.9836,淮北市,杜集区检察院,细颗粒物(PM2.5),84,96,109,62,66,159,,162,162,15,24,7,8,0.9,1
2025-04-10T2100,4017A,116.7923,33.9535,淮北市,市博物馆,颗粒物(PM10),71,92,112,51,64,141,,166,161,14,27,5,7,0.9,1.2
2025-04-10T2100,2277A,116.8305,32.7727,淮南市,潘集区政府,颗粒物(PM10),97,143,130,64,67,108,,168,163,24,27,6,8,0.7,0.7
2025-04-10T2100,2279A,116.8569,32.5951,淮南市,谢家集区政府,颗粒物(PM10),102,153,130,52,58,115,,143,140,23,20,12,12,0.4,0.5
2025-04-10T2100,2280A,116.8281,32.633,淮南市,八公山区政府,颗粒物(PM10),103,155,138,54,59,101,,154,148,20,15,8,10,0.5,0.6
2025-04-10T2100,2281A,116.6325,32.6201,淮南市,焦岗湖风景区管理处,,,,,,,,,,,,,,,,
2025-04-10T2100,2894A,117.0566,32.6531,淮南市,经济技术开发区消防队,细颗粒物(PM2.5),97,133,122,72,66,102,,171,160,34,26,10,10,0.6,0.6
2025-04-10T2100,3329A,117.0108,32.5893,淮南市,山南新区,颗粒物(PM10),114,178,147,62,67,113,,160,152,28,15,10,10,0.8,0.7
2025-04-10T2100,4209A,117.0031,32.6445,淮南市,国庆中路369号,颗粒物(PM10),114,177,144,76,71,95,,184,172,31,25,,15,,0.4
2025-04-10T2100,2446A,114.9028,30.4742,黄冈市,职工中心,"颗粒物(PM10),细颗粒物(PM2.5)",63,76,58,45,33,164,,175,175,22,25,12,11,1.1,0.8
2025-04-10T2100,2929A,114.8858,30.4519,黄冈市,红卫路,颗粒物(PM10),77,103,65,48,31,120,,171,163,30,19,10,10,1.6,1.1
2025-04-10T2100,3398A,114.9136,30.4445,黄冈市,市林业局,颗粒物(PM10),77,104,69,47,30,137,,182,178,32,23,13,13,1.2,1
2025-04-10T2100,2672A,102.0199,35.5102,黄南藏族自治州,同仁县隆务镇,颗粒物(PM10),57,63,73,17,25,89,,106,103,2,3,17,17,0.2,0.2
2025-04-10T2100,2295A,118.2903,29.6963,黄山市,延安路89号,细颗粒物(PM2.5),54,55,49,38,31,64,,125,112,14,5,4,4,0.4,0.4
2025-04-10T2100,2297A,118.1371,30.2756,黄山市,黄山区政府5号楼,颗粒物(PM10),64,77,62,38,22,77,,122,111,6,4,4,4,0.7,0.6
2025-04-10T2100,4210A,118.3354,29.7203,黄山市,滨江东路7-2号,颗粒物(PM10),63,75,54,31,24,52,,123,108,13,4,5,5,0.6,0.5
2025-04-10T2100,2423A,115.0601,30.2313,黄石市,沈家营,颗粒物(PM10),73,96,82,48,32,116,,199,191,50,29,7,7,0.9,0.7
2025-04-10T2100,2426A,114.8988,30.2019,黄石市,铁山,颗粒物(PM10),63,76,84,40,36,147,,175,174,23,23,13,15,0.3,0.4
2025-04-10T2100,2427A,115.0307,30.2092,黄石市,团城山,颗粒物(PM10),68,86,66,39,27,148,,186,185,25,21,10,10,0.9,0.7
2025-04-10T2100,3149A,115.0235,30.1578,黄石市,笔架山北路,臭氧1小时,62,59,52,31,26,169,,199,198,14,14,10,9,0.9,0.9
2025-04-10T2100,4185A,115.0780,30.21118,黄石市,磁湖东路29号,颗粒物(PM10),83,115,74,55,36,127,,200,190,32,22,9,8,1.2,0.8
2025-04-10T2100,1392A,114.4183,23.0528,惠州市,河南岸金山湖子站,,47,47,39,23,24,42,,117,102,40,26,8,8,0.7,0.6
2025-04-10T2100,1393A,114.4053,23.0822,惠州市,下埔横江三路子站,,50,50,43,28,24,53,,134,118,37,24,8,8,0.8,0.7
2025-04-10T2100,1394A,114.4103,23.1142,惠州市,江北云山西路子站,,50,50,42,24,22,59,,149,133,35,23,9,10,0.6,0.5
2025-04-10T2100,1395A,114.4645,22.7833,惠州市,惠阳区承修路船湖子站,,40,40,35,23,20,31,,90,74,46,24,10,8,0.7,0.6
2025-04-10T2100,1396A,114.5317,22.7422,惠州市,大亚湾管委会子站,颗粒物(PM10),51,52,32,28,17,42,,91,77,41,23,11,6,0.6,0.5
2025-04-10T2100,3314A,114.4338,22.8134,惠州市,惠阳秋长,,46,46,45,21,23,38,,113,92,38,23,13,9,0.6,0.8
2025-04-10T2100,3452A,114.6517,22.775,惠州市,大亚湾霞涌,,31,31,24,17,10,68,,79,77,18,18,6,6,0.4,0.4
2025-04-10T2100,2240A,130.9762,45.3001,鸡西市,环保局,细颗粒物(PM2.5),59,63,57,42,39,97,,133,119,24,14,9,7,0.8,0.7
2025-04-10T2100,2243A,130.9429,45.3039,鸡西市,第一中学,细颗粒物(PM2.5),74,73,58,54,39,101,,129,119,20,11,10,8,1.1,0.9
2025-04-10T2100,3707A,131.0207,45.3073,鸡西市,欧美日汽修厂,细颗粒物(PM2.5),80,80,65,59,44,104,,145,130,27,20,11,8,0.8,0.7
2025-04-10T2100,3709A,130.9967,45.3106,鸡西市,市政设施管理处,细颗粒物(PM2.5),73,75,75,53,44,78,,128,110,37,23,10,8,0.8,0.7
2025-04-10T2100,2367A,114.9754,27.0803,吉安市,红声器材厂,细颗粒物(PM2.5),57,61,62,40,41,61,,120,114,32,14,9,11,0.8,0.7
2025-04-10T2100,2368A,114.9658,27.0999,吉安市,市森林工业局,细颗粒物(PM2.5),74,77,57,54,43,46,,108,101,34,15,10,11,1.1,0.7
2025-04-10T2100,2369A,114.99,27.1312,吉安市,市环境监测站,细颗粒物(PM2.5),59,63,49,42,34,62,,113,107,22,13,13,17,0.8,0.6
2025-04-10T2100,2370A,115.0093,27.0968,吉安市,青原区法院,细颗粒物(PM2.5),57,61,55,40,44,41,,117,107,30,15,11,14,0.6,0.6
2025-04-10T2100,1772A,126.54,43.8622,吉林市,哈达湾,细颗粒物(PM2.5),223,247,86,173,57,98,,147,139,59,21,22,10,1.3,0.9
2025-04-10T2100,1773A,126.5844,43.8358,吉林市,东局子,细颗粒物(PM2.5),159,,69,121,51,34,,138,118,92,25,11,8,1.3,0.8
2025-04-10T2100,1774A,126.5052,43.8245,吉林市,电力学院,细颗粒物(PM2.5),312,312,93,262,71,57,,144,122,67,26,16,8,1.7,0.8
2025-04-10T2100,1775A,126.6133,43.8972,吉林市,江北,细颗粒物(PM2.5),175,179,83,132,52,53,,147,120,54,24,8,7,1.4,0.8
2025-04-10T2100,1776A,126.555,43.8306,吉林市,江南公园,细颗粒物(PM2.5),201,188,74,151,59,54,,143,128,80,22,15,8,1.4,0.7
2025-04-10T2100,1778A,126.7061,43.7133,吉林市,丰满,细颗粒物(PM2.5),60,62,55,43,48,100,,153,143,13,12,6,6,0.8,1.1
2025-04-10T2100,2868A,126.4739,43.953,吉林市,九站,细颗粒物(PM2.5),460,541,119,440,92,38,,148,124,136,30,118,18,2.3,1
2025-04-10T2100,1299A,116.9862,36.6114,济南市,科干所,颗粒物(PM10),73,95,70,37,32,164,,161,161,15,19,8,7,0.6,0.6
2025-04-10T2100,1300A,116.9376,36.665,济南市,农科所,颗粒物(PM10),75,100,92,37,38,142,,150,149,25,41,8,7,0.6,0.5
2025-04-10T2100,1301A,117.1265,36.6734,济南市,开发区,颗粒物(PM10),69,88,70,42,32,160,,156,156,16,26,9,8,0.7,0.6
2025-04-10T2100,1303A,117.0624,36.6868,济南市,省种子仓库,颗粒物(PM10),79,107,95,44,44,152,,152,152,14,40,6,5,0.8,0.8
2025-04-10T2100,1304A,116.9489,36.6447,济南市,机床二厂,颗粒物(PM10),83,115,95,42,47,161,,159,159,18,39,10,9,0.5,0.6
2025-04-10T2100,1305A,117.0495,36.663,济南市,市监测站,颗粒物(PM10),74,98,79,42,38,154,,147,147,20,31,10,8,0.6,0.6
2025-04-10T2100,1306A,116.7675,36.5484,济南市,长清党校,颗粒物(PM10),75,100,84,37,40,169,,170,170,15,35,10,7,0.7,0.6
2025-04-10T2100,1616A,117.6795,36.229,济南市,技术学院,颗粒物(PM10),79,107,90,46,51,140,,147,145,26,32,13,13,0.7,0.8
2025-04-10T2100,1961A,117.532,36.6868,济南市,东山小学,颗粒物(PM10),66,81,78,24,31,118,,155,148,27,33,7,7,0.3,0.4
2025-04-10T2100,3059A,117.7161,36.2049,济南市,泰兴公司,颗粒物(PM10),73,95,86,46,52,130,,148,142,33,39,12,12,0.8,0.8
2025-04-10T2100,3064A,117.6867,36.2171,济南市,莱芜战役纪念馆,颗粒物(PM10),75,100,93,39,46,142,,149,146,27,34,9,8,0.7,0.8
2025-04-10T2100,3494A,117.1673,36.9782,济南市,济阳区政府,颗粒物(PM10),94,137,100,54,52,105,,162,157,49,30,8,9,0.7,0.6
2025-04-10T2100,3495A,117.1171,36.63,济南市,锦屏中学,颗粒物(PM10),69,88,55,34,24,156,,147,147,16,15,10,8,0.5,0.4
2025-04-10T2100,3682A,116.9814,36.6819,济南市,济南四建,颗粒物(PM10),75,100,90,44,43,160,,156,156,16,42,6,6,0.5,0.6
2025-04-10T2100,1653A,116.6251,35.4302,济宁市,火炬城,颗粒物(PM10),74,97,90,53,65,140,,179,174,13,15,6,8,0.5,0.7
2025-04-10T2100,1655A,116.5491,35.4042,济宁市,电化厂,颗粒物(PM10),83,115,119,51,63,154,,178,176,14,22,7,8,0.6,0.8
2025-04-10T2100,3500A,116.5814,35.3707,济宁市,北湖一中,,,85,93,36,56,,,184,177,16,23,5,12,0.4,0.7
2025-04-10T2100,3501A,116.8249,35.5593,济宁市,服务中心,,,93,92,36,52,,,152,152,20,33,4,5,0.5,0.7
2025-04-10T2100,3678A,116.5907,35.4054,济宁市,市第七中学,颗粒物(PM10),73,96,96,48,60,141,,180,174,19,20,6,8,0.5,0.7
2025-04-10T2100,2255A,130.2751,46.8028,佳木斯市,佳纺,,,,95,,61,,,101,,,16,,8,,0.8
2025-04-10T2100,2256A,130.3995,46.8307,佳木斯市,发电厂,细颗粒物(PM2.5),94,87,83,70,65,96,,136,128,20,22,5,6,0.9,0.9
2025-04-10T2100,2257A,130.3258,46.7975,佳木斯市,环保局,细颗粒物(PM2.5),94,100,91,70,64,92,,134,122,35,28,5,5,0.7,0.7
2025-04-10T2100,2258A,130.3648,46.8032,佳木斯市,十一中,,,101,86,69,52,105,,134,127,,,7,8,0.8,0.8
2025-04-10T2100,2259A,130.3794,46.7588,佳木斯市,四丰,颗粒物(PM10),72,94,79,45,46,96,,127,121,18,10,1,1,1.2,1.1
2025-04-10T2100,1252A,120.7436,30.778,嘉兴市,清河小学,颗粒物(PM10),72,94,101,36,43,122,,175,158,20,31,7,8,0.8,0.9
2025-04-10T2100,1253A,120.726,30.7478,嘉兴市,嘉兴学院,颗粒物(PM10),63,76,85,39,46,129,,178,161,21,35,10,10,0.7,0.7
2025-04-10T2100,2872A,120.7846,30.7525,嘉兴市,南湖区残联,颗粒物(PM10),70,90,87,44,48,133,,189,172,22,33,9,10,0.8,0.9
2025-04-10T2100,3407A,120.6916,30.7739,嘉兴市,秀洲住建,颗粒物(PM10),67,84,107,36,43,128,,190,171,21,41,8,8,0.6,0.5
2025-04-10T2100,1945A,98.2908,39.7711,嘉峪关市,气象局,颗粒物(PM10),87,124,76,17,19,121,,122,122,3,14,3,23,0.4,0.7
2025-04-10T2100,2884A,98.2672,39.7978,嘉峪关市,酒钢宾馆,颗粒物(PM10),107,163,105,19,24,119,,117,117,2,15,3,31,0.2,0.5
2025-04-10T2100,3248A,98.2643,39.7724,嘉峪关市,雄关区,颗粒物(PM10),69,87,64,21,19,119,,120,120,5,18,5,11,1.6,0.6
2025-04-10T2100,1383A,113.1064,22.6058,江门市,北街,,31,31,34,19,21,46,,89,76,12,10,2,2,0.5,0.5
2025-04-10T2100,1384A,113.0731,22.5835,江门市,西区,,41,41,36,19,19,47,,93,78,28,20,7,7,0.5,0.5
2025-04-10T2100,1385A,113.0219,22.5311,江门市,圭峰西,,45,32,36,31,20,37,,84,72,34,19,4,5,0.5,0.4
2025-04-10T2100,1386A,113.0828,22.5947,江门市,东湖,颗粒物(PM10),51,52,56,21,21,54,,98,84,16,13,6,6,0.5,0.4
2025-04-10T2100,3311A,113.1075,22.5647,江门市,江海富民,,46,46,49,21,26,43,,89,75,20,15,6,7,0.5,0.5
2025-04-10T2100,3449A,113.05,22.4667,江门市,新会银湖,,33,28,34,23,22,56,,80,70,13,15,3,2,0.4,0.4
2025-04-10T2100,1830A,113.1992,35.2590,焦作市,影视城,,,,51,,36,,,,,,9,,3,,0.8
2025-04-10T2100,3169A,113.2725,35.2067,焦作市,太极体育中心,颗粒物(PM10),111,171,126,68,68,128,,156,148,36,24,15,15,0.5,0.7
2025-04-10T2100,3335A,113.3137,35.2641,焦作市,马村街道办,颗粒物(PM10),110,169,112,64,61,105,,140,131,49,25,10,13,0.9,1
2025-04-10T2100,3336A,113.2465,35.2373,焦作市,焦作技师学院,颗粒物(PM10),108,166,115,61,55,134,,151,143,27,20,10,10,1.0,1
2025-04-10T2100,3477A,113.1656,35.2539,焦作市,中站许衡医院,颗粒物(PM10),91,131,86,35,48,129,,155,143,36,20,12,12,0.8,0.9
2025-04-10T2100,3981A,113.2449,35.1803,焦作市,原李万街道办,颗粒物(PM10),110,170,127,53,61,125,,148,137,30,22,16,19,0.5,0.6
2025-04-10T2100,4264A,113.2340,35.2190,焦作市,新安路1731号,颗粒物(PM10),102,153,113,60,61,137,,153,145,24,19,14,13,0.9,0.9
2025-04-10T2100,1708A,116.3701,23.5345,揭阳市,新兴,颗粒物(PM10),52,54,44,31,26,50,,98,90,22,16,6,6,0.8,0.7
2025-04-10T2100,1709A,116.3264,23.5443,揭阳市,西马,颗粒物(PM10),56,61,43,35,21,54,,95,88,12,11,7,7,0.8,0.7
2025-04-10T2100,1710A,116.3611,23.5626,揭阳市,东兴,,43,,42,30,24,57,,99,90,15,10,9,7,0.8,0.7
2025-04-10T2100,1711A,116.4151,23.5294,揭阳市,渔湖,,47,47,38,24,18,56,,99,90,15,12,4,5,0.9,0.8
2025-04-10T2100,3320A,116.403,23.5699,揭阳市,曲溪,颗粒物(PM10),53,56,35,30,21,59,,111,101,19,15,2,2,0.7,0.6
2025-04-10T2100,1944A,102.1692,38.5167,金昌市,天庆家园,颗粒物(PM10),112,173,70,42,20,117,,117,117,3,6,8,10,0.7,0.7
2025-04-10T2100,4022A,102.1647,38.5371,金昌市,金川区人防中心,颗粒物(PM10),144,238,104,46,22,112,,115,115,6,7,14,15,0.5,0.4
2025-04-10T2100,4239A,102.1930,38.5319,金昌市,长春路96号,颗粒物(PM10),129,208,105,43,21,109,,110,110,2,6,17,15,0.6,0.6
2025-04-10T2100,1262A,119.647,29.077,金华市,十五中,颗粒物(PM10),66,82,63,42,32,29,,144,117,75,30,6,6,1.0,0.7
2025-04-10T2100,1263A,119.686,29.1029,金华市,监测站,颗粒物(PM10),53,56,55,31,33,70,,147,130,38,25,4,5,0.4,0.4
2025-04-10T2100,3659A,119.656,29.1131,金华市,气象局,细颗粒物(PM2.5),65,74,57,47,40,12,,146,119,95,27,2,4,0.7,0.6
2025-04-10T2100,1767A,121.1115,41.0879,锦州市,南山,细颗粒物(PM2.5),124,,63,94,61,132,,136,136,32,42,15,12,1.0,0.7
2025-04-10T2100,1768A,121.0604,40.8428,锦州市,开发区,细颗粒物(PM2.5),98,83,68,73,55,156,,147,147,23,36,8,26,0.7,0.6
2025-04-10T2100,1769A,121.1836,41.1119,锦州市,百股街道,细颗粒物(PM2.5),83,80,56,61,38,140,,136,136,33,28,12,11,0.8,0.6
2025-04-10T2100,1770A,121.1178,41.1222,锦州市,天安街道,细颗粒物(PM2.5),129,,68,98,63,135,,136,136,32,44,14,12,1.0,0.8
2025-04-10T2100,1771A,121.1303,41.1386,锦州市,北湖公园,细颗粒物(PM2.5),114,90,68,86,56,131,,135,135,33,42,14,11,1.0,0.7
2025-04-10T2100,2160A,112.85,35.5051,晋城市,自来水公司,颗粒物(PM10),66,81,71,24,25,140,,132,132,19,29,10,10,0.6,0.7
2025-04-10T2100,2161A,112.8318,35.4936,晋城市,白云商贸,颗粒物(PM10),66,81,67,19,13,143,,137,137,19,25,9,8,0.6,0.7
2025-04-10T2100,2162A,112.8508,35.4887,晋城市,市环保局,颗粒物(PM10),74,98,71,24,20,130,,132,132,20,28,7,6,0.5,0.6
2025-04-10T2100,2163A,112.8676,35.4897,晋城市,技术学院,颗粒物(PM10),71,91,79,44,28,131,,129,129,21,33,10,10,0.4,0.6
2025-04-10T2100,2165A,112.8453,35.546,晋城市,白马寺,颗粒物(PM10),62,73,57,32,28,147,,134,134,11,15,7,11,0.7,0.9
2025-04-10T2100,3620A,112.8271,35.4828,晋城市,泽州一中,颗粒物(PM10),61,71,62,29,17,148,,140,140,14,22,9,5,0.6,0.7
2025-04-10T2100,2173A,112.7249,37.7067,晋中市,南都小区,颗粒物(PM10),61,71,58,28,20,91,,126,123,32,24,10,10,0.5,0.4
2025-04-10T2100,2174A,112.6991,37.6982,晋中市,榆次区政府,颗粒物(PM10),65,80,60,21,18,86,,127,123,37,30,10,11,0.3,0.3
2025-04-10T2100,2865A,112.7195,37.6828,晋中市,榆次三中,颗粒物(PM10),76,102,58,41,20,75,,126,121,47,27,8,8,0.5,0.4
2025-04-10T2100,4200A,112.7478,37.6954,晋中市,迎宾街26号,颗粒物(PM10),62,73,56,24,22,84,,127,121,33,24,9,8,0.3,0.3
2025-04-10T2100,2439A,112.2014,31.0481,荆门市,竹园小学,颗粒物(PM10),63,75,63,42,30,128,,152,151,21,13,15,6,0.3,0.2
2025-04-10T2100,2440A,112.1969,30.9891,荆门市,掇刀,细颗粒物(PM2.5),73,76,63,53,36,139,,158,157,18,11,18,10,0.4,0.3
2025-04-10T2100,2441A,112.2213,31.0386,荆门市,石化一小,细颗粒物(PM2.5),69,60,64,50,27,121,,148,146,20,14,13,10,0,0
2025-04-10T2100,3012A,112.1849,31.0362,荆门市,西山林语,颗粒物(PM10),58,66,52,33,29,125,,152,151,16,7,16,6,0.3,0.2
2025-04-10T2100,3547A,112.1632,31.0138,荆门市,龙泉中学南校,细颗粒物(PM2.5),60,52,58,43,29,138,,148,148,7,11,17,8,0.7,0.6
2025-04-10T2100,1844A,112.2494,30.3197,荆州市,市图书馆,细颗粒物(PM2.5),59,59,50,42,34,111,,147,145,17,18,8,7,0.6,0.5
2025-04-10T2100,1845A,112.2008,30.3544,荆州市,市委党校,细颗粒物(PM2.5),62,61,56,44,35,109,,142,140,19,18,15,7,0.7,0.6
2025-04-10T2100,3194A,112.2747,30.3122,荆州市,管委会,细颗粒物(PM2.5),59,50,50,42,35,107,,146,143,16,16,9,8,0.8,0.6
2025-04-10T2100,4268A,112.1722,30.3366,荆州市,学苑路85号,细颗粒物(PM2.5),65,54,45,47,35,65,,142,131,36,18,14,10,0.7,0.5
2025-04-10T2100,2342A,117.3102,29.3867,景德镇市,王港中学,,,,,,,,,,,,,,,,
2025-04-10T2100,2343A,117.2117,29.2933,景德镇市,老干部活动中心,颗粒物(PM10),52,53,44,24,24,95,,143,130,15,11,7,8,0.5,0.5
2025-04-10T2100,2344A,117.1894,29.2789,景德镇市,兽医站,颗粒物(PM10),62,74,58,40,28,73,,129,112,28,16,7,7,0.5,0.5
2025-04-10T2100,2345A,117.1547,29.2617,景德镇市,台达陶瓷,颗粒物(PM10),69,87,61,36,30,57,,134,118,41,15,37,10,0.5,0.5
2025-04-10T2100,2346A,117.2461,29.2956,景德镇市,陶研所,,49,42,46,34,32,75,,140,125,15,13,6,9,0.6,0.7
2025-04-10T2100,1803A,115.9872,29.6815,九江市,十里,颗粒物(PM10),71,92,70,43,39,96,,153,146,22,19,2,5,0.7,0.7
2025-04-10T2100,1804A,115.9584,29.7046,九江市,茅山头,颗粒物(PM10),60,70,60,40,35,81,,154,145,61,26,5,8,0.5,0.5
2025-04-10T2100,1805A,115.9877,29.7295,九江市,西园,,48,48,71,32,33,128,,148,148,23,42,6,9,1.0,1
2025-04-10T2100,1808A,115.9114,29.6038,九江市,综合工业园,细颗粒物(PM2.5),64,64,67,46,36,105,,147,140,34,35,8,11,0.8,0.9
2025-04-10T2100,1809A,116.0721,29.7535,九江市,石化总厂,,,,71,,50,,,147,147,,34,,7,,0.8
2025-04-10T2100,1810A,115.9773,29.5698,九江市,庐山气象台,,49,49,66,28,37,146,,133,133,12,12,10,9,0.7,0.8
2025-04-10T2100,3190A,116.0254,29.6994,九江市,外国语学校,,48,40,39,33,40,128,,136,136,10,19,4,14,0.9,1
2025-04-10T2100,4253A,116.0102,29.6594,九江市,莲花大道8号,细颗粒物(PM2.5),57,51,64,40,50,104,,141,135,9,11,6,7,0.7,0.8
2025-04-10T2100,4240A,98.4958,39.7339,酒泉市,玉门东路5号,颗粒物(PM10),113,175,99,35,25,111,,120,119,6,9,19,13,0.3,0.3
2025-04-10T2100,4241A,98.5099,39.7506,酒泉市,北大街108号,颗粒物(PM10),156,261,105,31,17,116,,125,124,6,9,,13,0.3,0.3
2025-04-10T2100,2698A,76.0072,39.4467,喀什地区,巡警大队,颗粒物(PM10),53,55,124,12,21,99,,104,104,12,19,3,4,0.3,0.5
2025-04-10T2100,2699A,75.9755,39.4694,喀什地区,吾办,颗粒物(PM10),51,52,107,12,22,86,,105,104,26,15,2,6,0.4,0.4
2025-04-10T2100,4027A,75.9483,39.4689,喀什地区,老干局,,46,46,87,12,19,101,,111,111,16,11,2,2,0.6,0.5
2025-04-10T2100,1824A,114.3389,34.7781,开封市,肿瘤医院,颗粒物(PM10),77,104,125,51,73,111,,170,154,21,19,9,11,0.8,1
2025-04-10T2100,1826A,114.2885,34.7965,开封市,世纪星幼儿园,颗粒物(PM10),82,113,122,48,87,118,,184,169,27,21,6,9,0.7,0.9
2025-04-10T2100,3147A,114.3438,34.8106,开封市,龙亭公园,颗粒物(PM10),81,111,138,51,86,111,,177,162,28,20,7,6,0.8,0.9
2025-04-10T2100,3210A,114.3644,34.7964,开封市,汴京公园,颗粒物(PM10),96,142,157,53,101,109,,184,165,29,22,5,7,0.8,0.9
2025-04-10T2100,3473A,114.2485,34.8306,开封市,技师学院,细颗粒物(PM2.5),87,90,130,64,117,124,,171,160,19,28,4,7,1.0,1.2
2025-04-10T2100,3592A,114.4644,34.7556,开封市,祥符区生态环境局,颗粒物(PM10),93,136,151,43,66,99,,156,142,28,28,8,11,0.7,1
2025-04-10T2100,1951A,84.895,45.6094,克拉玛依市,长征新村,,30,11,11,9,7,96,,96,96,6,6,7,7,0.2,0.2
2025-04-10T2100,1952A,84.8988,45.5893,克拉玛依市,南林小区,,32,14,13,9,7,102,,104,104,2,2,3,2,0.2,0.1
2025-04-10T2100,1954A,84.905,44.3396,克拉玛依市,独山子区,,34,26,32,16,10,108,,104,104,5,3,6,8,0.2,0.2
2025-04-10T2100,1955A,85.6979,46.098,克拉玛依市,乌尔禾区商贸楼,,34,15,13,6,7,107,,105,105,2,3,6,6,0.1,0.1
2025-04-10T2100,3612A,85.1045,45.6899,克拉玛依市,白碱滩区新站,,32,10,12,3,6,102,,101,101,3,2,9,9,0.1,0.2
2025-04-10T2100,2697A,76.1454,39.7142,克孜勒苏柯尔克孜自治州,市人民政府,,44,44,54,20,18,108,,112,112,2,3,5,7,0.3,0.3
2025-04-10T2100,3665A,76.1658,39.7157,克孜勒苏柯尔克孜自治州,克州文化中心,,33,33,46,13,16,105,,110,110,4,2,6,7,0.3,0.3
2025-04-10T2100,1450A,102.8204,24.8886,昆明市,呈贡新区,细颗粒物(PM2.5),72,57,68,52,54,133,,156,148,12,23,4,8,0.6,0.7
2025-04-10T2100,1451A,102.6251,24.9608,昆明市,西山森林公园,,,,,,,,,,,,,,,,
2025-04-10T2100,1452A,102.7252,25.0902,昆明市,龙泉镇,细颗粒物(PM2.5),78,70,62,57,45,117,,149,141,17,32,8,9,0.6,0.7
2025-04-10T2100,1453A,102.7266,25.0375,昆明市,东风东路,细颗粒物(PM2.5),64,64,68,46,50,139,,159,152,12,18,8,10,0.6,0.7
2025-04-10T2100,1454A,102.6742,25.0669,昆明市,金鼎山,细颗粒物(PM2.5),59,55,68,42,47,128,,150,144,17,30,8,10,0.7,0.8
2025-04-10T2100,1455A,102.6644,25.0401,昆明市,碧鸡广场,"颗粒物(PM10),细颗粒物(PM2.5)",57,63,66,40,46,122,,150,142,21,24,7,9,0.8,0.8
2025-04-10T2100,3179A,102.7494,25.0119,昆明市,官渡区博物馆,细颗粒物(PM2.5),55,52,64,39,44,134,,163,154,15,20,7,8,0.4,0.6
2025-04-10T2100,3375A,102.8017,24.8336,昆明市,青年创业园,细颗粒物(PM2.5),65,63,64,47,50,131,,152,146,12,31,10,11,0.6,0.6
2025-04-10T2100,3550A,102.7997,24.9786,昆明市,昆明学院,细颗粒物(PM2.5),60,66,75,43,50,135,,160,152,13,22,4,6,0.5,0.6
2025-04-10T2100,3551A,102.5967,24.6736,昆明市,晋宁区生态环境分局,颗粒物(PM10),51,51,51,34,43,144,,144,144,7,10,9,8,0.8,0.9
2025-04-10T2100,3552A,102.6678,24.9856,昆明市,云天化总部,颗粒物(PM10),51,51,68,31,48,143,,157,152,10,21,7,9,0.5,0.7
2025-04-10T2100,1456A,91.1319,29.6514,拉萨市,八廓街,,39,16,26,8,11,124,,124,124,12,15,6,6,0.5,0.5
2025-04-10T2100,1457A,91.1221,29.6747,拉萨市,市环保局,,38,28,28,17,12,120,,120,120,15,17,4,4,0.3,0.4
2025-04-10T2100,1458A,91.0874,29.6475,拉萨市,区监测站,,40,13,23,8,10,125,,121,121,12,16,5,6,0.4,0.4
2025-04-10T2100,1459A,91.1774,29.6541,拉萨市,西藏大学,,37,22,27,9,9,118,,116,116,12,17,6,6,0.5,0.4
2025-04-10T2100,1460A,90.9798,29.6588,拉萨市,区辐射站,,35,27,29,14,12,111,,116,116,23,22,7,8,0.5,0.4
2025-04-10T2100,1461A,91.0834,29.6292,拉萨市,拉萨火车站,,40,14,22,9,8,127,,120,120,5,10,3,3,0.1,0.2
2025-04-10T2100,2520A,109.2203,23.7256,来宾市,来宾技工学校,颗粒物(PM10),53,56,53,34,29,90,,105,104,9,16,4,8,0.8,0.9
2025-04-10T2100,3535A,109.1781,23.7297,来宾市,兴宾区政府,细颗粒物(PM2.5),53,52,48,37,31,86,,111,108,9,14,6,9,1.1,1
2025-04-10T2100,4002A,109.2416,23.7461,来宾市,中南小学,颗粒物(PM10),56,62,57,26,32,87,,105,102,11,18,5,5,0.8,0.8
2025-04-10T2100,1477A,104.1373,35.9454,兰州市,榆中兰大校区,,,,,,,,,,,,,,,,
2025-04-10T2100,1479A,103.831,36.0464,兰州市,铁路设计院,颗粒物(PM10),57,63,92,21,25,100,,123,120,30,49,6,12,0.6,0.7
2025-04-10T2100,3241A,103.7439,36.0842,兰州市,百合公园,颗粒物(PM10),55,60,88,18,24,110,,128,124,9,33,6,10,0.6,0.5
2025-04-10T2100,3242A,103.9611,35.998,兰州市,和平,颗粒物(PM10),64,78,106,21,30,105,,118,117,11,18,11,13,0.5,0.7
2025-04-10T2100,4236A,103.6293,36.0938,兰州市,庄浪东路808号,颗粒物(PM10),60,70,99,40,40,99,,126,123,23,27,21,17,0.4,0.5
2025-04-10T2100,4237A,103.7251,36.1043,兰州市,安宁西路88号,颗粒物(PM10),70,90,122,34,38,124,,140,136,3,30,23,11,0.3,0.4
2025-04-10T2100,4238A,103.8470,36.0676,兰州市,北滨河东路1号,颗粒物(PM10),52,53,93,30,31,108,,133,130,23,40,8,12,0.4,0.6
2025-04-10T2100,3245A,103.6633,36.533,兰州新区,新区管委会,颗粒物(PM10),143,235,85,82,32,115,,122,122,7,13,20,17,0.0,0.1
2025-04-10T2100,3246A,103.6975,36.4789,兰州新区,舟曲中学,颗粒物(PM10),160,270,109,67,30,109,,122,121,10,12,3,9,0.0,0.1
2025-04-10T2100,1067A,116.6708,39.5111,廊坊市,药材公司,颗粒物(PM10),79,108,107,56,61,118,,143,140,21,34,4,6,0.6,0.6
2025-04-10T2100,1068A,116.7214,39.5589,廊坊市,开发区,颗粒物(PM10),80,110,109,48,53,130,,149,147,17,33,4,4,0.4,0.4
2025-04-10T2100,1070A,116.7244,39.5269,廊坊市,北华航天学院,颗粒物(PM10),85,120,117,52,59,117,,142,138,17,33,6,7,0.5,0.5
2025-04-10T2100,2919A,116.7022,39.5453,廊坊市,河北工业大学,颗粒物(PM10),85,119,110,60,68,130,,151,148,19,32,8,8,0.4,0.4
2025-04-10T2100,2535A,103.7723,29.5462,乐山市,花湖湾,颗粒物(PM10),63,76,71,8,5,147,,179,176,22,27,7,9,0.7,0.8
2025-04-10T2100,2536A,103.7627,29.5844,乐山市,牛耳桥,颗粒物(PM10),71,91,74,49,46,64,,167,154,69,34,8,7,1.1,0.8
2025-04-10T2100,2537A,103.7508,29.6006,乐山市,市第三水厂,颗粒物(PM10),69,87,74,49,46,70,,164,152,61,36,5,5,0.9,0.8
2025-04-10T2100,2538A,103.7571,29.5664,乐山市,市监测站,细颗粒物(PM2.5),65,76,73,47,48,143,,171,169,20,28,7,7,0.7,0.8
2025-04-10T2100,3361A,103.7311,29.5628,乐山市,理工大学,细颗粒物(PM2.5),69,83,74,50,46,125,,180,175,33,33,6,6,0.8,0.9
2025-04-10T2100,2598A,100.2143,26.8576,丽江市,西南郊,,41,39,41,22,26,129,,128,127,2,2,6,4,0.5,0.7
2025-04-10T2100,2599A,100.2497,26.8802,丽江市,丽江古城,,37,32,39,23,24,116,,116,116,10,10,7,7,0.6,0.7
2025-04-10T2100,2600A,100.2203,26.8906,丽江市,市中心,,35,,31,20,24,112,,117,117,16,12,9,9,0.6,0.6
2025-04-10T2100,1267A,119.914,28.4514,丽水市,监测站大楼,,48,48,42,18,26,70,,142,125,32,23,2,3,0.6,0.6
2025-04-10T2100,1268A,119.93,28.4586,丽水市,莲都小学,,,42,42,18,22,80,,145,130,31,20,3,3,,0.5
2025-04-10T2100,1269A,119.879,28.4231,丽水市,余庄前,,33,33,38,19,25,47,,144,115,20,18,3,3,0.6,0.7
2025-04-10T2100,1173A,119.176,34.5885,连云港市,市环境监测站,颗粒物(PM10),56,61,67,36,38,108,,146,137,21,17,11,12,0.5,0.6
2025-04-10T2100,3000A,119.3581,34.6972,连云港市,德源药业,"颗粒物(PM10),细颗粒物(PM2.5)",52,53,66,36,36,106,,133,126,22,28,9,9,0.5,0.6
2025-04-10T2100,3007A,119.178,34.844,连云港市,新城一中,颗粒物(PM10),58,66,89,33,52,93,,132,126,42,31,8,9,0.7,0.8
2025-04-10T2100,3008A,119.3608,34.7519,连云港市,胡沟管理处,,46,46,54,24,30,91,,118,109,48,37,17,13,0.7,0.5
2025-04-10T2100,3009A,119.1478,34.5911,连云港市,矿山设计院,颗粒物(PM10),58,66,72,34,36,105,,143,133,22,22,10,10,0.6,0.6
2025-04-10T2100,3434A,119.2413,34.6539,连云港市,工贸学校,颗粒物(PM10),53,56,63,33,38,125,,143,139,20,24,10,10,0.6,0.6
2025-04-10T2100,3664A,119.4172,34.7341,连云港市,连云街道,颗粒物(PM10),58,65,71,32,38,113,,137,134,27,34,15,9,0.9,0.7
2025-04-10T2100,2571A,102.3431,27.8099,凉山彝族自治州,青龙寺,,50,50,19,14,11,129,,145,144,4,4,7,8,0.4,0.7
2025-04-10T2100,2572A,102.2721,27.8415,凉山彝族自治州,邛海宾馆,"颗粒物(PM10),细颗粒物(PM2.5)",54,58,55,38,31,108,,142,138,24,13,8,11,0.5,0.5
2025-04-10T2100,2573A,102.2625,27.898,凉山彝族自治州,西昌市政府,,36,33,32,25,23,111,,139,135,12,9,9,10,0.5,0.5
2025-04-10T2100,2574A,102.2685,27.8851,凉山彝族自治州,凉山州政府,,47,47,31,30,22,124,,142,139,14,12,6,8,0.6,0.8
2025-04-10T2100,4229A,102.2342,27.8859,凉山彝族自治州,凯乐南路30号,颗粒物(PM10),51,52,39,34,25,95,,133,129,33,16,13,11,1.0,0.8
2025-04-10T2100,2212A,123.2,41.1953,辽阳市,宏伟区,颗粒物(PM10),65,79,50,38,34,124,,151,149,12,16,12,13,0.7,0.8
2025-04-10T2100,2213A,123.1683,41.2495,辽阳市,新华园,颗粒物(PM10),85,119,73,51,39,112,,159,154,38,31,10,12,0.6,0.7
2025-04-10T2100,2214A,123.2354,41.2639,辽阳市,滨河路,"颗粒物(PM10),细颗粒物(PM2.5)",70,89,52,51,37,94,,146,141,30,21,18,12,0.8,0.8
2025-04-10T2100,2215A,123.149,41.2991,辽阳市,铁西工业园,颗粒物(PM10),93,135,92,68,51,101,,146,142,38,32,17,16,1.0,1.2
2025-04-10T2100,2227A,125.1358,42.8845,辽源市,环保局,细颗粒物(PM2.5),130,130,67,99,41,101,,150,142,52,23,18,8,1.2,0.7
2025-04-10T2100,3239A,125.0764,42.9078,辽源市,银鹰制药,细颗粒物(PM2.5),117,110,51,88,37,102,,157,147,40,22,16,9,1.1,0.7
2025-04-10T2100,1625A,115.9848,36.4372,聊城市,区政府,颗粒物(PM10),95,139,115,46,52,130,,160,157,30,34,11,11,0.5,0.5
2025-04-10T2100,2878A,116.0072,36.4343,聊城市,聊大东校,细颗粒物(PM2.5),107,153,127,80,69,131,,159,157,24,26,10,10,0.9,0.8
2025-04-10T2100,3200A,115.9819,36.4978,聊城市,监控中心,颗粒物(PM10),93,136,116,53,67,137,,158,156,21,32,8,8,0.7,0.6
2025-04-10T2100,3513A,116.0445,36.4361,聊城市,九州社区,颗粒物(PM10),92,134,112,55,54,132,,168,164,18,21,6,4,0.6,0.5
2025-04-10T2100,4018A,116.0567,36.4608,聊城市,星美广场,颗粒物(PM10),91,132,126,45,52,137,,165,161,21,24,10,11,0.9,0.7
2025-04-10T2100,2632A,94.3681,29.6376,林芝市,林芝监测站,,35,15,23,8,10,109,,110,110,4,9,5,5,0.3,0.3
2025-04-10T2100,2633A,94.3616,29.6616,林芝市,林芝人民医院,,32,14,18,11,10,102,,103,103,1,5,7,8,0.4,0.4
2025-04-10T2100,2603A,100.0781,23.8982,临沧市,市环保局,细颗粒物(PM2.5),147,,82,112,62,115,,139,135,20,17,8,7,1.0,0.8
2025-04-10T2100,2604A,100.0894,23.8822,临沧市,市气象局,细颗粒物(PM2.5),82,65,71,60,60,125,,142,139,14,22,8,7,0.9,0.9
2025-04-10T2100,1733A,111.5531,36.0783,临汾市,临钢医院,颗粒物(PM10),85,119,71,23,13,43,,118,105,59,23,7,9,0.8,0.5
2025-04-10T2100,1734A,111.5028,36.0714,临汾市,技工学校,颗粒物(PM10),71,92,57,24,17,57,,126,120,46,19,7,6,0.7,0.5
2025-04-10T2100,1736A,111.5018,36.0855,临汾市,市委,颗粒物(PM10),72,94,61,31,17,66,,128,123,50,24,10,9,1.0,0.7
2025-04-10T2100,3018A,111.505,36.1014,临汾市,唐尧大酒店,颗粒物(PM10),70,90,69,29,23,69,,127,118,36,18,11,10,0.9,0.6
2025-04-10T2100,4244A,111.4879,36.0530,临汾市,启星学校,颗粒物(PM10),85,119,64,37,18,38,,123,115,62,21,7,7,0.6,0.5
2025-04-10T2100,4271A,103.2464,35.6123,临夏回族自治州,滨河东路1号,颗粒物(PM10),60,69,170,31,57,104,,111,110,8,19,11,7,0.3,0.4
2025-04-10T2100,4310A,103.2093,35.5995,临夏回族自治州,新华街21号,颗粒物(PM10),78,106,145,37,48,91,,98,98,14,18,14,11,0.4,0.4
2025-04-10T2100,1618A,118.3429,35.0532,临沂市,沂河小区,颗粒物(PM10),69,88,96,43,64,100,,142,135,26,25,10,13,0.7,0.9
2025-04-10T2100,1619A,118.295,35.0583,临沂市,鲁南制药厂,颗粒物(PM10),63,75,90,43,57,114,,150,143,31,32,14,15,0.8,1.1
2025-04-10T2100,1620A,118.2794,34.9976,临沂市,新光毛纺厂,颗粒物(PM10),54,58,85,37,58,104,,148,141,40,32,8,12,0.4,0.7
2025-04-10T2100,1621A,118.3956,35.0888,临沂市,河东保险公司,"颗粒物(PM10),细颗粒物(PM2.5)",58,66,92,41,57,100,,148,137,33,43,5,8,0.4,0.8
2025-04-10T2100,3370A,118.3564,35.0215,临沂市,十里堡居委,颗粒物(PM10),54,58,83,36,49,108,,146,140,29,30,6,8,0.8,1.1
2025-04-10T2100,3496A,118.3604,35.1084,临沂市,南坊新区,细颗粒物(PM2.5),64,75,92,46,56,100,,140,132,28,32,9,11,0.7,1
2025-04-10T2100,3860A,118.3920,35.0300,临沂市,皇山花园小区,颗粒物(PM10),63,75,87,42,52,97,,147,137,33,30,10,12,0.6,0.9
2025-04-10T2100,1870A,109.4856,24.3895,柳州市,柳东小学,,,46,69,35,62,,,120,120,15,22,10,11,0.8,0.9
2025-04-10T2100,1871A,109.4157,24.3277,柳州市,环保监测站,颗粒物(PM10),61,72,114,40,86,78,,103,100,23,29,10,15,0.9,1.2
2025-04-10T2100,1872A,109.389,24.341,柳州市,河西水厂,颗粒物(PM10),62,74,126,39,76,72,,105,100,30,31,7,17,1.1,1.3
2025-04-10T2100,1873A,109.4311,24.2921,柳州市,市四中,颗粒物(PM10),58,66,131,38,73,77,,96,95,24,32,8,11,0.8,1.4
2025-04-10T2100,1874A,109.4006,24.3631,柳州市,市九中,颗粒物(PM10),70,90,115,38,71,55,,107,99,38,26,8,13,1.1,1.2
2025-04-10T2100,1875A,109.4958,24.3134,柳州市,古亭山,,48,48,84,32,48,79,,106,104,19,22,7,9,0.9,1.1
2025-04-10T2100,3402A,109.5422,24.3996,柳州市,市二中,,46,46,77,32,55,78,,113,110,24,23,27,14,0.8,0.9
2025-04-10T2100,2307A,116.5079,31.737,六安市,监测大楼,颗粒物(PM10),68,85,81,39,35,110,,134,133,14,13,6,6,0.4,0.4
2025-04-10T2100,2308A,116.4738,31.7643,六安市,皖西学院,颗粒物(PM10),71,91,89,40,32,120,,138,138,13,13,5,5,0.4,0.5
2025-04-10T2100,2309A,116.4996,31.7905,六安市,朝阳厂,颗粒物(PM10),68,85,81,39,32,106,,127,126,23,18,4,4,0.5,0.5
2025-04-10T2100,2310A,116.5567,31.7886,六安市,开发区,颗粒物(PM10),83,116,103,33,37,99,,135,130,29,20,6,5,0.6,0.6
2025-04-10T2100,2576A,104.8,26.5892,六盘水市,窑上,,,,71,57,54,106,,113,113,13,9,6,6,0.5,0.6
2025-04-10T2100,2577A,104.83,26.5917,六盘水市,黄土坡,细颗粒物(PM2.5),60,68,67,43,46,125,,124,124,14,21,13,14,0.8,1
2025-04-10T2100,2578A,104.89,26.5939,六盘水市,水钢,细颗粒物(PM2.5),60,63,75,43,50,132,,130,130,8,17,8,12,0.6,0.8
2025-04-10T2100,2579A,104.8475,26.5894,六盘水市,民中,细颗粒物(PM2.5),67,66,64,48,50,129,,128,128,9,18,9,11,0.7,0.8
2025-04-10T2100,2580A,104.9544,26.5506,六盘水市,双水,颗粒物(PM10),59,68,73,37,44,117,,126,126,12,15,9,11,0.3,0.4
2025-04-10T2100,2335A,117.0189,25.1181,龙岩市,龙岩师专,,,,,,,,,,,,,,,,
2025-04-10T2100,2336A,117.0217,25.1033,龙岩市,龙岩市监测站,,33,33,27,18,20,36,,117,100,34,16,14,5,0.9,0.7
2025-04-10T2100,2337A,117.0258,25.0661,龙岩市,闽西职业技术学院,,44,44,28,16,22,41,,108,90,26,17,35,8,0.6,0.6
2025-04-10T2100,2338A,117.0196,25.0306,龙岩市,龙岩学院,,25,22,22,17,17,62,,118,102,7,9,2,2,0.5,0.5
2025-04-10T2100,2665A,105.0822,33.3261,陇南市,汉王镇固水子,,,,,,,,,,,,,,,,
2025-04-10T2100,2885A,104.9339,33.3826,陇南市,滨江中学,颗粒物(PM10),59,68,74,31,27,105,,101,101,6,5,7,8,0.3,0.4
2025-04-10T2100,3247A,104.955,33.371,陇南市,市总工会,颗粒物(PM10),57,64,68,32,28,115,,110,110,5,5,9,10,0.6,0.6
2025-04-10T2100,2487A,111.9589,27.8901,娄底市,电视发射台,颗粒物(PM10),76,102,75,36,32,49,,97,88,6,6,7,7,0.7,0.7
2025-04-10T2100,2488A,111.9975,27.725,娄底市,市监测站,细颗粒物(PM2.5),84,77,69,62,48,96,,122,118,14,17,11,13,1.0,1
2025-04-10T2100,2489A,112.0194,27.7314,娄底市,市委党校,细颗粒物(PM2.5),92,78,63,68,52,88,,115,113,22,17,3,5,0.7,0.7
2025-04-10T2100,2490A,111.9561,27.7569,娄底市,涟钢,细颗粒物(PM2.5),82,75,64,60,49,76,,112,108,28,15,18,9,0.4,0.2
2025-04-10T2100,2491A,111.9892,27.7044,娄底市,市政府,细颗粒物(PM2.5),93,85,69,69,53,91,,117,115,16,15,12,6,0.6,0.7
2025-04-10T2100,1893A,105.4324,28.9634,泸州市,九狮山,,,,,,,,,,,,,,,,
2025-04-10T2100,1894A,105.4427,28.9063,泸州市,小市上码头,细颗粒物(PM2.5),87,101,100,64,65,118,,164,152,20,30,7,12,0.9,1
2025-04-10T2100,1895A,105.4241,28.8573,泸州市,兰田宪桥,细颗粒物(PM2.5),95,93,83,71,69,86,,154,138,29,28,12,10,1.0,1
2025-04-10T2100,1896A,105.4379,28.8833,泸州市,市环监站,,,,,,,,,,,,,,,,
2025-04-10T2100,4272A,105.3689,28.7783,泸州市,纳溪中医医院,细颗粒物(PM2.5),112,122,92,84,67,66,,152,138,43,26,7,8,1.0,0.9
2025-04-10T2100,2183A,111.1406,37.5211,吕梁市,环保局,颗粒物(PM10),64,77,55,26,18,53,,110,102,45,29,5,6,0.3,0.3
2025-04-10T2100,2185A,111.1297,37.5136,吕梁市,自来水公司,颗粒物(PM10),64,78,74,24,18,76,,112,107,24,25,5,5,0.7,0.6
2025-04-10T2100,2867A,111.1283,37.51,吕梁市,马茂庄小学,颗粒物(PM10),68,85,60,27,17,36,,113,103,67,33,3,3,0.4,0.3
2025-04-10T2100,1812A,112.3931,34.6516,洛阳市,市委党校,颗粒物(PM10),87,124,121,42,57,143,,145,144,18,24,8,6,0.7,0.9
2025-04-10T2100,1815A,112.494,34.6886,洛阳市,河南林校,颗粒物(PM10),84,117,143,45,75,100,,152,139,31,21,6,7,0.8,0.9
2025-04-10T2100,1816A,112.3844,34.623,洛阳市,开发区管委会,颗粒物(PM10),88,125,128,63,75,144,,144,143,16,20,11,10,0.4,0.5
2025-04-10T2100,1817A,112.4267,34.6258,洛阳市,市委新办公区,颗粒物(PM10),91,132,132,43,52,149,,150,148,19,21,9,7,0.5,0.5
2025-04-10T2100,3340A,112.6005,34.6326,洛阳市,伊滨,颗粒物(PM10),72,94,115,45,61,127,,146,141,23,24,8,9,0.5,0.7
2025-04-10T2100,3341A,112.4951,34.6332,洛阳市,中移产业园,,,,146,,64,,,139,136,,20,,9,,0.8
2025-04-10T2100,3593A,112.5736,34.8993,洛阳市,吉利监测站,颗粒物(PM10),87,123,122,23,32,65,,156,131,51,23,12,10,0.6,0.8
2025-04-10T2100,3635A,112.3677,34.662,洛阳市,河科大西苑校区,颗粒物(PM10),90,129,123,38,61,147,,148,146,23,28,10,9,0.7,0.7
2025-04-10T2100,3636A,112.4388,34.6781,洛阳市,英才小学,颗粒物(PM10),80,110,124,44,57,127,,148,140,27,24,10,9,0.8,0.9
2025-04-10T2100,4214A,112.4600,34.6949,洛阳市,春都路1号院,颗粒物(PM10),81,112,113,38,57,126,,156,146,26,23,8,8,0.8,0.9
2025-04-10T2100,2399A,114.051,33.5699,漯河市,三五一五工厂,颗粒物(PM10),88,125,152,48,74,122,,154,143,12,17,6,7,0.5,0.7
2025-04-10T2100,2400A,114.0055,33.5698,漯河市,漯河大学,颗粒物(PM10),86,122,149,51,68,104,,158,141,26,18,10,8,0.5,0.6
2025-04-10T2100,2401A,114.0138,33.5828,漯河市,市水利局,颗粒物(PM10),82,114,152,44,72,125,,162,149,12,17,5,7,0.4,0.6
2025-04-10T2100,2402A,114.0261,33.5698,漯河市,市广电局,颗粒物(PM10),89,127,152,37,71,116,,157,140,15,17,6,7,0.5,0.7
2025-04-10T2100,3478A,113.9749,33.5664,漯河市,市图书馆,颗粒物(PM10),86,121,157,42,74,119,,158,145,18,20,5,7,0.6,0.7
2025-04-10T2100,4250A,114.0892,33.5882,漯河市,韶山路11号,颗粒物(PM10),87,124,155,47,73,109,,159,143,22,22,4,6,0.4,0.7
2025-04-10T2100,1798A,118.5092,31.6837,马鞍山市,湖东路四小,颗粒物(PM10),88,125,91,60,34,113,,142,133,30,30,8,12,0.7,0.9
2025-04-10T2100,1799A,118.5024,31.6449,马鞍山市,开发区,颗粒物(PM10),95,140,89,55,35,86,,134,120,49,39,6,6,0.8,0.8
2025-04-10T2100,1802A,118.6245,31.7241,马鞍山市,濮塘,细颗粒物(PM2.5),97,109,87,72,36,151,,150,150,16,16,8,12,0.7,0.7
2025-04-10T2100,3633A,118.4918,31.6809,马鞍山市,雨山,颗粒物(PM10),89,128,87,45,34,100,,139,129,34,29,7,12,0.8,0.9
2025-04-10T2100,4191A,118.5274,31.72227,马鞍山市,慈湖高新区,细颗粒物(PM2.5),114,175,99,86,45,137,,137,137,21,38,7,15,0.8,0.9
2025-04-10T2100,1686A,111.0286,21.4688,茂名市,电白南海,,,34,33,,26,50,,59,,19,15,1,2,0.7,0.7
2025-04-10T2100,1687A,110.9294,21.6533,茂名市,茂石化七小,,48,48,39,22,19,51,,62,58,12,11,3,4,0.9,0.9
2025-04-10T2100,1688A,110.9107,21.6687,茂名市,健康路,,44,44,36,27,21,57,,70,65,9,9,3,5,0.7,0.8
2025-04-10T2100,1689A,110.8592,21.6828,茂名市,高岭,,46,46,42,24,18,47,,65,58,15,12,2,6,0.7,0.7
2025-04-10T2100,3450A,111.01,21.5165,茂名市,电白水东,,22,22,28,9,14,55,,59,59,13,16,1,2,0.7,0.7
2025-04-10T2100,2539A,104.0308,30.0478,眉山市,黑龙滩水库,颗粒物(PM10),61,71,40,27,19,115,,173,167,10,9,2,2,0.7,0.5
2025-04-10T2100,2540A,103.8416,30.0874,眉山市,气象局,颗粒物(PM10),80,109,96,56,47,84,,162,152,50,51,3,4,0.9,0.8
2025-04-10T2100,3137A,103.8578,30.0744,眉山市,市委党校,,,83,83,44,42,,,160,157,79,48,8,9,1.2,1
2025-04-10T2100,3148A,103.8291,30.0564,眉山市,区人社局,颗粒物(PM10),60,69,46,41,37,108,,169,160,52,30,9,9,1.0,0.9
2025-04-10T2100,1690A,116.1231,24.3284,梅州市,梅江月梅,,33,33,23,22,19,68,,112,104,14,12,4,4,0.6,0.6
2025-04-10T2100,1691A,116.0797,24.2719,梅州市,梅县新城,细颗粒物(PM2.5),53,44,35,37,28,26,,118,98,50,21,5,5,0.9,0.6
2025-04-10T2100,1692A,116.1248,24.2654,梅州市,环境监控中心,,40,,27,28,25,45,,116,99,40,22,6,6,0.8,0.8
2025-04-10T2100,3315A,116.1233,24.2991,梅州市,梅龙,,35,27,22,24,18,63,,114,102,17,10,8,6,0.7,0.7
2025-04-10T2100,1878A,104.7778,31.4741,绵阳市,富乐山,颗粒物(PM10),57,64,58,32,26,116,,140,138,25,15,8,5,0.5,0.5
2025-04-10T2100,1880A,104.6697,31.4668,绵阳市,高新区自来水公司,颗粒物(PM10),81,111,70,46,27,99,,150,146,54,28,4,3,0.7,0.6
2025-04-10T2100,1881A,104.7287,31.5075,绵阳市,三水厂,颗粒物(PM10),69,87,80,34,31,79,,148,141,63,33,7,6,0.8,0.6
2025-04-10T2100,3491A,104.69,31.5322,绵阳市,西科大附属小学,颗粒物(PM10),75,100,77,47,30,125,,160,157,35,30,8,7,0.7,0.5
2025-04-10T2100,3492A,104.5648,31.5343,绵阳市,安州区旅游局,细颗粒物(PM2.5),70,86,79,51,30,97,,155,150,42,24,10,10,0.8,0.4
2025-04-10T2100,4226A,104.7651,31.4531,绵阳市,绵阳市气象局,颗粒物(PM10),68,86,62,36,26,123,,133,133,27,22,6,6,0.4,0.3
2025-04-10T2100,1784A,129.61,44.561,牡丹江市,环保大楼,细颗粒物(PM2.5),95,99,55,71,35,34,,121,97,64,22,10,7,0.9,0.5
2025-04-10T2100,1785A,129.6115,44.5782,牡丹江市,文化广场,细颗粒物(PM2.5),77,94,59,56,37,38,,127,101,61,21,12,12,1.1,0.6
2025-04-10T2100,1786A,129.5904,44.5963,牡丹江市,第一医院,细颗粒物(PM2.5),80,,58,59,36,62,,124,102,29,20,13,13,0.7,0.5
2025-04-10T2100,1787A,129.6364,44.6075,牡丹江市,机车工厂,细颗粒物(PM2.5),110,143,71,83,36,53,,120,100,36,30,28,12,1.4,0.7
2025-04-10T2100,1788A,129.6386,44.5462,牡丹江市,第一中学,颗粒物(PM10),77,103,48,51,30,35,,130,102,64,21,11,9,0.9,0.7
2025-04-10T2100,2531A,105.0703,29.61,内江市,市监测站,细颗粒物(PM2.5),89,70,62,66,51,91,,179,161,44,28,4,4,1.2,1
2025-04-10T2100,2532A,105.0717,29.5947,内江市,东兴区政府,颗粒物(PM10),71,91,63,51,47,86,,166,151,54,41,8,8,0.8,0.9
2025-04-10T2100,2533A,105.0653,29.5817,内江市,内江二中,细颗粒物(PM2.5),82,90,71,60,56,117,,168,161,26,41,9,9,0.7,0.8
2025-04-10T2100,2534A,105.0406,29.5822,内江市,内江日报社,细颗粒物(PM2.5),85,83,74,63,57,96,,176,162,49,42,10,9,0.8,0.7
2025-04-10T2100,2628A,92.0657,31.4846,那曲市,那曲监测站,,48,48,38,32,19,80,,102,100,38,18,9,6,0.9,0.7
2025-04-10T2100,4243A,92.0515,31.4787,那曲市,那曲市委宣传部,,32,,20,22,12,90,,111,108,28,13,6,6,0.5,0.6
2025-04-10T2100,1290A,115.8931,28.6843,南昌市,省外办,,,,49,,36,,,102,,,19,,7,,0.7
2025-04-10T2100,1291A,115.8886,28.7003,南昌市,省林业公司,,35,31,41,24,32,92,,124,115,11,15,8,8,0.5,0.6
2025-04-10T2100,1292A,115.8126,28.7442,南昌市,林科所,,29,29,36,19,28,69,,148,125,38,15,9,9,0.5,0.7
2025-04-10T2100,1294A,115.8518,28.687,南昌市,建工学校,,38,38,48,19,30,98,,138,127,15,12,3,4,0.7,0.8
2025-04-10T2100,1295A,115.8921,28.6424,南昌市,象湖,,30,30,45,19,31,79,,148,130,30,12,6,7,0.7,0.7
2025-04-10T2100,1296A,115.7423,28.7996,南昌市,武术学校,,30,29,28,21,18,68,,143,123,7,5,11,11,0.8,0.9
2025-04-10T2100,3046A,115.9084,28.6062,南昌市,机电学校,,44,44,49,27,35,77,,133,116,25,14,2,3,0.7,0.7
2025-04-10T2100,3690A,115.9721,28.7031,南昌市,外国语学校,,42,42,49,28,31,90,,148,133,20,13,4,6,0.3,0.4
2025-04-10T2100,4192A,115.9316,28.68677,南昌市,南京东路235号,颗粒物(PM10),53,55,60,23,33,95,,143,128,26,19,9,10,0.6,0.7
2025-04-10T2100,1905A,106.056,30.8064,南充市,西山风景区,,47,37,55,31,29,150,,156,155,5,8,4,7,0.5,0.4
2025-04-10T2100,1906A,106.0789,30.8023,南充市,南充市委,,,,90,,45,,,154,151,77,37,4,5,1.1,0.8
2025-04-10T2100,1907A,106.1031,30.8217,南充市,南充炼油厂,"颗粒物(PM10),细颗粒物(PM2.5)",65,79,95,47,47,70,,148,137,58,35,5,5,0.8,0.7
2025-04-10T2100,4227A,106.1083,30.7884,南充市,梨树横街98号,颗粒物(PM10),73,95,92,38,39,77,,149,139,56,39,7,7,0.7,0.5
2025-04-10T2100,4304A,106.1172,30.843,南充市,清泉寺北路188号,颗粒物(PM10),63,75,90,38,41,104,,156,148,35,26,4,5,0.6,0.5
2025-04-10T2100,4305A,106.067,30.7616,南充市,同庆路1号,颗粒物(PM10),76,102,90,48,45,7,,143,119,111,45,4,5,1.4,0.7
2025-04-10T2100,1151A,118.8086,32.1065,南京市,迈皋桥,颗粒物(PM10),64,77,95,41,51,124,,167,164,44,75,4,7,0.4,0.6
2025-04-10T2100,1152A,118.7538,32.0551,南京市,草场门,颗粒物(PM10),65,80,95,41,40,131,,160,160,26,44,5,7,0.8,0.8
2025-04-10T2100,1153A,118.7794,32.0745,南京市,山西路,颗粒物(PM10),58,66,112,36,45,135,,163,163,21,37,3,6,0.3,0.5
2025-04-10T2100,1154A,118.7752,32.0023,南京市,中华门,颗粒物(PM10),68,85,90,41,38,113,,136,136,28,39,10,13,0.6,0.6
2025-04-10T2100,1155A,118.8109,32.0309,南京市,瑞金路,颗粒物(PM10),69,88,102,44,43,130,,152,152,9,35,6,6,0.4,0.4
2025-04-10T2100,1156A,118.7997,32.0754,南京市,玄武湖,颗粒物(PM10),56,61,95,30,41,116,,138,138,19,28,9,11,0.6,0.7
2025-04-10T2100,1157A,118.6414,32.0931,南京市,浦口,颗粒物(PM10),71,92,94,38,37,139,,170,168,31,29,6,8,0.5,0.6
2025-04-10T2100,1158A,118.7356,31.9996,南京市,奥体中心,颗粒物(PM10),66,82,95,41,40,125,,147,147,25,41,8,11,0.6,0.6
2025-04-10T2100,1159A,118.9125,32.1028,南京市,仙林大学城,颗粒物(PM10),58,66,109,39,59,122,,177,174,20,50,10,13,0.9,1.2
2025-04-10T2100,3422A,118.8436,31.9198,南京市,江宁彩虹桥,颗粒物(PM10),62,74,91,41,33,129,,160,153,15,25,4,5,0.7,0.7
2025-04-10T2100,3427A,118.8554,32.3578,南京市,六合雄州,颗粒物(PM10),62,73,99,39,50,86,,156,146,20,16,6,7,0.6,0.7
2025-04-10T2100,4249A,118.8708,31.3402,南京市,汶溪路181号,颗粒物(PM10),78,106,76,53,32,132,,146,143,32,24,6,5,1.1,0.9
2025-04-10T2100,4312A,119.019,31.6512,南京市,中山西路1号,颗粒物(PM10),70,90,73,44,34,131,,160,157,28,24,8,8,1.0,0.8
2025-04-10T2100,1401A,108.3103,22.7881,南宁市,二十一中,,30,25,42,21,27,68,,109,102,13,18,5,6,0.9,0.9
2025-04-10T2100,1402A,108.3141,22.8528,南宁市,北湖,,39,39,44,17,28,70,,113,104,12,23,5,7,1.0,1
2025-04-10T2100,1403A,108.3206,22.8225,南宁市,市监测站,,32,25,43,22,27,66,,102,97,11,19,4,6,0.5,0.6
2025-04-10T2100,1404A,108.3829,22.8037,南宁市,大自然花园,,36,,43,25,26,73,,118,111,9,12,5,7,0.8,0.7
2025-04-10T2100,1405A,108.4394,22.7904,南宁市,仙葫,,32,,42,22,28,59,,97,92,10,12,3,4,1.0,0.9
2025-04-10T2100,1406A,108.2397,22.8467,南宁市,区农职院,,34,34,49,23,30,62,,108,100,15,23,4,4,0.9,0.9
2025-04-10T2100,1407A,108.3275,22.735,南宁市,英华嘉园,,28,25,44,19,28,62,,105,97,18,22,8,8,0.7,0.7
2025-04-10T2100,3401A,108.4834,22.7618,南宁市,红星社区,,46,46,47,26,32,71,,120,110,10,11,7,9,1.2,1.1
2025-04-10T2100,4221A,108.2177,22.7774,南宁市,乐贤路16号,,36,36,55,23,29,55,,97,89,17,26,7,9,0.8,0.8
2025-04-10T2100,2331A,118.0966,26.6761,南平市,茫荡山,,,,,,,,,,,,,,,,
2025-04-10T2100,2332A,118.1681,26.6369,南平市,南平市监测站,,32,,22,22,18,45,,103,87,20,12,3,4,0.9,0.8
2025-04-10T2100,2333A,118.1825,26.6489,南平市,南平铝业有限公司,,36,36,22,23,18,38,,104,88,25,12,3,3,0.8,0.8
2025-04-10T2100,2334A,118.1756,26.6272,南平市,南平七中,,22,16,21,15,13,55,,99,86,11,10,4,4,0.7,0.8
2025-04-10T2100,1168A,120.9098,31.9663,南通市,狼山街道,颗粒物(PM10),57,63,84,31,43,100,,153,136,27,23,7,8,0.8,1
2025-04-10T2100,1169A,120.86,32.0005,南通市,虹桥,细颗粒物(PM2.5),64,65,86,46,53,100,,150,136,29,23,7,8,0.7,0.8
2025-04-10T2100,1170A,120.87,32.02,南通市,城中,颗粒物(PM10),64,77,93,39,50,106,,152,138,29,24,8,9,0.8,1
2025-04-10T2100,1171A,120.94,31.93,南通市,星湖花园,,50,50,77,29,43,81,,151,132,32,23,7,9,0.6,0.7
2025-04-10T2100,1172A,120.81,32.0417,南通市,紫琅学院,颗粒物(PM10),63,75,88,39,53,86,,143,126,39,30,5,5,0.7,0.6
2025-04-10T2100,3291A,121.067,32.062,南通市,通州监测站,颗粒物(PM10),56,61,81,34,48,117,,152,136,20,17,6,7,0.6,0.9
2025-04-10T2100,3432A,120.9348,31.9883,南通市,环境教育馆,细颗粒物(PM2.5),67,63,84,48,55,92,,158,137,33,21,7,8,0.6,0.7
2025-04-10T2100,2404A,112.5224,33.0122,南阳市,瓦房庄,颗粒物(PM10),80,109,123,36,45,76,,161,139,36,24,6,6,0.7,0.7
2025-04-10T2100,2405A,112.5003,32.9735,南阳市,汉画馆,颗粒物(PM10),67,83,107,35,52,55,,139,118,36,28,5,5,0.6,0.7
2025-04-10T2100,2406A,112.5573,33.027,南阳市,气象站,颗粒物(PM10),73,96,126,34,49,84,,153,141,35,20,7,7,0.6,0.8
2025-04-10T2100,2407A,112.5481,32.9689,南阳市,理工学院,颗粒物(PM10),66,81,115,24,43,105,,152,143,22,24,3,4,0.6,0.7
2025-04-10T2100,4008A,112.5234,32.9922,南阳市,卧龙区政府,颗粒物(PM10),72,93,118,38,55,86,,148,128,29,25,5,5,0.7,0.7
2025-04-10T2100,1234A,121.8358,29.911,宁波市,区环保大楼,颗粒物(PM10),58,65,57,37,27,113,,145,142,51,43,9,10,0.7,0.7
2025-04-10T2100,1235A,121.56,29.82,宁波市,万里学院,,43,43,41,24,22,111,,156,146,24,17,6,6,0.8,0.8
2025-04-10T2100,1236A,121.713,29.9572,宁波市,龙赛医院,颗粒物(PM10),63,76,65,27,27,116,,154,148,48,42,10,10,0.6,0.6
2025-04-10T2100,1239A,121.633,29.7733,宁波市,钱湖水厂,颗粒物(PM10),51,52,41,24,22,117,,152,144,20,16,8,8,0.6,0.6
2025-04-10T2100,1240A,121.5856,29.8635,宁波市,太古小学,颗粒物(PM10),51,51,47,21,21,119,,153,143,21,19,9,9,0.5,0.6
2025-04-10T2100,1241A,121.524,29.8674,宁波市,市环境监测中心,颗粒物(PM10),51,52,44,26,23,105,,158,146,36,28,10,9,0.5,0.5
2025-04-10T2100,2871A,121.6147,29.9017,宁波市,万里国际学校,,49,49,47,20,21,126,,162,155,17,17,8,8,0.5,0.5
2025-04-10T2100,3710A,121.5594,29.8975,宁波市,白沙活动中心,颗粒物(PM10),51,52,44,24,22,120,,162,154,17,19,7,7,0.5,0.5
2025-04-10T2100,2339A,119.5001,26.6946,宁德市,金涵水库,,,,,,,,,,,,,,,,
2025-04-10T2100,2341A,119.5388,26.6612,宁德市,宁德市监测站,,46,39,27,32,23,86,,121,118,19,13,5,4,0.8,0.6
2025-04-10T2100,3209A,119.5231,26.6562,宁德市,宁德一中,,43,35,25,30,23,69,,116,110,11,7,7,5,1.0,0.4
2025-04-10T2100,2618A,98.8601,25.8567,怒江傈僳族自治州,州监测站,,,,42,,26,,,125,,,7,,7,,0.3
2025-04-10T2100,2619A,98.8546,25.8417,怒江傈僳族自治州,泸水一中,,36,36,46,11,36,101,,130,125,13,12,7,7,0.5,0.5
2025-04-10T2100,1888A,101.6891,26.571,攀枝花市,弄弄坪,颗粒物(PM10),64,77,72,42,43,93,,159,151,26,23,13,7,3.1,1.1
2025-04-10T2100,1889A,101.5769,26.5928,攀枝花市,河门口,,44,44,64,28,43,109,,143,137,12,17,11,20,0.6,0.8
2025-04-10T2100,1890A,101.7169,26.585,攀枝花市,炳草岗,颗粒物(PM10),58,66,66,29,39,112,,164,156,28,34,11,14,0.3,0.5
2025-04-10T2100,1891A,101.7369,26.5008,攀枝花市,仁和,颗粒物(PM10),53,55,58,33,41,94,,155,143,20,16,9,11,0.6,0.6
2025-04-10T2100,2835A,101.7227,26.567,攀枝花市,四十中小,细颗粒物(PM2.5),60,62,60,43,38,71,,158,134,67,27,7,9,1.4,0.7
2025-04-10T2100,1604A,122.0303,41.1489,盘锦市,开发区,细颗粒物(PM2.5),60,44,45,43,42,150,,149,149,16,20,9,8,0.5,0.6
2025-04-10T2100,1605A,122.0485,41.0883,盘锦市,兴隆台,细颗粒物(PM2.5),58,44,45,41,42,139,,139,139,20,29,9,8,0.6,0.6
2025-04-10T2100,1606A,121.8297,41.1028,盘锦市,新生街道,细颗粒物(PM2.5),59,,32,42,38,149,,144,144,20,21,16,10,0.5,0.7
2025-04-10T2100,1832A,113.3257,33.742,平顶山市,新华旅馆,颗粒物(PM10),92,133,156,44,56,113,,166,152,22,23,6,7,0.7,0.7
2025-04-10T2100,1833A,113.2919,33.737,平顶山市,规划设计院,颗粒物(PM10),95,139,156,57,73,120,,170,157,14,21,5,7,0.7,0.7
2025-04-10T2100,1834A,113.182,33.774,平顶山市,平顶山工学院,颗粒物(PM10),87,124,147,51,64,138,,178,171,14,17,6,7,0.7,0.7
2025-04-10T2100,3204A,113.3025,33.73,平顶山市,规划局,颗粒物(PM10),91,132,157,53,66,124,,172,160,17,23,6,8,0.6,1.1
2025-04-10T2100,3594A,112.8867,33.9116,平顶山市,石龙区,颗粒物(PM10),108,166,191,66,56,126,,168,159,24,44,9,9,0.6,0.5
2025-04-10T2100,2656A,106.6692,35.5461,平凉市,聚贤嘉苑,颗粒物(PM10),72,94,100,28,22,84,,122,118,36,23,7,9,0.4,0.4
2025-04-10T2100,2657A,106.7021,35.5307,平凉市,博物馆,颗粒物(PM10),84,118,88,31,21,57,,119,112,50,22,11,10,0.5,0.6
2025-04-10T2100,2347A,114.0997,27.5002,萍乡市,武功山,,29,23,25,20,20,41,,94,78,6,6,14,14,0.7,0.7
2025-04-10T2100,2348A,113.8385,27.6434,萍乡市,中医院,,44,44,49,26,40,92,,118,113,11,8,8,9,1.0,1.1
2025-04-10T2100,2349A,113.8493,27.6253,萍乡市,市政府车库,,48,35,42,33,35,86,,122,117,15,12,5,6,0.7,0.9
2025-04-10T2100,2350A,113.8676,27.6435,萍乡市,市环保局,,45,40,45,31,36,81,,118,112,16,6,6,6,0.7,0.8
2025-04-10T2100,2351A,113.866,27.6198,萍乡市,安源区政府,颗粒物(PM10),62,73,52,33,43,78,,117,111,26,17,19,14,0.6,0.9
2025-04-10T2100,2319A,119.0141,25.4325,莆田市,荔城区仓后路,颗粒物(PM10),51,52,51,27,41,90,,123,120,24,20,4,3,1.1,0.9
2025-04-10T2100,2320A,119.0015,25.4553,莆田市,莆田市监测站,,38,30,45,26,40,66,,120,113,11,13,4,4,1.0,0.7
2025-04-10T2100,2321A,119.1119,25.4561,莆田市,涵江区六中,,45,45,49,30,47,71,,124,118,39,27,4,3,1.1,0.8
2025-04-10T2100,2322A,119.1013,25.3215,莆田市,秀屿区政府,,49,49,41,32,38,88,,123,117,20,16,4,4,1.0,1
2025-04-10T2100,2323A,118.981,25.4792,莆田市,东圳水库,,,,,,,,,,,,,,,,
2025-04-10T2100,2392A,115.0312,35.7636,濮阳市,环保局,颗粒物(PM10),70,90,92,40,68,141,,146,145,16,21,8,11,0.7,0.8
2025-04-10T2100,2394A,115.0574,35.7609,濮阳市,油田运输公司,颗粒物(PM10),81,111,123,44,70,146,,162,161,18,20,8,10,0.8,0.9
2025-04-10T2100,3021A,115,35.7668,濮阳市,濮水河管理处,颗粒物(PM10),87,123,120,46,70,155,,155,155,16,21,7,8,0.8,1
2025-04-10T2100,4216A,115.0924,35.7686,濮阳市,任丘路479号,颗粒物(PM10),81,112,129,43,74,150,,167,165,12,19,7,9,0.7,1.2
2025-04-10T2100,2601A,100.98,22.7633,普洱市,市环保局,颗粒物(PM10),57,64,86,39,39,85,,131,118,20,15,3,4,0.6,0.8
2025-04-10T2100,2602A,100.9817,22.8322,普洱市,普洱第二中学,细颗粒物(PM2.5),62,59,69,44,46,85,,145,127,21,27,7,7,0.6,0.6
2025-04-10T2100,2262A,131.0518,45.8751,七台河市,新一中,细颗粒物(PM2.5),204,220,140,154,98,153,,158,157,39,30,20,16,1.9,1.4
2025-04-10T2100,3345A,131.0577,45.7879,七台河市,中波台,细颗粒物(PM2.5),179,185,106,135,62,131,,125,125,45,29,17,10,1.2,0.7
2025-04-10T2100,3637A,131.0176,45.7761,七台河市,人民广场,细颗粒物(PM2.5),242,231,107,192,74,129,,128,128,48,28,18,11,1.5,0.9
2025-04-10T2100,3684A,130.8781,45.8222,七台河市,新建矿广场,细颗粒物(PM2.5),262,334,149,212,76,93,,131,121,52,32,18,13,1.6,1
2025-04-10T2100,1779A,123.9305,47.3636,齐齐哈尔市,安居小区,细颗粒物(PM2.5),226,213,114,176,86,75,,138,121,70,31,11,8,1.0,0.6
2025-04-10T2100,1780A,123.9488,47.3386,齐齐哈尔市,中心广场,细颗粒物(PM2.5),229,240,135,179,93,89,,131,124,58,29,14,10,1.1,0.7
2025-04-10T2100,1781A,123.9483,47.3227,齐齐哈尔市,农牧车辆厂,细颗粒物(PM2.5),172,190,112,130,79,86,,142,131,55,26,11,9,0.6,0.5
2025-04-10T2100,1783A,123.945,47.2988,齐齐哈尔市,市环境监测站,细颗粒物(PM2.5),202,192,116,152,89,92,,138,128,47,24,8,6,0.9,0.7
2025-04-10T2100,3662A,123.6333,47.2075,齐齐哈尔市,富区青少年活动中心,细颗粒物(PM2.5),260,242,167,210,122,88,,145,131,51,27,12,11,1.2,1
2025-04-10T2100,2591A,107.9783,26.5747,黔东南苗族侗族自治州,市环境监测站,细颗粒物(PM2.5),55,46,43,39,36,81,,100,98,13,16,2,2,0.7,0.7
2025-04-10T2100,2881A,107.8908,26.5311,黔东南苗族侗族自治州,凯里学院,细颗粒物(PM2.5),53,,42,37,42,95,,105,105,2,10,2,2,0.6,0.7
2025-04-10T2100,2593A,107.5228,26.2403,黔南布依族苗族自治州,小围寨,,39,29,40,27,33,93,,102,102,5,10,6,5,0.5,0.6
2025-04-10T2100,3538A,107.5175,26.2978,黔南布依族苗族自治州,沙坝,,32,31,42,22,30,82,,98,96,8,12,4,4,0.7,0.7
