timepoint,stationcode,longitude,latitude,area,positionname,primarypollutant,aqi,pm10,pm10_24h,pm2_5,pm2_5_24h,o3,o3_24h,o3_8h,o3_8h_24h,no2,no2_24h,so2,so2_24h,co,co_24h
2025-04-10T2300,2566A,102.1879,31.914,阿坝藏族羌族自治州,州农科所,,30,30,22,11,8,53,,85,73,18,9,11,12,0.4,0.4
2025-04-10T2300,2568A,102.2502,31.8896,阿坝藏族羌族自治州,马师校,,39,39,21,17,14,27,,100,80,48,13,5,5,0.4,0.4
2025-04-10T2300,3994A,102.2165,31.9024,阿坝藏族羌族自治州,马尔康中学西区,,25,23,20,17,13,52,,105,87,27,11,3,3,0.3,0.8
2025-04-10T2300,2695A,80.292,41.1694,阿克苏地区,电视台,颗粒物(PM10),143,236,642,53,93,95,,104,101,8,19,7,7,0.5,0.7
2025-04-10T2300,2696A,80.2613,41.1551,阿克苏地区,艺术中心,颗粒物(PM10),184,317,672,55,102,93,,103,100,10,22,3,4,0.6,0.7
2025-04-10T2300,2204A,105.6467,38.8363,阿拉善盟,西城区西花园,颗粒物(PM10),137,223,89,63,22,98,,126,117,12,9,19,19,0.7,0.7
2025-04-10T2300,2205A,105.6985,38.8411,阿拉善盟,蒙二幼,颗粒物(PM10),143,235,94,77,26,93,,112,105,7,7,6,7,0.4,0.4
2025-04-10T2300,2206A,105.724,38.8516,阿拉善盟,环保局新楼,颗粒物(PM10),137,224,92,76,27,103,,116,112,4,4,9,9,0.4,0.4
2025-04-10T2300,2708A,88.1264,47.8517,阿勒泰地区,市站,,25,17,11,9,4,79,,75,75,4,6,3,3,0.6,0.6
2025-04-10T2300,2630A,80.1161,32.5,阿里地区,阿里监测站,,37,8,9,8,6,118,,124,123,4,4,8,8,0.5,0.5
2025-04-10T2300,3192A,80.0903,32.5028,阿里地区,阿里藏医院,,35,15,12,6,4,109,,116,114,3,2,7,7,0.3,0.4
2025-04-10T2300,2642A,109.0318,32.6537,安康市,香溪洞,颗粒物(PM10),54,57,49,19,22,88,,122,116,10,7,9,10,0.6,0.5
2025-04-10T2300,2644A,109.0072,32.6975,安康市,汉滨区检察院,颗粒物(PM10),54,57,52,21,23,67,,124,104,16,14,8,16,0.3,0.4
2025-04-10T2300,4054A,109.0325,32.6913,安康市,市邮政管理局,颗粒物(PM10),59,68,52,27,21,54,,125,,21,13,11,14,0.5,0.4
2025-04-10T2300,2291A,117.0809,30.5177,安庆市,环科院,颗粒物(PM10),95,140,66,48,37,10,,133,74,104,35,8,9,0.8,0.7
2025-04-10T2300,2292A,117.0331,30.5119,安庆市,马山宾馆,细颗粒物(PM2.5),63,,54,45,37,70,,133,90,33,30,5,8,0.7,0.7
2025-04-10T2300,2294A,116.9896,30.6145,安庆市,安庆大学,细颗粒物(PM2.5),65,68,64,47,35,56,,142,110,45,18,3,5,0.5,0.5
2025-04-10T2300,3173A,117.0598,30.5351,安庆市,市人大,细颗粒物(PM2.5),73,71,61,53,37,23,,140,98,77,19,6,9,0.9,0.7
2025-04-10T2300,3122A,105.9606,26.2611,安顺市,伍家关,,,,91,60,52,85,,102,99,3,7,3,4,0.7,0.8
2025-04-10T2300,3123A,105.9408,26.2431,安顺市,凤凰山,,49,42,51,34,42,86,,105,100,7,10,6,6,0.6,0.7
2025-04-10T2300,3124A,105.9439,26.2564,安顺市,金钟山,,49,44,60,34,45,91,,110,105,6,8,4,5,0.7,0.8
2025-04-10T2300,3125A,105.8983,26.2481,安顺市,娄家坡,细颗粒物(PM2.5),53,44,48,37,43,90,,111,104,7,10,4,5,0.7,0.9
2025-04-10T2300,1818A,114.4839,36.0621,安阳市,棉研所,,,,,,,,,,,,,,,,
2025-04-10T2300,1819A,114.3551,36.1017,安阳市,红庙街,颗粒物(PM10),73,95,108,44,73,106,,146,127,9,16,6,6,0.6,0.9
2025-04-10T2300,1820A,114.361,36.0681,安阳市,银杏小区,颗粒物(PM10),77,104,113,52,80,108,,154,133,11,17,7,7,0.3,0.7
2025-04-10T2300,3141A,114.3922,36.0878,安阳市,信访局,颗粒物(PM10),75,100,120,39,72,120,,160,139,16,19,4,4,0.4,0.8
2025-04-10T2300,3669A,114.4705,36.0637,安阳市,左辅环卫站,,,110,138,36,80,77,,61,,27,27,4,6,,0.5
2025-04-10T2300,3703A,114.2917,36.0949,安阳市,安钢职工学校,颗粒物(PM10),79,107,130,47,77,104,,146,130,16,26,5,6,0.7,1
2025-04-10T2300,1748A,123.044,41.1196,鞍山市,深沟寺,颗粒物(PM10),52,54,64,30,41,121,,142,128,14,22,11,14,0.5,0.8
2025-04-10T2300,1749A,123.011,41.0931,鞍山市,太阳城,颗粒物(PM10),52,54,67,30,44,120,,139,126,12,20,4,8,0.7,1
2025-04-10T2300,1750A,123.0485,41.1442,鞍山市,太平,颗粒物(PM10),54,58,72,31,42,119,,133,122,12,22,11,13,0.6,1
2025-04-10T2300,1751A,122.9642,41.0971,鞍山市,铁西三道街,颗粒物(PM10),58,66,78,36,51,110,,142,121,27,30,10,11,1.1,1.1
2025-04-10T2300,1753A,123.022,41.0821,鞍山市,明达新区,颗粒物(PM10),51,52,65,31,43,124,,141,130,12,19,7,12,0.4,0.7
2025-04-10T2300,1754A,123.1289,41.0228,鞍山市,千山,,,,30,,20,,,92,,,12,,5,,0.9
2025-04-10T2300,4201A,122.9446,41.0826,鞍山市,兴盛南路290号,颗粒物(PM10),60,70,83,42,55,110,,141,121,23,27,10,14,0.9,0.9
2025-04-10T2300,2195A,107.4212,40.761,巴彦淖尔市,附二中,颗粒物(PM10),85,120,91,43,25,84,,113,99,9,9,6,6,0.3,0.2
2025-04-10T2300,2196A,107.37,40.7372,巴彦淖尔市,市环保大楼,颗粒物(PM10),84,117,93,52,32,72,,115,97,15,10,6,6,0.2,0.2
2025-04-10T2300,1956A,86.1472,41.7538,巴音郭楞蒙古自治州,孔雀公园,颗粒物(PM10),265,395,273,43,45,97,,107,103,10,8,7,7,0.3,0.2
2025-04-10T2300,1957A,86.1972,41.7166,巴音郭楞蒙古自治州,棉纺厂,,,,372,,45,,,98,,,9,,3,,0.2
2025-04-10T2300,1958A,86.2357,41.7173,巴音郭楞蒙古自治州,经济开发区,,,,191,,18,96,,,,4,8,5,7,0.1,0.2
2025-04-10T2300,2914A,106.7677,31.8794,巴中市,苏山坪,颗粒物(PM10),54,58,51,32,25,140,,139,139,6,8,4,4,0.4,0.3
2025-04-10T2300,3181A,106.7768,31.8526,巴中市,市五中,,,,66,,31,,,81,,,25,,6,,0.6
2025-04-10T2300,3183A,106.7418,31.8654,巴中市,圣泉水务公司,颗粒物(PM10),60,70,59,38,30,41,,139,96,56,32,4,4,0.6,0.6
2025-04-10T2300,3616A,106.7616,31.8344,巴中市,市中心医院,颗粒物(PM10),69,87,62,41,32,50,,136,105,37,24,7,7,0.8,0.7
2025-04-10T2300,2235A,122.7911,45.6077,白城市,洮北区环保局,细颗粒物(PM2.5),135,151,69,103,45,76,,130,103,33,18,14,6,0.6,0.3
2025-04-10T2300,2236A,122.8738,45.5725,白城市,市环保局,细颗粒物(PM2.5),155,141,73,118,49,73,,124,94,26,16,10,6,0.7,0.5
2025-04-10T2300,2231A,126.4219,41.9171,白山市,喜丰,颗粒物(PM10),94,138,76,50,33,14,,119,89,75,29,16,15,1.2,1.1
2025-04-10T2300,2232A,126.4077,41.9419,白山市,环保局,颗粒物(PM10),78,105,64,41,32,32,,121,82,39,24,6,7,1.1,1.1
2025-04-10T2300,2647A,104.1724,36.5446,白银市,第三小学,颗粒物(PM10),197,343,116,73,32,108,,124,,8,20,11,46,0.4,0.7
2025-04-10T2300,2648A,104.1465,36.5482,白银市,动力公司,颗粒物(PM10),175,300,107,82,32,109,,120,116,6,15,8,16,0.3,0.5
2025-04-10T2300,2512A,106.6103,23.9011,百色市,市监测站,,45,44,47,31,32,89,,106,100,12,14,14,11,0.7,0.7
2025-04-10T2300,2513A,106.6538,23.8859,百色市,市中心血站,,45,43,53,31,36,93,,110,103,11,17,13,9,0.8,0.8
2025-04-10T2300,3406A,106.6085,23.8798,百色市,祈福高中,颗粒物(PM10),55,59,59,32,31,82,,106,100,15,18,13,9,0.7,0.7
2025-04-10T2300,2270A,117.396,32.939,蚌埠市,工人疗养院,细颗粒物(PM2.5),104,134,143,78,73,125,,158,148,19,26,6,6,0.8,0.8
2025-04-10T2300,2271A,117.3605,32.9427,蚌埠市,百货大楼,,,126,142,,78,107,,153,142,30,34,7,8,0.8,0.8
2025-04-10T2300,2273A,117.4185,32.8911,蚌埠市,蚌埠学院,细颗粒物(PM2.5),108,124,123,81,77,116,,156,137,20,26,5,8,0.9,0.8
2025-04-10T2300,2274A,117.3533,32.9673,蚌埠市,淮上区政府,细颗粒物(PM2.5),102,114,133,76,77,123,,151,144,18,27,6,7,0.7,0.7
2025-04-10T2300,2275A,117.3145,32.8977,蚌埠市,高新区,细颗粒物(PM2.5),105,114,124,79,76,127,,160,146,17,27,7,11,1.0,0.9
2025-04-10T2300,3715A,117.3092,32.9314,蚌埠市,蚌埠田家炳中学,细颗粒物(PM2.5),104,143,150,78,74,112,,168,154,33,36,8,10,0.7,0.6
2025-04-10T2300,1585A,109.8756,40.6532,包头市,市环境监测站,颗粒物(PM10),52,54,66,13,20,68,,114,106,37,38,10,18,0.5,0.6
2025-04-10T2300,1587A,109.9991,40.5842,包头市,包头八中,颗粒物(PM10),56,61,85,16,29,89,,110,107,21,36,11,21,0.4,0.7
2025-04-10T2300,1588A,109.8538,40.6821,包头市,青山宾馆,,43,43,65,16,25,70,,110,105,20,37,8,15,0.4,0.7
2025-04-10T2300,1589A,109.8642,40.6288,包头市,惠龙物流,,47,47,65,11,22,96,,116,113,14,33,7,18,0.4,0.6
2025-04-10T2300,1590A,110.0377,40.5546,包头市,东河鸿龙湾,颗粒物(PM10),62,74,72,3,20,99,,115,112,15,30,8,15,0.2,0.3
2025-04-10T2300,3283A,109.9154,40.5685,包头市,滨河大厦,,47,47,61,14,19,82,,113,108,24,34,9,15,0.4,0.6
2025-04-10T2300,3419A,109.9447,40.6261,包头市,包头市委党校,颗粒物(PM10),54,57,67,17,22,93,,112,108,15,30,8,16,0.4,0.5
2025-04-10T2300,3683A,109.8331,40.6576,包头市,昆区政府,,45,45,65,17,27,85,,112,108,23,37,3,11,0.5,0.8
2025-04-10T2300,1930A,107.185,34.3063,宝鸡市,庙沟村,颗粒物(PM10),74,98,125,38,44,95,,127,120,20,15,8,8,0.5,0.4
2025-04-10T2300,1931A,107.0708,34.3017,宝鸡市,竹园沟,颗粒物(PM10),76,102,127,40,47,75,,131,115,26,17,7,8,0.4,0.4
2025-04-10T2300,1932A,107.1906,34.3672,宝鸡市,三陆医院,颗粒物(PM10),81,112,124,58,48,52,,126,108,45,26,12,8,0.7,0.5
2025-04-10T2300,1933A,107.1431,34.3547,宝鸡市,监测站,颗粒物(PM10),79,107,139,45,64,60,,126,108,35,18,9,9,0.5,0.4
2025-04-10T2300,1934A,107.1186,34.3739,宝鸡市,技工学校,颗粒物(PM10),80,109,144,56,60,79,,124,113,20,15,12,9,0.6,0.5
2025-04-10T2300,1935A,107.3906,34.3528,宝鸡市,陈仓区环保局家属楼,颗粒物(PM10),85,119,134,56,46,53,,124,104,45,30,9,36,0.5,0.5
2025-04-10T2300,1936A,107.2058,34.3497,宝鸡市,文理学院,细颗粒物(PM2.5),99,123,136,74,63,69,,130,106,33,23,8,8,0.6,0.4
2025-04-10T2300,1937A,107.2386,34.3622,宝鸡市,三迪小学,颗粒物(PM10),83,116,137,48,56,53,,126,109,47,27,8,8,0.6,0.5
2025-04-10T2300,1051A,115.493,38.8632,保定市,游泳馆,细颗粒物(PM2.5),93,109,82,69,43,87,,141,126,35,30,8,6,0.3,0.3
2025-04-10T2300,1052A,115.5213,38.8959,保定市,华电二区,细颗粒物(PM2.5),80,105,68,59,49,80,,140,125,33,19,3,2,0.6,0.7
2025-04-10T2300,1053A,115.4713,38.9108,保定市,接待中心,颗粒物(PM10),72,94,77,48,30,88,,139,129,21,19,4,3,0.5,0.5
2025-04-10T2300,1054A,115.4612,38.8416,保定市,地表水厂,颗粒物(PM10),89,128,86,59,40,83,,141,125,42,31,6,5,0.7,0.6
2025-04-10T2300,3581A,115.31981,38.95208,保定市,满城区生态环境分局,细颗粒物(PM2.5),89,110,82,66,46,80,,131,120,30,24,7,4,0.6,0.4
2025-04-10T2300,3582A,115.47694,38.76408,保定市,清苑区第二中学,颗粒物(PM10),87,124,98,61,44,69,,139,115,49,30,8,7,0.5,0.4
2025-04-10T2300,3583A,115.62909,39.02311,保定市,徐水物探局,颗粒物(PM10),93,136,105,68,42,83,,137,122,31,31,13,10,0.5,0.4
2025-04-10T2300,4004A,115.4202,38.8656,保定市,双鹰农机,颗粒物(PM10),73,95,79,50,40,75,,130,117,34,30,6,6,0.5,0.4
2025-04-10T2300,4034A,115.5150,38.8590,保定市,植保所站,细颗粒物(PM2.5),97,114,79,72,45,65,,137,114,52,28,6,3,0.9,0.9
2025-04-10T2300,2594A,99.1678,25.1081,保山市,市环境监测站,颗粒物(PM10),55,59,79,37,50,116,,138,131,9,14,6,6,0.6,0.7
2025-04-10T2300,2595A,99.1711,25.1328,保山市,市环保局,细颗粒物(PM2.5),65,62,81,47,48,128,,145,139,7,11,6,6,0.6,0.7
2025-04-10T2300,1866A,109.2262,21.588,北海市,牛尾岭水库,,50,35,30,35,21,22,,72,60,17,17,5,6,0.7,0.6
2025-04-10T2300,1867A,109.1436,21.4086,北海市,海滩公园,,49,39,38,34,21,63,,96,87,14,17,7,6,0.6,0.6
2025-04-10T2300,1868A,109.0981,21.4661,北海市,新市环保局,,39,33,38,27,22,60,,85,78,14,14,4,4,0.6,0.5
2025-04-10T2300,1869A,109.1778,21.5233,北海市,北海工业园,颗粒物(PM10),53,56,46,29,29,37,,86,69,28,17,7,8,0.7,0.6
2025-04-10T2300,3400A,109.1911,21.4415,北海市,龙潭自来水厂,,45,35,39,31,28,60,,100,88,14,14,6,7,0.5,0.5
2025-04-10T2300,1001A,116.3621,39.8784,北京市,万寿西宫,颗粒物(PM10),84,118,106,54,52,106,,152,145,40,46,9,8,0.8,0.7
2025-04-10T2300,1002A,116.2202,40.2915,北京市,定陵,,,,,,,,,,,,,,,,
2025-04-10T2300,1003A,116.4174,39.9289,北京市,东四,颗粒物(PM10),97,144,114,64,55,114,,142,137,24,39,9,8,0.7,0.7
2025-04-10T2300,1004A,116.4072,39.8863,北京市,天坛,颗粒物(PM10),84,118,96,55,55,99,,134,127,27,38,3,3,0.8,0.7
2025-04-10T2300,1005A,116.462,39.9365,北京市,农展馆,颗粒物(PM10),89,128,104,55,50,128,,148,146,22,36,9,8,0.9,0.9
2025-04-10T2300,1006A,116.3392,39.9295,北京市,官园,颗粒物(PM10),85,120,104,56,46,104,,134,131,22,40,8,7,0.6,0.6
2025-04-10T2300,1007A,116.2878,39.9611,北京市,海淀万柳,颗粒物(PM10),85,119,100,48,41,90,,123,118,30,42,6,6,0.6,0.7
2025-04-10T2300,1008A,116.6636,40.135,北京市,顺义新城,颗粒物(PM10),90,130,109,59,54,121,,151,145,26,38,10,9,0.6,0.7
2025-04-10T2300,1009A,116.6275,40.3275,北京市,怀柔镇,颗粒物(PM10),73,95,71,39,35,65,,127,115,45,24,4,5,0.7,0.5
2025-04-10T2300,1010A,116.2296,40.217,北京市,昌平镇,颗粒物(PM10),73,96,80,36,31,94,,135,129,28,32,2,3,0.5,0.5
2025-04-10T2300,1011A,116.3966,39.9821,北京市,奥体中心,颗粒物(PM10),81,111,100,57,51,124,,148,146,25,51,5,4,0.8,0.9
2025-04-10T2300,3281A,115.9718,40.4529,北京市,延庆夏都,颗粒物(PM10),72,93,53,38,25,107,,130,128,25,22,7,7,0.6,0.4
2025-04-10T2300,3418A,116.8336,40.4095,北京市,密云新城,颗粒物(PM10),85,120,74,46,32,127,,129,128,17,22,7,5,0.6,0.4
2025-04-10T2300,3671A,116.088,39.9726,北京市,门头沟三家店,颗粒物(PM10),105,160,116,55,40,65,,111,104,46,40,5,5,0.6,0.5
2025-04-10T2300,3672A,116.1541,39.8204,北京市,丰台云岗,颗粒物(PM10),90,130,110,55,45,68,,139,128,53,52,9,9,0.6,0.6
2025-04-10T2300,3673A,116.6804,39.9081,北京市,通州东关,颗粒物(PM10),88,125,119,58,59,114,,136,132,27,46,11,8,0.7,0.8
2025-04-10T2300,3674A,115.9577,39.7603,北京市,房山燕山,,,105,82,,60,92,,129,124,28,26,6,6,0.6,0.4
2025-04-10T2300,3675A,116.4672,39.7733,北京市,大兴旧宫,颗粒物(PM10),81,111,99,55,46,105,,144,135,26,35,7,6,0.7,0.6
2025-04-10T2300,3694A,115.986,40.4563,北京市,延庆石河营,颗粒物(PM10),72,94,52,41,24,121,,128,128,16,21,5,5,0.5,0.4
2025-04-10T2300,3695A,116.6151,40.3053,北京市,怀柔新城,颗粒物(PM10),67,83,70,32,36,81,,125,116,24,16,2,4,0.7,0.6
2025-04-10T2300,3696A,116.2545,39.8768,北京市,丰台小屯,颗粒物(PM10),91,132,103,56,42,76,,127,119,39,50,3,3,0.5,0.5
2025-04-10T2300,3697A,116.84,40.3844,北京市,密云镇,颗粒物(PM10),84,117,73,46,33,136,,138,137,14,27,8,6,0.6,0.5
2025-04-10T2300,4182A,116.1942,39.9158,北京市,八角北路9号,颗粒物(PM10),91,131,112,60,53,85,,131,122,32,49,5,5,0.6,0.6
2025-04-10T2300,4194A,117.0790,40.1518,北京市,洳河巡河路,颗粒物(PM10),76,101,77,46,45,110,,147,136,22,24,5,4,0.5,0.5
2025-04-10T2300,1761A,123.8275,41.3064,本溪市,大峪,,,,,,,,,,,,,,,,
2025-04-10T2300,1762A,123.7567,41.3325,本溪市,溪湖,颗粒物(PM10),57,63,76,38,48,107,,136,126,22,28,12,12,0.7,1.2
2025-04-10T2300,1763A,123.7169,41.3094,本溪市,彩屯,颗粒物(PM10),69,87,122,45,49,95,,144,124,38,29,20,14,2.6,1.8
2025-04-10T2300,1764A,123.7669,41.2864,本溪市,东明,,40,40,58,24,26,117,,124,119,16,29,8,10,0.6,1.1
2025-04-10T2300,1765A,123.7992,41.2664,本溪市,新立屯,,49,40,46,34,34,122,,129,124,18,31,7,7,0.6,0.7
2025-04-10T2300,1766A,123.8142,41.3472,本溪市,威宁,细颗粒物(PM2.5),95,94,77,71,43,89,,127,106,10,21,5,6,1.1,1.1
2025-04-10T2300,2587A,105.2864,27.3125,毕节市,八中,细颗粒物(PM2.5),70,63,76,51,60,102,,127,117,12,14,7,10,0.8,0.8
2025-04-10T2300,2588A,105.31,27.2944,毕节市,师专,细颗粒物(PM2.5),67,66,87,48,64,110,,138,128,13,22,8,13,0.7,0.8
2025-04-10T2300,4263A,105.3688,27.3598,毕节市,工业大道,细颗粒物(PM2.5),65,63,99,47,66,105,,129,122,12,22,9,11,0.8,0.9
2025-04-10T2300,1629A,118.0018,37.3617,滨州市,第二水厂,颗粒物(PM10),67,83,100,36,51,61,,156,127,47,36,11,13,0.7,0.8
2025-04-10T2300,1630A,117.9776,37.393,滨州市,北中新校,颗粒物(PM10),65,80,92,36,52,74,,159,130,44,37,18,12,0.6,0.8
2025-04-10T2300,3514A,117.9378,37.3956,滨州市,中海酒店,细颗粒物(PM2.5),64,63,72,46,54,75,,162,140,37,24,10,11,0.8,0.8
2025-04-10T2300,3515A,117.9378,37.3553,滨州市,开发区一中,颗粒物(PM10),67,83,91,41,56,68,,152,128,46,40,15,16,0.4,0.4
2025-04-10T2300,3516A,118.0917,37.694,滨州市,金海六路,颗粒物(PM10),61,71,71,29,42,86,,148,118,28,31,9,10,0.5,0.5
2025-04-10T2300,4028A,117.9956,37.3753,滨州市,滨州市西街道办事处,颗粒物(PM10),69,88,71,44,41,62,,172,138,47,25,10,9,0.6,0.5
2025-04-10T2300,2311A,115.8072,33.8399,亳州市,污水处理厂,颗粒物(PM10),86,121,140,57,82,108,,162,141,14,18,6,7,0.7,0.8
2025-04-10T2300,2312A,115.7789,33.8518,亳州市,三国揽胜宫,细颗粒物(PM2.5),92,110,117,68,78,112,,158,137,17,22,6,7,0.6,0.7
2025-04-10T2300,3332A,115.7633,33.8034,亳州市,亳州学院,颗粒物(PM10),98,146,151,65,68,117,,164,144,12,13,8,9,0.7,0.8
2025-04-10T2300,2693A,82.0485,44.8556,博尔塔拉蒙古自治州,市党校,颗粒物(PM10),55,59,67,19,13,102,,122,120,34,22,3,1,0.3,0.3
2025-04-10T2300,2694A,82.0806,44.8969,博尔塔拉蒙古自治州,市环保局,颗粒物(PM10),68,85,75,15,14,103,,129,125,17,14,4,2,0.2,0.3
2025-04-10T2300,1071A,116.8842,38.2991,沧州市,沧县城建局,颗粒物(PM10),79,108,76,54,46,107,,133,122,27,21,5,5,0.4,0.3
2025-04-10T2300,1072A,116.8584,38.3254,沧州市,电视转播站,细颗粒物(PM2.5),92,102,81,68,54,99,,142,130,27,19,6,3,0.4,0.3
2025-04-10T2300,1073A,116.8709,38.3228,沧州市,市环保局,细颗粒物(PM2.5),82,97,76,60,52,103,,143,130,26,20,5,5,0.5,0.4
2025-04-10T2300,3324A,116.8136,38.3004,沧州市,河北水利电力学院,颗粒物(PM10),82,114,81,57,49,97,,137,124,32,25,10,9,0.4,0.3
2025-04-10T2300,2622A,97.1806,31.1273,昌都市,昌都监测站,,38,9,13,6,7,120,,124,124,1,5,1,2,0.3,0.3
2025-04-10T2300,3719A,97.1714,31.1406,昌都市,昌都会议中心,,37,,11,9,11,118,,119,118,3,5,3,3,0.3,0.2
2025-04-10T2300,2690A,88.1236,43.8886,昌吉回族自治州,天山天池,,17,17,18,9,5,30,,78,57,5,5,4,4,0.5,0.5
2025-04-10T2300,2692A,87.2717,44.0297,昌吉回族自治州,新区政务中心,,28,28,24,14,9,83,,109,102,14,6,3,5,0.3,0.3
2025-04-10T2300,3613A,87.3095,44.0142,昌吉回族自治州,亚心广场,,27,27,25,9,6,75,,102,97,18,9,7,7,0.5,0.4
2025-04-10T2300,1119A,125.3325,43.9166,长春市,食品厂,细颗粒物(PM2.5),130,119,87,99,59,118,,146,128,26,25,11,10,0.7,0.7
2025-04-10T2300,1120A,125.2863,43.9027,长春市,客车厂,细颗粒物(PM2.5),142,115,84,108,61,110,,146,126,30,26,9,8,0.8,0.7
2025-04-10T2300,1121A,125.2841,43.8463,长春市,邮电学院,细颗粒物(PM2.5),124,113,87,94,61,116,,156,135,28,24,9,9,0.7,0.6
2025-04-10T2300,1122A,125.3716,43.8772,长春市,劳动公园,细颗粒物(PM2.5),113,95,76,85,56,122,,155,140,20,19,10,9,0.8,0.8
2025-04-10T2300,1123A,125.3297,43.8805,长春市,园林处,细颗粒物(PM2.5),114,113,79,86,55,121,,155,138,22,20,10,9,0.7,0.7
2025-04-10T2300,1124A,125.4605,43.79,长春市,净月潭,细颗粒物(PM2.5),155,160,85,118,61,102,,146,124,26,19,10,8,0.8,0.6
2025-04-10T2300,1125A,125.7194,43.515,长春市,甩湾子,,,,,,,,,,,,,,,,
2025-04-10T2300,1126A,125.3863,43.8447,长春市,经开区环卫处,细颗粒物(PM2.5),109,124,91,82,58,90,,146,120,30,24,8,8,0.7,0.7
2025-04-10T2300,1127A,125.245,43.7783,长春市,高新区管委会,细颗粒物(PM2.5),119,99,80,90,64,92,,150,119,32,24,9,10,0.7,0.7
2025-04-10T2300,1128A,125.1761,43.8325,长春市,岱山公园,细颗粒物(PM2.5),152,162,90,116,70,96,,158,115,48,33,9,8,0.8,0.7
2025-04-10T2300,1335A,113.0833,28.2325,长沙市,经开区环保局,颗粒物(PM10),74,98,53,49,35,33,,146,116,74,20,13,7,1.0,0.6
2025-04-10T2300,1336A,112.8872,28.2189,长沙市,高开区环保局,细颗粒物(PM2.5),99,128,65,74,48,28,,156,125,72,21,5,5,1.6,1
2025-04-10T2300,1337A,113.0792,28.2053,长沙市,马坡岭,颗粒物(PM10),88,126,59,63,38,15,,143,101,93,25,4,4,0.8,0.6
2025-04-10T2300,1338A,112.9394,28.19,长沙市,湖南师范大学,,,52,58,51,39,,,145,132,17,17,5,5,0.8,0.8
2025-04-10T2300,1339A,113.0178,28.1322,长沙市,雨花区环保局,细颗粒物(PM2.5),95,90,55,71,39,25,,141,123,79,19,4,4,0.9,0.6
2025-04-10T2300,1340A,112.9792,28.2597,长沙市,伍家岭,细颗粒物(PM2.5),130,148,68,99,43,8,,147,105,87,30,3,3,1.3,0.9
2025-04-10T2300,1341A,113.0014,28.1944,长沙市,火车新站,细颗粒物(PM2.5),94,126,64,70,39,11,,143,106,107,28,7,7,1.4,0.8
2025-04-10T2300,1342A,112.9844,28.1178,长沙市,天心区环保局,细颗粒物(PM2.5),90,100,57,67,42,50,,149,128,68,21,4,4,1.1,0.7
2025-04-10T2300,1343A,112.8908,28.1308,长沙市,湖南中医药大学,细颗粒物(PM2.5),100,112,65,75,47,4,,145,89,84,33,3,3,1.2,0.9
2025-04-10T2300,1344A,112.9581,28.3611,长沙市,沙坪,颗粒物(PM10),72,93,115,38,33,73,,118,105,14,10,5,5,0.9,0.8
2025-04-10T2300,1727A,113.1147,36.1547,长治市,清华站,颗粒物(PM10),56,61,60,29,21,116,,117,108,15,24,9,8,0.9,0.8
2025-04-10T2300,1730A,113.0886,36.2125,长治市,审计局,颗粒物(PM10),55,60,50,31,24,118,,117,107,22,33,11,12,0.3,0.3
2025-04-10T2300,1731A,113.0844,36.1856,长治市,长治八中,颗粒物(PM10),64,77,63,35,45,123,,119,106,19,30,12,13,0.6,0.6
2025-04-10T2300,2845A,113.1569,36.1911,长治市,德盛苑,颗粒物(PM10),56,62,43,29,18,109,,117,110,17,15,7,8,0.5,0.6
2025-04-10T2300,3568A,113.06,36.0464,长治市,向阳小学,颗粒物(PM10),61,72,67,37,24,137,,125,120,13,22,14,13,0.5,0.5
2025-04-10T2300,3569A,112.8792,36.3144,长治市,屯留一中,,50,50,42,16,11,54,,113,94,35,27,10,9,0.4,0.3
2025-04-10T2300,4189A,113.1131,36.19948,长治市,英华南巷50号,颗粒物(PM10),60,69,62,27,24,115,,120,102,23,30,9,9,0.7,0.7
2025-04-10T2300,4190A,113.2367,36.3344,长治市,学府街1号,颗粒物(PM10),66,82,92,31,34,28,,129,88,73,42,10,8,0.9,1
2025-04-10T2300,1854A,111.6975,28.9703,常德市,市二中,细颗粒物(PM2.5),75,,41,55,38,74,,105,93,24,17,15,9,1.0,1
2025-04-10T2300,1857A,111.7158,29.1456,常德市,白鹤山,,,,,,,,,,,,,,,,
2025-04-10T2300,3138A,111.7153,29.0289,常德市,武陵区永安,细颗粒物(PM2.5),65,63,57,47,39,92,,120,107,13,13,4,4,0.9,0.9
2025-04-10T2300,3139A,111.6892,28.9881,常德市,鼎城区玉霞,细颗粒物(PM2.5),80,95,48,59,35,62,,116,99,17,13,7,6,1.0,0.9
2025-04-10T2300,3140A,111.6625,29.0531,常德市,武陵区长庚,细颗粒物(PM2.5),69,66,58,50,42,90,,128,113,14,9,9,7,1.0,0.9
2025-04-10T2300,1196A,119.9633,31.762,常州市,市监测站,颗粒物(PM10),67,84,182,46,89,60,,178,122,66,72,13,15,1.2,1.5
2025-04-10T2300,1200A,119.9468,31.7069,常州市,武进监测站,颗粒物(PM10),73,95,165,44,68,86,,192,136,46,69,12,18,0.4,1
2025-04-10T2300,1201A,119.9255,31.9087,常州市,安家,颗粒物(PM10),78,105,179,53,80,62,,172,113,38,55,10,14,0.3,0.8
2025-04-10T2300,3002A,119.9805,31.8174,常州市,行政中心,细颗粒物(PM2.5),70,72,148,51,85,69,,167,116,47,59,19,24,0.6,1.2
2025-04-10T2300,3003A,120.0522,31.7748,常州市,经开区,颗粒物(PM10),75,99,131,52,80,64,,141,105,55,69,12,17,0.7,1.2
2025-04-10T2300,3010A,119.9025,31.7964,常州市,钟楼,细颗粒物(PM2.5),70,86,170,51,85,65,,165,122,54,61,12,13,1.1,1.3
2025-04-10T2300,3429A,119.8598,31.7066,常州市,武进经发区,颗粒物(PM10),75,100,146,49,74,90,,195,142,42,70,10,14,0.8,1.3
2025-04-10T2300,3430A,119.5826,31.7245,常州市,金坛城区,,48,,70,33,49,100,,206,160,30,33,10,12,0.8,1
2025-04-10T2300,2220A,120.4318,41.5881,朝阳市,西梁,颗粒物(PM10),71,91,52,50,29,123,,120,120,24,20,24,15,1.5,0.7
2025-04-10T2300,2221A,120.4521,41.5646,朝阳市,河畔小区,"颗粒物(PM10),细颗粒物(PM2.5)",58,66,43,41,25,134,,130,130,18,14,11,9,0.7,0.6
2025-04-10T2300,2222A,120.4176,41.5648,朝阳市,八里堡,颗粒物(PM10),65,79,51,40,30,130,,120,120,19,21,13,15,1.1,0.9
2025-04-10T2300,2223A,120.3806,41.5969,朝阳市,农业园区,颗粒物(PM10),67,84,59,44,34,138,,133,133,11,20,11,11,0.7,0.7
2025-04-10T2300,1705A,116.6367,23.6719,潮州市,西园路,,,,,,,,,,,,,,,,
2025-04-10T2300,3026A,116.6183,23.6608,潮州市,市政府,颗粒物(PM10),55,60,56,36,28,31,,106,71,30,24,15,10,1.0,1
2025-04-10T2300,4036A,116.6461,23.6761,潮州市,金山,细颗粒物(PM2.5),64,52,49,46,30,30,,115,76,32,24,18,10,0.7,0.7
2025-04-10T2300,2472A,113.0073,25.9061,郴州市,马头岭,,43,43,30,22,11,50,,83,69,18,14,8,8,0.9,0.9
2025-04-10T2300,2473A,113.0116,25.8226,郴州市,市职中,细颗粒物(PM2.5),57,61,35,40,23,2,,100,58,35,15,4,5,0.8,0.7
2025-04-10T2300,2475A,113.0383,25.8071,郴州市,市审计局,颗粒物(PM10),54,58,25,31,17,52,,104,75,16,12,2,2,0.6,0.6
2025-04-10T2300,2476A,113.0348,25.7759,郴州市,市环保局,,44,44,31,28,17,42,,94,70,16,11,4,4,0.6,0.6
2025-04-10T2300,4252A,113.0138,25.8011,郴州市,好美居路49号,颗粒物(PM10),55,59,28,33,20,22,,101,65,36,17,2,4,1.0,0.8
2025-04-10T2300,1431A,103.9728,30.7236,成都市,金泉两河,细颗粒物(PM2.5),72,90,85,52,33,77,,192,164,34,28,3,4,1.1,1
2025-04-10T2300,1432A,104.176,30.6872,成都市,十里店,颗粒物(PM10),94,138,102,59,36,92,,172,149,38,31,4,4,1.0,0.7
2025-04-10T2300,1433A,104.079,30.5706,成都市,三瓦窑,颗粒物(PM10),78,106,86,56,39,106,,169,152,42,49,5,5,0.8,0.7
2025-04-10T2300,1434A,104.1114,30.63,成都市,沙河铺,颗粒物(PM10),74,98,83,53,43,76,,150,119,44,38,6,6,1.0,0.9
2025-04-10T2300,1437A,104.0786,30.6531,成都市,君平街,细颗粒物(PM2.5),74,94,83,54,42,100,,166,149,40,40,7,8,0.9,0.9
2025-04-10T2300,1438A,103.613,31.0283,成都市,灵岩寺,,,,,,,,,,,,,,,,
2025-04-10T2300,2880A,104.0239,30.65639,成都市,大石西路,细颗粒物(PM2.5),73,94,86,53,43,84,,173,148,35,42,5,5,0.8,0.8
2025-04-10T2300,3136A,104.2725,30.5589,成都市,龙泉驿区区政府,颗粒物(PM10),58,66,71,34,29,96,,142,128,15,20,4,5,0.7,0.7
2025-04-10T2300,3357A,104.0106,30.6931,成都市,金博路,,,109,80,53,35,,,178,161,53,48,8,8,0.8,0.7
2025-04-10T2300,3359A,104.0578,30.5225,成都市,华阳,细颗粒物(PM2.5),73,92,79,53,51,104,,168,150,43,42,6,6,1.3,1.2
2025-04-10T2300,3488A,104.3853,30.7453,成都市,青白江技师分院,细颗粒物(PM2.5),92,127,73,68,31,38,,172,134,83,42,7,8,0.7,0.5
2025-04-10T2300,3489A,104.0789,30.4072,成都市,科学城,颗粒物(PM10),69,87,75,44,44,62,,160,131,48,27,5,5,0.9,0.8
2025-04-10T2300,4011A,103.8506,30.6947,成都市,光华大道三段,颗粒物(PM10),72,94,83,47,40,108,,194,169,28,28,2,3,0.9,0.8
2025-04-10T2300,4224A,104.2433,30.5353,成都市,鲸龙路1057号,颗粒物(PM10),71,91,84,47,40,70,,167,138,54,34,5,5,0.9,1
2025-04-10T2300,1062A,117.9531,40.9081,承德市,铁路,颗粒物(PM10),70,90,47,42,19,118,,128,128,29,22,8,8,0.3,0.3
2025-04-10T2300,1063A,117.9392,40.9763,承德市,中国银行,颗粒物(PM10),68,86,50,31,19,143,,136,136,13,16,4,5,0.3,0.4
2025-04-10T2300,1064A,117.9503,40.928,承德市,开发区,颗粒物(PM10),60,69,45,29,21,136,,135,135,17,20,9,9,0.4,0.4
2025-04-10T2300,1065A,117.8051,40.9655,承德市,文化中心,颗粒物(PM10),70,89,57,37,24,68,,135,129,50,22,5,10,0.4,0.5
2025-04-10T2300,1066A,117.9268,41.0026,承德市,离宫,细颗粒物(PM2.5),68,69,44,49,27,78,,69,69,10,14,30,26,0.4,0.4
2025-04-10T2300,2314A,117.47,30.6618,池州市,池州学院,颗粒物(PM10),63,76,65,39,32,85,,140,119,22,16,6,8,0.7,0.5
2025-04-10T2300,3237A,117.4918,30.6617,池州市,展览馆,颗粒物(PM10),62,74,63,34,29,87,,136,105,22,17,6,6,0.9,0.7
2025-04-10T2300,3333A,117.5627,30.695,池州市,第八中学,颗粒物(PM10),71,92,67,44,30,70,,142,128,32,19,5,9,0.6,0.5
2025-04-10T2300,3334A,117.5038,30.6243,池州市,第十二中学,颗粒物(PM10),60,69,66,36,32,84,,143,110,21,17,10,6,1.0,0.6
2025-04-10T2300,1744A,118.9233,42.2816,赤峰市,松山一中,,47,47,38,15,14,117,,103,103,16,31,9,9,0.5,0.5
2025-04-10T2300,1745A,118.9576,42.2728,赤峰市,哈达街,细颗粒物(PM2.5),55,,36,39,16,105,,102,97,16,26,15,10,0.5,0.5
2025-04-10T2300,1746A,118.8788,42.2554,赤峰市,天义路,,38,36,28,22,18,121,,106,106,14,20,7,7,0.4,0.4
2025-04-10T2300,3058A,119.2658,42.0353,赤峰市,银河街,颗粒物(PM10),68,86,68,35,35,109,,99,97,16,22,14,24,0.5,0.6
2025-04-10T2300,3286A,118.9359,42.3147,赤峰市,桥北物流园区,,42,37,41,29,27,112,,94,94,13,31,8,11,0.6,0.6
2025-04-10T2300,2521A,107.3476,22.4136,崇左市,市环保局江州分局,,30,28,42,21,29,72,,119,109,8,7,5,7,0.7,0.7
2025-04-10T2300,4256A,107.3750,22.3736,崇左市,石景林东路7号,,25,,44,17,32,73,,124,111,11,8,4,6,0.7,0.7
2025-04-10T2300,2298A,118.3093,32.3153,滁州市,老年大学,细颗粒物(PM2.5),97,107,91,72,60,71,,167,137,29,20,7,7,0.7,0.5
2025-04-10T2300,2299A,118.3244,32.2786,滁州市,人大宾馆,细颗粒物(PM2.5),97,118,102,72,58,85,,165,134,48,34,13,10,0.9,0.6
2025-04-10T2300,3207A,118.3118,32.3038,滁州市,市政府原办公楼,细颗粒物(PM2.5),103,108,94,77,61,80,,166,136,38,16,7,5,0.9,0.6
2025-04-10T2300,3331A,118.3267,32.2634,滁州市,图书馆,细颗粒物(PM2.5),102,133,105,76,58,85,,160,136,34,21,11,10,1.0,0.6
2025-04-10T2300,2605A,101.5482,25.0441,楚雄彝族自治州,州环境监测站,细颗粒物(PM2.5),54,47,58,38,47,144,,145,145,7,16,7,9,0.6,0.6
2025-04-10T2300,2606A,101.538,25.0492,楚雄彝族自治州,市经济开发区,细颗粒物(PM2.5),59,58,59,42,46,139,,143,142,8,18,8,8,0.7,0.7
2025-04-10T2300,2548A,107.5277,31.2827,达州市,达州职业技术学院,颗粒物(PM10),59,68,56,37,22,35,,127,78,37,27,7,8,0.6,0.3
2025-04-10T2300,2549A,107.5086,31.2186,达州市,市环境监测站,颗粒物(PM10),65,79,61,34,22,37,,135,92,55,36,6,6,0.8,0.6
2025-04-10T2300,2550A,107.4988,31.2132,达州市,凤凰小区,"颗粒物(PM10),细颗粒物(PM2.5)",62,73,57,44,23,40,,138,92,56,34,9,9,0.7,0.5
2025-04-10T2300,2551A,107.5082,31.1986,达州市,达县机关宾馆,颗粒物(PM10),67,83,60,38,24,6,,132,63,79,46,7,7,0.6,0.5
2025-04-10T2300,2552A,107.4644,31.2124,达州市,市政中心,颗粒物(PM10),65,80,64,34,22,11,,139,81,78,40,4,4,0.8,0.6
2025-04-10T2300,2614A,100.1542,25.7054,大理白族自治州,大理市环境监测站,,,51,45,31,27,,,138,,9,9,7,7,0.1,0.4
2025-04-10T2300,2615A,100.2171,25.5811,大理白族自治州,大理古城,,49,39,45,34,32,128,,130,128,5,10,8,7,0.6,0.7
2025-04-10T2300,1109A,121.612,38.9741,大连市,甘井子,细颗粒物(PM2.5),52,48,57,36,41,91,,116,101,40,37,6,6,0.5,0.7
2025-04-10T2300,1110A,121.565,38.9511,大连市,周水子,,48,46,60,33,45,83,,103,88,35,40,10,10,0.4,0.4
2025-04-10T2300,1111A,121.5637,38.8845,大连市,星海三站,,45,40,59,31,46,82,,96,72,23,27,8,8,0.6,0.5
2025-04-10T2300,1112A,121.6302,38.9117,大连市,青泥洼桥,,43,43,46,30,33,98,,128,113,29,26,10,9,0.4,0.5
2025-04-10T2300,1113A,121.6251,38.8638,大连市,傅家庄,,39,39,48,27,37,81,,79,78,37,36,8,8,0.3,0.3
2025-04-10T2300,1114A,121.5213,38.8661,大连市,七贤岭,,45,45,53,30,36,65,,110,80,41,27,6,6,0.4,0.5
2025-04-10T2300,1115A,121.2529,38.8061,大连市,旅顺,,42,32,50,29,45,78,,92,87,35,30,7,7,0.5,0.5
2025-04-10T2300,1116A,121.7485,39.1311,大连市,金州,,40,40,49,28,38,127,,124,124,22,26,7,9,0.4,0.6
2025-04-10T2300,1117A,121.7811,39.0496,大连市,开发区,,44,44,54,30,37,76,,106,92,37,30,10,10,0.8,0.8
2025-04-10T2300,1118A,121.9762,39.0631,大连市,双D港,,40,40,46,28,38,94,,98,68,24,31,20,16,0.4,0.7
2025-04-10T2300,1789A,124.81117,46.03138,大庆市,大同区,细颗粒物(PM2.5),273,281,93,223,63,50,,118,93,60,18,18,8,1.2,0.6
2025-04-10T2300,1790A,125.129,46.533,大庆市,龙凤区,细颗粒物(PM2.5),222,200,133,172,92,63,,146,126,45,27,12,9,1.1,0.9
2025-04-10T2300,1791A,124.902,46.408,大庆市,红岗区,细颗粒物(PM2.5),238,209,103,188,87,62,,151,128,39,19,15,9,1.1,0.7
2025-04-10T2300,1792A,125.153,46.586,大庆市,萨尔图区,细颗粒物(PM2.5),247,219,151,197,122,59,,160,134,53,30,17,12,1.0,0.9
2025-04-10T2300,1793A,124.9042,46.6215,大庆市,让胡路区,细颗粒物(PM2.5),182,155,150,137,129,68,,165,125,38,28,12,9,0.8,0.7
2025-04-10T2300,3481A,125.141,46.634,大庆市,萨区政府监测点,细颗粒物(PM2.5),199,186,162,149,114,54,,150,130,42,26,16,10,0.9,0.8
2025-04-10T2300,1721A,113.3819,40.1097,大同市,果树场,,46,46,50,24,26,10,,91,62,48,28,10,12,0.6,0.7
2025-04-10T2300,1723A,113.2994,40.0758,大同市,云冈宾馆,颗粒物(PM10),58,65,49,21,25,70,,101,88,40,36,18,13,0.2,0.5
2025-04-10T2300,1724A,113.3444,40.0917,大同市,大同大学,颗粒物(PM10),62,74,52,27,27,60,,98,87,38,29,23,18,0.5,0.7
2025-04-10T2300,1725A,113.2661,40.1269,大同市,安家小村,颗粒物(PM10),79,107,63,22,28,78,,95,84,23,29,19,16,0.4,1
2025-04-10T2300,1726A,113.2711,40.0844,大同市,教育学院,颗粒物(PM10),64,78,61,23,29,61,,98,84,42,36,18,13,0.5,0.8
2025-04-10T2300,3282A,113.3397,40.0597,大同市,大同市卫生学校,颗粒物(PM10),68,86,57,40,29,35,,95,77,64,37,19,12,0.7,0.7
2025-04-10T2300,3565A,113.1367,40.1122,大同市,云冈站,,47,47,44,27,20,76,,98,85,16,25,12,14,0.4,0.5
2025-04-10T2300,3566A,113.1186,40.2556,大同市,图书馆,,46,46,32,18,20,55,,91,70,16,14,14,12,0.4,0.5
2025-04-10T2300,3567A,113.5931,40.0461,大同市,区一中,,38,38,59,14,24,50,,103,83,22,22,19,18,0.4,0.5
2025-04-10T2300,4199A,113.2798,40.0997,大同市,魏都大道141号,颗粒物(PM10),74,98,74,29,30,70,,101,88,40,36,23,16,0.4,0.9
2025-04-10T2300,2269A,124.1069,50.4097,大兴安岭地区,科技局,,25,25,23,17,18,57,,94,81,4,4,2,5,0.2,0.3
2025-04-10T2300,3663A,124.1164,50.4278,大兴安岭地区,红旗社区,,20,17,9,14,7,42,,91,75,10,3,5,4,0.4,0.3
2025-04-10T2300,1600A,124.3303,40.0625,丹东市,江湾东路,细颗粒物(PM2.5),87,76,48,64,38,53,,112,94,28,17,8,9,0.8,0.6
2025-04-10T2300,1601A,124.4256,40.1503,丹东市,临江后街,细颗粒物(PM2.5),72,70,42,52,31,75,,106,92,20,13,7,6,1.5,0.7
2025-04-10T2300,1602A,124.3933,40.1461,丹东市,元宝山,细颗粒物(PM2.5),55,54,40,39,29,77,,103,93,18,15,7,7,0.8,0.5
2025-04-10T2300,1603A,124.3633,40.1092,丹东市,民主桥,细颗粒物(PM2.5),55,48,42,39,31,85,,111,102,14,14,8,8,0.9,0.8
2025-04-10T2300,3541A,109.5726,19.5167,儋州市,第一中学子站,,43,43,38,27,23,74,,75,67,11,7,5,5,0.6,0.6
2025-04-10T2300,3542A,109.5567,19.5187,儋州市,东坡学校子站,,45,45,39,27,22,77,,82,73,10,7,5,5,0.6,0.5
2025-04-10T2300,2616A,98.5842,24.428,德宏傣族景颇族自治州,德宏州监测站,细颗粒物(PM2.5),78,78,100,57,76,66,,126,99,14,25,8,9,0.9,1
2025-04-10T2300,3677A,98.5881,24.4368,德宏傣族景颇族自治州,芒市人民政府综合楼,细颗粒物(PM2.5),72,78,122,52,74,71,,140,110,14,19,6,8,0.8,0.9
2025-04-10T2300,1901A,104.4239,31.1208,德阳市,东山公园,颗粒物(PM10),74,97,80,39,32,154,,176,174,15,16,7,5,0.6,0.5
2025-04-10T2300,1902A,104.3826,31.1317,德阳市,西小区,颗粒物(PM10),82,113,90,50,38,92,,172,155,51,27,7,5,0.9,0.7
2025-04-10T2300,1904A,104.3553,31.1091,德阳市,耐火材料厂,颗粒物(PM10),94,137,92,67,39,74,,186,167,64,31,8,7,0.7,0.5
2025-04-10T2300,3639A,104.4019,31.1244,德阳市,市教育局,颗粒物(PM10),74,98,76,52,37,104,,180,164,50,24,7,6,0.9,0.7
2025-04-10T2300,1622A,116.3032,37.4674,德州市,儿童乐园,颗粒物(PM10),103,156,101,70,53,126,,157,151,26,20,10,9,0.8,0.6
2025-04-10T2300,1624A,116.2991,37.4451,德州市,监理站,颗粒物(PM10),100,149,104,73,55,118,,153,146,28,26,14,12,0.7,0.5
2025-04-10T2300,3066A,116.2721,37.4379,德州市,九衢泉纯净水厂,颗粒物(PM10),97,144,104,56,50,117,,148,137,33,41,12,10,0.9,0.7
2025-04-10T2300,3371A,116.3728,37.4403,德州市,开发区人民医院,颗粒物(PM10),103,156,105,61,48,129,,162,154,26,30,10,10,0.8,0.7
2025-04-10T2300,3372A,116.3572,37.4094,德州市,太阳城中学,"颗粒物(PM10),细颗粒物(PM2.5)",104,158,107,78,58,108,,153,145,24,36,7,8,0.5,0.5
2025-04-10T2300,3511A,116.5652,37.3319,德州市,陵城艺术中心,颗粒物(PM10),89,127,101,61,62,120,,152,143,24,28,3,8,0.8,0.7
2025-04-10T2300,2621A,99.7056,27.8317,迪庆藏族自治州,迪庆州站,,36,36,49,24,26,111,,116,114,8,12,9,10,0.5,0.6
2025-04-10T2300,3180A,99.7136,27.8094,迪庆藏族自治州,质量技术监督局,,36,,38,25,23,107,,117,114,8,12,9,9,0.6,0.6
2025-04-10T2300,4257A,104.6092,35.5962,定西市,将台街,颗粒物(PM10),61,72,94,25,23,116,,125,122,7,19,6,6,0.3,0.5
2025-04-10T2300,4309A,104.6159,35.5701,定西市,正龙路62号,颗粒物(PM10),60,69,96,22,31,115,,124,119,5,10,9,11,0.3,0.3
2025-04-10T2300,1389A,113.7547,23.0494,东莞市,莞城梨川,,40,40,40,22,25,44,,129,89,22,19,5,5,0.6,0.6
2025-04-10T2300,1390A,113.7944,23.0128,东莞市,东城石井,,38,38,34,20,20,36,,128,90,28,19,6,6,0.7,0.6
2025-04-10T2300,1391A,113.7383,22.9658,东莞市,南城西平,,37,37,32,14,18,46,,117,83,22,16,6,6,0.6,0.6
2025-04-10T2300,3319A,113.7338,23.0381,东莞市,万江金泰,,35,35,38,18,21,33,,133,86,20,15,6,6,0.9,0.9
2025-04-10T2300,3626A,113.7533,23.0202,东莞市,南城元岭,,32,32,34,17,19,40,,119,84,21,16,6,6,0.7,0.7
2025-04-10T2300,3627A,113.7875,23.0457,东莞市,东城主山,,38,38,38,19,17,35,,126,88,36,23,3,3,0.8,0.7
2025-04-10T2300,1666A,118.6614,37.4309,东营市,市环保局,颗粒物(PM10),54,58,59,19,29,98,,145,132,18,27,29,10,0.5,0.6
2025-04-10T2300,3036A,118.6904,37.4338,东营市,开发区管委会,颗粒物(PM10),66,82,65,27,34,103,,142,134,31,33,8,7,0.8,0.6
2025-04-10T2300,3365A,118.5719,37.565,东营市,垦利区民丰路,颗粒物(PM10),54,58,56,24,29,102,,145,132,31,29,11,7,1.0,0.9
2025-04-10T2300,3498A,118.5055,37.8612,东营市,河口城区,颗粒物(PM10),60,70,71,24,31,117,,170,149,23,27,8,8,1.0,0.9
2025-04-10T2300,3646A,118.4978,37.4623,东营市,胜利站,颗粒物(PM10),61,71,70,27,31,100,,144,128,26,30,11,10,0.9,0.8
2025-04-10T2300,3734A,118.35,37.26,东营市,理想之城,颗粒物(PM10),53,56,68,31,33,82,,146,121,35,38,9,10,0.6,0.6
2025-04-10T2300,1591A,110.0023,39.8129,鄂尔多斯市,综合楼,颗粒物(PM10),115,180,89,48,20,85,,108,101,21,24,4,7,0.1,0.3
2025-04-10T2300,1592A,109.9486,39.8261,鄂尔多斯市,巴音孟克林场办事处,颗粒物(PM10),109,168,73,41,20,76,,111,102,24,15,4,7,0.2,0.2
2025-04-10T2300,1593A,109.7736,39.5986,鄂尔多斯市,康泽苑,颗粒物(PM10),96,141,72,41,17,82,,110,103,10,15,4,5,0.3,0.3
2025-04-10T2300,1594A,109.8119,39.5989,鄂尔多斯市,华泰汽车城,颗粒物(PM10),93,136,77,46,20,80,,107,99,15,27,3,4,0.3,0.3
2025-04-10T2300,1595A,109.9734,39.7884,鄂尔多斯市,奥林花园,颗粒物(PM10),109,168,86,41,18,64,,110,92,34,40,7,9,0.3,0.4
2025-04-10T2300,2436A,114.8938,30.3994,鄂州市,市政府,颗粒物(PM10),72,93,78,47,37,104,,151,136,29,26,14,12,0.7,0.7
2025-04-10T2300,2437A,114.8989,30.3714,鄂州市,赵家坝,颗粒物(PM10),75,100,79,39,30,87,,122,115,29,31,10,8,1.1,1.1
2025-04-10T2300,3654A,114.8094,30.4089,鄂州市,精准医疗中心,颗粒物(PM10),73,96,69,48,31,124,,165,146,44,22,12,5,1.0,0.8
2025-04-10T2300,2454A,109.4978,30.2981,恩施土家族苗族自治州,湖北民院,,,73,40,49,29,48,,122,101,,25,6,6,0.5,0.4
2025-04-10T2300,2455A,109.4707,30.2798,恩施土家族苗族自治州,州电力总公司,"颗粒物(PM10),细颗粒物(PM2.5)",57,64,35,40,23,9,,108,85,58,14,5,5,0.2,0
2025-04-10T2300,3549A,109.5061,30.3772,恩施土家族苗族自治州,龙凤新区,细颗粒物(PM2.5),57,56,34,40,21,40,,116,81,17,11,6,6,0.6,0.4
2025-04-10T2300,2499A,108.3411,21.6158,防城港市,沙万,颗粒物(PM10),56,62,63,35,27,11,,35,29,37,34,3,4,0.9,0.6
2025-04-10T2300,2500A,108.3514,21.7731,防城港市,防城档案局,,33,33,44,22,29,49,,53,47,6,16,1,5,0.6,0.6
2025-04-10T2300,2501A,108.3506,21.6414,防城港市,大海花园,,46,42,48,32,24,21,,50,35,32,29,5,5,0.9,0.7
2025-04-10T2300,1371A,113.1294,23.0067,佛山市,湾梁,,31,31,38,15,20,50,,145,98,21,21,7,7,0.5,0.5
2025-04-10T2300,1372A,113.1083,23.0478,佛山市,华材职中,,33,27,37,23,22,48,,154,103,23,22,6,6,0.5,0.6
2025-04-10T2300,1373A,113.144,23.0453,佛山市,南海气象局,,35,29,47,24,28,47,,136,89,16,20,6,6,0.6,0.7
2025-04-10T2300,1374A,113.2881,22.8094,佛山市,顺德苏岗,颗粒物(PM10),54,58,43,24,21,31,,118,70,26,19,6,6,0.8,0.7
2025-04-10T2300,1376A,112.8383,22.8678,佛山市,高明孔堂,,39,39,31,19,21,48,,108,79,10,10,5,5,0.7,0.6
2025-04-10T2300,1377A,112.8836,23.1588,佛山市,三水监测站,,49,48,46,34,31,20,,125,70,45,36,5,3,0.5,0.6
2025-04-10T2300,1378A,112.867,23.185,佛山市,三水云东海,,44,44,47,22,29,32,,133,85,41,32,2,3,0.6,0.6
2025-04-10T2300,3625A,113.2544,22.7642,佛山市,容桂街道办,,39,36,35,27,25,26,,106,62,35,25,8,7,0.9,0.7
2025-04-10T2300,1280A,119.3903,26.0543,福州市,鼓山,,,,24,,20,,,102,,,8,,3,,0.5
2025-04-10T2300,1282A,119.2681,26.0504,福州市,师大,,48,39,32,33,30,100,,132,120,16,13,4,4,0.5,0.5
2025-04-10T2300,1283A,119.2984,26.1028,福州市,五四北路,,43,42,28,30,31,74,,121,109,29,20,5,4,0.8,0.7
2025-04-10T2300,1284A,119.2648,26.0768,福州市,杨桥西路,,47,47,37,28,29,89,,132,120,20,16,4,4,0.7,0.7
2025-04-10T2300,1285A,119.317,26.0746,福州市,紫阳,,49,46,33,34,34,55,,108,94,52,26,6,5,0.5,0.5
2025-04-10T2300,3048A,119.5799,26.0936,福州市,九龙,,45,40,28,31,26,40,,125,103,21,12,3,4,0.4,0.6
2025-04-10T2300,3526A,119.5189,25.9664,福州市,吴航,,29,28,35,20,27,46,,130,108,26,14,3,4,0.6,0.8
2025-04-10T2300,1755A,123.7977,41.8491,抚顺市,望花区,细颗粒物(PM2.5),204,201,112,154,76,62,,150,115,56,38,28,22,1.5,1.2
2025-04-10T2300,1756A,123.9161,41.8822,抚顺市,顺城区,细颗粒物(PM2.5),178,210,117,134,72,32,,155,115,76,41,15,14,1.6,1.3
2025-04-10T2300,1757A,124.0436,41.8611,抚顺市,东洲区,细颗粒物(PM2.5),200,220,129,150,85,61,,143,112,40,29,12,12,1.3,1.1
2025-04-10T2300,1758A,123.9247,41.8642,抚顺市,新抚区,细颗粒物(PM2.5),135,188,98,103,57,28,,144,106,74,36,11,11,1.4,1.2
2025-04-10T2300,1759A,124.0972,41.8961,抚顺市,大伙房水库,细颗粒物(PM2.5),208,166,95,158,77,88,,150,127,25,20,14,13,1.3,1
2025-04-10T2300,1760A,123.7086,41.8391,抚顺市,沈抚新城,细颗粒物(PM2.5),148,197,103,113,59,59,,156,127,60,36,19,16,1.4,1.1
2025-04-10T2300,2376A,116.2127,28.0814,抚州市,桐源党溪,,32,30,38,22,23,38,,103,70,2,3,6,6,0.6,0.7
2025-04-10T2300,2377A,116.3544,27.9831,抚州市,市站,颗粒物(PM10),53,56,34,29,19,54,,94,74,18,11,8,7,1.0,1.1
2025-04-10T2300,2378A,116.3565,27.963,抚州市,血防站,,49,49,37,29,20,58,,100,85,24,8,8,8,1.0,1.4
2025-04-10T2300,2379A,116.3564,28.0007,抚州市,采茶剧团,,45,45,31,31,20,53,,98,81,15,6,3,2,1.2,1.2
2025-04-10T2300,2380A,116.385,27.9647,抚州市,医学分院,,40,40,29,22,17,56,,97,83,18,8,11,5,0.9,0.5
2025-04-10T2300,2207A,121.6094,41.998,阜新市,工业园区,颗粒物(PM10),80,110,76,46,34,120,,131,127,22,20,18,16,0.9,0.7
2025-04-10T2300,2208A,121.6697,42.0279,阜新市,长青街,细颗粒物(PM2.5),98,110,73,73,46,125,,129,128,26,21,20,17,1.0,0.7
2025-04-10T2300,2209A,121.6673,42.0705,阜新市,农业园区,细颗粒物(PM2.5),100,116,71,75,43,129,,134,133,16,14,16,15,1.0,0.7
2025-04-10T2300,2210A,121.6717,42.0224,阜新市,东苑,细颗粒物(PM2.5),108,104,68,81,46,120,,122,121,33,24,26,20,0.9,0.7
2025-04-10T2300,2211A,121.6506,42.0498,阜新市,玉龙新城,细颗粒物(PM2.5),114,131,71,86,49,121,,131,128,22,22,18,15,1.2,0.7
2025-04-10T2300,2301A,115.8277,32.8929,阜阳市,市监测站,颗粒物(PM10),95,139,124,56,58,76,,152,117,30,25,10,9,0.5,0.4
2025-04-10T2300,2303A,115.8554,32.8605,阜阳市,开发区,颗粒物(PM10),114,178,151,51,46,69,,153,116,36,24,8,8,0.5,0.5
2025-04-10T2300,2875A,115.784,32.8892,阜阳市,阜阳职业技术学院,颗粒物(PM10),98,145,135,58,51,86,,162,123,27,26,9,9,0.5,0.5
2025-04-10T2300,3468A,115.7901,32.8613,阜阳市,市规划展馆,颗粒物(PM10),96,142,136,55,51,86,,160,128,27,20,9,11,0.7,0.6
2025-04-10T2300,3469A,115.836,32.9183,阜阳市,枣园社区,颗粒物(PM10),97,144,144,55,57,92,,159,120,28,31,8,9,0.7,0.6
2025-04-10T2300,2669A,102.9099,34.9841,甘南藏族自治州,州政府,颗粒物(PM10),55,59,97,28,33,93,,103,99,1,20,10,9,0.3,0.4
2025-04-10T2300,3380A,102.8914,34.9617,甘南藏族自治州,甘肃民族师范学院,颗粒物(PM10),61,71,108,42,28,87,,111,106,19,26,9,8,0.5,0.5
2025-04-10T2300,2570A,101.9603,30.0475,甘孜藏族自治州,水桥子,,37,37,37,24,16,100,,115,111,14,25,4,4,0.1,0.2
2025-04-10T2300,3065A,101.9533,29.9972,甘孜藏族自治州,州环保局,,40,40,42,23,12,75,,115,101,24,16,4,4,0.5,0.4
2025-04-10T2300,3414A,115.8347,28.932,赣江新区,桑海产业园,,39,39,45,23,26,73,,144,95,39,24,6,5,0.4,0.5
2025-04-10T2300,2362A,114.9017,25.9149,赣州市,通天岩,,46,46,44,13,11,75,,126,91,3,5,8,6,1.1,1.1
2025-04-10T2300,2363A,114.9367,25.8664,赣州市,地委,颗粒物(PM10),52,54,53,35,37,37,,114,80,28,14,2,2,1.4,1.3
2025-04-10T2300,2364A,114.9461,25.8481,赣州市,气象台,颗粒物(PM10),68,86,59,32,33,59,,134,102,29,18,10,11,1.0,0.9
2025-04-10T2300,2365A,114.9322,25.8333,赣州市,市图书馆,颗粒物(PM10),55,60,52,37,37,39,,138,98,40,17,3,6,1.0,0.9
2025-04-10T2300,2366A,114.8905,25.8471,赣州市,华坚鞋城,颗粒物(PM10),54,57,54,37,34,51,,143,96,36,20,11,12,0.6,0.6
2025-04-10T2300,3109A,115.0093,25.8613,赣州市,赣县区卫计委,细颗粒物(PM2.5),54,49,46,38,32,56,,119,88,21,11,5,6,0.6,0.5
2025-04-10T2300,2683A,106.2319,36.1417,固原市,马园,颗粒物(PM10),77,104,95,35,23,35,,111,84,57,30,5,5,0.6,0.6
2025-04-10T2300,2684A,106.2792,36.0022,固原市,监测站,颗粒物(PM10),90,129,79,46,24,38,,119,99,56,18,9,5,0.8,0.4
2025-04-10T2300,2685A,106.2375,36.0211,固原市,新区,颗粒物(PM10),82,114,84,34,24,22,,116,92,78,27,7,6,0.6,0.4
2025-04-10T2300,3522A,106.2177,35.9959,固原市,原州区十五小,颗粒物(PM10),87,124,88,48,26,43,,120,100,52,13,8,8,0.5,0.2
2025-04-10T2300,2543A,106.6308,30.5278,广安市,小平旧居,,,,,,,,,,,,,,,,
2025-04-10T2300,2544A,106.6303,30.4576,广安市,市委,颗粒物(PM10),83,115,89,52,43,49,,140,92,48,28,9,9,0.9,0.7
2025-04-10T2300,2545A,106.6271,30.4663,广安市,友谊中学,颗粒物(PM10),65,79,74,42,40,64,,145,109,37,26,5,4,0.7,0.8
2025-04-10T2300,2547A,106.6388,30.4551,广安市,广电花园,颗粒物(PM10),78,105,93,55,43,60,,140,81,36,34,11,11,0.7,0.7
2025-04-10T2300,2902A,106.6351,30.4865,广安市,北辰小学,颗粒物(PM10),71,92,84,47,42,71,,151,117,28,21,11,10,0.6,0.5
2025-04-10T2300,2523A,105.8945,32.4535,广元市,黑石坡,颗粒物(PM10),57,64,72,30,18,122,,131,130,11,11,2,1,0.4,0.3
2025-04-10T2300,2524A,105.821,32.4444,广元市,老城,颗粒物(PM10),54,57,58,23,20,50,,133,108,55,19,1,2,0.5,0.6
2025-04-10T2300,2526A,105.8628,32.4287,广元市,监测站,细颗粒物(PM2.5),53,43,47,37,21,102,,140,132,16,10,8,8,0.5,0.4
2025-04-10T2300,3617A,105.8047,32.4166,广元市,经开区,细颗粒物(PM2.5),72,81,70,52,35,36,,126,108,69,23,5,9,0.9,0.7
2025-04-10T2300,1345A,113.2347,23.1423,广州市,广雅中学,,46,46,47,23,23,25,,126,82,36,28,3,4,0.8,0.7
2025-04-10T2300,1346A,113.2612,23.105,广州市,市五中,,37,37,42,20,22,31,,141,89,34,25,2,2,0.8,0.7
2025-04-10T2300,1348A,113.3478,23.0916,广州市,广东商学院,,45,45,47,20,31,10,,152,80,61,43,4,4,0.6,0.6
2025-04-10T2300,1349A,113.4332,23.1047,广州市,市八十六中,,39,39,47,14,20,5,,99,52,67,51,4,4,0.8,0.8
2025-04-10T2300,1350A,113.3505,22.9483,广州市,番禺中学,,42,42,43,21,24,23,,139,78,42,27,4,5,0.6,0.6
2025-04-10T2300,1351A,113.2146,23.3916,广州市,花都师范,颗粒物(PM10),51,52,67,20,34,22,,180,120,55,33,4,4,0.8,0.7
2025-04-10T2300,1352A,113.2597,23.1331,广州市,市监测站,,45,45,42,20,22,27,,134,84,42,30,6,5,0.5,0.5
2025-04-10T2300,1353A,113.5618,23.312,广州市,九龙镇镇龙,,49,49,53,24,29,21,,123,91,49,38,6,6,0.7,0.6
2025-04-10T2300,1354A,113.2765,23.1544,广州市,麓湖,,40,40,41,22,24,14,,160,88,57,29,4,4,0.6,0.6
2025-04-10T2300,1355A,113.443,23.3035,广州市,帽峰山森林公园,,49,49,42,10,24,35,,142,108,38,27,4,4,0.7,0.7
2025-04-10T2300,2846A,113.3221,23.1322,广州市,体育西,颗粒物(PM10),52,54,48,24,27,7,,140,82,52,29,4,4,0.9,1
2025-04-10T2300,3298A,113.5717,23.5491,广州市,从化街口,颗粒物(PM10),57,64,55,36,34,56,,147,131,36,23,10,9,1.0,0.9
2025-04-10T2300,3299A,113.3472,23.3692,广州市,白云竹料,颗粒物(PM10),52,54,57,26,30,35,,163,122,44,34,7,7,0.6,0.7
2025-04-10T2300,3300A,113.2981,23.237,广州市,白云嘉禾,,,57,53,,32,9,,152,97,65,47,4,5,0.8,0.7
2025-04-10T2300,3301A,113.4256,23.1716,广州市,黄埔科学城,,50,50,50,21,28,5,,128,74,55,35,7,7,0.4,0.4
2025-04-10T2300,3302A,113.3942,23.0483,广州市,番禺大学城,,48,48,50,20,23,20,,142,76,49,35,10,10,0.5,0.5
2025-04-10T2300,3303A,113.4922,22.8168,广州市,南沙黄阁,,34,34,39,18,21,41,,96,64,23,22,5,5,0.8,0.8
2025-04-10T2300,3304A,113.5342,22.7896,广州市,南沙街,,29,29,34,19,19,34,,94,61,25,19,4,4,0.7,0.6
2025-04-10T2300,3443A,113.2902,23.5544,广州市,花都梯面,颗粒物(PM10),53,56,54,28,30,36,,151,127,42,33,5,5,0.9,0.9
2025-04-10T2300,3445A,113.7858,23.7478,广州市,从化良口,,50,49,46,35,32,96,,132,126,12,15,6,6,0.8,0.8
2025-04-10T2300,3446A,113.8051,23.2614,广州市,增城荔城,颗粒物(PM10),54,58,48,34,28,30,,164,119,30,22,6,7,0.4,0.4
2025-04-10T2300,2505A,109.568,23.1478,贵港市,德智高中,,,,,,,,,,,,,,,,
2025-04-10T2300,2506A,109.6047,23.0666,贵港市,江南子站,颗粒物(PM10),58,66,55,39,34,60,,100,82,19,19,3,6,0.8,0.8
2025-04-10T2300,2508A,109.5669,23.1065,贵港市,荷城子站,颗粒物(PM10),57,63,53,27,28,44,,87,71,28,19,4,6,0.5,0.4
2025-04-10T2300,3405A,109.5886,23.1172,贵港市,新世纪学校,颗粒物(PM10),56,61,52,39,35,68,,92,78,17,23,6,8,0.8,0.8
2025-04-10T2300,4260A,109.5933,23.0951,贵港市,中山路155-3号,细颗粒物(PM2.5),57,59,56,40,34,56,,99,76,18,19,6,8,0.9,0.9
2025-04-10T2300,1439A,106.6899,26.5998,贵阳市,马鞍山,,39,39,52,19,33,69,,100,93,15,15,4,4,0.6,0.7
2025-04-10T2300,1441A,106.6243,26.6266,贵阳市,鉴湖路,,41,41,62,27,36,89,,103,98,7,12,11,11,0.5,0.6
2025-04-10T2300,1442A,106.7487,26.6343,贵阳市,燕子冲,,49,41,57,34,43,95,,108,102,11,19,2,3,0.4,0.5
2025-04-10T2300,1443A,106.6555,26.4365,贵阳市,碧云窝,,48,48,61,27,34,90,,108,102,10,15,4,6,0.5,0.6
2025-04-10T2300,1445A,106.7109,26.6027,贵阳市,红边门,,49,46,58,34,43,83,,100,94,19,24,4,5,0.4,0.5
2025-04-10T2300,1446A,106.7164,26.5699,贵阳市,新华路,细颗粒物(PM2.5),52,46,55,36,39,85,,100,94,12,19,6,13,0.3,0.6
2025-04-10T2300,1447A,106.674,26.5424,贵阳市,太慈桥,,35,34,55,24,35,89,,100,93,11,23,6,7,0.5,0.6
2025-04-10T2300,1552A,106.805,26.3003,贵阳市,桐木岭,,44,44,59,29,38,94,,100,99,1,3,3,4,0.9,0.9
2025-04-10T2300,4230A,106.6882,26.5695,贵阳市,花果园大街66号,,46,39,50,32,42,81,,102,96,17,24,4,6,0.3,0.4
2025-04-10T2300,4231A,106.6873,26.5169,贵阳市,漓江路57号,,39,39,57,27,40,89,,110,102,12,22,10,11,0.6,0.7
2025-04-10T2300,1862A,110.4144,25.3167,桂林市,电子科大尧山校区,,,,,,,,,,,,,,,,
2025-04-10T2300,1864A,110.3089,25.2708,桂林市,龙隐路小学,细颗粒物(PM2.5),67,70,81,48,58,21,,116,81,32,26,8,9,1.1,1.2
2025-04-10T2300,1865A,110.2869,25.2178,桂林市,八中,细颗粒物(PM2.5),77,92,81,56,61,8,,112,70,46,29,9,9,1.0,0.9
2025-04-10T2300,3531A,110.296,25.1253,桂林市,旅游学院,细颗粒物(PM2.5),62,53,58,44,53,28,,100,78,33,25,8,8,0.6,0.8
2025-04-10T2300,4222A,110.1835,25.2444,桂林市,环湖路276号,细颗粒物(PM2.5),79,83,78,58,68,11,,100,68,45,29,6,9,1.0,0.8
2025-04-10T2300,4301A,110.2803,25.2773,桂林市,信义路13号,细颗粒物(PM2.5),72,87,80,52,54,13,,120,78,54,30,8,9,1.2,1
2025-04-10T2300,2674A,100.2561,34.4714,果洛藏族自治州,玛沁县大武镇,颗粒物(PM10),52,53,58,16,17,106,,117,114,2,4,10,13,0.4,0.4
2025-04-10T2300,1129A,126.5422,45.755,哈尔滨市,岭北,细颗粒物(PM2.5),335,444,187,285,133,67,,179,145,89,36,24,24,1.8,1.3
2025-04-10T2300,1130A,126.561,45.8167,哈尔滨市,松北商大,细颗粒物(PM2.5),351,,188,301,137,65,,176,130,73,36,17,13,1.5,1
2025-04-10T2300,1131A,126.979,45.5419,哈尔滨市,阿城会宁,细颗粒物(PM2.5),384,453,241,334,174,11,,164,73,85,42,17,10,1.8,1.2
2025-04-10T2300,1132A,126.599,45.7222,哈尔滨市,南岗学府路,细颗粒物(PM2.5),418,444,210,377,126,37,,166,124,130,38,29,12,2.1,1.1
2025-04-10T2300,1133A,126.689,45.7733,哈尔滨市,太平宏伟公园,细颗粒物(PM2.5),500,,205,500,141,29,,181,126,153,39,26,10,2.3,1.1
2025-04-10T2300,1134A,126.635,45.7667,哈尔滨市,道外承德广场,细颗粒物(PM2.5),421,424,197,381,137,33,,170,126,130,40,26,11,2.0,0.9
2025-04-10T2300,1135A,126.685,45.7319,哈尔滨市,香坊红旗大街,细颗粒物(PM2.5),480,554,234,469,150,34,,170,125,156,46,39,14,2.2,0.9
2025-04-10T2300,1136A,126.6411,45.7258,哈尔滨市,动力和平路,细颗粒物(PM2.5),500,,218,594,153,53,,162,132,136,39,32,13,2.1,1
2025-04-10T2300,1137A,126.593,45.7478,哈尔滨市,道里建国路,细颗粒物(PM2.5),435,,186,402,137,29,,164,115,136,43,30,15,2.4,1
2025-04-10T2300,1138A,126.615,45.61,哈尔滨市,平房东轻厂,细颗粒物(PM2.5),405,357,202,357,141,30,,155,104,103,36,23,13,1.6,1
2025-04-10T2300,1139A,126.595,45.9855,哈尔滨市,呼兰师专,细颗粒物(PM2.5),500,,185,504,154,61,,175,115,116,37,26,12,2.0,1.1
2025-04-10T2300,1140A,126.6206,45.6842,哈尔滨市,省农科院,细颗粒物(PM2.5),432,455,235,397,144,23,,149,92,139,54,34,14,1.9,1
2025-04-10T2300,2688A,93.5128,42.8172,哈密市,地区监测站,,,,109,,19,,,90,86,4,11,4,6,0.1,0.3
2025-04-10T2300,2689A,93.4961,42.8328,哈密市,哈密师范学校,颗粒物(PM10),52,54,93,10,19,83,,98,90,10,13,4,6,0.6,0.6
2025-04-10T2300,2671A,100.9048,36.9639,海北藏族自治州,海晏县西海镇,,32,32,25,16,13,94,,111,104,2,3,6,6,0.4,0.3
2025-04-10T2300,3867A,102.0738,36.5056,海东市,平安区公安北苑,颗粒物(PM10),67,84,72,16,24,97,,109,105,7,12,10,9,0.7,0.5
2025-04-10T2300,1409A,110.576,19.9507,海口市,东寨港,,32,27,24,22,21,8,,22,18,6,7,10,9,0.6,0.5
2025-04-10T2300,1410A,110.3232,20.0574,海口市,海南大学,,39,39,38,24,22,37,,73,69,22,16,2,2,0.6,0.5
2025-04-10T2300,1411A,110.283,20.0053,海口市,秀英海南医院,,42,42,38,29,27,45,,72,72,22,22,4,4,0.5,0.4
2025-04-10T2300,1412A,110.338,19.9969,海口市,海南师范大学,,40,39,42,28,25,30,,61,,24,12,3,3,0.6,0.5
2025-04-10T2300,1413A,110.33,20.0356,海口市,龙华路环保局宿舍,,36,36,35,24,22,41,,74,71,16,12,4,4,0.5,0.4
2025-04-10T2300,3539A,110.5111,19.9736,海口市,桂林洋子站,,29,29,33,18,21,40,,75,63,7,11,4,4,0.4,0.4
2025-04-10T2300,2673A,100.6188,36.2866,海南藏族自治州,共和县恰卜恰镇,,50,50,53,18,23,69,,116,96,14,14,12,13,0.5,0.4
2025-04-10T2300,2676A,97.3731,37.3753,海西蒙古族藏族自治州,德令哈市,颗粒物(PM10),53,55,52,28,15,109,,118,116,1,2,13,11,0.4,0.4
2025-04-10T2300,1048A,114.5302,36.6116,邯郸市,东污水处理厂,颗粒物(PM10),75,99,91,31,43,74,,134,116,37,37,3,5,0.4,0.7
2025-04-10T2300,1049A,114.4918,36.5713,邯郸市,矿院,颗粒物(PM10),67,83,86,34,49,50,,109,91,40,23,3,5,0.4,0.6
2025-04-10T2300,1050A,114.484,36.6133,邯郸市,丛台公园,颗粒物(PM10),75,99,91,33,50,96,,136,121,21,26,9,11,0.4,0.7
2025-04-10T2300,3458A,114.7895,36.5593,邯郸市,香泉濮院小区,颗粒物(PM10),90,130,110,43,51,96,,139,118,25,20,10,7,0.4,0.7
2025-04-10T2300,3579A,114.50634,36.77178,邯郸市,永年区实验高中,颗粒物(PM10),83,116,109,37,54,69,,134,115,36,25,6,10,0.6,1.2
2025-04-10T2300,3580A,114.20016,36.44293,邯郸市,峰峰矿区临水派出所,颗粒物(PM10),79,107,88,48,55,114,,149,137,14,15,9,13,0.7,0.9
2025-04-10T2300,2634A,106.9893,33.1842,汉中市,汉川机床厂子校,颗粒物(PM10),56,62,70,34,37,69,,133,113,6,5,7,7,0.6,0.5
2025-04-10T2300,2635A,107.0154,33.0706,汉中市,市监测站,颗粒物(PM10),70,90,85,35,34,76,,128,112,23,14,6,7,0.8,0.6
2025-04-10T2300,2636A,107.0089,33.1138,汉中市,鑫源开发区,颗粒物(PM10),67,83,80,45,37,29,,133,105,56,17,6,6,0.6,0.4
2025-04-10T2300,2637A,107.007,33.0323,汉中市,南郑大河坎水厂,细颗粒物(PM2.5),67,81,76,48,36,76,,134,114,30,18,5,6,0.6,0.6
2025-04-10T2300,1223A,120.2072,30.2111,杭州市,滨江,细颗粒物(PM2.5),109,149,74,82,38,55,,149,118,56,26,9,7,0.7,0.5
2025-04-10T2300,1224A,120.0633,30.2747,杭州市,西溪,颗粒物(PM10),95,139,69,55,37,88,,131,111,38,19,6,6,0.5,0.4
2025-04-10T2300,1226A,120.3417,30.3150,杭州市,下沙,细颗粒物(PM2.5),142,176,85,108,44,54,,135,107,60,36,7,7,0.6,0.5
2025-04-10T2300,1227A,120.1269,30.2456,杭州市,卧龙桥,颗粒物(PM10),63,76,59,38,34,53,,129,94,39,24,5,6,0.5,0.4
2025-04-10T2300,1228A,120.1903,30.2692,杭州市,浙江农大,细颗粒物(PM2.5),134,175,75,102,41,70,,140,120,28,22,3,2,0.5,0.5
2025-04-10T2300,1230A,120.1197,30.3119,杭州市,和睦小学,颗粒物(PM10),101,152,74,55,40,81,,148,123,40,20,7,7,0.8,0.7
2025-04-10T2300,1231A,120.3019,30.4183,杭州市,临平镇,细颗粒物(PM2.5),108,120,86,81,42,94,,162,128,29,29,6,6,0.6,0.6
2025-04-10T2300,1232A,120.2753,30.1839,杭州市,城厢镇,颗粒物(PM10),115,180,77,81,38,30,,149,109,81,30,12,8,0.8,0.7
2025-04-10T2300,1233A,120.0883,30.1808,杭州市,云栖,颗粒物(PM10),65,80,60,34,29,17,,136,77,67,36,9,10,0.6,0.7
2025-04-10T2300,3557A,119.9464,30.0494,杭州市,镇二中,颗粒物(PM10),54,58,51,29,32,13,,126,79,77,29,1,1,0.5,0.5
2025-04-10T2300,3558A,119.7183,30.2367,杭州市,市府大楼,颗粒物(PM10),74,98,61,44,31,63,,132,86,32,17,7,7,0.8,0.7
2025-04-10T2300,3656A,120.1556,30.2864,杭州市,消防大队,细颗粒物(PM2.5),117,156,80,88,40,72,,147,125,53,27,4,4,0.7,0.7
2025-04-10T2300,1270A,117.1959,31.7848,合肥市,明珠广场,颗粒物(PM10),67,83,89,36,36,107,,132,119,25,31,4,3,0.4,0.4
2025-04-10T2300,1271A,117.3072,31.8764,合肥市,三里街,颗粒物(PM10),74,97,99,31,33,62,,121,99,58,42,4,4,0.8,0.8
2025-04-10T2300,1272A,117.2588,31.8707,合肥市,琥珀山庄,颗粒物(PM10),68,85,96,40,39,66,,128,108,41,27,3,3,0.6,0.5
2025-04-10T2300,1273A,117.1604,31.9052,合肥市,董铺水库,颗粒物(PM10),82,114,99,34,36,95,,137,124,24,12,1,1,0.3,0.3
2025-04-10T2300,1274A,117.25,31.8571,合肥市,长江中路,颗粒物(PM10),69,88,97,34,38,103,,130,120,28,28,8,7,0.5,0.5
2025-04-10T2300,1275A,117.266,31.9436,合肥市,庐阳区,颗粒物(PM10),78,105,102,36,36,62,,129,108,60,28,6,6,0.5,0.4
2025-04-10T2300,1276A,117.3453,31.8616,合肥市,瑶海区,颗粒物(PM10),73,95,110,37,35,84,,117,99,39,48,6,6,0.5,0.6
2025-04-10T2300,1277A,117.3027,31.7964,合肥市,包河区,颗粒物(PM10),67,83,91,31,37,102,,128,117,24,44,6,6,0.4,0.4
2025-04-10T2300,1278A,117.2776,31.7385,合肥市,滨湖新区,颗粒物(PM10),71,92,90,36,41,114,,128,123,17,32,6,6,0.5,0.5
2025-04-10T2300,1279A,117.1318,31.8403,合肥市,高新区,颗粒物(PM10),67,83,95,31,37,113,,128,122,20,21,3,2,0.5,0.5
2025-04-10T2300,3464A,117.3803,31.9147,合肥市,高教基地,颗粒物(PM10),80,109,102,32,34,49,,132,107,67,34,5,5,0.3,0.3
2025-04-10T2300,3614A,79.924,37.0877,和田地区,地区环保局,颗粒物(PM10),500,2217,655,192,118,71,,90,85,12,16,2,2,0.5,0.5
2025-04-10T2300,3615A,79.9131,37.113,和田地区,市环保局,颗粒物(PM10),500,1318,1158,164,154,82,,97,92,4,12,1,2,0.6,0.6
2025-04-10T2300,2516A,108.2011,24.715,河池市,东仁乐园,颗粒物(PM10),110,169,129,78,87,5,,65,52,44,23,12,10,1.6,1.5
2025-04-10T2300,2517A,108.0497,24.6947,河池市,市环保站,细颗粒物(PM2.5),75,73,108,55,73,17,,69,60,31,17,8,8,0.8,0.8
2025-04-10T2300,2518A,108.0983,24.6989,河池市,市疾控中心,细颗粒物(PM2.5),78,83,106,57,77,5,,68,54,46,26,12,10,1.0,1
2025-04-10T2300,1696A,114.6778,23.7569,河源市,源西,,50,50,40,34,30,65,,119,107,34,19,4,4,0.6,0.6
2025-04-10T2300,1697A,114.6944,23.7586,河源市,东埔,细颗粒物(PM2.5),58,57,42,41,37,79,,135,124,29,18,4,4,0.7,0.6
2025-04-10T2300,1698A,114.6892,23.7233,河源市,老城,细颗粒物(PM2.5),59,54,44,42,34,75,,137,125,32,18,4,4,0.6,0.6
2025-04-10T2300,1718A,115.4208,35.2464,菏泽市,气象局,细颗粒物(PM2.5),105,151,137,79,80,144,,164,153,16,18,5,7,0.6,0.6
2025-04-10T2300,3374A,115.5564,35.0891,菏泽市,定陶老年大学,颗粒物(PM10),98,146,125,68,67,133,,155,144,18,22,4,6,0.7,0.6
2025-04-10T2300,4184A,115.4797,35.24401,菏泽市,永昌路1号,颗粒物(PM10),118,185,158,78,74,135,,149,141,17,19,8,8,0.5,0.5
2025-04-10T2300,4193A,115.4715,35.2800,菏泽市,长城路999号,颗粒物(PM10),102,153,137,70,74,151,,164,158,19,22,4,5,0.5,0.5
2025-04-10T2300,2514A,111.5264,24.4172,贺州市,环保小区,颗粒物(PM10),64,77,73,45,49,61,,124,110,34,26,7,7,1.1,0.9
2025-04-10T2300,2515A,111.5608,24.4078,贺州市,政协大楼,细颗粒物(PM2.5),67,68,60,48,48,52,,114,94,37,25,10,9,0.9,0.8
2025-04-10T2300,3534A,111.4744,24.4553,贺州市,西湾,细颗粒物(PM2.5),68,,77,49,58,49,,119,104,41,28,7,7,0.9,0.9
2025-04-10T2300,2385A,114.17,35.9019,鹤壁市,市监测站,颗粒物(PM10),77,103,118,47,69,123,,154,,16,19,6,7,0.8,1.1
2025-04-10T2300,2386A,114.2956,35.7511,鹤壁市,市交警支队,颗粒物(PM10),76,102,132,32,66,110,,159,135,24,29,8,9,0.7,1
2025-04-10T2300,2387A,114.2878,35.7306,鹤壁市,迎宾馆,颗粒物(PM10),82,114,133,39,60,110,,166,136,22,20,4,7,0.6,0.9
2025-04-10T2300,3474A,114.2617,35.6822,鹤壁市,大新区,颗粒物(PM10),81,111,142,46,73,74,,156,117,44,25,7,9,0.7,1
2025-04-10T2300,3596A,114.1572,35.9603,鹤壁市,南山宾馆,颗粒物(PM10),92,133,123,61,69,107,,164,146,22,17,5,8,0.5,0.7
2025-04-10T2300,2244A,130.2537,47.3416,鹤岗市,哈啤分公司,,28,28,58,18,33,84,,104,95,4,15,14,17,0.2,0.3
2025-04-10T2300,2245A,130.2684,47.3086,鹤岗市,斯达机电,,39,38,74,27,45,85,,107,97,3,16,11,13,0.2,0.5
2025-04-10T2300,2246A,130.3114,47.3388,鹤岗市,东山纸板厂,,49,49,120,20,48,81,,101,92,4,20,11,16,0.2,1.1
2025-04-10T2300,2247A,130.1097,47.3382,鹤岗市,五号水库,,,,,,,,,,,,,,,,
2025-04-10T2300,2263A,127.4833,50.2524,黑河市,交通局,,30,21,27,21,15,50,,79,54,9,10,7,6,0.4,0.4
2025-04-10T2300,2264A,127.5144,50.2341,黑河市,环保局,,32,30,27,22,18,59,,84,59,8,12,4,4,0.3,0.5
2025-04-10T2300,2265A,127.5291,50.2472,黑河市,大黑河岛,,,,,,,,,,,,,,,,
2025-04-10T2300,1074A,115.6838,37.7541,衡水市,电机北厂,颗粒物(PM10),80,110,92,45,49,125,,170,148,14,18,2,3,0.3,0.4
2025-04-10T2300,1075A,115.6303,37.7316,衡水市,市监测站,颗粒物(PM10),73,95,86,39,48,98,,172,138,28,27,4,9,0.3,0.4
2025-04-10T2300,3188A,115.6683,37.7217,衡水市,市城管局,颗粒物(PM10),76,101,85,50,51,106,,167,140,21,25,7,8,0.5,0.6
2025-04-10T2300,3459A,115.5989,37.5491,衡水市,地表水厂,颗粒物(PM10),80,110,94,40,50,77,,173,122,38,40,12,13,0.4,0.5
2025-04-10T2300,2456A,112.5003,26.9167,衡阳市,原169医院,细颗粒物(PM2.5),63,71,68,45,47,21,,101,72,43,22,6,7,0.8,0.8
2025-04-10T2300,2457A,112.6194,26.9258,衡阳市,衡阳化工总厂,细颗粒物(PM2.5),75,72,63,55,46,38,,116,87,26,13,7,10,0.9,0.9
2025-04-10T2300,2458A,112.6211,26.8956,衡阳市,珠晖区环保局,,,80,59,,56,17,,115,84,30,11,6,10,1.0,0.9
2025-04-10T2300,2459A,112.6197,26.8733,衡阳市,市委党校,,,50,59,,,77,,112,96,13,12,2,4,0.7,0.8
2025-04-10T2300,2460A,112.6006,26.8919,衡阳市,市监测站,,,98,61,54,42,8,,117,77,,15,7,10,1.3,0.9
2025-04-10T2300,2461A,112.5664,26.9056,衡阳市,真空机电公司,细颗粒物(PM2.5),64,72,64,46,46,25,,122,88,48,18,6,9,1.2,1.1
2025-04-10T2300,3399A,112.6703,26.882,衡阳市,师范学院,细颗粒物(PM2.5),68,66,59,49,42,50,,113,89,16,12,9,12,0.9,0.8
2025-04-10T2300,2608A,103.3772,23.3993,红河哈尼族彝族自治州,污水处理厂,细颗粒物(PM2.5),78,65,65,57,57,120,,138,131,7,10,10,10,0.5,0.5
2025-04-10T2300,2609A,103.3861,23.35,红河哈尼族彝族自治州,监测站,细颗粒物(PM2.5),90,86,72,67,51,126,,135,132,6,8,8,8,0.5,0.5
2025-04-10T2300,3038A,103.3758,23.368,红河哈尼族彝族自治州,州图书馆,细颗粒物(PM2.5),88,67,62,65,50,128,,142,137,7,10,6,8,0.4,0.4
2025-04-10T2300,1090A,111.6507,40.7517,呼和浩特市,呼市一监,颗粒物(PM10),118,185,72,33,23,62,,109,103,27,22,18,12,0.6,0.6
2025-04-10T2300,1091A,111.6572,40.8033,呼和浩特市,小召,颗粒物(PM10),68,85,63,22,23,78,,101,96,29,33,6,8,0.4,0.6
2025-04-10T2300,1094A,111.7516,40.8369,呼和浩特市,如意水处理厂,颗粒物(PM10),56,62,48,18,19,87,,102,99,24,34,7,9,0.4,0.5
2025-04-10T2300,1095A,111.7276,40.8062,呼和浩特市,二十九中,颗粒物(PM10),78,105,55,28,20,86,,107,105,20,25,5,6,0.4,0.4
2025-04-10T2300,1096A,111.5512,40.7866,呼和浩特市,工大金川校区,颗粒物(PM10),82,114,57,16,18,103,,110,106,15,35,5,9,0.3,0.4
2025-04-10T2300,1097A,111.717,40.7612,呼和浩特市,化肥厂生活区,颗粒物(PM10),101,151,64,32,22,66,,108,101,34,30,21,11,0.5,0.5
2025-04-10T2300,3698A,111.5968,40.8178,呼和浩特市,红旗小学,,48,48,64,14,18,99,,102,99,24,38,4,7,0.4,0.5
2025-04-10T2300,3699A,111.6518,40.8389,呼和浩特市,海东办,颗粒物(PM10),52,53,54,14,18,102,,103,103,8,33,6,9,0.5,0.7
2025-04-10T2300,2192A,119.7594,49.2261,呼伦贝尔市,区环保局,,45,45,39,30,28,58,,97,80,18,12,7,6,0.3,0.3
2025-04-10T2300,3061A,119.7512,49.1577,呼伦贝尔市,国华电力东,,35,35,31,19,22,77,,103,90,6,6,3,3,0.2,0.3
2025-04-10T2300,1250A,120.0751,30.8669,湖州市,城西水厂,颗粒物(PM10),75,99,98,47,47,112,,179,153,31,56,9,9,0.5,0.7
2025-04-10T2300,2873A,120.0830,30.8929,湖州市,仁皇山新区,颗粒物(PM10),82,113,100,59,51,89,,178,138,38,58,6,7,0.8,1
2025-04-10T2300,2907A,120.1844,30.8596,湖州市,吴兴区站,颗粒物(PM10),73,96,89,49,46,90,,186,146,31,36,9,9,0.5,0.7
2025-04-10T2300,3562A,120.4148,30.8538,湖州市,南浔区站,颗粒物(PM10),79,108,98,46,50,114,,186,148,24,31,5,6,0.6,0.7
2025-04-10T2300,1607A,120.9049,40.7211,葫芦岛市,龙港区,细颗粒物(PM2.5),68,55,54,49,47,153,,172,171,14,19,10,10,0.6,0.5
2025-04-10T2300,1608A,120.8392,40.7514,葫芦岛市,化工街,细颗粒物(PM2.5),70,75,72,51,46,142,,156,156,26,34,10,14,0.6,0.7
2025-04-10T2300,1609A,120.8341,40.7073,葫芦岛市,新区,细颗粒物(PM2.5),67,54,54,48,49,161,,170,170,18,27,10,9,0.6,0.7
2025-04-10T2300,1610A,120.8695,40.7677,葫芦岛市,东城区,细颗粒物(PM2.5),80,,50,59,59,158,,166,166,26,35,9,7,0.8,0.7
2025-04-10T2300,2482A,109.5981,27.5721,怀化市,林科所,颗粒物(PM10),54,57,53,31,37,34,,85,66,25,15,4,6,0.7,0.6
2025-04-10T2300,2483A,109.9453,27.5444,怀化市,河西地税局,细颗粒物(PM2.5),62,60,50,44,43,12,,87,60,31,12,9,10,0.7,0.6
2025-04-10T2300,2484A,109.9781,27.5342,怀化市,市四医院,颗粒物(PM10),63,76,69,42,47,14,,96,68,45,22,6,8,1.1,0.8
2025-04-10T2300,2485A,109.9972,27.5578,怀化市,监测楼,颗粒物(PM10),58,66,60,39,43,40,,98,75,19,17,6,8,0.7,0.8
2025-04-10T2300,2486A,110.0394,27.583,怀化市,市委党校,"颗粒物(PM10),细颗粒物(PM2.5)",62,73,57,44,44,7,,101,72,37,16,4,6,1.0,1
2025-04-10T2300,1210A,119.036,33.5981,淮安市,钵池山,,36,34,74,25,51,86,,130,112,29,21,10,12,0.5,0.6
2025-04-10T2300,1211A,119.007,33.575,淮安市,北京南路,,34,34,72,21,48,98,,134,116,17,20,8,9,0.4,0.6
2025-04-10T2300,1212A,118.989,33.6067,淮安市,市监测站,,32,31,68,19,42,100,,130,116,17,22,8,9,0.4,0.6
2025-04-10T2300,1213A,119.135,33.5039,淮安市,楚州区监测站,,43,37,75,30,53,88,,123,103,14,16,7,9,0.5,0.6
2025-04-10T2300,3426A,118.8755,33.2894,淮安市,新华书店,,41,41,84,22,47,96,,155,125,15,19,8,10,0.6,0.6
2025-04-10T2300,4206A,119.0288,33.6319,淮安市,承德北路606号,,44,44,84,25,53,98,,127,112,15,21,7,9,0.5,0.6
2025-04-10T2300,2282A,116.8004,33.975,淮北市,监测站,颗粒物(PM10),64,78,111,42,52,146,,165,157,12,20,6,8,0.5,0.7
2025-04-10T2300,2283A,116.8091,33.9007,淮北市,烈山区政府,细颗粒物(PM2.5),75,89,114,55,67,147,,165,157,12,22,6,7,0.5,0.6
2025-04-10T2300,3330A,116.8873,33.9836,淮北市,杜集区检察院,细颗粒物(PM2.5),69,83,107,50,65,150,,162,159,14,22,6,8,0.9,1
2025-04-10T2300,4017A,116.7923,33.9535,淮北市,市博物馆,"颗粒物(PM10),细颗粒物(PM2.5)",63,76,110,45,64,150,,166,156,12,23,5,7,0.9,1.1
2025-04-10T2300,2277A,116.8305,32.7727,淮南市,潘集区政府,细颗粒物(PM2.5),97,117,130,72,68,97,,168,144,25,26,6,8,0.7,0.7
2025-04-10T2300,2279A,116.8569,32.5951,淮南市,谢家集区政府,颗粒物(PM10),111,171,136,61,59,90,,143,123,34,21,16,12,0.7,0.5
2025-04-10T2300,2280A,116.8281,32.633,淮南市,八公山区政府,颗粒物(PM10),93,135,140,67,60,87,,154,127,20,15,7,10,0.5,0.6
2025-04-10T2300,2281A,116.6325,32.6201,淮南市,焦岗湖风景区管理处,,,,,,,,,,,,,,,,
2025-04-10T2300,2894A,117.0566,32.6531,淮南市,经济技术开发区消防队,"颗粒物(PM10),细颗粒物(PM2.5)",90,129,125,67,67,93,,171,141,27,27,10,10,0.6,0.6
2025-04-10T2300,3329A,117.0108,32.5893,淮南市,山南新区,颗粒物(PM10),104,158,150,64,67,103,,160,134,20,15,9,10,0.8,0.7
2025-04-10T2300,4209A,117.0031,32.6445,淮南市,国庆中路369号,颗粒物(PM10),106,162,147,61,72,94,,184,143,23,25,10,15,0.5,0.4
2025-04-10T2300,2446A,114.9028,30.4742,黄冈市,职工中心,细颗粒物(PM2.5),79,82,61,58,36,112,,175,159,31,26,11,12,0.9,0.9
2025-04-10T2300,2929A,114.8858,30.4519,黄冈市,红卫路,颗粒物(PM10),68,85,70,46,34,99,,171,142,34,21,11,10,1.1,1.1
2025-04-10T2300,3398A,114.9136,30.4445,黄冈市,市林业局,细颗粒物(PM2.5),77,82,73,56,33,104,,182,156,40,26,15,14,1.0,1.1
2025-04-10T2300,2672A,102.0199,35.5102,黄南藏族自治州,同仁县隆务镇,,,86,72,20,24,85,,106,96,4,3,,18,0.2,0.2
2025-04-10T2300,2295A,118.2903,29.6963,黄山市,延安路89号,颗粒物(PM10),52,54,49,23,30,37,,125,90,17,6,5,4,0.4,0.3
2025-04-10T2300,2297A,118.1371,30.2756,黄山市,黄山区政府5号楼,颗粒物(PM10),67,83,64,47,24,43,,122,92,9,5,4,4,0.8,0.6
2025-04-10T2300,4210A,118.3354,29.7203,黄山市,滨江东路7-2号,颗粒物(PM10),60,69,54,35,24,32,,123,83,14,5,4,4,0.5,0.5
2025-04-10T2300,2423A,115.0601,30.2313,黄石市,沈家营,颗粒物(PM10),79,108,83,44,33,79,,199,161,57,30,12,7,0.9,0.8
2025-04-10T2300,2426A,114.8988,30.2019,黄石市,铁山,颗粒物(PM10),72,93,84,44,36,96,,175,158,39,24,14,15,0.2,0.4
2025-04-10T2300,2427A,115.0307,30.2092,黄石市,团城山,颗粒物(PM10),67,84,66,31,27,136,,186,175,15,20,14,11,0.7,0.7
2025-04-10T2300,3149A,115.0235,30.1578,黄石市,笔架山北路,颗粒物(PM10),57,64,53,34,26,135,,199,185,10,14,13,9,1.0,0.9
2025-04-10T2300,4185A,115.0780,30.21118,黄石市,磁湖东路29号,颗粒物(PM10),74,97,76,48,37,88,,200,168,52,22,12,9,1.0,0.9
2025-04-10T2300,1392A,114.4183,23.0528,惠州市,河南岸金山湖子站,颗粒物(PM10),51,52,40,27,24,33,,117,74,35,27,11,8,0.7,0.6
2025-04-10T2300,1393A,114.4053,23.0822,惠州市,下埔横江三路子站,颗粒物(PM10),55,60,44,34,24,34,,134,88,37,24,10,9,0.8,0.7
2025-04-10T2300,1394A,114.4103,23.1142,惠州市,江北云山西路子站,颗粒物(PM10),56,62,44,30,23,27,,149,96,47,24,12,10,0.6,0.5
2025-04-10T2300,1395A,114.4645,22.7833,惠州市,惠阳区承修路船湖子站,,46,46,36,25,21,22,,90,52,44,26,10,8,0.7,0.6
2025-04-10T2300,1396A,114.5317,22.7422,惠州市,大亚湾管委会子站,,43,43,34,24,18,35,,91,59,33,26,8,7,0.5,0.5
2025-04-10T2300,3314A,114.4338,22.8134,惠州市,惠阳秋长,,41,41,45,20,23,29,,113,67,35,25,11,9,0.6,0.8
2025-04-10T2300,3452A,114.6517,22.775,惠州市,大亚湾霞涌,,32,23,24,22,11,56,,79,69,18,18,6,6,0.4,0.4
2025-04-10T2300,2240A,130.9762,45.3001,鸡西市,环保局,细颗粒物(PM2.5),93,94,60,69,41,45,,133,100,46,17,10,8,1.1,0.7
2025-04-10T2300,2243A,130.9429,45.3039,鸡西市,第一中学,细颗粒物(PM2.5),198,174,66,148,46,68,,129,106,48,14,14,8,1.5,0.9
2025-04-10T2300,3707A,131.0207,45.3073,鸡西市,欧美日汽修厂,细颗粒物(PM2.5),140,181,72,107,48,46,,145,110,43,21,16,8,1.2,0.8
2025-04-10T2300,3709A,130.9967,45.3106,鸡西市,市政设施管理处,细颗粒物(PM2.5),137,123,79,104,48,26,,128,88,68,26,12,8,1.0,0.7
2025-04-10T2300,2367A,114.9754,27.0803,吉安市,红声器材厂,细颗粒物(PM2.5),69,77,63,50,42,30,,120,89,45,17,9,10,0.7,0.7
2025-04-10T2300,2368A,114.9658,27.0999,吉安市,市森林工业局,细颗粒物(PM2.5),73,81,59,53,44,27,,108,79,43,17,9,11,0.8,0.7
2025-04-10T2300,2369A,114.99,27.1312,吉安市,市环境监测站,细颗粒物(PM2.5),58,53,51,41,35,24,,113,84,40,15,14,17,0.7,0.7
2025-04-10T2300,2370A,115.0093,27.0968,吉安市,青原区法院,细颗粒物(PM2.5),54,54,55,38,44,20,,117,84,34,15,11,13,0.7,0.6
2025-04-10T2300,1772A,126.54,43.8622,吉林市,哈达湾,细颗粒物(PM2.5),205,225,96,155,64,57,,147,115,75,25,16,10,1.4,0.9
2025-04-10T2300,1773A,126.5844,43.8358,吉林市,东局子,细颗粒物(PM2.5),218,175,75,168,59,7,,138,84,94,31,10,8,1.7,0.9
2025-04-10T2300,1774A,126.5052,43.8245,吉林市,电力学院,细颗粒物(PM2.5),271,263,109,221,85,24,,144,92,71,30,9,8,1.8,0.9
2025-04-10T2300,1775A,126.6133,43.8972,吉林市,江北,细颗粒物(PM2.5),248,276,96,198,62,27,,147,90,62,27,7,7,1.5,0.9
2025-04-10T2300,1776A,126.555,43.8306,吉林市,江南公园,细颗粒物(PM2.5),203,201,85,153,67,21,,143,96,86,28,9,9,1.5,0.7
2025-04-10T2300,1778A,126.7061,43.7133,吉林市,丰满,细颗粒物(PM2.5),70,66,55,51,47,84,,153,122,13,12,6,6,0.9,1.1
2025-04-10T2300,2868A,126.4739,43.953,吉林市,九站,细颗粒物(PM2.5),448,500,156,421,122,24,,148,91,115,38,53,21,2.5,1.1
2025-04-10T2300,1299A,116.9862,36.6114,济南市,科干所,颗粒物(PM10),71,92,72,34,32,155,,161,157,14,18,8,7,0.6,0.6
2025-04-10T2300,1300A,116.9376,36.665,济南市,农科所,颗粒物(PM10),77,103,93,42,38,136,,150,144,24,39,9,8,0.6,0.6
2025-04-10T2300,1301A,117.1265,36.6734,济南市,开发区,颗粒物(PM10),69,88,70,39,32,154,,156,154,13,25,10,8,0.7,0.6
2025-04-10T2300,1303A,117.0624,36.6868,济南市,省种子仓库,颗粒物(PM10),79,107,95,34,42,149,,152,148,8,37,7,5,0.8,0.8
2025-04-10T2300,1304A,116.9489,36.6447,济南市,机床二厂,细颗粒物(PM2.5),89,117,97,66,47,153,,159,156,16,36,11,9,0.5,0.6
2025-04-10T2300,1305A,117.0495,36.663,济南市,市监测站,颗粒物(PM10),74,98,80,39,37,146,,147,145,17,30,10,9,0.6,0.6
2025-04-10T2300,1306A,116.7675,36.5484,济南市,长清党校,颗粒物(PM10),80,110,86,44,40,151,,170,167,20,31,10,7,0.7,0.6
2025-04-10T2300,1616A,117.6795,36.229,济南市,技术学院,颗粒物(PM10),67,83,90,36,49,110,,147,137,30,31,12,12,0.7,0.8
2025-04-10T2300,1961A,117.532,36.6868,济南市,东山小学,颗粒物(PM10),75,100,77,34,30,137,,155,140,17,30,8,7,0.4,0.4
2025-04-10T2300,3059A,117.7161,36.2049,济南市,泰兴公司,颗粒物(PM10),60,70,85,39,50,105,,148,133,34,38,10,12,0.7,0.8
2025-04-10T2300,3064A,117.6867,36.2171,济南市,莱芜战役纪念馆,颗粒物(PM10),64,78,92,36,45,110,,149,138,32,34,7,8,0.7,0.8
2025-04-10T2300,3494A,117.1673,36.9782,济南市,济阳区政府,颗粒物(PM10),105,159,105,49,52,68,,162,135,81,34,8,9,0.7,0.7
2025-04-10T2300,3495A,117.1171,36.63,济南市,锦屏中学,颗粒物(PM10),70,90,57,32,24,147,,147,146,14,14,11,8,0.5,0.4
2025-04-10T2300,3682A,116.9814,36.6819,济南市,济南四建,颗粒物(PM10),79,107,91,44,43,138,,156,151,23,40,7,6,0.6,0.6
2025-04-10T2300,1653A,116.6251,35.4302,济宁市,火炬城,细颗粒物(PM2.5),73,91,91,53,64,120,,179,159,13,15,6,8,0.6,0.7
2025-04-10T2300,1655A,116.5491,35.4042,济宁市,电化厂,颗粒物(PM10),79,108,118,46,62,126,,178,164,19,22,6,8,0.6,0.7
2025-04-10T2300,3500A,116.5814,35.3707,济宁市,北湖一中,颗粒物(PM10),72,94,94,46,55,120,,184,161,21,23,4,11,0.4,0.7
2025-04-10T2300,3501A,116.8249,35.5593,济宁市,服务中心,颗粒物(PM10),78,106,94,38,50,107,,152,137,22,32,4,5,0.6,0.7
2025-04-10T2300,3678A,116.5907,35.4054,济宁市,市第七中学,细颗粒物(PM2.5),104,87,96,78,57,123,,180,160,18,20,6,8,0.5,0.7
2025-04-10T2300,2255A,130.2751,46.8028,佳木斯市,佳纺,,,88,95,51,61,78,,132,,,14,7,8,0.5,0.7
2025-04-10T2300,2256A,130.3995,46.8307,佳木斯市,发电厂,细颗粒物(PM2.5),69,68,84,50,65,72,,136,112,15,20,15,6,0.7,0.9
2025-04-10T2300,2257A,130.3258,46.7975,佳木斯市,环保局,细颗粒物(PM2.5),64,71,92,46,64,77,,134,108,18,23,4,5,0.4,0.7
2025-04-10T2300,2258A,130.3648,46.8032,佳木斯市,十一中,,,66,84,46,52,81,,134,114,,,8,8,0.5,0.7
2025-04-10T2300,2259A,130.3794,46.7588,佳木斯市,四丰,颗粒物(PM10),61,72,80,34,47,62,,127,107,15,10,1,1,1.0,1.1
2025-04-10T2300,1252A,120.7436,30.778,嘉兴市,清河小学,颗粒物(PM10),81,111,100,54,43,115,,175,141,20,27,7,8,0.8,0.9
2025-04-10T2300,1253A,120.726,30.7478,嘉兴市,嘉兴学院,颗粒物(PM10),71,91,85,51,45,115,,178,143,21,31,10,10,0.7,0.7
2025-04-10T2300,2872A,120.7846,30.7525,嘉兴市,南湖区残联,颗粒物(PM10),75,100,88,52,47,116,,189,149,24,28,9,10,0.8,0.8
2025-04-10T2300,3407A,120.6916,30.7739,嘉兴市,秀洲住建,颗粒物(PM10),78,105,105,52,43,127,,190,153,18,34,8,8,0.6,0.5
2025-04-10T2300,1945A,98.2908,39.7711,嘉峪关市,气象局,颗粒物(PM10),119,188,88,31,21,115,,122,120,2,12,4,22,0.6,0.6
2025-04-10T2300,2884A,98.2672,39.7978,嘉峪关市,酒钢宾馆,颗粒物(PM10),124,197,121,31,26,114,,118,117,2,14,9,29,0.3,0.5
2025-04-10T2300,3248A,98.2643,39.7724,嘉峪关市,雄关区,颗粒物(PM10),101,152,74,36,20,115,,120,118,5,16,6,11,,0.6
2025-04-10T2300,1383A,113.1064,22.6058,江门市,北街,,38,28,34,26,22,36,,89,59,15,10,2,2,0.5,0.5
2025-04-10T2300,1384A,113.0731,22.5835,江门市,西区,,43,43,35,20,19,45,,93,61,25,21,7,7,0.7,0.5
2025-04-10T2300,1385A,113.0219,22.5311,江门市,圭峰西,,40,,37,28,20,46,,84,58,23,19,5,5,0.4,0.4
2025-04-10T2300,1386A,113.0828,22.5947,江门市,东湖,颗粒物(PM10),61,71,57,22,21,42,,98,66,22,14,6,6,0.5,0.4
2025-04-10T2300,3311A,113.1075,22.5647,江门市,江海富民,细颗粒物(PM2.5),52,43,48,36,26,31,,89,56,25,15,6,6,0.5,0.5
2025-04-10T2300,3449A,113.05,22.4667,江门市,新会银湖,,38,,34,26,22,51,,80,61,13,15,3,2,0.4,0.4
2025-04-10T2300,1830A,113.1992,35.2590,焦作市,影视城,,,,51,,36,,,,,,9,,3,,0.8
2025-04-10T2300,3169A,113.2725,35.2067,焦作市,太极体育中心,颗粒物(PM10),91,132,124,62,65,131,,156,142,24,24,9,14,0.4,0.6
2025-04-10T2300,3335A,113.3137,35.2641,焦作市,马村街道办,颗粒物(PM10),90,130,113,50,58,100,,140,123,43,26,10,12,1.0,1
2025-04-10T2300,3336A,113.2465,35.2373,焦作市,焦作技师学院,颗粒物(PM10),96,141,115,53,50,116,,151,135,27,20,14,10,1.0,1
2025-04-10T2300,3477A,113.1656,35.2539,焦作市,中站许衡医院,颗粒物(PM10),81,112,87,44,45,133,,155,137,29,21,12,12,0.8,0.9
2025-04-10T2300,3981A,113.2449,35.1803,焦作市,原李万街道办,颗粒物(PM10),97,143,128,53,58,124,,148,130,22,23,14,19,0.5,0.6
2025-04-10T2300,4264A,113.2340,35.2190,焦作市,新安路1731号,颗粒物(PM10),96,142,113,57,58,131,,153,140,19,19,12,13,1.0,0.9
2025-04-10T2300,1708A,116.3701,23.5345,揭阳市,新兴,颗粒物(PM10),69,88,45,37,27,24,,98,68,39,16,7,6,0.9,0.7
2025-04-10T2300,1709A,116.3264,23.5443,揭阳市,西马,颗粒物(PM10),71,92,45,40,22,27,,95,73,33,12,15,8,1.0,0.7
2025-04-10T2300,1710A,116.3611,23.5626,揭阳市,东兴,颗粒物(PM10),66,82,44,47,26,28,,99,74,35,11,20,8,1.0,0.8
2025-04-10T2300,1711A,116.4151,23.5294,揭阳市,渔湖,颗粒物(PM10),59,67,41,32,19,27,,99,71,32,14,6,5,0.9,0.8
2025-04-10T2300,3320A,116.403,23.5699,揭阳市,曲溪,颗粒物(PM10),60,69,37,34,21,31,,111,78,35,16,4,2,0.8,0.6
2025-04-10T2300,1944A,102.1692,38.5167,金昌市,天庆家园,颗粒物(PM10),69,88,77,25,20,121,,119,119,3,5,8,10,0.6,0.7
2025-04-10T2300,4022A,102.1647,38.5371,金昌市,金川区人防中心,颗粒物(PM10),129,207,119,31,23,119,,116,116,4,6,14,15,0.4,0.4
2025-04-10T2300,4239A,102.1930,38.5319,金昌市,长春路96号,颗粒物(PM10),109,167,110,30,21,113,,111,111,2,4,17,14,0.6,0.6
2025-04-10T2300,1262A,119.647,29.077,金华市,十五中,颗粒物(PM10),62,73,58,33,29,34,,144,90,56,28,6,6,0.6,0.6
2025-04-10T2300,1263A,119.686,29.1029,金华市,监测站,颗粒物(PM10),54,57,51,31,31,30,,147,97,56,25,4,4,0.4,0.4
2025-04-10T2300,3659A,119.656,29.1131,金华市,气象局,颗粒物(PM10),62,74,54,36,37,9,,146,83,84,29,1,3,0.5,0.5
2025-04-10T2300,1767A,121.1115,41.0879,锦州市,南山,细颗粒物(PM2.5),100,82,66,75,65,128,,140,140,28,41,13,12,0.9,0.7
2025-04-10T2300,1768A,121.0604,40.8428,锦州市,开发区,细颗粒物(PM2.5),87,71,71,64,58,136,,152,152,27,35,7,25,0.7,0.6
2025-04-10T2300,1769A,121.1836,41.1119,锦州市,百股街道,细颗粒物(PM2.5),70,64,60,51,40,138,,142,142,28,29,10,11,0.8,0.6
2025-04-10T2300,1770A,121.1178,41.1222,锦州市,天安街道,细颗粒物(PM2.5),104,,72,78,67,130,,141,141,29,43,12,12,0.9,0.8
2025-04-10T2300,1771A,121.1303,41.1386,锦州市,北湖公园,细颗粒物(PM2.5),95,,72,71,60,123,,139,139,31,42,12,12,1.0,0.8
2025-04-10T2300,2160A,112.85,35.5051,晋城市,自来水公司,颗粒物(PM10),69,88,71,24,25,118,,134,134,21,27,10,10,0.6,0.7
2025-04-10T2300,2161A,112.8318,35.4936,晋城市,白云商贸,颗粒物(PM10),72,93,67,27,14,97,,138,135,35,24,9,8,0.8,0.7
2025-04-10T2300,2162A,112.8508,35.4887,晋城市,市环保局,颗粒物(PM10),69,87,70,24,20,99,,132,130,25,26,6,6,0.5,0.6
2025-04-10T2300,2163A,112.8676,35.4897,晋城市,技术学院,颗粒物(PM10),65,79,79,31,28,108,,130,129,27,32,9,10,0.5,0.6
2025-04-10T2300,2165A,112.8453,35.546,晋城市,白马寺,颗粒物(PM10),64,78,58,45,29,131,,137,137,13,15,8,11,0.8,0.9
2025-04-10T2300,3620A,112.8271,35.4828,晋城市,泽州一中,颗粒物(PM10),64,77,62,24,18,118,,141,141,18,21,10,5,0.6,0.7
2025-04-10T2300,2173A,112.7249,37.7067,晋中市,南都小区,颗粒物(PM10),67,84,59,30,21,42,,126,104,53,25,10,10,0.5,0.4
2025-04-10T2300,2174A,112.6991,37.6982,晋中市,榆次区政府,颗粒物(PM10),67,83,62,17,18,43,,127,103,55,31,14,11,0.6,0.3
2025-04-10T2300,2865A,112.7195,37.6828,晋中市,榆次三中,颗粒物(PM10),65,80,61,22,21,43,,126,101,56,29,10,9,0.4,0.4
2025-04-10T2300,4200A,112.7478,37.6954,晋中市,迎宾街26号,颗粒物(PM10),60,70,58,24,22,49,,127,103,46,24,8,8,0.3,0.3
2025-04-10T2300,2439A,112.2014,31.0481,荆门市,竹园小学,细颗粒物(PM2.5),80,82,60,59,30,117,,152,144,19,14,8,7,0.4,0.2
2025-04-10T2300,2440A,112.1969,30.9891,荆门市,掇刀,细颗粒物(PM2.5),93,76,60,69,38,125,,158,151,21,11,10,10,0.5,0.3
2025-04-10T2300,2441A,112.2213,31.0386,荆门市,石化一小,细颗粒物(PM2.5),127,,60,96,30,78,,148,131,31,14,8,9,0.1,0
2025-04-10T2300,3012A,112.1849,31.0362,荆门市,西山林语,细颗粒物(PM2.5),63,54,49,45,28,90,,152,140,16,8,7,6,0.5,0.2
2025-04-10T2300,3547A,112.1632,31.0138,荆门市,龙泉中学南校,细颗粒物(PM2.5),60,63,53,43,28,111,,148,143,12,11,12,8,0.8,0.6
2025-04-10T2300,1844A,112.2494,30.3197,荆州市,市图书馆,细颗粒物(PM2.5),60,48,48,43,33,100,,147,132,14,17,5,7,0.7,0.5
2025-04-10T2300,1845A,112.2008,30.3544,荆州市,市委党校,细颗粒物(PM2.5),69,56,51,50,35,102,,142,130,15,15,13,8,0.7,0.6
2025-04-10T2300,3194A,112.2747,30.3122,荆州市,管委会,细颗粒物(PM2.5),60,53,46,43,34,99,,146,131,12,13,6,8,0.8,0.6
2025-04-10T2300,4268A,112.1722,30.3366,荆州市,学苑路85号,细颗粒物(PM2.5),67,52,43,48,34,66,,142,112,34,18,16,11,0.8,0.5
2025-04-10T2300,2342A,117.3102,29.3867,景德镇市,王港中学,,,,,,,,,,,,,,,,
2025-04-10T2300,2343A,117.2117,29.2933,景德镇市,老干部活动中心,,45,40,42,31,23,57,,143,111,24,12,7,8,0.6,0.4
2025-04-10T2300,2344A,117.1894,29.2789,景德镇市,兽医站,颗粒物(PM10),54,57,57,26,27,74,,129,98,12,15,4,6,0.5,0.5
2025-04-10T2300,2345A,117.1547,29.2617,景德镇市,台达陶瓷,颗粒物(PM10),77,104,61,47,30,21,,134,90,67,19,39,15,0.7,0.5
2025-04-10T2300,2346A,117.2461,29.2956,景德镇市,陶研所,细颗粒物(PM2.5),57,45,44,40,30,48,,140,103,26,13,6,8,0.7,0.7
2025-04-10T2300,1803A,115.9872,29.6815,九江市,十里,细颗粒物(PM2.5),74,68,68,54,38,56,,153,120,41,20,2,5,0.7,0.7
2025-04-10T2300,1804A,115.9584,29.7046,九江市,茅山头,"颗粒物(PM10),细颗粒物(PM2.5)",64,78,60,46,34,17,,154,112,87,31,5,7,0.6,0.5
2025-04-10T2300,1805A,115.9877,29.7295,九江市,西园,,49,49,67,33,31,55,,148,127,69,43,6,9,1.3,1
2025-04-10T2300,1808A,115.9114,29.6038,九江市,综合工业园,,46,46,63,31,34,107,,147,132,41,34,8,10,0.7,0.8
2025-04-10T2300,1809A,116.0721,29.7535,九江市,石化总厂,细颗粒物(PM2.5),63,53,66,45,48,102,,147,,14,33,6,7,0.7,0.8
2025-04-10T2300,1810A,115.9773,29.5698,九江市,庐山气象台,颗粒物(PM10),51,52,65,30,37,144,,139,139,8,12,6,9,0.5,0.8
2025-04-10T2300,3190A,116.0254,29.6994,九江市,外国语学校,,48,36,36,33,37,105,,136,128,18,17,11,12,1.0,1
2025-04-10T2300,4253A,116.0102,29.6594,九江市,莲花大道8号,细颗粒物(PM2.5),55,50,61,39,49,96,,141,124,13,11,4,7,0.6,0.8
2025-04-10T2300,4240A,98.4958,39.7339,酒泉市,玉门东路5号,颗粒物(PM10),189,327,127,49,27,103,,120,114,5,8,13,13,0.2,0.3
2025-04-10T2300,4241A,98.5099,39.7506,酒泉市,北大街108号,颗粒物(PM10),157,263,142,39,20,107,,125,119,4,8,2,12,0.2,0.2
2025-04-10T2300,2698A,76.0072,39.4467,喀什地区,巡警大队,颗粒物(PM10),103,155,117,27,18,88,,104,99,23,14,3,3,0.4,0.4
2025-04-10T2300,2699A,75.9755,39.4694,喀什地区,吾办,颗粒物(PM10),109,167,99,47,21,91,,105,100,21,12,3,5,0.5,0.3
2025-04-10T2300,4027A,75.9483,39.4689,喀什地区,老干局,颗粒物(PM10),95,139,80,21,16,100,,111,106,14,8,2,2,0.3,0.5
2025-04-10T2300,1824A,114.3389,34.7781,开封市,肿瘤医院,颗粒物(PM10),83,116,124,51,71,102,,170,135,21,20,8,10,0.8,1
2025-04-10T2300,1826A,114.2885,34.7965,开封市,世纪星幼儿园,颗粒物(PM10),81,112,121,55,83,117,,184,149,22,22,7,8,0.7,0.9
2025-04-10T2300,3147A,114.3438,34.8106,开封市,龙亭公园,颗粒物(PM10),79,107,136,53,83,108,,177,142,21,21,5,6,0.8,0.9
2025-04-10T2300,3210A,114.3644,34.7964,开封市,汴京公园,颗粒物(PM10),98,145,155,59,99,99,,184,140,30,23,5,7,0.8,0.9
2025-04-10T2300,3473A,114.2485,34.8306,开封市,技师学院,细颗粒物(PM2.5),95,97,128,71,112,120,,171,146,20,27,4,7,1.0,1.2
2025-04-10T2300,3592A,114.4644,34.7556,开封市,祥符区生态环境局,颗粒物(PM10),87,124,147,46,64,74,,156,117,41,28,7,11,0.7,0.9
2025-04-10T2300,1951A,84.895,45.6094,克拉玛依市,长征新村,,28,14,11,3,7,87,,96,95,9,6,6,7,0.2,0.2
2025-04-10T2300,1952A,84.8988,45.5893,克拉玛依市,南林小区,,30,13,12,3,6,95,,104,103,3,2,2,2,0.2,0.2
2025-04-10T2300,1954A,84.905,44.3396,克拉玛依市,独山子区,,25,19,25,9,9,79,,104,100,13,3,6,7,0.2,0.2
2025-04-10T2300,1955A,85.6979,46.098,克拉玛依市,乌尔禾区商贸楼,,29,16,14,3,8,90,,106,104,1,3,5,6,0.1,0.1
2025-04-10T2300,3612A,85.1045,45.6899,克拉玛依市,白碱滩区新站,,49,49,13,9,6,98,,101,101,4,2,9,9,0.1,0.2
2025-04-10T2300,2697A,76.1454,39.7142,克孜勒苏柯尔克孜自治州,市人民政府,颗粒物(PM10),70,90,49,34,18,55,,112,102,40,5,5,7,0.4,0.3
2025-04-10T2300,3665A,76.1658,39.7157,克孜勒苏柯尔克孜自治州,克州文化中心,颗粒物(PM10),74,98,44,25,16,71,,110,102,34,4,8,7,0.4,0.3
2025-04-10T2300,1450A,102.8204,24.8886,昆明市,呈贡新区,细颗粒物(PM2.5),73,58,67,53,54,125,,156,137,14,23,5,8,0.7,0.7
2025-04-10T2300,1451A,102.6251,24.9608,昆明市,西山森林公园,,,,,,,,,,,,,,,,
2025-04-10T2300,1452A,102.7252,25.0902,昆明市,龙泉镇,细颗粒物(PM2.5),80,77,62,59,46,103,,149,128,22,33,8,9,0.6,0.7
2025-04-10T2300,1453A,102.7266,25.0375,昆明市,东风东路,细颗粒物(PM2.5),69,72,68,50,51,129,,159,143,15,18,8,10,0.6,0.7
2025-04-10T2300,1454A,102.6742,25.0669,昆明市,金鼎山,细颗粒物(PM2.5),69,57,68,50,47,122,,150,136,19,29,8,10,0.8,0.8
2025-04-10T2300,1455A,102.6644,25.0401,昆明市,碧鸡广场,细颗粒物(PM2.5),69,72,66,50,46,112,,150,133,25,24,8,9,0.8,0.8
2025-04-10T2300,3179A,102.7494,25.0119,昆明市,官渡区博物馆,细颗粒物(PM2.5),67,64,65,48,44,121,,163,143,17,20,7,8,0.5,0.6
2025-04-10T2300,3375A,102.8017,24.8336,昆明市,青年创业园,"颗粒物(PM10),细颗粒物(PM2.5)",63,75,65,45,50,127,,152,138,11,30,11,11,0.6,0.6
2025-04-10T2300,3550A,102.7997,24.9786,昆明市,昆明学院,细颗粒物(PM2.5),70,74,75,51,50,125,,160,142,15,22,5,6,0.5,0.6
2025-04-10T2300,3551A,102.5967,24.6736,昆明市,晋宁区生态环境分局,细颗粒物(PM2.5),70,51,52,51,44,134,,144,142,8,10,8,8,0.9,0.9
2025-04-10T2300,3552A,102.6678,24.9856,昆明市,云天化总部,细颗粒物(PM2.5),55,58,67,39,47,135,,157,145,11,21,8,9,0.6,0.7
2025-04-10T2300,1456A,91.1319,29.6514,拉萨市,八廓街,,36,20,26,7,11,113,,124,122,14,13,6,6,0.5,0.5
2025-04-10T2300,1457A,91.1221,29.6747,拉萨市,市环保局,,32,21,27,14,12,101,,120,116,16,16,4,4,0.4,0.3
2025-04-10T2300,1458A,91.0874,29.6475,拉萨市,区监测站,,36,19,22,8,9,113,,121,119,14,14,5,6,0.5,0.4
2025-04-10T2300,1459A,91.1774,29.6541,拉萨市,西藏大学,,39,14,26,6,9,123,,118,118,8,15,6,6,0.5,0.4
2025-04-10T2300,1460A,90.9798,29.6588,拉萨市,区辐射站,,37,20,29,9,12,118,,116,116,14,21,7,8,0.4,0.4
2025-04-10T2300,1461A,91.0834,29.6292,拉萨市,拉萨火车站,,39,10,21,7,7,122,,121,121,4,8,4,3,0.2,0.1
2025-04-10T2300,2520A,109.2203,23.7256,来宾市,来宾技工学校,,31,31,50,20,28,68,,105,96,8,15,5,7,0.7,0.9
2025-04-10T2300,3535A,109.1781,23.7297,来宾市,兴宾区政府,细颗粒物(PM2.5),52,50,48,36,31,56,,111,95,19,14,6,9,1.0,1
2025-04-10T2300,4002A,109.2416,23.7461,来宾市,中南小学,,38,38,53,19,31,69,,105,95,8,16,5,5,0.8,0.8
2025-04-10T2300,1477A,104.1373,35.9454,兰州市,榆中兰大校区,,,,,,,,,,,,,,,,
2025-04-10T2300,1479A,103.831,36.0464,兰州市,铁路设计院,颗粒物(PM10),118,185,94,35,25,92,,123,113,28,45,15,12,0.5,0.7
2025-04-10T2300,3241A,103.7439,36.0842,兰州市,百合公园,颗粒物(PM10),178,306,97,86,26,108,,128,118,5,30,3,9,0.8,0.5
2025-04-10T2300,3242A,103.9611,35.998,兰州市,和平,颗粒物(PM10),121,191,106,58,31,108,,118,114,5,18,8,13,0.4,0.7
2025-04-10T2300,4236A,103.6293,36.0938,兰州市,庄浪东路808号,颗粒物(PM10),186,321,111,121,44,104,,126,117,10,24,8,17,0.3,0.4
2025-04-10T2300,4237A,103.7251,36.1043,兰州市,安宁西路88号,颗粒物(PM10),239,377,136,100,42,115,,140,130,4,28,4,11,0.2,0.4
2025-04-10T2300,4238A,103.8470,36.0676,兰州市,北滨河东路1号,颗粒物(PM10),146,241,98,78,33,98,,133,122,24,37,16,13,0.4,0.6
2025-04-10T2300,3245A,103.6633,36.533,兰州新区,新区管委会,颗粒物(PM10),187,323,102,111,38,98,,122,116,10,13,23,18,0.2,0.1
2025-04-10T2300,3246A,103.6975,36.4789,兰州新区,舟曲中学,颗粒物(PM10),270,399,128,106,35,109,,122,116,7,12,3,8,0.0,0.1
2025-04-10T2300,1067A,116.6708,39.5111,廊坊市,药材公司,细颗粒物(PM2.5),89,122,110,66,63,92,,143,128,25,33,6,6,0.6,0.6
2025-04-10T2300,1068A,116.7214,39.5589,廊坊市,开发区,颗粒物(PM10),82,114,112,52,54,111,,149,138,19,32,5,4,0.4,0.4
2025-04-10T2300,1070A,116.7244,39.5269,廊坊市,北华航天学院,颗粒物(PM10),92,134,121,64,62,93,,142,126,23,33,8,7,0.5,0.5
2025-04-10T2300,2919A,116.7022,39.5453,廊坊市,河北工业大学,颗粒物(PM10),87,123,114,58,69,108,,151,138,21,32,9,8,0.4,0.4
2025-04-10T2300,2535A,103.7723,29.5462,乐山市,花湖湾,颗粒物(PM10),67,84,74,9,5,92,,179,155,31,29,7,9,0.8,0.9
2025-04-10T2300,2536A,103.7627,29.5844,乐山市,牛耳桥,细颗粒物(PM2.5),75,97,76,55,47,74,,167,128,39,33,8,8,0.8,0.8
2025-04-10T2300,2537A,103.7508,29.6006,乐山市,市第三水厂,细颗粒物(PM2.5),84,97,75,62,47,64,,164,122,51,35,6,5,0.9,0.8
2025-04-10T2300,2538A,103.7571,29.5664,乐山市,市监测站,细颗粒物(PM2.5),74,88,75,54,49,92,,171,151,31,29,7,7,0.7,0.8
2025-04-10T2300,3361A,103.7311,29.5628,乐山市,理工大学,细颗粒物(PM2.5),69,81,76,50,47,87,,180,147,32,34,6,6,0.7,0.9
2025-04-10T2300,2598A,100.2143,26.8576,丽江市,西南郊,,40,40,40,23,26,127,,128,128,1,2,5,4,0.6,0.6
2025-04-10T2300,2599A,100.2497,26.8802,丽江市,丽江古城,,37,31,38,20,23,116,,117,117,8,10,8,7,0.6,0.7
2025-04-10T2300,2600A,100.2203,26.8906,丽江市,市中心,,35,,31,22,24,110,,117,115,13,13,9,9,0.6,0.6
2025-04-10T2300,1267A,119.914,28.4514,丽水市,监测站大楼,,49,49,39,23,23,51,,142,103,34,22,2,2,0.6,0.6
2025-04-10T2300,1268A,119.93,28.4586,丽水市,莲都小学,,42,42,39,19,20,71,,145,109,26,19,3,3,0.3,0.4
2025-04-10T2300,1269A,119.879,28.4231,丽水市,余庄前,,36,36,35,21,22,29,,144,84,23,17,3,3,0.6,0.6
2025-04-10T2300,1173A,119.176,34.5885,连云港市,市环境监测站,,48,48,65,31,37,115,,146,126,13,17,10,12,0.6,0.6
2025-04-10T2300,3000A,119.3581,34.6972,连云港市,德源药业,颗粒物(PM10),60,70,64,31,35,68,,133,112,44,29,10,9,0.6,0.5
2025-04-10T2300,3007A,119.178,34.844,连云港市,新城一中,颗粒物(PM10),54,58,86,30,50,85,,132,114,46,32,8,9,0.7,0.8
2025-04-10T2300,3008A,119.3608,34.7519,连云港市,胡沟管理处,,33,27,51,9,29,104,,118,100,26,35,12,12,0.4,0.5
2025-04-10T2300,3009A,119.1478,34.5911,连云港市,矿山设计院,颗粒物(PM10),51,51,70,27,35,109,,143,122,17,22,9,10,0.6,0.6
2025-04-10T2300,3434A,119.2413,34.6539,连云港市,工贸学校,,41,26,59,16,35,130,,143,136,14,24,8,10,0.5,0.6
2025-04-10T2300,3664A,119.4172,34.7341,连云港市,连云街道,,39,32,66,15,35,124,,137,131,14,32,10,10,0.6,0.7
2025-04-10T2300,2571A,102.3431,27.8099,凉山彝族自治州,青龙寺,颗粒物(PM10),56,62,23,14,11,78,,145,126,21,6,7,8,0.5,0.7
2025-04-10T2300,2572A,102.2721,27.8415,凉山彝族自治州,邛海宾馆,细颗粒物(PM2.5),58,60,57,41,33,96,,142,122,26,15,12,11,0.6,0.5
2025-04-10T2300,2573A,102.2625,27.898,凉山彝族自治州,西昌市政府,,35,34,32,24,23,104,,139,123,6,9,9,10,0.5,0.5
2025-04-10T2300,2574A,102.2685,27.8851,凉山彝族自治州,凉山州政府,颗粒物(PM10),52,53,33,32,23,97,,142,126,16,13,6,8,0.7,0.8
2025-04-10T2300,4229A,102.2342,27.8859,凉山彝族自治州,凯乐南路30号,颗粒物(PM10),53,55,41,33,26,73,,133,113,31,17,9,11,0.9,0.9
2025-04-10T2300,2212A,123.2,41.1953,辽阳市,宏伟区,细颗粒物(PM2.5),52,,51,36,35,127,,151,140,8,15,10,13,0.6,0.8
2025-04-10T2300,2213A,123.1683,41.2495,辽阳市,新华园,,44,44,72,30,38,125,,159,141,24,29,6,11,0.4,0.7
2025-04-10T2300,2214A,123.2354,41.2639,辽阳市,滨河路,细颗粒物(PM2.5),60,,53,43,38,104,,146,127,13,19,25,13,0.7,0.8
2025-04-10T2300,2215A,123.149,41.2991,辽阳市,铁西工业园,细颗粒物(PM2.5),57,48,91,40,50,120,,146,132,18,31,10,16,0.6,1.2
2025-04-10T2300,2227A,125.1358,42.8845,辽源市,环保局,细颗粒物(PM2.5),129,132,72,98,45,76,,150,124,54,25,11,9,1.1,0.8
2025-04-10T2300,3239A,125.0764,42.9078,辽源市,银鹰制药,细颗粒物(PM2.5),100,98,56,75,41,135,,157,136,19,24,12,10,1.0,0.8
2025-04-10T2300,1625A,115.9848,36.4372,聊城市,区政府,颗粒物(PM10),95,139,120,48,53,139,,160,149,25,34,12,11,0.5,0.5
2025-04-10T2300,2878A,116.0072,36.4343,聊城市,聊大东校,颗粒物(PM10),92,134,131,64,70,136,,159,149,20,25,10,10,0.8,0.8
2025-04-10T2300,3200A,115.9819,36.4978,聊城市,监控中心,颗粒物(PM10),95,140,120,68,67,145,,158,150,17,31,9,8,0.6,0.6
2025-04-10T2300,3513A,116.0445,36.4361,聊城市,九州社区,颗粒物(PM10),87,123,116,53,54,131,,168,151,15,20,6,4,0.6,0.5
2025-04-10T2300,4018A,116.0567,36.4608,聊城市,星美广场,颗粒物(PM10),87,123,129,46,52,138,,165,151,18,23,10,11,0.8,0.8
2025-04-10T2300,2632A,94.3681,29.6376,林芝市,林芝监测站,,36,,22,10,10,113,,111,111,4,8,5,5,0.3,0.3
2025-04-10T2300,2633A,94.3616,29.6616,林芝市,林芝人民医院,,33,16,17,10,10,105,,104,104,1,4,8,8,0.4,0.4
2025-04-10T2300,2603A,100.0781,23.8982,临沧市,市环保局,细颗粒物(PM2.5),93,80,83,69,61,97,,139,124,15,18,7,7,0.9,0.8
2025-04-10T2300,2604A,100.0894,23.8822,临沧市,市气象局,细颗粒物(PM2.5),87,72,72,64,62,95,,142,128,19,22,7,7,1.0,0.9
2025-04-10T2300,1733A,111.5531,36.0783,临汾市,临钢医院,颗粒物(PM10),90,130,76,28,15,6,,118,78,77,28,6,9,0.9,0.6
2025-04-10T2300,1734A,111.5028,36.0714,临汾市,技工学校,颗粒物(PM10),83,115,62,47,19,14,,126,93,62,23,5,7,1.0,0.5
2025-04-10T2300,1736A,111.5018,36.0855,临汾市,市委,颗粒物(PM10),83,116,66,28,19,22,,128,100,67,27,8,9,1.0,0.7
2025-04-10T2300,3018A,111.505,36.1014,临汾市,唐尧大酒店,颗粒物(PM10),86,121,74,27,24,22,,127,95,62,22,9,10,0.9,0.6
2025-04-10T2300,4244A,111.4879,36.0530,临汾市,启星学校,颗粒物(PM10),82,114,69,39,19,9,,123,91,73,25,6,7,0.7,0.5
2025-04-10T2300,4271A,103.2464,35.6123,临夏回族自治州,滨河东路1号,颗粒物(PM10),67,83,159,44,52,76,,111,105,15,15,8,7,0.4,0.4
2025-04-10T2300,4310A,103.2093,35.5995,临夏回族自治州,新华街21号,颗粒物(PM10),76,101,137,30,45,82,,98,94,11,17,14,11,0.3,0.4
2025-04-10T2300,1618A,118.3429,35.0532,临沂市,沂河小区,"颗粒物(PM10),细颗粒物(PM2.5)",60,70,89,43,61,98,,142,123,17,23,9,12,0.6,0.8
2025-04-10T2300,1619A,118.295,35.0583,临沂市,鲁南制药厂,细颗粒物(PM2.5),54,53,83,38,54,106,,150,132,26,29,9,14,0.7,1
2025-04-10T2300,1620A,118.2794,34.9976,临沂市,新光毛纺厂,颗粒物(PM10),79,107,83,36,56,90,,148,126,32,32,8,11,0.4,0.6
2025-04-10T2300,1621A,118.3956,35.0888,临沂市,河东保险公司,颗粒物(PM10),58,66,85,38,54,83,,148,120,38,40,4,7,0.4,0.6
2025-04-10T2300,3370A,118.3564,35.0215,临沂市,十里堡居委,颗粒物(PM10),56,61,79,39,47,96,,146,128,25,29,4,7,0.7,1
2025-04-10T2300,3496A,118.3604,35.1084,临沂市,南坊新区,颗粒物(PM10),60,70,84,39,53,92,,140,119,30,29,8,10,0.7,0.9
2025-04-10T2300,3860A,118.3920,35.0300,临沂市,皇山花园小区,颗粒物(PM10),56,61,83,35,50,96,,147,124,22,29,8,11,0.6,0.8
2025-04-10T2300,1870A,109.4856,24.3895,柳州市,柳东小学,,,,69,,62,,,120,,19,21,10,11,0.8,0.9
2025-04-10T2300,1871A,109.4157,24.3277,柳州市,环保监测站,细颗粒物(PM2.5),57,60,107,40,82,67,,103,89,15,27,10,15,0.8,1.2
2025-04-10T2300,1872A,109.389,24.341,柳州市,河西水厂,颗粒物(PM10),60,70,119,37,72,65,,105,89,18,28,7,17,0.9,1.3
2025-04-10T2300,1873A,109.4311,24.2921,柳州市,市四中,细颗粒物(PM2.5),53,51,123,37,68,61,,96,86,20,29,8,11,0.8,1.3
2025-04-10T2300,1874A,109.4006,24.3631,柳州市,市九中,细颗粒物(PM2.5),64,63,110,46,69,67,,107,85,15,24,8,13,0.9,1.1
2025-04-10T2300,1875A,109.4958,24.3134,柳州市,古亭山,,43,33,81,30,45,69,,106,95,12,20,7,9,0.9,1
2025-04-10T2300,3402A,109.5422,24.3996,柳州市,市二中,颗粒物(PM10),63,76,74,30,52,76,,113,101,11,22,22,15,0.7,0.9
2025-04-10T2300,2307A,116.5079,31.737,六安市,监测大楼,颗粒物(PM10),54,57,80,37,35,107,,134,125,14,13,5,6,0.4,0.4
2025-04-10T2300,2308A,116.4738,31.7643,六安市,皖西学院,颗粒物(PM10),54,58,88,31,31,118,,138,132,8,13,5,5,0.4,0.4
2025-04-10T2300,2309A,116.4996,31.7905,六安市,朝阳厂,颗粒物(PM10),53,55,81,36,32,98,,127,116,21,18,5,4,0.5,0.5
2025-04-10T2300,2310A,116.5567,31.7886,六安市,开发区,颗粒物(PM10),78,106,104,42,36,87,,135,118,23,21,6,5,0.6,0.6
2025-04-10T2300,2576A,104.8,26.5892,六盘水市,窑上,细颗粒物(PM2.5),75,65,70,55,54,86,,113,106,15,10,5,6,0.5,0.6
2025-04-10T2300,2577A,104.83,26.5917,六盘水市,黄土坡,"颗粒物(PM10),细颗粒物(PM2.5)",59,67,67,42,45,105,,124,121,15,21,12,14,0.9,1
2025-04-10T2300,2578A,104.89,26.5939,六盘水市,水钢,颗粒物(PM10),58,65,74,35,49,114,,130,128,7,17,8,12,0.6,0.8
2025-04-10T2300,2579A,104.8475,26.5894,六盘水市,民中,细颗粒物(PM2.5),64,62,64,46,49,107,,128,125,12,17,9,11,0.7,0.8
2025-04-10T2300,2580A,104.9544,26.5506,六盘水市,双水,细颗粒物(PM2.5),62,68,73,44,45,112,,126,124,9,15,10,11,0.3,0.4
2025-04-10T2300,2335A,117.0189,25.1181,龙岩市,龙岩师专,,,,,,,,,,,,,,,,
2025-04-10T2300,2336A,117.0217,25.1033,龙岩市,龙岩市监测站,,39,39,26,24,19,18,,117,75,41,16,9,5,0.8,0.6
2025-04-10T2300,2337A,117.0258,25.0661,龙岩市,闽西职业技术学院,,37,37,26,20,21,20,,108,66,37,17,16,7,0.6,0.6
2025-04-10T2300,2338A,117.0196,25.0306,龙岩市,龙岩学院,,33,24,22,23,17,36,,118,79,16,10,4,3,0.5,0.5
2025-04-10T2300,2665A,105.0822,33.3261,陇南市,汉王镇固水子,,,,,,,,,,,,,,,,
2025-04-10T2300,2885A,104.9339,33.3826,陇南市,滨江中学,颗粒物(PM10),63,76,73,25,26,110,,104,104,4,5,8,8,0.3,0.4
2025-04-10T2300,3247A,104.955,33.371,陇南市,市总工会,颗粒物(PM10),58,65,67,30,27,118,,114,114,5,5,10,10,0.6,0.6
2025-04-10T2300,2487A,111.9589,27.8901,娄底市,电视发射台,颗粒物(PM10),75,99,75,37,32,36,,97,73,5,6,6,7,0.7,0.7
2025-04-10T2300,2488A,111.9975,27.725,娄底市,市监测站,细颗粒物(PM2.5),89,87,72,66,50,64,,122,106,26,17,11,13,1.1,1
2025-04-10T2300,2489A,112.0194,27.7314,娄底市,市委党校,细颗粒物(PM2.5),77,79,66,56,53,75,,115,104,17,17,3,5,0.6,0.7
2025-04-10T2300,2490A,111.9561,27.7569,娄底市,涟钢,细颗粒物(PM2.5),114,123,69,86,53,20,,112,89,52,19,17,10,0.6,0.2
2025-04-10T2300,2491A,111.9892,27.7044,娄底市,市政府,细颗粒物(PM2.5),92,88,70,68,54,37,,117,96,28,16,6,7,0.6,0.7
2025-04-10T2300,1893A,105.4324,28.9634,泸州市,九狮山,,,,,,,,,,,,,,,,
2025-04-10T2300,1894A,105.4427,28.9063,泸州市,小市上码头,细颗粒物(PM2.5),119,142,102,90,67,,,164,135,20,29,8,12,1.0,1
2025-04-10T2300,1895A,105.4241,28.8573,泸州市,兰田宪桥,细颗粒物(PM2.5),104,105,86,78,70,69,,154,113,31,28,16,10,1.1,1
2025-04-10T2300,1896A,105.4379,28.8833,泸州市,市环监站,,,,,,,,,,,,,,,,
2025-04-10T2300,4272A,105.3689,28.7783,泸州市,纳溪中医医院,细颗粒物(PM2.5),128,125,92,97,68,38,,152,106,51,25,8,8,1.0,0.9
2025-04-10T2300,2183A,111.1406,37.5211,吕梁市,环保局,颗粒物(PM10),64,78,54,23,18,25,,110,83,68,28,5,6,0.3,0.2
2025-04-10T2300,2185A,111.1297,37.5136,吕梁市,自来水公司,颗粒物(PM10),65,79,72,22,18,38,,112,90,52,26,5,5,0.6,0.6
2025-04-10T2300,2867A,111.1283,37.51,吕梁市,马茂庄小学,颗粒物(PM10),81,112,60,27,16,15,,113,79,73,33,5,3,0.5,0.3
2025-04-10T2300,1812A,112.3931,34.6516,洛阳市,市委党校,颗粒物(PM10),87,124,119,48,57,135,,145,142,16,22,8,7,0.8,0.9
2025-04-10T2300,1815A,112.494,34.6886,洛阳市,河南林校,颗粒物(PM10),84,117,135,51,74,62,,152,120,44,22,7,7,0.8,0.9
2025-04-10T2300,1816A,112.3844,34.623,洛阳市,开发区管委会,颗粒物(PM10),92,134,127,60,75,135,,144,142,14,19,11,10,0.5,0.5
2025-04-10T2300,1817A,112.4267,34.6258,洛阳市,市委新办公区,颗粒物(PM10),90,130,130,47,53,141,,150,146,17,20,8,7,0.6,0.6
2025-04-10T2300,3340A,112.6005,34.6326,洛阳市,伊滨,颗粒物(PM10),75,100,112,44,60,120,,146,136,26,23,11,9,0.6,0.7
2025-04-10T2300,3341A,112.4951,34.6332,洛阳市,中移产业园,颗粒物(PM10),95,140,143,45,64,98,,139,130,30,20,9,9,0.8,0.8
2025-04-10T2300,3593A,112.5736,34.8993,洛阳市,吉利监测站,颗粒物(PM10),74,97,115,26,28,51,,156,107,48,23,8,10,0.6,0.8
2025-04-10T2300,3635A,112.3677,34.662,洛阳市,河科大西苑校区,颗粒物(PM10),88,125,121,45,61,138,,148,144,22,27,11,10,0.7,0.8
2025-04-10T2300,3636A,112.4388,34.6781,洛阳市,英才小学,颗粒物(PM10),84,118,121,48,57,115,,148,134,27,24,10,10,0.8,0.9
2025-04-10T2300,4214A,112.4600,34.6949,洛阳市,春都路1号院,颗粒物(PM10),83,115,110,38,56,89,,156,132,34,23,8,9,0.7,0.9
2025-04-10T2300,2399A,114.051,33.5699,漯河市,三五一五工厂,颗粒物(PM10),86,122,148,50,73,115,,154,132,13,16,6,7,0.6,0.7
2025-04-10T2300,2400A,114.0055,33.5698,漯河市,漯河大学,颗粒物(PM10),83,115,146,46,68,105,,158,128,22,19,9,8,0.5,0.6
2025-04-10T2300,2401A,114.0138,33.5828,漯河市,市水利局,颗粒物(PM10),91,132,149,44,72,118,,162,138,15,17,7,7,0.4,0.6
2025-04-10T2300,2402A,114.0261,33.5698,漯河市,市广电局,颗粒物(PM10),90,129,149,40,71,101,,157,129,24,16,9,7,0.5,0.7
2025-04-10T2300,3478A,113.9749,33.5664,漯河市,市图书馆,颗粒物(PM10),86,121,153,40,73,111,,158,133,21,20,5,7,0.6,0.7
2025-04-10T2300,4250A,114.0892,33.5882,漯河市,韶山路11号,颗粒物(PM10),88,125,150,41,72,106,,159,130,23,22,4,6,0.4,0.6
2025-04-10T2300,1798A,118.5092,31.6837,马鞍山市,湖东路四小,细颗粒物(PM2.5),89,121,96,66,38,126,,142,128,25,31,14,13,1.0,0.9
2025-04-10T2300,1799A,118.5024,31.6449,马鞍山市,开发区,细颗粒物(PM2.5),104,130,94,78,40,121,,134,116,30,40,11,7,1.2,0.8
2025-04-10T2300,1802A,118.6245,31.7241,马鞍山市,濮塘,细颗粒物(PM2.5),83,108,90,61,38,132,,150,144,20,16,8,11,0.8,0.8
2025-04-10T2300,3633A,118.4918,31.6809,马鞍山市,雨山,细颗粒物(PM2.5),89,126,92,66,37,123,,139,124,26,29,11,12,1.2,1
2025-04-10T2300,4191A,118.5274,31.72227,马鞍山市,慈湖高新区,细颗粒物(PM2.5),114,171,108,86,50,120,,137,129,30,38,15,13,1.0,0.9
2025-04-10T2300,1686A,111.0286,21.4688,茂名市,电白南海,,35,29,33,24,26,41,,59,,19,16,1,2,0.7,0.7
2025-04-10T2300,1687A,110.9294,21.6533,茂名市,茂石化七小,,44,44,40,22,19,41,,62,53,15,11,2,4,0.8,0.9
2025-04-10T2300,1688A,110.9107,21.6687,茂名市,健康路,,39,39,37,27,22,49,,70,60,11,9,3,5,0.7,0.8
2025-04-10T2300,1689A,110.8592,21.6828,茂名市,高岭,,46,46,42,22,18,45,,65,53,14,12,4,6,0.7,0.7
2025-04-10T2300,3450A,111.01,21.5165,茂名市,电白水东,,24,24,28,12,14,51,,59,58,14,16,2,2,0.7,0.7
2025-04-10T2300,2539A,104.0308,30.0478,眉山市,黑龙滩水库,颗粒物(PM10),56,62,41,32,20,76,,173,144,13,9,1,2,0.7,0.5
2025-04-10T2300,2540A,103.8416,30.0874,眉山市,气象局,颗粒物(PM10),75,99,97,48,47,139,,162,147,24,49,4,4,0.7,0.8
2025-04-10T2300,3137A,103.8578,30.0744,眉山市,市委党校,颗粒物(PM10),63,75,83,44,42,139,,160,144,22,46,10,9,0.9,0.9
2025-04-10T2300,3148A,103.8291,30.0564,眉山市,区人社局,细颗粒物(PM2.5),62,47,43,44,37,131,,169,152,36,28,9,9,0.9,0.8
2025-04-10T2300,1690A,116.1231,24.3284,梅州市,梅江月梅,,42,42,22,24,18,20,,112,81,45,14,5,4,0.7,0.6
2025-04-10T2300,1691A,116.0797,24.2719,梅州市,梅县新城,颗粒物(PM10),51,51,34,21,26,18,,118,72,44,23,6,5,0.7,0.6
2025-04-10T2300,1692A,116.1248,24.2654,梅州市,环境监控中心,,38,38,26,26,24,12,,116,77,47,23,6,6,0.8,0.8
2025-04-10T2300,3315A,116.1233,24.2991,梅州市,梅龙,,38,31,21,26,17,36,,114,82,24,11,6,6,0.8,0.7
2025-04-10T2300,1878A,104.7778,31.4741,绵阳市,富乐山,颗粒物(PM10),61,72,57,35,26,88,,140,126,24,13,8,6,0.5,0.5
2025-04-10T2300,1880A,104.6697,31.4668,绵阳市,高新区自来水公司,颗粒物(PM10),76,102,71,44,27,78,,150,119,55,31,4,3,0.7,0.6
2025-04-10T2300,1881A,104.7287,31.5075,绵阳市,三水厂,颗粒物(PM10),78,106,78,46,30,36,,148,110,75,34,7,6,0.8,0.6
2025-04-10T2300,3491A,104.69,31.5322,绵阳市,西科大附属小学,颗粒物(PM10),83,115,76,54,31,40,,160,130,73,31,7,7,0.8,0.5
2025-04-10T2300,3492A,104.5648,31.5343,绵阳市,安州区旅游局,颗粒物(PM10),74,97,78,41,30,94,,155,132,31,23,10,10,0.6,0.4
2025-04-10T2300,4226A,104.7651,31.4531,绵阳市,绵阳市气象局,颗粒物(PM10),72,94,60,41,25,81,,133,122,41,20,6,6,0.5,0.3
2025-04-10T2300,1784A,129.61,44.561,牡丹江市,环保大楼,颗粒物(PM10),68,86,59,43,37,34,,121,72,44,25,8,8,0.7,0.5
2025-04-10T2300,1785A,129.6115,44.5782,牡丹江市,文化广场,细颗粒物(PM2.5),97,133,64,72,40,21,,127,74,60,25,15,12,1.2,0.7
2025-04-10T2300,1786A,129.5904,44.5963,牡丹江市,第一医院,细颗粒物(PM2.5),75,81,59,55,37,66,,124,85,26,20,13,13,0.6,0.5
2025-04-10T2300,1787A,129.6364,44.6075,牡丹江市,机车工厂,颗粒物(PM10),68,86,68,42,36,29,,120,79,51,30,24,16,0.8,0.7
2025-04-10T2300,1788A,129.6386,44.5462,牡丹江市,第一中学,细颗粒物(PM2.5),53,,49,37,31,60,,130,80,18,21,8,9,0.6,0.7
2025-04-10T2300,2531A,105.0703,29.61,内江市,市监测站,细颗粒物(PM2.5),77,75,59,56,51,78,,179,134,38,26,5,4,1.1,1
2025-04-10T2300,2532A,105.0717,29.5947,内江市,东兴区政府,细颗粒物(PM2.5),83,77,62,61,48,61,,166,128,54,38,9,8,0.9,0.9
2025-04-10T2300,2533A,105.0653,29.5817,内江市,内江二中,细颗粒物(PM2.5),95,92,70,71,57,76,,168,134,47,37,9,9,0.9,0.8
2025-04-10T2300,2534A,105.0406,29.5822,内江市,内江日报社,细颗粒物(PM2.5),97,,71,72,57,57,,176,131,58,37,10,9,0.9,0.7
2025-04-10T2300,2628A,92.0657,31.4846,那曲市,那曲监测站,,33,33,38,20,20,72,,102,93,29,19,6,7,0.7,0.7
2025-04-10T2300,4243A,92.0515,31.4787,那曲市,那曲市委宣传部,,26,,18,16,12,83,,111,101,18,14,5,6,0.4,0.6
2025-04-10T2300,1290A,115.8931,28.6843,南昌市,省外办,,,,48,,35,,,100,,,19,,7,,0.7
2025-04-10T2300,1291A,115.8886,28.7003,南昌市,省林业公司,,44,44,41,22,31,63,,124,100,26,16,8,8,0.6,0.6
2025-04-10T2300,1292A,115.8126,28.7442,南昌市,林科所,颗粒物(PM10),54,58,35,27,26,4,,148,90,86,19,10,8,0.6,0.7
2025-04-10T2300,1294A,115.8518,28.687,南昌市,建工学校,颗粒物(PM10),58,65,48,30,29,68,,138,105,34,14,5,4,0.8,0.8
2025-04-10T2300,1295A,115.8921,28.6424,南昌市,象湖,,45,43,43,31,29,35,,148,103,47,14,7,7,0.8,0.7
2025-04-10T2300,1296A,115.7423,28.7996,南昌市,武术学校,,35,,26,24,15,32,,143,94,6,5,11,11,0.8,0.9
2025-04-10T2300,3046A,115.9084,28.6062,南昌市,机电学校,颗粒物(PM10),53,55,48,31,33,34,,133,90,52,17,2,2,0.7,0.7
2025-04-10T2300,3690A,115.9721,28.7031,南昌市,外国语学校,颗粒物(PM10),53,56,48,29,30,50,,148,109,38,15,5,5,0.4,0.4
2025-04-10T2300,4192A,115.9316,28.68677,南昌市,南京东路235号,颗粒物(PM10),57,64,57,28,31,56,,143,106,47,21,9,9,1.1,0.7
2025-04-10T2300,1905A,106.056,30.8064,南充市,西山风景区,细颗粒物(PM2.5),62,65,54,44,30,89,,156,141,33,10,6,6,0.7,0.4
2025-04-10T2300,1906A,106.0789,30.8023,南充市,南充市委,颗粒物(PM10),77,103,89,50,45,25,,154,112,80,36,4,5,1.0,0.8
2025-04-10T2300,1907A,106.1031,30.8217,南充市,南充炼油厂,颗粒物(PM10),89,128,95,64,46,73,,148,111,34,32,8,6,0.7,0.7
2025-04-10T2300,4227A,106.1083,30.7884,南充市,梨树横街98号,细颗粒物(PM2.5),82,110,92,60,40,40,,149,108,77,40,8,7,0.8,0.5
2025-04-10T2300,4304A,106.1172,30.843,南充市,清泉寺北路188号,细颗粒物(PM2.5),90,114,92,67,41,96,,156,130,27,25,8,5,0.7,0.5
2025-04-10T2300,4305A,106.067,30.7616,南充市,同庆路1号,颗粒物(PM10),83,116,88,51,45,27,,143,85,84,45,5,5,1.0,0.7
2025-04-10T2300,1151A,118.8086,32.1065,南京市,迈皋桥,颗粒物(PM10),74,97,96,48,51,132,,167,154,48,70,4,7,0.6,0.6
2025-04-10T2300,1152A,118.7538,32.0551,南京市,草场门,颗粒物(PM10),67,83,95,44,41,124,,160,152,28,39,6,7,0.9,0.8
2025-04-10T2300,1153A,118.7794,32.0745,南京市,山西路,颗粒物(PM10),78,105,113,56,45,134,,163,157,24,34,5,6,0.5,0.5
2025-04-10T2300,1154A,118.7752,32.0023,南京市,中华门,颗粒物(PM10),71,92,92,44,39,96,,136,128,36,38,10,13,0.7,0.6
2025-04-10T2300,1155A,118.8109,32.0309,南京市,瑞金路,颗粒物(PM10),74,97,101,46,43,109,,152,144,17,28,6,6,0.4,0.4
2025-04-10T2300,1156A,118.7997,32.0754,南京市,玄武湖,颗粒物(PM10),66,82,93,40,41,116,,138,135,21,27,9,11,0.7,0.7
2025-04-10T2300,1157A,118.6414,32.0931,南京市,浦口,颗粒物(PM10),70,89,95,38,38,125,,170,160,27,29,7,8,0.6,0.6
2025-04-10T2300,1158A,118.7356,31.9996,南京市,奥体中心,,,111,97,,40,114,,147,139,30,39,9,11,0.7,0.6
2025-04-10T2300,1159A,118.9125,32.1028,南京市,仙林大学城,颗粒物(PM10),70,90,108,44,59,118,,177,156,22,44,11,13,1.0,1.1
2025-04-10T2300,3422A,118.8436,31.9198,南京市,江宁彩虹桥,颗粒物(PM10),65,79,90,41,34,109,,160,142,19,22,4,5,0.7,0.7
2025-04-10T2300,3427A,118.8554,32.3578,南京市,六合雄州,颗粒物(PM10),63,75,100,42,50,52,,156,113,31,18,6,7,0.5,0.7
2025-04-10T2300,4249A,118.8708,31.3402,南京市,汶溪路181号,"颗粒物(PM10),细颗粒物(PM2.5)",64,78,77,46,34,126,,146,138,33,26,5,5,0.9,0.9
2025-04-10T2300,4312A,119.019,31.6512,南京市,中山西路1号,颗粒物(PM10),71,92,74,41,34,106,,160,143,30,24,8,8,0.9,0.8
2025-04-10T2300,1401A,108.3103,22.7881,南宁市,二十一中,,40,28,40,28,28,58,,109,89,15,18,5,6,1.1,0.9
2025-04-10T2300,1402A,108.3141,22.8528,南宁市,北湖,,38,37,42,26,27,55,,113,90,17,22,5,7,1.2,1
2025-04-10T2300,1403A,108.3206,22.8225,南宁市,市监测站,,42,,42,29,27,55,,102,85,13,18,4,6,0.8,0.6
2025-04-10T2300,1404A,108.3829,22.8037,南宁市,大自然花园,,35,32,42,24,26,71,,118,97,8,11,5,7,0.7,0.7
2025-04-10T2300,1405A,108.4394,22.7904,南宁市,仙葫,,33,28,42,23,28,55,,97,80,10,12,2,4,0.9,0.9
2025-04-10T2300,1406A,108.2397,22.8467,南宁市,区农职院,,40,39,48,28,30,55,,108,84,15,23,4,5,0.9,0.9
2025-04-10T2300,1407A,108.3275,22.735,南宁市,英华嘉园,,48,36,43,33,29,48,,105,83,22,21,9,8,0.9,0.7
2025-04-10T2300,3401A,108.4834,22.7618,南宁市,红星社区,,38,31,46,26,32,59,,120,96,17,12,8,9,1.1,1.1
2025-04-10T2300,4221A,108.2177,22.7774,南宁市,乐贤路16号,,36,36,49,23,29,41,,97,74,26,26,7,9,0.8,0.8
2025-04-10T2300,2331A,118.0966,26.6761,南平市,茫荡山,,,,,,,,,,,,,,,,
2025-04-10T2300,2332A,118.1681,26.6369,南平市,南平市监测站,,30,23,21,21,17,25,,103,66,25,13,3,4,1.0,0.8
2025-04-10T2300,2333A,118.1825,26.6489,南平市,南平铝业有限公司,,32,31,22,22,17,11,,104,63,39,14,6,3,0.8,0.8
2025-04-10T2300,2334A,118.1756,26.6272,南平市,南平七中,,28,25,21,19,13,25,,99,66,20,10,4,4,0.8,0.8
2025-04-10T2300,1168A,120.9098,31.9663,南通市,狼山街道,颗粒物(PM10),53,56,82,33,41,116,,153,124,17,22,7,8,0.7,0.9
2025-04-10T2300,1169A,120.86,32.0005,南通市,虹桥,颗粒物(PM10),53,55,81,26,49,119,,150,125,18,22,6,7,0.6,0.8
2025-04-10T2300,1170A,120.87,32.02,南通市,城中,细颗粒物(PM2.5),58,64,89,41,48,119,,152,128,19,23,7,8,0.7,0.9
2025-04-10T2300,1171A,120.94,31.93,南通市,星湖花园,颗粒物(PM10),51,51,73,31,40,104,,151,116,19,22,7,9,0.5,0.7
2025-04-10T2300,1172A,120.81,32.0417,南通市,紫琅学院,颗粒物(PM10),52,54,82,29,48,112,,143,114,18,27,4,5,0.6,0.6
2025-04-10T2300,3291A,121.067,32.062,南通市,通州监测站,颗粒物(PM10),56,61,76,39,44,106,,152,126,19,17,6,6,0.6,0.8
2025-04-10T2300,3432A,120.9348,31.9883,南通市,环境教育馆,细颗粒物(PM2.5),53,53,80,37,52,112,,158,123,19,20,7,8,0.4,0.6
2025-04-10T2300,2404A,112.5224,33.0122,南阳市,瓦房庄,颗粒物(PM10),96,141,124,51,45,18,,161,103,63,25,5,6,1.0,0.7
2025-04-10T2300,2405A,112.5003,32.9735,南阳市,汉画馆,颗粒物(PM10),78,106,106,51,50,9,,139,85,69,29,5,5,0.9,0.7
2025-04-10T2300,2406A,112.5573,33.027,南阳市,气象站,颗粒物(PM10),78,106,124,41,47,56,,153,114,41,20,7,7,0.7,0.7
2025-04-10T2300,2407A,112.5481,32.9689,南阳市,理工学院,颗粒物(PM10),73,95,113,32,42,72,,152,118,33,24,4,4,0.6,0.7
2025-04-10T2300,4008A,112.5234,32.9922,南阳市,卧龙区政府,颗粒物(PM10),79,108,116,41,53,39,,148,97,46,25,4,5,0.9,0.7
2025-04-10T2300,1234A,121.8358,29.911,宁波市,区环保大楼,颗粒物(PM10),63,75,57,38,28,41,,145,118,95,43,8,10,0.7,0.7
2025-04-10T2300,1235A,121.56,29.82,宁波市,万里学院,,49,49,41,28,22,81,,156,122,34,18,6,6,0.8,0.8
2025-04-10T2300,1236A,121.713,29.9572,宁波市,龙赛医院,颗粒物(PM10),64,78,65,28,26,76,,154,126,48,39,10,9,0.6,0.6
2025-04-10T2300,1239A,121.633,29.7733,宁波市,钱湖水厂,颗粒物(PM10),53,55,41,26,22,118,,152,128,15,16,8,8,0.6,0.6
2025-04-10T2300,1240A,121.5856,29.8635,宁波市,太古小学,颗粒物(PM10),56,62,47,24,20,104,,153,127,23,19,9,9,0.5,0.6
2025-04-10T2300,1241A,121.524,29.8674,宁波市,市环境监测中心,颗粒物(PM10),54,57,45,26,22,93,,158,124,33,27,9,9,0.5,0.5
2025-04-10T2300,2871A,121.6147,29.9017,宁波市,万里国际学校,,50,50,46,21,21,117,,162,135,14,17,8,8,0.5,0.5
2025-04-10T2300,3710A,121.5594,29.8975,宁波市,白沙活动中心,颗粒物(PM10),52,54,44,26,22,103,,162,133,20,19,8,7,0.5,0.5
2025-04-10T2300,2339A,119.5001,26.6946,宁德市,金涵水库,,,,,,,,,,,,,,,,
2025-04-10T2300,2341A,119.5388,26.6612,宁德市,宁德市监测站,,49,40,27,34,24,50,,121,103,32,14,4,4,0.9,0.6
2025-04-10T2300,3209A,119.5231,26.6562,宁德市,宁德一中,,40,39,27,28,23,60,,116,96,10,8,6,6,1.0,0.4
2025-04-10T2300,2618A,98.8601,25.8567,怒江傈僳族自治州,州监测站,,,,42,,26,,,118,,,7,,7,,0.3
2025-04-10T2300,2619A,98.8546,25.8417,怒江傈僳族自治州,泸水一中,,45,45,46,19,35,79,,130,108,20,12,7,7,0.6,0.5
2025-04-10T2300,1888A,101.6891,26.571,攀枝花市,弄弄坪,颗粒物(PM10),63,76,73,38,43,116,,159,136,24,24,8,7,1.4,1.1
2025-04-10T2300,1889A,101.5769,26.5928,攀枝花市,河门口,细颗粒物(PM2.5),54,56,64,38,42,123,,143,133,4,16,8,20,0.5,0.8
2025-04-10T2300,1890A,101.7169,26.585,攀枝花市,炳草岗,颗粒物(PM10),53,55,66,34,39,86,,164,131,35,35,15,15,1.0,0.6
2025-04-10T2300,1891A,101.7369,26.5008,攀枝花市,仁和,颗粒物(PM10),56,61,58,36,41,134,,155,133,16,17,7,11,0.5,0.6
2025-04-10T2300,2835A,101.7227,26.567,攀枝花市,四十中小,颗粒物(PM10),52,54,60,35,38,132,,158,132,11,26,4,9,0.5,0.7
2025-04-10T2300,1604A,122.0303,41.1489,盘锦市,开发区,,44,34,45,28,39,139,,149,148,13,17,9,9,0.5,0.5
2025-04-10T2300,1605A,122.0485,41.0883,盘锦市,兴隆台,,45,41,44,31,40,121,,139,136,19,23,9,8,0.6,0.6
2025-04-10T2300,1606A,121.8297,41.1028,盘锦市,新生街道,,48,34,32,33,36,147,,146,146,19,19,16,11,0.5,0.7
2025-04-10T2300,1832A,113.3257,33.742,平顶山市,新华旅馆,颗粒物(PM10),106,162,153,43,56,70,,166,131,42,21,5,7,0.7,0.7
2025-04-10T2300,1833A,113.2919,33.737,平顶山市,规划设计院,颗粒物(PM10),92,133,150,57,71,79,,170,133,33,18,5,7,0.7,0.7
2025-04-10T2300,1834A,113.182,33.774,平顶山市,平顶山工学院,颗粒物(PM10),83,115,144,53,64,106,,178,152,22,17,6,7,0.7,0.7
2025-04-10T2300,3204A,113.3025,33.73,平顶山市,规划局,,,,154,,66,,,172,148,,20,6,8,0.6,1
2025-04-10T2300,3594A,112.8867,33.9116,平顶山市,石龙区,颗粒物(PM10),108,165,193,65,58,95,,168,143,27,43,8,10,0.5,0.5
2025-04-10T2300,2656A,106.6692,35.5461,平凉市,聚贤嘉苑,颗粒物(PM10),72,93,103,32,22,58,,122,101,36,23,10,9,0.5,0.4
2025-04-10T2300,2657A,106.7021,35.5307,平凉市,博物馆,颗粒物(PM10),72,93,89,33,22,49,,119,95,40,22,12,10,0.4,0.5
2025-04-10T2300,2347A,114.0997,27.5002,萍乡市,武功山,,35,,25,24,21,35,,94,62,6,6,13,14,0.7,0.7
2025-04-10T2300,2348A,113.8385,27.6434,萍乡市,中医院,,40,40,49,26,39,86,,118,101,8,8,13,9,0.9,1.1
2025-04-10T2300,2349A,113.8493,27.6253,萍乡市,市政府车库,细颗粒物(PM2.5),67,,42,48,36,70,,122,101,19,12,8,6,0.7,0.9
2025-04-10T2300,2350A,113.8676,27.6435,萍乡市,市环保局,细颗粒物(PM2.5),58,47,45,41,36,80,,118,101,9,6,10,7,0.7,0.8
2025-04-10T2300,2351A,113.866,27.6198,萍乡市,安源区政府,颗粒物(PM10),56,62,52,38,42,55,,117,94,28,16,18,15,1.1,0.9
2025-04-10T2300,2319A,119.0141,25.4325,莆田市,荔城区仓后路,"颗粒物(PM10),细颗粒物(PM2.5)",57,63,50,40,39,43,,123,101,39,20,4,3,1.2,0.9
2025-04-10T2300,2320A,119.0015,25.4553,莆田市,莆田市监测站,,45,39,43,31,38,58,,120,97,8,12,4,4,0.9,0.8
2025-04-10T2300,2321A,119.1119,25.4561,莆田市,涵江区六中,细颗粒物(PM2.5),53,42,46,37,45,76,,124,104,26,27,3,3,0.9,0.8
2025-04-10T2300,2322A,119.1013,25.3215,莆田市,秀屿区政府,细颗粒物(PM2.5),64,46,41,46,36,66,,123,102,25,17,9,4,1.1,1
2025-04-10T2300,2323A,118.981,25.4792,莆田市,东圳水库,,,,,,,,,,,,,,,,
2025-04-10T2300,2392A,115.0312,35.7636,濮阳市,环保局,颗粒物(PM10),69,88,91,47,64,124,,146,140,18,21,8,11,0.8,0.8
2025-04-10T2300,2394A,115.0574,35.7609,濮阳市,油田运输公司,颗粒物(PM10),80,109,119,47,65,131,,162,153,17,20,6,9,0.8,0.9
2025-04-10T2300,3021A,115,35.7668,濮阳市,濮水河管理处,颗粒物(PM10),84,117,118,51,66,135,,155,151,17,21,6,8,0.9,1
2025-04-10T2300,4216A,115.0924,35.7686,濮阳市,任丘路479号,颗粒物(PM10),85,119,124,51,69,126,,167,156,16,18,7,9,0.8,1.1
2025-04-10T2300,2601A,100.98,22.7633,普洱市,市环保局,颗粒物(PM10),67,84,84,44,40,65,,131,100,18,15,3,4,0.7,0.7
2025-04-10T2300,2602A,100.9817,22.8322,普洱市,普洱第二中学,颗粒物(PM10),56,62,67,35,44,70,,145,108,22,27,7,7,0.6,0.6
2025-04-10T2300,2262A,131.0518,45.8751,七台河市,新一中,细颗粒物(PM2.5),286,317,153,236,108,123,,158,154,49,30,18,16,2.2,1.5
2025-04-10T2300,3345A,131.0577,45.7879,七台河市,中波台,细颗粒物(PM2.5),309,326,124,259,77,72,,125,115,81,34,22,11,1.8,0.8
2025-04-10T2300,3637A,131.0176,45.7761,七台河市,人民广场,细颗粒物(PM2.5),343,380,129,293,92,69,,128,117,75,32,19,12,2.0,1
2025-04-10T2300,3684A,130.8781,45.8222,七台河市,新建矿广场,细颗粒物(PM2.5),336,415,170,286,91,33,,131,98,77,34,20,13,2.0,1
2025-04-10T2300,1779A,123.9305,47.3636,齐齐哈尔市,安居小区,细颗粒物(PM2.5),107,96,116,80,88,72,,138,106,27,30,6,8,0.5,0.6
2025-04-10T2300,1780A,123.9488,47.3386,齐齐哈尔市,中心广场,细颗粒物(PM2.5),144,207,147,110,99,71,,131,112,30,29,9,10,0.7,0.7
2025-04-10T2300,1781A,123.9483,47.3227,齐齐哈尔市,农牧车辆厂,细颗粒物(PM2.5),179,,118,135,87,73,,142,116,28,26,8,9,0.7,0.5
2025-04-10T2300,1783A,123.945,47.2988,齐齐哈尔市,市环境监测站,细颗粒物(PM2.5),199,160,122,149,98,68,,138,114,34,24,6,6,0.9,0.7
2025-04-10T2300,3662A,123.6333,47.2075,齐齐哈尔市,富区青少年活动中心,细颗粒物(PM2.5),245,208,177,195,132,74,,145,113,38,29,8,11,0.9,1.1
2025-04-10T2300,2591A,107.9783,26.5747,黔东南苗族侗族自治州,市环境监测站,细颗粒物(PM2.5),54,45,43,38,36,91,,100,94,7,14,2,2,0.6,0.7
2025-04-10T2300,2881A,107.8908,26.5311,黔东南苗族侗族自治州,凯里学院,细颗粒物(PM2.5),52,36,41,36,41,94,,105,103,1,9,2,2,0.6,0.7
2025-04-10T2300,2593A,107.5228,26.2403,黔南布依族苗族自治州,小围寨,,42,29,39,29,32,81,,102,94,7,10,6,5,0.5,0.6
