timepoint,stationcode,longitude,latitude,area,positionname,primarypollutant,aqi,pm10,pm10_24h,pm2_5,pm2_5_24h,o3,o3_24h,o3_8h,o3_8h_24h,no2,no2_24h,so2,so2_24h,co,co_24h
2026-01-25T2000,2568A,102.2503,31.8896,阿坝藏族羌族自治州,马师校,细颗粒物(PM2.5),73,71,21,53,20,19,,67,62,36,20,6,4,1.0,0.5
2026-01-25T2000,3994A,102.2174,31.9016,阿坝藏族羌族自治州,马尔康中学西区,细颗粒物(PM2.5),57,,16,40,14,38,,60,59,32,18,6,6,0.8,0.5
2026-01-25T2000,2695A,80.2899,41.1684,阿克苏地区,电视台,颗粒物(PM10),310,428,447,98,90,53,,47,47,9,14,8,10,0.4,0.7
2026-01-25T2000,2696A,80.2592,41.1541,阿克苏地区,艺术中心,颗粒物(PM10),258,390,422,111,103,51,,50,50,18,20,4,4,0.6,0.7
2026-01-25T2000,2205A,105.699,38.8409,阿拉善盟,蒙二幼,颗粒物(PM10),127,204,860,43,166,74,,76,76,8,9,9,9,0.6,0.7
2026-01-25T2000,2206A,105.7198,38.8508,阿拉善盟,环保局新楼,颗粒物(PM10),122,194,821,35,169,69,,70,70,7,9,8,8,0.6,0.6
2026-01-25T2000,2708A,88.1266,47.8515,阿勒泰地区,市站,,28,9,25,8,12,31,,65,51,55,29,4,4,0.5,0.5
2026-01-25T2000,4166A,88.1198,47.7931,阿勒泰地区,阿勒泰路33号,,25,,30,9,13,23,,58,50,50,28,10,9,0.5,0.5
2026-01-25T2000,2630A,80.1171,32.4999,阿里地区,阿里监测站,,29,,3,3,3,90,,126,110,1,5,6,8,0.5,0.5
2026-01-25T2000,3192A,80.0906,32.5029,阿里地区,阿里藏医院,,28,13,19,3,7,89,,116,108,2,3,8,11,0.6,0.7
2026-01-25T2000,2644A,109.0088,32.6974,安康市,汉滨区检察院,细颗粒物(PM2.5),62,57,83,44,61,29,,37,37,33,40,4,6,0.8,1
2026-01-25T2000,4054A,109.0324,32.6913,安康市,市邮政管理局,细颗粒物(PM2.5),65,64,88,47,61,35,,36,36,27,41,4,6,0.8,1
2026-01-25T2000,2291A,117.0806,30.5181,安庆市,环科院,细颗粒物(PM2.5),159,156,113,121,96,26,,36,35,39,43,7,9,1.0,0.9
2026-01-25T2000,2292A,117.0331,30.5118,安庆市,马山宾馆,细颗粒物(PM2.5),168,148,113,127,96,26,,41,39,42,51,6,8,1.0,1
2026-01-25T2000,2294A,116.9897,30.6146,安庆市,安庆大学,细颗粒物(PM2.5),156,143,99,119,80,29,,46,46,54,50,4,4,1.0,0.8
2026-01-25T2000,3173A,117.0598,30.5351,安庆市,市人大,细颗粒物(PM2.5),165,158,129,125,100,24,,37,36,42,47,7,8,0.9,0.9
2026-01-25T2000,3123A,105.9408,26.2431,安顺市,凤凰山,细颗粒物(PM2.5),104,,25,78,21,9,,43,37,26,13,39,16,0.7,0.4
2026-01-25T2000,3124A,105.9443,26.2567,安顺市,金钟山,细颗粒物(PM2.5),78,,23,57,20,13,,44,38,21,12,22,15,0.9,0.6
2026-01-25T2000,3125A,105.8983,26.248,安顺市,娄家坡,细颗粒物(PM2.5),88,,23,65,22,9,,42,36,28,13,23,14,0.8,0.4
2026-01-25T2000,1819A,114.3552,36.1017,安阳市,红庙街,细颗粒物(PM2.5),153,126,187,117,164,21,,49,45,58,45,8,9,1.0,1.1
2026-01-25T2000,1820A,114.361,36.0681,安阳市,银杏小区,细颗粒物(PM2.5),176,,188,133,180,22,,52,47,53,40,8,9,1.0,1.1
2026-01-25T2000,3141A,114.3921,36.0879,安阳市,信访局,细颗粒物(PM2.5),172,140,195,130,175,22,,52,47,48,36,9,11,1.0,1.1
2026-01-25T2000,3669A,114.4706,36.0634,安阳市,左辅环卫站,细颗粒物(PM2.5),190,164,203,143,184,22,,48,43,55,42,8,9,1.1,1.1
2026-01-25T2000,4117A,114.2918,36.0769,安阳市,钢三路198号,细颗粒物(PM2.5),163,155,213,124,178,22,,50,47,50,38,10,14,0.9,1.2
2026-01-25T2000,1748A,123.0441,41.1201,鞍山市,深沟寺,细颗粒物(PM2.5),64,63,36,46,22,29,,56,48,42,23,11,11,0.9,0.8
2026-01-25T2000,1749A,123.011,41.0931,鞍山市,太阳城,细颗粒物(PM2.5),64,56,33,46,22,23,,55,46,48,23,15,16,0.8,0.8
2026-01-25T2000,1750A,123.0483,41.1445,鞍山市,太平,颗粒物(PM10),69,88,51,45,23,29,,55,44,42,28,15,15,0.8,0.8
2026-01-25T2000,1751A,122.964,41.0968,鞍山市,铁西三道街,细颗粒物(PM2.5),64,73,61,46,33,20,,50,40,58,40,20,20,0.7,1.1
2026-01-25T2000,1753A,123.0219,41.0822,鞍山市,明达新区,细颗粒物(PM2.5),67,72,36,48,21,30,,60,51,30,17,14,14,0.9,0.8
2026-01-25T2000,4201A,122.944647,41.082639,鞍山市,兴盛南路290号,细颗粒物(PM2.5),79,83,84,58,41,16,,50,38,64,49,25,22,1.1,1.6
2026-01-25T2000,2195A,107.4206,40.7609,巴彦淖尔市,附二中,颗粒物(PM10),233,373,207,101,50,62,,68,68,12,15,5,8,0.5,0.5
2026-01-25T2000,2196A,107.37,40.7372,巴彦淖尔市,市环保大楼,颗粒物(PM10),235,374,204,105,53,57,,70,68,13,16,4,6,0.4,0.5
2026-01-25T2000,1956A,86.1476,41.7529,巴音郭楞蒙古自治州,孔雀公园,颗粒物(PM10),121,191,291,46,56,57,,56,56,16,28,8,8,0.5,0.6
2026-01-25T2000,1957A,86.1971,41.7166,巴音郭楞蒙古自治州,棉纺厂,颗粒物(PM10),139,227,357,41,55,56,,54,54,20,32,/,/,/,/
2026-01-25T2000,1958A,86.236,41.7172,巴音郭楞蒙古自治州,经济开发区,颗粒物(PM10),125,199,300,37,41,47,,51,51,27,23,5,5,0.6,0.7
2026-01-25T2000,3181A,106.776805,31.852614,巴中市,市五中,细颗粒物(PM2.5),80,85,69,59,50,5,,24,16,39,31,5,5,1.2,1.1
2026-01-25T2000,3183A,106.7419,31.8654,巴中市,圣泉水务公司,细颗粒物(PM2.5),117,120,60,88,48,4,,36,19,54,32,6,5,1.4,0.7
2026-01-25T2000,3616A,106.7617,31.8343,巴中市,市中心医院,细颗粒物(PM2.5),88,81,64,65,54,4,,22,21,44,32,8,7,1.0,0.9
2026-01-25T2000,2235A,122.7909,45.608,白城市,洮北区环保局,细颗粒物(PM2.5),87,84,46,64,31,40,,67,62,35,20,6,6,0.7,0.4
2026-01-25T2000,2236A,122.8741,45.5725,白城市,市环保局,颗粒物(PM10),52,53,39,32,20,20,,66,50,41,27,6,6,0.4,0.4
2026-01-25T2000,2231A,126.4219,41.9172,白山市,喜丰,,49,39,55,34,30,35,,65,64,48,32,15,17,0.8,0.8
2026-01-25T2000,2232A,126.4082,41.9416,白山市,环保局,细颗粒物(PM2.5),60,46,42,43,29,40,,65,64,28,22,14,13,0.8,0.7
2026-01-25T2000,2647A,104.1727,36.5448,白银市,第三小学,颗粒物(PM10),500,1174,1217,258,215,34,,60,42,28,18,5,7,0.6,0.5
2026-01-25T2000,2648A,104.1467,36.5482,白银市,动力公司,颗粒物(PM10),500,1118,1150,269,227,32,,59,49,32,13,3,3,0.8,0.6
2026-01-25T2000,2512A,106.6102,23.901,百色市,市监测站,,43,43,52,22,37,33,,37,37,27,25,20,19,1.0,1
2026-01-25T2000,2513A,106.6524,23.8842,百色市,市中心血站,,35,35,51,23,47,47,,44,44,18,21,17,16,1.1,1
2026-01-25T2000,4133A,106.6273,23.8798,百色市,龙景西路,颗粒物(PM10),57,64,66,30,46,24,,34,34,34,25,21,21,0.9,0.9
2026-01-25T2000,2270A,117.396,32.9389,蚌埠市,工人疗养院,细颗粒物(PM2.5),58,64,103,41,78,75,,76,76,19,31,4,5,0.4,0.7
2026-01-25T2000,2271A,117.3606,32.9428,蚌埠市,百货大楼,细颗粒物(PM2.5),64,68,103,46,82,70,,72,72,23,35,5,5,0.5,0.7
2026-01-25T2000,2273A,117.4183,32.8909,蚌埠市,蚌埠学院,细颗粒物(PM2.5),65,48,95,47,84,58,,66,66,35,48,4,5,0.5,0.7
2026-01-25T2000,2274A,117.3534,32.9672,蚌埠市,淮上区政府,细颗粒物(PM2.5),70,63,100,51,83,71,,77,77,23,30,1,1,0.5,0.7
2026-01-25T2000,2275A,117.3143,32.8977,蚌埠市,高新区,细颗粒物(PM2.5),67,53,94,48,84,74,,78,78,17,34,6,6,0.4,0.6
2026-01-25T2000,3715A,117.3091,32.9314,蚌埠市,蚌埠田家炳中学,细颗粒物(PM2.5),72,67,105,52,90,74,,74,74,19,35,4,5,0.5,0.7
2026-01-25T2000,1585A,109.8761,40.6533,包头市,市环境监测站,颗粒物(PM10),177,303,151,47,34,36,,46,46,39,45,6,12,0.8,1.1
2026-01-25T2000,1587A,109.9992,40.5843,包头市,包头八中,颗粒物(PM10),157,264,146,73,40,33,,53,52,45,27,11,13,0.9,0.7
2026-01-25T2000,1589A,109.8641,40.6288,包头市,惠龙物流,颗粒物(PM10),143,236,137,44,36,40,,52,52,39,43,22,16,1.2,1.2
2026-01-25T2000,1590A,110.0376,40.5546,包头市,东河鸿龙湾,颗粒物(PM10),150,249,159,43,25,38,,61,61,47,28,13,11,0.6,0.5
2026-01-25T2000,3283A,109.9154,40.5684,包头市,滨河大厦,颗粒物(PM10),135,220,136,52,30,48,,55,55,28,29,18,9,0.9,0.7
2026-01-25T2000,3419A,109.9449,40.6259,包头市,包头市委党校,颗粒物(PM10),149,247,133,74,41,34,,52,51,41,50,14,12,1.6,1.1
2026-01-25T2000,3683A,109.8332,40.6577,包头市,昆区政府,颗粒物(PM10),154,258,134,57,39,29,,40,40,54,51,11,15,1.0,1.3
2026-01-25T2000,1931A,107.0802,34.3129,宝鸡市,竹园沟,颗粒物(PM10),383,486,240,122,100,22,,64,61,34,26,6,6,0.6,0.6
2026-01-25T2000,1933A,107.1429,34.3549,宝鸡市,监测站,细颗粒物(PM2.5),226,283,244,176,115,28,,56,55,40,38,6,6,1.0,0.9
2026-01-25T2000,1934A,107.1172,34.3759,宝鸡市,技工学校,颗粒物(PM10),218,362,247,138,117,25,,64,61,47,32,4,7,1.1,0.9
2026-01-25T2000,1936A,107.2025,34.3518,宝鸡市,文理学院,细颗粒物(PM2.5),229,231,230,179,120,30,,59,58,35,34,5,6,1.0,0.8
2026-01-25T2000,1937A,107.2396,34.3626,宝鸡市,三迪小学,细颗粒物(PM2.5),244,221,231,194,132,24,,58,55,49,44,5,7,1.2,1
2026-01-25T2000,4155A,107.1721,34.3558,宝鸡市,滨河北路,颗粒物(PM10),370,476,220,169,109,27,,56,55,33,31,6,7,1.1,0.9
2026-01-25T2000,4308A,107.3898,34.3601,宝鸡市,陈仓区北开路21号,细颗粒物(PM2.5),213,215,232,163,134,29,,49,49,42,55,7,12,0.7,0.9
2026-01-25T2000,1051A,115.4803,38.8568,保定市,游泳馆,细颗粒物(PM2.5),78,72,87,57,78,29,,32,32,43,57,7,6,0.8,0.8
2026-01-25T2000,1052A,115.509,38.8895,保定市,华电二区,细颗粒物(PM2.5),64,58,80,46,66,18,,28,27,40,50,5,5,0.2,0.6
2026-01-25T2000,1053A,115.4588,38.9037,保定市,接待中心,细颗粒物(PM2.5),70,70,86,51,68,25,,33,32,38,50,3,4,0.5,0.7
2026-01-25T2000,1054A,115.4484,38.8344,保定市,地表水厂,"颗粒物(PM10),细颗粒物(PM2.5)",67,84,104,48,69,20,,29,28,51,56,6,7,0.7,0.8
2026-01-25T2000,3581A,115.3136,38.9511,保定市,满城区生态环境分局,"颗粒物(PM10),细颗粒物(PM2.5)",67,83,90,48,61,14,,44,35,54,45,6,4,0.9,0.8
2026-01-25T2000,3582A,115.4709,38.7628,保定市,清苑区第二中学,颗粒物(PM10),78,106,124,54,79,14,,25,23,55,59,8,8,0.8,0.9
2026-01-25T2000,3583A,115.6231,39.0223,保定市,徐水物探局,细颗粒物(PM2.5),78,84,109,57,73,24,,47,43,47,51,10,9,0.8,1
2026-01-25T2000,4004A,115.4199,38.8665,保定市,双鹰农机,细颗粒物(PM2.5),68,83,109,49,68,38,,42,42,35,48,8,8,0.8,0.8
2026-01-25T2000,4034A,115.515,38.8589,保定市,植保所站,细颗粒物(PM2.5),70,65,91,51,70,23,,29,29,39,55,1,3,0.7,0.8
2026-01-25T2000,2594A,99.1589,25.1137,保山市,市环境监测站,,29,29,27,20,18,73,,85,85,8,9,4,5,0.3,0.3
2026-01-25T2000,2595A,99.1616,25.1381,保山市,市环保局,,42,42,30,26,21,76,,87,87,4,6,4,4,0.5,0.5
2026-01-25T2000,1867A,109.1435,21.4085,北海市,海滩公园,,35,34,71,17,54,109,,110,110,10,21,7,9,0.7,0.8
2026-01-25T2000,1868A,109.0983,21.466,北海市,新市环保局,,46,46,58,29,53,102,,108,108,17,22,6,7,0.9,1.2
2026-01-25T2000,1869A,109.1775,21.5232,北海市,北海工业园,颗粒物(PM10),52,53,85,32,60,78,,104,99,27,25,6,9,0.5,0.8
2026-01-25T2000,3400A,109.1844,21.4396,北海市,龙潭自来水厂,,39,39,66,24,61,104,,107,107,7,19,6,8,0.9,1.1
2026-01-25T2000,1001A,116.3611,39.8786,北京市,万寿西宫,颗粒物(PM10),52,54,43,33,26,43,,55,50,29,34,4,4,0.6,0.7
2026-01-25T2000,1003A,116.4174,39.9289,北京市,东四,颗粒物(PM10),53,56,45,34,26,38,,46,46,32,38,7,6,0.5,0.5
2026-01-25T2000,1004A,116.4073,39.8858,北京市,天坛,颗粒物(PM10),51,51,46,31,27,47,,50,50,26,33,4,3,0.9,1.1
2026-01-25T2000,1005A,116.4622,39.9364,北京市,农展馆,颗粒物(PM10),55,59,51,35,29,45,,54,54,25,34,5,5,0.7,0.8
2026-01-25T2000,1006A,116.3399,39.9293,北京市,官园,细颗粒物(PM2.5),58,63,44,41,27,37,,54,46,35,32,7,6,0.6,0.6
2026-01-25T2000,1007A,116.2879,39.9613,北京市,海淀万柳,细颗粒物(PM2.5),69,75,42,50,26,30,,44,43,40,37,5,4,0.8,0.6
2026-01-25T2000,1008A,116.6635,40.1349,北京市,顺义新城,,49,49,41,25,22,46,,61,57,25,19,7,6,0.4,0.5
2026-01-25T2000,1009A,116.6275,40.327,北京市,怀柔镇,颗粒物(PM10),52,54,28,33,18,37,,57,50,33,18,8,6,0.7,0.5
2026-01-25T2000,1010A,116.2295,40.217,北京市,昌平镇,细颗粒物(PM2.5),68,74,44,49,25,39,,50,47,37,42,5,3,0.8,0.6
2026-01-25T2000,1011A,116.3968,39.982,北京市,奥体中心,细颗粒物(PM2.5),58,64,46,41,28,39,,53,49,44,45,6,6,0.8,0.8
2026-01-25T2000,3418A,116.8336,40.4095,北京市,密云新城,颗粒物(PM10),55,60,24,35,14,48,,70,57,26,10,7,4,0.7,0.4
2026-01-25T2000,3671A,116.0879,39.9725,北京市,门头沟三家店,颗粒物(PM10),64,77,44,44,25,41,,45,44,33,36,5,4,0.7,0.6
2026-01-25T2000,3672A,116.1507,39.8246,北京市,丰台云岗,细颗粒物(PM2.5),74,75,38,54,24,36,,52,50,36,32,4,3,0.7,0.5
2026-01-25T2000,3674A,115.9578,39.7602,北京市,房山燕山,细颗粒物(PM2.5),64,76,45,46,28,42,,49,48,34,34,6,5,0.5,0.4
2026-01-25T2000,3675A,116.4669,39.7734,北京市,大兴旧宫,,39,39,53,19,28,52,,52,52,21,43,5,5,0.4,0.7
2026-01-25T2000,3694A,115.9859,40.4562,北京市,延庆石河营,细颗粒物(PM2.5),60,56,27,43,16,48,,56,52,29,15,4,4,0.7,0.5
2026-01-25T2000,3695A,116.6151,40.3052,北京市,怀柔新城,颗粒物(PM10),52,54,30,32,18,41,,59,51,28,13,8,6,0.5,0.3
2026-01-25T2000,3696A,116.2542,39.8764,北京市,丰台小屯,细颗粒物(PM2.5),69,77,46,50,25,28,,42,39,39,36,4,4,0.8,0.6
2026-01-25T2000,3697A,116.8399,40.3843,北京市,密云镇,颗粒物(PM10),52,54,24,28,12,49,,67,58,21,10,7,3,0.6,0.3
2026-01-25T2000,4057A,115.9423,40.4431,北京市,延庆百泉,颗粒物(PM10),59,67,26,41,16,33,,54,42,31,13,2,2,0.9,0.5
2026-01-25T2000,4058A,116.6598,39.9164,北京市,通州新华,,37,37,60,14,33,40,,46,45,27,43,4,5,0.5,0.8
2026-01-25T2000,4182A,116.1942,39.9158,北京市,石景山八角,细颗粒物(PM2.5),67,75,45,48,25,35,,43,42,37,34,3,3,0.6,0.4
2026-01-25T2000,4194A,117.078628,40.151726,北京市,平谷新城,,45,45,53,26,35,49,,59,58,26,32,8,6,0.6,0.8
2026-01-25T2000,1761A,123.8274146,41.31234549,本溪市,大峪,细颗粒物(PM2.5),60,60,63,43,38,30,,56,52,46,41,11,8,1.0,1.2
2026-01-25T2000,1763A,123.7169,41.3094,本溪市,彩屯,细颗粒物(PM2.5),84,83,83,62,54,24,,51,46,53,43,11,9,1.3,1.2
2026-01-25T2000,1764A,123.7672166,41.28649327,本溪市,东明,细颗粒物(PM2.5),65,58,64,47,50,44,,55,53,37,45,10,7,1.0,1.2
2026-01-25T2000,1765A,123.799345,41.266614,本溪市,新立屯,"颗粒物(PM10),细颗粒物(PM2.5)",53,56,42,37,24,34,,57,52,38,39,11,10,0.9,1.1
2026-01-25T2000,1766A,123.829144,41.336777,本溪市,威宁,细颗粒物(PM2.5),84,88,80,62,43,5,,48,40,73,43,8,7,1.3,1.5
2026-01-25T2000,2587A,105.287,27.3133,毕节市,八中,,35,28,35,24,32,37,,33,33,13,15,8,9,1.0,1
2026-01-25T2000,2588A,105.3079,27.2987,毕节市,师专,,32,32,40,22,30,40,,32,32,14,16,8,8,1.1,1.1
2026-01-25T2000,4263A,105.3688,27.3598,毕节市,工业大道,,28,20,40,19,30,30,,33,33,16,14,9,10,/,/
2026-01-25T2000,1629A,117.9961,37.3604,滨州市,第二水厂,,24,24,77,8,54,51,,60,58,15,31,9,11,0.6,0.9
2026-01-25T2000,1630A,117.9789,37.3931,滨州市,北中新校,,22,22,80,9,55,57,,64,64,17,29,5,7,0.3,0.6
2026-01-25T2000,3514A,117.9379,37.3959,滨州市,中海酒店,,32,22,78,22,60,63,,71,70,28,42,8,10,0.4,0.7
2026-01-25T2000,3515A,117.9381509,37.35547456,滨州市,开发区一中,,24,24,81,9,57,57,,66,64,14,27,9,12,0.5,0.7
2026-01-25T2000,3516A,118.0914,37.6938,滨州市,金海六路,,27,27,75,9,46,65,,78,75,15,25,3,3,0.4,0.6
2026-01-25T2000,4028A,117.9955,37.3752,滨州市,滨州市西街道办事处,,24,24,79,12,61,58,,66,65,16,29,8,10,0.4,0.7
2026-01-25T2000,2311A,115.8071,33.8399,亳州市,污水处理厂,细颗粒物(PM2.5),133,124,118,101,97,57,,63,63,32,28,5,5,0.9,0.6
2026-01-25T2000,2312A,115.7789,33.8519,亳州市,三国揽胜宫,细颗粒物(PM2.5),123,144,138,93,98,66,,65,65,30,29,5,4,0.9,0.7
2026-01-25T2000,3332A,115.7631,33.803,亳州市,亳州学院,细颗粒物(PM2.5),137,132,122,104,98,67,,68,68,27,22,5,4,1.0,1
2026-01-25T2000,2693A,82.0482,44.8553,博尔塔拉蒙古自治州,市党校,细颗粒物(PM2.5),89,115,111,66,55,54,,60,60,34,25,4,4,1.0,1
2026-01-25T2000,2694A,82.0805,44.8966,博尔塔拉蒙古自治州,市环保局,颗粒物(PM10),97,143,125,61,59,36,,54,52,56,30,8,5,0.7,0.7
2026-01-25T2000,1071A,116.8733,38.2922,沧州市,沧县城建局,,41,41,95,20,72,52,,68,66,28,54,10,10,0.7,0.9
2026-01-25T2000,1072A,116.8462,38.3189,沧州市,电视转播站,,42,42,98,24,88,50,,67,65,27,54,6,6,0.6,0.8
2026-01-25T2000,1073A,116.8588,38.3161,沧州市,市环保局,颗粒物(PM10),53,55,98,29,81,44,,59,57,24,50,8,10,0.6,0.8
2026-01-25T2000,3324A,116.8011,38.294,沧州市,河北水利电力学院,,39,39,91,18,78,48,,61,59,25,46,7,9,0.4,0.7
2026-01-25T2000,2622A,97.1813,31.1289,昌都市,昌都监测站,颗粒物(PM10),52,53,52,26,21,56,,76,76,31,28,5,4,1.0,0.8
2026-01-25T2000,3719A,97.1707,31.1428,昌都市,昌都会议中心,,,18,21,9,12,,,64,64,1,7,5,3,0.2,0.3
2026-01-25T2000,2692A,87.2722,44.0298,昌吉回族自治州,新区政务中心,细颗粒物(PM2.5),173,212,159,131,95,34,,58,57,56,48,11,9,1.7,1.3
2026-01-25T2000,3613A,87.3069,44.0093,昌吉回族自治州,亚心广场,细颗粒物(PM2.5),113,134,168,85,103,63,,64,64,21,40,7,8,0.9,1.3
2026-01-25T2000,4164A,87.2057,43.9289,昌吉回族自治州,财政所,细颗粒物(PM2.5),114,123,116,86,68,54,,62,62,18,21,5,5,0.8,0.8
2026-01-25T2000,1120A,125.2874,43.9024,长春市,客车厂,细颗粒物(PM2.5),54,44,56,38,49,26,,62,57,51,38,11,10,0.6,0.7
2026-01-25T2000,1121A,125.2943,43.8508,长春市,邮电学院,细颗粒物(PM2.5),57,41,52,40,43,26,,64,60,53,39,13,11,0.4,0.5
2026-01-25T2000,1122A,125.3648,43.8745,长春市,劳动公园,,40,35,58,28,41,55,,69,67,22,37,5,6,0.2,0.4
2026-01-25T2000,1123A,125.3233,43.8781,长春市,园林处,,42,34,50,29,42,44,,64,62,26,29,11,10,0.4,0.5
2026-01-25T2000,1124A,125.4604,43.7904,长春市,净月潭,细颗粒物(PM2.5),97,,64,72,53,52,,60,60,23,34,6,6,0.7,0.8
2026-01-25T2000,1126A,125.38,43.8422,长春市,经开区环卫处,,35,33,63,24,47,41,,63,61,37,49,5,8,0.6,0.9
2026-01-25T2000,1127A,125.234,43.7761,长春市,高新区管委会,细颗粒物(PM2.5),97,109,76,72,58,13,,69,58,79,52,6,7,0.9,0.9
2026-01-25T2000,1128A,125.1695,43.83,长春市,岱山公园,细颗粒物(PM2.5),112,,73,84,64,28,,61,52,50,45,7,7,0.8,0.8
2026-01-25T2000,4281A,125.334645,43.916281,长春市,北亚泰大街1068号,,50,50,61,33,50,16,,55,48,54,41,10,10,0.7,0.8
2026-01-25T2000,1335A,113.082,28.2421,长沙市,经开区环保局,细颗粒物(PM2.5),125,,69,95,57,7,,33,17,34,34,3,4,0.8,0.8
2026-01-25T2000,1336A,112.8873,28.2202,长沙市,高开区环保局,细颗粒物(PM2.5),98,90,76,73,63,18,,36,21,26,32,4,6,0.8,0.9
2026-01-25T2000,1337A,113.0785,28.2012,长沙市,马坡岭,细颗粒物(PM2.5),104,95,73,78,55,20,,44,27,28,32,5,6,1.0,1
2026-01-25T2000,1338A,112.9448,28.1894,长沙市,湖南师范大学,细颗粒物(PM2.5),84,90,70,62,49,29,,45,28,23,29,5,6,0.9,1
2026-01-25T2000,1339A,113.0177,28.1322,长沙市,雨花区环保局,细颗粒物(PM2.5),103,88,65,77,54,27,,52,22,27,28,7,9,1.2,1.1
2026-01-25T2000,1340A,112.9795,28.2593,长沙市,伍家岭,细颗粒物(PM2.5),87,92,78,64,55,15,,27,25,28,35,4,6,0.9,1
2026-01-25T2000,1341A,113.002,28.1944,长沙市,火车新站,细颗粒物(PM2.5),83,82,76,61,54,28,,40,29,27,38,2,3,1.0,1.1
2026-01-25T2000,1342A,112.9846,28.1177,长沙市,天心区环保局,细颗粒物(PM2.5),92,88,69,68,53,36,,57,33,24,27,5,7,0.8,0.8
2026-01-25T2000,1343A,112.8906,28.1307,长沙市,湖南中医药大学,细颗粒物(PM2.5),119,90,76,90,56,23,,27,24,27,47,5,7,0.9,1
2026-01-25T2000,1727A,113.1146,36.1547,长治市,清华站,细颗粒物(PM2.5),188,,126,141,148,70,,78,69,20,22,8,8,1.2,1.2
2026-01-25T2000,1730A,113.0887,36.2126,长治市,审计局,细颗粒物(PM2.5),203,,134,153,165,72,,78,72,28,26,6,7,0.9,1
2026-01-25T2000,1731A,113.0845,36.1856,长治市,长治八中,细颗粒物(PM2.5),214,,148,164,171,65,,75,66,17,17,6,7,1.1,1.2
2026-01-25T2000,2845A,113.1561,36.1912,长治市,德盛苑,细颗粒物(PM2.5),204,,114,154,151,66,,81,68,19,20,6,7,1.1,1.2
2026-01-25T2000,3568A,113.0603,36.0464,长治市,向阳小学,细颗粒物(PM2.5),206,161,146,156,137,49,,77,60,39,32,8,8,1.3,1.4
2026-01-25T2000,3569A,112.8788,36.315,长治市,屯留一中,细颗粒物(PM2.5),218,,156,168,167,64,,70,64,26,31,4,6,1.3,1.5
2026-01-25T2000,4189A,113.113092,36.199482,长治市,英华南巷50号,细颗粒物(PM2.5),209,,137,159,161,67,,77,68,22,22,5,5,1.1,1.2
2026-01-25T2000,4190A,113.23666,36.33435,长治市,学府街1号,细颗粒物(PM2.5),213,,149,163,176,60,,74,69,28,28,5,7,1.4,1.5
2026-01-25T2000,1854A,111.696,28.9725,常德市,市二中,细颗粒物(PM2.5),52,47,77,36,62,39,,37,34,21,24,4,6,1.2,1.1
2026-01-25T2000,3138A,111.7152,29.0288,常德市,武陵区永安,细颗粒物(PM2.5),62,,76,44,64,39,,40,35,23,24,4,5,1.1,1.1
2026-01-25T2000,3139A,111.6891,28.9881,常德市,鼎城区玉霞,细颗粒物(PM2.5),60,,72,43,68,41,,39,32,25,28,6,7,1.0,0.9
2026-01-25T2000,3140A,111.6651,29.0526,常德市,武陵区长庚,细颗粒物(PM2.5),59,49,78,42,66,36,,35,29,21,23,4,5,0.9,0.8
2026-01-25T2000,1196A,119.9524,31.7586,常州市,市监测站,,22,22,96,13,69,62,,65,65,24,58,6,6,0.3,0.6
2026-01-25T2000,1200A,119.9351,31.703,常州市,武进监测站,,26,26,92,17,68,57,,59,59,28,55,11,12,0.6,1
2026-01-25T2000,3002A,119.9701,31.813,常州市,行政中心,,34,34,94,13,65,65,,70,69,25,53,6,7,0.5,0.7
2026-01-25T2000,3003A,120.0434,31.7726,常州市,经开区,,23,23,111,10,64,66,,69,69,21,52,8,9,0.3,0.5
2026-01-25T2000,3010A,119.8919,31.7892,常州市,钟楼,,31,31,93,9,68,65,,66,66,23,51,8,9,0.5,0.7
2026-01-25T2000,3429A,119.8595,31.706,常州市,武进经发区,,29,29,98,16,76,53,,59,57,32,58,6,8,0.6,0.8
2026-01-25T2000,3430A,119.5812,31.7256,常州市,金坛城区,,38,36,101,26,82,59,,68,65,26,43,7,8,0.8,1
2026-01-25T2000,4089A,119.9551,31.863,常州市,崇义南街5-H号,,27,27,87,7,66,59,,67,66,24,45,5,7,0.7,0.8
2026-01-25T2000,2220A,120.4318,41.588,朝阳市,西梁,,30,30,48,13,27,60,,70,68,20,37,5,10,0.4,0.7
2026-01-25T2000,2221A,120.452,41.565,朝阳市,河畔小区,,23,21,30,16,16,68,,70,70,8,26,10,7,0.5,0.8
2026-01-25T2000,2222A,120.4176,41.5648,朝阳市,八里堡,,28,28,42,12,24,63,,66,66,13,34,8,10,0.4,0.7
2026-01-25T2000,3026A,116.6179,23.6608,潮州市,市政府,,,,35,40,33,,,83,83,20,13,3,3,0.5,0.5
2026-01-25T2000,4036A,116.646,23.676,潮州市,金山,细颗粒物(PM2.5),60,,32,43,25,57,,86,83,25,17,3,3,0.6,0.5
2026-01-25T2000,2473A,113.0116,25.8228,郴州市,市职中,细颗粒物(PM2.5),97,90,69,72,52,0,,27,27,50,32,7,10,1.4,1
2026-01-25T2000,2475A,113.0381,25.8074,郴州市,市审计局,细颗粒物(PM2.5),133,156,87,101,63,1,,5,5,55,41,6,6,/,/
2026-01-25T2000,2476A,113.0348,25.7757,郴州市,市环保局,细颗粒物(PM2.5),73,78,82,53,53,3,,18,18,54,40,6,9,0.9,1.1
2026-01-25T2000,4252A,113.0138,25.8011,郴州市,好美居路49号,细颗粒物(PM2.5),82,64,71,60,60,15,,34,34,62,42,8,5,/,/
2026-01-25T2000,1431A,103.9727,30.7242,成都市,金泉两河,细颗粒物(PM2.5),84,83,85,62,67,24,,48,48,47,39,2,2,0.7,0.7
2026-01-25T2000,1432A,104.1423,30.6765,成都市,十里店,细颗粒物(PM2.5),99,101,91,74,66,37,,53,53,50,37,3,3,0.8,0.7
2026-01-25T2000,1433A,104.0594,30.5765,成都市,三瓦窑,细颗粒物(PM2.5),94,92,78,70,60,21,,48,47,60,36,3,3,0.9,0.7
2026-01-25T2000,1434A,104.1122,30.6306,成都市,沙河铺,细颗粒物(PM2.5),104,87,83,78,68,17,,43,41,59,44,3,3,0.9,0.8
2026-01-25T2000,2880A,104.0219,30.6561,成都市,大石西路,,,108,91,71,62,,,49,49,48,31,5,4,1.4,1.1
2026-01-25T2000,3136A,104.2724,30.559,成都市,龙泉驿区区政府,细颗粒物(PM2.5),79,85,72,58,57,32,,41,41,32,28,7,6,1.1,0.8
2026-01-25T2000,3357A,104.0028,30.6891,成都市,金博路,细颗粒物(PM2.5),94,89,79,70,60,23,,46,46,50,38,4,4,0.8,0.8
2026-01-25T2000,3359A,104.056,30.5228,成都市,华阳,细颗粒物(PM2.5),79,78,69,58,49,32,,48,48,45,34,2,2,0.8,0.7
2026-01-25T2000,3488A,104.387954,30.746684,成都市,青石路225号,细颗粒物(PM2.5),78,90,92,57,66,21,,43,43,53,38,6,5,1.0,0.8
2026-01-25T2000,3489A,104.0788,30.4054,成都市,科学城,细颗粒物(PM2.5),75,71,71,55,58,30,,39,39,29,25,6,6,0.7,0.7
2026-01-25T2000,4011A,103.8505,30.6946,成都市,光华大道三段,细颗粒物(PM2.5),103,101,89,77,67,33,,50,50,47,38,3,3,0.9,0.8
2026-01-25T2000,4144A,104.3257,30.6406,成都市,八角井街185号,细颗粒物(PM2.5),90,121,100,67,65,29,,39,39,42,31,4,3,1.1,1.1
2026-01-25T2000,4224A,104.2433276,30.53529463,成都市,鲸龙路1057号,细颗粒物(PM2.5),83,72,68,61,54,32,,44,44,32,30,5,5,0.8,0.6
2026-01-25T2000,1062A,117.9531,40.908,承德市,铁路,颗粒物(PM10),65,80,28,35,16,6,,55,43,61,21,13,7,1.0,0.4
2026-01-25T2000,1063A,117.9397,40.9763,承德市,中国银行,,28,28,25,13,9,30,,67,61,33,17,5,3,0.6,0.4
2026-01-25T2000,4073A,117.9462,40.95,承德市,杏林街1号,,37,37,19,24,13,28,,68,62,35,11,11,5,0.8,0.4
2026-01-25T2000,4274A,117.7994,40.9605,承德市,滨河大街98号,,26,26,26,18,11,46,,62,60,18,14,25,5,0.5,0.4
2026-01-25T2000,2314A,117.4698,30.6617,池州市,池州学院,细颗粒物(PM2.5),155,140,123,118,106,10,,36,18,73,49,8,7,1.3,1.1
2026-01-25T2000,3237A,117.4918,30.6617,池州市,展览馆,细颗粒物(PM2.5),163,157,123,124,99,7,,33,18,73,46,11,4,1.3,1
2026-01-25T2000,3333A,117.5626,30.695,池州市,第八中学,细颗粒物(PM2.5),145,145,126,111,98,10,,32,18,66,46,7,5,1.2,1
2026-01-25T2000,3334A,117.5037,30.6242,池州市,第十二中学,细颗粒物(PM2.5),145,139,116,111,91,6,,29,20,76,52,7,4,1.5,1.2
2026-01-25T2000,1744A,118.9229,42.2816,赤峰市,松山一中,颗粒物(PM10),60,69,43,25,17,15,,37,34,84,39,42,18,1.1,1
2026-01-25T2000,1745A,118.9588,42.2733,赤峰市,哈达街,颗粒物(PM10),67,83,43,35,21,6,,34,23,59,33,107,34,2.1,1
2026-01-25T2000,1746A,118.8792,42.2551,赤峰市,天义路,二氧化硫(SO2),55,43,25,35,20,8,,49,41,74,31,185,26,0.8,0.8
2026-01-25T2000,3058A,119.2656,42.0356,赤峰市,银河街,细颗粒物(PM2.5),68,66,58,49,28,38,,62,60,33,22,16,22,1.1,1
2026-01-25T2000,3286A,118.9359,42.3146,赤峰市,桥北物流园区,,35,31,34,24,24,39,,50,48,32,31,13,17,0.8,0.8
2026-01-25T2000,2521A,107.3473,22.4137,崇左市,市环保局江州分局,细颗粒物(PM2.5),104,115,68,78,58,18,,22,22,35,20,8,6,1.3,0.9
2026-01-25T2000,4256A,107.375,22.3736,崇左市,石景林东路7号,细颗粒物(PM2.5),113,96,63,85,65,8,,25,24,51,26,1,2,1.1,0.7
2026-01-25T2000,3207A,118.31131,32.3033,滁州市,市政府原办公楼,细颗粒物(PM2.5),54,51,101,38,81,63,,60,60,21,48,4,5,0.3,0.7
2026-01-25T2000,3331A,118.3268,32.2633,滁州市,图书馆,细颗粒物(PM2.5),54,55,100,38,72,57,,57,57,20,48,6,8,0.4,0.7
2026-01-25T2000,4101A,118.3196,32.3335,滁州市,银山路666号,细颗粒物(PM2.5),60,,90,43,99,67,,66,66,13,34,3,4,0.3,0.6
2026-01-25T2000,4102A,118.3426,32.2979,滁州市,黄山路555号,细颗粒物(PM2.5),63,52,112,45,93,61,,66,66,22,47,14,15,0.7,1
2026-01-25T2000,2606A,101.5379,25.0492,楚雄彝族自治州,市经济开发区,,24,24,24,12,15,67,,74,74,8,20,2,3,0.5,0.5
2026-01-25T2000,4153A,101.5536,25.0343,楚雄彝族自治州,团结路562号,,23,16,22,16,14,70,,74,74,5,18,3,4,0.3,0.4
2026-01-25T2000,2549A,107.5087,31.2186,达州市,市环境监测站,细颗粒物(PM2.5),94,94,84,70,56,5,,13,7,49,43,6,9,0.9,0.8
2026-01-25T2000,2550A,107.4988,31.2132,达州市,凤凰小区,细颗粒物(PM2.5),94,102,84,70,56,3,,12,6,52,44,5,8,0.7,0.5
2026-01-25T2000,2551A,107.5081,31.1987,达州市,达县机关宾馆,,,102,88,75,57,4,,10,7,,49,2,7,1.1,1.1
2026-01-25T2000,2552A,107.4644,31.2124,达州市,市政中心,细颗粒物(PM2.5),85,97,85,63,52,7,,17,15,54,44,6,9,0.8,0.7
2026-01-25T2000,2614A,100.2168,25.5818,大理白族自治州,大理市环境监测站,,32,,23,22,20,75,,73,73,6,8,6,6,0.5,0.5
2026-01-25T2000,2615A,100.1542,25.7055,大理白族自治州,大理古城,,35,35,24,20,15,77,,87,87,7,10,7,8,0.8,0.8
2026-01-25T2000,1109A,121.6119,38.974,大连市,甘井子,,43,43,43,17,22,70,,80,76,17,21,5,9,0.7,0.4
2026-01-25T2000,1110A,121.565,38.9509,大连市,周水子,,31,31,38,19,22,58,,69,65,18,25,14,17,0.4,0.5
2026-01-25T2000,1111A,121.5637,38.8849,大连市,星海三站,,32,29,34,22,23,58,,68,65,18,21,6,10,0.6,0.7
2026-01-25T2000,1112A,121.6301,38.9117,大连市,青泥洼桥,,29,27,19,20,23,52,,66,62,24,18,9,11,0.5,0.5
2026-01-25T2000,1113A,121.6248,38.8643,大连市,傅家庄,颗粒物(PM10),87,124,58,16,19,51,,58,55,20,20,8,10,0.6,0.6
2026-01-25T2000,1114A,121.5117,38.8636,大连市,七贤岭,,30,30,35,16,19,62,,65,64,6,16,6,9,0.5,0.6
2026-01-25T2000,1116A,121.7507,39.1339,大连市,金州,,36,34,34,25,25,68,,76,72,17,20,8,12,0.4,0.4
2026-01-25T2000,1117A,121.7811,39.0495,大连市,开发区,,36,32,34,25,18,66,,76,71,15,13,4,4,0.2,0.2
2026-01-25T2000,1118A,121.9762,39.0631,大连市,双D港,,43,43,37,22,22,64,,76,72,16,15,9,10,0.5,0.5
2026-01-25T2000,4082A,121.2548,38.8188,大连市,旅顺,,31,31,27,21,18,55,,67,62,16,15,7,9,0.7,0.6
2026-01-25T2000,1789A,124.8085,46.0381,大庆市,大同区,,,109,38,,20,40,,70,63,45,16,12,6,1.5,0.8
2026-01-25T2000,1790A,125.1166,46.5255,大庆市,龙凤区,,42,42,31,18,16,50,,57,55,29,23,11,17,0.5,0.4
2026-01-25T2000,1791A,124.8894,46.4007,大庆市,红岗区,,43,43,29,27,16,42,,56,52,32,15,6,5,0.8,0.5
2026-01-25T2000,1792A,125.1391,46.578,大庆市,萨尔图区,,47,47,28,20,13,39,,54,52,36,22,8,8,0.7,0.6
2026-01-25T2000,1793A,124.9026,46.6217,大庆市,让胡路区,,33,33,25,16,15,55,,74,70,30,13,7,7,0.5,0.4
2026-01-25T2000,3481A,125.127,46.6277,大庆市,萨区政府监测点,,28,24,28,19,11,44,,64,62,28,16,8,8,0.7,0.6
2026-01-25T2000,1723A,113.2926,40.0759,大同市,云冈宾馆,细颗粒物(PM2.5),120,142,72,91,41,38,,47,47,43,35,12,12,1.3,1.1
2026-01-25T2000,1724A,113.3437,40.0921,大同市,大同大学,细颗粒物(PM2.5),133,125,63,101,36,38,,62,59,39,24,11,11,1.1,0.9
2026-01-25T2000,1725A,113.2637,40.129,大同市,安家小村,细颗粒物(PM2.5),122,141,98,92,50,34,,54,53,41,41,14,16,1.1,1.8
2026-01-25T2000,3282A,113.3399,40.0586,大同市,大同市卫生学校,细颗粒物(PM2.5),125,131,60,95,34,43,,62,59,41,27,9,10,1.1,0.8
2026-01-25T2000,3565A,113.1371,40.1122,大同市,云冈站,细颗粒物(PM2.5),132,155,93,100,45,28,,44,42,50,43,11,14,1.1,1
2026-01-25T2000,3566A,113.1186,40.2556,大同市,图书馆,细颗粒物(PM2.5),152,153,74,116,47,30,,53,52,58,29,16,11,1.4,1.1
2026-01-25T2000,3567A,113.5931,40.0459,大同市,区一中,细颗粒物(PM2.5),112,108,62,84,39,45,,66,59,27,16,9,10,1.9,1.6
2026-01-25T2000,4199A,113.2798248,40.09972476,大同市,魏都大道141号,细颗粒物(PM2.5),137,139,90,104,48,41,,54,53,43,42,12,12,1.1,1.2
2026-01-25T2000,2269A,124.1068,50.4091,大兴安岭地区,科技局,,29,27,18,20,7,60,,69,67,6,3,6,4,0.2,0.2
2026-01-25T2000,3663A,124.117,50.4279,大兴安岭地区,红旗社区,细颗粒物(PM2.5),59,,13,42,13,53,,70,63,19,9,9,5,0.6,0.4
2026-01-25T2000,1600A,124.33,40.0625,丹东市,江湾东路,细颗粒物(PM2.5),65,70,31,47,15,40,,64,60,36,16,8,8,1.0,0.6
2026-01-25T2000,1601A,124.4242,40.1513,丹东市,临江后街,,34,34,26,23,13,60,,65,64,14,12,6,6,0.6,0.6
2026-01-25T2000,1602A,124.3935,40.1461,丹东市,元宝山,,28,28,25,18,13,64,,66,66,10,12,10,10,0.3,0.3
2026-01-25T2000,1603A,124.3634,40.1093,丹东市,民主桥,细颗粒物(PM2.5),94,126,34,70,17,26,,65,58,50,18,13,9,1.2,0.6
2026-01-25T2000,3541A,109.5726195,19.51688767,儋州市,第一中学子站,,23,19,17,7,7,71,,72,72,5,5,4,4,0.5,0.5
2026-01-25T2000,3542A,109.5567,19.5187,儋州市,东坡学校子站,,26,21,20,6,6,82,,85,84,3,4,2,3,0.5,0.5
2026-01-25T2000,2616A,98.5611,24.4273,德宏傣族景颇族自治州,德宏州监测站,颗粒物(PM10),65,79,54,44,44,38,,78,77,45,26,7,7,1.0,0.8
2026-01-25T2000,3677A,98.5887,24.4366,德宏傣族景颇族自治州,芒市人民政府综合楼,颗粒物(PM10),68,85,65,30,28,58,,76,76,18,15,5,5,0.5,0.6
2026-01-25T2000,1901A,104.424,31.1209,德阳市,东山公园,,,143,83,53,61,51,,50,50,11,23,,1,0.7,0.8
2026-01-25T2000,1902A,104.3827,31.1318,德阳市,西小区,颗粒物(PM10),113,176,90,57,62,42,,52,52,28,29,3,3,0.8,0.9
2026-01-25T2000,1904A,104.3553,31.1091,德阳市,耐火材料厂,颗粒物(PM10),96,141,88,55,67,32,,47,47,38,34,1,2,0.7,0.8
2026-01-25T2000,4145A,104.4144,31.1495,德阳市,市林业局,颗粒物(PM10),94,138,86,42,66,30,,51,50,38,30,3,3,0.7,0.9
2026-01-25T2000,1622A,116.3034,37.4675,德州市,儿童乐园,,48,48,129,24,94,59,,62,62,25,49,16,20,0.8,1.2
2026-01-25T2000,1624A,116.2992,37.4449,德州市,监理站,颗粒物(PM10),58,66,131,19,88,68,,70,70,27,50,15,19,0.6,1
2026-01-25T2000,3066A,116.2722,37.438,德州市,九衢泉纯净水厂,,46,46,120,27,86,60,,61,61,23,46,12,15,0.7,1.2
2026-01-25T2000,3371A,116.3693,37.44,德州市,开发区人民医院,颗粒物(PM10),53,56,130,22,87,66,,68,68,33,54,16,18,0.5,0.9
2026-01-25T2000,3511A,116.5687,37.3331,德州市,陵城艺术中心,颗粒物(PM10),51,51,122,24,88,48,,56,56,29,48,21,24,0.5,0.9
2026-01-25T2000,4292A,116.352738,37.420875,德州市,新河东路,,48,48,111,24,86,58,,62,62,26,44,14,18,0.6,1
2026-01-25T2000,2621A,99.7054,27.8319,迪庆藏族自治州,迪庆州站,颗粒物(PM10),90,129,34,60,24,74,,84,83,10,10,4,5,0,0.1
2026-01-25T2000,3180A,99.7122,27.8129,迪庆藏族自治州,质量技术监督局,,27,25,25,18,18,84,,87,87,8,11,6,5,0.5,0.5
2026-01-25T2000,4257A,104.6092,35.5962,定西市,将台街,颗粒物(PM10),500,727,578,172,126,35,,67,60,32,16,10,10,0.5,0.5
2026-01-25T2000,4309A,104.6159,35.5701,定西市,正龙路62号,颗粒物(PM10),500,846,656,149,120,46,,63,57,17,11,8,6,0.5,0.6
2026-01-25T2000,1390A,113.7943,23.0132,东莞市,东城石井,颗粒物(PM10),54,57,67,29,43,75,,163,156,54,49,7,6,0.6,0.8
2026-01-25T2000,1391A,113.7384,22.9659,东莞市,南城西平,,46,46,68,30,44,72,,154,147,53,62,7,6,0.6,0.7
2026-01-25T2000,3319A,113.7283,23.041,东莞市,万江金泰,颗粒物(PM10),57,64,91,35,58,76,,176,168,65,61,6,6,0.8,1
2026-01-25T2000,4129A,113.8666,23.1062,东莞市,裕兴路,颗粒物(PM10),70,90,83,37,40,104,,152,151,55,51,6,7,1.0,0.9
2026-01-25T2000,4130A,114.0076,22.9739,东莞市,教育路1号,颗粒物(PM10),53,56,65,35,39,70,,159,152,73,40,5,5,0.7,0.7
2026-01-25T2000,4131A,113.7981,22.8124,东莞市,长怡路1号,,36,36,64,16,34,51,,113,104,66,51,8,6,0.7,0.8
2026-01-25T2000,1666A,118.6612,37.4313,东营市,市环保局,,21,19,55,3,35,67,,76,74,22,27,6,8,0.6,0.7
2026-01-25T2000,3036A,118.6903,37.4337,东营市,开发区管委会,,24,24,56,7,38,69,,77,75,14,20,6,6,0.4,0.5
2026-01-25T2000,3365A,118.5721,37.5654,东营市,垦利区民丰路,,27,27,59,7,40,60,,79,75,18,24,6,6,0.6,0.6
2026-01-25T2000,3498A,118.5063,37.8606,东营市,河口城区,,24,24,71,7,41,62,,74,71,21,25,3,5,0.6,0.8
2026-01-25T2000,3646A,118.4979,37.4623,东营市,胜利站,,19,16,69,12,45,59,,72,69,18,26,6,7,0.6,0.7
2026-01-25T2000,3734A,118.5753,37.4405,东营市,理想之城,,22,22,65,9,45,54,,67,64,18,25,2,4,0.6,0.6
2026-01-25T2000,1591A,110.0024,39.8127,鄂尔多斯市,综合楼,颗粒物(PM10),139,227,231,36,44,70,,70,70,12,39,4,12,0.4,0.7
2026-01-25T2000,1592A,109.9485,39.8259,鄂尔多斯市,巴音孟克林场办事处,颗粒物(PM10),124,197,199,36,41,72,,72,72,10,36,5,12,0.4,0.6
2026-01-25T2000,1593A,109.7734,39.5987,鄂尔多斯市,康泽苑,颗粒物(PM10),131,212,189,42,44,77,,78,78,8,35,8,13,0.4,0.7
2026-01-25T2000,1594A,109.8121,39.5987,鄂尔多斯市,华泰汽车城,颗粒物(PM10),130,210,182,31,40,79,,79,79,10,36,5,8,0.4,0.7
2026-01-25T2000,1595A,109.9734,39.7884,鄂尔多斯市,奥林花园,颗粒物(PM10),142,234,205,31,41,67,,66,66,13,38,3,10,0.4,0.7
2026-01-25T2000,2436A,114.894,30.3989,鄂州市,市政府,细颗粒物(PM2.5),94,72,60,70,52,17,,50,22,31,27,4,7,0.7,0.6
2026-01-25T2000,2437A,114.8986,30.3714,鄂州市,赵家坝,细颗粒物(PM2.5),93,77,66,69,55,23,,56,30,18,18,7,9,1.0,0.8
2026-01-25T2000,3654A,114.8093,30.4091,鄂州市,精准医疗中心,细颗粒物(PM2.5),102,77,67,76,58,26,,47,38,21,27,37,24,0.9,1.2
2026-01-25T2000,2454A,109.4978,30.2979,恩施土家族苗族自治州,湖北民院,细颗粒物(PM2.5),80,,62,59,62,7,,28,18,32,20,6,6,1.0,1
2026-01-25T2000,3549A,109.5061,30.3771,恩施土家族苗族自治州,龙凤新区,细颗粒物(PM2.5),72,57,63,52,53,1,,19,10,26,22,7,7,0.9,0.8
2026-01-25T2000,2499A,108.3411,21.6159,防城港市,沙万,颗粒物(PM10),72,94,75,25,51,48,,36,36,51,35,7,7,1.1,1.2
2026-01-25T2000,2500A,108.3515,21.7733,防城港市,防城档案局,细颗粒物(PM2.5),83,93,82,61,59,4,,11,8,42,28,5,4,1.6,1
2026-01-25T2000,2501A,108.3506,21.6414,防城港市,大海花园,颗粒物(PM10),57,64,69,28,51,71,,58,58,38,30,7,7,0.8,1
2026-01-25T2000,1371A,113.1293,23.0065,佛山市,湾梁,细颗粒物(PM2.5),100,136,93,75,56,99,,141,141,59,63,/,/,/,/
2026-01-25T2000,1372A,113.1082,23.0477,佛山市,华材职中,细颗粒物(PM2.5),152,180,129,116,86,102,,141,141,63,70,6,7,0.9,1
2026-01-25T2000,1373A,113.1439,23.045,佛山市,南海气象局,细颗粒物(PM2.5),90,102,90,67,56,104,,144,144,64,73,/,/,/,/
2026-01-25T2000,1374A,113.2879,22.8094,佛山市,顺德苏岗,,42,42,68,22,54,90,,125,124,28,60,/,/,0.8,1
2026-01-25T2000,1376A,112.8384,22.8678,佛山市,高明孔堂,细颗粒物(PM2.5),123,134,109,93,74,109,,116,116,55,66,/,/,/,/
2026-01-25T2000,1377A,112.8835,23.1584,佛山市,三水监测站,细颗粒物(PM2.5),155,217,127,118,81,46,,91,91,122,73,4,6,1.3,1.2
2026-01-25T2000,1378A,112.8668,23.185,佛山市,三水云东海,细颗粒物(PM2.5),128,122,100,97,67,53,,93,93,86,66,/,/,/,/
2026-01-25T2000,3625A,113.2568,22.7629,佛山市,容桂街道办,颗粒物(PM10),56,61,96,34,62,86,,115,114,38,72,/,/,/,/
2026-01-25T2000,1282A,119.2681,26.0506,福州市,师大,颗粒物(PM10),58,66,41,33,24,41,,70,68,43,30,2,4,1.0,0.8
2026-01-25T2000,1283A,119.2983,26.1028,福州市,五四北路,,43,43,31,29,22,45,,77,70,34,22,4,5,0.9,0.8
2026-01-25T2000,1284A,119.2648,26.0769,福州市,杨桥西路,颗粒物(PM10),53,56,36,32,25,39,,72,69,39,23,4,5,/,/
2026-01-25T2000,3048A,119.5799,26.0937,福州市,九龙,,30,28,32,21,23,76,,80,80,21,22,4,6,0.9,0.8
2026-01-25T2000,3526A,119.5188,25.9666,福州市,吴航,,33,33,40,21,24,76,,81,79,22,26,5,7,0.8,0.6
2026-01-25T2000,4104A,119.3106,26.0648,福州市,路通桥巷6号,,46,46,42,24,27,56,,69,67,29,23,/,/,/,/
2026-01-25T2000,1755A,123.7974,41.8494,抚顺市,望花区,细颗粒物(PM2.5),94,102,102,70,68,23,,48,42,54,51,10,7,0.9,1.3
2026-01-25T2000,1756A,123.9161,41.8827,抚顺市,顺城区,细颗粒物(PM2.5),137,104,98,104,79,18,,47,44,60,53,11,10,1.1,1.3
2026-01-25T2000,1757A,124.0437,41.8615,抚顺市,东洲区,细颗粒物(PM2.5),94,127,79,70,51,28,,59,53,54,32,10,10,1.0,0.9
2026-01-25T2000,1758A,123.9246,41.8638,抚顺市,新抚区,细颗粒物(PM2.5),94,90,98,70,72,15,,49,43,61,51,6,6,0.9,1
2026-01-25T2000,1759A,124.0972,41.8961,抚顺市,大伙房水库,颗粒物(PM10),67,84,56,47,40,47,,57,56,24,29,10,10,0.9,0.9
2026-01-25T2000,1760A,123.708,41.8386,抚顺市,沈抚新城,细颗粒物(PM2.5),110,112,86,83,56,12,,45,37,78,55,11,9,1.0,1.1
2026-01-25T2000,2377A,116.3544,27.9833,抚州市,市站,细颗粒物(PM2.5),80,78,75,59,56,67,,72,72,25,28,9,12,1.0,1
2026-01-25T2000,2378A,116.3562,27.9631,抚州市,血防站,细颗粒物(PM2.5),74,72,74,54,54,61,,66,66,32,34,7,10,1.7,1.6
2026-01-25T2000,2379A,116.3561,28.0007,抚州市,采茶剧团,细颗粒物(PM2.5),80,78,74,59,56,59,,70,70,21,25,6,10,1.5,1.4
2026-01-25T2000,2380A,116.3854,27.9648,抚州市,医学分院,细颗粒物(PM2.5),74,90,80,54,51,62,,70,70,25,31,18,14,1.2,1.2
2026-01-25T2000,2207A,121.6095,41.9978,阜新市,工业园区,,25,25,47,6,11,56,,69,66,13,18,9,12,0.4,0.5
2026-01-25T2000,2208A,121.6567,42.0188,阜新市,长青街,,21,21,15,10,7,64,,78,74,9,9,11,8,0.3,0.3
2026-01-25T2000,2209A,121.6672,42.07,阜新市,农业园区,,38,38,19,19,6,56,,68,64,10,8,16,8,0.4,0.3
2026-01-25T2000,2211A,121.6343,42.0455,阜新市,玉龙新城,,41,41,30,11,9,48,,69,63,19,18,13,6,0.5,0.5
2026-01-25T2000,2301A,115.8276,32.8929,阜阳市,市监测站,细颗粒物(PM2.5),117,112,122,88,99,54,,49,49,32,29,4,4,0.7,0.7
2026-01-25T2000,2303A,115.8551,32.8606,阜阳市,开发区,细颗粒物(PM2.5),110,106,110,83,93,46,,50,50,39,31,5,5,0.6,0.6
2026-01-25T2000,2875A,115.783962,32.889217,阜阳市,阜阳职业技术学院,细颗粒物(PM2.5),108,106,110,81,89,64,,57,57,24,24,6,7,0.9,0.9
2026-01-25T2000,3468A,115.79,32.8614,阜阳市,市规划展馆,细颗粒物(PM2.5),130,118,122,99,101,56,,55,55,30,25,6,6,0.8,0.7
2026-01-25T2000,3469A,115.835101,32.918568,阜阳市,枣园社区,细颗粒物(PM2.5),125,119,125,95,101,55,,52,52,28,26,5,5,0.8,0.8
2026-01-25T2000,2669A,102.9097,34.9841,甘南藏族自治州,州政府,颗粒物(PM10),153,256,136,83,55,65,,69,69,13,30,8,13,0.7,1.1
2026-01-25T2000,3380A,102.8915,34.9618,甘南藏族自治州,甘肃民族师范学院,颗粒物(PM10),174,298,147,81,53,65,,70,70,22,34,8,12,0.3,0.5
2026-01-25T2000,2570A,101.96,30.048,甘孜藏族自治州,水桥子,,20,20,26,3,11,50,,73,72,7,21,6,7,0.7,0.5
2026-01-25T2000,3065A,101.9534,29.9976,甘孜藏族自治州,州环保局,,25,22,23,17,8,57,,81,78,12,12,5,6,0.9,0.6
2026-01-25T2000,2363A,114.9368,25.8663,赣州市,地委,细颗粒物(PM2.5),69,79,97,50,45,16,,68,67,103,44,8,8,1.6,1.2
2026-01-25T2000,2364A,114.946,25.8483,赣州市,气象台,,,,85,,38,4,,69,55,126,58,,7,,0.8
2026-01-25T2000,2365A,114.932,25.8332,赣州市,市图书馆,颗粒物(PM10),97,143,83,61,46,8,,49,48,103,51,5,5,1.8,1.2
2026-01-25T2000,2366A,114.8905,25.8472,赣州市,华坚鞋城,细颗粒物(PM2.5),82,108,83,60,44,26,,64,64,89,46,8,9,1.4,0.9
2026-01-25T2000,3109A,115.0094,25.8614,赣州市,赣县区卫计委,细颗粒物(PM2.5),108,104,68,81,53,36,,51,51,61,47,7,7,1.0,0.9
2026-01-25T2000,2684A,106.2753,36.0057,固原市,监测站,颗粒物(PM10),292,414,728,88,99,64,,75,72,12,10,6,6,0.5,0.5
2026-01-25T2000,2685A,106.2384,36.0189,固原市,新区,颗粒物(PM10),302,421,698,77,89,68,,78,74,8,8,6,6,0.5,0.5
2026-01-25T2000,2544A,106.6307,30.4577,广安市,市委,细颗粒物(PM2.5),92,80,70,68,59,26,,46,31,31,21,9,9,1.0,0.9
2026-01-25T2000,2545A,106.6266,30.4662,广安市,友谊中学,细颗粒物(PM2.5),92,80,62,68,56,31,,46,31,26,22,6,6,0.9,0.8
2026-01-25T2000,2547A,106.6386,30.4551,广安市,广电花园,细颗粒物(PM2.5),99,,68,74,59,29,,43,29,23,19,5,5,0.8,0.8
2026-01-25T2000,2902A,106.6347,30.4868,广安市,北辰小学,细颗粒物(PM2.5),94,77,65,70,57,26,,46,32,27,21,4,5,1.2,1.1
2026-01-25T2000,2524A,105.8211,32.4444,广元市,老城,颗粒物(PM10),188,326,114,75,48,9,,49,45,64,36,3,2,0.8,0.8
2026-01-25T2000,2526A,105.8629,32.429,广元市,监测站,颗粒物(PM10),191,331,126,79,47,11,,49,46,58,30,5,5,1.2,0.9
2026-01-25T2000,3617A,105.8047,32.4167,广元市,经开区,颗粒物(PM10),185,320,108,61,42,16,,40,38,41,34,2,2,0.7,0.8
2026-01-25T2000,1345A,113.2346,23.1423,广州市,广雅中学,细颗粒物(PM2.5),88,108,89,65,47,82,,139,138,78,66,4,3,1.6,1.5
2026-01-25T2000,1346A,113.2611,23.105,广州市,市五中,颗粒物(PM10),82,114,75,58,40,123,,178,178,60,67,8,9,/,/
2026-01-25T2000,1348A,113.3477,23.0916,广州市,广东商学院,细颗粒物(PM2.5),84,101,76,62,53,103,,168,168,63,65,6,7,0.9,0.9
2026-01-25T2000,1349A,113.4332,23.105,广州市,市八十六中,二氧化氮(NO2),67,67,70,43,43,54,,177,170,133,69,8,9,/,/
2026-01-25T2000,1350A,113.3506,22.9488,广州市,番禺中学,颗粒物(PM10),58,66,105,27,47,86,,149,145,38,62,3,4,0.8,0.9
2026-01-25T2000,1351A,113.2147,23.3918,广州市,花都师范,细颗粒物(PM2.5),74,78,78,54,49,102,,124,124,45,64,5,6,0.8,0.9
2026-01-25T2000,1352A,113.2599,23.1329,广州市,市监测站,细颗粒物(PM2.5),99,127,91,74,54,103,,153,153,65,67,2,3,/,/
2026-01-25T2000,1353A,113.5618,23.3119,广州市,九龙镇镇龙,颗粒物(PM10),74,97,78,51,48,81,,151,148,65,44,5,6,0.7,0.7
2026-01-25T2000,1354A,113.2764,23.1544,广州市,麓湖,细颗粒物(PM2.5),80,92,66,59,44,72,,148,145,74,57,8,9,0.9,0.9
2026-01-25T2000,2846A,113.3209,23.1323,广州市,体育西,细颗粒物(PM2.5),104,136,82,78,49,,,166,166,67,65,7,8,1.1,1
2026-01-25T2000,3298A,113.5718,23.5493,广州市,从化街口,细颗粒物(PM2.5),75,80,67,55,46,95,,126,126,38,39,11,10,0.7,0.7
2026-01-25T2000,3299A,113.3463,23.369,广州市,白云竹料,细颗粒物(PM2.5),72,92,91,52,52,84,,142,141,64,54,5,4,1.0,1
2026-01-25T2000,3300A,113.2981,23.2365,广州市,白云嘉禾,细颗粒物(PM2.5),95,120,84,71,49,97,,151,151,70,60,7,6,/,/
2026-01-25T2000,3301A,113.4256,23.1716,广州市,黄埔科学城,,,67,68,,41,113,,184,183,65,52,2,5,0.6,0.6
2026-01-25T2000,3302A,113.3942,23.0485,广州市,番禺大学城,颗粒物(PM10),63,75,94,30,47,104,,185,184,43,64,7,8,0.6,0.8
2026-01-25T2000,3303A,113.4923,22.8169,广州市,南沙黄阁,,32,32,45,14,50,83,,148,142,43,60,4,5,/,/
2026-01-25T2000,3304A,113.534,22.7893,广州市,南沙街,颗粒物(PM10),52,53,75,12,43,81,,136,131,34,46,6,6,0.6,0.8
2026-01-25T2000,3443A,113.2905,23.5541,广州市,花都梯面,细颗粒物(PM2.5),75,94,55,55,35,19,,95,90,75,28,5,5,/,/
2026-01-25T2000,3445A,113.786,23.7479,广州市,从化良口,细颗粒物(PM2.5),52,44,35,36,29,85,,117,117,31,21,8,8,/,/
2026-01-25T2000,3446A,113.805,23.2614,广州市,增城荔城,细颗粒物(PM2.5),64,75,59,46,40,87,,142,140,42,34,5,6,0.9,0.8
2026-01-25T2000,2506A,109.604387,23.066791,贵港市,江南子站,细颗粒物(PM2.5),102,102,74,76,63,60,,68,68,28,22,8,6,1.2,1
2026-01-25T2000,2508A,109.5669,23.1065,贵港市,荷城子站,细颗粒物(PM2.5),83,88,63,61,50,63,,66,66,26,24,7,7,1.1,1
2026-01-25T2000,3405A,109.5886,23.1172,贵港市,新世纪学校,细颗粒物(PM2.5),93,100,72,69,54,68,,73,73,20,21,/,/,0.7,0.6
2026-01-25T2000,4260A,109.5933,23.095,贵港市,中山路155-3号,细颗粒物(PM2.5),97,81,67,72,55,61,,70,70,31,24,/,/,0.8,0.9
2026-01-25T2000,1439A,106.6863,26.6035,贵阳市,马鞍山,细颗粒物(PM2.5),67,48,27,48,25,5,,30,13,25,18,5,6,/,/
2026-01-25T2000,1441A,106.6241,26.6266,贵阳市,鉴湖路,细颗粒物(PM2.5),52,51,35,36,23,3,,34,10,29,18,4,3,0.8,0.6
2026-01-25T2000,1442A,106.7468,26.6344,贵阳市,燕子冲,细颗粒物(PM2.5),67,,24,48,31,8,,37,17,21,17,7,10,0.8,0.6
2026-01-25T2000,1443A,106.6556,26.4362,贵阳市,碧云窝,"颗粒物(PM10),细颗粒物(PM2.5)",62,73,37,44,21,4,,36,25,31,17,16,8,/,/
2026-01-25T2000,1445A,106.6963,26.6063,贵阳市,红边门,细颗粒物(PM2.5),62,58,32,44,26,3,,31,14,28,25,11,9,/,/
2026-01-25T2000,1446A,106.7162383,26.56964667,贵阳市,新华路,细颗粒物(PM2.5),58,63,39,41,23,6,,35,20,31,24,9,8,0.9,0.6
2026-01-25T2000,1447A,106.6742,26.542,贵阳市,太慈桥,细颗粒物(PM2.5),52,48,30,36,21,14,,32,23,27,20,4,5,/,/
2026-01-25T2000,4230A,106.688212,26.56952,贵阳市,花果园大街66号,细颗粒物(PM2.5),59,51,25,42,26,5,,24,12,28,23,5,5,/,/
2026-01-25T2000,4231A,106.687268,26.516892,贵阳市,漓江路57号,细颗粒物(PM2.5),58,56,35,41,24,0,,30,18,34,24,10,12,1.0,0.7
2026-01-25T2000,1864A,110.3091,25.2705,桂林市,龙隐路小学,细颗粒物(PM2.5),119,103,95,90,83,2,,11,8,43,35,17,31,1.0,1
2026-01-25T2000,1865A,110.2849361,25.22909545,桂林市,八中,细颗粒物(PM2.5),130,110,94,99,81,5,,15,9,53,41,35,32,1.0,0.6
2026-01-25T2000,3531A,110.296,25.1254,桂林市,旅游学院,细颗粒物(PM2.5),104,105,91,78,66,,,30,,62,34,22,17,0.8,0.6
2026-01-25T2000,4222A,110.1835,25.2444,桂林市,环湖路276号,细颗粒物(PM2.5),147,149,100,112,80,2,,11,5,50,33,44,57,1.5,0.9
2026-01-25T2000,4301A,110.2803,25.2773,桂林市,信义路13号,细颗粒物(PM2.5),108,102,93,81,71,2,,10,5,53,42,36,40,1.5,1.2
2026-01-25T2000,2674A,100.2262,34.4854,果洛藏族自治州,玛沁县大武镇,颗粒物(PM10),133,215,93,30,17,84,,94,94,2,10,12,16,0.4,0.5
2026-01-25T2000,1130A,126.5557,45.8109,哈尔滨市,松北商大,细颗粒物(PM2.5),68,,60,49,57,27,,48,47,46,36,5,14,0.6,0.7
2026-01-25T2000,1132A,126.6162,45.719,哈尔滨市,南岗学府路,,49,49,60,30,41,51,,57,57,20,26,8,12,0.7,0.8
2026-01-25T2000,1133A,126.6894,45.7733,哈尔滨市,太平宏伟公园,细颗粒物(PM2.5),57,40,45,40,37,60,,65,65,19,20,11,18,0.6,0.6
2026-01-25T2000,1134A,126.6361,45.7672,哈尔滨市,道外承德广场,颗粒物(PM10),53,56,64,27,37,62,,69,69,23,24,8,11,0.5,0.5
2026-01-25T2000,1136A,126.644,45.7261,哈尔滨市,动力和平路,,46,43,52,32,39,44,,53,53,30,27,16,15,0.7,0.8
2026-01-25T2000,1137A,126.5933,45.7479,哈尔滨市,道里建国路,,40,34,50,28,44,50,,58,57,30,30,5,9,0.2,0.4
2026-01-25T2000,1138A,126.6127,45.6119,哈尔滨市,平房东轻厂,细颗粒物(PM2.5),128,,78,97,69,4,,58,43,89,54,25,13,1.4,1.2
2026-01-25T2000,1139A,126.5875,45.9827,哈尔滨市,呼兰师专,细颗粒物(PM2.5),100,90,70,75,57,23,,57,50,57,30,18,10,1.0,0.8
2026-01-25T2000,1140A,126.6299,45.6799,哈尔滨市,省农科院,细颗粒物(PM2.5),105,92,87,79,76,18,,49,45,57,44,22,17,1.1,1.1
2026-01-25T2000,4282A,126.6769,45.7379,哈尔滨市,华山路1号,细颗粒物(PM2.5),53,46,46,37,33,50,,58,57,28,26,10,19,0.4,0.4
2026-01-25T2000,4283A,126.9717,45.5356,哈尔滨市,解放大街52号,细颗粒物(PM2.5),97,99,88,72,70,24,,59,54,48,35,20,16,1.0,0.9
2026-01-25T2000,2688A,93.5124,42.8176,哈密市,地区监测站,颗粒物(PM10),88,125,101,37,40,40,,61,60,29,16,8,9,0.4,0.2
2026-01-25T2000,2689A,93.5014,42.8312,哈密市,哈密师范学校,颗粒物(PM10),77,104,110,38,35,46,,63,62,30,22,7,6,0.7,0.6
2026-01-25T2000,2671A,100.9016,36.9464,海北藏族自治州,海晏县西海镇,颗粒物(PM10),154,257,150,77,43,65,,73,73,17,11,18,12,1.0,0.7
2026-01-25T2000,3867A,102.074,36.5056,海东市,平安区公安局北苑,颗粒物(PM10),436,536,395,145,103,36,,55,51,29,19,26,28,1.0,1
2026-01-25T2000,4163A,102.0984,36.5119,海东市,滨河路,颗粒物(PM10),456,556,447,159,117,18,,58,47,62,34,32,27,1.0,0.8
2026-01-25T2000,1410A,110.3189,20.0596,海口市,海南大学,,30,26,23,10,12,96,,97,97,7,13,5,5,0.3,0.4
2026-01-25T2000,1411A,110.2827,20.0051,海口市,秀英海南医院,,30,30,29,9,11,81,,94,93,11,14,7,7,0.3,0.4
2026-01-25T2000,1412A,110.3391,19.9979,海口市,海南师范大学,,31,31,30,11,12,83,,96,95,11,15,6,6,0.4,0.5
2026-01-25T2000,1413A,110.3303,20.0359,海口市,龙华路环保局宿舍,,32,32,30,10,13,89,,97,95,10,13,/,/,0.7,0.7
2026-01-25T2000,3539A,110.5111,19.9737,海口市,桂林洋子站,,35,35,25,11,13,84,,91,90,10,10,/,/,/,/
2026-01-25T2000,4134A,110.1952,20.0451,海口市,长滨二路9号,,27,21,20,8,13,84,,91,91,7,11,/,/,/,/
2026-01-25T2000,2673A,100.6158,36.2985,海南藏族自治州,共和县恰卜恰镇,颗粒物(PM10),122,193,109,58,34,88,,85,85,4,17,11,12,0.7,0.9
2026-01-25T2000,2676A,97.373,37.376,海西蒙古族藏族自治州,德令哈市,颗粒物(PM10),259,391,613,70,103,82,,92,92,10,9,19,16,0.5,0.6
2026-01-25T2000,1049A,114.492,36.5712,邯郸市,矿院,细颗粒物(PM2.5),142,117,169,108,168,20,,44,39,51,39,8,9,1.0,1.1
2026-01-25T2000,1050A,114.4839,36.6136,邯郸市,丛台公园,细颗粒物(PM2.5),148,119,187,113,172,21,,47,41,62,47,9,8,1.0,1.1
2026-01-25T2000,3458A,114.7893,36.5592,邯郸市,香泉濮院小区,细颗粒物(PM2.5),152,161,208,116,161,5,,34,29,74,54,7,8,1.2,1.2
2026-01-25T2000,3580A,114.1998,36.4439,邯郸市,峰峰矿区临水派出所,细颗粒物(PM2.5),114,97,132,86,126,44,,76,70,38,25,14,12,1.1,1.1
2026-01-25T2000,4068A,114.5209,36.7697,邯郸市,建安街268号,细颗粒物(PM2.5),148,130,170,113,166,14,,39,31,72,59,7,8,0.9,1.1
2026-01-25T2000,4069A,114.5488,36.6177,邯郸市,丛台东路558号,细颗粒物(PM2.5),166,136,179,126,185,5,,38,33,67,54,8,9,1.1,1.2
2026-01-25T2000,2635A,107.0155,33.0707,汉中市,市监测站,细颗粒物(PM2.5),87,85,89,64,77,26,,32,32,31,33,6,6,1.1,1.4
2026-01-25T2000,2636A,107.0083,33.114,汉中市,鑫源开发区,细颗粒物(PM2.5),119,92,84,90,79,20,,29,29,33,38,4,6,1.1,1.3
2026-01-25T2000,2637A,107.0072,33.0323,汉中市,南郑大河坎水厂,细颗粒物(PM2.5),87,82,102,64,80,26,,28,28,26,31,6,7,1.0,1.3
2026-01-25T2000,1223A,120.2073,30.2111,杭州市,滨江,"颗粒物(PM10),细颗粒物(PM2.5)",59,68,137,42,106,57,,57,57,40,54,7,9,0.5,0.7
2026-01-25T2000,1224A,120.0625,30.2737,杭州市,西溪,颗粒物(PM10),67,83,123,47,94,56,,68,68,38,57,9,10,0.8,0.8
2026-01-25T2000,1226A,120.3417,30.315,杭州市,下沙,颗粒物(PM10),59,67,125,38,92,53,,67,67,44,58,8,11,0.6,0.9
2026-01-25T2000,1227A,120.1252,30.2465,杭州市,卧龙桥,细颗粒物(PM2.5),102,94,116,76,91,21,,62,58,59,53,8,10,0.6,0.6
2026-01-25T2000,1228A,120.1902,30.2691,杭州市,浙江农大,颗粒物(PM10),58,66,126,40,98,44,,60,60,58,63,6,8,0.7,0.8
2026-01-25T2000,1230A,120.1195,30.3121,杭州市,和睦小学,细颗粒物(PM2.5),69,67,131,50,96,63,,70,70,31,51,6,8,0.8,0.9
2026-01-25T2000,1231A,120.3076,30.4146,杭州市,临平镇,颗粒物(PM10),53,56,118,36,84,63,,74,74,30,43,7,9,0.6,0.8
2026-01-25T2000,1232A,120.2753,30.1839,杭州市,城厢镇,颗粒物(PM10),70,90,135,43,94,56,,59,59,42,66,9,11,0.5,0.6
2026-01-25T2000,1233A,120.0883,30.1808,杭州市,云栖,细颗粒物(PM2.5),89,100,124,66,88,32,,61,59,50,53,4,5,0.7,0.7
2026-01-25T2000,3557A,119.9463,30.0496,杭州市,镇二中,细颗粒物(PM2.5),152,,111,116,109,12,,59,54,98,68,9,8,1.5,1
2026-01-25T2000,3558A,119.7184,30.2367,杭州市,市府大楼,细颗粒物(PM2.5),149,134,131,114,113,43,,68,66,57,51,12,12,1.2,1.3
2026-01-25T2000,3656A,120.1554,30.2863,杭州市,消防大队,细颗粒物(PM2.5),68,77,125,49,103,52,,62,62,38,50,7,10,0.4,0.6
2026-01-25T2000,1270A,117.1957,31.7845,合肥市,明珠广场,细颗粒物(PM2.5),119,105,123,90,97,31,,30,28,41,49,6,8,1.0,1
2026-01-25T2000,1271A,117.307,31.8765,合肥市,三里街,细颗粒物(PM2.5),104,90,116,78,90,25,,29,29,45,58,5,6,0.9,1
2026-01-25T2000,1272A,117.2587,31.8703,合肥市,琥珀山庄,细颗粒物(PM2.5),117,105,119,88,95,30,,37,36,47,60,7,8,1.1,1.3
2026-01-25T2000,1275A,117.2593,31.9376,合肥市,庐阳区,细颗粒物(PM2.5),107,95,125,80,92,29,,38,38,53,65,11,11,0.9,1.1
2026-01-25T2000,1276A,117.345251,31.861615,合肥市,瑶海区,细颗粒物(PM2.5),108,95,121,81,93,27,,32,32,51,64,4,6,0.8,0.9
2026-01-25T2000,1277A,117.3033,31.7967,合肥市,包河区,细颗粒物(PM2.5),119,100,126,90,102,9,,14,13,79,92,7,10,1.0,1.1
2026-01-25T2000,1278A,117.278,31.7392,合肥市,滨湖新区,细颗粒物(PM2.5),138,112,125,105,106,24,,39,23,51,47,3,5,1.0,1
2026-01-25T2000,1279A,117.1324,31.8395,合肥市,高新区,细颗粒物(PM2.5),129,110,122,98,97,30,,40,32,55,60,4,6,1.1,1.1
2026-01-25T2000,3464A,117.3802,31.9148,合肥市,高教基地,细颗粒物(PM2.5),108,83,111,81,99,35,,38,38,42,52,8,9,0.8,1
2026-01-25T2000,4098A,117.2518,31.8404,合肥市,中国科学技术大学,细颗粒物(PM2.5),104,95,118,78,89,40,,37,37,36,51,8,11,1.0,1.2
2026-01-25T2000,3614A,79.9241,37.0878,和田地区,地区环保局,颗粒物(PM10),500,1023,1036,154,146,51,,55,55,14,16,2,2,1.1,0.8
2026-01-25T2000,3615A,79.9132,37.1137,和田地区,市环保局,颗粒物(PM10),500,972,993,146,157,55,,57,57,9,10,3,3,4.8,1.1
2026-01-25T2000,2517A,108.0496,24.6957,河池市,市环保站,"颗粒物(PM10),细颗粒物(PM2.5)",53,55,44,37,38,2,,26,12,34,19,2,3,1.6,1
2026-01-25T2000,4302A,108.0901,24.6945,河池市,上任中路54号,,35,28,44,24,40,6,,26,8,21,19,4,4,1.2,0.9
2026-01-25T2000,1697A,114.6962,23.7538,河源市,东埔,细颗粒物(PM2.5),78,74,49,57,37,26,,110,103,76,40,6,6,1.3,0.7
2026-01-25T2000,1698A,114.6895,23.7232,河源市,老城,颗粒物(PM10),53,56,47,33,30,71,,115,113,23,26,6,6,0.8,0.8
2026-01-25T2000,3374A,115.5562,35.089,菏泽市,定陶老年大学,细颗粒物(PM2.5),163,173,179,124,141,19,,39,28,45,46,10,9,1.1,1.1
2026-01-25T2000,4114A,115.4239,35.2593,菏泽市,黄河路600号,细颗粒物(PM2.5),189,179,183,142,148,20,,43,32,49,47,4,5,1.1,1.1
2026-01-25T2000,4115A,115.5025,35.2727,菏泽市,菏泽市人社局,细颗粒物(PM2.5),188,177,182,141,150,17,,32,27,42,45,12,12,1.1,1.1
2026-01-25T2000,4184A,115.479691,35.244011,菏泽市,永昌路1号,细颗粒物(PM2.5),185,179,182,139,144,20,,46,29,43,42,8,8,0.8,0.8
2026-01-25T2000,4193A,115.471542,35.280012,菏泽市,长城路999号,细颗粒物(PM2.5),175,172,179,132,142,16,,33,26,49,49,13,14,1.1,1.2
2026-01-25T2000,2514A,111.5264,24.4178,贺州市,环保小区,细颗粒物(PM2.5),77,98,90,56,63,39,,48,48,34,34,5,5,0.9,0.9
2026-01-25T2000,2515A,111.561,24.4074,贺州市,政协大楼,细颗粒物(PM2.5),75,92,80,55,59,28,,58,58,44,33,12,13,0.9,0.9
2026-01-25T2000,3534A,111.4744,24.455,贺州市,西湾,细颗粒物(PM2.5),77,83,83,56,63,43,,48,48,35,33,9,9,1.1,1
2026-01-25T2000,2385A,114.17,35.9019,鹤壁市,市监测站,细颗粒物(PM2.5),137,126,208,104,186,44,,58,57,36,33,16,11,1.2,1.4
2026-01-25T2000,2386A,114.2953,35.7512,鹤壁市,市交警支队,细颗粒物(PM2.5),166,141,200,126,182,27,,48,47,50,42,11,11,1.0,1.1
2026-01-25T2000,2387A,114.2877,35.7302,鹤壁市,迎宾馆,细颗粒物(PM2.5),139,142,197,106,167,33,,56,54,42,34,11,12,1.1,1.3
2026-01-25T2000,3474A,114.2616,35.6824,鹤壁市,大新区,细颗粒物(PM2.5),112,107,191,84,165,44,,61,60,28,24,13,11,1.1,1.3
2026-01-25T2000,3596A,114.1573,35.9607,鹤壁市,南山宾馆,细颗粒物(PM2.5),140,125,208,107,180,48,,62,61,38,36,17,12,1.1,1.3
2026-01-25T2000,2244A,130.2537,47.3416,鹤岗市,哈啤分公司,,25,20,22,16,10,79,,81,80,4,4,6,6,0.2,0.2
2026-01-25T2000,2245A,130.2683,47.3087,鹤岗市,斯达机电,,27,27,24,10,9,71,,77,75,8,6,4,4,0.4,0.4
2026-01-25T2000,2246A,130.3114,47.3388,鹤岗市,东山纸板厂,颗粒物(PM10),52,53,27,14,11,73,,78,77,7,5,6,5,0.7,0.5
2026-01-25T2000,2263A,127.4832,50.2524,黑河市,交通局,,24,21,17,14,15,74,,77,73,7,7,5,4,0.3,0.2
2026-01-25T2000,2264A,127.5146,50.2339,黑河市,环保局,,25,22,15,17,9,72,,75,73,9,9,3,3,0.4,0.4
2026-01-25T2000,1074A,115.6839,37.754,衡水市,电机北厂,"颗粒物(PM10),细颗粒物(PM2.5)",62,74,161,44,127,39,,47,47,32,60,12,12,0.5,1
2026-01-25T2000,1075A,115.6303,37.7318,衡水市,市监测站,颗粒物(PM10),57,64,148,33,120,46,,50,50,27,57,12,12,0.4,1
2026-01-25T2000,3188A,115.6684,37.7216,衡水市,市城管局,颗粒物(PM10),61,71,149,42,109,42,,49,49,31,59,13,14,0.4,1
2026-01-25T2000,3459A,115.599,37.5491,衡水市,地表水厂,细颗粒物(PM2.5),62,67,130,44,124,37,,46,46,27,54,6,16,0.4,0.9
2026-01-25T2000,2457A,112.6209,26.9268,衡阳市,衡阳化工总厂,细颗粒物(PM2.5),93,72,52,69,41,37,,34,34,15,20,9,10,1.2,1.1
2026-01-25T2000,2458A,112.621,26.8957,衡阳市,珠晖区环保局,细颗粒物(PM2.5),85,80,57,63,43,29,,27,27,20,35,6,8,1.1,1.1
2026-01-25T2000,2459A,112.628,26.8654,衡阳市,市委党校,细颗粒物(PM2.5),92,73,53,68,42,32,,30,30,11,20,11,14,1.3,1.2
2026-01-25T2000,2460A,112.6007,26.8977,衡阳市,市监测站,细颗粒物(PM2.5),94,108,77,70,44,30,,25,25,23,35,8,9,1.3,1.4
2026-01-25T2000,2461A,112.5658,26.9013,衡阳市,真空机电公司,细颗粒物(PM2.5),115,103,68,87,50,22,,23,19,28,39,20,12,1.5,1.5
2026-01-25T2000,3399A,112.6703,26.8817,衡阳市,师范学院,细颗粒物(PM2.5),88,82,54,65,38,28,,30,30,24,27,5,7,1.0,0.9
2026-01-25T2000,3038A,103.3757,23.3679,红河哈尼族彝族自治州,州图书馆,,35,31,32,24,21,70,,84,82,7,11,7,7,0.6,0.6
2026-01-25T2000,4154A,103.401,23.3561,红河哈尼族彝族自治州,蒙自市朝阳路,,28,25,26,19,20,69,,83,81,5,10,8,8,0.5,0.6
2026-01-25T2000,1090A,111.6506,40.7517,呼和浩特市,呼市一监,颗粒物(PM10),367,473,130,71,30,39,,58,49,24,22,26,14,0.6,0.6
2026-01-25T2000,1094A,111.7516,40.8369,呼和浩特市,如意水处理厂,颗粒物(PM10),250,385,91,83,31,38,,49,45,30,31,19,11,0.7,0.6
2026-01-25T2000,1095A,111.727798,40.806187,呼和浩特市,二十九中,颗粒物(PM10),375,480,107,80,29,44,,60,50,21,22,16,14,0.5,0.5
2026-01-25T2000,1097A,111.717,40.7617,呼和浩特市,化肥厂生活区,颗粒物(PM10),333,446,114,87,31,44,,61,49,25,21,7,8,0.5,0.6
2026-01-25T2000,3699A,111.6519,40.8389,呼和浩特市,海东办,,,,105,76,29,17,,44,43,48,37,7,7,0.7,0.7
2026-01-25T2000,4275A,111.591512,40.827312,呼和浩特市,成吉思汗西街8号,颗粒物(PM10),202,351,115,71,28,13,,36,35,52,43,8,8,0.8,0.7
2026-01-25T2000,4276A,111.6597,40.8077,呼和浩特市,公园东路75号,颗粒物(PM10),439,539,136,77,29,34,,50,45,31,28,8,8,0.8,0.7
2026-01-25T2000,4277A,111.5427,40.7846,呼和浩特市,金海路35号,颗粒物(PM10),340,452,108,81,30,19,,39,38,44,37,14,12,0.8,0.7
2026-01-25T2000,3061A,119.7511,49.1576,呼伦贝尔市,国华电力东,,32,32,27,22,17,60,,63,62,15,14,6,6,0.5,0.5
2026-01-25T2000,4279A,119.7569,49.2222,呼伦贝尔市,伊敏大街东7号,,45,35,29,31,18,14,,55,43,48,18,8,7,0.4,0.3
2026-01-25T2000,1250A,120.075,30.867,湖州市,城西水厂,,50,50,103,27,63,84,,91,91,24,40,8,8,0.4,0.6
2026-01-25T2000,2873A,120.083,30.8929,湖州市,仁皇山新区,细颗粒物(PM2.5),57,54,108,40,88,73,,86,86,40,55,8,8,0.6,0.8
2026-01-25T2000,2907A,120.1846,30.8592,湖州市,吴兴区站,颗粒物(PM10),54,58,103,34,81,77,,90,90,32,53,8,7,0.5,0.7
2026-01-25T2000,3562A,120.4146,30.8538,湖州市,南浔区站,,45,44,83,31,65,81,,92,92,24,31,11,9,0.5,0.6
2026-01-25T2000,1607A,120.904878,40.721091,葫芦岛市,龙港区,细颗粒物(PM2.5),57,50,57,40,35,68,,72,72,16,39,9,19,0.6,1
2026-01-25T2000,1608A,120.8382,40.7521,葫芦岛市,化工街,颗粒物(PM10),57,63,56,32,35,64,,65,65,19,36,7,25,0.4,0.7
2026-01-25T2000,1609A,120.8339,40.7078,葫芦岛市,新区,细颗粒物(PM2.5),57,44,48,40,34,72,,70,70,12,40,11,22,0.5,0.9
2026-01-25T2000,1610A,120.8697,40.7679,葫芦岛市,东城区,细颗粒物(PM2.5),64,,52,46,34,62,,68,67,23,38,20,36,0.8,0.9
2026-01-25T2000,2483A,109.9297,27.5383,怀化市,河西地税局,,36,29,69,25,56,28,,33,28,20,30,1,2,/,/
2026-01-25T2000,2484A,109.9783,27.5342,怀化市,市四医院,,43,35,69,30,54,19,,21,21,17,27,5,7,0.9,1
2026-01-25T2000,2485A,109.9971,27.5579,怀化市,监测楼,,43,38,70,30,56,20,,27,27,20,27,2,3,0.5,0.6
2026-01-25T2000,1210A,119.0566,33.5991,淮安市,钵池山,,50,,77,35,76,60,,78,72,13,22,6,6,0.2,0.5
2026-01-25T2000,1211A,119.0083,33.578,淮安市,北京南路,,39,31,78,27,70,55,,75,68,14,22,7,7,0.3,0.6
2026-01-25T2000,1212A,118.9938,33.6083,淮安市,市监测站,,21,14,69,12,66,67,,80,76,13,23,8,8,0.5,0.8
2026-01-25T2000,1213A,119.135,33.5038,淮安市,楚州区监测站,,20,20,78,11,67,56,,76,68,16,24,8,8,0.1,0.4
2026-01-25T2000,3426A,118.8757,33.2897,淮安市,新华书店,,29,29,83,14,71,57,,71,67,14,23,8,8,0.6,0.8
2026-01-25T2000,4092A,119.119691,33.550006,淮安市,枚皋中路89号,,29,29,88,13,70,68,,89,82,13,19,9,9,0.1,0.6
2026-01-25T2000,4206A,119.028838,33.631911,淮安市,承德北路606号,,46,,89,32,72,62,,76,71,16,26,7,7,0.3,0.6
2026-01-25T2000,2282A,116.8005,33.9749,淮北市,监测站,细颗粒物(PM2.5),67,80,119,48,86,81,,90,90,13,20,5,5,0.5,0.7
2026-01-25T2000,2283A,116.8094,33.9008,淮北市,烈山区政府,细颗粒物(PM2.5),68,62,97,49,84,89,,98,98,12,18,4,4,0.4,0.6
2026-01-25T2000,4017A,116.7926,33.9534,淮北市,市博物馆,细颗粒物(PM2.5),67,69,114,48,86,82,,94,93,11,19,8,8,0.5,0.7
2026-01-25T2000,4100A,116.8322,33.9884,淮北市,杜集区第一实验学校,细颗粒物(PM2.5),60,67,111,43,89,90,,100,100,11,18,8,8,0.6,0.8
2026-01-25T2000,2277A,116.8304,32.7726,淮南市,潘集区政府,细颗粒物(PM2.5),97,72,112,72,98,60,,63,63,19,28,4,5,0.5,0.6
2026-01-25T2000,2279A,116.8569,32.5949,淮南市,谢家集区政府,细颗粒物(PM2.5),74,65,101,54,81,52,,54,54,27,35,7,8,0.7,0.9
2026-01-25T2000,2280A,116.8279,32.6333,淮南市,八公山区政府,细颗粒物(PM2.5),73,68,106,53,88,58,,57,57,20,31,7,5,0.6,0.8
2026-01-25T2000,2894A,117.0561,32.6536,淮南市,经济技术开发区消防队,细颗粒物(PM2.5),69,75,109,50,79,57,,59,59,26,41,4,5,0.6,0.9
2026-01-25T2000,3329A,117.011,32.5891,淮南市,山南新区,细颗粒物(PM2.5),64,70,117,46,84,57,,60,60,28,36,7,8,0.7,0.9
2026-01-25T2000,4209A,117.003137,32.644456,淮南市,国庆中路369号,细颗粒物(PM2.5),72,74,106,52,91,51,,50,50,27,38,8,10,0.4,0.7
2026-01-25T2000,2446A,114.9021,30.474,黄冈市,职工中心,细颗粒物(PM2.5),94,76,57,70,49,25,,57,33,22,22,6,8,0.9,0.6
2026-01-25T2000,2929A,114.8858,30.4519,黄冈市,红卫路,细颗粒物(PM2.5),93,,55,69,52,26,,55,34,22,19,7,9,0.6,0.4
2026-01-25T2000,3398A,114.9134,30.4446,黄冈市,市林业局,细颗粒物(PM2.5),94,,54,70,49,28,,54,36,21,22,5,4,0.9,0.7
2026-01-25T2000,2672A,102.02,35.5101,黄南藏族自治州,同仁县隆务镇,颗粒物(PM10),197,343,183,103,59,57,,67,66,14,10,13,13,0.9,0.7
2026-01-25T2000,2295A,118.2905,29.6965,黄山市,延安路89号,颗粒物(PM10),51,52,43,22,33,56,,90,89,20,21,4,4,0.9,0.8
2026-01-25T2000,2297A,118.1369,30.2755,黄山市,黄山区政府5号楼,细颗粒物(PM2.5),80,81,56,59,42,50,,64,64,23,17,2,2,0.8,0.8
2026-01-25T2000,4210A,118.335445,29.720283,黄山市,滨江东路7-2号,细颗粒物(PM2.5),89,109,66,66,48,24,,84,78,48,27,/,/,/,/
2026-01-25T2000,2423A,115.0547,30.2332,黄石市,沈家营,细颗粒物(PM2.5),94,97,76,70,48,15,,44,25,30,25,8,13,1.5,1.6
2026-01-25T2000,2426A,114.899,30.211,黄石市,铁山,细颗粒物(PM2.5),109,,54,82,60,12,,60,28,30,18,6,8,,
2026-01-25T2000,2427A,115.0259,30.2108,黄石市,团城山,细颗粒物(PM2.5),112,,61,84,53,6,,64,27,33,19,6,7,1.5,0.8
2026-01-25T2000,3149A,115.0174,30.1591,黄石市,笔架山北路,细颗粒物(PM2.5),89,91,87,66,52,11,,46,28,38,25,6,10,1.4,1.2
2026-01-25T2000,4185A,115.078022,30.21118,黄石市,磁湖东路29号,细颗粒物(PM2.5),102,85,67,76,56,10,,61,19,39,30,7,8,1.4,1.1
2026-01-25T2000,1392A,114.4181,23.0528,惠州市,河南岸金山湖子站,,47,47,50,28,32,90,,116,115,27,26,4,4,0.7,0.7
2026-01-25T2000,1393A,114.4055,23.0824,惠州市,下埔横江三路子站,颗粒物(PM10),52,53,54,27,33,98,,132,131,29,26,6,7,0.9,0.8
2026-01-25T2000,1395A,114.4645,22.7832,惠州市,惠阳区承修路船湖子站,,35,35,40,20,29,104,,122,121,22,23,7,7,0.6,0.6
2026-01-25T2000,1396A,114.5316,22.7423,惠州市,大亚湾管委会子站,,34,34,38,13,24,101,,116,115,19,18,6,7,0.5,0.5
2026-01-25T2000,3314A,114.4334,22.8134,惠州市,惠阳秋长,,,,51,21,29,108,,143,140,34,31,/,/,/,/
2026-01-25T2000,3452A,114.6521,22.7755,惠州市,大亚湾霞涌,,40,40,35,12,18,110,,130,129,22,18,/,/,/,/
2026-01-25T2000,4300A,114.4089,23.1147,惠州市,文华一路1号,,43,43,47,23,30,117,,141,141,24,25,/,/,/,/
2026-01-25T2000,2240A,130.9618,45.2926,鸡西市,环保局,,28,28,21,12,15,67,,71,71,9,7,6,6,0.3,0.3
2026-01-25T2000,2243A,130.9294,45.2959,鸡西市,第一中学,,23,13,18,11,13,71,,74,74,8,7,4,3,0.4,0.3
2026-01-25T2000,3707A,131.0069,45.2988,鸡西市,欧美日汽修厂,,21,,24,14,14,66,,72,68,12,6,6,6,0.2,0.2
2026-01-25T2000,2367A,114.9753,27.0803,吉安市,红声器材厂,颗粒物(PM10),65,80,61,45,40,35,,59,58,49,33,10,12,1.1,0.9
2026-01-25T2000,2369A,114.9903,27.1313,吉安市,市环境监测站,"颗粒物(PM10),细颗粒物(PM2.5)",63,75,58,45,40,33,,61,60,44,26,8,10,/,/
2026-01-25T2000,2370A,115.009527,27.096792,吉安市,青原区法院,细颗粒物(PM2.5),74,85,62,54,40,22,,53,52,57,37,16,15,1.1,0.9
2026-01-25T2000,1772A,126.54,43.8622,吉林市,哈达湾,细颗粒物(PM2.5),60,53,50,43,43,68,,71,71,20,22,18,11,0.7,0.9
2026-01-25T2000,1773A,126.5843,43.8358,吉林市,东局子,细颗粒物(PM2.5),98,80,54,73,44,39,,65,62,39,24,6,6,1.2,1
2026-01-25T2000,1774A,126.5051,43.8243,吉林市,电力学院,细颗粒物(PM2.5),192,211,76,144,66,27,,67,59,74,34,14,9,2.7,1.2
2026-01-25T2000,1775A,126.6133,43.8971,吉林市,江北,细颗粒物(PM2.5),156,128,77,119,62,28,,58,53,47,29,12,9,1.5,1.1
2026-01-25T2000,1776A,126.5549,43.8304,吉林市,江南公园,细颗粒物(PM2.5),108,98,54,81,47,42,,65,62,40,27,9,7,1.0,0.8
2026-01-25T2000,2868A,126.4737,43.953,吉林市,九站,细颗粒物(PM2.5),68,53,55,49,49,47,,64,55,39,32,6,7,0.8,0.9
2026-01-25T2000,1299A,116.9866,36.6118,济南市,科干所,颗粒物(PM10),71,92,126,51,83,27,,52,42,53,46,10,14,0.8,1.1
2026-01-25T2000,1300A,116.9379,36.6652,济南市,农科所,颗粒物(PM10),62,73,146,32,90,33,,37,37,42,63,17,18,0.8,1.2
2026-01-25T2000,1301A,117.1265,36.6736,济南市,开发区,颗粒物(PM10),66,81,133,46,100,35,,49,47,45,54,10,11,0.8,1.1
2026-01-25T2000,1303A,117.0616,36.6865,济南市,省种子仓库,颗粒物(PM10),65,80,148,39,99,28,,47,46,47,56,13,16,0.8,1.5
2026-01-25T2000,1304A,116.9495185,36.644937,济南市,机床二厂,颗粒物(PM10),67,83,140,44,106,28,,43,43,45,52,14,16,0.7,1
2026-01-25T2000,1305A,117.0496,36.6629,济南市,市监测站,颗粒物(PM10),69,88,135,42,96,29,,47,46,45,49,10,12,0.8,1.1
2026-01-25T2000,1306A,116.7674,36.5458,济南市,长清党校,颗粒物(PM10),75,100,145,46,99,28,,32,32,49,62,15,17,0.9,1.2
2026-01-25T2000,1961A,117.5323,36.6865,济南市,东山小学,颗粒物(PM10),66,81,140,27,93,36,,57,54,43,48,11,16,0.4,0.8
2026-01-25T2000,3059A,117.7181,36.205,济南市,泰兴公司,细颗粒物(PM2.5),107,97,143,80,120,42,,79,70,42,61,10,11,1.0,1.3
2026-01-25T2000,3064A,117.6861,36.2172,济南市,莱芜战役纪念馆,细颗粒物(PM2.5),107,97,138,80,116,45,,81,73,38,53,10,13,0.8,1.1
2026-01-25T2000,3494A,117.1673,36.9782,济南市,济阳区政府,,37,37,120,17,82,52,,59,59,20,36,6,13,0.5,0.9
2026-01-25T2000,3495A,117.1168,36.6299,济南市,锦屏中学,颗粒物(PM10),72,93,116,51,85,39,,59,51,43,41,9,9,1.0,1.2
2026-01-25T2000,4108A,117.7107,36.2385,济南市,山财大街5号,细颗粒物(PM2.5),87,85,120,64,95,47,,82,74,44,52,10,15,0.9,1.1
2026-01-25T2000,4109A,116.9744,36.6889,济南市,无影山路12号,颗粒物(PM10),57,63,138,24,105,38,,42,42,37,63,15,20,0.8,1.2
2026-01-25T2000,1653A,116.6229,35.4288,济宁市,火炬城,细颗粒物(PM2.5),192,181,160,144,149,0,,52,40,68,62,9,6,1.5,1.1
2026-01-25T2000,3500A,116.5808,35.3703,济宁市,北湖一中,细颗粒物(PM2.5),186,176,146,140,137,4,,57,44,72,53,13,7,1.3,1.2
2026-01-25T2000,3501A,116.8251,35.5592,济宁市,服务中心,细颗粒物(PM2.5),198,199,182,148,124,8,,71,63,47,45,11,9,1.0,0.8
2026-01-25T2000,3678A,116.5907,35.4054,济宁市,市第七中学,细颗粒物(PM2.5),178,174,149,134,130,7,,60,46,73,58,19,11,1.6,1.3
2026-01-25T2000,4111A,116.6075,35.4566,济宁市,任和路,细颗粒物(PM2.5),175,198,189,132,142,2,,52,39,72,67,19,10,1.6,1.2
2026-01-25T2000,4112A,116.5648,35.3921,济宁市,文体南路1号,细颗粒物(PM2.5),189,209,176,142,138,2,,57,42,74,56,16,8,1.3,1.1
2026-01-25T2000,2255A,130.2749,46.8028,佳木斯市,佳纺,颗粒物(PM10),51,51,36,21,24,60,,65,61,12,15,7,7,0.6,0.7
2026-01-25T2000,2257A,130.3258,46.7975,佳木斯市,环保局,,42,42,32,27,25,55,,66,61,21,19,10,8,0.5,0.5
2026-01-25T2000,4285A,130.363,46.806,佳木斯市,顺和街,,,,30,,25,55,,61,56,,18,9,10,0.5,0.4
2026-01-25T2000,4286A,130.3952,46.8268,佳木斯市,长安路196号,,38,38,26,22,20,75,,75,72,7,10,4,5,0.4,0.5
2026-01-25T2000,1252A,120.7439,30.778,嘉兴市,清河小学,,43,42,83,30,64,80,,90,90,22,35,9,8,0.3,0.4
2026-01-25T2000,1253A,120.7261,30.7477,嘉兴市,嘉兴学院,,49,49,87,23,58,83,,90,90,24,31,7,7,1.0,1.1
2026-01-25T2000,2872A,120.7845,30.7524,嘉兴市,南湖区残联,,30,27,67,21,58,86,,95,94,25,34,6,7,0.7,0.8
2026-01-25T2000,3407A,120.6915,30.7741,嘉兴市,秀洲住建,,38,34,84,26,63,85,,94,94,25,34,10,9,0.5,0.6
2026-01-25T2000,1945A,98.291,39.7705,嘉峪关市,气象局,颗粒物(PM10),328,442,679,95,125,47,,61,57,20,13,7,12,0.5,0.6
2026-01-25T2000,2884A,98.2672,39.7978,嘉峪关市,酒钢宾馆,颗粒物(PM10),322,437,674,95,134,51,,66,58,17,11,10,21,0.3,0.6
2026-01-25T2000,3248A,98.2644,39.7723,嘉峪关市,雄关区,颗粒物(PM10),218,362,542,78,95,47,,58,57,22,16,16,16,0.6,0.5
2026-01-25T2000,1383A,113.1063,22.6058,江门市,北街,,44,44,80,19,56,96,,142,142,29,68,/,/,/,/
2026-01-25T2000,1384A,113.073,22.5835,江门市,西区,颗粒物(PM10),51,52,95,26,53,102,,137,137,29,65,/,/,/,/
2026-01-25T2000,1385A,113.0218,22.531,江门市,圭峰西,,34,31,67,23,60,107,,134,133,22,32,/,/,/,/
2026-01-25T2000,1386A,113.0826,22.5947,江门市,东湖,,45,41,86,31,60,108,,142,142,22,52,7,7,0.5,0.9
2026-01-25T2000,3311A,113.1077,22.5647,江门市,江海富民,颗粒物(PM10),52,53,118,27,69,99,,138,137,34,66,/,/,0.6,0.7
2026-01-25T2000,3449A,113.0496,22.4669,江门市,新会银湖,,47,47,83,28,71,86,,116,115,25,51,7,7,0.4,0.7
2026-01-25T2000,3335A,113.3137,35.2643,焦作市,马村街道办,细颗粒物(PM2.5),224,197,175,174,155,47,,67,55,30,22,9,6,1.2,1
2026-01-25T2000,3336A,113.2464,35.2374,焦作市,焦作技师学院,细颗粒物(PM2.5),221,191,178,171,155,47,,68,56,32,24,11,7,1.4,1.2
2026-01-25T2000,3477A,113.1656,35.2536,焦作市,中站许衡医院,细颗粒物(PM2.5),223,190,170,173,156,55,,70,59,28,24,7,5,1.3,1.1
2026-01-25T2000,3981A,113.2456,35.18,焦作市,原李万街道办,细颗粒物(PM2.5),221,188,170,171,150,42,,71,58,34,23,7,5,1.2,1
2026-01-25T2000,4264A,113.234,35.219,焦作市,新安路1731号,细颗粒物(PM2.5),232,216,194,182,165,50,,70,60,,22,8,9,,1.1
2026-01-25T2000,4295A,113.2722,35.2121,焦作市,人民路3066号,细颗粒物(PM2.5),212,214,184,162,147,44,,69,54,30,22,7,8,1.5,1.4
2026-01-25T2000,1708A,116.3701,23.5345,揭阳市,新兴,,44,44,39,24,26,64,,93,90,30,25,8,9,0.6,0.6
2026-01-25T2000,1709A,116.3261,23.5442,揭阳市,西马,颗粒物(PM10),51,52,40,24,25,59,,91,87,24,16,5,6,0.8,0.6
2026-01-25T2000,1710A,116.361,23.5627,揭阳市,东兴,,38,38,40,21,24,72,,94,92,19,21,8,10,/,/
2026-01-25T2000,1711A,116.4151,23.5295,揭阳市,渔湖,,30,30,38,17,17,70,,95,92,17,17,4,7,/,/
2026-01-25T2000,3320A,116.4028,23.5699,揭阳市,曲溪,,49,49,39,24,21,70,,94,91,17,16,5,6,0.6,0.5
2026-01-25T2000,1944A,102.1691,38.5166,金昌市,天庆家园,颗粒物(PM10),328,442,985,102,158,53,,64,63,14,14,8,31,0.8,0.8
2026-01-25T2000,4022A,102.1648,38.5369,金昌市,金川区人防中心,颗粒物(PM10),290,413,1099,96,159,57,,65,64,15,11,8,21,0.6,0.6
2026-01-25T2000,4239A,102.193042,38.531887,金昌市,长春路96号,颗粒物(PM10),188,326,1026,77,151,52,,64,63,19,11,22,27,0.9,0.7
2026-01-25T2000,1262A,119.6478,29.0773,金华市,十五中,细颗粒物(PM2.5),123,141,128,93,90,35,,97,93,103,81,5,5,1.1,0.6
2026-01-25T2000,1263A,119.6859,29.1032,金华市,监测站,细颗粒物(PM2.5),94,121,133,70,86,24,,80,76,108,83,4,5,0.7,0.7
2026-01-25T2000,3659A,119.656,29.1132,金华市,气象局,细颗粒物(PM2.5),115,142,123,87,81,16,,78,72,102,81,6,5,0.5,0.6
2026-01-25T2000,1767A,121.1114,41.0879,锦州市,南山,,50,50,64,33,48,53,,70,68,24,34,10,16,0.7,1.2
2026-01-25T2000,1768A,121.060361,40.842794,锦州市,开发区,细颗粒物(PM2.5),59,46,64,42,43,68,,72,72,13,38,6,36,0.6,0.9
2026-01-25T2000,1769A,121.1836,41.1118,锦州市,百股街道,颗粒物(PM10),55,59,46,36,32,58,,70,68,20,25,7,19,0.6,0.8
2026-01-25T2000,1770A,121.1176,41.1224,锦州市,天安街道,颗粒物(PM10),55,60,47,33,28,62,,72,71,19,26,4,12,0.7,0.9
2026-01-25T2000,1771A,121.1303,41.1385,锦州市,北湖公园,颗粒物(PM10),55,59,40,32,23,58,,67,66,15,14,10,16,0.7,0.7
2026-01-25T2000,2160A,112.8496,35.5051,晋城市,自来水公司,细颗粒物(PM2.5),175,132,115,132,89,83,,86,83,21,17,4,4,0.9,0.7
2026-01-25T2000,2162A,112.8509,35.4886,晋城市,市环保局,细颗粒物(PM2.5),153,147,119,117,95,78,,86,81,20,16,4,4,1.1,1
2026-01-25T2000,3620A,112.8258,35.4804,晋城市,泽州一中,细颗粒物(PM2.5),129,128,114,98,97,84,,87,84,24,20,3,3,0.9,0.8
2026-01-25T2000,4078A,112.8246,35.5152,晋城市,前书院路,细颗粒物(PM2.5),137,142,123,104,80,78,,79,74,18,17,4,4,1.0,0.8
2026-01-25T2000,4079A,112.8864,35.4773,晋城市,祥云街666号,细颗粒物(PM2.5),195,161,132,146,112,,,82,72,23,18,3,3,,0.7
2026-01-25T2000,2174A,112.6992,37.6984,晋中市,榆次区政府,细颗粒物(PM2.5),200,173,217,150,164,26,,70,42,53,37,10,9,0.9,1
2026-01-25T2000,2865A,112.7195,37.683,晋中市,榆次三中,细颗粒物(PM2.5),203,173,229,153,171,34,,72,48,43,33,11,10,1.0,1.1
2026-01-25T2000,4080A,112.7375,37.7215,晋中市,广安街188号,细颗粒物(PM2.5),214,202,234,164,171,26,,73,44,62,40,9,10,1.0,1
2026-01-25T2000,4200A,112.7478,37.6954,晋中市,迎宾街26号,细颗粒物(PM2.5),214,168,222,164,182,35,,72,48,45,35,11,10,1.1,1.1
2026-01-25T2000,2439A,112.2012,31.048,荆门市,竹园小学,细颗粒物(PM2.5),165,,88,125,75,48,,45,45,28,34,2,2,0.6,0.5
2026-01-25T2000,2440A,112.1968,30.9892,荆门市,掇刀,细颗粒物(PM2.5),135,103,85,103,70,53,,50,50,22,27,2,4,0.8,0.7
2026-01-25T2000,3012A,112.1849,31.0361,荆门市,西山林语,细颗粒物(PM2.5),138,,80,105,63,54,,50,50,23,26,2,8,1.0,0.9
2026-01-25T2000,3547A,112.1631,31.0134,荆门市,龙泉中学南校,细颗粒物(PM2.5),125,101,84,95,70,58,,58,57,13,18,3,5,0.8,0.6
2026-01-25T2000,4124A,112.2213,31.0654,荆门市,新台西路6号,细颗粒物(PM2.5),148,132,87,113,74,48,,45,45,29,34,7,8,1.0,1
2026-01-25T2000,1844A,112.2493,30.3198,荆州市,市图书馆,细颗粒物(PM2.5),89,,60,66,70,43,,51,36,23,25,6,7,1.0,0.9
2026-01-25T2000,1845A,112.2009,30.3543,荆州市,市委党校,细颗粒物(PM2.5),88,,73,65,70,40,,42,36,33,36,5,3,0.9,0.9
2026-01-25T2000,3194A,112.2749,30.3124,荆州市,管委会,细颗粒物(PM2.5),79,,64,58,69,42,,47,34,23,27,5,7,1.1,1.1
2026-01-25T2000,4268A,112.1722,30.3366,荆州市,学苑路85号,细颗粒物(PM2.5),84,,69,62,64,48,,45,39,21,24,7,8,1.1,1
2026-01-25T2000,2343A,117.2114,29.2931,景德镇市,老干部活动中心,细颗粒物(PM2.5),59,58,48,42,36,25,,52,50,34,26,3,4,0.7,0.6
2026-01-25T2000,2344A,117.1893,29.2789,景德镇市,兽医站,颗粒物(PM10),63,76,61,41,32,36,,71,65,36,30,5,4,0.7,0.6
2026-01-25T2000,2346A,117.246,29.2958,景德镇市,陶研所,细颗粒物(PM2.5),69,52,42,50,37,24,,58,55,37,22,3,3,1.2,0.8
2026-01-25T2000,4289A,117.154766,29.256967,景德镇市,青少年活动中心,颗粒物(PM10),97,143,77,59,40,18,,64,56,56,37,6,9,/,/
2026-01-25T2000,1803A,115.9873,29.6816,九江市,十里,细颗粒物(PM2.5),109,106,87,82,67,,,39,39,54,51,8,10,1.3,1.2
2026-01-25T2000,1804A,115.9583,29.7047,九江市,茅山头,细颗粒物(PM2.5),107,114,86,80,63,23,,39,39,53,50,7,8,1.1,0.9
2026-01-25T2000,1805A,115.9877,29.7295,九江市,西园,细颗粒物(PM2.5),113,123,87,85,59,27,,45,43,65,55,7,9,0.8,0.7
2026-01-25T2000,1808A,115.9112,29.6038,九江市,综合工业园,细颗粒物(PM2.5),135,105,84,103,76,21,,24,24,68,66,5,6,0.8,0.7
2026-01-25T2000,3190A,116.0254,29.6995,九江市,外国语学校,细颗粒物(PM2.5),118,101,74,89,62,22,,32,31,57,51,6,12,0.7,0.8
2026-01-25T2000,4253A,116.010205,29.659402,九江市,莲花大道8号,细颗粒物(PM2.5),140,111,74,107,70,25,,33,29,47,30,4,4,0.9,0.7
2026-01-25T2000,4240A,98.495752,39.733935,酒泉市,玉门东路5号,颗粒物(PM10),339,451,536,82,106,40,,60,55,27,10,10,11,0.6,0.4
2026-01-25T2000,4241A,98.5099,39.7506,酒泉市,北大街108号,颗粒物(PM10),240,378,704,64,106,44,,55,53,24,10,11,10,0.5,0.4
2026-01-25T2000,2698A,76.0071,39.466,喀什地区,巡警大队,颗粒物(PM10),470,570,574,134,129,60,,55,55,16,25,7,5,0.7,0.8
2026-01-25T2000,2699A,75.9756,39.4693,喀什地区,吾办,颗粒物(PM10),422,522,496,174,140,62,,54,54,21,29,15,8,0.7,1
2026-01-25T2000,4027A,75.9485,39.4688,喀什地区,老干局,颗粒物(PM10),500,619,577,153,122,61,,56,56,15,18,5,3,0.5,0.7
2026-01-25T2000,1824A,114.3389,34.778,开封市,肿瘤医院,细颗粒物(PM2.5),148,146,160,113,134,,,56,43,40,35,16,13,1.2,1.2
2026-01-25T2000,1826A,114.2884,34.7966,开封市,世纪星幼儿园,细颗粒物(PM2.5),173,,148,131,154,38,,56,43,41,38,10,8,0.9,1
2026-01-25T2000,3147A,114.3434,34.8101,开封市,龙亭公园,细颗粒物(PM2.5),159,132,154,121,153,30,,48,39,45,43,13,10,1.1,1.1
2026-01-25T2000,3210A,114.3645,34.7955,开封市,汴京公园,细颗粒物(PM2.5),175,,159,132,147,30,,47,37,41,41,9,6,1.0,0.9
2026-01-25T2000,3473A,114.2485,34.8306,开封市,技师学院,细颗粒物(PM2.5),143,115,150,109,140,34,,45,43,45,44,12,9,0.9,1
2026-01-25T2000,3592A,114.4518,34.7503,开封市,祥符区生态环境局,细颗粒物(PM2.5),162,172,182,123,140,28,,42,37,46,45,8,7,0.9,0.9
2026-01-25T2000,1951A,84.886,45.6029,克拉玛依市,长征新村,颗粒物(PM10),69,87,85,40,49,76,,64,64,16,21,6,6,0.5,0.6
2026-01-25T2000,1952A,84.8894,45.5827,克拉玛依市,南林小区,颗粒物(PM10),64,78,82,40,44,72,,66,66,11,24,3,3,0.7,0.8
2026-01-25T2000,1954A,84.896,44.3328,克拉玛依市,独山子区,细颗粒物(PM2.5),94,132,109,70,56,16,,62,58,98,47,2,2,1.1,0.7
2026-01-25T2000,1955A,85.6888,46.0909,克拉玛依市,乌尔禾区商贸楼,颗粒物(PM10),61,71,61,12,35,46,,68,65,39,25,8,7,0.5,0.5
2026-01-25T2000,3612A,85.1045,45.6895,克拉玛依市,白碱滩区新站,细颗粒物(PM2.5),64,73,88,46,46,53,,56,50,25,26,8,9,0.7,0.7
2026-01-25T2000,2697A,76.1457,39.7143,克孜勒苏柯尔克孜自治州,市人民政府,颗粒物(PM10),493,593,573,164,131,65,,64,64,12,14,4,3,0.4,0.4
2026-01-25T2000,3665A,76.1654,39.7157,克孜勒苏柯尔克孜自治州,克州文化中心,颗粒物(PM10),496,596,622,144,136,60,,64,64,11,12,4,3,0.6,0.6
2026-01-25T2000,1450A,102.8203,24.889,昆明市,呈贡新区,,27,27,28,11,14,69,,78,78,14,16,4,4,0.4,0.4
2026-01-25T2000,1452A,102.7253,25.0904,昆明市,龙泉镇,,42,42,52,14,20,29,,82,76,46,35,3,4,0.5,0.4
2026-01-25T2000,1453A,102.7267,25.0378,昆明市,东风东路,,23,20,26,16,21,73,,83,82,16,19,4,9,0.5,0.6
2026-01-25T2000,1454A,102.6744,25.0671,昆明市,金鼎山,,32,32,33,14,19,59,,81,79,23,22,3,5,0.4,0.4
2026-01-25T2000,1455A,102.6643,25.0401,昆明市,碧鸡广场,,31,31,33,19,19,48,,80,76,34,28,3,6,0.5,0.5
2026-01-25T2000,3179A,102.7491,25.012,昆明市,官渡区博物馆,,27,27,34,11,20,62,,87,84,22,25,3,5,0.4,0.7
2026-01-25T2000,3375A,102.8016,24.8336,昆明市,青年创业园,,26,26,26,14,15,65,,87,85,14,16,7,7,0.3,0.3
2026-01-25T2000,3550A,102.8,24.9787,昆明市,昆明学院,,25,18,34,8,20,77,,87,86,9,17,3,5,0.3,0.5
2026-01-25T2000,3551A,102.5969,24.6738,昆明市,晋宁区生态环境分局,,34,34,23,19,14,89,,87,87,10,9,3,3,0.7,0.6
2026-01-25T2000,3552A,102.6673,24.9861,昆明市,云天化总部,,25,14,26,8,15,79,,86,86,9,20,4,9,0.2,0.4
2026-01-25T2000,1456A,91.132,29.6515,拉萨市,八廓街,,28,25,22,19,12,83,,98,98,19,14,8,7,0.6,0.5
2026-01-25T2000,1457A,91.1221,29.6748,拉萨市,市环保局,,23,17,22,9,13,72,,92,92,24,15,8,7,0.7,0.7
2026-01-25T2000,1458A,91.0874,29.6476,拉萨市,区监测站,,28,8,16,6,8,87,,93,93,13,11,4,4,0.6,0.6
2026-01-25T2000,1459A,91.1774,29.6541,拉萨市,西藏大学,,28,10,19,8,10,89,,96,96,14,13,5,5,0.6,0.5
2026-01-25T2000,1460A,90.9798,29.6586,拉萨市,区辐射站,,29,29,34,19,14,68,,92,91,32,13,4,4,0.6,0.4
2026-01-25T2000,1461A,91.0831,29.6292,拉萨市,拉萨火车站,,30,,16,8,8,94,,92,92,5,10,4,4,0.2,0.3
2026-01-25T2000,2520A,109.2203,23.7252,来宾市,来宾技工学校,细颗粒物(PM2.5),119,92,85,90,84,25,,39,39,28,25,8,11,1.2,0.9
2026-01-25T2000,3535A,109.1781,23.7293,来宾市,兴宾区政府,细颗粒物(PM2.5),113,110,95,85,77,39,,48,48,17,21,6,7,1.0,0.9
2026-01-25T2000,4002A,109.2312,23.7428,来宾市,中南小学,细颗粒物(PM2.5),120,99,79,91,78,19,,38,38,34,27,5,6,1.4,1.1
2026-01-25T2000,1479A,103.8309,36.0467,兰州市,铁路设计院,,,,,,,,,,,,,,,,
2026-01-25T2000,3241A,103.7439,36.0841,兰州市,百合公园,颗粒物(PM10),500,847,812,153,133,33,,55,43,30,19,9,7,0.4,0.4
2026-01-25T2000,3242A,103.9613,35.9985,兰州市,和平,颗粒物(PM10),500,1118,898,192,148,28,,63,52,30,16,9,9,0.7,0.7
2026-01-25T2000,4236A,103.629272,36.093822,兰州市,庄浪东路808号,颗粒物(PM10),500,865,834,177,163,21,,58,44,45,22,10,11,0.8,0.7
2026-01-25T2000,4237A,103.7251,36.104344,兰州市,安宁西路88号,颗粒物(PM10),500,939,929,144,133,50,,62,52,15,19,5,8,0.4,0.5
2026-01-25T2000,4238A,103.846982,36.067567,兰州市,北滨河东路1号,颗粒物(PM10),500,981,916,168,150,41,,56,51,27,21,5,7,0.6,0.7
2026-01-25T2000,1067A,116.6712,39.5109,廊坊市,药材公司,,29,29,91,14,67,52,,53,53,21,50,2,5,0.4,0.9
2026-01-25T2000,1068A,116.7215,39.5592,廊坊市,开发区,,35,35,95,16,68,55,,54,54,24,58,2,5,0.3,0.9
2026-01-25T2000,1070A,116.7246,39.5273,廊坊市,北华航天学院,,38,38,99,13,65,55,,54,54,19,52,2,5,0.3,0.9
2026-01-25T2000,2919A,116.7022,39.5454,廊坊市,河北工业大学,,36,36,96,14,60,54,,54,54,19,47,1,4,0.3,0.8
2026-01-25T2000,2536A,103.7629,29.5844,乐山市,牛耳桥,细颗粒物(PM2.5),95,84,76,71,66,11,,32,30,50,27,6,6,1.0,0.9
2026-01-25T2000,2537A,103.7501,29.6002,乐山市,市第三水厂,细颗粒物(PM2.5),90,84,76,67,64,18,,35,35,50,29,6,6,1.0,0.9
2026-01-25T2000,2538A,103.7571,29.5664,乐山市,市监测站,细颗粒物(PM2.5),84,77,73,62,63,13,,32,31,46,23,6,5,0.9,0.9
2026-01-25T2000,3361A,103.7313,29.563,乐山市,理工大学,细颗粒物(PM2.5),87,74,72,64,66,14,,30,30,38,21,6,5,0.8,0.7
2026-01-25T2000,2599A,100.2497,26.8802,丽江市,丽江古城,,33,33,26,6,11,82,,84,84,12,10,10,10,0.4,0.4
2026-01-25T2000,2600A,100.2203,26.8906,丽江市,市中心,,24,,17,15,8,75,,83,83,22,11,6,6,0.5,0.4
2026-01-25T2000,1267A,119.9141,28.4513,丽水市,监测站大楼,,36,34,44,25,38,82,,95,94,12,18,4,6,0.4,0.4
2026-01-25T2000,1268A,119.93,28.4589,丽水市,莲都小学,,28,22,46,10,23,89,,98,97,12,27,/,/,/,/
2026-01-25T2000,1269A,119.8794,28.4232,丽水市,余庄前,,28,28,45,15,30,85,,97,96,13,22,4,5,0.4,0.4
2026-01-25T2000,1173A,119.1759,34.5885,连云港市,市环境监测站,,41,41,68,24,54,85,,92,86,13,16,10,10,0.3,0.5
2026-01-25T2000,3000A,119.3577,34.6971,连云港市,德源药业,,48,48,78,22,53,82,,86,84,15,39,5,6,0.5,0.6
2026-01-25T2000,3007A,119.178,34.8442,连云港市,新城一中,,50,50,96,16,68,82,,89,89,20,61,9,10,0.4,0.8
2026-01-25T2000,3008A,119.3607,34.7519,连云港市,胡沟管理处,,29,29,69,17,49,57,,81,76,43,52,10,10,0.4,0.7
2026-01-25T2000,3009A,119.1478,34.5913,连云港市,矿山设计院,,46,46,72,27,54,85,,89,86,11,21,6,8,0.7,0.9
2026-01-25T2000,3434A,119.2414,34.6539,连云港市,工贸学校,,46,41,67,32,58,92,,92,91,10,14,10,10,0.4,0.6
2026-01-25T2000,3664A,119.4171,34.734,连云港市,连云街道,,35,35,67,21,50,82,,94,78,21,30,4,5,0.5,0.6
2026-01-25T2000,2573A,102.2629,27.8981,凉山彝族自治州,西昌市政府,,46,46,50,19,27,85,,86,86,15,21,14,10,0.7,0.7
2026-01-25T2000,2574A,102.2686,27.885,凉山彝族自治州,凉山州政府,,40,40,54,26,32,81,,81,81,13,24,16,10,0.6,0.7
2026-01-25T2000,4229A,102.2342,27.8859,凉山彝族自治州,凯乐南路30号,,40,40,58,19,28,90,,83,83,6,19,11,10,0.5,0.6
2026-01-25T2000,2212A,123.1978,41.2036,辽阳市,宏伟区,细颗粒物(PM2.5),62,72,52,44,27,26,,52,44,34,21,14,11,0.7,0.6
2026-01-25T2000,2213A,123.1684,41.2497,辽阳市,新华园,细颗粒物(PM2.5),58,61,55,41,28,32,,58,50,41,29,15,15,0.6,0.6
2026-01-25T2000,2214A,123.2355,41.2663,辽阳市,滨河路,颗粒物(PM10),66,81,49,46,30,18,,51,40,50,32,10,11,0.7,0.6
2026-01-25T2000,4083A,123.153,41.2874,辽阳市,铁西路150号,细颗粒物(PM2.5),62,71,52,44,31,28,,59,47,39,32,12,13,1.0,1
2026-01-25T2000,2227A,125.1359,42.8845,辽源市,环保局,细颗粒物(PM2.5),117,94,76,88,55,15,,64,57,74,45,6,6,1.7,1.2
2026-01-25T2000,4085A,125.0998,42.9134,辽源市,安宁大街333号,,48,48,72,32,61,46,,68,66,18,23,5,6,0.8,1.2
2026-01-25T2000,1625A,115.9789,36.4372,聊城市,区政府,细颗粒物(PM2.5),80,103,146,59,106,38,,34,34,41,55,17,22,1.0,1.3
2026-01-25T2000,3200A,115.9772,36.4986,聊城市,监控中心,细颗粒物(PM2.5),83,92,151,61,122,43,,39,39,33,56,10,10,0.7,1
2026-01-25T2000,3513A,116.0443,36.436,聊城市,九州社区,细颗粒物(PM2.5),84,105,148,62,113,48,,44,44,25,42,12,17,0.8,1.1
2026-01-25T2000,4018A,116.0564,36.4609,聊城市,星美广场,细颗粒物(PM2.5),77,100,158,56,113,43,,39,39,25,41,8,10,0.8,1.2
2026-01-25T2000,4113A,116.0091,36.4495,聊城市,利民路,细颗粒物(PM2.5),85,101,151,63,113,34,,32,32,38,56,14,19,0.8,1.2
2026-01-25T2000,2632A,94.3683,29.6373,林芝市,林芝监测站,,28,21,16,13,10,87,,87,87,1,2,3,3,0.2,0.2
2026-01-25T2000,2633A,94.3616,29.6634,林芝市,林芝人民医院,,32,32,20,16,11,89,,90,90,1,3,5,6,0.2,0.2
2026-01-25T2000,2603A,100.0779,23.8981,临沧市,市环保局,,,55,31,,36,56,,81,81,21,11,13,8,0.8,0.6
2026-01-25T2000,2604A,100.0894,23.882,临沧市,市气象局,,,49,46,30,24,,,83,83,15,14,19,10,0.4,0.4
2026-01-25T2000,1733A,111.5552,36.0791,临汾市,临钢医院,细颗粒物(PM2.5),260,244,167,210,134,6,,72,18,56,31,5,4,2.0,1.4
2026-01-25T2000,1734A,111.4984,36.0734,临汾市,技工学校,细颗粒物(PM2.5),294,,142,244,147,5,,68,18,55,36,4,4,1.9,1.3
2026-01-25T2000,1736A,111.5017,36.0857,临汾市,市委,细颗粒物(PM2.5),251,236,157,201,122,6,,72,21,56,30,6,6,2.0,1.5
2026-01-25T2000,3018A,111.5048,36.1015,临汾市,唐尧大酒店,细颗粒物(PM2.5),244,216,151,194,124,11,,72,19,50,31,2,2,2.1,1.5
2026-01-25T2000,4244A,111.4879,36.053,临汾市,启星学校,细颗粒物(PM2.5),235,222,131,185,109,3,,72,20,69,36,5,6,2.0,1.3
2026-01-25T2000,4271A,103.2464,35.6123,临夏回族自治州,滨河东路1号,颗粒物(PM10),500,814,554,186,117,22,,44,38,37,34,8,9,0.9,1.2
2026-01-25T2000,4310A,103.207136,35.599807,临夏回族自治州,新华街21号,颗粒物(PM10),500,865,620,155,113,30,,50,44,23,20,9,11,0.7,0.7
2026-01-25T2000,1618A,118.3429,35.0532,临沂市,沂河小区,细颗粒物(PM2.5),52,48,129,36,114,59,,74,73,21,46,12,15,0.6,1.2
2026-01-25T2000,1619A,118.2962,35.0568,临沂市,鲁南制药厂,颗粒物(PM10),51,51,124,31,102,57,,70,70,27,51,12,17,0.5,1.2
2026-01-25T2000,1620A,118.2793,34.9976,临沂市,新光毛纺厂,,46,44,110,32,94,61,,76,76,27,48,14,16,0.8,1.3
2026-01-25T2000,1621A,118.3955,35.0889,临沂市,河东保险公司,,48,48,135,23,100,66,,78,78,23,58,9,13,0.5,1.3
2026-01-25T2000,3370A,118.3563,35.0215,临沂市,十里堡居委,颗粒物(PM10),51,51,124,24,89,61,,80,79,22,50,13,16,0.7,1.3
2026-01-25T2000,3496A,118.359,35.1067,临沂市,南坊新区,,36,36,128,22,101,65,,78,78,26,56,10,16,0.7,1.4
2026-01-25T2000,3860A,118.3915,35.0297,临沂市,皇山花园小区,,39,39,134,25,91,62,,82,80,32,61,16,19,0.9,1.5
2026-01-25T2000,1870A,109.4854,24.3898,柳州市,柳东小学,细颗粒物(PM2.5),110,92,59,83,52,27,,48,48,26,18,10,11,1.2,0.9
2026-01-25T2000,1871A,109.4109,24.3304,柳州市,环保监测站,细颗粒物(PM2.5),192,179,111,144,89,11,,34,31,55,36,11,8,1.8,1.2
2026-01-25T2000,1872A,109.3886,24.3408,柳州市,河西水厂,细颗粒物(PM2.5),176,194,123,133,80,15,,33,33,47,35,10,7,1.3,1
2026-01-25T2000,1873A,109.4263,24.2951,柳州市,市四中,细颗粒物(PM2.5),172,171,100,130,79,10,,31,31,52,36,19,13,1.7,1.2
2026-01-25T2000,1874A,109.396,24.3658,柳州市,市九中,细颗粒物(PM2.5),162,224,104,123,74,7,,24,23,54,36,18,13,2.0,1.2
2026-01-25T2000,1875A,109.4912,24.3164,柳州市,古亭山,细颗粒物(PM2.5),122,,70,92,72,21,,45,45,41,26,9,8,1.0,0.8
2026-01-25T2000,3402A,109.5422,24.3994,柳州市,市二中,,,,61,,49,,,46,46,24,24,10,12,0.9,0.8
2026-01-25T2000,2307A,116.5078,31.7369,六安市,监测大楼,细颗粒物(PM2.5),160,,112,122,106,18,,37,28,50,42,3,4,0.8,0.8
2026-01-25T2000,2308A,116.4738,31.7642,六安市,皖西学院,细颗粒物(PM2.5),148,134,122,113,102,26,,44,34,46,42,4,6,0.8,0.8
2026-01-25T2000,2309A,116.4997,31.7904,六安市,朝阳厂,细颗粒物(PM2.5),144,118,114,110,100,18,,43,30,,46,6,6,0.9,0.9
2026-01-25T2000,2310A,116.5566,31.7885,六安市,开发区,细颗粒物(PM2.5),147,125,120,112,100,19,,37,31,41,39,4,5,0.8,0.8
2026-01-25T2000,2577A,104.8293,26.592,六盘水市,黄土坡,细颗粒物(PM2.5),64,46,55,46,42,52,,42,42,21,24,10,13,0.7,1.2
2026-01-25T2000,2579A,104.8481,26.5898,六盘水市,民中,细颗粒物(PM2.5),62,48,47,44,39,50,,43,43,21,21,5,7,0.7,1
2026-01-25T2000,2580A,104.9541,26.5506,六盘水市,双水,,48,48,42,33,27,51,,45,45,16,15,5,7,0.5,0.6
2026-01-25T2000,4151A,104.8899,26.5685,六盘水市,钟山大道中段564号,颗粒物(PM10),56,62,51,38,32,53,,45,45,12,13,7,8,0.8,1
2026-01-25T2000,2336A,117.022,25.1031,龙岩市,龙岩市监测站,,37,37,40,20,32,63,,86,86,31,29,16,19,0.7,0.6
2026-01-25T2000,2337A,117.0257,25.0662,龙岩市,闽西职业技术学院,,37,37,44,14,34,54,,83,82,28,22,19,10,0.6,0.7
2026-01-25T2000,2338A,117.0195,25.0306,龙岩市,龙岩学院,,32,32,37,18,34,59,,85,85,13,16,10,9,/,/
2026-01-25T2000,2885A,104.9344,33.3827,陇南市,滨江中学,颗粒物(PM10),408,508,191,129,56,43,,62,62,32,20,11,5,1.6,1.1
2026-01-25T2000,3247A,104.9551,33.3709,陇南市,市总工会,颗粒物(PM10),453,553,198,136,64,55,,60,60,17,20,8,8,0.8,0.9
2026-01-25T2000,2488A,111.9984,27.7346,娄底市,市监测站,细颗粒物(PM2.5),88,75,67,65,52,27,,41,33,33,31,6,12,0.9,0.8
2026-01-25T2000,2491A,111.9888,27.7035,娄底市,市政府,细颗粒物(PM2.5),100,91,62,75,55,24,,38,31,25,22,5,8,1.0,0.9
2026-01-25T2000,4127A,111.9812,27.7591,娄底市,涟钢职大,细颗粒物(PM2.5),77,,64,56,47,25,,36,35,20,22,4,9,0.9,0.8
2026-01-25T2000,4128A,112.0303,27.7457,娄底市,娄底体校,,,62,61,58,51,33,,37,35,16,16,2,4,,0.5
2026-01-25T2000,1894A,105.4427,28.9063,泸州市,小市上码头,细颗粒物(PM2.5),68,72,72,49,56,26,,38,38,28,22,4,4,1.0,1
2026-01-25T2000,1895A,105.4241,28.8573,泸州市,兰田宪桥,细颗粒物(PM2.5),73,76,71,53,49,23,,36,36,19,15,7,7,0.8,0.8
2026-01-25T2000,1896A,105.4378,28.8833,泸州市,市环监站,细颗粒物(PM2.5),77,82,75,56,50,22,,37,36,30,21,9,9,0.9,0.9
2026-01-25T2000,4272A,105.3689,28.7783,泸州市,纳溪中医医院,细颗粒物(PM2.5),74,70,65,54,56,12,,30,26,26,16,7,8,1.0,0.9
2026-01-25T2000,2183A,111.1447,37.5212,吕梁市,环保局,细颗粒物(PM2.5),119,114,100,90,68,2,,58,34,72,30,5,6,1.5,0.9
2026-01-25T2000,2185A,111.1285,37.5338,吕梁市,自来水公司,细颗粒物(PM2.5),115,97,108,87,69,8,,56,34,60,30,3,5,1.6,1.1
2026-01-25T2000,2867A,111.1225,37.5093,吕梁市,马茂庄小学,细颗粒物(PM2.5),123,113,128,93,74,5,,51,25,66,42,4,6,1.9,1.4
2026-01-25T2000,1812A,112.3934,34.6517,洛阳市,市委党校,细颗粒物(PM2.5),205,175,156,155,148,55,,64,48,37,38,12,10,1.3,1.1
2026-01-25T2000,1815A,112.494,34.6883,洛阳市,河南林校,细颗粒物(PM2.5),211,173,157,161,150,46,,63,48,41,39,10,9,1.2,1.1
2026-01-25T2000,1816A,112.3843,34.623,洛阳市,开发区管委会,细颗粒物(PM2.5),223,203,185,173,161,62,,72,59,32,32,15,12,1.0,0.9
2026-01-25T2000,1817A,112.4263,34.6249,洛阳市,市委新办公区,细颗粒物(PM2.5),204,210,192,154,146,54,,67,52,37,38,10,9,1.1,1
2026-01-25T2000,3340A,112.6005,34.6323,洛阳市,伊滨,细颗粒物(PM2.5),190,194,188,143,140,60,,73,63,35,38,9,8,1.0,0.9
2026-01-25T2000,3341A,112.495,34.6338,洛阳市,中移产业园,细颗粒物(PM2.5),212,174,158,162,150,45,,66,47,50,47,14,11,1.3,1.1
2026-01-25T2000,3593A,112.5736,34.8993,洛阳市,吉利监测站,细颗粒物(PM2.5),223,,165,173,164,44,,67,52,38,29,9,8,1.2,1
2026-01-25T2000,3635A,112.3678,34.6623,洛阳市,河科大西苑校区,细颗粒物(PM2.5),200,200,169,150,134,48,,72,49,43,38,10,9,1.1,1
2026-01-25T2000,3636A,112.4387,34.678,洛阳市,英才小学,细颗粒物(PM2.5),209,192,173,159,147,52,,69,47,40,39,11,9,1.3,1.1
2026-01-25T2000,4214A,112.460027,34.694929,洛阳市,春都路1号院,细颗粒物(PM2.5),188,203,180,141,127,34,,61,42,44,33,10,8,1.2,1
2026-01-25T2000,2399A,114.051,33.5721,漯河市,三五一五工厂,细颗粒物(PM2.5),231,223,180,181,150,32,,62,35,39,28,10,7,1.6,1.4
2026-01-25T2000,2400A,114.0055,33.5698,漯河市,漯河大学,细颗粒物(PM2.5),216,182,152,166,145,35,,68,39,39,27,8,6,1.1,0.9
2026-01-25T2000,2401A,114.0134,33.5826,漯河市,市水利局,细颗粒物(PM2.5),213,197,165,163,146,29,,56,32,40,26,7,5,1.4,1.1
2026-01-25T2000,2402A,114.0261,33.5697,漯河市,市广电局,细颗粒物(PM2.5),215,198,161,165,144,29,,60,34,37,22,9,7,1.3,1
2026-01-25T2000,3478A,113.9691,33.568,漯河市,市图书馆,细颗粒物(PM2.5),217,235,178,167,147,30,,63,36,38,24,9,7,1.4,1.1
2026-01-25T2000,4250A,114.089259,33.588274,漯河市,韶山路11号,细颗粒物(PM2.5),234,225,177,184,149,25,,52,30,44,31,10,8,1.2,1
2026-01-25T2000,1798A,118.5084,31.6838,马鞍山市,湖东路四小,细颗粒物(PM2.5),103,100,122,77,90,35,,44,40,41,46,4,5,0.8,0.9
2026-01-25T2000,1799A,118.5019,31.6449,马鞍山市,开发区,细颗粒物(PM2.5),98,93,128,73,104,39,,48,46,40,46,4,6,0.8,0.8
2026-01-25T2000,3633A,118.4914,31.681,马鞍山市,雨山,细颗粒物(PM2.5),95,101,123,71,92,39,,47,43,40,46,6,9,0.9,0.8
2026-01-25T2000,4191A,118.527362,31.722269,马鞍山市,慈湖高新区,细颗粒物(PM2.5),92,90,118,68,94,50,,50,48,32,44,4,5,0.7,0.8
2026-01-25T2000,1686A,111.0285,21.469,茂名市,电白南海,,41,41,53,9,24,98,,99,99,12,16,8,9,1.0,1
2026-01-25T2000,1687A,110.9294,21.6533,茂名市,茂石化七小,,46,46,56,17,31,94,,96,96,13,16,6,9,0.5,0.7
2026-01-25T2000,1688A,110.9108,21.6688,茂名市,健康路,,44,44,49,12,28,103,,107,107,18,21,8,10,0.6,0.7
2026-01-25T2000,1689A,110.8592,21.6826,茂名市,高岭,颗粒物(PM10),54,58,70,19,33,85,,93,92,15,25,6,11,/,/
2026-01-25T2000,3450A,111.0101,21.5165,茂名市,电白水东,,31,31,49,17,29,87,,85,85,9,14,7,10,/,/
2026-01-25T2000,2540A,103.8414,30.0871,眉山市,气象局,细颗粒物(PM2.5),89,82,78,66,64,31,,53,53,39,28,13,14,0.9,0.9
2026-01-25T2000,3148A,103.829,30.0563,眉山市,区人社局,细颗粒物(PM2.5),79,64,71,58,57,30,,46,46,33,27,7,7,0.8,0.8
2026-01-25T2000,4148A,103.8836,30.0695,眉山市,眉职院,细颗粒物(PM2.5),68,69,79,49,58,21,,46,46,33,22,2,2,0.9,0.9
2026-01-25T2000,1690A,116.1248,24.3307,梅州市,梅江月梅,,46,46,52,19,33,75,,87,87,14,32,/,/,/,/
2026-01-25T2000,1691A,116.0798,24.2719,梅州市,梅县新城,,,96,53,,38,17,,82,76,72,36,8,8,1.2,0.7
2026-01-25T2000,3315A,116.1234,24.2994,梅州市,梅龙,颗粒物(PM10),70,90,56,42,33,16,,73,68,68,36,8,9,1.6,1
2026-01-25T2000,1878A,104.7775,31.4741,绵阳市,富乐山,颗粒物(PM10),115,180,73,58,51,43,,46,46,14,22,8,8,0.5,0.6
2026-01-25T2000,1880A,104.6698,31.4668,绵阳市,高新区自来水公司,颗粒物(PM10),109,167,79,53,53,12,,41,40,57,34,8,8,1.1,1
2026-01-25T2000,3491A,104.6899,31.5324,绵阳市,西科大附属小学,颗粒物(PM10),118,186,85,60,55,44,,43,43,28,33,8,8,0.4,0.7
2026-01-25T2000,3492A,104.5647,31.5343,绵阳市,安州区旅游局,颗粒物(PM10),115,180,74,58,51,33,,46,46,34,23,8,9,0.7,0.7
2026-01-25T2000,4146A,104.7092,31.4972,绵阳市,科技城新区公安局,颗粒物(PM10),116,181,80,42,45,49,,50,50,30,38,6,6,0.7,0.8
2026-01-25T2000,4226A,104.765114,31.453094,绵阳市,绵阳市气象局,颗粒物(PM10),143,235,82,55,50,32,,34,34,28,28,9,7,0.7,0.8
2026-01-25T2000,1784A,129.61,44.561,牡丹江市,环保大楼,,31,31,35,18,20,63,,73,71,18,14,4,3,0.3,0.3
2026-01-25T2000,1787A,129.6364,44.6075,牡丹江市,机车工厂,,47,47,42,22,26,60,,,,13,20,8,8,0.4,0.5
2026-01-25T2000,1788A,129.6386,44.5462,牡丹江市,第一中学,,39,39,30,14,22,68,,72,70,11,18,4,4,0.2,0.3
2026-01-25T2000,4287A,129.5992,44.5964,牡丹江市,东晓云街98号,,30,30,38,18,20,71,,73,72,8,13,3,4,0.5,0.5
2026-01-25T2000,2531A,105.0703,29.61,内江市,市监测站,细颗粒物(PM2.5),89,68,70,66,62,26,,44,44,40,16,4,4,1.0,0.8
2026-01-25T2000,2533A,105.0657,29.5807,内江市,内江二中,细颗粒物(PM2.5),78,88,79,57,52,23,,36,32,38,28,5,5,0.5,0.4
2026-01-25T2000,2534A,105.0407,29.5828,内江市,内江日报社,,,100,65,61,56,,,39,39,49,28,3,6,0.9,0.9
2026-01-25T2000,4147A,105.0433,29.6105,内江市,玉峰路西段888号,细颗粒物(PM2.5),84,83,65,62,57,26,,42,39,44,24,1,2,1.3,1.2
2026-01-25T2000,2628A,92.0653,31.4846,那曲市,那曲监测站,,28,28,26,19,12,79,,98,96,30,11,9,6,1.0,0.7
2026-01-25T2000,4243A,92.0515,31.4787,那曲市,那曲市委宣传部,,30,11,16,6,6,94,,103,102,1,3,2,3,0.3,0.4
2026-01-25T2000,1291A,115.8887,28.7006,南昌市,省林业公司,细颗粒物(PM2.5),107,114,84,80,66,8,,50,47,80,54,6,7,1.1,0.7
2026-01-25T2000,1292A,115.813,28.7443,南昌市,林科所,细颗粒物(PM2.5),73,73,65,53,50,37,,66,60,49,39,6,6,0.6,0.6
2026-01-25T2000,1294A,115.8518,28.687,南昌市,建工学校,细颗粒物(PM2.5),107,108,88,80,65,24,,52,49,81,59,11,11,1.2,1
2026-01-25T2000,1295A,115.8926,28.6425,南昌市,象湖,细颗粒物(PM2.5),107,111,85,80,69,10,,47,42,74,47,10,11,1.3,1
2026-01-25T2000,3046A,115.9084,28.6062,南昌市,机电学校,细颗粒物(PM2.5),107,140,105,80,72,4,,52,47,88,53,8,7,1.0,0.8
2026-01-25T2000,3690A,115.9718,28.7032,南昌市,外国语学校,细颗粒物(PM2.5),102,105,96,76,70,29,,50,49,57,39,15,15,0.9,0.7
2026-01-25T2000,4106A,115.7923,28.6873,南昌市,工业二路,细颗粒物(PM2.5),102,115,79,76,63,19,,62,56,71,39,7,7,1.1,0.8
2026-01-25T2000,4192A,115.931587,28.686774,南昌市,南京东路235号,细颗粒物(PM2.5),119,121,95,90,78,19,,53,48,60,41,8,8,1.2,0.9
2026-01-25T2000,1906A,106.0791,30.8022,南充市,南充市委,细颗粒物(PM2.5),78,67,68,57,57,24,,29,27,35,27,4,4,0.8,0.7
2026-01-25T2000,1907A,106.1038,30.8215,南充市,南充炼油厂,细颗粒物(PM2.5),82,75,71,60,58,33,,32,32,18,17,5,6,0.7,0.7
2026-01-25T2000,4227A,106.108336,30.788436,南充市,梨树横街98号,细颗粒物(PM2.5),68,78,73,49,50,34,,36,30,27,23,5,5,0.8,0.8
2026-01-25T2000,4304A,106.1172,30.843,南充市,清泉寺北路188号,细颗粒物(PM2.5),84,76,60,62,46,49,,38,38,14,16,7,7,0.7,0.5
2026-01-25T2000,4305A,106.067,30.7616,南充市,同庆路1号,细颗粒物(PM2.5),83,65,64,61,52,19,,32,29,42,29,6,6,1.0,0.8
2026-01-25T2000,1151A,118.8033,32.1085,南京市,迈皋桥,,46,46,102,31,70,49,,44,44,39,48,6,8,0.5,0.6
2026-01-25T2000,1152A,118.7487,32.057,南京市,草场门,细颗粒物(PM2.5),52,48,100,36,71,38,,36,31,36,54,2,4,0.8,1.1
2026-01-25T2000,1154A,118.770105,32.004342,南京市,中华门,细颗粒物(PM2.5),64,66,103,46,78,40,,42,36,34,42,4,5,0.8,0.8
2026-01-25T2000,1155A,118.8059,32.0329,南京市,瑞金路,细颗粒物(PM2.5),64,68,107,46,80,43,,43,40,22,32,4,4,0.8,0.8
2026-01-25T2000,1156A,118.7946,32.0774,南京市,玄武湖,颗粒物(PM10),58,65,105,29,75,45,,38,34,24,28,4,4,1.0,1.1
2026-01-25T2000,1157A,118.6415,32.0964,南京市,浦口,细颗粒物(PM2.5),70,77,120,51,85,46,,38,38,32,57,7,9,0.4,0.7
2026-01-25T2000,1158A,118.730129,32.000956,南京市,奥体中心,细颗粒物(PM2.5),70,73,111,51,83,52,,50,45,36,49,10,12,0.7,0.9
2026-01-25T2000,1159A,118.9072,32.1047,南京市,仙林大学城,颗粒物(PM10),52,53,104,29,75,47,,42,42,29,47,6,8,0.9,1.1
2026-01-25T2000,3422A,118.8443,31.919,南京市,江宁彩虹桥,"颗粒物(PM10),细颗粒物(PM2.5)",62,73,122,44,80,62,,59,58,31,63,4,4,0.7,1
2026-01-25T2000,3427A,118.8497,32.3599,南京市,六合雄州,,33,29,95,23,69,58,,65,64,18,37,9,10,0.5,0.8
2026-01-25T2000,4086A,118.7641,32.0841,南京市,新模范马路66号,颗粒物(PM10),53,56,109,21,76,65,,55,55,24,39,4,4,0.4,0.7
2026-01-25T2000,4249A,118.8707617,31.34017673,南京市,汶溪路181号,细颗粒物(PM2.5),99,88,108,74,98,38,,60,58,58,47,7,8,1.0,1
2026-01-25T2000,4312A,119.019,31.6512,南京市,中山西路1号,细颗粒物(PM2.5),87,70,95,64,87,48,,60,57,33,35,4,4,0.9,1.1
2026-01-25T2000,1401A,108.3098,22.788,南宁市,二十一中,细颗粒物(PM2.5),95,105,67,71,56,2,,5,4,54,36,4,4,1.3,0.9
2026-01-25T2000,1402A,108.3135,22.8529,南宁市,北湖,细颗粒物(PM2.5),125,129,76,95,61,0,,0,0,56,38,3,2,2.1,1.1
2026-01-25T2000,1403A,108.3205,22.8222,南宁市,市监测站,细颗粒物(PM2.5),93,118,71,69,50,0,,2,0,59,39,6,5,1.7,1.3
2026-01-25T2000,1404A,108.3828,22.8038,南宁市,大自然花园,细颗粒物(PM2.5),82,80,71,60,51,1,,8,6,36,24,5,5,1.4,1.1
2026-01-25T2000,1406A,108.2397,22.8462,南宁市,区农职院,细颗粒物(PM2.5),87,111,72,64,52,0,,1,1,49,39,7,7,1.1,0.8
2026-01-25T2000,1407A,108.3285,22.7356,南宁市,英华嘉园,细颗粒物(PM2.5),113,107,76,85,66,2,,6,6,43,27,4,3,1.4,0.9
2026-01-25T2000,3401A,108.4829,22.762,南宁市,红星社区,细颗粒物(PM2.5),97,96,66,72,54,3,,15,14,39,27,4,4,1.3,1
2026-01-25T2000,4132A,108.2927,23.1477,南宁市,起凤路9号,细颗粒物(PM2.5),104,80,102,78,85,0,,4,2,25,25,3,2,1.4,1.1
2026-01-25T2000,4221A,108.2177,22.7774,南宁市,乐贤路16号,细颗粒物(PM2.5),123,130,77,93,69,0,,2,1,52,41,3,3,1.4,1
2026-01-25T2000,2332A,118.1682,26.6371,南平市,南平市监测站,,23,21,24,16,19,60,,77,75,15,14,4,4,0.6,0.7
2026-01-25T2000,2334A,118.1757,26.6276,南平市,南平七中,,20,,22,13,17,64,,80,78,14,14,2,3,0.5,0.5
2026-01-25T2000,1168A,120.9056,31.9669,南通市,狼山街道,,24,24,69,12,53,75,,77,77,16,32,3,3,0.3,0.5
2026-01-25T2000,1170A,120.8635,32.0231,南通市,城中,,27,27,70,10,48,69,,79,77,22,26,4,4,0.4,0.6
2026-01-25T2000,1171A,120.9376,31.9301,南通市,星湖花园,,25,25,67,14,49,74,,80,79,20,30,4,4,0.3,0.5
2026-01-25T2000,1172A,120.8053,32.046,南通市,紫琅学院,,30,30,74,6,46,73,,78,77,18,27,3,4,0.4,0.6
2026-01-25T2000,3291A,121.0631,32.0644,南通市,通州监测站,,29,17,57,7,44,91,,96,93,16,20,3,3,0.4,0.5
2026-01-25T2000,3432A,120.9348,31.9874,南通市,环境教育馆,,27,27,67,16,55,74,,79,78,15,29,4,4,0.4,0.7
2026-01-25T2000,4091A,120.8692,31.9885,南通市,洪江路,,23,23,59,6,47,70,,75,74,19,24,4,4,0.3,0.6
2026-01-25T2000,2404A,112.5338,33.0086,南阳市,瓦房庄,细颗粒物(PM2.5),176,,107,133,105,67,,76,75,18,14,5,5,1.0,0.9
2026-01-25T2000,2405A,112.5002,32.9734,南阳市,汉画馆,细颗粒物(PM2.5),180,142,112,136,107,66,,72,71,20,18,6,6,1.1,0.9
2026-01-25T2000,2406A,112.5778,33.0144,南阳市,气象站,细颗粒物(PM2.5),178,153,126,134,106,65,,74,73,20,17,4,4,1.1,0.9
2026-01-25T2000,2407A,112.548,32.9687,南阳市,理工学院,细颗粒物(PM2.5),150,133,107,115,88,63,,73,72,19,16,4,4,1.1,0.9
2026-01-25T2000,4008A,112.5233,32.9921,南阳市,卧龙区政府,细颗粒物(PM2.5),175,154,126,132,104,65,,72,71,18,14,4,4,1.1,1
2026-01-25T2000,1234A,121.8352,29.9111,宁波市,区环保大楼,,42,42,71,29,49,59,,88,82,46,56,6,6,0.3,0.5
2026-01-25T2000,1235A,121.5595,29.8208,宁波市,万里学院,,28,28,83,14,61,88,,92,92,18,47,4,4,0.5,0.7
2026-01-25T2000,1236A,121.713,29.9564,宁波市,龙赛医院,,,34,79,21,57,,,98,98,26,53,3,5,0.4,0.6
2026-01-25T2000,1240A,121.5855,29.8635,宁波市,太古小学,,30,25,88,19,59,94,,99,99,18,47,3,5,0.6,0.8
2026-01-25T2000,1241A,121.5239,29.8673,宁波市,市环境监测中心,,,36,82,17,66,,,90,90,15,49,6,8,,0.9
2026-01-25T2000,2871A,121.6156,29.9015,宁波市,万里国际学校,,36,36,81,13,58,95,,102,102,23,48,3,5,0.7,0.8
2026-01-25T2000,3710A,121.5593,29.8976,宁波市,白沙活动中心,,39,39,76,18,58,88,,95,94,24,51,4,5,0.2,0.5
2026-01-25T2000,4095A,121.8962,29.7529,宁波市,中科路88号,,30,25,54,11,39,93,,99,99,18,41,5,6,0.3,0.5
2026-01-25T2000,2341A,119.5387,26.6611,宁德市,宁德市监测站,细颗粒物(PM2.5),72,78,38,52,28,4,,44,21,79,36,5,4,1.2,0.7
2026-01-25T2000,3209A,119.5231,26.6562,宁德市,宁德一中,细颗粒物(PM2.5),59,64,40,42,32,18,,42,25,37,33,4,4,1.0,0.9
2026-01-25T2000,2618A,98.859,25.8541,怒江傈僳族自治州,州监测站,,37,37,36,23,25,67,,77,77,12,13,5,4,0.5,0.5
2026-01-25T2000,2619A,98.8607,25.8168,怒江傈僳族自治州,泸水一中,,43,43,33,13,27,37,,66,65,35,19,4,4,1.0,0.7
2026-01-25T2000,1888A,101.6891,26.571,攀枝花市,弄弄坪,细颗粒物(PM2.5),145,135,98,111,66,66,,99,99,55,46,30,36,3.8,2.1
2026-01-25T2000,1889A,101.577,26.5914,攀枝花市,河门口,细颗粒物(PM2.5),84,92,79,62,37,86,,104,104,31,29,25,23,1.4,1.6
2026-01-25T2000,1891A,101.7365,26.4986,攀枝花市,仁和,细颗粒物(PM2.5),94,98,70,70,47,52,,114,100,42,30,13,16,1.1,1.6
2026-01-25T2000,2835A,101.7222,26.567,攀枝花市,四十中小,细颗粒物(PM2.5),83,88,98,61,63,46,,91,90,70,56,18,28,1.8,2
2026-01-25T2000,1604A,122.0303,41.1489,盘锦市,开发区,颗粒物(PM10),51,52,56,26,41,56,,72,68,18,25,3,5,0.5,0.7
2026-01-25T2000,1605A,122.0486,41.0883,盘锦市,兴隆台,颗粒物(PM10),157,263,55,60,41,44,,68,62,23,27,5,7,0.5,0.7
2026-01-25T2000,1606A,121.8297,41.1026,盘锦市,新生街道,细颗粒物(PM2.5),88,75,57,65,49,60,,78,73,16,32,8,8,0.5,0.6
2026-01-25T2000,1832A,113.3257,33.7423,平顶山市,新华旅馆,细颗粒物(PM2.5),189,184,164,142,129,56,,71,56,32,28,10,6,1.2,1
2026-01-25T2000,1833A,113.2917,33.737,平顶山市,规划设计院,细颗粒物(PM2.5),207,217,177,157,130,50,,74,56,18,20,8,6,1.2,0.9
2026-01-25T2000,1834A,113.182,33.7738,平顶山市,平顶山工学院,细颗粒物(PM2.5),203,191,153,153,129,45,,77,58,30,23,8,7,1.1,0.9
2026-01-25T2000,3594A,112.8736,33.9068,平顶山市,石龙区,细颗粒物(PM2.5),180,151,131,136,115,66,,81,70,19,16,5,5,1.0,0.9
2026-01-25T2000,4116A,113.284,33.7139,平顶山市,姚电大道23号,细颗粒物(PM2.5),205,215,175,155,139,56,,74,60,34,27,9,6,1.0,0.8
2026-01-25T2000,2656A,106.6633,35.5338,平凉市,聚贤嘉苑,颗粒物(PM10),191,332,567,68,97,68,,77,76,9,14,18,18,0.4,0.5
2026-01-25T2000,2657A,106.7021,35.5307,平凉市,博物馆,颗粒物(PM10),193,336,551,65,97,67,,75,74,11,14,8,8,0.7,0.7
2026-01-25T2000,2348A,113.8384,27.6436,萍乡市,中医院,细颗粒物(PM2.5),175,197,98,132,65,6,,59,36,71,30,9,10,2.0,1
2026-01-25T2000,2350A,113.8677,27.6438,萍乡市,市环保局,细颗粒物(PM2.5),137,150,78,104,60,6,,60,42,69,26,18,20,2.5,1.1
2026-01-25T2000,2351A,113.8663,27.6202,萍乡市,安源区政府,细颗粒物(PM2.5),192,171,93,144,72,7,,42,31,54,34,14,15,1.8,1.3
2026-01-25T2000,4107A,113.8686,27.6668,萍乡市,联洪村委会,细颗粒物(PM2.5),138,141,87,105,65,16,,63,43,55,22,6,8,1.2,0.8
2026-01-25T2000,2319A,119.0142,25.4324,莆田市,荔城区仓后路,,35,35,27,15,12,73,,83,82,17,14,/,/,/,/
2026-01-25T2000,2320A,119.0016,25.4553,莆田市,莆田市监测站,,27,14,17,9,10,86,,91,91,7,8,2,2,0.7,0.6
2026-01-25T2000,2321A,119.112,25.4561,莆田市,涵江区六中,,27,27,26,16,14,78,,90,90,13,18,/,/,0.6,0.5
2026-01-25T2000,2322A,119.1014,25.3215,莆田市,秀屿区政府,,24,22,26,14,16,76,,90,89,16,16,2,2,0.6,0.6
2026-01-25T2000,2392A,115.0312,35.7636,濮阳市,环保局,细颗粒物(PM2.5),147,129,135,112,128,15,,28,25,73,66,8,10,1.0,1.1
2026-01-25T2000,3021A,115,35.7667,濮阳市,濮水河管理处,细颗粒物(PM2.5),147,147,159,112,127,16,,32,29,54,49,7,8,1.1,1.2
2026-01-25T2000,4118A,115.0552,35.7816,濮阳市,中原东路68号,细颗粒物(PM2.5),152,152,172,116,137,13,,28,25,55,52,7,9,1.0,1.1
2026-01-25T2000,4216A,115.0923632,35.76857718,濮阳市,任丘路479号,细颗粒物(PM2.5),160,150,168,122,139,11,,28,23,61,55,7,11,1.4,1.5
2026-01-25T2000,2601A,100.9801,22.7634,普洱市,市环保局,,,,46,,19,54,,83,81,,11,5,5,,0.3
2026-01-25T2000,2602A,100.9763,22.8237,普洱市,普洱第二中学,颗粒物(PM10),57,63,44,29,24,50,,84,81,30,20,5,5,0.3,0.3
2026-01-25T2000,3345A,131.0413,45.7795,七台河市,中波台,,36,33,28,25,19,58,,71,67,20,13,10,10,0.5,0.4
2026-01-25T2000,3637A,131.0136,45.7688,七台河市,人民广场,,39,39,37,23,22,53,,71,65,28,18,7,7,0.6,0.5
2026-01-25T2000,3684A,130.8639,45.8144,七台河市,新建矿广场,,21,17,26,14,21,65,,66,65,7,11,3,7,0.4,0.4
2026-01-25T2000,1779A,123.9307,47.3641,齐齐哈尔市,安居小区,,49,49,27,18,13,49,,68,59,29,16,8,7,1.1,0.9
2026-01-25T2000,1780A,123.9497,47.3389,齐齐哈尔市,中心广场,,42,42,18,22,11,54,,64,60,20,13,6,5,0.5,0.4
2026-01-25T2000,1781A,123.9483,47.3229,齐齐哈尔市,农牧车辆厂,,39,39,22,26,11,51,,66,60,21,11,5,4,0.4,0.3
2026-01-25T2000,1783A,123.9442,47.2994,齐齐哈尔市,市环境监测站,,35,35,22,17,9,53,,68,62,21,12,8,4,0.5,0.5
2026-01-25T2000,3662A,123.6341,47.2079,齐齐哈尔市,富区青少年活动中心,,34,34,29,14,9,61,,70,68,13,11,3,4,0.7,0.6
2026-01-25T2000,2591A,107.9765,26.5724,黔东南苗族侗族自治州,市环境监测站,,43,38,40,30,31,17,,36,20,16,14,6,6,1.0,0.8
2026-01-25T2000,2881A,107.8909,26.531,黔东南苗族侗族自治州,凯里学院,细颗粒物(PM2.5),52,39,30,36,25,27,,38,24,14,14,3,3,0.8,0.7
2026-01-25T2000,2593A,107.5223,26.2371,黔南布依族苗族自治州,小围寨,,42,29,19,29,18,6,,31,9,13,11,7,6,0.9,0.9
2026-01-25T2000,3538A,107.5175,26.2977,黔南布依族苗族自治州,沙坝,,36,36,21,24,17,5,,34,13,16,14,4,5,0.9,0.8
2026-01-25T2000,2589A,104.9022,25.0943,黔西南布依族苗族自治州,场坝街,,40,40,32,23,22,49,,43,43,11,9,2,2,0.6,0.7
2026-01-25T2000,2590A,104.8812,25.0994,黔西南布依族苗族自治州,坪东大道,,39,39,33,22,26,53,,46,46,9,8,5,5,0.8,0.8
2026-01-25T2000,2502A,108.6238,21.9667,钦州市,市环保站,细颗粒物(PM2.5),139,185,129,106,71,7,,22,21,73,39,4,3,2.4,1.7
2026-01-25T2000,2503A,108.655,21.9481,钦州市,沙埠小学,细颗粒物(PM2.5),69,52,82,50,49,27,,60,60,72,33,5,4,0.7,0.7
2026-01-25T2000,2504A,108.5989,21.7435,钦州市,港区一小,颗粒物(PM10),60,70,74,30,50,66,,77,77,39,35,3,2,0.5,1.2
2026-01-25T2000,3404A,108.5959,21.9634,钦州市,北职校,细颗粒物(PM2.5),94,101,83,70,64,12,,34,33,60,30,3,3,1.0,1.3
2026-01-25T2000,1046A,119.5247,39.9346,秦皇岛市,建设大厦,,20,14,38,3,18,61,,68,68,8,22,6,10,0.3,0.5
2026-01-25T2000,3132A,119.5979,39.938,秦皇岛市,文明里,,38,38,41,17,24,56,,68,66,18,27,12,15,0.3,0.3
2026-01-25T2000,4066A,119.7458,39.9952,秦皇岛市,南园路157号,,36,36,38,21,20,38,,66,62,36,39,11,13,0.5,0.5
2026-01-25T2000,4067A,119.5131,39.8858,秦皇岛市,翠岛大街1号,,30,30,44,3,14,69,,70,70,6,21,9,12,0.3,0.4
2026-01-25T2000,4198A,119.509013,39.825305,秦皇岛市,北戴河轮滑馆,,20,19,30,6,12,64,,75,74,13,16,6,9,0.3,0.3
2026-01-25T2000,1310A,120.404,36.0625,青岛市,市南区东部子站,,36,36,44,19,27,86,,84,84,10,16,8,9,0.4,0.5
2026-01-25T2000,1311A,120.362344,36.10282,青岛市,四方区子站,,39,27,49,27,40,79,,78,78,14,32,5,5,0.7,0.9
2026-01-25T2000,1312A,120.294373,36.054183,青岛市,市南区西部子站,,30,29,52,15,33,94,,90,90,12,28,3,4,0.4,0.6
2026-01-25T2000,1313A,120.4581,36.0858,青岛市,崂山区子站,,34,34,42,19,24,90,,87,87,11,20,10,10,0.4,0.5
2026-01-25T2000,1315A,120.3945,36.3083,青岛市,城阳区子站,颗粒物(PM10),53,56,60,24,34,64,,75,74,34,35,7,10,0.7,0.8
2026-01-25T2000,3642A,120.3454,36.0735,青岛市,市北区南部,,34,34,52,17,30,84,,81,81,14,25,2,2,0.6,0.7
2026-01-25T2000,3643A,120.3897,36.18,青岛市,李沧区北部,细颗粒物(PM2.5),62,48,48,44,42,45,,72,70,44,29,10,8,0.8,0.7
2026-01-25T2000,4110A,120.5222,36.4089,青岛市,盟旺路653号,,35,35,58,17,36,78,,83,83,19,24,2,4,0.6,0.7
2026-01-25T2000,4290A,120.196923,35.954556,青岛市,珠江路669号,,29,29,53,17,44,87,,85,85,17,33,5,6,0.6,0.8
2026-01-25T2000,4291A,120.0424,35.8656,青岛市,黄岛区人民政府广场,,30,29,85,12,61,96,,92,92,12,40,7,8,0.7,1.2
2026-01-25T2000,1703A,113.0218,23.7086,清远市,凤城街办,细颗粒物(PM2.5),88,94,68,65,47,34,,86,86,85,49,/,/,/,/
2026-01-25T2000,3025A,113.0479,23.6343,清远市,技师学院,细颗粒物(PM2.5),83,105,74,61,41,51,,8,,74,55,6,7,1.4,1
2026-01-25T2000,3318A,112.9898,23.7403,清远市,清新太和,细颗粒物(PM2.5),52,51,49,36,35,110,,113,113,24,31,10,10,0.6,0.7
2026-01-25T2000,3455A,113.076,23.72,清远市,清城东城,颗粒物(PM10),59,67,57,40,35,78,,106,106,28,36,/,/,/,/
2026-01-25T2000,2661A,107.6325,35.7357,庆阳市,庆阳五中,颗粒物(PM10),129,208,403,66,85,68,,74,72,16,16,5,5,0.4,0.5
2026-01-25T2000,2662A,107.6361,35.7067,庆阳市,市环保局,颗粒物(PM10),129,207,398,41,73,71,,76,73,14,14,6,7,0.4,0.5
2026-01-25T2000,1916A,103.7897,25.5036,曲靖市,环境监测站,,46,46,25,12,9,80,,98,98,22,11,6,5,0.6,0.5
2026-01-25T2000,1917A,103.8013,25.5357,曲靖市,烟厂办公区,,36,36,24,15,9,87,,97,97,16,10,3,4,0.3,0.3
2026-01-25T2000,3376A,103.7926,25.4651,曲靖市,南苑二区,,26,24,22,9,9,82,,90,90,13,5,3,5,0.4,0.4
2026-01-25T2000,3377A,103.7442,25.5259,曲靖市,曲靖师范学院,,39,39,30,16,16,91,,99,99,11,11,6,7,0.3,0.3
2026-01-25T2000,1264A,118.8694,28.94,衢州市,环保大楼,细颗粒物(PM2.5),115,114,107,87,84,50,,86,84,69,62,/,/,/,/
2026-01-25T2000,1266A,118.8622,28.9809,衢州市,衢州学院,细颗粒物(PM2.5),104,105,95,78,74,32,,83,78,86,57,6,6,0.9,0.9
2026-01-25T2000,4097A,118.9646,28.9832,衢州市,衢州三中,细颗粒物(PM2.5),115,115,112,87,83,30,,83,79,87,55,6,6,0.9,0.9
2026-01-25T2000,1611A,118.5818,24.9116,泉州市,涂山街,,,48,28,,17,64,,82,82,25,16,4,3,,0.5
2026-01-25T2000,1612A,118.597,24.8976,泉州市,津头埔,,46,46,27,27,18,60,,80,80,26,18,4,4,0.6,0.5
2026-01-25T2000,1613A,118.6669,24.9422,泉州市,万安,,45,45,27,27,16,57,,79,76,27,18,3,3,0.7,0.6
2026-01-25T2000,4105A,118.6355,24.9148,泉州市,霞新路6号,,44,44,26,29,16,55,,81,78,34,28,/,/,0.7,0.5
2026-01-25T2000,2626A,88.8873,29.2723,日喀则市,日喀则监测站,,13,8,15,3,4,39,,78,45,11,4,10,8,0.3,0.3
2026-01-25T2000,3726A,88.8775,29.2425,日喀则市,林业技术推广中心,,28,17,18,3,4,89,,94,94,7,5,9,9,0.3,0.3
2026-01-25T2000,1659A,119.4711,35.421,日照市,监测站,,29,29,94,16,67,81,,80,80,16,55,7,13,0.5,1.2
2026-01-25T2000,1660A,119.523,35.4216,日照市,市政府广场,,29,29,79,17,56,87,,84,84,14,51,7,9,0.3,0.7
2026-01-25T2000,1661A,119.5511,35.4113,日照市,港务局,,32,29,75,22,59,86,,83,83,15,45,6,8,0.4,0.8
2026-01-25T2000,3507A,119.5326,35.4627,日照市,职业技术学院,,27,27,61,7,35,84,,83,83,17,31,7,7,0.6,0.9
2026-01-25T2000,3604A,119.3267,35.1043,日照市,岚山环保分局,,39,39,83,15,54,84,,84,83,18,37,8,11,0.6,0.9
2026-01-25T2000,1835A,111.1922,34.7752,三门峡市,市政府,细颗粒物(PM2.5),233,,102,183,128,56,,86,68,30,20,8,7,1.3,1.1
2026-01-25T2000,1836A,111.1588,34.794,三门峡市,开发区,细颗粒物(PM2.5),229,196,142,179,126,61,,78,65,25,21,5,5,0.9,0.7
2026-01-25T2000,3039A,111.1911,34.7829,三门峡市,三门峡市第一小学,细颗粒物(PM2.5),228,,111,178,119,57,,83,68,30,24,6,6,1.0,0.7
2026-01-25T2000,3598A,111.1031,34.719,三门峡市,富达温泉假日酒店,细颗粒物(PM2.5),204,158,123,154,112,57,,81,66,32,22,4,5,1.1,0.9
2026-01-25T2000,2324A,117.621,26.2626,三明市,三钢,,40,,37,28,36,57,,74,73,20,23,5,7,0.6,0.9
2026-01-25T2000,2325A,117.6352,26.2714,三明市,三明二中,,,,36,33,26,58,,73,72,16,23,3,3,,0.9
2026-01-25T2000,2326A,117.6028,26.2377,三明市,三元区政府,,34,34,37,23,30,64,,69,69,16,26,3,7,1.0,1.1
2026-01-25T2000,1877A,109.4962,18.2682,三亚市,河西子站,,29,28,27,11,11,90,,98,96,7,8,3,3,0.5,0.5
2026-01-25T2000,3540A,109.7348,18.3443,三亚市,君悦子站,,30,29,28,10,12,93,,96,95,5,13,4,5,0.4,0.4
2026-01-25T2000,4135A,109.1714,18.3739,三亚市,城东小学站,,37,37,28,10,12,78,,94,92,14,11,/,/,/,/
2026-01-25T2000,2624A,91.7592,29.234,山南市,山南监测站,,31,26,23,10,10,97,,95,95,2,4,4,4,0.3,0.3
2026-01-25T2000,2625A,91.7701,29.2436,山南市,山南人民医院,,35,35,27,14,11,87,,93,93,10,3,7,7,0.6,0.4
2026-01-25T2000,1674A,116.6795,23.3666,汕头市,金平子站,,32,,25,22,19,72,,88,86,17,15,4,6,0.8,0.8
2026-01-25T2000,1675A,116.7248,23.3632,汕头市,龙湖子站,,26,22,26,18,15,73,,88,86,16,15,9,10,/,/
2026-01-25T2000,1676A,116.7257,23.2774,汕头市,濠江子站,,33,,21,23,16,81,,88,88,17,15,6,7,/,/
2026-01-25T2000,1677A,116.7518,23.4712,汕头市,澄海子站,细颗粒物(PM2.5),57,,33,40,23,82,,83,83,19,15,5,9,0.7,0.6
2026-01-25T2000,1678A,116.6088,23.2539,汕头市,潮阳子站,,26,21,22,18,11,77,,93,92,10,9,5,6,0.6,0.6
2026-01-25T2000,3444A,116.4539,23.2684,汕头市,潮南峡山,,44,44,26,28,16,69,,96,92,15,11,5,6,0.7,0.7
2026-01-25T2000,3624A,116.4069,23.2533,汕头市,潮南子站,颗粒物(PM10),51,51,40,25,18,67,,86,84,18,16,6,7,/,/
2026-01-25T2000,1693A,115.3653,22.7751,汕尾市,市环保局,,29,28,27,17,21,91,,103,102,13,13,7,7,0.6,0.6
2026-01-25T2000,1695A,115.362,22.7926,汕尾市,新城中学,,30,25,30,12,22,93,,107,106,13,11,5,5,0.5,0.5
2026-01-25T2000,2645A,109.9155,33.8714,商洛市,监测站,细颗粒物(PM2.5),109,109,65,82,50,30,,69,50,35,24,5,7,0.9,0.8
2026-01-25T2000,3045A,109.9647,33.8486,商洛市,商州区中学,,,,51,77,52,40,,64,51,24,22,5,6,0.8,0.8
2026-01-25T2000,2408A,115.6701,34.4283,商丘市,环境监测站,细颗粒物(PM2.5),211,178,144,161,143,12,,72,46,51,34,6,4,1.5,1.1
2026-01-25T2000,2409A,115.6458,34.4047,商丘市,粮食局,细颗粒物(PM2.5),180,181,142,136,130,16,,68,45,47,30,7,5,1.4,1.1
2026-01-25T2000,3171A,115.6069,34.4465,商丘市,梁园区档案局,细颗粒物(PM2.5),201,172,134,151,135,10,,62,41,51,35,4,3,1.4,1.1
2026-01-25T2000,4119A,115.6701,34.3767,商丘市,北海东路185号,细颗粒物(PM2.5),186,191,169,140,131,11,,73,50,52,30,4,2,1.2,0.9
2026-01-25T2000,4120A,115.6172,34.3704,商丘市,中山大街3号,细颗粒物(PM2.5),195,192,160,146,131,17,,73,49,52,32,9,6,1.2,0.9
2026-01-25T2000,1141A,121.401,31.2382,上海市,普陀,,24,20,51,12,45,76,,79,78,29,37,6,6,0.6,0.8
2026-01-25T2000,1142A,121.4774,31.2043,上海市,十五厂,,24,20,53,14,43,75,,76,75,35,50,7,8,0.6,0.6
2026-01-25T2000,1143A,121.4673,31.3011,上海市,虹口,,21,21,54,11,43,58,,71,69,35,39,8,8,0.3,0.4
2026-01-25T2000,1147A,121.4253,31.226,上海市,静安监测站,,26,19,46,16,43,81,,82,82,30,40,7,7,0.3,0.4
2026-01-25T2000,1148A,121.7029,31.1905,上海市,浦东川沙,,21,17,50,6,37,65,,69,67,24,47,7,8,0.5,0.6
2026-01-25T2000,1149A,121.5339,31.229,上海市,浦东新区监测站,,23,17,50,16,44,72,,74,73,24,44,6,6,0.6,0.7
2026-01-25T2000,1150A,121.5776,31.2038,上海市,浦东张江,,25,18,52,10,39,80,,80,80,27,42,7,7,0.4,0.6
2026-01-25T2000,3265A,121.4242,31.3303,上海市,宝山庙行,,18,18,55,12,44,57,,74,70,33,36,8,8,0.3,0.5
2026-01-25T2000,3266A,121.8789,31.4662,上海市,崇明上实东滩,,29,14,38,6,28,90,,96,93,10,10,4,4,0,0
2026-01-25T2000,3268A,121.316,31.2839,上海市,嘉定南翔,,22,22,61,13,45,58,,77,74,37,45,4,4,0.4,0.5
