timepoint,stationcode,longitude,latitude,area,positionname,primarypollutant,aqi,pm10,pm10_24h,pm2_5,pm2_5_24h,o3,o3_24h,o3_8h,o3_8h_24h,no2,no2_24h,so2,so2_24h,co,co_24h
2026-01-25T0300,2568A,102.2503,31.8896,阿坝藏族羌族自治州,马师校,,22,,23,15,16,32,,,,16,18,4,4,0.4,0.5
2026-01-25T0300,3994A,102.2174,31.9016,阿坝藏族羌族自治州,马尔康中学西区,,13,,14,9,12,36,,,,15,16,5,5,0.4,0.5
2026-01-25T0300,2695A,80.2899,41.1684,阿克苏地区,电视台,颗粒物(PM10),305,424,486,85,89,32,,,,15,12,8,12,0.6,0.6
2026-01-25T0300,2696A,80.2592,41.1541,阿克苏地区,艺术中心,颗粒物(PM10),308,426,451,107,102,32,,,,26,19,4,4,0.9,0.7
2026-01-25T0300,2205A,105.699,38.8409,阿拉善盟,蒙二幼,颗粒物(PM10),500,1493,699,322,146,70,,,,6,17,9,10,0.6,0.7
2026-01-25T0300,2206A,105.7198,38.8508,阿拉善盟,环保局新楼,颗粒物(PM10),500,1466,617,316,147,64,,,,5,13,8,9,0.6,0.6
2026-01-25T0300,2708A,88.1266,47.8515,阿勒泰地区,市站,,32,32,40,10,22,62,,,,12,24,2,4,0.6,0.6
2026-01-25T0300,4166A,88.1198,47.7931,阿勒泰地区,阿勒泰路33号,,33,33,43,19,24,48,,,,23,17,6,5,0.4,0.5
2026-01-25T0300,2630A,80.1171,32.4999,阿里地区,阿里监测站,,36,,3,3,4,115,,,,7,3,10,8,0.6,0.5
2026-01-25T0300,3192A,80.0906,32.5029,阿里地区,阿里藏医院,,36,22,32,7,8,114,,,,5,2,13,9,0.7,0.6
2026-01-25T0300,2644A,109.0088,32.6974,安康市,汉滨区检察院,细颗粒物(PM2.5),79,85,67,58,50,3,,,,45,36,6,6,1.0,0.9
2026-01-25T0300,4054A,109.0324,32.6913,安康市,市邮政管理局,细颗粒物(PM2.5),80,81,70,59,50,3,,,,39,33,7,6,0.9,0.9
2026-01-25T0300,2291A,117.0806,30.5181,安庆市,环科院,细颗粒物(PM2.5),112,94,86,84,66,32,,,,43,48,7,8,0.7,0.8
2026-01-25T0300,2292A,117.0331,30.5118,安庆市,马山宾馆,细颗粒物(PM2.5),109,101,85,82,63,37,,,,45,53,6,8,0.8,0.9
2026-01-25T0300,2294A,116.9897,30.6146,安庆市,安庆大学,细颗粒物(PM2.5),75,71,73,55,59,34,,,,41,43,4,5,0.6,0.8
2026-01-25T0300,3173A,117.0598,30.5351,安庆市,市人大,细颗粒物(PM2.5),110,98,93,83,71,31,,,,42,46,7,8,0.7,0.8
2026-01-25T0300,3123A,105.9408,26.2431,安顺市,凤凰山,,16,16,38,9,28,37,,,,8,17,10,17,0.4,0.5
2026-01-25T0300,3124A,105.9443,26.2567,安顺市,金钟山,,17,17,39,11,28,38,,,,9,12,8,16,0.5,0.6
2026-01-25T0300,3125A,105.8983,26.248,安顺市,娄家坡,,18,13,31,12,26,40,,,,9,12,8,14,0.4,0.5
2026-01-25T0300,1819A,114.3552,36.1017,安阳市,红庙街,细颗粒物(PM2.5),272,254,191,222,180,51,,,,42,51,6,4,1.2,1.1
2026-01-25T0300,1820A,114.361,36.0681,安阳市,银杏小区,细颗粒物(PM2.5),290,240,195,240,199,54,,,,37,49,5,4,1.2,1.1
2026-01-25T0300,3141A,114.3921,36.0879,安阳市,信访局,细颗粒物(PM2.5),289,254,198,239,199,53,,,,32,41,7,5,1.2,1.2
2026-01-25T0300,3669A,114.4706,36.0634,安阳市,左辅环卫站,细颗粒物(PM2.5),292,260,205,242,194,46,,,,45,40,9,4,1.2,1
2026-01-25T0300,4117A,114.2918,36.0769,安阳市,钢三路198号,细颗粒物(PM2.5),286,277,249,236,187,49,,,,35,39,9,5,1.3,1.1
2026-01-25T0300,1748A,123.0441,41.1201,鞍山市,深沟寺,,30,30,34,19,20,49,,,,22,22,10,9,0.9,0.8
2026-01-25T0300,1749A,123.011,41.0931,鞍山市,太阳城,,31,31,36,19,21,43,,,,35,24,34,16,1.6,0.9
2026-01-25T0300,1750A,123.0483,41.1445,鞍山市,太平,,32,32,57,15,32,35,,,,36,34,15,11,0.8,1.2
2026-01-25T0300,1751A,122.964,41.0968,鞍山市,铁西三道街,,,33,76,18,42,,,,,24,47,8,20,0.5,1.3
2026-01-25T0300,1753A,123.0219,41.0822,鞍山市,明达新区,,26,26,36,13,19,52,,,,16,19,21,13,1.0,0.9
2026-01-25T0300,4201A,122.944647,41.082639,鞍山市,兴盛南路290号,颗粒物(PM10),104,158,108,76,50,5,,,,72,53,19,17,2.6,1.6
2026-01-25T0300,2195A,107.4206,40.7609,巴彦淖尔市,附二中,颗粒物(PM10),67,83,113,17,44,34,,,,23,25,8,14,0.5,0.8
2026-01-25T0300,2196A,107.37,40.7372,巴彦淖尔市,市环保大楼,颗粒物(PM10),59,68,108,19,45,42,,,,20,26,8,12,0.6,0.8
2026-01-25T0300,1956A,86.1476,41.7529,巴音郭楞蒙古自治州,孔雀公园,颗粒物(PM10),179,307,314,61,55,38,,,,19,20,8,8,0.5,0.5
2026-01-25T0300,1957A,86.1971,41.7166,巴音郭楞蒙古自治州,棉纺厂,颗粒物(PM10),243,380,376,56,53,18,,,,51,18,/,/,/,/
2026-01-25T0300,1958A,86.236,41.7172,巴音郭楞蒙古自治州,经济开发区,颗粒物(PM10),197,343,323,43,41,55,,,,8,20,4,6,0.6,0.6
2026-01-25T0300,3181A,106.776805,31.852614,巴中市,市五中,,,62,73,47,56,22,,,,19,24,,5,0.9,1
2026-01-25T0300,3183A,106.7419,31.8654,巴中市,圣泉水务公司,细颗粒物(PM2.5),70,63,66,51,53,32,,,,22,25,4,5,0.6,0.7
2026-01-25T0300,3616A,106.7617,31.8343,巴中市,市中心医院,,,60,68,53,56,19,,,,30,25,,7,0.9,0.9
2026-01-25T0300,2235A,122.7909,45.608,白城市,洮北区环保局,,27,27,40,16,23,57,,,,6,16,6,5,0.1,0.3
2026-01-25T0300,2236A,122.8741,45.5725,白城市,市环保局,,29,,33,20,19,55,,,,12,23,3,6,0.4,0.4
2026-01-25T0300,2231A,126.4219,41.9172,白山市,喜丰,颗粒物(PM10),56,62,60,36,33,37,,,,37,30,14,18,0.9,0.9
2026-01-25T0300,2232A,126.4082,41.9416,白山市,环保局,,41,41,43,26,27,37,,,,21,21,9,12,0.7,0.8
2026-01-25T0300,2647A,104.1727,36.5448,白银市,第三小学,颗粒物(PM10),500,1001,382,155,102,61,,,,15,41,4,76,0.4,1.4
2026-01-25T0300,2648A,104.1467,36.5482,白银市,动力公司,颗粒物(PM10),500,888,334,169,95,62,,,,10,30,1,42,0.4,1.1
2026-01-25T0300,2512A,106.6102,23.901,百色市,市监测站,细颗粒物(PM2.5),64,56,57,46,41,9,,,,27,23,19,16,1.0,0.9
2026-01-25T0300,2513A,106.6524,23.8842,百色市,市中心血站,细颗粒物(PM2.5),79,58,58,58,50,12,,,,23,18,18,20,1.0,0.9
2026-01-25T0300,4133A,106.6273,23.8798,百色市,龙景西路,细颗粒物(PM2.5),80,62,71,59,49,3,,,,30,23,19,20,0.8,0.8
2026-01-25T0300,2270A,117.396,32.9389,蚌埠市,工人疗养院,细颗粒物(PM2.5),103,101,108,77,84,46,,,,35,41,4,8,0.6,0.6
2026-01-25T0300,2271A,117.3606,32.9428,蚌埠市,百货大楼,细颗粒物(PM2.5),107,102,107,80,83,30,,,,51,43,5,7,0.6,0.7
2026-01-25T0300,2273A,117.4183,32.8909,蚌埠市,蚌埠学院,细颗粒物(PM2.5),122,105,94,92,84,55,,,,37,39,4,5,0.7,0.7
2026-01-25T0300,2274A,117.3534,32.9672,蚌埠市,淮上区政府,细颗粒物(PM2.5),107,95,101,80,85,57,,,,27,41,1,3,0.6,0.7
2026-01-25T0300,2275A,117.3143,32.8977,蚌埠市,高新区,细颗粒物(PM2.5),108,100,96,81,84,54,,,,35,31,6,7,0.6,0.6
2026-01-25T0300,3715A,117.3091,32.9314,蚌埠市,蚌埠田家炳中学,细颗粒物(PM2.5),145,125,108,111,90,31,,,,50,37,5,6,0.7,0.8
2026-01-25T0300,1585A,109.8761,40.6533,包头市,市环境监测站,颗粒物(PM10),57,64,103,20,42,27,,,,47,62,8,15,0.9,1.5
2026-01-25T0300,1587A,109.9992,40.5843,包头市,包头八中,颗粒物(PM10),70,89,130,20,58,58,,,,15,46,11,19,0.7,1.4
2026-01-25T0300,1589A,109.8641,40.6288,包头市,惠龙物流,颗粒物(PM10),72,94,104,25,48,51,,,,32,60,10,20,1.3,1.9
2026-01-25T0300,1590A,110.0376,40.5546,包头市,东河鸿龙湾,颗粒物(PM10),59,68,125,8,41,57,,,,14,52,8,15,0.3,1
2026-01-25T0300,3283A,109.9154,40.5684,包头市,滨河大厦,颗粒物(PM10),60,70,110,3,47,56,,,,18,50,5,12,0.5,1.1
2026-01-25T0300,3419A,109.9449,40.6259,包头市,包头市委党校,颗粒物(PM10),71,91,94,6,48,26,,,,47,63,13,16,0.8,1.6
2026-01-25T0300,3683A,109.8332,40.6577,包头市,昆区政府,颗粒物(PM10),62,74,94,20,48,29,,,,50,62,10,17,0.9,1.4
2026-01-25T0300,1931A,107.0802,34.3129,宝鸡市,竹园沟,细颗粒物(PM2.5),128,,108,97,108,34,,,,28,27,6,6,0.6,0.6
2026-01-25T0300,1933A,107.1429,34.3549,宝鸡市,监测站,细颗粒物(PM2.5),152,123,126,116,120,,,,,39,38,5,6,0.9,0.9
2026-01-25T0300,1934A,107.1172,34.3759,宝鸡市,技工学校,细颗粒物(PM2.5),143,114,122,109,116,46,,,,26,32,,8,0.9,0.9
2026-01-25T0300,1936A,107.2025,34.3518,宝鸡市,文理学院,细颗粒物(PM2.5),172,,117,130,123,27,,,,44,34,4,5,0.9,0.8
2026-01-25T0300,1937A,107.2396,34.3626,宝鸡市,三迪小学,细颗粒物(PM2.5),166,126,130,126,131,44,,,,41,43,6,6,1.0,0.9
2026-01-25T0300,4155A,107.1721,34.3558,宝鸡市,滨河北路,细颗粒物(PM2.5),140,137,135,107,106,33,,,,32,30,6,6,0.9,0.9
2026-01-25T0300,4308A,107.3898,34.3601,宝鸡市,陈仓区北开路21号,细颗粒物(PM2.5),176,175,158,133,139,40,,,,57,48,19,11,1.0,0.9
2026-01-25T0300,1051A,115.4803,38.8568,保定市,游泳馆,细颗粒物(PM2.5),159,129,140,121,135,15,,,,65,67,8,9,1.0,1.1
2026-01-25T0300,1052A,115.509,38.8895,保定市,华电二区,细颗粒物(PM2.5),156,,128,119,122,0,,,,59,58,8,5,,1.5
2026-01-25T0300,1053A,115.4588,38.9037,保定市,接待中心,细颗粒物(PM2.5),153,137,136,117,124,13,,,,58,61,5,5,0.9,1
2026-01-25T0300,1054A,115.4484,38.8344,保定市,地表水厂,细颗粒物(PM2.5),139,144,170,106,129,19,,,,60,65,8,8,1.0,1.2
2026-01-25T0300,3581A,115.3136,38.9511,保定市,满城区生态环境分局,细颗粒物(PM2.5),140,149,159,107,115,20,,,,58,61,5,5,1.1,1.4
2026-01-25T0300,3582A,115.4709,38.7628,保定市,清苑区第二中学,细颗粒物(PM2.5),166,182,198,126,140,17,,,,65,70,11,11,1.0,1.2
2026-01-25T0300,3583A,115.6231,39.0223,保定市,徐水物探局,细颗粒物(PM2.5),140,142,168,107,118,8,,,,60,61,7,10,1.3,1.2
2026-01-25T0300,4004A,115.4199,38.8665,保定市,双鹰农机,细颗粒物(PM2.5),148,162,182,113,128,28,,,,50,57,9,10,1.0,1.2
2026-01-25T0300,4034A,115.515,38.8589,保定市,植保所站,细颗粒物(PM2.5),135,128,145,103,124,5,,,,64,68,3,4,1.0,1.1
2026-01-25T0300,2594A,99.1589,25.1137,保山市,市环境监测站,,27,27,26,17,17,47,,,,10,9,5,5,0.3,0.3
2026-01-25T0300,2595A,99.1616,25.1381,保山市,市环保局,,45,,30,31,21,58,,,,5,6,3,3,0.6,0.5
2026-01-25T0300,1867A,109.1435,21.4085,北海市,海滩公园,细颗粒物(PM2.5),123,98,79,93,67,20,,,,31,22,11,8,1.1,1
2026-01-25T0300,1868A,109.0983,21.466,北海市,新市环保局,细颗粒物(PM2.5),125,,57,95,62,9,,,,38,21,10,5,1.6,1.4
2026-01-25T0300,1869A,109.1775,21.5232,北海市,北海工业园,细颗粒物(PM2.5),123,117,79,93,69,8,,,,34,22,14,7,1.1,0.9
2026-01-25T0300,3400A,109.1844,21.4396,北海市,龙潭自来水厂,细颗粒物(PM2.5),123,,71,93,70,6,,,,29,21,8,7,1.4,1.2
2026-01-25T0300,1001A,116.3611,39.8786,北京市,万寿西宫,,19,10,36,3,20,59,,,,18,43,1,3,0.4,0.6
2026-01-25T0300,1003A,116.4174,39.9289,北京市,东四,,16,10,36,3,18,45,,,,32,43,4,5,0.2,0.5
2026-01-25T0300,1004A,116.4073,39.8858,北京市,天坛,,20,10,37,3,20,61,,,,15,44,2,2,0.7,1
2026-01-25T0300,1005A,116.4622,39.9364,北京市,农展馆,,18,8,39,3,19,55,,,,21,41,3,4,0.4,0.6
2026-01-25T0300,1006A,116.3399,39.9293,北京市,官园,,19,11,36,3,20,59,,,,10,42,4,5,0.3,0.6
2026-01-25T0300,1007A,116.2879,39.9613,北京市,海淀万柳,,17,9,37,3,19,54,,,,19,49,2,3,0.3,0.6
2026-01-25T0300,1008A,116.6635,40.1349,北京市,顺义新城,,23,10,29,3,15,73,,,,5,22,3,4,0.2,0.3
2026-01-25T0300,1009A,116.6275,40.327,北京市,怀柔镇,,20,10,18,3,10,62,,,,9,13,4,4,0.3,0.4
2026-01-25T0300,1010A,116.2295,40.217,北京市,昌平镇,,21,21,36,11,18,31,,,,28,38,2,2,0.4,0.6
2026-01-25T0300,1011A,116.3968,39.982,北京市,奥体中心,,20,9,34,3,18,61,,,,21,53,3,4,0.4,0.6
2026-01-25T0300,3418A,116.8336,40.4095,北京市,密云新城,,22,6,16,3,8,70,,,,3,11,2,2,0.3,0.4
2026-01-25T0300,3671A,116.0879,39.9725,北京市,门头沟三家店,,34,34,43,17,24,2,,,,44,38,2,4,0.5,0.5
2026-01-25T0300,3672A,116.1507,39.8246,北京市,丰台云岗,,17,11,47,3,29,41,,,,33,43,1,3,0.3,0.5
2026-01-25T0300,3674A,115.9578,39.7602,北京市,房山燕山,,46,46,72,29,49,24,,,,42,44,4,6,0.4,0.5
2026-01-25T0300,3675A,116.4669,39.7734,北京市,大兴旧宫,,20,12,62,3,33,36,,,,40,55,3,4,0.3,0.7
2026-01-25T0300,3694A,115.9859,40.4562,北京市,延庆石河营,,21,10,31,3,17,66,,,,4,21,3,4,0.3,0.7
2026-01-25T0300,3695A,116.6151,40.3052,北京市,怀柔新城,,21,9,18,6,10,65,,,,6,8,4,4,0.2,0.2
2026-01-25T0300,3696A,116.2542,39.8764,北京市,丰台小屯,,15,11,48,3,23,47,,,,20,53,3,4,0.3,0.7
2026-01-25T0300,3697A,116.8399,40.3843,北京市,密云镇,,23,6,19,3,8,71,,,,2,19,2,2,0.2,0.3
2026-01-25T0300,4057A,115.9423,40.4431,北京市,延庆百泉,,19,9,31,3,18,58,,,,3,23,2,3,0.3,0.6
2026-01-25T0300,4058A,116.6598,39.9164,北京市,通州新华,,22,18,62,8,29,26,,,,43,56,2,4,0.4,0.7
2026-01-25T0300,4182A,116.1942,39.9158,北京市,石景山八角,,15,11,44,3,19,41,,,,30,49,2,4,0.1,0.4
2026-01-25T0300,4194A,117.078628,40.151726,北京市,平谷新城,颗粒物(PM10),51,51,48,32,30,29,,,,31,29,4,4,0.9,0.7
2026-01-25T0300,1761A,123.8274146,41.31234549,本溪市,大峪,颗粒物(PM10),60,70,67,35,42,6,,,,56,42,6,8,1.3,1.5
2026-01-25T0300,1763A,123.7169,41.3094,本溪市,彩屯,细颗粒物(PM2.5),108,113,120,81,77,3,,,,58,46,6,8,1.6,1.8
2026-01-25T0300,1764A,123.7672166,41.28649327,本溪市,东明,细颗粒物(PM2.5),79,71,70,58,52,9,,,,57,47,4,6,1.4,1.7
2026-01-25T0300,1765A,123.799345,41.266614,本溪市,新立屯,颗粒物(PM10),57,64,47,35,27,6,,,,63,43,8,11,2.4,1.6
2026-01-25T0300,1766A,123.829144,41.336777,本溪市,威宁,颗粒物(PM10),71,92,83,47,46,4,,,,51,43,6,6,1.5,1.4
2026-01-25T0300,2587A,105.287,27.3133,毕节市,八中,细颗粒物(PM2.5),80,68,54,59,51,15,,,,15,21,8,13,1.0,1
2026-01-25T0300,2588A,105.3079,27.2987,毕节市,师专,细颗粒物(PM2.5),80,70,60,59,48,17,,,,15,20,9,14,1.0,1
2026-01-25T0300,4263A,105.3688,27.3598,毕节市,工业大道,细颗粒物(PM2.5),80,76,62,59,51,20,,,,14,16,13,12,/,/
2026-01-25T0300,1629A,117.9961,37.3604,滨州市,第二水厂,细颗粒物(PM2.5),118,110,138,89,106,19,,,,38,62,,22,1.0,1.3
2026-01-25T0300,1630A,117.9789,37.3931,滨州市,北中新校,细颗粒物(PM2.5),128,124,135,97,104,23,,,,35,51,5,17,0.8,1.2
2026-01-25T0300,3514A,117.9379,37.3959,滨州市,中海酒店,细颗粒物(PM2.5),128,112,135,97,112,40,,,,65,37,9,19,0.9,1.1
2026-01-25T0300,3515A,117.9381509,37.35547456,滨州市,开发区一中,细颗粒物(PM2.5),122,112,140,92,111,24,,,,35,54,10,24,0.9,1.2
2026-01-25T0300,3516A,118.0914,37.6938,滨州市,金海六路,细颗粒物(PM2.5),140,137,121,107,90,38,,,,38,57,3,20,0.8,1
2026-01-25T0300,4028A,117.9955,37.3752,滨州市,滨州市西街道办事处,细颗粒物(PM2.5),125,112,142,95,113,18,,,,38,53,8,20,1.0,1.3
2026-01-25T0300,2311A,115.8071,33.8399,亳州市,污水处理厂,细颗粒物(PM2.5),113,103,111,85,91,66,,,,22,29,4,5,0.4,0.4
2026-01-25T0300,2312A,115.7789,33.8519,亳州市,三国揽胜宫,细颗粒物(PM2.5),115,127,127,87,89,65,,,,21,32,3,4,0.6,0.6
2026-01-25T0300,3332A,115.7631,33.803,亳州市,亳州学院,细颗粒物(PM2.5),114,105,111,86,91,74,,,,15,19,3,3,0.9,0.8
2026-01-25T0300,2693A,82.0482,44.8553,博尔塔拉蒙古自治州,市党校,颗粒物(PM10),82,113,108,59,40,45,,,,31,20,3,3,1.1,0.9
2026-01-25T0300,2694A,82.0805,44.8966,博尔塔拉蒙古自治州,市环保局,颗粒物(PM10),94,138,135,68,51,42,,,,32,28,3,6,0.8,0.7
2026-01-25T0300,1071A,116.8733,38.2922,沧州市,沧县城建局,细颗粒物(PM2.5),179,,154,135,132,19,,,,71,71,10,15,1.1,1.3
2026-01-25T0300,1072A,116.8462,38.3189,沧州市,电视转播站,细颗粒物(PM2.5),200,,154,150,152,13,,,,73,60,8,11,1.0,1.1
2026-01-25T0300,1073A,116.8588,38.3161,沧州市,市环保局,细颗粒物(PM2.5),183,161,159,138,136,9,,,,72,58,12,16,1.0,1.1
2026-01-25T0300,3324A,116.8011,38.294,沧州市,河北水利电力学院,细颗粒物(PM2.5),165,139,164,125,145,31,,,,48,57,12,14,0.9,1
2026-01-25T0300,2622A,97.1813,31.1289,昌都市,昌都监测站,,45,45,45,14,18,24,,,,27,26,4,4,0.7,0.7
2026-01-25T0300,3719A,97.1707,31.1428,昌都市,昌都会议中心,,20,12,16,8,9,61,,,,2,7,3,3,0.3,0.3
2026-01-25T0300,2692A,87.2722,44.0298,昌吉回族自治州,新区政务中心,颗粒物(PM10),92,133,128,63,50,1,,,,69,52,8,10,1.4,1.2
2026-01-25T0300,3613A,87.3069,44.0093,昌吉回族自治州,亚心广场,颗粒物(PM10),102,153,146,75,57,6,,,,73,45,8,10,1.3,1.3
2026-01-25T0300,4164A,87.2057,43.9289,昌吉回族自治州,财政所,颗粒物(PM10),69,88,99,32,35,26,,,,31,15,4,6,0.9,0.6
2026-01-25T0300,1120A,125.2874,43.9024,长春市,客车厂,细颗粒物(PM2.5),114,,59,86,47,21,,,,49,37,8,11,0.9,0.7
2026-01-25T0300,1121A,125.2943,43.8508,长春市,邮电学院,细颗粒物(PM2.5),93,86,55,69,42,17,,,,51,41,8,12,0.7,0.5
2026-01-25T0300,1122A,125.3648,43.8745,长春市,劳动公园,细颗粒物(PM2.5),80,87,59,59,38,32,,,,42,37,4,7,0.5,0.3
2026-01-25T0300,1123A,125.3233,43.8781,长春市,园林处,细颗粒物(PM2.5),99,111,60,74,47,24,,,,41,31,10,11,0.7,0.6
2026-01-25T0300,1124A,125.4604,43.7904,长春市,净月潭,细颗粒物(PM2.5),79,65,52,58,36,17,,,,48,27,4,6,1.0,0.6
2026-01-25T0300,1126A,125.38,43.8422,长春市,经开区环卫处,细颗粒物(PM2.5),90,76,55,67,36,6,,,,71,43,6,8,1.2,0.6
2026-01-25T0300,1127A,125.234,43.7761,长春市,高新区管委会,细颗粒物(PM2.5),98,80,62,73,43,12,,,,63,40,6,8,1.2,0.7
2026-01-25T0300,1128A,125.1695,43.83,长春市,岱山公园,细颗粒物(PM2.5),108,91,62,81,50,12,,,,50,33,6,7,1.0,0.6
2026-01-25T0300,4281A,125.334645,43.916281,长春市,北亚泰大街1068号,细颗粒物(PM2.5),104,85,58,78,45,7,,,,55,37,8,16,0.9,0.7
2026-01-25T0300,1335A,113.082,28.2421,长沙市,经开区环保局,细颗粒物(PM2.5),63,62,60,45,47,46,,,,17,23,5,5,0.7,0.7
2026-01-25T0300,1336A,112.8873,28.2202,长沙市,高开区环保局,细颗粒物(PM2.5),72,62,54,52,42,47,,,,19,28,6,6,0.8,0.8
2026-01-25T0300,1337A,113.0785,28.2012,长沙市,马坡岭,细颗粒物(PM2.5),63,57,60,45,45,62,,,,12,22,6,5,0.8,0.9
2026-01-25T0300,1338A,112.9448,28.1894,长沙市,湖南师范大学,细颗粒物(PM2.5),58,63,51,41,36,56,,,,19,26,7,5,0.8,0.8
2026-01-25T0300,1339A,113.0177,28.1322,长沙市,雨花区环保局,细颗粒物(PM2.5),62,51,56,44,40,55,,,,15,26,10,8,1.0,1
2026-01-25T0300,1340A,112.9795,28.2593,长沙市,伍家岭,,,64,69,47,48,48,,,,20,29,,6,0.8,0.9
2026-01-25T0300,1341A,113.002,28.1944,长沙市,火车新站,"颗粒物(PM10),细颗粒物(PM2.5)",58,65,64,41,47,52,,,,19,33,3,2,1.1,1
2026-01-25T0300,1342A,112.9846,28.1177,长沙市,天心区环保局,,,56,48,45,40,60,,,,17,28,,6,0.7,0.7
2026-01-25T0300,1343A,112.8906,28.1307,长沙市,湖南中医药大学,,,70,56,52,42,46,,,,28,38,,7,0.9,0.8
2026-01-25T0300,1727A,113.1146,36.1547,长治市,清华站,细颗粒物(PM2.5),199,,88,149,83,78,,,,19,28,,13,1.0,1
2026-01-25T0300,1730A,113.0887,36.2126,长治市,审计局,细颗粒物(PM2.5),246,,100,196,98,74,,,,27,38,8,12,1.1,1
2026-01-25T0300,1731A,113.0845,36.1856,长治市,长治八中,细颗粒物(PM2.5),227,,112,177,95,73,,,,17,25,8,12,1.2,1.1
2026-01-25T0300,2845A,113.1561,36.1912,长治市,德盛苑,细颗粒物(PM2.5),200,,81,150,86,80,,,,18,23,6,13,1.0,1.2
2026-01-25T0300,3568A,113.0603,36.0464,长治市,向阳小学,细颗粒物(PM2.5),147,,98,112,64,81,,,,23,29,7,17,1.0,1
2026-01-25T0300,3569A,112.8788,36.315,长治市,屯留一中,细颗粒物(PM2.5),233,187,107,183,92,64,,,,36,39,8,13,1.6,1.2
2026-01-25T0300,4189A,113.113092,36.199482,长治市,英华南巷50号,细颗粒物(PM2.5),230,,104,180,94,74,,,,22,30,6,11,1.2,1.3
2026-01-25T0300,4190A,113.23666,36.33435,长治市,学府街1号,细颗粒物(PM2.5),263,,115,213,116,67,,,,34,42,13,20,2.0,1.8
2026-01-25T0300,1854A,111.696,28.9725,常德市,市二中,细颗粒物(PM2.5),74,72,86,54,75,43,,,,19,28,7,7,1.0,1
2026-01-25T0300,3138A,111.7152,29.0288,常德市,武陵区永安,,,69,88,55,68,45,,,,22,27,,6,1.0,1
2026-01-25T0300,3139A,111.6891,28.9881,常德市,鼎城区玉霞,细颗粒物(PM2.5),79,68,81,58,73,47,,,,23,29,9,8,0.9,0.8
2026-01-25T0300,3140A,111.6651,29.0526,常德市,武陵区长庚,细颗粒物(PM2.5),78,73,87,57,73,45,,,,20,25,6,5,0.7,0.8
2026-01-25T0300,1196A,119.9524,31.7586,常州市,市监测站,细颗粒物(PM2.5),120,121,118,91,84,0,,,,86,62,5,8,0.7,0.8
2026-01-25T0300,1200A,119.9351,31.703,常州市,武进监测站,,,105,115,75,86,26,,,,60,55,,14,0.8,1.2
2026-01-25T0300,3002A,119.9701,31.813,常州市,行政中心,细颗粒物(PM2.5),112,113,108,84,80,11,,,,77,56,5,9,0.7,0.9
2026-01-25T0300,3003A,120.0434,31.7726,常州市,经开区,细颗粒物(PM2.5),107,143,135,80,79,6,,,,70,65,10,11,0.6,0.7
2026-01-25T0300,3010A,119.8919,31.7892,常州市,钟楼,细颗粒物(PM2.5),103,110,112,77,82,10,,,,78,54,8,11,0.9,1
2026-01-25T0300,3429A,119.8595,31.706,常州市,武进经发区,细颗粒物(PM2.5),117,106,117,88,93,25,,,,62,65,7,11,0.8,1.1
2026-01-25T0300,3430A,119.5812,31.7256,常州市,金坛城区,细颗粒物(PM2.5),123,114,116,93,94,,,,,32,48,7,11,0.8,1.1
2026-01-25T0300,4089A,119.9551,31.863,常州市,崇义南街5-H号,细颗粒物(PM2.5),108,100,104,81,82,19,,,,58,53,5,8,0.8,1
2026-01-25T0300,2220A,120.4318,41.588,朝阳市,西梁,,28,28,64,12,38,40,,,,38,38,15,12,0.4,0.9
2026-01-25T0300,2221A,120.452,41.565,朝阳市,河畔小区,,34,34,46,23,23,4,,,,61,23,7,11,1.1,1
2026-01-25T0300,2222A,120.4176,41.5648,朝阳市,八里堡,,20,20,57,8,34,38,,,,32,35,11,13,0.5,0.9
2026-01-25T0300,3026A,116.6179,23.6608,潮州市,市政府,,46,,34,32,34,57,,,,13,14,4,4,0.4,0.5
2026-01-25T0300,4036A,116.646,23.676,潮州市,金山,,32,32,35,21,28,60,,,,16,14,3,4,0.5,0.6
2026-01-25T0300,2473A,113.0116,25.8228,郴州市,市职中,细颗粒物(PM2.5),68,70,50,49,42,0,,,,27,23,7,7,1.4,0.8
2026-01-25T0300,2475A,113.0381,25.8074,郴州市,市审计局,细颗粒物(PM2.5),74,72,60,54,47,0,,,,30,28,3,6,/,/
2026-01-25T0300,2476A,113.0348,25.7757,郴州市,市环保局,细颗粒物(PM2.5),78,86,70,57,49,0,,,,37,31,6,12,1.2,0.9
2026-01-25T0300,4252A,113.0138,25.8011,郴州市,好美居路49号,细颗粒物(PM2.5),94,85,61,70,52,2,,,,37,32,2,6,/,/
2026-01-25T0300,1431A,103.9727,30.7242,成都市,金泉两河,细颗粒物(PM2.5),122,102,97,92,72,6,,,,42,50,2,3,0.8,0.8
2026-01-25T0300,1432A,104.1423,30.6765,成都市,十里店,细颗粒物(PM2.5),114,117,84,86,60,6,,,,50,40,4,3,0.8,0.7
2026-01-25T0300,1433A,104.0594,30.5765,成都市,三瓦窑,细颗粒物(PM2.5),104,90,77,78,61,18,,,,43,36,3,4,0.7,0.7
2026-01-25T0300,1434A,104.1122,30.6306,成都市,沙河铺,细颗粒物(PM2.5),110,90,75,83,60,5,,,,61,44,3,3,0.8,0.8
2026-01-25T0300,2880A,104.0219,30.6561,成都市,大石西路,细颗粒物(PM2.5),105,100,94,79,66,11,,,,33,40,4,4,1.1,1.1
2026-01-25T0300,3136A,104.2724,30.559,成都市,龙泉驿区区政府,细颗粒物(PM2.5),83,73,59,61,50,20,,,,26,22,6,6,0.7,0.7
2026-01-25T0300,3357A,104.0028,30.6891,成都市,金博路,细颗粒物(PM2.5),107,92,87,80,66,8,,,,41,47,4,5,0.9,0.9
2026-01-25T0300,3359A,104.056,30.5228,成都市,华阳,细颗粒物(PM2.5),79,78,63,58,47,23,,,,34,29,2,2,0.7,0.7
2026-01-25T0300,3488A,104.387954,30.746684,成都市,青石路225号,,,82,80,66,57,11,,,,32,35,,4,0.8,0.9
2026-01-25T0300,3489A,104.0788,30.4054,成都市,科学城,细颗粒物(PM2.5),88,76,66,65,55,19,,,,25,24,7,6,0.7,0.8
2026-01-25T0300,4011A,103.8505,30.6946,成都市,光华大道三段,细颗粒物(PM2.5),107,101,100,80,79,,,,,40,43,3,4,0.8,0.9
2026-01-25T0300,4144A,104.3257,30.6406,成都市,八角井街185号,细颗粒物(PM2.5),88,106,86,65,60,20,,,,21,24,3,2,1.1,1
2026-01-25T0300,4224A,104.2433276,30.53529463,成都市,鲸龙路1057号,细颗粒物(PM2.5),83,76,64,61,47,26,,,,24,23,6,5,0.6,0.6
2026-01-25T0300,1062A,117.9531,40.908,承德市,铁路,,26,26,37,3,18,52,,,,12,23,5,6,0.4,0.6
2026-01-25T0300,1063A,117.9397,40.9763,承德市,中国银行,,33,33,34,6,11,48,,,,12,20,1,3,0.3,0.5
2026-01-25T0300,4073A,117.9462,40.95,承德市,杏林街1号,,21,21,24,14,15,49,,,,13,12,4,4,0.4,0.5
2026-01-25T0300,4274A,117.7994,40.9605,承德市,滨河大街98号,,33,33,43,13,18,49,,,,16,21,4,17,0.3,0.8
2026-01-25T0300,2314A,117.4698,30.6617,池州市,池州学院,细颗粒物(PM2.5),123,105,72,93,61,44,,,,33,31,4,6,0.9,0.8
2026-01-25T0300,3237A,117.4918,30.6617,池州市,展览馆,细颗粒物(PM2.5),113,104,66,85,51,34,,,,30,32,2,3,0.9,0.8
2026-01-25T0300,3333A,117.5626,30.695,池州市,第八中学,细颗粒物(PM2.5),98,109,71,73,52,37,,,,38,32,4,5,0.8,0.7
2026-01-25T0300,3334A,117.5037,30.6242,池州市,第十二中学,细颗粒物(PM2.5),77,68,73,56,53,1,,,,55,41,2,4,1.0,1
2026-01-25T0300,1744A,118.9229,42.2816,赤峰市,松山一中,,22,18,33,12,14,18,,,,44,27,5,6,0.9,0.8
2026-01-25T0300,1745A,118.9588,42.2733,赤峰市,哈达街,,30,30,34,21,19,26,,,,30,27,8,9,0.9,0.7
2026-01-25T0300,1746A,118.8792,42.2551,赤峰市,天义路,,22,18,21,15,16,39,,,,22,24,5,6,0.7,0.8
2026-01-25T0300,3058A,119.2656,42.0356,赤峰市,银河街,,44,44,63,18,29,50,,,,14,21,17,19,0.6,1.2
2026-01-25T0300,3286A,118.9359,42.3146,赤峰市,桥北物流园区,,32,32,28,17,20,27,,,,35,27,7,7,0.7,0.6
2026-01-25T0300,2521A,107.3473,22.4137,崇左市,市环保局江州分局,细颗粒物(PM2.5),74,64,46,54,44,13,,,,20,18,5,5,0.8,0.8
2026-01-25T0300,4256A,107.375,22.3736,崇左市,石景林东路7号,细颗粒物(PM2.5),88,70,40,65,44,11,,,,22,20,3,3,0.6,0.6
2026-01-25T0300,3207A,118.31131,32.3033,滁州市,市政府原办公楼,细颗粒物(PM2.5),115,103,102,87,82,28,,,,51,54,5,7,0.7,0.8
2026-01-25T0300,3331A,118.3268,32.2633,滁州市,图书馆,细颗粒物(PM2.5),102,103,96,76,70,20,,,,55,50,8,9,0.8,0.9
2026-01-25T0300,4101A,118.3196,32.3335,滁州市,银山路666号,细颗粒物(PM2.5),134,,90,102,96,22,,,,39,39,3,7,0.6,0.7
2026-01-25T0300,4102A,118.3426,32.2979,滁州市,黄山路555号,细颗粒物(PM2.5),124,118,113,94,95,,,,,82,53,15,17,1.0,1.1
2026-01-25T0300,2606A,101.5379,25.0492,楚雄彝族自治州,市经济开发区,,23,23,25,13,16,14,,,,36,20,3,3,0.5,0.5
2026-01-25T0300,4153A,101.5536,25.0343,楚雄彝族自治州,团结路562号,,23,23,24,16,15,9,,,,42,18,5,4,0.4,0.4
2026-01-25T0300,2549A,107.5087,31.2186,达州市,市环境监测站,细颗粒物(PM2.5),64,68,80,46,56,19,,,,30,34,8,7,0.6,0.8
2026-01-25T0300,2550A,107.4988,31.2132,达州市,凤凰小区,细颗粒物(PM2.5),70,68,78,51,56,15,,,,33,37,6,5,0.4,0.8
2026-01-25T0300,2551A,107.5081,31.1987,达州市,达县机关宾馆,细颗粒物(PM2.5),65,66,88,47,62,14,,,,36,41,6,4,0.9,1
2026-01-25T0300,2552A,107.4644,31.2124,达州市,市政中心,细颗粒物(PM2.5),58,58,86,41,55,32,,,,32,40,8,6,0.6,0.8
2026-01-25T0300,2614A,100.2168,25.5818,大理白族自治州,大理市环境监测站,,32,22,25,22,21,70,,,,6,7,6,6,0.5,0.5
2026-01-25T0300,2615A,100.1542,25.7055,大理白族自治州,大理古城,,28,20,26,19,18,62,,,,9,11,7,8,0.8,0.8
2026-01-25T0300,1109A,121.6119,38.974,大连市,甘井子,,47,47,38,29,24,64,,,,22,30,11,10,0.2,0.3
2026-01-25T0300,1110A,121.565,38.9509,大连市,周水子,,43,43,46,27,28,56,,,,21,43,19,18,0.5,0.6
2026-01-25T0300,1111A,121.5637,38.8849,大连市,星海三站,,38,38,36,23,25,55,,,,19,29,12,10,0.6,0.7
2026-01-25T0300,1112A,121.6301,38.9117,大连市,青泥洼桥,,39,,24,27,27,60,,,,15,32,12,12,0.5,0.7
2026-01-25T0300,1113A,121.6248,38.8643,大连市,傅家庄,,32,32,33,21,20,54,,,,18,25,11,11,0.6,0.6
2026-01-25T0300,1114A,121.5117,38.8636,大连市,七贤岭,,,41,35,23,21,,,,,13,23,9,10,0.5,0.6
2026-01-25T0300,1116A,121.7507,39.1339,大连市,金州,,46,41,38,32,28,66,,,,19,21,13,12,0.4,0.4
2026-01-25T0300,1117A,121.7811,39.0495,大连市,开发区,,30,30,74,16,26,73,,,,8,30,4,5,0.1,0.4
2026-01-25T0300,1118A,121.9762,39.0631,大连市,双D港,颗粒物(PM10),54,58,37,33,24,64,,,,17,14,12,12,0.5,0.6
2026-01-25T0300,4082A,121.2548,38.8188,大连市,旅顺,,30,30,35,20,26,51,,,,22,20,12,13,0.6,0.8
2026-01-25T0300,1789A,124.8085,46.0381,大庆市,大同区,,32,32,37,16,22,54,,,,12,14,5,6,0.7,0.7
2026-01-25T0300,1790A,125.1166,46.5255,大庆市,龙凤区,,33,33,36,21,19,53,,,,18,24,10,10,0.4,0.4
2026-01-25T0300,1791A,124.8894,46.4007,大庆市,红岗区,,32,32,28,21,15,40,,,,15,15,4,5,0.5,0.5
2026-01-25T0300,1792A,125.1391,46.578,大庆市,萨尔图区,,39,39,30,20,16,50,,,,16,23,8,9,0.6,0.6
2026-01-25T0300,1793A,124.9026,46.6217,大庆市,让胡路区,,33,29,28,23,19,69,,,,8,12,8,8,0.4,0.4
2026-01-25T0300,3481A,125.127,46.6277,大庆市,萨区政府监测点,,43,43,31,12,12,50,,,,15,22,8,9,0.6,0.6
2026-01-25T0300,1723A,113.2926,40.0759,大同市,云冈宾馆,颗粒物(PM10),53,55,72,30,39,18,,,,43,37,14,16,1.2,1.4
2026-01-25T0300,1724A,113.3437,40.0921,大同市,大同大学,,31,31,72,12,32,66,,,,12,28,7,17,0.5,1
2026-01-25T0300,1725A,113.2637,40.129,大同市,安家小村,颗粒物(PM10),71,92,95,46,47,6,,,,56,42,19,19,1.5,1.9
2026-01-25T0300,3282A,113.3399,40.0586,大同市,大同市卫生学校,,34,34,71,6,32,80,,,,9,33,2,16,0.4,1
2026-01-25T0300,3565A,113.1371,40.1122,大同市,云冈站,颗粒物(PM10),63,75,86,28,36,1,,,,48,41,11,21,0.8,0.9
2026-01-25T0300,3566A,113.1186,40.2556,大同市,图书馆,颗粒物(PM10),51,52,71,28,36,24,,,,21,24,6,9,1.1,1
2026-01-25T0300,3567A,113.5931,40.0459,大同市,区一中,,26,26,93,16,45,69,,,,10,26,7,18,1.4,1.9
2026-01-25T0300,4199A,113.2798248,40.09972476,大同市,魏都大道141号,颗粒物(PM10),63,75,95,24,42,16,,,,50,43,15,16,0.8,1.6
2026-01-25T0300,2269A,124.1068,50.4091,大兴安岭地区,科技局,,18,18,19,9,9,57,,,,1,3,4,4,0.2,0.2
2026-01-25T0300,3663A,124.117,50.4279,大兴安岭地区,红旗社区,,21,,15,10,16,66,,,,2,11,4,6,0.3,0.4
2026-01-25T0300,1600A,124.33,40.0625,丹东市,江湾东路,,28,28,45,15,26,44,,,,18,21,7,14,1.0,1.2
2026-01-25T0300,1601A,124.4242,40.1513,丹东市,临江后街,,25,25,34,12,21,47,,,,16,19,8,13,0.8,0.8
2026-01-25T0300,1602A,124.3935,40.1461,丹东市,元宝山,,23,23,35,10,21,54,,,,12,20,11,13,0.5,0.4
2026-01-25T0300,1603A,124.3634,40.1093,丹东市,民主桥,,31,31,37,15,22,46,,,,20,24,10,10,0.9,0.8
2026-01-25T0300,3541A,109.5726195,19.51688767,儋州市,第一中学子站,,23,15,27,7,13,72,,,,4,6,4,4,0.5,0.6
2026-01-25T0300,3542A,109.5567,19.5187,儋州市,东坡学校子站,,27,23,31,6,13,84,,,,5,6,3,3,0.5,0.6
2026-01-25T0300,2616A,98.5611,24.4273,德宏傣族景颇族自治州,德宏州监测站,细颗粒物(PM2.5),58,51,55,41,42,24,,,,23,25,6,6,0.7,0.7
2026-01-25T0300,3677A,98.5887,24.4366,德宏傣族景颇族自治州,芒市人民政府综合楼,,42,42,51,26,28,27,,,,10,15,4,5,0.7,0.7
2026-01-25T0300,1901A,104.424,31.1209,德阳市,东山公园,细颗粒物(PM2.5),95,76,73,71,65,0,,,,33,21,1,1,0.9,0.8
2026-01-25T0300,1902A,104.3827,31.1318,德阳市,西小区,细颗粒物(PM2.5),99,84,84,74,64,3,,,,38,34,2,3,0.9,0.9
2026-01-25T0300,1904A,104.3553,31.1091,德阳市,耐火材料厂,细颗粒物(PM2.5),100,80,84,75,70,1,,,,42,41,1,2,0.8,0.9
2026-01-25T0300,4145A,104.4144,31.1495,德阳市,市林业局,细颗粒物(PM2.5),112,,80,84,73,3,,,,41,35,3,3,0.9,0.9
2026-01-25T0300,1622A,116.3034,37.4675,德州市,儿童乐园,细颗粒物(PM2.5),178,168,174,134,135,17,,,,66,51,24,19,1.6,1.3
2026-01-25T0300,1624A,116.2992,37.4449,德州市,监理站,细颗粒物(PM2.5),140,141,175,107,135,33,,,,63,53,23,19,1.2,1.1
2026-01-25T0300,3066A,116.2722,37.438,德州市,九衢泉纯净水厂,细颗粒物(PM2.5),128,122,167,97,132,29,,,,54,54,17,13,1.3,1.3
2026-01-25T0300,3371A,116.3693,37.44,德州市,开发区人民医院,细颗粒物(PM2.5),149,151,174,114,131,25,,,,77,60,24,21,1.2,1
2026-01-25T0300,3511A,116.5687,37.3331,德州市,陵城艺术中心,细颗粒物(PM2.5),125,119,172,95,134,6,,,,62,63,28,30,1.1,1.2
2026-01-25T0300,4292A,116.352738,37.420875,德州市,新河东路,细颗粒物(PM2.5),122,117,158,92,135,28,,,,57,58,22,20,1.1,1.2
2026-01-25T0300,2621A,99.7054,27.8319,迪庆藏族自治州,迪庆州站,,25,23,31,17,23,51,,,,9,11,5,5,0.0,0.2
2026-01-25T0300,3180A,99.7122,27.8129,迪庆藏族自治州,质量技术监督局,,33,,24,23,17,57,,,,9,10,4,4,0.5,0.5
2026-01-25T0300,4257A,104.6092,35.5962,定西市,将台街,颗粒物(PM10),495,595,125,118,47,68,,,,17,20,9,12,0.6,0.7
2026-01-25T0300,4309A,104.6159,35.5701,定西市,正龙路62号,颗粒物(PM10),500,659,143,104,44,64,,,,13,10,5,8,0.8,0.6
2026-01-25T0300,1390A,113.7943,23.0132,东莞市,东城石井,细颗粒物(PM2.5),89,96,68,66,44,8,,,,90,45,6,8,0.9,0.8
2026-01-25T0300,1391A,113.7384,22.9659,东莞市,南城西平,,,111,69,64,49,1,,,,122,55,,8,1.0,0.8
2026-01-25T0300,3319A,113.7283,23.041,东莞市,万江金泰,细颗粒物(PM2.5),110,134,91,83,58,27,,,,83,61,,7,1.1,1
2026-01-25T0300,4129A,113.8666,23.1062,东莞市,裕兴路,颗粒物(PM10),88,126,77,64,40,29,,,,64,52,8,7,1.1,0.9
2026-01-25T0300,4130A,114.0076,22.9739,东莞市,教育路1号,细颗粒物(PM2.5),75,83,73,55,46,34,,,,63,39,4,6,0.8,0.8
2026-01-25T0300,4131A,113.7981,22.8124,东莞市,长怡路1号,颗粒物(PM10),74,97,81,50,46,41,,,,56,58,7,7,0.8,0.8
2026-01-25T0300,1666A,118.6612,37.4313,东营市,市环保局,细颗粒物(PM2.5),104,95,131,78,100,34,,,,36,52,7,20,0.9,1.2
2026-01-25T0300,3036A,118.6903,37.4337,东营市,开发区管委会,细颗粒物(PM2.5),110,100,130,83,105,36,,,,28,49,6,6,0.8,1
2026-01-25T0300,3365A,118.5721,37.5654,东营市,垦利区民丰路,细颗粒物(PM2.5),117,110,126,88,98,30,,,,36,53,6,11,0.8,1
2026-01-25T0300,3498A,118.5063,37.8606,东营市,河口城区,细颗粒物(PM2.5),104,117,118,78,83,42,,,,36,50,5,10,1.0,1.1
2026-01-25T0300,3646A,118.4979,37.4623,东营市,胜利站,细颗粒物(PM2.5),117,115,129,88,101,33,,,,33,55,7,15,0.9,1
2026-01-25T0300,3734A,118.5753,37.4405,东营市,理想之城,细颗粒物(PM2.5),122,114,130,92,101,24,,,,30,53,3,11,0.8,1.1
2026-01-25T0300,1591A,110.0024,39.8127,鄂尔多斯市,综合楼,颗粒物(PM10),109,168,120,36,36,6,,,,63,51,14,16,0.8,0.8
2026-01-25T0300,1592A,109.9485,39.8259,鄂尔多斯市,巴音孟克林场办事处,颗粒物(PM10),95,139,106,39,34,2,,,,63,48,15,17,0.8,0.7
2026-01-25T0300,1593A,109.7734,39.5987,鄂尔多斯市,康泽苑,,,117,88,32,32,,,,,51,38,17,12,0.7,0.7
2026-01-25T0300,1594A,109.8121,39.5987,鄂尔多斯市,华泰汽车城,颗粒物(PM10),80,110,84,31,30,15,,,,50,42,9,8,0.8,0.8
2026-01-25T0300,1595A,109.9734,39.7884,鄂尔多斯市,奥林花园,颗粒物(PM10),90,129,103,39,33,12,,,,62,51,12,11,0.8,0.8
2026-01-25T0300,2436A,114.894,30.3989,鄂州市,市政府,细颗粒物(PM2.5),52,51,74,36,67,56,,,,18,27,8,9,0.5,0.7
2026-01-25T0300,2437A,114.8986,30.3714,鄂州市,赵家坝,颗粒物(PM10),59,67,82,40,67,61,,,,6,26,10,11,0.7,0.9
2026-01-25T0300,3654A,114.8093,30.4091,鄂州市,精准医疗中心,细颗粒物(PM2.5),70,66,93,51,77,52,,,,22,37,40,21,1.4,1.3
2026-01-25T0300,2454A,109.4978,30.2979,恩施土家族苗族自治州,湖北民院,细颗粒物(PM2.5),72,52,65,52,68,29,,,,15,20,6,6,0.9,1
2026-01-25T0300,3549A,109.5061,30.3771,恩施土家族苗族自治州,龙凤新区,细颗粒物(PM2.5),67,59,69,48,59,23,,,,20,22,7,7,0.7,0.8
2026-01-25T0300,2499A,108.3411,21.6159,防城港市,沙万,细颗粒物(PM2.5),67,60,42,48,36,6,,,,31,19,6,5,1.0,0.9
2026-01-25T0300,2500A,108.3515,21.7733,防城港市,防城档案局,细颗粒物(PM2.5),64,52,45,46,39,14,,,,16,16,4,4,0.7,0.7
2026-01-25T0300,2501A,108.3506,21.6414,防城港市,大海花园,细颗粒物(PM2.5),62,55,39,44,36,8,,,,33,21,6,6,0.9,0.8
2026-01-25T0300,1371A,113.1293,23.0065,佛山市,湾梁,,,,74,,41,,,67,,,49,,,,
2026-01-25T0300,1372A,113.1082,23.0477,佛山市,华材职中,细颗粒物(PM2.5),122,132,96,92,60,5,,,,84,54,,8,1.3,0.9
2026-01-25T0300,1373A,113.1439,23.045,佛山市,南海气象局,细颗粒物(PM2.5),84,84,75,62,47,0,,,,101,60,/,/,/,/
2026-01-25T0300,1374A,113.2879,22.8094,佛山市,顺德苏岗,细颗粒物(PM2.5),94,93,69,70,54,1,,,,88,58,/,/,1.3,1.1
2026-01-25T0300,1376A,112.8384,22.8678,佛山市,高明孔堂,细颗粒物(PM2.5),79,84,70,58,54,14,,,,33,37,/,/,/,/
2026-01-25T0300,1377A,112.8835,23.1584,佛山市,三水监测站,细颗粒物(PM2.5),84,97,77,62,50,2,,,,64,51,6,7,1.1,1
2026-01-25T0300,1378A,112.8668,23.185,佛山市,三水云东海,颗粒物(PM10),69,87,63,49,42,0,,,,59,48,/,/,/,/
2026-01-25T0300,3625A,113.2568,22.7629,佛山市,容桂街道办,细颗粒物(PM2.5),132,151,98,100,63,2,,,,113,73,/,/,/,/
2026-01-25T0300,1282A,119.2681,26.0506,福州市,师大,,37,37,38,23,24,41,,,,32,28,4,3,0.7,0.7
2026-01-25T0300,1283A,119.2983,26.1028,福州市,五四北路,,32,31,32,22,25,46,,,,23,23,5,5,0.7,0.7
2026-01-25T0300,1284A,119.2648,26.0769,福州市,杨桥西路,,36,36,34,22,27,38,,,,27,21,5,4,/,/
2026-01-25T0300,3048A,119.5799,26.0937,福州市,九龙,,32,32,32,22,21,66,,,,20,21,6,6,0.9,0.8
2026-01-25T0300,3526A,119.5188,25.9666,福州市,吴航,,43,43,37,26,22,39,,,,41,26,6,6,0.5,0.5
2026-01-25T0300,4104A,119.3106,26.0648,福州市,路通桥巷6号,,39,39,41,27,30,44,,,,23,21,/,/,/,/
2026-01-25T0300,1755A,123.7974,41.8494,抚顺市,望花区,细颗粒物(PM2.5),114,111,102,86,63,5,,,,59,47,4,6,1.4,1.3
2026-01-25T0300,1756A,123.9161,41.8827,抚顺市,顺城区,细颗粒物(PM2.5),103,88,88,77,68,,,,,58,47,10,10,1.4,1.3
2026-01-25T0300,1757A,124.0437,41.8615,抚顺市,东洲区,颗粒物(PM10),60,69,78,42,46,29,,,,31,32,9,13,0.9,0.9
2026-01-25T0300,1758A,123.9246,41.8638,抚顺市,新抚区,细颗粒物(PM2.5),107,101,92,80,57,8,,,,55,48,4,6,1.1,1
2026-01-25T0300,1759A,124.0972,41.8961,抚顺市,大伙房水库,细颗粒物(PM2.5),57,49,49,40,34,19,,,,40,25,9,10,0.9,0.9
2026-01-25T0300,1760A,123.708,41.8386,抚顺市,沈抚新城,细颗粒物(PM2.5),80,81,78,59,47,9,,,,61,50,5,8,1.5,1.1
2026-01-25T0300,2377A,116.3544,27.9833,抚州市,市站,,,74,77,57,54,,,,,25,32,16,10,1.0,1
2026-01-25T0300,2378A,116.3562,27.9631,抚州市,血防站,细颗粒物(PM2.5),79,80,74,58,53,19,,,,36,38,20,8,1.5,1.5
2026-01-25T0300,2379A,116.3561,28.0007,抚州市,采茶剧团,,,70,73,57,53,,,,,23,28,7,9,1.3,1.3
2026-01-25T0300,2380A,116.3854,27.9648,抚州市,医学分院,,,84,78,56,49,,,,,30,33,42,10,1.1,1.1
2026-01-25T0300,2207A,121.6095,41.9978,阜新市,工业园区,,33,33,52,3,16,50,,,,13,23,11,13,0.4,0.5
2026-01-25T0300,2208A,121.6567,42.0188,阜新市,长青街,,22,7,22,3,11,68,,,,5,12,8,8,0.3,0.4
2026-01-25T0300,2209A,121.6672,42.07,阜新市,农业园区,,25,25,19,13,5,56,,,,9,8,20,8,0.3,0.2
2026-01-25T0300,2211A,121.6343,42.0455,阜新市,玉龙新城,,27,27,41,3,20,44,,,,15,27,5,6,0.4,0.7
2026-01-25T0300,2301A,115.8276,32.8929,阜阳市,市监测站,细颗粒物(PM2.5),129,124,117,98,94,55,,,,22,31,,5,0.6,0.7
2026-01-25T0300,2303A,115.8551,32.8606,阜阳市,开发区,细颗粒物(PM2.5),120,99,107,91,90,49,,,,27,37,4,5,0.5,0.5
2026-01-25T0300,2875A,115.783962,32.889217,阜阳市,阜阳职业技术学院,,,,106,,90,,,69,,,27,,8,,0.9
2026-01-25T0300,3468A,115.79,32.8614,阜阳市,市规划展馆,细颗粒物(PM2.5),128,121,111,97,92,60,,,,21,24,7,6,0.7,0.6
2026-01-25T0300,3469A,115.835101,32.918568,阜阳市,枣园社区,细颗粒物(PM2.5),127,120,115,96,95,56,,,,19,28,5,5,0.7,0.6
2026-01-25T0300,2669A,102.9097,34.9841,甘南藏族自治州,州政府,颗粒物(PM10),68,86,55,39,30,2,,,,41,30,15,13,1.6,1
2026-01-25T0300,3380A,102.8915,34.9618,甘南藏族自治州,甘肃民族师范学院,颗粒物(PM10),69,88,60,25,20,4,,,,45,29,14,13,0.4,0.4
2026-01-25T0300,2570A,101.96,30.048,甘孜藏族自治州,水桥子,,26,26,27,3,10,34,,,,20,26,7,7,0.4,0.4
2026-01-25T0300,3065A,101.9534,29.9976,甘孜藏族自治州,州环保局,,24,16,28,3,7,76,,,,3,13,5,6,0.4,0.4
2026-01-25T0300,2363A,114.9368,25.8663,赣州市,地委,颗粒物(PM10),64,78,85,42,38,15,,,,32,30,7,7,1.1,0.9
2026-01-25T0300,2364A,114.946,25.8483,赣州市,气象台,,,78,74,37,32,,,,,43,40,8,7,0.7,0.7
2026-01-25T0300,2365A,114.932,25.8332,赣州市,市图书馆,颗粒物(PM10),63,76,62,42,38,3,,,,44,35,4,4,1.1,1
2026-01-25T0300,2366A,114.8905,25.8472,赣州市,华坚鞋城,颗粒物(PM10),65,79,64,34,35,4,,,,38,32,10,7,0.8,0.7
2026-01-25T0300,3109A,115.0094,25.8614,赣州市,赣县区卫计委,细颗粒物(PM2.5),67,,56,48,50,0,,,,31,29,7,7,0.8,0.8
2026-01-25T0300,2684A,106.2753,36.0057,固原市,监测站,颗粒物(PM10),500,1333,251,150,70,62,,,,10,16,5,6,0.5,0.6
2026-01-25T0300,2685A,106.2384,36.0189,固原市,新区,颗粒物(PM10),500,1288,230,135,75,65,,,,6,15,6,7,0.5,0.7
2026-01-25T0300,2544A,106.6307,30.4577,广安市,市委,细颗粒物(PM2.5),79,66,59,58,45,51,,,,12,18,9,9,0.8,0.9
2026-01-25T0300,2545A,106.6266,30.4662,广安市,友谊中学,细颗粒物(PM2.5),63,58,51,45,43,51,,,,14,20,6,6,0.7,0.8
2026-01-25T0300,2547A,106.6386,30.4551,广安市,广电花园,,,64,59,54,46,48,,,,12,17,,5,0.8,0.8
2026-01-25T0300,2902A,106.6347,30.4868,广安市,北辰小学,,,59,53,48,42,52,,,,13,17,,5,1.0,1.1
2026-01-25T0300,2524A,105.8211,32.4444,广元市,老城,细颗粒物(PM2.5),68,59,69,49,53,27,,,,32,38,1,3,0.7,0.9
2026-01-25T0300,2526A,105.8629,32.429,广元市,监测站,细颗粒物(PM2.5),73,66,71,53,53,35,,,,27,31,6,9,1.0,1.1
2026-01-25T0300,3617A,105.8047,32.4167,广元市,经开区,颗粒物(PM10),57,63,60,36,46,10,,,,39,29,2,3,0.8,0.9
2026-01-25T0300,1345A,113.2346,23.1423,广州市,广雅中学,颗粒物(PM10),74,97,82,52,48,1,,,,84,56,3,4,1.6,1.4
2026-01-25T0300,1346A,113.2611,23.105,广州市,市五中,颗粒物(PM10),66,82,71,42,41,3,,,,95,67,10,10,/,/
2026-01-25T0300,1348A,113.3477,23.0916,广州市,广东商学院,细颗粒物(PM2.5),105,103,71,79,61,1,,,,95,57,6,7,1.0,0.9
2026-01-25T0300,1349A,113.4332,23.105,广州市,市八十六中,"颗粒物(PM10),细颗粒物(PM2.5)",70,89,68,51,44,1,,,,92,58,11,9,/,/
2026-01-25T0300,1350A,113.3506,22.9488,广州市,番禺中学,颗粒物(PM10),107,163,79,78,44,5,,,,88,59,2,3,1.4,0.9
2026-01-25T0300,1351A,113.2147,23.3918,广州市,花都师范,细颗粒物(PM2.5),78,92,64,57,42,0,,,,91,48,6,8,1.2,0.9
2026-01-25T0300,1352A,113.2599,23.1329,广州市,市监测站,,,100,82,60,51,2,,,,85,58,,4,/,/
2026-01-25T0300,1353A,113.5618,23.3119,广州市,九龙镇镇龙,细颗粒物(PM2.5),77,92,76,56,47,0,,,,56,44,5,7,0.9,0.7
2026-01-25T0300,1354A,113.2764,23.1544,广州市,麓湖,,,59,59,45,40,2,,,,69,49,,10,1.1,0.9
2026-01-25T0300,2846A,113.3209,23.1323,广州市,体育西,,,90,73,55,46,1,,,,88,53,,8,1.3,1
2026-01-25T0300,3298A,113.5718,23.5493,广州市,从化街口,,,70,59,46,41,0,,,,53,34,,15,0.8,0.7
2026-01-25T0300,3299A,113.3463,23.369,广州市,白云竹料,颗粒物(PM10),74,97,72,50,43,3,,,,60,45,4,7,1.2,1
2026-01-25T0300,3300A,113.2981,23.2365,广州市,白云嘉禾,颗粒物(PM10),68,86,76,48,43,0,,,,78,53,6,8,/,/
2026-01-25T0300,3301A,113.4256,23.1716,广州市,黄埔科学城,颗粒物(PM10),65,79,59,42,36,0,,,,73,48,7,8,0.8,0.6
2026-01-25T0300,3302A,113.3942,23.0485,广州市,番禺大学城,细颗粒物(PM2.5),87,119,83,64,46,2,,,,95,56,8,7,1.0,0.8
2026-01-25T0300,3303A,113.4923,22.8169,广州市,南沙黄阁,细颗粒物(PM2.5),114,,46,86,53,40,,,,47,58,5,8,/,/
2026-01-25T0300,3304A,113.534,22.7893,广州市,南沙街,细颗粒物(PM2.5),84,83,81,62,52,39,,,,57,46,7,8,0.8,0.9
2026-01-25T0300,3443A,113.2905,23.5541,广州市,花都梯面,,35,33,43,24,28,1,,,,25,26,5,7,/,/
2026-01-25T0300,3445A,113.786,23.7479,广州市,从化良口,,28,24,33,19,28,28,,,,17,17,7,8,/,/
2026-01-25T0300,3446A,113.805,23.2614,广州市,增城荔城,"颗粒物(PM10),细颗粒物(PM2.5)",67,84,49,48,35,8,,,,51,31,5,6,0.8,0.8
2026-01-25T0300,2506A,109.604387,23.066791,贵港市,江南子站,细颗粒物(PM2.5),92,73,56,68,53,19,,,,19,19,4,4,1.0,0.9
2026-01-25T0300,2508A,109.5669,23.1065,贵港市,荷城子站,细颗粒物(PM2.5),73,63,47,53,41,18,,,,22,22,5,4,1.1,1
2026-01-25T0300,3405A,109.5886,23.1172,贵港市,新世纪学校,,,,52,,43,,,26,,,20,,,,0.6
2026-01-25T0300,4260A,109.5933,23.095,贵港市,中山路155-3号,细颗粒物(PM2.5),79,69,54,58,44,14,,,,26,20,/,/,0.9,0.9
2026-01-25T0300,1439A,106.6863,26.6035,贵阳市,马鞍山,,20,17,45,14,37,32,,,,11,18,4,8,/,/
2026-01-25T0300,1441A,106.6241,26.6266,贵阳市,鉴湖路,,22,22,52,9,34,37,,,,10,17,1,4,0.5,0.6
2026-01-25T0300,1442A,106.7468,26.6344,贵阳市,燕子冲,,25,,38,17,45,38,,,,10,15,8,11,0.6,0.7
2026-01-25T0300,1443A,106.6556,26.4362,贵阳市,碧云窝,,24,24,55,12,35,35,,,,12,13,4,3,/,/
2026-01-25T0300,1445A,106.6963,26.6063,贵阳市,红边门,,32,22,51,22,42,32,,,,17,21,5,9,/,/
2026-01-25T0300,1446A,106.7162383,26.56964667,贵阳市,新华路,,17,17,54,9,36,34,,,,17,21,4,8,0.6,0.7
2026-01-25T0300,1447A,106.6742,26.542,贵阳市,太慈桥,,13,12,46,9,35,34,,,,13,19,4,6,/,/
2026-01-25T0300,4230A,106.688212,26.56952,贵阳市,花果园大街66号,,19,14,38,13,48,28,,,,12,19,1,5,/,/
2026-01-25T0300,4231A,106.687268,26.516892,贵阳市,漓江路57号,,19,19,49,7,37,36,,,,12,20,7,10,0.5,0.6
2026-01-25T0300,1864A,110.3091,25.2705,桂林市,龙隐路小学,细颗粒物(PM2.5),94,84,58,70,56,15,,,,23,19,23,10,0.8,0.8
2026-01-25T0300,1865A,110.2849361,25.22909545,桂林市,八中,细颗粒物(PM2.5),100,87,58,75,55,12,,,,41,26,31,13,0.5,0.5
2026-01-25T0300,3531A,110.296,25.1254,桂林市,旅游学院,细颗粒物(PM2.5),73,73,58,53,44,13,,,,32,20,5,6,0.6,0.5
2026-01-25T0300,4222A,110.1835,25.2444,桂林市,环湖路276号,细颗粒物(PM2.5),92,78,58,68,47,6,,,,36,21,32,15,0.8,0.8
2026-01-25T0300,4301A,110.2803,25.2773,桂林市,信义路13号,细颗粒物(PM2.5),93,83,58,69,50,9,,,,41,24,22,11,1.1,0.9
2026-01-25T0300,2674A,100.2262,34.4854,果洛藏族自治州,玛沁县大武镇,颗粒物(PM10),60,70,57,11,11,27,,,,16,9,18,15,0.7,0.5
2026-01-25T0300,1130A,126.5557,45.8109,哈尔滨市,松北商大,细颗粒物(PM2.5),68,,62,49,60,38,,,,27,38,5,13,0.6,0.7
2026-01-25T0300,1132A,126.6162,45.719,哈尔滨市,南岗学府路,,,51,63,32,48,,,,,28,27,14,12,0.7,0.8
2026-01-25T0300,1133A,126.6894,45.7733,哈尔滨市,太平宏伟公园,,33,27,48,23,41,56,,,,17,22,13,19,0.5,0.6
2026-01-25T0300,1134A,126.6361,45.7672,哈尔滨市,道外承德广场,颗粒物(PM10),53,56,66,31,40,57,,,,21,27,8,12,0.6,0.6
2026-01-25T0300,1136A,126.644,45.7261,哈尔滨市,动力和平路,,,34,51,23,41,,,,,16,25,7,13,0.7,0.7
2026-01-25T0300,1137A,126.5933,45.7479,哈尔滨市,道里建国路,细颗粒物(PM2.5),53,38,55,37,49,46,,,,28,30,10,10,0.4,0.4
2026-01-25T0300,1138A,126.6127,45.6119,哈尔滨市,平房东轻厂,细颗粒物(PM2.5),100,80,77,75,69,15,,,,53,57,8,15,1.2,1.2
2026-01-25T0300,1139A,126.5875,45.9827,哈尔滨市,呼兰师专,细颗粒物(PM2.5),70,,79,51,69,36,,,,20,35,7,10,0.7,0.9
2026-01-25T0300,1140A,126.6299,45.6799,哈尔滨市,省农科院,细颗粒物(PM2.5),100,86,90,75,80,7,,,,65,47,13,19,1.2,1.1
2026-01-25T0300,4282A,126.6769,45.7379,哈尔滨市,华山路1号,,32,27,44,22,34,55,,,,18,26,12,18,0.3,0.4
2026-01-25T0300,4283A,126.9717,45.5356,哈尔滨市,解放大街52号,细颗粒物(PM2.5),107,106,79,80,62,,,,,39,33,13,16,1.2,0.9
2026-01-25T0300,2688A,93.5124,42.8176,哈密市,地区监测站,颗粒物(PM10),72,93,115,49,44,35,,,,18,22,8,12,0.3,0.2
2026-01-25T0300,2689A,93.5014,42.8312,哈密市,哈密师范学校,颗粒物(PM10),80,110,115,39,36,36,,,,26,27,5,11,0.8,0.7
2026-01-25T0300,2671A,100.9016,36.9464,海北藏族自治州,海晏县西海镇,,42,42,32,12,12,35,,,,5,6,9,7,0.4,0.5
2026-01-25T0300,3867A,102.074,36.5056,海东市,平安区公安局北苑,颗粒物(PM10),175,300,102,83,45,58,,,,15,30,25,27,0.9,1.3
2026-01-25T0300,4163A,102.0984,36.5119,海东市,滨河路,颗粒物(PM10),228,369,114,101,47,65,,,,23,43,29,25,0.7,1.1
2026-01-25T0300,1410A,110.3189,20.0596,海口市,海南大学,,28,19,45,11,30,89,,,,14,19,5,6,0.4,0.6
2026-01-25T0300,1411A,110.2827,20.0051,海口市,秀英海南医院,,27,27,45,11,25,72,,,,20,20,8,8,0.4,0.5
2026-01-25T0300,1412A,110.3391,19.9979,海口市,海南师范大学,,26,26,44,11,28,82,,,,14,22,6,6,0.5,0.6
2026-01-25T0300,1413A,110.3303,20.0359,海口市,龙华路环保局宿舍,,27,27,44,11,29,85,,,,13,21,/,/,0.7,0.9
2026-01-25T0300,3539A,110.5111,19.9737,海口市,桂林洋子站,,24,16,42,11,27,76,,,,10,18,/,/,/,/
2026-01-25T0300,4134A,110.1952,20.0451,海口市,长滨二路9号,,26,16,40,12,31,83,,,,12,16,/,/,/,/
2026-01-25T0300,2673A,100.6158,36.2985,海南藏族自治州,共和县恰卜恰镇,颗粒物(PM10),56,61,44,13,22,38,,,,14,23,10,15,0.7,0.8
2026-01-25T0300,2676A,97.373,37.376,海西蒙古族藏族自治州,德令哈市,颗粒物(PM10),461,561,95,75,17,59,,,,15,10,13,16,0.9,0.7
2026-01-25T0300,1049A,114.492,36.5712,邯郸市,矿院,细颗粒物(PM2.5),277,,196,227,202,47,,,,35,49,6,6,1.2,1.2
2026-01-25T0300,1050A,114.4839,36.6136,邯郸市,丛台公园,细颗粒物(PM2.5),272,243,218,222,206,44,,,,43,51,5,5,1.3,1.2
2026-01-25T0300,3458A,114.7893,36.5592,邯郸市,香泉濮院小区,细颗粒物(PM2.5),264,272,207,214,173,25,,,,58,51,7,6,1.4,1.2
2026-01-25T0300,3580A,114.1998,36.4439,邯郸市,峰峰矿区临水派出所,细颗粒物(PM2.5),208,164,165,158,164,86,,,,18,33,7,11,1.0,1.3
2026-01-25T0300,4068A,114.5209,36.7697,邯郸市,建安街268号,细颗粒物(PM2.5),245,200,222,195,225,39,,,,45,66,7,6,1.2,1.4
2026-01-25T0300,4069A,114.5488,36.6177,邯郸市,丛台东路558号,细颗粒物(PM2.5),286,,209,236,219,31,,,,47,62,6,8,1.4,1.3
2026-01-25T0300,2635A,107.0155,33.0707,汉中市,市监测站,细颗粒物(PM2.5),124,112,84,94,74,5,,,,36,37,5,6,1.6,1.4
2026-01-25T0300,2636A,107.0083,33.114,汉中市,鑫源开发区,细颗粒物(PM2.5),109,85,78,82,71,5,,,,41,36,,5,1.2,1.1
2026-01-25T0300,2637A,107.0072,33.0323,汉中市,南郑大河坎水厂,细颗粒物(PM2.5),129,114,91,98,75,2,,,,35,35,7,7,1.6,1.4
2026-01-25T0300,1223A,120.2073,30.2111,杭州市,滨江,细颗粒物(PM2.5),150,142,117,115,90,42,,,,46,59,10,9,0.7,0.7
2026-01-25T0300,1224A,120.0625,30.2737,杭州市,西溪,细颗粒物(PM2.5),128,123,95,97,74,0,,,,85,51,,10,0.8,0.7
2026-01-25T0300,1226A,120.3417,30.315,杭州市,下沙,细颗粒物(PM2.5),127,134,114,96,83,36,,,,52,62,10,11,0.9,0.8
2026-01-25T0300,1227A,120.1252,30.2465,杭州市,卧龙桥,细颗粒物(PM2.5),107,100,97,80,73,25,,,,34,55,10,10,0.6,0.6
2026-01-25T0300,1228A,120.1902,30.2691,杭州市,浙江农大,细颗粒物(PM2.5),132,127,113,100,87,39,,,,57,62,8,8,0.8,0.8
2026-01-25T0300,1230A,120.1195,30.3121,杭州市,和睦小学,细颗粒物(PM2.5),122,126,116,92,81,28,,,,62,51,7,8,0.9,0.9
2026-01-25T0300,1231A,120.3076,30.4146,杭州市,临平镇,细颗粒物(PM2.5),119,120,117,90,82,40,,,,41,52,8,9,0.8,0.9
2026-01-25T0300,1232A,120.2753,30.1839,杭州市,城厢镇,细颗粒物(PM2.5),134,139,113,102,80,18,,,,78,67,12,11,0.7,0.5
2026-01-25T0300,1233A,120.0883,30.1808,杭州市,云栖,细颗粒物(PM2.5),102,104,102,76,68,21,,,,36,56,5,5,0.7,0.6
2026-01-25T0300,3557A,119.9463,30.0496,杭州市,镇二中,细颗粒物(PM2.5),134,102,91,102,84,10,,,,72,59,7,7,0.9,0.9
2026-01-25T0300,3558A,119.7184,30.2367,杭州市,市府大楼,细颗粒物(PM2.5),152,132,97,116,82,5,,,,58,45,,11,1.3,1.2
2026-01-25T0300,3656A,120.1554,30.2863,杭州市,消防大队,细颗粒物(PM2.5),133,122,107,101,86,44,,,,42,51,,10,0.5,0.6
2026-01-25T0300,1270A,117.1957,31.7845,合肥市,明珠广场,细颗粒物(PM2.5),113,105,94,85,68,32,,,,49,42,10,8,1.0,0.9
2026-01-25T0300,1271A,117.307,31.8765,合肥市,三里街,细颗粒物(PM2.5),104,102,97,78,69,4,,,,79,56,6,7,1.1,0.9
2026-01-25T0300,1272A,117.2587,31.8703,合肥市,琥珀山庄,细颗粒物(PM2.5),114,102,94,86,76,15,,,,74,54,8,9,1.3,1.1
2026-01-25T0300,1275A,117.2593,31.9376,合肥市,庐阳区,细颗粒物(PM2.5),98,110,105,73,69,23,,,,70,62,9,9,1.2,0.9
2026-01-25T0300,1276A,117.345251,31.861615,合肥市,瑶海区,细颗粒物(PM2.5),104,110,99,78,71,16,,,,74,60,6,7,0.9,0.8
2026-01-25T0300,1277A,117.3033,31.7967,合肥市,包河区,细颗粒物(PM2.5),113,114,100,85,76,4,,,,105,74,11,10,1.1,0.9
2026-01-25T0300,1278A,117.278,31.7392,合肥市,滨湖新区,细颗粒物(PM2.5),119,105,90,90,75,44,,,,38,38,5,5,1.0,0.9
2026-01-25T0300,1279A,117.1324,31.8395,合肥市,高新区,细颗粒物(PM2.5),112,110,88,84,67,48,,,,50,49,9,6,1.0,0.9
2026-01-25T0300,3464A,117.3802,31.9148,合肥市,高教基地,细颗粒物(PM2.5),112,92,90,84,77,16,,,,45,45,8,10,1.0,0.9
2026-01-25T0300,4098A,117.2518,31.8404,合肥市,中国科学技术大学,细颗粒物(PM2.5),104,102,93,78,65,31,,,,55,41,12,11,1.2,1
2026-01-25T0300,3614A,79.9241,37.0878,和田地区,地区环保局,颗粒物(PM10),500,613,436,171,111,35,,,,25,25,2,4,0.9,0.7
2026-01-25T0300,3615A,79.9132,37.1137,和田地区,市环保局,颗粒物(PM10),455,555,430,95,116,48,,,,8,28,1,4,0.6,1.5
2026-01-25T0300,2517A,108.0496,24.6957,河池市,市环保站,细颗粒物(PM2.5),59,47,50,42,38,31,,,,13,13,3,6,0.8,0.7
2026-01-25T0300,4302A,108.0901,24.6945,河池市,上任中路54号,细颗粒物(PM2.5),82,,51,60,45,31,,,,12,14,4,11,0.7,0.7
2026-01-25T0300,1697A,114.6962,23.7538,河源市,东埔,细颗粒物(PM2.5),54,46,44,38,39,4,,,,52,33,6,6,0.6,0.6
2026-01-25T0300,1698A,114.6895,23.7232,河源市,老城,,,52,44,36,29,34,,,,35,21,,6,0.8,0.7
2026-01-25T0300,3374A,115.5562,35.089,菏泽市,定陶老年大学,细颗粒物(PM2.5),206,188,136,156,115,,,,,48,35,8,5,1.0,0.7
2026-01-25T0300,4114A,115.4239,35.2593,菏泽市,黄河路600号,细颗粒物(PM2.5),223,195,139,173,120,45,,,,49,32,3,4,1.1,0.8
2026-01-25T0300,4115A,115.5025,35.2727,菏泽市,菏泽市人社局,细颗粒物(PM2.5),221,204,145,171,124,30,,,,47,36,10,9,1.1,0.8
2026-01-25T0300,4184A,115.479691,35.244011,菏泽市,永昌路1号,细颗粒物(PM2.5),224,202,145,174,119,42,,,,49,32,6,4,0.9,0.5
2026-01-25T0300,4193A,115.471542,35.280012,菏泽市,长城路999号,细颗粒物(PM2.5),214,195,137,164,113,36,,,,51,35,14,12,1.2,0.9
2026-01-25T0300,2514A,111.5264,24.4178,贺州市,环保小区,细颗粒物(PM2.5),98,101,69,73,56,3,,,,38,27,4,9,1.0,0.8
2026-01-25T0300,2515A,111.561,24.4074,贺州市,政协大楼,细颗粒物(PM2.5),102,90,67,76,53,2,,,,40,27,11,15,1.1,0.8
2026-01-25T0300,3534A,111.4744,24.455,贺州市,西湾,细颗粒物(PM2.5),100,98,72,75,53,11,,,,28,22,8,12,1.0,0.8
2026-01-25T0300,2385A,114.17,35.9019,鹤壁市,市监测站,细颗粒物(PM2.5),285,261,210,235,188,62,,,,31,35,6,6,1.4,1.5
2026-01-25T0300,2386A,114.2953,35.7512,鹤壁市,市交警支队,细颗粒物(PM2.5),312,272,189,262,171,43,,,,44,48,5,4,1.3,1.1
2026-01-25T0300,2387A,114.2877,35.7302,鹤壁市,迎宾馆,细颗粒物(PM2.5),273,256,183,223,158,50,,,,35,41,7,4,1.4,1.1
2026-01-25T0300,3474A,114.2616,35.6824,鹤壁市,大新区,细颗粒物(PM2.5),293,269,183,243,173,57,,,,25,40,8,6,1.4,1.2
2026-01-25T0300,3596A,114.1573,35.9607,鹤壁市,南山宾馆,细颗粒物(PM2.5),289,278,222,239,196,65,,,,32,38,7,8,1.3,1.5
2026-01-25T0300,2244A,130.2537,47.3416,鹤岗市,哈啤分公司,,26,26,26,6,18,78,,,,3,8,6,6,0.2,0.3
2026-01-25T0300,2245A,130.2683,47.3087,鹤岗市,斯达机电,,24,24,30,10,13,76,,,,4,8,4,5,0.4,0.4
2026-01-25T0300,2246A,130.3114,47.3388,鹤岗市,东山纸板厂,,26,26,32,16,21,76,,,,2,15,6,7,0.4,0.6
2026-01-25T0300,2263A,127.4832,50.2524,黑河市,交通局,,,,17,13,17,,,,,2,6,4,4,0.2,0.2
2026-01-25T0300,2264A,127.5146,50.2339,黑河市,环保局,,24,12,14,9,9,74,,,,7,8,4,4,0.3,0.3
2026-01-25T0300,1074A,115.6839,37.754,衡水市,电机北厂,细颗粒物(PM2.5),224,215,201,174,170,6,,,,78,52,14,13,1.3,1.1
2026-01-25T0300,1075A,115.6303,37.7318,衡水市,市监测站,细颗粒物(PM2.5),219,200,182,169,156,3,,,,76,47,12,12,1.3,1.1
2026-01-25T0300,3188A,115.6684,37.7216,衡水市,市城管局,细颗粒物(PM2.5),188,192,191,141,147,16,,,,72,58,17,13,1.2,1.2
2026-01-25T0300,3459A,115.599,37.5491,衡水市,地表水厂,细颗粒物(PM2.5),213,163,172,163,175,10,,,,77,57,15,16,1.2,1.1
2026-01-25T0300,2457A,112.6209,26.9268,衡阳市,衡阳化工总厂,,49,42,47,34,36,28,,,,15,20,10,10,1.0,1.1
2026-01-25T0300,2458A,112.621,26.8957,衡阳市,珠晖区环保局,细颗粒物(PM2.5),57,50,49,40,37,19,,,,33,28,7,7,1.0,1
2026-01-25T0300,2459A,112.628,26.8654,衡阳市,市委党校,,,43,42,35,34,33,,,,15,15,,12,1.1,1.1
2026-01-25T0300,2460A,112.6007,26.8977,衡阳市,市监测站,细颗粒物(PM2.5),64,70,66,46,38,10,,,,38,29,8,8,1.3,1.2
2026-01-25T0300,2461A,112.5658,26.9013,衡阳市,真空机电公司,,,66,65,43,42,15,,,,34,35,,11,1.4,1.3
2026-01-25T0300,3399A,112.6703,26.8817,衡阳市,师范学院,,49,46,43,34,30,27,,,,24,21,9,5,0.9,0.8
2026-01-25T0300,3038A,103.3757,23.3679,红河哈尼族彝族自治州,州图书馆,,43,43,25,30,15,27,,,,17,7,9,7,0.7,0.6
2026-01-25T0300,4154A,103.401,23.3561,红河哈尼族彝族自治州,蒙自市朝阳路,,32,,18,22,15,48,,,,12,5,10,7,0.6,0.6
2026-01-25T0300,1090A,111.6506,40.7517,呼和浩特市,呼市一监,,27,27,53,6,23,67,,,,8,27,11,13,0.4,0.8
2026-01-25T0300,1094A,111.7516,40.8369,呼和浩特市,如意水处理厂,,22,22,49,6,25,66,,,,12,30,8,11,0.4,0.7
2026-01-25T0300,1095A,111.727798,40.806187,呼和浩特市,二十九中,,32,32,55,6,22,69,,,,8,26,10,12,0.2,0.6
2026-01-25T0300,1097A,111.717,40.7617,呼和浩特市,化肥厂生活区,,,36,60,6,24,,,,,8,26,5,7,0.4,0.9
2026-01-25T0300,3699A,111.6519,40.8389,呼和浩特市,海东办,,22,22,47,9,23,44,,,,30,35,5,6,0.5,0.7
2026-01-25T0300,4275A,111.591512,40.827312,呼和浩特市,成吉思汗西街8号,,29,17,46,8,21,8,,,,58,42,5,7,0.5,0.7
2026-01-25T0300,4276A,111.6597,40.8077,呼和浩特市,公园东路75号,,,31,54,7,22,,,,,21,35,5,7,0.5,0.7
2026-01-25T0300,4277A,111.5427,40.7846,呼和浩特市,金海路35号,,26,26,47,7,22,44,,,,30,40,11,10,0.5,0.6
2026-01-25T0300,3061A,119.7511,49.1576,呼伦贝尔市,国华电力东,,38,38,28,20,17,58,,,,14,16,5,7,0.5,0.4
2026-01-25T0300,4279A,119.7569,49.2222,呼伦贝尔市,伊敏大街东7号,,32,32,32,18,21,59,,,,10,19,6,7,0.1,0.3
2026-01-25T0300,1250A,120.075,30.867,湖州市,城西水厂,,,109,99,69,68,55,,,,35,50,,8,0.6,0.6
2026-01-25T0300,2873A,120.083,30.8929,湖州市,仁皇山新区,细颗粒物(PM2.5),123,113,110,93,87,46,,,,50,69,6,8,0.8,0.9
2026-01-25T0300,2907A,120.1846,30.8592,湖州市,吴兴区站,细颗粒物(PM2.5),114,107,108,86,88,40,,,,60,68,6,8,0.7,0.8
2026-01-25T0300,3562A,120.4146,30.8538,湖州市,南浔区站,细颗粒物(PM2.5),103,101,104,77,80,35,,,,45,50,,10,0.6,0.8
2026-01-25T0300,1607A,120.904878,40.721091,葫芦岛市,龙港区,颗粒物(PM10),57,64,92,33,63,10,,,,64,52,31,37,1.1,1.4
2026-01-25T0300,1608A,120.8382,40.7521,葫芦岛市,化工街,颗粒物(PM10),54,58,85,31,57,28,,,,48,52,10,47,0.6,1
2026-01-25T0300,1609A,120.8339,40.7078,葫芦岛市,新区,,49,48,68,34,53,9,,,,64,57,20,36,1.1,1.3
2026-01-25T0300,1610A,120.8697,40.7679,葫芦岛市,东城区,,,31,78,20,55,53,,,,18,52,17,49,,1.3
2026-01-25T0300,2483A,109.9297,27.5383,怀化市,河西地税局,细颗粒物(PM2.5),125,128,89,95,68,4,,,,49,35,3,3,/,/
2026-01-25T0300,2484A,109.9783,27.5342,怀化市,市四医院,细颗粒物(PM2.5),124,123,95,94,69,0,,,,48,36,11,9,1.3,1
2026-01-25T0300,2485A,109.9971,27.5579,怀化市,监测楼,细颗粒物(PM2.5),130,125,93,99,71,0,,,,48,34,6,5,0.8,0.6
2026-01-25T0300,1210A,119.0566,33.5991,淮安市,钵池山,细颗粒物(PM2.5),132,100,103,100,94,58,,,,21,34,6,7,0.6,0.6
2026-01-25T0300,1211A,119.0083,33.578,淮安市,北京南路,细颗粒物(PM2.5),123,100,105,93,90,61,,,,18,38,7,8,0.6,0.8
2026-01-25T0300,1212A,118.9938,33.6083,淮安市,市监测站,细颗粒物(PM2.5),122,92,96,92,91,68,,,,22,34,,10,0.9,1
2026-01-25T0300,1213A,119.135,33.5038,淮安市,楚州区监测站,细颗粒物(PM2.5),129,103,106,98,94,60,,,,21,44,8,10,0.5,0.5
2026-01-25T0300,3426A,118.8757,33.2897,淮安市,新华书店,细颗粒物(PM2.5),129,108,106,98,92,43,,,,29,36,8,9,0.8,0.9
2026-01-25T0300,4092A,119.119691,33.550006,淮安市,枚皋中路89号,细颗粒物(PM2.5),137,116,114,104,97,73,,,,20,33,8,9,0.9,0.7
2026-01-25T0300,4206A,119.028838,33.631911,淮安市,承德北路606号,细颗粒物(PM2.5),123,119,120,93,91,54,,,,26,37,,8,0.7,0.8
2026-01-25T0300,2282A,116.8005,33.9749,淮北市,监测站,细颗粒物(PM2.5),108,102,118,81,91,75,,,,14,24,4,5,0.6,0.8
2026-01-25T0300,2283A,116.8094,33.9008,淮北市,烈山区政府,细颗粒物(PM2.5),110,99,105,83,91,84,,,,16,22,3,5,0.5,0.6
2026-01-25T0300,4017A,116.7926,33.9534,淮北市,市博物馆,细颗粒物(PM2.5),115,102,123,87,97,73,,,,20,24,9,9,0.6,0.8
2026-01-25T0300,4100A,116.8322,33.9884,淮北市,杜集区第一实验学校,细颗粒物(PM2.5),127,114,121,96,103,63,,,,23,23,7,8,0.8,0.9
2026-01-25T0300,2277A,116.8304,32.7726,淮南市,潘集区政府,细颗粒物(PM2.5),123,101,112,93,94,50,,,,24,33,5,7,0.5,0.7
2026-01-25T0300,2279A,116.8569,32.5949,淮南市,谢家集区政府,细颗粒物(PM2.5),114,109,94,86,70,31,,,,34,31,7,9,0.8,0.8
2026-01-25T0300,2280A,116.8279,32.6333,淮南市,八公山区政府,细颗粒物(PM2.5),123,110,96,93,79,40,,,,28,27,3,7,0.8,0.8
2026-01-25T0300,2894A,117.0561,32.6536,淮南市,经济技术开发区消防队,细颗粒物(PM2.5),112,114,103,84,77,41,,,,42,40,5,6,0.9,0.9
2026-01-25T0300,3329A,117.011,32.5891,淮南市,山南新区,细颗粒物(PM2.5),138,133,101,105,70,48,,,,33,31,8,9,1.0,0.9
2026-01-25T0300,4209A,117.003137,32.644456,淮南市,国庆中路369号,细颗粒物(PM2.5),129,,95,98,85,38,,,,37,36,10,10,0.8,0.8
2026-01-25T0300,2446A,114.9021,30.474,黄冈市,职工中心,,50,43,75,35,60,65,,,,13,25,7,9,0.5,0.8
2026-01-25T0300,2929A,114.8858,30.4519,黄冈市,红卫路,细颗粒物(PM2.5),59,42,72,42,63,60,,,,10,22,9,10,0.3,0.5
2026-01-25T0300,3398A,114.9134,30.4446,黄冈市,市林业局,细颗粒物(PM2.5),58,43,69,41,62,60,,,,15,24,4,4,0.7,0.7
2026-01-25T0300,2672A,102.02,35.5101,黄南藏族自治州,同仁县隆务镇,颗粒物(PM10),54,58,40,23,18,38,,,,9,8,12,12,0.6,0.4
2026-01-25T0300,2295A,118.2905,29.6965,黄山市,延安路89号,,34,34,38,23,30,5,,,,25,20,4,4,0.7,0.7
2026-01-25T0300,2297A,118.1369,30.2755,黄山市,黄山区政府5号楼,细颗粒物(PM2.5),73,68,42,53,32,8,,,,13,15,2,2,0.7,0.7
2026-01-25T0300,4210A,118.335445,29.720283,黄山市,滨江东路7-2号,细颗粒物(PM2.5),72,63,59,52,45,5,,,,27,25,/,/,/,/
2026-01-25T0300,2423A,115.0547,30.2332,黄石市,沈家营,"颗粒物(PM10),细颗粒物(PM2.5)",63,76,86,45,56,41,,,,23,26,18,13,2.1,1.6
2026-01-25T0300,2426A,114.899,30.211,黄石市,铁山,,,,68,54,71,62,,,,5,21,9,9,,1
2026-01-25T0300,2427A,115.0259,30.2108,黄石市,团城山,,,56,77,51,61,,,,,12,23,6,6,0.8,0.8
2026-01-25T0300,3149A,115.0174,30.1591,黄石市,笔架山北路,细颗粒物(PM2.5),79,83,109,58,69,44,,,,18,24,13,10,1.2,1.2
2026-01-25T0300,4185A,115.078022,30.21118,黄石市,磁湖东路29号,细颗粒物(PM2.5),69,52,77,50,67,65,,,,16,32,6,8,1.0,1.2
2026-01-25T0300,1392A,114.4181,23.0528,惠州市,河南岸金山湖子站,,,39,47,22,32,66,,,,17,26,,5,0.6,0.8
2026-01-25T0300,1393A,114.4055,23.0824,惠州市,下埔横江三路子站,,40,40,47,24,32,79,,,,18,25,6,7,0.7,0.8
2026-01-25T0300,1395A,114.4645,22.7832,惠州市,惠阳区承修路船湖子站,,32,31,47,22,35,91,,,,13,22,8,7,0.5,0.7
2026-01-25T0300,1396A,114.5316,22.7423,惠州市,大亚湾管委会子站,,34,34,46,20,30,83,,,,18,22,7,7,0.5,0.6
2026-01-25T0300,3314A,114.4334,22.8134,惠州市,惠阳秋长,颗粒物(PM10),51,51,48,34,36,62,,,,34,28,/,/,/,/
2026-01-25T0300,3452A,114.6521,22.7755,惠州市,大亚湾霞涌,,,31,40,14,22,95,,,,,19,/,/,/,/
2026-01-25T0300,4300A,114.4089,23.1147,惠州市,文华一路1号,,34,34,43,22,29,87,,,,16,24,/,/,/,/
2026-01-25T0300,2240A,130.9618,45.2926,鸡西市,环保局,,29,20,21,20,14,68,,,,5,8,5,6,0.2,0.2
2026-01-25T0300,2243A,130.9294,45.2959,鸡西市,第一中学,,23,16,19,16,13,71,,,,6,7,2,2,0.4,0.3
2026-01-25T0300,3707A,131.0069,45.2988,鸡西市,欧美日汽修厂,,32,24,22,22,16,70,,,,3,7,6,7,0.2,0.2
2026-01-25T0300,2367A,114.9753,27.0803,吉安市,红声器材厂,,,56,50,36,31,,,,,40,26,11,10,0.9,0.8
2026-01-25T0300,2369A,114.9903,27.1313,吉安市,市环境监测站,,49,49,48,34,33,49,,,,10,20,14,9,/,/
2026-01-25T0300,2370A,115.009527,27.096792,吉安市,青原区法院,细颗粒物(PM2.5),55,55,50,39,32,3,,,,47,31,22,13,0.8,0.8
2026-01-25T0300,1772A,126.54,43.8622,吉林市,哈达湾,细颗粒物(PM2.5),69,54,41,50,29,48,,,,27,16,9,10,1.0,0.8
2026-01-25T0300,1773A,126.5843,43.8358,吉林市,东局子,细颗粒物(PM2.5),60,53,43,43,31,39,,,,25,19,3,6,1.1,0.8
2026-01-25T0300,1774A,126.5051,43.8243,吉林市,电力学院,细颗粒物(PM2.5),68,58,57,49,43,37,,,,28,24,5,8,1.1,1
2026-01-25T0300,1775A,126.6133,43.8971,吉林市,江北,细颗粒物(PM2.5),67,64,52,48,35,33,,,,27,18,6,8,1.2,0.8
2026-01-25T0300,1776A,126.5549,43.8304,吉林市,江南公园,细颗粒物(PM2.5),69,57,43,50,31,31,,,,33,18,6,8,0.9,0.7
2026-01-25T0300,2868A,126.4737,43.953,吉林市,九站,细颗粒物(PM2.5),65,50,49,47,38,38,,,,33,26,6,6,1.0,0.8
2026-01-25T0300,1299A,116.9866,36.6118,济南市,科干所,细颗粒物(PM2.5),113,114,112,85,81,59,,,,32,37,14,14,1.0,1
2026-01-25T0300,1300A,116.9379,36.6652,济南市,农科所,细颗粒物(PM2.5),129,144,133,98,87,18,,,,78,66,17,16,1.3,1.2
2026-01-25T0300,1301A,117.1265,36.6736,济南市,开发区,细颗粒物(PM2.5),132,125,126,100,95,49,,,,44,56,12,10,1.1,1.1
2026-01-25T0300,1303A,117.0616,36.6865,济南市,省种子仓库,细颗粒物(PM2.5),138,151,145,105,99,18,,,,73,62,15,13,1.7,1.7
2026-01-25T0300,1304A,116.9495185,36.644937,济南市,机床二厂,细颗粒物(PM2.5),144,134,125,110,100,38,,,,52,52,14,19,1.0,1
2026-01-25T0300,1305A,117.0496,36.6629,济南市,市监测站,细颗粒物(PM2.5),113,117,127,85,93,60,,,,31,53,11,11,1.0,1.1
2026-01-25T0300,1306A,116.7674,36.5458,济南市,长清党校,细颗粒物(PM2.5),138,139,125,105,96,35,,,,48,49,18,12,1.2,1
2026-01-25T0300,1961A,117.5323,36.6865,济南市,东山小学,细颗粒物(PM2.5),165,173,130,125,95,23,,,,62,42,22,13,1.0,0.9
2026-01-25T0300,3059A,117.7181,36.205,济南市,泰兴公司,细颗粒物(PM2.5),185,173,149,139,119,7,,,,81,63,11,12,1.5,1.3
2026-01-25T0300,3064A,117.6861,36.2172,济南市,莱芜战役纪念馆,细颗粒物(PM2.5),153,146,146,117,121,29,,,,58,65,17,14,1.3,1.3
2026-01-25T0300,3494A,117.1673,36.9782,济南市,济阳区政府,细颗粒物(PM2.5),150,156,152,115,108,30,,,,49,56,19,13,1.2,1.2
2026-01-25T0300,3495A,117.1168,36.6299,济南市,锦屏中学,细颗粒物(PM2.5),108,107,107,81,77,69,,,,29,41,,7,1.2,1.2
2026-01-25T0300,4108A,117.7107,36.2385,济南市,山财大街5号,细颗粒物(PM2.5),133,134,123,101,92,42,,,,55,62,20,17,1.4,1.2
2026-01-25T0300,4109A,116.9744,36.6889,济南市,无影山路12号,细颗粒物(PM2.5),163,153,131,124,105,7,,,,94,66,22,18,1.4,1.3
2026-01-25T0300,1653A,116.6229,35.4288,济宁市,火炬城,细颗粒物(PM2.5),195,159,131,146,131,0,,,,91,41,4,4,1.1,0.8
2026-01-25T0300,3500A,116.5808,35.3703,济宁市,北湖一中,细颗粒物(PM2.5),180,137,125,136,125,46,,,,47,38,5,5,,0.9
2026-01-25T0300,3501A,116.8251,35.5592,济宁市,服务中心,细颗粒物(PM2.5),175,187,155,132,104,1,,,,63,39,8,7,0.8,0.7
2026-01-25T0300,3678A,116.5907,35.4054,济宁市,市第七中学,细颗粒物(PM2.5),168,152,128,127,118,31,,,,68,42,8,7,1.1,1.1
2026-01-25T0300,4111A,116.6075,35.4566,济宁市,任和路,细颗粒物(PM2.5),199,196,155,149,122,6,,,,90,50,9,6,1.2,1
2026-01-25T0300,4112A,116.5648,35.3921,济宁市,文体南路1号,细颗粒物(PM2.5),178,165,151,134,127,45,,,,50,38,5,5,0.9,0.8
2026-01-25T0300,2255A,130.2749,46.8028,佳木斯市,佳纺,,29,29,44,16,34,59,,,,13,18,7,8,0.8,0.7
2026-01-25T0300,2257A,130.3258,46.7975,佳木斯市,环保局,,31,31,41,15,30,60,,,,12,20,8,8,0.4,0.6
2026-01-25T0300,4285A,130.363,46.806,佳木斯市,顺和街,,30,30,35,21,30,62,,,,8,19,7,9,0.4,0.5
2026-01-25T0300,4286A,130.3952,46.8268,佳木斯市,长安路196号,,32,32,36,20,29,72,,,,6,16,4,6,0.5,0.5
2026-01-25T0300,1252A,120.7439,30.778,嘉兴市,清河小学,细颗粒物(PM2.5),108,98,109,81,84,49,,,,38,51,8,9,0.4,0.9
2026-01-25T0300,1253A,120.7261,30.7477,嘉兴市,嘉兴学院,细颗粒物(PM2.5),94,95,110,70,77,34,,,,46,50,6,8,1.0,1.3
2026-01-25T0300,2872A,120.7845,30.7524,嘉兴市,南湖区残联,细颗粒物(PM2.5),102,92,110,76,84,32,,,,51,54,6,8,0.8,1.1
2026-01-25T0300,3407A,120.6915,30.7741,嘉兴市,秀洲住建,细颗粒物(PM2.5),102,96,105,76,82,55,,,,38,53,9,10,0.6,0.9
2026-01-25T0300,1945A,98.291,39.7705,嘉峪关市,气象局,颗粒物(PM10),500,747,644,129,101,66,,,,4,18,5,22,0.4,0.9
2026-01-25T0300,2884A,98.2672,39.7978,嘉峪关市,酒钢宾馆,颗粒物(PM10),500,779,618,136,108,72,,,,1,16,12,29,0.5,0.7
2026-01-25T0300,3248A,98.2644,39.7723,嘉峪关市,雄关区,颗粒物(PM10),484,584,505,105,78,63,,,,7,23,7,19,0.3,0.9
2026-01-25T0300,1383A,113.1063,22.6058,江门市,北街,细颗粒物(PM2.5),114,101,76,86,53,10,,,,94,66,/,/,/,/
2026-01-25T0300,1384A,113.073,22.5835,江门市,西区,"颗粒物(PM10),细颗粒物(PM2.5)",94,138,97,70,59,2,,,,90,61,/,/,/,/
2026-01-25T0300,1385A,113.0218,22.531,江门市,圭峰西,细颗粒物(PM2.5),104,80,73,78,64,78,,,,18,34,/,/,/,/
2026-01-25T0300,1386A,113.0826,22.5947,江门市,东湖,细颗粒物(PM2.5),113,121,83,85,51,2,,,,79,48,,8,1.5,0.9
2026-01-25T0300,3311A,113.1077,22.5647,江门市,江海富民,细颗粒物(PM2.5),117,155,94,88,52,8,,,,94,63,/,/,0.9,0.7
2026-01-25T0300,3449A,113.0496,22.4669,江门市,新会银湖,细颗粒物(PM2.5),128,109,84,97,70,1,,,,70,54,,8,0.9,0.8
2026-01-25T0300,3335A,113.3137,35.2643,焦作市,马村街道办,细颗粒物(PM2.5),204,172,161,154,147,48,,,,23,26,9,7,1.0,0.9
2026-01-25T0300,3336A,113.2464,35.2374,焦作市,焦作技师学院,细颗粒物(PM2.5),218,192,161,168,138,52,,,,28,29,8,7,1.4,1.2
2026-01-25T0300,3477A,113.1656,35.2536,焦作市,中站许衡医院,细颗粒物(PM2.5),201,172,145,151,126,55,,,,24,26,6,6,1.2,1.1
2026-01-25T0300,3981A,113.2456,35.18,焦作市,原李万街道办,细颗粒物(PM2.5),201,181,159,151,146,57,,,,22,31,5,7,1.0,1.1
2026-01-25T0300,4264A,113.234,35.219,焦作市,新安路1731号,细颗粒物(PM2.5),228,209,178,178,152,57,,,,24,28,10,8,1.2,1.1
2026-01-25T0300,4295A,113.2722,35.2121,焦作市,人民路3066号,细颗粒物(PM2.5),206,187,172,156,139,53,,,,23,30,8,8,1.3,1.4
2026-01-25T0300,1708A,116.3701,23.5345,揭阳市,新兴,,32,32,51,21,33,68,,,,17,30,7,9,0.4,0.7
2026-01-25T0300,1709A,116.3261,23.5442,揭阳市,西马,,35,30,50,24,29,63,,,,11,20,4,6,0.4,0.6
2026-01-25T0300,1710A,116.361,23.5627,揭阳市,东兴,,29,25,55,20,34,66,,,,15,26,8,11,/,/
2026-01-25T0300,1711A,116.4151,23.5295,揭阳市,渔湖,,32,32,51,15,25,69,,,,10,21,4,5,/,/
2026-01-25T0300,3320A,116.4028,23.5699,揭阳市,曲溪,,,27,57,13,32,,,,,10,23,2,7,0.4,0.7
2026-01-25T0300,1944A,102.1691,38.5166,金昌市,天庆家园,颗粒物(PM10),500,1277,824,209,116,37,,,,16,12,48,15,0.9,0.9
2026-01-25T0300,4022A,102.1648,38.5369,金昌市,金川区人防中心,颗粒物(PM10),500,2017,894,229,121,37,,,,17,12,54,11,1.0,0.7
2026-01-25T0300,4239A,102.193042,38.531887,金昌市,长春路96号,颗粒物(PM10),500,1737,780,226,119,46,,,,12,11,22,14,1.1,0.8
2026-01-25T0300,1262A,119.6478,29.0773,金华市,十五中,细颗粒物(PM2.5),144,153,117,110,83,7,,,,100,72,5,4,0.5,0.7
2026-01-25T0300,1263A,119.6859,29.1032,金华市,监测站,细颗粒物(PM2.5),144,161,122,110,81,0,,,,101,76,4,4,0.7,0.7
2026-01-25T0300,3659A,119.656,29.1132,金华市,气象局,细颗粒物(PM2.5),130,132,123,99,80,13,,,,87,77,5,5,0.6,0.8
2026-01-25T0300,1767A,121.1114,41.0879,锦州市,南山,,,20,78,8,65,57,,,,13,45,17,29,,1.4
2026-01-25T0300,1768A,121.060361,40.842794,锦州市,开发区,细颗粒物(PM2.5),85,72,84,63,60,8,,,,60,53,28,62,1.2,1.1
2026-01-25T0300,1769A,121.1836,41.1118,锦州市,百股街道,,20,19,66,7,55,62,,,,10,40,14,24,0.5,1.1
2026-01-25T0300,1770A,121.1176,41.1224,锦州市,天安街道,,22,21,66,6,47,70,,,,9,36,8,21,0.5,1.2
2026-01-25T0300,1771A,121.1303,41.1385,锦州市,北湖公园,,21,15,53,7,34,65,,,,4,24,12,20,0.5,0.9
2026-01-25T0300,2160A,112.8496,35.5051,晋城市,自来水公司,,,116,99,71,68,90,,,,13,27,,8,0.6,0.9
2026-01-25T0300,2162A,112.8509,35.4886,晋城市,市环保局,细颗粒物(PM2.5),113,101,100,85,73,92,,,,12,27,,6,0.9,1.1
2026-01-25T0300,3620A,112.8258,35.4804,晋城市,泽州一中,细颗粒物(PM2.5),113,116,93,85,75,92,,,,17,24,3,4,0.8,0.8
2026-01-25T0300,4078A,112.8246,35.5152,晋城市,前书院路,细颗粒物(PM2.5),97,113,103,72,61,84,,,,14,22,5,6,0.8,0.7
2026-01-25T0300,4079A,112.8864,35.4773,晋城市,祥云街666号,细颗粒物(PM2.5),128,118,101,97,83,86,,,,15,30,3,4,0.7,0.8
2026-01-25T0300,2174A,112.6992,37.6984,晋中市,榆次区政府,细颗粒物(PM2.5),258,259,161,208,83,71,,,,33,48,6,16,1.1,1
2026-01-25T0300,2865A,112.7195,37.683,晋中市,榆次三中,细颗粒物(PM2.5),261,254,163,211,83,70,,,,29,42,7,16,1.2,1.1
2026-01-25T0300,4080A,112.7375,37.7215,晋中市,广安街188号,细颗粒物(PM2.5),269,273,175,219,92,73,,,,37,50,8,18,1.2,1.1
2026-01-25T0300,4200A,112.7478,37.6954,晋中市,迎宾街26号,细颗粒物(PM2.5),278,249,159,228,89,72,,,,31,41,8,17,1.2,1.1
2026-01-25T0300,2439A,112.2012,31.048,荆门市,竹园小学,,,88,92,68,75,43,,,,,32,3,2,0.4,0.5
2026-01-25T0300,2440A,112.1968,30.9892,荆门市,掇刀,,,85,91,66,71,44,,,,,26,8,4,0.6,0.7
2026-01-25T0300,3012A,112.1849,31.0361,荆门市,西山林语,细颗粒物(PM2.5),79,78,84,58,58,45,,,,30,25,20,10,0.8,0.8
2026-01-25T0300,3547A,112.1631,31.0134,荆门市,龙泉中学南校,,,84,92,66,74,54,,,,,17,7,5,0.4,0.5
2026-01-25T0300,4124A,112.2213,31.0654,荆门市,新台西路6号,细颗粒物(PM2.5),82,88,96,60,78,34,,,,38,36,9,10,0.9,1
2026-01-25T0300,1844A,112.2493,30.3198,荆州市,市图书馆,,,69,63,63,72,63,,,,18,28,8,8,,0.9
2026-01-25T0300,1845A,112.2009,30.3543,荆州市,市委党校,细颗粒物(PM2.5),83,70,75,61,69,51,,,,32,40,5,2,0.8,0.9
2026-01-25T0300,3194A,112.2749,30.3124,荆州市,管委会,,,62,64,62,71,62,,,,19,30,7,8,,1
2026-01-25T0300,4268A,112.1722,30.3366,荆州市,学苑路85号,细颗粒物(PM2.5),77,61,68,56,63,61,,,,21,25,20,10,1.0,1
2026-01-25T0300,2343A,117.2114,29.2931,景德镇市,老干部活动中心,,35,35,63,23,50,7,,,,30,31,3,5,0.5,0.8
2026-01-25T0300,2344A,117.1893,29.2789,景德镇市,兽医站,颗粒物(PM10),57,63,69,33,39,8,,,,34,39,3,5,0.5,0.7
2026-01-25T0300,2346A,117.246,29.2958,景德镇市,陶研所,,46,32,49,32,46,3,,,,20,26,3,4,0.8,0.9
2026-01-25T0300,4289A,117.154766,29.256967,景德镇市,青少年活动中心,颗粒物(PM10),55,59,82,35,47,9,,,,39,47,4,19,/,/
2026-01-25T0300,1803A,115.9873,29.6816,九江市,十里,细颗粒物(PM2.5),74,65,78,54,54,51,,,,21,46,9,7,0.9,1
2026-01-25T0300,1804A,115.9583,29.7047,九江市,茅山头,细颗粒物(PM2.5),83,77,70,61,50,27,,,,35,44,12,6,0.8,0.8
2026-01-25T0300,1805A,115.9877,29.7295,九江市,西园,细颗粒物(PM2.5),78,73,72,57,46,13,,,,72,49,14,7,0.6,0.5
2026-01-25T0300,1808A,115.9112,29.6038,九江市,综合工业园,细颗粒物(PM2.5),88,71,58,65,58,9,,,,61,52,5,4,0.7,0.7
2026-01-25T0300,3190A,116.0254,29.6995,九江市,外国语学校,细颗粒物(PM2.5),72,57,61,52,51,32,,,,45,41,13,12,0.9,0.8
2026-01-25T0300,4253A,116.010205,29.659402,九江市,莲花大道8号,,,60,61,56,53,,,,,10,21,3,4,0.6,0.6
2026-01-25T0300,4240A,98.495752,39.733935,酒泉市,玉门东路5号,细颗粒物(PM2.5),132,,432,100,78,69,,,,2,5,10,10,0.2,0.4
2026-01-25T0300,4241A,98.5099,39.7506,酒泉市,北大街108号,颗粒物(PM10),500,705,617,113,77,63,,,,1,6,8,10,0.2,0.3
2026-01-25T0300,2698A,76.0071,39.466,喀什地区,巡警大队,颗粒物(PM10),467,567,529,126,142,38,,,,26,37,4,5,1.1,1.7
2026-01-25T0300,2699A,75.9756,39.4693,喀什地区,吾办,颗粒物(PM10),392,493,462,128,155,39,,,,27,42,2,6,1.1,1.7
2026-01-25T0300,4027A,75.9485,39.4688,喀什地区,老干局,颗粒物(PM10),481,581,518,102,130,44,,,,16,28,3,4,0.7,1.4
2026-01-25T0300,1824A,114.3389,34.778,开封市,肿瘤医院,细颗粒物(PM2.5),158,134,128,120,114,66,,,,23,33,,10,1.0,1
2026-01-25T0300,1826A,114.2884,34.7966,开封市,世纪星幼儿园,细颗粒物(PM2.5),176,,113,133,129,68,,,,24,29,,5,0.8,0.8
2026-01-25T0300,3147A,114.3434,34.8101,开封市,龙亭公园,细颗粒物(PM2.5),190,,121,143,131,57,,,,31,38,7,7,0.9,1
2026-01-25T0300,3210A,114.3645,34.7955,开封市,汴京公园,细颗粒物(PM2.5),173,,129,131,128,55,,,,28,39,4,5,0.7,0.7
2026-01-25T0300,3473A,114.2485,34.8306,开封市,技师学院,细颗粒物(PM2.5),170,,104,129,107,62,,,,30,30,8,7,0.8,0.7
2026-01-25T0300,3592A,114.4518,34.7503,开封市,祥符区生态环境局,细颗粒物(PM2.5),163,152,161,124,121,55,,,,29,44,5,4,0.7,0.7
2026-01-25T0300,1951A,84.886,45.6029,克拉玛依市,长征新村,细颗粒物(PM2.5),70,82,96,51,66,57,,,,20,17,5,8,0.6,0.6
2026-01-25T0300,1952A,84.8894,45.5827,克拉玛依市,南林小区,细颗粒物(PM2.5),74,84,97,54,58,25,,,,38,20,3,5,1.1,0.8
2026-01-25T0300,1954A,84.896,44.3328,克拉玛依市,独山子区,颗粒物(PM10),80,109,78,47,29,58,,,,32,33,2,2,0.6,0.5
2026-01-25T0300,1955A,85.6888,46.0909,克拉玛依市,乌尔禾区商贸楼,颗粒物(PM10),59,68,80,23,54,74,,,,17,26,7,9,0.5,0.6
2026-01-25T0300,3612A,85.1045,45.6895,克拉玛依市,白碱滩区新站,颗粒物(PM10),60,69,92,38,62,58,,,,15,21,8,11,0.6,0.7
2026-01-25T0300,2697A,76.1457,39.7143,克孜勒苏柯尔克孜自治州,市人民政府,颗粒物(PM10),408,508,529,102,122,47,,,,13,18,3,4,0.3,0.6
2026-01-25T0300,3665A,76.1654,39.7157,克孜勒苏柯尔克孜自治州,克州文化中心,颗粒物(PM10),447,547,520,119,135,53,,,,6,18,3,4,0.4,1
2026-01-25T0300,1450A,102.8203,24.889,昆明市,呈贡新区,,22,22,31,15,17,56,,,,20,17,5,6,0.5,0.4
2026-01-25T0300,1452A,102.7253,25.0904,昆明市,龙泉镇,颗粒物(PM10),62,73,49,21,20,0,,,,60,34,4,4,0.6,0.5
2026-01-25T0300,1453A,102.7267,25.0378,昆明市,东风东路,,30,28,22,21,17,63,,,,17,16,11,7,0.7,0.6
2026-01-25T0300,1454A,102.6744,25.0671,昆明市,金鼎山,,42,37,42,29,21,39,,,,26,25,6,5,0.6,0.5
2026-01-25T0300,1455A,102.6643,25.0401,昆明市,碧鸡广场,,38,38,33,20,21,40,,,,32,25,7,6,0.6,0.6
2026-01-25T0300,3179A,102.7491,25.012,昆明市,官渡区博物馆,,42,38,38,29,22,46,,,,21,26,3,4,0.6,0.7
2026-01-25T0300,3375A,102.8016,24.8336,昆明市,青年创业园,,23,23,28,13,19,67,,,,9,17,7,9,0.3,0.4
2026-01-25T0300,3550A,102.8,24.9787,昆明市,昆明学院,,25,25,30,15,18,69,,,,9,16,4,4,0.4,0.5
2026-01-25T0300,3551A,102.5969,24.6738,昆明市,晋宁区生态环境分局,,32,24,32,22,17,71,,,,8,13,2,2,0.7,0.6
2026-01-25T0300,3552A,102.6673,24.9861,昆明市,云天化总部,,29,29,26,16,15,46,,,,33,20,9,7,0.4,0.4
2026-01-25T0300,1456A,91.132,29.6515,拉萨市,八廓街,,31,18,23,6,12,99,,,,2,13,7,7,0.3,0.4
2026-01-25T0300,1457A,91.1221,29.6748,拉萨市,市环保局,,27,25,28,13,16,86,,,,8,19,7,8,0.6,0.8
2026-01-25T0300,1458A,91.0874,29.6476,拉萨市,区监测站,,29,12,17,7,9,92,,,,4,14,4,4,0.6,0.7
2026-01-25T0300,1459A,91.1774,29.6541,拉萨市,西藏大学,,29,15,21,9,11,92,,,,8,15,4,5,0.4,0.6
2026-01-25T0300,1460A,90.9798,29.6586,拉萨市,区辐射站,,28,28,36,12,14,86,,,,5,18,3,4,0.4,0.4
2026-01-25T0300,1461A,91.0831,29.6292,拉萨市,拉萨火车站,,29,15,17,10,8,92,,,,3,11,4,4,0.2,0.2
2026-01-25T0300,2520A,109.2203,23.7252,来宾市,来宾技工学校,细颗粒物(PM2.5),108,,68,81,64,11,,,,25,19,10,8,0.8,0.7
2026-01-25T0300,3535A,109.1781,23.7293,来宾市,兴宾区政府,细颗粒物(PM2.5),94,89,74,70,56,19,,,,19,19,5,6,0.8,0.8
2026-01-25T0300,4002A,109.2312,23.7428,来宾市,中南小学,细颗粒物(PM2.5),103,,66,77,63,2,,,,31,20,7,6,1.0,0.9
2026-01-25T0300,1479A,103.8309,36.0467,兰州市,铁路设计院,,,,,,,,,,,,,,,,
2026-01-25T0300,3241A,103.7439,36.0841,兰州市,百合公园,颗粒物(PM10),500,647,260,103,81,44,,,,32,53,10,22,0.6,1.1
2026-01-25T0300,3242A,103.9613,35.9985,兰州市,和平,颗粒物(PM10),500,653,267,112,88,32,,,,39,35,9,19,1.1,1.4
2026-01-25T0300,4236A,103.629272,36.093822,兰州市,庄浪东路808号,颗粒物(PM10),500,663,270,126,86,56,,,,26,59,12,27,0.8,1.3
2026-01-25T0300,4237A,103.7251,36.104344,兰州市,安宁西路88号,颗粒物(PM10),500,703,297,98,81,59,,,,29,59,10,28,0.6,1.2
2026-01-25T0300,4238A,103.846982,36.067567,兰州市,北滨河东路1号,颗粒物(PM10),500,718,286,118,79,50,,,,31,59,8,16,0.9,1.4
2026-01-25T0300,1067A,116.6712,39.5109,廊坊市,药材公司,,43,43,147,26,115,20,,,,55,77,4,6,0.7,1.3
2026-01-25T0300,1068A,116.7215,39.5592,廊坊市,开发区,,49,44,138,34,105,6,,,,74,80,3,5,0.6,1.3
2026-01-25T0300,1070A,116.7246,39.5273,廊坊市,北华航天学院,细颗粒物(PM2.5),72,65,150,52,108,2,,,,77,79,4,6,0.8,1.3
2026-01-25T0300,2919A,116.7022,39.5454,廊坊市,河北工业大学,颗粒物(PM10),61,71,140,34,98,12,,,,61,73,3,5,0.6,1.1
2026-01-25T0300,2536A,103.7629,29.5844,乐山市,牛耳桥,,,70,68,61,59,25,,,,18,23,,5,0.9,0.9
2026-01-25T0300,2537A,103.7501,29.6002,乐山市,市第三水厂,细颗粒物(PM2.5),89,81,76,66,64,26,,,,23,27,5,6,0.9,0.9
2026-01-25T0300,2538A,103.7571,29.5664,乐山市,市监测站,细颗粒物(PM2.5),88,73,70,65,59,33,,,,16,24,5,5,0.9,0.9
2026-01-25T0300,3361A,103.7313,29.563,乐山市,理工大学,,,69,71,66,64,22,,,,14,21,,6,0.7,0.8
2026-01-25T0300,2599A,100.2497,26.8802,丽江市,丽江古城,,23,23,27,14,12,72,,,,7,10,10,10,0.4,0.4
2026-01-25T0300,2600A,100.2203,26.8906,丽江市,市中心,,23,15,21,9,10,73,,,,7,14,6,6,0.4,0.5
2026-01-25T0300,1267A,119.9141,28.4513,丽水市,监测站大楼,细颗粒物(PM2.5),55,39,46,39,43,80,,,,15,24,5,7,0.4,0.5
2026-01-25T0300,1268A,119.93,28.4589,丽水市,莲都小学,颗粒物(PM10),51,51,54,29,33,74,,,,26,29,/,/,/,/
2026-01-25T0300,1269A,119.8794,28.4232,丽水市,余庄前,颗粒物(PM10),51,51,51,34,38,88,,,,17,27,6,5,0.4,0.4
2026-01-25T0300,1173A,119.1759,34.5885,连云港市,市环境监测站,细颗粒物(PM2.5),100,88,107,75,91,100,,,,16,35,11,11,0.6,0.8
2026-01-25T0300,3000A,119.3577,34.6971,连云港市,德源药业,细颗粒物(PM2.5),119,117,118,90,86,,,,,74,55,5,6,1.0,0.8
2026-01-25T0300,3007A,119.178,34.8442,连云港市,新城一中,细颗粒物(PM2.5),140,124,131,107,112,0,,,,96,77,11,12,1.1,1.1
2026-01-25T0300,3008A,119.3607,34.7519,连云港市,胡沟管理处,细颗粒物(PM2.5),122,122,118,92,88,32,,,,66,68,,14,1.0,1
2026-01-25T0300,3009A,119.1478,34.5913,连云港市,矿山设计院,,,95,117,75,87,86,,,,20,38,,11,0.9,1
2026-01-25T0300,3434A,119.2414,34.6539,连云港市,工贸学校,细颗粒物(PM2.5),114,102,100,86,96,95,,,,13,20,11,13,0.7,0.9
2026-01-25T0300,3664A,119.4171,34.734,连云港市,连云街道,细颗粒物(PM2.5),117,114,121,88,93,42,,,,46,45,,9,0.9,0.9
2026-01-25T0300,2573A,102.2629,27.8981,凉山彝族自治州,西昌市政府,,45,45,49,26,32,46,,,,16,28,7,10,0.6,0.6
2026-01-25T0300,2574A,102.2686,27.885,凉山彝族自治州,凉山州政府,颗粒物(PM10),52,54,57,35,33,28,,,,22,25,7,10,0.8,0.7
2026-01-25T0300,4229A,102.2342,27.8859,凉山彝族自治州,凯乐南路30号,颗粒物(PM10),55,59,61,28,34,30,,,,23,23,7,11,0.5,0.7
2026-01-25T0300,2212A,123.1978,41.2036,辽阳市,宏伟区,,,34,51,14,27,,,,,14,20,7,10,0.4,0.7
2026-01-25T0300,2213A,123.1684,41.2497,辽阳市,新华园,,35,35,66,11,43,47,,,,19,37,8,18,0.4,1
2026-01-25T0300,2214A,123.2355,41.2663,辽阳市,滨河路,,39,39,51,22,30,41,,,,22,33,6,8,0.5,0.7
2026-01-25T0300,4083A,123.153,41.2874,辽阳市,铁西路150号,,34,34,63,16,43,37,,,,27,38,8,15,0.9,1.4
2026-01-25T0300,2227A,125.1359,42.8845,辽源市,环保局,细颗粒物(PM2.5),77,74,65,56,45,12,,,,59,40,3,5,1.2,1.1
2026-01-25T0300,4085A,125.0998,42.9134,辽源市,安宁大街333号,细颗粒物(PM2.5),107,83,64,80,48,5,,,,33,23,4,8,1.4,1.1
2026-01-25T0300,1625A,115.9789,36.4372,聊城市,区政府,细颗粒物(PM2.5),163,164,150,124,114,27,,,,62,50,26,16,1.4,1.1
2026-01-25T0300,3200A,115.9772,36.4986,聊城市,监控中心,细颗粒物(PM2.5),195,177,156,146,131,18,,,,68,56,11,8,1.0,1
2026-01-25T0300,3513A,116.0443,36.436,聊城市,九州社区,细颗粒物(PM2.5),176,161,146,133,118,33,,,,49,34,25,8,1.2,0.9
2026-01-25T0300,4018A,116.0564,36.4609,聊城市,星美广场,细颗粒物(PM2.5),175,180,159,132,119,19,,,,50,38,13,5,1.4,1
2026-01-25T0300,4113A,116.0091,36.4495,聊城市,利民路,细颗粒物(PM2.5),180,171,152,136,121,10,,,,73,47,24,13,1.2,1
2026-01-25T0300,2632A,94.3683,29.6373,林芝市,林芝监测站,,27,14,22,10,11,84,,,,2,3,3,3,0.2,0.2
2026-01-25T0300,2633A,94.3616,29.6634,林芝市,林芝人民医院,,27,14,24,10,12,86,,,,2,3,6,5,0.2,0.2
2026-01-25T0300,2603A,100.0779,23.8981,临沧市,市环保局,细颗粒物(PM2.5),60,,33,43,39,35,,,,9,12,7,8,0.6,0.6
2026-01-25T0300,2604A,100.0894,23.882,临沧市,市气象局,,38,38,48,21,23,36,,,,9,12,8,10,0.4,0.4
2026-01-25T0300,1733A,111.5552,36.0791,临汾市,临钢医院,细颗粒物(PM2.5),99,87,116,74,77,75,,,,16,31,4,11,0.8,1.5
2026-01-25T0300,1734A,111.4984,36.0734,临汾市,技工学校,细颗粒物(PM2.5),122,,101,92,82,71,,,,21,37,5,11,0.8,1.3
2026-01-25T0300,1736A,111.5017,36.0857,临汾市,市委,细颗粒物(PM2.5),97,87,107,72,67,75,,,,15,34,6,14,0.9,1.4
2026-01-25T0300,3018A,111.5048,36.1015,临汾市,唐尧大酒店,细颗粒物(PM2.5),89,87,110,66,67,79,,,,13,36,2,10,0.9,1.3
2026-01-25T0300,4244A,111.4879,36.053,临汾市,启星学校,细颗粒物(PM2.5),100,85,98,75,64,74,,,,18,44,7,13,0.8,1.4
2026-01-25T0300,4271A,103.2464,35.6123,临夏回族自治州,滨河东路1号,颗粒物(PM10),399,499,198,70,80,45,,,,19,39,8,12,0.9,1.5
2026-01-25T0300,4310A,103.207136,35.599807,临夏回族自治州,新华街21号,颗粒物(PM10),481,581,190,95,80,57,,,,18,32,9,15,0.7,1.5
2026-01-25T0300,1618A,118.3429,35.0532,临沂市,沂河小区,细颗粒物(PM2.5),195,151,156,146,135,24,,,,55,56,15,17,1.5,1.3
2026-01-25T0300,1619A,118.2962,35.0568,临沂市,鲁南制药厂,细颗粒物(PM2.5),165,136,156,125,130,39,,,,48,58,16,22,1.3,1.4
2026-01-25T0300,1620A,118.2793,34.9976,临沂市,新光毛纺厂,细颗粒物(PM2.5),156,124,151,119,130,40,,,,50,63,12,22,1.3,1.6
2026-01-25T0300,1621A,118.3955,35.0889,临沂市,河东保险公司,细颗粒物(PM2.5),180,166,166,136,125,3,,,,80,71,10,14,1.8,1.5
2026-01-25T0300,3370A,118.3563,35.0215,临沂市,十里堡居委,细颗粒物(PM2.5),138,136,152,105,112,32,,,,51,59,14,18,1.3,1.4
2026-01-25T0300,3496A,118.359,35.1067,临沂市,南坊新区,细颗粒物(PM2.5),192,166,149,144,119,10,,,,81,63,22,16,2.1,1.4
2026-01-25T0300,3860A,118.3915,35.0297,临沂市,皇山花园小区,细颗粒物(PM2.5),147,158,167,112,117,12,,,,78,72,18,20,1.7,1.6
2026-01-25T0300,1870A,109.4854,24.3898,柳州市,柳东小学,细颗粒物(PM2.5),64,56,46,46,39,19,,,,20,13,8,11,0.8,0.8
2026-01-25T0300,1871A,109.4109,24.3304,柳州市,环保监测站,细颗粒物(PM2.5),123,120,76,93,59,5,,,,49,26,6,7,1.1,0.8
2026-01-25T0300,1872A,109.3886,24.3408,柳州市,河西水厂,细颗粒物(PM2.5),149,164,71,114,45,9,,,,46,23,6,7,1.1,0.7
2026-01-25T0300,1873A,109.4263,24.2951,柳州市,市四中,细颗粒物(PM2.5),145,127,60,111,46,2,,,,47,24,11,12,1.3,1
2026-01-25T0300,1874A,109.396,24.3658,柳州市,市九中,细颗粒物(PM2.5),95,117,54,71,44,13,,,,36,21,8,10,1.0,0.7
2026-01-25T0300,1875A,109.4912,24.3164,柳州市,古亭山,细颗粒物(PM2.5),89,,49,66,46,10,,,,30,20,6,10,0.7,0.7
2026-01-25T0300,3402A,109.5422,24.3994,柳州市,市二中,细颗粒物(PM2.5),58,53,41,41,30,20,,,,24,19,8,13,0.8,0.7
2026-01-25T0300,2307A,116.5078,31.7369,六安市,监测大楼,细颗粒物(PM2.5),119,99,75,90,67,39,,,,36,33,3,4,0.7,0.6
2026-01-25T0300,2308A,116.4738,31.7642,六安市,皖西学院,细颗粒物(PM2.5),108,103,82,81,62,47,,,,36,34,6,5,0.8,0.6
2026-01-25T0300,2309A,116.4997,31.7904,六安市,朝阳厂,细颗粒物(PM2.5),107,96,80,80,65,46,,,,34,39,8,6,0.9,0.7
2026-01-25T0300,2310A,116.5566,31.7885,六安市,开发区,细颗粒物(PM2.5),137,112,85,104,70,38,,,,34,34,4,5,0.8,0.7
2026-01-25T0300,2577A,104.8293,26.592,六盘水市,黄土坡,细颗粒物(PM2.5),68,53,38,49,33,5,,,,33,21,14,8,1.5,0.9
2026-01-25T0300,2579A,104.8481,26.5898,六盘水市,民中,细颗粒物(PM2.5),62,45,37,44,32,15,,,,21,18,5,5,1.0,0.8
2026-01-25T0300,2580A,104.9541,26.5506,六盘水市,双水,,36,36,26,20,13,37,,,,9,11,3,4,0.5,0.6
2026-01-25T0300,4151A,104.8899,26.5685,六盘水市,钟山大道中段564号,,43,43,34,25,24,24,,,,10,11,5,5,0.9,0.9
2026-01-25T0300,2336A,117.022,25.1031,龙岩市,龙岩市监测站,,49,44,30,34,25,22,,,,35,24,49,17,0.6,0.6
2026-01-25T0300,2337A,117.0257,25.0662,龙岩市,闽西职业技术学院,细颗粒物(PM2.5),60,55,31,43,26,40,,,,23,17,12,12,0.7,0.8
2026-01-25T0300,2338A,117.0195,25.0306,龙岩市,龙岩学院,细颗粒物(PM2.5),59,,31,42,25,43,,,,16,16,8,11,/,/
2026-01-25T0300,2885A,104.9344,33.3827,陇南市,滨江中学,颗粒物(PM10),53,55,63,34,33,35,,,,14,22,4,6,1.1,1.1
2026-01-25T0300,3247A,104.9551,33.3709,陇南市,市总工会,细颗粒物(PM2.5),53,48,60,37,37,35,,,,16,20,7,8,0.8,0.9
2026-01-25T0300,2488A,111.9984,27.7346,娄底市,市监测站,细颗粒物(PM2.5),79,66,67,58,54,42,,,,29,27,20,10,0.7,0.7
2026-01-25T0300,2491A,111.9888,27.7035,娄底市,市政府,细颗粒物(PM2.5),74,59,61,54,52,37,,,,20,14,7,7,0.9,0.8
2026-01-25T0300,4127A,111.9812,27.7591,娄底市,涟钢职大,细颗粒物(PM2.5),65,62,66,47,45,39,,,,17,20,15,10,0.8,0.9
2026-01-25T0300,4128A,112.0303,27.7457,娄底市,娄底体校,细颗粒物(PM2.5),72,60,61,52,50,38,,,,13,15,5,4,0.5,0.5
2026-01-25T0300,1894A,105.4427,28.9063,泸州市,小市上码头,细颗粒物(PM2.5),77,73,82,56,62,24,,,,18,28,5,5,1.0,1.1
2026-01-25T0300,1895A,105.4241,28.8573,泸州市,兰田宪桥,细颗粒物(PM2.5),74,75,76,54,57,28,,,,13,20,8,8,0.8,1
2026-01-25T0300,1896A,105.4378,28.8833,泸州市,市环监站,细颗粒物(PM2.5),69,77,79,50,53,25,,,,16,26,9,10,0.9,1
2026-01-25T0300,4272A,105.3689,28.7783,泸州市,纳溪中医医院,细颗粒物(PM2.5),65,48,78,47,66,25,,,,11,20,8,8,0.9,1
2026-01-25T0300,2183A,111.1447,37.5212,吕梁市,环保局,细颗粒物(PM2.5),107,114,88,80,35,54,,,,31,33,12,8,1.0,0.4
2026-01-25T0300,2185A,111.1285,37.5338,吕梁市,自来水公司,细颗粒物(PM2.5),114,142,106,86,40,46,,,,39,32,13,9,1.2,0.7
2026-01-25T0300,2867A,111.1225,37.5093,吕梁市,马茂庄小学,,,148,118,65,41,53,,,,33,41,,11,1.5,0.9
2026-01-25T0300,1812A,112.3934,34.6517,洛阳市,市委党校,细颗粒物(PM2.5),155,119,177,118,165,68,,,,29,54,,12,0.9,1.4
2026-01-25T0300,1815A,112.494,34.6883,洛阳市,河南林校,细颗粒物(PM2.5),155,,178,118,174,68,,,,29,55,8,10,0.9,1.4
2026-01-25T0300,1816A,112.3843,34.623,洛阳市,开发区管委会,细颗粒物(PM2.5),163,142,215,124,186,74,,,,25,47,10,12,0.7,1
2026-01-25T0300,1817A,112.4263,34.6249,洛阳市,市委新办公区,细颗粒物(PM2.5),140,142,218,107,163,65,,,,28,52,8,10,0.8,1.3
2026-01-25T0300,3340A,112.6005,34.6323,洛阳市,伊滨,细颗粒物(PM2.5),140,130,236,107,177,57,,,,26,58,7,8,0.7,1.2
2026-01-25T0300,3341A,112.495,34.6338,洛阳市,中移产业园,细颗粒物(PM2.5),160,,185,122,174,63,,,,36,65,9,10,0.9,1.4
2026-01-25T0300,3593A,112.5736,34.8993,洛阳市,吉利监测站,细颗粒物(PM2.5),156,,164,119,167,75,,,,22,39,7,9,0.8,1.2
2026-01-25T0300,3635A,112.3678,34.6623,洛阳市,河科大西苑校区,细颗粒物(PM2.5),138,124,186,105,150,77,,,,28,54,5,10,0.8,1.2
2026-01-25T0300,3636A,112.4387,34.678,洛阳市,英才小学,细颗粒物(PM2.5),145,131,193,111,163,74,,,,29,57,8,10,0.9,1.4
2026-01-25T0300,4214A,112.460027,34.694929,洛阳市,春都路1号院,细颗粒物(PM2.5),129,133,206,98,145,68,,,,24,47,8,8,0.7,1.3
2026-01-25T0300,2399A,114.051,33.5721,漯河市,三五一五工厂,细颗粒物(PM2.5),163,144,142,124,113,63,,,,18,24,6,7,1.2,1.2
2026-01-25T0300,2400A,114.0055,33.5698,漯河市,漯河大学,细颗粒物(PM2.5),149,115,114,114,108,71,,,,17,24,5,5,0.6,0.7
2026-01-25T0300,2401A,114.0134,33.5826,漯河市,市水利局,细颗粒物(PM2.5),160,134,124,122,110,56,,,,18,19,4,4,0.9,0.9
2026-01-25T0300,2402A,114.0261,33.5697,漯河市,市广电局,细颗粒物(PM2.5),158,127,121,120,112,62,,,,14,20,6,6,0.8,0.9
2026-01-25T0300,3478A,113.9691,33.568,漯河市,市图书馆,细颗粒物(PM2.5),153,136,136,117,115,68,,,,15,22,6,7,0.9,0.9
2026-01-25T0300,4250A,114.089259,33.588274,漯河市,韶山路11号,细颗粒物(PM2.5),158,137,135,120,114,53,,,,24,28,6,7,0.8,0.8
2026-01-25T0300,1798A,118.5084,31.6838,马鞍山市,湖东路四小,细颗粒物(PM2.5),112,112,109,84,73,,,,,50,48,4,7,0.9,0.9
2026-01-25T0300,1799A,118.5019,31.6449,马鞍山市,开发区,细颗粒物(PM2.5),150,127,111,115,91,22,,,,55,48,5,9,0.9,0.9
2026-01-25T0300,3633A,118.4914,31.681,马鞍山市,雨山,细颗粒物(PM2.5),117,125,110,88,77,31,,,,52,51,8,12,0.8,0.9
2026-01-25T0300,4191A,118.527362,31.722269,马鞍山市,慈湖高新区,细颗粒物(PM2.5),122,131,108,92,82,36,,,,47,47,6,7,0.9,0.9
2026-01-25T0300,1686A,111.0285,21.469,茂名市,电白南海,,48,48,62,31,37,100,,,,16,22,10,13,1.0,1
2026-01-25T0300,1687A,110.9294,21.6533,茂名市,茂石化七小,,,51,73,31,41,89,,,,14,27,,17,0.7,1
2026-01-25T0300,1688A,110.9108,21.6688,茂名市,健康路,,50,48,60,35,40,107,,,,18,28,13,23,0.7,1
2026-01-25T0300,1689A,110.8592,21.6826,茂名市,高岭,,,66,72,44,38,95,,,,26,29,,24,/,/
2026-01-25T0300,3450A,111.0101,21.5165,茂名市,电白水东,,49,44,60,34,38,85,,,,15,19,17,12,/,/
2026-01-25T0300,2540A,103.8414,30.0871,眉山市,气象局,细颗粒物(PM2.5),100,,81,75,68,6,,,,33,29,14,14,0.9,1
2026-01-25T0300,3148A,103.829,30.0563,眉山市,区人社局,细颗粒物(PM2.5),77,75,76,56,64,31,,,,21,25,7,8,0.8,0.9
2026-01-25T0300,4148A,103.8836,30.0695,眉山市,眉职院,细颗粒物(PM2.5),84,83,83,62,62,15,,,,22,19,1,1,0.9,1
2026-01-25T0300,1690A,116.1248,24.3307,梅州市,梅江月梅,,,59,48,33,35,,,,,50,32,/,/,/,/
2026-01-25T0300,1691A,116.0798,24.2719,梅州市,梅县新城,细颗粒物(PM2.5),52,50,51,36,39,8,,,,44,35,7,8,0.6,0.7
2026-01-25T0300,3315A,116.1234,24.2994,梅州市,梅龙,颗粒物(PM10),58,66,54,33,33,1,,,,48,34,8,8,1.0,1
2026-01-25T0300,1878A,104.7775,31.4741,绵阳市,富乐山,细颗粒物(PM2.5),94,77,69,70,57,24,,,,17,21,9,8,0.6,0.7
2026-01-25T0300,1880A,104.6698,31.4668,绵阳市,高新区自来水公司,细颗粒物(PM2.5),85,78,80,63,64,10,,,,32,34,8,9,1.0,1
2026-01-25T0300,3491A,104.6899,31.5324,绵阳市,西科大附属小学,细颗粒物(PM2.5),83,78,84,61,60,20,,,,23,38,8,8,0.8,0.9
2026-01-25T0300,3492A,104.5647,31.5343,绵阳市,安州区旅游局,细颗粒物(PM2.5),77,63,73,56,62,27,,,,15,33,10,8,0.8,0.7
2026-01-25T0300,4146A,104.7092,31.4972,绵阳市,科技城新区公安局,细颗粒物(PM2.5),79,96,73,58,53,16,,,,37,40,6,6,0.9,0.9
2026-01-25T0300,4226A,104.765114,31.453094,绵阳市,绵阳市气象局,细颗粒物(PM2.5),88,74,71,65,59,22,,,,18,26,4,5,0.8,0.8
2026-01-25T0300,1784A,129.61,44.561,牡丹江市,环保大楼,,43,43,39,26,24,52,,,,14,18,3,3,0.2,0.3
2026-01-25T0300,1787A,129.6364,44.6075,牡丹江市,机车工厂,臭氧1小时(O3_1h),102,40,53,23,36,203,,,,17,27,6,8,0.3,0.5
2026-01-25T0300,1788A,129.6386,44.5462,牡丹江市,第一中学,,43,34,33,30,21,33,,,,30,21,6,4,0.4,0.3
2026-01-25T0300,4287A,129.5992,44.5964,牡丹江市,东晓云街98号,,50,50,41,20,24,62,,,,13,20,4,4,0.5,0.5
2026-01-25T0300,2531A,105.0703,29.61,内江市,市监测站,细颗粒物(PM2.5),85,,60,63,57,44,,,,11,16,5,5,0.7,0.8
2026-01-25T0300,2533A,105.0657,29.5807,内江市,内江二中,细颗粒物(PM2.5),73,90,68,53,45,35,,,,23,28,5,6,0.4,0.5
2026-01-25T0300,2534A,105.0407,29.5828,内江市,内江日报社,细颗粒物(PM2.5),74,61,57,54,50,36,,,,25,32,7,7,0.8,0.9
2026-01-25T0300,4147A,105.0433,29.6105,内江市,玉峰路西段888号,细颗粒物(PM2.5),73,59,56,53,50,39,,,,20,25,2,3,1.1,1.2
2026-01-25T0300,2628A,92.0653,31.4846,那曲市,那曲监测站,,31,31,46,3,14,82,,,,3,10,5,7,0.5,0.6
2026-01-25T0300,4243A,92.0515,31.4787,那曲市,那曲市委宣传部,,28,21,34,3,8,89,,,,1,3,3,4,0.3,0.4
2026-01-25T0300,1291A,115.8887,28.7006,南昌市,省林业公司,细颗粒物(PM2.5),89,75,84,66,68,23,,,,40,56,5,6,0.5,0.6
2026-01-25T0300,1292A,115.813,28.7443,南昌市,林科所,细颗粒物(PM2.5),70,63,73,51,59,29,,,,35,41,4,6,0.5,0.5
2026-01-25T0300,1294A,115.8518,28.687,南昌市,建工学校,细颗粒物(PM2.5),95,100,91,71,67,13,,,,68,63,10,10,0.9,0.9
2026-01-25T0300,1295A,115.8926,28.6425,南昌市,象湖,细颗粒物(PM2.5),94,96,87,70,72,9,,,,48,49,9,10,0.8,0.9
2026-01-25T0300,3046A,115.9084,28.6062,南昌市,机电学校,细颗粒物(PM2.5),98,101,109,73,76,7,,,,57,52,5,6,0.7,0.7
2026-01-25T0300,3690A,115.9718,28.7032,南昌市,外国语学校,,,,91,66,67,,,,,35,39,13,14,0.6,0.6
2026-01-25T0300,4106A,115.7923,28.6873,南昌市,工业二路,细颗粒物(PM2.5),100,85,83,75,69,29,,,,37,46,6,6,0.7,0.7
2026-01-25T0300,4192A,115.931587,28.686774,南昌市,南京东路235号,细颗粒物(PM2.5),110,85,96,83,84,13,,,,44,43,6,7,0.6,0.8
2026-01-25T0300,1906A,106.0791,30.8022,南充市,南充市委,细颗粒物(PM2.5),74,65,59,54,47,22,,,,22,30,4,4,0.7,0.8
2026-01-25T0300,1907A,106.1038,30.8215,南充市,南充炼油厂,,,70,67,53,51,30,,,,10,21,,6,0.6,0.7
2026-01-25T0300,4227A,106.108336,30.788436,南充市,梨树横街98号,细颗粒物(PM2.5),63,62,61,45,41,36,,,,17,25,5,5,0.7,0.8
2026-01-25T0300,4304A,106.1172,30.843,南充市,清泉寺北路188号,细颗粒物(PM2.5),58,53,50,41,41,34,,,,11,18,7,7,0.6,0.6
2026-01-25T0300,4305A,106.067,30.7616,南充市,同庆路1号,,,,57,51,45,30,,,,20,35,,7,0.8,0.9
2026-01-25T0300,1151A,118.8033,32.1085,南京市,迈皋桥,细颗粒物(PM2.5),104,111,89,78,65,46,,,,38,42,10,7,0.7,0.7
2026-01-25T0300,1152A,118.7487,32.057,南京市,草场门,细颗粒物(PM2.5),117,117,93,88,65,33,,,,55,48,6,4,1.1,1
2026-01-25T0300,1154A,118.770105,32.004342,南京市,中华门,细颗粒物(PM2.5),122,107,91,92,69,54,,,,32,41,8,5,0.7,0.8
2026-01-25T0300,1155A,118.8059,32.0329,南京市,瑞金路,细颗粒物(PM2.5),117,114,93,88,71,41,,,,26,30,4,4,0.8,1.4
2026-01-25T0300,1156A,118.7946,32.0774,南京市,玄武湖,细颗粒物(PM2.5),117,123,90,88,68,45,,,,27,26,4,4,1.1,1.1
2026-01-25T0300,1157A,118.6415,32.0964,南京市,浦口,细颗粒物(PM2.5),113,121,104,85,73,26,,,,67,53,10,10,0.8,0.6
2026-01-25T0300,1158A,118.730129,32.000956,南京市,奥体中心,细颗粒物(PM2.5),134,125,97,102,73,58,,,,40,47,14,13,0.9,0.9
2026-01-25T0300,1159A,118.9072,32.1047,南京市,仙林大学城,细颗粒物(PM2.5),113,114,94,85,69,47,,,,43,40,9,8,1.0,1.1
2026-01-25T0300,3422A,118.8443,31.919,南京市,江宁彩虹桥,细颗粒物(PM2.5),122,136,111,92,75,48,,,,57,59,8,5,1.0,1
2026-01-25T0300,3427A,118.8497,32.3599,南京市,六合雄州,细颗粒物(PM2.5),124,117,102,94,73,26,,,,45,44,,11,0.9,0.8
2026-01-25T0300,4086A,118.7641,32.0841,南京市,新模范马路66号,细颗粒物(PM2.5),118,122,95,89,70,62,,,,32,31,4,4,0.7,0.6
2026-01-25T0300,4249A,118.8707617,31.34017673,南京市,汶溪路181号,细颗粒物(PM2.5),153,121,91,117,85,39,,,,51,51,9,9,1.2,1.2
2026-01-25T0300,4312A,119.019,31.6512,南京市,中山西路1号,细颗粒物(PM2.5),147,,88,112,77,59,,,,26,35,4,4,1.1,1.3
2026-01-25T0300,1401A,108.3098,22.788,南宁市,二十一中,细颗粒物(PM2.5),82,73,47,60,46,5,,,,34,28,4,3,0.9,0.8
2026-01-25T0300,1402A,108.3135,22.8529,南宁市,北湖,细颗粒物(PM2.5),95,100,52,71,57,0,,,,40,30,1,4,1.0,0.8
2026-01-25T0300,1403A,108.3205,22.8222,南宁市,市监测站,细颗粒物(PM2.5),75,80,47,55,36,0,,,,39,29,4,7,1.2,0.9
2026-01-25T0300,1404A,108.3828,22.8038,南宁市,大自然花园,细颗粒物(PM2.5),79,86,52,58,40,2,,,,26,14,4,5,1.0,0.8
2026-01-25T0300,1406A,108.2397,22.8462,南宁市,区农职院,细颗粒物(PM2.5),79,86,53,58,45,0,,,,43,32,7,8,0.8,0.6
2026-01-25T0300,1407A,108.3285,22.7356,南宁市,英华嘉园,细颗粒物(PM2.5),102,,51,76,51,6,,,,23,19,3,3,0.9,0.7
2026-01-25T0300,3401A,108.4829,22.762,南宁市,红星社区,细颗粒物(PM2.5),69,66,48,50,42,6,,,,25,20,4,4,1.0,0.8
2026-01-25T0300,4132A,108.2927,23.1477,南宁市,起凤路9号,细颗粒物(PM2.5),108,105,51,81,44,6,,,,23,17,1,1,1.0,0.9
2026-01-25T0300,4221A,108.2177,22.7774,南宁市,乐贤路16号,细颗粒物(PM2.5),104,84,51,78,52,0,,,,36,32,3,3,0.9,0.8
2026-01-25T0300,2332A,118.1682,26.6371,南平市,南平市监测站,,,28,40,23,34,,,,,12,17,3,5,0.7,0.7
2026-01-25T0300,2334A,118.1757,26.6276,南平市,南平七中,,29,27,37,20,31,38,,,,22,20,3,5,0.5,0.5
2026-01-25T0300,1168A,120.9056,31.9669,南通市,狼山街道,细颗粒物(PM2.5),139,122,92,106,75,31,,,,55,42,2,4,0.7,0.6
2026-01-25T0300,1170A,120.8635,32.0231,南通市,城中,细颗粒物(PM2.5),104,106,93,78,69,67,,,,33,38,4,5,0.7,0.7
2026-01-25T0300,1171A,120.9376,31.9301,南通市,星湖花园,细颗粒物(PM2.5),103,91,86,77,65,64,,,,38,41,4,5,0.6,0.6
2026-01-25T0300,1172A,120.8053,32.046,南通市,紫琅学院,,,95,96,71,71,63,,,,34,38,,5,0.7,0.7
2026-01-25T0300,3291A,121.0631,32.0644,南通市,通州监测站,细颗粒物(PM2.5),89,88,93,66,77,89,,,,19,35,3,4,0.6,0.8
2026-01-25T0300,3432A,120.9348,31.9874,南通市,环境教育馆,细颗粒物(PM2.5),112,92,85,84,75,24,,,,42,42,3,5,0.8,0.8
2026-01-25T0300,4091A,120.8692,31.9885,南通市,洪江路,细颗粒物(PM2.5),103,82,78,77,69,66,,,,32,29,4,4,0.7,0.7
2026-01-25T0300,2404A,112.5338,33.0086,南阳市,瓦房庄,细颗粒物(PM2.5),113,97,104,85,96,74,,,,10,25,6,6,0.9,1
2026-01-25T0300,2405A,112.5002,32.9734,南阳市,汉画馆,细颗粒物(PM2.5),115,99,107,87,96,73,,,,13,27,6,7,0.8,0.8
2026-01-25T0300,2406A,112.5778,33.0144,南阳市,气象站,细颗粒物(PM2.5),117,112,117,88,91,72,,,,13,28,4,5,0.9,0.9
2026-01-25T0300,2407A,112.548,32.9687,南阳市,理工学院,细颗粒物(PM2.5),94,92,100,70,78,67,,,,13,28,5,5,0.9,0.9
2026-01-25T0300,4008A,112.5233,32.9921,南阳市,卧龙区政府,细颗粒物(PM2.5),115,112,122,87,95,72,,,,10,26,6,6,0.9,1
2026-01-25T0300,1234A,121.8352,29.9111,宁波市,区环保大楼,细颗粒物(PM2.5),84,92,106,62,66,20,,,,58,69,5,9,0.5,0.6
2026-01-25T0300,1235A,121.5595,29.8208,宁波市,万里学院,细颗粒物(PM2.5),104,102,98,78,72,18,,,,71,57,3,7,0.8,0.7
2026-01-25T0300,1236A,121.713,29.9564,宁波市,龙赛医院,细颗粒物(PM2.5),108,106,104,81,74,26,,,,81,59,6,7,0.7,0.7
2026-01-25T0300,1240A,121.5855,29.8635,宁波市,太古小学,,,110,115,70,75,4,,,,86,57,5,7,,0.8
2026-01-25T0300,1241A,121.5239,29.8673,宁波市,市环境监测中心,细颗粒物(PM2.5),104,98,98,78,76,30,,,,66,52,8,10,0.9,0.9
2026-01-25T0300,2871A,121.6156,29.9015,宁波市,万里国际学校,细颗粒物(PM2.5),104,101,103,78,78,26,,,,65,61,5,7,0.9,0.9
2026-01-25T0300,3710A,121.5593,29.8976,宁波市,白沙活动中心,细颗粒物(PM2.5),104,93,86,78,72,11,,,,76,56,4,7,0.6,0.6
2026-01-25T0300,4095A,121.8962,29.7529,宁波市,中科路88号,细颗粒物(PM2.5),69,65,79,50,63,21,,,,58,47,5,7,0.5,0.5
2026-01-25T0300,2341A,119.5387,26.6611,宁德市,宁德市监测站,,28,,33,19,34,56,,,,15,31,3,6,0.5,0.7
2026-01-25T0300,3209A,119.5231,26.6562,宁德市,宁德一中,,26,22,35,18,30,44,,,,19,23,3,5,0.7,0.7
2026-01-25T0300,2618A,98.859,25.8541,怒江傈僳族自治州,州监测站,,36,34,36,25,24,34,,,,15,13,2,4,0.4,0.5
2026-01-25T0300,2619A,98.8607,25.8168,怒江傈僳族自治州,泸水一中,,43,,32,30,27,25,,,,16,19,4,4,0.6,0.7
2026-01-25T0300,1888A,101.6891,26.571,攀枝花市,弄弄坪,细颗粒物(PM2.5),107,134,91,80,64,0,,,,70,41,31,25,3.2,1.6
2026-01-25T0300,1889A,101.577,26.5914,攀枝花市,河门口,颗粒物(PM10),67,84,79,31,42,24,,,,31,28,14,22,1.2,1.5
2026-01-25T0300,1891A,101.7365,26.4986,攀枝花市,仁和,,,62,66,41,44,33,,,,20,25,,16,1.1,1.3
2026-01-25T0300,2835A,101.7222,26.567,攀枝花市,四十中小,,,106,112,66,66,9,,,,66,39,,22,2.7,1.8
2026-01-25T0300,1604A,122.0303,41.1489,盘锦市,开发区,,39,39,78,22,58,32,,,,38,39,5,9,0.6,0.9
2026-01-25T0300,1605A,122.0486,41.0883,盘锦市,兴隆台,,35,35,63,20,51,42,,,,20,44,8,9,0.7,1.1
2026-01-25T0300,1606A,121.8297,41.1026,盘锦市,新生街道,,,75,68,66,51,,,,,53,44,8,11,0.8,0.9
2026-01-25T0300,1832A,113.3257,33.7423,平顶山市,新华旅馆,细颗粒物(PM2.5),148,145,137,113,104,70,,,,24,41,5,6,0.8,0.8
2026-01-25T0300,1833A,113.2917,33.737,平顶山市,规划设计院,细颗粒物(PM2.5),152,160,143,116,103,70,,,,18,28,6,6,0.8,0.8
2026-01-25T0300,1834A,113.182,33.7738,平顶山市,平顶山工学院,细颗粒物(PM2.5),168,143,132,127,111,69,,,,22,28,6,7,0.8,0.8
2026-01-25T0300,3594A,112.8736,33.9068,平顶山市,石龙区,细颗粒物(PM2.5),149,136,146,114,121,87,,,,14,23,5,6,0.8,0.9
2026-01-25T0300,4116A,113.284,33.7139,平顶山市,姚电大道23号,细颗粒物(PM2.5),170,161,146,129,113,70,,,,26,30,5,6,0.7,0.7
2026-01-25T0300,2656A,106.6633,35.5338,平凉市,聚贤嘉苑,颗粒物(PM10),500,1133,169,174,72,68,,,,13,27,20,20,0.5,0.8
2026-01-25T0300,2657A,106.7021,35.5307,平凉市,博物馆,颗粒物(PM10),500,1186,172,172,83,68,,,,10,28,8,11,0.7,1.1
2026-01-25T0300,2348A,113.8384,27.6436,萍乡市,中医院,细颗粒物(PM2.5),73,73,95,53,59,62,,,,18,33,12,8,0.8,2.1
2026-01-25T0300,2350A,113.8677,27.6438,萍乡市,市环保局,细颗粒物(PM2.5),78,66,81,57,61,62,,,,17,27,16,18,1.0,2
2026-01-25T0300,2351A,113.8663,27.6202,萍乡市,安源区政府,细颗粒物(PM2.5),84,83,82,62,63,38,,,,34,33,13,13,1.2,2.2
2026-01-25T0300,4107A,113.8686,27.6668,萍乡市,联洪村委会,细颗粒物(PM2.5),75,79,73,55,54,67,,,,12,24,12,6,0.7,1.3
2026-01-25T0300,2319A,119.0142,25.4324,莆田市,荔城区仓后路,,21,19,27,10,14,66,,,,9,15,/,/,/,/
2026-01-25T0300,2320A,119.0016,25.4553,莆田市,莆田市监测站,,23,18,19,11,10,73,,,,6,9,3,3,0.5,0.6
2026-01-25T0300,2321A,119.112,25.4561,莆田市,涵江区六中,,23,22,27,10,16,73,,,,10,16,/,/,0.4,0.5
2026-01-25T0300,2322A,119.1014,25.3215,莆田市,秀屿区政府,,26,26,29,17,17,60,,,,16,16,3,3,0.6,0.6
2026-01-25T0300,2392A,115.0312,35.7636,濮阳市,环保局,细颗粒物(PM2.5),192,165,121,144,119,35,,,,68,49,8,7,1.2,1
2026-01-25T0300,3021A,115,35.7667,濮阳市,濮水河管理处,细颗粒物(PM2.5),186,,140,140,122,16,,,,65,35,5,6,1.2,1
2026-01-25T0300,4118A,115.0552,35.7816,濮阳市,中原东路68号,细颗粒物(PM2.5),203,188,152,153,127,25,,,,56,38,5,6,1.1,0.9
2026-01-25T0300,4216A,115.0923632,35.76857718,濮阳市,任丘路479号,细颗粒物(PM2.5),213,187,155,163,133,17,,,,66,43,,7,1.6,1.2
2026-01-25T0300,2601A,100.9801,22.7634,普洱市,市环保局,,48,48,51,24,15,40,,,,4,11,5,5,0.3,0.4
2026-01-25T0300,2602A,100.9763,22.8237,普洱市,普洱第二中学,,40,40,45,19,26,10,,,,36,19,5,5,0.3,0.3
2026-01-25T0300,3345A,131.0413,45.7795,七台河市,中波台,,46,44,29,32,20,50,,,,22,14,14,10,0.5,0.4
2026-01-25T0300,3637A,131.0136,45.7688,七台河市,人民广场,,47,47,35,32,20,56,,,,22,20,7,6,0.6,0.5
2026-01-25T0300,3684A,130.8639,45.8144,七台河市,新建矿广场,,45,,29,31,23,56,,,,9,13,4,7,0.4,0.4
2026-01-25T0300,1779A,123.9307,47.3641,齐齐哈尔市,安居小区,,18,15,25,10,14,57,,,,9,16,7,7,0.7,0.8
2026-01-25T0300,1780A,123.9497,47.3389,齐齐哈尔市,中心广场,,20,11,18,3,9,61,,,,6,13,5,5,0.3,0.5
2026-01-25T0300,1781A,123.9483,47.3229,齐齐哈尔市,农牧车辆厂,,20,9,21,3,8,62,,,,4,9,4,5,0.2,0.3
2026-01-25T0300,1783A,123.9442,47.2994,齐齐哈尔市,市环境监测站,,21,10,23,3,11,65,,,,3,13,2,4,0.4,0.5
2026-01-25T0300,3662A,123.6341,47.2079,齐齐哈尔市,富区青少年活动中心,,21,12,32,6,12,66,,,,4,14,3,6,0.5,0.6
2026-01-25T0300,2591A,107.9765,26.5724,黔东南苗族侗族自治州,市环境监测站,,32,25,47,22,38,36,,,,11,19,5,6,0.7,0.7
2026-01-25T0300,2881A,107.8909,26.531,黔东南苗族侗族自治州,凯里学院,,26,19,45,18,31,41,,,,10,14,2,3,0.6,0.7
2026-01-25T0300,2593A,107.5223,26.2371,黔南布依族苗族自治州,小围寨,,11,7,38,7,31,34,,,,5,9,4,7,0.7,0.9
2026-01-25T0300,3538A,107.5175,26.2977,黔南布依族苗族自治州,沙坝,,13,12,44,9,34,35,,,,7,12,4,6,0.7,0.8
2026-01-25T0300,2589A,104.9022,25.0943,黔西南布依族苗族自治州,场坝街,,29,29,32,12,19,27,,,,6,9,2,2,0.7,0.8
2026-01-25T0300,2590A,104.8812,25.0994,黔西南布依族苗族自治州,坪东大道,,40,,28,28,25,28,,,,6,9,4,5,0.8,0.9
2026-01-25T0300,2502A,108.6238,21.9667,钦州市,市环保站,细颗粒物(PM2.5),80,75,70,59,51,9,,,,21,26,2,2,1.4,1.7
2026-01-25T0300,2503A,108.655,21.9481,钦州市,沙埠小学,细颗粒物(PM2.5),77,89,68,56,42,2,,,,31,27,4,3,1.1,0.7
2026-01-25T0300,2504A,108.5989,21.7435,钦州市,港区一小,细颗粒物(PM2.5),77,72,60,56,47,3,,,,31,31,1,2,1.2,1.1
2026-01-25T0300,3404A,108.5959,21.9634,钦州市,北职校,细颗粒物(PM2.5),74,,45,54,48,13,,,,15,17,1,2,0.9,1
2026-01-25T0300,1046A,119.5247,39.9346,秦皇岛市,建设大厦,细颗粒物(PM2.5),57,62,51,40,26,5,,,,49,36,7,9,0.8,0.7
2026-01-25T0300,3132A,119.5979,39.938,秦皇岛市,文明里,,46,46,52,23,29,19,,,,47,39,13,13,0.5,0.4
2026-01-25T0300,4066A,119.7458,39.9952,秦皇岛市,南园路157号,,46,46,48,25,26,3,,,,69,48,10,11,0.8,0.7
2026-01-25T0300,4067A,119.5131,39.8858,秦皇岛市,翠岛大街1号,颗粒物(PM10),56,61,51,25,21,17,,,,44,34,12,12,0.6,0.6
2026-01-25T0300,4198A,119.509013,39.825305,秦皇岛市,北戴河轮滑馆,颗粒物(PM10),53,56,44,19,23,33,,,,36,36,8,8,0.5,0.6
2026-01-25T0300,1310A,120.404,36.0625,青岛市,市南区东部子站,,49,48,86,34,62,72,,,,19,35,8,11,0.6,0.7
2026-01-25T0300,1311A,120.362344,36.10282,青岛市,四方区子站,细颗粒物(PM2.5),55,46,88,39,77,45,,,,34,45,4,6,0.9,1.1
2026-01-25T0300,1312A,120.294373,36.054183,青岛市,市南区西部子站,细颗粒物(PM2.5),77,78,112,56,79,7,,,,93,53,10,7,0.9,0.9
2026-01-25T0300,1313A,120.4581,36.0858,青岛市,崂山区子站,,42,41,71,29,52,74,,,,20,35,10,11,0.5,0.6
2026-01-25T0300,1315A,120.3945,36.3083,青岛市,城阳区子站,细颗粒物(PM2.5),59,63,118,42,72,56,,,,30,57,13,10,0.8,1.3
2026-01-25T0300,3642A,120.3454,36.0735,青岛市,市北区南部,颗粒物(PM10),58,65,103,34,67,20,,,,65,41,3,4,1.0,1
2026-01-25T0300,3643A,120.3897,36.18,青岛市,李沧区北部,细颗粒物(PM2.5),64,46,88,46,75,47,,,,31,53,8,10,0.7,1.2
2026-01-25T0300,4110A,120.5222,36.4089,青岛市,盟旺路653号,细颗粒物(PM2.5),69,82,116,50,82,56,,,,25,42,3,6,0.9,1.1
2026-01-25T0300,4290A,120.196923,35.954556,青岛市,珠江路669号,细颗粒物(PM2.5),110,107,102,83,89,10,,,,88,43,9,7,1.2,1
2026-01-25T0300,4291A,120.0424,35.8656,青岛市,黄岛区人民政府广场,细颗粒物(PM2.5),192,171,137,144,107,9,,,,77,58,10,10,2.1,1.5
2026-01-25T0300,1703A,113.0218,23.7086,清远市,凤城街办,,50,50,52,32,32,13,,,,37,43,/,/,/,/
2026-01-25T0300,3025A,113.0479,23.6343,清远市,技师学院,颗粒物(PM10),57,64,52,32,32,0,,,,52,40,6,8,0.9,0.9
2026-01-25T0300,3318A,112.9898,23.7403,清远市,清新太和,,41,41,41,26,27,17,,,,36,28,8,10,0.9,0.7
2026-01-25T0300,3455A,113.076,23.72,清远市,清城东城,,39,39,47,24,28,13,,,,32,33,/,/,/,/
2026-01-25T0300,2661A,107.6325,35.7357,庆阳市,庆阳五中,细颗粒物(PM2.5),103,92,66,77,52,83,,,,22,21,5,6,0.7,0.7
2026-01-25T0300,2662A,107.6361,35.7067,庆阳市,市环保局,细颗粒物(PM2.5),123,,70,93,68,89,,,,17,17,7,8,0.6,0.7
2026-01-25T0300,1916A,103.7897,25.5036,曲靖市,环境监测站,,23,20,32,10,13,71,,,,7,14,4,5,0.5,0.6
2026-01-25T0300,1917A,103.8013,25.5357,曲靖市,烟厂办公区,,22,20,39,3,17,70,,,,8,16,4,5,0.3,0.5
2026-01-25T0300,3376A,103.7926,25.4651,曲靖市,南苑二区,,23,23,26,10,14,71,,,,4,7,4,5,0.4,0.4
2026-01-25T0300,3377A,103.7442,25.5259,曲靖市,曲靖师范学院,,29,29,34,17,15,67,,,,13,18,8,5,0.3,0.4
2026-01-25T0300,1264A,118.8694,28.94,衢州市,环保大楼,细颗粒物(PM2.5),115,110,97,87,78,5,,,,80,56,/,/,/,/
2026-01-25T0300,1266A,118.8622,28.9809,衢州市,衢州学院,细颗粒物(PM2.5),94,91,85,70,67,21,,,,53,51,5,6,0.9,0.8
2026-01-25T0300,4097A,118.9646,28.9832,衢州市,衢州三中,细颗粒物(PM2.5),119,124,103,90,77,0,,,,68,48,6,5,0.9,0.9
2026-01-25T0300,1611A,118.5818,24.9116,泉州市,涂山街,,20,,31,14,20,60,,,,10,21,2,3,0.4,0.6
2026-01-25T0300,1612A,118.597,24.8976,泉州市,津头埔,,23,16,31,16,22,55,,,,14,20,4,4,0.5,0.5
2026-01-25T0300,1613A,118.6669,24.9422,泉州市,万安,,19,16,28,12,18,59,,,,16,19,2,3,0.5,0.5
2026-01-25T0300,4105A,118.6355,24.9148,泉州市,霞新路6号,,22,20,28,15,19,55,,,,17,21,/,/,0.5,0.5
2026-01-25T0300,2626A,88.8873,29.2723,日喀则市,日喀则监测站,,25,10,20,3,6,79,,,,2,7,6,7,0.3,0.3
2026-01-25T0300,3726A,88.8775,29.2425,日喀则市,林业技术推广中心,,30,11,24,3,4,93,,,,4,5,8,9,0.2,0.3
2026-01-25T0300,1659A,119.4711,35.421,日照市,监测站,细颗粒物(PM2.5),122,124,132,92,95,2,,,,85,68,14,16,1.8,1.6
2026-01-25T0300,1660A,119.523,35.4216,日照市,市政府广场,细颗粒物(PM2.5),130,112,114,99,85,3,,,,92,63,10,12,1.3,0.9
2026-01-25T0300,1661A,119.5511,35.4113,日照市,港务局,细颗粒物(PM2.5),127,119,129,96,95,0,,,,92,60,8,10,1.3,1
2026-01-25T0300,3507A,119.5326,35.4627,日照市,职业技术学院,细颗粒物(PM2.5),62,68,108,44,68,51,,,,31,47,6,10,0.9,1.1
2026-01-25T0300,3604A,119.3267,35.1043,日照市,岚山环保分局,细颗粒物(PM2.5),110,107,118,83,90,35,,,,74,44,12,15,1.1,1.2
2026-01-25T0300,1835A,111.1922,34.7752,三门峡市,市政府,细颗粒物(PM2.5),114,,113,86,133,73,,,,16,26,7,11,1.0,1.2
2026-01-25T0300,1836A,111.1588,34.794,三门峡市,开发区,细颗粒物(PM2.5),113,109,167,85,136,68,,,,18,26,5,10,0.6,0.9
2026-01-25T0300,3039A,111.1911,34.7829,三门峡市,三门峡市第一小学,细颗粒物(PM2.5),104,80,130,78,132,71,,,,22,28,6,11,0.7,0.8
2026-01-25T0300,3598A,111.1031,34.719,三门峡市,富达温泉假日酒店,细颗粒物(PM2.5),114,86,132,86,121,68,,,,20,27,6,8,0.9,0.9
2026-01-25T0300,2324A,117.621,26.2626,三明市,三钢,细颗粒物(PM2.5),65,,49,47,53,2,,,,31,36,5,11,0.8,0.8
2026-01-25T0300,2325A,117.6352,26.2714,三明市,三明二中,,40,38,43,28,37,6,,,,29,25,3,6,0.8,1
2026-01-25T0300,2326A,117.6028,26.2377,三明市,三元区政府,,40,34,49,28,41,5,,,,28,32,4,11,0.9,1.2
2026-01-25T0300,1877A,109.4962,18.2682,三亚市,河西子站,,27,24,30,12,13,85,,,,7,9,3,3,0.5,0.5
2026-01-25T0300,3540A,109.7348,18.3443,三亚市,君悦子站,,22,22,32,12,14,53,,,,14,14,4,5,0.5,0.5
2026-01-25T0300,4135A,109.1714,18.3739,三亚市,城东小学站,,28,28,38,14,18,46,,,,9,12,/,/,/,/
2026-01-25T0300,2624A,91.7592,29.234,山南市,山南监测站,,28,,19,15,8,87,,,,2,4,4,4,0.2,0.2
2026-01-25T0300,2625A,91.7701,29.2436,山南市,山南人民医院,,28,13,24,10,9,87,,,,1,4,7,6,0.4,0.4
2026-01-25T0300,1674A,116.6795,23.3666,汕头市,金平子站,,,19,34,17,26,70,,,,11,17,,7,0.7,0.8
2026-01-25T0300,1675A,116.7248,23.3632,汕头市,龙湖子站,,23,19,32,14,20,71,,,,11,15,10,11,/,/
2026-01-25T0300,1676A,116.7257,23.2774,汕头市,濠江子站,,25,21,29,12,23,77,,,,11,16,7,8,/,/
2026-01-25T0300,1677A,116.7518,23.4712,汕头市,澄海子站,,26,18,38,18,26,70,,,,7,14,6,8,0.5,0.6
2026-01-25T0300,1678A,116.6088,23.2539,汕头市,潮阳子站,,25,17,32,7,17,79,,,,5,12,6,7,0.5,0.6
2026-01-25T0300,3444A,116.4539,23.2684,汕头市,潮南峡山,,,20,36,12,23,,,,,7,17,5,8,0.6,0.7
2026-01-25T0300,3624A,116.4069,23.2533,汕头市,潮南子站,,36,36,53,15,27,72,,,,10,21,7,9,/,/
2026-01-25T0300,1693A,115.3653,22.7751,汕尾市,市环保局,,30,,35,21,27,89,,,,9,15,7,10,0.5,0.7
2026-01-25T0300,1695A,115.362,22.7926,汕尾市,新城中学,,38,,35,26,28,82,,,,10,15,5,10,0.5,0.6
2026-01-25T0300,2645A,109.9155,33.8714,商洛市,监测站,细颗粒物(PM2.5),78,81,68,57,45,68,,,,19,23,7,8,0.7,0.7
2026-01-25T0300,3045A,109.9647,33.8486,商洛市,商州区中学,细颗粒物(PM2.5),75,,54,55,45,64,,,,15,22,5,8,0.7,0.8
2026-01-25T0300,2408A,115.6701,34.4283,商丘市,环境监测站,细颗粒物(PM2.5),189,143,114,142,115,61,,,,30,33,2,3,0.9,0.9
2026-01-25T0300,2409A,115.6458,34.4047,商丘市,粮食局,细颗粒物(PM2.5),169,134,105,128,105,61,,,,20,23,4,4,1.0,0.9
2026-01-25T0300,3171A,115.6069,34.4465,商丘市,梁园区档案局,细颗粒物(PM2.5),169,,97,128,104,56,,,,29,31,1,2,0.9,0.9
2026-01-25T0300,4119A,115.6701,34.3767,商丘市,北海东路185号,细颗粒物(PM2.5),169,161,153,128,113,62,,,,21,32,1,2,0.7,0.9
2026-01-25T0300,4120A,115.6172,34.3704,商丘市,中山大街3号,细颗粒物(PM2.5),175,155,134,132,109,59,,,,26,32,5,4,0.7,0.7
2026-01-25T0300,1141A,121.401,31.2382,上海市,普陀,细颗粒物(PM2.5),85,69,80,63,69,68,,,,37,48,6,8,0.8,1
2026-01-25T0300,1142A,121.4774,31.2043,上海市,十五厂,,,77,80,60,64,48,,,,55,53,,8,0.6,0.8
2026-01-25T0300,1143A,121.4673,31.3011,上海市,虹口,细颗粒物(PM2.5),84,77,79,62,62,46,,,,43,46,8,9,0.5,0.6
2026-01-25T0300,1147A,121.4253,31.226,上海市,静安监测站,细颗粒物(PM2.5),79,62,73,58,65,72,,,,42,51,8,9,0.4,0.5
2026-01-25T0300,1148A,121.7029,31.1905,上海市,浦东川沙,细颗粒物(PM2.5),77,77,89,56,69,17,,,,86,61,8,8,0.7,0.8
2026-01-25T0300,1149A,121.5339,31.229,上海市,浦东新区监测站,细颗粒物(PM2.5),92,74,78,68,63,47,,,,56,55,6,8,0.8,0.8
2026-01-25T0300,1150A,121.5776,31.2038,上海市,浦东张江,细颗粒物(PM2.5),80,80,84,59,60,34,,,,58,50,7,8,0.6,0.7
2026-01-25T0300,3265A,121.4242,31.3303,上海市,宝山庙行,细颗粒物(PM2.5),85,84,88,63,68,43,,,,41,43,8,10,0.6,0.7
2026-01-25T0300,3266A,121.8789,31.4662,上海市,崇明上实东滩,,46,42,70,32,58,54,,,,9,16,4,4,0,0
2026-01-25T0300,3268A,121.316,31.2839,上海市,嘉定南翔,细颗粒物(PM2.5),87,87,89,64,64,17,,,,69,53,3,6,0.6,0.7
2026-01-25T0300,3269A,121.3357,30.7455,上海市,金山新城,,,71,72,61,73,49,,,,41,41,,11,0.5,0.6
2026-01-25T0300,3270A,121.4996,31.0741,上海市,闵行浦江,细颗粒物(PM2.5),92,89,83,68,64,28,,,,42,42,7,8,0.6,0.7
2026-01-25T0300,3271A,121.2886,31.1663,上海市,青浦徐泾,细颗粒物(PM2.5),89,88,94,66,69,32,,,,63,58,6,8,0.7,0.9
2026-01-25T0300,3272A,121.2193,31.0382,上海市,松江图书馆,细颗粒物(PM2.5),94,86,92,70,72,38,,,,56,60,6,8,0.7,0.9
2026-01-25T0300,3273A,121.3904,31.206,上海市,长宁仙霞,,,67,75,58,61,55,,,,36,44,,9,0.2,0.3
2026-01-25T0300,3274A,121.7964,31.0507,上海市,浦东惠南,细颗粒物(PM2.5),82,78,89,60,68,29,,,,64,60,5,6,0.5,0.7
2026-01-25T0300,3544A,121.4891,30.925,上海市,奉贤南桥新城,细颗粒物(PM2.5),109,113,103,82,73,38,,,,45,50,,4,0.6,0.7
2026-01-25T0300,4183A,121.417401,31.16637,上海市,冠生园路458号,细颗粒物(PM2.5),85,74,77,63,64,36,,,,47,50,4,5,0.8,0.9
2026-01-25T0300,4205A,121.541914,31.268301,上海市,宁武路151号,细颗粒物(PM2.5),84,80,87,62,61,13,,,,83,63,4,6,0.9,0.9
2026-01-25T0300,2382A,117.9758,28.4439,上饶市,市监测站,,,79,77,47,41,,,,,39,34,12,16,/,/
2026-01-25T0300,2383A,117.9521,28.4637,上饶市,凤凰光学,颗粒物(PM10),62,74,73,41,36,29,,,,49,38,16,22,0.8,0.8
2026-01-25T0300,3685A,117.897,28.4316,上饶市,双创科技城,,,69,71,44,48,,,,,53,46,8,13,1.0,1
2026-01-25T0300,4211A,118.190438,28.444845,上饶市,裕丰大道,细颗粒物(PM2.5),94,108,83,70,58,32,,,,58,45,16,13,1.1,1
2026-01-25T0300,1669A,113.5821,24.7733,韶关市,市八中,细颗粒物(PM2.5),74,78,63,54,42,1,,,,47,33,10,9,0.9,0.7
2026-01-25T0300,1671A,113.5916,24.7973,韶关市,园林处,,,59,47,53,43,2,,,,45,33,,8,/,/
2026-01-25T0300,1673A,113.5971,24.6864,韶关市,曲江监测站,颗粒物(PM10),58,65,55,40,40,5,,,,39,32,13,14,0.8,0.8
2026-01-25T0300,2809A,113.6668,24.7756,韶关市,大学路288号,细颗粒物(PM2.5),52,39,44,36,33,4,,,,24,21,4,8,/,/
2026-01-25T0300,3622A,113.5556,24.8082,韶关市,碧湖山庄,细颗粒物(PM2.5),70,82,56,51,40,7,,,,31,21,7,10,0.4,0.4
2026-01-25T0300,2464A,111.5277,27.2442,邵阳市,市化工厂,细颗粒物(PM2.5),72,73,67,52,51,36,,,,19,18,8,8,0.7,0.6
2026-01-25T0300,2466A,111.4327,27.2276,邵阳市,市环保局,细颗粒物(PM2.5),68,,50,49,51,33,,,,22,23,7,9,0.9,0.9
2026-01-25T0300,4218A,111.446,27.2472,邵阳市,北塔二期4-26地块,细颗粒物(PM2.5),74,60,68,54,61,35,,,,19,24,8,9,0.9,1.2
2026-01-25T0300,4219A,111.4739,27.2282,邵阳市,邵水西路287号,细颗粒物(PM2.5),70,59,57,51,53,35,,,,22,23,10,11,1.0,1
2026-01-25T0300,1247A,120.6053,29.9927,绍兴市,城东开发委,细颗粒物(PM2.5),137,127,102,104,82,3,,,,68,48,,10,1.0,0.8
2026-01-25T0300,2921A,120.5482,30.0003,绍兴市,树下王站,细颗粒物(PM2.5),124,121,102,94,77,10,,,,61,48,8,8,1.0,0.9
2026-01-25T0300,3408A,120.5685,29.936,绍兴市,绍兴中专,细颗粒物(PM2.5),122,120,98,92,79,0,,,,74,59,,9,0.7,0.6
2026-01-25T0300,3409A,120.4905,30.086,绍兴市,柯桥区政府,细颗粒物(PM2.5),134,138,113,102,84,33,,,,53,57,8,9,0.9,0.8
2026-01-25T0300,3410A,120.8751,30.0249,绍兴市,重华小学,细颗粒物(PM2.5),129,113,94,98,79,32,,,,47,47,8,8,0.7,0.6
2026-01-25T0300,3411A,120.837,30.0137,绍兴市,上虞中学,细颗粒物(PM2.5),124,111,94,94,79,40,,,,36,45,8,10,0.8,0.7
2026-01-25T0300,3560A,120.4715,30.0414,绍兴市,柯桥妇保,细颗粒物(PM2.5),118,111,102,89,78,17,,,,42,41,7,7,0.7,0.7
2026-01-25T0300,3658A,120.6156,30.0762,绍兴市,袍江中学,细颗粒物(PM2.5),139,138,93,106,85,22,,,,55,52,9,10,1.2,1
2026-01-25T0300,1356A,114.0948,22.5506,深圳市,通心岭子站,,30,30,62,21,42,70,,,,22,36,6,7,0.6,0.8
2026-01-25T0300,1357A,114.1153,22.5713,深圳市,洪湖,"颗粒物(PM10),细颗粒物(PM2.5)",58,65,68,41,41,27,,,,67,47,8,9,1.0,1
2026-01-25T0300,1358A,113.9823,22.5398,深圳市,华侨城,细颗粒物(PM2.5),52,47,89,36,58,50,,,,29,54,/,/,/,/
2026-01-25T0300,1359A,113.9181,22.517,深圳市,南海子站,,45,44,84,31,56,62,,,,31,54,6,7,0.9,1
2026-01-25T0300,1360A,114.2345,22.565,深圳市,盐田,,27,27,42,16,29,71,,,,32,40,9,9,0.5,0.7
2026-01-25T0300,1363A,114.4911,22.5381,深圳市,南澳,,33,20,33,14,25,103,,,,9,18,/,/,/,/
2026-01-25T0300,1364A,114.41,22.6346,深圳市,葵涌,,30,26,42,16,31,93,,,,10,22,7,8,0.6,0.7
2026-01-25T0300,1365A,114.2967,22.5978,深圳市,梅沙,,30,22,38,12,23,94,,,,9,17,/,/,/,/
2026-01-25T0300,1366A,114.0563,22.7353,深圳市,观澜,颗粒物(PM10),64,77,97,45,56,62,,,,34,57,9,9,0.8,1
2026-01-25T0300,3305A,114.0614,22.556,深圳市,莲花,,39,39,66,27,44,53,,,,31,45,/,/,/,/
2026-01-25T0300,3306A,114.0144,22.6163,深圳市,民治,细颗粒物(PM2.5),58,62,76,41,51,48,,,,57,48,/,/,/,/
2026-01-25T0300,3307A,114.1756,22.6421,深圳市,横岗,,48,46,64,33,42,68,,,,27,38,/,/,/,/
2026-01-25T0300,3447A,114.344,22.7115,深圳市,坪山,,33,33,48,21,31,89,,,,16,27,8,9,0.7,0.8
2026-01-25T0300,3623A,113.8952,22.586,深圳市,西乡,,46,46,81,31,56,60,,,,23,59,6,7,0.7,0.9
2026-01-25T0300,4220A,114.214113,22.713717,深圳市,黄阁路,,38,38,50,24,33,71,,,,26,32,6,7,0.8,0.9
2026-01-25T0300,1099A,123.5058,41.7084,沈阳市,浑南东路,,42,42,67,12,47,37,,,,24,49,11,10,0.6,1
