timepoint,stationcode,longitude,latitude,area,positionname,primarypollutant,aqi,pm10,pm10_24h,pm2_5,pm2_5_24h,o3,o3_24h,o3_8h,o3_8h_24h,no2,no2_24h,so2,so2_24h,co,co_24h
2026-01-25T0000,2568A,102.2503,31.8896,阿坝藏族羌族自治州,马师校,,33,,22,23,16,11,,60,33,39,18,4,4,0.6,0.5
2026-01-25T0000,3994A,102.2174,31.9016,阿坝藏族羌族自治州,马尔康中学西区,,20,19,14,14,12,30,,64,42,27,15,5,5,0.5,0.5
2026-01-25T0000,2695A,80.2899,41.1684,阿克苏地区,电视台,颗粒物(PM10),347,457,493,79,92,41,,49,45,10,14,13,12,0.5,0.6
2026-01-25T0000,2696A,80.2592,41.1541,阿克苏地区,艺术中心,颗粒物(PM10),310,428,455,87,102,48,,54,53,14,18,4,4,0.6,0.7
2026-01-25T0000,2205A,105.699,38.8409,阿拉善盟,蒙二幼,颗粒物(PM10),500,1142,536,226,111,59,,74,56,20,17,10,10,0.9,0.7
2026-01-25T0000,2206A,105.7198,38.8508,阿拉善盟,环保局新楼,颗粒物(PM10),500,1278,439,237,112,51,,84,53,22,12,9,9,1.0,0.6
2026-01-25T0000,2708A,88.1266,47.8515,阿勒泰地区,市站,,42,42,40,23,23,43,,54,35,25,25,2,4,0.8,0.5
2026-01-25T0000,4166A,88.1198,47.7931,阿勒泰地区,阿勒泰路33号,颗粒物(PM10),51,52,42,25,24,48,,58,41,27,15,7,5,0.5,0.5
2026-01-25T0000,2630A,80.1171,32.4999,阿里地区,阿里监测站,,41,,3,3,4,130,,130,130,6,2,9,7,0.6,0.5
2026-01-25T0000,3192A,80.0906,32.5029,阿里地区,阿里藏医院,,41,26,34,8,7,130,,130,130,5,1,14,8,0.7,0.5
2026-01-25T0000,2644A,109.0088,32.6974,安康市,汉滨区检察院,细颗粒物(PM2.5),100,108,61,75,46,6,,23,14,50,33,6,6,1.4,0.9
2026-01-25T0000,4054A,109.0324,32.6913,安康市,市邮政管理局,细颗粒物(PM2.5),88,93,65,65,47,3,,26,10,46,30,5,7,1.2,0.8
2026-01-25T0000,2291A,117.0806,30.5181,安庆市,环科院,细颗粒物(PM2.5),97,97,83,72,64,18,,66,34,63,50,7,8,0.8,0.8
2026-01-25T0000,2292A,117.0331,30.5118,安庆市,马山宾馆,细颗粒物(PM2.5),94,98,82,70,61,7,,75,41,83,54,6,8,1.0,0.9
2026-01-25T0000,2294A,116.9897,30.6146,安庆市,安庆大学,细颗粒物(PM2.5),75,69,73,55,58,17,,85,51,63,43,4,5,0.7,0.9
2026-01-25T0000,3173A,117.0598,30.5351,安庆市,市人大,细颗粒物(PM2.5),103,108,94,77,70,2,,76,30,72,48,7,8,0.8,0.8
2026-01-25T0000,3123A,105.9408,26.2431,安顺市,凤凰山,,16,16,44,8,33,39,,46,45,9,20,11,18,0.4,0.5
2026-01-25T0000,3124A,105.9443,26.2567,安顺市,金钟山,,20,20,45,11,33,39,,44,44,10,14,9,18,0.6,0.6
2026-01-25T0000,3125A,105.8983,26.248,安顺市,娄家坡,,14,12,37,9,31,42,,46,46,8,14,8,16,0.4,0.5
2026-01-25T0000,1819A,114.3552,36.1017,安阳市,红庙街,细颗粒物(PM2.5),279,257,182,229,172,42,,77,60,54,53,4,3,1.2,1.1
2026-01-25T0000,1820A,114.361,36.0681,安阳市,银杏小区,细颗粒物(PM2.5),292,243,187,242,192,46,,81,68,52,53,4,4,1.2,1.1
2026-01-25T0000,3141A,114.3921,36.0879,安阳市,信访局,细颗粒物(PM2.5),295,248,190,245,192,40,,87,71,53,42,5,5,1.2,1.2
2026-01-25T0000,3669A,114.4706,36.0634,安阳市,左辅环卫站,细颗粒物(PM2.5),286,264,202,236,190,62,,88,71,40,42,4,4,1.2,1
2026-01-25T0000,4117A,114.2918,36.0769,安阳市,钢三路198号,细颗粒物(PM2.5),299,290,240,249,178,50,,77,63,43,41,8,4,1.2,1.1
2026-01-25T0000,1748A,123.0441,41.1201,鞍山市,深沟寺,,28,28,37,15,22,52,,64,46,18,24,7,10,0.6,1
2026-01-25T0000,1749A,123.011,41.0931,鞍山市,太阳城,,30,30,42,17,26,49,,62,46,19,27,12,15,0.6,0.9
2026-01-25T0000,1750A,123.0483,41.1445,鞍山市,太平,颗粒物(PM10),58,65,64,36,37,26,,58,32,32,37,9,11,1.1,1.3
2026-01-25T0000,1751A,122.964,41.0968,鞍山市,铁西三道街,细颗粒物(PM2.5),84,112,81,62,46,8,,56,23,62,50,18,22,1.2,1.4
2026-01-25T0000,1753A,123.0219,41.0822,鞍山市,明达新区,,31,31,42,16,23,47,,67,49,15,21,9,13,0.7,0.9
2026-01-25T0000,4201A,122.944647,41.082639,鞍山市,兴盛南路290号,颗粒物(PM10),82,114,100,57,49,6,,59,21,63,52,23,17,1.5,1.5
2026-01-25T0000,2195A,107.4206,40.7609,巴彦淖尔市,附二中,颗粒物(PM10),82,114,117,29,50,47,,66,58,17,28,13,14,0.4,0.8
2026-01-25T0000,2196A,107.37,40.7372,巴彦淖尔市,市环保大楼,颗粒物(PM10),68,85,111,30,49,49,,68,62,19,28,10,13,0.5,0.9
2026-01-25T0000,1956A,86.1476,41.7529,巴音郭楞蒙古自治州,孔雀公园,颗粒物(PM10),196,342,311,64,54,0,,50,37,64,18,8,8,0.9,0.5
2026-01-25T0000,1957A,86.1971,41.7166,巴音郭楞蒙古自治州,棉纺厂,颗粒物(PM10),250,385,372,44,52,17,,53,40,31,16,/,/,/,/
2026-01-25T0000,1958A,86.236,41.7172,巴音郭楞蒙古自治州,经济开发区,颗粒物(PM10),185,320,318,36,40,25,,50,36,24,23,4,6,0.5,0.6
2026-01-25T0000,3181A,106.776805,31.852614,巴中市,市五中,细颗粒物(PM2.5),82,77,73,60,56,17,,36,32,26,24,5,5,1.0,1
2026-01-25T0000,3183A,106.7419,31.8654,巴中市,圣泉水务公司,细颗粒物(PM2.5),70,64,66,51,52,33,,45,42,27,26,5,5,0.6,0.7
2026-01-25T0000,3616A,106.7617,31.8343,巴中市,市中心医院,细颗粒物(PM2.5),85,74,69,63,56,22,,47,40,32,25,7,7,1.0,0.9
2026-01-25T0000,2235A,122.7909,45.608,白城市,洮北区环保局,细颗粒物(PM2.5),73,64,39,53,23,28,,71,43,33,15,5,5,0.4,0.2
2026-01-25T0000,2236A,122.8741,45.5725,白城市,市环保局,,50,41,29,35,17,34,,69,36,30,20,7,6,0.4,0.3
2026-01-25T0000,2231A,126.4219,41.9172,白山市,喜丰,,50,50,61,31,34,29,,67,50,47,30,13,18,0.9,1
2026-01-25T0000,2232A,126.4082,41.9416,白山市,环保局,,43,43,44,29,27,41,,69,57,21,21,9,13,0.7,0.9
2026-01-25T0000,2647A,104.1727,36.5448,白银市,第三小学,颗粒物(PM10),500,634,294,104,95,72,,74,73,16,45,5,89,0.5,1.5
2026-01-25T0000,2648A,104.1467,36.5482,白银市,动力公司,颗粒物(PM10),442,542,250,107,83,74,,88,76,11,33,2,44,0.5,1.2
2026-01-25T0000,2512A,106.6102,23.901,百色市,市监测站,,36,28,60,25,41,26,,42,34,16,23,12,17,0.8,0.9
2026-01-25T0000,2513A,106.6524,23.8842,百色市,市中心血站,,46,34,59,32,50,25,,44,34,15,19,13,21,0.9,0.8
2026-01-25T0000,4133A,106.6273,23.8798,百色市,龙景西路,,49,45,73,34,50,23,,40,32,17,23,18,20,0.8,0.7
2026-01-25T0000,2270A,117.396,32.9389,蚌埠市,工人疗养院,细颗粒物(PM2.5),102,108,111,76,87,61,,100,75,30,44,4,9,0.6,0.7
2026-01-25T0000,2271A,117.3606,32.9428,蚌埠市,百货大楼,细颗粒物(PM2.5),113,110,110,85,85,53,,96,63,36,45,5,7,0.6,0.7
2026-01-25T0000,2273A,117.4183,32.8909,蚌埠市,蚌埠学院,细颗粒物(PM2.5),105,90,95,79,84,42,,99,68,57,39,5,5,0.6,0.7
2026-01-25T0000,2274A,117.3534,32.9672,蚌埠市,淮上区政府,细颗粒物(PM2.5),118,100,103,89,88,58,,104,76,33,44,1,3,0.6,0.7
2026-01-25T0000,2275A,117.3143,32.8977,蚌埠市,高新区,细颗粒物(PM2.5),109,95,98,82,86,64,,98,77,35,31,6,7,0.5,0.6
2026-01-25T0000,3715A,117.3091,32.9314,蚌埠市,蚌埠田家炳中学,细颗粒物(PM2.5),119,106,108,90,90,49,,98,69,47,39,4,6,0.7,0.8
2026-01-25T0000,1585A,109.8761,40.6533,包头市,市环境监测站,颗粒物(PM10),85,119,106,49,43,0,,41,13,77,62,9,15,1.5,1.5
2026-01-25T0000,1587A,109.9992,40.5843,包头市,包头八中,颗粒物(PM10),100,149,134,26,69,60,,49,41,20,53,25,20,1.0,1.7
2026-01-25T0000,1589A,109.8641,40.6288,包头市,惠龙物流,颗粒物(PM10),85,119,102,47,51,14,,48,24,72,63,20,21,2.4,1.9
2026-01-25T0000,1590A,110.0376,40.5546,包头市,东河鸿龙湾,颗粒物(PM10),147,244,122,19,48,58,,54,42,26,61,18,16,0.5,1.2
2026-01-25T0000,3283A,109.9154,40.5684,包头市,滨河大厦,颗粒物(PM10),114,177,106,20,54,56,,51,39,24,57,10,14,0.6,1.3
2026-01-25T0000,3419A,109.9449,40.6259,包头市,包头市委党校,颗粒物(PM10),67,83,92,38,51,9,,45,17,74,64,12,16,1.1,1.6
2026-01-25T0000,3683A,109.8332,40.6577,包头市,昆区政府,颗粒物(PM10),69,88,96,36,50,8,,43,17,77,62,12,18,1.1,1.4
2026-01-25T0000,1931A,107.0802,34.3129,宝鸡市,竹园沟,细颗粒物(PM2.5),144,,105,110,105,34,,80,62,36,28,5,6,0.6,0.6
2026-01-25T0000,1933A,107.1429,34.3549,宝鸡市,监测站,细颗粒物(PM2.5),152,117,121,116,117,44,,83,63,40,38,5,6,0.9,0.9
2026-01-25T0000,1934A,107.1172,34.3759,宝鸡市,技工学校,细颗粒物(PM2.5),137,,120,104,115,59,,94,80,30,31,4,8,0.8,0.9
2026-01-25T0000,1936A,107.2025,34.3518,宝鸡市,文理学院,细颗粒物(PM2.5),165,,114,125,119,49,,92,73,36,34,4,5,0.8,0.8
2026-01-25T0000,1937A,107.2396,34.3626,宝鸡市,三迪小学,细颗粒物(PM2.5),172,,131,130,131,51,,93,71,40,46,4,5,1.0,1
2026-01-25T0000,4155A,107.1721,34.3558,宝鸡市,滨河北路,细颗粒物(PM2.5),142,138,132,108,103,43,,84,66,34,30,5,6,0.9,0.9
2026-01-25T0000,4308A,107.3898,34.3601,宝鸡市,陈仓区北开路21号,细颗粒物(PM2.5),189,157,159,142,140,53,,94,70,47,49,23,9,1.0,0.9
2026-01-25T0000,1051A,115.4803,38.8568,保定市,游泳馆,细颗粒物(PM2.5),170,,142,129,138,25,,47,28,64,70,7,9,0.9,1.1
2026-01-25T0000,1052A,115.509,38.8895,保定市,华电二区,细颗粒物(PM2.5),158,128,130,120,122,2,,38,18,73,60,2,5,,1.5
2026-01-25T0000,1053A,115.4588,38.9037,保定市,接待中心,细颗粒物(PM2.5),162,136,137,123,124,11,,42,23,74,62,4,5,0.9,1
2026-01-25T0000,1054A,115.4484,38.8344,保定市,地表水厂,细颗粒物(PM2.5),147,148,175,112,133,25,,50,27,61,69,7,8,0.9,1.2
2026-01-25T0000,3581A,115.3136,38.9511,保定市,满城区生态环境分局,细颗粒物(PM2.5),176,171,161,133,116,7,,39,17,81,61,4,5,1.2,1.5
2026-01-25T0000,3582A,115.4709,38.7628,保定市,清苑区第二中学,细颗粒物(PM2.5),153,162,203,117,143,28,,46,28,58,72,9,12,0.9,1.2
2026-01-25T0000,3583A,115.6231,39.0223,保定市,徐水物探局,细颗粒物(PM2.5),176,180,171,133,119,8,,40,13,70,62,10,10,1.2,1.2
2026-01-25T0000,4004A,115.4199,38.8665,保定市,双鹰农机,细颗粒物(PM2.5),166,174,189,126,131,21,,61,38,70,60,8,10,1.0,1.3
2026-01-25T0000,4034A,115.515,38.8589,保定市,植保所站,细颗粒物(PM2.5),155,138,148,118,125,17,,39,24,64,72,5,4,1.0,1.2
2026-01-25T0000,2594A,99.1589,25.1137,保山市,市环境监测站,,30,30,26,20,17,57,,86,71,9,8,4,5,0.3,0.3
2026-01-25T0000,2595A,99.1616,25.1381,保山市,市环保局,,39,30,30,27,21,73,,88,80,5,6,3,3,0.5,0.5
2026-01-25T0000,1867A,109.1435,21.4085,北海市,海滩公园,细颗粒物(PM2.5),125,99,72,95,60,15,,34,26,31,20,12,7,1.1,1
2026-01-25T0000,1868A,109.0983,21.466,北海市,新市环保局,细颗粒物(PM2.5),98,,53,73,57,8,,34,23,25,19,5,4,1.5,1.3
2026-01-25T0000,1869A,109.1775,21.5232,北海市,北海工业园,细颗粒物(PM2.5),117,99,70,88,62,3,,29,17,30,20,8,6,1.0,0.8
2026-01-25T0000,3400A,109.1844,21.4396,北海市,龙潭自来水厂,细颗粒物(PM2.5),112,93,65,84,64,5,,33,19,28,19,8,7,1.4,1.1
2026-01-25T0000,1001A,116.3611,39.8786,北京市,万寿西宫,,35,35,38,18,21,29,,47,15,49,48,2,3,0.6,0.6
2026-01-25T0000,1003A,116.4174,39.9289,北京市,东四,,30,30,37,14,18,32,,37,18,48,46,5,5,0.4,0.5
2026-01-25T0000,1004A,116.4073,39.8858,北京市,天坛,,33,33,43,18,26,30,,37,12,46,50,2,2,0.9,1.1
2026-01-25T0000,1005A,116.4622,39.9364,北京市,农展馆,,50,50,41,24,20,7,,45,16,64,46,4,4,0.7,0.6
2026-01-25T0000,1006A,116.3399,39.9293,北京市,官园,,27,27,38,14,21,38,,41,21,35,48,4,5,0.4,0.6
2026-01-25T0000,1007A,116.2879,39.9613,北京市,海淀万柳,,20,20,41,10,21,45,,35,16,30,55,3,3,0.4,0.6
2026-01-25T0000,1008A,116.6635,40.1349,北京市,顺义新城,,24,11,31,3,16,75,,60,44,5,25,4,4,0.2,0.4
2026-01-25T0000,1009A,116.6275,40.327,北京市,怀柔镇,,20,11,19,3,11,64,,61,52,9,13,5,4,0.3,0.4
2026-01-25T0000,1010A,116.2295,40.217,北京市,昌平镇,,46,46,35,25,18,2,,43,23,54,34,2,2,0.8,0.6
2026-01-25T0000,1011A,116.3968,39.982,北京市,奥体中心,,28,26,38,14,19,35,,43,18,56,60,4,4,0.5,0.7
2026-01-25T0000,3418A,116.8336,40.4095,北京市,密云新城,,23,7,17,3,9,71,,66,65,3,14,2,2,0.3,0.4
2026-01-25T0000,3671A,116.0879,39.9725,北京市,门头沟三家店,,46,46,42,26,23,8,,37,8,45,37,3,4,0.6,0.5
2026-01-25T0000,3672A,116.1507,39.8246,北京市,丰台云岗,,24,24,51,12,32,38,,38,20,34,44,2,3,0.4,0.6
2026-01-25T0000,3674A,115.9578,39.7602,北京市,房山燕山,,47,47,76,31,52,34,,36,21,38,44,5,5,0.4,0.5
2026-01-25T0000,3675A,116.4669,39.7734,北京市,大兴旧宫,颗粒物(PM10),64,77,73,38,39,0,,35,17,76,55,5,4,0.9,0.7
2026-01-25T0000,3694A,115.9859,40.4562,北京市,延庆石河营,,23,11,34,3,18,72,,62,62,3,26,3,4,0.3,0.7
2026-01-25T0000,3695A,116.6151,40.3052,北京市,怀柔新城,,21,10,19,3,11,67,,60,57,6,8,5,4,0.1,0.3
2026-01-25T0000,3696A,116.2542,39.8764,北京市,丰台小屯,,39,39,55,18,26,16,,30,9,54,59,4,4,0.6,0.8
2026-01-25T0000,3697A,116.8399,40.3843,北京市,密云镇,,23,7,21,3,9,71,,64,53,2,25,1,1,0.2,0.3
2026-01-25T0000,4057A,115.9423,40.4431,北京市,延庆百泉,,20,11,34,3,19,61,,51,51,4,27,2,3,0.3,0.6
2026-01-25T0000,4058A,116.6598,39.9164,北京市,通州新华,,25,25,65,12,30,39,,30,15,38,60,3,4,0.5,0.7
2026-01-25T0000,4182A,116.1942,39.9158,北京市,石景山八角,,23,23,47,9,22,42,,35,23,30,52,3,4,0.2,0.5
2026-01-25T0000,4194A,117.078628,40.151726,北京市,平谷新城,细颗粒物(PM2.5),59,66,46,42,29,23,,51,30,34,29,4,4,1.1,0.7
2026-01-25T0000,1761A,123.8274146,41.31234549,本溪市,大峪,颗粒物(PM10),56,62,68,39,43,11,,63,34,55,42,6,8,1.0,1.6
2026-01-25T0000,1763A,123.7169,41.3094,本溪市,彩屯,颗粒物(PM10),71,91,123,48,77,27,,60,26,40,46,7,8,0.9,1.8
2026-01-25T0000,1764A,123.7672166,41.28649327,本溪市,东明,细颗粒物(PM2.5),82,74,72,60,53,10,,66,31,64,47,5,6,1.2,1.7
2026-01-25T0000,1765A,123.799345,41.266614,本溪市,新立屯,,27,27,47,12,27,18,,61,22,46,43,8,12,0.9,1.7
2026-01-25T0000,1766A,123.829144,41.336777,本溪市,威宁,颗粒物(PM10),69,87,84,46,46,4,,52,14,54,43,5,6,1.4,1.5
2026-01-25T0000,2587A,105.287,27.3133,毕节市,八中,细颗粒物(PM2.5),82,65,52,60,49,18,,52,42,17,21,9,13,1.0,1
2026-01-25T0000,2588A,105.3079,27.2987,毕节市,师专,细颗粒物(PM2.5),84,75,56,62,45,18,,53,42,17,20,8,14,1.1,1
2026-01-25T0000,4263A,105.3688,27.3598,毕节市,工业大道,细颗粒物(PM2.5),87,81,59,64,48,19,,51,37,15,15,12,12,/,/
2026-01-25T0000,1629A,117.9961,37.3604,滨州市,第二水厂,细颗粒物(PM2.5),103,100,143,77,110,26,,59,37,42,69,11,24,1.1,1.3
2026-01-25T0000,1630A,117.9789,37.3931,滨州市,北中新校,细颗粒物(PM2.5),107,105,137,80,106,25,,65,40,42,54,8,18,0.9,1.2
2026-01-25T0000,3514A,117.9379,37.3959,滨州市,中海酒店,细颗粒物(PM2.5),117,110,136,88,112,38,,64,51,,35,11,19,0.8,1.2
2026-01-25T0000,3515A,117.9381509,37.35547456,滨州市,开发区一中,细颗粒物(PM2.5),104,102,143,78,114,31,,65,48,40,59,12,27,0.9,1.2
2026-01-25T0000,3516A,118.0914,37.6938,滨州市,金海六路,细颗粒物(PM2.5),128,132,117,97,87,39,,70,43,39,62,4,21,0.8,1
2026-01-25T0000,4028A,117.9955,37.3752,滨州市,滨州市西街道办事处,细颗粒物(PM2.5),122,114,146,92,116,28,,66,40,39,57,11,21,1.0,1.3
2026-01-25T0000,2311A,115.8071,33.8399,亳州市,污水处理厂,细颗粒物(PM2.5),113,108,111,85,92,66,,115,87,26,36,5,5,0.3,0.4
2026-01-25T0000,2312A,115.7789,33.8519,亳州市,三国揽胜宫,细颗粒物(PM2.5),113,132,127,85,91,68,,112,85,25,39,4,4,0.6,0.7
2026-01-25T0000,3332A,115.7631,33.803,亳州市,亳州学院,细颗粒物(PM2.5),112,108,110,84,91,79,,114,90,15,20,3,3,0.9,0.8
2026-01-25T0000,2693A,82.0482,44.8553,博尔塔拉蒙古自治州,市党校,颗粒物(PM10),96,141,107,66,35,68,,72,69,23,18,3,4,1.1,0.8
2026-01-25T0000,2694A,82.0805,44.8966,博尔塔拉蒙古自治州,市环保局,颗粒物(PM10),98,145,134,72,47,52,,62,60,37,26,4,6,0.8,0.6
2026-01-25T0000,1071A,116.8733,38.2922,沧州市,沧县城建局,细颗粒物(PM2.5),128,123,155,97,131,7,,70,28,97,67,15,15,1.1,1.3
2026-01-25T0000,1072A,116.8462,38.3189,沧州市,电视转播站,细颗粒物(PM2.5),170,,153,129,148,0,,70,29,97,55,8,10,1.1,1.1
2026-01-25T0000,1073A,116.8588,38.3161,沧州市,市环保局,细颗粒物(PM2.5),137,130,158,104,133,0,,64,26,90,53,16,15,1.0,1.1
2026-01-25T0000,3324A,116.8011,38.294,沧州市,河北水利电力学院,细颗粒物(PM2.5),156,129,167,119,147,16,,64,42,78,57,11,15,1.0,1
2026-01-25T0000,2622A,97.1813,31.1289,昌都市,昌都监测站,颗粒物(PM10),83,116,43,46,18,3,,87,54,63,25,6,4,1.5,0.7
2026-01-25T0000,3719A,97.1707,31.1428,昌都市,昌都会议中心,,19,19,17,12,9,54,,88,80,13,9,3,4,0.4,0.3
2026-01-25T0000,2692A,87.2722,44.0298,昌吉回族自治州,新区政务中心,颗粒物(PM10),102,154,129,58,53,2,,62,40,76,51,9,10,1.3,1.2
2026-01-25T0000,3613A,87.3069,44.0093,昌吉回族自治州,亚心广场,颗粒物(PM10),100,149,145,73,56,8,,64,49,72,43,8,10,1.5,1.2
2026-01-25T0000,4164A,87.2057,43.9289,昌吉回族自治州,财政所,颗粒物(PM10),68,85,105,33,35,43,,67,56,19,13,5,6,0.8,0.6
2026-01-25T0000,1120A,125.2874,43.9024,长春市,客车厂,细颗粒物(PM2.5),105,,55,79,40,20,,60,32,57,35,11,12,1.0,0.6
2026-01-25T0000,1121A,125.2943,43.8508,长春市,邮电学院,细颗粒物(PM2.5),79,64,52,58,36,14,,58,21,64,39,13,13,0.9,0.4
2026-01-25T0000,1122A,125.3648,43.8745,长春市,劳动公园,细颗粒物(PM2.5),79,79,56,58,34,26,,66,33,54,35,8,7,0.5,0.3
2026-01-25T0000,1123A,125.3233,43.8781,长春市,园林处,细颗粒物(PM2.5),104,,54,78,41,15,,63,36,56,29,11,10,0.8,0.6
2026-01-25T0000,1124A,125.4604,43.7904,长春市,净月潭,细颗粒物(PM2.5),65,52,50,47,34,46,,66,50,21,26,5,6,0.9,0.6
2026-01-25T0000,1126A,125.38,43.8422,长春市,经开区环卫处,细颗粒物(PM2.5),72,70,53,52,33,6,,63,32,74,40,5,8,1.0,0.6
2026-01-25T0000,1127A,125.234,43.7761,长春市,高新区管委会,细颗粒物(PM2.5),78,92,59,57,38,12,,71,31,71,36,8,8,1.1,0.6
2026-01-25T0000,1128A,125.1695,43.83,长春市,岱山公园,细颗粒物(PM2.5),94,72,60,70,45,11,,68,29,58,29,8,7,1.1,0.6
2026-01-25T0000,4281A,125.334645,43.916281,长春市,北亚泰大街1068号,细颗粒物(PM2.5),93,75,55,69,38,11,,56,29,55,33,11,16,1.1,0.6
2026-01-25T0000,1335A,113.082,28.2421,长沙市,经开区环保局,细颗粒物(PM2.5),72,74,59,52,48,39,,69,57,34,27,4,4,0.8,0.7
2026-01-25T0000,1336A,112.8873,28.2202,长沙市,高开区环保局,细颗粒物(PM2.5),68,60,51,49,41,38,,64,55,34,29,6,6,1.0,0.8
2026-01-25T0000,1337A,113.0785,28.2012,长沙市,马坡岭,细颗粒物(PM2.5),79,86,60,58,45,36,,76,58,33,25,6,5,1.1,0.9
2026-01-25T0000,1338A,112.9448,28.1894,长沙市,湖南师范大学,细颗粒物(PM2.5),59,62,50,42,35,40,,68,55,32,28,6,5,1.1,0.7
2026-01-25T0000,1339A,113.0177,28.1322,长沙市,雨花区环保局,细颗粒物(PM2.5),72,72,56,52,40,41,,62,54,30,29,10,8,1.2,1
2026-01-25T0000,1340A,112.9795,28.2593,长沙市,伍家岭,细颗粒物(PM2.5),75,75,70,55,49,40,,59,44,36,29,7,5,1.2,0.9
2026-01-25T0000,1341A,113.002,28.1944,长沙市,火车新站,细颗粒物(PM2.5),79,81,62,58,46,40,,62,45,41,36,4,2,1.2,1
2026-01-25T0000,1342A,112.9846,28.1177,长沙市,天心区环保局,细颗粒物(PM2.5),72,70,46,52,39,45,,72,58,36,30,8,6,1.1,0.7
2026-01-25T0000,1343A,112.8906,28.1307,长沙市,湖南中医药大学,细颗粒物(PM2.5),63,66,54,45,40,12,,67,41,70,37,6,7,1.0,0.8
2026-01-25T0000,1727A,113.1146,36.1547,长治市,清华站,细颗粒物(PM2.5),213,167,80,163,71,80,,94,92,24,29,10,13,1.4,1
2026-01-25T0000,1730A,113.0887,36.2126,长治市,审计局,细颗粒物(PM2.5),220,,91,170,83,75,,95,92,30,40,8,13,1.1,1
2026-01-25T0000,1731A,113.0845,36.1856,长治市,长治八中,细颗粒物(PM2.5),239,,103,189,81,74,,92,89,22,26,8,13,1.5,1.1
2026-01-25T0000,2845A,113.1561,36.1912,长治市,德盛苑,细颗粒物(PM2.5),222,,72,172,72,80,,92,90,22,23,9,14,1.4,1.1
2026-01-25T0000,3568A,113.0603,36.0464,长治市,向阳小学,细颗粒物(PM2.5),200,155,89,150,54,78,,89,79,32,29,12,18,1.6,1
2026-01-25T0000,3569A,112.8788,36.315,长治市,屯留一中,细颗粒物(PM2.5),215,165,95,165,78,66,,85,72,39,42,8,16,1.3,1.1
2026-01-25T0000,4189A,113.113092,36.199482,长治市,英华南巷50号,细颗粒物(PM2.5),220,176,93,170,80,76,,92,90,25,30,7,12,1.4,1.2
2026-01-25T0000,4190A,113.23666,36.33435,长治市,学府街1号,细颗粒物(PM2.5),217,,107,167,100,72,,86,78,30,47,7,20,1.5,1.7
2026-01-25T0000,1854A,111.696,28.9725,常德市,市二中,细颗粒物(PM2.5),90,78,85,67,75,36,,56,51,27,30,6,7,1.0,1
2026-01-25T0000,3138A,111.7152,29.0288,常德市,武陵区永安,细颗粒物(PM2.5),85,78,87,63,68,48,,64,59,24,27,6,6,0.9,1
2026-01-25T0000,3139A,111.6891,28.9881,常德市,鼎城区玉霞,细颗粒物(PM2.5),95,72,80,71,72,48,,63,60,26,31,8,8,0.7,0.8
2026-01-25T0000,3140A,111.6651,29.0526,常德市,武陵区长庚,细颗粒物(PM2.5),89,75,88,66,75,44,,61,56,29,27,5,5,0.7,0.8
2026-01-25T0000,1196A,119.9524,31.7586,常州市,市监测站,细颗粒物(PM2.5),123,125,114,93,81,19,,81,39,78,60,10,8,1.1,0.8
2026-01-25T0000,1200A,119.9351,31.703,常州市,武进监测站,细颗粒物(PM2.5),118,118,112,89,84,32,,82,50,62,58,12,14,1.0,1.2
2026-01-25T0000,3002A,119.9701,31.813,常州市,行政中心,细颗粒物(PM2.5),117,120,105,88,78,23,,82,48,76,56,7,9,0.8,0.9
2026-01-25T0000,3003A,120.0434,31.7726,常州市,经开区,细颗粒物(PM2.5),117,156,131,88,77,5,,85,35,85,67,10,10,0.7,0.7
2026-01-25T0000,3010A,119.8919,31.7892,常州市,钟楼,细颗粒物(PM2.5),118,115,109,89,79,34,,81,50,64,52,14,11,1.1,0.9
2026-01-25T0000,3429A,119.8595,31.706,常州市,武进经发区,细颗粒物(PM2.5),125,119,116,95,92,30,,82,49,70,69,10,11,0.9,1.1
2026-01-25T0000,3430A,119.5812,31.7256,常州市,金坛城区,细颗粒物(PM2.5),135,120,114,103,92,20,,92,59,74,54,8,11,1.1,1.2
2026-01-25T0000,4089A,119.9551,31.863,常州市,崇义南街5-H号,细颗粒物(PM2.5),124,112,101,94,80,21,,80,37,65,52,6,8,0.9,1
2026-01-25T0000,2220A,120.4318,41.588,朝阳市,西梁,颗粒物(PM10),55,59,66,34,40,21,,62,38,52,40,10,11,0.8,1
2026-01-25T0000,2221A,120.452,41.565,朝阳市,河畔小区,,24,24,49,12,26,51,,65,58,15,25,7,11,0.7,1
2026-01-25T0000,2222A,120.4176,41.5648,朝阳市,八里堡,"颗粒物(PM10),细颗粒物(PM2.5)",57,63,59,40,37,10,,58,36,56,37,10,13,1.0,1
2026-01-25T0000,3026A,116.6179,23.6608,潮州市,市政府,,48,,35,33,33,73,,104,84,10,14,3,4,0.5,0.5
2026-01-25T0000,4036A,116.646,23.676,潮州市,金山,,29,,36,20,29,76,,111,95,13,15,3,4,0.5,0.6
2026-01-25T0000,2473A,113.0116,25.8228,郴州市,市职中,细颗粒物(PM2.5),70,70,46,51,39,0,,32,8,30,21,6,7,1.1,0.7
2026-01-25T0000,2475A,113.0381,25.8074,郴州市,市审计局,细颗粒物(PM2.5),88,87,56,65,45,0,,26,6,38,26,3,7,/,/
2026-01-25T0000,2476A,113.0348,25.7757,郴州市,市环保局,细颗粒物(PM2.5),72,83,69,52,47,0,,24,5,42,29,7,13,1.1,0.9
2026-01-25T0000,4252A,113.0138,25.8011,郴州市,好美居路49号,细颗粒物(PM2.5),103,88,56,77,48,3,,37,11,46,29,4,6,/,/
2026-01-25T0000,1431A,103.9727,30.7242,成都市,金泉两河,细颗粒物(PM2.5),113,97,98,85,72,6,,10,4,53,52,2,3,0.8,0.8
2026-01-25T0000,1432A,104.1423,30.6765,成都市,十里店,细颗粒物(PM2.5),78,86,82,57,59,21,,38,33,39,40,3,3,0.7,0.7
2026-01-25T0000,1433A,104.0594,30.5765,成都市,三瓦窑,细颗粒物(PM2.5),85,68,76,63,60,24,,44,41,42,39,3,4,0.7,0.8
2026-01-25T0000,1434A,104.1122,30.6306,成都市,沙河铺,细颗粒物(PM2.5),95,88,72,71,58,16,,36,27,50,44,2,3,0.8,0.8
2026-01-25T0000,2880A,104.0219,30.6561,成都市,大石西路,细颗粒物(PM2.5),83,96,94,61,64,9,,12,10,45,42,4,5,1.1,1.1
2026-01-25T0000,3136A,104.2724,30.559,成都市,龙泉驿区区政府,细颗粒物(PM2.5),79,73,57,58,48,31,,40,36,19,23,6,6,0.7,0.7
2026-01-25T0000,3357A,104.0028,30.6891,成都市,金博路,细颗粒物(PM2.5),97,97,88,72,64,2,,7,5,57,49,4,5,1.0,0.9
2026-01-25T0000,3359A,104.056,30.5228,成都市,华阳,细颗粒物(PM2.5),62,63,61,44,45,30,,46,44,39,29,2,2,0.7,0.7
2026-01-25T0000,3488A,104.387954,30.746684,成都市,青石路225号,细颗粒物(PM2.5),100,100,78,75,54,6,,37,21,43,35,4,4,0.9,0.9
2026-01-25T0000,3489A,104.0788,30.4054,成都市,科学城,细颗粒物(PM2.5),87,75,63,64,52,25,,39,34,23,25,6,6,0.8,0.8
2026-01-25T0000,4011A,103.8505,30.6946,成都市,光华大道三段,细颗粒物(PM2.5),108,104,104,81,82,2,,28,5,58,44,3,4,1.0,0.9
2026-01-25T0000,4144A,104.3257,30.6406,成都市,八角井街185号,细颗粒物(PM2.5),97,91,83,72,58,20,,38,30,25,26,3,2,1.0,0.9
2026-01-25T0000,4224A,104.2433276,30.53529463,成都市,鲸龙路1057号,细颗粒物(PM2.5),74,69,63,54,46,29,,48,36,27,23,5,5,0.6,0.6
2026-01-25T0000,1062A,117.9531,40.908,承德市,铁路,,43,32,40,30,21,59,,59,58,12,27,6,7,0.4,0.6
2026-01-25T0000,1063A,117.9397,40.9763,承德市,中国银行,,29,29,36,3,13,57,,62,60,10,23,1,3,0.3,0.5
2026-01-25T0000,4073A,117.9462,40.95,承德市,杏林街1号,,23,17,27,14,17,71,,69,69,4,17,3,4,0.3,0.5
2026-01-25T0000,4274A,117.7994,40.9605,承德市,滨河大街98号,,25,23,48,17,21,70,,69,69,6,25,2,17,0.2,0.9
2026-01-25T0000,2314A,117.4698,30.6617,池州市,池州学院,细颗粒物(PM2.5),109,96,67,82,56,64,,78,60,31,30,5,6,0.9,0.8
2026-01-25T0000,3237A,117.4918,30.6617,池州市,展览馆,细颗粒物(PM2.5),98,92,61,73,46,63,,76,43,29,32,3,3,0.9,0.8
2026-01-25T0000,3333A,117.5626,30.695,池州市,第八中学,细颗粒物(PM2.5),83,94,66,61,49,58,,78,59,32,31,4,5,0.9,0.7
2026-01-25T0000,3334A,117.5037,30.6242,池州市,第十二中学,细颗粒物(PM2.5),93,102,71,69,51,60,,75,45,36,39,4,4,1.1,1
2026-01-25T0000,1744A,118.9229,42.2816,赤峰市,松山一中,,25,25,36,3,16,49,,64,55,19,30,4,7,0.6,0.8
2026-01-25T0000,1745A,118.9588,42.2733,赤峰市,哈达街,,30,30,35,16,20,37,,62,52,23,29,10,9,0.7,0.7
2026-01-25T0000,1746A,118.8792,42.2551,赤峰市,天义路,,17,16,21,11,16,39,,68,57,33,25,6,6,0.7,0.8
2026-01-25T0000,3058A,119.2656,42.0356,赤峰市,银河街,,36,36,60,22,29,48,,66,55,16,21,19,19,0.6,1.3
2026-01-25T0000,3286A,118.9359,42.3146,赤峰市,桥北物流园区,,19,19,28,3,20,24,,72,54,37,27,8,7,0.7,0.6
2026-01-25T0000,2521A,107.3473,22.4137,崇左市,市环保局江州分局,细颗粒物(PM2.5),72,55,43,52,42,23,,28,24,17,16,9,4,0.8,0.8
2026-01-25T0000,4256A,107.375,22.3736,崇左市,石景林东路7号,细颗粒物(PM2.5),77,,36,56,42,18,,27,20,24,19,3,3,0.6,0.6
2026-01-25T0000,3207A,118.31131,32.3033,滁州市,市政府原办公楼,细颗粒物(PM2.5),119,114,98,90,78,24,,75,48,69,54,5,7,0.8,0.8
2026-01-25T0000,3331A,118.3268,32.2633,滁州市,图书馆,细颗粒物(PM2.5),104,115,92,78,68,12,,75,40,77,48,9,9,0.9,0.9
2026-01-25T0000,4101A,118.3196,32.3335,滁州市,银山路666号,细颗粒物(PM2.5),133,103,86,101,92,28,,81,53,47,40,4,7,0.6,0.7
2026-01-25T0000,4102A,118.3426,32.2979,滁州市,黄山路555号,细颗粒物(PM2.5),127,126,108,96,93,23,,87,54,76,50,15,16,1.1,1.1
2026-01-25T0000,2606A,101.5379,25.0492,楚雄彝族自治州,市经济开发区,,35,35,27,19,17,7,,78,59,57,22,8,3,0.7,0.5
2026-01-25T0000,4153A,101.5536,25.0343,楚雄彝族自治州,团结路562号,,29,24,26,20,16,37,,77,70,28,16,4,4,0.5,0.4
2026-01-25T0000,2549A,107.5087,31.2186,达州市,市环境监测站,细颗粒物(PM2.5),79,81,79,58,55,13,,30,24,43,34,7,7,0.8,0.8
2026-01-25T0000,2550A,107.4988,31.2132,达州市,凤凰小区,细颗粒物(PM2.5),77,78,79,56,56,10,,39,26,46,37,4,5,0.5,0.8
2026-01-25T0000,2551A,107.5081,31.1987,达州市,达县机关宾馆,细颗粒物(PM2.5),98,92,88,73,62,4,,30,19,52,41,4,4,1.0,1.1
2026-01-25T0000,2552A,107.4644,31.2124,达州市,市政中心,细颗粒物(PM2.5),77,79,92,56,58,30,,36,30,33,41,5,6,0.6,0.8
2026-01-25T0000,2614A,100.2168,25.5818,大理白族自治州,大理市环境监测站,,30,21,25,21,21,70,,78,76,8,7,6,6,0.5,0.5
2026-01-25T0000,2615A,100.1542,25.7055,大理白族自治州,大理古城,,23,,26,16,18,66,,88,68,8,11,7,8,0.8,0.8
2026-01-25T0000,1109A,121.6119,38.974,大连市,甘井子,,32,32,38,21,24,71,,77,62,20,31,11,10,0.1,0.3
2026-01-25T0000,1110A,121.565,38.9509,大连市,周水子,,40,40,46,22,28,49,,64,34,32,46,20,17,0.5,0.6
2026-01-25T0000,1111A,121.5637,38.8849,大连市,星海三站,,39,39,36,23,25,45,,64,38,27,29,14,10,0.6,0.8
2026-01-25T0000,1112A,121.6301,38.9117,大连市,青泥洼桥,,32,,26,22,27,61,,57,52,17,33,14,12,0.5,0.7
2026-01-25T0000,1113A,121.6248,38.8643,大连市,傅家庄,,32,32,34,19,20,54,,55,48,21,27,12,12,0.6,0.6
2026-01-25T0000,1114A,121.5117,38.8636,大连市,七贤岭,,42,42,35,25,20,53,,62,44,20,22,10,10,0.5,0.6
2026-01-25T0000,1116A,121.7507,39.1339,大连市,金州,,40,35,37,28,27,65,,79,68,24,20,16,11,0.4,0.4
2026-01-25T0000,1117A,121.7811,39.0495,大连市,开发区,,33,33,76,22,29,75,,70,67,10,33,5,5,0.1,0.5
2026-01-25T0000,1118A,121.9762,39.0631,大连市,双D港,,38,38,34,23,22,71,,80,73,14,13,13,11,0.5,0.6
2026-01-25T0000,4082A,121.2548,38.8188,大连市,旅顺,,22,22,37,12,29,66,,63,55,12,20,10,13,0.6,0.8
2026-01-25T0000,1789A,124.8085,46.0381,大庆市,大同区,,43,43,38,30,24,48,,68,54,22,15,5,6,0.8,0.7
2026-01-25T0000,1790A,125.1166,46.5255,大庆市,龙凤区,,46,45,37,32,19,45,,59,45,29,25,19,11,0.5,0.4
2026-01-25T0000,1791A,124.8894,46.4007,大庆市,红岗区,,33,33,28,20,14,48,,54,44,12,16,4,5,0.5,0.5
2026-01-25T0000,1792A,125.1391,46.578,大庆市,萨尔图区,,31,31,29,19,16,50,,53,44,22,24,7,9,0.6,0.6
2026-01-25T0000,1793A,124.9026,46.6217,大庆市,让胡路区,,39,39,28,26,18,65,,74,66,15,12,8,8,0.5,0.4
2026-01-25T0000,3481A,125.127,46.6277,大庆市,萨区政府监测点,,38,38,30,19,13,38,,62,42,30,24,8,9,0.9,0.6
2026-01-25T0000,1723A,113.2926,40.0759,大同市,云冈宾馆,颗粒物(PM10),51,51,75,28,41,43,,53,51,26,41,12,16,0.7,1.5
2026-01-25T0000,1724A,113.3437,40.0921,大同市,大同大学,,30,22,76,21,34,60,,64,62,17,30,7,18,0.6,1
2026-01-25T0000,1725A,113.2637,40.129,大同市,安家小村,颗粒物(PM10),66,82,96,39,47,8,,54,38,56,42,14,19,1.5,2.3
2026-01-25T0000,3282A,113.3399,40.0586,大同市,大同市卫生学校,,32,32,78,3,35,75,,66,66,12,37,3,18,0.4,1
2026-01-25T0000,3565A,113.1371,40.1122,大同市,云冈站,颗粒物(PM10),73,95,85,35,38,0,,55,34,56,41,17,21,0.8,0.9
2026-01-25T0000,3566A,113.1186,40.2556,大同市,图书馆,颗粒物(PM10),54,58,72,23,37,36,,64,51,18,24,5,9,0.8,1
2026-01-25T0000,3567A,113.5931,40.0459,大同市,区一中,,32,32,99,21,49,66,,59,59,11,30,7,19,1.4,1.9
2026-01-25T0000,4199A,113.2798248,40.09972476,大同市,魏都大道141号,颗粒物(PM10),77,104,98,45,44,18,,62,51,59,44,14,15,1.2,1.7
2026-01-25T0000,2269A,124.1068,50.4091,大兴安岭地区,科技局,,21,17,19,9,9,65,,66,64,1,3,4,4,0.2,0.2
2026-01-25T0000,3663A,124.117,50.4279,大兴安岭地区,红旗社区,,22,,19,3,19,68,,68,64,2,13,4,6,0.3,0.4
2026-01-25T0000,1600A,124.33,40.0625,丹东市,江湾东路,,24,24,47,10,27,59,,63,60,14,22,7,14,0.7,1.2
2026-01-25T0000,1601A,124.4242,40.1513,丹东市,临江后街,,24,24,38,10,25,56,,66,62,10,23,5,14,0.7,0.8
2026-01-25T0000,1602A,124.3935,40.1461,丹东市,元宝山,,21,21,36,10,22,57,,66,61,12,20,9,13,0.3,0.4
2026-01-25T0000,1603A,124.3634,40.1093,丹东市,民主桥,,26,26,40,12,24,59,,64,62,14,25,10,10,0.7,0.8
2026-01-25T0000,3541A,109.5726195,19.51688767,儋州市,第一中学子站,,23,17,32,7,15,71,,75,73,4,6,4,4,0.5,0.6
2026-01-25T0000,3542A,109.5567,19.5187,儋州市,东坡学校子站,,27,22,34,6,15,84,,88,87,6,6,3,3,0.5,0.6
2026-01-25T0000,2616A,98.5611,24.4273,德宏傣族景颇族自治州,德宏州监测站,细颗粒物(PM2.5),64,57,55,46,42,22,,82,52,36,26,6,6,0.9,0.7
2026-01-25T0000,3677A,98.5887,24.4366,德宏傣族景颇族自治州,芒市人民政府综合楼,颗粒物(PM10),55,60,51,36,28,41,,79,62,14,15,4,5,0.8,0.7
2026-01-25T0000,1901A,104.424,31.1209,德阳市,东山公园,细颗粒物(PM2.5),103,79,73,77,64,23,,33,26,14,22,1,1,0.8,0.8
2026-01-25T0000,1902A,104.3827,31.1318,德阳市,西小区,细颗粒物(PM2.5),103,91,86,77,64,22,,34,29,25,35,2,3,0.9,0.9
2026-01-25T0000,1904A,104.3553,31.1091,德阳市,耐火材料厂,细颗粒物(PM2.5),108,86,86,81,69,12,,23,19,36,42,1,2,0.9,0.9
2026-01-25T0000,4145A,104.4144,31.1495,德阳市,市林业局,细颗粒物(PM2.5),113,96,80,85,72,18,,26,20,26,36,2,3,0.9,0.9
2026-01-25T0000,1622A,116.3034,37.4675,德州市,儿童乐园,细颗粒物(PM2.5),208,200,170,158,132,32,,98,64,60,47,23,18,1.5,1.3
2026-01-25T0000,1624A,116.2992,37.4449,德州市,监理站,细颗粒物(PM2.5),195,190,173,146,134,45,,108,81,63,49,21,18,1.3,1.1
2026-01-25T0000,3066A,116.2722,37.438,德州市,九衢泉纯净水厂,细颗粒物(PM2.5),188,171,166,141,132,43,,98,71,53,56,19,13,1.4,1.3
2026-01-25T0000,3371A,116.3693,37.44,德州市,开发区人民医院,细颗粒物(PM2.5),199,195,170,149,130,29,,110,76,83,56,23,21,1.0,0.9
2026-01-25T0000,3511A,116.5687,37.3331,德州市,陵城艺术中心,细颗粒物(PM2.5),180,171,176,136,138,11,,76,39,65,63,29,31,1.3,1.2
2026-01-25T0000,4292A,116.352738,37.420875,德州市,新河东路,细颗粒物(PM2.5),192,175,161,144,138,33,,96,72,63,58,21,20,1.3,1.1
2026-01-25T0000,2621A,99.7054,27.8319,迪庆藏族自治州,迪庆州站,,42,39,31,29,23,52,,80,66,16,11,6,5,0.4,0.2
2026-01-25T0000,3180A,99.7122,27.8129,迪庆藏族自治州,质量技术监督局,,29,20,24,20,17,71,,83,77,8,11,4,4,0.6,0.5
2026-01-25T0000,4257A,104.6092,35.5962,定西市,将台街,颗粒物(PM10),177,304,66,73,38,67,,72,53,16,23,11,13,0.6,0.7
2026-01-25T0000,4309A,104.6159,35.5701,定西市,正龙路62号,颗粒物(PM10),165,280,73,67,33,55,,73,58,16,10,9,8,0.7,0.5
2026-01-25T0000,1390A,113.7943,23.0132,东莞市,东城石井,细颗粒物(PM2.5),79,93,62,58,40,14,,125,74,88,37,6,8,1.0,0.8
2026-01-25T0000,1391A,113.7384,22.9659,东莞市,南城西平,细颗粒物(PM2.5),83,98,61,61,44,33,,120,83,87,46,7,8,0.9,0.8
2026-01-25T0000,3319A,113.7283,23.041,东莞市,万江金泰,细颗粒物(PM2.5),119,158,81,90,51,10,,111,51,133,53,7,7,1.8,1
2026-01-25T0000,4129A,113.8666,23.1062,东莞市,裕兴路,颗粒物(PM10),83,116,68,58,36,6,,119,62,107,45,5,7,1.2,0.9
2026-01-25T0000,4130A,114.0076,22.9739,东莞市,教育路1号,颗粒物(PM10),61,72,69,36,44,100,,148,119,26,36,5,6,0.7,0.8
2026-01-25T0000,4131A,113.7981,22.8124,东莞市,长怡路1号,细颗粒物(PM2.5),74,96,74,54,42,8,,115,57,94,53,6,7,1.1,0.8
2026-01-25T0000,1666A,118.6612,37.4313,东营市,市环保局,细颗粒物(PM2.5),98,97,135,73,103,48,,71,56,34,57,8,21,0.8,1.2
2026-01-25T0000,3036A,118.6903,37.4337,东营市,开发区管委会,细颗粒物(PM2.5),94,85,135,70,108,50,,72,61,27,55,6,6,0.7,1.1
2026-01-25T0000,3365A,118.5721,37.5654,东营市,垦利区民丰路,细颗粒物(PM2.5),122,114,127,92,98,33,,64,44,40,59,7,12,0.8,1.1
2026-01-25T0000,3498A,118.5063,37.8606,东营市,河口城区,细颗粒物(PM2.5),150,149,116,115,82,49,,63,54,39,52,5,10,1.2,1.1
2026-01-25T0000,3646A,118.4979,37.4623,东营市,胜利站,细颗粒物(PM2.5),119,109,130,90,102,39,,65,47,36,60,7,16,0.8,1.1
2026-01-25T0000,3734A,118.5753,37.4405,东营市,理想之城,细颗粒物(PM2.5),113,107,135,85,103,26,,61,39,39,59,4,12,0.9,1.1
2026-01-25T0000,1591A,110.0024,39.8127,鄂尔多斯市,综合楼,颗粒物(PM10),123,195,113,36,37,12,,63,30,71,52,19,16,0.7,0.8
2026-01-25T0000,1592A,109.9485,39.8259,鄂尔多斯市,巴音孟克林场办事处,颗粒物(PM10),109,168,102,29,34,1,,59,28,77,48,18,17,0.6,0.7
2026-01-25T0000,1593A,109.7734,39.5987,鄂尔多斯市,康泽苑,颗粒物(PM10),67,83,82,33,31,36,,66,54,42,35,15,12,0.6,0.7
2026-01-25T0000,1594A,109.8121,39.5987,鄂尔多斯市,华泰汽车城,颗粒物(PM10),71,92,80,27,28,18,,66,48,56,42,10,8,0.8,0.8
2026-01-25T0000,1595A,109.9734,39.7884,鄂尔多斯市,奥林花园,颗粒物(PM10),86,122,99,34,34,30,,63,42,50,52,17,10,0.7,0.8
2026-01-25T0000,2436A,114.894,30.3989,鄂州市,市政府,细颗粒物(PM2.5),69,62,79,50,71,57,,82,72,19,32,7,8,0.6,0.8
2026-01-25T0000,2437A,114.8986,30.3714,鄂州市,赵家坝,细颗粒物(PM2.5),79,67,86,58,71,64,,84,74,8,30,9,11,0.8,0.9
2026-01-25T0000,3654A,114.8093,30.4091,鄂州市,精准医疗中心,细颗粒物(PM2.5),85,69,99,63,82,52,,78,65,28,42,39,18,2.4,1.3
2026-01-25T0000,2454A,109.4978,30.2979,恩施土家族苗族自治州,湖北民院,细颗粒物(PM2.5),92,81,65,68,69,39,,29,23,15,20,6,6,0.8,1
2026-01-25T0000,3549A,109.5061,30.3771,恩施土家族苗族自治州,龙凤新区,细颗粒物(PM2.5),95,82,70,71,60,41,,30,29,22,22,7,7,0.7,0.8
2026-01-25T0000,2499A,108.3411,21.6159,防城港市,沙万,细颗粒物(PM2.5),69,,42,50,35,16,,34,28,29,17,6,5,1.0,0.9
2026-01-25T0000,2500A,108.3515,21.7733,防城港市,防城档案局,细颗粒物(PM2.5),63,,46,45,39,19,,28,21,15,16,4,4,0.7,0.7
2026-01-25T0000,2501A,108.3506,21.6414,防城港市,大海花园,细颗粒物(PM2.5),60,54,38,43,36,10,,32,28,34,19,6,6,0.9,0.8
2026-01-25T0000,1371A,113.1293,23.0065,佛山市,湾梁,颗粒物(PM10),67,83,70,47,39,1,,67,38,90,45,/,/,/,/
2026-01-25T0000,1372A,113.1082,23.0477,佛山市,华材职中,细颗粒物(PM2.5),107,139,87,80,54,4,,67,35,97,47,6,8,1.1,0.8
2026-01-25T0000,1373A,113.1439,23.045,佛山市,南海气象局,细颗粒物(PM2.5),79,103,68,58,44,1,,67,36,110,53,/,/,/,/
2026-01-25T0000,1374A,113.2879,22.8094,佛山市,顺德苏岗,细颗粒物(PM2.5),92,85,64,68,50,1,,80,41,90,52,/,/,1.3,1
2026-01-25T0000,1376A,112.8384,22.8678,佛山市,高明孔堂,细颗粒物(PM2.5),79,73,68,58,52,23,,63,48,41,36,/,/,/,/
2026-01-25T0000,1377A,112.8835,23.1584,佛山市,三水监测站,细颗粒物(PM2.5),97,117,68,72,45,2,,50,20,78,46,7,7,1.3,0.9
2026-01-25T0000,1378A,112.8668,23.185,佛山市,三水云东海,颗粒物(PM10),72,94,55,49,40,0,,46,23,71,44,/,/,/,/
2026-01-25T0000,3625A,113.2568,22.7629,佛山市,容桂街道办,细颗粒物(PM2.5),113,139,88,85,57,2,,70,37,125,65,/,/,/,/
2026-01-25T0000,1282A,119.2681,26.0506,福州市,师大,,26,26,37,17,24,65,,60,60,23,26,4,3,0.7,0.7
2026-01-25T0000,1283A,119.2983,26.1028,福州市,五四北路,,26,26,32,15,26,71,,63,63,18,24,6,5,0.6,0.7
2026-01-25T0000,1284A,119.2648,26.0769,福州市,杨桥西路,,23,23,33,16,28,69,,59,59,16,20,5,4,/,/
2026-01-25T0000,3048A,119.5799,26.0937,福州市,九龙,,30,24,31,21,21,72,,82,77,22,21,5,6,0.6,0.8
2026-01-25T0000,3526A,119.5188,25.9666,福州市,吴航,,39,39,39,24,23,77,,79,78,20,28,8,6,0.4,0.5
2026-01-25T0000,4104A,119.3106,26.0648,福州市,路通桥巷6号,,29,28,42,20,31,65,,59,59,17,21,/,/,/,/
2026-01-25T0000,1755A,123.7974,41.8494,抚顺市,望花区,细颗粒物(PM2.5),115,150,103,87,63,7,,67,28,68,47,5,6,1.5,1.3
2026-01-25T0000,1756A,123.9161,41.8827,抚顺市,顺城区,细颗粒物(PM2.5),127,112,89,96,69,7,,62,23,65,47,12,10,1.6,1.3
2026-01-25T0000,1757A,124.0437,41.8615,抚顺市,东洲区,颗粒物(PM10),62,74,82,42,49,28,,61,43,37,34,8,13,0.9,1
2026-01-25T0000,1758A,123.9246,41.8638,抚顺市,新抚区,细颗粒物(PM2.5),110,110,93,83,58,8,,63,19,63,48,5,7,1.2,1.1
2026-01-25T0000,1759A,124.0972,41.8961,抚顺市,大伙房水库,,48,48,50,33,35,28,,62,50,37,25,10,10,0.9,0.9
2026-01-25T0000,1760A,123.708,41.8386,抚顺市,沈抚新城,细颗粒物(PM2.5),83,85,80,61,48,9,,64,26,66,49,7,8,1.2,1.1
2026-01-25T0000,2377A,116.3544,27.9833,抚州市,市站,细颗粒物(PM2.5),88,84,76,65,54,23,,63,38,40,31,12,10,1.0,1
2026-01-25T0000,2378A,116.3562,27.9631,抚州市,血防站,细颗粒物(PM2.5),87,80,74,64,53,26,,60,43,42,38,10,7,1.5,1.5
2026-01-25T0000,2379A,116.3561,28.0007,抚州市,采茶剧团,细颗粒物(PM2.5),92,82,73,68,53,15,,67,40,40,27,14,9,1.3,1.2
2026-01-25T0000,2380A,116.3854,27.9648,抚州市,医学分院,细颗粒物(PM2.5),79,91,77,58,48,19,,65,44,55,35,10,8,1.1,1.1
2026-01-25T0000,2207A,121.6095,41.9978,阜新市,工业园区,,44,44,52,9,16,48,,68,33,15,23,15,13,0.5,0.5
2026-01-25T0000,2208A,121.6567,42.0188,阜新市,长青街,,22,13,22,3,11,69,,78,56,5,12,6,8,0.3,0.4
2026-01-25T0000,2209A,121.6672,42.07,阜新市,农业园区,,20,19,19,3,3,61,,67,59,7,8,5,7,0.2,0.2
2026-01-25T0000,2211A,121.6343,42.0455,阜新市,玉龙新城,,24,24,42,8,22,42,,67,32,22,28,5,7,0.6,0.7
2026-01-25T0000,2301A,115.8276,32.8929,阜阳市,市监测站,细颗粒物(PM2.5),127,115,117,96,94,60,,87,72,27,32,4,5,0.7,0.7
2026-01-25T0000,2303A,115.8551,32.8606,阜阳市,开发区,细颗粒物(PM2.5),118,104,108,89,91,60,,86,62,27,40,5,5,0.5,0.5
2026-01-25T0000,2875A,115.783962,32.889217,阜阳市,阜阳职业技术学院,,,,107,,90,,,69,,,27,,7,,0.9
2026-01-25T0000,3468A,115.79,32.8614,阜阳市,市规划展馆,细颗粒物(PM2.5),123,107,111,93,92,75,,95,82,20,25,6,6,0.7,0.6
2026-01-25T0000,3469A,115.835101,32.918568,阜阳市,枣园社区,细颗粒物(PM2.5),124,117,115,94,94,56,,88,66,28,32,4,5,0.7,0.6
2026-01-25T0000,2669A,102.9097,34.9841,甘南藏族自治州,州政府,细颗粒物(PM2.5),79,105,50,58,29,2,,72,38,52,30,21,12,1.9,0.9
2026-01-25T0000,3380A,102.8915,34.9618,甘南藏族自治州,甘肃民族师范学院,颗粒物(PM10),84,117,56,45,18,4,,68,40,58,28,17,13,0.8,0.4
2026-01-25T0000,2570A,101.96,30.048,甘孜藏族自治州,水桥子,,26,26,26,14,9,26,,72,52,41,26,7,7,0.5,0.4
2026-01-25T0000,3065A,101.9534,29.9976,甘孜藏族自治州,州环保局,,28,28,27,3,7,60,,81,69,13,13,6,6,0.5,0.4
2026-01-25T0000,2363A,114.9368,25.8663,赣州市,地委,颗粒物(PM10),70,90,78,44,36,9,,44,16,42,27,7,7,1.3,0.8
2026-01-25T0000,2364A,114.946,25.8483,赣州市,气象台,颗粒物(PM10),78,106,70,41,30,1,,37,12,58,36,8,6,0.9,0.6
2026-01-25T0000,2365A,114.932,25.8332,赣州市,市图书馆,颗粒物(PM10),78,105,57,50,36,3,,34,15,52,31,5,4,1.2,0.9
2026-01-25T0000,2366A,114.8905,25.8472,赣州市,华坚鞋城,颗粒物(PM10),81,112,58,54,33,4,,39,15,46,28,9,7,1.1,0.6
2026-01-25T0000,3109A,115.0094,25.8614,赣州市,赣县区卫计委,细颗粒物(PM2.5),68,61,57,49,50,0,,25,8,55,26,7,7,0.9,0.7
2026-01-25T0000,2684A,106.2753,36.0057,固原市,监测站,颗粒物(PM10),500,718,95,71,60,61,,81,78,19,17,7,7,0.8,0.7
2026-01-25T0000,2685A,106.2384,36.0189,固原市,新区,颗粒物(PM10),435,535,89,74,65,64,,78,76,16,16,8,7,0.8,0.8
2026-01-25T0000,2544A,106.6307,30.4577,广安市,市委,细颗粒物(PM2.5),75,,58,55,43,48,,52,50,15,22,9,9,0.9,0.9
2026-01-25T0000,2545A,106.6266,30.4662,广安市,友谊中学,细颗粒物(PM2.5),69,52,50,50,42,48,,53,50,18,22,6,6,0.8,0.8
2026-01-25T0000,2547A,106.6386,30.4551,广安市,广电花园,细颗粒物(PM2.5),79,96,55,58,44,46,,48,46,15,20,5,5,0.8,0.8
2026-01-25T0000,2902A,106.6347,30.4868,广安市,北辰小学,细颗粒物(PM2.5),72,64,51,52,41,53,,57,55,14,18,5,5,1.1,1.1
2026-01-25T0000,2524A,105.8211,32.4444,广元市,老城,细颗粒物(PM2.5),75,69,70,55,54,5,,36,26,57,38,2,3,0.9,0.9
2026-01-25T0000,2526A,105.8629,32.429,广元市,监测站,细颗粒物(PM2.5),72,71,72,52,52,11,,40,30,41,32,6,10,1.0,1.1
2026-01-25T0000,3617A,105.8047,32.4167,广元市,经开区,细颗粒物(PM2.5),68,63,60,49,46,5,,42,28,47,29,2,3,0.9,0.9
2026-01-25T0000,1345A,113.2346,23.1423,广州市,广雅中学,颗粒物(PM10),76,101,80,52,48,1,,67,31,104,50,4,4,1.7,1.3
2026-01-25T0000,1346A,113.2611,23.105,广州市,市五中,颗粒物(PM10),62,74,71,36,42,2,,90,56,100,61,9,10,/,/
2026-01-25T0000,1348A,113.3477,23.0916,广州市,广东商学院,细颗粒物(PM2.5),93,81,64,69,56,1,,85,44,102,48,6,7,1.0,0.8
2026-01-25T0000,1349A,113.4332,23.105,广州市,市八十六中,细颗粒物(PM2.5),82,91,64,60,43,2,,78,36,96,52,8,8,/,/
2026-01-25T0000,1350A,113.3506,22.9488,广州市,番禺中学,颗粒物(PM10),88,125,62,56,40,4,,84,47,102,53,2,3,1.3,0.8
2026-01-25T0000,1351A,113.2147,23.3918,广州市,花都师范,细颗粒物(PM2.5),79,94,59,58,39,0,,65,39,94,40,5,8,1.5,0.8
2026-01-25T0000,1352A,113.2599,23.1329,广州市,市监测站,颗粒物(PM10),74,97,79,53,50,2,,74,37,101,52,2,4,/,/
2026-01-25T0000,1353A,113.5618,23.3119,广州市,九龙镇镇龙,细颗粒物(PM2.5),83,105,73,61,46,0,,90,42,76,41,6,8,0.9,0.7
2026-01-25T0000,1354A,113.2764,23.1544,广州市,麓湖,细颗粒物(PM2.5),52,50,59,36,40,2,,62,18,76,46,8,10,0.9,0.9
2026-01-25T0000,2846A,113.3209,23.1323,广州市,体育西,颗粒物(PM10),63,76,70,43,45,3,,68,40,93,47,7,8,1.1,0.9
2026-01-25T0000,3298A,113.5718,23.5493,广州市,从化街口,"颗粒物(PM10),细颗粒物(PM2.5)",54,57,59,38,41,2,,82,42,56,32,9,16,0.8,0.6
2026-01-25T0000,3299A,113.3463,23.369,广州市,白云竹料,细颗粒物(PM2.5),87,121,66,64,41,7,,77,38,74,40,4,7,1.5,0.9
2026-01-25T0000,3300A,113.2981,23.2365,广州市,白云嘉禾,"颗粒物(PM10),细颗粒物(PM2.5)",79,107,72,58,41,1,,79,37,90,49,7,8,/,/
2026-01-25T0000,3301A,113.4256,23.1716,广州市,黄埔科学城,颗粒物(PM10),61,72,55,38,35,0,,84,45,74,43,5,8,0.8,0.6
2026-01-25T0000,3302A,113.3942,23.0485,广州市,番禺大学城,颗粒物(PM10),75,99,76,51,44,3,,96,54,102,50,7,7,1.0,0.7
2026-01-25T0000,3303A,113.4923,22.8169,广州市,南沙黄阁,细颗粒物(PM2.5),97,,45,72,48,12,,88,43,112,58,6,8,/,/
2026-01-25T0000,3304A,113.534,22.7893,广州市,南沙街,细颗粒物(PM2.5),99,108,78,74,49,71,,96,72,50,46,6,8,0.9,0.9
2026-01-25T0000,3443A,113.2905,23.5541,广州市,花都梯面,,,,46,24,29,1,,45,18,34,25,4,7,/,/
2026-01-25T0000,3445A,113.786,23.7479,广州市,从化良口,,32,26,34,22,29,47,,82,69,15,17,7,8,/,/
2026-01-25T0000,3446A,113.805,23.2614,广州市,增城荔城,细颗粒物(PM2.5),63,60,43,45,33,6,,101,52,59,26,4,6,0.9,0.7
2026-01-25T0000,2506A,109.604387,23.066791,贵港市,江南子站,细颗粒物(PM2.5),92,78,56,68,53,20,,24,23,22,20,4,4,1.0,0.9
2026-01-25T0000,2508A,109.5669,23.1065,贵港市,荷城子站,细颗粒物(PM2.5),67,58,47,48,41,18,,27,24,25,23,5,4,1.0,0.9
2026-01-25T0000,3405A,109.5886,23.1172,贵港市,新世纪学校,,,,55,,45,,,26,24,,21,,,,0.6
2026-01-25T0000,4260A,109.5933,23.095,贵港市,中山路155-3号,细颗粒物(PM2.5),65,58,53,47,45,15,,31,27,28,20,/,/,0.9,0.9
2026-01-25T0000,1439A,106.6863,26.6035,贵阳市,马鞍山,,25,17,50,17,42,35,,44,41,15,18,5,9,/,/
2026-01-25T0000,1441A,106.6241,26.6266,贵阳市,鉴湖路,,28,22,58,19,39,34,,43,40,12,18,2,5,0.5,0.6
2026-01-25T0000,1442A,106.7468,26.6344,贵阳市,燕子冲,,42,,43,29,50,38,,50,47,13,15,9,11,0.6,0.7
2026-01-25T0000,1443A,106.6556,26.4362,贵阳市,碧云窝,,29,29,61,17,40,41,,48,47,10,14,3,4,/,/
2026-01-25T0000,1445A,106.6963,26.6063,贵阳市,红边门,,32,22,57,22,47,35,,42,40,19,22,5,10,/,/
2026-01-25T0000,1446A,106.7162383,26.56964667,贵阳市,新华路,,32,31,60,22,41,36,,46,42,20,22,7,9,0.6,0.7
2026-01-25T0000,1447A,106.6742,26.542,贵阳市,太慈桥,,28,24,52,19,40,32,,46,41,16,20,4,6,/,/
2026-01-25T0000,4230A,106.688212,26.56952,贵阳市,花果园大街66号,,,14,44,,55,27,,37,34,15,20,2,6,/,/
2026-01-25T0000,4231A,106.687268,26.516892,贵阳市,漓江路57号,,32,22,54,22,42,35,,46,42,18,20,8,10,0.5,0.6
2026-01-25T0000,1864A,110.3091,25.2705,桂林市,龙隐路小学,细颗粒物(PM2.5),103,88,52,77,53,14,,41,23,33,18,10,8,0.9,0.8
2026-01-25T0000,1865A,110.2849361,25.22909545,桂林市,八中,细颗粒物(PM2.5),100,,53,75,52,19,,38,24,34,24,41,10,0.5,0.5
2026-01-25T0000,3531A,110.296,25.1254,桂林市,旅游学院,细颗粒物(PM2.5),77,75,56,56,41,20,,43,32,26,19,4,6,0.5,0.5
2026-01-25T0000,4222A,110.1835,25.2444,桂林市,环湖路276号,细颗粒物(PM2.5),77,75,55,56,45,18,,38,27,29,20,18,13,0.9,0.7
2026-01-25T0000,4301A,110.2803,25.2773,桂林市,信义路13号,细颗粒物(PM2.5),82,76,52,60,47,15,,42,28,44,21,59,8,0.9,0.8
2026-01-25T0000,2674A,100.2262,34.4854,果洛藏族自治州,玛沁县大武镇,颗粒物(PM10),68,85,53,25,11,38,,90,73,14,8,14,15,0.7,0.4
2026-01-25T0000,1130A,126.5557,45.8109,哈尔滨市,松北商大,细颗粒物(PM2.5),84,,61,62,59,31,,48,33,39,39,6,13,0.6,0.7
2026-01-25T0000,1132A,126.6162,45.719,哈尔滨市,南岗学府路,细颗粒物(PM2.5),57,56,63,40,49,38,,58,42,24,26,11,12,0.7,0.8
2026-01-25T0000,1133A,126.6894,45.7733,哈尔滨市,太平宏伟公园,细颗粒物(PM2.5),62,47,49,44,42,54,,61,54,20,23,12,20,0.6,0.7
2026-01-25T0000,1134A,126.6361,45.7672,哈尔滨市,道外承德广场,颗粒物(PM10),55,60,67,33,41,55,,66,58,25,28,11,13,0.6,0.6
2026-01-25T0000,1136A,126.644,45.7261,哈尔滨市,动力和平路,,50,41,52,35,41,51,,57,49,20,24,8,13,0.7,0.8
2026-01-25T0000,1137A,126.5933,45.7479,哈尔滨市,道里建国路,细颗粒物(PM2.5),78,,55,57,50,35,,55,43,38,28,8,10,0.5,0.4
2026-01-25T0000,1138A,126.6127,45.6119,哈尔滨市,平房东轻厂,细颗粒物(PM2.5),125,110,75,95,66,6,,49,11,73,58,15,15,1.6,1.2
2026-01-25T0000,1139A,126.5875,45.9827,哈尔滨市,呼兰师专,细颗粒物(PM2.5),114,104,85,86,71,23,,52,25,41,37,8,10,1.0,0.9
2026-01-25T0000,1140A,126.6299,45.6799,哈尔滨市,省农科院,细颗粒物(PM2.5),92,90,90,68,79,27,,52,23,40,46,18,19,0.9,1.1
2026-01-25T0000,4282A,126.6769,45.7379,哈尔滨市,华山路1号,,46,36,45,32,34,52,,56,51,19,26,16,19,0.6,0.4
2026-01-25T0000,4283A,126.9717,45.5356,哈尔滨市,解放大街52号,细颗粒物(PM2.5),87,80,75,64,58,7,,60,30,57,33,14,16,1.1,0.9
2026-01-25T0000,2688A,93.5124,42.8176,哈密市,地区监测站,颗粒物(PM10),62,73,113,29,44,38,,45,40,20,20,9,12,0.2,0.1
2026-01-25T0000,2689A,93.5014,42.8312,哈密市,哈密师范学校,颗粒物(PM10),75,99,110,28,34,31,,48,39,32,25,6,12,0.6,0.6
2026-01-25T0000,2671A,100.9016,36.9464,海北藏族自治州,海晏县西海镇,,39,39,29,14,12,40,,67,50,6,6,6,7,0.4,0.4
2026-01-25T0000,3867A,102.074,36.5056,海东市,平安区公安局北苑,颗粒物(PM10),96,141,70,69,38,62,,46,46,19,30,37,26,1.1,1.3
2026-01-25T0000,4163A,102.0984,36.5119,海东市,滨河路,颗粒物(PM10),111,171,74,71,39,65,,58,47,33,45,48,23,0.9,1.1
2026-01-25T0000,1410A,110.3189,20.0596,海口市,海南大学,,32,28,48,18,32,100,,122,118,12,19,6,6,0.5,0.6
2026-01-25T0000,1411A,110.2827,20.0051,海口市,秀英海南医院,,36,36,46,15,27,93,,114,109,15,19,7,8,0.4,0.5
2026-01-25T0000,1412A,110.3391,19.9979,海口市,海南师范大学,,37,37,45,17,29,94,,117,113,15,22,5,6,0.5,0.6
2026-01-25T0000,1413A,110.3303,20.0359,海口市,龙华路环保局宿舍,,42,42,46,22,31,91,,118,114,17,21,/,/,0.8,0.9
2026-01-25T0000,3539A,110.5111,19.9737,海口市,桂林洋子站,,27,22,45,16,29,86,,115,106,10,19,/,/,/,/
2026-01-25T0000,4134A,110.1952,20.0451,海口市,长滨二路9号,,36,30,42,25,33,95,,116,112,12,16,/,/,/,/
2026-01-25T0000,2673A,100.6158,36.2985,海南藏族自治州,共和县恰卜恰镇,,42,39,40,29,21,32,,60,30,25,22,15,15,0.7,0.8
2026-01-25T0000,2676A,97.373,37.376,海西蒙古族藏族自治州,德令哈市,颗粒物(PM10),69,87,62,17,14,46,,88,,17,7,12,16,1.0,0.6
2026-01-25T0000,1049A,114.492,36.5712,邯郸市,矿院,细颗粒物(PM2.5),285,,191,235,195,49,,87,72,41,54,5,6,1.2,1.1
2026-01-25T0000,1050A,114.4839,36.6136,邯郸市,丛台公园,细颗粒物(PM2.5),292,260,210,242,196,47,,87,64,48,51,4,5,1.3,1.2
2026-01-25T0000,3458A,114.7893,36.5592,邯郸市,香泉濮院小区,细颗粒物(PM2.5),264,296,193,214,162,36,,99,70,56,54,5,6,1.4,1.2
2026-01-25T0000,3580A,114.1998,36.4439,邯郸市,峰峰矿区临水派出所,细颗粒物(PM2.5),232,,160,182,157,79,,91,85,24,33,7,11,1.2,1.4
2026-01-25T0000,4068A,114.5209,36.7697,邯郸市,建安街268号,细颗粒物(PM2.5),297,,219,247,219,28,,50,24,62,70,4,6,1.2,1.4
2026-01-25T0000,4069A,114.5488,36.6177,邯郸市,丛台东路558号,细颗粒物(PM2.5),314,,202,264,211,9,,86,32,78,66,3,10,1.5,1.3
2026-01-25T0000,2635A,107.0155,33.0707,汉中市,市监测站,细颗粒物(PM2.5),158,127,79,120,70,9,,32,23,49,36,6,6,1.8,1.3
2026-01-25T0000,2636A,107.0083,33.114,汉中市,鑫源开发区,细颗粒物(PM2.5),114,99,77,86,70,6,,37,24,51,35,6,5,1.5,1.1
2026-01-25T0000,2637A,107.0072,33.0323,汉中市,南郑大河坎水厂,细颗粒物(PM2.5),166,138,84,126,71,4,,27,14,44,34,7,7,2.2,1.3
2026-01-25T0000,1223A,120.2073,30.2111,杭州市,滨江,细颗粒物(PM2.5),125,126,113,95,86,61,,66,55,42,63,10,8,0.7,0.7
2026-01-25T0000,1224A,120.0625,30.2737,杭州市,西溪,细颗粒物(PM2.5),99,98,89,74,69,51,,75,65,36,50,10,10,0.8,0.7
2026-01-25T0000,1226A,120.3417,30.315,杭州市,下沙,细颗粒物(PM2.5),107,114,113,80,81,45,,83,69,60,65,11,11,0.9,0.8
2026-01-25T0000,1227A,120.1252,30.2465,杭州市,卧龙桥,细颗粒物(PM2.5),105,99,92,79,70,8,,69,35,60,54,10,10,0.6,0.6
2026-01-25T0000,1228A,120.1902,30.2691,杭州市,浙江农大,细颗粒物(PM2.5),115,112,110,87,84,45,,76,67,66,64,10,8,0.8,0.8
2026-01-25T0000,1230A,120.1195,30.3121,杭州市,和睦小学,细颗粒物(PM2.5),114,120,112,86,77,53,,74,63,46,54,10,8,0.9,0.9
2026-01-25T0000,1231A,120.3076,30.4146,杭州市,临平镇,细颗粒物(PM2.5),103,110,120,77,81,59,,72,66,38,58,8,9,0.8,0.9
2026-01-25T0000,1232A,120.2753,30.1839,杭州市,城厢镇,细颗粒物(PM2.5),113,120,107,85,75,66,,72,58,46,68,12,10,0.6,0.5
2026-01-25T0000,1233A,120.0883,30.1808,杭州市,云栖,细颗粒物(PM2.5),97,105,99,72,64,30,,63,40,41,57,4,5,0.7,0.6
2026-01-25T0000,3557A,119.9463,30.0496,杭州市,镇二中,细颗粒物(PM2.5),147,119,86,112,79,10,,63,48,84,56,7,7,1.0,0.8
2026-01-25T0000,3558A,119.7184,30.2367,杭州市,市府大楼,细颗粒物(PM2.5),145,132,87,111,74,2,,71,38,68,41,11,11,1.4,1.2
2026-01-25T0000,3656A,120.1554,30.2863,杭州市,消防大队,细颗粒物(PM2.5),118,112,102,89,81,60,,70,64,38,54,11,9,0.6,0.6
2026-01-25T0000,1270A,117.1957,31.7845,合肥市,明珠广场,细颗粒物(PM2.5),110,105,90,83,64,44,,81,63,42,48,8,7,1.1,0.9
2026-01-25T0000,1271A,117.307,31.8765,合肥市,三里街,细颗粒物(PM2.5),98,100,93,73,66,39,,72,50,55,56,8,7,1.1,0.9
2026-01-25T0000,1272A,117.2587,31.8703,合肥市,琥珀山庄,细颗粒物(PM2.5),108,105,91,81,74,11,,82,50,93,54,8,9,1.4,1.1
2026-01-25T0000,1275A,117.2593,31.9376,合肥市,庐阳区,细颗粒物(PM2.5),104,114,103,78,68,16,,78,43,87,61,10,9,1.1,0.9
2026-01-25T0000,1276A,117.345251,31.861615,合肥市,瑶海区,细颗粒物(PM2.5),104,110,96,78,68,24,,75,42,80,58,8,7,1.0,0.7
2026-01-25T0000,1277A,117.3033,31.7967,合肥市,包河区,细颗粒物(PM2.5),119,114,95,90,74,16,,78,45,98,73,11,9,1.1,0.9
2026-01-25T0000,1278A,117.278,31.7392,合肥市,滨湖新区,细颗粒物(PM2.5),117,107,86,88,71,49,,84,69,41,43,6,5,1.1,0.8
2026-01-25T0000,1279A,117.1324,31.8395,合肥市,高新区,细颗粒物(PM2.5),107,105,84,80,63,52,,87,66,52,50,8,6,1.0,0.8
2026-01-25T0000,3464A,117.3802,31.9148,合肥市,高教基地,细颗粒物(PM2.5),105,88,87,79,75,13,,79,44,67,43,8,10,1.1,0.8
2026-01-25T0000,4098A,117.2518,31.8404,合肥市,中国科学技术大学,细颗粒物(PM2.5),102,110,89,76,63,39,,86,63,56,41,13,10,1.2,0.9
2026-01-25T0000,3614A,79.9241,37.0878,和田地区,地区环保局,颗粒物(PM10),170,290,499,84,122,26,,56,51,37,22,4,5,1.2,0.6
2026-01-25T0000,3615A,79.9132,37.1137,和田地区,市环保局,颗粒物(PM10),177,304,498,78,131,27,,52,49,31,29,4,4,1.4,1.5
2026-01-25T0000,2517A,108.0496,24.6957,河池市,市环保站,细颗粒物(PM2.5),67,60,49,48,36,39,,60,53,15,12,3,7,0.9,0.7
2026-01-25T0000,4302A,108.0901,24.6945,河池市,上任中路54号,细颗粒物(PM2.5),77,63,49,56,42,38,,56,49,14,14,5,12,0.8,0.6
2026-01-25T0000,1697A,114.6962,23.7538,河源市,东埔,细颗粒物(PM2.5),64,58,41,46,37,2,,80,32,67,30,5,5,0.9,0.6
2026-01-25T0000,1698A,114.6895,23.7232,河源市,老城,颗粒物(PM10),73,96,43,37,28,11,,82,51,49,20,6,6,0.9,0.7
2026-01-25T0000,3374A,115.5562,35.089,菏泽市,定陶老年大学,细颗粒物(PM2.5),163,151,135,124,114,57,,107,85,40,35,5,4,0.8,0.7
2026-01-25T0000,4114A,115.4239,35.2593,菏泽市,黄河路600号,细颗粒物(PM2.5),190,171,134,143,116,48,,108,88,50,29,3,4,1.0,0.8
2026-01-25T0000,4115A,115.5025,35.2727,菏泽市,菏泽市人社局,细颗粒物(PM2.5),198,185,138,148,120,17,,98,70,74,32,8,8,1.1,0.8
2026-01-25T0000,4184A,115.479691,35.244011,菏泽市,永昌路1号,细颗粒物(PM2.5),179,167,138,135,115,52,,105,86,43,27,5,3,0.7,0.5
2026-01-25T0000,4193A,115.471542,35.280012,菏泽市,长城路999号,细颗粒物(PM2.5),200,173,131,150,108,38,,105,85,62,30,13,11,1.1,0.8
2026-01-25T0000,2514A,111.5264,24.4178,贺州市,环保小区,细颗粒物(PM2.5),84,94,67,62,61,5,,30,16,42,25,4,9,1.0,0.8
2026-01-25T0000,2515A,111.561,24.4074,贺州市,政协大楼,细颗粒物(PM2.5),84,91,65,62,54,2,,33,14,44,25,12,15,1.2,0.8
2026-01-25T0000,3534A,111.4744,24.455,贺州市,西湾,细颗粒物(PM2.5),94,106,74,70,57,17,,34,24,26,22,9,12,0.9,0.8
2026-01-25T0000,2385A,114.17,35.9019,鹤壁市,市监测站,细颗粒物(PM2.5),304,272,202,254,180,49,,80,63,44,35,6,6,1.6,1.5
2026-01-25T0000,2386A,114.2953,35.7512,鹤壁市,市交警支队,细颗粒物(PM2.5),278,251,184,228,167,43,,79,56,47,53,3,4,1.1,1.1
2026-01-25T0000,2387A,114.2877,35.7302,鹤壁市,迎宾馆,细颗粒物(PM2.5),258,244,179,208,155,51,,89,63,38,47,5,4,1.2,1.2
2026-01-25T0000,3474A,114.2616,35.6824,鹤壁市,大新区,细颗粒物(PM2.5),274,233,178,224,169,59,,87,66,26,46,6,6,1.2,1.2
2026-01-25T0000,3596A,114.1573,35.9607,鹤壁市,南山宾馆,细颗粒物(PM2.5),295,269,215,245,190,54,,81,66,46,38,8,9,1.4,1.5
2026-01-25T0000,2244A,130.2537,47.3416,鹤岗市,哈啤分公司,,30,30,26,17,20,75,,76,74,4,9,6,6,0.2,0.3
2026-01-25T0000,2245A,130.2683,47.3087,鹤岗市,斯达机电,,27,27,31,15,14,75,,72,72,5,9,4,5,0.4,0.4
2026-01-25T0000,2246A,130.3114,47.3388,鹤岗市,东山纸板厂,,28,,32,19,22,72,,67,64,5,15,6,8,0.4,0.6
2026-01-25T0000,2263A,127.4832,50.2524,黑河市,交通局,,26,,17,18,16,75,,77,73,4,7,4,4,0.2,0.2
2026-01-25T0000,2264A,127.5146,50.2339,黑河市,环保局,,23,10,15,8,9,71,,72,68,8,8,3,4,0.3,0.3
2026-01-25T0000,1074A,115.6839,37.754,衡水市,电机北厂,细颗粒物(PM2.5),259,246,195,209,165,9,,78,49,75,52,16,12,1.3,1.1
2026-01-25T0000,1075A,115.6303,37.7318,衡水市,市监测站,细颗粒物(PM2.5),238,217,175,188,150,19,,80,56,65,44,17,12,1.3,1.1
2026-01-25T0000,3188A,115.6684,37.7216,衡水市,市城管局,细颗粒物(PM2.5),212,214,186,162,143,16,,81,55,79,56,20,12,1.4,1.2
2026-01-25T0000,3459A,115.599,37.5491,衡水市,地表水厂,细颗粒物(PM2.5),234,187,169,184,172,24,,85,55,63,59,13,9,1.2,1
2026-01-25T0000,2457A,112.6209,26.9268,衡阳市,衡阳化工总厂,细颗粒物(PM2.5),54,47,46,38,35,28,,54,38,25,20,8,9,1.1,1.1
2026-01-25T0000,2458A,112.621,26.8957,衡阳市,珠晖区环保局,细颗粒物(PM2.5),57,50,47,40,36,16,,52,33,41,26,5,6,1.1,1
2026-01-25T0000,2459A,112.628,26.8654,衡阳市,市委党校,细颗粒物(PM2.5),58,58,39,41,33,12,,56,38,41,14,11,12,1.2,1.1
2026-01-25T0000,2460A,112.6007,26.8977,衡阳市,市监测站,颗粒物(PM10),70,90,61,45,35,6,,53,26,49,26,7,8,1.6,1.1
2026-01-25T0000,2461A,112.5658,26.9013,衡阳市,真空机电公司,细颗粒物(PM2.5),72,89,60,52,40,2,,50,23,63,32,9,10,1.7,1.2
2026-01-25T0000,3399A,112.6703,26.8817,衡阳市,师范学院,细颗粒物(PM2.5),59,59,42,42,29,27,,57,39,29,21,4,4,0.9,0.8
2026-01-25T0000,3038A,103.3757,23.3679,红河哈尼族彝族自治州,州图书馆,,28,27,24,19,15,63,,70,66,7,7,8,7,0.6,0.6
2026-01-25T0000,4154A,103.401,23.3561,红河哈尼族彝族自治州,蒙自市朝阳路,,22,20,20,15,15,66,,73,68,5,6,9,8,0.5,0.6
2026-01-25T0000,1090A,111.6506,40.7517,呼和浩特市,呼市一监,,41,41,55,9,27,63,,65,61,10,34,13,13,0.4,0.8
2026-01-25T0000,1094A,111.7516,40.8369,呼和浩特市,如意水处理厂,,47,47,55,9,30,67,,70,64,14,37,11,12,0.4,0.7
2026-01-25T0000,1095A,111.727798,40.806187,呼和浩特市,二十九中,,42,42,59,8,26,66,,67,65,10,33,13,13,0.3,0.6
2026-01-25T0000,1097A,111.717,40.7617,呼和浩特市,化肥厂生活区,颗粒物(PM10),59,68,61,10,28,66,,71,66,11,33,7,7,0.4,0.9
2026-01-25T0000,3699A,111.6519,40.8389,呼和浩特市,海东办,,29,29,55,7,29,67,,63,61,12,39,5,6,0.4,0.8
2026-01-25T0000,4275A,111.591512,40.827312,呼和浩特市,成吉思汗西街8号,,31,31,52,8,24,55,,55,49,18,44,5,7,0.5,0.7
2026-01-25T0000,4276A,111.6597,40.8077,呼和浩特市,公园东路75号,颗粒物(PM10),60,70,60,8,27,54,,61,56,18,42,7,7,0.5,0.8
2026-01-25T0000,4277A,111.5427,40.7846,呼和浩特市,金海路35号,,31,31,52,8,25,46,,57,48,29,43,9,10,0.5,0.7
2026-01-25T0000,3061A,119.7511,49.1576,呼伦贝尔市,国华电力东,,36,36,26,20,16,57,,64,55,15,15,5,7,0.5,0.4
2026-01-25T0000,4279A,119.7569,49.2222,呼伦贝尔市,伊敏大街东7号,,38,31,34,26,22,54,,62,57,15,23,6,7,0.2,0.4
2026-01-25T0000,1250A,120.075,30.867,湖州市,城西水厂,细颗粒物(PM2.5),113,118,95,85,65,58,,77,66,44,54,7,8,0.7,0.6
2026-01-25T0000,2873A,120.083,30.8929,湖州市,仁皇山新区,细颗粒物(PM2.5),134,125,105,102,83,70,,76,66,51,75,8,8,0.9,0.9
2026-01-25T0000,2907A,120.1846,30.8592,湖州市,吴兴区站,细颗粒物(PM2.5),124,117,104,94,84,57,,70,63,60,71,7,8,0.8,0.8
2026-01-25T0000,3562A,120.4146,30.8538,湖州市,南浔区站,细颗粒物(PM2.5),92,84,103,68,79,70,,85,74,30,53,8,10,0.6,0.8
2026-01-25T0000,1607A,120.904878,40.721091,葫芦岛市,龙港区,细颗粒物(PM2.5),82,83,90,60,62,7,,58,23,65,51,14,36,1.8,1.4
2026-01-25T0000,1608A,120.8382,40.7521,葫芦岛市,化工街,细颗粒物(PM2.5),128,112,88,97,60,8,,55,24,67,53,112,48,1.2,1.1
2026-01-25T0000,1609A,120.8339,40.7078,葫芦岛市,新区,细颗粒物(PM2.5),92,78,70,68,54,5,,59,23,77,56,18,35,1.7,1.4
2026-01-25T0000,1610A,120.8697,40.7679,葫芦岛市,东城区,细颗粒物(PM2.5),83,87,82,61,59,6,,56,22,71,55,60,59,1.3,1.3
2026-01-25T0000,2483A,109.9297,27.5383,怀化市,河西地税局,细颗粒物(PM2.5),143,145,80,109,62,8,,45,22,53,33,3,3,/,/
2026-01-25T0000,2484A,109.9783,27.5342,怀化市,市四医院,细颗粒物(PM2.5),129,131,89,98,65,0,,35,16,53,34,9,9,1.5,0.9
2026-01-25T0000,2485A,109.9971,27.5579,怀化市,监测楼,细颗粒物(PM2.5),139,138,87,106,66,0,,42,20,54,32,6,5,1.0,0.5
2026-01-25T0000,1210A,119.0566,33.5991,淮安市,钵池山,细颗粒物(PM2.5),130,102,104,99,94,57,,83,66,32,36,6,7,0.6,0.6
2026-01-25T0000,1211A,119.0083,33.578,淮安市,北京南路,细颗粒物(PM2.5),119,100,106,90,90,57,,80,64,28,39,7,8,0.7,0.8
2026-01-25T0000,1212A,118.9938,33.6083,淮安市,市监测站,细颗粒物(PM2.5),119,95,98,90,92,68,,86,80,29,35,8,10,0.9,1
2026-01-25T0000,1213A,119.135,33.5038,淮安市,楚州区监测站,细颗粒物(PM2.5),134,115,106,102,95,47,,83,64,35,50,8,10,0.5,0.6
2026-01-25T0000,3426A,118.8757,33.2897,淮安市,新华书店,细颗粒物(PM2.5),127,109,106,96,92,51,,84,62,30,34,8,9,0.8,0.9
2026-01-25T0000,4092A,119.119691,33.550006,淮安市,枚皋中路89号,细颗粒物(PM2.5),128,109,114,97,97,78,,98,82,22,34,8,9,0.8,0.6
2026-01-25T0000,4206A,119.028838,33.631911,淮安市,承德北路606号,细颗粒物(PM2.5),119,114,120,90,91,66,,84,70,24,38,7,8,0.7,0.8
2026-01-25T0000,2282A,116.8005,33.9749,淮北市,监测站,细颗粒物(PM2.5),113,117,119,85,93,82,,106,84,17,26,4,5,0.7,0.8
2026-01-25T0000,2283A,116.8094,33.9008,淮北市,烈山区政府,细颗粒物(PM2.5),107,90,107,80,93,92,,107,97,14,24,2,5,0.5,0.6
2026-01-25T0000,4017A,116.7926,33.9534,淮北市,市博物馆,细颗粒物(PM2.5),114,107,127,86,101,73,,104,84,28,28,7,9,0.7,0.8
2026-01-25T0000,4100A,116.8322,33.9884,淮北市,杜集区第一实验学校,细颗粒物(PM2.5),119,106,126,90,109,92,,128,102,13,25,7,8,0.8,0.9
2026-01-25T0000,2277A,116.8304,32.7726,淮南市,潘集区政府,细颗粒物(PM2.5),129,114,113,98,95,42,,81,57,28,33,5,7,0.6,0.7
2026-01-25T0000,2279A,116.8569,32.5949,淮南市,谢家集区政府,细颗粒物(PM2.5),99,101,94,74,69,47,,83,60,35,29,8,9,0.9,0.8
2026-01-25T0000,2280A,116.8279,32.6333,淮南市,八公山区政府,细颗粒物(PM2.5),117,104,94,88,78,49,,84,63,31,26,3,7,0.8,0.8
2026-01-25T0000,2894A,117.0561,32.6536,淮南市,经济技术开发区消防队,细颗粒物(PM2.5),110,109,104,83,76,51,,80,59,38,40,5,6,0.8,0.9
2026-01-25T0000,3329A,117.011,32.5891,淮南市,山南新区,细颗粒物(PM2.5),108,117,99,81,68,62,,87,73,33,30,8,9,0.9,0.9
2026-01-25T0000,4209A,117.003137,32.644456,淮南市,国庆中路369号,细颗粒物(PM2.5),120,100,94,91,84,48,,71,52,37,36,10,10,0.8,0.8
2026-01-25T0000,2446A,114.9021,30.474,黄冈市,职工中心,细颗粒物(PM2.5),68,59,80,49,64,64,,89,71,16,26,9,9,0.6,0.8
2026-01-25T0000,2929A,114.8858,30.4519,黄冈市,红卫路,细颗粒物(PM2.5),78,63,78,57,69,58,,86,72,20,26,12,10,0.4,0.5
2026-01-25T0000,3398A,114.9134,30.4446,黄冈市,市林业局,细颗粒物(PM2.5),75,60,77,55,68,59,,85,71,23,27,3,4,0.7,0.7
2026-01-25T0000,2672A,102.02,35.5101,黄南藏族自治州,同仁县隆务镇,颗粒物(PM10),55,60,37,19,16,38,,60,49,7,7,11,12,0.5,0.4
2026-01-25T0000,2295A,118.2905,29.6965,黄山市,延安路89号,,49,39,37,34,29,10,,68,36,26,19,4,4,0.8,0.7
2026-01-25T0000,2297A,118.1369,30.2755,黄山市,黄山区政府5号楼,细颗粒物(PM2.5),135,134,34,103,26,12,,78,44,28,15,2,2,0.9,0.7
2026-01-25T0000,4210A,118.335445,29.720283,黄山市,滨江东路7-2号,细颗粒物(PM2.5),77,75,57,56,42,11,,62,27,31,23,/,/,/,/
2026-01-25T0000,2423A,115.0547,30.2332,黄石市,沈家营,细颗粒物(PM2.5),78,87,88,57,58,40,,64,50,28,26,16,12,2.0,1.5
2026-01-25T0000,2426A,114.899,30.211,黄石市,铁山,,,,72,61,74,62,,87,73,7,23,9,9,,1
2026-01-25T0000,2427A,115.0259,30.2108,黄石市,团城山,细颗粒物(PM2.5),70,59,82,51,66,66,,86,77,12,26,7,6,0.7,0.9
2026-01-25T0000,3149A,115.0174,30.1591,黄石市,笔架山北路,细颗粒物(PM2.5),75,87,115,55,73,48,,76,61,17,26,10,9,1.2,1.2
2026-01-25T0000,4185A,115.078022,30.21118,黄石市,磁湖东路29号,细颗粒物(PM2.5),82,64,82,60,71,65,,83,73,18,34,6,8,0.9,1.2
2026-01-25T0000,1392A,114.4181,23.0528,惠州市,河南岸金山湖子站,颗粒物(PM10),52,53,48,32,33,85,,87,80,20,27,4,5,0.7,0.8
2026-01-25T0000,1393A,114.4055,23.0824,惠州市,下埔横江三路子站,颗粒物(PM10),52,53,48,32,33,96,,95,82,23,26,7,7,0.8,0.8
2026-01-25T0000,1395A,114.4645,22.7832,惠州市,惠阳区承修路船湖子站,,46,42,50,32,38,95,,126,116,24,23,7,7,0.7,0.7
2026-01-25T0000,1396A,114.5316,22.7423,惠州市,大亚湾管委会子站,,30,29,49,19,32,96,,122,114,16,24,7,8,0.5,0.6
2026-01-25T0000,3314A,114.4334,22.8134,惠州市,惠阳秋长,细颗粒物(PM2.5),62,68,46,44,35,70,,140,126,44,27,/,/,/,/
2026-01-25T0000,3452A,114.6521,22.7755,惠州市,大亚湾霞涌,,32,32,41,15,24,90,,131,120,20,20,/,/,/,/
2026-01-25T0000,4300A,114.4089,23.1147,惠州市,文华一路1号,,44,44,44,26,30,108,,109,99,20,25,/,/,/,/
2026-01-25T0000,2240A,130.9618,45.2926,鸡西市,环保局,,35,,22,24,14,64,,72,67,8,8,6,6,0.3,0.2
2026-01-25T0000,2243A,130.9294,45.2959,鸡西市,第一中学,,30,22,20,21,13,66,,73,70,11,8,3,2,0.4,0.3
2026-01-25T0000,3707A,131.0069,45.2988,鸡西市,欧美日汽修厂,,33,,23,23,15,67,,73,67,6,7,6,7,0.2,0.2
2026-01-25T0000,2367A,114.9753,27.0803,吉安市,红声器材厂,颗粒物(PM10),55,60,48,35,30,23,,63,44,38,24,18,10,0.8,0.7
2026-01-25T0000,2369A,114.9903,27.1313,吉安市,市环境监测站,"颗粒物(PM10),细颗粒物(PM2.5)",55,60,47,39,32,49,,57,42,15,20,13,8,/,/
2026-01-25T0000,2370A,115.009527,27.096792,吉安市,青原区法院,颗粒物(PM10),55,60,47,36,32,3,,49,28,48,26,18,12,0.9,0.8
2026-01-25T0000,1772A,126.54,43.8622,吉林市,哈达湾,细颗粒物(PM2.5),64,50,38,46,25,62,,72,66,19,15,9,10,0.9,0.8
2026-01-25T0000,1773A,126.5843,43.8358,吉林市,东局子,细颗粒物(PM2.5),60,52,39,43,27,47,,63,56,24,18,4,6,1.0,0.8
2026-01-25T0000,1774A,126.5051,43.8243,吉林市,电力学院,细颗粒物(PM2.5),89,82,53,66,39,38,,72,54,37,22,8,8,1.3,0.9
2026-01-25T0000,1775A,126.6133,43.8971,吉林市,江北,细颗粒物(PM2.5),74,75,47,54,31,36,,65,53,29,17,7,8,1.3,0.8
2026-01-25T0000,1776A,126.5549,43.8304,吉林市,江南公园,细颗粒物(PM2.5),68,61,39,49,27,48,,67,60,25,16,8,8,0.8,0.6
2026-01-25T0000,2868A,126.4737,43.953,吉林市,九站,细颗粒物(PM2.5),60,50,48,43,37,42,,65,52,37,28,6,6,0.9,0.8
2026-01-25T0000,1299A,116.9866,36.6118,济南市,科干所,细颗粒物(PM2.5),135,144,110,103,80,50,,87,53,43,38,19,14,1.2,1
2026-01-25T0000,1300A,116.9379,36.6652,济南市,农科所,细颗粒物(PM2.5),150,168,131,115,86,13,,73,32,81,68,21,16,1.4,1.3
2026-01-25T0000,1301A,117.1265,36.6736,济南市,开发区,细颗粒物(PM2.5),160,147,125,122,92,30,,50,32,60,58,13,10,1.3,1.1
2026-01-25T0000,1303A,117.0616,36.6865,济南市,省种子仓库,细颗粒物(PM2.5),160,171,141,122,97,18,,50,34,73,62,19,12,1.8,1.6
2026-01-25T0000,1304A,116.9495185,36.644937,济南市,机床二厂,细颗粒物(PM2.5),165,159,125,125,102,30,,82,41,60,55,19,22,1.1,1.1
2026-01-25T0000,1305A,117.0496,36.6629,济南市,市监测站,细颗粒物(PM2.5),150,151,124,115,91,28,,58,33,59,55,15,10,1.3,1.1
2026-01-25T0000,1306A,116.7674,36.5458,济南市,长清党校,细颗粒物(PM2.5),150,154,123,115,93,29,,92,52,66,52,20,11,1.2,1
2026-01-25T0000,1961A,117.5323,36.6865,济南市,东山小学,细颗粒物(PM2.5),160,176,121,122,89,29,,88,43,68,40,20,11,1.0,0.9
2026-01-25T0000,3059A,117.7181,36.205,济南市,泰兴公司,细颗粒物(PM2.5),192,178,146,144,117,8,,80,26,90,62,11,11,1.5,1.3
2026-01-25T0000,3064A,117.6861,36.2172,济南市,莱芜战役纪念馆,细颗粒物(PM2.5),282,,142,232,118,5,,84,45,96,65,16,13,1.4,1.3
2026-01-25T0000,3494A,117.1673,36.9782,济南市,济阳区政府,细颗粒物(PM2.5),182,183,148,137,105,30,,67,,60,58,23,12,1.4,1.1
2026-01-25T0000,3495A,117.1168,36.6299,济南市,锦屏中学,细颗粒物(PM2.5),138,127,102,105,74,30,,59,34,45,40,5,6,1.4,1.1
2026-01-25T0000,4108A,117.7107,36.2385,济南市,山财大街5号,细颗粒物(PM2.5),137,146,120,104,90,38,,88,56,72,65,24,15,1.4,1.1
2026-01-25T0000,4109A,116.9744,36.6889,济南市,无影山路12号,细颗粒物(PM2.5),170,171,129,129,104,15,,69,38,85,66,25,18,1.4,1.3
2026-01-25T0000,1653A,116.6229,35.4288,济宁市,火炬城,细颗粒物(PM2.5),201,158,124,151,127,8,,101,68,87,33,5,4,1.0,0.8
2026-01-25T0000,3500A,116.5808,35.3703,济宁市,北湖一中,细颗粒物(PM2.5),206,164,123,156,123,49,,108,80,53,37,6,5,,0.9
2026-01-25T0000,3501A,116.8251,35.5592,济宁市,服务中心,细颗粒物(PM2.5),152,182,153,116,103,4,,96,54,70,38,11,7,0.8,0.7
2026-01-25T0000,3678A,116.5907,35.4054,济宁市,市第七中学,细颗粒物(PM2.5),195,,124,146,116,51,,112,82,49,39,8,7,1.3,1
2026-01-25T0000,4111A,116.6075,35.4566,济宁市,任和路,细颗粒物(PM2.5),198,198,151,148,119,28,,110,68,77,47,9,6,1.1,0.9
2026-01-25T0000,4112A,116.5648,35.3921,济宁市,文体南路1号,细颗粒物(PM2.5),207,195,150,157,127,54,,113,85,49,38,5,5,1.0,0.8
2026-01-25T0000,2255A,130.2749,46.8028,佳木斯市,佳纺,,36,36,45,22,37,65,,63,50,7,20,4,10,0.7,0.7
2026-01-25T0000,2257A,130.3258,46.7975,佳木斯市,环保局,,45,38,41,31,31,59,,67,48,15,21,10,8,0.5,0.6
2026-01-25T0000,4285A,130.363,46.806,佳木斯市,顺和街,,42,37,36,29,31,54,,61,46,16,20,10,9,0.4,0.5
2026-01-25T0000,4286A,130.3952,46.8268,佳木斯市,长安路196号,,33,33,36,21,30,71,,71,62,7,17,4,6,0.5,0.5
2026-01-25T0000,1252A,120.7439,30.778,嘉兴市,清河小学,细颗粒物(PM2.5),98,91,109,73,83,51,,82,75,42,55,7,9,0.4,1
2026-01-25T0000,1253A,120.7261,30.7477,嘉兴市,嘉兴学院,细颗粒物(PM2.5),98,102,110,73,75,46,,84,77,42,53,5,8,1.2,1.4
2026-01-25T0000,2872A,120.7845,30.7524,嘉兴市,南湖区残联,细颗粒物(PM2.5),95,92,110,71,83,44,,90,80,51,56,5,8,1.0,1.1
2026-01-25T0000,3407A,120.6915,30.7741,嘉兴市,秀洲住建,细颗粒物(PM2.5),99,93,104,74,80,55,,84,79,44,57,8,10,0.6,0.9
2026-01-25T0000,1945A,98.291,39.7705,嘉峪关市,气象局,颗粒物(PM10),500,832,567,136,89,59,,67,63,5,20,7,23,0.4,0.9
2026-01-25T0000,2884A,98.2672,39.7978,嘉峪关市,酒钢宾馆,颗粒物(PM10),500,869,528,141,97,65,,69,68,3,20,10,30,0.1,0.7
2026-01-25T0000,3248A,98.2644,39.7723,嘉峪关市,雄关区,颗粒物(PM10),500,660,446,92,69,58,,58,58,8,28,7,20,0.3,1
2026-01-25T0000,1383A,113.1063,22.6058,江门市,北街,细颗粒物(PM2.5),97,90,71,72,48,12,,101,57,110,60,/,/,/,/
2026-01-25T0000,1384A,113.073,22.5835,江门市,西区,细颗粒物(PM2.5),109,126,87,82,56,6,,109,55,112,56,/,/,/,/
2026-01-25T0000,1385A,113.0218,22.531,江门市,圭峰西,细颗粒物(PM2.5),98,93,68,73,60,37,,114,92,44,34,/,/,/,/
2026-01-25T0000,1386A,113.0826,22.5947,江门市,东湖,细颗粒物(PM2.5),92,111,77,68,47,3,,110,58,86,45,6,8,1.5,0.9
2026-01-25T0000,3311A,113.1077,22.5647,江门市,江海富民,细颗粒物(PM2.5),117,159,84,88,46,18,,111,62,110,60,/,/,1.1,0.6
2026-01-25T0000,3449A,113.0496,22.4669,江门市,新会银湖,细颗粒物(PM2.5),128,118,77,97,64,6,,98,51,85,51,7,8,0.9,0.8
2026-01-25T0000,3335A,113.3137,35.2643,焦作市,马村街道办,细颗粒物(PM2.5),156,133,162,119,149,58,,80,66,22,25,6,7,0.8,1
2026-01-25T0000,3336A,113.2464,35.2374,焦作市,焦作技师学院,细颗粒物(PM2.5),147,129,162,112,139,63,,83,70,25,30,6,7,1.0,1.3
2026-01-25T0000,3477A,113.1656,35.2536,焦作市,中站许衡医院,细颗粒物(PM2.5),170,141,143,129,121,68,,94,83,23,27,6,6,1.0,1.1
2026-01-25T0000,3981A,113.2456,35.18,焦作市,原李万街道办,细颗粒物(PM2.5),140,141,165,107,152,63,,81,72,25,32,5,8,0.8,1.2
2026-01-25T0000,4264A,113.234,35.219,焦作市,新安路1731号,细颗粒物(PM2.5),159,147,181,121,155,64,,85,74,24,29,14,8,1.1,1.2
2026-01-25T0000,4295A,113.2722,35.2121,焦作市,人民路3066号,细颗粒物(PM2.5),143,128,175,109,143,61,,80,71,25,31,8,8,1.0,1.5
2026-01-25T0000,1708A,116.3701,23.5345,揭阳市,新兴,,38,30,56,26,35,76,,107,93,20,33,8,10,0.5,0.8
2026-01-25T0000,1709A,116.3261,23.5442,揭阳市,西马,,40,34,53,28,30,75,,107,92,12,23,5,6,0.5,0.7
2026-01-25T0000,1710A,116.361,23.5627,揭阳市,东兴,,35,34,61,24,36,78,,110,97,15,29,9,11,/,/
2026-01-25T0000,1711A,116.4151,23.5295,揭阳市,渔湖,,25,25,57,7,29,74,,110,94,13,24,6,6,/,/
2026-01-25T0000,3320A,116.4028,23.5699,揭阳市,曲溪,,28,26,64,19,37,78,,112,96,10,27,4,8,0.5,0.8
2026-01-25T0000,1944A,102.1691,38.5166,金昌市,天庆家园,颗粒物(PM10),500,2222,653,273,95,40,,69,60,16,12,10,11,0.9,0.9
2026-01-25T0000,4022A,102.1648,38.5369,金昌市,金川区人防中心,颗粒物(PM10),500,2268,638,265,95,54,,70,63,10,12,6,8,0.6,0.7
2026-01-25T0000,4239A,102.193042,38.531887,金昌市,长春路96号,颗粒物(PM10),500,2324,548,267,94,55,,66,61,8,12,6,20,0.6,0.8
2026-01-25T0000,1262A,119.6478,29.0773,金华市,十五中,细颗粒物(PM2.5),132,142,111,100,78,8,,66,32,100,66,4,4,0.6,0.7
2026-01-25T0000,1263A,119.6859,29.1032,金华市,监测站,细颗粒物(PM2.5),134,157,116,102,77,0,,52,18,107,71,4,4,0.7,0.7
2026-01-25T0000,3659A,119.656,29.1132,金华市,气象局,细颗粒物(PM2.5),142,153,122,108,79,2,,48,18,101,73,5,5,0.8,0.8
2026-01-25T0000,1767A,121.1114,41.0879,锦州市,南山,细颗粒物(PM2.5),192,151,84,144,72,4,,55,17,73,49,20,28,2.8,1.5
2026-01-25T0000,1768A,121.060361,40.842794,锦州市,开发区,细颗粒物(PM2.5),130,135,88,99,62,4,,58,10,71,54,88,66,1.6,1.2
2026-01-25T0000,1769A,121.1836,41.1118,锦州市,百股街道,颗粒物(PM10),60,69,72,32,60,39,,60,21,31,45,17,23,0.8,1.3
2026-01-25T0000,1770A,121.1176,41.1224,锦州市,天安街道,颗粒物(PM10),54,57,71,34,53,38,,60,26,39,40,7,21,1.0,1.3
2026-01-25T0000,1771A,121.1303,41.1385,锦州市,北湖公园,颗粒物(PM10),61,71,57,21,37,57,,61,42,12,27,9,20,0.7,0.9
2026-01-25T0000,2160A,112.8496,35.5051,晋城市,自来水公司,细颗粒物(PM2.5),113,102,100,85,69,84,,93,87,15,30,5,8,0.6,0.9
2026-01-25T0000,2162A,112.8509,35.4886,晋城市,市环保局,细颗粒物(PM2.5),113,111,104,85,76,84,,96,88,15,32,4,6,0.9,1.1
2026-01-25T0000,3620A,112.8258,35.4804,晋城市,泽州一中,细颗粒物(PM2.5),128,,94,97,75,88,,95,90,19,25,3,4,0.7,0.9
2026-01-25T0000,4078A,112.8246,35.5152,晋城市,前书院路,细颗粒物(PM2.5),98,112,104,73,60,77,,86,81,15,25,5,6,0.6,0.7
2026-01-25T0000,4079A,112.8864,35.4773,晋城市,祥云街666号,细颗粒物(PM2.5),132,118,108,100,87,81,,91,85,17,36,3,5,0.6,0.8
2026-01-25T0000,2174A,112.6992,37.6984,晋中市,榆次区政府,细颗粒物(PM2.5),205,273,146,155,66,45,,58,46,48,52,14,18,1.3,1
2026-01-25T0000,2865A,112.7195,37.683,晋中市,榆次三中,细颗粒物(PM2.5),202,295,142,152,64,41,,62,47,48,46,15,18,1.5,1
2026-01-25T0000,4080A,112.7375,37.7215,晋中市,广安街188号,细颗粒物(PM2.5),196,261,167,147,75,50,,65,53,45,54,15,20,1.3,1.1
2026-01-25T0000,4200A,112.7478,37.6954,晋中市,迎宾街26号,细颗粒物(PM2.5),211,263,139,161,70,42,,65,50,49,44,15,19,1.5,1.1
2026-01-25T0000,2439A,112.2012,31.048,荆门市,竹园小学,细颗粒物(PM2.5),92,90,93,68,78,35,,85,67,47,32,2,2,0.6,0.5
2026-01-25T0000,2440A,112.1968,30.9892,荆门市,掇刀,细颗粒物(PM2.5),88,85,96,65,74,40,,88,72,38,29,3,4,0.8,0.7
2026-01-25T0000,3012A,112.1849,31.0361,荆门市,西山林语,细颗粒物(PM2.5),78,69,85,57,59,45,,88,72,31,23,22,8,0.9,0.8
2026-01-25T0000,3547A,112.1631,31.0134,荆门市,龙泉中学南校,细颗粒物(PM2.5),84,80,96,62,76,57,,88,77,19,17,4,4,0.5,0.6
2026-01-25T0000,4124A,112.2213,31.0654,荆门市,新台西路6号,细颗粒物(PM2.5),85,75,100,63,82,31,,85,66,53,39,9,9,0.8,1.1
2026-01-25T0000,1844A,112.2493,30.3198,荆州市,市图书馆,细颗粒物(PM2.5),84,66,64,62,76,31,,85,64,42,30,8,8,0.9,0.9
2026-01-25T0000,1845A,112.2009,30.3543,荆州市,市委党校,细颗粒物(PM2.5),77,68,77,56,71,25,,75,56,53,44,2,2,0.9,0.9
2026-01-25T0000,3194A,112.2749,30.3124,荆州市,管委会,细颗粒物(PM2.5),83,,67,61,74,34,,81,62,43,32,7,8,1.0,1
2026-01-25T0000,4268A,112.1722,30.3366,荆州市,学苑路85号,细颗粒物(PM2.5),75,64,70,55,65,50,,84,68,23,27,9,10,1.0,1
2026-01-25T0000,2343A,117.2114,29.2931,景德镇市,老干部活动中心,细颗粒物(PM2.5),73,88,63,53,53,0,,44,10,37,31,3,5,1.1,0.9
2026-01-25T0000,2344A,117.1893,29.2789,景德镇市,兽医站,颗粒物(PM10),79,108,68,55,40,4,,41,20,50,38,4,5,0.9,0.7
2026-01-25T0000,2346A,117.246,29.2958,景德镇市,陶研所,细颗粒物(PM2.5),67,62,51,48,48,0,,49,20,28,28,3,4,1.0,0.9
2026-01-25T0000,4289A,117.154766,29.256967,景德镇市,青少年活动中心,颗粒物(PM10),90,129,81,62,48,2,,38,14,55,48,13,19,/,/
2026-01-25T0000,1803A,115.9873,29.6816,九江市,十里,细颗粒物(PM2.5),83,100,76,61,52,10,,58,29,62,49,7,7,1.2,1
2026-01-25T0000,1804A,115.9583,29.7047,九江市,茅山头,细颗粒物(PM2.5),98,105,68,73,48,11,,60,36,62,48,5,5,1.2,0.8
2026-01-25T0000,1805A,115.9877,29.7295,九江市,西园,细颗粒物(PM2.5),83,80,71,61,44,44,,67,58,46,53,7,6,0.6,0.5
2026-01-25T0000,1808A,115.9112,29.6038,九江市,综合工业园,细颗粒物(PM2.5),82,79,55,60,56,13,,60,28,58,52,3,3,0.7,0.7
2026-01-25T0000,3190A,116.0254,29.6995,九江市,外国语学校,细颗粒物(PM2.5),87,,59,64,49,23,,58,46,55,47,11,12,0.9,0.8
2026-01-25T0000,4253A,116.010205,29.659402,九江市,莲花大道8号,细颗粒物(PM2.5),79,,59,58,51,24,,49,40,20,21,2,4,0.6,0.5
2026-01-25T0000,4240A,98.495752,39.733935,酒泉市,玉门东路5号,细颗粒物(PM2.5),156,,355,119,71,65,,66,66,1,9,9,10,0.3,0.5
2026-01-25T0000,4241A,98.5099,39.7506,酒泉市,北大街108号,颗粒物(PM10),500,903,534,121,67,57,,60,59,3,8,8,10,0.1,0.4
2026-01-25T0000,2698A,76.0071,39.466,喀什地区,巡警大队,颗粒物(PM10),500,645,516,130,145,42,,54,54,20,39,4,5,0.8,1.7
2026-01-25T0000,2699A,75.9756,39.4693,喀什地区,吾办,颗粒物(PM10),446,546,454,132,158,42,,50,50,25,44,12,6,0.8,1.8
2026-01-25T0000,4027A,75.9485,39.4688,喀什地区,老干局,颗粒物(PM10),500,646,504,115,134,50,,60,57,12,32,4,4,0.5,1.6
2026-01-25T0000,1824A,114.3389,34.778,开封市,肿瘤医院,细颗粒物(PM2.5),144,122,134,110,120,66,,103,80,31,38,8,10,1.0,1.1
2026-01-25T0000,1826A,114.2884,34.7966,开封市,世纪星幼儿园,细颗粒物(PM2.5),172,,115,130,133,70,,100,81,31,30,4,4,0.8,0.8
2026-01-25T0000,3147A,114.3434,34.8101,开封市,龙亭公园,细颗粒物(PM2.5),180,,126,136,136,65,,98,73,35,42,6,7,1.0,1
2026-01-25T0000,3210A,114.3645,34.7955,开封市,汴京公园,细颗粒物(PM2.5),160,125,134,122,133,52,,92,69,39,44,4,5,0.6,0.7
2026-01-25T0000,3473A,114.2485,34.8306,开封市,技师学院,细颗粒物(PM2.5),162,,104,123,107,56,,109,82,45,29,6,6,0.8,0.7
2026-01-25T0000,3592A,114.4518,34.7503,开封市,祥符区生态环境局,细颗粒物(PM2.5),160,166,169,122,127,43,,100,69,71,49,5,4,0.9,0.7
2026-01-25T0000,1951A,84.886,45.6029,克拉玛依市,长征新村,细颗粒物(PM2.5),90,99,95,67,67,49,,74,64,32,16,6,8,0.7,0.6
2026-01-25T0000,1952A,84.8894,45.5827,克拉玛依市,南林小区,"颗粒物(PM10),细颗粒物(PM2.5)",75,100,95,55,57,14,,70,58,56,17,4,5,1.3,0.8
2026-01-25T0000,1954A,84.896,44.3328,克拉玛依市,独山子区,颗粒物(PM10),74,98,79,41,27,60,,70,52,39,32,1,2,0.7,0.5
2026-01-25T0000,1955A,85.6888,46.0909,克拉玛依市,乌尔禾区商贸楼,细颗粒物(PM2.5),72,68,82,52,57,65,,78,71,26,27,7,9,0.6,0.6
2026-01-25T0000,3612A,85.1045,45.6895,克拉玛依市,白碱滩区新站,细颗粒物(PM2.5),67,80,94,48,65,60,,68,66,20,20,9,11,0.7,0.7
2026-01-25T0000,2697A,76.1457,39.7143,克孜勒苏柯尔克孜自治州,市人民政府,颗粒物(PM10),500,769,531,132,125,46,,65,62,22,20,3,4,0.3,0.6
2026-01-25T0000,3665A,76.1654,39.7157,克孜勒苏柯尔克孜自治州,克州文化中心,颗粒物(PM10),500,734,522,148,138,46,,63,59,20,21,4,5,0.8,1.1
2026-01-25T0000,1450A,102.8203,24.889,昆明市,呈贡新区,,27,27,31,17,18,52,,84,66,27,17,4,6,0.4,0.4
2026-01-25T0000,1452A,102.7253,25.0904,昆明市,龙泉镇,细颗粒物(PM2.5),78,82,46,57,20,1,,85,54,68,34,4,3,0.7,0.5
2026-01-25T0000,1453A,102.7267,25.0378,昆明市,东风东路,,33,23,20,23,16,70,,86,74,15,15,6,6,0.5,0.7
2026-01-25T0000,1454A,102.6744,25.0671,昆明市,金鼎山,,37,37,48,25,25,48,,84,66,27,29,5,5,0.4,0.5
2026-01-25T0000,1455A,102.6643,25.0401,昆明市,碧鸡广场,,39,39,34,22,22,39,,85,63,38,27,5,6,0.5,0.6
2026-01-25T0000,3179A,102.7491,25.012,昆明市,官渡区博物馆,,33,23,38,23,23,52,,90,73,23,26,3,4,0.5,0.7
2026-01-25T0000,3375A,102.8016,24.8336,昆明市,青年创业园,,34,34,31,18,20,34,,89,66,34,21,8,9,0.4,0.4
2026-01-25T0000,3550A,102.8,24.9787,昆明市,昆明学院,,34,34,32,18,20,65,,90,76,13,16,4,4,0.4,0.5
2026-01-25T0000,3551A,102.5969,24.6738,昆明市,晋宁区生态环境分局,,33,33,33,19,18,60,,87,76,14,14,2,2,0.7,0.6
2026-01-25T0000,3552A,102.6673,24.9861,昆明市,云天化总部,,25,23,28,15,16,77,,89,82,7,22,6,7,0.3,0.4
2026-01-25T0000,1456A,91.132,29.6515,拉萨市,八廓街,,37,37,24,14,14,96,,88,88,3,17,7,7,0.4,0.5
2026-01-25T0000,1457A,91.1221,29.6748,拉萨市,市环保局,,38,38,28,19,17,88,,87,81,8,20,7,8,0.7,0.9
2026-01-25T0000,1458A,91.0874,29.6476,拉萨市,区监测站,,36,36,18,12,9,93,,87,87,4,16,4,4,0.7,0.7
2026-01-25T0000,1459A,91.1774,29.6541,拉萨市,西藏大学,,36,36,22,14,13,96,,91,91,5,17,5,5,0.5,0.6
2026-01-25T0000,1460A,90.9798,29.6586,拉萨市,区辐射站,颗粒物(PM10),57,63,34,21,13,88,,85,82,5,18,3,4,0.3,0.4
2026-01-25T0000,1461A,91.0831,29.6292,拉萨市,拉萨火车站,,31,31,16,10,8,93,,90,90,2,11,4,4,0.2,0.2
2026-01-25T0000,2520A,109.2203,23.7252,来宾市,来宾技工学校,细颗粒物(PM2.5),103,,64,77,61,7,,52,34,32,17,9,8,0.8,0.7
2026-01-25T0000,3535A,109.1781,23.7293,来宾市,兴宾区政府,细颗粒物(PM2.5),92,86,71,68,52,21,,52,33,23,18,6,6,0.8,0.8
2026-01-25T0000,4002A,109.2312,23.7428,来宾市,中南小学,细颗粒物(PM2.5),94,,63,70,60,11,,51,33,26,18,5,6,0.9,0.9
2026-01-25T0000,1479A,103.8309,36.0467,兰州市,铁路设计院,,,,,,,,,,,,,,,,
2026-01-25T0000,3241A,103.7439,36.0841,兰州市,百合公园,颗粒物(PM10),500,658,190,95,76,65,,64,63,15,59,6,22,0.5,1.2
2026-01-25T0000,3242A,103.9613,35.9985,兰州市,和平,颗粒物(PM10),500,784,186,118,80,66,,75,68,18,37,10,20,0.8,1.4
2026-01-25T0000,4236A,103.629272,36.093822,兰州市,庄浪东路808号,颗粒物(PM10),500,690,200,129,80,68,,69,59,22,65,9,28,0.8,1.4
2026-01-25T0000,4237A,103.7251,36.104344,兰州市,安宁西路88号,颗粒物(PM10),500,770,220,110,78,70,,76,73,23,66,7,28,0.6,1.2
2026-01-25T0000,4238A,103.846982,36.067567,兰州市,北滨河东路1号,颗粒物(PM10),500,776,203,119,74,66,,69,66,23,66,14,16,0.8,1.5
2026-01-25T0000,1067A,116.6712,39.5109,廊坊市,药材公司,细颗粒物(PM2.5),198,195,147,148,114,2,,29,12,86,77,5,6,1.6,1.2
2026-01-25T0000,1068A,116.7215,39.5592,廊坊市,开发区,细颗粒物(PM2.5),189,178,135,142,102,1,,31,11,98,78,5,5,1.4,1.3
2026-01-25T0000,1070A,116.7246,39.5273,廊坊市,北华航天学院,细颗粒物(PM2.5),175,177,150,132,109,1,,27,11,93,79,7,6,1.4,1.4
2026-01-25T0000,2919A,116.7022,39.5454,廊坊市,河北工业大学,细颗粒物(PM2.5),155,177,138,118,100,4,,30,14,85,73,7,5,1.2,1.2
2026-01-25T0000,2536A,103.7629,29.5844,乐山市,牛耳桥,细颗粒物(PM2.5),79,68,68,58,59,31,,34,32,21,25,6,5,1.0,0.9
2026-01-25T0000,2537A,103.7501,29.6002,乐山市,市第三水厂,细颗粒物(PM2.5),84,72,75,62,63,38,,37,37,23,30,5,6,0.9,1
2026-01-25T0000,2538A,103.7571,29.5664,乐山市,市监测站,细颗粒物(PM2.5),82,70,69,60,57,32,,30,28,18,26,5,5,0.9,0.9
2026-01-25T0000,3361A,103.7313,29.563,乐山市,理工大学,细颗粒物(PM2.5),89,72,70,66,63,34,,29,24,15,22,5,6,0.7,0.8
2026-01-25T0000,2599A,100.2497,26.8802,丽江市,丽江古城,,24,23,28,10,14,75,,81,72,8,11,10,10,0.4,0.4
2026-01-25T0000,2600A,100.2203,26.8906,丽江市,市中心,,24,12,22,10,12,75,,83,72,9,14,6,6,0.4,0.5
2026-01-25T0000,1267A,119.9141,28.4513,丽水市,监测站大楼,细颗粒物(PM2.5),63,47,45,45,43,73,,71,66,18,26,6,8,0.4,0.5
2026-01-25T0000,1268A,119.93,28.4589,丽水市,莲都小学,颗粒物(PM10),53,56,55,32,34,64,,74,67,32,33,/,/,/,/
2026-01-25T0000,1269A,119.8794,28.4232,丽水市,余庄前,"颗粒物(PM10),细颗粒物(PM2.5)",53,55,52,37,39,69,,64,57,23,28,5,5,0.4,0.4
2026-01-25T0000,1173A,119.1759,34.5885,连云港市,市环境监测站,细颗粒物(PM2.5),110,100,109,83,94,92,,90,83,18,39,10,11,0.6,0.9
2026-01-25T0000,3000A,119.3577,34.6971,连云港市,德源药业,细颗粒物(PM2.5),110,114,120,83,87,50,,76,58,56,59,5,6,0.9,0.7
2026-01-25T0000,3007A,119.178,34.8442,连云港市,新城一中,细颗粒物(PM2.5),133,123,130,101,112,8,,71,40,97,73,10,13,1.0,1.1
2026-01-25T0000,3008A,119.3607,34.7519,连云港市,胡沟管理处,细颗粒物(PM2.5),110,112,118,83,88,32,,61,47,75,65,10,14,0.9,1
2026-01-25T0000,3009A,119.1478,34.5913,连云港市,矿山设计院,细颗粒物(PM2.5),107,105,118,80,89,80,,88,72,24,42,8,11,0.9,1.1
2026-01-25T0000,3434A,119.2414,34.6539,连云港市,工贸学校,细颗粒物(PM2.5),119,102,101,90,97,109,,95,95,13,21,10,13,0.7,0.9
2026-01-25T0000,3664A,119.4171,34.734,连云港市,连云街道,细颗粒物(PM2.5),103,102,118,77,92,76,,82,80,28,43,4,9,0.8,0.9
2026-01-25T0000,2573A,102.2629,27.8981,凉山彝族自治州,西昌市政府,,48,48,48,26,32,56,,85,73,17,27,7,10,0.5,0.6
2026-01-25T0000,2574A,102.2686,27.885,凉山彝族自治州,凉山州政府,颗粒物(PM10),63,75,55,36,33,33,,87,60,32,24,8,10,0.9,0.7
2026-01-25T0000,4229A,102.2342,27.8859,凉山彝族自治州,凯乐南路30号,颗粒物(PM10),54,58,62,30,35,45,,86,69,18,26,8,12,0.5,0.8
2026-01-25T0000,2212A,123.1978,41.2036,辽阳市,宏伟区,细颗粒物(PM2.5),110,105,53,83,28,11,,62,38,42,22,11,10,1.7,0.7
2026-01-25T0000,2213A,123.1684,41.2497,辽阳市,新华园,颗粒物(PM10),72,93,74,50,48,14,,67,35,50,40,45,19,1.1,1.2
2026-01-25T0000,2214A,123.2355,41.2663,辽阳市,滨河路,细颗粒物(PM2.5),62,70,55,44,32,8,,68,37,54,35,8,8,0.8,0.8
2026-01-25T0000,4083A,123.153,41.2874,辽阳市,铁西路150号,细颗粒物(PM2.5),94,114,71,70,47,1,,69,32,58,41,19,16,2.0,1.5
2026-01-25T0000,2227A,125.1359,42.8845,辽源市,环保局,细颗粒物(PM2.5),93,98,64,69,44,14,,69,34,60,40,3,5,1.4,1.1
2026-01-25T0000,4085A,125.0998,42.9134,辽源市,安宁大街333号,细颗粒物(PM2.5),115,91,60,87,43,8,,66,32,37,23,7,8,1.5,1
2026-01-25T0000,1625A,115.9789,36.4372,聊城市,区政府,细颗粒物(PM2.5),172,169,149,130,114,27,,92,63,77,50,29,14,1.3,1.1
2026-01-25T0000,3200A,115.9772,36.4986,聊城市,监控中心,细颗粒物(PM2.5),201,178,155,151,131,15,,98,48,85,60,11,8,1.2,1.1
2026-01-25T0000,3513A,116.0443,36.436,聊城市,九州社区,细颗粒物(PM2.5),180,165,146,136,120,40,,109,78,52,36,20,6,1.1,0.9
2026-01-25T0000,4018A,116.0564,36.4609,聊城市,星美广场,细颗粒物(PM2.5),178,182,161,134,121,25,,98,56,54,40,13,5,1.3,1
2026-01-25T0000,4113A,116.0091,36.4495,聊城市,利民路,细颗粒物(PM2.5),179,180,151,135,121,9,,90,56,92,47,26,11,1.2,1
2026-01-25T0000,2632A,94.3683,29.6373,林芝市,林芝监测站,,26,15,22,11,11,82,,84,83,2,3,3,2,0.2,0.2
2026-01-25T0000,2633A,94.3616,29.6634,林芝市,林芝人民医院,,27,18,23,11,12,85,,89,88,1,3,6,5,0.2,0.1
2026-01-25T0000,2603A,100.0779,23.8981,临沧市,市环保局,细颗粒物(PM2.5),67,51,33,48,39,39,,88,,15,12,7,8,0.7,0.6
2026-01-25T0000,2604A,100.0894,23.882,临沧市,市气象局,颗粒物(PM10),55,60,48,37,23,38,,85,63,17,12,9,10,0.5,0.4
2026-01-25T0000,1733A,111.5552,36.0791,临汾市,临钢医院,细颗粒物(PM2.5),87,82,123,64,80,72,,74,66,16,34,3,11,0.8,1.6
2026-01-25T0000,1734A,111.4984,36.0734,临汾市,技工学校,细颗粒物(PM2.5),105,79,109,79,86,72,,75,65,20,41,3,12,0.7,1.5
2026-01-25T0000,1736A,111.5017,36.0857,临汾市,市委,细颗粒物(PM2.5),82,82,116,60,71,76,,82,69,14,40,6,15,0.9,1.6
2026-01-25T0000,3018A,111.5048,36.1015,临汾市,唐尧大酒店,细颗粒物(PM2.5),80,79,117,59,72,75,,82,68,14,42,2,10,0.8,1.5
2026-01-25T0000,4244A,111.4879,36.053,临汾市,启星学校,细颗粒物(PM2.5),77,77,105,56,68,74,,81,71,21,50,7,13,0.8,1.5
2026-01-25T0000,4271A,103.2464,35.6123,临夏回族自治州,滨河东路1号,颗粒物(PM10),268,397,167,62,84,48,,68,32,30,42,11,12,1.1,1.6
2026-01-25T0000,4310A,103.207136,35.599807,临夏回族自治州,新华街21号,颗粒物(PM10),192,333,145,72,86,56,,74,60,18,34,12,15,0.8,1.7
2026-01-25T0000,1618A,118.3429,35.0532,临沂市,沂河小区,细颗粒物(PM2.5),189,,159,142,135,35,,89,57,54,61,12,17,1.0,1.3
2026-01-25T0000,1619A,118.2962,35.0568,临沂市,鲁南制药厂,细颗粒物(PM2.5),182,153,161,137,133,31,,85,54,64,64,15,23,1.1,1.4
2026-01-25T0000,1620A,118.2793,34.9976,临沂市,新光毛纺厂,细颗粒物(PM2.5),165,139,156,125,134,40,,90,55,59,68,20,22,1.2,1.6
2026-01-25T0000,1621A,118.3955,35.0889,临沂市,河东保险公司,细颗粒物(PM2.5),163,151,168,124,126,10,,91,37,85,72,10,15,1.2,1.5
2026-01-25T0000,3370A,118.3563,35.0215,临沂市,十里堡居委,细颗粒物(PM2.5),149,144,156,114,116,27,,93,55,65,65,14,19,1.2,1.4
2026-01-25T0000,3496A,118.359,35.1067,临沂市,南坊新区,细颗粒物(PM2.5),163,153,149,124,118,31,,92,54,71,66,14,16,1.2,1.4
2026-01-25T0000,3860A,118.3915,35.0297,临沂市,皇山花园小区,细颗粒物(PM2.5),147,151,171,112,120,21,,94,46,79,76,19,21,1.4,1.6
2026-01-25T0000,1870A,109.4854,24.3898,柳州市,柳东小学,细颗粒物(PM2.5),62,53,47,44,41,22,,54,43,20,13,8,11,0.8,0.8
2026-01-25T0000,1871A,109.4109,24.3304,柳州市,环保监测站,,,,64,,53,,,37,,,15,,7,,0.7
2026-01-25T0000,1872A,109.3886,24.3408,柳州市,河西水厂,细颗粒物(PM2.5),65,74,62,47,41,24,,53,40,30,20,5,7,0.8,0.6
2026-01-25T0000,1873A,109.4263,24.2951,柳州市,市四中,细颗粒物(PM2.5),85,75,51,63,39,6,,53,35,42,19,10,12,1.1,1
2026-01-25T0000,1874A,109.396,24.3658,柳州市,市九中,颗粒物(PM10),59,68,49,41,44,18,,53,39,35,19,9,11,0.8,0.7
2026-01-25T0000,1875A,109.4912,24.3164,柳州市,古亭山,细颗粒物(PM2.5),73,53,49,53,46,20,,54,39,28,19,6,10,0.7,0.7
2026-01-25T0000,3402A,109.5422,24.3994,柳州市,市二中,颗粒物(PM10),54,58,40,26,30,28,,55,39,21,19,8,13,0.8,0.7
2026-01-25T0000,2307A,116.5078,31.7369,六安市,监测大楼,细颗粒物(PM2.5),102,82,72,76,64,65,,80,72,26,36,3,4,0.6,0.6
2026-01-25T0000,2308A,116.4738,31.7642,六安市,皖西学院,细颗粒物(PM2.5),99,87,79,74,58,72,,88,78,28,36,6,5,0.7,0.6
2026-01-25T0000,2309A,116.4997,31.7904,六安市,朝阳厂,细颗粒物(PM2.5),93,80,77,69,63,70,,77,67,32,42,6,6,0.8,0.7
2026-01-25T0000,2310A,116.5566,31.7885,六安市,开发区,细颗粒物(PM2.5),87,83,84,64,68,70,,79,70,25,38,5,5,0.7,0.6
2026-01-25T0000,2577A,104.8293,26.592,六盘水市,黄土坡,,50,50,35,35,31,16,,42,26,31,19,12,7,1.1,0.8
2026-01-25T0000,2579A,104.8481,26.5898,六盘水市,民中,,42,40,37,29,31,29,,41,28,17,17,5,5,0.8,0.8
2026-01-25T0000,2580A,104.9541,26.5506,六盘水市,双水,,27,27,27,13,16,37,,48,37,10,12,3,4,0.5,0.6
2026-01-25T0000,4151A,104.8899,26.5685,六盘水市,钟山大道中段564号,,41,41,34,23,24,30,,43,32,12,11,7,5,1.0,0.9
2026-01-25T0000,2336A,117.022,25.1031,龙岩市,龙岩市监测站,细颗粒物(PM2.5),62,,28,44,24,64,,92,80,30,22,14,15,0.5,0.6
2026-01-25T0000,2337A,117.0257,25.0662,龙岩市,闽西职业技术学院,细颗粒物(PM2.5),60,,29,43,23,72,,101,90,20,17,12,13,0.7,0.8
2026-01-25T0000,2338A,117.0195,25.0306,龙岩市,龙岩学院,,50,,30,35,23,65,,99,84,18,17,9,11,/,/
2026-01-25T0000,2885A,104.9344,33.3827,陇南市,滨江中学,颗粒物(PM10),51,51,67,32,34,41,,48,42,13,26,4,7,0.9,1.2
2026-01-25T0000,3247A,104.9551,33.3709,陇南市,市总工会,颗粒物(PM10),52,53,61,35,37,41,,47,43,13,22,7,8,0.8,0.9
2026-01-25T0000,2488A,111.9984,27.7346,娄底市,市监测站,细颗粒物(PM2.5),64,55,69,46,54,55,,75,67,25,28,10,10,0.6,0.7
2026-01-25T0000,2491A,111.9888,27.7035,娄底市,市政府,细颗粒物(PM2.5),64,,62,46,52,50,,73,66,17,13,7,6,0.8,0.8
2026-01-25T0000,4127A,111.9812,27.7591,娄底市,涟钢职大,细颗粒物(PM2.5),58,61,68,41,47,48,,76,66,19,21,6,9,0.8,0.9
2026-01-25T0000,4128A,112.0303,27.7457,娄底市,娄底体校,细颗粒物(PM2.5),60,54,62,43,50,50,,61,61,12,16,3,4,0.4,0.5
2026-01-25T0000,1894A,105.4427,28.9063,泸州市,小市上码头,细颗粒物(PM2.5),80,78,83,59,63,20,,25,21,28,29,4,5,1.1,1.1
2026-01-25T0000,1895A,105.4241,28.8573,泸州市,兰田宪桥,细颗粒物(PM2.5),77,79,78,56,59,26,,28,26,14,22,8,8,0.8,1.1
2026-01-25T0000,1896A,105.4378,28.8833,泸州市,市环监站,细颗粒物(PM2.5),68,75,79,49,54,22,,22,20,25,27,9,10,1.0,1
2026-01-25T0000,4272A,105.3689,28.7783,泸州市,纳溪中医医院,细颗粒物(PM2.5),84,,82,62,69,27,,25,25,16,21,8,8,0.9,1
2026-01-25T0000,2183A,111.1447,37.5212,吕梁市,环保局,颗粒物(PM10),109,168,84,46,32,76,,69,69,17,37,9,7,0.5,0.3
2026-01-25T0000,2185A,111.1285,37.5338,吕梁市,自来水公司,颗粒物(PM10),99,147,113,33,40,78,,70,70,15,35,8,9,0.6,0.6
2026-01-25T0000,2867A,111.1225,37.5093,吕梁市,马茂庄小学,颗粒物(PM10),109,168,117,38,40,73,,60,45,22,43,8,11,0.8,0.9
2026-01-25T0000,1812A,112.3934,34.6517,洛阳市,市委党校,细颗粒物(PM2.5),156,122,182,119,169,52,,72,50,38,61,10,11,1.0,1.5
2026-01-25T0000,1815A,112.494,34.6883,洛阳市,河南林校,细颗粒物(PM2.5),158,123,185,120,180,50,,74,43,40,58,8,10,0.9,1.5
2026-01-25T0000,1816A,112.3843,34.623,洛阳市,开发区管委会,细颗粒物(PM2.5),178,151,221,134,191,55,,81,56,35,52,11,12,0.8,1.1
2026-01-25T0000,1817A,112.4263,34.6249,洛阳市,市委新办公区,细颗粒物(PM2.5),153,157,226,117,169,44,,76,45,39,56,8,10,0.9,1.4
2026-01-25T0000,3340A,112.6005,34.6323,洛阳市,伊滨,细颗粒物(PM2.5),229,252,239,179,180,21,,70,38,69,63,7,8,1.3,1.3
2026-01-25T0000,3341A,112.495,34.6338,洛阳市,中移产业园,细颗粒物(PM2.5),178,138,193,134,180,31,,68,34,55,70,8,11,1.1,1.5
2026-01-25T0000,3593A,112.5736,34.8993,洛阳市,吉利监测站,细颗粒物(PM2.5),148,,173,113,174,88,,81,70,21,44,8,9,0.8,1.3
2026-01-25T0000,3635A,112.3678,34.6623,洛阳市,河科大西苑校区,细颗粒物(PM2.5),142,127,192,108,154,61,,81,59,37,61,8,10,0.8,1.3
2026-01-25T0000,3636A,112.4387,34.678,洛阳市,英才小学,细颗粒物(PM2.5),149,133,199,114,167,60,,78,54,37,62,8,11,1.0,1.4
2026-01-25T0000,4214A,112.460027,34.694929,洛阳市,春都路1号院,细颗粒物(PM2.5),124,133,213,94,150,54,,70,48,30,51,6,8,0.8,1.3
2026-01-25T0000,2399A,114.051,33.5721,漯河市,三五一五工厂,细颗粒物(PM2.5),168,155,141,127,113,65,,95,78,23,28,6,7,1.2,1.2
2026-01-25T0000,2400A,114.0055,33.5698,漯河市,漯河大学,细颗粒物(PM2.5),163,127,114,124,108,72,,102,85,24,27,5,5,0.7,0.7
2026-01-25T0000,2401A,114.0134,33.5826,漯河市,市水利局,细颗粒物(PM2.5),163,144,123,124,109,55,,83,68,23,21,4,4,1.0,0.9
2026-01-25T0000,2402A,114.0261,33.5697,漯河市,市广电局,细颗粒物(PM2.5),168,137,122,127,111,66,,92,78,18,21,6,6,0.9,0.9
2026-01-25T0000,3478A,113.9691,33.568,漯河市,市图书馆,细颗粒物(PM2.5),160,154,133,122,115,67,,90,78,22,22,6,7,0.9,0.9
2026-01-25T0000,4250A,114.089259,33.588274,漯河市,韶山路11号,细颗粒物(PM2.5),165,152,134,125,113,46,,88,70,36,30,6,7,0.8,0.8
2026-01-25T0000,1798A,118.5084,31.6838,马鞍山市,湖东路四小,细颗粒物(PM2.5),97,92,108,72,72,49,,77,61,44,51,5,7,0.8,0.9
2026-01-25T0000,1799A,118.5019,31.6449,马鞍山市,开发区,细颗粒物(PM2.5),117,91,114,88,88,54,,84,63,37,51,6,9,0.8,0.9
2026-01-25T0000,3633A,118.4914,31.681,马鞍山市,雨山,细颗粒物(PM2.5),99,94,108,74,75,53,,79,64,44,55,10,12,0.7,0.9
2026-01-25T0000,4191A,118.527362,31.722269,马鞍山市,慈湖高新区,细颗粒物(PM2.5),98,106,105,73,82,59,,78,66,36,50,5,7,0.8,0.8
2026-01-25T0000,1686A,111.0285,21.469,茂名市,电白南海,细颗粒物(PM2.5),63,66,62,45,38,110,,118,117,23,23,9,13,1.1,1
2026-01-25T0000,1687A,110.9294,21.6533,茂名市,茂石化七小,颗粒物(PM10),63,75,74,39,41,71,,98,88,27,29,11,18,1.0,1
2026-01-25T0000,1688A,110.9108,21.6688,茂名市,健康路,细颗粒物(PM2.5),59,63,62,42,41,99,,109,106,27,29,12,27,1.1,1
2026-01-25T0000,1689A,110.8592,21.6826,茂名市,高岭,颗粒物(PM10),60,70,70,41,37,88,,93,89,37,29,11,25,/,/
2026-01-25T0000,3450A,111.0101,21.5165,茂名市,电白水东,"颗粒物(PM10),细颗粒物(PM2.5)",62,73,61,44,38,96,,97,96,19,20,10,11,/,/
2026-01-25T0000,2540A,103.8414,30.0871,眉山市,气象局,细颗粒物(PM2.5),104,101,79,78,66,6,,29,24,40,27,14,13,1.1,0.9
2026-01-25T0000,3148A,103.829,30.0563,眉山市,区人社局,细颗粒物(PM2.5),100,,74,75,63,6,,27,22,39,24,8,8,1.0,0.9
2026-01-25T0000,4148A,103.8836,30.0695,眉山市,眉职院,细颗粒物(PM2.5),93,97,81,69,62,15,,30,22,21,19,1,1,1.0,1
2026-01-25T0000,1690A,116.1248,24.3307,梅州市,梅江月梅,颗粒物(PM10),58,65,46,36,35,9,,79,58,55,30,/,/,/,/
2026-01-25T0000,1691A,116.0798,24.2719,梅州市,梅县新城,细颗粒物(PM2.5),65,76,50,47,38,11,,73,32,48,33,7,8,0.7,0.7
2026-01-25T0000,3315A,116.1234,24.2994,梅州市,梅龙,颗粒物(PM10),58,66,52,37,33,3,,65,35,46,31,8,8,1.2,1
2026-01-25T0000,1878A,104.7775,31.4741,绵阳市,富乐山,细颗粒物(PM2.5),79,68,67,58,54,17,,29,26,21,24,8,8,0.7,0.7
2026-01-25T0000,1880A,104.6698,31.4668,绵阳市,高新区自来水公司,细颗粒物(PM2.5),104,98,78,78,62,1,,24,17,41,35,8,9,1.1,1
2026-01-25T0000,3491A,104.6899,31.5324,绵阳市,西科大附属小学,细颗粒物(PM2.5),102,102,83,76,58,1,,24,17,39,40,8,8,1.0,0.9
2026-01-25T0000,3492A,104.5647,31.5343,绵阳市,安州区旅游局,细颗粒物(PM2.5),85,65,72,63,62,22,,26,26,20,34,8,8,0.7,0.7
2026-01-25T0000,4146A,104.7092,31.4972,绵阳市,科技城新区公安局,细颗粒物(PM2.5),95,88,69,71,52,2,,35,27,44,42,6,6,0.9,0.9
2026-01-25T0000,4226A,104.765114,31.453094,绵阳市,绵阳市气象局,细颗粒物(PM2.5),83,64,70,61,57,17,,25,24,24,29,6,5,0.8,0.8
2026-01-25T0000,1784A,129.61,44.561,牡丹江市,环保大楼,颗粒物(PM10),51,51,38,26,23,64,,73,60,12,20,2,4,0.4,0.4
2026-01-25T0000,1787A,129.6364,44.6075,牡丹江市,机车工厂,,,46,54,35,37,,,85,85,14,28,7,9,0.4,0.6
2026-01-25T0000,1788A,129.6386,44.5462,牡丹江市,第一中学,,38,34,32,26,20,49,,72,49,20,20,3,4,0.3,0.3
2026-01-25T0000,4287A,129.5992,44.5964,牡丹江市,东晓云街98号,,44,44,40,30,24,64,,73,59,11,20,4,4,0.5,0.5
2026-01-25T0000,2531A,105.0703,29.61,内江市,市监测站,细颗粒物(PM2.5),77,60,58,56,57,49,,51,46,13,17,5,5,0.7,0.8
2026-01-25T0000,2533A,105.0657,29.5807,内江市,内江二中,细颗粒物(PM2.5),72,72,66,52,44,39,,43,39,24,29,5,6,0.4,0.5
2026-01-25T0000,2534A,105.0407,29.5828,内江市,内江日报社,细颗粒物(PM2.5),75,63,56,55,50,39,,47,44,31,35,8,7,0.9,0.9
2026-01-25T0000,4147A,105.0433,29.6105,内江市,玉峰路西段888号,细颗粒物(PM2.5),72,58,57,52,51,42,,50,46,23,27,3,3,1.2,1.2
2026-01-25T0000,2628A,92.0653,31.4846,那曲市,那曲监测站,,24,24,50,15,17,65,,88,76,15,13,7,7,0.8,0.7
2026-01-25T0000,4243A,92.0515,31.4787,那曲市,那曲市委宣传部,,24,14,33,7,9,75,,92,82,2,6,4,4,0.4,0.5
2026-01-25T0000,1291A,115.8887,28.7006,南昌市,省林业公司,细颗粒物(PM2.5),98,75,85,73,69,6,,44,24,67,57,4,6,0.6,0.6
2026-01-25T0000,1292A,115.813,28.7443,南昌市,林科所,细颗粒物(PM2.5),73,61,74,53,59,41,,56,43,30,43,5,6,0.6,0.5
2026-01-25T0000,1294A,115.8518,28.687,南昌市,建工学校,细颗粒物(PM2.5),93,103,90,69,67,8,,48,31,78,62,9,10,0.9,0.9
2026-01-25T0000,1295A,115.8926,28.6425,南昌市,象湖,细颗粒物(PM2.5),104,98,87,78,73,1,,42,22,70,50,9,10,1.0,0.9
2026-01-25T0000,3046A,115.9084,28.6062,南昌市,机电学校,细颗粒物(PM2.5),110,121,109,83,78,5,,50,24,68,52,5,6,1.0,0.6
2026-01-25T0000,3690A,115.9718,28.7032,南昌市,外国语学校,细颗粒物(PM2.5),85,88,92,63,69,28,,50,38,41,43,13,14,0.6,0.7
2026-01-25T0000,4106A,115.7923,28.6873,南昌市,工业二路,细颗粒物(PM2.5),112,100,81,84,67,8,,57,27,60,48,5,6,0.8,0.7
2026-01-25T0000,4192A,115.931587,28.686774,南昌市,南京东路235号,细颗粒物(PM2.5),112,101,100,84,86,13,,45,25,51,45,6,7,0.9,0.8
2026-01-25T0000,1906A,106.0791,30.8022,南充市,南充市委,细颗粒物(PM2.5),67,59,57,48,46,29,,31,26,26,31,4,4,0.7,0.8
2026-01-25T0000,1907A,106.1038,30.8215,南充市,南充炼油厂,细颗粒物(PM2.5),69,72,67,50,51,38,,33,32,12,23,5,6,0.6,0.7
2026-01-25T0000,4227A,106.108336,30.788436,南充市,梨树横街98号,细颗粒物(PM2.5),58,60,62,41,41,46,,44,43,17,29,5,6,0.7,0.8
2026-01-25T0000,4304A,106.1172,30.843,南充市,清泉寺北路188号,颗粒物(PM10),55,59,50,38,41,50,,47,46,11,20,7,7,0.4,0.6
2026-01-25T0000,4305A,106.067,30.7616,南充市,同庆路1号,细颗粒物(PM2.5),67,56,56,48,44,28,,30,25,30,38,6,7,0.8,0.9
2026-01-25T0000,1151A,118.8033,32.1085,南京市,迈皋桥,细颗粒物(PM2.5),113,109,84,85,61,35,,86,55,58,43,9,7,0.9,0.6
2026-01-25T0000,1152A,118.7487,32.057,南京市,草场门,细颗粒物(PM2.5),107,107,88,80,61,38,,68,52,52,49,3,4,1.1,1
2026-01-25T0000,1154A,118.770105,32.004342,南京市,中华门,细颗粒物(PM2.5),110,100,87,83,64,44,,93,68,39,46,4,5,0.9,0.8
2026-01-25T0000,1155A,118.8059,32.0329,南京市,瑞金路,细颗粒物(PM2.5),119,112,88,90,66,34,,87,50,29,32,4,4,0.8,1.5
2026-01-25T0000,1156A,118.7946,32.0774,南京市,玄武湖,细颗粒物(PM2.5),100,97,86,75,63,50,,91,73,23,27,4,4,1.2,1.1
2026-01-25T0000,1157A,118.6415,32.0964,南京市,浦口,细颗粒物(PM2.5),114,123,100,86,70,42,,76,53,58,50,10,10,0.7,0.6
2026-01-25T0000,1158A,118.730129,32.000956,南京市,奥体中心,细颗粒物(PM2.5),113,102,93,85,69,60,,101,77,42,52,13,13,0.9,0.9
2026-01-25T0000,1159A,118.9072,32.1047,南京市,仙林大学城,细颗粒物(PM2.5),107,124,89,80,66,38,,91,67,58,42,10,8,1.3,1
2026-01-25T0000,3422A,118.8443,31.919,南京市,江宁彩虹桥,细颗粒物(PM2.5),125,122,107,95,71,33,,103,66,78,61,4,5,1.1,1
2026-01-25T0000,3427A,118.8497,32.3599,南京市,六合雄州,细颗粒物(PM2.5),85,87,102,63,70,35,,88,62,54,44,10,11,0.7,0.8
2026-01-25T0000,4086A,118.7641,32.0841,南京市,新模范马路66号,细颗粒物(PM2.5),112,110,90,84,67,67,,116,94,31,32,4,4,0.7,0.6
2026-01-25T0000,4249A,118.8707617,31.34017673,南京市,汶溪路181号,细颗粒物(PM2.5),122,92,88,92,82,51,,79,64,49,52,10,9,1.1,1.2
2026-01-25T0000,4312A,119.019,31.6512,南京市,中山西路1号,细颗粒物(PM2.5),118,112,82,89,72,42,,81,64,41,36,3,4,1.2,1.3
2026-01-25T0000,1401A,108.3098,22.788,南宁市,二十一中,细颗粒物(PM2.5),77,76,43,56,44,13,,24,22,31,27,3,3,0.8,0.8
2026-01-25T0000,1402A,108.3135,22.8529,南宁市,北湖,细颗粒物(PM2.5),89,77,42,66,55,0,,18,14,42,29,2,4,1.0,0.8
2026-01-25T0000,1403A,108.3205,22.8222,南宁市,市监测站,细颗粒物(PM2.5),69,71,43,50,33,11,,20,19,30,28,5,7,1.1,0.9
2026-01-25T0000,1404A,108.3828,22.8038,南宁市,大自然花园,细颗粒物(PM2.5),68,76,48,49,38,16,,30,26,17,13,4,5,1.0,0.8
2026-01-25T0000,1406A,108.2397,22.8462,南宁市,区农职院,细颗粒物(PM2.5),75,68,47,55,42,11,,23,12,37,28,7,8,0.6,0.6
2026-01-25T0000,1407A,108.3285,22.7356,南宁市,英华嘉园,细颗粒物(PM2.5),95,72,48,71,47,12,,26,22,25,18,3,3,0.8,0.7
2026-01-25T0000,3401A,108.4829,22.762,南宁市,红星社区,细颗粒物(PM2.5),78,66,46,57,41,15,,38,28,25,19,4,4,0.9,0.7
2026-01-25T0000,4132A,108.2927,23.1477,南宁市,起凤路9号,细颗粒物(PM2.5),98,87,44,73,39,7,,31,11,26,16,1,1,1.1,0.9
2026-01-25T0000,4221A,108.2177,22.7774,南宁市,乐贤路16号,细颗粒物(PM2.5),94,76,45,70,45,6,,19,6,37,30,3,3,0.8,0.8
2026-01-25T0000,2332A,118.1682,26.6371,南平市,南平市监测站,,29,25,43,20,37,54,,60,42,9,19,3,5,0.6,0.7
2026-01-25T0000,2334A,118.1757,26.6276,南平市,南平七中,,28,21,39,19,34,45,,65,45,16,22,3,5,0.5,0.5
2026-01-25T0000,1168A,120.9056,31.9669,南通市,狼山街道,细颗粒物(PM2.5),113,94,91,85,74,54,,79,61,41,44,2,4,0.7,0.6
2026-01-25T0000,1170A,120.8635,32.0231,南通市,城中,细颗粒物(PM2.5),94,96,91,70,68,79,,82,74,32,39,4,5,0.7,0.7
2026-01-25T0000,1171A,120.9376,31.9301,南通市,星湖花园,细颗粒物(PM2.5),93,90,87,69,66,82,,86,72,34,43,4,6,0.6,0.6
2026-01-25T0000,1172A,120.8053,32.046,南通市,紫琅学院,细颗粒物(PM2.5),94,95,96,70,71,87,,84,76,29,40,3,5,0.7,0.7
2026-01-25T0000,3291A,121.0631,32.0644,南通市,通州监测站,细颗粒物(PM2.5),98,90,96,73,80,96,,105,98,21,38,2,5,0.6,0.8
2026-01-25T0000,3432A,120.9348,31.9874,南通市,环境教育馆,细颗粒物(PM2.5),112,92,86,84,76,47,,88,66,44,46,4,5,0.8,0.9
2026-01-25T0000,4091A,120.8692,31.9885,南通市,洪江路,细颗粒物(PM2.5),105,83,78,79,68,80,,79,66,27,29,4,4,0.7,0.6
2026-01-25T0000,2404A,112.5338,33.0086,南阳市,瓦房庄,细颗粒物(PM2.5),137,106,107,104,99,64,,78,70,17,30,6,6,1.0,1.1
2026-01-25T0000,2405A,112.5002,32.9734,南阳市,汉画馆,细颗粒物(PM2.5),133,110,107,101,97,63,,76,68,21,32,6,7,0.9,0.9
2026-01-25T0000,2406A,112.5778,33.0144,南阳市,气象站,细颗粒物(PM2.5),128,124,116,97,92,59,,84,72,23,33,4,5,0.9,0.9
2026-01-25T0000,2407A,112.548,32.9687,南阳市,理工学院,细颗粒物(PM2.5),113,107,100,85,78,56,,79,68,22,34,5,5,1.0,0.9
2026-01-25T0000,4008A,112.5233,32.9921,南阳市,卧龙区政府,细颗粒物(PM2.5),129,123,124,98,96,63,,74,68,18,33,5,6,1.0,1.1
2026-01-25T0000,1234A,121.8352,29.9111,宁波市,区环保大楼,细颗粒物(PM2.5),92,99,105,68,64,14,,72,31,83,70,5,9,0.6,0.6
2026-01-25T0000,1235A,121.5595,29.8208,宁波市,万里学院,细颗粒物(PM2.5),102,103,98,76,71,34,,80,67,70,58,4,7,0.7,0.7
2026-01-25T0000,1236A,121.713,29.9564,宁波市,龙赛医院,细颗粒物(PM2.5),102,98,103,76,71,34,,93,73,75,58,4,7,0.7,0.7
2026-01-25T0000,1240A,121.5855,29.8635,宁波市,太古小学,细颗粒物(PM2.5),103,120,116,77,74,30,,86,62,74,57,4,7,0.9,0.9
2026-01-25T0000,1241A,121.5239,29.8673,宁波市,市环境监测中心,细颗粒物(PM2.5),115,103,100,87,77,33,,88,66,62,54,7,9,1.0,0.9
2026-01-25T0000,2871A,121.6156,29.9015,宁波市,万里国际学校,细颗粒物(PM2.5),103,102,106,77,80,54,,88,63,58,64,6,7,0.9,0.9
2026-01-25T0000,3710A,121.5593,29.8976,宁波市,白沙活动中心,细颗粒物(PM2.5),109,95,86,82,72,18,,89,60,70,56,3,7,0.6,0.7
2026-01-25T0000,4095A,121.8962,29.7529,宁波市,中科路88号,细颗粒物(PM2.5),70,66,79,51,63,46,,107,76,43,47,5,7,0.5,0.6
2026-01-25T0000,2341A,119.5387,26.6611,宁德市,宁德市监测站,,25,,37,17,36,62,,63,63,20,34,3,6,0.5,0.8
2026-01-25T0000,3209A,119.5231,26.6562,宁德市,宁德一中,,26,19,36,18,30,60,,69,69,16,23,3,5,0.6,0.8
2026-01-25T0000,2618A,98.859,25.8541,怒江傈僳族自治州,州监测站,颗粒物(PM10),52,53,36,34,24,35,,78,60,20,12,5,5,0.6,0.5
2026-01-25T0000,2619A,98.8607,25.8168,怒江傈僳族自治州,泸水一中,,49,,32,34,26,20,,67,40,29,19,4,4,0.8,0.7
2026-01-25T0000,1888A,101.6891,26.571,攀枝花市,弄弄坪,细颗粒物(PM2.5),94,108,84,70,63,23,,101,76,60,35,25,22,1.8,1.4
2026-01-25T0000,1889A,101.577,26.5914,攀枝花市,河门口,颗粒物(PM10),72,93,79,24,45,27,,107,80,38,28,32,24,1.2,1.6
2026-01-25T0000,1891A,101.7365,26.4986,攀枝花市,仁和,细颗粒物(PM2.5),59,66,66,42,45,44,,100,69,19,26,9,16,0.9,1.3
2026-01-25T0000,2835A,101.7222,26.567,攀枝花市,四十中小,细颗粒物(PM2.5),99,118,110,74,66,16,,88,50,75,28,20,20,1.8,1.7
2026-01-25T0000,1604A,122.0303,41.1489,盘锦市,开发区,细颗粒物(PM2.5),198,,76,148,59,16,,75,32,48,40,13,10,2.6,0.9
2026-01-25T0000,1605A,122.0486,41.0883,盘锦市,兴隆台,细颗粒物(PM2.5),82,68,65,60,51,2,,68,23,63,47,7,9,1.3,1.2
2026-01-25T0000,1606A,121.8297,41.1026,盘锦市,新生街道,细颗粒物(PM2.5),129,,63,98,47,15,,73,36,61,44,8,13,1.1,0.9
2026-01-25T0000,1832A,113.3257,33.7423,平顶山市,新华旅馆,细颗粒物(PM2.5),135,124,136,103,103,68,,84,77,29,45,6,6,0.9,0.8
2026-01-25T0000,1833A,113.2917,33.737,平顶山市,规划设计院,细颗粒物(PM2.5),145,140,144,111,103,70,,83,75,22,31,6,6,0.8,0.8
2026-01-25T0000,1834A,113.182,33.7738,平顶山市,平顶山工学院,细颗粒物(PM2.5),147,133,134,112,112,56,,90,78,27,30,7,7,0.8,0.8
2026-01-25T0000,3594A,112.8736,33.9068,平顶山市,石龙区,细颗粒物(PM2.5),155,143,150,118,124,70,,82,72,19,26,5,6,0.9,0.9
2026-01-25T0000,4116A,113.284,33.7139,平顶山市,姚电大道23号,细颗粒物(PM2.5),166,152,146,126,113,72,,87,80,28,32,5,6,0.7,0.7
2026-01-25T0000,2656A,106.6633,35.5338,平凉市,聚贤嘉苑,细颗粒物(PM2.5),115,106,91,87,63,42,,91,82,47,30,21,20,0.9,0.8
2026-01-25T0000,2657A,106.7021,35.5307,平凉市,博物馆,细颗粒物(PM2.5),120,105,96,91,75,55,,90,84,46,31,14,12,1.2,1.1
2026-01-25T0000,2348A,113.8384,27.6436,萍乡市,中医院,"颗粒物(PM10),细颗粒物(PM2.5)",60,70,99,43,62,59,,68,58,22,34,8,8,0.9,2.2
2026-01-25T0000,2350A,113.8677,27.6438,萍乡市,市环保局,细颗粒物(PM2.5),64,59,88,46,65,56,,75,69,21,29,23,18,1.1,2.1
2026-01-25T0000,2351A,113.8663,27.6202,萍乡市,安源区政府,细颗粒物(PM2.5),72,67,83,52,64,41,,54,48,31,33,14,12,1.2,2.3
2026-01-25T0000,4107A,113.8686,27.6668,萍乡市,联洪村委会,细颗粒物(PM2.5),69,69,77,50,58,64,,73,71,16,26,6,5,0.8,1.4
2026-01-25T0000,2319A,119.0142,25.4324,莆田市,荔城区仓后路,,22,19,26,10,14,68,,66,65,15,15,/,/,/,/
2026-01-25T0000,2320A,119.0016,25.4553,莆田市,莆田市监测站,,25,,19,8,10,80,,70,69,6,9,3,3,0.5,0.6
2026-01-25T0000,2321A,119.112,25.4561,莆田市,涵江区六中,,24,21,29,11,17,74,,74,74,12,18,/,/,0.4,0.5
2026-01-25T0000,2322A,119.1014,25.3215,莆田市,秀屿区政府,,24,,30,13,18,74,,74,71,14,16,2,3,0.6,0.6
2026-01-25T0000,2392A,115.0312,35.7636,濮阳市,环保局,细颗粒物(PM2.5),173,137,125,131,122,38,,86,65,69,49,21,7,1.1,1
2026-01-25T0000,3021A,115,35.7667,濮阳市,濮水河管理处,细颗粒物(PM2.5),144,158,147,110,127,38,,98,74,50,33,9,5,1.1,1
2026-01-25T0000,4118A,115.0552,35.7816,濮阳市,中原东路68号,细颗粒物(PM2.5),193,178,154,145,130,29,,93,63,58,36,8,6,1.0,1
2026-01-25T0000,4216A,115.0923632,35.76857718,濮阳市,任丘路479号,细颗粒物(PM2.5),186,176,159,140,137,33,,94,65,59,44,24,7,1.3,1.2
2026-01-25T0000,2601A,100.9801,22.7634,普洱市,市环保局,颗粒物(PM10),52,53,52,12,16,52,,88,68,11,11,5,5,0.4,0.4
2026-01-25T0000,2602A,100.9763,22.8237,普洱市,普洱第二中学,细颗粒物(PM2.5),59,52,46,42,26,8,,90,61,45,19,5,5,0.4,0.3
2026-01-25T0000,3345A,131.0413,45.7795,七台河市,中波台,,36,33,29,25,20,56,,72,62,17,15,34,9,0.4,0.4
2026-01-25T0000,3637A,131.0136,45.7688,七台河市,人民广场,,40,40,35,27,21,57,,72,62,24,21,6,6,0.6,0.5
2026-01-25T0000,3684A,130.8639,45.8144,七台河市,新建矿广场,,40,31,29,28,23,58,,63,58,8,13,3,7,0.5,0.4
2026-01-25T0000,1779A,123.9307,47.3641,齐齐哈尔市,安居小区,,21,21,26,3,13,54,,64,46,12,16,6,7,0.8,0.8
2026-01-25T0000,1780A,123.9497,47.3389,齐齐哈尔市,中心广场,,18,18,18,7,9,56,,63,53,9,13,5,6,0.4,0.5
2026-01-25T0000,1781A,123.9483,47.3229,齐齐哈尔市,农牧车辆厂,,22,22,22,3,8,58,,66,55,6,9,4,5,0.3,0.3
2026-01-25T0000,1783A,123.9442,47.2994,齐齐哈尔市,市环境监测站,,20,15,23,3,11,62,,65,45,5,13,3,4,0.4,0.5
2026-01-25T0000,3662A,123.6341,47.2079,齐齐哈尔市,富区青少年活动中心,,25,25,32,3,12,63,,66,49,7,14,4,6,0.6,0.6
2026-01-25T0000,2591A,107.9765,26.5724,黔东南苗族侗族自治州,市环境监测站,,19,17,52,13,42,48,,45,45,8,21,4,7,0.6,0.8
2026-01-25T0000,2881A,107.8909,26.531,黔东南苗族侗族自治州,凯里学院,,24,24,50,13,35,50,,55,54,9,15,2,3,0.6,0.7
2026-01-25T0000,2593A,107.5223,26.2371,黔南布依族苗族自治州,小围寨,,18,14,43,12,36,38,,53,46,5,10,5,7,0.8,0.9
2026-01-25T0000,3538A,107.5175,26.2977,黔南布依族苗族自治州,沙坝,,13,12,50,9,38,38,,54,47,8,14,4,6,0.7,0.8
2026-01-25T0000,2589A,104.9022,25.0943,黔西南布依族苗族自治州,场坝街,,37,37,33,18,20,24,,29,25,7,9,2,2,0.7,0.8
2026-01-25T0000,2590A,104.8812,25.0994,黔西南布依族苗族自治州,坪东大道,,48,,28,33,24,20,,29,22,8,9,4,5,0.9,0.9
2026-01-25T0000,2502A,108.6238,21.9667,钦州市,市环保站,细颗粒物(PM2.5),83,102,66,61,48,2,,26,12,35,25,3,2,2.2,1.6
2026-01-25T0000,2503A,108.655,21.9481,钦州市,沙埠小学,细颗粒物(PM2.5),72,75,74,52,40,8,,26,17,31,26,3,3,0.6,0.8
2026-01-25T0000,2504A,108.5989,21.7435,钦州市,港区一小,颗粒物(PM10),66,82,59,46,46,4,,17,9,39,30,1,2,1.4,1.1
2026-01-25T0000,3404A,108.5959,21.9634,钦州市,北职校,细颗粒物(PM2.5),75,,44,55,47,14,,28,19,17,17,2,2,0.9,0.9
2026-01-25T0000,1046A,119.5247,39.9346,秦皇岛市,建设大厦,颗粒物(PM10),51,51,55,29,28,7,,52,45,57,36,8,9,0.7,0.8
2026-01-25T0000,3132A,119.5979,39.938,秦皇岛市,文明里,颗粒物(PM10),53,55,57,31,32,37,,52,49,32,42,14,13,0.3,0.5
2026-01-25T0000,4066A,119.7458,39.9952,秦皇岛市,南园路157号,,43,41,47,30,26,21,,60,34,50,48,12,11,0.6,0.7
2026-01-25T0000,4067A,119.5131,39.8858,秦皇岛市,翠岛大街1号,颗粒物(PM10),54,57,52,25,23,38,,51,48,30,38,14,12,0.5,0.6
2026-01-25T0000,4198A,119.509013,39.825305,秦皇岛市,北戴河轮滑馆,,36,36,47,25,25,52,,56,56,22,41,9,8,0.5,0.7
2026-01-25T0000,1310A,120.404,36.0625,青岛市,市南区东部子站,,46,46,96,27,71,59,,77,76,33,35,8,11,0.7,0.8
2026-01-25T0000,1311A,120.362344,36.10282,青岛市,四方区子站,细颗粒物(PM2.5),85,66,98,63,86,8,,85,56,74,42,4,7,1.2,1.2
2026-01-25T0000,1312A,120.294373,36.054183,青岛市,市南区西部子站,细颗粒物(PM2.5),59,63,118,42,84,94,,91,91,24,48,4,7,0.6,0.9
2026-01-25T0000,1313A,120.4581,36.0858,青岛市,崂山区子站,,41,41,82,27,61,72,,67,59,24,35,9,12,0.4,0.6
2026-01-25T0000,1315A,120.3945,36.3083,青岛市,城阳区子站,细颗粒物(PM2.5),77,90,128,56,78,7,,73,45,83,57,8,11,1.2,1.3
2026-01-25T0000,3642A,120.3454,36.0735,青岛市,市北区南部,细颗粒物(PM2.5),62,58,111,44,74,73,,87,86,30,36,2,5,0.8,1
2026-01-25T0000,3643A,120.3897,36.18,青岛市,李沧区北部,,49,39,100,34,86,74,,73,62,16,54,8,11,0.5,1.3
2026-01-25T0000,4110A,120.5222,36.4089,青岛市,盟旺路653号,细颗粒物(PM2.5),68,66,126,49,90,69,,72,64,26,45,3,6,0.8,1.1
2026-01-25T0000,4290A,120.196923,35.954556,青岛市,珠江路669号,细颗粒物(PM2.5),92,80,108,68,94,51,,101,87,49,43,5,7,1.0,1
2026-01-25T0000,4291A,120.0424,35.8656,青岛市,黄岛区人民政府广场,细颗粒物(PM2.5),156,156,134,119,102,10,,95,58,88,57,8,11,1.8,1.4
2026-01-25T0000,1703A,113.0218,23.7086,清远市,凤城街办,颗粒物(PM10),56,62,51,38,32,5,,52,25,59,42,/,/,/,/
2026-01-25T0000,3025A,113.0479,23.6343,清远市,技师学院,颗粒物(PM10),70,90,49,47,31,1,,61,33,68,37,7,8,1.2,0.9
2026-01-25T0000,3318A,112.9898,23.7403,清远市,清新太和,,37,37,42,23,28,33,,60,54,35,29,11,10,0.8,0.7
2026-01-25T0000,3455A,113.076,23.72,清远市,清城东城,,47,47,47,25,28,12,,56,29,34,32,/,/,/,/
2026-01-25T0000,2661A,107.6325,35.7357,庆阳市,庆阳五中,细颗粒物(PM2.5),83,78,64,61,50,83,,95,89,24,20,6,6,0.8,0.6
2026-01-25T0000,2662A,107.6361,35.7067,庆阳市,市环保局,细颗粒物(PM2.5),94,79,68,70,66,84,,99,94,22,16,8,7,0.7,0.7
2026-01-25T0000,1916A,103.7897,25.5036,曲靖市,环境监测站,,27,27,33,3,13,63,,100,80,14,15,5,6,0.6,0.6
2026-01-25T0000,1917A,103.8013,25.5357,曲靖市,烟厂办公区,,,27,40,21,18,,,97,84,8,18,5,5,0.2,0.5
2026-01-25T0000,3376A,103.7926,25.4651,曲靖市,南苑二区,,25,25,26,12,13,70,,94,82,4,7,4,5,0.4,0.5
2026-01-25T0000,3377A,103.7442,25.5259,曲靖市,曲靖师范学院,,27,27,35,15,14,70,,101,83,12,20,8,5,0.3,0.4
2026-01-25T0000,1264A,118.8694,28.94,衢州市,环保大楼,细颗粒物(PM2.5),110,108,95,83,78,3,,65,32,86,54,/,/,/,/
2026-01-25T0000,1266A,118.8622,28.9809,衢州市,衢州学院,细颗粒物(PM2.5),85,81,84,63,65,5,,67,39,77,49,5,6,0.9,0.8
2026-01-25T0000,4097A,118.9646,28.9832,衢州市,衢州三中,细颗粒物(PM2.5),112,115,100,84,76,0,,61,28,70,46,5,5,0.9,0.8
2026-01-25T0000,1611A,118.5818,24.9116,泉州市,涂山街,,22,17,39,15,24,63,,79,68,16,26,3,3,0.4,0.7
2026-01-25T0000,1612A,118.597,24.8976,泉州市,津头埔,,28,21,38,19,26,57,,77,66,20,23,4,4,0.4,0.5
2026-01-25T0000,1613A,118.6669,24.9422,泉州市,万安,,23,19,31,16,20,61,,73,64,14,22,3,3,0.5,0.6
2026-01-25T0000,4105A,118.6355,24.9148,泉州市,霞新路6号,,25,25,29,17,19,55,,76,62,26,19,/,/,0.5,0.5
2026-01-25T0000,2626A,88.8873,29.2723,日喀则市,日喀则监测站,,29,19,21,7,7,90,,93,92,2,8,7,7,0.3,0.3
2026-01-25T0000,3726A,88.8775,29.2425,日喀则市,林业技术推广中心,,30,14,23,3,4,95,,98,98,4,5,9,9,0.2,0.3
2026-01-25T0000,1659A,119.4711,35.421,日照市,监测站,细颗粒物(PM2.5),160,161,130,122,93,5,,81,36,97,66,23,16,2.2,1.6
2026-01-25T0000,1660A,119.523,35.4216,日照市,市政府广场,细颗粒物(PM2.5),124,124,112,94,84,4,,87,56,103,57,11,12,1.2,0.9
2026-01-25T0000,1661A,119.5511,35.4113,日照市,港务局,细颗粒物(PM2.5),127,119,127,96,93,6,,84,60,87,54,7,11,1.2,1
2026-01-25T0000,3507A,119.5326,35.4627,日照市,职业技术学院,细颗粒物(PM2.5),70,80,113,51,72,56,,88,80,36,48,7,11,1.0,1.1
2026-01-25T0000,3604A,119.3267,35.1043,日照市,岚山环保分局,细颗粒物(PM2.5),90,97,120,67,91,83,,96,91,38,43,10,18,0.9,1.4
2026-01-25T0000,1835A,111.1922,34.7752,三门峡市,市政府,细颗粒物(PM2.5),193,,110,145,128,70,,96,83,21,30,7,12,1.0,1.2
2026-01-25T0000,1836A,111.1588,34.794,三门峡市,开发区,细颗粒物(PM2.5),182,168,166,137,133,65,,87,76,22,28,6,11,0.7,0.9
2026-01-25T0000,3039A,111.1911,34.7829,三门峡市,三门峡市第一小学,细颗粒物(PM2.5),172,,129,130,129,68,,93,81,26,31,7,11,0.7,0.9
2026-01-25T0000,3598A,111.1031,34.719,三门峡市,富达温泉假日酒店,细颗粒物(PM2.5),179,148,130,135,118,64,,88,79,26,31,6,8,0.9,1
2026-01-25T0000,2324A,117.621,26.2626,三明市,三钢,细颗粒物(PM2.5),72,,51,52,56,2,,7,,46,35,6,16,1.0,0.7
2026-01-25T0000,2325A,117.6352,26.2714,三明市,三明二中,,43,40,45,30,39,14,,73,50,35,24,3,7,1.0,1
2026-01-25T0000,2326A,117.6028,26.2377,三明市,三元区政府,,45,40,50,31,42,15,,66,30,30,33,4,11,1.0,1.2
2026-01-25T0000,1877A,109.4962,18.2682,三亚市,河西子站,,33,33,31,13,14,82,,90,86,9,10,3,3,0.5,0.5
2026-01-25T0000,3540A,109.7348,18.3443,三亚市,君悦子站,,42,42,33,19,15,33,,92,78,35,13,5,5,0.6,0.5
2026-01-25T0000,4135A,109.1714,18.3739,三亚市,城东小学站,,43,43,39,19,21,31,,90,67,20,12,/,/,/,/
2026-01-25T0000,2624A,91.7592,29.234,山南市,山南监测站,,28,17,19,8,7,88,,90,90,2,4,4,4,0.2,0.2
2026-01-25T0000,2625A,91.7701,29.2436,山南市,山南人民医院,,29,18,24,9,8,91,,91,91,1,4,6,6,0.4,0.4
2026-01-25T0000,1674A,116.6795,23.3666,汕头市,金平子站,,25,23,36,15,28,80,,106,95,10,18,4,7,0.7,0.8
2026-01-25T0000,1675A,116.7248,23.3632,汕头市,龙湖子站,,25,24,32,13,22,80,,106,94,10,16,9,11,/,/
2026-01-25T0000,1676A,116.7257,23.2774,汕头市,濠江子站,,27,16,31,14,25,84,,106,97,11,17,6,8,/,/
2026-01-25T0000,1677A,116.7518,23.4712,汕头市,澄海子站,,27,27,41,18,29,77,,106,92,8,15,7,8,0.5,0.6
2026-01-25T0000,1678A,116.6088,23.2539,汕头市,潮阳子站,,28,21,32,7,19,88,,110,100,4,13,5,8,0.5,0.6
2026-01-25T0000,3444A,116.4539,23.2684,汕头市,潮南峡山,,28,18,39,10,26,87,,114,99,8,18,5,8,0.6,0.7
2026-01-25T0000,3624A,116.4069,23.2533,汕头市,潮南子站,,39,39,57,13,31,78,,105,89,12,23,6,9,/,/
2026-01-25T0000,1693A,115.3653,22.7751,汕尾市,市环保局,,30,22,38,21,31,95,,127,106,10,16,6,10,0.6,0.7
2026-01-25T0000,1695A,115.362,22.7926,汕尾市,新城中学,,32,,37,22,30,92,,127,104,10,16,5,10,0.5,0.6
2026-01-25T0000,2645A,109.9155,33.8714,商洛市,监测站,细颗粒物(PM2.5),102,103,62,76,40,71,,64,62,17,26,13,8,0.7,0.8
2026-01-25T0000,3045A,109.9647,33.8486,商洛市,商州区中学,细颗粒物(PM2.5),100,,50,75,40,70,,62,62,13,26,13,8,0.8,0.9
2026-01-25T0000,2408A,115.6701,34.4283,商丘市,环境监测站,细颗粒物(PM2.5),168,130,112,127,115,60,,114,90,43,39,2,3,0.9,0.9
2026-01-25T0000,2409A,115.6458,34.4047,商丘市,粮食局,细颗粒物(PM2.5),156,,101,119,102,64,,105,86,28,24,3,3,0.9,0.9
2026-01-25T0000,3171A,115.6069,34.4465,商丘市,梁园区档案局,细颗粒物(PM2.5),160,,97,122,104,63,,110,92,35,37,3,2,0.9,0.9
2026-01-25T0000,4119A,115.6701,34.3767,商丘市,北海东路185号,细颗粒物(PM2.5),152,166,149,116,111,52,,115,82,29,38,1,2,0.7,0.9
2026-01-25T0000,4120A,115.6172,34.3704,商丘市,中山大街3号,细颗粒物(PM2.5),158,142,134,120,107,70,,108,93,28,42,5,4,0.7,0.7
2026-01-25T0000,1141A,121.401,31.2382,上海市,普陀,细颗粒物(PM2.5),82,66,83,60,71,78,,82,80,37,56,6,8,0.8,1.1
