timepoint,stationcode,longitude,latitude,area,positionname,primarypollutant,aqi,pm10,pm10_24h,pm2_5,pm2_5_24h,o3,o3_24h,o3_8h,o3_8h_24h,no2,no2_24h,so2,so2_24h,co,co_24h
2026-01-25T2200,2568A,102.2503,31.8896,阿坝藏族羌族自治州,马师校,,45,43,22,31,20,27,,67,53,27,20,4,4,0.7,0.6
2026-01-25T2200,3994A,102.2174,31.9016,阿坝藏族羌族自治州,马尔康中学西区,,43,39,16,30,14,26,,60,50,34,18,6,6,0.8,0.5
2026-01-25T2200,2695A,80.2899,41.1684,阿克苏地区,电视台,颗粒物(PM10),340,452,443,127,91,9,,49,46,42,16,8,10,1.3,0.7
2026-01-25T2200,2696A,80.2592,41.1541,阿克苏地区,艺术中心,颗粒物(PM10),309,427,418,111,103,24,,51,49,30,21,4,4,0.8,0.7
2026-01-25T2200,2205A,105.699,38.8409,阿拉善盟,蒙二幼,颗粒物(PM10),118,186,683,36,135,66,,76,74,10,8,9,9,0.7,0.6
2026-01-25T2200,2206A,105.7198,38.8508,阿拉善盟,环保局新楼,颗粒物(PM10),114,177,682,44,137,65,,70,68,7,8,8,8,0.6,0.6
2026-01-25T2200,2708A,88.1266,47.8515,阿勒泰地区,市站,,19,15,22,8,10,43,,65,50,37,29,4,4,0.6,0.5
2026-01-25T2200,4166A,88.1198,47.7931,阿勒泰地区,阿勒泰路33号,,30,20,28,14,11,12,,58,38,60,30,8,9,0.6,0.5
2026-01-25T2200,2630A,80.1171,32.4999,阿里地区,阿里监测站,,28,,3,3,3,88,,126,99,2,4,8,8,0.5,0.5
2026-01-25T2200,3192A,80.0906,32.5029,阿里地区,阿里藏医院,,28,13,18,7,7,88,,116,98,1,3,7,11,0.6,0.7
2026-01-25T2200,2644A,109.0088,32.6974,安康市,汉滨区检察院,细颗粒物(PM2.5),58,52,79,41,58,33,,40,40,25,38,4,6,0.8,1
2026-01-25T2200,4054A,109.0324,32.6913,安康市,市邮政管理局,细颗粒物(PM2.5),69,65,84,50,59,30,,38,38,24,39,4,6,0.8,1
2026-01-25T2200,2291A,117.0806,30.5181,安庆市,环科院,细颗粒物(PM2.5),166,148,117,126,101,24,,36,31,38,41,6,9,0.9,0.9
2026-01-25T2200,2292A,117.0331,30.5118,安庆市,马山宾馆,细颗粒物(PM2.5),175,144,117,132,101,25,,41,33,42,48,5,8,1.0,1
2026-01-25T2200,2294A,116.9897,30.6146,安庆市,安庆大学,细颗粒物(PM2.5),162,135,104,123,86,27,,46,38,51,50,4,4,1.0,0.8
2026-01-25T2200,3173A,117.0598,30.5351,安庆市,市人大,细颗粒物(PM2.5),168,154,131,127,104,22,,37,31,40,44,6,8,0.9,0.9
2026-01-25T2200,3123A,105.9408,26.2431,安顺市,凤凰山,细颗粒物(PM2.5),53,41,27,37,24,12,,43,29,19,14,15,17,0.7,0.4
2026-01-25T2200,3124A,105.9443,26.2567,安顺市,金钟山,,49,39,24,34,22,13,,44,30,18,13,13,15,0.8,0.6
2026-01-25T2200,3125A,105.8983,26.248,安顺市,娄家坡,细颗粒物(PM2.5),59,45,26,42,25,9,,42,26,22,14,19,15,0.8,0.4
2026-01-25T2200,1819A,114.3552,36.1017,安阳市,红庙街,细颗粒物(PM2.5),140,108,180,107,158,15,,49,36,60,45,7,9,1.0,1.1
2026-01-25T2200,1820A,114.361,36.0681,安阳市,银杏小区,细颗粒物(PM2.5),153,125,182,117,173,20,,52,38,49,40,8,10,0.9,1.1
2026-01-25T2200,3141A,114.3921,36.0879,安阳市,信访局,细颗粒物(PM2.5),147,122,189,112,168,21,,52,38,46,37,9,11,0.9,1.1
2026-01-25T2200,3669A,114.4706,36.0634,安阳市,左辅环卫站,细颗粒物(PM2.5),165,146,197,125,177,20,,48,36,52,43,8,10,1.0,1.1
2026-01-25T2200,4117A,114.2918,36.0769,安阳市,钢三路198号,细颗粒物(PM2.5),142,148,205,108,169,19,,50,39,51,39,11,14,1.0,1.2
2026-01-25T2200,1748A,123.0441,41.1201,鞍山市,深沟寺,细颗粒物(PM2.5),79,75,39,58,25,26,,56,40,43,24,9,11,1.0,0.8
2026-01-25T2200,1749A,123.011,41.0931,鞍山市,太阳城,细颗粒物(PM2.5),72,62,36,52,24,25,,55,38,40,25,13,16,0.9,0.8
2026-01-25T2200,1750A,123.0483,41.1445,鞍山市,太平,细颗粒物(PM2.5),82,111,55,60,26,21,,55,36,46,28,16,16,0.9,0.8
2026-01-25T2200,1751A,122.964,41.0968,鞍山市,铁西三道街,细颗粒物(PM2.5),72,80,58,52,33,25,,50,32,48,39,13,20,0.7,1.1
2026-01-25T2200,1753A,123.0219,41.0822,鞍山市,明达新区,细颗粒物(PM2.5),70,74,39,51,24,29,,60,44,28,18,14,15,0.9,0.8
2026-01-25T2200,4201A,122.944647,41.082639,鞍山市,兴盛南路290号,细颗粒物(PM2.5),75,90,81,55,41,16,,50,29,60,48,16,22,1.0,1.5
2026-01-25T2200,2195A,107.4206,40.7609,巴彦淖尔市,附二中,颗粒物(PM10),102,154,212,55,51,66,,68,66,10,14,6,8,0.4,0.5
2026-01-25T2200,2196A,107.37,40.7372,巴彦淖尔市,市环保大楼,颗粒物(PM10),100,149,211,63,54,62,,70,65,12,15,4,6,0.4,0.5
2026-01-25T2200,1956A,86.1476,41.7529,巴音郭楞蒙古自治州,孔雀公园,颗粒物(PM10),122,194,281,49,54,27,,57,54,42,28,8,8,0.8,0.6
2026-01-25T2200,1957A,86.1971,41.7166,巴音郭楞蒙古自治州,棉纺厂,颗粒物(PM10),141,232,342,56,54,10,,54,49,63,33,/,/,/,/
2026-01-25T2200,1958A,86.236,41.7172,巴音郭楞蒙古自治州,经济开发区,颗粒物(PM10),125,200,289,26,41,0,,51,43,64,25,5,5,0.8,0.7
2026-01-25T2200,3181A,106.776805,31.852614,巴中市,市五中,细颗粒物(PM2.5),93,96,69,69,50,1,,24,14,34,32,6,5,1.3,1.1
2026-01-25T2200,3183A,106.7419,31.8654,巴中市,圣泉水务公司,细颗粒物(PM2.5),123,125,65,93,51,2,,36,12,44,34,6,5,1.3,0.8
2026-01-25T2200,3616A,106.7617,31.8343,巴中市,市中心医院,细颗粒物(PM2.5),103,95,65,77,54,2,,22,16,38,34,8,7,1.1,0.9
2026-01-25T2200,2235A,122.7909,45.608,白城市,洮北区环保局,细颗粒物(PM2.5),57,44,40,40,31,50,,67,55,17,18,5,6,0.2,0.3
2026-01-25T2200,2236A,122.8741,45.5725,白城市,市环保局,,48,48,38,25,21,25,,66,38,32,25,7,6,0.4,0.5
2026-01-25T2200,2231A,126.4219,41.9172,白山市,喜丰,细颗粒物(PM2.5),53,48,56,37,31,36,,65,55,39,33,15,17,0.9,0.8
2026-01-25T2200,2232A,126.4082,41.9416,白山市,环保局,,45,44,44,31,29,43,,65,59,25,23,11,13,0.8,0.7
2026-01-25T2200,2647A,104.1727,36.5448,白银市,第三小学,颗粒物(PM10),500,1265,1236,254,226,25,,60,39,44,19,4,7,0.7,0.5
2026-01-25T2200,2648A,104.1467,36.5482,白银市,动力公司,颗粒物(PM10),500,1139,1174,252,238,13,,59,41,38,14,2,3,0.9,0.6
2026-01-25T2200,2512A,106.6102,23.901,百色市,市监测站,,47,47,53,32,37,35,,39,39,23,26,21,20,1.1,1
2026-01-25T2200,2513A,106.6524,23.8842,百色市,市中心血站,细颗粒物(PM2.5),52,42,51,36,46,46,,49,49,16,21,13,17,1.0,1
2026-01-25T2200,4133A,106.6273,23.8798,百色市,龙景西路,细颗粒物(PM2.5),57,57,67,40,46,35,,37,37,23,26,25,21,1.0,0.9
2026-01-25T2200,2270A,117.396,32.9389,蚌埠市,工人疗养院,,37,37,98,18,73,70,,76,74,14,30,4,5,0.3,0.6
2026-01-25T2200,2271A,117.3606,32.9428,蚌埠市,百货大楼,,,,99,,79,,,72,70,,33,,5,,0.7
2026-01-25T2200,2273A,117.4183,32.8909,蚌埠市,蚌埠学院,,26,24,90,18,79,56,,66,62,28,47,3,5,0.3,0.7
2026-01-25T2200,2274A,117.3534,32.9672,蚌埠市,淮上区政府,,49,36,95,34,79,65,,77,73,18,28,1,1,0.4,0.6
2026-01-25T2200,2275A,117.3143,32.8977,蚌埠市,高新区,,43,34,89,30,80,68,,78,76,14,31,5,6,0.3,0.6
2026-01-25T2200,3715A,117.3091,32.9314,蚌埠市,蚌埠田家炳中学,,43,40,98,30,85,68,,74,73,13,32,4,5,0.4,0.7
2026-01-25T2200,1585A,109.8761,40.6533,包头市,市环境监测站,颗粒物(PM10),148,245,161,48,33,27,,46,45,48,42,7,11,0.9,1.1
2026-01-25T2200,1587A,109.9992,40.5843,包头市,包头八中,颗粒物(PM10),148,245,158,72,42,33,,53,50,40,25,18,13,1.0,0.7
2026-01-25T2200,1589A,109.8641,40.6288,包头市,惠龙物流,颗粒物(PM10),136,221,146,46,35,27,,54,52,49,38,30,16,1.3,1.2
2026-01-25T2200,1590A,110.0376,40.5546,包头市,东河鸿龙湾,颗粒物(PM10),129,208,168,46,26,48,,61,60,29,23,11,10,0.5,0.4
2026-01-25T2200,3283A,109.9154,40.5684,包头市,滨河大厦,颗粒物(PM10),130,210,146,50,31,36,,56,55,35,25,12,8,0.7,0.6
2026-01-25T2200,3419A,109.9449,40.6259,包头市,包头市委党校,颗粒物(PM10),128,206,143,44,40,30,,52,51,44,46,16,13,1.3,1
2026-01-25T2200,3683A,109.8332,40.6577,包头市,昆区政府,颗粒物(PM10),139,228,143,54,37,31,,41,41,52,48,8,14,0.9,1.2
2026-01-25T2200,1931A,107.0802,34.3129,宝鸡市,竹园沟,细颗粒物(PM2.5),204,287,259,154,103,9,,64,48,36,26,6,6,0.8,0.6
2026-01-25T2200,1933A,107.1429,34.3549,宝鸡市,监测站,细颗粒物(PM2.5),234,202,250,184,119,14,,56,44,44,38,5,7,1.1,0.9
2026-01-25T2200,1934A,107.1172,34.3759,宝鸡市,技工学校,细颗粒物(PM2.5),205,189,255,155,120,21,,64,50,40,33,4,7,1.1,0.9
2026-01-25T2200,1936A,107.2025,34.3518,宝鸡市,文理学院,细颗粒物(PM2.5),223,174,234,173,123,19,,59,48,36,34,4,6,1.0,0.9
2026-01-25T2200,1937A,107.2396,34.3626,宝鸡市,三迪小学,细颗粒物(PM2.5),226,,233,176,136,20,,58,46,39,42,3,7,1.1,1
2026-01-25T2200,4155A,107.1721,34.3558,宝鸡市,滨河北路,细颗粒物(PM2.5),208,318,238,158,113,16,,56,46,34,31,5,7,1.1,0.9
2026-01-25T2200,4308A,107.3898,34.3601,宝鸡市,陈仓区北开路21号,细颗粒物(PM2.5),202,160,232,152,134,18,,49,43,40,53,6,11,0.8,0.9
2026-01-25T2200,1051A,115.4803,38.8568,保定市,游泳馆,细颗粒物(PM2.5),79,74,81,58,70,13,,32,28,58,54,6,6,0.6,0.8
2026-01-25T2200,1052A,115.509,38.8895,保定市,华电二区,细颗粒物(PM2.5),68,62,74,49,61,5,,28,22,52,48,4,5,0.1,0.2
2026-01-25T2200,1053A,115.4588,38.9037,保定市,接待中心,细颗粒物(PM2.5),67,73,80,48,61,23,,33,28,39,47,3,4,0.5,0.6
2026-01-25T2200,1054A,115.4484,38.8344,保定市,地表水厂,颗粒物(PM10),64,77,97,35,61,18,,29,24,51,53,6,7,0.6,0.8
2026-01-25T2200,3581A,115.3136,38.9511,保定市,满城区生态环境分局,细颗粒物(PM2.5),79,95,84,58,56,5,,44,25,60,44,4,4,0.9,0.8
2026-01-25T2200,3582A,115.4709,38.7628,保定市,清苑区第二中学,颗粒物(PM10),66,82,114,38,71,18,,25,20,47,57,8,8,0.6,0.8
2026-01-25T2200,3583A,115.6231,39.0223,保定市,徐水物探局,颗粒物(PM10),63,75,100,43,65,41,,47,37,32,48,9,9,0.6,0.9
2026-01-25T2200,4004A,115.4199,38.8665,保定市,双鹰农机,细颗粒物(PM2.5),78,92,100,57,62,18,,42,37,56,46,9,8,0.8,0.8
2026-01-25T2200,4034A,115.515,38.8589,保定市,植保所站,细颗粒物(PM2.5),75,85,85,55,64,6,,29,23,56,53,4,3,0.6,0.8
2026-01-25T2200,2594A,99.1589,25.1137,保山市,市环境监测站,,37,37,27,21,19,60,,85,78,9,9,4,5,0.4,0.3
2026-01-25T2200,2595A,99.1616,25.1381,保山市,市环保局,,42,,31,29,21,79,,87,84,4,6,4,4,0.5,0.5
2026-01-25T2200,1867A,109.1435,21.4085,北海市,海滩公园,,46,46,66,22,48,93,,110,108,12,20,8,9,0.7,0.8
2026-01-25T2200,1868A,109.0983,21.466,北海市,新市环保局,,40,40,57,27,49,95,,108,106,15,21,7,7,0.9,1.2
2026-01-25T2200,1869A,109.1775,21.5232,北海市,北海工业园,颗粒物(PM10),52,53,81,24,55,74,,104,92,20,25,6,9,0.4,0.7
2026-01-25T2200,3400A,109.1844,21.4396,北海市,龙潭自来水厂,,42,42,61,25,54,83,,107,104,14,17,7,8,0.9,1.1
2026-01-25T2200,1001A,116.3611,39.8786,北京市,万寿西宫,,37,37,40,20,25,47,,55,48,22,30,3,3,0.5,0.6
2026-01-25T2200,1003A,116.4174,39.9289,北京市,东四,,33,33,42,18,25,44,,46,44,24,34,6,6,0.3,0.5
2026-01-25T2200,1004A,116.4073,39.8858,北京市,天坛,,33,33,43,18,25,52,,50,50,19,29,3,4,0.8,1
2026-01-25T2200,1005A,116.4622,39.9364,北京市,农展馆,,37,37,48,20,28,53,,54,53,17,30,5,5,0.5,0.7
2026-01-25T2200,1006A,116.3399,39.9293,北京市,官园,,37,37,42,20,26,41,,54,44,26,28,5,6,0.4,0.6
2026-01-25T2200,1007A,116.2879,39.9613,北京市,海淀万柳,,37,37,41,21,26,36,,44,40,30,34,4,4,0.5,0.6
2026-01-25T2200,1008A,116.6635,40.1349,北京市,顺义新城,,45,45,40,20,22,45,,61,53,26,18,8,6,0.5,0.5
2026-01-25T2200,1009A,116.6275,40.327,北京市,怀柔镇,,42,42,29,22,18,38,,57,44,29,18,8,6,0.6,0.5
2026-01-25T2200,1010A,116.2295,40.217,北京市,昌平镇,颗粒物(PM10),54,58,46,34,26,18,,50,39,51,42,4,4,0.6,0.6
2026-01-25T2200,1011A,116.3968,39.982,北京市,奥体中心,,36,36,44,20,27,48,,53,49,29,40,5,6,0.5,0.7
2026-01-25T2200,3418A,116.8336,40.4095,北京市,密云新城,,47,47,27,23,16,47,,70,53,24,11,5,4,0.5,0.5
2026-01-25T2200,3671A,116.0879,39.9725,北京市,门头沟三家店,颗粒物(PM10),57,64,45,35,25,31,,45,40,37,36,4,4,0.6,0.6
2026-01-25T2200,3672A,116.1507,39.8246,北京市,丰台云岗,,39,39,38,22,24,49,,52,46,22,29,4,3,0.4,0.5
2026-01-25T2200,3674A,115.9578,39.7602,北京市,房山燕山,"颗粒物(PM10),细颗粒物(PM2.5)",57,64,44,40,26,29,,49,42,38,32,5,5,0.4,0.4
2026-01-25T2200,3675A,116.4669,39.7734,北京市,大兴旧宫,,32,32,48,14,25,51,,52,51,18,39,4,5,0.4,0.6
2026-01-25T2200,3694A,115.9859,40.4562,北京市,延庆石河营,细颗粒物(PM2.5),68,84,32,49,20,33,,56,45,39,18,4,4,0.8,0.5
2026-01-25T2200,3695A,116.6151,40.3052,北京市,怀柔新城,,42,42,31,22,19,40,,59,46,25,14,7,6,0.4,0.4
2026-01-25T2200,3696A,116.2542,39.8764,北京市,丰台小屯,,40,40,43,21,24,31,,42,37,33,33,4,4,0.5,0.6
2026-01-25T2200,3697A,116.8399,40.3843,北京市,密云镇,,42,42,27,21,14,50,,67,55,18,11,6,4,0.5,0.4
2026-01-25T2200,4057A,115.9423,40.4431,北京市,延庆百泉,细颗粒物(PM2.5),59,66,31,42,19,35,,54,38,29,15,2,2,0.8,0.5
2026-01-25T2200,4058A,116.6598,39.9164,北京市,通州新华,,38,38,54,15,30,35,,46,42,28,38,4,5,0.5,0.7
2026-01-25T2200,4182A,116.1942,39.9158,北京市,石景山八角,,40,40,43,21,25,37,,43,40,29,31,3,3,0.3,0.4
2026-01-25T2200,4194A,117.078628,40.151726,北京市,平谷新城,,41,41,50,21,33,49,,59,54,22,31,7,6,0.6,0.8
2026-01-25T2200,1761A,123.8274146,41.31234549,本溪市,大峪,细颗粒物(PM2.5),63,65,64,45,39,31,,56,44,40,41,10,8,1.1,1.2
2026-01-25T2200,1763A,123.7169,41.3094,本溪市,彩屯,细颗粒物(PM2.5),92,92,84,68,55,11,,51,34,62,45,10,9,1.6,1.2
2026-01-25T2200,1764A,123.7672166,41.28649327,本溪市,东明,细颗粒物(PM2.5),88,76,65,65,51,29,,55,46,50,44,9,8,1.3,1.2
2026-01-25T2200,1765A,123.799345,41.266614,本溪市,新立屯,细颗粒物(PM2.5),67,71,44,48,26,19,,57,41,49,39,10,10,1.0,1.1
2026-01-25T2200,1766A,123.829144,41.336777,本溪市,威宁,细颗粒物(PM2.5),82,94,80,60,43,4,,48,27,67,44,7,7,1.4,1.4
2026-01-25T2200,2587A,105.287,27.3133,毕节市,八中,,10,,31,6,28,31,,35,35,12,14,8,9,1.0,1
2026-01-25T2200,2588A,105.3079,27.2987,毕节市,师专,,11,8,36,3,27,34,,34,34,13,16,8,8,1.0,1.1
2026-01-25T2200,4263A,105.3688,27.3598,毕节市,工业大道,,11,6,32,3,25,35,,35,35,13,13,10,10,/,/
2026-01-25T2200,1629A,117.9961,37.3604,滨州市,第二水厂,,22,22,67,11,46,40,,60,53,22,27,8,10,0.7,0.8
2026-01-25T2200,1630A,117.9789,37.3931,滨州市,北中新校,,27,27,69,9,46,46,,64,59,22,26,4,6,0.5,0.6
2026-01-25T2200,3514A,117.9379,37.3959,滨州市,中海酒店,,,22,67,14,50,56,,71,66,,43,8,10,0.6,0.6
2026-01-25T2200,3515A,117.9381509,37.35547456,滨州市,开发区一中,,31,31,72,7,48,50,,66,60,15,24,9,11,0.5,0.7
2026-01-25T2200,3516A,118.0914,37.6938,滨州市,金海六路,,24,24,69,7,40,56,,78,70,18,22,3,3,0.4,0.5
2026-01-25T2200,4028A,117.9955,37.3752,滨州市,滨州市西街道办事处,,25,19,69,17,52,51,,66,60,18,26,7,10,0.5,0.7
2026-01-25T2200,2311A,115.8071,33.8399,亳州市,污水处理厂,细颗粒物(PM2.5),180,165,120,136,99,18,,64,60,52,29,5,5,1.1,0.6
2026-01-25T2200,2312A,115.7789,33.8519,亳州市,三国揽胜宫,细颗粒物(PM2.5),170,149,139,129,99,17,,66,61,55,30,6,5,1.3,0.8
2026-01-25T2200,3332A,115.7631,33.803,亳州市,亳州学院,细颗粒物(PM2.5),162,155,124,123,99,34,,69,67,40,22,5,4,1.1,1
2026-01-25T2200,2693A,82.0482,44.8553,博尔塔拉蒙古自治州,市党校,颗粒物(PM10),80,110,110,58,55,36,,60,56,39,25,4,4,1.1,1
2026-01-25T2200,2694A,82.0805,44.8966,博尔塔拉蒙古自治州,市环保局,颗粒物(PM10),94,138,124,67,58,29,,54,48,65,32,6,5,0.8,0.7
2026-01-25T2200,1071A,116.8733,38.2922,沧州市,沧县城建局,,41,41,83,16,61,58,,68,62,18,47,10,9,0.4,0.8
2026-01-25T2200,1072A,116.8462,38.3189,沧州市,电视转播站,,38,38,85,18,75,58,,67,61,18,49,7,6,0.4,0.8
2026-01-25T2200,1073A,116.8588,38.3161,沧州市,市环保局,,44,44,86,26,70,51,,59,54,15,44,9,9,0.4,0.8
2026-01-25T2200,3324A,116.8011,38.294,沧州市,河北水利电力学院,,24,24,79,16,66,50,,61,56,20,42,7,8,0.2,0.6
2026-01-25T2200,2622A,97.1813,31.1289,昌都市,昌都监测站,颗粒物(PM10),72,93,53,38,20,23,,76,64,47,26,4,4,1.2,0.8
2026-01-25T2200,3719A,97.1707,31.1428,昌都市,昌都会议中心,,25,25,21,14,12,60,,64,62,6,7,4,3,0.3,0.3
2026-01-25T2200,2692A,87.2722,44.0298,昌吉回族自治州,新区政务中心,细颗粒物(PM2.5),162,170,164,123,100,39,,58,52,45,47,8,9,1.1,1.3
2026-01-25T2200,3613A,87.3069,44.0093,昌吉回族自治州,亚心广场,细颗粒物(PM2.5),168,178,169,127,106,38,,64,62,39,39,7,8,1.3,1.3
2026-01-25T2200,4164A,87.2057,43.9289,昌吉回族自治州,财政所,细颗粒物(PM2.5),103,119,117,77,70,50,,63,62,15,21,4,5,0.8,0.9
2026-01-25T2200,1120A,125.2874,43.9024,长春市,客车厂,细颗粒物(PM2.5),110,96,58,83,51,17,,62,43,69,40,16,10,0.8,0.7
2026-01-25T2200,1121A,125.2943,43.8508,长春市,邮电学院,细颗粒物(PM2.5),107,93,54,80,44,34,,64,50,50,37,12,11,0.7,0.5
2026-01-25T2200,1122A,125.3648,43.8745,长春市,劳动公园,细颗粒物(PM2.5),82,72,58,60,42,40,,69,57,47,35,9,6,0.4,0.4
2026-01-25T2200,1123A,125.3233,43.8781,长春市,园林处,细颗粒物(PM2.5),105,85,52,79,44,42,,64,54,37,28,10,10,0.8,0.5
2026-01-25T2200,1124A,125.4604,43.7904,长春市,净月潭,细颗粒物(PM2.5),100,94,66,75,55,41,,60,55,34,34,6,6,0.8,0.8
2026-01-25T2200,1126A,125.38,43.8422,长春市,经开区环卫处,细颗粒物(PM2.5),92,112,65,68,48,6,,63,46,81,50,6,8,1.0,0.9
2026-01-25T2200,1127A,125.234,43.7761,长春市,高新区管委会,细颗粒物(PM2.5),138,136,81,105,62,14,,69,41,83,53,8,7,1.3,0.9
2026-01-25T2200,1128A,125.1695,43.83,长春市,岱山公园,细颗粒物(PM2.5),118,100,75,89,67,17,,61,41,65,43,7,6,0.8,0.8
2026-01-25T2200,4281A,125.334645,43.916281,长春市,北亚泰大街1068号,细颗粒物(PM2.5),89,90,63,66,51,7,,55,35,66,43,15,10,0.9,0.8
2026-01-25T2200,1335A,113.082,28.2421,长沙市,经开区环保局,细颗粒物(PM2.5),84,,70,62,59,6,,33,14,30,35,3,4,0.8,0.8
2026-01-25T2200,1336A,112.8873,28.2202,长沙市,高开区环保局,,48,42,75,33,63,14,,36,21,26,32,4,6,0.8,0.9
2026-01-25T2200,1337A,113.0785,28.2012,长沙市,马坡岭,细颗粒物(PM2.5),69,58,73,50,56,16,,44,24,25,32,4,6,1.0,1
2026-01-25T2200,1338A,112.9448,28.1894,长沙市,湖南师范大学,,48,48,70,29,49,20,,45,27,24,29,4,6,0.9,1
2026-01-25T2200,1339A,113.0177,28.1322,长沙市,雨花区环保局,细颗粒物(PM2.5),74,,66,54,56,12,,52,22,31,29,7,9,1.2,1.1
2026-01-25T2200,1340A,112.9795,28.2593,长沙市,伍家岭,,48,48,77,32,55,15,,27,24,25,34,4,6,0.9,1
2026-01-25T2200,1341A,113.002,28.1944,长沙市,火车新站,颗粒物(PM10),51,51,75,34,53,18,,40,28,28,36,1,3,1.1,1.1
2026-01-25T2200,1342A,112.9846,28.1177,长沙市,天心区环保局,细颗粒物(PM2.5),64,54,69,46,54,20,,57,29,28,27,5,7,0.8,0.8
2026-01-25T2200,1343A,112.8906,28.1307,长沙市,湖南中医药大学,细颗粒物(PM2.5),59,50,75,42,57,20,,27,22,25,44,5,7,0.9,1
2026-01-25T2200,1727A,113.1146,36.1547,长治市,清华站,细颗粒物(PM2.5),203,,124,153,145,46,,78,65,32,22,10,8,1.1,1.1
2026-01-25T2200,1730A,113.0887,36.2126,长治市,审计局,细颗粒物(PM2.5),213,,130,163,162,37,,78,68,54,27,6,6,0.9,1
2026-01-25T2200,1731A,113.0845,36.1856,长治市,长治八中,细颗粒物(PM2.5),217,,145,167,169,44,,75,61,30,17,8,7,1.1,1.2
2026-01-25T2200,2845A,113.1561,36.1912,长治市,德盛苑,细颗粒物(PM2.5),202,,114,152,152,60,,81,66,21,19,5,6,1.1,1.2
2026-01-25T2200,3568A,113.0603,36.0464,长治市,向阳小学,细颗粒物(PM2.5),217,169,147,167,141,40,,77,53,45,32,9,8,1.3,1.4
2026-01-25T2200,3569A,112.8788,36.315,长治市,屯留一中,细颗粒物(PM2.5),227,,153,177,166,51,,70,61,31,29,3,5,1.4,1.4
2026-01-25T2200,4189A,113.113092,36.199482,长治市,英华南巷50号,细颗粒物(PM2.5),192,,133,144,158,57,,77,66,25,22,5,5,1.2,1.2
2026-01-25T2200,4190A,113.23666,36.33435,长治市,学府街1号,细颗粒物(PM2.5),204,,146,154,175,53,,74,63,35,27,7,6,1.4,1.4
2026-01-25T2200,1854A,111.696,28.9725,常德市,市二中,,41,41,73,26,58,39,,37,34,19,24,4,6,1.1,1.1
2026-01-25T2200,3138A,111.7152,29.0288,常德市,武陵区永安,,45,45,72,29,61,43,,40,35,19,24,4,5,1.0,1.1
2026-01-25T2200,3139A,111.6891,28.9881,常德市,鼎城区玉霞,,43,37,69,30,65,42,,39,34,22,28,6,7,0.9,0.9
2026-01-25T2200,3140A,111.6651,29.0526,常德市,武陵区长庚,,37,37,75,23,62,44,,35,31,16,23,4,5,0.7,0.8
2026-01-25T2200,1196A,119.9524,31.7586,常州市,市监测站,,22,22,88,10,63,67,,67,67,20,52,6,6,0.2,0.5
2026-01-25T2200,1200A,119.9351,31.703,常州市,武进监测站,,27,27,86,18,62,58,,60,60,26,51,11,12,0.5,0.9
2026-01-25T2200,3002A,119.9701,31.813,常州市,行政中心,,32,32,88,17,60,63,,70,68,26,48,6,7,0.6,0.7
2026-01-25T2200,3003A,120.0434,31.7726,常州市,经开区,,25,25,102,12,58,69,,70,70,17,46,10,9,0.3,0.5
2026-01-25T2200,3010A,119.8919,31.7892,常州市,钟楼,,31,31,86,13,62,68,,67,67,19,47,8,9,0.5,0.7
2026-01-25T2200,3429A,119.8595,31.706,常州市,武进经发区,,27,27,91,15,70,55,,59,56,30,54,6,8,0.5,0.8
2026-01-25T2200,3430A,119.5812,31.7256,常州市,金坛城区,,25,25,93,16,76,60,,68,60,21,40,7,8,0.7,0.9
2026-01-25T2200,4089A,119.9551,31.863,常州市,崇义南街5-H号,,30,30,81,13,60,59,,67,64,21,41,5,6,0.6,0.8
2026-01-25T2200,2220A,120.4318,41.588,朝阳市,西梁,颗粒物(PM10),51,51,48,35,26,42,,70,61,30,35,10,10,0.7,0.7
2026-01-25T2200,2221A,120.452,41.565,朝阳市,河畔小区,,33,32,30,23,16,58,,70,67,15,26,13,7,0.6,0.8
2026-01-25T2200,2222A,120.4176,41.5648,朝阳市,八里堡,,46,42,40,32,23,51,,66,63,21,32,17,10,0.6,0.7
2026-01-25T2200,3026A,116.6179,23.6608,潮州市,市政府,细颗粒物(PM2.5),62,,35,44,33,50,,83,72,17,13,2,3,0.5,0.5
2026-01-25T2200,4036A,116.646,23.676,潮州市,金山,细颗粒物(PM2.5),64,,33,46,27,49,,86,72,21,18,2,3,0.7,0.5
2026-01-25T2200,2473A,113.0116,25.8228,郴州市,市职中,细颗粒物(PM2.5),114,112,72,86,55,0,,27,26,41,32,6,10,1.4,1.1
2026-01-25T2200,2475A,113.0381,25.8074,郴州市,市审计局,细颗粒物(PM2.5),140,160,94,107,67,0,,5,4,46,42,4,6,/,/
2026-01-25T2200,2476A,113.0348,25.7757,郴州市,市环保局,细颗粒物(PM2.5),77,99,83,56,54,0,,18,16,56,41,5,9,1.0,1.1
2026-01-25T2200,4252A,113.0138,25.8011,郴州市,好美居路49号,细颗粒物(PM2.5),94,78,70,70,60,5,,34,32,57,42,13,6,/,/
2026-01-25T2200,1431A,103.9727,30.7242,成都市,金泉两河,细颗粒物(PM2.5),93,83,85,69,67,4,,48,39,68,39,2,2,1.0,0.7
2026-01-25T2200,1432A,104.1423,30.6765,成都市,十里店,细颗粒物(PM2.5),83,114,94,61,66,17,,53,47,60,39,4,3,0.7,0.7
2026-01-25T2200,1433A,104.0594,30.5765,成都市,三瓦窑,细颗粒物(PM2.5),109,105,80,82,62,15,,48,41,64,38,3,3,0.9,0.7
2026-01-25T2200,1434A,104.1122,30.6306,成都市,沙河铺,细颗粒物(PM2.5),97,102,85,72,69,13,,43,35,63,46,3,3,0.9,0.8
2026-01-25T2200,2880A,104.0219,30.6561,成都市,大石西路,细颗粒物(PM2.5),97,107,93,72,64,2,,49,,70,33,4,4,1.6,1.1
2026-01-25T2200,3136A,104.2724,30.559,成都市,龙泉驿区区政府,,,92,74,73,58,19,,41,38,35,29,,6,1.2,0.8
2026-01-25T2200,3357A,104.0028,30.6891,成都市,金博路,细颗粒物(PM2.5),94,89,81,70,62,14,,46,38,52,38,4,4,0.9,0.8
2026-01-25T2200,3359A,104.056,30.5228,成都市,华阳,细颗粒物(PM2.5),89,80,71,66,51,10,,48,40,65,36,2,2,0.9,0.7
2026-01-25T2200,3488A,104.387954,30.746684,成都市,青石路225号,颗粒物(PM10),66,81,90,38,63,4,,43,38,60,38,5,5,0.8,0.8
2026-01-25T2200,3489A,104.0788,30.4054,成都市,科学城,细颗粒物(PM2.5),78,75,72,57,58,20,,39,36,38,26,6,6,0.8,0.7
2026-01-25T2200,4011A,103.8505,30.6946,成都市,光华大道三段,细颗粒物(PM2.5),120,114,91,91,69,8,,50,44,59,38,3,3,1.0,0.8
2026-01-25T2200,4144A,104.3257,30.6406,成都市,八角井街185号,颗粒物(PM10),74,98,101,49,64,13,,39,35,48,33,2,3,1.2,1.1
2026-01-25T2200,4224A,104.2433276,30.53529463,成都市,鲸龙路1057号,细颗粒物(PM2.5),97,100,71,72,55,17,,44,40,42,31,5,5,0.8,0.7
2026-01-25T2200,1062A,117.9531,40.908,承德市,铁路,颗粒物(PM10),56,61,32,38,18,12,,55,29,47,25,15,8,1.1,0.5
2026-01-25T2200,1063A,117.9397,40.9763,承德市,中国银行,颗粒物(PM10),52,54,27,25,10,18,,67,47,42,20,6,3,0.8,0.5
2026-01-25T2200,4073A,117.9462,40.95,承德市,杏林街1号,,48,42,21,33,15,32,,68,51,28,13,15,6,0.7,0.4
2026-01-25T2200,4274A,117.7994,40.9605,承德市,滨河大街98号,,43,33,28,30,12,50,,62,56,17,15,10,7,0.6,0.4
2026-01-25T2200,2314A,117.4698,30.6617,池州市,池州学院,细颗粒物(PM2.5),162,144,128,123,111,10,,36,14,69,51,11,7,1.3,1.1
2026-01-25T2200,3237A,117.4918,30.6617,池州市,展览馆,细颗粒物(PM2.5),170,161,131,129,105,10,,33,13,60,47,6,5,1.2,1.1
2026-01-25T2200,3333A,117.5626,30.695,池州市,第八中学,细颗粒物(PM2.5),148,146,132,113,104,13,,32,16,55,48,6,6,1.2,1
2026-01-25T2200,3334A,117.5037,30.6242,池州市,第十二中学,细颗粒物(PM2.5),148,139,120,113,96,11,,29,14,62,53,6,4,1.4,1.2
2026-01-25T2200,1744A,118.9229,42.2816,赤峰市,松山一中,颗粒物(PM10),55,60,46,25,18,17,,37,26,52,42,12,20,1.1,1.1
2026-01-25T2200,1745A,118.9588,42.2733,赤峰市,哈达街,颗粒物(PM10),61,71,47,43,23,2,,34,13,62,36,137,44,1.3,1.1
2026-01-25T2200,1746A,118.8792,42.2551,赤峰市,天义路,细颗粒物(PM2.5),58,51,28,41,22,15,,49,28,56,35,18,33,1.0,0.9
2026-01-25T2200,3058A,119.2656,42.0356,赤峰市,银河街,细颗粒物(PM2.5),77,99,61,56,32,36,,62,53,31,23,22,22,1.2,1.1
2026-01-25T2200,3286A,118.9359,42.3146,赤峰市,桥北物流园区,,25,25,35,17,24,46,,50,44,24,31,13,17,0.9,0.8
2026-01-25T2200,2521A,107.3473,22.4137,崇左市,市环保局江州分局,细颗粒物(PM2.5),107,104,72,80,60,8,,22,21,38,22,8,7,1.3,0.9
2026-01-25T2200,4256A,107.375,22.3736,崇左市,石景林东路7号,细颗粒物(PM2.5),119,94,67,90,69,7,,25,20,45,27,3,2,1.1,0.7
2026-01-25T2200,3207A,118.31131,32.3033,滁州市,市政府原办公楼,,35,34,95,24,77,55,,60,58,18,44,4,5,0.2,0.6
2026-01-25T2200,3331A,118.3268,32.2633,滁州市,图书馆,,35,35,94,16,68,50,,57,55,17,44,6,8,0.3,0.7
2026-01-25T2200,4101A,118.3196,32.3335,滁州市,银山路666号,,36,25,83,25,92,58,,66,65,11,31,2,4,0.3,0.6
2026-01-25T2200,4102A,118.3426,32.2979,滁州市,黄山路555号,,36,34,104,25,87,52,,66,62,20,44,14,15,0.6,0.9
2026-01-25T2200,2606A,101.5379,25.0492,楚雄彝族自治州,市经济开发区,,26,26,23,12,14,66,,74,70,9,20,3,3,0.5,0.5
2026-01-25T2200,4153A,101.5536,25.0343,楚雄彝族自治州,团结路562号,,22,20,22,10,14,69,,74,71,4,18,3,4,0.3,0.4
2026-01-25T2200,2549A,107.5087,31.2186,达州市,市环境监测站,细颗粒物(PM2.5),94,99,84,70,56,5,,13,6,47,43,7,9,1.0,0.8
2026-01-25T2200,2550A,107.4988,31.2132,达州市,凤凰小区,细颗粒物(PM2.5),98,95,85,73,58,3,,12,5,47,44,4,8,0.6,0.5
2026-01-25T2200,2551A,107.5081,31.1987,达州市,达县机关宾馆,细颗粒物(PM2.5),102,,86,76,58,3,,10,7,49,48,3,7,1.1,1.1
2026-01-25T2200,2552A,107.4644,31.2124,达州市,市政中心,细颗粒物(PM2.5),122,130,87,92,54,7,,17,12,48,44,6,9,0.7,0.7
2026-01-25T2200,2614A,100.2168,25.5818,大理白族自治州,大理市环境监测站,,39,,23,27,21,69,,73,73,11,8,6,6,0.5,0.5
2026-01-25T2200,2615A,100.1542,25.7055,大理白族自治州,大理古城,,46,34,24,32,16,43,,87,80,29,10,8,8,1.0,0.8
2026-01-25T2200,1109A,121.6119,38.974,大连市,甘井子,颗粒物(PM10),53,56,44,25,21,52,,80,70,30,20,8,9,0.8,0.5
2026-01-25T2200,1110A,121.565,38.9509,大连市,周水子,,31,31,36,20,21,59,,69,63,15,21,6,16,0.4,0.4
2026-01-25T2200,1111A,121.5637,38.8849,大连市,星海三站,,32,28,32,22,21,56,,68,63,20,19,7,9,0.6,0.6
2026-01-25T2200,1112A,121.6301,38.9117,大连市,青泥洼桥,,35,34,19,24,22,51,,66,58,23,18,12,11,0.5,0.5
2026-01-25T2200,1113A,121.6248,38.8643,大连市,傅家庄,颗粒物(PM10),71,92,64,19,18,49,,58,52,24,20,11,9,0.5,0.6
2026-01-25T2200,1114A,121.5117,38.8636,大连市,七贤岭,,28,28,34,16,18,62,,65,64,8,13,6,8,0.5,0.6
2026-01-25T2200,1116A,121.7507,39.1339,大连市,金州,,39,39,35,27,26,51,,76,67,26,21,12,12,0.6,0.4
2026-01-25T2200,1117A,121.7811,39.0495,大连市,开发区,,39,33,30,27,19,42,,76,64,32,13,4,4,0.4,0.2
2026-01-25T2200,1118A,121.9762,39.0631,大连市,双D港,,,,37,,22,,,76,70,,15,,10,,0.5
2026-01-25T2200,4082A,121.2548,38.8188,大连市,旅顺,,35,31,26,24,16,57,,67,60,15,14,8,9,0.9,0.6
2026-01-25T2200,1789A,124.8085,46.0381,大庆市,大同区,细颗粒物(PM2.5),94,92,41,70,20,45,,70,55,34,17,11,6,1.4,0.8
2026-01-25T2200,1790A,125.1166,46.5255,大庆市,龙凤区,细颗粒物(PM2.5),57,54,31,40,17,20,,57,49,57,24,14,18,0.9,0.4
2026-01-25T2200,1791A,124.8894,46.4007,大庆市,红岗区,,40,40,30,14,16,35,,56,47,30,16,4,5,0.5,0.5
2026-01-25T2200,1792A,125.1391,46.578,大庆市,萨尔图区,颗粒物(PM10),55,60,30,21,13,31,,54,46,46,23,11,8,0.7,0.6
2026-01-25T2200,1793A,124.9026,46.6217,大庆市,让胡路区,,40,39,26,28,16,51,,74,64,32,14,8,7,0.6,0.4
2026-01-25T2200,3481A,125.127,46.6277,大庆市,萨区政府监测点,,36,36,27,22,12,37,,64,54,38,17,9,8,0.7,0.6
2026-01-25T2200,1723A,113.2926,40.0759,大同市,云冈宾馆,细颗粒物(PM2.5),147,167,82,112,48,22,,47,41,55,37,23,14,1.5,1.2
2026-01-25T2200,1724A,113.3437,40.0921,大同市,大同大学,细颗粒物(PM2.5),156,149,70,119,44,29,,62,51,46,27,16,12,1.3,0.9
2026-01-25T2200,1725A,113.2637,40.129,大同市,安家小村,细颗粒物(PM2.5),139,171,104,106,55,24,,54,46,46,41,19,17,1.3,1.8
2026-01-25T2200,3282A,113.3399,40.0586,大同市,大同市卫生学校,细颗粒物(PM2.5),149,170,69,114,42,26,,62,52,54,29,12,10,1.3,0.8
2026-01-25T2200,3565A,113.1371,40.1122,大同市,云冈站,细颗粒物(PM2.5),147,156,101,112,52,18,,44,37,50,44,8,13,1.2,1
2026-01-25T2200,3566A,113.1186,40.2556,大同市,图书馆,细颗粒物(PM2.5),153,160,82,117,54,19,,53,41,50,32,9,11,1.4,1.1
2026-01-25T2200,3567A,113.5931,40.0459,大同市,区一中,细颗粒物(PM2.5),147,116,65,112,45,34,,66,52,34,17,10,10,2.3,1.6
2026-01-25T2200,4199A,113.2798248,40.09972476,大同市,魏都大道141号,细颗粒物(PM2.5),172,178,100,130,57,21,,54,44,58,45,18,13,1.2,1.3
2026-01-25T2200,2269A,124.1068,50.4091,大兴安岭地区,科技局,,29,29,19,18,8,60,,69,64,5,3,5,4,0.2,0.2
2026-01-25T2200,3663A,124.117,50.4279,大兴安岭地区,红旗社区,,21,,14,13,14,66,,70,60,5,10,5,5,0.4,0.4
2026-01-25T2200,1600A,124.33,40.0625,丹东市,江湾东路,颗粒物(PM10),51,51,35,29,18,40,,64,49,34,19,10,8,0.8,0.7
2026-01-25T2200,1601A,124.4242,40.1513,丹东市,临江后街,,45,42,28,31,15,48,,65,59,23,13,7,6,0.8,0.6
2026-01-25T2200,1602A,124.3935,40.1461,丹东市,元宝山,,46,40,26,32,14,39,,66,62,30,13,13,11,0.5,0.3
2026-01-25T2200,1603A,124.3634,40.1093,丹东市,民主桥,,42,42,39,23,20,49,,65,50,24,20,12,10,0.7,0.7
2026-01-25T2200,3541A,109.5726195,19.51688767,儋州市,第一中学子站,,23,23,17,9,7,67,,72,72,5,5,4,4,0.5,0.5
2026-01-25T2200,3542A,109.5567,19.5187,儋州市,东坡学校子站,,25,20,20,8,6,80,,85,83,4,4,4,3,0.5,0.5
2026-01-25T2200,2616A,98.5611,24.4273,德宏傣族景颇族自治州,德宏州监测站,细颗粒物(PM2.5),89,96,54,66,44,33,,78,68,37,25,7,7,1.1,0.7
2026-01-25T2200,3677A,98.5887,24.4366,德宏傣族景颇族自治州,芒市人民政府综合楼,颗粒物(PM10),71,92,68,35,29,47,,76,71,16,15,4,4,0.5,0.6
2026-01-25T2200,1901A,104.424,31.1209,德阳市,东山公园,颗粒物(PM10),69,87,85,37,59,43,,52,52,17,23,1,1,0.7,0.8
2026-01-25T2200,1902A,104.3827,31.1318,德阳市,西小区,颗粒物(PM10),95,140,95,56,61,3,,52,44,58,29,3,3,1.0,0.9
2026-01-25T2200,1904A,104.3553,31.1091,德阳市,耐火材料厂,颗粒物(PM10),98,145,91,53,65,7,,47,40,55,34,2,2,0.8,0.8
2026-01-25T2200,4145A,104.4144,31.1495,德阳市,市林业局,颗粒物(PM10),77,104,87,42,63,1,,51,41,63,31,4,3,1.0,0.8
2026-01-25T2200,1622A,116.3034,37.4675,德州市,儿童乐园,,46,46,116,24,83,58,,62,62,23,47,13,19,0.8,1.2
2026-01-25T2200,1624A,116.2992,37.4449,德州市,监理站,颗粒物(PM10),51,51,118,14,78,67,,70,70,26,48,12,18,0.5,0.9
2026-01-25T2200,3066A,116.2722,37.438,德州市,九衢泉纯净水厂,,41,41,108,19,76,57,,62,61,23,44,9,14,0.7,1.1
2026-01-25T2200,3371A,116.3693,37.44,德州市,开发区人民医院,,48,48,118,24,78,64,,68,67,31,52,13,18,0.5,0.9
2026-01-25T2200,3511A,116.5687,37.3331,德州市,陵城艺术中心,,44,44,108,19,76,45,,56,54,27,45,17,23,0.5,0.9
2026-01-25T2200,4292A,116.352738,37.420875,德州市,新河东路,,41,41,99,24,76,54,,62,61,26,42,14,18,0.6,0.9
2026-01-25T2200,2621A,99.7054,27.8319,迪庆藏族自治州,迪庆州站,,33,23,33,23,24,77,,84,80,7,10,4,5,0,0.1
2026-01-25T2200,3180A,99.7122,27.8129,迪庆藏族自治州,质量技术监督局,,29,22,25,20,17,84,,87,85,8,11,5,5,0.5,0.5
2026-01-25T2200,4257A,104.6092,35.5962,定西市,将台街,颗粒物(PM10),500,688,632,146,136,30,,67,51,33,16,16,10,0.6,0.5
2026-01-25T2200,4309A,104.6159,35.5701,定西市,正龙路62号,颗粒物(PM10),500,764,717,149,130,30,,63,51,25,12,13,6,0.7,0.6
2026-01-25T2200,1390A,113.7943,23.0132,东莞市,东城石井,,47,47,65,22,41,44,,163,127,53,49,6,6,0.6,0.7
2026-01-25T2200,1391A,113.7384,22.9659,东莞市,南城西平,颗粒物(PM10),53,56,66,32,42,41,,154,119,62,62,6,6,0.7,0.7
2026-01-25T2200,3319A,113.7283,23.041,东莞市,万江金泰,颗粒物(PM10),61,71,86,35,55,25,,176,137,98,58,6,6,1.0,1
2026-01-25T2200,4129A,113.8666,23.1062,东莞市,裕兴路,颗粒物(PM10),79,108,84,48,40,35,,152,128,94,49,5,7,1.1,0.9
2026-01-25T2200,4130A,114.0076,22.9739,东莞市,教育路1号,颗粒物(PM10),72,93,61,42,36,17,,159,120,108,41,6,5,0.9,0.7
2026-01-25T2200,4131A,113.7981,22.8124,东莞市,长怡路1号,颗粒物(PM10),52,54,62,26,32,18,,113,77,74,51,7,6,0.8,0.7
2026-01-25T2200,1666A,118.6612,37.4313,东营市,市环保局,,22,17,51,7,31,68,,76,71,21,26,6,8,0.5,0.7
2026-01-25T2200,3036A,118.6903,37.4337,东营市,开发区管委会,,22,21,52,3,32,68,,77,73,13,18,6,6,0.3,0.5
2026-01-25T2200,3365A,118.5721,37.5654,东营市,垦利区民丰路,,20,17,51,7,34,64,,79,70,15,21,6,6,0.4,0.6
2026-01-25T2200,3498A,118.5063,37.8606,东营市,河口城区,,22,7,61,3,34,69,,74,69,15,24,2,4,0.5,0.7
2026-01-25T2200,3646A,118.4979,37.4623,东营市,胜利站,,20,13,61,12,40,61,,72,66,17,24,6,7,0.6,0.6
2026-01-25T2200,3734A,118.5753,37.4405,东营市,理想之城,,19,19,59,7,40,54,,67,60,15,23,3,4,0.5,0.6
2026-01-25T2200,1591A,110.0024,39.8127,鄂尔多斯市,综合楼,颗粒物(PM10),180,310,245,41,44,72,,72,72,10,35,4,11,0.4,0.6
2026-01-25T2200,1592A,109.9485,39.8259,鄂尔多斯市,巴音孟克林场办事处,颗粒物(PM10),158,266,210,41,42,69,,73,73,12,32,5,11,0.4,0.6
2026-01-25T2200,1593A,109.7734,39.5987,鄂尔多斯市,康泽苑,颗粒物(PM10),153,256,204,43,45,73,,78,78,10,33,8,12,0.4,0.6
2026-01-25T2200,1594A,109.8121,39.5987,鄂尔多斯市,华泰汽车城,颗粒物(PM10),152,254,197,43,40,77,,79,79,9,34,5,8,0.4,0.7
2026-01-25T2200,1595A,109.9734,39.7884,鄂尔多斯市,奥林花园,颗粒物(PM10),185,320,221,39,42,69,,68,68,10,35,2,10,0.4,0.7
2026-01-25T2200,2436A,114.894,30.3989,鄂州市,市政府,细颗粒物(PM2.5),87,,60,64,52,18,,50,20,28,28,4,7,0.7,0.6
2026-01-25T2200,2437A,114.8986,30.3714,鄂州市,赵家坝,细颗粒物(PM2.5),83,70,66,61,55,23,,56,28,17,18,7,9,1.0,0.9
2026-01-25T2200,3654A,114.8093,30.4091,鄂州市,精准医疗中心,细颗粒物(PM2.5),104,,66,78,58,26,,47,33,20,26,24,23,0.8,1.1
2026-01-25T2200,2454A,109.4978,30.2979,恩施土家族苗族自治州,湖北民院,细颗粒物(PM2.5),82,,59,60,58,4,,28,14,30,20,6,6,1.2,1
2026-01-25T2200,3549A,109.5061,30.3771,恩施土家族苗族自治州,龙凤新区,细颗粒物(PM2.5),73,58,60,53,51,0,,19,6,24,22,7,7,1.0,0.8
2026-01-25T2200,2499A,108.3411,21.6159,防城港市,沙万,颗粒物(PM10),57,64,76,30,49,33,,40,40,46,37,7,7,1.3,1.2
2026-01-25T2200,2500A,108.3515,21.7733,防城港市,防城档案局,细颗粒物(PM2.5),65,74,84,47,59,5,,11,8,31,29,5,5,1.2,1.1
2026-01-25T2200,2501A,108.3506,21.6414,防城港市,大海花园,,47,47,70,32,50,48,,69,69,46,32,6,7,1.0,1
2026-01-25T2200,1371A,113.1293,23.0065,佛山市,湾梁,细颗粒物(PM2.5),99,146,98,74,58,68,,141,123,54,62,/,/,/,/
2026-01-25T2200,1372A,113.1082,23.0477,佛山市,华材职中,细颗粒物(PM2.5),144,153,132,110,90,65,,141,124,61,68,6,7,0.9,1
2026-01-25T2200,1373A,113.1439,23.045,佛山市,南海气象局,细颗粒物(PM2.5),82,83,90,60,57,87,,144,132,54,71,/,/,/,/
2026-01-25T2200,1374A,113.2879,22.8094,佛山市,顺德苏岗,颗粒物(PM10),52,54,66,29,50,41,,125,104,42,56,/,/,1.0,1
2026-01-25T2200,1376A,112.8384,22.8678,佛山市,高明孔堂,细颗粒物(PM2.5),139,159,116,106,78,78,,123,123,51,67,/,/,/,/
2026-01-25T2200,1377A,112.8835,23.1584,佛山市,三水监测站,细颗粒物(PM2.5),160,227,136,122,86,9,,91,76,146,79,8,6,1.4,1.1
2026-01-25T2200,1378A,112.8668,23.185,佛山市,三水云东海,细颗粒物(PM2.5),166,195,109,126,73,3,,93,75,141,71,/,/,/,/
2026-01-25T2200,3625A,113.2568,22.7629,佛山市,容桂街道办,颗粒物(PM10),52,53,89,34,58,32,,115,100,78,68,/,/,/,/
2026-01-25T2200,1282A,119.2681,26.0506,福州市,师大,细颗粒物(PM2.5),59,61,43,42,26,39,,70,60,40,31,3,4,1.0,0.9
2026-01-25T2200,1283A,119.2983,26.1028,福州市,五四北路,,45,45,33,30,23,34,,77,58,40,23,4,5,0.9,0.8
2026-01-25T2200,1284A,119.2648,26.0769,福州市,杨桥西路,颗粒物(PM10),55,60,39,35,27,13,,72,54,57,25,4,5,/,/
2026-01-25T2200,3048A,119.5799,26.0937,福州市,九龙,,24,21,32,16,23,76,,80,79,18,22,4,6,0.8,0.8
2026-01-25T2200,3526A,119.5188,25.9666,福州市,吴航,,47,47,42,26,25,43,,81,73,44,27,8,7,0.7,0.7
2026-01-25T2200,4104A,119.3106,26.0648,福州市,路通桥巷6号,颗粒物(PM10),57,64,44,36,28,20,,69,60,51,25,/,/,/,/
2026-01-25T2200,1755A,123.7974,41.8494,抚顺市,望花区,细颗粒物(PM2.5),104,113,101,78,68,10,,48,30,64,50,9,7,1.1,1.2
2026-01-25T2200,1756A,123.9161,41.8827,抚顺市,顺城区,细颗粒物(PM2.5),142,118,99,108,80,7,,47,34,69,53,10,10,1.4,1.3
2026-01-25T2200,1757A,124.0437,41.8615,抚顺市,东洲区,细颗粒物(PM2.5),133,158,84,101,54,10,,59,42,69,35,30,11,1.4,0.9
2026-01-25T2200,1758A,123.9246,41.8638,抚顺市,新抚区,细颗粒物(PM2.5),132,147,100,100,73,7,,49,33,65,51,6,6,1.3,1
2026-01-25T2200,1759A,124.0972,41.8961,抚顺市,大伙房水库,细颗粒物(PM2.5),70,66,59,51,42,40,,57,50,24,30,8,10,1.0,0.9
2026-01-25T2200,1760A,123.708,41.8386,抚顺市,沈抚新城,细颗粒物(PM2.5),107,104,86,80,56,8,,45,27,79,55,10,9,1.0,1
2026-01-25T2200,2377A,116.3544,27.9833,抚州市,市站,细颗粒物(PM2.5),80,78,73,59,55,70,,75,75,23,26,9,12,1.0,1
2026-01-25T2200,2378A,116.3562,27.9631,抚州市,血防站,细颗粒物(PM2.5),80,72,73,59,53,65,,70,70,29,32,8,10,1.7,1.6
2026-01-25T2200,2379A,116.3561,28.0007,抚州市,采茶剧团,细颗粒物(PM2.5),70,78,72,51,55,65,,72,72,14,22,8,10,1.5,1.4
2026-01-25T2200,2380A,116.3854,27.9648,抚州市,医学分院,细颗粒物(PM2.5),74,88,79,54,51,67,,74,74,20,29,24,14,1.2,1.2
2026-01-25T2200,2207A,121.6095,41.9978,阜新市,工业园区,颗粒物(PM10),52,53,37,25,8,30,,69,55,32,16,19,11,0.6,0.4
2026-01-25T2200,2208A,121.6567,42.0188,阜新市,长青街,,49,49,14,34,6,42,,78,66,20,7,19,8,0.6,0.3
2026-01-25T2200,2209A,121.6672,42.07,阜新市,农业园区,细颗粒物(PM2.5),57,60,21,40,8,28,,68,56,32,9,11,8,0.5,0.3
2026-01-25T2200,2211A,121.6343,42.0455,阜新市,玉龙新城,细颗粒物(PM2.5),58,58,26,41,6,16,,69,52,45,16,11,7,0.8,0.5
2026-01-25T2200,2301A,115.8276,32.8929,阜阳市,市监测站,细颗粒物(PM2.5),128,113,122,97,99,45,,52,52,29,29,5,4,0.8,0.7
2026-01-25T2200,2303A,115.8551,32.8606,阜阳市,开发区,细颗粒物(PM2.5),112,103,109,84,92,45,,53,53,36,31,5,5,0.5,0.6
2026-01-25T2200,2875A,115.783962,32.889217,阜阳市,阜阳职业技术学院,细颗粒物(PM2.5),113,104,109,85,89,50,,59,59,25,24,7,7,1.0,0.9
2026-01-25T2200,3468A,115.79,32.8614,阜阳市,市规划展馆,细颗粒物(PM2.5),127,108,123,96,102,52,,60,60,26,25,5,6,0.8,0.7
2026-01-25T2200,3469A,115.835101,32.918568,阜阳市,枣园社区,细颗粒物(PM2.5),132,113,124,100,101,46,,55,55,26,26,5,5,0.9,0.8
2026-01-25T2200,2669A,102.9097,34.9841,甘南藏族自治州,州政府,颗粒物(PM10),141,231,147,73,57,56,,69,66,19,27,8,12,0.8,1
2026-01-25T2200,3380A,102.8915,34.9618,甘南藏族自治州,甘肃民族师范学院,颗粒物(PM10),170,289,166,89,59,53,,71,68,20,31,8,11,0.3,0.5
2026-01-25T2200,2570A,101.96,30.048,甘孜藏族自治州,水桥子,,17,17,23,8,10,48,,73,64,5,18,6,7,0.7,0.5
2026-01-25T2200,3065A,101.9534,29.9976,甘孜藏族自治州,州环保局,,16,16,21,6,8,51,,81,71,10,10,6,6,0.9,0.6
2026-01-25T2200,2363A,114.9368,25.8663,赣州市,地委,细颗粒物(PM2.5),78,94,84,57,44,11,,68,58,88,47,7,8,1.8,1.3
2026-01-25T2200,2364A,114.946,25.8483,赣州市,气象台,颗粒物(PM10),133,215,89,68,41,4,,69,46,113,62,8,7,1.6,0.9
2026-01-25T2200,2365A,114.932,25.8332,赣州市,市图书馆,颗粒物(PM10),109,168,88,74,48,4,,49,41,94,54,5,5,2.0,1.2
2026-01-25T2200,2366A,114.8905,25.8472,赣州市,华坚鞋城,"颗粒物(PM10),细颗粒物(PM2.5)",98,146,86,73,45,5,,64,56,95,49,10,10,1.7,0.9
2026-01-25T2200,3109A,115.0094,25.8614,赣州市,赣县区卫计委,细颗粒物(PM2.5),119,114,70,90,55,,,51,51,,47,,7,,0.9
2026-01-25T2200,2684A,106.2753,36.0057,固原市,监测站,颗粒物(PM10),333,446,760,103,103,52,,75,66,17,9,7,6,0.6,0.5
2026-01-25T2200,2685A,106.2384,36.0189,固原市,新区,颗粒物(PM10),298,418,727,95,91,50,,78,67,18,7,7,6,0.7,0.5
2026-01-25T2200,2544A,106.6307,30.4577,广安市,市委,细颗粒物(PM2.5),89,82,72,66,61,25,,46,29,24,22,9,9,0.9,0.9
2026-01-25T2200,2545A,106.6266,30.4662,广安市,友谊中学,细颗粒物(PM2.5),94,78,64,70,58,24,,46,29,24,23,6,6,0.9,0.8
2026-01-25T2200,2547A,106.6386,30.4551,广安市,广电花园,细颗粒物(PM2.5),93,88,69,69,61,25,,43,28,21,19,5,5,0.8,0.8
2026-01-25T2200,2902A,106.6347,30.4868,广安市,北辰小学,细颗粒物(PM2.5),97,,66,72,59,24,,46,29,21,21,4,5,1.2,1.1
2026-01-25T2200,2524A,105.8211,32.4444,广元市,老城,颗粒物(PM10),170,289,134,77,50,7,,49,35,63,38,1,2,0.9,0.8
2026-01-25T2200,2526A,105.8629,32.429,广元市,监测站,颗粒物(PM10),165,279,146,71,49,30,,49,42,29,30,5,5,0.8,0.9
2026-01-25T2200,3617A,105.8047,32.4167,广元市,经开区,颗粒物(PM10),181,311,130,68,44,4,,40,29,50,35,1,2,0.9,0.8
2026-01-25T2200,1345A,113.2346,23.1423,广州市,广雅中学,细颗粒物(PM2.5),88,114,91,65,49,26,,139,117,108,67,4,3,1.7,1.5
2026-01-25T2200,1346A,113.2611,23.105,广州市,市五中,细颗粒物(PM2.5),84,101,77,62,42,55,,178,158,84,66,8,9,/,/
2026-01-25T2200,1348A,113.3477,23.0916,广州市,广东商学院,细颗粒物(PM2.5),97,118,79,72,52,18,,168,142,127,65,6,7,1.1,0.9
2026-01-25T2200,1349A,113.4332,23.105,广州市,市八十六中,细颗粒物(PM2.5),98,113,73,73,44,29,,177,141,118,70,8,9,/,/
2026-01-25T2200,1350A,113.3506,22.9488,广州市,番禺中学,颗粒物(PM10),72,94,102,37,45,34,,149,117,68,59,3,4,1.0,0.9
2026-01-25T2200,1351A,113.2147,23.3918,广州市,花都师范,细颗粒物(PM2.5),97,103,81,72,51,38,,124,115,94,65,6,6,1.1,0.9
2026-01-25T2200,1352A,113.2599,23.1329,广州市,市监测站,细颗粒物(PM2.5),93,121,93,69,55,35,,153,131,106,66,2,3,/,/
2026-01-25T2200,1353A,113.5618,23.3119,广州市,九龙镇镇龙,细颗粒物(PM2.5),84,112,79,62,48,67,,151,131,56,43,6,6,0.7,0.7
2026-01-25T2200,1354A,113.2764,23.1544,广州市,麓湖,细颗粒物(PM2.5),79,81,68,58,46,61,,148,122,49,56,8,9,0.6,0.9
2026-01-25T2200,2846A,113.3209,23.1323,广州市,体育西,,,128,86,74,51,56,,166,,75,64,,8,1.1,1
2026-01-25T2200,3298A,113.5718,23.5493,广州市,从化街口,细颗粒物(PM2.5),73,78,67,53,46,43,,126,111,62,39,11,10,0.8,0.7
2026-01-25T2200,3299A,113.3463,23.369,广州市,白云竹料,"颗粒物(PM10),细颗粒物(PM2.5)",69,88,91,50,51,50,,142,124,55,52,4,4,1.0,1
2026-01-25T2200,3300A,113.2981,23.2365,广州市,白云嘉禾,细颗粒物(PM2.5),89,117,87,66,51,40,,151,131,87,61,6,6,/,/
2026-01-25T2200,3301A,113.4256,23.1716,广州市,黄埔科学城,,,100,70,,42,77,,184,163,62,51,2,4,0.7,0.6
2026-01-25T2200,3302A,113.3942,23.0485,广州市,番禺大学城,颗粒物(PM10),104,157,96,74,48,63,,185,161,76,62,8,9,0.8,0.7
2026-01-25T2200,3303A,113.4923,22.8169,广州市,南沙黄阁,颗粒物(PM10),53,56,42,19,45,12,,148,109,92,57,5,5,/,/
2026-01-25T2200,3304A,113.534,22.7893,广州市,南沙街,,34,34,69,13,39,74,,136,112,30,44,4,6,0.6,0.7
2026-01-25T2200,3443A,113.2905,23.5541,广州市,花都梯面,颗粒物(PM10),57,63,56,31,36,2,,95,72,61,30,4,5,/,/
2026-01-25T2200,3445A,113.786,23.7479,广州市,从化良口,,48,42,35,33,29,67,,117,106,25,21,8,8,/,/
2026-01-25T2200,3446A,113.805,23.2614,广州市,增城荔城,"颗粒物(PM10),细颗粒物(PM2.5)",62,74,60,44,40,52,,142,121,47,33,5,6,0.9,0.7
2026-01-25T2200,2506A,109.604387,23.066791,贵港市,江南子站,细颗粒物(PM2.5),92,90,77,68,64,48,,70,68,36,24,8,6,1.1,1.1
2026-01-25T2200,2508A,109.5669,23.1065,贵港市,荷城子站,细颗粒物(PM2.5),92,83,66,68,52,57,,68,68,28,24,7,7,1.1,1.1
2026-01-25T2200,3405A,109.5886,23.1172,贵港市,新世纪学校,细颗粒物(PM2.5),95,97,75,71,56,60,,75,75,25,21,/,/,0.7,0.6
2026-01-25T2200,4260A,109.5933,23.095,贵港市,中山路155-3号,细颗粒物(PM2.5),90,94,70,67,56,51,,72,70,36,25,/,/,0.9,0.9
2026-01-25T2200,1439A,106.6863,26.6035,贵阳市,马鞍山,,49,36,29,34,26,6,,30,8,25,19,6,6,/,/
2026-01-25T2200,1441A,106.6241,26.6266,贵阳市,鉴湖路,细颗粒物(PM2.5),52,44,36,36,24,7,,34,6,23,19,4,3,0.9,0.6
2026-01-25T2200,1442A,106.7468,26.6344,贵阳市,燕子冲,细颗粒物(PM2.5),55,,25,39,32,6,,37,11,22,18,7,10,0.9,0.7
2026-01-25T2200,1443A,106.6556,26.4362,贵阳市,碧云窝,细颗粒物(PM2.5),58,53,39,41,22,3,,36,17,28,18,13,8,/,/
2026-01-25T2200,1445A,106.6963,26.6063,贵阳市,红边门,,45,41,33,31,27,5,,31,8,26,25,8,9,/,/
2026-01-25T2200,1446A,106.7162383,26.56964667,贵阳市,新华路,细颗粒物(PM2.5),55,48,40,39,24,6,,35,11,30,25,6,8,0.9,0.7
2026-01-25T2200,1447A,106.6742,26.542,贵阳市,太慈桥,细颗粒物(PM2.5),55,46,32,39,23,12,,32,17,27,21,4,4,/,/
2026-01-25T2200,4230A,106.688212,26.56952,贵阳市,花果园大街66号,细颗粒物(PM2.5),53,41,29,37,27,3,,24,6,27,24,3,4,/,/
2026-01-25T2200,4231A,106.687268,26.516892,贵阳市,漓江路57号,细颗粒物(PM2.5),55,44,36,39,26,0,,30,9,29,25,7,11,0.9,0.7
2026-01-25T2200,1864A,110.3091,25.2705,桂林市,龙隐路小学,细颗粒物(PM2.5),115,92,96,87,85,2,,11,6,43,36,18,31,1.0,1
2026-01-25T2200,1865A,110.2849361,25.22909545,桂林市,八中,细颗粒物(PM2.5),119,115,97,90,84,4,,15,7,49,42,27,34,0.9,0.6
2026-01-25T2200,3531A,110.296,25.1254,桂林市,旅游学院,细颗粒物(PM2.5),117,120,95,88,68,,,30,,61,37,23,18,1.0,0.6
2026-01-25T2200,4222A,110.1835,25.2444,桂林市,环湖路276号,细颗粒物(PM2.5),140,139,105,107,84,3,,11,4,46,34,23,55,1.6,1
2026-01-25T2200,4301A,110.2803,25.2773,桂林市,信义路13号,细颗粒物(PM2.5),102,100,96,76,74,1,,10,4,48,44,30,42,1.5,1.2
2026-01-25T2200,2674A,100.2262,34.4854,果洛藏族自治州,玛沁县大武镇,颗粒物(PM10),166,281,108,57,19,80,,94,91,2,9,15,16,0.4,0.5
2026-01-25T2200,1130A,126.5557,45.8109,哈尔滨市,松北商大,细颗粒物(PM2.5),54,39,58,38,55,14,,48,38,54,36,4,14,0.6,0.6
2026-01-25T2200,1132A,126.6162,45.719,哈尔滨市,南岗学府路,细颗粒物(PM2.5),55,53,58,39,39,34,,57,51,31,25,9,11,0.8,0.8
2026-01-25T2200,1133A,126.6894,45.7733,哈尔滨市,太平宏伟公园,,33,33,44,21,35,45,,65,60,30,21,34,19,0.4,0.6
2026-01-25T2200,1134A,126.6361,45.7672,哈尔滨市,道外承德广场,,32,32,61,19,35,55,,69,66,26,24,9,11,0.5,0.5
2026-01-25T2200,1136A,126.644,45.7261,哈尔滨市,动力和平路,,40,36,52,28,37,37,,53,49,32,28,16,15,0.7,0.8
2026-01-25T2200,1137A,126.5933,45.7479,哈尔滨市,道里建国路,,35,30,48,24,42,50,,58,52,28,30,4,9,0.3,0.4
2026-01-25T2200,1138A,126.6127,45.6119,哈尔滨市,平房东轻厂,细颗粒物(PM2.5),109,,77,82,69,4,,58,27,87,54,20,14,1.5,1.2
2026-01-25T2200,1139A,126.5875,45.9827,哈尔滨市,呼兰师专,细颗粒物(PM2.5),99,95,66,74,54,28,,57,42,45,30,19,10,1.0,0.8
2026-01-25T2200,1140A,126.6299,45.6799,哈尔滨市,省农科院,细颗粒物(PM2.5),133,120,86,101,75,7,,49,34,72,44,24,17,1.4,1.1
2026-01-25T2200,4282A,126.6769,45.7379,哈尔滨市,华山路1号,,27,27,45,14,31,58,,58,55,21,26,10,18,0.3,0.4
2026-01-25T2200,4283A,126.9717,45.5356,哈尔滨市,解放大街52号,细颗粒物(PM2.5),110,104,88,83,69,23,,59,43,42,34,16,16,1.2,0.9
2026-01-25T2200,2688A,93.5124,42.8176,哈密市,地区监测站,颗粒物(PM10),79,108,102,46,40,43,,61,55,22,16,8,9,0.3,0.2
2026-01-25T2200,2689A,93.5014,42.8312,哈密市,哈密师范学校,颗粒物(PM10),82,114,110,40,36,39,,63,56,30,23,6,6,0.9,0.6
2026-01-25T2200,2671A,100.9016,36.9464,海北藏族自治州,海晏县西海镇,颗粒物(PM10),158,266,171,80,49,49,,73,70,25,12,26,13,1.2,0.8
2026-01-25T2200,3867A,102.074,36.5056,海东市,平安区公安局北苑,颗粒物(PM10),500,600,432,166,111,28,,55,46,33,19,23,27,1.0,0.9
2026-01-25T2200,4163A,102.0984,36.5119,海东市,滨河路,颗粒物(PM10),500,648,484,178,127,12,,58,37,61,35,34,27,0.8,0.8
2026-01-25T2200,1410A,110.3189,20.0596,海口市,海南大学,,32,32,21,12,10,89,,97,94,8,12,5,5,0.4,0.4
2026-01-25T2200,1411A,110.2827,20.0051,海口市,秀英海南医院,,34,34,28,10,9,88,,94,90,10,13,8,7,0.3,0.3
2026-01-25T2200,1412A,110.3391,19.9979,海口市,海南师范大学,,34,34,29,13,11,83,,96,91,13,14,6,6,0.4,0.4
2026-01-25T2200,1413A,110.3303,20.0359,海口市,龙华路环保局宿舍,,36,36,29,10,11,84,,97,91,11,12,/,/,0.7,0.7
2026-01-25T2200,3539A,110.5111,19.9737,海口市,桂林洋子站,,36,36,23,13,11,74,,91,86,11,10,/,/,/,/
2026-01-25T2200,4134A,110.1952,20.0451,海口市,长滨二路9号,,27,23,18,10,10,86,,91,88,8,11,/,/,/,/
2026-01-25T2200,2673A,100.6158,36.2985,海南藏族自治州,共和县恰卜恰镇,颗粒物(PM10),79,108,115,53,35,89,,88,88,4,15,13,11,0.7,0.8
2026-01-25T2200,2676A,97.373,37.376,海西蒙古族藏族自治州,德令哈市,颗粒物(PM10),256,389,638,53,105,80,,92,88,4,9,19,17,0.2,0.6
2026-01-25T2200,1049A,114.492,36.5712,邯郸市,矿院,细颗粒物(PM2.5),148,128,160,113,158,21,,44,32,51,39,8,9,1.1,1.1
2026-01-25T2200,1050A,114.4839,36.6136,邯郸市,丛台公园,细颗粒物(PM2.5),162,142,176,123,162,15,,47,32,70,47,9,9,1.2,1.1
2026-01-25T2200,3458A,114.7893,36.5592,邯郸市,香泉濮院小区,细颗粒物(PM2.5),138,156,199,105,152,6,,34,21,70,56,9,8,1.1,1.2
2026-01-25T2200,3580A,114.1998,36.4439,邯郸市,峰峰矿区临水派出所,细颗粒物(PM2.5),100,95,124,75,117,49,,76,61,32,25,16,13,1.0,1
2026-01-25T2200,4068A,114.5209,36.7697,邯郸市,建安街268号,细颗粒物(PM2.5),160,137,161,122,155,4,,39,20,87,58,8,9,1.1,1
2026-01-25T2200,4069A,114.5488,36.6177,邯郸市,丛台东路558号,细颗粒物(PM2.5),152,,168,116,173,11,,38,23,59,51,7,9,1.0,1.2
2026-01-25T2200,2635A,107.0155,33.0707,汉中市,市监测站,细颗粒物(PM2.5),105,89,89,79,76,10,,32,30,44,33,6,6,1.5,1.4
2026-01-25T2200,2636A,107.0083,33.114,汉中市,鑫源开发区,细颗粒物(PM2.5),159,,85,121,81,11,,29,27,43,37,5,6,1.5,1.3
2026-01-25T2200,2637A,107.0072,33.0323,汉中市,南郑大河坎水厂,细颗粒物(PM2.5),132,109,100,100,79,3,,28,25,40,30,7,7,1.8,1.3
2026-01-25T2200,1223A,120.2073,30.2111,杭州市,滨江,颗粒物(PM10),62,74,132,40,102,19,,57,50,69,54,6,9,0.6,0.7
2026-01-25T2200,1224A,120.0625,30.2737,杭州市,西溪,颗粒物(PM10),67,83,121,47,91,14,,68,57,44,56,8,10,0.8,0.8
2026-01-25T2200,1226A,120.3417,30.315,杭州市,下沙,细颗粒物(PM2.5),65,75,122,47,89,39,,67,62,49,59,8,11,0.6,0.9
2026-01-25T2200,1227A,120.1252,30.2465,杭州市,卧龙桥,细颗粒物(PM2.5),84,78,113,62,90,6,,62,43,52,53,8,10,0.5,0.6
2026-01-25T2200,1228A,120.1902,30.2691,杭州市,浙江农大,颗粒物(PM10),59,68,125,39,97,26,,60,53,68,65,6,8,0.7,0.8
2026-01-25T2200,1230A,120.1195,30.3121,杭州市,和睦小学,细颗粒物(PM2.5),67,72,127,48,93,36,,70,62,49,50,6,7,0.8,0.9
2026-01-25T2200,1231A,120.3076,30.4146,杭州市,临平镇,细颗粒物(PM2.5),57,59,113,40,81,58,,74,73,26,42,7,8,0.6,0.8
2026-01-25T2200,1232A,120.2753,30.1839,杭州市,城厢镇,颗粒物(PM10),71,91,132,51,90,45,,59,58,44,64,8,11,0.5,0.6
2026-01-25T2200,1233A,120.0883,30.1808,杭州市,云栖,细颗粒物(PM2.5),75,82,121,55,86,18,,61,47,45,52,4,5,0.6,0.7
2026-01-25T2200,3557A,119.9463,30.0496,杭州市,镇二中,细颗粒物(PM2.5),160,123,112,122,110,3,,59,40,94,71,7,8,1.6,1.1
2026-01-25T2200,3558A,119.7184,30.2367,杭州市,市府大楼,细颗粒物(PM2.5),168,155,132,127,115,3,,68,50,83,53,13,12,2.1,1.4
2026-01-25T2200,3656A,120.1554,30.2863,杭州市,消防大队,细颗粒物(PM2.5),73,79,122,53,100,35,,62,55,47,50,6,10,0.5,0.6
2026-01-25T2200,1270A,117.1957,31.7845,合肥市,明珠广场,细颗粒物(PM2.5),119,100,123,90,98,2,,30,24,61,51,5,8,1.0,1
2026-01-25T2200,1271A,117.307,31.8765,合肥市,三里街,细颗粒物(PM2.5),92,68,114,68,89,30,,30,30,31,56,5,6,0.7,1
2026-01-25T2200,1272A,117.2587,31.8703,合肥市,琥珀山庄,细颗粒物(PM2.5),99,78,117,74,95,34,,37,36,35,58,7,8,0.9,1.2
2026-01-25T2200,1275A,117.2593,31.9376,合肥市,庐阳区,细颗粒物(PM2.5),77,70,121,56,90,39,,38,37,39,62,11,11,0.7,1.1
2026-01-25T2200,1276A,117.345251,31.861615,合肥市,瑶海区,细颗粒物(PM2.5),80,70,118,59,92,40,,34,34,34,60,3,6,0.6,0.9
2026-01-25T2200,1277A,117.3033,31.7967,合肥市,包河区,细颗粒物(PM2.5),104,78,123,78,101,10,,14,10,71,92,6,10,0.9,1.1
2026-01-25T2200,1278A,117.278,31.7392,合肥市,滨湖新区,细颗粒物(PM2.5),122,92,124,92,106,18,,39,22,49,48,3,5,0.8,1
2026-01-25T2200,1279A,117.1324,31.8395,合肥市,高新区,细颗粒物(PM2.5),105,85,121,79,98,33,,40,31,44,59,4,6,1.1,1.1
2026-01-25T2200,3464A,117.3802,31.9148,合肥市,高教基地,细颗粒物(PM2.5),87,,109,64,97,43,,40,40,31,50,7,9,0.6,1
2026-01-25T2200,4098A,117.2518,31.8404,合肥市,中国科学技术大学,细颗粒物(PM2.5),92,78,116,68,89,36,,38,38,30,49,8,11,0.9,1.1
2026-01-25T2200,3614A,79.9241,37.0878,和田地区,地区环保局,颗粒物(PM10),500,998,1091,156,154,28,,55,50,38,17,3,2,1.3,0.9
2026-01-25T2200,3615A,79.9132,37.1137,和田地区,市环保局,颗粒物(PM10),500,1039,1060,147,162,44,,57,56,20,10,2,3,1.2,1.1
2026-01-25T2200,2517A,108.0496,24.6957,河池市,市环保站,,48,,42,33,38,1,,26,9,32,21,2,2,1.5,1.1
2026-01-25T2200,4302A,108.0901,24.6945,河池市,上任中路54号,,46,40,43,32,38,1,,26,6,25,20,4,4,1.3,1
2026-01-25T2200,1697A,114.6962,23.7538,河源市,东埔,,,61,48,47,37,35,,110,84,,37,5,6,,0.6
2026-01-25T2200,1698A,114.6895,23.7232,河源市,老城,,36,36,48,24,30,44,,115,96,32,27,6,6,0.8,0.8
2026-01-25T2200,3374A,115.5562,35.089,菏泽市,定陶老年大学,细颗粒物(PM2.5),160,163,182,122,143,18,,39,26,43,47,11,10,1.0,1.1
2026-01-25T2200,4114A,115.4239,35.2593,菏泽市,黄河路600号,细颗粒物(PM2.5),165,166,186,125,149,18,,43,28,46,48,4,5,1.0,1.1
2026-01-25T2200,4115A,115.5025,35.2727,菏泽市,菏泽市人社局,细颗粒物(PM2.5),159,158,183,121,150,19,,32,25,37,46,13,13,1.0,1.1
2026-01-25T2200,4184A,115.479691,35.244011,菏泽市,永昌路1号,细颗粒物(PM2.5),159,155,184,121,145,22,,46,28,39,43,9,9,0.7,0.8
2026-01-25T2200,4193A,115.471542,35.280012,菏泽市,长城路999号,细颗粒物(PM2.5),153,158,181,117,143,17,,33,24,44,50,13,14,1.0,1.2
2026-01-25T2200,2514A,111.5264,24.4178,贺州市,环保小区,细颗粒物(PM2.5),90,103,92,67,64,25,,48,44,44,35,5,5,1.0,0.9
2026-01-25T2200,2515A,111.561,24.4074,贺州市,政协大楼,细颗粒物(PM2.5),82,83,82,60,58,22,,58,50,49,34,13,13,0.9,0.9
2026-01-25T2200,3534A,111.4744,24.455,贺州市,西湾,细颗粒物(PM2.5),82,81,83,60,63,6,,49,43,60,35,10,9,1.3,1
2026-01-25T2200,2385A,114.17,35.9019,鹤壁市,市监测站,细颗粒物(PM2.5),152,141,199,116,177,31,,58,51,38,33,16,11,1.3,1.4
2026-01-25T2200,2386A,114.2953,35.7512,鹤壁市,市交警支队,细颗粒物(PM2.5),156,148,196,119,176,15,,48,38,54,42,9,12,1.0,1.1
2026-01-25T2200,2387A,114.2877,35.7302,鹤壁市,迎宾馆,细颗粒物(PM2.5),158,152,192,120,162,18,,56,44,47,34,13,12,1.2,1.3
2026-01-25T2200,3474A,114.2616,35.6824,鹤壁市,大新区,细颗粒物(PM2.5),142,123,185,108,157,24,,61,51,32,24,10,12,1.1,1.2
2026-01-25T2200,3596A,114.1573,35.9607,鹤壁市,南山宾馆,细颗粒物(PM2.5),150,147,200,115,172,31,,62,55,44,36,17,12,1.2,1.2
2026-01-25T2200,2244A,130.2537,47.3416,鹤岗市,哈啤分公司,,25,25,22,11,10,80,,81,80,4,4,6,6,0.2,0.2
2026-01-25T2200,2245A,130.2683,47.3087,鹤岗市,斯达机电,,25,24,23,3,8,78,,77,74,5,6,4,4,0.4,0.4
2026-01-25T2200,2246A,130.3114,47.3388,鹤岗市,东山纸板厂,颗粒物(PM10),53,55,30,3,10,76,,78,76,4,5,6,5,0.5,0.5
2026-01-25T2200,2263A,127.4832,50.2524,黑河市,交通局,,25,21,17,17,15,66,,77,71,12,7,5,4,0.3,0.2
2026-01-25T2200,2264A,127.5146,50.2339,黑河市,环保局,,23,22,15,13,9,73,,75,72,9,9,3,3,0.4,0.4
2026-01-25T2200,1074A,115.6839,37.754,衡水市,电机北厂,颗粒物(PM10),54,57,146,17,112,37,,47,46,30,58,8,11,0.4,1
2026-01-25T2200,1075A,115.6303,37.7318,衡水市,市监测站,,47,47,135,30,108,41,,51,50,27,55,9,12,0.4,0.9
2026-01-25T2200,3188A,115.6684,37.7216,衡水市,市城管局,颗粒物(PM10),53,55,135,32,97,39,,49,48,29,57,9,14,0.4,0.9
2026-01-25T2200,3459A,115.599,37.5491,衡水市,地表水厂,,45,45,118,24,110,38,,47,46,21,50,7,16,0.3,0.8
2026-01-25T2200,2457A,112.6209,26.9268,衡阳市,衡阳化工总厂,细颗粒物(PM2.5),97,75,53,72,44,25,,34,32,23,19,10,10,1.3,1.1
2026-01-25T2200,2458A,112.621,26.8957,衡阳市,珠晖区环保局,细颗粒物(PM2.5),92,77,58,68,45,22,,27,26,28,33,6,8,1.2,1.1
2026-01-25T2200,2459A,112.628,26.8654,衡阳市,市委党校,细颗粒物(PM2.5),100,,54,75,45,28,,30,30,17,19,10,14,1.3,1.2
2026-01-25T2200,2460A,112.6007,26.8977,衡阳市,市监测站,细颗粒物(PM2.5),82,102,75,60,43,23,,25,23,29,32,9,9,1.3,1.3
2026-01-25T2200,2461A,112.5658,26.9013,衡阳市,真空机电公司,细颗粒物(PM2.5),124,,68,94,53,16,,23,17,36,36,56,14,1.6,1.4
2026-01-25T2200,3399A,112.6703,26.8817,衡阳市,师范学院,细颗粒物(PM2.5),88,89,57,65,41,25,,30,29,30,26,7,7,1.0,0.9
2026-01-25T2200,3038A,103.3757,23.3679,红河哈尼族彝族自治州,州图书馆,,28,28,32,19,21,63,,84,76,9,11,7,8,0.6,0.6
2026-01-25T2200,4154A,103.401,23.3561,红河哈尼族彝族自治州,蒙自市朝阳路,,22,15,25,15,20,66,,83,76,4,10,6,8,0.5,0.6
2026-01-25T2200,1090A,111.6506,40.7517,呼和浩特市,呼市一监,颗粒物(PM10),198,346,155,73,34,24,,58,42,31,23,26,16,0.7,0.7
2026-01-25T2200,1094A,111.7516,40.8369,呼和浩特市,如意水处理厂,颗粒物(PM10),223,366,119,82,38,4,,49,38,62,35,11,11,0.8,0.7
2026-01-25T2200,1095A,111.727798,40.806187,呼和浩特市,二十九中,颗粒物(PM10),250,385,135,80,35,15,,60,42,44,24,14,14,0.7,0.5
2026-01-25T2200,1097A,111.717,40.7617,呼和浩特市,化肥厂生活区,颗粒物(PM10),265,395,143,82,37,26,,61,43,35,22,19,8,0.7,0.6
2026-01-25T2200,3699A,111.6519,40.8389,呼和浩特市,海东办,颗粒物(PM10),198,346,147,75,34,10,,44,34,51,40,6,6,0.8,0.7
2026-01-25T2200,4275A,111.591512,40.827312,呼和浩特市,成吉思汗西街8号,颗粒物(PM10),206,354,140,89,34,3,,36,26,61,45,10,8,1.2,0.7
2026-01-25T2200,4276A,111.6597,40.8077,呼和浩特市,公园东路75号,颗粒物(PM10),262,393,165,81,35,14,,50,37,50,31,10,8,1.0,0.8
2026-01-25T2200,4277A,111.5427,40.7846,呼和浩特市,金海路35号,颗粒物(PM10),196,341,134,84,36,1,,39,29,62,39,13,12,1.0,0.7
2026-01-25T2200,3061A,119.7511,49.1576,呼伦贝尔市,国华电力东,,26,21,25,18,17,57,,63,60,16,14,6,6,0.5,0.4
2026-01-25T2200,4279A,119.7569,49.2222,呼伦贝尔市,伊敏大街东7号,细颗粒物(PM2.5),57,51,30,40,19,10,,55,34,50,20,9,7,0.5,0.3
2026-01-25T2200,1250A,120.075,30.867,湖州市,城西水厂,,29,29,96,16,58,57,,91,85,30,38,6,7,0.2,0.5
2026-01-25T2200,2873A,120.083,30.8929,湖州市,仁皇山新区,,24,24,101,15,82,60,,86,80,36,52,6,8,0.5,0.8
2026-01-25T2200,2907A,120.1846,30.8592,湖州市,吴兴区站,颗粒物(PM10),53,55,97,30,76,40,,90,79,46,51,6,7,0.5,0.7
2026-01-25T2200,3562A,120.4146,30.8538,湖州市,南浔区站,,30,30,76,19,60,50,,92,83,33,31,7,9,0.4,0.6
2026-01-25T2200,1607A,120.904878,40.721091,葫芦岛市,龙港区,细颗粒物(PM2.5),70,80,56,51,34,36,,72,63,34,36,11,16,1.1,0.9
2026-01-25T2200,1608A,120.8382,40.7521,葫芦岛市,化工街,颗粒物(PM10),58,66,53,30,32,55,,65,63,24,31,8,23,0.4,0.6
2026-01-25T2200,1609A,120.8339,40.7078,葫芦岛市,新区,细颗粒物(PM2.5),53,47,44,37,30,63,,70,68,16,34,11,21,0.5,0.8
2026-01-25T2200,1610A,120.8697,40.7679,葫芦岛市,东城区,细颗粒物(PM2.5),68,59,48,49,31,34,,68,60,49,35,23,31,0.8,0.9
2026-01-25T2200,2483A,109.9297,27.5383,怀化市,河西地税局,,28,19,59,19,50,28,,33,26,16,26,1,2,/,/
2026-01-25T2200,2484A,109.9783,27.5342,怀化市,市四医院,,39,29,63,27,50,12,,21,20,17,25,6,7,0.9,1
2026-01-25T2200,2485A,109.9971,27.5579,怀化市,监测楼,,45,36,63,31,50,13,,27,24,20,25,2,3,0.5,0.5
2026-01-25T2200,1210A,119.0566,33.5991,淮安市,钵池山,,48,,71,33,72,57,,78,66,15,19,6,6,0.2,0.5
2026-01-25T2200,1211A,119.0083,33.578,淮安市,北京南路,,38,27,71,26,65,56,,75,63,13,19,6,7,0.3,0.5
2026-01-25T2200,1212A,118.9938,33.6083,淮安市,市监测站,,25,,63,17,61,65,,80,72,14,21,8,8,0.5,0.8
2026-01-25T2200,1213A,119.135,33.5038,淮安市,楚州区监测站,,20,20,72,13,62,53,,76,62,18,22,8,8,0.1,0.3
2026-01-25T2200,3426A,118.8757,33.2897,淮安市,新华书店,,24,24,77,13,66,56,,71,63,13,21,8,8,0.6,0.8
2026-01-25T2200,4092A,119.119691,33.550006,淮安市,枚皋中路89号,,25,25,83,15,65,67,,89,76,14,17,9,9,0.1,0.5
2026-01-25T2200,4206A,119.028838,33.631911,淮安市,承德北路606号,,43,,82,30,68,58,,76,66,16,24,6,7,0.3,0.6
2026-01-25T2200,2282A,116.8005,33.9749,淮北市,监测站,颗粒物(PM10),54,58,114,26,81,71,,90,85,9,18,5,5,0.4,0.7
2026-01-25T2200,2283A,116.8094,33.9008,淮北市,烈山区政府,,46,46,93,32,80,75,,98,93,11,18,4,4,0.3,0.5
2026-01-25T2200,4017A,116.7926,33.9534,淮北市,市博物馆,颗粒物(PM10),51,52,108,27,81,71,,94,88,8,17,8,9,0.4,0.7
2026-01-25T2200,4100A,116.8322,33.9884,淮北市,杜集区第一实验学校,颗粒物(PM10),51,51,106,20,83,77,,100,94,9,18,7,8,0.4,0.8
2026-01-25T2200,2277A,116.8304,32.7726,淮南市,潘集区政府,细颗粒物(PM2.5),77,62,108,56,95,61,,65,64,14,26,4,5,0.4,0.6
2026-01-25T2200,2279A,116.8569,32.5949,淮南市,谢家集区政府,细颗粒物(PM2.5),64,61,98,46,79,51,,55,55,20,33,6,8,0.6,0.8
2026-01-25T2200,2280A,116.8279,32.6333,淮南市,八公山区政府,细颗粒物(PM2.5),63,52,102,45,86,59,,60,60,15,29,9,5,0.5,0.8
2026-01-25T2200,2894A,117.0561,32.6536,淮南市,经济技术开发区消防队,细颗粒物(PM2.5),54,53,106,38,76,50,,60,58,24,39,4,5,0.6,0.8
2026-01-25T2200,3329A,117.011,32.5891,淮南市,山南新区,颗粒物(PM10),56,61,113,37,82,58,,62,61,23,34,6,8,0.6,0.9
2026-01-25T2200,4209A,117.003137,32.644456,淮南市,国庆中路369号,细颗粒物(PM2.5),58,63,103,41,88,46,,52,51,25,37,8,10,0.4,0.7
2026-01-25T2200,2446A,114.9021,30.474,黄冈市,职工中心,细颗粒物(PM2.5),82,68,58,60,50,22,,57,29,24,22,6,8,0.9,0.7
2026-01-25T2200,2929A,114.8858,30.4519,黄冈市,红卫路,细颗粒物(PM2.5),85,63,55,63,52,24,,55,30,22,20,7,9,0.5,0.4
2026-01-25T2200,3398A,114.9134,30.4446,黄冈市,市林业局,细颗粒物(PM2.5),77,57,54,56,49,25,,54,32,24,22,4,4,0.9,0.7
2026-01-25T2200,2672A,102.02,35.5101,黄南藏族自治州,同仁县隆务镇,颗粒物(PM10),186,321,206,102,66,49,,67,61,10,11,11,13,0.8,0.7
2026-01-25T2200,2295A,118.2905,29.6965,黄山市,延安路89号,颗粒物(PM10),59,67,44,40,32,38,,90,77,27,22,4,4,0.9,0.8
2026-01-25T2200,2297A,118.1369,30.2755,黄山市,黄山区政府5号楼,细颗粒物(PM2.5),112,117,61,84,45,49,,64,59,24,17,8,3,0.9,0.8
2026-01-25T2200,4210A,118.335445,29.720283,黄山市,滨江东路7-2号,细颗粒物(PM2.5),85,105,68,63,48,4,,84,56,51,28,/,/,/,/
2026-01-25T2200,2423A,115.0547,30.2332,黄石市,沈家营,颗粒物(PM10),76,102,78,53,49,16,,44,22,22,25,7,12,1.8,1.6
2026-01-25T2200,2426A,114.899,30.211,黄石市,铁山,,,,54,50,59,19,,60,21,25,19,5,8,,
2026-01-25T2200,2427A,115.0259,30.2108,黄石市,团城山,细颗粒物(PM2.5),85,82,63,63,55,10,,64,21,24,20,6,7,1.4,0.9
2026-01-25T2200,3149A,115.0174,30.1591,黄石市,笔架山北路,细颗粒物(PM2.5),90,104,88,67,54,10,,46,19,28,26,6,9,1.5,1.2
2026-01-25T2200,4185A,115.078022,30.21118,黄石市,磁湖东路29号,细颗粒物(PM2.5),90,88,69,67,57,8,,61,14,34,31,6,8,1.9,1.2
2026-01-25T2200,1392A,114.4181,23.0528,惠州市,河南岸金山湖子站,颗粒物(PM10),59,67,49,36,32,57,,116,103,38,25,4,4,0.8,0.7
2026-01-25T2200,1393A,114.4055,23.0824,惠州市,下埔横江三路子站,颗粒物(PM10),60,69,52,37,31,66,,132,118,40,24,6,7,0.9,0.8
2026-01-25T2200,1395A,114.4645,22.7832,惠州市,惠阳区承修路船湖子站,,32,32,40,16,28,92,,122,112,21,24,6,7,0.5,0.6
2026-01-25T2200,1396A,114.5316,22.7423,惠州市,大亚湾管委会子站,,38,38,36,14,22,81,,116,106,24,18,6,7,0.5,0.5
2026-01-25T2200,3314A,114.4334,22.8134,惠州市,惠阳秋长,,,,52,15,28,107,,143,127,25,31,/,/,/,/
2026-01-25T2200,3452A,114.6521,22.7755,惠州市,大亚湾霞涌,,41,41,35,12,17,70,,130,115,34,19,/,/,/,/
2026-01-25T2200,4300A,114.4089,23.1147,惠州市,文华一路1号,颗粒物(PM10),51,51,45,26,29,88,,141,132,32,23,/,/,/,/
2026-01-25T2200,2240A,130.9618,45.2926,鸡西市,环保局,,22,19,21,9,15,69,,71,69,7,7,6,6,0.3,0.3
2026-01-25T2200,2243A,130.9294,45.2959,鸡西市,第一中学,,23,10,17,10,13,72,,74,72,7,7,2,3,0.3,0.3
2026-01-25T2200,3707A,131.0069,45.2988,鸡西市,欧美日汽修厂,,29,29,24,14,15,70,,72,67,5,6,6,6,0.2,0.2
2026-01-25T2200,2367A,114.9753,27.0803,吉安市,红声器材厂,细颗粒物(PM2.5),63,74,62,45,41,28,,59,51,42,33,10,12,1.0,0.9
2026-01-25T2200,2369A,114.9903,27.1313,吉安市,市环境监测站,细颗粒物(PM2.5),68,68,58,49,41,29,,61,52,34,25,7,10,/,/
2026-01-25T2200,2370A,115.009527,27.096792,吉安市,青原区法院,细颗粒物(PM2.5),74,81,64,54,42,24,,53,44,43,37,15,15,1.0,0.9
2026-01-25T2200,1772A,126.54,43.8622,吉林市,哈达湾,细颗粒物(PM2.5),113,88,53,85,46,31,,71,61,55,24,8,11,1.4,0.9
2026-01-25T2200,1773A,126.5843,43.8358,吉林市,东局子,细颗粒物(PM2.5),84,72,57,62,47,25,,62,48,48,27,5,6,1.2,1
2026-01-25T2200,1774A,126.5051,43.8243,吉林市,电力学院,细颗粒物(PM2.5),158,143,79,120,69,20,,67,45,68,37,14,9,2.3,1.3
2026-01-25T2200,1775A,126.6133,43.8971,吉林市,江北,细颗粒物(PM2.5),127,103,79,96,66,31,,58,44,40,30,9,9,1.4,1.2
2026-01-25T2200,1776A,126.5549,43.8304,吉林市,江南公园,细颗粒物(PM2.5),88,81,57,65,50,28,,65,51,46,29,11,8,1.1,0.8
2026-01-25T2200,2868A,126.4737,43.953,吉林市,九站,细颗粒物(PM2.5),90,71,55,67,49,26,,64,47,58,33,10,8,1.0,0.9
2026-01-25T2200,1299A,116.9866,36.6118,济南市,科干所,颗粒物(PM10),64,78,120,39,78,16,,52,32,56,45,11,13,0.8,1
2026-01-25T2200,1300A,116.9379,36.6652,济南市,农科所,颗粒物(PM10),58,66,137,22,83,23,,37,34,44,60,15,18,0.8,1.1
2026-01-25T2200,1301A,117.1265,36.6736,济南市,开发区,颗粒物(PM10),62,73,127,39,94,23,,49,39,49,53,9,11,0.8,1.1
2026-01-25T2200,1303A,117.0616,36.6865,济南市,省种子仓库,颗粒物(PM10),58,66,140,29,92,20,,47,38,48,56,13,16,0.7,1.4
2026-01-25T2200,1304A,116.9495185,36.644937,济南市,机床二厂,颗粒物(PM10),63,76,132,39,100,18,,43,36,48,50,14,15,0.7,1
2026-01-25T2200,1305A,117.0496,36.6629,济南市,市监测站,颗粒物(PM10),63,76,129,29,90,18,,47,37,48,48,10,12,0.8,1.1
2026-01-25T2200,1306A,116.7674,36.5458,济南市,长清党校,颗粒物(PM10),68,85,140,42,93,13,,32,28,60,60,15,16,0.9,1.2
2026-01-25T2200,1961A,117.5323,36.6865,济南市,东山小学,颗粒物(PM10),56,61,132,29,86,35,,57,48,35,45,9,16,0.4,0.7
2026-01-25T2200,3059A,117.7181,36.205,济南市,泰兴公司,细颗粒物(PM2.5),94,88,137,70,113,26,,79,55,51,56,6,10,0.9,1.3
2026-01-25T2200,3064A,117.6861,36.2172,济南市,莱芜战役纪念馆,细颗粒物(PM2.5),94,92,132,70,111,37,,81,59,40,49,9,13,0.8,1.1
2026-01-25T2200,3494A,117.1673,36.9782,济南市,济阳区政府,,46,46,110,22,73,47,,59,57,23,34,9,12,0.6,0.9
2026-01-25T2200,3495A,117.1168,36.6299,济南市,锦屏中学,细颗粒物(PM2.5),68,76,112,49,81,31,,59,44,44,40,8,9,1.0,1.2
2026-01-25T2200,4108A,117.7107,36.2385,济南市,山财大街5号,细颗粒物(PM2.5),78,80,115,57,90,40,,82,60,48,49,10,15,0.9,1.1
2026-01-25T2200,4109A,116.9744,36.6889,济南市,无影山路12号,颗粒物(PM10),53,56,130,21,97,27,,42,40,43,61,14,19,0.8,1.2
2026-01-25T2200,1653A,116.6229,35.4288,济宁市,火炬城,细颗粒物(PM2.5),192,159,162,144,149,0,,52,23,67,64,8,6,1.4,1.2
2026-01-25T2200,3500A,116.5808,35.3703,济宁市,北湖一中,细颗粒物(PM2.5),193,163,149,145,137,3,,57,27,72,55,13,8,1.3,1.3
2026-01-25T2200,3501A,116.8251,35.5592,济宁市,服务中心,颗粒物(PM10),128,206,187,63,122,35,,71,46,26,44,4,9,0.7,0.8
2026-01-25T2200,3678A,116.5907,35.4054,济宁市,市第七中学,细颗粒物(PM2.5),170,150,150,129,129,6,,60,28,74,61,20,12,1.5,1.3
2026-01-25T2200,4111A,116.6075,35.4566,济宁市,任和路,细颗粒物(PM2.5),180,194,190,136,142,0,,52,22,70,68,18,11,1.4,1.3
2026-01-25T2200,4112A,116.5648,35.3921,济宁市,文体南路1号,细颗粒物(PM2.5),195,202,177,146,139,1,,57,23,75,59,16,9,1.3,1.1
2026-01-25T2200,2255A,130.2749,46.8028,佳木斯市,佳纺,,31,31,33,17,22,64,,65,60,11,14,9,7,0.5,0.7
2026-01-25T2200,2257A,130.3258,46.7975,佳木斯市,环保局,,36,30,30,25,24,60,,66,58,17,17,11,8,0.4,0.5
2026-01-25T2200,4285A,130.363,46.806,佳木斯市,顺和街,,,,28,38,24,54,,61,53,18,17,12,10,,0.4
2026-01-25T2200,4286A,130.3952,46.8268,佳木斯市,长安路196号,,32,28,25,22,19,73,,75,70,9,9,5,5,0.4,0.5
2026-01-25T2200,1252A,120.7439,30.778,嘉兴市,清河小学,,29,25,77,20,60,72,,90,86,20,34,7,8,0.2,0.4
2026-01-25T2200,1253A,120.7261,30.7477,嘉兴市,嘉兴学院,,39,39,82,18,53,67,,90,86,25,30,7,7,0.9,1
2026-01-25T2200,2872A,120.7845,30.7524,嘉兴市,南湖区残联,,22,18,60,12,53,68,,95,89,27,34,7,8,0.6,0.8
2026-01-25T2200,3407A,120.6915,30.7741,嘉兴市,秀洲住建,,24,22,77,15,58,75,,94,90,23,34,9,9,0.4,0.6
2026-01-25T2200,1945A,98.291,39.7705,嘉峪关市,气象局,颗粒物(PM10),272,400,638,88,121,15,,61,51,47,16,6,12,0.8,0.6
2026-01-25T2200,2884A,98.2672,39.7978,嘉峪关市,酒钢宾馆,颗粒物(PM10),262,393,629,85,129,15,,66,54,48,14,12,21,0.4,0.6
2026-01-25T2200,3248A,98.2644,39.7723,嘉峪关市,雄关区,颗粒物(PM10),181,311,507,73,92,8,,58,50,55,19,14,17,0.7,0.5
2026-01-25T2200,1383A,113.1063,22.6058,江门市,北街,,39,39,76,18,53,80,,142,127,29,63,/,/,/,/
2026-01-25T2200,1384A,113.073,22.5835,江门市,西区,,45,45,88,25,50,79,,137,122,34,58,/,/,/,/
2026-01-25T2200,1385A,113.0218,22.531,江门市,圭峰西,,50,50,65,25,56,76,,134,120,28,31,/,/,/,/
2026-01-25T2200,1386A,113.0826,22.5947,江门市,东湖,,43,34,81,30,58,82,,142,128,21,47,6,7,0.5,0.9
2026-01-25T2200,3311A,113.1077,22.5647,江门市,江海富民,颗粒物(PM10),54,58,114,37,68,84,,138,122,34,60,/,/,0.5,0.7
2026-01-25T2200,3449A,113.0496,22.4669,江门市,新会银湖,颗粒物(PM10),52,54,76,32,66,42,,116,100,44,46,6,7,0.5,0.7
2026-01-25T2200,3335A,113.3137,35.2643,焦作市,马村街道办,细颗粒物(PM2.5),232,203,181,182,160,32,,67,49,36,22,9,6,1.4,1
2026-01-25T2200,3336A,113.2464,35.2374,焦作市,焦作技师学院,细颗粒物(PM2.5),233,223,184,183,161,34,,68,50,38,25,6,7,1.4,1.3
2026-01-25T2200,3477A,113.1656,35.2536,焦作市,中站许衡医院,细颗粒物(PM2.5),229,202,176,179,161,25,,70,51,49,26,9,6,1.4,1.2
2026-01-25T2200,3981A,113.2456,35.18,焦作市,原李万街道办,细颗粒物(PM2.5),230,200,176,180,157,17,,71,47,50,25,6,5,1.4,1.1
2026-01-25T2200,4264A,113.234,35.219,焦作市,新安路1731号,细颗粒物(PM2.5),244,225,200,194,172,,,70,56,38,23,7,9,1.4,1.2
2026-01-25T2200,4295A,113.2722,35.2121,焦作市,人民路3066号,细颗粒物(PM2.5),219,209,191,169,153,28,,69,47,38,24,7,8,1.6,1.4
2026-01-25T2200,1708A,116.3701,23.5345,揭阳市,新兴,细颗粒物(PM2.5),54,47,40,38,27,61,,93,78,26,25,6,9,0.6,0.6
2026-01-25T2200,1709A,116.3261,23.5442,揭阳市,西马,,49,42,41,34,26,58,,91,76,18,17,3,6,0.6,0.6
2026-01-25T2200,1710A,116.361,23.5627,揭阳市,东兴,细颗粒物(PM2.5),52,,40,36,25,63,,94,82,21,21,8,10,/,/
2026-01-25T2200,1711A,116.4151,23.5295,揭阳市,渔湖,,33,33,39,14,18,65,,95,82,17,18,4,7,/,/
2026-01-25T2200,3320A,116.4028,23.5699,揭阳市,曲溪,,36,32,38,25,20,64,,94,81,16,17,4,6,0.6,0.6
2026-01-25T2200,1944A,102.1691,38.5166,金昌市,天庆家园,颗粒物(PM10),370,476,865,108,148,43,,64,57,19,14,6,30,0.8,0.8
2026-01-25T2200,4022A,102.1648,38.5369,金昌市,金川区人防中心,颗粒物(PM10),372,477,998,103,149,47,,65,60,18,12,6,22,0.6,0.6
2026-01-25T2200,4239A,102.193042,38.531887,金昌市,长春路96号,颗粒物(PM10),295,416,915,94,138,47,,64,59,21,12,115,35,0.9,0.7
2026-01-25T2200,1262A,119.6478,29.0773,金华市,十五中,细颗粒物(PM2.5),99,120,125,74,87,60,,97,83,55,76,5,5,0.5,0.6
2026-01-25T2200,1263A,119.6859,29.1032,金华市,监测站,细颗粒物(PM2.5),100,125,132,75,85,41,,80,66,67,79,4,5,0.6,0.6
2026-01-25T2200,3659A,119.656,29.1132,金华市,气象局,细颗粒物(PM2.5),103,126,123,77,81,34,,78,59,72,79,5,5,0.2,0.6
2026-01-25T2200,1767A,121.1114,41.0879,锦州市,南山,细颗粒物(PM2.5),69,55,55,50,41,39,,70,59,36,30,11,14,0.7,1
2026-01-25T2200,1768A,121.060361,40.842794,锦州市,开发区,细颗粒物(PM2.5),68,66,61,49,41,61,,72,69,15,33,6,32,0.6,0.8
2026-01-25T2200,1769A,121.1836,41.1118,锦州市,百股街道,细颗粒物(PM2.5),87,,40,64,28,10,,70,55,67,24,45,19,1.0,0.7
2026-01-25T2200,1770A,121.1176,41.1224,锦州市,天安街道,细颗粒物(PM2.5),73,59,40,53,23,44,,72,63,31,22,6,10,0.8,0.7
2026-01-25T2200,1771A,121.1303,41.1385,锦州市,北湖公园,细颗粒物(PM2.5),64,56,36,46,22,27,,67,56,39,14,66,17,0.8,0.6
2026-01-25T2200,2160A,112.8496,35.5051,晋城市,自来水公司,细颗粒物(PM2.5),163,159,121,124,95,75,,86,81,22,17,4,4,1.0,0.7
2026-01-25T2200,2162A,112.8509,35.4886,晋城市,市环保局,细颗粒物(PM2.5),175,159,124,132,100,71,,86,78,21,16,4,4,1.2,1
2026-01-25T2200,3620A,112.8258,35.4804,晋城市,泽州一中,细颗粒物(PM2.5),183,,118,138,102,76,,87,82,25,20,3,3,1.0,0.9
2026-01-25T2200,4078A,112.8246,35.5152,晋城市,前书院路,细颗粒物(PM2.5),150,174,129,115,85,69,,79,74,20,17,4,4,1.0,0.9
2026-01-25T2200,4079A,112.8864,35.4773,晋城市,祥云街666号,细颗粒物(PM2.5),216,174,139,166,118,60,,82,69,26,19,,3,1.0,0.7
2026-01-25T2200,2174A,112.6992,37.6984,晋中市,榆次区政府,细颗粒物(PM2.5),205,166,215,155,172,21,,70,35,53,38,11,9,0.9,1
2026-01-25T2200,2865A,112.7195,37.683,晋中市,榆次三中,细颗粒物(PM2.5),215,171,223,165,179,28,,72,41,46,34,10,9,1.0,1.1
2026-01-25T2200,4080A,112.7375,37.7215,晋中市,广安街188号,细颗粒物(PM2.5),213,193,237,163,179,23,,73,35,63,43,10,9,0.9,1
2026-01-25T2200,4200A,112.7478,37.6954,晋中市,迎宾街26号,细颗粒物(PM2.5),218,173,217,168,189,32,,72,42,48,37,11,10,1.1,1.1
2026-01-25T2200,2439A,112.2012,31.048,荆门市,竹园小学,细颗粒物(PM2.5),150,120,92,115,79,50,,49,49,26,34,1,2,0.6,0.5
2026-01-25T2200,2440A,112.1968,30.9892,荆门市,掇刀,细颗粒物(PM2.5),132,116,88,100,73,53,,52,52,21,27,1,4,0.8,0.7
2026-01-25T2200,3012A,112.1849,31.0361,荆门市,西山林语,细颗粒物(PM2.5),124,112,82,94,66,53,,52,52,23,25,4,8,1.0,0.9
2026-01-25T2200,3547A,112.1631,31.0134,荆门市,龙泉中学南校,细颗粒物(PM2.5),132,102,85,100,73,57,,58,57,6,17,2,5,0.9,0.6
2026-01-25T2200,4124A,112.2213,31.0654,荆门市,新台西路6号,细颗粒物(PM2.5),158,124,91,120,79,50,,49,49,27,34,7,8,1.1,1
2026-01-25T2200,1844A,112.2493,30.3198,荆州市,市图书馆,细颗粒物(PM2.5),109,,60,82,71,40,,51,36,25,25,6,7,1.0,0.9
2026-01-25T2200,1845A,112.2009,30.3543,荆州市,市委党校,细颗粒物(PM2.5),102,90,74,76,71,40,,42,36,32,36,5,3,1.0,0.9
2026-01-25T2200,3194A,112.2749,30.3124,荆州市,管委会,细颗粒物(PM2.5),94,82,65,70,69,44,,47,36,22,27,5,6,1.1,1.1
2026-01-25T2200,4268A,112.1722,30.3366,荆州市,学苑路85号,细颗粒物(PM2.5),114,,69,86,66,45,,45,40,19,24,7,8,1.2,1.1
2026-01-25T2200,2343A,117.2114,29.2931,景德镇市,老干部活动中心,细颗粒物(PM2.5),68,58,46,49,35,8,,52,39,47,26,5,4,0.8,0.6
2026-01-25T2200,2344A,117.1893,29.2789,景德镇市,兽医站,"颗粒物(PM10),细颗粒物(PM2.5)",53,55,58,37,31,38,,71,58,27,27,3,4,0.6,0.6
2026-01-25T2200,2346A,117.246,29.2958,景德镇市,陶研所,细颗粒物(PM2.5),53,50,43,37,36,19,,58,44,28,22,3,3,1.0,0.8
2026-01-25T2200,4289A,117.154766,29.256967,景德镇市,青少年活动中心,颗粒物(PM10),68,85,72,43,38,22,,64,43,43,36,5,6,/,/
2026-01-25T2200,1803A,115.9873,29.6816,九江市,十里,细颗粒物(PM2.5),125,114,86,95,68,43,,41,41,42,48,7,10,1.3,1.2
2026-01-25T2200,1804A,115.9583,29.7047,九江市,茅山头,细颗粒物(PM2.5),122,110,89,92,65,34,,40,39,32,48,6,8,1.0,0.9
2026-01-25T2200,1805A,115.9877,29.7295,九江市,西园,细颗粒物(PM2.5),119,128,91,90,63,39,,45,42,47,56,6,9,0.8,0.7
2026-01-25T2200,1808A,115.9112,29.6038,九江市,综合工业园,细颗粒物(PM2.5),153,120,88,117,80,26,,24,22,53,64,4,6,0.7,0.7
2026-01-25T2200,3190A,116.0254,29.6995,九江市,外国语学校,细颗粒物(PM2.5),117,120,77,88,64,31,,32,30,42,50,5,12,0.8,0.8
2026-01-25T2200,4253A,116.010205,29.659402,九江市,莲花大道8号,细颗粒物(PM2.5),149,126,79,114,75,29,,33,31,30,31,4,5,0.9,0.7
2026-01-25T2200,4240A,98.495752,39.733935,酒泉市,玉门东路5号,颗粒物(PM10),289,412,510,73,103,27,,60,50,29,12,10,11,0.5,0.4
2026-01-25T2200,4241A,98.5099,39.7506,酒泉市,北大街108号,颗粒物(PM10),258,390,664,72,103,37,,55,50,23,11,9,10,0.6,0.4
2026-01-25T2200,2698A,76.0071,39.466,喀什地区,巡警大队,颗粒物(PM10),500,636,586,171,132,41,,56,55,31,26,5,5,1.0,0.9
2026-01-25T2200,2699A,75.9756,39.4693,喀什地区,吾办,颗粒物(PM10),439,539,507,163,143,44,,56,56,32,28,11,9,0.8,1
2026-01-25T2200,4027A,75.9485,39.4688,喀什地区,老干局,颗粒物(PM10),500,630,590,162,125,21,,56,52,49,20,4,3,1.4,0.8
2026-01-25T2200,1824A,114.3389,34.778,开封市,肿瘤医院,细颗粒物(PM2.5),148,131,161,113,134,30,,56,42,39,36,14,13,1.2,1.2
2026-01-25T2200,1826A,114.2884,34.7966,开封市,世纪星幼儿园,细颗粒物(PM2.5),176,134,150,133,154,30,,56,41,44,39,8,8,1.0,1
2026-01-25T2200,3147A,114.3434,34.8101,开封市,龙亭公园,细颗粒物(PM2.5),170,,156,129,152,26,,48,36,44,41,10,10,1.2,1.1
2026-01-25T2200,3210A,114.3645,34.7955,开封市,汴京公园,细颗粒物(PM2.5),178,,161,134,149,25,,47,35,39,40,7,7,1.0,0.9
2026-01-25T2200,3473A,114.2485,34.8306,开封市,技师学院,细颗粒物(PM2.5),142,123,152,108,139,30,,45,41,43,43,10,9,0.9,1
2026-01-25T2200,3592A,114.4518,34.7503,开封市,祥符区生态环境局,细颗粒物(PM2.5),169,180,185,128,142,25,,42,34,43,43,7,7,0.9,1
2026-01-25T2200,1951A,84.886,45.6029,克拉玛依市,长征新村,颗粒物(PM10),64,78,83,41,48,60,,67,67,25,21,6,6,0.6,0.6
2026-01-25T2200,1952A,84.8894,45.5827,克拉玛依市,南林小区,颗粒物(PM10),69,87,81,45,44,17,,66,59,46,25,2,3,1.1,0.8
2026-01-25T2200,1954A,84.896,44.3328,克拉玛依市,独山子区,细颗粒物(PM2.5),110,141,112,83,58,45,,62,50,64,50,2,2,0.8,0.7
2026-01-25T2200,1955A,85.6888,46.0909,克拉玛依市,乌尔禾区商贸楼,颗粒物(PM10),56,62,59,31,33,20,,68,54,60,26,8,7,0.8,0.5
2026-01-25T2200,3612A,85.1045,45.6895,克拉玛依市,白碱滩区新站,颗粒物(PM10),67,83,88,46,45,41,,56,51,25,26,8,9,0.7,0.7
2026-01-25T2200,2697A,76.1457,39.7143,克孜勒苏柯尔克孜自治州,市人民政府,颗粒物(PM10),500,603,576,152,134,51,,65,65,22,15,4,3,0.4,0.4
2026-01-25T2200,3665A,76.1654,39.7157,克孜勒苏柯尔克孜自治州,克州文化中心,颗粒物(PM10),500,601,616,133,136,39,,65,63,28,12,4,3,0.9,0.6
2026-01-25T2200,1450A,102.8203,24.889,昆明市,呈贡新区,,41,41,29,27,15,62,,78,74,22,17,8,4,0.5,0.4
2026-01-25T2200,1452A,102.7253,25.0904,昆明市,龙泉镇,,43,43,49,25,20,74,,82,69,17,35,4,4,0.5,0.5
2026-01-25T2200,1453A,102.7267,25.0378,昆明市,东风东路,,45,34,27,31,22,76,,83,80,19,19,7,9,0.7,0.6
2026-01-25T2200,1454A,102.6744,25.0671,昆明市,金鼎山,,46,43,34,32,19,75,,81,76,16,22,6,5,0.5,0.4
2026-01-25T2200,1455A,102.6643,25.0401,昆明市,碧鸡广场,颗粒物(PM10),51,52,34,32,19,66,,80,72,27,28,6,6,0.7,0.6
2026-01-25T2200,3179A,102.7491,25.012,昆明市,官渡区博物馆,,35,33,35,24,20,62,,87,78,24,26,4,5,0.6,0.7
2026-01-25T2200,3375A,102.8016,24.8336,昆明市,青年创业园,,45,45,28,23,16,67,,87,80,15,16,18,8,0.5,0.3
2026-01-25T2200,3550A,102.8,24.9787,昆明市,昆明学院,,46,46,36,24,20,76,,87,84,15,18,4,5,0.5,0.5
2026-01-25T2200,3551A,102.5969,24.6738,昆明市,晋宁区生态环境分局,,40,40,24,22,15,81,,87,86,6,9,3,3,0.6,0.6
2026-01-25T2200,3552A,102.6673,24.9861,昆明市,云天化总部,,37,37,27,24,15,84,,86,86,10,20,6,9,0.4,0.4
2026-01-25T2200,1456A,91.132,29.6515,拉萨市,八廓街,,38,33,20,26,12,53,,98,89,43,15,9,7,1.1,0.5
2026-01-25T2200,1457A,91.1221,29.6748,拉萨市,市环保局,"颗粒物(PM10),细颗粒物(PM2.5)",63,75,22,45,13,44,,92,83,47,16,11,7,1.5,0.7
2026-01-25T2200,1458A,91.0874,29.6476,拉萨市,区监测站,,22,16,13,8,7,68,,93,89,31,12,5,4,0.8,0.7
2026-01-25T2200,1459A,91.1774,29.6541,拉萨市,西藏大学,,25,17,17,11,9,79,,96,92,18,14,6,5,0.6,0.5
2026-01-25T2200,1460A,90.9798,29.6586,拉萨市,区辐射站,细颗粒物(PM2.5),57,58,30,40,15,43,,92,81,53,16,8,4,1.2,0.5
2026-01-25T2200,1461A,91.0831,29.6292,拉萨市,拉萨火车站,,20,10,13,8,8,61,,93,89,24,10,4,4,0.5,0.3
2026-01-25T2200,2520A,109.2203,23.7252,来宾市,来宾技工学校,细颗粒物(PM2.5),168,146,90,127,86,18,,39,35,37,26,11,11,1.3,1
2026-01-25T2200,3535A,109.1781,23.7293,来宾市,兴宾区政府,细颗粒物(PM2.5),113,102,96,85,79,22,,48,43,19,21,5,7,1.0,0.9
2026-01-25T2200,4002A,109.2312,23.7428,来宾市,中南小学,细颗粒物(PM2.5),158,139,83,120,81,18,,38,32,39,28,9,6,1.5,1.1
2026-01-25T2200,1479A,103.8309,36.0467,兰州市,铁路设计院,,,,,,,,,,,,,,,,
2026-01-25T2200,3241A,103.7439,36.0841,兰州市,百合公园,颗粒物(PM10),500,812,837,149,138,24,,55,38,38,20,10,7,0.4,0.4
2026-01-25T2200,3242A,103.9613,35.9985,兰州市,和平,颗粒物(PM10),500,1060,948,191,154,10,,63,41,38,17,9,8,0.8,0.7
2026-01-25T2200,4236A,103.629272,36.093822,兰州市,庄浪东路808号,颗粒物(PM10),500,822,860,176,170,19,,58,36,42,24,9,11,0.8,0.7
2026-01-25T2200,4237A,103.7251,36.104344,兰州市,安宁西路88号,颗粒物(PM10),500,923,959,138,136,51,,62,52,14,18,6,7,0.4,0.5
2026-01-25T2200,4238A,103.846982,36.067567,兰州市,北滨河东路1号,颗粒物(PM10),500,946,940,166,154,16,,56,44,51,22,7,7,0.9,0.7
2026-01-25T2200,1067A,116.6712,39.5109,廊坊市,药材公司,,27,27,76,14,53,41,,53,50,27,43,1,5,0.4,0.8
2026-01-25T2200,1068A,116.7215,39.5592,廊坊市,开发区,,35,35,82,17,56,47,,54,52,28,51,2,4,0.3,0.8
2026-01-25T2200,1070A,116.7246,39.5273,廊坊市,北华航天学院,,34,34,83,14,52,43,,54,52,26,45,2,5,0.3,0.8
2026-01-25T2200,2919A,116.7022,39.5454,廊坊市,河北工业大学,,35,35,82,14,49,46,,54,52,21,41,1,4,0.3,0.7
2026-01-25T2200,2536A,103.7629,29.5844,乐山市,牛耳桥,细颗粒物(PM2.5),98,89,77,73,66,1,,32,23,53,29,7,6,1.2,0.9
2026-01-25T2200,2537A,103.7501,29.6002,乐山市,市第三水厂,细颗粒物(PM2.5),97,90,76,72,64,2,,35,28,64,32,6,6,1.2,0.9
2026-01-25T2200,2538A,103.7571,29.5664,乐山市,市监测站,细颗粒物(PM2.5),77,70,73,56,63,24,,32,30,34,24,5,6,0.9,0.9
2026-01-25T2200,3361A,103.7313,29.563,乐山市,理工大学,细颗粒物(PM2.5),82,72,72,60,66,20,,30,27,28,21,6,6,0.9,0.7
2026-01-25T2200,2599A,100.2497,26.8802,丽江市,丽江古城,,33,33,26,10,11,67,,84,81,17,11,10,10,0.5,0.4
2026-01-25T2200,2600A,100.2203,26.8906,丽江市,市中心,,23,21,16,12,7,72,,83,80,17,11,7,6,0.5,0.4
2026-01-25T2200,1267A,119.9141,28.4513,丽水市,监测站大楼,,33,33,43,23,35,79,,95,87,12,17,4,6,0.4,0.4
2026-01-25T2200,1268A,119.93,28.4589,丽水市,莲都小学,,25,21,43,9,21,79,,98,92,17,25,/,/,/,/
2026-01-25T2200,1269A,119.8794,28.4232,丽水市,余庄前,,26,24,42,13,28,82,,97,90,14,21,4,5,0.4,0.4
2026-01-25T2200,1173A,119.1759,34.5885,连云港市,市环境监测站,细颗粒物(PM2.5),55,51,64,39,50,78,,92,83,17,16,10,10,0.4,0.5
2026-01-25T2200,3000A,119.3577,34.6971,连云港市,德源药业,,44,44,72,24,49,79,,86,82,16,36,5,5,0.5,0.6
2026-01-25T2200,3007A,119.178,34.8442,连云港市,新城一中,,48,48,90,16,62,85,,89,86,17,56,9,10,0.5,0.8
2026-01-25T2200,3008A,119.3607,34.7519,连云港市,胡沟管理处,,39,39,64,24,45,47,,81,68,52,51,12,10,0.4,0.6
2026-01-25T2200,3009A,119.1478,34.5913,连云港市,矿山设计院,颗粒物(PM10),51,51,67,34,49,80,,89,83,14,19,8,8,0.7,0.8
2026-01-25T2200,3434A,119.2414,34.6539,连云港市,工贸学校,,50,47,62,35,53,92,,92,91,11,13,10,10,0.4,0.6
2026-01-25T2200,3664A,119.4171,34.734,连云港市,连云街道,,38,38,62,23,46,85,,94,76,17,28,3,5,0.5,0.6
2026-01-25T2200,2573A,102.2629,27.8981,凉山彝族自治州,西昌市政府,,46,46,49,24,27,76,,86,85,14,20,11,10,0.6,0.7
2026-01-25T2200,2574A,102.2686,27.885,凉山彝族自治州,凉山州政府,颗粒物(PM10),58,65,53,28,32,53,,81,76,23,23,12,10,0.7,0.7
2026-01-25T2200,4229A,102.2342,27.8859,凉山彝族自治州,凯乐南路30号,,44,44,56,22,27,83,,85,84,7,18,13,10,0.8,0.6
2026-01-25T2200,2212A,123.1978,41.2036,辽阳市,宏伟区,细颗粒物(PM2.5),73,91,54,53,29,16,,52,34,37,22,17,11,0.8,0.6
2026-01-25T2200,2213A,123.1684,41.2497,辽阳市,新华园,细颗粒物(PM2.5),62,67,51,44,24,20,,58,40,50,28,22,16,0.7,0.5
2026-01-25T2200,2214A,123.2355,41.2663,辽阳市,滨河路,细颗粒物(PM2.5),69,76,49,50,30,12,,51,30,54,31,16,12,0.7,0.6
2026-01-25T2200,4083A,123.153,41.2874,辽阳市,铁西路150号,细颗粒物(PM2.5),73,66,51,53,29,13,,59,34,51,31,24,13,1.1,1
2026-01-25T2200,2227A,125.1359,42.8845,辽源市,环保局,细颗粒物(PM2.5),125,108,76,95,56,13,,64,43,67,44,6,6,2.5,1.2
2026-01-25T2200,4085A,125.0998,42.9134,辽源市,安宁大街333号,细颗粒物(PM2.5),129,116,73,98,61,7,,68,53,45,23,8,6,1.5,1.2
2026-01-25T2200,1625A,115.9789,36.4372,聊城市,区政府,颗粒物(PM10),54,58,140,36,100,42,,38,38,33,53,17,23,0.8,1.3
2026-01-25T2200,3200A,115.9772,36.4986,聊城市,监控中心,颗粒物(PM10),55,59,139,36,112,42,,42,42,28,50,8,10,0.6,1
2026-01-25T2200,3513A,116.0443,36.436,聊城市,九州社区,颗粒物(PM10),62,74,141,33,106,53,,49,49,17,38,12,17,0.7,1.1
2026-01-25T2200,4018A,116.0564,36.4609,聊城市,星美广场,颗粒物(PM10),60,70,148,33,104,44,,43,43,20,36,8,10,0.7,1.2
2026-01-25T2200,4113A,116.0091,36.4495,聊城市,利民路,颗粒物(PM10),56,61,142,24,105,41,,36,36,27,52,14,20,0.7,1.1
2026-01-25T2200,2632A,94.3683,29.6373,林芝市,林芝监测站,,27,14,15,11,10,86,,87,87,1,2,3,3,0.2,0.2
2026-01-25T2200,2633A,94.3616,29.6634,林芝市,林芝人民医院,,28,18,19,12,11,87,,90,90,1,3,6,6,0.2,0.2
2026-01-25T2200,2603A,100.0779,23.8981,临沧市,市环保局,细颗粒物(PM2.5),120,,34,91,37,42,,81,72,19,11,10,8,0.9,0.6
2026-01-25T2200,2604A,100.0894,23.882,临沧市,市气象局,颗粒物(PM10),53,55,45,31,24,43,,86,80,18,14,14,10,0.6,0.4
2026-01-25T2200,1733A,111.5552,36.0791,临汾市,临钢医院,细颗粒物(PM2.5),257,238,179,207,147,11,,72,14,48,33,4,4,1.9,1.5
2026-01-25T2200,1734A,111.4984,36.0734,临汾市,技工学校,细颗粒物(PM2.5),282,,152,232,161,7,,68,14,52,37,4,3,1.9,1.4
2026-01-25T2200,1736A,111.5017,36.0857,临汾市,市委,细颗粒物(PM2.5),236,238,168,186,134,9,,72,16,49,32,7,6,2.0,1.5
2026-01-25T2200,3018A,111.5048,36.1015,临汾市,唐尧大酒店,细颗粒物(PM2.5),234,200,159,184,135,13,,72,17,47,32,2,2,2.0,1.6
2026-01-25T2200,4244A,111.4879,36.053,临汾市,启星学校,细颗粒物(PM2.5),217,206,142,167,119,6,,72,15,60,39,5,5,1.9,1.4
2026-01-25T2200,4271A,103.2464,35.6123,临夏回族自治州,滨河东路1号,颗粒物(PM10),500,796,601,219,122,13,,44,29,52,30,8,8,1.4,1.1
2026-01-25T2200,4310A,103.207136,35.599807,临夏回族自治州,新华街21号,颗粒物(PM10),500,846,674,158,117,35,,50,40,20,19,8,10,0.7,0.7
2026-01-25T2200,1618A,118.3429,35.0532,临沂市,沂河小区,细颗粒物(PM2.5),52,44,118,36,105,56,,74,67,21,42,12,14,0.6,1.2
2026-01-25T2200,1619A,118.2962,35.0568,临沂市,鲁南制药厂,,45,44,114,31,95,54,,70,65,25,47,12,16,0.5,1.1
2026-01-25T2200,1620A,118.2793,34.9976,临沂市,新光毛纺厂,,43,41,101,30,87,59,,76,68,27,45,11,15,0.8,1.3
2026-01-25T2200,1621A,118.3955,35.0889,临沂市,河东保险公司,,44,44,124,25,91,58,,78,71,24,52,10,13,0.5,1.2
2026-01-25T2200,3370A,118.3563,35.0215,临沂市,十里堡居委,,39,39,113,17,80,59,,80,71,23,45,11,15,0.6,1.3
2026-01-25T2200,3496A,118.359,35.1067,临沂市,南坊新区,,36,36,118,24,92,56,,78,71,29,51,10,15,0.7,1.4
2026-01-25T2200,3860A,118.3915,35.0297,临沂市,皇山花园小区,,44,44,122,21,82,61,,82,72,31,55,14,18,0.8,1.4
2026-01-25T2200,1870A,109.4854,24.3898,柳州市,柳东小学,细颗粒物(PM2.5),140,121,66,107,58,16,,48,42,28,19,11,11,1.3,0.9
2026-01-25T2200,1871A,109.4109,24.3304,柳州市,环保监测站,细颗粒物(PM2.5),232,212,120,182,98,8,,34,24,54,38,11,8,2.0,1.3
2026-01-25T2200,1872A,109.3886,24.3408,柳州市,河西水厂,细颗粒物(PM2.5),212,250,138,162,89,,,33,32,46,36,9,7,1.4,1.1
2026-01-25T2200,1873A,109.4263,24.2951,柳州市,市四中,细颗粒物(PM2.5),208,198,112,158,88,5,,31,24,53,39,16,13,1.8,1.3
2026-01-25T2200,1874A,109.396,24.3658,柳州市,市九中,细颗粒物(PM2.5),206,,114,156,83,4,,24,18,46,38,15,13,1.7,1.2
2026-01-25T2200,1875A,109.4912,24.3164,柳州市,古亭山,细颗粒物(PM2.5),188,145,77,141,78,3,,45,37,54,29,8,8,1.4,0.8
2026-01-25T2200,3402A,109.5422,24.3994,柳州市,市二中,细颗粒物(PM2.5),160,136,68,122,59,6,,46,37,39,26,10,12,1.2,0.8
2026-01-25T2200,2307A,116.5078,31.7369,六安市,监测大楼,细颗粒物(PM2.5),158,122,116,120,109,14,,37,24,49,43,3,4,0.8,0.8
2026-01-25T2200,2308A,116.4738,31.7642,六安市,皖西学院,细颗粒物(PM2.5),139,131,125,106,105,18,,44,30,42,42,4,6,0.8,0.8
2026-01-25T2200,2309A,116.4997,31.7904,六安市,朝阳厂,细颗粒物(PM2.5),147,118,117,112,103,19,,43,26,44,46,5,6,0.9,0.9
2026-01-25T2200,2310A,116.5566,31.7885,六安市,开发区,细颗粒物(PM2.5),150,,122,115,103,11,,37,24,48,40,4,5,0.8,0.9
2026-01-25T2200,2577A,104.8293,26.592,六盘水市,黄土坡,细颗粒物(PM2.5),64,61,57,46,43,47,,48,48,23,24,10,13,0.7,1.2
2026-01-25T2200,2579A,104.8481,26.5898,六盘水市,民中,细颗粒物(PM2.5),67,52,48,48,40,50,,48,48,16,20,6,7,0.7,1
2026-01-25T2200,2580A,104.9541,26.5506,六盘水市,双水,细颗粒物(PM2.5),55,53,45,39,29,46,,51,51,13,15,5,7,0.4,0.6
2026-01-25T2200,4151A,104.8899,26.5685,六盘水市,钟山大道中段564号,"颗粒物(PM10),细颗粒物(PM2.5)",57,64,54,40,34,42,,47,47,14,14,11,8,0.9,1
2026-01-25T2200,2336A,117.022,25.1031,龙岩市,龙岩市监测站,,30,30,40,20,31,28,,86,74,59,31,12,19,0.8,0.6
2026-01-25T2200,2337A,117.0257,25.0662,龙岩市,闽西职业技术学院,,29,29,43,16,32,56,,83,75,23,23,14,10,0.6,0.7
2026-01-25T2200,2338A,117.0195,25.0306,龙岩市,龙岩学院,,29,26,37,20,34,43,,85,76,18,16,9,9,/,/
2026-01-25T2200,2885A,104.9344,33.3827,陇南市,滨江中学,颗粒物(PM10),414,514,229,118,63,17,,62,54,53,23,9,6,1.7,1.2
2026-01-25T2200,3247A,104.9551,33.3709,陇南市,市总工会,颗粒物(PM10),324,439,232,122,71,48,,60,58,15,20,7,8,0.8,0.9
2026-01-25T2200,2488A,111.9984,27.7346,娄底市,市监测站,,43,32,66,30,51,28,,41,32,24,31,6,12,0.8,0.8
2026-01-25T2200,2491A,111.9888,27.7035,娄底市,市政府,细颗粒物(PM2.5),55,42,62,39,56,25,,38,29,19,23,4,8,1.0,1
2026-01-25T2200,4127A,111.9812,27.7591,娄底市,涟钢职大,,34,34,62,22,45,19,,36,31,17,22,4,8,0.8,0.8
2026-01-25T2200,4128A,112.0303,27.7457,娄底市,娄底体校,,35,26,59,24,51,24,,37,31,21,17,1,4,0.8,0.5
2026-01-25T2200,1894A,105.4427,28.9063,泸州市,小市上码头,细颗粒物(PM2.5),73,68,70,53,55,33,,38,37,24,21,5,4,1.0,1
2026-01-25T2200,1895A,105.4241,28.8573,泸州市,兰田宪桥,细颗粒物(PM2.5),77,73,70,56,49,14,,36,31,23,15,7,7,0.9,0.8
2026-01-25T2200,1896A,105.4378,28.8833,泸州市,市环监站,细颗粒物(PM2.5),69,71,74,50,50,22,,37,33,33,21,9,9,0.9,0.9
2026-01-25T2200,4272A,105.3689,28.7783,泸州市,纳溪中医医院,细颗粒物(PM2.5),78,66,63,57,54,5,,30,19,29,16,8,7,1.0,0.9
2026-01-25T2200,2183A,111.1447,37.5212,吕梁市,环保局,细颗粒物(PM2.5),94,97,102,70,72,4,,58,22,66,35,5,6,1.3,1
2026-01-25T2200,2185A,111.1285,37.5338,吕梁市,自来水公司,细颗粒物(PM2.5),87,106,110,64,73,13,,56,24,50,32,2,5,1.3,1.2
2026-01-25T2200,2867A,111.1225,37.5093,吕梁市,马茂庄小学,细颗粒物(PM2.5),118,105,124,89,76,3,,51,16,64,42,5,5,1.9,1.5
2026-01-25T2200,1812A,112.3934,34.6517,洛阳市,市委党校,细颗粒物(PM2.5),209,165,157,159,147,53,,64,50,37,36,10,10,1.2,1.1
2026-01-25T2200,1815A,112.494,34.6883,洛阳市,河南林校,细颗粒物(PM2.5),212,165,157,162,151,48,,63,48,40,38,10,9,1.2,1.1
2026-01-25T2200,1816A,112.3843,34.623,洛阳市,开发区管委会,细颗粒物(PM2.5),221,198,182,171,159,67,,72,63,28,30,13,13,1.0,0.9
2026-01-25T2200,1817A,112.4263,34.6249,洛阳市,市委新办公区,细颗粒物(PM2.5),203,198,187,153,143,58,,67,55,33,35,9,9,1.1,1
2026-01-25T2200,3340A,112.6005,34.6323,洛阳市,伊滨,细颗粒物(PM2.5),200,189,179,150,133,39,,73,62,47,34,8,8,1.0,0.9
2026-01-25T2200,3341A,112.495,34.6338,洛阳市,中移产业园,细颗粒物(PM2.5),206,165,155,156,148,53,,66,49,43,44,10,11,1.2,1.1
2026-01-25T2200,3593A,112.5736,34.8993,洛阳市,吉利监测站,细颗粒物(PM2.5),231,187,171,181,169,14,,67,42,59,32,8,8,1.2,1.1
2026-01-25T2200,3635A,112.3678,34.6623,洛阳市,河科大西苑校区,细颗粒物(PM2.5),196,185,170,147,135,50,,72,47,42,37,10,9,1.1,1
2026-01-25T2200,3636A,112.4387,34.678,洛阳市,英才小学,细颗粒物(PM2.5),209,188,175,159,148,53,,69,48,38,37,10,9,1.2,1.1
2026-01-25T2200,4214A,112.460027,34.694929,洛阳市,春都路1号院,细颗粒物(PM2.5),189,200,183,142,129,39,,61,39,41,33,10,8,1.1,1
2026-01-25T2200,2399A,114.051,33.5721,漯河市,三五一五工厂,细颗粒物(PM2.5),205,193,186,155,154,31,,62,34,36,28,8,7,1.5,1.4
2026-01-25T2200,2400A,114.0055,33.5698,漯河市,漯河大学,细颗粒物(PM2.5),170,149,155,129,147,34,,68,38,35,27,7,6,1.0,0.9
2026-01-25T2200,2401A,114.0134,33.5826,漯河市,市水利局,细颗粒物(PM2.5),170,161,168,129,148,30,,56,30,35,27,6,5,1.2,1.1
2026-01-25T2200,2402A,114.0261,33.5697,漯河市,市广电局,细颗粒物(PM2.5),179,156,165,135,147,29,,60,32,32,23,8,7,1.1,1.1
2026-01-25T2200,3478A,113.9691,33.568,漯河市,市图书馆,细颗粒物(PM2.5),202,202,185,152,152,31,,63,34,33,25,8,7,1.2,1.1
2026-01-25T2200,4250A,114.089259,33.588274,漯河市,韶山路11号,细颗粒物(PM2.5),204,199,184,154,154,27,,52,28,38,32,9,8,1.1,1
2026-01-25T2200,1798A,118.5084,31.6838,马鞍山市,湖东路四小,细颗粒物(PM2.5),79,80,120,58,89,40,,44,38,30,44,3,5,0.7,0.8
2026-01-25T2200,1799A,118.5019,31.6449,马鞍山市,开发区,细颗粒物(PM2.5),77,79,126,56,102,44,,48,44,29,45,4,6,0.6,0.8
2026-01-25T2200,3633A,118.4914,31.681,马鞍山市,雨山,细颗粒物(PM2.5),74,80,121,54,91,43,,47,41,30,45,8,8,0.7,0.8
2026-01-25T2200,4191A,118.527362,31.722269,马鞍山市,慈湖高新区,细颗粒物(PM2.5),68,71,117,49,93,46,,50,46,26,43,4,5,0.6,0.8
2026-01-25T2200,1686A,111.0285,21.469,茂名市,电白南海,,34,34,51,11,22,93,,99,98,15,15,8,9,1.0,1
2026-01-25T2200,1687A,110.9294,21.6533,茂名市,茂石化七小,,36,36,53,17,29,93,,96,94,13,15,4,9,0.5,0.7
2026-01-25T2200,1688A,110.9108,21.6688,茂名市,健康路,,39,39,47,11,26,104,,107,105,16,20,6,10,0.6,0.7
2026-01-25T2200,1689A,110.8592,21.6826,茂名市,高岭,,41,41,67,14,31,94,,93,91,10,23,6,11,/,/
2026-01-25T2200,3450A,111.0101,21.5165,茂名市,电白水东,,28,27,45,19,26,83,,85,84,10,12,7,10,/,/
2026-01-25T2200,2540A,103.8414,30.0871,眉山市,气象局,细颗粒物(PM2.5),110,87,79,83,65,18,,53,45,37,30,13,13,1.0,0.9
2026-01-25T2200,3148A,103.829,30.0563,眉山市,区人社局,细颗粒物(PM2.5),89,72,72,66,57,16,,46,40,32,28,5,7,0.9,0.8
2026-01-25T2200,4148A,103.8836,30.0695,眉山市,眉职院,细颗粒物(PM2.5),89,84,78,66,57,15,,46,39,31,23,1,2,1.0,0.9
2026-01-25T2200,1690A,116.1248,24.3307,梅州市,梅江月梅,颗粒物(PM10),74,97,54,36,33,51,,87,74,28,33,/,/,/,/
2026-01-25T2200,1691A,116.0798,24.2719,梅州市,梅县新城,细颗粒物(PM2.5),100,92,54,75,39,5,,82,55,75,36,8,8,1.4,0.7
2026-01-25T2200,3315A,116.1234,24.2994,梅州市,梅龙,颗粒物(PM10),59,68,57,40,34,9,,73,50,60,36,9,9,1.6,1
2026-01-25T2200,1878A,104.7775,31.4741,绵阳市,富乐山,颗粒物(PM10),117,184,83,59,51,14,,46,43,42,23,8,8,0.7,0.6
2026-01-25T2200,1880A,104.6698,31.4668,绵阳市,高新区自来水公司,颗粒物(PM10),138,225,91,68,54,0,,41,30,66,36,9,8,1.2,1
2026-01-25T2200,3491A,104.6899,31.5324,绵阳市,西科大附属小学,颗粒物(PM10),140,229,95,73,55,5,,43,35,55,35,8,8,0.7,0.7
2026-01-25T2200,3492A,104.5647,31.5343,绵阳市,安州区旅游局,颗粒物(PM10),124,197,84,63,51,4,,46,36,57,26,9,9,1.0,0.7
2026-01-25T2200,4146A,104.7092,31.4972,绵阳市,科技城新区公安局,颗粒物(PM10),136,222,92,52,45,8,,50,45,70,39,5,6,0.8,0.8
2026-01-25T2200,4226A,104.765114,31.453094,绵阳市,绵阳市气象局,颗粒物(PM10),121,192,93,58,50,5,,34,29,55,31,10,7,0.9,0.8
2026-01-25T2200,1784A,129.61,44.561,牡丹江市,环保大楼,,46,42,35,32,20,38,,73,64,38,15,3,3,0.6,0.3
2026-01-25T2200,1787A,129.6364,44.6075,牡丹江市,机车工厂,细颗粒物(PM2.5),54,46,41,38,25,60,,61,61,13,17,6,7,0.4,0.5
2026-01-25T2200,1788A,129.6386,44.5462,牡丹江市,第一中学,细颗粒物(PM2.5),52,41,30,36,23,29,,72,60,37,19,8,4,0.5,0.3
2026-01-25T2200,4287A,129.5992,44.5964,牡丹江市,东晓云街98号,,39,39,38,27,20,67,,73,71,11,12,3,4,0.5,0.5
2026-01-25T2200,2531A,105.0703,29.61,内江市,市监测站,细颗粒物(PM2.5),95,88,71,71,63,22,,44,40,40,19,4,4,0.9,0.8
2026-01-25T2200,2533A,105.0657,29.5807,内江市,内江二中,细颗粒物(PM2.5),79,97,81,58,53,16,,36,30,43,29,5,5,0.5,0.4
2026-01-25T2200,2534A,105.0407,29.5828,内江市,内江日报社,细颗粒物(PM2.5),82,84,66,60,57,19,,39,35,39,29,3,6,0.9,0.9
2026-01-25T2200,4147A,105.0433,29.6105,内江市,玉峰路西段888号,细颗粒物(PM2.5),99,94,67,74,58,23,,42,36,40,26,2,2,1.3,1.2
2026-01-25T2200,2628A,92.0653,31.4846,那曲市,那曲监测站,细颗粒物(PM2.5),82,87,30,60,15,47,,98,84,64,15,17,7,1.9,0.8
2026-01-25T2200,4243A,92.0515,31.4787,那曲市,那曲市委宣传部,,40,35,18,28,8,71,,103,95,32,5,10,4,1.4,0.4
2026-01-25T2200,1291A,115.8887,28.7006,南昌市,省林业公司,细颗粒物(PM2.5),89,85,81,66,64,19,,50,39,49,52,6,7,0.6,0.7
2026-01-25T2200,1292A,115.813,28.7443,南昌市,林科所,细颗粒物(PM2.5),83,68,66,61,50,34,,66,54,34,39,6,6,0.6,0.6
2026-01-25T2200,1294A,115.8518,28.687,南昌市,建工学校,细颗粒物(PM2.5),92,86,88,68,64,31,,52,43,51,57,10,11,0.9,1
2026-01-25T2200,1295A,115.8926,28.6425,南昌市,象湖,细颗粒物(PM2.5),85,80,84,63,67,26,,47,37,38,44,10,11,0.8,1
2026-01-25T2200,3046A,115.9084,28.6062,南昌市,机电学校,细颗粒物(PM2.5),79,90,102,58,71,31,,52,39,43,52,6,7,0.6,0.8
2026-01-25T2200,3690A,115.9718,28.7032,南昌市,外国语学校,细颗粒物(PM2.5),97,91,96,72,70,20,,50,43,54,39,15,15,0.7,0.7
2026-01-25T2200,4106A,115.7923,28.6873,南昌市,工业二路,细颗粒物(PM2.5),79,63,76,58,62,41,,62,49,33,36,6,7,0.7,0.8
2026-01-25T2200,4192A,115.931587,28.686774,南昌市,南京东路235号,细颗粒物(PM2.5),84,105,94,62,75,24,,53,42,41,39,8,9,0.6,0.8
2026-01-25T2200,1906A,106.0791,30.8022,南充市,南充市委,细颗粒物(PM2.5),73,64,68,53,56,24,,29,28,37,26,4,4,0.7,0.7
2026-01-25T2200,1907A,106.1038,30.8215,南充市,南充炼油厂,细颗粒物(PM2.5),75,64,71,55,58,32,,32,32,20,17,5,6,0.7,0.7
2026-01-25T2200,4227A,106.108336,30.788436,南充市,梨树横街98号,细颗粒物(PM2.5),85,92,74,63,50,20,,36,31,37,24,5,5,0.9,0.8
2026-01-25T2200,4304A,106.1172,30.843,南充市,清泉寺北路188号,细颗粒物(PM2.5),75,71,62,55,47,28,,40,38,28,16,6,7,0.7,0.6
2026-01-25T2200,4305A,106.067,30.7616,南充市,同庆路1号,细颗粒物(PM2.5),73,60,63,53,52,26,,32,29,34,28,6,6,0.8,0.8
2026-01-25T2200,1151A,118.8033,32.1085,南京市,迈皋桥,,26,26,96,17,65,45,,47,47,36,48,5,7,0.4,0.6
2026-01-25T2200,1152A,118.7487,32.057,南京市,草场门,,29,29,93,17,66,31,,36,32,36,52,2,4,0.8,1
2026-01-25T2200,1154A,118.770105,32.004342,南京市,中华门,,44,44,98,19,74,36,,42,33,28,41,5,4,0.7,0.8
2026-01-25T2200,1155A,118.8059,32.0329,南京市,瑞金路,,36,36,101,24,75,34,,43,38,20,29,4,4,0.7,0.8
2026-01-25T2200,1156A,118.7946,32.0774,南京市,玄武湖,,34,34,100,16,70,38,,38,37,23,28,4,4,0.9,1.1
2026-01-25T2200,1157A,118.6415,32.0964,南京市,浦口,,45,45,114,29,82,33,,38,38,35,54,7,9,0.4,0.7
2026-01-25T2200,1158A,118.730129,32.000956,南京市,奥体中心,,49,49,106,31,79,44,,50,43,33,47,11,12,0.6,0.8
2026-01-25T2200,1159A,118.9072,32.1047,南京市,仙林大学城,,36,36,98,19,70,41,,44,44,27,46,5,8,0.8,1.1
2026-01-25T2200,3422A,118.8443,31.919,南京市,江宁彩虹桥,,48,48,116,24,75,51,,59,56,26,59,4,4,0.6,0.9
2026-01-25T2200,3427A,118.8497,32.3599,南京市,六合雄州,,23,21,89,16,64,60,,65,63,15,34,9,10,0.4,0.8
2026-01-25T2200,4086A,118.7641,32.0841,南京市,新模范马路66号,,36,36,102,13,70,55,,59,59,16,38,3,4,0.3,0.6
2026-01-25T2200,4249A,118.8707617,31.34017673,南京市,汶溪路181号,细颗粒物(PM2.5),75,89,107,55,96,42,,60,52,41,47,7,8,0.9,1
2026-01-25T2200,4312A,119.019,31.6512,南京市,中山西路1号,细颗粒物(PM2.5),62,,92,44,86,46,,60,51,26,34,4,4,0.8,1
2026-01-25T2200,1401A,108.3098,22.788,南宁市,二十一中,细颗粒物(PM2.5),102,110,71,76,58,0,,5,2,55,39,4,4,1.3,1
2026-01-25T2200,1402A,108.3135,22.8529,南宁市,北湖,细颗粒物(PM2.5),127,159,84,96,65,0,,0,0,55,40,2,2,2.1,1.2
2026-01-25T2200,1403A,108.3205,22.8222,南宁市,市监测站,细颗粒物(PM2.5),107,118,77,80,53,0,,2,0,61,42,6,5,2.0,1.3
2026-01-25T2200,1404A,108.3828,22.8038,南宁市,大自然花园,细颗粒物(PM2.5),82,95,73,60,53,1,,8,4,26,25,6,5,1.5,1.2
2026-01-25T2200,1406A,108.2397,22.8462,南宁市,区农职院,细颗粒物(PM2.5),105,130,76,79,54,0,,1,0,47,40,9,7,1.3,0.9
2026-01-25T2200,1407A,108.3285,22.7356,南宁市,英华嘉园,细颗粒物(PM2.5),123,121,80,93,68,1,,6,4,44,29,4,3,1.4,1
2026-01-25T2200,3401A,108.4829,22.762,南宁市,红星社区,细颗粒物(PM2.5),102,101,69,76,57,2,,15,12,40,29,4,4,1.4,1.1
2026-01-25T2200,4132A,108.2927,23.1477,南宁市,起凤路9号,细颗粒物(PM2.5),82,64,101,60,85,0,,4,1,21,25,4,2,1.3,1.2
2026-01-25T2200,4221A,108.2177,22.7774,南宁市,乐贤路16号,细颗粒物(PM2.5),133,115,82,101,72,0,,2,0,34,40,3,3,1.2,1.1
2026-01-25T2200,2332A,118.1682,26.6371,南平市,南平市监测站,,23,20,23,16,18,50,,77,68,16,13,4,4,0.6,0.6
2026-01-25T2200,2334A,118.1757,26.6276,南平市,南平七中,,21,21,22,14,16,45,,80,69,20,14,4,3,0.5,0.5
2026-01-25T2200,1168A,120.9056,31.9669,南通市,狼山街道,,23,14,62,9,47,71,,77,73,17,31,3,3,0.3,0.5
2026-01-25T2200,1170A,120.8635,32.0231,南通市,城中,,24,15,63,8,42,74,,79,74,15,25,4,4,0.4,0.6
2026-01-25T2200,1171A,120.9376,31.9301,南通市,星湖花园,,24,19,60,12,44,76,,80,76,17,28,4,4,0.3,0.5
2026-01-25T2200,1172A,120.8053,32.046,南通市,紫琅学院,,23,16,67,7,41,71,,78,73,16,26,4,4,0.5,0.5
2026-01-25T2200,3291A,121.0631,32.0644,南通市,通州监测站,,27,14,51,9,38,86,,96,90,16,19,3,3,0.5,0.5
2026-01-25T2200,3432A,120.9348,31.9874,南通市,环境教育馆,,24,22,61,11,49,74,,79,74,12,28,4,4,0.4,0.6
2026-01-25T2200,4091A,120.8692,31.9885,南通市,洪江路,,22,11,54,3,42,70,,75,71,16,24,4,4,0.3,0.5
2026-01-25T2200,2404A,112.5338,33.0086,南阳市,瓦房庄,细颗粒物(PM2.5),153,119,109,117,107,72,,76,74,16,14,6,5,1.0,0.9
2026-01-25T2200,2405A,112.5002,32.9734,南阳市,汉画馆,细颗粒物(PM2.5),160,132,114,122,110,69,,72,71,18,17,6,6,1.0,0.9
2026-01-25T2200,2406A,112.5778,33.0144,南阳市,气象站,细颗粒物(PM2.5),163,136,127,124,108,67,,74,72,19,17,4,4,1.0,0.9
2026-01-25T2200,2407A,112.548,32.9687,南阳市,理工学院,细颗粒物(PM2.5),145,127,109,111,90,67,,73,70,16,15,5,4,1.0,1
2026-01-25T2200,4008A,112.5233,32.9921,南阳市,卧龙区政府,细颗粒物(PM2.5),162,142,128,123,107,69,,72,71,15,14,5,4,1.0,1
2026-01-25T2200,1234A,121.8352,29.9111,宁波市,区环保大楼,,33,30,64,23,45,57,,88,73,41,50,5,6,0.3,0.4
2026-01-25T2200,1235A,121.5595,29.8208,宁波市,万里学院,,29,29,77,14,55,82,,92,91,19,44,4,4,0.5,0.7
2026-01-25T2200,1236A,121.713,29.9564,宁波市,龙赛医院,,,32,74,19,52,,,98,,25,51,4,5,0.4,0.6
2026-01-25T2200,1240A,121.5855,29.8635,宁波市,太古小学,,33,31,81,23,54,80,,99,96,22,43,3,4,0.6,0.7
2026-01-25T2200,1241A,121.5239,29.8673,宁波市,市环境监测中心,,34,34,77,15,60,82,,91,90,13,45,7,7,0.6,0.9
2026-01-25T2200,2871A,121.6156,29.9015,宁波市,万里国际学校,,37,37,74,14,51,88,,102,99,23,44,4,5,0.6,0.8
2026-01-25T2200,3710A,121.5593,29.8976,宁波市,白沙活动中心,,39,39,72,20,54,80,,95,92,25,48,4,5,0.2,0.4
2026-01-25T2200,4095A,121.8962,29.7529,宁波市,中科路88号,,30,19,50,6,35,95,,101,101,11,36,5,6,0.3,0.4
2026-01-25T2200,2341A,119.5387,26.6611,宁德市,宁德市监测站,细颗粒物(PM2.5),77,76,44,56,31,8,,44,14,51,39,3,4,1.1,0.8
2026-01-25T2200,3209A,119.5231,26.6562,宁德市,宁德一中,细颗粒物(PM2.5),79,64,42,58,35,11,,42,20,44,35,4,4,1.2,0.9
2026-01-25T2200,2618A,98.859,25.8541,怒江傈僳族自治州,州监测站,细颗粒物(PM2.5),53,50,36,37,25,44,,77,71,23,13,6,4,0.7,0.5
2026-01-25T2200,2619A,98.8607,25.8168,怒江傈僳族自治州,泸水一中,,42,42,32,28,27,23,,66,55,36,18,4,4,1.0,0.7
2026-01-25T2200,1888A,101.6891,26.571,攀枝花市,弄弄坪,细颗粒物(PM2.5),113,112,101,85,68,26,,99,88,66,49,38,37,3.2,2.3
2026-01-25T2200,1889A,101.577,26.5914,攀枝花市,河门口,细颗粒物(PM2.5),97,100,80,72,42,59,,106,102,29,29,29,23,1.2,1.6
2026-01-25T2200,1891A,101.7365,26.4986,攀枝花市,仁和,细颗粒物(PM2.5),83,83,70,61,48,43,,114,87,26,30,10,16,1.0,1.6
2026-01-25T2200,2835A,101.7222,26.567,攀枝花市,四十中小,细颗粒物(PM2.5),95,108,95,71,62,26,,91,78,73,56,25,28,1.9,2
2026-01-25T2200,1604A,122.0303,41.1489,盘锦市,开发区,颗粒物(PM10),51,51,52,34,36,41,,72,60,22,24,4,5,0.6,0.7
2026-01-25T2200,1605A,122.0486,41.0883,盘锦市,兴隆台,细颗粒物(PM2.5),74,,52,54,39,31,,68,52,32,24,7,6,0.6,0.7
2026-01-25T2200,1606A,121.8297,41.1026,盘锦市,新生街道,细颗粒物(PM2.5),74,62,54,54,45,37,,78,62,27,30,7,7,0.5,0.5
2026-01-25T2200,1832A,113.3257,33.7423,平顶山市,新华旅馆,细颗粒物(PM2.5),200,187,169,150,133,48,,71,53,34,28,8,7,1.2,1
2026-01-25T2200,1833A,113.2917,33.737,平顶山市,规划设计院,细颗粒物(PM2.5),208,221,183,158,134,52,,74,54,26,20,8,7,1.1,1
2026-01-25T2200,1834A,113.182,33.7738,平顶山市,平顶山工学院,细颗粒物(PM2.5),192,168,157,144,133,59,,77,55,23,23,7,7,1.0,0.9
2026-01-25T2200,3594A,112.8736,33.9068,平顶山市,石龙区,细颗粒物(PM2.5),173,150,132,131,116,67,,81,68,18,16,5,5,1.0,0.9
2026-01-25T2200,4116A,113.284,33.7139,平顶山市,姚电大道23号,细颗粒物(PM2.5),211,224,182,161,144,55,,74,58,33,27,8,6,1.0,0.8
2026-01-25T2200,2656A,106.6633,35.5338,平凉市,聚贤嘉苑,颗粒物(PM10),185,320,586,65,98,46,,77,68,24,14,16,18,0.5,0.5
2026-01-25T2200,2657A,106.7021,35.5307,平凉市,博物馆,颗粒物(PM10),187,324,570,67,97,48,,75,69,23,14,10,8,0.9,0.7
2026-01-25T2200,2348A,113.8384,27.6436,萍乡市,中医院,细颗粒物(PM2.5),130,145,104,99,69,4,,59,23,59,32,8,11,1.7,1
2026-01-25T2200,2350A,113.8677,27.6438,萍乡市,市环保局,细颗粒物(PM2.5),129,137,85,98,65,4,,60,30,56,29,17,20,2.1,1.2
2026-01-25T2200,2351A,113.8663,27.6202,萍乡市,安源区政府,细颗粒物(PM2.5),186,178,102,140,80,4,,42,21,53,35,16,15,1.9,1.3
2026-01-25T2200,4107A,113.8686,27.6668,萍乡市,联洪村委会,细颗粒物(PM2.5),149,153,95,114,71,12,,63,32,58,25,6,8,1.3,0.8
2026-01-25T2200,2319A,119.0142,25.4324,莆田市,荔城区仓后路,,28,28,27,12,12,62,,83,77,18,14,/,/,/,/
2026-01-25T2200,2320A,119.0016,25.4553,莆田市,莆田市监测站,,25,9,16,7,9,79,,91,88,7,7,2,2,0.7,0.6
2026-01-25T2200,2321A,119.112,25.4561,莆田市,涵江区六中,,24,18,26,11,14,75,,90,86,13,18,/,/,0.6,0.5
2026-01-25T2200,2322A,119.1014,25.3215,莆田市,秀屿区政府,,29,29,27,16,16,70,,90,82,17,16,2,2,0.7,0.6
2026-01-25T2200,2392A,115.0312,35.7636,濮阳市,环保局,细颗粒物(PM2.5),132,107,136,100,128,14,,28,21,69,68,7,10,1.0,1.1
2026-01-25T2200,3021A,115,35.7667,濮阳市,濮水河管理处,细颗粒物(PM2.5),142,140,161,108,128,15,,32,24,53,51,7,9,1.1,1.2
2026-01-25T2200,4118A,115.0552,35.7816,濮阳市,中原东路68号,细颗粒物(PM2.5),144,140,172,110,137,12,,28,20,54,53,6,9,1.0,1.1
2026-01-25T2200,4216A,115.0923632,35.76857718,濮阳市,任丘路479号,细颗粒物(PM2.5),145,140,168,111,138,10,,28,18,60,56,7,11,1.4,1.5
2026-01-25T2200,2601A,100.9801,22.7634,普洱市,市环保局,,,,44,,19,45,,83,71,,11,5,5,0.4,0.3
2026-01-25T2200,2602A,100.9763,22.8237,普洱市,普洱第二中学,颗粒物(PM10),62,74,44,43,24,23,,84,69,39,21,5,5,0.5,0.3
2026-01-25T2200,3345A,131.0413,45.7795,七台河市,中波台,,33,29,28,23,19,63,,71,64,15,13,8,10,0.4,0.4
2026-01-25T2200,3637A,131.0136,45.7688,七台河市,人民广场,,29,25,37,20,22,63,,71,62,20,18,6,7,0.5,0.5
2026-01-25T2200,3684A,130.8639,45.8144,七台河市,新建矿广场,,22,19,26,15,21,62,,66,63,7,11,3,7,0.4,0.4
2026-01-25T2200,1779A,123.9307,47.3641,齐齐哈尔市,安居小区,,33,33,27,20,11,52,,68,54,23,16,7,7,1.0,0.9
2026-01-25T2200,1780A,123.9497,47.3389,齐齐哈尔市,中心广场,,32,32,18,14,11,48,,64,56,20,13,6,5,0.5,0.4
2026-01-25T2200,1781A,123.9483,47.3229,齐齐哈尔市,农牧车辆厂,,27,27,21,11,10,49,,66,56,18,11,7,4,0.4,0.3
2026-01-25T2200,1783A,123.9442,47.2994,齐齐哈尔市,市环境监测站,,26,26,19,6,6,62,,68,59,10,9,8,4,0.5,0.5
2026-01-25T2200,3662A,123.6341,47.2079,齐齐哈尔市,富区青少年活动中心,,41,41,28,7,7,60,,70,65,11,10,3,4,0.6,0.6
2026-01-25T2200,2591A,107.9765,26.5724,黔东南苗族侗族自治州,市环境监测站,,32,27,40,22,32,17,,36,18,13,14,7,6,0.9,0.8
2026-01-25T2200,2881A,107.8909,26.531,黔东南苗族侗族自治州,凯里学院,,25,17,29,17,26,22,,38,24,15,14,2,3,0.7,0.7
2026-01-25T2200,2593A,107.5223,26.2371,黔南布依族苗族自治州,小围寨,,49,36,20,34,19,1,,31,7,19,12,7,6,1.1,0.9
2026-01-25T2200,3538A,107.5175,26.2977,黔南布依族苗族自治州,沙坝,细颗粒物(PM2.5),55,44,22,39,18,6,,34,10,18,15,6,5,1.1,0.8
2026-01-25T2200,2589A,104.9022,25.0943,黔西南布依族苗族自治州,场坝街,,48,41,32,33,21,36,,45,45,13,9,2,2,0.8,0.7
2026-01-25T2200,2590A,104.8812,25.0994,黔西南布依族苗族自治州,坪东大道,细颗粒物(PM2.5),53,45,33,37,25,39,,48,48,13,8,5,5,0.9,0.8
2026-01-25T2200,2502A,108.6238,21.9667,钦州市,市环保站,细颗粒物(PM2.5),135,153,136,103,75,5,,22,17,56,42,4,3,2.6,1.8
2026-01-25T2200,2503A,108.655,21.9481,钦州市,沙埠小学,细颗粒物(PM2.5),87,112,85,64,50,3,,60,58,86,37,4,4,1.1,0.7
2026-01-25T2200,2504A,108.5989,21.7435,钦州市,港区一小,颗粒物(PM10),56,61,73,29,48,78,,79,78,21,34,1,2,0.6,1.1
2026-01-25T2200,3404A,108.5959,21.9634,钦州市,北职校,细颗粒物(PM2.5),82,96,88,60,64,7,,34,27,50,33,3,3,1.0,1.3
2026-01-25T2200,1046A,119.5247,39.9346,秦皇岛市,建设大厦,,31,31,37,12,17,42,,68,62,21,22,10,10,0.4,0.4
2026-01-25T2200,3132A,119.5979,39.938,秦皇岛市,文明里,,37,37,41,21,23,25,,68,57,48,28,15,15,0.4,0.3
2026-01-25T2200,4066A,119.7458,39.9952,秦皇岛市,南园路157号,,45,44,38,31,20,9,,66,47,66,41,14,13,0.6,0.5
2026-01-25T2200,4067A,119.5131,39.8858,秦皇岛市,翠岛大街1号,,34,34,43,8,13,49,,70,67,18,20,11,12,0.3,0.4
2026-01-25T2200,4198A,119.509013,39.825305,秦皇岛市,北戴河轮滑馆,,22,20,28,3,11,70,,75,71,8,15,7,9,0.2,0.3
2026-01-25T2200,1310A,120.404,36.0625,青岛市,市南区东部子站,,31,31,43,14,26,86,,86,86,9,15,8,9,0.4,0.5
2026-01-25T2200,1311A,120.362344,36.10282,青岛市,四方区子站,,35,31,47,24,38,82,,79,79,10,28,5,5,0.6,0.8
2026-01-25T2200,1312A,120.294373,36.054183,青岛市,市南区西部子站,,31,31,50,20,31,91,,92,92,13,27,3,4,0.4,0.6
2026-01-25T2200,1313A,120.4581,36.0858,青岛市,崂山区子站,,34,34,40,14,22,88,,89,89,11,17,9,10,0.3,0.5
2026-01-25T2200,1315A,120.3945,36.3083,青岛市,城阳区子站,颗粒物(PM10),54,58,58,29,32,53,,75,68,39,33,8,10,0.7,0.7
2026-01-25T2200,3642A,120.3454,36.0735,青岛市,市北区南部,,35,35,51,19,29,83,,82,82,13,25,2,2,0.6,0.7
2026-01-25T2200,3643A,120.3897,36.18,青岛市,李沧区北部,,41,41,47,24,40,64,,72,66,22,28,8,8,0.6,0.7
2026-01-25T2200,4110A,120.5222,36.4089,青岛市,盟旺路653号,,36,32,54,25,33,64,,83,79,21,22,3,3,0.7,0.7
2026-01-25T2200,4290A,120.196923,35.954556,青岛市,珠江路669号,,29,24,49,20,40,88,,86,86,15,32,5,6,0.6,0.8
2026-01-25T2200,4291A,120.0424,35.8656,青岛市,黄岛区人民政府广场,,36,36,78,14,54,97,,94,94,12,35,7,8,0.7,1.1
2026-01-25T2200,1703A,113.0218,23.7086,清远市,凤城街办,细颗粒物(PM2.5),90,90,69,67,49,17,,86,75,86,49,/,/,/,/
2026-01-25T2200,3025A,113.0479,23.6343,清远市,技师学院,细颗粒物(PM2.5),92,117,78,68,44,12,,71,71,85,56,6,7,1.5,1.1
2026-01-25T2200,3318A,112.9898,23.7403,清远市,清新太和,颗粒物(PM10),52,54,51,34,37,115,,117,117,23,31,8,10,0.6,0.7
2026-01-25T2200,3455A,113.076,23.72,清远市,清城东城,颗粒物(PM10),55,60,57,38,36,49,,106,98,33,34,/,/,/,/
2026-01-25T2200,2661A,107.6325,35.7357,庆阳市,庆阳五中,颗粒物(PM10),115,180,412,61,86,65,,74,70,15,15,6,5,0.5,0.5
2026-01-25T2200,2662A,107.6361,35.7067,庆阳市,市环保局,颗粒物(PM10),109,167,406,36,69,72,,76,73,12,13,7,6,0.4,0.4
2026-01-25T2200,1916A,103.7897,25.5036,曲靖市,环境监测站,,38,38,25,14,10,73,,98,93,14,11,4,5,0.6,0.5
2026-01-25T2200,1917A,103.8013,25.5357,曲靖市,烟厂办公区,,26,26,24,8,9,76,,97,94,11,10,4,4,0.2,0.3
2026-01-25T2200,3376A,103.7926,25.4651,曲靖市,南苑二区,,24,22,22,6,9,74,,90,89,10,6,4,5,0.4,0.4
2026-01-25T2200,3377A,103.7442,25.5259,曲靖市,曲靖师范学院,,33,33,29,17,16,71,,99,95,14,11,5,7,0.3,0.3
2026-01-25T2200,1264A,118.8694,28.94,衢州市,环保大楼,细颗粒物(PM2.5),128,128,109,97,85,8,,86,64,104,64,/,/,/,/
2026-01-25T2200,1266A,118.8622,28.9809,衢州市,衢州学院,细颗粒物(PM2.5),108,105,98,81,76,2,,83,58,94,61,6,6,1.0,0.9
2026-01-25T2200,4097A,118.9646,28.9832,衢州市,衢州三中,细颗粒物(PM2.5),125,124,115,95,86,5,,83,62,94,58,6,6,0.9,0.9
2026-01-25T2200,1611A,118.5818,24.9116,泉州市,涂山街,,,,28,,17,,,82,76,,17,,3,,0.5
2026-01-25T2200,1612A,118.597,24.8976,泉州市,津头埔,,50,50,29,34,19,43,,80,70,30,19,4,4,0.7,0.5
2026-01-25T2200,1613A,118.6669,24.9422,泉州市,万安,颗粒物(PM10),52,54,29,32,17,24,,79,65,51,19,3,3,0.8,0.6
2026-01-25T2200,4105A,118.6355,24.9148,泉州市,霞新路6号,颗粒物(PM10),51,51,28,33,18,28,,81,65,46,30,/,/,0.7,0.6
2026-01-25T2200,2626A,88.8873,29.2723,日喀则市,日喀则监测站,,35,35,14,20,5,74,,78,42,32,6,15,8,0.7,0.3
2026-01-25T2200,3726A,88.8775,29.2425,日喀则市,林业技术推广中心,,25,18,17,8,4,78,,94,92,10,6,11,9,0.4,0.3
2026-01-25T2200,1659A,119.4711,35.421,日照市,监测站,,34,34,81,13,58,80,,81,81,14,47,7,12,0.6,1.1
2026-01-25T2200,1660A,119.523,35.4216,日照市,市政府广场,,34,34,73,13,51,86,,86,86,13,46,7,9,0.3,0.7
2026-01-25T2200,1661A,119.5511,35.4113,日照市,港务局,,34,34,69,23,55,85,,85,85,15,42,6,8,0.4,0.8
2026-01-25T2200,3507A,119.5326,35.4627,日照市,职业技术学院,,29,29,56,9,32,82,,84,84,17,30,7,7,0.7,0.8
2026-01-25T2200,3604A,119.3267,35.1043,日照市,岚山环保分局,,44,44,79,15,50,74,,84,81,24,37,8,11,0.6,0.9
2026-01-25T2200,1835A,111.1922,34.7752,三门峡市,市政府,细颗粒物(PM2.5),224,,104,174,129,61,,86,63,26,20,8,7,1.2,1.1
2026-01-25T2200,1836A,111.1588,34.794,三门峡市,开发区,细颗粒物(PM2.5),220,192,143,170,127,57,,78,62,28,21,6,5,0.9,0.8
2026-01-25T2200,3039A,111.1911,34.7829,三门峡市,三门峡市第一小学,细颗粒物(PM2.5),218,,112,168,122,61,,83,63,29,24,5,6,0.9,0.8
2026-01-25T2200,3598A,111.1031,34.719,三门峡市,富达温泉假日酒店,细颗粒物(PM2.5),204,161,122,154,113,46,,81,60,48,24,4,4,1.1,0.9
2026-01-25T2200,2324A,117.621,26.2626,三明市,三钢,,35,29,36,24,35,50,,74,68,19,23,10,7,0.6,0.9
2026-01-25T2200,2325A,117.6352,26.2714,三明市,三明二中,,,24,35,21,25,,,73,68,15,22,4,3,0.7,0.8
2026-01-25T2200,2326A,117.6028,26.2377,三明市,三元区政府,,32,30,35,22,28,58,,69,66,15,23,6,7,0.9,1.1
2026-01-25T2200,1877A,109.4962,18.2682,三亚市,河西子站,,26,23,26,11,11,82,,98,92,11,8,3,3,0.5,0.5
2026-01-25T2200,3540A,109.7348,18.3443,三亚市,君悦子站,,34,34,28,10,12,88,,96,94,6,12,4,5,0.4,0.4
2026-01-25T2200,4135A,109.1714,18.3739,三亚市,城东小学站,,36,36,28,12,12,76,,94,87,11,11,/,/,/,/
2026-01-25T2200,2624A,91.7592,29.234,山南市,山南监测站,,30,30,21,18,10,72,,95,92,9,5,4,4,0.4,0.3
2026-01-25T2200,2625A,91.7701,29.2436,山南市,山南人民医院,,26,26,24,12,11,80,,93,90,4,4,7,7,0.5,0.5
2026-01-25T2200,1674A,116.6795,23.3666,汕头市,金平子站,细颗粒物(PM2.5),53,,25,37,20,73,,88,81,22,15,4,6,0.8,0.8
2026-01-25T2200,1675A,116.7248,23.3632,汕头市,龙湖子站,,33,25,25,23,16,75,,88,82,20,15,10,10,/,/
2026-01-25T2200,1676A,116.7257,23.2774,汕头市,濠江子站,,38,,22,26,16,79,,88,84,16,15,7,7,/,/
2026-01-25T2200,1677A,116.7518,23.4712,汕头市,澄海子站,细颗粒物(PM2.5),54,,34,38,25,70,,83,79,15,15,5,9,0.7,0.6
2026-01-25T2200,1678A,116.6088,23.2539,汕头市,潮阳子站,,23,,21,16,12,73,,93,85,7,9,5,6,0.6,0.6
2026-01-25T2200,3444A,116.4539,23.2684,汕头市,潮南峡山,,23,23,26,15,16,68,,96,84,10,11,5,6,0.6,0.7
2026-01-25T2200,3624A,116.4069,23.2533,汕头市,潮南子站,,46,46,40,26,19,56,,86,77,19,17,6,7,/,/
2026-01-25T2200,1693A,115.3653,22.7751,汕尾市,市环保局,,27,21,27,12,21,84,,103,99,9,12,6,7,0.6,0.6
2026-01-25T2200,1695A,115.362,22.7926,汕尾市,新城中学,,26,25,31,16,22,81,,107,101,12,11,5,5,0.5,0.5
2026-01-25T2200,2645A,109.9155,33.8714,商洛市,监测站,颗粒物(PM10),141,232,76,94,53,35,,69,42,24,25,5,7,0.7,0.8
2026-01-25T2200,3045A,109.9647,33.8486,商洛市,商州区中学,颗粒物(PM10),317,433,86,91,56,26,,64,41,30,23,5,6,0.8,0.8
2026-01-25T2200,2408A,115.6701,34.4283,商丘市,环境监测站,细颗粒物(PM2.5),204,,147,154,146,9,,72,25,48,36,5,4,1.3,1.2
2026-01-25T2200,2409A,115.6458,34.4047,商丘市,粮食局,细颗粒物(PM2.5),172,161,147,130,132,12,,68,28,44,32,7,5,1.4,1.2
2026-01-25T2200,3171A,115.6069,34.4465,商丘市,梁园区档案局,细颗粒物(PM2.5),185,139,137,139,138,7,,62,21,47,37,4,3,1.2,1.1
2026-01-25T2200,4119A,115.6701,34.3767,商丘市,北海东路185号,细颗粒物(PM2.5),178,188,172,134,133,10,,73,31,44,31,3,2,1.1,0.9
2026-01-25T2200,4120A,115.6172,34.3704,商丘市,中山大街3号,细颗粒物(PM2.5),189,188,165,142,134,10,,73,31,51,33,8,6,1.0,0.9
2026-01-25T2200,1141A,121.401,31.2382,上海市,普陀,,24,20,47,12,41,74,,79,73,31,37,6,6,0.6,0.7
2026-01-25T2200,1142A,121.4774,31.2043,上海市,十五厂,,23,21,49,14,39,72,,76,72,35,49,7,8,0.5,0.6
2026-01-25T2200,1143A,121.4673,31.3011,上海市,虹口,,22,19,50,9,39,70,,71,66,23,38,8,8,0.3,0.4
2026-01-25T2200,1147A,121.4253,31.226,上海市,静安监测站,,24,20,43,15,39,74,,82,77,34,39,7,7,0.3,0.3
2026-01-25T2200,1148A,121.7029,31.1905,上海市,浦东川沙,,22,19,46,8,33,69,,69,68,19,44,7,8,0.5,0.6
2026-01-25T2200,1149A,121.5339,31.229,上海市,浦东新区监测站,,22,18,46,14,41,69,,74,70,27,42,6,6,0.6,0.7
2026-01-25T2200,1150A,121.5776,31.2038,上海市,浦东张江,,25,20,48,10,35,80,,80,80,25,41,7,7,0.4,0.5
2026-01-25T2200,3265A,121.4242,31.3303,上海市,宝山庙行,,20,20,51,11,40,60,,74,64,29,36,8,8,0.3,0.5
2026-01-25T2200,3266A,121.8789,31.4662,上海市,崇明上实东滩,,29,15,33,7,24,90,,96,92,9,10,4,4,0,0
2026-01-25T2200,3268A,121.316,31.2839,上海市,嘉定南翔,,22,20,56,12,41,70,,77,69,26,44,3,4,0.4,0.5
2026-01-25T2200,3269A,121.3357,30.7455,上海市,金山新城,,25,15,37,12,41,80,,94,85,20,23,8,9,0.4,0.5
2026-01-25T2200,3270A,121.4996,31.0741,上海市,闵行浦江,,26,26,54,13,41,64,,84,72,23,36,6,7,0.5,0.6
2026-01-25T2200,3271A,121.2886,31.1663,上海市,青浦徐泾,,24,23,58,11,42,74,,84,76,30,43,5,6,0.4,0.5
