timepoint,stationcode,longitude,latitude,area,positionname,primarypollutant,aqi,pm10,pm10_24h,pm2_5,pm2_5_24h,o3,o3_24h,o3_8h,o3_8h_24h,no2,no2_24h,so2,so2_24h,co,co_24h
2024-06-02T1400,2566A,102.1879,31.914,阿坝藏族羌族自治州,州农科所,,22,22,30,6,11,26,,27,26,9,10,3,3,0,0.1
2024-06-02T1400,2568A,102.2502,31.8896,阿坝藏族羌族自治州,马师校,,16,,13,8,13,51,,48,48,11,13,4,4,0.3,0.4
2024-06-02T1400,3994A,102.2165,31.9024,阿坝藏族羌族自治州,马尔康中学西区,,26,26,20,3,11,54,,57,55,4,6,5,5,0.3,0.3
2024-06-02T1400,2695A,80.292,41.1694,阿克苏地区,电视台,,35,15,24,6,11,109,,92,92,10,10,4,4,0.3,0.3
2024-06-02T1400,2696A,80.2613,41.1551,阿克苏地区,艺术中心,,34,17,25,6,12,107,,99,90,8,10,3,5,0.3,0.3
2024-06-02T1400,2204A,105.6467,38.8363,阿拉善盟,西城区西花园,,48,26,49,16,20,153,,136,136,10,11,8,8,0.4,0.4
2024-06-02T1400,2205A,105.6985,38.8411,阿拉善盟,蒙二幼,,45,24,43,9,18,143,,129,129,6,8,9,9,0.5,0.5
2024-06-02T1400,2206A,105.724,38.8516,阿拉善盟,环保局新楼,,46,23,39,12,22,145,,131,131,5,7,10,11,0.6,0.6
2024-06-02T1400,2708A,88.1264,47.8517,阿勒泰地区,市站,,32,13,18,3,8,102,,82,82,8,7,6,6,0.3,0.2
2024-06-02T1400,2630A,80.1161,32.5,阿里地区,阿里监测站,臭氧1小时,62,9,14,8,8,169,,154,154,3,6,6,6,0.4,0.4
2024-06-02T1400,3192A,80.0903,32.5028,阿里地区,阿里藏医院,臭氧1小时,64,10,16,3,7,171,,159,159,3,4,5,5,0.6,0.5
2024-06-02T1400,2642A,109.0318,32.6537,安康市,香溪洞,细颗粒物(PM2.5),57,60,75,40,38,74,,103,51,11,10,7,8,0.7,0.7
2024-06-02T1400,2643A,109.0281,32.6939,安康市,安康市监测站,颗粒物(PM10),59,67,83,41,38,104,,60,60,10,16,6,9,0.6,0.7
2024-06-02T1400,2644A,109.0072,32.6975,安康市,汉滨区检察院,细颗粒物(PM2.5),65,70,76,47,44,106,,47,47,10,17,7,7,0.6,0.6
2024-06-02T1400,2291A,117.0809,30.5177,安庆市,环科院,,50,40,42,18,28,158,,134,134,7,12,5,5,0.5,0.6
2024-06-02T1400,2292A,117.0331,30.5119,安庆市,马山宾馆,,50,37,43,17,28,160,,139,139,5,10,8,8,0.5,0.6
2024-06-02T1400,2294A,116.9896,30.6145,安庆市,安庆大学,,46,30,40,16,27,145,,145,133,10,13,8,8,0.4,0.5
2024-06-02T1400,3173A,117.0598,30.5351,安庆市,市人大,,50,50,43,16,28,157,,135,135,10,17,6,7,0.5,0.7
2024-06-02T1400,3122A,105.9606,26.2611,安顺市,伍家关,,,,,,,,,,,,,,,,
2024-06-02T1400,3123A,105.9408,26.2431,安顺市,凤凰山,,36,30,28,25,21,84,,89,76,4,7,6,9,0.6,0.5
2024-06-02T1400,3124A,105.9439,26.2564,安顺市,金钟山,,33,33,29,22,23,82,,89,75,4,6,4,8,0.5,0.4
2024-06-02T1400,3125A,105.8983,26.2481,安顺市,娄家坡,,,42,41,26,25,79,,87,74,,7,4,9,,0.5
2024-06-02T1400,1818A,114.4839,36.0621,安阳市,棉研所,,,,,,,,,,,,,,,,
2024-06-02T1400,1819A,114.3551,36.1017,安阳市,红庙街,臭氧1小时,104,102,113,50,34,208,,143,143,5,18,8,12,0.5,0.6
2024-06-02T1400,1820A,114.361,36.0681,安阳市,银杏小区,臭氧1小时,100,100,111,46,40,200,,137,137,14,28,10,10,0.8,0.8
2024-06-02T1400,3141A,114.3922,36.0878,安阳市,信访局,臭氧1小时,104,118,126,26,31,207,,140,140,7,20,12,12,0.7,0.7
2024-06-02T1400,3669A,114.4705,36.0637,安阳市,左辅环卫站,臭氧1小时,102,65,97,34,33,204,,138,138,10,24,7,6,1.0,0.8
2024-06-02T1400,3703A,114.2917,36.0949,安阳市,安钢职工学校,臭氧1小时,88,111,116,27,31,190,,130,130,13,23,11,14,0.5,0.6
2024-06-02T1400,1748A,123.044,41.1196,鞍山市,深沟寺,,38,22,30,9,16,119,,98,98,12,18,11,10,0.6,0.6
2024-06-02T1400,1749A,123.011,41.0931,鞍山市,太阳城,,40,20,32,11,17,127,,113,113,10,18,9,10,0.7,0.9
2024-06-02T1400,1750A,123.0485,41.1442,鞍山市,太平,,37,24,37,16,19,117,,96,96,13,26,9,10,0.6,0.8
2024-06-02T1400,1751A,122.9642,41.0971,鞍山市,铁西三道街,,41,22,50,10,27,129,,111,111,11,29,6,9,0.7,0.9
2024-06-02T1400,1752A,122.9341,41.0833,鞍山市,铁西工业园区,,40,21,55,9,26,125,,112,112,16,28,14,11,0.9,0.9
2024-06-02T1400,1753A,123.022,41.0821,鞍山市,明达新区,,38,30,31,13,18,121,,110,110,11,18,11,12,0.8,0.9
2024-06-02T1400,1754A,123.1289,41.0228,鞍山市,千山,,,,,,,,,,,,,,,,
2024-06-02T1400,2195A,107.4212,40.761,巴彦淖尔市,附二中,臭氧1小时,67,42,156,32,46,173,,127,127,6,12,5,5,0.5,0.5
2024-06-02T1400,2196A,107.37,40.7372,巴彦淖尔市,市环保大楼,颗粒物(PM10),59,67,181,12,44,164,,121,121,5,10,6,6,0.3,0.4
2024-06-02T1400,1956A,86.1472,41.7538,巴音郭楞蒙古自治州,孔雀公园,颗粒物(PM10),55,60,50,15,19,108,,83,83,5,14,8,8,0,0.1
2024-06-02T1400,1957A,86.1972,41.7166,巴音郭楞蒙古自治州,棉纺厂,,40,40,45,10,18,111,,72,72,8,20,5,3,0.2,0.2
2024-06-02T1400,1958A,86.2357,41.7173,巴音郭楞蒙古自治州,经济开发区,,35,28,35,7,20,111,,96,96,5,7,10,8,0.2,0.2
2024-06-02T1400,2914A,106.7677,31.8794,巴中市,苏山坪,,33,32,37,22,20,103,,94,82,6,11,6,5,0.4,0.4
2024-06-02T1400,3182A,106.7656,31.8545,巴中市,丽阳花园,,47,47,41,28,22,109,,85,76,9,14,5,5,0.5,0.5
2024-06-02T1400,3183A,106.7418,31.8654,巴中市,圣泉水务公司,,32,27,31,22,19,81,,86,74,12,14,5,5,0.4,0.4
2024-06-02T1400,3616A,106.7616,31.8344,巴中市,市中心医院,,37,37,35,25,20,108,,90,77,7,15,4,4,0.4,0.5
2024-06-02T1400,2235A,122.7911,45.6077,白城市,洮北区环保局,,36,26,23,14,14,114,,83,83,6,12,2,2,0.3,0.3
2024-06-02T1400,2236A,122.8738,45.5725,白城市,市环保局,,35,17,16,12,11,109,,81,81,5,12,5,5,0.4,0.4
2024-06-02T1400,2231A,126.4219,41.9171,白山市,喜丰,,27,9,16,3,6,84,,62,62,5,8,8,8,0.6,0.7
2024-06-02T1400,2232A,126.4077,41.9419,白山市,环保局,,25,9,23,3,6,77,,57,57,4,7,8,8,0.6,0.6
2024-06-02T1400,2647A,104.1724,36.5446,白银市,第三小学,,47,28,28,8,15,148,,102,102,7,12,6,8,0.6,0.7
2024-06-02T1400,2648A,104.1465,36.5482,白银市,动力公司,,44,32,24,8,13,138,,100,100,6,9,8,9,0.4,0.5
2024-06-02T1400,2512A,106.6103,23.9011,百色市,市监测站,,43,43,38,25,20,118,,80,80,8,16,7,9,0.9,0.8
2024-06-02T1400,2513A,106.6538,23.8859,百色市,市中心血站,颗粒物(PM10),53,56,44,30,23,107,,80,80,8,14,6,11,0.8,0.8
2024-06-02T1400,3406A,106.6085,23.8798,百色市,祈福高中,颗粒物(PM10),53,55,48,30,22,118,,75,75,7,19,12,12,1.0,0.9
2024-06-02T1400,2270A,117.396,32.939,蚌埠市,工人疗养院,,42,27,45,9,11,134,,100,100,2,13,7,9,0.2,0.3
2024-06-02T1400,2271A,117.3605,32.9427,蚌埠市,百货大楼,,42,28,42,9,11,132,,100,100,7,17,4,5,0.3,0.3
2024-06-02T1400,2273A,117.4185,32.8911,蚌埠市,蚌埠学院,,41,27,44,12,18,130,,102,102,10,18,5,7,0.3,0.3
2024-06-02T1400,2274A,117.3533,32.9673,蚌埠市,淮上区政府,,39,29,45,14,17,124,,92,92,3,14,6,7,0.2,0.3
2024-06-02T1400,2275A,117.3145,32.8977,蚌埠市,高新区,,40,29,39,7,13,127,,99,99,5,12,5,7,0.2,0.2
2024-06-02T1400,3715A,117.3092,32.9314,蚌埠市,蚌埠田家炳中学,,42,42,40,9,14,130,,100,100,6,12,7,6,0.2,0.3
2024-06-02T1400,1585A,109.8756,40.6532,包头市,市环境监测站,,47,35,94,14,26,149,,110,110,12,20,15,18,0.7,0.8
2024-06-02T1400,1587A,109.9991,40.5842,包头市,包头八中,,46,32,90,28,26,146,,119,118,10,17,11,13,0.4,0.6
2024-06-02T1400,1588A,109.8538,40.6821,包头市,青山宾馆,,47,35,80,11,25,148,,99,99,16,24,22,21,1.2,1.1
2024-06-02T1400,1589A,109.8642,40.6288,包头市,惠龙物流,,46,34,93,25,27,145,,114,114,13,19,19,21,0.5,0.5
2024-06-02T1400,1590A,110.0377,40.5546,包头市,东河鸿龙湾,,47,28,77,3,18,150,,120,120,6,11,8,9,0.5,0.5
2024-06-02T1400,3283A,109.9154,40.5685,包头市,滨河大厦,,48,18,84,12,28,151,,120,120,4,11,10,11,0.5,0.6
2024-06-02T1400,3419A,109.9447,40.6261,包头市,包头市委党校,,48,40,96,10,20,152,,122,122,11,15,23,18,0.6,0.5
2024-06-02T1400,3683A,109.8331,40.6576,包头市,昆区政府,,47,36,88,13,25,148,,105,105,15,26,16,21,0.7,0.9
2024-06-02T1400,1930A,107.185,34.3063,宝鸡市,庙沟村,,,21,32,19,23,,,98,88,4,7,9,9,0.4,0.5
2024-06-02T1400,1931A,107.0708,34.3017,宝鸡市,竹园沟,,37,,29,18,24,118,,118,113,11,14,6,7,0.5,0.5
2024-06-02T1400,1932A,107.1906,34.3672,宝鸡市,三陆医院,,41,29,41,15,27,130,,112,112,13,17,6,6,0.5,0.6
2024-06-02T1400,1933A,107.1431,34.3547,宝鸡市,监测站,,44,32,40,18,28,139,,114,112,12,18,6,6,0.5,0.6
2024-06-02T1400,1934A,107.1186,34.3739,宝鸡市,技工学校,,42,27,35,17,24,133,,111,109,15,16,7,7,0.5,0.6
2024-06-02T1400,1935A,107.3906,34.3528,宝鸡市,陈仓区环保局家属楼,,39,30,44,27,38,123,,114,114,13,20,6,6,0.4,0.4
2024-06-02T1400,1936A,107.2058,34.3497,宝鸡市,文理学院,,45,26,36,17,25,141,,120,120,7,13,6,7,0.5,0.5
2024-06-02T1400,1937A,107.2386,34.3622,宝鸡市,三迪小学,,43,32,41,15,26,135,,115,115,12,19,7,7,0.6,0.6
2024-06-02T1400,1051A,115.493,38.8632,保定市,游泳馆,颗粒物(PM10),83,116,73,31,27,174,,117,117,2,14,4,5,0.2,0.2
2024-06-02T1400,1052A,115.5213,38.8959,保定市,华电二区,臭氧1小时,70,43,53,11,18,176,,112,112,9,18,6,6,0.3,0.3
2024-06-02T1400,1053A,115.4713,38.9108,保定市,接待中心,,50,36,47,22,26,157,,101,101,4,14,5,5,0.5,0.5
2024-06-02T1400,1054A,115.4612,38.8416,保定市,地表水厂,臭氧1小时,64,36,54,19,24,171,,116,116,6,18,3,4,0.5,0.4
2024-06-02T1400,3581A,115.31981,38.95208,保定市,满城区生态环境分局,颗粒物(PM10),53,56,84,22,24,160,,113,113,3,18,3,3,0,0.1
2024-06-02T1400,3582A,115.47694,38.76408,保定市,清苑区第二中学,臭氧1小时,85,46,66,20,25,188,,126,126,5,17,5,4,0.5,0.4
2024-06-02T1400,3583A,115.62909,39.02311,保定市,徐水物探局,臭氧1小时,87,44,71,12,17,189,,118,118,7,24,7,7,0.9,0.8
2024-06-02T1400,4004A,115.4202,38.8656,保定市,双鹰农机,臭氧1小时,73,40,62,17,26,178,,123,123,5,18,4,5,0.3,0.3
2024-06-02T1400,4034A,115.5150,38.8590,保定市,植保所站,臭氧1小时,78,51,65,25,30,182,,119,119,7,20,4,7,0.5,0.4
2024-06-02T1400,2594A,99.1678,25.1081,保山市,市环境监测站,,39,39,39,17,16,86,,77,77,4,7,4,5,0.4,0.5
2024-06-02T1400,2595A,99.1711,25.1328,保山市,市环保局,,48,48,50,14,15,93,,81,81,3,5,4,4,0.4,0.4
2024-06-02T1400,1866A,109.2262,21.588,北海市,牛尾岭水库,,,,,,,,,,,,,,,,
2024-06-02T1400,1867A,109.1436,21.4086,北海市,海滩公园,,30,14,19,3,4,94,,99,99,3,5,4,4,0.8,0.8
2024-06-02T1400,1868A,109.0981,21.4661,北海市,新市环保局,,30,14,16,7,9,94,,94,94,3,5,5,5,0.7,0.8
2024-06-02T1400,1869A,109.1778,21.5233,北海市,北海工业园,,34,25,21,10,11,108,,92,92,4,7,5,5,0.6,0.7
2024-06-02T1400,3400A,109.1911,21.4415,北海市,龙潭自来水厂,,26,12,15,3,10,81,,85,85,5,8,6,6,0.6,0.7
2024-06-02T1400,1001A,116.3621,39.8784,北京市,万寿西宫,,45,19,46,10,17,141,,118,118,9,33,3,2,0.1,0.3
2024-06-02T1400,1002A,116.2202,40.2915,北京市,定陵,,46,21,36,15,13,145,,109,109,12,16,4,3,0.2,0.3
2024-06-02T1400,1003A,116.4174,39.9289,北京市,东四,,41,23,47,11,17,129,,105,105,8,34,2,5,0.2,0.4
2024-06-02T1400,1004A,116.4072,39.8863,北京市,天坛,,43,22,35,10,15,136,,110,110,5,23,3,4,0.2,0.3
2024-06-02T1400,1005A,116.462,39.9365,北京市,农展馆,,36,23,46,10,15,113,,92,92,8,31,3,2,0.1,0.3
2024-06-02T1400,1006A,116.3392,39.9295,北京市,官园,,43,23,48,7,18,135,,110,110,9,31,2,4,0.2,0.3
2024-06-02T1400,1007A,116.2878,39.9611,北京市,海淀万柳,,42,25,45,12,16,132,,100,100,8,32,4,4,0.2,0.3
2024-06-02T1400,1008A,116.6636,40.135,北京市,顺义新城,,39,21,37,6,11,124,,99,99,8,20,3,3,0.1,0.2
2024-06-02T1400,1009A,116.6275,40.3275,北京市,怀柔镇,,39,24,31,10,12,124,,98,98,2,12,3,4,0.3,0.4
2024-06-02T1400,1010A,116.2296,40.217,北京市,昌平镇,,40,27,41,10,15,125,,96,96,6,25,1,1,0.2,0.3
2024-06-02T1400,1011A,116.3966,39.9821,北京市,奥体中心,,34,17,41,12,15,107,,88,88,7,35,1,2,0.1,0.3
2024-06-02T1400,1012A,116.184,39.9136,北京市,古城,,40,25,58,11,18,127,,102,102,6,31,1,2,0.3,0.4
2024-06-02T1400,3281A,115.9718,40.4529,北京市,延庆夏都,,38,18,24,10,11,120,,92,92,4,11,3,3,0.1,0.2
2024-06-02T1400,3417A,117.0709,40.1465,北京市,平谷新城,,46,27,30,11,12,147,,122,122,3,8,2,3,0.3,0.4
2024-06-02T1400,3418A,116.8336,40.4095,北京市,密云新城,,38,19,30,14,11,120,,105,105,4,11,3,4,0.1,0.1
2024-06-02T1400,3671A,116.088,39.9726,北京市,门头沟三家店,,,,,,,,,,,,,,,,
2024-06-02T1400,3672A,116.1541,39.8204,北京市,丰台云岗,,41,27,78,14,17,131,,96,96,7,27,1,3,0.2,0.3
2024-06-02T1400,3673A,116.6804,39.9081,北京市,通州东关,,39,18,44,12,16,124,,111,111,2,19,1,3,0.2,0.4
2024-06-02T1400,3674A,115.9577,39.7603,北京市,房山燕山,,44,44,58,13,16,129,,97,97,12,15,1,2,0.2,0.3
2024-06-02T1400,3675A,116.4672,39.7733,北京市,大兴旧宫,,44,23,41,10,16,138,,113,113,6,20,3,3,0.2,0.4
2024-06-02T1400,3694A,115.986,40.4563,北京市,延庆石河营,,35,19,23,9,10,112,,86,86,1,7,1,1,0.1,0.2
2024-06-02T1400,3695A,116.6151,40.3053,北京市,怀柔新城,,37,25,35,9,11,118,,95,95,5,11,3,3,0.2,0.3
2024-06-02T1400,3696A,116.2545,39.8768,北京市,丰台小屯,,38,22,47,11,16,120,,94,94,4,28,1,2,0.2,0.4
2024-06-02T1400,3697A,116.84,40.3844,北京市,密云镇,,38,13,27,12,11,121,,104,104,6,13,3,4,0.1,0.2
2024-06-02T1400,1761A,123.8275,41.3064,本溪市,大峪,,25,17,24,12,9,78,,38,38,12,18,10,10,0.7,0.7
2024-06-02T1400,1762A,123.7567,41.3325,本溪市,溪湖,,24,16,33,7,14,76,,40,40,24,20,10,8,0.5,0.8
2024-06-02T1400,1763A,123.7169,41.3094,本溪市,彩屯,,25,16,33,7,21,79,,40,40,18,29,9,8,0.4,0.7
2024-06-02T1400,1764A,123.7669,41.2864,本溪市,东明,,38,38,36,10,14,79,,37,37,18,28,10,10,0.9,1
2024-06-02T1400,1765A,123.7992,41.2664,本溪市,新立屯,,24,24,24,12,10,76,,39,39,13,19,12,12,0.6,0.5
2024-06-02T1400,1766A,123.8142,41.3472,本溪市,威宁,,26,26,40,8,15,69,,32,32,15,25,8,7,0.3,0.5
2024-06-02T1400,2587A,105.2864,27.3125,毕节市,八中,,27,10,42,3,31,85,,72,72,5,11,5,6,0.4,0.4
2024-06-02T1400,2588A,105.31,27.2944,毕节市,师专,,25,7,44,3,28,80,,71,71,6,11,6,9,0.5,0.5
2024-06-02T1400,3537A,105.3631,27.3533,毕节市,长征村,,27,6,35,3,25,86,,78,78,6,9,6,8,0.5,0.4
2024-06-02T1400,1629A,118.0018,37.3617,滨州市,第二水厂,"颗粒物(PM10),臭氧1小时",80,110,66,22,21,184,,125,125,10,37,8,9,0.7,0.7
2024-06-02T1400,1630A,117.9776,37.393,滨州市,北中新校,臭氧1小时,82,102,59,17,15,185,,125,125,8,25,14,10,0.6,0.5
2024-06-02T1400,3514A,117.9378,37.3956,滨州市,中海酒店,臭氧1小时,85,97,58,27,20,188,,136,136,12,26,11,14,0.8,0.6
2024-06-02T1400,3515A,117.9378,37.3553,滨州市,开发区一中,颗粒物(PM10),84,117,69,27,17,178,,121,121,12,39,11,12,0.5,0.5
2024-06-02T1400,3516A,118.0917,37.694,滨州市,金海六路,颗粒物(PM10),75,100,68,17,18,176,,132,132,12,45,10,10,0.5,0.4
2024-06-02T1400,4028A,117.9956,37.3753,滨州市,滨州市西街道办事处,颗粒物(PM10),79,107,62,34,27,176,,124,124,12,32,8,8,0.6,0.6
2024-06-02T1400,2311A,115.8072,33.8399,亳州市,污水处理厂,颗粒物(PM10),67,83,86,21,18,143,,109,109,16,19,5,5,0.3,0.2
2024-06-02T1400,2312A,115.7789,33.8518,亳州市,三国揽胜宫,颗粒物(PM10),58,66,63,13,11,151,,118,118,13,16,5,4,0.3,0.2
2024-06-02T1400,3332A,115.7633,33.8034,亳州市,亳州学院,颗粒物(PM10),71,91,73,20,13,148,,117,117,14,15,5,4,0.3,0.2
2024-06-02T1400,2693A,82.0485,44.8556,博尔塔拉蒙古自治州,市党校,,37,23,24,10,11,118,,82,82,8,8,11,10,0.4,0.4
2024-06-02T1400,2694A,82.0806,44.8969,博尔塔拉蒙古自治州,市环保局,,36,30,30,11,13,114,,78,78,10,12,10,10,0.4,0.4
2024-06-02T1400,1071A,116.8842,38.2991,沧州市,沧县城建局,臭氧1小时,97,74,59,19,16,197,,124,124,14,19,6,4,0.2,0.2
2024-06-02T1400,1072A,116.8584,38.3254,沧州市,电视转播站,臭氧1小时,64,64,50,22,16,171,,113,113,9,16,9,4,0.3,0.3
2024-06-02T1400,1073A,116.8709,38.3228,沧州市,市环保局,臭氧1小时,84,74,59,28,24,187,,121,121,13,19,10,7,0.4,0.3
2024-06-02T1400,3324A,116.8136,38.3004,沧州市,河北水利电力学院,臭氧1小时,101,88,56,19,16,201,,126,126,12,20,12,9,0.3,0.3
2024-06-02T1400,2622A,97.1806,31.1273,昌都市,昌都监测站,,41,10,8,3,6,130,,118,114,6,5,8,8,0.5,0.4
2024-06-02T1400,3719A,97.1714,31.1406,昌都市,昌都会议中心,,41,6,9,3,5,130,,113,112,3,5,4,4,0.2,0.2
2024-06-02T1400,2690A,88.1236,43.8886,昌吉回族自治州,天山天池,,36,9,10,3,3,114,,92,92,6,6,5,4,0.4,0.4
2024-06-02T1400,2692A,87.2717,44.0297,昌吉回族自治州,新区政务中心,,35,24,36,14,15,109,,70,70,4,21,11,8,0.4,0.5
2024-06-02T1400,3613A,87.3095,44.0142,昌吉回族自治州,亚心广场,,35,31,46,7,10,112,,73,73,9,28,10,8,0.6,0.6
2024-06-02T1400,1119A,125.3325,43.9166,长春市,食品厂,,27,9,16,3,14,85,,58,58,6,25,6,6,0.3,0.5
2024-06-02T1400,1120A,125.2863,43.9027,长春市,客车厂,,26,12,16,9,14,83,,60,60,8,25,4,4,0.3,0.4
2024-06-02T1400,1121A,125.2841,43.8463,长春市,邮电学院,,27,14,12,6,7,84,,58,58,9,17,7,6,0.3,0.4
2024-06-02T1400,1122A,125.3716,43.8772,长春市,劳动公园,,27,9,14,3,8,85,,61,61,9,22,4,4,0.3,0.4
2024-06-02T1400,1123A,125.3297,43.8805,长春市,园林处,,25,12,13,6,12,78,,55,55,10,22,7,5,0.3,0.4
2024-06-02T1400,1124A,125.4605,43.79,长春市,净月潭,,24,6,7,3,6,76,,59,59,4,7,7,7,0.3,0.3
2024-06-02T1400,1125A,125.7194,43.515,长春市,甩湾子,,,,,,,,,,,,,,,,
2024-06-02T1400,1126A,125.3863,43.8447,长春市,经开区环卫处,,27,11,12,3,6,84,,62,62,6,16,5,5,0.3,0.4
2024-06-02T1400,1127A,125.245,43.7783,长春市,高新区管委会,,27,,14,6,7,85,,59,59,6,19,6,6,0.3,0.3
2024-06-02T1400,1128A,125.1761,43.8325,长春市,岱山公园,,27,10,17,10,13,86,,57,57,9,28,4,5,0.3,0.4
2024-06-02T1400,1335A,113.0833,28.2325,长沙市,经开区环保局,,43,25,25,11,15,136,,88,88,5,14,6,7,0.3,0.4
2024-06-02T1400,1336A,112.8872,28.2189,长沙市,高开区环保局,,47,30,25,14,14,148,,99,99,5,12,5,5,0.6,0.6
2024-06-02T1400,1337A,113.0792,28.2053,长沙市,马坡岭,,43,27,25,8,17,135,,90,90,3,9,8,7,0.4,0.5
2024-06-02T1400,1338A,112.9394,28.19,长沙市,湖南师范大学,,47,32,28,13,15,149,,102,102,2,6,4,4,0.6,0.6
2024-06-02T1400,1339A,113.0178,28.1322,长沙市,雨花区环保局,,44,30,27,16,13,138,,98,98,6,13,6,6,0.5,0.6
2024-06-02T1400,1340A,112.9792,28.2597,长沙市,伍家岭,,44,33,27,12,16,139,,91,91,2,7,6,6,0.4,0.4
2024-06-02T1400,1341A,113.0014,28.1944,长沙市,火车新站,,45,30,26,17,16,143,,95,95,4,10,4,3,0.5,0.6
2024-06-02T1400,1342A,112.9844,28.1178,长沙市,天心区环保局,,46,46,32,10,16,137,,92,92,8,14,2,2,0.7,0.8
2024-06-02T1400,1343A,112.8908,28.1308,长沙市,湖南中医药大学,,47,36,24,15,15,148,,102,102,2,4,6,6,0.6,0.7
2024-06-02T1400,1344A,112.9581,28.3611,长沙市,沙坪,,41,16,17,11,11,129,,90,90,7,9,9,8,0.6,0.7
2024-06-02T1400,1727A,113.1147,36.1547,长治市,清华站,,50,29,48,12,18,158,,134,134,7,15,10,13,0.2,0.4
2024-06-02T1400,1728A,113.1031,36.1989,长治市,监测站,,50,36,48,9,18,158,,133,133,12,18,5,7,0.4,0.6
2024-06-02T1400,1730A,113.0886,36.2125,长治市,审计局,,50,28,50,7,17,160,,137,137,10,20,4,5,0.3,0.5
2024-06-02T1400,1731A,113.0844,36.1856,长治市,长治八中,臭氧1小时,54,31,60,14,21,163,,140,140,9,20,3,5,0.5,0.7
2024-06-02T1400,2845A,113.1569,36.1911,长治市,德盛苑,臭氧1小时,58,36,52,9,19,166,,142,142,6,12,8,11,0.6,0.9
2024-06-02T1400,3568A,113.06,36.0464,长治市,向阳小学,臭氧1小时,57,42,65,22,30,165,,143,143,6,17,9,12,0.4,0.6
2024-06-02T1400,3569A,112.8792,36.3144,长治市,屯留一中,臭氧1小时,53,24,50,9,23,162,,138,138,3,10,7,9,0.4,0.6
2024-06-02T1400,3570A,113.235,36.3489,长治市,潞城四中,臭氧1小时,80,43,68,22,26,184,,145,145,11,13,7,8,0.5,0.5
2024-06-02T1400,1854A,111.6975,28.9703,常德市,市二中,臭氧1小时,59,35,23,23,13,167,,107,107,7,11,9,8,0.5,0.5
2024-06-02T1400,1857A,111.7158,29.1456,常德市,白鹤山,,,,,,,,,,,,,,,,
2024-06-02T1400,3138A,111.7153,29.0289,常德市,武陵区永安,臭氧1小时,54,36,22,18,12,163,,116,116,4,8,8,8,0.4,0.4
2024-06-02T1400,3139A,111.6892,28.9881,常德市,鼎城区玉霞,臭氧1小时,58,34,23,20,11,166,,108,108,5,10,8,7,0.4,0.4
2024-06-02T1400,3140A,111.6625,29.0531,常德市,武陵区长庚,臭氧1小时,53,38,24,21,13,162,,112,112,5,8,10,9,0.5,0.5
2024-06-02T1400,1196A,119.9633,31.762,常州市,市监测站,臭氧1小时,58,29,30,23,22,166,,102,102,16,22,6,6,0.4,0.6
2024-06-02T1400,1200A,119.9468,31.7069,常州市,武进监测站,臭氧1小时,60,24,33,17,16,168,,107,107,8,18,17,18,0.3,0.5
2024-06-02T1400,1201A,119.9255,31.9087,常州市,安家,臭氧1小时,54,18,35,14,20,163,,92,92,8,22,9,10,0.4,0.6
2024-06-02T1400,3002A,119.9805,31.8174,常州市,行政中心,臭氧1小时,54,28,30,14,18,163,,98,98,9,16,10,10,0.7,0.8
2024-06-02T1400,3003A,120.0522,31.7748,常州市,经开区,臭氧1小时,53,25,33,15,17,162,,100,100,21,23,9,9,0.6,0.6
2024-06-02T1400,3010A,119.9025,31.7964,常州市,钟楼,臭氧1小时,65,28,23,18,15,172,,106,106,15,19,9,9,0.7,0.8
2024-06-02T1400,3429A,119.8598,31.7066,常州市,武进经发区,臭氧1小时,53,19,30,9,15,162,,104,104,10,19,10,12,0.5,0.6
2024-06-02T1400,3430A,119.5826,31.7245,常州市,金坛城区,臭氧1小时,52,16,29,3,16,161,,108,108,8,18,8,9,0.5,0.6
2024-06-02T1400,2220A,120.4318,41.5881,朝阳市,西梁,,35,16,35,11,15,112,,78,78,4,25,6,9,0.3,0.5
2024-06-02T1400,2221A,120.4521,41.5646,朝阳市,河畔小区,,38,19,38,14,15,120,,87,87,5,18,8,10,0.3,0.4
2024-06-02T1400,2222A,120.4176,41.5648,朝阳市,八里堡,,36,25,46,13,16,115,,82,82,6,27,6,8,0.5,0.7
2024-06-02T1400,2223A,120.3806,41.5969,朝阳市,农业园区,,38,20,33,12,26,119,,83,83,4,22,6,7,0.4,0.5
2024-06-02T1400,1705A,116.6367,23.6719,潮州市,西园路,,13,13,15,6,7,38,,46,43,15,10,1,1,0.8,0.5
2024-06-02T1400,3026A,116.6183,23.6608,潮州市,市政府,,17,10,12,3,6,53,,49,48,19,12,12,5,0.9,0.7
2024-06-02T1400,4036A,116.6461,23.6761,潮州市,金山,,15,14,9,3,5,48,,52,50,14,8,14,6,1.0,0.7
2024-06-02T1400,2472A,113.0073,25.9061,郴州市,马头岭,,28,14,11,3,7,89,,71,71,7,4,3,3,0.6,0.6
2024-06-02T1400,2473A,113.0116,25.8226,郴州市,市职中,,31,9,6,8,5,99,,71,71,2,5,6,5,0.6,0.7
2024-06-02T1400,2474A,113.0161,25.8001,郴州市,兴隆步行街,,32,20,9,11,6,100,,72,72,5,6,6,6,0.6,0.7
2024-06-02T1400,2475A,113.0383,25.8071,郴州市,市审计局,,30,,6,7,6,96,,73,73,4,5,3,2,0.6,0.6
2024-06-02T1400,2476A,113.0348,25.7759,郴州市,市环保局,颗粒物(PM10),65,80,17,7,6,87,,72,72,5,7,4,3,0.5,0.6
2024-06-02T1400,1431A,103.9728,30.7236,成都市,金泉两河,,30,20,41,3,19,95,,64,64,3,7,1,2,0.3,0.4
2024-06-02T1400,1432A,104.176,30.6872,成都市,十里店,,50,,41,35,18,102,,79,75,8,17,3,4,0.5,0.5
2024-06-02T1400,1433A,104.079,30.5706,成都市,三瓦窑,,32,29,44,19,22,102,,82,76,5,12,2,3,0.3,0.3
2024-06-02T1400,1434A,104.1114,30.63,成都市,沙河铺,,33,20,42,15,17,103,,74,73,10,17,7,7,0.3,0.4
2024-06-02T1400,1437A,104.0786,30.6531,成都市,君平街,,36,36,38,13,19,105,,88,81,10,11,5,6,0.5,0.5
2024-06-02T1400,1438A,103.613,31.0283,成都市,灵岩寺,,,,,,,,,,,,,,,,
2024-06-02T1400,2880A,104.0239,30.65639,成都市,大石西路,,34,26,39,20,17,108,,80,76,9,12,3,3,0.4,0.4
2024-06-02T1400,3136A,104.2725,30.5589,成都市,龙泉驿区区政府,,,,33,,15,,,92,,,16,,3,,0.4
2024-06-02T1400,3357A,104.0106,30.6931,成都市,金博路,,32,26,36,3,17,101,,64,64,4,9,1,3,0.2,0.3
2024-06-02T1400,3359A,104.0578,30.5225,成都市,华阳,,31,22,37,19,25,97,,75,70,7,15,2,2,0.6,0.6
2024-06-02T1400,3487A,104.2394,30.5319,成都市,车城东七路,,29,25,45,18,25,92,,87,74,8,16,2,3,0.5,0.5
2024-06-02T1400,3488A,104.3853,30.7453,成都市,青白江技师分院,,29,22,29,3,13,91,,65,60,2,12,6,4,0.5,0.5
2024-06-02T1400,3489A,104.0789,30.4072,成都市,科学城,,34,24,46,10,22,106,,94,72,5,14,2,3,0.3,0.4
2024-06-02T1400,4011A,103.8506,30.6947,成都市,光华大道三段,,35,16,38,3,16,112,,73,73,1,6,1,3,0.5,0.5
2024-06-02T1400,1062A,117.9531,40.9081,承德市,铁路,,37,9,31,3,11,117,,73,73,2,26,7,8,0.2,0.2
2024-06-02T1400,1063A,117.9392,40.9763,承德市,中国银行,,36,14,29,3,10,113,,77,77,5,19,9,9,0.2,0.3
2024-06-02T1400,1064A,117.9503,40.928,承德市,开发区,,37,22,34,11,15,118,,77,77,5,20,6,6,0.2,0.3
2024-06-02T1400,1065A,117.8051,40.9655,承德市,文化中心,,39,15,43,3,10,122,,78,78,4,29,6,12,0.2,0.4
2024-06-02T1400,1066A,117.9268,41.0026,承德市,离宫,,35,13,22,3,16,112,,75,75,2,14,3,2,0.2,0.2
2024-06-02T1400,2314A,117.47,30.6618,池州市,池州学院,,40,21,44,14,24,126,,113,113,9,12,6,6,0.4,0.5
2024-06-02T1400,3237A,117.4918,30.6617,池州市,展览馆,,39,24,41,16,24,124,,112,112,6,11,4,4,0.5,0.6
2024-06-02T1400,3333A,117.5627,30.695,池州市,第八中学,,39,21,38,17,19,122,,110,110,6,10,4,4,0.5,0.8
2024-06-02T1400,3334A,117.5038,30.6243,池州市,第十二中学,,40,26,29,8,21,127,,112,112,10,14,5,5,0.5,0.7
2024-06-02T1400,1744A,118.9233,42.2816,赤峰市,松山一中,,28,22,22,3,8,89,,82,82,16,25,8,8,0.5,0.6
2024-06-02T1400,1745A,118.9576,42.2728,赤峰市,哈达街,,30,28,20,10,12,95,,82,82,12,19,7,8,0.4,0.4
2024-06-02T1400,1746A,118.8788,42.2554,赤峰市,天义路,,30,13,16,3,9,96,,89,89,16,19,6,7,0.1,0.2
2024-06-02T1400,3058A,119.2658,42.0353,赤峰市,银河街,,35,28,43,20,23,111,,84,84,11,24,10,18,0.2,0.3
2024-06-02T1400,3286A,118.9359,42.3147,赤峰市,桥北物流园区,,35,,19,24,18,98,,90,90,15,24,5,5,0.0,0.2
2024-06-02T1400,2521A,107.3476,22.4136,崇左市,市环保局江州分局,"颗粒物(PM10),细颗粒物(PM2.5)",54,57,37,38,22,125,,60,60,5,12,6,5,0.6,0.5
2024-06-02T1400,2522A,107.3702,22.3707,崇左市,城南新区,细颗粒物(PM2.5),62,58,29,44,22,135,,68,68,7,11,5,5,1.0,0.7
2024-06-02T1400,2298A,118.3093,32.3153,滁州市,老年大学,,48,32,42,18,16,152,,90,90,14,24,11,12,0.4,0.4
2024-06-02T1400,2299A,118.3244,32.2786,滁州市,人大宾馆,,47,31,35,16,12,148,,88,88,19,27,6,7,0.5,0.5
2024-06-02T1400,3207A,118.3118,32.3038,滁州市,市政府原办公楼,,48,32,38,18,17,151,,92,92,13,26,6,8,0.5,0.5
2024-06-02T1400,3331A,118.3267,32.2634,滁州市,图书馆,,47,32,37,14,10,149,,88,88,14,23,8,9,0.8,0.8
2024-06-02T1400,2605A,101.5482,25.0441,楚雄彝族自治州,州环境监测站,,36,36,19,14,14,94,,82,82,2,3,5,5,0.4,0.5
2024-06-02T1400,2606A,101.538,25.0492,楚雄彝族自治州,市经济开发区,,29,25,19,14,13,91,,76,76,4,5,4,4,0.5,0.6
2024-06-02T1400,2548A,107.5277,31.2827,达州市,达州职业技术学院,,32,22,46,10,18,100,,67,67,11,32,2,9,0.2,0.3
2024-06-02T1400,2549A,107.5086,31.2186,达州市,市环境监测站,,34,25,46,9,19,108,,79,79,15,37,4,11,0.4,0.5
2024-06-02T1400,2550A,107.4988,31.2132,达州市,凤凰小区,,35,17,43,14,21,112,,92,92,12,31,5,12,0.3,0.4
2024-06-02T1400,2551A,107.5082,31.1986,达州市,达县机关宾馆,,32,27,49,13,27,101,,76,76,17,39,3,11,0.5,0.6
2024-06-02T1400,2552A,107.4644,31.2124,达州市,市政中心,,32,24,46,12,20,101,,91,91,14,30,5,12,0.4,0.4
2024-06-02T1400,2614A,100.1542,25.7054,大理白族自治州,大理市环境监测站,,47,47,48,13,20,97,,83,83,10,9,4,5,0.4,0.4
2024-06-02T1400,2615A,100.2171,25.5811,大理白族自治州,大理古城,,33,30,29,23,19,90,,84,84,14,11,7,6,0.7,0.7
2024-06-02T1400,1109A,121.612,38.9741,大连市,甘井子,臭氧1小时,79,47,33,18,17,183,,137,137,26,30,10,8,0.9,0.7
2024-06-02T1400,1110A,121.565,38.9511,大连市,周水子,臭氧1小时,62,38,31,21,16,169,,127,127,20,30,9,9,0.5,0.6
2024-06-02T1400,1111A,121.5637,38.8845,大连市,星海三站,细颗粒物(PM2.5),59,58,28,42,18,137,,144,144,29,17,12,8,0.7,0.6
2024-06-02T1400,1112A,121.6302,38.9117,大连市,青泥洼桥,,49,32,28,20,15,154,,132,132,15,26,11,9,0.6,0.6
2024-06-02T1400,1113A,121.6251,38.8638,大连市,傅家庄,细颗粒物(PM2.5),68,63,31,49,19,128,,137,137,27,14,9,9,0.9,0.7
2024-06-02T1400,1114A,121.5213,38.8661,大连市,七贤岭,细颗粒物(PM2.5),59,59,26,42,15,150,,129,129,25,20,10,6,0.5,0.5
2024-06-02T1400,1115A,121.2529,38.8061,大连市,旅顺,臭氧1小时,74,42,38,31,25,179,,144,144,22,23,12,11,0.6,0.7
2024-06-02T1400,1116A,121.7485,39.1311,大连市,金州,臭氧1小时,92,36,35,17,17,193,,168,168,14,18,9,9,0.9,0.9
2024-06-02T1400,1117A,121.7811,39.0496,大连市,开发区,臭氧1小时,83,51,41,33,22,186,,154,154,21,35,5,10,0.5,0.6
2024-06-02T1400,1118A,121.9762,39.0631,大连市,双D港,臭氧1小时,59,39,28,26,16,167,,118,118,20,20,11,10,0.7,0.6
2024-06-02T1400,1789A,124.81117,46.03138,大庆市,大同区,,34,26,25,20,23,107,,86,86,6,13,7,7,0.3,0.4
2024-06-02T1400,1790A,125.129,46.533,大庆市,龙凤区,,39,,32,27,24,122,,91,91,12,20,6,5,0.3,0.4
2024-06-02T1400,1791A,124.902,46.408,大庆市,红岗区,,37,12,22,10,15,116,,92,92,6,10,8,8,0.3,0.3
2024-06-02T1400,1792A,125.153,46.586,大庆市,萨尔图区,,37,33,29,18,17,117,,90,90,10,17,7,7,0.2,0.2
2024-06-02T1400,1793A,124.9042,46.6215,大庆市,让胡路区,,34,19,32,10,18,106,,88,88,5,15,6,7,0.3,0.3
2024-06-02T1400,3481A,125.141,46.634,大庆市,萨区政府监测点,,39,25,29,22,13,124,,92,92,10,17,8,9,0.2,0.2
2024-06-02T1400,1721A,113.3819,40.1097,大同市,果树场,,,,,,,,,,,,,,,,
2024-06-02T1400,1723A,113.2994,40.0758,大同市,云冈宾馆,颗粒物(PM10),61,72,51,20,19,143,,128,128,16,21,6,9,0.3,0.4
2024-06-02T1400,1724A,113.3444,40.0917,大同市,大同大学,,,,35,,13,139,,116,116,12,18,8,9,0.4,0.5
2024-06-02T1400,1725A,113.2661,40.1269,大同市,安家小村,颗粒物(PM10),65,79,55,9,16,123,,117,117,16,15,9,12,0.5,0.6
2024-06-02T1400,1726A,113.2711,40.0844,大同市,教育学院,颗粒物(PM10),67,83,59,21,20,128,,124,124,27,22,6,10,0.6,0.6
2024-06-02T1400,3282A,113.3397,40.0597,大同市,大同市卫生学校,颗粒物(PM10),60,70,46,21,16,142,,111,111,13,19,8,10,0.5,0.5
2024-06-02T1400,3565A,113.1367,40.1122,大同市,云冈站,颗粒物(PM10),67,83,59,33,21,132,,124,124,11,15,8,12,0.4,0.4
2024-06-02T1400,3566A,113.1186,40.2556,大同市,图书馆,颗粒物(PM10),71,92,61,37,20,146,,129,129,14,16,10,10,0.6,0.5
2024-06-02T1400,3567A,113.5931,40.0461,大同市,区一中,颗粒物(PM10),58,65,39,17,10,161,,117,117,13,17,8,8,0.4,0.4
2024-06-02T1400,3676A,113.2802,40.0995,大同市,第二人民医院,颗粒物(PM10),60,69,58,20,16,136,,126,126,15,16,10,12,0.4,0.4
2024-06-02T1400,2269A,124.1069,50.4097,大兴安岭地区,科技局,,30,17,25,16,19,94,,72,72,3,4,4,4,0.2,0.2
2024-06-02T1400,3663A,124.1164,50.4278,大兴安岭地区,红旗社区,,31,17,17,12,17,97,,76,76,3,7,5,5,0.4,0.4
2024-06-02T1400,1600A,124.3303,40.0625,丹东市,江湾东路,,37,21,21,10,11,117,,88,88,7,13,9,8,0.4,0.4
2024-06-02T1400,1601A,124.4256,40.1503,丹东市,临江后街,,33,10,14,3,7,104,,79,79,5,11,9,8,0.3,0.3
2024-06-02T1400,1602A,124.3933,40.1461,丹东市,元宝山,,30,30,28,7,9,91,,70,70,10,13,9,9,0.3,0.3
2024-06-02T1400,1603A,124.3633,40.1092,丹东市,民主桥,,34,21,21,7,9,106,,76,76,5,13,6,6,0.3,0.3
2024-06-02T1400,3541A,109.5726,19.5167,儋州市,第一中学子站,,22,12,19,9,12,70,,47,47,1,4,3,3,0.6,0.8
2024-06-02T1400,3542A,109.5567,19.5187,儋州市,东坡学校子站,,23,12,22,7,9,71,,47,47,1,4,4,4,0.5,0.6
2024-06-02T1400,2616A,98.5842,24.428,德宏傣族景颇族自治州,德宏州监测站,,39,39,45,25,28,77,,,,8,10,16,13,0.7,0.7
2024-06-02T1400,3677A,98.5881,24.4368,德宏傣族景颇族自治州,芒市人民政府综合楼,,48,48,49,24,25,69,,35,35,7,8,8,6,0.7,0.8
2024-06-02T1400,1901A,104.4239,31.1208,德阳市,东山公园,,34,24,33,12,13,108,,78,78,3,7,1,1,0.3,0.3
2024-06-02T1400,1902A,104.3826,31.1317,德阳市,西小区,,34,23,29,11,14,106,,81,81,6,10,1,2,0.3,0.4
2024-06-02T1400,1904A,104.3553,31.1091,德阳市,耐火材料厂,,37,19,27,8,13,118,,88,88,2,7,2,2,0.4,0.4
2024-06-02T1400,3639A,104.4019,31.1244,德阳市,市教育局,,33,24,31,9,13,105,,77,77,4,9,2,2,0.4,0.4
2024-06-02T1400,1622A,116.3032,37.4674,德州市,儿童乐园,颗粒物(PM10),90,129,77,31,17,183,,128,128,16,16,12,10,0.7,0.5
2024-06-02T1400,1624A,116.2991,37.4451,德州市,监理站,臭氧1小时,94,129,73,36,14,195,,131,131,13,15,15,12,0.5,0.4
2024-06-02T1400,3066A,116.2721,37.4379,德州市,九衢泉纯净水厂,颗粒物(PM10),87,124,70,36,17,182,,121,121,22,23,12,9,0.7,0.4
2024-06-02T1400,3371A,116.3728,37.4403,德州市,开发区人民医院,颗粒物(PM10),89,127,79,27,16,188,,125,125,14,20,13,11,0.6,0.5
2024-06-02T1400,3372A,116.3572,37.4094,德州市,太阳城中学,臭氧1小时,90,110,71,27,20,192,,122,122,17,20,12,10,0.7,0.5
2024-06-02T1400,3511A,116.5652,37.3319,德州市,陵城艺术中心,臭氧1小时,97,114,79,36,16,197,,125,125,18,19,13,10,0.7,0.5
2024-06-02T1400,2621A,99.7056,27.8317,迪庆藏族自治州,迪庆州站,,41,14,19,8,10,131,,109,109,8,9,8,8,0.2,0.4
2024-06-02T1400,3180A,99.7136,27.8094,迪庆藏族自治州,质量技术监督局,,,28,24,7,7,118,,105,105,,9,7,8,0.5,0.5
2024-06-02T1400,2663A,104.6241,35.5734,定西市,东关小学,颗粒物(PM10),51,51,51,25,21,142,,97,97,7,15,7,5,0.3,0.3
2024-06-02T1400,2664A,104.6194,35.5934,定西市,供电公司,,40,38,39,24,26,128,,82,82,3,13,3,2,0.2,0.2
2024-06-02T1400,1389A,113.7547,23.0494,东莞市,莞城梨川,臭氧1小时,70,20,18,12,12,176,,80,80,15,18,6,6,1.1,1
2024-06-02T1400,1390A,113.7944,23.0128,东莞市,东城石井,臭氧1小时,90,20,17,17,9,192,,84,84,11,15,7,6,0.9,0.8
2024-06-02T1400,1391A,113.7383,22.9658,东莞市,南城西平,,,23,16,14,8,163,,78,78,10,15,,3,0.9,0.8
2024-06-02T1400,3319A,113.7338,23.0381,东莞市,万江金泰,臭氧1小时,67,24,18,14,12,173,,73,73,12,16,11,10,1.1,0.9
2024-06-02T1400,3626A,113.7533,23.0202,东莞市,南城元岭,臭氧1小时,75,24,24,15,10,180,,79,79,9,14,8,7,1.0,0.9
2024-06-02T1400,3627A,113.7875,23.0457,东莞市,东城主山,臭氧1小时,82,21,18,15,12,185,,81,81,9,12,7,8,1.0,0.8
2024-06-02T1400,1666A,118.6614,37.4309,东营市,市环保局,臭氧1小时,99,83,66,22,22,199,,169,169,14,32,13,16,0.3,0.4
2024-06-02T1400,3036A,118.6904,37.4338,东营市,开发区管委会,臭氧1小时,93,94,65,19,18,194,,157,157,13,30,9,12,0.4,0.5
2024-06-02T1400,3365A,118.5719,37.565,东营市,垦利区民丰路,臭氧1小时,84,83,64,17,22,187,,158,158,17,32,13,16,0.4,0.6
2024-06-02T1400,3498A,118.5055,37.8612,东营市,河口城区,臭氧1小时,80,83,62,20,20,184,,138,138,11,22,11,16,0.5,0.5
2024-06-02T1400,3646A,118.4978,37.4623,东营市,胜利站,臭氧1小时,90,80,60,12,18,192,,150,150,18,32,12,15,0.4,0.5
2024-06-02T1400,3734A,118.35,37.26,东营市,理想之城,臭氧1小时,79,83,66,19,21,183,,143,143,21,37,15,17,0.5,0.5
2024-06-02T1400,1591A,110.0023,39.8129,鄂尔多斯市,综合楼,,50,34,72,9,17,158,,136,135,9,12,10,9,0.5,0.4
2024-06-02T1400,1592A,109.9486,39.8261,鄂尔多斯市,巴音孟克林场办事处,,49,29,68,14,18,154,,128,128,7,12,7,9,0.6,0.6
2024-06-02T1400,1593A,109.7736,39.5986,鄂尔多斯市,康泽苑,,,53,76,27,25,146,,132,,,8,9,9,0.4,0.4
2024-06-02T1400,1594A,109.8119,39.5989,鄂尔多斯市,华泰汽车城,,46,46,73,19,21,132,,117,117,5,9,9,9,0.4,0.4
2024-06-02T1400,1595A,109.9734,39.7884,鄂尔多斯市,奥林花园,,49,,64,34,23,140,,119,116,10,14,6,6,0.5,0.5
2024-06-02T1400,2436A,114.8938,30.3994,鄂州市,市政府,,49,36,41,18,18,154,,123,123,5,20,4,9,0.6,0.7
2024-06-02T1400,2437A,114.8989,30.3714,鄂州市,赵家坝,臭氧1小时,53,44,36,21,19,162,,114,114,2,17,6,9,0.5,0.6
2024-06-02T1400,3654A,114.8094,30.4089,鄂州市,精准医疗中心,,49,38,50,21,20,155,,120,120,8,25,5,8,0.3,0.4
2024-06-02T1400,2454A,109.4978,30.2981,恩施土家族苗族自治州,湖北民院,,33,32,35,23,25,88,,94,64,14,13,8,8,0.6,0.5
2024-06-02T1400,2455A,109.4707,30.2798,恩施土家族苗族自治州,州电力总公司,,31,22,32,20,22,98,,62,57,13,16,8,8,0.7,0.7
2024-06-02T1400,3549A,109.5061,30.3772,恩施土家族苗族自治州,龙凤新区,,28,28,30,18,18,84,,99,74,14,12,7,6,0.7,0.6
2024-06-02T1400,2499A,108.3411,21.6158,防城港市,沙万,,41,41,27,20,15,107,,97,97,8,14,10,10,0.7,0.8
2024-06-02T1400,2500A,108.3514,21.7731,防城港市,防城档案局,,42,42,27,26,16,120,,85,85,8,10,6,6,0.7,0.7
2024-06-02T1400,2501A,108.3506,21.6414,防城港市,大海花园,,42,42,26,21,15,110,,110,110,4,7,7,8,0.6,0.6
2024-06-02T1400,1371A,113.1294,23.0067,佛山市,湾梁,,50,29,16,15,10,160,,85,85,8,14,10,7,0.9,0.8
2024-06-02T1400,1372A,113.1083,23.0478,佛山市,华材职中,,49,19,12,12,8,156,,82,82,11,18,11,8,0.6,0.6
2024-06-02T1400,1373A,113.144,23.0453,佛山市,南海气象局,臭氧1小时,57,29,18,15,9,165,,86,86,9,14,8,6,0.8,0.7
2024-06-02T1400,1374A,113.2881,22.8094,佛山市,顺德苏岗,,44,14,9,12,7,139,,80,80,6,11,5,5,0.9,0.8
2024-06-02T1400,1376A,112.8383,22.8678,佛山市,高明孔堂,,35,24,19,12,9,112,,75,75,6,11,6,7,0.8,0.8
2024-06-02T1400,1377A,112.8836,23.1588,佛山市,三水监测站,,36,,10,18,6,113,,70,70,11,18,8,5,0.7,0.7
2024-06-02T1400,1378A,112.867,23.185,佛山市,三水云东海,,33,11,16,8,11,104,,66,66,6,19,4,5,0.7,0.8
2024-06-02T1400,3625A,113.2544,22.7642,佛山市,容桂街道办,,44,17,10,12,10,139,,79,79,11,18,7,6,0.6,0.6
2024-06-02T1400,1280A,119.3903,26.0543,福州市,鼓山,,,,,,,,,,,,,,,,
2024-06-02T1400,1282A,119.2681,26.0504,福州市,师大,,39,6,5,3,1,124,,97,97,4,6,3,3,0.4,0.3
2024-06-02T1400,1283A,119.2984,26.1028,福州市,五四北路,,40,6,2,3,0,128,,114,114,11,10,3,3,0.5,0.4
2024-06-02T1400,1284A,119.2648,26.0768,福州市,杨桥西路,,40,6,7,3,1,126,,105,105,9,10,3,3,0.5,0.3
2024-06-02T1400,1285A,119.317,26.0746,福州市,紫阳,,36,6,6,3,2,114,,89,89,10,11,3,2,0.6,0.4
2024-06-02T1400,3048A,119.5799,26.0936,福州市,九龙,,42,6,7,3,0,134,,111,111,1,4,4,4,0.2,0.3
2024-06-02T1400,3526A,119.5189,25.9664,福州市,吴航,,44,6,3,3,2,138,,126,126,2,2,4,4,0.4,0.4
2024-06-02T1400,1755A,123.7977,41.8491,抚顺市,望花区,,27,17,28,10,13,86,,40,40,12,26,7,7,0.3,0.3
2024-06-02T1400,1756A,123.9161,41.8822,抚顺市,顺城区,,28,19,28,7,13,89,,46,46,12,27,10,9,0.4,0.4
2024-06-02T1400,1757A,124.0436,41.8611,抚顺市,东洲区,,29,10,19,3,7,92,,49,49,6,15,7,6,0.2,0.2
2024-06-02T1400,1758A,123.9247,41.8642,抚顺市,新抚区,,27,16,25,7,10,84,,43,43,8,22,8,7,0.2,0.2
2024-06-02T1400,1759A,124.0972,41.8961,抚顺市,大伙房水库,,29,6,16,3,3,91,,53,53,3,13,6,7,0.1,0.1
2024-06-02T1400,1760A,123.7086,41.8391,抚顺市,沈抚新城,,29,14,28,9,13,90,,40,40,11,28,10,10,0.5,0.6
2024-06-02T1400,2376A,116.2127,28.0814,抚州市,桐源党溪,,25,9,23,3,6,77,,84,81,2,4,5,6,0.1,0.1
2024-06-02T1400,2377A,116.3544,27.9831,抚州市,市站,,32,20,15,9,5,101,,87,87,7,6,6,3,1.0,0.9
2024-06-02T1400,2378A,116.3565,27.963,抚州市,血防站,,31,29,21,7,6,97,,83,83,8,8,3,2,0.9,0.8
2024-06-02T1400,2379A,116.3564,28.0007,抚州市,采茶剧团,,30,18,13,9,6,94,,85,85,7,6,5,3,0.9,0.8
2024-06-02T1400,2380A,116.385,27.9647,抚州市,医学分院,,32,19,16,7,5,102,,88,88,5,6,4,4,0.9,0.7
2024-06-02T1400,2207A,121.6094,41.998,阜新市,工业园区,,40,24,52,10,22,126,,84,84,7,32,6,12,0.5,0.9
2024-06-02T1400,2208A,121.6697,42.0279,阜新市,长青街,,36,16,32,10,22,113,,81,81,7,29,6,19,0.3,1.1
2024-06-02T1400,2209A,121.6673,42.0705,阜新市,农业园区,,36,29,41,3,20,114,,88,88,10,25,7,19,0.3,1.2
2024-06-02T1400,2210A,121.6717,42.0224,阜新市,东苑,,38,22,56,6,24,120,,85,85,6,37,7,27,0.4,1.4
2024-06-02T1400,2211A,121.6506,42.0498,阜新市,玉龙新城,,36,21,49,8,18,113,,79,79,10,36,7,12,0.5,1.3
2024-06-02T1400,2301A,115.8277,32.8929,阜阳市,市监测站,,39,35,67,14,21,124,,107,107,10,21,8,10,0.3,0.4
2024-06-02T1400,2303A,115.8554,32.8605,阜阳市,开发区,,40,31,76,7,14,125,,116,116,10,20,6,8,0.3,0.3
2024-06-02T1400,2875A,115.784,32.8892,阜阳市,阜阳职业技术学院,,39,,51,10,17,123,,114,114,11,16,6,7,0.3,0.3
2024-06-02T1400,3468A,115.7901,32.8613,阜阳市,市规划展馆,,38,28,56,7,15,121,,111,111,8,15,5,7,0.3,0.4
2024-06-02T1400,3469A,115.836,32.9183,阜阳市,枣园社区,,41,33,53,9,14,131,,110,110,9,17,6,8,0.3,0.4
2024-06-02T1400,2669A,102.9099,34.9841,甘南藏族自治州,州政府,,40,23,29,18,20,127,,92,92,2,8,8,8,0.7,0.7
2024-06-02T1400,3380A,102.8914,34.9617,甘南藏族自治州,甘肃民族师范学院,,41,33,30,15,15,130,,91,91,1,9,8,8,0.5,0.5
2024-06-02T1400,2570A,101.9603,30.0475,甘孜藏族自治州,水桥子,,29,12,20,9,11,90,,59,59,5,12,3,3,0.2,0.3
2024-06-02T1400,3065A,101.9533,29.9972,甘孜藏族自治州,州环保局,,27,15,23,6,7,86,,65,63,11,15,2,2,0.3,0.3
2024-06-02T1400,3414A,115.8347,28.932,赣江新区,桑海产业园,,40,14,14,12,8,127,,93,93,10,19,8,9,0.4,0.5
2024-06-02T1400,2362A,114.9017,25.9149,赣州市,通天岩,,,,,,,,,,,,,,,,
2024-06-02T1400,2363A,114.9367,25.8664,赣州市,地委,,30,11,8,6,6,94,,81,81,2,3,14,13,0.8,0.8
2024-06-02T1400,2364A,114.9461,25.8481,赣州市,气象台,,30,13,8,11,7,95,,79,79,7,8,9,13,0.4,0.5
2024-06-02T1400,2365A,114.9322,25.8333,赣州市,市图书馆,,32,13,12,6,7,100,,83,83,3,5,9,9,0.8,0.8
2024-06-02T1400,2366A,114.8905,25.8471,赣州市,华坚鞋城,,31,20,14,3,5,98,,77,77,4,6,4,4,0.3,0.4
2024-06-02T1400,3109A,115.0093,25.8613,赣州市,赣县区卫计委,,,8,8,,6,91,,77,77,5,4,5,5,0.6,0.7
2024-06-02T1400,2683A,106.2319,36.1417,固原市,马园,,31,30,24,10,12,97,,112,90,13,26,4,4,0.7,0.6
2024-06-02T1400,2684A,106.2792,36.0022,固原市,监测站,,32,,18,17,14,100,,121,108,8,9,4,4,0.4,0.4
2024-06-02T1400,2685A,106.2375,36.0211,固原市,新区,,29,14,19,12,12,91,,116,100,9,8,4,4,0.3,0.3
2024-06-02T1400,3522A,106.2177,35.9959,固原市,原州区十五小,,30,26,27,16,16,96,,109,101,10,10,6,5,0.3,0.3
2024-06-02T1400,2543A,106.6308,30.5278,广安市,小平旧居,,,,,,,,,,,,,,,,
2024-06-02T1400,2544A,106.6303,30.4576,广安市,市委,,33,33,48,17,27,85,,78,78,10,13,7,8,0.5,0.6
2024-06-02T1400,2545A,106.6271,30.4663,广安市,友谊中学,,33,27,38,23,26,89,,82,82,11,15,6,7,0.5,0.6
2024-06-02T1400,2547A,106.6388,30.4551,广安市,广电花园,,33,33,41,18,25,78,,80,75,9,13,8,9,0.6,0.6
2024-06-02T1400,2902A,106.6351,30.4865,广安市,北辰小学,,35,35,45,19,24,77,,75,73,9,12,8,9,0.5,0.5
2024-06-02T1400,2523A,105.8945,32.4535,广元市,黑石坡,,20,13,16,6,7,63,,30,30,7,11,8,8,0.3,0.3
2024-06-02T1400,2524A,105.821,32.4444,广元市,老城,,26,12,24,6,10,83,,38,38,11,20,4,5,0.4,0.4
2024-06-02T1400,2526A,105.8628,32.4287,广元市,监测站,,26,14,22,3,12,82,,47,47,8,13,5,6,0.4,0.4
2024-06-02T1400,3617A,105.8047,32.4166,广元市,经开区,,27,22,30,15,17,84,,37,37,11,26,3,6,0.5,0.5
2024-06-02T1400,1345A,113.2347,23.1423,广州市,广雅中学,,48,27,17,27,14,153,,90,90,20,27,5,5,0.7,0.9
2024-06-02T1400,1346A,113.2612,23.105,广州市,市五中,,50,13,15,11,14,157,,91,91,10,18,4,4,0.8,0.8
2024-06-02T1400,1348A,113.3478,23.0916,广州市,广东商学院,臭氧1小时,67,21,19,13,13,173,,94,94,14,24,4,4,0.7,0.7
2024-06-02T1400,1349A,113.4332,23.1047,广州市,市八十六中,臭氧1小时,90,22,15,14,10,192,,98,98,12,21,4,3,1.0,1
2024-06-02T1400,1350A,113.3505,22.9483,广州市,番禺中学,,,,14,,12,,,32,,,17,,5,,0.7
2024-06-02T1400,1351A,113.2146,23.3916,广州市,花都师范,,33,8,15,7,11,104,,70,70,5,18,6,6,0.8,0.7
2024-06-02T1400,1352A,113.2597,23.1331,广州市,市监测站,,50,15,17,12,11,158,,91,91,12,20,6,5,0.7,0.6
2024-06-02T1400,1353A,113.5618,23.312,广州市,九龙镇镇龙,,41,20,14,12,10,129,,69,69,10,17,7,6,0.7,0.7
2024-06-02T1400,1354A,113.2765,23.1544,广州市,麓湖,臭氧1小时,55,22,16,12,11,164,,90,90,11,17,4,3,0.8,0.7
2024-06-02T1400,1355A,113.443,23.3035,广州市,帽峰山森林公园,,44,10,8,7,5,138,,82,82,9,15,6,6,0.7,0.7
2024-06-02T1400,2846A,113.3221,23.1322,广州市,体育西,臭氧1小时,60,21,17,16,14,168,,93,93,10,15,4,4,0.7,0.7
2024-06-02T1400,3298A,113.5717,23.5491,广州市,从化街口,,16,15,12,11,8,23,,21,21,10,15,7,6,0.6,0.6
2024-06-02T1400,3299A,113.3472,23.3692,广州市,白云竹料,,42,12,16,7,11,132,,80,80,10,26,5,5,0.8,0.8
2024-06-02T1400,3300A,113.2981,23.237,广州市,白云嘉禾,,47,17,16,12,10,149,,85,85,16,27,6,6,0.9,1
2024-06-02T1400,3301A,113.4256,23.1716,广州市,黄埔科学城,臭氧1小时,60,25,16,21,10,168,,90,90,8,18,8,7,0.8,0.8
2024-06-02T1400,3302A,113.3942,23.0483,广州市,番禺大学城,,45,,11,9,10,143,,74,74,13,20,3,3,0.7,0.7
2024-06-02T1400,3303A,113.4922,22.8168,广州市,南沙黄阁,臭氧1小时,60,32,19,20,13,168,,78,78,11,18,7,6,0.9,0.8
2024-06-02T1400,3304A,113.5342,22.7896,广州市,南沙街,臭氧1小时,52,35,18,14,12,161,,76,76,12,16,7,7,0.8,0.8
2024-06-02T1400,3443A,113.2902,23.5544,广州市,花都梯面,,35,7,9,3,7,109,,75,75,4,10,5,4,0.8,0.8
2024-06-02T1400,3445A,113.7858,23.7478,广州市,从化良口,,28,11,7,9,4,87,,64,64,4,8,6,5,0.8,0.8
2024-06-02T1400,3446A,113.8051,23.2614,广州市,增城荔城,,49,18,15,14,10,154,,81,81,10,16,5,5,0.7,0.6
2024-06-02T1400,2505A,109.568,23.1478,贵港市,德智高中,,,,,,,,,,,,,,,,
2024-06-02T1400,2506A,109.6047,23.0666,贵港市,江南子站,,42,34,45,21,26,132,,91,91,6,21,7,7,0.6,0.8
2024-06-02T1400,2507A,109.6014,23.0948,贵港市,贵城子站,颗粒物(PM10),54,57,40,32,31,150,,90,90,9,15,8,8,0.7,0.6
2024-06-02T1400,2508A,109.5669,23.1065,贵港市,荷城子站,颗粒物(PM10),51,51,34,17,13,142,,83,83,10,17,10,10,0.5,0.6
2024-06-02T1400,3405A,109.5886,23.1172,贵港市,新世纪学校,臭氧1小时,68,66,33,26,17,174,,94,94,10,9,11,9,1.1,0.9
2024-06-02T1400,1439A,106.6899,26.5998,贵阳市,马鞍山,,36,36,22,22,12,53,,56,48,16,7,6,6,0.6,0.5
2024-06-02T1400,1440A,106.6971,26.5694,贵阳市,市环保站,颗粒物(PM10),54,58,36,37,25,44,,74,50,37,21,5,4,0.5,0.4
2024-06-02T1400,1441A,106.6243,26.6266,贵阳市,鉴湖路,颗粒物(PM10),51,51,29,22,16,52,,60,48,16,10,2,2,0.5,0.4
2024-06-02T1400,1442A,106.7487,26.6343,贵阳市,燕子冲,,31,31,23,19,16,59,,70,61,15,8,6,6,0.6,0.5
2024-06-02T1400,1443A,106.6555,26.4365,贵阳市,碧云窝,,,,35,,15,61,,58,56,10,13,5,5,,0.5
2024-06-02T1400,1444A,106.694,26.5161,贵阳市,中院村,,48,48,30,22,15,54,,62,46,14,13,6,6,0.5,0.5
2024-06-02T1400,1445A,106.7109,26.6027,贵阳市,红边门,,48,48,30,31,22,47,,67,54,27,15,4,4,0.6,0.5
2024-06-02T1400,1446A,106.7164,26.5699,贵阳市,新华路,,46,46,30,27,18,59,,73,56,18,11,6,6,0.5,0.4
2024-06-02T1400,1447A,106.674,26.5424,贵阳市,太慈桥,,36,36,24,19,13,56,,74,56,15,12,6,6,0.5,0.4
2024-06-02T1400,1552A,106.805,26.3003,贵阳市,桐木岭,,,,,,,,,,,,,,,,
2024-06-02T1400,1862A,110.4144,25.3167,桂林市,电子科大尧山校区,,29,8,13,7,8,91,,79,79,4,5,5,6,0.7,0.8
2024-06-02T1400,1863A,110.2819,25.2697,桂林市,监测站,,32,17,16,11,11,100,,80,80,6,9,6,5,0.8,0.9
2024-06-02T1400,1864A,110.3089,25.2708,桂林市,龙隐路小学,,,5,9,,,95,,78,78,4,6,6,7,0.9,0.9
2024-06-02T1400,1865A,110.2869,25.2178,桂林市,八中,,33,15,14,8,7,103,,80,80,5,7,5,6,0.8,0.9
2024-06-02T1400,3403A,110.1764,25.2381,桂林市,创业大厦,,35,12,15,7,9,111,,83,83,5,11,10,17,0.6,0.7
2024-06-02T1400,3531A,110.296,25.1253,桂林市,旅游学院,,35,,8,7,5,111,,81,81,4,7,7,9,0.8,0.8
2024-06-02T1400,2674A,100.2561,34.4714,果洛藏族自治州,玛沁县大武镇,,38,6,10,3,11,121,,107,107,4,3,4,10,0.5,0.4
2024-06-02T1400,1129A,126.5422,45.755,哈尔滨市,岭北,,30,19,26,14,19,96,,58,58,18,32,9,10,0.9,1
2024-06-02T1400,1130A,126.561,45.8167,哈尔滨市,松北商大,,32,32,30,14,14,82,,51,51,18,21,5,5,0.5,0.6
2024-06-02T1400,1131A,126.979,45.5419,哈尔滨市,阿城会宁,,22,16,11,3,7,70,,45,45,3,11,10,9,0.5,0.4
2024-06-02T1400,1132A,126.599,45.7222,哈尔滨市,南岗学府路,,30,30,53,10,26,85,,49,49,15,31,7,8,0.6,1
2024-06-02T1400,1133A,126.689,45.7733,哈尔滨市,太平宏伟公园,,49,49,36,23,20,82,,50,50,28,36,6,6,0.4,0.6
2024-06-02T1400,1134A,126.635,45.7667,哈尔滨市,道外承德广场,,40,39,41,28,24,72,,47,47,41,38,7,7,0.4,0.5
2024-06-02T1400,1135A,126.685,45.7319,哈尔滨市,香坊红旗大街,,27,27,38,7,29,85,,54,54,15,36,13,12,0.5,1
2024-06-02T1400,1136A,126.6411,45.7258,哈尔滨市,动力和平路,,35,35,34,13,22,79,,51,51,21,34,10,9,0.5,0.8
2024-06-02T1400,1137A,126.593,45.7478,哈尔滨市,道里建国路,,34,34,40,18,24,78,,45,45,25,40,11,11,0.8,1.2
2024-06-02T1400,1138A,126.615,45.61,哈尔滨市,平房东轻厂,,25,18,26,8,13,79,,52,52,4,29,7,9,0.2,0.5
2024-06-02T1400,1139A,126.595,45.9855,哈尔滨市,呼兰师专,,33,,29,23,25,88,,66,66,12,26,5,5,0.4,0.5
2024-06-02T1400,1140A,126.6206,45.6842,哈尔滨市,省农科院,,27,24,27,8,18,86,,54,54,15,40,8,8,0.5,0.8
2024-06-02T1400,2688A,93.5128,42.8172,哈密市,地区监测站,,42,20,43,13,15,133,,109,109,4,7,4,5,0.2,0.3
2024-06-02T1400,2689A,93.4961,42.8328,哈密市,哈密师范学校,,40,16,38,11,12,125,,103,103,4,7,6,6,0.0,0.1
2024-06-02T1400,2671A,100.9048,36.9639,海北藏族自治州,海晏县西海镇,,44,17,25,14,22,139,,109,109,5,11,14,14,0.4,0.4
2024-06-02T1400,3867A,102.0738,36.5056,海东市,平安区公安北苑,,49,32,44,11,29,155,,92,92,5,19,6,9,0.4,0.6
2024-06-02T1400,1409A,110.576,19.9507,海口市,东寨港,,,,,,,,,,,,,,,,
2024-06-02T1400,1410A,110.3232,20.0574,海口市,海南大学,,28,8,19,3,14,88,,61,61,4,13,4,4,0.3,0.5
2024-06-02T1400,1411A,110.283,20.0053,海口市,秀英海南医院,,26,26,22,3,15,81,,55,55,6,14,5,6,0.3,0.5
2024-06-02T1400,1412A,110.338,19.9969,海口市,海南师范大学,,27,21,21,6,13,85,,59,59,4,11,6,6,0.4,0.6
2024-06-02T1400,1413A,110.33,20.0356,海口市,龙华路环保局宿舍,,27,18,22,3,14,84,,58,58,3,13,6,6,0.3,0.5
2024-06-02T1400,3539A,110.5111,19.9736,海口市,桂林洋子站,,30,9,21,6,12,94,,61,61,2,8,6,5,0.3,0.5
2024-06-02T1400,2673A,100.6188,36.2866,海南藏族自治州,共和县恰卜恰镇,,39,22,28,11,17,123,,98,98,5,12,12,11,0.5,0.5
2024-06-02T1400,2676A,97.3731,37.3753,海西蒙古族藏族自治州,德令哈市,,41,22,17,8,12,131,,122,122,12,8,18,14,0.7,0.5
2024-06-02T1400,1048A,114.5302,36.6116,邯郸市,东污水处理厂,臭氧1小时,92,45,62,34,29,193,,138,138,6,18,10,10,0.5,0.6
2024-06-02T1400,1049A,114.4918,36.5713,邯郸市,矿院,臭氧1小时,101,66,68,48,24,202,,137,137,12,21,8,8,0.5,0.5
2024-06-02T1400,1050A,114.484,36.6133,邯郸市,丛台公园,臭氧1小时,101,58,71,24,22,202,,140,140,6,18,6,7,0.4,0.6
2024-06-02T1400,3458A,114.7895,36.5593,邯郸市,香泉濮院小区,臭氧1小时,116,95,95,36,23,231,,153,153,7,14,13,10,0.7,0.4
2024-06-02T1400,3579A,114.50634,36.77178,邯郸市,永年区实验高中,臭氧1小时,105,56,81,20,29,209,,151,151,4,14,8,12,0.2,0.6
2024-06-02T1400,3580A,114.20016,36.44293,邯郸市,峰峰矿区临水派出所,臭氧1小时,93,71,64,26,18,194,,149,149,6,8,7,6,0.5,0.4
2024-06-02T1400,2634A,106.9893,33.1842,汉中市,汉川机床厂子校,,30,30,42,18,24,81,,75,70,5,12,4,5,0.7,0.8
2024-06-02T1400,2635A,107.0154,33.0706,汉中市,市监测站,,33,26,60,23,33,102,,78,78,7,18,7,9,0.7,1
2024-06-02T1400,2636A,107.0089,33.1138,汉中市,鑫源开发区,,31,20,58,13,32,99,,75,75,8,21,8,11,0.5,0.8
2024-06-02T1400,2637A,107.007,33.0323,汉中市,南郑大河坎水厂,,36,28,59,16,32,114,,81,81,6,17,7,9,0.6,0.8
2024-06-02T1400,1223A,120.2072,30.2111,杭州市,滨江,,41,14,34,11,20,130,,106,106,6,14,5,5,0.3,0.5
2024-06-02T1400,1224A,120.0633,30.2747,杭州市,西溪,,40,,27,10,16,127,,99,99,11,14,6,6,0.5,0.6
2024-06-02T1400,1226A,120.3461,30.3153,杭州市,下沙,,48,28,34,8,18,152,,112,112,12,18,9,8,0.5,0.5
2024-06-02T1400,1227A,120.1269,30.2456,杭州市,卧龙桥,,37,15,21,10,18,117,,94,94,10,13,5,5,0.4,0.5
2024-06-02T1400,1228A,120.1903,30.2692,杭州市,浙江农大,,40,16,27,11,19,125,,94,94,6,7,7,6,0.3,0.4
2024-06-02T1400,1230A,120.1197,30.3119,杭州市,和睦小学,,43,13,27,13,17,135,,104,104,11,18,8,6,0.5,0.6
2024-06-02T1400,1231A,120.3019,30.4183,杭州市,临平镇,,49,19,36,8,20,156,,108,108,13,19,6,5,0.4,0.5
2024-06-02T1400,1232A,120.2697,30.1819,杭州市,城厢镇,,41,13,34,8,26,131,,107,107,12,18,6,6,0.4,0.6
2024-06-02T1400,1233A,120.0883,30.1808,杭州市,云栖,,44,14,28,6,16,139,,113,113,10,15,8,8,0.5,0.6
2024-06-02T1400,3557A,119.9464,30.0494,杭州市,镇二中,,37,16,23,9,17,118,,111,111,13,20,7,7,0.4,0.6
2024-06-02T1400,3558A,119.7183,30.2367,杭州市,市府大楼,,46,15,34,9,21,145,,102,102,13,20,6,6,0.4,0.6
2024-06-02T1400,3656A,120.1556,30.2864,杭州市,消防大队,,43,15,34,10,18,135,,103,103,15,20,7,6,0.4,0.6
2024-06-02T1400,1270A,117.1959,31.7848,合肥市,明珠广场,,40,29,54,19,25,128,,88,88,15,27,11,11,0.3,0.5
2024-06-02T1400,1271A,117.3072,31.8764,合肥市,三里街,,35,27,42,9,14,111,,76,76,17,25,6,6,0.4,0.5
2024-06-02T1400,1272A,117.2588,31.8707,合肥市,琥珀山庄,,41,29,37,14,15,129,,95,95,12,19,8,7,0.5,0.6
2024-06-02T1400,1273A,117.1604,31.9052,合肥市,董铺水库,,40,39,50,9,16,126,,91,91,7,14,3,2,0.3,0.3
2024-06-02T1400,1274A,117.25,31.8571,合肥市,长江中路,,44,44,53,21,24,122,,83,83,14,22,10,8,0.6,0.7
2024-06-02T1400,1275A,117.266,31.9436,合肥市,庐阳区,,41,29,49,14,16,129,,88,88,14,26,8,9,0.6,0.7
2024-06-02T1400,1276A,117.336,31.8586,合肥市,瑶海区,,36,27,42,7,15,114,,83,83,8,19,10,9,0.4,0.5
2024-06-02T1400,1277A,117.3027,31.7964,合肥市,包河区,,39,29,51,9,17,122,,75,75,11,49,6,6,0.3,0.5
2024-06-02T1400,1278A,117.2776,31.7385,合肥市,滨湖新区,,38,31,49,14,25,120,,88,88,8,18,7,8,0.4,0.6
2024-06-02T1400,1279A,117.1318,31.8403,合肥市,高新区,,38,31,45,14,21,119,,88,88,12,19,10,9,0.5,0.6
2024-06-02T1400,3464A,117.3803,31.9147,合肥市,高教基地,,37,24,39,9,11,118,,80,80,7,15,6,6,0.3,0.4
2024-06-02T1400,3614A,79.924,37.0877,和田地区,地区环保局,颗粒物(PM10),134,218,166,48,35,116,,102,100,4,4,7,7,0.4,0.4
2024-06-02T1400,3615A,79.9131,37.113,和田地区,市环保局,颗粒物(PM10),136,222,167,60,36,118,,102,99,7,11,6,6,0.6,0.6
2024-06-02T1400,2516A,108.2011,24.715,河池市,东仁乐园,颗粒物(PM10),58,66,52,21,24,72,,53,53,3,9,5,4,0.5,0.5
2024-06-02T1400,2517A,108.0497,24.6947,河池市,市环保站,,48,48,32,29,22,84,,67,67,9,8,12,11,0.6,0.5
2024-06-02T1400,2518A,108.0983,24.6989,河池市,市疾控中心,,44,44,36,27,24,84,,58,58,8,14,10,8,0.5,0.5
2024-06-02T1400,1696A,114.6778,23.7569,河源市,源西,,,,,,,,,,,,,,,,
2024-06-02T1400,1697A,114.6944,23.7586,河源市,东埔,,30,17,10,6,4,94,,58,58,10,12,6,6,0.8,0.7
2024-06-02T1400,1698A,114.6892,23.7233,河源市,老城,,28,9,7,7,4,89,,56,56,3,7,5,5,0.7,0.6
2024-06-02T1400,1718A,115.4208,35.2464,菏泽市,气象局,颗粒物(PM10),111,172,116,24,20,184,,138,138,15,26,5,6,0.2,0.4
2024-06-02T1400,1719A,115.4747,35.2375,菏泽市,市政协,颗粒物(PM10),118,185,107,19,20,183,,133,133,9,16,5,5,0.3,0.2
2024-06-02T1400,3374A,115.5564,35.0891,菏泽市,定陶老年大学,颗粒物(PM10),96,141,92,12,13,171,,128,128,11,20,7,6,0,0
2024-06-02T1400,3647A,115.4702,35.2706,菏泽市,菏泽医专,颗粒物(PM10),107,163,94,14,8,189,,137,137,11,17,4,4,0,0.1
2024-06-02T1400,2514A,111.5264,24.4172,贺州市,环保小区,,30,10,12,3,6,93,,74,74,3,8,5,6,0.6,0.7
2024-06-02T1400,2515A,111.5608,24.4078,贺州市,政协大楼,,30,7,17,3,8,94,,72,72,5,9,6,6,0.7,0.8
2024-06-02T1400,3534A,111.4744,24.4553,贺州市,西湾,,30,6,12,3,6,94,,74,74,6,10,6,6,0.6,0.7
2024-06-02T1400,2385A,114.17,35.9019,鹤壁市,市监测站,臭氧1小时,90,67,84,38,40,192,,139,139,13,20,10,10,0.5,0.7
2024-06-02T1400,2386A,114.2956,35.7511,鹤壁市,市交警支队,臭氧1小时,112,75,88,37,27,224,,132,132,13,31,14,11,0.6,0.5
2024-06-02T1400,2387A,114.2878,35.7306,鹤壁市,迎宾馆,臭氧1小时,113,104,109,37,34,226,,132,132,11,28,16,12,0.6,0.4
2024-06-02T1400,3474A,114.2617,35.6822,鹤壁市,大新区,臭氧1小时,105,121,137,34,32,210,,125,125,18,42,11,9,0.5,0.4
2024-06-02T1400,3596A,114.1572,35.9603,鹤壁市,南山宾馆,臭氧1小时,95,70,93,24,29,196,,145,145,6,16,9,9,0.6,0.6
2024-06-02T1400,2244A,130.2537,47.3416,鹤岗市,哈啤分公司,,24,12,16,6,8,75,,70,70,5,6,12,11,0.3,0.4
2024-06-02T1400,2245A,130.2684,47.3086,鹤岗市,斯达机电,,22,6,12,3,7,69,,60,60,8,10,12,12,0.4,0.4
2024-06-02T1400,2246A,130.3114,47.3388,鹤岗市,东山纸板厂,,22,10,15,3,12,69,,60,60,8,14,15,15,0.3,0.8
2024-06-02T1400,2247A,130.1097,47.3382,鹤岗市,五号水库,,30,7,14,3,6,93,,77,77,5,5,9,8,0.1,0.1
2024-06-02T1400,2263A,127.4833,50.2524,黑河市,交通局,颗粒物(PM10),51,52,36,27,20,82,,73,73,8,13,8,17,0.4,0.3
2024-06-02T1400,2264A,127.5144,50.2341,黑河市,环保局,,49,41,26,34,19,84,,81,81,7,9,5,7,0.3,0.3
2024-06-02T1400,2265A,127.5291,50.2472,黑河市,大黑河岛,,,54,30,24,19,,,,,,,,,,
2024-06-02T1400,1074A,115.6838,37.7541,衡水市,电机北厂,颗粒物(PM10),78,105,66,30,20,170,,114,114,16,13,7,7,0.4,0.3
2024-06-02T1400,1075A,115.6303,37.7316,衡水市,市监测站,臭氧1小时,73,88,61,36,18,178,,114,114,16,15,8,7,0.6,0.4
2024-06-02T1400,3188A,115.6683,37.7217,衡水市,市城管局,颗粒物(PM10),82,113,72,31,18,179,,114,114,17,17,7,7,0.4,0.3
2024-06-02T1400,3459A,115.5989,37.5491,衡水市,地表水厂,"颗粒物(PM10),臭氧1小时",85,119,79,31,17,188,,116,116,12,19,8,8,0.4,0.4
2024-06-02T1400,2456A,112.5003,26.9167,衡阳市,原169医院,,32,27,16,9,9,100,,75,75,9,11,9,4,0.7,0.7
2024-06-02T1400,2457A,112.6194,26.9258,衡阳市,衡阳化工总厂,,40,40,18,16,5,114,,85,85,7,8,9,8,0.6,0.6
2024-06-02T1400,2458A,112.6211,26.8956,衡阳市,珠晖区环保局,,36,36,16,13,9,115,,89,89,5,8,6,6,0.7,0.6
2024-06-02T1400,2459A,112.6197,26.8733,衡阳市,市委党校,,37,36,16,16,8,117,,97,97,9,8,8,8,0.7,0.6
2024-06-02T1400,2460A,112.6006,26.8919,衡阳市,市监测站,,37,36,17,20,12,117,,92,92,7,8,7,7,0.7,0.6
2024-06-02T1400,2461A,112.5664,26.9056,衡阳市,真空机电公司,,35,24,14,10,7,111,,79,79,6,8,7,6,0.7,0.7
2024-06-02T1400,3399A,112.6703,26.882,衡阳市,师范学院,,36,29,16,17,9,115,,94,94,8,9,7,7,0.6,0.6
2024-06-02T1400,2608A,103.3772,23.3993,红河哈尼族彝族自治州,污水处理厂,,23,9,24,7,16,71,,66,62,5,7,4,5,0.4,0.5
2024-06-02T1400,2609A,103.3861,23.35,红河哈尼族彝族自治州,监测站,,24,7,16,7,13,74,,68,63,6,8,5,5,0.5,0.5
2024-06-02T1400,3038A,103.3758,23.368,红河哈尼族彝族自治州,州图书馆,,23,14,21,3,11,73,,71,64,4,6,3,4,0.4,0.4
2024-06-02T1400,1090A,111.6507,40.7517,呼和浩特市,呼市一监,颗粒物(PM10),108,166,90,46,27,149,,121,121,14,23,14,12,0.6,0.6
2024-06-02T1400,1091A,111.6572,40.8033,呼和浩特市,小召,颗粒物(PM10),103,156,87,38,22,146,,100,100,16,29,12,9,0.7,0.6
2024-06-02T1400,1094A,111.7516,40.8369,呼和浩特市,如意水处理厂,颗粒物(PM10),96,142,75,31,19,147,,98,98,12,31,11,8,0.5,0.4
2024-06-02T1400,1095A,111.7276,40.8062,呼和浩特市,二十九中,颗粒物(PM10),102,154,93,45,23,153,,111,111,13,24,8,6,0.6,0.5
2024-06-02T1400,1096A,111.5512,40.7866,呼和浩特市,工大金川校区,颗粒物(PM10),109,167,87,45,24,138,,102,102,13,30,10,9,0.5,0.4
2024-06-02T1400,1097A,111.717,40.7612,呼和浩特市,化肥厂生活区,颗粒物(PM10),118,185,94,44,24,142,,111,111,19,25,18,13,0.6,0.5
2024-06-02T1400,3698A,111.5968,40.8178,呼和浩特市,红旗小学,细颗粒物(PM2.5),149,153,97,114,30,149,,111,111,16,39,10,7,0.5,0.4
2024-06-02T1400,3699A,111.6518,40.8389,呼和浩特市,海东办,颗粒物(PM10),107,163,91,51,27,150,,108,108,12,24,12,10,0.6,0.5
2024-06-02T1400,2192A,119.7594,49.2261,呼伦贝尔市,区环保局,细颗粒物(PM2.5),52,51,48,36,31,108,,90,90,11,20,4,4,0.4,0.4
2024-06-02T1400,3061A,119.7512,49.1577,呼伦贝尔市,国华电力东,,39,39,30,26,16,114,,91,91,4,9,3,4,0.4,0.4
2024-06-02T1400,1250A,120.0751,30.8669,湖州市,城西水厂,,45,9,38,3,23,142,,108,108,14,17,4,4,0.5,0.6
2024-06-02T1400,2873A,120.0875,30.8955,湖州市,仁皇山新区,,46,12,38,3,24,146,,106,106,17,20,6,6,0.5,0.6
2024-06-02T1400,2907A,120.1844,30.8596,湖州市,吴兴区站,,45,12,33,3,21,143,,106,106,8,10,5,5,0.4,0.6
2024-06-02T1400,3562A,120.4148,30.8538,湖州市,南浔区站,,47,10,38,3,20,150,,106,106,12,15,7,7,0.2,0.3
2024-06-02T1400,1607A,120.9092,40.7136,葫芦岛市,龙港区,,44,44,43,26,22,139,,109,109,14,24,18,12,0.6,0.7
2024-06-02T1400,1608A,120.8392,40.7514,葫芦岛市,化工街,颗粒物(PM10),57,63,65,24,24,132,,105,105,19,20,49,21,1.2,1
2024-06-02T1400,1609A,120.8341,40.7073,葫芦岛市,新区,,50,40,48,27,25,160,,107,107,13,42,17,14,0.8,0.9
2024-06-02T1400,1610A,120.8695,40.7677,葫芦岛市,东城区,,49,49,59,33,26,135,,96,96,13,44,16,25,0.7,0.9
2024-06-02T1400,2482A,109.5981,27.5721,怀化市,林科所,,41,20,17,9,10,131,,99,99,3,3,11,5,0.5,0.5
2024-06-02T1400,2483A,109.9453,27.5444,怀化市,河西地税局,,35,21,24,12,12,109,,72,72,7,11,9,6,0.6,0.6
2024-06-02T1400,2484A,109.9781,27.5342,怀化市,市四医院,,35,23,21,15,15,111,,80,80,6,10,7,6,0.6,0.6
2024-06-02T1400,2485A,109.9972,27.5578,怀化市,监测楼,,29,28,25,16,13,91,,76,76,4,7,6,7,0.6,0.6
2024-06-02T1400,2486A,110.0394,27.583,怀化市,市委党校,,31,26,23,16,15,98,,74,74,5,11,9,11,0.6,0.6
2024-06-02T1400,1210A,119.036,33.5981,淮安市,钵池山,,46,27,25,11,12,146,,98,98,16,22,7,7,0.6,0.5
2024-06-02T1400,1211A,119.007,33.575,淮安市,北京南路,,45,31,31,13,13,144,,88,88,13,20,6,6,0.3,0.3
2024-06-02T1400,1212A,118.989,33.6067,淮安市,市监测站,,,39,30,12,13,143,,93,93,,23,8,9,0.6,0.6
2024-06-02T1400,1213A,119.135,33.5039,淮安市,楚州区监测站,,44,27,39,14,17,139,,81,81,14,28,8,9,0.6,0.5
2024-06-02T1400,1214A,119.0186,33.6297,淮安市,淮阴区监测站,,,36,30,14,14,144,,87,87,16,26,,7,0.4,0.5
2024-06-02T1400,3426A,118.8755,33.2894,淮安市,新华书店,,42,30,28,18,12,132,,93,93,15,18,6,6,0.6,0.6
2024-06-02T1400,2282A,116.8004,33.975,淮北市,监测站,颗粒物(PM10),56,61,40,18,13,148,,110,110,10,19,7,7,0.3,0.5
2024-06-02T1400,2283A,116.8091,33.9007,淮北市,烈山区政府,颗粒物(PM10),78,106,69,14,12,145,,101,101,10,16,6,7,0.3,0.4
2024-06-02T1400,3330A,116.8873,33.9836,淮北市,杜集区检察院,颗粒物(PM10),62,73,59,21,14,154,,116,116,10,13,6,7,0.4,0.5
2024-06-02T1400,4017A,116.7923,33.9535,淮北市,市博物馆,颗粒物(PM10),62,74,50,19,14,147,,107,107,10,14,8,8,0.5,0.6
2024-06-02T1400,2277A,116.8305,32.7727,淮南市,潘集区政府,,38,34,68,15,31,121,,92,92,8,20,6,11,0.2,0.3
2024-06-02T1400,2278A,117.0067,32.6524,淮南市,师范学院,,37,33,46,7,16,117,,88,88,5,14,6,7,0.3,0.3
2024-06-02T1400,2279A,116.8569,32.5951,淮南市,谢家集区政府,,38,19,43,3,13,120,,86,86,10,15,8,18,0.2,0.2
2024-06-02T1400,2280A,116.8281,32.633,淮南市,八公山区政府,,38,22,47,8,15,120,,90,90,8,15,5,5,0.3,0.3
2024-06-02T1400,2281A,116.6325,32.6201,淮南市,焦岗湖风景区管理处,,30,29,39,8,15,93,,70,70,16,29,5,7,0.1,0.2
2024-06-02T1400,2894A,117.0566,32.6531,淮南市,经济技术开发区消防队,,40,36,50,3,15,126,,93,93,6,17,4,5,0.1,0.2
2024-06-02T1400,3329A,117.0108,32.5893,淮南市,山南新区,,39,29,48,8,6,124,,92,92,8,14,6,7,0.2,0.2
2024-06-02T1400,2446A,114.9028,30.4742,黄冈市,职工中心,,47,35,44,20,26,150,,129,129,2,13,5,9,0.6,0.7
2024-06-02T1400,2929A,114.8858,30.4519,黄冈市,红卫路,,48,29,42,18,26,152,,133,133,4,18,6,10,0.6,0.7
2024-06-02T1400,3398A,114.9136,30.4445,黄冈市,市林业局,,47,25,38,19,27,148,,130,130,2,11,2,5,0.7,0.7
2024-06-02T1400,2672A,102.0199,35.5102,黄南藏族自治州,同仁县隆务镇,,43,35,30,14,16,135,,91,91,2,4,11,10,0.7,0.7
2024-06-02T1400,2295A,118.2903,29.6963,黄山市,延安路89号,,36,26,27,7,7,113,,94,94,4,5,4,4,0.4,0.4
2024-06-02T1400,2296A,118.327,29.7178,黄山市,黄山东路89号,,35,19,24,17,10,111,,107,107,4,6,5,5,0.3,0.3
2024-06-02T1400,2297A,118.1371,30.2756,黄山市,黄山区政府5号楼,,33,18,24,11,14,104,,80,80,5,7,4,4,0.3,0.4
2024-06-02T1400,2423A,115.0601,30.2313,黄石市,沈家营,,49,25,32,9,15,156,,118,118,4,17,4,5,0.5,0.7
2024-06-02T1400,2424A,115.0817,30.2006,黄石市,陈家湾,,50,30,35,15,19,159,,124,124,10,15,4,7,0.4,0.6
2024-06-02T1400,2426A,114.8988,30.2019,黄石市,铁山,,50,35,30,12,19,160,,122,122,3,18,12,17,1.0,0.8
2024-06-02T1400,2427A,115.0307,30.2092,黄石市,团城山,,48,24,36,12,12,152,,122,122,3,10,9,12,0.5,0.6
2024-06-02T1400,3149A,115.0235,30.1578,黄石市,笔架山北路,臭氧1小时,69,36,33,11,12,175,,137,137,5,9,8,10,0.7,0.7
2024-06-02T1400,1392A,114.4183,23.0528,惠州市,河南岸金山湖子站,,49,28,12,28,11,156,,72,72,10,8,5,4,0.7,0.5
2024-06-02T1400,1393A,114.4053,23.0822,惠州市,下埔横江三路子站,臭氧1小时,63,34,15,20,9,170,,79,79,10,9,6,6,0.8,0.6
2024-06-02T1400,1394A,114.4103,23.1142,惠州市,江北云山西路子站,,50,22,12,8,5,159,,81,81,5,5,7,6,0.7,0.5
2024-06-02T1400,1395A,114.4645,22.7833,惠州市,惠阳区承修路船湖子站,,43,27,14,19,10,135,,71,71,13,13,3,3,0.6,0.6
2024-06-02T1400,1396A,114.5317,22.7422,惠州市,大亚湾管委会子站,,36,23,14,13,7,115,,57,57,14,16,4,4,0.8,0.7
2024-06-02T1400,3314A,114.4338,22.8134,惠州市,惠阳秋长,臭氧1小时,55,39,18,20,8,164,,88,88,11,11,4,4,0.5,0.5
2024-06-02T1400,3452A,114.6517,22.775,惠州市,大亚湾霞涌,,32,24,12,6,5,101,,60,60,7,10,4,4,0.7,0.6
2024-06-02T1400,2240A,130.9762,45.3001,鸡西市,环保局,,26,26,15,9,7,69,,50,50,8,8,7,6,0.2,0.2
2024-06-02T1400,2243A,130.9429,45.3039,鸡西市,第一中学,,29,11,16,8,8,91,,58,58,2,8,8,10,0.2,0.3
2024-06-02T1400,3707A,131.0207,45.3073,鸡西市,欧美日汽修厂,,26,21,19,13,10,83,,54,54,8,8,8,6,0.5,0.6
2024-06-02T1400,3709A,130.9967,45.3106,鸡西市,市政设施管理处,,28,28,16,3,7,85,,55,55,12,12,9,9,0.5,0.5
2024-06-02T1400,2367A,114.9754,27.0803,吉安市,红声器材厂,,40,24,19,6,8,128,,108,108,10,11,11,12,0.3,0.4
2024-06-02T1400,2368A,114.9658,27.0999,吉安市,市森林工业局,,39,21,15,10,8,122,,106,106,8,10,12,11,0.4,0.4
2024-06-02T1400,2369A,114.99,27.1312,吉安市,市环境监测站,,40,25,17,10,8,125,,108,108,8,9,13,14,0.5,0.6
2024-06-02T1400,2370A,115.0093,27.0968,吉安市,青原区法院,,36,19,15,17,9,114,,100,100,13,14,13,16,0.3,0.4
2024-06-02T1400,1772A,126.54,43.8622,吉林市,哈达湾,,25,8,32,7,23,80,,53,53,7,19,5,8,0.5,0.6
2024-06-02T1400,1773A,126.5844,43.8358,吉林市,东局子,,24,19,32,9,22,76,,47,47,9,21,5,5,0.5,0.7
2024-06-02T1400,1774A,126.5052,43.8245,吉林市,电力学院,,27,22,30,14,20,84,,54,54,12,17,8,10,0.5,0.6
2024-06-02T1400,1775A,126.6133,43.8972,吉林市,江北,,22,8,38,3,26,70,,47,47,6,24,8,8,0.5,0.7
2024-06-02T1400,1776A,126.555,43.8306,吉林市,江南公园,,25,18,34,14,27,77,,49,49,14,25,5,6,0.5,0.6
2024-06-02T1400,1778A,126.7061,43.7133,吉林市,丰满,,,,,,,,,,,,,,,,
2024-06-02T1400,2868A,126.4739,43.953,吉林市,九站,,22,20,22,12,19,70,,46,46,7,20,16,8,0.6,0.5
2024-06-02T1400,1299A,116.9862,36.6114,济南市,科干所,臭氧1小时,89,80,54,20,12,191,,148,148,11,15,12,9,0.4,0.3
2024-06-02T1400,1300A,116.9376,36.665,济南市,农科所,臭氧1小时,74,78,53,20,11,179,,137,137,17,22,10,7,0.3,0.2
2024-06-02T1400,1301A,117.1265,36.6734,济南市,开发区,臭氧1小时,93,83,52,22,16,194,,156,156,14,15,12,9,0.3,0.3
2024-06-02T1400,1303A,117.0624,36.6868,济南市,省种子仓库,臭氧1小时,92,97,63,22,11,193,,148,148,10,17,9,6,0.4,0.3
2024-06-02T1400,1304A,116.9489,36.6447,济南市,机床二厂,颗粒物(PM10),86,122,82,20,12,186,,143,143,23,21,13,11,0.4,0.3
2024-06-02T1400,1305A,117.0495,36.663,济南市,市监测站,臭氧1小时,99,88,54,17,14,199,,158,158,13,14,15,11,0.4,0.3
2024-06-02T1400,1306A,116.7675,36.5484,济南市,长清党校,臭氧1小时,95,129,62,27,15,196,,144,144,12,16,9,9,0.4,0.3
2024-06-02T1400,1616A,117.6795,36.229,济南市,技术学院,臭氧1小时,80,73,49,29,16,184,,141,141,16,19,9,8,0.6,0.6
2024-06-02T1400,1961A,117.532,36.6868,济南市,东山小学,臭氧1小时,89,71,49,20,8,191,,152,152,10,19,9,7,0.3,0.2
2024-06-02T1400,3059A,117.7161,36.2049,济南市,泰兴公司,臭氧1小时,67,48,46,12,15,173,,119,119,10,24,9,9,0.3,0.5
2024-06-02T1400,3064A,117.6867,36.2171,济南市,莱芜战役纪念馆,"颗粒物(PM10),臭氧1小时",54,58,47,12,12,163,,126,126,11,16,10,10,0.5,0.7
2024-06-02T1400,3494A,117.1673,36.9782,济南市,济阳区政府,臭氧1小时,102,115,80,32,22,203,,130,130,13,34,13,10,0.4,0.3
2024-06-02T1400,3495A,117.1171,36.63,济南市,锦屏中学,臭氧1小时,94,81,50,15,11,195,,155,155,14,13,11,8,0.3,0.2
2024-06-02T1400,3682A,116.9814,36.6819,济南市,济南四建,臭氧1小时,90,83,55,22,16,192,,145,145,13,17,12,10,0.5,0.4
2024-06-02T1400,1653A,116.6251,35.4302,济宁市,火炬城,臭氧1小时,64,58,52,12,15,171,,124,124,3,10,8,9,0.3,0.4
2024-06-02T1400,1655A,116.5491,35.4042,济宁市,电化厂,颗粒物(PM10),80,109,90,22,22,169,,126,126,2,24,6,8,0.4,0.6
2024-06-02T1400,3500A,116.5814,35.3707,济宁市,北湖一中,颗粒物(PM10),60,69,49,14,18,160,,118,118,8,16,8,10,0.2,0.3
2024-06-02T1400,3501A,116.8249,35.5593,济宁市,服务中心,臭氧1小时,69,67,55,7,15,175,,127,127,16,25,4,5,0.3,0.4
2024-06-02T1400,3678A,116.5907,35.4054,济宁市,市第七中学,"颗粒物(PM10),臭氧1小时",67,84,56,12,12,173,,129,129,3,11,6,8,0.3,0.4
2024-06-02T1400,2255A,130.2751,46.8028,佳木斯市,佳纺,,32,13,14,3,9,100,,75,75,3,15,6,6,0.4,0.5
2024-06-02T1400,2256A,130.3995,46.8307,佳木斯市,发电厂,,30,9,16,3,18,96,,72,72,3,12,3,4,0.6,0.7
2024-06-02T1400,2257A,130.3258,46.7975,佳木斯市,环保局,,30,15,19,8,13,95,,73,73,3,18,4,5,0.5,0.6
2024-06-02T1400,2258A,130.3648,46.8032,佳木斯市,十一中,,29,11,20,3,16,91,,72,72,7,20,5,5,0.4,0.6
2024-06-02T1400,2259A,130.3794,46.7588,佳木斯市,四丰,,27,6,9,3,8,84,,67,67,4,8,1,1,0.5,0.5
2024-06-02T1400,1252A,120.7436,30.778,嘉兴市,清河小学,,44,10,26,6,14,138,,105,105,17,17,6,5,0.1,0.4
2024-06-02T1400,1253A,120.726,30.7478,嘉兴市,嘉兴学院,,43,14,26,3,17,136,,108,108,9,13,6,5,0.4,0.5
2024-06-02T1400,2872A,120.7846,30.7525,嘉兴市,南湖区残联,,45,10,25,3,18,144,,113,113,12,13,7,6,0.3,0.5
2024-06-02T1400,3407A,120.6916,30.7739,嘉兴市,秀洲住建,,46,12,26,8,17,146,,111,111,7,11,6,6,0.4,0.5
2024-06-02T1400,1945A,98.2908,39.7711,嘉峪关市,气象局,颗粒物(PM10),57,63,49,22,13,138,,96,96,3,31,1,4,0.2,0.3
2024-06-02T1400,2884A,98.2672,39.7978,嘉峪关市,酒钢宾馆,颗粒物(PM10),56,61,53,17,15,137,,104,104,2,17,8,14,0.3,0.4
2024-06-02T1400,3248A,98.2643,39.7724,嘉峪关市,雄关区,颗粒物(PM10),53,56,42,13,16,136,,96,96,4,21,8,8,0.4,0.4
2024-06-02T1400,1383A,113.1064,22.6058,江门市,北街,,43,40,21,20,13,135,,77,77,8,10,4,3,0.7,0.7
2024-06-02T1400,1384A,113.0731,22.5835,江门市,西区,,37,22,18,17,9,117,,74,74,6,11,6,6,0.5,0.6
2024-06-02T1400,1385A,113.0219,22.5311,江门市,圭峰西,,36,34,20,15,11,115,,72,72,6,6,6,5,0.3,0.3
2024-06-02T1400,1386A,113.0828,22.5947,江门市,东湖,,37,20,18,19,16,117,,72,72,8,11,8,7,0.5,0.5
2024-06-02T1400,3311A,113.1075,22.5647,江门市,江海富民,,42,42,22,23,14,134,,82,82,10,11,5,5,0.6,0.6
2024-06-02T1400,3449A,113.05,22.4667,江门市,新会银湖,,37,31,20,14,7,118,,77,77,3,8,4,4,0.7,0.7
2024-06-02T1400,1828A,113.227,35.2125,焦作市,市环保局,颗粒物(PM10),87,123,84,32,32,180,,134,134,11,18,6,7,0.4,0.4
2024-06-02T1400,1830A,113.1992,35.2590,焦作市,影视城,,,,,,,,,,,,,,,,
2024-06-02T1400,3169A,113.2725,35.2067,焦作市,太极体育中心,颗粒物(PM10),93,136,96,34,29,191,,144,144,9,18,7,7,0.6,0.7
2024-06-02T1400,3335A,113.3137,35.2641,焦作市,马村街道办,颗粒物(PM10),127,204,93,30,31,175,,136,136,14,18,8,9,0.5,0.5
2024-06-02T1400,3336A,113.2465,35.2373,焦作市,焦作技师学院,颗粒物(PM10),98,146,85,44,30,176,,132,132,11,20,6,8,0.4,0.4
2024-06-02T1400,3477A,113.1656,35.2539,焦作市,中站许衡医院,颗粒物(PM10),87,124,63,25,30,159,,135,135,14,20,12,9,0.4,0.4
2024-06-02T1400,3981A,113.2449,35.1803,焦作市,原李万街道办,颗粒物(PM10),82,114,91,36,31,179,,135,135,13,24,6,6,0.5,0.5
2024-06-02T1400,1708A,116.3701,23.5345,揭阳市,新兴,,19,6,13,3,7,60,,54,48,6,10,4,5,0.7,0.6
2024-06-02T1400,1709A,116.3264,23.5443,揭阳市,西马,,,,14,3,6,57,,54,46,9,11,4,4,0.7,0.6
2024-06-02T1400,1710A,116.3611,23.5626,揭阳市,东兴,,20,6,13,3,7,62,,58,54,5,8,4,4,0.7,0.6
2024-06-02T1400,1711A,116.4151,23.5294,揭阳市,渔湖,,,,16,9,5,63,,54,50,2,4,4,5,0.8,0.7
2024-06-02T1400,3320A,116.403,23.5699,揭阳市,曲溪,,21,10,11,3,5,65,,55,53,2,6,3,4,0.6,0.6
2024-06-02T1400,1944A,102.1692,38.5167,金昌市,天庆家园,颗粒物(PM10),55,59,72,26,35,159,,117,117,6,11,9,7,0.3,0.5
2024-06-02T1400,3170A,102.1864,38.5253,金昌市,市委党校,颗粒物(PM10),60,70,94,26,35,143,,105,105,3,6,10,10,0.5,0.5
2024-06-02T1400,4022A,102.1647,38.5371,金昌市,金川区人防中心,,49,49,92,23,36,154,,112,112,4,11,10,9,0.5,0.5
2024-06-02T1400,1262A,119.647,29.077,金华市,十五中,,35,15,17,12,11,109,,116,102,9,14,4,4,0.4,0.4
2024-06-02T1400,1263A,119.686,29.1029,金华市,监测站,,37,14,17,11,12,116,,95,95,7,13,2,2,0.4,0.4
2024-06-02T1400,3659A,119.656,29.1131,金华市,气象局,,38,12,15,7,8,120,,102,100,10,15,4,4,0.2,0.1
2024-06-02T1400,1767A,121.1115,41.0879,锦州市,南山,,44,32,40,19,25,138,,90,90,13,34,15,15,0.5,0.6
2024-06-02T1400,1768A,121.0533,40.8434,锦州市,开发区,,48,48,73,32,35,141,,88,88,9,58,21,24,0.6,0.8
2024-06-02T1400,1769A,121.1836,41.1119,锦州市,百股街道,,46,32,35,12,16,145,,91,91,12,24,10,11,0.5,0.7
2024-06-02T1400,1770A,121.1178,41.1222,锦州市,天安街道,,40,30,38,12,17,126,,81,81,14,31,13,14,0.6,0.7
2024-06-02T1400,1771A,121.1303,41.1386,锦州市,北湖公园,,42,37,35,13,20,134,,82,82,9,24,12,15,0.5,0.6
2024-06-02T1400,2160A,112.85,35.5051,晋城市,自来水公司,臭氧1小时,54,36,63,7,18,163,,140,140,9,20,6,8,0.5,0.7
2024-06-02T1400,2161A,112.8318,35.4936,晋城市,白云商贸,臭氧1小时,53,44,70,7,14,162,,137,137,11,21,6,8,0.4,0.6
2024-06-02T1400,2162A,112.8508,35.4887,晋城市,市环保局,臭氧1小时,53,33,64,9,18,162,,141,141,9,23,6,9,0.4,0.6
2024-06-02T1400,2163A,112.8676,35.4897,晋城市,技术学院,,50,28,63,9,20,160,,140,140,11,24,7,10,0.5,0.7
2024-06-02T1400,2165A,112.8453,35.546,晋城市,白马寺,,,,,,,,,,,,,,,,
2024-06-02T1400,3620A,112.8271,35.4828,晋城市,泽州一中,臭氧1小时,54,23,60,3,14,163,,142,142,9,19,4,7,0.4,0.6
2024-06-02T1400,2171A,112.7532,37.6945,晋中市,锦纶小区,,50,46,71,17,22,158,,124,124,16,24,16,14,0.5,0.5
2024-06-02T1400,2173A,112.7249,37.7067,晋中市,南都小区,,50,43,64,18,23,159,,127,127,14,21,14,13,0.5,0.4
2024-06-02T1400,2174A,112.6991,37.6982,晋中市,榆次区政府,臭氧1小时,52,44,67,24,23,161,,130,130,16,20,15,14,0.3,0.3
2024-06-02T1400,2865A,112.7195,37.6828,晋中市,榆次三中,臭氧1小时,55,41,70,9,19,164,,130,130,13,19,14,14,0.5,0.7
2024-06-02T1400,2439A,112.2014,31.0481,荆门市,竹园小学,细颗粒物(PM2.5),92,120,76,68,43,131,,122,122,20,18,12,11,0.7,0.7
2024-06-02T1400,2440A,112.1969,30.9891,荆门市,掇刀,颗粒物(PM10),84,117,68,61,40,143,,132,132,19,18,14,13,0.7,0.6
2024-06-02T1400,2441A,112.2213,31.0386,荆门市,石化一小,细颗粒物(PM2.5),92,119,86,68,43,136,,124,124,15,15,10,12,0.6,0.6
2024-06-02T1400,3012A,112.1849,31.0362,荆门市,西山林语,颗粒物(PM10),80,110,66,58,35,144,,140,140,15,13,13,12,0.8,0.8
2024-06-02T1400,3547A,112.1632,31.0138,荆门市,龙泉中学南校,颗粒物(PM10),70,89,56,45,34,147,,141,141,10,14,10,11,0.6,0.5
2024-06-02T1400,1844A,112.2494,30.3197,荆州市,市图书馆,,49,37,33,28,19,155,,119,119,13,26,8,9,0.6,0.6
2024-06-02T1400,1845A,112.2008,30.3544,荆州市,市委党校,细颗粒物(PM2.5),67,49,32,48,25,159,,117,117,11,26,8,9,0.6,0.6
2024-06-02T1400,3194A,112.2747,30.3122,荆州市,管委会,,48,40,34,26,22,152,,119,119,11,24,5,6,0.7,0.7
2024-06-02T1400,3548A,112.1655,30.3364,荆州市,学苑路,臭氧1小时,64,48,44,37,28,171,,120,120,16,28,7,7,0.6,0.6
2024-06-02T1400,2342A,117.3102,29.3867,景德镇市,王港中学,,,,,,,,,,,,,,,,
2024-06-02T1400,2343A,117.2117,29.2933,景德镇市,老干部活动中心,,36,,14,11,10,115,,121,121,6,8,4,5,0.5,0.4
2024-06-02T1400,2344A,117.1894,29.2789,景德镇市,兽医站,,37,10,16,7,7,116,,121,121,2,5,5,5,0.4,0.3
2024-06-02T1400,2345A,117.1547,29.2617,景德镇市,台达陶瓷,,34,9,12,3,10,106,,110,110,5,7,6,7,0.3,0.3
2024-06-02T1400,2346A,117.2461,29.2956,景德镇市,陶研所,,35,,13,8,5,112,,119,119,2,3,4,4,0.3,0.2
2024-06-02T1400,1803A,115.9872,29.6815,九江市,十里,,49,40,34,29,20,156,,142,142,12,19,10,11,0.8,0.7
2024-06-02T1400,1804A,115.9584,29.7046,九江市,茅山头,细颗粒物(PM2.5),52,48,34,36,23,160,,137,137,15,20,12,10,0.7,0.7
2024-06-02T1400,1805A,115.9877,29.7295,九江市,西园,细颗粒物(PM2.5),57,48,33,40,22,161,,143,143,26,25,11,12,0.7,0.7
2024-06-02T1400,1806A,116.0172,29.6547,九江市,五七二七厂,,41,36,28,23,14,131,,124,124,24,17,10,10,0.9,0.9
2024-06-02T1400,1808A,115.9114,29.6038,九江市,综合工业园,,50,49,33,33,29,157,,136,136,11,26,11,12,0.9,0.9
2024-06-02T1400,1809A,116.0721,29.7535,九江市,石化总厂,臭氧1小时,62,54,36,40,19,169,,140,140,11,21,9,9,0.8,0.7
2024-06-02T1400,1810A,115.9773,29.5698,九江市,庐山气象台,,40,30,21,28,27,117,,146,138,5,3,6,10,0.7,0.7
2024-06-02T1400,3190A,116.0254,29.6994,九江市,外国语学校,,50,48,33,34,18,160,,138,138,17,24,13,13,0.9,0.8
2024-06-02T1400,2658A,98.5061,39.7443,酒泉市,仓门街子站,,,68,50,17,20,121,,94,94,,19,3,3,0.3,0.3
2024-06-02T1400,2659A,98.4989,39.7256,酒泉市,油田生活基地,颗粒物(PM10),60,70,51,18,19,132,,99,99,2,13,3,5,0.2,0.3
2024-06-02T1400,2698A,76.0072,39.4467,喀什地区,巡警大队,颗粒物(PM10),126,202,96,17,12,119,,103,95,7,15,5,5,0.0,0.1
2024-06-02T1400,2699A,75.9755,39.4694,喀什地区,吾办,颗粒物(PM10),126,201,94,47,25,117,,100,90,8,13,4,3,0.3,0.4
2024-06-02T1400,4027A,75.9483,39.4689,喀什地区,老干局,颗粒物(PM10),122,193,110,19,15,120,,94,90,5,13,3,3,0.3,0.3
2024-06-02T1400,1824A,114.3389,34.7781,开封市,肿瘤医院,颗粒物(PM10),119,187,149,32,32,190,,131,131,12,29,3,5,0.4,0.5
2024-06-02T1400,1826A,114.2885,34.7965,开封市,世纪星幼儿园,颗粒物(PM10),101,152,127,35,41,184,,134,134,11,23,2,2,0.4,0.4
2024-06-02T1400,3147A,114.3438,34.8106,开封市,龙亭公园,颗粒物(PM10),119,188,147,34,35,189,,132,132,17,32,7,7,0.3,0.4
2024-06-02T1400,3210A,114.3644,34.7964,开封市,汴京公园,颗粒物(PM10),94,138,127,28,35,187,,131,131,13,30,4,5,0.3,0.3
2024-06-02T1400,3473A,114.2485,34.8306,开封市,技师学院,颗粒物(PM10),101,152,113,26,27,187,,139,139,12,19,4,4,0.4,0.4
2024-06-02T1400,3592A,114.4644,34.7556,开封市,祥符区生态环境局,颗粒物(PM10),160,270,205,49,48,173,,119,119,15,56,4,4,0.3,0.3
2024-06-02T1400,1951A,84.895,45.6094,克拉玛依市,长征新村,,33,12,21,3,6,103,,80,80,4,6,9,8,0.2,0.2
2024-06-02T1400,1952A,84.8988,45.5893,克拉玛依市,南林小区,,34,16,18,9,13,107,,78,78,4,7,10,10,0.1,0.1
2024-06-02T1400,1954A,84.905,44.3396,克拉玛依市,独山子区,,37,37,35,8,9,113,,88,88,7,11,9,9,0.4,0.3
2024-06-02T1400,1955A,85.6979,46.098,克拉玛依市,乌尔禾区商贸楼,,33,,16,8,6,104,,78,78,2,3,10,9,0.2,0.2
2024-06-02T1400,3612A,85.1045,45.6899,克拉玛依市,白碱滩区新站,,34,11,21,6,7,106,,82,82,2,5,9,8,0.3,0.3
2024-06-02T1400,2697A,76.1454,39.7142,克孜勒苏柯尔克孜自治州,市人民政府,颗粒物(PM10),72,94,58,20,19,128,,104,104,1,8,7,9,0.3,0.3
2024-06-02T1400,3665A,76.1658,39.7157,克孜勒苏柯尔克孜自治州,克州文化中心,颗粒物(PM10),75,100,55,20,18,129,,109,109,2,2,8,10,0.4,0.4
2024-06-02T1400,1450A,102.8204,24.8886,昆明市,呈贡新区,,32,17,24,11,17,102,,75,75,3,11,6,5,0.4,0.5
2024-06-02T1400,1451A,102.6251,24.9608,昆明市,西山森林公园,,,,,,,,,,,,,,,,
2024-06-02T1400,1452A,102.7252,25.0902,昆明市,龙泉镇,,35,,26,16,18,110,,72,72,8,12,7,6,0.6,0.7
2024-06-02T1400,1453A,102.7266,25.0375,昆明市,东风东路,,32,23,25,16,18,101,,66,66,8,12,4,4,0.5,0.7
2024-06-02T1400,1454A,102.6742,25.0669,昆明市,金鼎山,,35,31,32,13,18,111,,73,73,8,12,4,5,0.5,0.6
2024-06-02T1400,1455A,102.6644,25.0401,昆明市,碧鸡广场,,33,14,27,7,17,105,,70,70,8,12,3,3,0.5,0.7
2024-06-02T1400,3179A,102.7494,25.0119,昆明市,官渡区博物馆,,36,19,26,14,13,113,,79,79,5,8,9,9,0.5,0.7
2024-06-02T1400,3375A,102.8017,24.8336,昆明市,青年创业园,,35,14,24,13,20,111,,78,78,4,10,7,8,0.4,0.5
2024-06-02T1400,3550A,102.7997,24.9786,昆明市,昆明学院,,35,20,26,13,16,111,,80,80,6,12,9,9,0.5,0.6
2024-06-02T1400,3551A,102.5967,24.6736,昆明市,晋宁区生态环境分局,,31,15,30,12,21,98,,70,70,4,10,1,2,0.4,0.6
2024-06-02T1400,3552A,102.6678,24.9856,昆明市,云天化总部,,33,12,26,10,18,104,,72,72,4,7,7,7,0.6,0.7
2024-06-02T1400,1456A,91.1319,29.6514,拉萨市,八廓街,,50,17,17,8,8,160,,141,141,7,9,8,8,0.2,0.2
2024-06-02T1400,1457A,91.1221,29.6747,拉萨市,市环保局,,49,12,17,9,9,156,,139,139,10,10,6,7,0.3,0.3
2024-06-02T1400,1458A,91.0874,29.6475,拉萨市,区监测站,,49,16,15,6,8,154,,138,138,6,7,6,6,0.2,0.2
2024-06-02T1400,1459A,91.1774,29.6541,拉萨市,西藏大学,,50,12,16,3,7,160,,139,139,4,6,4,5,0.3,0.3
2024-06-02T1400,1460A,90.9798,29.6588,拉萨市,区辐射站,,47,15,20,7,8,148,,140,135,10,10,7,6,0.3,0.3
2024-06-02T1400,1461A,91.0834,29.6292,拉萨市,拉萨火车站,,48,14,18,6,8,153,,138,138,5,6,7,7,0.4,0.4
2024-06-02T1400,2520A,109.2203,23.7256,来宾市,来宾技工学校,,39,31,27,18,16,122,,80,80,5,9,8,8,1.0,0.9
2024-06-02T1400,3535A,109.1781,23.7297,来宾市,兴宾区政府,,40,23,26,13,15,128,,79,79,5,9,8,6,1.0,0.9
2024-06-02T1400,4002A,109.2416,23.7461,来宾市,中南小学,,40,28,27,17,17,125,,81,81,4,11,6,5,1.0,1
2024-06-02T1400,1476A,103.631,36.1031,兰州市,兰炼宾馆,臭氧1小时,62,46,39,34,27,169,,97,97,9,17,11,8,0.4,0.3
2024-06-02T1400,1477A,104.1373,35.9454,兰州市,榆中兰大校区,,,,,,,,,,,,,,,,
2024-06-02T1400,1478A,103.8412,36.0726,兰州市,生物制品所,,48,38,41,33,32,145,,77,77,12,23,14,11,0.4,0.4
2024-06-02T1400,1479A,103.831,36.0464,兰州市,铁路设计院,,47,43,40,24,21,148,,78,78,23,28,9,7,0.3,0.3
2024-06-02T1400,3186A,103.7158,36.1058,兰州市,教育港,,48,,28,24,23,151,,87,87,11,16,10,8,0.4,0.4
2024-06-02T1400,3241A,103.7439,36.0842,兰州市,百合公园,,46,44,31,24,21,146,,82,82,15,20,6,5,0.4,0.3
2024-06-02T1400,3242A,103.9611,35.998,兰州市,和平,,49,39,37,18,18,155,,86,86,6,18,12,11,0.5,0.5
2024-06-02T1400,3245A,103.6633,36.533,兰州新区,新区管委会,,47,31,32,19,18,150,,108,108,4,11,8,10,0.3,0.4
2024-06-02T1400,3246A,103.6975,36.4789,兰州新区,舟曲中学,,49,25,38,9,16,155,,107,107,6,8,7,9,0.3,0.4
2024-06-02T1400,1067A,116.6708,39.5111,廊坊市,药材公司,臭氧1小时,69,47,55,22,27,175,,127,127,11,27,4,6,0.6,0.7
2024-06-02T1400,1068A,116.7214,39.5589,廊坊市,开发区,臭氧1小时,59,43,61,17,24,167,,115,115,7,26,5,5,0.5,0.6
2024-06-02T1400,1070A,116.7244,39.5269,廊坊市,北华航天学院,,,,,,,,,,,,,,,,
2024-06-02T1400,2919A,116.7022,39.5453,廊坊市,河北工业大学,臭氧1小时,68,49,66,21,27,174,,122,122,5,25,3,4,0.5,0.6
2024-06-02T1400,2535A,103.7723,29.5462,乐山市,花湖湾,,19,19,39,12,27,55,,60,45,18,20,3,4,0.4,0.5
2024-06-02T1400,2536A,103.7627,29.5844,乐山市,牛耳桥,,23,23,49,15,29,70,,69,56,19,31,3,4,0.5,0.6
2024-06-02T1400,2537A,103.7508,29.6006,乐山市,市第三水厂,,25,24,48,17,28,74,,65,54,16,29,3,4,0.5,0.5
2024-06-02T1400,2538A,103.7571,29.5664,乐山市,市监测站,,22,22,47,14,24,66,,68,55,17,26,7,8,0.4,0.5
2024-06-02T1400,3361A,103.7311,29.5628,乐山市,理工大学,,24,24,45,13,24,64,,61,53,18,26,6,7,0.4,0.5
2024-06-02T1400,2598A,100.2143,26.8576,丽江市,西南郊,,,,,,,,,,,,,,,,
2024-06-02T1400,2599A,100.2497,26.8802,丽江市,丽江古城,,30,21,29,8,18,96,,79,79,7,11,6,6,0.4,0.5
2024-06-02T1400,2600A,100.2203,26.8906,丽江市,市中心,,31,17,22,12,15,99,,82,82,7,10,7,8,0.5,0.6
2024-06-02T1400,1267A,119.914,28.4514,丽水市,监测站大楼,,33,,6,6,5,103,,98,90,4,7,2,2,0.4,0.4
2024-06-02T1400,1268A,119.93,28.4586,丽水市,莲都小学,,34,6,6,3,4,107,,98,96,4,7,3,3,0.4,0.3
2024-06-02T1400,1269A,119.879,28.4231,丽水市,余庄前,,33,6,8,3,5,103,,85,85,4,8,4,3,0.4,0.4
2024-06-02T1400,1173A,119.176,34.5885,连云港市,市环境监测站,臭氧1小时,60,36,32,12,13,168,,118,118,10,16,7,7,0.5,0.5
2024-06-02T1400,3000A,119.3581,34.6972,连云港市,德源药业,臭氧1小时,74,31,26,14,10,179,,122,122,10,19,6,6,0.4,0.4
2024-06-02T1400,3007A,119.178,34.844,连云港市,新城一中,臭氧1小时,84,54,33,12,13,187,,122,122,14,23,6,6,0.3,0.4
2024-06-02T1400,3008A,119.3608,34.7519,连云港市,胡沟管理处,臭氧1小时,79,27,19,9,5,183,,125,125,10,14,8,8,0.4,0.4
2024-06-02T1400,3009A,119.1478,34.5911,连云港市,矿山设计院,臭氧1小时,59,36,30,9,12,167,,116,116,11,15,4,5,0.2,0.3
2024-06-02T1400,3434A,119.2413,34.6539,连云港市,工贸学校,臭氧1小时,74,28,27,13,13,179,,130,130,7,8,8,8,0.4,0.4
2024-06-02T1400,3664A,119.4172,34.7341,连云港市,连云街道,臭氧1小时,80,45,31,16,10,184,,101,101,13,27,5,6,0.4,0.3
2024-06-02T1400,2571A,102.3431,27.8099,凉山彝族自治州,青龙寺,,36,28,26,20,14,115,,71,71,7,12,11,12,0.6,0.7
2024-06-02T1400,2572A,102.2721,27.8415,凉山彝族自治州,邛海宾馆,颗粒物(PM10),53,56,36,32,19,102,,52,52,9,18,11,14,0.6,0.7
2024-06-02T1400,2573A,102.2625,27.898,凉山彝族自治州,西昌市政府,颗粒物(PM10),52,54,40,32,24,94,,44,44,10,22,12,14,0.8,0.8
2024-06-02T1400,2574A,102.2685,27.8851,凉山彝族自治州,凉山州政府,颗粒物(PM10),55,59,37,29,19,99,,48,48,9,20,12,12,0.8,0.7
2024-06-02T1400,2575A,102.237,27.8914,凉山彝族自治州,长安,颗粒物(PM10),54,57,35,26,15,98,,45,45,13,25,13,12,0.8,0.6
2024-06-02T1400,2212A,123.2,41.1953,辽阳市,宏伟区,,34,27,22,7,14,106,,90,90,10,16,12,12,0.6,0.8
2024-06-02T1400,2213A,123.1683,41.2495,辽阳市,新华园,,33,25,32,12,15,103,,85,85,10,22,17,16,0.5,0.8
2024-06-02T1400,2214A,123.2354,41.2639,辽阳市,滨河路,,33,21,34,6,13,103,,85,85,11,16,14,11,0.3,0.7
2024-06-02T1400,2215A,123.149,41.2991,辽阳市,铁西工业园,,35,28,38,10,15,112,,99,99,10,22,12,13,0.6,0.9
2024-06-02T1400,2227A,125.1358,42.8845,辽源市,环保局,,29,9,14,3,8,92,,64,64,7,15,8,9,0.4,0.5
2024-06-02T1400,3239A,125.0764,42.9078,辽源市,银鹰制药,,29,17,17,11,10,92,,65,65,10,19,18,17,0.5,0.6
2024-06-02T1400,1625A,115.9848,36.4372,聊城市,区政府,臭氧1小时,99,107,82,20,16,199,,140,140,15,21,11,11,0.5,0.4
2024-06-02T1400,2878A,116.0072,36.4343,聊城市,聊大东校,臭氧1小时,103,100,71,28,18,206,,146,146,14,19,10,9,0.6,0.4
2024-06-02T1400,3200A,115.9819,36.4978,聊城市,监控中心,臭氧1小时,104,124,82,29,17,208,,147,147,17,21,14,12,0.6,0.4
2024-06-02T1400,3513A,116.0445,36.4361,聊城市,九州社区,臭氧1小时,102,119,87,16,14,204,,144,144,14,20,11,12,0.5,0.4
2024-06-02T1400,4018A,116.0567,36.4608,聊城市,星美广场,臭氧1小时,98,95,77,31,14,198,,143,143,11,17,9,11,0.6,0.4
2024-06-02T1400,2632A,94.3681,29.6376,林芝市,林芝监测站,,33,11,5,11,8,104,,87,87,2,2,7,7,0.3,0.3
2024-06-02T1400,2633A,94.3616,29.6616,林芝市,林芝人民医院,,35,9,8,6,5,111,,90,90,4,4,8,8,0.2,0.2
2024-06-02T1400,2603A,100.0781,23.8982,临沧市,市环保局,,40,40,42,28,28,93,,58,58,6,9,4,6,0.6,0.7
2024-06-02T1400,2604A,100.0894,23.8822,临沧市,市气象局,,42,37,38,29,31,97,,60,60,7,11,6,8,0.5,0.6
2024-06-02T1400,1733A,111.5531,36.0783,临汾市,临钢医院,,47,,76,18,25,148,,114,114,4,13,5,10,0.4,0.8
2024-06-02T1400,1734A,111.5028,36.0714,临汾市,技工学校,,44,30,79,15,30,139,,111,111,10,19,6,13,0.5,0.8
2024-06-02T1400,1736A,111.5018,36.0855,临汾市,市委,,47,36,75,8,22,148,,116,116,5,15,6,13,0.6,0.9
2024-06-02T1400,3018A,111.505,36.1014,临汾市,唐尧大酒店,,42,39,95,12,24,133,,103,103,4,13,5,11,0.4,0.7
2024-06-02T1400,3668A,111.5036,36.0414,临汾市,城南,,44,26,88,21,31,139,,106,104,5,16,8,12,0.5,0.8
2024-06-02T1400,2667A,103.2069,35.5993,临夏回族自治州,环保局,,46,9,36,7,25,145,,80,80,2,9,4,4,0.3,0.4
2024-06-02T1400,2668A,103.2417,35.6057,临夏回族自治州,建设大厦,,46,18,35,13,26,147,,82,82,4,14,4,3,0.3,0.4
2024-06-02T1400,1618A,118.3429,35.0532,临沂市,沂河小区,,47,46,39,19,20,149,,115,115,31,25,8,10,0.1,0.2
2024-06-02T1400,1619A,118.295,35.0583,临沂市,鲁南制药厂,臭氧1小时,69,41,39,15,12,175,,125,125,4,15,7,8,0.3,0.3
2024-06-02T1400,1620A,118.2794,34.9976,临沂市,新光毛纺厂,臭氧1小时,57,44,42,16,14,165,,117,117,6,19,4,8,0.4,0.4
2024-06-02T1400,1621A,118.3956,35.0888,临沂市,河东保险公司,臭氧1小时,62,41,33,10,10,169,,120,120,9,18,5,7,0.2,0.2
2024-06-02T1400,3370A,118.3564,35.0215,临沂市,十里堡居委,臭氧1小时,59,41,43,22,16,167,,113,113,9,22,7,11,0.3,0.4
2024-06-02T1400,3496A,118.3604,35.1084,临沂市,南坊新区,臭氧1小时,58,36,28,9,9,166,,119,119,14,21,8,8,0.3,0.4
2024-06-02T1400,3860A,118.3920,35.0300,临沂市,皇山花园小区,臭氧1小时,52,41,41,16,16,161,,108,108,11,24,7,10,0.3,0.3
2024-06-02T1400,1870A,109.4856,24.3895,柳州市,柳东小学,,45,,21,31,15,88,,72,72,5,9,7,8,0.8,0.7
2024-06-02T1400,1871A,109.4157,24.3277,柳州市,环保监测站,,41,25,26,23,16,130,,79,79,12,10,12,11,1.2,0.9
2024-06-02T1400,1872A,109.389,24.341,柳州市,河西水厂,,40,,24,20,16,126,,76,76,16,11,14,12,1.1,0.7
2024-06-02T1400,1873A,109.4311,24.2921,柳州市,市四中,,38,31,26,15,16,120,,82,82,6,10,6,10,0.7,0.7
2024-06-02T1400,1874A,109.4006,24.3631,柳州市,市九中,,37,30,27,10,14,116,,80,80,13,12,11,10,0.8,0.6
2024-06-02T1400,1875A,109.4958,24.3134,柳州市,古亭山,,32,23,23,17,14,100,,75,75,6,10,7,9,0.6,0.6
2024-06-02T1400,3402A,109.5422,24.3996,柳州市,市二中,,30,13,20,11,11,94,,70,70,7,10,6,6,0.6,0.5
2024-06-02T1400,2307A,116.5079,31.737,六安市,监测大楼,,41,27,41,16,24,129,,103,103,10,16,6,6,0.4,0.5
2024-06-02T1400,2308A,116.4738,31.7643,六安市,皖西学院,,43,43,52,13,22,132,,110,110,11,15,6,7,0.4,0.5
2024-06-02T1400,2309A,116.4996,31.7905,六安市,朝阳厂,,40,38,45,7,24,126,,102,102,10,15,9,8,0.3,0.4
2024-06-02T1400,2310A,116.5567,31.7886,六安市,开发区,,39,23,46,13,22,122,,98,98,12,17,9,10,0.5,0.6
2024-06-02T1400,2576A,104.8,26.5892,六盘水市,窑上,,,,,,,,,,,,,,,,
2024-06-02T1400,2577A,104.83,26.5917,六盘水市,黄土坡,,28,28,34,7,18,72,,84,66,10,10,6,5,0.4,0.4
2024-06-02T1400,2578A,104.89,26.5939,六盘水市,水钢,,31,31,37,18,24,77,,92,76,8,6,9,8,0.4,0.4
2024-06-02T1400,2579A,104.8475,26.5894,六盘水市,民中,,35,32,30,24,22,78,,91,72,10,9,7,6,0.6,0.6
2024-06-02T1400,2580A,104.9544,26.5506,六盘水市,双水,,31,31,33,14,19,78,,94,80,9,7,6,6,0.5,0.4
2024-06-02T1400,2335A,117.0189,25.1181,龙岩市,龙岩师专,,,,,,,,,,,,,,,,
2024-06-02T1400,2336A,117.0217,25.1033,龙岩市,龙岩市监测站,,27,12,8,3,6,85,,59,59,10,17,2,2,0.5,0.5
2024-06-02T1400,2337A,117.0258,25.0661,龙岩市,闽西职业技术学院,,26,10,10,3,3,83,,68,68,6,13,2,2,0.5,0.4
2024-06-02T1400,2338A,117.0196,25.0306,龙岩市,龙岩学院,,26,9,9,3,4,82,,58,58,7,9,4,4,0.5,0.4
2024-06-02T1400,2665A,105.0822,33.3261,陇南市,汉王镇固水子,,,,,,,,,,,,,,,,
2024-06-02T1400,2885A,104.9339,33.3826,陇南市,滨江中学,,31,31,40,12,12,99,,71,71,8,16,6,6,0.7,0.7
2024-06-02T1400,3247A,104.955,33.371,陇南市,市总工会,,33,19,33,9,9,103,,72,72,5,12,8,8,0.5,0.6
2024-06-02T1400,2487A,111.9589,27.8901,娄底市,电视发射台,,33,28,20,7,6,103,,74,74,4,4,7,6,0.5,0.5
2024-06-02T1400,2488A,111.9975,27.725,娄底市,市监测站,,38,31,23,10,11,120,,89,89,2,9,4,6,0.5,0.7
2024-06-02T1400,2489A,112.0194,27.7314,娄底市,市委党校,,35,8,16,8,10,109,,82,82,5,9,5,7,0.4,0.6
2024-06-02T1400,2490A,111.9561,27.7569,娄底市,涟钢,,29,21,19,9,10,92,,74,74,14,15,10,7,0.3,0.5
2024-06-02T1400,2491A,111.9892,27.7044,娄底市,市政府,,39,29,19,16,11,123,,90,90,10,9,13,7,0.6,0.5
2024-06-02T1400,1893A,105.4324,28.9634,泸州市,九狮山,,21,12,46,12,26,66,,70,64,4,10,5,6,0.3,0.3
2024-06-02T1400,1894A,105.4427,28.9063,泸州市,小市上码头,,23,20,55,13,31,71,,92,70,10,14,4,5,0.2,0.4
2024-06-02T1400,1895A,105.4241,28.8573,泸州市,兰田宪桥,,24,19,59,14,30,74,,73,72,8,16,5,6,0.4,0.5
2024-06-02T1400,1896A,105.4379,28.8833,泸州市,市环监站,,23,19,54,13,31,72,,76,68,12,15,7,8,0.4,0.6
2024-06-02T1400,3490A,105.3617,28.7703,泸州市,纳溪区环保局,,,,45,,24,68,,78,74,22,21,2,3,,0.5
2024-06-02T1400,2183A,111.1406,37.5211,吕梁市,环保局,,45,35,60,14,20,142,,102,102,8,22,6,7,0.4,0.5
2024-06-02T1400,2185A,111.1297,37.5136,吕梁市,自来水公司,,44,34,56,12,20,140,,90,90,8,22,3,4,0.3,0.4
2024-06-02T1400,2867A,111.1283,37.51,吕梁市,马茂庄小学,,46,41,65,15,22,145,,98,98,12,27,6,7,0.4,0.5
2024-06-02T1400,1812A,112.3931,34.6516,洛阳市,市委党校,,44,33,63,18,36,140,,123,123,6,16,2,5,0.3,0.5
2024-06-02T1400,1814A,112.4657,34.6871,洛阳市,豫西宾馆,,46,38,76,20,31,146,,128,128,9,19,4,8,0.4,0.6
2024-06-02T1400,1815A,112.494,34.6886,洛阳市,河南林校,,48,33,62,23,34,151,,126,126,10,19,4,7,0.3,0.4
2024-06-02T1400,1816A,112.3844,34.623,洛阳市,开发区管委会,,42,36,61,21,33,134,,107,107,5,14,2,4,0.1,0.3
2024-06-02T1400,1817A,112.4267,34.6258,洛阳市,市委新办公区,,45,29,60,27,37,144,,114,114,4,11,5,7,0.2,0.4
2024-06-02T1400,3340A,112.6005,34.6326,洛阳市,伊滨,,45,36,70,18,32,143,,121,121,8,16,5,7,0.3,0.5
2024-06-02T1400,3341A,112.4951,34.6332,洛阳市,中移产业园,,46,34,64,20,32,145,,116,116,6,12,4,7,0.4,0.6
2024-06-02T1400,3593A,112.5736,34.8993,洛阳市,吉利监测站,,44,35,78,22,31,139,,124,124,9,22,4,7,0.2,0.3
2024-06-02T1400,3635A,112.3677,34.662,洛阳市,河科大西苑校区,,42,34,71,20,32,134,,119,119,3,15,3,6,0.3,0.4
2024-06-02T1400,3636A,112.4388,34.6781,洛阳市,英才小学,,46,44,74,23,35,146,,126,126,9,18,5,8,0.5,0.6
2024-06-02T1400,2399A,114.051,33.5699,漯河市,三五一五工厂,颗粒物(PM10),68,85,153,18,41,152,,114,114,12,25,7,9,0.5,0.6
2024-06-02T1400,2400A,114.0055,33.5698,漯河市,漯河大学,,,81,137,,66,152,,122,122,14,21,9,11,0.4,0.6
2024-06-02T1400,2401A,114.0138,33.5828,漯河市,市水利局,颗粒物(PM10),60,70,141,19,44,152,,120,120,8,19,8,10,0.5,0.6
2024-06-02T1400,2402A,114.0261,33.5698,漯河市,市广电局,颗粒物(PM10),62,73,148,23,42,153,,118,118,10,22,5,8,0.4,0.6
2024-06-02T1400,3478A,113.9749,33.5664,漯河市,市图书馆,颗粒物(PM10),63,76,131,20,44,153,,120,120,6,19,5,9,0.5,0.6
2024-06-02T1400,3479A,114.0967,33.5906,漯河市,召陵区卫健委,颗粒物(PM10),93,135,137,38,52,153,,115,115,12,29,7,9,0.3,0.5
2024-06-02T1400,1798A,118.5092,31.6837,马鞍山市,湖东路四小,,44,26,40,3,15,140,,97,97,9,18,8,7,0.6,0.7
2024-06-02T1400,1799A,118.5024,31.6449,马鞍山市,开发区,,44,22,45,7,18,139,,93,93,11,20,9,9,0.5,0.6
2024-06-02T1400,1800A,118.5228,31.7231,马鞍山市,慈湖,,44,15,35,10,17,140,,92,92,12,21,6,6,0.5,0.6
2024-06-02T1400,1802A,118.6245,31.7241,马鞍山市,濮塘,,43,22,36,16,22,136,,93,93,8,15,5,5,0.5,0.6
2024-06-02T1400,3633A,118.4918,31.6809,马鞍山市,雨山,,45,27,41,7,17,142,,97,97,8,16,10,9,0.5,0.6
2024-06-02T1400,1686A,111.0286,21.4688,茂名市,电白南海,,39,36,34,27,24,111,,85,85,6,11,11,18,0.8,0.8
2024-06-02T1400,1687A,110.9294,21.6533,茂名市,茂石化七小,,38,31,34,22,25,119,,83,83,9,14,12,18,0.7,0.9
2024-06-02T1400,1688A,110.9107,21.6687,茂名市,健康路,,36,27,31,17,18,114,,87,87,7,11,11,20,0.8,0.8
2024-06-02T1400,1689A,110.8592,21.6828,茂名市,高岭,,32,29,35,22,25,95,,68,68,11,16,13,26,0.7,0.8
2024-06-02T1400,3450A,111.01,21.5165,茂名市,电白水东,,37,31,26,17,18,117,,88,88,7,12,6,12,0.9,1
2024-06-02T1400,2539A,104.0308,30.0478,眉山市,黑龙滩水库,,36,36,44,20,22,82,,81,70,9,13,3,4,0.4,0.4
2024-06-02T1400,2540A,103.8416,30.0874,眉山市,气象局,,31,26,41,17,26,98,,70,65,12,27,8,10,0.4,0.4
2024-06-02T1400,3137A,103.8578,30.0744,眉山市,市委党校,,31,24,45,12,19,98,,77,70,14,25,8,10,0.3,0.3
2024-06-02T1400,3148A,103.8291,30.0564,眉山市,区人社局,,36,36,50,17,23,95,,79,66,21,31,9,10,0.4,0.5
2024-06-02T1400,1690A,116.1231,24.3284,梅州市,梅江月梅,,20,,10,3,4,62,,48,48,2,7,4,4,0.7,0.5
2024-06-02T1400,1691A,116.0797,24.2719,梅州市,梅县新城,,18,10,9,3,6,57,,47,47,3,7,3,3,0.4,0.4
2024-06-02T1400,1692A,116.1248,24.2654,梅州市,环境监控中心,,18,8,9,3,7,56,,44,44,5,12,3,3,0.6,0.5
2024-06-02T1400,3315A,116.1233,24.2991,梅州市,梅龙,,18,6,7,3,4,57,,46,46,2,4,7,7,0.5,0.5
2024-06-02T1400,1878A,104.7778,31.4741,绵阳市,富乐山,,37,22,26,16,16,116,,80,80,3,6,8,8,0.4,0.4
2024-06-02T1400,1879A,104.7563,31.4535,绵阳市,市人大,,33,24,31,15,16,104,,72,72,7,15,4,8,0.3,0.4
2024-06-02T1400,1880A,104.6697,31.4668,绵阳市,高新区自来水公司,,45,,27,31,20,122,,84,84,5,11,8,8,0.4,0.4
2024-06-02T1400,1881A,104.7287,31.5075,绵阳市,三水厂,,38,,30,22,18,121,,82,82,4,12,5,5,0.4,0.3
2024-06-02T1400,3491A,104.69,31.5322,绵阳市,西科大附属小学,,36,26,31,19,15,114,,76,76,4,16,5,5,0.5,0.5
2024-06-02T1400,3492A,104.5648,31.5343,绵阳市,安州区旅游局,,35,18,24,12,14,110,,70,70,6,13,9,8,0.3,0.3
2024-06-02T1400,1784A,129.61,44.561,牡丹江市,环保大楼,,29,16,14,9,11,91,,51,51,11,10,6,6,0.3,0.3
2024-06-02T1400,1785A,129.6115,44.5782,牡丹江市,文化广场,,33,25,20,23,21,86,,49,49,12,14,6,6,0.3,0.4
2024-06-02T1400,1786A,129.5904,44.5963,牡丹江市,第一医院,,30,,21,13,16,94,,50,50,4,14,5,5,0.2,0.3
2024-06-02T1400,1787A,129.6364,44.6075,牡丹江市,机车工厂,,28,15,19,7,11,88,,51,51,4,12,4,8,0.3,0.4
2024-06-02T1400,1788A,129.6386,44.5462,牡丹江市,第一中学,,31,23,17,10,13,98,,56,56,9,9,4,4,0.4,0.3
2024-06-02T1400,2531A,105.0703,29.61,内江市,市监测站,,25,21,39,15,28,80,,79,66,9,14,4,4,0.2,0.3
2024-06-02T1400,2532A,105.0717,29.5947,内江市,东兴区政府,,24,23,42,6,19,76,,77,68,8,11,6,7,0.5,0.5
2024-06-02T1400,2533A,105.0653,29.5817,内江市,内江二中,,26,19,36,18,25,70,,73,64,10,12,6,7,0.4,0.4
2024-06-02T1400,2534A,105.0406,29.5822,内江市,内江日报社,,23,16,40,12,28,71,,81,69,12,15,8,9,0.5,0.5
2024-06-02T1400,2628A,92.0657,31.4846,那曲市,那曲监测站,,46,14,10,6,6,147,,156,156,5,5,6,6,0.4,0.4
2024-06-02T1400,3128A,92.0506,31.4797,那曲市,那曲会议中心,,50,8,10,3,6,158,,158,158,2,3,3,3,0.4,0.4
2024-06-02T1400,1290A,115.8931,28.6843,南昌市,省外办,,39,20,21,12,13,123,,108,108,11,14,5,5,0.5,0.5
2024-06-02T1400,1291A,115.8886,28.7003,南昌市,省林业公司,,41,9,11,7,8,131,,115,115,8,9,4,4,0.7,0.8
2024-06-02T1400,1292A,115.8126,28.7442,南昌市,林科所,,41,14,9,7,4,130,,111,111,10,16,6,6,0.8,0.7
2024-06-02T1400,1294A,115.8518,28.687,南昌市,建工学校,,41,11,17,7,9,131,,114,114,4,8,5,6,0.4,0.3
2024-06-02T1400,1295A,115.8921,28.6424,南昌市,象湖,,43,19,14,10,8,136,,122,122,6,8,4,4,0.5,0.4
2024-06-02T1400,1296A,115.7423,28.7996,南昌市,武术学校,,41,13,14,7,21,129,,96,96,3,2,4,4,0.5,0.4
2024-06-02T1400,1298A,115.9314,28.6842,南昌市,省站,,39,15,17,9,10,123,,112,112,10,13,5,5,0.5,0.4
2024-06-02T1400,3046A,115.9084,28.6062,南昌市,机电学校,,40,17,20,7,8,125,,113,113,7,10,6,8,0.6,0.6
2024-06-02T1400,3690A,115.9721,28.7031,南昌市,外国语学校,,39,13,14,12,11,122,,114,114,4,4,3,3,0.4,0.4
2024-06-02T1400,1905A,106.056,30.8064,南充市,西山风景区,,32,,27,22,21,84,,86,75,2,2,3,3,0.3,0.4
2024-06-02T1400,1906A,106.0789,30.8023,南充市,南充市委,,40,40,39,27,23,84,,82,73,10,13,4,5,0.3,0.4
2024-06-02T1400,1907A,106.1031,30.8217,南充市,南充炼油厂,,32,28,45,22,24,94,,92,76,10,14,6,6,0.4,0.5
2024-06-02T1400,1908A,106.1064,30.7856,南充市,高坪区监测站,,40,40,39,26,22,93,,94,82,8,11,6,6,0.1,0.1
2024-06-02T1400,1909A,106.0642,30.7636,南充市,嘉陵区环保局,,39,34,35,27,23,90,,88,77,10,13,4,4,0.2,0.3
2024-06-02T1400,1910A,106.1087,30.8388,南充市,市环境监测站,,35,33,37,24,23,88,,85,73,10,11,6,6,0.4,0.5
2024-06-02T1400,1151A,118.8086,32.1065,南京市,迈皋桥,,42,18,26,9,11,133,,88,88,2,14,4,5,0.2,0.3
2024-06-02T1400,1152A,118.7538,32.0551,南京市,草场门,,45,22,29,12,13,141,,95,95,10,18,3,3,0.2,0.3
2024-06-02T1400,1153A,118.7794,32.0745,南京市,山西路,,40,27,29,3,11,128,,87,87,3,12,5,4,0.2,0.3
2024-06-02T1400,1154A,118.7752,32.0023,南京市,中华门,,,24,33,7,12,137,,91,91,7,18,,4,0.3,0.4
2024-06-02T1400,1155A,118.8109,32.0309,南京市,瑞金路,,43,29,36,9,14,136,,89,89,10,20,5,6,0.1,0.2
2024-06-02T1400,1156A,118.7997,32.0754,南京市,玄武湖,,43,20,32,6,10,135,,87,87,2,18,8,8,0.5,0.5
2024-06-02T1400,1157A,118.6414,32.0931,南京市,浦口,,42,22,31,18,16,133,,79,79,13,21,6,6,0.3,0.4
2024-06-02T1400,1158A,118.7356,31.9996,南京市,奥体中心,,45,26,38,9,14,143,,97,97,7,15,9,10,0.3,0.5
2024-06-02T1400,1159A,118.9125,32.1028,南京市,仙林大学城,,43,22,30,7,13,137,,92,92,9,18,10,10,0.3,0.5
2024-06-02T1400,3422A,118.8436,31.9198,南京市,江宁彩虹桥,,44,17,35,9,15,138,,91,91,3,16,5,5,0.2,0.4
2024-06-02T1400,3423A,119.0138,31.6494,南京市,溧水永阳,,44,19,37,12,20,140,,99,99,7,15,4,6,0.3,0.5
2024-06-02T1400,3424A,118.879,31.3302,南京市,高淳老职中,,40,24,43,10,21,127,,99,99,8,13,4,7,0.4,0.5
2024-06-02T1400,3427A,118.8554,32.3578,南京市,六合雄州,,47,,32,11,9,150,,87,87,12,22,10,10,0.4,0.4
2024-06-02T1400,1401A,108.3103,22.7881,南宁市,二十一中,,38,36,30,21,19,120,,87,87,7,12,3,5,0.8,0.8
2024-06-02T1400,1402A,108.3141,22.8528,南宁市,北湖,,36,32,34,19,22,113,,84,84,7,16,4,5,0.9,1
2024-06-02T1400,1403A,108.3206,22.8225,南宁市,市监测站,,36,32,31,22,21,114,,82,82,8,16,3,5,0.9,0.9
2024-06-02T1400,1404A,108.3829,22.8037,南宁市,大自然花园,,33,25,29,23,20,104,,79,79,6,12,5,6,0.6,0.7
2024-06-02T1400,1405A,108.4394,22.7904,南宁市,仙葫,,31,26,32,20,20,98,,74,74,13,19,4,4,1.0,1
2024-06-02T1400,1406A,108.2397,22.8467,南宁市,区农职院,颗粒物(PM10),57,64,38,24,23,130,,92,92,14,20,6,8,0.9,0.8
2024-06-02T1400,1407A,108.3275,22.735,南宁市,英华嘉园,,42,42,32,23,21,105,,73,73,12,17,6,7,0.8,0.8
2024-06-02T1400,1408A,108.2257,22.7757,南宁市,沙井镇街道办,,35,35,39,21,22,99,,75,75,7,22,3,4,0.7,0.6
2024-06-02T1400,3401A,108.4834,22.7618,南宁市,红星社区,,40,,34,28,22,107,,77,77,8,16,5,6,0.7,0.7
2024-06-02T1400,2331A,118.0966,26.6761,南平市,茫荡山,,,,,,,,,,,,,,,,
2024-06-02T1400,2332A,118.1681,26.6369,南平市,南平市监测站,,31,6,7,3,4,97,,87,87,7,6,4,4,0.7,0.6
2024-06-02T1400,2333A,118.1825,26.6489,南平市,南平铝业有限公司,,27,10,9,3,2,86,,82,82,9,8,5,5,0.7,0.6
2024-06-02T1400,2334A,118.1756,26.6272,南平市,南平七中,,30,7,8,3,2,95,,83,83,5,5,4,4,0.6,0.5
2024-06-02T1400,1168A,120.9098,31.9663,南通市,狼山街道,,48,22,26,3,12,151,,98,98,6,15,10,10,0.4,0.5
2024-06-02T1400,1169A,120.86,32.0005,南通市,虹桥,,45,26,30,8,13,143,,87,87,16,20,8,7,0.4,0.5
2024-06-02T1400,1170A,120.87,32.02,南通市,城中,,46,26,35,8,17,147,,96,96,8,16,7,7,0.5,0.5
2024-06-02T1400,1171A,120.94,31.93,南通市,星湖花园,,47,21,24,3,10,150,,104,104,10,17,8,9,0.4,0.5
2024-06-02T1400,1172A,120.81,32.0417,南通市,紫琅学院,臭氧1小时,52,19,25,6,13,161,,90,90,21,27,8,7,0.5,0.5
2024-06-02T1400,3291A,121.067,32.062,南通市,通州监测站,,46,29,33,3,12,147,,107,107,5,6,10,9,0.5,0.5
2024-06-02T1400,3432A,120.9348,31.9883,南通市,环境教育馆,,46,27,33,7,15,145,,97,97,13,23,9,8,0.4,0.5
2024-06-02T1400,2404A,112.5224,33.0122,南阳市,瓦房庄,颗粒物(PM10),57,63,113,28,45,138,,140,133,42,21,8,8,0.5,0.6
2024-06-02T1400,2405A,112.5003,32.9735,南阳市,汉画馆,颗粒物(PM10),56,61,115,27,50,158,,129,129,14,22,6,7,0.6,0.7
2024-06-02T1400,2406A,112.5573,33.027,南阳市,气象站,颗粒物(PM10),57,64,118,24,41,164,,140,140,13,20,6,6,0.6,0.7
2024-06-02T1400,2407A,112.5481,32.9689,南阳市,理工学院,,50,50,102,21,39,156,,141,136,12,17,6,8,0.4,0.6
2024-06-02T1400,4008A,112.5234,32.9922,南阳市,卧龙区政府,颗粒物(PM10),56,62,112,31,44,160,,138,133,15,23,6,6,0.6,0.8
2024-06-02T1400,1234A,121.8358,29.911,宁波市,区环保大楼,,,14,34,8,17,123,,93,93,,31,6,8,0.5,0.6
2024-06-02T1400,1235A,121.56,29.82,宁波市,万里学院,,41,15,31,3,20,129,,97,97,10,18,6,7,0.4,0.6
2024-06-02T1400,1236A,121.713,29.9572,宁波市,龙赛医院,,40,24,27,10,15,128,,81,81,26,40,10,10,0.3,0.4
2024-06-02T1400,1239A,121.633,29.7733,宁波市,钱湖水厂,,37,8,37,8,20,117,,90,90,7,16,5,5,0.5,0.7
2024-06-02T1400,1240A,121.5856,29.8635,宁波市,太古小学,,40,19,28,8,18,128,,96,96,10,15,6,8,0.5,0.8
2024-06-02T1400,1241A,121.524,29.8674,宁波市,市环境监测中心,,41,13,26,6,15,130,,100,100,9,15,10,10,0.4,0.6
2024-06-02T1400,2871A,121.6147,29.9017,宁波市,万里国际学校,,43,20,42,9,20,136,,100,100,13,24,4,7,0.4,0.5
2024-06-02T1400,3710A,121.5594,29.8975,宁波市,白沙活动中心,,41,10,30,7,15,130,,99,99,14,20,9,11,0.4,0.5
2024-06-02T1400,2339A,119.5001,26.6946,宁德市,金涵水库,,,,,,,,,,,,,,,,
2024-06-02T1400,2341A,119.5388,26.6612,宁德市,宁德市监测站,,38,8,4,3,4,119,,110,110,9,11,5,4,0.6,0.6
2024-06-02T1400,3209A,119.5231,26.6562,宁德市,宁德一中,,34,7,6,3,5,106,,101,101,21,14,5,5,0.6,0.5
2024-06-02T1400,2618A,98.8601,25.8567,怒江傈僳族自治州,州监测站,,39,35,37,27,24,87,,46,46,7,10,11,11,0.5,0.5
2024-06-02T1400,2619A,98.8546,25.8417,怒江傈僳族自治州,泸水一中,,41,41,36,22,22,74,,30,30,9,15,6,5,0.3,0.4
2024-06-02T1400,1888A,101.6891,26.571,攀枝花市,弄弄坪,颗粒物(PM10),51,51,63,26,43,151,,65,65,14,29,20,35,0.9,1.2
2024-06-02T1400,1889A,101.5769,26.5928,攀枝花市,河门口,,49,44,53,34,35,152,,78,78,21,29,34,26,1.9,1.8
2024-06-02T1400,1890A,101.7169,26.585,攀枝花市,炳草岗,,50,50,50,33,33,157,,72,72,11,29,28,35,1.0,1.3
2024-06-02T1400,1891A,101.7369,26.5008,攀枝花市,仁和,细颗粒物(PM2.5),52,45,55,36,44,155,,80,80,11,14,31,14,0.6,0.6
2024-06-02T1400,2835A,101.7227,26.567,攀枝花市,四十中小,臭氧1小时,54,38,41,33,30,163,,84,84,12,22,23,52,1.1,1.3
2024-06-02T1400,1604A,122.0303,41.1489,盘锦市,开发区,臭氧1小时,60,51,45,36,38,168,,96,96,16,33,10,15,0.7,0.6
2024-06-02T1400,1605A,122.0485,41.0883,盘锦市,兴隆台,臭氧1小时,68,38,37,36,36,174,,106,106,17,38,12,13,0.7,0.6
2024-06-02T1400,1606A,121.8297,41.1028,盘锦市,新生街道,,50,43,35,20,27,158,,80,80,12,36,9,11,0.5,0.6
2024-06-02T1400,1832A,113.3257,33.742,平顶山市,新华旅馆,颗粒物(PM10),105,160,145,53,51,177,,109,109,25,32,12,12,0.7,0.5
2024-06-02T1400,1833A,113.2919,33.737,平顶山市,规划设计院,颗粒物(PM10),92,134,123,56,48,172,,113,113,20,28,8,9,0.5,0.4
2024-06-02T1400,1834A,113.182,33.774,平顶山市,平顶山工学院,细颗粒物(PM2.5),79,106,128,58,51,173,,128,128,16,22,10,10,0.8,0.7
2024-06-02T1400,3204A,113.3025,33.73,平顶山市,规划局,颗粒物(PM10),115,180,164,64,52,176,,112,112,18,22,9,11,0.8,0.7
2024-06-02T1400,3594A,112.8867,33.9116,平顶山市,石龙区,颗粒物(PM10),81,112,172,53,58,163,,108,108,9,30,10,11,0.7,0.7
2024-06-02T1400,2656A,106.6692,35.5461,平凉市,聚贤嘉苑,,39,39,45,14,20,113,,114,106,12,15,7,7,0.4,0.3
2024-06-02T1400,2657A,106.7021,35.5307,平凉市,博物馆,,37,32,38,20,18,118,,118,110,14,14,9,9,0.4,0.3
2024-06-02T1400,2347A,114.0997,27.5002,萍乡市,武功山,,34,6,3,3,3,107,,85,85,4,3,15,13,0.3,0.3
2024-06-02T1400,2348A,113.8385,27.6434,萍乡市,中医院,,39,26,18,16,13,123,,97,97,3,3,5,8,0.4,0.4
2024-06-02T1400,2349A,113.8493,27.6253,萍乡市,市政府车库,,39,,13,24,11,124,,96,96,4,4,12,14,0.7,0.6
2024-06-02T1400,2350A,113.8676,27.6435,萍乡市,市环保局,,37,18,17,9,10,118,,95,95,3,5,7,10,0.3,0.4
2024-06-02T1400,2351A,113.866,27.6198,萍乡市,安源区政府,,40,32,20,13,7,125,,96,96,4,8,14,18,0.5,1.5
2024-06-02T1400,2319A,119.0141,25.4325,莆田市,荔城区仓后路,,37,6,8,3,0,118,,94,94,7,11,5,5,0.7,0.6
2024-06-02T1400,2320A,119.0015,25.4553,莆田市,莆田市监测站,,38,6,7,3,0,120,,95,95,5,8,7,7,0.8,0.7
2024-06-02T1400,2321A,119.1119,25.4561,莆田市,涵江区六中,,41,6,9,3,0,130,,108,108,12,13,8,8,0.6,0.5
2024-06-02T1400,2322A,119.1013,25.3215,莆田市,秀屿区政府,,35,12,6,3,0,110,,98,98,8,6,7,7,0.8,0.7
2024-06-02T1400,2323A,118.981,25.4792,莆田市,东圳水库,,,,,,,,,,,,,,,,
2024-06-02T1400,2392A,115.0312,35.7636,濮阳市,环保局,颗粒物(PM10),88,126,68,25,17,172,,119,119,13,18,10,10,0.2,0.1
2024-06-02T1400,2394A,115.0574,35.7609,濮阳市,油田运输公司,颗粒物(PM10),97,144,82,30,17,189,,128,128,15,19,11,11,0.3,0.3
2024-06-02T1400,2395A,115.0866,35.7754,濮阳市,油田物探公司,颗粒物(PM10),104,158,95,30,19,190,,130,130,9,19,10,11,0.4,0.4
2024-06-02T1400,3021A,115,35.7668,濮阳市,濮水河管理处,颗粒物(PM10),92,133,76,27,25,174,,114,114,12,19,11,11,0.3,0.2
2024-06-02T1400,2601A,100.98,22.7633,普洱市,市环保局,,29,22,20,20,16,82,,65,65,5,5,7,7,0.4,0.4
2024-06-02T1400,2602A,100.9817,22.8322,普洱市,普洱第二中学,,32,23,18,22,14,81,,63,63,6,7,7,7,0.6,0.6
2024-06-02T1400,2262A,131.0518,45.8751,七台河市,新一中,,32,7,12,3,10,100,,71,71,6,6,9,9,0.6,0.7
2024-06-02T1400,3345A,131.0577,45.7879,七台河市,中波台,,30,8,12,3,11,94,,60,60,11,15,8,8,0.3,0.4
2024-06-02T1400,3637A,131.0176,45.7761,七台河市,人民广场,,29,21,23,16,15,90,,56,56,9,14,11,9,0.5,0.6
2024-06-02T1400,3684A,130.8781,45.8222,七台河市,新建矿广场,,28,,11,6,14,87,,59,59,11,19,5,7,0.3,0.5
2024-06-02T1400,1779A,123.9305,47.3636,齐齐哈尔市,安居小区,,36,31,24,10,14,115,,88,88,16,15,6,6,0.4,0.3
2024-06-02T1400,1780A,123.9488,47.3386,齐齐哈尔市,中心广场,,36,32,25,3,14,114,,85,85,10,11,9,8,0.2,0.2
2024-06-02T1400,1781A,123.9483,47.3227,齐齐哈尔市,农牧车辆厂,,37,31,33,13,12,117,,89,89,10,13,8,8,0.2,0.2
2024-06-02T1400,1783A,123.945,47.2988,齐齐哈尔市,市环境监测站,,37,21,25,12,13,116,,88,88,8,11,5,5,0.2,0.2
2024-06-02T1400,3662A,123.6333,47.2075,齐齐哈尔市,富区青少年活动中心,,37,19,23,8,8,117,,86,86,5,12,7,7,0.2,0.3
2024-06-02T1400,2591A,107.9783,26.5747,黔东南苗族侗族自治州,市环境监测站,,29,29,24,19,17,75,,89,78,12,8,3,3,0.5,0.5
2024-06-02T1400,2881A,107.8908,26.5311,黔东南苗族侗族自治州,凯里学院,,,25,21,17,14,94,,97,94,,5,3,3,0.5,0.4
2024-06-02T1400,2593A,107.5228,26.2403,黔南布依族苗族自治州,小围寨,,27,27,15,14,8,71,,73,72,10,7,4,4,0.5,0.4
2024-06-02T1400,3538A,107.5175,26.2978,黔南布依族苗族自治州,沙坝,,24,22,15,9,8,74,,78,76,7,6,4,4,0.5,0.5
2024-06-02T1400,2589A,104.9022,25.0925,黔西南布依族苗族自治州,场坝街,,26,14,13,3,6,81,,78,74,5,7,4,4,0.7,0.7
2024-06-02T1400,2590A,104.8811,25.0992,黔西南布依族苗族自治州,坪东大道,,25,14,16,3,8,80,,71,69,3,5,3,4,0.5,0.5
2024-06-02T1400,2502A,108.6236,21.9667,钦州市,市环保站,,43,39,28,24,12,137,,81,81,8,14,6,7,0.8,0.8
2024-06-02T1400,2503A,108.6549,21.9481,钦州市,沙埠小学,颗粒物(PM10),51,51,38,30,22,124,,71,71,7,18,5,6,0.7,0.7
2024-06-02T1400,2504A,108.5989,21.7431,钦州市,港区一小,,40,40,37,19,16,106,,90,90,8,15,8,8,0.7,0.7
2024-06-02T1400,3404A,108.5959,21.9633,钦州市,北职校,,45,,32,28,21,141,,79,79,7,13,9,9,0.8,0.8
2024-06-02T1400,1042A,119.5134,39.8207,秦皇岛市,北戴河环保局,臭氧1小时,75,40,64,17,29,180,,154,154,11,19,4,5,0.3,0.5
2024-06-02T1400,1043A,119.7493,40.0116,秦皇岛市,第一关,,,,74,,47,,,127,,,50,,7,,0.6
2024-06-02T1400,1044A,119.5897,39.9499,秦皇岛市,监测站,臭氧1小时,75,39,72,21,46,180,,120,120,16,31,8,9,0.4,0.6
2024-06-02T1400,1046A,119.5251,39.9041,秦皇岛市,建设大厦,,48,28,61,14,29,153,,112,112,8,28,2,7,0.1,0.4
2024-06-02T1400,3132A,119.610547,39.943889,秦皇岛市,文明里,臭氧1小时,79,30,70,7,33,183,,121,121,31,39,9,10,0.1,0.6
2024-06-02T1400,1307A,120.6659,36.2403,青岛市,仰口,,40,36,25,17,14,126,,108,108,12,9,6,5,0.4,0.3
2024-06-02T1400,1310A,120.4134,36.0658,青岛市,市南区东部子站,颗粒物(PM10),59,68,27,29,11,135,,101,101,32,27,14,10,1.3,0.6
2024-06-02T1400,1311A,120.3664,36.1032,青岛市,四方区子站,臭氧1小时,101,56,34,24,14,202,,123,123,34,36,14,11,0.8,0.6
2024-06-02T1400,1312A,120.2994,36.054,青岛市,市南区西部子站,颗粒物(PM10),62,73,32,32,12,151,,89,89,38,34,12,9,0.9,0.5
2024-06-02T1400,1313A,120.4581,36.0858,青岛市,崂山区子站,颗粒物(PM10),60,70,25,31,10,125,,90,90,39,27,13,9,1.1,0.5
2024-06-02T1400,1314A,120.1983,35.9608,青岛市,黄岛区子站,颗粒物(PM10),58,66,30,27,10,164,,109,109,24,21,11,8,0.9,0.6
2024-06-02T1400,1315A,120.3999,36.3083,青岛市,城阳区子站,臭氧1小时,106,63,41,17,14,211,,124,124,25,33,12,9,0.6,0.5
2024-06-02T1400,1966A,120.0405,35.8735,青岛市,黄岛区4号,臭氧1小时,72,51,30,22,9,177,,105,105,18,21,12,11,0.8,0.6
2024-06-02T1400,3362A,120.5014,36.4034,青岛市,即墨2号,臭氧1小时,105,57,46,19,16,209,,140,140,15,27,10,8,0.6,0.6
2024-06-02T1400,3642A,120.3503,36.0736,青岛市,市北区南部,臭氧1小时,65,56,30,24,8,172,,104,104,28,29,11,7,1.0,0.5
2024-06-02T1400,3643A,120.3948,36.1805,青岛市,李沧区北部,臭氧1小时,110,48,36,14,14,219,,137,137,25,37,12,10,0.6,0.6
2024-06-02T1400,1702A,113.0426,23.691,清远市,环保大楼,,26,9,11,3,4,81,,65,65,4,9,7,7,0.7,0.7
2024-06-02T1400,1703A,113.0208,23.7106,清远市,凤城街办,,23,11,11,9,11,71,,54,54,7,10,5,5,0.6,0.6
2024-06-02T1400,3025A,113.0477,23.6344,清远市,技师学院,,27,11,15,7,10,85,,66,66,3,9,4,4,0.6,0.6
2024-06-02T1400,3318A,112.9903,23.7403,清远市,清新太和,,25,19,12,13,6,79,,61,61,11,13,11,9,0.7,0.8
2024-06-02T1400,3455A,113.076,23.7198,清远市,清城东城,,27,16,17,8,7,85,,66,66,8,10,4,5,0.7,0.8
2024-06-02T1400,2661A,107.6325,35.7357,庆阳市,庆阳五中,,45,41,31,31,18,113,,128,124,8,7,1,2,0.4,0.3
2024-06-02T1400,2662A,107.6364,35.7067,庆阳市,市环保局,,36,34,25,22,15,115,,124,121,5,5,2,2,0.3,0.3
2024-06-02T1400,1916A,103.7897,25.5035,曲靖市,环境监测站,,31,15,34,6,16,98,,66,66,4,10,2,3,0.4,0.5
2024-06-02T1400,1917A,103.8,25.5364,曲靖市,烟厂办公区,,31,18,34,10,17,99,,71,68,3,8,3,4,0.4,0.5
2024-06-02T1400,3376A,103.7947,25.462,曲靖市,南苑二区,,33,12,31,10,18,105,,73,72,4,9,3,4,0.6,0.6
2024-06-02T1400,3377A,103.7444,25.5261,曲靖市,曲靖师范学院,,34,,26,12,16,108,,77,77,6,9,7,6,0.5,0.5
2024-06-02T1400,1264A,118.8692,28.9398,衢州市,环保大楼,,39,14,16,12,11,122,,124,124,11,13,4,3,0.4,0.4
2024-06-02T1400,1265A,118.8709,28.9666,衢州市,实验学校,,38,14,15,12,10,121,,124,124,8,11,9,9,0.3,0.2
2024-06-02T1400,1266A,118.8621,28.9808,衢州市,衢州学院,,37,13,13,12,11,117,,120,120,10,13,5,5,0.4,0.4
2024-06-02T1400,1611A,118.5819,24.9117,泉州市,涂山街,,40,,4,3,3,128,,111,111,6,7,2,2,0.5,0.5
2024-06-02T1400,1612A,118.5972,24.8978,泉州市,津头埔,,40,6,4,3,3,126,,106,106,13,13,1,1,0.6,0.5
2024-06-02T1400,1613A,118.6663,24.9424,泉州市,万安,,41,6,6,3,4,130,,111,111,6,7,1,1,0.6,0.5
2024-06-02T1400,1614A,118.6117,24.9604,泉州市,清源山,,,,,,,,,,,,,,,,
2024-06-02T1400,3529A,118.6333,24.9264,泉州市,城华南路,,41,,6,6,9,129,,110,110,9,11,3,4,0.5,0.5
2024-06-02T1400,2626A,88.8876,29.2718,日喀则市,日喀则监测站,,50,12,15,6,6,159,,140,140,4,5,6,5,0.4,0.4
2024-06-02T1400,3726A,88.8781,29.2426,日喀则市,林业技术推广中心,,49,12,20,3,6,156,,142,142,6,7,4,4,0.6,0.6
2024-06-02T1400,1659A,119.471,35.4209,日照市,监测站,臭氧1小时,94,53,32,21,14,195,,126,126,19,33,13,11,0.7,0.5
2024-06-02T1400,1660A,119.523,35.4216,日照市,市政府广场,臭氧1小时,90,73,35,12,10,192,,125,125,22,32,15,12,0.7,0.7
2024-06-02T1400,1661A,119.5587,35.4044,日照市,港务局,颗粒物(PM10),81,112,61,16,14,173,,116,116,27,37,9,10,0.6,0.6
2024-06-02T1400,3507A,119.5328,35.4625,日照市,职业技术学院,臭氧1小时,93,75,38,24,10,194,,136,136,25,30,16,11,0.7,0.6
2024-06-02T1400,3604A,119.3266,35.1044,日照市,岚山环保分局,臭氧1小时,79,39,36,12,14,183,,117,117,10,21,7,8,0.4,0.7
2024-06-02T1400,1835A,111.1922,34.7752,三门峡市,市政府,颗粒物(PM10),63,76,48,24,26,92,,71,71,22,22,11,10,0.7,0.6
2024-06-02T1400,1836A,111.1587,34.7942,三门峡市,开发区,,45,45,66,27,36,108,,85,85,18,17,22,12,0.8,0.7
2024-06-02T1400,1838A,111.143,34.7955,三门峡市,风景区,,,,,,,,,,,,,,,,
2024-06-02T1400,3039A,111.1911,34.7829,三门峡市,三门峡市第一小学,颗粒物(PM10),52,54,50,29,31,97,,80,80,22,21,12,11,0.5,0.5
2024-06-02T1400,3598A,111.1,34.7167,三门峡市,富达温泉假日酒店,细颗粒物(PM2.5),57,53,54,40,39,86,,67,65,25,22,13,11,0.7,0.6
2024-06-02T1400,2324A,117.6211,26.2625,三明市,三钢,,27,,9,11,8,85,,77,77,6,10,5,6,0.4,0.5
2024-06-02T1400,2325A,117.635,26.2714,三明市,三明二中,,26,17,8,3,7,81,,75,75,7,10,5,5,0.5,0.6
2024-06-02T1400,2326A,117.6028,26.2378,三明市,三元区政府,,27,12,11,3,5,84,,72,72,8,15,8,8,0.6,0.8
2024-06-02T1400,2327A,117.7275,26.3108,三明市,洋溪,,,,,,,,,,,,,,,,
2024-06-02T1400,1876A,109.5078,18.2489,三亚市,河东子站,,22,6,17,3,6,70,,58,58,2,10,3,3,0.2,0.3
2024-06-02T1400,1877A,109.4964,18.2681,三亚市,河西子站,,22,6,18,3,7,68,,56,56,1,8,1,1,0.1,0.4
2024-06-02T1400,3540A,109.7348,18.3443,三亚市,君悦子站,,18,18,23,3,4,56,,45,45,4,10,3,2,0.5,0.6
2024-06-02T1400,2624A,91.7608,29.2313,山南市,山南监测站,,46,9,12,3,5,146,,128,123,4,3,8,8,0.3,0.3
2024-06-02T1400,2625A,91.7706,29.2436,山南市,山南人民医院,,45,24,23,3,8,142,,126,117,8,8,8,8,0.4,0.3
2024-06-02T1400,1674A,116.6794,23.3667,汕头市,金平子站,,,,13,6,7,63,,60,59,14,13,2,2,0.7,0.6
2024-06-02T1400,1675A,116.7244,23.3633,汕头市,龙湖子站,,,6,11,3,6,64,,62,62,,7,5,5,0.9,0.7
2024-06-02T1400,1676A,116.7258,23.2775,汕头市,濠江子站,,17,,15,3,4,54,,54,54,6,9,4,4,0.9,0.7
2024-06-02T1400,1677A,116.7519,23.4714,汕头市,澄海子站,,19,,13,7,8,60,,60,60,11,11,4,4,1.1,0.8
2024-06-02T1400,1678A,116.6092,23.2539,汕头市,潮阳子站,,,,13,4,8,59,,60,60,5,4,4,4,,0.4
2024-06-02T1400,3444A,116.454,23.2684,汕头市,潮南峡山,,24,24,10,12,4,46,,56,49,16,7,4,4,0.9,0.7
2024-06-02T1400,3624A,116.4069,23.2533,汕头市,潮南子站,,19,16,10,13,4,51,,62,51,10,4,7,6,0.8,0.7
2024-06-02T1400,1693A,115.3653,22.775,汕尾市,市环保局,,24,22,13,9,5,74,,62,61,9,4,4,4,0.8,0.7
2024-06-02T1400,1694A,115.3706,22.7898,汕尾市,市政府,,27,18,12,18,8,84,,66,62,6,4,5,4,0.8,0.7
2024-06-02T1400,1695A,115.3622,22.7925,汕尾市,新城中学,,27,17,15,11,6,86,,66,64,9,6,6,6,0.8,0.7
2024-06-02T1400,2645A,109.9154,33.8715,商洛市,监测站,,42,42,44,23,20,118,,80,80,4,8,8,8,0.7,0.7
2024-06-02T1400,3045A,109.9643,33.8471,商洛市,商州区中学,,49,36,36,34,33,115,,69,69,7,17,8,8,0.7,0.6
2024-06-02T1400,2408A,115.6702,34.4285,商丘市,环境监测站,颗粒物(PM10),57,63,62,10,13,144,,118,118,9,14,7,8,0.1,0.1
2024-06-02T1400,2409A,115.6458,34.4045,商丘市,粮食局,,,,62,0,13,148,,118,118,,12,2,2,0.1,0.2
2024-06-02T1400,2410A,115.6293,34.3948,商丘市,睢阳区环保局,颗粒物(PM10),62,74,63,11,13,145,,115,115,8,14,5,6,0.1,0.1
2024-06-02T1400,3171A,115.6071,34.4465,商丘市,梁园区档案局,颗粒物(PM10),62,73,59,26,16,142,,113,113,10,15,8,9,0.2,0.3
2024-06-02T1400,1141A,121.4,31.238,上海市,普陀,,40,,16,12,16,127,,103,103,17,21,5,5,0.4,0.4
2024-06-02T1400,1142A,121.478,31.2036,上海市,十五厂,,42,18,31,16,12,134,,111,111,16,23,7,7,0.4,0.5
2024-06-02T1400,1143A,121.467,31.3008,上海市,虹口,,40,10,15,8,16,125,,104,104,13,24,9,10,0.4,0.5
