timepoint,stationcode,longitude,latitude,area,positionname,primarypollutant,aqi,pm10,pm10_24h,pm2_5,pm2_5_24h,o3,o3_24h,o3_8h,o3_8h_24h,no2,no2_24h,so2,so2_24h,co,co_24h
2024-06-02T2000,2566A,102.1879,31.914,阿坝藏族羌族自治州,州农科所,,27,27,30,7,11,20,,27,26,7,11,3,3,0,0.1
2024-06-02T2000,2568A,102.2502,31.8896,阿坝藏族羌族自治州,马师校,,28,,13,19,13,28,,52,47,11,13,4,4,0.4,0.4
2024-06-02T2000,3994A,102.2165,31.9024,阿坝藏族羌族自治州,马尔康中学西区,,17,17,20,11,10,37,,57,53,4,6,5,5,0.3,0.3
2024-06-02T2000,2695A,80.292,41.1694,阿克苏地区,电视台,,38,37,29,17,13,119,,117,117,9,10,5,4,0.3,0.3
2024-06-02T2000,2696A,80.2613,41.1551,阿克苏地区,艺术中心,,46,46,30,22,13,124,,116,116,6,11,4,4,0.3,0.3
2024-06-02T2000,2204A,105.6467,38.8363,阿拉善盟,西城区西花园,臭氧1小时,55,30,36,13,16,164,,159,159,13,11,8,8,0.5,0.4
2024-06-02T2000,2205A,105.6985,38.8411,阿拉善盟,蒙二幼,,50,27,31,12,15,157,,150,150,10,7,10,9,0.5,0.5
2024-06-02T2000,2206A,105.724,38.8516,阿拉善盟,环保局新楼,,49,24,30,13,19,154,,152,152,12,7,14,11,0.6,0.6
2024-06-02T2000,2708A,88.1264,47.8517,阿勒泰地区,市站,,29,27,20,8,7,92,,98,98,7,8,6,6,0.3,0.3
2024-06-02T2000,2630A,80.1161,32.5,阿里地区,阿里监测站,臭氧1小时,75,43,19,9,8,180,,178,178,8,7,6,6,0.4,0.4
2024-06-02T2000,3192A,80.0903,32.5028,阿里地区,阿里藏医院,,,,19,,7,183,,180,180,3,4,6,5,0.3,0.5
2024-06-02T2000,2642A,109.0318,32.6537,安康市,香溪洞,,42,42,70,26,39,116,,103,90,5,10,7,8,0.6,0.7
2024-06-02T2000,2643A,109.0281,32.6939,安康市,安康市监测站,,49,44,76,34,41,109,,103,103,8,14,6,8,0.6,0.7
2024-06-02T2000,2644A,109.0072,32.6975,安康市,汉滨区检察院,,46,41,71,32,44,124,,110,110,7,14,6,7,0.5,0.6
2024-06-02T2000,2291A,117.0809,30.5177,安庆市,环科院,,38,20,42,9,27,120,,149,141,12,12,6,6,0.4,0.6
2024-06-02T2000,2292A,117.0331,30.5119,安庆市,马山宾馆,,39,25,42,8,28,124,,152,143,9,10,8,8,0.4,0.6
2024-06-02T2000,2294A,116.9896,30.6145,安庆市,安庆大学,,41,24,40,10,27,129,,145,138,11,12,8,8,0.3,0.5
2024-06-02T2000,3173A,117.0598,30.5351,安庆市,市人大,,37,27,43,9,28,118,,149,138,18,16,6,7,0.5,0.6
2024-06-02T2000,3122A,105.9606,26.2611,安顺市,伍家关,,,,,,,,,,,,,,,,
2024-06-02T2000,3123A,105.9408,26.2431,安顺市,凤凰山,,20,10,27,3,20,61,,89,73,9,7,5,9,0.5,0.5
2024-06-02T2000,3124A,105.9439,26.2564,安顺市,金钟山,,20,9,27,3,21,63,,89,72,8,6,4,8,0.4,0.4
2024-06-02T2000,3125A,105.8983,26.2481,安顺市,娄家坡,,20,,37,3,24,64,,87,72,9,6,4,9,0.5,0.5
2024-06-02T2000,1818A,114.4839,36.0621,安阳市,棉研所,,,,,,,,,,,,,,,,
2024-06-02T2000,1819A,114.3551,36.1017,安阳市,红庙街,颗粒物(PM10),96,142,114,31,36,185,,206,206,9,18,5,13,0.6,0.6
2024-06-02T2000,1820A,114.361,36.0681,安阳市,银杏小区,颗粒物(PM10),95,139,116,30,41,182,,200,200,20,28,8,11,0.9,0.9
2024-06-02T2000,3141A,114.3922,36.0878,安阳市,信访局,颗粒物(PM10),100,150,132,27,30,183,,204,204,10,20,10,13,0.7,0.8
2024-06-02T2000,3669A,114.4705,36.0637,安阳市,左辅环卫站,颗粒物(PM10),106,161,106,33,36,170,,200,200,20,25,5,6,1.0,0.9
2024-06-02T2000,3703A,114.2917,36.0949,安阳市,安钢职工学校,颗粒物(PM10),87,124,124,27,35,167,,189,189,17,23,11,15,0.8,0.6
2024-06-02T2000,1748A,123.044,41.1196,鞍山市,深沟寺,,35,35,30,15,16,75,,114,103,25,16,9,10,0.3,0.5
2024-06-02T2000,1749A,123.011,41.0931,鞍山市,太阳城,,30,28,32,11,18,93,,119,113,19,17,9,10,0.5,0.9
2024-06-02T2000,1750A,123.0485,41.1442,鞍山市,太平,,48,48,36,31,20,80,,113,107,31,22,8,8,0.5,0.6
2024-06-02T2000,1751A,122.9642,41.0971,鞍山市,铁西三道街,,29,29,50,13,26,90,,118,111,26,28,7,10,0.6,1
2024-06-02T2000,1752A,122.9341,41.0833,鞍山市,铁西工业园区,,26,26,54,10,27,83,,117,108,27,28,16,12,1.0,1
2024-06-02T2000,1753A,123.022,41.0821,鞍山市,明达新区,,,,32,,18,84,,114,106,,17,11,12,,0.9
2024-06-02T2000,1754A,123.1289,41.0228,鞍山市,千山,,,,,,,,,,,,,,,,
2024-06-02T2000,2195A,107.4212,40.761,巴彦淖尔市,附二中,颗粒物(PM10),334,447,170,60,48,152,,176,176,12,12,10,5,0.5,0.5
2024-06-02T2000,2196A,107.37,40.7372,巴彦淖尔市,市环保大楼,颗粒物(PM10),197,343,195,27,46,130,,162,162,11,9,4,6,0.5,0.4
2024-06-02T2000,1956A,86.1472,41.7538,巴音郭楞蒙古自治州,孔雀公园,颗粒物(PM10),63,76,53,23,19,92,,104,104,5,11,7,8,0,0.1
2024-06-02T2000,1957A,86.1972,41.7166,巴音郭楞蒙古自治州,棉纺厂,颗粒物(PM10),52,54,48,25,19,108,,112,112,4,19,3,3,0.1,0.2
2024-06-02T2000,1958A,86.2357,41.7173,巴音郭楞蒙古自治州,经济开发区,颗粒物(PM10),53,55,37,22,18,109,,112,112,4,7,8,9,0.2,0.2
2024-06-02T2000,2914A,106.7677,31.8794,巴中市,苏山坪,,32,24,33,17,19,102,,101,101,6,8,6,5,0.3,0.3
2024-06-02T2000,3182A,106.7656,31.8545,巴中市,丽阳花园,,33,29,38,19,22,105,,110,110,10,12,5,5,0.4,0.5
2024-06-02T2000,3183A,106.7418,31.8654,巴中市,圣泉水务公司,,34,21,27,18,18,107,,101,101,8,11,6,5,0.4,0.4
2024-06-02T2000,3616A,106.7616,31.8344,巴中市,市中心医院,,36,25,30,19,19,113,,112,112,6,10,5,4,0.4,0.4
2024-06-02T2000,2235A,122.7911,45.6077,白城市,洮北区环保局,,31,28,24,16,15,99,,117,117,20,12,2,2,0.3,0.3
2024-06-02T2000,2236A,122.8738,45.5725,白城市,市环保局,,26,24,17,12,11,81,,111,110,30,13,5,5,0.5,0.4
2024-06-02T2000,2231A,126.4219,41.9171,白山市,喜丰,,27,27,15,7,5,46,,80,76,17,8,8,8,0.7,0.7
2024-06-02T2000,2232A,126.4077,41.9419,白山市,环保局,,35,35,22,9,6,44,,74,69,9,7,7,8,0.7,0.6
2024-06-02T2000,2647A,104.1724,36.5446,白银市,第三小学,,43,34,29,14,14,136,,146,146,13,11,12,8,0.6,0.7
2024-06-02T2000,2648A,104.1465,36.5482,白银市,动力公司,,45,22,26,14,13,141,,140,140,8,9,8,9,0.4,0.5
2024-06-02T2000,2512A,106.6103,23.9011,百色市,市监测站,颗粒物(PM10),55,60,45,34,23,119,,124,124,12,16,11,10,0.9,0.9
2024-06-02T2000,2513A,106.6538,23.8859,百色市,市中心血站,细颗粒物(PM2.5),54,51,51,38,27,105,,112,112,13,14,9,10,0.9,0.8
2024-06-02T2000,3406A,106.6085,23.8798,百色市,祈福高中,颗粒物(PM10),53,55,54,28,24,116,,86,,9,21,11,14,1.0,0.9
2024-06-02T2000,2270A,117.396,32.939,蚌埠市,工人疗养院,,48,48,42,17,12,120,,132,131,13,14,8,9,0.4,0.3
2024-06-02T2000,2271A,117.3605,32.9427,蚌埠市,百货大楼,,45,45,39,13,13,125,,128,128,19,18,4,5,0.4,0.3
2024-06-02T2000,2273A,117.4185,32.8911,蚌埠市,蚌埠学院,颗粒物(PM10),58,66,45,14,19,108,,124,122,28,19,6,6,0.4,0.4
2024-06-02T2000,2274A,117.3533,32.9673,蚌埠市,淮上区政府,,38,36,41,20,18,120,,123,123,13,14,5,7,0.4,0.3
2024-06-02T2000,2275A,117.3145,32.8977,蚌埠市,高新区,颗粒物(PM10),57,63,39,15,14,108,,125,124,24,12,6,6,0.4,0.3
2024-06-02T2000,3715A,117.3092,32.9314,蚌埠市,蚌埠田家炳中学,颗粒物(PM10),56,62,39,19,15,110,,126,124,28,14,17,9,0.5,0.3
2024-06-02T2000,1585A,109.8756,40.6532,包头市,市环境监测站,,33,31,93,9,26,104,,128,128,22,20,8,16,0.4,0.7
2024-06-02T2000,1587A,109.9991,40.5842,包头市,包头八中,颗粒物(PM10),54,57,93,19,28,114,,135,133,18,15,11,12,0.4,0.6
2024-06-02T2000,1588A,109.8538,40.6821,包头市,青山宾馆,,36,36,81,14,25,108,,124,124,14,24,10,20,0.5,1.1
2024-06-02T2000,1589A,109.8642,40.6288,包头市,惠龙物流,,35,34,93,10,28,109,,130,130,18,19,9,20,0.3,0.5
2024-06-02T2000,1590A,110.0377,40.5546,包头市,东河鸿龙湾,,35,28,78,9,19,110,,135,133,20,11,8,9,0.5,0.5
2024-06-02T2000,3283A,109.9154,40.5685,包头市,滨河大厦,,37,32,85,3,27,118,,138,137,12,10,10,11,0.5,0.6
2024-06-02T2000,3419A,109.9447,40.6261,包头市,包头市委党校,,44,44,94,20,21,110,,132,130,17,15,10,18,0.4,0.5
2024-06-02T2000,3683A,109.8331,40.6576,包头市,昆区政府,,35,30,87,12,26,109,,130,130,16,25,8,19,0.7,0.9
2024-06-02T2000,1930A,107.185,34.3063,宝鸡市,庙沟村,,26,22,24,18,21,80,,98,96,5,5,8,8,0.5,0.5
2024-06-02T2000,1931A,107.0708,34.3017,宝鸡市,竹园沟,,26,26,29,16,22,47,,118,98,15,12,6,7,0.6,0.5
2024-06-02T2000,1932A,107.1906,34.3672,宝鸡市,三陆医院,,37,30,32,16,23,117,,127,127,16,14,6,6,0.6,0.5
2024-06-02T2000,1933A,107.1431,34.3547,宝鸡市,监测站,,38,29,33,18,26,119,,127,127,18,15,6,6,0.5,0.5
2024-06-02T2000,1934A,107.1186,34.3739,宝鸡市,技工学校,,36,29,31,25,23,110,,123,123,19,16,7,7,0.6,0.6
2024-06-02T2000,1935A,107.3906,34.3528,宝鸡市,陈仓区环保局家属楼,,39,32,33,27,34,112,,126,124,16,16,5,5,0.5,0.4
2024-06-02T2000,1936A,107.2058,34.3497,宝鸡市,文理学院,,39,27,28,14,23,123,,133,133,10,10,7,6,0.5,0.5
2024-06-02T2000,1937A,107.2386,34.3622,宝鸡市,三迪小学,,37,26,33,15,23,116,,128,128,18,15,6,7,0.6,0.6
2024-06-02T2000,1051A,115.493,38.8632,保定市,游泳馆,颗粒物(PM10),80,110,80,23,29,125,,179,176,14,14,3,5,0.1,0.2
2024-06-02T2000,1052A,115.5213,38.8959,保定市,华电二区,颗粒物(PM10),65,79,56,26,19,148,,182,182,19,20,6,7,0.3,0.4
2024-06-02T2000,1053A,115.4713,38.9108,保定市,接待中心,,47,47,50,25,27,120,,161,159,13,15,3,5,0.5,0.6
2024-06-02T2000,1054A,115.4612,38.8416,保定市,地表水厂,颗粒物(PM10),83,115,59,24,27,117,,174,170,13,19,3,4,0.5,0.5
2024-06-02T2000,3581A,115.31981,38.95208,保定市,满城区生态环境分局,,35,27,83,9,25,112,,165,162,4,18,3,4,0,0.1
2024-06-02T2000,3582A,115.47694,38.76408,保定市,清苑区第二中学,颗粒物(PM10),66,81,70,28,28,127,,193,188,15,17,2,5,0.4,0.5
2024-06-02T2000,3583A,115.62909,39.02311,保定市,徐水物探局,颗粒物(PM10),71,91,74,19,20,124,,175,172,22,25,5,7,1.2,0.9
2024-06-02T2000,4004A,115.4202,38.8656,保定市,双鹰农机,颗粒物(PM10),59,68,64,20,27,122,,182,178,17,18,2,6,0.2,0.3
2024-06-02T2000,4034A,115.5150,38.8590,保定市,植保所站,细颗粒物(PM2.5),63,73,68,45,31,150,,190,188,17,21,4,7,0.5,0.5
2024-06-02T2000,2594A,99.1678,25.1081,保山市,市环境监测站,,37,37,38,11,15,77,,89,87,8,7,5,5,0.5,0.5
2024-06-02T2000,2595A,99.1711,25.1328,保山市,市环保局,,44,44,47,11,14,89,,95,94,3,5,4,4,0.4,0.4
2024-06-02T2000,1866A,109.2262,21.588,北海市,牛尾岭水库,,,,,,,,,,,,,,,,
2024-06-02T2000,1867A,109.1436,21.4086,北海市,海滩公园,,24,18,16,3,4,76,,99,86,4,4,4,4,0.7,0.7
2024-06-02T2000,1868A,109.0981,21.4661,北海市,新市环保局,,24,16,15,7,7,75,,94,84,4,5,4,5,0.6,0.7
2024-06-02T2000,1869A,109.1778,21.5233,北海市,北海工业园,,26,26,20,7,10,68,,98,87,6,6,4,4,0.6,0.7
2024-06-02T2000,3400A,109.1911,21.4415,北海市,龙潭自来水厂,,22,20,13,12,9,68,,86,78,7,7,4,6,0.5,0.6
2024-06-02T2000,1001A,116.3621,39.8784,北京市,万寿西宫,臭氧1小时,83,55,49,22,19,186,,170,170,25,34,2,2,0.5,0.3
2024-06-02T2000,1002A,116.2202,40.2915,北京市,定陵,颗粒物(PM10),56,61,38,17,14,130,,142,142,21,16,4,3,0.3,0.3
2024-06-02T2000,1003A,116.4174,39.9289,北京市,东四,臭氧1小时,65,51,46,24,19,172,,152,152,23,31,5,5,0.5,0.4
2024-06-02T2000,1004A,116.4072,39.8863,北京市,天坛,臭氧1小时,60,34,37,19,17,168,,156,156,17,23,4,4,0.5,0.4
2024-06-02T2000,1005A,116.462,39.9365,北京市,农展馆,臭氧1小时,58,48,47,18,17,166,,139,139,22,32,3,2,0.4,0.3
2024-06-02T2000,1006A,116.3392,39.9295,北京市,官园,臭氧1小时,72,58,51,20,17,177,,160,160,21,30,4,4,0.5,0.4
2024-06-02T2000,1007A,116.2878,39.9611,北京市,海淀万柳,臭氧1小时,57,55,46,19,17,165,,151,151,21,32,4,4,0.4,0.3
2024-06-02T2000,1008A,116.6636,40.135,北京市,顺义新城,颗粒物(PM10),52,54,40,26,13,153,,141,141,21,21,1,3,0.4,0.2
2024-06-02T2000,1009A,116.6275,40.3275,北京市,怀柔镇,,48,38,32,19,13,152,,133,133,17,12,4,4,0.6,0.4
2024-06-02T2000,1010A,116.2296,40.217,北京市,昌平镇,颗粒物(PM10),53,56,41,18,15,129,,131,131,22,25,1,1,0.3,0.3
2024-06-02T2000,1011A,116.3966,39.9821,北京市,奥体中心,,49,46,42,20,18,154,,129,129,22,36,1,2,0.4,0.3
2024-06-02T2000,1012A,116.184,39.9136,北京市,古城,颗粒物(PM10),57,64,57,22,20,153,,144,144,26,33,3,2,0.5,0.4
2024-06-02T2000,3281A,115.9718,40.4529,北京市,延庆夏都,,46,35,27,17,12,146,,134,134,12,11,1,3,0.2,0.2
2024-06-02T2000,3417A,117.0709,40.1465,北京市,平谷新城,,45,45,34,21,14,137,,153,153,13,7,1,2,0.4,0.4
2024-06-02T2000,3418A,116.8336,40.4095,北京市,密云新城,臭氧1小时,69,38,30,17,13,175,,144,144,13,10,1,4,0.3,0.1
2024-06-02T2000,3671A,116.088,39.9726,北京市,门头沟三家店,,,,,,,,,,,,,,,,
2024-06-02T2000,3672A,116.1541,39.8204,北京市,丰台云岗,颗粒物(PM10),55,59,55,25,18,124,,141,141,35,28,3,3,0.4,0.3
2024-06-02T2000,3673A,116.6804,39.9081,北京市,通州东关,颗粒物(PM10),51,52,48,22,18,145,,146,146,13,19,2,3,0.5,0.4
2024-06-02T2000,3674A,115.9577,39.7603,北京市,房山燕山,颗粒物(PM10),61,71,59,25,19,147,,147,147,18,16,1,2,0.3,0.3
2024-06-02T2000,3675A,116.4672,39.7733,北京市,大兴旧宫,,43,43,43,17,17,136,,151,150,20,21,3,3,0.5,0.4
2024-06-02T2000,3694A,115.986,40.4563,北京市,延庆石河营,,42,32,25,15,11,134,,126,126,12,8,1,1,0.2,0.2
2024-06-02T2000,3695A,116.6151,40.3053,北京市,怀柔新城,,43,41,32,20,12,137,,126,126,23,11,1,3,0.4,0.3
2024-06-02T2000,3696A,116.2545,39.8768,北京市,丰台小屯,,46,46,47,18,17,139,,134,134,23,29,2,2,0.5,0.4
2024-06-02T2000,3697A,116.84,40.3844,北京市,密云镇,臭氧1小时,69,44,28,18,12,175,,144,144,14,13,3,4,0.3,0.2
2024-06-02T2000,1761A,123.8275,41.3064,本溪市,大峪,,30,18,23,13,11,93,,99,99,11,16,10,10,0.7,0.7
2024-06-02T2000,1762A,123.7567,41.3325,本溪市,溪湖,,27,24,32,12,15,84,,97,97,18,20,9,8,0.7,0.8
2024-06-02T2000,1763A,123.7169,41.3094,本溪市,彩屯,,32,32,34,19,21,56,,91,91,33,28,9,8,0.7,0.8
2024-06-02T2000,1764A,123.7669,41.2864,本溪市,东明,,32,32,35,20,14,89,,97,97,29,25,11,10,1.1,1
2024-06-02T2000,1765A,123.7992,41.2664,本溪市,新立屯,,32,32,20,12,10,54,,83,83,42,20,11,12,0.6,0.5
2024-06-02T2000,1766A,123.8142,41.3472,本溪市,威宁,,48,48,37,13,15,57,,84,84,34,24,7,7,0.4,0.5
2024-06-02T2000,2587A,105.2864,27.3125,毕节市,八中,,22,10,31,3,24,70,,82,78,8,10,5,6,0.4,0.4
2024-06-02T2000,2588A,105.31,27.2944,毕节市,师专,,23,8,31,6,22,71,,80,76,8,10,6,7,0.5,0.5
2024-06-02T2000,3537A,105.3631,27.3533,毕节市,长征村,,25,6,27,3,20,78,,86,82,6,8,6,7,0.4,0.4
2024-06-02T2000,1629A,118.0018,37.3617,滨州市,第二水厂,臭氧1小时,101,136,89,41,26,201,,196,196,24,39,13,11,0.9,0.7
2024-06-02T2000,1630A,117.9776,37.393,滨州市,北中新校,臭氧1小时,108,114,79,36,21,215,,198,198,16,25,13,12,0.7,0.6
2024-06-02T2000,3514A,117.9378,37.3956,滨州市,中海酒店,臭氧1小时,111,114,78,36,26,221,,205,205,19,26,16,16,0.9,0.7
2024-06-02T2000,3515A,117.9378,37.3553,滨州市,开发区一中,臭氧1小时,98,134,91,34,23,198,,188,188,22,40,15,14,0.7,0.6
2024-06-02T2000,3516A,118.0917,37.694,滨州市,金海六路,臭氧1小时,90,95,87,34,25,192,,200,200,18,45,9,12,0.5,0.4
2024-06-02T2000,4028A,117.9956,37.3753,滨州市,滨州市西街道办事处,臭氧1小时,92,129,84,46,32,193,,186,186,22,34,11,10,0.8,0.6
2024-06-02T2000,2311A,115.8072,33.8399,亳州市,污水处理厂,颗粒物(PM10),56,62,86,12,19,122,,136,135,23,21,6,5,0.3,0.3
2024-06-02T2000,2312A,115.7789,33.8518,亳州市,三国揽胜宫,颗粒物(PM10),54,57,68,13,13,131,,147,147,17,16,5,5,0.2,0.2
2024-06-02T2000,3332A,115.7633,33.8034,亳州市,亳州学院,颗粒物(PM10),61,71,79,18,15,124,,141,140,17,16,6,5,0.3,0.3
2024-06-02T2000,2693A,82.0485,44.8556,博尔塔拉蒙古自治州,市党校,,35,31,25,9,12,111,,119,119,8,8,9,10,0.4,0.4
2024-06-02T2000,2694A,82.0806,44.8969,博尔塔拉蒙古自治州,市环保局,,35,31,30,8,14,111,,118,118,13,12,8,9,0.4,0.4
2024-06-02T2000,1071A,116.8842,38.2991,沧州市,沧县城建局,臭氧1小时,67,71,67,33,21,173,,198,198,22,20,6,5,0.5,0.3
2024-06-02T2000,1072A,116.8584,38.3254,沧州市,电视转播站,颗粒物(PM10),55,59,58,22,20,163,,180,180,16,16,9,5,0.5,0.3
2024-06-02T2000,1073A,116.8709,38.3228,沧州市,市环保局,,,,68,,28,162,,187,187,19,19,,8,,0.4
2024-06-02T2000,3324A,116.8136,38.3004,沧州市,河北水利电力学院,臭氧1小时,84,56,64,20,20,187,,202,202,20,21,12,10,0.6,0.3
2024-06-02T2000,2622A,97.1806,31.1273,昌都市,昌都监测站,,,11,7,6,5,131,,131,131,,6,7,8,0.4,0.4
2024-06-02T2000,3719A,97.1714,31.1406,昌都市,昌都会议中心,,39,9,8,6,5,123,,128,128,3,5,4,4,0.3,0.2
2024-06-02T2000,2690A,88.1236,43.8886,昌吉回族自治州,天山天池,,,18,11,,2,122,,123,123,6,6,5,4,0.4,0.4
2024-06-02T2000,2692A,87.2717,44.0297,昌吉回族自治州,新区政务中心,,39,17,37,13,15,124,,119,119,6,22,8,9,0.3,0.5
2024-06-02T2000,3613A,87.3095,44.0142,昌吉回族自治州,亚心广场,,40,22,47,3,10,128,,126,126,14,29,6,8,0.5,0.6
2024-06-02T2000,1119A,125.3325,43.9166,长春市,食品厂,,36,,19,25,15,72,,85,84,16,22,6,6,0.5,0.5
2024-06-02T2000,1120A,125.2863,43.9027,长春市,客车厂,,21,21,18,12,15,63,,81,80,26,24,4,4,0.3,0.4
2024-06-02T2000,1121A,125.2841,43.8463,长春市,邮电学院,,22,22,14,3,8,61,,78,77,14,16,6,7,0.3,0.4
2024-06-02T2000,1122A,125.3716,43.8772,长春市,劳动公园,,28,28,16,13,8,63,,81,80,28,21,4,4,0.4,0.4
2024-06-02T2000,1123A,125.3297,43.8805,长春市,园林处,,22,21,16,15,12,65,,78,77,22,22,6,6,0.4,0.4
2024-06-02T2000,1124A,125.4605,43.79,长春市,净月潭,,17,11,7,3,5,54,,77,75,7,6,7,7,0.3,0.3
2024-06-02T2000,1125A,125.7194,43.515,长春市,甩湾子,,,,,,,,,,,,,,,,
2024-06-02T2000,1126A,125.3863,43.8447,长春市,经开区环卫处,,20,16,13,7,6,64,,83,82,19,15,4,5,0.3,0.4
2024-06-02T2000,1127A,125.245,43.7783,长春市,高新区管委会,,29,29,16,8,8,29,,78,72,37,20,6,6,0.4,0.3
2024-06-02T2000,1128A,125.1761,43.8325,长春市,岱山公园,,29,29,20,10,14,48,,82,79,46,29,5,5,0.9,0.5
2024-06-02T2000,1335A,113.0833,28.2325,长沙市,经开区环保局,细颗粒物(PM2.5),62,60,31,44,19,166,,145,145,16,14,8,7,0.6,0.4
2024-06-02T2000,1336A,112.8872,28.2189,长沙市,高开区环保局,臭氧1小时,95,66,31,18,14,196,,159,159,10,10,6,5,0.9,0.6
2024-06-02T2000,1337A,113.0792,28.2053,长沙市,马坡岭,臭氧1小时,54,52,30,27,18,163,,140,140,12,9,9,8,0.7,0.5
2024-06-02T2000,1338A,112.9394,28.19,长沙市,湖南师范大学,臭氧1小时,84,71,35,47,21,187,,155,155,7,6,5,4,0.9,0.6
2024-06-02T2000,1339A,113.0178,28.1322,长沙市,雨花区环保局,臭氧1小时,63,56,32,25,15,170,,146,146,13,12,8,6,0.8,0.6
2024-06-02T2000,1340A,112.9792,28.2597,长沙市,伍家岭,细颗粒物(PM2.5),69,68,33,50,21,167,,145,145,12,7,7,6,0.7,0.5
2024-06-02T2000,1341A,113.0014,28.1944,长沙市,火车新站,细颗粒物(PM2.5),64,70,33,46,20,170,,145,145,13,9,4,4,0.8,0.6
2024-06-02T2000,1342A,112.9844,28.1178,长沙市,天心区环保局,细颗粒物(PM2.5),59,43,37,42,19,159,,139,139,16,14,4,3,1.0,0.8
2024-06-02T2000,1343A,112.8908,28.1308,长沙市,湖南中医药大学,臭氧1小时,84,58,30,30,16,187,,154,154,4,4,7,6,0.9,0.7
2024-06-02T2000,1344A,112.9581,28.3611,长沙市,沙坪,臭氧1小时,82,42,20,28,13,185,,152,152,11,9,10,8,0.9,0.7
2024-06-02T2000,1727A,113.1147,36.1547,长治市,清华站,,44,21,42,7,16,138,,154,153,11,14,8,12,0.3,0.4
2024-06-02T2000,1728A,113.1031,36.1989,长治市,监测站,,41,30,41,12,17,131,,154,152,19,17,4,6,0.5,0.6
2024-06-02T2000,1730A,113.0886,36.2125,长治市,审计局,,47,26,42,12,15,150,,159,159,12,18,1,4,0.3,0.4
2024-06-02T2000,1731A,113.0844,36.1856,长治市,长治八中,,45,32,50,11,18,142,,159,158,16,18,2,4,0.6,0.7
2024-06-02T2000,2845A,113.1569,36.1911,长治市,德盛苑,,46,20,45,12,17,146,,162,161,7,12,6,10,0.6,0.8
2024-06-02T2000,3568A,113.06,36.0464,长治市,向阳小学,颗粒物(PM10),52,53,60,23,27,144,,163,161,12,16,9,12,0.4,0.6
2024-06-02T2000,3569A,112.8792,36.3144,长治市,屯留一中,,47,34,44,20,21,150,,160,159,10,10,6,8,0.4,0.5
2024-06-02T2000,3570A,113.235,36.3489,长治市,潞城四中,,34,29,60,18,23,107,,164,157,14,13,7,8,0.4,0.5
2024-06-02T2000,1854A,111.6975,28.9703,常德市,市二中,,48,48,29,32,18,145,,166,166,17,12,8,8,0.6,0.5
2024-06-02T2000,1857A,111.7158,29.1456,常德市,白鹤山,,,,,,,,,,,,,,,,
2024-06-02T2000,3138A,111.7153,29.0289,常德市,武陵区永安,细颗粒物(PM2.5),55,45,29,39,18,158,,165,165,10,8,8,9,0.5,0.4
2024-06-02T2000,3139A,111.6892,28.9881,常德市,鼎城区玉霞,臭氧1小时,53,49,31,33,17,162,,168,168,9,11,8,7,0.5,0.4
2024-06-02T2000,3140A,111.6625,29.0531,常德市,武陵区长庚,细颗粒物(PM2.5),52,50,31,36,19,153,,162,162,10,8,9,10,0.6,0.5
2024-06-02T2000,1196A,119.9633,31.762,常州市,市监测站,,45,31,31,19,22,141,,164,164,22,22,7,7,0.5,0.6
2024-06-02T2000,1200A,119.9468,31.7069,常州市,武进监测站,,44,26,31,21,16,139,,161,161,21,16,17,18,0.4,0.5
2024-06-02T2000,1201A,119.9255,31.9087,常州市,安家,,40,35,38,21,21,128,,164,164,22,23,12,10,0.4,0.6
2024-06-02T2000,3002A,119.9805,31.8174,常州市,行政中心,,40,28,31,19,18,126,,160,160,15,16,9,10,0.5,0.8
2024-06-02T2000,3003A,120.0522,31.7748,常州市,经开区,,44,31,34,14,17,138,,161,161,25,24,11,9,0.4,0.6
2024-06-02T2000,3010A,119.9025,31.7964,常州市,钟楼,,44,28,25,13,15,140,,167,167,19,20,10,9,0.6,0.8
2024-06-02T2000,3429A,119.8598,31.7066,常州市,武进经发区,,47,20,29,8,14,149,,162,162,14,17,10,12,0.4,0.6
2024-06-02T2000,3430A,119.5826,31.7245,常州市,金坛城区,,47,32,31,6,14,150,,164,164,19,18,8,10,0.5,0.6
2024-06-02T2000,2220A,120.4318,41.5881,朝阳市,西梁,,32,22,33,11,15,100,,113,112,20,25,7,9,0.5,0.5
2024-06-02T2000,2221A,120.4521,41.5646,朝阳市,河畔小区,,38,22,35,10,15,120,,121,121,13,17,9,10,0.3,0.4
2024-06-02T2000,2222A,120.4176,41.5648,朝阳市,八里堡,,42,42,42,18,17,105,,116,115,20,27,8,8,0.8,0.7
2024-06-02T2000,2223A,120.3806,41.5969,朝阳市,农业园区,,37,26,31,6,24,117,,122,122,14,21,6,8,0.4,0.5
2024-06-02T2000,1705A,116.6367,23.6719,潮州市,西园路,,26,22,14,10,6,83,,49,49,12,10,1,1,0.6,0.5
2024-06-02T2000,3026A,116.6183,23.6608,潮州市,市政府,,29,13,13,7,6,92,,63,63,16,13,5,6,0.7,0.7
2024-06-02T2000,4036A,116.6461,23.6761,潮州市,金山,,26,,11,17,5,81,,55,55,11,9,7,7,0.8,0.7
2024-06-02T2000,2472A,113.0073,25.9061,郴州市,马头岭,,22,22,14,3,7,65,,84,84,16,5,3,3,0.6,0.6
2024-06-02T2000,2473A,113.0116,25.8226,郴州市,市职中,,22,16,8,10,6,70,,92,92,10,5,6,5,0.7,0.6
2024-06-02T2000,2474A,113.0161,25.8001,郴州市,兴隆步行街,,27,27,10,13,5,74,,90,90,12,5,7,6,0.6,0.6
2024-06-02T2000,2475A,113.0383,25.8071,郴州市,市审计局,,21,14,7,10,7,66,,88,86,9,6,3,2,0.6,0.6
2024-06-02T2000,2476A,113.0348,25.7759,郴州市,市环保局,,20,20,18,11,5,52,,81,78,14,7,4,3,0.6,0.5
2024-06-02T2000,1431A,103.9728,30.7236,成都市,金泉两河,,49,43,32,34,16,102,,108,108,10,5,1,1,0.4,0.3
2024-06-02T2000,1432A,104.176,30.6872,成都市,十里店,,38,38,28,16,14,108,,107,107,11,11,3,3,0.5,0.5
2024-06-02T2000,1433A,104.079,30.5706,成都市,三瓦窑,,36,36,32,24,18,100,,104,104,7,6,2,2,0.3,0.2
2024-06-02T2000,1434A,104.1114,30.63,成都市,沙河铺,,46,46,31,24,14,103,,107,107,12,11,6,6,0.4,0.3
2024-06-02T2000,1437A,104.0786,30.6531,成都市,君平街,,42,42,28,12,15,103,,113,113,12,7,4,5,0.5,0.5
2024-06-02T2000,1438A,103.613,31.0283,成都市,灵岩寺,,,,,,,,,,,,,,,,
2024-06-02T2000,2880A,104.0239,30.65639,成都市,大石西路,,37,37,28,15,13,104,,114,114,12,8,3,3,0.5,0.4
2024-06-02T2000,3136A,104.2725,30.5589,成都市,龙泉驿区区政府,,,,18,,11,,,90,,,8,,3,,0.3
2024-06-02T2000,3357A,104.0106,30.6931,成都市,金博路,,40,34,26,28,14,103,,111,111,6,6,1,2,0.3,0.3
2024-06-02T2000,3359A,104.0578,30.5225,成都市,华阳,,35,24,25,24,22,104,,102,102,7,8,2,2,0.6,0.6
2024-06-02T2000,3487A,104.2394,30.5319,成都市,车城东七路,,34,30,33,22,21,106,,96,96,7,9,2,2,0.5,0.5
2024-06-02T2000,3488A,104.3853,30.7453,成都市,青白江技师分院,,36,36,20,23,10,102,,104,104,7,8,3,4,0.5,0.5
2024-06-02T2000,3489A,104.0789,30.4072,成都市,科学城,,31,30,33,20,16,97,,106,106,5,9,2,2,0.3,0.3
2024-06-02T2000,4011A,103.8506,30.6947,成都市,光华大道三段,,42,42,30,12,12,119,,120,120,5,4,3,3,0.5,0.5
2024-06-02T2000,1062A,117.9531,40.9081,承德市,铁路,,45,45,26,14,9,87,,116,113,20,24,7,8,0.2,0.2
2024-06-02T2000,1063A,117.9392,40.9763,承德市,中国银行,,37,37,27,14,10,94,,114,112,10,18,8,9,0.2,0.2
2024-06-02T2000,1064A,117.9503,40.928,承德市,开发区,,39,39,34,15,15,77,,116,111,25,19,6,6,0.2,0.2
2024-06-02T2000,1065A,117.8051,40.9655,承德市,文化中心,,39,39,37,23,9,82,,120,115,21,27,7,12,0.3,0.3
2024-06-02T2000,1066A,117.9268,41.0026,承德市,离宫,,48,48,21,15,15,71,,110,105,7,13,3,3,0.2,0.2
2024-06-02T2000,2314A,117.47,30.6618,池州市,池州学院,,32,24,39,12,22,102,,119,112,31,15,16,7,0.4,0.5
2024-06-02T2000,3237A,117.4918,30.6617,池州市,展览馆,,32,22,37,14,22,102,,118,110,28,13,8,4,0.5,0.6
2024-06-02T2000,3333A,117.5627,30.695,池州市,第八中学,,30,21,35,8,18,94,,117,107,35,13,10,4,0.6,0.7
2024-06-02T2000,3334A,117.5038,30.6243,池州市,第十二中学,,29,18,23,7,15,92,,120,110,32,15,7,5,0.4,0.6
2024-06-02T2000,1744A,118.9233,42.2816,赤峰市,松山一中,,34,34,23,6,7,64,,92,83,34,27,7,8,0.8,0.6
2024-06-02T2000,1745A,118.9576,42.2728,赤峰市,哈达街,,32,32,21,11,10,61,,96,89,34,19,7,8,0.5,0.4
2024-06-02T2000,1746A,118.8788,42.2554,赤峰市,天义路,,24,,14,6,8,76,,101,95,28,19,5,7,0.2,0.2
2024-06-02T2000,3058A,119.2658,42.0353,赤峰市,银河街,,28,17,37,8,22,89,,106,103,15,24,10,18,0.2,0.4
2024-06-02T2000,3286A,118.9359,42.3147,赤峰市,桥北物流园区,,46,33,20,32,17,68,,100,93,33,25,4,5,0.0,0.2
2024-06-02T2000,2521A,107.3476,22.4136,崇左市,市环保局江州分局,,49,49,42,27,27,108,,124,124,6,12,5,5,0.5,0.5
2024-06-02T2000,2522A,107.3702,22.3707,崇左市,城南新区,,39,39,34,24,26,93,,116,116,8,11,4,5,0.7,0.7
2024-06-02T2000,2298A,118.3093,32.3153,滁州市,老年大学,,39,37,40,15,17,124,,146,146,21,25,12,13,0.5,0.5
2024-06-02T2000,2299A,118.3244,32.2786,滁州市,人大宾馆,,41,41,37,19,14,116,,143,143,28,28,6,8,0.6,0.6
2024-06-02T2000,3207A,118.3118,32.3038,滁州市,市政府原办公楼,,45,45,39,25,19,111,,145,144,33,27,6,8,0.7,0.5
2024-06-02T2000,3331A,118.3267,32.2634,滁州市,图书馆,,36,34,37,19,12,115,,144,144,27,24,7,9,0.9,0.9
2024-06-02T2000,2605A,101.5482,25.0441,楚雄彝族自治州,州环境监测站,,36,36,22,14,14,93,,96,96,5,3,5,5,0.4,0.5
2024-06-02T2000,2606A,101.538,25.0492,楚雄彝族自治州,市经济开发区,,49,49,21,20,14,89,,92,92,8,5,4,4,0.5,0.6
2024-06-02T2000,2548A,107.5277,31.2827,达州市,达州职业技术学院,,34,34,37,6,14,44,,98,83,31,27,2,5,0.3,0.3
2024-06-02T2000,2549A,107.5086,31.2186,达州市,市环境监测站,,30,19,38,9,17,93,,105,101,17,28,4,8,0.4,0.5
2024-06-02T2000,2550A,107.4988,31.2132,达州市,凤凰小区,,31,22,35,17,18,97,,112,106,16,25,5,9,0.4,0.4
2024-06-02T2000,2551A,107.5082,31.1986,达州市,达县机关宾馆,,27,27,40,3,23,62,,106,93,40,33,3,8,0.5,0.6
2024-06-02T2000,2552A,107.4644,31.2124,达州市,市政中心,,41,41,40,9,18,93,,110,104,17,25,5,9,0.4,0.4
2024-06-02T2000,2614A,100.1542,25.7054,大理白族自治州,大理市环境监测站,,,44,41,21,19,94,,94,94,,10,5,5,0.6,0.4
2024-06-02T2000,2615A,100.2171,25.5811,大理白族自治州,大理古城,,40,39,30,28,18,52,,91,82,29,12,7,6,0.8,0.7
2024-06-02T2000,1109A,121.612,38.9741,大连市,甘井子,颗粒物(PM10),60,70,41,42,21,113,,169,159,45,34,10,8,0.8,0.7
2024-06-02T2000,1110A,121.565,38.9511,大连市,周水子,细颗粒物(PM2.5),62,67,37,44,21,93,,163,151,52,34,9,10,0.7,0.7
2024-06-02T2000,1111A,121.5637,38.8845,大连市,星海三站,颗粒物(PM10),53,56,38,34,25,123,,159,146,32,20,11,9,0.6,0.6
2024-06-02T2000,1112A,121.6302,38.9117,大连市,青泥洼桥,细颗粒物(PM2.5),57,58,35,40,21,132,,160,152,28,26,12,10,0.7,0.7
2024-06-02T2000,1113A,121.6251,38.8638,大连市,傅家庄,颗粒物(PM10),52,53,41,34,27,117,,142,130,36,19,11,10,0.8,0.8
2024-06-02T2000,1114A,121.5213,38.8661,大连市,七贤岭,颗粒物(PM10),59,68,38,34,22,111,,150,136,40,26,10,8,0.6,0.5
2024-06-02T2000,1115A,121.2529,38.8061,大连市,旅顺,,47,47,43,31,31,112,,183,170,51,28,13,12,0.6,0.7
2024-06-02T2000,1116A,121.7485,39.1311,大连市,金州,细颗粒物(PM2.5),63,69,39,45,20,128,,185,173,43,20,12,9,1.1,0.9
2024-06-02T2000,1117A,121.7811,39.0496,大连市,开发区,细颗粒物(PM2.5),53,50,46,37,28,135,,177,169,44,38,10,12,0.6,0.6
2024-06-02T2000,1118A,121.9762,39.0631,大连市,双D港,,44,42,34,24,22,139,,165,165,33,24,15,11,0.7,0.7
2024-06-02T2000,1789A,124.81117,46.03138,大庆市,大同区,颗粒物(PM10),66,82,29,29,24,70,,109,105,43,14,7,7,0.5,0.4
2024-06-02T2000,1790A,125.129,46.533,大庆市,龙凤区,颗粒物(PM10),54,58,37,24,26,101,,111,110,20,21,12,5,0.3,0.3
2024-06-02T2000,1791A,124.902,46.408,大庆市,红岗区,,32,28,22,22,16,102,,118,117,14,10,8,8,0.3,0.3
2024-06-02T2000,1792A,125.153,46.586,大庆市,萨尔图区,,35,35,29,20,18,92,,111,109,18,17,6,7,0.3,0.2
2024-06-02T2000,1793A,124.9042,46.6215,大庆市,让胡路区,,31,28,33,16,15,98,,108,107,11,14,6,7,0.3,0.3
2024-06-02T2000,3481A,125.141,46.634,大庆市,萨区政府监测点,,32,32,30,8,13,96,,118,116,15,17,8,9,0.2,0.2
2024-06-02T2000,1721A,113.3819,40.1097,大同市,果树场,,,,,,,,,,,,,,,,
2024-06-02T2000,1723A,113.2994,40.0758,大同市,云冈宾馆,,43,43,56,17,18,104,,134,120,25,23,6,8,0.4,0.4
2024-06-02T2000,1724A,113.3444,40.0917,大同市,大同大学,,32,26,38,17,14,100,,132,119,23,20,8,8,0.4,0.5
2024-06-02T2000,1725A,113.2661,40.1269,大同市,安家小村,,42,42,58,15,16,89,,127,110,25,17,10,11,0.6,0.6
2024-06-02T2000,1726A,113.2711,40.0844,大同市,教育学院,,35,35,60,23,23,102,,132,117,27,25,7,9,0.7,0.7
2024-06-02T2000,3282A,113.3397,40.0597,大同市,大同市卫生学校,,36,36,49,20,18,105,,136,123,19,20,8,9,0.5,0.5
2024-06-02T2000,3565A,113.1367,40.1122,大同市,云冈站,,36,36,58,17,23,81,,130,112,23,15,7,10,0.5,0.4
2024-06-02T2000,3566A,113.1186,40.2556,大同市,图书馆,,33,33,62,18,23,92,,136,120,27,16,18,10,0.7,0.5
2024-06-02T2000,3567A,113.5931,40.0461,大同市,区一中,,33,23,42,3,12,104,,145,137,26,18,4,7,0.5,0.4
2024-06-02T2000,3676A,113.2802,40.0995,大同市,第二人民医院,,35,35,57,21,17,101,,137,120,22,17,10,12,0.5,0.5
2024-06-02T2000,2269A,124.1069,50.4097,大兴安岭地区,科技局,,29,27,25,20,19,92,,91,91,3,4,4,4,0.2,0.2
2024-06-02T2000,3663A,124.1164,50.4278,大兴安岭地区,红旗社区,,29,,20,9,17,91,,93,93,4,8,5,5,0.4,0.4
2024-06-02T2000,1600A,124.3303,40.0625,丹东市,江湾东路,,28,28,22,18,13,58,,117,110,26,14,8,8,0.6,0.4
2024-06-02T2000,1601A,124.4256,40.1503,丹东市,临江后街,,29,11,13,3,5,92,,105,104,13,10,10,8,0.3,0.3
2024-06-02T2000,1602A,124.3933,40.1461,丹东市,元宝山,,29,23,28,3,8,90,,91,91,11,13,9,9,0.4,0.3
2024-06-02T2000,1603A,124.3633,40.1092,丹东市,民主桥,,25,25,21,12,10,74,,106,104,18,13,6,6,0.4,0.3
2024-06-02T2000,3541A,109.5726,19.5167,儋州市,第一中学子站,,34,34,22,12,12,66,,69,69,2,4,4,3,0.5,0.7
2024-06-02T2000,3542A,109.5567,19.5187,儋州市,东坡学校子站,,21,18,22,8,9,65,,70,70,2,4,4,4,0.5,0.6
2024-06-02T2000,2616A,98.5842,24.428,德宏傣族景颇族自治州,德宏州监测站,,37,37,39,19,21,82,,82,82,13,10,23,15,0.8,0.8
2024-06-02T2000,3677A,98.5881,24.4368,德宏傣族景颇族自治州,芒市人民政府综合楼,,39,39,45,20,22,80,,78,78,11,8,17,7,0.7,0.8
2024-06-02T2000,1901A,104.4239,31.1208,德阳市,东山公园,,32,27,26,20,11,102,,106,106,6,6,1,1,0.4,0.3
2024-06-02T2000,1902A,104.3826,31.1317,德阳市,西小区,,32,24,22,17,13,101,,106,106,10,9,1,2,0.4,0.4
2024-06-02T2000,1904A,104.3553,31.1091,德阳市,耐火材料厂,,33,28,21,18,11,103,,117,117,11,6,3,2,0.4,0.4
2024-06-02T2000,3639A,104.4019,31.1244,德阳市,市教育局,,31,26,25,20,11,98,,103,103,8,8,1,2,0.4,0.4
2024-06-02T2000,1622A,116.3032,37.4674,德州市,儿童乐园,颗粒物(PM10),86,122,97,34,23,178,,185,185,26,19,12,11,0.7,0.6
2024-06-02T2000,1624A,116.2991,37.4451,德州市,监理站,颗粒物(PM10),92,134,93,31,20,191,,203,203,24,17,14,14,0.5,0.4
2024-06-02T2000,3066A,116.2721,37.4379,德州市,九衢泉纯净水厂,颗粒物(PM10),97,144,88,34,21,138,,184,184,54,25,9,10,0.6,0.5
2024-06-02T2000,3371A,116.3728,37.4403,德州市,开发区人民医院,臭氧1小时,88,122,97,31,20,190,,196,196,23,21,12,12,0.7,0.5
2024-06-02T2000,3372A,116.3572,37.4094,德州市,太阳城中学,臭氧1小时,77,97,85,29,25,181,,194,194,23,21,11,11,0.6,0.5
2024-06-02T2000,3511A,116.5652,37.3319,德州市,陵城艺术中心,颗粒物(PM10),90,129,99,27,21,189,,200,200,20,20,11,11,0.6,0.6
2024-06-02T2000,2621A,99.7056,27.8317,迪庆藏族自治州,迪庆州站,,36,26,19,11,11,115,,126,126,8,8,8,8,0.3,0.3
2024-06-02T2000,3180A,99.7136,27.8094,迪庆藏族自治州,质量技术监督局,,35,31,25,9,8,109,,118,117,9,9,7,7,0.5,0.5
2024-06-02T2000,2663A,104.6241,35.5734,定西市,东关小学,,45,42,50,26,22,143,,146,146,7,14,6,6,0.2,0.3
2024-06-02T2000,2664A,104.6194,35.5934,定西市,供电公司,,38,36,38,26,26,116,,128,128,16,12,3,2,0.2,0.2
2024-06-02T2000,1389A,113.7547,23.0494,东莞市,莞城梨川,颗粒物(PM10),65,79,24,45,16,119,,168,168,20,19,6,6,1.4,1.1
2024-06-02T2000,1390A,113.7944,23.0128,东莞市,东城石井,,38,28,21,19,13,119,,185,185,17,16,5,6,1.0,0.9
2024-06-02T2000,1391A,113.7383,22.9658,东莞市,南城西平,颗粒物(PM10),58,65,24,34,12,150,,178,178,32,17,5,4,1.0,0.9
2024-06-02T2000,3319A,113.7338,23.0381,东莞市,万江金泰,,42,28,23,15,14,134,,171,171,18,17,11,11,1.1,1
2024-06-02T2000,3626A,113.7533,23.0202,东莞市,南城元岭,,47,39,34,19,16,148,,179,179,21,15,8,7,1.0,0.9
2024-06-02T2000,3627A,113.7875,23.0457,东莞市,东城主山,,41,18,22,10,14,130,,174,174,12,13,7,8,0.9,0.9
2024-06-02T2000,1666A,118.6614,37.4309,东营市,市环保局,臭氧1小时,119,68,78,31,27,237,,230,230,14,33,15,18,0.4,0.4
2024-06-02T2000,3036A,118.6904,37.4338,东营市,开发区管委会,臭氧1小时,119,83,80,36,23,237,,228,228,16,31,12,13,0.5,0.5
2024-06-02T2000,3365A,118.5719,37.565,东营市,垦利区民丰路,臭氧1小时,106,83,77,31,26,211,,216,216,21,33,16,18,0.6,0.6
2024-06-02T2000,3498A,118.5055,37.8612,东营市,河口城区,臭氧1小时,102,83,80,37,26,203,,213,213,20,24,10,18,0.6,0.6
2024-06-02T2000,3646A,118.4978,37.4623,东营市,胜利站,臭氧1小时,115,93,76,29,23,229,,216,216,14,31,17,16,0.6,0.6
2024-06-02T2000,3734A,118.35,37.26,东营市,理想之城,臭氧1小时,102,70,80,29,25,203,,204,204,18,39,18,19,0.6,0.6
2024-06-02T2000,1591A,110.0023,39.8129,鄂尔多斯市,综合楼,颗粒物(PM10),69,88,75,27,19,152,,164,164,19,11,10,9,0.4,0.4
2024-06-02T2000,1592A,109.9486,39.8261,鄂尔多斯市,巴音孟克林场办事处,颗粒物(PM10),60,70,69,24,19,144,,153,153,16,11,9,9,0.7,0.6
2024-06-02T2000,1593A,109.7736,39.5986,鄂尔多斯市,康泽苑,颗粒物(PM10),57,63,78,17,27,158,,157,157,12,7,8,8,0.4,0.4
2024-06-02T2000,1594A,109.8119,39.5989,鄂尔多斯市,华泰汽车城,,41,41,75,17,23,105,,135,132,38,10,9,8,0.6,0.4
2024-06-02T2000,1595A,109.9734,39.7884,鄂尔多斯市,奥林花园,颗粒物(PM10),58,66,66,17,28,140,,145,145,18,14,7,6,0.5,0.5
2024-06-02T2000,2436A,114.8938,30.3994,鄂州市,市政府,,38,38,45,19,20,89,,146,131,28,21,4,8,0.7,0.7
2024-06-02T2000,2437A,114.8989,30.3714,鄂州市,赵家坝,,39,39,40,19,20,102,,152,140,11,17,7,9,0.5,0.6
2024-06-02T2000,3654A,114.8094,30.4089,鄂州市,精准医疗中心,,49,49,52,22,21,97,,150,136,24,25,6,7,0.3,0.4
2024-06-02T2000,2454A,109.4978,30.2981,恩施土家族苗族自治州,湖北民院,,39,32,32,27,24,49,,94,77,23,16,9,8,0.6,0.6
2024-06-02T2000,2455A,109.4707,30.2798,恩施土家族苗族自治州,州电力总公司,,29,29,30,20,23,65,,81,81,16,17,8,8,0.8,0.8
2024-06-02T2000,3549A,109.5061,30.3772,恩施土家族苗族自治州,龙凤新区,,26,26,30,18,19,48,,99,76,29,16,6,6,0.7,0.6
2024-06-02T2000,2499A,108.3411,21.6158,防城港市,沙万,,20,19,27,13,16,63,,102,83,9,13,6,9,0.7,0.8
2024-06-02T2000,2500A,108.3514,21.7731,防城港市,防城档案局,,18,18,28,11,17,57,,104,92,8,10,4,6,0.6,0.7
2024-06-02T2000,2501A,108.3506,21.6414,防城港市,大海花园,,23,23,28,6,15,64,,110,86,5,6,5,7,0.4,0.6
2024-06-02T2000,1371A,113.1294,23.0067,佛山市,湾梁,,28,19,20,15,12,89,,138,134,12,13,7,8,0.9,0.8
2024-06-02T2000,1372A,113.1083,23.0478,佛山市,华材职中,,22,22,17,15,11,61,,124,116,24,18,8,9,0.6,0.6
2024-06-02T2000,1373A,113.144,23.0453,佛山市,南海气象局,,23,19,22,16,12,54,,132,122,37,14,6,6,0.8,0.7
2024-06-02T2000,1374A,113.2881,22.8094,佛山市,顺德苏岗,,32,,13,17,8,102,,138,134,15,10,6,5,1.0,0.9
2024-06-02T2000,1376A,112.8383,22.8678,佛山市,高明孔堂,,30,30,21,12,11,76,,109,106,11,11,6,7,0.8,0.8
2024-06-02T2000,1377A,112.8836,23.1588,佛山市,三水监测站,,23,22,11,16,9,54,,98,92,31,18,5,6,0.8,0.7
2024-06-02T2000,1378A,112.867,23.185,佛山市,三水云东海,,22,22,17,11,12,47,,99,90,20,18,4,5,0.8,0.8
2024-06-02T2000,3625A,113.2544,22.7642,佛山市,容桂街道办,,35,27,13,22,13,109,,130,129,29,17,7,6,0.7,0.6
2024-06-02T2000,1280A,119.3903,26.0543,福州市,鼓山,,,,,,,,,,,,,,,,
2024-06-02T2000,1282A,119.2681,26.0504,福州市,师大,,29,10,5,3,1,90,,115,112,8,6,3,3,0.4,0.3
2024-06-02T2000,1283A,119.2984,26.1028,福州市,五四北路,,35,10,3,3,0,111,,125,122,8,9,3,3,0.3,0.4
2024-06-02T2000,1284A,119.2648,26.0768,福州市,杨桥西路,,33,6,6,3,1,105,,121,119,7,9,3,3,0.3,0.3
2024-06-02T2000,1285A,119.317,26.0746,福州市,紫阳,,33,6,6,3,2,105,,111,111,3,9,3,2,0.4,0.5
2024-06-02T2000,3048A,119.5799,26.0936,福州市,九龙,,30,8,7,3,0,95,,118,112,6,5,4,4,0.2,0.3
2024-06-02T2000,3526A,119.5189,25.9664,福州市,吴航,,31,6,3,3,2,99,,129,118,2,2,4,4,0.3,0.4
2024-06-02T2000,1755A,123.7977,41.8491,抚顺市,望花区,,26,,28,11,13,82,,96,96,22,26,5,7,0.3,0.4
2024-06-02T2000,1756A,123.9161,41.8822,抚顺市,顺城区,,29,29,28,15,12,56,,93,93,45,27,8,9,0.5,0.4
2024-06-02T2000,1757A,124.0436,41.8611,抚顺市,东洲区,,30,30,17,8,7,78,,95,95,21,15,6,6,0.2,0.2
2024-06-02T2000,1758A,123.9247,41.8642,抚顺市,新抚区,,23,15,24,8,10,73,,89,89,19,21,6,7,0.3,0.2
2024-06-02T2000,1759A,124.0972,41.8961,抚顺市,大伙房水库,,29,8,14,3,3,90,,95,95,13,13,6,6,0.1,0.1
2024-06-02T2000,1760A,123.7086,41.8391,抚顺市,沈抚新城,,25,16,28,6,13,80,,94,94,25,28,7,10,0.3,0.6
2024-06-02T2000,2376A,116.2127,28.0814,抚州市,桐源党溪,,27,27,23,12,6,79,,84,76,2,3,5,5,0.1,0.1
2024-06-02T2000,2377A,116.3544,27.9831,抚州市,市站,,24,19,17,7,6,74,,92,86,7,6,4,4,1.0,0.9
2024-06-02T2000,2378A,116.3565,27.963,抚州市,血防站,,24,16,21,9,7,74,,88,84,8,7,2,2,0.9,0.8
2024-06-02T2000,2379A,116.3564,28.0007,抚州市,采茶剧团,,21,15,14,7,7,66,,90,82,10,6,3,3,0.9,0.8
2024-06-02T2000,2380A,116.385,27.9647,抚州市,医学分院,,25,18,17,6,6,80,,94,90,5,5,7,5,0.8,0.7
2024-06-02T2000,2207A,121.6094,41.998,阜新市,工业园区,,42,29,50,16,23,134,,133,132,18,32,19,13,0.7,1
2024-06-02T2000,2208A,121.6697,42.0279,阜新市,长青街,,38,25,30,24,22,120,,118,118,18,29,18,20,0.6,1.1
2024-06-02T2000,2209A,121.6673,42.0705,阜新市,农业园区,,37,33,47,17,21,116,,121,121,22,26,27,20,0.4,1.2
2024-06-02T2000,2210A,121.6717,42.0224,阜新市,东苑,,42,33,54,24,24,134,,127,127,23,37,12,26,0.7,1.4
2024-06-02T2000,2211A,121.6506,42.0498,阜新市,玉龙新城,,37,33,48,14,19,118,,121,119,28,35,27,13,0.6,1.3
2024-06-02T2000,2301A,115.8277,32.8929,阜阳市,市监测站,颗粒物(PM10),56,61,58,20,20,80,,117,110,32,22,8,9,0.4,0.4
2024-06-02T2000,2303A,115.8554,32.8605,阜阳市,开发区,颗粒物(PM10),79,107,65,19,14,79,,124,114,39,21,6,8,0.4,0.3
2024-06-02T2000,2875A,115.784,32.8892,阜阳市,阜阳职业技术学院,颗粒物(PM10),51,52,44,13,15,74,,120,110,44,19,6,7,0.4,0.3
2024-06-02T2000,3468A,115.7901,32.8613,阜阳市,市规划展馆,,46,46,47,12,14,92,,119,113,28,16,5,7,0.4,0.4
2024-06-02T2000,3469A,115.836,32.9183,阜阳市,枣园社区,,49,49,44,12,13,80,,122,112,36,19,5,8,0.4,0.4
2024-06-02T2000,2669A,102.9099,34.9841,甘南藏族自治州,州政府,,40,35,28,28,21,128,,127,127,8,7,9,8,0.8,0.7
2024-06-02T2000,3380A,102.8914,34.9617,甘南藏族自治州,甘肃民族师范学院,,48,48,31,29,16,138,,129,129,3,9,8,8,0.5,0.5
2024-06-02T2000,2570A,101.9603,30.0475,甘孜藏族自治州,水桥子,,24,,15,11,10,76,,84,82,6,12,3,3,0.3,0.3
2024-06-02T2000,3065A,101.9533,29.9972,甘孜藏族自治州,州环保局,,22,11,18,3,5,69,,80,79,14,15,2,2,0.3,0.3
2024-06-02T2000,3414A,115.8347,28.932,赣江新区,桑海产业园,,34,12,17,3,9,107,,118,117,17,17,9,9,0.4,0.5
2024-06-02T2000,2362A,114.9017,25.9149,赣州市,通天岩,,,,,,,,,,,,,,,,
2024-06-02T2000,2363A,114.9367,25.8664,赣州市,地委,,29,21,10,11,7,92,,93,93,2,3,10,14,0.8,0.8
2024-06-02T2000,2364A,114.9461,25.8481,赣州市,气象台,,26,23,11,13,8,82,,91,90,6,8,9,12,0.4,0.4
2024-06-02T2000,2365A,114.9322,25.8333,赣州市,市图书馆,,30,23,14,12,8,93,,97,97,6,4,4,8,0.7,0.7
2024-06-02T2000,2366A,114.8905,25.8471,赣州市,华坚鞋城,,28,23,16,9,5,88,,92,92,9,6,2,4,0.3,0.3
2024-06-02T2000,3109A,115.0093,25.8613,赣州市,赣县区卫计委,,24,20,8,7,6,76,,88,87,11,5,7,5,0.6,0.6
2024-06-02T2000,2683A,106.2319,36.1417,固原市,马园,,34,34,23,10,12,52,,112,86,53,25,5,4,0.8,0.7
2024-06-02T2000,2684A,106.2792,36.0022,固原市,监测站,,30,22,16,14,15,94,,121,99,10,9,4,4,0.4,0.4
2024-06-02T2000,2685A,106.2375,36.0211,固原市,新区,,27,18,18,11,12,85,,116,92,16,9,4,4,0.4,0.3
2024-06-02T2000,3522A,106.2177,35.9959,固原市,原州区十五小,,29,21,26,14,16,90,,109,98,12,10,5,5,0.3,0.3
2024-06-02T2000,2543A,106.6308,30.5278,广安市,小平旧居,,,,,,,,,,,,,,,,
2024-06-02T2000,2544A,106.6303,30.4576,广安市,市委,,39,39,39,22,22,103,,95,95,11,11,7,7,0.5,0.5
2024-06-02T2000,2545A,106.6271,30.4663,广安市,友谊中学,,33,31,31,20,22,105,,97,97,13,13,6,6,0.5,0.6
2024-06-02T2000,2547A,106.6388,30.4551,广安市,广电花园,,32,29,33,21,21,102,,91,91,11,11,8,9,0.6,0.6
2024-06-02T2000,2902A,106.6351,30.4865,广安市,北辰小学,,32,32,36,18,21,100,,90,90,10,10,8,8,0.5,0.5
2024-06-02T2000,2523A,105.8945,32.4535,广元市,黑石坡,,27,10,16,6,6,85,,80,80,7,9,8,8,0.4,0.3
2024-06-02T2000,2524A,105.821,32.4444,广元市,老城,,32,27,23,11,9,102,,99,99,8,18,2,5,0.4,0.5
2024-06-02T2000,2526A,105.8628,32.4287,广元市,监测站,,34,21,21,16,11,106,,98,98,6,11,5,6,0.4,0.4
2024-06-02T2000,3617A,105.8047,32.4166,广元市,经开区,,32,27,29,22,17,102,,97,97,7,21,3,5,0.5,0.5
2024-06-02T2000,1345A,113.2347,23.1423,广州市,广雅中学,,27,25,22,13,17,84,,136,127,34,27,5,6,1.0,0.9
2024-06-02T2000,1346A,113.2612,23.105,广州市,市五中,,32,26,18,22,15,93,,140,134,20,17,4,4,0.8,0.8
2024-06-02T2000,1348A,113.3478,23.0916,广州市,广东商学院,,28,25,22,19,15,89,,144,138,35,24,4,4,0.7,0.7
2024-06-02T2000,1349A,113.4332,23.1047,广州市,市八十六中,,31,31,18,16,12,74,,150,141,29,20,4,4,1.0,1
2024-06-02T2000,1350A,113.3505,22.9483,广州市,番禺中学,,35,33,20,24,16,111,,158,158,25,18,6,6,0.9,0.8
2024-06-02T2000,1351A,113.2146,23.3916,广州市,花都师范,,23,16,16,11,12,71,,96,92,18,15,6,6,0.8,0.7
2024-06-02T2000,1352A,113.2597,23.1331,广州市,市监测站,,28,25,20,18,13,88,,137,130,30,20,5,6,0.7,0.6
2024-06-02T2000,1353A,113.5618,23.312,广州市,九龙镇镇龙,,29,18,17,12,12,92,,118,117,10,16,6,6,0.7,0.7
2024-06-02T2000,1354A,113.2765,23.1544,广州市,麓湖,,27,27,20,17,13,77,,133,123,14,16,3,3,0.7,0.7
2024-06-02T2000,1355A,113.443,23.3035,广州市,帽峰山森林公园,,26,12,11,10,7,82,,124,116,10,14,6,6,0.7,0.7
2024-06-02T2000,2846A,113.3221,23.1322,广州市,体育西,,38,32,20,26,16,91,,138,132,18,15,4,4,0.8,0.7
2024-06-02T2000,3298A,113.5717,23.5491,广州市,从化街口,,23,23,14,12,9,69,,91,91,12,14,7,6,0.8,0.7
2024-06-02T2000,3299A,113.3472,23.3692,广州市,白云竹料,,48,48,20,30,13,73,,119,110,18,24,4,5,0.9,0.8
2024-06-02T2000,3300A,113.2981,23.237,广州市,白云嘉禾,,30,30,19,17,12,69,,118,110,33,26,5,6,1.0,0.9
2024-06-02T2000,3301A,113.4256,23.1716,广州市,黄埔科学城,,27,27,19,14,12,66,,132,122,16,16,7,7,0.8,0.8
2024-06-02T2000,3302A,113.3942,23.0483,广州市,番禺大学城,,26,13,12,12,11,81,,123,119,24,20,3,3,0.7,0.7
2024-06-02T2000,3303A,113.4922,22.8168,广州市,南沙黄阁,,50,45,25,35,18,130,,155,155,20,19,6,7,1.0,0.9
2024-06-02T2000,3304A,113.5342,22.7896,广州市,南沙街,颗粒物(PM10),53,56,25,31,16,104,,146,145,23,17,6,7,0.8,0.8
2024-06-02T2000,3443A,113.2902,23.5544,广州市,花都梯面,,19,18,11,13,8,44,,98,89,16,8,5,4,0.8,0.8
2024-06-02T2000,3445A,113.7858,23.7478,广州市,从化良口,,18,18,9,11,6,39,,88,80,8,7,5,5,0.9,0.8
2024-06-02T2000,3446A,113.8051,23.2614,广州市,增城荔城,,32,,20,9,13,101,,147,145,14,16,6,5,0.7,0.6
2024-06-02T2000,2505A,109.568,23.1478,贵港市,德智高中,,,,,,,,,,,,,,,,
2024-06-02T2000,2506A,109.6047,23.0666,贵港市,江南子站,,39,39,46,25,25,108,,143,141,11,19,7,7,0.9,0.8
2024-06-02T2000,2507A,109.6014,23.0948,贵港市,贵城子站,,43,39,40,30,29,99,,138,135,9,13,7,8,0.5,0.6
2024-06-02T2000,2508A,109.5669,23.1065,贵港市,荷城子站,,36,36,34,14,13,73,,117,113,9,15,9,10,0.5,0.6
2024-06-02T2000,3405A,109.5886,23.1172,贵港市,新世纪学校,,36,36,34,22,17,77,,139,133,11,9,8,9,0.8,0.9
2024-06-02T2000,1439A,106.6899,26.5998,贵阳市,马鞍山,,13,7,24,3,14,39,,56,47,10,9,6,6,0.6,0.5
2024-06-02T2000,1440A,106.6971,26.5694,贵阳市,市环保站,,14,9,37,8,26,37,,74,44,28,23,4,4,0.5,0.4
2024-06-02T2000,1441A,106.6243,26.6266,贵阳市,鉴湖路,,15,9,29,3,17,47,,60,51,12,12,2,2,0.5,0.5
2024-06-02T2000,1442A,106.7487,26.6343,贵阳市,燕子冲,,14,,24,7,17,44,,70,53,12,10,5,6,0.6,0.5
2024-06-02T2000,1443A,106.6555,26.4365,贵阳市,碧云窝,,17,17,36,9,16,48,,59,56,18,14,4,5,0.5,0.6
2024-06-02T2000,1444A,106.694,26.5161,贵阳市,中院村,,18,17,32,12,16,37,,62,44,16,15,6,6,0.7,0.5
2024-06-02T2000,1445A,106.7109,26.6027,贵阳市,红边门,,18,12,32,12,23,36,,67,46,22,18,4,4,0.7,0.5
2024-06-02T2000,1446A,106.7164,26.5699,贵阳市,新华路,,18,,30,12,19,50,,73,53,12,14,6,6,0.5,0.4
2024-06-02T2000,1447A,106.674,26.5424,贵阳市,太慈桥,,17,17,26,3,14,40,,74,53,15,14,5,6,0.5,0.4
2024-06-02T2000,1552A,106.805,26.3003,贵阳市,桐木岭,,,,,,,,,,,,,,,,
2024-06-02T2000,1862A,110.4144,25.3167,桂林市,电子科大尧山校区,,26,24,14,16,9,81,,88,88,7,5,6,6,0.7,0.8
2024-06-02T2000,1863A,110.2819,25.2697,桂林市,监测站,,23,19,16,13,11,73,,96,94,11,8,6,6,0.8,0.9
2024-06-02T2000,1864A,110.3089,25.2708,桂林市,龙隐路小学,,,16,11,,,75,,91,90,7,6,12,7,0.9,0.9
2024-06-02T2000,1865A,110.2869,25.2178,桂林市,八中,,23,20,15,11,7,73,,98,96,8,7,6,6,0.9,0.9
2024-06-02T2000,3403A,110.1764,25.2381,桂林市,创业大厦,,27,12,18,12,11,86,,111,109,9,11,8,18,0.6,0.7
2024-06-02T2000,3531A,110.296,25.1253,桂林市,旅游学院,,26,22,9,14,6,81,,108,105,8,7,8,9,0.8,0.7
2024-06-02T2000,2674A,100.2561,34.4714,果洛藏族自治州,玛沁县大武镇,,32,17,11,15,12,101,,116,115,4,3,7,9,0.4,0.4
2024-06-02T2000,1129A,126.5422,45.755,哈尔滨市,岭北,,28,14,24,11,18,89,,105,105,16,29,8,10,0.8,1
2024-06-02T2000,1130A,126.561,45.8167,哈尔滨市,松北商大,,29,29,31,11,15,55,,84,83,26,21,5,5,0.5,0.6
2024-06-02T2000,1131A,126.979,45.5419,哈尔滨市,阿城会宁,,30,30,13,19,8,58,,68,68,16,10,9,10,0.6,0.4
2024-06-02T2000,1132A,126.599,45.7222,哈尔滨市,南岗学府路,,37,37,54,7,25,72,,84,84,17,29,8,8,0.6,1
2024-06-02T2000,1133A,126.689,45.7733,哈尔滨市,太平宏伟公园,,36,36,39,16,22,70,,81,81,26,35,7,7,0.4,0.6
2024-06-02T2000,1134A,126.635,45.7667,哈尔滨市,道外承德广场,,40,40,44,19,24,54,,78,76,40,39,8,8,0.3,0.5
2024-06-02T2000,1135A,126.685,45.7319,哈尔滨市,香坊红旗大街,颗粒物(PM10),51,51,43,30,28,54,,80,77,36,34,11,14,0.7,1
2024-06-02T2000,1136A,126.6411,45.7258,哈尔滨市,动力和平路,,26,26,35,8,18,69,,79,79,19,31,8,10,0.5,0.8
2024-06-02T2000,1137A,126.593,45.7478,哈尔滨市,道里建国路,,33,33,42,17,24,58,,81,80,28,37,9,11,0.6,1.1
2024-06-02T2000,1138A,126.615,45.61,哈尔滨市,平房东轻厂,,35,35,26,10,12,48,,79,76,32,25,6,8,0.2,0.4
2024-06-02T2000,1139A,126.595,45.9855,哈尔滨市,呼兰师专,颗粒物(PM10),57,64,33,21,28,60,,90,88,43,27,6,6,0.4,0.5
2024-06-02T2000,1140A,126.6206,45.6842,哈尔滨市,省农科院,,24,24,27,11,16,55,,84,82,32,36,7,8,0.5,0.8
2024-06-02T2000,2688A,93.5128,42.8172,哈密市,地区监测站,,42,31,32,14,14,132,,132,132,10,7,3,5,0.3,0.3
2024-06-02T2000,2689A,93.4961,42.8328,哈密市,哈密师范学校,,,40,33,16,12,122,,125,125,9,7,4,5,,0.1
2024-06-02T2000,2671A,100.9048,36.9639,海北藏族自治州,海晏县西海镇,,41,25,23,19,20,130,,134,134,8,11,12,14,0.4,0.4
2024-06-02T2000,3867A,102.0738,36.5056,海东市,平安区公安北苑,,49,49,39,26,26,136,,146,146,16,16,10,9,0.4,0.5
2024-06-02T2000,1409A,110.576,19.9507,海口市,东寨港,,,,,,,,,,,,,,,,
2024-06-02T2000,1410A,110.3232,20.0574,海口市,海南大学,,20,16,18,8,12,63,,89,84,13,11,4,4,0.2,0.4
2024-06-02T2000,1411A,110.283,20.0053,海口市,秀英海南医院,,19,19,21,8,14,43,,82,74,16,13,6,6,0.3,0.4
2024-06-02T2000,1412A,110.338,19.9969,海口市,海南师范大学,,18,18,19,7,12,53,,88,80,7,10,6,6,0.4,0.5
2024-06-02T2000,1413A,110.33,20.0356,海口市,龙华路环保局宿舍,,18,18,21,12,13,54,,88,82,14,11,6,6,0.4,0.4
2024-06-02T2000,3539A,110.5111,19.9736,海口市,桂林洋子站,,15,11,20,6,11,47,,84,75,6,7,5,5,0.3,0.4
2024-06-02T2000,2673A,100.6188,36.2866,海南藏族自治州,共和县恰卜恰镇,,37,26,25,14,15,118,,122,122,12,12,12,11,0.5,0.5
2024-06-02T2000,2676A,97.3731,37.3753,海西蒙古族藏族自治州,德令哈市,,39,32,21,16,11,124,,131,131,8,9,17,16,0.5,0.5
2024-06-02T2000,1048A,114.5302,36.6116,邯郸市,东污水处理厂,臭氧1小时,52,40,69,24,31,161,,195,194,10,17,7,10,0.5,0.6
2024-06-02T2000,1049A,114.4918,36.5713,邯郸市,矿院,,49,39,75,22,29,155,,197,195,16,22,5,9,0.4,0.6
2024-06-02T2000,1050A,114.484,36.6133,邯郸市,丛台公园,,48,43,79,16,25,153,,196,194,9,18,4,8,0.3,0.7
2024-06-02T2000,3458A,114.7895,36.5593,邯郸市,香泉濮院小区,臭氧1小时,75,78,109,26,27,180,,219,218,10,14,7,10,0.4,0.5
2024-06-02T2000,3579A,114.50634,36.77178,邯郸市,永年区实验高中,,49,29,90,25,31,154,,200,197,5,13,3,12,0.3,0.6
2024-06-02T2000,3580A,114.20016,36.44293,邯郸市,峰峰矿区临水派出所,臭氧1小时,65,54,70,20,24,172,,201,201,8,8,7,7,0.6,0.5
2024-06-02T2000,2634A,106.9893,33.1842,汉中市,汉川机床厂子校,,36,32,30,19,19,114,,107,107,5,8,3,4,0.7,0.7
2024-06-02T2000,2635A,107.0154,33.0706,汉中市,市监测站,,44,44,47,30,30,102,,106,106,9,13,8,7,0.8,0.9
2024-06-02T2000,2636A,107.0089,33.1138,汉中市,鑫源开发区,,41,41,45,27,27,106,,108,108,10,16,9,9,0.5,0.7
2024-06-02T2000,2637A,107.007,33.0323,汉中市,南郑大河坎水厂,,49,49,46,33,28,97,,108,108,8,12,9,7,0.6,0.7
2024-06-02T2000,1223A,120.2072,30.2111,杭州市,滨江,,41,23,33,16,20,130,,141,141,15,12,5,5,0.4,0.4
2024-06-02T2000,1224A,120.0633,30.2747,杭州市,西溪,,45,,26,9,16,141,,140,140,18,14,6,6,0.5,0.6
2024-06-02T2000,1226A,120.3461,30.3153,杭州市,下沙,,40,26,34,6,16,125,,152,152,21,16,8,8,0.4,0.5
2024-06-02T2000,1227A,120.1269,30.2456,杭州市,卧龙桥,,37,19,23,13,18,118,,127,127,18,14,6,5,0.4,0.5
2024-06-02T2000,1228A,120.1903,30.2692,杭州市,浙江农大,,36,26,28,16,20,114,,131,131,10,7,6,6,0.3,0.4
2024-06-02T2000,1230A,120.1197,30.3119,杭州市,和睦小学,,40,22,27,22,18,126,,145,145,20,18,7,6,0.5,0.6
2024-06-02T2000,1231A,120.3019,30.4183,杭州市,临平镇,,39,28,34,13,19,123,,152,151,20,15,7,6,0.4,0.5
2024-06-02T2000,1232A,120.2697,30.1819,杭州市,城厢镇,,36,18,32,14,25,113,,138,138,30,19,6,6,0.5,0.6
2024-06-02T2000,1233A,120.0883,30.1808,杭州市,云栖,,38,21,28,8,16,120,,130,130,21,15,9,8,0.5,0.6
2024-06-02T2000,3557A,119.9464,30.0494,杭州市,镇二中,,42,26,25,11,18,132,,125,125,26,19,8,7,0.5,0.6
2024-06-02T2000,3558A,119.7183,30.2367,杭州市,市府大楼,,44,20,34,14,21,139,,147,147,29,19,7,6,0.5,0.6
2024-06-02T2000,3656A,120.1556,30.2864,杭州市,消防大队,,37,22,35,13,19,118,,140,140,24,19,6,6,0.5,0.6
2024-06-02T2000,1270A,117.1959,31.7848,合肥市,明珠广场,,48,48,47,22,23,107,,117,117,34,29,10,11,0.4,0.4
2024-06-02T2000,1271A,117.3072,31.8764,合肥市,三里街,,48,48,39,22,13,111,,113,113,32,27,7,6,0.5,0.5
2024-06-02T2000,1272A,117.2588,31.8707,合肥市,琥珀山庄,,46,46,34,22,14,124,,126,126,22,20,6,7,0.5,0.5
2024-06-02T2000,1273A,117.1604,31.9052,合肥市,董铺水库,,41,41,44,14,13,127,,124,124,18,15,3,2,0.4,0.3
2024-06-02T2000,1274A,117.25,31.8571,合肥市,长江中路,颗粒物(PM10),53,56,49,28,23,115,,119,119,27,24,7,9,0.7,0.7
2024-06-02T2000,1275A,117.266,31.9436,合肥市,庐阳区,颗粒物(PM10),59,68,47,29,16,109,,123,122,37,28,8,9,0.8,0.7
2024-06-02T2000,1276A,117.336,31.8586,合肥市,瑶海区,颗粒物(PM10),57,63,40,13,14,116,,116,116,21,20,10,9,0.5,0.5
2024-06-02T2000,1277A,117.3027,31.7964,合肥市,包河区,颗粒物(PM10),53,56,47,22,16,78,,99,93,59,55,5,6,0.4,0.5
2024-06-02T2000,1278A,117.2776,31.7385,合肥市,滨湖新区,颗粒物(PM10),51,51,43,17,22,99,,111,110,29,19,7,8,0.4,0.5
2024-06-02T2000,1279A,117.1318,31.8403,合肥市,高新区,颗粒物(PM10),51,51,40,20,19,104,,111,111,31,20,9,9,0.7,0.6
2024-06-02T2000,3464A,117.3803,31.9147,合肥市,高教基地,,45,45,36,14,11,119,,115,115,16,16,6,6,0.4,0.4
2024-06-02T2000,3614A,79.924,37.0877,和田地区,地区环保局,颗粒物(PM10),97,144,175,34,38,126,,123,123,2,4,6,7,0.5,0.4
2024-06-02T2000,3615A,79.9131,37.113,和田地区,市环保局,颗粒物(PM10),85,120,177,28,38,125,,125,125,7,10,5,6,0.4,0.6
2024-06-02T2000,2516A,108.2011,24.715,河池市,东仁乐园,,42,42,52,23,25,47,,72,70,12,9,3,4,0.5,0.5
2024-06-02T2000,2517A,108.0497,24.6947,河池市,市环保站,,30,30,34,21,24,66,,82,82,8,8,8,11,0.6,0.6
2024-06-02T2000,2518A,108.0983,24.6989,河池市,市疾控中心,,36,36,37,23,25,70,,81,81,14,13,6,9,0.6,0.5
2024-06-02T2000,1696A,114.6778,23.7569,河源市,源西,,,,,,,,,,,,,,,,
2024-06-02T2000,1697A,114.6944,23.7586,河源市,东埔,,27,27,11,8,5,50,,79,75,11,13,7,6,0.7,0.7
2024-06-02T2000,1698A,114.6892,23.7233,河源市,老城,,16,13,10,3,4,50,,80,76,5,7,5,5,0.8,0.7
2024-06-02T2000,1718A,115.4208,35.2464,菏泽市,气象局,颗粒物(PM10),166,281,151,41,25,172,,186,186,27,26,5,7,0.3,0.3
2024-06-02T2000,1719A,115.4747,35.2375,菏泽市,市政协,颗粒物(PM10),164,278,139,55,25,173,,185,185,19,16,4,5,0.3,0.2
2024-06-02T2000,3374A,115.5564,35.0891,菏泽市,定陶老年大学,颗粒物(PM10),129,207,113,58,15,146,,169,169,20,20,8,7,0.3,0
2024-06-02T2000,3647A,115.4702,35.2706,菏泽市,菏泽医专,颗粒物(PM10),165,280,128,39,13,183,,190,190,20,17,4,4,0.0,0
2024-06-02T2000,2514A,111.5264,24.4172,贺州市,环保小区,,28,28,12,11,5,77,,93,91,12,8,7,6,0.6,0.7
2024-06-02T2000,2515A,111.5608,24.4078,贺州市,政协大楼,,26,26,17,10,9,78,,96,94,11,9,6,6,0.8,0.8
2024-06-02T2000,3534A,111.4744,24.4553,贺州市,西湾,,25,25,12,11,6,78,,90,89,12,10,6,7,0.7,0.7
2024-06-02T2000,2385A,114.17,35.9019,鹤壁市,市监测站,"颗粒物(PM10),细颗粒物(PM2.5)",59,68,90,42,45,155,,190,188,20,20,11,11,0.6,0.7
2024-06-02T2000,2386A,114.2956,35.7511,鹤壁市,市交警支队,颗粒物(PM10),55,60,94,29,32,142,,203,201,14,30,10,12,0.4,0.5
2024-06-02T2000,2387A,114.2878,35.7306,鹤壁市,迎宾馆,颗粒物(PM10),60,69,117,30,39,141,,204,202,14,27,10,14,0.4,0.5
2024-06-02T2000,3474A,114.2617,35.6822,鹤壁市,大新区,颗粒物(PM10),79,108,147,45,39,125,,193,188,19,41,8,10,0.3,0.4
2024-06-02T2000,3596A,114.1572,35.9603,鹤壁市,南山宾馆,颗粒物(PM10),75,99,99,34,31,173,,200,200,12,16,7,9,0.6,0.6
2024-06-02T2000,2244A,130.2537,47.3416,鹤岗市,哈啤分公司,,29,29,18,13,9,50,,80,68,15,8,12,11,0.4,0.4
2024-06-02T2000,2245A,130.2684,47.3086,鹤岗市,斯达机电,,40,40,16,18,8,49,,71,65,23,12,13,12,0.5,0.4
2024-06-02T2000,2246A,130.3114,47.3388,鹤岗市,东山纸板厂,,,,18,20,13,6,,69,52,41,17,14,15,0.6,0.8
2024-06-02T2000,2247A,130.1097,47.3382,鹤岗市,五号水库,,20,20,15,10,6,29,,89,72,16,6,9,8,0.1,0.1
2024-06-02T2000,2263A,127.4833,50.2524,黑河市,交通局,,35,35,38,13,19,61,,74,72,16,14,7,13,0.3,0.3
2024-06-02T2000,2264A,127.5144,50.2341,黑河市,环保局,,35,35,29,24,22,66,,84,79,9,9,4,7,0.3,0.3
2024-06-02T2000,2265A,127.5291,50.2472,黑河市,大黑河岛,,,63,33,20,21,,,,,,,,,,
2024-06-02T2000,1074A,115.6838,37.7541,衡水市,电机北厂,臭氧1小时,106,107,82,39,25,211,,200,200,21,15,8,8,0.5,0.3
2024-06-02T2000,1075A,115.6303,37.7316,衡水市,市监测站,臭氧1小时,94,103,76,51,24,195,,200,200,22,18,7,8,0.7,0.5
2024-06-02T2000,3188A,115.6683,37.7217,衡水市,市城管局,臭氧1小时,95,122,89,41,26,196,,198,198,27,19,8,8,0.5,0.4
2024-06-02T2000,3459A,115.5989,37.5491,衡水市,地表水厂,颗粒物(PM10),94,138,97,30,23,182,,197,197,26,19,9,9,0.6,0.4
2024-06-02T2000,2456A,112.5003,26.9167,衡阳市,原169医院,,31,31,21,13,9,69,,96,93,32,11,6,6,0.7,0.7
2024-06-02T2000,2457A,112.6194,26.9258,衡阳市,衡阳化工总厂,,30,30,24,17,8,86,,112,111,16,9,8,8,0.6,0.6
2024-06-02T2000,2458A,112.6211,26.8956,衡阳市,珠晖区环保局,,37,37,23,15,10,103,,115,115,9,7,6,6,0.7,0.6
2024-06-02T2000,2459A,112.6197,26.8733,衡阳市,市委党校,,34,34,21,18,10,108,,120,119,11,8,9,8,0.7,0.6
2024-06-02T2000,2460A,112.6006,26.8919,衡阳市,市监测站,,47,47,20,29,14,103,,119,118,11,8,7,7,0.7,0.6
2024-06-02T2000,2461A,112.5664,26.9056,衡阳市,真空机电公司,,37,37,20,17,9,89,,109,109,17,9,7,7,0.8,0.6
2024-06-02T2000,3399A,112.6703,26.882,衡阳市,师范学院,,33,33,22,17,12,99,,118,116,10,9,8,7,0.7,0.6
2024-06-02T2000,2608A,103.3772,23.3993,红河哈尼族彝族自治州,污水处理厂,,38,,23,26,17,66,,70,69,6,7,4,5,0.4,0.5
2024-06-02T2000,2609A,103.3861,23.35,红河哈尼族彝族自治州,监测站,,22,12,15,11,13,68,,72,72,8,8,6,6,0.5,0.5
2024-06-02T2000,3038A,103.3758,23.368,红河哈尼族彝族自治州,州图书馆,,22,19,20,15,10,67,,71,70,6,6,3,4,0.4,0.4
2024-06-02T2000,1090A,111.6507,40.7517,呼和浩特市,呼市一监,颗粒物(PM10),52,53,104,26,33,122,,144,141,16,23,8,13,0.5,0.6
2024-06-02T2000,1091A,111.6572,40.8033,呼和浩特市,小召,颗粒物(PM10),53,56,102,20,27,124,,132,132,15,28,7,9,0.5,0.6
2024-06-02T2000,1094A,111.7516,40.8369,呼和浩特市,如意水处理厂,颗粒物(PM10),56,61,94,16,23,117,,134,133,11,31,5,8,0.3,0.4
2024-06-02T2000,1095A,111.7276,40.8062,呼和浩特市,二十九中,颗粒物(PM10),59,67,113,19,28,122,,140,138,12,24,3,6,0.4,0.5
2024-06-02T2000,1096A,111.5512,40.7866,呼和浩特市,工大金川校区,颗粒物(PM10),66,82,106,24,31,97,,130,124,24,31,6,8,0.4,0.5
2024-06-02T2000,1097A,111.717,40.7612,呼和浩特市,化肥厂生活区,颗粒物(PM10),62,73,112,20,31,113,,132,129,16,26,10,13,0.4,0.5
2024-06-02T2000,3698A,111.5968,40.8178,呼和浩特市,红旗小学,颗粒物(PM10),59,68,113,28,39,116,,137,134,24,39,5,7,0.4,0.4
2024-06-02T2000,3699A,111.6518,40.8389,呼和浩特市,海东办,颗粒物(PM10),58,66,109,26,34,122,,136,135,16,24,8,10,0.5,0.6
2024-06-02T2000,2192A,119.7594,49.2261,呼伦贝尔市,区环保局,颗粒物(PM10),52,54,55,32,35,83,,106,100,14,20,4,4,0.4,0.4
2024-06-02T2000,3061A,119.7512,49.1577,呼伦贝尔市,国华电力东,,45,45,36,21,19,86,,114,107,8,9,4,4,0.4,0.4
2024-06-02T2000,1250A,120.0751,30.8669,湖州市,城西水厂,,35,14,26,6,15,111,,130,127,27,17,4,4,0.5,0.5
2024-06-02T2000,2873A,120.0875,30.8955,湖州市,仁皇山新区,,34,16,27,7,17,107,,130,128,41,21,7,6,0.4,0.5
2024-06-02T2000,2907A,120.1844,30.8596,湖州市,吴兴区站,,36,22,24,7,15,115,,131,130,26,11,7,5,0.5,0.5
2024-06-02T2000,3562A,120.4148,30.8538,湖州市,南浔区站,,31,25,27,9,15,99,,139,135,32,16,8,8,0.3,0.3
2024-06-02T2000,1607A,120.9092,40.7136,葫芦岛市,龙港区,臭氧1小时,72,31,44,19,24,177,,168,168,11,25,12,14,0.5,0.7
2024-06-02T2000,1608A,120.8392,40.7514,葫芦岛市,化工街,,50,34,69,22,26,160,,157,157,20,20,13,26,0.9,1
2024-06-02T2000,1609A,120.8341,40.7073,葫芦岛市,新区,臭氧1小时,59,37,50,19,29,167,,172,172,20,43,11,16,0.8,0.9
2024-06-02T2000,1610A,120.8695,40.7677,葫芦岛市,东城区,臭氧1小时,70,79,58,22,29,176,,172,172,17,45,9,29,0.8,0.9
2024-06-02T2000,2482A,109.5981,27.5721,怀化市,林科所,,35,19,18,8,10,110,,116,115,3,4,4,5,0.6,0.5
2024-06-02T2000,2483A,109.9453,27.5444,怀化市,河西地税局,,32,32,26,17,14,97,,92,92,8,12,6,7,0.6,0.6
2024-06-02T2000,2484A,109.9781,27.5342,怀化市,市四医院,,30,26,23,16,16,96,,96,96,8,10,4,6,0.7,0.6
2024-06-02T2000,2485A,109.9972,27.5578,怀化市,监测楼,,29,27,26,18,15,92,,93,92,7,8,4,7,0.6,0.6
2024-06-02T2000,2486A,110.0394,27.583,怀化市,市委党校,,36,,26,25,18,92,,97,96,9,10,5,11,0.6,0.6
2024-06-02T2000,1210A,119.036,33.5981,淮安市,钵池山,,48,48,30,16,13,148,,148,148,26,23,9,7,0.9,0.6
2024-06-02T2000,1211A,119.007,33.575,淮安市,北京南路,颗粒物(PM10),63,75,40,19,14,123,,135,135,35,24,19,7,1.5,0.4
2024-06-02T2000,1212A,118.989,33.6067,淮安市,市监测站,颗粒物(PM10),70,90,40,41,17,113,,138,138,43,27,8,10,0.7,0.6
2024-06-02T2000,1213A,119.135,33.5039,淮安市,楚州区监测站,颗粒物(PM10),88,125,47,24,19,80,,137,133,68,32,10,9,0.7,0.6
2024-06-02T2000,1214A,119.0186,33.6297,淮安市,淮阴区监测站,,,80,38,19,14,124,,138,138,38,28,9,8,,0.5
2024-06-02T2000,3426A,118.8755,33.2894,淮安市,新华书店,颗粒物(PM10),56,61,34,23,15,132,,136,136,22,19,7,6,0.6,0.6
2024-06-02T2000,2282A,116.8004,33.975,淮北市,监测站,颗粒物(PM10),82,113,58,25,16,114,,137,136,18,19,7,8,0.4,0.4
2024-06-02T2000,2283A,116.8091,33.9007,淮北市,烈山区政府,颗粒物(PM10),122,194,100,16,15,89,,131,127,37,20,8,8,0.4,0.4
2024-06-02T2000,3330A,116.8873,33.9836,淮北市,杜集区检察院,颗粒物(PM10),93,135,77,24,17,117,,146,144,18,15,9,8,0.5,0.5
2024-06-02T2000,4017A,116.7923,33.9535,淮北市,市博物馆,颗粒物(PM10),81,111,65,23,17,109,,138,136,22,16,8,9,0.7,0.6
2024-06-02T2000,2277A,116.8305,32.7727,淮南市,潘集区政府,颗粒物(PM10),72,94,69,28,32,97,,119,117,33,20,9,11,0.3,0.3
2024-06-02T2000,2278A,117.0067,32.6524,淮南市,师范学院,颗粒物(PM10),62,74,49,15,16,115,,120,120,18,14,8,8,0.4,0.3
2024-06-02T2000,2279A,116.8569,32.5951,淮南市,谢家集区政府,颗粒物(PM10),75,100,46,20,15,68,,114,109,69,21,11,18,0.3,0.2
2024-06-02T2000,2280A,116.8281,32.633,淮南市,八公山区政府,颗粒物(PM10),57,64,44,21,15,102,,122,121,36,16,6,6,0.4,0.4
2024-06-02T2000,2281A,116.6325,32.6201,淮南市,焦岗湖风景区管理处,颗粒物(PM10),85,120,42,22,14,84,,92,91,42,31,6,7,0.2,0.2
2024-06-02T2000,2894A,117.0566,32.6531,淮南市,经济技术开发区消防队,颗粒物(PM10),56,61,48,20,16,123,,127,127,19,18,7,5,0.3,0.2
2024-06-02T2000,3329A,117.0108,32.5893,淮南市,山南新区,,,135,52,29,7,104,,126,125,31,15,7,7,,0.3
2024-06-02T2000,2446A,114.9028,30.4742,黄冈市,职工中心,颗粒物(PM10),51,51,47,27,28,104,,150,136,12,12,9,8,0.7,0.7
2024-06-02T2000,2929A,114.8858,30.4519,黄冈市,红卫路,,44,44,43,29,28,108,,155,140,16,17,10,9,0.7,0.7
2024-06-02T2000,3398A,114.9136,30.4445,黄冈市,市林业局,,42,42,39,26,28,108,,151,139,5,10,2,4,0.7,0.7
2024-06-02T2000,2672A,102.0199,35.5102,黄南藏族自治州,同仁县隆务镇,,37,37,29,20,15,115,,128,126,2,3,10,10,0.7,0.7
2024-06-02T2000,2295A,118.2903,29.6963,黄山市,延安路89号,,36,36,30,6,9,93,,118,110,8,6,5,5,0.5,0.4
2024-06-02T2000,2296A,118.327,29.7178,黄山市,黄山东路89号,,34,34,27,8,10,76,,115,104,10,6,5,5,0.4,0.3
2024-06-02T2000,2297A,118.1371,30.2756,黄山市,黄山区政府5号楼,,28,,24,19,14,53,,101,89,11,7,5,4,0.4,0.4
2024-06-02T2000,2423A,115.0601,30.2313,黄石市,沈家营,,33,33,32,16,15,104,,152,140,14,15,4,5,0.5,0.6
2024-06-02T2000,2424A,115.0817,30.2006,黄石市,陈家湾,,38,38,37,26,21,94,,157,141,27,17,4,7,0.5,0.6
2024-06-02T2000,2426A,114.8988,30.2019,黄石市,铁山,,39,37,31,14,19,123,,158,151,11,18,18,16,0.7,0.9
2024-06-02T2000,2427A,115.0307,30.2092,黄石市,团城山,,38,38,35,18,12,107,,152,142,11,10,11,12,0.5,0.6
2024-06-02T2000,3149A,115.0235,30.1578,黄石市,笔架山北路,,37,32,35,11,13,118,,168,154,8,10,6,10,0.5,0.7
2024-06-02T2000,1392A,114.4183,23.0528,惠州市,河南岸金山湖子站,,38,33,16,26,15,99,,146,146,27,10,4,4,0.9,0.6
2024-06-02T2000,1393A,114.4053,23.0822,惠州市,下埔横江三路子站,,42,24,18,14,11,132,,157,157,12,9,7,6,0.8,0.7
2024-06-02T2000,1394A,114.4103,23.1142,惠州市,江北云山西路子站,,40,20,15,15,8,125,,158,158,15,6,7,6,0.7,0.6
2024-06-02T2000,1395A,114.4645,22.7833,惠州市,惠阳区承修路船湖子站,,40,36,19,28,14,112,,131,131,18,15,4,3,0.8,0.6
2024-06-02T2000,1396A,114.5317,22.7422,惠州市,大亚湾管委会子站,,38,38,19,22,11,103,,126,126,30,19,6,4,1.0,0.8
2024-06-02T2000,3314A,114.4338,22.8134,惠州市,惠阳秋长,,44,41,24,24,12,138,,164,164,19,13,5,4,0.6,0.5
2024-06-02T2000,3452A,114.6517,22.775,惠州市,大亚湾霞涌,,33,22,14,9,7,104,,115,115,14,10,4,4,0.7,0.6
2024-06-02T2000,2240A,130.9762,45.3001,鸡西市,环保局,,25,25,18,10,7,56,,66,65,14,8,6,7,0.3,0.2
2024-06-02T2000,2243A,130.9429,45.3039,鸡西市,第一中学,,34,34,19,11,9,58,,83,81,13,7,9,9,0.3,0.3
2024-06-02T2000,3707A,131.0207,45.3073,鸡西市,欧美日汽修厂,,41,41,24,6,11,58,,76,75,11,9,6,6,0.6,0.6
2024-06-02T2000,3709A,130.9967,45.3106,鸡西市,市政设施管理处,,46,46,22,16,8,52,,77,74,13,12,9,9,0.6,0.5
2024-06-02T2000,2367A,114.9754,27.0803,吉安市,红声器材厂,,33,31,22,17,8,105,,125,124,14,11,14,12,0.4,0.4
2024-06-02T2000,2368A,114.9658,27.0999,吉安市,市森林工业局,,33,28,18,17,10,105,,121,119,12,10,12,11,0.3,0.4
2024-06-02T2000,2369A,114.99,27.1312,吉安市,市环境监测站,,30,29,20,14,10,95,,124,121,12,9,14,14,0.8,0.5
2024-06-02T2000,2370A,115.0093,27.0968,吉安市,青原区法院,,31,31,18,17,11,84,,114,111,20,14,19,16,0.3,0.3
2024-06-02T2000,1772A,126.54,43.8622,吉林市,哈达湾,,21,21,28,12,21,62,,80,80,22,18,8,8,0.6,0.6
2024-06-02T2000,1773A,126.5844,43.8358,吉林市,东局子,,22,22,30,13,20,66,,74,74,14,20,5,5,0.5,0.7
2024-06-02T2000,1774A,126.5052,43.8245,吉林市,电力学院,,27,27,30,18,20,61,,85,84,18,17,14,11,0.6,0.6
2024-06-02T2000,1775A,126.6133,43.8972,吉林市,江北,,20,20,35,12,23,53,,72,71,22,23,6,8,0.6,0.7
2024-06-02T2000,1776A,126.555,43.8306,吉林市,江南公园,,25,25,32,16,25,63,,78,78,22,24,7,6,0.5,0.6
2024-06-02T2000,1778A,126.7061,43.7133,吉林市,丰满,,,,,,,,,,,,,,,,
2024-06-02T2000,2868A,126.4739,43.953,吉林市,九站,,22,21,22,13,17,68,,75,75,15,18,10,10,0.4,0.6
2024-06-02T2000,1299A,116.9862,36.6114,济南市,科干所,颗粒物(PM10),90,129,75,37,17,183,,199,199,30,16,13,10,0.7,0.4
2024-06-02T2000,1300A,116.9376,36.665,济南市,农科所,臭氧1小时,84,112,72,29,16,187,,195,195,27,24,11,9,0.3,0.2
2024-06-02T2000,1301A,117.1265,36.6734,济南市,开发区,臭氧1小时,93,112,71,39,21,194,,204,204,24,16,13,10,0.5,0.3
2024-06-02T2000,1303A,117.0624,36.6868,济南市,省种子仓库,颗粒物(PM10),95,139,84,36,16,178,,199,199,31,19,10,8,0.5,0.4
2024-06-02T2000,1304A,116.9489,36.6447,济南市,机床二厂,颗粒物(PM10),99,147,105,32,17,193,,199,199,20,24,13,12,0.5,0.4
2024-06-02T2000,1305A,117.0495,36.663,济南市,市监测站,臭氧1小时,88,120,76,29,18,190,,208,208,33,16,16,13,0.5,0.4
2024-06-02T2000,1306A,116.7675,36.5484,济南市,长清党校,臭氧1小时,98,137,83,39,20,198,,201,201,23,16,12,10,0.7,0.4
2024-06-02T2000,1616A,117.6795,36.229,济南市,技术学院,颗粒物(PM10),78,105,67,19,21,177,,193,193,19,20,7,9,0.4,0.6
2024-06-02T2000,1961A,117.532,36.6868,济南市,东山小学,颗粒物(PM10),91,132,72,32,14,192,,206,206,21,21,11,8,0.5,0.3
2024-06-02T2000,3059A,117.7161,36.2049,济南市,泰兴公司,"颗粒物(PM10),臭氧1小时",69,88,60,19,17,175,,186,186,16,25,10,10,0.4,0.5
2024-06-02T2000,3064A,117.6867,36.2171,济南市,莱芜战役纪念馆,颗粒物(PM10),70,90,59,17,14,159,,173,173,19,16,8,10,0.4,0.6
2024-06-02T2000,3494A,117.1673,36.9782,济南市,济阳区政府,颗粒物(PM10),86,122,100,34,26,164,,197,197,34,36,17,11,0.5,0.4
2024-06-02T2000,3495A,117.1171,36.63,济南市,锦屏中学,臭氧1小时,95,132,70,32,15,196,,209,209,26,14,13,10,0.4,0.3
2024-06-02T2000,3682A,116.9814,36.6819,济南市,济南四建,颗粒物(PM10),79,107,75,32,21,178,,197,197,25,19,13,11,0.6,0.5
2024-06-02T2000,1653A,116.6251,35.4302,济宁市,火炬城,颗粒物(PM10),82,113,65,17,17,144,,168,168,8,10,7,10,0.4,0.4
2024-06-02T2000,1655A,116.5491,35.4042,济宁市,电化厂,颗粒物(PM10),103,155,116,27,26,140,,170,169,9,22,5,8,0.4,0.6
2024-06-02T2000,3500A,116.5814,35.3707,济宁市,北湖一中,颗粒物(PM10),74,97,66,22,21,123,,155,154,18,17,7,10,0.4,0.3
2024-06-02T2000,3501A,116.8249,35.5593,济宁市,服务中心,颗粒物(PM10),87,123,73,25,18,141,,178,176,27,26,5,6,0.5,0.5
2024-06-02T2000,3678A,116.5907,35.4054,济宁市,市第七中学,颗粒物(PM10),95,139,77,19,16,141,,170,170,11,12,5,8,0.3,0.4
2024-06-02T2000,2255A,130.2751,46.8028,佳木斯市,佳纺,,23,17,15,8,8,72,,95,92,8,13,6,6,0.4,0.5
2024-06-02T2000,2256A,130.3995,46.8307,佳木斯市,发电厂,,24,20,18,7,17,74,,94,91,9,13,3,4,0.6,0.7
2024-06-02T2000,2257A,130.3258,46.7975,佳木斯市,环保局,,21,19,20,3,12,67,,91,87,11,15,5,5,0.5,0.6
2024-06-02T2000,2258A,130.3648,46.8032,佳木斯市,十一中,,22,22,21,11,16,68,,87,84,15,19,5,5,0.5,0.6
2024-06-02T2000,2259A,130.3794,46.7588,佳木斯市,四丰,,22,9,9,3,7,69,,82,82,5,5,1,1,0.6,0.5
2024-06-02T2000,1252A,120.7436,30.778,嘉兴市,清河小学,,40,22,19,10,10,126,,129,128,25,17,6,5,0.2,0.3
2024-06-02T2000,1253A,120.726,30.7478,嘉兴市,嘉兴学院,,36,18,20,10,11,113,,135,131,18,12,7,6,0.5,0.5
2024-06-02T2000,2872A,120.7846,30.7525,嘉兴市,南湖区残联,,40,28,19,10,12,126,,142,139,23,13,8,7,0.4,0.4
2024-06-02T2000,3407A,120.6916,30.7739,嘉兴市,秀洲住建,,36,19,19,12,12,114,,140,135,20,10,7,6,0.4,0.4
2024-06-02T2000,1945A,98.2908,39.7711,嘉峪关市,气象局,颗粒物(PM10),52,53,52,14,14,132,,137,137,7,24,3,3,0.2,0.3
2024-06-02T2000,2884A,98.2672,39.7978,嘉峪关市,酒钢宾馆,颗粒物(PM10),53,56,52,14,16,136,,139,139,6,16,7,8,0.4,0.4
2024-06-02T2000,3248A,98.2643,39.7724,嘉峪关市,雄关区,,42,42,44,13,15,125,,135,134,5,20,7,7,0.4,0.4
2024-06-02T2000,1383A,113.1064,22.6058,江门市,北街,,31,18,26,17,16,98,,124,123,18,10,3,3,0.7,0.7
2024-06-02T2000,1384A,113.0731,22.5835,江门市,西区,,36,,22,25,13,113,,121,121,19,11,6,6,0.9,0.6
2024-06-02T2000,1385A,113.0219,22.5311,江门市,圭峰西,,,29,29,29,14,85,,111,109,10,6,4,5,,0.2
2024-06-02T2000,1386A,113.0828,22.5947,江门市,东湖,,34,29,23,13,18,108,,115,115,15,10,8,7,0.8,0.5
2024-06-02T2000,3311A,113.1075,22.5647,江门市,江海富民,,33,26,26,23,16,101,,126,124,26,12,5,5,1.0,0.6
2024-06-02T2000,3449A,113.05,22.4667,江门市,新会银湖,,28,27,26,15,10,88,,118,115,10,7,4,4,0.7,0.7
2024-06-02T2000,1828A,113.227,35.2125,焦作市,市环保局,颗粒物(PM10),53,55,80,25,34,124,,158,152,16,17,5,7,0.2,0.4
2024-06-02T2000,1830A,113.1992,35.2590,焦作市,影视城,,,,,,,,,,,,,,,,
2024-06-02T2000,3169A,113.2725,35.2067,焦作市,太极体育中心,颗粒物(PM10),67,83,95,13,28,124,,168,160,15,17,2,7,0.5,0.7
2024-06-02T2000,3335A,113.3137,35.2641,焦作市,马村街道办,,50,50,88,16,28,131,,160,152,9,16,6,9,0.3,0.5
2024-06-02T2000,3336A,113.2465,35.2373,焦作市,焦作技师学院,颗粒物(PM10),53,56,82,17,30,126,,153,149,17,18,2,8,0.3,0.4
2024-06-02T2000,3477A,113.1656,35.2539,焦作市,中站许衡医院,颗粒物(PM10),55,60,65,17,29,112,,147,141,25,20,10,11,0.3,0.4
2024-06-02T2000,3981A,113.2449,35.1803,焦作市,原李万街道办,颗粒物(PM10),74,97,87,19,29,115,,157,149,22,22,2,6,0.3,0.5
2024-06-02T2000,1708A,116.3701,23.5345,揭阳市,新兴,,29,29,11,11,6,63,,65,65,20,10,7,5,0.8,0.6
2024-06-02T2000,1709A,116.3264,23.5443,揭阳市,西马,,36,28,13,25,7,58,,63,63,19,10,8,5,0.9,0.6
2024-06-02T2000,1710A,116.3611,23.5626,揭阳市,东兴,,42,42,11,7,6,65,,64,64,21,8,9,4,0.9,0.7
2024-06-02T2000,1711A,116.4151,23.5294,揭阳市,渔湖,,35,35,13,15,5,70,,66,66,11,4,4,5,0.9,0.7
2024-06-02T2000,3320A,116.403,23.5699,揭阳市,曲溪,,26,22,11,14,5,81,,70,70,12,6,4,4,0.7,0.6
2024-06-02T2000,1944A,102.1692,38.5167,金昌市,天庆家园,,50,44,68,21,32,160,,161,161,12,12,45,11,0.5,0.5
2024-06-02T2000,3170A,102.1864,38.5253,金昌市,市委党校,,49,49,87,16,33,149,,146,146,6,7,15,11,0.5,0.5
2024-06-02T2000,4022A,102.1647,38.5371,金昌市,金川区人防中心,,50,38,83,15,32,157,,156,156,9,10,8,9,0.7,0.5
2024-06-02T2000,1262A,119.647,29.077,金华市,十五中,,28,15,17,10,11,87,,116,109,14,12,3,4,0.4,0.4
2024-06-02T2000,1263A,119.686,29.1029,金华市,监测站,,26,14,17,9,12,81,,112,109,16,12,2,2,0.4,0.4
2024-06-02T2000,3659A,119.656,29.1131,金华市,气象局,,28,14,15,3,8,88,,115,113,19,14,6,4,0.2,0.2
2024-06-02T2000,1767A,121.1115,41.0879,锦州市,南山,,45,30,41,24,27,144,,153,153,24,33,10,16,0.5,0.7
2024-06-02T2000,1768A,121.0533,40.8434,锦州市,开发区,,49,49,70,22,39,111,,155,155,74,58,15,25,0.6,0.8
2024-06-02T2000,1769A,121.1836,41.1119,锦州市,百股街道,,48,31,36,19,19,153,,153,153,21,24,7,14,0.6,0.7
2024-06-02T2000,1770A,121.1178,41.1222,锦州市,天安街道,,43,34,41,22,18,137,,137,137,24,31,9,15,0.7,0.7
2024-06-02T2000,1771A,121.1303,41.1386,锦州市,北湖公园,,47,33,36,21,22,149,,144,144,17,23,10,15,0.6,0.6
2024-06-02T2000,2160A,112.85,35.5051,晋城市,自来水公司,,44,35,57,12,18,138,,159,155,15,20,6,8,0.6,0.7
2024-06-02T2000,2161A,112.8318,35.4936,晋城市,白云商贸,颗粒物(PM10),54,57,65,9,14,134,,159,155,18,20,7,8,0.5,0.6
2024-06-02T2000,2162A,112.8508,35.4887,晋城市,市环保局,,43,36,57,7,18,136,,159,156,14,21,7,9,0.5,0.6
2024-06-02T2000,2163A,112.8676,35.4897,晋城市,技术学院,,45,45,57,12,19,136,,157,154,16,24,7,9,0.6,0.7
2024-06-02T2000,2165A,112.8453,35.546,晋城市,白马寺,,,,,,,,,,,,,,,,
2024-06-02T2000,3620A,112.8271,35.4828,晋城市,泽州一中,,43,43,53,3,14,135,,159,155,14,18,5,6,0.4,0.6
2024-06-02T2000,2171A,112.7532,37.6945,晋中市,锦纶小区,颗粒物(PM10),68,85,72,22,22,138,,148,148,23,23,16,14,0.6,0.5
2024-06-02T2000,2173A,112.7249,37.7067,晋中市,南都小区,颗粒物(PM10),66,81,65,27,24,142,,150,150,20,19,15,14,0.5,0.4
2024-06-02T2000,2174A,112.6991,37.6982,晋中市,榆次区政府,颗粒物(PM10),70,90,66,30,25,143,,155,155,21,20,16,14,0.4,0.3
2024-06-02T2000,2865A,112.7195,37.6828,晋中市,榆次三中,颗粒物(PM10),69,88,71,19,19,141,,154,153,20,19,16,15,0.6,0.7
2024-06-02T2000,2439A,112.2014,31.0481,荆门市,竹园小学,颗粒物(PM10),63,76,88,42,49,126,,138,135,18,19,10,11,0.6,0.7
2024-06-02T2000,2440A,112.1969,30.9891,荆门市,掇刀,细颗粒物(PM2.5),65,68,79,47,46,126,,145,142,18,18,13,13,0.5,0.6
2024-06-02T2000,2441A,112.2213,31.0386,荆门市,石化一小,细颗粒物(PM2.5),68,73,99,49,50,123,,142,138,18,17,10,11,0.5,0.6
2024-06-02T2000,3012A,112.1849,31.0362,荆门市,西山林语,颗粒物(PM10),60,69,77,38,41,133,,149,145,17,14,11,12,0.8,0.8
2024-06-02T2000,3547A,112.1632,31.0138,荆门市,龙泉中学南校,颗粒物(PM10),53,56,64,33,37,137,,149,146,13,15,10,11,0.5,0.6
2024-06-02T2000,1844A,112.2494,30.3197,荆州市,市图书馆,,39,39,38,23,24,114,,146,143,18,27,7,9,0.5,0.6
2024-06-02T2000,1845A,112.2008,30.3544,荆州市,市委党校,,40,33,40,11,29,125,,150,148,15,27,9,9,0.5,0.6
2024-06-02T2000,3194A,112.2747,30.3122,荆州市,管委会,,37,31,38,22,27,117,,146,142,14,24,5,6,0.6,0.7
2024-06-02T2000,3548A,112.1655,30.3364,荆州市,学苑路,颗粒物(PM10),73,96,54,43,34,127,,160,157,22,28,6,7,0.6,0.6
2024-06-02T2000,2342A,117.3102,29.3867,景德镇市,王港中学,,,,,,,,,,,,,,,,
2024-06-02T2000,2343A,117.2117,29.2933,景德镇市,老干部活动中心,,27,21,14,12,11,86,,121,104,11,8,4,5,0.5,0.4
2024-06-02T2000,2344A,117.1894,29.2789,景德镇市,兽医站,,28,16,16,11,8,89,,121,106,6,5,5,5,0.4,0.3
2024-06-02T2000,2345A,117.1547,29.2617,景德镇市,台达陶瓷,,26,,11,14,10,83,,110,98,9,6,6,6,0.4,0.3
2024-06-02T2000,2346A,117.2461,29.2956,景德镇市,陶研所,,28,17,14,3,6,87,,119,103,4,3,3,4,0.2,0.2
2024-06-02T2000,1803A,115.9872,29.6815,九江市,十里,,43,43,40,28,24,136,,164,158,15,19,11,11,0.6,0.7
2024-06-02T2000,1804A,115.9584,29.7046,九江市,茅山头,,43,43,39,29,26,122,,156,150,18,20,9,10,0.6,0.7
2024-06-02T2000,1805A,115.9877,29.7295,九江市,西园,,44,44,37,29,26,119,,162,152,20,25,12,12,0.6,0.7
2024-06-02T2000,1806A,116.0172,29.6547,九江市,五七二七厂,,40,34,30,22,18,128,,138,135,12,19,8,9,0.8,0.9
2024-06-02T2000,1808A,115.9114,29.6038,九江市,综合工业园,,45,39,37,27,32,144,,156,153,11,25,11,11,0.8,0.9
2024-06-02T2000,1809A,116.0721,29.7535,九江市,石化总厂,,42,41,42,29,26,125,,160,154,17,20,8,9,0.6,0.7
2024-06-02T2000,1810A,115.9773,29.5698,九江市,庐山气象台,,49,48,26,34,32,132,,146,127,7,5,7,10,1.1,0.7
2024-06-02T2000,3190A,116.0254,29.6994,九江市,外国语学校,,40,30,38,25,24,126,,160,153,21,24,13,13,0.6,0.8
2024-06-02T2000,2658A,98.5061,39.7443,酒泉市,仓门街子站,,44,44,55,24,20,123,,125,125,12,19,3,3,0.3,0.3
2024-06-02T2000,2659A,98.4989,39.7256,酒泉市,油田生活基地,颗粒物(PM10),54,58,56,24,20,133,,134,134,4,13,3,5,0.2,0.3
2024-06-02T2000,2698A,76.0072,39.4467,喀什地区,巡警大队,颗粒物(PM10),73,96,105,7,13,134,,127,127,8,15,5,5,0.0,0.1
2024-06-02T2000,2699A,75.9755,39.4694,喀什地区,吾办,颗粒物(PM10),69,88,100,28,28,134,,126,126,9,13,4,3,0.3,0.4
2024-06-02T2000,4027A,75.9483,39.4689,喀什地区,老干局,颗粒物(PM10),72,93,113,14,15,138,,130,130,6,13,4,3,0.2,0.3
2024-06-02T2000,1824A,114.3389,34.7781,开封市,肿瘤医院,颗粒物(PM10),187,324,177,32,34,142,,187,183,27,30,3,5,0.5,0.5
2024-06-02T2000,1826A,114.2885,34.7965,开封市,世纪星幼儿园,颗粒物(PM10),117,184,147,44,45,144,,187,184,27,24,3,3,0.4,0.5
2024-06-02T2000,3147A,114.3438,34.8106,开封市,龙亭公园,颗粒物(PM10),136,221,170,45,40,148,,188,185,26,32,6,8,0.3,0.4
2024-06-02T2000,3210A,114.3644,34.7964,开封市,汴京公园,颗粒物(PM10),121,191,146,39,37,150,,189,186,27,31,4,5,0.2,0.3
2024-06-02T2000,3473A,114.2485,34.8306,开封市,技师学院,颗粒物(PM10),117,183,130,32,31,154,,190,188,20,19,4,4,0.4,0.4
2024-06-02T2000,3592A,114.4644,34.7556,开封市,祥符区生态环境局,颗粒物(PM10),164,277,236,46,53,121,,174,167,36,51,3,4,0.3,0.4
2024-06-02T2000,1951A,84.895,45.6094,克拉玛依市,长征新村,,35,23,23,3,5,111,,111,111,4,6,8,8,0.2,0.2
2024-06-02T2000,1952A,84.8988,45.5893,克拉玛依市,南林小区,,36,20,20,6,11,114,,114,114,5,7,10,10,0.2,0.1
2024-06-02T2000,1954A,84.905,44.3396,克拉玛依市,独山子区,,41,20,38,10,9,131,,124,124,9,10,11,10,0.4,0.3
2024-06-02T2000,1955A,85.6979,46.098,克拉玛依市,乌尔禾区商贸楼,,39,,17,9,6,123,,115,115,2,3,10,9,0.2,0.2
2024-06-02T2000,3612A,85.1045,45.6899,克拉玛依市,白碱滩区新站,,37,16,21,3,7,118,,115,115,3,5,9,9,0.3,0.3
2024-06-02T2000,2697A,76.1454,39.7142,克孜勒苏柯尔克孜自治州,市人民政府,颗粒物(PM10),105,160,74,41,23,145,,134,134,1,8,7,9,0.3,0.3
2024-06-02T2000,3665A,76.1658,39.7157,克孜勒苏柯尔克孜自治州,克州文化中心,颗粒物(PM10),89,128,70,43,22,143,,134,134,2,2,9,10,0.4,0.4
2024-06-02T2000,1450A,102.8204,24.8886,昆明市,呈贡新区,,,,21,20,15,98,,105,105,,11,8,6,0.2,0.5
2024-06-02T2000,1451A,102.6251,24.9608,昆明市,西山森林公园,,,,,,,,,,,,,,,,
2024-06-02T2000,1452A,102.7252,25.0902,昆明市,龙泉镇,,38,38,25,7,15,93,,105,105,10,11,7,7,0.4,0.6
2024-06-02T2000,1453A,102.7266,25.0375,昆明市,东风东路,,29,29,22,19,17,90,,99,99,10,11,4,4,0.4,0.6
2024-06-02T2000,1454A,102.6742,25.0669,昆明市,金鼎山,,44,44,32,11,16,93,,106,106,12,11,4,5,0.4,0.6
2024-06-02T2000,1455A,102.6644,25.0401,昆明市,碧鸡广场,,29,24,24,17,16,90,,103,103,11,11,3,3,0.5,0.6
2024-06-02T2000,3179A,102.7494,25.0119,昆明市,官渡区博物馆,,32,28,23,19,13,100,,112,112,8,7,9,9,0.3,0.6
2024-06-02T2000,3375A,102.8017,24.8336,昆明市,青年创业园,,32,18,20,16,16,100,,110,110,4,9,7,7,0.3,0.5
2024-06-02T2000,3550A,102.7997,24.9786,昆明市,昆明学院,,31,23,23,14,14,99,,110,110,9,11,8,9,0.4,0.6
2024-06-02T2000,3551A,102.5967,24.6736,昆明市,晋宁区生态环境分局,,30,26,28,17,19,95,,99,99,6,9,2,2,0.4,0.6
2024-06-02T2000,3552A,102.6678,24.9856,昆明市,云天化总部,,30,22,23,12,15,96,,105,105,6,6,7,7,0.5,0.7
2024-06-02T2000,1456A,91.1319,29.6514,拉萨市,八廓街,,45,10,17,6,8,144,,158,157,11,9,8,8,0.3,0.2
2024-06-02T2000,1457A,91.1221,29.6747,拉萨市,市环保局,,46,13,18,7,9,145,,156,155,11,10,8,7,0.4,0.3
2024-06-02T2000,1458A,91.0874,29.6475,拉萨市,区监测站,,46,7,15,3,8,146,,154,154,9,7,6,6,0.2,0.2
2024-06-02T2000,1459A,91.1774,29.6541,拉萨市,西藏大学,,45,8,16,6,8,144,,161,160,10,6,4,5,0.3,0.3
2024-06-02T2000,1460A,90.9798,29.6588,拉萨市,区辐射站,,44,14,20,7,9,138,,150,148,16,10,6,6,0.3,0.3
2024-06-02T2000,1461A,91.0834,29.6292,拉萨市,拉萨火车站,,45,10,16,7,7,143,,150,150,9,6,8,7,0.5,0.4
2024-06-02T2000,2520A,109.2203,23.7256,来宾市,来宾技工学校,,37,27,27,20,17,117,,124,124,7,9,6,8,0.9,0.9
2024-06-02T2000,3535A,109.1781,23.7297,来宾市,兴宾区政府,,37,28,25,17,15,116,,125,125,9,9,5,6,1.0,0.9
2024-06-02T2000,4002A,109.2416,23.7461,来宾市,中南小学,,37,28,27,22,16,117,,126,126,10,11,2,5,1.0,0.9
2024-06-02T2000,1476A,103.631,36.1031,兰州市,兰炼宾馆,细颗粒物(PM2.5),52,46,41,36,28,140,,161,161,8,16,9,8,0.3,0.3
2024-06-02T2000,1477A,104.1373,35.9454,兰州市,榆中兰大校区,,,,,,,,,,,,,,,,
2024-06-02T2000,1478A,103.8412,36.0726,兰州市,生物制品所,,44,44,43,28,33,137,,146,146,15,21,12,12,0.3,0.4
2024-06-02T2000,1479A,103.831,36.0464,兰州市,铁路设计院,,45,35,39,19,22,141,,149,149,22,28,8,8,0.3,0.3
2024-06-02T2000,3186A,103.7158,36.1058,兰州市,教育港,,45,37,28,26,24,141,,153,153,9,16,8,9,0.3,0.4
2024-06-02T2000,3241A,103.7439,36.0842,兰州市,百合公园,,45,31,33,19,22,141,,150,150,10,20,2,5,0,0.3
2024-06-02T2000,3242A,103.9611,35.998,兰州市,和平,,49,32,39,14,19,154,,156,156,9,18,10,11,0.4,0.5
2024-06-02T2000,3245A,103.6633,36.533,兰州新区,新区管委会,,46,28,31,17,18,147,,150,150,5,11,11,10,0.4,0.4
2024-06-02T2000,3246A,103.6975,36.4789,兰州新区,舟曲中学,,47,24,35,8,16,150,,154,154,8,9,8,9,0.3,0.4
2024-06-02T2000,1067A,116.6708,39.5111,廊坊市,药材公司,,43,43,59,19,29,124,,170,165,27,28,3,6,0.7,0.7
2024-06-02T2000,1068A,116.7214,39.5589,廊坊市,开发区,,44,42,63,22,27,138,,161,160,24,27,5,6,0.7,0.6
2024-06-02T2000,1070A,116.7244,39.5269,廊坊市,北华航天学院,,,,,,,,,,,,,,,,
2024-06-02T2000,2919A,116.7022,39.5453,廊坊市,河北工业大学,颗粒物(PM10),57,64,69,25,30,147,,170,168,21,25,2,4,0.6,0.7
2024-06-02T2000,2535A,103.7723,29.5462,乐山市,花湖湾,,42,42,31,20,22,59,,76,76,10,16,4,4,0.4,0.4
2024-06-02T2000,2536A,103.7627,29.5844,乐山市,牛耳桥,,36,36,39,19,24,66,,82,82,19,25,3,4,0.5,0.5
2024-06-02T2000,2537A,103.7508,29.6006,乐山市,市第三水厂,,34,34,38,20,23,69,,85,85,15,22,3,3,0.5,0.5
2024-06-02T2000,2538A,103.7571,29.5664,乐山市,市监测站,,32,32,38,20,21,65,,85,85,15,19,8,7,0.4,0.4
2024-06-02T2000,3361A,103.7311,29.5628,乐山市,理工大学,,37,37,37,22,20,68,,82,82,16,20,6,6,0.4,0.4
2024-06-02T2000,2598A,100.2143,26.8576,丽江市,西南郊,,,,,,,,,,,,,,,,
2024-06-02T2000,2599A,100.2497,26.8802,丽江市,丽江古城,,29,19,28,14,16,91,,97,97,13,11,6,6,0.4,0.5
2024-06-02T2000,2600A,100.2203,26.8906,丽江市,市中心,,,25,22,8,13,97,,102,102,13,10,8,8,,0.5
2024-06-02T2000,1267A,119.914,28.4514,丽水市,监测站大楼,,21,8,7,3,5,65,,98,90,12,7,2,2,0.3,0.4
2024-06-02T2000,1268A,119.93,28.4586,丽水市,莲都小学,,22,11,7,3,5,70,,102,95,10,7,3,3,0.3,0.3
2024-06-02T2000,1269A,119.879,28.4231,丽水市,余庄前,,12,10,9,3,6,36,,93,80,3,7,3,3,0.3,0.3
2024-06-02T2000,1173A,119.176,34.5885,连云港市,市环境监测站,颗粒物(PM10),51,51,39,14,15,146,,167,167,15,17,7,8,0.5,0.5
2024-06-02T2000,3000A,119.3581,34.6972,连云港市,德源药业,颗粒物(PM10),54,58,35,9,12,160,,178,178,13,16,6,6,0.4,0.4
2024-06-02T2000,3007A,119.178,34.844,连云港市,新城一中,颗粒物(PM10),60,70,42,17,16,150,,183,182,19,21,6,7,0.3,0.4
2024-06-02T2000,3008A,119.3608,34.7519,连云港市,胡沟管理处,,45,44,26,12,7,144,,178,176,26,14,8,8,0.5,0.4
2024-06-02T2000,3009A,119.1478,34.5911,连云港市,矿山设计院,,44,44,37,14,14,139,,164,163,17,15,4,5,0.3,0.3
2024-06-02T2000,3434A,119.2413,34.6539,连云港市,工贸学校,,49,26,34,12,17,154,,178,177,11,10,8,9,0.5,0.5
2024-06-02T2000,3664A,119.4172,34.7341,连云港市,连云街道,臭氧1小时,62,50,38,15,12,169,,183,183,12,26,4,6,0.4,0.4
2024-06-02T2000,2571A,102.3431,27.8099,凉山彝族自治州,青龙寺,,21,10,24,8,15,66,,105,104,9,11,13,11,0.5,0.6
2024-06-02T2000,2572A,102.2721,27.8415,凉山彝族自治州,邛海宾馆,,20,19,35,11,19,64,,92,92,10,15,14,14,0.5,0.7
2024-06-02T2000,2573A,102.2625,27.898,凉山彝族自治州,西昌市政府,,19,18,40,8,23,58,,80,80,8,19,10,15,0.7,0.8
2024-06-02T2000,2574A,102.2685,27.8851,凉山彝族自治州,凉山州政府,,19,18,37,9,18,58,,84,84,11,18,12,14,0.6,0.7
2024-06-02T2000,2575A,102.237,27.8914,凉山彝族自治州,长安,,21,20,35,9,15,65,,83,83,12,21,15,13,0.6,0.6
2024-06-02T2000,2212A,123.2,41.1953,辽阳市,宏伟区,,28,24,21,12,13,88,,100,99,24,15,16,13,0.7,0.8
2024-06-02T2000,2213A,123.1683,41.2495,辽阳市,新华园,,31,21,30,14,16,99,,102,101,22,21,16,16,0.6,0.8
2024-06-02T2000,2214A,123.2354,41.2639,辽阳市,滨河路,,28,25,33,19,14,70,,99,96,23,16,12,11,0.4,0.7
2024-06-02T2000,2215A,123.149,41.2991,辽阳市,铁西工业园,,29,29,37,12,15,76,,110,106,29,22,11,13,0.8,0.9
2024-06-02T2000,2227A,125.1358,42.8845,辽源市,环保局,,23,17,14,6,8,72,,93,92,22,15,9,7,0.6,0.5
2024-06-02T2000,3239A,125.0764,42.9078,辽源市,银鹰制药,,17,17,18,7,10,54,,93,89,32,21,7,17,0.6,0.6
2024-06-02T2000,1625A,115.9848,36.4372,聊城市,区政府,,,,97,,17,176,,198,198,24,21,9,11,0.5,0.4
2024-06-02T2000,2878A,116.0072,36.4343,聊城市,聊大东校,臭氧1小时,78,79,86,27,23,182,,203,203,27,19,7,10,0.6,0.5
2024-06-02T2000,3200A,115.9819,36.4978,聊城市,监控中心,颗粒物(PM10),87,123,100,27,21,175,,202,201,38,22,12,13,0.5,0.5
2024-06-02T2000,3513A,116.0445,36.4361,聊城市,九州社区,臭氧1小时,93,97,103,17,19,194,,204,204,20,21,12,13,0.5,0.4
2024-06-02T2000,4018A,116.0567,36.4608,聊城市,星美广场,臭氧1小时,75,97,90,27,21,180,,197,197,23,17,12,11,0.6,0.4
2024-06-02T2000,2632A,94.3681,29.6376,林芝市,林芝监测站,,34,,5,8,9,106,,106,106,2,2,6,7,0.3,0.3
2024-06-02T2000,2633A,94.3616,29.6616,林芝市,林芝人民医院,,35,7,8,3,5,111,,110,110,3,4,8,8,0.3,0.3
2024-06-02T2000,2603A,100.0781,23.8982,临沧市,市环保局,细颗粒物(PM2.5),58,,42,41,29,68,,91,88,8,9,4,6,0.7,0.7
2024-06-02T2000,2604A,100.0894,23.8822,临沧市,市气象局,,39,34,39,27,30,68,,94,91,9,11,7,8,0.6,0.6
2024-06-02T2000,1733A,111.5531,36.0783,临汾市,临钢医院,颗粒物(PM10),76,101,62,45,25,88,,135,131,34,14,29,10,1.7,0.8
2024-06-02T2000,1734A,111.5028,36.0714,临汾市,技工学校,颗粒物(PM10),67,84,65,41,29,88,,132,126,44,20,31,13,1.8,0.8
2024-06-02T2000,1736A,111.5018,36.0855,临汾市,市委,颗粒物(PM10),65,80,61,42,23,96,,136,133,33,15,27,13,1.6,0.9
2024-06-02T2000,3018A,111.505,36.1014,临汾市,唐尧大酒店,颗粒物(PM10),68,85,75,44,24,86,,119,117,28,14,26,11,1.4,0.7
2024-06-02T2000,3668A,111.5036,36.0414,临汾市,城南,颗粒物(PM10),82,114,68,54,32,84,,134,129,37,17,24,12,1.9,0.9
2024-06-02T2000,2667A,103.2069,35.5993,临夏回族自治州,环保局,,45,32,33,28,25,144,,145,145,5,9,5,4,0.3,0.4
2024-06-02T2000,2668A,103.2417,35.6057,临夏回族自治州,建设大厦,,40,29,33,23,24,125,,143,143,14,13,4,3,0.3,0.4
2024-06-02T2000,1618A,118.3429,35.0532,临沂市,沂河小区,颗粒物(PM10),71,92,48,22,21,153,,155,155,33,29,8,11,0.2,0.2
2024-06-02T2000,1619A,118.295,35.0583,临沂市,鲁南制药厂,颗粒物(PM10),82,114,51,18,14,152,,174,174,23,16,8,9,0.4,0.3
2024-06-02T2000,1620A,118.2794,34.9976,临沂市,新光毛纺厂,颗粒物(PM10),82,114,54,22,16,151,,167,167,21,20,8,9,0.5,0.5
2024-06-02T2000,1621A,118.3956,35.0888,临沂市,河东保险公司,颗粒物(PM10),59,68,40,15,12,159,,170,170,19,18,6,7,0.3,0.2
2024-06-02T2000,3370A,118.3564,35.0215,临沂市,十里堡居委,颗粒物(PM10),67,83,52,17,18,154,,168,168,19,23,8,11,0.4,0.4
2024-06-02T2000,3496A,118.3604,35.1084,临沂市,南坊新区,颗粒物(PM10),54,58,35,19,11,151,,164,164,27,22,8,9,0.4,0.4
2024-06-02T2000,3860A,118.3920,35.0300,临沂市,皇山花园小区,颗粒物(PM10),68,85,51,20,18,145,,163,163,24,25,8,10,0.4,0.4
2024-06-02T2000,1870A,109.4856,24.3895,柳州市,柳东小学,,31,28,21,18,16,98,,96,96,13,10,7,9,0.9,0.7
2024-06-02T2000,1871A,109.4157,24.3277,柳州市,环保监测站,,30,22,29,14,17,95,,111,111,12,11,8,12,1.0,0.9
2024-06-02T2000,1872A,109.389,24.341,柳州市,河西水厂,,34,34,27,20,18,94,,109,109,10,11,7,13,0.7,0.7
2024-06-02T2000,1873A,109.4311,24.2921,柳州市,市四中,,40,40,29,27,19,105,,120,120,15,11,7,10,0.9,0.7
2024-06-02T2000,1874A,109.4006,24.3631,柳州市,市九中,,40,40,30,19,15,98,,106,106,12,13,7,11,0.6,0.6
2024-06-02T2000,1875A,109.4958,24.3134,柳州市,古亭山,,39,39,25,22,15,73,,103,100,11,10,8,8,0.8,0.6
2024-06-02T2000,3402A,109.5422,24.3996,柳州市,市二中,,30,24,20,12,11,96,,99,99,14,10,5,6,0.5,0.5
2024-06-02T2000,2307A,116.5079,31.737,六安市,监测大楼,,35,35,35,19,19,91,,114,111,22,18,5,6,0.3,0.4
2024-06-02T2000,2308A,116.4738,31.7643,六安市,皖西学院,,37,37,46,15,18,97,,121,119,25,16,4,7,0.4,0.5
2024-06-02T2000,2309A,116.4996,31.7905,六安市,朝阳厂,,,,38,,19,91,,117,114,30,17,9,9,0.3,0.4
2024-06-02T2000,2310A,116.5567,31.7886,六安市,开发区,颗粒物(PM10),54,57,40,17,19,81,,112,108,29,18,9,10,0.6,0.6
2024-06-02T2000,2576A,104.8,26.5892,六盘水市,窑上,,,,,,,,,,,,,,,,
2024-06-02T2000,2577A,104.83,26.5917,六盘水市,黄土坡,,21,11,27,3,16,65,,84,61,8,10,5,5,0.4,0.4
2024-06-02T2000,2578A,104.89,26.5939,六盘水市,水钢,,25,,34,17,21,54,,92,60,24,9,12,9,1.8,0.6
2024-06-02T2000,2579A,104.8475,26.5894,六盘水市,民中,,19,6,26,3,18,59,,91,62,12,9,6,6,0.6,0.6
2024-06-02T2000,2580A,104.9544,26.5506,六盘水市,双水,,23,12,28,6,17,73,,94,69,12,8,6,6,0.5,0.4
2024-06-02T2000,2335A,117.0189,25.1181,龙岩市,龙岩师专,,,,,,,,,,,,,,,,
2024-06-02T2000,2336A,117.0217,25.1033,龙岩市,龙岩市监测站,,18,18,8,8,5,49,,76,72,22,18,5,2,0.7,0.5
2024-06-02T2000,2337A,117.0258,25.0661,龙岩市,闽西职业技术学院,,17,11,10,3,3,54,,75,71,16,14,4,2,0.5,0.5
2024-06-02T2000,2338A,117.0196,25.0306,龙岩市,龙岩学院,,15,14,9,7,3,48,,76,73,6,9,3,4,0.5,0.5
2024-06-02T2000,2665A,105.0822,33.3261,陇南市,汉王镇固水子,,,,,,,,,,,,,,,,
2024-06-02T2000,2885A,104.9339,33.3826,陇南市,滨江中学,颗粒物(PM10),58,66,39,9,12,62,,91,87,15,13,6,6,0.8,0.7
2024-06-02T2000,3247A,104.955,33.371,陇南市,市总工会,,39,39,32,11,10,67,,94,90,5,9,8,8,0.6,0.6
2024-06-02T2000,2487A,111.9589,27.8901,娄底市,电视发射台,臭氧1小时,79,49,25,27,8,183,,130,130,5,4,7,6,0.7,0.5
2024-06-02T2000,2488A,111.9975,27.725,娄底市,市监测站,臭氧1小时,58,41,27,20,11,166,,132,132,8,9,4,6,0.7,0.7
2024-06-02T2000,2489A,112.0194,27.7314,娄底市,市委党校,,50,36,19,27,12,158,,122,122,10,9,4,7,0.6,0.6
2024-06-02T2000,2490A,111.9561,27.7569,娄底市,涟钢,颗粒物(PM10),52,54,26,35,11,135,,101,101,34,17,12,7,0.7,0.5
2024-06-02T2000,2491A,111.9892,27.7044,娄底市,市政府,臭氧1小时,60,40,21,30,12,168,,131,131,8,9,6,7,0.5,0.5
2024-06-02T2000,1893A,105.4324,28.9634,泸州市,九狮山,,29,29,34,12,19,45,,70,60,6,8,4,5,0.4,0.3
2024-06-02T2000,1894A,105.4427,28.9063,泸州市,小市上码头,,21,21,44,10,26,50,,92,67,17,12,4,4,0.3,0.3
2024-06-02T2000,1895A,105.4241,28.8573,泸州市,兰田宪桥,,19,16,48,8,25,58,,73,68,10,13,4,5,0.4,0.5
2024-06-02T2000,1896A,105.4379,28.8833,泸州市,市环监站,,18,18,44,11,27,51,,76,63,19,14,7,7,0.5,0.5
2024-06-02T2000,3490A,105.3617,28.7703,泸州市,纳溪区环保局,,26,26,34,7,20,60,,78,62,14,21,2,2,0.4,0.5
2024-06-02T2000,2183A,111.1406,37.5211,吕梁市,环保局,,39,39,57,21,20,123,,137,135,17,21,5,6,0.5,0.5
2024-06-02T2000,2185A,111.1297,37.5136,吕梁市,自来水公司,,39,36,58,22,21,122,,133,132,17,22,3,4,0.4,0.4
2024-06-02T2000,2867A,111.1283,37.51,吕梁市,马茂庄小学,,42,39,64,20,23,133,,139,138,12,27,6,7,0.4,0.5
2024-06-02T2000,1812A,112.3931,34.6516,洛阳市,市委党校,,39,35,49,24,31,123,,135,134,12,13,8,4,0.4,0.5
2024-06-02T2000,1814A,112.4657,34.6871,洛阳市,豫西宾馆,,48,48,60,19,27,127,,142,141,18,17,11,7,0.5,0.5
2024-06-02T2000,1815A,112.494,34.6886,洛阳市,河南林校,,42,30,48,15,28,132,,145,144,16,16,9,6,0.3,0.4
2024-06-02T2000,1816A,112.3844,34.623,洛阳市,开发区管委会,,45,45,47,20,27,108,,126,126,13,12,2,3,0.2,0.2
2024-06-02T2000,1817A,112.4267,34.6258,洛阳市,市委新办公区,,40,40,45,19,32,124,,135,135,10,9,4,5,0.2,0.3
2024-06-02T2000,3340A,112.6005,34.6326,洛阳市,伊滨,,40,25,56,15,28,125,,138,137,12,14,4,6,0.3,0.4
2024-06-02T2000,3341A,112.4951,34.6332,洛阳市,中移产业园,,40,29,48,14,25,126,,136,136,9,10,3,5,0.4,0.5
2024-06-02T2000,3593A,112.5736,34.8993,洛阳市,吉利监测站,,47,47,68,14,26,119,,140,134,15,18,2,6,0.2,0.3
2024-06-02T2000,3635A,112.3677,34.662,洛阳市,河科大西苑校区,,37,37,54,13,27,115,,132,131,13,12,12,5,0.3,0.4
2024-06-02T2000,3636A,112.4388,34.6781,洛阳市,英才小学,,41,34,59,13,29,130,,140,140,15,16,15,7,0.5,0.6
2024-06-02T2000,2399A,114.051,33.5699,漯河市,三五一五工厂,颗粒物(PM10),97,144,144,25,38,130,,153,153,26,26,7,9,0.6,0.6
2024-06-02T2000,2400A,114.0055,33.5698,漯河市,漯河大学,细颗粒物(PM2.5),140,114,124,107,61,145,,152,152,19,22,9,10,0.5,0.5
2024-06-02T2000,2401A,114.0138,33.5828,漯河市,市水利局,颗粒物(PM10),73,95,128,22,36,144,,151,151,13,19,8,10,0.6,0.6
2024-06-02T2000,2402A,114.0261,33.5698,漯河市,市广电局,颗粒物(PM10),90,129,134,24,39,140,,155,155,20,22,5,8,0.5,0.6
2024-06-02T2000,3478A,113.9749,33.5664,漯河市,市图书馆,颗粒物(PM10),67,84,116,22,41,141,,154,154,17,19,4,8,0.5,0.6
2024-06-02T2000,3479A,114.0967,33.5906,漯河市,召陵区卫健委,,,104,134,,58,127,,149,149,30,30,6,9,0.4,0.5
2024-06-02T2000,1798A,118.5092,31.6837,马鞍山市,湖东路四小,,40,37,35,12,14,125,,137,137,22,18,6,7,0.6,0.7
2024-06-02T2000,1799A,118.5024,31.6449,马鞍山市,开发区,,41,41,42,12,16,129,,134,134,22,22,9,9,0.5,0.6
2024-06-02T2000,1800A,118.5228,31.7231,马鞍山市,慈湖,,41,29,31,16,17,130,,137,137,31,23,6,6,0.6,0.6
2024-06-02T2000,1802A,118.6245,31.7241,马鞍山市,濮塘,,39,34,32,22,20,124,,122,122,14,15,4,5,0.6,0.6
2024-06-02T2000,3633A,118.4918,31.6809,马鞍山市,雨山,,45,45,38,13,16,129,,140,140,20,17,8,9,0.5,0.6
2024-06-02T2000,1686A,111.0286,21.4688,茂名市,电白南海,臭氧1小时,90,27,35,14,25,192,,116,116,7,10,7,18,0.8,0.8
2024-06-02T2000,1687A,110.9294,21.6533,茂名市,茂石化七小,,23,17,34,14,25,71,,107,101,18,14,7,18,0.9,0.9
2024-06-02T2000,1688A,110.9107,21.6687,茂名市,健康路,,24,9,30,9,19,74,,108,103,12,11,8,20,0.9,0.8
2024-06-02T2000,1689A,110.8592,21.6828,茂名市,高岭,,15,9,35,7,24,47,,92,86,26,17,6,24,0.7,0.8
2024-06-02T2000,3450A,111.01,21.5165,茂名市,电白水东,,29,,27,17,18,90,,104,104,8,12,4,10,0.9,1
2024-06-02T2000,2539A,104.0308,30.0478,眉山市,黑龙滩水库,,28,25,38,17,20,89,,86,86,4,10,3,3,0.4,0.4
2024-06-02T2000,2540A,103.8416,30.0874,眉山市,气象局,,26,20,32,17,20,83,,106,106,15,21,8,8,0.4,0.4
2024-06-02T2000,3137A,103.8578,30.0744,眉山市,市委党校,,26,24,34,12,15,83,,101,101,15,20,7,8,0.3,0.3
2024-06-02T2000,3148A,103.8291,30.0564,眉山市,区人社局,,33,33,43,19,19,82,,100,100,22,26,8,9,0.4,0.4
2024-06-02T2000,1690A,116.1231,24.3284,梅州市,梅江月梅,,17,17,10,3,4,28,,56,52,7,6,4,4,0.7,0.6
2024-06-02T2000,1691A,116.0797,24.2719,梅州市,梅县新城,,20,20,10,8,5,35,,57,54,22,8,4,3,0.7,0.4
2024-06-02T2000,1692A,116.1248,24.2654,梅州市,环境监控中心,,28,28,11,9,7,26,,49,45,20,13,3,3,0.6,0.5
2024-06-02T2000,3315A,116.1233,24.2991,梅州市,梅龙,,22,22,8,15,5,37,,54,52,10,5,8,7,0.7,0.5
2024-06-02T2000,1878A,104.7778,31.4741,绵阳市,富乐山,,36,26,23,25,16,115,,119,119,6,6,7,7,0.4,0.4
2024-06-02T2000,1879A,104.7563,31.4535,绵阳市,市人大,,40,34,28,28,17,105,,106,106,15,13,4,8,0.4,0.3
2024-06-02T2000,1880A,104.6697,31.4668,绵阳市,高新区自来水公司,,,34,26,,22,113,,120,120,11,11,9,8,0.4,0.4
2024-06-02T2000,1881A,104.7287,31.5075,绵阳市,三水厂,,38,,26,26,19,116,,120,120,10,11,5,5,0.4,0.4
2024-06-02T2000,3491A,104.69,31.5322,绵阳市,西科大附属小学,,34,29,29,21,16,108,,115,115,13,16,5,5,0.6,0.5
2024-06-02T2000,3492A,104.5648,31.5343,绵阳市,安州区旅游局,,33,22,20,14,14,103,,112,112,13,12,8,8,0.4,0.3
2024-06-02T2000,1784A,129.61,44.561,牡丹江市,环保大楼,,35,31,16,24,10,56,,86,84,17,10,5,6,0.4,0.3
2024-06-02T2000,1785A,129.6115,44.5782,牡丹江市,文化广场,,36,36,21,23,22,48,,84,80,20,13,6,6,0.4,0.4
2024-06-02T2000,1786A,129.5904,44.5963,牡丹江市,第一医院,,21,21,20,3,17,40,,88,82,16,13,6,5,0.2,0.3
2024-06-02T2000,1787A,129.6364,44.6075,牡丹江市,机车工厂,,34,34,20,15,11,39,,84,78,12,11,9,8,0.5,0.4
2024-06-02T2000,1788A,129.6386,44.5462,牡丹江市,第一中学,,30,30,17,19,14,46,,92,88,20,10,5,4,0.4,0.3
2024-06-02T2000,2531A,105.0703,29.61,内江市,市监测站,,42,,30,29,27,60,,79,72,15,13,5,4,0.3,0.3
2024-06-02T2000,2532A,105.0717,29.5947,内江市,东兴区政府,,32,32,33,14,17,66,,77,74,12,11,7,7,0.5,0.5
2024-06-02T2000,2533A,105.0653,29.5817,内江市,内江二中,,38,30,32,26,24,67,,73,72,12,11,6,6,0.4,0.4
2024-06-02T2000,2534A,105.0406,29.5822,内江市,内江日报社,,44,44,37,28,26,68,,81,76,15,13,7,8,0.5,0.5
2024-06-02T2000,2628A,92.0657,31.4846,那曲市,那曲监测站,,48,14,11,7,7,153,,158,155,8,6,8,6,0.5,0.4
2024-06-02T2000,3128A,92.0506,31.4797,那曲市,那曲会议中心,,50,,12,7,7,158,,160,159,3,4,3,3,0.4,0.4
2024-06-02T2000,1290A,115.8931,28.6843,南昌市,省外办,,31,24,24,14,14,99,,120,116,15,14,5,6,0.6,0.5
2024-06-02T2000,1291A,115.8886,28.7003,南昌市,省林业公司,,35,12,13,9,9,112,,128,125,6,10,4,4,0.7,0.8
2024-06-02T2000,1292A,115.8126,28.7442,南昌市,林科所,,33,9,12,3,5,104,,124,120,17,16,6,7,0.7,0.7
2024-06-02T2000,1294A,115.8518,28.687,南昌市,建工学校,,35,18,19,11,9,110,,128,125,9,8,6,6,0.4,0.3
2024-06-02T2000,1295A,115.8921,28.6424,南昌市,象湖,,37,23,16,9,8,117,,132,128,8,8,4,4,0.5,0.4
2024-06-02T2000,1296A,115.7423,28.7996,南昌市,武术学校,,20,,14,12,19,62,,118,108,3,3,4,4,0.5,0.4
2024-06-02T2000,1298A,115.9314,28.6842,南昌市,省站,,33,24,17,8,11,105,,120,117,16,13,5,6,0.5,0.4
2024-06-02T2000,3046A,115.9084,28.6062,南昌市,机电学校,,37,37,23,14,9,84,,121,114,24,11,8,8,1.0,0.6
2024-06-02T2000,3690A,115.9721,28.7031,南昌市,外国语学校,,35,,15,18,12,110,,122,119,5,5,3,3,0.4,0.4
2024-06-02T2000,1905A,106.056,30.8064,南充市,西山风景区,,30,,22,21,20,94,,91,91,2,2,3,3,0.4,0.4
2024-06-02T2000,1906A,106.0789,30.8023,南充市,南充市委,,31,31,34,17,21,98,,90,90,14,12,4,4,0.3,0.3
2024-06-02T2000,1907A,106.1031,30.8217,南充市,南充炼油厂,,36,31,39,22,23,113,,101,101,11,11,6,6,0.3,0.5
2024-06-02T2000,1908A,106.1064,30.7856,南充市,高坪区监测站,,35,29,35,16,19,111,,101,101,13,10,6,6,0.1,0.1
2024-06-02T2000,1909A,106.0642,30.7636,南充市,嘉陵区环保局,,34,29,34,22,22,108,,98,98,14,11,4,4,0.3,0.2
2024-06-02T2000,1910A,106.1087,30.8388,南充市,市环境监测站,,35,35,32,18,21,107,,97,97,12,10,6,6,0.4,0.4
2024-06-02T2000,1151A,118.8086,32.1065,南京市,迈皋桥,,43,25,25,17,12,135,,139,139,13,14,4,5,0.2,0.3
2024-06-02T2000,1152A,118.7538,32.0551,南京市,草场门,,43,34,27,14,13,135,,140,140,22,18,2,3,0.3,0.3
2024-06-02T2000,1153A,118.7794,32.0745,南京市,山西路,,40,31,27,17,11,127,,132,132,11,11,4,4,0.3,0.3
2024-06-02T2000,1154A,118.7752,32.0023,南京市,中华门,,40,29,31,17,12,126,,135,135,26,18,4,4,0.3,0.4
2024-06-02T2000,1155A,118.8109,32.0309,南京市,瑞金路,,43,43,35,19,15,116,,135,135,31,20,5,6,0.2,0.2
2024-06-02T2000,1156A,118.7997,32.0754,南京市,玄武湖,,42,30,29,15,10,134,,137,137,19,15,8,8,0.5,0.6
2024-06-02T2000,1157A,118.6414,32.0931,南京市,浦口,,36,36,31,13,16,105,,127,127,16,21,5,6,0.3,0.4
2024-06-02T2000,1158A,118.7356,31.9996,南京市,奥体中心,,46,32,36,17,13,145,,144,144,17,16,9,9,0.4,0.5
2024-06-02T2000,1159A,118.9125,32.1028,南京市,仙林大学城,,45,36,28,14,13,141,,147,147,19,17,10,10,0.4,0.5
2024-06-02T2000,3422A,118.8436,31.9198,南京市,江宁彩虹桥,,36,35,34,22,14,114,,140,140,34,16,3,4,0.3,0.4
2024-06-02T2000,3423A,119.0138,31.6494,南京市,溧水永阳,,43,34,31,20,19,135,,145,145,19,15,5,5,0.4,0.5
2024-06-02T2000,3424A,118.879,31.3302,南京市,高淳老职中,,41,,35,15,16,130,,134,134,18,13,6,7,0.4,0.5
2024-06-02T2000,3427A,118.8554,32.3578,南京市,六合雄州,,41,25,30,13,10,130,,144,144,25,23,10,10,0.5,0.4
2024-06-02T2000,1401A,108.3103,22.7881,南宁市,二十一中,,32,,32,22,21,93,,118,116,9,11,3,4,0.8,0.8
2024-06-02T2000,1402A,108.3141,22.8528,南宁市,北湖,,45,45,36,24,23,92,,113,111,14,14,3,5,1.0,1
2024-06-02T2000,1403A,108.3206,22.8225,南宁市,市监测站,,30,29,31,21,21,82,,112,108,15,15,3,4,0.9,0.9
2024-06-02T2000,1404A,108.3829,22.8037,南宁市,大自然花园,,35,,29,24,22,86,,103,101,9,11,4,5,0.6,0.7
2024-06-02T2000,1405A,108.4394,22.7904,南宁市,仙葫,,46,46,32,25,21,88,,97,96,19,19,4,4,1.0,1
2024-06-02T2000,1406A,108.2397,22.8467,南宁市,区农职院,,40,40,39,27,24,88,,128,124,19,19,6,7,0.9,0.9
2024-06-02T2000,1407A,108.3275,22.735,南宁市,英华嘉园,,42,42,35,26,22,78,,97,95,20,17,6,7,0.9,0.8
2024-06-02T2000,1408A,108.2257,22.7757,南宁市,沙井镇街道办,,47,47,38,29,24,73,,98,95,19,22,3,4,0.8,0.7
2024-06-02T2000,3401A,108.4834,22.7618,南宁市,红星社区,,43,41,35,30,25,87,,103,101,12,15,4,5,0.7,0.7
2024-06-02T2000,2331A,118.0966,26.6761,南平市,茫荡山,,,,,,,,,,,,,,,,
2024-06-02T2000,2332A,118.1681,26.6369,南平市,南平市监测站,,29,12,6,7,5,92,,96,96,10,7,3,4,0.8,0.7
2024-06-02T2000,2333A,118.1825,26.6489,南平市,南平铝业有限公司,,28,8,8,3,2,87,,90,90,12,9,4,4,0.7,0.7
2024-06-02T2000,2334A,118.1756,26.6272,南平市,南平七中,,,6,6,3,1,92,,94,94,7,5,4,4,,0.6
2024-06-02T2000,1168A,120.9098,31.9663,南通市,狼山街道,,36,15,26,3,12,114,,142,141,10,15,9,10,0.4,0.5
2024-06-02T2000,1169A,120.86,32.0005,南通市,虹桥,,38,26,31,3,13,119,,139,139,16,20,5,8,0.4,0.5
2024-06-02T2000,1170A,120.87,32.02,南通市,城中,,38,29,36,11,18,119,,139,139,16,17,6,7,0.5,0.5
2024-06-02T2000,1171A,120.94,31.93,南通市,星湖花园,,36,17,23,3,11,115,,142,140,20,18,8,9,0.4,0.5
2024-06-02T2000,1172A,120.81,32.0417,南通市,紫琅学院,,40,19,26,8,15,126,,141,141,20,30,6,7,0.5,0.5
2024-06-02T2000,3291A,121.067,32.062,南通市,通州监测站,,34,34,33,17,13,107,,135,132,18,12,8,10,0.5,0.5
2024-06-02T2000,3432A,120.9348,31.9883,南通市,环境教育馆,,,,35,8,16,123,,137,137,21,24,8,8,0.4,0.5
2024-06-02T2000,2404A,112.5224,33.0122,南阳市,瓦房庄,,49,49,100,20,41,130,,147,147,18,22,6,8,0.4,0.5
2024-06-02T2000,2405A,112.5003,32.9735,南阳市,汉画馆,颗粒物(PM10),54,57,100,26,44,102,,143,136,32,23,5,6,0.6,0.7
2024-06-02T2000,2406A,112.5573,33.027,南阳市,气象站,颗粒物(PM10),53,56,102,14,37,114,,155,149,30,19,4,5,0.5,0.6
2024-06-02T2000,2407A,112.5481,32.9689,南阳市,理工学院,,49,49,88,13,35,127,,150,146,18,16,6,7,0.4,0.6
2024-06-02T2000,4008A,112.5234,32.9922,南阳市,卧龙区政府,颗粒物(PM10),51,52,96,23,40,102,,147,141,46,23,4,6,0.6,0.7
2024-06-02T2000,1234A,121.8358,29.911,宁波市,区环保大楼,,24,21,23,9,12,76,,117,112,40,26,6,6,0.5,0.6
2024-06-02T2000,1235A,121.56,29.82,宁波市,万里学院,,34,18,24,3,11,108,,132,131,22,16,5,7,0.4,0.5
2024-06-02T2000,1236A,121.713,29.9572,宁波市,龙赛医院,,27,18,24,9,11,85,,113,112,39,40,19,11,0.3,0.4
2024-06-02T2000,1239A,121.633,29.7733,宁波市,钱湖水厂,,34,16,26,8,13,108,,122,122,14,13,4,4,0.6,0.6
2024-06-02T2000,1240A,121.5856,29.8635,宁波市,太古小学,,33,19,25,3,11,103,,123,122,18,14,6,7,0.5,0.6
2024-06-02T2000,1241A,121.524,29.8674,宁波市,市环境监测中心,,33,19,20,10,10,104,,129,127,24,14,10,10,0.5,0.5
2024-06-02T2000,2871A,121.6147,29.9017,宁波市,万里国际学校,,30,23,35,7,15,94,,127,124,34,24,5,6,0.5,0.5
2024-06-02T2000,3710A,121.5594,29.8975,宁波市,白沙活动中心,,29,15,20,9,11,91,,126,124,36,20,11,10,0.5,0.5
2024-06-02T2000,2339A,119.5001,26.6946,宁德市,金涵水库,,,,,,,,,,,,,,,,
2024-06-02T2000,2341A,119.5388,26.6612,宁德市,宁德市监测站,,30,10,6,8,5,93,,112,105,12,11,5,5,0.5,0.6
2024-06-02T2000,3209A,119.5231,26.6562,宁德市,宁德一中,,29,13,6,6,5,92,,104,99,14,14,5,5,0.4,0.5
2024-06-02T2000,2618A,98.8601,25.8567,怒江傈僳族自治州,州监测站,,46,46,36,25,24,74,,87,87,8,11,10,11,0.5,0.5
2024-06-02T2000,2619A,98.8546,25.8417,怒江傈僳族自治州,泸水一中,颗粒物(PM10),52,54,38,23,22,37,,69,69,27,15,5,5,0.6,0.4
2024-06-02T2000,1888A,101.6891,26.571,攀枝花市,弄弄坪,,45,45,67,18,44,111,,138,138,19,26,15,37,0.5,1.2
2024-06-02T2000,1889A,101.5769,26.5928,攀枝花市,河门口,,33,27,51,19,35,105,,139,137,18,25,16,23,1.1,1.6
2024-06-02T2000,1890A,101.7169,26.585,攀枝花市,炳草岗,颗粒物(PM10),54,58,53,15,33,111,,142,142,19,25,20,34,0.6,1.3
2024-06-02T2000,1891A,101.7369,26.5008,攀枝花市,仁和,,29,29,53,18,42,75,,132,126,33,15,11,13,0.4,0.6
2024-06-02T2000,2835A,101.7227,26.567,攀枝花市,四十中小,,45,38,44,31,34,88,,142,140,37,22,24,53,0.9,1.3
2024-06-02T2000,1604A,122.0303,41.1489,盘锦市,开发区,,34,34,47,14,40,108,,162,157,21,33,9,16,0.4,0.7
2024-06-02T2000,1605A,122.0485,41.0883,盘锦市,兴隆台,,30,25,40,15,38,95,,164,156,31,39,8,14,0.4,0.7
2024-06-02T2000,1606A,121.8297,41.1028,盘锦市,新生街道,颗粒物(PM10),96,141,44,32,32,134,,153,153,19,37,6,12,0.6,0.7
2024-06-02T2000,1832A,113.3257,33.742,平顶山市,新华旅馆,颗粒物(PM10),115,180,148,81,58,195,,193,193,23,33,11,12,0.7,0.6
2024-06-02T2000,1833A,113.2919,33.737,平顶山市,规划设计院,细颗粒物(PM2.5),112,164,131,84,57,186,,184,184,21,29,8,10,0.6,0.5
2024-06-02T2000,1834A,113.182,33.774,平顶山市,平顶山工学院,细颗粒物(PM2.5),92,118,120,68,55,177,,178,178,15,22,8,10,0.7,0.7
2024-06-02T2000,3204A,113.3025,33.73,平顶山市,规划局,细颗粒物(PM2.5),124,180,159,94,62,174,,184,184,23,24,8,11,0.9,0.8
2024-06-02T2000,3594A,112.8867,33.9116,平顶山市,石龙区,颗粒物(PM10),70,89,145,43,57,150,,164,164,14,28,8,11,0.6,0.7
2024-06-02T2000,2656A,106.6692,35.5461,平凉市,聚贤嘉苑,颗粒物(PM10),56,61,44,19,20,92,,114,106,25,15,7,7,0.3,0.3
2024-06-02T2000,2657A,106.7021,35.5307,平凉市,博物馆,,41,41,37,24,19,109,,118,114,18,15,9,9,0.4,0.4
2024-06-02T2000,2347A,114.0997,27.5002,萍乡市,武功山,,19,12,5,3,4,60,,103,96,10,4,14,14,0.4,0.3
2024-06-02T2000,2348A,113.8385,27.6434,萍乡市,中医院,,36,36,23,17,13,87,,116,111,16,4,12,8,0.7,0.4
2024-06-02T2000,2349A,113.8493,27.6253,萍乡市,市政府车库,,38,36,19,26,14,77,,114,107,17,5,17,15,0.7,0.7
2024-06-02T2000,2350A,113.8676,27.6435,萍乡市,市环保局,,38,38,21,23,14,83,,110,106,17,6,14,11,0.7,0.4
2024-06-02T2000,2351A,113.866,27.6198,萍乡市,安源区政府,,31,28,22,17,9,97,,116,114,7,7,18,18,0.4,1.3
2024-06-02T2000,2319A,119.0141,25.4325,莆田市,荔城区仓后路,,33,9,7,3,0,105,,116,116,9,10,5,5,0.6,0.6
2024-06-02T2000,2320A,119.0015,25.4553,莆田市,莆田市监测站,,,,6,0,0,88,,95,,4,6,8,7,1.3,0.8
2024-06-02T2000,2321A,119.1119,25.4561,莆田市,涵江区六中,,35,6,6,3,0,112,,128,127,8,12,8,8,0.4,0.5
2024-06-02T2000,2322A,119.1013,25.3215,莆田市,秀屿区政府,,30,7,6,3,0,94,,107,103,6,6,6,7,0.6,0.7
2024-06-02T2000,2323A,118.981,25.4792,莆田市,东圳水库,,,,,,,,,,,,,,,,
2024-06-02T2000,2392A,115.0312,35.7636,濮阳市,环保局,颗粒物(PM10),89,128,86,33,21,165,,181,181,23,18,12,10,0.3,0.1
2024-06-02T2000,2394A,115.0574,35.7609,濮阳市,油田运输公司,颗粒物(PM10),102,154,102,30,21,191,,196,196,25,20,12,11,0.5,0.3
2024-06-02T2000,2395A,115.0866,35.7754,濮阳市,油田物探公司,臭氧1小时,101,146,113,31,22,201,,199,199,17,18,11,11,0.5,0.4
2024-06-02T2000,3021A,115,35.7668,濮阳市,濮水河管理处,颗粒物(PM10),90,130,94,32,28,159,,182,182,29,20,15,11,0.4,0.3
2024-06-02T2000,2601A,100.98,22.7633,普洱市,市环保局,,29,22,20,20,18,84,,79,79,6,6,7,7,0.4,0.4
2024-06-02T2000,2602A,100.9817,22.8322,普洱市,普洱第二中学,,29,22,20,20,16,76,,79,79,8,7,7,7,0.6,0.6
2024-06-02T2000,2262A,131.0518,45.8751,七台河市,新一中,,20,20,12,14,9,61,,92,89,16,8,8,9,0.7,0.7
2024-06-02T2000,3345A,131.0577,45.7879,七台河市,中波台,,22,9,12,7,11,69,,87,86,14,15,7,8,0.3,0.3
2024-06-02T2000,3637A,131.0176,45.7761,七台河市,人民广场,,22,22,25,3,15,60,,84,82,11,13,8,10,0.5,0.5
2024-06-02T2000,3684A,130.8781,45.8222,七台河市,新建矿广场,,29,22,13,20,14,70,,81,80,14,19,4,6,0.4,0.4
2024-06-02T2000,1779A,123.9305,47.3636,齐齐哈尔市,安居小区,,30,29,24,17,14,96,,106,105,16,15,5,5,0.4,0.3
2024-06-02T2000,1780A,123.9488,47.3386,齐齐哈尔市,中心广场,颗粒物(PM10),51,51,26,23,12,86,,107,104,20,11,10,8,0.3,0.2
2024-06-02T2000,1781A,123.9483,47.3227,齐齐哈尔市,农牧车辆厂,,34,34,34,15,12,97,,110,109,12,14,9,8,0.2,0.2
2024-06-02T2000,1783A,123.945,47.2988,齐齐哈尔市,市环境监测站,,33,33,24,16,12,101,,112,111,9,11,5,5,0.2,0.2
2024-06-02T2000,3662A,123.6333,47.2075,齐齐哈尔市,富区青少年活动中心,,31,27,24,10,9,97,,108,107,9,11,6,7,0.2,0.3
2024-06-02T2000,2591A,107.9783,26.5747,黔东南苗族侗族自治州,市环境监测站,,,,24,14,17,66,,89,68,,8,3,3,0.5,0.5
2024-06-02T2000,2881A,107.8908,26.5311,黔东南苗族侗族自治州,凯里学院,,24,23,22,16,15,74,,97,82,7,6,3,3,0.4,0.4
2024-06-02T2000,2593A,107.5228,26.2403,黔南布依族苗族自治州,小围寨,,29,29,17,7,9,56,,73,62,7,8,7,5,0.4,0.4
2024-06-02T2000,3538A,107.5175,26.2978,黔南布依族苗族自治州,沙坝,,18,14,17,12,10,55,,78,65,6,7,3,4,0.5,0.5
2024-06-02T2000,2589A,104.9022,25.0925,黔西南布依族苗族自治州,场坝街,,25,14,13,3,6,78,,85,85,8,6,4,4,0.8,0.7
2024-06-02T2000,2590A,104.8811,25.0992,黔西南布依族苗族自治州,坪东大道,,25,23,16,17,9,78,,82,82,5,5,3,3,0.5,0.5
2024-06-02T2000,2502A,108.6236,21.9667,钦州市,市环保站,,34,34,31,7,14,58,,128,119,18,15,7,8,0.7,0.8
2024-06-02T2000,2503A,108.6549,21.9481,钦州市,沙埠小学,,20,20,39,14,23,59,,122,114,18,18,6,6,0.8,0.7
2024-06-02T2000,2504A,108.5989,21.7431,钦州市,港区一小,,25,25,38,7,15,68,,98,89,8,15,6,7,0.5,0.7
2024-06-02T2000,3404A,108.5959,21.9633,钦州市,北职校,,32,32,33,8,20,58,,124,116,11,13,7,9,0.6,0.7
2024-06-02T2000,1042A,119.5134,39.8207,秦皇岛市,北戴河环保局,臭氧1小时,62,63,58,30,27,169,,187,184,23,18,4,5,0.5,0.4
2024-06-02T2000,1043A,119.7493,40.0116,秦皇岛市,第一关,细颗粒物(PM2.5),117,,70,88,49,152,,113,,31,58,7,6,0.5,0.5
2024-06-02T2000,1044A,119.5897,39.9499,秦皇岛市,监测站,颗粒物(PM10),71,92,62,48,41,159,,186,183,38,31,9,8,0.6,0.5
2024-06-02T2000,1046A,119.5251,39.9041,秦皇岛市,建设大厦,颗粒物(PM10),57,63,54,32,25,162,,164,162,26,28,4,6,0.3,0.3
2024-06-02T2000,3132A,119.610547,39.943889,秦皇岛市,文明里,颗粒物(PM10),71,92,63,43,29,171,,184,183,35,38,9,9,0.6,0.5
2024-06-02T2000,1307A,120.6659,36.2403,青岛市,仰口,臭氧1小时,65,36,29,17,16,172,,158,158,7,10,7,6,0.4,0.4
2024-06-02T2000,1310A,120.4134,36.0658,青岛市,市南区东部子站,,47,34,37,14,15,148,,162,162,24,28,10,11,0.7,0.7
2024-06-02T2000,1311A,120.3664,36.1032,青岛市,四方区子站,,50,39,40,19,16,160,,190,188,31,37,10,12,0.6,0.6
2024-06-02T2000,1312A,120.2994,36.054,青岛市,市南区西部子站,,47,36,42,15,15,149,,156,156,31,36,8,9,0.5,0.5
2024-06-02T2000,1313A,120.4581,36.0858,青岛市,崂山区子站,,47,31,35,14,15,148,,151,151,28,30,9,10,0.5,0.6
2024-06-02T2000,1314A,120.1983,35.9608,青岛市,黄岛区子站,,50,39,38,17,14,159,,171,171,17,23,8,9,0.6,0.7
2024-06-02T2000,1315A,120.3999,36.3083,青岛市,城阳区子站,颗粒物(PM10),68,85,51,24,16,163,,190,190,37,35,9,10,0.7,0.6
2024-06-02T2000,1966A,120.0405,35.8735,青岛市,黄岛区4号,,49,31,37,9,11,155,,174,174,17,23,9,11,0.6,0.7
2024-06-02T2000,3362A,120.5014,36.4034,青岛市,即墨2号,臭氧1小时,80,61,56,24,19,184,,200,200,26,29,8,9,0.7,0.6
2024-06-02T2000,3642A,120.3503,36.0736,青岛市,市北区南部,臭氧1小时,58,37,36,12,11,166,,173,173,18,29,6,8,0.5,0.6
2024-06-02T2000,3643A,120.3948,36.1805,青岛市,李沧区北部,颗粒物(PM10),54,58,42,22,17,155,,207,203,47,37,9,10,0.7,0.7
2024-06-02T2000,1702A,113.0426,23.691,清远市,环保大楼,,22,17,12,12,5,68,,80,75,18,9,5,7,0.8,0.7
2024-06-02T2000,1703A,113.0208,23.7106,清远市,凤城街办,,28,27,14,19,13,51,,72,66,18,9,5,5,0.8,0.6
2024-06-02T2000,3025A,113.0477,23.6344,清远市,技师学院,,24,24,17,12,10,72,,84,81,14,7,4,4,0.8,0.6
2024-06-02T2000,3318A,112.9903,23.7403,清远市,清新太和,,19,19,15,10,8,44,,78,67,15,11,12,9,0.7,0.8
2024-06-02T2000,3455A,113.076,23.7198,清远市,清城东城,,22,22,18,10,8,68,,87,82,10,9,5,5,0.8,0.8
2024-06-02T2000,2661A,107.6325,35.7357,庆阳市,庆阳五中,,40,40,31,26,21,112,,128,115,12,8,4,2,0.4,0.3
2024-06-02T2000,2662A,107.6364,35.7067,庆阳市,市环保局,,37,27,25,23,17,116,,124,117,6,5,2,2,0.4,0.3
2024-06-02T2000,1916A,103.7897,25.5035,曲靖市,环境监测站,,37,37,31,15,15,101,,108,108,11,9,3,3,0.4,0.5
2024-06-02T2000,1917A,103.8,25.5364,曲靖市,烟厂办公区,,33,30,30,8,15,105,,109,109,8,7,4,4,0.4,0.5
2024-06-02T2000,3376A,103.7947,25.462,曲靖市,南苑二区,,35,18,26,11,16,111,,113,113,7,8,5,4,0.6,0.6
2024-06-02T2000,3377A,103.7444,25.5261,曲靖市,曲靖师范学院,,50,50,24,12,14,118,,118,118,7,8,5,6,0.5,0.5
2024-06-02T2000,1264A,118.8692,28.9398,衢州市,环保大楼,,29,16,16,12,12,91,,124,117,21,14,4,3,0.3,0.4
2024-06-02T2000,1265A,118.8709,28.9666,衢州市,实验学校,,30,14,16,10,12,95,,126,119,17,11,11,10,0.3,0.3
2024-06-02T2000,1266A,118.8621,28.9808,衢州市,衢州学院,,30,13,14,9,13,95,,123,116,17,13,5,5,0.4,0.4
2024-06-02T2000,1611A,118.5819,24.9117,泉州市,涂山街,,37,6,3,3,2,116,,126,125,6,6,2,2,0.4,0.5
2024-06-02T2000,1612A,118.5972,24.8978,泉州市,津头埔,,35,8,3,3,2,109,,122,122,14,13,2,1,0.4,0.5
2024-06-02T2000,1613A,118.6663,24.9424,泉州市,万安,,35,9,6,3,2,110,,128,126,6,7,1,1,0.4,0.5
2024-06-02T2000,1614A,118.6117,24.9604,泉州市,清源山,,,,,,,,,,,,,,,,
2024-06-02T2000,3529A,118.6333,24.9264,泉州市,城华南路,,36,,4,6,8,114,,128,127,8,10,4,4,0.3,0.4
2024-06-02T2000,2626A,88.8876,29.2718,日喀则市,日喀则监测站,,46,18,16,6,6,146,,160,159,5,5,5,5,0.4,0.4
2024-06-02T2000,3726A,88.8781,29.2426,日喀则市,林业技术推广中心,,43,21,20,7,6,137,,155,153,8,7,4,4,0.6,0.6
2024-06-02T2000,1659A,119.471,35.4209,日照市,监测站,颗粒物(PM10),58,66,44,22,18,153,,191,189,29,35,12,12,0.5,0.6
2024-06-02T2000,1660A,119.523,35.4216,日照市,市政府广场,颗粒物(PM10),56,61,47,11,13,157,,186,184,28,33,12,13,0.6,0.7
2024-06-02T2000,1661A,119.5587,35.4044,日照市,港务局,颗粒物(PM10),68,85,68,18,16,150,,172,172,44,39,8,11,0.6,0.7
2024-06-02T2000,3507A,119.5328,35.4625,日照市,职业技术学院,颗粒物(PM10),64,78,50,17,13,166,,188,187,25,31,11,12,0.5,0.7
2024-06-02T2000,3604A,119.3266,35.1044,日照市,岚山环保分局,颗粒物(PM10),62,73,48,15,16,160,,184,184,22,23,8,9,0.5,0.7
2024-06-02T2000,1835A,111.1922,34.7752,三门峡市,市政府,颗粒物(PM10),55,59,52,32,27,91,,94,94,29,22,13,11,0.8,0.7
2024-06-02T2000,1836A,111.1587,34.7942,三门峡市,开发区,颗粒物(PM10),59,67,63,37,37,97,,103,102,23,18,15,14,0.8,0.7
2024-06-02T2000,1838A,111.143,34.7955,三门峡市,风景区,,,,,,,,,,,,,,,,
2024-06-02T2000,3039A,111.1911,34.7829,三门峡市,三门峡市第一小学,颗粒物(PM10),60,69,48,40,34,101,,100,100,28,21,14,12,0.6,0.5
2024-06-02T2000,3598A,111.1,34.7167,三门峡市,富达温泉假日酒店,细颗粒物(PM2.5),53,52,52,37,41,93,,91,91,23,24,14,12,0.6,0.7
2024-06-02T2000,2324A,117.6211,26.2625,三明市,三钢,,28,,7,12,7,87,,86,86,10,8,5,5,0.5,0.4
2024-06-02T2000,2325A,117.635,26.2714,三明市,三明二中,,27,12,6,3,6,84,,84,84,10,9,6,5,0.6,0.5
2024-06-02T2000,2326A,117.6028,26.2378,三明市,三元区政府,,28,10,8,3,2,88,,84,84,9,13,6,8,0.5,0.7
2024-06-02T2000,2327A,117.7275,26.3108,三明市,洋溪,,,,,,,,,,,,,,,,
2024-06-02T2000,1876A,109.5078,18.2489,三亚市,河东子站,,22,12,16,3,5,68,,70,69,4,7,3,3,0.3,0.3
2024-06-02T2000,1877A,109.4964,18.2681,三亚市,河西子站,,23,10,17,3,6,72,,68,67,2,6,1,1,0.3,0.3
2024-06-02T2000,3540A,109.7348,18.3443,三亚市,君悦子站,,18,11,24,3,5,57,,59,58,7,9,3,2,0.4,0.5
2024-06-02T2000,2624A,91.7608,29.2313,山南市,山南监测站,,46,20,12,7,5,147,,147,147,2,3,8,8,0.2,0.3
2024-06-02T2000,2625A,91.7706,29.2436,山南市,山南人民医院,,47,34,24,9,8,149,,144,144,6,9,8,8,0.3,0.3
2024-06-02T2000,1674A,116.6794,23.3667,汕头市,金平子站,,40,,11,3,5,125,,85,85,13,14,2,2,1.0,0.7
2024-06-02T2000,1675A,116.7244,23.3633,汕头市,龙湖子站,,,,11,13,4,122,,81,81,,6,5,5,0.7,0.7
2024-06-02T2000,1676A,116.7258,23.2775,汕头市,濠江子站,,,,12,6,4,123,,79,79,5,8,4,4,0.8,0.8
2024-06-02T2000,1677A,116.7519,23.4714,汕头市,澄海子站,,42,12,9,7,7,132,,88,88,8,10,4,4,0.9,0.9
2024-06-02T2000,1678A,116.6092,23.2539,汕头市,潮阳子站,,39,24,12,6,8,124,,85,85,6,5,4,4,0.6,0.4
2024-06-02T2000,3444A,116.454,23.2684,汕头市,潮南峡山,,33,17,10,6,5,103,,71,71,10,8,4,4,0.9,0.8
