timepoint,stationcode,longitude,latitude,area,positionname,primarypollutant,aqi,pm10,pm10_24h,pm2_5,pm2_5_24h,o3,o3_24h,o3_8h,o3_8h_24h,no2,no2_24h,so2,so2_24h,co,co_24h
2025-10-26T0100,2568A,102.2502,31.8896,阿坝藏族羌族自治州,马师校,,26,,15,18,15,7,,,,10,10,5,5,0.6,0.6
2025-10-26T0100,3994A,102.2165,31.9024,阿坝藏族羌族自治州,马尔康中学西区,,22,,14,15,13,10,,,,13,11,5,5,0.6,0.6
2025-10-26T0100,2695A,80.292,41.1694,阿克苏地区,电视台,颗粒物(PM10),119,187,173,56,53,5,,,,74,34,6,6,1.2,0.8
2025-10-26T0100,2696A,80.2613,41.1551,阿克苏地区,艺术中心,颗粒物(PM10),130,210,160,91,56,6,,,,103,42,7,4,1.8,0.5
2025-10-26T0100,2205A,105.6985,38.8411,阿拉善盟,蒙二幼,,33,33,46,10,27,65,,,,12,13,8,9,0.5,0.7
2025-10-26T0100,2206A,105.724,38.8516,阿拉善盟,环保局新楼,,28,15,34,9,32,88,,,,6,11,8,9,0.5,0.7
2025-10-26T0100,2708A,88.1264,47.8517,阿勒泰地区,市站,,25,15,59,8,7,80,,,,4,16,2,3,0.2,0.2
2025-10-26T0100,2630A,80.1161,32.5,阿里地区,阿里监测站,,17,6,3,3,3,54,,,,22,16,14,11,0.4,0.3
2025-10-26T0100,3192A,80.0903,32.5028,阿里地区,阿里藏医院,,27,6,9,3,3,86,,,,1,6,8,9,0.2,0.3
2025-10-26T0100,2644A,109.0072,32.6975,安康市,汉滨区检察院,,12,10,35,8,22,15,,,,10,15,4,5,0.5,0.5
2025-10-26T0100,4054A,109.0325,32.6913,安康市,市邮政管理局,,13,13,34,9,22,16,,,,15,18,6,6,0.6,0.7
2025-10-26T0100,2291A,117.0809,30.5177,安庆市,环科院,,46,42,47,32,32,59,,,,9,12,7,9,0.5,0.6
2025-10-26T0100,2292A,117.0331,30.5119,安庆市,马山宾馆,细颗粒物(PM2.5),75,,47,55,39,63,,,,15,14,4,8,0.3,0.5
2025-10-26T0100,2294A,116.9896,30.6145,安庆市,安庆大学,,43,36,48,30,34,56,,,,11,12,5,6,0.3,0.4
2025-10-26T0100,3173A,117.0598,30.5351,安庆市,市人大,,50,,48,35,35,59,,,,13,15,7,9,0.4,0.5
2025-10-26T0100,3123A,105.9408,26.2431,安顺市,凤凰山,,30,24,32,21,24,43,,,,8,11,11,11,0.5,0.5
2025-10-26T0100,3124A,105.9439,26.2564,安顺市,金钟山,,29,27,37,20,25,46,,,,7,11,8,10,0.7,0.7
2025-10-26T0100,3125A,105.8983,26.2481,安顺市,娄家坡,,26,25,33,18,26,40,,,,9,14,15,12,0.6,0.6
2025-10-26T0100,1819A,114.3551,36.1017,安阳市,红庙街,细颗粒物(PM2.5),108,,39,81,38,20,,,,33,20,3,2,0.8,0.4
2025-10-26T0100,1820A,114.361,36.0681,安阳市,银杏小区,细颗粒物(PM2.5),112,,41,84,44,24,,,,27,19,3,3,0.8,0.5
2025-10-26T0100,3141A,114.3922,36.0878,安阳市,信访局,细颗粒物(PM2.5),110,90,39,83,37,27,,,,23,14,2,2,0.4,0.3
2025-10-26T0100,3669A,114.4705,36.0637,安阳市,左辅环卫站,细颗粒物(PM2.5),93,107,72,69,45,30,,,,19,18,1,1,0.5,0.5
2025-10-26T0100,3703A,114.2917,36.0949,安阳市,安钢职工学校,细颗粒物(PM2.5),87,69,40,64,33,14,,,,29,15,1,1,0.6,0.5
2025-10-26T0100,1748A,123.044,41.1196,鞍山市,深沟寺,细颗粒物(PM2.5),137,148,110,104,78,37,,,,20,26,8,12,1.6,1.4
2025-10-26T0100,1749A,123.011,41.0931,鞍山市,太阳城,细颗粒物(PM2.5),140,134,101,107,74,41,,,,16,25,10,14,1.3,1.2
2025-10-26T0100,1750A,123.0485,41.1442,鞍山市,太平,细颗粒物(PM2.5),142,186,131,108,75,24,,,,32,32,9,13,1.9,1.5
2025-10-26T0100,1751A,122.9642,41.0971,鞍山市,铁西三道街,细颗粒物(PM2.5),215,264,150,165,86,32,,,,33,41,10,14,2.6,1.6
2025-10-26T0100,1753A,123.022,41.0821,鞍山市,明达新区,细颗粒物(PM2.5),132,137,112,100,80,45,,,,12,21,12,15,1.2,1.6
2025-10-26T0100,4201A,122.9446,41.0826,鞍山市,兴盛南路290号,细颗粒物(PM2.5),207,233,142,157,87,24,,,,53,48,13,16,3.1,1.5
2025-10-26T0100,2195A,107.4212,40.761,巴彦淖尔市,附二中,,47,47,58,15,27,54,,,,8,19,5,10,0.3,0.5
2025-10-26T0100,2196A,107.37,40.7372,巴彦淖尔市,市环保大楼,,34,34,45,19,19,54,,,,11,19,8,10,0.4,0.4
2025-10-26T0100,1956A,86.1472,41.7538,巴音郭楞蒙古自治州,孔雀公园,颗粒物(PM10),105,160,166,48,41,0,,,,74,51,7,8,0.9,0.8
2025-10-26T0100,1957A,86.1972,41.7166,巴音郭楞蒙古自治州,棉纺厂,颗粒物(PM10),107,163,178,57,41,35,,,,35,24,6,6,0.5,0.5
2025-10-26T0100,1958A,86.2357,41.7173,巴音郭楞蒙古自治州,经济开发区,颗粒物(PM10),92,133,152,32,29,57,,,,12,16,7,7,0.7,0.7
2025-10-26T0100,3181A,106.7768,31.8526,巴中市,市五中,,33,33,18,19,13,5,,,,12,10,7,7,0.7,0.7
2025-10-26T0100,3183A,106.7418,31.8654,巴中市,圣泉水务公司,,14,14,16,9,13,0,,,,15,13,9,8,0.7,0.7
2025-10-26T0100,3616A,106.7616,31.8344,巴中市,市中心医院,,19,17,17,13,13,5,,,,17,14,10,10,0.8,0.7
2025-10-26T0100,2235A,122.7911,45.6077,白城市,洮北区环保局,,18,18,23,6,11,40,,,,5,12,2,5,0.2,0.3
2025-10-26T0100,2236A,122.8738,45.5725,白城市,市环保局,,14,14,24,8,14,38,,,,8,17,4,5,0.3,0.3
2025-10-26T0100,2231A,126.4219,41.9171,白山市,喜丰,颗粒物(PM10),73,96,117,36,32,4,,,,49,41,10,11,1.1,1
2025-10-26T0100,2232A,126.4077,41.9419,白山市,环保局,颗粒物(PM10),51,52,50,28,34,24,,,,26,24,10,10,1.0,1
2025-10-26T0100,2647A,104.1724,36.5446,白银市,第三小学,,21,21,37,14,32,64,,,,15,15,6,11,0.4,0.6
2025-10-26T0100,2648A,104.1465,36.5482,白银市,动力公司,,28,20,33,16,30,88,,,,14,13,7,9,0.3,0.5
2025-10-26T0100,2512A,106.6103,23.9011,百色市,市监测站,,22,22,30,14,19,17,,,,10,10,16,8,0.6,0.5
2025-10-26T0100,2513A,106.6538,23.8859,百色市,市中心血站,,46,44,38,32,26,14,,,,23,22,9,7,0.7,0.6
2025-10-26T0100,3406A,106.6085,23.8798,百色市,祈福高中,颗粒物(PM10),62,73,37,27,22,2,,,,28,16,30,9,0.5,0.5
2025-10-26T0100,2270A,117.396,32.939,蚌埠市,工人疗养院,细颗粒物(PM2.5),119,106,84,90,56,39,,,,21,26,5,5,0.7,0.6
2025-10-26T0100,2271A,117.3605,32.9427,蚌埠市,百货大楼,细颗粒物(PM2.5),119,94,72,90,53,33,,,,27,28,7,7,0.6,0.5
2025-10-26T0100,2273A,117.4185,32.8911,蚌埠市,蚌埠学院,细颗粒物(PM2.5),132,,71,100,55,31,,,,22,38,4,6,0.7,0.5
2025-10-26T0100,2274A,117.3533,32.9673,蚌埠市,淮上区政府,细颗粒物(PM2.5),123,,77,93,58,30,,,,29,32,6,7,0.6,0.5
2025-10-26T0100,2275A,117.3145,32.8977,蚌埠市,高新区,细颗粒物(PM2.5),115,92,64,87,48,24,,,,33,29,7,8,0.7,0.5
2025-10-26T0100,3715A,117.3092,32.9314,蚌埠市,蚌埠田家炳中学,细颗粒物(PM2.5),120,108,78,91,54,24,,,,33,30,4,4,0.6,0.4
2025-10-26T0100,1585A,109.8756,40.6532,包头市,市环境监测站,,18,12,32,3,7,56,,,,13,19,6,7,0.4,0.4
2025-10-26T0100,1587A,109.9991,40.5842,包头市,包头八中,,20,20,43,3,10,60,,,,8,30,7,8,0.3,0.6
2025-10-26T0100,1588A,109.8538,40.6821,包头市,青山宾馆,,20,11,19,3,5,62,,,,8,17,8,9,0.5,0.5
2025-10-26T0100,1589A,109.8642,40.6288,包头市,惠龙物流,,20,14,20,7,7,63,,,,8,15,6,7,0.5,0.5
2025-10-26T0100,1590A,110.0377,40.5546,包头市,东河鸿龙湾,,19,16,37,3,15,60,,,,13,34,8,11,0.4,0.9
2025-10-26T0100,3283A,109.9154,40.5685,包头市,滨河大厦,,18,11,22,6,8,57,,,,12,22,8,9,0.3,0.4
2025-10-26T0100,3419A,109.9447,40.6261,包头市,包头市委党校,,19,10,24,3,6,60,,,,12,26,8,8,0.4,0.4
2025-10-26T0100,3683A,109.8331,40.6576,包头市,昆区政府,,17,8,19,3,5,52,,,,14,14,8,9,0.4,0.4
2025-10-26T0100,1931A,107.0708,34.3017,宝鸡市,竹园沟,,16,16,33,9,26,16,,,,10,13,7,7,0.4,0.5
2025-10-26T0100,1932A,107.1906,34.3672,宝鸡市,三陆医院,,46,35,49,32,51,5,,,,33,33,7,6,0.8,0.7
2025-10-26T0100,1933A,107.1431,34.3547,宝鸡市,监测站,,23,18,48,16,37,7,,,,19,20,5,6,0.5,0.6
2025-10-26T0100,1934A,107.1186,34.3739,宝鸡市,技工学校,,35,,42,24,50,12,,,,18,23,5,5,0.6,0.7
2025-10-26T0100,1936A,107.2058,34.3497,宝鸡市,文理学院,,25,,42,17,37,10,,,,25,24,5,5,0.6,0.7
2025-10-26T0100,1937A,107.2386,34.3622,宝鸡市,三迪小学,,35,30,49,24,50,7,,,,33,33,5,5,0.6,0.7
2025-10-26T0100,4308A,107.3898,34.3601,宝鸡市,陈仓区北开路21号,,,,66,38,57,1,,,,40,27,6,6,0.8,0.7
2025-10-26T0100,1051A,115.493,38.8632,保定市,游泳馆,细颗粒物(PM2.5),190,165,144,143,129,11,,,,45,49,6,7,0.9,0.7
2025-10-26T0100,1052A,115.5213,38.8959,保定市,华电二区,细颗粒物(PM2.5),199,,125,149,131,10,,,,44,45,1,3,0.9,0.8
2025-10-26T0100,1053A,115.4713,38.9108,保定市,接待中心,细颗粒物(PM2.5),192,166,147,144,129,7,,,,45,43,3,5,0.8,0.6
2025-10-26T0100,1054A,115.4612,38.8416,保定市,地表水厂,细颗粒物(PM2.5),188,179,154,141,121,2,,,,62,54,8,9,1.0,0.7
2025-10-26T0100,3581A,115.31981,38.95208,保定市,满城区生态环境分局,细颗粒物(PM2.5),160,151,155,122,123,7,,,,39,35,3,2,0.7,0.6
2025-10-26T0100,3582A,115.47694,38.76408,保定市,清苑区第二中学,细颗粒物(PM2.5),182,194,156,137,112,3,,,,75,56,4,4,1.0,0.8
2025-10-26T0100,3583A,115.62909,39.02311,保定市,徐水物探局,细颗粒物(PM2.5),166,128,125,126,127,1,,,,56,52,11,11,1.0,0.9
2025-10-26T0100,4004A,115.4202,38.8656,保定市,双鹰农机,细颗粒物(PM2.5),183,192,172,138,125,14,,,,47,50,3,2,1.0,0.8
2025-10-26T0100,4034A,115.5150,38.8590,保定市,植保所站,细颗粒物(PM2.5),188,187,159,141,124,12,,,,50,53,3,5,1.0,0.9
2025-10-26T0100,2594A,99.1678,25.1081,保山市,市环境监测站,,20,20,18,13,12,32,,,,6,6,6,6,0.4,0.4
2025-10-26T0100,2595A,99.1711,25.1328,保山市,市环保局,,29,,20,20,16,41,,,,3,4,7,6,0.6,0.6
2025-10-26T0100,1867A,109.1436,21.4086,北海市,海滩公园,,50,50,47,32,26,87,,,,11,12,8,9,0.7,0.6
2025-10-26T0100,1868A,109.0981,21.4661,北海市,新市环保局,,42,41,44,29,31,91,,,,8,9,11,11,0.5,0.5
2025-10-26T0100,1869A,109.1778,21.5233,北海市,北海工业园,,46,33,45,32,30,88,,,,12,13,6,7,0.8,0.8
2025-10-26T0100,3400A,109.1911,21.4415,北海市,龙潭自来水厂,细颗粒物(PM2.5),52,,44,36,31,83,,,,8,8,10,9,0.5,0.5
2025-10-26T0100,1001A,116.3621,39.8784,北京市,万寿西宫,细颗粒物(PM2.5),133,135,139,101,109,8,,,,59,43,2,2,0.8,0.8
2025-10-26T0100,1003A,116.4174,39.9289,北京市,东四,细颗粒物(PM2.5),142,147,141,108,106,9,,,,52,37,3,3,1.0,0.9
2025-10-26T0100,1004A,116.4072,39.8863,北京市,天坛,细颗粒物(PM2.5),135,128,126,103,101,1,,,,51,34,2,1,1.0,0.8
2025-10-26T0100,1005A,116.462,39.9365,北京市,农展馆,细颗粒物(PM2.5),156,153,132,119,105,5,,,,54,40,4,4,0.8,0.7
2025-10-26T0100,1006A,116.3392,39.9295,北京市,官园,细颗粒物(PM2.5),128,130,138,97,105,5,,,,56,40,5,6,0.8,0.8
2025-10-26T0100,1007A,116.2878,39.9611,北京市,海淀万柳,细颗粒物(PM2.5),112,113,128,84,101,1,,,,64,46,3,4,0.7,0.8
2025-10-26T0100,1008A,116.6636,40.135,北京市,顺义新城,细颗粒物(PM2.5),100,124,122,75,88,9,,,,45,36,2,3,0.9,0.9
2025-10-26T0100,1009A,116.6275,40.3275,北京市,怀柔镇,细颗粒物(PM2.5),74,62,82,54,69,30,,,,24,31,3,4,0.8,0.9
2025-10-26T0100,1010A,116.2296,40.217,北京市,昌平镇,,20,19,92,14,77,41,,,,17,29,4,4,0.3,0.7
2025-10-26T0100,1011A,116.3966,39.9821,北京市,奥体中心,细颗粒物(PM2.5),123,123,125,93,97,14,,,,51,45,4,4,0.7,0.8
2025-10-26T0100,3281A,115.9718,40.4529,北京市,延庆夏都,,44,44,73,29,55,9,,,,38,30,2,2,0.3,0.5
2025-10-26T0100,3418A,116.8336,40.4095,北京市,密云新城,细颗粒物(PM2.5),73,92,85,53,61,18,,,,24,35,1,2,0.7,0.6
2025-10-26T0100,3671A,116.088,39.9726,北京市,门头沟三家店,细颗粒物(PM2.5),68,70,106,49,80,7,,,,36,34,3,2,0.5,0.7
2025-10-26T0100,3672A,116.1541,39.8204,北京市,丰台云岗,细颗粒物(PM2.5),130,141,135,99,104,12,,,,52,38,3,3,0.7,0.7
2025-10-26T0100,3673A,116.6804,39.9081,北京市,通州东关,细颗粒物(PM2.5),162,174,149,123,108,2,,,,76,47,5,5,1.1,0.7
2025-10-26T0100,3674A,115.9577,39.7603,北京市,房山燕山,,19,6,91,3,78,59,,,,9,26,3,3,0.2,0.6
2025-10-26T0100,3675A,116.4672,39.7733,北京市,大兴旧宫,细颗粒物(PM2.5),120,159,142,91,96,3,,,,35,34,2,3,1.1,0.9
2025-10-26T0100,3694A,115.986,40.4563,北京市,延庆石河营,颗粒物(PM10),52,53,73,34,48,0,,,,39,28,2,2,0.4,0.6
2025-10-26T0100,3695A,116.6151,40.3053,北京市,怀柔新城,细颗粒物(PM2.5),73,63,85,53,69,36,,,,19,24,3,3,0.5,0.6
2025-10-26T0100,3696A,116.2545,39.8768,北京市,丰台小屯,细颗粒物(PM2.5),105,141,136,79,97,1,,,,44,38,3,3,0.9,0.8
2025-10-26T0100,3697A,116.84,40.3844,北京市,密云镇,细颗粒物(PM2.5),105,118,109,79,87,1,,,,38,37,5,6,0.7,0.7
2025-10-26T0100,4182A,116.1942,39.9158,北京市,八角北路9号,细颗粒物(PM2.5),120,130,132,91,99,1,,,,58,38,3,4,0.8,0.8
2025-10-26T0100,4194A,117.0790,40.1518,北京市,洳河巡河路,细颗粒物(PM2.5),100,121,124,75,90,8,,,,17,23,3,3,0.8,0.8
2025-10-26T0100,1761A,123.8275,41.3064,本溪市,大峪,细颗粒物(PM2.5),97,107,99,72,64,2,,,,68,48,8,13,1.0,1.4
2025-10-26T0100,1762A,123.7567,41.3325,本溪市,溪湖,细颗粒物(PM2.5),132,161,132,100,78,15,,,,29,38,7,12,1.3,1.6
2025-10-26T0100,1763A,123.7169,41.3094,本溪市,彩屯,细颗粒物(PM2.5),137,154,130,104,95,17,,,,27,43,8,17,1.4,2.3
2025-10-26T0100,1764A,123.7669,41.2864,本溪市,东明,细颗粒物(PM2.5),102,130,119,76,83,2,,,,66,54,9,13,1.5,2.1
2025-10-26T0100,1765A,123.7992,41.2664,本溪市,新立屯,细颗粒物(PM2.5),120,,72,91,62,16,,,,39,56,6,11,1.0,1.4
2025-10-26T0100,1766A,123.8142,41.3472,本溪市,威宁,细颗粒物(PM2.5),110,137,106,83,63,3,,,,49,40,6,9,1.5,1.4
2025-10-26T0100,2587A,105.2864,27.3125,毕节市,八中,,25,21,11,17,9,27,,,,5,5,8,8,0.6,0.6
2025-10-26T0100,2588A,105.31,27.2944,毕节市,师专,,20,19,11,14,8,34,,,,6,7,7,7,0.7,0.7
2025-10-26T0100,4263A,105.3688,27.3598,毕节市,工业大道,,28,22,10,19,8,40,,,,6,8,10,9,0.6,0.6
2025-10-26T0100,1629A,118.0018,37.3617,滨州市,第二水厂,细颗粒物(PM2.5),80,80,90,59,50,28,,,,29,41,5,8,0.5,0.6
2025-10-26T0100,1630A,117.9776,37.393,滨州市,北中新校,细颗粒物(PM2.5),83,90,83,61,50,52,,,,20,37,5,8,0.3,0.5
2025-10-26T0100,3514A,117.9378,37.3956,滨州市,中海酒店,细颗粒物(PM2.5),92,88,88,68,56,44,,,,21,36,4,7,0.6,0.8
2025-10-26T0100,3515A,117.9378,37.3553,滨州市,开发区一中,细颗粒物(PM2.5),83,85,99,61,58,29,,,,39,48,5,8,0.6,0.8
2025-10-26T0100,3516A,118.0917,37.694,滨州市,金海六路,细颗粒物(PM2.5),77,76,89,56,53,23,,,,34,42,3,6,0.7,0.8
2025-10-26T0100,4028A,117.9956,37.3753,滨州市,滨州市西街道办事处,细颗粒物(PM2.5),92,88,91,68,60,40,,,,24,36,5,8,0.5,0.7
2025-10-26T0100,2311A,115.8072,33.8399,亳州市,污水处理厂,细颗粒物(PM2.5),84,88,85,62,67,51,,,,18,23,7,9,0.7,0.6
2025-10-26T0100,2312A,115.7789,33.8518,亳州市,三国揽胜宫,细颗粒物(PM2.5),117,,76,88,79,47,,,,18,24,6,6,0.7,0.7
2025-10-26T0100,3332A,115.7633,33.8034,亳州市,亳州学院,细颗粒物(PM2.5),109,97,94,82,69,52,,,,19,22,7,7,0.6,0.5
2025-10-26T0100,2693A,82.0485,44.8556,博尔塔拉蒙古自治州,市党校,颗粒物(PM10),99,147,108,60,53,63,,,,22,23,9,10,0.2,0.2
2025-10-26T0100,2694A,82.0806,44.8969,博尔塔拉蒙古自治州,市环保局,颗粒物(PM10),111,172,112,52,35,39,,,,37,31,11,9,0.9,0.7
2025-10-26T0100,1071A,116.8842,38.2991,沧州市,沧县城建局,细颗粒物(PM2.5),72,83,94,52,68,6,,,,51,53,4,6,0.5,0.7
2025-10-26T0100,1072A,116.8584,38.3254,沧州市,电视转播站,细颗粒物(PM2.5),79,65,84,58,71,16,,,,38,49,1,3,0.5,0.6
2025-10-26T0100,1073A,116.8709,38.3228,沧州市,市环保局,细颗粒物(PM2.5),87,78,100,64,75,23,,,,33,51,3,6,0.5,0.8
2025-10-26T0100,3324A,116.8136,38.3004,沧州市,河北水利电力学院,细颗粒物(PM2.5),63,66,96,45,56,7,,,,56,57,5,8,0.3,0.5
2025-10-26T0100,2622A,97.1806,31.1273,昌都市,昌都监测站,,15,12,7,6,7,47,,,,4,4,3,3,0.2,0.2
2025-10-26T0100,3719A,97.1714,31.1406,昌都市,昌都会议中心,,13,6,9,6,6,39,,,,2,2,3,3,0.3,0.2
2025-10-26T0100,2692A,87.2717,44.0297,昌吉回族自治州,新区政务中心,颗粒物(PM10),113,175,140,82,67,3,,,,86,53,7,14,1.4,1.2
2025-10-26T0100,3613A,87.3095,44.0142,昌吉回族自治州,亚心广场,细颗粒物(PM2.5),149,215,196,114,99,8,,,,78,50,12,14,1.3,1.2
2025-10-26T0100,1120A,125.2863,43.9027,长春市,客车厂,细颗粒物(PM2.5),65,,77,47,68,51,,,,16,44,7,14,0.3,0.7
2025-10-26T0100,1121A,125.2841,43.8463,长春市,邮电学院,,42,41,86,29,63,52,,,,16,40,7,10,0.3,0.7
2025-10-26T0100,1122A,125.3716,43.8772,长春市,劳动公园,颗粒物(PM10),65,80,97,12,59,46,,,,17,41,9,10,0.3,0.7
2025-10-26T0100,1123A,125.3297,43.8805,长春市,园林处,,32,32,78,21,63,39,,,,26,41,7,9,0.2,0.6
2025-10-26T0100,1124A,125.4605,43.79,长春市,净月潭,颗粒物(PM10),56,62,73,23,55,48,,,,21,21,7,7,0.4,0.5
2025-10-26T0100,1126A,125.3863,43.8447,长春市,经开区环卫处,颗粒物(PM10),51,51,86,16,62,45,,,,19,41,6,8,0.4,0.8
2025-10-26T0100,1127A,125.245,43.7783,长春市,高新区管委会,,46,46,82,22,69,49,,,,18,36,6,8,0.3,0.7
2025-10-26T0100,1128A,125.1761,43.8325,长春市,岱山公园,,40,40,78,24,61,48,,,,20,49,6,10,0.3,0.6
2025-10-26T0100,4281A,125.3346,43.9164,长春市,北亚泰大街1068号,细颗粒物(PM2.5),64,,86,46,66,42,,,,16,51,7,11,0.3,0.7
2025-10-26T0100,1335A,113.0833,28.2325,长沙市,经开区环保局,细颗粒物(PM2.5),100,,71,75,64,51,,,,14,18,5,7,0.5,0.5
2025-10-26T0100,1336A,112.8872,28.2189,长沙市,高开区环保局,细颗粒物(PM2.5),150,,85,115,79,46,,,,21,19,6,7,0.5,0.4
2025-10-26T0100,1337A,113.0792,28.2053,长沙市,马坡岭,细颗粒物(PM2.5),77,,74,56,52,59,,,,12,15,5,7,0.4,0.5
2025-10-26T0100,1338A,112.9394,28.19,长沙市,湖南师范大学,细颗粒物(PM2.5),72,70,84,52,52,66,,,,15,18,5,6,0.7,0.7
2025-10-26T0100,1339A,113.0178,28.1322,长沙市,雨花区环保局,细颗粒物(PM2.5),92,,75,68,63,65,,,,12,18,6,8,0.5,0.5
2025-10-26T0100,1340A,112.9792,28.2597,长沙市,伍家岭,细颗粒物(PM2.5),89,,80,66,58,59,,,,13,18,4,6,0.5,0.5
2025-10-26T0100,1341A,113.0014,28.1944,长沙市,火车新站,细颗粒物(PM2.5),89,,82,66,61,65,,,,13,20,8,10,0.5,0.5
2025-10-26T0100,1342A,112.9844,28.1178,长沙市,天心区环保局,细颗粒物(PM2.5),83,,71,61,56,71,,,,14,17,5,7,0.5,0.5
2025-10-26T0100,1343A,112.8908,28.1308,长沙市,湖南中医药大学,细颗粒物(PM2.5),100,83,88,75,64,57,,,,13,16,5,6,0.7,0.7
2025-10-26T0100,1727A,113.1147,36.1547,长治市,清华站,,45,44,30,31,23,1,,,,28,24,8,10,0.5,0.5
2025-10-26T0100,1730A,113.0886,36.2125,长治市,审计局,,42,34,23,29,24,5,,,,41,19,7,7,0.4,0.3
2025-10-26T0100,1731A,113.0844,36.1856,长治市,长治八中,颗粒物(PM10),51,51,32,34,28,11,,,,25,17,6,7,0.7,0.5
2025-10-26T0100,2845A,113.1569,36.1911,长治市,德盛苑,,39,,27,27,24,39,,,,12,14,5,4,0.6,0.6
2025-10-26T0100,3568A,113.06,36.0464,长治市,向阳小学,,47,47,42,31,29,24,,,,23,22,15,6,0.7,0.6
2025-10-26T0100,3569A,112.8792,36.3144,长治市,屯留一中,细颗粒物(PM2.5),78,57,41,57,29,47,,,,12,13,8,9,1.2,0.7
2025-10-26T0100,4189A,113.1131,36.19948,长治市,英华南巷50号,,49,39,32,34,26,16,,,,21,18,6,5,0.8,0.7
2025-10-26T0100,4190A,113.2367,36.3344,长治市,学府街1号,细颗粒物(PM2.5),55,45,47,39,33,24,,,,32,29,9,9,1.1,0.8
2025-10-26T0100,1854A,111.6975,28.9703,常德市,市二中,颗粒物(PM10),67,83,88,43,60,30,,,,20,13,5,6,0.4,0.4
2025-10-26T0100,3138A,111.7153,29.0289,常德市,武陵区永安,细颗粒物(PM2.5),60,60,88,43,44,53,,,,18,15,5,6,0.7,0.7
2025-10-26T0100,3139A,111.6892,28.9881,常德市,鼎城区玉霞,细颗粒物(PM2.5),72,82,92,52,66,37,,,,22,15,5,6,0.8,0.7
2025-10-26T0100,3140A,111.6625,29.0531,常德市,武陵区长庚,细颗粒物(PM2.5),59,65,85,42,51,19,,,,33,17,3,4,0.4,0.4
2025-10-26T0100,1196A,119.9633,31.762,常州市,市监测站,颗粒物(PM10),52,54,49,23,25,76,,,,17,18,9,9,0.6,0.6
2025-10-26T0100,1200A,119.9468,31.7069,常州市,武进监测站,,47,47,43,14,18,78,,,,20,22,9,9,0.6,0.5
2025-10-26T0100,1201A,119.9255,31.9087,常州市,安家,,47,47,44,25,22,66,,,,20,25,8,11,0.4,0.5
2025-10-26T0100,3002A,119.9805,31.8174,常州市,行政中心,,41,41,46,25,26,84,,,,14,21,6,6,0.7,0.7
2025-10-26T0100,3003A,120.0522,31.7748,常州市,经开区,,50,50,61,22,25,75,,,,23,28,8,10,0.7,0.7
2025-10-26T0100,3010A,119.9025,31.7964,常州市,钟楼,,44,44,47,25,24,76,,,,19,24,9,9,0.9,0.8
2025-10-26T0100,3429A,119.8598,31.7066,常州市,武进经发区,,44,44,46,25,25,78,,,,14,34,12,12,0.9,0.9
2025-10-26T0100,3430A,119.5826,31.7245,常州市,金坛城区,,35,29,49,24,29,72,,,,14,21,9,11,0.5,0.6
2025-10-26T0100,2220A,120.4318,41.5881,朝阳市,西梁,颗粒物(PM10),65,80,91,26,53,11,,,,54,43,10,9,0.9,1.2
2025-10-26T0100,2221A,120.4521,41.5646,朝阳市,河畔小区,颗粒物(PM10),60,70,66,41,50,1,,,,59,40,5,7,1.0,0.9
2025-10-26T0100,2222A,120.4176,41.5648,朝阳市,八里堡,颗粒物(PM10),66,82,73,46,53,2,,,,61,44,8,9,1.1,1.1
2025-10-26T0100,2223A,120.3806,41.5969,朝阳市,农业园区,,17,15,43,7,39,52,,,,19,33,6,6,0.3,0.7
2025-10-26T0100,3026A,116.6183,23.6608,潮州市,市政府,颗粒物(PM10),67,84,36,40,21,23,,,,39,8,27,5,0.7,0.3
2025-10-26T0100,4036A,116.6461,23.6761,潮州市,金山,细颗粒物(PM2.5),63,,30,45,22,25,,,,11,7,3,4,0.6,0.5
2025-10-26T0100,2473A,113.0116,25.8226,郴州市,市职中,,,57,46,47,35,,,,,16,16,3,4,0.6,0.6
2025-10-26T0100,2475A,113.0383,25.8071,郴州市,市审计局,细颗粒物(PM2.5),57,52,48,40,34,78,,,,13,13,10,11,0.3,0.2
2025-10-26T0100,2476A,113.0348,25.7759,郴州市,市环保局,,,56,55,44,35,78,,,,16,14,,3,0.5,0.4
2025-10-26T0100,4252A,113.0138,25.8011,郴州市,好美居路49号,,,59,42,46,33,,,,,18,18,9,10,0.7,0.7
2025-10-26T0100,1431A,103.9728,30.7236,成都市,金泉两河,,48,48,22,24,9,16,,,,33,23,3,2,0.6,0.4
2025-10-26T0100,1432A,104.176,30.6872,成都市,十里店,,33,33,23,15,12,28,,,,31,23,4,3,0.5,0.4
2025-10-26T0100,1433A,104.079,30.5706,成都市,三瓦窑,细颗粒物(PM2.5),53,,28,37,22,37,,,,24,27,6,4,0.6,0.6
2025-10-26T0100,1434A,104.1114,30.63,成都市,沙河铺,细颗粒物(PM2.5),72,,32,52,22,3,,,,42,27,4,4,0.7,0.5
2025-10-26T0100,1437A,104.0786,30.6531,成都市,君平街,,48,41,27,33,18,16,,,,33,22,4,4,0.6,0.5
2025-10-26T0100,2880A,104.0239,30.65639,成都市,大石西路,,38,38,24,25,17,15,,,,42,28,3,3,0.6,0.5
2025-10-26T0100,3136A,104.2725,30.5589,成都市,龙泉驿区区政府,,13,12,10,7,8,40,,,,16,16,6,6,0.5,0.5
2025-10-26T0100,3357A,104.0106,30.6931,成都市,金博路,,29,23,17,20,10,18,,,,42,29,6,6,0.6,0.5
2025-10-26T0100,3359A,104.0578,30.5225,成都市,华阳,,45,34,18,31,16,32,,,,23,19,5,4,0.5,0.4
2025-10-26T0100,3488A,104.3880,30.7467,成都市,青石路225号,,29,25,24,20,12,41,,,,20,19,5,3,0.7,0.6
2025-10-26T0100,3489A,104.0789,30.4072,成都市,科学城,,26,24,18,18,13,23,,,,17,15,5,4,0.5,0.5
2025-10-26T0100,4011A,103.8506,30.6947,成都市,光华大道三段,,35,35,27,23,15,23,,,,26,20,1,1,0.7,0.6
2025-10-26T0100,4224A,104.2433,30.5353,成都市,鲸龙路1057号,,22,22,16,13,12,39,,,,14,18,5,5,0.5,0.5
2025-10-26T0100,1062A,117.9531,40.9081,承德市,铁路,颗粒物(PM10),54,58,76,36,46,9,,,,37,37,2,4,0.6,0.7
2025-10-26T0100,1063A,117.9392,40.9763,承德市,中国银行,,47,47,63,23,31,4,,,,36,30,2,4,0.5,0.6
2025-10-26T0100,1064A,117.9503,40.928,承德市,开发区,颗粒物(PM10),57,63,79,32,45,2,,,,48,35,5,5,0.6,0.7
2025-10-26T0100,4274A,117.7994,40.9605,承德市,滨河大街98号,颗粒物(PM10),54,57,53,35,40,17,,,,38,29,3,8,0.3,0.6
2025-10-26T0100,2314A,117.47,30.6618,池州市,池州学院,颗粒物(PM10),53,55,55,34,35,48,,,,27,24,8,7,0.8,0.7
2025-10-26T0100,3237A,117.4918,30.6617,池州市,展览馆,,48,48,53,30,32,47,,,,25,22,10,8,0.8,0.8
2025-10-26T0100,3333A,117.5627,30.695,池州市,第八中学,颗粒物(PM10),55,59,56,29,33,48,,,,23,23,11,9,0.8,0.8
2025-10-26T0100,3334A,117.5038,30.6243,池州市,第十二中学,,46,46,50,32,32,46,,,,28,24,9,8,0.8,0.8
2025-10-26T0100,1744A,118.9233,42.2816,赤峰市,松山一中,,16,6,38,3,18,50,,,,18,36,6,7,0.3,0.5
2025-10-26T0100,1745A,118.9576,42.2728,赤峰市,哈达街,,17,14,39,6,21,53,,,,16,31,10,11,0.3,0.5
2025-10-26T0100,1746A,118.8788,42.2554,赤峰市,天义路,,14,,27,8,22,42,,,,16,24,6,8,0.2,0.3
2025-10-26T0100,3058A,119.2658,42.0353,赤峰市,银河街,,29,29,59,3,38,42,,,,13,13,19,13,0.1,0.5
2025-10-26T0100,3286A,118.9359,42.3147,赤峰市,桥北物流园区,,22,18,35,15,20,27,,,,29,31,8,8,0.2,0.4
2025-10-26T0100,2521A,107.3476,22.4136,崇左市,市环保局江州分局,,40,40,32,23,18,55,,,,6,8,2,3,0.6,0.6
2025-10-26T0100,4256A,107.3750,22.3736,崇左市,石景林东路7号,颗粒物(PM10),60,69,39,18,17,63,,,,9,10,6,7,0.8,0.8
2025-10-26T0100,2298A,118.3093,32.3153,滁州市,老年大学,细颗粒物(PM2.5),52,37,37,36,26,53,,,,8,13,10,10,0.2,0.2
2025-10-26T0100,2299A,118.3244,32.2786,滁州市,人大宾馆,,49,41,39,34,23,55,,,,8,13,6,5,0.3,0.2
2025-10-26T0100,3207A,118.3118,32.3038,滁州市,市政府原办公楼,细颗粒物(PM2.5),53,,40,37,27,61,,,,10,19,6,6,0.4,0.4
2025-10-26T0100,3331A,118.3267,32.2634,滁州市,图书馆,,40,37,35,28,18,56,,,,14,18,8,7,0.4,0.3
2025-10-26T0100,2605A,101.5482,25.0441,楚雄彝族自治州,州环境监测站,,15,,14,10,12,41,,,,2,3,7,7,0.6,0.6
2025-10-26T0100,2606A,101.538,25.0492,楚雄彝族自治州,市经济开发区,,20,19,20,14,16,38,,,,4,5,5,6,0.6,0.6
2025-10-26T0100,2549A,107.5086,31.2186,达州市,市环境监测站,,21,21,20,14,8,2,,,,20,20,5,7,0.4,0.4
2025-10-26T0100,2550A,107.4988,31.2132,达州市,凤凰小区,,29,29,20,14,9,3,,,,22,18,4,6,0.4,0.3
2025-10-26T0100,2551A,107.5082,31.1986,达州市,达县机关宾馆,,17,17,19,3,6,1,,,,23,24,4,6,0.5,0.4
2025-10-26T0100,2552A,107.4644,31.2124,达州市,市政中心,,43,43,31,14,9,2,,,,28,19,5,7,0.5,0.4
2025-10-26T0100,2614A,100.1542,25.7054,大理白族自治州,大理市环境监测站,,14,14,12,7,9,43,,,,8,8,5,5,0.5,0.5
2025-10-26T0100,2615A,100.2171,25.5811,大理白族自治州,大理古城,,35,,15,24,11,33,,,,9,9,6,6,0.4,0.4
2025-10-26T0100,1109A,121.612,38.9741,大连市,甘井子,细颗粒物(PM2.5),117,144,102,88,62,75,,,,26,29,9,9,0.6,0.6
2025-10-26T0100,1110A,121.565,38.9511,大连市,周水子,细颗粒物(PM2.5),115,132,92,87,61,76,,,,28,27,5,4,0.7,0.7
2025-10-26T0100,1111A,121.5637,38.8845,大连市,星海三站,细颗粒物(PM2.5),118,122,82,89,59,91,,,,9,12,6,7,0.7,0.7
2025-10-26T0100,1112A,121.6302,38.9117,大连市,青泥洼桥,细颗粒物(PM2.5),114,138,97,86,61,69,,,,18,23,9,11,1.0,0.9
2025-10-26T0100,1113A,121.6251,38.8638,大连市,傅家庄,细颗粒物(PM2.5),110,136,83,83,56,88,,,,14,16,10,9,1.0,0.9
2025-10-26T0100,1114A,121.5213,38.8661,大连市,七贤岭,细颗粒物(PM2.5),110,136,84,83,56,91,,,,13,23,8,7,0.9,0.9
2025-10-26T0100,1115A,121.2529,38.8061,大连市,旅顺,细颗粒物(PM2.5),107,124,86,80,59,87,,,,9,14,8,10,0.7,0.7
2025-10-26T0100,1116A,121.7485,39.1311,大连市,金州,细颗粒物(PM2.5),98,117,106,73,69,91,,,,25,38,10,10,0.6,0.6
2025-10-26T0100,1117A,121.7811,39.0496,大连市,开发区,细颗粒物(PM2.5),105,125,107,79,70,66,,,,30,32,4,5,0.9,0.9
2025-10-26T0100,1118A,121.9762,39.0631,大连市,双D港,细颗粒物(PM2.5),118,96,81,89,67,92,,,,22,24,11,9,0.9,0.9
2025-10-26T0100,1789A,124.81117,46.03138,大庆市,大同区,,12,12,40,3,15,35,,,,4,14,7,9,0.5,0.6
2025-10-26T0100,1790A,125.129,46.533,大庆市,龙凤区,,25,25,54,17,20,40,,,,11,21,6,8,0.8,0.6
2025-10-26T0100,1791A,124.902,46.408,大庆市,红岗区,,30,30,37,19,17,37,,,,11,16,5,6,0.4,0.5
2025-10-26T0100,1792A,125.153,46.586,大庆市,萨尔图区,,25,25,42,9,20,46,,,,12,24,11,13,0.3,0.4
2025-10-26T0100,1793A,124.9042,46.6215,大庆市,让胡路区,,25,25,38,17,20,42,,,,4,17,5,6,0.3,0.4
2025-10-26T0100,3481A,125.141,46.634,大庆市,萨区政府监测点,,19,19,39,3,10,42,,,,6,15,8,10,0.4,0.4
2025-10-26T0100,1723A,113.2994,40.0758,大同市,云冈宾馆,,15,11,27,10,19,46,,,,12,18,7,7,0.7,0.9
2025-10-26T0100,1724A,113.3444,40.0917,大同市,大同大学,,20,16,32,14,19,39,,,,21,24,7,10,0.3,0.6
2025-10-26T0100,1725A,113.2661,40.1269,大同市,安家小村,,18,18,38,7,19,48,,,,14,22,6,7,0.3,0.7
2025-10-26T0100,1726A,113.2711,40.0844,大同市,教育学院,,26,26,34,11,21,50,,,,15,23,6,7,0.4,0.7
2025-10-26T0100,3282A,113.3397,40.0597,大同市,大同市卫生学校,,16,,31,8,21,49,,,,15,23,6,7,0.3,0.7
2025-10-26T0100,3565A,113.1367,40.1122,大同市,云冈站,,29,29,31,16,16,38,,,,20,14,10,8,0.5,0.5
2025-10-26T0100,3566A,113.1186,40.2556,大同市,图书馆,,40,40,35,11,19,38,,,,17,22,6,5,0.3,0.4
2025-10-26T0100,3567A,113.5931,40.0461,大同市,区一中,,14,9,38,6,25,44,,,,23,17,4,5,0.5,0.7
2025-10-26T0100,4199A,113.2798,40.0997,大同市,魏都大道141号,,19,19,35,7,21,49,,,,16,24,6,6,0.4,0.6
2025-10-26T0100,2269A,124.1069,50.4097,大兴安岭地区,科技局,,29,29,32,15,20,29,,,,6,10,4,4,0.3,0.3
2025-10-26T0100,3663A,124.1164,50.4278,大兴安岭地区,红旗社区,,22,17,32,15,21,12,,,,11,17,3,4,0.4,0.4
2025-10-26T0100,1600A,124.3303,40.0625,丹东市,江湾东路,细颗粒物(PM2.5),93,114,87,69,56,23,,,,38,40,8,12,1.7,1.3
2025-10-26T0100,1601A,124.4256,40.1503,丹东市,临江后街,颗粒物(PM10),77,104,80,52,42,11,,,,46,36,7,12,1.2,1
2025-10-26T0100,1602A,124.3933,40.1461,丹东市,元宝山,细颗粒物(PM2.5),85,100,68,63,47,15,,,,45,36,8,11,1.1,1
2025-10-26T0100,1603A,124.3633,40.1092,丹东市,民主桥,细颗粒物(PM2.5),79,101,82,58,54,26,,,,34,45,4,9,1.0,0.9
2025-10-26T0100,3541A,109.5726,19.5167,儋州市,第一中学子站,,44,44,42,28,26,63,,,,8,10,2,4,0.4,0.5
2025-10-26T0100,3542A,109.5567,19.5187,儋州市,东坡学校子站,,38,38,39,26,26,67,,,,10,11,3,4,0.3,0.3
2025-10-26T0100,2616A,98.5842,24.428,德宏傣族景颇族自治州,德宏州监测站,,28,28,27,15,17,28,,,,12,15,6,9,0.5,0.5
2025-10-26T0100,3677A,98.5881,24.4368,德宏傣族景颇族自治州,芒市人民政府综合楼,,24,24,32,13,15,23,,,,11,11,6,8,0.6,0.6
2025-10-26T0100,1901A,104.4239,31.1208,德阳市,东山公园,,14,14,10,7,9,28,,,,17,10,1,1,0.7,0.6
2025-10-26T0100,1902A,104.3826,31.1317,德阳市,西小区,,33,33,26,16,12,26,,,,26,17,2,2,0.7,0.7
2025-10-26T0100,1904A,104.3553,31.1091,德阳市,耐火材料厂,,29,29,22,19,14,12,,,,36,24,2,2,0.8,0.8
2025-10-26T0100,3639A,104.4019,31.1244,德阳市,市教育局,,21,21,17,13,11,19,,,,27,17,3,2,0.7,0.6
2025-10-26T0100,1622A,116.3032,37.4674,德州市,儿童乐园,细颗粒物(PM2.5),67,68,102,48,64,37,,,,27,45,8,10,0.7,0.7
2025-10-26T0100,1624A,116.2991,37.4451,德州市,监理站,细颗粒物(PM2.5),64,56,91,46,61,42,,,,32,51,10,12,0.5,0.7
2025-10-26T0100,3066A,116.2721,37.4379,德州市,九衢泉纯净水厂,颗粒物(PM10),53,56,95,31,50,13,,,,44,54,10,11,0.5,0.7
2025-10-26T0100,3371A,116.3728,37.4403,德州市,开发区人民医院,颗粒物(PM10),57,63,94,31,50,31,,,,36,49,10,12,0.7,0.9
2025-10-26T0100,3511A,116.5652,37.3319,德州市,陵城艺术中心,细颗粒物(PM2.5),92,83,89,68,66,29,,,,33,48,8,16,0.9,1
2025-10-26T0100,4292A,116.3525,37.4209,德州市,新河东路,颗粒物(PM10),57,63,95,34,55,14,,,,58,59,7,8,0.8,0.9
2025-10-26T0100,2621A,99.7056,27.8317,迪庆藏族自治州,迪庆州站,,26,26,24,13,15,52,,,,8,10,6,6,0.6,0.5
2025-10-26T0100,3180A,99.7136,27.8094,迪庆藏族自治州,质量技术监督局,,22,10,21,3,11,69,,,,6,13,8,8,0.4,0.5
2025-10-26T0100,4257A,104.6092,35.5962,定西市,将台街,颗粒物(PM10),57,63,48,29,26,34,,,,36,23,10,8,0.5,0.4
2025-10-26T0100,4309A,104.6159,35.5701,定西市,正龙路62号,细颗粒物(PM2.5),64,66,55,46,34,28,,,,26,15,7,5,0.7,0.5
2025-10-26T0100,1389A,113.7547,23.0494,东莞市,莞城梨川,,28,28,30,16,18,69,,,,16,18,6,6,0.5,0.5
2025-10-26T0100,1390A,113.7944,23.0128,东莞市,东城石井,,31,31,35,18,21,61,,,,19,20,7,8,0.6,0.6
2025-10-26T0100,1391A,113.7383,22.9658,东莞市,南城西平,,32,32,34,17,22,49,,,,35,29,8,8,0.6,0.6
2025-10-26T0100,3319A,113.7338,23.0381,东莞市,万江金泰,,29,29,35,15,22,62,,,,15,14,4,5,0.7,0.7
2025-10-26T0100,3626A,113.7533,23.0202,东莞市,南城元岭,,29,29,34,18,22,70,,,,14,16,6,7,0.4,0.4
2025-10-26T0100,3627A,113.7875,23.0457,东莞市,东城主山,,22,6,28,3,17,68,,,,20,25,3,5,0.3,0.4
2025-10-26T0100,1666A,118.6614,37.4309,东营市,市环保局,细颗粒物(PM2.5),67,78,92,48,50,11,,,,53,46,8,15,0.7,0.8
2025-10-26T0100,3036A,118.6904,37.4338,东营市,开发区管委会,细颗粒物(PM2.5),79,79,91,58,58,17,,,,55,50,7,18,0.6,0.7
2025-10-26T0100,3365A,118.5719,37.565,东营市,垦利区民丰路,颗粒物(PM10),60,70,92,39,51,30,,,,36,39,7,7,0.6,0.7
2025-10-26T0100,3498A,118.5055,37.8612,东营市,河口城区,细颗粒物(PM2.5),64,70,99,46,53,47,,,,25,40,7,9,0.5,0.5
2025-10-26T0100,3646A,118.4978,37.4623,东营市,胜利站,颗粒物(PM10),60,70,105,34,52,30,,,,37,49,8,12,0.6,0.8
2025-10-26T0100,3734A,118.35,37.26,东营市,理想之城,细颗粒物(PM2.5),79,88,100,58,55,18,,,,50,54,5,7,0.6,0.6
2025-10-26T0100,1591A,110.0023,39.8129,鄂尔多斯市,综合楼,,20,17,48,3,26,62,,,,17,36,6,9,0.2,0.5
2025-10-26T0100,1592A,109.9486,39.8261,鄂尔多斯市,巴音孟克林场办事处,,41,41,51,3,26,29,,,,41,38,10,10,0.3,0.5
2025-10-26T0100,1593A,109.7736,39.5986,鄂尔多斯市,康泽苑,,24,24,38,14,22,53,,,,15,16,4,6,0.2,0.4
2025-10-26T0100,1594A,109.8119,39.5989,鄂尔多斯市,华泰汽车城,,24,24,39,14,24,47,,,,24,22,5,7,0.2,0.5
2025-10-26T0100,1595A,109.9734,39.7884,鄂尔多斯市,奥林花园,,34,34,57,7,24,46,,,,31,35,8,9,0.4,0.6
2025-10-26T0100,2436A,114.8938,30.3994,鄂州市,市政府,细颗粒物(PM2.5),92,,50,68,39,25,,,,18,24,8,8,0.7,0.4
2025-10-26T0100,2437A,114.8989,30.3714,鄂州市,赵家坝,细颗粒物(PM2.5),60,63,51,43,29,28,,,,17,17,12,9,1.5,0.8
2025-10-26T0100,3654A,114.8094,30.4089,鄂州市,精准医疗中心,细颗粒物(PM2.5),78,,44,57,36,31,,,,13,21,4,7,0.5,0.5
2025-10-26T0100,2454A,109.4978,30.2981,恩施土家族苗族自治州,湖北民院,,38,35,34,26,25,25,,,,13,11,6,6,0.6,0.5
2025-10-26T0100,2455A,109.4707,30.2798,恩施土家族苗族自治州,州电力总公司,,29,29,32,17,25,29,,,,10,14,5,5,0.7,0.6
2025-10-26T0100,3549A,109.5061,30.3772,恩施土家族苗族自治州,龙凤新区,,36,32,30,25,26,14,,,,6,6,7,9,0.5,0.4
2025-10-26T0100,2499A,108.3411,21.6158,防城港市,沙万,,48,48,46,28,43,96,,,,9,9,6,6,0.9,0.8
2025-10-26T0100,2500A,108.3514,21.7731,防城港市,防城档案局,颗粒物(PM10),61,72,53,30,28,93,,,,13,12,7,7,0.6,0.6
2025-10-26T0100,2501A,108.3506,21.6414,防城港市,大海花园,,42,,39,29,25,104,,,,8,9,6,6,0.4,0.4
2025-10-26T0100,1371A,113.1294,23.0067,佛山市,湾梁,,34,34,43,19,20,62,,,,26,26,11,10,0.7,0.6
2025-10-26T0100,1372A,113.1083,23.0478,佛山市,华材职中,,44,44,42,28,27,58,,,,30,22,10,8,0.8,0.7
2025-10-26T0100,1373A,113.144,23.0453,佛山市,南海气象局,,36,36,38,24,24,64,,,,28,24,12,11,0.6,0.5
2025-10-26T0100,1374A,113.2881,22.8094,佛山市,顺德苏岗,,49,49,41,24,22,43,,,,38,29,10,9,0.5,0.4
2025-10-26T0100,1376A,112.8383,22.8678,佛山市,高明孔堂,,48,46,47,33,30,62,,,,26,24,13,9,0.6,0.5
2025-10-26T0100,1377A,112.8836,23.1588,佛山市,三水监测站,细颗粒物(PM2.5),55,44,45,39,30,50,,,,32,26,8,9,0.7,0.6
2025-10-26T0100,1378A,112.867,23.185,佛山市,三水云东海,,46,46,43,32,28,35,,,,27,18,7,8,0.7,0.7
2025-10-26T0100,3625A,113.2544,22.7642,佛山市,容桂街道办,颗粒物(PM10),51,51,42,29,24,38,,,,44,30,9,7,0.9,0.8
2025-10-26T0100,1282A,119.2681,26.0504,福州市,师大,,31,31,31,17,14,80,,,,11,11,6,6,0.5,0.4
2025-10-26T0100,1283A,119.2984,26.1028,福州市,五四北路,,30,30,27,18,13,71,,,,13,12,4,4,0.4,0.4
2025-10-26T0100,1284A,119.2648,26.0768,福州市,杨桥西路,,25,25,28,16,13,78,,,,10,11,4,4,0.5,0.4
2025-10-26T0100,1285A,119.317,26.0746,福州市,紫阳,,35,35,31,20,12,74,,,,12,13,7,7,0.5,0.4
2025-10-26T0100,3048A,119.5799,26.0936,福州市,九龙,,33,33,26,16,12,76,,,,14,8,5,5,0.4,0.4
2025-10-26T0100,3526A,119.5189,25.9664,福州市,吴航,,34,34,25,17,14,102,,,,9,7,5,6,0.4,0.4
2025-10-26T0100,1755A,123.7977,41.8491,抚顺市,望花区,细颗粒物(PM2.5),226,,136,176,35,3,,,,52,48,13,15,1.9,1.3
2025-10-26T0100,1756A,123.9161,41.8822,抚顺市,顺城区,细颗粒物(PM2.5),175,182,129,132,84,1,,,,58,53,12,12,1.6,1.3
2025-10-26T0100,1757A,124.0436,41.8611,抚顺市,东洲区,细颗粒物(PM2.5),147,185,121,112,89,4,,,,64,41,10,11,1.8,1.4
2025-10-26T0100,1758A,123.9247,41.8642,抚顺市,新抚区,细颗粒物(PM2.5),150,158,118,115,83,1,,,,55,42,8,10,2.1,1.6
2025-10-26T0100,1759A,124.0972,41.8961,抚顺市,大伙房水库,细颗粒物(PM2.5),153,169,110,117,83,18,,,,60,41,15,14,1.7,1.1
2025-10-26T0100,1760A,123.7086,41.8391,抚顺市,沈抚新城,细颗粒物(PM2.5),178,174,135,134,93,4,,,,54,51,8,15,1.7,1.5
2025-10-26T0100,2377A,116.3544,27.9831,抚州市,市站,细颗粒物(PM2.5),70,73,54,51,32,97,,,,12,10,4,5,1.1,0.9
2025-10-26T0100,2378A,116.3565,27.963,抚州市,血防站,颗粒物(PM10),61,72,50,43,33,104,,,,14,12,2,3,0.8,0.7
2025-10-26T0100,2379A,116.3564,28.0007,抚州市,采茶剧团,细颗粒物(PM2.5),87,95,59,64,32,88,,,,14,8,4,4,0.8,0.7
2025-10-26T0100,2380A,116.385,27.9647,抚州市,医学分院,细颗粒物(PM2.5),65,77,60,47,32,95,,,,12,8,11,10,0.9,0.7
2025-10-26T0100,2207A,121.6094,41.998,阜新市,工业园区,,41,41,86,14,55,26,,,,42,46,8,17,0.4,0.8
2025-10-26T0100,2208A,121.6697,42.0279,阜新市,长青街,,16,14,79,3,52,51,,,,11,42,8,16,0.3,0.9
2025-10-26T0100,2209A,121.6673,42.0705,阜新市,农业园区,,18,16,55,9,35,57,,,,10,22,4,11,0.3,0.7
2025-10-26T0100,2210A,121.6717,42.0224,阜新市,东苑,,25,25,90,8,55,56,,,,10,43,7,18,0.1,0.9
2025-10-26T0100,2211A,121.6506,42.0498,阜新市,玉龙新城,,35,35,88,7,44,12,,,,57,47,8,13,0.4,0.8
2025-10-26T0100,2301A,115.8277,32.8929,阜阳市,市监测站,细颗粒物(PM2.5),84,64,65,62,45,41,,,,28,41,4,5,0.4,0.4
2025-10-26T0100,2303A,115.8554,32.8605,阜阳市,开发区,细颗粒物(PM2.5),77,78,76,56,45,34,,,,27,27,8,9,0.3,0.3
2025-10-26T0100,2875A,115.784,32.8892,阜阳市,阜阳职业技术学院,颗粒物(PM10),56,62,60,38,40,31,,,,25,25,5,7,0.4,0.4
2025-10-26T0100,3468A,115.7901,32.8613,阜阳市,市规划展馆,细颗粒物(PM2.5),63,70,62,45,40,35,,,,25,27,4,7,0.4,0.4
2025-10-26T0100,3469A,115.836,32.9183,阜阳市,枣园社区,细颗粒物(PM2.5),77,66,67,56,47,17,,,,41,34,7,9,0.5,0.4
2025-10-26T0100,2669A,102.9099,34.9841,甘南藏族自治州,州政府,,39,28,26,27,24,61,,,,6,9,4,5,0.3,0.3
2025-10-26T0100,3380A,102.8914,34.9617,甘南藏族自治州,甘肃民族师范学院,,19,14,21,13,15,54,,,,4,9,4,5,0.5,0.4
2025-10-26T0100,2570A,101.9603,30.0475,甘孜藏族自治州,水桥子,,12,6,7,3,4,36,,,,7,12,7,7,0.3,0.3
2025-10-26T0100,3065A,101.9533,29.9972,甘孜藏族自治州,州环保局,,13,7,6,3,4,40,,,,7,11,5,5,0.4,0.6
2025-10-26T0100,3414A,115.8347,28.932,赣江新区,桑海产业园,颗粒物(PM10),63,75,67,43,38,60,,,,23,19,11,10,0.2,0.2
2025-10-26T0100,2363A,114.9367,25.8664,赣州市,地委,颗粒物(PM10),54,57,48,35,28,84,,,,17,14,7,7,0.9,0.8
2025-10-26T0100,2364A,114.9461,25.8481,赣州市,气象台,颗粒物(PM10),57,63,52,32,25,86,,,,12,11,7,7,0.8,0.7
2025-10-26T0100,2365A,114.9322,25.8333,赣州市,市图书馆,颗粒物(PM10),55,60,45,34,29,91,,,,14,12,5,5,0.7,0.6
2025-10-26T0100,2366A,114.8905,25.8471,赣州市,华坚鞋城,细颗粒物(PM2.5),60,61,48,43,33,89,,,,14,14,8,7,0.7,0.5
2025-10-26T0100,3109A,115.0093,25.8613,赣州市,赣县区卫计委,细颗粒物(PM2.5),62,50,48,44,41,86,,,,7,6,7,7,0.7,0.6
2025-10-26T0100,2684A,106.2792,36.0022,固原市,监测站,,50,50,34,31,21,24,,,,31,20,7,6,1.0,0.7
2025-10-26T0100,2685A,106.2375,36.0211,固原市,新区,,39,36,30,27,21,12,,,,40,20,4,4,0.6,0.5
2025-10-26T0100,3522A,106.2177,35.9959,固原市,原州区十五小,,,35,36,20,23,,,,,25,19,6,6,0.7,0.8
2025-10-26T0100,2544A,106.6303,30.4576,广安市,市委,,33,25,26,23,19,20,,,,9,13,3,3,0.6,0.6
2025-10-26T0100,2545A,106.6271,30.4663,广安市,友谊中学,,29,29,26,20,18,22,,,,9,12,4,5,0.6,0.6
2025-10-26T0100,2547A,106.6388,30.4551,广安市,广电花园,,33,,22,23,18,15,,,,12,13,8,8,0.5,0.5
2025-10-26T0100,2902A,106.6351,30.4865,广安市,北辰小学,,26,25,24,18,16,23,,,,8,10,7,7,0.6,0.6
2025-10-26T0100,2524A,105.821,32.4444,广元市,老城,,22,17,16,15,12,6,,,,31,19,5,4,0.8,0.7
2025-10-26T0100,2526A,105.8628,32.4287,广元市,监测站,,14,14,13,9,15,13,,,,18,14,4,3,0.8,0.8
2025-10-26T0100,3617A,105.8047,32.4166,广元市,经开区,,24,24,16,14,10,4,,,,27,21,3,2,0.7,0.6
2025-10-26T0100,1345A,113.2347,23.1423,广州市,广雅中学,颗粒物(PM10),51,51,47,28,27,43,,,,48,31,11,9,0.5,0.5
2025-10-26T0100,1346A,113.2612,23.105,广州市,市五中,,47,47,46,28,27,62,,,,46,37,12,9,0.9,0.9
2025-10-26T0100,1348A,113.3478,23.0916,广州市,广东商学院,,44,44,42,30,27,56,,,,35,27,8,6,0.3,0.3
2025-10-26T0100,1349A,113.4332,23.1047,广州市,市八十六中,,34,34,35,22,22,65,,,,26,24,7,7,0.4,0.3
2025-10-26T0100,1350A,113.3505,22.9483,广州市,番禺中学,,42,42,43,28,29,66,,,,25,24,9,7,0.5,0.5
2025-10-26T0100,1351A,113.2146,23.3916,广州市,花都师范,,40,40,43,24,25,84,,,,14,18,9,9,0.4,0.4
2025-10-26T0100,1352A,113.2597,23.1331,广州市,市监测站,,50,50,49,30,25,40,,,,56,32,11,9,0.6,0.5
2025-10-26T0100,1353A,113.5618,23.312,广州市,九龙镇镇龙,,41,41,44,23,26,59,,,,17,19,6,7,0.5,0.5
2025-10-26T0100,1354A,113.2765,23.1544,广州市,麓湖,,42,40,41,29,26,33,,,,43,27,9,10,0.4,0.3
2025-10-26T0100,2846A,113.3221,23.1322,广州市,体育西,,46,46,46,28,27,51,,,,34,24,11,9,0.7,0.7
2025-10-26T0100,3298A,113.5717,23.5491,广州市,从化街口,,25,25,36,17,24,80,,,,10,11,9,9,0.5,0.6
2025-10-26T0100,3299A,113.3472,23.3692,广州市,白云竹料,,27,27,41,18,26,80,,,,14,15,10,10,0.5,0.5
2025-10-26T0100,3300A,113.2981,23.237,广州市,白云嘉禾,,45,45,48,26,27,65,,,,25,24,12,10,0.5,0.4
2025-10-26T0100,3301A,113.4256,23.1716,广州市,黄埔科学城,,34,34,37,22,23,81,,,,10,11,7,7,0.4,0.5
2025-10-26T0100,3302A,113.3942,23.0483,广州市,番禺大学城,,41,41,42,26,24,62,,,,27,22,8,6,0.4,0.4
2025-10-26T0100,3303A,113.4922,22.8168,广州市,南沙黄阁,颗粒物(PM10),56,62,51,30,26,29,,,,60,34,9,9,0.4,0.3
2025-10-26T0100,3304A,113.5342,22.7896,广州市,南沙街,,44,44,45,28,25,40,,,,39,26,9,9,0.5,0.5
2025-10-26T0100,3443A,113.2902,23.5544,广州市,花都梯面,,32,31,31,22,22,86,,,,10,11,10,8,0.4,0.4
2025-10-26T0100,3445A,113.7858,23.7478,广州市,从化良口,,32,32,31,22,22,93,,,,12,11,8,7,0.5,0.5
2025-10-26T0100,3446A,113.8051,23.2614,广州市,增城荔城,,26,24,29,18,18,70,,,,11,10,7,7,0.6,0.6
2025-10-26T0100,2506A,109.6047,23.0666,贵港市,江南子站,颗粒物(PM10),52,53,53,34,31,75,,,,11,13,6,6,0.7,0.6
2025-10-26T0100,2508A,109.5669,23.1065,贵港市,荷城子站,,46,46,43,31,24,68,,,,13,13,5,4,0.7,0.6
2025-10-26T0100,3405A,109.5886,23.1172,贵港市,新世纪学校,颗粒物(PM10),51,51,50,34,27,71,,,,8,9,5,4,0.6,0.5
2025-10-26T0100,4260A,109.5933,23.0951,贵港市,中山路155-3号,颗粒物(PM10),52,54,41,32,27,72,,,,12,10,6,5,0.7,0.6
2025-10-26T0100,1439A,106.6899,26.5998,贵阳市,马鞍山,,45,,23,31,24,23,,,,9,12,3,3,0.4,0.4
2025-10-26T0100,1441A,106.6243,26.6266,贵阳市,鉴湖路,,41,41,30,27,14,31,,,,15,11,4,4,0.5,0.5
2025-10-26T0100,1442A,106.7487,26.6343,贵阳市,燕子冲,,42,,22,29,24,37,,,,9,10,5,5,0.3,0.3
2025-10-26T0100,1443A,106.6555,26.4365,贵阳市,碧云窝,,46,46,40,27,20,40,,,,11,15,6,4,0.3,0.3
2025-10-26T0100,1445A,106.7109,26.6027,贵阳市,红边门,,36,36,27,24,22,35,,,,13,14,3,3,0.6,0.6
2025-10-26T0100,1446A,106.7164,26.5699,贵阳市,新华路,,39,39,31,24,20,35,,,,11,11,9,9,0.5,0.5
2025-10-26T0100,1447A,106.674,26.5424,贵阳市,太慈桥,,28,24,25,19,17,33,,,,14,17,4,3,0.7,0.7
2025-10-26T0100,4230A,106.6882,26.5695,贵阳市,花果园大街66号,,49,,22,34,23,34,,,,12,14,3,2,0.6,0.6
2025-10-26T0100,4231A,106.6873,26.5169,贵阳市,漓江路57号,,42,,21,29,22,36,,,,10,12,10,8,0.4,0.5
2025-10-26T0100,1864A,110.3089,25.2708,桂林市,龙隐路小学,细颗粒物(PM2.5),57,58,43,40,32,95,,,,12,10,7,7,0.5,0.4
2025-10-26T0100,1865A,110.2869,25.2178,桂林市,八中,细颗粒物(PM2.5),59,48,43,42,35,96,,,,15,13,9,9,0.4,0.4
2025-10-26T0100,3531A,110.296,25.1253,桂林市,旅游学院,细颗粒物(PM2.5),58,53,41,41,28,104,,,,13,11,6,7,0.7,0.6
2025-10-26T0100,4222A,110.1835,25.2444,桂林市,环湖路276号,细颗粒物(PM2.5),62,53,44,44,32,93,,,,13,11,9,8,0.4,0.3
2025-10-26T0100,4301A,110.2803,25.2773,桂林市,信义路13号,颗粒物(PM10),55,59,46,33,28,95,,,,12,12,8,9,0.5,0.4
2025-10-26T0100,2674A,100.2561,34.4714,果洛藏族自治州,玛沁县大武镇,,49,49,36,16,13,59,,,,2,3,22,10,0.3,0.3
2025-10-26T0100,1130A,126.561,45.8167,哈尔滨市,松北商大,,45,45,76,21,64,33,,,,21,31,8,7,0.4,0.6
2025-10-26T0100,1131A,126.979,45.5419,哈尔滨市,阿城会宁,,45,37,125,31,92,37,,,,22,31,12,12,0.2,0.7
2025-10-26T0100,1132A,126.599,45.7222,哈尔滨市,南岗学府路,,43,43,98,13,59,37,,,,18,36,10,12,0.3,0.5
2025-10-26T0100,1133A,126.689,45.7733,哈尔滨市,太平宏伟公园,,43,43,94,19,59,44,,,,14,32,10,14,0.4,0.6
2025-10-26T0100,1134A,126.635,45.7667,哈尔滨市,道外承德广场,颗粒物(PM10),53,56,102,19,55,41,,,,15,38,8,12,0.2,0.8
2025-10-26T0100,1135A,126.685,45.7319,哈尔滨市,香坊红旗大街,,48,48,111,15,72,43,,,,20,38,9,13,0.4,0.7
2025-10-26T0100,1136A,126.6411,45.7258,哈尔滨市,动力和平路,,43,43,95,13,63,41,,,,18,37,9,13,0.4,0.7
2025-10-26T0100,1137A,126.593,45.7478,哈尔滨市,道里建国路,,,36,81,30,58,,,,,16,36,8,8,0.3,0.6
2025-10-26T0100,1138A,126.615,45.61,哈尔滨市,平房东轻厂,,41,41,94,22,67,36,,,,21,30,12,13,0.4,0.6
2025-10-26T0100,1139A,126.595,45.9855,哈尔滨市,呼兰师专,,48,48,73,24,53,33,,,,21,33,7,11,0.4,0.5
2025-10-26T0100,1140A,126.6206,45.6842,哈尔滨市,省农科院,颗粒物(PM10),56,62,114,16,61,23,,,,30,44,9,11,0.7,0.8
2025-10-26T0100,2688A,93.5128,42.8172,哈密市,地区监测站,颗粒物(PM10),93,135,126,62,47,27,,,,56,55,8,12,0.0,0.4
2025-10-26T0100,2689A,93.4961,42.8328,哈密市,哈密师范学校,颗粒物(PM10),80,109,127,52,46,16,,,,73,54,13,15,0.8,1.1
2025-10-26T0100,2671A,100.9048,36.9639,海北藏族自治州,海晏县西海镇,,30,23,23,21,19,54,,,,6,6,4,6,0.4,0.4
2025-10-26T0100,3867A,102.0738,36.5056,海东市,平安区公安北苑,,35,35,43,12,29,80,,,,6,11,10,13,1.1,0.9
2025-10-26T0100,1410A,110.3232,20.0574,海口市,海南大学,,40,40,37,25,24,107,,,,7,8,7,7,0.4,0.4
2025-10-26T0100,1411A,110.283,20.0053,海口市,秀英海南医院,,37,37,40,24,23,100,,,,8,11,8,8,0.3,0.3
2025-10-26T0100,1412A,110.338,19.9969,海口市,海南师范大学,,38,34,37,26,23,107,,,,8,9,8,7,0.5,0.5
2025-10-26T0100,1413A,110.33,20.0356,海口市,龙华路环保局宿舍,,38,38,43,26,24,106,,,,9,10,9,8,0.1,0.1
2025-10-26T0100,3539A,110.5111,19.9736,海口市,桂林洋子站,,42,42,40,27,24,97,,,,8,9,8,7,0.4,0.4
2025-10-26T0100,2673A,100.6188,36.2866,海南藏族自治州,共和县恰卜恰镇,,43,43,35,12,15,49,,,,32,11,13,12,0.5,0.4
2025-10-26T0100,2676A,97.3731,37.3753,海西蒙古族藏族自治州,德令哈市,,33,33,38,20,16,77,,,,6,8,18,17,0.4,0.4
2025-10-26T0100,1048A,114.5302,36.6116,邯郸市,东污水处理厂,细颗粒物(PM2.5),117,,54,88,59,22,,,,29,26,12,5,0.5,0.5
2025-10-26T0100,1049A,114.4918,36.5713,邯郸市,矿院,细颗粒物(PM2.5),113,,51,85,58,24,,,,31,32,4,6,0.5,0.5
2025-10-26T0100,1050A,114.484,36.6133,邯郸市,丛台公园,细颗粒物(PM2.5),100,78,54,75,50,29,,,,28,28,4,6,0.5,0.5
2025-10-26T0100,3458A,114.7895,36.5593,邯郸市,香泉濮院小区,细颗粒物(PM2.5),97,,60,72,50,40,,,,20,21,5,6,0.5,0.5
2025-10-26T0100,3579A,114.50634,36.77178,邯郸市,永年区实验高中,颗粒物(PM10),53,56,73,35,42,26,,,,35,34,1,2,0.6,0.6
2025-10-26T0100,3580A,114.20016,36.44293,邯郸市,峰峰矿区临水派出所,细颗粒物(PM2.5),64,59,41,46,34,30,,,,28,19,6,6,0.7,0.6
2025-10-26T0100,2635A,107.0154,33.0706,汉中市,市监测站,,43,43,36,28,26,14,,,,28,15,6,4,0.7,0.6
2025-10-26T0100,2636A,107.0089,33.1138,汉中市,鑫源开发区,,44,44,34,22,25,6,,,,36,18,10,4,0.4,0.3
2025-10-26T0100,2637A,107.007,33.0323,汉中市,南郑大河坎水厂,颗粒物(PM10),57,64,44,30,30,6,,,,33,20,7,8,0.7,0.6
2025-10-26T0100,1223A,120.2072,30.2111,杭州市,滨江,,48,48,48,23,21,61,,,,33,32,11,10,0.5,0.6
2025-10-26T0100,1224A,120.0633,30.2747,杭州市,西溪,,47,47,44,27,27,30,,,,30,26,8,8,0.6,0.5
2025-10-26T0100,1226A,120.3417,30.3150,杭州市,下沙,,35,35,38,18,22,71,,,,22,25,11,11,0.2,0.3
2025-10-26T0100,1227A,120.1269,30.2456,杭州市,卧龙桥,,38,38,42,25,22,27,,,,25,25,9,9,0.6,0.6
2025-10-26T0100,1228A,120.1903,30.2692,杭州市,浙江农大,,36,36,44,20,25,68,,,,28,34,7,7,0.5,0.6
2025-10-26T0100,1230A,120.1197,30.3119,杭州市,和睦小学,,36,36,43,24,24,65,,,,22,25,8,8,0.6,0.7
2025-10-26T0100,1231A,120.3019,30.4183,杭州市,临平镇,,30,30,46,16,25,60,,,,27,21,6,7,0.3,0.4
2025-10-26T0100,1232A,120.2753,30.1839,杭州市,城厢镇,颗粒物(PM10),51,51,45,27,27,51,,,,45,35,7,7,0.5,0.5
2025-10-26T0100,1233A,120.0883,30.1808,杭州市,云栖,,40,40,38,26,21,52,,,,30,26,6,6,0.6,0.6
2025-10-26T0100,3557A,119.9464,30.0494,杭州市,镇二中,细颗粒物(PM2.5),58,63,50,41,30,46,,,,32,24,5,5,0.7,0.6
2025-10-26T0100,3558A,119.7183,30.2367,杭州市,市府大楼,颗粒物(PM10),55,60,46,34,27,58,,,,22,21,9,9,0.5,0.4
2025-10-26T0100,3656A,120.1556,30.2864,杭州市,消防大队,,41,41,47,23,26,60,,,,33,31,9,9,0.2,0.3
2025-10-26T0100,1270A,117.1959,31.7848,合肥市,明珠广场,,25,24,44,17,25,58,,,,20,23,6,7,0.4,0.6
2025-10-26T0100,1271A,117.3072,31.8764,合肥市,三里街,,20,9,36,9,19,64,,,,17,22,5,6,0.4,0.5
2025-10-26T0100,1272A,117.2588,31.8707,合肥市,琥珀山庄,,29,,38,20,23,63,,,,16,18,4,5,0.4,0.5
2025-10-26T0100,1274A,117.25,31.8571,合肥市,长江中路,,29,27,44,20,26,64,,,,15,19,5,6,0.4,0.5
2025-10-26T0100,1275A,117.266,31.9436,合肥市,庐阳区,,21,19,42,14,21,66,,,,16,24,4,5,0.5,0.6
2025-10-26T0100,1276A,117.3453,31.8616,合肥市,瑶海区,,23,17,38,10,19,73,,,,15,23,8,9,0.4,0.4
2025-10-26T0100,1277A,117.3027,31.7964,合肥市,包河区,,22,22,45,12,22,55,,,,34,45,6,7,0.4,0.5
2025-10-26T0100,1278A,117.2776,31.7385,合肥市,滨湖新区,,24,22,45,12,28,75,,,,13,21,4,4,0.5,0.6
2025-10-26T0100,1279A,117.1318,31.8403,合肥市,高新区,,28,24,43,19,24,64,,,,18,24,4,5,0.6,0.6
2025-10-26T0100,3464A,117.3803,31.9147,合肥市,高教基地,,27,27,36,16,20,60,,,,12,16,6,7,0.3,0.4
2025-10-26T0100,3614A,79.924,37.0877,和田地区,地区环保局,细颗粒物(PM2.5),147,210,152,112,57,22,,,,62,23,7,16,2.0,0.6
2025-10-26T0100,3615A,79.9131,37.113,和田地区,市环保局,颗粒物(PM10),143,236,163,83,55,6,,,,79,38,8,12,2.5,0.5
2025-10-26T0100,2517A,108.0497,24.6947,河池市,市环保站,,19,,32,13,25,48,,,,9,12,6,6,0.7,0.7
2025-10-26T0100,2518A,108.0983,24.6989,河池市,市疾控中心,,23,,28,16,23,60,,,,6,11,9,9,0.7,0.6
2025-10-26T0100,1697A,114.6944,23.7586,河源市,东埔,,38,34,34,26,25,92,,,,13,12,7,6,0.8,0.8
2025-10-26T0100,1698A,114.6892,23.7233,河源市,老城,,47,47,39,20,21,84,,,,10,10,6,6,0.5,0.5
2025-10-26T0100,1718A,115.4208,35.2464,菏泽市,气象局,细颗粒物(PM2.5),85,73,71,63,57,62,,,,15,16,2,3,0.5,0.6
2025-10-26T0100,3374A,115.5564,35.0891,菏泽市,定陶老年大学,细颗粒物(PM2.5),67,63,62,48,48,56,,,,14,16,6,6,0.5,0.5
2025-10-26T0100,4184A,115.4797,35.24401,菏泽市,永昌路1号,细颗粒物(PM2.5),75,63,64,55,51,68,,,,12,15,1,2,0.4,0.4
2025-10-26T0100,4193A,115.4715,35.2800,菏泽市,长城路999号,细颗粒物(PM2.5),67,61,64,48,51,73,,,,15,19,10,8,0.7,0.7
2025-10-26T0100,2514A,111.5264,24.4172,贺州市,环保小区,,48,42,43,33,28,99,,,,11,12,5,6,0.6,0.6
2025-10-26T0100,2515A,111.5608,24.4078,贺州市,政协大楼,细颗粒物(PM2.5),52,44,42,36,28,86,,,,12,12,6,6,0.5,0.6
2025-10-26T0100,3534A,111.4744,24.4553,贺州市,西湾,,43,43,42,30,28,94,,,,10,11,5,7,0.5,0.5
2025-10-26T0100,2385A,114.17,35.9019,鹤壁市,市监测站,"颗粒物(PM10),细颗粒物(PM2.5)",58,66,35,41,30,5,,,,25,16,1,4,0.7,0.6
2025-10-26T0100,2386A,114.2956,35.7511,鹤壁市,市交警支队,细颗粒物(PM2.5),108,118,61,81,47,18,,,,37,26,5,4,0.7,0.6
2025-10-26T0100,2387A,114.2878,35.7306,鹤壁市,迎宾馆,细颗粒物(PM2.5),123,116,67,93,51,18,,,,31,20,3,5,0.7,0.6
2025-10-26T0100,3474A,114.2617,35.6822,鹤壁市,大新区,细颗粒物(PM2.5),124,,60,94,65,17,,,,33,28,4,4,0.6,0.6
2025-10-26T0100,3596A,114.1572,35.9603,鹤壁市,南山宾馆,细颗粒物(PM2.5),80,86,37,59,31,11,,,,34,16,7,2,0.5,0.4
2025-10-26T0100,2244A,130.2537,47.3416,鹤岗市,哈啤分公司,细颗粒物(PM2.5),500,,203,705,218,33,,,,108,51,22,19,2.9,1.2
2025-10-26T0100,2245A,130.2684,47.3086,鹤岗市,斯达机电,"颗粒物(PM10),细颗粒物(PM2.5)",500,873,284,824,242,59,,,,133,51,42,22,3.5,1.4
2025-10-26T0100,2246A,130.3114,47.3388,鹤岗市,东山纸板厂,"颗粒物(PM10),细颗粒物(PM2.5)",500,693,345,554,243,25,,,,70,56,17,18,4.0,2
2025-10-26T0100,2263A,127.4833,50.2524,黑河市,交通局,细颗粒物(PM2.5),100,109,119,75,84,49,,,,18,27,4,5,0.7,0.7
2025-10-26T0100,2264A,127.5144,50.2341,黑河市,环保局,细颗粒物(PM2.5),97,103,124,72,89,41,,,,22,24,11,13,0.7,0.7
2025-10-26T0100,1074A,115.6838,37.7541,衡水市,电机北厂,细颗粒物(PM2.5),67,59,87,48,61,32,,,,23,37,4,6,0.4,0.5
2025-10-26T0100,1075A,115.6303,37.7316,衡水市,市监测站,细颗粒物(PM2.5),69,56,71,50,55,19,,,,35,39,6,8,0.4,0.5
2025-10-26T0100,3188A,115.6683,37.7217,衡水市,市城管局,细颗粒物(PM2.5),72,55,77,52,55,35,,,,25,40,7,9,0.4,0.5
2025-10-26T0100,3459A,115.5989,37.5491,衡水市,地表水厂,细颗粒物(PM2.5),58,57,83,41,52,1,,,,54,42,5,7,0.3,0.4
2025-10-26T0100,2457A,112.6194,26.9258,衡阳市,衡阳化工总厂,细颗粒物(PM2.5),80,61,55,59,43,80,,,,10,15,5,8,0.9,0.9
2025-10-26T0100,2458A,112.6211,26.8956,衡阳市,珠晖区环保局,细颗粒物(PM2.5),87,,52,64,41,70,,,,25,26,8,10,1.0,1
2025-10-26T0100,2459A,112.6197,26.8733,衡阳市,市委党校,细颗粒物(PM2.5),73,59,51,53,36,76,,,,10,11,3,5,0.6,0.6
2025-10-26T0100,2460A,112.6006,26.8919,衡阳市,市监测站,细颗粒物(PM2.5),72,78,63,52,38,79,,,,11,14,5,7,0.8,0.8
2025-10-26T0100,2461A,112.5664,26.9056,衡阳市,真空机电公司,细颗粒物(PM2.5),112,,54,84,45,69,,,,13,12,7,8,1.0,0.8
2025-10-26T0100,3399A,112.6703,26.882,衡阳市,师范学院,细颗粒物(PM2.5),75,70,59,55,38,83,,,,13,15,8,9,0.8,0.8
2025-10-26T0100,2608A,103.3772,23.3993,红河哈尼族彝族自治州,污水处理厂,,22,22,18,9,12,33,,,,6,8,8,9,0.1,0.2
2025-10-26T0100,2609A,103.3861,23.35,红河哈尼族彝族自治州,监测站,,19,,14,13,10,30,,,,5,5,13,6,0.2,0.2
2025-10-26T0100,3038A,103.3758,23.368,红河哈尼族彝族自治州,州图书馆,,23,,6,16,14,32,,,,3,6,3,3,0.3,0.3
2025-10-26T0100,1090A,111.6507,40.7517,呼和浩特市,呼市一监,,20,7,22,3,6,64,,,,7,23,2,3,0.0,0.5
2025-10-26T0100,1091A,111.6572,40.8033,呼和浩特市,小召,,21,12,21,3,6,65,,,,12,26,6,6,0.4,0.5
2025-10-26T0100,1094A,111.7516,40.8369,呼和浩特市,如意水处理厂,,22,6,16,3,7,69,,,,4,29,8,8,0.1,0.2
2025-10-26T0100,1095A,111.7276,40.8062,呼和浩特市,二十九中,,24,13,22,3,5,75,,,,6,21,8,7,0.2,0.3
2025-10-26T0100,1096A,111.5512,40.7866,呼和浩特市,工大金川校区,,21,15,31,3,6,65,,,,7,24,5,7,0,0.1
2025-10-26T0100,1097A,111.717,40.7612,呼和浩特市,化肥厂生活区,,21,6,11,3,7,66,,,,10,23,4,5,0.1,0.3
2025-10-26T0100,3698A,111.5968,40.8178,呼和浩特市,红旗小学,,20,9,18,3,4,61,,,,10,18,4,4,0.1,0.1
2025-10-26T0100,3699A,111.6518,40.8389,呼和浩特市,海东办,,25,6,15,3,4,77,,,,7,22,5,4,0.2,0.3
2025-10-26T0100,3061A,119.7512,49.1577,呼伦贝尔市,国华电力东,,20,20,26,11,9,39,,,,6,7,6,6,0.6,0.6
2025-10-26T0100,4279A,119.7569,49.2222,呼伦贝尔市,伊敏大街东7号,,21,21,27,10,16,39,,,,2,2,5,5,0.4,0.4
2025-10-26T0100,1250A,120.0751,30.8669,湖州市,城西水厂,,31,31,41,16,21,81,,,,26,24,8,8,0.5,0.6
2025-10-26T0100,2873A,120.0830,30.8929,湖州市,仁皇山新区,,28,28,40,15,23,83,,,,19,20,6,7,0.3,0.5
2025-10-26T0100,2907A,120.1844,30.8596,湖州市,吴兴区站,,42,42,47,21,23,61,,,,28,26,7,8,0.4,0.6
2025-10-26T0100,3562A,120.4148,30.8538,湖州市,南浔区站,,31,31,44,16,22,81,,,,23,23,10,9,0.4,0.5
2025-10-26T0100,1607A,120.9049,40.7211,葫芦岛市,龙港区,细颗粒物(PM2.5),108,150,125,81,94,4,,,,59,46,13,58,1.2,1.6
2025-10-26T0100,1608A,120.8392,40.7514,葫芦岛市,化工街,颗粒物(PM10),68,85,138,46,75,18,,,,45,49,25,28,0.7,1.2
2025-10-26T0100,1609A,120.8341,40.7073,葫芦岛市,新区,颗粒物(PM10),79,108,99,48,76,18,,,,57,51,11,13,1.0,1.1
2025-10-26T0100,1610A,120.8695,40.7677,葫芦岛市,东城区,颗粒物(PM10),65,80,111,28,81,42,,,,33,51,16,24,0.6,1.3
2025-10-26T0100,2483A,109.9453,27.5444,怀化市,河西地税局,,35,28,45,24,32,48,,,,18,13,1,2,0.3,0.4
2025-10-26T0100,2484A,109.9781,27.5342,怀化市,市四医院,颗粒物(PM10),55,59,66,33,39,70,,,,8,9,8,8,0.3,0.3
2025-10-26T0100,2485A,109.9972,27.5578,怀化市,监测楼,,49,42,50,34,33,68,,,,6,7,2,2,0.2,0.2
2025-10-26T0100,2486A,110.0394,27.583,怀化市,市委党校,,42,38,49,29,35,58,,,,11,14,8,9,0.2,0.2
2025-10-26T0100,1210A,119.036,33.5981,淮安市,钵池山,细颗粒物(PM2.5),88,68,62,65,40,38,,,,26,37,7,8,0.8,0.8
2025-10-26T0100,1211A,119.007,33.575,淮安市,北京南路,细颗粒物(PM2.5),92,,55,68,38,36,,,,27,31,8,9,0.9,0.8
2025-10-26T0100,1212A,118.989,33.6067,淮安市,市监测站,细颗粒物(PM2.5),98,,56,73,45,32,,,,28,36,6,7,0.9,0.8
2025-10-26T0100,1213A,119.135,33.5039,淮安市,楚州区监测站,细颗粒物(PM2.5),103,,56,77,41,38,,,,30,35,8,9,0.9,0.7
2025-10-26T0100,3426A,118.8755,33.2894,淮安市,新华书店,细颗粒物(PM2.5),67,71,56,48,37,38,,,,32,39,8,12,1.0,0.7
2025-10-26T0100,4206A,119.0288,33.6319,淮安市,承德北路606号,细颗粒物(PM2.5),93,70,63,69,39,32,,,,27,35,6,8,0.7,0.7
2025-10-26T0100,2282A,116.8004,33.975,淮北市,监测站,细颗粒物(PM2.5),63,51,83,45,60,60,,,,16,30,8,10,0.6,0.7
2025-10-26T0100,2283A,116.8091,33.9007,淮北市,烈山区政府,细颗粒物(PM2.5),60,56,70,43,59,69,,,,17,30,8,10,0.6,0.8
2025-10-26T0100,3330A,116.8873,33.9836,淮北市,杜集区检察院,细颗粒物(PM2.5),73,56,73,53,64,45,,,,16,29,4,6,0.5,0.6
2025-10-26T0100,2277A,116.8305,32.7727,淮南市,潘集区政府,细颗粒物(PM2.5),125,111,93,95,66,14,,,,46,25,5,5,0.7,0.5
2025-10-26T0100,2279A,116.8569,32.5951,淮南市,谢家集区政府,细颗粒物(PM2.5),80,72,65,59,41,33,,,,22,26,12,10,0.6,0.4
2025-10-26T0100,2280A,116.8281,32.633,淮南市,八公山区政府,细颗粒物(PM2.5),84,75,72,62,48,28,,,,18,23,4,8,0.6,0.5
2025-10-26T0100,2894A,117.0566,32.6531,淮南市,经济技术开发区消防队,细颗粒物(PM2.5),73,56,63,53,37,34,,,,20,40,9,10,0.4,0.3
2025-10-26T0100,3329A,117.0108,32.5893,淮南市,山南新区,,46,44,57,32,32,49,,,,23,35,4,5,0.2,0.3
2025-10-26T0100,4209A,117.0031,32.6445,淮南市,国庆中路369号,细颗粒物(PM2.5),69,74,61,50,39,35,,,,20,35,7,8,0.4,0.4
2025-10-26T0100,2446A,114.9028,30.4742,黄冈市,职工中心,细颗粒物(PM2.5),67,62,47,48,32,33,,,,13,16,4,4,0.7,0.6
2025-10-26T0100,2929A,114.8858,30.4519,黄冈市,红卫路,细颗粒物(PM2.5),67,56,42,48,32,33,,,,15,16,5,5,0.6,0.5
2025-10-26T0100,3398A,114.9136,30.4445,黄冈市,市林业局,细颗粒物(PM2.5),63,61,46,45,32,35,,,,15,16,3,3,0.6,0.5
2025-10-26T0100,2672A,102.0199,35.5102,黄南藏族自治州,同仁县隆务镇,,37,37,38,22,17,58,,,,2,4,10,10,0.3,0.3
2025-10-26T0100,2295A,118.2903,29.6963,黄山市,延安路89号,,40,40,36,22,18,91,,,,8,8,4,4,0.4,0.4
2025-10-26T0100,2297A,118.1371,30.2756,黄山市,黄山区政府5号楼,细颗粒物(PM2.5),55,40,42,39,27,34,,,,6,7,6,6,0.6,0.5
2025-10-26T0100,4210A,118.3354,29.7203,黄山市,滨江东路7-2号,,40,40,37,13,15,80,,,,8,8,4,4,0.4,0.3
2025-10-26T0100,2423A,115.0601,30.2313,黄石市,沈家营,细颗粒物(PM2.5),62,70,56,44,31,27,,,,11,15,7,8,0.6,0.6
2025-10-26T0100,2426A,114.8988,30.2019,黄石市,铁山,细颗粒物(PM2.5),75,65,58,55,38,18,,,,29,28,4,7,0.4,0.4
2025-10-26T0100,2427A,115.0307,30.2092,黄石市,团城山,细颗粒物(PM2.5),73,60,52,53,32,21,,,,14,18,6,8,0.5,0.6
2025-10-26T0100,3149A,115.0235,30.1578,黄石市,笔架山北路,细颗粒物(PM2.5),73,85,74,53,33,22,,,,23,21,11,9,0.5,0.5
2025-10-26T0100,4185A,115.0780,30.21118,黄石市,磁湖东路29号,细颗粒物(PM2.5),75,72,56,55,37,30,,,,16,17,7,10,0.5,0.5
2025-10-26T0100,1392A,114.4183,23.0528,惠州市,河南岸金山湖子站,,36,36,37,22,22,80,,,,20,22,14,12,0.5,0.5
2025-10-26T0100,1393A,114.4053,23.0822,惠州市,下埔横江三路子站,,37,37,33,24,20,97,,,,10,11,6,6,0.6,0.6
2025-10-26T0100,1394A,114.4103,23.1142,惠州市,江北云山西路子站,,37,37,34,24,22,101,,,,11,13,7,7,0.4,0.5
2025-10-26T0100,1395A,114.4645,22.7833,惠州市,惠阳区承修路船湖子站,,38,38,35,24,22,69,,,,16,15,9,10,0.7,0.6
2025-10-26T0100,1396A,114.5317,22.7422,惠州市,大亚湾管委会子站,,33,32,29,23,21,75,,,,13,14,11,11,0.6,0.7
2025-10-26T0100,3314A,114.4338,22.8134,惠州市,惠阳秋长,,34,34,34,22,22,86,,,,10,12,11,10,0.7,0.7
2025-10-26T0100,3452A,114.6517,22.775,惠州市,大亚湾霞涌,,41,41,31,24,21,57,,,,14,10,10,8,0.5,0.4
2025-10-26T0100,2240A,130.9762,45.3001,鸡西市,环保局,细颗粒物(PM2.5),170,211,110,129,67,1,,,,54,39,10,10,1.4,1
2025-10-26T0100,2243A,130.9429,45.3039,鸡西市,第一中学,细颗粒物(PM2.5),190,208,153,143,83,4,,,,85,36,14,10,1.2,1
2025-10-26T0100,3707A,131.0207,45.3073,鸡西市,欧美日汽修厂,细颗粒物(PM2.5),254,271,123,204,77,20,,,,52,38,20,14,1.6,0.9
2025-10-26T0100,3709A,130.9967,45.3106,鸡西市,市政设施管理处,细颗粒物(PM2.5),182,221,120,137,71,5,,,,61,47,13,14,1.1,0.8
2025-10-26T0100,2367A,114.9754,27.0803,吉安市,红声器材厂,颗粒物(PM10),55,60,56,34,30,83,,,,19,20,12,14,0.6,0.7
2025-10-26T0100,2368A,114.9658,27.0999,吉安市,市森林工业局,颗粒物(PM10),55,59,56,33,31,84,,,,17,18,10,11,0.5,0.5
2025-10-26T0100,2369A,114.99,27.1312,吉安市,市环境监测站,细颗粒物(PM2.5),79,65,58,58,34,74,,,,20,17,19,13,0.5,0.5
2025-10-26T0100,2370A,115.0093,27.0968,吉安市,青原区法院,细颗粒物(PM2.5),65,61,53,47,33,74,,,,19,18,27,15,0.6,0.5
2025-10-26T0100,1772A,126.54,43.8622,吉林市,哈达湾,细颗粒物(PM2.5),98,105,75,73,52,62,,,,26,31,12,11,0.9,0.6
2025-10-26T0100,1773A,126.5844,43.8358,吉林市,东局子,细颗粒物(PM2.5),107,104,63,80,46,43,,,,36,30,10,10,1.1,0.8
2025-10-26T0100,1774A,126.5052,43.8245,吉林市,电力学院,细颗粒物(PM2.5),107,100,85,80,65,33,,,,37,41,10,11,0.9,0.9
2025-10-26T0100,1775A,126.6133,43.8972,吉林市,江北,细颗粒物(PM2.5),98,97,74,73,53,43,,,,24,27,6,6,1.1,1
2025-10-26T0100,1776A,126.555,43.8306,吉林市,江南公园,细颗粒物(PM2.5),105,104,72,79,58,34,,,,44,37,8,9,0.8,0.6
2025-10-26T0100,2868A,126.4739,43.953,吉林市,九站,细颗粒物(PM2.5),129,149,87,98,57,42,,,,37,41,7,10,1.1,0.8
2025-10-26T0100,1299A,116.9862,36.6114,济南市,科干所,细颗粒物(PM2.5),53,51,72,37,44,89,,,,18,26,7,8,0.5,0.6
2025-10-26T0100,1300A,116.9376,36.665,济南市,农科所,颗粒物(PM10),61,71,83,39,44,53,,,,27,37,6,7,0.7,0.8
2025-10-26T0100,1301A,117.1265,36.6734,济南市,开发区,细颗粒物(PM2.5),59,54,63,42,45,82,,,,15,26,3,3,0.6,0.6
2025-10-26T0100,1303A,117.0624,36.6868,济南市,省种子仓库,细颗粒物(PM2.5),73,68,80,53,54,81,,,,22,37,6,7,0.8,0.9
2025-10-26T0100,1304A,116.9489,36.6447,济南市,机床二厂,细颗粒物(PM2.5),89,83,95,66,71,66,,,,24,38,7,8,0.2,0.4
2025-10-26T0100,1305A,117.0495,36.663,济南市,市监测站,细颗粒物(PM2.5),70,63,71,51,54,71,,,,22,32,3,3,0.8,0.9
2025-10-26T0100,1306A,116.7675,36.5484,济南市,长清党校,颗粒物(PM10),66,81,82,46,47,70,,,,22,38,9,9,0.7,0.8
2025-10-26T0100,1616A,117.6795,36.229,济南市,技术学院,细颗粒物(PM2.5),89,70,96,66,78,77,,,,16,43,10,13,0.8,1.2
2025-10-26T0100,1961A,117.532,36.6868,济南市,东山小学,细颗粒物(PM2.5),98,83,72,73,50,68,,,,22,33,6,7,0.5,0.5
2025-10-26T0100,3064A,117.6867,36.2171,济南市,莱芜战役纪念馆,细颗粒物(PM2.5),97,80,98,72,80,66,,,,20,41,12,15,0.4,0.6
2025-10-26T0100,3494A,117.1673,36.9782,济南市,济阳区政府,细颗粒物(PM2.5),85,90,94,63,52,48,,,,32,43,6,8,0.5,0.6
2025-10-26T0100,3495A,117.1171,36.63,济南市,锦屏中学,细颗粒物(PM2.5),55,49,49,39,37,87,,,,12,18,4,4,0.7,0.7
2025-10-26T0100,3682A,116.9814,36.6819,济南市,济南四建,细颗粒物(PM2.5),74,63,69,54,53,72,,,,15,22,5,6,0.8,0.9
2025-10-26T0100,1653A,116.6251,35.4302,济宁市,火炬城,细颗粒物(PM2.5),110,,100,83,95,55,,,,13,28,5,6,0.4,0.4
2025-10-26T0100,1655A,116.5491,35.4042,济宁市,电化厂,细颗粒物(PM2.5),100,86,122,75,93,64,,,,19,34,4,4,0.4,0.4
2025-10-26T0100,3500A,116.5814,35.3707,济宁市,北湖一中,细颗粒物(PM2.5),88,,89,65,94,69,,,,10,28,6,6,0.4,0.5
2025-10-26T0100,3501A,116.8249,35.5593,济宁市,服务中心,细颗粒物(PM2.5),73,55,79,53,69,50,,,,14,34,7,8,0.6,0.6
2025-10-26T0100,3678A,116.5907,35.4054,济宁市,市第七中学,,,75,92,73,96,72,,,,,27,7,8,0.5,0.5
2025-10-26T0100,2255A,130.2751,46.8028,佳木斯市,佳纺,细颗粒物(PM2.5),500,,170,898,278,132,,,,98,65,17,12,2.7,1.8
2025-10-26T0100,2257A,130.3258,46.7975,佳木斯市,环保局,"颗粒物(PM10),细颗粒物(PM2.5)",500,,255,800,249,38,,,,106,54,9,11,2.7,1.4
2025-10-26T0100,2258A,130.3648,46.8032,佳木斯市,十一中,颗粒物(PM10),500,605,265,464,182,100,,,,70,58,17,14,1.9,1.5
2025-10-26T0100,1252A,120.7436,30.778,嘉兴市,清河小学,,40,40,40,20,20,59,,,,25,25,8,9,0.6,0.6
2025-10-26T0100,1253A,120.726,30.7478,嘉兴市,嘉兴学院,,33,33,39,17,21,68,,,,21,24,6,6,0.6,0.6
2025-10-26T0100,2872A,120.7846,30.7525,嘉兴市,南湖区残联,,34,34,42,17,23,70,,,,23,24,10,10,0.6,0.6
2025-10-26T0100,3407A,120.6916,30.7739,嘉兴市,秀洲住建,,34,34,41,17,22,71,,,,24,26,8,8,0.5,0.6
2025-10-26T0100,1945A,98.2908,39.7711,嘉峪关市,气象局,颗粒物(PM10),64,78,98,31,38,43,,,,33,31,1,15,1.0,1
2025-10-26T0100,2884A,98.2672,39.7978,嘉峪关市,酒钢宾馆,,,,115,29,41,65,,,,10,26,12,41,0.6,0.9
2025-10-26T0100,3248A,98.2643,39.7724,嘉峪关市,雄关区,颗粒物(PM10),58,66,84,35,40,41,,,,38,39,14,11,0.2,0.5
2025-10-26T0100,1383A,113.1064,22.6058,江门市,北街,,45,45,49,29,30,56,,,,34,32,9,8,0.7,0.6
2025-10-26T0100,1384A,113.0731,22.5835,江门市,西区,,46,43,50,32,30,48,,,,37,31,8,7,0.5,0.4
2025-10-26T0100,1385A,113.0219,22.5311,江门市,圭峰西,,39,33,43,27,30,71,,,,24,26,9,8,0.6,0.6
2025-10-26T0100,1386A,113.0828,22.5947,江门市,东湖,,46,46,50,32,29,50,,,,31,28,9,8,0.4,0.3
2025-10-26T0100,3311A,113.1075,22.5647,江门市,江海富民,,46,46,53,24,19,56,,,,34,32,12,10,0.5,0.4
2025-10-26T0100,3449A,113.05,22.4667,江门市,新会银湖,颗粒物(PM10),53,55,48,28,30,58,,,,27,28,8,7,0.6,0.6
2025-10-26T0100,3335A,113.3137,35.2641,焦作市,马村街道办,颗粒物(PM10),58,65,70,34,58,17,,,,19,20,5,6,0.7,0.6
2025-10-26T0100,3336A,113.2465,35.2373,焦作市,焦作技师学院,细颗粒物(PM2.5),70,63,66,51,63,13,,,,28,25,7,6,0.9,0.9
2025-10-26T0100,3477A,113.1656,35.2539,焦作市,中站许衡医院,"颗粒物(PM10),细颗粒物(PM2.5)",55,60,61,39,48,22,,,,19,25,5,8,0.6,0.7
2025-10-26T0100,3981A,113.2449,35.1803,焦作市,原李万街道办,细颗粒物(PM2.5),62,66,64,44,44,13,,,,28,21,10,8,0.8,0.7
2025-10-26T0100,4264A,113.2340,35.2190,焦作市,新安路1731号,细颗粒物(PM2.5),68,56,71,49,61,21,,,,17,21,7,7,0.7,0.8
2025-10-26T0100,4295A,113.2722,35.2121,焦作市,人民路3066号,,49,45,61,34,46,16,,,,30,24,7,7,0.6,0.6
2025-10-26T0100,1708A,116.3701,23.5345,揭阳市,新兴,颗粒物(PM10),51,51,33,29,19,59,,,,29,16,9,7,0.8,0.5
2025-10-26T0100,1709A,116.3264,23.5443,揭阳市,西马,细颗粒物(PM2.5),62,72,36,44,19,40,,,,36,15,7,4,1.0,0.7
2025-10-26T0100,1710A,116.3611,23.5626,揭阳市,东兴,颗粒物(PM10),56,62,38,33,19,45,,,,31,17,11,7,0.7,0.5
2025-10-26T0100,1711A,116.4151,23.5294,揭阳市,渔湖,颗粒物(PM10),55,60,34,23,15,70,,,,21,12,4,8,0.6,0.5
2025-10-26T0100,3320A,116.403,23.5699,揭阳市,曲溪,,48,48,33,33,18,62,,,,26,12,8,2,0.6,0.5
2025-10-26T0100,1944A,102.1692,38.5167,金昌市,天庆家园,颗粒物(PM10),70,90,71,37,32,38,,,,34,23,3,4,0.7,0.7
2025-10-26T0100,4022A,102.1647,38.5371,金昌市,金川区人防中心,细颗粒物(PM2.5),74,87,72,54,35,34,,,,17,18,4,4,0.8,0.8
2025-10-26T0100,4239A,102.1930,38.5319,金昌市,长春路96号,颗粒物(PM10),71,91,55,38,25,38,,,,33,17,58,10,0.7,0.6
2025-10-26T0100,1262A,119.647,29.077,金华市,十五中,细颗粒物(PM2.5),64,71,57,46,33,61,,,,28,27,2,2,0.5,0.5
2025-10-26T0100,1263A,119.686,29.1029,金华市,监测站,颗粒物(PM10),69,88,57,48,32,5,,,,100,45,2,3,0.5,0.5
2025-10-26T0100,3659A,119.656,29.1131,金华市,气象局,细颗粒物(PM2.5),73,82,63,53,40,10,,,,82,45,4,4,0.4,0.4
2025-10-26T0100,1767A,121.1115,41.0879,锦州市,南山,颗粒物(PM10),71,91,81,37,80,41,,,,32,41,13,10,0.9,1.2
2025-10-26T0100,1768A,121.0604,40.8428,锦州市,开发区,颗粒物(PM10),73,96,117,49,87,33,,,,67,60,25,35,1.0,1.3
2025-10-26T0100,1769A,121.1836,41.1119,锦州市,百股街道,颗粒物(PM10),65,79,82,46,70,35,,,,34,40,19,17,0.9,1.1
2025-10-26T0100,1770A,121.1178,41.1222,锦州市,天安街道,颗粒物(PM10),56,61,95,24,82,61,,,,13,45,17,14,0.8,1.6
2025-10-26T0100,1771A,121.1303,41.1386,锦州市,北湖公园,,40,40,84,20,75,48,,,,20,40,15,12,0.5,1
2025-10-26T0100,2160A,112.85,35.5051,晋城市,自来水公司,细颗粒物(PM2.5),58,60,43,41,23,37,,,,22,23,4,5,0.8,0.5
2025-10-26T0100,2161A,112.8318,35.4936,晋城市,白云商贸,,39,38,50,27,11,51,,,,12,22,2,2,1.0,0.3
2025-10-26T0100,2162A,112.8508,35.4887,晋城市,市环保局,颗粒物(PM10),61,72,42,31,19,34,,,,18,14,3,3,1.0,0.7
2025-10-26T0100,2163A,112.8676,35.4897,晋城市,技术学院,颗粒物(PM10),59,68,39,29,19,14,,,,35,26,3,4,1.1,0.9
2025-10-26T0100,3620A,112.8271,35.4828,晋城市,泽州一中,细颗粒物(PM2.5),58,51,38,41,20,59,,,,9,19,2,2,0.7,0.5
2025-10-26T0100,2173A,112.7249,37.7067,晋中市,南都小区,细颗粒物(PM2.5),89,123,107,66,66,6,,,,59,37,14,13,1.3,1.2
2025-10-26T0100,2174A,112.6991,37.6982,晋中市,榆次区政府,细颗粒物(PM2.5),108,105,107,81,82,7,,,,56,40,11,11,1.6,1.4
2025-10-26T0100,2865A,112.7195,37.6828,晋中市,榆次三中,颗粒物(PM10),80,110,110,58,65,6,,,,49,37,14,16,1.2,1.1
2025-10-26T0100,4200A,112.7478,37.6954,晋中市,迎宾街26号,细颗粒物(PM2.5),94,107,106,70,69,3,,,,44,35,9,12,0.7,0.8
2025-10-26T0100,2439A,112.2014,31.0481,荆门市,竹园小学,细颗粒物(PM2.5),92,88,94,68,79,34,,,,22,19,1,1,0.7,0.6
2025-10-26T0100,2440A,112.1969,30.9891,荆门市,掇刀,细颗粒物(PM2.5),93,85,96,69,82,54,,,,22,13,1,1,0.3,0.5
2025-10-26T0100,2441A,112.2213,31.0386,荆门市,石化一小,细颗粒物(PM2.5),98,106,99,73,73,37,,,,18,15,3,4,0.7,0.6
2025-10-26T0100,3012A,112.1849,31.0362,荆门市,西山林语,细颗粒物(PM2.5),74,68,94,54,77,38,,,,13,15,3,4,0.5,0.6
2025-10-26T0100,3547A,112.1632,31.0138,荆门市,龙泉中学南校,细颗粒物(PM2.5),62,,102,44,71,50,,,,18,16,4,5,0.4,0.5
2025-10-26T0100,1844A,112.2494,30.3197,荆州市,市图书馆,细颗粒物(PM2.5),69,57,65,50,62,52,,,,22,23,6,7,0.6,0.6
2025-10-26T0100,1845A,112.2008,30.3544,荆州市,市委党校,颗粒物(PM10),62,73,78,40,56,38,,,,22,23,7,8,0.8,0.7
2025-10-26T0100,3194A,112.2747,30.3122,荆州市,管委会,细颗粒物(PM2.5),67,62,71,48,52,46,,,,19,17,8,9,0.6,0.6
2025-10-26T0100,4268A,112.1722,30.3366,荆州市,学苑路85号,细颗粒物(PM2.5),89,67,84,66,73,34,,,,12,13,5,6,0.6,0.6
2025-10-26T0100,2343A,117.2117,29.2933,景德镇市,老干部活动中心,细颗粒物(PM2.5),60,67,35,43,23,70,,,,13,11,4,4,0.6,0.7
2025-10-26T0100,2344A,117.1894,29.2789,景德镇市,兽医站,颗粒物(PM10),62,74,46,38,18,45,,,,38,16,9,7,0.7,0.7
2025-10-26T0100,2346A,117.2461,29.2956,景德镇市,陶研所,细颗粒物(PM2.5),55,44,31,39,28,62,,,,16,7,7,7,1.0,0.7
2025-10-26T0100,4289A,117.1542,29.2566,景德镇市,青少年活动中心,颗粒物(PM10),53,56,41,34,25,40,,,,44,13,12,6,0.7,0.4
2025-10-26T0100,1803A,115.9872,29.6815,九江市,十里,细颗粒物(PM2.5),60,55,64,43,42,65,,,,21,21,6,7,0.8,0.8
2025-10-26T0100,1804A,115.9584,29.7046,九江市,茅山头,细颗粒物(PM2.5),59,57,63,42,45,47,,,,21,19,6,6,0.7,0.7
2025-10-26T0100,1805A,115.9877,29.7295,九江市,西园,细颗粒物(PM2.5),58,58,60,41,40,51,,,,34,30,11,8,0.7,0.6
2025-10-26T0100,1808A,115.9114,29.6038,九江市,综合工业园,,40,36,58,28,42,79,,,,19,31,3,5,0.4,0.5
2025-10-26T0100,1809A,116.0721,29.7535,九江市,石化总厂,细颗粒物(PM2.5),75,94,80,55,51,41,,,,30,29,4,5,0.6,0.6
2025-10-26T0100,3190A,116.0254,29.6994,九江市,外国语学校,细颗粒物(PM2.5),72,65,62,52,44,52,,,,25,26,3,5,0.7,0.7
2025-10-26T0100,4253A,116.0102,29.6594,九江市,莲花大道8号,细颗粒物(PM2.5),53,53,62,37,69,59,,,,18,18,7,8,0.5,0.5
2025-10-26T0100,4240A,98.4958,39.7339,酒泉市,玉门东路5号,颗粒物(PM10),76,102,100,50,38,39,,,,28,28,8,13,0.6,0.7
2025-10-26T0100,4241A,98.5099,39.7506,酒泉市,北大街108号,颗粒物(PM10),68,85,89,43,35,34,,,,24,24,7,10,0.6,0.6
2025-10-26T0100,2698A,76.0072,39.4467,喀什地区,巡警大队,颗粒物(PM10),310,428,245,166,96,2,,,,73,48,12,7,2.5,1
2025-10-26T0100,2699A,75.9755,39.4694,喀什地区,吾办,颗粒物(PM10),195,340,219,126,84,2,,,,75,46,10,10,1.6,1.1
2025-10-26T0100,4027A,75.9483,39.4689,喀什地区,老干局,颗粒物(PM10),285,409,225,124,66,3,,,,77,44,5,3,2.8,1
2025-10-26T0100,1824A,114.3389,34.7781,开封市,肿瘤医院,细颗粒物(PM2.5),90,,43,67,49,29,,,,26,22,7,8,0.9,0.8
2025-10-26T0100,1826A,114.2885,34.7965,开封市,世纪星幼儿园,细颗粒物(PM2.5),87,,46,64,48,33,,,,25,22,6,7,0.7,0.6
2025-10-26T0100,3147A,114.3438,34.8106,开封市,龙亭公园,细颗粒物(PM2.5),100,,42,75,50,32,,,,25,19,8,8,0.8,0.7
2025-10-26T0100,3210A,114.3644,34.7964,开封市,汴京公园,细颗粒物(PM2.5),94,,50,70,51,33,,,,28,23,8,8,0.6,0.6
2025-10-26T0100,3473A,114.2485,34.8306,开封市,技师学院,细颗粒物(PM2.5),112,,41,84,58,37,,,,24,20,9,8,0.9,0.8
2025-10-26T0100,3592A,114.4644,34.7556,开封市,祥符区生态环境局,细颗粒物(PM2.5),65,56,52,47,43,34,,,,27,22,5,5,0.8,0.7
2025-10-26T0100,1951A,84.895,45.6094,克拉玛依市,长征新村,,44,44,58,13,18,64,,,,14,24,3,3,0.2,0.4
2025-10-26T0100,1952A,84.8988,45.5893,克拉玛依市,南林小区,颗粒物(PM10),53,56,59,15,17,39,,,,22,23,4,5,0.5,0.6
2025-10-26T0100,1954A,84.905,44.3396,克拉玛依市,独山子区,颗粒物(PM10),81,111,153,42,62,77,,,,42,45,8,11,0.5,0.6
2025-10-26T0100,1955A,85.6979,46.098,克拉玛依市,乌尔禾区商贸楼,,47,47,44,3,9,46,,,,24,24,5,5,0.2,0.2
2025-10-26T0100,3612A,85.1045,45.6899,克拉玛依市,白碱滩区新站,颗粒物(PM10),70,89,75,18,18,78,,,,4,13,5,6,0.3,0.4
2025-10-26T0100,2697A,76.1454,39.7142,克孜勒苏柯尔克孜自治州,市人民政府,颗粒物(PM10),118,185,168,82,66,50,,,,20,16,15,8,0.2,0.2
2025-10-26T0100,3665A,76.1658,39.7157,克孜勒苏柯尔克孜自治州,克州文化中心,颗粒物(PM10),105,160,175,66,63,46,,,,31,19,22,9,0.3,0.4
2025-10-26T0100,1450A,102.8204,24.8886,昆明市,呈贡新区,细颗粒物(PM2.5),60,,29,43,34,26,,,,20,22,2,3,0.6,0.7
2025-10-26T0100,1452A,102.7252,25.0902,昆明市,龙泉镇,,26,25,31,18,19,38,,,,11,19,3,3,0.6,0.7
2025-10-26T0100,1453A,102.7266,25.0375,昆明市,东风东路,,34,34,33,22,23,39,,,,12,16,2,2,0.4,0.5
2025-10-26T0100,1454A,102.6742,25.0669,昆明市,金鼎山,,30,22,36,21,20,42,,,,6,16,2,2,0.4,0.4
2025-10-26T0100,1455A,102.6644,25.0401,昆明市,碧鸡广场,,38,38,36,16,22,36,,,,10,21,8,9,0.4,0.5
2025-10-26T0100,3179A,102.7494,25.0119,昆明市,官渡区博物馆,,28,28,29,17,18,33,,,,16,18,2,3,0.5,0.4
2025-10-26T0100,3375A,102.8017,24.8336,昆明市,青年创业园,,26,24,26,18,20,33,,,,10,9,1,2,0.6,0.6
2025-10-26T0100,3550A,102.7997,24.9786,昆明市,昆明学院,,33,33,33,22,22,14,,,,32,19,7,8,0.6,0.6
2025-10-26T0100,3551A,102.5967,24.6736,昆明市,晋宁区生态环境分局,,35,35,35,22,22,29,,,,18,14,2,2,0.4,0.4
2025-10-26T0100,3552A,102.6678,24.9856,昆明市,云天化总部,,31,31,27,21,19,41,,,,9,12,5,5,0.5,0.5
2025-10-26T0100,1456A,91.1319,29.6514,拉萨市,八廓街,,31,31,16,17,9,13,,,,59,16,6,5,0.5,0.2
2025-10-26T0100,1457A,91.1221,29.6747,拉萨市,市环保局,,27,27,18,16,9,56,,,,17,15,8,8,0.4,0.3
2025-10-26T0100,1458A,91.0874,29.6475,拉萨市,区监测站,,21,21,12,12,8,67,,,,26,24,4,4,0.4,0.4
2025-10-26T0100,1459A,91.1774,29.6541,拉萨市,西藏大学,,28,28,15,14,8,38,,,,47,19,7,6,0.7,0.5
2025-10-26T0100,1460A,90.9798,29.6588,拉萨市,区辐射站,,34,34,29,10,11,79,,,,7,29,4,6,0.2,0.4
2025-10-26T0100,1461A,91.0834,29.6292,拉萨市,拉萨火车站,,26,18,17,10,8,81,,,,13,14,6,5,0.3,0.3
2025-10-26T0100,2520A,109.2203,23.7256,来宾市,来宾技工学校,,45,32,44,31,32,71,,,,6,10,9,12,0.6,0.7
2025-10-26T0100,3535A,109.1781,23.7297,来宾市,兴宾区政府,,43,41,45,30,29,76,,,,6,10,9,11,0.5,0.6
2025-10-26T0100,4002A,109.2416,23.7461,来宾市,中南小学,,49,34,45,34,31,65,,,,8,12,8,10,0.6,0.8
2025-10-26T0100,3241A,103.7439,36.0842,兰州市,百合公园,,25,20,39,10,29,79,,,,5,18,3,4,0,0.6
2025-10-26T0100,3242A,103.9611,35.998,兰州市,和平,,29,15,37,9,24,91,,,,6,14,2,3,0.3,0.5
2025-10-26T0100,4236A,103.6293,36.0938,兰州市,庄浪东路808号,,40,31,48,28,37,78,,,,17,34,6,7,0.3,0.5
2025-10-26T0100,4237A,103.7251,36.1043,兰州市,安宁西路88号,,48,34,52,33,43,96,,,,3,19,3,2,0.3,0.4
2025-10-26T0100,4238A,103.8470,36.0676,兰州市,北滨河东路1号,,43,30,46,30,35,94,,,,11,34,6,6,0.4,0.6
2025-10-26T0100,3245A,103.6633,36.533,兰州新区,新区管委会,,35,35,45,12,33,89,,,,8,11,5,6,0.3,0.4
2025-10-26T0100,3246A,103.6975,36.4789,兰州新区,舟曲中学,,28,21,42,13,27,89,,,,10,14,4,5,0.3,0.4
2025-10-26T0100,1067A,116.6708,39.5111,廊坊市,药材公司,细颗粒物(PM2.5),192,182,152,144,127,1,,,,58,47,3,4,0.9,0.9
2025-10-26T0100,1068A,116.7214,39.5589,廊坊市,开发区,细颗粒物(PM2.5),160,150,143,122,116,4,,,,48,40,1,3,0.8,0.7
2025-10-26T0100,1070A,116.7244,39.5269,廊坊市,北华航天学院,细颗粒物(PM2.5),180,179,164,136,119,2,,,,50,42,3,5,0.8,0.8
2025-10-26T0100,2919A,116.7022,39.5453,廊坊市,河北工业大学,细颗粒物(PM2.5),186,181,154,140,121,17,,,,48,36,4,5,0.9,0.8
2025-10-26T0100,2536A,103.7627,29.5844,乐山市,牛耳桥,,28,24,21,19,18,0,,,,36,23,7,6,0.7,0.5
2025-10-26T0100,2537A,103.7508,29.6006,乐山市,市第三水厂,,32,28,20,22,15,4,,,,38,22,6,5,0.7,0.6
2025-10-26T0100,2538A,103.7571,29.5664,乐山市,市监测站,,26,26,21,18,14,5,,,,34,18,5,5,0.8,0.6
2025-10-26T0100,3361A,103.7311,29.5628,乐山市,理工大学,,29,25,19,20,14,1,,,,35,21,7,7,0.7,0.6
2025-10-26T0100,2599A,100.2497,26.8802,丽江市,丽江古城,,16,16,18,3,10,32,,,,13,12,14,9,0.5,0.6
2025-10-26T0100,2600A,100.2203,26.8906,丽江市,市中心,,13,,11,7,10,41,,,,11,11,11,11,0.5,0.5
2025-10-26T0100,1267A,119.914,28.4514,丽水市,监测站大楼,,43,43,40,23,23,41,,,,31,24,9,7,0.5,0.4
2025-10-26T0100,1268A,119.93,28.4586,丽水市,莲都小学,颗粒物(PM10),57,63,46,29,22,37,,,,40,26,4,5,0.5,0.4
2025-10-26T0100,1269A,119.879,28.4231,丽水市,余庄前,,38,36,36,26,25,14,,,,20,18,3,4,0.4,0.4
2025-10-26T0100,1173A,119.176,34.5885,连云港市,市环境监测站,,49,44,74,34,49,64,,,,19,51,8,15,0.5,1.2
2025-10-26T0100,3000A,119.3581,34.6972,连云港市,德源药业,,42,29,68,29,40,55,,,,25,65,5,10,0.4,1
2025-10-26T0100,3007A,119.178,34.844,连云港市,新城一中,细颗粒物(PM2.5),95,86,77,71,60,54,,,,30,47,6,13,0.8,0.9
2025-10-26T0100,3008A,119.3608,34.7519,连云港市,胡沟管理处,细颗粒物(PM2.5),55,,50,39,38,30,,,,44,46,9,26,0.6,1.9
2025-10-26T0100,3009A,119.1478,34.5911,连云港市,矿山设计院,细颗粒物(PM2.5),55,41,80,39,51,56,,,,14,38,4,7,0.6,1
2025-10-26T0100,3434A,119.2413,34.6539,连云港市,工贸学校,细颗粒物(PM2.5),52,51,63,36,36,78,,,,14,30,8,16,0.7,1.5
2025-10-26T0100,3664A,119.4172,34.7341,连云港市,连云街道,,35,34,60,24,33,90,,,,11,37,2,8,0.4,1
2025-10-26T0100,2572A,102.2721,27.8415,凉山彝族自治州,邛海宾馆,,19,18,22,13,12,34,,,,12,11,11,13,0.6,0.7
2025-10-26T0100,2573A,102.2625,27.898,凉山彝族自治州,西昌市政府,,17,17,24,9,16,46,,,,5,15,5,8,0.5,0.6
2025-10-26T0100,2574A,102.2685,27.8851,凉山彝族自治州,凉山州政府,,20,16,21,14,15,42,,,,6,10,8,9,0.7,0.7
2025-10-26T0100,4229A,102.2342,27.8859,凉山彝族自治州,凯乐南路30号,,18,18,22,8,12,28,,,,16,15,7,7,0.6,0.6
2025-10-26T0100,2212A,123.2,41.1953,辽阳市,宏伟区,细颗粒物(PM2.5),123,100,92,93,69,19,,,,20,26,5,8,1.2,1.1
2025-10-26T0100,2213A,123.1683,41.2495,辽阳市,新华园,细颗粒物(PM2.5),129,127,105,98,76,15,,,,40,41,5,8,1.2,1.2
2025-10-26T0100,2214A,123.2354,41.2639,辽阳市,滨河路,细颗粒物(PM2.5),137,139,114,104,75,15,,,,36,32,6,9,1.2,1.2
2025-10-26T0100,2215A,123.149,41.2991,辽阳市,铁西工业园,细颗粒物(PM2.5),132,129,110,100,81,0,,,,47,42,5,11,2.1,1.6
2025-10-26T0100,2227A,125.1358,42.8845,辽源市,环保局,细颗粒物(PM2.5),234,264,162,184,96,6,,,,55,45,5,6,1.7,1.1
2025-10-26T0100,3239A,125.0764,42.9078,辽源市,银鹰制药,细颗粒物(PM2.5),222,212,125,172,102,7,,,,56,42,8,7,1.6,1
2025-10-26T0100,1625A,115.9848,36.4372,聊城市,区政府,细颗粒物(PM2.5),69,74,85,50,57,52,,,,19,32,8,9,0.6,0.6
2025-10-26T0100,2878A,116.0072,36.4343,聊城市,聊大东校,细颗粒物(PM2.5),67,70,89,48,62,53,,,,19,34,6,8,0.6,0.6
2025-10-26T0100,3200A,115.9819,36.4978,聊城市,监控中心,细颗粒物(PM2.5),73,62,78,53,60,59,,,,18,32,9,9,0.7,0.7
2025-10-26T0100,3513A,116.0445,36.4361,聊城市,九州社区,细颗粒物(PM2.5),67,70,86,48,53,47,,,,18,30,1,2,0.5,0.5
2025-10-26T0100,4018A,116.0567,36.4608,聊城市,星美广场,细颗粒物(PM2.5),62,71,86,44,49,56,,,,14,26,3,5,0.6,0.6
2025-10-26T0100,2632A,94.3681,29.6376,林芝市,林芝监测站,,24,8,8,3,4,76,,,,1,3,2,3,0.3,0.3
2025-10-26T0100,2633A,94.3616,29.6616,林芝市,林芝人民医院,,24,10,10,3,5,74,,,,1,3,5,4,0.2,0.2
2025-10-26T0100,2603A,100.0781,23.8982,临沧市,市环保局,,50,,18,35,23,18,,,,6,6,3,5,0.7,0.6
2025-10-26T0100,2604A,100.0894,23.8822,临沧市,市气象局,,28,22,18,19,16,15,,,,10,8,5,6,0.6,0.5
2025-10-26T0100,1733A,111.5531,36.0783,临汾市,临钢医院,细颗粒物(PM2.5),78,76,57,57,46,35,,,,18,18,8,7,1.1,1
2025-10-26T0100,1734A,111.5028,36.0714,临汾市,技工学校,细颗粒物(PM2.5),77,88,64,56,50,24,,,,30,21,12,8,1.0,1
2025-10-26T0100,1736A,111.5018,36.0855,临汾市,市委,细颗粒物(PM2.5),82,86,71,60,51,29,,,,27,20,12,7,0.9,0.8
2025-10-26T0100,3018A,111.505,36.1014,临汾市,唐尧大酒店,细颗粒物(PM2.5),84,77,71,62,50,30,,,,22,17,8,5,1.1,1
2025-10-26T0100,4244A,111.4879,36.0530,临汾市,启星学校,细颗粒物(PM2.5),82,71,57,60,47,26,,,,32,25,8,7,0.9,0.9
2025-10-26T0100,4271A,103.2464,35.6123,临夏回族自治州,滨河东路1号,颗粒物(PM10),79,107,61,31,37,31,,,,21,20,6,6,0.4,0.7
2025-10-26T0100,4310A,103.2093,35.5995,临夏回族自治州,新华街21号,细颗粒物(PM2.5),62,54,52,44,35,61,,,,9,14,6,7,0.3,0.5
2025-10-26T0100,1618A,118.3429,35.0532,临沂市,沂河小区,细颗粒物(PM2.5),104,83,95,78,76,52,,,,30,52,9,10,0.6,0.7
2025-10-26T0100,1619A,118.295,35.0583,临沂市,鲁南制药厂,细颗粒物(PM2.5),87,78,99,64,71,49,,,,32,61,11,12,0.8,0.9
2025-10-26T0100,1620A,118.2794,34.9976,临沂市,新光毛纺厂,细颗粒物(PM2.5),93,80,102,69,71,47,,,,36,64,9,11,0.6,0.7
2025-10-26T0100,1621A,118.3956,35.0888,临沂市,河东保险公司,细颗粒物(PM2.5),68,61,85,49,56,55,,,,21,45,6,8,0.8,0.8
2025-10-26T0100,3370A,118.3564,35.0215,临沂市,十里堡居委,细颗粒物(PM2.5),77,68,89,56,56,52,,,,33,55,11,11,0.7,0.8
2025-10-26T0100,3496A,118.3604,35.1084,临沂市,南坊新区,细颗粒物(PM2.5),77,58,82,56,57,61,,,,28,51,10,11,0.9,0.8
2025-10-26T0100,3860A,118.3920,35.0300,临沂市,皇山花园小区,细颗粒物(PM2.5),74,75,91,54,55,58,,,,24,47,11,11,0.8,0.8
2025-10-26T0100,1870A,109.4856,24.3895,柳州市,柳东小学,,43,38,39,30,28,82,,,,6,8,4,7,0.5,0.5
2025-10-26T0100,1871A,109.4157,24.3277,柳州市,环保监测站,,40,40,44,21,23,69,,,,12,10,10,10,0.7,0.5
2025-10-26T0100,1872A,109.389,24.341,柳州市,河西水厂,颗粒物(PM10),52,53,50,33,30,69,,,,15,14,11,9,1.0,0.5
2025-10-26T0100,1873A,109.4311,24.2921,柳州市,市四中,,42,36,41,29,25,71,,,,11,12,9,10,0.5,0.5
2025-10-26T0100,1874A,109.4006,24.3631,柳州市,市九中,,45,44,48,31,31,77,,,,12,15,4,6,0.6,0.5
2025-10-26T0100,1875A,109.4958,24.3134,柳州市,古亭山,,43,39,42,30,27,77,,,,4,7,6,8,0.5,0.5
2025-10-26T0100,3402A,109.5422,24.3996,柳州市,市二中,,46,32,39,32,27,77,,,,8,12,6,9,0.4,0.4
2025-10-26T0100,2307A,116.5079,31.737,六安市,监测大楼,细颗粒物(PM2.5),68,,46,49,35,47,,,,18,23,3,4,0.4,0.4
2025-10-26T0100,2308A,116.4738,31.7643,六安市,皖西学院,细颗粒物(PM2.5),62,47,54,44,37,39,,,,15,19,2,3,0.4,0.4
2025-10-26T0100,2309A,116.4996,31.7905,六安市,朝阳厂,细颗粒物(PM2.5),57,,47,40,35,32,,,,21,27,4,5,0.3,0.4
2025-10-26T0100,2310A,116.5567,31.7886,六安市,开发区,细颗粒物(PM2.5),63,63,61,45,34,31,,,,19,23,1,2,0.4,0.4
2025-10-26T0100,2577A,104.83,26.5917,六盘水市,黄土坡,,15,13,15,9,11,46,,,,6,10,4,4,0.6,0.7
2025-10-26T0100,2578A,104.89,26.5939,六盘水市,水钢,,18,18,20,12,10,48,,,,5,7,5,5,0.5,0.6
2025-10-26T0100,2579A,104.8475,26.5894,六盘水市,民中,,13,13,16,3,9,39,,,,6,9,2,2,0.5,0.5
2025-10-26T0100,2580A,104.9544,26.5506,六盘水市,双水,,17,17,14,11,10,38,,,,7,7,2,2,0.4,0.4
2025-10-26T0100,2336A,117.0217,25.1033,龙岩市,龙岩市监测站,,23,20,29,16,18,73,,,,11,11,12,12,0.3,0.5
2025-10-26T0100,2337A,117.0258,25.0661,龙岩市,闽西职业技术学院,,25,23,25,15,15,78,,,,6,8,9,10,0.5,0.6
2025-10-26T0100,2338A,117.0196,25.0306,龙岩市,龙岩学院,,24,22,25,16,17,75,,,,6,12,12,14,0.4,0.5
2025-10-26T0100,2885A,104.9339,33.3826,陇南市,滨江中学,,28,26,33,19,16,44,,,,1,8,6,6,0.5,0.6
2025-10-26T0100,3247A,104.955,33.371,陇南市,市总工会,,29,29,31,13,13,44,,,,3,9,6,7,0.4,0.5
2025-10-26T0100,2488A,111.9975,27.725,娄底市,市监测站,细颗粒物(PM2.5),53,42,60,37,34,85,,,,12,14,6,10,0.5,0.4
2025-10-26T0100,2489A,112.0194,27.7314,娄底市,市委党校,细颗粒物(PM2.5),63,,56,45,38,77,,,,14,13,3,2,0.5,0.5
2025-10-26T0100,2490A,111.9561,27.7569,娄底市,涟钢,细颗粒物(PM2.5),77,64,67,56,44,58,,,,29,21,8,9,1.2,1.1
2025-10-26T0100,2491A,111.9892,27.7044,娄底市,市政府,细颗粒物(PM2.5),62,,56,44,44,84,,,,11,12,7,8,0.7,0.6
2025-10-26T0100,1894A,105.4427,28.9063,泸州市,小市上码头,,37,37,32,23,25,28,,,,16,16,8,8,0.8,0.8
2025-10-26T0100,1895A,105.4241,28.8573,泸州市,兰田宪桥,,33,33,32,21,25,8,,,,11,14,6,5,0.5,0.5
2025-10-26T0100,1896A,105.4379,28.8833,泸州市,市环监站,,36,35,32,25,24,23,,,,17,22,8,8,0.5,0.5
2025-10-26T0100,4272A,105.3689,28.7783,泸州市,纳溪中医医院,,38,30,34,26,26,3,,,,21,18,6,6,0.7,0.6
2025-10-26T0100,2183A,111.1406,37.5211,吕梁市,环保局,细颗粒物(PM2.5),70,61,75,51,34,4,,,,47,41,6,3,0.4,0.6
2025-10-26T0100,2185A,111.1297,37.5136,吕梁市,自来水公司,颗粒物(PM10),52,54,69,25,31,12,,,,36,35,16,4,0.5,0.6
2025-10-26T0100,2867A,111.1283,37.51,吕梁市,马茂庄小学,颗粒物(PM10),55,59,86,24,33,12,,,,37,40,14,5,0.6,0.7
2025-10-26T0100,1812A,112.3931,34.6516,洛阳市,市委党校,细颗粒物(PM2.5),64,50,38,46,36,26,,,,26,22,6,6,0.6,0.5
2025-10-26T0100,1815A,112.494,34.6886,洛阳市,河南林校,细颗粒物(PM2.5),67,51,42,48,39,24,,,,24,21,6,6,0.5,0.5
2025-10-26T0100,1816A,112.3844,34.623,洛阳市,开发区管委会,细颗粒物(PM2.5),64,48,41,46,37,21,,,,23,20,5,5,0.6,0.6
2025-10-26T0100,1817A,112.4267,34.6258,洛阳市,市委新办公区,细颗粒物(PM2.5),57,49,46,40,33,26,,,,21,18,6,6,0.7,0.6
2025-10-26T0100,3340A,112.6005,34.6326,洛阳市,伊滨,细颗粒物(PM2.5),83,,47,61,67,27,,,,33,28,4,4,0.5,0.4
2025-10-26T0100,3341A,112.4951,34.6332,洛阳市,中移产业园,细颗粒物(PM2.5),62,51,45,44,41,28,,,,24,24,4,6,1.0,0.5
2025-10-26T0100,3593A,112.5736,34.8993,洛阳市,吉利监测站,,39,35,37,27,37,4,,,,31,22,6,7,0.6,0.5
2025-10-26T0100,3635A,112.3677,34.662,洛阳市,河科大西苑校区,细颗粒物(PM2.5),64,52,37,46,34,47,,,,21,21,6,6,0.8,0.7
2025-10-26T0100,3636A,112.4388,34.6781,洛阳市,英才小学,细颗粒物(PM2.5),60,66,57,43,30,23,,,,28,23,5,5,0.6,0.6
2025-10-26T0100,4214A,112.4600,34.6949,洛阳市,春都路1号院,细颗粒物(PM2.5),58,56,36,41,29,14,,,,36,24,7,6,0.7,0.6
2025-10-26T0100,2399A,114.051,33.5699,漯河市,三五一五工厂,细颗粒物(PM2.5),79,61,94,58,74,35,,,,21,20,6,6,0.6,0.7
2025-10-26T0100,2400A,114.0055,33.5698,漯河市,漯河大学,细颗粒物(PM2.5),64,70,88,46,78,38,,,,15,21,5,5,0.6,0.6
2025-10-26T0100,2401A,114.0138,33.5828,漯河市,市水利局,细颗粒物(PM2.5),83,63,91,61,81,43,,,,14,22,6,6,0.7,0.7
2025-10-26T0100,2402A,114.0261,33.5698,漯河市,市广电局,细颗粒物(PM2.5),120,,93,91,105,40,,,,15,18,5,5,0.3,0.6
2025-10-26T0100,3478A,113.9749,33.5664,漯河市,市图书馆,细颗粒物(PM2.5),72,78,103,52,80,35,,,,14,20,4,4,0.6,0.6
2025-10-26T0100,4250A,114.0892,33.5882,漯河市,韶山路11号,细颗粒物(PM2.5),75,71,92,55,77,35,,,,19,25,6,6,0.5,0.6
2025-10-26T0100,1798A,118.5092,31.6837,马鞍山市,湖东路四小,细颗粒物(PM2.5),57,46,38,40,21,24,,,,36,25,7,6,0.9,0.5
2025-10-26T0100,1799A,118.5024,31.6449,马鞍山市,开发区,细颗粒物(PM2.5),59,,36,42,22,26,,,,34,20,7,6,0.9,0.6
2025-10-26T0100,3633A,118.4918,31.6809,马鞍山市,雨山,细颗粒物(PM2.5),62,44,39,44,23,25,,,,39,26,9,8,1.2,0.7
2025-10-26T0100,4191A,118.5274,31.72227,马鞍山市,慈湖高新区,颗粒物(PM10),66,82,45,41,23,17,,,,40,25,4,4,0.9,0.5
2025-10-26T0100,1686A,111.0286,21.4688,茂名市,电白南海,,36,36,42,24,24,63,,,,12,11,15,10,0.2,0.2
2025-10-26T0100,1687A,110.9294,21.6533,茂名市,茂石化七小,,44,44,52,29,32,47,,,,18,18,24,22,0.4,0.4
2025-10-26T0100,1688A,110.9107,21.6687,茂名市,健康路,,41,41,47,24,30,48,,,,19,17,31,24,1.0,1
2025-10-26T0100,1689A,110.8592,21.6828,茂名市,高岭,,,51,60,27,27,44,,,,18,17,,19,0.8,0.9
2025-10-26T0100,3450A,111.01,21.5165,茂名市,电白水东,,32,29,33,22,20,65,,,,12,13,16,12,0.6,0.6
2025-10-26T0100,2540A,103.8416,30.0874,眉山市,气象局,,42,42,26,17,9,34,,,,21,19,8,8,0.4,0.4
2025-10-26T0100,3137A,103.8578,30.0744,眉山市,市委党校,,31,31,13,17,6,20,,,,28,16,9,5,0.7,0.5
2025-10-26T0100,3148A,103.8291,30.0564,眉山市,区人社局,,49,49,27,22,7,32,,,,13,16,8,5,0.8,0.6
2025-10-26T0100,1690A,116.1231,24.3284,梅州市,梅江月梅,细颗粒物(PM2.5),54,,33,38,24,72,,,,13,16,6,7,0.4,0.4
2025-10-26T0100,1691A,116.0797,24.2719,梅州市,梅县新城,,25,22,31,16,22,80,,,,10,14,8,8,0.4,0.5
2025-10-26T0100,1692A,116.1248,24.2654,梅州市,环境监控中心,,33,30,30,23,22,75,,,,12,16,5,6,0.5,0.5
2025-10-26T0100,3315A,116.1233,24.2991,梅州市,梅龙,,29,29,30,17,20,62,,,,12,14,7,7,0.6,0.6
2025-10-26T0100,1878A,104.7778,31.4741,绵阳市,富乐山,,19,19,12,9,8,17,,,,13,10,7,7,0.5,0.5
2025-10-26T0100,1880A,104.6697,31.4668,绵阳市,高新区自来水公司,颗粒物(PM10),51,51,19,27,13,2,,,,32,20,8,7,0.7,0.6
2025-10-26T0100,1881A,104.7287,31.5075,绵阳市,三水厂,,30,30,18,20,13,1,,,,31,20,6,6,0.5,0.4
2025-10-26T0100,3491A,104.69,31.5322,绵阳市,西科大附属小学,,29,29,19,14,10,2,,,,32,21,10,10,0.6,0.3
2025-10-26T0100,3492A,104.5648,31.5343,绵阳市,安州区旅游局,,25,24,17,17,12,2,,,,29,17,8,7,0.7,0.6
2025-10-26T0100,4226A,104.7651,31.4531,绵阳市,绵阳市气象局,,23,23,14,13,9,15,,,,20,13,8,7,0.4,0.4
2025-10-26T0100,1784A,129.61,44.561,牡丹江市,环保大楼,细颗粒物(PM2.5),82,86,80,60,48,9,,,,52,43,5,7,0.7,0.6
2025-10-26T0100,1785A,129.6115,44.5782,牡丹江市,文化广场,细颗粒物(PM2.5),88,95,90,65,57,5,,,,59,51,8,9,0.9,0.8
2025-10-26T0100,1786A,129.5904,44.5963,牡丹江市,第一医院,细颗粒物(PM2.5),67,81,87,48,61,29,,,,38,37,7,6,0.6,0.8
2025-10-26T0100,1787A,129.6364,44.6075,牡丹江市,机车工厂,细颗粒物(PM2.5),74,77,92,54,50,12,,,,47,38,4,6,0.7,0.6
2025-10-26T0100,1788A,129.6386,44.5462,牡丹江市,第一中学,颗粒物(PM10),57,64,64,33,43,7,,,,54,39,3,4,0.5,0.4
2025-10-26T0100,2531A,105.0703,29.61,内江市,市监测站,,40,40,30,27,20,8,,,,26,16,6,4,0.7,0.6
2025-10-26T0100,2532A,105.0717,29.5947,内江市,东兴区政府,,24,24,19,12,13,22,,,,17,15,9,9,0.2,0.2
2025-10-26T0100,2533A,105.0653,29.5817,内江市,内江二中,,45,39,22,31,18,8,,,,32,15,1,1,0.6,0.5
2025-10-26T0100,2534A,105.0406,29.5822,内江市,内江日报社,,37,37,27,18,15,3,,,,48,21,5,4,0.5,0.4
2025-10-26T0100,2628A,92.0657,31.4846,那曲市,那曲监测站,,43,42,33,30,18,56,,,,22,20,8,9,1.1,0.7
2025-10-26T0100,4243A,92.0515,31.4787,那曲市,那曲市委宣传部,,23,8,16,3,7,71,,,,3,10,6,6,0.3,0.5
2025-10-26T0100,1290A,115.8931,28.6843,南昌市,省外办,细颗粒物(PM2.5),67,62,63,48,45,64,,,,17,18,7,6,0.7,0.6
2025-10-26T0100,1291A,115.8886,28.7003,南昌市,省林业公司,细颗粒物(PM2.5),62,63,58,44,41,65,,,,24,21,5,5,0.8,0.8
2025-10-26T0100,1292A,115.8126,28.7442,南昌市,林科所,"颗粒物(PM10),细颗粒物(PM2.5)",64,78,51,46,33,68,,,,24,17,8,7,0.8,0.6
2025-10-26T0100,1294A,115.8518,28.687,南昌市,建工学校,细颗粒物(PM2.5),73,79,67,53,39,65,,,,25,20,14,12,0.5,0.4
2025-10-26T0100,1295A,115.8921,28.6424,南昌市,象湖,细颗粒物(PM2.5),58,64,64,41,40,72,,,,18,17,10,10,0.6,0.6
2025-10-26T0100,3046A,115.9084,28.6062,南昌市,机电学校,颗粒物(PM10),64,77,74,44,47,79,,,,18,17,10,9,0.5,0.5
2025-10-26T0100,3690A,115.9721,28.7031,南昌市,外国语学校,细颗粒物(PM2.5),94,75,81,70,59,71,,,,26,27,9,10,0.4,0.5
2025-10-26T0100,4192A,115.9316,28.68677,南昌市,南京东路235号,颗粒物(PM10),71,91,77,50,50,73,,,,26,26,8,8,0.6,0.7
2025-10-26T0100,1906A,106.0789,30.8023,南充市,南充市委,,28,24,17,19,14,1,,,,30,13,4,4,0.5,0.3
2025-10-26T0100,1907A,106.1031,30.8217,南充市,南充炼油厂,,32,29,30,22,16,16,,,,10,8,6,6,0.4,0.4
2025-10-26T0100,4227A,106.1083,30.7884,南充市,梨树横街98号,,31,31,18,12,12,7,,,,25,9,4,4,0.4,0.3
2025-10-26T0100,4304A,106.1172,30.843,南充市,清泉寺北路188号,,29,,16,20,11,18,,,,11,7,6,6,0.4,0.2
2025-10-26T0100,4305A,106.067,30.7616,南充市,同庆路1号,,25,21,15,17,11,15,,,,15,11,6,6,0.4,0.3
2025-10-26T0100,1151A,118.8086,32.1065,南京市,迈皋桥,,49,39,31,34,18,42,,,,13,20,3,4,0.6,0.7
2025-10-26T0100,1152A,118.7538,32.0551,南京市,草场门,,39,39,37,24,19,50,,,,22,30,2,3,0.5,0.4
2025-10-26T0100,1153A,118.7794,32.0745,南京市,山西路,,49,41,41,34,18,52,,,,14,23,5,4,0.7,0.6
2025-10-26T0100,1154A,118.7752,32.0023,南京市,中华门,细颗粒物(PM2.5),52,46,35,36,19,46,,,,21,26,3,4,0.4,0.4
2025-10-26T0100,1155A,118.8109,32.0309,南京市,瑞金路,颗粒物(PM10),51,51,34,31,19,49,,,,14,17,6,6,0.7,0.6
2025-10-26T0100,1156A,118.7997,32.0754,南京市,玄武湖,,46,,34,32,17,43,,,,16,18,4,4,0.5,0.6
2025-10-26T0100,1157A,118.6414,32.0931,南京市,浦口,细颗粒物(PM2.5),65,,40,47,23,37,,,,25,26,6,8,0.5,0.5
2025-10-26T0100,1158A,118.7356,31.9996,南京市,奥体中心,,43,43,38,27,20,65,,,,19,24,4,5,0.5,0.4
2025-10-26T0100,1159A,118.9125,32.1028,南京市,仙林大学城,细颗粒物(PM2.5),62,53,44,44,22,36,,,,29,29,10,8,0.6,0.5
2025-10-26T0100,3422A,118.8436,31.9198,南京市,江宁彩虹桥,,49,43,35,34,18,36,,,,12,10,6,6,0.6,0.5
2025-10-26T0100,3427A,118.8554,32.3578,南京市,六合雄州,"颗粒物(PM10),细颗粒物(PM2.5)",55,60,45,39,21,42,,,,10,14,6,5,0.7,0.5
2025-10-26T0100,4249A,118.8708,31.3402,南京市,汶溪路181号,,38,,36,26,24,62,,,,17,24,6,7,0.6,0.6
2025-10-26T0100,4312A,119.019,31.6512,南京市,中山西路1号,,29,29,36,19,22,46,,,,17,16,3,4,0.6,0.6
2025-10-26T0100,1401A,108.3103,22.7881,南宁市,二十一中,,43,43,42,29,29,64,,,,18,21,7,12,0.6,0.6
2025-10-26T0100,1402A,108.3141,22.8528,南宁市,北湖,颗粒物(PM10),51,52,43,30,24,45,,,,32,20,22,11,0.6,0.6
2025-10-26T0100,1403A,108.3206,22.8225,南宁市,市监测站,颗粒物(PM10),52,53,43,28,26,58,,,,23,23,12,13,0.5,0.5
2025-10-26T0100,1404A,108.3829,22.8037,南宁市,大自然花园,,48,48,44,27,27,72,,,,15,16,8,9,0.5,0.5
2025-10-26T0100,1406A,108.2397,22.8467,南宁市,区农职院,,39,38,39,27,27,48,,,,19,17,6,9,0.5,0.5
2025-10-26T0100,1407A,108.3275,22.735,南宁市,英华嘉园,,45,44,47,31,28,68,,,,15,18,5,6,0.5,0.6
2025-10-26T0100,3401A,108.4834,22.7618,南宁市,红星社区,,43,43,42,30,29,78,,,,12,18,7,9,0.4,0.4
2025-10-26T0100,4221A,108.2177,22.7774,南宁市,乐贤路16号,颗粒物(PM10),60,70,43,31,27,48,,,,22,20,4,6,0.5,0.5
2025-10-26T0100,2332A,118.1681,26.6369,南平市,南平市监测站,,29,27,23,20,16,40,,,,20,10,4,3,0.5,0.4
2025-10-26T0100,2333A,118.1825,26.6489,南平市,南平铝业有限公司,,39,32,27,27,18,39,,,,25,13,4,3,0.6,0.5
2025-10-26T0100,2334A,118.1756,26.6272,南平市,南平七中,,23,20,26,16,31,11,,,,33,12,4,5,0.5,0.6
2025-10-26T0100,1168A,120.9098,31.9663,南通市,狼山街道,,31,25,30,19,17,99,,,,11,13,3,3,0.6,0.5
2025-10-26T0100,1169A,120.86,32.0005,南通市,虹桥,,28,28,28,19,16,89,,,,12,14,4,4,0.8,0.6
2025-10-26T0100,1170A,120.87,32.02,南通市,城中,,40,30,37,28,17,77,,,,16,18,4,5,0.6,0.6
2025-10-26T0100,1171A,120.94,31.93,南通市,星湖花园,,30,27,33,17,17,93,,,,11,15,4,4,0.6,0.6
2025-10-26T0100,1172A,120.81,32.0417,南通市,紫琅学院,,28,28,39,17,18,87,,,,10,19,4,10,0.5,0.5
2025-10-26T0100,3291A,121.067,32.062,南通市,通州监测站,,32,17,25,17,19,101,,,,8,15,3,2,0.5,0.5
2025-10-26T0100,3432A,120.9348,31.9883,南通市,环境教育馆,,29,27,34,14,17,91,,,,14,15,4,4,0.4,0.4
2025-10-26T0100,2404A,112.5224,33.0122,南阳市,瓦房庄,细颗粒物(PM2.5),90,77,92,67,83,42,,,,16,17,8,8,0.7,0.7
2025-10-26T0100,2405A,112.5003,32.9735,南阳市,汉画馆,细颗粒物(PM2.5),80,71,77,59,73,18,,,,35,24,8,8,0.7,0.7
2025-10-26T0100,2406A,112.5573,33.027,南阳市,气象站,细颗粒物(PM2.5),79,81,97,58,78,54,,,,20,21,8,8,0.6,0.6
2025-10-26T0100,2407A,112.5481,32.9689,南阳市,理工学院,细颗粒物(PM2.5),73,86,101,53,70,21,,,,32,20,10,11,0.8,0.8
2025-10-26T0100,4008A,112.5234,32.9922,南阳市,卧龙区政府,"颗粒物(PM10),细颗粒物(PM2.5)",69,87,102,50,48,37,,,,23,20,7,8,0.9,0.9
2025-10-26T0100,1234A,121.8358,29.911,宁波市,区环保大楼,,30,30,38,11,12,86,,,,15,20,6,6,0.3,0.4
2025-10-26T0100,1235A,121.56,29.82,宁波市,万里学院,,34,34,35,22,20,64,,,,31,20,8,8,0.5,0.5
2025-10-26T0100,1236A,121.713,29.9572,宁波市,龙赛医院,,29,27,32,6,10,91,,,,9,14,6,6,0.4,0.5
2025-10-26T0100,1239A,121.633,29.7733,宁波市,钱湖水厂,颗粒物(PM10),59,67,39,32,18,28,,,,47,22,6,6,0.6,0.5
2025-10-26T0100,1240A,121.5856,29.8635,宁波市,太古小学,,32,32,35,14,16,77,,,,21,18,4,4,0.5,0.5
2025-10-26T0100,1241A,121.524,29.8674,宁波市,市环境监测中心,,34,34,35,14,14,58,,,,32,25,6,6,0.5,0.5
2025-10-26T0100,2871A,121.6147,29.9017,宁波市,万里国际学校,,25,25,33,16,16,72,,,,30,19,5,5,0.7,0.6
2025-10-26T0100,3710A,121.5594,29.8975,宁波市,白沙活动中心,,27,27,29,12,13,80,,,,17,14,5,5,0.4,0.5
2025-10-26T0100,2341A,119.5388,26.6612,宁德市,宁德市监测站,,23,20,24,16,16,68,,,,8,14,5,5,0.5,0.5
2025-10-26T0100,3209A,119.5231,26.6562,宁德市,宁德一中,,32,32,29,15,16,65,,,,7,10,5,5,0.4,0.4
2025-10-26T0100,2618A,98.8601,25.8567,怒江傈僳族自治州,州监测站,,19,19,22,13,15,30,,,,6,7,7,8,0.3,0.4
2025-10-26T0100,2619A,98.8546,25.8417,怒江傈僳族自治州,泸水一中,,19,,18,13,13,17,,,,8,11,6,5,0.5,0.6
2025-10-26T0100,1888A,101.6891,26.571,攀枝花市,弄弄坪,,38,38,50,26,33,1,,,,32,23,7,11,0.9,1.2
2025-10-26T0100,1889A,101.5769,26.5928,攀枝花市,河门口,,28,27,39,19,27,23,,,,13,14,11,16,0.9,1.2
2025-10-26T0100,1890A,101.7169,26.585,攀枝花市,炳草岗,颗粒物(PM10),57,63,56,34,35,4,,,,35,28,18,15,1.0,1.2
2025-10-26T0100,1891A,101.7369,26.5008,攀枝花市,仁和,,19,18,44,13,32,11,,,,10,15,6,12,0.6,1.2
2025-10-26T0100,2835A,101.7227,26.567,攀枝花市,四十中小,颗粒物(PM10),51,51,47,30,32,10,,,,32,22,33,24,1.0,1.2
2025-10-26T0100,1604A,122.0303,41.1489,盘锦市,开发区,细颗粒物(PM2.5),107,,70,80,89,36,,,,33,45,5,8,0.9,1.3
2025-10-26T0100,1605A,122.0485,41.0883,盘锦市,兴隆台,细颗粒物(PM2.5),92,,77,68,78,37,,,,33,51,8,14,1.0,1.8
2025-10-26T0100,1606A,121.8297,41.1028,盘锦市,新生街道,细颗粒物(PM2.5),67,,57,48,56,13,,,,56,51,8,11,0.8,0.8
2025-10-26T0100,1832A,113.3257,33.742,平顶山市,新华旅馆,细颗粒物(PM2.5),72,89,105,52,51,23,,,,27,24,6,8,0.8,0.7
2025-10-26T0100,1833A,113.2919,33.737,平顶山市,规划设计院,细颗粒物(PM2.5),89,88,98,66,79,9,,,,39,27,4,4,0.6,0.6
2025-10-26T0100,1834A,113.182,33.774,平顶山市,平顶山工学院,细颗粒物(PM2.5),94,93,102,70,85,37,,,,20,23,6,6,0.6,0.7
2025-10-26T0100,3204A,113.3025,33.73,平顶山市,规划局,细颗粒物(PM2.5),83,83,90,61,73,16,,,,30,23,5,7,0.7,0.6
2025-10-26T0100,3594A,112.8867,33.9116,平顶山市,石龙区,细颗粒物(PM2.5),73,66,95,53,84,8,,,,41,26,4,5,0.7,0.8
2025-10-26T0100,2656A,106.6692,35.5461,平凉市,聚贤嘉苑,,41,41,31,22,19,18,,,,26,21,6,9,0.6,0.6
2025-10-26T0100,2657A,106.7021,35.5307,平凉市,博物馆,,47,47,40,29,23,13,,,,29,22,9,10,0.7,0.7
2025-10-26T0100,2348A,113.8385,27.6434,萍乡市,中医院,细颗粒物(PM2.5),103,98,61,77,34,57,,,,27,23,9,8,0.8,0.7
2025-10-26T0100,2349A,113.8493,27.6253,萍乡市,市政府车库,细颗粒物(PM2.5),100,96,57,75,40,60,,,,23,23,17,15,0.6,0.6
2025-10-26T0100,2350A,113.8676,27.6435,萍乡市,市环保局,颗粒物(PM10),64,78,52,44,31,63,,,,20,17,11,9,0.6,0.5
2025-10-26T0100,2351A,113.866,27.6198,萍乡市,安源区政府,细颗粒物(PM2.5),124,,54,94,47,62,,,,19,19,12,12,0.6,0.7
2025-10-26T0100,2319A,119.0141,25.4325,莆田市,荔城区仓后路,,30,30,27,12,11,88,,,,7,9,5,5,0.6,0.6
2025-10-26T0100,2320A,119.0015,25.4553,莆田市,莆田市监测站,,32,32,20,12,10,94,,,,8,7,6,5,0.7,0.6
2025-10-26T0100,2321A,119.1119,25.4561,莆田市,涵江区六中,,32,22,27,10,12,102,,,,7,9,6,6,0.5,0.5
2025-10-26T0100,2322A,119.1013,25.3215,莆田市,秀屿区政府,,32,19,29,14,16,101,,,,9,11,5,5,0.5,0.5
2025-10-26T0100,2392A,115.0312,35.7636,濮阳市,环保局,细颗粒物(PM2.5),88,,41,65,55,51,,,,17,22,8,8,0.6,0.6
2025-10-26T0100,2394A,115.0574,35.7609,濮阳市,油田运输公司,细颗粒物(PM2.5),95,87,87,71,67,55,,,,21,26,8,9,1.0,1.1
2025-10-26T0100,3021A,115,35.7668,濮阳市,濮水河管理处,颗粒物(PM10),62,74,66,38,39,35,,,,17,22,7,8,0.5,0.6
2025-10-26T0100,4216A,115.0924,35.7686,濮阳市,任丘路479号,细颗粒物(PM2.5),79,75,68,58,56,43,,,,17,21,7,8,0.8,0.8
2025-10-26T0100,2601A,100.98,22.7633,普洱市,市环保局,,30,24,22,21,20,20,,,,6,5,4,5,0.4,0.4
2025-10-26T0100,2602A,100.9817,22.8322,普洱市,普洱第二中学,,29,29,23,10,11,11,,,,7,8,4,4,0.3,0.3
2025-10-26T0100,3345A,131.0577,45.7879,七台河市,中波台,细颗粒物(PM2.5),160,143,96,122,61,35,,,,26,26,8,10,1.0,0.8
2025-10-26T0100,3637A,131.0176,45.7761,七台河市,人民广场,细颗粒物(PM2.5),92,82,101,68,64,63,,,,22,28,8,9,0.7,0.7
2025-10-26T0100,3684A,130.8781,45.8222,七台河市,新建矿广场,细颗粒物(PM2.5),119,119,104,90,53,37,,,,32,33,11,8,1.1,0.6
2025-10-26T0100,1779A,123.9305,47.3636,齐齐哈尔市,安居小区,,26,26,54,12,23,36,,,,5,19,6,9,0.3,0.5
2025-10-26T0100,1780A,123.9488,47.3386,齐齐哈尔市,中心广场,,12,11,43,3,22,38,,,,5,19,7,10,0.3,0.5
2025-10-26T0100,1781A,123.9483,47.3227,齐齐哈尔市,农牧车辆厂,,31,31,50,7,19,36,,,,5,18,7,6,0.5,0.6
2025-10-26T0100,1783A,123.945,47.2988,齐齐哈尔市,市环境监测站,细颗粒物(PM2.5),94,,58,70,30,34,,,,11,18,8,8,0.5,0.5
2025-10-26T0100,3662A,123.6333,47.2075,齐齐哈尔市,富区青少年活动中心,细颗粒物(PM2.5),58,62,69,41,37,0,,,,40,21,8,14,0.6,1
2025-10-26T0100,2591A,107.9783,26.5747,黔东南苗族侗族自治州,市环境监测站,,35,29,29,24,23,55,,,,6,11,3,4,0.4,0.5
2025-10-26T0100,2881A,107.8908,26.5311,黔东南苗族侗族自治州,凯里学院,,46,34,29,32,25,49,,,,10,13,2,2,0.7,0.6
2025-10-26T0100,2593A,107.5228,26.2403,黔南布依族苗族自治州,小围寨,,20,14,17,14,15,38,,,,4,6,5,4,0.4,0.4
2025-10-26T0100,3538A,107.5175,26.2978,黔南布依族苗族自治州,沙坝,,24,24,24,14,19,40,,,,7,8,4,3,0.5,0.5
2025-10-26T0100,2589A,104.9022,25.0925,黔西南布依族苗族自治州,场坝街,,30,30,21,20,12,38,,,,8,7,3,3,0.5,0.4
2025-10-26T0100,2590A,104.8811,25.0992,黔西南布依族苗族自治州,坪东大道,,38,,22,26,17,38,,,,6,6,3,3,0.6,0.5
2025-10-26T0100,2502A,108.6236,21.9667,钦州市,市环保站,颗粒物(PM10),56,61,50,31,25,88,,,,14,13,6,5,1.4,0.7
2025-10-26T0100,2503A,108.6549,21.9481,钦州市,沙埠小学,,41,41,51,28,32,91,,,,15,14,5,6,1.1,1.1
2025-10-26T0100,2504A,108.5989,21.7431,钦州市,港区一小,颗粒物(PM10),67,84,58,35,32,56,,,,44,29,14,9,0.8,0.6
2025-10-26T0100,3404A,108.5959,21.9633,钦州市,北职校,颗粒物(PM10),53,55,44,31,29,96,,,,8,10,6,7,0.6,0.9
2025-10-26T0100,1043A,119.7493,40.0116,秦皇岛市,第一关,细颗粒物(PM2.5),142,,105,108,93,29,,,,52,57,8,8,0.8,0.9
2025-10-26T0100,1044A,119.5897,39.9499,秦皇岛市,监测站,细颗粒物(PM2.5),114,131,117,86,70,2,,,,79,59,10,9,1.0,1
2025-10-26T0100,1046A,119.5251,39.9041,秦皇岛市,建设大厦,细颗粒物(PM2.5),144,144,110,110,77,4,,,,64,42,9,9,1.0,1
2025-10-26T0100,3132A,119.610547,39.943889,秦皇岛市,文明里,细颗粒物(PM2.5),124,143,109,94,71,1,,,,76,53,10,10,0.8,0.8
2025-10-26T0100,4198A,119.5090,39.8253,秦皇岛市,北戴河轮滑馆,细颗粒物(PM2.5),143,152,116,109,89,30,,,,44,41,6,8,1.0,1
2025-10-26T0100,1310A,120.4134,36.0658,青岛市,市南区东部子站,颗粒物(PM10),51,51,65,31,30,60,,,,20,38,7,10,0.5,0.5
2025-10-26T0100,1311A,120.3664,36.1032,青岛市,四方区子站,,49,36,54,34,38,72,,,,18,35,1,6,0.3,0.4
2025-10-26T0100,1312A,120.2994,36.054,青岛市,市南区西部子站,,35,34,59,24,32,73,,,,25,44,7,8,0.6,0.6
2025-10-26T0100,1313A,120.4581,36.0858,青岛市,崂山区子站,颗粒物(PM10),52,53,55,34,24,56,,,,23,41,8,9,0.5,0.5
2025-10-26T0100,1315A,120.3999,36.3083,青岛市,城阳区子站,细颗粒物(PM2.5),77,88,83,56,39,66,,,,22,44,4,5,0.7,0.7
2025-10-26T0100,3362A,120.5014,36.4034,青岛市,即墨2号,细颗粒物(PM2.5),152,,84,116,89,52,,,,32,52,4,6,0.7,0.6
2025-10-26T0100,3642A,120.3503,36.0736,青岛市,市北区南部,颗粒物(PM10),59,67,67,22,30,63,,,,24,44,4,7,0.5,0.5
2025-10-26T0100,3643A,120.3948,36.1805,青岛市,李沧区北部,细颗粒物(PM2.5),55,48,62,39,37,86,,,,12,40,5,7,0.5,0.6
2025-10-26T0100,4290A,120.1969,35.9546,青岛市,珠江路669号,,46,,74,32,40,86,,,,10,55,8,12,0.5,0.5
2025-10-26T0100,4291A,120.0424,35.8656,青岛市,黄岛区人民政府广场,细颗粒物(PM2.5),52,44,72,36,37,52,,,,18,46,6,7,0.9,0.8
2025-10-26T0100,1703A,113.0208,23.7106,清远市,凤城街办,,35,35,35,24,24,84,,,,12,12,8,8,0.6,0.6
2025-10-26T0100,3025A,113.0477,23.6344,清远市,技师学院,,41,41,39,25,23,81,,,,16,18,9,7,0.7,0.6
2025-10-26T0100,3318A,112.9903,23.7403,清远市,清新太和,,35,35,32,20,19,100,,,,12,12,5,6,0.5,0.5
2025-10-26T0100,3455A,113.076,23.7198,清远市,清城东城,,36,36,34,21,21,89,,,,14,12,9,7,0.7,0.6
2025-10-26T0100,2661A,107.6325,35.7357,庆阳市,庆阳五中,,37,37,42,24,30,45,,,,14,17,1,2,0.5,0.5
2025-10-26T0100,2662A,107.6364,35.7067,庆阳市,市环保局,,33,27,31,23,26,36,,,,23,15,3,3,0.5,0.5
2025-10-26T0100,1916A,103.7897,25.5035,曲靖市,环境监测站,,25,25,24,12,13,26,,,,12,12,4,4,0.5,0.4
2025-10-26T0100,1917A,103.8,25.5364,曲靖市,烟厂办公区,,25,25,21,12,12,32,,,,8,10,4,4,0.5,0.4
2025-10-26T0100,3376A,103.7947,25.462,曲靖市,南苑二区,,24,24,21,14,13,26,,,,14,10,4,4,0.5,0.4
2025-10-26T0100,3377A,103.7444,25.5261,曲靖市,曲靖师范学院,,23,,21,16,16,28,,,,9,9,1,2,0.4,0.4
2025-10-26T0100,1264A,118.8692,28.9398,衢州市,环保大楼,颗粒物(PM10),52,53,54,30,28,52,,,,30,26,5,5,0.5,0.5
2025-10-26T0100,1265A,118.8709,28.9666,衢州市,实验学校,,40,40,48,26,28,36,,,,40,31,4,4,0.4,0.4
2025-10-26T0100,1266A,118.8621,28.9808,衢州市,衢州学院,,33,33,48,22,28,40,,,,40,33,5,6,0.4,0.4
2025-10-26T0100,1611A,118.5819,24.9117,泉州市,涂山街,,24,24,25,14,14,70,,,,12,8,3,3,0.4,0.4
2025-10-26T0100,1612A,118.5972,24.8978,泉州市,津头埔,,26,26,28,15,16,66,,,,17,13,3,3,0.4,0.4
2025-10-26T0100,1613A,118.6663,24.9424,泉州市,万安,,25,25,29,13,15,70,,,,10,9,3,3,0.5,0.4
2025-10-26T0100,3529A,118.6333,24.9264,泉州市,城华南路,,23,21,27,12,14,72,,,,14,13,4,4,0.2,0.2
2025-10-26T0100,2626A,88.8876,29.2718,日喀则市,日喀则监测站,,26,10,23,3,7,81,,,,11,16,14,15,0.3,0.4
2025-10-26T0100,3726A,88.8781,29.2426,日喀则市,林业技术推广中心,,31,10,16,3,3,99,,,,2,7,6,6,0.5,0.6
2025-10-26T0100,1659A,119.471,35.4209,日照市,监测站,细颗粒物(PM2.5),78,70,64,57,39,46,,,,31,50,6,8,0.7,0.7
2025-10-26T0100,1660A,119.523,35.4216,日照市,市政府广场,细颗粒物(PM2.5),68,63,57,49,35,45,,,,25,37,6,8,0.8,0.8
2025-10-26T0100,1661A,119.5587,35.4044,日照市,港务局,颗粒物(PM10),59,68,65,29,34,50,,,,26,40,7,9,0.7,0.7
2025-10-26T0100,3507A,119.5328,35.4625,日照市,职业技术学院,细颗粒物(PM2.5),62,70,65,44,33,46,,,,29,44,4,6,0.8,0.8
2025-10-26T0100,3604A,119.3266,35.1044,日照市,岚山环保分局,细颗粒物(PM2.5),93,90,90,69,51,36,,,,40,52,11,26,1.3,1.8
2025-10-26T0100,1835A,111.1922,34.7752,三门峡市,市政府,颗粒物(PM10),52,53,41,34,33,0,,,,34,29,7,8,0.7,0.5
2025-10-26T0100,1836A,111.1587,34.7942,三门峡市,开发区,细颗粒物(PM2.5),62,61,51,44,40,10,,,,34,27,3,5,0.5,0.4
2025-10-26T0100,3039A,111.1911,34.7829,三门峡市,三门峡市第一小学,颗粒物(PM10),51,51,43,32,35,0,,,,35,24,9,9,0.8,0.5
2025-10-26T0100,3598A,111.1,34.7167,三门峡市,富达温泉假日酒店,细颗粒物(PM2.5),59,53,48,42,47,1,,,,33,29,7,8,0.6,0.5
2025-10-26T0100,2324A,117.6211,26.2625,三明市,三钢,,35,24,28,24,21,26,,,,22,17,2,4,0.5,0.5
2025-10-26T0100,2325A,117.635,26.2714,三明市,三明二中,,26,25,30,18,19,35,,,,17,13,4,4,0.5,0.5
2025-10-26T0100,2326A,117.6028,26.2378,三明市,三元区政府,,26,26,26,17,17,28,,,,20,18,3,3,0.7,0.7
2025-10-26T0100,1876A,109.5078,18.2489,三亚市,河东子站,,31,16,20,10,11,99,,,,6,8,4,4,0.4,0.4
2025-10-26T0100,1877A,109.4964,18.2681,三亚市,河西子站,,31,15,19,10,13,99,,,,6,8,6,6,0.6,0.6
2025-10-26T0100,3540A,109.7348,18.3443,三亚市,君悦子站,,,,26,11,15,89,,,,8,7,4,4,0.6,0.6
2025-10-26T0100,2624A,91.7608,29.2313,山南市,山南监测站,,27,8,12,3,4,84,,,,1,7,4,4,0.3,0.3
2025-10-26T0100,2625A,91.7706,29.2436,山南市,山南人民医院,,27,10,15,3,6,85,,,,1,6,3,4,0.3,0.3
2025-10-26T0100,1674A,116.6794,23.3667,汕头市,金平子站,,33,33,34,23,22,73,,,,18,18,5,7,0.7,0.7
2025-10-26T0100,1675A,116.7244,23.3633,汕头市,龙湖子站,,25,22,30,17,18,68,,,,14,14,8,12,0.5,0.5
2025-10-26T0100,1676A,116.7258,23.2775,汕头市,濠江子站,,30,30,29,17,18,71,,,,8,9,6,7,0.5,0.5
2025-10-26T0100,1677A,116.7519,23.4714,汕头市,澄海子站,,43,38,36,30,22,74,,,,17,17,6,11,0.7,0.7
2025-10-26T0100,1678A,116.6092,23.2539,汕头市,潮阳子站,,26,26,35,17,18,75,,,,8,12,6,8,0.5,0.5
2025-10-26T0100,3444A,116.454,23.2684,汕头市,潮南峡山,,41,41,34,23,19,82,,,,12,10,8,10,0.7,0.7
2025-10-26T0100,3624A,116.4069,23.2533,汕头市,潮南子站,颗粒物(PM10),52,54,39,27,18,83,,,,17,13,6,6,0.6,0.6
2025-10-26T0100,1693A,115.3653,22.775,汕尾市,市环保局,,40,40,28,27,18,72,,,,12,10,6,6,0.8,0.8
2025-10-26T0100,1694A,115.3706,22.7898,汕尾市,市政府,,41,41,27,27,21,67,,,,15,12,7,7,0.5,0.4
2025-10-26T0100,1695A,115.3622,22.7925,汕尾市,新城中学,,43,43,28,25,19,68,,,,15,13,8,7,0.8,0.7
2025-10-26T0100,2645A,109.9154,33.8715,商洛市,监测站,,20,17,27,14,21,15,,,,18,18,3,4,0.6,0.6
2025-10-26T0100,3045A,109.9643,33.8471,商洛市,商州区中学,,15,10,28,10,21,8,,,,27,23,4,6,0.6,0.6
2025-10-26T0100,2408A,115.6702,34.4285,商丘市,环境监测站,细颗粒物(PM2.5),95,,75,71,69,56,,,,15,20,1,2,0.7,0.6
2025-10-26T0100,2409A,115.6458,34.4045,商丘市,粮食局,细颗粒物(PM2.5),77,68,63,56,57,46,,,,16,19,3,2,0.7,0.7
2025-10-26T0100,2410A,115.6293,34.3948,商丘市,睢阳区环保局,细颗粒物(PM2.5),94,,62,70,66,32,,,,24,22,3,4,0.6,0.6
2025-10-26T0100,3171A,115.6071,34.4465,商丘市,梁园区档案局,细颗粒物(PM2.5),93,,54,69,69,38,,,,23,20,3,3,0.5,0.5
2025-10-26T0100,1141A,121.4,31.238,上海市,普陀,,42,42,31,15,14,100,,,,17,17,6,5,0.5,0.4
2025-10-26T0100,1142A,121.478,31.2036,上海市,十五厂,,37,37,33,18,15,99,,,,15,15,7,8,0.6,0.7
2025-10-26T0100,1143A,121.467,31.3008,上海市,虹口,,43,43,31,20,13,91,,,,15,15,8,8,0.4,0.4
2025-10-26T0100,1147A,121.425,31.2261,上海市,静安监测站,,,40,32,20,16,99,,,,15,16,,4,0.5,0.4
2025-10-26T0100,1148A,121.703,31.1907,上海市,浦东川沙,,44,44,32,15,13,94,,,,15,12,9,8,0.5,0.4
2025-10-26T0100,1149A,121.533,31.2284,上海市,浦东新区监测站,,36,36,31,18,18,86,,,,23,18,7,6,0.6,0.4
2025-10-26T0100,1150A,121.577,31.2071,上海市,浦东张江,,40,40,30,16,13,106,,,,15,16,6,6,0.7,0.6
2025-10-26T0100,3265A,121.4316,31.3322,上海市,宝山庙行,,42,42,31,20,14,92,,,,19,17,9,8,0.6,0.5
2025-10-26T0100,3266A,121.8791,31.4662,上海市,崇明上实东滩,,36,36,23,21,12,82,,,,8,5,4,4,0.5,0.4
2025-10-26T0100,3268A,121.3162,31.2838,上海市,嘉定南翔,,42,42,34,18,16,85,,,,20,21,6,7,0.4,0.4
2025-10-26T0100,3269A,121.3359,30.7456,上海市,金山新城,,38,38,33,18,19,77,,,,18,22,6,6,0.4,0.4
2025-10-26T0100,3270A,121.4996,31.0739,上海市,闵行浦江,,38,38,32,17,13,103,,,,9,14,5,5,0.2,0.4
2025-10-26T0100,3271A,121.2886,31.1663,上海市,青浦徐泾,,42,42,33,12,10,88,,,,21,25,9,8,0.7,0.6
2025-10-26T0100,3272A,121.2186,31.0378,上海市,松江图书馆,,30,30,32,15,16,90,,,,20,31,6,5,0.5,0.4
2025-10-26T0100,3273A,121.3902,31.2059,上海市,长宁仙霞,,,39,30,17,13,103,,,,13,15,6,6,,0.6
2025-10-26T0100,3274A,121.7965,31.0507,上海市,浦东惠南,,37,37,32,16,11,94,,,,22,14,8,7,0.6,0.5
2025-10-26T0100,3544A,121.4891,30.925,上海市,奉贤南桥新城,,37,37,33,20,15,96,,,,14,18,4,4,0.6,0.5
2025-10-26T0100,4205A,121.5419,31.2683,上海市,宁武路151号,,44,44,35,14,15,86,,,,24,22,5,6,0.3,0.4
2025-10-26T0100,2382A,117.9756,28.4436,上饶市,市监测站,颗粒物(PM10),51,52,43,22,19,70,,,,22,15,6,5,0.3,0.3
2025-10-26T0100,2383A,117.9519,28.4628,上饶市,凤凰光学,颗粒物(PM10),53,56,42,22,19,71,,,,23,15,12,7,0.6,0.5
2025-10-26T0100,3685A,117.897,28.4315,上饶市,双创科技城,,45,45,40,26,21,87,,,,25,20,9,6,0.4,0.4
2025-10-26T0100,4211A,118.1904,28.4448,上饶市,裕丰大道,,49,49,56,28,26,73,,,,18,18,15,5,0.6,0.6
2025-10-26T0100,1669A,113.5824,24.7733,韶关市,市八中,细颗粒物(PM2.5),57,62,47,40,31,74,,,,14,15,9,8,0.6,0.6
2025-10-26T0100,1671A,113.5917,24.7972,韶关市,园林处,,43,35,35,30,30,81,,,,11,11,10,9,0.6,0.6
2025-10-26T0100,1673A,113.5971,24.6863,韶关市,曲江监测站,,46,45,38,32,27,58,,,,21,12,13,12,0.6,0.5
2025-10-26T0100,2809A,113.6668,24.7756,韶关市,大学路288号,,39,39,44,22,28,52,,,,16,15,8,9,0.5,0.5
2025-10-26T0100,3622A,113.5556,24.8082,韶关市,碧湖山庄,,49,49,45,33,30,76,,,,12,11,11,10,0.7,0.6
2025-10-26T0100,2464A,111.5283,27.2442,邵阳市,市化工厂,细颗粒物(PM2.5),59,66,52,42,35,74,,,,16,14,8,9,0.6,0.5
2025-10-26T0100,2466A,111.4328,27.2272,邵阳市,市环保局,细颗粒物(PM2.5),73,56,59,53,43,79,,,,13,13,4,6,0.8,0.7
2025-10-26T0100,4218A,111.4460,27.2472,邵阳市,北塔二期4-26地块,细颗粒物(PM2.5),53,54,51,37,39,75,,,,16,17,5,6,0.7,0.6
2025-10-26T0100,4219A,111.4739,27.2282,邵阳市,邵水西路287号,颗粒物(PM10),56,62,51,33,32,76,,,,12,12,9,10,0.5,0.5
2025-10-26T0100,1247A,120.6053,29.9928,绍兴市,城东开发委,,49,35,32,34,26,54,,,,29,28,8,9,0.4,0.3
2025-10-26T0100,2921A,120.5483,30.0003,绍兴市,树下王站,,47,47,49,27,25,67,,,,26,26,7,7,0.5,0.6
2025-10-26T0100,3408A,120.5683,29.9361,绍兴市,绍兴中专,,35,34,50,24,34,20,,,,51,33,8,9,0.5,0.5
2025-10-26T0100,3409A,120.4906,30.0861,绍兴市,柯桥区政府,,42,42,41,25,24,62,,,,31,32,5,8,0.4,0.5
2025-10-26T0100,3410A,120.8752,30.0249,绍兴市,重华小学,颗粒物(PM10),51,52,44,35,25,42,,,,39,23,9,8,0.6,0.5
2025-10-26T0100,3411A,120.8369,30.0137,绍兴市,上虞中学,,36,36,43,25,27,71,,,,24,31,7,7,0.5,0.6
2025-10-26T0100,3560A,120.4722,30.0415,绍兴市,柯桥妇保,细颗粒物(PM2.5),58,64,49,41,26,28,,,,33,29,5,6,0.6,0.6
2025-10-26T0100,3658A,120.6153,30.0764,绍兴市,袍江中学,,36,36,40,10,24,67,,,,28,33,4,4,0.3,0.4
2025-10-26T0100,1356A,114.1063,22.5545,深圳市,通心岭子站,,39,37,32,27,22,66,,,,17,16,9,9,0.6,0.6
2025-10-26T0100,1357A,114.117,22.5625,深圳市,洪湖,,42,42,34,25,20,66,,,,16,14,9,9,0.7,0.7
2025-10-26T0100,1358A,113.987,22.5417,深圳市,华侨城,,35,35,34,24,22,71,,,,17,18,9,8,0.6,0.6
2025-10-26T0100,1359A,113.9181,22.5171,深圳市,南海子站,,,52,43,36,30,52,,,,34,26,,7,0.7,0.7
2025-10-26T0100,1360A,114.2458,22.5689,深圳市,盐田,,34,34,31,20,17,71,,,,18,12,9,8,0.5,0.5
2025-10-26T0100,1361A,114.2283,22.7244,深圳市,龙岗,,36,36,33,25,20,78,,,,10,10,9,8,0.8,0.7
2025-10-26T0100,1363A,114.494,22.5422,深圳市,南澳,,27,27,28,16,18,52,,,,7,8,8,9,0.6,0.5
2025-10-26T0100,1364A,114.41,22.6342,深圳市,葵涌,,35,35,31,23,20,69,,,,11,10,7,8,0.6,0.5
2025-10-26T0100,1365A,114.297,22.5978,深圳市,梅沙,,39,39,34,20,17,82,,,,8,9,9,8,0.4,0.4
2025-10-26T0100,1366A,114.0678,22.738,深圳市,观澜,,44,44,46,21,22,75,,,,13,17,8,8,0.7,0.7
2025-10-26T0100,3305A,114.0731,22.559,深圳市,莲花,,34,34,33,22,21,63,,,,16,16,9,9,0.6,0.6
2025-10-26T0100,3306A,114.0261,22.6198,深圳市,民治,,37,37,39,22,25,70,,,,21,21,9,8,0.6,0.6
2025-10-26T0100,3307A,114.1871,22.6451,深圳市,横岗,,41,41,37,24,22,74,,,,16,14,8,7,0.8,0.8
2025-10-26T0100,3447A,114.3551,22.7151,深圳市,坪山,,40,40,38,24,22,68,,,,21,20,11,10,0.6,0.6
2025-10-26T0100,3623A,113.8953,22.5861,深圳市,西乡,,41,41,36,24,22,59,,,,26,19,9,8,0.8,0.8
2025-10-26T0100,1099A,123.505,41.7406,沈阳市,浑南东路,细颗粒物(PM2.5),145,172,124,111,79,7,,,,68,55,10,12,1.5,1.3
2025-10-26T0100,1100A,123.4231,41.6989,沈阳市,新秀街,细颗粒物(PM2.5),144,,137,110,77,3,,,,65,51,7,17,1.7,1.4
2025-10-26T0100,1102A,123.5903,41.8411,沈阳市,东陵路,细颗粒物(PM2.5),130,113,108,99,78,1,,,,58,47,10,15,1.3,1.5
2025-10-26T0100,1103A,123.4264,41.8467,沈阳市,陵东街,细颗粒物(PM2.5),124,126,120,94,80,8,,,,32,45,6,11,0.9,1.2
2025-10-26T0100,1104A,123.4114,41.7653,沈阳市,文化路,细颗粒物(PM2.5),144,212,150,110,86,16,,,,50,50,9,15,1.5,1.5
2025-10-26T0100,1105A,123.4678,41.7867,沈阳市,小河沿,细颗粒物(PM2.5),142,157,125,108,84,20,,,,44,47,7,12,1.4,1.5
2025-10-26T0100,1106A,123.4017,41.7972,沈阳市,太原街,细颗粒物(PM2.5),147,201,154,112,89,5,,,,76,57,12,16,1.4,1.4
2025-10-26T0100,1108A,123.3783,41.9228,沈阳市,京沈街,细颗粒物(PM2.5),168,,106,127,87,16,,,,67,63,17,23,1.1,1.3
2025-10-26T0100,2897A,123.2444,41.7347,沈阳市,沈辽西路,细颗粒物(PM2.5),179,176,142,135,93,13,,,,45,52,8,18,1.5,1.5
2025-10-26T0100,2900A,123.5953,41.9086,沈阳市,裕农路,细颗粒物(PM2.5),147,153,109,112,77,11,,,,61,48,4,10,1.1,1.4
2025-10-26T0100,2429A,110.78,32.6494,十堰市,滨河新村,颗粒物(PM10),55,60,60,22,35,7,,,,34,31,9,9,0.7,0.7
2025-10-26T0100,2430A,110.7258,32.6389,十堰市,刘家沟,,25,24,47,17,30,17,,,,11,12,7,8,0.6,0.6
2025-10-26T0100,2431A,110.8839,32.5714,十堰市,铁二处,,38,28,31,26,32,5,,,,19,15,6,6,0.8,0.8
2025-10-26T0100,3545A,110.8054,32.8401,十堰市,郧阳区金沙路,,29,27,47,20,38,30,,,,5,11,6,5,0.6,0.7
2025-10-26T0100,2709A,86.0497,44.2967,石河子市,艾青诗歌馆,颗粒物(PM10),89,128,157,46,74,30,,,,46,44,9,10,0.7,0.7
2025-10-26T0100,3442A,86.047,44.2331,石河子市,南区管委会,颗粒物(PM10),80,110,165,36,76,52,,,,26,30,7,9,0.4,0.7
2025-10-26T0100,4051A,86.0791,44.3017,石河子市,世纪广场,颗粒物(PM10),107,163,175,50,62,3,,,,75,53,10,11,1.1,0.8
2025-10-26T0100,1029A,114.4422,38.0444,石家庄市,职工医院,细颗粒物(PM2.5),192,192,157,144,118,5,,,,59,50,2,4,1.3,1.1
2025-10-26T0100,1030A,114.6063,38.0266,石家庄市,高新区,细颗粒物(PM2.5),173,220,168,131,116,2,,,,74,65,4,5,1.5,1.1
2025-10-26T0100,1031A,114.4898,38.1328,石家庄市,西北水源,细颗粒物(PM2.5),147,165,147,112,112,4,,,,57,44,3,4,1.0,0.9
2025-10-26T0100,1032A,114.4586,38.0058,石家庄市,西南高教,细颗粒物(PM2.5),216,225,168,166,131,7,,,,68,58,2,3,1.0,0.9
2025-10-26T0100,1033A,114.5331,38.0178,石家庄市,世纪公园,细颗粒物(PM2.5),148,163,137,113,106,6,,,,49,43,3,3,1.6,1.3
2025-10-26T0100,1034A,114.509,38.0457,石家庄市,人民会堂,细颗粒物(PM2.5),201,207,176,151,128,2,,,,57,46,2,4,1.4,1.2
2025-10-26T0100,2862A,114.5481,38.0378,石家庄市,22中南校区,细颗粒物(PM2.5),182,170,137,137,117,1,,,,62,51,2,3,1.4,1.3
