timepoint,stationcode,longitude,latitude,area,positionname,primarypollutant,aqi,pm10,pm10_24h,pm2_5,pm2_5_24h,o3,o3_24h,o3_8h,o3_8h_24h,no2,no2_24h,so2,so2_24h,co,co_24h
2026-03-09T1500,2568A,102.2503,31.8896,阿坝藏族羌族自治州,马师校,,28,13,30,11,12,89,89,71,71,5,6,4,5,0.4,0.4
2026-03-09T1500,3994A,102.2174,31.9016,阿坝藏族羌族自治州,马尔康中学西区,,28,18,24,10,12,88,88,72,72,5,6,6,6,0.3,0.4
2026-03-09T1500,2695A,80.2899,41.1684,阿克苏地区,电视台,颗粒物(PM10),109,141,175,44,60,89,89,50,50,8,21,4,5,0.7,0.9
2026-03-09T1500,2696A,80.2592,41.1541,阿克苏地区,艺术中心,NA,NA,NA,168,NA,63,94,94,54,54,10,30,NA,6,0.4,0.5
2026-03-09T1500,2205A,105.699,38.8409,阿拉善盟,蒙二幼,,46,46,27,21,10,110,110,98,98,3,5,10,9,0.5,0.4
2026-03-09T1500,2206A,105.7198,38.8508,阿拉善盟,环保局新楼,,49,49,21,14,4,107,107,99,99,6,5,8,8,0.4,0.4
2026-03-09T1500,2708A,88.1266,47.8515,阿勒泰地区,市站,,33,10,9,3,2,104,104,107,97,13,11,8,3,0.3,0.3
2026-03-09T1500,4166A,88.1198,47.7931,阿勒泰地区,阿勒泰路33号,,34,10,9,3,3,107,107,103,92,6,12,6,6,0.2,0.3
2026-03-09T1500,2630A,80.1171,32.4999,阿里地区,阿里监测站,,28,6,11,3,6,88,88,71,69,1,4,7,8,0.2,0.3
2026-03-09T1500,3192A,80.0906,32.5029,阿里地区,阿里藏医院,,31,NA,8,3,4,99,99,76,76,1,4,7,9,0.2,0.3
2026-03-09T1500,2644A,109.0088,32.6974,安康市,汉滨区检察院,,31,19,19,11,11,99,99,48,48,6,13,5,4,0.5,0.7
2026-03-09T1500,4054A,109.0324,32.6913,安康市,市邮政管理局,,31,21,22,12,15,98,98,47,47,7,16,5,7,0.6,0.9
2026-03-09T1500,2291A,117.0806,30.5181,安庆市,环科院,颗粒物(PM10),52,52,81,27,46,119,119,86,86,19,20,10,10,0.4,0.6
2026-03-09T1500,2292A,117.0331,30.5118,安庆市,马山宾馆,颗粒物(PM10),55,57,85,37,55,122,122,90,90,15,21,7,7,0.8,0.9
2026-03-09T1500,2294A,116.9897,30.6146,安庆市,安庆大学,,49,49,75,32,45,127,127,89,89,12,15,7,6,0.6,0.6
2026-03-09T1500,3173A,117.0598,30.5351,安庆市,市人大,颗粒物(PM10),55,56,84,31,49,122,122,90,90,14,21,8,8,0.5,0.6
2026-03-09T1500,3123A,105.9408,26.2431,安顺市,凤凰山,,17,NA,9,10,10,52,52,38,38,7,11,12,12,0.6,0.8
2026-03-09T1500,3124A,105.9443,26.2567,安顺市,金钟山,,16,7,10,7,9,50,50,36,36,6,9,11,11,0.7,0.8
2026-03-09T1500,3125A,105.8983,26.248,安顺市,娄家坡,NA,NA,NA,14,NA,12,NA,NA,30,NA,NA,12,NA,19,NA,0.8
2026-03-09T1500,1819A,114.3552,36.1017,安阳市,红庙街,细颗粒物(PM2.5),80,NA,80,50,76,108,108,75,75,8,25,2,2,0.4,0.6
2026-03-09T1500,1820A,114.361,36.0681,安阳市,银杏小区,细颗粒物(PM2.5),100,NA,86,60,83,112,112,80,80,10,25,2,2,0.3,0.7
2026-03-09T1500,3141A,114.3921,36.0879,安阳市,信访局,细颗粒物(PM2.5),94,65,83,57,81,116,116,81,81,8,23,3,3,0.5,0.8
2026-03-09T1500,3669A,114.4706,36.0634,安阳市,左辅环卫站,细颗粒物(PM2.5),82,78,112,51,81,114,114,81,81,6,22,3,3,0.4,0.6
2026-03-09T1500,4117A,114.2918,36.0769,安阳市,钢三路198号,细颗粒物(PM2.5),96,82,115,58,85,105,105,77,77,15,30,4,5,0.3,0.8
2026-03-09T1500,1748A,123.0441,41.1201,鞍山市,深沟寺,,44,44,61,24,38,101,101,83,83,10,22,8,10,0.6,0.9
2026-03-09T1500,1749A,123.011,41.0931,鞍山市,太阳城,,39,37,62,27,44,102,102,84,84,10,28,10,19,0.5,1
2026-03-09T1500,1750A,123.0483,41.1445,鞍山市,太平,,47,47,65,24,39,97,97,83,83,10,24,9,16,0.5,1
2026-03-09T1500,1751A,122.964,41.0968,鞍山市,铁西三道街,NA,NA,45,71,27,46,100,100,85,85,13,30,11,15,NA,1.3
2026-03-09T1500,1753A,123.0219,41.0822,鞍山市,明达新区,,41,41,61,26,42,99,99,81,81,10,22,10,17,0.5,0.9
2026-03-09T1500,4201A,122.944647,41.082639,鞍山市,兴盛南路290号,,42,41,77,29,50,100,100,80,80,13,31,7,10,0.7,1
2026-03-09T1500,2195A,107.4206,40.7609,巴彦淖尔市,附二中,颗粒物(PM10),75,85,54,27,23,90,90,66,66,14,13,15,11,0.5,0.5
2026-03-09T1500,2196A,107.37,40.7372,巴彦淖尔市,市环保大楼,颗粒物(PM10),70,78,50,23,18,94,94,70,70,14,15,14,9,0.6,0.5
2026-03-09T1500,1956A,86.1476,41.7529,巴音郭楞蒙古自治州,孔雀公园,颗粒物(PM10),119,169,188,51,49,111,111,81,81,11,32,12,10,0.4,0.5
2026-03-09T1500,1957A,86.1971,41.7166,巴音郭楞蒙古自治州,棉纺厂,颗粒物(PM10),118,166,221,56,59,112,112,76,76,9,25,/,/,/,/
2026-03-09T1500,1958A,86.236,41.7172,巴音郭楞蒙古自治州,经济开发区,颗粒物(PM10),111,148,178,40,48,96,96,81,81,13,15,8,7,0.5,0.4
2026-03-09T1500,3181A,106.776805,31.852614,巴中市,市五中,,27,20,22,8,14,86,86,42,42,7,15,7,7,0.6,0.8
2026-03-09T1500,3183A,106.7419,31.8654,巴中市,圣泉水务公司,,27,19,17,7,12,84,84,48,48,6,12,9,9,0.9,1.1
2026-03-09T1500,3616A,106.7617,31.8343,巴中市,市中心医院,,27,14,20,8,15,85,85,43,43,4,12,9,9,0.6,0.8
2026-03-09T1500,2235A,122.7909,45.608,白城市,洮北区环保局,,30,22,41,3,25,93,93,79,79,10,15,5,5,0.1,0.3
2026-03-09T1500,2236A,122.8741,45.5725,白城市,市环保局,,31,19,52,3,32,97,97,71,71,2,18,4,6,0.4,0.5
2026-03-09T1500,2231A,126.4219,41.9172,白山市,喜丰,颗粒物(PM10),65,70,64,34,43,100,100,90,90,12,15,7,9,0.8,1
2026-03-09T1500,2232A,126.4082,41.9416,白山市,环保局,颗粒物(PM10),53,54,58,36,46,104,104,89,89,9,14,9,9,0.6,0.8
2026-03-09T1500,2647A,104.1727,36.5448,白银市,第三小学,,42,37,50,29,36,107,107,71,71,11,17,5,8,0.5,0.8
2026-03-09T1500,2648A,104.1467,36.5482,白银市,动力公司,,42,42,50,28,37,106,106,70,70,8,17,5,7,0.6,0.8
2026-03-09T1500,2512A,106.6102,23.901,百色市,市监测站,,13,6,15,3,11,39,39,29,26,8,13,9,9,0.8,0.7
2026-03-09T1500,2513A,106.6524,23.8842,百色市,市中心血站,,12,10,27,3,15,36,36,33,20,11,17,8,8,0.8,0.8
2026-03-09T1500,4133A,106.6273,23.8798,百色市,龙景西路,,9,6,26,3,16,27,27,20,16,8,13,9,10,0.6,0.6
2026-03-09T1500,2270A,117.396,32.9389,蚌埠市,工人疗养院,细颗粒物(PM2.5),136,124,99,99,72,126,126,84,84,19,29,5,5,0.8,0.7
2026-03-09T1500,2271A,117.3606,32.9428,蚌埠市,百货大楼,细颗粒物(PM2.5),128,121,94,90,64,125,125,91,91,19,30,7,7,0.7,0.7
2026-03-09T1500,2273A,117.4183,32.8909,蚌埠市,蚌埠学院,细颗粒物(PM2.5),132,95,79,95,68,128,128,84,84,16,38,6,5,0.7,0.6
2026-03-09T1500,2274A,117.3534,32.9672,蚌埠市,淮上区政府,细颗粒物(PM2.5),136,102,86,99,74,130,130,86,86,16,32,6,5,0.7,0.6
2026-03-09T1500,2275A,117.3143,32.8977,蚌埠市,高新区,细颗粒物(PM2.5),133,NA,86,96,73,117,117,77,77,19,35,8,8,0.7,0.7
2026-03-09T1500,3715A,117.3091,32.9314,蚌埠市,蚌埠田家炳中学,细颗粒物(PM2.5),134,120,101,97,70,124,124,79,79,17,35,5,6,0.6,0.6
2026-03-09T1500,1585A,109.8761,40.6533,包头市,市环境监测站,,35,35,33,18,17,104,104,66,66,14,26,8,8,0.5,0.6
2026-03-09T1500,1587A,109.9992,40.5843,包头市,包头八中,,50,50,38,22,22,90,90,60,60,15,24,10,11,0.5,0.6
2026-03-09T1500,1589A,109.8641,40.6288,包头市,惠龙物流,,36,36,29,22,22,95,95,60,60,13,22,8,8,0.7,0.9
2026-03-09T1500,1590A,110.0376,40.5546,包头市,东河鸿龙湾,,43,43,33,25,22,100,100,70,70,17,24,11,11,0.6,0.6
2026-03-09T1500,3283A,109.9154,40.5684,包头市,滨河大厦,,31,24,22,21,13,97,97,67,67,15,24,10,9,0.6,0.6
2026-03-09T1500,3419A,109.9449,40.6259,包头市,包头市委党校,细颗粒物(PM2.5),86,NA,29,53,23,97,97,61,61,15,27,10,11,0.4,0.5
2026-03-09T1500,3683A,109.8332,40.6577,包头市,昆区政府,,35,28,26,24,17,100,100,60,60,17,25,12,11,0.6,0.7
2026-03-09T1500,1931A,107.0802,34.3129,宝鸡市,竹园沟,,43,43,15,21,13,90,90,48,48,14,13,7,6,0.5,0.6
2026-03-09T1500,1933A,107.1429,34.3549,宝鸡市,监测站,颗粒物(PM10),56,58,24,18,16,76,76,44,44,14,17,6,5,0.4,0.6
2026-03-09T1500,1934A,107.1172,34.3759,宝鸡市,技工学校,NA,NA,NA,24,NA,18,85,85,46,46,13,15,5,4,0.5,0.8
2026-03-09T1500,1936A,107.2025,34.3518,宝鸡市,文理学院,,34,34,24,20,17,90,90,51,51,12,18,4,4,0.4,0.6
2026-03-09T1500,1937A,107.2396,34.3626,宝鸡市,三迪小学,,48,48,23,25,20,90,90,49,49,14,23,5,4,0.5,0.7
2026-03-09T1500,4155A,107.1721,34.3558,宝鸡市,滨河北路,,30,24,19,21,18,82,82,50,50,14,17,6,4,0.4,0.6
2026-03-09T1500,4308A,107.3898,34.3601,宝鸡市,陈仓区北开路21号,,50,50,47,20,28,91,91,NA,NA,12,17,8,12,0.3,0.6
2026-03-09T1500,1051A,115.4803,38.8568,保定市,游泳馆,,49,49,66,26,55,108,108,78,78,9,24,2,3,0.5,0.5
2026-03-09T1500,1052A,115.509,38.8895,保定市,华电二区,,38,29,60,26,47,106,106,74,74,28,33,1,3,0.2,0.4
2026-03-09T1500,1053A,115.4588,38.9037,保定市,接待中心,细颗粒物(PM2.5),60,NA,74,40,56,98,98,72,72,9,21,3,2,0.3,0.4
2026-03-09T1500,1054A,115.4484,38.8344,保定市,地表水厂,细颗粒物(PM2.5),56,38,80,38,46,107,107,74,74,14,26,6,5,0.3,0.3
2026-03-09T1500,3581A,115.3136,38.9511,保定市,满城区生态环境分局,颗粒物(PM10),53,53,87,24,56,106,106,73,73,9,36,4,5,0.1,0.3
2026-03-09T1500,3582A,115.4709,38.7628,保定市,清苑区第二中学,细颗粒物(PM2.5),92,80,83,56,50,112,112,78,78,12,28,5,3,0.5,0.5
2026-03-09T1500,3583A,115.6231,39.0223,保定市,徐水物探局,颗粒物(PM10),53,54,74,31,50,107,107,71,71,8,26,1,2,0.4,0.5
2026-03-09T1500,4004A,115.4199,38.8665,保定市,双鹰农机,,46,40,81,32,53,112,112,82,82,26,28,8,6,0.5,0.6
2026-03-09T1500,4034A,115.515,38.8589,保定市,植保所站,颗粒物(PM10),53,53,70,34,47,106,106,75,75,11,25,1,2,0.5,0.5
2026-03-09T1500,2594A,99.1589,25.1137,保山市,市环境监测站,颗粒物(PM10),58,60,66,38,50,141,141,103,103,7,11,3,2,0.3,0.4
2026-03-09T1500,2595A,99.1616,25.1381,保山市,市环保局,"颗粒物(PM10),细颗粒物(PM2.5)",60,63,73,40,53,140,140,110,110,6,8,5,4,0.6,0.7
2026-03-09T1500,1867A,109.1435,21.4085,北海市,海滩公园,颗粒物(PM10),65,70,57,39,28,50,50,93,79,13,14,4,6,0.7,0.5
2026-03-09T1500,1868A,109.0983,21.466,北海市,新市环保局,NA,NA,58,54,32,29,46,46,95,70,12,15,7,9,NA,0.5
2026-03-09T1500,1869A,109.1775,21.5232,北海市,北海工业园,颗粒物(PM10),58,60,62,31,37,43,43,79,67,9,14,6,8,1.0,0.7
2026-03-09T1500,3400A,109.1844,21.4396,北海市,龙潭自来水厂,颗粒物(PM10),65,71,55,37,31,45,45,74,68,10,12,10,11,1.2,0.9
2026-03-09T1500,1001A,116.3611,39.8786,北京市,万寿西宫,,29,10,17,3,12,91,91,74,74,16,22,2,2,0.2,0.3
2026-03-09T1500,1003A,116.4174,39.9289,北京市,东四,,28,10,19,6,14,88,88,66,66,6,18,4,5,0.2,0.4
2026-03-09T1500,1004A,116.4073,39.8858,北京市,天坛,,27,9,18,3,13,86,86,66,66,8,16,2,2,0.6,0.7
2026-03-09T1500,1005A,116.4622,39.9364,北京市,农展馆,,29,9,17,3,11,90,90,71,71,8,18,4,4,0.3,0.4
2026-03-09T1500,1006A,116.3399,39.9293,北京市,官园,,24,9,15,3,11,76,76,63,63,9,18,4,4,0.3,0.6
2026-03-09T1500,1007A,116.2879,39.9613,北京市,海淀万柳,,24,10,14,3,10,75,75,56,56,16,27,2,3,0.3,0.4
2026-03-09T1500,1008A,116.6635,40.1349,北京市,顺义新城,,28,7,12,3,9,89,89,78,78,11,11,3,3,0.3,0.3
2026-03-09T1500,1009A,116.6275,40.327,北京市,怀柔镇,,27,8,9,3,6,85,85,68,68,7,10,4,4,0.4,0.4
2026-03-09T1500,1010A,116.2295,40.217,北京市,昌平镇,,23,8,10,3,6,73,73,65,65,14,21,3,2,0.4,0.4
2026-03-09T1500,1011A,116.3968,39.982,北京市,奥体中心,,24,10,17,3,11,76,76,58,58,6,24,3,4,0.3,0.4
2026-03-09T1500,3418A,116.8336,40.4095,北京市,密云新城,,28,6,6,3,4,89,89,75,75,8,10,2,3,0.2,0.3
2026-03-09T1500,3671A,116.0879,39.9725,北京市,门头沟三家店,,26,14,16,3,11,82,82,62,62,6,18,3,3,0.3,0.4
2026-03-09T1500,3672A,116.1507,39.8246,北京市,丰台云岗,,29,11,19,6,15,90,90,72,72,10,14,1,2,0.3,0.4
2026-03-09T1500,3674A,115.9578,39.7602,北京市,房山燕山,,25,10,22,6,16,79,79,64,64,14,16,3,3,0.2,0.3
2026-03-09T1500,3675A,116.4669,39.7734,北京市,大兴旧宫,,27,10,18,3,12,86,86,62,62,12,26,3,3,0.3,0.4
2026-03-09T1500,3694A,115.9859,40.4562,北京市,延庆石河营,,28,6,9,3,6,89,89,58,58,5,17,1,2,0.3,0.4
2026-03-09T1500,3695A,116.6151,40.3052,北京市,怀柔新城,,27,8,10,3,6,85,85,69,69,12,10,2,3,0.2,0.2
2026-03-09T1500,3696A,116.2542,39.8764,北京市,丰台小屯,,26,12,18,7,12,81,81,58,58,13,22,3,3,0.2,0.3
2026-03-09T1500,3697A,116.8399,40.3843,北京市,密云镇,,29,6,8,3,5,90,90,69,69,7,11,3,4,0.2,0.3
2026-03-09T1500,4057A,115.9423,40.4431,北京市,延庆百泉,,28,6,9,3,6,89,89,61,61,9,17,3,3,0.3,0.4
2026-03-09T1500,4058A,116.6598,39.9164,北京市,通州新华,,24,10,18,3,10,76,76,64,64,16,25,3,3,0.3,0.4
2026-03-09T1500,4182A,116.1942,39.9158,北京市,石景山八角,,24,11,14,3,9,76,76,57,57,6,16,3,3,0.1,0.2
2026-03-09T1500,4194A,117.078628,40.151726,北京市,平谷新城,,29,6,9,3,5,92,92,72,72,10,15,1,2,0.3,0.3
2026-03-09T1500,1761A,123.8274146,41.31234549,本溪市,大峪,颗粒物(PM10),58,61,81,36,51,105,105,86,86,16,25,11,11,0.6,0.8
2026-03-09T1500,1763A,123.7169,41.3094,本溪市,彩屯,颗粒物(PM10),56,58,89,31,52,106,106,92,92,13,20,8,11,0.6,0.8
2026-03-09T1500,1764A,123.7672166,41.28649327,本溪市,东明,细颗粒物(PM2.5),56,44,73,38,55,100,100,86,86,12,26,8,12,0.7,0.9
2026-03-09T1500,1765A,123.799345,41.266614,本溪市,新立屯,颗粒物(PM10),60,63,65,37,51,104,104,86,86,11,31,8,8,0.5,0.8
2026-03-09T1500,1766A,123.829144,41.336777,本溪市,威宁,颗粒物(PM10),68,75,105,41,64,108,108,84,84,13,38,8,7,0.6,0.8
2026-03-09T1500,2587A,105.287,27.3133,毕节市,八中,,20,NA,10,7,7,61,61,52,52,5,8,10,9,0.5,0.7
2026-03-09T1500,2588A,105.3079,27.2987,毕节市,师专,,19,NA,7,3,6,60,60,50,50,7,9,8,8,0.4,0.5
2026-03-09T1500,4263A,105.3688,27.3598,毕节市,工业大道,,20,15,8,3,8,62,62,55,55,3,6,9,9,/,/
2026-03-09T1500,1629A,117.9961,37.3604,滨州市,第二水厂,,32,29,86,12,68,101,101,83,83,11,23,10,11,0.1,0.3
2026-03-09T1500,1630A,117.9789,37.3931,滨州市,北中新校,,31,29,92,10,69,97,97,77,77,12,28,10,12,0.1,0.4
2026-03-09T1500,3514A,117.9379,37.3959,滨州市,中海酒店,,32,22,92,9,73,102,102,86,86,14,31,8,9,0.5,0.8
2026-03-09T1500,3515A,117.9381509,37.35547456,滨州市,开发区一中,,31,29,89,10,67,99,99,84,84,4,16,11,12,0.5,0.7
2026-03-09T1500,3516A,118.0914,37.6938,滨州市,金海六路,,33,15,91,3,76,103,103,93,93,9,26,6,6,0.3,0.8
2026-03-09T1500,4028A,117.9955,37.3752,滨州市,滨州市西街道办事处,,32,29,88,11,68,101,101,84,84,6,17,14,14,0.3,0.5
2026-03-09T1500,2311A,115.8071,33.8399,亳州市,污水处理厂,细颗粒物(PM2.5),119,97,97,80,76,131,131,87,87,15,31,6,6,0.2,0.3
2026-03-09T1500,2312A,115.7789,33.8519,亳州市,三国揽胜宫,细颗粒物(PM2.5),122,116,115,84,78,120,120,84,84,12,27,8,7,0.3,0.3
2026-03-09T1500,3332A,115.7631,33.803,亳州市,亳州学院,细颗粒物(PM2.5),120,104,106,82,74,124,124,89,89,9,21,6,6,0.4,0.4
2026-03-09T1500,2693A,82.0482,44.8553,博尔塔拉蒙古自治州,市党校,颗粒物(PM10),55,57,60,28,27,65,65,54,54,20,17,7,4,0.5,0.4
2026-03-09T1500,2694A,82.0805,44.8966,博尔塔拉蒙古自治州,市环保局,,46,NA,51,32,38,78,78,43,43,22,26,3,1,0.7,0.8
2026-03-09T1500,1071A,116.8733,38.2922,沧州市,沧县城建局,,42,41,108,29,86,88,88,63,63,12,42,5,5,0.4,0.8
2026-03-09T1500,1072A,116.8462,38.3189,沧州市,电视转播站,,38,32,111,26,96,93,93,65,65,17,50,6,3,0.4,0.8
2026-03-09T1500,1073A,116.8588,38.3161,沧州市,市环保局,,39,36,118,27,91,87,87,66,66,12,51,5,4,0.4,0.8
2026-03-09T1500,3324A,116.8011,38.294,沧州市,河北水利电力学院,,46,44,103,32,89,83,83,58,58,12,39,6,5,0.3,0.6
2026-03-09T1500,2622A,97.1813,31.1289,昌都市,昌都监测站,,28,20,39,3,10,88,88,80,80,2,6,2,3,0.6,0.6
2026-03-09T1500,3719A,97.1707,31.1428,昌都市,昌都会议中心,,29,11,33,3,12,90,90,83,83,3,3,6,6,0.4,0.4
2026-03-09T1500,2692A,87.2722,44.0298,昌吉回族自治州,新区政务中心,细颗粒物(PM2.5),170,NA,110,129,119,156,156,118,118,24,26,10,7,1.1,1
2026-03-09T1500,3613A,87.3069,44.0093,昌吉回族自治州,亚心广场,细颗粒物(PM2.5),127,132,141,89,116,158,158,128,127,20,24,14,11,1.1,1.1
2026-03-09T1500,4164A,87.2057,43.9289,昌吉回族自治州,财政所,细颗粒物(PM2.5),117,131,134,78,97,144,144,112,100,19,19,10,7,0.8,0.9
2026-03-09T1500,1120A,125.2874,43.9024,长春市,客车厂,,29,25,57,18,49,91,91,83,83,11,29,8,10,0.3,0.6
2026-03-09T1500,1121A,125.2943,43.8508,长春市,邮电学院,,36,36,57,18,45,94,94,87,87,7,20,8,11,0.4,0.5
2026-03-09T1500,1122A,125.3648,43.8745,长春市,劳动公园,,36,36,75,20,47,95,95,86,86,10,25,7,10,0.6,0.7
2026-03-09T1500,1123A,125.3233,43.8781,长春市,园林处,,33,33,56,19,47,93,93,88,88,9,20,6,9,0.2,0.4
2026-03-09T1500,1124A,125.4604,43.7904,长春市,净月潭,,34,34,57,22,43,95,95,90,90,10,17,7,8,0.3,0.5
2026-03-09T1500,1126A,125.38,43.8422,长春市,经开区环卫处,,34,34,66,18,47,97,97,87,87,8,30,5,8,0.3,0.6
2026-03-09T1500,1127A,125.234,43.7761,长春市,高新区管委会,,31,30,67,20,52,97,97,83,83,8,27,6,10,0.4,0.7
2026-03-09T1500,1128A,125.1695,43.83,长春市,岱山公园,,43,43,70,16,56,90,90,78,78,8,26,5,8,0.4,0.6
2026-03-09T1500,4281A,125.334645,43.916281,长春市,北亚泰大街1068号,,39,39,64,18,50,89,89,82,82,11,28,7,10,0.4,0.6
2026-03-09T1500,1335A,113.082,28.2421,长沙市,经开区环保局,细颗粒物(PM2.5),84,65,44,52,33,44,44,34,29,22,23,3,3,0.5,0.6
2026-03-09T1500,1336A,112.8873,28.2202,长沙市,高开区环保局,细颗粒物(PM2.5),108,NA,45,68,49,63,63,44,44,13,14,5,4,0.8,0.7
2026-03-09T1500,1337A,113.0785,28.2012,长沙市,马坡岭,细颗粒物(PM2.5),110,73,48,70,45,50,50,34,32,19,19,5,4,0.8,0.8
2026-03-09T1500,1338A,112.9448,28.1894,长沙市,湖南师范大学,细颗粒物(PM2.5),102,75,55,62,40,69,69,49,49,15,17,4,4,0.8,0.7
2026-03-09T1500,1339A,113.0177,28.1322,长沙市,雨花区环保局,细颗粒物(PM2.5),88,68,44,54,35,58,58,42,42,21,19,3,3,1.0,1
2026-03-09T1500,1340A,112.9795,28.2593,长沙市,伍家岭,细颗粒物(PM2.5),105,72,52,65,49,63,63,42,42,17,16,4,4,0.7,0.7
2026-03-09T1500,1341A,113.002,28.1944,长沙市,火车新站,细颗粒物(PM2.5),101,68,44,61,41,62,62,43,43,16,16,3,2,0.7,0.7
2026-03-09T1500,1342A,112.9846,28.1177,长沙市,天心区环保局,细颗粒物(PM2.5),105,74,45,65,44,61,61,44,44,16,16,5,5,0.6,0.6
2026-03-09T1500,1343A,112.8906,28.1307,长沙市,湖南中医药大学,细颗粒物(PM2.5),100,78,49,60,44,71,71,48,48,13,14,6,5,0.7,0.8
2026-03-09T1500,1727A,113.1146,36.1547,长治市,清华站,细颗粒物(PM2.5),106,78,68,66,60,94,94,80,80,14,23,6,8,0.9,1.1
2026-03-09T1500,1730A,113.0887,36.2126,长治市,审计局,细颗粒物(PM2.5),109,74,65,69,66,93,93,80,80,11,19,6,8,0.9,0.9
2026-03-09T1500,1731A,113.0845,36.1856,长治市,长治八中,细颗粒物(PM2.5),120,82,79,81,66,95,95,71,71,9,19,8,9,0.9,1
2026-03-09T1500,2845A,113.1561,36.1912,长治市,德盛苑,细颗粒物(PM2.5),115,87,66,76,64,97,97,85,85,13,15,6,8,1.0,0.9
2026-03-09T1500,3568A,113.0603,36.0464,长治市,向阳小学,细颗粒物(PM2.5),116,115,103,77,56,98,98,63,63,16,26,8,12,1.0,1.1
2026-03-09T1500,3569A,112.8788,36.315,长治市,屯留一中,细颗粒物(PM2.5),109,71,72,69,63,106,106,83,83,14,27,4,5,0.9,1
2026-03-09T1500,4189A,113.113092,36.199482,长治市,英华南巷50号,细颗粒物(PM2.5),110,85,72,71,64,94,94,82,82,16,21,6,8,0.8,0.9
2026-03-09T1500,4190A,113.23666,36.33435,长治市,学府街1号,细颗粒物(PM2.5),111,77,70,72,58,98,98,83,83,11,21,2,5,0.9,1
2026-03-09T1500,1854A,111.696,28.9725,常德市,市二中,细颗粒物(PM2.5),92,71,72,56,53,85,85,55,55,7,11,6,6,1.0,1
2026-03-09T1500,3138A,111.7152,29.0288,常德市,武陵区永安,细颗粒物(PM2.5),100,77,69,60,55,87,87,59,59,13,15,4,4,0.7,0.8
2026-03-09T1500,3139A,111.6891,28.9881,常德市,鼎城区玉霞,细颗粒物(PM2.5),86,66,67,53,51,88,88,54,54,12,17,6,6,0.7,0.8
2026-03-09T1500,3140A,111.6651,29.0526,常德市,武陵区长庚,细颗粒物(PM2.5),98,68,62,59,55,94,94,56,56,8,12,6,5,0.9,0.9
2026-03-09T1500,1196A,119.9524,31.7586,常州市,市监测站,颗粒物(PM10),63,67,54,31,21,118,118,87,87,13,33,6,7,0.5,0.6
2026-03-09T1500,1200A,119.9351,31.703,常州市,武进监测站,颗粒物(PM10),56,58,52,37,28,120,120,90,90,9,29,6,8,0.3,0.4
2026-03-09T1500,3002A,119.9701,31.813,常州市,行政中心,颗粒物(PM10),60,64,61,34,28,109,109,80,80,16,35,5,7,0.3,0.4
2026-03-09T1500,3003A,120.0434,31.7726,常州市,经开区,颗粒物(PM10),58,60,60,36,27,123,123,87,87,12,35,13,13,0.5,0.6
2026-03-09T1500,3010A,119.8919,31.7892,常州市,钟楼,颗粒物(PM10),60,63,55,34,26,126,126,90,90,16,33,8,9,0.4,0.6
2026-03-09T1500,3429A,119.8595,31.706,常州市,武进经发区,细颗粒物(PM2.5),66,62,55,43,32,118,118,82,82,14,35,8,9,0.4,0.5
2026-03-09T1500,3430A,119.5812,31.7256,常州市,金坛城区,细颗粒物(PM2.5),84,70,62,52,40,119,119,84,84,12,27,10,10,0.7,0.8
2026-03-09T1500,4089A,119.9551,31.863,常州市,崇义南街5-H号,,50,50,53,35,28,110,110,82,82,12,28,6,6,0.4,0.5
2026-03-09T1500,2220A,120.4318,41.588,朝阳市,西梁,,30,16,28,10,8,94,94,81,81,8,17,5,8,0.4,0.5
2026-03-09T1500,2221A,120.452,41.565,朝阳市,河畔小区,,29,14,25,3,7,91,91,79,79,7,14,6,8,0.3,0.4
2026-03-09T1500,2222A,120.4176,41.5648,朝阳市,八里堡,,29,14,26,3,8,92,92,82,82,8,13,8,9,0.1,0.2
2026-03-09T1500,3026A,116.6179,23.6608,潮州市,市政府,颗粒物(PM10),54,55,37,22,21,128,128,88,88,7,7,10,9,0.4,0.4
2026-03-09T1500,4036A,116.646,23.676,潮州市,金山,,40,40,34,18,20,125,125,82,82,9,8,4,3,0.4,0.4
2026-03-09T1500,2473A,113.0116,25.8228,郴州市,市职中,,9,9,10,3,3,27,27,19,19,15,17,3,3,0.8,0.8
2026-03-09T1500,2475A,113.0381,25.8074,郴州市,市审计局,,9,7,10,3,3,27,27,20,20,12,14,3,3,/,/
2026-03-09T1500,2476A,113.0348,25.7757,郴州市,市环保局,,11,10,15,3,5,34,34,29,29,18,20,3,3,0.6,0.6
2026-03-09T1500,4252A,113.0138,25.8011,郴州市,好美居路49号,,11,6,6,3,6,33,33,28,28,15,16,4,5,/,/
2026-03-09T1500,1431A,103.9727,30.7242,成都市,金泉两河,,31,11,24,10,18,99,99,51,51,13,16,2,2,0.3,0.4
2026-03-09T1500,1432A,104.1423,30.6765,成都市,十里店,,25,18,23,13,21,78,78,42,42,8,19,4,4,0.3,0.5
2026-03-09T1500,1433A,104.0594,30.5765,成都市,三瓦窑,,32,20,23,15,19,102,102,55,55,6,17,2,2,0.5,0.6
2026-03-09T1500,1434A,104.1122,30.6306,成都市,沙河铺,,28,20,28,16,20,88,88,40,40,14,24,5,5,0.3,0.5
2026-03-09T1500,2880A,104.0219,30.6561,成都市,大石西路,,30,22,25,12,19,95,95,51,51,13,20,4,4,0.3,0.6
2026-03-09T1500,3136A,104.2724,30.559,成都市,龙泉驿区区政府,,30,12,20,11,21,94,94,53,53,8,17,6,6,0.4,0.6
2026-03-09T1500,3357A,104.0028,30.6891,成都市,金博路,,30,NA,15,10,18,95,95,50,50,18,22,6,6,0.5,0.7
2026-03-09T1500,3359A,104.056,30.5228,成都市,华阳,,32,14,23,7,17,101,101,55,55,13,21,4,4,0.6,0.7
2026-03-09T1500,3488A,104.387954,30.746684,成都市,青石路225号,,32,11,29,9,23,100,100,50,50,8,20,5,4,0.5,0.8
2026-03-09T1500,3489A,104.0788,30.4054,成都市,科学城,,30,9,24,8,18,96,96,58,58,6,11,7,7,0.6,0.8
2026-03-09T1500,4011A,103.8505,30.6946,成都市,光华大道三段,,34,10,22,10,14,108,108,53,53,14,20,3,3,0.4,0.5
2026-03-09T1500,4144A,104.3257,30.6406,成都市,八角井街185号,NA,NA,NA,34,NA,21,NA,NA,47,38,NA,20,NA,4,NA,0.7
2026-03-09T1500,4224A,104.2433276,30.53529463,成都市,鲸龙路1057号,,30,15,29,9,20,96,96,54,54,10,17,5,5,0.4,0.6
2026-03-09T1500,1062A,117.9531,40.908,承德市,铁路,,30,6,23,3,8,94,94,72,72,7,13,5,3,0.4,0.3
2026-03-09T1500,1063A,117.9397,40.9763,承德市,中国银行,,29,12,18,3,4,90,90,66,66,4,10,11,2,0.6,0.3
2026-03-09T1500,4073A,117.9462,40.95,承德市,杏林街1号,NA,NA,7,20,3,13,94,94,67,67,4,12,NA,3,0.5,0.3
2026-03-09T1500,4274A,117.7994,40.9605,承德市,滨河大街98号,,28,10,21,3,9,89,89,72,72,9,11,44,7,1.3,0.4
2026-03-09T1500,2314A,117.4698,30.6617,池州市,池州学院,细颗粒物(PM2.5),72,62,73,46,56,118,118,79,79,19,31,7,8,0.8,0.9
2026-03-09T1500,3237A,117.4918,30.6617,池州市,展览馆,细颗粒物(PM2.5),66,65,77,43,54,115,115,79,79,19,33,6,7,0.7,0.8
2026-03-09T1500,3333A,117.5626,30.695,池州市,第八中学,细颗粒物(PM2.5),66,68,71,43,48,113,113,78,78,24,38,8,7,0.6,0.7
2026-03-09T1500,3334A,117.5037,30.6242,池州市,第十二中学,"颗粒物(PM10),细颗粒物(PM2.5)",62,66,71,41,49,114,114,76,76,26,37,6,6,0.7,0.9
2026-03-09T1500,1744A,118.9229,42.2816,赤峰市,松山一中,,20,11,14,8,10,64,64,49,48,10,17,3,5,0.6,0.6
2026-03-09T1500,1745A,118.9588,42.2733,赤峰市,哈达街,,27,15,16,3,6,84,84,62,62,10,13,7,9,0.5,0.6
2026-03-09T1500,1746A,118.8792,42.2551,赤峰市,天义路,,29,11,11,3,7,90,90,69,69,4,15,5,6,0.3,0.5
2026-03-09T1500,3058A,119.2656,42.0356,赤峰市,银河街,,31,10,17,3,6,99,99,90,90,4,7,9,12,0.5,0.6
2026-03-09T1500,3286A,118.9359,42.3146,赤峰市,桥北物流园区,,30,6,12,3,7,95,95,72,72,4,15,4,4,0.4,0.6
2026-03-09T1500,2521A,107.3473,22.4137,崇左市,市环保局江州分局,,12,6,70,3,46,38,38,60,38,5,12,4,5,0.9,0.9
2026-03-09T1500,4256A,107.375,22.3736,崇左市,石景林东路7号,,11,6,62,3,46,34,34,64,38,9,14,5,6,1.1,1.1
2026-03-09T1500,3207A,118.31131,32.3033,滁州市,市政府原办公楼,NA,NA,70,64,NA,62,123,123,80,80,13,25,6,5,0.8,0.8
2026-03-09T1500,3331A,118.3268,32.2633,滁州市,图书馆,细颗粒物(PM2.5),82,73,65,51,44,120,120,82,82,16,26,8,8,0.4,0.5
2026-03-09T1500,4101A,118.3196,32.3335,滁州市,银山路666号,细颗粒物(PM2.5),105,76,58,65,48,132,132,85,85,14,27,8,7,0.6,0.6
2026-03-09T1500,4102A,118.3426,32.2979,滁州市,黄山路555号,细颗粒物(PM2.5),107,88,78,67,53,129,129,82,82,16,29,6,6,0.6,0.7
2026-03-09T1500,2606A,101.5379,25.0492,楚雄彝族自治州,市经济开发区,,21,21,67,7,48,45,45,73,51,11,15,8,6,0.8,0.7
2026-03-09T1500,4153A,101.5536,25.0343,楚雄彝族自治州,团结路562号,,28,28,56,16,44,49,49,88,61,9,12,7,9,0.7,0.6
2026-03-09T1500,2549A,107.5087,31.2186,达州市,市环境监测站,,27,19,29,9,13,84,84,33,33,13,25,5,5,0.2,0.4
2026-03-09T1500,2550A,107.4988,31.2132,达州市,凤凰小区,,27,27,28,9,13,85,85,37,37,11,24,4,4,0.3,0.4
2026-03-09T1500,2551A,107.5081,31.1987,达州市,达县机关宾馆,,28,22,26,7,13,89,89,35,35,13,29,3,3,0.4,0.6
2026-03-09T1500,2552A,107.4644,31.2124,达州市,市政中心,NA,NA,NA,36,NA,12,NA,NA,42,26,NA,26,NA,4,NA,0.6
2026-03-09T1500,2614A,100.2168,25.5818,大理白族自治州,大理市环境监测站,细颗粒物(PM2.5),72,54,58,46,52,110,110,106,102,11,10,7,7,0.5,0.5
2026-03-09T1500,2615A,100.1542,25.7055,大理白族自治州,大理古城,细颗粒物(PM2.5),54,48,59,37,43,118,118,101,101,8,9,9,8,0.7,0.7
2026-03-09T1500,1109A,121.6119,38.974,大连市,甘井子,,30,19,58,11,42,94,94,85,85,14,21,9,9,0.5,0.5
2026-03-09T1500,1110A,121.565,38.9509,大连市,周水子,,29,27,61,9,44,91,91,81,81,8,21,8,10,0.4,0.7
2026-03-09T1500,1111A,121.5637,38.8849,大连市,星海三站,,30,30,59,14,42,78,78,71,71,10,15,7,8,0.4,0.6
2026-03-09T1500,1112A,121.6301,38.9117,大连市,青泥洼桥,,27,21,60,10,45,86,86,79,79,14,23,6,6,0.4,0.6
2026-03-09T1500,1113A,121.6248,38.8643,大连市,傅家庄,,25,17,57,7,38,80,80,72,72,12,20,4,5,0.5,0.7
2026-03-09T1500,1114A,121.5117,38.8636,大连市,七贤岭,,28,26,56,8,39,89,89,84,84,11,16,7,8,0.5,0.7
2026-03-09T1500,1116A,121.7507,39.1339,大连市,金州,,30,26,57,13,38,96,96,83,83,7,21,3,5,0.4,0.6
2026-03-09T1500,1117A,121.7811,39.0495,大连市,开发区,,28,26,51,10,35,87,87,81,81,13,20,8,4,0.4,0.6
2026-03-09T1500,1118A,121.9762,39.0631,大连市,双D港,,32,19,49,7,38,102,102,91,91,13,24,5,7,0.1,0.2
2026-03-09T1500,4082A,121.2548,38.8188,大连市,旅顺,,28,17,63,8,44,89,89,78,78,4,21,7,6,0.3,0.7
2026-03-09T1500,1789A,124.8085,46.0381,大庆市,大同区,,38,38,56,14,40,99,99,92,92,7,14,9,10,0.5,0.6
2026-03-09T1500,1790A,125.1166,46.5255,大庆市,龙凤区,,39,39,61,23,44,90,90,77,77,11,30,8,6,0.2,0.4
2026-03-09T1500,1791A,124.8894,46.4007,大庆市,红岗区,,29,29,56,12,44,85,85,77,77,10,23,7,8,0.4,0.6
2026-03-09T1500,1792A,125.1391,46.578,大庆市,萨尔图区,,40,36,60,28,40,90,90,78,78,13,28,6,6,0.5,0.7
2026-03-09T1500,1793A,124.9026,46.6217,大庆市,让胡路区,NA,NA,NA,57,NA,52,NA,NA,82,76,NA,24,NA,7,NA,0.6
2026-03-09T1500,3481A,125.127,46.6277,大庆市,萨区政府监测点,,30,28,65,14,41,94,94,80,80,8,24,9,9,0.6,0.8
2026-03-09T1500,1723A,113.2926,40.0759,大同市,云冈宾馆,,49,46,26,34,15,88,88,63,63,18,17,16,12,0.5,0.7
2026-03-09T1500,1724A,113.3437,40.0921,大同市,大同大学,细颗粒物(PM2.5),52,51,35,36,18,96,96,85,85,15,16,11,10,0.5,0.5
2026-03-09T1500,1725A,113.2637,40.129,大同市,安家小村,颗粒物(PM10),58,61,42,26,15,96,96,60,60,15,19,12,11,0.4,0.7
2026-03-09T1500,3282A,113.3399,40.0586,大同市,大同市卫生学校,,46,46,27,23,13,100,100,73,73,12,13,11,11,0.5,0.6
2026-03-09T1500,3565A,113.1371,40.1122,大同市,云冈站,颗粒物(PM10),62,66,40,31,15,98,98,61,61,17,21,13,13,0.5,0.5
2026-03-09T1500,3566A,113.1186,40.2556,大同市,图书馆,,32,32,31,20,16,87,87,62,62,15,11,8,9,0.4,0.6
2026-03-09T1500,3567A,113.5931,40.0459,大同市,区一中,,32,32,26,10,16,100,100,75,75,8,9,12,8,0.5,0.6
2026-03-09T1500,4199A,113.2798248,40.09972476,大同市,魏都大道141号,颗粒物(PM10),57,59,48,31,19,97,97,63,63,15,21,14,13,0.4,0.7
2026-03-09T1500,2269A,124.1068,50.4091,大兴安岭地区,科技局,,26,16,26,8,12,81,81,74,74,4,8,6,7,0.3,0.3
2026-03-09T1500,3663A,124.117,50.4279,大兴安岭地区,红旗社区,NA,NA,7,30,7,29,85,85,43,NA,11,24,NA,12,0.4,0.6
2026-03-09T1500,1600A,124.33,40.0625,丹东市,江湾东路,,33,31,57,17,42,103,103,90,90,9,20,7,10,0.3,0.9
2026-03-09T1500,1601A,124.4242,40.1513,丹东市,临江后街,,31,27,57,13,43,97,97,86,86,10,27,7,12,0.3,0.9
2026-03-09T1500,1602A,124.3935,40.1461,丹东市,元宝山,,30,23,44,13,32,96,96,84,84,8,17,5,6,0.4,0.7
2026-03-09T1500,1603A,124.3634,40.1093,丹东市,民主桥,,31,27,60,14,43,99,99,87,87,11,24,5,6,0.3,0.6
2026-03-09T1500,3541A,109.5726195,19.51688767,儋州市,第一中学子站,,23,19,25,8,11,72,72,70,66,2,2,6,6,0.4,0.4
2026-03-09T1500,3542A,109.5567,19.5187,儋州市,东坡学校子站,,25,15,28,9,12,77,77,76,70,2,3,3,4,0.5,0.5
2026-03-09T1500,2616A,98.5611,24.4273,德宏傣族景颇族自治州,德宏州监测站,细颗粒物(PM2.5),80,58,86,50,74,140,140,62,62,12,28,8,7,0.6,0.9
2026-03-09T1500,3677A,98.5887,24.4366,德宏傣族景颇族自治州,芒市人民政府综合楼,细颗粒物(PM2.5),92,92,100,56,66,134,134,68,68,12,16,6,5,0.6,0.8
2026-03-09T1500,1901A,104.424,31.1209,德阳市,东山公园,,32,11,28,3,26,102,102,51,51,4,20,2,2,0.4,0.6
2026-03-09T1500,1902A,104.3827,31.1318,德阳市,西小区,,32,18,41,3,24,102,102,50,50,6,27,2,3,0.4,0.7
2026-03-09T1500,1904A,104.3553,31.1091,德阳市,耐火材料厂,,32,18,38,3,28,100,100,48,48,9,26,1,2,0.4,0.7
2026-03-09T1500,4145A,104.4144,31.1495,德阳市,市林业局,NA,NA,11,34,6,25,108,108,53,53,NA,24,4,5,0.4,0.7
2026-03-09T1500,1622A,116.3034,37.4675,德州市,儿童乐园,,41,41,130,23,93,103,103,72,72,12,43,11,12,0.4,0.8
2026-03-09T1500,1624A,116.2992,37.4449,德州市,监理站,,39,39,124,22,88,102,102,76,76,16,41,3,6,0.5,0.9
2026-03-09T1500,3066A,116.2722,37.438,德州市,九衢泉纯净水厂,,36,36,115,24,89,108,108,80,80,16,38,5,7,0.6,1
2026-03-09T1500,3371A,116.3693,37.44,德州市,开发区人民医院,,44,44,131,20,96,102,102,70,70,15,47,12,12,0.5,0.9
2026-03-09T1500,3511A,116.5687,37.3331,德州市,陵城艺术中心,,32,27,128,17,105,100,100,66,66,11,33,5,8,0.6,1
2026-03-09T1500,4292A,116.352738,37.420875,德州市,新河东路,,39,39,122,20,88,101,101,69,69,14,40,11,11,0.4,0.8
2026-03-09T1500,2621A,99.7054,27.8319,迪庆藏族自治州,迪庆州站,,35,31,43,21,25,111,111,104,104,7,8,6,6,0.5,0.6
2026-03-09T1500,3180A,99.7122,27.8129,迪庆藏族自治州,质量技术监督局,,35,31,36,20,23,109,109,98,98,6,7,6,6,0.2,0.2
2026-03-09T1500,4257A,104.6092,35.5962,定西市,将台街,,37,37,46,17,28,114,114,80,80,6,15,8,7,0.4,0.5
2026-03-09T1500,4309A,104.6159,35.5701,定西市,正龙路62号,,33,32,38,23,22,105,105,74,74,6,7,4,2,0.3,0.4
2026-03-09T1500,4071A,114.9883,38.5232,定州市,交通局,细颗粒物(PM2.5),105,87,86,65,63,120,120,88,88,21,25,11,9,0.7,0.6
2026-03-09T1500,4072A,115.0045,38.5136,定州市,第五中学,细颗粒物(PM2.5),104,103,104,64,66,114,114,85,85,14,26,9,7,0.6,0.6
2026-03-09T1500,1390A,113.7943,23.0132,东莞市,东城石井,颗粒物(PM10),55,56,52,35,28,143,143,88,88,17,25,7,6,0.7,0.6
2026-03-09T1500,1391A,113.7384,22.9659,东莞市,南城西平,,50,50,52,32,27,127,127,81,81,16,26,9,8,0.7,0.6
2026-03-09T1500,3319A,113.7283,23.041,东莞市,万江金泰,细颗粒物(PM2.5),70,65,57,45,34,151,151,95,95,16,22,7,6,0.7,0.7
2026-03-09T1500,4129A,113.8666,23.1062,东莞市,裕兴路,,49,42,37,34,30,129,129,84,84,13,20,8,8,0.7,0.7
2026-03-09T1500,4130A,114.0076,22.9739,东莞市,教育路1号,颗粒物(PM10),51,51,52,31,26,129,129,89,89,15,21,6,6,0.6,0.5
2026-03-09T1500,4131A,113.7981,22.8124,东莞市,长怡路1号,颗粒物(PM10),63,68,62,38,29,138,138,85,85,22,27,7,7,0.7,0.7
2026-03-09T1500,1666A,118.6612,37.4313,东营市,市环保局,,30,22,67,3,55,95,95,82,82,10,17,9,8,0.4,0.6
2026-03-09T1500,3036A,118.6903,37.4337,东营市,开发区管委会,NA,NA,26,67,3,53,NA,NA,83,83,NA,25,10,8,0.3,0.7
2026-03-09T1500,3365A,118.5721,37.5654,东营市,垦利区民丰路,,33,9,65,3,60,103,103,89,89,8,22,9,11,0.5,0.7
2026-03-09T1500,3498A,118.5063,37.8606,东营市,河口城区,,30,9,62,3,49,96,96,85,85,6,19,4,5,0.6,0.9
2026-03-09T1500,3646A,118.4979,37.4623,东营市,胜利站,,30,22,81,3,57,95,95,80,80,10,20,8,7,0.7,1
2026-03-09T1500,3734A,118.5753,37.4405,东营市,理想之城,NA,NA,NA,90,2,55,102,102,83,83,13,24,5,4,0.6,0.8
2026-03-09T1500,1591A,110.0024,39.8127,鄂尔多斯市,综合楼,,34,34,36,15,12,107,107,74,74,12,29,10,10,0.4,0.4
2026-03-09T1500,1592A,109.9485,39.8259,鄂尔多斯市,巴音孟克林场办事处,,36,36,32,11,10,110,110,79,79,8,22,7,7,0.5,0.5
2026-03-09T1500,1593A,109.7734,39.5987,鄂尔多斯市,康泽苑,,39,39,32,10,11,117,117,74,74,9,14,11,10,0.4,0.4
2026-03-09T1500,1594A,109.8121,39.5987,鄂尔多斯市,华泰汽车城,,38,31,34,17,12,119,119,67,67,9,21,14,11,0.4,0.4
2026-03-09T1500,1595A,109.9734,39.7884,鄂尔多斯市,奥林花园,,39,39,37,13,14,111,111,75,75,8,27,9,8,0.3,0.4
2026-03-09T1500,2436A,114.894,30.3989,鄂州市,市政府,细颗粒物(PM2.5),80,59,72,50,54,92,92,78,78,17,28,10,10,0.5,0.8
2026-03-09T1500,2437A,114.8986,30.3714,鄂州市,赵家坝,细颗粒物(PM2.5),76,66,79,48,57,105,105,80,80,13,21,15,10,0.5,0.8
2026-03-09T1500,3654A,114.8093,30.4091,鄂州市,精准医疗中心,细颗粒物(PM2.5),92,63,68,56,51,119,119,89,89,12,19,10,15,0.6,0.8
2026-03-09T1500,2454A,109.4978,30.2979,恩施土家族苗族自治州,湖北民院,,30,28,23,12,15,96,96,40,40,7,15,6,6,0.4,0.7
2026-03-09T1500,3549A,109.5061,30.3771,恩施土家族苗族自治州,龙凤新区,,30,20,17,12,11,95,95,41,41,4,9,7,7,0.3,0.6
2026-03-09T1500,2499A,108.3411,21.6159,防城港市,沙万,颗粒物(PM10),52,52,76,19,41,38,38,66,43,11,21,6,7,0.8,0.7
2026-03-09T1500,2500A,108.3515,21.7733,防城港市,防城档案局,,38,38,75,19,47,32,32,34,34,12,19,5,6,0.8,0.8
2026-03-09T1500,2501A,108.3506,21.6414,防城港市,大海花园,,34,34,58,22,46,35,35,65,44,17,17,6,8,0.8,0.6
2026-03-09T1500,1371A,113.1293,23.0065,佛山市,湾梁,细颗粒物(PM2.5),60,56,59,40,41,138,138,71,71,18,32,/,/,/,/
2026-03-09T1500,1372A,113.1082,23.0477,佛山市,华材职中,NA,NA,66,68,40,41,121,121,75,75,20,34,7,6,NA,0.6
2026-03-09T1500,1373A,113.1439,23.045,佛山市,南海气象局,颗粒物(PM10),53,54,55,34,39,133,133,75,75,18,32,/,/,/,/
2026-03-09T1500,1374A,113.2879,22.8094,佛山市,顺德苏岗,NA,NA,48,58,42,32,112,112,68,64,NA,26,/,/,NA,0.7
2026-03-09T1500,1376A,112.8384,22.8678,佛山市,高明孔堂,细颗粒物(PM2.5),84,62,54,52,36,125,125,68,66,24,19,/,/,/,/
2026-03-09T1500,1377A,112.8835,23.1584,佛山市,三水监测站,细颗粒物(PM2.5),52,46,72,36,46,78,78,63,63,11,32,6,6,0.7,0.7
2026-03-09T1500,1378A,112.8668,23.185,佛山市,三水云东海,,46,44,58,32,42,78,78,62,62,12,26,/,/,/,/
2026-03-09T1500,3625A,113.2568,22.7629,佛山市,容桂街道办,细颗粒物(PM2.5),60,58,53,40,32,92,92,65,62,30,31,/,/,/,/
2026-03-09T1500,1282A,119.2681,26.0506,福州市,师大,,34,34,40,13,17,101,101,90,90,10,14,3,4,0.3,0.5
2026-03-09T1500,1283A,119.2983,26.1028,福州市,五四北路,,32,32,36,15,16,97,97,84,84,13,15,4,5,0.3,0.5
2026-03-09T1500,1284A,119.2648,26.0769,福州市,杨桥西路,,34,34,39,13,17,103,103,89,89,11,14,4,5,/,/
2026-03-09T1500,3048A,119.5799,26.0937,福州市,九龙,,34,27,32,17,8,106,106,91,91,8,13,4,5,0.4,0.4
2026-03-09T1500,3526A,119.5188,25.9666,福州市,吴航,,33,33,32,16,14,102,102,95,95,11,12,5,6,0.4,0.4
2026-03-09T1500,4104A,119.3106,26.0648,福州市,路通桥巷6号,,39,39,40,19,20,99,99,95,95,7,11,/,/,/,/
2026-03-09T1500,1755A,123.7974,41.8494,抚顺市,望花区,颗粒物(PM10),60,63,96,30,60,111,111,91,91,11,31,6,11,0.6,0.8
2026-03-09T1500,1756A,123.9161,41.8827,抚顺市,顺城区,颗粒物(PM10),55,56,80,35,60,110,110,90,90,13,28,9,10,0.5,0.7
2026-03-09T1500,1757A,124.0437,41.8615,抚顺市,东洲区,颗粒物(PM10),60,63,96,32,63,101,101,86,86,16,26,9,11,0.5,0.8
2026-03-09T1500,1758A,123.9246,41.8638,抚顺市,新抚区,颗粒物(PM10),63,67,91,34,57,119,119,97,97,13,23,8,10,0.5,0.7
2026-03-09T1500,1759A,124.0972,41.8961,抚顺市,大伙房水库,颗粒物(PM10),53,53,87,31,60,108,108,94,94,10,32,11,12,0.5,0.8
2026-03-09T1500,1760A,123.708,41.8386,抚顺市,沈抚新城,颗粒物(PM10),61,65,88,25,56,104,104,86,86,12,35,7,12,0.4,0.6
2026-03-09T1500,2377A,116.3544,27.9833,抚州市,市站,细颗粒物(PM2.5),60,52,53,40,45,75,75,66,62,9,9,17,8,0.8,0.9
2026-03-09T1500,2378A,116.3562,27.9631,抚州市,血防站,NA,NA,NA,89,35,43,69,69,65,59,8,7,9,5,0.8,0.8
2026-03-09T1500,2379A,116.3561,28.0007,抚州市,采茶剧团,细颗粒物(PM2.5),60,53,54,40,42,67,67,58,56,10,9,17,8,1.0,1.1
2026-03-09T1500,2380A,116.3854,27.9648,抚州市,医学分院,颗粒物(PM10),55,56,59,32,40,72,72,64,61,8,10,7,8,1.1,1.2
2026-03-09T1500,2207A,121.6095,41.9978,阜新市,工业园区,,29,19,44,3,5,92,92,81,81,4,9,6,8,0.3,0.3
2026-03-09T1500,2208A,121.6567,42.0188,阜新市,长青街,,29,14,27,3,4,91,91,80,80,4,6,6,7,0.3,0.3
2026-03-09T1500,2209A,121.6672,42.07,阜新市,农业园区,,26,21,32,3,5,83,83,76,76,7,9,6,4,0.4,0.5
2026-03-09T1500,2211A,121.6343,42.0455,阜新市,玉龙新城,,29,17,33,3,4,91,91,82,82,5,9,4,5,0.3,0.3
2026-03-09T1500,2301A,115.8276,32.8929,阜阳市,市监测站,细颗粒物(PM2.5),100,88,97,60,71,115,115,79,79,14,31,6,5,0.5,0.5
2026-03-09T1500,2303A,115.8551,32.8606,阜阳市,开发区,细颗粒物(PM2.5),82,79,109,51,70,116,116,84,84,8,22,7,6,0.5,0.6
2026-03-09T1500,2875A,115.783962,32.889217,阜阳市,阜阳职业技术学院,细颗粒物(PM2.5),84,59,78,52,61,116,116,91,91,13,20,8,7,0.5,0.5
2026-03-09T1500,3468A,115.79,32.8614,阜阳市,市规划展馆,细颗粒物(PM2.5),100,85,88,60,65,122,122,99,99,11,17,8,8,0.6,0.6
2026-03-09T1500,3469A,115.835101,32.918568,阜阳市,枣园社区,细颗粒物(PM2.5),102,80,102,62,74,116,116,81,81,11,27,10,9,0.6,0.6
2026-03-09T1500,2669A,102.9097,34.9841,甘南藏族自治州,州政府,,40,NA,25,28,18,83,83,61,58,3,10,1,3,0.2,0.4
2026-03-09T1500,3380A,102.8915,34.9618,甘南藏族自治州,甘肃民族师范学院,,30,25,23,12,14,96,96,70,70,8,13,3,3,0.4,0.4
2026-03-09T1500,2570A,101.96,30.048,甘孜藏族自治州,水桥子,,23,6,7,3,2,71,71,63,57,5,6,3,3,0.5,0.4
2026-03-09T1500,3065A,101.9534,29.9976,甘孜藏族自治州,州环保局,,25,6,6,3,4,79,79,70,70,8,8,6,5,0.4,0.4
2026-03-09T1500,2363A,114.9368,25.8663,赣州市,地委,,20,18,33,7,24,62,62,53,53,15,13,4,2,0.7,0.9
2026-03-09T1500,2364A,114.946,25.8483,赣州市,气象台,,22,21,39,13,25,68,68,59,58,19,16,5,6,0.5,0.5
2026-03-09T1500,2365A,114.932,25.8332,赣州市,市图书馆,,20,15,30,3,24,63,63,53,53,15,13,4,4,0.6,0.6
2026-03-09T1500,2366A,114.8905,25.8472,赣州市,华坚鞋城,,21,17,33,8,24,65,65,54,54,15,13,5,6,0.3,0.4
2026-03-09T1500,3109A,115.0094,25.8614,赣州市,赣县区卫计委,,18,11,29,3,23,55,55,44,44,8,8,4,4,0.8,0.8
2026-03-09T1500,2684A,106.2753,36.0057,固原市,监测站,,32,19,59,7,28,101,101,70,70,8,26,8,10,0.4,0.8
2026-03-09T1500,2685A,106.2384,36.0189,固原市,新区,,31,27,51,19,25,99,99,64,64,6,32,8,8,0.3,0.7
2026-03-09T1500,2544A,106.6307,30.4577,广安市,市委,,26,24,28,17,24,83,83,43,43,7,11,5,5,0.6,0.7
2026-03-09T1500,2545A,106.6266,30.4662,广安市,友谊中学,,36,36,26,12,20,84,84,43,43,10,11,10,9,0.8,0.9
2026-03-09T1500,2547A,106.6386,30.4551,广安市,广电花园,,27,27,32,17,24,72,72,38,38,11,13,8,8,0.6,0.7
2026-03-09T1500,2902A,106.6347,30.4868,广安市,北辰小学,,30,30,27,17,24,80,80,40,40,10,11,2,2,0.7,0.8
2026-03-09T1500,2524A,105.8211,32.4444,广元市,老城,,31,12,23,3,6,97,97,64,64,7,20,3,4,0.7,1
2026-03-09T1500,2526A,105.8629,32.429,广元市,监测站,,28,25,28,9,6,88,88,62,62,8,18,7,3,0.3,0.5
2026-03-09T1500,3617A,105.8047,32.4167,广元市,经开区,,28,16,17,10,11,88,88,59,59,7,19,4,7,0.6,0.8
2026-03-09T1500,1345A,113.2346,23.1423,广州市,广雅中学,颗粒物(PM10),54,55,61,31,35,107,107,63,63,18,39,4,3,0.7,0.6
2026-03-09T1500,1346A,113.2611,23.105,广州市,市五中,细颗粒物(PM2.5),54,52,54,37,33,133,133,81,81,18,35,7,8,/,/
2026-03-09T1500,1348A,113.3477,23.0916,广州市,广东商学院,细颗粒物(PM2.5),56,53,52,38,34,108,108,69,69,14,33,6,6,0.7,0.7
2026-03-09T1500,1349A,113.4332,23.105,广州市,市八十六中,,45,43,58,31,28,111,111,74,74,15,47,5,6,/,/
2026-03-09T1500,1350A,113.3506,22.9488,广州市,番禺中学,颗粒物(PM10),62,66,80,34,33,120,120,69,69,14,27,5,4,1.1,0.6
2026-03-09T1500,1351A,113.2147,23.3918,广州市,花都师范,,49,49,53,34,35,81,81,71,71,12,19,7,8,0.9,0.8
2026-03-09T1500,1352A,113.2599,23.1329,广州市,市监测站,颗粒物(PM10),55,57,64,35,36,108,108,63,63,18,41,2,1,/,/
2026-03-09T1500,1353A,113.5618,23.3119,广州市,九龙镇镇龙,细颗粒物(PM2.5),58,52,58,39,35,93,93,72,72,10,29,5,6,0.5,0.5
2026-03-09T1500,1354A,113.2764,23.1544,广州市,麓湖,颗粒物(PM10),55,56,55,36,34,114,114,64,64,11,32,3,3,0.7,0.7
2026-03-09T1500,2846A,113.3209,23.1323,广州市,体育西,颗粒物(PM10),53,54,58,33,32,108,108,65,65,16,37,6,6,0.8,0.8
2026-03-09T1500,3298A,113.5718,23.5493,广州市,从化街口,,46,42,55,32,38,82,82,64,64,7,21,9,11,0.7,0.7
2026-03-09T1500,3299A,113.3463,23.369,广州市,白云竹料,,46,45,59,32,38,87,87,75,75,10,24,4,4,0.8,0.7
2026-03-09T1500,3300A,113.2981,23.2365,广州市,白云嘉禾,颗粒物(PM10),51,51,65,33,37,102,102,66,66,19,44,11,10,/,/
2026-03-09T1500,3301A,113.4256,23.1716,广州市,黄埔科学城,细颗粒物(PM2.5),54,50,57,37,38,112,112,74,74,9,29,8,8,0.7,0.6
2026-03-09T1500,3302A,113.3942,23.0485,广州市,番禺大学城,颗粒物(PM10),58,61,63,33,30,124,124,72,72,23,30,6,6,0.5,0.5
2026-03-09T1500,3303A,113.4923,22.8169,广州市,南沙黄阁,细颗粒物(PM2.5),70,59,56,45,30,136,136,77,77,32,32,12,7,/,/
2026-03-09T1500,3304A,113.534,22.7893,广州市,南沙街,细颗粒物(PM2.5),68,61,53,44,29,124,124,74,74,20,18,9,8,0.7,0.6
2026-03-09T1500,3443A,113.2905,23.5541,广州市,花都梯面,,46,45,47,32,32,61,61,61,61,10,17,6,7,/,/
2026-03-09T1500,3445A,113.786,23.7479,广州市,从化良口,细颗粒物(PM2.5),56,42,33,38,28,74,74,57,57,7,9,4,4,/,/
2026-03-09T1500,3446A,113.805,23.2614,广州市,增城荔城,,50,47,50,35,30,94,94,77,77,10,20,8,8,0.7,0.7
2026-03-09T1500,2506A,109.604387,23.066791,贵港市,江南子站,,11,6,79,3,53,33,33,29,29,11,17,4,6,0.9,0.9
2026-03-09T1500,2508A,109.5669,23.1065,贵港市,荷城子站,,10,6,74,3,61,31,31,28,28,12,19,6,7,0.9,1
2026-03-09T1500,3405A,109.5886,23.1172,贵港市,新世纪学校,,11,9,83,3,63,33,33,29,29,13,21,/,/,1.1,1.1
2026-03-09T1500,4260A,109.5933,23.095,贵港市,中山路155-3号,,10,6,83,3,63,32,32,30,30,11,16,/,/,0.7,1.1
2026-03-09T1500,1439A,106.6863,26.6035,贵阳市,马鞍山,NA,NA,NA,7,NA,7,47,47,36,36,8,10,NA,3,/,/
2026-03-09T1500,1441A,106.6241,26.6266,贵阳市,鉴湖路,,19,19,18,8,8,43,43,35,35,11,13,4,3,0.5,0.6
2026-03-09T1500,1442A,106.7468,26.6344,贵阳市,燕子冲,,17,7,9,3,6,54,54,47,47,12,12,7,6,0.9,1
2026-03-09T1500,1443A,106.6556,26.4362,贵阳市,碧云窝,,17,12,14,8,6,53,53,43,43,14,15,8,8,/,/
2026-03-09T1500,1445A,106.6963,26.6063,贵阳市,红边门,,15,14,11,7,6,48,48,39,39,16,15,10,7,/,/
2026-03-09T1500,1446A,106.7162383,26.56964667,贵阳市,新华路,,22,22,17,3,4,51,51,46,46,13,13,6,3,0.4,0.5
2026-03-09T1500,1447A,106.6742,26.542,贵阳市,太慈桥,,15,6,8,3,5,47,47,36,36,13,16,5,4,/,/
2026-03-09T1500,4230A,106.688212,26.56952,贵阳市,花果园大街66号,NA,NA,NA,6,NA,5,NA,NA,34,34,NA,14,NA,2,NA,NA
2026-03-09T1500,4231A,106.687268,26.516892,贵阳市,漓江路57号,,18,NA,4,9,6,56,56,47,47,12,16,8,7,0.8,0.9
2026-03-09T1500,1864A,110.3091,25.2705,桂林市,龙隐路小学,,15,6,8,3,6,48,48,49,49,9,12,3,3,0.9,1
2026-03-09T1500,1865A,110.2849361,25.22909545,桂林市,八中,,13,9,9,3,1,41,41,41,41,13,15,3,3,0.8,0.9
2026-03-09T1500,3531A,110.296,25.1254,桂林市,旅游学院,,16,14,19,3,4,51,51,48,48,10,14,4,4,0.7,0.8
2026-03-09T1500,4222A,110.1835,25.2444,桂林市,环湖路276号,,12,6,8,3,5,38,38,38,35,10,10,3,3,0.8,0.8
2026-03-09T1500,4301A,110.2803,25.2773,桂林市,信义路13号,,14,6,8,3,3,43,43,45,45,10,12,4,4,0.9,0.9
2026-03-09T1500,2674A,100.2262,34.4854,果洛藏族自治州,玛沁县大武镇,,31,21,39,16,16,98,98,78,78,2,3,19,21,0.3,0.3
2026-03-09T1500,1130A,126.5557,45.8109,哈尔滨市,松北商大,,35,35,54,20,41,99,99,86,86,7,17,13,10,0.4,0.6
2026-03-09T1500,1132A,126.6162,45.719,哈尔滨市,南岗学府路,,33,29,52,23,31,95,95,86,86,9,15,16,13,0.3,0.4
2026-03-09T1500,1133A,126.6894,45.7733,哈尔滨市,太平宏伟公园,,30,30,54,18,39,95,95,84,84,10,20,13,14,0.3,0.6
2026-03-09T1500,1134A,126.6361,45.7672,哈尔滨市,道外承德广场,,48,48,62,15,34,99,99,87,87,10,17,10,11,0.7,0.9
2026-03-09T1500,1136A,126.644,45.7261,哈尔滨市,动力和平路,,33,33,50,10,32,97,97,86,86,10,17,13,14,0.6,0.7
2026-03-09T1500,1137A,126.5933,45.7479,哈尔滨市,道里建国路,,40,40,44,16,35,94,94,86,86,17,22,24,15,0,0.1
2026-03-09T1500,1138A,126.6127,45.6119,哈尔滨市,平房东轻厂,,28,18,52,17,41,87,87,72,72,29,73,9,13,0.5,0.8
2026-03-09T1500,1139A,126.5875,45.9827,哈尔滨市,呼兰师专,,28,25,49,14,36,88,88,81,81,8,17,8,12,0.0,0.3
2026-03-09T1500,1140A,126.6299,45.6799,哈尔滨市,省农科院,,30,26,53,14,31,93,93,86,86,7,18,10,16,0.4,0.6
2026-03-09T1500,4282A,126.6769,45.7379,哈尔滨市,华山路1号,,32,22,52,16,30,101,101,90,90,15,20,19,16,0.4,0.5
2026-03-09T1500,4283A,126.9717,45.5356,哈尔滨市,解放大街52号,,33,33,60,18,35,97,97,86,86,66,24,2,5,0.6,0.8
2026-03-09T1500,2688A,93.5124,42.8176,哈密市,地区监测站,颗粒物(PM10),62,66,45,30,23,102,102,66,66,10,24,11,7,0.4,0.3
2026-03-09T1500,2689A,93.5014,42.8312,哈密市,哈密师范学校,颗粒物(PM10),60,63,56,20,20,104,104,61,61,14,35,11,8,0.7,0.7
2026-03-09T1500,2671A,100.9016,36.9464,海北藏族自治州,海晏县西海镇,,32,27,33,10,25,101,101,92,92,2,4,4,7,0.4,0.5
2026-03-09T1500,3867A,102.074,36.5056,海东市,平安区公安局北苑,,41,41,49,24,34,117,117,81,81,6,12,8,9,1.0,0.7
2026-03-09T1500,4163A,102.0984,36.5119,海东市,滨河路,,34,34,34,20,31,102,102,NA,NA,12,28,7,10,0.9,1
2026-03-09T1500,1410A,110.3189,20.0596,海口市,海南大学,,42,42,38,19,16,107,107,103,99,5,4,6,6,0.4,0.3
2026-03-09T1500,1411A,110.2827,20.0051,海口市,秀英海南医院,,30,29,29,19,15,93,93,91,86,7,6,8,8,0.3,0.4
2026-03-09T1500,1412A,110.3391,19.9979,海口市,海南师范大学,,37,37,39,21,17,106,106,98,95,5,5,6,5,0.4,0.4
2026-03-09T1500,1413A,110.3303,20.0359,海口市,龙华路环保局宿舍,,34,31,34,18,15,106,106,102,98,8,6,/,/,0.3,0.3
2026-03-09T1500,3539A,110.5111,19.9737,海口市,桂林洋子站,,42,42,37,18,16,94,94,96,88,9,7,/,/,/,/
2026-03-09T1500,4134A,110.1952,20.0451,海口市,长滨二路9号,,35,35,30,22,17,100,100,96,92,7,4,/,/,/,/
2026-03-09T1500,2673A,100.6158,36.2985,海南藏族自治州,共和县恰卜恰镇,,32,15,37,12,25,102,102,71,71,2,8,10,10,0.2,0.3
2026-03-09T1500,2676A,97.373,37.376,海西蒙古族藏族自治州,德令哈市,,34,28,28,16,14,106,106,99,96,2,2,15,15,0.3,0.4
2026-03-09T1500,1049A,114.492,36.5712,邯郸市,矿院,,41,41,75,22,53,104,104,81,81,20,28,2,2,0.4,0.6
2026-03-09T1500,1050A,114.4839,36.6136,邯郸市,丛台公园,,48,39,81,33,75,100,100,77,77,9,22,5,4,0.4,0.6
2026-03-09T1500,3458A,114.7893,36.5592,邯郸市,香泉濮院小区,颗粒物(PM10),60,64,95,31,56,111,111,78,78,9,28,3,2,0.5,0.7
2026-03-09T1500,3580A,114.1998,36.4439,邯郸市,峰峰矿区临水派出所,,36,36,62,20,44,112,112,91,91,2,6,2,4,0.5,0.7
2026-03-09T1500,4068A,114.5209,36.7697,邯郸市,建安街268号,,40,39,90,28,67,100,100,74,74,14,39,3,3,0.2,0.6
2026-03-09T1500,4069A,114.5488,36.6177,邯郸市,丛台东路558号,,36,36,80,14,65,103,103,74,74,13,32,1,2,0.4,0.7
2026-03-09T1500,2635A,107.0155,33.0707,汉中市,市监测站,,31,21,22,9,15,97,97,51,51,7,16,5,5,0.5,0.9
2026-03-09T1500,2636A,107.0083,33.114,汉中市,鑫源开发区,,33,23,24,9,18,103,103,50,50,8,21,4,6,0.6,1
2026-03-09T1500,2637A,107.0072,33.0323,汉中市,南郑大河坎水厂,,31,13,25,8,17,99,99,51,51,8,17,5,5,0.5,0.9
2026-03-09T1500,1223A,120.2073,30.2111,杭州市,滨江,,41,41,53,26,31,108,108,81,81,16,27,10,8,0.8,0.6
2026-03-09T1500,1224A,120.0625,30.2737,杭州市,西溪,NA,NA,47,58,21,33,103,103,84,84,NA,22,10,10,0.6,0.5
2026-03-09T1500,1226A,120.3417,30.315,杭州市,下沙,,45,45,49,28,27,104,104,76,76,12,25,10,8,0.8,0.5
2026-03-09T1500,1227A,120.1252,30.2465,杭州市,卧龙桥,,41,41,50,23,31,107,107,83,83,15,22,9,8,0.5,0.4
2026-03-09T1500,1228A,120.1902,30.2691,杭州市,浙江农大,NA,NA,40,47,28,29,111,111,91,91,NA,25,9,7,NA,0.5
2026-03-09T1500,1230A,120.1195,30.3121,杭州市,和睦小学,,42,42,55,25,33,108,108,84,84,15,21,8,7,0.7,0.6
2026-03-09T1500,1231A,120.3076,30.4146,杭州市,临平镇,NA,NA,40,49,NA,27,110,110,83,83,12,20,NA,7,0.7,0.5
2026-03-09T1500,1232A,120.2753,30.1839,杭州市,城厢镇,颗粒物(PM10),53,53,57,26,30,112,112,80,80,15,24,11,10,0.8,0.6
2026-03-09T1500,1233A,120.0883,30.1808,杭州市,云栖,,38,38,53,19,29,109,109,84,84,16,31,6,5,0.7,0.6
2026-03-09T1500,3557A,119.9463,30.0496,杭州市,镇二中,,38,29,53,26,44,114,114,76,76,15,32,6,5,0.7,0.7
2026-03-09T1500,3558A,119.7184,30.2367,杭州市,市府大楼,,38,37,58,26,42,109,109,76,76,11,21,7,7,0.2,0.2
2026-03-09T1500,3656A,120.1554,30.2863,杭州市,消防大队,,44,44,52,27,32,102,102,78,78,12,21,10,8,0.7,0.5
2026-03-09T1500,1270A,117.1957,31.7845,合肥市,明珠广场,细颗粒物(PM2.5),84,66,75,52,56,118,118,91,91,12,21,7,7,0.7,0.8
2026-03-09T1500,1271A,117.307,31.8765,合肥市,三里街,细颗粒物(PM2.5),70,61,69,45,49,110,110,84,84,14,25,7,7,0.5,0.6
2026-03-09T1500,1272A,117.2587,31.8703,合肥市,琥珀山庄,NA,NA,66,74,43,51,113,113,96,96,NA,32,7,7,0.6,0.7
2026-03-09T1500,1275A,117.2593,31.9376,合肥市,庐阳区,NA,NA,68,76,48,48,110,110,65,NA,12,24,NA,8,0.7,0.8
2026-03-09T1500,1276A,117.345251,31.861615,合肥市,瑶海区,颗粒物(PM10),60,63,75,39,43,114,114,91,91,13,29,5,5,0.6,0.7
2026-03-09T1500,1277A,117.3033,31.7967,合肥市,包河区,颗粒物(PM10),60,63,75,39,46,104,104,78,78,30,51,8,8,0.7,0.8
2026-03-09T1500,1278A,117.278,31.7392,合肥市,滨湖新区,细颗粒物(PM2.5),70,73,78,45,47,113,113,89,89,10,20,2,3,0.6,0.7
2026-03-09T1500,1279A,117.1324,31.8395,合肥市,高新区,NA,NA,66,76,42,51,112,112,95,95,14,24,4,4,NA,0.7
2026-03-09T1500,3464A,117.3802,31.9148,合肥市,高教基地,细颗粒物(PM2.5),60,58,69,40,45,121,121,95,95,16,25,9,8,0.5,0.6
2026-03-09T1500,4098A,117.2518,31.8404,合肥市,中国科学技术大学,细颗粒物(PM2.5),62,61,73,41,46,122,122,97,97,9,19,8,9,0.6,0.7
2026-03-09T1500,3614A,79.9241,37.0878,和田地区,地区环保局,颗粒物(PM10),174,298,499,58,100,89,89,61,61,2,13,2,2,0.6,0.8
2026-03-09T1500,3615A,79.9132,37.1137,和田地区,市环保局,颗粒物(PM10),174,298,448,64,104,88,88,57,57,6,28,3,2,0.5,1.1
2026-03-09T1500,2517A,108.0496,24.6957,河池市,市环保站,,15,NA,5,3,4,47,47,35,35,6,6,3,4,0.8,0.8
2026-03-09T1500,4302A,108.0901,24.6945,河池市,上任中路54号,,13,8,4,3,3,39,39,34,34,12,9,5,5,0.7,0.7
2026-03-09T1500,1697A,114.6962,23.7538,河源市,东埔,,43,38,45,30,34,82,82,69,69,7,17,6,6,0.8,0.8
2026-03-09T1500,1698A,114.6895,23.7232,河源市,老城,,40,40,44,26,31,84,84,72,72,6,15,6,6,0.8,0.7
2026-03-09T1500,3374A,115.5562,35.089,菏泽市,定陶老年大学,细颗粒物(PM2.5),108,88,122,68,93,123,123,80,80,11,24,6,6,0.4,0.6
2026-03-09T1500,4114A,115.4239,35.2593,菏泽市,黄河路600号,细颗粒物(PM2.5),108,93,141,68,100,115,115,71,71,11,36,4,3,0.4,0.6
2026-03-09T1500,4115A,115.5025,35.2727,菏泽市,菏泽市人社局,细颗粒物(PM2.5),106,80,129,66,102,112,112,69,69,14,43,4,5,0.6,0.7
2026-03-09T1500,4184A,115.479691,35.244011,菏泽市,永昌路1号,细颗粒物(PM2.5),103,77,130,63,99,122,122,80,80,14,37,3,4,0.2,0.5
2026-03-09T1500,4193A,115.471542,35.280012,菏泽市,长城路999号,细颗粒物(PM2.5),101,81,152,61,101,120,120,77,77,16,41,11,9,0.4,0.6
2026-03-09T1500,2514A,111.5264,24.4178,贺州市,环保小区,,10,7,26,3,20,31,31,31,26,14,12,3,3,1.0,1.1
2026-03-09T1500,2515A,111.561,24.4074,贺州市,政协大楼,,9,9,27,3,20,28,28,28,22,16,16,6,5,0.6,0.8
2026-03-09T1500,3534A,111.4744,24.455,贺州市,西湾,,9,9,39,3,18,28,28,27,23,12,13,6,7,0.8,0.9
2026-03-09T1500,2385A,114.17,35.9019,鹤壁市,市监测站,颗粒物(PM10),63,67,93,40,70,108,108,79,79,8,16,7,6,0.6,0.9
2026-03-09T1500,2386A,114.2953,35.7512,鹤壁市,市交警支队,细颗粒物(PM2.5),74,73,103,47,80,107,107,72,72,11,27,6,8,0.5,0.8
2026-03-09T1500,2387A,114.2877,35.7302,鹤壁市,迎宾馆,细颗粒物(PM2.5),86,79,105,53,79,108,108,73,73,16,30,10,10,0.6,1
2026-03-09T1500,3474A,114.2616,35.6824,鹤壁市,大新区,细颗粒物(PM2.5),104,65,91,64,86,112,112,78,78,18,28,5,6,0.6,1
2026-03-09T1500,3596A,114.1573,35.9607,鹤壁市,南山宾馆,,46,45,93,32,73,107,107,80,80,9,18,7,7,0.5,0.9
2026-03-09T1500,2244A,130.2537,47.3416,鹤岗市,哈啤分公司,NA,NA,37,23,NA,10,86,86,92,90,NA,5,9,9,0.1,0.7
2026-03-09T1500,2245A,130.2683,47.3087,鹤岗市,斯达机电,,31,26,19,15,9,97,97,101,101,4,6,8,8,0.3,0.4
2026-03-09T1500,2246A,130.3114,47.3388,鹤岗市,东山纸板厂,,30,13,28,10,11,94,94,94,94,4,8,6,6,0.3,0.3
2026-03-09T1500,2263A,127.4832,50.2524,黑河市,交通局,,29,16,28,9,19,90,90,89,89,17,16,6,8,0.6,0.5
2026-03-09T1500,2264A,127.5146,50.2339,黑河市,环保局,,30,19,31,9,25,96,96,89,89,10,22,8,11,0.4,0.5
2026-03-09T1500,1074A,115.6839,37.754,衡水市,电机北厂,细颗粒物(PM2.5),72,62,92,46,71,114,114,71,71,12,27,2,6,0.6,0.7
2026-03-09T1500,1075A,115.6303,37.7318,衡水市,市监测站,颗粒物(PM10),60,64,91,37,67,111,111,69,69,16,27,9,9,0.5,0.7
2026-03-09T1500,3188A,115.6684,37.7216,衡水市,市城管局,颗粒物(PM10),63,68,92,40,64,113,113,70,70,15,27,9,8,0.6,0.7
2026-03-09T1500,3459A,115.599,37.5491,衡水市,地表水厂,细颗粒物(PM2.5),76,NA,77,48,68,116,116,70,70,10,23,6,6,0.5,0.6
2026-03-09T1500,2457A,112.6209,26.9268,衡阳市,衡阳化工总厂,,33,NA,17,23,13,38,38,34,34,13,11,9,10,1.0,1
2026-03-09T1500,2458A,112.621,26.8957,衡阳市,珠晖区环保局,,26,21,15,18,8,40,40,33,33,14,18,4,4,0.9,0.9
2026-03-09T1500,2459A,112.628,26.8654,衡阳市,市委党校,,23,21,14,16,9,43,43,38,38,12,13,7,6,1.1,1.1
2026-03-09T1500,2460A,112.6007,26.8977,衡阳市,市监测站,,26,24,20,18,14,40,40,36,36,12,14,6,6,0.9,0.9
2026-03-09T1500,2461A,112.5658,26.9013,衡阳市,真空机电公司,,33,NA,15,23,12,45,45,42,42,14,15,6,6,1.2,1.2
2026-03-09T1500,3399A,112.6703,26.8817,衡阳市,师范学院,NA,NA,10,14,NA,11,41,41,38,38,8,9,4,3,1.0,1
2026-03-09T1500,3038A,103.3757,23.3679,红河哈尼族彝族自治州,州图书馆,,15,15,17,6,15,46,46,57,43,8,6,4,4,0.6,0.5
2026-03-09T1500,4154A,103.401,23.3561,红河哈尼族彝族自治州,蒙自市朝阳路,,14,12,15,8,12,44,44,56,42,8,6,6,7,0.5,0.4
2026-03-09T1500,1090A,111.6506,40.7517,呼和浩特市,呼市一监,,30,27,12,12,11,95,95,73,73,10,14,8,6,0.3,0.4
2026-03-09T1500,1094A,111.7516,40.8369,呼和浩特市,如意水处理厂,,30,18,12,3,7,93,93,72,72,6,16,12,10,0.3,0.3
2026-03-09T1500,1095A,111.727798,40.806187,呼和浩特市,二十九中,,29,18,15,3,7,90,90,68,68,9,14,13,10,0.3,0.4
2026-03-09T1500,1097A,111.717,40.7617,呼和浩特市,化肥厂生活区,,30,18,12,12,7,94,94,71,71,6,10,6,6,0.3,0.3
2026-03-09T1500,3699A,111.6519,40.8389,呼和浩特市,海东办,,29,29,12,8,6,89,89,68,68,8,15,6,3,0.2,0.3
2026-03-09T1500,4275A,111.591512,40.827312,呼和浩特市,成吉思汗西街8号,,34,34,12,8,5,88,88,62,62,8,16,5,4,0.3,0.3
2026-03-09T1500,4276A,111.6597,40.8077,呼和浩特市,公园东路75号,,31,31,13,7,5,85,85,70,70,10,16,10,7,0.3,0.4
2026-03-09T1500,4277A,111.5427,40.7846,呼和浩特市,金海路35号,NA,NA,51,17,11,4,88,88,60,60,NA,20,6,5,0.3,0.3
2026-03-09T1500,3061A,119.7511,49.1576,呼伦贝尔市,国华电力东,,29,29,32,9,15,89,89,86,86,10,16,6,6,0.1,0.1
2026-03-09T1500,4279A,119.7569,49.2222,呼伦贝尔市,伊敏大街东7号,,30,25,26,7,16,94,94,92,92,2,9,6,6,0.2,0.2
2026-03-09T1500,1250A,120.075,30.867,湖州市,城西水厂,,40,40,45,25,28,122,122,97,97,21,20,8,7,0.6,0.4
2026-03-09T1500,2873A,120.083,30.8929,湖州市,仁皇山新区,,41,41,48,28,28,119,119,94,94,18,23,7,7,0.5,0.5
2026-03-09T1500,2907A,120.1846,30.8592,湖州市,吴兴区站,,43,43,50,25,30,111,111,79,79,14,18,7,6,0.4,0.3
2026-03-09T1500,3562A,120.4146,30.8538,湖州市,南浔区站,,35,33,41,22,25,109,109,91,91,16,20,9,9,0.6,0.5
2026-03-09T1500,1607A,120.904878,40.721091,葫芦岛市,龙港区,,37,37,37,15,21,92,92,84,84,10,21,9,11,0.4,0.6
2026-03-09T1500,1608A,120.8382,40.7521,葫芦岛市,化工街,,28,NA,35,10,21,88,88,80,80,9,22,7,12,0.3,0.5
2026-03-09T1500,1609A,120.8339,40.7078,葫芦岛市,新区,,34,34,28,11,19,84,84,77,77,10,19,8,10,0.2,0.4
2026-03-09T1500,1610A,120.8697,40.7679,葫芦岛市,东城区,,28,20,28,16,22,89,89,81,81,11,20,24,13,0.6,0.6
2026-03-09T1500,2483A,109.9297,27.5383,怀化市,河西地税局,,19,18,10,13,7,60,60,65,64,11,10,3,3,/,/
2026-03-09T1500,2484A,109.9783,27.5342,怀化市,市四医院,,23,16,9,16,7,58,58,58,57,8,8,5,5,0.5,0.6
2026-03-09T1500,2485A,109.9971,27.5579,怀化市,监测楼,NA,NA,NA,10,17,9,64,64,59,59,NA,6,1,2,0.7,0.5
2026-03-09T1500,1210A,119.0566,33.5991,淮安市,钵池山,细颗粒物(PM2.5),114,83,58,75,39,118,118,72,72,15,31,11,11,0.4,0.4
2026-03-09T1500,1211A,119.0083,33.578,淮安市,北京南路,细颗粒物(PM2.5),111,75,57,72,42,114,114,72,72,12,26,8,8,0.4,0.5
2026-03-09T1500,1212A,118.9938,33.6083,淮安市,市监测站,细颗粒物(PM2.5),119,NA,52,80,44,123,123,74,74,13,32,12,11,0.6,0.6
2026-03-09T1500,1213A,119.135,33.5038,淮安市,楚州区监测站,细颗粒物(PM2.5),113,85,56,74,41,120,120,77,77,13,32,8,6,0.5,0.3
2026-03-09T1500,3426A,118.8757,33.2897,淮安市,新华书店,细颗粒物(PM2.5),110,91,70,71,50,111,111,70,70,17,34,8,10,0.5,0.5
2026-03-09T1500,4092A,119.119691,33.550006,淮安市,枚皋中路89号,细颗粒物(PM2.5),115,89,54,76,37,116,116,72,72,15,30,11,10,0.5,0.4
2026-03-09T1500,4206A,119.028838,33.631911,淮安市,承德北路606号,细颗粒物(PM2.5),117,102,63,78,37,118,118,73,73,12,33,8,8,0.5,0.5
2026-03-09T1500,2282A,116.8005,33.9749,淮北市,监测站,细颗粒物(PM2.5),130,122,106,93,72,135,135,85,85,18,32,8,7,0.7,0.8
2026-03-09T1500,2283A,116.8094,33.9008,淮北市,烈山区政府,细颗粒物(PM2.5),130,98,102,93,72,134,134,80,80,19,36,8,6,0.5,0.5
2026-03-09T1500,4017A,116.7926,33.9534,淮北市,市博物馆,细颗粒物(PM2.5),126,122,110,88,78,129,129,84,84,15,33,5,4,0.7,0.7
2026-03-09T1500,4100A,116.8322,33.9884,淮北市,杜集区第一实验学校,细颗粒物(PM2.5),139,135,120,102,80,139,139,81,81,21,38,10,9,0.6,0.6
2026-03-09T1500,2277A,116.8304,32.7726,淮南市,潘集区政府,细颗粒物(PM2.5),110,98,97,70,67,125,125,79,79,15,32,7,6,0.5,0.5
2026-03-09T1500,2279A,116.8569,32.5949,淮南市,谢家集区政府,细颗粒物(PM2.5),103,98,86,63,64,121,121,82,82,22,34,8,9,0.7,0.6
2026-03-09T1500,2280A,116.8279,32.6333,淮南市,八公山区政府,细颗粒物(PM2.5),110,98,92,70,72,122,122,83,83,22,29,9,9,0.5,0.5
2026-03-09T1500,2894A,117.0561,32.6536,淮南市,经济技术开发区消防队,细颗粒物(PM2.5),113,104,106,74,66,115,115,78,78,21,38,9,8,0.5,0.5
2026-03-09T1500,3329A,117.011,32.5891,淮南市,山南新区,细颗粒物(PM2.5),110,94,80,70,58,122,122,94,94,24,27,8,8,0.5,0.5
2026-03-09T1500,4209A,117.003137,32.644456,淮南市,国庆中路369号,细颗粒物(PM2.5),114,107,89,75,68,107,107,68,68,19,32,8,7,0.6,0.6
2026-03-09T1500,2446A,114.9021,30.474,黄冈市,职工中心,细颗粒物(PM2.5),86,60,72,53,62,122,122,88,88,9,18,5,6,0.8,1
2026-03-09T1500,2929A,114.8858,30.4519,黄冈市,红卫路,细颗粒物(PM2.5),86,56,66,53,55,119,119,87,87,9,18,3,5,0.2,0.4
2026-03-09T1500,3398A,114.9134,30.4446,黄冈市,市林业局,细颗粒物(PM2.5),94,60,76,57,62,114,114,89,89,4,16,4,4,0.6,0.8
2026-03-09T1500,2672A,102.02,35.5101,黄南藏族自治州,同仁县隆务镇,,29,24,31,10,18,90,90,72,72,3,3,8,8,0.3,0.3
2026-03-09T1500,2295A,118.2905,29.6965,黄山市,延安路89号,,47,47,46,28,35,124,124,82,82,12,15,5,5,0.6,0.6
2026-03-09T1500,2297A,118.1369,30.2755,黄山市,黄山区政府5号楼,颗粒物(PM10),53,53,60,24,35,116,116,80,80,13,15,3,3,0.8,0.8
2026-03-09T1500,4210A,118.335445,29.720283,黄山市,滨江东路7-2号,颗粒物(PM10),62,66,67,30,34,125,125,91,91,11,16,/,/,/,/
2026-03-09T1500,2423A,115.0547,30.2332,黄石市,沈家营,细颗粒物(PM2.5),104,87,87,64,56,92,92,59,59,15,23,9,8,1.1,1.2
2026-03-09T1500,2426A,114.899,30.211,黄石市,铁山,细颗粒物(PM2.5),119,NA,68,80,63,79,79,59,59,21,26,9,9,1.3,1.6
2026-03-09T1500,2427A,115.0259,30.2108,黄石市,团城山,细颗粒物(PM2.5),110,71,80,70,65,79,79,53,53,18,23,6,7,1.0,1.1
2026-03-09T1500,3149A,115.0174,30.1591,黄石市,笔架山北路,细颗粒物(PM2.5),121,118,118,83,70,86,86,53,53,16,31,9,11,1.1,1.2
2026-03-09T1500,4185A,115.078022,30.21118,黄石市,磁湖东路29号,细颗粒物(PM2.5),111,82,84,72,65,101,101,59,59,10,23,7,10,1.1,1.1
2026-03-09T1500,1392A,114.4181,23.0528,惠州市,河南岸金山湖子站,,48,47,45,33,26,106,106,87,77,9,10,7,7,0.7,0.6
2026-03-09T1500,1393A,114.4055,23.0824,惠州市,下埔横江三路子站,颗粒物(PM10),52,52,49,29,25,111,111,88,82,6,12,9,9,0.7,0.7
2026-03-09T1500,1395A,114.4645,22.7832,惠州市,惠阳区承修路船湖子站,颗粒物(PM10),58,61,50,36,24,150,150,89,89,20,14,8,7,0.6,0.6
2026-03-09T1500,1396A,114.5316,22.7423,惠州市,大亚湾管委会子站,,45,45,44,25,22,118,118,91,91,11,13,4,4,0.5,0.5
2026-03-09T1500,3314A,114.4334,22.8134,惠州市,惠阳秋长,,46,46,46,28,22,132,132,94,94,12,14,/,/,/,/
2026-03-09T1500,3452A,114.6521,22.7755,惠州市,大亚湾霞涌,,42,42,40,23,19,120,120,92,92,9,11,/,/,/,/
2026-03-09T1500,4300A,114.4089,23.1147,惠州市,文华一路1号,,43,43,44,29,25,111,111,86,80,7,12,/,/,/,/
2026-03-09T1500,2240A,130.9618,45.2926,鸡西市,环保局,,30,29,37,8,19,93,93,89,89,4,13,6,8,0.1,0.2
2026-03-09T1500,2243A,130.9294,45.2959,鸡西市,第一中学,,29,25,34,8,18,90,90,85,85,2,10,3,6,0.2,0.3
2026-03-09T1500,3707A,131.0069,45.2988,鸡西市,欧美日汽修厂,,28,24,42,7,23,89,89,84,84,4,19,5,10,0.2,0.3
2026-03-09T1500,2367A,114.9753,27.0803,吉安市,红声器材厂,细颗粒物(PM2.5),86,64,55,53,40,58,58,56,55,19,17,3,4,0.8,0.7
2026-03-09T1500,2369A,114.9903,27.1313,吉安市,市环境监测站,细颗粒物(PM2.5),96,59,49,58,42,60,60,57,56,18,16,6,6,/,/
2026-03-09T1500,2370A,115.009527,27.096792,吉安市,青原区法院,细颗粒物(PM2.5),82,55,51,51,39,66,66,57,57,18,22,4,5,0.8,0.7
2026-03-09T1500,1772A,126.54,43.8622,吉林市,哈达湾,,40,40,57,22,44,100,100,86,86,10,23,10,15,0.6,0.9
2026-03-09T1500,1773A,126.5843,43.8358,吉林市,东局子,,35,NA,59,24,47,101,101,84,84,9,21,6,7,0.7,1
2026-03-09T1500,1774A,126.5051,43.8243,吉林市,电力学院,,34,NA,58,18,43,107,107,91,91,9,23,8,17,0.6,0.9
2026-03-09T1500,1775A,126.6133,43.8971,吉林市,江北,,35,35,59,19,42,102,102,88,88,8,16,7,8,0.5,0.8
2026-03-09T1500,1776A,126.5549,43.8304,吉林市,江南公园,,36,36,56,22,45,95,95,82,82,9,23,10,12,0.4,0.9
2026-03-09T1500,2868A,126.4737,43.953,吉林市,九站,,40,40,64,23,49,94,94,84,84,17,25,12,18,0.4,0.7
2026-03-09T1500,1299A,116.9866,36.6118,济南市,科干所,,46,46,89,24,61,102,102,88,88,13,24,5,6,0.5,0.7
2026-03-09T1500,1300A,116.9379,36.6652,济南市,农科所,,42,42,110,20,87,103,103,80,80,13,37,6,6,0.5,0.7
2026-03-09T1500,1301A,117.1265,36.6736,济南市,开发区,,37,37,97,19,82,107,107,86,86,17,31,5,4,0.6,0.7
2026-03-09T1500,1303A,117.0616,36.6865,济南市,省种子仓库,,41,41,112,18,80,102,102,82,82,16,35,6,5,0.4,0.7
2026-03-09T1500,1304A,116.9495185,36.644937,济南市,机床二厂,,44,44,110,22,88,104,104,84,84,15,38,5,9,0.5,0.8
2026-03-09T1500,1305A,117.0496,36.6629,济南市,市监测站,,49,49,103,20,79,100,100,81,81,17,31,6,5,0.4,0.6
2026-03-09T1500,1306A,116.7674,36.5458,济南市,长清党校,颗粒物(PM10),51,51,108,25,82,106,106,89,89,10,29,3,4,0.6,0.7
2026-03-09T1500,1961A,117.5323,36.6865,济南市,东山小学,颗粒物(PM10),55,56,109,26,72,109,109,82,82,16,32,6,4,0.6,0.7
2026-03-09T1500,3059A,117.7181,36.205,济南市,泰兴公司,,36,36,100,18,76,111,111,93,93,8,34,5,7,0.5,0.8
2026-03-09T1500,3064A,117.6861,36.2172,济南市,莱芜战役纪念馆,,38,36,101,19,76,121,121,101,101,11,31,4,5,0.5,0.7
2026-03-09T1500,3494A,117.1673,36.9782,济南市,济阳区政府,,39,39,117,19,94,102,102,74,74,12,34,5,8,0.3,0.6
2026-03-09T1500,3495A,117.1168,36.6299,济南市,锦屏中学,,39,39,85,16,71,101,101,86,86,11,17,8,8,0.3,0.4
2026-03-09T1500,4108A,117.7107,36.2385,济南市,山财大街5号,,36,36,94,19,71,102,102,85,85,11,38,8,9,0.4,0.7
2026-03-09T1500,4109A,116.9744,36.6889,济南市,无影山路12号,,36,36,105,17,86,98,98,74,74,13,39,4,8,0.5,0.8
2026-03-09T1500,1653A,116.6229,35.4288,济宁市,火炬城,细颗粒物(PM2.5),90,58,83,55,70,124,124,80,80,10,31,3,3,0.5,0.6
2026-03-09T1500,3500A,116.5808,35.3703,济宁市,北湖一中,细颗粒物(PM2.5),80,NA,76,50,71,119,119,84,84,12,27,4,4,0.3,0.4
2026-03-09T1500,3501A,116.8251,35.5592,济宁市,服务中心,细颗粒物(PM2.5),88,84,105,54,71,105,105,68,68,10,38,2,4,0.4,0.5
2026-03-09T1500,3678A,116.5907,35.4054,济宁市,市第七中学,细颗粒物(PM2.5),84,56,76,52,70,128,128,88,88,11,29,7,8,0.5,0.6
2026-03-09T1500,4111A,116.6075,35.4566,济宁市,任和路,细颗粒物(PM2.5),88,64,107,54,69,123,123,80,80,14,42,5,6,0.5,0.6
2026-03-09T1500,4112A,116.5648,35.3921,济宁市,文体南路1号,颗粒物(PM10),63,67,105,40,73,124,124,86,86,9,31,2,3,0.4,0.6
2026-03-09T1500,4122A,112.6071,35.1015,济源市,市委党校,细颗粒物(PM2.5),140,169,127,104,75,117,117,62,62,16,30,5,6,0.8,1
2026-03-09T1500,4123A,112.596,35.0702,济源市,沁园中路1号,细颗粒物(PM2.5),140,143,115,104,82,124,124,72,72,15,28,5,4,0.8,1
2026-03-09T1500,2255A,130.2749,46.8028,佳木斯市,佳纺,,28,15,52,6,22,89,89,82,82,5,26,6,8,0.5,0.6
2026-03-09T1500,2257A,130.3258,46.7975,佳木斯市,环保局,,31,12,28,3,16,98,98,90,90,2,13,2,3,0.1,0.3
2026-03-09T1500,4285A,130.363,46.806,佳木斯市,顺和街,,29,14,27,3,19,90,90,83,83,7,18,5,5,0.2,0.2
2026-03-09T1500,4286A,130.3952,46.8268,佳木斯市,长安路196号,,30,8,24,7,15,94,94,90,90,2,10,5,5,0.2,0.3
2026-03-09T1500,1252A,120.7439,30.778,嘉兴市,清河小学,,31,28,36,10,14,98,98,84,84,17,22,6,7,0.2,0.3
2026-03-09T1500,1253A,120.7261,30.7477,嘉兴市,嘉兴学院,,32,27,32,15,18,102,102,87,87,16,20,6,6,0.3,0.4
2026-03-09T1500,2872A,120.7845,30.7524,嘉兴市,南湖区残联,,33,26,32,17,19,104,104,87,87,14,19,4,5,0.4,0.5
2026-03-09T1500,3407A,120.6915,30.7741,嘉兴市,秀洲住建,,34,28,38,11,15,107,107,89,89,16,21,8,8,0.7,0.7
2026-03-09T1500,1945A,98.291,39.7705,嘉峪关市,气象局,,48,48,45,23,19,116,116,87,87,8,19,13,10,0.4,0.4
2026-03-09T1500,2884A,98.2672,39.7978,嘉峪关市,酒钢宾馆,颗粒物(PM10),51,51,49,18,21,108,108,79,79,12,16,23,18,1.2,0.9
2026-03-09T1500,3248A,98.2644,39.7723,嘉峪关市,雄关区,,35,32,46,14,17,109,109,82,82,10,21,13,13,0.4,0.4
2026-03-09T1500,1383A,113.1063,22.6058,江门市,北街,细颗粒物(PM2.5),58,54,50,39,29,111,111,78,78,30,29,/,/,/,/
2026-03-09T1500,1384A,113.073,22.5835,江门市,西区,细颗粒物(PM2.5),68,66,53,44,30,116,116,85,83,30,22,/,/,/,/
2026-03-09T1500,1385A,113.0218,22.531,江门市,圭峰西,细颗粒物(PM2.5),72,59,51,46,30,122,122,84,84,20,16,/,/,/,/
2026-03-09T1500,1386A,113.0826,22.5947,江门市,东湖,细颗粒物(PM2.5),68,72,51,44,31,110,110,85,85,28,21,8,7,0.6,0.5
2026-03-09T1500,3311A,113.1077,22.5647,江门市,江海富民,颗粒物(PM10),78,89,69,44,31,119,119,84,84,31,25,/,/,0.4,0.4
2026-03-09T1500,3449A,113.0496,22.4669,江门市,新会银湖,细颗粒物(PM2.5),80,67,50,50,29,130,130,86,86,35,29,11,9,0.5,0.4
2026-03-09T1500,3335A,113.3137,35.2643,焦作市,马村街道办,细颗粒物(PM2.5),134,116,124,97,91,123,123,78,78,15,21,8,7,0.7,0.9
2026-03-09T1500,3336A,113.2464,35.2374,焦作市,焦作技师学院,细颗粒物(PM2.5),122,125,113,84,86,126,126,80,80,12,21,6,8,0.8,1
2026-03-09T1500,3477A,113.1656,35.2536,焦作市,中站许衡医院,细颗粒物(PM2.5),112,91,96,73,84,127,127,77,77,15,22,8,9,0.7,1
2026-03-09T1500,3981A,113.2456,35.18,焦作市,原李万街道办,颗粒物(PM10),135,210,115,80,92,127,127,81,81,12,18,6,4,0.5,0.8
2026-03-09T1500,4264A,113.234,35.219,焦作市,新安路1731号,细颗粒物(PM2.5),124,96,112,86,85,134,134,87,87,16,23,9,10,0.6,0.9
2026-03-09T1500,4295A,113.2722,35.2121,焦作市,人民路3066号,细颗粒物(PM2.5),121,104,110,83,85,136,136,94,94,14,21,8,8,0.7,1
2026-03-09T1500,1708A,116.3701,23.5345,揭阳市,新兴,,37,33,36,20,20,116,116,88,88,12,13,8,8,0.5,0.5
2026-03-09T1500,1709A,116.3261,23.5442,揭阳市,西马,,38,34,41,20,22,120,120,86,86,10,12,7,7,0.4,0.4
2026-03-09T1500,1710A,116.361,23.5627,揭阳市,东兴,颗粒物(PM10),52,52,40,22,25,118,118,86,86,9,11,6,6,/,/
2026-03-09T1500,1711A,116.4151,23.5295,揭阳市,渔湖,颗粒物(PM10),59,62,41,18,21,139,139,98,98,14,14,7,7,/,/
2026-03-09T1500,3320A,116.4028,23.5699,揭阳市,曲溪,,42,33,47,18,25,132,132,99,99,11,13,7,8,0.6,0.6
2026-03-09T1500,1944A,102.1691,38.5166,金昌市,天庆家园,颗粒物(PM10),62,66,79,28,40,119,119,86,86,6,17,10,25,0.5,0.7
2026-03-09T1500,4022A,102.1648,38.5369,金昌市,金川区人防中心,颗粒物(PM10),68,74,71,31,34,116,116,86,86,8,15,11,21,0.4,0.6
2026-03-09T1500,4239A,102.193042,38.531887,金昌市,长春路96号,颗粒物(PM10),59,62,75,26,34,107,107,77,77,16,22,9,22,0.4,0.6
2026-03-09T1500,1262A,119.6478,29.0773,金华市,十五中,颗粒物(PM10),56,58,66,34,42,108,108,84,84,18,26,4,4,0.4,0.5
2026-03-09T1500,1263A,119.6859,29.1032,金华市,监测站,颗粒物(PM10),56,58,67,29,38,96,96,70,70,15,25,3,3,0.5,0.6
2026-03-09T1500,3659A,119.656,29.1132,金华市,气象局,颗粒物(PM10),56,58,68,36,41,92,92,76,76,21,32,3,3,0.4,0.5
2026-03-09T1500,1767A,121.1114,41.0879,锦州市,南山,,29,23,27,8,9,92,92,85,85,6,8,6,10,0.4,0.4
2026-03-09T1500,1768A,121.060361,40.842794,锦州市,开发区,,29,29,43,11,21,90,90,80,80,7,25,8,8,0.3,0.5
2026-03-09T1500,1769A,121.1836,41.1118,锦州市,百股街道,,30,20,30,8,12,95,95,86,86,3,9,6,8,0.5,0.5
2026-03-09T1500,1770A,121.1176,41.1224,锦州市,天安街道,,30,18,28,8,9,93,93,86,86,6,9,4,6,0.4,0.4
2026-03-09T1500,1771A,121.1303,41.1385,锦州市,北湖公园,,31,9,26,9,11,98,98,90,90,4,7,4,6,0.5,0.5
2026-03-09T1500,2160A,112.8496,35.5051,晋城市,自来水公司,细颗粒物(PM2.5),110,99,94,70,54,98,98,55,55,10,25,4,4,0.8,0.9
2026-03-09T1500,2162A,112.8509,35.4886,晋城市,市环保局,细颗粒物(PM2.5),117,84,74,78,59,104,104,58,58,17,22,5,4,0.8,1
2026-03-09T1500,3620A,112.8258,35.4804,晋城市,泽州一中,细颗粒物(PM2.5),98,103,81,59,51,107,107,62,62,11,17,3,3,0.4,0.6
2026-03-09T1500,4078A,112.8246,35.5152,晋城市,前书院路,细颗粒物(PM2.5),102,103,85,62,49,97,97,58,58,11,19,4,4,0.7,0.8
2026-03-09T1500,4079A,112.8864,35.4773,晋城市,祥云街666号,细颗粒物(PM2.5),115,103,84,76,63,104,104,53,53,12,21,4,4,0.5,0.8
2026-03-09T1500,2174A,112.6992,37.6984,晋中市,榆次区政府,细颗粒物(PM2.5),122,102,132,84,99,122,122,80,80,19,36,11,11,0.6,0.9
2026-03-09T1500,2865A,112.7195,37.683,晋中市,榆次三中,细颗粒物(PM2.5),98,110,128,59,90,123,123,76,76,16,30,12,11,0.5,0.6
2026-03-09T1500,4080A,112.7375,37.7215,晋中市,广安街188号,细颗粒物(PM2.5),104,99,133,64,89,117,117,82,82,NA,38,16,11,0.6,0.7
2026-03-09T1500,4200A,112.7478,37.6954,晋中市,迎宾街26号,细颗粒物(PM2.5),118,112,122,79,92,123,123,83,83,18,28,12,11,0.6,0.7
2026-03-09T1500,2439A,112.2012,31.048,荆门市,竹园小学,细颗粒物(PM2.5),102,90,74,62,56,97,97,68,68,14,17,2,1,0.2,0.3
2026-03-09T1500,2440A,112.1968,30.9892,荆门市,掇刀,细颗粒物(PM2.5),106,92,72,66,58,103,103,74,74,10,13,4,6,0.7,0.8
2026-03-09T1500,3012A,112.1849,31.0361,荆门市,西山林语,细颗粒物(PM2.5),108,89,68,68,51,97,97,68,68,12,14,4,4,0.7,0.8
2026-03-09T1500,3547A,112.1631,31.0134,荆门市,龙泉中学南校,NA,NA,NA,NA,NA,NA,NA,NA,NA,NA,NA,NA,NA,NA,NA,NA
2026-03-09T1500,4124A,112.2213,31.0654,荆门市,新台西路6号,细颗粒物(PM2.5),115,93,76,76,62,99,99,68,68,10,15,5,5,0.5,0.6
2026-03-09T1500,1844A,112.2493,30.3198,荆州市,市图书馆,细颗粒物(PM2.5),90,NA,54,55,54,110,110,77,77,11,16,6,6,0.7,0.8
2026-03-09T1500,1845A,112.2009,30.3543,荆州市,市委党校,细颗粒物(PM2.5),101,64,66,61,60,101,101,68,68,15,19,6,7,0.6,0.7
2026-03-09T1500,3194A,112.2749,30.3124,荆州市,管委会,细颗粒物(PM2.5),92,NA,56,56,56,107,107,76,76,10,14,8,9,0.7,0.8
2026-03-09T1500,4268A,112.1722,30.3366,荆州市,学苑路85号,细颗粒物(PM2.5),104,NA,55,64,61,117,117,76,76,7,10,1,2,1.2,1.2
2026-03-09T1500,2343A,117.2114,29.2931,景德镇市,老干部活动中心,,49,35,37,34,30,105,105,83,83,4,7,5,5,0.6,0.6
2026-03-09T1500,2344A,117.1893,29.2789,景德镇市,兽医站,,44,44,43,22,25,111,111,91,91,7,9,5,4,0.4,0.5
2026-03-09T1500,2346A,117.246,29.2958,景德镇市,陶研所,NA,NA,32,34,23,28,NA,NA,74,74,NA,13,4,4,0.5,0.6
2026-03-09T1500,4289A,117.154766,29.256967,景德镇市,青少年活动中心,,40,38,43,28,30,92,92,74,74,7,12,4,4,/,/
2026-03-09T1500,1803A,115.9873,29.6816,九江市,十里,NA,NA,54,78,33,59,139,139,99,99,22,35,10,8,NA,0.9
2026-03-09T1500,1804A,115.9583,29.7047,九江市,茅山头,细颗粒物(PM2.5),74,54,80,47,69,130,130,95,95,18,30,4,4,0.7,0.8
2026-03-09T1500,1805A,115.9877,29.7295,九江市,西园,细颗粒物(PM2.5),78,51,78,49,64,129,129,93,93,29,43,6,6,0.7,0.8
2026-03-09T1500,1808A,115.9112,29.6038,九江市,综合工业园,细颗粒物(PM2.5),62,49,80,41,60,128,128,98,98,21,38,8,8,0.7,0.8
2026-03-09T1500,3190A,116.0254,29.6995,九江市,外国语学校,细颗粒物(PM2.5),72,67,73,46,62,128,128,87,87,16,32,7,7,0.8,0.9
2026-03-09T1500,4253A,116.010205,29.659402,九江市,莲花大道8号,细颗粒物(PM2.5),78,58,84,49,54,123,123,96,96,17,31,7,6,0.5,0.6
2026-03-09T1500,4240A,98.495752,39.733935,酒泉市,玉门东路5号,,44,44,55,24,23,109,109,80,80,6,10,8,7,0.3,0.3
2026-03-09T1500,4241A,98.5099,39.7506,酒泉市,北大街108号,颗粒物(PM10),53,53,54,22,27,107,107,75,75,7,12,9,8,0.5,0.4
2026-03-09T1500,2698A,76.0071,39.466,喀什地区,巡警大队,颗粒物(PM10),157,264,328,101,109,88,88,44,44,8,36,5,5,0.5,1.3
2026-03-09T1500,2699A,75.9756,39.4693,喀什地区,吾办,颗粒物(PM10),152,253,317,80,106,82,82,36,36,7,31,1,4,0.2,1
2026-03-09T1500,4027A,75.9485,39.4688,喀什地区,老干局,颗粒物(PM10),156,262,323,51,87,76,76,36,36,11,31,4,4,0.3,1
2026-03-09T1500,1824A,114.3389,34.778,开封市,肿瘤医院,细颗粒物(PM2.5),112,86,103,73,95,122,122,76,76,19,35,9,8,0.8,0.9
2026-03-09T1500,1826A,114.2884,34.7966,开封市,世纪星幼儿园,细颗粒物(PM2.5),102,67,93,62,86,112,112,69,69,15,29,10,8,0.8,0.9
2026-03-09T1500,3147A,114.3434,34.8101,开封市,龙亭公园,细颗粒物(PM2.5),115,78,110,76,95,118,118,72,72,22,40,10,9,0.8,1
2026-03-09T1500,3210A,114.3645,34.7955,开封市,汴京公园,细颗粒物(PM2.5),100,85,106,60,91,117,117,73,73,22,38,6,5,0.6,0.8
2026-03-09T1500,3473A,114.2485,34.8306,开封市,技师学院,细颗粒物(PM2.5),100,75,91,60,86,119,119,70,70,15,30,11,10,0.9,1.1
2026-03-09T1500,3592A,114.4518,34.7503,开封市,祥符区生态环境局,细颗粒物(PM2.5),121,105,139,83,108,125,125,74,74,22,49,9,8,0.9,1
2026-03-09T1500,1951A,84.886,45.6029,克拉玛依市,长征新村,,50,50,33,17,17,80,80,51,46,19,23,7,6,0.3,1
2026-03-09T1500,1952A,84.8894,45.5827,克拉玛依市,南林小区,,46,46,37,14,18,81,81,40,40,14,22,4,4,0.2,0.4
2026-03-09T1500,1954A,84.896,44.3328,克拉玛依市,独山子区,,39,35,77,12,50,124,124,97,93,11,19,7,6,0.5,0.7
2026-03-09T1500,1955A,85.6888,46.0909,克拉玛依市,乌尔禾区商贸楼,,39,39,47,24,27,93,93,61,61,13,22,9,9,0.5,0.8
2026-03-09T1500,3612A,85.1045,45.6895,克拉玛依市,白碱滩区新站,,39,35,41,27,29,104,104,44,44,13,31,11,11,0.5,0.5
2026-03-09T1500,2697A,76.1457,39.7143,克孜勒苏柯尔克孜自治州,市人民政府,颗粒物(PM10),144,234,299,55,70,89,89,52,52,4,16,4,4,0,0.2
2026-03-09T1500,3665A,76.1654,39.7157,克孜勒苏柯尔克孜自治州,克州文化中心,颗粒物(PM10),142,227,297,69,91,88,88,54,54,5,18,5,5,0.2,0.6
2026-03-09T1500,1450A,102.8203,24.889,昆明市,呈贡新区,,19,6,38,3,29,58,58,50,43,10,17,4,4,0.8,0.9
2026-03-09T1500,1452A,102.7253,25.0904,昆明市,龙泉镇,,16,NA,46,3,33,50,50,40,40,8,21,2,5,0.5,0.6
2026-03-09T1500,1453A,102.7267,25.0378,昆明市,东风东路,,20,20,41,3,29,54,54,44,43,16,18,2,4,0.6,0.7
2026-03-09T1500,1454A,102.6744,25.0671,昆明市,金鼎山,,16,15,47,3,30,49,49,48,39,15,17,2,10,0.7,0.8
2026-03-09T1500,1455A,102.6643,25.0401,昆明市,碧鸡广场,,16,8,41,3,32,49,49,45,39,15,21,3,5,0.7,0.8
2026-03-09T1500,3179A,102.7491,25.012,昆明市,官渡区博物馆,,15,14,42,3,28,48,48,42,39,19,19,3,3,0.7,0.7
2026-03-09T1500,3375A,102.8016,24.8336,昆明市,青年创业园,,17,NA,36,3,28,54,54,43,41,7,14,4,5,0.6,0.7
2026-03-09T1500,3550A,102.8,24.9787,昆明市,昆明学院,,21,6,38,3,25,66,66,52,52,10,13,3,3,0.6,0.7
2026-03-09T1500,3551A,102.5969,24.6738,昆明市,晋宁区生态环境分局,,20,16,47,14,35,54,54,75,43,11,11,2,2,0.5,0.5
2026-03-09T1500,3552A,102.6673,24.9861,昆明市,云天化总部,,17,8,37,3,26,52,52,48,42,17,15,7,8,0.8,0.9
2026-03-09T1500,1456A,91.132,29.6515,拉萨市,八廓街,,35,9,15,6,7,109,109,83,83,4,10,4,4,0.2,0.3
2026-03-09T1500,1457A,91.1221,29.6748,拉萨市,市环保局,,29,25,15,7,7,92,92,73,67,7,10,2,3,0.3,0.3
2026-03-09T1500,1458A,91.0874,29.6476,拉萨市,区监测站,,34,10,14,6,7,106,106,81,75,6,12,5,5,0.5,0.5
2026-03-09T1500,1459A,91.1774,29.6541,拉萨市,西藏大学,,35,8,12,6,6,110,110,82,82,6,10,2,3,0.3,0.5
2026-03-09T1500,1460A,90.9798,29.6586,拉萨市,区辐射站,,32,22,16,6,8,101,101,79,74,9,13,3,3,0.4,0.4
2026-03-09T1500,1461A,91.0831,29.6292,拉萨市,拉萨火车站,,33,13,16,3,8,105,105,84,65,4,13,3,3,0.4,0.5
2026-03-09T1500,2520A,109.2203,23.7252,来宾市,来宾技工学校,,12,6,27,3,18,36,36,32,32,6,10,8,8,1.0,1.2
2026-03-09T1500,3535A,109.1781,23.7293,来宾市,兴宾区政府,,12,6,29,3,16,38,38,33,33,6,9,5,5,0.9,1
2026-03-09T1500,4002A,109.2312,23.7428,来宾市,中南小学,,12,6,25,3,15,38,38,32,32,7,10,5,5,1.0,1.1
2026-03-09T1500,1479A,103.8309,36.0467,兰州市,铁路设计院,NA,NA,NA,NA,NA,NA,NA,NA,NA,NA,NA,NA,NA,NA,NA,NA
2026-03-09T1500,3241A,103.7439,36.0841,兰州市,百合公园,细颗粒物(PM2.5),64,54,57,42,43,121,121,51,51,16,28,11,6,1.0,1.2
2026-03-09T1500,3242A,103.9613,35.9985,兰州市,和平,细颗粒物(PM2.5),104,NA,56,64,39,118,118,72,72,15,25,15,12,1.0,0.8
2026-03-09T1500,4236A,103.629272,36.093822,兰州市,庄浪东路808号,细颗粒物(PM2.5),72,66,61,46,39,129,129,65,65,16,25,7,4,0.5,0.5
2026-03-09T1500,4237A,103.7251,36.104344,兰州市,安宁西路88号,细颗粒物(PM2.5),80,63,72,50,41,135,135,78,78,18,26,10,8,0.6,0.5
2026-03-09T1500,4238A,103.846982,36.067567,兰州市,北滨河东路1号,细颗粒物(PM2.5),62,50,62,41,43,99,99,46,46,34,47,11,9,0.9,1
2026-03-09T1500,1067A,116.6712,39.5109,廊坊市,药材公司,,27,6,24,3,15,86,86,66,66,5,14,3,3,0.2,0.4
2026-03-09T1500,1068A,116.7215,39.5592,廊坊市,开发区,,29,17,25,3,13,91,91,74,74,3,14,3,3,0.2,0.2
2026-03-09T1500,1070A,116.7246,39.5273,廊坊市,北华航天学院,,27,16,29,3,14,86,86,69,69,8,14,1,2,0.2,0.3
2026-03-09T1500,2919A,116.7022,39.5454,廊坊市,河北工业大学,,28,8,27,7,16,87,87,76,76,2,8,3,3,0.2,0.3
2026-03-09T1500,2536A,103.7629,29.5844,乐山市,牛耳桥,,29,8,18,3,11,92,92,45,45,11,19,6,6,0.5,0.7
2026-03-09T1500,2537A,103.7501,29.6002,乐山市,市第三水厂,,29,10,17,3,10,92,92,46,46,10,19,4,3,0.5,0.7
2026-03-09T1500,2538A,103.7571,29.5664,乐山市,市监测站,,28,10,17,3,9,89,89,45,45,8,14,7,6,0.6,0.7
2026-03-09T1500,3361A,103.7313,29.563,乐山市,理工大学,,29,11,17,3,10,90,90,45,45,7,14,7,6,0.6,0.8
2026-03-09T1500,2599A,100.2497,26.8802,丽江市,丽江古城,细颗粒物(PM2.5),72,66,47,46,33,117,117,115,115,7,7,10,9,0.6,0.5
2026-03-09T1500,2600A,100.2203,26.8906,丽江市,市中心,颗粒物(PM10),59,62,39,38,32,118,118,116,116,12,11,9,8,0.6,0.5
2026-03-09T1500,1267A,119.9141,28.4513,丽水市,监测站大楼,,50,39,37,35,23,99,99,77,77,12,14,4,4,0.2,0.2
2026-03-09T1500,1268A,119.93,28.4589,丽水市,莲都小学,颗粒物(PM10),55,57,40,35,21,100,100,80,80,15,18,/,/,/,/
2026-03-09T1500,1269A,119.8794,28.4232,丽水市,余庄前,颗粒物(PM10),58,60,38,37,22,89,89,63,63,19,15,4,4,0.3,0.3
2026-03-09T1500,1173A,119.1759,34.5885,连云港市,市环境监测站,细颗粒物(PM2.5),72,75,54,46,35,113,113,77,77,14,34,8,8,0.7,0.6
2026-03-09T1500,3000A,119.3577,34.6971,连云港市,德源药业,颗粒物(PM10),84,97,63,48,30,107,107,75,75,23,34,10,7,1.0,0.7
2026-03-09T1500,3007A,119.178,34.8442,连云港市,新城一中,细颗粒物(PM2.5),90,81,53,55,44,111,111,75,75,28,46,10,11,0.7,0.8
2026-03-09T1500,3008A,119.3607,34.7519,连云港市,胡沟管理处,颗粒物(PM10),67,73,61,41,31,105,105,77,77,16,48,7,7,1.0,1
2026-03-09T1500,3009A,119.1478,34.5913,连云港市,矿山设计院,"颗粒物(PM10),细颗粒物(PM2.5)",68,75,59,44,32,115,115,78,78,17,37,12,10,0.8,0.7
2026-03-09T1500,3434A,119.2414,34.6539,连云港市,工贸学校,NA,NA,NA,83,44,41,108,108,77,77,12,22,14,11,0.7,0.5
2026-03-09T1500,3664A,119.4171,34.734,连云港市,连云街道,细颗粒物(PM2.5),70,65,53,45,33,108,108,77,77,20,22,8,8,0.4,0.5
2026-03-09T1500,2573A,102.2629,27.8981,凉山彝族自治州,西昌市政府,,24,9,19,3,9,74,74,62,62,5,5,10,9,0.7,0.8
2026-03-09T1500,2574A,102.2686,27.885,凉山彝族自治州,凉山州政府,,23,7,15,3,10,71,71,53,53,6,6,9,7,0.6,0.7
2026-03-09T1500,4229A,102.2342,27.8859,凉山彝族自治州,凯乐南路30号,,24,10,20,3,9,75,75,63,63,9,8,8,7,0.6,0.7
2026-03-09T1500,2212A,123.1978,41.2036,辽阳市,宏伟区,,45,45,72,28,49,109,109,85,85,8,19,7,9,0.3,0.6
2026-03-09T1500,2213A,123.1684,41.2497,辽阳市,新华园,颗粒物(PM10),60,63,78,23,55,105,105,84,84,11,23,6,8,0.4,0.8
2026-03-09T1500,2214A,123.2355,41.2663,辽阳市,滨河路,,46,46,67,28,49,104,104,79,79,11,23,6,7,0.5,0.7
2026-03-09T1500,4083A,123.153,41.2874,辽阳市,铁西路150号,颗粒物(PM10),56,58,78,21,57,97,97,79,79,10,24,7,9,0.4,0.7
2026-03-09T1500,2227A,125.1359,42.8845,辽源市,环保局,,48,48,69,21,53,104,104,85,85,8,13,6,7,0.7,0.9
2026-03-09T1500,4085A,125.0998,42.9134,辽源市,安宁大街333号,颗粒物(PM10),51,51,81,23,56,100,100,82,82,6,10,8,10,0.5,0.8
2026-03-09T1500,1625A,115.9789,36.4372,聊城市,区政府,颗粒物(PM10),55,56,114,31,90,111,111,80,80,14,32,12,12,0.7,1
2026-03-09T1500,3200A,115.9772,36.4986,聊城市,监控中心,颗粒物(PM10),67,73,136,40,98,118,118,80,80,18,43,16,12,0.8,0.9
2026-03-09T1500,3513A,116.0443,36.436,聊城市,九州社区,颗粒物(PM10),57,59,116,37,92,117,117,86,86,17,32,4,4,0.6,0.9
2026-03-09T1500,4018A,116.0564,36.4609,聊城市,星美广场,颗粒物(PM10),66,72,138,39,100,120,120,88,88,10,38,6,7,0.7,0.9
2026-03-09T1500,4113A,116.0091,36.4495,聊城市,利民路,颗粒物(PM10),52,52,125,35,91,118,118,82,82,17,36,10,10,0.5,0.9
2026-03-09T1500,2632A,94.3683,29.6373,林芝市,林芝监测站,,35,18,26,3,16,110,110,96,87,2,3,4,4,0.4,0.5
2026-03-09T1500,2633A,94.3616,29.6634,林芝市,林芝人民医院,,34,15,28,3,20,107,107,91,84,2,4,2,2,0.4,0.5
2026-03-09T1500,2603A,100.0779,23.8981,临沧市,市环保局,颗粒物(PM10),53,53,69,29,55,130,130,82,82,4,12,8,7,0.4,0.7
2026-03-09T1500,2604A,100.0894,23.882,临沧市,市气象局,,42,32,67,27,59,134,134,88,88,6,11,9,8,0.2,1
2026-03-09T1500,1733A,111.5552,36.0791,临汾市,临钢医院,细颗粒物(PM2.5),122,108,106,84,78,97,97,47,47,17,23,8,9,1.3,1.4
2026-03-09T1500,1734A,111.4984,36.0734,临汾市,技工学校,细颗粒物(PM2.5),125,92,98,87,88,90,90,44,44,17,24,7,9,1.2,1.3
2026-03-09T1500,1736A,111.5017,36.0857,临汾市,市委,细颗粒物(PM2.5),116,97,115,77,78,91,91,50,50,15,23,4,6,1.1,1.3
2026-03-09T1500,3018A,111.5048,36.1015,临汾市,唐尧大酒店,细颗粒物(PM2.5),113,95,109,74,78,91,91,44,44,15,27,7,9,1.2,1.4
2026-03-09T1500,4244A,111.4879,36.053,临汾市,启星学校,细颗粒物(PM2.5),121,101,98,83,81,89,89,43,43,15,31,8,9,0.8,1
2026-03-09T1500,4271A,103.2464,35.6123,临夏回族自治州,滨河东路1号,,43,43,56,21,41,109,109,64,64,8,21,8,5,0.2,0.6
2026-03-09T1500,4310A,103.207136,35.599807,临夏回族自治州,新华街21号,,38,38,56,21,47,95,95,58,58,4,16,6,5,0.8,1
2026-03-09T1500,1618A,118.3429,35.0532,临沂市,沂河小区,颗粒物(PM10),58,61,100,37,68,105,105,75,75,8,43,10,13,0.4,0.6
2026-03-09T1500,1619A,118.2962,35.0568,临沂市,鲁南制药厂,细颗粒物(PM2.5),54,53,104,37,73,117,117,89,89,12,47,10,16,0.2,0.7
2026-03-09T1500,1620A,118.2793,34.9976,临沂市,新光毛纺厂,"颗粒物(PM10),细颗粒物(PM2.5)",56,58,93,38,73,106,106,80,80,12,45,9,14,0.6,0.9
2026-03-09T1500,1621A,118.3955,35.0889,临沂市,河东保险公司,,45,44,88,31,65,113,113,82,82,16,47,10,11,0.4,0.6
2026-03-09T1500,3370A,118.3563,35.0215,临沂市,十里堡居委,细颗粒物(PM2.5),52,46,95,36,68,114,114,83,83,15,47,8,13,0.6,0.9
2026-03-09T1500,3496A,118.359,35.1067,临沂市,南坊新区,颗粒物(PM10),51,51,87,32,62,114,114,86,86,10,40,10,11,0.6,0.7
2026-03-09T1500,3860A,118.3915,35.0297,临沂市,皇山花园小区,颗粒物(PM10),53,53,96,33,71,115,115,81,81,12,45,12,15,0.3,0.6
2026-03-09T1500,1870A,109.4854,24.3898,柳州市,柳东小学,,11,6,11,3,4,34,34,28,28,4,7,4,4,0.8,0.9
2026-03-09T1500,1871A,109.4109,24.3304,柳州市,环保监测站,,14,6,14,3,4,34,34,27,27,17,18,5,6,1.4,1.2
2026-03-09T1500,1872A,109.3886,24.3408,柳州市,河西水厂,,13,8,14,3,6,40,40,32,32,10,15,8,11,1.0,1.4
2026-03-09T1500,1873A,109.4263,24.2951,柳州市,市四中,,11,8,8,3,4,35,35,29,29,11,12,7,7,1.1,1
2026-03-09T1500,1874A,109.396,24.3658,柳州市,市九中,,11,7,11,3,3,33,33,28,28,12,13,8,9,1.1,1.1
2026-03-09T1500,1875A,109.4912,24.3164,柳州市,古亭山,,12,6,10,3,6,38,38,32,32,4,6,6,6,0.8,0.9
2026-03-09T1500,3402A,109.5422,24.3994,柳州市,市二中,,11,6,9,3,4,33,33,27,27,11,10,5,5,0.7,0.8
2026-03-09T1500,2307A,116.5078,31.7369,六安市,监测大楼,细颗粒物(PM2.5),78,64,75,49,59,118,118,90,90,14,19,6,5,0.5,0.6
2026-03-09T1500,2308A,116.4738,31.7642,六安市,皖西学院,细颗粒物(PM2.5),86,71,80,53,59,127,127,92,92,11,19,5,4,0.4,0.4
2026-03-09T1500,2309A,116.4997,31.7904,六安市,朝阳厂,细颗粒物(PM2.5),88,61,70,54,59,124,124,92,92,17,26,6,5,0.4,0.5
2026-03-09T1500,2310A,116.5566,31.7885,六安市,开发区,细颗粒物(PM2.5),62,58,76,41,52,129,129,93,93,24,26,5,5,0.4,0.5
2026-03-09T1500,2577A,104.8293,26.592,六盘水市,黄土坡,,17,NA,12,8,7,54,54,47,47,13,12,10,6,0.7,0.7
2026-03-09T1500,2579A,104.8481,26.5898,六盘水市,民中,,17,6,12,3,8,52,52,47,47,12,10,6,4,0.6,0.7
2026-03-09T1500,2580A,104.9541,26.5506,六盘水市,双水,,18,9,12,3,6,55,55,49,49,9,9,4,3,0.3,0.5
2026-03-09T1500,4151A,104.8899,26.5685,六盘水市,钟山大道中段564号,NA,NA,9,13,3,7,48,48,39,39,NA,11,8,7,NA,0.9
2026-03-09T1500,2336A,117.022,25.1031,龙岩市,龙岩市监测站,,28,21,32,18,24,88,88,75,75,6,16,6,14,0.8,0.9
2026-03-09T1500,2337A,117.0257,25.0662,龙岩市,闽西职业技术学院,,29,29,32,15,21,88,88,68,68,4,10,6,6,0.4,0.5
2026-03-09T1500,2338A,117.0195,25.0306,龙岩市,龙岩学院,,28,25,36,16,21,87,87,65,65,5,10,6,4,/,/
2026-03-09T1500,2885A,104.9344,33.3827,陇南市,滨江中学,,32,32,42,10,14,95,95,68,68,9,14,8,7,0.5,0.6
2026-03-09T1500,3247A,104.9551,33.3709,陇南市,市总工会,NA,NA,NA,37,NA,13,93,93,68,68,15,12,6,5,0.5,0.6
2026-03-09T1500,2488A,111.9984,27.7346,娄底市,市监测站,细颗粒物(PM2.5),80,NA,22,50,20,64,64,48,48,13,18,6,5,0.7,0.9
2026-03-09T1500,2491A,111.9888,27.7035,娄底市,市政府,细颗粒物(PM2.5),72,NA,19,46,17,61,61,49,49,12,15,2,2,0.4,0.5
2026-03-09T1500,4127A,111.9812,27.7591,娄底市,涟钢职大,,50,46,18,35,14,70,70,48,48,9,11,1,1,0.2,0.9
2026-03-09T1500,4128A,112.0303,27.7457,娄底市,娄底体校,细颗粒物(PM2.5),76,52,31,48,21,66,66,52,52,4,10,2,2,0.4,0.6
2026-03-09T1500,1894A,105.4427,28.9063,泸州市,小市上码头,,19,17,31,13,26,40,40,26,26,14,16,8,8,0.5,0.5
2026-03-09T1500,1895A,105.4241,28.8573,泸州市,兰田宪桥,,16,16,34,8,21,46,46,30,30,9,13,6,7,0.6,0.7
2026-03-09T1500,1896A,105.4378,28.8833,泸州市,市环监站,,20,20,38,10,20,39,39,28,28,16,18,4,5,0.5,0.6
2026-03-09T1500,4272A,105.3689,28.7783,泸州市,纳溪中医医院,,17,13,28,9,26,54,54,35,35,12,12,6,6,0.6,0.7
2026-03-09T1500,2183A,111.1447,37.5212,吕梁市,环保局,,46,46,84,23,51,107,107,62,62,16,40,6,7,0.4,0.5
2026-03-09T1500,2185A,111.1285,37.5338,吕梁市,自来水公司,,49,49,101,25,54,115,115,60,60,16,33,6,7,0.4,0.7
2026-03-09T1500,2867A,111.1225,37.5093,吕梁市,马茂庄小学,,49,49,101,27,56,112,112,56,56,13,35,8,11,0.4,0.7
2026-03-09T1500,1812A,112.3934,34.6517,洛阳市,市委党校,细颗粒物(PM2.5),132,108,75,95,71,101,101,58,58,20,26,7,7,1.0,1
2026-03-09T1500,1815A,112.494,34.6883,洛阳市,河南林校,细颗粒物(PM2.5),131,103,79,94,69,107,107,78,78,15,32,9,10,0.8,0.9
2026-03-09T1500,1816A,112.3843,34.623,洛阳市,开发区管委会,细颗粒物(PM2.5),132,131,86,95,64,94,94,57,57,19,22,9,10,0.8,0.9
2026-03-09T1500,1817A,112.4263,34.6249,洛阳市,市委新办公区,细颗粒物(PM2.5),139,119,86,102,76,97,97,52,52,21,26,10,8,0.7,0.8
2026-03-09T1500,3340A,112.6005,34.6323,洛阳市,伊滨,细颗粒物(PM2.5),131,128,83,94,71,100,100,57,57,17,24,8,8,0.9,0.8
2026-03-09T1500,3341A,112.495,34.6338,洛阳市,中移产业园,细颗粒物(PM2.5),133,111,78,96,71,100,100,53,53,18,24,8,8,0.8,0.9
2026-03-09T1500,3593A,112.5736,34.8993,洛阳市,吉利监测站,细颗粒物(PM2.5),122,97,85,84,78,137,137,79,79,20,27,8,7,0.7,0.9
2026-03-09T1500,3635A,112.3678,34.6623,洛阳市,河科大西苑校区,细颗粒物(PM2.5),133,108,72,96,67,106,106,64,64,17,21,8,8,1.4,1
2026-03-09T1500,3636A,112.4387,34.678,洛阳市,英才小学,细颗粒物(PM2.5),137,126,86,100,70,107,107,67,67,21,30,8,9,0.8,0.9
2026-03-09T1500,4214A,112.460027,34.694929,洛阳市,春都路1号院,细颗粒物(PM2.5),130,135,90,92,69,101,101,60,60,15,24,8,9,0.9,1
2026-03-09T1500,2399A,114.051,33.5721,漯河市,三五一五工厂,细颗粒物(PM2.5),163,146,130,124,99,114,114,82,82,NA,38,5,6,0.6,1
2026-03-09T1500,2400A,114.0055,33.5698,漯河市,漯河大学,细颗粒物(PM2.5),153,125,111,117,100,116,116,85,85,14,34,5,6,0.7,0.7
2026-03-09T1500,2401A,114.0134,33.5826,漯河市,市水利局,细颗粒物(PM2.5),145,122,111,109,92,114,114,81,81,20,37,5,7,0.6,0.8
2026-03-09T1500,2402A,114.0261,33.5697,漯河市,市广电局,细颗粒物(PM2.5),150,122,110,115,97,107,107,76,76,15,31,6,7,0.6,0.7
2026-03-09T1500,3478A,113.9691,33.568,漯河市,市图书馆,细颗粒物(PM2.5),146,145,126,110,92,104,104,76,76,19,33,6,7,0.9,0.9
2026-03-09T1500,4250A,114.089259,33.588274,漯河市,韶山路11号,细颗粒物(PM2.5),147,137,121,111,94,111,111,72,72,17,38,6,7,0.7,0.8
2026-03-09T1500,1798A,118.5084,31.6838,马鞍山市,湖东路四小,细颗粒物(PM2.5),78,54,65,49,43,113,113,76,76,17,27,8,7,0.7,0.5
2026-03-09T1500,1799A,118.5019,31.6449,马鞍山市,开发区,细颗粒物(PM2.5),64,47,63,42,40,116,116,81,81,20,28,6,6,0.5,0.5
2026-03-09T1500,3633A,118.4914,31.681,马鞍山市,雨山,细颗粒物(PM2.5),90,73,76,55,46,115,115,80,80,16,27,8,6,0.7,0.6
2026-03-09T1500,4191A,118.527362,31.722269,马鞍山市,慈湖高新区,细颗粒物(PM2.5),90,73,68,55,47,115,115,76,76,20,31,8,6,0.6,0.4
2026-03-09T1500,1686A,111.0285,21.469,茂名市,电白南海,颗粒物(PM10),63,68,56,34,25,110,110,95,92,16,14,8,7,0.8,0.7
2026-03-09T1500,1687A,110.9294,21.6533,茂名市,茂石化七小,颗粒物(PM10),56,58,56,35,29,106,106,86,86,16,18,10,9,0.6,0.5
2026-03-09T1500,1688A,110.9108,21.6688,茂名市,健康路,细颗粒物(PM2.5),56,56,50,38,27,113,113,94,94,16,17,11,9,0.9,0.7
2026-03-09T1500,1689A,110.8592,21.6826,茂名市,高岭,颗粒物(PM10),60,63,61,38,29,111,111,93,91,16,18,8,8,/,/
2026-03-09T1500,3450A,111.0101,21.5165,茂名市,电白水东,,48,48,50,27,24,104,104,92,84,14,15,6,5,/,/
2026-03-09T1500,2540A,103.8414,30.0871,眉山市,气象局,,31,16,30,3,10,97,97,58,58,6,17,6,6,0.4,0.6
2026-03-09T1500,3148A,103.829,30.0563,眉山市,区人社局,NA,NA,20,38,3,12,NA,NA,44,44,9,21,7,8,0.5,0.7
2026-03-09T1500,4148A,103.8836,30.0695,眉山市,眉职院,,29,9,24,3,11,90,90,47,47,6,17,5,5,0.5,0.7
2026-03-09T1500,1690A,116.1248,24.3307,梅州市,梅江月梅,,38,30,38,26,26,87,87,71,71,11,16,/,/,/,/
2026-03-09T1500,1691A,116.0798,24.2719,梅州市,梅县新城,,39,39,53,20,29,92,92,78,78,12,22,9,9,0.7,0.7
2026-03-09T1500,3315A,116.1234,24.2994,梅州市,梅龙,,36,36,39,22,25,96,96,82,82,8,11,6,7,0.7,0.7
2026-03-09T1500,1878A,104.7775,31.4741,绵阳市,富乐山,,32,14,28,6,17,102,102,51,51,4,15,6,8,0.5,0.7
2026-03-09T1500,1880A,104.6698,31.4668,绵阳市,高新区自来水公司,,32,15,32,8,21,102,102,46,46,9,24,8,9,0.6,0.8
2026-03-09T1500,3491A,104.6899,31.5324,绵阳市,西科大附属小学,,32,15,29,9,19,102,102,45,45,9,20,8,8,0.4,0.7
2026-03-09T1500,3492A,104.5647,31.5343,绵阳市,安州区旅游局,,33,NA,31,7,19,104,104,48,48,4,14,4,6,0.4,0.6
2026-03-09T1500,4146A,104.7092,31.4972,绵阳市,科技城新区公安局,,31,17,31,6,19,97,97,47,47,10,23,8,12,0.4,0.7
2026-03-09T1500,4226A,104.765114,31.453094,绵阳市,绵阳市气象局,,28,15,30,6,21,88,88,41,41,5,21,9,12,0.5,0.8
2026-03-09T1500,1784A,129.61,44.561,牡丹江市,环保大楼,,30,27,42,3,28,93,93,84,84,6,19,1,3,0.3,0.4
2026-03-09T1500,1787A,129.6364,44.6075,牡丹江市,机车工厂,,30,30,70,16,43,91,91,76,76,4,26,7,9,0.3,0.7
2026-03-09T1500,1788A,129.6386,44.5462,牡丹江市,第一中学,,29,19,37,10,25,90,90,83,83,5,18,2,4,0.4,0.6
2026-03-09T1500,4287A,129.5992,44.5964,牡丹江市,东晓云街98号,,29,24,54,3,35,92,92,72,72,5,20,2,5,0.3,0.6
2026-03-09T1500,2531A,105.0703,29.61,内江市,市监测站,,21,15,30,10,18,67,67,40,40,17,16,5,5,0.4,0.5
2026-03-09T1500,2533A,105.0657,29.5807,内江市,内江二中,,22,13,36,10,18,70,70,41,41,14,19,8,7,0.4,0.5
2026-03-09T1500,2534A,105.0407,29.5828,内江市,内江日报社,,25,10,26,8,15,79,79,44,44,11,16,7,7,0.4,0.5
2026-03-09T1500,4147A,105.0433,29.6105,内江市,玉峰路西段888号,,25,14,21,9,21,78,78,44,44,10,13,5,5,0.2,0.3
2026-03-09T1500,2628A,92.0653,31.4846,那曲市,那曲监测站,,30,16,43,3,27,93,93,56,56,2,17,1,6,0.3,0.8
2026-03-09T1500,4243A,92.0515,31.4787,那曲市,那曲市委宣传部,,32,6,26,3,16,102,102,58,58,1,7,5,6,0.3,0.6
2026-03-09T1500,1291A,115.8887,28.7006,南昌市,省林业公司,细颗粒物(PM2.5),82,90,58,51,46,117,117,84,84,16,17,7,5,0.8,0.7
2026-03-09T1500,1292A,115.813,28.7443,南昌市,林科所,颗粒物(PM10),78,88,69,42,48,119,119,89,89,16,14,11,9,0.8,0.8
2026-03-09T1500,1294A,115.8518,28.687,南昌市,建工学校,颗粒物(PM10),80,92,77,49,48,110,110,76,76,20,21,10,8,0.7,0.6
2026-03-09T1500,1295A,115.8926,28.6425,南昌市,象湖,细颗粒物(PM2.5),82,86,63,51,51,108,108,78,78,23,23,10,9,0.7,0.6
2026-03-09T1500,3046A,115.9084,28.6062,南昌市,机电学校,"颗粒物(PM10),细颗粒物(PM2.5)",90,105,78,55,51,111,111,80,80,20,20,8,6,0.7,0.7
2026-03-09T1500,3690A,115.9718,28.7032,南昌市,外国语学校,细颗粒物(PM2.5),92,97,70,56,50,117,117,82,82,18,25,10,8,0.8,0.8
2026-03-09T1500,4106A,115.7923,28.6873,南昌市,工业二路,颗粒物(PM10),86,100,80,52,51,117,117,91,91,21,18,7,5,0.8,0.7
2026-03-09T1500,4192A,115.931587,28.686774,南昌市,南京东路235号,细颗粒物(PM2.5),94,103,72,57,49,127,127,88,88,20,19,9,7,0.8,0.7
2026-03-09T1500,1906A,106.0791,30.8022,南充市,南充市委,,25,25,25,14,16,62,62,32,32,14,16,7,6,0.4,0.5
2026-03-09T1500,1907A,106.1038,30.8215,南充市,南充炼油厂,,30,30,29,16,14,58,58,31,31,16,17,5,5,0.6,0.6
2026-03-09T1500,4227A,106.108336,30.788436,南充市,梨树横街98号,,24,24,23,16,16,58,58,36,36,16,18,6,6,0.4,0.4
2026-03-09T1500,4304A,106.1172,30.843,南充市,清泉寺北路188号,,21,17,22,11,15,65,65,36,36,11,13,6,6,0.5,0.6
2026-03-09T1500,4305A,106.067,30.7616,南充市,同庆路1号,,21,21,25,13,15,61,61,37,37,14,18,7,6,0.6,0.7
2026-03-09T1500,1151A,118.8033,32.1085,南京市,迈皋桥,颗粒物(PM10),65,71,60,41,36,142,142,93,93,16,28,6,7,0.4,0.4
2026-03-09T1500,1152A,118.7487,32.057,南京市,草场门,细颗粒物(PM2.5),72,68,61,46,37,131,131,88,88,16,46,9,10,0.5,0.4
2026-03-09T1500,1154A,118.770105,32.004342,南京市,中华门,细颗粒物(PM2.5),84,75,63,52,38,126,126,81,81,12,20,5,6,0.6,0.6
2026-03-09T1500,1155A,118.8059,32.0329,南京市,瑞金路,细颗粒物(PM2.5),70,66,63,45,37,127,127,79,79,16,36,3,4,0.6,0.6
2026-03-09T1500,1156A,118.7946,32.0774,南京市,玄武湖,细颗粒物(PM2.5),78,59,63,49,40,124,124,82,82,5,39,8,9,0.7,0.7
2026-03-09T1500,1157A,118.6415,32.0964,南京市,浦口,细颗粒物(PM2.5),100,79,81,60,50,124,124,76,76,15,33,7,8,0.5,0.6
2026-03-09T1500,1158A,118.730129,32.000956,南京市,奥体中心,细颗粒物(PM2.5),66,68,66,43,35,129,129,88,88,15,36,9,9,0.4,0.4
2026-03-09T1500,1159A,118.9072,32.1047,南京市,仙林大学城,颗粒物(PM10),70,78,65,41,35,124,124,81,81,13,42,6,7,0.7,0.7
2026-03-09T1500,3422A,118.8443,31.919,南京市,江宁彩虹桥,颗粒物(PM10),64,69,68,34,32,126,126,90,90,7,36,3,4,0.6,0.7
2026-03-09T1500,3427A,118.8497,32.3599,南京市,六合雄州,细颗粒物(PM2.5),102,87,56,62,36,117,117,77,77,18,30,3,4,0.7,0.8
2026-03-09T1500,4086A,118.7641,32.0841,南京市,新模范马路66号,细颗粒物(PM2.5),76,68,66,48,40,151,151,103,103,16,43,3,4,0.4,0.6
2026-03-09T1500,4249A,118.8707617,31.34017673,南京市,汶溪路181号,,37,37,64,23,39,118,118,86,86,13,26,8,8,0.5,0.6
2026-03-09T1500,4312A,119.019,31.6512,南京市,中山西路1号,细颗粒物(PM2.5),58,58,55,39,31,104,104,76,76,10,18,4,4,0.7,0.8
2026-03-09T1500,1401A,108.3098,22.788,南宁市,二十一中,,9,6,57,3,53,26,26,43,26,9,14,5,5,0.9,0.9
2026-03-09T1500,1402A,108.3135,22.8529,南宁市,北湖,,8,6,59,3,55,25,25,37,24,14,17,2,3,0.8,0.8
2026-03-09T1500,1403A,108.3205,22.8222,南宁市,市监测站,,14,14,58,3,49,26,26,43,26,14,17,5,6,0.9,0.9
2026-03-09T1500,1404A,108.3828,22.8038,南宁市,大自然花园,,11,6,61,3,49,34,34,46,34,6,10,5,6,0.5,0.6
2026-03-09T1500,1406A,108.2397,22.8462,南宁市,区农职院,,9,6,57,3,42,26,26,35,21,4,14,5,6,0.7,0.8
2026-03-09T1500,1407A,108.3285,22.7356,南宁市,英华嘉园,,9,6,66,3,56,26,26,43,30,10,14,3,4,0.9,0.9
2026-03-09T1500,3401A,108.4829,22.762,南宁市,红星社区,,13,6,60,3,53,40,40,40,34,9,13,4,5,0.7,0.7
2026-03-09T1500,4132A,108.2927,23.1477,南宁市,起凤路9号,,11,6,60,3,48,33,33,30,28,5,15,2,3,0.9,0.9
2026-03-09T1500,4221A,108.2177,22.7774,南宁市,乐贤路16号,,10,10,63,3,48,30,30,45,25,7,20,8,4,0.6,0.6
2026-03-09T1500,2332A,118.1682,26.6371,南平市,南平市监测站,,25,25,30,17,20,54,54,46,46,8,13,4,4,0.2,0.2
2026-03-09T1500,2334A,118.1757,26.6276,南平市,南平七中,,30,30,25,13,17,65,65,49,49,6,12,4,3,0.4,0.4
2026-03-09T1500,1168A,120.9056,31.9669,南通市,狼山街道,,38,38,28,24,13,112,112,92,92,7,13,4,4,0.5,0.5
2026-03-09T1500,1170A,120.8635,32.0231,南通市,城中,,43,43,33,21,15,117,117,97,97,8,13,1,2,0.4,0.5
2026-03-09T1500,1171A,120.9376,31.9301,南通市,星湖花园,NA,NA,NA,30,23,14,113,113,90,90,NA,13,4,4,0.5,0.4
2026-03-09T1500,1172A,120.8053,32.046,南通市,紫琅学院,,42,42,29,25,14,121,121,95,95,8,17,5,5,0.6,0.7
2026-03-09T1500,3291A,121.0631,32.0644,南通市,通州监测站,,38,36,25,20,11,120,120,101,101,10,12,4,4,0.5,0.6
2026-03-09T1500,3432A,120.9348,31.9874,南通市,环境教育馆,,41,41,31,27,14,118,118,97,97,7,14,5,4,0.4,0.3
2026-03-09T1500,4091A,120.8692,31.9885,南通市,洪江路,,38,36,29,26,14,113,113,94,94,5,12,4,4,0.5,0.5
2026-03-09T1500,2404A,112.5338,33.0086,南阳市,瓦房庄,细颗粒物(PM2.5),126,101,80,88,64,110,110,74,74,12,17,4,4,0.8,0.9
2026-03-09T1500,2405A,112.5002,32.9734,南阳市,汉画馆,NA,NA,NA,83,NA,71,NA,NA,43,NA,NA,26,NA,4,NA,0.9
2026-03-09T1500,2406A,112.5778,33.0144,南阳市,气象站,细颗粒物(PM2.5),118,122,97,79,63,110,110,70,70,15,21,5,5,0.8,0.9
2026-03-09T1500,2407A,112.548,32.9687,南阳市,理工学院,细颗粒物(PM2.5),119,106,82,80,61,108,108,66,66,13,24,6,6,0.8,0.9
2026-03-09T1500,4008A,112.5233,32.9921,南阳市,卧龙区政府,细颗粒物(PM2.5),110,120,89,70,58,105,105,69,69,14,20,5,5,0.8,0.9
2026-03-09T1500,1234A,121.8352,29.9111,宁波市,区环保大楼,,34,24,30,6,9,106,106,88,88,7,27,7,7,0.3,0.3
2026-03-09T1500,1235A,121.5595,29.8208,宁波市,万里学院,,34,28,30,10,9,107,107,88,88,13,19,4,4,0.2,0.3
2026-03-09T1500,1236A,121.713,29.9564,宁波市,龙赛医院,,32,32,31,3,8,95,95,86,86,7,19,3,5,0.4,0.4
2026-03-09T1500,1240A,121.5855,29.8635,宁波市,太古小学,,35,30,31,14,12,112,112,92,92,15,26,4,4,0.3,0.4
2026-03-09T1500,1241A,121.5239,29.8673,宁波市,市环境监测中心,,33,26,33,11,12,105,105,82,82,11,22,5,5,0.4,0.4
2026-03-09T1500,2871A,121.6156,29.9015,宁波市,万里国际学校,,35,25,31,11,11,112,112,95,95,10,25,8,4,0.5,0.5
2026-03-09T1500,3710A,121.5593,29.8976,宁波市,白沙活动中心,,35,23,28,12,12,110,110,91,91,10,20,4,5,0.3,0.3
2026-03-09T1500,4095A,121.8962,29.7529,宁波市,中科路88号,,32,20,23,8,8,102,102,86,86,14,21,6,6,0.5,0.5
2026-03-09T1500,2341A,119.5387,26.6611,宁德市,宁德市监测站,,33,31,32,23,18,90,90,58,58,15,18,5,6,0.4,0.5
2026-03-09T1500,3209A,119.5231,26.6562,宁德市,宁德一中,,35,34,33,24,20,89,89,58,58,14,15,5,6,0.3,0.4
2026-03-09T1500,2618A,98.859,25.8541,怒江傈僳族自治州,州监测站,细颗粒物(PM2.5),104,70,75,64,64,116,116,79,79,10,12,NA,8,0.5,0.6
2026-03-09T1500,2619A,98.8607,25.8168,怒江傈僳族自治州,泸水一中,细颗粒物(PM2.5),94,67,72,57,63,115,115,70,70,6,13,6,5,0.6,0.8
2026-03-09T1500,1888A,101.6891,26.571,攀枝花市,弄弄坪,,20,6,56,3,27,62,62,74,51,11,13,14,12,0.7,0.8
2026-03-09T1500,1889A,101.577,26.5914,攀枝花市,河门口,,17,6,56,3,42,54,54,46,46,12,14,21,15,1.3,1
2026-03-09T1500,1891A,101.7365,26.4986,攀枝花市,仁和,,18,11,46,3,35,55,55,59,46,11,10,24,10,0.7,0.6
2026-03-09T1500,2835A,101.7222,26.567,攀枝花市,四十中小,,29,29,53,3,31,61,61,67,47,10,16,21,16,0.9,1
2026-03-09T1500,1604A,122.0303,41.1489,盘锦市,开发区,,36,36,41,15,18,97,97,83,83,10,13,5,6,0.3,0.4
2026-03-09T1500,1605A,122.0486,41.0883,盘锦市,兴隆台,,31,27,35,14,22,97,97,84,84,11,17,6,7,0.3,0.4
2026-03-09T1500,1606A,121.8297,41.1026,盘锦市,新生街道,NA,NA,NA,62,9,12,100,100,79,79,10,35,8,8,0.4,0.4
2026-03-09T1500,1832A,113.3257,33.7423,平顶山市,新华旅馆,细颗粒物(PM2.5),137,123,104,100,75,110,110,77,77,18,32,5,6,0.6,0.6
2026-03-09T1500,1833A,113.2917,33.737,平顶山市,规划设计院,细颗粒物(PM2.5),140,139,106,103,73,113,113,80,80,15,28,6,6,0.7,0.7
2026-03-09T1500,1834A,113.182,33.7738,平顶山市,平顶山工学院,细颗粒物(PM2.5),132,124,89,95,72,121,121,78,78,13,18,3,3,0.5,0.6
2026-03-09T1500,3594A,112.8736,33.9068,平顶山市,石龙区,细颗粒物(PM2.5),136,123,81,99,66,114,114,80,80,21,21,7,7,0.6,0.7
2026-03-09T1500,4116A,113.284,33.7139,平顶山市,姚电大道23号,细颗粒物(PM2.5),144,149,111,108,77,114,114,81,81,16,28,4,4,0.7,0.7
2026-03-09T1500,2656A,106.6633,35.5338,平凉市,聚贤嘉苑,颗粒物(PM10),52,52,54,33,28,73,73,55,50,16,24,7,6,0.7,0.6
2026-03-09T1500,2657A,106.7021,35.5307,平凉市,博物馆,颗粒物(PM10),58,61,59,35,34,68,68,44,40,15,29,10,10,0.6,0.8
2026-03-09T1500,2348A,113.8384,27.6436,萍乡市,中医院,,36,36,33,24,27,83,83,78,78,15,15,2,2,0.4,0.4
2026-03-09T1500,2350A,113.8677,27.6438,萍乡市,市环保局,,48,NA,30,33,27,80,80,74,74,10,10,1,2,0.5,0.5
2026-03-09T1500,2351A,113.8663,27.6202,萍乡市,安源区政府,细颗粒物(PM2.5),56,NA,38,38,30,66,66,64,64,16,14,5,4,0.7,0.8
2026-03-09T1500,4107A,113.8686,27.6668,萍乡市,联洪村委会,,40,34,34,28,25,70,70,64,64,8,8,1,1,0.3,0.3
2026-03-09T1500,2319A,119.0142,25.4324,莆田市,荔城区仓后路,,34,34,37,15,18,103,103,95,95,8,12,/,/,/,/
2026-03-09T1500,2320A,119.0016,25.4553,莆田市,莆田市监测站,,34,32,31,14,16,106,106,100,100,7,7,2,3,0.4,0.4
2026-03-09T1500,2321A,119.112,25.4561,莆田市,涵江区六中,,33,33,35,13,14,104,104,101,101,6,8,/,/,0.4,0.4
2026-03-09T1500,2322A,119.1014,25.3215,莆田市,秀屿区政府,,34,33,34,17,15,107,107,101,101,5,7,2,3,0.4,0.4
2026-03-09T1500,2392A,115.0312,35.7636,濮阳市,环保局,细颗粒物(PM2.5),102,73,88,62,92,98,98,63,63,26,36,8,7,0.6,0.9
2026-03-09T1500,3021A,115,35.7667,濮阳市,濮水河管理处,细颗粒物(PM2.5),129,NA,113,91,88,109,109,65,65,13,31,9,8,0.5,0.8
2026-03-09T1500,4118A,115.0552,35.7816,濮阳市,中原东路68号,细颗粒物(PM2.5),101,96,125,61,95,101,101,62,62,18,34,7,6,0.5,0.7
2026-03-09T1500,4216A,115.0923632,35.76857718,濮阳市,任丘路479号,"颗粒物(PM10),细颗粒物(PM2.5)",72,80,124,46,95,106,106,64,64,24,37,7,7,0.4,0.8
2026-03-09T1500,2601A,100.9801,22.7634,普洱市,市环保局,颗粒物(PM10),79,90,90,42,46,137,137,90,90,6,10,6,6,0.7,0.8
2026-03-09T1500,2602A,100.9763,22.8237,普洱市,普洱第二中学,细颗粒物(PM2.5),80,90,91,50,52,146,146,92,92,7,20,4,3,0.5,0.6
2026-03-09T1500,3345A,131.0413,45.7795,七台河市,中波台,,31,24,49,3,22,97,97,84,84,5,18,6,8,0.3,0.4
2026-03-09T1500,3637A,131.0136,45.7688,七台河市,人民广场,,30,18,43,3,19,96,96,83,83,8,21,6,8,0.3,0.4
2026-03-09T1500,3684A,130.8639,45.8144,七台河市,新建矿广场,,48,48,70,11,27,94,94,83,83,7,18,5,6,0.2,0.4
2026-03-09T1500,1779A,123.9307,47.3641,齐齐哈尔市,安居小区,,29,22,56,14,37,90,90,77,77,7,17,6,6,0.3,0.5
2026-03-09T1500,1780A,123.9497,47.3389,齐齐哈尔市,中心广场,,28,17,25,7,12,87,87,NA,NA,7,8,6,8,0.5,0.7
2026-03-09T1500,1781A,123.9483,47.3229,齐齐哈尔市,农牧车辆厂,,29,29,52,13,34,87,87,76,76,8,10,7,8,0.2,0.3
2026-03-09T1500,1783A,123.9442,47.2994,齐齐哈尔市,市环境监测站,,34,34,57,11,31,93,93,79,79,7,18,4,5,0.4,0.5
2026-03-09T1500,3662A,123.6341,47.2079,齐齐哈尔市,富区青少年活动中心,,28,25,57,11,38,89,89,75,75,7,14,4,5,0.4,0.6
2026-03-09T1500,2591A,107.9765,26.5724,黔东南苗族侗族自治州,市环境监测站,,19,6,7,3,7,60,60,45,42,9,9,3,3,0.6,0.7
2026-03-09T1500,2881A,107.8909,26.531,黔东南苗族侗族自治州,凯里学院,NA,NA,NA,6,4,5,58,58,44,42,10,12,3,3,0.7,0.8
2026-03-09T1500,2593A,107.5223,26.2371,黔南布依族苗族自治州,小围寨,,18,NA,0,3,3,55,55,45,45,4,6,4,4,0.8,0.8
2026-03-09T1500,3538A,107.5175,26.2977,黔南布依族苗族自治州,沙坝,,20,6,5,3,2,62,62,49,49,4,6,5,4,0.8,0.8
2026-03-09T1500,2589A,104.9022,25.0943,黔西南布依族苗族自治州,场坝街,,17,17,18,9,7,51,51,33,33,8,9,6,3,0.6,0.8
2026-03-09T1500,2590A,104.8812,25.0994,黔西南布依族苗族自治州,坪东大道,,26,NA,16,18,8,51,51,29,29,8,12,6,5,0.7,0.8
2026-03-09T1500,2502A,108.6238,21.9667,钦州市,市环保站,,12,12,93,3,61,31,31,33,31,14,23,3,6,1.1,0.8
2026-03-09T1500,2503A,108.655,21.9481,钦州市,沙埠小学,,12,10,85,3,63,36,36,34,34,12,22,4,8,0.7,0.7
2026-03-09T1500,2504A,108.5989,21.7435,钦州市,港区一小,,35,35,78,12,45,31,31,54,34,18,22,3,4,0.8,0.6
2026-03-09T1500,3404A,108.5959,21.9634,钦州市,北职校,,14,14,81,3,59,35,35,35,35,10,22,3,4,0.9,0.9
2026-03-09T1500,1046A,119.5247,39.9346,秦皇岛市,建设大厦,,29,16,38,3,19,90,90,84,84,3,10,4,5,0.2,0.4
2026-03-09T1500,3132A,119.5979,39.938,秦皇岛市,文明里,,27,14,41,3,20,84,84,81,81,14,22,8,8,0.3,0.4
2026-03-09T1500,4066A,119.7458,39.9952,秦皇岛市,南园路157号,,27,9,42,3,26,85,85,76,76,12,31,6,7,0.3,0.5
2026-03-09T1500,4067A,119.5131,39.8858,秦皇岛市,翠岛大街1号,,26,24,43,3,21,83,83,80,80,5,13,6,7,0.3,0.4
2026-03-09T1500,4198A,119.509013,39.825305,秦皇岛市,北戴河轮滑馆,,28,28,41,3,21,87,87,82,82,8,18,7,6,0.3,0.4
2026-03-09T1500,1310A,120.404,36.0625,青岛市,市南区东部子站,,31,24,37,3,20,97,97,78,78,4,16,8,9,0.5,0.6
2026-03-09T1500,1311A,120.362344,36.10282,青岛市,四方区子站,,32,14,40,3,24,101,101,80,80,6,18,4,5,0.4,0.6
2026-03-09T1500,1312A,120.294373,36.054183,青岛市,市南区西部子站,,28,19,38,6,26,89,89,72,72,14,23,3,3,0.4,0.5
2026-03-09T1500,1313A,120.4581,36.0858,青岛市,崂山区子站,,31,19,34,3,18,98,98,83,83,1,9,7,7,0.4,0.4
2026-03-09T1500,1315A,120.3945,36.3083,青岛市,城阳区子站,,31,19,50,3,31,99,99,77,77,9,24,5,6,0.5,0.7
2026-03-09T1500,3642A,120.3454,36.0735,青岛市,市北区南部,,29,24,40,3,22,92,92,73,73,8,17,3,2,0.4,0.5
2026-03-09T1500,3643A,120.3897,36.18,青岛市,李沧区北部,,30,22,45,3,25,94,94,74,74,8,19,8,8,0.5,0.6
2026-03-09T1500,4110A,120.5222,36.4089,青岛市,盟旺路653号,,33,15,50,3,30,104,104,87,87,2,16,2,3,0.4,0.8
2026-03-09T1500,4290A,120.196923,35.954556,青岛市,珠江路669号,,31,24,38,3,26,98,98,75,75,12,28,8,8,0.3,0.4
2026-03-09T1500,4291A,120.0424,35.8656,青岛市,黄岛区人民政府广场,,32,19,36,6,19,102,102,84,84,5,14,7,8,0.4,0.5
2026-03-09T1500,1703A,113.0218,23.7086,清远市,凤城街办,,23,21,42,16,31,37,37,62,51,11,14,/,/,/,/
2026-03-09T1500,3025A,113.0479,23.6343,清远市,技师学院,,34,34,48,22,31,49,49,60,59,11,16,4,6,0.8,0.8
2026-03-09T1500,3318A,112.9898,23.7403,清远市,清新太和,,20,19,44,14,31,43,43,66,54,11,14,6,6,0.7,0.5
2026-03-09T1500,3455A,113.076,23.72,清远市,清城东城,,35,33,49,24,32,52,52,60,58,10,16,/,/,/,/
2026-03-09T1500,2661A,107.6325,35.7357,庆阳市,庆阳五中,颗粒物(PM10),62,66,42,40,30,103,103,55,55,18,17,12,5,0.5,0.6
2026-03-09T1500,2662A,107.6361,35.7067,庆阳市,市环保局,颗粒物(PM10),56,58,41,29,28,104,104,60,60,12,16,7,5,0.6,0.7
2026-03-09T1500,1916A,103.7897,25.5036,曲靖市,环境监测站,,16,NA,25,6,13,51,51,42,42,10,12,7,9,0.6,0.9
2026-03-09T1500,1917A,103.8013,25.5357,曲靖市,烟厂办公区,,15,NA,21,9,12,48,48,38,38,9,11,4,5,0.7,0.9
2026-03-09T1500,3376A,103.7926,25.4651,曲靖市,南苑二区,,15,11,15,9,12,48,48,41,41,12,14,3,5,0.8,0.9
2026-03-09T1500,3377A,103.7442,25.5259,曲靖市,曲靖师范学院,,17,6,19,6,12,53,53,47,47,11,11,1,2,0.4,0.6
2026-03-09T1500,1264A,118.8694,28.94,衢州市,环保大楼,细颗粒物(PM2.5),76,70,66,48,47,108,108,77,77,18,25,/,/,/,/
2026-03-09T1500,1266A,118.8622,28.9809,衢州市,衢州学院,细颗粒物(PM2.5),76,68,63,48,45,105,105,78,78,17,29,6,6,0.6,0.6
2026-03-09T1500,4097A,118.9646,28.9832,衢州市,衢州三中,细颗粒物(PM2.5),74,71,68,47,46,105,105,75,75,13,25,5,6,0.6,0.7
2026-03-09T1500,1611A,118.5818,24.9116,泉州市,涂山街,,44,44,34,22,19,92,92,78,78,12,12,4,3,0.4,0.5
2026-03-09T1500,1612A,118.597,24.8976,泉州市,津头埔,,44,44,35,20,18,104,104,87,87,11,12,3,3,0.4,0.4
2026-03-09T1500,1613A,118.6669,24.9422,泉州市,万安,,50,50,38,18,17,93,93,76,76,10,13,4,4,0.4,0.4
2026-03-09T1500,4105A,118.6355,24.9148,泉州市,霞新路6号,,39,39,33,21,17,92,92,75,75,11,15,/,/,0.4,0.4
2026-03-09T1500,2626A,88.8873,29.2723,日喀则市,日喀则监测站,,34,8,22,3,8,108,108,72,72,3,10,7,7,0.3,0.5
2026-03-09T1500,3726A,88.8775,29.2425,日喀则市,林业技术推广中心,,33,25,27,14,11,103,103,70,70,4,6,6,9,0.3,0.3
2026-03-09T1500,1659A,119.4711,35.421,日照市,监测站,,32,29,49,13,28,101,101,81,81,10,35,7,9,0.5,0.7
2026-03-09T1500,1660A,119.523,35.4216,日照市,市政府广场,,32,31,46,12,26,102,102,85,85,11,23,5,6,0.5,0.5
2026-03-09T1500,1661A,119.5511,35.4113,日照市,港务局,,31,31,47,11,24,99,99,87,87,10,27,4,5,0.5,0.6
2026-03-09T1500,3507A,119.5326,35.4627,日照市,职业技术学院,,32,31,43,12,28,101,101,87,87,13,25,7,8,0.6,0.7
2026-03-09T1500,3604A,119.3267,35.1043,日照市,岚山环保分局,颗粒物(PM10),86,100,72,52,37,101,101,78,78,23,27,17,17,1.1,1.5
2026-03-09T1500,1835A,111.1922,34.7752,三门峡市,市政府,细颗粒物(PM2.5),112,80,55,73,51,92,92,48,48,12,23,7,8,0.7,0.8
2026-03-09T1500,1836A,111.1588,34.794,三门峡市,开发区,细颗粒物(PM2.5),131,114,74,94,62,100,100,51,51,19,21,7,7,0.8,0.8
2026-03-09T1500,3039A,111.1911,34.7829,三门峡市,三门峡市第一小学,细颗粒物(PM2.5),124,99,61,86,54,98,98,49,49,15,26,10,9,0.6,0.7
2026-03-09T1500,3598A,111.1031,34.719,三门峡市,富达温泉假日酒店,细颗粒物(PM2.5),110,77,70,70,56,97,97,47,47,13,25,9,9,0.7,0.8
2026-03-09T1500,2324A,117.621,26.2626,三明市,三钢,,36,32,36,25,30,59,59,64,64,6,13,3,6,0.5,0.5
2026-03-09T1500,2325A,117.6352,26.2714,三明市,三明二中,,32,26,32,22,26,57,57,60,60,7,11,4,7,0.3,0.3
2026-03-09T1500,2326A,117.6028,26.2377,三明市,三元区政府,,38,33,35,26,29,58,58,66,63,8,13,3,6,0.5,0.5
2026-03-09T1500,1877A,109.4962,18.2682,三亚市,河西子站,,28,28,26,11,11,88,88,86,86,3,4,4,4,0.3,0.4
2026-03-09T1500,3540A,109.7348,18.3443,三亚市,君悦子站,,39,39,33,16,12,83,83,78,78,3,5,4,4,0.4,0.4
2026-03-09T1500,4135A,109.1714,18.3739,三亚市,城东小学站,,34,17,28,8,16,107,107,74,74,6,9,/,/,/,/
2026-03-09T1500,2624A,91.7592,29.234,山南市,山南监测站,NA,NA,NA,22,14,10,98,98,79,75,NA,5,7,5,NA,0.4
2026-03-09T1500,2625A,91.7701,29.2436,山南市,山南人民医院,,31,12,27,3,8,99,99,84,80,1,3,4,5,0.4,0.4
2026-03-09T1500,1674A,116.6795,23.3666,汕头市,金平子站,,43,43,31,15,15,128,128,95,95,7,8,5,5,0.6,0.6
2026-03-09T1500,1675A,116.7248,23.3632,汕头市,龙湖子站,,44,44,29,15,16,121,121,90,90,11,11,5,5,/,/
2026-03-09T1500,1676A,116.7257,23.2774,汕头市,濠江子站,NA,NA,NA,44,64,28,116,116,91,91,12,10,7,7,/,/
2026-03-09T1500,1677A,116.7518,23.4712,汕头市,澄海子站,颗粒物(PM10),53,54,35,16,17,118,118,88,88,10,8,8,8,0.5,0.5
2026-03-09T1500,1678A,116.6088,23.2539,汕头市,潮阳子站,NA,NA,36,26,16,14,123,123,93,93,5,5,NA,6,0.4,0.4
2026-03-09T1500,3444A,116.4539,23.2684,汕头市,潮南峡山,,42,36,29,19,15,132,132,98,98,6,6,6,6,0.5,0.5
2026-03-09T1500,3624A,116.4069,23.2533,汕头市,潮南子站,颗粒物(PM10),52,52,40,23,19,116,116,85,85,9,8,6,6,/,/
2026-03-09T1500,1693A,115.3653,22.7751,汕尾市,市环保局,,37,30,36,13,21,117,117,90,90,8,8,6,6,0.6,0.6
2026-03-09T1500,1695A,115.362,22.7926,汕尾市,新城中学,,39,39,37,14,24,117,117,89,89,6,8,6,6,0.5,0.6
2026-03-09T1500,2645A,109.9155,33.8714,商洛市,监测站,,39,20,23,16,20,124,124,71,71,13,19,8,6,0.3,0.6
2026-03-09T1500,3045A,109.9647,33.8486,商洛市,商州区中学,颗粒物(PM10),65,70,32,14,20,122,122,72,72,9,16,7,5,0.4,0.7
2026-03-09T1500,2408A,115.6701,34.4283,商丘市,环境监测站,细颗粒物(PM2.5),133,108,110,96,87,129,129,88,88,15,32,2,2,0.4,0.4
2026-03-09T1500,2409A,115.6458,34.4047,商丘市,粮食局,细颗粒物(PM2.5),127,98,94,89,81,120,120,90,90,13,25,NA,3,0.5,0.5
2026-03-09T1500,3171A,115.6069,34.4465,商丘市,梁园区档案局,细颗粒物(PM2.5),120,NA,90,82,71,131,131,86,86,10,36,2,3,0.4,0.5
2026-03-09T1500,4119A,115.6701,34.3767,商丘市,北海东路185号,细颗粒物(PM2.5),112,114,112,73,78,128,128,89,89,12,28,4,4,0.5,0.5
2026-03-09T1500,4120A,115.6172,34.3704,商丘市,中山大街3号,细颗粒物(PM2.5),130,128,124,92,85,129,129,93,93,15,30,6,6,0.5,0.5
2026-03-09T1500,1141A,121.401,31.2382,上海市,普陀,NA,NA,28,28,24,18,104,104,93,93,NA,21,9,6,NA,0.4
2026-03-09T1500,1142A,121.4774,31.2043,上海市,十五厂,,35,26,27,12,14,110,110,99,99,12,19,8,8,0.4,0.4
2026-03-09T1500,1143A,121.4673,31.3011,上海市,虹口,,33,26,26,17,13,103,103,92,92,6,16,5,5,0.6,0.5
2026-03-09T1500,1147A,121.4253,31.226,上海市,静安监测站,,34,25,27,16,14,108,108,97,97,16,21,9,8,0.2,0.2
2026-03-09T1500,1148A,121.7029,31.1905,上海市,浦东川沙,,33,22,24,12,12,103,103,95,95,9,14,4,4,0.4,0.3
2026-03-09T1500,1149A,121.5339,31.229,上海市,浦东新区监测站,,33,22,24,13,12,104,104,93,93,7,15,5,5,0.4,0.4
2026-03-09T1500,1150A,121.5776,31.2038,上海市,浦东张江,,34,27,25,11,12,107,107,98,98,13,14,6,7,0.1,0.2
2026-03-09T1500,3265A,121.4242,31.3303,上海市,宝山庙行,,33,28,29,18,16,103,103,90,90,11,23,11,10,0.4,0.4
2026-03-09T1500,3266A,121.8789,31.4662,上海市,崇明上实东滩,,34,24,19,15,12,106,106,99,99,4,4,8,7,0.3,0.3
2026-03-09T1500,3268A,121.316,31.2839,上海市,嘉定南翔,,35,23,28,16,15,109,109,95,95,10,21,5,5,0.4,0.3
2026-03-09T1500,3269A,121.3357,30.7455,上海市,金山新城,,34,26,26,15,15,107,107,79,79,8,14,6,5,0.4,0.4
2026-03-09T1500,3270A,121.4996,31.0741,上海市,闵行浦江,,33,22,26,12,14,103,103,91,91,8,16,6,6,0.6,0.6
2026-03-09T1500,3271A,121.2886,31.1663,上海市,青浦徐泾,,39,24,29,14,15,123,123,106,106,9,20,5,5,0.5,0.5
2026-03-09T1500,3272A,121.2193,31.0382,上海市,松江图书馆,,35,32,31,16,16,112,112,96,96,10,18,7,7,0.5,0.5
2026-03-09T1500,3273A,121.3904,31.206,上海市,长宁仙霞,,32,25,28,14,15,102,102,91,91,12,18,11,9,0.4,0.3
2026-03-09T1500,3274A,121.7964,31.0507,上海市,浦东惠南,,32,22,24,14,14,100,100,95,95,11,17,6,6,0.4,0.5
2026-03-09T1500,3544A,121.4891,30.925,上海市,奉贤南桥新城,,34,24,29,12,17,108,108,93,93,8,14,4,4,0.4,0.4
2026-03-09T1500,4183A,121.417401,31.16637,上海市,冠生园路458号,,31,25,26,14,14,99,99,88,88,14,20,8,6,0.6,0.6
2026-03-09T1500,4205A,121.541914,31.268301,上海市,宁武路151号,,35,24,27,15,15,109,109,97,97,10,20,7,6,0.4,0.4
2026-03-09T1500,2382A,117.9758,28.4439,上饶市,市监测站,颗粒物(PM10),60,64,62,37,45,103,103,68,68,19,31,6,8,/,/
2026-03-09T1500,2383A,117.9521,28.4637,上饶市,凤凰光学,细颗粒物(PM2.5),58,59,63,39,48,93,93,58,58,17,27,10,11,0.6,0.8
2026-03-09T1500,3685A,117.897,28.4316,上饶市,双创科技城,"颗粒物(PM10),细颗粒物(PM2.5)",62,66,61,41,49,105,105,68,68,15,30,7,12,0.8,0.9
