timepoint,stationcode,longitude,latitude,area,positionname,primarypollutant,aqi,pm10,pm10_24h,pm2_5,pm2_5_24h,o3,o3_24h,o3_8h,o3_8h_24h,no2,no2_24h,so2,so2_24h,co,co_24h
2022-09-18T19:00:00,1001A,116.3621,39.8784,北京市,万寿西宫,,23,18,38,5,20,151,72,83,83,23,20,3,3,0.3,0.4
2022-09-18T19:00:00,1002A,116.2202,40.2915,北京市,定陵(对照点),,23,17,24,4,11,160,72,86,86,10,6,1,2,0.2,0.3
2022-09-18T19:00:00,1003A,116.4174,39.9289,北京市,东四,,29,20,41,5,17,173,90,92,92,23,21,3,3,0.3,0.4
2022-09-18T19:00:00,1004A,116.4072,39.8863,北京市,天坛,,15,14,37,4,17,117,46,79,78,19,18,3,3,0.2,0.4
2022-09-18T19:00:00,1005A,116.462,39.9365,北京市,农展馆,,20,16,35,4,15,155,63,76,76,30,20,3,3,0.3,0.3
2022-09-18T19:00:00,1006A,116.3392,39.9295,北京市,官园,,27,27,41,6,16,159,75,82,82,28,23,3,3,0.4,0.4
2022-09-18T19:00:00,1007A,116.2878,39.9611,北京市,海淀万柳,,36,36,40,8,17,140,76,87,87,47,29,3,3,0.5,0.4
2022-09-18T19:00:00,1008A,116.6636,40.135,北京市,顺义新城,,23,23,38,4,15,119,62,114,81,43,15,3,3,0.3,0.3
2022-09-18T19:00:00,1009A,116.6275,40.3275,北京市,怀柔镇,,22,15,27,4,14,139,68,99,77,10,9,1,1,0.3,0.4
2022-09-18T19:00:00,1010A,116.2296,40.217,北京市,昌平镇,,31,31,30,5,11,158,69,78,78,25,13,3,3,0.2,0.3
2022-09-18T19:00:00,1011A,116.3966,39.9821,北京市,奥体中心,,21,19,43,6,18,157,67,79,68,35,29,3,3,0.3,0.4
2022-09-18T19:00:00,1012A,116.184,39.9136,北京市,古城,,48,48,46,9,15,163,89,114,95,36,21,3,2,0.3,0.4
2022-09-18T19:00:00,1015A,117.1444,39.1661,天津市,勤俭道,,34,31,69,10,37,148,106,107,107,22,29,9,10,0.6,0.7
2022-09-18T19:00:00,1017A,117.237,39.1082,天津市,大直沽八号路,,33,33,66,8,35,144,95,108,108,19,32,9,9,0.6,0.7
2022-09-18T19:00:00,1018A,117.202,39.0927,天津市,前进道,,31,27,62,7,31,145,98,119,119,20,27,8,9,0.6,0.7
2022-09-18T19:00:00,1019A,117.1837,39.2133,天津市,淮河道,,26,26,74,7,38,145,81,100,100,40,42,8,10,0.5,0.7
2022-09-18T19:00:00,1021A,117.307,39.0877,天津市,跃进路,,36,36,68,7,33,138,83,103,103,26,40,8,9,0.5,0.6
2022-09-18T19:00:00,1023A,117.707,39.0343,天津市,第四大街,,32,32,64,6,27,131,66,102,96,36,37,6,8,0.6,0.9
2022-09-18T19:00:00,1024A,117.457,38.8394,天津市,永明路,,39,39,56,8,30,132,71,110,103,21,39,7,9,0.3,0.6
2022-09-18T19:00:00,1026A,117.764,39.1587,天津市,汉北路,,32,32,70,5,28,131,82,106,104,20,40,10,11,0.7,1
2022-09-18T19:00:00,1027A,117.157,38.9194,天津市,团泊洼(对照点),,24,23,60,6,27,173,76,134,133,19,31,8,12,0.8,1.1
2022-09-18T19:00:00,1029A,114.4422,38.0444,石家庄市,职工医院,颗粒物(PM10),65,79,71,28,34,154,146,144,144,13,36,5,6,0.7,0.8
2022-09-18T19:00:00,1030A,114.6063,38.0266,石家庄市,高新区,颗粒物(PM10),56,61,68,24,31,168,150,144,144,22,30,6,6,0.4,0.6
2022-09-18T19:00:00,1031A,114.4898,38.1328,石家庄市,西北水源,颗粒物(PM10),73,96,92,21,32,174,149,144,144,13,29,4,4,0.3,0.5
2022-09-18T19:00:00,1032A,114.4586,38.0058,石家庄市,西南高教,颗粒物(PM10),67,84,85,20,35,154,142,145,145,17,35,3,4,0.6,1
2022-09-18T19:00:00,1033A,114.5331,38.0178,石家庄市,世纪公园,颗粒物(PM10),63,75,81,24,37,159,158,146,146,16,24,9,8,0.4,0.6
2022-09-18T19:00:00,1034A,114.509,38.0457,石家庄市,人民会堂,颗粒物(PM10),67,84,78,34,35,179,157,149,149,19,25,7,8,0.7,1
2022-09-18T19:00:00,1035A,114.3524,37.8911,石家庄市,封龙山(对照点),颗粒物(PM10),65,80,73,23,32,248,158,196,152,14,16,6,12,0.7,1.1
2022-09-18T19:00:00,1037A,118.131,39.6363,唐山市,雷达站,颗粒物(PM10),61,71,71,14,29,108,43,94,90,64,46,5,5,0.4,0.6
2022-09-18T19:00:00,1038A,118.1725,39.6334,唐山市,物资局,,46,46,69,16,30,109,78,98,98,37,41,7,6,0.5,0.6
2022-09-18T19:00:00,1040A,118.1705,39.6506,唐山市,十二中,,50,50,57,11,24,113,70,92,92,33,38,7,5,0.3,0.5
2022-09-18T19:00:00,1041A,118.1869,39.622,唐山市,小山,颗粒物(PM10),51,52,61,8,22,117,61,94,92,49,40,4,5,0.3,0.5
2022-09-18T19:00:00,1042A,119.5134,39.8207,秦皇岛市,北戴河环保局,,31,31,52,5,17,157,85,97,86,5,17,10,11,0.1,0.4
2022-09-18T19:00:00,1043A,119.7493,40.0116,秦皇岛市,第一关,,41,41,53,7,22,130,16,76,69,76,44,5,6,0.2,0.5
2022-09-18T19:00:00,1044A,119.5897,39.9499,秦皇岛市,监测站,,48,48,56,13,24,146,53,73,72,32,29,5,7,0.5,0.6
2022-09-18T19:00:00,1046A,119.5251,39.9041,秦皇岛市,建设大厦,,44,44,62,18,19,153,72,88,88,19,23,4,8,0.3,0.5
2022-09-18T19:00:00,1047A,114.5129,36.61763,邯郸市,环保局,,,,,,,,,,,,,,,,
2022-09-18T19:00:00,1048A,114.5302,36.6116,邯郸市,东污水处理厂,臭氧1小时,90,84,81,36,44,242,192,220,220,19,32,4,15,0.9,1.3
2022-09-18T19:00:00,1049A,114.4918,36.5713,邯郸市,矿院,臭氧1小时,94,82,84,39,48,239,195,219,219,23,36,8,12,0.9,1.1
2022-09-18T19:00:00,1050A,114.484,36.6133,邯郸市,丛台公园,臭氧1小时,95,91,85,41,44,242,196,221,221,23,32,8,13,0.6,0.8
2022-09-18T19:00:00,1051A,115.493,38.8632,保定市,游泳馆,,40,40,77,6,31,167,116,118,118,23,34,3,5,0.3,0.5
2022-09-18T19:00:00,1052A,115.5213,38.8959,保定市,华电二区,颗粒物(PM10),53,56,87,13,36,165,88,100,100,33,37,5,7,0.5,0.8
2022-09-18T19:00:00,1053A,115.4713,38.9108,保定市,接待中心,,47,47,90,12,30,172,87,104,104,30,33,7,7,0.4,0.6
2022-09-18T19:00:00,1054A,115.4612,38.8416,保定市,地表水厂,颗粒物(PM10),58,66,112,16,34,152,113,118,118,33,45,8,8,0.3,0.6
2022-09-18T19:00:00,1055A,115.4323,38.8697,保定市,胶片厂,,49,49,79,5,39,159,108,120,120,23,35,8,9,0.3,0.5
2022-09-18T19:00:00,1056A,115.5086,38.8639,保定市,监测站,颗粒物(PM10),61,72,85,22,36,176,115,120,120,22,29,5,4,0.1,0.4
2022-09-18T19:00:00,1057A,114.8883,40.8336,张家口市,人民公园,,30,28,26,5,3,113,94,100,100,4,3,5,5,0.3,0.2
2022-09-18T19:00:00,1059A,114.8687,40.8042,张家口市,五金库,,27,27,30,5,6,96,80,87,87,15,10,7,8,0.4,0.3
2022-09-18T19:00:00,1060A,114.8902,40.762,张家口市,世纪豪园,,30,29,25,5,6,112,93,96,96,11,10,2,2,0.1,0.1
2022-09-18T19:00:00,1061A,114.8916,40.8661,张家口市,北泵房(对照点),,31,26,27,12,10,114,98,102,102,4,6,6,6,0.2,0.2
2022-09-18T19:00:00,1062A,117.9531,40.9081,承德市,铁路,,33,33,34,5,15,94,69,86,86,15,25,6,6,0.2,0.3
2022-09-18T19:00:00,1063A,117.9392,40.9763,承德市,中国银行,颗粒物(PM10),52,54,35,12,10,88,53,81,79,19,19,9,9,0.4,0.2
2022-09-18T19:00:00,1064A,117.9503,40.928,承德市,开发区,,25,16,35,6,17,120,80,89,89,3,19,4,5,0.2,0.3
2022-09-18T19:00:00,1065A,117.8051,40.9655,承德市,文化中心,颗粒物(PM10),57,64,40,14,14,105,59,83,82,14,20,9,9,0.3,0.3
2022-09-18T19:00:00,1066A,117.9268,41.0026,承德市,离宫(对照点),,25,7,23,17,13,81,52,76,74,5,8,5,6,0.2,0.2
2022-09-18T19:00:00,1067A,116.6708,39.5111,廊坊市,药材公司,,45,45,62,2,28,137,81,91,91,23,26,7,7,0.3,0.5
2022-09-18T19:00:00,1068A,116.7214,39.5589,廊坊市,开发区,,31,31,47,8,23,148,61,92,91,27,31,3,4,0.3,0.4
2022-09-18T19:00:00,1070A,116.7244,39.5269,廊坊市,北华航天学院,,50,50,70,12,29,167,85,93,93,31,34,7,7,0.3,0.4
2022-09-18T19:00:00,1071A,116.8842,38.2991,沧州市,沧县城建局,,50,50,76,13,27,124,64,109,100,29,30,6,9,0.1,0.4
2022-09-18T19:00:00,1072A,116.8584,38.3254,沧州市,电视转播站,,41,41,64,1,26,147,87,126,117,18,27,8,9,0.2,0.5
2022-09-18T19:00:00,1073A,116.8709,38.3228,沧州市,市环保局,颗粒物(PM10),54,58,80,14,30,135,71,117,106,23,28,9,11,0.2,0.5
2022-09-18T19:00:00,1074A,115.6838,37.7541,衡水市,电机北厂,颗粒物(PM10),65,80,85,8,38,262,85,198,186,18,28,7,12,0.1,0.6
2022-09-18T19:00:00,1075A,115.6303,37.7316,衡水市,市监测站,颗粒物(PM10),62,73,94,8,39,248,84,188,177,16,25,9,13,0.4,0.8
2022-09-18T19:00:00,1077A,114.4704,37.0886,邢台市,达活泉,颗粒物(PM10),78,106,101,26,41,216,179,203,203,17,30,5,10,0.6,0.9
2022-09-18T19:00:00,1078A,114.5062,37.0349,邢台市,邢师高专,颗粒物(PM10),75,99,106,27,44,219,178,204,204,26,42,6,8,0.5,0.8
2022-09-18T19:00:00,1079A,114.5237,37.0851,邢台市,路桥公司,臭氧1小时,74,72,87,27,41,216,179,205,205,19,28,7,10,0.5,0.8
2022-09-18T19:00:00,1080A,114.4725,37.0719,邢台市,市环保局,臭氧1小时,79,77,79,27,43,219,183,206,206,19,31,6,9,0.5,0.9
2022-09-18T19:00:00,1081A,112.5139,37.8873,太原市,尖草坪,颗粒物(PM10),51,52,86,23,37,215,157,182,182,22,51,7,11,0.6,0.8
2022-09-18T19:00:00,1083A,112.434,38.0108,太原市,上兰(对照点),,,,,,,,,,,,,,,,
2022-09-18T19:00:00,1084A,112.469,37.7124,太原市,晋源,颗粒物(PM10),59,67,79,29,36,210,149,184,184,26,52,7,9,0.6,0.8
2022-09-18T19:00:00,1085A,112.5583,37.7394,太原市,小店,颗粒物(PM10),62,74,109,28,41,209,139,184,184,36,73,8,12,0.6,0.8
2022-09-18T19:00:00,1086A,112.5369,37.8692,太原市,桃园,颗粒物(PM10),53,56,85,24,37,216,158,184,184,24,52,8,11,0.6,0.9
2022-09-18T19:00:00,1087A,112.57,37.8195,太原市,坞城,颗粒物(PM10),53,55,100,25,37,210,155,184,184,24,65,9,13,0.5,0.8
2022-09-18T19:00:00,1088A,112.549,37.9854,太原市,南寨,颗粒物(PM10),60,70,80,27,35,213,131,174,174,31,44,11,10,0.6,0.6
2022-09-18T19:00:00,1089A,112.4701,37.782,太原市,金胜,,,,,,,,,,,,,,,,
2022-09-18T19:00:00,1090A,111.6507,40.7517,呼和浩特市,呼市一监,颗粒物(PM10),70,90,45,16,9,131,105,112,112,24,22,6,6,0.2,0.1
2022-09-18T19:00:00,1091A,111.6572,40.8033,呼和浩特市,小召,,41,41,38,10,10,127,92,112,112,23,23,5,5,0.3,0.3
2022-09-18T19:00:00,1094A,111.7516,40.8369,呼和浩特市,如意水处理厂,,,,,,,,,,,,,,,,
2022-09-18T19:00:00,1095A,111.7276,40.8062,呼和浩特市,二十九中,颗粒物(PM10),54,57,42,12,8,118,92,105,105,24,22,3,3,0.5,0.4
2022-09-18T19:00:00,1096A,111.5512,40.7866,呼和浩特市,工大金川校区,颗粒物(PM10),65,79,48,16,11,119,92,101,101,24,18,9,7,0.4,0.4
2022-09-18T19:00:00,1097A,111.717,40.7612,呼和浩特市,化肥厂生活区,颗粒物(PM10),69,88,49,21,9,120,69,100,99,60,17,7,7,0.2,0.1
2022-09-18T19:00:00,1098A,123.6836,41.9339,沈阳市,森林路(对照点),,,,,,,,,,,,,,,,
2022-09-18T19:00:00,1099A,123.505,41.7406,沈阳市,浑南东路,,20,20,36,6,19,78,44,73,70,31,31,7,10,0.4,0.7
2022-09-18T19:00:00,1100A,123.4231,41.6989,沈阳市,新秀街,,18,12,35,4,20,83,56,78,76,23,30,6,15,0.3,0.7
2022-09-18T19:00:00,1102A,123.5903,41.8411,沈阳市,东陵路,,,,46,,18,75,28,68,63,25,18,10,11,0.3,0.6
2022-09-18T19:00:00,1103A,123.4264,41.8467,沈阳市,陵东街,,22,22,29,2,12,82,40,76,72,22,15,7,6,0.4,0.6
2022-09-18T19:00:00,1104A,123.4114,41.7653,沈阳市,文化路,,23,23,41,5,21,81,52,74,72,21,24,7,14,0.2,0.6
2022-09-18T19:00:00,1105A,123.4678,41.7867,沈阳市,小河沿,,18,18,33,2,15,79,41,73,69,33,23,6,7,0.3,0.6
2022-09-18T19:00:00,1106A,123.4017,41.7972,沈阳市,太原街,,39,39,36,8,21,73,28,67,62,47,32,5,8,0.4,0.6
2022-09-18T19:00:00,1108A,123.3783,41.9228,沈阳市,京沈街,,44,44,40,4,20,80,58,73,72,16,21,8,13,0.1,0.3
2022-09-18T19:00:00,1109A,121.612,38.9741,大连市,甘井子,,24,14,32,6,22,95,74,90,78,14,17,5,6,0.4,0.4
2022-09-18T19:00:00,1110A,121.565,38.9511,大连市,周水子,,23,20,34,6,19,97,72,77,75,10,18,4,5,0,0.4
2022-09-18T19:00:00,1111A,121.5637,38.8845,大连市,星海三站,,29,13,32,0,23,131,92,119,99,22,22,5,7,0.3,0.6
2022-09-18T19:00:00,1112A,121.6302,38.9117,大连市,青泥洼桥,,23,16,33,4,21,110,73,89,82,27,24,4,4,0.3,0.1
2022-09-18T19:00:00,1113A,121.6251,38.8638,大连市,傅家庄,,29,29,26,9,16,135,80,121,86,21,20,5,5,0.8,1
2022-09-18T19:00:00,1114A,121.5213,38.8661,大连市,七贤岭,,32,15,31,2,18,138,102,117,107,7,10,7,8,0.4,0.6
2022-09-18T19:00:00,1115A,121.2529,38.8061,大连市,旅顺,,31,31,43,3,19,116,89,106,89,9,13,4,6,0.4,0.5
2022-09-18T19:00:00,1116A,121.7485,39.1311,大连市,金州,,,,,,,,,,,,,,,,
2022-09-18T19:00:00,1117A,121.7811,39.0496,大连市,开发区,,31,31,33,5,22,100,84,94,91,24,29,9,8,0.6,0.8
2022-09-18T19:00:00,1118A,121.9762,39.0631,大连市,双D港,,25,14,33,4,14,118,79,102,92,9,10,10,9,0.0,0.4
2022-09-18T19:00:00,1119A,125.3325,43.9166,长春市,食品厂,颗粒物(PM10),67,84,49,8,12,68,20,63,52,47,22,3,4,0.3,0.2
2022-09-18T19:00:00,1120A,125.2863,43.9027,长春市,客车厂,颗粒物(PM10),61,72,50,11,10,70,35,68,60,36,19,5,4,0.4,0.4
2022-09-18T19:00:00,1121A,125.2841,43.8463,长春市,邮电学院,颗粒物(PM10),66,82,45,13,11,68,32,68,60,33,15,4,4,0.4,0.4
2022-09-18T19:00:00,1122A,125.3716,43.8772,长春市,劳动公园,颗粒物(PM10),61,71,44,39,16,72,46,71,65,24,14,5,5,0.4,0.3
2022-09-18T19:00:00,1123A,125.3297,43.8805,长春市,园林处,颗粒物(PM10),57,64,48,9,11,76,42,74,63,25,15,5,5,0.2,0.3
2022-09-18T19:00:00,1124A,125.4605,43.79,长春市,净月潭,颗粒物(PM10),60,70,37,7,9,71,30,66,62,28,11,5,5,0.1,0.2
2022-09-18T19:00:00,1125A,125.7194,43.515,长春市,甩湾子(对照点),,,,,,,,,,,,,,,,
2022-09-18T19:00:00,1126A,125.3863,43.8447,长春市,经开区环卫处,颗粒物(PM10),60,70,41,14,9,71,43,67,64,25,15,5,5,0.4,0.4
2022-09-18T19:00:00,1127A,125.245,43.7783,长春市,高新区管委会,颗粒物(PM10),62,74,43,24,15,70,28,66,61,31,14,4,4,0.1,0.2
2022-09-18T19:00:00,1128A,125.1761,43.8325,长春市,岱山公园,颗粒物(PM10),66,82,53,10,10,63,20,60,53,43,25,6,6,0.3,0.3
2022-09-18T19:00:00,1129A,126.5422,45.755,哈尔滨市,岭北(对照点),,41,41,39,5,10,73,56,66,65,12,10,6,8,0.0,0.1
2022-09-18T19:00:00,1130A,126.561,45.8167,哈尔滨市,松北商大,,30,30,26,5,7,65,33,61,55,29,16,5,5,0.6,0.6
2022-09-18T19:00:00,1131A,126.979,45.5419,哈尔滨市,阿城会宁,,47,47,29,4,6,59,40,56,54,23,10,10,9,0.5,0.5
2022-09-18T19:00:00,1132A,126.599,45.7222,哈尔滨市,南岗学府路,,24,24,21,9,8,58,36,53,50,17,9,10,12,0.2,0.2
2022-09-18T19:00:00,1133A,126.689,45.7733,哈尔滨市,太平宏伟公园,,31,31,30,6,6,64,48,60,59,14,13,3,2,0.3,0.3
2022-09-18T19:00:00,1134A,126.635,45.7667,哈尔滨市,道外承德广场,,22,22,32,2,8,58,43,54,52,20,17,5,5,0.2,0.3
2022-09-18T19:00:00,1135A,126.685,45.7319,哈尔滨市,香坊红旗大街,,48,48,48,10,10,64,47,61,59,17,16,5,7,0.5,0.4
2022-09-18T19:00:00,1136A,126.6411,45.7258,哈尔滨市,动力和平路,,42,42,41,2,1,60,38,57,54,22,16,7,7,0.3,0.3
2022-09-18T19:00:00,1137A,126.593,45.7478,哈尔滨市,道里建国路,,31,31,29,4,6,58,34,54,51,16,13,6,6,0.0,0.5
2022-09-18T19:00:00,1138A,126.615,45.61,哈尔滨市,平房东轻厂,,46,46,30,3,6,55,21,51,46,39,14,4,4,0.5,0.6
2022-09-18T19:00:00,1139A,126.595,45.9855,哈尔滨市,呼兰师专,,28,28,29,5,8,60,42,56,54,15,13,8,9,0.4,0.5
2022-09-18T19:00:00,1140A,126.6206,45.6842,哈尔滨市,省农科院,,,,37,8,5,62,38,59,56,19,12,8,7,0.3,0.4
2022-09-18T19:00:00,1141A,121.4,31.238,上海市,普陀,,50,48,31,35,22,114,108,99,99,26,20,3,3,0.6,0.6
2022-09-18T19:00:00,1142A,121.478,31.2036,上海市,十五厂,颗粒物(PM10),51,51,32,28,24,126,119,107,107,20,18,6,5,0.6,0.7
2022-09-18T19:00:00,1143A,121.467,31.3008,上海市,虹口,,48,48,31,29,18,102,99,88,88,19,18,5,4,0.6,0.6
2022-09-18T19:00:00,1144A,121.412,31.1654,上海市,徐汇上师大,颗粒物(PM10),53,55,34,20,21,119,112,101,101,21,17,5,5,0.7,0.8
2022-09-18T19:00:00,1145A,121.536,31.2659,上海市,杨浦四漂,,44,44,23,20,18,123,120,103,103,20,17,6,6,0.8,0.8
2022-09-18T19:00:00,1146A,120.978,31.0935,上海市,青浦淀山湖(对照点),,,,,,,,,,,,,,,,
2022-09-18T19:00:00,1147A,121.425,31.2261,上海市,静安监测站,颗粒物(PM10),54,58,36,26,22,104,104,92,92,21,17,4,4,0.9,0.9
2022-09-18T19:00:00,1148A,121.703,31.1907,上海市,浦东川沙,,50,50,33,25,20,101,101,86,86,17,19,5,5,0.9,0.9
2022-09-18T19:00:00,1149A,121.533,31.2284,上海市,浦东新区监测站,,42,42,30,20,20,123,123,102,102,18,19,5,5,0.6,0.6
2022-09-18T19:00:00,1150A,121.577,31.2071,上海市,浦东张江,,,36,25,,21,107,105,87,87,17,18,4,4,1.0,0.9
2022-09-18T19:00:00,1151A,118.8086,32.1065,南京市,迈皋桥,,30,30,24,14,11,128,84,110,107,26,27,2,3,0.3,0.3
2022-09-18T19:00:00,1152A,118.7538,32.0551,南京市,草场门,,,,27,,9,55,,76,,,30,,2,,0.4
2022-09-18T19:00:00,1153A,118.7794,32.0745,南京市,山西路,,34,34,29,19,15,147,97,120,118,16,14,7,4,0.4,0.3
2022-09-18T19:00:00,1154A,118.7752,32.0023,南京市,中华门,,34,34,29,5,6,148,98,122,120,16,19,4,4,0.6,0.6
2022-09-18T19:00:00,1155A,118.8109,32.0309,南京市,瑞金路,,31,31,25,18,14,146,98,120,119,15,8,3,3,0.5,0.5
2022-09-18T19:00:00,1156A,118.7997,32.0754,南京市,玄武湖,,35,35,30,17,12,142,98,119,117,17,19,5,4,0.4,0.4
2022-09-18T19:00:00,1157A,118.6414,32.0931,南京市,浦口,,36,30,22,7,8,124,115,115,115,9,13,3,5,0.3,0.5
2022-09-18T19:00:00,1158A,118.7356,31.9996,南京市,奥体中心,,36,36,31,17,15,142,101,125,122,19,20,5,5,0.3,0.4
2022-09-18T19:00:00,1159A,118.9125,32.1028,南京市,仙林大学城,,35,27,23,19,14,119,112,111,111,8,14,3,4,0.5,0.5
2022-09-18T19:00:00,1160A,120.561,31.2472,苏州市,上方山(对照点),,49,49,45,20,24,120,99,107,107,17,13,8,7,0.8,0.8
2022-09-18T19:00:00,1161A,120.628,31.2864,苏州市,南门,,,,,,,,,,,,,,,,
2022-09-18T19:00:00,1162A,120.591,31.3019,苏州市,彩香,,35,29,32,17,24,131,112,121,121,21,14,6,5,0.9,0.9
2022-09-18T19:00:00,1163A,120.596,31.3264,苏州市,轧钢厂,,34,33,32,14,19,129,106,119,119,22,13,4,4,0.8,0.7
2022-09-18T19:00:00,1164A,120.613,31.2703,苏州市,吴中区,,37,27,30,14,20,138,116,127,127,15,9,6,6,0.8,0.8
2022-09-18T19:00:00,1165A,120.543,31.2994,苏州市,苏州新区,,35,27,29,16,28,127,110,118,118,21,16,6,6,1.0,0.9
2022-09-18T19:00:00,1166A,120.669,31.3097,苏州市,苏州工业园区,,35,30,30,16,21,120,112,112,112,15,11,5,5,0.7,0.8
2022-09-18T19:00:00,1167A,120.641,31.3708,苏州市,相城区,,38,38,29,19,16,133,117,122,122,14,8,5,4,0.8,0.8
2022-09-18T19:00:00,1168A,120.9098,31.9663,南通市,狼山街道,,49,23,23,17,10,158,155,130,130,14,12,7,5,0.6,0.5
2022-09-18T19:00:00,1169A,120.86,32.0005,南通市,虹桥,,45,43,25,25,18,145,142,124,124,10,7,6,4,0.7,0.6
2022-09-18T19:00:00,1170A,120.87,32.02,南通市,城中,,43,39,25,20,22,140,135,120,120,14,10,6,4,0.6,0.5
2022-09-18T19:00:00,1171A,120.94,31.93,南通市,星湖花园,颗粒物(PM10),54,58,25,22,13,153,153,126,126,12,11,8,6,0.6,0.7
2022-09-18T19:00:00,1172A,120.81,32.0417,南通市,紫琅学院,,48,38,28,19,13,157,151,137,137,18,13,7,6,0.7,0.5
2022-09-18T19:00:00,1173A,119.176,34.5885,连云港市,市环境监测站,颗粒物(PM10),58,66,42,24,20,223,162,192,192,27,23,8,9,0.7,0.7
2022-09-18T19:00:00,1177A,117.179,34.2761,徐州市,黄河新村,颗粒物(PM10),60,70,54,32,28,199,160,183,183,36,25,12,11,0.9,0.9
2022-09-18T19:00:00,1178A,117.1918,34.2384,徐州市,淮塔,臭氧1小时,75,64,61,27,32,205,180,188,188,18,22,13,12,0.7,0.7
2022-09-18T19:00:00,1180A,117.256,34.2153,徐州市,新城区,臭氧1小时,77,83,64,44,32,200,181,183,183,22,26,13,11,0.8,0.7
2022-09-18T19:00:00,1181A,117.244,34.2911,徐州市,桃园路,颗粒物(PM10),67,83,64,27,26,204,160,187,187,28,21,10,10,0.8,0.8
2022-09-18T19:00:00,1182A,117.2933,34.2778,徐州市,农科院,颗粒物(PM10),57,63,60,17,23,193,163,172,172,31,42,11,11,0.8,0.8
2022-09-18T19:00:00,1186A,119.389,32.3761,扬州市,邗江监测站,,46,46,24,24,14,134,129,115,115,14,11,9,10,0.6,0.6
2022-09-18T19:00:00,1188A,120.269,31.4867,无锡市,雪浪,,39,39,33,22,22,124,124,120,120,11,17,6,6,1.1,1.3
2022-09-18T19:00:00,1189A,120.275,31.6219,无锡市,黄巷,颗粒物(PM10),53,56,39,14,21,111,111,106,106,22,15,5,5,0.7,0.7
2022-09-18T19:00:00,1190A,120.294,31.56,无锡市,曹张,,50,50,31,27,22,116,114,112,112,17,11,7,7,0.9,1
2022-09-18T19:00:00,1191A,120.242,31.5031,无锡市,漆塘,,39,27,29,18,18,126,124,121,121,9,15,7,8,0.6,0.7
2022-09-18T19:00:00,1192A,120.3489,31.5863,无锡市,东亭,颗粒物(PM10),51,51,34,27,20,118,118,113,111,10,8,8,8,0.7,0.7
2022-09-18T19:00:00,1193A,120.354,31.5475,无锡市,旺庄,,46,46,30,17,18,118,118,115,115,12,7,6,7,0.8,0.8
2022-09-18T19:00:00,1194A,120.245,31.5631,无锡市,荣巷,,41,31,32,27,23,130,130,120,120,8,11,8,8,0.7,0.8
2022-09-18T19:00:00,1195A,120.299,31.6817,无锡市,堰桥,,44,44,33,17,18,132,131,118,118,9,8,7,7,0.9,0.9
2022-09-18T19:00:00,1196A,119.9633,31.762,常州市,市监测站,,39,39,30,27,18,128,117,121,121,20,14,5,5,0.5,0.5
2022-09-18T19:00:00,1200A,119.9468,31.7069,常州市,武进监测站,,,43,34,24,17,136,126,131,131,13,10,5,6,,0.6
2022-09-18T19:00:00,1201A,119.9255,31.9087,常州市,安家,,47,47,34,29,20,137,117,126,126,18,12,7,7,0.6,0.6
2022-09-18T19:00:00,1203A,119.6707,32.1875,镇江市,新区办事处,,39,39,19,20,12,127,115,114,114,23,17,6,6,0.5,0.4
2022-09-18T19:00:00,1204A,119.4974,32.1968,镇江市,职教中心,,45,45,24,23,12,132,130,118,118,15,16,3,4,0.4,0.3
2022-09-18T19:00:00,1205A,119.4303,32.1328,镇江市,丹徒区监测站,,37,32,21,20,16,124,117,114,114,18,14,1,2,0.5,0.4
2022-09-18T19:00:00,1206A,119.905,32.4878,泰州市,公园路,,39,36,23,22,14,146,124,126,126,11,11,8,8,0.5,0.6
2022-09-18T19:00:00,1207A,119.9189,32.4625,泰州市,莲花,,42,39,20,29,17,147,128,128,128,14,9,6,6,0.7,0.5
2022-09-18T19:00:00,1209A,119.888,32.4639,泰州市,留学生创业园,,48,48,24,25,15,148,105,126,126,31,12,8,9,0.7,0.5
2022-09-18T19:00:00,1210A,119.036,33.5981,淮安市,钵池山,,40,36,26,18,12,169,127,154,154,22,12,6,5,0.9,0.7
2022-09-18T19:00:00,1211A,119.007,33.575,淮安市,北京南路,,48,48,30,18,14,172,130,155,155,20,12,8,7,0.7,0.6
2022-09-18T19:00:00,1212A,118.989,33.6067,淮安市,市监测站,,46,46,31,19,16,176,134,161,161,24,15,8,8,1.0,0.8
2022-09-18T19:00:00,1213A,119.135,33.5039,淮安市,楚州区监测站,,42,42,30,19,14,156,132,146,146,16,12,6,6,0.9,0.8
2022-09-18T19:00:00,1214A,119.0186,33.6297,淮安市,淮阴区监测站,,46,46,32,21,16,172,120,154,154,29,16,9,9,0.7,0.5
2022-09-18T19:00:00,1215A,120.118,33.4022,盐城市,盐城电厂,臭氧1小时,60,51,29,25,14,183,168,169,169,9,9,7,6,0.6,0.4
2022-09-18T19:00:00,1216A,120.156,33.3942,盐城市,市监测站,,46,43,24,18,13,164,146,151,151,13,11,14,11,0.5,0.4
2022-09-18T19:00:00,1218A,120.2144,33.38,盐城市,开发区管委会,,,46,17,23,12,167,163,156,156,9,9,7,7,,0.4
2022-09-18T19:00:00,1220A,118.293,33.9528,宿迁市,宿迁学院,,43,32,35,21,21,187,136,175,175,36,20,7,8,0.4,0.4
2022-09-18T19:00:00,1221A,118.2442,33.9592,宿迁市,宿迁中学,,45,38,38,23,21,185,144,174,174,26,17,9,8,0.9,0.7
2022-09-18T19:00:00,1223A,120.2072,30.2111,杭州市,滨江,,47,33,50,13,32,162,148,146,146,20,24,8,7,0.6,0.7
2022-09-18T19:00:00,1224A,120.0633,30.2747,杭州市,西溪,,37,31,51,19,28,135,117,125,125,12,15,12,11,0.6,0.8
2022-09-18T19:00:00,1225A,119.026,29.635,杭州市,千岛湖(对照点),,,,,,,,,,,,,,,,
2022-09-18T19:00:00,1226A,120.3461,30.3153,杭州市,下沙,,40,25,52,13,28,177,128,146,146,21,30,6,7,0.5,0.7
2022-09-18T19:00:00,1227A,120.1269,30.2456,杭州市,卧龙桥,,43,30,40,15,28,150,135,140,140,23,18,6,5,0.6,0.7
2022-09-18T19:00:00,1228A,120.1903,30.2692,杭州市,浙江农大,,45,24,43,15,27,161,142,142,142,20,23,5,5,0.6,0.7
2022-09-18T19:00:00,1229A,120.157,30.2897,杭州市,朝晖五区,,,,,,,,,,,,,,,,
2022-09-18T19:00:00,1230A,120.1197,30.3119,杭州市,和睦小学,,35,34,57,12,34,151,110,129,129,41,31,3,3,0.5,0.7
2022-09-18T19:00:00,1231A,120.3019,30.4183,杭州市,临平镇,,39,22,48,10,25,173,124,144,144,19,17,6,6,0.7,0.8
2022-09-18T19:00:00,1232A,120.2697,30.1819,杭州市,城厢镇,,47,33,50,14,35,167,149,146,146,18,20,5,6,0.5,0.7
2022-09-18T19:00:00,1233A,120.0883,30.1808,杭州市,云栖,,33,23,40,13,23,143,104,130,130,18,20,6,6,0.5,0.7
2022-09-18T19:00:00,1234A,121.8358,29.911,宁波市,区环保大楼,,,26,21,13,16,140,135,116,116,23,17,,9,0.6,0.6
2022-09-18T19:00:00,1235A,121.56,29.82,宁波市,万里学院,,44,29,29,18,27,204,139,131,131,15,12,5,6,1.3,0.6
2022-09-18T19:00:00,1236A,121.713,29.9572,宁波市,龙赛医院,,,32,27,17,18,137,137,114,114,21,20,,8,0.7,0.7
2022-09-18T19:00:00,1239A,121.633,29.7733,宁波市,钱湖水厂,,40,24,26,18,19,171,128,118,118,12,10,5,5,0.6,0.7
2022-09-18T19:00:00,1240A,121.5856,29.8635,宁波市,太古小学,,43,25,24,15,21,181,135,119,119,15,15,5,5,0.7,0.8
2022-09-18T19:00:00,1241A,121.524,29.8674,宁波市,市环境监测中心,,41,28,32,13,17,187,131,119,119,12,10,5,6,0.6,0.6
2022-09-18T19:00:00,1242A,120.634,28.0089,温州市,瓯海,颗粒物(PM10),54,58,54,27,29,164,153,152,151,21,25,7,7,0.7,0.6
2022-09-18T19:00:00,1243A,120.6748,27.9939,温州市,南浦,臭氧1小时,72,74,52,36,33,178,177,161,161,22,19,6,5,0.5,0.4
2022-09-18T19:00:00,1244A,120.76,27.9747,温州市,龙湾,颗粒物(PM10),63,76,54,39,29,179,162,166,166,38,29,7,6,0.5,0.4
2022-09-18T19:00:00,1245A,120.6709,28.0167,温州市,市站,臭氧1小时,65,59,49,37,32,186,172,158,158,30,24,6,6,0.6,0.6
2022-09-18T19:00:00,1246A,120.598,30.0911,绍兴市,袍江站,,,,,,,,,,,,,,,,
2022-09-18T19:00:00,1247A,120.6053,29.9928,绍兴市,城东开发委,,44,28,57,14,27,145,140,132,132,17,23,8,8,0.7,0.9
2022-09-18T19:00:00,1250A,120.0751,30.8669,湖州市,城西水厂,,37,37,35,11,20,165,113,143,142,33,21,5,5,0.3,0.5
2022-09-18T19:00:00,1252A,120.7436,30.778,嘉兴市,清河小学,,40,20,29,14,21,148,125,130,130,22,20,6,5,0.4,0.6
2022-09-18T19:00:00,1253A,120.726,30.7478,嘉兴市,嘉兴学院,,44,22,34,12,25,164,139,138,138,14,16,4,4,0.4,0.6
2022-09-18T19:00:00,1255A,121.273,28.6459,台州市,黄岩环保大楼,,45,40,48,19,27,141,141,137,137,14,16,5,5,0.5,0.5
2022-09-18T19:00:00,1256A,121.419,28.6542,台州市,台州环保大楼,,43,32,45,26,32,184,137,134,134,17,16,8,9,0.6,0.6
2022-09-18T19:00:00,1257A,121.377,28.5773,台州市,路桥田洋王,,42,36,45,29,33,179,134,136,136,16,15,5,5,0.6,0.5
2022-09-18T19:00:00,1258A,122.122,30.0203,舟山市,定海檀枫,,,22,19,13,12,126,126,101,101,13,9,2,2,,0.3
2022-09-18T19:00:00,1259A,122.3094,29.9558,舟山市,普陀东港,,40,22,18,13,13,126,126,101,101,18,17,4,4,0.5,0.4
2022-09-18T19:00:00,1260A,122.19,29.9944,舟山市,临城新区,,40,24,18,12,10,125,125,102,102,11,9,3,3,0.6,0.5
2022-09-18T19:00:00,1261A,119.649,29.1131,金华市,四中(停运161031),,,,,,,,,,,,,,,,
2022-09-18T19:00:00,1262A,119.647,29.077,金华市,十五中,,48,33,53,33,36,202,130,174,172,22,26,5,8,0.5,0.5
2022-09-18T19:00:00,1263A,119.686,29.1029,金华市,监测站,细颗粒物(PM2.5),53,52,58,37,36,220,130,192,186,26,32,4,14,0.7,0.6
2022-09-18T19:00:00,1264A,118.8692,28.9398,衢州市,环保大楼,,44,32,47,30,29,182,139,174,171,21,23,4,6,0.7,0.7
2022-09-18T19:00:00,1265A,118.8709,28.9666,衢州市,实验学校,细颗粒物(PM2.5),80,60,40,59,28,194,151,184,182,20,21,5,6,0.7,0.6
2022-09-18T19:00:00,1266A,118.8621,28.9808,衢州市,衢州学院,细颗粒物(PM2.5),59,63,43,42,29,188,142,178,175,21,20,7,8,0.5,0.4
2022-09-18T19:00:00,1267A,119.914,28.4514,丽水市,监测站大楼,,49,46,48,34,31,168,143,159,157,13,27,7,7,0.5,0.5
2022-09-18T19:00:00,1268A,119.93,28.4586,丽水市,莲都小学,颗粒物(PM10),55,60,51,27,25,174,151,166,165,12,18,6,6,0.5,0.4
2022-09-18T19:00:00,1269A,119.879,28.4231,丽水市,余庄前,,49,44,41,24,23,183,154,170,169,12,16,8,6,0.5,0.5
2022-09-18T19:00:00,1270A,117.1959,31.7848,合肥市,明珠广场,,38,31,37,19,19,149,119,140,140,14,21,8,8,0.4,0.5
2022-09-18T19:00:00,1271A,117.3072,31.8764,合肥市,三里街,,34,29,34,12,13,126,106,119,118,15,19,6,5,0.6,0.7
2022-09-18T19:00:00,1272A,117.2588,31.8707,合肥市,琥珀山庄,,33,31,33,12,15,130,103,122,121,20,21,6,6,0.6,0.6
2022-09-18T19:00:00,1273A,117.1604,31.9052,合肥市,董铺水库(对照点),,35,29,39,5,17,129,110,117,117,10,16,10,9,0.5,0.6
2022-09-18T19:00:00,1274A,117.25,31.8571,合肥市,长江中路,,35,29,38,17,21,140,111,132,130,11,13,9,10,0.6,0.6
2022-09-18T19:00:00,1275A,117.266,31.9436,合肥市,庐阳区,,46,46,43,19,23,138,103,126,125,21,21,11,11,0.5,0.6
2022-09-18T19:00:00,1276A,117.336,31.8586,合肥市,瑶海区,,46,46,45,12,16,132,112,122,122,13,19,10,10,0.7,0.8
2022-09-18T19:00:00,1277A,117.3027,31.7964,合肥市,包河区,,39,39,42,12,17,136,97,127,122,30,37,10,10,0.6,0.6
2022-09-18T19:00:00,1278A,117.2776,31.7385,合肥市,滨湖新区,,36,36,40,17,14,136,107,128,127,15,23,9,9,0.5,0.5
2022-09-18T19:00:00,1279A,117.1318,31.8403,合肥市,高新区,,39,31,39,14,18,149,123,138,137,19,24,5,5,0.4,0.5
2022-09-18T19:00:00,1280A,119.3903,26.0543,福州市,鼓山(对照点),,,,,,,,,,,,,,,,
2022-09-18T19:00:00,1282A,119.2681,26.0504,福州市,师大,颗粒物(PM10),54,58,50,19,26,178,139,168,167,13,12,5,5,0.4,0.4
2022-09-18T19:00:00,1283A,119.2984,26.1028,福州市,五四北路,颗粒物(PM10),63,76,43,20,24,165,139,154,154,14,8,4,3,0.4,0.4
2022-09-18T19:00:00,1284A,119.2648,26.0768,福州市,杨桥西路,颗粒物(PM10),58,65,47,18,24,178,140,162,162,14,11,5,5,0.5,0.5
2022-09-18T19:00:00,1285A,119.317,26.0746,福州市,紫阳,颗粒物(PM10),54,58,48,18,25,172,142,161,161,12,13,5,6,0.5,0.5
2022-09-18T19:00:00,1286A,118.1608,24.8169,厦门市,溪东(对照点),,,,,,,,,,,,,,,,
2022-09-18T19:00:00,1287A,118.1514,24.4767,厦门市,洪文,,48,48,40,25,22,136,116,125,125,6,12,2,3,0.5,0.4
2022-09-18T19:00:00,1288A,118.0661,24.4444,厦门市,鼓浪屿,,42,41,37,26,26,162,134,145,145,8,13,3,3,0.3,0.4
2022-09-18T19:00:00,1290A,115.8931,28.6843,南昌市,省外办,颗粒物(PM10),55,60,57,22,22,183,138,170,167,18,22,8,11,0.8,0.8
2022-09-18T19:00:00,1291A,115.8886,28.7003,南昌市,省林业公司,颗粒物(PM10),51,51,57,17,21,178,132,169,165,19,32,5,7,0.6,0.7
2022-09-18T19:00:00,1292A,115.8126,28.7442,南昌市,林科所,,,36,41,22,19,184,130,172,167,22,13,,8,0.6,0.6
2022-09-18T19:00:00,1294A,115.8518,28.687,南昌市,建工学校,,44,44,51,26,24,180,137,172,168,22,22,10,11,0.8,0.8
2022-09-18T19:00:00,1295A,115.8921,28.6424,南昌市,象湖,,48,39,42,24,24,180,151,168,167,8,17,4,6,0.7,0.7
2022-09-18T19:00:00,1296A,115.7423,28.7996,南昌市,武术学校(对照点),,42,42,30,22,24,144,78,129,122,2,3,9,8,0.4,0.6
2022-09-18T19:00:00,1298A,115.9314,28.6842,南昌市,省站,颗粒物(PM10),53,56,60,26,30,175,139,166,164,15,18,5,8,0.7,0.7
2022-09-18T19:00:00,1299A,116.9862,36.6114,济南市,科干所,颗粒物(PM10),54,58,74,15,30,212,102,184,172,20,41,12,6,0.5,0.6
2022-09-18T19:00:00,1300A,116.9376,36.665,济南市,农科所,颗粒物(PM10),63,76,69,7,20,221,97,176,168,17,42,13,7,0.4,0.6
2022-09-18T19:00:00,1301A,117.1265,36.6734,济南市,开发区,颗粒物(PM10),57,63,63,9,19,221,87,177,164,24,42,9,6,0.6,0.7
2022-09-18T19:00:00,1303A,117.0624,36.6868,济南市,省种子仓库,颗粒物(PM10),62,73,81,14,28,212,85,171,161,15,63,8,5,0.6,0.9
2022-09-18T19:00:00,1304A,116.9489,36.6447,济南市,机床二厂,颗粒物(PM10),67,83,96,10,28,223,99,184,174,22,45,12,8,0.6,0.8
2022-09-18T19:00:00,1305A,117.0495,36.663,济南市,市监测站,颗粒物(PM10),59,68,68,15,27,213,87,174,163,21,51,12,8,0.9,0.9
2022-09-18T19:00:00,1306A,116.7675,36.5484,济南市,长清党校,颗粒物(PM10),66,81,63,20,28,233,116,193,187,23,31,11,6,0.5,0.6
2022-09-18T19:00:00,1307A,120.6659,36.2403,青岛市,仰口(对照点),,,,,,,,,,,,,,,,
2022-09-18T19:00:00,1308A,120.3905,36.1851,青岛市,李沧区子站,,,,,,,,,,,,,,,,
2022-09-18T19:00:00,1309A,120.3471,36.0699,青岛市,市北区子站,,,,,,,,,,,,,,,,
2022-09-18T19:00:00,1310A,120.4134,36.0658,青岛市,市南区东部子站,细颗粒物(PM2.5),73,83,51,53,24,199,164,185,185,19,28,8,9,0.8,0.6
2022-09-18T19:00:00,1311A,120.3664,36.1032,青岛市,四方区子站,细颗粒物(PM2.5),67,75,60,48,28,193,149,176,176,20,36,5,7,0.9,0.7
2022-09-18T19:00:00,1312A,120.2994,36.054,青岛市,市南区西部子站,臭氧1小时,70,85,52,46,22,211,176,197,197,12,29,7,10,1.0,0.7
2022-09-18T19:00:00,1313A,120.4581,36.0858,青岛市,崂山区子站,细颗粒物(PM2.5),77,92,51,56,25,201,174,184,184,16,25,6,7,0.8,0.5
2022-09-18T19:00:00,1314A,120.1983,35.9608,青岛市,黄岛区子站,细颗粒物(PM2.5),80,88,57,59,32,226,156,199,199,30,43,5,9,1.0,0.8
2022-09-18T19:00:00,1315A,120.3999,36.3083,青岛市,城阳区子站,颗粒物(PM10),61,71,47,38,21,198,139,180,178,13,29,5,6,0.9,0.9
2022-09-18T19:00:00,1316A,113.69031,34.76122,郑州市,烟厂,臭氧1小时,80,48,68,23,32,209,184,195,195,18,29,4,7,0.4,0.5
2022-09-18T19:00:00,1317A,113.65724,34.77134,郑州市,郑纺机,臭氧1小时,60,52,67,18,27,193,168,179,179,13,29,7,10,0.4,0.5
2022-09-18T19:00:00,1318A,113.67526,34.80246,郑州市,银行学校,颗粒物(PM10),55,60,62,17,22,188,163,173,173,22,31,7,9,0.7,0.8
2022-09-18T19:00:00,1319A,113.56746,34.81334,郑州市,供水公司,臭氧1小时,60,60,74,19,24,189,168,171,171,14,36,4,7,0.4,0.6
2022-09-18T19:00:00,1320A,113.7329,34.7178,郑州市,经开区管委,"颗粒物(PM10),臭氧1小时",53,56,68,25,30,196,162,183,183,22,43,4,7,0.5,0.6
2022-09-18T19:00:00,1321A,113.73961,34.77172,郑州市,四十七中,臭氧1小时,68,56,64,21,27,202,174,189,189,20,38,6,9,0.5,0.6
2022-09-18T19:00:00,1322A,113.60532,34.74838,郑州市,市监测站,,,55,72,,,204,172,186,186,22,45,4,7,0.3,0.5
2022-09-18T19:00:00,1323A,113.64164,34.7525,郑州市,河医大,颗粒物(PM10),60,69,68,19,30,194,162,173,173,28,37,7,10,0.6,0.6
2022-09-18T19:00:00,1324A,113.51488,34.91089,郑州市,岗李水库(对照点),,,,,,,,,,,,,,,,
2022-09-18T19:00:00,1325A,114.3677,30.5584,武汉市,东湖梨园,,43,21,35,12,22,162,136,155,152,13,21,8,13,0.6,1.2
2022-09-18T19:00:00,1326A,114.2529,30.558,武汉市,汉阳月湖,,41,26,32,12,16,162,131,152,148,16,20,6,7,0.7,0.8
2022-09-18T19:00:00,1327A,114.282,30.6189,武汉市,汉口花桥,,42,31,40,7,16,162,132,150,146,15,18,8,9,0.7,0.6
2022-09-18T19:00:00,1328A,114.3025,30.5332,武汉市,武昌紫阳,,40,24,36,15,17,169,127,156,151,14,25,7,10,0.6,0.8
2022-09-18T19:00:00,1329A,114.3646,30.6217,武汉市,青山钢花,,37,26,40,17,25,157,118,148,142,25,26,8,9,0.6,0.6
2022-09-18T19:00:00,1330A,114.1566,30.4825,武汉市,沌口新区,,39,24,41,22,25,168,123,158,153,16,22,8,10,0.6,0.6
2022-09-18T19:00:00,1331A,114.3014,30.5944,武汉市,汉口江滩,,44,34,38,15,16,168,138,158,154,13,21,7,8,0.6,0.6
2022-09-18T19:00:00,1333A,114.135,30.6319,武汉市,吴家山,,40,32,41,15,19,165,127,157,151,16,21,5,6,0.7,0.8
2022-09-18T19:00:00,1334A,113.8454,30.2917,武汉市,沉湖七壕(对照点),,48,30,51,20,26,197,151,184,182,15,19,9,10,0.6,0.6
2022-09-18T19:00:00,1335A,113.0833,28.2325,长沙市,经开区环保局,臭氧1小时,69,60,48,41,33,211,175,194,194,18,21,10,8,0.5,0.4
2022-09-18T19:00:00,1336A,112.8872,28.2189,长沙市,高开区环保局,,,73,56,38,34,223,193,207,207,,22,10,10,0.4,0.4
2022-09-18T19:00:00,1337A,113.0792,28.2053,长沙市,马坡岭,臭氧1小时,78,72,60,42,34,222,182,199,199,19,22,9,10,0.6,0.5
2022-09-18T19:00:00,1338A,112.9394,28.19,长沙市,湖南师范大学,臭氧1小时,77,74,64,37,32,220,181,200,200,7,15,4,4,0.6,0.6
2022-09-18T19:00:00,1339A,113.0178,28.1322,长沙市,雨花区环保局,臭氧1小时,79,88,67,46,32,219,183,194,194,16,27,10,9,0.5,0.5
2022-09-18T19:00:00,1340A,112.9792,28.2597,长沙市,伍家岭,臭氧1小时,93,61,62,32,35,242,194,221,221,12,28,7,7,0.6,0.6
2022-09-18T19:00:00,1341A,113.0014,28.1944,长沙市,火车新站,臭氧1小时,74,64,54,29,28,222,179,201,201,7,20,7,7,0.8,0.7
2022-09-18T19:00:00,1342A,112.9844,28.1178,长沙市,天心区环保局,臭氧1小时,80,67,62,33,31,224,184,205,205,12,26,9,8,0.6,0.5
2022-09-18T19:00:00,1343A,112.8908,28.1308,长沙市,湖南中医药大学,臭氧1小时,73,56,56,39,38,219,178,196,196,8,22,7,6,0.5,0.5
2022-09-18T19:00:00,1344A,112.9581,28.3611,长沙市,沙坪(对照点),臭氧1小时,92,62,55,35,33,212,193,202,202,10,14,8,8,0.7,0.7
2022-09-18T19:00:00,1345A,113.2347,23.1423,广州市,广雅中学,细颗粒物(PM2.5),67,71,79,48,49,221,147,185,185,32,41,6,9,0.7,0.9
2022-09-18T19:00:00,1346A,113.2612,23.105,广州市,市五中,臭氧1小时,69,67,77,48,53,251,175,214,214,14,31,7,9,0.7,0.8
2022-09-18T19:00:00,1348A,113.3478,23.0916,广州市,广东商学院,,,,75,,47,103,,101,,,45,,7,,0.8
2022-09-18T19:00:00,1349A,113.4332,23.1047,广州市,市八十六中,颗粒物(PM10),62,74,81,41,46,249,166,210,210,24,49,7,8,0.9,1
2022-09-18T19:00:00,1350A,113.3505,22.9483,广州市,番禺中学,臭氧1小时,79,82,77,54,47,277,183,236,236,27,32,5,6,0.9,0.9
2022-09-18T19:00:00,1351A,113.2146,23.3916,广州市,花都师范,细颗粒物(PM2.5),57,59,82,40,52,209,156,180,180,16,33,6,9,1.0,1.1
2022-09-18T19:00:00,1352A,113.2597,23.1331,广州市,市监测站,细颗粒物(PM2.5),67,61,77,48,51,243,168,206,206,15,27,5,8,0.9,1
2022-09-18T19:00:00,1353A,113.5618,23.312,广州市,九龙镇镇龙,细颗粒物(PM2.5),74,86,106,54,60,247,127,192,189,18,44,5,5,0.7,0.9
2022-09-18T19:00:00,1354A,113.2765,23.1544,广州市,麓湖,细颗粒物(PM2.5),57,61,74,40,49,226,128,196,191,26,44,4,5,0.7,0.9
2022-09-18T19:00:00,1355A,113.443,23.3035,广州市,帽峰山森林公园(对照点),细颗粒物(PM2.5),55,56,76,39,52,243,131,190,187,10,27,5,6,0.5,0.7
2022-09-18T19:00:00,1356A,114.1063,22.5545,深圳市,通心岭子站,,39,34,58,21,43,212,122,169,169,15,17,4,4,0.7,0.9
2022-09-18T19:00:00,1357A,114.117,22.5625,深圳市,洪湖,,40,38,66,28,44,239,122,183,182,25,21,5,7,0.4,0.5
2022-09-18T19:00:00,1358A,113.987,22.5417,深圳市,华侨城,颗粒物(PM10),51,52,68,23,45,189,144,155,155,11,21,4,3,0.9,0.9
2022-09-18T19:00:00,1359A,113.9181,22.5171,深圳市,南海子站,,49,37,61,34,43,231,141,180,180,12,20,3,5,0.8,0.9
2022-09-18T19:00:00,1360A,114.2458,22.5689,深圳市,盐田,细颗粒物(PM2.5),67,61,49,48,43,201,109,158,158,19,21,3,3,0.9,1.1
2022-09-18T19:00:00,1361A,114.2283,22.7244,深圳市,龙岗,,50,50,74,29,51,249,152,188,188,23,30,4,6,0.9,1
2022-09-18T19:00:00,1362A,113.8953,22.5861,深圳市,西乡,,,,,,,,,,,,,,,,
2022-09-18T19:00:00,1363A,114.494,22.5422,深圳市,南澳,,44,42,49,30,38,197,140,167,167,29,19,8,10,0.5,0.6
2022-09-18T19:00:00,1364A,114.41,22.6342,深圳市,葵涌,,,44,56,30,42,181,42,132,125,49,21,,5,0.7,0.9
2022-09-18T19:00:00,1365A,114.297,22.5978,深圳市,梅沙,细颗粒物(PM2.5),57,57,60,40,43,184,67,137,134,36,43,6,8,1.0,1
2022-09-18T19:00:00,1366A,114.0678,22.738,深圳市,观澜,细颗粒物(PM2.5),67,53,84,48,50,260,147,205,205,21,22,8,7,0.6,0.7
2022-09-18T19:00:00,1367A,113.5814,22.2618,珠海市,吉大,颗粒物(PM10),53,55,53,28,37,156,106,140,139,14,14,6,5,0.7,0.6
2022-09-18T19:00:00,1368A,113.4881,22.2335,珠海市,前山,,46,46,54,30,38,159,86,143,138,26,27,11,6,0.8,0.6
2022-09-18T19:00:00,1369A,113.628,22.4251,珠海市,唐家,细颗粒物(PM2.5),62,57,55,44,41,208,130,166,166,12,15,10,6,0.5,0.5
2022-09-18T19:00:00,1370A,113.299,22.2281,珠海市,斗门,,45,40,39,31,32,139,100,125,124,14,13,8,7,0.9,0.8
2022-09-18T19:00:00,1371A,113.1294,23.0067,佛山市,湾梁,臭氧1小时,75,66,72,42,42,236,180,205,205,16,21,6,9,0.6,0.6
2022-09-18T19:00:00,1372A,113.1083,23.0478,佛山市,华材职中,细颗粒物(PM2.5),65,70,76,47,48,224,158,195,195,24,27,7,11,0.6,0.7
2022-09-18T19:00:00,1373A,113.144,23.0453,佛山市,南海气象局,臭氧1小时,78,69,75,44,49,240,182,209,209,17,26,7,10,0.6,0.6
2022-09-18T19:00:00,1374A,113.2881,22.8094,佛山市,顺德苏岗,臭氧1小时,63,51,52,44,40,218,170,198,198,18,26,7,7,0.9,0.9
2022-09-18T19:00:00,1375A,113.2544,22.7642,佛山市,容桂街道办,,,,,,,,,,,,,,,,
2022-09-18T19:00:00,1376A,112.8383,22.8678,佛山市,高明孔堂,细颗粒物(PM2.5),58,51,61,41,41,179,126,160,160,12,12,6,10,0.8,0.7
2022-09-18T19:00:00,1377A,112.8836,23.1588,佛山市,三水监测站,细颗粒物(PM2.5),72,68,87,52,55,185,137,163,163,26,43,5,8,0.7,0.9
2022-09-18T19:00:00,1378A,112.867,23.185,佛山市,三水云东海,细颗粒物(PM2.5),74,62,81,54,55,200,116,166,166,22,40,5,11,0.8,0.8
2022-09-18T19:00:00,1379A,113.3769,22.5211,中山市,华柏园,颗粒物(PM10),56,61,58,39,41,196,119,172,170,18,19,5,6,0.9,0.8
2022-09-18T19:00:00,1380A,113.3881,22.5497,中山市,张溪,颗粒物(PM10),55,60,63,32,40,207,135,186,185,13,15,4,5,0.7,0.7
2022-09-18T19:00:00,1381A,113.4075,22.5111,中山市,紫马岭,颗粒物(PM10),56,62,64,38,38,198,129,174,172,15,26,7,7,0.5,0.5
2022-09-18T19:00:00,1382A,113.4411,22.4853,中山市,长江旅游区(对照点),细颗粒物(PM2.5),55,51,52,39,38,199,149,178,178,10,11,10,10,0.6,0.6
2022-09-18T19:00:00,1383A,113.1064,22.6058,江门市,北街,颗粒物(PM10),59,67,56,36,39,164,136,150,150,14,14,7,7,0.9,0.8
2022-09-18T19:00:00,1384A,113.0731,22.5835,江门市,西区,细颗粒物(PM2.5),65,77,59,47,37,178,140,166,166,22,20,8,7,0.7,0.7
2022-09-18T19:00:00,1385A,113.0219,22.5311,江门市,圭峰西,细颗粒物(PM2.5),72,69,58,52,37,162,142,154,154,14,14,7,7,0.7,0.7
2022-09-18T19:00:00,1386A,113.0828,22.5947,江门市,东湖,细颗粒物(PM2.5),64,75,59,46,37,174,148,166,166,16,17,8,7,0.7,0.8
2022-09-18T19:00:00,1387A,113.7875,23.0457,东莞市,东城主山,,,,,,,,,,,,,,,,
2022-09-18T19:00:00,1388A,113.7533,23.0202,东莞市,南城元岭,,,,,,,,,,,,,,,,
2022-09-18T19:00:00,1389A,113.7547,23.0494,东莞市,莞城梨川,臭氧1小时,105,67,73,44,49,300,210,249,249,23,31,9,10,1.1,1.2
2022-09-18T19:00:00,1390A,113.7944,23.0128,东莞市,东城石井,臭氧1小时,97,69,70,46,48,309,197,260,260,21,22,10,10,1.0,1
2022-09-18T19:00:00,1391A,113.7383,22.9658,东莞市,南城西平,"颗粒物(PM10),臭氧1小时",63,76,76,34,46,286,170,248,248,24,26,8,8,0.8,1
2022-09-18T19:00:00,1392A,114.4183,23.0528,惠州市,河南岸金山湖子站,颗粒物(PM10),79,107,96,33,51,211,154,193,193,32,20,4,4,0.9,0.9
2022-09-18T19:00:00,1393A,114.4053,23.0822,惠州市,下埔横江三路子站,臭氧1小时,69,72,87,38,41,237,175,205,205,24,26,4,5,0.9,0.9
2022-09-18T19:00:00,1394A,114.4103,23.1142,惠州市,江北云山西路子站,细颗粒物(PM2.5),69,52,88,50,54,244,173,218,218,20,21,7,4,0.8,0.9
2022-09-18T19:00:00,1395A,114.4645,22.7833,惠州市,惠阳区承修路船湖子站,颗粒物(PM10),56,62,73,38,51,192,132,164,159,26,25,5,6,1.0,1
2022-09-18T19:00:00,1396A,114.5317,22.7422,惠州市,大亚湾管委会子站,细颗粒物(PM2.5),57,30,60,40,45,196,143,162,160,21,30,3,3,0.9,0.9
2022-09-18T19:00:00,1397A,112.4267,23.0706,肇庆市,睦岗子站,细颗粒物(PM2.5),64,66,63,46,46,186,137,172,172,24,36,5,6,0.7,0.6
2022-09-18T19:00:00,1398A,112.4645,23.0475,肇庆市,城中子站,,50,50,66,33,43,180,125,164,164,22,42,1,6,0.7,0.7
2022-09-18T19:00:00,1399A,112.5544,23.1522,肇庆市,坑口子站,细颗粒物(PM2.5),70,65,54,51,42,165,121,152,151,18,22,9,9,0.7,0.6
2022-09-18T19:00:00,1400A,112.4753,23.1,肇庆市,七星岩子站(对照点),,,,,,,,,,,,,,,,
2022-09-18T19:00:00,1401A,108.3103,22.7881,南宁市,二十一中,,26,17,38,18,22,138,76,120,115,12,20,4,5,0.5,0.6
2022-09-18T19:00:00,1402A,108.3141,22.8528,南宁市,北湖,颗粒物(PM10),52,54,48,19,27,142,120,131,131,10,18,6,7,0.7,0.8
2022-09-18T19:00:00,1403A,108.3206,22.8225,南宁市,市监测站,,27,26,41,16,28,147,85,125,124,15,22,7,10,0.6,0.7
2022-09-18T19:00:00,1404A,108.3829,22.8037,南宁市,大自然花园,,40,40,36,23,25,149,77,121,118,12,16,7,8,0.6,0.7
2022-09-18T19:00:00,1405A,108.4394,22.7904,南宁市,仙葫(对照点),,,,46,,26,141,,121,121,,26,,8,,0.7
2022-09-18T19:00:00,1406A,108.2397,22.8467,南宁市,区农职院,,35,33,39,10,22,132,110,120,120,12,22,10,11,0.7,0.8
2022-09-18T19:00:00,1407A,108.3275,22.735,南宁市,英华嘉园,,37,37,40,19,22,110,54,96,92,20,21,6,7,0.5,0.6
2022-09-18T19:00:00,1408A,108.2257,22.7757,南宁市,沙井镇街道办,,33,33,49,14,25,124,78,112,110,13,24,7,14,0.5,0.7
2022-09-18T19:00:00,1409A,110.576,19.9507,海口市,东寨港(对照点),,,32,33,18,18,122,93,105,105,,,12,10,0.5,0.5
2022-09-18T19:00:00,1410A,110.3232,20.0574,海口市,海南大学,,32,27,34,22,23,112,100,104,104,7,8,5,6,0.7,0.7
2022-09-18T19:00:00,1411A,110.283,20.0053,海口市,秀英海南医院,,33,31,35,23,22,114,95,105,105,9,14,6,7,0.6,0.6
2022-09-18T19:00:00,1412A,110.338,19.9969,海口市,海南师范大学,,35,35,40,17,20,124,87,110,110,11,11,4,4,0.6,0.6
2022-09-18T19:00:00,1413A,110.33,20.0356,海口市,龙华路环保局宿舍,,31,26,34,17,19,115,97,105,105,6,8,4,4,0.5,0.5
2022-09-18T19:00:00,1414A,106.3787,29.8279,重庆市,缙云山(对照点),颗粒物(PM10),59,68,64,35,42,106,77,76,76,21,18,10,4,0.8,0.7
2022-09-18T19:00:00,1416A,106.4213,29.8253,重庆市,天生,细颗粒物(PM2.5),59,49,62,42,46,135,97,102,102,12,16,5,9,0.9,0.9
2022-09-18T19:00:00,1417A,106.6263,29.7228,重庆市,两路,细颗粒物(PM2.5),69,71,83,50,56,157,111,124,124,19,28,11,11,0.8,0.8
2022-09-18T19:00:00,1418A,106.2953,29.5983,重庆市,虎溪,颗粒物(PM10),60,69,69,32,40,133,89,102,102,15,18,9,12,0.8,0.8
2022-09-18T19:00:00,1419A,106.5777,29.5102,重庆市,南坪,细颗粒物(PM2.5),73,77,96,53,63,178,128,126,126,38,35,4,8,0.9,1
2022-09-18T19:00:00,1420A,106.6556,29.6277,重庆市,唐家沱,细颗粒物(PM2.5),65,72,92,47,59,189,123,137,137,37,42,8,8,0.8,0.8
2022-09-18T19:00:00,1421A,106.6349,29.4906,重庆市,茶园,颗粒物(PM10),65,80,93,44,61,201,150,151,151,37,31,6,12,0.5,0.6
2022-09-18T19:00:00,1422A,106.3754,29.4572,重庆市,白市驿,,,,80,38,45,154,122,125,125,22,25,9,9,0.8,0.9
2022-09-18T19:00:00,1425A,106.6205,29.7166,重庆市,空港,细颗粒物(PM2.5),68,70,81,49,61,168,110,128,128,19,23,3,3,0.7,0.7
2022-09-18T19:00:00,1426A,106.4782,29.4875,重庆市,新山村,细颗粒物(PM2.5),68,73,81,49,55,153,120,114,114,26,29,8,9,0.6,0.6
2022-09-18T19:00:00,1427A,106.5616,29.6453,重庆市,礼嘉,颗粒物(PM10),55,59,74,38,53,163,115,124,124,24,25,14,15,0.8,0.7
2022-09-18T19:00:00,1428A,106.4522,29.7091,重庆市,蔡家,颗粒物(PM10),66,81,73,43,48,127,88,98,98,27,25,6,7,0.8,0.9
2022-09-18T19:00:00,1429A,106.5093,29.3917,重庆市,鱼新街,颗粒物(PM10),68,86,89,44,65,174,122,121,121,29,26,6,23,1.1,1.2
2022-09-18T19:00:00,1431A,103.9728,30.7236,成都市,金泉两河,,30,30,18,16,12,84,60,67,67,14,16,2,3,0.6,0.6
2022-09-18T19:00:00,1432A,104.1419,30.6764,成都市,十里店,,21,21,17,12,12,89,54,60,60,16,21,5,5,0.7,0.7
2022-09-18T19:00:00,1433A,104.0594,30.5767,成都市,三瓦窑,,21,21,17,13,9,99,67,73,73,4,14,2,2,0.5,0.5
2022-09-18T19:00:00,1434A,104.1122,30.6306,成都市,沙河铺,,23,23,19,12,11,88,58,63,63,15,19,5,5,0.6,0.6
2022-09-18T19:00:00,1437A,104.0431,30.6556,成都市,君平街,,25,20,14,17,11,94,59,68,68,15,17,5,5,0.6,0.6
2022-09-18T19:00:00,1438A,103.6202,31.0201,成都市,灵岩寺(对照点),,40,40,13,24,8,98,54,74,74,16,7,22,11,1.1,1.1
2022-09-18T19:00:00,1439A,106.6899,26.5998,贵阳市,马鞍山,,25,12,19,2,10,86,80,83,83,4,5,5,5,0.4,0.5
2022-09-18T19:00:00,1440A,106.6971,26.5694,贵阳市,市环保站,,,12,19,11,18,0,0,0,0,,,,,1.1,0.6
2022-09-18T19:00:00,1441A,106.6243,26.6266,贵阳市,鉴湖路,,26,24,20,7,13,84,81,80,80,4,5,3,3,0.3,0.2
2022-09-18T19:00:00,1442A,106.7487,26.6343,贵阳市,燕子冲,,25,19,22,17,21,81,76,78,78,3,6,5,6,0.4,0.4
2022-09-18T19:00:00,1443A,106.6555,26.4365,贵阳市,碧云窝,,29,24,30,9,12,92,91,87,87,4,5,5,4,0.4,0.4
2022-09-18T19:00:00,1444A,106.694,26.5161,贵阳市,中院村,,,22,27,7,18,81,76,78,78,3,6,9,9,,
2022-09-18T19:00:00,1445A,106.7109,26.6027,贵阳市,红边门,,,,,,,,,,,,,,,,
2022-09-18T19:00:00,1446A,106.7164,26.5699,贵阳市,新华路,,25,12,20,9,18,84,80,81,81,3,10,4,4,0.3,0.4
2022-09-18T19:00:00,1447A,106.674,26.5424,贵阳市,太慈桥,,26,19,24,2,8,83,83,81,81,5,6,7,4,0.4,0.4
2022-09-18T19:00:00,1450A,102.8204,24.8886,昆明市,呈贡新区,,29,15,27,13,13,107,92,94,94,9,19,6,6,0.3,0.4
2022-09-18T19:00:00,1451A,102.6251,24.9608,昆明市,西山森林公园(对照点),,27,18,12,13,12,104,85,85,85,6,5,6,7,0.6,0.5
2022-09-18T19:00:00,1452A,102.7252,25.0902,昆明市,龙泉镇,,30,21,25,13,13,115,95,95,95,12,15,8,7,0.5,0.4
2022-09-18T19:00:00,1453A,102.7266,25.0375,昆明市,东风东路,,28,20,29,8,12,105,87,89,89,17,27,5,6,0.6,0.5
2022-09-18T19:00:00,1454A,102.6742,25.0669,昆明市,金鼎山,,29,24,25,7,13,116,90,95,95,12,15,5,6,0.5,0.5
2022-09-18T19:00:00,1455A,102.6644,25.0401,昆明市,碧鸡广场,,28,17,27,11,12,111,87,92,92,14,20,9,10,0.4,0.4
2022-09-18T19:00:00,1456A,91.1319,29.6514,拉萨市,八廓街,,31,1,3,2,1,97,97,88,88,7,6,8,8,0,0
2022-09-18T19:00:00,1457A,91.1221,29.6747,拉萨市,市环保局,,29,3,3,0,1,92,92,87,87,6,6,5,7,0.2,0.2
2022-09-18T19:00:00,1458A,91.0874,29.6475,拉萨市,区监测站,,33,1,3,0,0,104,104,98,98,3,3,9,9,0.2,0.2
2022-09-18T19:00:00,1459A,91.1774,29.6541,拉萨市,西藏大学,,30,4,6,3,2,96,96,89,89,5,7,11,11,0.1,0.2
2022-09-18T19:00:00,1460A,90.9798,29.6588,拉萨市,区辐射站,,28,3,3,16,19,91,89,87,87,5,5,9,9,0.1,0.1
2022-09-18T19:00:00,1461A,91.0834,29.6292,拉萨市,拉萨火车站,,,,,7,2,99,97,92,92,4,4,11,11,0,0
2022-09-18T19:00:00,1462A,108.882,34.2749,西安市,高压开关厂,颗粒物(PM10),78,105,62,51,36,105,36,71,69,66,35,2,4,1.0,0.8
2022-09-18T19:00:00,1463A,108.993,34.2629,西安市,兴庆小区,细颗粒物(PM2.5),79,86,50,58,39,91,38,73,73,63,32,5,4,1.3,0.9
2022-09-18T19:00:00,1464A,109.06,34.2572,西安市,纺织城,颗粒物(PM10),82,114,65,52,38,80,18,67,59,82,43,6,6,1.2,0.9
2022-09-18T19:00:00,1465A,108.9356,34.2173,西安市,小寨,颗粒物(PM10),64,78,51,45,29,74,45,62,59,62,36,3,3,0.9,0.7
2022-09-18T19:00:00,1466A,108.954,34.2713,西安市,市人民体育场,细颗粒物(PM2.5),77,87,54,56,41,101,36,74,72,64,28,3,3,1.1,0.8
2022-09-18T19:00:00,1467A,108.8922,34.2322,西安市,高新西区,颗粒物(PM10),75,100,59,45,35,76,43,60,60,53,30,6,6,1.0,0.9
2022-09-18T19:00:00,1468A,108.935,34.3474,西安市,经开区,细颗粒物(PM2.5),72,77,54,52,39,94,47,81,80,51,28,3,4,0.9,0.7
2022-09-18T19:00:00,1469A,108.906,34.1546,西安市,长安区,颗粒物(PM10),75,99,29,37,27,90,49,81,76,42,24,5,5,0.7,0.6
2022-09-18T19:00:00,1470A,109.2,34.6575,西安市,阎良区,,,,,,,,,,,,,,,,
2022-09-18T19:00:00,1471A,109.2186,34.3731,西安市,临潼区,细颗粒物(PM2.5),72,80,61,52,42,87,60,72,72,30,23,4,4,0.8,0.6
2022-09-18T19:00:00,1472A,108.869,34.378,西安市,草滩(对照点),细颗粒物(PM2.5),70,69,58,51,42,86,44,80,76,59,47,5,5,1.4,1.2
2022-09-18T19:00:00,1473A,108.985,34.1978,西安市,曲江文化产业集团,颗粒物(PM10),84,118,65,58,40,83,47,69,63,52,32,4,4,1.2,0.9
2022-09-18T19:00:00,1474A,109.051,34.3213,西安市,广运潭,细颗粒物(PM2.5),74,88,59,54,39,87,41,65,65,51,35,7,5,0.8,0.7
2022-09-18T19:00:00,1476A,103.631,36.1031,兰州市,兰炼宾馆,颗粒物(PM10),54,58,61,30,30,99,65,68,68,37,45,5,7,0.5,0.5
2022-09-18T19:00:00,1477A,104.1373,35.9454,兰州市,榆中兰大校区(对照点),,,,,,,,,,,,,,,,
2022-09-18T19:00:00,1478A,103.8412,36.0726,兰州市,生物制品所,颗粒物(PM10),55,59,44,26,29,89,52,68,68,42,35,2,3,0.7,0.8
2022-09-18T19:00:00,1479A,103.831,36.0464,兰州市,铁路设计院,,45,45,48,21,20,84,59,60,60,35,39,7,8,0.5,0.8
2022-09-18T19:00:00,1480A,101.748,36.6428,西宁市,市环境监测站,,,,,,,,,,,,,,,,
2022-09-18T19:00:00,1482A,101.834,36.5819,西宁市,四陆医院,,,,,,,,,,,,,,,,
2022-09-18T19:00:00,1483A,101.524,36.6867,西宁市,第五水厂(对照点),,29,26,27,18,20,107,92,97,97,14,15,11,9,0.5,0.7
2022-09-18T19:00:00,1484A,105.9512,38.6016,银川市,贺兰山马莲口(对照点),,45,30,54,18,21,167,143,139,139,12,10,10,17,0.6,0.5
2022-09-18T19:00:00,1488A,106.2328,38.4975,银川市,贺兰山东路,,47,39,76,18,27,163,148,140,140,17,24,10,11,0.7,0.7
2022-09-18T19:00:00,1489A,106.1358,38.5036,银川市,学院路,颗粒物(PM10),61,72,92,20,24,175,117,135,135,25,25,10,16,0.6,0.8
2022-09-18T19:00:00,1490A,87.5801,43.8303,乌鲁木齐市,监测站,,33,23,41,8,15,132,105,95,95,12,31,6,7,0.3,0.4
2022-09-18T19:00:00,1491A,87.6046,43.768,乌鲁木齐市,收费所,,35,22,26,10,15,120,110,102,102,13,31,7,7,0.3,0.3
2022-09-18T19:00:00,1492A,87.4754,43.9469,乌鲁木齐市,新疆农科院农场(对照点),颗粒物(PM10),52,54,85,5,24,144,99,101,101,6,41,9,10,0.5,0.6
2022-09-18T19:00:00,1493A,87.5525,43.8711,乌鲁木齐市,铁路局,,35,26,47,6,17,128,110,98,98,14,29,5,6,0.3,0.6
2022-09-18T19:00:00,1494A,87.6432,43.831,乌鲁木齐市,三十一中学,,,31,57,,,112,107,98,98,5,15,8,10,0.2,0.4
2022-09-18T19:00:00,1496A,87.7216,44.1747,乌鲁木齐市,米东区环保局,,36,23,54,12,17,114,114,97,97,3,23,6,7,0.2,0.3
2022-09-18T19:00:00,1508A,112.9433,27.8614,湘潭市,板塘,臭氧1小时,97,72,65,35,34,253,197,222,222,17,30,8,9,0.3,0.4
2022-09-18T19:00:00,1511A,112.9118,27.8403,湘潭市,市监测站,,,68,55,37,35,227,165,200,200,23,24,10,9,,0.8
2022-09-18T19:00:00,1512A,112.8937,27.8728,湘潭市,江麓,臭氧1小时,82,73,67,36,33,237,185,209,209,12,21,12,10,0.7,0.7
2022-09-18T19:00:00,1513A,112.9227,27.8159,湘潭市,岳塘,臭氧1小时,87,76,70,39,32,243,189,221,221,18,26,11,9,0.5,0.6
2022-09-18T19:00:00,1514A,112.9074,27.9119,湘潭市,科大,臭氧1小时,93,75,71,40,37,242,194,216,216,13,21,7,8,0.5,0.6
2022-09-18T19:00:00,1515A,113.135,27.8244,株洲市,天台山庄,臭氧1小时,98,51,51,46,34,242,198,216,216,17,26,7,7,0.6,0.5
2022-09-18T19:00:00,1518A,113.095,27.8867,株洲市,株冶医院,臭氧1小时,94,65,52,45,32,259,195,224,224,33,33,8,8,0.8,0.6
2022-09-18T19:00:00,1519A,113.167,27.8667,株洲市,市四中,臭氧1小时,101,70,55,42,37,243,201,218,218,23,31,2,4,0.5,0.5
2022-09-18T19:00:00,1520A,113.143,27.8381,株洲市,火车站,臭氧1小时,99,73,64,42,33,240,199,212,212,21,33,10,11,0.6,0.7
2022-09-18T19:00:00,1524A,113.13,27.8528,株洲市,市监测站,臭氧1小时,103,66,60,40,40,243,206,217,217,17,29,4,7,0.7,0.7
2022-09-18T19:00:00,1552A,106.805,26.3003,贵阳市,桐木岭(对照点),,,,,,,,,,,,,,,,
2022-09-18T19:00:00,1559A,113.251,27.8336,株洲市,大京风景区(对照点),颗粒物(PM10),56,61,49,35,29,211,138,182,182,9,12,4,4,0.7,0.6
2022-09-18T19:00:00,1562A,113.0048,27.9153,湘潭市,昭山,臭氧1小时,68,78,68,45,33,236,174,204,204,15,43,6,4,0.7,0.7
2022-09-18T19:00:00,1564A,112.4876,27.9164,湘潭市,韶山(对照点),臭氧1小时,72,57,51,23,23,202,177,187,187,9,11,12,8,0.6,0.6
2022-09-18T19:00:00,1585A,109.8756,40.6532,包头市,市环境监测站,颗粒物(PM10),59,68,56,19,17,110,74,87,87,51,27,15,17,1.1,0.9
2022-09-18T19:00:00,1587A,109.9991,40.5842,包头市,包头八中,颗粒物(PM10),66,82,93,22,21,115,99,92,92,31,41,6,22,0.6,0.8
2022-09-18T19:00:00,1588A,109.8538,40.6821,包头市,青山宾馆,颗粒物(PM10),61,71,55,22,16,111,66,88,88,56,27,20,19,0.7,0.7
2022-09-18T19:00:00,1589A,109.8642,40.6288,包头市,惠龙物流,颗粒物(PM10),57,63,59,15,16,117,96,94,94,34,26,13,17,0.5,0.5
2022-09-18T19:00:00,1590A,110.0377,40.5546,包头市,东河鸿龙湾,,48,48,65,14,18,119,61,91,91,50,34,9,16,0.6,0.8
2022-09-18T19:00:00,1591A,110.0023,39.8129,鄂尔多斯市,综合楼,颗粒物(PM10),62,74,105,13,21,132,104,105,105,38,54,9,80,0.6,0.6
2022-09-18T19:00:00,1592A,109.9486,39.8261,鄂尔多斯市,巴音孟克林场办事处,颗粒物(PM10),89,127,118,27,27,132,93,109,109,58,56,58,67,0.4,0.4
2022-09-18T19:00:00,1593A,109.7736,39.5986,鄂尔多斯市,康泽苑,颗粒物(PM10),86,122,86,22,24,166,122,142,142,24,21,7,8,0.5,0.5
2022-09-18T19:00:00,1594A,109.8119,39.5989,鄂尔多斯市,华泰汽车城,颗粒物(PM10),78,105,79,27,29,156,127,137,137,18,34,8,8,0.4,0.4
2022-09-18T19:00:00,1595A,109.9734,39.7884,鄂尔多斯市,奥林花园,颗粒物(PM10),74,97,108,24,27,135,113,105,105,30,48,7,40,0.5,0.4
2022-09-18T19:00:00,1596A,122.2414,40.6592,营口市,学府南路,,,,,,,,,,,,,,,,
2022-09-18T19:00:00,1597A,122.2703,40.7094,营口市,大庆路,,32,32,48,6,20,91,53,83,80,21,27,4,6,0.3,0.9
2022-09-18T19:00:00,1598A,122.215,40.6511,营口市,镜湖西路,,32,32,42,4,24,87,55,72,70,18,22,3,4,0.2,0.7
2022-09-18T19:00:00,1599A,122.167,40.6655,营口市,西炮台,,,20,51,7,25,110,45,61,60,,24,2,5,0.3,0.7
2022-09-18T19:00:00,1600A,124.3303,40.0625,丹东市,江湾东路,,29,15,22,3,15,107,91,99,99,12,15,7,6,0.4,0.8
2022-09-18T19:00:00,1601A,124.4256,40.1503,丹东市,临江后街,,28,19,20,4,11,100,87,94,94,14,14,8,7,0.4,0.7
2022-09-18T19:00:00,1602A,124.3933,40.1461,丹东市,元宝山,,26,20,21,10,12,88,83,82,82,11,14,9,8,0.4,0.6
2022-09-18T19:00:00,1603A,124.3633,40.1092,丹东市,民主桥,,26,20,21,8,11,102,81,92,92,20,20,9,10,0.4,0.7
2022-09-18T19:00:00,1604A,122.0303,41.1489,盘锦市,开发区,,38,38,31,6,14,72,51,66,64,23,22,5,5,0.5,0.6
2022-09-18T19:00:00,1605A,122.0485,41.0883,盘锦市,兴隆台,,27,27,33,3,15,78,45,68,65,33,24,7,8,0.3,0.4
2022-09-18T19:00:00,1606A,121.8297,41.1028,盘锦市,新生街道,,29,29,24,9,11,78,46,71,68,27,18,8,8,0.3,0.4
2022-09-18T19:00:00,1607A,120.9092,40.7136,葫芦岛市,龙港区,,32,32,48,8,34,147,30,105,69,52,20,34,18,0.4,0.5
2022-09-18T19:00:00,1608A,120.8392,40.7514,葫芦岛市,化工街,,47,47,65,7,22,183,62,142,75,15,10,11,7,0.2,0.3
2022-09-18T19:00:00,1609A,120.8341,40.7073,葫芦岛市,新区,,34,34,41,5,21,181,61,144,74,20,13,16,13,0.3,0.5
2022-09-18T19:00:00,1610A,120.8695,40.7677,葫芦岛市,东城区,,38,38,46,3,20,159,48,129,68,30,17,27,16,0.2,0.3
2022-09-18T19:00:00,1611A,118.5819,24.9117,泉州市,涂山街,颗粒物(PM10),60,70,51,23,28,170,114,154,151,17,18,10,10,0.7,0.7
2022-09-18T19:00:00,1612A,118.5972,24.8978,泉州市,津头埔,颗粒物(PM10),54,58,49,21,28,168,95,150,145,18,19,9,10,0.5,0.5
2022-09-18T19:00:00,1613A,118.6663,24.9424,泉州市,万安,,46,46,48,22,36,169,112,153,150,9,19,8,9,0.6,0.6
2022-09-18T19:00:00,1614A,118.6117,24.9604,泉州市,清源山(对照点),,,,,,,,,,,,,,,,
2022-09-18T19:00:00,1616A,117.6795,36.229,济南市,技术学院,颗粒物(PM10),60,70,74,9,30,247,82,194,181,21,40,10,8,0.4,0.6
2022-09-18T19:00:00,1618A,118.3429,35.0532,临沂市,沂河小区,细颗粒物(PM2.5),78,88,50,57,26,236,164,193,193,13,21,7,10,0.8,0.7
2022-09-18T19:00:00,1619A,118.295,35.0583,临沂市,鲁南制药厂,"颗粒物(PM10),臭氧1小时",68,85,46,34,20,241,174,195,195,16,25,8,9,1.0,1
2022-09-18T19:00:00,1620A,118.2794,34.9976,临沂市,新光毛纺厂,臭氧1小时,79,88,53,29,20,222,183,187,187,20,31,6,6,0.9,0.8
2022-09-18T19:00:00,1621A,118.3956,35.0888,临沂市,河东保险公司,颗粒物(PM10),79,107,48,33,18,227,151,188,188,19,27,5,8,0.9,0.8
2022-09-18T19:00:00,1622A,116.3032,37.4674,德州市,儿童乐园,,40,40,66,3,30,222,85,166,148,24,30,5,9,0.3,0.6
2022-09-18T19:00:00,1624A,116.2991,37.4451,德州市,监理站,,45,45,68,8,28,236,94,183,159,14,22,9,17,0.3,0.5
2022-09-18T19:00:00,1625A,115.9848,36.4372,聊城市,区政府,颗粒物(PM10),73,95,72,27,32,209,157,192,192,23,40,9,13,0.8,0.8
2022-09-18T19:00:00,1628A,118.0062,37.3803,滨州市,市环保局,,39,39,71,5,32,162,76,112,95,14,31,10,17,0.4,0.9
2022-09-18T19:00:00,1629A,118.0018,37.3617,滨州市,第二水厂,颗粒物(PM10),51,51,70,5,32,156,74,109,90,16,39,8,14,0.4,0.8
2022-09-18T19:00:00,1630A,117.9776,37.393,滨州市,北中新校,,37,37,57,3,29,153,75,108,94,12,30,9,13,0.2,0.7
2022-09-18T19:00:00,1631A,118.0414,36.8103,淄博市,人民公园,,41,41,85,16,43,217,70,136,124,20,50,10,17,0,0.8
2022-09-18T19:00:00,1632A,118.0253,36.8406,淄博市,东风化工厂,,,,,,,,,,,,,,,,
2022-09-18T19:00:00,1633A,117.8525,36.4847,淄博市,双山,颗粒物(PM10),52,53,58,14,29,235,73,178,160,22,29,14,14,0.4,0.7
2022-09-18T19:00:00,1634A,117.9592,36.6331,淄博市,气象站,,50,50,75,12,34,224,66,151,137,17,32,10,23,0.4,0.8
2022-09-18T19:00:00,1635A,118.3092,36.8194,淄博市,莆田园,,31,31,70,7,32,189,74,133,113,15,38,4,14,0.0,1.3
2022-09-18T19:00:00,1636A,117.8661,36.805,淄博市,三金集团,,,,,,,,,,,,,,,,
2022-09-18T19:00:00,1637A,117.558,34.8438,枣庄市,市中区政府,臭氧1小时,77,68,55,27,22,200,181,184,184,26,27,13,16,0.8,0.7
2022-09-18T19:00:00,1638A,117.2852,34.7837,枣庄市,薛城环保局,颗粒物(PM10),73,95,63,41,25,209,127,181,178,63,39,16,19,0.9,0.8
2022-09-18T19:00:00,1639A,117.5852,34.7745,枣庄市,峄城区政府,臭氧1小时,75,66,65,34,25,193,180,180,180,26,31,14,17,0.8,0.7
2022-09-18T19:00:00,1640A,117.7276,34.5578,枣庄市,台儿庄区环保局,臭氧1小时,68,66,47,24,26,208,174,188,188,26,21,15,14,0.8,0.8
2022-09-18T19:00:00,1641A,117.4518,35.0992,枣庄市,山亭区环保局,臭氧1小时,133,100,42,59,22,265,265,215,215,21,17,16,14,1.0,0.8
2022-09-18T19:00:00,1642A,121.2514,37.5639,烟台市,开发区,颗粒物(PM10),56,61,70,2,20,187,96,149,138,8,36,7,11,0,0.4
2022-09-18T19:00:00,1643A,121.3719,37.5433,烟台市,轴承厂,,39,39,64,5,34,190,88,156,143,12,17,8,12,0.1,0.4
2022-09-18T19:00:00,1644A,121.3181,37.5436,烟台市,西郊化工站,,,,56,0,27,203,96,157,146,11,24,,15,0.4,0.7
2022-09-18T19:00:00,1645A,121.4478,37.4822,烟台市,莱山环保局,,31,31,45,5,23,201,89,166,151,9,14,7,10,0.3,0.6
2022-09-18T19:00:00,1646A,121.2611,37.4967,烟台市,福山环保局,,36,36,58,0,26,177,84,142,130,16,35,7,10,0.3,0.6
2022-09-18T19:00:00,1648A,119.12,36.7019,潍坊市,仲裁委,,,,,,,,,,,,,,,,
2022-09-18T19:00:00,1650A,119.1437,36.7023,潍坊市,环保局,,41,41,62,10,34,202,78,152,136,10,34,2,7,0.2,0.8
2022-09-18T19:00:00,1652A,119.1936,36.7729,潍坊市,寒亭监测站,,,,,,,,,,,,,,,,
2022-09-18T19:00:00,1653A,116.6251,35.4302,济宁市,火炬城,臭氧1小时,114,75,60,31,30,239,228,218,218,13,24,9,13,0.6,0.7
2022-09-18T19:00:00,1655A,116.5491,35.4042,济宁市,电化厂,臭氧1小时,107,88,59,31,32,237,214,212,212,24,22,13,13,0.8,0.8
2022-09-18T19:00:00,1656A,117.1437,36.1937,泰安市,监测站,颗粒物(PM10),62,73,57,24,30,218,131,185,184,10,19,10,10,0.4,0.5
2022-09-18T19:00:00,1657A,117.0885,36.2017,泰安市,人口学校,颗粒物(PM10),59,68,53,28,25,196,125,167,167,12,19,9,9,0.3,0.4
2022-09-18T19:00:00,1658A,117.1089,36.1758,泰安市,电力学校,颗粒物(PM10),58,66,66,28,29,214,132,182,181,12,36,8,8,0.5,0.7
2022-09-18T19:00:00,1659A,119.471,35.4209,日照市,监测站,细颗粒物(PM2.5),68,73,44,49,25,233,149,188,188,19,43,7,8,0.9,0.7
2022-09-18T19:00:00,1660A,119.523,35.4216,日照市,市政府广场,细颗粒物(PM2.5),63,70,41,45,23,233,149,189,189,10,21,4,5,0.8,0.6
2022-09-18T19:00:00,1661A,119.5587,35.4044,日照市,港务局,颗粒物(PM10),62,73,42,38,22,238,156,197,196,9,23,2,4,0.8,0.6
2022-09-18T19:00:00,1662A,122.1214,37.4236,威海市,华夏技校,,48,48,43,9,27,166,104,157,147,12,10,7,8,0.3,0.5
2022-09-18T19:00:00,1663A,122.0508,37.5236,威海市,山大分校,,33,22,30,5,24,159,104,144,142,9,18,5,6,0.3,0.6
2022-09-18T19:00:00,1664A,122.1067,37.5072,威海市,市监测站,颗粒物(PM10),52,54,50,17,28,161,98,143,141,12,22,8,9,0.3,0.5
2022-09-18T19:00:00,1665A,118.5019,37.4658,东营市,西城阳光环保公司,,,,,,,,,,,,,,,,
2022-09-18T19:00:00,1666A,118.6614,37.4309,东营市,市环保局,,27,27,52,5,26,160,84,99,91,10,19,7,12,0.3,0.6
2022-09-18T19:00:00,1669A,113.5824,24.7733,韶关市,市八中,细颗粒物(PM2.5),84,60,66,62,46,188,129,174,171,22,21,11,17,0.8,0.8
2022-09-18T19:00:00,1670A,113.5556,24.8082,韶关市,碧湖山庄,,,,,,,,,,,,,,,,
2022-09-18T19:00:00,1671A,113.5917,24.7972,韶关市,园林处,颗粒物(PM10),56,62,66,38,46,180,58,158,147,54,23,12,24,1.0,0.8
2022-09-18T19:00:00,1672A,113.6735,24.7791,韶关市,韶关学院,细颗粒物(PM2.5),74,77,71,54,49,186,113,164,160,18,18,8,13,0.8,0.7
2022-09-18T19:00:00,1673A,113.5971,24.6863,韶关市,曲江监测站,细颗粒物(PM2.5),77,89,75,56,50,234,144,201,201,31,27,11,14,1.0,0.9
2022-09-18T19:00:00,1674A,116.6794,23.3667,汕头市,金平子站,颗粒物(PM10),58,66,62,37,42,216,147,194,192,13,14,6,11,0.9,0.9
2022-09-18T19:00:00,1675A,116.7244,23.3633,汕头市,龙湖子站,颗粒物(PM10),72,93,75,40,37,196,135,176,173,17,13,8,8,1.0,1.1
2022-09-18T19:00:00,1676A,116.7258,23.2775,汕头市,濠江子站,,,,49,29,40,188,140,172,168,10,9,6,8,1.0,0.9
2022-09-18T19:00:00,1677A,116.7519,23.4714,汕头市,澄海子站,颗粒物(PM10),74,97,67,52,44,212,143,186,183,26,16,14,13,1.4,1
2022-09-18T19:00:00,1678A,116.6092,23.2539,汕头市,潮阳子站,细颗粒物(PM2.5),63,59,59,45,46,190,136,178,175,9,9,8,8,0.9,0.9
2022-09-18T19:00:00,1679A,116.4069,23.2533,汕头市,潮南子站,,,,,,,,,,,,,,,,
2022-09-18T19:00:00,1680A,110.3539,21.2706,湛江市,湛江影剧院,,33,24,50,23,27,146,89,126,123,14,15,5,15,0.7,0.7
2022-09-18T19:00:00,1681A,110.3928,21.2228,湛江市,市环境监测站,,46,46,45,24,30,140,74,118,114,25,17,6,12,0.6,0.7
2022-09-18T19:00:00,1682A,110.4019,21.1997,湛江市,环保局宿舍,,36,18,43,25,30,145,81,123,119,20,14,4,11,0.6,0.7
2022-09-18T19:00:00,1683A,110.4111,21.2028,湛江市,霞山游泳场,,42,42,44,27,30,151,85,134,130,22,14,14,10,0.6,0.6
2022-09-18T19:00:00,1684A,110.3316,21.2679,湛江市,麻章区环保局,,40,40,55,18,33,133,84,116,113,14,18,6,26,0.6,0.7
2022-09-18T19:00:00,1685A,110.4558,21.2567,湛江市,坡头区环保局,细颗粒物(PM2.5),60,38,47,43,30,169,71,137,132,40,18,9,9,0.8,0.8
2022-09-18T19:00:00,1686A,111.0286,21.4688,茂名市,电白南海,细颗粒物(PM2.5),62,61,61,44,38,164,142,140,140,15,18,7,12,0.7,0.6
2022-09-18T19:00:00,1687A,110.9294,21.6533,茂名市,茂石化七小,"颗粒物(PM10),细颗粒物(PM2.5)",58,66,55,41,39,158,147,148,148,16,18,11,13,0.9,0.9
2022-09-18T19:00:00,1688A,110.9107,21.6687,茂名市,健康路,,,51,53,30,32,150,130,138,138,11,12,,16,0.9,0.9
2022-09-18T19:00:00,1689A,110.8592,21.6828,茂名市,高岭,颗粒物(PM10),54,58,67,36,42,145,108,129,129,19,20,7,20,0.7,0.9
2022-09-18T19:00:00,1690A,116.1231,24.3284,梅州市,梅江月梅,颗粒物(PM10),54,57,54,30,41,194,138,171,170,14,25,7,8,0.7,0.7
2022-09-18T19:00:00,1691A,116.0797,24.2719,梅州市,梅县新城,颗粒物(PM10),55,60,57,35,42,173,128,155,154,17,28,8,8,0.8,0.7
2022-09-18T19:00:00,1692A,116.1248,24.2654,梅州市,环境监控中心,细颗粒物(PM2.5),74,47,56,54,47,179,115,162,158,27,35,6,8,0.7,0.6
2022-09-18T19:00:00,1693A,115.3653,22.775,汕尾市,市环保局,,40,12,50,17,34,172,128,157,154,15,8,6,6,0.7,0.8
2022-09-18T19:00:00,1694A,115.3706,22.7898,汕尾市,市政府,,37,10,50,17,37,237,118,157,137,12,7,5,6,0.7,0.8
2022-09-18T19:00:00,1695A,115.3622,22.7925,汕尾市,新城中学,,38,35,59,16,36,194,120,146,144,12,6,7,7,0.6,0.8
2022-09-18T19:00:00,1696A,114.6778,23.7569,河源市,源西(对照点),细颗粒物(PM2.5),83,74,83,61,45,181,100,153,146,29,32,4,4,1.2,1
2022-09-18T19:00:00,1697A,114.6944,23.7586,河源市,东埔,细颗粒物(PM2.5),63,65,73,45,42,190,138,161,158,13,18,5,5,1.2,1.1
2022-09-18T19:00:00,1698A,114.6892,23.7233,河源市,老城,细颗粒物(PM2.5),78,90,106,57,44,190,120,161,156,12,24,3,4,1.1,1
2022-09-18T19:00:00,1699A,111.9797,21.8593,阳江市,鸳鸯湖(对照点),,,,,,,,,,,,,,,,
2022-09-18T19:00:00,1700A,111.9508,21.8536,阳江市,南恩路,,,,,,,,,,,,,,,,
2022-09-18T19:00:00,1701A,111.9491,21.8658,阳江市,马南垌,细颗粒物(PM2.5),62,44,50,44,33,140,86,119,118,19,16,7,12,0.9,0.8
2022-09-18T19:00:00,1702A,113.0426,23.691,清远市,环保大楼(对照点),细颗粒物(PM2.5),53,42,66,37,46,236,116,185,180,8,16,4,6,0.8,0.8
2022-09-18T19:00:00,1703A,113.0208,23.7106,清远市,凤城街办,细颗粒物(PM2.5),58,58,71,41,49,170,71,146,139,35,25,5,6,1.1,1
2022-09-18T19:00:00,1705A,116.6367,23.6719,潮州市,西园路(对照点),颗粒物(PM10),79,108,61,54,41,116,101,102,102,20,10,9,9,1.1,0.8
2022-09-18T19:00:00,1706A,116.6447,23.6706,潮州市,档案局,颗粒物(PM10),83,115,61,44,42,199,165,161,161,28,14,17,13,1.1,0.8
2022-09-18T19:00:00,1708A,116.3701,23.5345,揭阳市,新兴,细颗粒物(PM2.5),78,40,62,57,45,177,142,167,165,14,9,9,10,0.9,0.8
2022-09-18T19:00:00,1709A,116.3264,23.5443,揭阳市,西马,细颗粒物(PM2.5),69,83,66,50,44,147,116,140,139,18,9,11,11,1.0,0.9
2022-09-18T19:00:00,1710A,116.3611,23.5626,揭阳市,东兴,细颗粒物(PM2.5),55,45,72,39,39,150,123,144,142,11,9,8,9,0.9,0.9
2022-09-18T19:00:00,1711A,116.4151,23.5294,揭阳市,渔湖,颗粒物(PM10),69,87,75,41,41,174,130,154,153,15,9,6,7,1.0,0.9
2022-09-18T19:00:00,1712A,112.0392,22.9169,云浮市,新市府(对照点),,,,,,,,,,,,,,,,
2022-09-18T19:00:00,1713A,112.0369,22.9394,云浮市,市监测站,,,,,,,,,,,,,,,,
2022-09-18T19:00:00,1714A,112.0539,22.9539,云浮市,牧羊,,,57,58,,38,156,108,127,127,7,21,9,25,0.7,0.8
2022-09-18T19:00:00,1715A,102.575,24.3711,玉溪市,东风水库,,16,16,20,3,7,70,51,59,59,6,10,4,5,0.5,0.6
2022-09-18T19:00:00,1718A,115.4208,35.2464,菏泽市,气象局,臭氧1小时,108,91,68,40,34,216,216,205,205,18,29,10,9,0.6,0.6
2022-09-18T19:00:00,1719A,115.4747,35.2375,菏泽市,市政协,臭氧1小时,113,86,73,42,31,225,225,210,210,17,34,11,9,0.6,0.5
2022-09-18T19:00:00,1720A,115.455,35.27,菏泽市,菏泽学院,,,,,,,,,,,,,,,,
2022-09-18T19:00:00,1721A,113.3819,40.1097,大同市,果树场(对照点),,,,,,,,,,,,,,,,
2022-09-18T19:00:00,1723A,113.2994,40.0758,大同市,云冈宾馆,颗粒物(PM10),64,77,66,14,14,117,89,99,99,30,30,13,17,0.5,0.6
2022-09-18T19:00:00,1724A,113.3444,40.0917,大同市,大同大学,颗粒物(PM10),57,64,57,11,9,118,78,99,99,30,22,14,18,0.4,0.6
2022-09-18T19:00:00,1725A,113.2661,40.1269,大同市,安家小村,颗粒物(PM10),55,59,77,5,9,120,86,101,101,27,19,17,15,0.3,0.4
2022-09-18T19:00:00,1726A,113.2711,40.0844,大同市,教育学院,颗粒物(PM10),52,54,60,24,21,106,85,91,91,25,24,12,11,0.4,0.4
2022-09-18T19:00:00,1727A,113.1147,36.1547,长治市,清华站,臭氧1小时,100,55,74,29,37,220,200,199,199,18,37,11,10,0.9,1.1
2022-09-18T19:00:00,1728A,113.1031,36.1989,长治市,监测站,臭氧1小时,90,53,66,29,38,213,192,191,191,15,28,9,9,0.9,1.1
2022-09-18T19:00:00,1730A,113.0886,36.2125,长治市,审计局,臭氧1小时,109,54,64,34,43,225,218,209,209,15,32,10,9,1.1,1.2
2022-09-18T19:00:00,1731A,113.0844,36.1856,长治市,长治八中,臭氧1小时,78,66,83,36,41,221,182,191,191,27,40,13,13,1.3,1.2
2022-09-18T19:00:00,1733A,111.5531,36.0783,临汾市,临钢医院,细颗粒物(PM2.5),107,105,111,80,90,214,172,194,194,34,38,4,7,1.9,1.7
2022-09-18T19:00:00,1734A,111.5028,36.0714,临汾市,技工学校,细颗粒物(PM2.5),70,85,122,51,79,217,175,199,199,30,33,7,9,1.3,1.6
2022-09-18T19:00:00,1735A,111.5169,36.0822,临汾市,工商学校,,,,,,,,,,,,,,,,
2022-09-18T19:00:00,1736A,111.5018,36.0855,临汾市,市委,细颗粒物(PM2.5),73,72,115,53,99,213,177,195,195,24,33,9,15,1.5,1.7
2022-09-18T19:00:00,1738A,113.5758,37.8572,阳泉市,市中心,颗粒物(PM10),64,78,95,25,33,167,167,160,160,22,65,14,18,0.7,0.9
2022-09-18T19:00:00,1739A,113.4894,37.8731,阳泉市,赛鱼,颗粒物(PM10),55,59,84,27,30,174,158,165,165,22,61,13,17,0.7,0.9
2022-09-18T19:00:00,1740A,113.5819,37.8486,阳泉市,南庄,臭氧1小时,64,71,103,35,37,171,171,164,164,22,50,9,19,0.8,1
2022-09-18T19:00:00,1741A,113.6292,37.8531,阳泉市,白羊墅,,,,,,,,,,,,,,,,
2022-09-18T19:00:00,1742A,113.5614,37.8703,阳泉市,平坦,颗粒物(PM10),70,89,91,24,41,158,158,152,152,27,75,20,17,0.8,1
2022-09-18T19:00:00,1743A,113.5158,37.8392,阳泉市,大阳泉,臭氧1小时,54,48,70,29,38,210,163,182,168,18,29,10,21,0.7,0.9
2022-09-18T19:00:00,1744A,118.9233,42.2816,赤峰市,松山一中,,,,,7,7,89,75,80,80,14,13,11,11,0.3,0.3
2022-09-18T19:00:00,1745A,118.9576,42.2728,赤峰市,哈达街,,23,15,10,7,6,94,73,84,83,13,7,8,9,0.2,0.2
2022-09-18T19:00:00,1746A,118.8788,42.2554,赤峰市,天义路,,23,5,12,2,3,84,71,81,80,13,9,10,10,0.4,0.3
2022-09-18T19:00:00,1748A,123.044,41.1196,鞍山市,深沟寺,,18,18,31,7,18,83,52,76,74,14,13,7,8,0.4,0.7
2022-09-18T19:00:00,1749A,123.011,41.0931,鞍山市,太阳城,,19,19,43,4,21,84,59,76,75,20,16,13,8,0.5,0.9
2022-09-18T19:00:00,1750A,123.0485,41.1442,鞍山市,太平,,22,22,33,6,17,81,48,74,72,28,19,9,10,0.6,0.9
2022-09-18T19:00:00,1751A,122.9642,41.0971,鞍山市,铁西三道街,,45,45,64,15,31,76,25,63,59,53,38,48,18,2.8,1.6
2022-09-18T19:00:00,1752A,122.9341,41.0833,鞍山市,铁西工业园区,,21,21,60,6,29,83,51,74,72,27,31,17,12,0.8,1.1
2022-09-18T19:00:00,1753A,123.022,41.0821,鞍山市,明达新区,,,18,39,5,21,79,57,72,71,,18,,8,0.2,0.8
2022-09-18T19:00:00,1754A,123.1289,41.0228,鞍山市,千山(对照点),,,,,,,,,,,,,,,,
2022-09-18T19:00:00,1755A,123.7977,41.8491,抚顺市,望花区,,39,39,45,7,22,82,51,76,74,27,23,5,6,0.4,0.9
2022-09-18T19:00:00,1756A,123.9161,41.8822,抚顺市,顺城区,,48,48,43,26,21,86,20,80,74,56,26,8,10,0.7,0.8
2022-09-18T19:00:00,1757A,124.0436,41.8611,抚顺市,东洲区,,44,44,40,8,18,84,56,78,76,17,16,4,5,0.4,0.7
2022-09-18T19:00:00,1758A,123.9247,41.8642,抚顺市,新抚区,,46,46,49,10,20,84,33,78,74,40,21,5,6,0.4,0.7
2022-09-18T19:00:00,1759A,124.0972,41.8961,抚顺市,大伙房水库,颗粒物(PM10),51,51,30,10,13,83,57,78,77,21,12,8,8,0.3,0.4
2022-09-18T19:00:00,1760A,123.7086,41.8391,抚顺市,沈抚新城,,33,33,49,13,22,85,41,77,74,21,18,6,11,0.2,0.6
2022-09-18T19:00:00,1761A,123.8275,41.3064,本溪市,大峪,,21,17,22,1,11,85,65,76,76,11,16,6,7,0.4,0.8
2022-09-18T19:00:00,1762A,123.7567,41.3325,本溪市,溪湖,,24,24,36,7,17,94,72,83,83,8,15,7,8,0.3,1
2022-09-18T19:00:00,1763A,123.7169,41.3094,本溪市,彩屯,,40,40,43,15,27,88,34,74,70,35,24,7,7,0.6,1.2
2022-09-18T19:00:00,1764A,123.7669,41.2864,本溪市,东明,,,,37,,17,92,61,82,81,26,24,7,8,,0.8
2022-09-18T19:00:00,1765A,123.7992,41.2664,本溪市,新立屯,颗粒物(PM10),51,52,28,11,12,94,54,85,83,10,14,6,7,0.6,0.8
2022-09-18T19:00:00,1766A,123.8142,41.3472,本溪市,威宁,,36,36,34,12,16,82,40,72,70,17,14,6,7,0.5,1.2
2022-09-18T19:00:00,1767A,121.1115,41.0879,锦州市,南山,,26,26,38,4,19,139,49,126,68,24,9,12,11,0.3,0.4
2022-09-18T19:00:00,1768A,121.0533,40.8434,锦州市,开发区,,30,30,49,5,22,154,58,123,75,18,10,14,12,0.4,0.6
2022-09-18T19:00:00,1769A,121.1836,41.1119,锦州市,百股街道,,41,41,40,10,22,136,48,104,70,27,14,10,18,0.5,0.6
2022-09-18T19:00:00,1770A,121.1178,41.1222,锦州市,天安街道,,44,44,47,8,18,140,53,120,67,27,17,16,13,0.3,0.5
2022-09-18T19:00:00,1771A,121.1303,41.1386,锦州市,北湖公园,,27,27,38,6,18,139,53,120,72,22,10,13,11,0.4,0.6
2022-09-18T19:00:00,1772A,126.54,43.8622,吉林市,哈达湾,颗粒物(PM10),53,55,27,7,11,84,65,77,76,14,14,5,5,0.4,0.5
2022-09-18T19:00:00,1773A,126.5844,43.8358,吉林市,东局子,,48,48,22,9,10,84,46,77,73,30,17,4,4,0.6,0.6
2022-09-18T19:00:00,1774A,126.5052,43.8245,吉林市,电力学院,颗粒物(PM10),117,183,33,60,14,86,34,80,73,42,16,11,8,0.7,0.4
2022-09-18T19:00:00,1775A,126.6133,43.8972,吉林市,江北,颗粒物(PM10),53,55,24,13,10,82,40,74,69,26,11,14,11,0.7,0.6
2022-09-18T19:00:00,1776A,126.555,43.8306,吉林市,江南公园,颗粒物(PM10),74,97,30,14,12,83,56,76,73,19,14,5,5,0.5,0.6
2022-09-18T19:00:00,1778A,126.7061,43.7133,吉林市,丰满(对照点),,,,,,,,,,,,,,,,
2022-09-18T19:00:00,1779A,123.9305,47.3636,齐齐哈尔市,安居小区,,34,34,36,5,7,60,46,49,49,7,7,5,5,0.4,0.4
2022-09-18T19:00:00,1780A,123.9488,47.3386,齐齐哈尔市,中心广场,,32,32,29,3,3,63,50,54,50,5,6,3,4,0.3,0.3
2022-09-18T19:00:00,1781A,123.9483,47.3227,齐齐哈尔市,农牧车辆厂,颗粒物(PM10),53,56,57,5,6,69,50,53,50,5,5,5,6,0.2,0.2
2022-09-18T19:00:00,1783A,123.945,47.2988,齐齐哈尔市,市环境监测站,颗粒物(PM10),51,52,40,15,11,70,52,51,51,6,7,2,3,0.2,0.2
2022-09-18T19:00:00,1784A,129.61,44.561,牡丹江市,环保大楼,,39,39,22,16,9,86,80,77,77,10,11,5,6,0.3,0.4
2022-09-18T19:00:00,1785A,129.6115,44.5782,牡丹江市,文化广场,,39,39,25,21,9,84,76,74,74,12,11,2,3,0.4,0.5
2022-09-18T19:00:00,1786A,129.5904,44.5963,牡丹江市,第一医院,,34,34,18,20,9,80,75,70,70,8,10,4,4,0.3,0.5
2022-09-18T19:00:00,1787A,129.6364,44.6075,牡丹江市,机车工厂,,47,47,23,29,8,83,79,76,76,10,10,12,14,1.2,0.4
2022-09-18T19:00:00,1788A,129.6386,44.5462,牡丹江市,第一中学,,50,50,28,19,13,86,81,75,75,9,9,4,4,0.4,0.5
2022-09-18T19:00:00,1789A,124.81117,46.03138,大庆市,大同区,,,86,33,,,62,58,59,59,1,4,4,4,0.3,0.3
2022-09-18T19:00:00,1790A,125.129,46.533,大庆市,龙凤区,,43,43,19,17,9,61,56,57,57,2,4,3,3,0.2,0.3
2022-09-18T19:00:00,1791A,124.902,46.408,大庆市,红岗区,颗粒物(PM10),67,84,23,5,8,63,57,56,56,2,5,3,3,0.4,0.4
2022-09-18T19:00:00,1792A,125.153,46.586,大庆市,萨尔图区,,,34,23,,,70,53,54,53,3,4,6,6,0,0
2022-09-18T19:00:00,1793A,124.9042,46.6215,大庆市,让胡路区,,,,,,,61,52,52,52,1,3,1,1,1.1,1.1
2022-09-18T19:00:00,1794A,118.3606,31.3519,芜湖市,监测站,,40,40,42,13,20,158,91,122,122,29,23,9,8,0.7,0.7
2022-09-18T19:00:00,1795A,118.3714,31.4134,芜湖市,科创中心,,32,28,36,12,21,157,102,128,128,20,29,7,8,0.6,0.7
2022-09-18T19:00:00,1796A,118.3673,31.3131,芜湖市,四水厂,,32,31,35,15,20,146,101,122,122,24,23,7,7,0.6,0.7
2022-09-18T19:00:00,1797A,118.4022,31.3839,芜湖市,济民医院(对照点),,,,,,,,,,,,,,,,
2022-09-18T19:00:00,1798A,118.5092,31.6837,马鞍山市,湖东路四小,,34,34,29,12,16,150,84,130,125,18,17,4,5,0.6,0.8
2022-09-18T19:00:00,1799A,118.5024,31.6449,马鞍山市,开发区,,30,27,34,7,20,159,94,134,132,17,21,7,8,0.8,0.9
2022-09-18T19:00:00,1800A,118.5228,31.7231,马鞍山市,慈湖,,43,43,35,13,21,140,56,126,118,43,24,5,7,0.6,0.7
2022-09-18T19:00:00,1801A,118.48,31.6928,马鞍山市,马钢动力厂,,,,,,,,,,,,,,,,
2022-09-18T19:00:00,1802A,118.6245,31.7241,马鞍山市,濮塘(对照点),,28,24,23,3,17,156,88,134,131,11,12,4,5,0.5,0.7
2022-09-18T19:00:00,1803A,115.9872,29.6815,九江市,十里,,48,36,39,26,27,168,153,159,159,13,21,8,9,0.7,0.7
2022-09-18T19:00:00,1804A,115.9584,29.7046,九江市,茅山头,,,49,45,28,25,162,148,156,156,16,17,8,8,,0.7
2022-09-18T19:00:00,1805A,115.9877,29.7295,九江市,西园,,50,50,46,26,24,166,133,160,159,34,18,8,10,0.7,0.8
2022-09-18T19:00:00,1806A,116.0172,29.6547,九江市,五七二七厂,,45,35,35,24,23,163,143,149,149,10,18,6,7,0.6,0.8
2022-09-18T19:00:00,1808A,115.9114,29.6038,九江市,综合工业园,,46,44,48,24,23,152,146,147,147,14,32,8,9,0.7,0.7
2022-09-18T19:00:00,1809A,116.0721,29.7535,九江市,石化总厂,颗粒物(PM10),52,54,46,20,22,161,134,151,150,22,19,10,13,0.9,0.8
2022-09-18T19:00:00,1810A,115.9773,29.5698,九江市,庐山气象台(对照点),,48,35,31,22,21,168,152,164,161,9,7,9,12,0.5,0.5
2022-09-18T19:00:00,1811A,112.3628,34.6692,洛阳市,中信二小,,,,,,,,,,,,,,,,
2022-09-18T19:00:00,1812A,112.3931,34.6516,洛阳市,市委党校,臭氧1小时,74,62,109,27,53,229,179,202,202,21,24,6,10,0.4,0.7
2022-09-18T19:00:00,1814A,112.4657,34.6871,洛阳市,豫西宾馆,颗粒物(PM10),59,67,105,29,64,221,163,196,196,28,36,10,15,0.4,0.8
2022-09-18T19:00:00,1815A,112.494,34.6886,洛阳市,河南林校,颗粒物(PM10),59,68,93,26,49,201,140,173,173,20,26,7,10,0.4,0.8
2022-09-18T19:00:00,1816A,112.3844,34.623,洛阳市,开发区管委会,臭氧1小时,98,55,91,29,59,243,198,226,226,10,19,2,5,0.4,0.7
2022-09-18T19:00:00,1817A,112.4267,34.6258,洛阳市,市委新办公区,,,64,105,25,68,219,167,197,197,,25,,16,1.2,0.9
2022-09-18T19:00:00,1818A,114.4839,36.0621,安阳市,棉研所(对照点),,,,,,,,,,,,,,,,
2022-09-18T19:00:00,1819A,114.3551,36.1017,安阳市,红庙街,臭氧1小时,104,97,100,54,54,263,207,231,231,25,43,14,16,0.6,0.8
2022-09-18T19:00:00,1820A,114.361,36.0681,安阳市,银杏小区,臭氧1小时,101,98,102,47,45,254,202,224,224,,35,7,14,1.0,1.2
2022-09-18T19:00:00,1824A,114.3389,34.7781,开封市,肿瘤医院,臭氧1小时,63,49,67,19,29,189,170,181,180,16,26,8,11,0.7,0.8
2022-09-18T19:00:00,1826A,114.2885,34.7965,开封市,世纪星幼儿园,颗粒物(PM10),56,62,62,20,26,179,162,171,170,18,17,9,11,0.5,0.5
2022-09-18T19:00:00,1828A,113.227,35.2125,焦作市,市环保局,,49,49,68,14,30,197,146,180,180,17,18,9,11,0.3,0.7
2022-09-18T19:00:00,1829A,113.2464,35.1764,焦作市,高新区政府（停运20220628）,,,,,,,,,,,,,,,,
2022-09-18T19:00:00,1830A,113.1992,35.2590,焦作市,影视城(对照点),,,,,,,,,,,,,,,,
2022-09-18T19:00:00,1832A,113.3257,33.742,平顶山市,新华旅馆,颗粒物(PM10),59,67,81,19,40,176,163,167,166,22,38,4,33,0.4,0.5
2022-09-18T19:00:00,1833A,113.2919,33.737,平顶山市,规划设计院,颗粒物(PM10),55,60,76,17,27,180,162,168,168,3,25,4,30,0.5,0.6
2022-09-18T19:00:00,1834A,113.182,33.774,平顶山市,平顶山工学院,臭氧1小时,70,61,82,19,32,184,176,178,178,21,31,5,15,0.3,0.4
2022-09-18T19:00:00,1835A,111.1922,34.7752,三门峡市,市政府,臭氧1小时,68,64,90,30,60,190,174,172,172,20,26,8,8,0.7,0.9
2022-09-18T19:00:00,1836A,111.1587,34.7942,三门峡市,开发区,臭氧1小时,59,39,118,32,63,214,167,182,182,24,14,7,6,0.7,0.9
2022-09-18T19:00:00,1838A,111.143,34.7955,三门峡市,风景区(对照点),,,,,,,,,,,,,,,,
2022-09-18T19:00:00,1839A,111.3009,30.7157,宜昌市,四零三,,,,,,,,,,,,,,,,
2022-09-18T19:00:00,1840A,111.2992,30.6981,宜昌市,白龙岗,颗粒物(PM10),64,78,64,44,41,136,85,108,108,53,29,5,4,1.0,0.8
2022-09-18T19:00:00,1841A,111.3549,30.6465,宜昌市,伍家岗,颗粒物(PM10),53,56,64,36,41,166,84,138,136,74,35,12,10,0.7,0.6
2022-09-18T19:00:00,1842A,111.2628,30.6961,宜昌市,点军区,颗粒物(PM10),76,102,76,39,42,166,71,137,133,49,24,10,9,0.8,0.7
2022-09-18T19:00:00,1843A,111.3275,30.7819,宜昌市,夷陵区,细颗粒物(PM2.5),64,75,69,46,42,163,131,149,149,32,27,10,8,0.7,0.6
2022-09-18T19:00:00,1844A,112.2494,30.3197,荆州市,市图书馆,颗粒物(PM10),71,92,70,45,42,215,126,180,179,58,27,8,10,0.8,0.8
2022-09-18T19:00:00,1845A,112.2008,30.3544,荆州市,市委党校,"颗粒物(PM10),细颗粒物(PM2.5)",64,78,80,46,44,212,162,188,188,23,28,8,10,0.8,0.8
2022-09-18T19:00:00,1847A,113.1094,29.3578,岳阳市,南湖风景区,臭氧1小时,78,54,59,28,37,220,182,206,206,21,25,13,14,0.6,0.8
2022-09-18T19:00:00,1848A,113.1493,29.4251,岳阳市,城陵矶,臭氧1小时,54,55,68,24,32,190,163,182,182,26,41,16,14,0.4,0.7
2022-09-18T19:00:00,1849A,113.1497,29.3575,岳阳市,开发区,臭氧1小时,83,64,65,26,36,220,186,206,206,20,28,8,11,0.5,0.6
2022-09-18T19:00:00,1850A,113.2621,29.4758,岳阳市,云溪区,臭氧1小时,59,52,60,24,33,211,167,195,194,16,19,10,11,0.6,0.7
2022-09-18T19:00:00,1851A,112.9943,29.4402,岳阳市,君山区,臭氧1小时,65,50,67,27,39,209,172,196,196,16,20,8,8,0.6,0.8
2022-09-18T19:00:00,1852A,113.2117,29.355,岳阳市,金凤水库(对照点),臭氧1小时,63,47,44,16,26,197,170,185,185,13,12,6,6,0.5,0.7
2022-09-18T19:00:00,1854A,111.6975,28.9703,常德市,市二中,颗粒物(PM10),68,85,91,48,57,191,161,179,179,14,24,11,14,0.6,0.7
2022-09-18T19:00:00,1857A,111.7158,29.1456,常德市,白鹤山(对照点),臭氧1小时,68,60,64,30,37,187,174,181,181,7,8,5,7,0.7,0.7
2022-09-18T19:00:00,1858A,110.5319,29.1217,张家界市,永定新区,臭氧1小时,69,51,54,30,33,175,175,165,165,14,15,8,5,0.5,0.4
2022-09-18T19:00:00,1859A,110.4697,29.1242,张家界市,电业局,颗粒物(PM10),51,52,52,23,28,174,147,165,164,42,16,6,4,0.5,0.5
2022-09-18T19:00:00,1860A,110.5594,29.3547,张家界市,未央路,臭氧1小时,64,61,44,19,19,173,171,167,167,8,12,8,4,0.6,0.5
2022-09-18T19:00:00,1861A,110.4417,29.315,张家界市,袁家界(对照点),臭氧1小时,100,52,54,27,22,200,200,190,190,12,12,10,8,0.7,0.7
2022-09-18T19:00:00,1862A,110.4144,25.3167,桂林市,电子科大尧山校区(对照点),细颗粒物(PM2.5),72,64,56,52,41,100,60,87,85,9,11,34,20,0.5,0.5
2022-09-18T19:00:00,1863A,110.2819,25.2697,桂林市,监测站,细颗粒物(PM2.5),55,55,65,39,36,164,120,150,149,12,17,7,18,0.6,0.7
2022-09-18T19:00:00,1864A,110.3089,25.2708,桂林市,龙隐路小学,细颗粒物(PM2.5),52,44,54,36,38,158,124,150,148,10,17,10,18,0.6,0.7
2022-09-18T19:00:00,1865A,110.2869,25.2178,桂林市,八中,细颗粒物(PM2.5),53,49,56,37,35,164,105,146,142,16,17,8,12,0.5,0.5
2022-09-18T19:00:00,1866A,109.2262,21.588,北海市,牛尾岭水库(对照点),,,,,,,,,,,,,,,,
2022-09-18T19:00:00,1867A,109.1436,21.4086,北海市,海滩公园,,25,21,34,2,17,110,78,99,85,3,6,5,6,0.7,0.7
2022-09-18T19:00:00,1868A,109.0981,21.4661,北海市,新市环保局,,23,20,29,2,19,111,73,91,81,5,7,4,4,0.5,0.6
2022-09-18T19:00:00,1869A,109.1778,21.5233,北海市,北海工业园,,24,24,53,5,33,118,66,89,85,8,19,5,9,0.4,0.6
2022-09-18T19:00:00,1870A,109.4856,24.3895,柳州市,柳东小学,,,34,54,,44,204,138,172,172,7,16,5,12,0.5,0.6
2022-09-18T19:00:00,1871A,109.4157,24.3277,柳州市,环保监测站,,44,44,56,20,30,191,133,153,153,13,22,6,10,0.7,0.8
2022-09-18T19:00:00,1872A,109.389,24.341,柳州市,河西水厂,,47,47,63,32,35,182,129,144,144,12,24,12,16,0.7,0.9
2022-09-18T19:00:00,1873A,109.4311,24.2921,柳州市,市四中,颗粒物(PM10),54,58,66,34,30,178,129,150,150,13,19,7,10,0.6,0.8
2022-09-18T19:00:00,1874A,109.4006,24.3631,柳州市,市九中,,47,47,77,25,38,202,132,158,158,14,26,7,15,0.8,1.1
2022-09-18T19:00:00,1875A,109.4958,24.3134,柳州市,古亭山,,46,46,49,29,30,191,125,162,161,13,28,6,8,0.6,0.8
2022-09-18T19:00:00,1876A,109.5078,18.2489,三亚市,河东子站,,21,18,17,13,11,70,66,64,64,4,4,3,3,0.4,0.5
2022-09-18T19:00:00,1877A,109.4964,18.2681,三亚市,河西子站,,21,16,17,12,13,76,65,67,66,4,4,2,2,0.6,0.6
2022-09-18T19:00:00,1878A,104.7778,31.4741,绵阳市,富乐山,,,14,22,,10,66,51,55,55,6,13,5,6,0.5,0.6
2022-09-18T19:00:00,1879A,104.7563,31.4535,绵阳市,市人大,,26,26,23,8,10,56,33,46,46,22,19,4,3,0.8,0.7
2022-09-18T19:00:00,1880A,104.6697,31.4668,绵阳市,高新区自来水公司,,22,22,30,14,14,53,42,42,42,12,22,5,5,0.7,0.8
2022-09-18T19:00:00,1881A,104.7287,31.5075,绵阳市,三水厂,,25,23,26,17,13,60,47,51,51,14,20,5,5,0.6,0.7
2022-09-18T19:00:00,1882A,104.563,28.793,宜宾市,石马中学(对照点),,25,16,35,13,23,95,79,84,84,6,8,4,5,0.7,0.8
2022-09-18T19:00:00,1883A,104.6201,28.7728,宜宾市,市委,,23,22,38,14,28,99,73,82,82,13,14,6,7,0.7,0.7
2022-09-18T19:00:00,1884A,104.6055,28.793,宜宾市,宜宾四中,,29,25,45,20,35,117,88,98,98,7,8,8,8,0.7,0.8
2022-09-18T19:00:00,1885A,104.639,28.7562,宜宾市,市政府,,29,20,36,14,30,125,90,100,100,5,8,8,9,0.8,0.9
2022-09-18T19:00:00,1886A,104.5742,28.7199,宜宾市,黄金嘴,,27,21,40,15,31,110,85,93,93,9,9,7,8,0.5,0.5
2022-09-18T19:00:00,1888A,101.6891,26.571,攀枝花市,弄弄坪,,32,32,36,19,18,102,86,88,88,20,23,11,10,0.9,1.2
2022-09-18T19:00:00,1889A,101.5769,26.5928,攀枝花市,河门口,,24,13,17,8,11,120,74,92,92,10,14,6,12,0.6,1.1
2022-09-18T19:00:00,1890A,101.7169,26.585,攀枝花市,炳草岗,,48,48,48,16,23,132,91,104,104,19,32,24,24,0.4,0.8
2022-09-18T19:00:00,1891A,101.7369,26.5008,攀枝花市,仁和,,30,30,18,11,13,90,66,78,78,9,11,9,9,0.7,0.7
2022-09-18T19:00:00,1893A,105.4324,28.9634,泸州市,九狮山(对照点),,,15,44,14,35,105,102,90,90,,2,6,6,0.4,0.4
2022-09-18T19:00:00,1894A,105.4427,28.9063,泸州市,小市上码头,,49,43,70,34,73,108,96,88,88,13,13,4,9,0.7,0.8
2022-09-18T19:00:00,1895A,105.4241,28.8573,泸州市,兰田宪桥,,43,43,56,27,44,117,99,99,99,9,10,8,12,1.0,1
2022-09-18T19:00:00,1896A,105.4379,28.8833,泸州市,市环监站,,45,44,63,31,47,110,95,90,90,10,10,3,4,0.8,0.7
2022-09-18T19:00:00,1897A,104.7547,29.3628,自贡市,大塘山(对照点),,,,,,,,,,,,,,,,
2022-09-18T19:00:00,1900A,104.7692,29.3411,自贡市,春华路,,,,,,,,,,,,,,,,
2022-09-18T19:00:00,1901A,104.4239,31.1208,德阳市,东山公园,,30,30,20,16,7,72,65,54,54,10,15,4,4,0.8,0.8
2022-09-18T19:00:00,1902A,104.3826,31.1317,德阳市,西小区,,42,42,37,16,8,65,56,47,47,15,25,4,7,0.8,0.9
2022-09-18T19:00:00,1903A,104.4053,31.1167,德阳市,市检察院,,,,,,,,,,,,,,,,
2022-09-18T19:00:00,1904A,104.3553,31.1091,德阳市,耐火材料厂,,34,34,27,18,8,66,58,48,48,12,22,3,4,0.7,0.8
2022-09-18T19:00:00,1905A,106.056,30.8064,南充市,西山风景区(对照点),,39,25,21,27,24,44,33,43,34,12,14,1,3,1.6,1.5
2022-09-18T19:00:00,1906A,106.0789,30.8023,南充市,南充市委,,33,33,35,19,22,67,53,61,57,12,9,5,4,0.7,0.7
2022-09-18T19:00:00,1907A,106.1031,30.8217,南充市,南充炼油厂,,31,31,40,21,22,57,34,33,26,14,12,7,6,0.6,0.5
2022-09-18T19:00:00,1908A,106.1064,30.7856,南充市,高坪区监测站,,35,26,33,24,26,58,27,34,26,14,11,2,3,0.8,0.7
2022-09-18T19:00:00,1909A,106.0642,30.7636,南充市,嘉陵区环保局,,50,38,34,35,27,58,51,52,46,12,8,2,3,0.7,0.7
2022-09-18T19:00:00,1910A,106.1087,30.8388,南充市,市环境监测站,,38,32,32,26,28,70,52,50,49,8,7,13,9,0.6,0.6
2022-09-18T19:00:00,1911A,106.9222,27.6869,遵义市,丁字口,,41,41,37,12,25,109,36,99,91,37,19,8,8,0.9,0.6
2022-09-18T19:00:00,1912A,106.9242,27.7019,遵义市,凤凰山,,35,23,35,18,18,114,110,111,111,9,18,5,7,0.6,0.7
2022-09-18T19:00:00,1913A,106.8906,27.6486,遵义市,忠庄,,30,29,50,9,24,102,94,97,97,12,23,2,3,0.4,0.6
2022-09-18T19:00:00,1914A,106.9231,27.6506,遵义市,舟水桥,,33,19,46,15,21,115,103,109,109,12,21,3,3,0.4,0.5
2022-09-18T19:00:00,1915A,106.9178,27.72,遵义市,干田坝,,32,32,35,11,19,117,69,108,105,24,20,5,7,0.5,0.6
2022-09-18T19:00:00,1916A,103.7897,25.5035,曲靖市,环境监测站,,27,24,18,6,10,94,85,82,82,10,12,3,5,0.5,0.5
2022-09-18T19:00:00,1917A,103.8,25.5364,曲靖市,烟厂办公区,,28,15,18,8,10,92,89,82,82,6,9,4,7,0.4,0.5
2022-09-18T19:00:00,1918A,108.7197,34.3956,咸阳市,气象站(对照点),颗粒物(PM10),71,92,68,49,42,76,36,60,59,51,41,6,6,1.2,1.2
2022-09-18T19:00:00,1919A,108.673,34.3155,咸阳市,实验中学,颗粒物(PM10),70,90,66,43,37,80,54,70,70,36,32,4,4,0.8,0.8
2022-09-18T19:00:00,1920A,108.7233,34.3617,咸阳市,师范学院,颗粒物(PM10),79,108,68,50,44,97,42,82,75,50,27,5,5,1.2,1
2022-09-18T19:00:00,1922A,109.0656,35.0994,铜川市,党校(对照点),细颗粒物(PM2.5),77,90,56,56,33,97,90,88,88,16,25,8,7,1.0,0.9
2022-09-18T19:00:00,1923A,109.0697,35.0697,铜川市,王益区政府,细颗粒物(PM2.5),83,91,55,61,35,124,105,110,110,16,25,10,9,1.1,0.9
2022-09-18T19:00:00,1924A,108.9344,34.9058,铜川市,新区管委会,细颗粒物(PM2.5),112,138,83,84,52,140,112,113,113,28,26,7,8,1.1,0.9
2022-09-18T19:00:00,1925A,108.9589,34.8731,铜川市,新区兰芝公司,,,,,,,,,,,,,,,,
2022-09-18T19:00:00,1926A,109.4131,36.6275,延安市,枣园(对照点),颗粒物(PM10),54,57,43,21,24,163,83,130,130,22,23,5,4,0.8,0.7
2022-09-18T19:00:00,1927A,109.4761,36.6028,延安市,延大医附院,,47,47,43,26,26,166,56,125,125,45,26,4,4,0.8,0.6
2022-09-18T19:00:00,1928A,109.4824,36.5767,延安市,市监测站,,,,,,,,,,,,,,,,
2022-09-18T19:00:00,1929A,109.5056,36.6106,延安市,百米大道,颗粒物(PM10),58,66,50,23,26,162,59,120,120,42,35,5,5,0.7,0.6
2022-09-18T19:00:00,1930A,107.185,34.3063,宝鸡市,庙沟村(对照点),,32,32,24,19,11,74,65,61,61,12,18,5,5,0.7,0.5
2022-09-18T19:00:00,1931A,107.0708,34.3017,宝鸡市,竹园沟,,47,47,23,25,10,86,75,72,72,18,14,5,5,0.8,0.6
2022-09-18T19:00:00,1932A,107.1906,34.3672,宝鸡市,三陆医院,,49,49,35,24,16,88,40,68,68,33,23,5,5,1.0,0.7
2022-09-18T19:00:00,1933A,107.1431,34.3547,宝鸡市,监测站,,46,39,30,32,18,82,62,70,70,31,23,6,6,0.8,0.6
2022-09-18T19:00:00,1934A,107.1186,34.3739,宝鸡市,技工学校,,43,39,33,30,20,74,65,65,65,28,21,4,5,0.9,0.6
2022-09-18T19:00:00,1935A,107.3906,34.3528,宝鸡市,陈仓区环保局家属楼,,46,46,41,27,21,82,58,53,53,26,31,5,6,0.8,0.7
2022-09-18T19:00:00,1936A,107.2058,34.3497,宝鸡市,文理学院,,45,45,32,22,14,84,67,74,74,30,27,5,6,0.9,0.8
2022-09-18T19:00:00,1937A,107.2386,34.3622,宝鸡市,三迪小学,颗粒物(PM10),55,60,34,35,20,78,54,63,63,38,31,5,6,0.9,0.8
2022-09-18T19:00:00,1938A,109.5293,34.5101,渭南市,农科所(对照点),,,,,,,,,,,,,,,,
2022-09-18T19:00:00,1939A,109.4974,34.4877,渭南市,日报社,细颗粒物(PM2.5),105,92,71,79,67,107,20,76,76,65,40,7,9,1.0,0.9
2022-09-18T19:00:00,1940A,109.4636,34.493,渭南市,体育馆,细颗粒物(PM2.5),144,95,73,110,66,110,24,75,74,60,43,1,2,0.9,0.8
2022-09-18T19:00:00,1941A,109.4259,34.5023,渭南市,高新一小,细颗粒物(PM2.5),109,142,96,82,67,107,60,89,89,38,39,6,6,1.0,0.9
2022-09-18T19:00:00,1943A,102.1725,38.5339,金昌市,新川苑,颗粒物(PM10),63,76,94,28,26,110,97,103,101,15,21,7,8,0.7,0.7
2022-09-18T19:00:00,1944A,102.1692,38.5167,金昌市,天庆家园,颗粒物(PM10),65,80,83,15,17,116,106,108,108,8,20,6,12,1.0,0.7
2022-09-18T19:00:00,1945A,98.2908,39.7711,嘉峪关市,气象局,颗粒物(PM10),71,92,84,24,26,113,103,101,101,17,32,2,20,0.3,0.7
2022-09-18T19:00:00,1947A,106.3394,38.817,石嘴山市,沙湖旅游区(对照点),颗粒物(PM10),65,80,115,29,34,154,100,132,132,38,35,7,15,0.7,1
2022-09-18T19:00:00,1948A,106.3668,39.0145,石嘴山市,大武口朝阳西街,颗粒物(PM10),53,55,97,27,28,180,138,146,146,21,30,6,22,0.4,0.6
2022-09-18T19:00:00,1949A,106.7704,39.2282,石嘴山市,惠农南大街,,41,41,93,28,31,140,118,128,128,23,29,8,16,0.5,0.4
2022-09-18T19:00:00,1950A,106.7099,39.1325,石嘴山市,红果子镇惠新街,颗粒物(PM10),63,76,111,31,27,152,99,130,130,34,29,6,15,0.5,0.5
2022-09-18T19:00:00,1951A,84.895,45.6094,克拉玛依市,长征新村,,34,27,27,10,6,106,106,97,97,6,17,5,5,0.2,0.2
2022-09-18T19:00:00,1952A,84.8988,45.5893,克拉玛依市,南林小区,,32,25,32,10,12,105,101,94,94,10,35,5,5,0.2,0.5
2022-09-18T19:00:00,1953A,85.1186,45.6886,克拉玛依市,白碱滩区,,,,,,,,,,,,,,,,
2022-09-18T19:00:00,1954A,84.905,44.3396,克拉玛依市,独山子区,,39,34,41,17,14,133,123,116,116,10,16,12,10,0.3,0.4
2022-09-18T19:00:00,1955A,85.6979,46.098,克拉玛依市,乌尔禾区商贸楼,,32,15,30,8,11,102,101,92,92,2,16,4,4,0.2,0.3
2022-09-18T19:00:00,1956A,86.1472,41.7538,巴音郭楞州,孔雀公园,颗粒物(PM10),71,92,98,31,24,121,105,113,110,1,5,4,5,0.3,0.2
2022-09-18T19:00:00,1957A,86.1972,41.7166,巴音郭楞州,棉纺厂,颗粒物(PM10),77,104,108,36,36,112,108,106,106,1,6,4,6,0.2,0.2
2022-09-18T19:00:00,1958A,86.2357,41.7173,巴音郭楞州,经济开发区,,,,,22,33,115,108,110,110,4,5,5,8,0.2,0.3
2022-09-18T19:00:00,1959A,118.746,36.881,寿光市,监测站,,,,,,,,,,,,,,,,
2022-09-18T19:00:00,1960A,118.780,36.864,寿光市,世纪学校,,,,,,,,,,,,,,,,
2022-09-18T19:00:00,1961A,117.532,36.6868,济南市,东山小学,颗粒物(PM10),62,73,80,7,21,214,78,165,150,20,45,6,6,0.2,0.5
2022-09-18T19:00:00,1962A,117.541,36.710,章丘市,明水开发区,,,,,,,,,,,,,,,,
2022-09-18T19:00:00,1963A,120.610,36.440,即墨市,环保局子站,,,,,,,,,,,,,,,,
2022-09-18T19:00:00,1964A,120.470,36.390,即墨市,开发区子站,,,,,,,,,,,,,,,,
2022-09-18T19:00:00,1965A,120.005,35.878,胶南市,JN子站,,,,,,,,,,,,,,,,
2022-09-18T19:00:00,1966A,120.0405,35.8735,青岛市,黄岛区4号,颗粒物(PM10),74,97,55,51,24,237,171,209,209,20,27,5,8,1.2,0.8
2022-09-18T19:00:00,1967A,120.008,36.283,胶州市,胶州环保局,,,,,,,,,,,,,,,,
2022-09-18T19:00:00,1968A,120.014,36.253,胶州市,胶州一中,,,,,,,,,,,,,,,,
2022-09-18T19:00:00,1969A,120.537,36.865,莱西市,环保局子站,,,,,,,,,,,,,,,,
2022-09-18T19:00:00,1970A,120.515,36.885,莱西市,人民广场子站,,,,,,,,,,,,,,,,
2022-09-18T19:00:00,1971A,119.952,36.792,平度市,1号,,,,,,,,,,,,,,,,
2022-09-18T19:00:00,1972A,119.976,36.799,平度市,2号,,,,,,,,,,,,,,,,
2022-09-18T19:00:00,1973A,120.747,37.825,蓬莱市,蓬莱环保局,,,,,,,,,,,,,,,,
2022-09-18T19:00:00,1974A,120.773,37.809,蓬莱市,蓬莱博物馆,,,,,,,,,,,,,,,,
2022-09-18T19:00:00,1975A,120.399,37.374,招远市,招远环保局,,,,,,,,,,,,,,,,
2022-09-18T19:00:00,1976A,120.394,37.364,招远市,招远教育局,,,,,,,,,,,,,,,,
2022-09-18T19:00:00,1977A,119.941,37.177,莱州市,莱州环保局,,,,,,,,,,,,,,,,
2022-09-18T19:00:00,1978A,119.959,37.180,莱州市,莱州外经委,,,,,,,,,,,,,,,,
2022-09-18T19:00:00,1979A,122.471,37.154,荣成市,荣成市环保局办公楼,,,,,,,,,,,,,,,,
2022-09-18T19:00:00,1980A,122.410,37.161,荣成市,山东成山轮胎公司,,,,,,,,,,,,,,,,
2022-09-18T19:00:00,1981A,122.038,37.197,文登市,文登市环保局,,,,,,,,,,,,,,,,
2022-09-18T19:00:00,1982A,122.0693,37.2174,威海市,文登开发区,颗粒物(PM10),54,58,53,12,26,183,112,161,155,16,19,6,5,0.6,0.8
2022-09-18T19:00:00,1983A,121.531,36.913,乳山市,乳山市环保局,,,,,,,,,,,,,,,,
2022-09-18T19:00:00,1984A,121.544,36.907,乳山市,乳山市气象局,,,,,,,,,,,,,,,,
2022-09-18T19:00:00,1985A,120.636,31.155,吴江市,吴江市环保局,,,,,,,,,,,,,,,,
2022-09-18T19:00:00,1986A,120.635,31.170,吴江市,教师进修学校,,,,,,,,,,,,,,,,
2022-09-18T19:00:00,1987A,120.658,31.172,吴江市,吴江开发区,,,,,,,,,,,,,,,,
2022-09-18T19:00:00,1988A,120.953,31.388,昆山市,昆山实验小学,,,,,,,,,,,,,,,,
2022-09-18T19:00:00,1989A,120.999,31.381,昆山市,震川中学,,,,,,,,,,,,,,,,
2022-09-18T19:00:00,1990A,120.758,31.670,常熟市,海虞子站,,,,,,,,,,,,,,,,
2022-09-18T19:00:00,1991A,120.721,31.671,常熟市,兴福子站,,,,,,,,,,,,,,,,
2022-09-18T19:00:00,1992A,120.734,31.656,常熟市,菱塘子站,,,,,,,,,,,,,,,,
2022-09-18T19:00:00,1993A,120.526,31.874,张家港市,张家港市监测站,,,,,,,,,,,,,,,,
2022-09-18T19:00:00,1994A,120.550,31.882,张家港市,城北小学,,,,,,,,,,,,,,,,
2022-09-18T19:00:00,1995A,121.115,31.453,太仓市,太仓市监测站,,,,,,,,,,,,,,,,
2022-09-18T19:00:00,1996A,121.140,31.422,太仓市,科教新城实小,,,,,,,,,,,,,,,,
2022-09-18T19:00:00,1997A,119.146,31.955,句容市,消防指挥中心,,,,,,,,,,,,,,,,
2022-09-18T19:00:00,1998A,119.180,31.955,句容市,房家坝,,,,,,,,,,,,,,,,
2022-09-18T19:00:00,1999A,120.268,31.920,江阴市,虹桥邮政,,,,,,,,,,,,,,,,
2022-09-18T19:00:00,2000A,120.237,31.909,江阴市,五星公园,,,,,,,,,,,,,,,,
2022-09-18T19:00:00,2001A,120.302,31.920,江阴市,第二实验小学,,,,,,,,,,,,,,,,
2022-09-18T19:00:00,2002A,119.818,31.354,宜兴市,宜兴市环保局,,,,,,,,,,,,,,,,
2022-09-18T19:00:00,2003A,119.794,31.371,宜兴市,宜园,,,,,,,,,,,,,,,,
2022-09-18T19:00:00,2004A,119.579,31.751,金坛市,金坛市环境监测站,,,,,,,,,,,,,,,,
2022-09-18T19:00:00,2005A,119.579,31.737,金坛市,金坛市自来水公司,,,,,,,,,,,,,,,,
2022-09-18T19:00:00,2006A,119.460,31.400,溧阳市,溧阳市东门子站,,,,,,,,,,,,,,,,
2022-09-18T19:00:00,2007A,119.438,31.317,溧阳市,燕山子站,,,,,,,,,,,,,,,,
2022-09-18T19:00:00,2008A,121.173,31.896,海门市,海门市监测站,,,,,,,,,,,,,,,,
2022-09-18T19:00:00,2009A,121.1518,31.89708,海门市,社会福利院,,,,,,,,,,,,,,,,
2022-09-18T19:00:00,2010A,119.7183,30.2366,临安市,市政府,,,,,,,,,,,,,,,,
2022-09-18T19:00:00,2011A,119.6942,30.2311,临安市,四中,,,,,,,,,,,,,,,,
2022-09-18T19:00:00,2012A,119.954,30.054,富阳市,监测站,,,,,,,,,,,,,,,,
2022-09-18T19:00:00,2013A,119.946,30.049,富阳市,富春二小,,,,,,,,,,,,,,,,
2022-09-18T19:00:00,2014A,120.091,29.305,义乌市,江东,,,,,,,,,,,,,,,,
2022-09-18T19:00:00,2015A,120.040,29.334,义乌市,北苑,,,,,,,,,,,,,,,,
2022-09-18T19:00:00,2016A,120.251,29.719,诸暨市,图书馆,,,,,,,,,,,,,,,,
2022-09-18T19:00:00,2017A,120.209,29.732,诸暨市,富林印务,,,,,,,,,,,,,,,,
2022-09-18T19:00:00,2018A,121.989,39.625,瓦房店市,抱龙山庄,,,,,,,,,,,,,,,,
2022-09-18T19:00:00,2019A,122.011,39.617,瓦房店市,东山公园,,,,,,,,,,,,,,,,
2022-09-18T19:00:00,2031A,113.1817,27.9958,株洲市,云田中学,臭氧1小时,99,61,59,38,31,234,199,211,211,17,20,9,7,0.7,0.6
2022-09-18T19:00:00,2054A,114.1099,32.1059,信阳市,平桥分局,颗粒物(PM10),62,73,74,27,33,170,162,160,160,17,23,9,10,0.8,0.9
2022-09-18T19:00:00,2064A,113.9956,32.1271,信阳市,南湾水厂,,48,48,50,19,24,158,148,154,154,17,17,8,8,0.7,0.7
2022-09-18T19:00:00,2065A,114.0775,32.1195,信阳市,市酿酒公司,,50,50,55,26,27,162,159,154,154,12,24,9,9,0.9,0.9
2022-09-18T19:00:00,2066A,114.0609,32.1399,信阳市,审计局,颗粒物(PM10),63,76,54,29,31,166,154,160,160,17,29,7,7,0.9,1
2022-09-18T19:00:00,2067A,114.6613,33.6128,周口市,市环境监测站,,50,46,61,18,26,193,159,174,174,14,16,8,20,0.7,0.7
2022-09-18T19:00:00,2068A,114.6758,33.6347,周口市,周口师范,颗粒物(PM10),55,59,64,16,26,199,158,178,178,17,22,5,15,0.8,0.8
2022-09-18T19:00:00,2069A,114.6546,33.5979,周口市,市运管处,臭氧1小时,54,56,63,13,30,193,163,176,176,18,28,8,25,0.7,0.7
2022-09-18T19:00:00,2070A,114.6369,33.6406,周口市,川汇区环保局,颗粒物(PM10),62,74,72,31,34,195,156,174,174,17,25,10,17,0.5,0.5
2022-09-18T19:00:00,2075A,117.6336,24.4674,漳州市,九湖(对照点),,,,,,,,,,,,,,,,
2022-09-18T19:00:00,2160A,112.85,35.5051,晋城市,自来水公司,臭氧1小时,92,48,74,19,36,193,193,183,183,19,27,9,10,0.7,1.1
2022-09-18T19:00:00,2161A,112.8318,35.4936,晋城市,白云商贸,臭氧1小时,77,82,68,27,39,183,181,178,178,29,30,6,6,0.4,0.8
2022-09-18T19:00:00,2162A,112.8508,35.4887,晋城市,市环保局,臭氧1小时,88,63,70,22,44,192,190,184,184,21,39,9,9,0.5,0.9
2022-09-18T19:00:00,2163A,112.8676,35.4897,晋城市,技术学院,臭氧1小时,90,40,53,17,36,192,192,176,176,14,26,7,7,0.4,0.8
2022-09-18T19:00:00,2164A,112.8271,35.4828,晋城市,泽州一中,,,,,,,,,,,,,,,,
2022-09-18T19:00:00,2165A,112.8453,35.546,晋城市,白马寺 (对照点),,,,,,,,,,,,,,,,
2022-09-18T19:00:00,2166A,112.4397,39.3522,朔州市,平朔,,,,,,,,,,,,,,,,
2022-09-18T19:00:00,2167A,112.4575,39.3617,朔州市,朔唯,颗粒物(PM10),63,75,119,24,27,123,111,96,96,22,43,7,11,0.6,0.7
2022-09-18T19:00:00,2168A,112.4258,39.3197,朔州市,区政府,颗粒物(PM10),68,86,115,33,25,130,115,102,102,29,34,11,18,0.9,0.8
2022-09-18T19:00:00,2169A,112.4072,39.3278,朔州市,市环保局,颗粒物(PM10),67,84,109,17,24,124,112,98,98,28,31,11,17,0.6,0.6
2022-09-18T19:00:00,2170A,112.4272,39.3681,朔州市,市二中,颗粒物(PM10),68,85,142,29,33,116,95,91,91,22,42,6,11,0.8,0.8
2022-09-18T19:00:00,2171A,112.7532,37.6945,晋中市,锦纶小区,臭氧1小时,59,62,77,29,39,206,167,190,190,17,35,13,11,0.6,0.6
2022-09-18T19:00:00,2173A,112.7249,37.7067,晋中市,南都小区,颗粒物(PM10),57,63,93,28,39,203,161,188,188,22,44,11,11,0.6,0.6
2022-09-18T19:00:00,2174A,112.6991,37.6982,晋中市,榆次区政府,颗粒物(PM10),63,75,76,31,37,199,157,184,184,27,34,16,14,0.7,0.7
2022-09-18T19:00:00,2175A,110.9956,35.0147,运城市,运城中学,臭氧1小时,63,65,119,34,74,174,170,156,156,8,13,10,8,0.5,0.9
2022-09-18T19:00:00,2176A,111.0233,35.0611,运城市,禹都开发区,,,,,,,,,,,,,,,,
2022-09-18T19:00:00,2178A,110.9686,35.0303,运城市,地区技校,臭氧1小时,59,54,104,29,74,176,167,161,161,9,15,9,8,0.6,1
2022-09-18T19:00:00,2179A,111.0414,35.1147,运城市,空港新区,细颗粒物(PM2.5),72,91,152,52,101,185,145,167,167,16,22,12,12,0.6,1.1
2022-09-18T19:00:00,2181A,112.7383,38.4519,忻州市,开发区,颗粒物(PM10),53,55,68,30,36,196,114,168,168,25,35,13,13,0.7,0.7
2022-09-18T19:00:00,2182A,112.7003,38.4928,忻州市,会展中心,,,,98,38,39,198,116,169,169,26,44,10,13,0.4,0.6
2022-09-18T19:00:00,2183A,111.1406,37.5211,吕梁市,环保局,颗粒物(PM10),67,84,78,26,25,168,85,145,145,61,50,5,5,0.7,0.5
2022-09-18T19:00:00,2185A,111.1297,37.5136,吕梁市,自来水公司,颗粒物(PM10),58,65,101,12,28,162,100,136,136,46,39,4,4,1.0,0.7
2022-09-18T19:00:00,2186A,106.8288,39.6778,乌海市,聚英学校,,,,,,,,,,,,,,,,
2022-09-18T19:00:00,2187A,106.8174,39.6973,乌海市,市林业局,颗粒物(PM10),75,99,73,24,23,146,84,108,98,32,21,11,11,0.8,0.5
2022-09-18T19:00:00,2188A,106.7907,39.6667,乌海市,中海勃湾学校,颗粒物(PM10),86,121,85,21,23,157,102,109,109,29,26,14,18,0.7,0.6
2022-09-18T19:00:00,2191A,122.2532,43.6801,通辽市,艺术职业学校,颗粒物(PM10),51,51,53,19,9,101,73,73,73,14,12,5,6,0.2,0
2022-09-18T19:00:00,2192A,119.7594,49.2261,呼伦贝尔市,区环保局,,30,30,32,17,19,64,56,60,60,9,4,5,4,0.2,0.3
2022-09-18T19:00:00,2194A,107.5936,40.916,巴彦淖尔市,秋林养殖基地(对照点),,,,,,,,,,,,,,,,
2022-09-18T19:00:00,2195A,107.4212,40.761,巴彦淖尔市,附二中,颗粒物(PM10),66,82,65,32,30,97,65,84,84,24,15,8,8,0.5,0.4
2022-09-18T19:00:00,2196A,107.37,40.7372,巴彦淖尔市,市环保大楼,颗粒物(PM10),56,61,63,20,21,104,78,89,89,20,14,8,8,0.6,0.5
2022-09-18T19:00:00,2197A,113.1306,40.9923,乌兰察布市,集宁新区,,36,36,27,7,15,98,74,86,86,24,11,17,21,0.3,0.3
2022-09-18T19:00:00,2200A,122.0392,46.0656,兴安盟,胜华新制药厂,,36,36,35,16,17,73,63,70,70,10,7,1,1,0.1,0.1
2022-09-18T19:00:00,2201A,121.9504,46.0741,兴安盟,科右前旗环保局,,,,27,,14,72,,70,70,4,2,1,3,0.1,0.1
2022-09-18T19:00:00,2202A,116.1042,43.9317,锡林郭勒盟,市环保监测站,,33,33,23,9,6,74,67,72,72,6,12,7,7,0.2,0.2
2022-09-18T19:00:00,2203A,116.0781,43.9311,锡林郭勒盟,市政府,,21,16,21,2,3,72,65,69,69,11,14,7,8,0.2,0.1
2022-09-18T19:00:00,2204A,105.6467,38.8363,阿拉善盟,西城区西花园(对照点),颗粒物(PM10),66,82,89,33,33,148,148,131,131,17,10,11,7,0.7,0.5
2022-09-18T19:00:00,2205A,105.6985,38.8411,阿拉善盟,蒙二幼,颗粒物(PM10),70,90,88,36,37,155,155,135,135,13,7,13,9,0.4,0.3
2022-09-18T19:00:00,2206A,105.724,38.8516,阿拉善盟,环保局新楼,,47,43,45,28,27,150,150,137,133,15,9,14,9,0.6,0.4
2022-09-18T19:00:00,2207A,121.6094,41.998,阜新市,工业园区,,38,38,42,2,15,89,29,70,64,44,19,9,9,0.4,0.5
2022-09-18T19:00:00,2208A,121.6697,42.0279,阜新市,长青街,,21,21,34,7,13,96,44,74,70,21,12,1,2,0.4,0.4
2022-09-18T19:00:00,2209A,121.6673,42.0705,阜新市,农业园区,,31,31,33,1,15,92,53,70,67,13,9,6,7,0.5,0.4
2022-09-18T19:00:00,2210A,121.6717,42.0224,阜新市,东苑,,47,47,39,3,15,91,45,73,68,25,12,7,8,0.4,0.4
2022-09-18T19:00:00,2211A,121.6506,42.0498,阜新市,玉龙新城,,49,49,36,9,13,85,18,78,69,42,15,3,2,0.4,0.3
2022-09-18T19:00:00,2212A,123.2,41.1953,辽阳市,宏伟区,,28,28,31,2,12,81,53,74,73,16,15,8,8,0.5,0.7
2022-09-18T19:00:00,2213A,123.1683,41.2495,辽阳市,新华园,,39,39,45,4,16,75,47,69,68,24,26,8,9,0.3,0.7
2022-09-18T19:00:00,2214A,123.2354,41.2639,辽阳市,滨河路,,26,26,42,17,19,90,56,83,81,21,22,11,6,0.4,0.7
2022-09-18T19:00:00,2215A,123.149,41.2991,辽阳市,铁西工业园,颗粒物(PM10),52,53,45,6,20,81,18,73,66,52,24,14,8,0.7,0.8
2022-09-18T19:00:00,2216A,123.8139,42.3022,铁岭市,汇工街西,颗粒物(PM10),52,53,41,8,13,88,52,80,77,16,16,6,8,0.4,0.5
2022-09-18T19:00:00,2217A,123.8649,42.2923,铁岭市,水上乐园,,36,36,36,10,11,78,47,72,70,34,21,5,5,0.3,0.3
2022-09-18T19:00:00,2218A,123.8486,42.2867,铁岭市,银州路东段,,,,9,9,14,66,46,61,59,26,24,7,6,0.5,0.6
2022-09-18T19:00:00,2219A,123.7153,42.2217,铁岭市,金沙江路北,,30,30,37,2,15,82,56,74,72,16,23,7,8,0.3,0.5
2022-09-18T19:00:00,2220A,120.4318,41.5881,朝阳市,西梁,,42,42,49,8,19,92,51,68,66,17,13,7,11,0.4,0.5
2022-09-18T19:00:00,2221A,120.4521,41.5646,朝阳市,河畔小区,,48,48,55,7,20,100,51,69,66,20,11,8,15,0.4,0.5
2022-09-18T19:00:00,2222A,120.4176,41.5648,朝阳市,八里堡,颗粒物(PM10),61,71,61,11,22,95,46,67,65,23,16,7,10,0.8,0.7
2022-09-18T19:00:00,2223A,120.3806,41.5969,朝阳市,农业园区,,32,32,36,6,14,86,35,67,63,30,16,6,7,0.5,0.6
2022-09-18T19:00:00,2225A,124.4002,43.1713,四平市,一商场,,46,46,38,6,18,89,30,64,57,38,18,2,3,0.4,0.3
2022-09-18T19:00:00,2226A,124.388,43.193,四平市,境园,,42,42,39,5,14,76,26,66,59,40,14,5,5,0.4,0.3
2022-09-18T19:00:00,2227A,125.1358,42.8845,辽源市,环保局,,36,36,30,17,20,83,60,80,78,9,12,7,7,0.6,0.6
2022-09-18T19:00:00,2229A,125.9358,41.7173,通化市,光明,,21,15,27,0,10,85,67,76,76,17,17,9,12,0.2,0.6
2022-09-18T19:00:00,2230A,125.9446,41.7325,通化市,铁路,,31,31,28,6,12,88,70,78,77,16,16,8,9,0.3,0.6
2022-09-18T19:00:00,2231A,126.4219,41.9171,白山市,喜丰,,42,42,36,6,12,87,70,78,74,13,14,7,8,0.6,1.1
2022-09-18T19:00:00,2232A,126.4077,41.9419,白山市,环保局,颗粒物(PM10),63,75,46,10,15,82,60,66,63,23,20,6,8,0.5,0.8
2022-09-18T19:00:00,2233A,124.8006,45.1214,松原市,江南,,35,35,34,6,8,72,55,67,64,10,7,2,3,0.3,0.3
2022-09-18T19:00:00,2234A,124.7965,45.1722,松原市,江北,,44,44,28,7,6,77,54,67,66,12,7,3,2,0.2,0.2
2022-09-18T19:00:00,2235A,122.7911,45.6077,白城市,洮北区环保局,,37,37,40,8,5,89,68,84,81,13,8,7,3,0.1,0.2
2022-09-18T19:00:00,2236A,122.8738,45.5725,白城市,市环保局,,40,40,34,15,12,75,65,71,71,7,6,4,5,0.3,0.3
2022-09-18T19:00:00,2237A,129.47,42.8883,延边朝鲜族自治州,妇幼医院,,28,28,21,7,15,95,65,87,86,14,12,8,8,0.4,0.5
2022-09-18T19:00:00,2238A,129.5055,42.9108,延边朝鲜族自治州,延边医院,,31,31,25,7,15,98,74,87,86,9,16,9,9,0.6,0.8
2022-09-18T19:00:00,2239A,129.3964,42.8881,延边朝鲜族自治州,朝阳川镇医院,,22,22,19,4,7,97,67,87,85,8,9,6,6,0.4,0.6
2022-09-18T19:00:00,2240A,130.9762,45.3001,鸡西市,环保局,,26,26,26,4,12,77,67,68,68,10,15,3,3,0.1,0.3
2022-09-18T19:00:00,2243A,130.9429,45.3039,鸡西市,第一中学,,36,36,23,12,11,87,72,80,80,5,9,4,5,0.1,0.2
2022-09-18T19:00:00,2244A,130.2537,47.3416,鹤岗市,哈啤分公司,,17,14,15,7,8,63,52,60,59,8,11,7,8,0.2,0.2
2022-09-18T19:00:00,2245A,130.2684,47.3086,鹤岗市,斯达机电,,26,26,16,15,8,66,58,62,62,5,6,5,5,0.2,0.2
2022-09-18T19:00:00,2246A,130.3114,47.3388,鹤岗市,东山纸板厂,,20,20,12,8,9,66,57,62,62,4,7,8,8,0.3,0.3
2022-09-18T19:00:00,2247A,130.1097,47.3382,鹤岗市,五号水库(对照点),,19,15,11,4,6,66,60,64,64,4,5,8,7,0.4,0.4
2022-09-18T19:00:00,2248A,131.1511,46.6937,双鸭山市,双合村,,26,26,22,4,7,79,67,73,72,6,8,4,8,0.1,0.3
2022-09-18T19:00:00,2249A,131.1652,46.6191,双鸭山市,南小市,,36,36,33,10,10,75,63,68,67,5,7,2,2,0.2,0.2
2022-09-18T19:00:00,2250A,131.1524,46.6554,双鸭山市,环保局,,33,33,20,15,7,79,56,72,69,10,8,4,4,0.1,0.1
2022-09-18T19:00:00,2251A,131.12,46.5656,双鸭山市,苗圃(对照点),,28,0,19,19,12,89,69,80,77,2,3,3,3,0.3,0.3
2022-09-18T19:00:00,2252A,128.5159,47.4311,伊春市,环保局,,23,23,11,3,5,52,45,48,48,5,6,6,5,0.3,0.1
2022-09-18T19:00:00,2253A,128.9102,47.7412,伊春市,电力嘉园,,31,31,18,13,10,60,50,54,54,5,6,6,6,0.2,0.3
2022-09-18T19:00:00,2254A,129.5029,48.471,伊春市,汤旺河国家公园(对照点),,25,25,19,4,5,50,42,46,45,2,2,5,5,0.2,0.2
2022-09-18T19:00:00,2255A,130.2751,46.8028,佳木斯市,佳纺,,30,30,21,9,7,78,58,67,66,7,9,2,3,0.2,0.3
2022-09-18T19:00:00,2256A,130.3995,46.8307,佳木斯市,发电厂,,21,21,23,11,8,78,60,68,68,4,9,1,1,0.4,0.3
2022-09-18T19:00:00,2257A,130.3258,46.7975,佳木斯市,环保局,,21,21,22,1,8,77,61,68,67,5,9,5,5,0.2,0.3
2022-09-18T19:00:00,2258A,130.3648,46.8032,佳木斯市,十一中,,26,26,21,5,9,82,65,72,71,4,10,4,5,0.2,0.3
2022-09-18T19:00:00,2259A,130.3794,46.7588,佳木斯市,四丰(对照点),,,20,14,9,7,74,63,67,67,,,1,1,0.2,0.3
2022-09-18T19:00:00,2262A,131.0518,45.8751,七台河市,新一中(对照点),,,,10,,5,95,76,88,85,,13,7,7,,0.4
2022-09-18T19:00:00,2263A,127.4833,50.2524,黑河市,交通局,,14,12,8,2,5,46,44,34,34,5,5,5,5,0.3,0.4
2022-09-18T19:00:00,2264A,127.5144,50.2341,黑河市,环保局,,,9,9,11,7,48,46,36,36,6,6,,6,0.4,0.5
2022-09-18T19:00:00,2265A,127.5291,50.2472,黑河市,大黑河岛(对照点),,15,13,8,5,4,46,46,35,35,2,2,5,6,0.2,0.2
2022-09-18T19:00:00,2266A,126.9785,46.6365,绥化市,人和东街,,33,33,26,5,7,68,42,63,60,12,7,6,8,0.6,0.6
2022-09-18T19:00:00,2267A,126.964,46.6528,绥化市,党政办公中心,,37,37,20,12,8,67,24,55,49,30,13,6,7,0.4,0.5
2022-09-18T19:00:00,2269A,124.1069,50.4097,大兴安岭地区,科技局,,15,6,5,10,9,50,43,45,45,11,5,3,3,0.3,0.3
2022-09-18T19:00:00,2270A,117.396,32.939,蚌埠市,工人疗养院,,45,45,43,22,24,156,136,140,140,12,11,8,8,0.4,0.4
2022-09-18T19:00:00,2271A,117.3605,32.9427,蚌埠市,百货大楼,,43,40,33,16,17,154,136,140,140,16,17,9,9,0.4,0.3
2022-09-18T19:00:00,2273A,117.4185,32.8911,蚌埠市,蚌埠学院,,44,41,42,19,22,157,139,144,144,17,38,10,14,0.3,0.3
2022-09-18T19:00:00,2274A,117.3533,32.9673,蚌埠市,淮上区政府,,48,48,40,14,20,154,131,140,140,13,11,8,8,0.4,0.4
2022-09-18T19:00:00,2275A,117.3145,32.8977,蚌埠市,高新区,,45,39,38,19,21,157,144,142,142,18,26,6,8,0.5,0.5
2022-09-18T19:00:00,2277A,116.8305,32.7727,淮南市,潘集区政府,,35,30,41,16,21,136,109,126,126,28,17,13,13,0.3,0.3
2022-09-18T19:00:00,2278A,117.0067,32.6524,淮南市,师范学院,,,,38,22,22,135,106,126,126,30,16,7,9,0.6,0.6
2022-09-18T19:00:00,2279A,116.8569,32.5951,淮南市,谢家集区政府,,36,35,44,11,17,129,113,122,122,18,17,6,5,0.4,0.4
2022-09-18T19:00:00,2280A,116.8281,32.633,淮南市,八公山区政府,,36,31,32,12,16,131,115,122,122,14,15,9,9,0.3,0.3
2022-09-18T19:00:00,2281A,116.6325,32.6201,淮南市,焦岗湖风景区管理处(对照点),,36,36,42,24,18,118,92,110,108,25,24,12,13,0.3,0.3
2022-09-18T19:00:00,2282A,116.8004,33.975,淮北市,监测站,颗粒物(PM10),51,51,43,24,23,192,160,173,173,19,14,13,9,0.7,0.6
2022-09-18T19:00:00,2283A,116.8091,33.9007,淮北市,烈山区政府,臭氧1小时,65,38,34,25,21,216,172,192,192,20,12,10,6,0.6,0.6
2022-09-18T19:00:00,2284A,116.7856,33.9477,淮北市,职业技术学院,颗粒物(PM10),55,60,45,25,23,184,156,166,166,21,22,10,8,0.7,0.7
2022-09-18T19:00:00,2285A,117.8177,30.9412,铜陵市,市第四中学,,43,31,39,14,24,152,137,143,143,18,20,4,4,0.4,0.5
2022-09-18T19:00:00,2286A,117.8059,30.9273,铜陵市,市公路局,,44,36,46,24,26,152,140,144,144,14,16,8,8,0.4,0.5
2022-09-18T19:00:00,2287A,117.7807,30.9413,铜陵市,市新民污水厂,,44,42,45,19,22,154,140,145,145,11,23,7,7,0.3,0.4
2022-09-18T19:00:00,2288A,117.7439,30.8792,铜陵市,市第九中学,颗粒物(PM10),67,84,62,41,28,144,120,135,135,27,36,11,8,0.5,0.8
2022-09-18T19:00:00,2289A,117.846,30.9413,铜陵市,车站新区,,42,29,42,16,22,153,133,144,144,12,22,5,5,0.4,0.5
2022-09-18T19:00:00,2290A,117.8483,30.97,铜陵市,市职教基地,,40,30,45,10,23,156,126,145,145,13,18,5,5,0.6,0.7
2022-09-18T19:00:00,2291A,117.0809,30.5177,安庆市,环科院,,44,25,42,18,23,151,138,145,145,10,11,5,7,0.5,0.6
2022-09-18T19:00:00,2292A,117.0331,30.5119,安庆市,马山宾馆,,43,34,42,18,25,152,135,145,145,10,13,5,6,0.6,0.6
2022-09-18T19:00:00,2294A,116.9896,30.6145,安庆市,安庆大学,,45,28,33,16,22,154,143,147,147,9,12,6,6,0.5,0.5
2022-09-18T19:00:00,2295A,118.2903,29.6963,黄山市,延安路89号,,39,32,29,11,9,151,122,139,137,8,10,8,8,0.2,0.2
2022-09-18T19:00:00,2296A,118.327,29.7178,黄山市,黄山东路89号,,36,29,25,21,15,144,114,133,131,10,11,7,7,0.2,0.2
2022-09-18T19:00:00,2297A,118.1371,30.2756,黄山市,黄山区政府5号楼,,37,26,34,7,13,144,116,134,133,11,8,8,7,0.4,0.5
2022-09-18T19:00:00,2298A,118.3093,32.3153,滁州市,老年大学,,43,43,27,21,15,116,105,110,110,26,15,6,7,0.3,0.2
2022-09-18T19:00:00,2299A,118.3244,32.2786,滁州市,人大宾馆,,35,32,27,13,19,117,111,109,109,17,18,4,5,0.3,0.2
2022-09-18T19:00:00,2301A,115.8277,32.8929,阜阳市,市监测站,,45,30,43,19,23,160,144,152,152,24,19,8,10,0.5,0.6
2022-09-18T19:00:00,2303A,115.8554,32.8605,阜阳市,开发区,颗粒物(PM10),54,57,53,21,27,155,139,150,150,22,20,5,6,0.6,0.6
2022-09-18T19:00:00,2306A,116.989,33.6306,宿州市,火车站,,,,,,,,,,,,,,,,
2022-09-18T19:00:00,2307A,116.5079,31.737,六安市,监测大楼,,40,36,39,10,15,148,128,132,132,6,16,6,8,0.3,0.3
2022-09-18T19:00:00,2308A,116.4738,31.7643,六安市,皖西学院,,43,41,45,12,17,158,135,141,141,6,15,7,9,0.2,0.3
2022-09-18T19:00:00,2309A,116.4996,31.7905,六安市,朝阳厂,,41,41,35,14,13,154,126,135,135,8,13,13,14,0.4,0.4
2022-09-18T19:00:00,2310A,116.5567,31.7886,六安市,开发区,,40,40,44,17,21,152,113,132,132,14,16,8,9,0.4,0.4
2022-09-18T19:00:00,2311A,115.8072,33.8399,亳州市,污水处理厂,,,46,49,28,26,178,158,172,172,8,12,,10,0.7,0.5
2022-09-18T19:00:00,2312A,115.7789,33.8518,亳州市,三国揽胜宫,臭氧1小时,63,51,42,19,25,174,170,170,170,10,10,6,6,0.7,0.6
2022-09-18T19:00:00,2314A,117.47,30.6618,池州市,池州学院,,50,50,51,27,30,156,138,146,146,14,15,25,9,0.5,0.6
2022-09-18T19:00:00,2315A,117.4974,30.6539,池州市,平天湖(对照点),,,,,,,,,,,,,,,,
2022-09-18T19:00:00,2316A,118.7581,30.9454,宣城市,鳌峰子站,颗粒物(PM10),54,57,42,26,25,140,138,123,123,21,27,4,7,0.6,0.5
2022-09-18T19:00:00,2317A,118.7385,30.9743,宣城市,敬亭山子站,,47,47,34,16,20,150,141,128,128,17,21,11,6,0.5,0.4
2022-09-18T19:00:00,2318A,118.7173,30.9427,宣城市,开发区子站,,46,40,35,18,21,151,145,128,128,14,18,20,6,0.6,0.4
2022-09-18T19:00:00,2319A,119.0141,25.4325,莆田市,荔城区仓后路,,49,49,43,30,26,173,124,152,152,15,14,5,5,0.8,0.7
2022-09-18T19:00:00,2320A,119.0015,25.4553,莆田市,莆田市监测站,细颗粒物(PM2.5),64,75,44,46,28,188,112,164,160,9,9,5,5,0.8,0.8
2022-09-18T19:00:00,2321A,119.1119,25.4561,莆田市,涵江区六中,,42,42,40,21,26,168,109,149,144,12,10,5,6,0.7,0.6
2022-09-18T19:00:00,2322A,119.1013,25.3215,莆田市,秀屿区政府,,38,36,30,17,21,152,119,140,138,6,4,6,7,0.9,0.8
2022-09-18T19:00:00,2323A,118.981,25.4792,莆田市,东圳水库(对照点),,,,,,,,,,,,,,,,
2022-09-18T19:00:00,2324A,117.6211,26.2625,三明市,三钢,,37,30,80,24,54,176,118,150,146,18,23,7,11,0.6,0.7
2022-09-18T19:00:00,2325A,117.635,26.2714,三明市,三明二中,,46,32,58,32,39,173,89,148,140,30,26,5,10,0.9,1
2022-09-18T19:00:00,2326A,117.6028,26.2378,三明市,三元区政府,,48,48,80,24,55,166,96,142,139,28,26,6,11,0.8,0.7
2022-09-18T19:00:00,2327A,117.7275,26.3108,三明市,洋溪(对照点),,,,,,,,,,,,,,,,
2022-09-18T19:00:00,2331A,118.0966,26.6761,南平市,茫荡山(对照点),,,,,,,,,,,,,,,,
2022-09-18T19:00:00,2332A,118.1681,26.6369,南平市,南平市监测站,,46,45,36,32,23,154,88,140,134,21,21,6,7,0.9,0.5
2022-09-18T19:00:00,2333A,118.1825,26.6489,南平市,南平铝业有限公司,颗粒物(PM10),58,65,43,20,20,162,74,144,136,29,21,6,10,0.8,0.7
2022-09-18T19:00:00,2334A,118.1756,26.6272,南平市,南平七中,,40,35,37,28,24,168,104,153,148,20,16,6,7,0.7,0.6
2022-09-18T19:00:00,2335A,117.0189,25.1181,龙岩市,龙岩师专(对照点),,,,,,,,,,,,,,,,
2022-09-18T19:00:00,2336A,117.0217,25.1033,龙岩市,龙岩市监测站,,49,28,44,34,25,167,105,153,148,24,24,7,8,0.7,0.6
2022-09-18T19:00:00,2337A,117.0258,25.0661,龙岩市,闽西职业技术学院,,43,43,62,29,29,175,122,152,152,15,37,7,26,0.5,0.5
2022-09-18T19:00:00,2338A,117.0196,25.0306,龙岩市,龙岩学院,,39,37,41,27,26,178,118,155,154,13,18,6,8,0.5,0.4
2022-09-18T19:00:00,2339A,119.5001,26.6946,宁德市,金涵水库(对照点),,,,,,,,,,,,,,,,
2022-09-18T19:00:00,2341A,119.5388,26.6612,宁德市,宁德市监测站,颗粒物(PM10),52,53,40,29,27,178,147,159,159,20,15,8,8,1.1,1
2022-09-18T19:00:00,2342A,117.3102,29.3867,景德镇市,王港中学(对照点),,32,31,36,16,23,138,102,131,128,8,7,4,4,0.4,0.4
2022-09-18T19:00:00,2343A,117.2117,29.2933,景德镇市,老干部活动中心,颗粒物(PM10),55,59,61,22,24,155,133,140,139,10,18,6,8,0.6,0.5
2022-09-18T19:00:00,2344A,117.1894,29.2789,景德镇市,兽医站,,43,36,42,25,27,154,137,146,145,6,16,5,6,0.7,0.7
