timepoint,stationcode,longitude,latitude,area,positionname,primarypollutant,aqi,pm10,pm10_24h,pm2_5,pm2_5_24h,o3,o3_24h,o3_8h,o3_8h_24h,no2,no2_24h,so2,so2_24h,co,co_24h
2024-02-09T0800,2566A,102.1879,31.914,阿坝藏族羌族自治州,州农科所,,10,10,26,6,10,21,,26,26,5,4,6,6,0.8,0.7
2024-02-09T0800,2568A,102.2502,31.8896,阿坝藏族羌族自治州,马师校,,25,21,17,11,9,78,,90,90,1,3,4,4,0.5,0.5
2024-02-09T0800,3994A,102.2165,31.9024,阿坝藏族羌族自治州,马尔康中学西区,,24,19,18,11,9,76,,87,87,1,2,4,5,0.4,0.4
2024-02-09T0800,2695A,80.292,41.1694,阿克苏地区,电视台,颗粒物(PM10),60,69,67,36,38,49,,43,43,26,32,6,6,0.9,1
2024-02-09T0800,2696A,80.2613,41.1551,阿克苏地区,艺术中心,颗粒物(PM10),62,73,72,33,44,48,,33,33,19,34,6,8,1.4,1.6
2024-02-09T0800,2204A,105.6467,38.8363,阿拉善盟,西城区西花园,颗粒物(PM10),67,83,62,30,41,65,,83,83,13,10,8,9,0.6,0.6
2024-02-09T0800,2205A,105.6985,38.8411,阿拉善盟,蒙二幼,颗粒物(PM10),67,83,62,36,35,47,,72,72,26,14,6,7,0.8,0.7
2024-02-09T0800,2206A,105.724,38.8516,阿拉善盟,环保局新楼,颗粒物(PM10),68,86,52,20,34,80,,87,87,9,11,5,6,0.6,0.7
2024-02-09T0800,2708A,88.1264,47.8517,阿勒泰地区,市站,,40,31,25,28,13,38,,64,64,42,26,4,7,0.5,0.5
2024-02-09T0800,2630A,80.1161,32.5,阿里地区,阿里监测站,,21,3,8,3,4,66,,65,65,2,6,5,11,0.4,0.4
2024-02-09T0800,3192A,80.0903,32.5028,阿里地区,阿里藏医院,,20,9,13,1,6,62,,57,57,5,7,8,10,0.5,0.5
2024-02-09T0800,2642A,109.0318,32.6537,安康市,香溪洞,细颗粒物(PM2.5),57,44,47,40,38,28,,41,41,10,7,6,6,0.8,0.8
2024-02-09T0800,2643A,109.0281,32.6939,安康市,安康市监测站,细颗粒物(PM2.5),65,57,60,47,53,18,,24,24,16,20,8,9,0.8,1
2024-02-09T0800,2644A,109.0072,32.6975,安康市,汉滨区检察院,细颗粒物(PM2.5),52,43,51,36,45,21,,28,28,9,13,7,7,0.7,0.8
2024-02-09T0800,2291A,117.0809,30.5177,安庆市,环科院,细颗粒物(PM2.5),130,128,125,99,101,47,,43,43,26,27,8,10,1.2,1.2
2024-02-09T0800,2292A,117.0331,30.5119,安庆市,马山宾馆,细颗粒物(PM2.5),143,122,127,109,106,36,,53,53,36,25,5,8,1.2,1.2
2024-02-09T0800,2294A,116.9896,30.6145,安庆市,安庆大学,细颗粒物(PM2.5),108,91,112,81,97,50,,68,68,22,20,6,9,1.1,1.1
2024-02-09T0800,3173A,117.0598,30.5351,安庆市,市人大,细颗粒物(PM2.5),140,128,125,107,108,40,,56,56,35,28,5,8,1.3,1.2
2024-02-09T0800,3122A,105.9606,26.2611,安顺市,伍家关,,,,,,,,,,,,,,,,
2024-02-09T0800,3123A,105.9408,26.2431,安顺市,凤凰山,,26,,23,18,20,30,,40,40,13,11,20,20,0.7,0.7
2024-02-09T0800,3124A,105.9439,26.2564,安顺市,金钟山,,26,20,25,18,22,31,,38,38,12,9,22,21,0.7,0.6
2024-02-09T0800,3125A,105.8983,26.2481,安顺市,娄家坡,,28,20,25,19,23,28,,39,39,13,9,24,19,0.8,0.8
2024-02-09T0800,1818A,114.4839,36.0621,安阳市,棉研所,,,,,,,,,,,,,,,,
2024-02-09T0800,1819A,114.3551,36.1017,安阳市,红庙街,细颗粒物(PM2.5),272,274,220,222,201,18,,36,36,31,24,25,8,1.8,1.5
2024-02-09T0800,1820A,114.361,36.0681,安阳市,银杏小区,细颗粒物(PM2.5),299,265,206,249,217,20,,36,36,29,22,9,8,2.4,2
2024-02-09T0800,3141A,114.3922,36.0878,安阳市,信访局,细颗粒物(PM2.5),315,271,214,265,219,42,,57,57,26,23,19,9,1.6,1.4
2024-02-09T0800,3669A,114.4705,36.0637,安阳市,左辅环卫站,细颗粒物(PM2.5),278,252,224,228,200,21,,48,48,38,28,3,5,1.9,1.6
2024-02-09T0800,3703A,114.2917,36.0949,安阳市,安钢职工学校,细颗粒物(PM2.5),255,225,238,205,207,32,,37,37,27,28,5,10,1.7,1.7
2024-02-09T0800,1748A,123.044,41.1196,鞍山市,深沟寺,细颗粒物(PM2.5),89,92,97,66,68,37,,39,39,46,40,14,17,2.1,1.6
2024-02-09T0800,1749A,123.011,41.0931,鞍山市,太阳城,细颗粒物(PM2.5),113,116,92,85,62,33,,32,32,45,36,14,18,2.1,1.4
2024-02-09T0800,1750A,123.0485,41.1442,鞍山市,太平,细颗粒物(PM2.5),97,104,104,72,70,27,,33,33,59,40,15,13,2.7,1.7
2024-02-09T0800,1751A,122.9642,41.0971,鞍山市,铁西三道街,细颗粒物(PM2.5),137,153,118,104,77,8,,9,9,72,50,36,18,2.8,1.7
2024-02-09T0800,1752A,122.9341,41.0833,鞍山市,铁西工业园区,细颗粒物(PM2.5),206,198,119,156,87,9,,13,13,63,49,10,12,3.3,2
2024-02-09T0800,1753A,123.022,41.0821,鞍山市,明达新区,细颗粒物(PM2.5),110,106,94,83,67,26,,28,28,51,41,31,22,3.7,1.8
2024-02-09T0800,1754A,123.1289,41.0228,鞍山市,千山,,,,,,,,,,,,,,,,
2024-02-09T0800,2195A,107.4212,40.761,巴彦淖尔市,附二中,颗粒物(PM10),61,71,62,30,37,77,,80,80,5,11,2,5,0.6,0.6
2024-02-09T0800,2196A,107.37,40.7372,巴彦淖尔市,市环保大楼,颗粒物(PM10),56,62,63,38,41,70,,75,75,7,8,4,5,0.5,0.5
2024-02-09T0800,1956A,86.1472,41.7538,巴音郭楞蒙古自治州,孔雀公园,颗粒物(PM10),67,84,163,29,34,61,,38,38,12,19,4,4,0.6,0.6
2024-02-09T0800,1957A,86.1972,41.7166,巴音郭楞蒙古自治州,棉纺厂,颗粒物(PM10),90,129,299,30,35,32,,44,44,41,18,2,3,0.5,0.5
2024-02-09T0800,1958A,86.2357,41.7173,巴音郭楞蒙古自治州,经济开发区,颗粒物(PM10),66,81,276,29,38,66,,51,51,9,16,4,4,0.6,0.5
2024-02-09T0800,2914A,106.7677,31.8794,巴中市,苏山坪,细颗粒物(PM2.5),77,67,53,56,44,49,,54,54,12,13,4,4,0.8,0.8
2024-02-09T0800,3182A,106.7656,31.8545,巴中市,丽阳花园,细颗粒物(PM2.5),80,70,64,59,54,5,,11,11,21,26,4,4,1.1,1.1
2024-02-09T0800,3183A,106.7418,31.8654,巴中市,圣泉水务公司,细颗粒物(PM2.5),67,54,56,48,49,14,,16,16,16,23,3,4,0.8,0.9
2024-02-09T0800,3616A,106.7616,31.8344,巴中市,市中心医院,细颗粒物(PM2.5),85,70,67,63,56,3,,4,4,19,23,5,5,1.0,1
2024-02-09T0800,2235A,122.7911,45.6077,白城市,洮北区环保局,细颗粒物(PM2.5),65,50,32,47,18,51,,57,57,12,9,5,6,0.5,0.4
2024-02-09T0800,2236A,122.8738,45.5725,白城市,市环保局,,36,36,36,19,21,32,,48,48,16,10,5,6,0.6,0.5
2024-02-09T0800,2231A,126.4219,41.9171,白山市,喜丰,颗粒物(PM10),63,75,57,38,31,41,,48,48,29,23,20,19,1.3,1.1
2024-02-09T0800,2232A,126.4077,41.9419,白山市,环保局,颗粒物(PM10),73,95,94,45,47,32,,44,44,36,33,21,18,1.4,1.3
2024-02-09T0800,2647A,104.1724,36.5446,白银市,第三小学,,37,37,53,20,38,36,,52,52,32,21,22,23,1.0,0.8
2024-02-09T0800,2648A,104.1465,36.5482,白银市,动力公司,,29,29,49,19,40,44,,49,49,23,21,10,18,1.0,0.7
2024-02-09T0800,2512A,106.6103,23.9011,百色市,市监测站,,33,31,36,23,24,30,,35,35,7,9,7,10,0.8,0.8
2024-02-09T0800,2513A,106.6538,23.8859,百色市,市中心血站,,40,35,34,28,23,23,,33,33,15,11,8,10,0.8,0.8
2024-02-09T0800,3406A,106.6085,23.8798,百色市,祈福高中,,35,32,29,24,24,29,,30,30,10,9,7,9,0.8,0.8
2024-02-09T0800,2270A,117.396,32.939,蚌埠市,工人疗养院,细颗粒物(PM2.5),152,126,167,116,156,128,,99,99,11,30,7,8,0.9,1.1
2024-02-09T0800,2271A,117.3605,32.9427,蚌埠市,百货大楼,细颗粒物(PM2.5),160,133,167,122,153,108,,107,107,36,35,3,6,1.3,1.4
2024-02-09T0800,2273A,117.4185,32.8911,蚌埠市,蚌埠学院,细颗粒物(PM2.5),172,134,173,130,156,122,,111,111,12,21,4,6,1.1,1.2
2024-02-09T0800,2274A,117.3533,32.9673,蚌埠市,淮上区政府,细颗粒物(PM2.5),162,132,165,123,151,120,,116,116,22,26,6,7,1.1,1.2
2024-02-09T0800,2275A,117.3145,32.8977,蚌埠市,高新区,细颗粒物(PM2.5),175,139,172,132,160,108,,81,81,18,26,3,5,1.1,1.2
2024-02-09T0800,3715A,117.3092,32.9314,蚌埠市,蚌埠田家炳中学,细颗粒物(PM2.5),192,162,184,144,164,104,,92,92,22,32,17,15,1.0,1.1
2024-02-09T0800,1585A,109.8756,40.6532,包头市,市环境监测站,细颗粒物(PM2.5),77,97,122,56,102,30,,35,35,50,58,10,27,1.2,2.1
2024-02-09T0800,1587A,109.9991,40.5842,包头市,包头八中,细颗粒物(PM2.5),208,158,162,158,149,46,,46,46,55,52,17,40,1.9,2.1
2024-02-09T0800,1588A,109.8538,40.6821,包头市,青山宾馆,细颗粒物(PM2.5),92,71,130,68,118,14,,28,28,62,66,9,19,1.2,2.5
2024-02-09T0800,1589A,109.8642,40.6288,包头市,惠龙物流,细颗粒物(PM2.5),176,168,141,133,113,20,,43,43,73,55,20,33,1.7,1.9
2024-02-09T0800,1590A,110.0377,40.5546,包头市,东河鸿龙湾,细颗粒物(PM2.5),199,164,150,149,126,61,,71,71,30,40,7,23,1.5,1.6
2024-02-09T0800,3283A,109.9154,40.5685,包头市,滨河大厦,细颗粒物(PM2.5),178,164,139,134,119,60,,84,84,42,36,10,26,1.4,1.5
2024-02-09T0800,3419A,109.9447,40.6261,包头市,包头市委党校,细颗粒物(PM2.5),158,127,120,120,102,12,,30,30,65,53,15,29,2.2,2
2024-02-09T0800,3683A,109.8331,40.6576,包头市,昆区政府,细颗粒物(PM2.5),95,87,131,71,127,44,,34,34,32,59,15,29,1.0,2.3
2024-02-09T0800,1930A,107.185,34.3063,宝鸡市,庙沟村,细颗粒物(PM2.5),52,43,62,36,60,51,,55,55,5,9,4,4,0.6,0.9
2024-02-09T0800,1931A,107.0708,34.3017,宝鸡市,竹园沟,细颗粒物(PM2.5),67,,61,48,59,23,,29,29,16,17,4,4,1.0,0.9
2024-02-09T0800,1932A,107.1906,34.3672,宝鸡市,三陆医院,细颗粒物(PM2.5),74,66,93,54,90,20,,33,33,36,33,4,5,0.9,1.1
2024-02-09T0800,1933A,107.1431,34.3547,宝鸡市,监测站,细颗粒物(PM2.5),59,42,76,42,69,10,,20,20,36,27,3,4,0.8,0.9
2024-02-09T0800,1934A,107.1186,34.3739,宝鸡市,技工学校,细颗粒物(PM2.5),87,,85,64,83,12,,28,28,34,28,6,7,0.9,1
2024-02-09T0800,1935A,107.3906,34.3528,宝鸡市,陈仓区环保局家属楼,细颗粒物(PM2.5),129,100,118,98,113,40,,31,31,39,43,56,14,1.7,1.4
2024-02-09T0800,1936A,107.2058,34.3497,宝鸡市,文理学院,细颗粒物(PM2.5),77,64,87,56,81,22,,30,30,33,33,6,7,0.9,1
2024-02-09T0800,1937A,107.2386,34.3622,宝鸡市,三迪小学,细颗粒物(PM2.5),85,,89,63,86,10,,28,28,45,36,6,7,1.1,1.1
2024-02-09T0800,1051A,115.493,38.8632,保定市,游泳馆,细颗粒物(PM2.5),201,202,167,151,130,13,,57,57,56,32,3,5,1.8,1.3
2024-02-09T0800,1052A,115.5213,38.8959,保定市,华电二区,细颗粒物(PM2.5),229,,126,179,127,23,,52,52,39,24,3,5,1.2,1
2024-02-09T0800,1053A,115.4713,38.9108,保定市,接待中心,细颗粒物(PM2.5),175,153,121,132,113,32,,58,58,24,15,4,6,1.2,1.1
2024-02-09T0800,1054A,115.4612,38.8416,保定市,地表水厂,细颗粒物(PM2.5),206,177,168,156,136,21,,44,44,44,31,2,4,1.7,1.5
2024-02-09T0800,3581A,115.31981,38.95208,保定市,满城区生态环境分局,细颗粒物(PM2.5),179,151,142,135,119,10,,36,36,50,36,4,5,1.8,1.3
2024-02-09T0800,3582A,115.47694,38.76408,保定市,清苑区第二中学,细颗粒物(PM2.5),215,209,176,165,134,36,,56,56,24,22,5,8,1.5,1.2
2024-02-09T0800,3583A,115.62909,39.02311,保定市,徐水物探局,细颗粒物(PM2.5),175,163,170,132,132,17,,30,30,44,35,4,5,1.4,1.2
2024-02-09T0800,4004A,115.4202,38.8656,保定市,双鹰农机,细颗粒物(PM2.5),176,147,134,133,117,25,,44,44,32,30,3,5,1.4,1.2
2024-02-09T0800,4034A,115.5150,38.8590,保定市,植保所站,细颗粒物(PM2.5),208,,137,158,134,12,,50,50,62,37,4,6,1.6,1.1
2024-02-09T0800,2594A,99.1678,25.1081,保山市,市环境监测站,,43,36,40,30,22,41,,56,56,8,6,5,5,0.4,0.3
2024-02-09T0800,2595A,99.1711,25.1328,保山市,市环保局,,37,37,42,20,23,48,,64,64,4,3,6,6,0.4,0.5
2024-02-09T0800,1866A,109.2262,21.588,北海市,牛尾岭水库,,,,,,,,,,,,,,,,
2024-02-09T0800,1867A,109.1436,21.4086,北海市,海滩公园,,32,28,27,22,20,49,,44,44,6,8,7,7,0.9,0.9
2024-02-09T0800,1868A,109.0981,21.4661,北海市,新市环保局,,35,25,24,24,22,52,,49,49,6,7,6,6,0.9,0.9
2024-02-09T0800,1869A,109.1778,21.5233,北海市,北海工业园,,39,30,32,27,23,51,,46,46,7,8,9,10,0.7,0.9
2024-02-09T0800,3400A,109.1911,21.4415,北海市,龙潭自来水厂,,35,28,25,24,23,49,,44,44,6,8,9,8,0.6,0.7
2024-02-09T0800,1001A,116.3621,39.8784,北京市,万寿西宫,,35,31,49,24,36,41,,38,38,33,29,2,2,0.4,0.4
2024-02-09T0800,1002A,116.2202,40.2915,北京市,定陵,细颗粒物(PM2.5),68,56,32,49,28,61,,68,68,12,8,4,4,0.5,0.4
2024-02-09T0800,1003A,116.4174,39.9289,北京市,东四,,22,20,46,15,33,38,,44,44,35,21,4,3,0.4,0.5
2024-02-09T0800,1004A,116.4072,39.8863,北京市,天坛,,38,34,50,26,40,31,,41,41,24,18,3,2,0.5,0.5
2024-02-09T0800,1005A,116.462,39.9365,北京市,农展馆,,22,22,47,15,36,25,,39,39,38,23,1,2,0.4,0.4
2024-02-09T0800,1006A,116.3392,39.9295,北京市,官园,,33,32,45,23,33,45,,50,50,34,23,3,2,0.5,0.5
2024-02-09T0800,1007A,116.2878,39.9611,北京市,海淀万柳,细颗粒物(PM2.5),58,52,46,41,31,23,,28,28,58,31,1,3,0.6,0.4
2024-02-09T0800,1008A,116.6636,40.135,北京市,顺义新城,,20,20,28,14,17,54,,45,45,7,12,3,2,0.2,0.3
2024-02-09T0800,1009A,116.6275,40.3275,北京市,怀柔镇,,29,27,20,20,13,29,,39,39,30,12,4,4,0.5,0.4
2024-02-09T0800,1010A,116.2296,40.217,北京市,昌平镇,细颗粒物(PM2.5),74,68,46,54,35,74,,76,76,15,10,4,3,0.6,0.4
2024-02-09T0800,1011A,116.3966,39.9821,北京市,奥体中心,,16,14,37,11,29,48,,35,35,17,20,3,3,0.4,0.5
2024-02-09T0800,1012A,116.184,39.9136,北京市,古城,细颗粒物(PM2.5),62,59,44,44,29,36,,40,40,24,15,1,3,0.7,0.5
2024-02-09T0800,3281A,115.9718,40.4529,北京市,延庆夏都,细颗粒物(PM2.5),54,45,41,38,32,23,,30,30,19,12,3,3,0.8,0.6
2024-02-09T0800,3417A,117.0709,40.1465,北京市,平谷新城,,40,39,32,28,21,19,,26,26,9,8,3,2,0.7,0.4
2024-02-09T0800,3418A,116.8336,40.4095,北京市,密云新城,,29,29,22,16,11,59,,56,56,5,8,2,1,0.3,0.2
2024-02-09T0800,3671A,116.088,39.9726,北京市,门头沟三家店,,,,,,,,,,,,,,,,
2024-02-09T0800,3672A,116.1541,39.8204,北京市,丰台云岗,细颗粒物(PM2.5),55,56,44,39,28,64,,63,63,11,15,3,3,0.5,0.3
2024-02-09T0800,3673A,116.6804,39.9081,北京市,通州东关,,42,40,53,29,39,19,,39,39,37,16,1,2,0.6,0.5
2024-02-09T0800,3674A,115.9577,39.7603,北京市,房山燕山,细颗粒物(PM2.5),54,46,35,38,28,48,,53,53,20,18,3,3,0.7,0.4
2024-02-09T0800,3675A,116.4672,39.7733,北京市,大兴旧宫,细颗粒物(PM2.5),118,103,69,89,55,18,,40,40,45,20,3,2,0.8,0.5
2024-02-09T0800,3694A,115.986,40.4563,北京市,延庆石河营,细颗粒物(PM2.5),53,41,40,37,30,24,,23,23,15,13,3,3,0.9,0.7
2024-02-09T0800,3695A,116.6151,40.3053,北京市,怀柔新城,,36,31,21,25,15,43,,45,45,11,7,3,2,0.3,0.2
2024-02-09T0800,3696A,116.2545,39.8768,北京市,丰台小屯,细颗粒物(PM2.5),72,72,52,52,34,27,,19,19,48,35,1,1,0.7,0.5
2024-02-09T0800,3697A,116.84,40.3844,北京市,密云镇,,29,29,25,20,15,30,,31,31,27,17,2,2,0.3,0.3
2024-02-09T0800,1761A,123.8275,41.3064,本溪市,大峪,细颗粒物(PM2.5),185,200,181,139,128,19,,24,24,67,65,7,20,4.1,3.5
2024-02-09T0800,1762A,123.7567,41.3325,本溪市,溪湖,细颗粒物(PM2.5),235,243,186,185,130,11,,18,18,55,48,16,23,3.5,2.5
2024-02-09T0800,1763A,123.7169,41.3094,本溪市,彩屯,细颗粒物(PM2.5),237,241,180,187,139,16,,34,34,65,51,8,15,4.3,2.6
2024-02-09T0800,1764A,123.7669,41.2864,本溪市,东明,细颗粒物(PM2.5),217,169,190,167,166,15,,14,14,63,67,8,21,3.4,3
2024-02-09T0800,1765A,123.7992,41.2664,本溪市,新立屯,细颗粒物(PM2.5),175,171,208,132,142,19,,22,22,71,75,8,26,4.6,4.2
2024-02-09T0800,1766A,123.8142,41.3472,本溪市,威宁,细颗粒物(PM2.5),212,189,180,162,134,15,,15,15,53,62,6,10,2.7,2.2
2024-02-09T0800,2587A,105.2864,27.3125,毕节市,八中,细颗粒物(PM2.5),53,39,23,37,24,59,,52,52,6,8,6,7,0.7,0.8
2024-02-09T0800,2588A,105.31,27.2944,毕节市,师专,,50,41,24,35,23,66,,52,52,7,8,7,6,0.7,0.8
2024-02-09T0800,3537A,105.3631,27.3533,毕节市,长征村,细颗粒物(PM2.5),77,70,41,56,33,70,,60,60,7,7,6,6,0.7,0.8
2024-02-09T0800,1629A,118.0018,37.3617,滨州市,第二水厂,细颗粒物(PM2.5),193,175,110,145,86,40,,58,58,40,29,19,15,1.5,1.1
2024-02-09T0800,1630A,117.9776,37.393,滨州市,北中新校,细颗粒物(PM2.5),200,189,120,150,87,50,,67,67,42,34,12,18,1.3,1.1
2024-02-09T0800,3514A,117.9378,37.3956,滨州市,中海酒店,细颗粒物(PM2.5),201,169,112,151,96,76,,80,80,20,28,22,20,1.3,1.2
2024-02-09T0800,3515A,117.9378,37.3553,滨州市,开发区一中,细颗粒物(PM2.5),200,177,123,150,96,46,,65,65,27,25,22,23,1.2,1
2024-02-09T0800,3516A,118.0917,37.694,滨州市,金海六路,细颗粒物(PM2.5),228,210,111,178,82,56,,48,48,30,34,16,15,1.4,1
2024-02-09T0800,4028A,117.9956,37.3753,滨州市,滨州市西街道办事处,细颗粒物(PM2.5),208,184,118,158,89,37,,57,57,38,28,24,18,1.4,1.1
2024-02-09T0800,2311A,115.8072,33.8399,亳州市,污水处理厂,细颗粒物(PM2.5),125,108,116,95,105,86,,111,111,17,16,12,11,1.0,0.9
2024-02-09T0800,2312A,115.7789,33.8518,亳州市,三国揽胜宫,细颗粒物(PM2.5),125,139,141,95,98,93,,113,113,16,19,13,13,1.1,1
2024-02-09T0800,3332A,115.7633,33.8034,亳州市,亳州学院,细颗粒物(PM2.5),137,126,133,104,110,93,,107,107,14,15,20,13,1.2,1.1
2024-02-09T0800,2693A,82.0485,44.8556,博尔塔拉蒙古自治州,市党校,细颗粒物(PM2.5),84,93,120,62,80,60,,66,66,18,27,10,15,0.8,1.1
2024-02-09T0800,2694A,82.0806,44.8969,博尔塔拉蒙古自治州,市环保局,细颗粒物(PM2.5),79,98,122,58,70,70,,67,67,24,40,7,14,1.0,1.3
2024-02-09T0800,1071A,116.8842,38.2991,沧州市,沧县城建局,细颗粒物(PM2.5),259,230,112,209,95,49,,66,66,38,35,6,5,1.4,1.1
2024-02-09T0800,1072A,116.8584,38.3254,沧州市,电视转播站,细颗粒物(PM2.5),245,202,109,195,97,60,,80,80,23,20,16,10,1.4,0.9
2024-02-09T0800,1073A,116.8709,38.3228,沧州市,市环保局,细颗粒物(PM2.5),250,215,108,200,94,59,,77,77,27,23,8,7,1.5,0.9
2024-02-09T0800,3324A,116.8136,38.3004,沧州市,河北水利电力学院,细颗粒物(PM2.5),230,210,125,180,106,54,,68,68,26,22,12,14,1.5,0.9
2024-02-09T0800,2622A,97.1806,31.1273,昌都市,昌都监测站,,22,11,23,6,8,68,,77,77,4,8,7,7,0.4,0.4
2024-02-09T0800,3719A,97.1714,31.1406,昌都市,昌都会议中心,,25,10,14,8,8,80,,88,88,1,4,4,4,0.2,0.3
2024-02-09T0800,2690A,88.1236,43.8886,昌吉回族自治州,天山天池,,,,12,,8,,,96,,,6,,7,,0.5
2024-02-09T0800,2692A,87.2717,44.0297,昌吉回族自治州,新区政务中心,细颗粒物(PM2.5),100,112,165,75,122,15,,35,35,53,40,4,4,1.5,1.7
2024-02-09T0800,3613A,87.3095,44.0142,昌吉回族自治州,亚心广场,,,,191,,152,,,,,,48,,6,0.7,1.6
2024-02-09T0800,1119A,125.3325,43.9166,长春市,食品厂,细颗粒物(PM2.5),192,,146,144,134,43,,41,41,50,61,18,21,1.3,1.2
2024-02-09T0800,1120A,125.2863,43.9027,长春市,客车厂,细颗粒物(PM2.5),170,144,137,129,127,18,,24,24,80,63,19,20,1.6,1.1
2024-02-09T0800,1121A,125.2841,43.8463,长春市,邮电学院,细颗粒物(PM2.5),190,152,160,143,140,56,,53,53,39,50,8,20,1.2,1.1
2024-02-09T0800,1122A,125.3716,43.8772,长春市,劳动公园,细颗粒物(PM2.5),203,,138,153,120,31,,38,38,58,55,2,8,1.5,1.1
2024-02-09T0800,1123A,125.3297,43.8805,长春市,园林处,细颗粒物(PM2.5),173,,128,131,125,61,,60,60,43,49,11,19,1.4,1.2
2024-02-09T0800,1124A,125.4605,43.79,长春市,净月潭,细颗粒物(PM2.5),127,110,103,96,95,94,,89,89,12,16,7,13,1.0,0.9
2024-02-09T0800,1125A,125.7194,43.515,长春市,甩湾子,,,,,,,,,,,,,,,,
2024-02-09T0800,1126A,125.3863,43.8447,长春市,经开区环卫处,细颗粒物(PM2.5),218,174,149,168,125,27,,29,29,61,56,5,13,1.8,1.4
2024-02-09T0800,1127A,125.245,43.7783,长春市,高新区管委会,细颗粒物(PM2.5),179,140,179,135,177,40,,26,26,38,51,6,9,1.7,1.8
2024-02-09T0800,1128A,125.1761,43.8325,长春市,岱山公园,细颗粒物(PM2.5),200,150,153,150,149,28,,33,33,57,45,5,8,1.6,1.3
2024-02-09T0800,1335A,113.0833,28.2325,长沙市,经开区环保局,细颗粒物(PM2.5),94,87,118,70,96,10,,25,25,26,29,3,4,1.2,1
2024-02-09T0800,1336A,112.8872,28.2189,长沙市,高开区环保局,细颗粒物(PM2.5),119,127,121,90,96,9,,34,34,41,22,3,2,1.6,1.1
2024-02-09T0800,1337A,113.0792,28.2053,长沙市,马坡岭,细颗粒物(PM2.5),93,91,126,69,97,15,,12,12,19,25,4,5,1.0,1
2024-02-09T0800,1338A,112.9394,28.19,长沙市,湖南师范大学,细颗粒物(PM2.5),87,95,102,64,85,17,,46,46,23,21,8,8,1.1,1
2024-02-09T0800,1339A,113.0178,28.1322,长沙市,雨花区环保局,细颗粒物(PM2.5),88,90,120,65,101,7,,26,26,24,29,2,3,1.2,1.1
2024-02-09T0800,1340A,112.9792,28.2597,长沙市,伍家岭,细颗粒物(PM2.5),90,86,127,67,94,3,,17,17,29,27,4,5,1.2,1.1
2024-02-09T0800,1341A,113.0014,28.1944,长沙市,火车新站,细颗粒物(PM2.5),107,128,121,80,102,5,,23,23,32,31,2,3,1.3,1.1
2024-02-09T0800,1342A,112.9844,28.1178,长沙市,天心区环保局,细颗粒物(PM2.5),80,89,114,59,93,7,,34,34,44,27,4,4,0.8,0.7
2024-02-09T0800,1343A,112.8908,28.1308,长沙市,湖南中医药大学,,,80,108,61,92,25,,18,18,11,18,,5,1.2,1
2024-02-09T0800,1344A,112.9581,28.3611,长沙市,沙坪,细颗粒物(PM2.5),74,76,84,54,67,23,,27,27,7,10,3,3,1.0,0.9
2024-02-09T0800,1727A,113.1147,36.1547,长治市,清华站,细颗粒物(PM2.5),94,75,102,70,91,50,,66,66,28,28,12,16,1.2,1.1
2024-02-09T0800,1728A,113.1031,36.1989,长治市,监测站,细颗粒物(PM2.5),122,,94,92,91,14,,59,59,56,33,14,17,1.5,1.2
2024-02-09T0800,1730A,113.0886,36.2125,长治市,审计局,细颗粒物(PM2.5),119,92,91,90,87,18,,70,70,46,24,19,18,1.8,1.4
2024-02-09T0800,1731A,113.0844,36.1856,长治市,长治八中,细颗粒物(PM2.5),97,93,104,72,91,31,,54,54,43,25,10,12,1.5,1.3
2024-02-09T0800,2845A,113.1569,36.1911,长治市,德盛苑,细颗粒物(PM2.5),73,60,88,53,83,97,,99,99,16,19,16,17,1.1,1.2
2024-02-09T0800,3568A,113.06,36.0464,长治市,向阳小学,细颗粒物(PM2.5),103,86,110,77,96,91,,90,90,23,29,27,23,1.1,1.3
2024-02-09T0800,3569A,112.8792,36.3144,长治市,屯留一中,细颗粒物(PM2.5),118,94,98,89,102,80,,96,96,19,21,16,16,1.4,1.4
2024-02-09T0800,3570A,113.235,36.3489,长治市,潞城四中,细颗粒物(PM2.5),130,,114,99,105,82,,98,98,20,18,7,10,1.2,1.2
2024-02-09T0800,1854A,111.6975,28.9703,常德市,市二中,细颗粒物(PM2.5),172,,95,130,91,28,,44,44,16,16,16,6,1.2,0.9
2024-02-09T0800,1857A,111.7158,29.1456,常德市,白鹤山,,,,111,70,74,40,,48,48,2,5,2,3,0.8,0.8
2024-02-09T0800,3138A,111.7153,29.0289,常德市,武陵区永安,细颗粒物(PM2.5),103,87,105,77,86,42,,48,48,13,19,8,7,1.0,1
2024-02-09T0800,3139A,111.6892,28.9881,常德市,鼎城区玉霞,细颗粒物(PM2.5),207,161,116,157,106,15,,22,22,21,20,27,8,1.6,1.1
2024-02-09T0800,3140A,111.6625,29.0531,常德市,武陵区长庚,细颗粒物(PM2.5),125,124,115,95,95,32,,35,35,14,21,11,4,1.1,1.1
2024-02-09T0800,1196A,119.9633,31.762,常州市,市监测站,细颗粒物(PM2.5),169,173,154,128,117,66,,82,82,40,33,8,10,1.3,1.2
2024-02-09T0800,1200A,119.9468,31.7069,常州市,武进监测站,细颗粒物(PM2.5),156,150,133,119,108,61,,76,76,26,24,7,10,1.1,1.1
2024-02-09T0800,1201A,119.9255,31.9087,常州市,安家,细颗粒物(PM2.5),175,152,142,132,122,51,,63,63,32,24,6,9,1.2,1.1
2024-02-09T0800,3002A,119.9805,31.8174,常州市,行政中心,细颗粒物(PM2.5),168,144,130,127,114,80,,84,84,24,27,9,10,1.2,1.2
2024-02-09T0800,3003A,120.0522,31.7748,常州市,经开区,细颗粒物(PM2.5),172,168,138,130,110,83,,92,92,22,26,8,11,1.0,1
2024-02-09T0800,3010A,119.9025,31.7964,常州市,钟楼,细颗粒物(PM2.5),170,149,135,129,120,65,,67,67,30,29,8,9,1.1,1.2
2024-02-09T0800,3429A,119.8598,31.7066,常州市,武进经发区,细颗粒物(PM2.5),168,141,130,127,114,75,,87,87,22,26,6,8,1.4,1.3
2024-02-09T0800,3430A,119.5826,31.7245,常州市,金坛城区,细颗粒物(PM2.5),153,141,129,117,112,73,,96,96,16,18,7,10,1.2,1.1
2024-02-09T0800,2220A,120.4318,41.5881,朝阳市,西梁,细颗粒物(PM2.5),74,76,70,54,41,23,,27,27,29,24,18,16,1.5,1.2
2024-02-09T0800,2221A,120.4521,41.5646,朝阳市,河畔小区,细颗粒物(PM2.5),72,63,64,52,47,25,,34,34,19,18,6,10,1.5,1.1
2024-02-09T0800,2222A,120.4176,41.5648,朝阳市,八里堡,细颗粒物(PM2.5),112,85,89,84,61,22,,27,27,29,29,16,16,2.0,1.4
2024-02-09T0800,2223A,120.3806,41.5969,朝阳市,农业园区,细颗粒物(PM2.5),78,73,63,57,47,30,,41,41,23,20,8,12,1.0,0.9
2024-02-09T0800,1705A,116.6367,23.6719,潮州市,西园路,,8,8,5,3,3,22,,20,20,5,6,3,4,0.3,0.4
2024-02-09T0800,3026A,116.6183,23.6608,潮州市,市政府,,9,2,5,2,3,27,,24,24,7,9,4,4,0.8,0.8
2024-02-09T0800,4036A,116.6461,23.6761,潮州市,金山,,8,3,5,1,3,23,,19,19,5,7,5,5,0.8,0.8
2024-02-09T0800,2472A,113.0073,25.9061,郴州市,马头岭,颗粒物(PM10),62,73,83,42,48,61,,62,62,11,11,3,3,0.8,0.8
2024-02-09T0800,2473A,113.0116,25.8226,郴州市,市职中,细颗粒物(PM2.5),84,69,75,62,65,60,,59,59,10,9,2,2,0.9,1
2024-02-09T0800,2474A,113.0161,25.8001,郴州市,兴隆步行街,细颗粒物(PM2.5),99,77,83,74,71,62,,62,62,14,15,3,3,0.9,0.9
2024-02-09T0800,2475A,113.0383,25.8071,郴州市,市审计局,细颗粒物(PM2.5),92,,73,68,63,64,,64,64,10,10,3,3,0.9,1
2024-02-09T0800,2476A,113.0348,25.7759,郴州市,市环保局,细颗粒物(PM2.5),99,76,74,74,72,54,,60,60,18,14,2,2,0.9,0.9
2024-02-09T0800,1431A,103.9728,30.7236,成都市,金泉两河,细颗粒物(PM2.5),82,73,66,60,62,0,,13,13,24,19,3,3,1.0,0.8
2024-02-09T0800,1432A,104.176,30.6872,成都市,十里店,细颗粒物(PM2.5),87,71,65,64,58,14,,30,30,29,29,1,2,0.8,0.8
2024-02-09T0800,1433A,104.079,30.5706,成都市,三瓦窑,细颗粒物(PM2.5),68,62,66,49,50,8,,28,28,29,27,2,2,0.7,0.7
2024-02-09T0800,1434A,104.1114,30.63,成都市,沙河铺,细颗粒物(PM2.5),94,79,70,70,62,20,,23,23,19,28,2,2,0.7,0.8
2024-02-09T0800,1437A,104.0786,30.6531,成都市,君平街,细颗粒物(PM2.5),84,65,69,62,64,28,,31,31,22,33,5,4,0.7,0.8
2024-02-09T0800,1438A,103.613,31.0283,成都市,灵岩寺,,46,39,40,32,33,48,,61,61,20,20,8,6,1.0,0.9
2024-02-09T0800,2880A,104.0239,30.65639,成都市,大石西路,细颗粒物(PM2.5),82,75,70,60,62,16,,26,26,28,34,2,3,0.9,0.9
2024-02-09T0800,3136A,104.2725,30.5589,成都市,龙泉驿区区政府,细颗粒物(PM2.5),67,51,57,48,52,26,,50,50,28,16,1,2,0.9,0.8
2024-02-09T0800,3357A,104.0106,30.6931,成都市,金博路,细颗粒物(PM2.5),95,83,76,71,65,3,,23,23,31,29,3,3,0.9,0.8
2024-02-09T0800,3359A,104.0578,30.5225,成都市,华阳,细颗粒物(PM2.5),92,78,65,68,59,18,,32,32,12,12,2,2,0.9,0.8
2024-02-09T0800,3487A,104.2394,30.5319,成都市,车城东七路,细颗粒物(PM2.5),79,68,65,58,56,43,,52,52,12,16,1,1,0.9,0.9
2024-02-09T0800,3488A,104.3853,30.7453,成都市,青白江技师分院,细颗粒物(PM2.5),74,58,62,54,51,30,,43,43,28,24,6,6,0.9,0.9
2024-02-09T0800,3489A,104.0789,30.4072,成都市,科学城,细颗粒物(PM2.5),84,67,63,62,58,33,,37,37,7,10,4,3,0.9,0.9
2024-02-09T0800,4011A,103.8506,30.6947,成都市,光华大道三段,细颗粒物(PM2.5),89,80,71,66,52,3,,17,17,20,17,3,3,0.9,0.9
2024-02-09T0800,1062A,117.9531,40.9081,承德市,铁路,细颗粒物(PM2.5),54,51,47,38,29,22,,30,30,34,26,9,14,0.9,0.7
2024-02-09T0800,1063A,117.9392,40.9763,承德市,中国银行,,43,43,53,26,27,27,,26,26,29,29,7,11,0.8,0.7
2024-02-09T0800,1064A,117.9503,40.928,承德市,开发区,颗粒物(PM10),63,76,49,39,30,14,,13,13,43,32,7,9,1.0,0.7
2024-02-09T0800,1065A,117.8051,40.9655,承德市,文化中心,颗粒物(PM10),62,73,60,39,25,20,,23,23,36,30,5,24,0.8,0.8
2024-02-09T0800,1066A,117.9268,41.0026,承德市,离宫,,45,37,31,31,27,45,,47,47,13,14,5,7,0.5,0.5
2024-02-09T0800,2314A,117.47,30.6618,池州市,池州学院,细颗粒物(PM2.5),135,115,134,103,118,53,,61,61,16,22,4,8,1.2,1.1
2024-02-09T0800,3237A,117.4918,30.6617,池州市,展览馆,细颗粒物(PM2.5),113,115,134,85,106,32,,38,38,19,19,2,5,1.3,1.2
2024-02-09T0800,3333A,117.5627,30.695,池州市,第八中学,细颗粒物(PM2.5),125,118,138,95,118,47,,64,64,9,16,2,5,1.2,1.1
2024-02-09T0800,3334A,117.5038,30.6243,池州市,第十二中学,细颗粒物(PM2.5),128,103,130,97,117,50,,51,51,9,17,3,5,1.2,1.1
2024-02-09T0800,1744A,118.9233,42.2816,赤峰市,松山一中,,42,42,46,20,25,17,,32,32,41,35,9,26,1.1,0.9
2024-02-09T0800,1745A,118.9576,42.2728,赤峰市,哈达街,,36,36,40,18,27,21,,53,53,36,27,12,25,1.0,0.8
2024-02-09T0800,1746A,118.8788,42.2554,赤峰市,天义路,,26,19,30,17,21,12,,46,46,52,25,8,16,0.9,0.6
2024-02-09T0800,3058A,119.2658,42.0353,赤峰市,银河街,细颗粒物(PM2.5),95,91,70,71,51,19,,24,24,31,26,27,24,1.8,1.3
2024-02-09T0800,3286A,118.9359,42.3147,赤峰市,桥北物流园区,,36,28,29,25,24,21,,41,41,29,18,6,11,1.1,0.8
2024-02-09T0800,2521A,107.3476,22.4136,崇左市,市环保局江州分局,,33,33,24,15,15,53,,54,54,4,5,7,7,0.3,0.4
2024-02-09T0800,2522A,107.3702,22.3707,崇左市,城南新区,,29,29,23,16,16,54,,54,54,5,7,6,6,0.5,0.6
2024-02-09T0800,2298A,118.3093,32.3153,滁州市,老年大学,细颗粒物(PM2.5),144,119,133,110,120,46,,80,80,30,25,3,7,1.2,1.2
2024-02-09T0800,2299A,118.3244,32.2786,滁州市,人大宾馆,细颗粒物(PM2.5),150,130,140,115,123,109,,100,100,36,33,5,6,1.0,1
2024-02-09T0800,3207A,118.3118,32.3038,滁州市,市政府原办公楼,细颗粒物(PM2.5),180,141,128,136,114,23,,85,85,76,32,3,6,1.6,1
2024-02-09T0800,3331A,118.3267,32.2634,滁州市,图书馆,细颗粒物(PM2.5),150,135,134,115,111,101,,108,108,25,21,6,7,1.1,1.1
2024-02-09T0800,2605A,101.5482,25.0441,楚雄彝族自治州,州环境监测站,,30,29,31,21,20,40,,49,49,14,8,5,6,0.5,0.5
2024-02-09T0800,2606A,101.538,25.0492,楚雄彝族自治州,市经济开发区,,31,31,35,21,22,37,,52,52,20,10,6,6,0.4,0.4
2024-02-09T0800,2548A,107.5277,31.2827,达州市,达州职业技术学院,细颗粒物(PM2.5),67,74,57,48,38,5,,5,5,20,24,6,8,1.0,1
2024-02-09T0800,2549A,107.5086,31.2186,达州市,市环境监测站,细颗粒物(PM2.5),73,71,58,53,41,4,,4,4,22,29,6,8,1.1,1.1
2024-02-09T0800,2550A,107.4988,31.2132,达州市,凤凰小区,细颗粒物(PM2.5),70,66,53,51,42,6,,6,6,24,29,5,7,1.0,1
2024-02-09T0800,2551A,107.5082,31.1986,达州市,达县机关宾馆,细颗粒物(PM2.5),78,63,56,57,45,4,,4,4,26,32,4,6,1.1,1
2024-02-09T0800,2552A,107.4644,31.2124,达州市,市政中心,细颗粒物(PM2.5),77,66,62,56,45,4,,4,4,28,37,5,9,1.3,1.3
2024-02-09T0800,2614A,100.1542,25.7054,大理白族自治州,大理市环境监测站,,36,27,28,25,21,76,,83,83,4,4,7,6,0.4,0.4
2024-02-09T0800,2615A,100.2171,25.5811,大理白族自治州,大理古城,,39,,24,27,18,69,,82,82,10,5,6,6,0.5,0.5
2024-02-09T0800,1109A,121.612,38.9741,大连市,甘井子,,45,42,46,31,35,38,,60,60,37,22,11,13,0.8,0.7
2024-02-09T0800,1110A,121.565,38.9511,大连市,周水子,,48,45,46,33,37,13,,53,53,56,26,19,14,1.2,0.8
2024-02-09T0800,1111A,121.5637,38.8845,大连市,星海三站,细颗粒物(PM2.5),57,46,40,40,30,17,,63,63,54,21,16,16,1.1,0.7
2024-02-09T0800,1112A,121.6302,38.9117,大连市,青泥洼桥,,49,48,49,34,36,18,,42,42,68,36,64,37,1.3,0.9
2024-02-09T0800,1113A,121.6251,38.8638,大连市,傅家庄,,35,33,40,24,28,73,,70,70,19,21,38,30,0.6,0.7
2024-02-09T0800,1114A,121.5213,38.8661,大连市,七贤岭,,47,47,35,29,25,37,,66,66,39,13,9,14,0.8,0.6
2024-02-09T0800,1115A,121.2529,38.8061,大连市,旅顺,细颗粒物(PM2.5),94,80,44,70,37,44,,57,57,47,24,18,14,1.5,0.9
2024-02-09T0800,1116A,121.7485,39.1311,大连市,金州,细颗粒物(PM2.5),79,64,46,58,40,66,,74,74,27,17,24,12,1.1,0.9
2024-02-09T0800,1117A,121.7811,39.0496,大连市,开发区,细颗粒物(PM2.5),57,49,50,40,39,45,,62,62,32,21,9,19,1.0,0.9
2024-02-09T0800,1118A,121.9762,39.0631,大连市,双D港,,39,38,45,27,32,74,,81,81,16,14,18,13,0.8,0.8
2024-02-09T0800,1789A,124.81117,46.03138,大庆市,大同区,细颗粒物(PM2.5),178,161,65,134,52,46,,59,59,31,17,13,10,1.2,0.7
2024-02-09T0800,1790A,125.129,46.533,大庆市,龙凤区,细颗粒物(PM2.5),145,144,59,111,37,40,,56,56,36,22,5,8,1.0,0.7
2024-02-09T0800,1791A,124.902,46.408,大庆市,红岗区,细颗粒物(PM2.5),105,,36,79,29,51,,54,54,17,17,7,10,0.9,0.6
2024-02-09T0800,1792A,125.153,46.586,大庆市,萨尔图区,细颗粒物(PM2.5),113,99,51,85,37,48,,54,54,29,24,7,9,0.9,0.7
2024-02-09T0800,1793A,124.9042,46.6215,大庆市,让胡路区,颗粒物(PM10),80,109,42,50,25,36,,39,39,36,23,6,7,1.1,0.6
2024-02-09T0800,3481A,125.141,46.634,大庆市,萨区政府监测点,细颗粒物(PM2.5),113,95,40,85,32,44,,56,56,32,23,8,14,1.0,0.6
2024-02-09T0800,1721A,113.3819,40.1097,大同市,果树场,,,,,,,,,,,,,,,,
2024-02-09T0800,1723A,113.2994,40.0758,大同市,云冈宾馆,细颗粒物(PM2.5),104,109,103,78,77,42,,44,44,35,32,20,23,1.7,1.5
2024-02-09T0800,1724A,113.3444,40.0917,大同市,大同大学,细颗粒物(PM2.5),94,89,93,70,74,55,,59,59,35,34,24,26,1.3,1.3
2024-02-09T0800,1725A,113.2661,40.1269,大同市,安家小村,细颗粒物(PM2.5),149,,103,114,79,39,,61,61,35,26,20,26,2.0,1.5
2024-02-09T0800,1726A,113.2711,40.0844,大同市,教育学院,细颗粒物(PM2.5),110,115,108,83,77,31,,42,42,53,40,42,28,1.3,1.6
2024-02-09T0800,3282A,113.3397,40.0597,大同市,大同市卫生学校,细颗粒物(PM2.5),105,,84,79,76,49,,60,60,,28,,22,1.5,1.4
2024-02-09T0800,3565A,113.1367,40.1122,大同市,云冈站,细颗粒物(PM2.5),104,101,86,78,65,30,,48,48,23,17,27,34,1.2,0.9
2024-02-09T0800,3566A,113.1186,40.2556,大同市,图书馆,细颗粒物(PM2.5),108,100,65,81,56,26,,47,47,23,17,15,17,1.0,0.6
2024-02-09T0800,3567A,113.5931,40.0461,大同市,区一中,细颗粒物(PM2.5),120,92,127,91,91,40,,53,53,29,26,33,46,1.6,1.4
2024-02-09T0800,3676A,113.2802,40.0995,大同市,第二人民医院,细颗粒物(PM2.5),130,147,117,99,80,26,,48,48,48,35,26,23,3.0,1.9
2024-02-09T0800,2269A,124.1069,50.4097,大兴安岭地区,科技局,,30,,24,21,20,61,,62,62,4,6,7,8,0.4,0.4
2024-02-09T0800,3663A,124.1164,50.4278,大兴安岭地区,红旗社区,颗粒物(PM10),51,51,29,33,25,32,,29,29,28,21,11,9,0.5,0.4
2024-02-09T0800,1600A,124.3303,40.0625,丹东市,江湾东路,细颗粒物(PM2.5),90,83,62,67,50,32,,34,34,32,22,44,20,3.1,1.7
2024-02-09T0800,1601A,124.4256,40.1503,丹东市,临江后街,细颗粒物(PM2.5),63,67,65,45,45,42,,44,44,29,28,12,12,1.3,1.2
2024-02-09T0800,1602A,124.3933,40.1461,丹东市,元宝山,细颗粒物(PM2.5),145,135,64,111,52,14,,22,22,53,31,19,13,2.3,1.2
2024-02-09T0800,1603A,124.3633,40.1092,丹东市,民主桥,细颗粒物(PM2.5),142,135,89,108,66,24,,39,39,53,38,40,19,2.2,1.2
2024-02-09T0800,3541A,109.5726,19.5167,儋州市,第一中学子站,,9,3,6,2,4,20,,22,22,9,10,5,5,0.9,0.9
2024-02-09T0800,3542A,109.5567,19.5187,儋州市,东坡学校子站,,,5,9,4,6,,,20,20,9,10,6,5,1.0,1
2024-02-09T0800,2616A,98.5842,24.428,德宏傣族景颇族自治州,德宏州监测站,细颗粒物(PM2.5),97,,58,72,42,7,,14,14,37,25,15,12,0.7,0.6
2024-02-09T0800,3677A,98.5881,24.4368,德宏傣族景颇族自治州,芒市人民政府综合楼,,36,36,56,20,33,30,,41,41,19,17,7,12,0.6,0.6
2024-02-09T0800,1901A,104.4239,31.1208,德阳市,东山公园,细颗粒物(PM2.5),85,70,66,63,57,43,,49,49,16,16,1,2,0.7,0.7
2024-02-09T0800,1902A,104.3826,31.1317,德阳市,西小区,细颗粒物(PM2.5),98,77,85,73,75,7,,25,25,47,35,1,2,1.1,1
2024-02-09T0800,1904A,104.3553,31.1091,德阳市,耐火材料厂,细颗粒物(PM2.5),98,78,87,73,83,20,,30,30,23,21,1,3,0.8,0.8
2024-02-09T0800,3639A,104.4019,31.1244,德阳市,市教育局,细颗粒物(PM2.5),89,69,70,66,65,18,,34,34,37,29,1,2,0.8,0.7
2024-02-09T0800,1622A,116.3032,37.4674,德州市,儿童乐园,细颗粒物(PM2.5),208,185,165,158,135,90,,90,90,21,23,8,10,1.4,1.4
2024-02-09T0800,1624A,116.2991,37.4451,德州市,监理站,细颗粒物(PM2.5),211,193,176,161,146,91,,92,92,25,30,10,13,1.4,1.4
2024-02-09T0800,3066A,116.2721,37.4379,德州市,九衢泉纯净水厂,细颗粒物(PM2.5),210,190,185,160,150,75,,80,80,26,31,6,10,1.4,1.4
2024-02-09T0800,3371A,116.3728,37.4403,德州市,开发区人民医院,细颗粒物(PM2.5),216,205,181,166,138,66,,83,83,26,24,6,9,1.3,1.2
2024-02-09T0800,3372A,116.3572,37.4094,德州市,太阳城中学,细颗粒物(PM2.5),240,206,190,190,171,57,,70,70,27,28,5,9,1.7,1.5
2024-02-09T0800,3511A,116.5652,37.3319,德州市,陵城艺术中心,,,,175,,137,,,81,81,20,24,,10,1.4,1.3
2024-02-09T0800,2621A,99.7056,27.8317,迪庆藏族自治州,迪庆州站,,21,21,21,12,15,62,,80,80,8,7,8,8,0.3,0.3
2024-02-09T0800,3180A,99.7136,27.8094,迪庆藏族自治州,质量技术监督局,,20,14,19,8,16,64,,79,79,7,5,8,8,0.4,0.4
2024-02-09T0800,2663A,104.6241,35.5734,定西市,东关小学,细颗粒物(PM2.5),92,103,86,68,61,18,,30,30,18,16,11,16,1.2,1.1
2024-02-09T0800,2664A,104.6194,35.5934,定西市,供电公司,细颗粒物(PM2.5),109,111,91,82,70,14,,25,25,16,13,7,12,1.1,1
2024-02-09T0800,1389A,113.7547,23.0494,东莞市,莞城梨川,,13,7,5,5,2,40,,38,38,8,10,7,6,0.8,0.8
2024-02-09T0800,1390A,113.7944,23.0128,东莞市,东城石井,,12,7,4,5,3,36,,35,35,12,11,6,6,0.8,0.9
2024-02-09T0800,1391A,113.7383,22.9658,东莞市,南城西平,,12,9,5,6,3,36,,33,33,7,9,8,7,0.9,0.9
2024-02-09T0800,3319A,113.7338,23.0381,东莞市,万江金泰,,11,10,5,7,3,34,,32,32,4,4,7,6,0.9,0.9
2024-02-09T0800,3626A,113.7533,23.0202,东莞市,南城元岭,,11,9,5,6,3,35,,33,33,4,6,8,8,0.9,0.9
2024-02-09T0800,3627A,113.7875,23.0457,东莞市,东城主山,,12,,1,4,2,38,,36,36,4,5,8,8,0.9,1
2024-02-09T0800,1666A,118.6614,37.4309,东营市,市环保局,细颗粒物(PM2.5),195,168,82,146,68,38,,56,56,49,32,19,16,1.4,0.9
2024-02-09T0800,3036A,118.6904,37.4338,东营市,开发区管委会,细颗粒物(PM2.5),201,166,79,151,67,38,,51,51,53,35,15,10,1.4,0.9
2024-02-09T0800,3365A,118.5719,37.565,东营市,垦利区民丰路,细颗粒物(PM2.5),201,188,113,151,91,36,,38,38,45,41,22,18,1.4,1
2024-02-09T0800,3498A,118.5055,37.8612,东营市,河口城区,细颗粒物(PM2.5),218,207,137,168,109,55,,42,42,24,35,7,11,1.4,1.4
2024-02-09T0800,3646A,118.4978,37.4623,东营市,胜利站,细颗粒物(PM2.5),213,208,119,163,92,38,,50,50,53,40,49,23,1.5,0.8
2024-02-09T0800,3734A,118.35,37.26,东营市,理想之城,细颗粒物(PM2.5),180,163,99,136,98,17,,32,32,57,42,13,11,1.4,0.9
2024-02-09T0800,1591A,110.0023,39.8129,鄂尔多斯市,综合楼,颗粒物(PM10),56,61,55,39,40,82,,85,85,14,23,3,13,0.5,0.8
2024-02-09T0800,1592A,109.9486,39.8261,鄂尔多斯市,巴音孟克林场办事处,颗粒物(PM10),56,61,47,36,33,82,,83,83,11,15,7,10,0.5,0.6
2024-02-09T0800,1593A,109.7736,39.5986,鄂尔多斯市,康泽苑,细颗粒物(PM2.5),70,61,54,51,43,54,,68,68,27,21,4,6,0.8,0.8
2024-02-09T0800,1594A,109.8119,39.5989,鄂尔多斯市,华泰汽车城,细颗粒物(PM2.5),64,66,60,46,44,60,,68,68,24,26,5,6,0.7,0.7
2024-02-09T0800,1595A,109.9734,39.7884,鄂尔多斯市,奥林花园,颗粒物(PM10),56,61,61,31,38,84,,82,82,14,29,6,18,0.6,0.8
2024-02-09T0800,2436A,114.8938,30.3994,鄂州市,市政府,细颗粒物(PM2.5),105,94,90,79,84,43,,54,54,24,31,6,7,1.0,1.3
2024-02-09T0800,2437A,114.8989,30.3714,鄂州市,赵家坝,细颗粒物(PM2.5),119,,83,90,90,47,,65,65,20,25,3,6,1.1,1.4
2024-02-09T0800,3654A,114.8094,30.4089,鄂州市,精准医疗中心,颗粒物(PM10),71,91,109,49,83,43,,61,61,13,16,5,7,1.3,1.4
2024-02-09T0800,2454A,109.4978,30.2981,恩施土家族苗族自治州,湖北民院,细颗粒物(PM2.5),69,70,67,50,46,24,,30,30,10,13,7,6,1.2,1.1
2024-02-09T0800,2455A,109.4707,30.2798,恩施土家族苗族自治州,州电力总公司,细颗粒物(PM2.5),78,60,66,57,55,16,,25,25,12,18,6,6,1.2,1.2
2024-02-09T0800,3549A,109.5061,30.3772,恩施土家族苗族自治州,龙凤新区,细颗粒物(PM2.5),67,,45,48,48,10,,14,14,14,15,7,6,1.1,1.1
2024-02-09T0800,2499A,108.3411,21.6158,防城港市,沙万,,25,23,20,17,9,47,,53,53,8,8,3,3,0.5,0.5
2024-02-09T0800,2500A,108.3514,21.7731,防城港市,防城档案局,,30,30,26,18,13,50,,53,53,8,8,5,5,0.4,0.5
2024-02-09T0800,2501A,108.3506,21.6414,防城港市,大海花园,,25,25,22,16,11,48,,53,53,5,5,3,3,0.6,0.6
2024-02-09T0800,1371A,113.1294,23.0067,佛山市,湾梁,,19,19,11,9,8,33,,32,32,5,7,8,8,0.8,0.8
2024-02-09T0800,1372A,113.1083,23.0478,佛山市,华材职中,,18,14,9,12,7,31,,29,29,15,18,7,7,0.9,0.9
2024-02-09T0800,1373A,113.144,23.0453,佛山市,南海气象局,,13,13,9,8,4,31,,30,30,9,10,5,4,1.0,1
2024-02-09T0800,1374A,113.2881,22.8094,佛山市,顺德苏岗,,12,8,5,5,3,37,,33,33,8,11,7,7,0.5,0.7
2024-02-09T0800,1376A,112.8383,22.8678,佛山市,高明孔堂,,19,13,11,13,8,42,,39,39,2,3,5,5,0.9,0.9
2024-02-09T0800,1377A,112.8836,23.1588,佛山市,三水监测站,,25,,12,17,9,39,,36,36,7,10,5,5,1.0,1
2024-02-09T0800,1378A,112.867,23.185,佛山市,三水云东海,,29,,10,20,11,35,,34,34,7,9,7,7,0.9,0.9
2024-02-09T0800,3625A,113.2544,22.7642,佛山市,容桂街道办,,12,5,4,5,2,38,,32,32,9,13,5,5,0.6,0.7
2024-02-09T0800,1280A,119.3903,26.0543,福州市,鼓山,,,,,,,,,,,,,,,,
2024-02-09T0800,1282A,119.2681,26.0504,福州市,师大,,39,28,24,27,20,60,,57,57,9,12,5,5,0.7,0.7
2024-02-09T0800,1283A,119.2984,26.1028,福州市,五四北路,,,,14,33,20,52,,62,62,12,9,3,3,0.8,0.8
2024-02-09T0800,1284A,119.2648,26.0768,福州市,杨桥西路,,40,31,17,28,16,50,,57,57,11,11,3,3,0.8,0.8
2024-02-09T0800,1285A,119.317,26.0746,福州市,紫阳,,43,,23,30,21,56,,61,61,10,11,6,6,0.9,0.9
2024-02-09T0800,3048A,119.5799,26.0936,福州市,九龙,细颗粒物(PM2.5),52,,25,36,24,50,,56,56,8,8,2,2,0.7,0.6
2024-02-09T0800,3526A,119.5189,25.9664,福州市,吴航,,46,39,32,32,26,56,,61,61,8,7,3,3,0.7,0.6
2024-02-09T0800,1755A,123.7977,41.8491,抚顺市,望花区,细颗粒物(PM2.5),185,199,166,139,135,20,,15,15,,60,7,21,,2
2024-02-09T0800,1756A,123.9161,41.8822,抚顺市,顺城区,细颗粒物(PM2.5),192,206,177,144,156,32,,28,28,49,50,5,11,1.6,1.7
2024-02-09T0800,1757A,124.0436,41.8611,抚顺市,东洲区,细颗粒物(PM2.5),175,171,162,132,128,43,,40,40,24,44,8,13,1.8,1.6
2024-02-09T0800,1758A,123.9247,41.8642,抚顺市,新抚区,细颗粒物(PM2.5),182,201,175,137,137,24,,27,27,46,54,6,10,1.9,1.8
2024-02-09T0800,1759A,124.0972,41.8961,抚顺市,大伙房水库,细颗粒物(PM2.5),138,124,125,105,99,46,,49,49,23,32,7,12,1.3,1.3
2024-02-09T0800,1760A,123.7086,41.8391,抚顺市,沈抚新城,细颗粒物(PM2.5),198,201,193,148,133,21,,21,21,48,54,4,15,2.5,2.3
2024-02-09T0800,2376A,116.2127,28.0814,抚州市,桐源党溪,,,,78,,58,,,56,,,8,,4,,0.7
2024-02-09T0800,2377A,116.3544,27.9831,抚州市,市站,细颗粒物(PM2.5),74,78,78,54,61,16,,30,30,18,15,10,10,1.1,1
2024-02-09T0800,2378A,116.3565,27.963,抚州市,血防站,细颗粒物(PM2.5),74,79,85,54,63,9,,24,24,13,10,7,4,1.2,1.1
2024-02-09T0800,2379A,116.3564,28.0007,抚州市,采茶剧团,,,,77,,67,,,56,,,11,,6,,1.1
2024-02-09T0800,2380A,116.385,27.9647,抚州市,医学分院,细颗粒物(PM2.5),65,75,79,47,55,11,,25,25,15,11,5,6,1.1,1
2024-02-09T0800,2207A,121.6094,41.998,阜新市,工业园区,细颗粒物(PM2.5),90,120,77,67,44,24,,28,28,26,25,10,9,1.3,1
2024-02-09T0800,2208A,121.6697,42.0279,阜新市,长青街,细颗粒物(PM2.5),95,98,61,71,47,8,,9,9,33,25,4,9,4.4,1.8
2024-02-09T0800,2209A,121.6673,42.0705,阜新市,农业园区,细颗粒物(PM2.5),107,80,46,80,36,53,,49,49,22,17,63,35,1.1,0.8
2024-02-09T0800,2210A,121.6717,42.0224,阜新市,东苑,细颗粒物(PM2.5),203,165,74,153,50,10,,13,13,39,31,6,9,4.6,3.7
2024-02-09T0800,2211A,121.6506,42.0498,阜新市,玉龙新城,细颗粒物(PM2.5),163,,46,124,37,21,,24,24,32,23,6,7,1.4,1.2
2024-02-09T0800,2301A,115.8277,32.8929,阜阳市,市监测站,细颗粒物(PM2.5),87,72,122,64,118,100,,104,104,18,27,6,10,0.8,1.1
2024-02-09T0800,2303A,115.8554,32.8605,阜阳市,开发区,细颗粒物(PM2.5),137,133,176,104,126,83,,95,95,18,25,4,9,0.7,1
2024-02-09T0800,2875A,115.784,32.8892,阜阳市,阜阳职业技术学院,细颗粒物(PM2.5),90,79,127,67,112,95,,120,120,14,20,4,10,0.9,1.1
2024-02-09T0800,3468A,115.7901,32.8613,阜阳市,市规划展馆,细颗粒物(PM2.5),95,80,143,71,122,100,,121,121,14,20,4,10,0.8,1
2024-02-09T0800,3469A,115.836,32.9183,阜阳市,枣园社区,细颗粒物(PM2.5),95,77,140,71,115,104,,114,114,14,31,4,9,0.7,1
2024-02-09T0800,2669A,102.9099,34.9841,甘南藏族自治州,州政府,,34,34,28,21,19,21,,33,33,19,12,9,12,0.9,0.6
2024-02-09T0800,3380A,102.8914,34.9617,甘南藏族自治州,甘肃民族师范学院,,29,29,25,18,14,9,,32,32,27,8,6,11,0.9,0.6
2024-02-09T0800,2570A,101.9603,30.0475,甘孜藏族自治州,水桥子,,23,,8,10,7,71,,76,76,3,4,10,10,0.4,0.5
2024-02-09T0800,3065A,101.9533,29.9972,甘孜藏族自治州,州环保局,,22,5,9,2,4,70,,75,75,3,4,7,8,0.4,0.5
2024-02-09T0800,3414A,115.8347,28.932,赣江新区,桑海产业园,细颗粒物(PM2.5),84,75,79,62,65,35,,56,56,21,16,3,5,1.0,1
2024-02-09T0800,2362A,114.9017,25.9149,赣州市,通天岩,,,,,,,,,,,,,,,,
2024-02-09T0800,2363A,114.9367,25.8664,赣州市,地委,细颗粒物(PM2.5),55,44,39,39,35,51,,57,57,12,10,8,9,1.1,1.1
2024-02-09T0800,2364A,114.9461,25.8481,赣州市,气象台,细颗粒物(PM2.5),65,,41,47,39,48,,56,56,8,6,7,6,0.8,0.8
2024-02-09T0800,2365A,114.9322,25.8333,赣州市,市图书馆,细颗粒物(PM2.5),53,46,44,37,32,44,,49,49,8,9,12,12,1.0,1.3
2024-02-09T0800,2366A,114.8905,25.8471,赣州市,华坚鞋城,细颗粒物(PM2.5),54,48,36,38,31,41,,51,51,10,7,3,3,0.8,0.9
2024-02-09T0800,3109A,115.0093,25.8613,赣州市,赣县区卫计委,细颗粒物(PM2.5),70,61,48,51,43,48,,51,51,9,9,6,6,0.9,0.9
2024-02-09T0800,2683A,106.2319,36.1417,固原市,马园,颗粒物(PM10),51,51,74,34,46,35,,41,41,24,23,15,8,1.1,1
2024-02-09T0800,2684A,106.2792,36.0022,固原市,监测站,,28,20,57,15,42,88,,74,74,10,22,5,8,0.5,0.9
2024-02-09T0800,2685A,106.2375,36.0211,固原市,新区,,25,20,42,10,28,80,,71,71,11,20,6,7,0.2,0.5
2024-02-09T0800,3522A,106.2177,35.9959,固原市,原州区十五小,,27,18,36,11,27,84,,83,83,6,12,8,8,0.4,0.7
2024-02-09T0800,2543A,106.6308,30.5278,广安市,小平旧居,,,,,,,,,,,,,,,,
2024-02-09T0800,2544A,106.6303,30.4576,广安市,市委,,50,47,74,35,60,3,,3,3,13,18,5,5,1.0,1.1
2024-02-09T0800,2545A,106.6271,30.4663,广安市,友谊中学,,48,43,62,33,56,8,,8,8,17,23,3,4,1.0,1
2024-02-09T0800,2547A,106.6388,30.4551,广安市,广电花园,细颗粒物(PM2.5),55,40,57,39,53,3,,4,4,16,19,3,3,1.2,1.2
2024-02-09T0800,2902A,106.6351,30.4865,广安市,北辰小学,细颗粒物(PM2.5),63,55,64,45,54,3,,2,2,19,20,4,4,1.0,1
2024-02-09T0800,2523A,105.8945,32.4535,广元市,黑石坡,,50,50,51,31,51,55,,65,65,9,13,4,7,0.7,0.8
2024-02-09T0800,2524A,105.821,32.4444,广元市,老城,细颗粒物(PM2.5),77,70,64,56,42,26,,37,37,21,24,1,4,1.3,1.1
2024-02-09T0800,2526A,105.8628,32.4287,广元市,监测站,细颗粒物(PM2.5),62,54,51,44,43,25,,33,33,15,18,2,4,0.9,1
2024-02-09T0800,3617A,105.8047,32.4166,广元市,经开区,细颗粒物(PM2.5),64,65,58,46,45,13,,22,22,28,25,4,8,1.0,1
2024-02-09T0800,1345A,113.2347,23.1423,广州市,广雅中学,,20,18,12,14,9,30,,29,29,13,16,4,4,1.0,1.1
2024-02-09T0800,1346A,113.2612,23.105,广州市,市五中,,22,18,11,15,8,35,,32,32,14,17,4,5,0.8,0.9
2024-02-09T0800,1348A,113.3478,23.0916,广州市,广东商学院,,17,12,8,9,5,52,,42,42,4,6,4,4,0.6,0.8
2024-02-09T0800,1349A,113.4332,23.1047,广州市,市八十六中,,18,17,11,12,6,48,,42,42,5,6,4,4,0.6,0.7
2024-02-09T0800,1350A,113.3505,22.9483,广州市,番禺中学,,16,13,7,8,4,49,,44,44,13,13,3,3,0.7,0.8
2024-02-09T0800,1351A,113.2146,23.3916,广州市,花都师范,,28,,11,19,9,35,,33,33,10,11,5,4,1.0,1
2024-02-09T0800,1352A,113.2597,23.1331,广州市,市监测站,,23,16,10,16,8,32,,31,31,15,18,4,4,0.8,0.9
2024-02-09T0800,1353A,113.5618,23.312,广州市,九龙镇镇龙,,15,10,5,10,5,42,,41,41,6,7,6,6,0.7,0.8
2024-02-09T0800,1354A,113.2765,23.1544,广州市,麓湖,,23,18,10,16,8,31,,29,29,12,14,5,4,0.8,0.8
2024-02-09T0800,1355A,113.443,23.3035,广州市,帽峰山森林公园,,18,12,6,9,4,55,,46,46,3,4,6,6,0.3,0.5
2024-02-09T0800,2846A,113.3221,23.1322,广州市,体育西,,18,13,9,12,7,44,,41,41,9,10,6,6,0.7,0.8
2024-02-09T0800,3298A,113.5717,23.5491,广州市,从化街口,,19,16,7,13,6,53,,51,51,4,6,3,4,0.6,0.7
2024-02-09T0800,3299A,113.3472,23.3692,广州市,白云竹料,,18,13,5,12,6,52,,46,46,4,5,5,5,0.5,0.6
2024-02-09T0800,3300A,113.2981,23.237,广州市,白云嘉禾,,13,13,7,8,4,41,,40,40,14,15,5,5,0.6,0.7
2024-02-09T0800,3301A,113.4256,23.1716,广州市,黄埔科学城,,15,10,6,8,4,48,,41,41,3,5,4,3,0.7,0.9
2024-02-09T0800,3302A,113.3942,23.0483,广州市,番禺大学城,,16,9,8,7,4,49,,43,43,8,10,4,4,0.2,0.4
2024-02-09T0800,3303A,113.4922,22.8168,广州市,南沙黄阁,,13,13,10,9,6,39,,34,34,8,10,4,4,0.8,0.9
2024-02-09T0800,3304A,113.5342,22.7896,广州市,南沙街,,13,,8,9,6,33,,29,29,15,17,3,3,0.8,0.8
2024-02-09T0800,3443A,113.2902,23.5544,广州市,花都梯面,,,22,9,21,9,,,,,13,13,6,5,0.9,0.9
2024-02-09T0800,3445A,113.7858,23.7478,广州市,从化良口,,30,,7,21,8,54,,50,50,4,5,6,6,0.5,0.6
2024-02-09T0800,3446A,113.8051,23.2614,广州市,增城荔城,,12,10,4,7,3,38,,34,34,5,5,6,6,0.7,0.8
2024-02-09T0800,2505A,109.568,23.1478,贵港市,德智高中,,45,,20,31,25,58,,57,57,5,6,4,4,0.7,0.8
2024-02-09T0800,2506A,109.6047,23.0666,贵港市,江南子站,,35,29,24,24,15,53,,54,54,6,7,5,5,0.7,0.8
2024-02-09T0800,2507A,109.6014,23.0948,贵港市,贵城子站,,46,,25,32,23,49,,49,49,7,8,6,6,0.8,0.9
2024-02-09T0800,2508A,109.5669,23.1065,贵港市,荷城子站,,39,,25,27,18,52,,53,53,3,5,7,7,0.8,0.9
2024-02-09T0800,3405A,109.5886,23.1172,贵港市,新世纪学校,,40,29,25,28,22,51,,51,51,3,4,4,4,0.8,0.9
2024-02-09T0800,1439A,106.6899,26.5998,贵阳市,马鞍山,细颗粒物(PM2.5),55,39,34,39,33,31,,30,30,14,10,10,12,0.7,0.6
2024-02-09T0800,1440A,106.6971,26.5694,贵阳市,市环保站,细颗粒物(PM2.5),67,,30,48,36,39,,47,47,17,13,12,12,0.7,0.6
2024-02-09T0800,1441A,106.6243,26.6266,贵阳市,鉴湖路,,24,24,48,12,36,50,,45,45,8,9,6,8,0.8,0.8
2024-02-09T0800,1442A,106.7487,26.6343,贵阳市,燕子冲,细颗粒物(PM2.5),55,46,34,39,31,30,,36,36,16,8,14,11,0.7,0.6
2024-02-09T0800,1443A,106.6555,26.4365,贵阳市,碧云窝,,49,48,37,34,24,38,,40,40,11,10,19,20,0.6,0.6
2024-02-09T0800,1444A,106.694,26.5161,贵阳市,中院村,细颗粒物(PM2.5),55,44,34,39,30,40,,49,49,15,12,18,16,0.6,0.6
2024-02-09T0800,1445A,106.7109,26.6027,贵阳市,红边门,细颗粒物(PM2.5),64,48,37,46,32,33,,41,41,17,11,14,17,0.7,0.6
2024-02-09T0800,1446A,106.7164,26.5699,贵阳市,新华路,细颗粒物(PM2.5),58,46,36,41,30,42,,48,48,14,11,8,11,0.7,0.6
2024-02-09T0800,1447A,106.674,26.5424,贵阳市,太慈桥,,45,44,35,31,26,35,,44,44,15,13,10,10,0.6,0.6
2024-02-09T0800,1552A,106.805,26.3003,贵阳市,桐木岭,,,,,,,,,,,,,,,,
2024-02-09T0800,1862A,110.4144,25.3167,桂林市,电子科大尧山校区,细颗粒物(PM2.5),52,49,33,36,25,76,,77,77,6,4,4,4,0.7,0.7
2024-02-09T0800,1863A,110.2819,25.2697,桂林市,监测站,细颗粒物(PM2.5),65,48,40,47,31,70,,74,74,11,9,6,6,0.8,0.7
2024-02-09T0800,1864A,110.3089,25.2708,桂林市,龙隐路小学,细颗粒物(PM2.5),67,,36,48,37,72,,73,73,7,6,5,4,0.9,0.7
2024-02-09T0800,1865A,110.2869,25.2178,桂林市,八中,细颗粒物(PM2.5),70,,36,51,40,65,,69,69,10,8,4,4,0.7,0.6
2024-02-09T0800,3403A,110.1764,25.2381,桂林市,创业大厦,细颗粒物(PM2.5),58,44,33,41,30,66,,71,71,7,4,6,5,0.6,0.6
2024-02-09T0800,3531A,110.296,25.1253,桂林市,旅游学院,细颗粒物(PM2.5),64,46,28,46,30,64,,65,65,7,6,4,4,0.8,0.7
2024-02-09T0800,2674A,100.2561,34.4714,果洛藏族自治州,玛沁县大武镇,,26,,23,18,16,56,,68,68,9,11,10,12,0.4,0.5
2024-02-09T0800,1129A,126.5422,45.755,哈尔滨市,岭北,细颗粒物(PM2.5),229,194,188,179,171,76,,83,83,48,44,14,11,0.3,1.2
2024-02-09T0800,1130A,126.561,45.8167,哈尔滨市,松北商大,细颗粒物(PM2.5),221,189,176,171,153,61,,76,76,46,33,6,9,1.4,1.2
2024-02-09T0800,1131A,126.979,45.5419,哈尔滨市,阿城会宁,细颗粒物(PM2.5),178,,150,134,136,97,,96,96,21,26,9,12,1.1,1.1
2024-02-09T0800,1132A,126.599,45.7222,哈尔滨市,南岗学府路,细颗粒物(PM2.5),235,257,232,185,167,43,,55,55,75,51,9,13,1.7,1.5
2024-02-09T0800,1133A,126.689,45.7733,哈尔滨市,太平宏伟公园,细颗粒物(PM2.5),218,188,208,168,166,70,,65,65,41,53,3,10,1.1,1.3
2024-02-09T0800,1134A,126.635,45.7667,哈尔滨市,道外承德广场,细颗粒物(PM2.5),207,211,202,157,153,57,,55,55,59,64,15,18,1.2,1.2
2024-02-09T0800,1135A,126.685,45.7319,哈尔滨市,香坊红旗大街,细颗粒物(PM2.5),249,,209,199,197,64,,70,70,50,60,3,10,1.5,1.5
2024-02-09T0800,1136A,126.6411,45.7258,哈尔滨市,动力和平路,细颗粒物(PM2.5),230,194,188,180,173,41,,55,55,74,50,51,25,1.5,1.4
2024-02-09T0800,1137A,126.593,45.7478,哈尔滨市,道里建国路,细颗粒物(PM2.5),235,194,188,185,166,40,,47,47,67,54,12,14,4.0,2.1
2024-02-09T0800,1138A,126.615,45.61,哈尔滨市,平房东轻厂,细颗粒物(PM2.5),180,168,189,136,169,94,,100,100,23,25,15,10,1.0,1.3
2024-02-09T0800,1139A,126.595,45.9855,哈尔滨市,呼兰师专,细颗粒物(PM2.5),249,233,164,199,144,44,,57,57,70,41,15,13,1.7,1.1
2024-02-09T0800,1140A,126.6206,45.6842,哈尔滨市,省农科院,细颗粒物(PM2.5),250,250,225,200,181,42,,57,57,88,55,8,8,1.7,1.5
2024-02-09T0800,2688A,93.5128,42.8172,哈密市,地区监测站,颗粒物(PM10),106,162,101,37,39,49,,20,20,17,33,4,4,0.3,0.6
2024-02-09T0800,2689A,93.4961,42.8328,哈密市,哈密师范学校,颗粒物(PM10),96,142,99,39,40,39,,15,15,30,38,7,7,0.8,0.8
2024-02-09T0800,2671A,100.9048,36.9639,海北藏族自治州,海晏县西海镇,,26,26,26,13,11,78,,76,76,4,5,6,5,0.3,0.4
2024-02-09T0800,3867A,102.0738,36.5056,海东市,平安区公安北苑,细颗粒物(PM2.5),67,64,64,48,46,35,,56,56,23,17,12,17,0.6,0.6
2024-02-09T0800,1409A,110.576,19.9507,海口市,东寨港,,,,,,,,,,,,,,,,
2024-02-09T0800,1410A,110.3232,20.0574,海口市,海南大学,,13,9,12,4,7,39,,36,36,5,7,9,8,0.7,0.7
2024-02-09T0800,1411A,110.283,20.0053,海口市,秀英海南医院,,12,8,10,4,6,37,,36,36,5,6,7,7,0.7,0.7
2024-02-09T0800,1412A,110.338,19.9969,海口市,海南师范大学,,11,10,9,6,5,35,,35,35,5,6,6,6,0.8,0.8
2024-02-09T0800,1413A,110.33,20.0356,海口市,龙华路环保局宿舍,,12,8,11,4,5,36,,34,34,6,7,7,7,0.8,0.7
2024-02-09T0800,3539A,110.5111,19.9736,海口市,桂林洋子站,,11,10,7,7,5,35,,36,36,6,6,6,6,0.7,0.7
2024-02-09T0800,2673A,100.6188,36.2866,海南藏族自治州,共和县恰卜恰镇,,34,34,29,15,14,45,,61,61,33,15,10,12,0.4,0.3
2024-02-09T0800,2676A,97.3731,37.3753,海西蒙古族藏族自治州,德令哈市,,26,,29,18,12,83,,80,80,9,8,11,12,0.5,0.5
2024-02-09T0800,1048A,114.5302,36.6116,邯郸市,东污水处理厂,细颗粒物(PM2.5),301,265,216,251,212,9,,36,36,46,26,3,6,2.0,1.6
2024-02-09T0800,1049A,114.4918,36.5713,邯郸市,矿院,细颗粒物(PM2.5),295,280,226,245,206,7,,24,24,46,28,3,4,2.0,1.6
2024-02-09T0800,1050A,114.484,36.6133,邯郸市,丛台公园,细颗粒物(PM2.5),282,273,223,232,194,14,,40,40,75,48,5,6,2.0,1.7
2024-02-09T0800,3458A,114.7895,36.5593,邯郸市,香泉濮院小区,细颗粒物(PM2.5),260,242,207,210,194,56,,76,76,20,18,7,9,1.6,1.4
2024-02-09T0800,3579A,114.50634,36.77178,邯郸市,永年区实验高中,细颗粒物(PM2.5),228,212,229,178,198,11,,33,33,63,31,19,12,2.5,1.9
2024-02-09T0800,3580A,114.20016,36.44293,邯郸市,峰峰矿区临水派出所,细颗粒物(PM2.5),85,71,164,63,157,94,,90,90,4,15,13,13,0.6,1.4
2024-02-09T0800,2634A,106.9893,33.1842,汉中市,汉川机床厂子校,细颗粒物(PM2.5),68,61,53,49,49,30,,40,40,5,7,3,5,0.8,0.8
2024-02-09T0800,2635A,107.0154,33.0706,汉中市,市监测站,细颗粒物(PM2.5),117,88,80,88,79,18,,29,29,27,25,13,10,1.7,1.4
2024-02-09T0800,2636A,107.0089,33.1138,汉中市,鑫源开发区,细颗粒物(PM2.5),105,,74,79,79,26,,33,33,20,23,12,12,1.4,1.3
2024-02-09T0800,2637A,107.007,33.0323,汉中市,南郑大河坎水厂,细颗粒物(PM2.5),88,75,73,65,68,18,,27,27,17,17,8,10,1.2,1.2
2024-02-09T0800,1223A,120.2072,30.2111,杭州市,滨江,细颗粒物(PM2.5),115,101,91,87,76,39,,47,47,19,20,7,8,1.0,1
2024-02-09T0800,1224A,120.0633,30.2747,杭州市,西溪,细颗粒物(PM2.5),98,87,95,73,73,26,,33,33,19,17,7,7,0.9,0.9
2024-02-09T0800,1226A,120.3461,30.3153,杭州市,下沙,细颗粒物(PM2.5),132,126,98,100,79,47,,63,63,17,16,7,8,1.0,0.9
2024-02-09T0800,1227A,120.1269,30.2456,杭州市,卧龙桥,细颗粒物(PM2.5),89,80,83,66,69,24,,29,29,14,13,4,5,0.9,0.8
2024-02-09T0800,1228A,120.1903,30.2692,杭州市,浙江农大,细颗粒物(PM2.5),123,114,94,93,75,33,,50,50,24,24,7,8,1.0,0.9
2024-02-09T0800,1230A,120.1197,30.3119,杭州市,和睦小学,细颗粒物(PM2.5),117,100,94,88,80,27,,36,36,27,24,6,7,0.9,0.9
2024-02-09T0800,1231A,120.3019,30.4183,杭州市,临平镇,细颗粒物(PM2.5),137,131,115,104,90,54,,83,83,24,13,6,7,1.0,0.9
2024-02-09T0800,1232A,120.2697,30.1819,杭州市,城厢镇,细颗粒物(PM2.5),119,106,100,90,86,42,,48,48,17,20,6,7,0.9,0.9
2024-02-09T0800,1233A,120.0883,30.1808,杭州市,云栖,细颗粒物(PM2.5),82,80,85,60,66,27,,41,41,16,15,6,7,0.8,0.8
2024-02-09T0800,3557A,119.9464,30.0494,杭州市,镇二中,细颗粒物(PM2.5),104,83,93,78,92,23,,27,27,22,24,6,6,1.0,1
2024-02-09T0800,3558A,119.7183,30.2367,杭州市,市府大楼,细颗粒物(PM2.5),98,83,104,73,90,29,,34,34,11,16,4,5,0.9,1
2024-02-09T0800,3656A,120.1556,30.2864,杭州市,消防大队,细颗粒物(PM2.5),117,106,93,88,77,45,,54,54,26,22,8,9,1.0,0.9
2024-02-09T0800,1270A,117.1959,31.7848,合肥市,明珠广场,细颗粒物(PM2.5),89,80,100,66,81,61,,78,78,21,26,4,7,0.9,1
2024-02-09T0800,1271A,117.3072,31.8764,合肥市,三里街,细颗粒物(PM2.5),132,119,117,100,99,27,,30,30,60,45,5,7,1.2,0.9
2024-02-09T0800,1272A,117.2588,31.8707,合肥市,琥珀山庄,细颗粒物(PM2.5),100,97,113,75,89,30,,26,26,64,42,5,6,1.3,1.2
2024-02-09T0800,1273A,117.1604,31.9052,合肥市,董铺水库,细颗粒物(PM2.5),98,92,105,73,83,53,,52,52,12,10,3,3,0.8,0.8
2024-02-09T0800,1274A,117.25,31.8571,合肥市,长江中路,细颗粒物(PM2.5),95,73,107,71,98,77,,59,59,23,34,6,7,1.0,1.1
2024-02-09T0800,1275A,117.266,31.9436,合肥市,庐阳区,细颗粒物(PM2.5),89,90,109,66,82,85,,95,95,20,22,4,6,1.0,1
2024-02-09T0800,1276A,117.336,31.8586,合肥市,瑶海区,细颗粒物(PM2.5),129,102,117,98,97,50,,52,52,40,45,5,7,0.9,0.9
2024-02-09T0800,1277A,117.3027,31.7964,合肥市,包河区,细颗粒物(PM2.5),117,92,105,88,91,70,,74,74,21,32,3,5,0.8,0.8
2024-02-09T0800,1278A,117.2776,31.7385,合肥市,滨湖新区,细颗粒物(PM2.5),113,100,108,85,84,46,,71,71,32,31,4,6,1.1,1
2024-02-09T0800,1279A,117.1318,31.8403,合肥市,高新区,细颗粒物(PM2.5),102,80,98,76,84,75,,92,92,15,22,4,5,1.0,0.9
2024-02-09T0800,3464A,117.3803,31.9147,合肥市,高教基地,细颗粒物(PM2.5),114,104,110,86,87,38,,36,36,26,27,3,5,0.8,0.8
2024-02-09T0800,3614A,79.924,37.0877,和田地区,地区环保局,,42,39,85,29,50,51,,54,54,21,30,5,10,0.8,1.3
2024-02-09T0800,3615A,79.9131,37.113,和田地区,市环保局,细颗粒物(PM2.5),58,59,82,41,52,52,,24,24,19,48,6,9,1.5,2.7
2024-02-09T0800,2516A,108.2011,24.715,河池市,东仁乐园,,25,21,20,17,15,39,,41,41,3,3,3,3,0.5,0.6
2024-02-09T0800,2517A,108.0497,24.6947,河池市,市环保站,,25,22,21,17,17,41,,52,52,12,9,7,6,0.6,0.6
2024-02-09T0800,2518A,108.0983,24.6989,河池市,市疾控中心,,28,,17,19,19,71,,76,76,6,7,7,7,0.4,0.5
2024-02-09T0800,1696A,114.6778,23.7569,河源市,源西,,46,,7,32,8,47,,37,37,3,6,4,4,0.8,0.9
2024-02-09T0800,1697A,114.6944,23.7586,河源市,东埔,,35,35,10,23,8,44,,42,42,4,6,6,6,0.6,0.7
2024-02-09T0800,1698A,114.6892,23.7233,河源市,老城,,40,,9,28,9,44,,41,41,5,7,5,5,0.7,0.8
2024-02-09T0800,1718A,115.4208,35.2464,菏泽市,气象局,细颗粒物(PM2.5),145,122,154,111,135,79,,93,93,15,19,2,2,0.9,1
2024-02-09T0800,1719A,115.4747,35.2375,菏泽市,市政协,细颗粒物(PM2.5),130,127,143,99,119,75,,90,90,12,18,3,4,0.8,0.9
2024-02-09T0800,3374A,115.5564,35.0891,菏泽市,定陶老年大学,细颗粒物(PM2.5),132,119,144,100,122,80,,86,86,12,17,3,4,0.7,0.7
2024-02-09T0800,3647A,115.4702,35.2706,菏泽市,菏泽医专,细颗粒物(PM2.5),128,121,134,97,110,75,,94,94,18,20,3,4,0.9,0.9
2024-02-09T0800,2514A,111.5264,24.4172,贺州市,环保小区,,49,39,27,34,28,61,,55,55,6,8,8,8,0.6,0.7
2024-02-09T0800,2515A,111.5608,24.4078,贺州市,政协大楼,,45,45,40,29,27,58,,53,53,8,9,8,8,0.7,0.9
2024-02-09T0800,3534A,111.4744,24.4553,贺州市,西湾,,50,36,31,35,30,62,,59,59,8,8,9,7,0.7,0.8
2024-02-09T0800,2385A,114.17,35.9019,鹤壁市,市监测站,细颗粒物(PM2.5),147,133,219,112,191,43,,43,43,24,27,1,4,1.1,1.4
2024-02-09T0800,2386A,114.2956,35.7511,鹤壁市,市交警支队,细颗粒物(PM2.5),218,209,226,168,188,29,,35,35,31,25,12,8,1.3,1.3
2024-02-09T0800,2387A,114.2878,35.7306,鹤壁市,迎宾馆,细颗粒物(PM2.5),231,189,188,181,188,29,,33,33,29,27,8,8,1.4,1.4
2024-02-09T0800,3474A,114.2617,35.6822,鹤壁市,大新区,细颗粒物(PM2.5),233,194,201,183,198,28,,33,33,26,29,5,7,1.4,1.4
2024-02-09T0800,3596A,114.1572,35.9603,鹤壁市,南山宾馆,细颗粒物(PM2.5),119,,203,90,189,90,,87,87,12,24,9,9,0.9,1.5
2024-02-09T0800,2244A,130.2537,47.3416,鹤岗市,哈啤分公司,细颗粒物(PM2.5),55,47,32,39,26,69,,75,75,16,10,18,17,1.1,0.8
2024-02-09T0800,2245A,130.2684,47.3086,鹤岗市,斯达机电,细颗粒物(PM2.5),59,49,37,42,30,66,,81,81,25,12,14,12,0.5,0.4
2024-02-09T0800,2246A,130.3114,47.3388,鹤岗市,东山纸板厂,细颗粒物(PM2.5),82,60,40,60,37,31,,71,71,47,16,16,14,2.4,0.7
2024-02-09T0800,2247A,130.1097,47.3382,鹤岗市,五号水库,,33,31,28,23,20,77,,82,82,6,6,9,12,0.5,0.5
2024-02-09T0800,2263A,127.4833,50.2524,黑河市,交通局,,29,29,19,20,15,59,,63,63,7,9,9,6,0.4,0.4
2024-02-09T0800,2264A,127.5144,50.2341,黑河市,环保局,,35,25,19,24,19,50,,63,63,17,11,6,4,0.4,0.3
2024-02-09T0800,2265A,127.5291,50.2472,黑河市,大黑河岛,,,20,17,12,14,60,,62,62,60,70,8,12,,
2024-02-09T0800,1074A,115.6838,37.7541,衡水市,电机北厂,细颗粒物(PM2.5),260,251,179,210,153,74,,82,82,14,15,3,4,1.5,1.3
2024-02-09T0800,1075A,115.6303,37.7316,衡水市,市监测站,细颗粒物(PM2.5),255,210,162,205,153,64,,75,75,25,25,6,8,1.5,1.2
2024-02-09T0800,3188A,115.6683,37.7217,衡水市,市城管局,细颗粒物(PM2.5),270,228,168,220,163,68,,76,76,17,18,6,9,1.5,1.2
2024-02-09T0800,3459A,115.5989,37.5491,衡水市,地表水厂,细颗粒物(PM2.5),258,214,176,208,166,48,,52,52,22,28,4,8,1.7,1.4
2024-02-09T0800,2456A,112.5003,26.9167,衡阳市,原169医院,细颗粒物(PM2.5),73,71,75,53,62,29,,40,40,11,14,7,8,1.1,1.1
2024-02-09T0800,2457A,112.6194,26.9258,衡阳市,衡阳化工总厂,细颗粒物(PM2.5),93,,92,69,94,18,,33,33,18,18,5,7,1.0,1
2024-02-09T0800,2458A,112.6211,26.8956,衡阳市,珠晖区环保局,细颗粒物(PM2.5),107,,93,80,96,31,,32,32,19,24,6,8,1.1,1.1
2024-02-09T0800,2459A,112.6197,26.8733,衡阳市,市委党校,细颗粒物(PM2.5),98,84,91,73,85,27,,34,34,18,17,8,8,1.2,1.1
2024-02-09T0800,2460A,112.6006,26.8919,衡阳市,市监测站,细颗粒物(PM2.5),122,102,108,92,99,33,,35,35,18,23,6,7,1.2,1.1
2024-02-09T0800,2461A,112.5664,26.9056,衡阳市,真空机电公司,细颗粒物(PM2.5),103,,83,77,89,28,,45,45,20,18,5,6,1.0,1
2024-02-09T0800,3399A,112.6703,26.882,衡阳市,师范学院,细颗粒物(PM2.5),94,88,98,70,90,17,,30,30,18,14,7,9,1.2,1.1
2024-02-09T0800,2608A,103.3772,23.3993,红河哈尼族彝族自治州,污水处理厂,,40,40,45,28,36,30,,34,34,9,7,8,8,0.7,0.6
2024-02-09T0800,2609A,103.3861,23.35,红河哈尼族彝族自治州,监测站,,40,40,47,27,34,29,,34,34,9,7,9,9,0.7,0.6
2024-02-09T0800,3038A,103.3758,23.368,红河哈尼族彝族自治州,州图书馆,,32,24,34,22,30,26,,31,31,9,7,8,6,0.8,0.6
2024-02-09T0800,1090A,111.6507,40.7517,呼和浩特市,呼市一监,细颗粒物(PM2.5),137,105,91,104,87,46,,51,51,41,33,4,6,1.2,0.9
2024-02-09T0800,1091A,111.6572,40.8033,呼和浩特市,小召,细颗粒物(PM2.5),120,97,98,91,81,35,,45,45,59,43,5,8,1.5,1
2024-02-09T0800,1094A,111.7516,40.8369,呼和浩特市,如意水处理厂,细颗粒物(PM2.5),115,94,81,87,70,25,,32,32,63,45,10,12,1.3,0.9
2024-02-09T0800,1095A,111.7276,40.8062,呼和浩特市,二十九中,细颗粒物(PM2.5),118,94,82,89,68,65,,62,62,36,35,9,11,1.4,0.9
2024-02-09T0800,1096A,111.5512,40.7866,呼和浩特市,工大金川校区,细颗粒物(PM2.5),132,100,105,100,92,36,,51,51,46,37,5,7,1.1,0.9
2024-02-09T0800,1097A,111.717,40.7612,呼和浩特市,化肥厂生活区,细颗粒物(PM2.5),159,150,94,121,82,50,,68,68,44,33,43,14,1.9,1
2024-02-09T0800,3698A,111.5968,40.8178,呼和浩特市,红旗小学,细颗粒物(PM2.5),109,,93,82,86,34,,50,50,54,39,7,8,0.8,0.8
2024-02-09T0800,3699A,111.6518,40.8389,呼和浩特市,海东办,细颗粒物(PM2.5),107,83,98,80,85,35,,32,32,46,52,6,9,0.8,0.8
2024-02-09T0800,2192A,119.7594,49.2261,呼伦贝尔市,区环保局,,49,47,24,34,19,18,,46,46,67,20,7,6,0.6,0.3
2024-02-09T0800,3061A,119.7512,49.1577,呼伦贝尔市,国华电力东,,28,,24,17,17,88,,87,87,6,7,5,5,0.2,0.3
2024-02-09T0800,1250A,120.0751,30.8669,湖州市,城西水厂,细颗粒物(PM2.5),129,116,103,98,85,74,,73,73,21,22,4,5,0.9,0.8
2024-02-09T0800,2873A,120.0875,30.8955,湖州市,仁皇山新区,细颗粒物(PM2.5),135,117,100,103,87,96,,96,96,18,23,8,8,1.0,1
2024-02-09T0800,2907A,120.1844,30.8596,湖州市,吴兴区站,细颗粒物(PM2.5),135,119,100,103,85,78,,84,84,19,20,8,7,1.0,0.9
2024-02-09T0800,3562A,120.4148,30.8538,湖州市,南浔区站,细颗粒物(PM2.5),135,116,96,103,80,79,,87,87,19,21,8,9,0.9,0.8
2024-02-09T0800,1607A,120.9092,40.7136,葫芦岛市,龙港区,细颗粒物(PM2.5),246,,62,196,41,21,,52,52,57,22,25,31,1.6,0.7
2024-02-09T0800,1608A,120.8392,40.7514,葫芦岛市,化工街,细颗粒物(PM2.5),110,129,95,83,62,11,,10,10,58,35,16,19,1.9,1.6
2024-02-09T0800,1609A,120.8341,40.7073,葫芦岛市,新区,细颗粒物(PM2.5),113,103,59,85,42,20,,27,27,60,32,9,17,1.1,0.6
2024-02-09T0800,1610A,120.8695,40.7677,葫芦岛市,东城区,细颗粒物(PM2.5),107,81,82,80,64,11,,14,14,45,35,16,25,1.7,1.5
2024-02-09T0800,2482A,109.5981,27.5721,怀化市,林科所,细颗粒物(PM2.5),63,47,47,45,48,27,,40,40,4,4,7,7,0.7,0.7
2024-02-09T0800,2483A,109.9453,27.5444,怀化市,河西地税局,细颗粒物(PM2.5),82,67,72,60,63,23,,20,20,10,11,3,3,1.0,1
2024-02-09T0800,2484A,109.9781,27.5342,怀化市,市四医院,细颗粒物(PM2.5),90,75,71,67,63,22,,28,28,9,8,2,2,0.8,0.7
2024-02-09T0800,2485A,109.9972,27.5578,怀化市,监测楼,细颗粒物(PM2.5),83,72,73,61,63,20,,22,22,12,10,4,4,1.0,0.8
2024-02-09T0800,2486A,110.0394,27.583,怀化市,市委党校,细颗粒物(PM2.5),78,65,72,57,67,11,,14,14,6,6,5,5,0.9,0.8
2024-02-09T0800,1210A,119.036,33.5981,淮安市,钵池山,细颗粒物(PM2.5),208,161,155,158,149,92,,97,97,22,24,6,8,1.1,1.1
2024-02-09T0800,1211A,119.007,33.575,淮安市,北京南路,细颗粒物(PM2.5),208,175,163,158,151,73,,94,94,41,30,6,8,1.4,1.3
2024-02-09T0800,1212A,118.989,33.6067,淮安市,市监测站,细颗粒物(PM2.5),211,185,169,161,153,93,,109,109,23,21,8,8,1.6,1.5
2024-02-09T0800,1213A,119.135,33.5039,淮安市,楚州区监测站,细颗粒物(PM2.5),232,195,180,182,163,78,,97,97,34,26,6,8,1.2,1.2
2024-02-09T0800,1214A,119.0186,33.6297,淮安市,淮阴区监测站,细颗粒物(PM2.5),212,188,189,162,162,106,,107,107,27,31,4,6,1.1,1.2
2024-02-09T0800,3426A,118.8755,33.2894,淮安市,新华书店,细颗粒物(PM2.5),213,175,183,163,168,86,,108,108,28,29,6,7,1.2,1.2
2024-02-09T0800,2282A,116.8004,33.975,淮北市,监测站,细颗粒物(PM2.5),170,170,187,129,140,77,,92,92,37,32,6,7,1.3,1.3
2024-02-09T0800,2283A,116.8091,33.9007,淮北市,烈山区政府,细颗粒物(PM2.5),172,144,168,130,145,102,,84,84,25,35,5,6,1.0,1
2024-02-09T0800,3330A,116.8873,33.9836,淮北市,杜集区检察院,细颗粒物(PM2.5),173,159,172,131,145,107,,109,109,19,21,8,8,1.1,1.1
2024-02-09T0800,4017A,116.7923,33.9535,淮北市,市博物馆,细颗粒物(PM2.5),186,166,184,140,151,88,,87,87,29,29,8,8,1.3,1.3
2024-02-09T0800,2277A,116.8305,32.7727,淮南市,潘集区政府,细颗粒物(PM2.5),179,143,169,135,145,104,,118,118,21,25,5,7,1.0,1
2024-02-09T0800,2278A,117.0067,32.6524,淮南市,师范学院,细颗粒物(PM2.5),127,132,165,96,131,114,,108,108,26,45,6,8,0.9,1.1
2024-02-09T0800,2279A,116.8569,32.5951,淮南市,谢家集区政府,细颗粒物(PM2.5),142,125,141,108,127,115,,132,132,15,22,4,6,0.9,1
2024-02-09T0800,2280A,116.8281,32.633,淮南市,八公山区政府,细颗粒物(PM2.5),122,112,125,92,108,121,,144,144,14,15,2,4,0.9,0.9
2024-02-09T0800,2281A,116.6325,32.6201,淮南市,焦岗湖风景区管理处,细颗粒物(PM2.5),142,144,166,108,126,89,,90,90,11,18,3,2,0.6,0.8
2024-02-09T0800,2894A,117.0566,32.6531,淮南市,经济技术开发区消防队,细颗粒物(PM2.5),142,123,160,108,134,112,,98,98,21,34,6,7,1.0,1.1
2024-02-09T0800,3329A,117.0108,32.5893,淮南市,山南新区,细颗粒物(PM2.5),176,135,159,133,158,104,,122,122,18,25,4,5,0.9,0.9
2024-02-09T0800,2446A,114.9028,30.4742,黄冈市,职工中心,细颗粒物(PM2.5),97,97,92,72,74,18,,56,56,18,14,7,9,1.2,1
2024-02-09T0800,2929A,114.8858,30.4519,黄冈市,红卫路,细颗粒物(PM2.5),102,98,92,76,77,29,,54,54,18,18,5,7,1.2,1.1
2024-02-09T0800,3398A,114.9136,30.4445,黄冈市,市林业局,细颗粒物(PM2.5),90,89,86,67,72,26,,55,55,16,19,6,7,1.2,1
2024-02-09T0800,2672A,102.0199,35.5102,黄南藏族自治州,同仁县隆务镇,,27,27,36,7,18,82,,78,78,4,8,8,11,0.5,0.6
2024-02-09T0800,2295A,118.2903,29.6963,黄山市,延安路89号,,44,44,66,27,42,22,,20,20,7,10,5,5,0.6,0.5
2024-02-09T0800,2296A,118.327,29.7178,黄山市,黄山东路89号,细颗粒物(PM2.5),53,52,66,37,48,20,,14,14,10,16,4,5,0.8,0.9
2024-02-09T0800,2297A,118.1371,30.2756,黄山市,黄山区政府5号楼,,50,50,65,26,48,48,,35,35,12,14,4,4,0.9,0.9
2024-02-09T0800,2423A,115.0601,30.2313,黄石市,沈家营,细颗粒物(PM2.5),105,104,88,79,77,45,,63,63,20,20,19,15,1.8,1.3
2024-02-09T0800,2424A,115.0817,30.2006,黄石市,陈家湾,细颗粒物(PM2.5),133,,100,101,101,61,,60,60,18,25,7,10,1.0,1.2
2024-02-09T0800,2426A,114.8988,30.2019,黄石市,铁山,细颗粒物(PM2.5),112,,90,84,101,39,,41,41,26,23,4,7,1.4,1.3
2024-02-09T0800,2427A,115.0307,30.2092,黄石市,团城山,细颗粒物(PM2.5),107,102,95,80,77,48,,64,64,23,21,13,14,1.4,1.3
2024-02-09T0800,3149A,115.0235,30.1578,黄石市,笔架山北路,细颗粒物(PM2.5),118,89,84,89,82,45,,62,62,18,19,8,9,1.4,1.4
2024-02-09T0800,1392A,114.4183,23.0528,惠州市,河南岸金山湖子站,,20,17,8,14,6,34,,37,37,8,6,5,4,0.7,0.7
2024-02-09T0800,1393A,114.4053,23.0822,惠州市,下埔横江三路子站,,25,19,8,17,6,42,,39,39,8,9,5,5,0.8,0.8
2024-02-09T0800,1394A,114.4103,23.1142,惠州市,江北云山西路子站,,19,19,9,13,8,40,,36,36,3,5,8,7,0.6,0.7
2024-02-09T0800,1395A,114.4645,22.7833,惠州市,惠阳区承修路船湖子站,,16,13,7,11,5,31,,31,31,7,8,7,6,0.8,0.8
2024-02-09T0800,1396A,114.5317,22.7422,惠州市,大亚湾管委会子站,,10,10,7,6,3,31,,30,30,7,8,6,6,0.7,0.7
2024-02-09T0800,3314A,114.4338,22.8134,惠州市,惠阳秋长,,19,,2,13,5,37,,36,36,2,1,6,6,0.7,0.7
2024-02-09T0800,3452A,114.6517,22.775,惠州市,大亚湾霞涌,,10,6,5,4,4,29,,27,27,5,5,6,6,1.0,0.9
2024-02-09T0800,2240A,130.9762,45.3001,鸡西市,环保局,细颗粒物(PM2.5),52,41,40,36,34,52,,56,56,26,18,9,7,0.3,0.2
2024-02-09T0800,2243A,130.9429,45.3039,鸡西市,第一中学,,45,39,36,31,28,63,,70,70,22,12,12,9,0.4,0.3
2024-02-09T0800,3707A,131.0207,45.3073,鸡西市,欧美日汽修厂,细颗粒物(PM2.5),107,97,62,80,53,26,,43,43,48,28,55,27,2.7,1.6
2024-02-09T0800,3709A,130.9967,45.3106,鸡西市,市政设施管理处,细颗粒物(PM2.5),84,,55,62,47,25,,37,37,47,33,4,3,1.1,0.8
2024-02-09T0800,2367A,114.9754,27.0803,吉安市,红声器材厂,颗粒物(PM10),56,61,63,33,38,31,,30,30,12,16,10,10,1.3,0.9
2024-02-09T0800,2368A,114.9658,27.0999,吉安市,市森林工业局,,49,40,50,34,40,33,,31,31,9,11,6,6,1.0,0.6
2024-02-09T0800,2369A,114.99,27.1312,吉安市,市环境监测站,,42,42,50,27,37,32,,32,32,13,17,5,5,0.9,0.7
2024-02-09T0800,2370A,115.0093,27.0968,吉安市,青原区法院,,49,46,50,34,40,34,,34,34,12,14,7,8,1.0,0.8
2024-02-09T0800,1772A,126.54,43.8622,吉林市,哈达湾,细颗粒物(PM2.5),74,65,74,54,62,37,,56,56,44,34,8,7,1.0,1
2024-02-09T0800,1773A,126.5844,43.8358,吉林市,东局子,细颗粒物(PM2.5),67,56,78,48,63,52,,63,63,34,37,6,10,1.0,1.1
2024-02-09T0800,1774A,126.5052,43.8245,吉林市,电力学院,细颗粒物(PM2.5),113,94,108,85,97,40,,43,43,36,38,12,14,1.2,1.5
2024-02-09T0800,1775A,126.6133,43.8972,吉林市,江北,细颗粒物(PM2.5),152,144,94,116,78,42,,52,52,46,38,10,16,1.7,1.3
2024-02-09T0800,1776A,126.555,43.8306,吉林市,江南公园,细颗粒物(PM2.5),73,59,101,53,90,54,,45,45,31,50,5,8,0.8,1.5
2024-02-09T0800,1778A,126.7061,43.7133,吉林市,丰满,,,,,,,,,,,,,,,,
2024-02-09T0800,2868A,126.4739,43.953,吉林市,九站,细颗粒物(PM2.5),132,119,145,100,124,20,,12,12,59,54,8,12,1.5,1.5
2024-02-09T0800,1299A,116.9862,36.6114,济南市,科干所,细颗粒物(PM2.5),165,146,139,125,114,124,,117,117,10,18,8,12,1.3,1.3
2024-02-09T0800,1300A,116.9376,36.665,济南市,农科所,细颗粒物(PM2.5),153,142,141,117,111,88,,79,79,27,33,8,11,1.2,1.2
2024-02-09T0800,1301A,117.1265,36.6734,济南市,开发区,细颗粒物(PM2.5),170,149,120,129,101,96,,89,89,19,26,6,8,1.3,1.2
2024-02-09T0800,1303A,117.0624,36.6868,济南市,省种子仓库,细颗粒物(PM2.5),170,171,142,129,108,85,,97,97,30,27,9,9,1.4,1.2
2024-02-09T0800,1304A,116.9489,36.6447,济南市,机床二厂,细颗粒物(PM2.5),160,147,148,122,124,97,,87,87,28,32,17,23,1.5,1.5
2024-02-09T0800,1305A,117.0495,36.663,济南市,市监测站,细颗粒物(PM2.5),168,151,131,127,107,119,,114,114,25,33,12,14,1.2,1.1
2024-02-09T0800,1306A,116.7675,36.5484,济南市,长清党校,细颗粒物(PM2.5),150,139,159,115,131,115,,105,105,18,26,5,9,1.1,1.2
2024-02-09T0800,1616A,117.6795,36.229,济南市,技术学院,细颗粒物(PM2.5),211,180,138,161,118,47,,48,48,54,45,9,11,2.1,1.6
2024-02-09T0800,1961A,117.532,36.6868,济南市,东山小学,细颗粒物(PM2.5),160,147,113,122,88,96,,91,91,19,21,6,9,0.9,0.7
2024-02-09T0800,3059A,117.7161,36.2049,济南市,泰兴公司,细颗粒物(PM2.5),208,195,146,158,120,11,,11,11,54,47,8,11,1.9,1.6
2024-02-09T0800,3064A,117.6867,36.2171,济南市,莱芜战役纪念馆,细颗粒物(PM2.5),195,178,150,146,119,28,,25,25,49,44,8,11,1.8,1.4
2024-02-09T0800,3494A,117.1673,36.9782,济南市,济阳区政府,细颗粒物(PM2.5),178,173,143,134,112,70,,81,81,30,26,10,12,1.3,1
2024-02-09T0800,3495A,117.1171,36.63,济南市,锦屏中学,细颗粒物(PM2.5),185,161,118,139,100,123,,109,109,14,22,7,8,1.2,1
2024-02-09T0800,3682A,116.9814,36.6819,济南市,济南四建,细颗粒物(PM2.5),165,127,124,125,115,95,,91,91,29,33,13,16,1.3,1.3
2024-02-09T0800,1653A,116.6251,35.4302,济宁市,火炬城,细颗粒物(PM2.5),160,152,143,122,126,87,,84,84,20,28,3,5,1.2,1.3
2024-02-09T0800,1655A,116.5491,35.4042,济宁市,电化厂,细颗粒物(PM2.5),149,137,171,114,138,96,,93,93,16,26,5,11,0.9,1.1
2024-02-09T0800,3500A,116.5814,35.3707,济宁市,北湖一中,细颗粒物(PM2.5),144,137,148,110,129,97,,92,92,13,22,4,7,0.8,1.1
2024-02-09T0800,3501A,116.8249,35.5593,济宁市,服务中心,细颗粒物(PM2.5),190,193,189,143,135,84,,78,78,17,28,5,7,1.4,1.3
2024-02-09T0800,3678A,116.5907,35.4054,济宁市,市第七中学,细颗粒物(PM2.5),147,145,143,112,127,90,,81,81,15,23,3,5,1.0,1.2
2024-02-09T0800,2255A,130.2751,46.8028,佳木斯市,佳纺,细颗粒物(PM2.5),73,59,49,53,47,44,,71,71,45,15,11,6,1.1,0.6
2024-02-09T0800,2256A,130.3995,46.8307,佳木斯市,发电厂,细颗粒物(PM2.5),59,52,44,42,36,26,,54,54,63,26,12,15,1.2,0.6
2024-02-09T0800,2257A,130.3258,46.7975,佳木斯市,环保局,,49,47,49,34,45,51,,69,69,40,18,7,7,1.2,0.7
2024-02-09T0800,2258A,130.3648,46.8032,佳木斯市,十一中,细颗粒物(PM2.5),78,,47,57,45,28,,61,61,61,24,7,7,1.0,0.7
2024-02-09T0800,2259A,130.3794,46.7588,佳木斯市,四丰,,47,47,52,26,34,97,,98,98,6,6,1,7,0.6,0.4
2024-02-09T0800,1252A,120.7436,30.778,嘉兴市,清河小学,细颗粒物(PM2.5),139,130,95,106,76,74,,82,82,14,14,7,8,1.2,1
2024-02-09T0800,1253A,120.726,30.7478,嘉兴市,嘉兴学院,细颗粒物(PM2.5),124,121,92,94,66,64,,72,72,30,20,5,8,1.0,0.9
2024-02-09T0800,2872A,120.7846,30.7525,嘉兴市,南湖区残联,细颗粒物(PM2.5),140,146,104,107,75,72,,90,90,25,17,6,9,1.2,1.1
2024-02-09T0800,3407A,120.6916,30.7739,嘉兴市,秀洲住建,细颗粒物(PM2.5),140,120,91,107,78,68,,68,68,19,18,9,11,1.0,0.9
2024-02-09T0800,1945A,98.2908,39.7711,嘉峪关市,气象局,,39,39,62,12,14,88,,82,82,6,7,3,4,0.1,0.1
2024-02-09T0800,2884A,98.2672,39.7978,嘉峪关市,酒钢宾馆,,41,41,65,9,15,81,,79,79,11,9,9,11,0.4,0.5
2024-02-09T0800,3248A,98.2643,39.7724,嘉峪关市,雄关区,,36,36,52,8,15,83,,75,75,9,10,4,6,0.4,0.4
2024-02-09T0800,1383A,113.1064,22.6058,江门市,北街,,23,,10,16,9,36,,32,32,10,14,6,6,0.9,1
2024-02-09T0800,1384A,113.0731,22.5835,江门市,西区,,16,16,13,9,8,30,,28,28,11,13,7,7,1.1,1.1
2024-02-09T0800,1385A,113.0219,22.5311,江门市,圭峰西,,22,,7,15,8,36,,34,34,4,6,6,6,0.7,0.8
2024-02-09T0800,1386A,113.0828,22.5947,江门市,东湖,,25,20,13,17,9,30,,28,28,11,14,7,7,0.7,0.8
2024-02-09T0800,3311A,113.1075,22.5647,江门市,江海富民,,11,10,9,7,10,35,,31,31,11,14,6,6,0.6,0.7
2024-02-09T0800,3449A,113.05,22.4667,江门市,新会银湖,,19,,8,13,8,35,,33,33,9,11,5,5,0.9,0.9
2024-02-09T0800,1828A,113.227,35.2125,焦作市,市环保局,细颗粒物(PM2.5),104,85,135,78,110,56,,79,79,17,24,8,7,1.1,1.4
2024-02-09T0800,1830A,113.1992,35.2590,焦作市,影视城,,,,,,,,,,,,,,,,
2024-02-09T0800,3169A,113.2725,35.2067,焦作市,太极体育中心,细颗粒物(PM2.5),103,112,147,77,124,65,,86,86,16,24,7,8,1.0,1.3
2024-02-09T0800,3335A,113.3137,35.2641,焦作市,马村街道办,细颗粒物(PM2.5),107,98,147,80,133,70,,81,81,20,23,12,10,1.1,1.1
2024-02-09T0800,3336A,113.2465,35.2373,焦作市,焦作技师学院,细颗粒物(PM2.5),104,97,143,78,117,53,,76,76,22,32,12,14,1.2,1.4
2024-02-09T0800,3477A,113.1656,35.2539,焦作市,中站许衡医院,细颗粒物(PM2.5),75,85,123,55,93,79,,88,88,9,24,8,11,0.8,1.2
2024-02-09T0800,3981A,113.2449,35.1803,焦作市,原李万街道办,细颗粒物(PM2.5),104,93,133,78,111,59,,78,78,23,31,5,8,1.0,1.3
2024-02-09T0800,1708A,116.3701,23.5345,揭阳市,新兴,,9,6,8,3,4,24,,22,22,5,8,7,7,0.9,1
2024-02-09T0800,1709A,116.3264,23.5443,揭阳市,西马,,9,,7,4,3,28,,27,27,4,6,7,7,0.7,0.8
2024-02-09T0800,1710A,116.3611,23.5626,揭阳市,东兴,,9,8,8,3,4,25,,23,23,5,8,9,9,0.9,0.9
2024-02-09T0800,1711A,116.4151,23.5294,揭阳市,渔湖,,9,5,8,1,3,23,,21,21,2,7,6,6,0.9,1
2024-02-09T0800,3320A,116.403,23.5699,揭阳市,曲溪,,8,6,12,4,7,23,,21,21,6,10,2,2,0.8,0.9
2024-02-09T0800,1944A,102.1692,38.5167,金昌市,天庆家园,颗粒物(PM10),64,78,86,27,45,29,,51,51,56,34,24,28,1.2,0.9
2024-02-09T0800,3170A,102.1864,38.5253,金昌市,市委党校,颗粒物(PM10),54,58,90,25,55,42,,43,43,33,28,54,28,0.6,0.9
2024-02-09T0800,4022A,102.1647,38.5371,金昌市,金川区人防中心,颗粒物(PM10),59,68,89,32,48,43,,56,56,32,22,38,35,1.2,0.9
2024-02-09T0800,1262A,119.647,29.077,金华市,十五中,细颗粒物(PM2.5),79,78,90,58,72,19,,32,32,22,23,2,3,0.9,0.9
2024-02-09T0800,1263A,119.686,29.1029,金华市,监测站,细颗粒物(PM2.5),93,94,94,69,76,12,,29,29,26,19,2,3,0.9,0.8
2024-02-09T0800,3659A,119.656,29.1131,金华市,气象局,细颗粒物(PM2.5),83,97,100,61,75,7,,8,8,35,30,2,3,1.1,1
2024-02-09T0800,1767A,121.1115,41.0879,锦州市,南山,细颗粒物(PM2.5),150,120,90,115,80,16,,12,12,38,34,18,16,1.9,1.4
2024-02-09T0800,1768A,121.0533,40.8434,锦州市,开发区,细颗粒物(PM2.5),198,178,88,148,69,19,,12,12,39,41,,24,1.9,1.1
2024-02-09T0800,1769A,121.1836,41.1119,锦州市,百股街道,细颗粒物(PM2.5),128,,76,97,61,25,,19,19,34,28,37,18,1.4,1.1
2024-02-09T0800,1770A,121.1178,41.1222,锦州市,天安街道,细颗粒物(PM2.5),128,125,85,97,63,14,,16,16,42,35,16,16,1.6,1.1
2024-02-09T0800,1771A,121.1303,41.1386,锦州市,北湖公园,细颗粒物(PM2.5),118,,69,89,64,38,,36,36,32,29,34,19,1.1,1
2024-02-09T0800,2160A,112.85,35.5051,晋城市,自来水公司,细颗粒物(PM2.5),119,114,119,90,85,56,,78,78,35,21,18,10,2.9,1.6
2024-02-09T0800,2161A,112.8318,35.4936,晋城市,白云商贸,细颗粒物(PM2.5),107,136,108,80,73,50,,83,83,29,24,13,11,2.3,1.3
2024-02-09T0800,2162A,112.8508,35.4887,晋城市,市环保局,细颗粒物(PM2.5),107,132,105,80,79,55,,83,83,33,24,10,8,1.5,1.3
2024-02-09T0800,2163A,112.8676,35.4897,晋城市,技术学院,细颗粒物(PM2.5),100,108,102,75,77,47,,86,86,43,26,14,10,1.5,1.3
2024-02-09T0800,2165A,112.8453,35.546,晋城市,白马寺,,,,,,,,,,,,,,,,
2024-02-09T0800,3620A,112.8271,35.4828,晋城市,泽州一中,细颗粒物(PM2.5),98,101,92,73,66,60,,86,86,26,29,11,10,2.1,1.3
2024-02-09T0800,2171A,112.7532,37.6945,晋中市,锦纶小区,细颗粒物(PM2.5),110,107,146,83,114,53,,52,52,25,31,18,22,1.1,1.3
2024-02-09T0800,2173A,112.7249,37.7067,晋中市,南都小区,细颗粒物(PM2.5),107,134,158,80,108,44,,54,54,35,35,22,23,1.4,1.3
2024-02-09T0800,2174A,112.6991,37.6982,晋中市,榆次区政府,细颗粒物(PM2.5),137,135,143,104,103,13,,39,39,52,33,19,22,1.5,1.3
2024-02-09T0800,2865A,112.7195,37.6828,晋中市,榆次三中,细颗粒物(PM2.5),107,122,154,80,111,33,,41,41,42,35,23,23,1.7,1.7
2024-02-09T0800,2439A,112.2014,31.0481,荆门市,竹园小学,细颗粒物(PM2.5),162,132,117,123,101,32,,92,92,37,24,8,10,1.2,1
2024-02-09T0800,2440A,112.1969,30.9891,荆门市,掇刀,细颗粒物(PM2.5),143,123,115,109,96,62,,91,91,30,20,6,8,1.0,0.9
2024-02-09T0800,2441A,112.2213,31.0386,荆门市,石化一小,细颗粒物(PM2.5),137,135,120,104,94,30,,93,93,45,27,10,16,1.2,0.9
2024-02-09T0800,3012A,112.1849,31.0362,荆门市,西山林语,细颗粒物(PM2.5),127,108,109,96,94,72,,100,100,16,17,11,12,0.8,0.8
2024-02-09T0800,3547A,112.1632,31.0138,荆门市,龙泉中学南校,细颗粒物(PM2.5),142,123,115,108,103,85,,96,96,8,14,9,11,0.9,0.9
2024-02-09T0800,1844A,112.2494,30.3197,荆州市,市图书馆,细颗粒物(PM2.5),190,,99,143,109,60,,94,94,24,27,5,9,1.5,1.1
2024-02-09T0800,1845A,112.2008,30.3544,荆州市,市委党校,细颗粒物(PM2.5),186,,96,140,108,64,,91,91,24,30,5,8,1.3,0.9
2024-02-09T0800,3194A,112.2747,30.3122,荆州市,管委会,细颗粒物(PM2.5),200,,96,150,109,64,,92,92,26,27,6,10,1.4,1.1
2024-02-09T0800,3548A,112.1655,30.3364,荆州市,学苑路,细颗粒物(PM2.5),158,128,101,120,103,62,,93,93,18,22,7,8,1.6,1.2
2024-02-09T0800,2342A,117.3102,29.3867,景德镇市,王港中学,,32,,39,22,32,24,,17,17,4,4,3,3,0.4,0.5
2024-02-09T0800,2343A,117.2117,29.2933,景德镇市,老干部活动中心,,38,38,57,23,48,17,,32,32,9,9,3,5,0.6,0.6
2024-02-09T0800,2344A,117.1894,29.2789,景德镇市,兽医站,细颗粒物(PM2.5),55,49,60,39,43,16,,36,36,6,10,4,6,0.7,0.6
2024-02-09T0800,2345A,117.1547,29.2617,景德镇市,台达陶瓷,细颗粒物(PM2.5),57,55,57,40,47,12,,37,37,15,10,4,4,0.7,0.6
2024-02-09T0800,2346A,117.2461,29.2956,景德镇市,陶研所,,31,31,43,21,33,19,,20,20,7,10,3,4,0.6,0.6
2024-02-09T0800,1803A,115.9872,29.6815,九江市,十里,细颗粒物(PM2.5),87,96,99,64,82,23,,60,60,39,26,9,11,1.2,1.1
2024-02-09T0800,1804A,115.9584,29.7046,九江市,茅山头,细颗粒物(PM2.5),95,90,95,71,81,39,,43,43,25,32,12,13,1.3,1.1
2024-02-09T0800,1805A,115.9877,29.7295,九江市,西园,细颗粒物(PM2.5),112,95,98,84,84,52,,61,61,26,30,8,10,1.2,1.1
2024-02-09T0800,1806A,116.0172,29.6547,九江市,五七二七厂,细颗粒物(PM2.5),93,77,93,69,74,62,,73,73,17,17,7,10,1.2,1.1
2024-02-09T0800,1808A,115.9114,29.6038,九江市,综合工业园,细颗粒物(PM2.5),98,73,91,73,91,54,,64,64,16,21,10,12,1.1,1.2
2024-02-09T0800,1809A,116.0721,29.7535,九江市,石化总厂,细颗粒物(PM2.5),114,114,111,86,86,56,,61,61,40,30,10,11,1.2,1
2024-02-09T0800,1810A,115.9773,29.5698,九江市,庐山气象台,,49,44,56,34,54,103,,103,103,5,8,6,9,0.8,1.6
2024-02-09T0800,3190A,116.0254,29.6994,九江市,外国语学校,细颗粒物(PM2.5),109,105,104,82,86,52,,61,61,31,33,10,11,1.2,1.1
2024-02-09T0800,2658A,98.5061,39.7443,酒泉市,仓门街子站,颗粒物(PM10),53,56,70,16,23,56,,67,67,19,12,6,6,0.4,0.5
2024-02-09T0800,2659A,98.4989,39.7256,酒泉市,油田生活基地,颗粒物(PM10),51,51,74,25,27,67,,76,76,13,10,5,7,0.3,0.4
2024-02-09T0800,2698A,76.0072,39.4467,喀什地区,巡警大队,颗粒物(PM10),70,90,132,50,67,20,,14,14,45,55,3,7,2.7,2.8
2024-02-09T0800,2699A,75.9755,39.4694,喀什地区,吾办,细颗粒物(PM2.5),108,92,123,81,85,8,,10,10,62,59,2,4,2.8,2.2
2024-02-09T0800,4027A,75.9483,39.4689,喀什地区,老干局,颗粒物(PM10),83,115,153,56,83,21,,17,17,28,48,2,4,2.9,3.2
2024-02-09T0800,1824A,114.3389,34.7781,开封市,肿瘤医院,细颗粒物(PM2.5),166,163,182,126,143,19,,49,49,36,22,3,3,1.3,1.2
2024-02-09T0800,1826A,114.2885,34.7965,开封市,世纪星幼儿园,细颗粒物(PM2.5),195,,171,146,167,42,,62,62,25,22,4,6,1.3,1.3
2024-02-09T0800,3147A,114.3438,34.8106,开封市,龙亭公园,细颗粒物(PM2.5),196,163,179,147,161,32,,54,54,24,20,2,3,1.0,1
2024-02-09T0800,3210A,114.3644,34.7964,开封市,汴京公园,细颗粒物(PM2.5),173,154,178,131,156,17,,47,47,39,25,3,3,1.2,1.1
2024-02-09T0800,3473A,114.2485,34.8306,开封市,技师学院,细颗粒物(PM2.5),176,139,166,133,153,49,,66,66,14,16,2,3,1.2,1.2
2024-02-09T0800,3592A,114.4644,34.7556,开封市,祥符区生态环境局,细颗粒物(PM2.5),156,140,166,119,143,45,,62,62,22,22,1,3,0.8,0.8
2024-02-09T0800,1951A,84.895,45.6094,克拉玛依市,长征新村,细颗粒物(PM2.5),74,75,99,54,71,89,,78,78,23,39,8,9,0.9,1
2024-02-09T0800,1952A,84.8988,45.5893,克拉玛依市,南林小区,细颗粒物(PM2.5),87,79,103,64,74,93,,84,84,22,38,3,4,0.9,1
2024-02-09T0800,1954A,84.905,44.3396,克拉玛依市,独山子区,细颗粒物(PM2.5),221,,107,171,78,82,,66,66,26,32,5,5,0.8,0.8
2024-02-09T0800,1955A,85.6979,46.098,克拉玛依市,乌尔禾区商贸楼,细颗粒物(PM2.5),119,98,85,90,68,56,,64,64,49,43,5,6,1.5,1.2
2024-02-09T0800,3612A,85.1045,45.6899,克拉玛依市,白碱滩区新站,细颗粒物(PM2.5),79,83,102,58,68,98,,88,88,17,33,9,9,0.9,1
2024-02-09T0800,2697A,76.1454,39.7142,克孜勒苏柯尔克孜自治州,市人民政府,,50,50,64,35,41,47,,49,49,9,14,4,5,0.7,0.8
2024-02-09T0800,3665A,76.1658,39.7157,克孜勒苏柯尔克孜自治州,克州文化中心,颗粒物(PM10),54,58,69,34,42,55,,57,57,10,20,4,6,0.6,0.9
2024-02-09T0800,1450A,102.8204,24.8886,昆明市,呈贡新区,,50,42,37,35,32,29,,36,36,11,8,3,6,0.9,0.6
2024-02-09T0800,1451A,102.6251,24.9608,昆明市,西山森林公园,,50,50,33,14,20,26,,47,47,13,7,6,7,1.4,0.8
2024-02-09T0800,1452A,102.7252,25.0902,昆明市,龙泉镇,细颗粒物(PM2.5),60,46,46,43,36,31,,38,38,13,19,8,8,0.9,0.5
2024-02-09T0800,1453A,102.7266,25.0375,昆明市,东风东路,细颗粒物(PM2.5),58,47,42,41,32,25,,36,36,14,14,9,10,1.0,0.7
2024-02-09T0800,1454A,102.6742,25.0669,昆明市,金鼎山,细颗粒物(PM2.5),63,45,46,45,34,31,,38,38,14,18,5,6,1.0,0.7
2024-02-09T0800,1455A,102.6644,25.0401,昆明市,碧鸡广场,细颗粒物(PM2.5),63,49,43,45,34,29,,41,41,14,14,7,8,1.0,0.7
2024-02-09T0800,3179A,102.7494,25.0119,昆明市,官渡区博物馆,细颗粒物(PM2.5),60,45,36,43,31,23,,33,33,16,11,7,8,1.0,0.6
2024-02-09T0800,3375A,102.8017,24.8336,昆明市,青年创业园,,39,35,40,27,29,31,,35,35,8,9,8,9,0.9,0.6
2024-02-09T0800,3550A,102.7997,24.9786,昆明市,昆明学院,,46,41,43,32,30,31,,31,31,7,6,7,8,0.9,0.6
2024-02-09T0800,3551A,102.5967,24.6736,昆明市,晋宁区生态环境分局,颗粒物(PM10),60,70,54,31,32,35,,44,44,11,11,3,5,1.0,0.6
2024-02-09T0800,3552A,102.6678,24.9856,昆明市,云天化总部,细颗粒物(PM2.5),58,50,40,41,29,24,,35,35,14,10,4,7,1.1,0.8
2024-02-09T0800,1456A,91.1319,29.6514,拉萨市,八廓街,,33,13,40,5,15,105,,114,114,4,6,5,7,0.2,0.3
2024-02-09T0800,1457A,91.1221,29.6747,拉萨市,市环保局,,34,,39,10,13,108,,116,116,7,9,6,6,0.4,0.5
2024-02-09T0800,1458A,91.0874,29.6475,拉萨市,区监测站,,34,13,31,5,9,108,,118,118,4,5,3,4,0.4,0.4
2024-02-09T0800,1459A,91.1774,29.6541,拉萨市,西藏大学,,34,8,41,6,10,106,,116,116,4,3,3,4,0.2,0.3
2024-02-09T0800,1460A,90.9798,29.6588,拉萨市,区辐射站,,35,9,32,8,11,110,,117,117,3,7,4,5,0.4,0.5
2024-02-09T0800,1461A,91.0834,29.6292,拉萨市,拉萨火车站,,35,11,28,6,10,110,,117,117,2,3,3,4,0.2,0.2
2024-02-09T0800,2520A,109.2203,23.7256,来宾市,来宾技工学校,,35,34,30,24,21,64,,63,63,5,7,5,5,0.6,0.7
2024-02-09T0800,3535A,109.1781,23.7297,来宾市,兴宾区政府,,35,28,25,24,20,65,,65,65,5,5,6,6,0.7,0.7
2024-02-09T0800,4002A,109.2416,23.7461,来宾市,中南小学,,35,26,30,24,25,65,,64,64,6,7,3,4,0.7,0.8
2024-02-09T0800,1476A,103.631,36.1031,兰州市,兰炼宾馆,细颗粒物(PM2.5),63,64,86,45,65,21,,47,47,40,38,19,16,0.8,0.9
2024-02-09T0800,1477A,104.1373,35.9454,兰州市,榆中兰大校区,,,,,,,,,,,,,,,,
2024-02-09T0800,1478A,103.8412,36.0726,兰州市,生物制品所,细颗粒物(PM2.5),73,91,85,53,67,9,,28,28,54,43,12,18,1.3,1.5
2024-02-09T0800,1479A,103.831,36.0464,兰州市,铁路设计院,细颗粒物(PM2.5),82,99,89,60,69,4,,20,20,68,56,27,22,2.4,1.6
2024-02-09T0800,3186A,103.7158,36.1058,兰州市,教育港,细颗粒物(PM2.5),60,43,64,43,55,14,,42,42,51,39,6,13,0.8,0.9
2024-02-09T0800,3241A,103.7439,36.0842,兰州市,百合公园,细颗粒物(PM2.5),72,71,74,52,57,10,,33,33,53,37,8,10,1.6,1.3
2024-02-09T0800,3242A,103.9611,35.998,兰州市,和平,细颗粒物(PM2.5),80,77,95,59,73,41,,57,57,36,28,13,15,1.2,1.3
2024-02-09T0800,3245A,103.6633,36.533,兰州新区,新区管委会,细颗粒物(PM2.5),55,51,63,39,49,36,,53,53,17,17,8,14,0.8,0.8
2024-02-09T0800,3246A,103.6975,36.4789,兰州新区,舟曲中学,细颗粒物(PM2.5),52,48,61,36,48,45,,57,57,30,23,18,16,0.7,0.7
2024-02-09T0800,1067A,116.6708,39.5111,廊坊市,药材公司,细颗粒物(PM2.5),199,188,100,149,78,21,,61,61,65,22,3,3,1.3,0.7
2024-02-09T0800,1068A,116.7214,39.5589,廊坊市,开发区,细颗粒物(PM2.5),188,155,81,141,71,43,,66,66,43,23,1,2,1.2,0.7
2024-02-09T0800,1070A,116.7244,39.5269,廊坊市,北华航天学院,细颗粒物(PM2.5),182,174,88,137,67,31,,61,61,53,25,2,4,1.4,0.7
2024-02-09T0800,2919A,116.7022,39.5453,廊坊市,河北工业大学,细颗粒物(PM2.5),203,180,99,153,85,37,,71,71,49,24,4,3,1.2,0.7
2024-02-09T0800,2535A,103.7723,29.5462,乐山市,花湖湾,细颗粒物(PM2.5),63,52,66,45,56,24,,31,31,8,13,4,6,0.7,0.7
2024-02-09T0800,2536A,103.7627,29.5844,乐山市,牛耳桥,细颗粒物(PM2.5),62,51,61,44,53,24,,34,34,22,25,4,10,0.9,0.9
2024-02-09T0800,2537A,103.7508,29.6006,乐山市,市第三水厂,细颗粒物(PM2.5),54,52,60,38,49,22,,37,37,26,25,4,7,1.0,0.9
2024-02-09T0800,2538A,103.7571,29.5664,乐山市,市监测站,细颗粒物(PM2.5),52,44,57,36,49,26,,35,35,20,19,6,13,0.7,0.7
2024-02-09T0800,3361A,103.7311,29.5628,乐山市,理工大学,,49,43,57,34,49,25,,33,33,14,19,5,17,0.8,0.9
2024-02-09T0800,2598A,100.2143,26.8576,丽江市,西南郊,,,,,,,,,,,,,,,,
2024-02-09T0800,2599A,100.2497,26.8802,丽江市,丽江古城,,33,33,30,14,18,84,,85,85,16,16,6,6,0.4,0.4
2024-02-09T0800,2600A,100.2203,26.8906,丽江市,市中心,,23,16,15,8,10,72,,84,84,22,11,8,8,0.5,0.4
2024-02-09T0800,1267A,119.914,28.4514,丽水市,监测站大楼,细颗粒物(PM2.5),88,,64,65,68,41,,52,52,13,12,4,4,0.8,0.7
2024-02-09T0800,1268A,119.93,28.4586,丽水市,莲都小学,细颗粒物(PM2.5),83,75,79,61,66,41,,54,54,15,14,4,4,0.8,0.7
2024-02-09T0800,1269A,119.879,28.4231,丽水市,余庄前,细颗粒物(PM2.5),68,59,63,49,58,23,,23,23,10,12,4,4,0.7,0.7
2024-02-09T0800,1173A,119.176,34.5885,连云港市,市环境监测站,细颗粒物(PM2.5),221,185,157,171,140,34,,57,57,51,52,8,13,1.5,1.5
2024-02-09T0800,3000A,119.3581,34.6972,连云港市,德源药业,细颗粒物(PM2.5),211,178,120,161,104,45,,56,56,39,37,10,13,1.2,1.1
2024-02-09T0800,3007A,119.178,34.844,连云港市,新城一中,细颗粒物(PM2.5),240,192,147,190,142,63,,80,80,28,30,12,15,1.4,1.3
2024-02-09T0800,3008A,119.3608,34.7519,连云港市,胡沟管理处,细颗粒物(PM2.5),203,180,127,153,103,78,,88,88,20,21,15,17,1.1,1
2024-02-09T0800,3009A,119.1478,34.5911,连云港市,矿山设计院,细颗粒物(PM2.5),211,200,172,161,135,51,,68,68,29,35,8,14,1.2,1.2
2024-02-09T0800,3434A,119.2413,34.6539,连云港市,工贸学校,细颗粒物(PM2.5),208,194,149,158,120,84,,95,95,26,24,14,18,1.2,1.1
2024-02-09T0800,3664A,119.4172,34.7341,连云港市,连云街道,细颗粒物(PM2.5),202,177,126,152,101,103,,106,106,22,28,27,19,1.3,1.4
2024-02-09T0800,2571A,102.3431,27.8099,凉山彝族自治州,青龙寺,,16,14,21,4,5,50,,56,56,4,5,4,5,1.0,0.9
2024-02-09T0800,2572A,102.2721,27.8415,凉山彝族自治州,邛海宾馆,,20,13,20,8,11,63,,60,60,5,5,7,7,0.9,0.9
2024-02-09T0800,2573A,102.2625,27.898,凉山彝族自治州,西昌市政府,,25,13,19,10,13,79,,70,70,4,5,6,8,0.8,0.8
2024-02-09T0800,2574A,102.2685,27.8851,凉山彝族自治州,凉山州政府,,20,13,19,11,13,63,,62,62,5,6,6,6,0.9,0.8
2024-02-09T0800,2575A,102.237,27.8914,凉山彝族自治州,长安,,26,18,22,10,13,83,,73,73,6,6,9,11,0.7,0.9
2024-02-09T0800,2212A,123.2,41.1953,辽阳市,宏伟区,细颗粒物(PM2.5),108,,120,81,107,39,,20,20,35,39,15,19,1.8,1.7
2024-02-09T0800,2213A,123.1683,41.2495,辽阳市,新华园,细颗粒物(PM2.5),140,111,124,107,111,26,,32,32,51,43,53,31,2.0,1.8
2024-02-09T0800,2214A,123.2354,41.2639,辽阳市,滨河路,细颗粒物(PM2.5),132,,109,100,112,32,,36,36,44,33,32,13,2.0,1.5
2024-02-09T0800,2215A,123.149,41.2991,辽阳市,铁西工业园,细颗粒物(PM2.5),163,127,126,124,118,13,,8,8,49,41,12,14,2.5,1.9
2024-02-09T0800,2227A,125.1358,42.8845,辽源市,环保局,细颗粒物(PM2.5),119,106,95,90,79,23,,24,24,49,41,14,14,1.6,1.4
2024-02-09T0800,3239A,125.0764,42.9078,辽源市,银鹰制药,细颗粒物(PM2.5),105,93,86,79,73,38,,41,41,33,26,7,7,1.8,1.3
2024-02-09T0800,1625A,115.9848,36.4372,聊城市,区政府,细颗粒物(PM2.5),180,143,147,136,132,76,,87,87,18,21,5,6,1.4,1.3
2024-02-09T0800,2878A,116.0072,36.4343,聊城市,聊大东校,细颗粒物(PM2.5),185,157,166,139,144,83,,90,90,19,21,6,7,1.3,1.3
2024-02-09T0800,3200A,115.9819,36.4978,聊城市,监控中心,细颗粒物(PM2.5),188,167,168,141,143,87,,99,99,20,30,6,7,1.3,1.4
2024-02-09T0800,3513A,116.0445,36.4361,聊城市,九州社区,细颗粒物(PM2.5),190,176,182,143,141,78,,86,86,20,21,4,5,1.1,1.2
2024-02-09T0800,4018A,116.0567,36.4608,聊城市,星美广场,细颗粒物(PM2.5),178,171,186,134,137,84,,87,87,16,20,3,3,1.2,1.2
2024-02-09T0800,2632A,94.3681,29.6376,林芝市,林芝监测站,,24,7,8,1,4,75,,78,78,2,2,4,4,0.5,0.5
2024-02-09T0800,2633A,94.3616,29.6616,林芝市,林芝人民医院,,25,12,11,10,7,80,,77,77,4,4,9,10,0.5,0.5
2024-02-09T0800,2603A,100.0781,23.8982,临沧市,市环保局,,39,37,48,27,40,38,,47,47,10,9,8,8,0.4,0.4
2024-02-09T0800,2604A,100.0894,23.8822,临沧市,市气象局,,46,34,53,32,44,39,,44,44,11,12,7,7,0.4,0.5
2024-02-09T0800,1733A,111.5531,36.0783,临汾市,临钢医院,细颗粒物(PM2.5),135,146,194,103,144,25,,46,46,28,27,6,11,1.3,1.7
2024-02-09T0800,1734A,111.5028,36.0714,临汾市,技工学校,细颗粒物(PM2.5),202,210,226,152,177,10,,34,34,46,33,9,16,1.6,1.8
2024-02-09T0800,1736A,111.5018,36.0855,临汾市,市委,细颗粒物(PM2.5),218,220,226,168,177,20,,42,42,38,28,6,13,1.7,1.8
2024-02-09T0800,3018A,111.505,36.1014,临汾市,唐尧大酒店,细颗粒物(PM2.5),214,191,211,164,177,14,,32,32,48,40,8,15,1.9,1.9
2024-02-09T0800,3668A,111.5036,36.0414,临汾市,城南,细颗粒物(PM2.5),166,164,211,126,172,13,,13,13,43,38,8,12,1.5,1.9
2024-02-09T0800,2667A,103.2069,35.5993,临夏回族自治州,环保局,颗粒物(PM10),58,65,77,32,41,27,,35,35,28,26,13,15,1.6,1.5
2024-02-09T0800,2668A,103.2417,35.6057,临夏回族自治州,建设大厦,颗粒物(PM10),65,79,69,28,38,44,,46,46,6,11,10,13,1.2,1.2
2024-02-09T0800,1618A,118.3429,35.0532,临沂市,沂河小区,细颗粒物(PM2.5),206,171,139,156,118,28,,49,49,55,38,11,15,1.7,1.3
2024-02-09T0800,1619A,118.295,35.0583,临沂市,鲁南制药厂,细颗粒物(PM2.5),217,197,143,167,118,46,,53,53,35,33,18,22,2.1,1.7
2024-02-09T0800,1620A,118.2794,34.9976,临沂市,新光毛纺厂,细颗粒物(PM2.5),208,200,143,158,112,44,,57,57,39,36,12,15,1.8,1.4
2024-02-09T0800,1621A,118.3956,35.0888,临沂市,河东保险公司,细颗粒物(PM2.5),199,168,145,149,121,20,,30,30,52,40,6,12,1.9,1.5
2024-02-09T0800,3370A,118.3564,35.0215,临沂市,十里堡居委,细颗粒物(PM2.5),221,202,143,171,115,29,,39,39,49,45,16,20,2.3,1.6
2024-02-09T0800,3496A,118.3604,35.1084,临沂市,南坊新区,细颗粒物(PM2.5),195,158,137,146,115,50,,56,56,36,38,9,13,1.6,1.4
2024-02-09T0800,3860A,118.3920,35.0300,临沂市,皇山花园小区,细颗粒物(PM2.5),193,180,140,145,108,50,,48,48,37,41,16,18,1.7,1.4
2024-02-09T0800,1870A,109.4856,24.3895,柳州市,柳东小学,,42,32,39,29,38,67,,63,63,7,8,8,6,0.4,0.5
2024-02-09T0800,1871A,109.4157,24.3277,柳州市,环保监测站,,46,33,28,32,25,69,,68,68,7,6,7,7,0.3,0.4
2024-02-09T0800,1872A,109.389,24.341,柳州市,河西水厂,,48,42,32,33,26,37,,50,50,37,17,19,11,1.9,0.8
2024-02-09T0800,1873A,109.4311,24.2921,柳州市,市四中,,42,29,27,29,22,69,,68,68,7,7,5,5,0.4,0.5
2024-02-09T0800,1874A,109.4006,24.3631,柳州市,市九中,,46,40,29,32,28,59,,60,60,11,7,3,3,0.7,0.6
2024-02-09T0800,1875A,109.4958,24.3134,柳州市,古亭山,,40,,26,28,27,65,,62,62,5,4,7,6,0.6,0.6
2024-02-09T0800,3402A,109.5422,24.3996,柳州市,市二中,,39,33,23,27,23,60,,55,55,8,8,6,6,0.7,0.7
2024-02-09T0800,2307A,116.5079,31.737,六安市,监测大楼,细颗粒物(PM2.5),77,56,87,56,83,56,,70,70,20,28,4,6,0.9,1.1
2024-02-09T0800,2308A,116.4738,31.7643,六安市,皖西学院,细颗粒物(PM2.5),65,56,100,47,82,46,,67,67,19,24,2,6,0.8,0.9
2024-02-09T0800,2309A,116.4996,31.7905,六安市,朝阳厂,细颗粒物(PM2.5),88,,97,65,98,58,,72,72,19,29,4,6,0.8,1
2024-02-09T0800,2310A,116.5567,31.7886,六安市,开发区,细颗粒物(PM2.5),83,80,104,61,81,44,,64,64,16,26,3,6,0.8,0.9
2024-02-09T0800,2576A,104.8,26.5892,六盘水市,窑上,,,,,,,,,,,,,,,,
2024-02-09T0800,2577A,104.83,26.5917,六盘水市,黄土坡,,16,14,22,11,15,38,,39,39,12,12,13,13,0.9,0.9
2024-02-09T0800,2578A,104.89,26.5939,六盘水市,水钢,,23,23,22,10,16,38,,40,40,19,11,12,8,1.2,0.9
2024-02-09T0800,2579A,104.8475,26.5894,六盘水市,民中,,13,10,20,9,13,39,,39,39,10,10,8,8,0.7,0.8
2024-02-09T0800,2580A,104.9544,26.5506,六盘水市,双水,,18,14,19,12,15,43,,44,44,5,8,8,9,0.6,0.7
2024-02-09T0800,2335A,117.0189,25.1181,龙岩市,龙岩师专,,,,,,,,,,,,,,,,
2024-02-09T0800,2336A,117.0217,25.1033,龙岩市,龙岩市监测站,,9,,7,6,4,21,,22,22,4,8,3,2,0.7,0.7
2024-02-09T0800,2337A,117.0258,25.0661,龙岩市,闽西职业技术学院,,7,5,4,4,4,22,,24,24,4,6,2,1,0.7,0.8
2024-02-09T0800,2338A,117.0196,25.0306,龙岩市,龙岩学院,,8,,7,4,5,19,,20,20,5,7,5,3,0.8,0.8
2024-02-09T0800,2665A,105.0822,33.3261,陇南市,汉王镇固水子,,,,,,,,,,,,,,,,
2024-02-09T0800,2885A,104.9339,33.3826,陇南市,滨江中学,颗粒物(PM10),59,67,70,41,52,20,,21,21,27,32,39,21,0.8,1.2
2024-02-09T0800,3247A,104.955,33.371,陇南市,市总工会,细颗粒物(PM2.5),53,53,58,37,41,26,,36,36,25,17,27,8,0.6,0.6
2024-02-09T0800,2487A,111.9589,27.8901,娄底市,电视发射台,细颗粒物(PM2.5),64,59,60,46,44,45,,50,50,4,5,4,4,0.8,0.8
2024-02-09T0800,2488A,111.9975,27.725,娄底市,市监测站,细颗粒物(PM2.5),95,82,92,71,78,12,,13,13,17,22,8,9,1.2,1.2
2024-02-09T0800,2489A,112.0194,27.7314,娄底市,市委党校,细颗粒物(PM2.5),84,71,86,62,75,18,,26,26,15,21,4,5,0.8,0.9
2024-02-09T0800,2490A,111.9561,27.7569,娄底市,涟钢,细颗粒物(PM2.5),87,75,84,64,69,17,,25,25,8,12,8,8,1.0,1
2024-02-09T0800,2491A,111.9892,27.7044,娄底市,市政府,细颗粒物(PM2.5),77,62,80,56,68,22,,24,24,10,17,6,6,1.0,1
2024-02-09T0800,1893A,105.4324,28.9634,泸州市,九狮山,细颗粒物(PM2.5),93,91,75,69,55,1,,3,3,17,13,5,5,0.4,0.5
2024-02-09T0800,1894A,105.4427,28.9063,泸州市,小市上码头,细颗粒物(PM2.5),89,84,75,66,57,15,,13,13,25,21,5,4,0.8,0.8
2024-02-09T0800,1895A,105.4241,28.8573,泸州市,兰田宪桥,细颗粒物(PM2.5),82,68,72,60,62,23,,18,18,13,17,3,4,0.6,0.7
2024-02-09T0800,1896A,105.4379,28.8833,泸州市,市环监站,细颗粒物(PM2.5),90,75,69,67,61,18,,21,21,16,16,3,2,0.7,0.7
2024-02-09T0800,3490A,105.3617,28.7703,泸州市,纳溪区环保局,细颗粒物(PM2.5),104,92,79,78,71,20,,17,17,16,18,9,5,0.9,1
2024-02-09T0800,2183A,111.1406,37.5211,吕梁市,环保局,细颗粒物(PM2.5),79,88,91,58,60,38,,51,51,26,29,2,5,0.7,0.7
2024-02-09T0800,2185A,111.1297,37.5136,吕梁市,自来水公司,细颗粒物(PM2.5),102,101,101,76,70,32,,38,38,31,30,7,10,0.7,0.8
2024-02-09T0800,2867A,111.1283,37.51,吕梁市,马茂庄小学,细颗粒物(PM2.5),90,104,106,67,68,28,,44,44,34,28,3,5,0.6,0.7
2024-02-09T0800,1812A,112.3931,34.6516,洛阳市,市委党校,细颗粒物(PM2.5),118,103,101,89,88,61,,71,71,24,21,5,8,0.9,0.9
2024-02-09T0800,1814A,112.4657,34.6871,洛阳市,豫西宾馆,细颗粒物(PM2.5),122,117,124,92,91,42,,58,58,42,29,8,11,0.5,0.5
2024-02-09T0800,1815A,112.494,34.6886,洛阳市,河南林校,细颗粒物(PM2.5),114,97,105,86,89,48,,58,58,25,23,4,9,1.1,1.2
2024-02-09T0800,1816A,112.3844,34.623,洛阳市,开发区管委会,细颗粒物(PM2.5),104,91,89,78,75,56,,62,62,20,18,3,5,0.9,0.9
2024-02-09T0800,1817A,112.4267,34.6258,洛阳市,市委新办公区,细颗粒物(PM2.5),104,81,94,78,88,61,,68,68,16,16,3,5,0.9,0.8
2024-02-09T0800,3340A,112.6005,34.6326,洛阳市,伊滨,细颗粒物(PM2.5),100,98,120,75,90,66,,72,72,13,17,3,5,0.8,0.8
2024-02-09T0800,3341A,112.4951,34.6332,洛阳市,中移产业园,细颗粒物(PM2.5),95,72,88,71,84,66,,74,74,12,15,5,6,0.8,0.9
2024-02-09T0800,3593A,112.5736,34.8993,洛阳市,吉利监测站,细颗粒物(PM2.5),77,,76,56,72,40,,62,62,26,18,5,7,0.8,0.9
2024-02-09T0800,3635A,112.3677,34.662,洛阳市,河科大西苑校区,细颗粒物(PM2.5),132,120,110,100,91,58,,78,78,28,18,4,5,0.7,0.8
2024-02-09T0800,3636A,112.4388,34.6781,洛阳市,英才小学,细颗粒物(PM2.5),137,122,115,104,95,52,,72,72,31,23,6,9,0.9,0.9
2024-02-09T0800,2399A,114.051,33.5699,漯河市,三五一五工厂,细颗粒物(PM2.5),134,110,111,102,107,74,,66,66,14,21,6,5,1.0,1
2024-02-09T0800,2400A,114.0055,33.5698,漯河市,漯河大学,细颗粒物(PM2.5),138,105,106,105,97,72,,72,72,12,15,5,6,1.1,1.1
2024-02-09T0800,2401A,114.0138,33.5828,漯河市,市水利局,细颗粒物(PM2.5),144,,114,110,108,77,,84,84,10,13,8,9,1.0,1
2024-02-09T0800,2402A,114.0261,33.5698,漯河市,市广电局,细颗粒物(PM2.5),138,110,113,105,103,74,,75,75,13,16,3,4,1.1,1.1
2024-02-09T0800,3478A,113.9749,33.5664,漯河市,市图书馆,细颗粒物(PM2.5),139,107,111,106,101,79,,78,78,11,16,9,9,0.9,0.8
2024-02-09T0800,3479A,114.0967,33.5906,漯河市,召陵区卫健委,细颗粒物(PM2.5),135,122,128,103,106,78,,73,73,11,19,8,8,1.0,1
2024-02-09T0800,1798A,118.5092,31.6837,马鞍山市,湖东路四小,细颗粒物(PM2.5),143,145,146,109,102,64,,79,79,47,38,10,15,1.0,1.3
2024-02-09T0800,1799A,118.5024,31.6449,马鞍山市,开发区,细颗粒物(PM2.5),149,117,126,114,110,45,,66,66,40,34,4,10,1.0,1.1
2024-02-09T0800,1800A,118.5228,31.7231,马鞍山市,慈湖,细颗粒物(PM2.5),158,,114,120,112,38,,61,61,58,37,6,12,1.1,1.2
2024-02-09T0800,1802A,118.6245,31.7241,马鞍山市,濮塘,细颗粒物(PM2.5),132,130,119,100,85,71,,80,80,24,16,5,8,1.0,1
2024-02-09T0800,3633A,118.4918,31.6809,马鞍山市,雨山,细颗粒物(PM2.5),155,137,132,118,106,56,,85,85,42,36,10,17,1.0,1.2
2024-02-09T0800,1686A,111.0286,21.4688,茂名市,电白南海,,22,22,25,7,13,24,,22,22,9,11,9,9,1.2,1.1
2024-02-09T0800,1687A,110.9294,21.6533,茂名市,茂石化七小,,24,24,15,14,12,25,,27,27,11,10,17,10,1.8,1.2
2024-02-09T0800,1688A,110.9107,21.6687,茂名市,健康路,,19,19,16,12,11,22,,20,20,10,8,13,10,1.5,1.1
2024-02-09T0800,1689A,110.8592,21.6828,茂名市,高岭,,18,,14,12,11,26,,25,25,8,9,9,15,0.9,0.9
2024-02-09T0800,3450A,111.01,21.5165,茂名市,电白水东,,10,7,21,5,16,31,,24,24,8,11,7,5,0.9,1
2024-02-09T0800,2539A,104.0308,30.0478,眉山市,黑龙滩水库,细颗粒物(PM2.5),74,60,66,54,49,47,,44,44,4,6,3,2,0.7,0.8
2024-02-09T0800,2540A,103.8416,30.0874,眉山市,气象局,颗粒物(PM10),56,61,71,36,59,21,,34,34,25,20,6,12,0.8,0.8
2024-02-09T0800,3137A,103.8578,30.0744,眉山市,市委党校,细颗粒物(PM2.5),55,48,71,39,59,28,,25,25,24,23,6,10,0.8,0.8
2024-02-09T0800,3148A,103.8291,30.0564,眉山市,区人社局,细颗粒物(PM2.5),58,50,59,41,57,14,,30,30,44,25,8,10,0.7,0.6
2024-02-09T0800,1690A,116.1231,24.3284,梅州市,梅江月梅,,10,,4,7,4,31,,30,30,5,6,8,8,0.8,0.9
2024-02-09T0800,1691A,116.0797,24.2719,梅州市,梅县新城,,18,,6,12,5,31,,32,32,5,6,5,5,0.6,0.7
2024-02-09T0800,1692A,116.1248,24.2654,梅州市,环境监控中心,,9,8,3,6,4,25,,29,29,10,8,4,4,0.8,0.8
2024-02-09T0800,3315A,116.1233,24.2991,梅州市,梅龙,,22,,5,15,6,31,,31,31,6,7,5,5,0.8,0.8
2024-02-09T0800,1878A,104.7778,31.4741,绵阳市,富乐山,细颗粒物(PM2.5),98,84,64,73,55,36,,34,34,11,18,6,6,0.8,0.8
2024-02-09T0800,1879A,104.7563,31.4535,绵阳市,市人大,细颗粒物(PM2.5),84,104,79,62,62,28,,29,29,23,30,5,5,0.8,0.8
2024-02-09T0800,1880A,104.6697,31.4668,绵阳市,高新区自来水公司,细颗粒物(PM2.5),169,139,97,128,82,3,,15,15,29,32,7,7,1.0,0.8
2024-02-09T0800,1881A,104.7287,31.5075,绵阳市,三水厂,细颗粒物(PM2.5),140,111,73,107,71,0,,7,7,20,23,5,5,1.1,0.9
2024-02-09T0800,3491A,104.69,31.5322,绵阳市,西科大附属小学,细颗粒物(PM2.5),133,113,85,101,75,3,,13,13,23,22,5,6,0.9,0.8
2024-02-09T0800,3492A,104.5648,31.5343,绵阳市,安州区旅游局,细颗粒物(PM2.5),114,118,95,86,80,5,,12,12,23,23,6,7,1.0,0.9
2024-02-09T0800,1784A,129.61,44.561,牡丹江市,环保大楼,细颗粒物(PM2.5),78,60,83,57,62,50,,46,46,28,37,10,15,0.9,0.9
2024-02-09T0800,1785A,129.6115,44.5782,牡丹江市,文化广场,细颗粒物(PM2.5),85,102,89,63,66,38,,45,45,36,37,14,16,1.2,1
2024-02-09T0800,1786A,129.5904,44.5963,牡丹江市,第一医院,细颗粒物(PM2.5),99,76,74,74,69,28,,28,28,46,40,14,15,1.0,1
2024-02-09T0800,1787A,129.6364,44.6075,牡丹江市,机车工厂,细颗粒物(PM2.5),89,97,78,66,55,21,,16,16,44,41,10,12,1.1,0.9
2024-02-09T0800,1788A,129.6386,44.5462,牡丹江市,第一中学,细颗粒物(PM2.5),57,44,56,40,44,41,,52,52,30,20,12,13,0.7,0.7
2024-02-09T0800,2531A,105.0703,29.61,内江市,市监测站,细颗粒物(PM2.5),95,78,52,71,54,7,,13,13,26,22,8,8,1.1,0.9
2024-02-09T0800,2532A,105.0717,29.5947,内江市,东兴区政府,细颗粒物(PM2.5),83,,50,61,46,7,,16,16,18,15,8,8,0.9,0.7
2024-02-09T0800,2533A,105.0653,29.5817,内江市,内江二中,细颗粒物(PM2.5),88,,48,65,49,7,,16,16,19,16,4,4,1.0,0.9
2024-02-09T0800,2534A,105.0406,29.5822,内江市,内江日报社,细颗粒物(PM2.5),89,81,50,66,46,6,,14,14,26,20,5,4,1.0,0.8
2024-02-09T0800,2628A,92.0657,31.4846,那曲市,那曲监测站,,22,9,34,7,17,70,,75,75,6,8,4,6,0.7,0.6
2024-02-09T0800,3128A,92.0506,31.4797,那曲市,那曲会议中心,,25,17,32,9,10,78,,86,86,5,5,6,6,0.4,0.4
2024-02-09T0800,1290A,115.8931,28.6843,南昌市,省外办,细颗粒物(PM2.5),100,102,93,75,75,32,,62,62,24,20,4,6,1.1,0.9
2024-02-09T0800,1291A,115.8886,28.7003,南昌市,省林业公司,细颗粒物(PM2.5),100,83,75,75,67,41,,72,72,35,20,5,6,1.0,0.8
2024-02-09T0800,1292A,115.8126,28.7442,南昌市,林科所,细颗粒物(PM2.5),89,70,72,66,64,62,,83,83,10,11,6,7,0.8,0.8
2024-02-09T0800,1294A,115.8518,28.687,南昌市,建工学校,细颗粒物(PM2.5),102,96,83,76,60,46,,73,73,28,22,5,6,0.9,0.8
2024-02-09T0800,1295A,115.8921,28.6424,南昌市,象湖,细颗粒物(PM2.5),97,81,73,72,71,30,,72,72,36,21,4,6,1.0,0.8
2024-02-09T0800,1296A,115.7423,28.7996,南昌市,武术学校,,49,49,56,23,51,20,,34,34,3,3,6,7,0.9,0.9
2024-02-09T0800,1298A,115.9314,28.6842,南昌市,省站,细颗粒物(PM2.5),110,103,85,83,74,48,,73,73,24,17,6,8,0.9,0.8
2024-02-09T0800,3046A,115.9084,28.6062,南昌市,机电学校,细颗粒物(PM2.5),110,97,92,83,75,36,,74,74,26,21,7,8,0.5,0.4
2024-02-09T0800,3690A,115.9721,28.7031,南昌市,外国语学校,细颗粒物(PM2.5),99,86,82,74,69,44,,65,65,16,20,6,7,0.7,0.6
2024-02-09T0800,1905A,106.056,30.8064,南充市,西山风景区,细颗粒物(PM2.5),75,68,41,55,47,3,,16,16,18,12,2,2,1.0,0.9
2024-02-09T0800,1906A,106.0789,30.8023,南充市,南充市委,颗粒物(PM10),60,70,57,41,40,3,,3,3,19,24,4,4,0.8,0.7
2024-02-09T0800,1907A,106.1031,30.8217,南充市,南充炼油厂,细颗粒物(PM2.5),68,61,65,49,53,7,,2,2,10,21,4,4,0.5,0.6
2024-02-09T0800,1908A,106.1064,30.7856,南充市,高坪区监测站,细颗粒物(PM2.5),70,73,63,51,48,4,,8,8,15,18,5,5,0.8,0.7
2024-02-09T0800,1909A,106.0642,30.7636,南充市,嘉陵区环保局,细颗粒物(PM2.5),70,67,63,51,47,4,,4,4,14,21,2,2,0.8,0.8
2024-02-09T0800,1910A,106.1087,30.8388,南充市,市环境监测站,细颗粒物(PM2.5),80,74,63,59,51,4,,4,4,18,22,6,6,0.6,0.6
2024-02-09T0800,1151A,118.8086,32.1065,南京市,迈皋桥,细颗粒物(PM2.5),140,128,129,107,106,40,,58,58,36,27,3,6,0.8,0.9
2024-02-09T0800,1152A,118.7538,32.0551,南京市,草场门,细颗粒物(PM2.5),134,114,119,102,101,84,,96,96,37,30,2,9,1.0,0.9
2024-02-09T0800,1153A,118.7794,32.0745,南京市,山西路,细颗粒物(PM2.5),138,112,121,105,111,65,,73,73,43,33,4,13,1.0,1.1
2024-02-09T0800,1154A,118.7752,32.0023,南京市,中华门,细颗粒物(PM2.5),138,114,117,105,102,47,,86,86,53,31,6,10,0.9,0.9
2024-02-09T0800,1155A,118.8109,32.0309,南京市,瑞金路,细颗粒物(PM2.5),144,132,132,110,105,23,,59,59,67,40,4,5,1.3,1.3
2024-02-09T0800,1156A,118.7997,32.0754,南京市,玄武湖,细颗粒物(PM2.5),149,150,137,114,105,38,,84,84,41,21,7,13,0.8,0.6
2024-02-09T0800,1157A,118.6414,32.0931,南京市,浦口,细颗粒物(PM2.5),120,144,137,91,90,87,,100,100,26,22,4,7,0.8,0.5
2024-02-09T0800,1158A,118.7356,31.9996,南京市,奥体中心,细颗粒物(PM2.5),132,115,128,100,102,61,,91,91,42,29,5,8,1.0,1
2024-02-09T0800,1159A,118.9125,32.1028,南京市,仙林大学城,细颗粒物(PM2.5),160,134,120,122,106,26,,46,46,53,36,4,7,1.2,1.2
2024-02-09T0800,3422A,118.8436,31.9198,南京市,江宁彩虹桥,细颗粒物(PM2.5),125,134,136,95,100,47,,77,77,40,28,3,5,0.8,0.9
2024-02-09T0800,3423A,119.0138,31.6494,南京市,溧水永阳,,,,116,,121,,,111,,,24,,4,,1.2
2024-02-09T0800,3424A,118.879,31.3302,南京市,高淳老职中,细颗粒物(PM2.5),134,113,123,102,111,62,,73,73,16,21,7,7,0.9,0.9
2024-02-09T0800,3427A,118.8554,32.3578,南京市,六合雄州,细颗粒物(PM2.5),100,133,128,75,90,87,,103,103,20,19,3,5,1.1,1.1
2024-02-09T0800,1401A,108.3103,22.7881,南宁市,二十一中,,32,23,24,22,22,60,,59,59,9,10,7,6,0.7,0.7
2024-02-09T0800,1402A,108.3141,22.8528,南宁市,北湖,,23,23,23,16,12,56,,56,56,5,7,4,4,0.6,0.7
2024-02-09T0800,1403A,108.3206,22.8225,南宁市,市监测站,,33,,23,23,20,55,,58,58,10,9,6,6,0.7,0.8
2024-02-09T0800,1404A,108.3829,22.8037,南宁市,大自然花园,,25,20,24,17,16,56,,58,58,10,10,6,6,0.6,0.6
2024-02-09T0800,1405A,108.4394,22.7904,南宁市,仙葫,,25,,19,17,13,58,,59,59,8,9,7,6,0.8,0.9
2024-02-09T0800,1406A,108.2397,22.8467,南宁市,区农职院,,28,,20,19,14,59,,57,57,8,9,7,7,0.7,0.7
2024-02-09T0800,1407A,108.3275,22.735,南宁市,英华嘉园,,25,21,21,17,17,52,,53,53,9,10,5,5,0.6,0.7
2024-02-09T0800,1408A,108.2257,22.7757,南宁市,沙井镇街道办,,29,25,22,20,15,55,,55,55,4,8,8,8,0.6,0.6
2024-02-09T0800,3401A,108.4834,22.7618,南宁市,红星社区,,25,23,18,17,20,66,,64,64,6,7,7,8,0.5,0.7
2024-02-09T0800,2331A,118.0966,26.6761,南平市,茫荡山,,,,,,,,,,,,,,,,
2024-02-09T0800,2332A,118.1681,26.6369,南平市,南平市监测站,,,26,10,16,7,44,,36,36,7,7,,4,0.7,0.7
2024-02-09T0800,2333A,118.1825,26.6489,南平市,南平铝业有限公司,,39,,11,27,10,46,,38,38,5,4,5,6,0.6,0.5
2024-02-09T0800,2334A,118.1756,26.6272,南平市,南平七中,,33,,11,23,9,50,,37,37,4,4,8,9,1.0,1
2024-02-09T0800,1168A,120.9098,31.9663,南通市,狼山街道,细颗粒物(PM2.5),189,149,105,142,97,77,,66,66,20,19,8,9,1.0,0.9
2024-02-09T0800,1169A,120.86,32.0005,南通市,虹桥,细颗粒物(PM2.5),207,174,119,157,105,93,,83,83,24,25,5,6,1.0,0.8
2024-02-09T0800,1170A,120.87,32.02,南通市,城中,细颗粒物(PM2.5),211,185,121,161,100,85,,74,74,27,25,6,6,1.2,1.1
2024-02-09T0800,1171A,120.94,31.93,南通市,星湖花园,细颗粒物(PM2.5),185,164,109,139,87,62,,49,49,50,30,7,7,1.1,0.9
2024-02-09T0800,1172A,120.81,32.0417,南通市,紫琅学院,细颗粒物(PM2.5),199,164,117,149,103,87,,76,76,20,23,7,8,1.0,1
2024-02-09T0800,3291A,121.067,32.062,南通市,通州监测站,,,,,,,,,,,,,,,,
2024-02-09T0800,3432A,120.9348,31.9883,南通市,环境教育馆,细颗粒物(PM2.5),169,146,103,128,95,62,,60,60,44,25,6,8,1.2,1.1
2024-02-09T0800,2404A,112.5224,33.0122,南阳市,瓦房庄,细颗粒物(PM2.5),149,,92,114,101,40,,66,66,25,21,7,9,0.9,0.8
2024-02-09T0800,2405A,112.5003,32.9735,南阳市,汉画馆,细颗粒物(PM2.5),143,114,102,109,99,46,,61,61,21,20,6,7,1.0,0.9
2024-02-09T0800,2406A,112.5573,33.027,南阳市,气象站,细颗粒物(PM2.5),144,,97,110,101,54,,71,71,21,24,7,9,1.1,0.9
2024-02-09T0800,2407A,112.5481,32.9689,南阳市,理工学院,细颗粒物(PM2.5),112,97,93,84,88,55,,64,64,13,19,4,7,0.9,0.8
2024-02-09T0800,4008A,112.5234,32.9922,南阳市,卧龙区政府,细颗粒物(PM2.5),135,103,92,103,88,39,,61,61,26,24,5,7,0.9,0.8
2024-02-09T0800,1234A,121.8358,29.911,宁波市,区环保大楼,细颗粒物(PM2.5),127,106,65,96,51,71,,72,72,30,19,8,8,0.9,0.7
2024-02-09T0800,1235A,121.56,29.82,宁波市,万里学院,细颗粒物(PM2.5),100,93,64,75,50,61,,73,73,24,21,7,7,0.8,0.7
2024-02-09T0800,1236A,121.713,29.9572,宁波市,龙赛医院,细颗粒物(PM2.5),109,106,65,82,47,74,,84,84,24,22,5,5,0.9,0.8
2024-02-09T0800,1239A,121.633,29.7733,宁波市,钱湖水厂,细颗粒物(PM2.5),95,80,59,71,50,71,,73,73,6,9,5,6,0.9,0.8
2024-02-09T0800,1240A,121.5856,29.8635,宁波市,太古小学,细颗粒物(PM2.5),114,93,60,86,54,81,,84,84,19,16,8,8,1.1,0.9
2024-02-09T0800,1241A,121.524,29.8674,宁波市,市环境监测中心,细颗粒物(PM2.5),79,102,67,58,43,66,,76,76,27,17,6,7,0.9,0.8
2024-02-09T0800,2871A,121.6147,29.9017,宁波市,万里国际学校,细颗粒物(PM2.5),122,,58,92,57,85,,83,83,19,17,8,8,0.9,0.8
2024-02-09T0800,3710A,121.5594,29.8975,宁波市,白沙活动中心,细颗粒物(PM2.5),107,95,63,80,47,81,,80,80,19,18,7,8,1.0,0.9
2024-02-09T0800,2339A,119.5001,26.6946,宁德市,金涵水库,,,,,,,,,,,,,,,,
2024-02-09T0800,2341A,119.5388,26.6612,宁德市,宁德市监测站,,49,,23,34,27,42,,51,51,13,9,5,5,0.8,0.7
2024-02-09T0800,3209A,119.5231,26.6562,宁德市,宁德一中,,36,26,26,25,18,49,,54,54,11,13,4,4,0.6,0.6
2024-02-09T0800,2618A,98.8601,25.8567,怒江傈僳族自治州,州监测站,,25,22,33,17,23,48,,48,48,3,6,9,9,0.3,0.4
2024-02-09T0800,2619A,98.8546,25.8417,怒江傈僳族自治州,泸水一中,,17,17,31,10,25,26,,31,31,9,12,8,8,0.4,0.4
2024-02-09T0800,1888A,101.6891,26.571,攀枝花市,弄弄坪,颗粒物(PM10),54,58,43,27,29,31,,56,56,38,26,19,26,1.1,1.7
2024-02-09T0800,1889A,101.5769,26.5928,攀枝花市,河门口,,48,48,35,28,23,29,,36,36,19,14,36,16,0.8,0.7
2024-02-09T0800,1890A,101.7169,26.585,攀枝花市,炳草岗,,44,44,33,22,20,35,,45,45,29,22,18,17,0.9,0.9
2024-02-09T0800,1891A,101.7369,26.5008,攀枝花市,仁和,,36,36,29,24,22,51,,62,62,14,13,6,6,0.6,0.6
2024-02-09T0800,2835A,101.7227,26.567,攀枝花市,四十中小,,28,28,31,15,18,66,,73,73,10,15,11,13,0.6,0.6
2024-02-09T0800,1604A,122.0303,41.1489,盘锦市,开发区,细颗粒物(PM2.5),87,,59,64,46,34,,34,34,50,32,16,13,1.4,0.9
2024-02-09T0800,1605A,122.0485,41.0883,盘锦市,兴隆台,细颗粒物(PM2.5),147,134,68,112,54,18,,38,38,57,32,29,17,2.6,1.1
2024-02-09T0800,1606A,121.8297,41.1028,盘锦市,新生街道,细颗粒物(PM2.5),127,,56,96,46,30,,37,37,25,25,15,16,1.3,0.8
2024-02-09T0800,1832A,113.3257,33.742,平顶山市,新华旅馆,细颗粒物(PM2.5),120,130,186,91,146,56,,33,33,26,35,8,10,1.0,1.1
2024-02-09T0800,1833A,113.2919,33.737,平顶山市,规划设计院,细颗粒物(PM2.5),138,126,209,105,175,38,,26,26,29,34,9,10,1.3,1.4
2024-02-09T0800,1834A,113.182,33.774,平顶山市,平顶山工学院,细颗粒物(PM2.5),119,112,143,90,118,71,,66,66,14,17,4,5,1.0,1.1
2024-02-09T0800,3204A,113.3025,33.73,平顶山市,规划局,细颗粒物(PM2.5),138,127,196,105,170,46,,31,31,26,33,6,9,1.0,1.1
2024-02-09T0800,3594A,112.8867,33.9116,平顶山市,石龙区,细颗粒物(PM2.5),89,71,112,66,101,88,,84,84,7,15,5,7,0.7,1
2024-02-09T0800,2656A,106.6692,35.5461,平凉市,聚贤嘉苑,,35,35,70,18,46,67,,70,70,21,21,12,8,0.3,0.7
2024-02-09T0800,2657A,106.7021,35.5307,平凉市,博物馆,颗粒物(PM10),56,61,78,33,58,60,,63,63,5,18,18,13,0.6,1
2024-02-09T0800,2347A,114.0997,27.5002,萍乡市,武功山,,42,36,47,29,42,46,,45,45,9,11,6,8,1.1,1.4
2024-02-09T0800,2348A,113.8385,27.6434,萍乡市,中医院,细颗粒物(PM2.5),80,74,102,59,87,36,,38,38,15,18,5,6,1.3,1.3
2024-02-09T0800,2349A,113.8493,27.6253,萍乡市,市政府车库,细颗粒物(PM2.5),75,61,103,55,100,37,,40,40,10,12,10,9,1.1,1.1
2024-02-09T0800,2350A,113.8676,27.6435,萍乡市,市环保局,细颗粒物(PM2.5),99,83,109,74,98,33,,38,38,15,19,6,6,1.3,1.3
2024-02-09T0800,2351A,113.866,27.6198,萍乡市,安源区政府,细颗粒物(PM2.5),77,60,98,56,86,40,,39,39,11,13,6,6,1.1,1.1
2024-02-09T0800,2319A,119.0141,25.4325,莆田市,荔城区仓后路,细颗粒物(PM2.5),57,,33,40,31,58,,53,53,10,12,7,7,0.9,0.9
2024-02-09T0800,2320A,119.0015,25.4553,莆田市,莆田市监测站,,49,,30,34,28,45,,43,43,13,14,9,9,0.6,0.6
2024-02-09T0800,2321A,119.1119,25.4561,莆田市,涵江区六中,,50,,28,35,24,63,,60,60,8,8,8,8,0.9,0.9
2024-02-09T0800,2322A,119.1013,25.3215,莆田市,秀屿区政府,细颗粒物(PM2.5),58,,25,41,26,68,,73,73,7,7,6,5,0.9,0.8
2024-02-09T0800,2323A,118.981,25.4792,莆田市,东圳水库,,,,,,,,,,,,,,,,
2024-02-09T0800,2392A,115.0312,35.7636,濮阳市,环保局,细颗粒物(PM2.5),159,123,147,121,134,58,,80,80,16,19,4,5,1.0,1
2024-02-09T0800,2394A,115.0574,35.7609,濮阳市,油田运输公司,细颗粒物(PM2.5),153,140,162,117,136,63,,77,77,15,23,6,6,1.2,1.2
2024-02-09T0800,2395A,115.0866,35.7754,濮阳市,油田物探公司,细颗粒物(PM2.5),159,148,171,121,143,55,,76,76,20,24,4,5,1.1,1.1
2024-02-09T0800,3021A,115,35.7668,濮阳市,濮水河管理处,细颗粒物(PM2.5),148,128,153,113,143,55,,69,69,18,25,5,5,1.0,1
2024-02-09T0800,2601A,100.98,22.7633,普洱市,市环保局,细颗粒物(PM2.5),58,49,62,41,45,36,,43,43,7,9,4,5,0.4,0.4
2024-02-09T0800,2602A,100.9817,22.8322,普洱市,普洱第二中学,,45,39,58,31,40,20,,27,27,20,16,4,4,0.6,0.5
2024-02-09T0800,2262A,131.0518,45.8751,七台河市,新一中,细颗粒物(PM2.5),83,80,47,61,41,82,,83,83,18,14,10,11,1.0,0.8
2024-02-09T0800,3345A,131.0577,45.7879,七台河市,中波台,细颗粒物(PM2.5),109,87,68,82,61,43,,51,51,56,42,13,15,1.8,1
2024-02-09T0800,3637A,131.0176,45.7761,七台河市,人民广场,细颗粒物(PM2.5),163,,73,124,61,22,,42,42,66,45,11,14,2.0,1.1
2024-02-09T0800,3684A,130.8781,45.8222,七台河市,新建矿广场,细颗粒物(PM2.5),74,83,43,54,45,63,,71,71,32,21,7,12,0.9,0.7
2024-02-09T0800,1779A,123.9305,47.3636,齐齐哈尔市,安居小区,细颗粒物(PM2.5),60,54,53,43,29,49,,37,37,18,28,5,8,0.6,0.6
2024-02-09T0800,1780A,123.9488,47.3386,齐齐哈尔市,中心广场,细颗粒物(PM2.5),77,66,57,56,42,49,,35,35,16,29,7,8,0.7,0.7
2024-02-09T0800,1781A,123.9483,47.3227,齐齐哈尔市,农牧车辆厂,颗粒物(PM10),56,61,47,34,26,47,,32,32,17,26,12,10,0.7,0.6
2024-02-09T0800,1783A,123.945,47.2988,齐齐哈尔市,市环境监测站,细颗粒物(PM2.5),60,67,52,43,34,33,,28,28,35,24,5,6,0.6,0.6
2024-02-09T0800,3662A,123.6333,47.2075,齐齐哈尔市,富区青少年活动中心,颗粒物(PM10),58,66,66,39,31,43,,38,38,12,19,7,13,0.8,0.7
2024-02-09T0800,2591A,107.9783,26.5747,黔东南苗族侗族自治州,市环境监测站,细颗粒物(PM2.5),55,45,40,39,34,28,,50,50,22,16,9,7,0.6,0.5
2024-02-09T0800,2881A,107.8908,26.5311,黔东南苗族侗族自治州,凯里学院,,49,40,37,34,31,40,,53,53,7,8,4,5,0.6,0.7
2024-02-09T0800,2593A,107.5228,26.2403,黔南布依族苗族自治州,小围寨,细颗粒物(PM2.5),62,,31,44,30,31,,45,45,6,6,4,5,0.5,0.6
2024-02-09T0800,3538A,107.5175,26.2978,黔南布依族苗族自治州,沙坝,细颗粒物(PM2.5),58,48,37,41,37,26,,38,38,8,5,5,5,0.7,0.7
2024-02-09T0800,2589A,104.9022,25.0925,黔西南布依族苗族自治州,场坝街,,36,36,37,25,31,50,,46,46,7,10,2,2,0.7,0.7
2024-02-09T0800,2590A,104.8811,25.0992,黔西南布依族苗族自治州,坪东大道,,39,35,42,27,27,48,,45,45,6,8,2,2,0.6,0.6
2024-02-09T0800,2502A,108.6236,21.9667,钦州市,市环保站,,29,29,28,17,18,60,,58,58,7,9,5,6,0.9,1.1
2024-02-09T0800,2503A,108.6549,21.9481,钦州市,沙埠小学,,25,25,26,16,13,61,,58,58,6,8,7,7,0.9,1
2024-02-09T0800,2504A,108.5989,21.7431,钦州市,港区一小,,37,37,35,18,19,56,,52,52,11,13,9,8,0.6,0.7
2024-02-09T0800,3404A,108.5959,21.9633,钦州市,北职校,,30,23,25,21,23,60,,58,58,6,6,6,6,0.7,0.8
2024-02-09T0800,1042A,119.5134,39.8207,秦皇岛市,北戴河环保局,细颗粒物(PM2.5),135,120,61,103,44,19,,40,40,43,29,10,10,2.9,1
2024-02-09T0800,1043A,119.7493,40.0116,秦皇岛市,第一关,细颗粒物(PM2.5),88,118,68,65,44,12,,30,30,49,34,12,14,1.7,0.8
2024-02-09T0800,1044A,119.5897,39.9499,秦皇岛市,监测站,细颗粒物(PM2.5),75,72,76,55,55,17,,17,17,54,45,10,13,1.3,0.9
2024-02-09T0800,1046A,119.5251,39.9041,秦皇岛市,建设大厦,细颗粒物(PM2.5),85,113,70,63,44,13,,24,24,42,30,6,8,1.6,0.8
2024-02-09T0800,3132A,119.610547,39.943889,秦皇岛市,文明里,细颗粒物(PM2.5),73,94,82,53,50,20,,24,24,52,41,8,10,1.4,0.8
2024-02-09T0800,1307A,120.6659,36.2403,青岛市,仰口,细颗粒物(PM2.5),89,78,81,66,67,95,,101,101,16,16,10,11,0.8,0.8
2024-02-09T0800,1310A,120.4134,36.0658,青岛市,市南区东部子站,细颗粒物(PM2.5),100,90,108,75,84,24,,30,30,68,48,12,15,1.1,1.2
2024-02-09T0800,1311A,120.3664,36.1032,青岛市,四方区子站,细颗粒物(PM2.5),122,97,115,92,101,9,,12,12,79,60,8,11,1.8,1.6
