timepoint,stationcode,longitude,latitude,area,positionname,primarypollutant,aqi,pm10,pm10_24h,pm2_5,pm2_5_24h,o3,o3_24h,o3_8h,o3_8h_24h,no2,no2_24h,so2,so2_24h,co,co_24h
2024-05-16T2300,2566A,102.1879,31.914,阿坝藏族羌族自治州,州农科所,,19,16,23,13,8,41,,43,43,10,14,2,3,0,0.2
2024-05-16T2300,2568A,102.2502,31.8896,阿坝藏族羌族自治州,马师校,,29,,10,17,13,90,,106,104,8,9,3,4,0.3,0.3
2024-05-16T2300,3994A,102.2165,31.9024,阿坝藏族羌族自治州,马尔康中学西区,,35,20,18,11,12,110,,112,111,4,7,4,3,0.3,0.3
2024-05-16T2300,2695A,80.292,41.1694,阿克苏地区,电视台,颗粒物(PM10),185,320,290,86,81,23,,98,88,79,32,5,6,0.9,0.5
2024-05-16T2300,2696A,80.2613,41.1551,阿克苏地区,艺术中心,颗粒物(PM10),164,278,270,103,89,0,,100,84,110,44,5,5,1.3,0.7
2024-05-16T2300,2204A,105.6467,38.8363,阿拉善盟,西城区西花园,颗粒物(PM10),109,168,130,41,27,104,,148,127,18,15,9,10,0.8,0.7
2024-05-16T2300,2205A,105.6985,38.8411,阿拉善盟,蒙二幼,颗粒物(PM10),116,182,140,51,69,118,,146,134,5,9,8,10,0.4,0.5
2024-05-16T2300,2206A,105.724,38.8516,阿拉善盟,环保局新楼,颗粒物(PM10),108,165,135,67,60,132,,147,139,4,7,9,10,0.5,0.5
2024-05-16T2300,2708A,88.1264,47.8517,阿勒泰地区,市站,颗粒物(PM10),64,77,31,18,10,75,,109,95,3,5,5,5,0.4,0.2
2024-05-16T2300,2630A,80.1161,32.5,阿里地区,阿里监测站,,37,20,19,9,7,116,,144,136,21,11,8,8,0.5,0.4
2024-05-16T2300,3192A,80.0903,32.5028,阿里地区,阿里藏医院,,41,17,20,3,6,130,,147,141,7,8,7,8,0.4,0.5
2024-05-16T2300,2642A,109.0318,32.6537,安康市,香溪洞,细颗粒物(PM2.5),60,58,48,43,22,116,,147,143,7,7,7,8,0.6,0.5
2024-05-16T2300,2643A,109.0281,32.6939,安康市,安康市监测站,颗粒物(PM10),79,107,60,56,26,71,,149,121,20,12,12,11,0.8,0.5
2024-05-16T2300,2644A,109.0072,32.6975,安康市,汉滨区检察院,颗粒物(PM10),58,65,48,36,23,75,,146,122,13,10,7,10,0.5,0.4
2024-05-16T2300,2291A,117.0809,30.5177,安庆市,环科院,颗粒物(PM10),69,87,60,34,28,115,,163,140,37,26,7,8,0.5,0.4
2024-05-16T2300,2292A,117.0331,30.5119,安庆市,马山宾馆,颗粒物(PM10),82,113,58,57,28,47,,175,120,96,32,13,10,0.6,0.4
2024-05-16T2300,2294A,116.9896,30.6145,安庆市,安庆大学,细颗粒物(PM2.5),93,98,57,69,27,117,,168,150,29,20,12,10,0.6,0.4
2024-05-16T2300,3173A,117.0598,30.5351,安庆市,市人大,颗粒物(PM10),73,96,60,48,28,87,,173,144,52,19,11,8,0.7,0.5
2024-05-16T2300,3123A,105.9408,26.2431,安顺市,凤凰山,,28,28,28,17,22,77,,100,92,8,7,5,8,0.7,0.7
2024-05-16T2300,3124A,105.9439,26.2564,安顺市,金钟山,,30,30,29,18,21,79,,99,91,8,6,4,6,0.6,0.4
2024-05-16T2300,3125A,105.8983,26.2481,安顺市,娄家坡,,42,42,39,22,24,81,,103,92,4,5,7,8,0.5,0.5
2024-05-16T2300,1819A,114.3551,36.1017,安阳市,红庙街,,42,30,90,13,24,132,,181,172,7,18,8,8,0.5,0.6
2024-05-16T2300,1820A,114.361,36.0681,安阳市,银杏小区,颗粒物(PM10),55,60,90,14,33,128,,177,168,4,19,6,16,0.4,0.5
2024-05-16T2300,3141A,114.3922,36.0878,安阳市,信访局,颗粒物(PM10),116,182,111,14,23,136,,180,171,7,23,4,6,0.6,0.6
2024-05-16T2300,3669A,114.4705,36.0637,安阳市,左辅环卫站,,38,32,69,10,24,120,,170,160,11,16,6,9,0.8,0.7
2024-05-16T2300,3703A,114.2917,36.0949,安阳市,安钢职工学校,,41,41,87,21,26,128,,173,166,12,23,8,20,0.4,0.5
2024-05-16T2300,1748A,123.044,41.1196,鞍山市,深沟寺,,,62,37,30,20,,,113,,28,18,12,11,1.2,0.7
2024-05-16T2300,1749A,123.011,41.0931,鞍山市,太阳城,颗粒物(PM10),55,60,36,25,14,67,,118,99,37,18,17,11,1.9,0.9
2024-05-16T2300,1750A,123.0485,41.1442,鞍山市,太平,颗粒物(PM10),57,63,63,26,25,84,,116,94,29,28,10,10,0.9,0.7
2024-05-16T2300,1751A,122.9642,41.0971,鞍山市,铁西三道街,颗粒物(PM10),80,110,70,44,27,41,,114,69,73,41,13,15,1.0,1.1
2024-05-16T2300,1752A,122.9341,41.0833,鞍山市,铁西工业园区,颗粒物(PM10),99,147,104,60,33,56,,110,71,43,43,13,19,1.1,1.1
2024-05-16T2300,1753A,123.022,41.0821,鞍山市,明达新区,颗粒物(PM10),51,51,42,27,17,63,,115,89,37,20,16,14,1.4,0.9
2024-05-16T2300,2195A,107.4212,40.761,巴彦淖尔市,附二中,颗粒物(PM10),112,174,138,58,50,88,,126,102,30,35,2,7,0.4,0.4
2024-05-16T2300,2196A,107.37,40.7372,巴彦淖尔市,市环保大楼,颗粒物(PM10),115,180,140,68,40,72,,122,102,26,25,4,5,0.4,0.4
2024-05-16T2300,1956A,86.1472,41.7538,巴音郭楞蒙古自治州,孔雀公园,颗粒物(PM10),202,351,446,96,137,72,,83,71,35,29,7,11,0.3,0.3
2024-05-16T2300,1957A,86.1972,41.7166,巴音郭楞蒙古自治州,棉纺厂,颗粒物(PM10),500,637,561,120,160,78,,90,83,15,22,3,4,0.2,0.3
2024-05-16T2300,1958A,86.2357,41.7173,巴音郭楞蒙古自治州,经济开发区,颗粒物(PM10),289,412,535,100,155,87,,98,94,9,10,7,8,0.2,0.2
2024-05-16T2300,2914A,106.7677,31.8794,巴中市,苏山坪,颗粒物(PM10),54,58,65,36,43,126,,135,130,10,12,6,6,0.4,0.5
2024-05-16T2300,3182A,106.7656,31.8545,巴中市,丽阳花园,细颗粒物(PM2.5),72,75,64,52,43,71,,142,114,26,23,5,6,0.7,0.6
2024-05-16T2300,3183A,106.7418,31.8654,巴中市,圣泉水务公司,细颗粒物(PM2.5),82,84,58,60,40,49,,138,104,45,24,4,4,0.6,0.4
2024-05-16T2300,3616A,106.7616,31.8344,巴中市,市中心医院,细颗粒物(PM2.5),77,78,66,56,45,55,,144,116,32,23,6,6,0.7,0.6
2024-05-16T2300,2235A,122.7911,45.6077,白城市,洮北区环保局,,34,34,20,13,9,80,,108,100,13,12,5,6,0.3,0.3
2024-05-16T2300,2236A,122.8738,45.5725,白城市,市环保局,,27,,9,13,9,85,,109,97,14,12,4,4,0.3,0.3
2024-05-16T2300,2231A,126.4219,41.9171,白山市,喜丰,,47,47,32,14,10,35,,102,85,33,17,12,8,1.0,0.9
2024-05-16T2300,2232A,126.4077,41.9419,白山市,环保局,颗粒物(PM10),52,53,36,13,10,37,,90,72,38,18,9,10,0.8,0.8
2024-05-16T2300,2647A,104.1724,36.5446,白银市,第三小学,颗粒物(PM10),88,125,104,45,37,97,,154,132,40,22,31,20,0.5,0.6
2024-05-16T2300,2648A,104.1465,36.5482,白银市,动力公司,颗粒物(PM10),85,120,88,41,38,62,,157,133,58,16,21,15,0.6,0.6
2024-05-16T2300,2512A,106.6103,23.9011,百色市,市监测站,颗粒物(PM10),55,60,30,29,14,68,,92,91,22,10,14,6,0.9,0.6
2024-05-16T2300,2513A,106.6538,23.8859,百色市,市中心血站,颗粒物(PM10),57,64,36,34,19,46,,81,78,29,15,12,8,0.7,0.6
2024-05-16T2300,3406A,106.6085,23.8798,百色市,祈福高中,颗粒物(PM10),54,58,34,30,19,68,,93,92,20,12,14,8,0.9,0.7
2024-05-16T2300,2270A,117.396,32.939,蚌埠市,工人疗养院,,49,49,48,29,22,137,,172,163,13,13,8,11,0.3,0.3
2024-05-16T2300,2271A,117.3605,32.9427,蚌埠市,百货大楼,,,57,50,,29,132,,170,161,20,17,20,8,0.8,0.5
2024-05-16T2300,2273A,117.4185,32.8911,蚌埠市,蚌埠学院,,48,48,39,23,17,133,,166,153,13,15,6,7,0.3,0.4
2024-05-16T2300,2274A,117.3533,32.9673,蚌埠市,淮上区政府,颗粒物(PM10),52,53,55,32,23,132,,167,158,12,10,16,11,0.6,0.4
2024-05-16T2300,2275A,117.3145,32.8977,蚌埠市,高新区,颗粒物(PM10),54,58,58,29,24,126,,170,159,14,10,13,9,0.4,0.3
2024-05-16T2300,3715A,117.3092,32.9314,蚌埠市,蚌埠田家炳中学,颗粒物(PM10),56,61,60,31,28,128,,171,160,14,12,17,21,0.5,0.4
2024-05-16T2300,1585A,109.8756,40.6532,包头市,市环境监测站,颗粒物(PM10),63,76,109,34,45,50,,127,104,48,45,8,20,0.4,0.7
2024-05-16T2300,1587A,109.9991,40.5842,包头市,包头八中,颗粒物(PM10),65,79,120,24,41,50,,126,99,46,38,7,25,0.4,0.6
2024-05-16T2300,1588A,109.8538,40.6821,包头市,青山宾馆,颗粒物(PM10),65,80,97,27,41,32,,122,98,52,48,9,19,0.4,0.7
2024-05-16T2300,1589A,109.8642,40.6288,包头市,惠龙物流,颗粒物(PM10),63,76,106,33,39,81,,129,110,22,38,9,25,0.4,0.7
2024-05-16T2300,1590A,110.0377,40.5546,包头市,东河鸿龙湾,颗粒物(PM10),64,77,100,22,33,54,,137,104,34,34,7,21,0.6,0.7
2024-05-16T2300,3283A,109.9154,40.5685,包头市,滨河大厦,颗粒物(PM10),53,55,95,16,38,74,,132,107,21,36,11,20,0.4,0.6
2024-05-16T2300,3419A,109.9447,40.6261,包头市,包头市委党校,颗粒物(PM10),60,70,109,19,34,62,,130,107,37,45,15,26,0.3,0.7
2024-05-16T2300,3683A,109.8331,40.6576,包头市,昆区政府,颗粒物(PM10),58,65,104,27,39,68,,126,107,30,45,8,27,0.2,0.6
2024-05-16T2300,1930A,107.185,34.3063,宝鸡市,庙沟村,,50,50,53,23,22,100,,144,125,10,12,9,9,0.6,0.6
2024-05-16T2300,1931A,107.0708,34.3017,宝鸡市,竹园沟,,39,35,46,27,22,64,,136,101,29,16,6,6,0.5,0.5
2024-05-16T2300,1932A,107.1906,34.3672,宝鸡市,三陆医院,颗粒物(PM10),57,63,71,34,28,68,,164,135,44,29,7,9,0.7,0.6
2024-05-16T2300,1933A,107.1431,34.3547,宝鸡市,监测站,,50,50,58,31,25,58,,150,112,41,25,7,8,0.5,0.5
2024-05-16T2300,1934A,107.1186,34.3739,宝鸡市,技工学校,细颗粒物(PM2.5),54,49,58,38,25,87,,151,130,32,19,13,9,0.6,0.5
2024-05-16T2300,1935A,107.3906,34.3528,宝鸡市,陈仓区环保局家属楼,细颗粒物(PM2.5),64,65,63,46,28,43,,165,131,57,23,5,6,0.5,0.4
2024-05-16T2300,1936A,107.2058,34.3497,宝鸡市,文理学院,颗粒物(PM10),59,68,63,22,26,45,,172,130,47,23,6,7,0.5,0.4
2024-05-16T2300,1937A,107.2386,34.3622,宝鸡市,三迪小学,颗粒物(PM10),56,61,68,35,28,69,,166,139,43,24,7,9,0.7,0.6
2024-05-16T2300,1051A,115.493,38.8632,保定市,游泳馆,,,105,92,24,27,,,171,167,10,16,6,7,0.2,0.4
2024-05-16T2300,1052A,115.5213,38.8959,保定市,华电二区,颗粒物(PM10),59,67,49,22,19,111,,164,151,15,20,1,5,0.5,0.4
2024-05-16T2300,1053A,115.4713,38.9108,保定市,接待中心,颗粒物(PM10),52,54,52,19,21,114,,164,152,8,16,4,5,0.5,0.5
2024-05-16T2300,1054A,115.4612,38.8416,保定市,地表水厂,细颗粒物(PM2.5),64,71,60,46,29,108,,165,149,14,15,5,6,0.4,0.4
2024-05-16T2300,3581A,115.31981,38.95208,保定市,满城区生态环境分局,颗粒物(PM10),76,102,85,36,35,90,,162,143,15,19,6,5,0.5,0.4
2024-05-16T2300,3582A,115.47694,38.76408,保定市,清苑区第二中学,颗粒物(PM10),59,68,67,31,20,109,,164,148,14,15,4,5,0.4,0.5
2024-05-16T2300,3583A,115.62909,39.02311,保定市,徐水物探局,颗粒物(PM10),67,83,78,17,19,110,,170,155,24,22,11,9,0.3,0.3
2024-05-16T2300,4004A,115.4202,38.8656,保定市,双鹰农机,颗粒物(PM10),64,77,63,3,20,106,,166,149,16,23,8,8,0.2,0.2
2024-05-16T2300,4034A,115.5150,38.8590,保定市,植保所站,颗粒物(PM10),60,70,67,38,35,123,,173,160,13,20,9,8,0.4,0.5
2024-05-16T2300,2594A,99.1678,25.1081,保山市,市环境监测站,,48,48,34,27,18,79,,116,106,9,9,4,4,0.5,0.5
2024-05-16T2300,2595A,99.1711,25.1328,保山市,市环保局,,44,44,43,10,17,94,,124,113,5,7,4,4,0.5,0.5
2024-05-16T2300,1867A,109.1436,21.4086,北海市,海滩公园,臭氧1小时,58,32,40,10,16,166,,177,173,6,9,8,12,0.5,0.5
2024-05-16T2300,1868A,109.0981,21.4661,北海市,新市环保局,,50,30,37,14,18,160,,176,168,7,12,7,10,0.6,0.7
2024-05-16T2300,1869A,109.1778,21.5233,北海市,北海工业园,,49,29,41,24,22,156,,180,169,8,12,9,15,0.7,0.7
2024-05-16T2300,3400A,109.1911,21.4415,北海市,龙潭自来水厂,臭氧1小时,57,30,37,11,21,165,,172,168,6,11,9,9,0.6,0.6
2024-05-16T2300,1001A,116.3621,39.8784,北京市,万寿西宫,颗粒物(PM10),67,84,74,26,24,113,,170,165,26,28,3,2,0.7,0.4
2024-05-16T2300,1002A,116.2202,40.2915,北京市,定陵,颗粒物(PM10),62,73,54,25,19,127,,150,149,18,20,1,2,0.4,0.3
2024-05-16T2300,1003A,116.4174,39.9289,北京市,东四,颗粒物(PM10),70,90,77,28,24,122,,170,165,32,32,5,3,0.6,0.4
2024-05-16T2300,1004A,116.4072,39.8863,北京市,天坛,颗粒物(PM10),59,68,63,23,23,106,,163,156,25,30,3,3,0.7,0.5
2024-05-16T2300,1005A,116.462,39.9365,北京市,农展馆,颗粒物(PM10),68,86,78,28,29,103,,151,146,30,31,4,4,0.7,0.4
2024-05-16T2300,1006A,116.3392,39.9295,北京市,官园,颗粒物(PM10),68,85,78,27,24,127,,174,170,25,31,6,4,0.6,0.3
2024-05-16T2300,1007A,116.2878,39.9611,北京市,海淀万柳,颗粒物(PM10),61,71,77,31,24,94,,159,153,48,43,6,6,0.8,0.4
2024-05-16T2300,1008A,116.6636,40.135,北京市,顺义新城,颗粒物(PM10),79,108,72,49,23,121,,158,158,34,39,2,2,0.5,0.3
2024-05-16T2300,1009A,116.6275,40.3275,北京市,怀柔镇,颗粒物(PM10),56,62,55,22,18,139,,153,153,15,17,5,4,0.6,0.4
2024-05-16T2300,1010A,116.2296,40.217,北京市,昌平镇,颗粒物(PM10),67,83,62,27,22,122,,138,138,18,24,2,2,0.5,0.3
2024-05-16T2300,1011A,116.3966,39.9821,北京市,奥体中心,颗粒物(PM10),62,73,62,24,24,118,,151,149,23,33,4,3,0.7,0.4
2024-05-16T2300,1012A,116.184,39.9136,北京市,古城,颗粒物(PM10),87,123,92,31,24,67,,141,133,69,44,3,2,1.0,0.5
2024-05-16T2300,3281A,115.9718,40.4529,北京市,延庆夏都,颗粒物(PM10),84,118,56,47,24,130,,154,154,33,24,2,2,0.4,0.2
2024-05-16T2300,3417A,117.0709,40.1465,北京市,平谷新城,颗粒物(PM10),60,69,61,32,27,155,,173,173,15,20,3,2,0.4,0.3
2024-05-16T2300,3418A,116.8336,40.4095,北京市,密云新城,颗粒物(PM10),60,70,57,26,25,99,,162,154,24,16,1,2,0.4,0.3
2024-05-16T2300,3672A,116.1541,39.8204,北京市,丰台云岗,颗粒物(PM10),70,89,75,28,21,109,,145,142,24,28,2,3,0.7,0.4
2024-05-16T2300,3673A,116.6804,39.9081,北京市,通州东关,颗粒物(PM10),76,102,76,30,25,74,,159,144,56,33,5,5,0.6,0.4
2024-05-16T2300,3674A,115.9577,39.7603,北京市,房山燕山,颗粒物(PM10),83,115,82,40,21,102,,140,135,27,26,2,4,0.6,0.4
2024-05-16T2300,3675A,116.4672,39.7733,北京市,大兴旧宫,颗粒物(PM10),65,80,81,21,20,105,,165,157,22,25,1,2,0.5,0.4
2024-05-16T2300,3694A,115.986,40.4563,北京市,延庆石河营,颗粒物(PM10),65,79,52,33,20,139,,160,160,27,28,1,2,0.4,0.2
2024-05-16T2300,3695A,116.6151,40.3053,北京市,怀柔新城,颗粒物(PM10),55,60,55,20,18,133,,145,145,16,18,2,2,0.5,0.3
2024-05-16T2300,3696A,116.2545,39.8768,北京市,丰台小屯,颗粒物(PM10),62,74,71,28,27,97,,146,141,34,32,1,2,0.6,0.4
2024-05-16T2300,3697A,116.84,40.3844,北京市,密云镇,颗粒物(PM10),59,68,52,23,16,94,,159,154,41,25,1,2,0.5,0.3
2024-05-16T2300,1761A,123.8275,41.3064,本溪市,大峪,颗粒物(PM10),55,59,45,19,12,75,,122,104,19,23,9,10,0.6,0.6
2024-05-16T2300,1762A,123.7567,41.3325,本溪市,溪湖,颗粒物(PM10),84,117,60,33,18,45,,121,100,39,23,9,9,0.6,0.6
2024-05-16T2300,1763A,123.7169,41.3094,本溪市,彩屯,细颗粒物(PM2.5),55,58,45,39,29,57,,111,85,37,33,8,10,0.7,0.8
2024-05-16T2300,1764A,123.7669,41.2864,本溪市,东明,颗粒物(PM10),60,70,44,32,17,35,,113,90,58,30,10,11,0.8,0.6
2024-05-16T2300,1765A,123.7992,41.2664,本溪市,新立屯,,40,40,27,12,10,38,,114,82,66,27,11,11,0.9,0.8
2024-05-16T2300,1766A,123.8142,41.3472,本溪市,威宁,颗粒物(PM10),53,55,42,21,20,41,,109,77,38,25,7,7,0.6,0.5
2024-05-16T2300,2587A,105.2864,27.3125,毕节市,八中,,38,37,28,26,20,47,,78,68,16,12,5,7,0.6,0.5
2024-05-16T2300,2588A,105.31,27.2944,毕节市,师专,,36,35,25,25,19,43,,75,68,22,12,7,8,0.6,0.5
2024-05-16T2300,3537A,105.3631,27.3533,毕节市,长征村,,39,37,28,27,21,70,,86,82,7,6,6,6,0.5,0.5
2024-05-16T2300,1629A,118.0018,37.3617,滨州市,第二水厂,颗粒物(PM10),63,75,77,27,26,80,,161,131,43,23,8,8,0.8,0.6
2024-05-16T2300,1630A,117.9776,37.393,滨州市,北中新校,颗粒物(PM10),68,85,78,36,23,80,,161,132,55,23,14,17,0.8,0.7
2024-05-16T2300,3514A,117.9378,37.3956,滨州市,中海酒店,颗粒物(PM10),63,75,74,31,27,108,,166,145,32,19,25,17,0.6,0.6
2024-05-16T2300,3515A,117.9378,37.3553,滨州市,开发区一中,颗粒物(PM10),73,95,84,31,20,82,,152,123,48,21,21,14,0.9,0.7
2024-05-16T2300,3516A,118.0917,37.694,滨州市,金海六路,颗粒物(PM10),72,93,72,27,12,65,,153,126,54,21,8,8,0.6,0.5
2024-05-16T2300,4028A,117.9956,37.3753,滨州市,滨州市西街道办事处,颗粒物(PM10),71,92,71,44,24,85,,152,128,40,21,13,11,0.8,0.7
2024-05-16T2300,2311A,115.8072,33.8399,亳州市,污水处理厂,颗粒物(PM10),62,74,60,38,23,163,,168,167,4,16,9,11,0.5,0.3
2024-05-16T2300,2312A,115.7789,33.8518,亳州市,三国揽胜宫,颗粒物(PM10),73,95,60,6,28,158,,166,166,6,7,12,11,0.7,0.5
2024-05-16T2300,3332A,115.7633,33.8034,亳州市,亳州学院,颗粒物(PM10),63,75,56,32,23,154,,169,166,6,9,10,10,0.6,0.4
2024-05-16T2300,2693A,82.0485,44.8556,博尔塔拉蒙古自治州,市党校,颗粒物(PM10),82,114,59,32,17,90,,126,102,4,8,10,9,0.2,0.2
2024-05-16T2300,2694A,82.0806,44.8969,博尔塔拉蒙古自治州,市环保局,颗粒物(PM10),104,158,69,31,16,91,,133,109,9,14,10,10,0.1,0.2
2024-05-16T2300,1071A,116.8842,38.2991,沧州市,沧县城建局,颗粒物(PM10),66,81,65,21,19,107,,146,133,18,18,5,6,0.4,0.4
2024-05-16T2300,1072A,116.8584,38.3254,沧州市,电视转播站,颗粒物(PM10),66,82,56,19,17,100,,137,125,14,13,10,6,0.2,0.2
2024-05-16T2300,1073A,116.8709,38.3228,沧州市,市环保局,颗粒物(PM10),64,77,60,19,14,103,,134,122,14,15,7,7,0.3,0.3
2024-05-16T2300,3324A,116.8136,38.3004,沧州市,河北水利电力学院,颗粒物(PM10),59,68,62,15,15,108,,143,130,18,19,9,9,0.3,0.2
2024-05-16T2300,2622A,97.1806,31.1273,昌都市,昌都监测站,,38,14,10,13,8,120,,115,109,3,10,6,6,0.3,0.4
2024-05-16T2300,3719A,97.1714,31.1406,昌都市,昌都会议中心,,43,,9,13,6,136,,128,127,2,8,6,6,0.2,0.3
2024-05-16T2300,2690A,88.1236,43.8886,昌吉回族自治州,天山天池,颗粒物(PM10),68,86,193,38,54,79,,116,110,6,6,6,8,0.5,0.5
2024-05-16T2300,2692A,87.2717,44.0297,昌吉回族自治州,新区政务中心,颗粒物(PM10),65,79,70,31,23,34,,132,110,76,22,7,9,0.6,0.5
2024-05-16T2300,3613A,87.3095,44.0142,昌吉回族自治州,亚心广场,颗粒物(PM10),70,90,95,24,26,28,,141,114,107,33,8,9,0.9,0.6
2024-05-16T2300,1119A,125.3325,43.9166,长春市,食品厂,颗粒物(PM10),54,58,52,26,21,47,,103,89,58,34,9,7,0.4,0.3
2024-05-16T2300,1120A,125.2863,43.9027,长春市,客车厂,颗粒物(PM10),52,54,43,27,18,32,,96,76,72,41,6,5,0.6,0.5
2024-05-16T2300,1121A,125.2841,43.8463,长春市,邮电学院,,38,38,35,23,13,55,,97,82,37,27,8,7,0.4,0.3
2024-05-16T2300,1122A,125.3716,43.8772,长春市,劳动公园,颗粒物(PM10),59,68,39,36,16,16,,102,81,84,35,6,5,0.7,0.4
2024-05-16T2300,1123A,125.3297,43.8805,长春市,园林处,,38,38,31,24,16,57,,99,88,49,32,9,6,0.4,0.4
2024-05-16T2300,1124A,125.4605,43.79,长春市,净月潭,,30,16,13,10,7,95,,103,102,7,6,8,8,0.3,0.3
2024-05-16T2300,1126A,125.3863,43.8447,长春市,经开区环卫处,颗粒物(PM10),64,77,36,27,13,6,,101,75,94,33,6,6,0.6,0.4
2024-05-16T2300,1127A,125.245,43.7783,长春市,高新区管委会,,32,32,33,16,12,49,,96,80,41,26,8,7,0.4,0.4
2024-05-16T2300,1128A,125.1761,43.8325,长春市,岱山公园,颗粒物(PM10),55,59,34,24,15,12,,96,63,95,44,8,6,0.5,0.4
2024-05-16T2300,1335A,113.0833,28.2325,长沙市,经开区环保局,颗粒物(PM10),66,81,93,44,39,138,,224,203,31,14,11,9,0.5,0.5
2024-05-16T2300,1336A,112.8872,28.2189,长沙市,高开区环保局,颗粒物(PM10),68,86,92,35,34,137,,217,191,29,14,7,7,0.8,0.6
2024-05-16T2300,1337A,113.0792,28.2053,长沙市,马坡岭,细颗粒物(PM2.5),94,112,90,70,46,77,,199,162,54,15,10,10,0.7,0.5
2024-05-16T2300,1338A,112.9394,28.19,长沙市,湖南师范大学,细颗粒物(PM2.5),69,82,95,50,40,116,,226,184,18,10,3,5,0.9,0.7
2024-05-16T2300,1339A,113.0178,28.1322,长沙市,雨花区环保局,颗粒物(PM10),61,71,92,36,39,136,,217,194,29,13,10,8,0.5,0.4
2024-05-16T2300,1340A,112.9792,28.2597,长沙市,伍家岭,细颗粒物(PM2.5),98,109,94,73,38,39,,216,167,70,20,7,8,1.0,0.5
2024-05-16T2300,1341A,113.0014,28.1944,长沙市,火车新站,颗粒物(PM10),69,88,97,48,40,88,,225,185,58,20,6,6,1.1,0.8
2024-05-16T2300,1342A,112.9844,28.1178,长沙市,天心区环保局,颗粒物(PM10),64,77,96,44,40,114,,223,190,50,25,7,6,0.7,1
2024-05-16T2300,1343A,112.8908,28.1308,长沙市,湖南中医药大学,颗粒物(PM10),86,121,95,57,39,8,,217,143,105,21,7,8,1.2,0.9
2024-05-16T2300,1344A,112.9581,28.3611,长沙市,沙坪,颗粒物(PM10),57,64,77,38,34,112,,209,166,17,13,8,8,0.8,0.6
2024-05-16T2300,1727A,113.1147,36.1547,长治市,清华站,,41,34,36,14,11,131,,155,143,13,14,8,10,0.3,0.4
2024-05-16T2300,1728A,113.1031,36.1989,长治市,监测站,,39,33,41,7,12,122,,158,139,17,18,2,9,0.4,0.6
2024-05-16T2300,1730A,113.0886,36.2125,长治市,审计局,,41,29,36,12,13,130,,162,148,12,13,12,14,0.3,0.3
2024-05-16T2300,1731A,113.0844,36.1856,长治市,长治八中,,43,43,43,11,12,130,,160,146,17,20,6,8,0.5,0.5
2024-05-16T2300,2845A,113.1569,36.1911,长治市,德盛苑,,42,37,36,17,14,132,,164,152,10,10,5,6,0.6,0.5
2024-05-16T2300,3568A,113.06,36.0464,长治市,向阳小学,颗粒物(PM10),52,54,57,31,23,114,,155,136,17,17,14,14,0.6,0.5
2024-05-16T2300,3569A,112.8792,36.3144,长治市,屯留一中,,37,30,38,9,12,117,,158,141,16,18,8,8,0.4,0.5
2024-05-16T2300,3570A,113.235,36.3489,长治市,潞城四中,,46,46,58,24,24,79,,172,148,39,18,7,7,0.5,0.5
2024-05-16T2300,1854A,111.6975,28.9703,常德市,市二中,颗粒物(PM10),64,78,85,29,29,138,,176,163,12,12,9,11,0.5,0.5
2024-05-16T2300,3138A,111.7153,29.0289,常德市,武陵区永安,细颗粒物(PM2.5),67,,83,48,29,130,,182,163,14,10,10,10,0.5,0.4
2024-05-16T2300,3139A,111.6892,28.9881,常德市,鼎城区玉霞,颗粒物(PM10),71,91,93,40,31,120,,179,158,14,13,8,9,0.5,0.5
2024-05-16T2300,3140A,111.6625,29.0531,常德市,武陵区长庚,颗粒物(PM10),67,83,78,44,29,128,,177,164,15,10,10,11,0.6,0.5
2024-05-16T2300,1196A,119.9633,31.762,常州市,市监测站,颗粒物(PM10),55,60,42,29,20,113,,156,135,32,32,9,10,0.5,0.4
2024-05-16T2300,1200A,119.9468,31.7069,常州市,武进监测站,,47,38,32,18,14,149,,158,152,19,22,8,8,0.4,0.4
2024-05-16T2300,1201A,119.9255,31.9087,常州市,安家,,49,49,38,24,17,113,,148,130,33,35,8,10,0.5,0.5
2024-05-16T2300,3002A,119.9805,31.8174,常州市,行政中心,颗粒物(PM10),53,56,48,20,15,123,,148,136,25,23,11,9,0.2,0.4
2024-05-16T2300,3003A,120.0522,31.7748,常州市,经开区,颗粒物(PM10),54,57,44,16,16,109,,154,142,37,37,9,11,0.5,0.5
2024-05-16T2300,3010A,119.9025,31.7964,常州市,钟楼,颗粒物(PM10),51,52,37,23,16,130,,153,146,24,26,9,11,0.5,0.5
2024-05-16T2300,3429A,119.8598,31.7066,常州市,武进经发区,颗粒物(PM10),57,64,45,32,20,121,,156,136,34,31,25,9,0.5,0.7
2024-05-16T2300,3430A,119.5826,31.7245,常州市,金坛城区,颗粒物(PM10),57,64,41,30,19,125,,164,151,22,24,9,12,0.6,0.5
2024-05-16T2300,2220A,120.4318,41.5881,朝阳市,西梁,,35,34,28,24,21,83,,132,121,34,26,15,14,0.7,0.6
2024-05-16T2300,2221A,120.4521,41.5646,朝阳市,河畔小区,颗粒物(PM10),51,51,49,20,19,104,,146,138,26,22,12,13,0.6,0.5
2024-05-16T2300,2222A,120.4176,41.5648,朝阳市,八里堡,颗粒物(PM10),55,59,58,31,20,89,,142,134,35,26,14,15,0.8,0.7
2024-05-16T2300,2223A,120.3806,41.5969,朝阳市,农业园区,细颗粒物(PM2.5),63,,33,45,24,58,,146,130,52,24,14,13,0.6,0.5
2024-05-16T2300,1705A,116.6367,23.6719,潮州市,西园路,颗粒物(PM10),53,56,62,26,37,122,,196,160,17,20,6,9,0.3,0.4
2024-05-16T2300,3026A,116.6183,23.6608,潮州市,市政府,,48,48,72,20,38,123,,206,165,16,28,11,19,0.4,0.6
2024-05-16T2300,4036A,116.6461,23.6761,潮州市,金山,,45,45,61,21,35,118,,198,160,16,17,9,9,0.4,0.5
2024-05-16T2300,2472A,113.0073,25.9061,郴州市,马头岭,颗粒物(PM10),64,78,68,27,22,67,,134,119,16,15,4,8,0.8,0.8
2024-05-16T2300,2473A,113.0116,25.8226,郴州市,市职中,细颗粒物(PM2.5),54,56,47,38,32,49,,152,112,26,18,6,10,0.7,0.6
2024-05-16T2300,2474A,113.0161,25.8001,郴州市,兴隆步行街,颗粒物(PM10),66,81,54,47,34,37,,147,113,37,20,6,9,0.8,0.6
2024-05-16T2300,2475A,113.0383,25.8071,郴州市,市审计局,细颗粒物(PM2.5),52,50,46,36,31,61,,154,126,38,26,7,8,0.6,0.6
2024-05-16T2300,2476A,113.0348,25.7759,郴州市,市环保局,颗粒物(PM10),60,69,56,40,30,52,,143,111,37,32,6,7,0.6,0.6
2024-05-16T2300,1431A,103.9728,30.7236,成都市,金泉两河,细颗粒物(PM2.5),98,101,78,73,45,65,,196,163,52,29,3,4,0.8,0.5
2024-05-16T2300,1432A,104.176,30.6872,成都市,十里店,,41,41,62,21,34,121,,172,156,17,27,3,4,0.5,0.6
2024-05-16T2300,1433A,104.079,30.5706,成都市,三瓦窑,颗粒物(PM10),51,51,61,30,38,102,,176,152,26,26,2,3,0.5,0.5
2024-05-16T2300,1434A,104.1114,30.63,成都市,沙河铺,,35,32,53,24,31,106,,159,128,19,24,5,6,0.5,0.5
2024-05-16T2300,1437A,104.0786,30.6531,成都市,君平街,细颗粒物(PM2.5),73,,71,53,42,110,,193,168,25,27,4,6,0.6,0.7
2024-05-16T2300,2880A,104.0239,30.65639,成都市,大石西路,细颗粒物(PM2.5),88,81,67,65,40,113,,197,172,36,29,5,5,0.6,0.6
2024-05-16T2300,3136A,104.2725,30.5589,成都市,龙泉驿区区政府,,41,31,28,14,20,131,,148,132,5,6,3,3,0.4,0.5
2024-05-16T2300,3357A,104.0106,30.6931,成都市,金博路,细颗粒物(PM2.5),107,118,78,80,47,75,,199,167,52,32,2,3,0.8,0.7
2024-05-16T2300,3359A,104.0578,30.5225,成都市,华阳,,40,34,49,24,35,127,,168,153,8,14,3,2,0.4,0.5
2024-05-16T2300,3487A,104.2394,30.5319,成都市,车城东七路,,42,32,45,18,28,133,,152,140,6,9,3,3,0.4,0.5
2024-05-16T2300,3488A,104.3853,30.7453,成都市,青白江技师分院,,45,45,35,11,18,133,,150,137,9,12,4,4,0.5,0.6
2024-05-16T2300,3489A,104.0789,30.4072,成都市,科学城,,43,31,50,18,29,137,,167,153,7,11,4,3,0.5,0.6
2024-05-16T2300,4011A,103.8506,30.6947,成都市,光华大道三段,细颗粒物(PM2.5),107,117,90,80,57,98,,211,175,44,29,2,5,1.2,0.9
2024-05-16T2300,1062A,117.9531,40.9081,承德市,铁路,颗粒物(PM10),58,66,38,26,8,127,,140,135,27,20,11,11,0.4,0.4
2024-05-16T2300,1063A,117.9392,40.9763,承德市,中国银行,颗粒物(PM10),53,56,39,14,10,63,,148,136,39,21,10,11,0.5,0.4
2024-05-16T2300,1064A,117.9503,40.928,承德市,开发区,颗粒物(PM10),70,89,47,20,12,138,,147,144,22,20,9,9,0.4,0.4
2024-05-16T2300,1065A,117.8051,40.9655,承德市,文化中心,颗粒物(PM10),55,60,54,14,12,51,,144,116,53,27,8,10,0.4,0.4
2024-05-16T2300,1066A,117.9268,41.0026,承德市,离宫,,42,42,29,24,13,81,,139,122,29,14,4,5,0.4,0.3
2024-05-16T2300,2314A,117.47,30.6618,池州市,池州学院,颗粒物(PM10),70,89,49,40,28,103,,168,149,25,16,6,6,0.5,0.5
2024-05-16T2300,3237A,117.4918,30.6617,池州市,展览馆,颗粒物(PM10),58,66,54,34,25,106,,164,144,19,13,4,4,0.6,0.6
2024-05-16T2300,3333A,117.5627,30.695,池州市,第八中学,颗粒物(PM10),58,65,51,32,23,93,,170,147,22,11,4,4,0.6,0.5
2024-05-16T2300,3334A,117.5038,30.6243,池州市,第十二中学,,47,47,56,27,25,92,,170,139,19,19,5,6,1.1,0.6
2024-05-16T2300,1744A,118.9233,42.2816,赤峰市,松山一中,颗粒物(PM10),57,64,36,24,15,90,,104,103,33,28,12,10,0.7,0.5
2024-05-16T2300,1745A,118.9576,42.2728,赤峰市,哈达街,颗粒物(PM10),53,55,24,19,7,84,,108,106,37,25,11,8,0.7,0.4
2024-05-16T2300,1746A,118.8788,42.2554,赤峰市,天义路,,33,33,19,9,7,62,,113,106,49,19,10,8,0.8,0.4
2024-05-16T2300,3058A,119.2658,42.0353,赤峰市,银河街,,33,,16,18,19,104,,120,118,20,20,18,16,0.4,0.4
2024-05-16T2300,3286A,118.9359,42.3147,赤峰市,桥北物流园区,颗粒物(PM10),79,108,25,37,14,63,,105,96,63,24,15,9,0.7,0.4
2024-05-16T2300,2521A,107.3476,22.4136,崇左市,市环保局江州分局,颗粒物(PM10),57,64,48,32,27,46,,119,101,20,10,8,8,0.7,0.7
2024-05-16T2300,2522A,107.3702,22.3707,崇左市,城南新区,"颗粒物(PM10),细颗粒物(PM2.5)",53,55,44,37,30,100,,123,116,16,11,7,6,0.8,0.8
2024-05-16T2300,2298A,118.3093,32.3153,滁州市,老年大学,,50,50,44,18,14,115,,156,144,19,16,8,7,0.5,0.5
2024-05-16T2300,2299A,118.3244,32.2786,滁州市,人大宾馆,,42,42,37,22,15,110,,152,141,22,20,8,7,0.5,0.5
2024-05-16T2300,3207A,118.3118,32.3038,滁州市,市政府原办公楼,,46,46,36,20,17,110,,151,138,21,18,7,8,0.5,0.5
2024-05-16T2300,3331A,118.3267,32.2634,滁州市,图书馆,,43,43,38,22,16,119,,151,141,15,18,10,9,0.5,0.5
2024-05-16T2300,2605A,101.5482,25.0441,楚雄彝族自治州,州环境监测站,,33,19,17,16,15,103,,112,111,6,7,6,6,0.6,0.6
2024-05-16T2300,2606A,101.538,25.0492,楚雄彝族自治州,市经济开发区,,46,46,19,20,15,97,,106,105,7,9,4,5,0.6,0.6
2024-05-16T2300,2548A,107.5277,31.2827,达州市,达州职业技术学院,,49,49,54,23,24,27,,138,88,49,28,6,6,0.4,0.5
2024-05-16T2300,2549A,107.5086,31.2186,达州市,市环境监测站,颗粒物(PM10),61,71,68,36,31,50,,140,99,53,40,8,7,0.9,0.8
2024-05-16T2300,2550A,107.4988,31.2132,达州市,凤凰小区,颗粒物(PM10),64,78,66,39,33,42,,148,108,60,36,10,8,0.9,0.7
2024-05-16T2300,2551A,107.5082,31.1986,达州市,达县机关宾馆,颗粒物(PM10),65,80,69,45,34,4,,141,87,96,44,6,5,0.7,0.6
2024-05-16T2300,2552A,107.4644,31.2124,达州市,市政中心,颗粒物(PM10),67,83,67,41,31,18,,149,107,86,43,10,9,1.2,0.8
2024-05-16T2300,2614A,100.1542,25.7054,大理白族自治州,大理市环境监测站,,36,36,34,23,19,103,,114,109,8,15,6,6,0.5,0.5
2024-05-16T2300,2615A,100.2171,25.5811,大理白族自治州,大理古城,,33,28,27,21,18,103,,117,107,8,12,7,8,0.6,0.7
2024-05-16T2300,1109A,121.612,38.9741,大连市,甘井子,颗粒物(PM10),67,84,68,39,27,126,,109,104,26,31,12,11,0.4,0.6
2024-05-16T2300,1110A,121.565,38.9511,大连市,周水子,细颗粒物(PM2.5),69,77,58,50,33,129,,126,104,23,30,10,11,0.4,0.6
2024-05-16T2300,1111A,121.5637,38.8845,大连市,星海三站,细颗粒物(PM2.5),63,73,54,45,25,136,,153,149,12,8,9,9,0.5,0.6
2024-05-16T2300,1112A,121.6302,38.9117,大连市,青泥洼桥,颗粒物(PM10),60,69,57,37,24,122,,138,134,22,25,10,11,0.5,0.7
2024-05-16T2300,1113A,121.6251,38.8638,大连市,傅家庄,颗粒物(PM10),62,73,48,37,22,141,,146,146,17,15,12,10,0.4,0.5
2024-05-16T2300,1114A,121.5213,38.8661,大连市,七贤岭,颗粒物(PM10),91,131,74,43,29,119,,155,137,21,19,10,11,0.5,0.7
2024-05-16T2300,1115A,121.2529,38.8061,大连市,旅顺,细颗粒物(PM2.5),57,61,47,40,26,151,,180,178,17,19,11,11,0.4,0.4
2024-05-16T2300,1116A,121.7485,39.1311,大连市,金州,颗粒物(PM10),63,76,69,38,26,123,,148,141,27,23,12,10,0.7,0.7
2024-05-16T2300,1117A,121.7811,39.0496,大连市,开发区,颗粒物(PM10),65,80,58,43,25,84,,126,115,46,32,11,8,0.6,0.7
2024-05-16T2300,1118A,121.9762,39.0631,大连市,双D港,,29,23,32,20,15,58,,112,92,11,19,7,8,0.5,0.6
2024-05-16T2300,1789A,124.81117,46.03138,大庆市,大同区,颗粒物(PM10),52,54,34,33,24,86,,119,106,18,14,8,8,0.4,0.4
2024-05-16T2300,1790A,125.129,46.533,大庆市,龙凤区,,44,44,29,18,19,84,,112,99,20,19,13,8,0.4,0.4
2024-05-16T2300,1791A,124.902,46.408,大庆市,红岗区,,32,32,20,19,13,92,,123,111,18,12,8,7,0.8,0.4
2024-05-16T2300,1792A,125.153,46.586,大庆市,萨尔图区,,29,20,22,18,12,92,,107,98,14,13,9,9,0.3,0.3
2024-05-16T2300,1793A,124.9042,46.6215,大庆市,让胡路区,,31,31,25,21,19,88,,112,103,20,13,6,5,0.3,0.3
2024-05-16T2300,3481A,125.141,46.634,大庆市,萨区政府监测点,,29,28,21,16,11,90,,116,108,21,12,8,8,0.2,0.1
2024-05-16T2300,1723A,113.2994,40.0758,大同市,云冈宾馆,颗粒物(PM10),78,105,115,44,42,76,,147,116,19,33,5,10,0.7,1
2024-05-16T2300,1724A,113.3444,40.0917,大同市,大同大学,颗粒物(PM10),69,88,98,29,35,68,,146,110,18,32,16,21,0.5,0.7
2024-05-16T2300,1725A,113.2661,40.1269,大同市,安家小村,颗粒物(PM10),72,93,126,22,35,81,,133,111,10,28,9,14,0.2,0.8
2024-05-16T2300,1726A,113.2711,40.0844,大同市,教育学院,颗粒物(PM10),73,96,133,28,38,88,,146,118,16,44,6,15,0.3,1
2024-05-16T2300,3282A,113.3397,40.0597,大同市,大同市卫生学校,颗粒物(PM10),74,98,109,29,36,80,,147,114,15,37,10,16,0.5,0.8
2024-05-16T2300,3565A,113.1367,40.1122,大同市,云冈站,颗粒物(PM10),83,116,109,51,37,51,,145,99,33,27,15,19,0.4,0.4
2024-05-16T2300,3566A,113.1186,40.2556,大同市,图书馆,颗粒物(PM10),73,96,105,34,39,65,,132,100,9,15,9,12,0.5,0.6
2024-05-16T2300,3567A,113.5931,40.0461,大同市,区一中,颗粒物(PM10),80,109,104,35,26,91,,162,121,14,22,2,11,0.3,0.4
2024-05-16T2300,3676A,113.2802,40.0995,大同市,第二人民医院,颗粒物(PM10),70,90,146,26,37,79,,140,114,14,34,9,15,0.3,1.2
2024-05-16T2300,2269A,124.1069,50.4097,大兴安岭地区,科技局,,,38,29,17,15,87,,98,94,6,6,3,3,,0.3
2024-05-16T2300,3663A,124.1164,50.4278,大兴安岭地区,红旗社区,,31,31,20,9,10,95,,105,102,8,9,6,6,0.4,0.4
2024-05-16T2300,1600A,124.3303,40.0625,丹东市,江湾东路,,43,43,35,29,14,45,,108,88,33,13,12,9,0.6,0.4
2024-05-16T2300,1601A,124.4256,40.1503,丹东市,临江后街,,33,33,23,15,10,93,,111,102,8,12,8,8,0.4,0.3
2024-05-16T2300,1602A,124.3933,40.1461,丹东市,元宝山,,48,48,23,30,10,70,,103,95,20,13,14,10,1.2,0.4
2024-05-16T2300,1603A,124.3633,40.1092,丹东市,民主桥,,46,46,35,23,12,29,,100,83,53,16,11,11,0.5,0.3
2024-05-16T2300,3541A,109.5726,19.5167,儋州市,第一中学子站,,31,26,26,3,7,99,,112,111,2,3,4,4,0.5,0.5
2024-05-16T2300,3542A,109.5567,19.5187,儋州市,东坡学校子站,,31,28,30,9,11,98,,111,110,3,3,4,4,0.4,0.5
2024-05-16T2300,2616A,98.5842,24.428,德宏傣族景颇族自治州,德宏州监测站,细颗粒物(PM2.5),65,63,47,47,41,59,,136,107,21,18,2,4,0.9,0.8
2024-05-16T2300,3677A,98.5881,24.4368,德宏傣族景颇族自治州,芒市人民政府综合楼,颗粒物(PM10),55,59,46,33,29,68,,128,101,13,14,4,5,0.7,0.6
2024-05-16T2300,1901A,104.4239,31.1208,德阳市,东山公园,,48,48,64,15,30,121,,148,132,6,15,4,5,0.4,0.6
2024-05-16T2300,1902A,104.3826,31.1317,德阳市,西小区,,43,43,66,25,38,100,,152,126,19,29,2,4,0.5,0.6
2024-05-16T2300,1904A,104.3553,31.1091,德阳市,耐火材料厂,,43,43,71,23,37,101,,172,134,17,30,5,8,0.4,0.6
2024-05-16T2300,3639A,104.4019,31.1244,德阳市,市教育局,颗粒物(PM10),51,51,61,28,33,14,,142,102,92,30,3,3,0.7,0.6
2024-05-16T2300,1622A,116.3032,37.4674,德州市,儿童乐园,颗粒物(PM10),71,92,75,22,19,127,,155,149,20,16,10,12,0.7,0.5
2024-05-16T2300,1624A,116.2991,37.4451,德州市,监理站,颗粒物(PM10),78,105,77,29,19,124,,156,148,19,14,15,15,0.5,0.4
2024-05-16T2300,3066A,116.2721,37.4379,德州市,九衢泉纯净水厂,颗粒物(PM10),70,90,72,29,18,116,,148,139,24,20,8,10,0.5,0.3
2024-05-16T2300,3371A,116.3728,37.4403,德州市,开发区人民医院,颗粒物(PM10),73,95,80,27,17,118,,155,143,11,9,10,13,0.5,0.3
2024-05-16T2300,3372A,116.3572,37.4094,德州市,太阳城中学,颗粒物(PM10),69,88,80,19,24,113,,151,135,17,17,10,11,0.6,0.4
2024-05-16T2300,3511A,116.5652,37.3319,德州市,陵城艺术中心,颗粒物(PM10),70,90,81,14,19,112,,145,137,14,17,8,10,0.6,0.5
2024-05-16T2300,2621A,99.7056,27.8317,迪庆藏族自治州,迪庆州站,,34,29,26,18,15,106,,111,108,9,11,8,8,0.4,0.5
2024-05-16T2300,3180A,99.7136,27.8094,迪庆藏族自治州,质量技术监督局,,33,25,26,9,9,104,,110,105,7,10,7,7,0.3,0.4
2024-05-16T2300,2663A,104.6241,35.5734,定西市,东关小学,颗粒物(PM10),83,116,78,33,25,69,,165,141,42,16,5,5,0.4,0.3
2024-05-16T2300,2664A,104.6194,35.5934,定西市,供电公司,颗粒物(PM10),81,111,73,39,29,29,,158,121,79,19,5,6,0.4,0.3
2024-05-16T2300,1389A,113.7547,23.0494,东莞市,莞城梨川,颗粒物(PM10),64,77,51,27,23,154,,187,171,21,26,9,10,0.8,0.8
2024-05-16T2300,1390A,113.7944,23.0128,东莞市,东城石井,颗粒物(PM10),58,65,47,24,22,162,,205,182,21,25,8,8,0.7,0.7
2024-05-16T2300,1391A,113.7383,22.9658,东莞市,南城西平,颗粒物(PM10),60,69,50,27,22,144,,200,190,24,34,8,7,0.6,0.8
2024-05-16T2300,3319A,113.7338,23.0381,东莞市,万江金泰,颗粒物(PM10),59,67,51,26,23,137,,177,161,23,26,8,8,0.6,0.6
2024-05-16T2300,3626A,113.7533,23.0202,东莞市,南城元岭,颗粒物(PM10),61,71,53,26,24,140,,205,176,26,31,10,10,0.7,0.7
2024-05-16T2300,3627A,113.7875,23.0457,东莞市,东城主山,颗粒物(PM10),55,60,47,25,22,162,,198,178,18,25,9,9,0.6,0.6
2024-05-16T2300,1666A,118.6614,37.4309,东营市,市环保局,颗粒物(PM10),63,75,59,27,15,105,,174,151,37,28,12,16,0.2,0.1
2024-05-16T2300,3036A,118.6904,37.4338,东营市,开发区管委会,颗粒物(PM10),69,88,66,22,18,97,,163,142,37,25,9,14,0.5,0.4
2024-05-16T2300,3365A,118.5719,37.565,东营市,垦利区民丰路,细颗粒物(PM2.5),83,85,65,61,14,108,,170,148,34,24,17,12,0.7,0.5
2024-05-16T2300,3498A,118.5055,37.8612,东营市,河口城区,颗粒物(PM10),73,95,65,32,19,98,,167,151,25,14,8,9,0.4,0.2
2024-05-16T2300,3646A,118.4978,37.4623,东营市,胜利站,颗粒物(PM10),61,72,64,29,21,133,,166,151,25,26,14,13,0.7,0.6
2024-05-16T2300,3734A,118.35,37.26,东营市,理想之城,颗粒物(PM10),73,95,67,29,18,80,,166,135,45,23,12,14,0.6,0.6
2024-05-16T2300,1591A,110.0023,39.8129,鄂尔多斯市,综合楼,颗粒物(PM10),136,222,157,61,51,100,,125,107,22,23,8,9,0.5,0.6
2024-05-16T2300,1592A,109.9486,39.8261,鄂尔多斯市,巴音孟克林场办事处,颗粒物(PM10),140,229,147,90,55,89,,121,102,26,20,7,10,0.6,0.6
2024-05-16T2300,1593A,109.7736,39.5986,鄂尔多斯市,康泽苑,颗粒物(PM10),141,232,132,83,45,76,,137,108,25,22,5,7,0.3,0.4
2024-05-16T2300,1594A,109.8119,39.5989,鄂尔多斯市,华泰汽车城,细颗粒物(PM2.5),144,190,121,110,47,57,,128,96,35,26,6,9,0.5,0.5
2024-05-16T2300,1595A,109.9734,39.7884,鄂尔多斯市,奥林花园,颗粒物(PM10),125,200,136,61,47,85,,124,104,33,24,7,10,0.5,0.5
2024-05-16T2300,2436A,114.8938,30.3994,鄂州市,市政府,细颗粒物(PM2.5),73,76,60,53,22,113,,186,174,25,17,14,13,0.7,0.8
2024-05-16T2300,2437A,114.8989,30.3714,鄂州市,赵家坝,颗粒物(PM10),71,91,64,48,22,107,,190,169,22,12,4,4,0.8,0.6
2024-05-16T2300,3654A,114.8094,30.4089,鄂州市,精准医疗中心,颗粒物(PM10),72,93,64,43,23,122,,186,169,31,18,28,14,1.9,0.7
2024-05-16T2300,2454A,109.4978,30.2981,恩施土家族苗族自治州,湖北民院,颗粒物(PM10),60,69,58,40,32,91,,153,136,19,13,8,8,0.7,0.6
2024-05-16T2300,2455A,109.4707,30.2798,恩施土家族苗族自治州,州电力总公司,颗粒物(PM10),56,62,54,38,31,80,,148,135,24,21,8,8,0.6,0.6
2024-05-16T2300,3549A,109.5061,30.3772,恩施土家族苗族自治州,龙凤新区,颗粒物(PM10),57,64,55,37,27,49,,146,108,18,13,6,6,0.7,0.6
2024-05-16T2300,2499A,108.3411,21.6158,防城港市,沙万,,43,43,44,17,21,131,,156,146,13,14,6,8,0.5,0.8
2024-05-16T2300,2500A,108.3514,21.7731,防城港市,防城档案局,,44,44,58,15,27,133,,146,145,14,17,5,5,0.8,0.8
2024-05-16T2300,2501A,108.3506,21.6414,防城港市,大海花园,,45,36,40,13,19,141,,164,159,10,13,8,9,0.5,0.8
2024-05-16T2300,1371A,113.1294,23.0067,佛山市,湾梁,颗粒物(PM10),53,56,58,21,23,148,,250,212,23,30,5,6,0.5,0.5
2024-05-16T2300,1372A,113.1083,23.0478,佛山市,华材职中,颗粒物(PM10),56,61,53,24,27,150,,253,218,27,29,4,5,0.5,0.5
2024-05-16T2300,1373A,113.144,23.0453,佛山市,南海气象局,颗粒物(PM10),53,56,54,30,28,140,,237,197,30,38,5,6,0.5,0.5
2024-05-16T2300,1374A,113.2881,22.8094,佛山市,顺德苏岗,,,,43,,21,146,,235,201,21,27,8,7,0.6,0.5
2024-05-16T2300,1376A,112.8383,22.8678,佛山市,高明孔堂,颗粒物(PM10),56,62,44,13,21,162,,206,196,18,21,7,7,0.5,0.5
2024-05-16T2300,1377A,112.8836,23.1588,佛山市,三水监测站,颗粒物(PM10),60,70,70,24,29,129,,252,210,42,60,7,9,0.6,0.7
2024-05-16T2300,1378A,112.867,23.185,佛山市,三水云东海,颗粒物(PM10),61,72,61,29,40,152,,248,210,36,47,6,6,0.6,0.6
2024-05-16T2300,3625A,113.2544,22.7642,佛山市,容桂街道办,颗粒物(PM10),52,53,43,22,18,154,,218,196,23,32,6,7,0.4,0.4
2024-05-16T2300,1282A,119.2681,26.0504,福州市,师大,,32,32,41,9,15,75,,134,108,22,13,4,4,0.4,0.4
2024-05-16T2300,1283A,119.2984,26.1028,福州市,五四北路,,,,25,8,18,88,,145,119,22,12,4,4,0.3,0.4
2024-05-16T2300,1284A,119.2648,26.0768,福州市,杨桥西路,,26,26,45,8,17,75,,141,118,22,12,4,4,0.4,0.4
2024-05-16T2300,1285A,119.317,26.0746,福州市,紫阳,,30,24,43,3,16,96,,136,106,11,9,4,4,0.2,0.3
2024-05-16T2300,3048A,119.5799,26.0936,福州市,九龙,,25,19,31,3,8,78,,140,117,17,7,4,4,0.2,0.2
2024-05-16T2300,3526A,119.5189,25.9664,福州市,吴航,,30,19,30,7,12,95,,137,120,8,5,4,4,0.3,0.3
2024-05-16T2300,1755A,123.7977,41.8491,抚顺市,望花区,颗粒物(PM10),74,98,49,31,18,31,,125,90,57,28,7,6,0.7,0.5
2024-05-16T2300,1756A,123.9161,41.8822,抚顺市,顺城区,,42,42,30,16,12,32,,118,78,52,27,8,7,0.4,0.3
2024-05-16T2300,1757A,124.0436,41.8611,抚顺市,东洲区,,31,31,16,12,10,62,,113,98,17,9,5,4,0.2,0.2
2024-05-16T2300,1758A,123.9247,41.8642,抚顺市,新抚区,,41,41,33,25,15,24,,121,79,54,29,9,7,0.3,0.3
2024-05-16T2300,1759A,124.0972,41.8961,抚顺市,大伙房水库,,22,22,17,11,10,61,,118,100,22,11,7,6,0.2,0.2
2024-05-16T2300,1760A,123.7086,41.8391,抚顺市,沈抚新城,颗粒物(PM10),60,69,46,40,21,18,,123,93,60,25,9,12,0.8,0.8
2024-05-16T2300,2376A,116.2127,28.0814,抚州市,桐源党溪,颗粒物(PM10),57,64,68,30,27,42,,161,105,23,8,4,6,0.6,0.6
2024-05-16T2300,2377A,116.3544,27.9831,抚州市,市站,颗粒物(PM10),62,74,72,38,30,68,,170,136,36,13,5,5,0.8,0.8
2024-05-16T2300,2378A,116.3565,27.963,抚州市,血防站,颗粒物(PM10),62,73,74,31,32,63,,186,149,51,14,4,5,0.9,0.7
2024-05-16T2300,2379A,116.3564,28.0007,抚州市,采茶剧团,细颗粒物(PM2.5),55,50,72,39,30,63,,164,131,42,13,4,6,0.9,0.8
2024-05-16T2300,2380A,116.385,27.9647,抚州市,医学分院,颗粒物(PM10),65,80,77,32,26,102,,180,151,38,15,2,5,1.4,1
2024-05-16T2300,2207A,121.6094,41.998,阜新市,工业园区,颗粒物(PM10),63,76,74,34,35,72,,145,121,38,29,30,18,0.7,0.6
2024-05-16T2300,2208A,121.6697,42.0279,阜新市,长青街,,39,34,54,27,36,94,,147,138,24,24,20,27,0.6,1.1
2024-05-16T2300,2209A,121.6673,42.0705,阜新市,农业园区,,46,46,68,27,20,104,,139,133,22,15,22,23,0.5,0.4
2024-05-16T2300,2210A,121.6717,42.0224,阜新市,东苑,,47,47,79,26,41,102,,131,131,35,30,23,37,0.5,1.4
2024-05-16T2300,2211A,121.6506,42.0498,阜新市,玉龙新城,颗粒物(PM10),64,78,58,36,28,20,,137,116,67,30,9,16,0.7,0.6
2024-05-16T2300,2301A,115.8277,32.8929,阜阳市,市监测站,臭氧1小时,69,80,65,35,26,175,,177,177,13,16,8,7,0.6,0.4
2024-05-16T2300,2303A,115.8554,32.8605,阜阳市,开发区,颗粒物(PM10),64,78,69,37,24,165,,175,174,7,12,6,6,0.4,0.3
2024-05-16T2300,2875A,115.784,32.8892,阜阳市,阜阳职业技术学院,臭氧1小时,92,72,65,33,23,193,,184,184,10,16,7,7,0.4,0.4
2024-05-16T2300,3468A,115.7901,32.8613,阜阳市,市规划展馆,臭氧1小时,70,74,69,41,28,176,,183,182,12,12,6,5,0.5,0.4
2024-05-16T2300,3469A,115.836,32.9183,阜阳市,枣园社区,臭氧1小时,78,73,66,44,26,182,,180,180,16,17,7,7,0.5,0.3
2024-05-16T2300,2669A,102.9099,34.9841,甘南藏族自治州,州政府,颗粒物(PM10),85,119,54,39,22,103,,140,127,8,14,8,7,0.7,0.7
2024-05-16T2300,3380A,102.8914,34.9617,甘南藏族自治州,甘肃民族师范学院,颗粒物(PM10),124,197,71,52,20,11,,144,110,80,28,8,8,0.4,0.5
2024-05-16T2300,2570A,101.9603,30.0475,甘孜藏族自治州,水桥子,,23,,14,12,10,21,,82,60,46,20,3,3,0.4,0.3
2024-05-16T2300,3065A,101.9533,29.9972,甘孜藏族自治州,州环保局,,23,23,18,13,6,46,,82,63,27,23,2,2,0.3,0.3
2024-05-16T2300,3414A,115.8347,28.932,赣江新区,桑海产业园,颗粒物(PM10),71,92,72,41,26,62,,173,134,60,22,9,10,0.8,0.6
2024-05-16T2300,2363A,114.9367,25.8664,赣州市,地委,颗粒物(PM10),63,75,52,27,26,52,,160,119,30,18,11,8,0.6,0.7
2024-05-16T2300,2364A,114.9461,25.8481,赣州市,气象台,颗粒物(PM10),53,55,47,33,26,47,,170,129,10,19,9,10,0.5,0.4
2024-05-16T2300,2365A,114.9322,25.8333,赣州市,市图书馆,颗粒物(PM10),52,54,52,34,26,58,,167,120,40,24,4,6,1.0,0.8
2024-05-16T2300,2366A,114.8905,25.8471,赣州市,华坚鞋城,颗粒物(PM10),65,79,57,36,27,42,,165,121,52,25,8,14,0.6,0.5
2024-05-16T2300,3109A,115.0093,25.8613,赣州市,赣县区卫计委,,48,48,49,32,26,47,,162,116,44,26,5,5,0.6,0.6
2024-05-16T2300,2683A,106.2319,36.1417,固原市,马园,颗粒物(PM10),71,91,88,37,30,80,,158,135,27,18,6,7,0.2,0.3
2024-05-16T2300,2684A,106.2792,36.0022,固原市,监测站,细颗粒物(PM2.5),93,112,77,69,29,92,,154,137,25,12,8,4,0.4,0.3
2024-05-16T2300,2685A,106.2375,36.0211,固原市,新区,颗粒物(PM10),62,73,67,31,27,67,,155,135,52,12,3,4,0.4,0.3
2024-05-16T2300,3522A,106.2177,35.9959,固原市,原州区十五小,,,77,65,28,27,120,,163,156,22,10,7,6,,0.2
2024-05-16T2300,2544A,106.6303,30.4576,广安市,市委,颗粒物(PM10),69,88,66,37,33,74,,160,137,53,24,10,10,0.6,0.5
2024-05-16T2300,2545A,106.6271,30.4663,广安市,友谊中学,颗粒物(PM10),54,58,54,33,31,88,,160,141,40,26,8,8,0.6,0.6
2024-05-16T2300,2547A,106.6388,30.4551,广安市,广电花园,颗粒物(PM10),57,63,59,33,32,75,,154,137,46,23,10,9,0.8,0.7
2024-05-16T2300,2902A,106.6351,30.4865,广安市,北辰小学,颗粒物(PM10),58,65,59,34,30,85,,162,148,33,20,10,9,0.7,0.6
2024-05-16T2300,2523A,105.8945,32.4535,广元市,黑石坡,细颗粒物(PM2.5),65,57,45,47,30,116,,129,126,11,12,7,9,0.4,0.4
2024-05-16T2300,2524A,105.821,32.4444,广元市,老城,颗粒物(PM10),60,69,55,38,29,54,,138,120,60,33,10,10,0.6,0.6
2024-05-16T2300,2526A,105.8628,32.4287,广元市,监测站,"颗粒物(PM10),细颗粒物(PM2.5)",64,77,55,46,35,99,,145,133,14,13,5,6,0.4,0.5
2024-05-16T2300,3617A,105.8047,32.4166,广元市,经开区,细颗粒物(PM2.5),64,67,78,46,53,80,,145,133,32,21,4,7,0.5,0.6
2024-05-16T2300,1345A,113.2347,23.1423,广州市,广雅中学,颗粒物(PM10),57,63,64,25,27,140,,230,198,30,41,7,7,0.6,0.6
2024-05-16T2300,1346A,113.2612,23.105,广州市,市五中,颗粒物(PM10),56,62,54,27,28,145,,242,215,28,35,6,6,0.6,0.6
2024-05-16T2300,1348A,113.3478,23.0916,广州市,广东商学院,颗粒物(PM10),55,59,55,26,26,125,,232,192,37,44,6,7,0.6,0.6
2024-05-16T2300,1349A,113.4332,23.1047,广州市,市八十六中,颗粒物(PM10),59,67,62,28,24,102,,221,178,50,52,6,8,0.7,0.7
2024-05-16T2300,1350A,113.3505,22.9483,广州市,番禺中学,颗粒物(PM10),56,62,50,31,19,139,,257,209,31,34,5,6,0.5,0.5
2024-05-16T2300,1351A,113.2146,23.3916,广州市,花都师范,颗粒物(PM10),59,67,75,26,31,135,,210,172,33,42,6,7,0.4,0.6
2024-05-16T2300,1352A,113.2597,23.1331,广州市,市监测站,颗粒物(PM10),55,59,55,27,28,130,,222,192,32,41,6,7,0.5,0.5
2024-05-16T2300,1353A,113.5618,23.312,广州市,九龙镇镇龙,颗粒物(PM10),67,83,62,31,32,66,,150,126,73,33,8,7,0.6,0.6
2024-05-16T2300,1354A,113.2765,23.1544,广州市,麓湖,颗粒物(PM10),60,69,61,26,28,137,,218,177,30,43,6,7,0.6,0.6
2024-05-16T2300,1355A,113.443,23.3035,广州市,帽峰山森林公园,颗粒物(PM10),59,68,49,36,30,145,,184,165,28,34,7,8,0.4,0.5
2024-05-16T2300,2846A,113.3221,23.1322,广州市,体育西,颗粒物(PM10),57,63,59,22,25,131,,229,191,34,37,6,7,0.5,0.6
2024-05-16T2300,3298A,113.5717,23.5491,广州市,从化街口,颗粒物(PM10),53,56,40,31,22,31,,150,98,52,32,6,6,0.9,0.7
2024-05-16T2300,3299A,113.3472,23.3692,广州市,白云竹料,颗粒物(PM10),56,62,57,30,29,119,,186,156,45,36,5,5,0.5,0.6
2024-05-16T2300,3300A,113.2981,23.237,广州市,白云嘉禾,颗粒物(PM10),60,69,60,26,26,119,,198,173,53,45,6,7,0.7,0.7
2024-05-16T2300,3301A,113.4256,23.1716,广州市,黄埔科学城,颗粒物(PM10),57,63,54,22,28,128,,204,180,32,34,7,8,0.7,0.7
2024-05-16T2300,3302A,113.3942,23.0483,广州市,番禺大学城,颗粒物(PM10),55,60,54,29,26,126,,230,191,35,39,8,9,0.5,0.3
2024-05-16T2300,3303A,113.4922,22.8168,广州市,南沙黄阁,颗粒物(PM10),59,67,54,25,22,162,,220,179,21,35,7,7,0.6,0.7
2024-05-16T2300,3304A,113.5342,22.7896,广州市,南沙街,颗粒物(PM10),55,60,46,35,22,163,,211,180,24,31,8,8,0.6,0.6
2024-05-16T2300,3443A,113.2902,23.5544,广州市,花都梯面,细颗粒物(PM2.5),60,62,37,43,21,23,,180,127,71,32,4,5,0.6,0.5
2024-05-16T2300,3445A,113.7858,23.7478,广州市,从化良口,,30,15,25,9,15,96,,139,120,14,15,6,6,0.5,0.5
2024-05-16T2300,3446A,113.8051,23.2614,广州市,增城荔城,颗粒物(PM10),58,66,50,26,24,134,,160,136,30,22,6,7,0.7,0.7
2024-05-16T2300,2506A,109.6047,23.0666,贵港市,江南子站,细颗粒物(PM2.5),102,146,79,76,42,51,,174,139,64,25,12,10,1.0,0.8
2024-05-16T2300,2507A,109.6014,23.0948,贵港市,贵城子站,细颗粒物(PM2.5),87,99,69,64,41,63,,168,141,59,16,10,9,1.1,0.7
2024-05-16T2300,2508A,109.5669,23.1065,贵港市,荷城子站,颗粒物(PM10),62,73,63,31,33,86,,158,133,28,13,9,10,0.6,0.6
2024-05-16T2300,3405A,109.5886,23.1172,贵港市,新世纪学校,颗粒物(PM10),60,70,64,36,36,77,,168,140,23,11,10,11,0.9,0.8
2024-05-16T2300,1439A,106.6899,26.5998,贵阳市,马鞍山,,39,39,31,17,15,44,,88,63,14,15,3,3,0.7,0.6
2024-05-16T2300,1440A,106.6971,26.5694,贵阳市,市环保站,颗粒物(PM10),51,51,40,35,25,58,,92,72,30,25,5,4,0.6,0.5
2024-05-16T2300,1441A,106.6243,26.6266,贵阳市,鉴湖路,,44,44,35,24,17,65,,102,80,11,12,4,3,0.4,0.4
2024-05-16T2300,1442A,106.7487,26.6343,贵阳市,燕子冲,,49,39,36,34,25,39,,95,66,23,15,6,7,0.8,0.5
2024-05-16T2300,1443A,106.6555,26.4365,贵阳市,碧云窝,,36,36,38,19,16,76,,98,82,8,12,4,5,0.5,0.5
2024-05-16T2300,1444A,106.694,26.5161,贵阳市,中院村,颗粒物(PM10),51,51,43,27,20,55,,85,63,17,23,10,8,0.6,0.5
2024-05-16T2300,1445A,106.7109,26.6027,贵阳市,红边门,"颗粒物(PM10),细颗粒物(PM2.5)",52,53,41,36,28,61,,96,72,26,24,7,6,0.7,0.6
2024-05-16T2300,1446A,106.7164,26.5699,贵阳市,新华路,,48,48,40,31,22,68,,102,76,18,20,7,7,0.5,0.5
2024-05-16T2300,1447A,106.674,26.5424,贵阳市,太慈桥,,41,41,34,24,16,33,,92,55,25,18,4,5,0.4,0.3
2024-05-16T2300,1862A,110.4144,25.3167,桂林市,电子科大尧山校区,颗粒物(PM10),52,53,60,30,29,70,,129,106,8,8,5,7,0.5,0.5
2024-05-16T2300,1863A,110.2819,25.2697,桂林市,监测站,颗粒物(PM10),62,73,76,36,29,78,,162,121,18,20,6,12,0.7,0.7
2024-05-16T2300,1864A,110.3089,25.2708,桂林市,龙隐路小学,颗粒物(PM10),60,69,65,34,36,61,,148,109,27,16,7,14,0.9,0.7
2024-05-16T2300,1865A,110.2869,25.2178,桂林市,八中,颗粒物(PM10),58,66,70,36,34,55,,152,112,28,21,7,10,0.8,0.7
2024-05-16T2300,3403A,110.1764,25.2381,桂林市,创业大厦,颗粒物(PM10),63,75,68,44,35,48,,176,132,51,19,9,16,0.7,0.6
2024-05-16T2300,3531A,110.296,25.1253,桂林市,旅游学院,,48,48,48,29,28,48,,148,108,20,17,5,10,0.6,0.6
2024-05-16T2300,2674A,100.2561,34.4714,果洛藏族自治州,玛沁县大武镇,,39,,13,21,11,124,,137,130,14,12,11,11,0.4,0.4
2024-05-16T2300,1129A,126.5422,45.755,哈尔滨市,岭北,,28,28,31,16,18,48,,99,81,46,34,12,13,0.8,0.6
2024-05-16T2300,1130A,126.561,45.8167,哈尔滨市,松北商大,,48,48,34,15,10,20,,97,75,60,28,5,5,0.7,0.5
2024-05-16T2300,1131A,126.979,45.5419,哈尔滨市,阿城会宁,,35,35,24,10,9,32,,93,77,23,16,7,5,0.4,0.3
2024-05-16T2300,1132A,126.599,45.7222,哈尔滨市,南岗学府路,颗粒物(PM10),57,63,50,20,18,8,,101,72,73,34,5,7,0.9,0.7
2024-05-16T2300,1133A,126.689,45.7733,哈尔滨市,太平宏伟公园,,49,49,69,24,23,26,,98,69,61,37,8,9,0.9,0.6
2024-05-16T2300,1135A,126.685,45.7319,哈尔滨市,香坊红旗大街,细颗粒物(PM2.5),73,78,62,53,28,14,,96,65,74,40,14,14,0.8,0.5
2024-05-16T2300,1136A,126.6411,45.7258,哈尔滨市,动力和平路,,46,46,47,18,29,43,,98,77,44,37,13,11,0.6,0.6
2024-05-16T2300,1137A,126.593,45.7478,哈尔滨市,道里建国路,,45,45,42,25,20,24,,97,73,72,34,12,14,2.0,1.6
2024-05-16T2300,1138A,126.615,45.61,哈尔滨市,平房东轻厂,颗粒物(PM10),51,52,46,25,18,35,,97,75,42,26,6,7,0.6,0.4
2024-05-16T2300,1139A,126.595,45.9855,哈尔滨市,呼兰师专,,46,46,40,32,20,64,,101,89,35,32,10,7,0.4,0.4
2024-05-16T2300,1140A,126.6206,45.6842,哈尔滨市,省农科院,二氧化氮,51,50,50,26,28,6,,101,63,101,43,11,14,0.4,0.5
2024-05-16T2300,2688A,93.5128,42.8172,哈密市,地区监测站,颗粒物(PM10),500,1021,1059,350,355,64,,72,63,14,23,3,4,0.3,0.4
2024-05-16T2300,2689A,93.4961,42.8328,哈密市,哈密师范学校,颗粒物(PM10),500,810,871,280,297,45,,64,52,21,24,9,6,0.4,0.6
2024-05-16T2300,2671A,100.9048,36.9639,海北藏族自治州,海晏县西海镇,颗粒物(PM10),68,86,85,32,29,128,,146,138,9,11,11,12,0.4,0.4
2024-05-16T2300,3867A,102.0738,36.5056,海东市,平安区公安北苑,颗粒物(PM10),79,108,111,50,62,116,,155,136,15,17,13,9,0.5,0.6
2024-05-16T2300,1410A,110.3232,20.0574,海口市,海南大学,,44,44,34,18,13,125,,131,130,10,9,5,5,0.3,0.4
2024-05-16T2300,1411A,110.283,20.0053,海口市,秀英海南医院,,40,39,32,18,13,127,,130,130,6,5,4,4,0.3,0.3
2024-05-16T2300,1412A,110.338,19.9969,海口市,海南师范大学,,43,43,30,20,12,124,,129,127,3,3,6,6,0.3,0.4
2024-05-16T2300,1413A,110.33,20.0356,海口市,龙华路环保局宿舍,,38,38,32,16,12,119,,129,126,10,4,6,7,0.3,0.3
2024-05-16T2300,3539A,110.5111,19.9736,海口市,桂林洋子站,,41,41,31,15,12,118,,128,127,5,3,6,6,0.3,0.3
2024-05-16T2300,2673A,100.6188,36.2866,海南藏族自治州,共和县恰卜恰镇,颗粒物(PM10),51,52,39,17,14,133,,153,142,17,13,10,10,0.5,0.5
2024-05-16T2300,2676A,97.3731,37.3753,海西蒙古族藏族自治州,德令哈市,颗粒物(PM10),74,97,57,28,22,93,,150,132,8,6,6,6,0.5,0.5
2024-05-16T2300,1048A,114.5302,36.6116,邯郸市,东污水处理厂,,45,28,44,22,25,142,,155,155,8,21,8,12,0.7,0.6
2024-05-16T2300,1049A,114.4918,36.5713,邯郸市,矿院,,41,25,45,22,22,129,,153,151,14,21,9,12,0.9,0.7
2024-05-16T2300,1050A,114.484,36.6133,邯郸市,丛台公园,,42,30,58,19,23,133,,154,153,9,18,7,10,0.5,0.6
2024-05-16T2300,3458A,114.7895,36.5593,邯郸市,香泉濮院小区,颗粒物(PM10),54,57,68,23,23,135,,163,162,13,12,7,14,0.5,0.3
2024-05-16T2300,3579A,114.50634,36.77178,邯郸市,永年区实验高中,,48,45,80,33,29,146,,163,163,12,26,10,21,0.4,0.8
2024-05-16T2300,3580A,114.20016,36.44293,邯郸市,峰峰矿区临水派出所,,47,38,62,23,21,148,,167,165,7,11,8,10,0.7,0.7
2024-05-16T2300,2634A,106.9893,33.1842,汉中市,汉川机床厂子校,,44,44,54,28,26,78,,152,129,19,9,5,5,0.7,0.6
2024-05-16T2300,2635A,107.0154,33.0706,汉中市,市监测站,颗粒物(PM10),73,95,66,42,29,53,,156,129,44,11,10,9,0.7,0.5
2024-05-16T2300,2636A,107.0089,33.1138,汉中市,鑫源开发区,细颗粒物(PM2.5),84,87,62,62,28,65,,158,130,40,11,10,9,0.7,0.5
2024-05-16T2300,2637A,107.007,33.0323,汉中市,南郑大河坎水厂,细颗粒物(PM2.5),107,91,67,80,37,53,,132,108,27,10,10,9,0.9,0.7
2024-05-16T2300,1223A,120.2072,30.2111,杭州市,滨江,,43,43,31,28,15,89,,148,132,30,18,5,5,0.5,0.4
2024-05-16T2300,1224A,120.0633,30.2747,杭州市,西溪,,30,30,22,13,7,45,,130,107,37,21,6,6,0.6,0.5
2024-05-16T2300,1226A,120.3461,30.3153,杭州市,下沙,颗粒物(PM10),78,106,49,56,15,30,,136,116,116,33,11,8,0.7,0.4
2024-05-16T2300,1227A,120.1269,30.2456,杭州市,卧龙桥,,26,26,29,15,12,50,,141,100,23,15,4,5,0.5,0.4
2024-05-16T2300,1228A,120.1903,30.2692,杭州市,浙江农大,细颗粒物(PM2.5),87,121,38,64,13,51,,141,117,67,22,8,7,0.6,0.3
2024-05-16T2300,1230A,120.1197,30.3119,杭州市,和睦小学,细颗粒物(PM2.5),68,83,27,49,13,51,,137,117,27,24,5,4,0.7,0.5
2024-05-16T2300,1231A,120.3019,30.4183,杭州市,临平镇,颗粒物(PM10),76,102,38,49,15,63,,146,132,53,26,6,6,0.6,0.4
2024-05-16T2300,1232A,120.2697,30.1819,杭州市,城厢镇,,45,45,27,11,8,74,,136,120,42,28,6,6,0.5,0.4
2024-05-16T2300,1233A,120.0883,30.1808,杭州市,云栖,,26,26,23,13,9,48,,136,100,42,24,6,7,0.4,0.4
2024-05-16T2300,3557A,119.9464,30.0494,杭州市,镇二中,,45,44,34,31,15,16,,120,77,78,33,8,8,0.6,0.5
2024-05-16T2300,3558A,119.7183,30.2367,杭州市,市府大楼,,33,33,31,19,16,67,,124,99,21,17,6,6,0.5,0.4
2024-05-16T2300,3656A,120.1556,30.2864,杭州市,消防大队,颗粒物(PM10),90,130,35,58,16,45,,144,112,80,29,8,7,0.8,0.4
2024-05-16T2300,1270A,117.1959,31.7848,合肥市,明珠广场,,45,,47,31,23,120,,146,138,32,28,8,9,0.6,0.5
2024-05-16T2300,1271A,117.3072,31.8764,合肥市,三里街,颗粒物(PM10),54,58,45,29,16,121,,141,138,30,31,7,8,0.4,0.3
2024-05-16T2300,1272A,117.2588,31.8707,合肥市,琥珀山庄,颗粒物(PM10),57,63,40,24,10,130,,152,147,23,18,11,11,0.4,0.3
2024-05-16T2300,1273A,117.1604,31.9052,合肥市,董铺水库,颗粒物(PM10),59,68,44,29,10,129,,160,154,26,17,2,2,0.4,0.3
2024-05-16T2300,1274A,117.25,31.8571,合肥市,长江中路,细颗粒物(PM2.5),64,68,48,46,28,124,,138,136,22,20,7,7,0.5,0.4
2024-05-16T2300,1275A,117.266,31.9436,合肥市,庐阳区,,,61,43,,21,123,,151,145,20,17,4,4,0.3,0.2
2024-05-16T2300,1276A,117.336,31.8586,合肥市,瑶海区,颗粒物(PM10),58,66,50,26,22,95,,137,128,39,28,8,8,0.5,0.5
2024-05-16T2300,1277A,117.3027,31.7964,合肥市,包河区,颗粒物(PM10),53,56,39,24,12,116,,149,142,29,19,7,7,0.4,0.3
2024-05-16T2300,1278A,117.2776,31.7385,合肥市,滨湖新区,,48,48,40,24,17,127,,143,139,16,15,7,6,0.4,0.3
2024-05-16T2300,1279A,117.1318,31.8403,合肥市,高新区,颗粒物(PM10),64,78,45,34,16,113,,146,139,33,23,8,8,0.6,0.5
2024-05-16T2300,3464A,117.3803,31.9147,合肥市,高教基地,颗粒物(PM10),51,51,38,21,13,112,,152,145,20,16,6,6,0.3,0.3
2024-05-16T2300,3614A,79.924,37.0877,和田地区,地区环保局,,,,225,62,66,93,,125,117,14,12,7,8,0.6,0.5
2024-05-16T2300,3615A,79.9131,37.113,和田地区,市环保局,颗粒物(PM10),115,180,211,56,69,86,,117,110,24,24,6,8,0.7,0.8
2024-05-16T2300,2516A,108.2011,24.715,河池市,东仁乐园,颗粒物(PM10),52,53,62,27,25,6,,16,11,14,7,3,3,0.7,0.7
2024-05-16T2300,2517A,108.0497,24.6947,河池市,市环保站,,49,49,41,23,21,23,,88,64,29,14,8,8,0.6,0.6
2024-05-16T2300,2518A,108.0983,24.6989,河池市,市疾控中心,颗粒物(PM10),51,52,44,26,25,15,,93,62,37,17,9,10,0.6,0.6
2024-05-16T2300,1697A,114.6944,23.7586,河源市,东埔,颗粒物(PM10),59,68,44,36,23,93,,147,115,23,23,10,9,0.7,0.7
2024-05-16T2300,1698A,114.6892,23.7233,河源市,老城,颗粒物(PM10),56,62,42,32,20,93,,145,111,22,16,8,7,0.6,0.5
2024-05-16T2300,1718A,115.4208,35.2464,菏泽市,气象局,颗粒物(PM10),69,87,92,19,25,139,,167,155,19,21,6,8,0.4,0.4
2024-05-16T2300,1719A,115.4747,35.2375,菏泽市,市政协,颗粒物(PM10),89,128,85,36,30,130,,164,156,14,13,4,6,0.1,0.1
2024-05-16T2300,3374A,115.5564,35.0891,菏泽市,定陶老年大学,颗粒物(PM10),64,78,76,27,25,98,,150,134,22,21,5,9,0.6,0.5
2024-05-16T2300,3647A,115.4702,35.2706,菏泽市,菏泽医专,颗粒物(PM10),63,75,78,11,13,138,,167,157,12,15,6,6,0.4,0.3
2024-05-16T2300,2514A,111.5264,24.4172,贺州市,环保小区,,,79,63,51,30,,,137,,26,20,7,8,0.7,0.7
2024-05-16T2300,2515A,111.5608,24.4078,贺州市,政协大楼,颗粒物(PM10),55,59,56,34,25,54,,148,114,32,22,9,10,0.7,0.6
2024-05-16T2300,3534A,111.4744,24.4553,贺州市,西湾,颗粒物(PM10),80,110,68,45,32,21,,131,83,47,24,6,8,0.6,0.6
2024-05-16T2300,2385A,114.17,35.9019,鹤壁市,市监测站,颗粒物(PM10),51,51,80,30,37,140,,168,164,5,17,7,15,0.6,0.6
2024-05-16T2300,2386A,114.2956,35.7511,鹤壁市,市交警支队,,42,42,69,18,23,121,,179,167,18,22,8,11,0.3,0.4
2024-05-16T2300,2387A,114.2878,35.7306,鹤壁市,迎宾馆,,50,36,75,35,33,124,,182,169,15,22,11,14,0.4,0.5
2024-05-16T2300,3474A,114.2617,35.6822,鹤壁市,大新区,,36,36,94,11,35,92,,168,150,16,33,8,14,0.5,0.6
2024-05-16T2300,3596A,114.1572,35.9603,鹤壁市,南山宾馆,,46,44,73,32,29,136,,173,165,18,21,10,14,0.7,0.6
2024-05-16T2300,2244A,130.2537,47.3416,鹤岗市,哈啤分公司,,33,33,17,11,9,52,,77,62,8,6,13,12,0.5,0.5
2024-05-16T2300,2245A,130.2684,47.3086,鹤岗市,斯达机电,,40,40,19,26,12,40,,79,63,22,10,11,10,0.5,0.4
2024-05-16T2300,2246A,130.3114,47.3388,鹤岗市,东山纸板厂,,,,25,15,13,3,,75,46,34,14,16,14,1.2,0.7
2024-05-16T2300,2247A,130.1097,47.3382,鹤岗市,五号水库,,21,21,15,9,6,52,,89,69,8,6,11,11,0.2,0.2
2024-05-16T2300,2263A,127.4833,50.2524,黑河市,交通局,,30,30,18,18,14,81,,93,84,7,10,7,8,0.2,0.2
2024-05-16T2300,2264A,127.5144,50.2341,黑河市,环保局,,28,20,14,15,12,89,,96,90,7,8,3,4,0.3,0.3
2024-05-16T2300,1074A,115.6838,37.7541,衡水市,电机北厂,颗粒物(PM10),68,85,53,28,16,136,,150,148,12,13,5,5,0.4,0.3
2024-05-16T2300,1075A,115.6303,37.7316,衡水市,市监测站,颗粒物(PM10),61,72,54,20,13,129,,149,147,17,18,7,6,0.4,0.3
2024-05-16T2300,3188A,115.6683,37.7217,衡水市,市城管局,颗粒物(PM10),57,63,52,27,19,126,,149,147,20,18,4,4,0.4,0.3
2024-05-16T2300,3459A,115.5989,37.5491,衡水市,地表水厂,颗粒物(PM10),61,71,60,23,16,104,,142,138,23,20,5,4,0.5,0.4
2024-05-16T2300,2456A,112.5003,26.9167,衡阳市,原169医院,细颗粒物(PM2.5),59,65,78,42,38,99,,166,138,18,12,6,6,0.9,0.8
2024-05-16T2300,2457A,112.6194,26.9258,衡阳市,衡阳化工总厂,颗粒物(PM10),83,116,92,49,41,122,,217,181,23,15,20,13,1.5,0.7
2024-05-16T2300,2458A,112.6211,26.8956,衡阳市,珠晖区环保局,颗粒物(PM10),69,87,87,46,40,142,,219,190,15,20,11,10,0.8,0.8
2024-05-16T2300,2459A,112.6197,26.8733,衡阳市,市委党校,细颗粒物(PM2.5),74,93,87,54,36,120,,214,175,23,15,18,11,0.8,0.7
2024-05-16T2300,2460A,112.6006,26.8919,衡阳市,市监测站,颗粒物(PM10),89,128,89,64,43,126,,222,182,24,15,16,12,1.4,1
2024-05-16T2300,2461A,112.5664,26.9056,衡阳市,真空机电公司,颗粒物(PM10),68,85,86,44,41,136,,206,178,21,17,11,11,0.8,0.8
2024-05-16T2300,3399A,112.6703,26.882,衡阳市,师范学院,细颗粒物(PM2.5),89,113,85,66,42,91,,202,162,33,17,16,13,0.8,0.7
2024-05-16T2300,2608A,103.3772,23.3993,红河哈尼族彝族自治州,污水处理厂,,,,22,14,18,,,88,81,6,10,7,12,0.4,0.5
2024-05-16T2300,2609A,103.3861,23.35,红河哈尼族彝族自治州,监测站,,25,13,15,10,9,78,,83,80,7,11,10,12,0.2,0.4
2024-05-16T2300,3038A,103.3758,23.368,红河哈尼族彝族自治州,州图书馆,,24,,15,10,15,75,,76,76,5,8,4,9,0.4,0.4
2024-05-16T2300,1090A,111.6507,40.7517,呼和浩特市,呼市一监,,44,44,78,21,31,74,,141,108,23,29,5,9,0.4,0.5
2024-05-16T2300,1091A,111.6572,40.8033,呼和浩特市,小召,,46,46,80,18,26,65,,120,97,32,35,5,9,0.4,0.5
2024-05-16T2300,1094A,111.7516,40.8369,呼和浩特市,如意水处理厂,,49,49,77,10,22,55,,119,93,36,37,5,8,0.3,0.4
2024-05-16T2300,1095A,111.7276,40.8062,呼和浩特市,二十九中,,42,42,83,20,29,78,,130,106,22,32,2,5,0.3,0.5
2024-05-16T2300,1096A,111.5512,40.7866,呼和浩特市,工大金川校区,,45,45,81,21,29,51,,122,92,40,44,5,7,0.3,0.3
2024-05-16T2300,1097A,111.717,40.7612,呼和浩特市,化肥厂生活区,,39,39,88,25,33,79,,131,103,19,28,5,9,0.3,0.5
2024-05-16T2300,3698A,111.5968,40.8178,呼和浩特市,红旗小学,颗粒物(PM10),51,51,99,14,30,73,,124,101,25,42,3,6,0.3,0.4
2024-05-16T2300,3699A,111.6518,40.8389,呼和浩特市,海东办,颗粒物(PM10),52,53,85,17,31,55,,121,99,38,38,3,6,0.3,0.4
2024-05-16T2300,2192A,119.7594,49.2261,呼伦贝尔市,区环保局,,42,42,37,22,13,72,,103,90,15,14,4,5,0.4,0.3
2024-05-16T2300,3061A,119.7512,49.1577,呼伦贝尔市,国华电力东,,48,48,28,21,9,61,,107,88,8,6,2,3,0.2,0.2
2024-05-16T2300,1250A,120.0751,30.8669,湖州市,城西水厂,颗粒物(PM10),61,71,41,30,13,121,,142,138,34,32,6,5,0.6,0.5
2024-05-16T2300,2873A,120.0875,30.8955,湖州市,仁皇山新区,颗粒物(PM10),56,62,36,33,13,122,,144,138,35,32,7,6,0.7,0.5
2024-05-16T2300,2907A,120.1844,30.8596,湖州市,吴兴区站,颗粒物(PM10),56,61,36,22,12,94,,146,139,41,29,8,6,0.5,0.4
2024-05-16T2300,3562A,120.4148,30.8538,湖州市,南浔区站,,50,50,35,19,13,75,,143,132,39,25,8,6,0.4,0.3
2024-05-16T2300,1607A,120.9092,40.7136,葫芦岛市,龙港区,颗粒物(PM10),56,61,56,39,24,106,,138,120,14,27,8,27,0.7,0.8
2024-05-16T2300,1608A,120.8392,40.7514,葫芦岛市,化工街,颗粒物(PM10),51,51,68,19,21,101,,144,124,22,41,12,19,1.2,1.2
2024-05-16T2300,1609A,120.8341,40.7073,葫芦岛市,新区,细颗粒物(PM2.5),53,,51,37,23,108,,145,126,17,34,7,11,0.6,0.8
2024-05-16T2300,1610A,120.8695,40.7677,葫芦岛市,东城区,,50,35,53,35,22,94,,142,122,22,38,6,20,0.9,1.1
2024-05-16T2300,2482A,109.5981,27.5721,怀化市,林科所,颗粒物(PM10),58,66,73,33,28,135,,169,150,6,10,8,7,0.7,0.8
2024-05-16T2300,2483A,109.9453,27.5444,怀化市,河西地税局,细颗粒物(PM2.5),63,63,76,45,38,68,,153,113,20,14,6,6,0.7,0.6
2024-05-16T2300,2484A,109.9781,27.5342,怀化市,市四医院,颗粒物(PM10),90,130,102,58,46,81,,161,126,28,19,7,7,0.7,0.6
2024-05-16T2300,2485A,109.9972,27.5578,怀化市,监测楼,颗粒物(PM10),67,83,97,39,40,71,,151,,21,15,8,11,0.7,0.7
2024-05-16T2300,2486A,110.0394,27.583,怀化市,市委党校,颗粒物(PM10),56,61,100,28,38,78,,165,130,19,12,5,9,0.5,0.5
2024-05-16T2300,1210A,119.036,33.5981,淮安市,钵池山,,39,39,40,16,15,117,,150,142,24,21,10,10,0.6,0.5
2024-05-16T2300,1211A,119.007,33.575,淮安市,北京南路,,41,41,49,21,20,103,,148,138,35,27,12,12,0.4,0.4
2024-05-16T2300,1212A,118.989,33.6067,淮安市,市监测站,,44,44,41,29,19,97,,149,135,44,24,20,11,1.2,0.6
2024-05-16T2300,1213A,119.135,33.5039,淮安市,楚州区监测站,,39,37,55,27,36,122,,154,142,23,37,8,9,0.7,0.5
2024-05-16T2300,1214A,119.0186,33.6297,淮安市,淮阴区监测站,,46,46,42,19,26,115,,146,140,28,24,10,9,0.4,0.5
2024-05-16T2300,3426A,118.8755,33.2894,淮安市,新华书店,,33,30,38,22,20,104,,148,132,28,24,8,7,0.6,0.5
2024-05-16T2300,2282A,116.8004,33.975,淮北市,监测站,颗粒物(PM10),60,69,60,29,23,143,,163,159,12,17,7,9,0.6,0.5
2024-05-16T2300,2283A,116.8091,33.9007,淮北市,烈山区政府,颗粒物(PM10),77,103,92,24,25,129,,160,153,14,25,11,8,0.5,0.4
2024-05-16T2300,3330A,116.8873,33.9836,淮北市,杜集区检察院,颗粒物(PM10),68,85,78,28,29,155,,168,166,11,18,7,7,0.5,0.4
2024-05-16T2300,4017A,116.7923,33.9535,淮北市,市博物馆,颗粒物(PM10),61,71,75,30,29,144,,163,160,10,20,8,10,0.6,0.5
2024-05-16T2300,2277A,116.8305,32.7727,淮南市,潘集区政府,颗粒物(PM10),56,62,64,34,31,124,,159,150,22,21,6,9,0.2,0.3
2024-05-16T2300,2278A,117.0067,32.6524,淮南市,师范学院,细颗粒物(PM2.5),52,51,50,36,21,128,,161,153,15,11,10,8,0.3,0.3
2024-05-16T2300,2279A,116.8569,32.5951,淮南市,谢家集区政府,颗粒物(PM10),56,61,51,16,16,102,,156,139,25,16,6,6,0.1,0.1
2024-05-16T2300,2280A,116.8281,32.633,淮南市,八公山区政府,颗粒物(PM10),57,64,51,18,18,105,,147,137,19,13,4,4,0.3,0.2
2024-05-16T2300,2281A,116.6325,32.6201,淮南市,焦岗湖风景区管理处,,36,36,38,14,15,104,,123,120,20,20,4,4,0.2,0.2
2024-05-16T2300,2894A,117.0566,32.6531,淮南市,经济技术开发区消防队,颗粒物(PM10),59,67,57,35,25,108,,159,143,27,17,8,6,0.3,0.2
2024-05-16T2300,3329A,117.0108,32.5893,淮南市,山南新区,颗粒物(PM10),61,72,64,34,15,120,,165,153,20,15,6,6,0.3,0.2
2024-05-16T2300,2446A,114.9028,30.4742,黄冈市,职工中心,细颗粒物(PM2.5),84,98,66,62,29,123,,189,168,21,11,12,10,0.6,0.4
2024-05-16T2300,2929A,114.8858,30.4519,黄冈市,红卫路,细颗粒物(PM2.5),78,91,64,57,28,118,,171,154,14,8,14,13,0.9,0.7
2024-05-16T2300,3398A,114.9136,30.4445,黄冈市,市林业局,细颗粒物(PM2.5),74,92,57,54,25,130,,196,174,19,8,7,6,0.6,0.4
2024-05-16T2300,2672A,102.0199,35.5102,黄南藏族自治州,同仁县隆务镇,,48,48,32,18,14,112,,151,137,1,2,8,8,0.6,0.6
2024-05-16T2300,2295A,118.2903,29.6963,黄山市,延安路89号,颗粒物(PM10),56,62,57,28,20,58,,158,116,20,9,5,6,0.5,0.4
2024-05-16T2300,2296A,118.327,29.7178,黄山市,黄山东路89号,,49,49,47,28,17,50,,147,102,18,11,5,6,0.4,0.3
2024-05-16T2300,2297A,118.1371,30.2756,黄山市,黄山区政府5号楼,细颗粒物(PM2.5),64,,39,46,23,50,,129,96,10,9,4,4,0.6,0.4
2024-05-16T2300,2424A,115.0817,30.2006,黄石市,陈家湾,颗粒物(PM10),59,68,52,39,23,114,,196,181,30,12,12,10,0.8,0.6
2024-05-16T2300,2426A,114.8988,30.2019,黄石市,铁山,"颗粒物(PM10),细颗粒物(PM2.5)",58,66,52,41,21,120,,195,173,26,11,17,11,0.8,0.8
2024-05-16T2300,2427A,115.0307,30.2092,黄石市,团城山,颗粒物(PM10),62,73,58,36,19,139,,190,179,14,9,17,12,0.6,0.6
2024-05-16T2300,3149A,115.0235,30.1578,黄石市,笔架山北路,颗粒物(PM10),60,69,50,37,16,143,,186,176,14,10,19,11,0.9,0.6
2024-05-16T2300,1392A,114.4183,23.0528,惠州市,河南岸金山湖子站,颗粒物(PM10),59,68,52,29,25,147,,169,168,15,15,6,7,0.5,0.5
2024-05-16T2300,1393A,114.4053,23.0822,惠州市,下埔横江三路子站,臭氧1小时,62,70,51,36,26,169,,178,178,15,17,8,9,0.6,0.6
2024-05-16T2300,1394A,114.4103,23.1142,惠州市,江北云山西路子站,臭氧1小时,83,67,51,31,21,186,,187,187,8,15,8,8,0.6,0.6
2024-05-16T2300,1395A,114.4645,22.7833,惠州市,惠阳区承修路船湖子站,颗粒物(PM10),56,62,47,25,22,159,,188,179,13,15,4,6,0.5,0.5
2024-05-16T2300,1396A,114.5317,22.7422,惠州市,大亚湾管委会子站,臭氧1小时,59,63,49,26,23,167,,199,186,18,21,6,6,0.6,0.6
2024-05-16T2300,3314A,114.4338,22.8134,惠州市,惠阳秋长,臭氧1小时,73,70,53,23,22,178,,220,209,15,14,5,6,0.7,0.6
2024-05-16T2300,3452A,114.6517,22.775,惠州市,大亚湾霞涌,臭氧1小时,78,56,42,22,20,182,,200,195,8,12,7,7,0.4,0.4
2024-05-16T2300,2240A,130.9762,45.3001,鸡西市,环保局,,34,34,20,13,8,37,,61,56,31,10,6,7,0,0.3
2024-05-16T2300,2243A,130.9429,45.3039,鸡西市,第一中学,,35,35,22,10,12,55,,78,69,11,9,8,8,0.4,0.3
2024-05-16T2300,3707A,131.0207,45.3073,鸡西市,欧美日汽修厂,颗粒物(PM10),59,68,30,31,22,23,,72,57,37,16,4,4,0.5,0.4
2024-05-16T2300,3709A,130.9967,45.3106,鸡西市,市政设施管理处,,48,48,34,27,18,12,,72,52,32,21,7,7,0.5,0.4
2024-05-16T2300,2367A,114.9754,27.0803,吉安市,红声器材厂,颗粒物(PM10),53,56,70,30,28,73,,197,144,36,22,10,15,0.6,0.6
2024-05-16T2300,2368A,114.9658,27.0999,吉安市,市森林工业局,颗粒物(PM10),59,67,68,40,32,60,,188,132,39,20,13,15,0.6,0.5
2024-05-16T2300,2369A,114.99,27.1312,吉安市,市环境监测站,颗粒物(PM10),54,58,63,26,27,85,,190,145,31,19,14,17,0.7,0.6
2024-05-16T2300,2370A,115.0093,27.0968,吉安市,青原区法院,,49,42,68,34,31,72,,184,130,34,21,14,19,0.5,0.5
2024-05-16T2300,1772A,126.54,43.8622,吉林市,哈达湾,颗粒物(PM10),56,62,27,23,11,46,,104,86,35,20,6,7,0.6,0.5
2024-05-16T2300,1773A,126.5844,43.8358,吉林市,东局子,,48,48,30,17,10,32,,101,72,48,22,5,5,0.7,0.6
2024-05-16T2300,1774A,126.5052,43.8245,吉林市,电力学院,颗粒物(PM10),57,64,36,30,14,19,,108,70,43,22,9,9,0.7,0.6
2024-05-16T2300,1775A,126.6133,43.8972,吉林市,江北,,47,47,39,20,14,39,,100,72,39,22,12,8,0.7,0.6
2024-05-16T2300,1776A,126.555,43.8306,吉林市,江南公园,,32,32,25,13,12,50,,101,77,29,20,5,6,0.6,0.5
2024-05-16T2300,2868A,126.4739,43.953,吉林市,九站,细颗粒物(PM2.5),64,76,40,46,20,8,,102,74,75,28,9,12,0.8,0.6
2024-05-16T2300,1299A,116.9862,36.6114,济南市,科干所,颗粒物(PM10),54,58,57,15,15,157,,162,160,8,10,8,8,0.7,0.6
2024-05-16T2300,1300A,116.9376,36.665,济南市,农科所,颗粒物(PM10),62,73,64,15,13,143,,159,152,17,18,6,7,0.5,0.5
2024-05-16T2300,1301A,117.1265,36.6734,济南市,开发区,颗粒物(PM10),68,85,58,17,16,166,,171,170,10,11,8,8,0.6,0.5
2024-05-16T2300,1303A,117.0624,36.6868,济南市,省种子仓库,颗粒物(PM10),69,88,81,14,14,158,,160,157,8,11,4,5,0.3,0.3
2024-05-16T2300,1304A,116.9489,36.6447,济南市,机床二厂,颗粒物(PM10),62,73,75,15,14,151,,159,155,6,9,10,10,0.2,0.2
2024-05-16T2300,1305A,117.0495,36.663,济南市,市监测站,颗粒物(PM10),75,100,61,12,12,168,,171,170,15,15,10,9,0.3,0.2
2024-05-16T2300,1306A,116.7675,36.5484,济南市,长清党校,颗粒物(PM10),62,73,64,12,16,154,,164,159,10,14,11,12,0.5,0.5
2024-05-16T2300,1616A,117.6795,36.229,济南市,技术学院,颗粒物(PM10),58,66,63,22,18,130,,165,154,21,41,10,11,0.5,0.5
2024-05-16T2300,1961A,117.532,36.6868,济南市,东山小学,颗粒物(PM10),59,68,55,10,11,157,,173,168,15,14,7,7,0.3,0.2
2024-05-16T2300,3059A,117.7161,36.2049,济南市,泰兴公司,颗粒物(PM10),73,95,58,24,16,48,,158,130,80,37,11,10,0.4,0.4
2024-05-16T2300,3064A,117.6867,36.2171,济南市,莱芜战役纪念馆,颗粒物(PM10),58,66,65,22,22,120,,150,138,16,32,7,9,0.7,0.7
2024-05-16T2300,3494A,117.1673,36.9782,济南市,济阳区政府,颗粒物(PM10),72,93,79,34,18,122,,160,146,28,26,11,10,0.5,0.5
2024-05-16T2300,3495A,117.1171,36.63,济南市,锦屏中学,颗粒物(PM10),59,68,52,17,12,166,,170,170,6,8,8,8,0.3,0.3
2024-05-16T2300,3682A,116.9814,36.6819,济南市,济南四建,颗粒物(PM10),62,73,70,15,15,151,,158,154,11,13,8,9,0.3,0.3
2024-05-16T2300,1653A,116.6251,35.4302,济宁市,火炬城,颗粒物(PM10),56,61,65,12,14,127,,157,151,12,16,9,10,0.5,0.5
2024-05-16T2300,1655A,116.5491,35.4042,济宁市,电化厂,颗粒物(PM10),70,89,93,14,20,143,,157,152,6,25,9,7,0.6,0.5
2024-05-16T2300,3500A,116.5814,35.3707,济宁市,北湖一中,颗粒物(PM10),61,72,71,14,15,134,,148,144,9,19,6,5,0.3,0.3
2024-05-16T2300,3501A,116.8249,35.5593,济宁市,服务中心,颗粒物(PM10),61,71,77,15,17,100,,142,127,22,26,6,7,0.6,0.6
2024-05-16T2300,3678A,116.5907,35.4054,济宁市,市第七中学,颗粒物(PM10),52,54,69,14,14,138,,161,154,11,15,7,7,0.4,0.4
2024-05-16T2300,2255A,130.2751,46.8028,佳木斯市,佳纺,颗粒物(PM10),65,79,32,28,9,10,,89,51,45,16,4,4,0.5,0.4
2024-05-16T2300,2256A,130.3995,46.8307,佳木斯市,发电厂,,33,33,18,16,12,4,,84,58,59,14,6,5,0.8,0.4
2024-05-16T2300,2257A,130.3258,46.7975,佳木斯市,环保局,,43,43,21,14,8,11,,78,45,49,20,9,5,0.7,0.5
2024-05-16T2300,2258A,130.3648,46.8032,佳木斯市,十一中,颗粒物(PM10),52,53,20,25,9,13,,84,54,54,22,6,6,0.8,0.5
2024-05-16T2300,2259A,130.3794,46.7588,佳木斯市,四丰,,22,22,12,10,6,57,,83,67,8,9,1,4,0.5,0.5
2024-05-16T2300,1252A,120.7436,30.778,嘉兴市,清河小学,颗粒物(PM10),53,56,37,13,11,66,,146,128,41,29,6,5,1.0,0.7
2024-05-16T2300,1253A,120.726,30.7478,嘉兴市,嘉兴学院,,50,50,40,17,11,66,,153,134,35,29,6,6,0.5,0.4
2024-05-16T2300,2872A,120.7846,30.7525,嘉兴市,南湖区残联,颗粒物(PM10),55,60,49,20,14,80,,160,139,30,23,8,7,0.5,0.4
2024-05-16T2300,3407A,120.6916,30.7739,嘉兴市,秀洲住建,,42,42,34,19,15,76,,165,143,22,20,6,6,0.6,0.4
2024-05-16T2300,1945A,98.2908,39.7711,嘉峪关市,气象局,颗粒物(PM10),500,603,982,273,416,18,,106,88,96,27,5,13,0.8,0.6
2024-05-16T2300,2884A,98.2672,39.7978,嘉峪关市,酒钢宾馆,颗粒物(PM10),500,610,1010,246,481,61,,108,100,45,24,2,22,0.3,0.5
2024-05-16T2300,3248A,98.2643,39.7724,嘉峪关市,雄关区,颗粒物(PM10),408,508,807,152,219,17,,104,86,84,26,8,12,0.8,0.5
2024-05-16T2300,1383A,113.1064,22.6058,江门市,北街,,50,50,41,26,20,147,,200,189,20,22,5,5,0.6,0.6
2024-05-16T2300,1384A,113.0731,22.5835,江门市,西区,颗粒物(PM10),60,70,45,18,17,163,,205,197,14,18,8,8,0.4,0.4
2024-05-16T2300,1385A,113.0219,22.5311,江门市,圭峰西,臭氧1小时,55,47,39,17,17,164,,196,194,14,18,5,6,0.6,0.6
2024-05-16T2300,1386A,113.0828,22.5947,江门市,东湖,颗粒物(PM10),57,64,42,9,17,156,,201,193,17,19,7,7,0.5,0.5
2024-05-16T2300,3311A,113.1075,22.5647,江门市,江海富民,颗粒物(PM10),59,68,51,28,18,154,,202,193,17,20,6,6,0.6,0.5
2024-05-16T2300,3449A,113.05,22.4667,江门市,新会银湖,,48,48,43,17,21,153,,210,199,12,23,6,6,0.6,0.5
2024-05-16T2300,1828A,113.227,35.2125,焦作市,市环保局,颗粒物(PM10),55,59,67,25,27,134,,186,176,12,18,2,7,0.5,0.3
2024-05-16T2300,3169A,113.2725,35.2067,焦作市,太极体育中心,颗粒物(PM10),63,76,72,23,22,129,,187,176,12,17,6,9,0.2,0.2
2024-05-16T2300,3335A,113.3137,35.2641,焦作市,马村街道办,,49,49,70,19,24,107,,175,162,20,19,2,6,0.4,0.4
2024-05-16T2300,3336A,113.2465,35.2373,焦作市,焦作技师学院,颗粒物(PM10),60,69,74,17,23,124,,173,161,12,19,2,6,0.6,0.3
2024-05-16T2300,3477A,113.1656,35.2539,焦作市,中站许衡医院,,43,38,61,19,23,137,,166,155,11,15,6,9,0.3,0.3
2024-05-16T2300,3981A,113.2449,35.1803,焦作市,原李万街道办,颗粒物(PM10),68,85,66,19,26,129,,170,162,15,23,11,9,0.3,0.4
2024-05-16T2300,1708A,116.3701,23.5345,揭阳市,新兴,,43,43,68,22,43,131,,221,169,13,28,5,12,0.5,0.7
2024-05-16T2300,1709A,116.3264,23.5443,揭阳市,西马,,46,46,74,18,41,132,,216,173,9,21,6,10,0.6,0.8
2024-05-16T2300,1710A,116.3611,23.5626,揭阳市,东兴,,50,50,74,15,34,130,,212,170,9,25,7,13,0.5,0.7
2024-05-16T2300,1711A,116.4151,23.5294,揭阳市,渔湖,,39,39,67,16,38,122,,208,164,10,25,6,13,0.5,0.7
2024-05-16T2300,3320A,116.403,23.5699,揭阳市,曲溪,颗粒物(PM10),52,54,68,17,36,127,,226,173,15,24,10,11,0.5,0.6
2024-05-16T2300,1944A,102.1692,38.5167,金昌市,天庆家园,颗粒物(PM10),101,151,240,64,99,71,,160,129,48,22,14,10,1.1,0.7
2024-05-16T2300,3170A,102.1864,38.5253,金昌市,市委党校,细颗粒物(PM2.5),148,218,301,113,104,54,,152,122,62,18,13,16,0.9,0.6
2024-05-16T2300,4022A,102.1647,38.5371,金昌市,金川区人防中心,颗粒物(PM10),106,161,302,48,118,84,,142,120,25,16,13,11,0.8,0.5
2024-05-16T2300,1262A,119.647,29.077,金华市,十五中,颗粒物(PM10),51,52,48,23,19,65,,156,117,44,22,4,4,0.5,0.4
2024-05-16T2300,1263A,119.686,29.1029,金华市,监测站,,47,47,44,25,21,36,,150,104,68,24,4,3,0.4,0.3
2024-05-16T2300,3659A,119.656,29.1131,金华市,气象局,颗粒物(PM10),56,62,48,32,19,7,,154,107,107,43,6,5,0.5,0.3
2024-05-16T2300,1767A,121.1115,41.0879,锦州市,南山,细颗粒物(PM2.5),67,48,44,48,24,102,,155,146,21,25,8,17,0.6,0.5
2024-05-16T2300,1768A,121.0533,40.8434,锦州市,开发区,细颗粒物(PM2.5),79,60,47,58,34,87,,151,124,53,28,12,10,0.6,0.7
2024-05-16T2300,1769A,121.1836,41.1119,锦州市,百股街道,,43,43,54,22,20,101,,161,151,27,31,10,30,0.7,0.6
2024-05-16T2300,1770A,121.1178,41.1222,锦州市,天安街道,细颗粒物(PM2.5),70,57,52,51,27,104,,138,132,22,28,8,20,0.8,0.7
2024-05-16T2300,1771A,121.1303,41.1386,锦州市,北湖公园,细颗粒物(PM2.5),67,,38,48,29,107,,145,140,25,25,9,11,0.8,0.7
2024-05-16T2300,2160A,112.85,35.5051,晋城市,自来水公司,,50,50,61,17,15,114,,179,169,26,33,6,9,0.6,0.7
2024-05-16T2300,2161A,112.8318,35.4936,晋城市,白云商贸,颗粒物(PM10),53,56,56,9,10,109,,179,168,32,25,6,9,0.6,0.6
2024-05-16T2300,2162A,112.8508,35.4887,晋城市,市环保局,颗粒物(PM10),65,80,85,14,19,115,,183,172,31,32,7,9,0.5,0.5
2024-05-16T2300,2163A,112.8676,35.4897,晋城市,技术学院,,47,47,51,14,13,109,,180,169,37,26,6,8,0.6,0.7
2024-05-16T2300,3620A,112.8271,35.4828,晋城市,泽州一中,颗粒物(PM10),56,62,56,12,12,122,,180,172,34,29,8,9,0.9,0.8
2024-05-16T2300,2171A,112.7532,37.6945,晋中市,锦纶小区,颗粒物(PM10),90,129,82,34,23,63,,188,155,64,30,14,14,0.5,0.4
2024-05-16T2300,2173A,112.7249,37.7067,晋中市,南都小区,颗粒物(PM10),74,97,76,42,23,99,,195,168,36,24,18,14,0.9,0.5
2024-05-16T2300,2174A,112.6991,37.6982,晋中市,榆次区政府,颗粒物(PM10),79,107,76,39,24,90,,193,164,39,26,17,14,0.6,0.7
2024-05-16T2300,2865A,112.7195,37.6828,晋中市,榆次三中,颗粒物(PM10),82,114,84,31,27,96,,196,163,37,26,18,15,1.3,0.8
2024-05-16T2300,2439A,112.2014,31.0481,荆门市,竹园小学,颗粒物(PM10),72,93,68,44,25,157,,187,180,17,20,10,10,0.5,0.5
2024-05-16T2300,2440A,112.1969,30.9891,荆门市,掇刀,颗粒物(PM10),76,102,75,36,24,151,,185,178,19,22,12,11,0.6,0.6
2024-05-16T2300,2441A,112.2213,31.0386,荆门市,石化一小,颗粒物(PM10),75,100,81,46,30,142,,192,184,26,18,14,14,0.7,0.5
2024-05-16T2300,3012A,112.1849,31.0362,荆门市,西山林语,颗粒物(PM10),68,85,69,45,28,160,,188,182,15,14,14,13,0.6,0.5
2024-05-16T2300,3547A,112.1632,31.0138,荆门市,龙泉中学南校,颗粒物(PM10),70,89,81,36,27,131,,182,171,24,22,11,9,0.6,0.5
2024-05-16T2300,1844A,112.2494,30.3197,荆州市,市图书馆,细颗粒物(PM2.5),82,79,59,60,32,149,,185,174,18,22,10,9,0.6,0.4
2024-05-16T2300,1845A,112.2008,30.3544,荆州市,市委党校,细颗粒物(PM2.5),68,81,60,49,28,136,,183,170,26,19,11,10,0.6,0.5
2024-05-16T2300,3194A,112.2747,30.3122,荆州市,管委会,颗粒物(PM10),68,86,60,47,28,156,,189,174,19,18,6,7,0.6,0.5
2024-05-16T2300,3548A,112.1655,30.3364,荆州市,学苑路,细颗粒物(PM2.5),57,48,47,40,26,139,,194,177,18,14,7,7,0.6,0.5
2024-05-16T2300,2343A,117.2117,29.2933,景德镇市,老干部活动中心,颗粒物(PM10),51,51,52,28,24,98,,166,141,16,15,5,6,0.4,0.3
2024-05-16T2300,2344A,117.1894,29.2789,景德镇市,兽医站,颗粒物(PM10),55,59,56,29,23,106,,176,151,17,10,6,9,0.5,0.4
2024-05-16T2300,2345A,117.1547,29.2617,景德镇市,台达陶瓷,颗粒物(PM10),68,85,56,37,24,16,,158,110,118,24,27,14,0.8,0.3
2024-05-16T2300,2346A,117.2461,29.2956,景德镇市,陶研所,,43,43,46,23,21,99,,158,136,9,10,4,4,0.3,0.2
2024-05-16T2300,1803A,115.9872,29.6815,九江市,十里,颗粒物(PM10),61,72,57,35,24,71,,175,132,39,22,8,11,0.7,0.6
2024-05-16T2300,1804A,115.9584,29.7046,九江市,茅山头,颗粒物(PM10),57,64,52,35,18,105,,174,144,42,21,9,9,0.6,0.5
2024-05-16T2300,1805A,115.9877,29.7295,九江市,西园,细颗粒物(PM2.5),69,79,59,50,22,44,,162,128,60,23,55,18,0.8,0.7
2024-05-16T2300,1806A,116.0172,29.6547,九江市,五七二七厂,颗粒物(PM10),52,54,51,23,23,120,,165,145,10,14,9,17,0.7,0.8
2024-05-16T2300,1808A,115.9114,29.6038,九江市,综合工业园,颗粒物(PM10),74,97,67,52,30,101,,164,139,58,29,11,13,0.8,0.7
2024-05-16T2300,1809A,116.0721,29.7535,九江市,石化总厂,细颗粒物(PM2.5),72,72,58,52,32,149,,176,170,16,21,12,14,0.7,0.7
2024-05-16T2300,1810A,115.9773,29.5698,九江市,庐山气象台,臭氧1小时,52,35,33,22,18,161,,150,147,3,3,9,8,0.6,0.7
2024-05-16T2300,3190A,116.0254,29.6994,九江市,外国语学校,"颗粒物(PM10),细颗粒物(PM2.5)",57,63,60,40,29,104,,168,151,28,22,50,15,0.6,0.6
2024-05-16T2300,2658A,98.5061,39.7443,酒泉市,仓门街子站,颗粒物(PM10),500,637,1078,198,250,37,,109,96,58,27,11,14,0.8,0.6
2024-05-16T2300,2659A,98.4989,39.7256,酒泉市,油田生活基地,颗粒物(PM10),500,681,1102,175,269,25,,106,94,75,26,11,16,0.4,0.4
2024-05-16T2300,2698A,76.0072,39.4467,喀什地区,巡警大队,颗粒物(PM10),143,235,181,69,41,32,,117,101,92,47,3,4,0.9,0.5
2024-05-16T2300,2699A,75.9755,39.4694,喀什地区,吾办,,,,190,,68,,,14,,,62,,4,,0.9
2024-05-16T2300,4027A,75.9483,39.4689,喀什地区,老干局,颗粒物(PM10),160,269,292,73,57,39,,113,97,68,45,8,5,0.9,0.6
2024-05-16T2300,1824A,114.3389,34.7781,开封市,肿瘤医院,颗粒物(PM10),80,110,92,25,20,110,,169,149,19,24,4,5,0.5,0.3
2024-05-16T2300,1826A,114.2885,34.7965,开封市,世纪星幼儿园,细颗粒物(PM2.5),95,110,104,71,35,110,,172,153,19,26,5,7,0.4,0.3
2024-05-16T2300,3147A,114.3438,34.8106,开封市,龙亭公园,颗粒物(PM10),161,271,99,55,29,107,,172,155,18,19,5,6,0.5,0.5
2024-05-16T2300,3210A,114.3644,34.7964,开封市,汴京公园,颗粒物(PM10),64,78,91,34,27,112,,173,155,19,23,4,5,0.5,0.3
2024-05-16T2300,3473A,114.2485,34.8306,开封市,技师学院,颗粒物(PM10),77,104,118,46,27,114,,176,159,19,21,7,8,0.6,0.4
2024-05-16T2300,3592A,114.4644,34.7556,开封市,祥符区生态环境局,颗粒物(PM10),81,111,98,44,36,99,,160,141,27,30,8,7,0.6,0.4
2024-05-16T2300,1951A,84.895,45.6094,克拉玛依市,长征新村,颗粒物(PM10),83,115,65,11,13,100,,123,111,2,11,8,9,0.2,0.2
2024-05-16T2300,1952A,84.8988,45.5893,克拉玛依市,南林小区,颗粒物(PM10),89,128,75,50,25,106,,124,116,2,20,7,8,0.3,0.5
2024-05-16T2300,1954A,84.905,44.3396,克拉玛依市,独山子区,,,,54,,26,91,,146,125,10,17,8,8,0.3,0.3
2024-05-16T2300,1955A,85.6979,46.098,克拉玛依市,乌尔禾区商贸楼,颗粒物(PM10),87,124,51,24,8,99,,121,113,2,8,10,10,0.1,0.2
2024-05-16T2300,3612A,85.1045,45.6899,克拉玛依市,白碱滩区新站,颗粒物(PM10),92,134,60,34,21,106,,131,120,2,11,9,9,0.1,0.1
2024-05-16T2300,2697A,76.1454,39.7142,克孜勒苏柯尔克孜自治州,市人民政府,颗粒物(PM10),113,175,120,64,52,62,,122,110,48,11,7,11,0.6,0.5
2024-05-16T2300,3665A,76.1658,39.7157,克孜勒苏柯尔克孜自治州,克州文化中心,,,,115,,51,64,,123,114,48,12,8,12,0.4,0.4
2024-05-16T2300,1450A,102.8204,24.8886,昆明市,呈贡新区,,29,29,22,19,15,67,,104,97,25,11,4,5,0.6,0.7
2024-05-16T2300,1452A,102.7252,25.0902,昆明市,龙泉镇,,27,27,18,13,12,81,,108,102,14,14,8,7,0.7,0.6
2024-05-16T2300,1453A,102.7266,25.0375,昆明市,东风东路,,27,27,21,17,13,76,,104,98,14,13,9,6,0.7,0.6
2024-05-16T2300,1454A,102.6742,25.0669,昆明市,金鼎山,,32,32,21,14,12,83,,109,104,12,14,6,6,0.6,0.6
2024-05-16T2300,1455A,102.6644,25.0401,昆明市,碧鸡广场,,29,29,19,15,7,77,,102,98,12,12,4,4,0.6,0.6
2024-05-16T2300,3179A,102.7494,25.0119,昆明市,官渡区博物馆,,29,23,21,9,12,92,,120,112,12,14,9,9,0.6,0.6
2024-05-16T2300,3375A,102.8017,24.8336,昆明市,青年创业园,,28,22,13,16,10,87,,114,109,13,10,8,8,0.6,0.6
2024-05-16T2300,3550A,102.7997,24.9786,昆明市,昆明学院,,30,30,22,20,15,84,,116,109,17,14,8,8,0.7,0.6
2024-05-16T2300,3551A,102.5967,24.6736,昆明市,晋宁区生态环境分局,,28,28,20,14,15,82,,109,104,12,11,2,2,0.8,0.8
2024-05-16T2300,3552A,102.6678,24.9856,昆明市,云天化总部,,28,26,22,17,14,87,,112,108,7,10,8,8,0.7,0.9
2024-05-16T2300,1456A,91.1319,29.6514,拉萨市,八廓街,,40,16,17,10,9,128,,150,147,18,11,10,9,0.8,0.6
2024-05-16T2300,1457A,91.1221,29.6747,拉萨市,市环保局,,43,17,18,7,9,135,,146,144,11,13,6,6,0.3,0.3
2024-05-16T2300,1458A,91.0874,29.6475,拉萨市,区监测站,,38,19,13,9,8,120,,150,146,25,10,5,5,0.2,0.2
2024-05-16T2300,1459A,91.1774,29.6541,拉萨市,西藏大学,,43,20,16,8,9,137,,151,149,10,9,4,4,0.4,0.4
2024-05-16T2300,1460A,90.9798,29.6588,拉萨市,区辐射站,,40,15,20,10,10,127,,140,138,14,15,6,7,0.4,0.4
2024-05-16T2300,1461A,91.0834,29.6292,拉萨市,拉萨火车站,,45,13,13,8,8,141,,148,147,4,6,6,6,0.2,0.2
2024-05-16T2300,2520A,109.2203,23.7256,来宾市,来宾技工学校,"颗粒物(PM10),细颗粒物(PM2.5)",54,57,59,38,31,112,,164,151,17,15,6,8,0.8,0.9
2024-05-16T2300,3535A,109.1781,23.7297,来宾市,兴宾区政府,颗粒物(PM10),60,70,49,41,29,101,,152,140,22,16,9,8,1.1,0.9
2024-05-16T2300,4002A,109.2416,23.7461,来宾市,中南小学,"颗粒物(PM10),细颗粒物(PM2.5)",57,64,61,40,37,107,,164,152,26,21,5,6,0.9,0.8
2024-05-16T2300,1476A,103.631,36.1031,兰州市,兰炼宾馆,颗粒物(PM10),82,113,97,49,41,41,,183,143,104,39,9,12,0.8,0.4
2024-05-16T2300,1478A,103.8412,36.0726,兰州市,生物制品所,颗粒物(PM10),116,182,97,55,46,19,,159,128,92,35,11,12,0.6,0.4
2024-05-16T2300,1479A,103.831,36.0464,兰州市,铁路设计院,颗粒物(PM10),93,136,94,44,33,3,,162,107,132,53,12,12,1.0,0.5
2024-05-16T2300,3186A,103.7158,36.1058,兰州市,教育港,颗粒物(PM10),90,130,108,65,49,56,,182,144,69,34,10,11,0.5,0.4
2024-05-16T2300,3241A,103.7439,36.0842,兰州市,百合公园,颗粒物(PM10),68,85,83,42,32,35,,166,126,77,32,4,6,0.6,0.3
2024-05-16T2300,3242A,103.9611,35.998,兰州市,和平,颗粒物(PM10),89,127,123,42,54,121,,166,158,16,20,8,10,0.2,0.3
2024-05-16T2300,3245A,103.6633,36.533,兰州新区,新区管委会,颗粒物(PM10),85,120,109,59,41,83,,168,145,35,15,50,14,0.6,0.4
2024-05-16T2300,3246A,103.6975,36.4789,兰州新区,舟曲中学,颗粒物(PM10),87,124,123,40,48,124,,164,152,21,15,9,10,0.4,0.4
2024-05-16T2300,1067A,116.6708,39.5111,廊坊市,药材公司,颗粒物(PM10),64,78,69,34,23,114,,173,160,15,17,4,4,0.4,0.4
2024-05-16T2300,1068A,116.7214,39.5589,廊坊市,开发区,颗粒物(PM10),71,91,65,26,23,118,,176,164,19,20,4,5,0.5,0.5
2024-05-16T2300,1070A,116.7244,39.5269,廊坊市,北华航天学院,颗粒物(PM10),74,98,68,25,25,110,,170,157,17,16,4,4,0.4,0.4
2024-05-16T2300,2919A,116.7022,39.5453,廊坊市,河北工业大学,颗粒物(PM10),69,88,70,30,32,118,,182,167,17,18,2,3,0.4,0.4
2024-05-16T2300,2535A,103.7723,29.5462,乐山市,花湖湾,细颗粒物(PM2.5),72,76,52,52,39,113,,153,145,21,14,5,5,0.8,0.7
2024-05-16T2300,2536A,103.7627,29.5844,乐山市,牛耳桥,细颗粒物(PM2.5),74,76,57,54,41,67,,153,135,49,20,12,8,1.1,0.6
2024-05-16T2300,2537A,103.7508,29.6006,乐山市,市第三水厂,细颗粒物(PM2.5),70,82,58,51,39,90,,152,139,35,17,16,7,0.9,0.6
2024-05-16T2300,2538A,103.7571,29.5664,乐山市,市监测站,颗粒物(PM10),63,75,58,39,47,86,,158,142,34,16,12,10,0.9,0.6
2024-05-16T2300,3361A,103.7311,29.5628,乐山市,理工大学,颗粒物(PM10),62,73,58,43,40,72,,164,138,38,17,29,11,1.3,0.7
2024-05-16T2300,2599A,100.2497,26.8802,丽江市,丽江古城,,31,24,31,17,21,97,,112,104,8,11,6,7,0.5,0.6
2024-05-16T2300,2600A,100.2203,26.8906,丽江市,市中心,,34,15,23,10,13,108,,115,109,6,10,7,9,0.5,0.5
2024-05-16T2300,1267A,119.914,28.4514,丽水市,监测站大楼,,36,23,40,12,16,115,,145,139,15,11,3,3,0.1,0.2
2024-05-16T2300,1268A,119.93,28.4586,丽水市,莲都小学,,36,26,43,10,14,113,,148,142,17,10,5,4,0.2,0.3
2024-05-16T2300,1269A,119.879,28.4231,丽水市,余庄前,,29,24,36,14,19,92,,142,124,14,10,4,4,0.3,0.3
2024-05-16T2300,1173A,119.176,34.5885,连云港市,市环境监测站,颗粒物(PM10),51,51,53,17,15,104,,143,129,23,18,8,8,0.3,0.3
2024-05-16T2300,3000A,119.3581,34.6972,连云港市,德源药业,颗粒物(PM10),51,51,45,24,17,113,,154,136,20,15,7,8,0.4,0.4
2024-05-16T2300,3007A,119.178,34.844,连云港市,新城一中,,46,46,47,15,17,117,,163,144,23,22,8,9,0.5,0.5
2024-05-16T2300,3008A,119.3608,34.7519,连云港市,胡沟管理处,,44,36,43,12,8,138,,154,147,10,12,9,9,0.4,0.4
2024-05-16T2300,3009A,119.1478,34.5911,连云港市,矿山设计院,颗粒物(PM10),52,53,68,14,15,135,,144,142,13,16,9,10,0.5,0.5
2024-05-16T2300,3434A,119.2413,34.6539,连云港市,工贸学校,颗粒物(PM10),61,71,57,26,22,140,,159,152,14,13,10,9,0.5,0.4
2024-05-16T2300,3664A,119.4172,34.7341,连云港市,连云街道,颗粒物(PM10),57,64,64,15,15,153,,162,157,11,9,6,5,0.4,0.3
2024-05-16T2300,2571A,102.3431,27.8099,凉山彝族自治州,青龙寺,,32,32,22,18,17,66,,110,92,7,7,6,6,0.7,0.6
2024-05-16T2300,2572A,102.2721,27.8415,凉山彝族自治州,邛海宾馆,,28,,20,19,14,49,,112,91,19,13,7,9,0.8,0.6
2024-05-16T2300,2573A,102.2625,27.898,凉山彝族自治州,西昌市政府,颗粒物(PM10),51,51,27,28,18,49,,108,86,23,11,9,12,0.8,0.7
2024-05-16T2300,2574A,102.2685,27.8851,凉山彝族自治州,凉山州政府,,43,43,27,29,18,53,,110,90,24,12,8,10,0.9,0.7
2024-05-16T2300,2575A,102.237,27.8914,凉山彝族自治州,长安,颗粒物(PM10),64,78,35,28,16,40,,112,88,33,14,8,11,0.9,0.7
2024-05-16T2300,2212A,123.2,41.1953,辽阳市,宏伟区,,28,27,32,12,15,88,,108,95,16,20,11,15,0.6,0.7
2024-05-16T2300,2213A,123.1683,41.2495,辽阳市,新华园,颗粒物(PM10),63,76,54,28,21,53,,116,92,49,33,15,17,0.6,0.7
2024-05-16T2300,2214A,123.2354,41.2639,辽阳市,滨河路,颗粒物(PM10),73,95,55,26,20,59,,107,87,38,29,11,12,0.5,0.5
2024-05-16T2300,2215A,123.149,41.2991,辽阳市,铁西工业园,颗粒物(PM10),65,79,57,31,25,61,,112,84,38,31,15,16,0.8,0.8
2024-05-16T2300,2227A,125.1358,42.8845,辽源市,环保局,颗粒物(PM10),53,55,26,22,12,8,,107,70,62,26,9,8,0.9,0.6
2024-05-16T2300,3239A,125.0764,42.9078,辽源市,银鹰制药,颗粒物(PM10),54,57,28,25,14,15,,104,61,63,32,15,14,0.7,0.5
2024-05-16T2300,1625A,115.9848,36.4372,聊城市,区政府,颗粒物(PM10),75,100,78,19,19,121,,146,138,21,19,16,12,0.7,0.6
2024-05-16T2300,2878A,116.0072,36.4343,聊城市,聊大东校,颗粒物(PM10),64,77,82,30,27,124,,154,146,20,19,16,11,0.6,0.5
2024-05-16T2300,3200A,115.9819,36.4978,聊城市,监控中心,颗粒物(PM10),74,97,87,12,12,133,,153,147,20,20,16,14,0.5,0.4
2024-05-16T2300,3513A,116.0445,36.4361,聊城市,九州社区,颗粒物(PM10),68,85,84,17,17,113,,152,136,20,18,10,11,0.4,0.4
2024-05-16T2300,4018A,116.0567,36.4608,聊城市,星美广场,颗粒物(PM10),75,100,82,22,18,123,,157,144,16,17,8,10,0.5,0.4
2024-05-16T2300,2632A,94.3681,29.6376,林芝市,林芝监测站,,37,6,12,3,9,116,,112,112,1,2,6,6,0.6,0.5
2024-05-16T2300,2633A,94.3616,29.6616,林芝市,林芝人民医院,,38,,9,11,6,119,,114,114,4,4,7,7,0.3,0.3
2024-05-16T2300,2603A,100.0781,23.8982,临沧市,市环保局,细颗粒物(PM2.5),57,57,47,40,38,102,,129,125,9,12,8,10,0.5,0.5
2024-05-16T2300,2604A,100.0894,23.8822,临沧市,市气象局,细颗粒物(PM2.5),60,53,45,43,38,90,,128,122,15,14,6,9,0.7,0.6
2024-05-16T2300,1733A,111.5531,36.0783,临汾市,临钢医院,颗粒物(PM10),66,82,74,23,26,105,,165,142,20,17,13,10,1.1,0.8
2024-05-16T2300,1734A,111.5028,36.0714,临汾市,技工学校,颗粒物(PM10),63,76,74,37,24,101,,181,150,28,24,9,8,0.7,0.7
2024-05-16T2300,1736A,111.5018,36.0855,临汾市,市委,颗粒物(PM10),61,71,80,29,29,98,,186,156,28,20,12,12,0.7,0.7
2024-05-16T2300,3018A,111.505,36.1014,临汾市,唐尧大酒店,颗粒物(PM10),73,95,87,27,24,85,,160,137,22,18,10,8,0.6,0.8
2024-05-16T2300,3668A,111.5036,36.0414,临汾市,城南,颗粒物(PM10),62,73,80,40,42,93,,178,143,28,21,10,10,0.8,0.7
2024-05-16T2300,2667A,103.2069,35.5993,临夏回族自治州,环保局,颗粒物(PM10),123,195,116,52,34,81,,154,132,26,18,5,5,0.4,0.4
2024-05-16T2300,2668A,103.2417,35.6057,临夏回族自治州,建设大厦,颗粒物(PM10),110,169,105,58,39,89,,159,134,20,17,11,11,0.5,0.4
2024-05-16T2300,1618A,118.3429,35.0532,临沂市,沂河小区,颗粒物(PM10),60,70,73,33,39,103,,170,145,31,25,13,15,0.3,0.4
2024-05-16T2300,1619A,118.295,35.0583,临沂市,鲁南制药厂,,48,48,60,19,31,113,,168,143,22,23,23,15,0.3,0.3
2024-05-16T2300,1620A,118.2794,34.9976,临沂市,新光毛纺厂,颗粒物(PM10),56,61,77,20,29,104,,161,135,28,26,22,14,0.5,0.5
2024-05-16T2300,1621A,118.3956,35.0888,临沂市,河东保险公司,颗粒物(PM10),62,73,60,27,38,81,,162,135,38,22,13,13,0.4,0.3
2024-05-16T2300,3370A,118.3564,35.0215,临沂市,十里堡居委,,48,48,60,27,23,99,,165,138,26,24,11,12,0.4,0.4
2024-05-16T2300,3496A,118.3604,35.1084,临沂市,南坊新区,颗粒物(PM10),64,78,62,29,19,101,,156,136,29,25,14,13,0.5,0.5
2024-05-16T2300,3860A,118.3920,35.0300,临沂市,皇山花园小区,颗粒物(PM10),56,61,73,25,24,98,,159,133,27,20,19,15,0.6,0.4
2024-05-16T2300,1870A,109.4856,24.3895,柳州市,柳东小学,细颗粒物(PM2.5),54,51,56,38,38,55,,127,110,42,18,7,10,0.7,0.7
2024-05-16T2300,1871A,109.4157,24.3277,柳州市,环保监测站,细颗粒物(PM2.5),62,70,61,44,35,64,,130,108,29,19,8,12,0.9,0.8
2024-05-16T2300,1872A,109.389,24.341,柳州市,河西水厂,颗粒物(PM10),85,119,65,59,36,25,,123,98,63,22,17,14,0.9,0.9
2024-05-16T2300,1873A,109.4311,24.2921,柳州市,市四中,颗粒物(PM10),63,76,59,44,35,59,,138,119,36,19,7,10,0.9,0.8
2024-05-16T2300,1874A,109.4006,24.3631,柳州市,市九中,细颗粒物(PM2.5),73,87,74,53,38,54,,129,107,40,24,7,10,0.7,0.7
2024-05-16T2300,1875A,109.4958,24.3134,柳州市,古亭山,,44,44,56,30,32,51,,131,98,51,24,8,9,0.6,0.7
2024-05-16T2300,3402A,109.5422,24.3996,柳州市,市二中,颗粒物(PM10),63,76,62,41,36,23,,126,89,43,25,8,9,0.6,0.7
2024-05-16T2300,2307A,116.5079,31.737,六安市,监测大楼,,50,49,32,35,14,136,,148,140,22,14,4,5,0.4,0.3
2024-05-16T2300,2308A,116.4738,31.7643,六安市,皖西学院,颗粒物(PM10),55,60,39,28,12,160,,156,149,8,15,4,4,0.5,0.3
2024-05-16T2300,2309A,116.4996,31.7905,六安市,朝阳厂,,47,47,36,28,14,141,,148,138,11,11,6,6,0.4,0.2
2024-05-16T2300,2310A,116.5567,31.7886,六安市,开发区,颗粒物(PM10),55,60,55,35,23,134,,144,132,18,21,8,11,0.5,0.5
2024-05-16T2300,2577A,104.83,26.5917,六盘水市,黄土坡,,26,,17,18,13,75,,76,72,14,14,5,5,0.4,0.4
2024-05-16T2300,2578A,104.89,26.5939,六盘水市,水钢,,30,26,19,21,16,83,,83,83,10,7,7,8,0.3,0.3
2024-05-16T2300,2579A,104.8475,26.5894,六盘水市,民中,,24,16,15,7,12,76,,76,72,12,12,5,6,0.6,0.6
2024-05-16T2300,2580A,104.9544,26.5506,六盘水市,双水,,29,7,13,3,9,90,,92,92,6,7,6,6,0.3,0.4
2024-05-16T2300,2336A,117.0217,25.1033,龙岩市,龙岩市监测站,臭氧1小时,79,75,43,44,28,183,,171,171,20,17,10,10,0.4,0.4
2024-05-16T2300,2337A,117.0258,25.0661,龙岩市,闽西职业技术学院,"细颗粒物(PM2.5),臭氧1小时",68,70,49,49,27,174,,171,171,21,21,18,14,0.6,0.5
2024-05-16T2300,2338A,117.0196,25.0306,龙岩市,龙岩学院,臭氧1小时,64,48,39,37,23,171,,164,156,12,12,9,5,0.5,0.5
2024-05-16T2300,2885A,104.9339,33.3826,陇南市,滨江中学,颗粒物(PM10),62,74,66,34,24,126,,155,143,5,4,5,7,0.9,0.8
2024-05-16T2300,3247A,104.955,33.371,陇南市,市总工会,颗粒物(PM10),51,51,55,29,23,118,,142,134,7,7,6,7,0.7,0.6
2024-05-16T2300,2487A,111.9589,27.8901,娄底市,电视发射台,颗粒物(PM10),64,78,85,36,33,95,,175,131,9,8,7,8,0.9,0.9
2024-05-16T2300,2488A,111.9975,27.725,娄底市,市监测站,颗粒物(PM10),64,78,107,35,40,137,,179,161,9,9,7,7,0.7,0.6
2024-05-16T2300,2489A,112.0194,27.7314,娄底市,市委党校,细颗粒物(PM2.5),68,79,97,49,39,131,,169,151,11,10,6,6,0.7,0.6
2024-05-16T2300,2490A,111.9561,27.7569,娄底市,涟钢,细颗粒物(PM2.5),83,110,108,61,42,71,,158,121,42,26,12,13,0.7,0.8
2024-05-16T2300,2491A,111.9892,27.7044,娄底市,市政府,"颗粒物(PM10),细颗粒物(PM2.5)",72,93,97,52,41,90,,182,157,23,12,8,9,1.0,0.7
2024-05-16T2300,1893A,105.4324,28.9634,泸州市,九狮山,颗粒物(PM10),63,76,40,26,23,45,,114,85,25,13,9,8,0.4,0.4
2024-05-16T2300,1894A,105.4427,28.9063,泸州市,小市上码头,颗粒物(PM10),55,60,40,28,21,67,,131,111,22,11,38,16,0.3,0.3
2024-05-16T2300,1895A,105.4241,28.8573,泸州市,兰田宪桥,颗粒物(PM10),54,57,35,31,22,59,,126,100,22,13,5,5,0.4,0.3
2024-05-16T2300,1896A,105.4379,28.8833,泸州市,市环监站,颗粒物(PM10),54,58,41,36,23,64,,124,108,25,11,6,10,0.5,0.3
2024-05-16T2300,3490A,105.3617,28.7703,泸州市,纳溪区环保局,颗粒物(PM10),53,55,39,27,18,34,,124,85,42,21,4,3,0.4,0.3
2024-05-16T2300,2183A,111.1406,37.5211,吕梁市,环保局,颗粒物(PM10),85,120,84,33,37,63,,172,117,61,41,5,5,0.6,0.5
2024-05-16T2300,2185A,111.1297,37.5136,吕梁市,自来水公司,颗粒物(PM10),68,86,76,32,30,80,,161,130,44,34,5,6,0.6,0.6
2024-05-16T2300,2867A,111.1283,37.51,吕梁市,马茂庄小学,颗粒物(PM10),94,137,92,45,31,36,,173,122,74,42,5,5,0.6,0.5
2024-05-16T2300,1812A,112.3931,34.6516,洛阳市,市委党校,颗粒物(PM10),62,73,68,41,33,114,,160,149,23,19,9,6,0.6,0.4
2024-05-16T2300,1814A,112.4657,34.6871,洛阳市,豫西宾馆,颗粒物(PM10),65,80,72,30,24,107,,166,154,27,25,11,8,0.7,0.4
2024-05-16T2300,1815A,112.494,34.6886,洛阳市,河南林校,颗粒物(PM10),61,72,53,38,25,88,,163,149,42,28,7,6,0.5,0.3
2024-05-16T2300,1816A,112.3844,34.623,洛阳市,开发区管委会,颗粒物(PM10),63,75,62,35,28,100,,153,139,21,13,6,4,0.5,0.3
2024-05-16T2300,1817A,112.4267,34.6258,洛阳市,市委新办公区,颗粒物(PM10),65,80,64,42,30,116,,167,154,18,15,10,8,0.4,0.3
2024-05-16T2300,3340A,112.6005,34.6326,洛阳市,伊滨,颗粒物(PM10),71,92,63,44,26,79,,164,141,38,29,6,7,0.6,0.3
2024-05-16T2300,3341A,112.4951,34.6332,洛阳市,中移产业园,颗粒物(PM10),62,74,61,33,27,98,,170,152,28,23,6,8,0.7,0.5
2024-05-16T2300,3593A,112.5736,34.8993,洛阳市,吉利监测站,颗粒物(PM10),70,90,65,39,27,44,,165,133,61,27,9,6,0.4,0.4
2024-05-16T2300,3635A,112.3677,34.662,洛阳市,河科大西苑校区,颗粒物(PM10),65,80,69,28,32,115,,157,147,16,27,8,8,0.6,0.4
2024-05-16T2300,3636A,112.4388,34.6781,洛阳市,英才小学,颗粒物(PM10),64,78,69,33,24,117,,162,152,20,28,12,8,0.7,0.5
2024-05-16T2300,2399A,114.051,33.5699,漯河市,三五一五工厂,颗粒物(PM10),64,78,89,34,28,125,,162,150,16,23,7,10,0.5,0.5
2024-05-16T2300,2400A,114.0055,33.5698,漯河市,漯河大学,颗粒物(PM10),65,79,80,36,32,116,,160,144,17,23,8,11,0.4,0.3
2024-05-16T2300,2401A,114.0138,33.5828,漯河市,市水利局,颗粒物(PM10),51,51,81,31,32,126,,164,151,12,17,7,10,0.5,0.5
2024-05-16T2300,2402A,114.0261,33.5698,漯河市,市广电局,颗粒物(PM10),61,71,74,31,27,122,,163,150,14,19,6,9,0.5,0.5
2024-05-16T2300,3478A,113.9749,33.5664,漯河市,市图书馆,颗粒物(PM10),68,85,79,35,32,122,,167,152,15,16,6,5,0.5,0.4
2024-05-16T2300,3479A,114.0967,33.5906,漯河市,召陵区卫健委,细颗粒物(PM2.5),78,84,81,57,39,128,,161,150,10,16,7,9,0.5,0.5
2024-05-16T2300,1798A,118.5092,31.6837,马鞍山市,湖东路四小,颗粒物(PM10),58,65,47,32,18,78,,153,122,45,23,6,6,0.9,0.6
2024-05-16T2300,1799A,118.5024,31.6449,马鞍山市,开发区,颗粒物(PM10),57,64,51,32,19,58,,151,102,55,44,8,8,0.8,0.6
2024-05-16T2300,1800A,118.5228,31.7231,马鞍山市,慈湖,,42,42,36,12,17,68,,149,115,58,35,4,5,1.0,0.8
2024-05-16T2300,1802A,118.6245,31.7241,马鞍山市,濮塘,,36,31,34,22,23,115,,148,133,12,15,4,6,0.5,0.5
2024-05-16T2300,3633A,118.4918,31.6809,马鞍山市,雨山,颗粒物(PM10),51,51,37,28,20,80,,154,123,39,23,8,8,0.8,0.5
2024-05-16T2300,1686A,111.0286,21.4688,茂名市,电白南海,臭氧1小时,54,56,48,24,17,163,,171,169,7,11,7,10,0.5,0.3
2024-05-16T2300,1687A,110.9294,21.6533,茂名市,茂石化七小,,48,46,42,24,21,151,,169,165,12,12,6,11,0.6,0.6
2024-05-16T2300,1688A,110.9107,21.6687,茂名市,健康路,,48,48,40,22,19,151,,163,160,10,10,10,13,0.6,0.6
2024-05-16T2300,1689A,110.8592,21.6828,茂名市,高岭,颗粒物(PM10),64,78,48,24,23,157,,166,164,14,13,13,15,0.6,0.7
2024-05-16T2300,3450A,111.01,21.5165,茂名市,电白水东,,50,46,40,24,19,158,,170,168,13,16,6,9,0.4,0.5
2024-05-16T2300,2539A,104.0308,30.0478,眉山市,黑龙滩水库,,41,41,41,28,28,114,,166,148,6,5,5,5,0.4,0.4
2024-05-16T2300,2540A,103.8416,30.0874,眉山市,气象局,细颗粒物(PM2.5),64,49,52,46,40,101,,170,148,31,25,8,8,0.5,0.5
2024-05-16T2300,3137A,103.8578,30.0744,眉山市,市委党校,颗粒物(PM10),58,66,52,36,29,100,,162,141,30,19,8,7,0.3,0.3
2024-05-16T2300,3148A,103.8291,30.0564,眉山市,区人社局,细颗粒物(PM2.5),62,69,51,44,34,100,,166,144,34,25,10,9,0.5,0.4
2024-05-16T2300,1690A,116.1231,24.3284,梅州市,梅江月梅,臭氧1小时,74,75,42,43,23,179,,168,166,18,18,10,5,0.6,0.5
2024-05-16T2300,1691A,116.0797,24.2719,梅州市,梅县新城,臭氧1小时,62,64,44,33,24,169,,166,155,17,15,9,5,0.6,0.5
2024-05-16T2300,1692A,116.1248,24.2654,梅州市,环境监控中心,细颗粒物(PM2.5),59,64,45,42,25,127,,161,139,38,24,5,6,0.6,0.5
2024-05-16T2300,3315A,116.1233,24.2991,梅州市,梅龙,颗粒物(PM10),68,85,44,45,24,163,,158,150,15,11,12,10,0.8,0.7
2024-05-16T2300,1878A,104.7778,31.4741,绵阳市,富乐山,,48,48,52,25,36,114,,165,147,14,14,9,9,0.4,0.5
2024-05-16T2300,1879A,104.7563,31.4535,绵阳市,市人大,颗粒物(PM10),55,60,62,31,35,83,,151,126,35,25,8,7,0.6,0.6
2024-05-16T2300,1880A,104.6697,31.4668,绵阳市,高新区自来水公司,颗粒物(PM10),54,58,76,20,41,100,,160,128,28,40,15,11,0.7,0.8
2024-05-16T2300,1881A,104.7287,31.5075,绵阳市,三水厂,,49,48,72,34,47,69,,162,131,49,34,6,5,0.5,0.5
2024-05-16T2300,3491A,104.69,31.5322,绵阳市,西科大附属小学,,45,45,69,22,40,100,,166,133,32,35,6,7,0.4,0.5
2024-05-16T2300,3492A,104.5648,31.5343,绵阳市,安州区旅游局,颗粒物(PM10),56,62,71,36,53,76,,161,129,30,21,8,10,0.7,0.7
2024-05-16T2300,1784A,129.61,44.561,牡丹江市,环保大楼,,38,26,18,26,10,38,,86,61,22,13,5,5,0.4,0.3
2024-05-16T2300,1785A,129.6115,44.5782,牡丹江市,文化广场,,34,34,26,16,18,39,,80,56,22,20,7,8,0.4,0.4
2024-05-16T2300,1786A,129.5904,44.5963,牡丹江市,第一医院,,42,42,21,26,16,22,,84,65,36,14,10,6,0.6,0.4
2024-05-16T2300,1787A,129.6364,44.6075,牡丹江市,机车工厂,,35,35,28,15,12,33,,85,65,18,11,5,8,0.3,0.3
2024-05-16T2300,1788A,129.6386,44.5462,牡丹江市,第一中学,,32,32,24,10,14,54,,89,68,8,13,5,6,0.3,0.2
2024-05-16T2300,2531A,105.0703,29.61,内江市,市监测站,细颗粒物(PM2.5),53,42,34,37,33,18,,134,105,76,20,7,10,0.6,0.5
2024-05-16T2300,2532A,105.0717,29.5947,内江市,东兴区政府,颗粒物(PM10),58,65,41,39,24,89,,136,125,26,14,10,10,0.6,0.5
2024-05-16T2300,2533A,105.0653,29.5817,内江市,内江二中,,45,42,37,31,27,49,,131,109,32,16,8,8,0.6,0.4
2024-05-16T2300,2534A,105.0406,29.5822,内江市,内江日报社,颗粒物(PM10),59,68,41,34,27,21,,141,118,99,22,8,8,0.6,0.4
2024-05-16T2300,2628A,92.0657,31.4846,那曲市,那曲监测站,,49,49,22,25,13,94,,138,130,12,10,5,5,0.7,0.5
2024-05-16T2300,3128A,92.0506,31.4797,那曲市,那曲会议中心,,39,39,17,16,8,79,,97,92,11,7,3,3,0.5,0.5
2024-05-16T2300,1290A,115.8931,28.6843,南昌市,省外办,颗粒物(PM10),69,88,74,44,31,82,,172,146,36,18,8,8,0.7,0.6
2024-05-16T2300,1291A,115.8886,28.7003,南昌市,省林业公司,颗粒物(PM10),75,100,74,44,31,80,,174,145,45,20,6,6,0.8,0.6
2024-05-16T2300,1292A,115.8126,28.7442,南昌市,林科所,颗粒物(PM10),58,66,68,31,26,50,,194,140,85,24,6,7,0.4,0.5
2024-05-16T2300,1294A,115.8518,28.687,南昌市,建工学校,,,82,75,38,23,,,194,183,57,15,6,7,0.8,0.6
2024-05-16T2300,1295A,115.8921,28.6424,南昌市,象湖,颗粒物(PM10),67,84,73,39,28,84,,195,150,44,20,5,6,0.7,0.6
2024-05-16T2300,1296A,115.7423,28.7996,南昌市,武术学校,细颗粒物(PM2.5),59,46,37,42,31,67,,187,140,8,9,9,9,0.4,0.4
2024-05-16T2300,1298A,115.9314,28.6842,南昌市,省站,颗粒物(PM10),78,105,91,46,31,95,,179,150,18,7,12,10,0.8,0.7
2024-05-16T2300,3046A,115.9084,28.6062,南昌市,机电学校,颗粒物(PM10),74,98,80,41,28,67,,185,149,52,14,8,9,0.8,0.7
2024-05-16T2300,3690A,115.9721,28.7031,南昌市,外国语学校,颗粒物(PM10),62,73,71,38,28,102,,176,151,21,11,4,4,0.3,0.3
2024-05-16T2300,1905A,106.056,30.8064,南充市,西山风景区,,46,42,42,23,33,145,,156,156,8,10,6,9,0.5,0.5
2024-05-16T2300,1906A,106.0789,30.8023,南充市,南充市委,颗粒物(PM10),57,63,59,33,34,56,,157,136,67,28,10,10,0.5,0.3
2024-05-16T2300,1907A,106.1031,30.8217,南充市,南充炼油厂,颗粒物(PM10),59,68,63,38,37,112,,180,168,43,21,14,11,0.6,0.4
2024-05-16T2300,1908A,106.1064,30.7856,南充市,高坪区监测站,颗粒物(PM10),59,67,53,31,30,132,,168,162,28,20,11,11,0.3,0.2
2024-05-16T2300,1909A,106.0642,30.7636,南充市,嘉陵区环保局,"颗粒物(PM10),细颗粒物(PM2.5)",64,78,62,46,35,86,,165,150,43,24,9,10,0.5,0.3
2024-05-16T2300,1910A,106.1087,30.8388,南充市,市环境监测站,颗粒物(PM10),55,60,64,37,35,85,,156,143,58,27,13,10,0.7,0.5
2024-05-16T2300,1151A,118.8086,32.1065,南京市,迈皋桥,,35,35,36,14,12,92,,150,126,29,23,3,4,0.5,0.5
2024-05-16T2300,1152A,118.7538,32.0551,南京市,草场门,,34,34,32,22,17,79,,152,123,44,27,2,3,0.2,0.2
2024-05-16T2300,1153A,118.7794,32.0745,南京市,山西路,,34,34,40,12,17,86,,143,121,29,19,4,4,0.3,0.3
2024-05-16T2300,1154A,118.7752,32.0023,南京市,中华门,,48,48,40,14,12,64,,150,116,50,29,7,7,0.4,0.4
2024-05-16T2300,1155A,118.8109,32.0309,南京市,瑞金路,,33,33,34,22,14,62,,146,116,54,29,6,7,0.3,0.3
2024-05-16T2300,1156A,118.7997,32.0754,南京市,玄武湖,,36,36,34,14,12,78,,146,122,33,9,8,8,0.1,0.1
2024-05-16T2300,1157A,118.6414,32.0931,南京市,浦口,,40,40,36,13,13,55,,139,112,50,26,6,7,0.5,0.6
2024-05-16T2300,1158A,118.7356,31.9996,南京市,奥体中心,,36,36,35,17,14,84,,150,125,36,24,7,9,0.3,0.3
2024-05-16T2300,1159A,118.9125,32.1028,南京市,仙林大学城,,36,27,36,7,6,113,,159,144,22,32,9,8,0.4,0.4
2024-05-16T2300,3422A,118.8436,31.9198,南京市,江宁彩虹桥,,44,44,36,14,13,78,,152,121,37,23,4,4,0.5,0.5
2024-05-16T2300,3423A,119.0138,31.6494,南京市,溧水永阳,,39,39,31,26,14,114,,134,114,24,17,8,4,0.4,0.3
2024-05-16T2300,3424A,118.879,31.3302,南京市,高淳老职中,颗粒物(PM10),70,89,34,26,18,96,,132,115,19,16,6,7,0.3,0.2
2024-05-16T2300,3427A,118.8554,32.3578,南京市,六合雄州,,37,37,42,20,16,75,,154,120,43,36,5,9,0.4,0.7
2024-05-16T2300,1401A,108.3103,22.7881,南宁市,二十一中,颗粒物(PM10),63,75,58,44,36,101,,144,122,26,21,7,8,0.8,0.6
2024-05-16T2300,1402A,108.3141,22.8528,南宁市,北湖,细颗粒物(PM2.5),72,68,64,52,36,85,,127,111,26,23,8,12,0.9,0.8
2024-05-16T2300,1403A,108.3206,22.8225,南宁市,市监测站,细颗粒物(PM2.5),68,61,63,49,38,91,,122,101,29,30,9,10,0.9,0.8
2024-05-16T2300,1404A,108.3829,22.8037,南宁市,大自然花园,细颗粒物(PM2.5),65,69,54,47,38,94,,139,117,24,19,9,7,0.7,0.6
2024-05-16T2300,1405A,108.4394,22.7904,南宁市,仙葫,细颗粒物(PM2.5),57,62,57,40,34,113,,120,110,16,20,8,9,0.9,0.9
2024-05-16T2300,1406A,108.2397,22.8467,南宁市,区农职院,颗粒物(PM10),66,82,65,40,34,33,,128,102,52,25,7,9,0.7,0.7
2024-05-16T2300,1407A,108.3275,22.735,南宁市,英华嘉园,颗粒物(PM10),65,79,62,43,37,87,,133,112,33,25,7,8,0.8,0.7
2024-05-16T2300,1408A,108.2257,22.7757,南宁市,沙井镇街道办,颗粒物(PM10),72,93,70,51,41,55,,122,95,45,28,8,12,0.7,0.7
2024-05-16T2300,3401A,108.4834,22.7618,南宁市,红星社区,颗粒物(PM10),67,84,57,43,36,123,,135,115,16,21,8,11,0.7,0.7
2024-05-16T2300,2332A,118.1681,26.6369,南平市,南平市监测站,,44,44,42,30,25,120,,172,140,13,17,5,6,0.7,0.7
2024-05-16T2300,2333A,118.1825,26.6489,南平市,南平铝业有限公司,颗粒物(PM10),53,55,42,34,29,106,,165,134,18,18,8,7,0.7,0.7
2024-05-16T2300,2334A,118.1756,26.6272,南平市,南平七中,,49,49,38,28,26,117,,176,146,12,13,4,5,0.7,0.7
2024-05-16T2300,1168A,120.9098,31.9663,南通市,狼山街道,颗粒物(PM10),51,51,31,20,10,81,,156,141,77,26,14,11,0.4,0.4
2024-05-16T2300,1169A,120.86,32.0005,南通市,虹桥,,45,45,41,11,12,106,,139,118,42,40,7,8,0.4,0.4
2024-05-16T2300,1170A,120.87,32.02,南通市,城中,颗粒物(PM10),54,57,50,19,15,112,,147,135,38,30,6,7,0.6,0.6
2024-05-16T2300,1171A,120.94,31.93,南通市,星湖花园,,40,40,32,13,11,89,,161,144,62,31,12,10,0.5,0.5
2024-05-16T2300,1172A,120.81,32.0417,南通市,紫琅学院,,43,43,32,14,8,111,,145,123,48,44,10,11,0.4,0.5
2024-05-16T2300,3291A,121.067,32.062,南通市,通州监测站,颗粒物(PM10),53,56,43,12,10,113,,162,149,34,32,12,12,0.4,0.5
2024-05-16T2300,3432A,120.9348,31.9883,南通市,环境教育馆,,44,44,46,14,12,101,,155,144,50,28,12,9,0.5,0.5
2024-05-16T2300,2404A,112.5224,33.0122,南阳市,瓦房庄,颗粒物(PM10),66,82,62,32,25,156,,158,152,15,20,6,7,0.5,0.4
2024-05-16T2300,2405A,112.5003,32.9735,南阳市,汉画馆,颗粒物(PM10),71,91,68,34,25,145,,158,149,22,24,6,6,0.5,0.4
2024-05-16T2300,2406A,112.5573,33.027,南阳市,气象站,颗粒物(PM10),69,87,68,29,20,161,,166,162,16,19,5,4,0.4,0.3
2024-05-16T2300,2407A,112.5481,32.9689,南阳市,理工学院,颗粒物(PM10),76,101,70,32,22,147,,160,150,19,23,6,6,0.6,0.5
2024-05-16T2300,4008A,112.5234,32.9922,南阳市,卧龙区政府,颗粒物(PM10),67,83,65,30,25,148,,160,150,19,20,6,6,0.7,0.5
2024-05-16T2300,1234A,121.8358,29.911,宁波市,区环保大楼,,34,20,30,3,11,107,,118,114,13,29,5,6,0.4,0.5
2024-05-16T2300,1235A,121.56,29.82,宁波市,万里学院,,31,21,28,3,7,99,,134,112,20,18,4,4,0.3,0.4
2024-05-16T2300,1236A,121.713,29.9572,宁波市,龙赛医院,,32,11,32,8,11,101,,122,110,14,27,4,6,0.3,0.4
2024-05-16T2300,1239A,121.633,29.7733,宁波市,钱湖水厂,,33,12,26,3,10,105,,131,116,3,10,3,4,0.3,0.3
2024-05-16T2300,1240A,121.5856,29.8635,宁波市,太古小学,,31,21,27,3,6,98,,129,112,20,21,5,5,0.4,0.5
2024-05-16T2300,1241A,121.524,29.8674,宁波市,市环境监测中心,,34,22,32,3,9,106,,135,117,20,24,11,9,0.4,0.4
2024-05-16T2300,2871A,121.6147,29.9017,宁波市,万里国际学校,,36,28,33,8,13,114,,139,124,13,27,3,4,0.3,0.4
2024-05-16T2300,3710A,121.5594,29.8975,宁波市,白沙活动中心,,31,24,32,3,7,97,,130,109,18,21,9,9,0.3,0.4
2024-05-16T2300,2341A,119.5388,26.6612,宁德市,宁德市监测站,,25,16,38,13,21,80,,133,103,9,12,7,8,0.3,0.3
2024-05-16T2300,3209A,119.5231,26.6562,宁德市,宁德一中,,25,21,40,11,17,80,,134,107,9,10,6,7,0.2,0.3
2024-05-16T2300,2618A,98.8601,25.8567,怒江傈僳族自治州,州监测站,,44,44,28,27,21,70,,122,108,21,8,8,8,0.6,0.4
2024-05-16T2300,2619A,98.8546,25.8417,怒江傈僳族自治州,泸水一中,,40,40,36,23,24,50,,99,83,26,19,7,7,0.5,0.3
2024-05-16T2300,1888A,101.6891,26.571,攀枝花市,弄弄坪,,47,47,39,26,18,97,,120,115,21,23,16,17,0.7,0.8
2024-05-16T2300,1889A,101.5769,26.5928,攀枝花市,河门口,,49,49,40,34,25,86,,134,130,30,24,14,20,0.9,1.1
2024-05-16T2300,1890A,101.7169,26.585,攀枝花市,炳草岗,颗粒物(PM10),56,62,36,32,22,51,,121,110,46,24,21,26,0.7,0.6
2024-05-16T2300,1891A,101.7369,26.5008,攀枝花市,仁和,细颗粒物(PM2.5),59,58,34,42,23,86,,136,128,17,13,15,17,0.6,0.5
2024-05-16T2300,2835A,101.7227,26.567,攀枝花市,四十中小,,36,34,34,21,16,115,,131,129,13,14,10,18,0.7,0.8
2024-05-16T2300,1604A,122.0303,41.1489,盘锦市,开发区,细颗粒物(PM2.5),70,77,52,51,26,137,,149,149,25,24,8,11,0.6,0.6
2024-05-16T2300,1605A,122.0485,41.0883,盘锦市,兴隆台,细颗粒物(PM2.5),67,69,52,48,28,122,,142,141,43,32,11,13,0.7,0.8
2024-05-16T2300,1606A,121.8297,41.1028,盘锦市,新生街道,细颗粒物(PM2.5),60,,45,43,23,134,,146,145,16,23,8,14,0.7,0.8
2024-05-16T2300,1832A,113.3257,33.742,平顶山市,新华旅馆,颗粒物(PM10),78,105,90,40,29,161,,178,172,15,25,8,10,0.4,0.4
2024-05-16T2300,1833A,113.2919,33.737,平顶山市,规划设计院,颗粒物(PM10),58,65,64,40,28,142,,168,160,16,16,8,9,0.7,0.5
2024-05-16T2300,1834A,113.182,33.774,平顶山市,平顶山工学院,颗粒物(PM10),55,59,57,24,26,146,,161,157,8,11,5,6,0.5,0.5
2024-05-16T2300,3204A,113.3025,33.73,平顶山市,规划局,细颗粒物(PM2.5),52,48,66,36,30,148,,166,160,14,16,6,8,0.5,0.5
2024-05-16T2300,3594A,112.8867,33.9116,平顶山市,石龙区,颗粒物(PM10),57,64,77,27,23,133,,160,149,6,17,5,5,0.4,0.4
2024-05-16T2300,2656A,106.6692,35.5461,平凉市,聚贤嘉苑,颗粒物(PM10),62,73,76,26,25,74,,164,127,44,18,10,9,0.3,0.4
2024-05-16T2300,2657A,106.7021,35.5307,平凉市,博物馆,颗粒物(PM10),60,69,74,29,25,82,,170,141,36,17,15,10,0.4,0.5
2024-05-16T2300,2347A,114.0997,27.5002,萍乡市,武功山,,41,41,35,8,11,91,,149,124,8,7,7,7,0.5,0.5
2024-05-16T2300,2348A,113.8385,27.6434,萍乡市,中医院,颗粒物(PM10),74,97,71,52,32,60,,178,146,46,16,4,11,0.7,0.7
2024-05-16T2300,2349A,113.8493,27.6253,萍乡市,市政府车库,细颗粒物(PM2.5),62,62,67,44,37,83,,176,144,22,13,11,18,0.8,1.2
2024-05-16T2300,2350A,113.8676,27.6435,萍乡市,市环保局,细颗粒物(PM2.5),72,76,72,52,38,90,,173,147,34,13,8,14,0.7,0.6
2024-05-16T2300,2351A,113.866,27.6198,萍乡市,安源区政府,颗粒物(PM10),62,73,78,36,30,91,,181,149,17,16,13,16,0.5,1.1
2024-05-16T2300,2319A,119.0141,25.4325,莆田市,荔城区仓后路,,26,26,42,9,16,77,,148,100,17,12,5,5,0.5,0.6
2024-05-16T2300,2320A,119.0015,25.4553,莆田市,莆田市监测站,,28,6,34,3,15,87,,146,110,2,6,6,7,0.4,0.5
2024-05-16T2300,2321A,119.1119,25.4561,莆田市,涵江区六中,,25,25,40,8,12,72,,144,102,30,17,8,8,0.6,0.6
2024-05-16T2300,2322A,119.1013,25.3215,莆田市,秀屿区政府,,30,25,41,3,12,95,,128,107,14,14,7,8,0.4,0.5
2024-05-16T2300,2392A,115.0312,35.7636,濮阳市,环保局,颗粒物(PM10),69,88,62,10,15,131,,154,148,6,13,7,9,0.3,0.3
2024-05-16T2300,2394A,115.0574,35.7609,濮阳市,油田运输公司,,46,40,68,11,17,145,,163,158,8,11,8,10,0.1,0.2
2024-05-16T2300,2395A,115.0866,35.7754,濮阳市,油田物探公司,,47,36,50,18,23,149,,166,161,4,12,6,9,0.3,0.1
2024-05-16T2300,3021A,115,35.7668,濮阳市,濮水河管理处,颗粒物(PM10),65,79,82,8,21,129,,151,142,6,14,7,9,0.3,0.3
2024-05-16T2300,2601A,100.98,22.7633,普洱市,市环保局,,40,30,30,28,21,84,,108,100,8,7,9,10,0.4,0.4
2024-05-16T2300,2602A,100.9817,22.8322,普洱市,普洱第二中学,,29,24,27,20,12,85,,108,101,7,7,9,9,0.5,0.5
2024-05-16T2300,2262A,131.0518,45.8751,七台河市,新一中,,15,15,9,8,5,39,,88,68,17,7,8,9,0.9,0.7
2024-05-16T2300,3345A,131.0577,45.7879,七台河市,中波台,,43,43,18,17,11,39,,82,60,37,21,6,7,0.5,0.5
2024-05-16T2300,3637A,131.0176,45.7761,七台河市,人民广场,颗粒物(PM10),51,51,27,26,16,19,,80,53,42,18,9,9,0.5,0.4
2024-05-16T2300,3684A,130.8781,45.8222,七台河市,新建矿广场,,33,24,24,23,16,29,,83,61,28,22,9,10,0.5,0.5
2024-05-16T2300,1779A,123.9305,47.3636,齐齐哈尔市,安居小区,,30,18,28,13,12,96,,101,98,12,13,4,4,0.3,0.3
2024-05-16T2300,1780A,123.9488,47.3386,齐齐哈尔市,中心广场,,46,,27,32,14,89,,99,96,12,13,7,7,0.3,0.3
2024-05-16T2300,1781A,123.9483,47.3227,齐齐哈尔市,农牧车辆厂,,32,24,26,12,8,101,,108,107,8,8,7,7,0.3,0.3
2024-05-16T2300,1783A,123.945,47.2988,齐齐哈尔市,市环境监测站,,29,21,24,12,10,92,,106,101,10,8,4,4,0.2,0.2
2024-05-16T2300,3662A,123.6333,47.2075,齐齐哈尔市,富区青少年活动中心,,30,25,24,7,8,93,,110,106,10,9,6,5,0.3,0.3
2024-05-16T2300,2591A,107.9783,26.5747,黔东南苗族侗族自治州,市环境监测站,,37,37,42,22,28,70,,100,90,15,14,4,4,0.5,0.5
2024-05-16T2300,2881A,107.8908,26.5311,黔东南苗族侗族自治州,凯里学院,,40,40,30,23,23,57,,120,100,18,9,3,3,0.6,0.4
2024-05-16T2300,2593A,107.5228,26.2403,黔南布依族苗族自治州,小围寨,,31,31,26,17,13,80,,111,97,6,7,5,5,0.6,0.6
2024-05-16T2300,3538A,107.5175,26.2978,黔南布依族苗族自治州,沙坝,,31,31,27,17,11,70,,103,85,10,8,4,4,0.4,0.4
2024-05-16T2300,2589A,104.9022,25.0925,黔西南布依族苗族自治州,场坝街,,23,22,14,7,6,72,,93,83,16,15,2,3,0.2,0.3
2024-05-16T2300,2590A,104.8811,25.0992,黔西南布依族苗族自治州,坪东大道,,41,41,17,7,6,67,,89,80,4,6,2,2,0,0.1
2024-05-16T2300,2502A,108.6236,21.9667,钦州市,市环保站,颗粒物(PM10),62,73,56,39,28,76,,131,111,29,14,10,8,2.2,1.1
2024-05-16T2300,2503A,108.6549,21.9481,钦州市,沙埠小学,颗粒物(PM10),75,99,58,47,33,66,,130,109,30,17,7,7,2.0,0.9
2024-05-16T2300,2504A,108.5989,21.7431,钦州市,港区一小,,47,42,56,17,25,150,,157,157,12,22,8,8,0.6,0.8
2024-05-16T2300,3404A,108.5959,21.9633,钦州市,北职校,细颗粒物(PM2.5),64,70,57,46,35,54,,127,105,28,15,10,10,2.9,1.2
2024-05-16T2300,1042A,119.5134,39.8207,秦皇岛市,北戴河环保局,颗粒物(PM10),60,70,67,31,16,117,,126,126,25,26,4,7,0.5,0.6
2024-05-16T2300,1043A,119.7493,40.0116,秦皇岛市,第一关,细颗粒物(PM2.5),89,104,73,66,30,10,,129,96,94,30,5,9,0.3,0.5
2024-05-16T2300,1044A,119.5897,39.9499,秦皇岛市,监测站,颗粒物(PM10),79,108,73,52,26,83,,124,112,39,30,5,8,0.4,0.5
2024-05-16T2300,1046A,119.5251,39.9041,秦皇岛市,建设大厦,颗粒物(PM10),63,76,66,43,25,79,,114,101,36,27,3,6,0.4,0.5
2024-05-16T2300,3132A,119.610547,39.943889,秦皇岛市,文明里,颗粒物(PM10),87,124,93,46,25,88,,118,110,44,37,5,8,0.5,0.6
2024-05-16T2300,1307A,120.6659,36.2403,青岛市,仰口,颗粒物(PM10),52,53,45,19,20,142,,173,170,8,9,7,6,0.5,0.5
2024-05-16T2300,1310A,120.4134,36.0658,青岛市,市南区东部子站,颗粒物(PM10),54,58,58,9,17,118,,152,145,16,33,8,9,0.4,0.6
2024-05-16T2300,1311A,120.3664,36.1032,青岛市,四方区子站,,44,44,56,22,19,132,,166,155,19,44,5,7,0.4,0.5
2024-05-16T2300,1312A,120.2994,36.054,青岛市,市南区西部子站,细颗粒物(PM2.5),53,51,72,37,41,119,,153,146,30,51,8,10,0.5,0.5
2024-05-16T2300,1313A,120.4581,36.0858,青岛市,崂山区子站,,41,34,49,14,17,131,,158,153,17,33,9,10,0.4,0.6
2024-05-16T2300,1314A,120.1983,35.9608,青岛市,黄岛区子站,,44,44,48,17,32,122,,159,146,13,19,7,8,0.5,0.6
2024-05-16T2300,1315A,120.3999,36.3083,青岛市,城阳区子站,颗粒物(PM10),53,56,66,17,20,117,,158,140,26,50,9,10,0.6,0.6
2024-05-16T2300,1966A,120.0405,35.8735,青岛市,黄岛区4号,,46,46,50,12,15,128,,169,158,13,20,9,10,0.6,0.5
2024-05-16T2300,3362A,120.5014,36.4034,青岛市,即墨2号,颗粒物(PM10),53,56,68,15,21,131,,173,162,18,28,7,8,0.6,0.5
2024-05-16T2300,3642A,120.3503,36.0736,青岛市,市北区南部,,40,40,52,17,14,124,,160,152,20,35,7,8,0.6,0.6
2024-05-16T2300,3643A,120.3948,36.1805,青岛市,李沧区北部,,48,48,52,22,19,124,,172,155,22,35,9,11,0.5,0.5
2024-05-16T2300,1702A,113.0426,23.691,清远市,环保大楼,"颗粒物(PM10),细颗粒物(PM2.5)",57,63,40,40,20,119,,188,173,22,20,6,8,0.5,0.5
2024-05-16T2300,1703A,113.0208,23.7106,清远市,凤城街办,颗粒物(PM10),55,59,43,30,17,131,,206,191,25,23,8,9,0.6,0.5
2024-05-16T2300,3025A,113.0477,23.6344,清远市,技师学院,颗粒物(PM10),69,88,73,46,25,91,,196,164,39,32,8,9,0.4,0.4
2024-05-16T2300,3318A,112.9903,23.7403,清远市,清新太和,"颗粒物(PM10),臭氧1小时",52,54,44,28,19,161,,204,199,16,22,10,10,0.4,0.6
2024-05-16T2300,3455A,113.076,23.7198,清远市,清城东城,颗粒物(PM10),55,59,43,31,18,113,,192,178,19,21,6,9,0.5,0.5
2024-05-16T2300,2661A,107.6325,35.7357,庆阳市,庆阳五中,颗粒物(PM10),55,60,61,30,27,113,,156,146,18,12,18,8,0.4,0.4
2024-05-16T2300,2662A,107.6364,35.7067,庆阳市,市环保局,颗粒物(PM10),57,64,58,27,23,110,,152,140,17,10,16,7,0.6,0.6
2024-05-16T2300,1916A,103.7897,25.5035,曲靖市,环境监测站,,32,32,15,13,9,60,,94,84,12,10,4,3,0.7,0.7
2024-05-16T2300,1917A,103.8,25.5364,曲靖市,烟厂办公区,,22,22,18,11,10,70,,100,92,11,9,4,4,0.6,0.6
2024-05-16T2300,3376A,103.7947,25.462,曲靖市,南苑二区,,30,30,16,15,8,67,,102,93,13,10,4,5,0.6,0.5
2024-05-16T2300,3377A,103.7444,25.5261,曲靖市,曲靖师范学院,,36,32,15,25,12,62,,106,96,14,10,8,6,0.6,0.6
2024-05-16T2300,1264A,118.8692,28.9398,衢州市,环保大楼,颗粒物(PM10),54,58,51,32,23,80,,172,136,39,20,6,5,0.6,0.4
2024-05-16T2300,1265A,118.8709,28.9666,衢州市,实验学校,颗粒物(PM10),60,70,52,40,22,76,,163,130,36,17,8,6,0.6,0.4
2024-05-16T2300,1266A,118.8621,28.9808,衢州市,衢州学院,颗粒物(PM10),52,53,49,26,21,69,,158,122,36,23,6,6,0.5,0.4
