timepoint,stationcode,longitude,latitude,area,positionname,primarypollutant,aqi,pm10,pm10_24h,pm2_5,pm2_5_24h,o3,o3_24h,o3_8h,o3_8h_24h,no2,no2_24h,so2,so2_24h,co,co_24h
2024-07-20T1900,2566A,102.1879,31.914,阿坝藏族羌族自治州,州农科所,,41,41,21,12,9,26,,42,42,17,9,7,5,0,0
2024-07-20T1900,2568A,102.2502,31.8896,阿坝藏族羌族自治州,马师校,,36,25,13,25,12,29,,56,56,15,14,4,4,0.4,0.4
2024-07-20T1900,3994A,102.2165,31.9024,阿坝藏族羌族自治州,马尔康中学西区,,28,28,16,9,9,33,,53,53,10,7,5,6,0.4,0.4
2024-07-20T1900,2695A,80.292,41.1694,阿克苏地区,电视台,颗粒物(PM10),97,144,72,32,20,127,,124,124,4,17,14,8,0.2,0.4
2024-07-20T1900,2696A,80.2613,41.1551,阿克苏地区,艺术中心,颗粒物(PM10),104,157,91,41,22,127,,119,119,2,21,4,4,0.3,0.6
2024-07-20T1900,2204A,105.6467,38.8363,阿拉善盟,西城区西花园,颗粒物(PM10),500,1465,100,292,28,122,,150,148,9,10,9,10,0.4,0.5
2024-07-20T1900,2205A,105.6985,38.8411,阿拉善盟,蒙二幼,颗粒物(PM10),329,443,50,192,19,118,,140,139,7,7,10,12,0.6,0.7
2024-07-20T1900,2206A,105.724,38.8516,阿拉善盟,环保局新楼,颗粒物(PM10),500,675,57,207,20,123,,149,146,8,6,11,12,0.5,0.5
2024-07-20T1900,2708A,88.1264,47.8517,阿勒泰地区,市站,,33,16,18,3,7,105,,106,106,10,10,6,7,0.4,0.4
2024-07-20T1900,2630A,80.1161,32.5,阿里地区,阿里监测站,,43,8,11,3,7,136,,135,135,3,10,8,8,0.3,0.3
2024-07-20T1900,3192A,80.0903,32.5028,阿里地区,阿里藏医院,,,,14,8,6,138,,136,136,,5,8,8,0.3,0.3
2024-07-20T1900,2642A,109.0318,32.6537,安康市,香溪洞,,26,26,14,9,5,60,,54,54,2,4,5,5,0.6,0.6
2024-07-20T1900,2643A,109.0281,32.6939,安康市,安康市监测站,,15,13,17,8,7,46,,49,49,4,7,5,5,0.4,0.5
2024-07-20T1900,2644A,109.0072,32.6975,安康市,汉滨区检察院,,14,10,19,8,8,44,,48,48,4,7,6,6,0.4,0.5
2024-07-20T1900,2291A,117.0809,30.5177,安庆市,环科院,,20,20,15,12,9,31,,48,47,27,19,6,6,0.5,0.4
2024-07-20T1900,2292A,117.0331,30.5119,安庆市,马山宾馆,,18,18,17,12,9,30,,46,45,34,22,9,8,0.4,0.4
2024-07-20T1900,2294A,116.9896,30.6145,安庆市,安庆大学,,20,20,25,12,10,45,,50,50,13,16,8,8,0.3,0.2
2024-07-20T1900,3123A,105.9408,26.2431,安顺市,凤凰山,,17,6,6,3,4,52,,54,54,7,7,5,5,0.3,0.3
2024-07-20T1900,3124A,105.9439,26.2564,安顺市,金钟山,,18,8,6,8,4,55,,56,56,3,2,4,4,0.4,0.4
2024-07-20T1900,3125A,105.8983,26.2481,安顺市,娄家坡,,22,22,13,11,6,52,,53,53,4,3,5,6,0.5,0.5
2024-07-20T1900,1819A,114.3551,36.1017,安阳市,红庙街,,41,9,18,6,6,129,,145,145,2,2,6,4,0.2,0.4
2024-07-20T1900,1820A,114.361,36.0681,安阳市,银杏小区,,40,22,18,6,6,126,,138,138,2,2,4,3,0.3,0.4
2024-07-20T1900,3141A,114.3922,36.0878,安阳市,信访局,,41,28,18,11,7,130,,141,141,1,2,6,4,0.6,0.7
2024-07-20T1900,3669A,114.4705,36.0637,安阳市,左辅环卫站,,38,,12,7,6,119,,129,129,2,3,4,4,0.7,0.7
2024-07-20T1900,3703A,114.2917,36.0949,安阳市,安钢职工学校,,41,24,22,8,9,131,,132,132,3,4,2,2,0.2,0.3
2024-07-20T1900,1748A,123.044,41.1196,鞍山市,深沟寺,,25,9,18,3,10,78,,116,85,7,7,4,4,0.3,0.5
2024-07-20T1900,1749A,123.011,41.0931,鞍山市,太阳城,,25,10,15,3,10,77,,122,81,7,6,5,5,0.5,0.6
2024-07-20T1900,1750A,123.0485,41.1442,鞍山市,太平,,23,13,19,3,10,72,,111,86,17,10,2,2,0.8,0.8
2024-07-20T1900,1751A,122.9642,41.0971,鞍山市,铁西三道街,,27,9,24,3,15,84,,133,87,8,7,3,3,0.6,0.7
2024-07-20T1900,1752A,122.9341,41.0833,鞍山市,铁西工业园区,,19,11,21,3,12,59,,118,76,20,14,4,6,0.6,0.7
2024-07-20T1900,1753A,123.022,41.0821,鞍山市,明达新区,,27,7,15,3,10,86,,120,84,4,4,5,4,0.4,0.5
2024-07-20T1900,2195A,107.4212,40.761,巴彦淖尔市,附二中,细颗粒物(PM2.5),94,116,191,70,51,126,,158,158,21,13,3,7,0.8,0.6
2024-07-20T1900,2196A,107.37,40.7372,巴彦淖尔市,市环保大楼,颗粒物(PM10),84,117,171,27,38,144,,156,156,15,13,3,7,0.7,0.6
2024-07-20T1900,1956A,86.1472,41.7538,巴音郭楞蒙古自治州,孔雀公园,颗粒物(PM10),102,153,116,56,39,109,,116,116,2,16,4,4,0.1,0.3
2024-07-20T1900,1957A,86.1972,41.7166,巴音郭楞蒙古自治州,棉纺厂,颗粒物(PM10),129,208,118,71,42,114,,116,116,6,21,4,4,0.2,0.3
2024-07-20T1900,1958A,86.2357,41.7173,巴音郭楞蒙古自治州,经济开发区,颗粒物(PM10),102,153,108,66,38,113,,120,120,2,9,3,3,0.1,0.2
2024-07-20T1900,2914A,106.7677,31.8794,巴中市,苏山坪,,18,18,13,8,6,46,,45,37,4,5,4,4,0.4,0.4
2024-07-20T1900,3182A,106.7656,31.8545,巴中市,丽阳花园,,22,22,20,15,11,44,,28,28,11,15,4,3,0.5,0.5
2024-07-20T1900,3183A,106.7418,31.8654,巴中市,圣泉水务公司,,21,21,14,13,9,42,,28,28,10,10,4,3,0.5,0.5
2024-07-20T1900,3616A,106.7616,31.8344,巴中市,市中心医院,,23,23,20,13,10,51,,34,34,10,15,5,4,0.5,0.6
2024-07-20T1900,2235A,122.7911,45.6077,白城市,洮北区环保局,,32,13,27,11,13,101,,111,108,15,12,4,3,0.2,0.3
2024-07-20T1900,2236A,122.8738,45.5725,白城市,市环保局,,38,29,36,19,18,119,,119,119,9,14,2,4,0.4,0.4
2024-07-20T1900,2231A,126.4219,41.9171,白山市,喜丰,,29,29,40,12,19,37,,89,74,25,16,7,10,0.9,0.8
2024-07-20T1900,2232A,126.4077,41.9419,白山市,环保局,,39,39,41,8,21,27,,93,75,16,11,9,8,0.8,0.8
2024-07-20T1900,2647A,104.1724,36.5446,白银市,第三小学,颗粒物(PM10),500,1389,114,240,27,105,,107,107,6,11,7,57,0.2,0.5
2024-07-20T1900,2648A,104.1465,36.5482,白银市,动力公司,颗粒物(PM10),500,1214,104,263,28,106,,107,107,,15,7,47,0.1,0.5
2024-07-20T1900,2512A,106.6103,23.9011,百色市,市监测站,,23,23,27,12,12,58,,68,68,9,12,10,11,0.7,0.8
2024-07-20T1900,2513A,106.6538,23.8859,百色市,市中心血站,,22,22,29,12,15,56,,68,66,10,13,8,10,0.6,0.7
2024-07-20T1900,3406A,106.6085,23.8798,百色市,祈福高中,,,31,32,,13,55,,65,65,8,15,7,8,0.8,0.9
2024-07-20T1900,2270A,117.396,32.939,蚌埠市,工人疗养院,,26,26,27,3,7,72,,74,74,1,3,7,8,0.4,0.4
2024-07-20T1900,2271A,117.3605,32.9427,蚌埠市,百货大楼,,25,25,29,3,6,73,,77,77,4,4,6,7,0.3,0.4
2024-07-20T1900,2273A,117.4185,32.8911,蚌埠市,蚌埠学院,,31,31,23,6,10,89,,83,83,1,3,7,7,0.4,0.5
2024-07-20T1900,2274A,117.3533,32.9673,蚌埠市,淮上区政府,,26,22,24,7,11,83,,86,86,2,4,7,8,0.1,0.2
2024-07-20T1900,2275A,117.3145,32.8977,蚌埠市,高新区,,24,17,28,6,10,75,,76,76,6,6,6,7,0.3,0.4
2024-07-20T1900,3715A,117.3092,32.9314,蚌埠市,蚌埠田家炳中学,,28,28,30,6,12,70,,70,70,3,5,6,6,0.3,0.4
2024-07-20T1900,1585A,109.8756,40.6532,包头市,市环境监测站,臭氧1小时,108,47,40,21,14,216,,210,210,20,23,9,19,0.4,0.3
2024-07-20T1900,1587A,109.9991,40.5842,包头市,包头八中,臭氧1小时,102,47,49,19,17,204,,206,206,19,18,22,31,0.7,0.7
2024-07-20T1900,1588A,109.8538,40.6821,包头市,青山宾馆,臭氧1小时,108,27,37,20,15,216,,202,202,18,23,9,20,0.7,0.7
2024-07-20T1900,1589A,109.8642,40.6288,包头市,惠龙物流,臭氧1小时,111,47,38,12,12,221,,215,215,16,18,14,23,0.6,0.6
2024-07-20T1900,1590A,110.0377,40.5546,包头市,东河鸿龙湾,臭氧1小时,84,48,39,15,11,187,,207,207,16,16,10,16,0.7,0.6
2024-07-20T1900,3283A,109.9154,40.5685,包头市,滨河大厦,臭氧1小时,105,36,31,17,12,209,,216,216,14,18,8,13,0.8,0.6
2024-07-20T1900,3419A,109.9447,40.6261,包头市,包头市委党校,臭氧1小时,106,40,41,21,17,211,,212,212,21,22,8,22,0.7,0.8
2024-07-20T1900,3683A,109.8331,40.6576,包头市,昆区政府,臭氧1小时,105,41,38,18,17,210,,200,200,18,20,7,24,0.9,0.8
2024-07-20T1900,1930A,107.185,34.3063,宝鸡市,庙沟村,,22,20,24,12,14,70,,52,52,4,8,2,1,0.2,0.3
2024-07-20T1900,1931A,107.0708,34.3017,宝鸡市,竹园沟,,26,26,38,12,18,59,,64,64,8,13,4,4,0.5,0.5
2024-07-20T1900,1932A,107.1906,34.3672,宝鸡市,三陆医院,,32,26,30,22,16,97,,87,87,13,12,7,7,0.6,0.6
2024-07-20T1900,1934A,107.1186,34.3739,宝鸡市,技工学校,,47,47,30,18,18,96,,84,84,15,15,7,7,0.6,0.6
2024-07-20T1900,1935A,107.3906,34.3528,宝鸡市,陈仓区环保局家属楼,,34,26,24,9,14,106,,98,98,10,13,7,6,0.5,0.5
2024-07-20T1900,1936A,107.2058,34.3497,宝鸡市,文理学院,,46,,37,32,46,103,,92,92,12,14,4,5,0.3,0.3
2024-07-20T1900,1937A,107.2386,34.3622,宝鸡市,三迪小学,,29,29,27,20,13,86,,87,87,14,12,8,8,0.5,0.5
2024-07-20T1900,1051A,115.493,38.8632,保定市,游泳馆,,44,37,37,19,15,139,,135,135,2,4,5,4,0.2,0.1
2024-07-20T1900,1052A,115.5213,38.8959,保定市,华电二区,臭氧1小时,55,43,35,16,15,164,,161,161,5,7,1,3,0.3,0.2
2024-07-20T1900,1053A,115.4713,38.9108,保定市,接待中心,,48,36,40,16,15,151,,149,149,1,4,3,3,0.2,0.2
2024-07-20T1900,1054A,115.4612,38.8416,保定市,地表水厂,,47,47,38,13,16,141,,144,144,2,5,1,1,0.3,0.3
2024-07-20T1900,3581A,115.31981,38.95208,保定市,满城区生态环境分局,,49,48,40,22,14,155,,154,154,6,7,3,2,0.1,0.1
2024-07-20T1900,3582A,115.47694,38.76408,保定市,清苑区第二中学,,44,44,49,24,22,136,,144,144,2,6,2,1,0.4,0.3
2024-07-20T1900,3583A,115.62909,39.02311,保定市,徐水物探局,颗粒物(PM10),52,53,38,9,10,154,,159,159,10,12,3,3,0.0,0.1
2024-07-20T1900,4004A,115.4202,38.8656,保定市,双鹰农机,,42,36,39,9,18,132,,134,134,7,11,5,4,0.4,0.3
2024-07-20T1900,4034A,115.5150,38.8590,保定市,植保所站,臭氧1小时,63,33,30,19,18,170,,171,171,1,5,5,4,0.2,0.2
2024-07-20T1900,2594A,99.1678,25.1081,保山市,市环境监测站,,38,38,23,23,13,47,,59,59,13,6,6,6,0.5,0.4
2024-07-20T1900,2595A,99.1711,25.1328,保山市,市环保局,,32,32,28,7,7,48,,64,63,9,4,6,6,0.4,0.3
2024-07-20T1900,1867A,109.1436,21.4086,北海市,海滩公园,,37,37,18,3,3,64,,61,61,5,3,3,4,0.8,0.6
2024-07-20T1900,1868A,109.0981,21.4661,北海市,新市环保局,,23,23,14,9,6,60,,54,54,4,3,3,3,0.4,0.5
2024-07-20T1900,1869A,109.1778,21.5233,北海市,北海工业园,,27,27,17,10,9,61,,55,55,4,5,5,5,0.4,0.5
2024-07-20T1900,3400A,109.1911,21.4415,北海市,龙潭自来水厂,,18,11,13,3,7,56,,54,54,5,3,5,6,0.5,0.5
2024-07-20T1900,1001A,116.3621,39.8784,北京市,万寿西宫,臭氧1小时,77,17,36,6,22,181,,196,196,10,17,3,3,0.5,0.5
2024-07-20T1900,1002A,116.2202,40.2915,北京市,定陵,臭氧1小时,109,44,21,19,9,218,,204,204,10,6,3,3,0.7,0.4
2024-07-20T1900,1003A,116.4174,39.9289,北京市,东四,臭氧1小时,83,45,33,23,18,186,,205,205,13,20,4,4,0.4,0.4
2024-07-20T1900,1004A,116.4072,39.8863,北京市,天坛,,50,45,32,27,17,159,,184,184,2,3,1,2,0.5,0.5
2024-07-20T1900,1005A,116.462,39.9365,北京市,农展馆,臭氧1小时,63,43,34,21,17,170,,188,188,10,19,3,3,0.4,0.4
2024-07-20T1900,1006A,116.3392,39.9295,北京市,官园,臭氧1小时,85,47,31,20,15,188,,203,203,10,15,1,1,0.4,0.4
2024-07-20T1900,1007A,116.2878,39.9611,北京市,海淀万柳,臭氧1小时,79,48,31,21,14,183,,202,202,11,17,3,3,0.3,0.2
2024-07-20T1900,1008A,116.6636,40.135,北京市,顺义新城,臭氧1小时,97,41,26,23,14,197,,208,208,12,11,3,3,0.4,0.4
2024-07-20T1900,1009A,116.6275,40.3275,北京市,怀柔镇,臭氧1小时,112,35,22,20,11,224,,201,201,8,3,1,1,0.5,0.4
2024-07-20T1900,1010A,116.2296,40.217,北京市,昌平镇,臭氧1小时,78,57,29,28,13,182,,184,184,13,14,1,1,0.5,0.4
2024-07-20T1900,1011A,116.3966,39.9821,北京市,奥体中心,臭氧1小时,69,36,31,19,18,175,,180,180,16,26,3,3,0.3,0.4
2024-07-20T1900,1012A,116.184,39.9136,北京市,古城,,50,49,28,23,14,159,,193,193,16,19,1,1,0.3,0.3
2024-07-20T1900,3281A,115.9718,40.4529,北京市,延庆夏都,臭氧1小时,105,31,19,15,11,210,,167,167,10,10,3,2,0.4,0.3
2024-07-20T1900,3417A,117.0709,40.1465,北京市,平谷新城,臭氧1小时,100,41,24,22,13,200,,175,175,9,6,3,3,0.4,0.4
2024-07-20T1900,3418A,116.8336,40.4095,北京市,密云新城,臭氧1小时,136,41,22,22,9,271,,206,206,15,6,1,3,0.5,0.4
2024-07-20T1900,3672A,116.1541,39.8204,北京市,丰台云岗,,50,49,31,35,15,158,,188,188,21,16,3,3,0.5,0.4
2024-07-20T1900,3673A,116.6804,39.9081,北京市,通州东关,臭氧1小时,69,38,35,21,17,175,,200,200,7,14,3,2,0.5,0.5
2024-07-20T1900,3674A,115.9577,39.7603,北京市,房山燕山,臭氧1小时,72,57,29,19,12,177,,173,173,9,11,1,1,0.4,0.4
2024-07-20T1900,3675A,116.4672,39.7733,北京市,大兴旧宫,臭氧1小时,64,41,29,19,17,171,,185,185,4,15,3,3,0.5,0.5
2024-07-20T1900,3694A,115.986,40.4563,北京市,延庆石河营,臭氧1小时,103,26,18,17,11,206,,161,161,10,9,3,3,0.5,0.3
2024-07-20T1900,3695A,116.6151,40.3053,北京市,怀柔新城,臭氧1小时,104,38,21,18,10,207,,189,189,9,4,3,3,0.6,0.5
2024-07-20T1900,3696A,116.2545,39.8768,北京市,丰台小屯,臭氧1小时,67,44,28,25,16,173,,188,188,3,11,3,3,0.1,0.1
2024-07-20T1900,3697A,116.84,40.3844,北京市,密云镇,臭氧1小时,132,49,23,21,8,263,,204,204,11,7,3,3,0.4,0.3
2024-07-20T1900,1761A,123.8275,41.3064,本溪市,大峪,,36,6,16,3,10,113,,135,99,2,3,8,8,0.3,0.4
2024-07-20T1900,1762A,123.7567,41.3325,本溪市,溪湖,,31,10,20,6,11,98,,121,87,12,11,10,9,0.6,0.8
2024-07-20T1900,1763A,123.7169,41.3094,本溪市,彩屯,颗粒物(PM10),54,58,31,36,18,87,,94,76,28,26,14,10,1.7,1.8
2024-07-20T1900,1764A,123.7669,41.2864,本溪市,东明,,35,15,20,7,12,109,,132,100,12,10,6,6,0.4,0.5
2024-07-20T1900,1765A,123.7992,41.2664,本溪市,新立屯,,34,7,14,3,8,108,,131,99,5,3,4,4,0.6,0.6
2024-07-20T1900,1766A,123.8142,41.3472,本溪市,威宁,,30,13,22,3,11,95,,120,83,14,12,8,8,0.6,0.7
2024-07-20T1900,2587A,105.2864,27.3125,毕节市,八中,,25,25,22,12,10,64,,65,65,12,10,6,6,0.3,0.3
2024-07-20T1900,2588A,105.31,27.2944,毕节市,师专,,19,18,15,10,9,59,,62,62,12,11,5,5,0.4,0.4
2024-07-20T1900,3537A,105.3631,27.3533,毕节市,长征村,,23,13,12,9,8,72,,71,71,7,8,7,10,0.4,0.4
2024-07-20T1900,1629A,118.0018,37.3617,滨州市,第二水厂,臭氧1小时,54,24,24,12,10,163,,156,156,8,10,3,2,0.6,0.6
2024-07-20T1900,1630A,117.9776,37.393,滨州市,北中新校,臭氧1小时,70,24,24,9,8,176,,160,160,6,9,1,2,0.4,0.4
2024-07-20T1900,3514A,117.9378,37.3956,滨州市,中海酒店,臭氧1小时,85,22,22,12,11,188,,167,167,9,11,4,6,0.4,0.5
2024-07-20T1900,3515A,117.9378,37.3553,滨州市,开发区一中,,50,39,25,19,11,158,,151,151,11,11,6,7,0.6,0.6
2024-07-20T1900,3516A,118.0917,37.694,滨州市,金海六路,,47,19,21,7,6,148,,154,154,13,13,2,3,0.3,0.3
2024-07-20T1900,4028A,117.9956,37.3753,滨州市,滨州市西街道办事处,臭氧1小时,90,19,19,12,11,192,,176,176,5,9,3,2,0.5,0.5
2024-07-20T1900,2311A,115.8072,33.8399,亳州市,污水处理厂,,21,18,10,6,5,65,,68,68,6,4,3,3,0.6,0.6
2024-07-20T1900,2312A,115.7789,33.8518,亳州市,三国揽胜宫,,24,22,17,14,7,74,,79,79,5,6,1,1,0.4,0.4
2024-07-20T1900,3332A,115.7633,33.8034,亳州市,亳州学院,,24,11,8,3,4,75,,82,82,6,6,2,2,0.4,0.4
2024-07-20T1900,2693A,82.0485,44.8556,博尔塔拉蒙古自治州,市党校,,44,17,18,12,7,138,,130,130,6,8,10,10,0.3,0.4
2024-07-20T1900,2694A,82.0806,44.8969,博尔塔拉蒙古自治州,市环保局,,42,16,23,9,10,134,,125,125,8,12,7,8,0.3,0.3
2024-07-20T1900,1071A,116.8842,38.2991,沧州市,沧县城建局,,45,22,20,8,10,144,,156,156,6,6,3,4,0,0
2024-07-20T1900,1072A,116.8584,38.3254,沧州市,电视转播站,,49,25,23,7,10,154,,157,157,7,7,3,3,0.2,0.2
2024-07-20T1900,1073A,116.8709,38.3228,沧州市,市环保局,,44,20,26,11,12,139,,153,152,8,6,3,3,0.2,0.2
2024-07-20T1900,3324A,116.8136,38.3004,沧州市,河北水利电力学院,,47,,17,18,16,149,,161,161,9,9,5,5,0.2,0.2
2024-07-20T1900,2622A,97.1806,31.1273,昌都市,昌都监测站,,,,7,6,5,44,,47,47,6,7,,8,0.3,0.3
2024-07-20T1900,3719A,97.1714,31.1406,昌都市,昌都会议中心,,14,8,6,3,4,44,,47,47,2,5,6,6,0.4,0.4
2024-07-20T1900,2690A,88.1236,43.8886,昌吉回族自治州,天山天池,臭氧1小时,53,13,5,3,5,162,,135,135,8,6,8,7,0.6,0.5
2024-07-20T1900,2692A,87.2717,44.0297,昌吉回族自治州,新区政务中心,,40,9,19,3,10,126,,122,122,6,17,9,9,0.3,0.5
2024-07-20T1900,3613A,87.3095,44.0142,昌吉回族自治州,亚心广场,,42,9,27,3,6,134,,66,,15,30,6,10,0.2,0.4
2024-07-20T1900,1119A,125.3325,43.9166,长春市,食品厂,,33,24,29,9,15,103,,120,118,20,18,3,3,0.4,0.5
2024-07-20T1900,1120A,125.2863,43.9027,长春市,客车厂,,34,22,28,11,16,107,,126,124,15,14,3,3,0.4,0.5
2024-07-20T1900,1121A,125.2841,43.8463,长春市,邮电学院,,30,21,27,10,15,96,,115,113,20,14,6,6,0.3,0.5
2024-07-20T1900,1122A,125.3716,43.8772,长春市,劳动公园,,35,18,29,9,12,112,,123,123,12,13,3,3,0.6,0.7
2024-07-20T1900,1123A,125.3297,43.8805,长春市,园林处,,33,18,32,18,21,104,,119,118,13,12,4,4,0.5,0.6
2024-07-20T1900,1124A,125.4605,43.79,长春市,净月潭,,25,,28,17,13,64,,100,92,5,8,4,4,0.3,0.4
2024-07-20T1900,1126A,125.3863,43.8447,长春市,经开区环卫处,,32,12,27,6,13,101,,109,109,13,15,2,2,0.3,0.5
2024-07-20T1900,1127A,125.245,43.7783,长春市,高新区管委会,,30,15,20,6,12,96,,120,117,15,10,3,3,0.5,0.6
2024-07-20T1900,1128A,125.1761,43.8325,长春市,岱山公园,,27,20,27,8,16,84,,101,98,14,13,3,3,0.3,0.4
2024-07-20T1900,1335A,113.0833,28.2325,长沙市,经开区环保局,,22,22,22,12,8,70,,90,90,7,8,5,6,0.3,0.3
2024-07-20T1900,1336A,112.8872,28.2189,长沙市,高开区环保局,,31,31,27,14,10,82,,100,100,6,10,6,10,0.4,0.5
2024-07-20T1900,1337A,113.0792,28.2053,长沙市,马坡岭,,39,39,23,15,12,71,,89,89,7,8,3,4,0.5,0.5
2024-07-20T1900,1338A,112.9394,28.19,长沙市,湖南师范大学,,29,29,26,13,12,78,,96,96,8,10,5,6,0.5,0.5
2024-07-20T1900,1339A,113.0178,28.1322,长沙市,雨花区环保局,,24,23,23,9,6,74,,90,90,5,7,4,6,0.7,0.5
2024-07-20T1900,1340A,112.9792,28.2597,长沙市,伍家岭,,28,28,25,14,9,82,,100,100,5,7,2,5,0.5,0.5
2024-07-20T1900,1341A,113.0014,28.1944,长沙市,火车新站,,33,33,25,12,8,77,,96,96,10,9,4,6,0.5,0.4
2024-07-20T1900,1342A,112.9844,28.1178,长沙市,天心区环保局,,29,29,26,3,18,72,,89,89,8,10,3,6,0.4,0.4
2024-07-20T1900,1343A,112.8908,28.1308,长沙市,湖南中医药大学,,33,33,32,13,12,79,,100,100,11,18,5,10,0.3,0.6
2024-07-20T1900,1344A,112.9581,28.3611,长沙市,沙坪,,27,20,16,14,10,86,,103,103,11,10,8,10,0.3,0.3
2024-07-20T1900,1727A,113.1147,36.1547,长治市,清华站,,39,21,21,9,9,124,,169,169,6,11,4,5,0.2,0.4
2024-07-20T1900,1728A,113.1031,36.1989,长治市,监测站,,41,36,27,14,11,131,,179,179,11,16,5,6,0.5,0.7
2024-07-20T1900,1730A,113.0886,36.2125,长治市,审计局,,39,24,22,7,11,123,,167,167,10,20,4,4,0.4,0.8
2024-07-20T1900,1731A,113.0844,36.1856,长治市,长治八中,,39,24,28,11,13,123,,167,167,14,15,5,6,0.3,0.7
2024-07-20T1900,2845A,113.1569,36.1911,长治市,德盛苑,,40,26,20,3,10,127,,180,180,8,9,10,11,0.5,0.8
2024-07-20T1900,3568A,113.06,36.0464,长治市,向阳小学,,40,40,41,26,18,123,,154,154,9,14,7,8,0.7,0.9
2024-07-20T1900,3569A,112.8792,36.3144,长治市,屯留一中,,48,37,33,27,20,151,,167,167,8,13,9,11,0.6,0.6
2024-07-20T1900,3570A,113.235,36.3489,长治市,潞城四中,臭氧1小时,62,32,32,14,15,169,,203,203,16,18,4,4,0.5,0.9
2024-07-20T1900,1854A,111.6975,28.9703,常德市,市二中,,23,16,12,13,7,71,,62,62,5,3,7,7,0.3,0.3
2024-07-20T1900,3138A,111.7153,29.0289,常德市,武陵区永安,,22,16,15,14,8,68,,60,60,6,5,8,8,0.3,0.2
2024-07-20T1900,3139A,111.6892,28.9881,常德市,鼎城区玉霞,,21,19,18,11,9,67,,59,59,4,3,5,5,0.3,0.4
2024-07-20T1900,3140A,111.6625,29.0531,常德市,武陵区长庚,,22,14,15,12,10,68,,57,57,2,3,9,9,0.3,0.3
2024-07-20T1900,1196A,119.9633,31.762,常州市,市监测站,,26,24,33,13,14,82,,101,92,11,15,8,8,0.5,0.4
2024-07-20T1900,1200A,119.9468,31.7069,常州市,武进监测站,,26,25,27,18,14,76,,103,91,4,9,8,13,0.5,0.6
2024-07-20T1900,1201A,119.9255,31.9087,常州市,安家,,33,33,33,9,14,50,,71,65,21,17,12,6,0.4,0.4
2024-07-20T1900,3002A,119.9805,31.8174,常州市,行政中心,,28,,23,19,17,67,,88,77,15,14,12,12,0.5,0.4
2024-07-20T1900,3003A,120.0522,31.7748,常州市,经开区,,24,22,30,11,17,74,,93,83,6,15,5,5,0.7,0.9
2024-07-20T1900,3010A,119.9025,31.7964,常州市,钟楼,,29,29,28,11,12,60,,83,68,14,14,3,3,0.8,0.7
2024-07-20T1900,3429A,119.8598,31.7066,常州市,武进经发区,,33,33,37,13,14,67,,92,76,7,16,8,8,0.4,0.4
2024-07-20T1900,3430A,119.5826,31.7245,常州市,金坛城区,,18,16,19,7,11,56,,82,68,4,11,6,10,0.2,0.3
2024-07-20T1900,2220A,120.4318,41.5881,朝阳市,西梁,颗粒物(PM10),55,60,41,20,18,117,,132,115,8,11,4,5,0.6,0.7
2024-07-20T1900,2221A,120.4521,41.5646,朝阳市,河畔小区,颗粒物(PM10),70,90,63,19,17,105,,138,99,6,8,6,8,0.6,0.7
2024-07-20T1900,2222A,120.4176,41.5648,朝阳市,八里堡,,46,46,41,19,15,86,,118,84,8,11,3,4,0.8,0.9
2024-07-20T1900,2223A,120.3806,41.5969,朝阳市,农业园区,颗粒物(PM10),57,64,50,28,23,104,,130,105,10,13,6,7,0.6,0.7
2024-07-20T1900,1705A,116.6367,23.6719,潮州市,西园路,,13,8,19,6,8,41,,43,42,9,8,4,3,0.5,0.4
2024-07-20T1900,3026A,116.6183,23.6608,潮州市,市政府,,23,23,22,8,7,42,,43,43,3,4,4,5,0.6,0.6
2024-07-20T1900,4036A,116.6461,23.6761,潮州市,金山,,22,22,20,6,8,42,,43,43,4,6,6,6,0.6,0.6
2024-07-20T1900,2472A,113.0073,25.9061,郴州市,马头岭,,23,23,16,9,6,60,,63,63,6,3,8,8,0.4,0.4
2024-07-20T1900,2473A,113.0116,25.8226,郴州市,市职中,,20,17,9,7,4,61,,61,61,4,4,10,8,0.3,0.4
2024-07-20T1900,2474A,113.0161,25.8001,郴州市,兴隆步行街,,19,19,13,3,6,58,,59,59,4,4,10,10,0.4,0.4
2024-07-20T1900,2475A,113.0383,25.8071,郴州市,市审计局,,18,14,9,7,5,57,,57,57,6,6,6,9,0.2,0.3
2024-07-20T1900,2476A,113.0348,25.7759,郴州市,市环保局,,18,,10,10,8,57,,59,59,8,9,9,12,0.4,0.4
2024-07-20T1900,1431A,103.9728,30.7236,成都市,金泉两河,,31,31,24,20,12,36,,34,34,12,10,1,2,0.4,0.4
2024-07-20T1900,1432A,104.176,30.6872,成都市,十里店,,17,16,20,8,10,53,,45,45,9,12,1,1,0.3,0.4
2024-07-20T1900,1433A,104.079,30.5706,成都市,三瓦窑,,32,32,22,8,14,55,,50,44,11,11,3,2,0.2,0.2
2024-07-20T1900,1434A,104.1114,30.63,成都市,沙河铺,,17,17,21,11,10,51,,40,39,14,15,3,3,0.4,0.4
2024-07-20T1900,1437A,104.0786,30.6531,成都市,君平街,,,29,21,24,12,,,83,,9,9,2,3,0.4,0.6
2024-07-20T1900,2880A,104.0239,30.65639,成都市,大石西路,,24,24,22,10,12,54,,45,45,10,11,3,3,0.6,0.6
2024-07-20T1900,3136A,104.2725,30.5589,成都市,龙泉驿区区政府,,20,9,12,3,7,64,,54,54,2,8,3,3,0.4,0.5
2024-07-20T1900,3357A,104.0106,30.6931,成都市,金博路,,26,25,18,18,12,42,,37,37,10,11,2,3,0.3,0.3
2024-07-20T1900,3359A,104.0578,30.5225,成都市,华阳,,18,,16,12,16,48,,41,41,1,4,3,3,0.5,0.5
2024-07-20T1900,3487A,104.2394,30.5319,成都市,车城东七路,,22,10,23,7,15,68,,56,56,4,11,1,1,0.4,0.5
2024-07-20T1900,3488A,104.3853,30.7453,成都市,青白江技师分院,,21,21,13,9,6,56,,39,39,1,9,5,5,0.6,0.6
2024-07-20T1900,3489A,104.0789,30.4072,成都市,科学城,,23,7,22,6,16,71,,57,57,2,7,2,2,0.5,0.6
2024-07-20T1900,4011A,103.8506,30.6947,成都市,光华大道三段,,25,23,27,17,14,31,,36,35,12,10,2,4,0.4,0.4
2024-07-20T1900,1062A,117.9531,40.9081,承德市,铁路,,50,40,22,16,12,159,,174,174,19,19,9,12,0.4,0.4
2024-07-20T1900,1063A,117.9392,40.9763,承德市,中国银行,,,42,29,8,12,166,,179,179,13,14,,10,0.4,0.5
2024-07-20T1900,1064A,117.9503,40.928,承德市,开发区,臭氧1小时,58,27,28,12,12,166,,177,177,13,12,9,13,0.4,0.4
2024-07-20T1900,1065A,117.8051,40.9655,承德市,文化中心,臭氧1小时,52,35,35,20,18,161,,183,183,12,12,67,23,0.3,0.6
2024-07-20T1900,1066A,117.9268,41.0026,承德市,离宫,,38,38,27,17,15,110,,164,160,8,5,10,9,0.5,0.5
2024-07-20T1900,3237A,117.4918,30.6617,池州市,展览馆,,22,22,18,11,7,31,,42,40,9,8,4,4,0.3,0.4
2024-07-20T1900,3333A,117.5627,30.695,池州市,第八中学,,13,13,16,7,8,28,,42,39,10,8,3,3,0.2,0.3
2024-07-20T1900,3334A,117.5038,30.6243,池州市,第十二中学,,26,26,19,13,10,22,,39,36,16,13,6,6,0.6,0.7
2024-07-20T1900,1744A,118.9233,42.2816,赤峰市,松山一中,臭氧1小时,62,26,25,3,7,169,,179,179,19,22,12,12,0.7,0.7
2024-07-20T1900,1745A,118.9576,42.2728,赤峰市,哈达街,臭氧1小时,77,15,24,14,12,181,,185,185,10,12,12,13,0.5,0.6
2024-07-20T1900,1746A,118.8788,42.2554,赤峰市,天义路,臭氧1小时,83,10,14,6,8,186,,195,195,15,15,10,9,0.3,0.3
2024-07-20T1900,3058A,119.2658,42.0353,赤峰市,银河街,,,15,22,13,13,,,175,175,16,16,14,18,0.5,0.6
2024-07-20T1900,3286A,118.9359,42.3147,赤峰市,桥北物流园区,臭氧1小时,68,30,23,23,15,174,,181,181,26,28,14,11,0.7,0.7
2024-07-20T1900,2521A,107.3476,22.4136,崇左市,市环保局江州分局,,10,9,20,3,9,32,,45,45,5,6,5,6,0.4,0.5
2024-07-20T1900,2522A,107.3702,22.3707,崇左市,城南新区,,10,,18,3,8,31,,43,43,8,7,3,5,0.4,0.4
2024-07-20T1900,2298A,118.3093,32.3153,滁州市,老年大学,,23,21,22,15,12,71,,78,78,8,8,8,9,0.4,0.4
2024-07-20T1900,2299A,118.3244,32.2786,滁州市,人大宾馆,,28,28,25,13,14,63,,76,76,11,10,5,5,0.5,0.5
2024-07-20T1900,3207A,118.3118,32.3038,滁州市,市政府原办公楼,,22,15,19,14,14,68,,76,76,8,9,9,10,0.6,0.6
2024-07-20T1900,3331A,118.3267,32.2634,滁州市,图书馆,,24,24,25,11,11,66,,80,80,8,7,10,12,0.6,0.7
2024-07-20T1900,2605A,101.5482,25.0441,楚雄彝族自治州,州环境监测站,,15,14,10,3,6,48,,47,47,4,4,2,2,0.5,0.5
2024-07-20T1900,2606A,101.538,25.0492,楚雄彝族自治州,市经济开发区,,14,13,17,6,9,43,,42,42,7,6,4,4,0.5,0.5
2024-07-20T1900,2548A,107.5277,31.2827,达州市,达州职业技术学院,,27,27,29,3,4,24,,24,24,22,20,5,5,0.3,0.3
2024-07-20T1900,2549A,107.5086,31.2186,达州市,市环境监测站,,23,23,25,7,4,35,,31,31,27,26,7,7,0.4,0.4
2024-07-20T1900,2550A,107.4988,31.2132,达州市,凤凰小区,,19,19,18,7,6,45,,40,40,19,24,8,8,0.5,0.5
2024-07-20T1900,2551A,107.5082,31.1986,达州市,达县机关宾馆,,29,29,27,3,7,39,,34,34,28,30,5,5,0.3,0.3
2024-07-20T1900,2552A,107.4644,31.2124,达州市,市政中心,,24,24,27,3,4,46,,42,42,20,25,7,8,0.5,0.6
2024-07-20T1900,2614A,100.1542,25.7054,大理白族自治州,大理市环境监测站,颗粒物(PM10),81,111,25,14,13,48,,55,55,15,7,3,3,0.5,0.5
2024-07-20T1900,2615A,100.2171,25.5811,大理白族自治州,大理古城,,,23,18,11,12,47,,71,70,19,10,,6,0.8,0.7
2024-07-20T1900,1109A,121.612,38.9741,大连市,甘井子,,21,9,24,3,14,65,,81,70,15,17,7,7,0.4,0.5
2024-07-20T1900,1110A,121.565,38.9511,大连市,周水子,,16,12,24,3,15,49,,70,57,28,20,5,10,0.6,0.7
2024-07-20T1900,1111A,121.5637,38.8845,大连市,星海三站,,24,10,19,3,11,75,,90,75,8,8,6,6,0.5,0.5
2024-07-20T1900,1112A,121.6302,38.9117,大连市,青泥洼桥,,18,7,16,3,14,57,,84,66,28,12,8,8,0.8,0.8
2024-07-20T1900,1113A,121.6251,38.8638,大连市,傅家庄,,24,8,16,3,11,75,,93,80,13,10,6,6,0.4,0.4
2024-07-20T1900,1114A,121.5213,38.8661,大连市,七贤岭,,21,6,19,3,12,65,,60,60,11,12,6,6,0.5,0.6
2024-07-20T1900,1115A,121.2529,38.8061,大连市,旅顺,,26,,14,3,11,83,,85,80,10,13,7,8,0.3,0.4
2024-07-20T1900,1116A,121.7485,39.1311,大连市,金州,,22,8,21,7,16,68,,83,74,10,10,6,6,0.4,0.4
2024-07-20T1900,1117A,121.7811,39.0496,大连市,开发区,,20,16,26,6,13,61,,82,71,19,15,4,7,0.5,0.5
2024-07-20T1900,1118A,121.9762,39.0631,大连市,双D港,,23,13,23,3,8,73,,93,85,9,10,5,6,0.5,0.5
2024-07-20T1900,1789A,124.81117,46.03138,大庆市,大同区,,46,46,39,30,28,120,,130,130,9,10,8,8,0.6,0.6
2024-07-20T1900,1790A,125.129,46.533,大庆市,龙凤区,,44,44,41,14,16,122,,124,124,10,16,5,6,0.6,0.6
2024-07-20T1900,1791A,124.902,46.408,大庆市,红岗区,,48,,24,33,17,132,,136,136,6,11,6,7,0.8,0.7
2024-07-20T1900,1792A,125.153,46.586,大庆市,萨尔图区,,43,43,33,23,21,118,,116,116,11,15,4,5,0.6,0.6
2024-07-20T1900,1793A,124.9042,46.6215,大庆市,让胡路区,颗粒物(PM10),51,52,39,22,19,124,,130,130,8,12,6,6,0.5,0.5
2024-07-20T1900,3481A,125.141,46.634,大庆市,萨区政府监测点,颗粒物(PM10),52,54,39,9,15,125,,131,131,9,13,7,8,0.4,0.3
2024-07-20T1900,1723A,113.2994,40.0758,大同市,云冈宾馆,臭氧1小时,110,46,38,28,16,220,,214,214,17,19,12,11,0.5,0.8
2024-07-20T1900,1724A,113.3444,40.0917,大同市,大同大学,臭氧1小时,107,39,30,22,14,214,,206,206,10,16,15,15,0.5,0.6
2024-07-20T1900,1725A,113.2661,40.1269,大同市,安家小村,臭氧1小时,110,61,46,26,11,219,,211,211,12,17,13,11,0.3,0.5
2024-07-20T1900,1726A,113.2711,40.0844,大同市,教育学院,臭氧1小时,110,56,40,22,17,220,,213,213,15,20,13,13,0.6,0.8
2024-07-20T1900,3282A,113.3397,40.0597,大同市,大同市卫生学校,臭氧1小时,106,49,32,22,18,212,,211,211,14,18,10,13,0.7,0.7
2024-07-20T1900,3565A,113.1367,40.1122,大同市,云冈站,臭氧1小时,100,54,35,19,15,200,,198,198,16,19,12,11,0.6,0.6
2024-07-20T1900,3566A,113.1186,40.2556,大同市,图书馆,臭氧1小时,108,54,26,25,14,216,,204,204,18,14,13,10,0.6,0.6
2024-07-20T1900,3567A,113.5931,40.0461,大同市,区一中,臭氧1小时,105,39,27,12,7,210,,204,204,14,13,15,10,0.6,0.5
2024-07-20T1900,3676A,113.2802,40.0995,大同市,第二人民医院,臭氧1小时,112,53,40,24,15,224,,219,219,14,17,14,12,0.5,0.7
2024-07-20T1900,2269A,124.1069,50.4097,大兴安岭地区,科技局,,22,19,14,8,8,70,,62,62,8,4,9,8,0.5,0.4
2024-07-20T1900,3663A,124.1164,50.4278,大兴安岭地区,红旗社区,,18,,7,12,6,30,,54,51,4,5,7,7,0.7,0.6
2024-07-20T1900,1600A,124.3303,40.0625,丹东市,江湾东路,,45,6,26,3,4,144,,130,130,5,4,1,1,0.4,0.5
2024-07-20T1900,1601A,124.4256,40.1503,丹东市,临江后街,,42,6,8,3,3,134,,128,128,4,4,7,7,0.4,0.5
2024-07-20T1900,1602A,124.3933,40.1461,丹东市,元宝山,,40,,9,3,6,127,,116,116,8,9,4,4,0.2,0.4
2024-07-20T1900,1603A,124.3633,40.1092,丹东市,民主桥,颗粒物(PM10),51,52,29,8,7,118,,113,113,20,10,3,3,0.4,0.5
2024-07-20T1900,3541A,109.5726,19.5167,儋州市,第一中学子站,,15,8,11,3,6,47,,41,41,3,2,6,6,0.3,0.4
2024-07-20T1900,3542A,109.5567,19.5187,儋州市,东坡学校子站,,15,13,10,3,7,47,,40,40,4,2,5,6,0.5,0.5
2024-07-20T1900,2616A,98.5842,24.428,德宏傣族景颇族自治州,德宏州监测站,,13,13,17,7,9,32,,45,45,11,11,4,12,0.7,0.7
2024-07-20T1900,3677A,98.5881,24.4368,德宏傣族景颇族自治州,芒市人民政府综合楼,,21,21,19,6,11,31,,40,40,10,11,11,14,0.6,0.6
2024-07-20T1900,1901A,104.4239,31.1208,德阳市,东山公园,,17,9,15,7,9,54,,43,43,2,5,2,2,0.4,0.5
2024-07-20T1900,1902A,104.3826,31.1317,德阳市,西小区,,18,8,12,7,10,55,,43,43,6,12,2,2,0.5,0.5
2024-07-20T1900,1904A,104.3553,31.1091,德阳市,耐火材料厂,,17,10,14,6,11,54,,40,40,5,10,3,3,0.5,0.6
2024-07-20T1900,3639A,104.4019,31.1244,德阳市,市教育局,,20,11,16,6,10,62,,42,42,4,8,6,5,0.5,0.5
2024-07-20T1900,1622A,116.3032,37.4674,德州市,儿童乐园,臭氧1小时,70,24,18,9,5,176,,167,167,8,8,8,8,0.5,0.5
2024-07-20T1900,1624A,116.2991,37.4451,德州市,监理站,臭氧1小时,70,19,12,3,5,176,,170,170,15,12,8,10,0.3,0.4
2024-07-20T1900,3066A,116.2721,37.4379,德州市,九衢泉纯净水厂,臭氧1小时,60,27,17,3,7,168,,162,162,12,9,5,4,0.4,0.4
2024-07-20T1900,3371A,116.3728,37.4403,德州市,开发区人民医院,,,24,18,3,5,178,,167,167,,9,,11,0.7,0.5
2024-07-20T1900,3372A,116.3572,37.4094,德州市,太阳城中学,臭氧1小时,74,22,17,7,7,179,,170,170,8,7,8,8,0.3,0.3
2024-07-20T1900,3511A,116.5652,37.3319,德州市,陵城艺术中心,臭氧1小时,58,24,16,7,6,166,,171,171,14,13,8,8,0.5,0.4
2024-07-20T1900,2621A,99.7056,27.8317,迪庆藏族自治州,迪庆州站,,22,22,17,3,8,38,,40,40,8,9,8,7,0.3,0.3
2024-07-20T1900,3180A,99.7136,27.8094,迪庆藏族自治州,质量技术监督局,,19,19,26,9,8,39,,40,40,9,7,8,7,0.5,0.4
2024-07-20T1900,2663A,104.6241,35.5734,定西市,东关小学,,,30,25,17,11,105,,104,104,,8,7,6,0.2,0.2
2024-07-20T1900,2664A,104.6194,35.5934,定西市,供电公司,,31,25,22,17,14,99,,98,98,4,5,6,6,0.1,0.2
2024-07-20T1900,1389A,113.7547,23.0494,东莞市,莞城梨川,,22,22,25,9,11,49,,71,71,20,20,8,8,0.8,0.8
2024-07-20T1900,1390A,113.7944,23.0128,东莞市,东城石井,,18,18,26,8,12,35,,64,62,13,18,5,6,0.5,0.5
2024-07-20T1900,1391A,113.7383,22.9658,东莞市,南城西平,,22,22,24,9,8,46,,63,62,12,22,13,11,0.6,0.8
2024-07-20T1900,3319A,113.7338,23.0381,东莞市,万江金泰,,22,22,26,11,12,50,,84,84,14,17,7,8,0.7,0.6
2024-07-20T1900,3626A,113.7533,23.0202,东莞市,南城元岭,,20,20,26,9,12,43,,69,69,12,16,5,5,0.6,0.7
2024-07-20T1900,3627A,113.7875,23.0457,东莞市,东城主山,,22,22,26,13,11,41,,70,68,18,14,6,6,0.7,0.7
2024-07-20T1900,1666A,118.6614,37.4309,东营市,市环保局,,50,27,17,19,8,158,,154,154,10,11,11,13,0.2,0.1
2024-07-20T1900,3036A,118.6904,37.4338,东营市,开发区管委会,臭氧1小时,63,33,20,17,8,170,,166,166,16,16,12,13,0.4,0.3
2024-07-20T1900,3365A,118.5719,37.565,东营市,垦利区民丰路,臭氧1小时,78,29,22,12,9,182,,169,169,9,13,9,9,0.4,0.4
2024-07-20T1900,3498A,118.5055,37.8612,东营市,河口城区,,49,24,24,10,10,155,,147,147,13,16,7,7,0.4,0.4
2024-07-20T1900,3646A,118.4978,37.4623,东营市,胜利站,臭氧1小时,67,37,19,7,7,173,,164,164,18,14,5,4,0.5,0.5
2024-07-20T1900,3734A,118.35,37.26,东营市,理想之城,臭氧1小时,60,27,21,17,11,168,,162,162,12,12,13,11,0.4,0.4
2024-07-20T1900,1591A,110.0023,39.8129,鄂尔多斯市,综合楼,臭氧1小时,90,48,91,3,14,192,,197,197,17,18,10,13,0.6,0.6
2024-07-20T1900,1592A,109.9486,39.8261,鄂尔多斯市,巴音孟克林场办事处,臭氧1小时,68,39,85,12,19,174,,177,177,11,16,9,11,0.6,0.7
2024-07-20T1900,1593A,109.7736,39.5986,鄂尔多斯市,康泽苑,臭氧1小时,72,34,70,17,20,177,,186,186,11,15,8,8,0.5,0.5
2024-07-20T1900,1594A,109.8119,39.5989,鄂尔多斯市,华泰汽车城,,50,27,65,12,20,159,,171,171,14,21,9,10,0.5,0.5
2024-07-20T1900,1595A,109.9734,39.7884,鄂尔多斯市,奥林花园,臭氧1小时,68,41,72,9,17,174,,175,175,10,18,7,8,0.6,0.7
2024-07-20T1900,2436A,114.8938,30.3994,鄂州市,市政府,,26,22,33,3,7,83,,76,76,8,14,8,8,0.5,0.6
2024-07-20T1900,2437A,114.8989,30.3714,鄂州市,赵家坝,,25,22,28,7,7,78,,72,72,4,9,8,9,0.5,0.5
2024-07-20T1900,3654A,114.8094,30.4089,鄂州市,精准医疗中心,,24,23,31,8,10,74,,76,76,8,14,9,7,0.7,0.6
2024-07-20T1900,2454A,109.4978,30.2981,恩施土家族苗族自治州,湖北民院,,24,24,21,11,11,34,,37,37,20,18,7,8,0.5,0.5
2024-07-20T1900,2455A,109.4707,30.2798,恩施土家族苗族自治州,州电力总公司,,35,35,32,13,15,34,,34,34,28,24,5,5,0.6,0.6
2024-07-20T1900,3549A,109.5061,30.3772,恩施土家族苗族自治州,龙凤新区,,25,25,19,10,10,26,,27,27,18,16,7,7,0.5,0.5
2024-07-20T1900,2499A,108.3411,21.6158,防城港市,沙万,,25,23,24,17,11,21,,42,39,29,15,18,11,1.2,0.7
2024-07-20T1900,2500A,108.3514,21.7731,防城港市,防城档案局,,22,22,18,12,16,50,,46,46,9,12,10,7,0.7,0.8
2024-07-20T1900,2501A,108.3506,21.6414,防城港市,大海花园,,44,44,20,19,7,27,,49,46,17,7,14,6,1.1,0.5
2024-07-20T1900,1371A,113.1294,23.0067,佛山市,湾梁,,34,34,21,11,11,51,,81,80,35,24,6,7,0.7,0.7
2024-07-20T1900,1372A,113.1083,23.0478,佛山市,华材职中,,27,27,19,13,10,56,,81,81,30,24,6,5,0.4,0.4
2024-07-20T1900,1373A,113.144,23.0453,佛山市,南海气象局,,31,31,27,14,12,48,,70,69,27,23,8,8,0.5,0.5
2024-07-20T1900,1374A,113.2881,22.8094,佛山市,顺德苏岗,,14,9,13,7,6,44,,54,53,14,19,6,6,0.4,0.5
2024-07-20T1900,1376A,112.8383,22.8678,佛山市,高明孔堂,,28,28,21,12,9,67,,90,90,13,18,7,7,0.5,0.5
2024-07-20T1900,1377A,112.8836,23.1588,佛山市,三水监测站,,24,24,21,3,13,50,,92,92,29,25,4,4,0.4,0.4
2024-07-20T1900,1378A,112.867,23.185,佛山市,三水云东海,,22,22,20,11,10,48,,93,93,29,25,3,4,0.5,0.5
2024-07-20T1900,3625A,113.2544,22.7642,佛山市,容桂街道办,,24,24,17,3,7,42,,52,52,17,21,6,7,0.6,0.6
2024-07-20T1900,1282A,119.2681,26.0504,福州市,师大,颗粒物(PM10),51,52,45,15,17,133,,149,148,13,14,6,6,0.4,0.3
2024-07-20T1900,1283A,119.2984,26.1028,福州市,五四北路,,,,43,16,15,138,,160,160,10,14,5,5,0.5,0.5
2024-07-20T1900,1284A,119.2648,26.0768,福州市,杨桥西路,颗粒物(PM10),51,52,46,18,15,141,,155,155,12,12,6,5,0.5,0.4
2024-07-20T1900,1285A,119.317,26.0746,福州市,紫阳,,49,49,44,16,16,129,,145,145,12,16,4,5,0.5,0.4
2024-07-20T1900,3048A,119.5799,26.0936,福州市,九龙,,37,29,31,9,8,116,,99,99,1,5,4,5,0.4,0.5
2024-07-20T1900,3526A,119.5189,25.9664,福州市,吴航,,41,36,35,15,15,131,,128,128,4,8,7,6,0.6,0.4
2024-07-20T1900,1755A,123.7977,41.8491,抚顺市,望花区,,25,25,29,9,16,68,,124,84,12,11,8,5,0.3,0.6
2024-07-20T1900,1756A,123.9161,41.8822,抚顺市,顺城区,,37,37,21,14,12,61,,129,76,18,15,5,4,0.5,0.6
2024-07-20T1900,1757A,124.0436,41.8611,抚顺市,东洲区,,19,18,20,3,12,58,,121,70,7,8,5,5,0.3,0.3
2024-07-20T1900,1758A,123.9247,41.8642,抚顺市,新抚区,,27,27,19,6,12,32,,111,56,20,13,2,2,0.5,0.6
2024-07-20T1900,1759A,124.0972,41.8961,抚顺市,大伙房水库,,22,,13,3,13,70,,130,75,2,3,3,3,0.3,0.4
2024-07-20T1900,1760A,123.7086,41.8391,抚顺市,沈抚新城,,21,14,21,9,15,66,,124,80,13,10,4,4,0.2,0.3
2024-07-20T1900,2376A,116.2127,28.0814,抚州市,桐源党溪,,18,18,29,3,13,37,,55,52,5,4,6,5,0.5,0.4
2024-07-20T1900,2377A,116.3544,27.9831,抚州市,市站,,25,25,22,11,7,48,,50,50,2,4,6,5,0.5,0.5
2024-07-20T1900,2378A,116.3565,27.963,抚州市,血防站,,21,21,18,6,7,48,,44,44,5,6,1,2,0.6,0.5
2024-07-20T1900,2379A,116.3564,28.0007,抚州市,采茶剧团,,24,24,21,11,8,44,,50,49,2,3,6,5,0.6,0.5
2024-07-20T1900,2380A,116.385,27.9647,抚州市,医学分院,,21,21,21,10,6,53,,49,49,4,5,5,4,0.4,0.5
2024-07-20T1900,2207A,121.6094,41.998,阜新市,工业园区,,44,44,38,12,20,130,,139,139,12,12,5,5,0.6,0.7
2024-07-20T1900,2208A,121.6697,42.0279,阜新市,长青街,,39,32,36,15,21,123,,145,134,12,10,6,7,0.5,0.6
2024-07-20T1900,2209A,121.6673,42.0705,阜新市,农业园区,,37,33,65,17,18,118,,131,125,12,10,4,5,0.6,0.7
2024-07-20T1900,2210A,121.6717,42.0224,阜新市,东苑,,36,31,33,16,22,115,,132,125,13,10,6,7,0.5,0.6
2024-07-20T1900,2211A,121.6506,42.0498,阜新市,玉龙新城,,42,42,48,17,21,127,,144,133,10,6,5,5,0.4,0.5
2024-07-20T1900,2301A,115.8277,32.8929,阜阳市,市监测站,,27,25,20,9,9,85,,87,87,8,8,4,5,0.4,0.4
2024-07-20T1900,2303A,115.8554,32.8605,阜阳市,开发区,,28,17,17,7,6,88,,90,90,6,7,5,6,0.2,0.2
2024-07-20T1900,2875A,115.784,32.8892,阜阳市,阜阳职业技术学院,,28,9,16,6,6,89,,92,92,7,7,6,6,0.3,0.4
2024-07-20T1900,3468A,115.7901,32.8613,阜阳市,市规划展馆,,29,13,24,11,12,91,,93,93,6,8,1,1,0.5,0.4
2024-07-20T1900,3469A,115.836,32.9183,阜阳市,枣园社区,,27,,24,14,12,84,,84,84,7,7,1,2,0.4,0.4
2024-07-20T1900,2669A,102.9099,34.9841,甘南藏族自治州,州政府,,34,25,40,14,21,107,,129,129,4,16,9,9,0.2,0.4
2024-07-20T1900,3380A,102.8914,34.9617,甘南藏族自治州,甘肃民族师范学院,,36,29,38,13,15,113,,132,132,7,18,6,4,0.3,0.3
2024-07-20T1900,2570A,101.9603,30.0475,甘孜藏族自治州,水桥子,,16,,5,3,5,50,,54,54,10,12,4,4,0.4,0.4
2024-07-20T1900,3065A,101.9533,29.9972,甘孜藏族自治州,州环保局,,17,,14,8,4,54,,58,58,13,17,2,2,0.3,0.3
2024-07-20T1900,3414A,115.8347,28.932,赣江新区,桑海产业园,,24,24,15,10,5,70,,70,70,24,14,12,11,0.2,0.2
2024-07-20T1900,2363A,114.9367,25.8664,赣州市,地委,,20,14,16,6,9,62,,58,58,2,5,7,11,0.9,0.9
2024-07-20T1900,2364A,114.9461,25.8481,赣州市,气象台,,19,17,16,3,9,59,,54,54,7,11,9,9,0.7,0.7
2024-07-20T1900,2365A,114.9322,25.8333,赣州市,市图书馆,,23,23,13,3,5,65,,59,59,6,4,3,4,0.5,0.5
2024-07-20T1900,2366A,114.8905,25.8471,赣州市,华坚鞋城,,20,18,18,3,8,61,,54,54,5,9,9,19,0.5,0.5
2024-07-20T1900,3109A,115.0093,25.8613,赣州市,赣县区卫计委,,18,18,18,8,8,49,,46,46,7,12,8,8,0.6,0.6
2024-07-20T1900,2683A,106.2319,36.1417,固原市,马园,,31,31,28,11,8,75,,82,82,14,17,5,6,0.5,0.6
2024-07-20T1900,2684A,106.2792,36.0022,固原市,监测站,,26,19,16,3,10,82,,86,86,6,8,5,5,0.2,0.3
2024-07-20T1900,2685A,106.2375,36.0211,固原市,新区,,24,19,16,3,6,76,,82,82,5,7,5,5,0.5,0.5
2024-07-20T1900,3522A,106.2177,35.9959,固原市,原州区十五小,,28,11,15,6,9,88,,96,96,5,8,8,8,0.9,0.9
2024-07-20T1900,2544A,106.6303,30.4576,广安市,市委,,29,25,23,14,12,90,,70,70,10,11,4,3,0.4,0.3
2024-07-20T1900,2545A,106.6271,30.4663,广安市,友谊中学,,31,21,18,12,11,98,,77,77,16,13,5,4,0.6,0.4
2024-07-20T1900,2547A,106.6388,30.4551,广安市,广电花园,,,56,25,13,11,79,,65,65,,10,4,4,0.4,0.3
2024-07-20T1900,2902A,106.6351,30.4865,广安市,北辰小学,,32,29,19,15,11,100,,74,74,10,8,6,5,0.3,0.2
2024-07-20T1900,2523A,105.8945,32.4535,广元市,黑石坡,,12,11,11,8,6,19,,22,22,5,10,12,12,0.3,0.3
2024-07-20T1900,2524A,105.821,32.4444,广元市,老城,,,28,20,17,7,42,,30,30,12,21,7,6,,0.6
2024-07-20T1900,2526A,105.8628,32.4287,广元市,监测站,,17,17,21,9,8,49,,36,36,7,18,5,5,0.4,0.5
2024-07-20T1900,3617A,105.8047,32.4166,广元市,经开区,,16,11,17,8,13,50,,30,30,5,22,2,2,0.5,0.7
2024-07-20T1900,1345A,113.2347,23.1423,广州市,广雅中学,,27,27,14,7,13,56,,80,80,32,29,5,5,0.8,0.7
2024-07-20T1900,1346A,113.2612,23.105,广州市,市五中,,38,31,25,26,14,66,,89,89,25,23,5,5,0.8,0.6
2024-07-20T1900,1348A,113.3478,23.0916,广州市,广东商学院,,34,34,30,18,14,47,,78,77,41,26,4,5,0.6,0.5
2024-07-20T1900,1349A,113.4332,23.1047,广州市,市八十六中,,32,32,29,13,10,30,,62,60,50,30,3,4,0.7,0.6
2024-07-20T1900,1350A,113.3505,22.9483,广州市,番禺中学,,19,17,27,10,13,60,,80,79,15,25,7,8,0.7,0.7
2024-07-20T1900,1351A,113.2146,23.3916,广州市,花都师范,,35,35,26,15,12,27,,72,69,44,25,6,6,0.6,0.5
2024-07-20T1900,1352A,113.2597,23.1331,广州市,市监测站,,31,31,28,16,12,65,,80,80,25,26,5,6,0.7,0.6
2024-07-20T1900,1353A,113.5618,23.312,广州市,九龙镇镇龙,,27,27,28,15,15,35,,56,55,10,14,7,7,0.5,0.5
2024-07-20T1900,1354A,113.2765,23.1544,广州市,麓湖,,25,25,25,10,8,35,,70,68,30,20,4,5,0.7,0.6
2024-07-20T1900,1355A,113.443,23.3035,广州市,帽峰山森林公园,,17,17,13,10,9,34,,60,59,14,13,5,5,0.6,0.5
2024-07-20T1900,2846A,113.3221,23.1322,广州市,体育西,,32,32,28,16,12,52,,70,70,34,25,4,5,0.8,0.7
2024-07-20T1900,3298A,113.5717,23.5491,广州市,从化街口,,16,16,17,10,9,24,,41,38,16,9,5,5,0.7,0.6
2024-07-20T1900,3299A,113.3472,23.3692,广州市,白云竹料,,29,29,23,15,10,39,,63,62,18,17,4,4,0.7,0.6
2024-07-20T1900,3300A,113.2981,23.237,广州市,白云嘉禾,,28,28,27,12,12,39,,69,69,36,26,5,6,0.9,0.7
2024-07-20T1900,3301A,113.4256,23.1716,广州市,黄埔科学城,,26,26,24,13,10,20,,56,52,31,21,7,7,0.6,0.6
2024-07-20T1900,3302A,113.3942,23.0483,广州市,番禺大学城,,24,24,27,12,14,34,,63,60,34,26,5,5,0.6,0.6
2024-07-20T1900,3303A,113.4922,22.8168,广州市,南沙黄阁,,29,29,25,10,11,42,,64,62,19,22,5,6,0.7,0.7
2024-07-20T1900,3304A,113.5342,22.7896,广州市,南沙街,,23,23,25,7,8,33,,56,54,14,16,5,5,0.6,0.6
2024-07-20T1900,3443A,113.2902,23.5544,广州市,花都梯面,,16,16,18,3,7,25,,53,51,10,9,4,4,0.6,0.5
2024-07-20T1900,3445A,113.7858,23.7478,广州市,从化良口,,10,9,14,3,6,31,,37,37,10,6,5,5,0.6,0.6
2024-07-20T1900,3446A,113.8051,23.2614,广州市,增城荔城,,21,21,17,10,9,41,,52,52,10,10,6,6,0.6,0.6
2024-07-20T1900,2506A,109.6047,23.0666,贵港市,江南子站,,32,31,25,22,15,66,,72,72,11,10,8,8,0.5,0.5
2024-07-20T1900,2507A,109.6014,23.0948,贵港市,贵城子站,,35,35,31,20,18,70,,74,74,12,12,8,9,0.5,0.6
2024-07-20T1900,2508A,109.5669,23.1065,贵港市,荷城子站,,29,29,25,9,8,72,,75,75,7,9,10,10,0.4,0.4
2024-07-20T1900,3405A,109.5886,23.1172,贵港市,新世纪学校,,34,34,26,12,13,74,,75,75,7,10,7,9,0.6,0.6
2024-07-20T1900,1439A,106.6899,26.5998,贵阳市,马鞍山,,16,14,5,3,0,50,,54,54,6,4,4,5,0.5,0.5
2024-07-20T1900,1440A,106.6971,26.5694,贵阳市,市环保站,,16,12,10,11,7,41,,48,47,11,7,4,4,0.2,0.2
2024-07-20T1900,1441A,106.6243,26.6266,贵阳市,鉴湖路,,15,12,6,3,1,45,,46,46,5,3,2,2,0.3,0.3
2024-07-20T1900,1442A,106.7487,26.6343,贵阳市,燕子冲,,15,,9,3,4,45,,50,49,6,5,7,7,0.6,0.5
2024-07-20T1900,1443A,106.6555,26.4365,贵阳市,碧云窝,,15,12,10,3,0,45,,48,47,4,5,6,5,0.2,0.2
2024-07-20T1900,1444A,106.694,26.5161,贵阳市,中院村,,,,9,,0,42,,43,43,8,8,4,5,,0.3
2024-07-20T1900,1445A,106.7109,26.6027,贵阳市,红边门,,17,17,12,7,10,41,,47,46,14,10,4,5,0.4,0.4
2024-07-20T1900,1447A,106.674,26.5424,贵阳市,太慈桥,,14,6,5,3,2,44,,48,47,6,5,7,7,0.3,0.3
2024-07-20T1900,1862A,110.4144,25.3167,桂林市,电子科大尧山校区,,24,24,20,12,11,63,,62,62,5,7,4,6,0.4,0.4
2024-07-20T1900,1863A,110.2819,25.2697,桂林市,监测站,,18,18,19,9,9,54,,56,56,7,10,6,12,0.6,0.6
2024-07-20T1900,1864A,110.3089,25.2708,桂林市,龙隐路小学,,22,22,18,11,11,57,,57,57,6,9,6,8,0.4,0.5
2024-07-20T1900,1865A,110.2869,25.2178,桂林市,八中,,18,18,18,8,7,54,,54,54,6,10,6,6,0.3,0.4
2024-07-20T1900,3403A,110.1764,25.2381,桂林市,创业大厦,,18,14,15,12,10,51,,48,48,5,12,6,11,0.3,0.3
2024-07-20T1900,3531A,110.296,25.1253,桂林市,旅游学院,,20,6,8,3,6,61,,59,59,4,12,6,5,0.4,0.4
2024-07-20T1900,2674A,100.2561,34.4714,果洛藏族自治州,玛沁县大武镇,,29,27,24,14,10,90,,94,93,1,3,7,8,0.4,0.4
2024-07-20T1900,1129A,126.5422,45.755,哈尔滨市,岭北,,,31,29,15,27,137,,147,147,16,12,5,8,,0.8
2024-07-20T1900,1130A,126.561,45.8167,哈尔滨市,松北商大,,41,37,43,18,19,130,,135,135,13,13,7,7,0.7,0.7
2024-07-20T1900,1131A,126.979,45.5419,哈尔滨市,阿城会宁,,38,28,43,11,20,120,,124,124,11,14,10,10,0.7,0.7
2024-07-20T1900,1132A,126.599,45.7222,哈尔滨市,南岗学府路,,50,50,58,14,20,135,,144,144,9,8,4,5,0.6,0.7
2024-07-20T1900,1133A,126.689,45.7733,哈尔滨市,太平宏伟公园,,46,46,52,18,22,134,,141,141,16,17,6,6,0.6,0.6
2024-07-20T1900,1134A,126.635,45.7667,哈尔滨市,道外承德广场,,47,47,55,24,19,131,,140,140,16,19,8,8,0.5,0.6
2024-07-20T1900,1135A,126.685,45.7319,哈尔滨市,香坊红旗大街,,,46,50,23,30,132,,142,141,18,19,6,11,,0.8
2024-07-20T1900,1136A,126.6411,45.7258,哈尔滨市,动力和平路,颗粒物(PM10),63,76,59,21,26,125,,136,136,17,15,5,6,0.5,0.6
2024-07-20T1900,1137A,126.593,45.7478,哈尔滨市,道里建国路,,42,39,51,19,23,132,,137,137,14,16,8,8,0.9,0.8
2024-07-20T1900,1138A,126.615,45.61,哈尔滨市,平房东轻厂,颗粒物(PM10),51,51,51,20,20,129,,137,137,10,13,6,6,0.5,0.6
2024-07-20T1900,1139A,126.595,45.9855,哈尔滨市,呼兰师专,,42,42,43,21,23,134,,132,132,13,14,9,9,0.5,0.6
2024-07-20T1900,1140A,126.6206,45.6842,哈尔滨市,省农科院,颗粒物(PM10),58,65,70,14,26,117,,140,139,31,34,6,6,0.6,0.7
2024-07-20T1900,2688A,93.5128,42.8172,哈密市,地区监测站,,44,15,113,8,32,138,,140,140,2,7,3,7,0.1,0.4
2024-07-20T1900,2689A,93.4961,42.8328,哈密市,哈密师范学校,,44,18,111,3,27,140,,146,146,1,5,4,6,0.3,0.5
2024-07-20T1900,2671A,100.9048,36.9639,海北藏族自治州,海晏县西海镇,颗粒物(PM10),58,65,33,33,23,93,,118,114,10,11,11,13,0.4,0.5
2024-07-20T1900,3867A,102.0738,36.5056,海东市,平安区公安北苑,,46,21,38,18,18,147,,158,158,14,14,9,10,0.5,0.7
2024-07-20T1900,1410A,110.3232,20.0574,海口市,海南大学,,19,19,16,6,5,32,,43,41,4,5,6,6,0.4,0.4
2024-07-20T1900,1411A,110.283,20.0053,海口市,秀英海南医院,,28,28,15,12,7,28,,42,40,10,8,6,6,0.2,0.2
2024-07-20T1900,1412A,110.338,19.9969,海口市,海南师范大学,,17,17,16,7,6,33,,45,43,4,5,7,7,0.4,0.4
2024-07-20T1900,1413A,110.33,20.0356,海口市,龙华路环保局宿舍,,19,19,16,8,6,30,,41,40,3,6,6,7,0.2,0.2
2024-07-20T1900,3539A,110.5111,19.9736,海口市,桂林洋子站,,16,16,14,9,7,33,,35,35,3,4,6,6,0.2,0.2
2024-07-20T1900,2676A,97.3731,37.3753,海西蒙古族藏族自治州,德令哈市,颗粒物(PM10),125,200,131,77,54,114,,102,101,8,9,7,8,0.5,0.6
2024-07-20T1900,1048A,114.5302,36.6116,邯郸市,东污水处理厂,,40,22,21,3,6,128,,135,135,2,4,1,2,0.2,0.3
2024-07-20T1900,1049A,114.4918,36.5713,邯郸市,矿院,,43,21,20,3,8,136,,142,142,2,3,2,2,0.3,0.4
2024-07-20T1900,1050A,114.484,36.6133,邯郸市,丛台公园,,43,8,20,3,8,136,,144,144,2,4,4,5,0.3,0.4
2024-07-20T1900,3458A,114.7895,36.5593,邯郸市,香泉濮院小区,,45,18,17,7,8,143,,147,147,2,2,1,1,0.0,0.2
2024-07-20T1900,3579A,114.50634,36.77178,邯郸市,永年区实验高中,,40,25,35,10,14,128,,139,139,3,4,2,2,0.5,0.8
2024-07-20T1900,3580A,114.20016,36.44293,邯郸市,峰峰矿区临水派出所,,49,49,32,3,10,142,,149,149,4,4,3,3,0.1,0.4
2024-07-20T1900,2634A,106.9893,33.1842,汉中市,汉川机床厂子校,,27,27,19,11,7,58,,54,54,14,13,3,3,0.3,0.2
2024-07-20T1900,2635A,107.0154,33.0706,汉中市,市监测站,,26,26,18,9,8,69,,61,61,4,5,6,6,0.6,0.6
2024-07-20T1900,2636A,107.0089,33.1138,汉中市,鑫源开发区,,30,30,17,12,6,73,,61,61,5,5,8,8,0.5,0.5
2024-07-20T1900,2637A,107.007,33.0323,汉中市,南郑大河坎水厂,,19,19,17,9,8,59,,58,58,3,6,7,7,0.4,0.4
2024-07-20T1900,1223A,120.2072,30.2111,杭州市,滨江,,36,36,30,19,13,75,,114,102,10,12,3,3,0.6,0.6
2024-07-20T1900,1224A,120.0633,30.2747,杭州市,西溪,,20,19,26,14,11,61,,97,88,8,11,6,6,0.5,0.5
2024-07-20T1900,1226A,120.3461,30.3153,杭州市,下沙,,34,34,36,19,15,79,,128,116,6,12,6,6,0.5,0.5
2024-07-20T1900,1227A,120.1269,30.2456,杭州市,卧龙桥,,26,23,22,18,14,48,,117,99,14,16,5,5,0.6,0.6
2024-07-20T1900,1228A,120.1903,30.2692,杭州市,浙江农大,,25,25,23,15,14,63,,116,104,20,17,6,7,0.5,0.5
2024-07-20T1900,1230A,120.1197,30.3119,杭州市,和睦小学,,31,31,26,17,13,76,,108,99,17,18,6,6,0.4,0.4
2024-07-20T1900,1231A,120.3019,30.4183,杭州市,临平镇,,34,34,38,13,14,91,,130,118,13,15,5,5,0.6,0.5
2024-07-20T1900,1232A,120.2697,30.1819,杭州市,城厢镇,,35,34,29,24,17,85,,136,122,18,17,4,5,0.5,0.4
2024-07-20T1900,1233A,120.0883,30.1808,杭州市,云栖,,24,24,26,14,11,58,,116,101,14,17,7,7,0.6,0.6
2024-07-20T1900,3557A,119.9464,30.0494,杭州市,镇二中,,39,39,28,20,16,98,,119,113,20,23,7,7,0.7,0.6
2024-07-20T1900,3558A,119.7183,30.2367,杭州市,市府大楼,,26,26,20,14,11,65,,78,72,12,14,8,8,0.4,0.5
2024-07-20T1900,3656A,120.1556,30.2864,杭州市,消防大队,,24,23,28,13,15,74,,118,107,10,14,6,7,0.5,0.6
2024-07-20T1900,1270A,117.1959,31.7848,合肥市,明珠广场,,29,29,27,12,11,63,,64,64,11,12,9,9,0.4,0.3
2024-07-20T1900,1271A,117.3072,31.8764,合肥市,三里街,,24,24,20,7,8,58,,67,67,16,17,4,4,0.2,0.2
2024-07-20T1900,1272A,117.2588,31.8707,合肥市,琥珀山庄,,29,29,27,12,7,62,,72,72,14,10,4,4,0.4,0.4
2024-07-20T1900,1273A,117.1604,31.9052,合肥市,董铺水库,,27,27,23,17,18,58,,63,63,8,8,2,2,0.2,0.2
2024-07-20T1900,1274A,117.25,31.8571,合肥市,长江中路,,27,27,26,15,13,57,,67,67,13,9,6,6,0.5,0.5
2024-07-20T1900,1275A,117.266,31.9436,合肥市,庐阳区,,27,27,24,9,12,63,,73,73,13,12,10,10,0.5,0.5
2024-07-20T1900,1276A,117.336,31.8586,合肥市,瑶海区,,19,14,21,7,10,58,,65,65,11,11,5,5,0.4,0.4
2024-07-20T1900,1277A,117.3027,31.7964,合肥市,包河区,,21,19,21,3,6,65,,70,70,7,6,6,7,0.3,0.2
2024-07-20T1900,1278A,117.2776,31.7385,合肥市,滨湖新区,,20,14,16,3,8,61,,65,65,8,8,7,7,0.3,0.3
2024-07-20T1900,1279A,117.1318,31.8403,合肥市,高新区,,19,17,22,8,9,60,,62,62,8,8,7,7,0.4,0.4
2024-07-20T1900,3464A,117.3803,31.9147,合肥市,高教基地,,20,20,20,11,11,60,,66,66,8,8,7,7,0.3,0.3
2024-07-20T1900,3614A,79.924,37.0877,和田地区,地区环保局,颗粒物(PM10),296,417,290,96,69,136,,133,133,1,4,7,7,0.4,0.4
2024-07-20T1900,3615A,79.9131,37.113,和田地区,市环保局,颗粒物(PM10),258,390,256,80,62,130,,128,128,4,13,6,7,0.1,0.5
2024-07-20T1900,2516A,108.2011,24.715,河池市,东仁乐园,,38,38,33,3,7,37,,41,41,6,8,5,7,0.7,0.7
2024-07-20T1900,2517A,108.0497,24.6947,河池市,市环保站,,16,16,18,6,8,46,,48,48,6,9,7,8,0.5,0.5
2024-07-20T1900,2518A,108.0983,24.6989,河池市,市疾控中心,,20,20,23,6,11,46,,48,48,11,14,9,10,0.5,0.5
2024-07-20T1900,1696A,114.6778,23.7569,河源市,源西,,29,29,18,18,15,9,,35,31,22,13,4,4,0.7,0.6
2024-07-20T1900,1697A,114.6944,23.7586,河源市,东埔,,15,14,17,10,8,20,,37,35,17,14,6,6,0.7,0.6
2024-07-20T1900,1698A,114.6892,23.7233,河源市,老城,,28,28,18,9,8,13,,40,37,13,6,4,4,0.5,0.5
2024-07-20T1900,1718A,115.4208,35.2464,菏泽市,气象局,,38,19,13,6,6,120,,121,120,4,3,3,2,0.2,0.1
2024-07-20T1900,1719A,115.4747,35.2375,菏泽市,市政协,,35,18,12,13,11,111,,122,122,4,4,1,2,0.1,0.1
2024-07-20T1900,3374A,115.5564,35.0891,菏泽市,定陶老年大学,,36,19,9,7,2,115,,113,111,2,3,1,2,0.4,0.4
2024-07-20T1900,3647A,115.4702,35.2706,菏泽市,菏泽医专,,39,14,10,3,3,123,,131,131,3,4,4,3,0.4,0.3
2024-07-20T1900,2514A,111.5264,24.4172,贺州市,环保小区,,29,28,28,6,15,90,,83,83,9,16,6,8,0.6,0.6
2024-07-20T1900,2515A,111.5608,24.4078,贺州市,政协大楼,,28,26,30,13,17,89,,86,86,12,15,8,10,0.6,0.5
2024-07-20T1900,3534A,111.4744,24.4553,贺州市,西湾,,28,14,26,14,15,89,,84,84,8,16,6,6,0.5,0.6
2024-07-20T1900,2385A,114.17,35.9019,鹤壁市,市监测站,,48,22,17,21,14,151,,140,140,12,6,7,5,0.8,0.7
2024-07-20T1900,2386A,114.2956,35.7511,鹤壁市,市交警支队,,39,30,21,19,12,122,,126,126,10,9,6,3,0.5,0.4
2024-07-20T1900,2387A,114.2878,35.7306,鹤壁市,迎宾馆,,46,,10,32,19,123,,125,125,12,12,3,3,0.4,0.3
2024-07-20T1900,3474A,114.2617,35.6822,鹤壁市,大新区,,,23,15,,,106,,119,119,14,11,2,1,0.2,0.2
2024-07-20T1900,3596A,114.1572,35.9603,鹤壁市,南山宾馆,,50,,10,35,18,146,,141,141,10,6,11,10,0.6,0.5
2024-07-20T1900,2244A,130.2537,47.3416,鹤岗市,哈啤分公司,,35,30,30,24,18,85,,90,90,18,11,16,14,0.7,0.7
2024-07-20T1900,2245A,130.2684,47.3086,鹤岗市,斯达机电,,40,40,25,18,14,98,,94,94,12,11,12,13,0.4,0.4
2024-07-20T1900,2246A,130.3114,47.3388,鹤岗市,东山纸板厂,,39,39,23,23,22,68,,72,71,12,12,17,17,0.5,0.5
2024-07-20T1900,2247A,130.1097,47.3382,鹤岗市,五号水库,,26,16,10,3,4,83,,86,84,8,7,10,10,0.1,0.2
2024-07-20T1900,2263A,127.4833,50.2524,黑河市,交通局,,34,34,23,20,13,50,,67,61,11,9,6,7,0.6,0.7
2024-07-20T1900,2264A,127.5144,50.2341,黑河市,环保局,,26,26,18,18,15,59,,68,64,7,8,4,6,0.5,0.5
2024-07-20T1900,2265A,127.5291,50.2472,黑河市,大黑河岛,,,,,,,,,,,7,10,3,2,,
2024-07-20T1900,1074A,115.6838,37.7541,衡水市,电机北厂,臭氧1小时,65,26,31,3,13,172,,172,172,5,3,4,3,0.3,0.2
2024-07-20T1900,1075A,115.6303,37.7316,衡水市,市监测站,臭氧1小时,54,26,21,8,11,163,,170,170,6,6,8,8,0.2,0.2
2024-07-20T1900,3188A,115.6683,37.7217,衡水市,市城管局,臭氧1小时,67,14,18,6,5,173,,175,175,5,4,2,2,0.3,0.2
2024-07-20T1900,3459A,115.5989,37.5491,衡水市,地表水厂,颗粒物(PM10),61,72,38,6,4,160,,167,167,2,6,3,4,0.2,0.2
2024-07-20T1900,2456A,112.5003,26.9167,衡阳市,原169医院,,26,20,18,9,9,81,,81,81,8,9,8,12,0.7,0.7
2024-07-20T1900,2457A,112.6194,26.9258,衡阳市,衡阳化工总厂,,,27,20,,3,78,,82,82,9,8,7,8,0.4,0.4
2024-07-20T1900,2458A,112.6211,26.8956,衡阳市,珠晖区环保局,,,31,21,,,80,,84,84,7,7,7,8,0.5,0.5
2024-07-20T1900,2459A,112.6197,26.8733,衡阳市,市委党校,,29,29,18,9,10,80,,84,84,9,8,5,7,0.5,0.5
2024-07-20T1900,2460A,112.6006,26.8919,衡阳市,市监测站,,27,19,18,9,10,85,,88,88,7,7,8,9,0.4,0.4
2024-07-20T1900,2461A,112.5664,26.9056,衡阳市,真空机电公司,,,44,29,,8,81,,86,86,10,12,9,12,0.6,0.8
2024-07-20T1900,3399A,112.6703,26.882,衡阳市,师范学院,,24,18,18,8,6,75,,79,79,7,7,8,8,0.5,0.5
2024-07-20T1900,2608A,103.3772,23.3993,红河哈尼族彝族自治州,污水处理厂,,18,,10,12,12,43,,51,48,5,5,4,4,0.4,0.4
2024-07-20T1900,2609A,103.3861,23.35,红河哈尼族彝族自治州,监测站,,23,23,11,8,7,45,,53,50,4,4,6,5,0.4,0.3
2024-07-20T1900,3038A,103.3758,23.368,红河哈尼族彝族自治州,州图书馆,,14,10,8,3,6,44,,50,46,3,3,5,5,0.4,0.4
2024-07-20T1900,1090A,111.6507,40.7517,呼和浩特市,呼市一监,臭氧1小时,79,48,27,19,13,183,,188,188,14,16,6,6,0.6,0.5
2024-07-20T1900,1091A,111.6572,40.8033,呼和浩特市,小召,臭氧1小时,84,48,30,18,12,187,,182,182,17,13,10,8,0.9,0.6
2024-07-20T1900,1094A,111.7516,40.8369,呼和浩特市,如意水处理厂,臭氧1小时,102,44,28,17,10,203,,197,197,20,19,7,4,0.7,0.6
2024-07-20T1900,1095A,111.7276,40.8062,呼和浩特市,二十九中,臭氧1小时,105,47,30,16,13,210,,200,200,20,20,8,5,0.6,0.5
2024-07-20T1900,1096A,111.5512,40.7866,呼和浩特市,工大金川校区,臭氧1小时,72,67,30,21,12,177,,186,186,31,26,8,6,0.6,0.5
2024-07-20T1900,1097A,111.717,40.7612,呼和浩特市,化肥厂生活区,臭氧1小时,77,53,35,18,13,181,,186,186,26,19,10,10,0.7,0.6
2024-07-20T1900,3698A,111.5968,40.8178,呼和浩特市,红旗小学,臭氧1小时,106,73,29,19,12,212,,198,198,25,26,9,5,0.6,0.4
2024-07-20T1900,3699A,111.6518,40.8389,呼和浩特市,海东办,臭氧1小时,105,58,30,23,13,210,,196,196,21,28,11,9,0.9,0.7
2024-07-20T1900,2192A,119.7594,49.2261,呼伦贝尔市,区环保局,,25,22,30,10,21,79,,83,83,13,13,6,5,0.7,0.6
2024-07-20T1900,3061A,119.7512,49.1577,呼伦贝尔市,国华电力东,,27,,19,13,18,85,,89,89,5,6,4,4,0.5,0.4
2024-07-20T1900,1250A,120.0751,30.8669,湖州市,城西水厂,,22,22,34,11,17,45,,136,115,24,24,4,4,0.4,0.4
2024-07-20T1900,2873A,120.0875,30.8955,湖州市,仁皇山新区,,24,24,31,14,18,56,,155,133,21,21,8,6,0.6,0.6
2024-07-20T1900,2907A,120.1844,30.8596,湖州市,吴兴区站,,20,20,35,10,18,53,,132,119,18,20,6,6,0.3,0.4
2024-07-20T1900,3562A,120.4148,30.8538,湖州市,南浔区站,,30,30,31,16,18,78,,123,112,14,16,4,4,0.3,0.3
2024-07-20T1900,1607A,120.9092,40.7136,葫芦岛市,龙港区,,37,20,68,6,24,116,,109,109,8,8,2,1,0.4,0.5
2024-07-20T1900,1608A,120.8392,40.7514,葫芦岛市,化工街,,30,17,33,7,22,94,,96,92,17,13,4,4,0.9,0.9
2024-07-20T1900,1609A,120.8341,40.7073,葫芦岛市,新区,,35,24,44,7,28,112,,114,112,13,8,3,2,0.5,0.6
2024-07-20T1900,1610A,120.8695,40.7677,葫芦岛市,东城区,,41,15,35,7,22,130,,131,128,17,11,8,7,0.7,0.7
2024-07-20T1900,2482A,109.5981,27.5721,怀化市,林科所,,21,9,10,3,4,65,,65,65,6,3,6,7,0.7,0.7
2024-07-20T1900,2483A,109.9453,27.5444,怀化市,河西地税局,,18,18,11,10,6,53,,55,55,4,3,4,5,0.4,0.4
2024-07-20T1900,2484A,109.9781,27.5342,怀化市,市四医院,,26,26,17,9,8,52,,55,55,10,6,3,3,0.6,0.6
2024-07-20T1900,2485A,109.9972,27.5578,怀化市,监测楼,,23,23,14,14,8,52,,55,55,7,5,6,5,0.6,0.6
2024-07-20T1900,2486A,110.0394,27.583,怀化市,市委党校,,18,15,12,3,6,55,,52,52,8,4,7,7,0.4,0.4
2024-07-20T1900,1210A,119.036,33.5981,淮安市,钵池山,,33,22,19,10,13,104,,135,128,18,14,6,6,0.7,0.7
2024-07-20T1900,1211A,119.007,33.575,淮安市,北京南路,,30,19,20,9,12,96,,132,125,13,13,6,7,0.5,0.5
2024-07-20T1900,1212A,118.989,33.6067,淮安市,市监测站,,32,22,25,14,15,102,,128,122,17,16,6,7,0.7,0.9
2024-07-20T1900,1213A,119.135,33.5039,淮安市,楚州区监测站,,27,17,30,6,12,86,,126,121,15,20,4,5,0.5,0.6
2024-07-20T1900,1214A,119.0186,33.6297,淮安市,淮阴区监测站,,33,19,24,10,14,105,,129,122,18,17,6,7,0.3,0.5
2024-07-20T1900,3426A,118.8755,33.2894,淮安市,新华书店,,28,18,20,16,14,89,,126,123,16,15,5,6,0.6,0.6
2024-07-20T1900,2282A,116.8004,33.975,淮北市,监测站,,23,22,22,9,10,71,,98,91,8,7,3,4,0.5,0.4
2024-07-20T1900,2283A,116.8091,33.9007,淮北市,烈山区政府,,29,,22,20,13,79,,108,102,7,7,6,6,0.5,0.5
2024-07-20T1900,3330A,116.8873,33.9836,淮北市,杜集区检察院,,30,30,26,13,12,86,,104,97,5,6,6,6,0.5,0.5
2024-07-20T1900,4017A,116.7923,33.9535,淮北市,市博物馆,,26,13,24,10,10,81,,107,102,2,3,3,3,0.6,0.6
2024-07-20T1900,2277A,116.8305,32.7727,淮南市,潘集区政府,,25,25,25,8,12,65,,65,65,7,7,2,3,0.5,0.2
2024-07-20T1900,2278A,117.0067,32.6524,淮南市,师范学院,,25,25,23,3,10,75,,78,78,5,3,7,7,0,0
2024-07-20T1900,2279A,116.8569,32.5951,淮南市,谢家集区政府,,18,18,17,8,4,57,,64,64,9,9,5,5,0.2,0.3
2024-07-20T1900,2280A,116.8281,32.633,淮南市,八公山区政府,,21,21,26,10,13,62,,65,65,6,7,6,6,0.2,0.2
2024-07-20T1900,2281A,116.6325,32.6201,淮南市,焦岗湖风景区管理处,,11,11,7,3,5,30,,30,30,2,2,4,4,0.1,0.1
2024-07-20T1900,2894A,117.0566,32.6531,淮南市,经济技术开发区消防队,,25,15,16,3,5,78,,78,78,7,6,4,4,0.3,0.3
2024-07-20T1900,3329A,117.0108,32.5893,淮南市,山南新区,,24,16,25,6,5,76,,75,75,6,7,5,5,0.3,0.3
2024-07-20T1900,2446A,114.9028,30.4742,黄冈市,职工中心,,27,27,36,11,16,80,,73,73,16,25,11,11,0.4,0.4
2024-07-20T1900,2929A,114.8858,30.4519,黄冈市,红卫路,,25,25,37,14,17,79,,78,78,13,24,10,11,0.3,0.4
2024-07-20T1900,3398A,114.9136,30.4445,黄冈市,市林业局,,28,28,36,11,17,78,,72,72,18,27,11,13,0.4,0.4
2024-07-20T1900,2672A,102.0199,35.5102,黄南藏族自治州,同仁县隆务镇,,30,22,33,12,12,95,,125,124,1,2,14,14,0.3,0.3
2024-07-20T1900,2295A,118.2903,29.6963,黄山市,延安路89号,,42,42,24,7,5,51,,56,55,4,6,8,8,0.4,0.4
2024-07-20T1900,2296A,118.327,29.7178,黄山市,黄山东路89号,,26,26,17,10,6,48,,56,53,8,7,6,6,0.4,0.3
2024-07-20T1900,2297A,118.1371,30.2756,黄山市,黄山区政府5号楼,,28,23,20,19,10,21,,48,38,7,7,6,6,0.5,0.4
2024-07-20T1900,2423A,115.0601,30.2313,黄石市,沈家营,,39,39,35,7,7,85,,59,59,12,19,8,14,0.5,0.4
2024-07-20T1900,2424A,115.0817,30.2006,黄石市,陈家湾,,46,46,28,8,7,92,,80,80,10,4,12,8,0.6,0.4
2024-07-20T1900,2426A,114.8988,30.2019,黄石市,铁山,,26,26,27,9,9,78,,75,75,12,13,12,13,0.4,0.3
2024-07-20T1900,2427A,115.0307,30.2092,黄石市,团城山,,29,20,22,6,6,91,,76,76,10,7,8,8,0.5,0.4
2024-07-20T1900,3149A,115.0235,30.1578,黄石市,笔架山北路,,28,23,37,3,6,88,,69,69,9,8,7,12,0.4,0.4
2024-07-20T1900,1392A,114.4183,23.0528,惠州市,河南岸金山湖子站,,,37,19,21,9,35,,43,41,4,7,4,4,,0.3
2024-07-20T1900,1393A,114.4053,23.0822,惠州市,下埔横江三路子站,,23,23,21,9,9,43,,48,47,6,8,7,7,0.4,0.5
2024-07-20T1900,1394A,114.4103,23.1142,惠州市,江北云山西路子站,,24,24,19,3,7,35,,48,46,4,6,4,4,0.4,0.5
2024-07-20T1900,1395A,114.4645,22.7833,惠州市,惠阳区承修路船湖子站,,20,20,17,9,7,29,,36,36,9,10,1,1,0.4,0.5
2024-07-20T1900,1396A,114.5317,22.7422,惠州市,大亚湾管委会子站,,18,18,18,7,6,33,,38,38,7,11,5,7,0.4,0.6
2024-07-20T1900,3314A,114.4338,22.8134,惠州市,惠阳秋长,,15,14,16,10,9,32,,41,41,4,6,4,5,0.5,0.6
2024-07-20T1900,3452A,114.6517,22.775,惠州市,大亚湾霞涌,,26,26,16,3,4,30,,35,35,4,6,3,4,0.5,0.4
2024-07-20T1900,2240A,130.9762,45.3001,鸡西市,环保局,,44,44,38,23,20,89,,89,89,10,14,7,7,0.4,0.4
2024-07-20T1900,2243A,130.9429,45.3039,鸡西市,第一中学,,47,47,34,20,19,101,,105,105,8,8,6,4,0.3,0.4
2024-07-20T1900,3707A,131.0207,45.3073,鸡西市,欧美日汽修厂,,40,40,45,28,20,81,,86,86,10,11,5,4,0.6,0.6
2024-07-20T1900,3709A,130.9967,45.3106,鸡西市,市政设施管理处,,46,46,42,26,20,88,,93,93,18,19,7,6,0.6,0.5
2024-07-20T1900,2367A,114.9754,27.0803,吉安市,红声器材厂,,20,20,22,6,5,54,,58,58,7,7,11,12,0.5,0.5
2024-07-20T1900,2368A,114.9658,27.0999,吉安市,市森林工业局,,19,19,18,8,8,56,,60,60,7,6,10,12,0.3,0.3
2024-07-20T1900,2369A,114.99,27.1312,吉安市,市环境监测站,,20,16,18,9,7,64,,65,65,5,5,12,15,0.3,0.6
2024-07-20T1900,2370A,115.0093,27.0968,吉安市,青原区法院,,20,20,19,11,6,60,,59,59,7,8,11,14,0.4,0.4
2024-07-20T1900,1772A,126.54,43.8622,吉林市,哈达湾,,27,19,30,12,21,86,,118,108,14,7,4,4,0.6,0.6
2024-07-20T1900,1773A,126.5844,43.8358,吉林市,东局子,,24,20,29,15,20,74,,116,99,11,9,4,4,0.6,0.6
2024-07-20T1900,1774A,126.5052,43.8245,吉林市,电力学院,,27,24,30,14,21,86,,106,99,13,11,8,8,0.5,0.5
2024-07-20T1900,1775A,126.6133,43.8972,吉林市,江北,,24,,28,13,18,76,,104,94,8,9,7,8,0.7,0.7
2024-07-20T1900,1776A,126.555,43.8306,吉林市,江南公园,,23,20,25,16,21,69,,118,102,22,10,3,3,0.7,0.7
2024-07-20T1900,2868A,126.4739,43.953,吉林市,九站,,30,14,28,7,20,95,,120,105,14,12,4,4,0.6,0.7
2024-07-20T1900,1299A,116.9862,36.6114,济南市,科干所,,41,14,13,10,7,129,,138,138,10,11,7,7,0.5,0.4
2024-07-20T1900,1300A,116.9376,36.665,济南市,农科所,,38,17,15,7,4,119,,142,141,18,16,8,8,0.3,0.2
2024-07-20T1900,1301A,117.1265,36.6734,济南市,开发区,,43,15,13,3,4,137,,146,146,12,11,9,9,0.6,0.5
2024-07-20T1900,1303A,117.0624,36.6868,济南市,省种子仓库,,42,27,19,3,7,132,,148,148,11,10,5,6,0.4,0.3
2024-07-20T1900,1304A,116.9489,36.6447,济南市,机床二厂,,43,37,16,3,1,136,,152,152,10,10,9,8,0.2,0.2
2024-07-20T1900,1305A,117.0495,36.663,济南市,市监测站,,44,15,12,10,7,138,,150,150,10,11,8,8,0.5,0.4
2024-07-20T1900,1306A,116.7675,36.5484,济南市,长清党校,,41,7,11,3,6,129,,144,143,5,6,8,8,0.5,0.6
2024-07-20T1900,1616A,117.6795,36.229,济南市,技术学院,,40,7,5,7,4,127,,128,128,25,13,10,9,0.2,0.6
2024-07-20T1900,1961A,117.532,36.6868,济南市,东山小学,,40,17,15,7,4,126,,135,135,10,13,5,5,0.6,0.6
2024-07-20T1900,3059A,117.7161,36.2049,济南市,泰兴公司,,35,9,8,7,4,112,,115,115,8,9,8,8,0.3,0.4
2024-07-20T1900,3064A,117.6867,36.2171,济南市,莱芜战役纪念馆,,32,14,11,7,2,102,,105,105,6,7,8,8,0.4,0.6
2024-07-20T1900,3494A,117.1673,36.9782,济南市,济阳区政府,,48,32,24,12,5,151,,166,166,11,8,6,6,0.5,0.2
2024-07-20T1900,3495A,117.1171,36.63,济南市,锦屏中学,,43,22,12,7,6,137,,141,141,11,11,9,9,0.5,0.4
2024-07-20T1900,3682A,116.9814,36.6819,济南市,济南四建,,40,14,13,10,6,127,,144,144,9,10,8,7,0.5,0.5
2024-07-20T1900,1653A,116.6251,35.4302,济宁市,火炬城,,,42,11,17,6,104,,108,108,,7,7,7,0.7,0.6
2024-07-20T1900,1655A,116.5491,35.4042,济宁市,电化厂,,31,20,11,17,7,98,,100,100,6,6,6,5,0.4,0.4
2024-07-20T1900,3500A,116.5814,35.3707,济宁市,北湖一中,,34,24,10,17,2,106,,108,108,8,8,6,5,0.7,0.7
2024-07-20T1900,3501A,116.8249,35.5593,济宁市,服务中心,,38,6,11,6,1,121,,131,131,7,5,1,1,0.3,0.2
2024-07-20T1900,3678A,116.5907,35.4054,济宁市,市第七中学,,36,22,11,12,3,113,,113,113,12,10,4,4,0.5,0.4
2024-07-20T1900,2255A,130.2751,46.8028,佳木斯市,佳纺,,37,34,23,22,15,117,,116,116,7,6,8,7,0.6,0.6
2024-07-20T1900,2256A,130.3995,46.8307,佳木斯市,发电厂,,40,40,26,25,17,115,,112,112,9,8,6,6,0.9,0.9
2024-07-20T1900,2257A,130.3258,46.7975,佳木斯市,环保局,,39,39,28,20,18,108,,106,106,9,7,7,7,0.7,0.7
2024-07-20T1900,2258A,130.3648,46.8032,佳木斯市,十一中,,42,42,26,25,19,106,,108,108,15,11,8,8,0.6,0.5
2024-07-20T1900,2259A,130.3794,46.7588,佳木斯市,四丰,,32,28,22,19,13,102,,94,94,7,6,1,1,0.9,0.9
2024-07-20T1900,1252A,120.7436,30.778,嘉兴市,清河小学,,48,38,33,19,14,152,,172,172,27,19,9,7,0.7,0.6
2024-07-20T1900,1253A,120.726,30.7478,嘉兴市,嘉兴学院,,44,36,28,18,16,139,,156,156,18,16,1,2,0.5,0.5
2024-07-20T1900,2872A,120.7846,30.7525,嘉兴市,南湖区残联,,50,35,30,22,19,160,,192,192,19,15,4,5,0.6,0.5
2024-07-20T1900,3407A,120.6916,30.7739,嘉兴市,秀洲住建,臭氧1小时,68,32,24,23,16,174,,181,181,20,20,4,4,0.7,0.6
2024-07-20T1900,1945A,98.2908,39.7711,嘉峪关市,气象局,颗粒物(PM10),76,102,947,36,217,130,,122,122,5,8,6,8,0.3,0.4
2024-07-20T1900,2884A,98.2672,39.7978,嘉峪关市,酒钢宾馆,颗粒物(PM10),75,100,1032,34,239,139,,129,129,4,6,5,16,0.3,0.4
2024-07-20T1900,3248A,98.2643,39.7724,嘉峪关市,雄关区,颗粒物(PM10),69,88,698,36,182,133,,124,124,3,8,7,7,0.3,0.4
2024-07-20T1900,1383A,113.1064,22.6058,江门市,北街,,19,19,19,9,8,43,,68,66,10,17,4,3,0.3,0.3
2024-07-20T1900,1384A,113.0731,22.5835,江门市,西区,,19,16,18,13,9,43,,69,68,10,15,5,6,0.4,0.3
2024-07-20T1900,1385A,113.0219,22.5311,江门市,圭峰西,,30,30,18,9,8,48,,64,64,9,14,3,4,0.4,0.4
2024-07-20T1900,1386A,113.0828,22.5947,江门市,东湖,,22,22,18,11,9,43,,64,64,8,16,4,6,0.4,0.3
2024-07-20T1900,3311A,113.1075,22.5647,江门市,江海富民,,28,28,27,15,14,42,,66,65,9,16,6,6,0.4,0.4
2024-07-20T1900,3449A,113.05,22.4667,江门市,新会银湖,,28,24,26,19,9,40,,51,51,8,14,4,3,0.3,0.5
2024-07-20T1900,1828A,113.227,35.2125,焦作市,市环保局,,35,21,18,16,12,110,,112,112,1,7,3,3,0.2,0.2
2024-07-20T1900,3169A,113.2725,35.2067,焦作市,太极体育中心,,41,41,29,19,12,112,,111,111,1,6,3,3,0.4,0.4
2024-07-20T1900,3335A,113.3137,35.2641,焦作市,马村街道办,,34,31,19,20,12,107,,120,120,6,10,2,3,0.4,0.4
2024-07-20T1900,3336A,113.2465,35.2373,焦作市,焦作技师学院,,36,26,22,17,14,115,,117,117,4,12,3,2,0.3,0.4
2024-07-20T1900,3477A,113.1656,35.2539,焦作市,中站许衡医院,,34,23,19,19,14,106,,118,118,2,7,4,4,0.4,0.5
2024-07-20T1900,3981A,113.2449,35.1803,焦作市,原李万街道办,,36,23,23,19,10,113,,111,111,7,13,4,4,0.1,0.1
2024-07-20T1900,1708A,116.3701,23.5345,揭阳市,新兴,,34,34,36,8,10,36,,43,43,9,14,6,9,0.6,0.6
2024-07-20T1900,1709A,116.3264,23.5443,揭阳市,西马,,25,25,27,8,9,42,,47,47,2,8,3,3,0.8,0.9
2024-07-20T1900,1710A,116.3611,23.5626,揭阳市,东兴,,37,37,42,9,9,40,,46,46,4,11,1,6,0.9,0.9
2024-07-20T1900,1711A,116.4151,23.5294,揭阳市,渔湖,,43,43,36,6,10,38,,40,40,8,15,4,4,0.8,0.8
2024-07-20T1900,3320A,116.403,23.5699,揭阳市,曲溪,,22,22,27,8,11,37,,48,48,6,13,4,10,0.6,0.6
2024-07-20T1900,1944A,102.1692,38.5167,金昌市,天庆家园,细颗粒物(PM2.5),248,273,709,198,268,90,,107,105,14,16,16,11,0.8,0.5
2024-07-20T1900,3170A,102.1864,38.5253,金昌市,市委党校,颗粒物(PM10),285,409,740,218,243,96,,112,111,12,14,18,12,0.4,0.4
2024-07-20T1900,4022A,102.1647,38.5371,金昌市,金川区人防中心,细颗粒物(PM2.5),248,340,834,198,253,98,,111,110,11,18,10,12,0.6,0.6
2024-07-20T1900,1262A,119.647,29.077,金华市,十五中,,32,32,30,21,12,91,,146,140,13,13,2,3,0.2,0.3
2024-07-20T1900,1263A,119.686,29.1029,金华市,监测站,,27,26,29,14,14,86,,144,138,16,14,4,3,0.4,0.4
2024-07-20T1900,3659A,119.656,29.1131,金华市,气象局,,30,30,29,11,10,79,,141,133,17,15,5,4,0.2,0.3
2024-07-20T1900,1767A,121.1115,41.0879,锦州市,南山,,41,41,58,11,28,130,,134,127,15,11,8,6,0.5,0.6
2024-07-20T1900,1768A,121.0533,40.8434,锦州市,开发区,,42,24,52,3,26,132,,132,132,19,15,10,6,0.5,0.7
2024-07-20T1900,1769A,121.1836,41.1119,锦州市,百股街道,,37,11,44,3,19,116,,119,116,12,8,4,4,0.8,0.9
2024-07-20T1900,1770A,121.1178,41.1222,锦州市,天安街道,,37,33,68,15,27,117,,114,114,16,13,8,6,0.6,0.7
2024-07-20T1900,1771A,121.1303,41.1386,锦州市,北湖公园,,37,31,51,8,24,118,,114,114,14,11,6,5,0.7,0.8
2024-07-20T1900,2160A,112.85,35.5051,晋城市,自来水公司,,35,22,25,9,10,112,,121,121,9,17,5,5,0.5,0.9
2024-07-20T1900,2161A,112.8318,35.4936,晋城市,白云商贸,,34,33,34,9,7,107,,118,118,9,16,6,7,0.6,1
2024-07-20T1900,2162A,112.8508,35.4887,晋城市,市环保局,,35,33,24,9,11,109,,118,118,11,21,6,6,0.5,0.9
2024-07-20T1900,2163A,112.8676,35.4897,晋城市,技术学院,,35,29,25,12,11,111,,119,119,12,23,7,6,0.8,1.1
2024-07-20T1900,3620A,112.8271,35.4828,晋城市,泽州一中,,34,24,19,3,7,107,,118,118,11,17,9,8,0.6,1
2024-07-20T1900,2171A,112.7532,37.6945,晋中市,锦纶小区,臭氧1小时,87,27,43,3,11,189,,178,178,13,18,8,12,0.3,0.5
2024-07-20T1900,2173A,112.7249,37.7067,晋中市,南都小区,臭氧1小时,94,29,43,19,16,195,,182,182,14,17,8,13,0.2,0.4
2024-07-20T1900,2174A,112.6991,37.6982,晋中市,榆次区政府,臭氧1小时,87,29,40,23,19,189,,177,177,14,18,7,13,0.3,0.4
2024-07-20T1900,2865A,112.7195,37.6828,晋中市,榆次三中,臭氧1小时,92,29,42,7,8,193,,181,181,12,17,8,12,0.5,0.7
2024-07-20T1900,2439A,112.2014,31.0481,荆门市,竹园小学,,27,21,22,10,9,84,,72,72,7,8,10,10,0.4,0.4
2024-07-20T1900,2440A,112.1969,30.9891,荆门市,掇刀,,29,25,23,12,12,91,,72,72,11,12,8,9,0.5,0.5
2024-07-20T1900,2441A,112.2213,31.0386,荆门市,石化一小,,30,16,21,16,9,93,,77,77,6,10,20,19,0.5,0.4
2024-07-20T1900,3012A,112.1849,31.0362,荆门市,西山林语,,27,18,18,8,9,86,,72,72,4,6,8,8,0.6,0.5
2024-07-20T1900,3547A,112.1632,31.0138,荆门市,龙泉中学南校,,27,14,19,3,9,85,,71,71,4,9,9,9,0.4,0.4
2024-07-20T1900,1844A,112.2494,30.3197,荆州市,市图书馆,,31,29,16,12,10,98,,85,85,8,10,6,7,0.5,0.5
2024-07-20T1900,1845A,112.2008,30.3544,荆州市,市委党校,,33,,15,23,10,100,,86,86,14,11,4,5,0.5,0.4
2024-07-20T1900,3194A,112.2747,30.3122,荆州市,管委会,,35,35,15,16,12,106,,90,90,7,8,5,6,0.5,0.4
2024-07-20T1900,3548A,112.1655,30.3364,荆州市,学苑路,,31,23,26,14,14,97,,85,85,9,10,7,7,0.5,0.5
2024-07-20T1900,2343A,117.2117,29.2933,景德镇市,老干部活动中心,,30,30,19,18,11,46,,53,53,9,11,12,15,0.3,0.3
2024-07-20T1900,2344A,117.1894,29.2789,景德镇市,兽医站,,25,25,23,11,10,46,,52,52,11,5,9,15,0.4,0.4
2024-07-20T1900,2345A,117.1547,29.2617,景德镇市,台达陶瓷,,31,31,29,18,15,39,,43,43,12,21,24,38,0.2,0.2
2024-07-20T1900,2346A,117.2461,29.2956,景德镇市,陶研所,,39,39,25,10,7,46,,53,52,9,6,8,8,0.2,0.2
2024-07-20T1900,1803A,115.9872,29.6815,九江市,十里,,22,22,13,14,6,56,,64,64,20,11,9,10,0.6,0.5
2024-07-20T1900,1804A,115.9584,29.7046,九江市,茅山头,,26,25,15,10,6,82,,76,76,11,7,11,10,0.4,0.3
2024-07-20T1900,1805A,115.9877,29.7295,九江市,西园,,28,21,11,9,7,25,,60,56,55,18,12,11,0.7,0.6
2024-07-20T1900,1806A,116.0172,29.6547,九江市,五七二七厂,,15,15,10,8,5,37,,46,46,10,9,9,10,0.8,0.7
2024-07-20T1900,1808A,115.9114,29.6038,九江市,综合工业园,,27,16,14,8,6,84,,71,71,15,11,14,12,0.4,0.4
2024-07-20T1900,1809A,116.0721,29.7535,九江市,石化总厂,,37,37,21,16,10,63,,65,65,20,14,11,12,0.6,0.6
2024-07-20T1900,1810A,115.9773,29.5698,九江市,庐山气象台,,19,,7,7,5,58,,50,48,1,1,28,7,1.2,0.8
2024-07-20T1900,3190A,116.0254,29.6994,九江市,外国语学校,,20,20,11,13,7,61,,69,69,21,13,10,12,0.6,0.5
2024-07-20T1900,2658A,98.5061,39.7443,酒泉市,仓门街子站,颗粒物(PM10),100,149,1298,50,241,126,,123,123,4,6,5,7,0.3,0.4
2024-07-20T1900,2659A,98.4989,39.7256,酒泉市,油田生活基地,颗粒物(PM10),104,158,1916,58,298,132,,127,127,7,9,6,8,0.2,0.3
2024-07-20T1900,2698A,76.0072,39.4467,喀什地区,巡警大队,,44,19,68,3,8,140,,128,128,7,16,3,4,0.2,0.3
2024-07-20T1900,2699A,75.9755,39.4694,喀什地区,吾办,,45,24,52,8,14,141,,130,130,8,16,4,4,0.2,0.3
2024-07-20T1900,4027A,75.9483,39.4689,喀什地区,老干局,,,25,61,3,6,,,86,,5,16,4,3,0.2,0.3
2024-07-20T1900,1824A,114.3389,34.7781,开封市,肿瘤医院,,31,19,16,7,6,98,,99,98,1,4,3,2,0.6,0.6
2024-07-20T1900,1826A,114.2885,34.7965,开封市,世纪星幼儿园,,,,16,18,10,100,,101,101,4,4,2,3,0.4,0.4
2024-07-20T1900,3147A,114.3438,34.8106,开封市,龙亭公园,,30,25,20,10,13,93,,98,96,4,6,1,1,0.3,0.3
2024-07-20T1900,3210A,114.3644,34.7964,开封市,汴京公园,,31,31,18,16,13,98,,102,101,2,4,3,1,0.5,0.4
2024-07-20T1900,3473A,114.2485,34.8306,开封市,技师学院,,37,37,19,13,10,96,,107,107,3,5,4,4,0.7,0.7
2024-07-20T1900,3592A,114.4644,34.7556,开封市,祥符区生态环境局,,36,,18,25,17,91,,95,94,12,9,2,2,0.2,0.2
2024-07-20T1900,1951A,84.895,45.6094,克拉玛依市,长征新村,,32,32,15,3,4,100,,110,110,5,10,8,9,0.2,0.2
2024-07-20T1900,1952A,84.8988,45.5893,克拉玛依市,南林小区,,32,14,17,7,11,101,,115,115,10,17,8,8,0.1,0.2
2024-07-20T1900,1954A,84.905,44.3396,克拉玛依市,独山子区,,41,19,26,8,13,131,,132,132,4,10,7,10,0.4,0.4
2024-07-20T1900,1955A,85.6979,46.098,克拉玛依市,乌尔禾区商贸楼,,38,7,15,3,8,120,,122,122,5,12,5,4,0.3,0.4
2024-07-20T1900,3612A,85.1045,45.6899,克拉玛依市,白碱滩区新站,,39,17,19,9,9,124,,127,127,3,8,7,7,0.2,0.3
2024-07-20T1900,2697A,76.1454,39.7142,克孜勒苏柯尔克孜自治州,市人民政府,,46,46,36,16,15,145,,141,141,3,4,9,11,0.5,0.4
2024-07-20T1900,3665A,76.1658,39.7157,克孜勒苏柯尔克孜自治州,克州文化中心,,47,20,24,8,10,150,,145,145,3,3,11,14,0.2,0.2
2024-07-20T1900,1450A,102.8204,24.8886,昆明市,呈贡新区,,19,18,21,7,10,60,,59,59,7,9,5,5,0.4,0.4
2024-07-20T1900,1452A,102.7252,25.0902,昆明市,龙泉镇,,17,12,18,8,8,54,,53,53,13,12,6,8,0.6,0.5
2024-07-20T1900,1453A,102.7266,25.0375,昆明市,东风东路,,18,16,18,10,9,55,,52,52,11,10,1,2,0.4,0.4
2024-07-20T1900,1454A,102.6742,25.0669,昆明市,金鼎山,,19,8,19,7,8,59,,55,55,11,8,11,13,0.3,0.3
2024-07-20T1900,1455A,102.6644,25.0401,昆明市,碧鸡广场,,19,18,21,6,10,58,,54,54,11,9,3,5,0.4,0.3
2024-07-20T1900,3179A,102.7494,25.0119,昆明市,官渡区博物馆,,19,14,17,3,9,59,,60,60,7,6,5,6,0.4,0.4
2024-07-20T1900,3375A,102.8017,24.8336,昆明市,青年创业园,,18,13,18,10,10,56,,55,55,8,7,7,9,0.4,0.4
2024-07-20T1900,3550A,102.7997,24.9786,昆明市,昆明学院,,18,12,18,3,11,56,,60,60,8,7,4,5,0.3,0.3
2024-07-20T1900,3551A,102.5967,24.6736,昆明市,晋宁区生态环境分局,,16,15,13,3,9,49,,52,52,3,5,4,6,0.4,0.5
2024-07-20T1900,3552A,102.6678,24.9856,昆明市,云天化总部,,18,12,16,7,10,57,,56,56,6,6,6,8,0.5,0.4
2024-07-20T1900,1456A,91.1319,29.6514,拉萨市,八廓街,,25,6,12,3,8,79,,67,67,7,15,7,6,0.2,0.2
2024-07-20T1900,1457A,91.1221,29.6747,拉萨市,市环保局,,24,11,16,3,8,76,,62,62,12,20,10,9,0.2,0.2
2024-07-20T1900,1458A,91.0874,29.6475,拉萨市,区监测站,,28,6,11,3,7,89,,64,64,12,18,7,8,0.4,0.2
2024-07-20T1900,1459A,91.1774,29.6541,拉萨市,西藏大学,,21,6,10,3,6,65,,67,67,3,9,9,10,0.2,0.3
2024-07-20T1900,1460A,90.9798,29.6588,拉萨市,区辐射站,,26,9,9,6,6,83,,60,60,14,14,8,8,0.2,0.2
2024-07-20T1900,1461A,91.0834,29.6292,拉萨市,拉萨火车站,,29,7,8,3,7,90,,68,68,9,13,9,9,0.3,0.2
2024-07-20T1900,2520A,109.2203,23.7256,来宾市,来宾技工学校,,25,24,24,15,12,77,,64,64,8,14,6,6,0.6,0.6
2024-07-20T1900,3535A,109.1781,23.7297,来宾市,兴宾区政府,,24,14,18,11,13,76,,67,67,8,10,6,5,0.6,0.6
2024-07-20T1900,4002A,109.2416,23.7461,来宾市,中南小学,,25,18,25,17,10,65,,56,56,5,11,4,4,0.6,0.7
2024-07-20T1900,1476A,103.631,36.1031,兰州市,兰炼宾馆,,43,32,30,22,18,137,,151,151,7,14,8,8,0.2,0.3
2024-07-20T1900,1478A,103.8412,36.0726,兰州市,生物制品所,,,16,27,,19,110,,131,131,22,17,4,6,0.4,0.4
2024-07-20T1900,1479A,103.831,36.0464,兰州市,铁路设计院,,,27,29,7,12,119,,140,140,22,25,6,7,,0.5
2024-07-20T1900,3186A,103.7158,36.1058,兰州市,教育港,,40,40,33,17,14,128,,150,150,11,14,4,4,0.3,0.3
2024-07-20T1900,3241A,103.7439,36.0842,兰州市,百合公园,,40,18,25,3,13,125,,142,142,13,17,6,6,0.2,0.6
2024-07-20T1900,3242A,103.9611,35.998,兰州市,和平,,36,27,29,9,11,114,,129,129,17,13,5,6,0.3,0.4
2024-07-20T1900,3245A,103.6633,36.533,兰州新区,新区管委会,颗粒物(PM10),500,937,62,327,39,121,,143,143,4,7,12,21,0.3,0.5
2024-07-20T1900,3246A,103.6975,36.4789,兰州新区,舟曲中学,颗粒物(PM10),500,797,64,238,24,116,,140,140,7,10,5,18,0.3,0.5
2024-07-20T1900,1067A,116.6708,39.5111,廊坊市,药材公司,臭氧1小时,55,50,38,15,13,164,,179,179,2,9,4,3,0.3,0.3
2024-07-20T1900,1068A,116.7214,39.5589,廊坊市,开发区,臭氧1小时,67,44,37,25,16,173,,184,184,7,14,3,2,0.3,0.3
2024-07-20T1900,1070A,116.7244,39.5269,廊坊市,北华航天学院,臭氧1小时,60,50,45,22,13,168,,179,179,12,17,3,2,0.4,0.3
2024-07-20T1900,2919A,116.7022,39.5453,廊坊市,河北工业大学,臭氧1小时,55,52,47,15,12,164,,179,179,8,14,3,3,0.4,0.3
2024-07-20T1900,2535A,103.7723,29.5462,乐山市,花湖湾,,43,35,23,30,20,73,,54,53,9,9,2,3,0.6,0.4
2024-07-20T1900,2536A,103.7627,29.5844,乐山市,牛耳桥,颗粒物(PM10),51,52,28,32,22,93,,68,68,13,14,1,2,0.7,0.5
2024-07-20T1900,2537A,103.7508,29.6006,乐山市,市第三水厂,,30,28,22,18,16,93,,78,78,14,15,1,1,0.6,0.5
2024-07-20T1900,2538A,103.7571,29.5664,乐山市,市监测站,,33,29,23,23,18,103,,77,77,12,11,3,2,0.7,0.6
2024-07-20T1900,3361A,103.7311,29.5628,乐山市,理工大学,,31,24,21,19,18,97,,81,81,11,9,1,1,0.7,0.5
2024-07-20T1900,2599A,100.2497,26.8802,丽江市,丽江古城,,23,21,20,16,14,39,,46,46,19,12,6,6,0.6,0.6
2024-07-20T1900,2600A,100.2203,26.8906,丽江市,市中心,,,15,16,14,11,25,,45,42,18,7,7,8,,0.6
2024-07-20T1900,1267A,119.914,28.4514,丽水市,监测站大楼,,36,,23,25,10,102,,110,106,7,14,3,4,0.4,0.4
2024-07-20T1900,1268A,119.93,28.4586,丽水市,莲都小学,,34,34,25,10,11,106,,107,106,6,12,4,4,0.4,0.4
2024-07-20T1900,1269A,119.879,28.4231,丽水市,余庄前,,22,22,22,12,11,59,,106,96,9,12,3,3,0.4,0.4
2024-07-20T1900,1173A,119.176,34.5885,连云港市,市环境监测站,,17,7,6,3,2,53,,124,89,22,12,5,5,0.6,0.3
2024-07-20T1900,3000A,119.3581,34.6972,连云港市,德源药业,,16,6,5,3,1,51,,114,88,28,16,2,2,0.4,0.3
2024-07-20T1900,3007A,119.178,34.844,连云港市,新城一中,,21,10,11,6,4,67,,123,104,13,10,4,3,0.6,0.5
2024-07-20T1900,3008A,119.3608,34.7519,连云港市,胡沟管理处,,16,7,6,3,3,50,,101,81,23,14,3,4,0.6,0.6
2024-07-20T1900,3009A,119.1478,34.5911,连云港市,矿山设计院,,16,7,5,3,3,51,,110,85,14,9,3,3,0.5,0.4
2024-07-20T1900,3434A,119.2413,34.6539,连云港市,工贸学校,,22,8,9,3,4,68,,118,94,11,6,6,6,0.5,0.4
2024-07-20T1900,3664A,119.4172,34.7341,连云港市,连云街道,,29,10,9,6,5,90,,131,109,10,4,4,4,0.4,0.3
2024-07-20T1900,2571A,102.3431,27.8099,凉山彝族自治州,青龙寺,,20,20,20,9,11,32,,43,43,5,7,3,5,0.6,0.5
2024-07-20T1900,2572A,102.2721,27.8415,凉山彝族自治州,邛海宾馆,,25,24,21,17,13,37,,58,57,13,10,8,15,0.9,0.7
2024-07-20T1900,2573A,102.2625,27.898,凉山彝族自治州,西昌市政府,,23,23,18,15,11,31,,48,43,20,11,6,11,0.8,0.8
2024-07-20T1900,2574A,102.2685,27.8851,凉山彝族自治州,凉山州政府,,25,23,22,17,13,58,,56,56,11,11,6,11,0.9,0.8
2024-07-20T1900,2575A,102.237,27.8914,凉山彝族自治州,长安,,30,30,23,20,13,48,,50,48,17,12,7,12,1.1,0.9
2024-07-20T1900,2212A,123.2,41.1953,辽阳市,宏伟区,,,,19,1,6,101,,114,81,4,6,7,7,0.4,0.6
2024-07-20T1900,2213A,123.1683,41.2495,辽阳市,新华园,,,,18,5,11,97,,116,87,5,7,3,3,0.5,0.6
2024-07-20T1900,2214A,123.2354,41.2639,辽阳市,滨河路,,28,,17,3,11,87,,122,79,10,10,8,8,0.2,0.3
2024-07-20T1900,2215A,123.149,41.2991,辽阳市,铁西工业园,,,,25,6,11,77,,107,74,7,7,8,8,0.7,0.8
2024-07-20T1900,2227A,125.1358,42.8845,辽源市,环保局,,29,14,19,7,11,91,,115,103,8,7,7,7,0.5,0.5
2024-07-20T1900,3239A,125.0764,42.9078,辽源市,银鹰制药,,27,10,16,9,11,86,,116,104,20,12,4,4,0.7,0.7
2024-07-20T1900,1625A,115.9848,36.4372,聊城市,区政府,,44,17,8,3,2,140,,135,135,11,8,9,9,0.5,0.5
2024-07-20T1900,2878A,116.0072,36.4343,聊城市,聊大东校,,46,16,6,11,7,146,,142,142,14,8,8,6,0.6,0.5
2024-07-20T1900,3200A,115.9819,36.4978,聊城市,监控中心,,46,17,7,7,2,145,,140,140,8,8,2,3,0.4,0.4
2024-07-20T1900,3513A,116.0445,36.4361,聊城市,九州社区,,38,19,10,3,1,120,,121,121,4,6,1,5,0.4,0.4
2024-07-20T1900,4018A,116.0567,36.4608,聊城市,星美广场,,38,25,13,9,2,120,,121,121,12,11,6,7,0.3,0.2
2024-07-20T1900,2632A,94.3681,29.6376,林芝市,林芝监测站,,11,7,4,7,4,35,,34,34,7,2,8,8,0.4,0.3
2024-07-20T1900,2633A,94.3616,29.6616,林芝市,林芝人民医院,,13,13,7,7,4,32,,33,33,11,5,9,9,0.5,0.4
2024-07-20T1900,2603A,100.0781,23.8982,临沧市,市环保局,,26,,15,18,16,39,,43,42,10,9,4,4,0.3,0.3
2024-07-20T1900,2604A,100.0894,23.8822,临沧市,市气象局,,13,12,14,9,10,38,,43,43,11,9,4,4,0.4,0.3
2024-07-20T1900,1733A,111.5531,36.0783,临汾市,临钢医院,,36,24,27,8,7,113,,144,144,6,12,5,5,0.6,0.5
2024-07-20T1900,1734A,111.5028,36.0714,临汾市,技工学校,,38,25,27,9,8,119,,150,150,9,18,6,6,0.7,0.6
2024-07-20T1900,1736A,111.5018,36.0855,临汾市,市委,,39,21,23,9,7,124,,158,157,8,16,7,6,0.8,0.7
2024-07-20T1900,3018A,111.505,36.1014,临汾市,唐尧大酒店,,38,22,25,3,5,119,,150,149,5,15,5,4,0.7,0.6
2024-07-20T1900,3668A,111.5036,36.0414,临汾市,城南,,35,24,27,3,6,111,,150,150,8,18,6,5,0.9,0.8
2024-07-20T1900,2667A,103.2069,35.5993,临夏回族自治州,环保局,,41,31,44,17,19,129,,134,134,4,9,8,8,0.3,0.3
2024-07-20T1900,2668A,103.2417,35.6057,临夏回族自治州,建设大厦,,41,26,38,14,18,129,,130,130,4,9,12,12,0.3,0.4
2024-07-20T1900,1618A,118.3429,35.0532,临沂市,沂河小区,,26,22,8,12,7,81,,119,116,23,9,14,9,0.4,0.2
2024-07-20T1900,1619A,118.295,35.0583,临沂市,鲁南制药厂,,,,2,13,7,88,,121,118,9,7,,8,0.6,0.5
2024-07-20T1900,1620A,118.2794,34.9976,临沂市,新光毛纺厂,,24,19,3,9,8,74,,119,114,21,10,9,6,0.7,0.6
2024-07-20T1900,1621A,118.3956,35.0888,临沂市,河东保险公司,,27,12,7,6,2,86,,123,120,19,8,9,6,0.5,0.4
2024-07-20T1900,3370A,118.3564,35.0215,临沂市,十里堡居委,,25,12,2,3,4,80,,118,114,14,11,7,5,0.6,0.5
2024-07-20T1900,3496A,118.3604,35.1084,临沂市,南坊新区,,30,17,5,3,2,94,,128,126,26,15,11,7,0.8,0.6
2024-07-20T1900,3860A,118.3920,35.0300,临沂市,皇山花园小区,,25,14,6,13,6,77,,119,114,21,14,5,4,0.4,0.3
2024-07-20T1900,1870A,109.4856,24.3895,柳州市,柳东小学,,,24,22,16,11,84,,75,75,8,15,8,8,,0.6
2024-07-20T1900,1871A,109.4157,24.3277,柳州市,环保监测站,,27,16,28,3,13,85,,72,72,6,14,7,10,0.5,0.7
2024-07-20T1900,1872A,109.389,24.341,柳州市,河西水厂,,25,16,25,14,15,78,,64,64,6,13,7,11,0.4,0.6
2024-07-20T1900,1873A,109.4311,24.2921,柳州市,市四中,,35,35,23,13,11,92,,79,79,7,13,6,6,0.5,0.6
2024-07-20T1900,1874A,109.4006,24.3631,柳州市,市九中,,31,31,36,3,13,83,,70,70,10,16,4,7,0.5,0.6
2024-07-20T1900,1875A,109.4958,24.3134,柳州市,古亭山,,32,29,25,22,14,94,,82,82,9,15,7,8,0.6,0.7
2024-07-20T1900,3402A,109.5422,24.3996,柳州市,市二中,,30,22,23,14,10,93,,79,79,7,12,8,6,0.5,0.6
2024-07-20T1900,2307A,116.5079,31.737,六安市,监测大楼,,19,14,13,13,9,45,,63,56,6,8,5,6,0.3,0.3
2024-07-20T1900,2308A,116.4738,31.7643,六安市,皖西学院,,16,14,15,9,11,51,,63,63,8,7,5,6,0.6,0.3
2024-07-20T1900,2309A,116.4996,31.7905,六安市,朝阳厂,,13,10,11,8,9,41,,59,58,7,6,10,10,0.3,0.2
2024-07-20T1900,2310A,116.5567,31.7886,六安市,开发区,,18,18,29,10,16,39,,50,50,5,8,6,6,0.4,0.4
2024-07-20T1900,2577A,104.83,26.5917,六盘水市,黄土坡,,20,19,10,8,5,62,,55,55,8,6,4,4,0.4,0.3
2024-07-20T1900,2578A,104.89,26.5939,六盘水市,水钢,,22,22,18,3,5,67,,58,58,4,4,4,14,0.3,0.2
2024-07-20T1900,2579A,104.8475,26.5894,六盘水市,民中,,20,14,12,7,4,63,,56,56,8,7,6,6,0.4,0.3
2024-07-20T1900,2580A,104.9544,26.5506,六盘水市,双水,,23,12,11,7,5,72,,61,61,5,5,6,6,0.2,0.2
2024-07-20T1900,2336A,117.0217,25.1033,龙岩市,龙岩市监测站,,13,,17,7,8,40,,56,53,12,14,4,8,0.4,0.4
2024-07-20T1900,2337A,117.0258,25.0661,龙岩市,闽西职业技术学院,,15,12,23,8,9,48,,53,51,8,13,4,14,0.2,0.3
2024-07-20T1900,2338A,117.0196,25.0306,龙岩市,龙岩学院,,16,14,14,11,6,43,,51,48,6,6,12,5,0.4,0.4
2024-07-20T1900,2885A,104.9339,33.3826,陇南市,滨江中学,,23,23,26,9,8,60,,64,64,5,7,4,5,0.4,0.5
2024-07-20T1900,3247A,104.955,33.371,陇南市,市总工会,,23,23,21,3,4,64,,67,67,3,6,4,4,0.4,0.4
2024-07-20T1900,2487A,111.9589,27.8901,娄底市,电视发射台,,28,28,23,10,9,49,,67,65,6,6,8,7,0.7,0.5
2024-07-20T1900,2488A,111.9975,27.725,娄底市,市监测站,,22,,18,15,12,69,,72,72,6,5,7,8,0.5,0.5
2024-07-20T1900,2489A,112.0194,27.7314,娄底市,市委党校,,22,22,21,15,12,62,,65,65,11,9,8,9,0.7,0.7
2024-07-20T1900,2490A,111.9561,27.7569,娄底市,涟钢,,37,37,32,9,15,58,,48,48,14,23,19,30,0.1,0.5
2024-07-20T1900,2491A,111.9892,27.7044,娄底市,市政府,,23,14,17,6,12,72,,72,72,6,6,6,6,0.4,0.4
2024-07-20T1900,1893A,105.4324,28.9634,泸州市,九狮山,细颗粒物(PM2.5),53,47,37,37,24,100,,72,72,14,16,5,5,0.5,0.5
2024-07-20T1900,1894A,105.4427,28.9063,泸州市,小市上码头,颗粒物(PM10),51,51,38,35,23,104,,81,81,12,14,5,5,0.4,0.4
2024-07-20T1900,1895A,105.4241,28.8573,泸州市,兰田宪桥,,50,44,35,35,30,95,,80,80,12,13,4,4,0.5,0.4
2024-07-20T1900,1896A,105.4379,28.8833,泸州市,市环监站,颗粒物(PM10),53,55,39,34,24,97,,81,81,13,12,5,6,0.5,0.4
2024-07-20T1900,3490A,105.3617,28.7703,泸州市,纳溪区环保局,,40,38,34,28,27,102,,86,86,13,16,1,2,0.6,0.6
2024-07-20T1900,2183A,111.1406,37.5211,吕梁市,环保局,臭氧1小时,89,34,39,14,10,191,,169,169,14,22,5,3,0.4,0.5
2024-07-20T1900,2185A,111.1297,37.5136,吕梁市,自来水公司,臭氧1小时,95,26,39,10,11,196,,171,171,10,21,6,4,0.4,0.4
2024-07-20T1900,2867A,111.1283,37.51,吕梁市,马茂庄小学,臭氧1小时,94,28,40,11,12,195,,177,177,24,32,2,2,0.3,0.4
2024-07-20T1900,1812A,112.3931,34.6516,洛阳市,市委党校,,36,30,28,25,23,104,,107,107,5,13,1,1,0.5,0.7
2024-07-20T1900,1814A,112.4657,34.6871,洛阳市,豫西宾馆,,36,36,30,21,19,114,,112,112,3,9,3,2,0.3,0.4
2024-07-20T1900,1815A,112.494,34.6886,洛阳市,河南林校,,33,,16,20,17,103,,103,103,5,12,2,2,0.4,0.5
2024-07-20T1900,1816A,112.3844,34.623,洛阳市,开发区管委会,,36,31,26,25,19,100,,107,107,3,10,2,3,0.4,0.4
2024-07-20T1900,1817A,112.4267,34.6258,洛阳市,市委新办公区,,45,,24,31,23,106,,113,113,3,9,6,6,0.5,0.6
2024-07-20T1900,3340A,112.6005,34.6326,洛阳市,伊滨,,46,46,28,28,20,104,,105,105,6,10,4,4,0.4,0.4
2024-07-20T1900,3341A,112.4951,34.6332,洛阳市,中移产业园,,36,33,25,25,20,97,,101,101,2,8,3,3,0.6,0.7
2024-07-20T1900,3593A,112.5736,34.8993,洛阳市,吉利监测站,,46,46,29,22,21,112,,113,113,2,7,3,2,0.7,0.8
2024-07-20T1900,3635A,112.3677,34.662,洛阳市,河科大西苑校区,,34,34,25,18,16,101,,109,109,1,12,4,4,0.6,0.7
2024-07-20T1900,3636A,112.4388,34.6781,洛阳市,英才小学,,33,32,32,23,26,95,,102,102,2,7,1,2,0.6,0.6
2024-07-20T1900,2399A,114.051,33.5699,漯河市,三五一五工厂,,24,,15,14,11,75,,92,92,8,11,6,6,0.4,0.5
2024-07-20T1900,2400A,114.0055,33.5698,漯河市,漯河大学,,25,14,18,9,11,80,,93,93,5,7,9,9,0.3,0.3
2024-07-20T1900,2401A,114.0138,33.5828,漯河市,市水利局,,23,12,16,7,8,73,,86,86,5,7,7,7,0.3,0.3
2024-07-20T1900,2402A,114.0261,33.5698,漯河市,市广电局,,24,,13,15,11,75,,94,94,2,6,4,4,0.5,0.5
2024-07-20T1900,3478A,113.9749,33.5664,漯河市,市图书馆,,33,33,20,15,12,77,,90,90,2,3,4,5,0.3,0.3
2024-07-20T1900,3479A,114.0967,33.5906,漯河市,召陵区卫健委,,31,31,19,11,13,80,,96,96,3,9,1,2,0.1,0.1
2024-07-20T1900,1798A,118.5092,31.6837,马鞍山市,湖东路四小,,40,40,29,24,16,55,,78,78,27,19,6,6,0.7,0.7
2024-07-20T1900,1799A,118.5024,31.6449,马鞍山市,开发区,,44,44,34,20,15,41,,72,72,45,31,3,4,0.8,0.8
2024-07-20T1900,1800A,118.5228,31.7231,马鞍山市,慈湖,,26,26,25,15,15,58,,78,78,31,24,6,5,0.7,0.7
2024-07-20T1900,1802A,118.6245,31.7241,马鞍山市,濮塘,,31,31,22,13,15,42,,69,68,17,17,4,5,0.6,0.7
2024-07-20T1900,3633A,118.4918,31.6809,马鞍山市,雨山,,30,30,31,17,16,48,,72,72,26,24,6,7,0.8,1
2024-07-20T1900,1686A,111.0286,21.4688,茂名市,电白南海,,24,24,19,9,10,32,,40,39,8,6,6,6,0.4,0.4
2024-07-20T1900,1687A,110.9294,21.6533,茂名市,茂石化七小,,25,17,16,17,13,31,,40,39,4,4,8,9,0.4,0.4
2024-07-20T1900,1688A,110.9107,21.6687,茂名市,健康路,,19,19,16,9,5,35,,44,43,3,4,8,10,0.4,0.4
2024-07-20T1900,1689A,110.8592,21.6828,茂名市,高岭,,,24,19,9,12,35,,45,42,5,7,10,15,,0.5
2024-07-20T1900,3450A,111.01,21.5165,茂名市,电白水东,,22,22,16,9,8,35,,39,38,5,7,3,5,0.5,0.5
2024-07-20T1900,2539A,104.0308,30.0478,眉山市,黑龙滩水库,,20,14,29,14,26,55,,39,39,2,5,1,2,0.2,0.3
2024-07-20T1900,2540A,103.8416,30.0874,眉山市,气象局,,19,12,16,9,18,59,,48,48,8,13,6,6,0.4,0.4
2024-07-20T1900,3137A,103.8578,30.0744,眉山市,市委党校,,20,12,21,3,11,63,,56,56,9,12,5,5,0.6,0.6
2024-07-20T1900,3148A,103.8291,30.0564,眉山市,区人社局,,18,18,23,3,16,57,,51,51,17,18,6,8,0.4,0.4
2024-07-20T1900,1690A,116.1231,24.3284,梅州市,梅江月梅,细颗粒物(PM2.5),54,,22,38,8,27,,40,39,13,9,9,9,0.5,0.4
2024-07-20T1900,1691A,116.0797,24.2719,梅州市,梅县新城,,15,14,17,3,7,48,,48,48,9,9,4,4,0.6,0.5
2024-07-20T1900,1692A,116.1248,24.2654,梅州市,环境监控中心,,31,31,21,11,8,35,,40,39,20,14,4,9,0.5,0.5
2024-07-20T1900,3315A,116.1233,24.2991,梅州市,梅龙,,48,48,18,20,9,30,,46,44,22,10,9,9,0.6,0.5
2024-07-20T1900,1878A,104.7778,31.4741,绵阳市,富乐山,,19,18,20,13,14,51,,39,39,3,4,8,8,0.5,0.5
2024-07-20T1900,1879A,104.7563,31.4535,绵阳市,市人大,,23,,20,16,14,51,,38,38,17,13,8,6,0.4,0.4
2024-07-20T1900,1880A,104.6697,31.4668,绵阳市,高新区自来水公司,,19,19,19,12,8,47,,37,37,14,13,6,6,0.3,0.4
2024-07-20T1900,1881A,104.7287,31.5075,绵阳市,三水厂,,19,16,21,13,15,48,,35,35,12,15,7,7,0.4,0.4
2024-07-20T1900,3491A,104.69,31.5322,绵阳市,西科大附属小学,,13,13,22,8,12,31,,24,24,7,12,5,5,0.4,0.4
2024-07-20T1900,3492A,104.5648,31.5343,绵阳市,安州区旅游局,,20,,8,7,12,61,,46,37,6,8,6,6,0.2,0.3
2024-07-20T1900,1784A,129.61,44.561,牡丹江市,环保大楼,,36,28,30,25,23,83,,112,106,13,12,7,7,0.4,0.4
2024-07-20T1900,1785A,129.6115,44.5782,牡丹江市,文化广场,,43,35,35,30,33,79,,103,98,15,15,6,7,0.6,0.6
2024-07-20T1900,1786A,129.5904,44.5963,牡丹江市,第一医院,,34,34,29,17,20,83,,101,97,12,13,5,4,0.5,0.5
2024-07-20T1900,1787A,129.6364,44.6075,牡丹江市,机车工厂,,30,30,31,21,28,79,,103,99,15,13,4,14,0.5,0.5
2024-07-20T1900,1788A,129.6386,44.5462,牡丹江市,第一中学,,29,29,28,15,13,81,,106,102,14,14,4,4,0.4,0.5
2024-07-20T1900,2531A,105.0703,29.61,内江市,市监测站,,20,12,15,10,19,63,,64,64,10,8,10,9,0.3,0.3
2024-07-20T1900,2532A,105.0717,29.5947,内江市,东兴区政府,,20,20,27,3,13,58,,67,67,2,6,10,10,0.4,0.5
2024-07-20T1900,2533A,105.0653,29.5817,内江市,内江二中,,21,15,23,7,14,66,,73,73,15,11,10,10,0.5,0.6
2024-07-20T1900,2534A,105.0406,29.5822,内江市,内江日报社,,21,9,20,3,15,66,,67,67,5,9,7,8,0.5,0.6
2024-07-20T1900,2628A,92.0657,31.4846,那曲市,那曲监测站,,21,12,17,7,10,67,,80,80,9,7,6,6,0.5,0.6
2024-07-20T1900,3128A,92.0506,31.4797,那曲市,那曲会议中心,,27,18,17,7,8,84,,89,89,11,8,4,4,0.3,0.4
2024-07-20T1900,1290A,115.8931,28.6843,南昌市,省外办,,35,35,35,12,12,65,,63,63,10,15,7,7,0.5,0.5
2024-07-20T1900,1291A,115.8886,28.7003,南昌市,省林业公司,,24,24,22,12,7,63,,66,66,16,12,6,10,0.3,0.3
2024-07-20T1900,1292A,115.8126,28.7442,南昌市,林科所,,26,19,16,3,4,83,,78,78,12,15,12,14,0.2,0.2
2024-07-20T1900,1294A,115.8518,28.687,南昌市,建工学校,,20,19,20,12,8,64,,68,68,12,10,8,11,0.3,0.3
2024-07-20T1900,1295A,115.8921,28.6424,南昌市,象湖,,20,19,17,9,7,64,,70,70,12,10,5,10,0.5,0.4
2024-07-20T1900,1296A,115.7423,28.7996,南昌市,武术学校,,33,,15,23,12,46,,63,63,6,5,5,6,0.5,0.4
2024-07-20T1900,1298A,115.9314,28.6842,南昌市,省站,,22,19,26,15,11,59,,66,66,14,15,8,12,0.4,0.4
2024-07-20T1900,3046A,115.9084,28.6062,南昌市,机电学校,,37,37,27,12,8,46,,64,64,23,11,8,12,0.4,0.4
2024-07-20T1900,3690A,115.9721,28.7031,南昌市,外国语学校,,31,31,25,12,10,64,,69,69,11,10,4,6,0.4,0.4
2024-07-20T1900,1905A,106.056,30.8064,南充市,西山风景区,,19,19,26,13,11,39,,37,37,2,5,5,5,0.4,0.4
2024-07-20T1900,1906A,106.0789,30.8023,南充市,南充市委,,33,33,22,15,11,55,,57,57,8,10,5,5,0.4,0.3
2024-07-20T1900,1907A,106.1031,30.8217,南充市,南充炼油厂,,29,29,29,13,14,47,,46,46,6,9,5,4,0.1,0.2
2024-07-20T1900,1908A,106.1064,30.7856,南充市,高坪区监测站,,24,24,23,15,10,45,,44,44,8,11,3,3,0.1,0.1
2024-07-20T1900,1909A,106.0642,30.7636,南充市,嘉陵区环保局,,18,,18,12,11,52,,53,53,8,11,2,2,0.2,0.3
2024-07-20T1900,1910A,106.1087,30.8388,南充市,市环境监测站,,19,17,20,13,13,46,,44,44,5,8,3,3,0.4,0.4
2024-07-20T1900,1151A,118.8086,32.1065,南京市,迈皋桥,,21,21,20,7,8,52,,115,114,28,23,8,8,1.2,0.9
2024-07-20T1900,1152A,118.7538,32.0551,南京市,草场门,,19,19,21,9,10,48,,69,68,27,20,11,8,1.0,0.7
2024-07-20T1900,1153A,118.7794,32.0745,南京市,山西路,,27,27,23,7,8,56,,74,74,18,14,4,4,0.7,0.6
2024-07-20T1900,1154A,118.7752,32.0023,南京市,中华门,,22,22,18,7,8,69,,69,69,15,16,9,8,0.6,0.5
2024-07-20T1900,1155A,118.8109,32.0309,南京市,瑞金路,,27,27,22,9,8,71,,73,73,16,11,5,6,0.5,0.4
2024-07-20T1900,1156A,118.7997,32.0754,南京市,玄武湖,,21,21,25,6,6,54,,59,59,9,10,4,3,0.7,0.6
2024-07-20T1900,1157A,118.6414,32.0931,南京市,浦口,,14,9,26,3,8,44,,64,62,7,15,4,4,0.1,0.3
2024-07-20T1900,1158A,118.7356,31.9996,南京市,奥体中心,,22,22,24,9,11,64,,67,67,20,27,10,9,0.4,0.5
2024-07-20T1900,1159A,118.9125,32.1028,南京市,仙林大学城,,26,19,21,7,8,82,,81,81,20,17,10,9,0.7,0.5
2024-07-20T1900,3422A,118.8436,31.9198,南京市,江宁彩虹桥,,27,27,24,7,8,43,,72,70,5,14,4,4,0.4,0.4
2024-07-20T1900,3423A,119.0138,31.6494,南京市,溧水永阳,,14,7,13,6,11,44,,80,68,9,10,4,4,0.2,0.3
2024-07-20T1900,3424A,118.879,31.3302,南京市,高淳老职中,,18,18,20,3,13,43,,57,51,7,8,2,4,0.4,0.4
2024-07-20T1900,3427A,118.8554,32.3578,南京市,六合雄州,,15,13,24,3,9,48,,67,66,2,10,3,2,0.3,0.6
2024-07-20T1900,1401A,108.3103,22.7881,南宁市,二十一中,,27,27,21,10,9,67,,68,68,17,12,3,3,0.7,0.6
2024-07-20T1900,1402A,108.3141,22.8528,南宁市,北湖,,32,32,22,10,11,79,,72,72,12,11,10,4,0.6,0.6
2024-07-20T1900,1403A,108.3206,22.8225,南宁市,市监测站,,32,32,22,14,9,61,,66,66,26,14,5,4,0.6,0.5
2024-07-20T1900,1404A,108.3829,22.8037,南宁市,大自然花园,,22,22,18,9,8,69,,60,60,11,10,4,4,0.6,0.6
2024-07-20T1900,1405A,108.4394,22.7904,南宁市,仙葫,,30,,20,21,12,52,,61,61,11,13,1,2,0.3,0.4
2024-07-20T1900,1406A,108.2397,22.8467,南宁市,区农职院,,24,24,24,10,11,61,,61,61,7,12,31,7,0.6,0.6
2024-07-20T1900,1407A,108.3275,22.735,南宁市,英华嘉园,,30,30,20,7,10,51,,52,52,20,12,5,5,0.6,0.5
2024-07-20T1900,1408A,108.2257,22.7757,南宁市,沙井镇街道办,,19,12,24,11,12,58,,60,60,8,16,2,2,0.5,0.5
2024-07-20T1900,3401A,108.4834,22.7618,南宁市,红星社区,,19,,16,13,9,52,,59,59,5,7,5,5,0.5,0.5
2024-07-20T1900,2332A,118.1681,26.6369,南平市,南平市监测站,,18,18,14,9,9,56,,78,75,13,14,5,4,0.8,0.6
2024-07-20T1900,2333A,118.1825,26.6489,南平市,南平铝业有限公司,,34,34,16,10,10,50,,73,70,14,13,7,6,0.8,0.7
2024-07-20T1900,2334A,118.1756,26.6272,南平市,南平七中,,30,30,16,9,9,63,,77,75,10,11,5,5,0.6,0.5
2024-07-20T1900,1168A,120.9098,31.9663,南通市,狼山街道,,23,23,30,12,17,43,,129,112,30,26,7,7,0.4,0.5
2024-07-20T1900,1169A,120.86,32.0005,南通市,虹桥,,36,30,33,17,19,36,,130,109,71,29,10,6,0.7,0.7
2024-07-20T1900,1170A,120.87,32.02,南通市,城中,颗粒物(PM10),52,53,43,14,16,65,,138,121,47,27,10,7,0.6,0.7
2024-07-20T1900,1171A,120.94,31.93,南通市,星湖花园,,42,20,31,15,14,37,,149,124,84,37,8,7,0.5,0.6
2024-07-20T1900,1172A,120.81,32.0417,南通市,紫琅学院,,30,30,40,6,14,56,,131,115,44,39,8,8,0.5,0.6
2024-07-20T1900,3291A,121.067,32.062,南通市,通州监测站,,31,31,40,7,17,58,,116,108,19,18,4,5,0.8,0.9
2024-07-20T1900,3432A,120.9348,31.9883,南通市,环境教育馆,,30,29,42,8,18,43,,141,121,60,30,9,9,0.5,0.6
2024-07-20T1900,2404A,112.5224,33.0122,南阳市,瓦房庄,,23,21,22,15,18,71,,91,91,11,11,3,4,0.5,0.5
2024-07-20T1900,2405A,112.5003,32.9735,南阳市,汉画馆,,28,24,24,6,11,88,,96,96,8,11,3,3,0.3,0.3
2024-07-20T1900,2406A,112.5573,33.027,南阳市,气象站,,23,20,14,9,13,72,,92,92,9,10,4,4,0.4,0.4
2024-07-20T1900,2407A,112.5481,32.9689,南阳市,理工学院,,26,26,22,8,8,70,,89,88,9,11,2,2,0.3,0.2
2024-07-20T1900,4008A,112.5234,32.9922,南阳市,卧龙区政府,,24,19,21,15,16,76,,88,88,12,12,3,3,0.5,0.5
2024-07-20T1900,1234A,121.8358,29.911,宁波市,区环保大楼,,33,33,22,6,11,31,,68,62,18,9,7,7,0.6,0.6
2024-07-20T1900,1235A,121.56,29.82,宁波市,万里学院,,28,28,22,13,11,54,,88,86,13,12,6,8,0.4,0.5
2024-07-20T1900,1236A,121.713,29.9572,宁波市,龙赛医院,,21,19,20,6,7,66,,88,87,9,12,6,6,0.4,0.4
2024-07-20T1900,1239A,121.633,29.7733,宁波市,钱湖水厂,,18,14,14,3,7,55,,76,75,5,7,6,6,0.6,0.6
2024-07-20T1900,1240A,121.5856,29.8635,宁波市,太古小学,,,,18,,4,53,,83,81,7,10,6,6,0.7,0.7
2024-07-20T1900,1241A,121.524,29.8674,宁波市,市环境监测中心,,25,25,18,12,7,64,,96,95,15,12,4,5,0.6,0.6
2024-07-20T1900,2871A,121.6147,29.9017,宁波市,万里国际学校,,20,17,16,10,10,61,,88,87,8,11,6,6,0.1,0.2
2024-07-20T1900,3710A,121.5594,29.8975,宁波市,白沙活动中心,,20,20,19,9,7,61,,91,90,8,11,5,6,0.2,0.2
2024-07-20T1900,2341A,119.5388,26.6612,宁德市,宁德市监测站,,32,27,29,15,13,102,,115,115,10,11,6,5,0.5,0.5
2024-07-20T1900,3209A,119.5231,26.6562,宁德市,宁德一中,,36,36,34,9,19,111,,124,124,7,11,7,7,0.6,0.7
2024-07-20T1900,2619A,98.8546,25.8417,怒江傈僳族自治州,泸水一中,,18,18,20,3,10,35,,52,52,14,12,5,5,0.5,0.5
2024-07-20T1900,1888A,101.6891,26.571,攀枝花市,弄弄坪,,33,33,32,9,10,50,,73,73,17,13,9,12,0.7,0.5
2024-07-20T1900,1889A,101.5769,26.5928,攀枝花市,河门口,,20,17,21,10,13,64,,80,80,12,14,7,11,0.6,0.7
2024-07-20T1900,1890A,101.7169,26.585,攀枝花市,炳草岗,,23,23,29,11,13,54,,79,79,16,14,13,15,0.6,0.6
2024-07-20T1900,1891A,101.7369,26.5008,攀枝花市,仁和,,28,28,19,12,11,59,,72,72,17,10,9,10,0.5,0.3
2024-07-20T1900,2835A,101.7227,26.567,攀枝花市,四十中小,,35,34,38,24,26,67,,83,83,9,10,5,14,0.5,0.5
2024-07-20T1900,1604A,122.0303,41.1489,盘锦市,开发区,,40,40,35,11,18,76,,113,99,23,15,5,4,0.7,0.8
2024-07-20T1900,1605A,122.0485,41.0883,盘锦市,兴隆台,,44,44,39,25,21,79,,112,90,26,19,3,3,0.5,0.5
2024-07-20T1900,1606A,121.8297,41.1028,盘锦市,新生街道,,26,22,28,10,19,81,,118,98,18,11,1,1,0.3,0.4
2024-07-20T1900,1832A,113.3257,33.742,平顶山市,新华旅馆,,29,27,23,13,16,91,,95,95,5,7,1,2,0.3,0.3
2024-07-20T1900,1833A,113.2919,33.737,平顶山市,规划设计院,,27,18,18,14,11,86,,89,89,11,10,4,4,0.5,0.5
2024-07-20T1900,1834A,113.182,33.774,平顶山市,平顶山工学院,,29,18,17,9,9,91,,97,97,3,4,6,6,0.6,0.6
2024-07-20T1900,3204A,113.3025,33.73,平顶山市,规划局,,25,22,15,10,14,80,,87,87,10,10,1,1,0.6,0.5
2024-07-20T1900,3594A,112.8867,33.9116,平顶山市,石龙区,,,28,32,17,18,,,74,74,5,7,6,6,0.2,0.3
2024-07-20T1900,2656A,106.6692,35.5461,平凉市,聚贤嘉苑,,23,19,24,11,13,73,,75,75,10,19,8,10,0.1,0.3
2024-07-20T1900,2657A,106.7021,35.5307,平凉市,博物馆,,28,28,30,6,10,72,,75,75,11,16,6,6,0.5,0.6
2024-07-20T1900,2347A,114.0997,27.5002,萍乡市,武功山,,7,6,5,3,3,21,,38,36,8,4,12,11,0.2,0.2
2024-07-20T1900,2348A,113.8385,27.6434,萍乡市,中医院,,15,14,15,8,7,45,,58,55,6,9,6,9,0.6,0.7
2024-07-20T1900,2349A,113.8493,27.6253,萍乡市,市政府车库,,23,22,16,16,11,42,,51,50,6,7,19,14,0.5,0.6
2024-07-20T1900,2350A,113.8676,27.6435,萍乡市,市环保局,,25,25,21,10,12,43,,54,54,6,7,15,16,0.4,0.6
2024-07-20T1900,2351A,113.866,27.6198,萍乡市,安源区政府,,30,30,24,3,5,41,,47,47,7,15,8,14,0.3,0.9
2024-07-20T1900,2319A,119.0141,25.4325,莆田市,荔城区仓后路,,31,31,29,7,14,78,,90,90,9,11,6,7,0.5,0.6
2024-07-20T1900,2320A,119.0015,25.4553,莆田市,莆田市监测站,,34,34,26,6,10,82,,88,88,9,8,6,6,0.4,0.4
2024-07-20T1900,2321A,119.1119,25.4561,莆田市,涵江区六中,,36,36,33,10,11,61,,103,102,15,14,8,8,0.6,0.6
2024-07-20T1900,2322A,119.1013,25.3215,莆田市,秀屿区政府,,29,29,31,7,11,57,,116,110,8,13,7,9,0.6,0.7
2024-07-20T1900,2392A,115.0312,35.7636,濮阳市,环保局,,36,25,11,7,8,115,,123,118,9,8,7,6,0.4,0.4
2024-07-20T1900,2394A,115.0574,35.7609,濮阳市,油田运输公司,,39,6,10,3,9,123,,132,124,8,9,4,4,0.5,0.5
2024-07-20T1900,2395A,115.0866,35.7754,濮阳市,油田物探公司,,39,11,12,3,12,123,,125,122,6,3,5,5,0.5,0.4
2024-07-20T1900,3021A,115,35.7668,濮阳市,濮水河管理处,,35,15,13,7,12,110,,112,110,7,7,5,4,0.5,0.5
2024-07-20T1900,2601A,100.98,22.7633,普洱市,市环保局,,18,,9,12,13,22,,33,32,9,5,6,6,0.5,0.4
2024-07-20T1900,2602A,100.9817,22.8322,普洱市,普洱第二中学,,13,11,10,9,11,21,,34,34,10,8,4,4,0.4,0.3
2024-07-20T1900,2262A,131.0518,45.8751,七台河市,新一中,,38,37,29,23,22,120,,132,128,11,13,10,10,0.8,0.8
2024-07-20T1900,3345A,131.0577,45.7879,七台河市,中波台,,30,11,12,3,5,95,,107,104,11,12,6,6,0.4,0.4
2024-07-20T1900,3637A,131.0176,45.7761,七台河市,人民广场,,38,38,33,15,16,95,,104,102,14,12,10,9,0.4,0.4
2024-07-20T1900,3684A,130.8781,45.8222,七台河市,新建矿广场,颗粒物(PM10),69,88,66,47,42,86,,103,99,22,19,13,13,0.3,0.3
2024-07-20T1900,1779A,123.9305,47.3636,齐齐哈尔市,安居小区,,33,33,32,16,22,90,,108,108,19,17,7,10,0.5,0.5
2024-07-20T1900,1780A,123.9488,47.3386,齐齐哈尔市,中心广场,,40,40,34,12,13,107,,115,115,11,15,3,4,0.4,0.5
2024-07-20T1900,1781A,123.9483,47.3227,齐齐哈尔市,农牧车辆厂,,41,41,39,7,14,103,,110,110,11,15,8,10,0.2,0.3
2024-07-20T1900,1783A,123.945,47.2988,齐齐哈尔市,市环境监测站,,34,20,30,19,21,108,,115,115,8,14,6,7,0.3,0.4
2024-07-20T1900,3662A,123.6333,47.2075,齐齐哈尔市,富区青少年活动中心,,36,29,39,8,22,115,,117,117,13,27,6,24,0.8,1.3
2024-07-20T1900,2591A,107.9783,26.5747,黔东南苗族侗族自治州,市环境监测站,,15,7,7,3,4,45,,49,48,6,4,3,3,0.5,0.5
2024-07-20T1900,2881A,107.8908,26.5311,黔东南苗族侗族自治州,凯里学院,,13,6,2,3,5,41,,43,42,2,2,4,4,0.3,0.3
2024-07-20T1900,2593A,107.5228,26.2403,黔南布依族苗族自治州,小围寨,,14,6,1,3,0,42,,46,46,2,2,4,4,0.4,0.4
2024-07-20T1900,3538A,107.5175,26.2978,黔南布依族苗族自治州,沙坝,,,6,1,3,0,43,,48,48,3,3,,3,0.4,0.4
2024-07-20T1900,2589A,104.9022,25.0925,黔西南布依族苗族自治州,场坝街,,17,13,13,7,6,53,,50,50,4,4,5,4,0.2,0.2
2024-07-20T1900,2590A,104.8811,25.0992,黔西南布依族苗族自治州,坪东大道,,16,13,14,3,6,50,,47,47,3,2,4,4,0.3,0.5
2024-07-20T1900,2502A,108.6236,21.9667,钦州市,市环保站,,17,17,17,3,5,44,,50,50,10,9,6,6,0.5,0.6
2024-07-20T1900,2503A,108.6549,21.9481,钦州市,沙埠小学,,22,22,24,12,9,48,,49,49,10,10,5,6,0.6,0.5
2024-07-20T1900,2504A,108.5989,21.7431,钦州市,港区一小,,19,19,26,3,8,39,,45,44,9,12,7,9,0.4,0.5
2024-07-20T1900,3404A,108.5959,21.9633,钦州市,北职校,,13,7,20,6,6,41,,52,52,5,8,5,7,0.5,0.6
2024-07-20T1900,1042A,119.5134,39.8207,秦皇岛市,北戴河环保局,,39,34,60,3,26,123,,137,119,9,10,4,5,0.3,0.5
2024-07-20T1900,1043A,119.7493,40.0116,秦皇岛市,第一关,,38,25,52,10,36,121,,123,123,2,17,2,2,0.2,0.4
2024-07-20T1900,1044A,119.5897,39.9499,秦皇岛市,监测站,,42,37,56,13,26,134,,134,134,11,18,5,5,0.3,0.5
2024-07-20T1900,1046A,119.5251,39.9041,秦皇岛市,建设大厦,,42,35,50,6,16,133,,132,132,3,9,1,1,0.0,0.2
2024-07-20T1900,3132A,119.610547,39.943889,秦皇岛市,文明里,,40,14,47,12,36,125,,129,129,7,11,2,2,0.2,0.4
2024-07-20T1900,1307A,120.6659,36.2403,青岛市,仰口,,41,,9,9,10,131,,106,106,4,4,3,3,0.1,0.1
2024-07-20T1900,1310A,120.4134,36.0658,青岛市,市南区东部子站,,38,14,12,7,1,120,,103,103,28,15,8,8,0.5,0.5
2024-07-20T1900,1311A,120.3664,36.1032,青岛市,四方区子站,,34,22,12,14,7,107,,95,95,26,16,11,10,0.7,0.6
2024-07-20T1900,1312A,120.2994,36.054,青岛市,市南区西部子站,,31,31,19,17,4,73,,82,81,51,20,9,7,0.6,0.6
2024-07-20T1900,1313A,120.4581,36.0858,青岛市,崂山区子站,,34,17,15,3,2,106,,97,97,26,17,8,8,0.5,0.6
2024-07-20T1900,1314A,120.1983,35.9608,青岛市,黄岛区子站,,41,22,11,20,7,129,,104,104,24,17,8,7,0.8,0.6
2024-07-20T1900,1315A,120.3999,36.3083,青岛市,城阳区子站,,36,17,13,12,10,113,,100,100,21,17,6,6,0.6,0.7
2024-07-20T1900,1966A,120.0405,35.8735,青岛市,黄岛区4号,,35,27,9,7,4,110,,98,98,22,11,8,8,0.7,0.5
2024-07-20T1900,3362A,120.5014,36.4034,青岛市,即墨2号,,42,17,16,13,8,132,,103,103,18,14,6,5,0.5,0.5
2024-07-20T1900,3642A,120.3503,36.0736,青岛市,市北区南部,,35,19,14,7,5,112,,99,99,25,18,7,7,0.5,0.5
2024-07-20T1900,3643A,120.3948,36.1805,青岛市,李沧区北部,,37,12,9,12,11,116,,104,104,20,20,10,10,0.4,0.4
2024-07-20T1900,1702A,113.0426,23.691,清远市,环保大楼,,16,16,13,9,7,39,,70,68,10,8,5,5,0.7,0.6
2024-07-20T1900,1703A,113.0208,23.7106,清远市,凤城街办,,,,18,,10,41,,68,67,,7,,4,0.4,0.3
2024-07-20T1900,3025A,113.0477,23.6344,清远市,技师学院,,,28,22,17,12,,,83,83,23,13,4,4,0.4,0.5
2024-07-20T1900,3318A,112.9903,23.7403,清远市,清新太和,,12,11,16,6,8,38,,67,66,6,3,8,8,0.5,0.5
2024-07-20T1900,3455A,113.076,23.7198,清远市,清城东城,,16,15,15,11,10,38,,65,64,5,5,5,5,0.5,0.5
2024-07-20T1900,2661A,107.6325,35.7357,庆阳市,庆阳五中,,26,17,16,7,8,82,,71,71,5,6,4,3,0.4,0.4
2024-07-20T1900,2662A,107.6364,35.7067,庆阳市,市环保局,,27,16,14,3,4,85,,74,74,4,5,4,4,0.4,0.4
2024-07-20T1900,1916A,103.7897,25.5035,曲靖市,环境监测站,,29,29,16,6,7,58,,58,58,16,10,5,4,0.6,0.5
2024-07-20T1900,1917A,103.8,25.5364,曲靖市,烟厂办公区,,24,24,16,10,8,67,,60,60,12,9,4,4,0.5,0.4
2024-07-20T1900,3376A,103.7947,25.462,曲靖市,南苑二区,,18,16,14,6,6,57,,58,58,12,8,5,5,0.6,0.5
2024-07-20T1900,3377A,103.7444,25.5261,曲靖市,曲靖师范学院,,21,20,14,10,7,67,,62,62,10,7,6,5,0.5,0.4
2024-07-20T1900,1264A,118.8692,28.9398,衢州市,环保大楼,,33,33,29,16,15,73,,98,91,14,16,2,3,0.6,0.6
2024-07-20T1900,1265A,118.8709,28.9666,衢州市,实验学校,,27,27,30,14,14,75,,100,91,10,16,3,2,0.4,0.4
2024-07-20T1900,1266A,118.8621,28.9808,衢州市,衢州学院,,26,26,31,12,15,71,,105,95,10,19,3,3,0.3,0.4
2024-07-20T1900,1611A,118.5819,24.9117,泉州市,涂山街,,32,32,44,8,12,38,,73,64,16,19,5,9,0.2,0.3
2024-07-20T1900,1612A,118.5972,24.8978,泉州市,津头埔,,40,40,40,9,13,37,,72,64,16,21,3,7,0.5,0.5
2024-07-20T1900,1613A,118.6663,24.9424,泉州市,万安,,31,31,34,12,10,42,,80,72,10,17,2,2,0.5,0.5
2024-07-20T1900,3529A,118.6333,24.9264,泉州市,城华南路,,27,27,35,9,11,39,,76,67,15,16,3,6,0.4,0.4
2024-07-20T1900,2626A,88.8876,29.2718,日喀则市,日喀则监测站,,19,13,7,6,3,60,,67,67,7,5,5,4,0.5,0.5
2024-07-20T1900,3726A,88.8781,29.2426,日喀则市,林业技术推广中心,,20,15,6,14,6,63,,68,68,6,7,6,6,0.5,0.4
2024-07-20T1900,1659A,119.471,35.4209,日照市,监测站,,38,19,8,16,9,120,,115,115,19,15,9,9,0.6,0.5
2024-07-20T1900,1660A,119.523,35.4216,日照市,市政府广场,,36,19,11,11,5,115,,109,109,14,11,10,9,0.6,0.6
2024-07-20T1900,1661A,119.5587,35.4044,日照市,港务局,,44,44,14,13,4,106,,112,112,32,15,8,7,0.9,0.7
2024-07-20T1900,3507A,119.5328,35.4625,日照市,职业技术学院,,37,29,12,12,7,117,,112,112,19,13,10,8,0.7,0.7
2024-07-20T1900,3604A,119.3266,35.1044,日照市,岚山环保分局,,30,12,8,3,4,95,,116,114,10,14,8,8,0.5,0.8
2024-07-20T1900,1835A,111.1922,34.7752,三门峡市,市政府,,28,25,16,12,7,87,,86,86,8,6,7,7,0.5,0.4
2024-07-20T1900,1836A,111.1587,34.7942,三门峡市,开发区,,29,29,21,14,10,84,,86,86,11,10,8,8,0.5,0.5
2024-07-20T1900,3039A,111.1911,34.7829,三门峡市,三门峡市第一小学,,39,35,19,27,10,92,,87,87,7,6,8,8,0.5,0.5
2024-07-20T1900,3598A,111.1,34.7167,三门峡市,富达温泉假日酒店,,28,23,20,15,11,87,,86,86,6,11,8,9,0.5,0.5
2024-07-20T1900,2324A,117.6211,26.2625,三明市,三钢,,27,20,24,14,14,84,,88,88,9,18,7,13,0.4,0.9
2024-07-20T1900,2325A,117.635,26.2714,三明市,三明二中,,29,24,23,13,16,90,,98,97,6,18,3,8,0.4,0.9
2024-07-20T1900,2326A,117.6028,26.2378,三明市,三元区政府,,24,24,21,6,9,73,,87,86,12,14,4,5,0.4,0.4
2024-07-20T1900,1876A,109.5078,18.2489,三亚市,河东子站,,14,11,13,6,6,42,,49,48,9,6,4,4,0.3,0.4
2024-07-20T1900,1877A,109.4964,18.2681,三亚市,河西子站,,13,13,11,3,4,40,,49,48,6,5,3,2,0.3,0.3
2024-07-20T1900,3540A,109.7348,18.3443,三亚市,君悦子站,,11,9,15,3,3,34,,48,46,3,5,2,2,0.4,0.4
2024-07-20T1900,2624A,91.7608,29.2313,山南市,山南监测站,,21,12,10,3,5,65,,48,48,3,8,6,6,0.2,0.2
2024-07-20T1900,2625A,91.7706,29.2436,山南市,山南人民医院,,21,13,17,3,6,66,,47,47,8,11,6,6,0.3,0.3
2024-07-20T1900,1674A,116.6794,23.3667,汕头市,金平子站,,15,7,14,3,6,47,,47,47,5,5,5,5,0.8,0.7
2024-07-20T1900,1675A,116.7244,23.3633,汕头市,龙湖子站,,26,26,18,12,6,50,,40,40,6,5,6,5,0.6,0.6
2024-07-20T1900,1676A,116.7258,23.2775,汕头市,濠江子站,,29,29,19,3,10,62,,48,48,8,8,5,4,0.6,0.6
2024-07-20T1900,1677A,116.7519,23.4714,汕头市,澄海子站,,23,23,19,3,7,42,,37,37,8,7,4,4,0.8,0.7
2024-07-20T1900,1678A,116.6092,23.2539,汕头市,潮阳子站,,22,22,16,6,7,36,,41,41,2,3,4,4,0.6,0.6
2024-07-20T1900,3444A,116.454,23.2684,汕头市,潮南峡山,,21,21,20,8,5,32,,36,36,4,4,5,4,0.8,0.7
2024-07-20T1900,3624A,116.4069,23.2533,汕头市,潮南子站,,29,29,24,6,6,36,,38,38,2,6,8,7,0.6,0.6
2024-07-20T1900,1693A,115.3653,22.775,汕尾市,市环保局,,14,14,17,6,6,32,,30,30,6,8,6,6,0.5,0.5
2024-07-20T1900,1694A,115.3706,22.7898,汕尾市,市政府,,14,14,19,3,6,33,,32,32,4,7,6,7,0.4,0.4
2024-07-20T1900,1695A,115.3622,22.7925,汕尾市,新城中学,,46,46,24,8,7,36,,34,34,5,6,6,5,0.4,0.5
2024-07-20T1900,2645A,109.9154,33.8715,商洛市,监测站,,15,15,16,8,5,46,,64,64,9,14,4,8,0.5,0.7
2024-07-20T1900,3045A,109.9643,33.8471,商洛市,商州区中学,,34,34,21,14,6,48,,73,72,10,17,2,2,0.6,0.6
2024-07-20T1900,2408A,115.6702,34.4285,商丘市,环境监测站,,43,43,17,11,8,95,,94,94,2,2,9,9,0.3,0.2
2024-07-20T1900,2409A,115.6458,34.4045,商丘市,粮食局,,36,36,16,12,7,98,,96,96,3,4,4,4,0.3,0.3
2024-07-20T1900,2410A,115.6293,34.3948,商丘市,睢阳区环保局,,37,37,18,15,10,88,,89,89,5,5,4,4,0.4,0.3
2024-07-20T1900,3171A,115.6071,34.4465,商丘市,梁园区档案局,,,,16,14,10,94,,94,94,5,5,6,6,0.2,0.2
2024-07-20T1900,1141A,121.4,31.238,上海市,普陀,,45,45,36,20,23,128,,167,167,23,22,19,15,0.4,0.4
2024-07-20T1900,1142A,121.478,31.2036,上海市,十五厂,,,49,35,21,18,125,,168,168,,21,8,11,0.4,0.4
2024-07-20T1900,1143A,121.467,31.3008,上海市,虹口,,49,45,37,34,23,119,,150,150,22,22,6,10,0.6,0.5
2024-07-20T1900,1144A,121.412,31.1654,上海市,徐汇上师大,,47,47,34,22,21,120,,164,164,29,25,7,6,0.6,0.5
2024-07-20T1900,1145A,121.536,31.2659,上海市,杨浦四漂,,,74,36,14,19,143,,194,194,47,20,7,9,,0.7
2024-07-20T1900,1147A,121.425,31.2261,上海市,静安监测站,,44,44,36,30,22,128,,163,163,19,24,8,18,0.6,0.5
2024-07-20T1900,1148A,121.703,31.1907,上海市,浦东川沙,,41,40,34,8,25,130,,150,150,23,20,6,7,0.5,0.5
2024-07-20T1900,1149A,121.533,31.2284,上海市,浦东新区监测站,,40,40,32,18,18,123,,155,155,16,16,4,6,0.4,0.5
2024-07-20T1900,1150A,121.577,31.2071,上海市,浦东张江,,38,38,30,14,19,114,,137,137,16,20,5,6,0.7,0.7
2024-07-20T1900,3265A,121.4316,31.3322,上海市,宝山庙行,,50,47,34,28,20,158,,167,167,23,19,16,17,0.7,0.6
2024-07-20T1900,3266A,121.8791,31.4662,上海市,崇明上实东滩,,39,34,29,12,15,123,,158,158,12,23,7,8,0.5,0.6
2024-07-20T1900,3268A,121.3162,31.2838,上海市,嘉定南翔,细颗粒物(PM2.5),55,48,34,39,24,139,,155,155,32,29,8,7,0.6,0.5
2024-07-20T1900,3269A,121.3359,30.7456,上海市,金山新城,,39,30,22,27,18,114,,154,152,13,11,8,8,0.5,0.5
2024-07-20T1900,3270A,121.4996,31.0739,上海市,闵行浦江,,,32,28,19,19,117,,146,146,14,17,,6,0.4,0.5
2024-07-20T1900,3271A,121.2886,31.1663,上海市,青浦徐泾,,44,44,34,22,21,137,,167,167,24,23,6,7,0.6,0.5
2024-07-20T1900,3272A,121.2186,31.0378,上海市,松江图书馆,,50,43,30,35,22,132,,174,173,26,18,6,6,0.7,0.6
2024-07-20T1900,3273A,121.3902,31.2059,上海市,长宁仙霞,,45,45,40,20,17,122,,161,161,28,25,34,13,0.6,0.5
2024-07-20T1900,3274A,121.7965,31.0507,上海市,浦东惠南,,33,32,29,19,17,104,,134,134,18,23,8,8,0.6,0.6
2024-07-20T1900,3544A,121.4891,30.925,上海市,奉贤南桥新城,,31,31,23,14,14,96,,132,132,20,19,5,6,0.5,0.6
2024-07-20T1900,2381A,118.005,28.4572,上饶市,百草园,,29,24,26,20,13,74,,90,87,2,9,10,10,1.1,0.8
2024-07-20T1900,2382A,117.9756,28.4436,上饶市,市监测站,,23,23,31,8,16,67,,90,86,8,13,9,17,0.5,0.6
2024-07-20T1900,2383A,117.9519,28.4628,上饶市,凤凰光学,,24,24,25,10,13,66,,85,83,4,11,7,14,0.8,0.8
2024-07-20T1900,3413A,118.1953,28.4401,上饶市,广丰区教体局,,25,20,23,12,12,78,,99,98,3,7,7,11,0.6,0.5
2024-07-20T1900,3685A,117.897,28.4315,上饶市,双创科技城,,23,23,27,8,14,44,,76,70,16,14,8,15,0.6,0.6
2024-07-20T1900,1669A,113.5824,24.7733,韶关市,市八中,,26,26,31,8,21,57,,76,76,5,7,8,11,0.5,0.7
2024-07-20T1900,1671A,113.5917,24.7972,韶关市,园林处,,20,15,19,8,16,61,,77,77,8,8,8,11,0.6,0.7
2024-07-20T1900,1672A,113.6735,24.7791,韶关市,韶关学院,,24,22,27,13,18,75,,96,96,13,11,20,17,0.9,0.5
2024-07-20T1900,1673A,113.5971,24.6863,韶关市,曲江监测站,,19,13,41,6,23,58,,77,77,7,12,10,13,0.7,1.1
2024-07-20T1900,3622A,113.5556,24.8082,韶关市,碧湖山庄,,22,21,30,9,14,68,,80,80,10,5,13,11,0.4,0.4
2024-07-20T1900,2462A,111.5239,27.3033,邵阳市,市水土所,,27,27,20,17,9,53,,68,66,7,6,5,5,0.6,0.8
2024-07-20T1900,2463A,111.4733,27.2317,邵阳市,市一中,,22,20,18,8,12,68,,75,74,9,7,11,11,0.3,0.3
2024-07-20T1900,2464A,111.5283,27.2442,邵阳市,市化工厂,,20,15,13,7,11,64,,71,71,7,8,10,11,0.3,0.3
2024-07-20T1900,2465A,111.4503,27.2537,邵阳市,市罐头厂,,21,13,20,6,13,66,,71,70,5,6,6,9,0.2,0.3
2024-07-20T1900,2466A,111.4328,27.2272,邵阳市,市环保局,,21,,21,13,13,67,,71,70,4,7,9,11,0.3,0.4
2024-07-20T1900,1247A,120.6053,29.9928,绍兴市,城东开发委,,32,28,19,22,12,100,,106,104,16,8,6,6,0.6,0.5
2024-07-20T1900,2921A,120.5483,30.0003,绍兴市,树下王站,,37,37,21,25,14,95,,108,107,19,7,4,4,0.6,0.6
2024-07-20T1900,3408A,120.5683,29.9361,绍兴市,绍兴中专,颗粒物(PM10),52,53,19,21,13,60,,119,106,30,10,4,4,0.5,0.5
2024-07-20T1900,3409A,120.4906,30.0861,绍兴市,柯桥区政府,,39,39,24,17,12,87,,136,130,19,13,5,5,0.7,0.5
2024-07-20T1900,3410A,120.8752,30.0249,绍兴市,重华小学,,38,38,24,24,14,110,,128,126,15,11,9,9,0.5,0.4
2024-07-20T1900,3411A,120.8369,30.0137,绍兴市,上虞中学,,45,45,27,23,13,111,,124,122,12,12,8,8,0.5,0.5
2024-07-20T1900,3560A,120.4722,30.0415,绍兴市,柯桥妇保,,31,31,28,19,14,96,,141,136,12,10,7,6,0.6,0.5
2024-07-20T1900,3658A,120.6153,30.0764,绍兴市,袍江中学,,29,25,22,11,12,90,,131,126,16,11,10,9,0.5,0.5
2024-07-20T1900,1356A,114.1063,22.5545,深圳市,通心岭子站,,19,19,16,7,6,24,,30,30,5,5,5,5,0.6,0.6
2024-07-20T1900,1357A,114.117,22.5625,深圳市,洪湖,,14,14,14,8,6,26,,31,31,7,6,5,6,0.4,0.4
2024-07-20T1900,1358A,113.987,22.5417,深圳市,华侨城,,,6,14,3,5,17,,26,26,,4,5,5,0.4,0.4
2024-07-20T1900,1359A,113.9181,22.5171,深圳市,南海子站,,17,17,20,11,7,34,,38,38,5,8,5,5,0.5,0.5
2024-07-20T1900,1360A,114.2458,22.5689,深圳市,盐田,,26,26,19,3,7,20,,24,24,14,19,6,6,0.5,0.5
2024-07-20T1900,1361A,114.2283,22.7244,深圳市,龙岗,,20,20,18,3,6,29,,36,35,5,10,5,5,0.5,0.6
2024-07-20T1900,1363A,114.494,22.5422,深圳市,南澳,,14,14,15,3,3,32,,33,33,4,4,4,4,0.4,0.4
2024-07-20T1900,1364A,114.41,22.6342,深圳市,葵涌,,22,22,15,3,3,31,,32,32,3,4,5,5,0.6,0.6
2024-07-20T1900,1365A,114.297,22.5978,深圳市,梅沙,,26,26,20,8,6,24,,34,33,7,4,4,4,0.6,0.6
2024-07-20T1900,1366A,114.0678,22.738,深圳市,观澜,,27,27,25,10,10,15,,38,36,12,9,4,4,0.6,0.6
2024-07-20T1900,3305A,114.0731,22.559,深圳市,莲花,,14,14,17,3,5,13,,23,23,7,7,5,5,0.5,0.5
2024-07-20T1900,3306A,114.0261,22.6198,深圳市,民治,,16,16,15,7,8,22,,30,30,10,9,5,5,0.5,0.5
2024-07-20T1900,3307A,114.1871,22.6451,深圳市,横岗,,19,19,17,7,8,24,,34,34,13,11,5,6,0.5,0.5
