timepoint,stationcode,longitude,latitude,area,positionname,primarypollutant,aqi,pm10,pm10_24h,pm2_5,pm2_5_24h,o3,o3_24h,o3_8h,o3_8h_24h,no2,no2_24h,so2,so2_24h,co,co_24h
2024-08-15T1000,2566A,102.1879,31.914,阿坝藏族羌族自治州,州农科所,,43,43,29,17,11,49,,46,46,29,15,10,9,0,0.1
2024-08-15T1000,2568A,102.2502,31.8896,阿坝藏族羌族自治州,马师校,,21,10,16,9,9,67,,49,49,12,7,4,3,0.4,0.3
2024-08-15T1000,3994A,102.2165,31.9024,阿坝藏族羌族自治州,马尔康中学西区,,,13,10,8,11,,,57,57,9,7,5,4,0.3,0.3
2024-08-15T1000,2695A,80.292,41.1694,阿克苏地区,电视台,颗粒物(PM10),63,76,114,25,38,38,,94,78,28,11,1,3,0.8,0.5
2024-08-15T1000,2696A,80.2613,41.1551,阿克苏地区,艺术中心,颗粒物(PM10),61,72,107,21,33,46,,94,79,26,10,4,4,0.8,0.5
2024-08-15T1000,2204A,105.6467,38.8363,阿拉善盟,西城区西花园,颗粒物(PM10),63,75,42,21,16,135,,125,125,8,10,9,10,0.8,0.8
2024-08-15T1000,2205A,105.6985,38.8411,阿拉善盟,蒙二幼,,,87,30,24,16,,,120,119,8,7,11,10,0.4,0.5
2024-08-15T1000,2206A,105.724,38.8516,阿拉善盟,环保局新楼,,,,30,,16,,,116,,,6,,9,,0.4
2024-08-15T1000,2708A,88.1264,47.8517,阿勒泰地区,市站,,34,34,24,6,7,66,,69,69,21,16,7,8,0.7,0.7
2024-08-15T1000,2630A,80.1161,32.5,阿里地区,阿里监测站,,37,20,24,12,12,116,,119,116,7,6,10,8,0.2,0.2
2024-08-15T1000,3192A,80.0903,32.5028,阿里地区,阿里藏医院,,37,28,32,10,12,118,,119,117,8,6,6,6,0.3,0.3
2024-08-15T1000,2642A,109.0318,32.6537,安康市,香溪洞,,43,43,28,12,15,75,,73,69,18,8,6,6,0.4,0.3
2024-08-15T1000,2643A,109.0281,32.6939,安康市,安康市监测站,,40,40,29,16,14,71,,47,47,13,10,10,8,0.6,0.5
2024-08-15T1000,2644A,109.0072,32.6975,安康市,汉滨区检察院,,27,27,25,18,15,64,,44,44,15,8,10,8,0.6,0.5
2024-08-15T1000,2291A,117.0809,30.5177,安庆市,环科院,,,,19,30,14,,,74,71,,9,8,7,1.0,0.8
2024-08-15T1000,2292A,117.0331,30.5119,安庆市,马山宾馆,,43,,14,30,16,87,,79,77,15,11,10,9,0.6,0.6
2024-08-15T1000,2294A,116.9896,30.6145,安庆市,安庆大学,,29,29,18,20,15,92,,78,78,8,7,8,7,0.8,0.7
2024-08-15T1000,3173A,117.0598,30.5351,安庆市,市人大,,,35,20,24,15,,,73,,11,7,7,6,,0.5
2024-08-15T1000,3122A,105.9606,26.2611,安顺市,伍家关,,,,,,,,,,,,,,,,
2024-08-15T1000,3123A,105.9408,26.2431,安顺市,凤凰山,,35,35,38,20,22,101,,80,79,11,9,26,16,0.5,0.5
2024-08-15T1000,3124A,105.9439,26.2564,安顺市,金钟山,,35,34,40,20,24,109,,84,84,7,7,21,14,0.6,0.6
2024-08-15T1000,3125A,105.8983,26.2481,安顺市,娄家坡,,35,32,36,19,19,110,,88,87,8,8,17,13,0.7,0.6
2024-08-15T1000,1818A,114.4839,36.0621,安阳市,棉研所,,,,,,,,,,,,,,,,
2024-08-15T1000,1819A,114.3551,36.1017,安阳市,红庙街,颗粒物(PM10),52,54,44,26,21,124,,74,74,1,5,5,5,0.5,0.5
2024-08-15T1000,1820A,114.361,36.0681,安阳市,银杏小区,,,47,40,,19,126,,83,83,1,4,3,2,0.6,0.6
2024-08-15T1000,3141A,114.3922,36.0878,安阳市,信访局,,,49,42,24,20,127,,81,81,,4,,2,0.5,0.7
2024-08-15T1000,3669A,114.4705,36.0637,安阳市,左辅环卫站,颗粒物(PM10),57,64,55,30,27,114,,68,68,3,7,6,6,0.6,0.6
2024-08-15T1000,3703A,114.2917,36.0949,安阳市,安钢职工学校,,40,37,48,28,26,108,,74,74,8,10,6,5,0.4,0.6
2024-08-15T1000,1748A,123.044,41.1196,鞍山市,深沟寺,细颗粒物(PM2.5),65,65,42,47,24,41,,18,18,44,18,5,5,0.9,0.7
2024-08-15T1000,1749A,123.011,41.0931,鞍山市,太阳城,"颗粒物(PM10),细颗粒物(PM2.5)",52,54,36,36,22,37,,18,18,32,14,6,5,0.9,0.7
2024-08-15T1000,1750A,123.0485,41.1442,鞍山市,太平,颗粒物(PM10),74,98,55,52,28,30,,21,21,46,23,8,6,0.9,0.7
2024-08-15T1000,1751A,122.9642,41.0971,鞍山市,铁西三道街,颗粒物(PM10),65,79,67,43,40,47,,19,19,46,35,31,30,2.2,2.4
2024-08-15T1000,1752A,122.9341,41.0833,鞍山市,铁西工业园区,,,,52,,30,39,,27,27,51,24,41,22,3.8,1.8
2024-08-15T1000,1753A,123.022,41.0821,鞍山市,明达新区,颗粒物(PM10),53,55,40,34,22,47,,22,22,29,16,6,4,0.7,0.6
2024-08-15T1000,1754A,123.1289,41.0228,鞍山市,千山,,,,,,,,,,,,,,,,
2024-08-15T1000,2195A,107.4212,40.761,巴彦淖尔市,附二中,颗粒物(PM10),83,116,68,51,29,85,,74,72,23,20,15,11,1.1,0.8
2024-08-15T1000,2196A,107.37,40.7372,巴彦淖尔市,市环保大楼,颗粒物(PM10),85,119,71,43,22,80,,70,67,16,14,5,4,1.1,0.7
2024-08-15T1000,1956A,86.1472,41.7538,巴音郭楞蒙古自治州,孔雀公园,颗粒物(PM10),71,91,81,26,18,70,,83,81,34,23,10,5,0.4,0.3
2024-08-15T1000,1957A,86.1972,41.7166,巴音郭楞蒙古自治州,棉纺厂,颗粒物(PM10),72,93,84,27,22,92,,83,83,18,22,4,4,0.3,0.2
2024-08-15T1000,1958A,86.2357,41.7173,巴音郭楞蒙古自治州,经济开发区,颗粒物(PM10),53,56,77,17,22,102,,109,108,12,8,5,4,0.2,0.2
2024-08-15T1000,2914A,106.7677,31.8794,巴中市,苏山坪,,25,25,26,13,15,69,,78,73,12,7,5,5,0.5,0.4
2024-08-15T1000,3182A,106.7656,31.8545,巴中市,丽阳花园,,23,23,29,13,16,58,,50,47,15,9,3,4,0.6,0.5
2024-08-15T1000,3183A,106.7418,31.8654,巴中市,圣泉水务公司,,20,20,25,12,14,53,,45,41,10,8,3,3,0.6,0.5
2024-08-15T1000,3616A,106.7616,31.8344,巴中市,市中心医院,,22,21,25,13,15,68,,45,44,11,8,4,4,0.6,0.5
2024-08-15T1000,2235A,122.7911,45.6077,白城市,洮北区环保局,,23,14,17,6,6,73,,46,46,8,13,9,9,0.6,0.9
2024-08-15T1000,2236A,122.8738,45.5725,白城市,市环保局,,,13,31,7,8,72,,32,32,,18,,5,0.5,0.5
2024-08-15T1000,2231A,126.4219,41.9171,白山市,喜丰,,40,40,31,15,9,41,,26,26,19,11,8,8,1.1,1
2024-08-15T1000,2232A,126.4077,41.9419,白山市,环保局,,,45,30,14,9,,,17,15,17,13,10,5,0.7,0.7
2024-08-15T1000,2647A,104.1724,36.5446,白银市,第三小学,,,52,42,16,23,,,93,93,,16,,10,1.2,1
2024-08-15T1000,2648A,104.1465,36.5482,白银市,动力公司,,31,27,32,12,19,99,,83,83,8,14,5,6,0.4,0.6
2024-08-15T1000,2512A,106.6103,23.9011,百色市,市监测站,,41,41,40,19,19,50,,18,18,7,12,5,9,0.6,0.7
2024-08-15T1000,2513A,106.6538,23.8859,百色市,市中心血站,,42,42,45,21,24,51,,21,21,9,15,3,9,0.7,0.8
2024-08-15T1000,3406A,106.6085,23.8798,百色市,祈福高中,细颗粒物(PM2.5),55,,43,39,21,49,,23,23,5,11,3,6,0.8,0.8
2024-08-15T1000,2270A,117.396,32.939,蚌埠市,工人疗养院,,43,43,29,19,10,54,,32,32,7,10,7,7,0.4,0.4
2024-08-15T1000,2271A,117.3605,32.9427,蚌埠市,百货大楼,,42,42,27,18,13,61,,35,35,5,7,6,6,0.4,0.4
2024-08-15T1000,2273A,117.4185,32.8911,蚌埠市,蚌埠学院,,39,39,22,24,14,54,,25,25,23,23,10,8,0.5,0.5
2024-08-15T1000,2274A,117.3533,32.9673,蚌埠市,淮上区政府,,31,31,22,20,13,63,,34,34,6,7,6,6,0.6,0.5
2024-08-15T1000,2275A,117.3145,32.8977,蚌埠市,高新区,,,31,22,20,13,79,,44,44,9,11,6,13,,0.5
2024-08-15T1000,3715A,117.3092,32.9314,蚌埠市,蚌埠田家炳中学,,36,36,26,18,12,65,,31,31,6,7,9,9,0.6,0.5
2024-08-15T1000,1585A,109.8756,40.6532,包头市,市环境监测站,,38,33,37,26,17,85,,31,31,22,41,15,12,0.6,0.7
2024-08-15T1000,1587A,109.9991,40.5842,包头市,包头八中,,43,43,38,21,19,89,,38,38,18,33,26,12,0.8,0.7
2024-08-15T1000,1588A,109.8538,40.6821,包头市,青山宾馆,,37,37,36,25,21,93,,34,34,26,38,14,12,0.8,0.9
2024-08-15T1000,1589A,109.8642,40.6288,包头市,惠龙物流,,35,35,33,24,15,93,,36,36,16,30,13,12,0.6,0.7
2024-08-15T1000,1590A,110.0377,40.5546,包头市,东河鸿龙湾,,,,30,,14,,,25,23,14,25,,9,0.8,0.7
2024-08-15T1000,3283A,109.9154,40.5685,包头市,滨河大厦,,35,35,29,22,20,92,,34,34,17,35,17,10,0.7,0.7
2024-08-15T1000,3419A,109.9447,40.6261,包头市,包头市委党校,颗粒物(PM10),51,52,36,24,18,89,,40,40,22,37,16,9,0.7,0.6
2024-08-15T1000,3683A,109.8331,40.6576,包头市,昆区政府,,31,31,31,18,18,88,,48,47,23,29,12,14,0.7,0.8
2024-08-15T1000,1930A,107.185,34.3063,宝鸡市,庙沟村,,25,14,36,13,20,80,,96,88,10,11,7,7,0.4,0.5
2024-08-15T1000,1931A,107.0708,34.3017,宝鸡市,竹园沟,,24,18,41,13,22,76,,52,52,7,13,8,8,0.5,0.6
2024-08-15T1000,1932A,107.1906,34.3672,宝鸡市,三陆医院,,23,19,38,11,22,71,,82,74,18,16,8,10,0.6,0.6
2024-08-15T1000,1933A,107.1431,34.3547,宝鸡市,监测站,,22,,57,15,28,50,,76,66,24,18,7,8,0.5,0.5
2024-08-15T1000,1934A,107.1186,34.3739,宝鸡市,技工学校,,22,15,40,15,26,68,,76,68,14,14,8,9,0.6,0.6
2024-08-15T1000,1935A,107.3906,34.3528,宝鸡市,陈仓区环保局家属楼,,26,18,39,12,20,81,,84,74,11,14,7,8,0.5,0.5
2024-08-15T1000,1936A,107.2058,34.3497,宝鸡市,文理学院,,29,16,41,10,19,92,,88,82,13,15,9,10,0.4,0.5
2024-08-15T1000,1937A,107.2386,34.3622,宝鸡市,三迪小学,,24,19,41,9,30,75,,87,79,19,17,9,11,0.5,0.5
2024-08-15T1000,1051A,115.493,38.8632,保定市,游泳馆,,45,45,40,21,18,94,,75,75,18,18,3,2,0.3,0.4
2024-08-15T1000,1052A,115.5213,38.8959,保定市,华电二区,,36,36,37,8,15,110,,85,85,7,10,4,2,0.3,0.3
2024-08-15T1000,1053A,115.4713,38.9108,保定市,接待中心,,45,45,37,12,17,104,,80,80,3,6,1,1,0.5,0.5
2024-08-15T1000,1054A,115.4612,38.8416,保定市,地表水厂,,43,43,48,19,19,100,,69,69,5,11,2,2,0.5,0.4
2024-08-15T1000,3581A,115.31981,38.95208,保定市,满城区生态环境分局,颗粒物(PM10),52,53,46,27,18,101,,58,58,12,18,4,4,0.4,0.4
2024-08-15T1000,3582A,115.47694,38.76408,保定市,清苑区第二中学,颗粒物(PM10),53,56,49,13,16,92,,64,64,11,14,4,4,0.4,0.4
2024-08-15T1000,3583A,115.62909,39.02311,保定市,徐水物探局,,,,48,,19,,,69,63,14,14,,3,0.2,0.2
2024-08-15T1000,4004A,115.4202,38.8656,保定市,双鹰农机,,,46,45,14,18,,,68,67,8,14,2,2,0.4,0.4
2024-08-15T1000,4034A,115.5150,38.8590,保定市,植保所站,,44,44,41,20,20,113,,80,80,9,12,2,2,0.4,0.5
2024-08-15T1000,2594A,99.1678,25.1081,保山市,市环境监测站,细颗粒物(PM2.5),104,110,57,78,24,71,,55,51,21,10,7,6,1.1,0.5
2024-08-15T1000,2595A,99.1711,25.1328,保山市,市环保局,,,56,57,28,18,,,71,66,14,7,,7,0.7,0.6
2024-08-15T1000,1866A,109.2262,21.588,北海市,牛尾岭水库,,,,,,,,,,,,,,,,
2024-08-15T1000,1867A,109.1436,21.4086,北海市,海滩公园,,,51,23,3,3,,,51,51,14,6,4,4,0.3,0.5
2024-08-15T1000,1868A,109.0981,21.4661,北海市,新市环保局,,15,8,12,7,5,48,,48,48,7,7,2,2,0.5,0.5
2024-08-15T1000,1869A,109.1778,21.5233,北海市,北海工业园,,14,8,22,7,10,44,,22,22,8,10,4,5,0.6,0.6
2024-08-15T1000,3400A,109.1911,21.4415,北海市,龙潭自来水厂,,20,,15,14,9,49,,40,40,6,6,7,6,0.6,0.6
2024-08-15T1000,1001A,116.3621,39.8784,北京市,万寿西宫,颗粒物(PM10),58,65,45,33,26,86,,51,51,17,17,3,3,0.8,0.6
2024-08-15T1000,1002A,116.2202,40.2915,北京市,定陵,,34,34,25,22,14,40,,18,18,19,7,1,1,0.6,0.5
2024-08-15T1000,1003A,116.4174,39.9289,北京市,东四,细颗粒物(PM2.5),64,72,46,46,25,74,,66,61,27,18,2,2,1.0,0.8
2024-08-15T1000,1004A,116.4072,39.8863,北京市,天坛,细颗粒物(PM2.5),65,67,37,47,25,89,,36,36,16,15,3,3,0.7,0.5
2024-08-15T1000,1005A,116.462,39.9365,北京市,农展馆,细颗粒物(PM2.5),62,70,42,44,23,66,,53,50,22,16,3,3,0.8,0.6
2024-08-15T1000,1006A,116.3392,39.9295,北京市,官园,颗粒物(PM10),57,64,45,31,26,35,,58,49,41,17,4,4,0.7,0.5
2024-08-15T1000,1007A,116.2878,39.9611,北京市,海淀万柳,颗粒物(PM10),55,60,39,31,19,56,,24,24,30,24,3,2,0.6,0.5
2024-08-15T1000,1008A,116.6636,40.135,北京市,顺义新城,,33,7,29,3,18,103,,45,45,5,14,3,3,0.4,0.4
2024-08-15T1000,1009A,116.6275,40.3275,北京市,怀柔镇,,29,25,24,17,13,92,,47,47,13,11,5,6,0.6,0.4
2024-08-15T1000,1010A,116.2296,40.217,北京市,昌平镇,,50,50,31,23,15,51,,26,21,25,20,4,4,0.4,0.4
2024-08-15T1000,1011A,116.3966,39.9821,北京市,奥体中心,颗粒物(PM10),59,68,36,40,20,34,,43,32,39,28,3,3,0.5,0.4
2024-08-15T1000,1012A,116.184,39.9136,北京市,古城,颗粒物(PM10),53,56,41,25,18,86,,40,40,20,23,1,1,0.6,0.5
2024-08-15T1000,3281A,115.9718,40.4529,北京市,延庆夏都,,31,29,25,18,16,98,,63,63,2,3,3,3,0.5,0.4
2024-08-15T1000,3417A,117.0709,40.1465,北京市,平谷新城,,42,42,26,24,15,38,,41,41,14,10,3,3,0.5,0.4
2024-08-15T1000,3418A,116.8336,40.4095,北京市,密云新城,,30,23,22,12,11,96,,52,52,3,6,3,3,0.5,0.4
2024-08-15T1000,3671A,116.088,39.9726,北京市,门头沟三家店,,39,39,37,24,19,70,,29,29,16,12,3,3,0.7,0.5
2024-08-15T1000,3672A,116.1541,39.8204,北京市,丰台云岗,颗粒物(PM10),58,66,43,26,20,64,,21,21,15,18,3,3,0.6,0.4
2024-08-15T1000,3673A,116.6804,39.9081,北京市,通州东关,,42,42,48,26,26,93,,46,46,10,20,3,2,0.6,0.6
2024-08-15T1000,3674A,115.9577,39.7603,北京市,房山燕山,颗粒物(PM10),51,51,31,25,16,100,,44,44,13,8,3,3,0.6,0.4
2024-08-15T1000,3675A,116.4672,39.7733,北京市,大兴旧宫,,41,41,40,25,24,80,,52,52,5,7,1,2,0.7,0.6
2024-08-15T1000,3694A,115.986,40.4563,北京市,延庆石河营,,33,33,26,17,15,93,,56,56,4,6,3,3,0.4,0.4
2024-08-15T1000,3695A,116.6151,40.3053,北京市,怀柔新城,,28,20,23,15,15,88,,50,50,6,6,3,3,0.6,0.5
2024-08-15T1000,3696A,116.2545,39.8768,北京市,丰台小屯,颗粒物(PM10),51,51,44,25,22,82,,25,25,17,28,5,5,0.5,0.4
2024-08-15T1000,3697A,116.84,40.3844,北京市,密云镇,,30,22,25,21,13,75,,32,32,7,10,3,3,0.5,0.5
2024-08-15T1000,1761A,123.8275,41.3064,本溪市,大峪,颗粒物(PM10),51,52,45,26,18,68,,23,23,18,17,7,7,1.7,1.2
2024-08-15T1000,1762A,123.7567,41.3325,本溪市,溪湖,颗粒物(PM10),56,62,56,27,20,68,,22,22,14,18,6,6,1.2,1
2024-08-15T1000,1763A,123.7169,41.3094,本溪市,彩屯,颗粒物(PM10),53,55,46,34,27,66,,24,24,19,20,8,6,1.3,1
2024-08-15T1000,1764A,123.7669,41.2864,本溪市,东明,颗粒物(PM10),74,97,61,40,26,73,,25,25,24,22,4,4,1.5,1
2024-08-15T1000,1765A,123.7992,41.2664,本溪市,新立屯,颗粒物(PM10),76,102,54,36,21,72,,26,26,27,23,3,2,1.9,1.4
2024-08-15T1000,1766A,123.8142,41.3472,本溪市,威宁,,42,34,37,29,23,67,,22,22,12,17,8,8,1.2,0.8
2024-08-15T1000,2587A,105.2864,27.3125,毕节市,八中,,44,44,46,30,27,78,,35,35,21,19,12,7,0.6,0.5
2024-08-15T1000,2588A,105.31,27.2944,毕节市,师专,,46,46,39,29,25,70,,39,39,22,17,10,9,0.6,0.5
2024-08-15T1000,3537A,105.3631,27.3533,毕节市,长征村,,,40,36,,26,88,,51,49,,13,13,7,,0.6
2024-08-15T1000,1629A,118.0018,37.3617,滨州市,第二水厂,,36,36,42,17,22,109,,86,86,7,9,3,2,0.5,0.6
2024-08-15T1000,1630A,117.9776,37.393,滨州市,北中新校,,,,45,,21,106,,75,75,6,6,,4,0.5,0.5
2024-08-15T1000,3514A,117.9378,37.3956,滨州市,中海酒店,,48,48,39,29,22,130,,86,86,12,9,8,5,0.4,0.5
2024-08-15T1000,3515A,117.9378,37.3553,滨州市,开发区一中,,49,46,42,34,25,130,,92,92,13,11,8,5,0.5,0.6
2024-08-15T1000,3516A,118.0917,37.694,滨州市,金海六路,,37,27,33,9,13,117,,86,86,7,10,4,2,0.4,0.5
2024-08-15T1000,4028A,117.9956,37.3753,滨州市,滨州市西街道办事处,,38,36,43,24,23,119,,93,93,5,6,4,3,0.5,0.6
2024-08-15T1000,2311A,115.8072,33.8399,亳州市,污水处理厂,,35,35,40,21,28,82,,42,42,8,10,46,14,0.7,0.7
2024-08-15T1000,2312A,115.7789,33.8518,亳州市,三国揽胜宫,,29,27,42,20,31,81,,54,54,7,9,18,11,0.7,0.8
2024-08-15T1000,3332A,115.7633,33.8034,亳州市,亳州学院,,,,32,,24,,,56,52,,7,,2,0.8,0.9
2024-08-15T1000,2693A,82.0485,44.8556,博尔塔拉蒙古自治州,市党校,,25,25,32,3,9,67,,59,58,8,14,6,8,0.3,0.4
2024-08-15T1000,2694A,82.0806,44.8969,博尔塔拉蒙古自治州,市环保局,,29,29,37,9,12,49,,55,55,15,16,6,6,0.5,0.4
2024-08-15T1000,1071A,116.8842,38.2991,沧州市,沧县城建局,,37,23,39,22,20,118,,56,56,7,16,5,5,0.4,0.5
2024-08-15T1000,1072A,116.8584,38.3254,沧州市,电视转播站,,38,28,35,9,20,120,,46,46,7,18,5,4,0.2,0.4
2024-08-15T1000,1073A,116.8709,38.3228,沧州市,市环保局,,37,25,34,8,18,118,,61,61,7,15,4,4,0.3,0.4
2024-08-15T1000,3324A,116.8136,38.3004,沧州市,河北水利电力学院,,,,36,32,27,114,,46,46,,19,,4,0.3,0.5
2024-08-15T1000,2622A,97.1806,31.1273,昌都市,昌都监测站,,14,10,9,3,6,43,,50,47,8,7,5,5,0.4,0.4
2024-08-15T1000,3719A,97.1714,31.1406,昌都市,昌都会议中心,,17,12,10,6,5,53,,56,50,12,5,7,7,0.4,0.3
2024-08-15T1000,2690A,88.1236,43.8886,昌吉回族自治州,天山天池,,26,9,6,3,4,81,,76,72,6,5,7,7,0.5,0.5
2024-08-15T1000,2692A,87.2717,44.0297,昌吉回族自治州,新区政务中心,颗粒物(PM10),78,106,39,10,13,38,,42,42,38,32,9,9,0.7,0.6
2024-08-15T1000,3613A,87.3095,44.0142,昌吉回族自治州,亚心广场,颗粒物(PM10),67,83,41,9,8,37,,44,42,59,34,6,6,0.5,0.4
2024-08-15T1000,1119A,125.3325,43.9166,长春市,食品厂,,,25,28,7,13,,,31,31,12,17,,4,0.3,0.4
2024-08-15T1000,1120A,125.2863,43.9027,长春市,客车厂,,,47,28,10,13,76,,26,26,,21,9,7,,0.4
2024-08-15T1000,1121A,125.2841,43.8463,长春市,邮电学院,,26,26,23,8,10,80,,38,38,16,14,9,6,0.4,0.4
2024-08-15T1000,1122A,125.3716,43.8772,长春市,劳动公园,,29,29,29,7,10,86,,41,41,15,18,7,7,0.6,0.6
2024-08-15T1000,1123A,125.3297,43.8805,长春市,园林处,,26,26,23,9,9,80,,43,43,15,16,4,4,0.4,0.4
2024-08-15T1000,1124A,125.4605,43.79,长春市,净月潭,,32,32,21,11,8,78,,30,30,20,11,6,5,0.4,0.4
2024-08-15T1000,1125A,125.7194,43.515,长春市,甩湾子,,,,,,,,,,,,,,,,
2024-08-15T1000,1126A,125.3863,43.8447,长春市,经开区环卫处,,25,23,25,8,9,79,,35,35,19,17,7,6,0.5,0.5
2024-08-15T1000,1127A,125.245,43.7783,长春市,高新区管委会,,28,25,31,8,14,89,,33,33,12,21,3,3,0.4,0.5
2024-08-15T1000,1128A,125.1761,43.8325,长春市,岱山公园,,25,24,31,11,13,80,,27,27,4,24,3,4,0.3,0.6
2024-08-15T1000,1335A,113.0833,28.2325,长沙市,经开区环保局,,44,44,44,22,20,101,,48,48,10,20,3,3,0.5,0.5
2024-08-15T1000,1336A,112.8872,28.2189,长沙市,高开区环保局,,44,44,47,30,24,102,,63,63,10,16,3,2,0.8,0.8
2024-08-15T1000,1337A,113.0792,28.2053,长沙市,马坡岭,,48,46,44,33,25,114,,47,47,8,18,3,2,0.6,0.6
2024-08-15T1000,1338A,112.9394,28.19,长沙市,湖南师范大学,,,62,52,26,32,106,,56,56,,14,,7,,0.8
2024-08-15T1000,1339A,113.0178,28.1322,长沙市,雨花区环保局,颗粒物(PM10),52,54,47,24,21,80,,40,40,19,20,3,3,0.6,0.5
2024-08-15T1000,1340A,112.9792,28.2597,长沙市,伍家岭,,44,44,48,30,24,106,,34,34,6,20,2,1,0.6,0.7
2024-08-15T1000,1341A,113.0014,28.1944,长沙市,火车新站,,48,48,49,29,28,113,,53,53,8,15,4,3,0.6,0.6
2024-08-15T1000,1342A,112.9844,28.1178,长沙市,天心区环保局,颗粒物(PM10),54,58,54,27,29,106,,40,40,16,23,2,2,0.8,0.8
2024-08-15T1000,1343A,112.8908,28.1308,长沙市,湖南中医药大学,颗粒物(PM10),51,51,49,32,31,131,,56,56,7,16,6,4,0.7,0.7
2024-08-15T1000,1344A,112.9581,28.3611,长沙市,沙坪,,39,28,36,27,26,103,,58,58,8,8,8,7,0.7,0.7
2024-08-15T1000,1727A,113.1147,36.1547,长治市,清华站,,49,41,26,34,18,93,,67,63,12,9,5,4,2.0,0.8
2024-08-15T1000,1728A,113.1031,36.1989,长治市,监测站,,,48,27,29,16,,,72,61,19,13,7,7,,0.8
2024-08-15T1000,1730A,113.0886,36.2125,长治市,审计局,,32,32,23,19,15,75,,75,64,20,10,4,4,0.6,0.5
2024-08-15T1000,1731A,113.0844,36.1856,长治市,长治八中,颗粒物(PM10),51,51,26,29,18,80,,66,57,18,12,6,5,0.9,0.6
2024-08-15T1000,2845A,113.1569,36.1911,长治市,德盛苑,,,36,26,34,18,80,,62,58,13,7,,6,,1
2024-08-15T1000,3568A,113.06,36.0464,长治市,向阳小学,颗粒物(PM10),59,68,50,39,31,87,,58,52,11,10,7,6,1.5,0.8
2024-08-15T1000,3569A,112.8792,36.3144,长治市,屯留一中,,,66,45,44,27,,,99,88,22,10,27,9,1.5,0.8
2024-08-15T1000,3570A,113.235,36.3489,长治市,潞城四中,颗粒物(PM10),53,56,37,30,29,134,,77,77,7,12,4,4,0.8,0.9
2024-08-15T1000,1854A,111.6975,28.9703,常德市,市二中,颗粒物(PM10),53,56,50,35,29,129,,108,108,5,6,9,8,0.6,0.6
2024-08-15T1000,1857A,111.7158,29.1456,常德市,白鹤山,,,,,,,,,,,,,,,,
2024-08-15T1000,3138A,111.7153,29.0289,常德市,武陵区永安,颗粒物(PM10),56,61,52,30,27,122,,107,106,7,6,8,8,0.6,0.6
2024-08-15T1000,3139A,111.6892,28.9881,常德市,鼎城区玉霞,细颗粒物(PM2.5),55,53,52,39,33,125,,109,109,6,6,7,7,0.8,0.7
2024-08-15T1000,3140A,111.6625,29.0531,常德市,武陵区长庚,,,56,52,38,33,130,,99,99,,7,10,8,0.7,0.6
2024-08-15T1000,1196A,119.9633,31.762,常州市,市监测站,,33,33,24,13,15,104,,76,76,13,13,7,6,0.6,0.5
2024-08-15T1000,1200A,119.9468,31.7069,常州市,武进监测站,,35,24,27,18,16,110,,78,78,10,13,6,6,0.7,0.7
2024-08-15T1000,1201A,119.9255,31.9087,常州市,安家,,27,27,24,16,16,86,,63,63,8,14,4,4,0.6,0.7
2024-08-15T1000,3002A,119.9805,31.8174,常州市,行政中心,,35,,26,24,20,102,,66,66,12,15,7,6,0.5,0.4
2024-08-15T1000,3003A,120.0522,31.7748,常州市,经开区,,26,23,24,15,14,81,,48,48,14,21,8,7,0.2,0.2
2024-08-15T1000,3010A,119.9025,31.7964,常州市,钟楼,,,30,21,16,15,99,,67,67,10,12,,8,0.3,0.4
2024-08-15T1000,3429A,119.8598,31.7066,常州市,武进经发区,,35,29,24,17,13,109,,76,76,13,14,10,10,0.7,0.7
2024-08-15T1000,3430A,119.5826,31.7245,常州市,金坛城区,,38,32,24,18,15,120,,68,68,12,13,9,7,1.0,0.8
2024-08-15T1000,2220A,120.4318,41.5881,朝阳市,西梁,,31,31,24,12,11,56,,22,22,12,11,8,5,0.5,0.5
2024-08-15T1000,2221A,120.4521,41.5646,朝阳市,河畔小区,,39,39,22,10,10,63,,22,22,10,10,9,8,0.6,0.6
2024-08-15T1000,2222A,120.4176,41.5648,朝阳市,八里堡,,40,40,30,14,12,58,,22,22,20,15,7,6,0.7,0.6
2024-08-15T1000,2223A,120.3806,41.5969,朝阳市,农业园区,,30,30,28,15,12,65,,22,22,9,11,10,8,0.6,0.6
2024-08-15T1000,1705A,116.6367,23.6719,潮州市,西园路,,44,44,27,6,13,24,,20,18,18,10,6,4,0.6,0.3
2024-08-15T1000,3026A,116.6183,23.6608,潮州市,市政府,颗粒物(PM10),57,63,32,14,12,47,,28,28,22,11,33,11,0.9,0.6
2024-08-15T1000,4036A,116.6461,23.6761,潮州市,金山,,23,23,20,12,11,36,,27,25,8,8,6,6,0.7,0.6
2024-08-15T1000,2472A,113.0073,25.9061,郴州市,马头岭,颗粒物(PM10),62,73,20,8,6,79,,55,55,8,5,8,7,0.3,0.2
2024-08-15T1000,2473A,113.0116,25.8226,郴州市,市职中,,,,13,,10,,,42,40,,4,7,6,0.5,0.4
2024-08-15T1000,2474A,113.0161,25.8001,郴州市,兴隆步行街,,28,20,16,15,11,89,,64,64,7,6,5,5,0.7,0.6
2024-08-15T1000,2475A,113.0383,25.8071,郴州市,市审计局,,26,16,12,14,10,82,,60,60,6,6,4,3,0.5,0.5
2024-08-15T1000,2476A,113.0348,25.7759,郴州市,市环保局,,30,24,16,21,13,83,,62,62,10,10,3,2,0.6,0.6
2024-08-15T1000,1431A,103.9728,30.7236,成都市,金泉两河,,35,35,54,6,26,100,,118,118,10,9,3,3,0.5,0.5
2024-08-15T1000,1432A,104.176,30.6872,成都市,十里店,,45,45,59,9,31,100,,112,112,16,14,4,5,0.6,0.6
2024-08-15T1000,1433A,104.079,30.5706,成都市,三瓦窑,,49,41,54,34,30,120,,120,120,20,26,2,2,0.5,0.5
2024-08-15T1000,1434A,104.1114,30.63,成都市,沙河铺,颗粒物(PM10),54,58,61,29,29,112,,126,126,20,19,4,5,0.5,0.5
2024-08-15T1000,1437A,104.0786,30.6531,成都市,君平街,,37,26,62,23,32,116,,130,130,15,20,4,4,0.6,0.5
2024-08-15T1000,1438A,103.613,31.0283,成都市,灵岩寺,,,,,,,,,,,,,,,,
2024-08-15T1000,2880A,104.0239,30.65639,成都市,大石西路,,49,49,56,25,28,98,,114,114,17,19,6,6,0.5,0.6
2024-08-15T1000,3136A,104.2725,30.5589,成都市,龙泉驿区区政府,,38,36,50,24,23,121,,114,114,18,15,5,5,0.5,0.5
2024-08-15T1000,3357A,104.0106,30.6931,成都市,金博路,,34,34,56,15,27,92,,109,109,13,15,3,7,0.4,0.5
2024-08-15T1000,3359A,104.0578,30.5225,成都市,华阳,,42,39,53,29,33,119,,121,120,12,13,3,4,0.7,0.6
2024-08-15T1000,3487A,104.2394,30.5319,成都市,车城东七路,,50,50,66,22,27,129,,122,122,17,19,3,3,0.5,0.5
2024-08-15T1000,3488A,104.3853,30.7453,成都市,青白江技师分院,,38,33,45,16,23,120,,117,116,16,18,4,5,0.6,0.6
2024-08-15T1000,3489A,104.0789,30.4072,成都市,科学城,,40,37,58,24,32,128,,128,126,13,11,3,4,0.4,0.4
2024-08-15T1000,4011A,103.8506,30.6947,成都市,光华大道三段,,,78,51,25,21,,,121,120,18,12,3,3,0.6,0.6
2024-08-15T1000,1062A,117.9531,40.9081,承德市,铁路,,28,28,26,16,13,59,,31,31,24,23,8,7,0.4,0.4
2024-08-15T1000,1063A,117.9392,40.9763,承德市,中国银行,,20,20,23,9,8,58,,25,25,17,12,4,3,0.4,0.4
2024-08-15T1000,1064A,117.9503,40.928,承德市,开发区,,36,36,28,15,10,58,,31,31,21,13,7,5,0.4,0.4
2024-08-15T1000,1065A,117.8051,40.9655,承德市,文化中心,,19,19,23,3,8,60,,54,48,12,12,5,5,0.3,0.3
2024-08-15T1000,1066A,117.9268,41.0026,承德市,离宫,,30,30,27,3,6,47,,14,14,7,6,3,3,0.4,0.4
2024-08-15T1000,2314A,117.47,30.6618,池州市,池州学院,,,27,24,13,15,,,53,53,9,12,,6,1.1,0.9
2024-08-15T1000,3237A,117.4918,30.6617,池州市,展览馆,,34,30,24,15,12,107,,63,63,8,9,6,5,0.9,0.7
2024-08-15T1000,3333A,117.5627,30.695,池州市,第八中学,,29,26,22,16,16,91,,53,53,12,11,5,4,0.8,0.6
2024-08-15T1000,3334A,117.5038,30.6243,池州市,第十二中学,,30,27,20,16,14,96,,58,58,9,11,5,4,1.1,0.9
2024-08-15T1000,1744A,118.9233,42.2816,赤峰市,松山一中,,38,38,30,14,8,28,,15,15,27,24,9,9,0.9,0.8
2024-08-15T1000,1745A,118.9576,42.2728,赤峰市,哈达街,,28,28,23,15,9,26,,13,13,17,17,8,9,0.6,0.6
2024-08-15T1000,1746A,118.8788,42.2554,赤峰市,天义路,,29,24,20,20,15,34,,18,18,26,24,11,11,0.6,0.7
2024-08-15T1000,3058A,119.2658,42.0353,赤峰市,银河街,颗粒物(PM10),56,61,25,27,12,41,,15,15,25,18,52,21,0.7,0.5
2024-08-15T1000,3286A,118.9359,42.3147,赤峰市,桥北物流园区,,,25,16,10,10,,,8,8,27,21,,7,0.9,0.8
2024-08-15T1000,2521A,107.3476,22.4136,崇左市,市环保局江州分局,,,22,21,11,8,,,12,10,6,7,,5,0.6,0.6
2024-08-15T1000,2522A,107.3702,22.3707,崇左市,城南新区,,16,16,20,10,8,30,,19,18,5,6,3,4,0.7,0.6
2024-08-15T1000,2298A,118.3093,32.3153,滁州市,老年大学,,34,24,24,10,15,106,,73,73,6,9,6,6,0.3,0.4
2024-08-15T1000,2299A,118.3244,32.2786,滁州市,人大宾馆,,37,31,31,13,20,118,,72,72,10,11,7,6,0.5,0.6
2024-08-15T1000,3207A,118.3118,32.3038,滁州市,市政府原办公楼,,32,22,22,19,19,101,,70,70,11,9,7,7,0.7,0.7
2024-08-15T1000,3331A,118.3267,32.2634,滁州市,图书馆,,38,32,29,13,19,120,,70,70,6,9,7,5,0.5,0.5
2024-08-15T1000,2605A,101.5482,25.0441,楚雄彝族自治州,州环境监测站,,50,46,40,35,27,73,,32,28,20,21,9,6,0.7,0.6
2024-08-15T1000,2606A,101.538,25.0492,楚雄彝族自治州,市经济开发区,,40,40,42,28,26,55,,31,24,23,21,9,7,0.8,0.6
2024-08-15T1000,2548A,107.5277,31.2827,达州市,达州职业技术学院,,42,42,36,17,12,60,,40,37,6,7,11,7,0.6,0.6
2024-08-15T1000,2549A,107.5086,31.2186,达州市,市环境监测站,,45,45,31,17,10,51,,50,40,29,20,10,8,0.5,0.6
2024-08-15T1000,2550A,107.4988,31.2132,达州市,凤凰小区,,,,30,,13,64,,61,53,,16,10,8,0.5,0.6
2024-08-15T1000,2551A,107.5082,31.1986,达州市,达县机关宾馆,,44,44,34,7,11,58,,54,44,23,25,8,6,0.4,0.4
2024-08-15T1000,2552A,107.4644,31.2124,达州市,市政中心,,40,40,37,14,12,53,,69,57,25,18,9,6,0.8,0.7
2024-08-15T1000,2614A,100.1542,25.7054,大理白族自治州,大理市环境监测站,,35,35,37,24,23,99,,111,104,11,10,4,4,0.5,0.6
2024-08-15T1000,2615A,100.2171,25.5811,大理白族自治州,大理古城,,49,49,42,17,22,94,,88,87,10,14,7,7,0.7,0.6
2024-08-15T1000,1109A,121.612,38.9741,大连市,甘井子,,,64,40,43,26,105,,64,64,23,17,,8,0.7,0.7
2024-08-15T1000,1110A,121.565,38.9511,大连市,周水子,,43,39,38,30,25,96,,66,66,18,15,10,7,1.1,0.8
2024-08-15T1000,1111A,121.5637,38.8845,大连市,星海三站,,46,44,39,32,24,105,,72,72,14,10,11,7,0.9,0.6
2024-08-15T1000,1112A,121.6302,38.9117,大连市,青泥洼桥,,,63,48,33,29,,,57,54,,14,7,7,1.2,0.9
2024-08-15T1000,1113A,121.6251,38.8638,大连市,傅家庄,,42,41,38,29,29,114,,75,75,18,15,9,6,1.0,0.7
2024-08-15T1000,1114A,121.5213,38.8661,大连市,七贤岭,,41,41,40,27,25,104,,73,73,16,12,9,7,0.7,0.5
2024-08-15T1000,1115A,121.2529,38.8061,大连市,旅顺,,34,29,28,18,17,106,,77,77,9,10,8,8,0.6,0.6
2024-08-15T1000,1116A,121.7485,39.1311,大连市,金州,,,44,36,38,29,92,,49,49,,13,15,8,,0.7
2024-08-15T1000,1117A,121.7811,39.0496,大连市,开发区,颗粒物(PM10),51,52,52,31,31,108,,60,60,16,17,12,10,0.8,0.6
2024-08-15T1000,1118A,121.9762,39.0631,大连市,双D港,颗粒物(PM10),53,56,44,25,29,107,,66,66,14,13,8,7,0.9,0.7
2024-08-15T1000,1789A,124.81117,46.03138,大庆市,大同区,,23,16,30,16,19,70,,29,29,4,15,8,8,0.4,0.5
2024-08-15T1000,1790A,125.129,46.533,大庆市,龙凤区,,30,30,42,7,11,77,,33,33,18,19,4,4,0.5,0.5
2024-08-15T1000,1791A,124.902,46.408,大庆市,红岗区,,30,29,26,21,14,88,,38,38,8,14,8,8,0.4,0.5
2024-08-15T1000,1792A,125.153,46.586,大庆市,萨尔图区,,31,31,23,9,12,69,,40,40,11,13,5,5,0.1,0.1
2024-08-15T1000,1793A,124.9042,46.6215,大庆市,让胡路区,,26,22,30,11,10,83,,26,26,14,18,5,5,0.3,0.3
2024-08-15T1000,3481A,125.141,46.634,大庆市,萨区政府监测点,,,,30,,8,58,,25,25,,14,,6,0.3,0.3
2024-08-15T1000,1721A,113.3819,40.1097,大同市,果树场,,,,,,,,,,,,,,,,
2024-08-15T1000,1723A,113.2994,40.0758,大同市,云冈宾馆,,49,49,42,24,18,104,,60,60,18,21,16,11,1.0,0.9
2024-08-15T1000,1724A,113.3444,40.0917,大同市,大同大学,,41,41,31,19,18,97,,45,45,19,21,19,12,1.4,0.6
2024-08-15T1000,1725A,113.2661,40.1269,大同市,安家小村,,44,44,46,12,15,101,,36,36,14,24,20,12,1.1,0.8
2024-08-15T1000,1726A,113.2711,40.0844,大同市,教育学院,,42,42,44,16,18,100,,54,54,22,27,18,13,0.8,0.7
2024-08-15T1000,3282A,113.3397,40.0597,大同市,大同市卫生学校,,,46,39,29,20,,,52,50,23,21,16,11,1.2,0.8
2024-08-15T1000,3565A,113.1367,40.1122,大同市,云冈站,,35,35,40,8,17,106,,41,41,11,26,12,12,0.6,0.5
2024-08-15T1000,3566A,113.1186,40.2556,大同市,图书馆,,31,24,30,9,16,99,,40,40,12,12,15,9,0.7,0.6
2024-08-15T1000,3567A,113.5931,40.0461,大同市,区一中,,,57,28,31,10,,,43,39,21,11,,9,1.1,0.7
2024-08-15T1000,3676A,113.2802,40.0995,大同市,第二人民医院,颗粒物(PM10),53,55,47,22,20,102,,48,48,17,23,21,13,1.3,0.9
2024-08-15T1000,2269A,124.1069,50.4097,大兴安岭地区,科技局,,,22,24,7,10,97,,21,21,,4,,3,0.1,0.1
2024-08-15T1000,3663A,124.1164,50.4278,大兴安岭地区,红旗社区,,22,17,20,15,18,42,,10,10,8,9,6,6,0.4,0.4
2024-08-15T1000,1600A,124.3303,40.0625,丹东市,江湾东路,细颗粒物(PM2.5),52,45,64,36,26,60,,30,30,6,11,8,4,0.8,0.8
2024-08-15T1000,1601A,124.4256,40.1503,丹东市,临江后街,,32,32,34,18,17,60,,28,28,2,8,5,4,0.6,0.7
2024-08-15T1000,1602A,124.3933,40.1461,丹东市,元宝山,,38,38,39,19,20,58,,25,25,4,6,3,2,0.7,0.8
2024-08-15T1000,1603A,124.3633,40.1092,丹东市,民主桥,,44,44,39,23,19,57,,24,24,6,11,1,2,0.6,0.7
2024-08-15T1000,3541A,109.5726,19.5167,儋州市,第一中学子站,,,16,16,8,8,,,15,11,,4,,3,,0.5
2024-08-15T1000,3542A,109.5567,19.5187,儋州市,东坡学校子站,,19,19,13,12,9,31,,16,15,4,4,8,7,0.6,0.5
2024-08-15T1000,2616A,98.5842,24.428,德宏傣族景颇族自治州,德宏州监测站,,,41,40,22,22,,,37,31,13,10,14,9,1.0,0.8
2024-08-15T1000,3677A,98.5881,24.4368,德宏傣族景颇族自治州,芒市人民政府综合楼,,39,36,36,27,24,28,,31,25,15,10,12,9,0.9,0.7
2024-08-15T1000,1901A,104.4239,31.1208,德阳市,东山公园,,,33,62,17,24,,,122,113,10,13,2,6,,0.6
2024-08-15T1000,1902A,104.3826,31.1317,德阳市,西小区,,31,31,57,17,30,90,,116,104,18,14,2,11,0.6,0.7
2024-08-15T1000,1904A,104.3553,31.1091,德阳市,耐火材料厂,,30,30,57,19,26,92,,114,99,11,14,14,10,0.6,0.6
2024-08-15T1000,3639A,104.4019,31.1244,德阳市,市教育局,,32,32,56,13,25,99,,119,108,9,12,1,9,0.6,0.6
2024-08-15T1000,1622A,116.3032,37.4674,德州市,儿童乐园,颗粒物(PM10),58,66,47,31,20,113,,65,65,12,16,10,9,0.7,0.6
2024-08-15T1000,1624A,116.2991,37.4451,德州市,监理站,颗粒物(PM10),56,61,40,27,20,114,,80,80,12,12,9,9,0.7,0.6
2024-08-15T1000,3066A,116.2721,37.4379,德州市,九衢泉纯净水厂,颗粒物(PM10),54,58,42,36,22,110,,83,83,10,10,9,9,0.7,0.6
2024-08-15T1000,3371A,116.3728,37.4403,德州市,开发区人民医院,颗粒物(PM10),53,56,44,27,19,105,,64,64,10,15,11,10,0.8,0.7
2024-08-15T1000,3372A,116.3572,37.4094,德州市,太阳城中学,颗粒物(PM10),51,51,39,34,22,109,,73,73,10,13,11,10,0.7,0.7
2024-08-15T1000,3511A,116.5652,37.3319,德州市,陵城艺术中心,颗粒物(PM10),52,53,43,22,18,110,,64,64,8,11,8,8,0.6,0.6
2024-08-15T1000,2621A,99.7056,27.8317,迪庆藏族自治州,迪庆州站,,34,17,31,12,16,107,,104,104,14,16,9,11,0.5,0.4
2024-08-15T1000,3180A,99.7136,27.8094,迪庆藏族自治州,质量技术监督局,,29,12,28,6,13,92,,98,98,24,16,8,8,0.3,0.3
2024-08-15T1000,2663A,104.6241,35.5734,定西市,东关小学,,45,45,28,30,20,55,,22,22,20,18,10,9,0.3,0.3
2024-08-15T1000,2664A,104.6194,35.5934,定西市,供电公司,,49,46,31,34,22,55,,16,16,20,25,6,5,0.3,0.3
2024-08-15T1000,1389A,113.7547,23.0494,东莞市,莞城梨川,,45,45,32,31,21,48,,20,20,27,29,6,6,0.9,0.8
2024-08-15T1000,1390A,113.7944,23.0128,东莞市,东城石井,细颗粒物(PM2.5),64,65,40,46,22,57,,17,17,33,25,8,5,0.8,0.7
2024-08-15T1000,1391A,113.7383,22.9658,东莞市,南城西平,颗粒物(PM10),61,72,40,43,23,56,,15,15,37,36,5,5,0.9,0.8
2024-08-15T1000,3319A,113.7338,23.0381,东莞市,万江金泰,,50,50,34,31,21,48,,16,16,23,27,5,5,0.9,0.8
2024-08-15T1000,3626A,113.7533,23.0202,东莞市,南城元岭,细颗粒物(PM2.5),58,62,36,41,22,54,,18,18,27,25,6,6,0.9,0.8
2024-08-15T1000,3627A,113.7875,23.0457,东莞市,东城主山,颗粒物(PM10),54,58,27,32,12,52,,17,17,20,23,7,7,0.9,0.8
2024-08-15T1000,1666A,118.6614,37.4309,东营市,市环保局,,36,17,30,9,16,113,,102,101,6,7,3,3,0.2,0.3
2024-08-15T1000,3036A,118.6904,37.4338,东营市,开发区管委会,,36,21,36,7,16,115,,102,100,4,5,1,2,0.2,0.3
2024-08-15T1000,3365A,118.5719,37.565,东营市,垦利区民丰路,,32,22,32,12,18,102,,86,86,3,5,7,6,0.2,0.2
2024-08-15T1000,3498A,118.5055,37.8612,东营市,河口城区,,38,19,29,7,15,121,,86,86,10,7,5,6,0.5,0.5
2024-08-15T1000,3646A,118.4978,37.4623,东营市,胜利站,,36,19,30,3,15,113,,92,92,5,6,6,5,0.3,0.4
2024-08-15T1000,3734A,118.35,37.26,东营市,理想之城,,30,24,30,7,19,96,,78,78,6,6,5,2,0.5,0.5
2024-08-15T1000,1591A,110.0023,39.8129,鄂尔多斯市,综合楼,,39,39,29,17,12,94,,74,72,23,21,10,8,0.8,0.7
2024-08-15T1000,1592A,109.9486,39.8261,鄂尔多斯市,巴音孟克林场办事处,,39,39,29,17,12,93,,76,73,21,17,9,6,0.8,0.8
2024-08-15T1000,1593A,109.7736,39.5986,鄂尔多斯市,康泽苑,,35,34,26,24,17,62,,41,41,18,14,5,6,0.5,0.5
2024-08-15T1000,1594A,109.8119,39.5989,鄂尔多斯市,华泰汽车城,,,,23,,16,,,59,,,12,,5,,0.4
2024-08-15T1000,1595A,109.9734,39.7884,鄂尔多斯市,奥林花园,,36,36,28,17,14,80,,47,47,18,23,5,5,0.6,0.6
2024-08-15T1000,2436A,114.8938,30.3994,鄂州市,市政府,,32,32,29,13,9,94,,72,72,10,8,6,7,0.3,0.4
2024-08-15T1000,2437A,114.8989,30.3714,鄂州市,赵家坝,,30,28,29,8,9,96,,66,66,12,9,9,9,0.7,0.6
2024-08-15T1000,3654A,114.8094,30.4089,鄂州市,精准医疗中心,,35,35,29,10,10,100,,68,68,5,8,6,6,0.6,0.6
2024-08-15T1000,2454A,109.4978,30.2981,恩施土家族苗族自治州,湖北民院,,34,34,27,16,20,91,,67,66,20,14,8,8,0.7,0.6
2024-08-15T1000,2455A,109.4707,30.2798,恩施土家族苗族自治州,州电力总公司,,39,39,30,12,20,78,,44,44,22,21,6,6,0.6,0.6
2024-08-15T1000,3549A,109.5061,30.3772,恩施土家族苗族自治州,龙凤新区,,33,24,22,23,17,91,,66,66,9,8,7,7,0.6,0.6
2024-08-15T1000,2499A,108.3411,21.6158,防城港市,沙万,,,13,19,6,9,38,,29,29,9,10,,7,0.6,0.6
2024-08-15T1000,2500A,108.3514,21.7731,防城港市,防城档案局,,12,,40,7,12,36,,14,14,11,14,6,6,0.6,0.7
2024-08-15T1000,2501A,108.3506,21.6414,防城港市,大海花园,,12,8,18,3,6,36,,25,25,9,10,6,6,0.5,0.6
2024-08-15T1000,1371A,113.1294,23.0067,佛山市,湾梁,,23,,23,16,18,43,,12,12,24,42,6,7,0.7,0.8
2024-08-15T1000,1372A,113.1083,23.0478,佛山市,华材职中,,27,27,29,18,20,25,,7,7,38,40,6,6,0.5,0.6
2024-08-15T1000,1373A,113.144,23.0453,佛山市,南海气象局,,38,38,30,16,16,23,,6,6,30,34,4,4,0.6,0.6
2024-08-15T1000,1374A,113.2881,22.8094,佛山市,顺德苏岗,,18,18,17,7,13,37,,7,7,20,31,6,6,0.7,0.7
2024-08-15T1000,1376A,112.8383,22.8678,佛山市,高明孔堂,颗粒物(PM10),53,56,35,28,16,7,,5,5,40,24,8,8,1.0,0.7
2024-08-15T1000,1377A,112.8836,23.1588,佛山市,三水监测站,,42,39,27,29,21,38,,16,16,26,28,7,4,0.7,0.6
2024-08-15T1000,1378A,112.867,23.185,佛山市,三水云东海,,50,,27,35,22,39,,9,9,20,26,11,8,0.7,0.6
2024-08-15T1000,3625A,113.2544,22.7642,佛山市,容桂街道办,,14,6,21,3,14,43,,9,9,16,39,5,6,0.6,0.7
2024-08-15T1000,1280A,119.3903,26.0543,福州市,鼓山,,,,,,,,,,,,,,,,
2024-08-15T1000,1282A,119.2681,26.0504,福州市,师大,,,,20,9,8,,,32,31,,9,4,4,0.6,0.6
2024-08-15T1000,1283A,119.2984,26.1028,福州市,五四北路,,,,13,14,12,62,,41,41,10,12,3,3,0.5,0.5
2024-08-15T1000,1284A,119.2648,26.0768,福州市,杨桥西路,,27,27,22,9,8,63,,35,35,9,11,3,3,0.4,0.4
2024-08-15T1000,1285A,119.317,26.0746,福州市,紫阳,,33,33,21,13,10,50,,41,40,15,14,4,4,0.5,0.5
2024-08-15T1000,3048A,119.5799,26.0936,福州市,九龙,,34,34,24,23,15,76,,34,34,5,9,8,6,0.4,0.2
2024-08-15T1000,3526A,119.5189,25.9664,福州市,吴航,,31,31,28,16,16,39,,23,23,18,16,6,6,0.7,0.7
2024-08-15T1000,1755A,123.7977,41.8491,抚顺市,望花区,,39,39,31,21,19,50,,20,20,16,14,7,7,0.6,0.5
2024-08-15T1000,1756A,123.9161,41.8822,抚顺市,顺城区,,31,31,27,15,15,54,,20,20,9,15,5,3,0.5,0.4
2024-08-15T1000,1757A,124.0436,41.8611,抚顺市,东洲区,,19,,20,13,14,47,,25,25,2,8,3,2,0.4,0.4
2024-08-15T1000,1758A,123.9247,41.8642,抚顺市,新抚区,,18,18,25,11,16,52,,20,20,12,15,6,6,0.4,0.5
2024-08-15T1000,1759A,124.0972,41.8961,抚顺市,大伙房水库,,18,18,21,12,15,53,,27,27,4,12,3,3,0.5,0.7
2024-08-15T1000,1760A,123.7086,41.8391,抚顺市,沈抚新城,,43,,34,30,16,47,,21,21,21,13,12,6,0.9,0.2
2024-08-15T1000,2376A,116.2127,28.0814,抚州市,桐源党溪,,28,26,29,13,17,87,,53,53,2,4,10,6,0.9,0.8
2024-08-15T1000,2377A,116.3544,27.9831,抚州市,市站,,,38,27,22,16,,,52,47,6,5,4,5,1.0,0.7
2024-08-15T1000,2378A,116.3565,27.963,抚州市,血防站,,39,39,29,23,15,63,,44,44,4,5,2,5,0.5,0.5
2024-08-15T1000,2379A,116.3564,28.0007,抚州市,采茶剧团,,30,30,26,18,16,62,,49,46,9,5,5,6,1.0,0.9
2024-08-15T1000,2380A,116.385,27.9647,抚州市,医学分院,,40,40,30,18,15,64,,48,48,6,7,4,4,0.9,0.8
2024-08-15T1000,2207A,121.6094,41.998,阜新市,工业园区,,34,34,26,11,9,77,,25,25,13,20,10,4,0.6,0.7
2024-08-15T1000,2208A,121.6697,42.0279,阜新市,长青街,,41,41,25,9,9,65,,29,29,11,12,18,6,0.5,0.8
2024-08-15T1000,2209A,121.6673,42.0705,阜新市,农业园区,,27,27,22,3,5,69,,48,48,7,10,3,4,0.5,1.1
2024-08-15T1000,2210A,121.6717,42.0224,阜新市,东苑,颗粒物(PM10),55,60,29,12,11,72,,38,38,10,13,4,4,0.8,1.1
2024-08-15T1000,2211A,121.6506,42.0498,阜新市,玉龙新城,,24,18,22,9,10,76,,30,30,1,13,4,4,0.4,0.8
2024-08-15T1000,2301A,115.8277,32.8929,阜阳市,市监测站,,30,30,28,6,14,73,,53,53,11,10,8,7,0.6,0.5
2024-08-15T1000,2303A,115.8554,32.8605,阜阳市,开发区,,,22,27,16,19,71,,47,47,,10,,4,0.5,0.4
2024-08-15T1000,2875A,115.784,32.8892,阜阳市,阜阳职业技术学院,,36,36,27,15,15,72,,54,54,14,11,8,7,0.5,0.5
2024-08-15T1000,3468A,115.7901,32.8613,阜阳市,市规划展馆,,,47,34,32,23,,,69,66,12,10,8,7,,0.6
2024-08-15T1000,3469A,115.836,32.9183,阜阳市,枣园社区,,41,41,36,25,26,64,,35,35,21,19,5,4,0.6,0.5
2024-08-15T1000,2669A,102.9099,34.9841,甘南藏族自治州,州政府,,30,30,24,19,14,46,,17,17,12,16,7,6,0.4,0.3
2024-08-15T1000,3380A,102.8914,34.9617,甘南藏族自治州,甘肃民族师范学院,,16,10,24,3,7,50,,15,15,12,17,4,4,0.4,0.4
2024-08-15T1000,2570A,101.9603,30.0475,甘孜藏族自治州,水桥子,,30,30,23,16,13,16,,68,44,36,11,5,4,0.5,0.3
2024-08-15T1000,3065A,101.9533,29.9972,甘孜藏族自治州,州环保局,,20,20,29,6,10,20,,66,48,38,17,3,2,0.3,0.2
2024-08-15T1000,3414A,115.8347,28.932,赣江新区,桑海产业园,,29,7,12,6,10,92,,66,66,8,14,8,8,0.2,0.3
2024-08-15T1000,2362A,114.9017,25.9149,赣州市,通天岩,,,,,,,,,,,,,,,,
2024-08-15T1000,2363A,114.9367,25.8664,赣州市,地委,,30,27,21,21,13,42,,27,26,12,11,11,7,0.9,0.8
2024-08-15T1000,2364A,114.9461,25.8481,赣州市,气象台,,34,34,24,16,13,34,,32,29,10,8,11,8,1.0,0.8
2024-08-15T1000,2365A,114.9322,25.8333,赣州市,市图书馆,,34,34,21,15,10,40,,34,30,10,8,4,5,1.1,0.9
2024-08-15T1000,2366A,114.8905,25.8471,赣州市,华坚鞋城,,29,29,24,14,11,37,,21,21,8,9,19,7,0.5,0.4
2024-08-15T1000,3109A,115.0093,25.8613,赣州市,赣县区卫计委,,28,28,21,9,10,56,,35,35,16,14,5,6,0.6,0.6
2024-08-15T1000,2683A,106.2319,36.1417,固原市,马园,颗粒物(PM10),62,74,56,27,10,94,,34,34,8,18,5,5,0.7,0.7
2024-08-15T1000,2684A,106.2792,36.0022,固原市,监测站,颗粒物(PM10),119,187,50,28,29,102,,71,71,8,12,4,4,0.2,0.3
2024-08-15T1000,2685A,106.2375,36.0211,固原市,新区,颗粒物(PM10),122,193,50,23,31,95,,56,56,6,13,8,7,0.3,0.4
2024-08-15T1000,3522A,106.2177,35.9959,固原市,原州区十五小,颗粒物(PM10),91,132,51,33,25,96,,66,66,8,16,8,8,0.5,0.6
2024-08-15T1000,2543A,106.6308,30.5278,广安市,小平旧居,,,,,,,,,,,,,,,,
2024-08-15T1000,2544A,106.6303,30.4576,广安市,市委,,40,40,48,23,28,84,,70,70,14,15,5,7,0.5,0.5
2024-08-15T1000,2545A,106.6271,30.4663,广安市,友谊中学,,,31,43,20,26,,,62,62,15,16,5,6,0.5,0.5
2024-08-15T1000,2547A,106.6388,30.4551,广安市,广电花园,,49,49,51,26,28,83,,62,62,12,13,9,10,0.4,0.4
2024-08-15T1000,2902A,106.6351,30.4865,广安市,北辰小学,,47,47,51,16,28,89,,69,69,9,11,6,7,0.4,0.4
2024-08-15T1000,2523A,105.8945,32.4535,广元市,黑石坡,,28,11,17,7,9,89,,55,55,6,9,6,7,0.3,0.4
2024-08-15T1000,2524A,105.821,32.4444,广元市,老城,,26,14,33,3,13,81,,68,68,16,18,3,6,0.3,0.5
2024-08-15T1000,2526A,105.8628,32.4287,广元市,监测站,,29,11,26,7,14,90,,82,82,10,11,1,4,0.5,0.6
2024-08-15T1000,3617A,105.8047,32.4166,广元市,经开区,,22,21,44,13,24,68,,79,79,24,15,2,10,0.5,0.6
2024-08-15T1000,1345A,113.2347,23.1423,广州市,广雅中学,,24,24,34,16,19,47,,12,12,30,43,6,5,0.5,0.6
2024-08-15T1000,1346A,113.2612,23.105,广州市,市五中,,33,27,27,23,22,39,,18,18,33,35,4,4,0.8,0.8
2024-08-15T1000,1348A,113.3478,23.0916,广州市,广东商学院,,38,35,25,26,17,34,,12,12,36,38,5,3,0.6,0.6
2024-08-15T1000,1349A,113.4332,23.1047,广州市,市八十六中,,41,41,30,22,16,27,,11,11,43,44,5,4,0.8,0.7
2024-08-15T1000,1350A,113.3505,22.9483,广州市,番禺中学,,46,46,28,28,15,28,,13,13,52,35,5,4,0.7,0.6
2024-08-15T1000,1351A,113.2146,23.3916,广州市,花都师范,,,31,27,13,15,,,25,25,31,27,6,7,0.9,0.8
2024-08-15T1000,1352A,113.2597,23.1331,广州市,市监测站,,22,22,28,14,17,36,,12,12,29,38,5,5,0.7,0.7
2024-08-15T1000,1353A,113.5618,23.312,广州市,九龙镇镇龙,,20,20,26,14,16,34,,14,14,10,25,6,6,0.6,0.6
2024-08-15T1000,1354A,113.2765,23.1544,广州市,麓湖,,20,20,28,13,16,38,,8,8,25,34,4,4,0.6,0.7
2024-08-15T1000,1355A,113.443,23.3035,广州市,帽峰山森林公园,,19,18,20,13,11,24,,24,21,13,13,3,4,0.3,0.4
2024-08-15T1000,2846A,113.3221,23.1322,广州市,体育西,,26,26,27,18,19,44,,15,15,20,27,6,5,0.7,0.7
2024-08-15T1000,3298A,113.5717,23.5491,广州市,从化街口,,16,16,27,9,16,45,,16,16,9,22,6,7,0.6,0.6
2024-08-15T1000,3299A,113.3472,23.3692,广州市,白云竹料,,20,20,28,13,16,33,,18,18,19,27,5,5,0.6,0.7
2024-08-15T1000,3300A,113.2981,23.237,广州市,白云嘉禾,,27,27,30,13,16,27,,12,12,34,39,7,7,0.9,0.9
2024-08-15T1000,3301A,113.4256,23.1716,广州市,黄埔科学城,,31,31,31,16,16,35,,13,13,26,31,8,8,0.6,0.7
2024-08-15T1000,3302A,113.3942,23.0483,广州市,番禺大学城,,41,41,28,26,15,19,,5,5,42,34,8,7,0.7,0.7
2024-08-15T1000,3303A,113.4922,22.8168,广州市,南沙黄阁,,,79,33,53,20,,,8,8,48,41,5,5,0.9,0.9
2024-08-15T1000,3304A,113.5342,22.7896,广州市,南沙街,细颗粒物(PM2.5),60,64,31,43,19,42,,12,12,43,36,7,7,0.9,0.8
2024-08-15T1000,3443A,113.2902,23.5544,广州市,花都梯面,,,15,21,8,11,,,11,8,9,19,6,5,0.5,0.5
2024-08-15T1000,3445A,113.7858,23.7478,广州市,从化良口,,13,13,19,8,11,24,,11,11,5,12,5,5,0.7,0.8
2024-08-15T1000,3446A,113.8051,23.2614,广州市,增城荔城,,26,24,29,18,19,41,,18,18,10,19,6,6,0.5,0.5
2024-08-15T1000,2505A,109.568,23.1478,贵港市,德智高中,,,,,,,,,,,,,,,,
2024-08-15T1000,2506A,109.6047,23.0666,贵港市,江南子站,颗粒物(PM10),65,80,34,27,20,33,,12,12,28,15,8,7,1.1,0.7
2024-08-15T1000,2507A,109.6014,23.0948,贵港市,贵城子站,,,32,46,24,26,,,4,3,16,17,10,7,1.2,0.7
2024-08-15T1000,2508A,109.5669,23.1065,贵港市,荷城子站,,46,46,32,19,14,36,,15,15,22,18,12,10,1.1,0.6
2024-08-15T1000,3405A,109.5886,23.1172,贵港市,新世纪学校,,34,34,40,18,20,42,,13,13,18,17,11,10,1.1,0.7
2024-08-15T1000,1439A,106.6899,26.5998,贵阳市,马鞍山,,30,27,23,9,6,94,,47,47,6,6,4,5,0.5,0.4
2024-08-15T1000,1440A,106.6971,26.5694,贵阳市,市环保站,颗粒物(PM10),57,63,43,25,21,112,,90,88,20,15,5,4,0.3,0.2
2024-08-15T1000,1441A,106.6243,26.6266,贵阳市,鉴湖路,,37,34,31,7,12,118,,96,96,4,6,5,4,0.4,0.4
2024-08-15T1000,1442A,106.7487,26.6343,贵阳市,燕子冲,,28,27,24,19,18,88,,43,43,11,10,6,6,0.6,0.5
2024-08-15T1000,1443A,106.6555,26.4365,贵阳市,碧云窝,,41,41,39,12,14,106,,36,36,12,12,6,4,0.5,0.4
2024-08-15T1000,1444A,106.694,26.5161,贵阳市,中院村,,41,41,35,27,17,110,,68,68,12,15,6,6,0.5,0.5
2024-08-15T1000,1445A,106.7109,26.6027,贵阳市,红边门,,49,39,34,34,23,108,,62,62,13,15,4,6,0.6,0.5
2024-08-15T1000,1446A,106.7164,26.5699,贵阳市,新华路,,33,29,29,19,17,105,,71,71,8,9,2,4,0.7,0.7
2024-08-15T1000,1447A,106.674,26.5424,贵阳市,太慈桥,,35,19,24,12,12,112,,42,42,9,14,6,6,0.4,0.4
2024-08-15T1000,1552A,106.805,26.3003,贵阳市,桐木岭,,,,,,,,,,,,,,,,
2024-08-15T1000,1862A,110.4144,25.3167,桂林市,电子科大尧山校区,,47,47,40,26,17,65,,32,32,7,6,19,11,0.7,0.6
2024-08-15T1000,1863A,110.2819,25.2697,桂林市,监测站,颗粒物(PM10),62,73,42,29,18,50,,27,27,17,14,51,17,0.9,0.8
2024-08-15T1000,1864A,110.3089,25.2708,桂林市,龙隐路小学,颗粒物(PM10),53,55,38,28,23,57,,29,29,12,12,29,17,0.5,0.5
2024-08-15T1000,1865A,110.2869,25.2178,桂林市,八中,颗粒物(PM10),58,65,38,37,18,42,,20,20,15,12,29,11,0.7,0.6
2024-08-15T1000,3403A,110.1764,25.2381,桂林市,创业大厦,细颗粒物(PM2.5),89,75,34,66,32,32,,14,14,14,13,100,24,0.4,0.3
2024-08-15T1000,3531A,110.296,25.1253,桂林市,旅游学院,,44,44,22,29,16,54,,22,22,10,13,6,7,0.4,0.4
2024-08-15T1000,2674A,100.2561,34.4714,果洛藏族自治州,玛沁县大武镇,,28,28,20,11,10,70,,89,77,10,3,8,6,0.5,0.4
2024-08-15T1000,1129A,126.5422,45.755,哈尔滨市,岭北,,23,22,23,16,12,55,,25,25,24,22,5,8,1.0,0.8
2024-08-15T1000,1130A,126.561,45.8167,哈尔滨市,松北商大,,32,32,30,8,8,40,,16,16,22,22,7,7,0.6,0.5
2024-08-15T1000,1131A,126.979,45.5419,哈尔滨市,阿城会宁,颗粒物(PM10),62,73,44,18,15,42,,11,11,25,18,13,6,1.2,0.7
2024-08-15T1000,1132A,126.599,45.7222,哈尔滨市,南岗学府路,,41,41,37,8,9,56,,20,20,16,19,8,6,0.5,0.5
2024-08-15T1000,1133A,126.689,45.7733,哈尔滨市,太平宏伟公园,,25,25,34,12,12,65,,21,21,12,22,3,4,0.5,0.5
2024-08-15T1000,1134A,126.635,45.7667,哈尔滨市,道外承德广场,,30,30,40,6,10,55,,19,19,20,24,10,10,0.8,0.7
2024-08-15T1000,1135A,126.685,45.7319,哈尔滨市,香坊红旗大街,,31,31,33,7,10,68,,26,26,15,24,9,8,0.6,0.6
2024-08-15T1000,1136A,126.6411,45.7258,哈尔滨市,动力和平路,,36,36,32,10,9,58,,24,24,21,22,8,7,0.5,0.5
2024-08-15T1000,1137A,126.593,45.7478,哈尔滨市,道里建国路,,47,47,32,8,11,58,,18,18,14,23,12,10,0.6,0.6
2024-08-15T1000,1138A,126.615,45.61,哈尔滨市,平房东轻厂,,,33,51,16,16,,,15,15,23,31,,6,0.3,0.4
2024-08-15T1000,1139A,126.595,45.9855,哈尔滨市,呼兰师专,,22,16,26,6,9,70,,33,33,8,16,9,9,0.5,0.5
2024-08-15T1000,1140A,126.6206,45.6842,哈尔滨市,省农科院,,27,27,36,12,12,48,,19,19,19,24,7,7,0.6,0.7
2024-08-15T1000,2688A,93.5128,42.8172,哈密市,地区监测站,颗粒物(PM10),63,75,43,17,15,79,,68,68,39,22,5,3,0.5,0.4
2024-08-15T1000,2689A,93.4961,42.8328,哈密市,哈密师范学校,颗粒物(PM10),58,66,42,29,15,56,,55,52,45,25,6,5,1.0,0.6
2024-08-15T1000,2671A,100.9048,36.9639,海北藏族自治州,海晏县西海镇,,27,19,20,13,12,84,,56,56,8,7,23,13,0.5,0.3
2024-08-15T1000,3867A,102.0738,36.5056,海东市,平安区公安北苑,,42,,22,29,12,64,,69,54,15,10,7,8,0.5,0.5
2024-08-15T1000,1409A,110.576,19.9507,海口市,东寨港,,,,,,,,,,,,,,,,
2024-08-15T1000,1410A,110.3232,20.0574,海口市,海南大学,,,18,21,10,12,,,24,24,12,15,5,5,0.4,0.5
2024-08-15T1000,1411A,110.283,20.0053,海口市,秀英海南医院,,35,26,27,24,15,52,,20,20,18,21,7,7,0.4,0.4
2024-08-15T1000,1412A,110.338,19.9969,海口市,海南师范大学,,25,25,25,13,13,52,,24,24,9,14,7,7,0.4,0.5
2024-08-15T1000,1413A,110.33,20.0356,海口市,龙华路环保局宿舍,,28,28,24,12,13,58,,28,28,10,15,7,8,0.4,0.3
2024-08-15T1000,3539A,110.5111,19.9736,海口市,桂林洋子站,,23,23,25,9,14,43,,13,13,8,14,6,6,0.3,0.4
2024-08-15T1000,2673A,100.6188,36.2866,海南藏族自治州,共和县恰卜恰镇,,35,19,21,17,6,111,,75,75,5,8,11,12,0.5,0.5
2024-08-15T1000,2676A,97.3731,37.3753,海西蒙古族藏族自治州,德令哈市,颗粒物(PM10),54,58,35,21,16,88,,94,88,7,9,11,9,0.4,0.4
2024-08-15T1000,1048A,114.5302,36.6116,邯郸市,东污水处理厂,颗粒物(PM10),53,56,43,29,21,109,,66,66,8,10,3,3,0.6,0.5
2024-08-15T1000,1049A,114.4918,36.5713,邯郸市,矿院,颗粒物(PM10),51,52,38,34,22,108,,77,77,17,12,2,1,0.3,0.4
2024-08-15T1000,1050A,114.484,36.6133,邯郸市,丛台公园,,49,49,40,29,20,93,,63,62,15,9,2,2,0.6,0.5
2024-08-15T1000,3458A,114.7895,36.5593,邯郸市,香泉濮院小区,颗粒物(PM10),51,52,49,23,26,113,,53,53,3,12,2,2,0.3,0.4
2024-08-15T1000,3579A,114.50634,36.77178,邯郸市,永年区实验高中,颗粒物(PM10),59,68,50,34,25,83,,54,49,24,13,7,3,0.8,0.6
2024-08-15T1000,3580A,114.20016,36.44293,邯郸市,峰峰矿区临水派出所,,,,47,,17,121,,84,84,2,7,,2,0.6,0.6
2024-08-15T1000,2634A,106.9893,33.1842,汉中市,汉川机床厂子校,,24,14,24,8,12,76,,58,58,6,7,4,4,0.6,0.5
2024-08-15T1000,2635A,107.0154,33.0706,汉中市,市监测站,,28,21,38,19,20,79,,37,37,8,8,9,7,0.9,0.7
2024-08-15T1000,2636A,107.0089,33.1138,汉中市,鑫源开发区,,26,24,32,15,22,82,,56,56,10,11,15,10,0.8,0.6
2024-08-15T1000,2637A,107.007,33.0323,汉中市,南郑大河坎水厂,,27,16,33,11,21,86,,40,40,5,8,8,8,0.6,0.6
2024-08-15T1000,1223A,120.2072,30.2111,杭州市,滨江,,30,30,36,19,21,76,,37,37,12,18,6,5,0.6,0.7
2024-08-15T1000,1224A,120.0633,30.2747,杭州市,西溪,,28,28,28,15,20,61,,36,36,22,20,5,5,0.7,0.7
2024-08-15T1000,1226A,120.3461,30.3153,杭州市,下沙,,32,32,33,17,17,96,,48,48,8,18,6,6,0.4,0.5
2024-08-15T1000,1227A,120.1269,30.2456,杭州市,卧龙桥,,,31,28,23,22,,,27,21,24,17,5,5,0.7,0.7
2024-08-15T1000,1228A,120.1903,30.2692,杭州市,浙江农大,,26,26,26,15,15,76,,45,45,18,18,9,8,0.5,0.6
2024-08-15T1000,1230A,120.1197,30.3119,杭州市,和睦小学,,27,26,28,18,19,86,,48,48,13,17,6,6,0.5,0.6
2024-08-15T1000,1231A,120.3019,30.4183,杭州市,临平镇,,30,21,26,18,13,96,,50,50,4,13,5,5,0.5,0.6
2024-08-15T1000,1232A,120.2697,30.1819,杭州市,城厢镇,,34,34,31,22,24,81,,40,40,14,13,6,5,0.7,0.8
2024-08-15T1000,1233A,120.0883,30.1808,杭州市,云栖,,,20,22,16,17,,,13,13,28,23,8,7,0.8,0.8
2024-08-15T1000,3557A,119.9464,30.0494,杭州市,镇二中,,29,28,28,20,23,64,,45,42,21,16,8,7,0.9,0.8
2024-08-15T1000,3558A,119.7183,30.2367,杭州市,市府大楼,,29,26,26,20,19,69,,45,43,16,12,6,5,0.6,0.6
2024-08-15T1000,3656A,120.1556,30.2864,杭州市,消防大队,,28,28,31,15,18,84,,50,50,9,15,8,7,0.7,0.7
2024-08-15T1000,1270A,117.1959,31.7848,合肥市,明珠广场,,36,36,25,17,17,90,,50,50,15,20,8,6,0.5,0.5
2024-08-15T1000,1271A,117.3072,31.8764,合肥市,三里街,,27,27,19,14,12,79,,45,45,10,16,8,7,0.5,0.5
2024-08-15T1000,1272A,117.2588,31.8707,合肥市,琥珀山庄,,29,29,25,15,19,86,,52,52,11,13,6,5,0.6,0.6
2024-08-15T1000,1273A,117.1604,31.9052,合肥市,董铺水库,,34,34,23,19,14,78,,44,44,14,12,4,2,0.4,0.3
2024-08-15T1000,1274A,117.25,31.8571,合肥市,长江中路,,34,34,24,22,17,86,,54,54,12,11,7,6,0.8,0.8
2024-08-15T1000,1275A,117.266,31.9436,合肥市,庐阳区,,29,29,22,14,10,92,,55,55,10,16,4,3,0.4,0.4
2024-08-15T1000,1276A,117.336,31.8586,合肥市,瑶海区,,28,22,21,7,13,87,,51,51,12,20,4,4,0.6,0.6
2024-08-15T1000,1277A,117.3027,31.7964,合肥市,包河区,,,,24,,16,,,37,34,17,34,12,10,0.6,0.5
2024-08-15T1000,1278A,117.2776,31.7385,合肥市,滨湖新区,,32,24,18,22,13,91,,53,53,10,20,7,7,0.4,0.5
2024-08-15T1000,1279A,117.1318,31.8403,合肥市,高新区,,29,24,21,11,13,91,,50,50,9,15,9,8,0.6,0.7
2024-08-15T1000,3464A,117.3803,31.9147,合肥市,高教基地,,25,23,21,8,15,79,,38,38,7,8,8,8,0.4,0.4
2024-08-15T1000,3614A,79.924,37.0877,和田地区,地区环保局,颗粒物(PM10),191,331,528,79,147,51,,85,79,18,8,7,8,0.6,0.5
2024-08-15T1000,3615A,79.9131,37.113,和田地区,市环保局,颗粒物(PM10),198,346,519,80,154,40,,72,64,35,14,8,7,0.6,0.4
2024-08-15T1000,2516A,108.2011,24.715,河池市,东仁乐园,,39,39,30,21,8,49,,24,24,7,8,6,5,0.8,0.7
2024-08-15T1000,2517A,108.0497,24.6947,河池市,市环保站,,32,32,23,13,10,43,,33,30,8,9,10,9,0.7,0.6
2024-08-15T1000,2518A,108.0983,24.6989,河池市,市疾控中心,,32,32,24,18,12,39,,24,23,16,13,10,9,0.6,0.5
2024-08-15T1000,1696A,114.6778,23.7569,河源市,源西,,29,,22,20,15,53,,28,28,10,14,4,4,0.6,0.5
2024-08-15T1000,1697A,114.6944,23.7586,河源市,东埔,,31,31,17,15,12,53,,32,32,12,13,2,3,0.6,0.6
2024-08-15T1000,1698A,114.6892,23.7233,河源市,老城,,20,19,22,14,11,57,,31,31,7,10,5,6,0.5,0.5
2024-08-15T1000,1718A,115.4208,35.2464,菏泽市,气象局,,43,43,49,13,24,108,,86,86,11,10,5,4,0.4,0.3
2024-08-15T1000,1719A,115.4747,35.2375,菏泽市,市政协,,32,27,44,22,29,100,,86,86,4,7,5,4,0.3,0.3
2024-08-15T1000,3374A,115.5564,35.0891,菏泽市,定陶老年大学,,,24,43,12,21,87,,74,74,7,11,7,6,,0.4
2024-08-15T1000,3647A,115.4702,35.2706,菏泽市,菏泽医专,,42,35,51,29,26,101,,75,75,12,12,2,3,0.6,0.6
2024-08-15T1000,2514A,111.5264,24.4172,贺州市,环保小区,,27,27,20,9,7,46,,28,28,10,13,6,6,0.6,0.6
2024-08-15T1000,2515A,111.5608,24.4078,贺州市,政协大楼,,27,27,23,9,10,32,,13,13,14,16,7,7,0.5,0.5
2024-08-15T1000,3534A,111.4744,24.4553,贺州市,西湾,,28,20,20,19,8,60,,23,23,6,11,4,6,0.5,0.6
2024-08-15T1000,2385A,114.17,35.9019,鹤壁市,市监测站,颗粒物(PM10),53,55,44,22,27,124,,78,78,13,14,9,7,0.9,0.7
2024-08-15T1000,2386A,114.2956,35.7511,鹤壁市,市交警支队,颗粒物(PM10),53,55,46,36,35,112,,78,78,13,13,6,3,0.6,0.6
2024-08-15T1000,2387A,114.2878,35.7306,鹤壁市,迎宾馆,颗粒物(PM10),55,60,41,23,24,119,,79,79,12,14,8,6,0.8,0.8
2024-08-15T1000,3474A,114.2617,35.6822,鹤壁市,大新区,,,62,43,,,120,,82,82,11,11,4,3,0.5,0.5
2024-08-15T1000,3596A,114.1572,35.9603,鹤壁市,南山宾馆,颗粒物(PM10),59,68,46,32,26,107,,76,76,17,12,3,2,1.1,0.6
2024-08-15T1000,2244A,130.2537,47.3416,鹤岗市,哈啤分公司,,29,29,22,12,10,80,,26,26,16,8,13,13,0.5,0.4
2024-08-15T1000,2245A,130.2684,47.3086,鹤岗市,斯达机电,,35,35,24,3,9,64,,25,25,14,12,13,13,0.3,0.4
2024-08-15T1000,2246A,130.3114,47.3388,鹤岗市,东山纸板厂,,20,20,29,13,14,62,,18,18,11,11,14,14,0.5,0.6
2024-08-15T1000,2247A,130.1097,47.3382,鹤岗市,五号水库,,18,7,6,3,4,57,,24,24,5,5,10,10,0.4,0.3
2024-08-15T1000,2263A,127.4833,50.2524,黑河市,交通局,,42,42,32,10,13,58,,24,24,16,11,8,8,0.4,0.4
2024-08-15T1000,2264A,127.5144,50.2341,黑河市,环保局,,42,42,31,7,15,49,,23,23,13,13,9,7,0.4,0.4
2024-08-15T1000,2265A,127.5291,50.2472,黑河市,大黑河岛,,,,17,12,18,,,,,15,12,1,2,,
2024-08-15T1000,1074A,115.6838,37.7541,衡水市,电机北厂,,31,31,39,21,23,91,,62,62,9,12,4,3,0.4,0.4
2024-08-15T1000,1075A,115.6303,37.7316,衡水市,市监测站,,,,40,,18,,,79,74,15,12,4,3,0.4,0.5
2024-08-15T1000,3188A,115.6683,37.7217,衡水市,市城管局,,38,38,41,25,22,96,,70,70,11,10,5,3,0.5,0.5
2024-08-15T1000,3459A,115.5989,37.5491,衡水市,地表水厂,,48,48,49,18,21,99,,44,44,4,16,6,6,0.5,0.5
2024-08-15T1000,2456A,112.5003,26.9167,衡阳市,原169医院,,,,35,32,18,44,,,,,8,4,8,0.2,0.5
2024-08-15T1000,2457A,112.6194,26.9258,衡阳市,衡阳化工总厂,,,47,42,,,55,,57,48,8,9,7,8,0.8,0.7
2024-08-15T1000,2458A,112.6211,26.8956,衡阳市,珠晖区环保局,,,49,38,,,,,66,54,10,8,8,8,0.9,0.9
2024-08-15T1000,2459A,112.6197,26.8733,衡阳市,市委党校,颗粒物(PM10),51,52,39,28,22,60,,60,52,8,9,7,7,0.7,0.8
2024-08-15T1000,2460A,112.6006,26.8919,衡阳市,市监测站,颗粒物(PM10),52,53,38,23,23,51,,61,52,11,11,6,8,0.9,1
2024-08-15T1000,2461A,112.5664,26.9056,衡阳市,真空机电公司,,,56,37,24,19,,,63,53,18,8,7,8,1.1,0.8
2024-08-15T1000,3399A,112.6703,26.882,衡阳市,师范学院,,39,39,32,15,16,58,,58,48,7,7,8,7,0.8,0.8
2024-08-15T1000,2608A,103.3772,23.3993,红河哈尼族彝族自治州,污水处理厂,,,,31,,22,49,,28,27,,11,,14,0.4,0.3
2024-08-15T1000,2609A,103.3861,23.35,红河哈尼族彝族自治州,监测站,,34,34,33,16,18,50,,29,29,12,10,44,19,0.4,0.4
2024-08-15T1000,3038A,103.3758,23.368,红河哈尼族彝族自治州,州图书馆,,41,41,37,6,16,47,,34,32,10,8,38,19,0.4,0.3
2024-08-15T1000,1090A,111.6507,40.7517,呼和浩特市,呼市一监,,45,44,31,31,20,89,,45,45,18,14,11,10,0.7,0.6
2024-08-15T1000,1091A,111.6572,40.8033,呼和浩特市,小召,,44,44,28,25,20,83,,59,58,22,20,6,6,0.6,0.5
2024-08-15T1000,1094A,111.7516,40.8369,呼和浩特市,如意水处理厂,颗粒物(PM10),52,54,39,33,21,92,,46,46,14,22,8,7,0.7,0.5
2024-08-15T1000,1095A,111.7276,40.8062,呼和浩特市,二十九中,,,,34,,22,,,92,,,20,,5,,0.7
2024-08-15T1000,1096A,111.5512,40.7866,呼和浩特市,工大金川校区,,,,37,,19,74,,33,33,,26,8,7,0.7,0.7
2024-08-15T1000,1097A,111.717,40.7612,呼和浩特市,化肥厂生活区,,,60,47,28,23,,,44,42,15,18,11,8,0.7,0.6
2024-08-15T1000,3698A,111.5968,40.8178,呼和浩特市,红旗小学,颗粒物(PM10),54,58,40,30,20,78,,40,40,24,29,4,4,0.6,0.5
2024-08-15T1000,3699A,111.6518,40.8389,呼和浩特市,海东办,细颗粒物(PM2.5),53,51,36,37,21,90,,43,43,20,23,8,6,0.9,0.8
2024-08-15T1000,2192A,119.7594,49.2261,呼伦贝尔市,区环保局,,42,42,52,16,25,52,,24,24,19,24,5,5,0.5,0.5
2024-08-15T1000,3061A,119.7512,49.1577,呼伦贝尔市,国华电力东,,27,27,31,18,22,53,,24,24,10,10,4,4,0.3,0.3
2024-08-15T1000,1250A,120.0751,30.8669,湖州市,城西水厂,,,17,16,12,11,,,23,19,9,25,4,4,0.5,0.5
2024-08-15T1000,2873A,120.0875,30.8955,湖州市,仁皇山新区,,26,15,12,11,9,82,,43,43,5,13,6,6,0.5,0.6
2024-08-15T1000,2907A,120.1844,30.8596,湖州市,吴兴区站,,,21,20,,12,88,,54,54,,11,7,7,,0.2
2024-08-15T1000,3562A,120.4148,30.8538,湖州市,南浔区站,,28,20,19,14,12,87,,50,50,3,10,4,4,0.5,0.6
2024-08-15T1000,1607A,120.9092,40.7136,葫芦岛市,龙港区,,40,40,38,12,20,78,,34,34,16,29,36,23,0.5,0.5
2024-08-15T1000,1608A,120.8392,40.7514,葫芦岛市,化工街,,,19,32,12,15,,,28,28,12,24,16,27,0.2,0.3
2024-08-15T1000,1609A,120.8341,40.7073,葫芦岛市,新区,,25,18,36,6,23,80,,45,45,14,24,16,15,0.4,0.5
2024-08-15T1000,1610A,120.8695,40.7677,葫芦岛市,东城区,,28,26,31,9,14,88,,38,38,15,30,13,12,0.4,0.4
2024-08-15T1000,2482A,109.5981,27.5721,怀化市,林科所,,39,39,31,18,10,100,,98,98,8,8,16,12,0.3,0.2
2024-08-15T1000,2483A,109.9453,27.5444,怀化市,河西地税局,颗粒物(PM10),51,51,40,25,26,106,,94,94,7,9,13,12,0.7,0.6
2024-08-15T1000,2484A,109.9781,27.5342,怀化市,市四医院,,,53,42,40,28,,,89,88,11,11,14,13,0.9,0.8
2024-08-15T1000,2485A,109.9972,27.5578,怀化市,监测楼,颗粒物(PM10),56,61,44,33,26,104,,86,85,8,8,18,17,0.7,0.6
2024-08-15T1000,2486A,110.0394,27.583,怀化市,市委党校,,48,43,43,33,29,101,,80,80,6,8,16,17,0.7,0.6
2024-08-15T1000,1210A,119.036,33.5981,淮安市,钵池山,,,,20,,15,93,,35,35,9,18,,6,0.6,0.6
2024-08-15T1000,1211A,119.007,33.575,淮安市,北京南路,,27,24,22,11,16,86,,53,53,8,11,4,4,0.7,0.6
2024-08-15T1000,1212A,118.989,33.6067,淮安市,市监测站,,27,24,24,17,17,85,,46,46,7,16,5,5,0.8,0.8
2024-08-15T1000,1213A,119.135,33.5039,淮安市,楚州区监测站,,28,24,31,13,13,87,,59,59,7,13,4,4,0.6,0.6
2024-08-15T1000,1214A,119.0186,33.6297,淮安市,淮阴区监测站,,31,31,26,13,16,88,,42,42,10,20,3,3,0.6,0.5
2024-08-15T1000,3426A,118.8755,33.2894,淮安市,新华书店,,28,21,24,15,16,89,,59,59,11,16,6,6,0.5,0.5
2024-08-15T1000,2282A,116.8004,33.975,淮北市,监测站,颗粒物(PM10),52,53,33,23,19,92,,62,62,4,6,5,5,0.7,0.6
2024-08-15T1000,2283A,116.8091,33.9007,淮北市,烈山区政府,,37,37,29,24,17,89,,65,65,5,6,6,6,0.7,0.6
2024-08-15T1000,3330A,116.8873,33.9836,淮北市,杜集区检察院,,43,37,35,30,23,85,,53,53,3,5,1,1,0.7,0.6
2024-08-15T1000,4017A,116.7923,33.9535,淮北市,市博物馆,,42,42,30,23,17,89,,64,64,8,8,4,4,0.8,0.7
2024-08-15T1000,2277A,116.8305,32.7727,淮南市,潘集区政府,,21,18,23,14,16,67,,38,38,10,14,6,6,0.5,0.5
2024-08-15T1000,2278A,117.0067,32.6524,淮南市,师范学院,,30,30,29,11,13,85,,39,39,8,14,8,7,0,0.1
2024-08-15T1000,2279A,116.8569,32.5951,淮南市,谢家集区政府,,36,36,33,17,8,60,,37,37,17,15,7,7,0.4,0.4
2024-08-15T1000,2280A,116.8281,32.633,淮南市,八公山区政府,,45,45,33,27,20,74,,39,39,13,13,7,6,0.4,0.4
2024-08-15T1000,2281A,116.6325,32.6201,淮南市,焦岗湖风景区管理处,,44,44,21,3,7,48,,23,23,13,15,8,8,0.3,0.3
2024-08-15T1000,2894A,117.0566,32.6531,淮南市,经济技术开发区消防队,,,24,22,3,7,79,,35,35,,15,4,5,,0.4
2024-08-15T1000,3329A,117.0108,32.5893,淮南市,山南新区,,43,43,36,19,17,84,,51,51,11,13,3,4,0.5,0.5
2024-08-15T1000,2446A,114.9028,30.4742,黄冈市,职工中心,,33,33,24,18,15,90,,66,66,10,8,7,7,0.4,0.3
2024-08-15T1000,2929A,114.8858,30.4519,黄冈市,红卫路,,31,27,21,18,15,98,,73,73,8,9,7,7,0.4,0.4
2024-08-15T1000,3398A,114.9136,30.4445,黄冈市,市林业局,,32,26,25,22,14,102,,74,74,5,5,7,7,0.4,0.4
2024-08-15T1000,2672A,102.0199,35.5102,黄南藏族自治州,同仁县隆务镇,,19,8,17,3,5,60,,52,50,2,1,9,9,0.3,0.4
2024-08-15T1000,2295A,118.2903,29.6963,黄山市,延安路89号,,49,49,28,20,10,87,,33,33,4,6,5,5,0.5,0.5
2024-08-15T1000,2296A,118.327,29.7178,黄山市,黄山东路89号,,,33,20,11,6,,,,,,3,,6,0.5,0.4
2024-08-15T1000,2297A,118.1371,30.2756,黄山市,黄山区政府5号楼,,23,23,15,12,8,71,,43,43,7,6,6,6,0.4,0.4
2024-08-15T1000,2423A,115.0601,30.2313,黄石市,沈家营,,,14,33,,10,93,,46,46,15,13,99,10,0.2,0.4
2024-08-15T1000,2424A,115.0817,30.2006,黄石市,陈家湾,,42,42,38,14,13,92,,49,49,15,12,30,8,0.4,0.5
2024-08-15T1000,2426A,114.8988,30.2019,黄石市,铁山,,36,23,26,10,9,113,,70,70,4,6,4,6,0.3,0.3
2024-08-15T1000,2427A,115.0307,30.2092,黄石市,团城山,,29,29,28,12,11,88,,54,54,15,12,7,8,0.5,0.5
2024-08-15T1000,3149A,115.0235,30.1578,黄石市,笔架山北路,,37,37,32,11,8,87,,63,63,14,9,6,6,0.4,0.4
2024-08-15T1000,1392A,114.4183,23.0528,惠州市,河南岸金山湖子站,,40,40,25,21,13,28,,13,13,18,15,5,4,0.7,0.6
2024-08-15T1000,1393A,114.4053,23.0822,惠州市,下埔横江三路子站,,44,44,31,22,17,36,,22,22,19,19,3,3,0.7,0.7
2024-08-15T1000,1394A,114.4103,23.1142,惠州市,江北云山西路子站,颗粒物(PM10),53,55,29,17,11,42,,16,16,11,15,4,4,0.6,0.6
2024-08-15T1000,1395A,114.4645,22.7833,惠州市,惠阳区承修路船湖子站,颗粒物(PM10),55,59,33,35,18,72,,20,20,28,28,5,5,0.8,0.7
2024-08-15T1000,1396A,114.5317,22.7422,惠州市,大亚湾管委会子站,,46,46,32,25,17,64,,14,14,27,29,6,6,1.0,1
2024-08-15T1000,3314A,114.4338,22.8134,惠州市,惠阳秋长,,42,31,26,29,17,70,,20,20,20,25,6,5,0.8,0.8
2024-08-15T1000,3452A,114.6517,22.775,惠州市,大亚湾霞涌,,38,38,24,25,15,70,,24,24,18,12,4,4,0.7,0.6
2024-08-15T1000,2240A,130.9762,45.3001,鸡西市,环保局,,24,24,21,11,8,25,,19,19,24,12,16,5,0.4,0.3
2024-08-15T1000,2243A,130.9429,45.3039,鸡西市,第一中学,,37,37,26,10,9,34,,18,18,23,15,8,4,0.3,0.3
2024-08-15T1000,3707A,131.0207,45.3073,鸡西市,欧美日汽修厂,,40,40,22,3,8,35,,17,17,10,10,4,4,0.4,0.3
2024-08-15T1000,3709A,130.9967,45.3106,鸡西市,市政设施管理处,,,,31,,9,,,15,15,12,14,4,4,,0.3
2024-08-15T1000,2367A,114.9754,27.0803,吉安市,红声器材厂,,,43,33,22,19,,,44,40,13,11,14,14,0.8,0.7
2024-08-15T1000,2368A,114.9658,27.0999,吉安市,市森林工业局,,44,44,33,30,21,52,,41,40,12,8,12,13,0.6,0.5
2024-08-15T1000,2369A,114.99,27.1312,吉安市,市环境监测站,,41,41,27,22,15,44,,47,39,21,11,13,10,1.1,0.8
2024-08-15T1000,2370A,115.0093,27.0968,吉安市,青原区法院,,46,46,35,29,19,49,,50,47,17,12,14,11,0.7,0.6
2024-08-15T1000,1772A,126.54,43.8622,吉林市,哈达湾,"颗粒物(PM10),细颗粒物(PM2.5)",57,63,33,40,19,91,,42,42,32,20,35,16,1.4,0.7
2024-08-15T1000,1773A,126.5844,43.8358,吉林市,东局子,颗粒物(PM10),52,53,38,25,18,93,,27,27,21,19,12,6,0.9,0.7
2024-08-15T1000,1774A,126.5052,43.8245,吉林市,电力学院,,38,38,31,23,17,82,,36,36,19,15,21,11,0.9,0.7
2024-08-15T1000,1775A,126.6133,43.8972,吉林市,江北,颗粒物(PM10),62,73,34,30,16,114,,43,43,24,32,14,8,1.7,1.1
2024-08-15T1000,1776A,126.555,43.8306,吉林市,江南公园,细颗粒物(PM2.5),64,69,36,46,21,84,,31,31,34,21,14,6,1.9,1
2024-08-15T1000,1778A,126.7061,43.7133,吉林市,丰满,,,,,,,,,,,,,,,,
2024-08-15T1000,2868A,126.4739,43.953,吉林市,九站,,44,44,32,21,15,89,,33,33,22,19,25,12,0.7,0.6
2024-08-15T1000,1299A,116.9862,36.6114,济南市,科干所,,48,48,45,24,23,116,,56,56,22,20,6,5,0.8,0.7
2024-08-15T1000,1300A,116.9376,36.665,济南市,农科所,颗粒物(PM10),66,81,54,44,25,86,,28,28,44,33,10,8,0.8,0.5
2024-08-15T1000,1301A,117.1265,36.6734,济南市,开发区,颗粒物(PM10),56,61,49,17,17,102,,40,40,31,30,9,8,1.0,0.8
2024-08-15T1000,1303A,117.0624,36.6868,济南市,省种子仓库,,,78,57,29,22,,,25,17,39,31,,6,0.8,0.6
2024-08-15T1000,1304A,116.9489,36.6447,济南市,机床二厂,颗粒物(PM10),66,81,50,29,16,99,,42,42,47,31,11,9,0.9,0.7
2024-08-15T1000,1305A,117.0495,36.663,济南市,市监测站,颗粒物(PM10),59,68,47,29,22,107,,48,48,34,27,11,10,0.8,0.6
2024-08-15T1000,1306A,116.7675,36.5484,济南市,长清党校,,,51,44,37,27,102,,48,48,,20,,9,,0.7
2024-08-15T1000,1616A,117.6795,36.229,济南市,技术学院,,37,34,32,22,22,118,,70,70,12,16,12,11,1.0,1
2024-08-15T1000,1961A,117.532,36.6868,济南市,东山小学,颗粒物(PM10),59,68,55,34,26,131,,73,73,21,24,10,10,0.8,0.8
2024-08-15T1000,3059A,117.7161,36.2049,济南市,泰兴公司,,,34,35,27,21,110,,61,61,,27,,11,1.0,0.8
2024-08-15T1000,3064A,117.6867,36.2171,济南市,莱芜战役纪念馆,颗粒物(PM10),51,51,41,22,19,110,,65,65,14,17,6,6,0.9,0.9
2024-08-15T1000,3494A,117.1673,36.9782,济南市,济阳区政府,颗粒物(PM10),58,66,48,39,24,116,,68,68,9,12,14,10,0.7,0.7
2024-08-15T1000,3495A,117.1171,36.63,济南市,锦屏中学,,44,44,38,27,22,126,,63,63,18,14,12,10,0.7,0.6
2024-08-15T1000,3682A,116.9814,36.6819,济南市,济南四建,,,73,52,32,27,82,,29,29,35,24,,8,1.2,0.9
2024-08-15T1000,1653A,116.6251,35.4302,济宁市,火炬城,,34,16,42,12,21,107,,47,47,12,16,14,9,0.9,1
2024-08-15T1000,1655A,116.5491,35.4042,济宁市,电化厂,,39,39,42,27,26,110,,65,65,15,13,14,8,0.8,0.8
2024-08-15T1000,3500A,116.5814,35.3707,济宁市,北湖一中,,35,29,39,22,20,111,,60,60,12,13,15,9,0.4,0.5
2024-08-15T1000,3501A,116.8249,35.5593,济宁市,服务中心,,33,33,42,20,21,99,,38,38,12,14,6,5,0.5,0.6
2024-08-15T1000,3678A,116.5907,35.4054,济宁市,市第七中学,,35,35,38,12,20,112,,68,68,14,15,12,6,0.7,0.8
2024-08-15T1000,2255A,130.2751,46.8028,佳木斯市,佳纺,,36,36,42,9,8,46,,18,18,24,14,6,4,0.6,0.5
2024-08-15T1000,2256A,130.3995,46.8307,佳木斯市,发电厂,,40,40,22,14,8,57,,17,17,21,14,7,6,0.6,0.6
2024-08-15T1000,2257A,130.3258,46.7975,佳木斯市,环保局,,33,33,25,17,9,30,,11,11,41,20,9,9,0.7,0.6
2024-08-15T1000,2258A,130.3648,46.8032,佳木斯市,十一中,,,27,21,15,10,,,14,14,25,18,9,7,0.6,0.5
2024-08-15T1000,2259A,130.3794,46.7588,佳木斯市,四丰,,,,10,3,4,60,,21,21,,,1,3,0.5,0.5
2024-08-15T1000,1252A,120.7436,30.778,嘉兴市,清河小学,,29,19,23,9,11,91,,48,48,8,17,9,8,0.8,0.8
2024-08-15T1000,1253A,120.726,30.7478,嘉兴市,嘉兴学院,,,35,23,11,10,,,17,16,17,17,1,1,0.4,0.4
2024-08-15T1000,2872A,120.7846,30.7525,嘉兴市,南湖区残联,,30,24,27,12,12,94,,48,48,8,14,4,4,0.4,0.4
2024-08-15T1000,3407A,120.6916,30.7739,嘉兴市,秀洲住建,,32,18,14,12,10,100,,46,46,7,21,3,3,0.6,0.6
2024-08-15T1000,1945A,98.2908,39.7711,嘉峪关市,气象局,,38,31,52,12,12,119,,108,104,11,11,12,7,0.3,0.3
2024-08-15T1000,2884A,98.2672,39.7978,嘉峪关市,酒钢宾馆,,39,39,50,14,12,109,,109,102,12,9,18,15,0.4,0.3
2024-08-15T1000,3248A,98.2643,39.7724,嘉峪关市,雄关区,,36,29,43,9,11,113,,99,97,10,13,10,8,0.4,0.3
2024-08-15T1000,1383A,113.1064,22.6058,江门市,北街,,48,48,33,32,20,16,,8,8,51,38,5,4,0.7,0.6
2024-08-15T1000,1384A,113.0731,22.5835,江门市,西区,,32,32,28,19,15,33,,8,8,31,34,4,5,0.7,0.6
2024-08-15T1000,1385A,113.0219,22.5311,江门市,圭峰西,,49,48,25,34,14,28,,13,13,20,20,3,3,0.6,0.6
2024-08-15T1000,1386A,113.0828,22.5947,江门市,东湖,,50,50,31,20,13,11,,6,6,42,29,5,5,0.8,0.6
2024-08-15T1000,3311A,113.1075,22.5647,江门市,江海富民,,50,50,47,29,27,32,,11,11,41,38,6,6,0.8,0.7
2024-08-15T1000,3449A,113.05,22.4667,江门市,新会银湖,,32,32,32,6,2,35,,11,11,17,27,4,4,0.6,0.7
2024-08-15T1000,1828A,113.227,35.2125,焦作市,市环保局,,39,37,41,19,24,124,,87,87,8,12,3,3,0.5,0.6
2024-08-15T1000,1830A,113.1992,35.2590,焦作市,影视城,,,,,,,,,,,,,,,,
2024-08-15T1000,3169A,113.2725,35.2067,焦作市,太极体育中心,颗粒物(PM10),51,51,48,25,26,122,,80,80,8,12,2,2,0.6,0.6
2024-08-15T1000,3335A,113.3137,35.2641,焦作市,马村街道办,,43,43,44,24,27,113,,75,75,16,14,7,3,0.6,0.6
2024-08-15T1000,3336A,113.2465,35.2373,焦作市,焦作技师学院,颗粒物(PM10),51,51,44,27,24,121,,86,86,10,8,11,3,1.0,0.8
2024-08-15T1000,3477A,113.1656,35.2539,焦作市,中站许衡医院,,,,30,,23,115,,83,83,11,15,,3,0.5,0.4
2024-08-15T1000,3981A,113.2449,35.1803,焦作市,原李万街道办,,38,38,41,17,25,117,,62,62,10,14,3,4,0.3,0.4
2024-08-15T1000,1708A,116.3701,23.5345,揭阳市,新兴,,,40,22,14,13,53,,28,27,13,14,5,5,,0.6
2024-08-15T1000,1709A,116.3264,23.5443,揭阳市,西马,,43,43,25,16,12,51,,30,30,10,10,5,4,0.7,0.6
2024-08-15T1000,1710A,116.3611,23.5626,揭阳市,东兴,,40,40,27,14,11,52,,31,31,15,13,6,5,1.0,0.9
2024-08-15T1000,1711A,116.4151,23.5294,揭阳市,渔湖,,39,39,25,16,11,54,,21,21,21,21,6,5,0.7,0.6
2024-08-15T1000,3320A,116.403,23.5699,揭阳市,曲溪,,27,27,27,18,11,51,,22,22,20,19,3,3,0.9,0.7
2024-08-15T1000,1944A,102.1692,38.5167,金昌市,天庆家园,,31,31,40,11,13,98,,80,74,20,9,6,7,0.4,0.5
2024-08-15T1000,3170A,102.1864,38.5253,金昌市,市委党校,,33,31,34,11,13,105,,82,80,8,7,9,14,0.5,0.5
2024-08-15T1000,4022A,102.1647,38.5371,金昌市,金川区人防中心,,,32,54,3,18,,,83,78,19,8,9,9,0.5,0.6
2024-08-15T1000,1262A,119.647,29.077,金华市,十五中,,43,43,32,30,19,108,,37,37,13,21,2,2,0.6,0.5
2024-08-15T1000,1263A,119.686,29.1029,金华市,监测站,,42,42,35,25,21,104,,26,26,20,32,4,3,0.5,0.6
2024-08-15T1000,3659A,119.656,29.1131,金华市,气象局,,43,43,35,19,16,95,,22,22,19,31,4,4,0.2,0.3
2024-08-15T1000,1767A,121.1115,41.0879,锦州市,南山,,,23,22,14,16,,,31,31,11,14,,6,0.6,0.6
2024-08-15T1000,1768A,121.0533,40.8434,锦州市,开发区,,24,24,32,10,16,76,,31,31,10,18,11,17,0.6,0.7
2024-08-15T1000,1769A,121.1836,41.1119,锦州市,百股街道,,23,19,26,12,10,71,,35,35,9,15,14,8,0.6,0.7
2024-08-15T1000,1770A,121.1178,41.1222,锦州市,天安街道,,23,,24,10,12,72,,46,46,6,11,12,11,0.7,0.7
2024-08-15T1000,1771A,121.1303,41.1386,锦州市,北湖公园,,24,18,25,9,15,75,,44,44,5,9,9,8,0.6,0.6
2024-08-15T1000,2160A,112.85,35.5051,晋城市,自来水公司,,39,39,46,27,22,101,,101,91,18,13,8,8,1.1,0.9
2024-08-15T1000,2161A,112.8318,35.4936,晋城市,白云商贸,颗粒物(PM10),57,64,49,27,20,108,,101,93,19,15,7,8,1.1,0.9
2024-08-15T1000,2162A,112.8508,35.4887,晋城市,市环保局,细颗粒物(PM2.5),52,41,42,36,25,101,,94,85,20,15,8,8,1.1,0.9
2024-08-15T1000,2163A,112.8676,35.4897,晋城市,技术学院,,48,48,38,31,24,90,,96,86,24,15,7,8,1.1,0.9
2024-08-15T1000,2165A,112.8453,35.546,晋城市,白马寺,,,,,,,,,,,,,,,,
2024-08-15T1000,3620A,112.8271,35.4828,晋城市,泽州一中,,,60,37,24,20,102,,99,94,17,14,,10,1.1,0.9
2024-08-15T1000,2171A,112.7532,37.6945,晋中市,锦纶小区,,,53,41,27,21,,,52,42,,14,8,9,0.6,0.5
2024-08-15T1000,2173A,112.7249,37.7067,晋中市,南都小区,颗粒物(PM10),58,66,41,30,28,34,,59,52,33,17,6,6,0.6,0.5
2024-08-15T1000,2174A,112.6991,37.6982,晋中市,榆次区政府,颗粒物(PM10),59,68,41,27,24,34,,59,50,28,17,8,8,1.0,0.4
2024-08-15T1000,2865A,112.7195,37.6828,晋中市,榆次三中,颗粒物(PM10),56,61,44,24,20,36,,55,44,24,15,7,7,1.1,0.6
2024-08-15T1000,2439A,112.2014,31.0481,荆门市,竹园小学,细颗粒物(PM2.5),57,54,46,40,32,109,,98,97,10,13,12,10,0.7,0.7
2024-08-15T1000,2440A,112.1969,30.9891,荆门市,掇刀,颗粒物(PM10),53,55,44,36,29,120,,109,108,11,13,7,7,0.6,0.7
2024-08-15T1000,2441A,112.2213,31.0386,荆门市,石化一小,颗粒物(PM10),59,67,50,38,33,110,,94,92,11,13,6,12,0.6,0.5
2024-08-15T1000,3012A,112.1849,31.0362,荆门市,西山林语,颗粒物(PM10),55,59,46,36,32,114,,108,104,11,12,9,9,0.5,0.5
2024-08-15T1000,3547A,112.1632,31.0138,荆门市,龙泉中学南校,,47,47,42,31,28,119,,118,115,8,8,9,10,0.7,0.7
2024-08-15T1000,1844A,112.2494,30.3197,荆州市,市图书馆,,43,34,41,30,30,106,,87,87,15,15,7,7,0.7,0.7
2024-08-15T1000,1845A,112.2008,30.3544,荆州市,市委党校,,50,50,42,28,34,121,,85,85,8,12,8,8,0.7,0.7
2024-08-15T1000,3194A,112.2747,30.3122,荆州市,管委会,,44,44,39,30,27,111,,92,92,10,11,7,7,0.6,0.6
2024-08-15T1000,3548A,112.1655,30.3364,荆州市,学苑路,颗粒物(PM10),53,56,47,31,31,122,,83,83,9,12,6,7,0.8,0.8
2024-08-15T1000,2342A,117.3102,29.3867,景德镇市,王港中学,,,,,,,,,,,,,,,,
2024-08-15T1000,2343A,117.2117,29.2933,景德镇市,老干部活动中心,,24,24,13,15,10,56,,36,36,8,8,7,7,0.3,0.4
2024-08-15T1000,2344A,117.1894,29.2789,景德镇市,兽医站,,21,21,17,3,8,66,,45,45,6,6,9,8,0.3,0.3
2024-08-15T1000,2345A,117.1547,29.2617,景德镇市,台达陶瓷,,26,26,16,9,8,67,,46,46,11,8,6,11,0.2,0.2
2024-08-15T1000,2346A,117.2461,29.2956,景德镇市,陶研所,,36,36,37,9,10,62,,30,30,8,8,13,8,0.3,0.3
2024-08-15T1000,1803A,115.9872,29.6815,九江市,十里,,28,28,20,14,12,88,,68,68,10,10,9,9,0.8,0.7
2024-08-15T1000,1804A,115.9584,29.7046,九江市,茅山头,,32,31,15,22,12,84,,68,68,13,10,10,10,0.7,0.6
2024-08-15T1000,1805A,115.9877,29.7295,九江市,西园,,29,18,13,18,11,91,,71,71,11,11,10,10,0.7,0.6
2024-08-15T1000,1806A,116.0172,29.6547,九江市,五七二七厂,,26,26,16,16,15,71,,46,46,13,12,11,8,0.7,0.5
2024-08-15T1000,1808A,115.9114,29.6038,九江市,综合工业园,,40,,16,28,14,99,,70,70,12,13,15,12,0.9,0.7
2024-08-15T1000,1809A,116.0721,29.7535,九江市,石化总厂,,28,28,18,17,12,88,,63,63,13,12,10,10,0.8,0.7
2024-08-15T1000,1810A,115.9773,29.5698,九江市,庐山气象台,,33,14,16,14,14,104,,91,91,3,3,7,6,1.1,0.8
2024-08-15T1000,3190A,116.0254,29.6994,九江市,外国语学校,,28,20,16,19,12,87,,65,65,13,13,8,9,0.6,0.5
2024-08-15T1000,2658A,98.5061,39.7443,酒泉市,仓门街子站,,34,34,70,8,14,101,,101,95,11,10,10,10,0.2,0.2
2024-08-15T1000,2659A,98.4989,39.7256,酒泉市,油田生活基地,,32,31,62,14,16,100,,102,96,11,10,8,9,0.2,0.2
2024-08-15T1000,2698A,76.0072,39.4467,喀什地区,巡警大队,颗粒物(PM10),158,265,232,90,60,33,,70,64,45,25,4,4,0.6,0.4
2024-08-15T1000,2699A,75.9755,39.4694,喀什地区,吾办,颗粒物(PM10),157,263,218,86,79,27,,61,55,38,21,4,4,0.8,0.5
2024-08-15T1000,4027A,75.9483,39.4689,喀什地区,老干局,颗粒物(PM10),170,290,234,80,53,9,,53,46,44,23,5,4,0.8,0.5
2024-08-15T1000,1824A,114.3389,34.7781,开封市,肿瘤医院,,44,44,46,22,17,119,,84,84,7,7,6,6,0.5,0.6
2024-08-15T1000,1826A,114.2885,34.7965,开封市,世纪星幼儿园,,,47,42,,24,114,,79,79,6,6,4,5,0.5,0.6
2024-08-15T1000,3147A,114.3438,34.8106,开封市,龙亭公园,颗粒物(PM10),56,61,46,21,20,107,,68,68,7,9,3,3,0.7,0.7
2024-08-15T1000,3210A,114.3644,34.7964,开封市,汴京公园,颗粒物(PM10),53,56,42,28,28,114,,73,73,8,9,5,5,0.6,0.6
2024-08-15T1000,3473A,114.2485,34.8306,开封市,技师学院,,,58,47,23,24,105,,64,64,22,15,,9,1.0,1
2024-08-15T1000,3592A,114.4644,34.7556,开封市,祥符区生态环境局,颗粒物(PM10),55,60,49,38,27,98,,61,61,17,14,7,7,0.6,0.5
2024-08-15T1000,1951A,84.895,45.6094,克拉玛依市,长征新村,,33,33,21,3,4,46,,79,68,25,8,7,7,0.3,0.2
2024-08-15T1000,1952A,84.8988,45.5893,克拉玛依市,南林小区,,29,29,22,15,12,26,,47,46,34,19,10,9,0.6,0.4
2024-08-15T1000,1954A,84.905,44.3396,克拉玛依市,独山子区,颗粒物(PM10),71,92,41,9,13,50,,63,62,26,17,7,9,0.7,0.4
2024-08-15T1000,1955A,85.6979,46.098,克拉玛依市,乌尔禾区商贸楼,,29,29,17,10,9,26,,56,49,31,13,5,5,0.5,0.2
2024-08-15T1000,3612A,85.1045,45.6899,克拉玛依市,白碱滩区新站,,,24,26,3,8,87,,96,91,,6,,8,0.2,0.3
2024-08-15T1000,2697A,76.1454,39.7142,克孜勒苏柯尔克孜自治州,市人民政府,细颗粒物(PM2.5),125,146,191,95,81,43,,82,72,23,10,2,4,0.5,0.3
2024-08-15T1000,3665A,76.1658,39.7157,克孜勒苏柯尔克孜自治州,克州文化中心,细颗粒物(PM2.5),113,165,205,85,84,54,,83,75,17,7,4,5,0.4,0.3
2024-08-15T1000,1450A,102.8204,24.8886,昆明市,呈贡新区,,,48,44,18,24,,,60,60,11,15,,7,0.8,0.8
2024-08-15T1000,1451A,102.6251,24.9608,昆明市,西山森林公园,,,,,,,,,,,,,,,,
2024-08-15T1000,1452A,102.7252,25.0902,昆明市,龙泉镇,,35,35,37,16,20,86,,66,66,13,14,7,7,0.6,0.6
2024-08-15T1000,1453A,102.7266,25.0375,昆明市,东风东路,,36,36,45,18,21,91,,65,65,15,19,7,5,0.6,0.5
2024-08-15T1000,1454A,102.6742,25.0669,昆明市,金鼎山,,44,44,42,17,18,91,,71,67,17,15,10,9,0.4,0.4
2024-08-15T1000,1455A,102.6644,25.0401,昆明市,碧鸡广场,,40,40,46,17,18,94,,69,68,15,19,5,4,0.4,0.4
2024-08-15T1000,3179A,102.7494,25.0119,昆明市,官渡区博物馆,,35,35,42,16,22,92,,59,59,16,20,9,7,0.4,0.4
2024-08-15T1000,3375A,102.8017,24.8336,昆明市,青年创业园,,34,34,40,19,22,95,,49,49,7,13,3,3,0.5,0.5
2024-08-15T1000,3550A,102.7997,24.9786,昆明市,昆明学院,,42,42,50,22,25,96,,58,54,16,21,7,6,0.5,0.4
2024-08-15T1000,3551A,102.5967,24.6736,昆明市,晋宁区生态环境分局,,,,33,,22,,,59,53,8,10,4,4,0.5,0.6
2024-08-15T1000,3552A,102.6678,24.9856,昆明市,云天化总部,,41,41,45,24,24,91,,68,64,15,13,6,5,0.5,0.5
2024-08-15T1000,1456A,91.1319,29.6514,拉萨市,八廓街,,32,17,15,7,9,102,,84,84,12,14,6,6,0.2,0.2
2024-08-15T1000,1457A,91.1221,29.6747,拉萨市,市环保局,,30,30,18,10,9,86,,61,61,25,18,7,7,0.3,0.1
2024-08-15T1000,1458A,91.0874,29.6475,拉萨市,区监测站,,29,25,15,12,8,90,,66,66,22,22,7,7,0.4,0.4
2024-08-15T1000,1459A,91.1774,29.6541,拉萨市,西藏大学,,,8,12,6,7,,,85,85,8,9,,7,0.2,0.2
2024-08-15T1000,1460A,90.9798,29.6588,拉萨市,区辐射站,,28,26,23,14,12,88,,67,67,19,22,9,8,0.2,0.3
2024-08-15T1000,1461A,91.0834,29.6292,拉萨市,拉萨火车站,,22,22,13,11,8,67,,67,65,36,18,9,9,0.4,0.2
2024-08-15T1000,2520A,109.2203,23.7256,来宾市,来宾技工学校,,24,24,18,9,10,37,,23,22,9,11,9,10,0.7,0.7
2024-08-15T1000,3535A,109.1781,23.7297,来宾市,兴宾区政府,,27,27,13,12,9,44,,33,30,7,5,5,6,0.9,0.8
2024-08-15T1000,4002A,109.2416,23.7461,来宾市,中南小学,,17,17,20,7,12,51,,32,31,6,11,8,8,0.7,0.8
2024-08-15T1000,1476A,103.631,36.1031,兰州市,兰炼宾馆,颗粒物(PM10),54,58,35,23,21,85,,48,48,28,29,10,8,0.6,0.5
2024-08-15T1000,1477A,104.1373,35.9454,兰州市,榆中兰大校区,,,,,,,,,,,,,,,,
2024-08-15T1000,1478A,103.8412,36.0726,兰州市,生物制品所,颗粒物(PM10),56,62,31,23,21,72,,22,22,27,32,13,7,0.9,1
2024-08-15T1000,1479A,103.831,36.0464,兰州市,铁路设计院,颗粒物(PM10),56,61,40,27,29,45,,18,18,53,45,16,11,1.1,0.8
2024-08-15T1000,3186A,103.7158,36.1058,兰州市,教育港,颗粒物(PM10),58,66,44,31,27,66,,34,34,28,26,8,5,0.5,0.5
2024-08-15T1000,3241A,103.7439,36.0842,兰州市,百合公园,颗粒物(PM10),54,58,34,14,14,48,,23,23,41,33,13,8,0.9,0.9
2024-08-15T1000,3242A,103.9611,35.998,兰州市,和平,,,87,24,28,14,,,,,30,20,34,8,1.6,0.8
2024-08-15T1000,3245A,103.6633,36.533,兰州新区,新区管委会,,,,40,,22,,,109,108,9,9,5,6,0.4,0.4
2024-08-15T1000,3246A,103.6975,36.4789,兰州新区,舟曲中学,,,56,36,24,20,,,110,110,9,10,11,8,0.4,0.5
2024-08-15T1000,1067A,116.6708,39.5111,廊坊市,药材公司,颗粒物(PM10),54,58,51,19,22,104,,56,56,10,16,3,3,0.6,0.5
2024-08-15T1000,1068A,116.7214,39.5589,廊坊市,开发区,颗粒物(PM10),54,57,43,27,25,103,,59,59,8,9,2,3,0.7,0.6
2024-08-15T1000,1070A,116.7244,39.5269,廊坊市,北华航天学院,颗粒物(PM10),56,61,60,25,20,118,,73,73,9,15,3,2,0.6,0.6
2024-08-15T1000,2919A,116.7022,39.5453,廊坊市,河北工业大学,,,,49,,23,108,,70,69,,12,4,2,0.6,0.5
2024-08-15T1000,2535A,103.7723,29.5462,乐山市,花湖湾,,46,,62,32,46,117,,58,58,16,20,6,7,0.5,0.7
2024-08-15T1000,2536A,103.7627,29.5844,乐山市,牛耳桥,,36,35,67,22,45,115,,78,78,21,26,5,3,0.6,0.6
2024-08-15T1000,2537A,103.7508,29.6006,乐山市,市第三水厂,,41,41,63,23,37,121,,92,92,20,24,5,4,0.5,0.6
2024-08-15T1000,2538A,103.7571,29.5664,乐山市,市监测站,,,,65,,38,,,84,84,18,17,8,7,0.9,0.9
2024-08-15T1000,3361A,103.7311,29.5628,乐山市,理工大学,,38,32,71,21,45,121,,62,62,15,19,7,6,0.6,0.8
2024-08-15T1000,2598A,100.2143,26.8576,丽江市,西南郊,,,,,,,,,,,,,,,,
2024-08-15T1000,2599A,100.2497,26.8802,丽江市,丽江古城,,35,35,33,23,20,94,,68,68,14,13,10,10,0.8,0.7
2024-08-15T1000,2600A,100.2203,26.8906,丽江市,市中心,,44,44,32,21,19,102,,86,78,14,13,11,10,0.7,0.6
2024-08-15T1000,1267A,119.914,28.4514,丽水市,监测站大楼,,,33,27,15,13,79,,32,32,,17,3,4,0.6,0.6
2024-08-15T1000,1268A,119.93,28.4586,丽水市,莲都小学,,34,34,42,20,20,76,,37,37,11,16,4,4,0.5,0.5
2024-08-15T1000,1269A,119.879,28.4231,丽水市,余庄前,,33,33,28,20,17,75,,23,23,12,14,3,3,0.5,0.5
2024-08-15T1000,1173A,119.176,34.5885,连云港市,市环境监测站,,29,29,23,9,10,81,,55,55,25,19,7,6,0.6,0.5
2024-08-15T1000,3000A,119.3581,34.6972,连云港市,德源药业,,26,17,23,7,11,82,,34,34,13,23,5,4,0.3,0.4
2024-08-15T1000,3007A,119.178,34.844,连云港市,新城一中,,,37,29,33,16,95,,29,29,20,24,,5,1.7,1.3
2024-08-15T1000,3008A,119.3608,34.7519,连云港市,胡沟管理处,,27,22,16,12,6,85,,57,57,14,15,7,6,0.7,0.5
2024-08-15T1000,3009A,119.1478,34.5911,连云港市,矿山设计院,,27,27,29,12,13,82,,41,41,19,20,9,6,0.8,0.8
2024-08-15T1000,3434A,119.2413,34.6539,连云港市,工贸学校,,30,18,21,11,13,94,,61,61,9,12,6,6,0.9,0.9
2024-08-15T1000,3664A,119.4172,34.7341,连云港市,连云街道,,30,30,22,17,12,86,,44,44,23,22,2,2,0.6,0.5
2024-08-15T1000,2571A,102.3431,27.8099,凉山彝族自治州,青龙寺,,32,29,28,22,31,58,,,,9,7,2,9,0.1,0.3
2024-08-15T1000,2572A,102.2721,27.8415,凉山彝族自治州,邛海宾馆,,28,26,31,19,19,68,,93,84,11,12,6,11,0.5,0.6
2024-08-15T1000,2573A,102.2625,27.898,凉山彝族自治州,西昌市政府,,50,42,35,35,24,73,,89,82,8,9,8,10,0.7,0.7
2024-08-15T1000,2574A,102.2685,27.8851,凉山彝族自治州,凉山州政府,,34,34,40,16,19,68,,86,81,14,11,6,8,0.8,0.6
2024-08-15T1000,2575A,102.237,27.8914,凉山彝族自治州,长安,,37,37,42,20,20,43,,87,76,37,15,8,10,0.9,0.6
2024-08-15T1000,2212A,123.2,41.1953,辽阳市,宏伟区,颗粒物(PM10),65,80,43,46,21,46,,20,20,26,21,14,8,0.9,0.5
2024-08-15T1000,2213A,123.1683,41.2495,辽阳市,新华园,细颗粒物(PM2.5),69,73,42,50,22,58,,22,22,24,21,22,12,1.3,0.7
2024-08-15T1000,2214A,123.2354,41.2639,辽阳市,滨河路,细颗粒物(PM2.5),99,99,43,74,25,35,,16,16,20,20,8,8,0.9,0.5
2024-08-15T1000,2215A,123.149,41.2991,辽阳市,铁西工业园,颗粒物(PM10),77,104,40,49,17,41,,13,13,18,18,12,9,1.1,0.8
2024-08-15T1000,2227A,125.1358,42.8845,辽源市,环保局,,41,41,23,22,14,68,,20,20,16,15,8,6,0.8,0.7
2024-08-15T1000,3239A,125.0764,42.9078,辽源市,银鹰制药,,30,30,19,21,12,69,,21,21,18,13,12,5,0.9,0.8
2024-08-15T1000,1625A,115.9848,36.4372,聊城市,区政府,颗粒物(PM10),52,53,46,29,23,113,,55,55,17,16,10,8,0.6,0.5
2024-08-15T1000,2878A,116.0072,36.4343,聊城市,聊大东校,细颗粒物(PM2.5),63,63,48,45,30,116,,56,56,16,15,13,7,0.7,0.6
2024-08-15T1000,3200A,115.9819,36.4978,聊城市,监控中心,颗粒物(PM10),56,62,44,31,22,99,,41,41,20,15,9,6,0.8,0.7
2024-08-15T1000,3513A,116.0445,36.4361,聊城市,九州社区,,,,54,,27,,,44,38,,13,11,6,,0.6
2024-08-15T1000,4018A,116.0567,36.4608,聊城市,星美广场,颗粒物(PM10),66,82,61,42,26,111,,49,49,16,14,9,7,1.0,0.7
2024-08-15T1000,2632A,94.3681,29.6376,林芝市,林芝监测站,,11,8,6,6,5,33,,30,28,6,5,9,9,0.3,0.3
2024-08-15T1000,2633A,94.3616,29.6616,林芝市,林芝人民医院,,12,12,10,6,6,33,,33,31,6,6,6,6,0.2,0.2
2024-08-15T1000,2603A,100.0781,23.8982,临沧市,市环保局,,34,34,39,21,25,41,,37,34,13,10,12,6,0.4,0.3
2024-08-15T1000,2604A,100.0894,23.8822,临沧市,市气象局,,46,46,32,27,20,42,,37,35,15,10,7,6,0.5,0.4
2024-08-15T1000,1733A,111.5531,36.0783,临汾市,临钢医院,颗粒物(PM10),60,70,56,24,23,68,,61,57,15,13,6,6,0.9,0.9
2024-08-15T1000,1734A,111.5028,36.0714,临汾市,技工学校,,,,56,,23,,,70,70,15,19,4,5,0.9,0.7
2024-08-15T1000,1736A,111.5018,36.0855,临汾市,市委,颗粒物(PM10),52,54,49,29,25,87,,76,76,15,17,8,9,1.0,0.8
2024-08-15T1000,3018A,111.505,36.1014,临汾市,唐尧大酒店,,50,50,47,31,20,71,,60,60,16,18,6,6,1.0,0.8
2024-08-15T1000,3668A,111.5036,36.0414,临汾市,城南,颗粒物(PM10),52,54,59,25,23,87,,48,48,12,18,4,4,0.8,0.8
2024-08-15T1000,2667A,103.2069,35.5993,临夏回族自治州,环保局,,36,36,30,17,18,64,,30,30,5,8,8,7,0.3,0.4
2024-08-15T1000,2668A,103.2417,35.6057,临夏回族自治州,建设大厦,,26,26,24,11,12,61,,33,33,7,7,3,3,0.3,0.3
2024-08-15T1000,1618A,118.3429,35.0532,临沂市,沂河小区,,39,39,35,22,18,119,,65,65,7,18,6,6,0.4,0.5
2024-08-15T1000,1619A,118.295,35.0583,临沂市,鲁南制药厂,,36,34,36,18,17,115,,67,67,13,26,5,5,0.4,0.4
2024-08-15T1000,1620A,118.2794,34.9976,临沂市,新光毛纺厂,,37,27,32,22,19,117,,65,65,14,31,6,5,0.9,0.9
2024-08-15T1000,1621A,118.3956,35.0888,临沂市,河东保险公司,,39,39,31,25,16,106,,54,54,14,26,7,7,0.4,0.5
2024-08-15T1000,3370A,118.3564,35.0215,临沂市,十里堡居委,,42,34,24,29,18,114,,64,64,11,18,8,7,0.6,0.7
2024-08-15T1000,3496A,118.3604,35.1084,临沂市,南坊新区,,,44,37,22,15,113,,51,51,12,24,,8,,0.8
2024-08-15T1000,3860A,118.3920,35.0300,临沂市,皇山花园小区,,41,41,34,28,21,108,,50,50,14,30,11,11,0.6,0.6
2024-08-15T1000,1870A,109.4856,24.3895,柳州市,柳东小学,,39,39,18,19,10,57,,32,32,10,7,9,8,0.8,0.7
2024-08-15T1000,1871A,109.4157,24.3277,柳州市,环保监测站,,46,46,24,26,16,46,,27,27,8,9,7,8,1.0,0.9
2024-08-15T1000,1872A,109.389,24.341,柳州市,河西水厂,,,73,26,44,15,45,,24,24,,12,19,9,1.1,1
2024-08-15T1000,1873A,109.4311,24.2921,柳州市,市四中,,28,28,20,13,10,69,,33,33,6,9,7,7,0.8,0.8
2024-08-15T1000,1874A,109.4006,24.3631,柳州市,市九中,,40,40,25,22,13,57,,28,28,11,12,8,6,1.0,0.9
2024-08-15T1000,1875A,109.4958,24.3134,柳州市,古亭山,,45,45,23,18,8,52,,28,28,10,9,9,7,0.9,0.8
2024-08-15T1000,3402A,109.5422,24.3996,柳州市,市二中,,30,26,21,21,10,58,,24,24,9,9,7,6,0.8,0.6
2024-08-15T1000,2307A,116.5079,31.737,六安市,监测大楼,,30,30,15,15,14,81,,67,64,7,7,6,5,0.5,0.5
2024-08-15T1000,2308A,116.4738,31.7643,六安市,皖西学院,,44,44,19,19,11,65,,58,56,11,8,5,4,0.4,0.3
2024-08-15T1000,2309A,116.4996,31.7905,六安市,朝阳厂,,23,17,14,16,12,62,,57,54,12,7,10,9,0.3,0.3
2024-08-15T1000,2310A,116.5567,31.7886,六安市,开发区,,32,32,14,16,12,71,,51,51,5,7,5,4,0.5,0.4
2024-08-15T1000,2576A,104.8,26.5892,六盘水市,窑上,,,,,,,,,,,,,,,,
2024-08-15T1000,2577A,104.83,26.5917,六盘水市,黄土坡,细颗粒物(PM2.5),54,40,40,38,25,88,,39,39,14,18,14,12,0.6,0.8
2024-08-15T1000,2578A,104.89,26.5939,六盘水市,水钢,颗粒物(PM10),56,61,55,24,23,68,,24,24,34,29,25,10,1.8,1.1
2024-08-15T1000,2579A,104.8475,26.5894,六盘水市,民中,颗粒物(PM10),54,57,41,27,22,90,,43,43,16,24,10,10,0.5,0.9
2024-08-15T1000,2580A,104.9544,26.5506,六盘水市,双水,颗粒物(PM10),60,70,46,40,21,38,,19,19,42,24,18,8,1.6,0.6
2024-08-15T1000,2335A,117.0189,25.1181,龙岩市,龙岩师专,,,,,,,,,,,,,,,,
2024-08-15T1000,2336A,117.0217,25.1033,龙岩市,龙岩市监测站,,32,32,16,15,12,53,,34,34,13,11,6,5,0.7,0.4
2024-08-15T1000,2337A,117.0258,25.0661,龙岩市,闽西职业技术学院,,15,15,18,10,10,48,,34,33,9,11,3,3,0.5,0.4
2024-08-15T1000,2338A,117.0196,25.0306,龙岩市,龙岩学院,,16,13,19,11,8,50,,27,27,5,6,1,3,0.4,0.3
2024-08-15T1000,2665A,105.0822,33.3261,陇南市,汉王镇固水子,,,,,,,,,,,,,,,,
2024-08-15T1000,2885A,104.9339,33.3826,陇南市,滨江中学,,27,27,36,9,10,60,,70,65,12,8,5,5,0.6,0.5
2024-08-15T1000,3247A,104.955,33.371,陇南市,市总工会,,21,21,31,7,9,51,,72,67,16,6,5,5,0.5,0.5
2024-08-15T1000,2487A,111.9589,27.8901,娄底市,电视发射台,,49,43,40,34,21,91,,59,59,5,5,6,6,0.6,0.5
2024-08-15T1000,2488A,111.9975,27.725,娄底市,市监测站,颗粒物(PM10),58,66,47,37,33,68,,41,41,14,17,7,7,0.7,0.9
2024-08-15T1000,2489A,112.0194,27.7314,娄底市,市委党校,颗粒物(PM10),54,57,47,30,28,66,,38,38,10,12,6,8,0.5,0.7
2024-08-15T1000,2490A,111.9561,27.7569,娄底市,涟钢,,,41,47,21,26,,,28,26,22,17,11,12,1.8,1
2024-08-15T1000,2491A,111.9892,27.7044,娄底市,市政府,颗粒物(PM10),53,56,38,35,30,59,,36,36,15,13,6,6,0.5,0.5
2024-08-15T1000,1893A,105.4324,28.9634,泸州市,九狮山,,,43,51,22,27,86,,50,50,21,15,4,9,,
2024-08-15T1000,1894A,105.4427,28.9063,泸州市,小市上码头,,34,34,49,20,24,92,,58,58,19,16,11,10,0.5,0.5
2024-08-15T1000,1895A,105.4241,28.8573,泸州市,兰田宪桥,,46,33,53,32,40,80,,27,27,21,20,9,7,0.5,0.5
2024-08-15T1000,1896A,105.4379,28.8833,泸州市,市环监站,,45,45,48,26,28,70,,46,43,30,17,11,14,0.4,0.4
2024-08-15T1000,3490A,105.3617,28.7703,泸州市,纳溪区环保局,颗粒物(PM10),51,51,60,32,38,79,,32,32,19,21,6,5,0.5,0.5
2024-08-15T1000,2183A,111.1406,37.5211,吕梁市,环保局,,,60,48,25,19,,,21,18,11,19,8,6,0.6,0.5
2024-08-15T1000,2185A,111.1297,37.5136,吕梁市,自来水公司,,49,49,47,20,17,85,,37,37,12,17,8,5,0.6,0.5
2024-08-15T1000,2867A,111.1283,37.51,吕梁市,马茂庄小学,颗粒物(PM10),56,62,66,26,19,99,,36,36,11,26,6,4,0.7,0.5
2024-08-15T1000,1812A,112.3931,34.6516,洛阳市,市委党校,颗粒物(PM10),52,53,41,29,26,109,,54,53,13,15,8,5,0.8,0.8
2024-08-15T1000,1814A,112.4657,34.6871,洛阳市,豫西宾馆,颗粒物(PM10),56,62,44,34,20,108,,76,76,12,12,7,3,0.5,0.5
2024-08-15T1000,1815A,112.494,34.6886,洛阳市,河南林校,,47,47,35,25,21,112,,72,72,10,12,4,3,0.7,0.7
2024-08-15T1000,1816A,112.3844,34.623,洛阳市,开发区管委会,,36,35,35,23,22,115,,55,55,9,13,3,2,0.5,0.5
2024-08-15T1000,1817A,112.4267,34.6258,洛阳市,市委新办公区,,50,39,32,35,27,114,,67,67,6,8,6,3,0.7,0.7
2024-08-15T1000,3340A,112.6005,34.6326,洛阳市,伊滨,,,,47,,25,89,,40,40,16,16,9,5,,0.4
2024-08-15T1000,3341A,112.4951,34.6332,洛阳市,中移产业园,颗粒物(PM10),56,62,42,36,26,105,,60,60,10,12,7,4,0.8,0.7
2024-08-15T1000,3593A,112.5736,34.8993,洛阳市,吉利监测站,颗粒物(PM10),53,56,43,32,28,101,,49,49,13,11,5,3,0.8,0.6
2024-08-15T1000,3635A,112.3677,34.662,洛阳市,河科大西苑校区,,45,45,35,23,17,116,,50,50,8,13,6,5,0.7,0.7
2024-08-15T1000,3636A,112.4388,34.6781,洛阳市,英才小学,,,,37,,25,,,80,79,8,7,6,3,0.6,0.6
2024-08-15T1000,2399A,114.051,33.5699,漯河市,三五一五工厂,颗粒物(PM10),56,61,46,31,27,102,,70,70,10,10,6,6,0.5,0.5
2024-08-15T1000,2400A,114.0055,33.5698,漯河市,漯河大学,,,,46,,26,,,79,74,8,7,,9,0.6,0.5
2024-08-15T1000,2401A,114.0138,33.5828,漯河市,市水利局,细颗粒物(PM2.5),58,63,51,41,26,103,,67,67,9,9,7,7,0.5,0.5
2024-08-15T1000,2402A,114.0261,33.5698,漯河市,市广电局,颗粒物(PM10),56,61,46,34,24,103,,71,71,7,6,6,5,0.7,0.7
2024-08-15T1000,3478A,113.9749,33.5664,漯河市,市图书馆,颗粒物(PM10),56,62,47,34,28,110,,74,74,9,10,8,7,0.6,0.6
2024-08-15T1000,3479A,114.0967,33.5906,漯河市,召陵区卫健委,细颗粒物(PM2.5),62,70,53,44,30,98,,54,54,8,11,3,2,0.7,0.7
2024-08-15T1000,1798A,118.5092,31.6837,马鞍山市,湖东路四小,,33,33,35,6,15,97,,65,65,7,20,6,8,0.7,0.9
2024-08-15T1000,1799A,118.5024,31.6449,马鞍山市,开发区,,30,29,33,10,15,93,,64,64,9,18,4,5,0.7,0.9
2024-08-15T1000,1800A,118.5228,31.7231,马鞍山市,慈湖,,31,19,38,12,18,97,,72,72,5,21,5,5,0.7,0.8
2024-08-15T1000,1802A,118.6245,31.7241,马鞍山市,濮塘,,27,19,24,12,17,84,,49,49,6,15,6,5,0.5,0.6
2024-08-15T1000,3633A,118.4918,31.6809,马鞍山市,雨山,,30,15,31,10,16,95,,66,66,4,19,6,9,0.8,1.2
2024-08-15T1000,1686A,111.0286,21.4688,茂名市,电白南海,,28,27,20,19,15,71,,50,49,8,7,10,8,0.6,0.5
2024-08-15T1000,1687A,110.9294,21.6533,茂名市,茂石化七小,,32,24,19,22,17,71,,45,45,14,8,12,9,0.7,0.4
2024-08-15T1000,1688A,110.9107,21.6687,茂名市,健康路,,29,29,15,14,7,91,,51,51,17,8,19,10,0.9,0.6
2024-08-15T1000,1689A,110.8592,21.6828,茂名市,高岭,,29,29,18,19,13,88,,45,45,18,10,30,15,0.6,0.5
2024-08-15T1000,3450A,111.01,21.5165,茂名市,电白水东,,25,17,13,17,9,69,,46,46,10,6,7,5,0.6,0.5
2024-08-15T1000,2539A,104.0308,30.0478,眉山市,黑龙滩水库,,37,36,45,24,24,116,,118,118,8,8,6,6,0.3,0.3
2024-08-15T1000,2540A,103.8416,30.0874,眉山市,气象局,,33,33,46,19,22,68,,108,94,31,15,7,9,0.6,0.5
2024-08-15T1000,3137A,103.8578,30.0744,眉山市,市委党校,,36,36,45,19,19,93,,123,112,22,13,8,8,0.4,0.3
2024-08-15T1000,3148A,103.8291,30.0564,眉山市,区人社局,,,,44,,19,,,129,121,,16,11,12,,0.6
2024-08-15T1000,1690A,116.1231,24.3284,梅州市,梅江月梅,,,,,,,,,,,,,,,,
2024-08-15T1000,1691A,116.0797,24.2719,梅州市,梅县新城,,20,20,14,14,8,40,,32,31,10,8,5,4,0.6,0.5
2024-08-15T1000,1692A,116.1248,24.2654,梅州市,环境监控中心,,21,21,18,6,6,43,,26,26,17,14,5,5,0.4,0.4
2024-08-15T1000,3315A,116.1233,24.2991,梅州市,梅龙,,18,14,9,12,9,35,,39,37,13,9,8,8,0.7,0.5
2024-08-15T1000,1878A,104.7778,31.4741,绵阳市,富乐山,,34,28,52,19,29,106,,92,92,7,11,9,9,0.6,0.6
2024-08-15T1000,1879A,104.7563,31.4535,绵阳市,市人大,,28,28,58,18,26,85,,97,96,24,20,9,10,0.6,0.5
2024-08-15T1000,1880A,104.6697,31.4668,绵阳市,高新区自来水公司,,32,22,57,9,24,100,,97,97,7,11,7,8,0.4,0.4
2024-08-15T1000,1881A,104.7287,31.5075,绵阳市,三水厂,,33,33,61,16,32,90,,98,98,14,23,4,6,0.7,0.6
2024-08-15T1000,3491A,104.69,31.5322,绵阳市,西科大附属小学,,32,27,60,14,28,100,,99,99,9,16,6,10,0.5,0.5
2024-08-15T1000,3492A,104.5648,31.5343,绵阳市,安州区旅游局,,33,28,57,17,33,104,,111,110,10,12,8,9,0.5,0.5
2024-08-15T1000,1784A,129.61,44.561,牡丹江市,环保大楼,,35,35,23,10,10,41,,24,24,18,10,10,8,0.4,0.3
2024-08-15T1000,1785A,129.6115,44.5782,牡丹江市,文化广场,,26,26,30,8,16,43,,24,24,20,13,10,8,0.5,0.4
2024-08-15T1000,1786A,129.5904,44.5963,牡丹江市,第一医院,,27,27,24,9,13,46,,24,24,18,11,7,6,0.6,0.4
2024-08-15T1000,1787A,129.6364,44.6075,牡丹江市,机车工厂,,,6,28,3,18,50,,20,20,8,9,,23,,0.3
2024-08-15T1000,1788A,129.6386,44.5462,牡丹江市,第一中学,,18,18,25,3,12,50,,26,26,16,14,7,6,0.5,0.4
2024-08-15T1000,2531A,105.0703,29.61,内江市,市监测站,细颗粒物(PM2.5),70,,54,51,49,77,,48,48,21,22,9,10,0.4,0.5
2024-08-15T1000,2532A,105.0717,29.5947,内江市,东兴区政府,,,52,52,39,36,,,57,50,22,19,,10,1.0,0.9
2024-08-15T1000,2533A,105.0653,29.5817,内江市,内江二中,颗粒物(PM10),54,57,57,26,33,82,,57,57,20,21,8,7,0.8,0.7
2024-08-15T1000,2534A,105.0406,29.5822,内江市,内江日报社,细颗粒物(PM2.5),63,61,58,45,43,95,,53,53,22,29,9,9,0.5,0.5
2024-08-15T1000,2628A,92.0657,31.4846,那曲市,那曲监测站,,41,41,22,23,8,93,,95,87,6,7,6,6,0.4,0.3
2024-08-15T1000,3128A,92.0506,31.4797,那曲市,那曲会议中心,,34,20,16,10,8,107,,104,101,4,4,4,4,0.2,0.2
2024-08-15T1000,1290A,115.8931,28.6843,南昌市,省外办,,27,18,30,9,15,85,,88,84,21,13,7,8,0.3,0.3
2024-08-15T1000,1291A,115.8886,28.7003,南昌市,省林业公司,,26,6,17,3,10,82,,80,79,12,12,5,7,0.6,0.6
2024-08-15T1000,1292A,115.8126,28.7442,南昌市,林科所,,23,6,12,3,7,71,,78,76,15,15,7,7,0.1,0.2
2024-08-15T1000,1294A,115.8518,28.687,南昌市,建工学校,,28,6,17,3,8,87,,80,80,10,11,7,8,0.4,0.4
2024-08-15T1000,1295A,115.8921,28.6424,南昌市,象湖,,26,6,16,3,9,83,,91,87,12,9,4,5,0.5,0.7
2024-08-15T1000,1296A,115.7423,28.7996,南昌市,武术学校,,22,20,21,14,14,70,,44,44,3,4,4,6,0.3,0.4
2024-08-15T1000,1298A,115.9314,28.6842,南昌市,省站,,,,20,,13,80,,79,79,9,9,,8,0.6,0.5
2024-08-15T1000,3046A,115.9084,28.6062,南昌市,机电学校,,23,14,24,7,11,73,,77,77,15,13,6,7,0.8,0.7
2024-08-15T1000,3690A,115.9721,28.7031,南昌市,外国语学校,,21,11,19,7,9,67,,79,78,19,7,7,7,0.5,0.5
2024-08-15T1000,1905A,106.056,30.8064,南充市,西山风景区,,33,31,44,23,30,77,,64,62,22,24,1,2,0.1,0.1
2024-08-15T1000,1906A,106.0789,30.8023,南充市,南充市委,,41,41,62,28,35,86,,57,57,11,13,7,8,0.4,0.4
2024-08-15T1000,1907A,106.1031,30.8217,南充市,南充炼油厂,颗粒物(PM10),52,53,66,31,35,79,,60,60,12,12,5,6,0.3,0.4
2024-08-15T1000,1908A,106.1064,30.7856,南充市,高坪区监测站,,38,38,60,20,30,89,,60,60,9,16,6,6,0,0.1
2024-08-15T1000,1909A,106.0642,30.7636,南充市,嘉陵区环保局,,47,47,60,27,30,87,,64,64,18,19,8,9,0.4,0.4
2024-08-15T1000,1910A,106.1087,30.8388,南充市,市环境监测站,,,33,61,32,34,80,,59,59,,13,6,6,0.5,0.7
2024-08-15T1000,1151A,118.8086,32.1065,南京市,迈皋桥,,33,16,23,9,11,103,,69,69,12,18,6,7,0.3,0.4
2024-08-15T1000,1152A,118.7538,32.0551,南京市,草场门,,29,14,24,7,10,91,,67,67,4,10,5,5,0.4,0.4
2024-08-15T1000,1153A,118.7794,32.0745,南京市,山西路,,,19,26,12,13,,,70,69,1,8,4,4,,0.4
2024-08-15T1000,1154A,118.7752,32.0023,南京市,中华门,,31,14,22,12,13,98,,73,73,8,12,4,4,0.4,0.5
2024-08-15T1000,1155A,118.8109,32.0309,南京市,瑞金路,,,17,25,7,14,,,69,68,1,7,4,6,0.4,0.4
2024-08-15T1000,1156A,118.7997,32.0754,南京市,玄武湖,,29,21,27,6,10,91,,55,55,5,6,6,6,0.5,0.5
2024-08-15T1000,1157A,118.6414,32.0931,南京市,浦口,,26,14,28,9,12,82,,49,49,19,15,7,7,0.4,0.5
2024-08-15T1000,1158A,118.7356,31.9996,南京市,奥体中心,,33,27,26,12,18,103,,77,77,7,13,7,8,0.3,0.3
2024-08-15T1000,1159A,118.9125,32.1028,南京市,仙林大学城,,35,29,26,14,14,111,,69,69,10,13,7,7,0.5,0.5
2024-08-15T1000,3422A,118.8436,31.9198,南京市,江宁彩虹桥,,,29,28,,16,,,67,67,3,10,,4,0.8,0.8
2024-08-15T1000,3423A,119.0138,31.6494,南京市,溧水永阳,,,24,24,13,16,103,,60,60,10,14,,4,0.5,0.5
2024-08-15T1000,3424A,118.879,31.3302,南京市,高淳老职中,,32,22,26,20,19,100,,64,63,12,12,6,5,0.6,0.6
2024-08-15T1000,3427A,118.8554,32.3578,南京市,六合雄州,,30,11,19,8,17,94,,59,59,2,2,3,3,0.3,0.5
2024-08-15T1000,1401A,108.3103,22.7881,南宁市,二十一中,,25,25,22,14,10,50,,38,38,19,20,5,3,0.8,0.8
2024-08-15T1000,1402A,108.3141,22.8528,南宁市,北湖,,,18,26,17,13,,,31,31,14,24,3,4,0.7,0.7
2024-08-15T1000,1403A,108.3206,22.8225,南宁市,市监测站,,29,29,21,16,14,39,,33,33,29,25,7,4,0.7,0.7
2024-08-15T1000,1404A,108.3829,22.8037,南宁市,大自然花园,,,20,17,,11,,,32,32,13,14,,4,0.7,0.7
2024-08-15T1000,1405A,108.4394,22.7904,南宁市,仙葫,,23,23,19,10,12,56,,31,31,12,16,5,5,0.8,0.8
2024-08-15T1000,1406A,108.2397,22.8467,南宁市,区农职院,,23,22,29,16,16,33,,25,25,21,19,7,9,0.8,0.8
2024-08-15T1000,1407A,108.3275,22.735,南宁市,英华嘉园,,19,14,21,13,14,50,,28,28,18,22,5,5,0.6,0.6
2024-08-15T1000,1408A,108.2257,22.7757,南宁市,沙井镇街道办,,23,23,27,14,12,42,,24,24,14,25,3,3,0.7,0.7
2024-08-15T1000,3401A,108.4834,22.7618,南宁市,红星社区,,,,20,12,10,,,21,21,8,12,5,5,0.8,0.8
2024-08-15T1000,2331A,118.0966,26.6761,南平市,茫荡山,,,,,,,,,,,,,,,,
2024-08-15T1000,2332A,118.1681,26.6369,南平市,南平市监测站,,23,23,21,13,12,48,,35,35,9,8,4,4,0.6,0.5
2024-08-15T1000,2333A,118.1825,26.6489,南平市,南平铝业有限公司,,,,19,,12,,,38,37,,8,5,6,0.6,0.6
2024-08-15T1000,2334A,118.1756,26.6272,南平市,南平七中,,28,28,24,15,10,43,,26,26,17,8,5,5,0.6,0.6
2024-08-15T1000,1168A,120.9098,31.9663,南通市,狼山街道,,25,16,14,8,6,80,,75,74,5,5,6,6,0.5,0.5
2024-08-15T1000,1169A,120.86,32.0005,南通市,虹桥,,25,18,15,6,7,77,,76,76,3,4,5,5,0.6,0.5
2024-08-15T1000,1170A,120.87,32.02,南通市,城中,,25,17,18,8,5,78,,78,76,2,3,5,6,0.6,0.6
2024-08-15T1000,1171A,120.94,31.93,南通市,星湖花园,,25,11,9,3,3,77,,80,78,8,10,4,4,0.5,0.6
2024-08-15T1000,1172A,120.81,32.0417,南通市,紫琅学院,,23,12,10,3,4,72,,70,70,8,9,6,6,0.8,0.7
2024-08-15T1000,3291A,121.067,32.062,南通市,通州监测站,,31,31,18,9,6,77,,80,76,1,2,3,3,0.6,0.6
2024-08-15T1000,3432A,120.9348,31.9883,南通市,环境教育馆,,,,18,,5,78,,74,71,10,11,4,6,,0.5
2024-08-15T1000,2404A,112.5224,33.0122,南阳市,瓦房庄,,,,35,,20,,,100,97,10,9,7,5,,0.6
2024-08-15T1000,2405A,112.5003,32.9735,南阳市,汉画馆,,47,47,39,28,23,121,,100,99,10,10,6,5,0.6,0.6
2024-08-15T1000,2406A,112.5573,33.027,南阳市,气象站,,,43,37,22,19,108,,91,88,8,9,,6,0.7,0.7
2024-08-15T1000,2407A,112.5481,32.9689,南阳市,理工学院,,39,39,33,18,15,112,,102,99,10,10,6,6,0.6,0.5
2024-08-15T1000,4008A,112.5234,32.9922,南阳市,卧龙区政府,,45,45,35,24,21,114,,100,98,13,13,6,5,0.7,0.6
2024-08-15T1000,1234A,121.8358,29.911,宁波市,区环保大楼,,35,35,34,17,16,89,,55,55,9,20,8,8,0.5,0.6
2024-08-15T1000,1235A,121.56,29.82,宁波市,万里学院,颗粒物(PM10),51,51,38,30,20,87,,36,36,24,19,11,10,0.7,0.6
2024-08-15T1000,1236A,121.713,29.9572,宁波市,龙赛医院,,34,28,31,13,12,107,,55,55,7,19,8,10,0.5,0.5
2024-08-15T1000,1239A,121.633,29.7733,宁波市,钱湖水厂,,48,48,27,28,16,100,,40,40,20,12,8,7,0.6,0.6
2024-08-15T1000,1240A,121.5856,29.8635,宁波市,太古小学,,,53,37,29,17,,,43,40,19,16,6,6,0.8,0.8
2024-08-15T1000,1241A,121.524,29.8674,宁波市,市环境监测中心,,41,41,29,19,14,128,,56,56,14,16,6,5,0.7,0.6
2024-08-15T1000,2871A,121.6147,29.9017,宁波市,万里国际学校,,38,38,27,26,17,113,,55,55,19,18,8,7,0.5,0.4
2024-08-15T1000,3710A,121.5594,29.8975,宁波市,白沙活动中心,,44,39,32,22,14,139,,67,67,16,16,10,7,0.5,0.4
2024-08-15T1000,2339A,119.5001,26.6946,宁德市,金涵水库,,,,,,,,,,,,,,,,
2024-08-15T1000,2341A,119.5388,26.6612,宁德市,宁德市监测站,,32,27,30,22,22,55,,23,23,13,15,5,5,0.6,0.7
2024-08-15T1000,3209A,119.5231,26.6562,宁德市,宁德一中,,43,43,32,29,27,36,,23,22,10,9,4,4,0.7,1
2024-08-15T1000,2618A,98.8601,25.8567,怒江傈僳族自治州,州监测站,,40,40,41,28,22,60,,51,51,7,14,6,7,0.4,0.5
2024-08-15T1000,2619A,98.8546,25.8417,怒江傈僳族自治州,泸水一中,,,,42,29,22,,,41,,13,16,5,6,0.7,0.7
2024-08-15T1000,1888A,101.6891,26.571,攀枝花市,弄弄坪,颗粒物(PM10),77,104,86,46,43,46,,59,48,46,30,43,43,1.4,1.3
2024-08-15T1000,1889A,101.5769,26.5928,攀枝花市,河门口,,,93,62,54,34,30,,49,43,,24,14,15,,1.1
2024-08-15T1000,1890A,101.7169,26.585,攀枝花市,炳草岗,"颗粒物(PM10),细颗粒物(PM2.5)",59,68,76,42,40,72,,64,64,30,30,35,37,0.8,1
2024-08-15T1000,1891A,101.7369,26.5008,攀枝花市,仁和,颗粒物(PM10),62,73,61,41,33,49,,57,52,41,20,34,16,1.4,0.9
2024-08-15T1000,2835A,101.7227,26.567,攀枝花市,四十中小,颗粒物(PM10),67,83,69,36,37,52,,68,66,42,31,40,61,1.0,1
2024-08-15T1000,1604A,122.0303,41.1489,盘锦市,开发区,,26,24,23,8,9,82,,54,54,9,10,6,5,0.4,0.4
2024-08-15T1000,1605A,122.0485,41.0883,盘锦市,兴隆台,,28,24,18,10,7,87,,57,57,11,11,11,10,0.4,0.4
2024-08-15T1000,1606A,121.8297,41.1028,盘锦市,新生街道,,,26,15,8,8,,,42,42,7,10,4,4,,0.6
2024-08-15T1000,1832A,113.3257,33.742,平顶山市,新华旅馆,颗粒物(PM10),59,68,49,34,28,102,,91,91,10,10,8,5,0.6,0.5
2024-08-15T1000,1833A,113.2919,33.737,平顶山市,规划设计院,,44,44,33,25,19,106,,97,97,11,12,8,7,1.0,0.9
2024-08-15T1000,1834A,113.182,33.774,平顶山市,平顶山工学院,,50,50,38,27,17,109,,71,71,13,13,8,6,0.9,0.8
2024-08-15T1000,3204A,113.3025,33.73,平顶山市,规划局,,,,39,,23,,,92,92,11,10,5,3,0.9,0.9
2024-08-15T1000,3594A,112.8867,33.9116,平顶山市,石龙区,,45,45,63,24,25,122,,44,44,7,31,9,10,0.5,0.5
2024-08-15T1000,2656A,106.6692,35.5461,平凉市,聚贤嘉苑,,35,35,35,11,12,58,,54,52,22,24,8,8,0.4,0.4
2024-08-15T1000,2657A,106.7021,35.5307,平凉市,博物馆,,,69,40,14,15,,,71,68,29,24,7,8,,0.6
2024-08-15T1000,2347A,114.0997,27.5002,萍乡市,武功山,,21,17,15,3,3,66,,27,27,3,3,15,16,0.3,0.3
2024-08-15T1000,2348A,113.8385,27.6434,萍乡市,中医院,,,57,42,28,25,,,40,40,,15,22,12,1.4,1
2024-08-15T1000,2349A,113.8493,27.6253,萍乡市,市政府车库,,36,36,36,20,22,55,,39,39,8,8,19,15,1.0,0.9
2024-08-15T1000,2350A,113.8676,27.6435,萍乡市,市环保局,颗粒物(PM10),59,67,39,28,23,55,,43,43,15,9,24,18,1.7,1.1
2024-08-15T1000,2351A,113.866,27.6198,萍乡市,安源区政府,,31,31,31,16,16,53,,36,36,10,9,15,12,0.9,0.7
2024-08-15T1000,2319A,119.0141,25.4325,莆田市,荔城区仓后路,,30,30,26,18,12,92,,55,55,8,10,7,6,0.7,0.7
2024-08-15T1000,2320A,119.0015,25.4553,莆田市,莆田市监测站,,28,16,23,10,9,88,,46,46,4,6,6,6,0.5,0.6
2024-08-15T1000,2321A,119.1119,25.4561,莆田市,涵江区六中,,31,31,24,17,11,74,,42,42,12,10,7,6,0.8,0.7
2024-08-15T1000,2322A,119.1013,25.3215,莆田市,秀屿区政府,,42,34,32,29,18,81,,41,41,12,16,8,7,0.7,0.7
2024-08-15T1000,2323A,118.981,25.4792,莆田市,东圳水库,,,,,,,,,,,,,,,,
2024-08-15T1000,2392A,115.0312,35.7636,濮阳市,环保局,,46,42,40,32,27,112,,63,63,13,12,11,7,0.7,0.6
2024-08-15T1000,2394A,115.0574,35.7609,濮阳市,油田运输公司,细颗粒物(PM2.5),54,47,44,38,28,124,,65,65,11,10,9,3,0.7,0.5
2024-08-15T1000,2395A,115.0866,35.7754,濮阳市,油田物探公司,细颗粒物(PM2.5),53,43,47,37,30,123,,56,56,10,12,9,5,0.7,0.6
2024-08-15T1000,3021A,115,35.7668,濮阳市,濮水河管理处,,43,34,41,30,30,104,,46,46,10,12,5,3,0.5,0.4
2024-08-15T1000,2601A,100.98,22.7633,普洱市,市环保局,,19,18,30,13,13,50,,26,26,6,8,4,4,0.4,0.4
2024-08-15T1000,2602A,100.9817,22.8322,普洱市,普洱第二中学,,,30,33,7,14,,,10,10,10,12,5,5,0.5,0.5
2024-08-15T1000,2262A,131.0518,45.8751,七台河市,新一中,,,,13,,7,,,62,,,12,,9,,1.2
2024-08-15T1000,3345A,131.0577,45.7879,七台河市,中波台,,,,6,16,8,,,9,9,13,17,,10,0.4,0.4
2024-08-15T1000,3637A,131.0176,45.7761,七台河市,人民广场,,33,33,20,3,7,51,,21,21,13,15,12,12,0.4,0.4
2024-08-15T1000,3684A,130.8781,45.8222,七台河市,新建矿广场,,34,34,40,17,13,56,,25,25,21,22,16,12,0.4,0.5
2024-08-15T1000,1779A,123.9305,47.3636,齐齐哈尔市,安居小区,,43,43,28,3,12,92,,54,54,14,17,8,8,0.5,0.5
2024-08-15T1000,1780A,123.9488,47.3386,齐齐哈尔市,中心广场,,,31,28,12,8,,,53,49,11,18,3,3,0.4,0.4
2024-08-15T1000,1781A,123.9483,47.3227,齐齐哈尔市,农牧车辆厂,,29,24,36,9,11,90,,55,55,9,15,9,8,0.1,0.2
2024-08-15T1000,1783A,123.945,47.2988,齐齐哈尔市,市环境监测站,,29,20,27,13,14,90,,53,53,6,15,7,7,0.4,0.4
2024-08-15T1000,3662A,123.6333,47.2075,齐齐哈尔市,富区青少年活动中心,,35,35,33,8,11,90,,50,50,8,14,4,4,0.6,0.6
2024-08-15T1000,2591A,107.9783,26.5747,黔东南苗族侗族自治州,市环境监测站,,35,35,33,24,20,63,,50,44,22,19,5,4,0.6,0.5
2024-08-15T1000,2881A,107.8908,26.5311,黔东南苗族侗族自治州,凯里学院,,29,29,28,17,17,82,,41,41,11,12,7,5,0.5,0.4
2024-08-15T1000,2593A,107.5228,26.2403,黔南布依族苗族自治州,小围寨,,,29,22,19,13,,,43,34,14,8,11,6,,0.5
2024-08-15T1000,3538A,107.5175,26.2978,黔南布依族苗族自治州,沙坝,,34,34,30,14,12,69,,39,39,17,13,7,5,0.3,0.4
2024-08-15T1000,2589A,104.9022,25.0925,黔西南布依族苗族自治州,场坝街,,26,12,26,9,12,81,,87,87,17,12,32,14,0.2,0.2
2024-08-15T1000,2590A,104.8811,25.0992,黔西南布依族苗族自治州,坪东大道,,24,14,28,3,11,74,,76,76,13,12,25,8,0.3,0.3
2024-08-15T1000,2502A,108.6236,21.9667,钦州市,市环保站,,17,17,25,9,10,26,,20,20,16,17,7,10,1.1,1
2024-08-15T1000,2503A,108.6549,21.9481,钦州市,沙埠小学,,26,26,29,8,15,34,,10,10,12,19,4,6,0.6,0.8
2024-08-15T1000,2504A,108.5989,21.7431,钦州市,港区一小,,13,13,32,3,11,39,,18,18,12,22,7,9,0.7,0.8
2024-08-15T1000,3404A,108.5959,21.9633,钦州市,北职校,,,23,26,10,13,,,15,13,10,13,,5,0.7,0.8
2024-08-15T1000,1042A,119.5134,39.8207,秦皇岛市,北戴河环保局,,29,29,31,3,7,90,,40,40,10,15,2,2,0.4,0.4
2024-08-15T1000,1043A,119.7493,40.0116,秦皇岛市,第一关,,26,26,39,8,20,79,,26,26,5,34,1,3,0.3,0.3
2024-08-15T1000,1044A,119.5897,39.9499,秦皇岛市,监测站,,29,29,43,8,18,84,,41,41,16,21,3,3,0.4,0.4
2024-08-15T1000,1046A,119.5251,39.9041,秦皇岛市,建设大厦,,32,32,31,3,8,89,,34,34,10,19,3,3,0.2,0.2
2024-08-15T1000,3132A,119.610547,39.943889,秦皇岛市,文明里,,34,34,32,8,10,91,,48,48,10,12,2,2,0.4,0.5
2024-08-15T1000,1307A,120.6659,36.2403,青岛市,仰口,,39,34,16,27,16,112,,75,75,3,6,8,7,0.1,0.1
2024-08-15T1000,1310A,120.4134,36.0658,青岛市,市南区东部子站,,36,36,29,12,8,101,,43,43,16,23,8,7,0.6,0.6
2024-08-15T1000,1311A,120.3664,36.1032,青岛市,四方区子站,颗粒物(PM10),53,56,34,27,16,112,,47,47,26,28,10,9,0.8,0.7
2024-08-15T1000,1312A,120.2994,36.054,青岛市,市南区西部子站,,41,41,30,20,10,102,,50,50,11,16,8,8,0.8,0.7
2024-08-15T1000,1313A,120.4581,36.0858,青岛市,崂山区子站,,33,24,26,9,9,103,,48,48,10,24,8,8,0.6,0.6
2024-08-15T1000,1314A,120.1983,35.9608,青岛市,黄岛区子站,,34,34,32,20,19,107,,43,43,27,50,8,9,0.6,0.7
2024-08-15T1000,1315A,120.3999,36.3083,青岛市,城阳区子站,,46,46,33,22,15,115,,50,50,16,26,8,7,0.7,0.7
2024-08-15T1000,1966A,120.0405,35.8735,青岛市,黄岛区4号,,35,31,25,17,14,110,,54,54,24,29,8,8,0.6,0.6
2024-08-15T1000,3362A,120.5014,36.4034,青岛市,即墨2号,,,,33,,18,96,,42,42,11,22,,6,,0.5
2024-08-15T1000,3642A,120.3503,36.0736,青岛市,市北区南部,颗粒物(PM10),52,53,34,27,15,94,,39,39,39,37,10,10,0.8,0.7
2024-08-15T1000,3643A,120.3948,36.1805,青岛市,李沧区北部,,44,44,35,27,19,128,,60,60,13,27,8,8,0.4,0.4
2024-08-15T1000,1702A,113.0426,23.691,清远市,环保大楼,,12,10,20,6,11,36,,29,27,8,10,8,6,0.5,0.5
2024-08-15T1000,1703A,113.0208,23.7106,清远市,凤城街办,,11,9,15,6,10,35,,22,22,6,9,5,5,0.5,0.5
2024-08-15T1000,3025A,113.0477,23.6344,清远市,技师学院,,16,16,18,7,9,44,,30,30,11,14,6,6,0.5,0.5
2024-08-15T1000,3318A,112.9903,23.7403,清远市,清新太和,,,,21,,11,41,,25,25,5,5,,3,,0.6
2024-08-15T1000,3455A,113.076,23.7198,清远市,清城东城,,10,6,16,3,8,29,,19,19,6,6,6,6,0.8,0.8
2024-08-15T1000,2661A,107.6325,35.7357,庆阳市,庆阳五中,,,,28,,16,,,71,71,,7,5,6,0.4,0.4
2024-08-15T1000,2662A,107.6364,35.7067,庆阳市,市环保局,,31,17,28,11,14,99,,79,79,9,9,6,6,0.4,0.4
2024-08-15T1000,1916A,103.7897,25.5035,曲靖市,环境监测站,颗粒物(PM10),54,58,48,24,18,72,,47,41,18,16,7,6,1.2,0.7
2024-08-15T1000,1917A,103.8,25.5364,曲靖市,烟厂办公区,颗粒物(PM10),53,55,46,24,20,70,,43,38,19,15,3,4,1.0,0.7
2024-08-15T1000,3376A,103.7947,25.462,曲靖市,南苑二区,,32,32,39,21,20,64,,52,46,20,13,10,9,0.8,0.6
2024-08-15T1000,3377A,103.7444,25.5261,曲靖市,曲靖师范学院,细颗粒物(PM2.5),64,61,46,46,26,71,,51,44,34,18,20,13,1.4,0.7
2024-08-15T1000,1264A,118.8692,28.9398,衢州市,环保大楼,,34,32,29,21,21,106,,58,58,15,16,5,4,0.5,0.4
2024-08-15T1000,1265A,118.8709,28.9666,衢州市,实验学校,,38,37,31,26,23,110,,57,57,10,14,6,6,0.4,0.3
2024-08-15T1000,1266A,118.8621,28.9808,衢州市,衢州学院,,,39,30,24,20,,,47,46,14,16,,5,0.5,0.5
2024-08-15T1000,1611A,118.5819,24.9117,泉州市,涂山街,,33,31,29,20,22,104,,72,72,6,11,4,5,0.6,0.6
2024-08-15T1000,1612A,118.5972,24.8978,泉州市,津头埔,,37,37,29,22,21,83,,60,60,23,22,3,3,0.8,0.7
2024-08-15T1000,1613A,118.6663,24.9424,泉州市,万安,,40,28,26,28,20,116,,53,53,7,15,3,3,0.6,0.6
2024-08-15T1000,1614A,118.6117,24.9604,泉州市,清源山,,,,,,,,,,,,,,,,
2024-08-15T1000,3529A,118.6333,24.9264,泉州市,城华南路,,33,26,26,16,20,105,,63,63,7,11,3,3,0.6,0.6
2024-08-15T1000,2626A,88.8876,29.2718,日喀则市,日喀则监测站,,25,25,12,8,5,60,,55,49,14,11,4,5,0.6,0.5
2024-08-15T1000,3726A,88.8781,29.2426,日喀则市,林业技术推广中心,,28,28,9,15,7,64,,66,59,16,8,6,6,0.5,0.4
2024-08-15T1000,1659A,119.471,35.4209,日照市,监测站,,42,39,20,29,16,100,,46,46,12,27,10,9,0.6,0.6
2024-08-15T1000,1660A,119.523,35.4216,日照市,市政府广场,,34,34,20,21,13,105,,74,74,9,15,10,9,0.6,0.6
2024-08-15T1000,1661A,119.5587,35.4044,日照市,港务局,,38,34,24,26,16,110,,77,77,7,12,7,10,0.5,0.5
2024-08-15T1000,3507A,119.5328,35.4625,日照市,职业技术学院,,,36,24,,15,103,,66,66,12,18,9,9,0.7,0.7
2024-08-15T1000,3604A,119.3266,35.1044,日照市,岚山环保分局,,39,39,36,24,16,86,,40,40,34,30,31,24,2.4,2.8
2024-08-15T1000,1835A,111.1922,34.7752,三门峡市,市政府,,38,38,38,24,22,116,,108,106,9,9,13,10,0.8,0.7
2024-08-15T1000,1836A,111.1587,34.7942,三门峡市,开发区,颗粒物(PM10),54,57,46,27,24,112,,94,94,12,14,13,10,0.7,0.7
2024-08-15T1000,1838A,111.143,34.7955,三门峡市,风景区,,,,,,,,,,,,,,,,
2024-08-15T1000,3039A,111.1911,34.7829,三门峡市,三门峡市第一小学,细颗粒物(PM2.5),62,52,38,44,36,107,,100,98,10,10,11,9,0.7,0.7
2024-08-15T1000,3598A,111.1,34.7167,三门峡市,富达温泉假日酒店,,40,40,47,26,26,113,,83,83,13,11,13,10,0.5,0.5
2024-08-15T1000,2324A,117.6211,26.2625,三明市,三钢,,13,12,19,9,11,39,,42,40,14,10,8,7,1.1,0.5
2024-08-15T1000,2325A,117.635,26.2714,三明市,三明二中,,16,13,18,10,11,44,,40,40,13,9,5,3,1.6,0.8
2024-08-15T1000,2326A,117.6028,26.2378,三明市,三元区政府,,18,13,23,12,11,37,,24,24,13,12,2,4,1.0,0.9
2024-08-15T1000,2327A,117.7275,26.3108,三明市,洋溪,,,,,,,,,,,,,,,,
2024-08-15T1000,1876A,109.5078,18.2489,三亚市,河东子站,,,18,19,6,7,,,14,14,6,10,3,2,0.4,0.5
2024-08-15T1000,1877A,109.4964,18.2681,三亚市,河西子站,,20,20,14,7,6,34,,16,16,11,10,2,2,0.3,0.3
2024-08-15T1000,3540A,109.7348,18.3443,三亚市,君悦子站,,26,26,16,13,5,39,,15,15,8,12,2,2,0.4,0.3
2024-08-15T1000,2624A,91.7608,29.2313,山南市,山南监测站,,32,27,11,14,5,100,,88,88,10,8,6,6,0.3,0.3
2024-08-15T1000,2625A,91.7706,29.2436,山南市,山南人民医院,,,24,22,14,9,,,87,87,14,11,7,7,0.2,0.2
2024-08-15T1000,1674A,116.6794,23.3667,汕头市,金平子站,,33,26,26,23,13,46,,26,26,16,14,6,5,1.0,0.8
2024-08-15T1000,1675A,116.7244,23.3633,汕头市,龙湖子站,,39,39,19,17,12,51,,32,32,16,15,7,6,0.9,0.7
2024-08-15T1000,1676A,116.7258,23.2775,汕头市,濠江子站,细颗粒物(PM2.5),52,,22,36,17,47,,23,23,16,15,6,6,0.9,0.8
2024-08-15T1000,1677A,116.7519,23.4714,汕头市,澄海子站,,31,31,19,15,13,63,,33,33,25,18,10,5,0.9,0.8
2024-08-15T1000,1678A,116.6092,23.2539,汕头市,潮阳子站,,30,22,23,21,14,57,,29,29,3,6,5,5,0.6,0.7
2024-08-15T1000,3444A,116.454,23.2684,汕头市,潮南峡山,细颗粒物(PM2.5),62,63,31,44,18,51,,32,32,10,7,5,5,0.4,0.3
2024-08-15T1000,3624A,116.4069,23.2533,汕头市,潮南子站,颗粒物(PM10),54,57,33,37,17,48,,30,30,15,16,5,4,0.8,0.7
2024-08-15T1000,1693A,115.3653,22.775,汕尾市,市环保局,,26,24,18,18,11,63,,38,38,19,15,6,6,0.6,0.5
2024-08-15T1000,1694A,115.3706,22.7898,汕尾市,市政府,,28,28,18,17,9,71,,37,37,14,10,6,6,0.5,0.4
2024-08-15T1000,1695A,115.3622,22.7925,汕尾市,新城中学,,38,37,21,26,10,82,,36,36,14,11,6,6,0.6,0.5
2024-08-15T1000,2645A,109.9154,33.8715,商洛市,监测站,,38,38,36,19,17,62,,32,32,12,12,4,3,0.7,0.7
2024-08-15T1000,3045A,109.9643,33.8471,商洛市,商州区中学,,46,46,40,23,26,71,,36,36,15,19,6,5,0.9,0.8
2024-08-15T1000,2408A,115.6702,34.4285,商丘市,环境监测站,,29,28,51,20,29,88,,56,55,8,9,5,3,0.7,0.7
2024-08-15T1000,2409A,115.6458,34.4045,商丘市,粮食局,,37,37,50,15,25,102,,69,67,10,10,6,5,0.7,0.7
2024-08-15T1000,2410A,115.6293,34.3948,商丘市,睢阳区环保局,,35,32,48,18,31,112,,71,71,8,9,8,6,0.6,0.5
2024-08-15T1000,3171A,115.6071,34.4465,商丘市,梁园区档案局,,39,39,49,23,32,99,,65,65,14,11,7,6,0.7,0.7
2024-08-15T1000,1141A,121.4,31.238,上海市,普陀,,31,21,22,10,10,97,,72,72,13,16,5,5,0.4,0.4
2024-08-15T1000,1142A,121.478,31.2036,上海市,十五厂,,29,22,23,14,12,91,,74,74,18,15,9,7,0.5,0.4
2024-08-15T1000,1143A,121.467,31.3008,上海市,虹口,,29,24,26,16,13,92,,69,69,17,17,7,8,0.5,0.5
2024-08-15T1000,1144A,121.412,31.1654,上海市,徐汇上师大,,35,35,28,20,15,88,,69,69,22,17,5,4,0.8,0.7
2024-08-15T1000,1145A,121.536,31.2659,上海市,杨浦四漂,,32,23,23,12,12,101,,80,80,10,14,7,6,0.7,0.7
2024-08-15T1000,1147A,121.425,31.2261,上海市,静安监测站,,30,21,23,11,11,96,,72,72,13,14,6,5,0.6,0.6
2024-08-15T1000,1148A,121.703,31.1907,上海市,浦东川沙,,28,18,21,13,12,89,,74,74,11,15,6,6,0.6,0.6
2024-08-15T1000,1149A,121.533,31.2284,上海市,浦东新区监测站,,26,19,20,12,12,83,,65,65,21,18,6,5,0.7,0.6
2024-08-15T1000,1150A,121.577,31.2071,上海市,浦东张江,,26,23,22,12,16,83,,67,67,16,15,5,5,0.6,0.6
2024-08-15T1000,3265A,121.4316,31.3322,上海市,宝山庙行,,31,23,27,16,13,99,,80,80,13,15,6,5,0.5,0.8
2024-08-15T1000,3266A,121.8791,31.4662,上海市,崇明上实东滩,,29,13,18,13,11,92,,78,78,5,5,7,7,0.6,0.6
2024-08-15T1000,3268A,121.3162,31.2838,上海市,嘉定南翔,,32,20,22,12,11,100,,70,70,14,16,6,6,0.6,0.5
2024-08-15T1000,3269A,121.3359,30.7456,上海市,金山新城,,26,24,19,14,10,81,,59,59,16,13,7,7,0.6,0.5
2024-08-15T1000,3270A,121.4996,31.0739,上海市,闵行浦江,,29,22,21,17,15,92,,72,72,18,17,6,6,0.5,0.5
2024-08-15T1000,3271A,121.2886,31.1663,上海市,青浦徐泾,,,19,23,14,12,,,62,62,14,16,,6,0.5,0.5
2024-08-15T1000,3272A,121.2186,31.0378,上海市,松江图书馆,,28,27,23,16,11,87,,64,64,18,15,6,6,0.7,0.6
2024-08-15T1000,3273A,121.3902,31.2059,上海市,长宁仙霞,,28,24,21,12,12,87,,63,63,19,17,8,7,0.7,0.6
2024-08-15T1000,3274A,121.7965,31.0507,上海市,浦东惠南,,30,18,22,10,12,93,,64,64,7,11,8,8,0.6,0.5
2024-08-15T1000,3544A,121.4891,30.925,上海市,奉贤南桥新城,,,21,23,16,12,,,55,55,13,15,,7,0.6,0.6
2024-08-15T1000,2381A,118.005,28.4572,上饶市,百草园,,33,33,22,12,11,89,,60,60,3,3,1,2,0.7,0.5
2024-08-15T1000,2382A,117.9756,28.4436,上饶市,市监测站,,,28,24,17,13,,,62,57,11,8,6,3,0.7,0.6
2024-08-15T1000,2383A,117.9519,28.4628,上饶市,凤凰光学,,31,31,22,10,13,94,,52,52,8,8,5,6,1.0,0.9
2024-08-15T1000,3413A,118.1953,28.4401,上饶市,广丰区教体局,,40,40,21,18,12,81,,54,54,10,7,6,7,0.9,0.9
