timepoint,stationcode,longitude,latitude,area,positionname,primarypollutant,aqi,pm10,pm10_24h,pm2_5,pm2_5_24h,o3,o3_24h,o3_8h,o3_8h_24h,no2,no2_24h,so2,so2_24h,co,co_24h
2026-03-12T2000,2568A,102.2503,31.8896,阿坝藏族羌族自治州,马师校,,26,26,22,18,14,64,64,79,77,12,7,5,4,0.5,0.5
2026-03-12T2000,3994A,102.2174,31.9016,阿坝藏族羌族自治州,马尔康中学西区,,25,22,15,17,10,70,70,81,81,10,6,6,6,0.4,0.3
2026-03-12T2000,2695A,80.2899,41.1684,阿克苏地区,电视台,"颗粒物(PM10),细颗粒物(PM2.5)",500,2166,957,522,177,72,72,89,78,4,3,2,2,0.8,0.7
2026-03-12T2000,2696A,80.2592,41.1541,阿克苏地区,艺术中心,"颗粒物(PM10),细颗粒物(PM2.5)",500,1994,887,522,176,77,77,95,83,3,4,3,4,0.1,0.2
2026-03-12T2000,2205A,105.699,38.8409,阿拉善盟,蒙二幼,颗粒物(PM10),500,984,347,264,89,84,84,105,94,4,5,8,9,0.4,0.5
2026-03-12T2000,2206A,105.7198,38.8508,阿拉善盟,环保局新楼,颗粒物(PM10),500,977,291,266,75,84,84,105,92,4,7,7,8,0.4,0.5
2026-03-12T2000,2708A,88.1266,47.8515,阿勒泰地区,市站,,24,22,20,14,5,75,75,81,76,14,9,4,4,0.3,0.1
2026-03-12T2000,4166A,88.1198,47.7931,阿勒泰地区,阿勒泰路33号,,27,20,23,10,5,84,84,84,84,7,5,5,5,0.4,0.3
2026-03-12T2000,2630A,80.1171,32.4999,阿里地区,阿里监测站,,31,20,55,3,11,99,99,107,107,2,3,8,8,0.3,0.3
2026-03-12T2000,3192A,80.0906,32.5029,阿里地区,阿里藏医院,,33,18,59,3,8,105,105,113,112,2,2,9,10,0.3,0.3
2026-03-12T2000,2644A,109.0088,32.6974,安康市,汉滨区检察院,细颗粒物(PM2.5),140,132,101,104,74,133,133,127,127,15,14,4,4,0.7,0.6
2026-03-12T2000,4054A,109.0324,32.6913,安康市,市邮政管理局,颗粒物(PM10),110,146,112,NA,80,113,113,115,115,25,21,4,5,0.8,0.8
2026-03-12T2000,2291A,117.0806,30.5181,安庆市,环科院,,48,48,63,26,50,122,122,135,135,10,11,8,8,0.5,0.7
2026-03-12T2000,2292A,117.0331,30.5118,安庆市,马山宾馆,颗粒物(PM10),53,54,65,27,48,120,120,136,136,25,21,6,6,0.7,0.9
2026-03-12T2000,2294A,116.9897,30.6146,安庆市,安庆大学,NA,NA,49,65,28,45,NA,NA,133,133,NA,15,NA,5,NA,0.6
2026-03-12T2000,3173A,117.0598,30.5351,安庆市,市人大,颗粒物(PM10),55,56,68,25,47,112,112,133,133,23,18,6,7,0.5,0.7
2026-03-12T2000,3123A,105.9408,26.2431,安顺市,凤凰山,,29,29,47,20,37,71,71,87,86,18,27,22,33,0.6,0.9
2026-03-12T2000,3124A,105.9443,26.2567,安顺市,金钟山,,29,27,36,20,30,74,74,85,85,11,12,17,21,0.6,0.7
2026-03-12T2000,3125A,105.8983,26.248,安顺市,娄家坡,,35,35,48,22,38,73,73,83,82,11,18,8,20,0.5,0.8
2026-03-12T2000,1819A,114.3552,36.1017,安阳市,红庙街,细颗粒物(PM2.5),183,NA,111,138,114,112,112,136,136,27,27,2,3,0.6,0.6
2026-03-12T2000,1820A,114.361,36.0681,安阳市,银杏小区,细颗粒物(PM2.5),189,NA,123,142,123,118,118,142,141,24,24,2,3,0.6,0.6
2026-03-12T2000,3141A,114.3921,36.0879,安阳市,信访局,细颗粒物(PM2.5),176,NA,120,133,119,114,114,144,143,26,24,2,4,0.5,0.6
2026-03-12T2000,3669A,114.4706,36.0634,安阳市,左辅环卫站,细颗粒物(PM2.5),199,189,169,149,119,95,95,135,132,28,21,3,4,0.6,0.6
2026-03-12T2000,4117A,114.2918,36.0769,安阳市,钢三路198号,细颗粒物(PM2.5),190,NA,119,143,118,107,107,129,129,27,28,4,6,0.6,0.7
2026-03-12T2000,1748A,123.0441,41.1201,鞍山市,深沟寺,细颗粒物(PM2.5),107,98,90,67,65,69,69,92,88,37,34,12,11,0.8,0.8
2026-03-12T2000,1749A,123.011,41.0931,鞍山市,太阳城,细颗粒物(PM2.5),106,87,77,66,62,75,75,94,92,33,30,17,14,0.9,0.7
2026-03-12T2000,1750A,123.0483,41.1445,鞍山市,太平,细颗粒物(PM2.5),116,118,102,77,72,62,62,89,84,43,36,20,15,1.0,0.9
2026-03-12T2000,1751A,122.964,41.0968,鞍山市,铁西三道街,细颗粒物(PM2.5),111,98,96,72,71,61,61,90,85,48,45,33,23,1.3,1.2
2026-03-12T2000,1753A,123.0219,41.0822,鞍山市,明达新区,细颗粒物(PM2.5),94,80,74,57,55,69,69,93,88,29,28,14,13,0.7,0.7
2026-03-12T2000,4201A,122.944647,41.082639,鞍山市,兴盛南路290号,细颗粒物(PM2.5),134,142,118,97,87,44,44,88,82,68,55,18,30,1.3,2
2026-03-12T2000,2195A,107.4206,40.7609,巴彦淖尔市,附二中,颗粒物(PM10),500,1480,318,460,103,67,67,117,109,12,12,11,14,0.4,0.5
2026-03-12T2000,2196A,107.37,40.7372,巴彦淖尔市,市环保大楼,颗粒物(PM10),500,1275,302,417,97,68,68,117,111,11,14,6,8,0.3,0.4
2026-03-12T2000,1956A,86.1476,41.7529,巴音郭楞蒙古自治州,孔雀公园,颗粒物(PM10),57,59,227,13,24,79,79,85,79,8,4,8,8,0.3,0.2
2026-03-12T2000,1957A,86.1971,41.7166,巴音郭楞蒙古自治州,棉纺厂,颗粒物(PM10),62,66,305,20,27,81,81,85,83,3,3,/,/,/,/
2026-03-12T2000,1958A,86.236,41.7172,巴音郭楞蒙古自治州,经济开发区,颗粒物(PM10),68,75,395,14,38,76,76,78,75,3,3,6,6,0.3,0.2
2026-03-12T2000,3181A,106.776805,31.852614,巴中市,市五中,细颗粒物(PM2.5),56,53,39,38,28,47,47,59,59,22,24,8,8,0.8,0.9
2026-03-12T2000,3183A,106.7419,31.8654,巴中市,圣泉水务公司,颗粒物(PM10),63,67,38,41,27,17,17,58,58,56,27,9,9,1.1,1
2026-03-12T2000,3616A,106.7617,31.8343,巴中市,市中心医院,颗粒物(PM10),61,65,46,38,32,10,10,51,50,53,29,9,9,1.0,0.9
2026-03-12T2000,2235A,122.7909,45.608,白城市,洮北区环保局,,50,50,39,27,21,77,77,95,91,18,19,4,4,0.3,0.3
2026-03-12T2000,2236A,122.8741,45.5725,白城市,市环保局,颗粒物(PM10),56,58,42,28,22,42,42,90,78,37,28,5,4,0.3,0.3
2026-03-12T2000,2231A,126.4219,41.9172,白山市,喜丰,颗粒物(PM10),56,58,60,30,34,85,85,97,94,15,19,12,10,0.7,0.7
2026-03-12T2000,2232A,126.4082,41.9416,白山市,环保局,细颗粒物(PM2.5),70,NA,46,45,40,80,80,97,95,15,13,10,10,0.7,0.7
2026-03-12T2000,2647A,104.1727,36.5448,白银市,第三小学,NA,NA,NA,272,NA,65,NA,NA,88,NA,NA,19,NA,23,NA,0.5
2026-03-12T2000,2648A,104.1467,36.5482,白银市,动力公司,颗粒物(PM10),500,1128,396,220,83,82,82,83,83,4,16,4,11,0.3,0.5
2026-03-12T2000,2512A,106.6102,23.901,百色市,市监测站,,45,45,31,29,20,72,72,101,101,27,17,12,11,0.6,0.6
2026-03-12T2000,2513A,106.6524,23.8842,百色市,市中心血站,颗粒物(PM10),55,57,40,36,26,52,52,94,92,53,29,18,12,0.9,0.7
2026-03-12T2000,4133A,106.6273,23.8798,百色市,龙景西路,,50,41,40,35,25,74,74,109,109,24,15,13,13,0.7,0.6
2026-03-12T2000,2270A,117.396,32.9389,蚌埠市,工人疗养院,细颗粒物(PM2.5),112,100,95,73,74,90,90,115,115,42,39,5,5,0.7,0.8
2026-03-12T2000,2271A,117.3606,32.9428,蚌埠市,百货大楼,细颗粒物(PM2.5),108,95,87,68,64,82,82,117,115,45,39,5,5,0.7,0.7
2026-03-12T2000,2273A,117.4183,32.8909,蚌埠市,蚌埠学院,细颗粒物(PM2.5),103,85,78,63,71,113,113,125,125,25,41,5,9,0.6,0.6
2026-03-12T2000,2274A,117.3534,32.9672,蚌埠市,淮上区政府,细颗粒物(PM2.5),117,92,82,78,75,100,100,122,122,34,34,5,5,0.6,0.7
2026-03-12T2000,2275A,117.3143,32.8977,蚌埠市,高新区,细颗粒物(PM2.5),120,90,80,81,73,103,103,118,118,28,39,6,8,0.7,0.7
2026-03-12T2000,3715A,117.3091,32.9314,蚌埠市,蚌埠田家炳中学,细颗粒物(PM2.5),120,109,98,82,77,100,100,122,122,34,38,6,6,0.6,0.7
2026-03-12T2000,1585A,109.8761,40.6533,包头市,市环境监测站,颗粒物(PM10),112,151,92,48,47,128,128,131,131,22,29,7,14,0.6,0.7
2026-03-12T2000,1587A,109.9992,40.5843,包头市,包头八中,颗粒物(PM10),107,138,108,57,54,109,109,118,118,27,29,12,30,0.7,0.9
2026-03-12T2000,1589A,109.8641,40.6288,包头市,惠龙物流,颗粒物(PM10),106,135,89,54,46,125,125,132,132,23,28,8,12,1.0,0.6
2026-03-12T2000,1590A,110.0376,40.5546,包头市,东河鸿龙湾,颗粒物(PM10),120,171,115,47,60,112,112,123,123,29,39,10,19,0.7,0.7
2026-03-12T2000,3283A,109.9154,40.5684,包头市,滨河大厦,颗粒物(PM10),105,131,93,42,46,118,118,127,127,28,30,10,12,0.7,0.7
2026-03-12T2000,3419A,109.9449,40.6259,包头市,包头市委党校,颗粒物(PM10),104,130,83,45,37,112,112,123,123,31,30,11,23,0.6,0.7
2026-03-12T2000,3683A,109.8332,40.6577,包头市,昆区政府,颗粒物(PM10),109,142,86,55,49,123,123,130,130,31,35,9,15,0.6,0.7
2026-03-12T2000,1931A,107.0802,34.3129,宝鸡市,竹园沟,细颗粒物(PM2.5),148,117,115,112,103,66,66,86,84,21,25,7,7,0.7,0.6
2026-03-12T2000,1933A,107.1429,34.3549,宝鸡市,监测站,细颗粒物(PM2.5),150,134,127,114,111,59,59,78,73,36,29,6,6,0.8,0.7
2026-03-12T2000,1934A,107.1172,34.3759,宝鸡市,技工学校,细颗粒物(PM2.5),146,136,129,110,103,80,80,90,87,25,28,3,5,0.9,0.9
2026-03-12T2000,1936A,107.2025,34.3518,宝鸡市,文理学院,细颗粒物(PM2.5),144,133,122,108,108,75,75,90,83,25,25,5,5,0.8,0.8
2026-03-12T2000,1937A,107.2396,34.3626,宝鸡市,三迪小学,细颗粒物(PM2.5),144,124,120,108,104,66,66,90,85,33,32,6,6,0.8,0.8
2026-03-12T2000,4155A,107.1721,34.3558,宝鸡市,滨河北路,细颗粒物(PM2.5),144,155,151,108,108,72,72,85,77,23,26,6,6,0.7,0.8
2026-03-12T2000,4308A,107.3898,34.3601,宝鸡市,陈仓区北开路21号,细颗粒物(PM2.5),142,140,124,106,92,NA,NA,96,95,28,38,11,9,0.9,0.7
2026-03-12T2000,1051A,115.4803,38.8568,保定市,游泳馆,细颗粒物(PM2.5),120,98,100,81,83,104,104,128,127,33,26,4,3,0.6,0.5
2026-03-12T2000,1052A,115.509,38.8895,保定市,华电二区,细颗粒物(PM2.5),117,111,88,78,72,100,100,126,126,24,25,3,3,0.8,0.7
2026-03-12T2000,1053A,115.4588,38.9037,保定市,接待中心,细颗粒物(PM2.5),114,108,95,75,76,109,109,125,125,21,22,4,4,0.4,0.4
2026-03-12T2000,1054A,115.4484,38.8344,保定市,地表水厂,细颗粒物(PM2.5),111,121,107,72,69,101,101,129,128,34,24,6,6,0.5,0.4
2026-03-12T2000,3581A,115.3136,38.9511,保定市,满城区生态环境分局,细颗粒物(PM2.5),152,168,120,116,76,96,96,133,131,35,29,8,6,0.6,0.4
2026-03-12T2000,3582A,115.4709,38.7628,保定市,清苑区第二中学,细颗粒物(PM2.5),124,128,112,86,73,86,86,127,124,42,31,5,4,0.6,0.5
2026-03-12T2000,3583A,115.6231,39.0223,保定市,徐水物探局,细颗粒物(PM2.5),120,125,116,82,78,111,111,130,130,22,27,3,3,0.6,0.6
2026-03-12T2000,4004A,115.4199,38.8665,保定市,双鹰农机,细颗粒物(PM2.5),127,124,114,89,78,108,108,136,134,28,24,4,4,0.5,0.5
2026-03-12T2000,4034A,115.515,38.8589,保定市,植保所站,细颗粒物(PM2.5),126,124,103,88,76,87,87,130,128,42,30,1,3,0.7,0.5
2026-03-12T2000,2594A,99.1589,25.1137,保山市,市环境监测站,细颗粒物(PM2.5),76,66,61,48,47,119,119,135,133,11,12,4,4,0.3,0.4
2026-03-12T2000,2595A,99.1616,25.1381,保山市,市环保局,细颗粒物(PM2.5),76,65,68,48,50,119,119,136,135,6,8,5,5,0.5,0.6
2026-03-12T2000,1867A,109.1435,21.4085,北海市,海滩公园,,37,30,48,21,40,116,116,125,124,25,15,7,6,0.9,0.9
2026-03-12T2000,1868A,109.0983,21.466,北海市,新市环保局,,37,29,42,19,37,116,116,123,123,24,18,7,8,0.8,0.8
2026-03-12T2000,1869A,109.1775,21.5232,北海市,北海工业园,,34,34,54,19,43,107,107,103,103,11,18,7,8,0.9,1.1
2026-03-12T2000,3400A,109.1844,21.4396,北海市,龙潭自来水厂,,38,33,51,14,51,119,119,121,121,10,15,5,6,0.8,1.2
2026-03-12T2000,1001A,116.3611,39.8786,北京市,万寿西宫,细颗粒物(PM2.5),118,113,111,79,76,135,135,142,142,24,33,4,5,0.6,0.7
2026-03-12T2000,1003A,116.4174,39.9289,北京市,东四,细颗粒物(PM2.5),120,115,113,81,76,131,131,136,136,22,30,8,9,0.6,0.7
2026-03-12T2000,1004A,116.4073,39.8858,北京市,天坛,细颗粒物(PM2.5),117,111,104,78,72,118,118,130,130,22,27,4,4,0.8,0.8
2026-03-12T2000,1005A,116.4622,39.9364,北京市,农展馆,细颗粒物(PM2.5),121,115,112,83,77,128,128,136,136,18,30,6,7,0.7,0.9
2026-03-12T2000,1006A,116.3399,39.9293,北京市,官园,细颗粒物(PM2.5),120,115,110,81,73,126,126,126,126,25,31,4,5,0.6,0.7
2026-03-12T2000,1007A,116.2879,39.9613,北京市,海淀万柳,细颗粒物(PM2.5),118,115,105,79,71,103,103,106,106,25,34,5,5,0.6,0.7
2026-03-12T2000,1008A,116.6635,40.1349,北京市,顺义新城,细颗粒物(PM2.5),126,128,110,88,72,131,131,139,139,23,23,6,6,0.6,0.7
2026-03-12T2000,1009A,116.6275,40.327,北京市,怀柔镇,细颗粒物(PM2.5),122,118,100,84,69,112,112,126,126,39,24,7,6,0.8,0.7
2026-03-12T2000,1010A,116.2295,40.217,北京市,昌平镇,细颗粒物(PM2.5),124,123,115,86,78,123,123,125,125,24,34,5,4,0.9,0.9
2026-03-12T2000,1011A,116.3968,39.982,北京市,奥体中心,细颗粒物(PM2.5),113,111,110,74,74,116,116,119,119,24,38,6,6,0.7,0.9
2026-03-12T2000,3418A,116.8336,40.4095,北京市,密云新城,细颗粒物(PM2.5),120,131,106,81,67,126,126,129,129,20,21,6,5,0.7,0.8
2026-03-12T2000,3671A,116.0879,39.9725,北京市,门头沟三家店,细颗粒物(PM2.5),124,135,113,86,72,108,108,122,122,29,28,5,5,0.7,0.7
2026-03-12T2000,3672A,116.1507,39.8246,北京市,丰台云岗,细颗粒物(PM2.5),125,131,111,87,72,120,120,132,132,22,20,5,5,0.7,0.7
2026-03-12T2000,3674A,115.9578,39.7602,北京市,房山燕山,细颗粒物(PM2.5),122,119,102,84,73,109,109,122,122,27,21,5,4,0.6,0.6
2026-03-12T2000,3675A,116.4669,39.7734,北京市,大兴旧宫,细颗粒物(PM2.5),118,129,113,79,72,99,99,130,128,26,30,5,5,0.8,0.8
2026-03-12T2000,3694A,115.9859,40.4562,北京市,延庆石河营,细颗粒物(PM2.5),120,112,97,81,68,130,130,127,127,14,18,2,3,0.7,0.7
2026-03-12T2000,3695A,116.6151,40.3052,北京市,怀柔新城,细颗粒物(PM2.5),119,113,94,80,69,109,109,126,126,32,20,5,5,0.7,0.7
2026-03-12T2000,3696A,116.2542,39.8764,北京市,丰台小屯,细颗粒物(PM2.5),122,126,113,84,73,113,113,121,121,25,40,5,5,0.5,0.6
2026-03-12T2000,3697A,116.8399,40.3843,北京市,密云镇,细颗粒物(PM2.5),120,130,103,82,70,132,132,134,134,21,23,8,7,0.7,0.8
2026-03-12T2000,4057A,115.9423,40.4431,北京市,延庆百泉,细颗粒物(PM2.5),115,111,93,76,63,128,128,127,127,18,20,1,2,0.6,0.6
2026-03-12T2000,4058A,116.6598,39.9164,北京市,通州新华,细颗粒物(PM2.5),124,134,125,86,77,114,114,122,122,24,38,4,4,0.6,0.8
2026-03-12T2000,4182A,116.1942,39.9158,北京市,石景山八角,细颗粒物(PM2.5),123,127,105,85,63,NA,NA,115,115,22,29,6,7,0.6,0.5
2026-03-12T2000,4194A,117.078628,40.151726,北京市,平谷新城,细颗粒物(PM2.5),125,134,107,87,74,95,95,122,120,35,27,5,4,0.8,0.8
2026-03-12T2000,1761A,123.8274146,41.31234549,本溪市,大峪,,40,40,55,24,29,74,74,96,92,17,22,9,10,0.5,0.6
2026-03-12T2000,1763A,123.7169,41.3094,本溪市,彩屯,细颗粒物(PM2.5),70,70,61,45,36,70,70,101,92,32,26,11,9,0.8,0.7
2026-03-12T2000,1764A,123.7672166,41.28649327,本溪市,东明,颗粒物(PM10),90,105,60,54,32,33,33,103,92,64,24,10,10,1.1,0.6
2026-03-12T2000,1765A,123.799345,41.266614,本溪市,新立屯,,45,45,46,25,25,6,6,95,68,72,28,6,7,0.6,0.6
2026-03-12T2000,1766A,123.829144,41.336777,本溪市,威宁,细颗粒物(PM2.5),88,88,68,54,33,12,12,100,82,78,28,8,6,1.0,0.7
2026-03-12T2000,2587A,105.287,27.3133,毕节市,八中,,43,42,54,30,39,66,66,76,76,17,11,11,10,0.7,0.7
2026-03-12T2000,2588A,105.3079,27.2987,毕节市,师专,,41,41,47,24,32,60,60,66,66,15,16,9,9,0.5,0.7
2026-03-12T2000,4263A,105.3688,27.3598,毕节市,工业大道,,45,45,55,28,33,82,82,83,83,9,16,9,10,/,/
2026-03-12T2000,1629A,117.9961,37.3604,滨州市,第二水厂,,41,41,73,14,51,73,73,109,106,26,16,10,9,0.2,0.3
2026-03-12T2000,1630A,117.9789,37.3931,滨州市,北中新校,颗粒物(PM10),55,56,74,18,52,74,74,104,102,28,19,10,9,0.1,0.1
2026-03-12T2000,3514A,117.9379,37.3959,滨州市,中海酒店,NA,NA,46,77,16,53,NA,NA,115,115,26,20,7,6,0.5,0.5
2026-03-12T2000,3515A,117.9381509,37.35547456,滨州市,开发区一中,颗粒物(PM10),53,53,76,18,51,72,72,108,105,18,10,14,10,0.4,0.5
2026-03-12T2000,3516A,118.0914,37.6938,滨州市,金海六路,颗粒物(PM10),72,80,68,30,50,75,75,115,110,31,17,6,5,0.4,0.4
2026-03-12T2000,4028A,117.9955,37.3752,滨州市,滨州市西街道办事处,颗粒物(PM10),51,51,71,17,48,80,80,108,106,18,12,10,11,0.3,0.4
2026-03-12T2000,2311A,115.8071,33.8399,亳州市,污水处理厂,细颗粒物(PM2.5),133,128,158,96,134,104,104,130,130,20,24,6,7,0.2,0.4
2026-03-12T2000,2312A,115.7789,33.8519,亳州市,三国揽胜宫,细颗粒物(PM2.5),126,128,182,88,133,104,104,121,121,22,25,6,8,0.3,0.6
2026-03-12T2000,3332A,115.7631,33.803,亳州市,亳州学院,细颗粒物(PM2.5),132,122,174,95,129,101,101,123,123,22,21,6,7,0.3,0.6
2026-03-12T2000,2693A,82.0482,44.8553,博尔塔拉蒙古自治州,市党校,颗粒物(PM10),111,147,97,22,16,87,87,82,82,2,5,1,2,0.5,0.5
2026-03-12T2000,2694A,82.0805,44.8966,博尔塔拉蒙古自治州,市环保局,颗粒物(PM10),104,130,84,21,10,74,74,74,74,12,13,1,2,0.6,0.6
2026-03-12T2000,1071A,116.8733,38.2922,沧州市,沧县城建局,颗粒物(PM10),70,77,88,38,71,73,73,105,103,28,26,6,5,0.5,0.5
2026-03-12T2000,1072A,116.8462,38.3189,沧州市,电视转播站,细颗粒物(PM2.5),88,63,84,54,69,81,81,110,108,27,32,6,3,0.5,0.6
2026-03-12T2000,1073A,116.8588,38.3161,沧州市,市环保局,NA,NA,85,93,48,70,NA,NA,105,105,24,28,6,5,0.5,0.5
2026-03-12T2000,3324A,116.8011,38.294,沧州市,河北水利电力学院,"颗粒物(PM10),细颗粒物(PM2.5)",62,66,89,41,68,73,73,98,96,25,24,8,5,0.4,0.5
2026-03-12T2000,2622A,97.1813,31.1289,昌都市,昌都监测站,,27,NA,22,16,9,86,86,85,85,7,13,3,3,1.2,0.8
2026-03-12T2000,3719A,97.1707,31.1428,昌都市,昌都会议中心,,30,28,18,12,11,95,95,94,94,4,6,7,7,0.5,0.5
2026-03-12T2000,2692A,87.2722,44.0298,昌吉回族自治州,新区政务中心,,30,26,39,21,14,91,91,90,90,10,17,6,5,0.3,0.2
2026-03-12T2000,3613A,87.3069,44.0093,昌吉回族自治州,亚心广场,,45,41,42,31,13,102,102,99,99,4,11,7,7,0.3,0.4
2026-03-12T2000,4164A,87.2057,43.9289,昌吉回族自治州,财政所,,49,49,57,26,10,98,98,92,92,10,7,6,6,0.4,0.3
2026-03-12T2000,1120A,125.2874,43.9024,长春市,客车厂,细颗粒物(PM2.5),94,83,71,57,54,8,8,89,73,103,45,9,8,0.9,0.7
2026-03-12T2000,1121A,125.2943,43.8508,长春市,邮电学院,细颗粒物(PM2.5),86,78,56,53,47,72,72,92,90,32,27,9,9,0.5,0.5
2026-03-12T2000,1122A,125.3648,43.8745,长春市,劳动公园,细颗粒物(PM2.5),105,86,76,65,58,73,73,94,90,46,40,10,11,NA,0.8
2026-03-12T2000,1123A,125.3233,43.8781,长春市,园林处,细颗粒物(PM2.5),117,85,64,78,57,66,66,92,88,43,33,9,9,0.8,0.6
2026-03-12T2000,1124A,125.4604,43.7904,长春市,净月潭,细颗粒物(PM2.5),98,80,55,59,49,88,88,101,100,16,17,7,6,0.6,0.5
2026-03-12T2000,1126A,125.38,43.8422,长春市,经开区环卫处,细颗粒物(PM2.5),94,82,75,57,59,38,38,95,85,68,46,6,7,0.7,0.6
2026-03-12T2000,1127A,125.234,43.7761,长春市,高新区管委会,细颗粒物(PM2.5),188,NA,63,141,50,33,33,88,79,82,45,9,9,1.3,0.7
2026-03-12T2000,1128A,125.1695,43.83,长春市,岱山公园,细颗粒物(PM2.5),70,60,78,45,57,47,47,80,70,62,62,6,8,0.6,0.8
2026-03-12T2000,4281A,125.334645,43.916281,长春市,北亚泰大街1068号,细颗粒物(PM2.5),137,136,83,100,63,17,17,88,77,91,48,11,9,1.2,0.6
2026-03-12T2000,1335A,113.082,28.2421,长沙市,经开区环保局,颗粒物(PM10),67,73,63,42,43,118,118,123,123,22,31,5,5,0.6,0.5
2026-03-12T2000,1336A,112.8873,28.2202,长沙市,高开区环保局,颗粒物(PM10),61,65,59,35,42,122,122,118,118,17,18,6,6,0.6,0.7
2026-03-12T2000,1337A,113.0785,28.2012,长沙市,马坡岭,颗粒物(PM10),73,81,66,42,46,125,125,129,129,17,42,6,6,0.8,0.8
2026-03-12T2000,1338A,112.9448,28.1894,长沙市,湖南师范大学,颗粒物(PM10),63,68,62,38,45,137,137,139,139,12,23,5,5,0.7,0.7
2026-03-12T2000,1339A,113.0177,28.1322,长沙市,雨花区环保局,细颗粒物(PM2.5),68,66,61,44,42,130,130,130,130,11,28,4,5,0.5,0.6
2026-03-12T2000,1340A,112.9795,28.2593,长沙市,伍家岭,颗粒物(PM10),73,81,71,44,53,125,125,129,129,16,31,4,5,0.7,0.7
2026-03-12T2000,1341A,113.002,28.1944,长沙市,火车新站,颗粒物(PM10),68,75,65,43,47,131,131,132,132,12,32,5,5,0.7,0.7
2026-03-12T2000,1342A,112.9846,28.1177,长沙市,天心区环保局,"颗粒物(PM10),细颗粒物(PM2.5)",68,74,64,44,47,133,133,138,138,17,32,6,7,0.7,0.6
2026-03-12T2000,1343A,112.8906,28.1307,长沙市,湖南中医药大学,颗粒物(PM10),70,78,67,38,46,127,127,136,136,8,23,7,7,0.7,0.7
2026-03-12T2000,1727A,113.1146,36.1547,长治市,清华站,,48,42,47,33,35,109,109,114,114,14,18,8,8,0.5,0.7
2026-03-12T2000,1730A,113.0887,36.2126,长治市,审计局,细颗粒物(PM2.5),64,47,45,42,40,110,110,114,114,12,16,9,9,0.4,0.5
2026-03-12T2000,1731A,113.0845,36.1856,长治市,长治八中,细颗粒物(PM2.5),62,60,65,41,43,109,109,115,115,12,17,10,10,0.5,0.6
2026-03-12T2000,2845A,113.1561,36.1912,长治市,德盛苑,细颗粒物(PM2.5),56,45,45,38,41,115,115,118,118,12,13,8,7,0.5,0.6
2026-03-12T2000,3568A,113.0603,36.0464,长治市,向阳小学,颗粒物(PM10),63,67,78,38,39,112,112,118,118,20,22,12,13,0.5,0.9
2026-03-12T2000,3569A,112.8788,36.315,长治市,屯留一中,细颗粒物(PM2.5),60,50,57,40,45,116,116,120,119,17,30,8,7,0.7,0.7
2026-03-12T2000,4189A,113.113092,36.199482,长治市,英华南巷50号,"颗粒物(PM10),细颗粒物(PM2.5)",52,52,51,36,40,107,107,116,115,22,19,8,8,0.3,0.5
2026-03-12T2000,4190A,113.23666,36.33435,长治市,学府街1号,细颗粒物(PM2.5),78,NA,52,49,45,108,108,114,114,21,19,4,4,0.6,0.6
2026-03-12T2000,1854A,111.696,28.9725,常德市,市二中,细颗粒物(PM2.5),103,99,97,63,66,125,125,130,130,9,8,11,9,1.1,1
2026-03-12T2000,3138A,111.7152,29.0288,常德市,武陵区永安,细颗粒物(PM2.5),109,96,94,69,77,126,126,130,130,12,11,8,7,0.8,0.8
2026-03-12T2000,3139A,111.6891,28.9881,常德市,鼎城区玉霞,细颗粒物(PM2.5),109,104,91,69,66,130,130,128,128,14,14,11,9,0.8,0.7
2026-03-12T2000,3140A,111.6651,29.0526,常德市,武陵区长庚,细颗粒物(PM2.5),107,94,83,67,72,130,130,133,133,10,10,11,8,0.9,0.9
2026-03-12T2000,1196A,119.9524,31.7586,常州市,市监测站,细颗粒物(PM2.5),86,89,62,53,31,108,108,120,120,25,30,6,7,0.5,0.6
2026-03-12T2000,1200A,119.9351,31.703,常州市,武进监测站,细颗粒物(PM2.5),82,75,58,51,38,111,111,122,122,19,27,6,8,0.4,0.4
2026-03-12T2000,3002A,119.9701,31.813,常州市,行政中心,细颗粒物(PM2.5),102,85,67,62,44,94,94,109,109,30,35,NA,7,0.5,0.5
2026-03-12T2000,3003A,120.0434,31.7726,常州市,经开区,细颗粒物(PM2.5),82,92,71,51,38,88,88,119,119,37,38,3,11,0.7,0.7
2026-03-12T2000,3010A,119.8919,31.7892,常州市,钟楼,细颗粒物(PM2.5),86,79,62,53,35,111,111,128,128,29,33,7,9,0.6,0.3
2026-03-12T2000,3429A,119.8595,31.706,常州市,武进经发区,细颗粒物(PM2.5),100,80,61,60,40,92,92,121,120,38,39,7,9,0.5,0.6
2026-03-12T2000,3430A,119.5812,31.7256,常州市,金坛城区,细颗粒物(PM2.5),104,83,75,64,55,115,115,128,128,18,35,8,9,0.5,0.6
2026-03-12T2000,4089A,119.9551,31.863,常州市,崇义南街5-H号,细颗粒物(PM2.5),90,78,58,55,42,90,90,113,113,28,30,7,8,0.5,0.5
2026-03-12T2000,2220A,120.4318,41.588,朝阳市,西梁,,46,45,66,32,37,101,101,103,103,16,34,12,11,0.5,0.9
2026-03-12T2000,2221A,120.452,41.565,朝阳市,河畔小区,,48,36,53,33,35,106,106,107,107,16,31,12,11,0.5,0.9
2026-03-12T2000,2222A,120.4176,41.5648,朝阳市,八里堡,细颗粒物(PM2.5),64,42,59,42,41,98,98,101,101,19,37,12,11,0.5,0.8
2026-03-12T2000,3026A,116.6179,23.6608,潮州市,市政府,,48,48,60,19,36,135,135,159,158,10,16,4,10,0.3,0.5
2026-03-12T2000,4036A,116.646,23.676,潮州市,金山,颗粒物(PM10),54,55,52,16,33,133,133,155,155,13,15,4,5,0.4,0.5
2026-03-12T2000,2473A,113.0116,25.8228,郴州市,市职中,,47,47,31,29,21,103,103,112,112,17,18,5,7,0.8,0.7
2026-03-12T2000,2475A,113.0381,25.8074,郴州市,市审计局,,39,36,33,27,22,112,112,110,110,12,18,7,7,/,/
2026-03-12T2000,2476A,113.0348,25.7757,郴州市,市环保局,,42,40,40,29,22,99,99,103,103,17,23,7,8,0.5,0.4
2026-03-12T2000,4252A,113.0138,25.8011,郴州市,好美居路49号,,49,43,32,34,19,110,110,111,111,13,24,7,7,/,/
2026-03-12T2000,1431A,103.9727,30.7242,成都市,金泉两河,细颗粒物(PM2.5),60,56,68,40,49,51,51,51,51,23,46,3,3,0.5,0.7
2026-03-12T2000,1432A,104.1423,30.6765,成都市,十里店,颗粒物(PM10),60,64,51,38,36,45,45,54,50,27,43,5,4,0.6,0.6
2026-03-12T2000,1433A,104.0594,30.5765,成都市,三瓦窑,细颗粒物(PM2.5),66,54,47,43,32,59,59,92,84,20,33,3,2,0.7,0.7
2026-03-12T2000,1434A,104.1122,30.6306,成都市,沙河铺,颗粒物(PM10),58,61,51,38,34,45,45,64,58,36,42,5,5,0.5,0.5
2026-03-12T2000,2880A,104.0219,30.6561,成都市,大石西路,细颗粒物(PM2.5),62,63,52,41,38,56,56,75,67,26,33,6,5,0.5,0.6
2026-03-12T2000,3136A,104.2724,30.559,成都市,龙泉驿区区政府,细颗粒物(PM2.5),78,68,41,49,29,41,41,86,74,33,19,7,7,0.7,0.6
2026-03-12T2000,3357A,104.0028,30.6891,成都市,金博路,颗粒物(PM10),53,54,53,35,43,52,52,61,52,29,46,7,7,0.8,1
2026-03-12T2000,3359A,104.056,30.5228,成都市,华阳,细颗粒物(PM2.5),58,56,42,39,29,62,62,90,84,28,34,5,4,0.8,0.9
2026-03-12T2000,3488A,104.387954,30.746684,成都市,青石路225号,细颗粒物(PM2.5),76,66,44,48,32,45,45,77,72,31,26,7,7,0.8,0.7
2026-03-12T2000,3489A,104.0788,30.4054,成都市,科学城,颗粒物(PM10),59,62,40,37,26,63,63,78,78,27,26,8,8,0.8,0.8
2026-03-12T2000,4011A,103.8505,30.6946,成都市,光华大道三段,NA,NA,NA,70,NA,48,62,62,59,59,27,50,5,4,0.6,0.8
2026-03-12T2000,4144A,104.3257,30.6406,成都市,八角井街185号,细颗粒物(PM2.5),78,77,53,49,30,38,38,84,75,36,25,4,5,0.7,0.6
2026-03-12T2000,4224A,104.2433276,30.53529463,成都市,鲸龙路1057号,细颗粒物(PM2.5),70,71,46,45,30,42,42,75,72,35,34,7,7,0.7,0.7
2026-03-12T2000,1062A,117.9531,40.908,承德市,铁路,细颗粒物(PM2.5),100,103,59,60,33,112,112,113,113,28,20,5,6,0.6,0.6
2026-03-12T2000,1063A,117.9397,40.9763,承德市,中国银行,细颗粒物(PM2.5),102,100,58,62,30,114,114,113,113,21,16,15,5,0.8,0.6
2026-03-12T2000,4073A,117.9462,40.95,承德市,杏林街1号,细颗粒物(PM2.5),101,103,57,61,38,125,125,121,121,15,14,29,6,1.0,0.5
2026-03-12T2000,4274A,117.7994,40.9605,承德市,滨河大街98号,细颗粒物(PM2.5),111,76,56,72,37,115,115,121,121,18,19,28,14,0.7,0.9
2026-03-12T2000,2314A,117.4698,30.6617,池州市,池州学院,,38,35,68,26,49,113,113,123,123,33,35,6,6,0.5,0.8
2026-03-12T2000,3237A,117.4918,30.6617,池州市,展览馆,,38,36,68,26,54,114,114,121,121,21,27,3,4,0.6,0.8
2026-03-12T2000,3333A,117.5626,30.695,池州市,第八中学,,33,33,61,23,43,105,105,115,115,27,31,4,4,0.5,0.7
2026-03-12T2000,3334A,117.5037,30.6242,池州市,第十二中学,,38,38,53,24,40,112,112,120,120,26,28,3,4,0.4,0.7
2026-03-12T2000,1744A,118.9229,42.2816,赤峰市,松山一中,细颗粒物(PM2.5),102,NA,42,62,31,98,98,110,108,30,35,7,8,0.8,0.7
2026-03-12T2000,1745A,118.9588,42.2733,赤峰市,哈达街,NA,NA,NA,42,NA,25,NA,NA,90,90,21,27,10,20,0.8,0.8
2026-03-12T2000,1746A,118.8792,42.2551,赤峰市,天义路,细颗粒物(PM2.5),78,NA,34,49,27,93,93,103,103,21,25,6,9,0.4,0.5
2026-03-12T2000,3058A,119.2656,42.0356,赤峰市,银河街,细颗粒物(PM2.5),84,64,67,52,34,78,78,102,100,16,16,14,13,0.7,0.8
2026-03-12T2000,3286A,118.9359,42.3146,赤峰市,桥北物流园区,细颗粒物(PM2.5),76,54,39,48,27,100,100,103,103,22,35,3,6,0.8,0.8
2026-03-12T2000,2521A,107.3473,22.4137,崇左市,市环保局江州分局,颗粒物(PM10),52,52,76,27,57,135,135,135,135,13,22,5,8,0.8,1
2026-03-12T2000,4256A,107.375,22.3736,崇左市,石景林东路7号,,44,44,63,25,49,133,133,136,136,16,23,5,8,1.0,1.2
2026-03-12T2000,3207A,118.31131,32.3033,滁州市,市政府原办公楼,细颗粒物(PM2.5),104,74,61,64,61,98,98,118,117,32,28,5,6,0.5,0.7
2026-03-12T2000,3331A,118.3268,32.2633,滁州市,图书馆,细颗粒物(PM2.5),72,61,66,46,47,95,95,111,111,30,32,7,9,0.4,0.4
2026-03-12T2000,4101A,118.3196,32.3335,滁州市,银山路666号,细颗粒物(PM2.5),80,62,56,50,49,105,105,123,122,26,27,8,7,0.6,0.6
2026-03-12T2000,4102A,118.3426,32.2979,滁州市,黄山路555号,NA,NA,81,76,54,53,102,102,126,124,NA,35,NA,7,0.7,0.6
2026-03-12T2000,2606A,101.5379,25.0492,楚雄彝族自治州,市经济开发区,,32,32,37,21,29,85,85,97,97,10,12,3,4,0.8,0.8
2026-03-12T2000,4153A,101.5536,25.0343,楚雄彝族自治州,团结路562号,,32,NA,29,22,26,96,96,105,105,5,5,7,7,0.5,0.6
2026-03-12T2000,2549A,107.5087,31.2186,达州市,市环境监测站,颗粒物(PM10),58,61,55,33,28,65,65,79,77,32,39,5,6,0.3,0.3
2026-03-12T2000,2550A,107.4988,31.2132,达州市,凤凰小区,细颗粒物(PM2.5),62,63,57,41,30,64,64,77,77,32,38,4,6,0.4,0.5
2026-03-12T2000,2551A,107.5081,31.1987,达州市,达县机关宾馆,细颗粒物(PM2.5),88,83,57,54,31,37,37,72,72,65,45,4,6,0.8,0.6
2026-03-12T2000,2552A,107.4644,31.2124,达州市,市政中心,NA,NA,68,61,37,29,66,66,76,76,NA,45,NA,5,0.5,0.6
2026-03-12T2000,2614A,100.2168,25.5818,大理白族自治州,大理市环境监测站,细颗粒物(PM2.5),72,50,55,46,46,100,100,120,109,11,10,7,7,0.6,0.5
2026-03-12T2000,2615A,100.1542,25.7055,大理白族自治州,大理古城,细颗粒物(PM2.5),70,55,51,45,42,96,96,118,115,13,12,8,8,0.9,0.8
2026-03-12T2000,1109A,121.6119,38.974,大连市,甘井子,细颗粒物(PM2.5),104,103,78,64,57,92,92,109,108,40,30,10,9,0.7,0.6
2026-03-12T2000,1110A,121.565,38.9509,大连市,周水子,细颗粒物(PM2.5),109,100,75,69,56,75,75,105,100,41,31,4,9,0.8,0.8
2026-03-12T2000,1111A,121.5637,38.8849,大连市,星海三站,NA,NA,75,70,NA,89,76,76,90,89,26,21,11,7,0.7,0.8
2026-03-12T2000,1112A,121.6301,38.9117,大连市,青泥洼桥,细颗粒物(PM2.5),105,108,83,65,58,78,78,104,101,51,31,12,8,0.8,0.7
2026-03-12T2000,1113A,121.6248,38.8643,大连市,傅家庄,细颗粒物(PM2.5),82,84,71,51,50,76,76,93,92,38,28,13,10,0.6,0.7
2026-03-12T2000,1114A,121.5117,38.8636,大连市,七贤岭,细颗粒物(PM2.5),70,61,65,45,49,109,109,110,110,23,20,8,8,0.4,0.6
2026-03-12T2000,1116A,121.7507,39.1339,大连市,金州,细颗粒物(PM2.5),118,131,81,79,64,85,85,110,108,38,25,7,9,0.7,0.7
2026-03-12T2000,1117A,121.7811,39.0495,大连市,开发区,细颗粒物(PM2.5),110,86,67,70,55,82,82,100,98,42,33,8,9,0.7,0.7
2026-03-12T2000,1118A,121.9762,39.0631,大连市,双D港,细颗粒物(PM2.5),109,100,80,69,50,116,116,105,105,26,22,10,8,0.8,0.7
2026-03-12T2000,4082A,121.2548,38.8188,大连市,旅顺,细颗粒物(PM2.5),98,79,76,59,57,92,92,98,98,22,32,6,8,0.4,0.5
2026-03-12T2000,1789A,124.8085,46.0381,大庆市,大同区,细颗粒物(PM2.5),138,166,58,101,35,83,83,98,96,44,27,27,13,1.0,0.7
2026-03-12T2000,1790A,125.1166,46.5255,大庆市,龙凤区,颗粒物(PM10),75,85,46,45,28,42,42,86,79,44,26,6,6,0.5,0.3
2026-03-12T2000,1791A,124.8894,46.4007,大庆市,红岗区,细颗粒物(PM2.5),119,116,48,80,32,54,54,101,93,34,19,11,12,0.7,0.5
2026-03-12T2000,1792A,125.1391,46.578,大庆市,萨尔图区,颗粒物(PM10),73,81,42,40,20,69,69,90,84,22,21,6,6,0.6,0.6
2026-03-12T2000,1793A,124.9026,46.6217,大庆市,让胡路区,细颗粒物(PM2.5),54,51,47,37,32,61,61,96,94,30,28,5,9,0.5,0.6
2026-03-12T2000,3481A,125.127,46.6277,大庆市,萨区政府监测点,颗粒物(PM10),55,56,39,31,19,68,68,97,91,14,8,12,10,0.7,0.6
2026-03-12T2000,1723A,113.2926,40.0759,大同市,云冈宾馆,细颗粒物(PM2.5),130,159,98,93,56,89,89,124,122,30,38,8,11,1.0,1.1
2026-03-12T2000,1724A,113.3437,40.0921,大同市,大同大学,细颗粒物(PM2.5),129,133,93,91,54,105,105,138,137,26,33,10,10,0.8,0.9
2026-03-12T2000,1725A,113.2637,40.129,大同市,安家小村,细颗粒物(PM2.5),122,140,103,84,50,102,102,135,131,24,28,12,17,0.8,1.6
2026-03-12T2000,3282A,113.3399,40.0586,大同市,大同市卫生学校,细颗粒物(PM2.5),116,139,97,77,54,102,102,140,138,24,38,7,10,0.7,0.7
2026-03-12T2000,3565A,113.1371,40.1122,大同市,云冈站,细颗粒物(PM2.5),103,98,109,63,69,98,98,128,126,22,41,14,14,0.6,0.8
2026-03-12T2000,3566A,113.1186,40.2556,大同市,图书馆,细颗粒物(PM2.5),110,97,83,70,48,97,97,128,126,29,19,12,9,0.8,0.7
2026-03-12T2000,3567A,113.5931,40.0459,大同市,区一中,细颗粒物(PM2.5),112,122,89,73,50,108,108,135,133,31,17,12,13,0.3,0.5
2026-03-12T2000,4199A,113.2798248,40.09972476,大同市,魏都大道141号,细颗粒物(PM2.5),132,146,115,95,61,99,99,133,131,24,43,10,15,0.9,1.6
2026-03-12T2000,2269A,124.1068,50.4091,大兴安岭地区,科技局,颗粒物(PM10),54,55,45,26,26,90,90,93,93,8,17,6,8,0.4,0.5
2026-03-12T2000,3663A,124.117,50.4279,大兴安岭地区,红旗社区,,36,36,34,22,25,106,106,102,102,7,17,10,9,0.3,0.4
2026-03-12T2000,1600A,124.33,40.0625,丹东市,江湾东路,细颗粒物(PM2.5),120,125,60,81,40,29,29,104,84,60,22,23,11,1.5,0.8
2026-03-12T2000,1601A,124.4242,40.1513,丹东市,临江后街,细颗粒物(PM2.5),82,65,57,51,41,57,57,99,85,36,22,10,9,0.7,0.6
2026-03-12T2000,1602A,124.3935,40.1461,丹东市,元宝山,,34,34,45,22,31,82,82,94,91,13,17,6,7,0.5,0.6
2026-03-12T2000,1603A,124.3634,40.1093,丹东市,民主桥,细颗粒物(PM2.5),101,99,60,61,40,18,18,99,81,67,27,7,8,1.0,0.6
2026-03-12T2000,3541A,109.5726195,19.51688767,儋州市,第一中学子站,,31,24,33,16,21,99,99,96,96,7,6,6,6,0.6,0.6
2026-03-12T2000,3542A,109.5567,19.5187,儋州市,东坡学校子站,,35,35,40,20,26,100,100,96,96,7,7,4,3,0.8,0.8
2026-03-12T2000,2616A,98.5611,24.4273,德宏傣族景颇族自治州,德宏州监测站,NA,NA,NA,86,NA,79,NA,NA,134,NA,NA,29,NA,8,NA,1.0
2026-03-12T2000,3677A,98.5887,24.4366,德宏傣族景颇族自治州,芒市人民政府综合楼,细颗粒物(PM2.5),100,108,109,60,68,89,89,97,97,18,16,6,6,0.8,0.8
2026-03-12T2000,1901A,104.424,31.1209,德阳市,东山公园,,45,41,40,31,32,62,62,76,61,12,16,3,3,0.6,0.7
2026-03-12T2000,1902A,104.3827,31.1318,德阳市,西小区,颗粒物(PM10),53,54,77,30,49,58,58,59,59,20,45,4,4,0.6,0.9
2026-03-12T2000,1904A,104.3553,31.1091,德阳市,耐火材料厂,,44,44,82,30,61,55,55,58,58,25,44,2,3,0.5,0.7
2026-03-12T2000,4145A,104.4144,31.1495,德阳市,市林业局,,38,36,55,26,37,60,60,61,61,17,41,5,6,0.5,0.7
2026-03-12T2000,1622A,116.3034,37.4675,德州市,儿童乐园,细颗粒物(PM2.5),96,110,105,58,75,119,119,128,128,26,22,12,11,0.6,0.6
2026-03-12T2000,1624A,116.2992,37.4449,德州市,监理站,NA,NA,NA,104,NA,73,127,127,135,135,NA,24,6,5,NA,0.6
2026-03-12T2000,3066A,116.2722,37.438,德州市,九衢泉纯净水厂,细颗粒物(PM2.5),88,97,96,54,73,123,123,135,135,30,26,9,4,0.7,0.7
2026-03-12T2000,3371A,116.3693,37.44,德州市,开发区人民医院,细颗粒物(PM2.5),110,132,106,70,75,100,100,121,121,46,26,8,10,0.8,0.6
2026-03-12T2000,3511A,116.5687,37.3331,德州市,陵城艺术中心,细颗粒物(PM2.5),113,127,94,74,71,93,93,119,118,26,18,5,4,0.8,0.6
2026-03-12T2000,4292A,116.352738,37.420875,德州市,新河东路,细颗粒物(PM2.5),100,112,99,60,67,96,96,122,122,40,21,10,10,0.9,0.5
2026-03-12T2000,2621A,99.7054,27.8319,迪庆藏族自治州,迪庆州站,,35,34,36,24,24,101,101,105,105,9,10,6,6,0.6,0.7
2026-03-12T2000,3180A,99.7122,27.8129,迪庆藏族自治州,质量技术监督局,NA,NA,28,32,21,23,95,95,92,92,8,11,5,6,NA,0.6
2026-03-12T2000,4257A,104.6092,35.5962,定西市,将台街,颗粒物(PM10),314,431,104,156,33,87,87,100,96,7,8,8,9,0.3,0.4
2026-03-12T2000,4309A,104.6159,35.5701,定西市,正龙路62号,颗粒物(PM10),293,415,98,124,28,81,81,95,90,6,5,3,5,0.5,0.4
2026-03-12T2000,4071A,114.9883,38.5232,定州市,交通局,细颗粒物(PM2.5),112,95,103,73,76,98,98,128,126,31,27,9,10,0.6,0.6
2026-03-12T2000,4072A,115.0045,38.5136,定州市,第五中学,细颗粒物(PM2.5),120,123,117,81,76,59,59,123,117,68,32,7,8,0.6,0.6
2026-03-12T2000,1390A,113.7943,23.0132,东莞市,东城石井,,26,24,40,14,27,81,81,124,118,22,33,6,7,0.5,0.7
2026-03-12T2000,1391A,113.7384,22.9659,东莞市,南城西平,,28,26,48,14,32,88,88,121,116,28,42,9,9,0.5,0.7
2026-03-12T2000,3319A,113.7283,23.041,东莞市,万江金泰,,40,40,44,26,31,82,82,124,117,25,39,7,7,0.6,0.8
2026-03-12T2000,4129A,113.8666,23.1062,东莞市,裕兴路,,50,50,47,22,26,58,58,112,106,52,34,10,11,0.6,0.7
2026-03-12T2000,4130A,114.0076,22.9739,东莞市,教育路1号,,43,43,52,21,31,60,60,130,120,62,40,6,6,0.4,0.5
2026-03-12T2000,4131A,113.7981,22.8124,东莞市,长怡路1号,颗粒物(PM10),65,70,62,36,34,140,140,132,132,44,46,5,5,0.7,0.8
2026-03-12T2000,1666A,118.6612,37.4313,东营市,市环保局,,34,34,49,13,35,85,85,100,99,16,12,11,6,0.4,0.4
2026-03-12T2000,3036A,118.6903,37.4337,东营市,开发区管委会,,32,32,52,11,35,83,83,107,105,32,17,13,6,0.4,0.2
2026-03-12T2000,3365A,118.5721,37.5654,东营市,垦利区民丰路,,34,34,47,12,38,88,88,110,108,24,14,10,9,0.6,0.7
2026-03-12T2000,3498A,118.5063,37.8606,东营市,河口城区,颗粒物(PM10),56,58,57,19,30,78,78,104,101,20,18,5,4,0.6,0.5
2026-03-12T2000,3646A,118.4979,37.4623,东营市,胜利站,,34,34,58,9,35,73,73,98,96,30,14,6,6,0.5,0.6
2026-03-12T2000,3734A,118.5753,37.4405,东营市,理想之城,,29,29,62,11,35,83,83,111,106,24,15,4,3,0.6,0.7
2026-03-12T2000,1591A,110.0024,39.8127,鄂尔多斯市,综合楼,颗粒物(PM10),116,161,143,51,43,127,127,134,134,19,24,7,11,0.6,0.5
2026-03-12T2000,1592A,109.9485,39.8259,鄂尔多斯市,巴音孟克林场办事处,颗粒物(PM10),110,146,121,43,33,131,131,139,139,16,19,7,10,0.6,0.5
2026-03-12T2000,1593A,109.7734,39.5987,鄂尔多斯市,康泽苑,颗粒物(PM10),108,139,118,42,35,130,130,144,144,19,35,9,12,0.5,0.6
2026-03-12T2000,1594A,109.8121,39.5987,鄂尔多斯市,华泰汽车城,颗粒物(PM10),104,129,118,35,35,134,134,147,147,18,39,8,12,0.5,0.6
2026-03-12T2000,1595A,109.9734,39.7884,鄂尔多斯市,奥林花园,颗粒物(PM10),105,132,124,36,32,127,127,136,136,22,28,8,11,0.6,0.6
2026-03-12T2000,2436A,114.894,30.3989,鄂州市,市政府,细颗粒物(PM2.5),54,52,51,37,38,117,117,117,117,18,24,8,8,0.4,0.4
2026-03-12T2000,2437A,114.8986,30.3714,鄂州市,赵家坝,NA,NA,44,53,40,37,NA,NA,137,137,NA,15,10,19,0.6,0.5
2026-03-12T2000,3654A,114.8093,30.4091,鄂州市,精准医疗中心,细颗粒物(PM2.5),56,52,64,38,42,122,122,134,134,19,18,4,10,0.6,0.7
2026-03-12T2000,2454A,109.4978,30.2979,恩施土家族苗族自治州,湖北民院,细颗粒物(PM2.5),94,59,47,57,36,81,81,106,106,19,18,6,6,0.6,0.5
2026-03-12T2000,3549A,109.5061,30.3771,恩施土家族苗族自治州,龙凤新区,细颗粒物(PM2.5),104,NA,45,64,33,64,64,122,117,12,11,7,7,0.6,0.4
2026-03-12T2000,2499A,108.3411,21.6159,防城港市,沙万,颗粒物(PM10),65,70,46,40,28,100,100,105,105,36,21,9,8,1.6,0.9
2026-03-12T2000,2500A,108.3515,21.7733,防城港市,防城档案局,NA,NA,62,47,47,28,NA,NA,115,115,24,15,8,7,0.9,0.8
2026-03-12T2000,2501A,108.3506,21.6414,防城港市,大海花园,细颗粒物(PM2.5),84,NA,39,52,33,131,131,124,124,22,19,18,11,0.6,0.7
2026-03-12T2000,1371A,113.1293,23.0065,佛山市,湾梁,,36,36,49,19,38,94,94,134,134,25,41,/,/,/,/
2026-03-12T2000,1372A,113.1082,23.0477,佛山市,华材职中,颗粒物(PM10),55,56,62,27,39,75,75,125,122,34,53,6,7,0.3,0.6
2026-03-12T2000,1373A,113.1439,23.045,佛山市,南海气象局,,30,29,54,17,37,93,93,134,133,28,49,/,/,/,/
2026-03-12T2000,1374A,113.2879,22.8094,佛山市,顺德苏岗,,41,41,52,20,38,113,113,142,142,24,44,/,/,0.7,0.9
2026-03-12T2000,1376A,112.8384,22.8678,佛山市,高明孔堂,,34,30,39,16,25,107,107,136,136,17,17,/,/,/,/
2026-03-12T2000,1377A,112.8835,23.1584,佛山市,三水监测站,颗粒物(PM10),55,56,40,22,25,67,67,105,103,40,39,3,6,0.5,0.6
2026-03-12T2000,1378A,112.8668,23.185,佛山市,三水云东海,,48,48,40,22,24,77,77,122,116,21,40,/,/,/,/
2026-03-12T2000,3625A,113.2568,22.7629,佛山市,容桂街道办,NA,NA,NA,56,NA,36,NA,NA,141,141,36,61,/,/,/,/
2026-03-12T2000,1282A,119.2681,26.0506,福州市,师大,,41,41,43,22,24,130,130,140,140,17,19,4,4,0.2,0.3
2026-03-12T2000,1283A,119.2983,26.1028,福州市,五四北路,,43,41,38,22,23,137,137,142,142,16,19,5,5,0.3,0.4
2026-03-12T2000,1284A,119.2648,26.0769,福州市,杨桥西路,,44,36,40,21,23,139,139,145,145,13,20,5,4,/,/
2026-03-12T2000,3048A,119.5799,26.0937,福州市,九龙,,41,29,31,12,20,129,129,141,141,9,15,4,5,0.3,0.4
2026-03-12T2000,3526A,119.5188,25.9666,福州市,吴航,,39,25,33,11,21,124,124,140,139,12,20,5,6,0.3,0.5
2026-03-12T2000,4104A,119.3106,26.0648,福州市,路通桥巷6号,,41,35,42,20,27,131,131,140,140,11,17,/,/,/,/
2026-03-12T2000,1755A,123.7974,41.8494,抚顺市,望花区,细颗粒物(PM2.5),88,84,54,54,30,81,81,103,100,30,25,8,7,0.8,0.7
2026-03-12T2000,1756A,123.9161,41.8827,抚顺市,顺城区,细颗粒物(PM2.5),105,76,47,65,33,46,46,97,84,50,32,11,9,0.9,0.7
2026-03-12T2000,1757A,124.0437,41.8615,抚顺市,东洲区,颗粒物(PM10),68,75,49,42,30,49,49,95,88,42,17,9,7,0.7,0.5
2026-03-12T2000,1758A,123.9246,41.8638,抚顺市,新抚区,颗粒物(PM10),58,60,56,37,30,53,53,103,95,47,26,8,8,0.7,0.6
2026-03-12T2000,1759A,124.0972,41.8961,抚顺市,大伙房水库,细颗粒物(PM2.5),64,62,47,42,29,56,56,104,96,39,14,11,10,0.7,0.5
2026-03-12T2000,1760A,123.708,41.8386,抚顺市,沈抚新城,细颗粒物(PM2.5),128,125,60,90,36,65,65,99,94,51,28,12,8,0.8,0.5
2026-03-12T2000,2377A,116.3544,27.9833,抚州市,市站,细颗粒物(PM2.5),58,51,56,39,41,126,126,146,142,10,11,8,14,0.8,0.8
2026-03-12T2000,2378A,116.3562,27.9631,抚州市,血防站,,46,46,56,31,39,126,126,146,143,4,10,2,6,0.9,0.9
2026-03-12T2000,2379A,116.3561,28.0007,抚州市,采茶剧团,颗粒物(PM10),51,51,55,31,37,111,111,137,133,11,14,8,11,1.0,1
2026-03-12T2000,2380A,116.3854,27.9648,抚州市,医学分院,颗粒物(PM10),51,51,62,31,35,115,115,137,134,10,14,8,11,0.9,1
2026-03-12T2000,2207A,121.6095,41.9978,阜新市,工业园区,颗粒物(PM10),62,66,64,33,30,86,86,95,94,16,27,18,14,0.5,0.6
2026-03-12T2000,2208A,121.6567,42.0188,阜新市,长青街,颗粒物(PM10),55,57,54,34,29,77,77,94,92,22,24,12,12,0.5,0.6
2026-03-12T2000,2209A,121.6672,42.07,阜新市,农业园区,颗粒物(PM10),75,85,44,38,18,74,74,86,85,22,13,27,8,0.5,0.5
2026-03-12T2000,2211A,121.6343,42.0455,阜新市,玉龙新城,颗粒物(PM10),65,71,53,37,22,67,67,94,90,34,32,17,9,0.6,0.7
2026-03-12T2000,2301A,115.8276,32.8929,阜阳市,市监测站,细颗粒物(PM2.5),115,104,116,76,85,103,103,126,126,24,35,5,6,0.5,0.6
2026-03-12T2000,2303A,115.8551,32.8606,阜阳市,开发区,细颗粒物(PM2.5),112,117,129,73,85,67,67,125,120,34,25,5,6,0.5,0.6
2026-03-12T2000,2875A,115.783962,32.889217,阜阳市,阜阳职业技术学院,颗粒物(PM10),77,87,96,48,74,115,115,131,131,18,25,6,7,0.5,0.6
2026-03-12T2000,3468A,115.79,32.8614,阜阳市,市规划展馆,细颗粒物(PM2.5),109,86,108,69,84,117,117,136,136,16,18,7,9,0.5,0.7
2026-03-12T2000,3469A,115.835101,32.918568,阜阳市,枣园社区,细颗粒物(PM2.5),110,102,118,70,86,104,104,126,125,22,31,8,9,0.6,0.7
2026-03-12T2000,2669A,102.9097,34.9841,甘南藏族自治州,州政府,颗粒物(PM10),142,228,51,71,29,71,71,74,74,5,22,6,6,0.4,0.6
2026-03-12T2000,3380A,102.8915,34.9618,甘南藏族自治州,甘肃民族师范学院,颗粒物(PM10),142,229,61,62,21,85,85,86,86,19,29,3,3,0.5,0.6
2026-03-12T2000,2570A,101.96,30.048,甘孜藏族自治州,水桥子,,25,NA,18,17,5,64,64,82,80,12,16,3,3,0.7,0.6
2026-03-12T2000,3065A,101.9534,29.9976,甘孜藏族自治州,州环保局,,22,NA,12,15,6,57,57,84,81,18,17,5,6,0.6,0.5
2026-03-12T2000,2363A,114.9368,25.8663,赣州市,地委,细颗粒物(PM2.5),56,44,40,38,23,135,135,131,131,16,27,6,6,0.7,0.8
2026-03-12T2000,2364A,114.946,25.8483,赣州市,气象台,颗粒物(PM10),55,57,49,37,28,135,135,135,135,21,31,6,7,0.3,0.4
2026-03-12T2000,2365A,114.932,25.8332,赣州市,市图书馆,,47,47,44,32,26,126,126,124,124,12,28,4,4,0.4,0.5
2026-03-12T2000,2366A,114.8905,25.8472,赣州市,华坚鞋城,颗粒物(PM10),52,52,44,31,22,136,136,128,128,13,21,6,6,0.4,0.3
2026-03-12T2000,3109A,115.0094,25.8614,赣州市,赣县区卫计委,,46,43,39,32,24,138,138,123,123,10,25,4,4,0.8,0.7
2026-03-12T2000,2684A,106.2753,36.0057,固原市,监测站,细颗粒物(PM2.5),169,238,65,128,57,73,73,123,83,14,13,9,9,0.4,0.5
2026-03-12T2000,2685A,106.2384,36.0189,固原市,新区,NA,NA,NA,65,NA,56,NA,NA,115,NA,NA,13,NA,9,NA,0.6
2026-03-12T2000,2544A,106.6307,30.4577,广安市,市委,细颗粒物(PM2.5),72,60,54,46,38,91,91,95,95,14,34,7,6,0.6,0.8
2026-03-12T2000,2545A,106.6266,30.4662,广安市,友谊中学,细颗粒物(PM2.5),62,49,44,41,29,88,88,91,91,17,26,7,7,0.6,0.7
2026-03-12T2000,2547A,106.6386,30.4551,广安市,广电花园,细颗粒物(PM2.5),72,65,62,46,37,82,82,86,86,17,30,9,8,0.7,0.8
2026-03-12T2000,2902A,106.6347,30.4868,广安市,北辰小学,细颗粒物(PM2.5),66,58,46,43,37,87,87,92,92,13,20,6,5,0.7,0.7
2026-03-12T2000,2524A,105.8211,32.4444,广元市,老城,颗粒物(PM10),88,103,54,51,30,2,2,16,13,67,53,11,8,1.1,0.8
2026-03-12T2000,2526A,105.8629,32.429,广元市,监测站,细颗粒物(PM2.5),80,88,54,50,29,6,6,38,18,62,37,8,10,1.3,0.9
2026-03-12T2000,3617A,105.8047,32.4167,广元市,经开区,细颗粒物(PM2.5),107,87,50,67,35,3,3,27,14,68,43,23,11,1.6,1.1
2026-03-12T2000,1345A,113.2346,23.1423,广州市,广雅中学,颗粒物(PM10),51,51,59,31,33,54,54,116,111,51,54,3,4,0.5,0.7
2026-03-12T2000,1346A,113.2611,23.105,广州市,市五中,,35,33,46,24,33,97,97,137,136,32,52,7,8,/,/
2026-03-12T2000,1348A,113.3477,23.0916,广州市,广东商学院,,31,31,44,19,30,83,83,119,118,26,50,6,6,0.6,0.8
2026-03-12T2000,1349A,113.4332,23.105,广州市,市八十六中,颗粒物(PM10),57,59,45,30,28,85,85,132,129,47,53,11,6,/,/
2026-03-12T2000,1350A,113.3506,22.9488,广州市,番禺中学,细颗粒物(PM2.5),54,53,72,37,38,73,73,124,118,54,50,4,4,0.8,1
2026-03-12T2000,1351A,113.2147,23.3918,广州市,花都师范,,32,32,46,16,28,96,96,108,108,20,40,8,7,0.6,0.7
2026-03-12T2000,1352A,113.2599,23.1329,广州市,市监测站,,39,39,55,21,32,76,76,124,118,38,58,1,2,/,/
2026-03-12T2000,1353A,113.5618,23.3119,广州市,九龙镇镇龙,,40,40,41,23,26,70,70,102,100,28,31,6,5,0.4,0.5
2026-03-12T2000,1354A,113.2764,23.1544,广州市,麓湖,,31,31,42,17,29,86,86,122,120,18,39,3,4,0.2,0.5
2026-03-12T2000,2846A,113.3209,23.1323,广州市,体育西,颗粒物(PM10),53,54,47,36,29,75,75,120,117,41,53,6,6,0.8,0.9
2026-03-12T2000,3298A,113.5718,23.5493,广州市,从化街口,,33,33,36,19,26,91,91,104,103,12,26,6,8,0.5,0.7
2026-03-12T2000,3299A,113.3463,23.369,广州市,白云竹料,NA,NA,NA,65,NA,43,NA,NA,16,NA,NA,52,NA,5,NA,1
2026-03-12T2000,3300A,113.2981,23.2365,广州市,白云嘉禾,,41,41,51,23,29,71,71,124,120,46,48,6,7,/,/
2026-03-12T2000,3301A,113.4256,23.1716,广州市,黄埔科学城,,32,31,33,22,25,76,76,123,119,28,26,8,8,0.5,0.6
2026-03-12T2000,3302A,113.3942,23.0485,广州市,番禺大学城,,38,38,53,17,30,98,98,132,132,30,48,6,6,0.4,0.6
2026-03-12T2000,3303A,113.4923,22.8169,广州市,南沙黄阁,,47,47,57,21,33,138,138,154,152,35,49,7,9,/,/
2026-03-12T2000,3304A,113.534,22.7893,广州市,南沙街,,47,47,49,24,33,144,144,147,147,24,33,7,7,0.6,0.7
2026-03-12T2000,3443A,113.2905,23.5541,广州市,花都梯面,,43,42,23,30,17,41,41,88,81,38,22,5,6,/,/
2026-03-12T2000,3445A,113.786,23.7479,广州市,从化良口,,29,19,20,14,14,90,90,104,103,7,14,4,4,/,/
2026-03-12T2000,3446A,113.805,23.2614,广州市,增城荔城,,35,35,28,19,20,51,51,106,100,39,21,7,8,0.6,0.5
2026-03-12T2000,2506A,109.604387,23.066791,贵港市,江南子站,,46,46,58,18,33,96,96,107,107,14,23,7,8,0.5,1.1
2026-03-12T2000,2508A,109.5669,23.1065,贵港市,荷城子站,,39,39,34,16,22,95,95,111,111,18,20,7,9,0.6,0.7
2026-03-12T2000,3405A,109.5886,23.1172,贵港市,新世纪学校,,46,46,41,17,28,91,91,110,110,20,23,/,/,0.5,0.6
2026-03-12T2000,4260A,109.5933,23.095,贵港市,中山路155-3号,,35,35,44,18,29,99,99,112,112,14,20,/,/,0.5,0.5
2026-03-12T2000,1439A,106.6863,26.6035,贵阳市,马鞍山,,28,19,28,19,20,66,66,89,88,9,12,4,4,/,/
2026-03-12T2000,1441A,106.6241,26.6266,贵阳市,鉴湖路,,31,31,38,16,19,79,79,96,96,17,14,6,5,0.1,0.3
2026-03-12T2000,1442A,106.7468,26.6344,贵阳市,燕子冲,,27,24,34,17,20,84,84,93,93,10,14,3,5,0.1,0.4
2026-03-12T2000,1443A,106.6556,26.4362,贵阳市,碧云窝,,27,27,45,15,25,81,81,94,94,16,19,2,8,/,/
2026-03-12T2000,1445A,106.6963,26.6063,贵阳市,红边门,,29,29,39,18,23,75,75,92,91,23,17,5,11,/,/
2026-03-12T2000,1446A,106.7162383,26.56964667,贵阳市,新华路,,39,39,48,17,23,78,78,96,93,17,21,5,14,0.1,0.5
2026-03-12T2000,1447A,106.6742,26.542,贵阳市,太慈桥,NA,NA,NA,40,18,27,83,83,94,93,12,26,4,4,/,/
2026-03-12T2000,4230A,106.688212,26.56952,贵阳市,花果园大街66号,,26,19,33,18,25,72,72,87,87,23,19,4,6,/,/
2026-03-12T2000,4231A,106.687268,26.516892,贵阳市,漓江路57号,,26,22,28,18,22,77,77,102,100,27,25,9,10,0.5,0.7
2026-03-12T2000,1864A,110.3091,25.2705,桂林市,龙隐路小学,,39,39,45,25,29,112,112,113,113,8,19,4,10,0.7,0.8
2026-03-12T2000,1865A,110.2849361,25.22909545,桂林市,八中,NA,NA,NA,50,NA,21,NA,NA,94,94,NA,25,NA,6,NA,0.7
2026-03-12T2000,3531A,110.296,25.1254,桂林市,旅游学院,,47,47,49,25,33,105,105,115,115,11,22,5,6,0.5,0.6
2026-03-12T2000,4222A,110.1835,25.2444,桂林市,环湖路276号,,46,39,48,32,32,97,97,106,106,12,30,4,10,0.8,0.7
2026-03-12T2000,4301A,110.2803,25.2773,桂林市,信义路13号,,43,40,49,30,31,94,94,105,104,18,29,5,10,0.6,0.7
2026-03-12T2000,2674A,100.2262,34.4854,果洛藏族自治州,玛沁县大武镇,,49,49,40,14,14,92,92,100,100,2,4,20,16,0.4,0.4
2026-03-12T2000,1130A,126.5557,45.8109,哈尔滨市,松北商大,细颗粒物(PM2.5),101,73,57,61,37,55,55,86,82,35,40,12,11,0.7,0.6
2026-03-12T2000,1132A,126.6162,45.719,哈尔滨市,南岗学府路,细颗粒物(PM2.5),78,72,44,49,23,62,62,93,90,32,26,14,13,0.4,0.3
2026-03-12T2000,1133A,126.6894,45.7733,哈尔滨市,太平宏伟公园,细颗粒物(PM2.5),78,54,53,49,34,67,67,90,84,26,31,11,14,0.5,0.6
2026-03-12T2000,1134A,126.6361,45.7672,哈尔滨市,道外承德广场,细颗粒物(PM2.5),92,103,58,56,29,47,47,83,76,48,34,14,12,0.8,0.7
2026-03-12T2000,1136A,126.644,45.7261,哈尔滨市,动力和平路,细颗粒物(PM2.5),84,84,45,52,25,51,51,89,83,40,27,15,14,0.8,0.7
2026-03-12T2000,1137A,126.5933,45.7479,哈尔滨市,道里建国路,细颗粒物(PM2.5),74,71,40,47,24,68,68,86,84,35,37,13,11,0.5,0.5
2026-03-12T2000,1138A,126.6127,45.6119,哈尔滨市,平房东轻厂,细颗粒物(PM2.5),104,66,49,64,32,45,45,84,80,80,87,12,10,0.8,0.7
2026-03-12T2000,1139A,126.5875,45.9827,哈尔滨市,呼兰师专,,48,48,53,31,32,74,74,88,85,22,30,10,11,0.2,0.3
2026-03-12T2000,1140A,126.6299,45.6799,哈尔滨市,省农科院,细颗粒物(PM2.5),101,106,68,61,31,43,43,87,78,46,37,17,14,1.0,0.8
2026-03-12T2000,4282A,126.6769,45.7379,哈尔滨市,华山路1号,细颗粒物(PM2.5),103,85,48,63,31,73,73,95,92,29,25,6,12,0.8,0.6
2026-03-12T2000,4283A,126.9717,45.5356,哈尔滨市,解放大街52号,细颗粒物(PM2.5),60,54,46,40,25,67,67,107,93,32,27,13,12,0.9,0.9
2026-03-12T2000,2688A,93.5124,42.8176,哈密市,地区监测站,,46,46,196,12,19,77,77,78,74,7,3,4,4,0.3,0.1
2026-03-12T2000,2689A,93.5014,42.8312,哈密市,哈密师范学校,,37,37,158,10,16,84,84,84,83,9,5,5,6,0.3,0.3
2026-03-12T2000,2671A,100.9016,36.9464,海北藏族自治州,海晏县西海镇,颗粒物(PM10),198,345,59,95,30,98,98,114,114,6,6,11,10,0.5,0.5
2026-03-12T2000,3867A,102.074,36.5056,海东市,平安区公安局北苑,颗粒物(PM10),197,343,126,88,51,96,96,102,102,4,14,11,15,0.4,0.7
2026-03-12T2000,4163A,102.0984,36.5119,海东市,滨河路,颗粒物(PM10),276,403,148,94,52,71,71,82,82,22,35,8,13,0.6,0.6
2026-03-12T2000,1410A,110.3189,20.0596,海口市,海南大学,,49,32,30,21,21,156,156,142,142,9,10,6,6,0.5,0.5
2026-03-12T2000,1411A,110.2827,20.0051,海口市,秀英海南医院,NA,NA,34,29,21,22,137,137,127,127,NA,13,8,8,NA,0.5
2026-03-12T2000,1412A,110.3391,19.9979,海口市,海南师范大学,,46,40,33,24,24,145,145,137,137,12,11,6,6,0.2,0.2
2026-03-12T2000,1413A,110.3303,20.0359,海口市,龙华路环保局宿舍,,48,42,33,27,23,152,152,144,144,13,12,/,/,0.4,0.4
2026-03-12T2000,3539A,110.5111,19.9737,海口市,桂林洋子站,,45,38,31,24,22,144,144,134,134,10,11,/,/,/,/
2026-03-12T2000,4134A,110.1952,20.0451,海口市,长滨二路9号,,47,29,26,21,23,149,149,138,138,8,9,/,/,/,/
2026-03-12T2000,2673A,100.6158,36.2985,海南藏族自治州,共和县恰卜恰镇,颗粒物(PM10),397,497,89,186,37,89,89,96,96,4,12,12,13,0.2,0.3
2026-03-12T2000,2676A,97.373,37.376,海西蒙古族藏族自治州,德令哈市,颗粒物(PM10),500,1312,563,341,152,106,106,104,104,2,3,13,14,0.4,0.4
2026-03-12T2000,1049A,114.492,36.5712,邯郸市,矿院,细颗粒物(PM2.5),142,138,116,106,85,94,94,130,129,34,24,2,3,0.6,0.7
2026-03-12T2000,1050A,114.4839,36.6136,邯郸市,丛台公园,细颗粒物(PM2.5),146,116,133,110,113,101,101,128,128,23,24,1,2,0.7,0.9
2026-03-12T2000,3458A,114.7893,36.5592,邯郸市,香泉濮院小区,细颗粒物(PM2.5),141,141,119,105,84,96,96,115,115,28,22,3,3,0.9,0.8
2026-03-12T2000,3580A,114.1998,36.4439,邯郸市,峰峰矿区临水派出所,细颗粒物(PM2.5),120,100,92,81,65,135,135,152,151,10,11,1,9,0.5,0.8
2026-03-12T2000,4068A,114.5209,36.7697,邯郸市,建安街268号,细颗粒物(PM2.5),165,148,125,125,102,56,56,123,118,61,38,2,2,0.5,0.5
2026-03-12T2000,4069A,114.5488,36.6177,邯郸市,丛台东路558号,细颗粒物(PM2.5),148,119,118,112,111,100,100,127,127,18,29,3,3,0.7,0.7
2026-03-12T2000,2635A,107.0155,33.0707,汉中市,市监测站,细颗粒物(PM2.5),115,NA,67,76,57,94,94,100,99,13,22,7,6,0.7,0.7
2026-03-12T2000,2636A,107.0083,33.114,汉中市,鑫源开发区,细颗粒物(PM2.5),114,NA,60,75,53,101,101,108,106,13,26,4,5,0.8,0.8
2026-03-12T2000,2637A,107.0072,33.0323,汉中市,南郑大河坎水厂,细颗粒物(PM2.5),109,92,70,69,52,92,92,103,102,16,20,5,4,0.7,0.7
2026-03-12T2000,1223A,120.2073,30.2111,杭州市,滨江,,44,44,44,26,29,89,89,103,103,31,24,8,8,0.7,0.6
2026-03-12T2000,1224A,120.0625,30.2737,杭州市,西溪,,48,48,51,29,26,91,91,101,101,28,20,10,9,0.6,0.4
2026-03-12T2000,1226A,120.3417,30.315,杭州市,下沙,,47,47,46,29,28,74,74,99,98,39,26,9,8,0.7,0.5
2026-03-12T2000,1227A,120.1252,30.2465,杭州市,卧龙桥,,38,38,44,21,26,88,88,107,106,25,20,8,7,0.4,0.3
2026-03-12T2000,1228A,120.1902,30.2691,杭州市,浙江农大,,44,44,45,22,23,100,100,87,87,30,24,8,7,0.7,0.5
2026-03-12T2000,1230A,120.1195,30.3121,杭州市,和睦小学,,46,46,49,25,28,92,92,104,104,26,21,7,6,0.7,0.5
2026-03-12T2000,1231A,120.3076,30.4146,杭州市,临平镇,,44,44,43,30,27,91,91,109,109,32,24,8,7,0.7,0.5
2026-03-12T2000,1232A,120.2753,30.1839,杭州市,城厢镇,,50,50,56,28,27,84,84,103,102,27,19,9,9,0.7,0.6
2026-03-12T2000,1233A,120.0883,30.1808,杭州市,云栖,,39,39,43,21,23,80,80,107,106,38,26,4,4,0.7,0.5
2026-03-12T2000,3557A,119.9463,30.0496,杭州市,镇二中,,42,36,36,29,28,102,102,104,104,26,24,6,5,0.7,0.6
2026-03-12T2000,3558A,119.7184,30.2367,杭州市,市府大楼,,48,48,46,24,32,95,95,104,104,22,19,8,7,0.4,0.3
2026-03-12T2000,3656A,120.1554,30.2863,杭州市,消防大队,,42,38,42,29,29,95,95,104,104,26,20,8,8,0.7,0.5
2026-03-12T2000,1270A,117.1957,31.7845,合肥市,明珠广场,细颗粒物(PM2.5),64,66,86,42,70,103,103,121,121,27,39,7,8,0.7,1
2026-03-12T2000,1271A,117.307,31.8765,合肥市,三里街,"颗粒物(PM10),细颗粒物(PM2.5)",58,61,80,39,59,100,100,114,114,35,43,7,7,0.6,0.8
2026-03-12T2000,1272A,117.2587,31.8703,合肥市,琥珀山庄,颗粒物(PM10),58,61,78,38,63,113,113,123,123,30,41,7,8,0.5,0.7
2026-03-12T2000,1275A,117.2593,31.9376,合肥市,庐阳区,颗粒物(PM10),67,73,85,36,59,85,85,117,114,43,36,4,5,0.6,0.8
2026-03-12T2000,1276A,117.345251,31.861615,合肥市,瑶海区,颗粒物(PM10),78,88,84,40,55,80,80,121,118,58,40,5,7,0.8,0.8
2026-03-12T2000,1277A,117.3033,31.7967,合肥市,包河区,颗粒物(PM10),67,73,86,36,59,102,102,112,112,39,60,10,12,0.8,1
2026-03-12T2000,1278A,117.278,31.7392,合肥市,滨湖新区,"颗粒物(PM10),细颗粒物(PM2.5)",56,58,83,38,56,113,113,119,119,18,36,3,4,0.6,0.8
2026-03-12T2000,1279A,117.1324,31.8395,合肥市,高新区,颗粒物(PM10),56,58,84,28,63,100,100,118,117,10,25,4,5,0.6,0.9
2026-03-12T2000,3464A,117.3802,31.9148,合肥市,高教基地,颗粒物(PM10),62,66,69,34,44,98,98,128,126,32,31,7,9,0.5,0.7
2026-03-12T2000,4098A,117.2518,31.8404,合肥市,中国科学技术大学,颗粒物(PM10),63,68,83,33,59,114,114,133,132,27,30,6,9,0.6,0.9
2026-03-12T2000,3614A,79.9241,37.0878,和田地区,地区环保局,颗粒物(PM10),186,322,806,42,111,84,84,82,82,1,4,1,2,0.7,0.7
2026-03-12T2000,3615A,79.9132,37.1137,和田地区,市环保局,颗粒物(PM10),259,391,690,43,136,78,78,82,82,12,10,1,2,0.5,0.5
2026-03-12T2000,2517A,108.0496,24.6957,河池市,市环保站,,35,27,31,24,19,87,87,98,98,4,13,8,4,0.5,0.6
2026-03-12T2000,4302A,108.0901,24.6945,河池市,上任中路54号,,48,NA,41,33,21,75,75,88,88,20,19,10,6,0.4,0.5
2026-03-12T2000,1697A,114.6962,23.7538,河源市,东埔,,32,32,25,22,19,100,100,108,108,12,25,8,6,0.6,0.7
2026-03-12T2000,1698A,114.6895,23.7232,河源市,老城,,34,34,23,23,17,103,103,110,110,10,20,8,6,0.6,0.6
2026-03-12T2000,3374A,115.5562,35.089,菏泽市,定陶老年大学,细颗粒物(PM2.5),227,224,192,177,155,99,99,127,127,30,22,7,7,0.9,0.8
2026-03-12T2000,4114A,115.4239,35.2593,菏泽市,黄河路600号,细颗粒物(PM2.5),227,227,191,177,151,88,88,112,112,38,24,4,4,0.8,0.7
2026-03-12T2000,4115A,115.5025,35.2727,菏泽市,菏泽市人社局,细颗粒物(PM2.5),215,212,178,165,149,86,86,111,111,42,26,4,6,0.8,0.8
2026-03-12T2000,4184A,115.479691,35.244011,菏泽市,永昌路1号,细颗粒物(PM2.5),226,218,185,176,150,103,103,124,124,36,25,3,4,0.9,0.9
2026-03-12T2000,4193A,115.471542,35.280012,菏泽市,长城路999号,细颗粒物(PM2.5),223,217,178,173,147,108,108,122,122,30,25,3,5,0.7,0.7
2026-03-12T2000,2514A,111.5264,24.4178,贺州市,环保小区,,48,48,37,30,26,88,88,102,102,21,17,6,5,0.4,0.6
2026-03-12T2000,2515A,111.561,24.4074,贺州市,政协大楼,细颗粒物(PM2.5),60,53,35,40,25,87,87,109,109,32,31,7,6,0.5,0.5
2026-03-12T2000,3534A,111.4744,24.455,贺州市,西湾,,42,40,45,29,23,81,81,94,94,18,19,7,7,0.7,0.8
2026-03-12T2000,2385A,114.17,35.9019,鹤壁市,市监测站,细颗粒物(PM2.5),143,139,133,107,102,116,116,142,140,27,18,5,10,0.7,1.1
2026-03-12T2000,2386A,114.2953,35.7512,鹤壁市,市交警支队,细颗粒物(PM2.5),159,143,141,121,111,92,92,129,126,45,28,7,8,0.7,0.8
2026-03-12T2000,2387A,114.2877,35.7302,鹤壁市,迎宾馆,细颗粒物(PM2.5),148,184,147,112,107,NA,NA,136,136,34,27,4,10,0.8,0.9
2026-03-12T2000,3474A,114.2616,35.6824,鹤壁市,大新区,细颗粒物(PM2.5),162,NA,118,123,114,103,103,136,133,35,28,4,7,0.7,1
2026-03-12T2000,3596A,114.1573,35.9607,鹤壁市,南山宾馆,细颗粒物(PM2.5),143,127,137,107,105,110,110,140,137,34,25,5,9,0.6,1.1
2026-03-12T2000,2244A,130.2537,47.3416,鹤岗市,哈啤分公司,,34,34,26,19,11,75,75,86,82,13,8,10,9,0.3,0.3
2026-03-12T2000,2245A,130.2683,47.3087,鹤岗市,斯达机电,,28,28,27,15,12,78,78,89,86,12,9,8,7,0.4,0.4
2026-03-12T2000,2246A,130.3114,47.3388,鹤岗市,东山纸板厂,颗粒物(PM10),52,52,78,24,19,57,57,88,80,24,18,8,7,1.9,0.8
2026-03-12T2000,2263A,127.4832,50.2524,黑河市,交通局,,29,29,39,12,25,86,86,92,91,11,26,9,9,0.5,0.7
2026-03-12T2000,2264A,127.5146,50.2339,黑河市,环保局,,29,NA,33,14,30,90,90,65,65,12,26,9,14,0.4,0.6
2026-03-12T2000,1074A,115.6839,37.754,衡水市,电机北厂,细颗粒物(PM2.5),112,97,95,73,79,103,103,122,122,28,24,4,4,0.5,0.6
2026-03-12T2000,1075A,115.6303,37.7318,衡水市,市监测站,细颗粒物(PM2.5),101,88,88,61,72,102,102,117,117,25,23,6,5,0.5,0.5
2026-03-12T2000,3188A,115.6684,37.7216,衡水市,市城管局,细颗粒物(PM2.5),105,105,92,65,68,84,84,112,112,36,25,7,6,0.6,0.6
2026-03-12T2000,3459A,115.599,37.5491,衡水市,地表水厂,细颗粒物(PM2.5),112,106,85,73,72,60,60,116,112,70,23,8,5,0.6,0.5
2026-03-12T2000,2457A,112.6209,26.9268,衡阳市,衡阳化工总厂,细颗粒物(PM2.5),78,62,52,49,34,114,114,126,126,16,23,8,7,1.0,1
2026-03-12T2000,2458A,112.621,26.8957,衡阳市,珠晖区环保局,细颗粒物(PM2.5),60,54,56,40,33,104,104,118,118,24,37,6,6,0.9,0.9
2026-03-12T2000,2459A,112.628,26.8654,衡阳市,市委党校,细颗粒物(PM2.5),68,48,55,44,39,124,124,128,128,10,25,7,8,0.9,1.1
2026-03-12T2000,2460A,112.6007,26.8977,衡阳市,市监测站,NA,NA,87,77,59,43,NA,NA,123,123,38,37,12,9,0.6,0.9
2026-03-12T2000,2461A,112.5658,26.9013,衡阳市,真空机电公司,细颗粒物(PM2.5),64,62,54,42,36,122,122,127,127,16,30,7,8,0.9,1.1
2026-03-12T2000,3399A,112.6703,26.8817,衡阳市,师范学院,颗粒物(PM10),54,55,52,35,32,126,126,130,130,10,19,5,6,0.9,1
2026-03-12T2000,3038A,103.3757,23.3679,红河哈尼族彝族自治州,州图书馆,,36,35,29,25,23,64,64,68,68,8,6,4,4,0.6,0.6
2026-03-12T2000,4154A,103.401,23.3561,红河哈尼族彝族自治州,蒙自市朝阳路,细颗粒物(PM2.5),58,43,25,39,25,72,72,73,73,8,6,8,7,0.5,0.5
2026-03-12T2000,1090A,111.6506,40.7517,呼和浩特市,呼市一监,颗粒物(PM10),116,161,75,73,30,89,89,115,113,30,31,11,9,0.7,0.6
2026-03-12T2000,1094A,111.7516,40.8369,呼和浩特市,如意水处理厂,颗粒物(PM10),102,124,63,48,29,118,118,123,123,23,42,11,11,0.5,0.5
2026-03-12T2000,1095A,111.727798,40.806187,呼和浩特市,二十九中,颗粒物(PM10),101,121,62,54,23,105,105,111,111,22,29,15,13,0.6,0.6
2026-03-12T2000,1097A,111.717,40.7617,呼和浩特市,化肥厂生活区,细颗粒物(PM2.5),147,187,74,111,36,85,85,113,111,51,31,14,9,0.8,0.6
2026-03-12T2000,3699A,111.6519,40.8389,呼和浩特市,海东办,颗粒物(PM10),101,122,68,54,32,109,109,112,112,23,47,8,6,0.7,0.6
2026-03-12T2000,4275A,111.591512,40.827312,呼和浩特市,成吉思汗西街8号,颗粒物(PM10),109,141,68,64,29,99,99,110,110,29,30,21,9,0.7,0.5
2026-03-12T2000,4276A,111.6597,40.8077,呼和浩特市,公园东路75号,颗粒物(PM10),106,134,79,57,36,112,112,107,107,19,39,11,10,0.6,0.7
2026-03-12T2000,4277A,111.5427,40.7846,呼和浩特市,金海路35号,细颗粒物(PM2.5),110,125,65,70,35,89,89,106,105,29,28,37,11,0.7,0.4
2026-03-12T2000,3061A,119.7511,49.1576,呼伦贝尔市,国华电力东,,36,36,32,14,14,93,93,98,98,14,14,6,5,0.3,0.2
2026-03-12T2000,4279A,119.7569,49.2222,呼伦贝尔市,伊敏大街东7号,NA,NA,NA,26,NA,12,NA,NA,102,102,12,9,7,6,0.3,0.3
2026-03-12T2000,1250A,120.075,30.867,湖州市,城西水厂,细颗粒物(PM2.5),56,57,45,38,32,114,114,116,116,30,32,6,7,0.4,0.4
2026-03-12T2000,2873A,120.083,30.8929,湖州市,仁皇山新区,细颗粒物(PM2.5),54,45,44,37,31,95,95,110,109,28,27,6,6,0.6,0.5
2026-03-12T2000,2907A,120.1846,30.8592,湖州市,吴兴区站,细颗粒物(PM2.5),68,63,50,44,31,69,69,86,85,69,23,6,6,0.5,0.4
2026-03-12T2000,3562A,120.4146,30.8538,湖州市,南浔区站,细颗粒物(PM2.5),62,65,41,41,28,84,84,97,95,33,24,10,9,1.0,0.6
2026-03-12T2000,1607A,120.904878,40.721091,葫芦岛市,龙港区,细颗粒物(PM2.5),66,56,84,43,50,86,86,102,101,25,46,12,24,0.8,0.8
2026-03-12T2000,1608A,120.8382,40.7521,葫芦岛市,化工街,细颗粒物(PM2.5),82,85,86,51,54,52,52,97,90,61,48,16,48,0.6,0.6
2026-03-12T2000,1609A,120.8339,40.7078,葫芦岛市,新区,细颗粒物(PM2.5),84,56,63,52,44,60,60,95,91,48,42,16,17,0.6,0.6
2026-03-12T2000,1610A,120.8697,40.7679,葫芦岛市,东城区,细颗粒物(PM2.5),90,NA,68,55,49,60,60,96,92,55,44,14,24,0.8,0.7
2026-03-12T2000,2483A,109.9297,27.5383,怀化市,河西地税局,细颗粒物(PM2.5),76,65,45,48,37,111,111,116,116,14,14,4,3,/,/
2026-03-12T2000,2484A,109.9783,27.5342,怀化市,市四医院,颗粒物(PM10),62,66,50,30,20,111,111,115,115,11,16,7,8,0.5,0.5
2026-03-12T2000,2485A,109.9971,27.5579,怀化市,监测楼,细颗粒物(PM2.5),74,54,51,47,36,108,108,116,116,9,15,4,4,0.4,0.4
2026-03-12T2000,1210A,119.0566,33.5991,淮安市,钵池山,细颗粒物(PM2.5),125,105,67,87,58,86,86,105,104,29,33,8,8,0.4,0.4
2026-03-12T2000,1211A,119.0083,33.578,淮安市,北京南路,细颗粒物(PM2.5),128,102,64,90,55,85,85,97,96,22,30,7,7,0.6,0.5
2026-03-12T2000,1212A,118.9938,33.6083,淮安市,市监测站,细颗粒物(PM2.5),132,97,58,95,58,92,92,102,102,22,28,4,5,0.7,0.6
2026-03-12T2000,1213A,119.135,33.5038,淮安市,楚州区监测站,NA,NA,NA,65,NA,53,NA,NA,106,106,32,34,6,6,0.5,0.2
2026-03-12T2000,3426A,118.8757,33.2897,淮安市,新华书店,细颗粒物(PM2.5),124,98,67,86,54,79,79,96,94,29,37,6,8,0.5,0.4
2026-03-12T2000,4092A,119.119691,33.550006,淮安市,枚皋中路89号,细颗粒物(PM2.5),129,110,69,91,53,77,77,100,98,29,35,9,9,0.4,0.4
2026-03-12T2000,4206A,119.028838,33.631911,淮安市,承德北路606号,细颗粒物(PM2.5),133,136,85,96,58,73,73,96,92,34,36,7,7,0.6,0.5
2026-03-12T2000,2282A,116.8005,33.9749,淮北市,监测站,细颗粒物(PM2.5),198,180,129,148,97,123,123,137,137,26,27,6,7,1.0,0.8
2026-03-12T2000,2283A,116.8094,33.9008,淮北市,烈山区政府,细颗粒物(PM2.5),195,183,115,146,94,120,120,136,136,23,23,5,5,0.7,0.5
2026-03-12T2000,4017A,116.7926,33.9534,淮北市,市博物馆,细颗粒物(PM2.5),204,187,129,154,105,118,118,131,131,23,26,3,4,0.9,0.7
2026-03-12T2000,4100A,116.8322,33.9884,淮北市,杜集区第一实验学校,细颗粒物(PM2.5),213,210,133,163,102,118,118,133,133,23,26,5,7,0.9,0.7
2026-03-12T2000,2277A,116.8304,32.7726,淮南市,潘集区政府,细颗粒物(PM2.5),116,111,101,77,72,79,79,115,112,31,34,6,7,0.5,0.6
2026-03-12T2000,2279A,116.8569,32.5949,淮南市,谢家集区政府,细颗粒物(PM2.5),103,109,94,63,74,88,88,115,114,36,37,8,9,0.6,0.7
2026-03-12T2000,2280A,116.8279,32.6333,淮南市,八公山区政府,细颗粒物(PM2.5),110,89,94,70,76,98,98,118,116,23,28,5,9,0.6,0.7
2026-03-12T2000,2894A,117.0561,32.6536,淮南市,经济技术开发区消防队,细颗粒物(PM2.5),98,88,103,59,70,90,90,112,110,37,39,8,8,0.7,0.6
2026-03-12T2000,3329A,117.011,32.5891,淮南市,山南新区,细颗粒物(PM2.5),100,87,89,60,63,112,112,123,123,26,27,7,8,0.6,0.6
2026-03-12T2000,4209A,117.003137,32.644456,淮南市,国庆中路369号,细颗粒物(PM2.5),107,98,93,67,72,94,94,106,105,22,32,7,7,0.7,0.7
2026-03-12T2000,2446A,114.9021,30.474,黄冈市,职工中心,NA,NA,NA,55,NA,47,122,122,129,128,13,12,NA,6,0.9,0.9
2026-03-12T2000,2929A,114.8858,30.4519,黄冈市,红卫路,细颗粒物(PM2.5),76,55,60,48,45,132,132,139,139,10,9,9,4,0.5,0.5
2026-03-12T2000,3398A,114.9134,30.4446,黄冈市,市林业局,细颗粒物(PM2.5),72,67,60,46,44,128,128,132,132,10,8,4,4,0.4,0.5
2026-03-12T2000,2672A,102.02,35.5101,黄南藏族自治州,同仁县隆务镇,颗粒物(PM10),170,289,56,97,25,87,87,93,93,8,4,12,10,0.6,0.4
2026-03-12T2000,2295A,118.2905,29.6965,黄山市,延安路89号,,40,40,38,25,26,119,119,122,122,10,11,5,5,0.4,0.5
2026-03-12T2000,2297A,118.1369,30.2755,黄山市,黄山区政府5号楼,颗粒物(PM10),51,51,36,26,22,91,91,112,112,17,10,4,3,0.4,0.4
2026-03-12T2000,4210A,118.335445,29.720283,黄山市,滨江东路7-2号,颗粒物(PM10),51,51,50,26,28,114,114,123,123,12,10,/,/,/,/
2026-03-12T2000,2423A,115.0547,30.2332,黄石市,沈家营,细颗粒物(PM2.5),72,71,67,46,42,125,125,130,130,6,17,6,7,0.6,0.8
2026-03-12T2000,2426A,114.899,30.211,黄石市,铁山,细颗粒物(PM2.5),72,51,49,46,38,115,115,130,130,13,13,8,9,0.5,0.7
2026-03-12T2000,2427A,115.0259,30.2108,黄石市,团城山,细颗粒物(PM2.5),66,54,51,43,37,108,108,112,112,23,24,6,7,0.5,0.7
2026-03-12T2000,3149A,115.0174,30.1591,黄石市,笔架山北路,颗粒物(PM10),67,73,61,43,34,124,124,134,134,13,13,8,9,0.7,0.8
2026-03-12T2000,4185A,115.078022,30.21118,黄石市,磁湖东路29号,细颗粒物(PM2.5),72,56,55,46,40,128,128,129,129,10,21,7,10,0.9,1
2026-03-12T2000,1392A,114.4181,23.0528,惠州市,河南岸金山湖子站,颗粒物(PM10),52,52,40,27,24,135,135,109,109,19,17,8,8,0.7,0.7
2026-03-12T2000,1393A,114.4055,23.0824,惠州市,下埔横江三路子站,颗粒物(PM10),57,59,43,29,24,125,125,116,116,24,16,9,10,0.7,0.7
2026-03-12T2000,1395A,114.4645,22.7832,惠州市,惠阳区承修路船湖子站,,46,38,43,17,25,145,145,142,142,12,22,8,7,0.5,0.6
2026-03-12T2000,1396A,114.5316,22.7423,惠州市,大亚湾管委会子站,,43,36,40,14,24,137,137,147,147,9,25,4,4,0.5,0.6
2026-03-12T2000,3314A,114.4334,22.8134,惠州市,惠阳秋长,臭氧1小时(O3_1h),55,53,42,19,24,164,164,156,156,14,23,/,/,/,/
2026-03-12T2000,3452A,114.6521,22.7755,惠州市,大亚湾霞涌,,48,48,33,23,20,146,146,161,161,10,13,/,/,/,/
2026-03-12T2000,4300A,114.4089,23.1147,惠州市,文华一路1号,,46,46,35,27,23,122,122,114,114,22,18,/,/,/,/
2026-03-12T2000,2240A,130.9618,45.2926,鸡西市,环保局,细颗粒物(PM2.5),137,NA,43,100,30,40,40,90,80,43,17,15,8,0.9,0.4
2026-03-12T2000,2243A,130.9294,45.2959,鸡西市,第一中学,细颗粒物(PM2.5),88,68,35,54,26,62,62,92,85,27,11,8,5,0.5,0.4
2026-03-12T2000,3707A,131.0069,45.2988,鸡西市,欧美日汽修厂,细颗粒物(PM2.5),170,175,57,129,38,34,34,91,82,43,24,19,11,1.0,0.5
2026-03-12T2000,2367A,114.9753,27.0803,吉安市,红声器材厂,NA,NA,48,63,24,33,108,108,123,123,14,30,NA,5,0.6,0.7
2026-03-12T2000,2369A,114.9903,27.1313,吉安市,市环境监测站,,42,42,52,23,34,113,113,128,128,17,24,9,8,/,/
2026-03-12T2000,2370A,115.009527,27.096792,吉安市,青原区法院,,47,47,60,25,30,115,115,135,135,19,36,7,5,0.6,0.6
2026-03-12T2000,1772A,126.54,43.8622,吉林市,哈达湾,细颗粒物(PM2.5),96,73,83,58,65,95,95,104,103,21,36,7,18,0.5,1
2026-03-12T2000,1773A,126.5843,43.8358,吉林市,东局子,细颗粒物(PM2.5),117,78,80,78,80,81,81,105,102,26,29,6,6,0.9,0.9
2026-03-12T2000,1774A,126.5051,43.8243,吉林市,电力学院,细颗粒物(PM2.5),131,142,91,94,68,63,63,113,106,46,31,14,17,1.4,1.1
2026-03-12T2000,1775A,126.6133,43.8971,吉林市,江北,细颗粒物(PM2.5),118,110,90,79,74,85,85,104,101,26,24,8,7,1.6,1
2026-03-12T2000,1776A,126.5549,43.8304,吉林市,江南公园,细颗粒物(PM2.5),94,76,78,57,60,77,77,101,98,32,32,9,11,0.8,0.8
2026-03-12T2000,2868A,126.4737,43.953,吉林市,九站,细颗粒物(PM2.5),104,82,97,64,74,74,74,99,97,38,39,10,39,0.7,0.9
2026-03-12T2000,1299A,116.9866,36.6118,济南市,科干所,颗粒物(PM10),67,73,118,39,88,112,112,127,127,22,31,7,6,0.5,0.7
2026-03-12T2000,1300A,116.9379,36.6652,济南市,农科所,细颗粒物(PM2.5),90,100,126,55,94,84,84,120,118,47,36,11,6,0.8,0.7
2026-03-12T2000,1301A,117.1265,36.6736,济南市,开发区,颗粒物(PM10),73,81,123,40,92,101,101,134,131,34,33,5,4,0.6,0.7
2026-03-12T2000,1303A,117.0616,36.6865,济南市,省种子仓库,颗粒物(PM10),91,107,132,46,88,91,91,128,126,42,32,7,5,0.7,0.7
2026-03-12T2000,1304A,116.9495185,36.644937,济南市,机床二厂,颗粒物(PM10),85,98,130,48,97,102,102,126,125,36,33,7,5,0.7,0.7
2026-03-12T2000,1305A,117.0496,36.6629,济南市,市监测站,颗粒物(PM10),79,90,131,44,91,97,97,128,126,34,32,5,4,0.6,0.6
2026-03-12T2000,1306A,116.7674,36.5458,济南市,长清党校,颗粒物(PM10),90,105,133,51,93,111,111,126,126,38,33,7,4,0.8,0.7
2026-03-12T2000,1961A,117.5323,36.6865,济南市,东山小学,颗粒物(PM10),81,93,132,25,86,76,76,129,122,41,28,8,4,0.6,0.7
2026-03-12T2000,3059A,117.7181,36.205,济南市,泰兴公司,颗粒物(PM10),67,73,127,34,95,101,101,130,128,34,26,8,7,0.6,0.7
2026-03-12T2000,3064A,117.6861,36.2172,济南市,莱芜战役纪念馆,颗粒物(PM10),75,85,131,37,95,111,111,141,139,32,28,7,6,0.5,0.5
2026-03-12T2000,3494A,117.1673,36.9782,济南市,济阳区政府,颗粒物(PM10),62,66,106,29,78,95,95,123,121,20,18,12,7,0.5,0.6
2026-03-12T2000,3495A,117.1168,36.6299,济南市,锦屏中学,颗粒物(PM10),73,81,119,39,92,105,105,134,132,23,24,9,8,0.4,0.5
2026-03-12T2000,4108A,117.7107,36.2385,济南市,山财大街5号,颗粒物(PM10),72,80,120,39,93,81,81,122,119,56,35,13,10,0.6,0.7
2026-03-12T2000,4109A,116.9744,36.6889,济南市,无影山路12号,颗粒物(PM10),88,102,117,50,90,83,83,117,115,39,31,10,6,0.8,0.7
2026-03-12T2000,1653A,116.6229,35.4288,济宁市,火炬城,细颗粒物(PM2.5),115,NA,142,76,120,118,118,140,138,20,24,3,4,0.6,0.8
2026-03-12T2000,3500A,116.5808,35.3703,济宁市,北湖一中,细颗粒物(PM2.5),122,102,138,84,125,121,121,143,142,25,24,5,5,0.6,0.8
2026-03-12T2000,3501A,116.8251,35.5592,济宁市,服务中心,,46,46,172,28,116,69,69,132,120,49,29,3,4,0.2,0.6
2026-03-12T2000,3678A,116.5907,35.4054,济宁市,市第七中学,细颗粒物(PM2.5),131,113,133,94,126,130,130,150,150,30,26,2,4,0.8,0.9
2026-03-12T2000,4111A,116.6075,35.4566,济宁市,任和路,细颗粒物(PM2.5),120,85,167,82,121,NA,NA,141,141,28,28,5,5,0.6,0.8
2026-03-12T2000,4112A,116.5648,35.3921,济宁市,文体南路1号,细颗粒物(PM2.5),123,145,175,85,129,111,111,150,146,42,26,3,3,0.6,0.8
2026-03-12T2000,4122A,112.6071,35.1015,济源市,市委党校,细颗粒物(PM2.5),146,177,134,110,75,120,120,136,136,29,28,6,9,0.7,0.6
2026-03-12T2000,4123A,112.596,35.0702,济源市,沁园中路1号,细颗粒物(PM2.5),143,146,122,107,81,121,121,146,145,33,29,4,6,0.7,0.8
2026-03-12T2000,2255A,130.2749,46.8028,佳木斯市,佳纺,,39,39,84,26,36,58,58,86,78,26,35,7,6,0.5,0.6
2026-03-12T2000,2257A,130.3258,46.7975,佳木斯市,环保局,,42,34,48,29,27,57,57,84,79,24,27,5,3,0.4,0.5
2026-03-12T2000,4285A,130.363,46.806,佳木斯市,顺和街,,36,34,40,25,25,52,52,81,76,21,30,4,4,0.3,0.4
2026-03-12T2000,4286A,130.3952,46.8268,佳木斯市,长安路196号,,48,48,37,22,19,61,61,86,78,13,20,5,4,0.4,0.4
2026-03-12T2000,1252A,120.7439,30.778,嘉兴市,清河小学,细颗粒物(PM2.5),88,76,39,54,18,111,111,107,107,30,23,7,7,0.3,0.3
2026-03-12T2000,1253A,120.7261,30.7477,嘉兴市,嘉兴学院,细颗粒物(PM2.5),68,70,37,44,23,122,122,113,113,22,22,6,6,0.5,0.4
2026-03-12T2000,2872A,120.7845,30.7524,嘉兴市,南湖区残联,细颗粒物(PM2.5),80,80,39,50,24,96,96,104,104,35,22,4,5,0.6,0.5
2026-03-12T2000,3407A,120.6915,30.7741,嘉兴市,秀洲住建,细颗粒物(PM2.5),78,86,42,49,21,104,104,109,109,31,29,8,8,0.8,0.5
2026-03-12T2000,1945A,98.291,39.7705,嘉峪关市,气象局,颗粒物(PM10),405,505,490,98,74,82,82,82,82,6,18,7,34,0.3,1
2026-03-12T2000,2884A,98.2672,39.7978,嘉峪关市,酒钢宾馆,颗粒物(PM10),358,466,588,116,86,76,76,86,85,19,19,58,52,1.1,0.9
2026-03-12T2000,3248A,98.2644,39.7723,嘉峪关市,雄关区,颗粒物(PM10),305,424,384,100,71,72,72,81,80,14,18,3,24,0.9,0.7
2026-03-12T2000,1383A,113.1063,22.6058,江门市,北街,,42,36,49,16,33,134,134,154,154,28,42,/,/,/,/
2026-03-12T2000,1384A,113.073,22.5835,江门市,西区,,44,44,54,23,34,107,107,150,150,45,42,/,/,/,/
2026-03-12T2000,1385A,113.0218,22.531,江门市,圭峰西,,43,24,48,23,31,137,137,148,148,22,26,/,/,/,/
2026-03-12T2000,1386A,113.0826,22.5947,江门市,东湖,,41,32,48,18,34,130,130,150,150,22,35,7,8,0.6,0.6
2026-03-12T2000,3311A,113.1077,22.5647,江门市,江海富民,,50,50,64,29,35,121,121,167,167,50,40,/,/,0.7,0.5
2026-03-12T2000,3449A,113.0496,22.4669,江门市,新会银湖,细颗粒物(PM2.5),68,67,51,44,36,154,154,175,175,31,42,9,10,0.5,0.5
2026-03-12T2000,3335A,113.3137,35.2643,焦作市,马村街道办,细颗粒物(PM2.5),169,160,103,128,74,117,117,128,128,28,23,6,8,0.7,0.7
2026-03-12T2000,3336A,113.2464,35.2374,焦作市,焦作技师学院,细颗粒物(PM2.5),159,154,100,121,71,124,124,132,132,21,21,7,8,0.7,0.7
2026-03-12T2000,3477A,113.1656,35.2536,焦作市,中站许衡医院,细颗粒物(PM2.5),141,150,92,105,66,128,128,137,137,26,22,7,10,0.7,0.7
2026-03-12T2000,3981A,113.2456,35.18,焦作市,原李万街道办,细颗粒物(PM2.5),169,156,102,128,75,118,118,132,132,23,19,9,11,0.7,0.7
2026-03-12T2000,4264A,113.234,35.219,焦作市,新安路1731号,细颗粒物(PM2.5),152,149,98,116,73,136,136,141,141,23,24,7,10,0.6,0.7
2026-03-12T2000,4295A,113.2722,35.2121,焦作市,人民路3066号,细颗粒物(PM2.5),169,163,104,128,70,125,125,138,138,24,27,6,10,0.6,0.7
2026-03-12T2000,1708A,116.3701,23.5345,揭阳市,新兴,颗粒物(PM10),55,56,59,19,36,108,108,140,137,22,29,12,12,0.6,0.7
2026-03-12T2000,1709A,116.3261,23.5442,揭阳市,西马,颗粒物(PM10),55,57,63,17,34,112,112,146,144,16,24,8,8,0.5,0.6
2026-03-12T2000,1710A,116.361,23.5627,揭阳市,东兴,,40,40,61,21,42,119,119,150,148,14,25,6,12,/,/
2026-03-12T2000,1711A,116.4151,23.5295,揭阳市,渔湖,,44,44,64,17,38,133,133,171,168,22,35,7,12,/,/
2026-03-12T2000,3320A,116.4028,23.5699,揭阳市,曲溪,颗粒物(PM10),58,61,61,17,33,129,129,171,168,16,23,16,13,0.6,0.7
2026-03-12T2000,1944A,102.1691,38.5166,金昌市,天庆家园,颗粒物(PM10),500,1138,812,176,171,87,87,94,92,2,5,3,5,0.4,0.5
2026-03-12T2000,4022A,102.1648,38.5369,金昌市,金川区人防中心,颗粒物(PM10),500,998,989,195,176,83,83,92,87,3,5,6,7,0.4,0.5
2026-03-12T2000,4239A,102.193042,38.531887,金昌市,长春路96号,颗粒物(PM10),500,1096,768,174,162,76,76,90,80,8,12,5,6,0.4,0.4
2026-03-12T2000,1262A,119.6478,29.0773,金华市,十五中,,46,46,53,26,30,109,109,138,133,24,15,4,4,0.0,0.2
2026-03-12T2000,1263A,119.6859,29.1032,金华市,监测站,颗粒物(PM10),51,51,54,26,30,78,78,109,104,34,22,4,5,0.3,0.4
2026-03-12T2000,3659A,119.656,29.1132,金华市,气象局,颗粒物(PM10),53,54,56,31,33,82,82,120,114,42,29,4,4,0.5,0.5
2026-03-12T2000,1767A,121.1114,41.0879,锦州市,南山,细颗粒物(PM2.5),74,53,57,47,41,53,53,100,94,60,31,10,11,0.6,0.7
2026-03-12T2000,1768A,121.060361,40.842794,锦州市,开发区,颗粒物(PM10),117,164,79,45,44,27,27,99,82,85,35,18,19,0.6,0.7
2026-03-12T2000,1769A,121.1836,41.1118,锦州市,百股街道,细颗粒物(PM2.5),111,NA,65,72,50,44,44,100,93,65,28,11,14,0.8,0.9
2026-03-12T2000,1770A,121.1176,41.1224,锦州市,天安街道,细颗粒物(PM2.5),76,65,59,48,41,70,70,100,97,42,35,7,11,0.6,0.8
2026-03-12T2000,1771A,121.1303,41.1385,锦州市,北湖公园,细颗粒物(PM2.5),72,55,56,46,42,73,73,104,101,36,22,7,10,0.7,0.7
2026-03-12T2000,2160A,112.8496,35.5051,晋城市,自来水公司,颗粒物(PM10),71,79,82,41,37,127,127,130,130,15,20,4,5,0.2,0.3
2026-03-12T2000,2162A,112.8509,35.4886,晋城市,市环保局,细颗粒物(PM2.5),103,NA,66,63,40,123,123,133,133,18,19,5,6,0.4,0.5
2026-03-12T2000,3620A,112.8258,35.4804,晋城市,泽州一中,细颗粒物(PM2.5),98,72,73,59,43,127,127,134,134,18,18,4,4,0.2,0.4
2026-03-12T2000,4078A,112.8246,35.5152,晋城市,前书院路,颗粒物(PM10),65,71,79,42,36,122,122,117,117,13,19,5,5,0.4,0.7
2026-03-12T2000,4079A,112.8864,35.4773,晋城市,祥云街666号,细颗粒物(PM2.5),96,70,64,58,43,126,126,121,121,20,24,6,5,0.4,0.5
2026-03-12T2000,2174A,112.6992,37.6984,晋中市,榆次区政府,细颗粒物(PM2.5),101,100,65,61,36,100,100,111,111,25,23,12,10,0.6,0.5
2026-03-12T2000,2865A,112.7195,37.683,晋中市,榆次三中,细颗粒物(PM2.5),119,127,69,80,36,99,99,115,114,25,18,12,11,0.5,0.4
2026-03-12T2000,4080A,112.7375,37.7215,晋中市,广安街188号,细颗粒物(PM2.5),130,162,65,93,35,97,97,113,112,27,18,13,11,0.5,0.3
2026-03-12T2000,4200A,112.7478,37.6954,晋中市,迎宾街26号,细颗粒物(PM2.5),113,132,68,74,38,NA,NA,119,119,25,21,11,10,0.7,0.3
2026-03-12T2000,2439A,112.2012,31.048,荆门市,竹园小学,颗粒物(PM10),109,143,142,NA,102,NA,NA,140,140,NA,18,1,1,1.0,0.9
2026-03-12T2000,2440A,112.1968,30.9892,荆门市,掇刀,细颗粒物(PM2.5),123,93,129,85,101,131,131,148,148,23,15,7,6,0.6,0.7
2026-03-12T2000,3012A,112.1849,31.0361,荆门市,西山林语,细颗粒物(PM2.5),105,103,132,65,93,99,99,140,136,22,15,4,5,0.7,0.8
2026-03-12T2000,3547A,112.1631,31.0134,荆门市,龙泉中学南校,细颗粒物(PM2.5),120,119,136,82,98,127,127,147,146,24,14,6,5,0.9,0.9
2026-03-12T2000,4124A,112.2213,31.0654,荆门市,新台西路6号,细颗粒物(PM2.5),144,137,139,108,108,101,101,134,132,47,22,9,6,0.6,0.6
2026-03-12T2000,1844A,112.2493,30.3198,荆州市,市图书馆,NA,NA,NA,79,NA,80,105,105,133,130,NA,18,7,7,1.0,0.9
2026-03-12T2000,1845A,112.2009,30.3543,荆州市,市委党校,细颗粒物(PM2.5),96,67,103,58,96,107,107,120,120,27,21,7,8,0.7,0.8
2026-03-12T2000,3194A,112.2749,30.3124,荆州市,管委会,细颗粒物(PM2.5),104,69,86,64,84,98,98,127,124,17,14,9,10,0.8,0.8
2026-03-12T2000,4268A,112.1722,30.3366,荆州市,学苑路85号,细颗粒物(PM2.5),103,73,114,63,90,126,126,145,144,12,12,1,1,0.7,0.7
2026-03-12T2000,2343A,117.2114,29.2931,景德镇市,老干部活动中心,,31,28,39,21,33,97,97,110,107,7,12,5,6,0.5,0.7
2026-03-12T2000,2344A,117.1893,29.2789,景德镇市,兽医站,,43,43,52,16,31,108,108,117,115,8,18,5,4,0.7,0.7
2026-03-12T2000,2346A,117.246,29.2958,景德镇市,陶研所,,32,22,35,17,28,100,100,113,111,10,15,4,4,0.5,0.6
2026-03-12T2000,4289A,117.154766,29.256967,景德镇市,青少年活动中心,,29,26,49,17,31,92,92,110,106,14,23,3,13,/,/
2026-03-12T2000,1803A,115.9873,29.6816,九江市,十里,颗粒物(PM10),55,57,52,34,38,120,120,128,128,32,22,6,6,0.6,0.7
2026-03-12T2000,1804A,115.9583,29.7047,九江市,茅山头,细颗粒物(PM2.5),56,56,54,38,40,126,126,129,129,18,17,3,4,0.7,0.6
2026-03-12T2000,1805A,115.9877,29.7295,九江市,西园,"颗粒物(PM10),细颗粒物(PM2.5)",52,52,53,36,37,127,127,129,129,32,31,3,3,0.6,0.6
2026-03-12T2000,1808A,115.9112,29.6038,九江市,综合工业园,,46,46,52,30,34,126,126,128,128,20,24,7,7,0.6,0.7
2026-03-12T2000,3190A,116.0254,29.6995,九江市,外国语学校,细颗粒物(PM2.5),56,50,51,38,39,115,115,122,122,22,18,2,5,0.6,0.7
2026-03-12T2000,4253A,116.010205,29.659402,九江市,莲花大道8号,,48,48,52,29,35,117,117,120,120,18,17,6,6,0.4,0.5
2026-03-12T2000,4240A,98.495752,39.733935,酒泉市,玉门东路5号,颗粒物(PM10),388,490,624,110,95,80,80,82,82,2,3,4,5,0.3,0.2
2026-03-12T2000,4241A,98.5099,39.7506,酒泉市,北大街108号,颗粒物(PM10),379,483,713,106,103,76,76,78,78,4,4,6,7,0.2,0.2
2026-03-12T2000,2698A,76.0071,39.466,喀什地区,巡警大队,颗粒物(PM10),500,670,179,124,36,87,87,88,88,5,21,3,4,0.2,0.3
2026-03-12T2000,2699A,75.9756,39.4693,喀什地区,吾办,颗粒物(PM10),500,692,181,118,42,84,84,86,86,2,12,4,3,0.2,0.3
2026-03-12T2000,4027A,75.9485,39.4688,喀什地区,老干局,颗粒物(PM10),500,712,178,113,32,87,87,90,90,2,14,2,2,0.3,0.5
2026-03-12T2000,1824A,114.3389,34.778,开封市,肿瘤医院,细颗粒物(PM2.5),207,170,146,157,134,112,112,147,147,38,26,13,9,1.2,1.1
2026-03-12T2000,1826A,114.2884,34.7966,开封市,世纪星幼儿园,细颗粒物(PM2.5),212,NA,133,162,125,113,113,135,135,34,25,9,10,1.0,1
2026-03-12T2000,3147A,114.3434,34.8101,开封市,龙亭公园,细颗粒物(PM2.5),209,185,155,159,129,112,112,147,147,42,30,9,10,1.0,1
2026-03-12T2000,3210A,114.3645,34.7955,开封市,汴京公园,NA,NA,NA,149,NA,146,NA,NA,138,NA,NA,28,NA,6,NA,0.8
2026-03-12T2000,3473A,114.2485,34.8306,开封市,技师学院,细颗粒物(PM2.5),214,NA,139,164,134,109,109,143,142,46,28,10,10,1.2,1.1
2026-03-12T2000,3592A,114.4518,34.7503,开封市,祥符区生态环境局,细颗粒物(PM2.5),236,218,197,186,146,71,71,141,136,78,38,6,9,0.8,1
2026-03-12T2000,1951A,84.886,45.6029,克拉玛依市,长征新村,颗粒物(PM10),60,63,33,6,8,84,84,87,81,3,4,3,4,0.2,0.2
2026-03-12T2000,1952A,84.8894,45.5827,克拉玛依市,南林小区,颗粒物(PM10),56,58,35,8,3,86,86,88,83,1,1,5,6,0.4,0.4
2026-03-12T2000,1954A,84.896,44.3328,克拉玛依市,独山子区,颗粒物(PM10),57,59,73,17,21,100,100,96,96,11,10,6,5,0.5,0.4
2026-03-12T2000,1955A,85.6888,46.0909,克拉玛依市,乌尔禾区商贸楼,,30,30,50,20,18,84,84,82,82,5,5,8,7,0.4,0.4
2026-03-12T2000,3612A,85.1045,45.6895,克拉玛依市,白碱滩区新站,颗粒物(PM10),59,62,35,18,8,84,84,96,84,1,3,8,9,0.4,0.3
2026-03-12T2000,2697A,76.1457,39.7143,克孜勒苏柯尔克孜自治州,市人民政府,颗粒物(PM10),500,759,251,97,43,85,85,91,88,9,3,3,3,0.2,0.2
2026-03-12T2000,3665A,76.1654,39.7157,克孜勒苏柯尔克孜自治州,克州文化中心,颗粒物(PM10),449,549,198,96,40,85,85,92,87,6,3,4,4,0.2,0.2
2026-03-12T2000,1450A,102.8203,24.889,昆明市,呈贡新区,,43,38,38,30,35,74,74,82,82,14,12,1,4,0.7,0.8
2026-03-12T2000,1452A,102.7253,25.0904,昆明市,龙泉镇,颗粒物(PM10),55,57,51,33,42,65,65,80,80,19,13,7,3,0.7,0.7
2026-03-12T2000,1453A,102.7267,25.0378,昆明市,东风东路,,48,48,60,26,40,64,64,82,82,23,19,2,2,0.8,0.7
2026-03-12T2000,1454A,102.6744,25.0671,昆明市,金鼎山,颗粒物(PM10),55,56,60,32,41,73,73,90,90,20,16,2,2,0.9,0.9
2026-03-12T2000,1455A,102.6643,25.0401,昆明市,碧鸡广场,细颗粒物(PM2.5),52,42,55,36,40,65,65,86,86,24,18,3,3,0.9,0.9
2026-03-12T2000,3179A,102.7491,25.012,昆明市,官渡区博物馆,,50,50,54,26,38,58,58,79,78,28,20,2,3,0.7,0.7
2026-03-12T2000,3375A,102.8016,24.8336,昆明市,青年创业园,,45,37,47,31,33,81,81,86,86,10,8,3,3,0.7,0.7
2026-03-12T2000,3550A,102.8,24.9787,昆明市,昆明学院,,45,44,56,31,34,72,72,78,78,16,16,3,3,0.7,0.7
2026-03-12T2000,3551A,102.5969,24.6738,昆明市,晋宁区生态环境分局,颗粒物(PM10),59,62,46,38,37,72,72,80,80,16,10,2,2,0.6,0.6
2026-03-12T2000,3552A,102.6673,24.9861,昆明市,云天化总部,细颗粒物(PM2.5),52,38,52,36,34,80,80,88,88,13,14,7,7,1.0,1
2026-03-12T2000,1456A,91.132,29.6515,拉萨市,八廓街,,25,22,21,10,8,78,78,100,99,26,18,5,4,0.5,0.5
2026-03-12T2000,1457A,91.1221,29.6748,拉萨市,市环保局,NA,NA,15,31,3,12,71,71,81,80,NA,25,4,4,0.5,0.6
2026-03-12T2000,1458A,91.0874,29.6476,拉萨市,区监测站,,25,20,18,3,8,80,80,92,92,21,31,4,5,0.1,0.7
2026-03-12T2000,1459A,91.1774,29.6541,拉萨市,西藏大学,,29,17,21,3,8,91,91,96,96,14,18,6,6,0.5,0.6
2026-03-12T2000,1460A,90.9798,29.6586,拉萨市,区辐射站,,25,20,25,3,10,80,80,89,89,23,26,4,4,0.5,0.5
2026-03-12T2000,1461A,91.0831,29.6292,拉萨市,拉萨火车站,,31,12,17,3,6,97,97,95,95,6,17,4,4,0.4,0.5
2026-03-12T2000,2520A,109.2203,23.7252,来宾市,来宾技工学校,,40,40,64,22,43,88,88,108,106,16,23,8,10,0.6,1
2026-03-12T2000,3535A,109.1781,23.7293,来宾市,兴宾区政府,,38,38,64,20,44,101,101,119,118,10,13,7,8,0.7,0.9
2026-03-12T2000,4002A,109.2312,23.7428,来宾市,中南小学,颗粒物(PM10),55,56,72,32,56,58,58,112,106,36,31,7,8,0.7,1
2026-03-12T2000,1479A,103.8309,36.0467,兰州市,铁路设计院,NA,NA,NA,NA,NA,NA,NA,NA,NA,NA,NA,NA,NA,NA,NA,NA
2026-03-12T2000,3241A,103.7439,36.0841,兰州市,百合公园,颗粒物(PM10),500,962,242,238,67,81,81,84,84,6,32,2,6,0.4,0.7
2026-03-12T2000,3242A,103.9613,35.9985,兰州市,和平,颗粒物(PM10),500,974,626,200,129,86,86,91,90,8,8,9,10,0.5,0.6
2026-03-12T2000,4236A,103.629272,36.093822,兰州市,庄浪东路808号,颗粒物(PM10),500,993,242,235,63,88,88,92,92,3,20,7,8,0.4,0.5
2026-03-12T2000,4237A,103.7251,36.104344,兰州市,安宁西路88号,颗粒物(PM10),500,1051,283,242,65,98,98,100,100,2,27,8,9,0.3,0.5
2026-03-12T2000,4238A,103.846982,36.067567,兰州市,北滨河东路1号,颗粒物(PM10),500,977,243,224,58,86,86,91,90,10,22,6,8,0.5,0.6
2026-03-12T2000,1067A,116.6712,39.5109,廊坊市,药材公司,颗粒物(PM10),68,75,103,42,75,82,82,123,120,22,32,1,4,0.5,0.9
2026-03-12T2000,1068A,116.7215,39.5592,廊坊市,开发区,细颗粒物(PM2.5),76,78,109,48,75,80,80,125,121,25,37,3,5,0.4,0.8
2026-03-12T2000,1070A,116.7246,39.5273,廊坊市,北华航天学院,颗粒物(PM10),76,86,110,43,72,82,82,128,123,31,43,4,6,0.4,0.8
2026-03-12T2000,2919A,116.7022,39.5454,廊坊市,河北工业大学,细颗粒物(PM2.5),84,92,116,52,73,79,79,123,119,22,34,2,4,0.4,0.8
2026-03-12T2000,2536A,103.7629,29.5844,乐山市,牛耳桥,颗粒物(PM10),57,59,57,37,43,90,90,66,66,27,37,8,8,0.8,0.9
2026-03-12T2000,2537A,103.7501,29.6002,乐山市,市第三水厂,"颗粒物(PM10),细颗粒物(PM2.5)",56,58,56,38,43,81,81,66,66,31,40,5,6,0.8,0.9
2026-03-12T2000,2538A,103.7571,29.5664,乐山市,市监测站,颗粒物(PM10),59,62,58,34,40,86,86,68,68,25,30,6,7,0.8,0.9
2026-03-12T2000,3361A,103.7313,29.563,乐山市,理工大学,"颗粒物(PM10),细颗粒物(PM2.5)",52,52,53,36,41,81,81,71,71,26,34,10,9,1.0,1
2026-03-12T2000,2599A,100.2497,26.8802,丽江市,丽江古城,,48,43,57,33,39,85,85,120,112,15,12,12,12,0.5,0.6
2026-03-12T2000,2600A,100.2203,26.8906,丽江市,市中心,,48,NA,43,33,38,85,85,123,115,24,18,8,10,0.5,0.5
2026-03-12T2000,1267A,119.9141,28.4513,丽水市,监测站大楼,,37,31,39,21,25,117,117,130,129,11,18,5,5,0.2,0.2
2026-03-12T2000,1268A,119.93,28.4589,丽水市,莲都小学,,36,33,40,19,23,114,114,129,128,12,16,/,/,/,/
2026-03-12T2000,1269A,119.8794,28.4232,丽水市,余庄前,,35,33,35,17,22,109,109,125,124,12,15,4,4,0.3,0.3
2026-03-12T2000,1173A,119.1759,34.5885,连云港市,市环境监测站,细颗粒物(PM2.5),112,92,67,73,51,92,92,111,111,24,26,8,8,0.6,0.5
2026-03-12T2000,3000A,119.3577,34.6971,连云港市,德源药业,细颗粒物(PM2.5),106,97,78,66,48,93,93,116,113,29,28,6,7,1.0,1
2026-03-12T2000,3007A,119.178,34.8442,连云港市,新城一中,细颗粒物(PM2.5),120,98,91,81,77,58,58,106,104,65,37,7,9,0.5,0.8
2026-03-12T2000,3008A,119.3607,34.7519,连云港市,胡沟管理处,细颗粒物(PM2.5),108,112,78,68,54,15,15,91,78,110,41,10,6,0.6,0.5
2026-03-12T2000,3009A,119.1478,34.5913,连云港市,矿山设计院,细颗粒物(PM2.5),114,97,73,75,49,94,94,116,115,30,29,7,9,0.8,0.7
2026-03-12T2000,3434A,119.2414,34.6539,连云港市,工贸学校,细颗粒物(PM2.5),109,85,70,69,54,105,105,117,117,20,20,12,10,0.8,0.6
2026-03-12T2000,3664A,119.4171,34.734,连云港市,连云街道,细颗粒物(PM2.5),56,52,80,38,57,102,102,120,120,15,31,6,6,0.5,0.7
2026-03-12T2000,2573A,102.2629,27.8981,凉山彝族自治州,西昌市政府,细颗粒物(PM2.5),70,51,29,45,27,98,98,98,98,6,8,6,7,0.7,0.7
2026-03-12T2000,2574A,102.2686,27.885,凉山彝族自治州,凉山州政府,细颗粒物(PM2.5),80,NA,35,50,31,90,90,90,90,7,10,9,8,0.8,0.8
2026-03-12T2000,4229A,102.2342,27.8859,凉山彝族自治州,凯乐南路30号,细颗粒物(PM2.5),74,57,37,47,25,106,106,98,98,11,14,13,8,1.0,0.8
2026-03-12T2000,2212A,123.1978,41.2036,辽阳市,宏伟区,细颗粒物(PM2.5),163,NA,93,124,72,61,61,102,94,42,27,11,11,1.1,0.7
2026-03-12T2000,2213A,123.1684,41.2497,辽阳市,新华园,细颗粒物(PM2.5),101,80,96,61,71,69,69,95,91,36,35,12,12,0.7,0.9
2026-03-12T2000,2214A,123.2355,41.2663,辽阳市,滨河路,细颗粒物(PM2.5),133,NA,103,96,80,55,55,94,87,48,44,11,9,0.9,0.9
2026-03-12T2000,4083A,123.153,41.2874,辽阳市,铁西路150号,细颗粒物(PM2.5),141,112,80,105,48,45,45,92,82,67,34,15,11,1.1,0.7
2026-03-12T2000,2227A,125.1359,42.8845,辽源市,环保局,细颗粒物(PM2.5),139,115,76,102,55,38,38,101,92,61,29,7,5,1.5,1
2026-03-12T2000,4085A,125.0998,42.9134,辽源市,安宁大街333号,细颗粒物(PM2.5),117,117,75,78,57,97,97,104,102,21,22,8,5,1.0,0.8
2026-03-12T2000,1625A,115.9789,36.4372,聊城市,区政府,颗粒物(PM10),85,99,125,52,96,96,96,115,115,31,23,12,13,0.8,1
2026-03-12T2000,3200A,115.9772,36.4986,聊城市,监控中心,颗粒物(PM10),106,134,120,63,87,83,83,124,123,43,22,14,11,0.8,0.8
2026-03-12T2000,3513A,116.0443,36.436,聊城市,九州社区,颗粒物(PM10),97,115,121,57,95,90,90,125,125,49,29,5,5,0.8,0.9
2026-03-12T2000,4018A,116.0564,36.4609,聊城市,星美广场,颗粒物(PM10),111,147,135,66,97,94,94,122,122,51,23,7,7,0.7,0.9
2026-03-12T2000,4113A,116.0091,36.4495,聊城市,利民路,颗粒物(PM10),97,115,132,51,90,101,101,128,128,40,23,10,9,0.8,0.8
2026-03-12T2000,2632A,94.3683,29.6373,林芝市,林芝监测站,,30,27,16,17,10,96,96,94,94,2,5,4,4,0.4,0.4
2026-03-12T2000,2633A,94.3616,29.6634,林芝市,林芝人民医院,,39,34,20,27,11,98,98,95,95,2,4,3,2,0.5,0.5
2026-03-12T2000,2603A,100.0779,23.8981,临沧市,市环保局,细颗粒物(PM2.5),94,58,77,57,71,63,63,94,90,10,12,7,8,0.8,0.9
2026-03-12T2000,2604A,100.0894,23.882,临沧市,市气象局,细颗粒物(PM2.5),88,NA,78,54,72,63,63,96,92,12,13,7,9,0.6,0.7
2026-03-12T2000,1733A,111.5552,36.0791,临汾市,临钢医院,细颗粒物(PM2.5),90,99,81,55,58,103,103,127,126,25,20,9,9,0.8,0.7
2026-03-12T2000,1734A,111.4984,36.0734,临汾市,技工学校,细颗粒物(PM2.5),120,100,84,82,68,101,101,124,123,24,22,8,7,0.8,0.8
2026-03-12T2000,1736A,111.5017,36.0857,临汾市,市委,细颗粒物(PM2.5),104,119,100,64,58,105,105,128,128,32,22,7,5,0.8,0.8
2026-03-12T2000,3018A,111.5048,36.1015,临汾市,唐尧大酒店,细颗粒物(PM2.5),109,116,95,69,57,105,105,125,125,31,23,10,8,0.7,0.7
2026-03-12T2000,4244A,111.4879,36.053,临汾市,启星学校,细颗粒物(PM2.5),124,113,88,86,67,98,98,124,123,35,25,7,6,0.7,0.7
2026-03-12T2000,4271A,103.2464,35.6123,临夏回族自治州,滨河东路1号,颗粒物(PM10),383,486,150,106,56,NA,NA,90,90,13,35,8,11,0.4,0.8
2026-03-12T2000,4310A,103.207136,35.599807,临夏回族自治州,新华街21号,颗粒物(PM10),428,528,139,91,53,72,72,84,84,7,15,8,10,0.4,0.8
2026-03-12T2000,1618A,118.3429,35.0532,临沂市,沂河小区,细颗粒物(PM2.5),119,129,95,80,71,98,98,113,113,26,20,9,9,0.6,0.5
2026-03-12T2000,1619A,118.2962,35.0568,临沂市,鲁南制药厂,细颗粒物(PM2.5),110,100,88,71,72,107,107,124,124,30,24,10,10,0.5,0.5
2026-03-12T2000,1620A,118.2793,34.9976,临沂市,新光毛纺厂,细颗粒物(PM2.5),129,132,85,91,71,90,90,114,114,39,28,10,9,0.7,0.6
2026-03-12T2000,1621A,118.3955,35.0889,临沂市,河东保险公司,细颗粒物(PM2.5),120,127,88,81,67,87,87,119,118,53,34,9,8,0.7,0.6
2026-03-12T2000,3370A,118.3563,35.0215,临沂市,十里堡居委,细颗粒物(PM2.5),122,127,92,84,70,99,99,120,120,37,26,9,8,0.7,0.8
2026-03-12T2000,3496A,118.359,35.1067,临沂市,南坊新区,细颗粒物(PM2.5),104,102,82,64,67,94,94,121,120,34,23,10,9,0.5,0.5
2026-03-12T2000,3860A,118.3915,35.0297,临沂市,皇山花园小区,细颗粒物(PM2.5),126,119,93,88,75,109,109,125,123,34,28,14,12,0.6,0.7
2026-03-12T2000,1870A,109.4854,24.3898,柳州市,柳东小学,,36,34,37,23,27,114,114,111,111,10,14,6,5,0.5,0.6
2026-03-12T2000,1871A,109.4109,24.3304,柳州市,环保监测站,颗粒物(PM10),51,51,54,20,31,94,94,101,101,17,32,5,8,0.7,0.9
2026-03-12T2000,1872A,109.3886,24.3408,柳州市,河西水厂,,36,36,76,23,45,109,109,112,112,15,29,8,12,0.6,0.9
2026-03-12T2000,1873A,109.4263,24.2951,柳州市,市四中,,49,49,58,31,40,93,93,106,106,24,31,8,11,0.6,0.9
2026-03-12T2000,1874A,109.396,24.3658,柳州市,市九中,颗粒物(PM10),53,53,59,23,37,94,94,103,103,14,24,9,11,0.6,0.8
2026-03-12T2000,1875A,109.4912,24.3164,柳州市,古亭山,,45,39,32,31,23,90,90,108,107,10,28,7,7,0.6,0.6
2026-03-12T2000,3402A,109.5422,24.3994,柳州市,市二中,细颗粒物(PM2.5),86,61,46,53,34,92,92,106,105,21,21,7,7,0.6,0.6
2026-03-12T2000,2307A,116.5078,31.7369,六安市,监测大楼,细颗粒物(PM2.5),54,52,62,37,53,119,119,131,131,19,28,6,6,0.6,0.7
2026-03-12T2000,2308A,116.4738,31.7642,六安市,皖西学院,颗粒物(PM10),67,73,58,42,44,119,119,137,137,22,27,5,4,0.5,0.5
2026-03-12T2000,2309A,116.4997,31.7904,六安市,朝阳厂,颗粒物(PM10),54,55,56,36,45,103,103,128,128,29,35,5,5,0.4,0.6
2026-03-12T2000,2310A,116.5566,31.7885,六安市,开发区,细颗粒物(PM2.5),62,54,60,41,48,122,122,136,136,12,28,5,5,0.3,0.5
2026-03-12T2000,2577A,104.8293,26.592,六盘水市,黄土坡,,49,48,46,34,35,68,68,75,74,14,19,5,6,0.6,0.8
2026-03-12T2000,2579A,104.8481,26.5898,六盘水市,民中,,48,46,54,33,39,67,67,74,73,10,25,4,7,0.6,1
2026-03-12T2000,2580A,104.9541,26.5506,六盘水市,双水,,46,46,52,24,34,72,72,75,75,10,13,3,4,0.3,0.3
2026-03-12T2000,4151A,104.8899,26.5685,六盘水市,钟山大道中段564号,,50,50,72,29,41,70,70,78,76,8,19,6,9,0.8,1
2026-03-12T2000,2336A,117.022,25.1031,龙岩市,龙岩市监测站,,37,NA,30,19,21,118,118,116,116,9,20,11,8,0.4,0.5
2026-03-12T2000,2337A,117.0257,25.0662,龙岩市,闽西职业技术学院,,39,NA,30,18,16,124,124,118,118,5,9,6,6,0.4,0.4
2026-03-12T2000,2338A,117.0195,25.0306,龙岩市,龙岩学院,,38,24,28,18,17,120,120,118,118,6,10,4,4,/,/
2026-03-12T2000,2885A,104.9344,33.3827,陇南市,滨江中学,,45,45,42,11,12,93,93,99,96,8,7,6,6,0.6,0.6
2026-03-12T2000,3247A,104.9551,33.3709,陇南市,市总工会,,31,31,39,12,13,93,93,98,96,6,7,5,5,0.6,0.6
2026-03-12T2000,2488A,111.9984,27.7346,娄底市,市监测站,细颗粒物(PM2.5),76,71,57,48,39,124,124,126,126,19,23,3,7,0.5,0.6
2026-03-12T2000,2491A,111.9888,27.7035,娄底市,市政府,NA,NA,NA,57,NA,39,NA,NA,122,122,14,18,3,3,0.4,0.3
2026-03-12T2000,4127A,111.9812,27.7591,娄底市,涟钢职大,细颗粒物(PM2.5),101,87,55,61,39,123,123,130,130,13,16,2,6,0.4,0.8
2026-03-12T2000,4128A,112.0303,27.7457,娄底市,娄底体校,细颗粒物(PM2.5),80,87,65,50,41,108,108,113,113,11,14,3,3,0.7,0.6
2026-03-12T2000,1894A,105.4427,28.9063,泸州市,小市上码头,,26,26,29,18,23,76,76,94,94,26,21,10,15,0.5,0.5
2026-03-12T2000,1895A,105.4241,28.8573,泸州市,兰田宪桥,,43,43,35,25,21,80,80,89,89,21,21,11,9,0.7,0.8
2026-03-12T2000,1896A,105.4378,28.8833,泸州市,市环监站,,32,28,34,22,26,86,86,92,92,22,30,7,14,0.4,0.6
2026-03-12T2000,4272A,105.3689,28.7783,泸州市,纳溪中医医院,细颗粒物(PM2.5),104,82,60,64,38,93,93,89,89,20,25,9,7,0.8,0.8
2026-03-12T2000,2183A,111.1447,37.5212,吕梁市,环保局,细颗粒物(PM2.5),56,52,89,38,42,109,109,122,121,18,38,7,8,0.5,0.5
2026-03-12T2000,2185A,111.1285,37.5338,吕梁市,自来水公司,颗粒物(PM10),54,55,109,33,43,115,115,128,127,18,35,6,9,0.4,0.5
2026-03-12T2000,2867A,111.1225,37.5093,吕梁市,马茂庄小学,颗粒物(PM10),56,58,105,25,38,106,106,122,121,22,39,4,7,0.5,0.5
2026-03-12T2000,1812A,112.3934,34.6517,洛阳市,市委党校,细颗粒物(PM2.5),165,134,110,125,94,108,108,138,138,37,30,8,8,0.9,0.8
2026-03-12T2000,1815A,112.494,34.6883,洛阳市,河南林校,细颗粒物(PM2.5),159,132,111,121,88,107,107,138,137,37,34,8,12,NA,0.7
2026-03-12T2000,1816A,112.3843,34.623,洛阳市,开发区管委会,细颗粒物(PM2.5),153,159,137,117,92,126,126,142,142,24,25,13,10,0.7,0.7
2026-03-12T2000,1817A,112.4263,34.6249,洛阳市,市委新办公区,细颗粒物(PM2.5),158,158,133,120,99,115,115,141,141,39,34,9,9,0.7,0.7
2026-03-12T2000,3340A,112.6005,34.6323,洛阳市,伊滨,细颗粒物(PM2.5),144,132,124,108,94,128,128,139,139,28,31,8,8,0.5,0.6
2026-03-12T2000,3341A,112.495,34.6338,洛阳市,中移产业园,细颗粒物(PM2.5),166,146,119,126,98,108,108,137,137,32,30,8,10,0.7,0.6
2026-03-12T2000,3593A,112.5736,34.8993,洛阳市,吉利监测站,细颗粒物(PM2.5),163,NA,97,124,87,136,136,151,151,29,28,9,11,0.6,0.7
2026-03-12T2000,3635A,112.3678,34.6623,洛阳市,河科大西苑校区,细颗粒物(PM2.5),160,138,111,122,88,121,121,143,143,25,25,8,9,0.7,0.7
2026-03-12T2000,3636A,112.4387,34.678,洛阳市,英才小学,细颗粒物(PM2.5),159,156,122,121,87,112,112,146,142,41,32,9,16,0.8,0.7
2026-03-12T2000,4214A,112.460027,34.694929,洛阳市,春都路1号院,细颗粒物(PM2.5),163,156,135,124,90,112,112,137,136,33,26,8,10,0.8,0.8
2026-03-12T2000,2399A,114.051,33.5721,漯河市,三五一五工厂,细颗粒物(PM2.5),249,248,227,199,178,99,99,133,132,39,24,5,6,0.9,0.8
2026-03-12T2000,2400A,114.0055,33.5698,漯河市,漯河大学,细颗粒物(PM2.5),241,214,196,191,174,116,116,139,139,30,22,6,7,1.0,0.9
2026-03-12T2000,2401A,114.0134,33.5826,漯河市,市水利局,细颗粒物(PM2.5),242,232,199,192,173,116,116,136,136,30,23,6,6,1.0,0.9
2026-03-12T2000,2402A,114.0261,33.5697,漯河市,市广电局,细颗粒物(PM2.5),236,220,198,186,174,110,110,129,129,30,22,6,6,0.9,0.8
2026-03-12T2000,3478A,113.9691,33.568,漯河市,市图书馆,细颗粒物(PM2.5),235,235,226,185,173,116,116,131,131,26,20,7,7,1.2,0.6
2026-03-12T2000,4250A,114.089259,33.588274,漯河市,韶山路11号,细颗粒物(PM2.5),247,244,218,197,170,76,76,124,121,55,32,7,8,1.0,0.9
2026-03-12T2000,1798A,118.5084,31.6838,马鞍山市,湖东路四小,细颗粒物(PM2.5),80,71,71,50,56,105,105,119,119,30,32,5,7,0.5,0.6
2026-03-12T2000,1799A,118.5019,31.6449,马鞍山市,开发区,细颗粒物(PM2.5),76,69,77,48,61,121,121,127,127,23,33,4,5,0.4,0.6
2026-03-12T2000,3633A,118.4914,31.681,马鞍山市,雨山,细颗粒物(PM2.5),86,78,76,53,54,114,114,122,122,21,28,7,9,0.5,0.6
2026-03-12T2000,4191A,118.527362,31.722269,马鞍山市,慈湖高新区,细颗粒物(PM2.5),90,73,79,55,60,126,126,121,121,20,35,4,5,0.4,0.6
2026-03-12T2000,1686A,111.0285,21.469,茂名市,电白南海,,46,46,53,21,27,112,112,125,125,17,20,6,8,0.6,0.9
2026-03-12T2000,1687A,110.9294,21.6533,茂名市,茂石化七小,,44,44,41,17,28,105,105,104,104,23,20,7,9,0.6,0.7
2026-03-12T2000,1688A,110.9108,21.6688,茂名市,健康路,,37,36,35,17,24,116,116,112,112,20,20,5,8,0.6,0.7
2026-03-12T2000,1689A,110.8592,21.6826,茂名市,高岭,颗粒物(PM10),56,58,54,19,28,101,101,110,110,26,20,5,7,/,/
2026-03-12T2000,3450A,111.0101,21.5165,茂名市,电白水东,,35,34,41,6,28,111,111,120,120,16,17,4,7,/,/
2026-03-12T2000,2540A,103.8414,30.0871,眉山市,气象局,细颗粒物(PM2.5),54,54,55,37,38,73,73,86,86,28,38,8,8,0.7,0.7
2026-03-12T2000,3148A,103.829,30.0563,眉山市,区人社局,颗粒物(PM10),59,62,64,30,39,69,69,80,80,36,46,9,9,0.8,0.8
2026-03-12T2000,4148A,103.8836,30.0695,眉山市,眉职院,颗粒物(PM10),63,68,50,33,29,69,69,75,75,34,32,7,7,0.8,0.8
2026-03-12T2000,1690A,116.1248,24.3307,梅州市,梅江月梅,,38,38,30,25,19,85,85,103,103,16,20,/,/,/,/
2026-03-12T2000,1691A,116.0798,24.2719,梅州市,梅县新城,,48,48,37,22,22,101,101,104,104,17,21,8,8,0.6,0.6
2026-03-12T2000,3315A,116.1234,24.2994,梅州市,梅龙,,48,48,34,27,20,82,82,104,104,18,18,6,7,0.7,0.7
2026-03-12T2000,1878A,104.7775,31.4741,绵阳市,富乐山,,34,34,37,22,24,68,68,78,78,10,11,6,6,0.6,0.7
2026-03-12T2000,1880A,104.6698,31.4668,绵阳市,高新区自来水公司,,39,39,60,23,35,61,61,65,65,21,50,8,8,0.4,0.5
2026-03-12T2000,3491A,104.6899,31.5324,绵阳市,西科大附属小学,NA,NA,46,70,29,40,54,54,69,69,29,51,NA,7,0.6,0.8
2026-03-12T2000,3492A,104.5647,31.5343,绵阳市,安州区旅游局,,42,42,60,24,36,70,70,81,81,11,22,5,5,0.6,0.7
2026-03-12T2000,4146A,104.7092,31.4972,绵阳市,科技城新区公安局,,39,39,66,23,34,57,57,63,63,23,48,8,9,0.6,0.8
2026-03-12T2000,4226A,104.765114,31.453094,绵阳市,绵阳市气象局,,40,35,47,28,32,59,59,69,69,21,32,8,9,0.6,0.7
2026-03-12T2000,1784A,129.61,44.561,牡丹江市,环保大楼,细颗粒物(PM2.5),66,47,49,43,32,55,55,97,89,38,20,16,4,0.7,0.5
2026-03-12T2000,1787A,129.6364,44.6075,牡丹江市,机车工厂,颗粒物(PM10),85,99,71,39,36,40,40,91,81,42,24,98,14,0.7,0.5
2026-03-12T2000,1788A,129.6386,44.5462,牡丹江市,第一中学,细颗粒物(PM2.5),60,54,37,40,28,42,42,93,78,36,22,3,4,0.5,0.4
2026-03-12T2000,4287A,129.5992,44.5964,牡丹江市,东晓云街98号,细颗粒物(PM2.5),86,79,55,53,34,55,55,92,82,29,20,7,8,0.8,0.5
2026-03-12T2000,2531A,105.0703,29.61,内江市,市监测站,NA,NA,NA,48,NA,36,154,154,98,98,17,31,8,8,0.6,0.6
2026-03-12T2000,2533A,105.0657,29.5807,内江市,内江二中,细颗粒物(PM2.5),86,81,54,53,34,78,78,84,84,22,31,9,9,0.5,0.5
2026-03-12T2000,2534A,105.0407,29.5828,内江市,内江日报社,细颗粒物(PM2.5),84,NA,43,52,36,82,82,85,85,17,42,12,11,0.6,0.6
2026-03-12T2000,4147A,105.0433,29.6105,内江市,玉峰路西段888号,细颗粒物(PM2.5),88,73,48,54,37,82,82,88,88,19,33,10,9,0.5,0.5
2026-03-12T2000,2628A,92.0653,31.4846,那曲市,那曲监测站,,30,NA,62,21,37,72,72,86,86,15,30,7,9,0.6,1.3
2026-03-12T2000,4243A,92.0515,31.4787,那曲市,那曲市委宣传部,,27,17,32,6,23,84,84,93,93,8,19,7,10,0.5,0.9
2026-03-12T2000,1291A,115.8887,28.7006,南昌市,省林业公司,颗粒物(PM10),55,56,57,19,37,115,115,123,123,10,20,4,5,0.4,0.7
2026-03-12T2000,1292A,115.813,28.7443,南昌市,林科所,,41,41,45,18,28,115,115,126,126,11,14,8,9,0.5,0.6
2026-03-12T2000,1294A,115.8518,28.687,南昌市,建工学校,颗粒物(PM10),59,62,63,21,37,107,107,120,119,23,26,8,9,0.4,0.6
2026-03-12T2000,1295A,115.8926,28.6425,南昌市,象湖,颗粒物(PM10),53,53,55,20,38,117,117,127,127,12,19,8,9,0.4,0.7
2026-03-12T2000,3046A,115.9084,28.6062,南昌市,机电学校,颗粒物(PM10),60,63,68,23,38,116,116,127,127,14,23,6,6,0.4,0.6
2026-03-12T2000,3690A,115.9718,28.7032,南昌市,外国语学校,颗粒物(PM10),53,53,60,21,38,115,115,126,126,14,24,6,8,0.4,0.6
2026-03-12T2000,4106A,115.7923,28.6873,南昌市,工业二路,颗粒物(PM10),53,54,60,20,33,121,121,132,132,18,24,4,5,0.4,0.6
2026-03-12T2000,4192A,115.931587,28.686774,南昌市,南京东路235号,颗粒物(PM10),68,75,69,20,39,115,115,126,126,17,21,6,7,0.4,0.7
2026-03-12T2000,1906A,106.0791,30.8022,南充市,南充市委,颗粒物(PM10),64,69,61,40,35,53,53,38,38,34,44,7,7,0.6,0.7
2026-03-12T2000,1907A,106.1038,30.8215,南充市,南充炼油厂,颗粒物(PM10),56,58,61,33,36,53,53,36,36,30,41,6,6,0.5,0.7
2026-03-12T2000,4227A,106.108336,30.788436,南充市,梨树横街98号,颗粒物(PM10),55,57,55,35,38,77,77,54,54,15,35,7,7,0.3,0.5
2026-03-12T2000,4304A,106.1172,30.843,南充市,清泉寺北路188号,颗粒物(PM10),52,52,48,35,34,79,79,57,57,14,21,6,7,0.4,0.5
2026-03-12T2000,4305A,106.067,30.7616,南充市,同庆路1号,颗粒物(PM10),61,65,53,38,36,51,51,36,36,36,48,7,7,0.7,0.9
2026-03-12T2000,1151A,118.8033,32.1085,南京市,迈皋桥,细颗粒物(PM2.5),74,63,64,47,45,118,118,132,132,14,39,1,3,0.3,0.3
2026-03-12T2000,1152A,118.7487,32.057,南京市,草场门,细颗粒物(PM2.5),62,63,69,41,44,118,118,125,125,31,57,7,8,0.9,1.1
2026-03-12T2000,1154A,118.770105,32.004342,南京市,中华门,细颗粒物(PM2.5),70,66,68,45,51,120,120,131,131,17,34,5,6,0.4,0.6
2026-03-12T2000,1155A,118.8059,32.0329,南京市,瑞金路,细颗粒物(PM2.5),80,63,69,50,52,120,120,132,132,25,38,4,5,0.7,0.7
2026-03-12T2000,1156A,118.7946,32.0774,南京市,玄武湖,细颗粒物(PM2.5),66,62,72,43,46,119,119,127,126,14,48,8,9,0.7,0.8
2026-03-12T2000,1157A,118.6415,32.0964,南京市,浦口,细颗粒物(PM2.5),92,81,85,56,53,112,112,121,121,25,43,6,7,0.4,0.6
2026-03-12T2000,1158A,118.730129,32.000956,南京市,奥体中心,细颗粒物(PM2.5),68,71,73,44,48,123,123,130,130,26,42,12,13,0.4,0.5
2026-03-12T2000,1159A,118.9072,32.1047,南京市,仙林大学城,细颗粒物(PM2.5),66,66,72,43,46,110,110,122,122,28,49,6,6,0.5,0.6
2026-03-12T2000,3422A,118.8443,31.919,南京市,江宁彩虹桥,细颗粒物(PM2.5),68,71,75,44,44,119,119,128,128,21,38,3,4,0.6,0.8
2026-03-12T2000,3427A,118.8497,32.3599,南京市,六合雄州,细颗粒物(PM2.5),80,76,61,50,39,89,89,115,113,33,30,4,4,0.5,0.7
2026-03-12T2000,4086A,118.7641,32.0841,南京市,新模范马路66号,细颗粒物(PM2.5),64,68,74,42,48,116,116,135,135,32,54,4,4,0.6,0.8
2026-03-12T2000,4249A,118.8707617,31.34017673,南京市,汶溪路181号,细颗粒物(PM2.5),94,89,69,57,59,120,120,129,129,22,29,10,9,0.2,0.4
2026-03-12T2000,4312A,119.019,31.6512,南京市,中山西路1号,细颗粒物(PM2.5),56,53,62,38,46,106,106,119,119,16,24,4,4,0.3,0.5
2026-03-12T2000,1401A,108.3098,22.788,南宁市,二十一中,,48,35,53,33,41,92,92,95,95,16,39,6,6,0.5,0.7
2026-03-12T2000,1402A,108.3135,22.8529,南宁市,北湖,细颗粒物(PM2.5),56,48,54,38,45,85,85,110,109,25,43,3,5,0.8,1.1
2026-03-12T2000,1403A,108.3205,22.8222,南宁市,市监测站,,40,40,54,27,38,103,103,112,112,19,38,6,8,0.7,0.9
2026-03-12T2000,1404A,108.3828,22.8038,南宁市,大自然花园,细颗粒物(PM2.5),52,45,38,36,27,102,102,114,114,20,22,6,6,0.6,0.6
2026-03-12T2000,1406A,108.2397,22.8462,南宁市,区农职院,颗粒物(PM10),51,51,43,33,31,80,80,110,109,24,21,6,7,0.7,0.6
2026-03-12T2000,1407A,108.3285,22.7356,南宁市,英华嘉园,细颗粒物(PM2.5),58,46,64,39,41,73,73,114,110,44,39,4,5,0.8,0.9
2026-03-12T2000,3401A,108.4829,22.762,南宁市,红星社区,细颗粒物(PM2.5),60,47,45,40,36,112,112,118,118,16,30,6,6,0.6,0.6
2026-03-12T2000,4132A,108.2927,23.1477,南宁市,起凤路9号,,46,39,56,32,43,91,91,109,109,22,28,3,3,0.8,0.9
2026-03-12T2000,4221A,108.2177,22.7774,南宁市,乐贤路16号,颗粒物(PM10),53,53,51,33,33,72,72,115,113,48,33,4,5,0.4,0.5
2026-03-12T2000,2332A,118.1682,26.6371,南平市,南平市监测站,,48,48,32,32,22,63,63,122,116,34,18,3,7,1.0,0.3
2026-03-12T2000,2334A,118.1757,26.6276,南平市,南平七中,,35,34,32,24,20,85,85,130,124,20,16,3,4,0.5,0.4
2026-03-12T2000,1168A,120.9056,31.9669,南通市,狼山街道,颗粒物(PM10),53,53,34,34,20,88,88,110,109,12,15,4,4,0.5,0.4
2026-03-12T2000,1170A,120.8635,32.0231,南通市,城中,细颗粒物(PM2.5),74,63,42,47,23,92,92,116,115,13,17,1,1,0.5,0.4
2026-03-12T2000,1171A,120.9376,31.9301,南通市,星湖花园,,50,48,33,35,21,91,91,110,110,10,14,3,4,0.5,0.4
2026-03-12T2000,1172A,120.8053,32.046,南通市,紫琅学院,细颗粒物(PM2.5),62,54,35,41,21,96,96,120,118,13,24,4,4,0.6,0.5
2026-03-12T2000,3291A,121.0631,32.0644,南通市,通州监测站,细颗粒物(PM2.5),62,58,29,41,17,98,98,113,113,15,14,3,4,0.6,0.6
2026-03-12T2000,3432A,120.9348,31.9874,南通市,环境教育馆,细颗粒物(PM2.5),109,NA,36,69,28,90,90,110,108,14,22,3,4,0.4,0.4
2026-03-12T2000,4091A,120.8692,31.9885,南通市,洪江路,细颗粒物(PM2.5),56,54,34,38,20,90,90,116,110,9,13,3,3,0.6,0.5
2026-03-12T2000,2404A,112.5338,33.0086,南阳市,瓦房庄,细颗粒物(PM2.5),163,135,149,124,130,127,127,149,148,19,15,5,6,0.8,0.9
2026-03-12T2000,2405A,112.5002,32.9734,南阳市,汉画馆,细颗粒物(PM2.5),153,144,165,117,143,129,129,150,149,27,21,5,6,0.8,0.8
2026-03-12T2000,2406A,112.5778,33.0144,南阳市,气象站,细颗粒物(PM2.5),168,168,181,127,127,120,120,146,144,25,18,6,6,1.0,1
2026-03-12T2000,2407A,112.548,32.9687,南阳市,理工学院,细颗粒物(PM2.5),169,137,157,128,142,124,124,148,147,20,17,6,7,0.8,0.8
2026-03-12T2000,4008A,112.5233,32.9921,南阳市,卧龙区政府,细颗粒物(PM2.5),172,156,177,130,143,123,123,143,142,21,17,6,7,0.8,0.8
2026-03-12T2000,1234A,121.8352,29.9111,宁波市,区环保大楼,细颗粒物(PM2.5),72,72,40,46,19,91,91,106,105,35,25,6,6,0.4,0.3
2026-03-12T2000,1235A,121.5595,29.8208,宁波市,万里学院,颗粒物(PM10),66,72,40,42,19,97,97,116,115,22,18,4,4,0.4,0.3
2026-03-12T2000,1236A,121.713,29.9564,宁波市,龙赛医院,颗粒物(PM10),65,71,36,41,15,96,96,100,100,20,16,4,4,0.5,0.4
2026-03-12T2000,1240A,121.5855,29.8635,宁波市,太古小学,颗粒物(PM10),73,82,48,41,21,94,94,117,115,29,25,4,4,0.5,0.3
2026-03-12T2000,1241A,121.5239,29.8673,宁波市,市环境监测中心,细颗粒物(PM2.5),62,59,39,41,20,96,96,115,115,25,21,8,5,0.5,0.4
2026-03-12T2000,2871A,121.6156,29.9015,宁波市,万里国际学校,细颗粒物(PM2.5),70,56,31,45,19,95,95,116,114,26,21,4,5,0.4,0.3
2026-03-12T2000,3710A,121.5593,29.8976,宁波市,白沙活动中心,细颗粒物(PM2.5),64,50,35,42,21,92,92,117,116,26,19,8,5,0.5,0.4
2026-03-12T2000,4095A,121.8962,29.7529,宁波市,中科路88号,细颗粒物(PM2.5),74,58,31,47,20,92,92,114,113,30,21,6,6,0.6,0.4
2026-03-12T2000,2341A,119.5387,26.6611,宁德市,宁德市监测站,,40,29,32,12,20,126,126,141,141,14,16,4,5,0.3,0.4
2026-03-12T2000,3209A,119.5231,26.6562,宁德市,宁德一中,,38,35,33,14,23,119,119,139,138,14,13,5,5,0.3,0.4
2026-03-12T2000,2618A,98.859,25.8541,怒江傈僳族自治州,州监测站,颗粒物(PM10),52,52,64,28,50,109,109,111,111,1,4,8,8,0.3,0.5
2026-03-12T2000,2619A,98.8607,25.8168,怒江傈僳族自治州,泸水一中,细颗粒物(PM2.5),76,60,57,48,50,66,66,107,98,34,19,5,6,0.9,0.8
2026-03-12T2000,1888A,101.6891,26.571,攀枝花市,弄弄坪,,36,36,73,13,43,103,103,110,110,10,26,6,33,0.6,1.2
2026-03-12T2000,1889A,101.577,26.5914,攀枝花市,河门口,,35,31,77,21,49,112,112,116,116,6,22,7,20,0.6,1.3
2026-03-12T2000,1891A,101.7365,26.4986,攀枝花市,仁和,,31,25,52,18,41,97,97,103,103,8,13,7,8,0.4,0.6
2026-03-12T2000,2835A,101.7222,26.567,攀枝花市,四十中小,,44,44,66,13,42,96,96,101,101,11,25,10,68,0.7,1.1
2026-03-12T2000,1604A,122.0303,41.1489,盘锦市,开发区,细颗粒物(PM2.5),105,83,52,65,42,52,52,102,94,32,16,7,6,1.0,0.5
2026-03-12T2000,1605A,122.0486,41.0883,盘锦市,兴隆台,细颗粒物(PM2.5),66,52,44,43,35,21,21,99,86,85,24,7,8,0.7,0.5
2026-03-12T2000,1606A,121.8297,41.1026,盘锦市,新生街道,细颗粒物(PM2.5),54,37,47,37,27,63,63,100,95,40,32,8,8,0.5,0.5
2026-03-12T2000,1832A,113.3257,33.7423,平顶山市,新华旅馆,细颗粒物(PM2.5),172,182,163,130,123,126,126,135,134,22,20,6,6,0.7,0.6
2026-03-12T2000,1833A,113.2917,33.737,平顶山市,规划设计院,细颗粒物(PM2.5),180,186,181,136,123,125,125,132,131,28,22,6,7,0.6,0.6
2026-03-12T2000,1834A,113.182,33.7738,平顶山市,平顶山工学院,细颗粒物(PM2.5),139,133,160,102,114,125,125,142,140,NA,17,4,5,NA,0.5
2026-03-12T2000,3594A,112.8736,33.9068,平顶山市,石龙区,细颗粒物(PM2.5),120,129,156,82,120,110,110,147,142,39,46,8,10,0.4,0.6
2026-03-12T2000,4116A,113.284,33.7139,平顶山市,姚电大道23号,细颗粒物(PM2.5),162,171,178,123,121,NA,NA,135,133,NA,19,10,7,0.5,0.6
2026-03-12T2000,2656A,106.6633,35.5338,平凉市,聚贤嘉苑,细颗粒物(PM2.5),111,93,91,72,61,59,59,115,77,30,19,5,7,1.0,0.9
2026-03-12T2000,2657A,106.7021,35.5307,平凉市,博物馆,细颗粒物(PM2.5),127,113,101,89,72,54,54,108,78,34,19,10,11,1.4,0.9
2026-03-12T2000,2348A,113.8384,27.6436,萍乡市,中医院,,43,41,46,28,25,135,135,142,142,15,22,6,4,0.3,0.4
2026-03-12T2000,2350A,113.8677,27.6438,萍乡市,市环保局,NA,NA,41,44,27,30,123,123,133,133,9,17,NA,14,0.7,0.7
2026-03-12T2000,2351A,113.8663,27.6202,萍乡市,安源区政府,,44,44,46,26,29,116,116,121,121,14,17,6,7,0.5,0.9
2026-03-12T2000,4107A,113.8686,27.6668,萍乡市,联洪村委会,,46,46,47,24,26,115,115,116,116,12,23,4,3,0.2,0.3
2026-03-12T2000,2319A,119.0142,25.4324,莆田市,荔城区仓后路,,42,37,49,22,30,133,133,132,132,13,25,/,/,/,/
2026-03-12T2000,2320A,119.0016,25.4553,莆田市,莆田市监测站,,43,26,32,22,21,136,136,138,138,12,10,3,3,0.3,0.3
2026-03-12T2000,2321A,119.112,25.4561,莆田市,涵江区六中,,42,38,43,18,26,133,133,135,135,12,33,/,/,0.4,0.6
2026-03-12T2000,2322A,119.1014,25.3215,莆田市,秀屿区政府,,41,24,37,10,21,130,130,136,136,8,11,4,5,0.4,0.4
2026-03-12T2000,2392A,115.0312,35.7636,濮阳市,环保局,细颗粒物(PM2.5),193,NA,110,145,115,76,76,103,103,41,26,6,7,1.0,0.9
2026-03-12T2000,3021A,115,35.7667,濮阳市,濮水河管理处,细颗粒物(PM2.5),190,169,153,143,120,75,75,113,112,32,23,7,8,0.6,0.5
2026-03-12T2000,4118A,115.0552,35.7816,濮阳市,中原东路68号,细颗粒物(PM2.5),196,180,153,147,118,72,72,97,97,34,23,5,6,0.8,0.7
2026-03-12T2000,4216A,115.0923632,35.76857718,濮阳市,任丘路479号,细颗粒物(PM2.5),202,181,150,152,120,83,83,94,94,40,29,6,7,1.1,1
2026-03-12T2000,2601A,100.9801,22.7634,普洱市,市环保局,,36,36,47,18,24,88,88,82,82,6,7,6,6,0.6,0.7
2026-03-12T2000,2602A,100.9763,22.8237,普洱市,普洱第二中学,,30,30,41,20,24,82,82,81,81,9,8,4,3,0.6,0.6
2026-03-12T2000,3345A,131.0413,45.7795,七台河市,中波台,,38,38,47,18,33,70,70,91,86,20,20,13,9,0.4,0.5
2026-03-12T2000,3637A,131.0136,45.7688,七台河市,人民广场,,47,47,49,24,26,58,58,94,86,33,22,13,9,0.6,0.5
2026-03-12T2000,3684A,130.8639,45.8144,七台河市,新建矿广场,细颗粒物(PM2.5),82,80,70,51,39,46,46,89,84,35,21,4,5,0.4,0.5
2026-03-12T2000,1779A,123.9307,47.3641,齐齐哈尔市,安居小区,NA,NA,42,46,15,20,86,86,91,90,NA,14,4,5,0.3,0.4
2026-03-12T2000,1780A,123.9497,47.3389,齐齐哈尔市,中心广场,,33,33,46,19,23,82,82,88,86,10,16,8,8,0.3,0.3
2026-03-12T2000,1781A,123.9483,47.3229,齐齐哈尔市,农牧车辆厂,,36,36,55,21,23,78,78,88,86,10,11,9,7,0.2,0.2
2026-03-12T2000,1783A,123.9442,47.2994,齐齐哈尔市,市环境监测站,,37,37,42,23,19,80,80,87,86,11,11,5,4,0.5,0.5
2026-03-12T2000,3662A,123.6341,47.2079,齐齐哈尔市,富区青少年活动中心,颗粒物(PM10),66,72,59,40,21,73,73,89,87,10,9,3,3,0.6,0.5
2026-03-12T2000,2591A,107.9765,26.5724,黔东南苗族侗族自治州,市环境监测站,,39,36,31,27,23,70,70,86,86,16,16,4,4,0.5,0.5
2026-03-12T2000,2881A,107.8909,26.531,黔东南苗族侗族自治州,凯里学院,,35,27,24,24,18,80,80,91,91,22,14,5,4,0.4,0.5
2026-03-12T2000,2593A,107.5223,26.2371,黔南布依族苗族自治州,小围寨,,25,NA,24,14,21,78,78,87,85,3,9,4,6,0.5,0.6
2026-03-12T2000,3538A,107.5175,26.2977,黔南布依族苗族自治州,沙坝,,28,19,40,19,21,79,79,92,92,4,9,3,4,0.7,0.8
2026-03-12T2000,2589A,104.9022,25.0943,黔西南布依族苗族自治州,场坝街,,41,41,45,28,38,64,64,72,72,10,12,3,7,0.7,0.7
2026-03-12T2000,2590A,104.8812,25.0994,黔西南布依族苗族自治州,坪东大道,颗粒物(PM10),53,54,45,22,35,61,61,72,71,11,16,5,5,0.6,0.8
2026-03-12T2000,2502A,108.6238,21.9667,钦州市,市环保站,NA,NA,66,60,39,29,NA,NA,110,110,24,25,8,5,0.8,0.8
2026-03-12T2000,2503A,108.655,21.9481,钦州市,沙埠小学,细颗粒物(PM2.5),62,63,60,41,36,128,128,118,118,20,28,7,6,0.7,0.8
2026-03-12T2000,2504A,108.5989,21.7435,钦州市,港区一小,颗粒物(PM10),73,82,53,34,29,88,88,116,115,37,24,9,4,1.0,0.8
2026-03-12T2000,3404A,108.5959,21.9634,钦州市,北职校,细颗粒物(PM2.5),68,59,44,44,30,117,117,120,120,26,20,6,4,0.8,0.9
2026-03-12T2000,1046A,119.5247,39.9346,秦皇岛市,建设大厦,颗粒物(PM10),52,52,91,25,53,75,75,95,93,19,39,4,6,0.4,0.6
2026-03-12T2000,3132A,119.5979,39.938,秦皇岛市,文明里,,38,38,81,19,44,90,90,92,92,14,43,7,9,0.3,0.5
2026-03-12T2000,4066A,119.7458,39.9952,秦皇岛市,南园路157号,颗粒物(PM10),61,65,73,28,42,71,71,93,90,32,45,6,8,0.4,0.5
2026-03-12T2000,4067A,119.5131,39.8858,秦皇岛市,翠岛大街1号,,43,43,62,21,42,88,88,93,93,11,23,6,8,0.4,0.5
2026-03-12T2000,4198A,119.509013,39.825305,秦皇岛市,北戴河轮滑馆,颗粒物(PM10),60,64,81,35,45,93,93,94,94,16,32,6,7,0.1,0.4
2026-03-12T2000,1310A,120.404,36.0625,青岛市,市南区东部子站,细颗粒物(PM2.5),120,112,77,82,57,92,92,114,114,36,25,9,9,0.9,0.7
2026-03-12T2000,1311A,120.362344,36.10282,青岛市,四方区子站,,48,48,74,30,58,80,80,119,118,26,26,6,5,0.6,0.7
2026-03-12T2000,1312A,120.294373,36.054183,青岛市,市南区西部子站,,46,46,65,20,52,79,79,111,111,25,25,2,3,0.7,0.8
2026-03-12T2000,1313A,120.4581,36.0858,青岛市,崂山区子站,细颗粒物(PM2.5),122,122,74,84,54,109,109,121,121,30,23,7,7,0.8,0.7
2026-03-12T2000,1315A,120.3945,36.3083,青岛市,城阳区子站,颗粒物(PM10),65,70,73,34,50,66,66,122,113,35,26,6,6,0.7,0.7
2026-03-12T2000,3642A,120.3454,36.0735,青岛市,市北区南部,颗粒物(PM10),82,94,70,22,49,76,76,119,118,28,27,3,4,0.6,0.7
2026-03-12T2000,3643A,120.3897,36.18,青岛市,李沧区北部,颗粒物(PM10),58,61,74,24,50,76,76,118,115,28,26,8,8,0.6,0.7
2026-03-12T2000,4110A,120.5222,36.4089,青岛市,盟旺路653号,颗粒物(PM10),66,72,74,29,48,90,90,136,126,14,14,4,3,0.7,0.9
2026-03-12T2000,4290A,120.196923,35.954556,青岛市,珠江路669号,细颗粒物(PM2.5),88,70,85,54,64,91,91,121,120,35,43,6,5,0.6,0.6
2026-03-12T2000,4291A,120.0424,35.8656,青岛市,黄岛区人民政府广场,,48,48,73,20,51,77,77,120,112,22,25,8,7,0.5,0.7
2026-03-12T2000,1703A,113.0218,23.7086,清远市,凤城街办,,37,37,29,20,19,111,111,115,115,18,25,/,/,/,/
2026-03-12T2000,3025A,113.0479,23.6343,清远市,技师学院,,35,35,38,18,21,111,111,117,117,17,31,8,7,0.6,0.5
2026-03-12T2000,3318A,112.9898,23.7403,清远市,清新太和,,43,27,27,16,19,137,137,129,129,10,19,9,6,0.3,0.5
2026-03-12T2000,3455A,113.076,23.72,清远市,清城东城,,36,28,26,15,15,115,115,118,118,17,18,/,/,/,/
2026-03-12T2000,2661A,107.6325,35.7357,庆阳市,庆阳五中,细颗粒物(PM2.5),118,115,87,79,57,122,122,120,115,21,17,5,6,0.7,0.6
2026-03-12T2000,2662A,107.6361,35.7067,庆阳市,市环保局,细颗粒物(PM2.5),119,NA,77,80,57,NA,NA,120,118,NA,16,10,7,0.6,0.7
2026-03-12T2000,1916A,103.7897,25.5036,曲靖市,环境监测站,,48,48,44,28,34,60,60,82,78,16,13,7,6,0.8,0.7
2026-03-12T2000,1917A,103.8013,25.5357,曲靖市,烟厂办公区,,45,45,41,28,28,63,63,65,65,10,10,4,4,0.7,0.7
2026-03-12T2000,3376A,103.7926,25.4651,曲靖市,南苑二区,,45,39,42,31,34,57,57,65,65,19,16,4,4,0.8,0.8
2026-03-12T2000,3377A,103.7442,25.5259,曲靖市,曲靖师范学院,细颗粒物(PM2.5),56,44,43,38,35,62,62,69,69,14,12,2,2,0.5,0.6
2026-03-12T2000,1264A,118.8694,28.94,衢州市,环保大楼,NA,NA,41,55,27,37,101,101,128,122,NA,25,/,/,/,/
2026-03-12T2000,1266A,118.8622,28.9809,衢州市,衢州学院,,37,37,50,22,33,91,91,124,120,36,30,6,7,0.4,0.5
2026-03-12T2000,4097A,118.9646,28.9832,衢州市,衢州三中,,41,41,58,25,37,99,99,126,122,24,24,6,6,0.5,0.6
2026-03-12T2000,1611A,118.5818,24.9116,泉州市,涂山街,,47,47,39,19,25,105,105,115,114,12,15,4,4,0.5,0.5
2026-03-12T2000,1612A,118.597,24.8976,泉州市,津头埔,,44,44,38,17,26,116,116,125,124,11,15,3,4,0.4,0.5
2026-03-12T2000,1613A,118.6669,24.9422,泉州市,万安,,45,45,43,16,27,104,104,113,112,11,18,4,5,0.4,0.5
2026-03-12T2000,4105A,118.6355,24.9148,泉州市,霞新路6号,,34,34,40,15,25,103,103,113,112,14,22,/,/,0.5,0.5
2026-03-12T2000,2626A,88.8873,29.2723,日喀则市,日喀则监测站,,28,13,25,3,13,89,89,93,93,7,13,8,9,0.3,0.5
2026-03-12T2000,3726A,88.8775,29.2425,日喀则市,林业技术推广中心,,30,22,26,3,5,96,96,95,95,3,9,10,11,0.4,0.5
2026-03-12T2000,1659A,119.4711,35.421,日照市,监测站,细颗粒物(PM2.5),108,97,84,68,59,96,96,121,119,38,32,8,7,0.8,0.7
