timepoint,stationcode,longitude,latitude,area,positionname,primarypollutant,aqi,pm10,pm10_24h,pm2_5,pm2_5_24h,o3,o3_24h,o3_8h,o3_8h_24h,no2,no2_24h,so2,so2_24h,co,co_24h
2023-04-03T01:00:00,1001A,116.3621,39.8784,北京市,万寿西宫,"颗粒物(PM10),细颗粒物(PM2.5)",70,90,131,51,82,120,113,113,113,23,49,5,6,0.6,0.7
2023-04-03T01:00:00,1002A,116.2202,40.2915,北京市,定陵,颗粒物(PM10),66,81,116,45,70,122,113,113,113,14,28,4,5,0.5,0.6
2023-04-03T01:00:00,1003A,116.4174,39.9289,北京市,东四,颗粒物(PM10),78,105,137,51,79,133,116,116,116,28,44,6,7,0.6,0.7
2023-04-03T01:00:00,1004A,116.4072,39.8863,北京市,天坛,颗粒物(PM10),69,88,124,49,77,128,123,123,123,30,59,5,5,0.6,0.7
2023-04-03T01:00:00,1005A,116.462,39.9365,北京市,农展馆,细颗粒物(PM2.5),74,93,137,54,81,120,98,98,98,34,57,4,6,0.6,0.7
2023-04-03T01:00:00,1006A,116.3392,39.9295,北京市,官园,颗粒物(PM10),73,96,121,51,75,128,121,121,121,20,39,7,8,0.5,0.6
2023-04-03T01:00:00,1007A,116.2878,39.9611,北京市,海淀万柳,颗粒物(PM10),73,96,137,49,78,106,99,99,99,30,49,5,5,0.5,0.6
2023-04-03T01:00:00,1008A,116.6636,40.135,北京市,顺义新城,颗粒物(PM10),73,96,122,49,69,143,129,129,129,22,33,5,7,0.6,0.6
2023-04-03T01:00:00,1009A,116.6275,40.3275,北京市,怀柔镇,颗粒物(PM10),67,83,114,47,70,115,115,115,115,16,31,3,6,0.5,0.7
2023-04-03T01:00:00,1010A,116.2296,40.217,北京市,昌平镇,颗粒物(PM10),71,91,127,50,75,127,125,125,125,15,24,3,4,0.6,0.7
2023-04-03T01:00:00,1011A,116.3966,39.9821,北京市,奥体中心,颗粒物(PM10),75,99,131,54,80,116,101,101,101,37,52,6,6,0.7,0.7
2023-04-03T01:00:00,1012A,116.184,39.9136,北京市,古城,颗粒物(PM10),76,101,153,53,84,117,117,117,117,32,57,5,5,0.7,0.8
2023-04-03T01:00:00,1015A,117.1444,39.1661,天津市,勤俭道,颗粒物(PM10),65,79,98,36,53,183,79,79,79,41,34,11,13,0.8,0.8
2023-04-03T01:00:00,1017A,117.237,39.1082,天津市,大直沽八号路,颗粒物(PM10),65,80,103,33,55,186,60,60,60,54,36,9,14,0.6,0.7
2023-04-03T01:00:00,1018A,117.202,39.0927,天津市,前进道,颗粒物(PM10),65,80,98,35,54,187,73,73,73,50,37,9,11,0.6,0.6
2023-04-03T01:00:00,1019A,117.1837,39.2133,天津市,淮河道,颗粒物(PM10),62,74,106,32,55,189,94,94,94,32,37,11,15,0.5,0.8
2023-04-03T01:00:00,1021A,117.307,39.0877,天津市,跃进路,颗粒物(PM10),65,79,100,35,56,190,58,58,58,55,42,8,15,0.4,0.7
2023-04-03T01:00:00,1023A,117.707,39.0343,天津市,第四大街,颗粒物(PM10),70,90,109,39,51,145,37,37,37,74,70,8,18,0.6,0.6
2023-04-03T01:00:00,1024A,117.457,38.8394,天津市,永明路,颗粒物(PM10),67,84,94,38,50,171,93,93,93,26,42,6,13,0.6,0.7
2023-04-03T01:00:00,1026A,117.764,39.1587,天津市,汉北路,颗粒物(PM10),55,59,76,26,41,156,87,87,87,32,42,10,12,0.2,0.3
2023-04-03T01:00:00,1027A,117.157,38.9194,天津市,团泊洼,颗粒物(PM10),67,83,100,34,51,173,75,75,75,33,43,6,11,0.9,1
2023-04-03T01:00:00,1029A,114.4422,38.0444,石家庄市,职工医院,细颗粒物(PM2.5),109,135,100,82,58,160,64,64,64,35,25,8,9,0.6,0.6
2023-04-03T01:00:00,1030A,114.6063,38.0266,石家庄市,高新区,细颗粒物(PM2.5),99,125,93,74,60,165,63,63,63,28,21,6,8,0.7,0.7
2023-04-03T01:00:00,1031A,114.4898,38.1328,石家庄市,西北水源,细颗粒物(PM2.5),100,142,123,75,62,158,48,48,48,40,20,4,6,0.6,0.5
2023-04-03T01:00:00,1032A,114.4586,38.0058,石家庄市,西南高教,细颗粒物(PM2.5),105,123,104,79,62,154,67,67,67,34,28,6,8,0.7,0.7
2023-04-03T01:00:00,1033A,114.5331,38.0178,石家庄市,世纪公园,颗粒物(PM10),88,126,91,62,52,156,65,65,65,33,26,10,12,0.7,0.7
2023-04-03T01:00:00,1034A,114.509,38.0457,石家庄市,人民会堂,颗粒物(PM10),89,127,102,61,55,162,67,67,67,32,21,11,13,0.8,0.7
2023-04-03T01:00:00,1035A,114.3524,37.8911,石家庄市,封龙山,颗粒物(PM10),67,84,93,36,57,155,121,121,121,26,23,4,5,0.7,0.8
2023-04-03T01:00:00,1037A,118.131,39.6363,唐山市,雷达站,颗粒物(PM10),71,92,104,44,49,183,88,88,88,40,38,12,14,1.3,1
2023-04-03T01:00:00,1038A,118.1725,39.6334,唐山市,物资局,颗粒物(PM10),75,99,108,42,47,174,81,81,81,43,45,14,17,1.1,1.1
2023-04-03T01:00:00,1040A,118.1705,39.6506,唐山市,十二中,颗粒物(PM10),68,85,105,34,54,176,76,76,76,36,35,16,16,1.3,1.1
2023-04-03T01:00:00,1041A,118.1869,39.622,唐山市,小山,颗粒物(PM10),70,90,107,36,47,182,78,78,78,46,45,11,14,1.2,1.1
2023-04-03T01:00:00,1042A,119.5134,39.8207,秦皇岛市,北戴河环保局,颗粒物(PM10),52,54,57,32,33,137,102,102,102,34,46,3,4,0.4,0.4
2023-04-03T01:00:00,1043A,119.7493,40.0116,秦皇岛市,第一关,细颗粒物(PM2.5),69,82,77,50,46,121,0,0,0,124,61,4,6,0.4,0.4
2023-04-03T01:00:00,1044A,119.5897,39.9499,秦皇岛市,监测站,细颗粒物(PM2.5),65,70,74,47,50,114,18,18,18,114,76,4,6,0.5,0.5
2023-04-03T01:00:00,1046A,119.5251,39.9041,秦皇岛市,建设大厦,颗粒物(PM10),71,91,88,25,33,124,33,33,33,96,69,7,14,0.5,0.5
2023-04-03T01:00:00,1048A,114.5302,36.6116,邯郸市,东污水处理厂,颗粒物(PM10),59,68,83,26,48,162,96,96,96,22,22,9,9,0.4,0.5
2023-04-03T01:00:00,1049A,114.4918,36.5713,邯郸市,矿院,颗粒物(PM10),56,61,91,27,55,166,112,112,112,17,23,5,6,0.7,0.9
2023-04-03T01:00:00,1050A,114.484,36.6133,邯郸市,丛台公园,颗粒物(PM10),54,57,78,34,52,166,116,116,116,13,17,8,10,0.4,0.4
2023-04-03T01:00:00,1051A,115.493,38.8632,保定市,游泳馆,细颗粒物(PM2.5),110,112,98,83,74,112,60,60,60,42,38,8,11,0.2,0.1
2023-04-03T01:00:00,1052A,115.5213,38.8959,保定市,华电二区,细颗粒物(PM2.5),107,141,107,80,70,112,33,33,33,50,37,8,12,0.7,0.7
2023-04-03T01:00:00,1053A,115.4713,38.9108,保定市,接待中心,颗粒物(PM10),87,124,104,62,53,103,52,52,52,33,39,10,11,0.7,0.6
2023-04-03T01:00:00,1054A,115.4612,38.8416,保定市,地表水厂,细颗粒物(PM2.5),103,151,140,77,64,101,63,63,63,37,39,11,12,0.4,0.3
2023-04-03T01:00:00,1056A,115.5086,38.8639,保定市,监测站,细颗粒物(PM2.5),98,142,126,73,69,121,56,56,56,41,39,10,14,0.4,0.4
2023-04-03T01:00:00,1057A,114.8883,40.8336,张家口市,人民公园,,17,10,59,6,33,134,54,54,54,4,14,2,5,0.3,0.4
2023-04-03T01:00:00,1059A,114.8687,40.8042,张家口市,五金库,,25,10,76,17,42,135,52,52,52,7,17,8,11,0.3,0.5
2023-04-03T01:00:00,1060A,114.8902,40.762,张家口市,世纪豪园,,16,16,72,6,50,118,48,48,48,9,16,1,2,0.3,0.5
2023-04-03T01:00:00,1061A,114.8916,40.8661,张家口市,北泵房,,18,16,68,12,49,144,56,56,56,6,12,8,10,0.3,0.5
2023-04-03T01:00:00,1062A,117.9531,40.9081,承德市,铁路,颗粒物(PM10),63,76,83,33,44,149,131,131,131,25,31,14,13,0.6,0.5
2023-04-03T01:00:00,1063A,117.9392,40.9763,承德市,中国银行,颗粒物(PM10),62,74,89,41,45,154,136,136,136,22,29,13,12,0.6,0.5
2023-04-03T01:00:00,1064A,117.9503,40.928,承德市,开发区,颗粒物(PM10),62,73,84,36,43,155,144,144,144,20,33,13,12,0.7,0.6
2023-04-03T01:00:00,1065A,117.8051,40.9655,承德市,文化中心,颗粒物(PM10),65,79,91,37,46,158,137,137,137,12,26,11,12,0.4,0.5
2023-04-03T01:00:00,1066A,117.9268,41.0026,承德市,离宫,颗粒物(PM10),56,62,82,32,45,162,131,131,131,16,24,11,12,0.4,0.4
2023-04-03T01:00:00,1067A,116.6708,39.5111,廊坊市,药材公司,颗粒物(PM10),84,118,116,35,54,176,91,91,91,47,51,6,9,0.6,0.5
2023-04-03T01:00:00,1068A,116.7214,39.5589,廊坊市,开发区,颗粒物(PM10),74,98,114,49,65,183,97,97,97,39,51,12,14,0.9,0.6
2023-04-03T01:00:00,1070A,116.7244,39.5269,廊坊市,北华航天学院,颗粒物(PM10),74,98,120,43,65,181,95,95,95,41,53,9,12,0.7,0.6
2023-04-03T01:00:00,1071A,116.8842,38.2991,沧州市,沧县城建局,颗粒物(PM10),70,90,101,40,54,188,85,85,85,42,49,13,16,0.6,0.6
2023-04-03T01:00:00,1072A,116.8584,38.3254,沧州市,电视转播站,颗粒物(PM10),75,99,101,34,56,195,83,83,83,42,50,16,19,0.4,0.5
2023-04-03T01:00:00,1073A,116.8709,38.3228,沧州市,市环保局,细颗粒物(PM2.5),75,98,104,55,62,196,80,80,80,44,53,10,12,0.5,0.6
2023-04-03T01:00:00,1074A,115.6838,37.7541,衡水市,电机北厂,颗粒物(PM10),74,97,78,53,34,139,55,55,55,56,26,16,9,0.6,0.5
2023-04-03T01:00:00,1075A,115.6303,37.7316,衡水市,市监测站,细颗粒物(PM2.5),69,83,77,50,40,150,71,71,71,37,25,16,10,0.7,0.6
2023-04-03T01:00:00,1077A,114.4704,37.0886,邢台市,达活泉,细颗粒物(PM2.5),93,125,103,69,64,156,33,33,33,57,19,5,8,0.6,0.6
2023-04-03T01:00:00,1078A,114.5062,37.0349,邢台市,邢师高专,颗粒物(PM10),81,112,96,51,48,150,31,31,31,66,26,8,10,0.5,0.5
2023-04-03T01:00:00,1079A,114.5237,37.0851,邢台市,路桥公司,颗粒物(PM10),85,120,96,57,53,156,34,34,34,60,24,9,11,0.7,0.7
2023-04-03T01:00:00,1080A,114.4725,37.0719,邢台市,市环保局,颗粒物(PM10),84,118,105,58,61,161,39,39,39,55,23,9,11,0.5,0.4
2023-04-03T01:00:00,1081A,112.522,37.8873,太原市,尖草坪,颗粒物(PM10),55,60,96,38,60,150,128,128,128,9,21,4,4,0.5,0.6
2023-04-03T01:00:00,1083A,112.434,38.0108,太原市,上兰,,,,,,,,,,,,,,,,
2023-04-03T01:00:00,1084A,112.469,37.7124,太原市,晋源,细颗粒物(PM2.5),73,66,99,53,61,143,106,106,106,12,24,5,7,0.6,0.6
2023-04-03T01:00:00,1085A,112.5583,37.7394,太原市,小店,颗粒物(PM10),62,73,108,43,63,157,121,121,121,9,17,3,4,0.4,0.5
2023-04-03T01:00:00,1086A,112.5369,37.8692,太原市,桃园,颗粒物(PM10),53,55,86,32,48,150,125,125,125,8,17,3,4,0.4,0.6
2023-04-03T01:00:00,1087A,112.57,37.8195,太原市,坞城,细颗粒物(PM2.5),67,72,93,48,56,153,118,118,118,13,19,6,6,0.6,0.7
2023-04-03T01:00:00,1088A,112.549,37.9854,太原市,南寨,细颗粒物(PM2.5),63,70,102,45,64,150,88,88,88,23,29,3,4,0.6,0.7
2023-04-03T01:00:00,1090A,111.6507,40.7517,呼和浩特市,呼市一监,颗粒物(PM10),51,51,94,13,42,117,79,79,79,12,31,5,6,0.3,0.5
2023-04-03T01:00:00,1091A,111.6572,40.8033,呼和浩特市,小召,颗粒物(PM10),51,51,96,12,39,111,76,76,76,13,17,7,10,0.3,0.5
2023-04-03T01:00:00,1094A,111.7516,40.8369,呼和浩特市,如意水处理厂,,44,44,105,9,40,115,81,81,81,6,11,18,8,0.3,0.5
2023-04-03T01:00:00,1095A,111.7276,40.8062,呼和浩特市,二十九中,颗粒物(PM10),54,57,104,10,43,117,89,89,89,9,15,9,7,0.4,0.6
2023-04-03T01:00:00,1096A,111.5512,40.7866,呼和浩特市,工大金川校区,颗粒物(PM10),64,77,107,12,40,115,85,85,85,7,17,5,7,0.3,0.5
2023-04-03T01:00:00,1097A,111.717,40.7612,呼和浩特市,化肥厂生活区,,43,43,100,10,38,106,84,84,84,6,13,9,9,0.3,0.5
2023-04-03T01:00:00,1098A,123.6836,41.9339,沈阳市,森林路,,,,,,,,,,,,,,,,
2023-04-03T01:00:00,1099A,123.505,41.7406,沈阳市,浑南东路,细颗粒物(PM2.5),125,150,104,95,56,185,11,11,11,110,51,39,27,1.2,1.2
2023-04-03T01:00:00,1100A,123.4231,41.6989,沈阳市,新秀街,颗粒物(PM10),95,139,105,70,45,184,51,51,51,67,44,47,34,1.7,1.2
2023-04-03T01:00:00,1102A,123.5903,41.8411,沈阳市,东陵路,细颗粒物(PM2.5),100,125,108,75,62,179,57,57,57,46,37,42,24,1.1,1.2
2023-04-03T01:00:00,1103A,123.4264,41.8467,沈阳市,陵东街,颗粒物(PM10),65,79,97,40,47,179,94,94,94,36,47,24,24,1.4,1.1
2023-04-03T01:00:00,1104A,123.4114,41.7653,沈阳市,文化路,细颗粒物(PM2.5),84,99,99,62,56,177,74,74,74,42,40,36,33,1.9,1.2
2023-04-03T01:00:00,1105A,123.4678,41.7867,沈阳市,小河沿,颗粒物(PM10),73,95,103,51,52,173,73,73,73,49,49,35,22,1.6,1.1
2023-04-03T01:00:00,1106A,123.4017,41.7972,沈阳市,太原街,细颗粒物(PM2.5),75,93,99,55,56,176,85,85,85,41,42,32,29,1.4,1
2023-04-03T01:00:00,1108A,123.3783,41.9228,沈阳市,京沈街,颗粒物(PM10),61,71,94,42,53,171,107,107,107,26,36,18,23,0.9,1
2023-04-03T01:00:00,1109A,121.612,38.9741,大连市,甘井子,颗粒物(PM10),84,118,111,59,52,158,81,81,81,51,50,9,9,0.7,0.7
2023-04-03T01:00:00,1110A,121.565,38.9511,大连市,周水子,细颗粒物(PM2.5),88,108,86,65,52,128,90,90,90,33,48,7,7,0.8,0.8
2023-04-03T01:00:00,1111A,121.5637,38.8845,大连市,星海三站,细颗粒物(PM2.5),74,88,69,54,43,159,72,72,72,49,41,5,8,0.8,0.7
2023-04-03T01:00:00,1112A,121.6302,38.9117,大连市,青泥洼桥,细颗粒物(PM2.5),73,86,78,53,42,170,72,72,72,48,38,6,11,1.0,0.8
2023-04-03T01:00:00,1113A,121.6251,38.8638,大连市,傅家庄,颗粒物(PM10),51,52,57,28,33,171,112,112,112,19,22,8,10,0.6,0.6
2023-04-03T01:00:00,1114A,121.5213,38.8661,大连市,七贤岭,"颗粒物(PM10),细颗粒物(PM2.5)",60,69,68,43,42,177,106,106,106,18,23,7,8,0.5,0.5
2023-04-03T01:00:00,1115A,121.2529,38.8061,大连市,旅顺,,45,45,54,29,31,171,113,113,113,25,31,8,10,0.5,0.5
2023-04-03T01:00:00,1116A,121.7485,39.1311,大连市,金州,颗粒物(PM10),55,59,54,33,31,166,123,123,123,21,19,7,7,0.7,0.7
2023-04-03T01:00:00,1117A,121.7811,39.0496,大连市,开发区,细颗粒物(PM2.5),75,81,77,55,47,156,90,90,90,42,42,13,14,0.8,0.7
2023-04-03T01:00:00,1118A,121.9762,39.0631,大连市,双D港,细颗粒物(PM2.5),72,90,83,52,50,184,116,116,116,23,24,10,10,0.8,0.7
2023-04-03T01:00:00,1119A,125.3325,43.9166,长春市,食品厂,细颗粒物(PM2.5),62,72,101,44,63,165,125,125,125,20,36,6,8,0.4,0.6
2023-04-03T01:00:00,1120A,125.2863,43.9027,长春市,客车厂,细颗粒物(PM2.5),62,64,98,44,56,159,116,116,116,31,34,8,9,0.5,0.6
2023-04-03T01:00:00,1121A,125.2841,43.8463,长春市,邮电学院,颗粒物(PM10),56,62,98,34,55,182,139,139,139,19,33,8,11,0.4,0.6
2023-04-03T01:00:00,1122A,125.3716,43.8772,长春市,劳动公园,细颗粒物(PM2.5),57,62,112,40,61,174,120,120,120,28,37,11,13,0.3,0.6
2023-04-03T01:00:00,1123A,125.3297,43.8805,长春市,园林处,,,,,,,,,,,,,,,,
2023-04-03T01:00:00,1124A,125.4605,43.79,长春市,净月潭,颗粒物(PM10),75,99,92,48,49,177,112,112,112,18,19,6,7,0.6,0.6
2023-04-03T01:00:00,1125A,125.7194,43.515,长春市,甩湾子,,,,,,,,,,,,,,,,
2023-04-03T01:00:00,1126A,125.3863,43.8447,长春市,经开区环卫处,细颗粒物(PM2.5),80,98,114,59,66,163,86,86,86,34,35,9,11,0.6,0.7
2023-04-03T01:00:00,1127A,125.245,43.7783,长春市,高新区管委会,颗粒物(PM10),52,53,108,34,71,172,118,118,118,21,41,9,10,0.5,0.8
2023-04-03T01:00:00,1128A,125.1761,43.8325,长春市,岱山公园,颗粒物(PM10),56,62,96,34,46,165,106,106,106,28,28,6,7,0.3,0.5
2023-04-03T01:00:00,1129A,126.5422,45.755,哈尔滨市,岭北,细颗粒物(PM2.5),145,170,175,111,117,173,101,101,101,32,28,24,24,0.5,0.4
2023-04-03T01:00:00,1130A,126.561,45.8167,哈尔滨市,松北商大,细颗粒物(PM2.5),134,144,151,102,115,177,100,100,100,28,26,14,12,0.9,0.9
2023-04-03T01:00:00,1131A,126.979,45.5419,哈尔滨市,阿城会宁,,,578,291,,132,172,54,54,54,124,64,49,36,3.2,1.6
2023-04-03T01:00:00,1132A,126.599,45.7222,哈尔滨市,南岗学府路,细颗粒物(PM2.5),180,185,188,136,128,183,67,67,67,55,34,18,14,1.0,0.8
2023-04-03T01:00:00,1133A,126.689,45.7733,哈尔滨市,太平宏伟公园,细颗粒物(PM2.5),226,239,196,176,114,179,45,45,45,87,44,18,13,1.0,0.8
2023-04-03T01:00:00,1134A,126.635,45.7667,哈尔滨市,道外承德广场,细颗粒物(PM2.5),158,151,173,120,113,171,102,102,102,34,37,16,15,0.7,0.6
2023-04-03T01:00:00,1135A,126.685,45.7319,哈尔滨市,香坊红旗大街,细颗粒物(PM2.5),248,208,187,198,132,161,65,65,65,87,55,36,27,1.3,0.9
2023-04-03T01:00:00,1136A,126.6411,45.7258,哈尔滨市,动力和平路,细颗粒物(PM2.5),218,188,178,168,124,176,62,62,62,68,48,26,23,1.4,1.1
2023-04-03T01:00:00,1137A,126.593,45.7478,哈尔滨市,道里建国路,细颗粒物(PM2.5),137,147,163,104,114,180,99,99,99,34,36,16,16,1.1,1
2023-04-03T01:00:00,1138A,126.615,45.61,哈尔滨市,平房东轻厂,细颗粒物(PM2.5),339,266,197,289,151,186,81,81,81,73,35,28,18,1.6,0.9
2023-04-03T01:00:00,1139A,126.595,45.9855,哈尔滨市,呼兰师专,细颗粒物(PM2.5),113,135,172,85,102,177,98,98,98,34,30,17,17,0.5,0.5
2023-04-03T01:00:00,1140A,126.6206,45.6842,哈尔滨市,省农科院,细颗粒物(PM2.5),213,234,190,163,105,188,42,42,42,92,53,33,18,1.1,0.6
2023-04-03T01:00:00,1141A,121.4,31.238,上海市,普陀,,37,37,54,25,27,156,118,118,118,22,47,4,6,0.6,0.6
2023-04-03T01:00:00,1142A,121.478,31.2036,上海市,十五厂,,43,33,55,30,32,145,100,100,100,24,48,7,8,0.7,0.7
2023-04-03T01:00:00,1143A,121.467,31.3008,上海市,虹口,,46,41,56,32,33,151,114,114,114,22,47,6,7,0.6,0.6
2023-04-03T01:00:00,1144A,121.412,31.1654,上海市,徐汇上师大,,50,38,50,35,31,144,95,95,95,38,51,7,7,0.4,0.5
2023-04-03T01:00:00,1145A,121.536,31.2659,上海市,杨浦四漂,,40,36,60,28,35,145,107,107,107,23,51,7,9,0.5,0.6
2023-04-03T01:00:00,1147A,121.425,31.2261,上海市,静安监测站,,36,25,58,25,28,150,112,112,112,24,49,5,7,0.6,0.6
2023-04-03T01:00:00,1148A,121.703,31.1907,上海市,浦东川沙,,38,32,57,26,32,140,98,98,98,21,41,6,6,0.6,0.6
2023-04-03T01:00:00,1149A,121.533,31.2284,上海市,浦东新区监测站,,,45,58,,33,155,105,105,105,20,41,6,7,0.5,0.7
2023-04-03T01:00:00,1150A,121.577,31.2071,上海市,浦东张江,,40,34,47,28,33,141,106,106,106,19,38,4,4,0.7,0.7
2023-04-03T01:00:00,1151A,118.8086,32.1065,南京市,迈皋桥,颗粒物(PM10),55,60,72,19,28,173,118,118,118,17,34,5,7,0.3,0.4
2023-04-03T01:00:00,1152A,118.7538,32.0551,南京市,草场门,颗粒物(PM10),51,51,58,14,27,154,117,117,117,17,23,4,6,0.4,0.6
2023-04-03T01:00:00,1153A,118.7794,32.0745,南京市,山西路,颗粒物(PM10),52,53,61,17,26,161,117,117,117,13,20,4,6,0.2,0.4
2023-04-03T01:00:00,1154A,118.7752,32.0023,南京市,中华门,,46,46,63,17,24,159,120,120,120,18,31,10,11,0.6,0.8
2023-04-03T01:00:00,1155A,118.8109,32.0309,南京市,瑞金路,,38,38,49,14,28,153,115,115,115,7,16,4,5,0.3,0.5
2023-04-03T01:00:00,1156A,118.7997,32.0754,南京市,玄武湖,,41,41,51,16,30,154,111,111,111,13,21,7,8,0.2,0.4
2023-04-03T01:00:00,1157A,118.6414,32.0931,南京市,浦口,颗粒物(PM10),52,54,72,22,30,158,118,118,118,23,43,6,7,0.3,0.5
2023-04-03T01:00:00,1158A,118.7356,31.9996,南京市,奥体中心,颗粒物(PM10),54,58,64,24,30,155,117,117,117,19,31,6,8,0.2,0.4
2023-04-03T01:00:00,1159A,118.9125,32.1028,南京市,仙林大学城,颗粒物(PM10),56,61,63,19,29,171,97,97,97,29,38,8,10,0.6,0.8
2023-04-03T01:00:00,1160A,120.561,31.2472,苏州市,上方山,颗粒物(PM10),58,66,59,35,33,134,95,95,95,17,41,6,9,0.3,0.4
2023-04-03T01:00:00,1162A,120.591,31.3019,苏州市,彩香,颗粒物(PM10),71,92,61,42,32,159,107,107,107,7,30,4,7,0.6,0.7
2023-04-03T01:00:00,1163A,120.596,31.3264,苏州市,轧钢厂,颗粒物(PM10),71,92,66,45,30,150,103,103,103,8,37,6,9,0.5,0.6
2023-04-03T01:00:00,1164A,120.613,31.2703,苏州市,吴中区,颗粒物(PM10),70,90,63,44,31,156,101,101,101,18,47,8,10,0.3,0.4
2023-04-03T01:00:00,1165A,120.543,31.2994,苏州市,苏州新区,颗粒物(PM10),71,91,54,51,31,147,103,103,103,10,35,5,7,0.4,0.4
2023-04-03T01:00:00,1166A,120.669,31.3097,苏州市,苏州工业园区,颗粒物(PM10),67,84,61,40,32,149,97,97,97,8,40,7,10,0.6,0.7
2023-04-03T01:00:00,1167A,120.641,31.3708,苏州市,相城区,颗粒物(PM10),63,75,62,39,30,147,101,101,101,12,36,7,8,0.6,0.7
2023-04-03T01:00:00,1168A,120.9098,31.9663,南通市,狼山街道,,42,36,57,23,33,164,132,132,132,6,22,5,6,0.5,0.4
2023-04-03T01:00:00,1169A,120.86,32.0005,南通市,虹桥,,43,28,66,21,36,169,136,136,136,9,22,5,7,0.5,0.6
2023-04-03T01:00:00,1170A,120.87,32.02,南通市,城中,,47,47,69,21,36,173,136,136,136,2,17,7,9,0.4,0.5
2023-04-03T01:00:00,1171A,120.94,31.93,南通市,星湖花园,,36,23,59,22,33,155,115,115,115,12,24,5,7,0.7,0.7
2023-04-03T01:00:00,1172A,120.81,32.0417,南通市,紫琅学院,颗粒物(PM10),52,53,70,24,35,168,122,122,122,10,31,7,9,0.6,0.6
2023-04-03T01:00:00,1173A,119.176,34.5885,连云港市,市环境监测站,颗粒物(PM10),54,58,69,34,31,152,126,126,126,12,23,9,12,0.3,0.4
2023-04-03T01:00:00,1177A,117.179,34.2761,徐州市,黄河新村,颗粒物(PM10),57,63,74,32,32,134,110,110,110,15,25,11,13,0.7,0.7
2023-04-03T01:00:00,1178A,117.1918,34.2384,徐州市,淮塔,颗粒物(PM10),59,68,74,24,29,144,114,114,114,21,31,10,11,0.6,0.6
2023-04-03T01:00:00,1180A,117.256,34.2153,徐州市,新城区,颗粒物(PM10),57,63,70,33,31,142,111,111,111,15,22,11,15,0.8,0.8
2023-04-03T01:00:00,1181A,117.244,34.2911,徐州市,桃园路,颗粒物(PM10),58,66,81,29,28,154,82,82,82,25,26,9,12,0.7,0.7
2023-04-03T01:00:00,1182A,117.2933,34.2778,徐州市,农科院,颗粒物(PM10),53,56,71,27,25,162,79,79,79,25,27,8,11,0.6,0.6
2023-04-03T01:00:00,1186A,119.389,32.3761,扬州市,邗江监测站,颗粒物(PM10),58,66,74,33,38,191,111,111,111,29,28,12,12,1.1,0.9
2023-04-03T01:00:00,1188A,120.269,31.4867,无锡市,雪浪,颗粒物(PM10),57,63,59,24,26,143,106,106,106,24,41,8,9,0.7,0.8
2023-04-03T01:00:00,1189A,120.275,31.6219,无锡市,黄巷,颗粒物(PM10),63,75,71,34,27,153,72,72,72,40,46,8,11,1.0,1
2023-04-03T01:00:00,1190A,120.294,31.56,无锡市,曹张,颗粒物(PM10),54,58,57,29,28,151,79,79,79,36,42,6,8,0.6,0.7
2023-04-03T01:00:00,1191A,120.242,31.5031,无锡市,漆塘,颗粒物(PM10),56,61,60,27,27,144,108,108,108,22,39,8,9,0.4,0.4
2023-04-03T01:00:00,1192A,120.3489,31.5863,无锡市,东亭,颗粒物(PM10),54,58,59,36,27,152,68,68,68,36,43,8,11,0.6,0.7
2023-04-03T01:00:00,1193A,120.354,31.5475,无锡市,旺庄,颗粒物(PM10),57,63,59,31,28,150,76,76,76,35,41,8,11,0.5,0.6
2023-04-03T01:00:00,1194A,120.245,31.5631,无锡市,荣巷,颗粒物(PM10),56,61,57,34,27,146,86,86,86,29,34,10,13,0.6,0.7
2023-04-03T01:00:00,1195A,120.299,31.6817,无锡市,堰桥,颗粒物(PM10),63,75,67,34,29,174,84,84,84,25,33,8,10,1.1,1
2023-04-03T01:00:00,1196A,119.9633,31.762,常州市,市监测站,颗粒物(PM10),67,83,63,40,34,154,81,81,81,36,40,6,9,0.6,0.8
2023-04-03T01:00:00,1200A,119.9468,31.7069,常州市,武进监测站,颗粒物(PM10),57,63,65,28,35,147,90,90,90,29,39,15,7,0.5,0.8
2023-04-03T01:00:00,1201A,119.9255,31.9087,常州市,安家,颗粒物(PM10),66,82,52,34,32,174,106,106,106,24,36,9,10,0.7,0.7
2023-04-03T01:00:00,1203A,119.6707,32.1875,镇江市,新区办事处,颗粒物(PM10),62,74,65,28,35,176,87,87,87,34,28,8,8,0.9,0.8
2023-04-03T01:00:00,1204A,119.4974,32.1968,镇江市,职教中心,颗粒物(PM10),56,61,60,29,38,167,119,119,119,18,44,4,8,0.4,0.8
2023-04-03T01:00:00,1205A,119.4303,32.1328,镇江市,丹徒区监测站,颗粒物(PM10),56,61,68,30,38,177,106,106,106,24,32,7,10,0.6,0.6
2023-04-03T01:00:00,1206A,119.905,32.4878,泰州市,公园路,细颗粒物(PM2.5),62,63,63,44,40,178,102,102,102,13,16,9,10,0.7,0.6
2023-04-03T01:00:00,1207A,119.9189,32.4625,泰州市,莲花,细颗粒物(PM2.5),57,56,64,40,38,182,100,100,100,17,19,9,11,0.6,0.5
2023-04-03T01:00:00,1209A,119.888,32.4639,泰州市,留学生创业园,颗粒物(PM10),66,82,66,39,34,182,98,98,98,8,13,9,10,0.7,0.5
2023-04-03T01:00:00,1210A,119.036,33.5981,淮安市,钵池山,颗粒物(PM10),51,51,59,32,36,163,126,126,126,16,23,8,8,0.6,0.6
2023-04-03T01:00:00,1211A,119.007,33.575,淮安市,北京南路,颗粒物(PM10),60,70,67,30,38,163,129,129,129,19,23,10,10,0.6,0.5
2023-04-03T01:00:00,1212A,118.989,33.6067,淮安市,市监测站,颗粒物(PM10),56,61,67,24,32,167,146,146,146,14,23,8,8,0.6,0.6
2023-04-03T01:00:00,1213A,119.135,33.5039,淮安市,楚州区监测站,,46,46,63,29,37,164,117,117,117,17,23,8,9,0.6,0.5
2023-04-03T01:00:00,1214A,119.0186,33.6297,淮安市,淮阴区监测站,颗粒物(PM10),60,69,72,30,39,169,136,136,136,18,26,8,9,0.5,0.4
2023-04-03T01:00:00,1215A,120.118,33.4022,盐城市,盐城电厂,颗粒物(PM10),54,58,63,36,39,174,131,131,131,8,20,7,8,0.4,0.4
2023-04-03T01:00:00,1216A,120.156,33.3942,盐城市,市监测站,颗粒物(PM10),52,53,59,26,35,156,118,118,118,14,23,7,8,0.3,0.3
2023-04-03T01:00:00,1218A,120.2144,33.38,盐城市,开发区管委会,颗粒物(PM10),61,72,68,36,39,164,125,125,125,8,17,3,6,0.6,0.6
2023-04-03T01:00:00,1220A,118.293,33.9528,宿迁市,宿迁学院,颗粒物(PM10),61,72,74,29,34,175,139,139,139,20,28,6,7,0.5,0.5
2023-04-03T01:00:00,1221A,118.2442,33.9592,宿迁市,宿迁中学,颗粒物(PM10),59,68,67,28,32,174,140,140,140,19,22,8,7,0.4,0.4
2023-04-03T01:00:00,1223A,120.2072,30.2111,杭州市,滨江,颗粒物(PM10),54,57,60,33,32,185,64,64,64,36,46,10,11,1.0,1
2023-04-03T01:00:00,1224A,120.0633,30.2747,杭州市,西溪,颗粒物(PM10),63,76,56,33,31,192,70,70,70,37,33,8,8,0.8,0.8
2023-04-03T01:00:00,1226A,120.3461,30.3153,杭州市,下沙,颗粒物(PM10),52,54,52,25,27,161,88,88,88,30,38,8,9,0.5,0.5
2023-04-03T01:00:00,1227A,120.1269,30.2456,杭州市,卧龙桥,颗粒物(PM10),53,56,52,36,36,202,50,50,50,39,32,7,8,0.6,0.6
2023-04-03T01:00:00,1228A,120.1903,30.2692,杭州市,浙江农大,颗粒物(PM10),60,69,50,42,35,184,73,73,73,34,41,5,6,0.7,0.9
2023-04-03T01:00:00,1230A,120.1197,30.3119,杭州市,和睦小学,颗粒物(PM10),54,58,55,32,33,159,71,71,71,33,39,7,8,0.8,0.8
2023-04-03T01:00:00,1231A,120.3019,30.4183,杭州市,临平镇,颗粒物(PM10),57,63,63,30,37,170,104,104,104,20,28,4,7,0.4,0.4
2023-04-03T01:00:00,1232A,120.2697,30.1819,杭州市,城厢镇,"颗粒物(PM10),细颗粒物(PM2.5)",58,65,63,41,38,195,58,58,58,50,49,8,9,0.7,0.8
2023-04-03T01:00:00,1233A,120.0883,30.1808,杭州市,云栖,颗粒物(PM10),55,59,48,29,24,202,74,74,74,36,34,7,7,0.6,0.6
2023-04-03T01:00:00,1234A,121.8358,29.911,宁波市,区环保大楼,,47,47,48,23,28,142,110,110,110,11,43,3,10,0.5,0.6
2023-04-03T01:00:00,1235A,121.56,29.82,宁波市,万里学院,,39,39,60,19,35,223,120,120,120,11,34,5,9,0.5,0.6
2023-04-03T01:00:00,1236A,121.713,29.9572,宁波市,龙赛医院,颗粒物(PM10),51,52,72,20,32,156,98,98,98,18,53,6,11,0.4,0.6
2023-04-03T01:00:00,1239A,121.633,29.7733,宁波市,钱湖水厂,,35,28,39,15,25,201,111,111,111,4,17,3,5,0.5,0.5
2023-04-03T01:00:00,1240A,121.5856,29.8635,宁波市,太古小学,,45,45,58,13,28,191,118,118,118,9,43,5,9,0.6,0.7
2023-04-03T01:00:00,1241A,121.524,29.8674,宁波市,市环境监测中心,,42,42,59,18,29,191,115,115,115,11,42,5,10,0.3,0.5
2023-04-03T01:00:00,1242A,120.634,28.0089,温州市,瓯海,颗粒物(PM10),76,102,75,53,40,137,23,23,23,72,42,7,8,0.6,0.5
2023-04-03T01:00:00,1243A,120.6748,27.9939,温州市,南浦,细颗粒物(PM2.5),72,88,64,52,35,145,47,47,47,45,31,7,7,0.5,0.5
2023-04-03T01:00:00,1244A,120.76,27.9747,温州市,龙湾,颗粒物(PM10),86,121,75,46,34,142,16,16,16,76,48,7,9,0.5,0.5
2023-04-03T01:00:00,1245A,120.6709,28.0167,温州市,市站,细颗粒物(PM2.5),72,84,69,52,38,130,32,32,32,70,50,6,6,0.5,0.5
2023-04-03T01:00:00,1247A,120.6053,29.9928,绍兴市,城东开发委,,,33,46,16,28,173,78,78,78,,29,5,7,0.6,0.6
2023-04-03T01:00:00,1250A,120.0751,30.8669,湖州市,城西水厂,颗粒物(PM10),55,60,57,25,30,143,108,108,108,18,32,7,10,0.4,0.4
2023-04-03T01:00:00,1252A,120.7436,30.778,嘉兴市,清河小学,,40,40,48,28,34,135,99,99,99,23,33,4,7,0.6,0.7
2023-04-03T01:00:00,1253A,120.726,30.7478,嘉兴市,嘉兴学院,,43,43,51,24,26,144,117,117,117,12,28,6,8,0.4,0.4
2023-04-03T01:00:00,1255A,121.273,28.6459,台州市,黄岩环保大楼,颗粒物(PM10),55,60,48,28,24,160,81,81,81,12,15,4,5,0.3,0.3
2023-04-03T01:00:00,1256A,121.419,28.6542,台州市,台州环保大楼,,39,34,58,16,29,162,124,124,124,3,22,4,7,0.4,0.4
2023-04-03T01:00:00,1257A,121.377,28.5773,台州市,路桥田洋王,,36,31,55,25,33,156,112,112,112,8,23,5,7,0.3,0.4
2023-04-03T01:00:00,1258A,122.122,30.0203,舟山市,定海檀枫,,39,38,41,27,23,129,94,94,94,18,16,5,5,0.6,0.5
2023-04-03T01:00:00,1259A,122.3094,29.9558,舟山市,普陀东港,,45,45,40,27,27,142,91,91,91,13,18,5,6,0.5,0.5
2023-04-03T01:00:00,1260A,122.19,29.9944,舟山市,临城新区,,35,35,45,19,22,140,106,106,106,20,21,5,6,0.4,0.3
2023-04-03T01:00:00,1262A,119.647,29.077,金华市,十五中,颗粒物(PM10),54,58,63,24,35,184,98,98,98,22,34,7,7,0.6,0.6
2023-04-03T01:00:00,1263A,119.686,29.1029,金华市,监测站,颗粒物(PM10),52,54,64,22,31,199,97,97,97,25,37,6,6,0.7,0.7
2023-04-03T01:00:00,1264A,118.8692,28.9398,衢州市,环保大楼,颗粒物(PM10),51,51,59,28,34,159,119,119,119,20,30,9,10,0.6,0.7
2023-04-03T01:00:00,1265A,118.8709,28.9666,衢州市,实验学校,颗粒物(PM10),53,55,47,27,30,156,117,117,117,17,28,8,8,0.4,0.5
2023-04-03T01:00:00,1266A,118.8621,28.9808,衢州市,衢州学院,,48,48,54,24,33,154,117,117,117,19,31,5,6,0.3,0.4
2023-04-03T01:00:00,1267A,119.914,28.4514,丽水市,监测站大楼,,45,45,44,23,24,137,107,107,107,13,19,10,9,0.2,0.3
2023-04-03T01:00:00,1268A,119.93,28.4586,丽水市,莲都小学,,47,47,46,25,23,150,119,119,119,10,18,9,7,0.3,0.4
2023-04-03T01:00:00,1269A,119.879,28.4231,丽水市,余庄前,,34,22,41,13,26,145,106,106,106,7,15,9,9,0.1,0.2
2023-04-03T01:00:00,1270A,117.1959,31.7848,合肥市,明珠广场,颗粒物(PM10),51,51,79,24,35,174,101,101,101,17,29,6,6,0.4,0.6
2023-04-03T01:00:00,1271A,117.3072,31.8764,合肥市,三里街,,41,41,77,14,44,160,90,90,90,25,36,7,7,0.5,0.7
2023-04-03T01:00:00,1272A,117.2588,31.8707,合肥市,琥珀山庄,颗粒物(PM10),54,58,75,24,39,152,88,88,88,24,33,5,5,0.6,0.8
2023-04-03T01:00:00,1273A,117.1604,31.9052,合肥市,董铺水库,颗粒物(PM10),57,63,84,12,36,163,85,85,85,17,27,5,5,0.3,0.5
2023-04-03T01:00:00,1274A,117.25,31.8571,合肥市,长江中路,颗粒物(PM10),52,53,81,21,46,171,89,89,89,21,28,12,11,0.7,1
2023-04-03T01:00:00,1275A,117.266,31.9436,合肥市,庐阳区,,49,49,85,12,44,150,88,88,88,21,33,9,10,0.5,0.7
2023-04-03T01:00:00,1276A,117.336,31.8586,合肥市,瑶海区,,48,48,81,18,41,157,94,94,94,19,34,9,9,0.5,0.8
2023-04-03T01:00:00,1277A,117.3027,31.7964,合肥市,包河区,颗粒物(PM10),52,53,89,19,43,170,102,102,102,16,45,12,12,0.2,0.5
2023-04-03T01:00:00,1278A,117.2776,31.7385,合肥市,滨湖新区,,48,48,71,17,33,169,98,98,98,17,26,8,9,0.3,0.6
2023-04-03T01:00:00,1279A,117.1318,31.8403,合肥市,高新区,颗粒物(PM10),53,56,75,9,33,162,100,100,100,16,26,10,10,0.3,0.5
2023-04-03T01:00:00,1280A,119.3903,26.0543,福州市,鼓山,,,,,,,,,,,,,,,,
2023-04-03T01:00:00,1282A,119.2681,26.0504,福州市,师大,,44,44,45,21,25,128,50,50,50,37,26,5,6,0.4,0.5
2023-04-03T01:00:00,1283A,119.2984,26.1028,福州市,五四北路,,33,33,40,16,25,124,90,90,90,17,26,4,4,0.5,0.5
2023-04-03T01:00:00,1284A,119.2648,26.0768,福州市,杨桥西路,,38,38,45,21,25,122,64,64,64,24,21,4,5,0.4,0.5
2023-04-03T01:00:00,1285A,119.317,26.0746,福州市,紫阳,,34,34,47,21,26,125,80,80,80,22,29,4,4,0.5,0.6
2023-04-03T01:00:00,1286A,118.1608,24.8169,厦门市,溪东,,,,,,,,,,,,,,,,
2023-04-03T01:00:00,1287A,118.1514,24.4767,厦门市,洪文,,28,28,34,18,25,119,81,81,81,15,18,3,4,0.4,0.5
2023-04-03T01:00:00,1288A,118.0661,24.4444,厦门市,鼓浪屿,,28,27,30,16,20,129,87,87,87,18,28,6,6,0.3,0.3
2023-04-03T01:00:00,1290A,115.8931,28.6843,南昌市,省外办,,44,44,68,25,36,127,29,29,29,24,40,4,9,0.4,0.6
2023-04-03T01:00:00,1291A,115.8886,28.7003,南昌市,省林业公司,,25,19,59,17,37,130,35,35,35,21,45,6,12,0.4,0.4
2023-04-03T01:00:00,1292A,115.8126,28.7442,南昌市,林科所,,29,22,34,19,22,136,5,5,5,57,34,8,11,0.7,0.6
2023-04-03T01:00:00,1294A,115.8518,28.687,南昌市,建工学校,细颗粒物(PM2.5),54,46,67,38,35,128,23,23,23,38,50,11,12,0.7,0.7
2023-04-03T01:00:00,1295A,115.8921,28.6424,南昌市,象湖,颗粒物(PM10),52,53,65,22,36,117,21,21,21,26,42,4,6,0.7,0.9
2023-04-03T01:00:00,1296A,115.7423,28.7996,南昌市,武术学校,,29,24,39,20,20,132,43,43,43,10,6,13,12,0.5,0.5
2023-04-03T01:00:00,1298A,115.9314,28.6842,南昌市,省站,,37,37,73,19,39,125,34,34,34,17,42,8,14,1.2,1
2023-04-03T01:00:00,1299A,116.9862,36.6114,济南市,科干所,颗粒物(PM10),54,58,56,24,20,175,138,138,138,16,17,10,10,0.4,0.4
2023-04-03T01:00:00,1300A,116.9376,36.665,济南市,农科所,颗粒物(PM10),55,59,73,20,21,157,123,123,123,19,27,6,5,0.6,0.5
2023-04-03T01:00:00,1301A,117.1265,36.6734,济南市,开发区,颗粒物(PM10),57,63,56,27,22,170,129,129,129,11,20,11,10,0.6,0.6
2023-04-03T01:00:00,1303A,117.0624,36.6868,济南市,省种子仓库,颗粒物(PM10),51,51,68,34,31,172,133,133,133,14,34,9,10,0.5,0.6
2023-04-03T01:00:00,1304A,116.9489,36.6447,济南市,机床二厂,颗粒物(PM10),56,61,71,29,23,172,134,134,134,8,19,6,5,0.5,0.5
2023-04-03T01:00:00,1305A,117.0495,36.663,济南市,市监测站,颗粒物(PM10),52,54,61,22,22,176,142,142,142,15,34,8,9,0.5,0.6
2023-04-03T01:00:00,1306A,116.7675,36.5484,济南市,长清党校,颗粒物(PM10),57,63,70,27,25,174,123,123,123,24,22,13,13,0.7,0.5
2023-04-03T01:00:00,1307A,120.6659,36.2403,青岛市,仰口,颗粒物(PM10),51,51,60,24,31,149,136,136,136,26,38,3,3,0.6,0.5
2023-04-03T01:00:00,1310A,120.4134,36.0658,青岛市,市南区东部子站,颗粒物(PM10),51,51,53,19,24,158,68,68,68,43,58,8,9,0.4,0.5
2023-04-03T01:00:00,1311A,120.3664,36.1032,青岛市,四方区子站,颗粒物(PM10),52,53,67,17,27,169,99,99,99,33,44,9,9,0.4,0.6
2023-04-03T01:00:00,1312A,120.2994,36.054,青岛市,市南区西部子站,,44,44,56,15,22,128,67,67,67,52,71,10,12,0.4,0.4
2023-04-03T01:00:00,1313A,120.4581,36.0858,青岛市,崂山区子站,颗粒物(PM10),52,53,55,14,20,158,72,72,72,49,28,8,8,0.2,0.3
2023-04-03T01:00:00,1314A,120.1983,35.9608,青岛市,黄岛区子站,颗粒物(PM10),54,58,53,27,25,137,137,137,137,20,40,6,8,0.4,0.4
2023-04-03T01:00:00,1315A,120.3999,36.3083,青岛市,城阳区子站,颗粒物(PM10),74,97,95,37,36,168,95,95,95,30,37,6,7,0.6,0.6
2023-04-03T01:00:00,1316A,113.69031,34.76122,郑州市,烟厂,,50,50,72,27,29,154,98,98,98,19,20,7,8,0.6,0.6
2023-04-03T01:00:00,1317A,113.65724,34.77134,郑州市,郑纺机,,48,48,67,21,28,153,97,97,97,16,18,4,5,0.6,0.5
2023-04-03T01:00:00,1318A,113.67526,34.80246,郑州市,银行学校,颗粒物(PM10),57,64,70,27,43,160,93,93,93,17,20,5,6,0.8,0.7
2023-04-03T01:00:00,1319A,113.56746,34.81334,郑州市,供水公司,颗粒物(PM10),53,56,86,26,29,157,88,88,88,18,20,5,7,0.3,0.4
2023-04-03T01:00:00,1320A,113.7329,34.7178,郑州市,经开区管委,颗粒物(PM10),54,57,70,28,39,155,102,102,102,12,14,4,5,0.6,0.6
2023-04-03T01:00:00,1321A,113.73961,34.77172,郑州市,四十七中,细颗粒物(PM2.5),59,59,68,42,49,165,97,97,97,16,17,4,6,0.6,0.6
2023-04-03T01:00:00,1322A,113.60532,34.74838,郑州市,市监测站,颗粒物(PM10),52,53,72,24,28,163,110,110,110,12,17,6,7,0.7,0.7
2023-04-03T01:00:00,1323A,113.64164,34.7525,郑州市,河医大,颗粒物(PM10),51,52,73,26,33,150,101,101,101,14,20,6,7,0.6,0.6
2023-04-03T01:00:00,1324A,113.51488,34.91089,郑州市,岗李水库,,,,,,,,,,,,,,,,
2023-04-03T01:00:00,1325A,114.3677,30.5584,武汉市,东湖梨园,,41,41,55,24,36,189,95,95,95,10,19,6,9,0.8,0.8
2023-04-03T01:00:00,1326A,114.2529,30.558,武汉市,汉阳月湖,,,38,64,,34,168,67,67,67,20,32,6,9,1.0,1
2023-04-03T01:00:00,1327A,114.282,30.6189,武汉市,汉口花桥,颗粒物(PM10),57,64,65,22,33,166,84,84,84,15,26,5,9,0.7,0.8
2023-04-03T01:00:00,1328A,114.3025,30.5332,武汉市,武昌紫阳,细颗粒物(PM2.5),52,38,53,36,33,167,77,77,77,14,29,8,11,1.0,1
2023-04-03T01:00:00,1329A,114.3646,30.6217,武汉市,青山钢花,细颗粒物(PM2.5),52,38,96,36,47,184,95,95,95,10,21,7,11,0.9,1
2023-04-03T01:00:00,1330A,114.1566,30.4825,武汉市,沌口新区,,50,42,67,35,38,155,62,62,62,19,31,8,11,1.0,1
2023-04-03T01:00:00,1331A,114.3014,30.5944,武汉市,汉口江滩,,43,27,58,30,31,175,89,89,89,13,27,6,10,0.9,1
2023-04-03T01:00:00,1333A,114.135,30.6319,武汉市,吴家山,,39,37,63,27,29,168,78,78,78,14,27,5,8,0.8,0.8
2023-04-03T01:00:00,1334A,113.8454,30.2917,武汉市,沉湖七壕,颗粒物(PM10),56,62,65,22,27,137,79,79,79,5,16,11,13,0.8,0.8
2023-04-03T01:00:00,1335A,113.0833,28.2325,长沙市,经开区环保局,,43,21,37,30,30,98,45,45,45,9,16,2,4,0.5,0.6
2023-04-03T01:00:00,1336A,112.8872,28.2189,长沙市,高开区环保局,,32,24,42,22,30,118,45,45,45,14,10,7,9,0.5,0.4
2023-04-03T01:00:00,1337A,113.0792,28.2053,长沙市,马坡岭,,34,34,48,22,29,103,41,41,41,14,18,6,8,0.5,0.5
2023-04-03T01:00:00,1338A,112.9394,28.19,长沙市,湖南师范大学,,40,32,45,28,39,103,35,35,35,15,13,6,9,0.8,0.7
2023-04-03T01:00:00,1339A,113.0178,28.1322,长沙市,雨花区环保局,,32,21,39,22,29,112,46,46,46,9,12,4,7,0.7,0.7
2023-04-03T01:00:00,1340A,112.9792,28.2597,长沙市,伍家岭,,39,39,48,20,26,111,42,42,42,14,19,5,7,0.7,0.7
2023-04-03T01:00:00,1341A,113.0014,28.1944,长沙市,火车新站,,32,25,43,22,28,97,32,32,32,21,19,6,8,0.7,0.6
2023-04-03T01:00:00,1342A,112.9844,28.1178,长沙市,天心区环保局,,31,31,47,19,27,98,36,36,36,16,19,3,6,0.5,0.6
2023-04-03T01:00:00,1343A,112.8908,28.1308,长沙市,湖南中医药大学,,28,28,48,17,27,105,33,33,33,23,23,4,6,0.9,0.8
2023-04-03T01:00:00,1344A,112.9581,28.3611,长沙市,沙坪,,36,24,36,25,28,109,30,30,30,27,20,6,8,0.6,0.6
2023-04-03T01:00:00,1345A,113.2347,23.1423,广州市,广雅中学,,43,43,36,28,26,44,24,24,24,49,54,4,4,0.8,0.9
2023-04-03T01:00:00,1346A,113.2612,23.105,广州市,市五中,,43,43,37,29,27,52,20,20,20,49,47,6,7,0.8,0.9
2023-04-03T01:00:00,1348A,113.3478,23.0916,广州市,广东商学院,,44,44,36,23,22,59,43,43,43,39,49,3,4,0.7,0.8
2023-04-03T01:00:00,1349A,113.4332,23.1047,广州市,市八十六中,颗粒物(PM10),52,53,47,25,24,37,37,37,37,33,52,6,7,0.7,0.8
2023-04-03T01:00:00,1350A,113.3505,22.9483,广州市,番禺中学,,32,32,35,16,22,67,55,55,55,29,46,5,5,0.8,0.9
2023-04-03T01:00:00,1351A,113.2146,23.3916,广州市,花都师范,,46,46,38,26,25,39,37,37,37,33,46,6,6,0.7,0.8
2023-04-03T01:00:00,1352A,113.2597,23.1331,广州市,市监测站,,39,39,37,24,24,55,39,39,39,37,53,6,7,0.6,0.7
2023-04-03T01:00:00,1353A,113.5618,23.312,广州市,九龙镇镇龙,颗粒物(PM10),53,55,42,31,27,68,26,26,26,36,36,5,5,0.7,0.7
2023-04-03T01:00:00,1354A,113.2765,23.1544,广州市,麓湖,,36,36,34,21,23,55,51,51,51,26,41,4,4,0.5,0.7
2023-04-03T01:00:00,1355A,113.443,23.3035,广州市,帽峰山森林公园,,35,35,30,21,19,65,59,59,59,21,26,4,4,0.8,0.8
2023-04-03T01:00:00,1356A,114.1063,22.5545,深圳市,通心岭子站,,27,25,22,15,14,93,84,84,84,4,7,3,3,0.4,0.5
2023-04-03T01:00:00,1357A,114.117,22.5625,深圳市,洪湖,,30,26,24,14,14,99,94,94,94,8,11,7,7,0.4,0.5
2023-04-03T01:00:00,1358A,113.987,22.5417,深圳市,华侨城,,28,22,21,12,14,97,88,88,88,8,11,4,4,0.5,0.5
2023-04-03T01:00:00,1359A,113.9181,22.5171,深圳市,南海子站,,27,27,27,12,14,93,85,85,85,9,13,4,4,0.6,0.6
2023-04-03T01:00:00,1360A,114.2458,22.5689,深圳市,盐田,,27,23,23,12,13,103,85,85,85,15,21,6,6,0.6,0.7
2023-04-03T01:00:00,1361A,114.2283,22.7244,深圳市,龙岗,,27,20,23,11,13,95,86,86,86,9,13,2,3,0.5,0.5
2023-04-03T01:00:00,1363A,114.494,22.5422,深圳市,南澳,,29,19,20,11,12,106,91,91,91,6,8,3,3,0.6,0.6
2023-04-03T01:00:00,1364A,114.41,22.6342,深圳市,葵涌,,30,22,23,12,15,106,95,95,95,5,8,5,5,0.4,0.5
2023-04-03T01:00:00,1365A,114.297,22.5978,深圳市,梅沙,,30,25,25,15,16,115,95,95,95,5,9,5,5,0.7,0.8
2023-04-03T01:00:00,1366A,114.0678,22.738,深圳市,观澜,,25,25,39,12,21,71,71,71,71,13,22,7,7,0.4,0.5
2023-04-03T01:00:00,1367A,113.5814,22.2618,珠海市,吉大,,29,22,24,13,16,97,90,90,90,8,15,4,4,0.4,0.4
2023-04-03T01:00:00,1368A,113.4881,22.2335,珠海市,前山,,26,20,24,18,18,96,77,77,77,16,21,3,3,0.3,0.4
2023-04-03T01:00:00,1369A,113.628,22.4251,珠海市,唐家,,27,27,27,16,18,87,73,73,73,19,25,4,4,0.1,0.2
2023-04-03T01:00:00,1370A,113.299,22.2281,珠海市,斗门,,25,19,25,14,15,86,77,77,77,11,18,3,4,0.4,0.5
2023-04-03T01:00:00,1371A,113.1294,23.0067,佛山市,湾梁,,41,41,50,15,22,65,65,65,65,21,43,10,8,0.6,0.8
2023-04-03T01:00:00,1372A,113.1083,23.0478,佛山市,华材职中,,36,36,47,18,24,60,58,58,58,25,44,6,6,0.5,0.5
2023-04-03T01:00:00,1373A,113.144,23.0453,佛山市,南海气象局,,35,35,39,23,26,39,31,31,31,34,44,5,5,0.6,0.8
2023-04-03T01:00:00,1374A,113.2881,22.8094,佛山市,顺德苏岗,,25,10,23,17,25,57,52,52,52,23,32,8,8,0.6,0.7
2023-04-03T01:00:00,1376A,112.8383,22.8678,佛山市,高明孔堂,,26,19,35,18,17,74,74,74,74,9,28,4,4,0.5,0.7
2023-04-03T01:00:00,1377A,112.8836,23.1588,佛山市,三水监测站,,35,34,51,24,32,31,27,27,27,38,71,5,5,0.5,0.8
2023-04-03T01:00:00,1378A,112.867,23.185,佛山市,三水云东海,,45,45,45,19,24,40,29,29,29,38,48,4,4,0.4,0.7
2023-04-03T01:00:00,1379A,113.3769,22.5211,中山市,华柏园,,29,29,23,14,15,73,64,64,64,15,17,3,3,0.4,0.5
2023-04-03T01:00:00,1380A,113.3881,22.5497,中山市,张溪,,33,33,27,12,15,85,74,74,74,13,21,4,4,0.4,0.5
2023-04-03T01:00:00,1381A,113.4075,22.5111,中山市,紫马岭,,22,22,24,14,13,80,69,69,69,17,16,6,6,0.4,0.4
2023-04-03T01:00:00,1382A,113.4411,22.4853,中山市,长江旅游区,,28,28,21,15,14,79,64,64,64,18,16,11,10,0.4,0.5
2023-04-03T01:00:00,1383A,113.1064,22.6058,江门市,北街,,40,40,29,20,14,51,30,30,30,24,25,5,5,0.6,0.7
2023-04-03T01:00:00,1384A,113.0731,22.5835,江门市,西区,,38,38,29,16,17,65,65,65,65,15,27,6,6,0.5,0.7
2023-04-03T01:00:00,1385A,113.0219,22.5311,江门市,圭峰西,,38,38,29,14,16,81,77,77,77,15,22,6,6,0.5,0.6
2023-04-03T01:00:00,1386A,113.0828,22.5947,江门市,东湖,,33,33,36,18,16,64,60,60,60,14,23,5,5,0.5,0.7
2023-04-03T01:00:00,1389A,113.7547,23.0494,东莞市,莞城梨川,,31,31,33,19,22,80,80,80,80,16,25,8,10,0.6,0.7
2023-04-03T01:00:00,1390A,113.7944,23.0128,东莞市,东城石井,,31,31,32,19,21,79,79,79,79,11,20,8,8,0.7,0.7
2023-04-03T01:00:00,1391A,113.7383,22.9658,东莞市,南城西平,,36,36,41,22,18,74,74,74,74,15,29,7,8,0.4,0.5
2023-04-03T01:00:00,1392A,114.4183,23.0528,惠州市,河南岸金山湖子站,,23,9,33,16,21,78,66,66,66,14,13,5,5,0.5,0.5
2023-04-03T01:00:00,1393A,114.4053,23.0822,惠州市,下埔横江三路子站,,25,18,31,13,19,83,77,77,77,13,15,5,4,0.3,0.4
2023-04-03T01:00:00,1394A,114.4103,23.1142,惠州市,江北云山西路子站,,25,25,30,15,21,88,78,78,78,10,11,8,6,0.5,0.6
2023-04-03T01:00:00,1395A,114.4645,22.7833,惠州市,惠阳区承修路船湖子站,,28,18,19,13,16,99,88,88,88,11,14,4,4,0.7,0.7
2023-04-03T01:00:00,1396A,114.5317,22.7422,惠州市,大亚湾管委会子站,,28,27,27,16,15,107,89,89,89,12,16,6,6,0.9,0.9
2023-04-03T01:00:00,1397A,112.4267,23.0706,肇庆市,睦岗子站,,40,40,32,23,20,58,57,57,57,17,46,7,8,0.6,0.9
2023-04-03T01:00:00,1398A,112.4645,23.0475,肇庆市,城中子站,,43,41,35,30,27,61,52,52,52,22,45,8,8,0.6,0.9
2023-04-03T01:00:00,1399A,112.5544,23.1522,肇庆市,坑口子站,细颗粒物(PM2.5),52,44,40,36,35,34,34,34,34,33,59,6,9,0.4,0.7
2023-04-03T01:00:00,1400A,112.4753,23.1,肇庆市,七星岩子站,,,,,,,,,,,,,,,,
2023-04-03T01:00:00,1401A,108.3103,22.7881,南宁市,二十一中,,41,41,38,25,23,70,55,55,55,15,15,6,5,1.0,1
2023-04-03T01:00:00,1402A,108.3141,22.8528,南宁市,北湖,,40,38,40,28,25,61,57,57,57,9,15,6,6,0.9,1
2023-04-03T01:00:00,1403A,108.3206,22.8225,南宁市,市监测站,,43,29,39,30,25,62,56,56,56,16,22,7,6,0.8,0.9
2023-04-03T01:00:00,1404A,108.3829,22.8037,南宁市,大自然花园,,39,35,32,27,22,62,52,52,52,10,12,6,5,0.8,0.8
2023-04-03T01:00:00,1405A,108.4394,22.7904,南宁市,仙葫,,39,39,38,18,21,68,46,46,46,14,17,6,6,0.7,0.7
2023-04-03T01:00:00,1406A,108.2397,22.8467,南宁市,区农职院,,46,46,42,17,20,59,55,55,55,15,21,7,6,0.8,0.9
2023-04-03T01:00:00,1407A,108.3275,22.735,南宁市,英华嘉园,,42,42,37,27,22,51,38,38,38,25,21,6,6,0.9,1
2023-04-03T01:00:00,1408A,108.2257,22.7757,南宁市,沙井镇街道办,,44,44,42,20,22,63,42,42,42,27,20,5,5,0.8,0.8
2023-04-03T01:00:00,1409A,110.576,19.9507,海口市,东寨港,,,25,23,12,13,,,,,,,5,5,0.4,0.4
2023-04-03T01:00:00,1410A,110.3232,20.0574,海口市,海南大学,,29,29,26,16,16,78,58,58,58,4,6,6,6,0.5,0.5
2023-04-03T01:00:00,1411A,110.283,20.0053,海口市,秀英海南医院,,30,30,30,16,17,78,44,44,44,17,17,4,4,0.5,0.5
2023-04-03T01:00:00,1412A,110.338,19.9969,海口市,海南师范大学,,25,25,30,15,15,74,54,54,54,4,6,4,4,0.4,0.4
2023-04-03T01:00:00,1413A,110.33,20.0356,海口市,龙华路环保局宿舍,,33,33,30,18,18,68,52,52,52,3,5,4,4,0.3,0.4
2023-04-03T01:00:00,1414A,106.3787,29.8279,重庆市,缙云山,,42,42,38,24,21,140,87,87,87,13,13,10,9,0.5,0.5
2023-04-03T01:00:00,1416A,106.4213,29.8253,重庆市,天生,颗粒物(PM10),60,70,45,34,32,135,64,64,64,18,17,13,9,0.8,0.8
2023-04-03T01:00:00,1417A,106.6263,29.7228,重庆市,两路,细颗粒物(PM2.5),59,52,48,42,25,137,34,34,34,55,30,6,5,1.0,0.9
2023-04-03T01:00:00,1418A,106.2953,29.5983,重庆市,虎溪,细颗粒物(PM2.5),55,42,42,39,35,148,83,83,83,9,23,14,7,0.7,0.7
2023-04-03T01:00:00,1419A,106.5777,29.5102,重庆市,南坪,颗粒物(PM10),67,84,61,43,34,135,36,36,36,58,36,8,7,0.6,0.7
2023-04-03T01:00:00,1420A,106.6556,29.6277,重庆市,唐家沱,颗粒物(PM10),84,118,56,41,26,151,5,5,5,88,44,7,6,0.9,0.9
2023-04-03T01:00:00,1421A,106.6349,29.4906,重庆市,茶园,颗粒物(PM10),74,98,57,39,31,154,11,11,11,82,42,8,7,1.0,0.7
2023-04-03T01:00:00,1422A,106.3754,29.4572,重庆市,白市驿,细颗粒物(PM2.5),62,70,54,44,26,180,84,84,84,23,23,11,10,0.9,0.8
2023-04-03T01:00:00,1425A,106.6205,29.7166,重庆市,空港,细颗粒物(PM2.5),60,68,48,43,31,140,51,51,51,34,24,9,8,0.9,0.8
2023-04-03T01:00:00,1426A,106.4782,29.4875,重庆市,新山村,颗粒物(PM10),67,84,62,36,33,125,47,47,47,45,46,10,10,0.6,0.7
2023-04-03T01:00:00,1427A,106.5616,29.6453,重庆市,礼嘉,颗粒物(PM10),53,55,52,33,27,141,75,75,75,19,31,8,8,0.7,0.8
2023-04-03T01:00:00,1428A,106.4522,29.7091,重庆市,蔡家,颗粒物(PM10),53,56,60,36,32,145,62,62,62,28,26,9,7,0.8,0.9
2023-04-03T01:00:00,1429A,106.5093,29.3917,重庆市,鱼新街,细颗粒物(PM2.5),68,54,53,49,32,160,67,67,67,40,50,10,7,0.7,0.8
2023-04-03T01:00:00,1431A,103.9728,30.7236,成都市,金泉两河,,19,15,59,3,40,142,59,59,59,13,16,1,4,0.5,0.5
2023-04-03T01:00:00,1432A,104.176,30.6872,成都市,十里店,,20,18,72,5,47,136,61,61,61,12,23,1,2,0.5,0.6
2023-04-03T01:00:00,1433A,104.079,30.5706,成都市,三瓦窑,,21,20,66,5,41,152,66,66,66,8,20,1,2,0.4,0.5
2023-04-03T01:00:00,1434A,104.1114,30.63,成都市,沙河铺,,20,17,72,2,51,141,64,64,64,10,22,3,3,0.5,0.6
2023-04-03T01:00:00,1437A,104.0786,30.6531,成都市,君平街,,20,13,68,5,46,147,61,61,61,12,17,3,3,0.5,0.5
2023-04-03T01:00:00,1438A,103.613,31.0283,成都市,灵岩寺,,,,,,,,,,,,,,,,
2023-04-03T01:00:00,1439A,106.6899,26.5998,贵阳市,马鞍山,细颗粒物(PM2.5),62,63,61,44,40,137,108,108,108,13,12,7,7,1.0,0.7
2023-04-03T01:00:00,1440A,106.6971,26.5694,贵阳市,市环保站,细颗粒物(PM2.5),74,63,69,54,46,128,94,94,94,26,22,4,5,0.8,0.7
2023-04-03T01:00:00,1441A,106.6243,26.6266,贵阳市,鉴湖路,细颗粒物(PM2.5),62,68,69,44,37,134,103,103,103,13,9,6,5,0.7,0.5
2023-04-03T01:00:00,1442A,106.7487,26.6343,贵阳市,燕子冲,细颗粒物(PM2.5),79,68,70,58,50,133,95,95,95,19,16,5,5,0.8,0.6
2023-04-03T01:00:00,1443A,106.6555,26.4365,贵阳市,碧云窝,细颗粒物(PM2.5),62,63,71,44,39,142,110,110,110,11,8,6,5,0.7,0.6
2023-04-03T01:00:00,1444A,106.694,26.5161,贵阳市,中院村,细颗粒物(PM2.5),70,70,72,51,43,133,104,104,104,18,16,10,9,0.8,0.7
2023-04-03T01:00:00,1445A,106.7109,26.6027,贵阳市,红边门,细颗粒物(PM2.5),77,73,73,56,50,122,90,90,90,31,27,7,6,0.9,0.8
2023-04-03T01:00:00,1446A,106.7164,26.5699,贵阳市,新华路,细颗粒物(PM2.5),62,66,70,44,46,132,103,103,103,13,13,5,6,0.8,0.6
2023-04-03T01:00:00,1447A,106.674,26.5424,贵阳市,太慈桥,细颗粒物(PM2.5),62,66,74,44,38,134,108,108,108,15,12,5,5,0.6,0.6
2023-04-03T01:00:00,1450A,102.8204,24.8886,昆明市,呈贡新区,,31,29,40,18,29,120,99,99,99,8,10,6,6,0.6,0.7
2023-04-03T01:00:00,1451A,102.6251,24.9608,昆明市,西山森林公园,,35,32,38,8,21,124,110,110,110,6,8,6,6,0.6,0.7
2023-04-03T01:00:00,1452A,102.7252,25.0902,昆明市,龙泉镇,,27,18,38,15,25,109,85,85,85,14,15,7,8,0.5,0.5
2023-04-03T01:00:00,1453A,102.7266,25.0375,昆明市,东风东路,,26,26,40,18,28,105,75,75,75,17,14,8,8,0.6,0.7
2023-04-03T01:00:00,1454A,102.6742,25.0669,昆明市,金鼎山,,30,12,39,17,25,115,94,94,94,7,11,6,5,0.7,0.7
2023-04-03T01:00:00,1455A,102.6644,25.0401,昆明市,碧鸡广场,,27,27,43,16,26,115,84,84,84,15,15,6,6,0.6,0.6
2023-04-03T01:00:00,1456A,91.1319,29.6514,拉萨市,八廓街,,35,13,16,3,6,132,111,111,111,6,10,10,10,0.3,0.3
2023-04-03T01:00:00,1457A,91.1221,29.6747,拉萨市,市环保局,,40,15,17,5,9,155,128,128,128,12,20,6,5,0.4,0.5
2023-04-03T01:00:00,1458A,91.0874,29.6475,拉萨市,区监测站,,,,,,,,,,,,,,,,
2023-04-03T01:00:00,1459A,91.1774,29.6541,拉萨市,西藏大学,,41,12,12,2,5,154,131,131,131,5,12,6,6,0.3,0.5
2023-04-03T01:00:00,1460A,90.9798,29.6588,拉萨市,区辐射站,,33,22,20,7,8,134,105,105,105,12,21,7,8,0.5,0.5
2023-04-03T01:00:00,1461A,91.0834,29.6292,拉萨市,拉萨火车站,,41,15,19,0,6,158,130,130,130,6,17,8,8,0.3,0.4
2023-04-03T01:00:00,1462A,108.882,34.2749,西安市,高压开关厂,,20,20,81,12,30,126,60,60,60,16,20,6,7,0.3,0.4
2023-04-03T01:00:00,1463A,108.993,34.2629,西安市,兴庆小区,,,,70,6,28,123,56,56,56,9,12,5,6,0.3,0.7
2023-04-03T01:00:00,1464A,109.06,34.2572,西安市,纺织城,,20,6,69,8,29,129,64,64,64,7,11,4,5,0.3,0.4
2023-04-03T01:00:00,1465A,108.9356,34.2173,西安市,小寨,,33,33,72,6,26,121,62,62,62,7,12,6,7,0.3,0.4
2023-04-03T01:00:00,1466A,108.954,34.2713,西安市,市人民体育场,,28,28,78,9,32,126,54,54,54,9,13,6,6,0.3,0.4
2023-04-03T01:00:00,1467A,108.8922,34.2322,西安市,高新西区,,20,8,67,7,29,130,64,64,64,10,14,7,7,0.3,0.5
2023-04-03T01:00:00,1468A,108.935,34.3474,西安市,经开区,,18,13,83,8,38,131,57,57,57,14,19,2,4,0.2,0.4
2023-04-03T01:00:00,1469A,108.906,34.1546,西安市,长安区,,22,7,83,4,26,122,70,70,70,10,13,6,6,0.2,0.3
2023-04-03T01:00:00,1471A,109.2186,34.3731,西安市,临潼区,,21,5,67,2,25,136,67,67,67,4,11,6,7,0.3,0.5
2023-04-03T01:00:00,1472A,108.869,34.378,西安市,草滩,,16,10,83,11,34,110,42,42,42,14,16,9,8,0.5,1.3
2023-04-03T01:00:00,1473A,108.985,34.1978,西安市,曲江文化产业集团,,22,6,72,6,29,130,70,70,70,11,13,4,4,0.3,0.5
2023-04-03T01:00:00,1474A,109.051,34.3213,西安市,广运潭,,19,13,79,8,33,126,59,59,59,13,18,4,6,0.3,0.5
2023-04-03T01:00:00,1476A,103.631,36.1031,兰州市,兰炼宾馆,颗粒物(PM10),69,88,156,36,66,104,89,89,89,15,14,13,7,0.4,0.4
2023-04-03T01:00:00,1477A,104.1373,35.9454,兰州市,榆中兰大校区,,,,,,,,,,,,,,,,
2023-04-03T01:00:00,1478A,103.8412,36.0726,兰州市,生物制品所,颗粒物(PM10),58,66,162,34,54,109,94,94,94,11,10,17,10,0.7,0.7
2023-04-03T01:00:00,1479A,103.831,36.0464,兰州市,铁路设计院,颗粒物(PM10),61,72,159,42,68,102,92,92,92,10,15,14,4,0.3,0.2
2023-04-03T01:00:00,1483A,101.524,36.6867,西宁市,第五水厂,,,,,,,,,,,,,,,,
2023-04-03T01:00:00,1484A,105.9512,38.6016,银川市,贺兰山马莲口,,43,43,74,19,27,120,68,68,68,14,14,9,8,0.6,0.6
2023-04-03T01:00:00,1488A,106.2328,38.4975,银川市,贺兰山东路,颗粒物(PM10),69,88,191,15,51,104,80,80,80,6,12,3,4,0.4,0.5
2023-04-03T01:00:00,1489A,106.1358,38.5036,银川市,学院路,颗粒物(PM10),63,75,134,19,41,94,61,61,61,14,16,5,5,0.4,0.4
2023-04-03T01:00:00,1490A,87.5801,43.8303,乌鲁木齐市,监测站,,35,35,67,0,11,96,70,70,70,20,24,4,5,0.5,0.5
2023-04-03T01:00:00,1491A,87.6046,43.768,乌鲁木齐市,收费所,,50,50,82,14,15,82,63,63,63,18,24,2,2,0.2,0.4
2023-04-03T01:00:00,1492A,87.4754,43.9469,乌鲁木齐市,新疆农科院农场,细颗粒物(PM2.5),87,27,79,64,75,73,53,53,53,11,19,6,7,0.4,0.4
2023-04-03T01:00:00,1493A,87.5525,43.8711,乌鲁木齐市,铁路局,,40,40,63,0,13,96,78,78,78,8,17,2,4,0.5,0.5
2023-04-03T01:00:00,1494A,87.6432,43.831,乌鲁木齐市,三十一中学,,36,36,61,7,11,91,70,70,70,6,14,8,8,0.3,0.4
2023-04-03T01:00:00,1496A,87.7216,44.1747,乌鲁木齐市,米东区环保局,,,25,70,,17,102,77,77,77,2,14,6,8,0.2,0.3
2023-04-03T01:00:00,1508A,112.9433,27.8614,湘潭市,板塘,,36,36,49,16,29,80,24,24,24,14,21,12,13,1.2,1.3
2023-04-03T01:00:00,1511A,112.9118,27.8403,湘潭市,市监测站,,29,29,47,20,31,97,44,44,44,11,17,9,12,1.1,1.1
2023-04-03T01:00:00,1512A,112.8937,27.8728,湘潭市,江麓,,29,29,50,18,26,100,46,46,46,12,21,10,12,0.7,0.8
2023-04-03T01:00:00,1513A,112.9227,27.8159,湘潭市,岳塘,,34,34,47,20,30,88,33,33,33,6,9,9,11,0.8,0.8
2023-04-03T01:00:00,1514A,112.9074,27.9119,湘潭市,科大,,33,33,52,16,32,99,39,39,39,21,28,8,9,0.9,1
2023-04-03T01:00:00,1515A,113.135,27.8244,株洲市,天台山庄,,29,29,47,15,28,111,50,50,50,10,18,8,10,0.9,0.9
2023-04-03T01:00:00,1518A,113.095,27.8867,株洲市,株冶医院,,33,29,49,23,33,102,43,43,43,15,24,4,6,0.7,0.7
2023-04-03T01:00:00,1519A,113.167,27.8667,株洲市,市四中,,26,23,44,18,31,102,53,53,53,10,21,10,12,1.0,0.8
2023-04-03T01:00:00,1520A,113.143,27.8381,株洲市,火车站,,32,24,48,22,33,101,45,45,45,15,23,7,9,0.7,0.8
2023-04-03T01:00:00,1524A,113.13,27.8528,株洲市,市监测站,,26,22,45,18,36,111,54,54,54,10,19,8,9,0.7,0.7
2023-04-03T01:00:00,1552A,106.805,26.3003,贵阳市,桐木岭,,,,,,,,,,,,,,,,
2023-04-03T01:00:00,1559A,113.251,27.8336,株洲市,大京风景区,,22,22,33,15,27,99,59,59,59,2,4,9,8,0.6,0.6
2023-04-03T01:00:00,1562A,113.0048,27.9153,湘潭市,昭山,,32,29,59,22,30,105,50,50,50,13,28,4,6,0.6,0.6
2023-04-03T01:00:00,1564A,112.4876,27.9164,湘潭市,韶山,,37,37,46,11,22,87,36,36,36,17,18,6,7,0.4,0.3
2023-04-03T01:00:00,1585A,109.8756,40.6532,包头市,市环境监测站,颗粒物(PM10),103,155,151,8,33,110,91,91,91,5,13,9,11,0.8,0.9
2023-04-03T01:00:00,1587A,109.9991,40.5842,包头市,包头八中,颗粒物(PM10),88,126,119,18,33,111,95,95,95,9,16,10,12,0.8,0.6
2023-04-03T01:00:00,1588A,109.8538,40.6821,包头市,青山宾馆,颗粒物(PM10),100,150,163,18,34,110,75,75,75,10,12,6,9,0.2,0.4
2023-04-03T01:00:00,1589A,109.8642,40.6288,包头市,惠龙物流,颗粒物(PM10),108,166,150,21,34,102,91,91,91,6,14,5,8,0.5,0.6
2023-04-03T01:00:00,1590A,110.0377,40.5546,包头市,东河鸿龙湾,颗粒物(PM10),79,107,95,17,29,96,91,91,91,5,14,20,16,0.6,0.5
2023-04-03T01:00:00,1591A,110.0023,39.8129,鄂尔多斯市,综合楼,,25,2,73,2,22,111,79,79,79,8,16,12,9,0.4,0.6
2023-04-03T01:00:00,1592A,109.9486,39.8261,鄂尔多斯市,巴音孟克林场办事处,,26,2,65,2,28,110,83,83,83,6,13,6,8,0.6,0.8
2023-04-03T01:00:00,1593A,109.7736,39.5986,鄂尔多斯市,康泽苑,,26,9,66,2,23,108,81,81,81,7,12,8,9,0.4,0.6
2023-04-03T01:00:00,1594A,109.8119,39.5989,鄂尔多斯市,华泰汽车城,,24,7,60,9,32,111,75,75,75,12,12,12,12,0.4,0.6
2023-04-03T01:00:00,1595A,109.9734,39.7884,鄂尔多斯市,奥林花园,,26,9,63,7,26,109,83,83,83,6,15,5,7,0.8,1
2023-04-03T01:00:00,1597A,122.2703,40.7094,营口市,大庆路,细颗粒物(PM2.5),89,106,100,66,58,156,29,29,29,98,53,21,11,2.0,1
2023-04-03T01:00:00,1598A,122.2150,40.6511,营口市,镜湖西路,颗粒物(PM10),69,88,89,37,45,148,85,85,85,28,30,13,10,1.1,0.9
2023-04-03T01:00:00,1599A,122.1658,40.6789,营口市,西炮台,细颗粒物(PM2.5),68,84,90,49,54,167,60,60,60,64,47,11,8,0.7,0.6
2023-04-03T01:00:00,1600A,124.3303,40.0625,丹东市,江湾东路,细颗粒物(PM2.5),149,197,130,114,78,146,26,26,26,49,32,16,15,2.6,1.2
2023-04-03T01:00:00,1601A,124.4256,40.1503,丹东市,临江后街,细颗粒物(PM2.5),89,122,107,66,57,157,96,96,96,17,25,13,18,1.0,1
2023-04-03T01:00:00,1602A,124.3933,40.1461,丹东市,元宝山,细颗粒物(PM2.5),80,99,103,59,60,148,101,101,101,16,32,10,13,1.1,1.2
2023-04-03T01:00:00,1603A,124.3633,40.1092,丹东市,民主桥,颗粒物(PM10),81,111,110,56,57,150,77,77,77,33,40,12,12,1.0,1
2023-04-03T01:00:00,1604A,122.0303,41.1489,盘锦市,开发区,"颗粒物(PM10),细颗粒物(PM2.5)",59,68,70,42,44,154,79,79,79,54,33,9,9,0.5,0.5
2023-04-03T01:00:00,1605A,122.0485,41.0883,盘锦市,兴隆台,颗粒物(PM10),63,75,76,40,43,151,95,95,95,37,32,11,9,0.6,0.7
2023-04-03T01:00:00,1606A,121.8297,41.1028,盘锦市,新生街道,细颗粒物(PM2.5),75,65,56,55,42,149,63,63,63,45,36,7,8,0.6,0.6
2023-04-03T01:00:00,1607A,120.9092,40.7136,葫芦岛市,龙港区,颗粒物(PM10),54,58,57,23,34,126,96,96,96,25,23,10,11,0.6,0.6
2023-04-03T01:00:00,1608A,120.8392,40.7514,葫芦岛市,化工街,颗粒物(PM10),80,110,88,56,46,120,6,6,6,94,37,11,11,0.9,0.6
2023-04-03T01:00:00,1609A,120.8341,40.7073,葫芦岛市,新区,颗粒物(PM10),59,68,62,37,42,129,42,42,42,74,37,12,13,0.8,0.7
2023-04-03T01:00:00,1610A,120.8695,40.7677,葫芦岛市,东城区,颗粒物(PM10),74,97,74,48,44,114,19,19,19,93,51,12,12,1.0,0.7
2023-04-03T01:00:00,1611A,118.5819,24.9117,泉州市,涂山街,,36,25,38,13,24,151,114,114,114,9,21,8,11,0.4,0.6
2023-04-03T01:00:00,1612A,118.5972,24.8978,泉州市,津头埔,,33,27,40,18,28,152,105,105,105,16,27,9,11,0.5,0.7
2023-04-03T01:00:00,1613A,118.6663,24.9424,泉州市,万安,,35,28,37,21,32,145,112,112,112,11,24,10,12,0.5,0.7
2023-04-03T01:00:00,1614A,118.6117,24.9604,泉州市,清源山,,,,,,,,,,,,,,,,
2023-04-03T01:00:00,1616A,117.6795,36.229,济南市,技术学院,颗粒物(PM10),52,53,73,26,24,174,121,121,121,10,13,13,11,1.2,0.9
2023-04-03T01:00:00,1618A,118.3429,35.0532,临沂市,沂河小区,"颗粒物(PM10),细颗粒物(PM2.5)",67,83,74,48,39,151,91,91,91,16,28,8,14,0.2,0.5
2023-04-03T01:00:00,1619A,118.295,35.0583,临沂市,鲁南制药厂,细颗粒物(PM2.5),67,73,70,48,43,159,108,108,108,25,37,10,16,0.4,0.5
2023-04-03T01:00:00,1620A,118.2794,34.9976,临沂市,新光毛纺厂,颗粒物(PM10),63,75,73,43,36,161,118,118,118,15,26,7,11,0.4,0.5
2023-04-03T01:00:00,1621A,118.3956,35.0888,临沂市,河东保险公司,细颗粒物(PM2.5),69,68,73,50,43,159,102,102,102,22,40,8,15,0.5,1
2023-04-03T01:00:00,1622A,116.3032,37.4674,德州市,儿童乐园,细颗粒物(PM2.5),83,100,83,61,38,166,64,64,64,68,34,10,9,0.8,0.6
2023-04-03T01:00:00,1624A,116.2991,37.4451,德州市,监理站,颗粒物(PM10),80,110,90,56,44,161,75,75,75,57,34,13,13,0.7,0.5
2023-04-03T01:00:00,1625A,115.9848,36.4372,聊城市,区政府,颗粒物(PM10),78,105,92,52,38,156,106,106,106,27,25,40,17,0.9,0.8
2023-04-03T01:00:00,1628A,118.0062,37.3803,滨州市,市环保局,颗粒物(PM10),63,75,106,33,32,165,105,105,105,19,32,16,15,0.6,0.6
2023-04-03T01:00:00,1629A,118.0018,37.3617,滨州市,第二水厂,颗粒物(PM10),62,73,104,23,32,172,106,106,106,26,38,22,14,0.7,0.6
2023-04-03T01:00:00,1630A,117.9776,37.393,滨州市,北中新校,颗粒物(PM10),62,73,97,29,33,175,111,111,111,23,35,20,16,0.6,0.6
2023-04-03T01:00:00,1631A,118.0414,36.8103,淄博市,人民公园,颗粒物(PM10),60,70,74,23,32,157,110,110,110,20,31,11,12,0.4,0.6
2023-04-03T01:00:00,1633A,117.8525,36.4847,淄博市,双山,,40,38,49,19,18,161,128,128,128,12,17,10,10,0.2,0.3
2023-04-03T01:00:00,1634A,117.9592,36.6331,淄博市,气象站,,38,34,53,17,23,173,120,120,120,13,20,13,15,0.2,0.3
2023-04-03T01:00:00,1635A,118.3092,36.8194,淄博市,莆田园,,,,,,,,,,,,,,,,
2023-04-03T01:00:00,1637A,117.558,34.8438,枣庄市,市中区政府,颗粒物(PM10),71,92,99,51,45,178,96,96,96,38,39,50,30,0.5,0.5
2023-04-03T01:00:00,1638A,117.2852,34.7837,枣庄市,薛城环保局,"颗粒物(PM10),细颗粒物(PM2.5)",64,78,82,46,34,158,105,105,105,19,24,14,18,0.3,0.3
2023-04-03T01:00:00,1639A,117.5852,34.7745,枣庄市,峄城区政府,颗粒物(PM10),63,75,80,36,29,174,120,120,120,17,24,14,18,0.3,0.3
2023-04-03T01:00:00,1640A,117.7276,34.5578,枣庄市,台儿庄区环保局,颗粒物(PM10),58,66,80,29,31,153,100,100,100,25,32,12,18,0.8,0.7
2023-04-03T01:00:00,1641A,117.4518,35.0992,枣庄市,山亭区环保局,颗粒物(PM10),56,61,68,32,26,165,129,129,129,17,21,6,10,0.7,0.7
2023-04-03T01:00:00,1642A,121.2514,37.5639,烟台市,开发区,颗粒物(PM10),52,53,75,31,33,148,132,132,132,17,39,12,9,0.3,0.4
2023-04-03T01:00:00,1643A,121.3719,37.5433,烟台市,轴承厂,颗粒物(PM10),52,53,60,32,27,172,137,137,137,15,25,6,7,0.5,0.5
2023-04-03T01:00:00,1644A,121.3181,37.5436,烟台市,西郊化工站,颗粒物(PM10),53,56,80,27,33,170,155,155,155,12,36,7,14,0.4,0.6
2023-04-03T01:00:00,1645A,121.4478,37.4822,烟台市,莱山环保局,颗粒物(PM10),52,53,51,23,25,162,143,143,143,12,19,32,13,0.3,0.3
2023-04-03T01:00:00,1646A,121.2611,37.4967,烟台市,福山环保局,颗粒物(PM10),58,66,72,36,29,166,114,114,114,25,33,9,10,0.7,0.7
2023-04-03T01:00:00,1650A,119.1437,36.7023,潍坊市,环保局,细颗粒物(PM2.5),67,70,57,48,27,181,125,125,125,24,24,8,8,0.6,0.5
2023-04-03T01:00:00,1653A,116.6251,35.4302,济宁市,火炬城,细颗粒物(PM2.5),62,49,67,44,33,162,116,116,116,16,20,12,17,0.6,0.7
2023-04-03T01:00:00,1655A,116.5491,35.4042,济宁市,电化厂,颗粒物(PM10),64,77,67,41,44,158,110,110,110,17,15,8,13,0.7,0.6
2023-04-03T01:00:00,1656A,117.1437,36.1937,泰安市,监测站,细颗粒物(PM2.5),72,61,71,52,32,159,109,109,109,11,14,10,10,0.5,0.5
2023-04-03T01:00:00,1657A,117.0885,36.2017,泰安市,人口学校,颗粒物(PM10),59,68,78,40,27,179,131,131,131,9,11,10,10,0.5,0.5
2023-04-03T01:00:00,1658A,117.1089,36.1758,泰安市,电力学校,细颗粒物(PM2.5),65,66,69,47,32,172,110,110,110,15,16,13,13,0.4,0.4
2023-04-03T01:00:00,1659A,119.471,35.4209,日照市,监测站,颗粒物(PM10),56,61,63,34,32,156,140,140,140,20,48,4,6,0.3,0.4
2023-04-03T01:00:00,1660A,119.523,35.4216,日照市,市政府广场,颗粒物(PM10),63,75,55,34,24,148,131,131,131,16,32,6,6,0.7,0.6
2023-04-03T01:00:00,1661A,119.5587,35.4044,日照市,港务局,颗粒物(PM10),63,75,48,41,22,142,110,110,110,34,41,8,8,0.6,0.5
2023-04-03T01:00:00,1662A,122.1214,37.4236,威海市,华夏技校,"颗粒物(PM10),细颗粒物(PM2.5)",53,56,60,37,29,144,129,129,129,24,35,4,5,0.4,0.3
2023-04-03T01:00:00,1663A,122.0508,37.5236,威海市,山大分校,颗粒物(PM10),57,63,67,29,24,154,118,118,118,18,29,3,3,0.6,0.6
2023-04-03T01:00:00,1664A,122.1067,37.5072,威海市,市监测站,颗粒物(PM10),55,59,60,34,26,147,115,115,115,18,39,5,6,0.5,0.5
2023-04-03T01:00:00,1666A,118.6614,37.4309,东营市,市环保局,颗粒物(PM10),60,70,79,34,27,189,136,136,136,19,25,11,20,0.5,0.4
2023-04-03T01:00:00,1669A,113.5824,24.7733,韶关市,市八中,"颗粒物(PM10),细颗粒物(PM2.5)",53,56,43,37,32,23,5,5,5,24,19,11,11,1.4,1
2023-04-03T01:00:00,1671A,113.5917,24.7972,韶关市,园林处,颗粒物(PM10),52,54,44,27,28,21,3,3,3,17,16,15,11,1.2,1
2023-04-03T01:00:00,1672A,113.6735,24.7791,韶关市,韶关学院,细颗粒物(PM2.5),54,42,33,38,32,22,3,3,3,20,20,19,15,1.0,0.8
2023-04-03T01:00:00,1673A,113.5971,24.6863,韶关市,曲江监测站,颗粒物(PM10),54,57,49,35,36,15,5,5,5,30,22,11,18,1.4,1.3
2023-04-03T01:00:00,1674A,116.6794,23.3667,汕头市,金平子站,,26,15,29,8,19,121,82,82,82,16,17,6,6,0.6,0.7
2023-04-03T01:00:00,1675A,116.7244,23.3633,汕头市,龙湖子站,,27,17,28,8,18,124,86,86,86,17,19,4,4,0.5,0.6
2023-04-03T01:00:00,1676A,116.7258,23.2775,汕头市,濠江子站,,35,19,25,12,20,110,109,109,109,8,14,7,7,0.5,0.5
2023-04-03T01:00:00,1677A,116.7519,23.4714,汕头市,澄海子站,,30,18,32,13,23,128,94,94,94,22,22,9,9,0.3,0.4
2023-04-03T01:00:00,1678A,116.6092,23.2539,汕头市,潮阳子站,,30,17,31,7,17,117,95,95,95,10,14,6,7,0.4,0.4
2023-04-03T01:00:00,1680A,110.3539,21.2706,湛江市,湛江影剧院,,33,33,27,15,15,74,74,74,74,1,4,5,5,0.7,0.7
2023-04-03T01:00:00,1681A,110.3928,21.2228,湛江市,市环境监测站,,28,23,23,19,20,74,73,73,73,3,4,6,6,0.5,0.5
2023-04-03T01:00:00,1682A,110.4019,21.1997,湛江市,环保局宿舍,,24,24,25,14,16,80,76,76,76,4,5,4,4,0.5,0.5
2023-04-03T01:00:00,1683A,110.4111,21.2028,湛江市,霞山游泳场,,29,29,24,17,16,82,80,80,80,6,6,4,4,0.5,0.5
2023-04-03T01:00:00,1684A,110.3316,21.2679,湛江市,麻章区环保局,,33,33,27,15,16,77,77,77,77,5,8,5,5,0.4,0.4
2023-04-03T01:00:00,1685A,110.4558,21.2567,湛江市,坡头区环保局,,28,28,24,14,13,85,80,80,80,4,5,6,6,0.6,0.6
2023-04-03T01:00:00,1686A,111.0286,21.4688,茂名市,电白南海,,29,29,32,14,17,88,86,86,86,5,9,5,5,0.5,0.5
2023-04-03T01:00:00,1687A,110.9294,21.6533,茂名市,茂石化七小,,36,36,31,19,22,77,75,75,75,7,9,4,5,0.6,0.7
2023-04-03T01:00:00,1688A,110.9107,21.6687,茂名市,健康路,,27,27,26,11,12,77,74,74,74,6,8,5,5,0.6,0.7
2023-04-03T01:00:00,1689A,110.8592,21.6828,茂名市,高岭,,28,24,30,19,21,80,78,78,78,6,8,8,8,0.7,0.7
2023-04-03T01:00:00,1690A,116.1231,24.3284,梅州市,梅江月梅,细颗粒物(PM2.5),62,55,36,44,32,89,89,89,89,12,13,7,6,0.6,0.7
2023-04-03T01:00:00,1691A,116.0797,24.2719,梅州市,梅县新城,颗粒物(PM10),58,65,36,37,31,76,9,9,9,47,21,6,4,0.9,0.9
2023-04-03T01:00:00,1692A,116.1248,24.2654,梅州市,环境监控中心,细颗粒物(PM2.5),60,59,39,43,29,71,8,8,8,48,24,8,8,0.8,0.7
2023-04-03T01:00:00,1693A,115.3653,22.775,汕尾市,市环保局,,28,28,26,17,18,123,85,85,85,12,10,11,10,0.5,0.6
2023-04-03T01:00:00,1694A,115.3706,22.7898,汕尾市,市政府,,29,21,26,12,22,121,92,92,92,11,12,10,10,0.7,0.7
2023-04-03T01:00:00,1695A,115.3622,22.7925,汕尾市,新城中学,,35,35,29,16,19,120,93,93,93,9,9,8,7,0.7,0.8
2023-04-03T01:00:00,1696A,114.6778,23.7569,河源市,源西,细颗粒物(PM2.5),79,50,31,58,38,65,47,47,47,20,23,6,5,0.8,0.9
2023-04-03T01:00:00,1697A,114.6944,23.7586,河源市,东埔,细颗粒物(PM2.5),54,44,34,38,27,70,53,53,53,16,18,6,5,0.7,0.9
2023-04-03T01:00:00,1698A,114.6892,23.7233,河源市,老城,颗粒物(PM10),57,64,47,38,26,72,57,57,57,16,19,6,5,0.7,0.9
2023-04-03T01:00:00,1699A,111.9797,21.8593,阳江市,鸳鸯湖,,27,12,28,15,18,84,84,84,84,2,6,7,7,0.7,0.8
2023-04-03T01:00:00,1701A,111.9491,21.8658,阳江市,马南垌,,28,27,28,19,22,87,87,87,87,4,10,4,5,0.6,0.8
2023-04-03T01:00:00,1702A,113.0426,23.691,清远市,环保大楼,,42,31,28,29,24,35,28,28,28,21,28,4,4,0.9,1.3
2023-04-03T01:00:00,1703A,113.0208,23.7106,清远市,凤城街办,细颗粒物(PM2.5),54,52,44,38,32,19,19,19,19,22,30,6,6,0.7,1.2
2023-04-03T01:00:00,1705A,116.6367,23.6719,潮州市,西园路,,29,24,37,20,31,124,67,67,67,18,16,10,7,0.4,0.4
2023-04-03T01:00:00,1706A,116.6447,23.6706,潮州市,档案局,,22,3,38,15,33,132,70,70,70,15,15,16,10,0.5,0.6
2023-04-03T01:00:00,1708A,116.3701,23.5345,揭阳市,新兴,,25,21,43,17,36,139,71,71,71,20,23,11,12,0.5,0.7
2023-04-03T01:00:00,1709A,116.3264,23.5443,揭阳市,西马,,29,29,43,15,36,143,68,68,68,16,16,10,12,0.6,0.7
2023-04-03T01:00:00,1710A,116.3611,23.5626,揭阳市,东兴,,23,23,46,16,38,143,68,68,68,23,23,12,14,0.6,0.7
2023-04-03T01:00:00,1711A,116.4151,23.5294,揭阳市,渔湖,,25,19,40,17,28,138,73,73,73,12,14,11,13,0.6,0.7
2023-04-03T01:00:00,1712A,112.0392,22.9169,云浮市,新市府,,31,31,29,21,19,29,15,15,15,18,36,3,3,1.2,1.1
2023-04-03T01:00:00,1714A,112.0539,22.9539,云浮市,牧羊,,35,34,35,24,21,64,64,64,64,8,35,6,6,0.6,0.7
2023-04-03T01:00:00,1715A,102.575,24.3711,玉溪市,东风水库,,35,17,44,24,31,118,86,86,86,10,12,4,5,0.7,0.8
2023-04-03T01:00:00,1718A,115.4208,35.2464,菏泽市,气象局,颗粒物(PM10),62,73,90,35,38,151,119,119,119,30,24,16,10,0.4,0.5
2023-04-03T01:00:00,1719A,115.4747,35.2375,菏泽市,市政协,颗粒物(PM10),63,75,91,36,38,160,123,123,123,24,26,8,9,0.5,0.5
2023-04-03T01:00:00,1721A,113.3819,40.1097,大同市,果树场,,,,,,,,,,,,,,,,
2023-04-03T01:00:00,1723A,113.2994,40.0758,大同市,云冈宾馆,,24,11,72,8,37,128,75,75,75,8,24,7,10,0.3,0.5
2023-04-03T01:00:00,1724A,113.3444,40.0917,大同市,大同大学,,28,28,71,9,32,121,59,59,59,15,19,8,10,1.3,0.7
2023-04-03T01:00:00,1725A,113.2661,40.1269,大同市,安家小村,,24,13,63,13,31,126,76,76,76,9,18,6,6,0.1,0.4
2023-04-03T01:00:00,1726A,113.2711,40.0844,大同市,教育学院,,23,17,64,6,32,127,73,73,73,9,22,7,9,0.9,0.7
2023-04-03T01:00:00,1727A,113.1147,36.1547,长治市,清华站,细颗粒物(PM2.5),64,46,61,46,41,162,114,114,114,16,18,6,6,0.5,0.5
2023-04-03T01:00:00,1728A,113.1031,36.1989,长治市,监测站,细颗粒物(PM2.5),83,48,65,61,48,151,112,112,112,12,16,4,5,0.9,0.9
2023-04-03T01:00:00,1730A,113.0886,36.2125,长治市,审计局,细颗粒物(PM2.5),85,46,60,63,49,150,109,109,109,13,13,7,8,0.5,0.7
2023-04-03T01:00:00,1731A,113.0844,36.1856,长治市,长治八中,,50,50,67,34,35,152,116,116,116,9,9,3,4,0.6,0.6
2023-04-03T01:00:00,1733A,111.5531,36.0783,临汾市,临钢医院,细颗粒物(PM2.5),79,34,91,58,72,133,92,92,92,13,22,2,3,0.7,0.8
2023-04-03T01:00:00,1734A,111.5028,36.0714,临汾市,技工学校,细颗粒物(PM2.5),57,32,91,40,56,126,97,97,97,8,17,4,5,0.3,0.6
2023-04-03T01:00:00,1736A,111.5018,36.0855,临汾市,市委,细颗粒物(PM2.5),59,58,95,42,63,144,114,114,114,11,17,4,6,0.7,0.8
2023-04-03T01:00:00,1738A,113.5758,37.8572,阳泉市,市中心,细颗粒物(PM2.5),95,95,117,71,71,148,95,95,95,20,24,12,14,0.9,1
2023-04-03T01:00:00,1739A,113.4894,37.8731,阳泉市,赛鱼,细颗粒物(PM2.5),83,84,117,61,69,151,100,100,100,19,23,10,13,0.8,0.9
2023-04-03T01:00:00,1740A,113.5819,37.8486,阳泉市,南庄,细颗粒物(PM2.5),104,114,133,78,73,154,105,105,105,22,25,14,15,1.0,1
2023-04-03T01:00:00,1742A,113.5614,37.8703,阳泉市,平坦,细颗粒物(PM2.5),90,85,130,67,73,146,102,102,102,21,24,10,11,1.1,1
2023-04-03T01:00:00,1743A,113.5158,37.8392,阳泉市,大阳泉,细颗粒物(PM2.5),95,84,98,71,69,156,112,112,112,18,22,10,13,0.8,0.8
2023-04-03T01:00:00,1744A,118.9233,42.2816,赤峰市,松山一中,颗粒物(PM10),54,58,77,22,40,148,109,109,109,25,24,13,12,0.7,0.7
2023-04-03T01:00:00,1745A,118.9576,42.2728,赤峰市,哈达街,颗粒物(PM10),53,55,82,15,40,149,106,106,106,17,23,14,14,0.7,0.8
2023-04-03T01:00:00,1746A,118.8788,42.2554,赤峰市,天义路,,43,43,67,26,38,158,136,136,136,17,18,14,12,0.7,0.6
2023-04-03T01:00:00,1748A,123.044,41.1196,鞍山市,深沟寺,颗粒物(PM10),56,61,70,30,36,180,102,102,102,17,20,10,12,0.7,0.8
2023-04-03T01:00:00,1749A,123.011,41.0931,鞍山市,太阳城,颗粒物(PM10),55,59,79,23,36,175,110,110,110,17,22,11,13,0.7,0.7
2023-04-03T01:00:00,1750A,123.0485,41.1442,鞍山市,太平,颗粒物(PM10),59,68,82,30,38,151,95,95,95,25,33,11,15,0.9,1.1
2023-04-03T01:00:00,1751A,122.9642,41.0971,鞍山市,铁西三道街,颗粒物(PM10),104,158,112,66,50,171,22,22,22,92,52,12,10,1.6,1.2
2023-04-03T01:00:00,1752A,122.9341,41.0833,鞍山市,铁西工业园区,颗粒物(PM10),116,182,111,74,51,171,6,6,6,109,44,15,14,1.3,0.9
2023-04-03T01:00:00,1753A,123.022,41.0821,鞍山市,明达新区,颗粒物(PM10),60,70,84,24,35,176,121,121,121,20,27,9,10,0.7,0.6
2023-04-03T01:00:00,1754A,123.1289,41.0228,鞍山市,千山,,,,,,,,,,,,,,,,
2023-04-03T01:00:00,1755A,123.7977,41.8491,抚顺市,望花区,细颗粒物(PM2.5),124,133,135,94,76,184,79,79,79,39,37,46,21,0.8,0.8
2023-04-03T01:00:00,1756A,123.9161,41.8822,抚顺市,顺城区,细颗粒物(PM2.5),130,177,120,99,61,178,8,8,8,85,43,12,11,1.3,1
2023-04-03T01:00:00,1757A,124.0436,41.8611,抚顺市,东洲区,颗粒物(PM10),97,144,106,61,53,181,104,104,104,20,27,10,7,0.6,0.7
2023-04-03T01:00:00,1758A,123.9247,41.8642,抚顺市,新抚区,细颗粒物(PM2.5),155,190,123,118,76,177,11,11,11,80,38,12,14,0.9,0.8
2023-04-03T01:00:00,1759A,124.0972,41.8961,抚顺市,大伙房水库,细颗粒物(PM2.5),80,104,88,59,49,188,102,102,102,18,19,7,9,0.5,0.5
2023-04-03T01:00:00,1760A,123.7086,41.8391,抚顺市,沈抚新城,细颗粒物(PM2.5),135,137,134,103,75,195,66,66,66,52,42,37,41,0.9,1.1
2023-04-03T01:00:00,1761A,123.8275,41.3064,本溪市,大峪,颗粒物(PM10),73,95,90,34,35,146,54,54,54,67,48,6,10,0.7,0.7
2023-04-03T01:00:00,1762A,123.7567,41.3325,本溪市,溪湖,颗粒物(PM10),130,210,126,85,50,155,16,16,16,87,51,21,23,1.4,1.2
2023-04-03T01:00:00,1763A,123.7169,41.3094,本溪市,彩屯,颗粒物(PM10),83,115,118,48,54,150,68,68,68,40,44,18,27,1.4,1.8
2023-04-03T01:00:00,1764A,123.7669,41.2864,本溪市,东明,颗粒物(PM10),89,128,107,61,49,147,20,20,20,104,60,9,12,1.2,1.2
2023-04-03T01:00:00,1765A,123.7992,41.2664,本溪市,新立屯,颗粒物(PM10),60,69,71,27,30,145,47,47,47,70,52,7,10,0.5,0.7
2023-04-03T01:00:00,1766A,123.8142,41.3472,本溪市,威宁,颗粒物(PM10),108,165,118,67,49,134,42,42,42,51,47,8,9,0.9,0.8
2023-04-03T01:00:00,1767A,121.1115,41.0879,锦州市,南山,颗粒物(PM10),62,74,68,42,47,137,88,88,88,57,34,14,19,0.6,0.6
2023-04-03T01:00:00,1768A,121.0533,40.8434,锦州市,开发区,颗粒物(PM10),98,146,116,42,41,114,14,14,14,130,73,60,24,0.6,0.6
2023-04-03T01:00:00,1769A,121.1836,41.1119,锦州市,百股街道,颗粒物(PM10),56,61,64,34,42,164,108,108,108,35,31,17,15,0.7,0.8
2023-04-03T01:00:00,1770A,121.1178,41.1222,锦州市,天安街道,颗粒物(PM10),64,77,84,39,47,141,101,101,101,43,38,16,19,0.7,0.8
2023-04-03T01:00:00,1771A,121.1303,41.1386,锦州市,北湖公园,颗粒物(PM10),62,73,79,32,41,145,115,115,115,33,32,15,17,0.5,0.6
2023-04-03T01:00:00,1772A,126.54,43.8622,吉林市,哈达湾,颗粒物(PM10),62,73,65,38,35,164,81,81,81,32,26,8,7,0.8,0.7
2023-04-03T01:00:00,1773A,126.5844,43.8358,吉林市,东局子,颗粒物(PM10),60,70,66,33,30,157,69,69,69,28,30,6,7,0.8,0.7
2023-04-03T01:00:00,1774A,126.5052,43.8245,吉林市,电力学院,颗粒物(PM10),68,86,105,46,56,166,47,47,47,30,34,10,10,0.7,0.8
2023-04-03T01:00:00,1775A,126.6133,43.8972,吉林市,江北,颗粒物(PM10),75,99,86,54,46,149,25,25,25,66,42,11,12,1.0,0.9
2023-04-03T01:00:00,1776A,126.555,43.8306,吉林市,江南公园,,50,50,64,24,34,158,84,84,84,22,28,6,7,0.7,0.7
2023-04-03T01:00:00,1778A,126.7061,43.7133,吉林市,丰满,,,,,,,,,,,,,,,,
2023-04-03T01:00:00,1779A,123.9305,47.3636,齐齐哈尔市,安居小区,颗粒物(PM10),115,179,168,71,90,174,113,113,113,22,26,6,7,0.9,0.9
2023-04-03T01:00:00,1780A,123.9488,47.3386,齐齐哈尔市,中心广场,颗粒物(PM10),102,153,161,72,83,148,104,104,104,26,33,10,12,0.7,0.8
2023-04-03T01:00:00,1781A,123.9483,47.3227,齐齐哈尔市,农牧车辆厂,颗粒物(PM10),124,197,175,66,79,152,100,100,100,24,30,9,11,0.6,0.7
2023-04-03T01:00:00,1783A,123.945,47.2988,齐齐哈尔市,市环境监测站,细颗粒物(PM2.5),132,189,174,100,101,154,100,100,100,23,25,13,14,0.6,0.7
2023-04-03T01:00:00,1784A,129.61,44.561,牡丹江市,环保大楼,细颗粒物(PM2.5),199,177,150,149,117,164,26,26,26,67,47,10,7,1.4,1.1
2023-04-03T01:00:00,1785A,129.6115,44.5782,牡丹江市,文化广场,细颗粒物(PM2.5),294,303,180,244,122,148,26,26,26,89,65,15,9,2.2,1.5
2023-04-03T01:00:00,1786A,129.5904,44.5963,牡丹江市,第一医院,细颗粒物(PM2.5),265,240,155,215,118,160,16,16,16,57,45,6,6,1.7,1.2
2023-04-03T01:00:00,1787A,129.6364,44.6075,牡丹江市,机车工厂,细颗粒物(PM2.5),178,195,138,134,77,171,7,7,7,57,34,7,6,1.5,1
2023-04-03T01:00:00,1788A,129.6386,44.5462,牡丹江市,第一中学,细颗粒物(PM2.5),85,66,88,63,60,170,54,54,54,29,32,4,4,0.7,0.7
2023-04-03T01:00:00,1789A,124.81117,46.03138,大庆市,大同区,细颗粒物(PM2.5),115,151,296,87,199,176,74,74,74,24,55,6,17,0.8,1.6
2023-04-03T01:00:00,1790A,125.129,46.533,大庆市,龙凤区,细颗粒物(PM2.5),114,146,215,86,149,170,83,83,83,19,28,10,11,0.5,0.9
2023-04-03T01:00:00,1791A,124.902,46.408,大庆市,红岗区,细颗粒物(PM2.5),158,174,259,120,174,190,74,74,74,28,37,10,13,0.7,1
2023-04-03T01:00:00,1792A,125.153,46.586,大庆市,萨尔图区,细颗粒物(PM2.5),125,174,232,95,163,172,91,91,91,20,31,12,13,0.6,0.9
2023-04-03T01:00:00,1793A,124.9042,46.6215,大庆市,让胡路区,细颗粒物(PM2.5),192,244,214,144,156,191,83,83,83,30,33,11,12,0.9,1
2023-04-03T01:00:00,1794A,118.3606,31.3519,芜湖市,监测站,,36,26,48,11,24,176,113,113,113,23,30,7,8,0.4,0.6
2023-04-03T01:00:00,1795A,118.3714,31.4134,芜湖市,科创中心,颗粒物(PM10),51,52,54,13,29,177,120,120,120,20,29,6,7,0.5,0.8
2023-04-03T01:00:00,1796A,118.3673,31.3131,芜湖市,四水厂,,44,44,57,13,24,185,115,115,115,22,29,9,10,0.4,0.6
2023-04-03T01:00:00,1798A,118.5092,31.6837,马鞍山市,湖东路四小,,43,40,48,15,32,171,136,136,136,16,27,7,8,0.5,0.7
2023-04-03T01:00:00,1799A,118.5024,31.6449,马鞍山市,开发区,颗粒物(PM10),55,60,79,17,37,171,131,131,131,20,31,6,6,0.5,0.6
2023-04-03T01:00:00,1800A,118.5228,31.7231,马鞍山市,慈湖,,50,50,57,22,28,172,141,141,141,17,28,7,10,0.5,0.7
2023-04-03T01:00:00,1802A,118.6245,31.7241,马鞍山市,濮塘,颗粒物(PM10),52,53,58,28,33,163,142,142,142,16,23,5,6,0.9,1.1
2023-04-03T01:00:00,1803A,115.9872,29.6815,九江市,十里,,49,43,52,34,32,131,56,56,56,26,30,9,11,0.9,0.7
2023-04-03T01:00:00,1804A,115.9584,29.7046,九江市,茅山头,细颗粒物(PM2.5),67,48,51,48,33,126,40,40,40,62,40,12,12,0.8,0.8
2023-04-03T01:00:00,1805A,115.9877,29.7295,九江市,西园,,42,31,38,29,33,123,48,48,48,41,41,9,11,0.9,0.8
2023-04-03T01:00:00,1806A,116.0172,29.6547,九江市,五七二七厂,细颗粒物(PM2.5),63,47,43,45,30,133,50,50,50,21,20,8,9,0.7,0.6
2023-04-03T01:00:00,1808A,115.9114,29.6038,九江市,综合工业园,细颗粒物(PM2.5),53,37,46,37,32,130,29,29,29,48,39,10,11,0.8,0.8
2023-04-03T01:00:00,1809A,116.0721,29.7535,九江市,石化总厂,颗粒物(PM10),56,62,62,33,32,132,34,34,34,43,42,10,13,0.8,0.7
2023-04-03T01:00:00,1810A,115.9773,29.5698,九江市,庐山气象台,,26,8,23,8,22,120,83,83,83,5,6,8,8,0.3,0.4
2023-04-03T01:00:00,1812A,112.3931,34.6516,洛阳市,市委党校,细颗粒物(PM2.5),59,59,96,42,50,134,85,85,85,15,25,4,7,0.7,0.8
2023-04-03T01:00:00,1814A,112.4657,34.6871,洛阳市,豫西宾馆,细颗粒物(PM2.5),64,47,95,46,56,144,90,90,90,12,18,3,5,0.7,0.6
2023-04-03T01:00:00,1815A,112.494,34.6886,洛阳市,河南林校,细颗粒物(PM2.5),59,48,88,42,54,149,86,86,86,16,24,6,7,0.7,0.7
2023-04-03T01:00:00,1816A,112.3844,34.623,洛阳市,开发区管委会,细颗粒物(PM2.5),64,50,84,46,53,144,95,95,95,11,18,5,7,0.5,0.5
2023-04-03T01:00:00,1817A,112.4267,34.6258,洛阳市,市委新办公区,细颗粒物(PM2.5),77,52,88,56,65,141,89,89,89,13,22,3,6,0.7,0.7
2023-04-03T01:00:00,1818A,114.4839,36.0621,安阳市,棉研所,,,,,,,,,,,,,,,,
2023-04-03T01:00:00,1819A,114.3551,36.1017,安阳市,红庙街,颗粒物(PM10),60,70,75,37,47,179,125,125,125,16,19,11,12,0.4,0.5
2023-04-03T01:00:00,1820A,114.361,36.0681,安阳市,银杏小区,颗粒物(PM10),65,80,74,45,57,176,105,105,105,27,26,9,11,0.4,0.4
2023-04-03T01:00:00,1824A,114.3389,34.7781,开封市,肿瘤医院,细颗粒物(PM2.5),53,43,70,37,50,156,108,108,108,11,10,8,8,0.8,0.9
2023-04-03T01:00:00,1826A,114.2885,34.7965,开封市,世纪星幼儿园,颗粒物(PM10),51,51,67,31,44,152,93,93,93,16,12,6,7,0.4,0.5
2023-04-03T01:00:00,1828A,113.227,35.2125,焦作市,市环保局,细颗粒物(PM2.5),63,74,99,45,42,146,83,83,83,14,15,6,10,0.7,0.8
2023-04-03T01:00:00,1830A,113.1992,35.2590,焦作市,影视城,,,,,,,,,,,,,,,,
2023-04-03T01:00:00,1832A,113.3257,33.742,平顶山市,新华旅馆,细颗粒物(PM2.5),58,60,87,41,46,154,108,108,108,15,18,5,8,0.7,0.7
2023-04-03T01:00:00,1833A,113.2919,33.737,平顶山市,规划设计院,细颗粒物(PM2.5),64,59,81,46,56,155,110,110,110,14,17,5,7,0.7,0.7
2023-04-03T01:00:00,1834A,113.182,33.774,平顶山市,平顶山工学院,颗粒物(PM10),67,83,101,39,50,160,107,107,107,19,19,4,6,0.5,0.5
2023-04-03T01:00:00,1835A,111.1922,34.7752,三门峡市,市政府,,18,8,76,12,54,134,54,54,54,8,17,7,9,0.4,0.7
2023-04-03T01:00:00,1836A,111.1587,34.7942,三门峡市,开发区,,42,10,118,29,72,131,55,55,55,7,14,4,5,0.3,0.6
2023-04-03T01:00:00,1838A,111.143,34.7955,三门峡市,风景区,,,,,,,,,,,,,,,,
2023-04-03T01:00:00,1840A,111.2992,30.6981,宜昌市,白龙岗,,39,39,62,27,42,70,43,43,43,14,32,6,6,0.8,0.9
2023-04-03T01:00:00,1841A,111.3549,30.6465,宜昌市,伍家岗,,32,32,64,22,47,80,54,54,54,15,43,5,6,0.9,1
2023-04-03T01:00:00,1842A,111.2628,30.6961,宜昌市,点军区,,41,41,57,27,40,82,38,38,38,13,26,6,6,0.8,0.8
2023-04-03T01:00:00,1843A,111.3275,30.7819,宜昌市,夷陵区,,32,22,50,22,35,91,30,30,30,29,34,5,6,0.6,0.7
2023-04-03T01:00:00,1844A,112.2494,30.3197,荆州市,市图书馆,细颗粒物(PM2.5),58,50,61,41,43,109,65,65,65,20,26,5,14,0.9,0.9
2023-04-03T01:00:00,1845A,112.2008,30.3544,荆州市,市委党校,颗粒物(PM10),53,56,64,34,43,124,58,58,58,19,30,5,18,0.9,0.9
2023-04-03T01:00:00,1847A,113.1094,29.3578,岳阳市,南湖风景区,,42,42,66,17,34,92,60,60,60,10,20,10,10,0.9,0.9
2023-04-03T01:00:00,1848A,113.1493,29.4251,岳阳市,城陵矶,,28,25,49,19,30,112,70,70,70,7,33,3,5,0.7,0.8
2023-04-03T01:00:00,1849A,113.1497,29.3575,岳阳市,开发区,,23,23,40,11,28,93,63,63,63,11,20,7,9,0.7,0.7
2023-04-03T01:00:00,1850A,113.2621,29.4758,岳阳市,云溪区,,32,32,39,17,25,113,67,67,67,14,18,7,15,0.8,0.8
2023-04-03T01:00:00,1851A,112.9943,29.4402,岳阳市,君山区,,35,25,47,24,36,101,50,50,50,13,34,12,11,0.9,0.9
2023-04-03T01:00:00,1852A,113.2117,29.355,岳阳市,金凤水库,,29,24,43,20,27,96,53,53,53,19,22,1,2,0.2,0.2
2023-04-03T01:00:00,1854A,111.6975,28.9703,常德市,市二中,细颗粒物(PM2.5),87,87,52,64,38,110,41,41,41,11,18,6,10,0.5,0.6
2023-04-03T01:00:00,1857A,111.7158,29.1456,常德市,白鹤山,,48,47,51,33,34,122,52,52,52,7,10,7,10,0.5,0.5
2023-04-03T01:00:00,1858A,110.5319,29.1217,张家界市,永定新区,,45,40,56,31,37,95,55,55,55,15,19,3,5,0.5,0.5
2023-04-03T01:00:00,1859A,110.4697,29.1242,张家界市,电业局,,50,41,52,35,38,118,58,58,58,12,19,6,8,0.6,0.6
2023-04-03T01:00:00,1860A,110.5594,29.3547,张家界市,未央路,,50,28,44,35,32,90,44,44,44,8,12,6,6,0.6,0.5
2023-04-03T01:00:00,1861A,110.4417,29.315,张家界市,袁家界,,,,32,,25,140,73,73,73,7,8,5,6,0.7,0.7
2023-04-03T01:00:00,1862A,110.4144,25.3167,桂林市,电子科大尧山校区,,21,16,22,13,22,68,67,67,67,6,9,2,3,0.5,0.6
2023-04-03T01:00:00,1863A,110.2819,25.2697,桂林市,监测站,,18,18,42,10,29,48,48,48,48,6,20,5,10,0.8,1.1
2023-04-03T01:00:00,1864A,110.3089,25.2708,桂林市,龙隐路小学,,25,12,42,17,36,39,39,39,39,9,21,6,13,0.8,1
2023-04-03T01:00:00,1865A,110.2869,25.2178,桂林市,八中,,15,9,25,10,17,48,44,44,44,6,13,4,5,0.6,0.8
2023-04-03T01:00:00,1866A,109.2262,21.588,北海市,牛尾岭水库,,23,22,28,16,18,68,55,55,55,3,5,6,6,0.5,0.6
2023-04-03T01:00:00,1867A,109.1436,21.4086,北海市,海滩公园,,30,30,34,12,14,84,57,57,57,5,6,1,1,0.9,0.8
2023-04-03T01:00:00,1868A,109.0981,21.4661,北海市,新市环保局,,26,26,28,12,16,80,53,53,53,5,7,1,2,0.5,0.5
2023-04-03T01:00:00,1869A,109.1778,21.5233,北海市,北海工业园,,24,24,38,15,19,83,57,57,57,4,5,4,4,0.6,0.6
2023-04-03T01:00:00,1870A,109.4856,24.3895,柳州市,柳东小学,,,37,38,,54,61,61,61,61,5,13,4,8,0.4,0.6
2023-04-03T01:00:00,1871A,109.4157,24.3277,柳州市,环保监测站,,38,38,30,26,22,44,44,44,44,7,16,4,4,0.8,1
2023-04-03T01:00:00,1872A,109.389,24.341,柳州市,河西水厂,颗粒物(PM10),51,51,28,21,19,39,32,32,32,14,19,5,6,0.7,0.9
2023-04-03T01:00:00,1873A,109.4311,24.2921,柳州市,市四中,,42,42,39,26,22,47,47,47,47,8,16,6,6,0.6,0.9
2023-04-03T01:00:00,1874A,109.4006,24.3631,柳州市,市九中,,49,43,36,34,26,42,41,41,41,11,19,5,6,0.7,0.9
2023-04-03T01:00:00,1875A,109.4958,24.3134,柳州市,古亭山,,40,38,41,28,27,56,56,56,56,5,15,2,2,0.6,0.8
2023-04-03T01:00:00,1876A,109.5078,18.2489,三亚市,河东子站,,23,20,24,16,16,71,48,48,48,5,5,2,2,0.6,0.6
2023-04-03T01:00:00,1877A,109.4964,18.2681,三亚市,河西子站,,19,19,23,13,15,71,39,39,39,11,5,2,2,0.4,0.5
2023-04-03T01:00:00,1878A,104.7778,31.4741,绵阳市,富乐山,,23,12,45,14,33,97,72,72,72,3,11,3,4,0.4,0.5
2023-04-03T01:00:00,1879A,104.7563,31.4535,绵阳市,市人大,,20,15,55,9,35,87,63,63,63,9,21,5,7,0.5,0.6
2023-04-03T01:00:00,1880A,104.6697,31.4668,绵阳市,高新区自来水公司,,22,0,48,5,24,103,69,69,69,4,13,4,5,0.5,0.6
2023-04-03T01:00:00,1881A,104.7287,31.5075,绵阳市,三水厂,,22,16,58,9,39,99,69,69,69,8,19,4,4,0.4,0.6
2023-04-03T01:00:00,1882A,104.563,28.793,宜宾市,石马中学,细颗粒物(PM2.5),80,85,72,59,51,154,114,114,114,15,23,7,9,0.9,0.8
2023-04-03T01:00:00,1883A,104.6201,28.7728,宜宾市,市委,细颗粒物(PM2.5),97,104,87,72,55,150,91,91,91,27,33,10,11,0.8,0.7
2023-04-03T01:00:00,1884A,104.6055,28.793,宜宾市,宜宾四中,细颗粒物(PM2.5),102,100,84,76,59,152,109,109,109,25,32,8,11,0.6,0.6
2023-04-03T01:00:00,1885A,104.639,28.7562,宜宾市,市政府,细颗粒物(PM2.5),103,97,88,77,59,167,118,118,118,25,38,7,8,0.7,0.7
2023-04-03T01:00:00,1886A,104.5742,28.7199,宜宾市,黄金嘴,细颗粒物(PM2.5),92,97,81,68,53,158,118,118,118,19,30,8,8,0.6,0.6
2023-04-03T01:00:00,1888A,101.6891,26.571,攀枝花市,弄弄坪,,28,13,46,13,20,109,89,89,89,10,18,8,22,0.5,1.6
2023-04-03T01:00:00,1889A,101.5769,26.5928,攀枝花市,河门口,,30,18,36,10,18,122,95,95,95,9,12,8,11,0.6,0.7
2023-04-03T01:00:00,1890A,101.7169,26.585,攀枝花市,炳草岗,,26,21,33,9,15,117,83,83,83,11,14,9,10,0.5,0.7
2023-04-03T01:00:00,1891A,101.7369,26.5008,攀枝花市,仁和,,30,21,26,10,16,122,94,94,94,6,8,9,8,0.5,0.5
2023-04-03T01:00:00,1893A,105.4324,28.9634,泸州市,九狮山,,43,43,38,30,27,152,54,54,54,17,18,10,13,0.5,0.6
2023-04-03T01:00:00,1894A,105.4427,28.9063,泸州市,小市上码头,"颗粒物(PM10),细颗粒物(PM2.5)",63,76,82,45,48,140,73,73,73,18,25,11,18,1.0,1
2023-04-03T01:00:00,1895A,105.4241,28.8573,泸州市,兰田宪桥,"颗粒物(PM10),细颗粒物(PM2.5)",68,85,84,49,56,148,79,79,79,12,20,24,15,0.8,0.9
2023-04-03T01:00:00,1896A,105.4379,28.8833,泸州市,市环监站,颗粒物(PM10),61,71,74,36,44,130,78,78,78,17,28,6,16,0.7,0.7
2023-04-03T01:00:00,1901A,104.4239,31.1208,德阳市,东山公园,,18,15,55,10,44,109,57,57,57,14,19,1,2,0.6,0.6
2023-04-03T01:00:00,1902A,104.3826,31.1317,德阳市,西小区,,23,23,57,10,45,110,56,56,56,12,17,1,2,0.5,0.6
2023-04-03T01:00:00,1904A,104.3553,31.1091,德阳市,耐火材料厂,,17,7,47,8,41,120,52,52,52,14,13,1,3,0.6,0.6
2023-04-03T01:00:00,1905A,106.056,30.8064,南充市,西山风景区,,29,29,44,18,33,129,57,57,57,11,20,3,6,0.7,0.7
2023-04-03T01:00:00,1906A,106.0789,30.8023,南充市,南充市委,,36,36,62,16,32,119,52,52,52,13,27,9,11,0.6,0.6
2023-04-03T01:00:00,1907A,106.1031,30.8217,南充市,南充炼油厂,,45,45,58,18,31,120,56,56,56,11,18,8,10,0.6,0.6
2023-04-03T01:00:00,1908A,106.1064,30.7856,南充市,高坪区监测站,,35,2,52,24,33,122,56,56,56,16,24,9,10,0.5,0.6
2023-04-03T01:00:00,1909A,106.0642,30.7636,南充市,嘉陵区环保局,,28,24,51,19,33,120,54,54,54,13,24,9,11,0.7,0.7
2023-04-03T01:00:00,1910A,106.1087,30.8388,南充市,市环境监测站,,28,23,61,19,40,116,52,52,52,17,23,8,10,0.5,0.5
2023-04-03T01:00:00,1911A,106.9222,27.6869,遵义市,丁字口,细颗粒物(PM2.5),52,39,38,36,28,140,51,51,51,27,22,14,15,1.3,1.2
2023-04-03T01:00:00,1912A,106.9242,27.7019,遵义市,凤凰山,颗粒物(PM10),53,55,47,33,30,153,84,84,84,17,13,20,16,0.9,0.8
2023-04-03T01:00:00,1913A,106.8906,27.6486,遵义市,忠庄,"颗粒物(PM10),细颗粒物(PM2.5)",52,53,50,36,30,139,63,63,63,17,16,6,6,0.9,0.7
2023-04-03T01:00:00,1914A,106.9231,27.6506,遵义市,舟水桥,颗粒物(PM10),51,52,48,29,30,142,44,44,44,22,18,7,7,0.9,0.8
2023-04-03T01:00:00,1915A,106.9178,27.72,遵义市,干田坝,颗粒物(PM10),53,56,48,33,28,149,49,49,49,22,15,8,9,0.7,0.6
2023-04-03T01:00:00,1916A,103.7897,25.5035,曲靖市,环境监测站,,28,23,50,8,17,110,88,88,88,7,8,7,7,0.4,0.4
2023-04-03T01:00:00,1917A,103.8,25.5364,曲靖市,烟厂办公区,,28,18,43,16,18,118,89,89,89,14,9,5,4,0.6,0.6
2023-04-03T01:00:00,1918A,108.7197,34.3956,咸阳市,气象站,,34,34,72,9,38,106,53,53,53,6,13,1,3,0.5,0.6
2023-04-03T01:00:00,1919A,108.673,34.3155,咸阳市,实验中学,,20,13,91,14,38,125,49,49,49,16,17,4,5,0.6,0.7
2023-04-03T01:00:00,1920A,108.7233,34.3617,咸阳市,师范学院,,19,7,89,8,37,113,59,59,59,7,14,5,6,0.4,0.6
2023-04-03T01:00:00,1922A,109.0656,35.0994,铜川市,党校,,15,3,52,1,26,120,46,46,46,13,13,8,10,0.7,0.9
2023-04-03T01:00:00,1923A,109.0697,35.0697,铜川市,王益区政府,,17,2,44,6,29,117,53,53,53,7,11,9,7,0.3,0.5
2023-04-03T01:00:00,1924A,108.9344,34.9058,铜川市,新区管委会,,17,8,51,2,26,123,53,53,53,14,18,6,8,0.4,0.5
2023-04-03T01:00:00,1926A,109.4131,36.6275,延安市,枣园,,,,53,6,29,44,30,30,30,16,20,7,7,0.6,0.8
2023-04-03T01:00:00,1927A,109.4761,36.6028,延安市,延大医附院,,,,53,3,40,112,51,51,51,10,14,4,5,0.5,0.7
2023-04-03T01:00:00,1929A,109.5056,36.6106,延安市,百米大道,,15,3,60,6,36,96,47,47,47,14,23,9,10,0.5,0.8
2023-04-03T01:00:00,1930A,107.185,34.3063,宝鸡市,庙沟村,,22,9,71,14,34,91,70,70,70,9,14,6,7,0.3,0.4
2023-04-03T01:00:00,1931A,107.0708,34.3017,宝鸡市,竹园沟,,19,17,88,11,44,83,58,58,58,10,13,5,5,0.3,0.4
2023-04-03T01:00:00,1932A,107.1906,34.3672,宝鸡市,三陆医院,,21,21,115,10,54,74,34,34,34,33,36,6,9,0.5,0.6
2023-04-03T01:00:00,1933A,107.1431,34.3547,宝鸡市,监测站,,19,10,99,7,47,74,59,59,59,13,25,4,5,0.3,0.5
2023-04-03T01:00:00,1934A,107.1186,34.3739,宝鸡市,技工学校,,30,14,101,21,61,77,43,43,43,12,20,4,6,0.4,0.5
2023-04-03T01:00:00,1935A,107.3906,34.3528,宝鸡市,陈仓区环保局家属楼,,21,3,99,8,46,73,66,66,66,15,29,5,8,0.4,0.6
2023-04-03T01:00:00,1936A,107.2058,34.3497,宝鸡市,文理学院,,21,21,103,12,48,80,52,52,52,22,30,7,9,0.2,0.4
2023-04-03T01:00:00,1937A,107.2386,34.3622,宝鸡市,三迪小学,,23,23,111,12,50,72,42,42,42,28,37,8,10,0.4,0.5
2023-04-03T01:00:00,1938A,109.5293,34.5101,渭南市,农科所,,19,7,66,9,38,127,58,58,58,14,21,8,8,0.7,0.9
2023-04-03T01:00:00,1939A,109.4974,34.4877,渭南市,日报社,,17,7,67,10,40,126,53,53,53,18,24,12,11,0.3,0.5
2023-04-03T01:00:00,1940A,109.4636,34.493,渭南市,体育馆,,19,5,70,10,44,130,59,59,59,15,23,6,7,0.4,0.6
2023-04-03T01:00:00,1941A,109.4259,34.5023,渭南市,高新一小,,23,23,83,8,43,130,60,60,60,12,16,7,9,0.2,0.5
2023-04-03T01:00:00,1943A,102.1725,38.5339,金昌市,新川苑,颗粒物(PM10),68,86,107,3,14,101,86,86,86,11,10,9,12,0.5,0.6
2023-04-03T01:00:00,1944A,102.1692,38.5167,金昌市,天庆家园,颗粒物(PM10),61,71,89,10,15,104,88,88,88,11,10,7,11,0.5,0.5
2023-04-03T01:00:00,1945A,98.2908,39.7711,嘉峪关市,气象局,颗粒物(PM10),93,136,156,22,24,103,69,69,69,22,10,3,6,0.1,0.1
2023-04-03T01:00:00,1947A,106.3394,38.817,石嘴山市,沙湖旅游区,颗粒物(PM10),77,104,360,28,75,104,63,63,63,17,43,14,14,0.5,0.4
2023-04-03T01:00:00,1948A,106.3668,39.0145,石嘴山市,大武口朝阳西街,颗粒物(PM10),72,93,320,24,61,109,44,44,44,26,7,31,9,0.4,0.3
2023-04-03T01:00:00,1949A,106.7704,39.2282,石嘴山市,惠农南大街,颗粒物(PM10),83,115,312,28,148,106,29,29,29,47,23,23,17,0.8,0.5
2023-04-03T01:00:00,1950A,106.7099,39.1325,石嘴山市,红果子镇惠新街,颗粒物(PM10),72,94,579,22,109,101,38,38,38,31,14,29,16,0.6,0.7
2023-04-03T01:00:00,1951A,84.895,45.6094,克拉玛依市,长征新村,,34,34,26,2,5,102,84,84,84,2,4,6,6,0.1,0.2
2023-04-03T01:00:00,1952A,84.8988,45.5893,克拉玛依市,南林小区,,32,32,29,17,11,101,82,82,82,6,6,3,3,0.4,0.4
2023-04-03T01:00:00,1954A,84.905,44.3396,克拉玛依市,独山子区,,34,34,117,11,22,105,82,82,82,6,5,5,5,0.3,0.3
2023-04-03T01:00:00,1955A,85.6979,46.098,克拉玛依市,乌尔禾区商贸楼,,29,19,26,11,6,98,91,91,91,3,4,6,8,0.3,0.3
2023-04-03T01:00:00,1956A,86.1472,41.7538,巴音郭楞州,孔雀公园,颗粒物(PM10),500,853,979,191,210,99,85,85,85,7,9,5,3,0.3,0.3
2023-04-03T01:00:00,1957A,86.1972,41.7166,巴音郭楞州,棉纺厂,颗粒物(PM10),500,957,1211,254,242,97,82,82,82,8,9,4,3,0.2,0.2
2023-04-03T01:00:00,1958A,86.2357,41.7173,巴音郭楞州,经济开发区,颗粒物(PM10),500,987,1100,239,210,107,95,95,95,2,6,5,5,0.2,0.2
2023-04-03T01:00:00,1961A,117.532,36.6868,济南市,东山小学,颗粒物(PM10),52,54,63,20,19,178,131,131,131,13,21,4,5,0.5,0.7
2023-04-03T01:00:00,1966A,120.0405,35.8735,青岛市,黄岛区4号,颗粒物(PM10),64,78,51,36,22,151,151,151,151,21,42,8,8,0.6,0.5
2023-04-03T01:00:00,1982A,122.0693,37.2174,威海市,文登开发区,颗粒物(PM10),70,90,74,48,34,162,57,57,57,38,25,6,5,0.4,0.3
2023-04-03T01:00:00,2031A,113.1817,27.9958,株洲市,云田中学,,39,29,39,27,31,118,50,50,50,11,13,8,10,0.7,0.7
2023-04-03T01:00:00,2054A,114.1099,32.1059,信阳市,平桥分局,细颗粒物(PM2.5),62,35,88,44,62,158,89,89,89,11,23,9,11,0.6,0.6
2023-04-03T01:00:00,2064A,113.9956,32.1271,信阳市,南湾水厂,细颗粒物(PM2.5),64,52,89,46,57,169,86,86,86,10,17,8,10,0.8,0.8
2023-04-03T01:00:00,2065A,114.0775,32.1195,信阳市,市酿酒公司,,42,39,86,29,59,165,86,86,86,14,27,9,11,0.7,0.7
2023-04-03T01:00:00,2066A,114.0609,32.1399,信阳市,审计局,细颗粒物(PM2.5),62,42,85,44,71,162,84,84,84,18,25,8,9,0.8,0.8
2023-04-03T01:00:00,2067A,114.6613,33.6128,周口市,市环境监测站,细颗粒物(PM2.5),75,54,87,55,34,158,126,126,126,12,18,10,11,0.7,0.7
2023-04-03T01:00:00,2068A,114.6758,33.6347,周口市,周口师范,细颗粒物(PM2.5),64,49,69,46,48,154,115,115,115,17,15,7,10,0.8,0.8
2023-04-03T01:00:00,2069A,114.6546,33.5979,周口市,市运管处,细颗粒物(PM2.5),64,53,80,46,33,159,125,125,125,13,14,9,11,0.6,0.6
2023-04-03T01:00:00,2070A,114.6369,33.6406,周口市,川汇区环保局,细颗粒物(PM2.5),64,56,66,46,49,150,120,120,120,14,14,10,11,0.9,0.9
2023-04-03T01:00:00,2075A,117.6336,24.4674,漳州市,九湖,,,,,,,,,,,,,,,,
2023-04-03T01:00:00,2160A,112.85,35.5051,晋城市,自来水公司,,42,35,65,19,37,176,133,133,133,15,18,11,13,0.5,0.6
2023-04-03T01:00:00,2161A,112.8318,35.4936,晋城市,白云商贸,颗粒物(PM10),52,54,80,22,35,170,128,128,128,12,16,4,6,0.7,0.8
2023-04-03T01:00:00,2162A,112.8508,35.4887,晋城市,市环保局,,45,45,82,27,41,173,130,130,130,11,14,8,10,0.6,0.7
2023-04-03T01:00:00,2163A,112.8676,35.4897,晋城市,技术学院,,48,48,71,29,45,163,123,123,123,12,14,5,7,0.2,0.4
2023-04-03T01:00:00,2165A,112.8453,35.546,晋城市,白马寺,,,,,,,,,,,,,,,,
2023-04-03T01:00:00,2166A,112.4397,39.3522,朔州市,平朔,,19,5,61,8,53,129,59,59,59,11,18,4,5,0.4,0.6
2023-04-03T01:00:00,2167A,112.4575,39.3617,朔州市,朔唯,,20,14,70,7,56,136,64,64,64,12,25,6,8,0.3,0.6
2023-04-03T01:00:00,2168A,112.4258,39.3197,朔州市,区政府,,,,78,9,46,132,64,64,64,7,14,4,4,0.5,0.8
2023-04-03T01:00:00,2169A,112.4072,39.3278,朔州市,市环保局,,22,16,71,6,50,127,68,68,68,11,17,4,4,0.5,0.8
2023-04-03T01:00:00,2170A,112.4272,39.3681,朔州市,市二中,,19,12,78,7,50,140,60,60,60,9,14,4,4,0.4,0.5
2023-04-03T01:00:00,2171A,112.7532,37.6945,晋中市,锦纶小区,,,,,,,,,,,,,,,,
2023-04-03T01:00:00,2173A,112.7249,37.7067,晋中市,南都小区,细颗粒物(PM2.5),69,61,96,50,53,154,120,120,120,7,13,8,9,0.5,0.6
2023-04-03T01:00:00,2174A,112.6991,37.6982,晋中市,榆次区政府,细颗粒物(PM2.5),62,71,99,44,46,145,111,111,111,10,20,7,7,0.5,0.6
2023-04-03T01:00:00,2175A,110.9956,35.0147,运城市,运城中学,,38,38,88,21,48,140,53,53,53,5,7,5,6,0.2,0.4
2023-04-03T01:00:00,2178A,110.9686,35.0303,运城市,地区技校,,34,34,89,14,44,150,56,56,56,8,11,3,5,0.3,0.6
2023-04-03T01:00:00,2179A,111.0414,35.1147,运城市,空港新区,,23,0,82,16,47,137,45,45,45,13,11,5,6,0.4,0.6
2023-04-03T01:00:00,2181A,112.7383,38.4519,忻州市,开发区,细颗粒物(PM2.5),58,55,88,41,68,110,98,98,98,13,24,5,6,0.5,0.6
2023-04-03T01:00:00,2182A,112.7003,38.4928,忻州市,会展中心,细颗粒物(PM2.5),72,53,91,52,68,100,84,84,84,17,25,4,5,0.7,0.7
2023-04-03T01:00:00,2183A,111.1406,37.5211,吕梁市,环保局,,10,5,75,6,30,117,30,30,30,16,27,9,10,0.6,0.7
2023-04-03T01:00:00,2185A,111.1297,37.5136,吕梁市,自来水公司,,10,7,73,2,29,126,31,31,31,18,26,11,13,0.6,0.7
2023-04-03T01:00:00,2187A,106.8174,39.6973,乌海市,市林业局,颗粒物(PM10),54,58,493,21,86,103,80,80,80,6,8,8,8,0.4,0.4
2023-04-03T01:00:00,2188A,106.7907,39.6667,乌海市,中海勃湾学校,颗粒物(PM10),67,83,593,24,93,107,81,81,81,9,10,8,8,0.3,0.3
2023-04-03T01:00:00,2191A,122.2532,43.6801,通辽市,艺术职业学校,颗粒物(PM10),68,85,123,23,39,183,118,118,118,32,25,21,15,0.2,0.4
2023-04-03T01:00:00,2192A,119.7594,49.2261,呼伦贝尔市,区环保局,,42,42,70,25,33,102,55,55,55,2,12,4,6,0.4,0.5
2023-04-03T01:00:00,2195A,107.4212,40.761,巴彦淖尔市,附二中,颗粒物(PM10),79,108,511,15,93,94,65,65,65,8,9,3,3,0.5,0.4
2023-04-03T01:00:00,2196A,107.37,40.7372,巴彦淖尔市,市环保大楼,颗粒物(PM10),71,92,476,24,101,91,68,68,68,8,8,4,4,0.6,0.6
2023-04-03T01:00:00,2197A,113.1306,40.9923,乌兰察布市,集宁新区,颗粒物(PM10),76,101,82,24,38,128,75,75,75,5,18,7,9,0.4,0.5
2023-04-03T01:00:00,2200A,122.0392,46.0656,兴安盟,胜华新制药厂,颗粒物(PM10),80,110,237,45,148,168,94,94,94,26,41,16,9,0.5,1
2023-04-03T01:00:00,2201A,121.9504,46.0741,兴安盟,科右前旗环保局,,,131,278,33,188,120,98,98,98,18,40,5,9,,1.5
2023-04-03T01:00:00,2202A,116.1042,43.9317,锡林郭勒盟,市环保监测站,,20,18,73,14,34,127,59,59,59,3,5,6,7,0.2,0.4
2023-04-03T01:00:00,2203A,116.0781,43.9311,锡林郭勒盟,市政府,,26,26,79,5,30,141,60,60,60,4,10,8,7,0.2,0.3
2023-04-03T01:00:00,2204A,105.6467,38.8363,阿拉善盟,西城区西花园,颗粒物(PM10),53,56,262,22,58,104,82,82,82,10,8,10,10,0.6,0.5
2023-04-03T01:00:00,2205A,105.6985,38.8411,阿拉善盟,蒙二幼,颗粒物(PM10),60,69,400,34,106,108,88,88,88,7,7,9,9,0.5,0.5
2023-04-03T01:00:00,2206A,105.724,38.8516,阿拉善盟,环保局新楼,颗粒物(PM10),56,61,401,30,100,114,87,87,87,8,7,9,7,0.4,0.4
2023-04-03T01:00:00,2207A,121.6094,41.998,阜新市,工业园区,颗粒物(PM10),69,88,141,38,47,176,129,129,129,18,18,26,19,0.8,0.7
2023-04-03T01:00:00,2208A,121.6697,42.0279,阜新市,长青街,颗粒物(PM10),66,82,90,35,39,171,138,138,138,18,19,16,19,0.6,0.7
2023-04-03T01:00:00,2209A,121.6673,42.0705,阜新市,农业园区,细颗粒物(PM2.5),57,56,90,40,47,150,128,128,128,18,22,14,18,0.6,0.7
2023-04-03T01:00:00,2210A,121.6717,42.0224,阜新市,东苑,细颗粒物(PM2.5),68,82,102,49,35,170,136,136,136,22,22,32,19,0.8,0.8
2023-04-03T01:00:00,2211A,121.6506,42.0498,阜新市,玉龙新城,颗粒物(PM10),52,54,93,33,56,166,130,130,130,17,15,19,17,0.6,0.8
2023-04-03T01:00:00,2212A,123.2,41.1953,辽阳市,宏伟区,颗粒物(PM10),54,57,65,20,29,154,126,126,126,12,23,11,13,0.6,0.8
2023-04-03T01:00:00,2213A,123.1683,41.2495,辽阳市,新华园,颗粒物(PM10),90,130,91,57,42,173,46,46,46,67,36,14,15,1.2,0.9
2023-04-03T01:00:00,2214A,123.2354,41.2639,辽阳市,滨河路,,46,46,76,28,43,158,112,112,112,16,27,6,10,0.5,0.6
2023-04-03T01:00:00,2215A,123.149,41.2991,辽阳市,铁西工业园,细颗粒物(PM2.5),183,276,122,138,89,163,41,41,41,57,43,15,14,1.9,1.1
2023-04-03T01:00:00,2216A,123.8139,42.3022,铁岭市,汇工街西,颗粒物(PM10),66,81,94,44,49,189,113,113,113,30,31,13,21,0.7,0.9
2023-04-03T01:00:00,2217A,123.8649,42.2923,铁岭市,水上乐园,细颗粒物(PM2.5),83,108,88,61,53,181,78,78,78,63,32,11,13,0.7,0.7
2023-04-03T01:00:00,2218A,123.8486,42.2867,铁岭市,银州路东段,颗粒物(PM10),81,111,113,53,46,175,107,107,107,32,32,12,15,0.6,0.7
2023-04-03T01:00:00,2219A,123.7153,42.2217,铁岭市,金沙江路北,细颗粒物(PM2.5),94,126,99,70,55,171,64,64,64,56,41,25,18,1.2,1
2023-04-03T01:00:00,2220A,120.4318,41.5881,朝阳市,西梁,颗粒物(PM10),64,77,68,33,32,155,151,151,151,12,19,12,14,0.7,0.9
2023-04-03T01:00:00,2221A,120.4521,41.5646,朝阳市,河畔小区,臭氧1小时,78,57,61,37,31,186,182,182,182,14,15,10,10,0.6,0.7
2023-04-03T01:00:00,2222A,120.4176,41.5648,朝阳市,八里堡,臭氧1小时,74,81,68,32,31,182,179,179,179,9,16,10,11,0.6,0.8
2023-04-03T01:00:00,2223A,120.3806,41.5969,朝阳市,农业园区,颗粒物(PM10),66,82,79,45,35,159,159,159,159,24,20,12,13,0.7,0.9
2023-04-03T01:00:00,2225A,124.4002,43.1713,四平市,一商场,细颗粒物(PM2.5),70,87,98,51,54,175,126,126,126,23,27,9,12,0.3,0.5
2023-04-03T01:00:00,2226A,124.388,43.193,四平市,境园,"颗粒物(PM10),细颗粒物(PM2.5)",64,78,87,46,48,176,118,118,118,20,22,5,10,0.2,0.5
2023-04-03T01:00:00,2227A,125.1358,42.8845,辽源市,环保局,细颗粒物(PM2.5),130,128,112,99,83,152,13,13,13,69,48,15,14,1.3,1.1
2023-04-03T01:00:00,2229A,125.9358,41.7173,通化市,光明,颗粒物(PM10),53,56,59,29,27,144,34,34,34,37,35,14,20,0.3,0.6
2023-04-03T01:00:00,2230A,125.9446,41.7325,通化市,铁路,颗粒物(PM10),90,130,71,38,31,143,4,4,4,73,42,13,22,0.5,0.8
2023-04-03T01:00:00,2231A,126.4219,41.9171,白山市,喜丰,颗粒物(PM10),100,150,100,46,33,143,33,33,33,44,38,27,20,1.1,0.9
2023-04-03T01:00:00,2232A,126.4077,41.9419,白山市,环保局,颗粒物(PM10),86,121,102,32,37,141,24,24,24,50,37,17,19,0.6,0.7
2023-04-03T01:00:00,2233A,124.8006,45.1214,松原市,江南,细颗粒物(PM2.5),100,99,128,75,72,191,117,117,117,14,16,7,8,0.6,0.6
2023-04-03T01:00:00,2234A,124.7965,45.1722,松原市,江北,细颗粒物(PM2.5),102,105,123,76,68,187,115,115,115,15,14,6,7,0.4,0.4
2023-04-03T01:00:00,2235A,122.7911,45.6077,白城市,洮北区环保局,细颗粒物(PM2.5),88,120,136,65,79,179,104,104,104,9,19,5,8,0.1,0.4
2023-04-03T01:00:00,2236A,122.8738,45.5725,白城市,市环保局,颗粒物(PM10),68,85,143,38,77,173,97,97,97,17,30,8,8,0.4,0.7
2023-04-03T01:00:00,2237A,129.47,42.8883,延边朝鲜族自治州,妇幼医院,,31,20,37,18,26,113,98,98,98,10,15,7,7,0.6,0.6
2023-04-03T01:00:00,2238A,129.5055,42.9108,延边朝鲜族自治州,延边医院,,29,20,35,17,25,114,91,91,91,15,14,9,9,0.6,0.6
2023-04-03T01:00:00,2239A,129.3964,42.8881,延边朝鲜族自治州,朝阳川镇医院,,43,43,45,25,29,115,50,50,50,18,16,9,10,0.6,0.6
2023-04-03T01:00:00,2240A,130.9762,45.3001,鸡西市,环保局,细颗粒物(PM2.5),130,156,149,99,96,127,7,7,7,57,48,6,11,0.9,0.7
2023-04-03T01:00:00,2243A,130.9429,45.3039,鸡西市,第一中学,细颗粒物(PM2.5),98,116,166,73,108,138,7,7,7,100,33,11,11,0.6,0.7
2023-04-03T01:00:00,2244A,130.2537,47.3416,鹤岗市,哈啤分公司,细颗粒物(PM2.5),199,208,109,149,72,150,57,57,57,50,31,18,16,1.1,0.7
2023-04-03T01:00:00,2245A,130.2684,47.3086,鹤岗市,斯达机电,细颗粒物(PM2.5),166,198,129,126,85,159,88,88,88,35,29,18,12,1.0,0.7
2023-04-03T01:00:00,2246A,130.3114,47.3388,鹤岗市,东山纸板厂,颗粒物(PM10),500,794,288,220,112,146,7,7,7,74,47,16,18,1.3,0.7
2023-04-03T01:00:00,2247A,130.1097,47.3382,鹤岗市,五号水库,细颗粒物(PM2.5),54,55,67,38,43,175,82,82,82,15,17,7,9,0.6,0.6
2023-04-03T01:00:00,2248A,131.1511,46.6937,双鸭山市,双合村,细颗粒物(PM2.5),114,132,133,86,72,143,94,94,94,24,28,35,25,2.3,1.4
2023-04-03T01:00:00,2249A,131.1652,46.6191,双鸭山市,南小市,细颗粒物(PM2.5),82,83,115,60,66,144,114,114,114,12,26,5,8,0.6,0.7
2023-04-03T01:00:00,2250A,131.1524,46.6554,双鸭山市,环保局,,,,,,,,,,,,,,,,
2023-04-03T01:00:00,2251A,131.12,46.5656,双鸭山市,苗圃,细颗粒物(PM2.5),87,73,66,64,52,170,106,106,106,13,18,4,6,0.3,0.4
2023-04-03T01:00:00,2252A,128.5159,47.4311,伊春市,环保局,细颗粒物(PM2.5),112,87,74,84,64,158,94,94,94,21,23,6,14,0.7,0.8
2023-04-03T01:00:00,2253A,128.9102,47.7412,伊春市,电力嘉园,细颗粒物(PM2.5),85,85,83,63,45,188,110,110,110,14,19,6,13,0.9,1
2023-04-03T01:00:00,2254A,129.5029,48.471,伊春市,汤旺河国家公园,细颗粒物(PM2.5),68,76,75,49,45,168,40,40,40,8,8,5,7,0.3,0.3
2023-04-03T01:00:00,2255A,130.2751,46.8028,佳木斯市,佳纺,细颗粒物(PM2.5),265,313,166,215,118,186,64,64,64,81,40,18,10,2.1,1
2023-04-03T01:00:00,2256A,130.3995,46.8307,佳木斯市,发电厂,细颗粒物(PM2.5),279,248,109,229,105,184,53,53,53,58,37,16,10,1.6,0.9
2023-04-03T01:00:00,2257A,130.3258,46.7975,佳木斯市,环保局,细颗粒物(PM2.5),204,191,129,154,110,185,16,16,16,87,46,14,11,1.8,1.1
2023-04-03T01:00:00,2258A,130.3648,46.8032,佳木斯市,十一中,细颗粒物(PM2.5),196,165,119,147,113,175,54,54,54,69,49,16,12,1.5,1
2023-04-03T01:00:00,2259A,130.3794,46.7588,佳木斯市,四丰,细颗粒物(PM2.5),137,126,96,104,83,255,146,146,146,22,23,1,2,0.7,0.7
2023-04-03T01:00:00,2262A,131.0518,45.8751,七台河市,新一中,细颗粒物(PM2.5),77,72,97,56,72,143,72,72,72,17,20,8,11,0.6,0.7
2023-04-03T01:00:00,2263A,127.4833,50.2524,黑河市,交通局,,28,22,45,19,27,86,54,54,54,10,14,8,12,0.5,0.5
2023-04-03T01:00:00,2264A,127.5144,50.2341,黑河市,环保局,,30,23,58,21,32,86,60,60,60,11,17,3,8,0.4,0.5
2023-04-03T01:00:00,2265A,127.5291,50.2472,黑河市,大黑河岛,,33,19,36,23,35,93,58,58,58,4,6,10,6,0.4,0.4
2023-04-03T01:00:00,2266A,126.9785,46.6365,绥化市,人和东街,细颗粒物(PM2.5),460,519,318,439,238,196,33,33,33,104,52,48,21,2.4,1.6
2023-04-03T01:00:00,2267A,126.964,46.6528,绥化市,党政办公中心,细颗粒物(PM2.5),373,402,287,323,235,204,74,74,74,71,44,34,21,1.9,1.4
2023-04-03T01:00:00,2269A,124.1069,50.4097,大兴安岭地区,科技局,,34,34,107,21,74,100,66,66,66,18,19,22,21,0.3,0.6
2023-04-03T01:00:00,2270A,117.396,32.939,蚌埠市,工人疗养院,颗粒物(PM10),56,61,79,25,36,179,110,110,110,30,39,10,12,0.5,0.6
2023-04-03T01:00:00,2271A,117.3605,32.9427,蚌埠市,百货大楼,颗粒物(PM10),61,72,87,12,40,174,111,111,111,22,38,5,7,0.4,0.5
2023-04-03T01:00:00,2273A,117.4185,32.8911,蚌埠市,蚌埠学院,颗粒物(PM10),51,51,75,17,35,179,106,106,106,21,24,9,8,0.5,0.6
2023-04-03T01:00:00,2274A,117.3533,32.9673,蚌埠市,淮上区政府,颗粒物(PM10),62,73,87,14,36,176,108,108,108,23,22,9,8,0.5,0.6
2023-04-03T01:00:00,2275A,117.3145,32.8977,蚌埠市,高新区,,48,48,71,17,38,185,110,110,110,22,23,6,7,0.6,0.7
2023-04-03T01:00:00,2277A,116.8305,32.7727,淮南市,潘集区政府,颗粒物(PM10),62,74,84,28,48,178,121,121,121,10,16,5,8,0.3,0.5
2023-04-03T01:00:00,2278A,117.0067,32.6524,淮南市,师范学院,颗粒物(PM10),63,76,96,14,48,174,123,123,123,14,19,13,13,0.4,0.8
2023-04-03T01:00:00,2279A,116.8569,32.5951,淮南市,谢家集区政府,,49,49,79,13,41,174,108,108,108,13,21,8,15,0.1,0.4
2023-04-03T01:00:00,2280A,116.8281,32.633,淮南市,八公山区政府,颗粒物(PM10),51,52,74,7,39,167,111,111,111,10,16,4,8,0.3,0.5
2023-04-03T01:00:00,2281A,116.6325,32.6201,淮南市,焦岗湖风景区管理处,,40,40,66,16,36,156,90,90,90,7,9,7,6,0.3,0.4
2023-04-03T01:00:00,2282A,116.8004,33.975,淮北市,监测站,颗粒物(PM10),58,66,66,20,29,161,112,112,112,16,18,6,6,0.5,0.5
2023-04-03T01:00:00,2283A,116.8091,33.9007,淮北市,烈山区政府,颗粒物(PM10),53,56,75,20,32,158,108,108,108,16,21,8,8,0.5,0.4
2023-04-03T01:00:00,2284A,116.7856,33.9477,淮北市,职业技术学院,颗粒物(PM10),54,57,68,21,31,158,109,109,109,16,16,8,8,0.6,0.6
2023-04-03T01:00:00,2285A,117.8177,30.9412,铜陵市,市第四中学,颗粒物(PM10),52,53,74,24,32,160,107,107,107,20,22,7,6,0.4,0.5
2023-04-03T01:00:00,2286A,117.8059,30.9273,铜陵市,市公路局,,43,43,62,22,30,154,113,113,113,13,19,8,8,0.5,0.6
2023-04-03T01:00:00,2287A,117.7807,30.9413,铜陵市,市新民污水厂,,49,49,66,30,31,174,116,116,116,20,30,7,9,0.4,0.5
2023-04-03T01:00:00,2288A,117.7439,30.8792,铜陵市,市第九中学,二氧化氮,67,67,84,30,36,165,4,4,4,134,55,11,12,0.6,0.8
2023-04-03T01:00:00,2289A,117.846,30.9413,铜陵市,车站新区,,47,47,58,22,28,173,115,115,115,20,24,10,10,0.4,0.5
2023-04-03T01:00:00,2290A,117.8483,30.97,铜陵市,市职教基地,,38,38,55,14,39,170,110,110,110,12,15,3,4,0.3,0.3
2023-04-03T01:00:00,2291A,117.0809,30.5177,安庆市,环科院,颗粒物(PM10),55,59,63,34,38,167,121,121,121,21,26,14,12,0.6,0.8
2023-04-03T01:00:00,2292A,117.0331,30.5119,安庆市,马山宾馆,颗粒物(PM10),53,55,59,32,35,165,122,122,122,16,20,11,10,0.5,0.7
2023-04-03T01:00:00,2294A,116.9896,30.6145,安庆市,安庆大学,颗粒物(PM10),64,78,70,41,36,155,106,106,106,19,26,9,9,0.8,0.9
2023-04-03T01:00:00,2295A,118.2903,29.6963,黄山市,延安路89号,,47,47,39,28,23,126,52,52,52,22,14,9,7,0.5,0.4
2023-04-03T01:00:00,2296A,118.327,29.7178,黄山市,黄山东路89号,,43,31,32,22,20,136,136,136,136,13,13,6,5,0.5,0.5
2023-04-03T01:00:00,2297A,118.1371,30.2756,黄山市,黄山区政府5号楼,颗粒物(PM10),51,52,49,22,26,125,68,68,68,15,13,5,5,0.3,0.4
2023-04-03T01:00:00,2298A,118.3093,32.3153,滁州市,老年大学,颗粒物(PM10),53,56,69,19,41,181,127,127,127,14,25,9,11,0.5,0.7
2023-04-03T01:00:00,2299A,118.3244,32.2786,滁州市,人大宾馆,颗粒物(PM10),64,77,75,21,43,179,125,125,125,14,29,7,9,0.4,0.5
2023-04-03T01:00:00,2301A,115.8277,32.8929,阜阳市,市监测站,,49,49,82,21,48,168,118,118,118,17,20,6,9,0.4,0.6
2023-04-03T01:00:00,2303A,115.8554,32.8605,阜阳市,开发区,颗粒物(PM10),54,57,84,25,44,176,126,126,126,18,18,9,9,0.4,0.5
2023-04-03T01:00:00,2307A,116.5079,31.737,六安市,监测大楼,,42,42,62,26,39,171,100,100,100,17,19,5,7,0.3,0.5
2023-04-03T01:00:00,2308A,116.4738,31.7643,六安市,皖西学院,颗粒物(PM10),52,54,74,27,32,172,107,107,107,10,25,5,7,0.3,0.5
2023-04-03T01:00:00,2309A,116.4996,31.7905,六安市,朝阳厂,,41,41,62,13,38,178,109,109,109,17,19,6,8,0.4,0.6
2023-04-03T01:00:00,2310A,116.5567,31.7886,六安市,开发区,颗粒物(PM10),52,53,83,27,37,171,103,103,103,11,14,9,12,0.4,0.5
2023-04-03T01:00:00,2311A,115.8072,33.8399,亳州市,污水处理厂,颗粒物(PM10),56,61,64,36,36,154,127,127,127,17,13,13,13,0.5,0.4
2023-04-03T01:00:00,2312A,115.7789,33.8518,亳州市,三国揽胜宫,颗粒物(PM10),57,64,69,29,33,153,126,126,126,17,15,8,8,0.5,0.5
2023-04-03T01:00:00,2314A,117.47,30.6618,池州市,池州学院,颗粒物(PM10),51,51,55,31,35,174,119,119,119,16,18,5,6,0.5,0.6
2023-04-03T01:00:00,2316A,118.7581,30.9454,宣城市,鳌峰子站,,29,26,51,12,29,144,92,92,92,13,21,7,6,0.4,0.5
2023-04-03T01:00:00,2317A,118.7385,30.9743,宣城市,敬亭山子站,,32,32,52,10,30,152,75,75,75,24,22,9,8,0.2,0.4
2023-04-03T01:00:00,2318A,118.7173,30.9427,宣城市,开发区子站,,28,14,54,9,28,148,87,87,87,11,19,5,6,0.5,0.5
2023-04-03T01:00:00,2319A,119.0141,25.4325,莆田市,荔城区仓后路,,41,41,45,17,23,129,55,55,55,19,23,8,9,0.8,0.7
2023-04-03T01:00:00,2320A,119.0015,25.4553,莆田市,莆田市监测站,,29,28,38,20,24,133,56,56,56,10,16,7,8,0.6,0.7
2023-04-03T01:00:00,2321A,119.1119,25.4561,莆田市,涵江区六中,,35,15,51,24,31,122,103,103,103,13,26,8,10,0.4,0.7
2023-04-03T01:00:00,2322A,119.1013,25.3215,莆田市,秀屿区政府,,35,35,33,22,24,113,100,100,100,11,15,6,8,0.2,0.4
2023-04-03T01:00:00,2323A,118.981,25.4792,莆田市,东圳水库,,,,,,,,,,,,,,,,
2023-04-03T01:00:00,2324A,117.6211,26.2625,三明市,三钢,细颗粒物(PM2.5),57,49,38,40,29,88,1,1,1,32,24,10,9,1.2,1
2023-04-03T01:00:00,2325A,117.635,26.2714,三明市,三明二中,,,47,35,33,25,91,2,2,2,,25,4,4,1.1,1
2023-04-03T01:00:00,2326A,117.6028,26.2378,三明市,三元区政府,细颗粒物(PM2.5),63,58,41,45,32,75,1,1,1,27,24,7,9,1.4,1.2
2023-04-03T01:00:00,2327A,117.7275,26.3108,三明市,洋溪,,,,,,,,,,,,,,,,
2023-04-03T01:00:00,2331A,118.0966,26.6761,南平市,茫荡山,,,,,,,,,,,,,,,,
2023-04-03T01:00:00,2332A,118.1681,26.6369,南平市,南平市监测站,,29,27,34,20,25,94,88,88,88,10,15,6,4,0.6,0.8
2023-04-03T01:00:00,2333A,118.1825,26.6489,南平市,南平铝业有限公司,,30,30,31,20,25,98,95,95,95,8,13,6,6,0.2,0.5
2023-04-03T01:00:00,2334A,118.1756,26.6272,南平市,南平七中,,32,30,31,15,21,106,100,100,100,7,13,4,3,0.6,0.8
2023-04-03T01:00:00,2335A,117.0189,25.1181,龙岩市,龙岩师专,,,,,,,,,,,,,,,,
2023-04-03T01:00:00,2336A,117.0217,25.1033,龙岩市,龙岩市监测站,细颗粒物(PM2.5),75,58,47,55,39,110,106,106,106,16,26,9,11,0.6,0.9
2023-04-03T01:00:00,2337A,117.0258,25.0661,龙岩市,闽西职业技术学院,细颗粒物(PM2.5),80,65,46,59,36,103,100,100,100,17,22,13,12,0.5,0.8
2023-04-03T01:00:00,2338A,117.0196,25.0306,龙岩市,龙岩学院,细颗粒物(PM2.5),79,54,42,58,30,101,101,101,101,11,20,6,7,0.7,0.9
2023-04-03T01:00:00,2339A,119.5001,26.6946,宁德市,金涵水库,,,,,,,,,,,,,,,,
2023-04-03T01:00:00,2341A,119.5388,26.6612,宁德市,宁德市监测站,,33,33,36,19,26,121,84,84,84,10,18,3,4,0.4,0.6
2023-04-03T01:00:00,2342A,117.3102,29.3867,景德镇市,王港中学,,37,37,31,20,18,135,93,93,93,5,7,4,4,0.2,0.2
2023-04-03T01:00:00,2343A,117.2117,29.2933,景德镇市,老干部活动中心,,45,45,55,19,29,123,105,105,105,8,18,6,7,0.3,0.4
2023-04-03T01:00:00,2344A,117.1894,29.2789,景德镇市,兽医站,颗粒物(PM10),54,58,44,25,30,139,124,124,124,8,17,5,7,0.5,0.6
2023-04-03T01:00:00,2345A,117.1547,29.2617,景德镇市,台达陶瓷,颗粒物(PM10),66,82,57,35,30,123,92,92,92,21,30,26,28,0.7,0.7
2023-04-03T01:00:00,2346A,117.2461,29.2956,景德镇市,陶研所,,40,40,49,24,22,128,123,123,123,2,11,6,5,0.4,0.5
2023-04-03T01:00:00,2347A,114.0997,27.5002,萍乡市,武功山,,20,3,16,9,17,77,63,63,63,5,9,12,10,0.6,0.6
2023-04-03T01:00:00,2348A,113.8385,27.6434,萍乡市,中医院,,35,21,47,24,33,95,31,31,31,4,11,6,13,0.7,0.9
2023-04-03T01:00:00,2349A,113.8493,27.6253,萍乡市,市政府车库,,40,40,62,22,42,58,17,17,17,14,22,10,20,0.5,1.1
2023-04-03T01:00:00,2350A,113.8676,27.6435,萍乡市,市环保局,细颗粒物(PM2.5),52,38,52,36,37,75,22,22,22,14,22,13,21,0.8,0.9
2023-04-03T01:00:00,2351A,113.866,27.6198,萍乡市,安源区政府,,46,46,56,20,34,56,11,11,11,18,23,14,21,0.9,1
2023-04-03T01:00:00,2352A,115.0861,27.9317,新余市,北岗,细颗粒物(PM2.5),57,48,44,40,35,63,13,13,13,28,17,16,22,0.3,0.2
2023-04-03T01:00:00,2353A,114.9886,27.8431,新余市,飞宇,细颗粒物(PM2.5),57,57,65,40,39,53,8,8,8,42,32,26,31,0.7,0.6
2023-04-03T01:00:00,2354A,114.9231,27.8246,新余市,第二水厂,颗粒物(PM10),53,56,80,32,37,40,16,16,16,33,42,14,16,0.3,0.5
2023-04-03T01:00:00,2355A,114.9308,27.8036,新余市,市气象局,,48,44,69,33,39,45,20,20,20,21,30,10,17,1.0,0.9
2023-04-03T01:00:00,2357A,116.9822,28.1136,鹰潭市,龙虎山,,38,25,30,26,20,124,28,28,28,2,2,1,2,0.7,0.5
2023-04-03T01:00:00,2358A,117.0564,28.2642,鹰潭市,新监测站,细颗粒物(PM2.5),58,56,50,41,30,137,48,48,48,29,16,22,21,0.6,0.6
2023-04-03T01:00:00,2359A,117.0311,28.2475,鹰潭市,财苑宾馆,颗粒物(PM10),51,52,54,32,30,139,23,23,23,38,21,8,32,0.7,0.6
2023-04-03T01:00:00,2360A,117.0222,28.2264,鹰潭市,体育馆,,50,50,46,27,27,141,7,7,7,45,21,3,16,0.4,0.6
2023-04-03T01:00:00,2361A,117.0017,28.2131,鹰潭市,三川水表,,50,50,45,34,26,134,8,8,8,43,17,2,6,0.7,0.5
2023-04-03T01:00:00,2362A,114.9017,25.9149,赣州市,通天岩,,38,38,48,18,29,16,5,5,5,38,31,5,5,0.9,0.9
2023-04-03T01:00:00,2363A,114.9367,25.8664,赣州市,地委,,42,42,50,28,30,12,3,3,3,22,19,19,12,1.5,1.5
2023-04-03T01:00:00,2364A,114.9461,25.8481,赣州市,气象台,,,,,,,,,,,,,,,,
2023-04-03T01:00:00,2365A,114.9322,25.8333,赣州市,市图书馆,,38,38,46,25,27,10,0,0,0,35,29,17,19,1.5,1.4
2023-04-03T01:00:00,2366A,114.8905,25.8471,赣州市,华坚鞋城,颗粒物(PM10),54,57,58,30,34,11,3,3,3,34,31,12,10,1.1,1
2023-04-03T01:00:00,2367A,114.9754,27.0803,吉安市,红声器材厂,,25,24,51,17,33,49,46,46,46,4,17,9,15,0.7,0.8
2023-04-03T01:00:00,2368A,114.9658,27.0999,吉安市,市森林工业局,,21,21,47,14,34,48,47,47,47,4,19,9,14,0.8,0.7
2023-04-03T01:00:00,2369A,114.99,27.1312,吉安市,市环境监测站,,24,24,45,14,28,51,50,50,50,15,24,6,13,0.6,0.7
2023-04-03T01:00:00,2370A,115.0093,27.0968,吉安市,青原区法院,,24,24,44,14,30,51,51,51,51,11,22,9,15,0.7,0.8
2023-04-03T01:00:00,2371A,114.3408,27.8064,宜春市,槟榔水业,,19,19,47,12,30,45,26,26,26,4,13,8,6,0.1,0.4
2023-04-03T01:00:00,2373A,114.3956,27.7844,宜春市,市石油公司,,,,,,,,,,,,,,,,
2023-04-03T01:00:00,2374A,114.3703,27.7914,宜春市,市气象局,,25,25,54,16,33,92,61,61,61,11,20,4,9,0.6,0.7
2023-04-03T01:00:00,2375A,114.4013,27.8074,宜春市,市广电局,,23,23,55,15,39,87,54,54,54,8,18,7,14,1.0,1.1
2023-04-03T01:00:00,2376A,116.2127,28.0814,抚州市,桐源党溪,,33,33,37,19,24,105,27,27,27,7,8,4,6,0.9,0.9
2023-04-03T01:00:00,2377A,116.3544,27.9831,抚州市,市站,,37,37,48,23,28,92,40,40,40,12,21,5,5,0.8,1.2
2023-04-03T01:00:00,2378A,116.3565,27.963,抚州市,血防站,,34,34,44,15,25,85,36,36,36,15,20,8,10,0.9,0.9
2023-04-03T01:00:00,2379A,116.3564,28.0007,抚州市,采茶剧团,,31,31,45,20,28,88,40,40,40,15,19,4,4,1.1,1.1
2023-04-03T01:00:00,2380A,116.385,27.9647,抚州市,医学分院,,29,21,48,20,23,83,40,40,40,11,16,5,7,1.1,1
2023-04-03T01:00:00,2381A,118.005,28.4572,上饶市,百草园,颗粒物(PM10),52,54,55,27,30,133,83,83,83,5,8,17,8,1.5,1.2
2023-04-03T01:00:00,2382A,117.9756,28.4436,上饶市,市监测站,颗粒物(PM10),60,69,58,33,31,146,97,97,97,22,25,22,34,0.8,0.7
2023-04-03T01:00:00,2383A,117.9519,28.4628,上饶市,凤凰光学,颗粒物(PM10),57,64,52,33,29,138,79,79,79,29,26,51,29,0.8,0.7
2023-04-03T01:00:00,2385A,114.17,35.9019,鹤壁市,市监测站,细颗粒物(PM2.5),60,63,102,43,67,164,80,80,80,26,24,7,15,0.6,0.7
2023-04-03T01:00:00,2386A,114.2956,35.7511,鹤壁市,市交警支队,颗粒物(PM10),69,87,95,28,52,155,55,55,55,37,30,9,13,0.3,0.3
2023-04-03T01:00:00,2387A,114.2878,35.7306,鹤壁市,迎宾馆,颗粒物(PM10),61,71,76,32,53,159,60,60,60,31,27,9,15,0.4,0.6
2023-04-03T01:00:00,2389A,113.836,35.311,新乡市,环保西院,颗粒物(PM10),60,70,86,29,41,167,76,76,76,18,15,9,11,0.4,0.5
2023-04-03T01:00:00,2390A,113.884,35.272,新乡市,开发区,颗粒物(PM10),60,69,90,36,46,165,82,82,82,16,16,8,11,0.5,0.7
2023-04-03T01:00:00,2391A,113.883,35.303,新乡市,环保东院,细颗粒物(PM2.5),62,56,82,44,46,168,81,81,81,19,19,10,13,0.4,0.5
2023-04-03T01:00:00,2392A,115.0312,35.7636,濮阳市,环保局,细颗粒物(PM2.5),59,65,72,42,40,151,119,119,119,17,18,13,11,0.5,0.5
2023-04-03T01:00:00,2394A,115.0574,35.7609,濮阳市,油田运输公司,颗粒物(PM10),69,88,95,49,47,154,120,120,120,17,17,15,12,0.4,0.5
2023-04-03T01:00:00,2395A,115.0866,35.7754,濮阳市,油田物探公司,细颗粒物(PM2.5),63,66,74,45,42,142,110,110,110,14,15,16,13,0.4,0.5
2023-04-03T01:00:00,2396A,113.8276,34.0159,许昌市,监测站,颗粒物(PM10),56,61,73,32,35,167,122,122,122,8,11,8,9,0.7,0.7
2023-04-03T01:00:00,2398A,113.7906,33.9953,许昌市,开发区,颗粒物(PM10),53,55,67,22,31,161,120,120,120,10,13,3,5,0.7,0.7
2023-04-03T01:00:00,2399A,114.051,33.5699,漯河市,三五一五工厂,细颗粒物(PM2.5),64,63,82,46,51,162,111,111,111,14,16,12,12,0.6,0.6
2023-04-03T01:00:00,2400A,114.0055,33.5698,漯河市,漯河大学,细颗粒物(PM2.5),57,52,81,40,53,166,117,117,117,10,13,10,10,0.6,0.5
2023-04-03T01:00:00,2401A,114.0138,33.5828,漯河市,市水利局,细颗粒物(PM2.5),64,58,82,46,49,160,112,112,112,13,14,10,10,0.7,0.6
2023-04-03T01:00:00,2402A,114.0261,33.5698,漯河市,市广电局,细颗粒物(PM2.5),54,54,76,38,48,157,114,114,114,11,14,8,10,0.6,0.6
2023-04-03T01:00:00,2404A,112.5224,33.0122,南阳市,瓦房庄,颗粒物(PM10),51,51,67,34,43,127,93,93,93,11,19,4,6,0.6,0.7
