timepoint,stationcode,longitude,latitude,area,positionname,primarypollutant,aqi,pm10,pm10_24h,pm2_5,pm2_5_24h,o3,o3_24h,o3_8h,o3_8h_24h,no2,no2_24h,so2,so2_24h,co,co_24h
2023-04-03T16:00:00,1001A,116.3621,39.8784,北京市,万寿西宫,颗粒物(PM10),78,105,107,55,60,129,129,113,100,23,35,5,6,0.7,0.8
2023-04-03T16:00:00,1002A,116.2202,40.2915,北京市,定陵,颗粒物(PM10),57,63,85,35,49,155,155,122,100,12,16,4,3,0.5,0.5
2023-04-03T16:00:00,1003A,116.4174,39.9289,北京市,东四,颗粒物(PM10),82,114,116,55,58,138,138,116,99,22,36,5,7,0.6,0.7
2023-04-03T16:00:00,1004A,116.4072,39.8863,北京市,天坛,颗粒物(PM10),74,97,104,51,58,129,129,123,105,30,43,5,6,0.7,0.7
2023-04-03T16:00:00,1005A,116.462,39.9365,北京市,农展馆,颗粒物(PM10),75,99,104,50,58,130,130,105,105,24,43,5,6,0.6,0.7
2023-04-03T16:00:00,1006A,116.3392,39.9295,北京市,官园,颗粒物(PM10),76,102,106,53,57,133,133,121,104,21,32,7,8,0.5,0.6
2023-04-03T16:00:00,1007A,116.2878,39.9611,北京市,海淀万柳,颗粒物(PM10),75,100,113,48,56,111,111,99,83,28,47,6,6,0.6,0.6
2023-04-03T16:00:00,1008A,116.6636,40.135,北京市,顺义新城,颗粒物(PM10),78,105,105,48,54,150,147,129,112,20,31,5,5,0.6,0.6
2023-04-03T16:00:00,1009A,116.6275,40.3275,北京市,怀柔镇,颗粒物(PM10),62,73,98,39,56,132,132,115,102,13,26,4,4,0.5,0.6
2023-04-03T16:00:00,1010A,116.2296,40.217,北京市,昌平镇,颗粒物(PM10),64,78,97,42,56,143,143,128,102,34,35,2,3,0.4,0.5
2023-04-03T16:00:00,1011A,116.3966,39.9821,北京市,奥体中心,颗粒物(PM10),74,98,107,51,59,127,127,101,99,25,45,6,7,0.6,0.7
2023-04-03T16:00:00,1012A,116.184,39.9136,北京市,古城,颗粒物(PM10),83,116,126,51,62,132,132,117,95,28,46,6,5,0.8,0.9
2023-04-03T16:00:00,1015A,117.1444,39.1661,天津市,勤俭道,颗粒物(PM10),65,80,97,43,50,183,118,108,108,33,38,10,12,0.5,0.8
2023-04-03T16:00:00,1017A,117.237,39.1082,天津市,大直沽八号路,颗粒物(PM10),70,90,98,40,47,186,101,115,115,47,37,11,12,0.6,0.8
2023-04-03T16:00:00,1018A,117.202,39.0927,天津市,前进道,颗粒物(PM10),70,89,94,41,48,187,106,119,119,47,36,8,9,0.7,0.8
2023-04-03T16:00:00,1019A,117.1837,39.2133,天津市,淮河道,颗粒物(PM10),68,86,96,38,47,189,128,124,124,29,34,14,14,0.7,0.7
2023-04-03T16:00:00,1021A,117.307,39.0877,天津市,跃进路,颗粒物(PM10),67,83,91,41,48,190,100,119,119,50,39,11,11,0.8,0.8
2023-04-03T16:00:00,1023A,117.707,39.0343,天津市,第四大街,颗粒物(PM10),68,85,97,40,47,134,88,92,89,51,55,9,10,0.6,0.6
2023-04-03T16:00:00,1024A,117.457,38.8394,天津市,永明路,颗粒物(PM10),62,74,86,32,42,171,102,110,110,42,33,7,8,0.6,0.7
2023-04-03T16:00:00,1026A,117.764,39.1587,天津市,汉北路,颗粒物(PM10),57,63,74,32,39,156,124,128,128,30,31,10,9,0.3,0.3
2023-04-03T16:00:00,1027A,117.157,38.9194,天津市,团泊洼,颗粒物(PM10),68,85,88,39,42,165,86,108,108,47,34,22,10,0.9,1
2023-04-03T16:00:00,1029A,114.4422,38.0444,石家庄市,职工医院,细颗粒物(PM2.5),97,93,100,72,64,158,99,88,88,23,27,8,7,0.8,0.6
2023-04-03T16:00:00,1030A,114.6063,38.0266,石家庄市,高新区,颗粒物(PM10),90,129,100,66,70,157,92,86,86,24,24,6,6,0.9,0.7
2023-04-03T16:00:00,1031A,114.4898,38.1328,石家庄市,西北水源,颗粒物(PM10),81,111,110,58,65,157,95,85,85,16,21,5,4,0.7,0.6
2023-04-03T16:00:00,1032A,114.4586,38.0058,石家庄市,西南高教,细颗粒物(PM2.5),94,97,100,70,68,111,95,87,87,25,28,4,5,0.9,0.8
2023-04-03T16:00:00,1033A,114.5331,38.0178,石家庄市,世纪公园,细颗粒物(PM2.5),87,100,95,64,60,146,86,82,82,30,28,11,10,0.9,0.8
2023-04-03T16:00:00,1034A,114.509,38.0457,石家庄市,人民会堂,细颗粒物(PM2.5),92,115,106,68,62,158,94,90,90,27,24,6,10,0.8,0.8
2023-04-03T16:00:00,1035A,114.3524,37.8911,石家庄市,封龙山,细颗粒物(PM2.5),57,57,77,40,47,155,96,121,95,18,23,3,4,0.8,0.8
2023-04-03T16:00:00,1037A,118.131,39.6363,唐山市,雷达站,颗粒物(PM10),77,103,101,39,46,183,135,118,118,24,34,10,10,1.2,1
2023-04-03T16:00:00,1038A,118.1725,39.6334,唐山市,物资局,颗粒物(PM10),76,102,104,47,48,174,131,114,114,30,39,13,13,1.2,1
2023-04-03T16:00:00,1040A,118.1705,39.6506,唐山市,十二中,颗粒物(PM10),72,93,100,47,53,176,129,112,112,20,30,5,12,0.5,1
2023-04-03T16:00:00,1041A,118.1869,39.622,唐山市,小山,颗粒物(PM10),74,97,104,47,47,182,132,113,113,30,42,11,11,1.2,1
2023-04-03T16:00:00,1042A,119.5134,39.8207,秦皇岛市,北戴河环保局,细颗粒物(PM2.5),62,66,67,44,38,141,141,116,116,30,54,5,4,0.5,0.5
2023-04-03T16:00:00,1043A,119.7493,40.0116,秦皇岛市,第一关,细颗粒物(PM2.5),74,72,79,54,49,148,148,110,110,14,69,3,6,0.4,0.4
2023-04-03T16:00:00,1044A,119.5897,39.9499,秦皇岛市,监测站,颗粒物(PM10),71,91,83,49,51,129,123,101,101,44,77,5,5,0.4,0.5
2023-04-03T16:00:00,1046A,119.5251,39.9041,秦皇岛市,建设大厦,颗粒物(PM10),63,76,98,29,30,144,144,110,110,30,76,6,16,0.4,0.5
2023-04-03T16:00:00,1048A,114.5302,36.6116,邯郸市,东污水处理厂,颗粒物(PM10),78,105,87,46,49,153,81,96,52,16,24,5,7,0.4,0.5
2023-04-03T16:00:00,1049A,114.4918,36.5713,邯郸市,矿院,,,64,85,48,55,159,91,112,65,21,24,5,5,,0.9
2023-04-03T16:00:00,1050A,114.484,36.6133,邯郸市,丛台公园,细颗粒物(PM2.5),73,62,76,53,54,162,85,116,62,19,18,5,7,0.5,0.5
2023-04-03T16:00:00,1051A,115.493,38.8632,保定市,游泳馆,细颗粒物(PM2.5),85,101,105,63,69,117,117,82,82,33,39,9,8,0.3,0.3
2023-04-03T16:00:00,1052A,115.5213,38.8959,保定市,华电二区,颗粒物(PM10),77,103,110,50,65,110,110,77,77,23,34,14,11,0.8,0.8
2023-04-03T16:00:00,1053A,115.4713,38.9108,保定市,接待中心,颗粒物(PM10),83,115,112,50,58,110,110,80,80,21,30,12,11,0.8,0.7
2023-04-03T16:00:00,1054A,115.4612,38.8416,保定市,地表水厂,颗粒物(PM10),98,146,147,50,61,104,104,73,73,30,35,12,11,0.6,0.5
2023-04-03T16:00:00,1056A,115.5086,38.8639,保定市,监测站,细颗粒物(PM2.5),102,145,130,76,68,122,122,82,82,26,36,14,12,0.6,0.5
2023-04-03T16:00:00,1057A,114.8883,40.8336,张家口市,人民公园,,18,15,21,5,13,123,56,60,58,16,9,2,3,0.4,0.4
2023-04-03T16:00:00,1059A,114.8687,40.8042,张家口市,五金库,,14,14,30,5,17,119,43,58,40,25,16,8,8,0.3,0.3
2023-04-03T16:00:00,1060A,114.8902,40.762,张家口市,世纪豪园,,29,29,33,13,24,118,50,54,41,19,15,2,2,0.3,0.4
2023-04-03T16:00:00,1061A,114.8916,40.8661,张家口市,北泵房,,25,14,26,8,19,129,78,64,64,7,9,8,8,0.4,0.4
2023-04-03T16:00:00,1062A,117.9531,40.9081,承德市,铁路,颗粒物(PM10),56,61,72,33,36,151,138,131,118,38,31,13,14,0.5,0.6
2023-04-03T16:00:00,1063A,117.9392,40.9763,承德市,中国银行,颗粒物(PM10),54,58,71,29,34,155,152,136,126,16,25,9,11,0.5,0.6
2023-04-03T16:00:00,1064A,117.9503,40.928,承德市,开发区,颗粒物(PM10),54,58,75,29,34,164,158,144,128,25,30,11,12,0.6,0.7
2023-04-03T16:00:00,1065A,117.8051,40.9655,承德市,文化中心,颗粒物(PM10),55,60,82,33,37,158,147,137,116,9,23,9,12,0.5,0.5
2023-04-03T16:00:00,1066A,117.9268,41.0026,承德市,离宫,,48,48,66,30,38,161,130,131,131,10,20,12,12,0.5,0.5
2023-04-03T16:00:00,1067A,116.6708,39.5111,廊坊市,药材公司,颗粒物(PM10),79,107,106,40,46,176,124,108,108,36,41,5,8,0.7,0.7
2023-04-03T16:00:00,1068A,116.7214,39.5589,廊坊市,开发区,颗粒物(PM10),77,104,98,49,52,183,128,115,115,34,37,10,12,0.8,0.8
2023-04-03T16:00:00,1070A,116.7244,39.5269,廊坊市,北华航天学院,颗粒物(PM10),78,105,101,45,51,178,122,110,110,31,39,8,9,0.6,0.7
2023-04-03T16:00:00,1071A,116.8842,38.2991,沧州市,沧县城建局,,,,93,,45,99,,118,,,47,,15,,0.6
2023-04-03T16:00:00,1072A,116.8584,38.3254,沧州市,电视转播站,颗粒物(PM10),75,100,93,44,48,195,111,120,120,46,44,18,17,0.6,0.5
2023-04-03T16:00:00,1073A,116.8709,38.3228,沧州市,市环保局,颗粒物(PM10),67,83,91,44,57,196,111,120,120,45,45,12,11,0.4,0.5
2023-04-03T16:00:00,1074A,115.6838,37.7541,衡水市,电机北厂,颗粒物(PM10),77,104,91,54,48,138,97,74,62,25,35,7,8,0.6,0.5
2023-04-03T16:00:00,1075A,115.6303,37.7316,衡水市,市监测站,颗粒物(PM10),83,115,93,41,50,147,94,81,54,26,32,10,9,0.7,0.6
2023-04-03T16:00:00,1077A,114.4704,37.0886,邢台市,达活泉,细颗粒物(PM2.5),108,102,107,81,68,154,67,72,72,,24,5,5,0.8,0.6
2023-04-03T16:00:00,1078A,114.5062,37.0349,邢台市,邢师高专,细颗粒物(PM2.5),82,102,101,60,52,150,68,67,67,27,34,7,8,0.8,0.6
2023-04-03T16:00:00,1079A,114.5237,37.0851,邢台市,路桥公司,细颗粒物(PM2.5),94,105,104,70,59,156,66,69,69,24,28,9,8,1.0,0.8
2023-04-03T16:00:00,1080A,114.4725,37.0719,邢台市,市环保局,细颗粒物(PM2.5),104,101,103,78,68,159,71,73,73,25,26,8,9,0.6,0.5
2023-04-03T16:00:00,1081A,112.522,37.8873,太原市,尖草坪,,38,23,57,20,37,137,119,128,102,21,20,7,5,0.9,0.8
2023-04-03T16:00:00,1083A,112.434,38.0108,太原市,上兰,,,,,,,,,,,,,,,,
2023-04-03T16:00:00,1084A,112.469,37.7124,太原市,晋源,,35,29,56,23,38,129,111,110,110,27,17,6,5,0.9,0.6
2023-04-03T16:00:00,1085A,112.5583,37.7394,太原市,小店,,48,39,61,33,39,145,123,121,115,19,15,3,3,0.3,0.4
2023-04-03T16:00:00,1086A,112.5369,37.8692,太原市,桃园,,37,34,53,25,32,137,117,125,99,19,17,5,4,0.9,0.6
2023-04-03T16:00:00,1087A,112.57,37.8195,太原市,坞城,,,36,60,,38,138,117,118,109,,18,,5,0.6,0.6
2023-04-03T16:00:00,1088A,112.549,37.9854,太原市,南寨,,39,18,54,13,37,126,122,115,115,16,22,3,4,0.4,0.6
2023-04-03T16:00:00,1090A,111.6507,40.7517,呼和浩特市,呼市一监,,28,12,57,6,16,91,87,83,83,11,13,5,5,0.3,0.3
2023-04-03T16:00:00,1091A,111.6572,40.8033,呼和浩特市,小召,,28,9,60,5,15,91,88,83,80,9,14,9,8,0.3,0.3
2023-04-03T16:00:00,1094A,111.7516,40.8369,呼和浩特市,如意水处理厂,,28,15,51,5,13,93,89,84,84,4,6,6,7,0.3,0.3
2023-04-03T16:00:00,1095A,111.7276,40.8062,呼和浩特市,二十九中,,28,12,60,6,14,94,89,89,85,11,11,5,6,0.5,0.4
2023-04-03T16:00:00,1096A,111.5512,40.7866,呼和浩特市,工大金川校区,,26,14,67,6,12,96,82,89,82,16,10,5,5,0.4,0.3
2023-04-03T16:00:00,1097A,111.717,40.7612,呼和浩特市,化肥厂生活区,,26,12,44,5,12,84,83,84,80,9,8,7,7,0.3,0.3
2023-04-03T16:00:00,1098A,123.6836,41.9339,沈阳市,森林路,,,,,,,,,,,,,,,,
2023-04-03T16:00:00,1099A,123.505,41.7406,沈阳市,浑南东路,臭氧1小时,69,85,111,47,66,177,175,148,148,24,50,13,30,0.7,1
2023-04-03T16:00:00,1100A,123.4231,41.6989,沈阳市,新秀街,臭氧1小时,73,90,115,42,55,180,178,154,154,17,50,12,33,0.6,1.1
2023-04-03T16:00:00,1102A,123.5903,41.8411,沈阳市,东陵路,细颗粒物(PM2.5),74,81,110,54,66,179,169,143,143,17,39,12,26,0.6,1.1
2023-04-03T16:00:00,1103A,123.4264,41.8467,沈阳市,陵东街,颗粒物(PM10),70,90,108,44,52,185,161,146,146,19,49,12,22,0.6,1.1
2023-04-03T16:00:00,1104A,123.4114,41.7653,沈阳市,文化路,细颗粒物(PM2.5),77,96,112,56,66,175,166,144,144,20,46,9,28,0.7,1.3
2023-04-03T16:00:00,1105A,123.4678,41.7867,沈阳市,小河沿,颗粒物(PM10),70,89,111,50,60,170,163,135,135,25,50,10,25,0.6,1.1
2023-04-03T16:00:00,1106A,123.4017,41.7972,沈阳市,太原街,细颗粒物(PM2.5),78,96,106,57,62,173,151,141,141,31,47,10,29,0.5,1.1
2023-04-03T16:00:00,1108A,123.3783,41.9228,沈阳市,京沈街,细颗粒物(PM2.5),64,50,91,46,57,181,124,145,145,16,40,12,24,0.6,1
2023-04-03T16:00:00,1109A,121.612,38.9741,大连市,甘井子,颗粒物(PM10),64,78,121,38,51,146,127,130,130,30,39,5,7,0.6,0.7
2023-04-03T16:00:00,1110A,121.565,38.9511,大连市,周水子,颗粒物(PM10),55,60,81,35,48,142,135,131,131,22,33,2,5,0.6,0.8
2023-04-03T16:00:00,1111A,121.5637,38.8845,大连市,星海三站,颗粒物(PM10),51,51,68,30,41,167,152,144,144,16,34,4,6,0.6,0.7
2023-04-03T16:00:00,1112A,121.6302,38.9117,大连市,青泥洼桥,颗粒物(PM10),53,55,73,35,43,158,143,145,145,13,27,5,8,0.9,0.9
2023-04-03T16:00:00,1113A,121.6251,38.8638,大连市,傅家庄,,49,49,56,32,32,171,150,148,148,12,16,6,8,0.6,0.6
2023-04-03T16:00:00,1114A,121.5213,38.8661,大连市,七贤岭,颗粒物(PM10),53,55,67,32,41,171,160,154,154,12,19,5,8,0.4,0.5
2023-04-03T16:00:00,1115A,121.2529,38.8061,大连市,旅顺,,,57,51,33,31,168,154,143,143,,23,7,8,0.5,0.5
2023-04-03T16:00:00,1116A,121.7485,39.1311,大连市,金州,,46,42,52,26,30,166,146,149,148,17,15,7,7,0.7,0.7
2023-04-03T16:00:00,1117A,121.7811,39.0496,大连市,开发区,颗粒物(PM10),53,55,72,34,44,149,136,134,134,20,29,11,12,0.6,0.7
2023-04-03T16:00:00,1118A,121.9762,39.0631,大连市,双D港,"颗粒物(PM10),细颗粒物(PM2.5)",53,55,72,37,46,177,134,131,131,31,25,17,12,0.7,0.7
2023-04-03T16:00:00,1119A,125.3325,43.9166,长春市,食品厂,颗粒物(PM10),63,75,88,44,53,145,103,128,122,25,35,6,8,0.7,0.6
2023-04-03T16:00:00,1120A,125.2863,43.9027,长春市,客车厂,颗粒物(PM10),56,62,88,36,54,152,90,126,126,27,35,6,11,0.6,0.6
2023-04-03T16:00:00,1121A,125.2841,43.8463,长春市,邮电学院,颗粒物(PM10),57,64,86,16,44,170,100,145,145,14,29,6,12,0.4,0.6
2023-04-03T16:00:00,1122A,125.3716,43.8772,长春市,劳动公园,颗粒物(PM10),57,63,93,20,46,171,99,141,141,19,31,9,13,0.4,0.5
2023-04-03T16:00:00,1123A,125.3297,43.8805,长春市,园林处,颗粒物(PM10),56,62,86,18,44,161,96,136,135,15,29,8,11,0.6,0.7
2023-04-03T16:00:00,1124A,125.4605,43.79,长春市,净月潭,颗粒物(PM10),57,63,87,20,44,178,107,152,151,16,19,5,7,0.5,0.6
2023-04-03T16:00:00,1125A,125.7194,43.515,长春市,甩湾子,,,,,,,,,,,,,,,,
2023-04-03T16:00:00,1126A,125.3863,43.8447,长春市,经开区环卫处,颗粒物(PM10),51,52,100,23,55,164,95,136,136,16,31,8,10,0.5,0.7
2023-04-03T16:00:00,1127A,125.245,43.7783,长春市,高新区管委会,颗粒物(PM10),58,66,87,26,53,175,105,148,148,15,35,9,11,0.7,0.8
2023-04-03T16:00:00,1128A,125.1761,43.8325,长春市,岱山公园,颗粒物(PM10),61,72,86,21,43,156,87,129,129,15,29,5,8,0.3,0.4
2023-04-03T16:00:00,1129A,126.5422,45.755,哈尔滨市,岭北,,29,29,152,19,106,168,62,101,90,15,29,13,22,0.3,0.5
2023-04-03T16:00:00,1130A,126.561,45.8167,哈尔滨市,松北商大,,48,48,129,20,99,166,61,103,83,16,29,6,12,0.6,0.9
2023-04-03T16:00:00,1131A,126.979,45.5419,哈尔滨市,阿城会宁,颗粒物(PM10),71,92,311,38,149,160,45,100,96,23,69,25,39,0.6,1.7
2023-04-03T16:00:00,1132A,126.599,45.7222,哈尔滨市,南岗学府路,颗粒物(PM10),72,94,205,33,138,168,56,85,77,14,41,8,14,0.4,0.9
2023-04-03T16:00:00,1133A,126.689,45.7733,哈尔滨市,太平宏伟公园,颗粒物(PM10),52,54,184,13,113,170,58,94,86,16,47,7,13,0.2,0.8
2023-04-03T16:00:00,1134A,126.635,45.7667,哈尔滨市,道外承德广场,颗粒物(PM10),55,59,161,20,106,157,58,102,83,16,38,9,14,0.4,0.7
2023-04-03T16:00:00,1135A,126.685,45.7319,哈尔滨市,香坊红旗大街,,,,187,24,137,156,54,79,73,22,60,10,26,0.3,0.9
2023-04-03T16:00:00,1136A,126.6411,45.7258,哈尔滨市,动力和平路,,36,28,159,25,123,161,54,89,80,21,51,11,19,0.3,1
2023-04-03T16:00:00,1137A,126.593,45.7478,哈尔滨市,道里建国路,细颗粒物(PM2.5),65,39,146,47,108,158,55,99,79,21,38,11,16,0.4,0.9
2023-04-03T16:00:00,1138A,126.615,45.61,哈尔滨市,平房东轻厂,,43,43,205,28,162,172,59,93,91,17,41,10,19,0.2,0.9
2023-04-03T16:00:00,1139A,126.595,45.9855,哈尔滨市,呼兰师专,,21,21,127,11,76,171,60,101,81,9,27,11,15,0.2,0.4
2023-04-03T16:00:00,1140A,126.6206,45.6842,哈尔滨市,省农科院,细颗粒物(PM2.5),57,56,197,40,123,150,63,95,92,16,54,15,23,0.3,0.8
2023-04-03T16:00:00,1141A,121.4,31.238,上海市,普陀,颗粒物(PM10),58,65,51,15,22,156,131,127,127,22,23,5,4,0.5,0.6
2023-04-03T16:00:00,1142A,121.478,31.2036,上海市,十五厂,颗粒物(PM10),64,78,67,25,31,142,119,116,116,23,26,7,7,0.7,0.7
2023-04-03T16:00:00,1143A,121.467,31.3008,上海市,虹口,颗粒物(PM10),58,66,55,29,29,145,121,120,120,25,28,6,6,0.6,0.6
2023-04-03T16:00:00,1144A,121.412,31.1654,上海市,徐汇上师大,,,78,54,24,30,143,123,124,124,32,31,8,7,,0.4
2023-04-03T16:00:00,1145A,121.536,31.2659,上海市,杨浦四漂,颗粒物(PM10),59,68,62,25,29,141,111,115,115,31,31,8,8,0.5,0.5
2023-04-03T16:00:00,1147A,121.425,31.2261,上海市,静安监测站,颗粒物(PM10),58,65,54,20,26,150,125,124,124,25,25,5,5,0.5,0.6
2023-04-03T16:00:00,1148A,121.703,31.1907,上海市,浦东川沙,,,75,48,24,27,131,,114,114,16,21,6,5,0.5,0.5
2023-04-03T16:00:00,1149A,121.533,31.2284,上海市,浦东新区监测站,颗粒物(PM10),54,57,55,20,31,155,123,124,124,16,20,6,6,0.4,0.5
2023-04-03T16:00:00,1150A,121.577,31.2071,上海市,浦东张江,颗粒物(PM10),55,60,49,27,30,138,124,124,124,12,18,4,4,0.7,0.7
2023-04-03T16:00:00,1151A,118.8086,32.1065,南京市,迈皋桥,,39,36,60,19,16,170,123,127,115,13,12,3,4,0.2,0.2
2023-04-03T16:00:00,1152A,118.7538,32.0551,南京市,草场门,,35,34,44,22,16,154,109,119,106,20,17,3,4,0.4,0.4
2023-04-03T16:00:00,1153A,118.7794,32.0745,南京市,山西路,,,31,48,19,15,161,119,122,113,14,10,,4,0.2,0.2
2023-04-03T16:00:00,1154A,118.7752,32.0023,南京市,中华门,,36,31,50,12,14,157,114,122,110,20,17,8,8,0.7,0.6
2023-04-03T16:00:00,1155A,118.8109,32.0309,南京市,瑞金路,,,40,42,22,17,151,111,118,107,,4,5,4,0.2,0.3
2023-04-03T16:00:00,1156A,118.7997,32.0754,南京市,玄武湖,,36,32,40,21,18,153,113,117,107,13,10,5,6,0.2,0.2
2023-04-03T16:00:00,1157A,118.6414,32.0931,南京市,浦口,,42,42,51,22,18,154,111,119,105,24,22,4,5,0.3,0.3
2023-04-03T16:00:00,1158A,118.7356,31.9996,南京市,奥体中心,,39,39,53,22,19,154,109,117,104,18,17,5,6,0.2,0.2
2023-04-03T16:00:00,1159A,118.9125,32.1028,南京市,仙林大学城,,39,39,52,14,18,168,110,109,102,16,20,7,7,0.5,0.6
2023-04-03T16:00:00,1160A,120.561,31.2472,苏州市,上方山,颗粒物(PM10),51,52,49,24,27,136,122,118,118,24,21,8,7,0.3,0.3
2023-04-03T16:00:00,1162A,120.591,31.3019,苏州市,彩香,颗粒物(PM10),52,53,50,21,23,158,150,138,138,14,10,6,5,0.6,0.6
2023-04-03T16:00:00,1163A,120.596,31.3264,苏州市,轧钢厂,颗粒物(PM10),53,55,53,21,22,149,138,128,128,17,13,7,7,0.5,0.4
2023-04-03T16:00:00,1164A,120.613,31.2703,苏州市,吴中区,颗粒物(PM10),52,54,51,20,22,149,130,129,129,38,23,9,9,0.3,0.3
2023-04-03T16:00:00,1165A,120.543,31.2994,苏州市,苏州新区,颗粒物(PM10),54,57,50,24,24,148,135,131,131,21,12,5,5,0.4,0.3
2023-04-03T16:00:00,1166A,120.669,31.3097,苏州市,苏州工业园区,颗粒物(PM10),51,52,50,21,23,146,134,125,125,18,13,8,8,0.5,0.5
2023-04-03T16:00:00,1167A,120.641,31.3708,苏州市,相城区,颗粒物(PM10),55,59,52,21,21,147,130,123,123,25,15,7,6,0.5,0.5
2023-04-03T16:00:00,1168A,120.9098,31.9663,南通市,狼山街道,颗粒物(PM10),56,61,48,23,22,164,131,132,126,15,12,6,6,0.7,0.5
2023-04-03T16:00:00,1169A,120.86,32.0005,南通市,虹桥,颗粒物(PM10),58,66,56,23,25,165,135,136,129,20,16,6,6,0.5,0.5
2023-04-03T16:00:00,1170A,120.87,32.02,南通市,城中,颗粒物(PM10),60,70,58,23,26,167,135,136,131,13,9,8,8,0.3,0.4
2023-04-03T16:00:00,1171A,120.94,31.93,南通市,星湖花园,颗粒物(PM10),53,55,51,22,24,145,116,115,112,21,18,6,6,0.6,0.7
2023-04-03T16:00:00,1172A,120.81,32.0417,南通市,紫琅学院,颗粒物(PM10),58,66,57,22,24,156,121,124,120,26,18,8,7,0.6,0.5
2023-04-03T16:00:00,1173A,119.176,34.5885,连云港市,市环境监测站,,,80,76,22,31,142,112,127,111,,15,15,10,0.3,0.3
2023-04-03T16:00:00,1177A,117.179,34.2761,徐州市,黄河新村,,36,36,63,25,29,134,86,120,84,16,17,8,10,0.7,0.7
2023-04-03T16:00:00,1178A,117.1918,34.2384,徐州市,淮塔,,,34,66,27,26,144,95,131,92,16,22,8,9,,0.6
2023-04-03T16:00:00,1180A,117.256,34.2153,徐州市,新城区,,38,34,65,26,28,142,93,128,90,12,16,9,10,0.8,0.8
2023-04-03T16:00:00,1181A,117.244,34.2911,徐州市,桃园路,,48,48,70,22,26,154,84,101,83,16,19,6,8,0.7,0.7
2023-04-03T16:00:00,1182A,117.2933,34.2778,徐州市,农科院,,28,27,60,17,22,162,87,101,85,15,19,6,8,0.6,0.6
2023-04-03T16:00:00,1186A,119.389,32.3761,扬州市,邗江监测站,,46,46,67,19,29,191,105,111,96,30,27,8,10,0.4,0.8
2023-04-03T16:00:00,1188A,120.269,31.4867,无锡市,雪浪,,48,48,56,24,22,143,129,118,118,23,24,7,7,0.7,0.6
2023-04-03T16:00:00,1189A,120.275,31.6219,无锡市,黄巷,颗粒物(PM10),52,54,64,22,20,138,109,110,110,48,31,8,8,0.9,1
2023-04-03T16:00:00,1190A,120.294,31.56,无锡市,曹张,颗粒物(PM10),53,56,52,22,23,141,119,115,115,34,26,5,6,0.6,0.6
2023-04-03T16:00:00,1191A,120.242,31.5031,无锡市,漆塘,,46,46,51,22,20,144,129,119,119,20,20,6,7,0.3,0.3
2023-04-03T16:00:00,1192A,120.3489,31.5863,无锡市,东亭,颗粒物(PM10),52,53,61,19,23,132,122,112,112,34,25,8,9,0.6,0.6
2023-04-03T16:00:00,1193A,120.354,31.5475,无锡市,旺庄,颗粒物(PM10),54,58,57,22,22,135,116,115,115,38,26,8,8,0.5,0.5
2023-04-03T16:00:00,1194A,120.245,31.5631,无锡市,荣巷,,46,46,54,27,22,146,130,116,116,21,23,10,11,0.6,0.6
2023-04-03T16:00:00,1195A,120.299,31.6817,无锡市,堰桥,颗粒物(PM10),53,56,63,19,24,148,137,122,122,27,21,7,8,0.8,0.9
2023-04-03T16:00:00,1196A,119.9633,31.762,常州市,市监测站,颗粒物(PM10),56,61,60,21,27,154,114,105,105,33,31,4,6,0.5,0.6
2023-04-03T16:00:00,1200A,119.9468,31.7069,常州市,武进监测站,颗粒物(PM10),57,63,58,25,24,147,130,117,117,16,20,6,13,0.5,0.5
2023-04-03T16:00:00,1201A,119.9255,31.9087,常州市,安家,,46,46,58,18,28,174,119,108,108,27,23,7,8,0.4,0.5
2023-04-03T16:00:00,1203A,119.6707,32.1875,镇江市,新区办事处,,48,48,57,20,26,160,103,93,93,27,25,5,6,0.5,0.7
2023-04-03T16:00:00,1204A,119.4974,32.1968,镇江市,职教中心,,39,39,54,20,29,155,111,119,98,22,29,3,5,0.6,0.7
2023-04-03T16:00:00,1205A,119.4303,32.1328,镇江市,丹徒区监测站,,45,45,60,20,29,167,113,106,98,25,25,4,7,0.4,0.5
2023-04-03T16:00:00,1206A,119.905,32.4878,泰州市,公园路,颗粒物(PM10),58,66,65,31,35,147,105,106,106,24,16,9,10,0.7,0.7
2023-04-03T16:00:00,1207A,119.9189,32.4625,泰州市,莲花,颗粒物(PM10),53,56,64,20,26,146,103,103,103,29,21,10,11,0.5,0.6
2023-04-03T16:00:00,1209A,119.888,32.4639,泰州市,留学生创业园,,,73,63,23,29,145,100,102,102,,10,9,10,0.6,0.7
2023-04-03T16:00:00,1210A,119.036,33.5981,淮安市,钵池山,颗粒物(PM10),51,51,52,26,25,148,97,126,101,17,16,7,7,0.6,0.6
2023-04-03T16:00:00,1211A,119.007,33.575,淮安市,北京南路,颗粒物(PM10),51,51,67,28,26,145,93,129,97,16,17,8,9,0.5,0.5
2023-04-03T16:00:00,1212A,118.989,33.6067,淮安市,市监测站,颗粒物(PM10),52,53,63,19,23,154,102,146,106,15,14,6,7,0.5,0.6
2023-04-03T16:00:00,1213A,119.135,33.5039,淮安市,楚州区监测站,颗粒物(PM10),51,51,53,28,27,149,97,117,99,12,14,6,8,0.6,0.5
2023-04-03T16:00:00,1214A,119.0186,33.6297,淮安市,淮阴区监测站,颗粒物(PM10),55,59,60,22,24,153,104,136,103,13,16,7,8,0.5,0.5
2023-04-03T16:00:00,1215A,120.118,33.4022,盐城市,盐城电厂,颗粒物(PM10),53,56,63,20,28,149,120,140,124,9,11,7,7,0.3,0.3
2023-04-03T16:00:00,1216A,120.156,33.3942,盐城市,市监测站,,45,45,57,20,25,134,106,124,110,13,15,8,8,0.2,0.3
2023-04-03T16:00:00,1218A,120.2144,33.38,盐城市,开发区管委会,颗粒物(PM10),55,59,71,23,32,139,115,130,119,9,10,3,4,0.5,0.6
2023-04-03T16:00:00,1220A,118.293,33.9528,宿迁市,宿迁学院,颗粒物(PM10),54,58,65,19,26,175,100,139,101,16,20,5,5,0.5,0.5
2023-04-03T16:00:00,1221A,118.2442,33.9592,宿迁市,宿迁中学,,50,50,60,21,24,172,107,144,104,12,16,5,6,0.3,0.4
2023-04-03T16:00:00,1223A,120.2072,30.2111,杭州市,滨江,,42,42,40,19,24,137,63,88,88,56,37,8,10,0.8,0.8
2023-04-03T16:00:00,1224A,120.0633,30.2747,杭州市,西溪,,28,28,39,15,21,154,48,89,87,32,31,6,8,0.5,0.7
2023-04-03T16:00:00,1226A,120.3461,30.3153,杭州市,下沙,颗粒物(PM10),60,70,49,28,22,122,63,92,92,72,34,8,9,0.5,0.5
2023-04-03T16:00:00,1227A,120.1269,30.2456,杭州市,卧龙桥,,30,30,37,13,21,158,38,82,78,46,34,5,7,0.6,0.5
2023-04-03T16:00:00,1228A,120.1903,30.2692,杭州市,浙江农大,颗粒物(PM10),53,55,41,24,25,147,44,83,82,79,38,6,6,0.6,0.6
2023-04-03T16:00:00,1230A,120.1197,30.3119,杭州市,和睦小学,颗粒物(PM10),58,65,48,21,21,120,46,73,68,77,40,6,7,0.8,0.8
2023-04-03T16:00:00,1231A,120.3019,30.4183,杭州市,临平镇,颗粒物(PM10),70,90,53,38,24,131,89,106,106,40,23,5,6,0.6,0.4
2023-04-03T16:00:00,1232A,120.2697,30.1819,杭州市,城厢镇,,40,40,46,13,22,141,68,93,92,61,42,7,8,0.5,0.6
2023-04-03T16:00:00,1233A,120.0883,30.1808,杭州市,云栖,,24,24,35,4,14,154,55,92,88,36,34,4,6,0.5,0.5
2023-04-03T16:00:00,1234A,121.8358,29.911,宁波市,区环保大楼,,40,40,42,17,20,132,121,127,127,12,23,4,4,0.5,0.5
2023-04-03T16:00:00,1235A,121.56,29.82,宁波市,万里学院,,41,41,39,18,20,143,131,135,135,16,16,6,6,0.5,0.5
2023-04-03T16:00:00,1236A,121.713,29.9572,宁波市,龙赛医院,,43,32,45,12,17,137,135,134,134,11,27,6,8,0.3,0.5
2023-04-03T16:00:00,1239A,121.633,29.7733,宁波市,钱湖水厂,,40,37,31,19,17,138,128,130,130,5,7,3,3,0.4,0.4
2023-04-03T16:00:00,1240A,121.5856,29.8635,宁波市,太古小学,,39,35,39,11,16,135,124,130,130,17,21,5,6,0.5,0.6
2023-04-03T16:00:00,1241A,121.524,29.8674,宁波市,市环境监测中心,,40,40,43,16,17,132,120,121,121,19,23,7,7,0.3,0.3
2023-04-03T16:00:00,1242A,120.634,28.0089,温州市,瓯海,颗粒物(PM10),63,76,87,44,47,132,81,74,74,50,44,7,8,0.5,0.5
2023-04-03T16:00:00,1243A,120.6748,27.9939,温州市,南浦,,45,45,65,22,38,142,105,84,84,30,30,6,7,0.4,0.5
2023-04-03T16:00:00,1244A,120.76,27.9747,温州市,龙湾,,49,49,77,22,36,140,99,89,89,39,42,7,8,0.4,0.4
2023-04-03T16:00:00,1245A,120.6709,28.0167,温州市,市站,颗粒物(PM10),54,57,78,25,42,119,75,70,70,72,52,6,6,0.4,0.5
2023-04-03T16:00:00,1247A,120.6053,29.9928,绍兴市,城东开发委,,39,24,35,10,17,135,122,118,118,20,26,6,6,0.3,0.5
2023-04-03T16:00:00,1250A,120.0751,30.8669,湖州市,城西水厂,颗粒物(PM10),54,58,48,22,21,134,90,108,98,41,25,5,7,0.5,0.4
2023-04-03T16:00:00,1252A,120.7436,30.778,嘉兴市,清河小学,颗粒物(PM10),52,54,42,18,25,119,109,110,110,34,24,6,6,0.4,0.6
2023-04-03T16:00:00,1253A,120.726,30.7478,嘉兴市,嘉兴学院,颗粒物(PM10),51,52,45,18,20,130,114,121,121,28,19,7,7,0.4,0.4
2023-04-03T16:00:00,1255A,121.273,28.6459,台州市,黄岩环保大楼,,38,33,46,15,23,142,120,107,107,15,16,5,4,0.2,0.3
2023-04-03T16:00:00,1256A,121.419,28.6542,台州市,台州环保大楼,,46,46,49,26,22,134,108,124,118,15,13,5,5,0.4,0.4
2023-04-03T16:00:00,1257A,121.377,28.5773,台州市,路桥田洋王,,42,42,45,21,30,136,103,116,116,18,14,8,6,0.3,0.3
2023-04-03T16:00:00,1258A,122.122,30.0203,舟山市,定海檀枫,,39,39,39,18,21,129,97,102,102,17,14,5,5,0.5,0.6
2023-04-03T16:00:00,1259A,122.3094,29.9558,舟山市,普陀东港,,43,43,38,21,23,142,96,97,97,18,15,6,5,0.4,0.5
2023-04-03T16:00:00,1260A,122.19,29.9944,舟山市,临城新区,,,49,43,23,22,140,102,106,103,,20,5,5,0.3,0.3
2023-04-03T16:00:00,1262A,119.647,29.077,金华市,十五中,,,,54,,24,106,,111,,,28,,7,,0.5
2023-04-03T16:00:00,1263A,119.686,29.1029,金华市,监测站,,48,48,55,16,25,186,93,114,114,30,31,5,11,0.5,0.6
2023-04-03T16:00:00,1264A,118.8692,28.9398,衢州市,环保大楼,,36,36,49,20,28,159,88,119,85,22,24,5,10,0.5,0.6
2023-04-03T16:00:00,1265A,118.8709,28.9666,衢州市,实验学校,,38,38,44,24,24,156,81,117,83,21,21,5,9,0.3,0.4
2023-04-03T16:00:00,1266A,118.8621,28.9808,衢州市,衢州学院,,37,37,44,20,23,154,79,117,81,21,23,5,5,0.3,0.3
2023-04-03T16:00:00,1267A,119.914,28.4514,丽水市,监测站大楼,,34,34,40,11,15,137,99,107,104,16,15,8,9,0.1,0.2
2023-04-03T16:00:00,1268A,119.93,28.4586,丽水市,莲都小学,,42,42,45,13,17,150,103,119,106,21,17,7,8,0.2,0.3
2023-04-03T16:00:00,1269A,119.879,28.4231,丽水市,余庄前,,36,29,34,15,20,145,114,106,106,8,12,9,9,0,0.1
2023-04-03T16:00:00,1270A,117.1959,31.7848,合肥市,明珠广场,,48,48,55,31,24,152,71,108,82,28,22,2,5,0.5,0.5
2023-04-03T16:00:00,1271A,117.3072,31.8764,合肥市,三里街,细颗粒物(PM2.5),52,48,50,36,25,145,62,96,69,33,28,5,6,0.6,0.6
2023-04-03T16:00:00,1272A,117.2588,31.8707,合肥市,琥珀山庄,,36,36,53,24,27,134,78,98,78,23,24,3,4,0.6,0.7
2023-04-03T16:00:00,1273A,117.1604,31.9052,合肥市,董铺水库,,34,34,56,22,21,140,79,100,82,19,18,3,4,0.3,0.4
2023-04-03T16:00:00,1274A,117.25,31.8571,合肥市,长江中路,,36,36,54,25,28,151,79,101,80,21,21,8,10,0.8,0.8
2023-04-03T16:00:00,1275A,117.266,31.9436,合肥市,庐阳区,,46,46,51,29,22,139,68,96,71,31,27,8,9,0.6,0.5
2023-04-03T16:00:00,1276A,117.336,31.8586,合肥市,瑶海区,,46,46,55,28,21,143,66,98,74,28,23,6,8,0.6,0.6
2023-04-03T16:00:00,1277A,117.3027,31.7964,合肥市,包河区,,34,34,57,22,26,150,79,109,81,24,24,9,11,0.4,0.3
2023-04-03T16:00:00,1278A,117.2776,31.7385,合肥市,滨湖新区,,41,41,48,22,21,153,78,104,86,26,21,6,6,0.4,0.4
2023-04-03T16:00:00,1279A,117.1318,31.8403,合肥市,高新区,,44,44,53,24,22,155,78,108,83,27,23,8,8,0.4,0.4
2023-04-03T16:00:00,1280A,119.3903,26.0543,福州市,鼓山,,,,,,,,,,,,,,,,
2023-04-03T16:00:00,1282A,119.2681,26.0504,福州市,师大,颗粒物(PM10),55,60,40,16,20,133,121,96,96,13,24,6,5,0.4,0.5
2023-04-03T16:00:00,1283A,119.2984,26.1028,福州市,五四北路,,37,31,35,11,17,126,118,94,94,12,21,3,4,0.5,0.6
2023-04-03T16:00:00,1284A,119.2648,26.0768,福州市,杨桥西路,颗粒物(PM10),51,51,42,14,19,127,116,93,93,9,22,4,4,0.5,0.5
2023-04-03T16:00:00,1285A,119.317,26.0746,福州市,紫阳,,40,40,42,9,19,121,113,84,84,9,24,4,4,0.4,0.6
2023-04-03T16:00:00,1286A,118.1608,24.8169,厦门市,溪东,,,,,,,,,,,,,,,,
2023-04-03T16:00:00,1287A,118.1514,24.4767,厦门市,洪文,颗粒物(PM10),52,53,33,23,18,125,113,100,100,12,17,4,4,0.4,0.4
2023-04-03T16:00:00,1288A,118.0661,24.4444,厦门市,鼓浪屿,颗粒物(PM10),51,51,31,25,17,117,117,91,91,14,23,4,6,0.3,0.3
2023-04-03T16:00:00,1290A,115.8931,28.6843,南昌市,省外办,颗粒物(PM10),52,54,47,26,25,89,55,40,29,18,24,4,4,0.6,0.5
2023-04-03T16:00:00,1291A,115.8886,28.7003,南昌市,省林业公司,,44,44,30,29,27,85,53,43,30,23,25,5,6,0.4,0.4
2023-04-03T16:00:00,1292A,115.8126,28.7442,南昌市,林科所,,36,36,21,19,18,75,32,25,18,30,38,8,9,0.6,0.6
2023-04-03T16:00:00,1294A,115.8518,28.687,南昌市,建工学校,颗粒物(PM10),52,54,47,20,27,75,43,39,22,32,36,9,10,0.8,0.8
2023-04-03T16:00:00,1295A,115.8921,28.6424,南昌市,象湖,,36,36,39,23,24,68,53,34,26,13,28,5,5,0.6,0.8
2023-04-03T16:00:00,1296A,115.7423,28.7996,南昌市,武术学校,,37,37,31,0,19,73,38,50,46,12,7,2,10,0.5,0.5
2023-04-03T16:00:00,1298A,115.9314,28.6842,南昌市,省站,,36,26,43,25,28,88,67,47,47,5,21,6,8,0.7,1.1
2023-04-03T16:00:00,1299A,116.9862,36.6114,济南市,科干所,,36,36,70,12,23,175,110,139,125,18,24,7,9,0.4,0.5
2023-04-03T16:00:00,1300A,116.9376,36.665,济南市,农科所,颗粒物(PM10),52,54,82,15,26,157,99,124,106,17,26,3,6,0.4,0.6
2023-04-03T16:00:00,1301A,117.1265,36.6734,济南市,开发区,,44,44,77,23,28,170,111,129,115,13,21,7,10,0.5,0.6
2023-04-03T16:00:00,1303A,117.0624,36.6868,济南市,省种子仓库,颗粒物(PM10),60,70,83,27,35,172,114,133,114,16,25,6,10,0.5,0.6
2023-04-03T16:00:00,1304A,116.9489,36.6447,济南市,机床二厂,,49,49,82,15,27,172,111,136,116,14,18,2,6,0.4,0.6
2023-04-03T16:00:00,1305A,117.0495,36.663,济南市,市监测站,颗粒物(PM10),52,54,75,17,25,176,118,142,121,20,27,6,9,0.5,0.6
2023-04-03T16:00:00,1306A,116.7675,36.5484,济南市,长清党校,,39,39,77,12,26,174,113,132,126,15,21,9,12,0.6,0.6
2023-04-03T16:00:00,1307A,120.6659,36.2403,青岛市,仰口,,49,44,62,31,37,154,154,136,134,24,39,3,2,0.6,0.7
2023-04-03T16:00:00,1310A,120.4134,36.0658,青岛市,市南区东部子站,颗粒物(PM10),54,58,54,31,28,142,142,118,118,20,38,6,7,0.5,0.5
2023-04-03T16:00:00,1311A,120.3664,36.1032,青岛市,四方区子站,颗粒物(PM10),56,61,64,31,29,147,130,113,110,23,30,7,8,0.6,0.5
2023-04-03T16:00:00,1312A,120.2994,36.054,青岛市,市南区西部子站,颗粒物(PM10),54,58,58,24,24,154,154,128,128,20,44,9,11,0.5,0.5
2023-04-03T16:00:00,1313A,120.4581,36.0858,青岛市,崂山区子站,颗粒物(PM10),53,56,60,27,22,153,153,130,130,14,27,7,8,0.3,0.3
2023-04-03T16:00:00,1314A,120.1983,35.9608,青岛市,黄岛区子站,,,53,60,34,32,150,,142,120,24,35,6,6,0.5,0.4
2023-04-03T16:00:00,1315A,120.3999,36.3083,青岛市,城阳区子站,颗粒物(PM10),57,64,77,17,27,157,135,134,134,8,16,5,6,0.4,0.4
2023-04-03T16:00:00,1316A,113.69031,34.76122,郑州市,烟厂,,27,16,47,14,25,149,86,98,86,14,17,4,6,0.5,0.6
2023-04-03T16:00:00,1317A,113.65724,34.77134,郑州市,郑纺机,,26,22,45,10,22,146,82,97,84,13,15,2,3,0.6,0.6
2023-04-03T16:00:00,1318A,113.67526,34.80246,郑州市,银行学校,,29,21,50,16,28,139,91,93,91,13,16,4,5,0.7,0.8
2023-04-03T16:00:00,1319A,113.56746,34.81334,郑州市,供水公司,,30,17,57,13,24,154,93,93,93,12,15,3,5,0.2,0.3
2023-04-03T16:00:00,1320A,113.7329,34.7178,郑州市,经开区管委,,27,19,45,15,30,147,85,104,84,10,12,2,3,0.5,0.6
2023-04-03T16:00:00,1321A,113.73961,34.77172,郑州市,四十七中,,,15,45,,39,156,93,97,92,11,15,3,4,0.5,0.6
2023-04-03T16:00:00,1322A,113.60532,34.74838,郑州市,市监测站,,29,17,48,12,22,154,92,110,92,10,14,4,6,0.6,0.7
2023-04-03T16:00:00,1323A,113.64164,34.7525,郑州市,河医大,,27,27,50,12,25,144,82,101,81,16,18,5,6,0.5,0.6
2023-04-03T16:00:00,1324A,113.51488,34.91089,郑州市,岗李水库,,,,,,,,,,,,,,,,
2023-04-03T16:00:00,1325A,114.3677,30.5584,武汉市,东湖梨园,,30,30,37,17,25,135,57,95,50,20,15,6,6,0.8,0.8
2023-04-03T16:00:00,1326A,114.2529,30.558,武汉市,汉阳月湖,,26,26,38,14,22,105,35,67,33,36,26,6,6,1.5,1
2023-04-03T16:00:00,1327A,114.282,30.6189,武汉市,汉口花桥,,,34,47,,25,125,53,84,37,25,24,6,6,0.8,0.9
2023-04-03T16:00:00,1328A,114.3025,30.5332,武汉市,武昌紫阳,,25,22,37,17,28,116,32,78,34,36,23,7,8,1.4,1
2023-04-03T16:00:00,1329A,114.3646,30.6217,武汉市,青山钢花,,30,30,64,19,35,132,50,95,40,21,18,9,7,1.3,1.2
2023-04-03T16:00:00,1330A,114.1566,30.4825,武汉市,沌口新区,,29,29,40,18,28,101,49,62,34,27,23,6,7,1.4,1
2023-04-03T16:00:00,1331A,114.3014,30.5944,武汉市,汉口江滩,,36,36,34,10,22,137,47,89,30,28,25,6,6,1.1,1
2023-04-03T16:00:00,1333A,114.135,30.6319,武汉市,吴家山,,28,28,38,0,19,124,43,78,31,30,25,6,6,0.8,0.9
2023-04-03T16:00:00,1334A,113.8454,30.2917,武汉市,沉湖七壕,,23,19,51,16,22,117,44,79,41,16,11,10,11,1.0,0.8
2023-04-03T16:00:00,1335A,113.0833,28.2325,长沙市,经开区环保局,,33,33,27,21,24,97,76,75,75,4,10,1,2,0.4,0.5
2023-04-03T16:00:00,1336A,112.8872,28.2189,长沙市,高开区环保局,,35,35,31,24,24,98,78,80,80,7,9,8,8,0.6,0.4
2023-04-03T16:00:00,1337A,113.0792,28.2053,长沙市,马坡岭,,,,33,,23,52,,58,,,14,,7,,0.5
2023-04-03T16:00:00,1338A,112.9394,28.19,长沙市,湖南师范大学,,,37,37,25,28,88,72,69,69,,12,4,7,0.6,0.8
2023-04-03T16:00:00,1339A,113.0178,28.1322,长沙市,雨花区环保局,,29,28,31,20,22,95,78,78,78,4,9,4,5,0.6,0.7
2023-04-03T16:00:00,1340A,112.9792,28.2597,长沙市,伍家岭,,43,43,40,19,19,102,82,79,79,5,14,4,6,0.5,0.7
2023-04-03T16:00:00,1341A,113.0014,28.1944,长沙市,火车新站,,29,29,33,11,20,86,68,69,69,8,18,5,6,0.6,0.7
2023-04-03T16:00:00,1342A,112.9844,28.1178,长沙市,天心区环保局,,32,32,36,18,19,82,66,67,67,8,14,2,3,0.4,0.5
2023-04-03T16:00:00,1343A,112.8908,28.1308,长沙市,湖南中医药大学,,40,40,37,13,17,87,65,70,70,16,19,6,5,1.2,0.9
2023-04-03T16:00:00,1344A,112.9581,28.3611,长沙市,沙坪,,43,43,30,23,22,91,79,71,71,8,17,3,6,0.5,0.6
2023-04-03T16:00:00,1345A,113.2347,23.1423,广州市,广雅中学,,36,36,34,19,21,64,58,55,55,37,40,4,5,0.7,0.8
2023-04-03T16:00:00,1346A,113.2612,23.105,广州市,市五中,,36,36,35,24,22,73,73,63,63,28,36,6,7,0.7,0.8
2023-04-03T16:00:00,1348A,113.3478,23.0916,广州市,广东商学院,,32,32,33,18,18,72,67,57,57,33,41,4,4,0.7,0.7
2023-04-03T16:00:00,1349A,113.4332,23.1047,广州市,市八十六中,,45,45,46,21,21,80,60,57,57,39,43,4,7,0.6,0.7
2023-04-03T16:00:00,1350A,113.3505,22.9483,广州市,番禺中学,,33,33,32,21,18,75,67,63,63,39,33,5,5,0.8,0.8
2023-04-03T16:00:00,1351A,113.2146,23.3916,广州市,花都师范,,37,37,40,18,21,84,78,64,64,28,39,6,6,0.7,0.7
2023-04-03T16:00:00,1352A,113.2597,23.1331,广州市,市监测站,,29,29,33,16,19,75,75,60,60,29,39,6,7,0.5,0.6
2023-04-03T16:00:00,1353A,113.5618,23.312,广州市,九龙镇镇龙,颗粒物(PM10),52,54,40,26,22,108,88,83,83,38,28,5,5,0.6,0.6
2023-04-03T16:00:00,1354A,113.2765,23.1544,广州市,麓湖,,37,37,33,17,19,77,71,62,62,27,32,4,5,0.5,0.6
2023-04-03T16:00:00,1355A,113.443,23.3035,广州市,帽峰山森林公园,,48,48,28,25,16,100,94,84,84,39,23,6,5,0.8,0.7
2023-04-03T16:00:00,1356A,114.1063,22.5545,深圳市,通心岭子站,,28,28,26,17,16,93,89,84,80,8,8,3,3,0.4,0.5
2023-04-03T16:00:00,1357A,114.117,22.5625,深圳市,洪湖,,39,39,31,19,16,105,104,94,91,11,12,8,8,0.4,0.4
2023-04-03T16:00:00,1358A,113.987,22.5417,深圳市,华侨城,,31,24,25,18,16,98,98,90,84,15,12,4,4,0.5,0.5
2023-04-03T16:00:00,1359A,113.9181,22.5171,深圳市,南海子站,,,33,32,17,17,93,89,85,82,,12,,4,0.6,0.6
2023-04-03T16:00:00,1360A,114.2458,22.5689,深圳市,盐田,,36,36,27,20,16,106,95,86,78,11,21,5,6,0.6,0.7
2023-04-03T16:00:00,1361A,114.2283,22.7244,深圳市,龙岗,,30,29,28,15,15,99,93,86,85,15,14,2,3,0.5,0.5
2023-04-03T16:00:00,1363A,114.494,22.5422,深圳市,南澳,,31,31,24,16,14,106,95,91,91,13,9,1,2,0.6,0.6
2023-04-03T16:00:00,1364A,114.41,22.6342,深圳市,葵涌,,36,36,28,20,16,106,95,95,92,11,8,5,5,0.4,0.4
2023-04-03T16:00:00,1365A,114.297,22.5978,深圳市,梅沙,,39,39,31,22,18,115,99,95,94,12,9,5,5,0.8,0.7
2023-04-03T16:00:00,1366A,114.0678,22.738,深圳市,观澜,,30,30,39,14,19,74,74,71,61,26,23,8,8,0.5,0.5
2023-04-03T16:00:00,1367A,113.5814,22.2618,珠海市,吉大,,35,26,25,15,16,111,111,97,97,10,12,5,4,0.4,0.4
2023-04-03T16:00:00,1368A,113.4881,22.2335,珠海市,前山,,32,29,25,22,20,97,97,84,84,25,19,3,3,0.4,0.4
2023-04-03T16:00:00,1369A,113.628,22.4251,珠海市,唐家,,35,34,28,24,20,87,81,76,75,32,24,4,4,0.2,0.1
2023-04-03T16:00:00,1370A,113.299,22.2281,珠海市,斗门,,29,29,30,20,19,90,90,78,76,20,17,3,3,0.4,0.4
2023-04-03T16:00:00,1371A,113.1294,23.0067,佛山市,湾梁,,44,44,38,16,15,89,76,71,71,25,26,8,8,0.6,0.6
2023-04-03T16:00:00,1372A,113.1083,23.0478,佛山市,华材职中,,34,34,34,16,16,85,79,67,67,24,27,6,6,0.4,0.4
2023-04-03T16:00:00,1373A,113.144,23.0453,佛山市,南海气象局,,,36,32,19,19,62,53,50,50,34,33,,5,0.5,0.6
2023-04-03T16:00:00,1374A,113.2881,22.8094,佛山市,顺德苏岗,,27,27,23,17,18,70,66,60,60,24,26,7,8,0.6,0.6
2023-04-03T16:00:00,1376A,112.8383,22.8678,佛山市,高明孔堂,,31,31,29,16,14,82,72,74,69,12,13,4,4,0.6,0.5
2023-04-03T16:00:00,1377A,112.8836,23.1588,佛山市,三水监测站,,41,41,42,22,23,63,48,39,39,50,48,5,5,0.6,0.6
2023-04-03T16:00:00,1378A,112.867,23.185,佛山市,三水云东海,,46,46,44,19,20,72,65,48,48,38,40,5,4,0.4,0.5
2023-04-03T16:00:00,1379A,113.3769,22.5211,中山市,华柏园,,28,20,25,16,16,88,88,68,68,12,17,3,3,0.5,0.5
2023-04-03T16:00:00,1380A,113.3881,22.5497,中山市,张溪,,39,39,32,21,16,85,76,75,68,28,22,4,4,0.4,0.4
2023-04-03T16:00:00,1381A,113.4075,22.5111,中山市,紫马岭,,29,24,27,15,15,96,92,75,75,12,17,6,6,0.4,0.4
2023-04-03T16:00:00,1382A,113.4411,22.4853,中山市,长江旅游区,,28,21,23,15,15,92,89,71,71,12,18,10,10,0.5,0.5
2023-04-03T16:00:00,1383A,113.1064,22.6058,江门市,北街,,30,30,30,16,15,84,65,65,65,14,18,5,5,0.5,0.6
2023-04-03T16:00:00,1384A,113.0731,22.5835,江门市,西区,,29,29,29,18,16,80,71,69,69,22,20,6,6,0.6,0.6
2023-04-03T16:00:00,1385A,113.0219,22.5311,江门市,圭峰西,,36,36,31,21,16,83,74,77,76,24,19,6,6,0.5,0.5
2023-04-03T16:00:00,1386A,113.0828,22.5947,江门市,东湖,,42,42,33,24,18,86,77,74,74,18,17,5,5,0.5,0.6
2023-04-03T16:00:00,1389A,113.7547,23.0494,东莞市,莞城梨川,,40,40,30,20,18,100,90,80,75,25,25,8,8,0.6,0.6
2023-04-03T16:00:00,1390A,113.7944,23.0128,东莞市,东城石井,,37,37,29,20,17,101,88,79,72,21,20,8,8,0.7,0.7
2023-04-03T16:00:00,1391A,113.7383,22.9658,东莞市,南城西平,,37,37,35,21,18,76,70,74,63,29,23,9,8,0.4,0.4
2023-04-03T16:00:00,1392A,114.4183,23.0528,惠州市,河南岸金山湖子站,,46,46,30,19,16,94,90,84,78,12,13,5,5,0.4,0.5
2023-04-03T16:00:00,1393A,114.4053,23.0822,惠州市,下埔横江三路子站,,34,34,31,20,15,104,93,93,88,14,14,4,5,0.3,0.4
2023-04-03T16:00:00,1394A,114.4103,23.1142,惠州市,江北云山西路子站,,32,30,31,22,17,106,97,94,84,8,12,6,6,0.5,0.5
2023-04-03T16:00:00,1395A,114.4645,22.7833,惠州市,惠阳区承修路船湖子站,,,,25,,15,100,95,89,86,16,15,,5,0.7,0.7
2023-04-03T16:00:00,1396A,114.5317,22.7422,惠州市,大亚湾管委会子站,,37,37,30,16,15,107,106,91,91,12,16,7,7,0.9,0.9
2023-04-03T16:00:00,1397A,112.4267,23.0706,肇庆市,睦岗子站,,32,32,36,16,20,63,34,60,34,46,30,8,7,0.7,0.7
2023-04-03T16:00:00,1398A,112.4645,23.0475,肇庆市,城中子站,,32,32,40,18,28,61,47,52,42,33,32,8,8,0.8,0.7
2023-04-03T16:00:00,1399A,112.5544,23.1522,肇庆市,坑口子站,,,32,43,25,35,44,13,38,15,55,46,5,8,,0.6
2023-04-03T16:00:00,1400A,112.4753,23.1,肇庆市,七星岩子站,,,,,,,,,,,,,,,,
2023-04-03T16:00:00,1401A,108.3103,22.7881,南宁市,二十一中,,35,35,43,20,24,88,88,69,69,8,12,5,5,0.9,0.9
2023-04-03T16:00:00,1402A,108.3141,22.8528,南宁市,北湖,,41,41,40,23,26,82,82,61,61,9,12,6,6,0.8,0.8
2023-04-03T16:00:00,1403A,108.3206,22.8225,南宁市,市监测站,,40,40,40,23,27,82,79,60,60,21,19,6,6,0.7,0.8
2023-04-03T16:00:00,1404A,108.3829,22.8037,南宁市,大自然花园,,36,36,35,23,24,79,78,59,59,9,9,6,6,0.6,0.7
2023-04-03T16:00:00,1405A,108.4394,22.7904,南宁市,仙葫,颗粒物(PM10),59,68,39,24,23,84,84,62,62,9,12,6,6,0.6,0.6
2023-04-03T16:00:00,1406A,108.2397,22.8467,南宁市,区农职院,,35,35,42,17,23,74,74,60,60,16,18,6,6,0.8,0.8
2023-04-03T16:00:00,1407A,108.3275,22.735,南宁市,英华嘉园,,33,33,39,19,24,74,74,56,56,13,19,6,6,0.8,0.8
2023-04-03T16:00:00,1408A,108.2257,22.7757,南宁市,沙井镇街道办,,37,37,45,22,23,79,77,67,67,10,19,5,5,0.7,0.7
2023-04-03T16:00:00,1409A,110.576,19.9507,海口市,东寨港,,,21,21,3,11,26,22,26,22,,,7,6,0.3,0.4
2023-04-03T16:00:00,1410A,110.3232,20.0574,海口市,海南大学,,23,23,28,13,16,68,65,62,62,6,5,6,6,0.4,0.4
2023-04-03T16:00:00,1411A,110.283,20.0053,海口市,秀英海南医院,,33,33,27,16,16,72,59,61,61,15,12,4,4,0.4,0.4
2023-04-03T16:00:00,1412A,110.338,19.9969,海口市,海南师范大学,,26,26,27,14,15,65,62,58,58,11,6,4,4,0.3,0.4
2023-04-03T16:00:00,1413A,110.33,20.0356,海口市,龙华路环保局宿舍,,24,24,27,14,17,60,58,54,54,6,5,4,4,0.5,0.4
2023-04-03T16:00:00,1414A,106.3787,29.8279,重庆市,缙云山,,27,27,41,12,24,140,66,87,50,13,13,15,10,0.3,0.4
2023-04-03T16:00:00,1416A,106.4213,29.8253,重庆市,天生,,39,39,49,26,35,129,68,64,50,12,16,10,11,0.6,0.8
2023-04-03T16:00:00,1417A,106.6263,29.7228,重庆市,两路,,46,46,57,23,34,137,78,62,62,6,26,6,6,0.6,0.8
2023-04-03T16:00:00,1418A,106.2953,29.5983,重庆市,虎溪,,32,28,42,22,35,148,87,83,66,6,10,9,12,0.5,0.7
2023-04-03T16:00:00,1419A,106.5777,29.5102,重庆市,南坪,细颗粒物(PM2.5),58,50,68,41,39,135,82,67,67,20,41,5,8,0.5,0.7
2023-04-03T16:00:00,1420A,106.6556,29.6277,重庆市,唐家沱,,47,47,71,20,33,150,77,58,58,21,52,6,7,0.7,0.9
2023-04-03T16:00:00,1421A,106.6349,29.4906,重庆市,茶园,,48,48,63,25,36,154,94,76,76,18,40,6,8,0.8,0.8
2023-04-03T16:00:00,1422A,106.3754,29.4572,重庆市,白市驿,颗粒物(PM10),51,52,59,30,33,180,104,84,80,12,21,10,11,0.7,0.8
2023-04-03T16:00:00,1425A,106.6205,29.7166,重庆市,空港,,42,42,54,24,35,140,74,62,62,9,22,8,9,0.6,0.8
2023-04-03T16:00:00,1426A,106.4782,29.4875,重庆市,新山村,,48,48,62,24,35,125,80,62,62,17,34,8,10,0.5,0.6
2023-04-03T16:00:00,1427A,106.5616,29.6453,重庆市,礼嘉,,43,43,56,23,35,141,73,75,61,17,23,8,9,0.6,0.8
2023-04-03T16:00:00,1428A,106.4522,29.7091,重庆市,蔡家,,40,40,63,28,36,145,78,62,61,12,23,10,8,0.6,0.8
2023-04-03T16:00:00,1429A,106.5093,29.3917,重庆市,鱼新街,,39,39,56,25,37,160,107,84,84,16,41,6,10,0.4,0.7
2023-04-03T16:00:00,1431A,103.9728,30.7236,成都市,金泉两河,,36,36,33,19,15,136,80,65,65,13,14,2,1,0.4,0.5
2023-04-03T16:00:00,1432A,104.176,30.6872,成都市,十里店,,27,17,28,2,14,133,84,72,72,10,12,1,2,0.3,0.4
2023-04-03T16:00:00,1433A,104.079,30.5706,成都市,三瓦窑,,29,24,31,1,12,146,92,74,74,1,10,3,2,0.2,0.3
2023-04-03T16:00:00,1434A,104.1114,30.63,成都市,沙河铺,,28,18,32,3,15,139,87,73,73,11,13,1,2,0.3,0.4
2023-04-03T16:00:00,1437A,104.0786,30.6531,成都市,君平街,,29,26,31,14,16,139,91,73,73,9,13,2,2,0.3,0.4
2023-04-03T16:00:00,1438A,103.613,31.0283,成都市,灵岩寺,,,,,,,,,,,,,,,,
2023-04-03T16:00:00,1439A,106.6899,26.5998,贵阳市,马鞍山,,46,46,62,27,39,139,139,119,119,9,12,6,7,0.5,0.7
2023-04-03T16:00:00,1440A,106.6971,26.5694,贵阳市,市环保站,颗粒物(PM10),73,95,72,28,45,140,139,112,112,17,26,4,5,0.5,0.7
2023-04-03T16:00:00,1441A,106.6243,26.6266,贵阳市,鉴湖路,颗粒物(PM10),60,70,72,24,31,135,133,116,116,10,10,4,6,0.3,0.4
2023-04-03T16:00:00,1442A,106.7487,26.6343,贵阳市,燕子冲,颗粒物(PM10),57,63,74,34,50,137,135,117,117,13,17,4,5,0.4,0.6
2023-04-03T16:00:00,1443A,106.6555,26.4365,贵阳市,碧云窝,颗粒物(PM10),65,80,77,24,39,142,138,121,121,5,8,5,6,0.4,0.5
2023-04-03T16:00:00,1444A,106.694,26.5161,贵阳市,中院村,颗粒物(PM10),58,66,76,27,45,136,135,117,117,14,17,8,10,0.4,0.6
2023-04-03T16:00:00,1445A,106.7109,26.6027,贵阳市,红边门,颗粒物(PM10),58,66,76,34,49,134,134,107,107,17,31,6,7,0.5,0.7
2023-04-03T16:00:00,1446A,106.7164,26.5699,贵阳市,新华路,颗粒物(PM10),54,58,71,31,46,134,134,115,115,10,14,4,5,0.5,0.6
2023-04-03T16:00:00,1447A,106.674,26.5424,贵阳市,太慈桥,颗粒物(PM10),59,68,76,29,38,135,134,119,119,10,13,4,5,0.3,0.6
2023-04-03T16:00:00,1450A,102.8204,24.8886,昆明市,呈贡新区,,36,23,30,10,20,118,114,111,111,5,8,4,6,0.6,0.6
2023-04-03T16:00:00,1451A,102.6251,24.9608,昆明市,西山森林公园,,40,22,32,10,16,129,128,124,124,5,8,5,6,0.6,0.7
2023-04-03T16:00:00,1452A,102.7252,25.0902,昆明市,龙泉镇,,36,3,25,7,15,116,115,109,109,6,11,6,6,0.3,0.4
2023-04-03T16:00:00,1453A,102.7266,25.0375,昆明市,东风东路,,35,16,28,6,17,112,109,104,104,10,13,6,8,0.5,0.7
2023-04-03T16:00:00,1454A,102.6742,25.0669,昆明市,金鼎山,,37,25,26,5,19,119,116,112,112,8,8,4,4,0.6,0.6
2023-04-03T16:00:00,1455A,102.6644,25.0401,昆明市,碧鸡广场,,37,18,29,5,16,119,116,111,111,8,12,5,6,0.5,0.6
2023-04-03T16:00:00,1456A,91.1319,29.6514,拉萨市,八廓街,,35,17,17,3,5,126,112,111,103,11,10,9,10,0.3,0.3
2023-04-03T16:00:00,1457A,91.1221,29.6747,拉萨市,市环保局,,44,14,14,11,6,149,140,128,124,11,14,5,5,0.4,0.4
2023-04-03T16:00:00,1458A,91.0874,29.6475,拉萨市,区监测站,,43,12,25,4,10,137,137,121,121,10,12,6,6,0.5,0.5
2023-04-03T16:00:00,1459A,91.1774,29.6541,拉萨市,西藏大学,,45,8,11,4,3,154,143,131,124,5,9,5,6,0.4,0.4
2023-04-03T16:00:00,1460A,90.9798,29.6588,拉萨市,区辐射站,,38,18,19,6,6,128,121,108,100,14,18,7,7,0.5,0.5
2023-04-03T16:00:00,1461A,91.0834,29.6292,拉萨市,拉萨火车站,,44,16,15,0,4,151,138,132,120,9,10,8,8,0.3,0.3
2023-04-03T16:00:00,1462A,108.882,34.2749,西安市,高压开关厂,,19,12,30,13,15,64,58,61,56,20,18,7,6,0.3,0.3
2023-04-03T16:00:00,1463A,108.993,34.2629,西安市,兴庆小区,,16,9,22,6,10,57,50,56,50,14,13,4,5,0.4,0.8
2023-04-03T16:00:00,1464A,109.06,34.2572,西安市,纺织城,,19,4,20,4,10,64,58,64,56,10,10,4,4,0.3,0.3
2023-04-03T16:00:00,1465A,108.9356,34.2173,西安市,小寨,,18,12,32,3,8,63,55,62,56,12,10,6,6,0.3,0.3
2023-04-03T16:00:00,1466A,108.954,34.2713,西安市,市人民体育场,,16,10,26,8,12,58,51,54,52,13,11,5,5,0.3,0.3
2023-04-03T16:00:00,1467A,108.8922,34.2322,西安市,高新西区,,,,22,7,11,66,58,64,60,13,12,,7,0.4,0.4
2023-04-03T16:00:00,1468A,108.935,34.3474,西安市,经开区,,19,11,23,4,10,63,58,58,57,15,15,3,3,0.2,0.2
2023-04-03T16:00:00,1469A,108.906,34.1546,西安市,长安区,,20,9,28,2,8,73,63,70,65,11,10,6,6,0.2,0.2
2023-04-03T16:00:00,1471A,109.2186,34.3731,西安市,临潼区,,19,6,16,6,4,67,60,67,56,9,8,6,6,0.4,0.3
2023-04-03T16:00:00,1472A,108.869,34.378,西安市,草滩,,20,9,30,14,17,50,40,45,44,17,13,5,7,0.6,0.8
2023-04-03T16:00:00,1473A,108.985,34.1978,西安市,曲江文化产业集团,,19,4,22,4,9,70,59,70,61,17,14,4,4,0.4,0.3
2023-04-03T16:00:00,1474A,109.051,34.3213,西安市,广运潭,,18,8,21,5,11,60,55,59,54,15,15,5,5,0.3,0.3
2023-04-03T16:00:00,1476A,103.631,36.1031,兰州市,兰炼宾馆,颗粒物(PM10),62,74,67,32,37,101,101,95,79,23,21,4,6,0.4,0.5
2023-04-03T16:00:00,1477A,104.1373,35.9454,兰州市,榆中兰大校区,,,,,,,,,,,,,,,,
2023-04-03T16:00:00,1478A,103.8412,36.0726,兰州市,生物制品所,,,37,63,35,35,101,84,98,83,12,14,,10,0.8,0.9
2023-04-03T16:00:00,1479A,103.831,36.0464,兰州市,铁路设计院,细颗粒物(PM2.5),57,55,64,40,42,97,79,95,67,24,23,4,5,0.4,0.4
2023-04-03T16:00:00,1483A,101.524,36.6867,西宁市,第五水厂,,,,,,,,,,,,,,,,
2023-04-03T16:00:00,1484A,105.9512,38.6016,银川市,贺兰山马莲口,,39,39,47,14,15,108,84,76,76,22,18,27,17,1.0,0.8
2023-04-03T16:00:00,1488A,106.2328,38.4975,银川市,贺兰山东路,颗粒物(PM10),66,82,90,31,23,85,69,80,63,26,16,12,9,0.6,0.6
2023-04-03T16:00:00,1489A,106.1358,38.5036,银川市,学院路,颗粒物(PM10),71,92,84,26,21,76,63,61,58,33,20,20,11,0.7,0.5
2023-04-03T16:00:00,1490A,87.5801,43.8303,乌鲁木齐市,监测站,,,35,48,,8,96,92,71,71,10,21,3,4,0.4,0.5
2023-04-03T16:00:00,1491A,87.6046,43.768,乌鲁木齐市,收费所,,46,46,51,6,11,82,81,66,66,8,18,1,2,0.2,0.3
2023-04-03T16:00:00,1492A,87.4754,43.9469,乌鲁木齐市,新疆农科院农场,细颗粒物(PM2.5),67,39,43,48,64,73,70,58,58,6,10,6,6,0.3,0.4
2023-04-03T16:00:00,1493A,87.5525,43.8711,乌鲁木齐市,铁路局,,34,34,40,7,10,96,91,78,73,2,10,2,3,0.5,0.5
2023-04-03T16:00:00,1494A,87.6432,43.831,乌鲁木齐市,三十一中学,,28,28,34,1,9,91,87,72,72,2,6,6,8,0.4,0.4
2023-04-03T16:00:00,1496A,87.7216,44.1747,乌鲁木齐市,米东区环保局,,30,19,29,6,8,102,94,78,78,1,4,6,7,0.2,0.3
2023-04-03T16:00:00,1508A,112.9433,27.8614,湘潭市,板塘,,35,35,37,13,18,76,54,56,56,6,12,9,12,1.1,1.2
2023-04-03T16:00:00,1511A,112.9118,27.8403,湘潭市,市监测站,,26,17,32,18,21,89,71,72,72,7,12,6,9,0.9,1
2023-04-03T16:00:00,1512A,112.8937,27.8728,湘潭市,江麓,,,,42,,23,52,,58,,,18,,16,,1.0
2023-04-03T16:00:00,1513A,112.9227,27.8159,湘潭市,岳塘,,30,30,35,17,21,83,65,65,65,2,6,6,9,0.6,0.8
2023-04-03T16:00:00,1514A,112.9074,27.9119,湘潭市,科大,,36,33,36,25,19,94,69,68,68,21,22,5,8,0.7,0.9
2023-04-03T16:00:00,1515A,113.135,27.8244,株洲市,天台山庄,,,27,31,16,19,96,72,74,74,8,10,,7,0.8,0.9
2023-04-03T16:00:00,1518A,113.095,27.8867,株洲市,株冶医院,,28,24,36,19,23,89,72,74,74,8,14,3,5,0.6,0.7
2023-04-03T16:00:00,1519A,113.167,27.8667,株洲市,市四中,,28,19,27,19,20,90,69,69,69,7,11,9,11,1.0,1
2023-04-03T16:00:00,1520A,113.143,27.8381,株洲市,火车站,,46,27,31,32,25,88,71,69,69,12,16,2,6,0.4,0.7
2023-04-03T16:00:00,1524A,113.13,27.8528,株洲市,市监测站,,28,22,31,19,23,98,78,78,78,8,11,8,8,0.5,0.7
2023-04-03T16:00:00,1552A,106.805,26.3003,贵阳市,桐木岭,,,,,,,,,,,,,,,,
2023-04-03T16:00:00,1559A,113.251,27.8336,株洲市,大京风景区,,25,22,25,17,18,89,71,73,73,2,3,7,10,0.5,0.6
2023-04-03T16:00:00,1562A,113.0048,27.9153,湘潭市,昭山,,34,34,38,16,20,97,70,75,75,12,13,2,4,0.6,0.6
2023-04-03T16:00:00,1564A,112.4876,27.9164,湘潭市,韶山,,,26,35,12,14,227,,102,102,12,15,6,7,0.5,0.3
2023-04-03T16:00:00,1585A,109.8756,40.6532,包头市,市环境监测站,,27,27,123,7,19,95,81,93,83,22,11,9,10,0.6,0.8
2023-04-03T16:00:00,1587A,109.9991,40.5842,包头市,包头八中,,29,23,85,11,17,104,91,100,88,15,14,8,10,0.6,0.6
2023-04-03T16:00:00,1588A,109.8538,40.6821,包头市,青山宾馆,,29,29,111,12,18,91,91,82,81,17,10,7,7,0.3,0.3
2023-04-03T16:00:00,1589A,109.8642,40.6288,包头市,惠龙物流,,33,33,118,8,20,95,81,93,85,20,11,6,6,0.5,0.6
2023-04-03T16:00:00,1590A,110.0377,40.5546,包头市,东河鸿龙湾,,26,22,56,8,12,100,82,96,83,12,10,24,15,0.8,0.5
2023-04-03T16:00:00,1591A,110.0023,39.8129,鄂尔多斯市,综合楼,,29,7,10,2,4,92,92,88,88,14,12,6,10,0.5,0.4
2023-04-03T16:00:00,1592A,109.9486,39.8261,鄂尔多斯市,巴音孟克林场办事处,,30,9,9,5,8,96,96,89,89,12,11,5,6,0.6,0.6
2023-04-03T16:00:00,1593A,109.7736,39.5986,鄂尔多斯市,康泽苑,,28,7,11,3,4,91,87,89,89,12,9,8,8,0.4,0.4
2023-04-03T16:00:00,1594A,109.8119,39.5989,鄂尔多斯市,华泰汽车城,,29,14,10,9,9,94,91,90,90,10,9,10,11,0.5,0.5
2023-04-03T16:00:00,1595A,109.9734,39.7884,鄂尔多斯市,奥林花园,,31,5,9,2,6,97,97,93,93,9,9,5,6,0.6,0.8
2023-04-03T16:00:00,1597A,122.2703,40.7094,营口市,大庆路,颗粒物(PM10),63,76,100,30,60,162,157,130,130,25,58,8,14,0.6,1.2
2023-04-03T16:00:00,1598A,122.2150,40.6511,营口市,镜湖西路,颗粒物(PM10),67,83,92,37,44,150,148,126,126,27,32,9,12,0.8,1
2023-04-03T16:00:00,1599A,122.1658,40.6789,营口市,西炮台,臭氧1小时,77,72,83,36,47,189,181,161,161,32,56,6,9,0.9,0.7
2023-04-03T16:00:00,1600A,124.3303,40.0625,丹东市,江湾东路,颗粒物(PM10),53,55,132,30,78,147,137,126,126,10,27,9,15,0.5,1.3
2023-04-03T16:00:00,1601A,124.4256,40.1503,丹东市,临江后街,,47,47,112,26,59,151,146,138,138,11,24,10,17,0.6,1
2023-04-03T16:00:00,1602A,124.3933,40.1461,丹东市,元宝山,颗粒物(PM10),52,54,107,26,60,145,140,121,121,11,31,9,14,0.8,1.2
2023-04-03T16:00:00,1603A,124.3633,40.1092,丹东市,民主桥,,50,50,109,26,55,144,137,122,122,14,41,7,13,0.4,1
2023-04-03T16:00:00,1604A,122.0303,41.1489,盘锦市,开发区,臭氧1小时,72,54,65,31,42,177,177,152,152,16,41,7,9,0.5,0.5
2023-04-03T16:00:00,1605A,122.0485,41.0883,盘锦市,兴隆台,,50,29,70,25,42,164,158,150,150,14,36,6,9,0.6,0.7
2023-04-03T16:00:00,1606A,121.8297,41.1028,盘锦市,新生街道,臭氧1小时,82,84,59,36,45,186,185,167,167,24,34,35,10,0.6,0.6
2023-04-03T16:00:00,1607A,120.9092,40.7136,葫芦岛市,龙港区,臭氧1小时,59,60,62,31,33,167,167,147,147,9,23,10,10,0.6,0.7
2023-04-03T16:00:00,1608A,120.8392,40.7514,葫芦岛市,化工街,颗粒物(PM10),63,75,115,34,60,163,163,137,137,12,52,8,12,0.4,0.7
2023-04-03T16:00:00,1609A,120.8341,40.7073,葫芦岛市,新区,细颗粒物(PM2.5),60,52,69,43,45,166,164,139,139,19,44,13,12,0.7,0.8
2023-04-03T16:00:00,1610A,120.8695,40.7677,葫芦岛市,东城区,细颗粒物(PM2.5),67,75,97,48,58,156,155,132,132,18,64,10,13,0.5,0.9
2023-04-03T16:00:00,1611A,118.5819,24.9117,泉州市,涂山街,,50,50,35,23,13,144,142,124,124,18,15,10,8,0.7,0.5
2023-04-03T16:00:00,1612A,118.5972,24.8978,泉州市,津头埔,,49,49,35,26,18,144,140,123,123,21,21,10,9,0.7,0.6
2023-04-03T16:00:00,1613A,118.6663,24.9424,泉州市,万安,"颗粒物(PM10),细颗粒物(PM2.5)",53,56,35,37,22,154,146,129,129,19,17,12,11,0.8,0.6
2023-04-03T16:00:00,1614A,118.6117,24.9604,泉州市,清源山,,,,,,,,,,,,,,,,
2023-04-03T16:00:00,1616A,117.6795,36.229,济南市,技术学院,颗粒物(PM10),57,63,79,17,25,174,121,143,129,7,9,6,9,0.5,0.8
2023-04-03T16:00:00,1618A,118.3429,35.0532,临沂市,沂河小区,颗粒物(PM10),68,85,81,26,42,146,110,110,110,8,15,6,7,0.1,0.2
2023-04-03T16:00:00,1619A,118.295,35.0583,临沂市,鲁南制药厂,颗粒物(PM10),67,83,76,21,38,152,118,117,117,18,25,9,10,0.3,0.4
2023-04-03T16:00:00,1620A,118.2794,34.9976,临沂市,新光毛纺厂,,,80,84,20,36,152,99,119,106,12,16,6,7,,0.4
2023-04-03T16:00:00,1621A,118.3956,35.0888,临沂市,河东保险公司,颗粒物(PM10),75,100,80,22,42,159,121,118,118,14,24,8,9,0.4,0.5
2023-04-03T16:00:00,1622A,116.3032,37.4674,德州市,儿童乐园,,,110,91,53,43,166,125,113,113,32,36,14,10,,0.7
2023-04-03T16:00:00,1624A,116.2991,37.4451,德州市,监理站,颗粒物(PM10),89,127,96,63,47,161,125,114,114,31,35,17,13,0.6,0.6
2023-04-03T16:00:00,1625A,115.9848,36.4372,聊城市,区政府,,,,98,25,38,156,96,106,97,19,26,6,13,0.7,0.8
2023-04-03T16:00:00,1628A,118.0062,37.3803,滨州市,市环保局,颗粒物(PM10),91,132,128,33,41,153,120,119,119,16,21,7,11,0.4,0.6
2023-04-03T16:00:00,1629A,118.0018,37.3617,滨州市,第二水厂,颗粒物(PM10),91,132,129,22,26,160,123,126,126,18,27,6,10,0.5,0.6
2023-04-03T16:00:00,1630A,117.9776,37.393,滨州市,北中新校,颗粒物(PM10),90,130,117,35,42,163,126,126,126,20,25,9,13,0.5,0.6
2023-04-03T16:00:00,1631A,118.0414,36.8103,淄博市,人民公园,颗粒物(PM10),69,88,79,25,33,157,112,122,122,18,23,7,10,0.4,0.5
2023-04-03T16:00:00,1633A,117.8525,36.4847,淄博市,双山,颗粒物(PM10),51,51,57,12,20,161,107,142,122,17,15,9,9,0.2,0.3
2023-04-03T16:00:00,1634A,117.9592,36.6331,淄博市,气象站,颗粒物(PM10),57,63,65,22,25,173,122,128,121,16,23,10,13,0.2,0.3
2023-04-03T16:00:00,1635A,118.3092,36.8194,淄博市,莆田园,,,83,88,27,37,136,123,130,130,20,27,8,9,,0.4
2023-04-03T16:00:00,1637A,117.558,34.8438,枣庄市,市中区政府,颗粒物(PM10),52,53,92,22,39,178,99,120,106,25,29,8,22,0.3,0.4
2023-04-03T16:00:00,1638A,117.2852,34.7837,枣庄市,薛城环保局,,44,44,87,22,35,158,104,124,108,16,19,10,13,0.3,0.3
2023-04-03T16:00:00,1639A,117.5852,34.7745,枣庄市,峄城区政府,,46,46,78,19,29,174,101,132,108,18,18,12,13,0.3,0.3
2023-04-03T16:00:00,1640A,117.7276,34.5578,枣庄市,台儿庄区环保局,,44,44,74,19,31,153,90,110,100,15,23,9,12,0.6,0.7
2023-04-03T16:00:00,1641A,117.4518,35.0992,枣庄市,山亭区环保局,,,,74,,27,135,,142,,,19,,7,,0.7
2023-04-03T16:00:00,1642A,121.2514,37.5639,烟台市,开发区,,,,60,,34,127,,130,,,26,,10,,0.4
2023-04-03T16:00:00,1643A,121.3719,37.5433,烟台市,轴承厂,细颗粒物(PM2.5),54,51,61,38,36,172,125,146,139,33,19,6,7,0.5,0.5
2023-04-03T16:00:00,1644A,121.3181,37.5436,烟台市,西郊化工站,颗粒物(PM10),62,73,64,32,30,171,132,155,143,34,16,9,8,0.5,0.5
2023-04-03T16:00:00,1645A,121.4478,37.4822,烟台市,莱山环保局,,49,46,60,34,33,162,125,148,138,31,20,9,14,0.4,0.3
2023-04-03T16:00:00,1646A,121.2611,37.4967,烟台市,福山环保局,,,,68,,32,149,138,136,136,25,29,10,10,0.5,0.6
2023-04-03T16:00:00,1650A,119.1437,36.7023,潍坊市,环保局,,,61,70,27,40,175,139,126,125,19,29,8,9,,0.7
2023-04-03T16:00:00,1653A,116.6251,35.4302,济宁市,火炬城,颗粒物(PM10),57,63,67,22,33,162,97,140,106,21,15,8,11,0.7,0.6
2023-04-03T16:00:00,1655A,116.5491,35.4042,济宁市,电化厂,颗粒物(PM10),57,64,74,31,30,158,98,134,103,14,12,4,7,0.7,0.6
2023-04-03T16:00:00,1656A,117.1437,36.1937,泰安市,监测站,,34,34,79,3,34,159,108,136,118,4,11,4,8,0.3,0.5
2023-04-03T16:00:00,1657A,117.0885,36.2017,泰安市,人口学校,颗粒物(PM10),51,51,101,18,29,179,126,158,134,3,9,5,8,0.4,0.5
2023-04-03T16:00:00,1658A,117.1089,36.1758,泰安市,电力学校,,35,34,87,24,37,172,110,136,121,10,14,7,11,0.2,0.4
2023-04-03T16:00:00,1659A,119.471,35.4209,日照市,监测站,颗粒物(PM10),54,58,59,23,29,156,138,141,132,15,18,5,4,0.3,0.3
2023-04-03T16:00:00,1660A,119.523,35.4216,日照市,市政府广场,颗粒物(PM10),58,66,60,24,27,148,132,138,131,10,14,4,5,0.7,0.7
2023-04-03T16:00:00,1661A,119.5587,35.4044,日照市,港务局,,,53,57,27,27,148,132,135,134,,25,,7,0.5,0.5
2023-04-03T16:00:00,1662A,122.1214,37.4236,威海市,华夏技校,颗粒物(PM10),53,56,60,27,34,158,146,144,124,20,34,3,5,0.3,0.4
2023-04-03T16:00:00,1663A,122.0508,37.5236,威海市,山大分校,颗粒物(PM10),53,56,60,34,27,152,140,139,139,23,25,3,3,0.5,0.6
2023-04-03T16:00:00,1664A,122.1067,37.5072,威海市,市监测站,细颗粒物(PM2.5),55,51,60,39,33,136,128,122,122,23,37,5,6,0.5,0.5
2023-04-03T16:00:00,1666A,118.6614,37.4309,东营市,市环保局,颗粒物(PM10),81,112,93,27,35,170,138,139,139,21,24,14,13,0.3,0.3
2023-04-03T16:00:00,1669A,113.5824,24.7733,韶关市,市八中,,33,31,44,23,28,64,53,46,46,20,23,20,15,0.9,1
2023-04-03T16:00:00,1671A,113.5917,24.7972,韶关市,园林处,,29,29,44,17,27,60,54,43,43,16,20,15,13,0.7,1
2023-04-03T16:00:00,1672A,113.6735,24.7791,韶关市,韶关学院,,45,45,48,24,34,47,36,33,33,32,24,23,15,1.2,1
2023-04-03T16:00:00,1673A,113.5971,24.6863,韶关市,曲江监测站,,40,40,41,22,29,68,54,55,55,18,19,13,12,0.8,1
2023-04-03T16:00:00,1674A,116.6794,23.3667,汕头市,金平子站,,41,41,26,20,13,117,110,100,100,20,18,8,6,0.6,0.6
2023-04-03T16:00:00,1675A,116.7244,23.3633,汕头市,龙湖子站,,42,42,28,17,12,130,119,106,106,18,20,4,4,0.5,0.5
2023-04-03T16:00:00,1676A,116.7258,23.2775,汕头市,濠江子站,,43,43,24,23,13,114,110,111,99,17,12,8,7,0.5,0.5
2023-04-03T16:00:00,1677A,116.7519,23.4714,汕头市,澄海子站,,47,47,28,22,15,124,113,105,105,28,23,11,9,0.4,0.4
2023-04-03T16:00:00,1678A,116.6092,23.2539,汕头市,潮阳子站,,38,38,29,17,12,119,102,109,97,20,14,8,7,0.4,0.4
2023-04-03T16:00:00,1680A,110.3539,21.2706,湛江市,湛江影剧院,,28,28,29,17,15,74,69,74,69,3,4,5,5,0.6,0.7
2023-04-03T16:00:00,1681A,110.3928,21.2228,湛江市,市环境监测站,,33,31,28,23,22,74,69,73,70,4,4,7,6,0.5,0.5
2023-04-03T16:00:00,1682A,110.4019,21.1997,湛江市,环保局宿舍,,29,29,29,15,15,79,76,77,75,5,5,4,4,0.5,0.5
2023-04-03T16:00:00,1683A,110.4111,21.2028,湛江市,霞山游泳场,,31,31,30,18,17,82,76,80,77,6,6,4,4,0.5,0.5
2023-04-03T16:00:00,1684A,110.3316,21.2679,湛江市,麻章区环保局,,32,27,29,22,17,77,70,77,72,8,7,5,5,0.4,0.4
2023-04-03T16:00:00,1685A,110.4558,21.2567,湛江市,坡头区环保局,,26,26,26,17,15,85,78,80,79,4,4,6,5,0.6,0.6
2023-04-03T16:00:00,1686A,111.0286,21.4688,茂名市,电白南海,,,39,35,22,18,90,86,86,83,,7,5,5,0.5,0.5
2023-04-03T16:00:00,1687A,110.9294,21.6533,茂名市,茂石化七小,,39,39,34,24,22,82,78,77,77,6,7,6,5,0.7,0.7
2023-04-03T16:00:00,1688A,110.9107,21.6687,茂名市,健康路,,29,29,29,13,12,82,78,77,77,5,7,6,5,0.7,0.7
2023-04-03T16:00:00,1689A,110.8592,21.6828,茂名市,高岭,,39,39,36,22,22,83,79,79,79,9,7,8,9,0.7,0.7
2023-04-03T16:00:00,1690A,116.1231,24.3284,梅州市,梅江月梅,,34,34,36,11,26,98,90,89,87,14,10,8,7,0.5,0.5
2023-04-03T16:00:00,1691A,116.0797,24.2719,梅州市,梅县新城,,26,23,45,10,31,84,81,72,72,14,25,6,6,0.6,0.8
2023-04-03T16:00:00,1692A,116.1248,24.2654,梅州市,环境监控中心,,33,33,45,12,27,88,81,73,73,19,30,8,8,0.6,0.7
2023-04-03T16:00:00,1693A,115.3653,22.775,汕尾市,市环保局,,31,31,28,14,17,123,96,92,92,9,10,9,10,0.5,0.5
2023-04-03T16:00:00,1694A,115.3706,22.7898,汕尾市,市政府,,39,39,28,17,16,121,91,92,90,16,12,10,11,0.7,0.7
2023-04-03T16:00:00,1695A,115.3622,22.7925,汕尾市,新城中学,,47,47,30,16,16,120,95,93,92,10,9,6,7,0.8,0.7
2023-04-03T16:00:00,1696A,114.6778,23.7569,河源市,源西,,27,27,34,16,33,78,78,66,66,10,17,5,5,0.7,0.8
2023-04-03T16:00:00,1697A,114.6944,23.7586,河源市,东埔,,33,33,36,16,24,82,82,70,70,9,14,5,5,0.7,0.7
2023-04-03T16:00:00,1698A,114.6892,23.7233,河源市,老城,,38,38,49,17,22,84,83,70,70,8,14,5,5,0.7,0.7
2023-04-03T16:00:00,1699A,111.9797,21.8593,阳江市,鸳鸯湖,,29,28,24,18,15,92,92,84,84,2,3,8,7,0.8,0.7
2023-04-03T16:00:00,1701A,111.9491,21.8658,阳江市,马南垌,,34,34,26,22,19,93,93,88,86,4,5,4,5,0.7,0.7
2023-04-03T16:00:00,1702A,113.0426,23.691,清远市,环保大楼,,38,35,31,26,27,45,13,37,23,51,30,4,4,1.8,1.1
2023-04-03T16:00:00,1703A,113.0208,23.7106,清远市,凤城街办,,50,50,48,28,34,27,14,22,14,45,32,7,5,1.0,0.9
2023-04-03T16:00:00,1705A,116.6367,23.6719,潮州市,西园路,,35,32,36,24,25,120,93,67,67,15,20,7,8,0.4,0.4
2023-04-03T16:00:00,1706A,116.6447,23.6706,潮州市,档案局,,42,42,36,26,23,124,96,70,68,12,20,10,12,0.5,0.6
2023-04-03T16:00:00,1708A,116.3701,23.5345,揭阳市,新兴,,47,47,38,23,25,126,91,83,83,22,26,12,11,0.6,0.7
2023-04-03T16:00:00,1709A,116.3264,23.5443,揭阳市,西马,,44,44,44,20,23,132,90,77,77,16,21,10,10,0.6,0.7
2023-04-03T16:00:00,1710A,116.3611,23.5626,揭阳市,东兴,,46,46,38,24,22,131,89,80,80,23,27,10,10,0.6,0.7
2023-04-03T16:00:00,1711A,116.4151,23.5294,揭阳市,渔湖,,43,43,36,24,23,130,93,85,85,11,16,11,12,0.5,0.6
2023-04-03T16:00:00,1712A,112.0392,22.9169,云浮市,新市府,,24,11,25,14,17,76,76,60,60,2,16,3,3,0.6,0.9
2023-04-03T16:00:00,1714A,112.0539,22.9539,云浮市,牧羊,,21,21,27,13,19,65,59,65,49,14,18,6,6,0.6,0.6
2023-04-03T16:00:00,1715A,102.575,24.3711,玉溪市,东风水库,,37,37,37,16,23,110,110,102,102,6,10,4,5,0.6,0.7
2023-04-03T16:00:00,1718A,115.4208,35.2464,菏泽市,气象局,,33,30,71,23,31,151,94,119,93,16,21,4,8,0.4,0.5
2023-04-03T16:00:00,1719A,115.4747,35.2375,菏泽市,市政协,,33,27,69,23,31,160,92,123,91,14,19,3,7,0.4,0.5
2023-04-03T16:00:00,1721A,113.3819,40.1097,大同市,果树场,,,,,,,,,,,,,,,,
2023-04-03T16:00:00,1723A,113.2994,40.0758,大同市,云冈宾馆,,24,16,23,8,18,96,74,76,74,24,15,7,8,0.6,0.4
2023-04-03T16:00:00,1724A,113.3444,40.0917,大同市,大同大学,,27,13,26,6,16,113,84,65,65,18,16,7,8,0.5,0.8
2023-04-03T16:00:00,1725A,113.2661,40.1269,大同市,安家小村,,28,8,24,2,14,97,88,82,82,14,12,6,6,0.3,0.2
2023-04-03T16:00:00,1726A,113.2711,40.0844,大同市,教育学院,,24,10,25,13,14,88,75,75,72,22,16,7,7,1.0,1
2023-04-03T16:00:00,1727A,113.1147,36.1547,长治市,清华站,,36,11,35,12,28,160,113,120,117,23,18,4,5,0.5,0.5
2023-04-03T16:00:00,1728A,113.1031,36.1989,长治市,监测站,,34,14,38,17,36,140,108,112,110,18,15,2,4,0.8,0.9
2023-04-03T16:00:00,1730A,113.0886,36.2125,长治市,审计局,,35,14,35,17,38,146,112,116,114,14,12,6,7,0.4,0.5
2023-04-03T16:00:00,1731A,113.0844,36.1856,长治市,长治八中,,35,22,38,11,24,150,111,116,114,14,11,2,3,0.6,0.6
2023-04-03T16:00:00,1733A,111.5531,36.0783,临汾市,临钢医院,,35,28,57,14,58,111,109,92,74,16,18,3,3,0.8,0.8
2023-04-03T16:00:00,1734A,111.5028,36.0714,临汾市,技工学校,,35,29,56,13,42,115,111,97,79,26,15,2,4,0.5,0.5
2023-04-03T16:00:00,1736A,111.5018,36.0855,临汾市,市委,,40,12,60,8,50,130,128,114,91,11,15,4,5,0.8,0.8
2023-04-03T16:00:00,1738A,113.5758,37.8572,阳泉市,市中心,"颗粒物(PM10),细颗粒物(PM2.5)",58,65,77,41,58,148,117,107,107,16,20,8,10,0.8,0.8
2023-04-03T16:00:00,1739A,113.4894,37.8731,阳泉市,赛鱼,细颗粒物(PM2.5),63,56,78,45,54,151,119,111,111,17,20,7,9,0.8,0.8
2023-04-03T16:00:00,1740A,113.5819,37.8486,阳泉市,南庄,,,79,96,54,63,154,120,109,109,,21,,11,0.8,0.9
2023-04-03T16:00:00,1742A,113.5614,37.8703,阳泉市,平坦,细颗粒物(PM2.5),72,60,82,52,58,143,116,106,106,18,21,7,8,0.8,0.9
2023-04-03T16:00:00,1743A,113.5158,37.8392,阳泉市,大阳泉,,,36,63,36,41,156,124,112,112,19,19,8,10,,0.7
2023-04-03T16:00:00,1744A,118.9233,42.2816,赤峰市,松山一中,,25,25,54,6,27,147,73,117,63,20,23,9,12,0.4,0.7
2023-04-03T16:00:00,1745A,118.9576,42.2728,赤峰市,哈达街,,27,27,55,14,25,143,66,114,63,27,23,11,14,0.5,0.8
2023-04-03T16:00:00,1746A,118.8788,42.2554,赤峰市,天义路,,25,24,49,10,28,158,78,136,64,18,19,10,12,0.3,0.6
2023-04-03T16:00:00,1748A,123.044,41.1196,鞍山市,深沟寺,颗粒物(PM10),65,80,79,41,42,180,168,134,134,23,27,21,17,1.0,1.1
2023-04-03T16:00:00,1749A,123.011,41.0931,鞍山市,太阳城,臭氧1小时,68,70,83,35,39,175,174,127,127,14,29,13,13,0.6,0.8
2023-04-03T16:00:00,1750A,123.0485,41.1442,鞍山市,太平,颗粒物(PM10),73,96,108,45,49,159,159,126,126,23,39,19,23,1.0,1.4
2023-04-03T16:00:00,1751A,122.9642,41.0971,鞍山市,铁西三道街,颗粒物(PM10),68,86,126,48,61,168,167,131,131,26,58,9,15,0.9,1.3
2023-04-03T16:00:00,1752A,122.9341,41.0833,鞍山市,铁西工业园区,细颗粒物(PM2.5),63,65,128,45,63,167,166,133,133,24,56,12,16,0.6,1.2
2023-04-03T16:00:00,1753A,123.022,41.0821,鞍山市,明达新区,臭氧1小时,68,72,84,37,36,176,174,133,130,20,33,11,11,0.6,0.8
2023-04-03T16:00:00,1754A,123.1289,41.0228,鞍山市,千山,,,,,,,,,,,,,,,,
2023-04-03T16:00:00,1755A,123.7977,41.8491,抚顺市,望花区,臭氧1小时,97,99,131,53,75,197,197,158,158,14,39,12,23,0.5,0.8
2023-04-03T16:00:00,1756A,123.9161,41.8822,抚顺市,顺城区,臭氧1小时,99,76,130,45,68,199,199,156,156,18,50,10,13,0.5,1
2023-04-03T16:00:00,1757A,124.0436,41.8611,抚顺市,东洲区,臭氧1小时,95,73,109,44,57,196,196,157,157,18,27,7,8,0.5,0.7
2023-04-03T16:00:00,1758A,123.9247,41.8642,抚顺市,新抚区,臭氧1小时,95,95,127,55,77,196,196,156,156,17,39,12,15,0.5,0.8
2023-04-03T16:00:00,1759A,124.0972,41.8961,抚顺市,大伙房水库,臭氧1小时,100,89,92,46,51,200,200,170,170,18,21,12,10,0.5,0.5
2023-04-03T16:00:00,1760A,123.7086,41.8391,抚顺市,沈抚新城,臭氧1小时,100,95,135,58,82,204,200,147,147,16,45,12,39,0.4,0.9
2023-04-03T16:00:00,1761A,123.8275,41.3064,本溪市,大峪,,,,100,,38,149,141,136,136,11,44,7,9,,0.7
2023-04-03T16:00:00,1762A,123.7567,41.3325,本溪市,溪湖,颗粒物(PM10),62,74,127,26,50,155,149,142,142,14,42,17,24,0.8,1.1
2023-04-03T16:00:00,1763A,123.7169,41.3094,本溪市,彩屯,,,84,123,30,58,150,142,134,134,,44,10,35,0.6,1.7
2023-04-03T16:00:00,1764A,123.7669,41.2864,本溪市,东明,颗粒物(PM10),53,55,105,34,53,152,128,141,141,37,62,23,13,1.4,1.2
2023-04-03T16:00:00,1765A,123.7992,41.2664,本溪市,新立屯,,50,50,69,24,31,148,140,144,144,15,40,6,9,0.5,0.6
2023-04-03T16:00:00,1766A,123.8142,41.3472,本溪市,威宁,颗粒物(PM10),53,55,121,32,55,141,128,125,125,21,45,12,10,0.7,0.8
2023-04-03T16:00:00,1767A,121.1115,41.0879,锦州市,南山,,49,48,66,32,46,186,156,149,149,21,37,9,22,0.6,0.6
2023-04-03T16:00:00,1768A,121.0533,40.8434,锦州市,开发区,颗粒物(PM10),65,80,114,43,43,163,158,133,133,34,79,11,21,0.6,0.6
2023-04-03T16:00:00,1769A,121.1836,41.1119,锦州市,百股街道,颗粒物(PM10),65,80,72,27,44,176,128,126,126,18,49,10,20,0.6,0.8
2023-04-03T16:00:00,1770A,121.1178,41.1222,锦州市,天安街道,颗粒物(PM10),62,74,79,32,47,178,135,141,141,22,39,13,25,0.8,0.8
2023-04-03T16:00:00,1771A,121.1303,41.1386,锦州市,北湖公园,细颗粒物(PM2.5),87,83,79,64,56,183,132,143,143,19,38,12,22,0.6,0.6
2023-04-03T16:00:00,1772A,126.54,43.8622,吉林市,哈达湾,颗粒物(PM10),105,160,79,72,39,191,191,161,161,24,28,13,8,0.9,0.7
2023-04-03T16:00:00,1773A,126.5844,43.8358,吉林市,东局子,颗粒物(PM10),103,155,77,75,36,190,190,154,154,23,34,14,8,0.8,0.7
2023-04-03T16:00:00,1774A,126.5052,43.8245,吉林市,电力学院,细颗粒物(PM2.5),114,163,112,86,57,190,190,159,159,20,34,17,11,0.8,0.8
2023-04-03T16:00:00,1775A,126.6133,43.8972,吉林市,江北,颗粒物(PM10),101,151,99,66,50,183,183,159,159,32,51,19,13,0.8,0.9
2023-04-03T16:00:00,1776A,126.555,43.8306,吉林市,江南公园,细颗粒物(PM2.5),112,164,79,84,38,182,182,147,147,24,33,13,8,0.8,0.8
2023-04-03T16:00:00,1778A,126.7061,43.7133,吉林市,丰满,,,,,,,,,,,,,,,,
2023-04-03T16:00:00,1779A,123.9305,47.3636,齐齐哈尔市,安居小区,,,38,111,8,58,165,98,113,80,,18,,4,0.4,0.7
2023-04-03T16:00:00,1780A,123.9488,47.3386,齐齐哈尔市,中心广场,,29,25,105,4,47,138,90,104,73,5,23,4,8,0.2,0.5
2023-04-03T16:00:00,1781A,123.9483,47.3227,齐齐哈尔市,农牧车辆厂,颗粒物(PM10),52,53,116,7,42,147,84,100,70,10,20,4,8,0.2,0.4
2023-04-03T16:00:00,1783A,123.945,47.2988,齐齐哈尔市,市环境监测站,,46,46,114,8,55,148,85,100,72,11,19,7,11,0.1,0.4
2023-04-03T16:00:00,1784A,129.61,44.561,牡丹江市,环保大楼,细颗粒物(PM2.5),62,61,182,44,144,148,129,121,121,23,60,6,9,0.4,1.4
2023-04-03T16:00:00,1785A,129.6115,44.5782,牡丹江市,文化广场,颗粒物(PM10),62,73,209,36,148,142,122,101,101,27,72,5,10,0.5,1.6
2023-04-03T16:00:00,1786A,129.5904,44.5963,牡丹江市,第一医院,颗粒物(PM10),62,74,162,41,126,142,131,110,110,21,48,5,6,0.5,1.2
2023-04-03T16:00:00,1787A,129.6364,44.6075,牡丹江市,机车工厂,颗粒物(PM10),73,96,156,40,90,149,129,110,110,24,39,5,6,0.5,1
2023-04-03T16:00:00,1788A,129.6386,44.5462,牡丹江市,第一中学,,,68,96,33,67,155,140,140,140,13,36,,5,0.5,0.8
2023-04-03T16:00:00,1789A,124.81117,46.03138,大庆市,大同区,颗粒物(PM10),79,107,222,48,142,122,70,80,54,20,40,5,13,0.7,1.3
2023-04-03T16:00:00,1790A,125.129,46.533,大庆市,龙凤区,,29,29,156,13,102,156,75,83,62,16,23,2,8,0.2,0.6
2023-04-03T16:00:00,1791A,124.902,46.408,大庆市,红岗区,,43,43,224,20,145,161,84,82,68,9,32,5,12,0.3,0.8
2023-04-03T16:00:00,1792A,125.153,46.586,大庆市,萨尔图区,,,33,169,14,110,156,71,91,60,,27,5,10,0.3,0.7
2023-04-03T16:00:00,1793A,124.9042,46.6215,大庆市,让胡路区,,31,31,197,7,139,182,78,87,62,12,31,5,11,0.2,0.8
2023-04-03T16:00:00,1794A,118.3606,31.3519,芜湖市,监测站,,33,33,43,18,17,176,93,116,87,25,26,5,7,0.5,0.5
2023-04-03T16:00:00,1795A,118.3714,31.4134,芜湖市,科创中心,,38,38,48,21,19,177,86,120,86,27,25,4,6,0.5,0.6
2023-04-03T16:00:00,1796A,118.3673,31.3131,芜湖市,四水厂,,44,44,48,17,18,185,93,115,86,26,26,7,8,0.5,0.5
2023-04-03T16:00:00,1798A,118.5092,31.6837,马鞍山市,湖东路四小,,32,32,42,21,17,171,98,136,94,21,19,6,7,0.6,0.5
2023-04-03T16:00:00,1799A,118.5024,31.6449,马鞍山市,开发区,,44,44,63,23,19,171,99,131,94,23,22,4,5,0.6,0.5
2023-04-03T16:00:00,1800A,118.5228,31.7231,马鞍山市,慈湖,,35,35,47,23,21,172,96,141,94,26,21,6,6,0.6,0.5
2023-04-03T16:00:00,1802A,118.6245,31.7241,马鞍山市,濮塘,,30,26,39,16,21,163,93,142,96,19,16,4,5,1.0,0.9
2023-04-03T16:00:00,1803A,115.9872,29.6815,九江市,十里,,24,23,28,13,20,127,74,82,65,10,15,8,8,0.7,0.8
2023-04-03T16:00:00,1804A,115.9584,29.7046,九江市,茅山头,,,16,33,17,25,113,66,75,57,,24,8,10,0.7,0.8
2023-04-03T16:00:00,1805A,115.9877,29.7295,九江市,西园,,26,20,26,18,21,120,72,78,64,12,20,8,8,1.0,0.9
2023-04-03T16:00:00,1806A,116.0172,29.6547,九江市,五七二七厂,,39,28,28,27,23,133,82,84,70,10,14,7,7,0.6,0.6
2023-04-03T16:00:00,1808A,115.9114,29.6038,九江市,综合工业园,,33,33,35,20,23,130,93,72,72,6,27,8,11,0.8,1
2023-04-03T16:00:00,1809A,116.0721,29.7535,九江市,石化总厂,,30,30,41,14,23,127,67,66,61,15,25,14,12,0.8,0.8
2023-04-03T16:00:00,1810A,115.9773,29.5698,九江市,庐山气象台,,25,12,10,10,11,120,79,84,68,3,5,7,7,0.3,0.4
2023-04-03T16:00:00,1812A,112.3931,34.6516,洛阳市,市委党校,,48,29,50,33,35,134,95,96,89,15,19,4,4,0.7,0.7
2023-04-03T16:00:00,1814A,112.4657,34.6871,洛阳市,豫西宾馆,,43,23,46,30,37,129,102,102,98,7,12,2,2,0.6,0.6
2023-04-03T16:00:00,1815A,112.494,34.6886,洛阳市,河南林校,,36,24,43,25,34,141,97,98,92,13,16,5,6,0.6,0.6
2023-04-03T16:00:00,1816A,112.3844,34.623,洛阳市,开发区管委会,,35,26,44,24,35,143,106,106,100,14,13,3,4,0.4,0.5
2023-04-03T16:00:00,1817A,112.4267,34.6258,洛阳市,市委新办公区,,49,30,46,34,43,132,99,100,93,15,16,3,4,0.6,0.7
2023-04-03T16:00:00,1818A,114.4839,36.0621,安阳市,棉研所,,,,,,,,,,,,,,,,
2023-04-03T16:00:00,1819A,114.3551,36.1017,安阳市,红庙街,细颗粒物(PM2.5),70,65,67,51,45,171,92,125,88,20,20,7,9,0.5,0.5
2023-04-03T16:00:00,1820A,114.361,36.0681,安阳市,银杏小区,细颗粒物(PM2.5),70,46,61,51,49,168,93,110,90,19,22,6,9,0.5,0.4
2023-04-03T16:00:00,1824A,114.3389,34.7781,开封市,肿瘤医院,,33,7,51,23,40,156,87,108,89,6,9,5,7,0.7,0.8
2023-04-03T16:00:00,1826A,114.2885,34.7965,开封市,世纪星幼儿园,,26,15,51,17,34,152,81,96,83,7,11,4,5,0.4,0.5
2023-04-03T16:00:00,1828A,113.227,35.2125,焦作市,市环保局,,38,38,69,18,34,146,92,106,95,11,12,4,6,0.6,0.7
2023-04-03T16:00:00,1830A,113.1992,35.2590,焦作市,影视城,,,,,,,,,,,,,,,,
2023-04-03T16:00:00,1832A,113.3257,33.742,平顶山市,新华旅馆,,26,22,53,9,28,154,83,108,79,16,16,3,4,0.7,0.7
2023-04-03T16:00:00,1833A,113.2919,33.737,平顶山市,规划设计院,,28,8,39,10,34,154,89,110,83,11,12,3,4,0.6,0.7
2023-04-03T16:00:00,1834A,113.182,33.774,平顶山市,平顶山工学院,,28,11,64,7,31,158,89,107,85,17,16,3,3,0.4,0.5
2023-04-03T16:00:00,1835A,111.1922,34.7752,三门峡市,市政府,,13,9,25,9,22,133,40,55,37,19,14,7,7,0.4,0.5
2023-04-03T16:00:00,1836A,111.1587,34.7942,三门峡市,开发区,,18,6,42,12,37,131,41,56,37,17,14,3,4,0.2,0.3
2023-04-03T16:00:00,1838A,111.143,34.7955,三门峡市,风景区,,,,,,,,,,,,,,,,
2023-04-03T16:00:00,1840A,111.2992,30.6981,宜昌市,白龙岗,,29,29,35,19,22,62,34,43,16,44,29,6,6,0.9,0.8
2023-04-03T16:00:00,1841A,111.3549,30.6465,宜昌市,伍家岗,,35,25,30,24,24,80,45,55,20,38,30,6,5,1.0,1
2023-04-03T16:00:00,1842A,111.2628,30.6961,宜昌市,点军区,,18,18,30,7,20,82,49,38,34,28,20,5,6,0.8,0.8
2023-04-03T16:00:00,1843A,111.3275,30.7819,宜昌市,夷陵区,,24,24,26,12,20,91,62,34,34,28,27,5,5,0.7,0.7
2023-04-03T16:00:00,1844A,112.2494,30.3197,荆州市,市图书馆,,26,26,35,15,28,81,74,70,59,17,21,4,6,0.8,0.9
2023-04-03T16:00:00,1845A,112.2008,30.3544,荆州市,市委党校,,23,14,37,10,26,76,72,68,61,16,23,5,6,0.8,0.9
2023-04-03T16:00:00,1847A,113.1094,29.3578,岳阳市,南湖风景区,,48,48,57,28,18,119,110,89,89,6,13,7,8,0.8,0.9
2023-04-03T16:00:00,1848A,113.1493,29.4251,岳阳市,城陵矶,,38,38,27,20,18,124,111,92,92,11,18,8,5,0.7,0.8
2023-04-03T16:00:00,1849A,113.1497,29.3575,岳阳市,开发区,,,18,21,14,14,128,114,89,89,11,16,7,7,,0.7
2023-04-03T16:00:00,1850A,113.2621,29.4758,岳阳市,云溪区,,,,23,22,15,126,119,98,98,8,13,,12,0.8,0.9
2023-04-03T16:00:00,1851A,112.9943,29.4402,岳阳市,君山区,,44,44,28,28,24,118,112,95,95,6,21,8,8,0.9,0.9
2023-04-03T16:00:00,1852A,113.2117,29.355,岳阳市,金凤水库,,44,44,27,19,15,121,109,90,90,17,15,3,3,0.1,0.3
2023-04-03T16:00:00,1854A,111.6975,28.9703,常德市,市二中,细颗粒物(PM2.5),55,40,33,39,25,89,63,66,66,10,11,4,6,0.5,0.5
2023-04-03T16:00:00,1857A,111.7158,29.1456,常德市,白鹤山,,36,32,28,25,20,113,66,64,64,4,5,7,7,0.6,0.6
2023-04-03T16:00:00,1858A,110.5319,29.1217,张家界市,永定新区,,29,20,33,5,18,90,90,66,66,8,14,3,3,0.4,0.5
2023-04-03T16:00:00,1859A,110.4697,29.1242,张家界市,电业局,,28,28,36,17,28,95,87,71,71,9,15,7,7,0.5,0.6
2023-04-03T16:00:00,1860A,110.5594,29.3547,张家界市,未央路,,23,20,26,16,21,66,64,46,46,6,10,6,6,0.6,0.6
2023-04-03T16:00:00,1861A,110.4417,29.315,张家界市,袁家界,,22,6,12,12,10,91,70,81,74,8,7,5,5,0.7,0.7
2023-04-03T16:00:00,1862A,110.4144,25.3167,桂林市,电子科大尧山校区,,23,11,15,13,15,84,71,74,74,6,6,2,2,0.5,0.5
2023-04-03T16:00:00,1863A,110.2819,25.2697,桂林市,监测站,,18,16,29,12,19,75,50,58,58,13,12,5,6,0.8,0.8
2023-04-03T16:00:00,1864A,110.3089,25.2708,桂林市,龙隐路小学,,23,15,31,16,25,70,48,53,53,13,14,4,7,0.8,0.8
2023-04-03T16:00:00,1865A,110.2869,25.2178,桂林市,八中,,16,14,22,11,13,61,32,48,46,20,10,4,4,0.7,0.7
2023-04-03T16:00:00,1866A,109.2262,21.588,北海市,牛尾岭水库,,39,39,29,7,17,88,88,69,69,3,5,6,6,0.5,0.5
2023-04-03T16:00:00,1867A,109.1436,21.4086,北海市,海滩公园,,,38,34,17,14,97,97,75,75,4,5,2,1,,0.9
2023-04-03T16:00:00,1868A,109.0981,21.4661,北海市,新市环保局,,33,33,30,17,17,92,90,72,72,5,5,2,2,0.5,0.5
2023-04-03T16:00:00,1869A,109.1778,21.5233,北海市,北海工业园,,34,34,39,17,20,95,95,80,80,4,5,5,4,0.6,0.6
2023-04-03T16:00:00,1870A,109.4856,24.3895,柳州市,柳东小学,细颗粒物(PM2.5),57,29,27,40,48,70,70,62,56,4,6,5,5,0.5,0.4
2023-04-03T16:00:00,1871A,109.4157,24.3277,柳州市,环保监测站,,43,43,32,23,22,62,62,47,47,5,8,4,4,0.8,0.8
2023-04-03T16:00:00,1872A,109.389,24.341,柳州市,河西水厂,,33,33,31,20,21,59,59,42,41,7,11,7,6,0.6,0.6
2023-04-03T16:00:00,1873A,109.4311,24.2921,柳州市,市四中,,32,32,35,20,21,62,62,49,48,6,9,6,6,0.6,0.7
2023-04-03T16:00:00,1874A,109.4006,24.3631,柳州市,市九中,,40,40,33,20,22,61,61,47,46,8,11,6,6,0.7,0.7
2023-04-03T16:00:00,1875A,109.4958,24.3134,柳州市,古亭山,,40,40,31,26,20,68,68,57,53,5,7,2,2,0.6,0.6
2023-04-03T16:00:00,1876A,109.5078,18.2489,三亚市,河东子站,,16,12,21,11,14,71,46,49,49,4,5,2,2,0.5,0.6
2023-04-03T16:00:00,1877A,109.4964,18.2681,三亚市,河西子站,,18,18,20,11,12,71,47,49,49,2,5,2,2,0.4,0.4
2023-04-03T16:00:00,1878A,104.7778,31.4741,绵阳市,富乐山,,31,4,20,1,15,98,98,83,83,2,3,3,3,0.2,0.4
2023-04-03T16:00:00,1879A,104.7563,31.4535,绵阳市,市人大,,,12,24,,13,89,89,71,71,9,11,7,6,0.4,0.5
2023-04-03T16:00:00,1880A,104.6697,31.4668,绵阳市,高新区自来水公司,,31,15,21,0,8,97,97,76,76,3,6,4,4,0.3,0.4
2023-04-03T16:00:00,1881A,104.7287,31.5075,绵阳市,三水厂,,30,10,24,3,14,96,96,78,78,8,9,4,4,0.3,0.4
2023-04-03T16:00:00,1882A,104.563,28.793,宜宾市,石马中学,,,33,67,28,48,154,115,114,86,,15,,9,,0.9
2023-04-03T16:00:00,1883A,104.6201,28.7728,宜宾市,市委,,48,48,82,32,56,146,109,91,78,15,23,10,11,0.6,0.7
2023-04-03T16:00:00,1884A,104.6055,28.793,宜宾市,宜宾四中,,48,48,79,33,57,152,112,109,82,14,23,7,9,0.5,0.6
2023-04-03T16:00:00,1885A,104.639,28.7562,宜宾市,市政府,,,50,80,35,60,166,125,118,88,15,24,,9,0.6,0.6
2023-04-03T16:00:00,1886A,104.5742,28.7199,宜宾市,黄金嘴,,45,45,82,31,57,158,117,118,89,11,20,10,9,0.5,0.6
2023-04-03T16:00:00,1888A,101.6891,26.571,攀枝花市,弄弄坪,,35,32,33,13,16,116,111,99,99,17,19,29,20,1.9,1.4
2023-04-03T16:00:00,1889A,101.5769,26.5928,攀枝花市,河门口,,40,15,23,10,13,128,127,102,102,7,15,7,12,0.5,0.8
2023-04-03T16:00:00,1890A,101.7169,26.585,攀枝花市,炳草岗,,37,20,27,7,10,122,117,99,99,13,16,13,12,0.9,0.7
2023-04-03T16:00:00,1891A,101.7369,26.5008,攀枝花市,仁和,,40,7,19,7,11,126,126,113,113,5,10,5,8,0.4,0.5
2023-04-03T16:00:00,1893A,105.4324,28.9634,泸州市,九狮山,,36,32,38,22,28,152,114,82,82,10,14,9,10,0.4,0.5
2023-04-03T16:00:00,1894A,105.4427,28.9063,泸州市,小市上码头,,46,46,68,24,39,140,108,75,75,7,18,9,11,0.8,0.9
2023-04-03T16:00:00,1895A,105.4241,28.8573,泸州市,兰田宪桥,,42,42,70,24,43,148,115,81,81,5,12,6,13,0.7,0.8
2023-04-03T16:00:00,1896A,105.4379,28.8833,泸州市,市环监站,,41,41,63,17,34,130,104,78,72,12,21,4,6,0.5,0.7
2023-04-03T16:00:00,1901A,104.4239,31.1208,德阳市,东山公园,,27,21,27,8,14,98,85,72,72,14,11,1,1,0.3,0.5
2023-04-03T16:00:00,1902A,104.3826,31.1317,德阳市,西小区,,26,26,33,16,15,98,75,68,68,13,11,1,1,0.3,0.4
2023-04-03T16:00:00,1904A,104.3553,31.1091,德阳市,耐火材料厂,,26,26,26,16,15,103,80,69,69,9,9,1,2,0.4,0.5
2023-04-03T16:00:00,1905A,106.056,30.8064,南充市,西山风景区,,24,7,25,6,16,129,74,65,65,5,9,3,4,0.5,0.6
2023-04-03T16:00:00,1906A,106.0789,30.8023,南充市,南充市委,,22,22,36,4,17,116,67,60,60,14,16,9,10,0.3,0.4
2023-04-03T16:00:00,1907A,106.1031,30.8217,南充市,南充炼油厂,,23,8,32,6,16,120,71,63,63,9,11,8,9,0.3,0.5
2023-04-03T16:00:00,1908A,106.1064,30.7856,南充市,高坪区监测站,,23,13,30,1,16,122,71,62,62,10,15,8,9,0.3,0.4
2023-04-03T16:00:00,1909A,106.0642,30.7636,南充市,嘉陵区环保局,,21,1,26,7,17,120,67,58,58,13,14,8,9,0.3,0.5
2023-04-03T16:00:00,1910A,106.1087,30.8388,南充市,市环境监测站,,20,13,29,14,22,111,63,59,59,16,16,11,11,0.3,0.4
2023-04-03T16:00:00,1911A,106.9222,27.6869,遵义市,丁字口,,38,38,40,14,29,146,116,98,98,37,23,14,11,0.9,1.1
2023-04-03T16:00:00,1912A,106.9242,27.7019,遵义市,凤凰山,,49,39,52,23,31,155,155,123,123,10,14,10,19,0.3,0.7
2023-04-03T16:00:00,1913A,106.8906,27.6486,遵义市,忠庄,,44,44,52,16,31,142,133,96,96,20,18,5,5,0.3,0.7
2023-04-03T16:00:00,1914A,106.9231,27.6506,遵义市,舟水桥,,43,42,56,22,31,139,137,98,98,16,20,6,6,0.4,0.8
2023-04-03T16:00:00,1915A,106.9178,27.72,遵义市,干田坝,,40,32,46,27,29,148,127,100,100,24,18,6,7,0.3,0.6
2023-04-03T16:00:00,1916A,103.7897,25.5035,曲靖市,环境监测站,,42,42,35,8,14,122,119,110,110,4,7,5,6,0.3,0.4
2023-04-03T16:00:00,1917A,103.8,25.5364,曲靖市,烟厂办公区,,40,26,31,3,13,130,126,118,118,5,9,4,4,0.5,0.6
2023-04-03T16:00:00,1918A,108.7197,34.3956,咸阳市,气象站,,,,32,5,12,59,50,54,50,6,6,1,1,0.5,0.5
2023-04-03T16:00:00,1919A,108.673,34.3155,咸阳市,实验中学,,19,10,24,13,16,61,44,53,50,24,15,4,4,0.6,0.6
2023-04-03T16:00:00,1920A,108.7233,34.3617,咸阳市,师范学院,,16,12,27,9,14,65,50,59,51,15,11,5,5,0.5,0.5
2023-04-03T16:00:00,1922A,109.0656,35.0994,铜川市,党校,,12,4,9,2,5,106,37,46,41,22,16,7,8,0.9,0.8
2023-04-03T16:00:00,1923A,109.0697,35.0697,铜川市,王益区政府,,15,3,9,3,7,81,46,53,43,13,11,5,6,0.4,0.4
2023-04-03T16:00:00,1924A,108.9344,34.9058,铜川市,新区管委会,,13,9,10,6,6,58,41,54,33,14,21,6,8,0.4,0.4
2023-04-03T16:00:00,1926A,109.4131,36.6275,延安市,枣园,,16,8,6,11,7,34,33,32,30,20,17,6,6,0.7,0.7
2023-04-03T16:00:00,1927A,109.4761,36.6028,延安市,延大医附院,,15,8,8,8,5,59,48,56,44,22,15,4,4,0.6,0.5
2023-04-03T16:00:00,1929A,109.5056,36.6106,延安市,百米大道,,16,14,8,11,8,56,38,52,37,28,19,8,8,0.6,0.6
2023-04-03T16:00:00,1930A,107.185,34.3063,宝鸡市,庙沟村,,21,1,12,10,15,74,66,72,66,12,9,6,6,0.4,0.3
2023-04-03T16:00:00,1931A,107.0708,34.3017,宝鸡市,竹园沟,,25,15,12,8,11,80,80,70,70,8,10,5,5,0.4,0.3
2023-04-03T16:00:00,1932A,107.1906,34.3672,宝鸡市,三陆医院,,23,12,22,8,13,73,73,65,65,15,25,7,6,0.5,0.5
2023-04-03T16:00:00,1933A,107.1431,34.3547,宝鸡市,监测站,,23,10,18,9,14,76,71,67,66,17,17,4,4,0.4,0.4
2023-04-03T16:00:00,1934A,107.1186,34.3739,宝鸡市,技工学校,,24,5,19,9,16,79,76,67,67,12,15,4,4,0.4,0.4
2023-04-03T16:00:00,1935A,107.3906,34.3528,宝鸡市,陈仓区环保局家属楼,,21,9,19,12,15,76,67,73,63,13,17,5,5,0.5,0.5
2023-04-03T16:00:00,1936A,107.2058,34.3497,宝鸡市,文理学院,,23,10,17,7,14,76,72,70,70,18,21,9,7,0.2,0.2
2023-04-03T16:00:00,1937A,107.2386,34.3622,宝鸡市,三迪小学,,22,0,21,11,16,74,68,66,62,20,26,8,8,0.5,0.4
2023-04-03T16:00:00,1938A,109.5293,34.5101,渭南市,农科所,,17,9,19,7,15,60,52,59,48,18,17,6,7,0.7,0.7
2023-04-03T16:00:00,1939A,109.4974,34.4877,渭南市,日报社,,15,5,13,3,13,56,45,54,45,25,21,9,10,0.3,0.4
2023-04-03T16:00:00,1940A,109.4636,34.493,渭南市,体育馆,,15,7,13,3,14,60,46,60,45,22,20,6,5,0.4,0.4
2023-04-03T16:00:00,1941A,109.4259,34.5023,渭南市,高新一小,,,3,24,4,9,62,47,60,46,23,16,,6,0.3,0.3
2023-04-03T16:00:00,1943A,102.1725,38.5339,金昌市,新川苑,颗粒物(PM10),70,89,117,4,12,103,103,90,82,10,12,11,12,0.5,0.6
2023-04-03T16:00:00,1944A,102.1692,38.5167,金昌市,天庆家园,颗粒物(PM10),72,94,107,11,18,105,105,93,84,13,14,37,21,0.5,0.6
2023-04-03T16:00:00,1945A,98.2908,39.7711,嘉峪关市,气象局,颗粒物(PM10),113,175,149,27,31,103,99,76,76,6,23,3,9,0.1,0.3
2023-04-03T16:00:00,1947A,106.3394,38.817,石嘴山市,沙湖旅游区,颗粒物(PM10),82,114,101,22,29,95,81,68,68,20,20,20,26,0.5,0.7
2023-04-03T16:00:00,1948A,106.3668,39.0145,石嘴山市,大武口朝阳西街,颗粒物(PM10),70,89,96,18,23,89,74,69,69,27,14,29,15,0.7,0.4
2023-04-03T16:00:00,1949A,106.7704,39.2282,石嘴山市,惠农南大街,颗粒物(PM10),88,126,121,23,28,66,65,56,56,26,34,22,29,0.6,0.8
2023-04-03T16:00:00,1950A,106.7099,39.1325,石嘴山市,红果子镇惠新街,颗粒物(PM10),81,111,107,22,23,70,63,57,57,26,23,27,37,0.6,0.6
2023-04-03T16:00:00,1951A,84.895,45.6094,克拉玛依市,长征新村,,29,17,25,9,5,102,92,89,86,1,3,5,6,0.2,0.2
2023-04-03T16:00:00,1952A,84.8988,45.5893,克拉玛依市,南林小区,,29,18,27,6,9,101,91,89,84,2,4,4,3,0.4,0.4
2023-04-03T16:00:00,1954A,84.905,44.3396,克拉玛依市,独山子区,,32,23,57,5,13,105,102,86,86,2,6,8,6,0.4,0.3
2023-04-03T16:00:00,1955A,85.6979,46.098,克拉玛依市,乌尔禾区商贸楼,,29,5,25,9,7,97,92,91,84,3,5,5,6,0.4,0.3
2023-04-03T16:00:00,1956A,86.1472,41.7538,巴音郭楞州,孔雀公园,颗粒物(PM10),122,193,762,22,122,96,90,88,85,5,9,3,4,0.3,0.4
2023-04-03T16:00:00,1957A,86.1972,41.7166,巴音郭楞州,棉纺厂,颗粒物(PM10),139,228,821,32,144,95,95,89,89,3,10,3,3,0.2,0.2
2023-04-03T16:00:00,1958A,86.2357,41.7173,巴音郭楞州,经济开发区,颗粒物(PM10),138,226,783,22,120,98,98,95,93,1,6,5,5,0.2,0.2
2023-04-03T16:00:00,1961A,117.532,36.6868,济南市,东山小学,,46,46,74,12,24,178,108,149,122,20,21,2,4,0.4,0.6
2023-04-03T16:00:00,1966A,120.0405,35.8735,青岛市,黄岛区4号,颗粒物(PM10),52,53,57,24,29,151,134,151,119,20,30,6,7,0.6,0.6
2023-04-03T16:00:00,1982A,122.0693,37.2174,威海市,文登开发区,颗粒物(PM10),58,66,77,27,39,153,152,139,139,15,30,5,6,0.3,0.4
2023-04-03T16:00:00,2031A,113.1817,27.9958,株洲市,云田中学,,33,24,30,23,26,96,80,81,81,8,12,5,8,0.5,0.7
2023-04-03T16:00:00,2054A,114.1099,32.1059,信阳市,平桥分局,,23,14,39,5,36,153,73,95,72,17,15,8,9,0.5,0.5
2023-04-03T16:00:00,2064A,113.9956,32.1271,信阳市,南湾水厂,,23,23,55,7,30,154,71,91,68,10,12,8,9,0.7,0.7
2023-04-03T16:00:00,2065A,114.0775,32.1195,信阳市,市酿酒公司,,23,17,47,12,32,155,72,94,71,17,17,8,9,0.6,0.7
2023-04-03T16:00:00,2066A,114.0609,32.1399,信阳市,审计局,,24,18,39,12,39,153,75,93,73,16,17,7,8,0.7,0.7
2023-04-03T16:00:00,2067A,114.6613,33.6128,周口市,市环境监测站,,24,9,47,12,26,158,76,126,83,12,12,7,9,0.6,0.6
2023-04-03T16:00:00,2068A,114.6758,33.6347,周口市,周口师范,,22,6,39,9,31,154,68,115,77,13,14,5,7,0.7,0.7
2023-04-03T16:00:00,2069A,114.6546,33.5979,周口市,市运管处,,24,9,40,9,27,159,76,125,83,12,12,6,8,0.5,0.5
2023-04-03T16:00:00,2070A,114.6369,33.6406,周口市,川汇区环保局,,22,17,40,9,28,150,70,120,78,12,12,11,9,1.1,0.9
2023-04-03T16:00:00,2075A,117.6336,24.4674,漳州市,九湖,,,,,,,,,,,,,,,,
2023-04-03T16:00:00,2160A,112.85,35.5051,晋城市,自来水公司,,,12,45,,29,169,103,134,104,18,19,18,14,1.0,0.7
2023-04-03T16:00:00,2161A,112.8318,35.4936,晋城市,白云商贸,,33,21,52,7,20,166,105,134,110,19,16,5,5,0.8,0.8
2023-04-03T16:00:00,2162A,112.8508,35.4887,晋城市,市环保局,,33,21,49,7,24,168,103,135,109,19,16,9,9,0.8,0.7
2023-04-03T16:00:00,2163A,112.8676,35.4897,晋城市,技术学院,,32,13,45,2,26,156,100,126,103,20,16,5,6,0.3,0.3
2023-04-03T16:00:00,2165A,112.8453,35.546,晋城市,白马寺,,,,,,,,,,,,,,,,
2023-04-03T16:00:00,2166A,112.4397,39.3522,朔州市,平朔,,20,7,21,14,24,85,44,59,45,29,20,3,4,0.6,0.6
2023-04-03T16:00:00,2167A,112.4575,39.3617,朔州市,朔唯,,20,5,25,14,23,82,48,64,46,31,26,9,8,0.5,0.4
2023-04-03T16:00:00,2168A,112.4258,39.3197,朔州市,区政府,,18,17,37,12,23,95,47,64,47,27,16,4,4,0.7,0.7
2023-04-03T16:00:00,2169A,112.4072,39.3278,朔州市,市环保局,,20,20,32,14,29,92,51,68,52,29,20,3,4,0.6,0.6
2023-04-03T16:00:00,2170A,112.4272,39.3681,朔州市,市二中,,17,17,36,11,22,81,47,60,45,22,17,4,4,0.5,0.5
2023-04-03T16:00:00,2171A,112.7532,37.6945,晋中市,锦纶小区,细颗粒物(PM2.5),62,51,71,44,48,150,127,127,127,9,14,9,8,0.8,0.6
2023-04-03T16:00:00,2173A,112.7249,37.7067,晋中市,南都小区,,49,49,57,31,39,148,132,120,119,12,11,7,8,0.4,0.5
2023-04-03T16:00:00,2174A,112.6991,37.6982,晋中市,榆次区政府,,50,50,62,26,37,141,126,115,115,12,11,6,7,0.5,0.5
2023-04-03T16:00:00,2175A,110.9956,35.0147,运城市,运城中学,,15,12,39,10,21,140,45,54,44,10,7,5,6,0.1,0.3
2023-04-03T16:00:00,2178A,110.9686,35.0303,运城市,地区技校,,16,13,40,11,20,150,47,59,47,14,11,3,4,0.3,0.4
2023-04-03T16:00:00,2179A,111.0414,35.1147,运城市,空港新区,,13,4,21,2,21,137,41,52,42,12,10,5,5,0.5,0.5
2023-04-03T16:00:00,2181A,112.7383,38.4519,忻州市,开发区,,40,15,44,9,40,127,127,120,120,9,16,4,5,0.2,0.4
2023-04-03T16:00:00,2182A,112.7003,38.4928,忻州市,会展中心,,36,20,52,19,42,120,114,107,107,12,18,4,5,0.4,0.6
2023-04-03T16:00:00,2183A,111.1406,37.5211,吕梁市,环保局,,,,16,7,8,59,59,36,36,39,26,,10,,0.7
2023-04-03T16:00:00,2185A,111.1297,37.5136,吕梁市,自来水公司,,30,10,17,2,10,96,96,42,42,15,28,12,12,0.6,0.7
2023-04-03T16:00:00,2187A,106.8174,39.6973,乌海市,市林业局,颗粒物(PM10),89,128,93,26,21,88,87,80,74,10,8,8,8,0.4,0.4
2023-04-03T16:00:00,2188A,106.7907,39.6667,乌海市,中海勃湾学校,颗粒物(PM10),90,129,96,28,21,90,90,81,70,9,13,7,8,0.3,0.3
2023-04-03T16:00:00,2191A,122.2532,43.6801,通辽市,艺术职业学校,,43,43,70,26,15,154,75,124,71,16,21,5,10,0.1,0.2
2023-04-03T16:00:00,2192A,119.7594,49.2261,呼伦贝尔市,区环保局,颗粒物(PM10),66,82,48,9,24,84,84,79,79,2,4,5,4,0.2,0.4
2023-04-03T16:00:00,2195A,107.4212,40.761,巴彦淖尔市,附二中,颗粒物(PM10),171,292,132,20,17,94,93,82,82,8,8,4,3,0.4,0.4
2023-04-03T16:00:00,2196A,107.37,40.7372,巴彦淖尔市,市环保大楼,颗粒物(PM10),116,182,99,27,23,91,90,78,78,6,7,5,4,0.6,0.6
2023-04-03T16:00:00,2197A,113.1306,40.9923,乌兰察布市,集宁新区,,26,24,82,13,23,89,81,76,65,8,11,6,9,0.4,0.4
2023-04-03T16:00:00,2200A,122.0392,46.0656,兴安盟,胜华新制药厂,颗粒物(PM10),91,132,168,19,55,154,69,94,66,27,29,3,6,0.2,0.4
2023-04-03T16:00:00,2201A,121.9504,46.0741,兴安盟,科右前旗环保局,,,24,87,19,36,120,,98,,13,17,3,4,,1
2023-04-03T16:00:00,2202A,116.1042,43.9317,锡林郭勒盟,市环保监测站,,25,9,29,6,15,106,80,75,75,3,4,8,7,0.2,0.2
2023-04-03T16:00:00,2203A,116.0781,43.9311,锡林郭勒盟,市政府,,25,8,32,6,11,107,79,75,75,5,6,6,8,0.2,0.2
2023-04-03T16:00:00,2204A,105.6467,38.8363,阿拉善盟,西城区西花园,颗粒物(PM10),100,150,99,23,22,104,100,82,81,8,10,11,11,0.6,0.6
2023-04-03T16:00:00,2205A,105.6985,38.8411,阿拉善盟,蒙二幼,颗粒物(PM10),91,132,95,20,27,107,96,88,79,10,10,10,10,0.6,0.6
2023-04-03T16:00:00,2206A,105.724,38.8516,阿拉善盟,环保局新楼,颗粒物(PM10),56,62,70,34,29,110,96,87,77,9,10,8,9,0.5,0.5
2023-04-03T16:00:00,2207A,121.6094,41.998,阜新市,工业园区,,41,41,99,12,36,145,86,129,106,8,18,4,20,0.6,0.8
2023-04-03T16:00:00,2208A,121.6697,42.0279,阜新市,长青街,,27,27,76,7,32,147,82,138,104,10,19,6,19,0.5,0.7
2023-04-03T16:00:00,2209A,121.6673,42.0705,阜新市,农业园区,,23,23,65,7,34,131,72,128,88,9,18,7,18,0.5,0.6
2023-04-03T16:00:00,2210A,121.6717,42.0224,阜新市,东苑,,28,28,78,9,32,146,80,136,100,13,23,6,19,0.7,0.8
2023-04-03T16:00:00,2211A,121.6506,42.0498,阜新市,玉龙新城,,25,22,64,13,32,141,77,130,97,10,19,6,18,0.5,0.6
2023-04-03T16:00:00,2212A,123.2,41.1953,辽阳市,宏伟区,颗粒物(PM10),57,64,64,35,31,164,164,149,149,18,23,20,15,1.0,0.8
2023-04-03T16:00:00,2213A,123.1683,41.2495,辽阳市,新华园,臭氧1小时,79,73,93,45,45,183,183,157,157,21,39,17,25,0.8,1.2
2023-04-03T16:00:00,2214A,123.2354,41.2639,辽阳市,滨河路,细颗粒物(PM2.5),69,73,71,50,45,162,162,142,142,20,28,12,10,0.6,0.7
2023-04-03T16:00:00,2215A,123.149,41.2991,辽阳市,铁西工业园,细颗粒物(PM2.5),79,93,128,58,87,177,177,136,136,19,46,14,17,0.7,1.4
2023-04-03T16:00:00,2216A,123.8139,42.3022,铁岭市,汇工街西,颗粒物(PM10),73,96,103,22,60,201,111,155,155,18,35,11,19,0.6,0.9
2023-04-03T16:00:00,2217A,123.8649,42.2923,铁岭市,水上乐园,颗粒物(PM10),68,85,89,22,54,190,112,150,150,13,35,6,12,0.5,0.7
2023-04-03T16:00:00,2218A,123.8486,42.2867,铁岭市,银州路东段,颗粒物(PM10),60,70,120,23,52,176,110,141,141,18,34,9,14,0.4,0.7
2023-04-03T16:00:00,2219A,123.7153,42.2217,铁岭市,金沙江路北,颗粒物(PM10),73,96,110,27,70,176,101,138,138,20,48,12,19,0.5,0.9
2023-04-03T16:00:00,2220A,120.4318,41.5881,朝阳市,西梁,,36,36,68,5,25,151,79,151,76,13,25,11,12,0.7,0.8
2023-04-03T16:00:00,2221A,120.4521,41.5646,朝阳市,河畔小区,,28,28,61,11,28,186,89,182,99,11,23,8,10,0.6,0.6
2023-04-03T16:00:00,2222A,120.4176,41.5648,朝阳市,八里堡,颗粒物(PM10),55,59,68,10,24,182,82,179,102,10,20,8,10,0.6,0.6
2023-04-03T16:00:00,2223A,120.3806,41.5969,朝阳市,农业园区,,33,33,74,11,29,159,77,159,102,12,23,8,12,0.6,0.7
2023-04-03T16:00:00,2225A,124.4002,43.1713,四平市,一商场,颗粒物(PM10),57,64,98,28,59,175,87,133,132,18,30,8,12,0.3,0.5
2023-04-03T16:00:00,2226A,124.388,43.193,四平市,境园,颗粒物(PM10),57,64,87,26,51,176,87,129,129,10,28,3,10,0.2,0.4
2023-04-03T16:00:00,2227A,125.1358,42.8845,辽源市,环保局,臭氧1小时,54,46,86,27,57,177,163,153,153,20,46,23,15,0.6,1
2023-04-03T16:00:00,2229A,125.9358,41.7173,通化市,光明,,42,32,58,17,28,135,132,108,108,8,36,10,16,0.1,0.4
2023-04-03T16:00:00,2230A,125.9446,41.7325,通化市,铁路,,41,34,76,19,31,132,130,109,109,12,42,4,18,0.2,0.5
2023-04-03T16:00:00,2231A,126.4219,41.9171,白山市,喜丰,,39,39,107,13,36,132,114,102,102,15,36,13,20,0.9,1.1
2023-04-03T16:00:00,2232A,126.4077,41.9419,白山市,环保局,,43,43,108,17,38,134,128,114,114,9,38,14,20,0.6,0.7
2023-04-03T16:00:00,2233A,124.8006,45.1214,松原市,江南,,41,41,92,18,47,181,72,121,75,10,13,4,6,0.4,0.5
2023-04-03T16:00:00,2234A,124.7965,45.1722,松原市,江北,,39,39,97,19,47,178,76,118,74,8,12,2,6,0.3,0.3
2023-04-03T16:00:00,2235A,122.7911,45.6077,白城市,洮北区环保局,颗粒物(PM10),62,74,128,33,57,173,96,106,92,12,14,5,6,0.2,0.3
2023-04-03T16:00:00,2236A,122.8738,45.5725,白城市,市环保局,颗粒物(PM10),60,69,140,34,58,169,91,100,85,17,25,7,8,0.4,0.6
2023-04-03T16:00:00,2237A,129.47,42.8883,延边朝鲜族自治州,妇幼医院,颗粒物(PM10),62,74,39,31,26,107,101,98,84,41,19,9,7,0.8,0.7
2023-04-03T16:00:00,2238A,129.5055,42.9108,延边朝鲜族自治州,延边医院,颗粒物(PM10),59,67,36,40,25,114,76,95,78,61,21,16,10,0.8,0.7
2023-04-03T16:00:00,2239A,129.3964,42.8881,延边朝鲜族自治州,朝阳川镇医院,颗粒物(PM10),67,84,41,36,26,107,107,89,89,34,16,14,10,0.8,0.6
2023-04-03T16:00:00,2240A,130.9762,45.3001,鸡西市,环保局,颗粒物(PM10),67,84,155,42,100,134,128,101,101,20,48,8,11,0.3,0.8
2023-04-03T16:00:00,2243A,130.9429,45.3039,鸡西市,第一中学,颗粒物(PM10),63,76,138,42,93,144,141,125,125,7,32,6,10,0.3,0.7
2023-04-03T16:00:00,2244A,130.2537,47.3416,鹤岗市,哈啤分公司,颗粒物(PM10),81,111,160,59,108,140,96,79,79,34,42,14,17,0.6,0.9
2023-04-03T16:00:00,2245A,130.2684,47.3086,鹤岗市,斯达机电,颗粒物(PM10),89,127,170,64,116,151,108,91,91,29,33,10,13,0.5,0.8
2023-04-03T16:00:00,2246A,130.3114,47.3388,鹤岗市,东山纸板厂,颗粒物(PM10),119,188,390,82,160,128,89,76,76,42,60,16,20,0.4,1.4
2023-04-03T16:00:00,2247A,130.1097,47.3382,鹤岗市,五号水库,颗粒物(PM10),74,98,96,39,63,159,135,95,95,20,20,10,9,0.7,0.7
2023-04-03T16:00:00,2248A,131.1511,46.6937,双鸭山市,双合村,细颗粒物(PM2.5),87,112,171,64,100,154,152,132,132,17,30,16,39,0.8,1.9
2023-04-03T16:00:00,2249A,131.1652,46.6191,双鸭山市,南小市,颗粒物(PM10),98,146,119,70,66,145,139,128,128,27,24,6,7,0.8,0.7
2023-04-03T16:00:00,2250A,131.1524,46.6554,双鸭山市,环保局,细颗粒物(PM2.5),148,139,117,113,91,136,127,117,117,33,39,14,11,,0.8
2023-04-03T16:00:00,2251A,131.12,46.5656,双鸭山市,苗圃,细颗粒物(PM2.5),93,90,64,69,52,172,168,162,162,16,14,5,5,0.4,0.3
2023-04-03T16:00:00,2252A,128.5159,47.4311,伊春市,环保局,细颗粒物(PM2.5),147,87,96,112,83,158,83,102,102,25,28,9,17,0.7,1
2023-04-03T16:00:00,2253A,128.9102,47.7412,伊春市,电力嘉园,细颗粒物(PM2.5),123,104,108,93,63,186,95,116,116,18,23,9,19,0.9,1.3
2023-04-03T16:00:00,2254A,129.5029,48.471,伊春市,汤旺河国家公园,细颗粒物(PM2.5),92,101,89,68,56,161,124,144,142,13,8,7,6,0.4,0.3
2023-04-03T16:00:00,2255A,130.2751,46.8028,佳木斯市,佳纺,细颗粒物(PM2.5),149,185,297,114,222,165,150,100,100,32,53,11,12,1.0,1.5
2023-04-03T16:00:00,2256A,130.3995,46.8307,佳木斯市,发电厂,细颗粒物(PM2.5),150,137,208,115,207,180,144,95,95,33,50,12,12,0.9,1.2
2023-04-03T16:00:00,2257A,130.3258,46.7975,佳木斯市,环保局,细颗粒物(PM2.5),114,143,229,86,203,165,141,97,97,34,61,12,13,1.0,1.4
2023-04-03T16:00:00,2258A,130.3648,46.8032,佳木斯市,十一中,细颗粒物(PM2.5),100,131,217,75,211,160,146,92,92,40,69,14,14,1.1,1.4
2023-04-03T16:00:00,2259A,130.3794,46.7588,佳木斯市,四丰,臭氧1小时,104,93,162,65,147,255,208,154,154,23,35,1,2,0.8,0.9
2023-04-03T16:00:00,2262A,131.0518,45.8751,七台河市,新一中,,,114,83,49,55,115,,90,90,,20,11,11,0.5,0.6
2023-04-03T16:00:00,2263A,127.4833,50.2524,黑河市,交通局,,20,8,38,7,25,76,64,54,49,7,14,8,9,0.4,0.6
2023-04-03T16:00:00,2264A,127.5144,50.2341,黑河市,环保局,,24,24,51,9,30,71,66,61,54,12,15,3,5,0.3,0.5
2023-04-03T16:00:00,2265A,127.5291,50.2472,黑河市,大黑河岛,,24,2,31,10,34,76,75,62,62,2,5,1,4,0.3,0.4
2023-04-03T16:00:00,2266A,126.9785,46.6365,绥化市,人和东街,,22,22,268,11,198,183,48,78,71,13,54,5,23,0.7,1.6
2023-04-03T16:00:00,2267A,126.964,46.6528,绥化市,党政办公中心,,25,25,230,17,183,194,55,93,80,12,44,4,16,0.6,1.3
2023-04-03T16:00:00,2269A,124.1069,50.4097,大兴安岭地区,科技局,,29,12,34,6,25,92,92,81,81,4,12,4,18,0.2,0.3
2023-04-03T16:00:00,2270A,117.396,32.939,蚌埠市,工人疗养院,,39,36,60,27,25,174,96,110,82,22,36,8,11,0.5,0.5
2023-04-03T16:00:00,2271A,117.3605,32.9427,蚌埠市,百货大楼,,49,49,66,11,21,168,96,111,83,20,29,3,5,0.4,0.4
2023-04-03T16:00:00,2273A,117.4185,32.8911,蚌埠市,蚌埠学院,,31,31,58,14,22,179,97,106,91,18,21,6,7,0.5,0.5
2023-04-03T16:00:00,2274A,117.3533,32.9673,蚌埠市,淮上区政府,,41,41,69,19,23,170,93,108,90,24,22,6,7,0.5,0.5
2023-04-03T16:00:00,2275A,117.3145,32.8977,蚌埠市,高新区,,31,31,53,19,25,181,92,110,88,20,23,4,6,0.6,0.6
2023-04-03T16:00:00,2277A,116.8305,32.7727,淮南市,潘集区政府,,35,27,54,24,27,172,83,123,85,18,15,5,6,0.3,0.4
2023-04-03T16:00:00,2278A,117.0067,32.6524,淮南市,师范学院,,40,40,58,17,22,174,88,124,88,15,17,12,12,0.3,0.4
2023-04-03T16:00:00,2279A,116.8569,32.5951,淮南市,谢家集区政府,,30,30,45,11,18,167,82,109,86,17,17,7,11,0.3,0.3
2023-04-03T16:00:00,2280A,116.8281,32.633,淮南市,八公山区政府,,36,36,45,12,16,161,80,112,83,15,15,4,5,0.4,0.4
2023-04-03T16:00:00,2281A,116.6325,32.6201,淮南市,焦岗湖风景区管理处,,29,23,39,20,17,153,73,93,74,6,8,7,6,0.3,0.3
2023-04-03T16:00:00,2282A,116.8004,33.975,淮北市,监测站,,29,19,56,8,23,161,91,119,90,14,16,3,5,0.5,0.5
2023-04-03T16:00:00,2283A,116.8091,33.9007,淮北市,烈山区政府,,29,6,60,12,26,158,91,116,83,11,14,4,6,0.4,0.5
2023-04-03T16:00:00,2284A,116.7856,33.9477,淮北市,职业技术学院,,29,13,57,8,26,158,92,116,92,13,14,4,6,0.6,0.6
2023-04-03T16:00:00,2285A,117.8177,30.9412,铜陵市,市第四中学,,25,23,56,16,25,160,80,107,66,13,20,5,6,0.4,0.4
2023-04-03T16:00:00,2286A,117.8059,30.9273,铜陵市,市公路局,,25,9,50,3,23,154,80,113,73,12,17,6,7,0.6,0.5
2023-04-03T16:00:00,2287A,117.7807,30.9413,铜陵市,市新民污水厂,,29,29,52,16,26,174,79,116,64,13,22,6,7,0.5,0.4
2023-04-03T16:00:00,2288A,117.7439,30.8792,铜陵市,市第九中学,,21,21,65,6,30,165,60,50,40,37,62,9,12,0.7,1
2023-04-03T16:00:00,2289A,117.846,30.9413,铜陵市,车站新区,,25,23,47,5,22,173,80,115,68,9,19,8,8,0.5,0.4
2023-04-03T16:00:00,2290A,117.8483,30.97,铜陵市,市职教基地,,23,23,45,11,29,170,70,110,70,14,15,2,3,0.2,0.2
2023-04-03T16:00:00,2291A,117.0809,30.5177,安庆市,环科院,,38,26,49,26,29,167,50,121,50,27,25,8,11,0.9,0.8
2023-04-03T16:00:00,2292A,117.0331,30.5119,安庆市,马山宾馆,,36,27,48,25,29,165,50,122,49,28,22,8,9,0.8,0.7
2023-04-03T16:00:00,2294A,116.9896,30.6145,安庆市,安庆大学,,28,19,52,19,30,155,38,106,52,34,25,8,9,1.0,0.8
2023-04-03T16:00:00,2295A,118.2903,29.6963,黄山市,延安路89号,,37,37,48,16,27,126,82,68,68,14,19,7,7,0.4,0.5
2023-04-03T16:00:00,2296A,118.327,29.7178,黄山市,黄山东路89号,,32,27,35,22,25,136,79,136,74,15,16,6,6,0.6,0.6
2023-04-03T16:00:00,2297A,118.1371,30.2756,黄山市,黄山区政府5号楼,,33,33,52,22,24,120,77,68,65,9,17,5,5,0.3,0.3
2023-04-03T16:00:00,2298A,118.3093,32.3153,滁州市,老年大学,,39,39,50,19,22,165,109,127,95,19,19,8,9,0.5,0.5
2023-04-03T16:00:00,2299A,118.3244,32.2786,滁州市,人大宾馆,,43,43,51,24,22,164,105,125,97,21,17,6,6,0.3,0.3
2023-04-03T16:00:00,2301A,115.8277,32.8929,阜阳市,市监测站,,33,33,42,10,21,160,68,118,76,17,15,3,5,0.5,0.5
2023-04-03T16:00:00,2303A,115.8554,32.8605,阜阳市,开发区,,26,22,44,18,22,173,55,126,61,19,17,5,7,0.3,0.4
2023-04-03T16:00:00,2307A,116.5079,31.737,六安市,监测大楼,,,31,39,19,24,171,69,100,81,,17,,5,0.5,0.4
2023-04-03T16:00:00,2308A,116.4738,31.7643,六安市,皖西学院,,35,34,50,24,21,172,71,107,84,12,10,4,5,0.5,0.4
2023-04-03T16:00:00,2309A,116.4996,31.7905,六安市,朝阳厂,,33,9,42,23,22,178,74,109,88,19,18,4,6,0.7,0.5
2023-04-03T16:00:00,2310A,116.5567,31.7886,六安市,开发区,,,45,55,26,26,171,68,103,80,13,14,,13,0.6,0.5
2023-04-03T16:00:00,2311A,115.8072,33.8399,亳州市,污水处理厂,,24,12,53,6,27,151,75,127,81,7,13,6,10,0.4,0.4
2023-04-03T16:00:00,2312A,115.7789,33.8518,亳州市,三国揽胜宫,,23,16,48,14,26,150,71,126,78,16,16,3,6,0.4,0.5
2023-04-03T16:00:00,2314A,117.47,30.6618,池州市,池州学院,,43,43,49,26,30,174,56,119,61,21,18,14,5,0.7,0.6
2023-04-03T16:00:00,2316A,118.7581,30.9454,宣城市,鳌峰子站,,28,27,43,14,20,144,88,98,80,12,15,4,6,0.4,0.4
2023-04-03T16:00:00,2317A,118.7385,30.9743,宣城市,敬亭山子站,,,,47,,20,152,74,77,63,23,28,5,9,,0.3
2023-04-03T16:00:00,2318A,118.7173,30.9427,宣城市,开发区子站,,32,32,44,16,18,148,84,88,73,9,17,6,5,0.5,0.5
2023-04-03T16:00:00,2319A,119.0141,25.4325,莆田市,荔城区仓后路,颗粒物(PM10),54,58,37,24,14,134,128,108,108,12,16,10,9,0.7,0.6
2023-04-03T16:00:00,2320A,119.0015,25.4553,莆田市,莆田市监测站,颗粒物(PM10),53,56,30,22,17,136,132,112,112,14,12,10,8,0.8,0.6
2023-04-03T16:00:00,2321A,119.1119,25.4561,莆田市,涵江区六中,颗粒物(PM10),54,58,39,34,22,129,123,103,97,12,19,11,9,0.7,0.5
2023-04-03T16:00:00,2322A,119.1013,25.3215,莆田市,秀屿区政府,,45,45,35,26,20,130,113,104,104,11,15,8,7,0.3,0.3
2023-04-03T16:00:00,2323A,118.981,25.4792,莆田市,东圳水库,,,,,,,,,,,,,,,,
2023-04-03T16:00:00,2324A,117.6211,26.2625,三明市,三钢,,34,34,42,20,30,100,90,85,85,16,24,8,9,0.4,0.8
2023-04-03T16:00:00,2325A,117.635,26.2714,三明市,三明二中,,36,36,38,19,26,99,90,83,83,19,25,4,4,0.4,0.8
2023-04-03T16:00:00,2326A,117.6028,26.2378,三明市,三元区政府,,,38,47,17,32,104,85,86,86,26,24,,7,0.6,1
2023-04-03T16:00:00,2327A,117.7275,26.3108,三明市,洋溪,,,,,,,,,,,,,,,,
2023-04-03T16:00:00,2331A,118.0966,26.6761,南平市,茫荡山,,,,,,,,,,,,,,,,
2023-04-03T16:00:00,2332A,118.1681,26.6369,南平市,南平市监测站,,31,14,27,12,21,100,98,95,84,10,15,4,5,0.4,0.7
2023-04-03T16:00:00,2333A,118.1825,26.6489,南平市,南平铝业有限公司,,33,22,29,8,20,105,104,101,86,7,12,6,6,0.4,0.3
2023-04-03T16:00:00,2334A,118.1756,26.6272,南平市,南平七中,,30,25,30,8,17,107,93,103,85,13,12,4,4,0.5,0.7
2023-04-03T16:00:00,2335A,117.0189,25.1181,龙岩市,龙岩师专,,,,,,,,,,,,,,,,
2023-04-03T16:00:00,2336A,117.0217,25.1033,龙岩市,龙岩市监测站,,32,32,49,13,38,110,91,106,79,16,20,11,10,0.6,0.8
2023-04-03T16:00:00,2337A,117.0258,25.0661,龙岩市,闽西职业技术学院,,35,35,51,15,37,103,90,100,81,13,17,11,13,0.4,0.6
2023-04-03T16:00:00,2338A,117.0196,25.0306,龙岩市,龙岩学院,,31,31,46,12,34,101,80,101,77,20,17,11,9,0.6,0.8
2023-04-03T16:00:00,2339A,119.5001,26.6946,宁德市,金涵水库,,,,,,,,,,,,,,,,
2023-04-03T16:00:00,2341A,119.5388,26.6612,宁德市,宁德市监测站,,40,40,36,19,25,120,120,84,77,17,19,8,5,0.5,0.5
2023-04-03T16:00:00,2342A,117.3102,29.3867,景德镇市,王港中学,,38,38,35,12,22,135,66,115,79,3,8,3,4,0.2,0.2
2023-04-03T16:00:00,2343A,117.2117,29.2933,景德镇市,老干部活动中心,颗粒物(PM10),52,53,59,18,30,113,67,105,72,12,13,5,6,0.4,0.4
2023-04-03T16:00:00,2344A,117.1894,29.2789,景德镇市,兽医站,,37,37,41,19,28,135,73,124,80,14,12,6,7,0.5,0.5
2023-04-03T16:00:00,2345A,117.1547,29.2617,景德镇市,台达陶瓷,,,31,55,27,31,115,67,98,69,22,29,,30,0.5,0.7
2023-04-03T16:00:00,2346A,117.2461,29.2956,景德镇市,陶研所,,40,40,45,20,22,124,76,123,80,6,6,6,5,0.4,0.4
2023-04-03T16:00:00,2347A,114.0997,27.5002,萍乡市,武功山,,29,2,7,19,12,92,92,88,88,5,6,13,13,0.8,0.7
2023-04-03T16:00:00,2348A,113.8385,27.6434,萍乡市,中医院,,46,38,35,32,25,54,39,31,30,23,11,5,9,1.1,0.9
2023-04-03T16:00:00,2349A,113.8493,27.6253,萍乡市,市政府车库,,31,31,43,20,29,52,32,26,26,24,19,9,14,0.9,0.7
2023-04-03T16:00:00,2350A,113.8676,27.6435,萍乡市,市环保局,,42,28,38,29,26,53,37,25,25,29,20,11,16,1.2,0.9
2023-04-03T16:00:00,2351A,113.866,27.6198,萍乡市,安源区政府,,34,34,47,19,25,45,33,21,21,17,20,15,22,1.0,1.4
2023-04-03T16:00:00,2352A,115.0861,27.9317,新余市,北岗,,23,20,32,16,27,65,62,51,51,4,14,6,10,0.0,0.2
2023-04-03T16:00:00,2353A,114.9886,27.8431,新余市,飞宇,,36,36,48,22,29,71,62,60,60,15,22,5,10,0.5,0.6
2023-04-03T16:00:00,2354A,114.9231,27.8246,新余市,第二水厂,颗粒物(PM10),55,59,69,23,36,67,32,51,51,43,31,26,14,1.8,0.6
2023-04-03T16:00:00,2355A,114.9308,27.8036,新余市,市气象局,,42,42,45,26,29,69,62,60,60,13,17,10,9,0.8,1
2023-04-03T16:00:00,2357A,116.9822,28.1136,鹰潭市,龙虎山,,,,29,21,20,88,84,67,67,1,3,3,2,0.7,0.7
2023-04-03T16:00:00,2358A,117.0564,28.2642,鹰潭市,新监测站,,33,33,43,22,27,112,69,74,74,8,12,1,15,0.5,0.6
2023-04-03T16:00:00,2359A,117.0311,28.2475,鹰潭市,财苑宾馆,,,35,45,22,26,95,69,68,68,15,18,3,10,,0.6
2023-04-03T16:00:00,2360A,117.0222,28.2264,鹰潭市,体育馆,,34,34,37,13,24,90,64,64,64,10,17,3,5,0.4,0.5
2023-04-03T16:00:00,2361A,117.0017,28.2131,鹰潭市,三川水表,,38,38,39,22,24,83,57,58,58,17,17,1,3,0.6,0.7
2023-04-03T16:00:00,2362A,114.9017,25.9149,赣州市,通天岩,,35,34,36,24,22,75,48,68,67,28,27,6,5,0.8,0.9
2023-04-03T16:00:00,2363A,114.9367,25.8664,赣州市,地委,,36,36,40,15,23,84,48,75,73,22,13,8,11,1.4,1.4
2023-04-03T16:00:00,2364A,114.9461,25.8481,赣州市,气象台,,24,24,26,11,17,61,51,58,58,21,10,7,8,0.7,0.7
2023-04-03T16:00:00,2365A,114.9322,25.8333,赣州市,市图书馆,,36,36,37,19,23,77,65,72,72,24,24,11,13,1.2,1.3
2023-04-03T16:00:00,2366A,114.8905,25.8471,赣州市,华坚鞋城,颗粒物(PM10),59,68,48,25,26,78,27,64,55,46,24,7,8,0.8,0.9
2023-04-03T16:00:00,2367A,114.9754,27.0803,吉安市,红声器材厂,,41,41,38,21,21,78,73,71,71,10,12,10,11,0.5,0.7
2023-04-03T16:00:00,2368A,114.9658,27.0999,吉安市,市森林工业局,,33,33,32,19,20,77,71,71,71,7,10,9,10,0.8,0.8
2023-04-03T16:00:00,2369A,114.99,27.1312,吉安市,市环境监测站,,36,36,31,18,18,82,76,74,74,18,17,6,8,0.6,0.6
2023-04-03T16:00:00,2370A,115.0093,27.0968,吉安市,青原区法院,,31,31,39,19,19,83,73,75,75,11,13,7,11,0.7,0.7
2023-04-03T16:00:00,2371A,114.3408,27.8064,宜春市,槟榔水业,,36,36,32,17,17,34,20,26,24,8,9,4,7,0.3,0.3
2023-04-03T16:00:00,2373A,114.3956,27.7844,宜春市,市石油公司,,29,23,26,20,18,65,47,45,45,15,15,1,1,0.4,0.6
2023-04-03T16:00:00,2374A,114.3703,27.7914,宜春市,市气象局,,43,43,31,17,18,75,56,65,65,19,13,5,4,0.6,0.7
2023-04-03T16:00:00,2375A,114.4013,27.8074,宜春市,市广电局,,25,25,28,17,20,78,63,70,70,12,9,7,7,0.9,1
2023-04-03T16:00:00,2376A,116.2127,28.0814,抚州市,桐源党溪,,30,27,30,21,19,69,69,64,64,3,5,3,4,0.9,0.9
2023-04-03T16:00:00,2377A,116.3544,27.9831,抚州市,市站,,40,40,36,25,21,68,55,58,58,14,11,4,4,1.1,1
2023-04-03T16:00:00,2378A,116.3565,27.963,抚州市,血防站,,,45,32,9,17,54,48,50,46,14,11,,8,0.7,0.9
2023-04-03T16:00:00,2379A,116.3564,28.0007,抚州市,采茶剧团,,42,42,33,22,20,67,56,59,59,12,10,3,4,1.2,1.1
2023-04-03T16:00:00,2380A,116.385,27.9647,抚州市,医学分院,,38,38,31,17,16,64,56,59,59,11,9,6,5,1.2,1.2
2023-04-03T16:00:00,2381A,118.005,28.4572,上饶市,百草园,颗粒物(PM10),51,51,47,32,28,133,29,83,36,8,4,3,6,1.2,1.2
2023-04-03T16:00:00,2382A,117.9756,28.4436,上饶市,市监测站,颗粒物(PM10),51,51,53,27,28,136,69,98,72,27,20,25,20,0.7,0.6
2023-04-03T16:00:00,2383A,117.9519,28.4628,上饶市,凤凰光学,,40,36,54,28,30,134,73,82,69,18,19,24,27,0.8,0.7
2023-04-03T16:00:00,2385A,114.17,35.9019,鹤壁市,市监测站,细颗粒物(PM2.5),77,60,78,56,53,159,81,87,87,22,20,5,8,0.8,0.7
2023-04-03T16:00:00,2386A,114.2956,35.7511,鹤壁市,市交警支队,颗粒物(PM10),55,59,78,30,45,147,89,88,88,18,25,1,8,0.4,0.4
2023-04-03T16:00:00,2387A,114.2878,35.7306,鹤壁市,迎宾馆,,49,34,60,34,44,154,94,93,93,23,25,6,9,0.5,0.6
2023-04-03T16:00:00,2389A,113.836,35.311,新乡市,环保西院,,43,43,66,17,34,166,107,103,103,7,12,7,9,0.3,0.4
2023-04-03T16:00:00,2390A,113.884,35.272,新乡市,开发区,,42,42,70,27,35,159,100,103,101,10,14,7,8,0.5,0.6
2023-04-03T16:00:00,2391A,113.883,35.303,新乡市,环保东院,,45,43,63,31,41,168,103,103,102,13,16,7,10,0.3,0.4
2023-04-03T16:00:00,2392A,115.0312,35.7636,濮阳市,环保局,,35,27,67,24,38,151,92,119,88,16,19,7,10,0.4,0.4
2023-04-03T16:00:00,2394A,115.0574,35.7609,濮阳市,油田运输公司,,39,34,82,27,46,154,95,120,93,11,17,6,10,0.4,0.4
2023-04-03T16:00:00,2395A,115.0866,35.7754,濮阳市,油田物探公司,,,6,62,27,41,141,89,110,83,,14,7,11,0.4,0.4
2023-04-03T16:00:00,2396A,113.8276,34.0159,许昌市,监测站,,24,6,49,10,26,150,76,122,75,9,9,5,6,0.6,0.7
2023-04-03T16:00:00,2398A,113.7906,33.9953,许昌市,开发区,,24,7,40,8,19,146,76,120,76,12,11,1,3,0.7,0.7
2023-04-03T16:00:00,2399A,114.051,33.5699,漯河市,三五一五工厂,,25,7,46,7,30,159,78,111,79,14,14,8,11,0.5,0.5
2023-04-03T16:00:00,2400A,114.0055,33.5698,漯河市,漯河大学,,26,5,42,6,31,163,82,117,83,5,9,7,9,0.4,0.5
2023-04-03T16:00:00,2401A,114.0138,33.5828,漯河市,市水利局,,24,2,44,7,29,160,74,112,74,14,14,6,9,0.5,0.6
2023-04-03T16:00:00,2402A,114.0261,33.5698,漯河市,市广电局,,25,5,44,7,28,156,78,114,79,10,11,4,7,0.5,0.6
2023-04-03T16:00:00,2404A,112.5224,33.0122,南阳市,瓦房庄,,33,33,37,5,24,100,82,96,76,10,14,4,4,0.6,0.7
2023-04-03T16:00:00,2405A,112.5003,32.9735,南阳市,汉画馆,,28,16,43,7,27,107,87,101,82,12,13,3,4,0.7,0.7
2023-04-03T16:00:00,2406A,112.5573,33.027,南阳市,气象站,,28,5,24,7,21,106,89,100,82,13,14,5,6,0.4,0.6
2023-04-03T16:00:00,2407A,112.5481,32.9689,南阳市,理工学院,,28,11,35,10,25,121,88,104,83,12,13,6,6,0.6,0.7
2023-04-03T16:00:00,2408A,115.6702,34.4285,商丘市,环境监测站,,27,12,44,18,30,145,84,128,82,6,9,4,6,0.4,0.4
2023-04-03T16:00:00,2409A,115.6458,34.4045,商丘市,粮食局,,27,10,43,14,25,152,84,138,84,8,13,3,5,0.4,0.5
2023-04-03T16:00:00,2410A,115.6293,34.3948,商丘市,睢阳区环保局,,25,20,50,12,21,143,80,132,86,8,11,4,5,0.4,0.5
2023-04-03T16:00:00,2420A,114.0189,32.9656,驻马店市,市一纸厂,,23,17,47,16,31,151,69,101,69,10,11,2,8,0.6,0.8
2023-04-03T16:00:00,2421A,114.0114,33.015,驻马店市,市彩印厂,,25,15,44,17,31,158,73,121,74,13,13,6,7,0.3,0.4
2023-04-03T16:00:00,2422A,113.9976,32.9771,驻马店市,天方二分厂,,28,7,48,19,41,149,74,109,74,10,12,3,5,0.4,0.4
2023-04-03T16:00:00,2423A,115.0601,30.2313,黄石市,沈家营,,44,44,47,29,25,96,52,80,47,26,20,22,12,1.2,0.9
2023-04-03T16:00:00,2424A,115.0817,30.2006,黄石市,陈家湾,,49,49,59,21,25,129,71,92,60,14,13,7,5,0.4,0.6
2023-04-03T16:00:00,2426A,114.8988,30.2019,黄石市,铁山,,,,41,,24,115,64,83,55,15,15,5,6,1.0,1.1
2023-04-03T16:00:00,2427A,115.0307,30.2092,黄石市,团城山,,31,31,54,18,20,129,75,89,60,13,14,9,8,0.9,0.8
2023-04-03T16:00:00,2428A,111.0419,32.395,十堰市,武当山,,26,2,16,3,12,113,81,98,88,13,11,10,11,0.6,0.6
2023-04-03T16:00:00,2429A,110.78,32.6494,十堰市,滨河新村,,22,17,46,14,31,114,70,114,76,17,13,2,3,0.9,0.9
2023-04-03T16:00:00,2430A,110.7258,32.6389,十堰市,刘家沟,,25,6,33,2,25,116,77,111,83,16,11,7,7,0.9,0.9
2023-04-03T16:00:00,2431A,110.8839,32.5714,十堰市,铁二处,,25,11,38,7,27,120,78,113,79,16,12,6,6,1.0,1
2023-04-03T16:00:00,2432A,112.155,32.0197,襄阳市,襄城运动路,,26,13,47,18,47,108,77,96,79,16,15,8,8,0.7,0.9
2023-04-03T16:00:00,2433A,112.1392,32.0564,襄阳市,樊城新华路,,22,10,51,9,35,109,68,97,74,14,14,9,9,0.8,0.9
2023-04-03T16:00:00,2434A,112.1825,32.1142,襄阳市,高新管委会,,21,10,53,13,45,110,67,104,72,12,11,7,8,0.9,1
2023-04-03T16:00:00,2435A,112.2106,32.0903,襄阳市,襄州航空路,,22,12,50,12,42,109,69,98,73,16,14,12,11,0.6,0.7
2023-04-03T16:00:00,2436A,114.8938,30.3994,鄂州市,市政府,,33,22,37,23,23,121,70,87,60,10,13,10,10,1.0,1
2023-04-03T16:00:00,2437A,114.8989,30.3714,鄂州市,赵家坝,,28,28,47,17,23,111,70,92,57,12,16,9,7,0.8,0.9
2023-04-03T16:00:00,2439A,112.2014,31.0481,荆门市,竹园小学,,,16,48,6,34,99,71,99,77,,4,7,8,0.8,0.9
2023-04-03T16:00:00,2440A,112.1969,30.9891,荆门市,掇刀,,23,9,43,13,40,98,72,97,76,12,17,5,8,0.6,0.7
2023-04-03T16:00:00,2441A,112.2213,31.0386,荆门市,石化一小,,24,12,52,16,45,104,76,103,78,10,16,5,5,0.6,0.7
2023-04-03T16:00:00,2443A,113.9153,30.9285,孝感市,文化路,,19,7,48,8,24,145,60,84,57,19,15,4,5,1.1,1.1
2023-04-03T16:00:00,2444A,113.942,30.9075,孝感市,东城区,,22,14,41,7,23,154,68,89,62,21,18,4,6,1.0,1
2023-04-03T16:00:00,2446A,114.9028,30.4742,黄冈市,职工中心,,46,41,39,32,32,111,74,100,61,6,8,11,8,0.8,0.8
2023-04-03T16:00:00,2447A,114.3175,29.8142,咸宁市,森林公园,,28,3,14,7,10,89,89,72,71,2,2,5,5,0.9,0.8
