timepoint,stationcode,longitude,latitude,area,positionname,primarypollutant,aqi,pm10,pm10_24h,pm2_5,pm2_5_24h,o3,o3_24h,o3_8h,o3_8h_24h,no2,no2_24h,so2,so2_24h,co,co_24h
2022-03-31T15:00:00,1001A,116.3621,39.8784,北京市,万寿西宫,,25,6,30,3,22,78,77,55,55,3,23,3,3,0.1,0.3
2022-03-31T15:00:00,1002A,116.2202,40.2915,北京市,定陵(对照点),,30,4,16,2,12,96,95,82,82,6,10,2,2,0.1,0.2
2022-03-31T15:00:00,1003A,116.4174,39.9289,北京市,东四,,30,5,27,2,19,94,94,66,66,3,21,3,2,0.1,0.3
2022-03-31T15:00:00,1004A,116.4072,39.8863,北京市,天坛,,28,5,31,2,24,91,89,63,63,6,16,3,3,0.2,0.4
2022-03-31T15:00:00,1005A,116.462,39.9365,北京市,农展馆,,29,5,26,3,20,92,92,67,67,5,22,3,3,0.2,0.4
2022-03-31T15:00:00,1006A,116.3392,39.9295,北京市,官园,,28,4,29,3,21,89,89,59,59,4,22,2,2,0.1,0.4
2022-03-31T15:00:00,1007A,116.2878,39.9611,北京市,海淀万柳,,29,4,27,2,20,91,91,58,58,7,27,3,2,0.2,0.4
2022-03-31T15:00:00,1008A,116.6636,40.135,北京市,顺义新城,,28,5,22,2,15,87,87,64,64,4,18,3,3,0.2,0.3
2022-03-31T15:00:00,1009A,116.6275,40.3275,北京市,怀柔镇,,30,5,22,1,14,94,94,70,70,8,13,3,3,0.2,0.3
2022-03-31T15:00:00,1010A,116.2296,40.217,北京市,昌平镇,,30,6,20,3,14,95,94,78,78,5,14,3,3,0.1,0.3
2022-03-31T15:00:00,1011A,116.3966,39.9821,北京市,奥体中心,,28,4,26,2,19,88,87,63,63,5,20,3,3,0.2,0.5
2022-03-31T15:00:00,1012A,116.184,39.9136,北京市,古城,,30,8,33,3,22,93,93,63,63,4,23,3,3,0.1,0.4
2022-03-31T15:00:00,1015A,117.1444,39.1661,天津市,勤俭道,,28,11,43,4,23,93,89,62,62,7,29,5,7,0.4,0.6
2022-03-31T15:00:00,1017A,117.237,39.1082,天津市,大直沽八号路,,30,11,42,5,23,96,95,69,69,7,29,5,8,0.2,0.4
2022-03-31T15:00:00,1018A,117.202,39.0927,天津市,前进道,,30,13,42,5,25,94,94,68,68,8,29,4,6,0.2,0.5
2022-03-31T15:00:00,1019A,117.1837,39.2133,天津市,淮河道,,30,11,48,4,25,93,93,67,67,7,34,5,8,0.4,0.6
2022-03-31T15:00:00,1021A,117.307,39.0877,天津市,跃进路,,30,14,40,5,24,96,96,68,68,12,33,4,6,0.4,0.5
2022-03-31T15:00:00,1023A,117.707,39.0343,天津市,第四大街,,28,13,45,4,21,89,89,66,63,7,36,5,8,0.2,0.5
2022-03-31T15:00:00,1024A,117.457,38.8394,天津市,永明路,,31,13,39,5,23,107,98,75,75,5,28,6,10,0.4,0.5
2022-03-31T15:00:00,1026A,117.764,39.1587,天津市,汉北路,,30,10,35,4,19,93,93,70,70,6,30,5,8,0.4,0.6
2022-03-31T15:00:00,1027A,117.157,38.9194,天津市,团泊洼(对照点),,31,24,43,4,25,102,97,70,70,10,25,4,8,0.4,0.6
2022-03-31T15:00:00,1029A,114.4422,38.0444,石家庄市,职工医院,,33,19,57,18,42,105,105,61,61,10,31,4,4,0.3,0.7
2022-03-31T15:00:00,1030A,114.6063,38.0266,石家庄市,高新区,,32,29,62,11,36,101,101,60,60,9,31,5,5,0.5,0.8
2022-03-31T15:00:00,1031A,114.4898,38.1328,石家庄市,西北水源,,32,24,61,11,43,101,101,59,59,4,25,1,3,0.4,0.7
2022-03-31T15:00:00,1032A,114.4586,38.0058,石家庄市,西南高教,,33,30,60,15,35,105,105,59,59,10,20,3,3,0.4,0.8
2022-03-31T15:00:00,1033A,114.5331,38.0178,石家庄市,世纪公园,,31,27,64,12,39,99,99,58,58,4,17,5,4,0.4,0.7
2022-03-31T15:00:00,1034A,114.509,38.0457,石家庄市,人民会堂,,48,24,61,33,50,105,105,62,62,14,30,4,3,0.4,0.8
2022-03-31T15:00:00,1035A,114.3524,37.8911,石家庄市,封龙山(对照点),,32,25,44,22,29,80,78,74,74,15,19,6,3,0.3,0.5
2022-03-31T15:00:00,1037A,118.131,39.6363,唐山市,雷达站,,33,15,43,7,25,104,104,73,73,2,15,2,5,0.3,0.5
2022-03-31T15:00:00,1038A,118.1725,39.6334,唐山市,物资局,,31,10,35,13,26,99,99,71,71,1,15,2,6,0.3,0.5
2022-03-31T15:00:00,1040A,118.1705,39.6506,唐山市,十二中,,31,14,33,17,29,97,97,69,69,2,13,2,6,0.2,0.4
2022-03-31T15:00:00,1041A,118.1869,39.622,唐山市,小山,,33,9,37,8,25,104,104,75,75,3,14,2,6,0.3,0.5
2022-03-31T15:00:00,1042A,119.5134,39.8207,秦皇岛市,北戴河环保局,,31,27,25,12,13,101,97,82,82,16,15,10,8,0.6,0.6
2022-03-31T15:00:00,1043A,119.7493,40.0116,秦皇岛市,第一关,,35,24,35,14,18,110,110,91,91,11,31,7,7,0.2,0.3
2022-03-31T15:00:00,1044A,119.5897,39.9499,秦皇岛市,监测站,,34,26,41,12,16,107,107,83,83,13,28,5,4,0.4,0.5
2022-03-31T15:00:00,1046A,119.5251,39.9041,秦皇岛市,建设大厦,,36,36,44,21,28,112,109,83,83,11,24,5,4,0.3,0.4
2022-03-31T15:00:00,1048A,114.5302,36.6116,邯郸市,东污水处理厂,,34,34,61,21,46,84,84,49,49,15,23,11,6,0.3,0.5
2022-03-31T15:00:00,1049A,114.4918,36.5713,邯郸市,矿院,,48,48,69,25,47,90,90,64,64,14,20,6,5,0.3,0.5
2022-03-31T15:00:00,1050A,114.484,36.6133,邯郸市,丛台公园,颗粒物(PM10),53,55,63,21,40,91,91,61,61,8,15,5,5,0.4,0.6
2022-03-31T15:00:00,1051A,115.493,38.8632,保定市,游泳馆,,38,38,55,9,31,98,98,57,57,6,33,5,7,0.3,0.6
2022-03-31T15:00:00,1053A,115.4713,38.9108,保定市,接待中心,,33,33,59,13,34,102,102,62,62,9,32,7,7,0.6,1
2022-03-31T15:00:00,1054A,115.4612,38.8416,保定市,地表水厂,,35,35,62,8,31,102,102,61,61,9,30,8,9,0.3,0.6
2022-03-31T15:00:00,1055A,115.4323,38.8697,保定市,胶片厂,,34,14,47,9,29,106,106,61,61,5,27,3,4,0.4,0.7
2022-03-31T15:00:00,1056A,115.5086,38.8639,保定市,监测站,,35,35,53,11,33,95,95,56,56,5,31,2,4,0.4,0.7
2022-03-31T15:00:00,1057A,114.8883,40.8336,张家口市,人民公园,,33,10,20,2,5,103,103,95,95,5,8,3,3,0.2,0.2
2022-03-31T15:00:00,1059A,114.8687,40.8042,张家口市,五金库,,32,15,18,5,12,101,101,93,93,6,11,3,4,0.3,0.4
2022-03-31T15:00:00,1060A,114.8902,40.762,张家口市,世纪豪园,,31,11,21,1,10,98,98,90,90,3,7,2,2,0.3,0.4
2022-03-31T15:00:00,1061A,114.8916,40.8661,张家口市,北泵房(对照点),,33,1,22,5,17,104,104,96,96,4,7,5,7,0.3,0.4
2022-03-31T15:00:00,1062A,117.9531,40.9081,承德市,铁路,,31,9,41,7,27,98,98,64,64,3,26,4,8,0.2,0.7
2022-03-31T15:00:00,1063A,117.9392,40.9763,承德市,中国银行,,31,12,38,4,23,97,97,69,69,4,23,3,5,0.2,0.5
2022-03-31T15:00:00,1064A,117.9503,40.928,承德市,开发区,,31,21,45,7,28,100,99,68,68,6,29,4,7,0.1,0.6
2022-03-31T15:00:00,1065A,117.8051,40.9655,承德市,文化中心,,29,12,37,3,23,94,92,68,68,6,26,2,7,0.2,0.8
2022-03-31T15:00:00,1066A,117.9268,41.0026,承德市,离宫(对照点),,29,14,29,10,27,90,90,64,64,2,20,8,9,0.2,0.5
2022-03-31T15:00:00,1067A,116.6708,39.5111,廊坊市,药材公司,,32,13,39,3,23,102,102,70,70,8,25,1,1,0.2,0.4
2022-03-31T15:00:00,1068A,116.7214,39.5589,廊坊市,开发区,,34,6,35,8,24,106,106,75,75,2,14,1,2,0.1,0.3
2022-03-31T15:00:00,1070A,116.7244,39.5269,廊坊市,北华航天学院,,31,12,43,0,19,99,99,69,69,8,24,3,4,0.2,0.4
2022-03-31T15:00:00,1071A,116.8842,38.2991,沧州市,沧县城建局,,35,35,36,7,17,103,96,74,74,10,32,4,7,0.2,0.3
2022-03-31T15:00:00,1072A,116.8584,38.3254,沧州市,电视转播站,,38,38,38,9,16,106,94,78,78,14,31,4,6,0.3,0.4
2022-03-31T15:00:00,1073A,116.8709,38.3228,沧州市,市环保局,,44,44,37,12,20,107,95,84,84,11,30,8,10,0.3,0.4
2022-03-31T15:00:00,1074A,115.6838,37.7541,衡水市,电机北厂,,35,24,33,17,23,109,109,85,85,10,28,4,6,0.3,0.3
2022-03-31T15:00:00,1075A,115.6303,37.7316,衡水市,市监测站,,43,43,46,16,22,107,107,83,83,6,19,8,10,0.0,0.1
2022-03-31T15:00:00,1077A,114.4704,37.0886,邢台市,达活泉,,50,50,73,19,37,96,96,65,65,12,20,8,4,0.2,0.5
2022-03-31T15:00:00,1078A,114.5062,37.0349,邢台市,邢师高专,,,44,65,29,44,95,95,58,58,14,24,,5,0.5,0.9
2022-03-31T15:00:00,1079A,114.5237,37.0851,邢台市,路桥公司,颗粒物(PM10),54,57,62,29,38,96,96,62,62,11,24,4,5,0.5,0.7
2022-03-31T15:00:00,1080A,114.4725,37.0719,邢台市,市环保局,,47,47,64,27,42,90,90,61,61,19,27,2,2,0.4,0.6
2022-03-31T15:00:00,1081A,112.5139,37.8873,太原市,尖草坪,,42,42,40,9,12,124,97,80,80,14,18,7,7,0.3,0.3
2022-03-31T15:00:00,1083A,112.434,38.0108,太原市,上兰(对照点),,33,21,31,11,14,127,103,85,85,7,9,4,4,0.2,0.2
2022-03-31T15:00:00,1084A,112.469,37.7124,太原市,晋源,,31,17,58,10,28,128,97,83,83,14,27,5,5,0.3,0.4
2022-03-31T15:00:00,1085A,112.5583,37.7394,太原市,小店,,31,23,61,4,23,121,97,80,80,12,25,6,6,0.3,0.4
2022-03-31T15:00:00,1086A,112.5369,37.8692,太原市,桃园,,32,19,33,9,11,124,100,77,77,8,19,3,6,0.2,0.4
2022-03-31T15:00:00,1087A,112.57,37.8195,太原市,坞城,,32,23,47,5,18,125,101,83,83,9,20,5,6,0.0,0.2
2022-03-31T15:00:00,1088A,112.549,37.9854,太原市,南寨,,37,37,46,9,13,123,101,82,82,7,17,6,7,0.3,0.3
2022-03-31T15:00:00,1090A,111.6507,40.7517,呼和浩特市,呼市一监,,33,12,22,0,10,104,104,94,94,4,15,5,6,0.3,0.4
2022-03-31T15:00:00,1091A,111.6572,40.8033,呼和浩特市,小召,,30,7,16,1,7,94,93,83,83,10,15,5,6,0.3,0.3
2022-03-31T15:00:00,1094A,111.7516,40.8369,呼和浩特市,如意水处理厂,,31,6,18,0,6,99,99,88,88,5,17,7,8,0.2,0.3
2022-03-31T15:00:00,1095A,111.7276,40.8062,呼和浩特市,二十九中,,32,10,18,6,7,102,102,89,89,5,16,7,8,0.4,0.4
2022-03-31T15:00:00,1096A,111.5512,40.7866,呼和浩特市,工大金川校区,,29,10,25,2,6,90,90,80,80,5,13,8,8,0.5,0.5
2022-03-31T15:00:00,1097A,111.717,40.7612,呼和浩特市,化肥厂生活区,颗粒物(PM10),55,60,34,10,15,90,90,79,79,4,16,8,9,0.3,0.4
2022-03-31T15:00:00,1098A,123.6836,41.9339,沈阳市,森林路(对照点),,33,13,18,10,12,103,103,86,86,3,6,8,8,0.3,0.4
2022-03-31T15:00:00,1099A,123.505,41.7406,沈阳市,浑南东路,,33,16,22,7,14,106,105,89,89,4,16,11,14,0.4,0.5
2022-03-31T15:00:00,1100A,123.4231,41.6989,沈阳市,新秀街,,33,14,20,6,12,106,105,89,89,7,17,10,12,0.4,0.5
2022-03-31T15:00:00,1102A,123.5903,41.8411,沈阳市,东陵路,,33,15,21,11,15,103,103,86,86,2,9,11,12,0.4,0.5
2022-03-31T15:00:00,1103A,123.4264,41.8467,沈阳市,陵东街,,33,7,26,6,17,105,105,85,85,6,19,5,6,0.3,0.5
2022-03-31T15:00:00,1104A,123.4114,41.7653,沈阳市,文化路,,35,12,22,7,17,110,109,92,92,2,12,5,9,0.5,0.6
2022-03-31T15:00:00,1105A,123.4678,41.7867,沈阳市,小河沿,,32,14,20,7,14,101,101,84,84,4,14,6,9,0.4,0.5
2022-03-31T15:00:00,1106A,123.4017,41.7972,沈阳市,太原街,,32,12,25,10,21,104,102,84,84,4,16,6,10,0.3,0.4
2022-03-31T15:00:00,1108A,123.3783,41.9228,沈阳市,京沈街,,34,8,21,6,18,107,107,89,89,5,13,6,8,0.5,0.6
2022-03-31T15:00:00,1109A,121.612,38.9741,大连市,甘井子,,33,21,21,13,16,105,105,89,89,14,18,5,6,0.4,0.5
2022-03-31T15:00:00,1110A,121.565,38.9511,大连市,周水子,,25,24,23,10,13,90,80,76,72,15,19,4,4,0.4,0.5
2022-03-31T15:00:00,1111A,121.5637,38.8845,大连市,星海三站,,35,30,27,19,20,110,110,85,85,13,25,9,9,0.3,0.4
2022-03-31T15:00:00,1112A,121.6302,38.9117,大连市,青泥洼桥,,35,15,17,18,16,112,112,92,92,18,20,11,9,0.5,0.6
2022-03-31T15:00:00,1113A,121.6251,38.8638,大连市,傅家庄,,40,26,28,15,16,126,126,101,101,17,20,6,7,0.5,0.5
2022-03-31T15:00:00,1114A,121.5213,38.8661,大连市,七贤岭,,39,32,22,21,11,122,122,99,99,13,14,16,14,0.5,0.6
2022-03-31T15:00:00,1115A,121.2529,38.8061,大连市,旅顺,,34,22,22,11,13,110,107,95,95,10,12,10,10,0.5,0.5
2022-03-31T15:00:00,1116A,121.7485,39.1311,大连市,金州,,33,21,20,12,17,103,103,86,86,16,20,4,6,0.4,0.6
2022-03-31T15:00:00,1117A,121.7811,39.0496,大连市,开发区,,,21,27,12,19,94,94,79,79,13,18,,10,0.2,0.4
2022-03-31T15:00:00,1118A,121.9762,39.0631,大连市,双D港,,,18,24,17,18,102,102,87,87,13,22,4,6,,0.2
2022-03-31T15:00:00,1119A,125.3325,43.9166,长春市,食品厂,,30,10,22,6,18,98,95,86,86,5,15,5,10,0.3,0.4
2022-03-31T15:00:00,1120A,125.2863,43.9027,长春市,客车厂,,30,16,21,11,16,100,95,88,88,5,13,7,8,0.5,0.6
2022-03-31T15:00:00,1121A,125.2841,43.8463,长春市,邮电学院,,30,24,27,9,18,102,96,90,90,2,14,4,10,0.4,0.5
2022-03-31T15:00:00,1122A,125.3716,43.8772,长春市,劳动公园,,33,12,22,9,16,106,103,92,92,5,15,2,6,0.4,0.6
2022-03-31T15:00:00,1123A,125.3297,43.8805,长春市,园林处,,32,14,21,10,13,104,101,88,88,4,14,5,9,0.3,0.4
2022-03-31T15:00:00,1124A,125.4605,43.79,长春市,净月潭,,33,20,23,10,13,107,104,95,95,5,8,6,6,0.3,0.4
2022-03-31T15:00:00,1125A,125.7194,43.515,长春市,甩湾子(对照点),,33,31,23,4,19,105,104,88,88,3,4,8,8,0.3,0.4
2022-03-31T15:00:00,1126A,125.3863,43.8447,长春市,经开区环卫处,,30,19,23,16,17,100,95,84,84,2,11,6,8,0.5,0.5
2022-03-31T15:00:00,1127A,125.245,43.7783,长春市,高新区管委会,,33,16,24,13,20,107,104,92,92,5,19,4,7,0.3,0.4
2022-03-31T15:00:00,1128A,125.1761,43.8325,长春市,岱山公园,,30,19,28,12,20,98,95,83,83,5,15,6,8,0.3,0.5
2022-03-31T15:00:00,1129A,126.5422,45.755,哈尔滨市,岭北(对照点),,,30,26,,15,113,113,97,97,3,9,5,12,0.4,0.6
2022-03-31T15:00:00,1130A,126.561,45.8167,哈尔滨市,松北商大,,32,20,25,6,18,106,102,95,95,2,17,3,4,0.4,0.5
2022-03-31T15:00:00,1131A,126.979,45.5419,哈尔滨市,阿城会宁,,34,34,46,5,30,98,97,84,84,11,22,13,11,0.2,1.2
2022-03-31T15:00:00,1132A,126.599,45.7222,哈尔滨市,南岗学府路,,30,11,16,5,14,96,96,84,84,4,14,9,14,0.6,0.7
2022-03-31T15:00:00,1133A,126.689,45.7733,哈尔滨市,太平宏伟公园,,31,27,33,13,18,102,97,90,90,13,23,14,16,0.5,0.6
2022-03-31T15:00:00,1134A,126.635,45.7667,哈尔滨市,道外承德广场,颗粒物(PM10),55,59,45,10,16,98,94,84,84,8,17,17,15,0.4,0.4
2022-03-31T15:00:00,1135A,126.685,45.7319,哈尔滨市,香坊红旗大街,,30,29,30,12,15,98,95,88,88,5,17,11,17,0.4,0.5
2022-03-31T15:00:00,1136A,126.6411,45.7258,哈尔滨市,动力和平路,,30,27,24,8,13,98,95,86,86,6,16,13,15,0.4,0.5
2022-03-31T15:00:00,1137A,126.593,45.7478,哈尔滨市,道里建国路,,,,25,,20,98,98,88,88,8,25,,9,0.3,0.7
2022-03-31T15:00:00,1138A,126.615,45.61,哈尔滨市,平房东轻厂,,33,33,32,12,19,100,100,86,86,7,29,10,18,0.5,0.5
2022-03-31T15:00:00,1139A,126.595,45.9855,哈尔滨市,呼兰师专,,26,21,31,3,20,86,83,76,76,6,12,7,9,0.5,0.6
2022-03-31T15:00:00,1140A,126.6206,45.6842,哈尔滨市,省农科院,,32,23,33,6,18,100,100,86,86,8,24,6,13,1.2,1.1
2022-03-31T15:00:00,1141A,121.4,31.238,上海市,普陀,颗粒物(PM10),51,51,56,27,27,168,98,102,100,21,20,4,4,1.0,0.9
2022-03-31T15:00:00,1142A,121.478,31.2036,上海市,十五厂,,40,38,45,28,30,154,97,110,96,14,18,5,5,0.7,0.7
2022-03-31T15:00:00,1143A,121.467,31.3008,上海市,虹口,,,46,48,,28,150,92,90,89,17,21,2,2,0.7,0.6
2022-03-31T15:00:00,1144A,121.412,31.1654,上海市,徐汇上师大,,43,43,52,23,27,152,91,106,92,17,19,7,7,1.0,0.9
2022-03-31T15:00:00,1145A,121.536,31.2659,上海市,杨浦四漂,,45,44,47,31,33,159,102,105,98,8,17,6,8,0.7,0.5
2022-03-31T15:00:00,1147A,121.425,31.2261,上海市,静安监测站,,46,46,54,28,31,156,95,102,93,17,21,4,5,0.6,0.6
2022-03-31T15:00:00,1148A,121.703,31.1907,上海市,浦东川沙,,42,42,42,26,28,169,105,104,104,15,19,4,5,0.6,0.6
2022-03-31T15:00:00,1149A,121.533,31.2284,上海市,浦东新区监测站,,44,44,51,26,30,160,105,114,100,12,19,4,5,0.7,0.6
2022-03-31T15:00:00,1150A,121.577,31.2071,上海市,浦东张江,,40,40,46,27,30,147,92,93,93,18,20,4,4,0.7,0.7
2022-03-31T15:00:00,1151A,118.8086,32.1065,南京市,迈皋桥,,42,42,67,22,36,142,60,84,63,29,32,4,4,0.7,0.7
2022-03-31T15:00:00,1152A,118.7538,32.0551,南京市,草场门,,35,31,67,24,33,161,67,88,71,26,27,4,5,0.5,0.5
2022-03-31T15:00:00,1153A,118.7794,32.0745,南京市,山西路,细颗粒物(PM2.5),55,48,68,39,51,161,70,90,74,20,22,4,4,0.4,0.4
2022-03-31T15:00:00,1154A,118.7752,32.0023,南京市,中华门,,48,48,78,22,42,169,67,95,70,24,20,3,4,0.4,0.4
2022-03-31T15:00:00,1155A,118.8109,32.0309,南京市,瑞金路,细颗粒物(PM2.5),55,42,65,39,44,160,64,98,69,17,16,3,4,0.4,0.4
2022-03-31T15:00:00,1156A,118.7997,32.0754,南京市,玄武湖,,,,63,,40,150,60,83,66,20,20,4,4,0.5,0.6
2022-03-31T15:00:00,1157A,118.6414,32.0931,南京市,浦口,,,39,53,,36,94,70,90,69,24,24,4,4,0.7,0.8
2022-03-31T15:00:00,1158A,118.7356,31.9996,南京市,奥体中心,,41,41,69,22,41,174,73,98,77,18,18,5,7,0.6,0.7
2022-03-31T15:00:00,1159A,118.9125,32.1028,南京市,仙林大学城,,42,34,56,29,38,163,75,107,78,16,17,3,5,0.7,0.7
2022-03-31T15:00:00,1160A,120.561,31.2472,苏州市,上方山(对照点),,45,33,58,31,44,154,90,109,90,18,17,4,5,0.4,0.5
2022-03-31T15:00:00,1162A,120.591,31.3019,苏州市,彩香,,33,33,51,21,32,160,93,116,92,15,16,5,6,0.7,0.8
2022-03-31T15:00:00,1163A,120.596,31.3264,苏州市,轧钢厂,,40,40,66,21,28,158,94,115,91,18,18,5,6,0.5,0.6
2022-03-31T15:00:00,1164A,120.613,31.2703,苏州市,吴中区,,44,44,56,24,38,156,92,111,89,18,19,4,4,0.5,0.5
2022-03-31T15:00:00,1165A,120.543,31.2994,苏州市,苏州新区,,43,43,64,20,36,163,97,113,93,10,14,6,8,0.6,0.7
2022-03-31T15:00:00,1166A,120.669,31.3097,苏州市,苏州工业园区,,38,30,48,26,30,162,92,112,91,21,20,6,7,0.5,0.5
2022-03-31T15:00:00,1167A,120.641,31.3708,苏州市,相城区,,42,42,55,24,34,151,94,101,90,15,17,4,5,0.7,0.7
2022-03-31T15:00:00,1168A,120.9098,31.9663,南通市,狼山街道,,44,44,53,22,28,187,102,106,106,12,13,6,6,0.5,0.4
2022-03-31T15:00:00,1169A,120.86,32.0005,南通市,虹桥,,45,40,45,31,31,156,87,90,90,6,9,6,7,0.6,0.5
2022-03-31T15:00:00,1170A,120.87,32.02,南通市,城中,,45,45,48,31,33,162,92,95,95,14,15,3,4,0.5,0.5
2022-03-31T15:00:00,1171A,120.94,31.93,南通市,星湖花园,,39,37,49,27,29,176,94,97,97,12,16,3,4,0.7,0.6
2022-03-31T15:00:00,1172A,120.81,32.0417,南通市,紫琅学院,,42,42,44,24,28,162,92,96,96,14,14,5,6,0.5,0.4
2022-03-31T15:00:00,1173A,119.176,34.5885,连云港市,市环境监测站,,41,41,47,19,28,137,106,100,98,11,13,7,6,0.6,0.8
2022-03-31T15:00:00,1177A,117.179,34.2761,徐州市,黄河新村,,48,48,78,12,58,166,105,90,90,10,16,10,9,0.5,0.7
2022-03-31T15:00:00,1178A,117.1918,34.2384,徐州市,淮塔,,38,38,69,19,44,170,100,88,88,17,21,10,10,0.6,0.8
2022-03-31T15:00:00,1180A,117.256,34.2153,徐州市,新城区,,46,46,72,21,42,167,96,86,86,15,19,8,7,0.6,0.7
2022-03-31T15:00:00,1181A,117.244,34.2911,徐州市,桃园路,颗粒物(PM10),51,51,77,22,49,171,100,86,86,12,17,12,11,0.4,0.6
2022-03-31T15:00:00,1182A,117.2933,34.2778,徐州市,农科院,,41,41,60,12,38,158,96,85,85,6,9,12,10,0.6,0.8
2022-03-31T15:00:00,1186A,119.389,32.3761,扬州市,邗江监测站,细颗粒物(PM2.5),55,58,61,39,33,156,74,106,79,17,14,5,8,0.6,0.7
2022-03-31T15:00:00,1188A,120.269,31.4867,无锡市,雪浪,,48,48,71,19,31,155,93,99,89,15,21,6,9,0.5,0.7
2022-03-31T15:00:00,1189A,120.275,31.6219,无锡市,黄巷,,,,71,,32,163,99,106,95,18,21,7,10,0.4,0.7
2022-03-31T15:00:00,1190A,120.294,31.56,无锡市,曹张,,42,42,65,17,32,145,95,95,91,6,15,7,9,0.8,1.1
2022-03-31T15:00:00,1191A,120.242,31.5031,无锡市,漆塘,,40,39,68,28,40,157,97,100,92,14,18,6,9,0.7,1
2022-03-31T15:00:00,1192A,120.3489,31.5863,无锡市,东亭,,46,46,68,12,30,157,91,86,84,11,24,7,8,0.7,0.9
2022-03-31T15:00:00,1193A,120.354,31.5475,无锡市,旺庄,,45,41,65,31,36,153,93,95,90,12,18,8,10,0.8,1
2022-03-31T15:00:00,1194A,120.245,31.5631,无锡市,荣巷,,,39,60,24,33,154,96,105,91,2,17,,11,0.5,0.9
2022-03-31T15:00:00,1195A,120.299,31.6817,无锡市,堰桥,,36,36,60,24,34,159,96,101,96,16,18,6,8,0.7,0.9
2022-03-31T15:00:00,1196A,119.9633,31.762,常州市,市监测站,,44,44,77,22,40,152,85,100,84,19,22,8,8,0.4,0.5
2022-03-31T15:00:00,1200A,119.9468,31.7069,常州市,武进监测站,,43,43,78,27,42,172,91,112,90,14,16,4,6,0.6,0.6
2022-03-31T15:00:00,1201A,119.9255,31.9087,常州市,安家,,,,78,,38,164,90,101,88,10,16,4,7,0.5,0.6
2022-03-31T15:00:00,1203A,119.6707,32.1875,镇江市,新区办事处,细颗粒物(PM2.5),58,55,61,41,40,150,68,95,71,33,29,7,5,0.7,0.7
2022-03-31T15:00:00,1204A,119.4974,32.1968,镇江市,职教中心,,49,36,50,34,50,162,73,95,73,18,18,4,5,0.6,0.6
2022-03-31T15:00:00,1205A,119.4303,32.1328,镇江市,丹徒区监测站,细颗粒物(PM2.5),52,37,53,36,53,173,92,103,85,19,20,1,3,0.4,0.4
2022-03-31T15:00:00,1206A,119.905,32.4878,泰州市,公园路,,49,44,56,34,39,172,80,101,78,12,15,5,7,0.7,0.7
2022-03-31T15:00:00,1207A,119.9189,32.4625,泰州市,莲花,细颗粒物(PM2.5),52,44,54,36,41,165,87,102,86,12,11,5,4,0.7,0.7
2022-03-31T15:00:00,1209A,119.888,32.4639,泰州市,留学生创业园,,44,44,68,28,36,174,92,104,89,12,13,6,7,0.7,0.7
2022-03-31T15:00:00,1210A,119.036,33.5981,淮安市,钵池山,,46,46,66,24,54,122,86,74,74,17,19,12,8,0.6,0.7
2022-03-31T15:00:00,1211A,119.007,33.575,淮安市,北京南路,颗粒物(PM10),51,51,72,24,57,131,90,77,77,20,21,11,8,0.6,0.7
2022-03-31T15:00:00,1212A,118.989,33.6067,淮安市,市监测站,颗粒物(PM10),52,53,74,19,47,142,96,84,84,16,18,10,9,0.6,0.7
2022-03-31T15:00:00,1213A,119.135,33.5039,淮安市,楚州区监测站,,34,34,72,13,53,146,96,83,83,20,22,8,8,0.4,0.6
2022-03-31T15:00:00,1214A,119.0186,33.6297,淮安市,淮阴区监测站,,44,44,65,18,54,128,91,78,78,17,21,10,9,0.6,0.7
2022-03-31T15:00:00,1215A,120.118,33.4022,盐城市,盐城电厂,,40,39,56,28,45,127,102,95,92,12,12,7,8,0.3,0.5
2022-03-31T15:00:00,1216A,120.156,33.3942,盐城市,市监测站,,32,27,40,12,42,128,100,95,91,15,16,4,4,0.4,0.5
2022-03-31T15:00:00,1218A,120.2144,33.38,盐城市,开发区管委会,,33,26,40,12,28,124,103,95,93,10,14,3,4,0.4,0.6
2022-03-31T15:00:00,1220A,118.293,33.9528,宿迁市,宿迁学院,,32,32,59,16,35,166,94,81,81,6,15,3,4,0.2,0.6
2022-03-31T15:00:00,1221A,118.2442,33.9592,宿迁市,宿迁中学,,30,19,63,16,34,164,94,82,82,13,16,4,4,0.3,0.6
2022-03-31T15:00:00,1223A,120.2072,30.2111,杭州市,滨江,,39,39,70,23,38,141,82,110,78,29,29,5,6,0.6,0.7
2022-03-31T15:00:00,1224A,120.0633,30.2747,杭州市,西溪,,31,31,66,20,41,146,79,101,73,32,32,4,4,0.7,0.6
2022-03-31T15:00:00,1226A,120.3461,30.3153,杭州市,下沙,,38,38,75,14,36,155,79,108,76,33,38,6,7,0.5,0.6
2022-03-31T15:00:00,1227A,120.1269,30.2456,杭州市,卧龙桥,,43,38,60,30,46,143,77,97,77,31,26,6,6,0.7,0.7
2022-03-31T15:00:00,1228A,120.1903,30.2692,杭州市,浙江农大,,40,34,62,28,42,150,86,120,84,30,28,4,4,0.6,0.6
2022-03-31T15:00:00,1230A,120.1197,30.3119,杭州市,和睦小学,,45,45,87,22,47,149,78,114,76,33,31,2,3,0.6,0.7
2022-03-31T15:00:00,1231A,120.3019,30.4183,杭州市,临平镇,,40,40,83,23,45,173,88,125,85,24,23,4,4,0.6,0.8
2022-03-31T15:00:00,1232A,120.2697,30.1819,杭州市,城厢镇,,38,38,65,22,40,125,81,112,75,34,35,5,6,0.7,0.8
2022-03-31T15:00:00,1233A,120.0883,30.1808,杭州市,云栖,,,45,64,19,32,127,76,100,76,28,24,6,7,,0.7
2022-03-31T15:00:00,1234A,121.8358,29.911,宁波市,区环保大楼,,27,23,54,12,22,96,86,83,75,24,55,6,7,0.4,0.5
2022-03-31T15:00:00,1235A,121.56,29.82,宁波市,万里学院,,32,23,47,12,29,109,100,103,97,17,34,7,10,0.3,0.4
2022-03-31T15:00:00,1236A,121.713,29.9572,宁波市,龙赛医院,,27,25,44,13,23,101,86,98,89,24,39,4,6,0.4,0.5
2022-03-31T15:00:00,1239A,121.633,29.7733,宁波市,钱湖水厂,,30,16,45,8,28,104,96,94,94,20,35,8,9,0.5,0.5
2022-03-31T15:00:00,1240A,121.5856,29.8635,宁波市,太古小学,,50,24,40,35,41,92,85,87,83,19,39,6,10,0.6,0.6
2022-03-31T15:00:00,1241A,121.524,29.8674,宁波市,市环境监测中心,,30,22,48,8,22,110,95,107,96,20,27,7,9,0.6,0.7
2022-03-31T15:00:00,1242A,120.634,28.0089,温州市,瓯海,,30,19,50,11,30,108,95,70,70,20,46,5,5,0.4,0.6
2022-03-31T15:00:00,1243A,120.6748,27.9939,温州市,南浦,,,32,60,21,36,104,73,72,72,33,44,5,6,,0.7
2022-03-31T15:00:00,1244A,120.76,27.9747,温州市,龙湾,,31,22,67,8,26,104,99,82,82,14,48,4,4,0.4,0.5
2022-03-31T15:00:00,1245A,120.6709,28.0167,温州市,市站,,29,24,62,12,29,95,91,74,74,22,43,4,5,0.4,0.6
2022-03-31T15:00:00,1247A,120.6053,29.9928,绍兴市,城东开发委,,38,30,70,26,46,147,82,129,72,25,27,6,6,0.7,0.8
2022-03-31T15:00:00,1250A,120.0751,30.8669,湖州市,城西水厂,,42,42,51,21,32,168,87,114,93,35,26,5,6,0.8,0.7
2022-03-31T15:00:00,1252A,120.7436,30.778,嘉兴市,清河小学,,29,27,49,18,26,150,90,115,89,21,26,5,6,0.4,0.5
2022-03-31T15:00:00,1253A,120.726,30.7478,嘉兴市,嘉兴学院,,29,29,51,14,27,145,89,116,88,17,21,8,10,0.9,1.1
2022-03-31T15:00:00,1255A,121.273,28.6459,台州市,黄岩环保大楼,,33,33,54,9,24,94,89,89,89,17,23,5,5,0.2,0.3
2022-03-31T15:00:00,1256A,121.419,28.6542,台州市,台州环保大楼,,34,34,46,12,28,115,101,105,102,15,22,4,4,0.4,0.5
2022-03-31T15:00:00,1257A,121.377,28.5773,台州市,路桥田洋王,,,40,44,8,32,106,95,94,93,,21,4,5,,0.3
2022-03-31T15:00:00,1258A,122.122,30.0203,舟山市,定海檀枫,,30,25,25,10,15,96,93,90,90,5,15,1,2,0.3,0.3
2022-03-31T15:00:00,1259A,122.3094,29.9558,舟山市,普陀东港,,32,23,23,10,14,107,102,99,99,10,24,2,4,0.4,0.4
2022-03-31T15:00:00,1260A,122.19,29.9944,舟山市,临城新区,,30,20,23,11,11,100,96,92,92,12,19,2,2,0.4,0.4
2022-03-31T15:00:00,1262A,119.647,29.077,金华市,十五中,,35,29,45,24,34,125,82,100,88,22,25,5,7,0.5,0.6
2022-03-31T15:00:00,1263A,119.686,29.1029,金华市,监测站,,26,23,42,12,26,121,82,98,87,20,24,4,5,0.5,0.6
2022-03-31T15:00:00,1264A,118.8692,28.9398,衢州市,环保大楼,,36,36,40,21,23,106,101,102,102,17,21,4,5,0.6,0.7
2022-03-31T15:00:00,1265A,118.8709,28.9666,衢州市,实验学校,,33,33,34,21,20,112,103,108,107,17,22,2,4,0.6,0.7
2022-03-31T15:00:00,1266A,118.8621,28.9808,衢州市,衢州学院,,38,38,39,24,20,109,97,102,102,16,21,4,5,0.5,0.7
2022-03-31T15:00:00,1267A,119.914,28.4514,丽水市,监测站大楼,,26,11,35,4,21,101,81,78,78,16,20,6,6,0.5,0.7
2022-03-31T15:00:00,1268A,119.93,28.4586,丽水市,莲都小学,,30,6,36,2,19,100,94,88,88,13,18,5,6,0.3,0.4
2022-03-31T15:00:00,1269A,119.879,28.4231,丽水市,余庄前,,27,12,26,6,18,102,86,79,79,17,15,6,6,0.4,0.4
2022-03-31T15:00:00,1270A,117.1959,31.7848,合肥市,明珠广场,颗粒物(PM10),60,70,84,41,47,122,50,98,58,31,24,5,6,0.6,0.7
2022-03-31T15:00:00,1271A,117.3072,31.8764,合肥市,三里街,,,58,85,,49,127,55,101,62,20,18,6,7,,0.6
2022-03-31T15:00:00,1272A,117.2588,31.8707,合肥市,琥珀山庄,颗粒物(PM10),57,63,86,34,48,118,51,96,58,22,19,5,6,0.6,0.6
2022-03-31T15:00:00,1273A,117.1604,31.9052,合肥市,董铺水库(对照点),"颗粒物(PM10),细颗粒物(PM2.5)",52,53,85,36,45,134,60,105,63,19,18,8,9,0.6,0.7
2022-03-31T15:00:00,1274A,117.25,31.8571,合肥市,长江中路,颗粒物(PM10),57,63,88,29,41,136,56,104,67,25,21,6,7,0.4,0.5
2022-03-31T15:00:00,1275A,117.266,31.9436,合肥市,庐阳区,"颗粒物(PM10),细颗粒物(PM2.5)",58,66,94,41,50,113,50,83,56,27,25,6,7,0.6,0.7
2022-03-31T15:00:00,1276A,117.336,31.8586,合肥市,瑶海区,细颗粒物(PM2.5),58,51,83,41,46,126,55,105,66,23,18,6,7,0.5,0.6
2022-03-31T15:00:00,1277A,117.3027,31.7964,合肥市,包河区,细颗粒物(PM2.5),67,68,89,48,57,108,38,71,50,50,48,4,4,0.5,0.6
2022-03-31T15:00:00,1278A,117.2776,31.7385,合肥市,滨湖新区,颗粒物(PM10),59,68,87,41,51,124,57,106,66,29,24,6,7,0.4,0.5
2022-03-31T15:00:00,1279A,117.1318,31.8403,合肥市,高新区,细颗粒物(PM2.5),62,63,87,44,54,132,58,109,59,24,27,6,8,0.4,0.8
2022-03-31T15:00:00,1280A,119.3903,26.0543,福州市,鼓山(对照点),,30,16,18,12,15,100,96,83,83,13,17,3,3,0.4,0.4
2022-03-31T15:00:00,1282A,119.2681,26.0504,福州市,师大,,29,22,33,10,28,102,92,61,61,16,22,2,2,0.4,0.5
2022-03-31T15:00:00,1284A,119.2648,26.0768,福州市,杨桥西路,,26,14,34,18,34,87,78,45,45,16,26,2,3,0.8,0.9
2022-03-31T15:00:00,1285A,119.317,26.0746,福州市,紫阳,,28,17,30,14,29,96,89,52,52,13,27,4,4,0.5,0.6
2022-03-31T15:00:00,1286A,118.1608,24.8169,厦门市,溪东(对照点),,49,36,34,34,30,176,95,77,77,5,4,1,2,0.4,0.4
2022-03-31T15:00:00,1287A,118.1514,24.4767,厦门市,洪文,,35,25,38,16,32,128,111,78,78,17,30,3,5,0.4,0.5
2022-03-31T15:00:00,1288A,118.0661,24.4444,厦门市,鼓浪屿,,41,25,34,10,24,131,131,83,83,6,39,1,6,0.4,0.5
2022-03-31T15:00:00,1290A,115.8931,28.6843,南昌市,省外办,,42,42,36,21,25,110,102,106,102,9,15,2,4,0.9,0.9
2022-03-31T15:00:00,1291A,115.8886,28.7003,南昌市,省林业公司,,38,33,32,26,22,109,99,104,102,6,16,2,4,0.8,0.8
2022-03-31T15:00:00,1292A,115.8126,28.7442,南昌市,林科所,,31,27,21,19,19,116,99,110,105,4,9,3,4,0.6,0.7
2022-03-31T15:00:00,1294A,115.8518,28.687,南昌市,建工学校,,35,32,27,24,26,108,97,104,98,15,19,8,9,0.6,0.7
2022-03-31T15:00:00,1295A,115.8921,28.6424,南昌市,象湖,,35,34,33,24,21,102,94,98,96,12,15,2,2,0.8,0.9
2022-03-31T15:00:00,1296A,115.7423,28.7996,南昌市,武术学校(对照点),,33,25,23,19,13,110,104,105,105,9,9,6,11,0.8,0.8
2022-03-31T15:00:00,1298A,115.9314,28.6842,南昌市,省站,,,34,24,24,20,99,91,96,93,,11,2,3,0.6,0.5
2022-03-31T15:00:00,1299A,116.9862,36.6114,济南市,科干所,,39,39,55,20,35,100,100,88,72,20,30,13,11,0.7,0.9
2022-03-31T15:00:00,1300A,116.9376,36.665,济南市,农科所,,49,49,63,17,34,100,100,75,75,17,31,12,12,0.3,0.4
2022-03-31T15:00:00,1301A,117.1265,36.6734,济南市,开发区,,46,46,56,20,38,96,96,79,79,18,28,13,11,0.4,0.6
2022-03-31T15:00:00,1303A,117.0624,36.6868,济南市,省种子仓库,,48,48,63,24,42,97,97,74,74,19,32,14,13,0.7,0.9
2022-03-31T15:00:00,1304A,116.9489,36.6447,济南市,机床二厂,,44,44,64,22,40,101,101,76,76,15,29,8,8,0.5,0.7
2022-03-31T15:00:00,1305A,117.0495,36.663,济南市,市监测站,颗粒物(PM10),55,59,62,26,39,92,92,78,72,25,31,15,13,0.4,0.6
2022-03-31T15:00:00,1306A,116.7675,36.5484,济南市,长清党校,颗粒物(PM10),56,61,67,29,40,101,101,76,73,20,26,13,9,0.9,0.9
2022-03-31T15:00:00,1307A,120.6659,36.2403,青岛市,仰口(对照点),,31,31,36,19,29,95,95,92,90,13,16,5,4,0.6,0.7
2022-03-31T15:00:00,1310A,120.4134,36.0658,青岛市,市南区东部子站,,31,31,44,7,25,96,95,75,75,18,29,6,6,0.4,0.5
2022-03-31T15:00:00,1311A,120.3664,36.1032,青岛市,四方区子站,,31,31,46,14,30,101,99,78,78,20,28,7,6,0.5,0.6
2022-03-31T15:00:00,1312A,120.2994,36.054,青岛市,市南区西部子站,,29,29,40,15,25,103,92,81,81,24,22,9,6,0.5,0.5
2022-03-31T15:00:00,1313A,120.4581,36.0858,青岛市,崂山区子站,,44,44,50,12,26,100,100,82,82,17,24,9,7,0.4,0.5
2022-03-31T15:00:00,1314A,120.1983,35.9608,青岛市,黄岛区子站,,41,41,50,22,33,97,93,77,77,26,35,7,6,0.7,0.7
2022-03-31T15:00:00,1315A,120.3999,36.3083,青岛市,城阳区子站,,41,41,49,10,25,99,99,78,77,8,23,6,6,0.5,0.6
2022-03-31T15:00:00,1316A,113.69031,34.76122,郑州市,烟厂,,49,42,72,34,50,103,102,90,90,9,14,6,6,0.6,0.6
2022-03-31T15:00:00,1317A,113.65724,34.77134,郑州市,郑纺机,,,,68,,41,102,102,90,90,,14,6,6,,0.9
2022-03-31T15:00:00,1318A,113.67526,34.80246,郑州市,银行学校,,49,49,63,32,48,100,99,88,88,11,13,3,3,0.7,0.8
2022-03-31T15:00:00,1319A,113.56746,34.81334,郑州市,供水公司,,45,38,69,31,49,111,111,100,100,12,15,5,5,0.6,0.6
2022-03-31T15:00:00,1320A,113.7329,34.7178,郑州市,经开区管委,,45,39,64,31,43,109,108,95,95,12,16,6,5,0.6,0.7
2022-03-31T15:00:00,1321A,113.73961,34.77172,郑州市,四十七中,颗粒物(PM10),52,53,70,34,49,111,109,96,96,11,14,5,5,0.7,0.8
2022-03-31T15:00:00,1322A,113.60532,34.74838,郑州市,市监测站,,49,49,74,27,37,108,108,96,96,11,16,6,6,0.8,0.8
2022-03-31T15:00:00,1325A,114.3677,30.5584,武汉市,东湖梨园,,,57,64,,50,83,53,80,54,18,29,7,8,0.8,1.2
2022-03-31T15:00:00,1326A,114.2529,30.558,武汉市,汉阳月湖,颗粒物(PM10),55,60,67,30,35,91,59,74,57,23,28,5,5,0.8,0.8
2022-03-31T15:00:00,1327A,114.282,30.6189,武汉市,汉口花桥,细颗粒物(PM2.5),80,80,73,59,47,74,50,72,45,16,23,7,7,1.0,1
2022-03-31T15:00:00,1328A,114.3025,30.5332,武汉市,武昌紫阳,颗粒物(PM10),58,66,69,38,37,76,51,70,47,13,30,7,8,1.1,1.3
2022-03-31T15:00:00,1329A,114.3646,30.6217,武汉市,青山钢花,细颗粒物(PM2.5),92,76,72,68,50,73,44,57,42,19,32,6,6,1.2,1.2
2022-03-31T15:00:00,1330A,114.1566,30.4825,武汉市,沌口新区,细颗粒物(PM2.5),62,57,69,44,42,73,46,68,50,25,34,6,7,0.8,0.9
2022-03-31T15:00:00,1331A,114.3014,30.5944,武汉市,汉口江滩,颗粒物(PM10),63,75,71,33,43,75,59,54,52,18,36,6,6,0.8,0.8
2022-03-31T15:00:00,1333A,114.135,30.6319,武汉市,吴家山,细颗粒物(PM2.5),83,80,76,61,49,81,57,75,50,15,25,8,9,0.8,0.8
2022-03-31T15:00:00,1334A,113.8454,30.2917,武汉市,沉湖七壕(对照点),,,,63,,30,84,66,76,59,8,19,3,4,0.8,0.8
2022-03-31T15:00:00,1335A,113.0833,28.2325,长沙市,经开区环保局,,30,4,13,12,17,97,95,88,88,15,18,5,5,0.4,0.6
2022-03-31T15:00:00,1336A,112.8872,28.2189,长沙市,高开区环保局,,27,6,9,16,15,98,84,88,88,13,15,5,5,0.4,0.5
2022-03-31T15:00:00,1337A,113.0792,28.2053,长沙市,马坡岭,,31,7,12,8,13,97,97,87,87,9,15,6,6,0.4,0.6
2022-03-31T15:00:00,1338A,112.9394,28.19,长沙市,湖南师范大学,,,,12,7,16,96,85,85,85,,15,6,6,0.5,0.8
2022-03-31T15:00:00,1339A,113.0178,28.1322,长沙市,雨花区环保局,,31,4,8,10,13,100,98,84,84,11,19,4,4,0.3,0.5
2022-03-31T15:00:00,1340A,112.9792,28.2597,长沙市,伍家岭,,25,13,14,6,16,85,77,77,77,17,25,5,5,0.6,0.7
2022-03-31T15:00:00,1341A,113.0014,28.1944,长沙市,火车新站,,25,4,10,17,19,94,80,78,78,16,18,6,5,0.3,0.3
2022-03-31T15:00:00,1342A,112.9844,28.1178,长沙市,天心区环保局,,28,8,5,7,10,94,89,78,78,9,14,4,4,0.5,0.7
2022-03-31T15:00:00,1343A,112.8908,28.1308,长沙市,湖南中医药大学,,27,7,10,13,13,96,86,87,87,9,13,2,2,0.5,0.6
2022-03-31T15:00:00,1344A,112.9581,28.3611,长沙市,沙坪(对照点),,,8,8,13,14,93,,87,87,8,7,5,6,0.7,0.9
2022-03-31T15:00:00,1345A,113.2347,23.1423,广州市,广雅中学,"颗粒物(PM10),臭氧1小时",64,78,94,31,42,185,171,72,72,34,70,6,7,1.0,1.5
2022-03-31T15:00:00,1346A,113.2612,23.105,广州市,市五中,臭氧1小时,89,57,80,33,41,198,191,80,80,28,70,4,5,0.8,1.4
2022-03-31T15:00:00,1348A,113.3478,23.0916,广州市,广东商学院,臭氧1小时,55,29,73,13,33,221,164,73,73,16,77,6,5,0.6,1.2
2022-03-31T15:00:00,1349A,113.4332,23.1047,广州市,市八十六中,臭氧1小时,108,50,89,24,38,252,216,77,77,27,80,15,10,0.8,1.4
2022-03-31T15:00:00,1350A,113.3505,22.9483,广州市,番禺中学,臭氧1小时,104,49,66,22,31,208,208,73,73,18,53,10,8,0.9,1.1
2022-03-31T15:00:00,1351A,113.2146,23.3916,广州市,花都师范,臭氧1小时,98,53,57,31,31,198,198,96,96,24,46,4,4,0.8,1
2022-03-31T15:00:00,1352A,113.2597,23.1331,广州市,市监测站,臭氧1小时,70,52,96,24,39,222,176,75,75,26,72,7,7,0.8,1.3
2022-03-31T15:00:00,1353A,113.5618,23.312,广州市,九龙镇镇龙,,28,28,67,12,31,150,72,36,36,24,57,5,6,0.6,0.9
2022-03-31T15:00:00,1354A,113.2765,23.1544,广州市,麓湖,,49,48,78,18,32,206,154,66,66,28,58,7,7,0.8,1.2
2022-03-31T15:00:00,1355A,113.443,23.3035,广州市,帽峰山森林公园(对照点),,34,25,43,13,24,195,108,62,62,11,20,6,7,0.8,1
2022-03-31T15:00:00,1356A,114.1063,22.5545,深圳市,通心岭子站,,22,13,19,6,10,112,69,69,69,1,14,2,2,0.4,0.6
2022-03-31T15:00:00,1357A,114.117,22.5625,深圳市,洪湖,,27,24,34,7,15,117,86,67,67,7,38,5,5,0.5,0.7
2022-03-31T15:00:00,1358A,113.987,22.5417,深圳市,华侨城,,24,15,19,10,11,98,75,76,76,2,16,4,4,0.7,0.7
2022-03-31T15:00:00,1359A,113.9181,22.5171,深圳市,南海子站,,23,14,20,4,9,106,73,78,78,2,13,2,2,0.4,0.5
2022-03-31T15:00:00,1360A,114.2458,22.5689,深圳市,盐田,,38,20,20,10,11,120,120,76,67,9,30,2,4,0.7,0.7
2022-03-31T15:00:00,1361A,114.2283,22.7244,深圳市,龙岗,,24,16,38,6,19,100,75,75,75,11,48,2,3,0.3,0.5
2022-03-31T15:00:00,1363A,114.494,22.5422,深圳市,南澳,,33,16,19,8,10,118,103,80,80,38,16,5,6,0.5,0.5
2022-03-31T15:00:00,1364A,114.41,22.6342,深圳市,葵涌,,25,18,18,8,9,116,77,89,71,6,11,4,4,0.3,0.3
2022-03-31T15:00:00,1365A,114.297,22.5978,深圳市,梅沙,,43,23,23,11,12,137,137,96,96,6,11,4,4,0.7,0.7
2022-03-31T15:00:00,1366A,114.0678,22.738,深圳市,观澜,,32,32,54,11,24,111,54,73,73,18,48,5,6,0.4,0.8
2022-03-31T15:00:00,1367A,113.5814,22.2618,珠海市,吉大,,,33,30,20,13,113,111,66,66,22,32,11,10,,0.6
2022-03-31T15:00:00,1368A,113.4881,22.2335,珠海市,前山,,40,40,44,14,19,102,100,45,45,21,58,10,10,0.5,0.7
2022-03-31T15:00:00,1369A,113.628,22.4251,珠海市,唐家,,40,28,30,14,17,180,126,70,70,18,35,9,9,0.5,0.5
2022-03-31T15:00:00,1370A,113.299,22.2281,珠海市,斗门,,35,14,39,9,26,138,111,78,78,13,40,6,9,0.3,0.5
2022-03-31T15:00:00,1371A,113.1294,23.0067,佛山市,湾梁,"颗粒物(PM10),臭氧1小时",62,73,99,26,42,169,169,66,66,43,72,10,12,0.7,1.1
2022-03-31T15:00:00,1372A,113.1083,23.0478,佛山市,华材职中,臭氧1小时,103,70,100,25,48,206,206,80,80,32,76,7,8,0.6,1
2022-03-31T15:00:00,1373A,113.144,23.0453,佛山市,南海气象局,臭氧1小时,78,64,80,28,45,182,182,68,68,30,71,6,7,0.5,0.9
2022-03-31T15:00:00,1374A,113.2881,22.8094,佛山市,顺德苏岗,,,37,52,22,31,165,165,76,76,18,57,3,3,,1.1
2022-03-31T15:00:00,1376A,112.8383,22.8678,佛山市,高明孔堂,臭氧1小时,85,72,78,31,44,228,188,81,81,30,40,15,12,0.8,1
2022-03-31T15:00:00,1377A,112.8836,23.1588,佛山市,三水监测站,臭氧1小时,95,78,92,36,46,196,196,81,81,23,78,5,8,0.7,0.9
2022-03-31T15:00:00,1378A,112.867,23.185,佛山市,三水云东海,,,,68,,36,201,201,85,85,,40,,8,0.7,0.8
2022-03-31T15:00:00,1379A,113.3769,22.5211,中山市,华柏园,,32,22,44,22,33,99,99,53,53,12,47,4,5,0.6,0.9
2022-03-31T15:00:00,1380A,113.3881,22.5497,中山市,张溪,,37,35,57,20,33,118,118,64,64,10,49,2,3,0.4,0.8
2022-03-31T15:00:00,1381A,113.4075,22.5111,中山市,紫马岭,,38,38,42,18,18,117,117,57,57,9,37,4,4,0.2,0.5
2022-03-31T15:00:00,1382A,113.4411,22.4853,中山市,长江旅游区(对照点),,37,37,24,16,14,118,103,58,58,13,24,3,2,0.4,0.5
2022-03-31T15:00:00,1383A,113.1064,22.6058,江门市,北街,臭氧1小时,126,70,62,30,34,277,252,127,127,37,51,9,9,0.6,0.9
2022-03-31T15:00:00,1384A,113.0731,22.5835,江门市,西区,臭氧1小时,105,73,60,24,36,289,209,128,128,30,53,8,9,0.6,0.9
2022-03-31T15:00:00,1385A,113.0219,22.5311,江门市,圭峰西,臭氧1小时,115,82,54,36,36,294,230,121,121,30,37,7,6,0.4,0.6
2022-03-31T15:00:00,1386A,113.0828,22.5947,江门市,东湖,臭氧1小时,116,49,73,31,35,292,232,132,132,30,43,8,8,0.5,0.8
2022-03-31T15:00:00,1389A,113.7547,23.0494,东莞市,莞城梨川,臭氧1小时,118,41,64,22,36,270,236,129,129,24,43,9,10,1.4,1.4
2022-03-31T15:00:00,1390A,113.7944,23.0128,东莞市,东城石井,臭氧1小时,129,46,34,23,17,267,257,144,144,25,31,6,7,0.6,0.6
2022-03-31T15:00:00,1391A,113.7383,22.9658,东莞市,南城西平,臭氧1小时,98,36,53,23,31,325,198,122,122,20,49,5,6,0.6,0.7
2022-03-31T15:00:00,1392A,114.4183,23.0528,惠州市,河南岸金山湖子站,,31,30,51,10,22,106,98,80,80,6,28,4,4,0.5,0.7
2022-03-31T15:00:00,1393A,114.4053,23.0822,惠州市,下埔横江三路子站,,32,28,48,8,19,121,101,86,86,10,36,5,4,0.5,0.7
2022-03-31T15:00:00,1394A,114.4103,23.1142,惠州市,江北云山西路子站,,50,50,53,15,22,150,109,102,102,4,24,6,7,0.2,0.5
2022-03-31T15:00:00,1395A,114.4645,22.7833,惠州市,惠阳区承修路船湖子站,,30,27,58,11,22,117,94,78,78,6,29,3,5,0.5,0.7
2022-03-31T15:00:00,1396A,114.5317,22.7422,惠州市,大亚湾管委会子站,,39,35,44,16,19,123,123,91,91,12,36,5,5,0.7,0.8
2022-03-31T15:00:00,1397A,112.4267,23.0706,肇庆市,睦岗子站,,48,28,73,16,43,169,153,85,85,16,55,8,12,0.7,1.1
2022-03-31T15:00:00,1398A,112.4645,23.0475,肇庆市,城中子站,臭氧1小时,67,33,73,18,45,179,173,89,89,20,57,9,12,0.6,1
2022-03-31T15:00:00,1399A,112.5544,23.1522,肇庆市,坑口子站,臭氧1小时,68,43,54,23,34,174,174,89,89,12,26,7,5,0.5,0.7
2022-03-31T15:00:00,1400A,112.4753,23.1,肇庆市,七星岩子站(对照点),,49,29,62,25,44,161,155,91,91,15,33,10,13,0.6,0.8
2022-03-31T15:00:00,1401A,108.3103,22.7881,南宁市,二十一中,颗粒物(PM10),59,67,50,38,35,59,55,27,27,22,25,4,4,0.8,1.1
2022-03-31T15:00:00,1402A,108.3141,22.8528,南宁市,北湖,颗粒物(PM10),64,77,59,40,37,55,37,27,27,20,24,10,8,1.0,1.1
2022-03-31T15:00:00,1403A,108.3206,22.8225,南宁市,市监测站,细颗粒物(PM2.5),59,59,47,42,37,50,41,25,25,32,34,9,7,0.9,1.1
2022-03-31T15:00:00,1404A,108.3829,22.8037,南宁市,大自然花园,,46,46,45,32,34,53,50,28,28,18,29,6,6,0.7,0.9
2022-03-31T15:00:00,1405A,108.4394,22.7904,南宁市,仙葫(对照点),,48,48,50,32,34,55,55,25,25,14,30,6,5,0.8,1
2022-03-31T15:00:00,1406A,108.2397,22.8467,南宁市,区农职院,细颗粒物(PM2.5),60,63,55,43,40,44,44,22,22,20,35,8,7,0.9,1
2022-03-31T15:00:00,1407A,108.3275,22.735,南宁市,英华嘉园,,43,35,51,30,37,59,59,32,32,14,22,6,6,0.7,1.1
2022-03-31T15:00:00,1408A,108.2257,22.7757,南宁市,沙井镇街道办,细颗粒物(PM2.5),62,68,54,44,35,57,51,24,24,33,35,4,4,0.8,1
2022-03-31T15:00:00,1409A,110.576,19.9507,海口市,东寨港(对照点),,26,26,25,13,10,100,58,94,68,2,3,4,3,0.3,0.4
2022-03-31T15:00:00,1410A,110.3232,20.0574,海口市,海南大学,,26,20,25,14,12,124,82,113,88,4,6,3,4,0.5,0.5
2022-03-31T15:00:00,1411A,110.283,20.0053,海口市,秀英海南医院,,22,18,21,11,12,91,70,82,72,2,3,3,3,0.4,0.4
2022-03-31T15:00:00,1412A,110.338,19.9969,海口市,海南师范大学,,21,20,22,14,11,100,66,98,66,3,6,2,2,0.4,0.4
2022-03-31T15:00:00,1413A,110.33,20.0356,海口市,龙华路环保局宿舍,,24,22,24,16,14,117,75,112,80,4,5,4,4,0.5,0.5
2022-03-31T15:00:00,1414A,106.3787,29.8279,重庆市,缙云山(对照点),,25,5,12,4,7,83,80,80,80,11,13,5,5,0.7,0.7
2022-03-31T15:00:00,1416A,106.4213,29.8253,重庆市,天生,,20,9,31,6,22,66,62,64,64,15,23,4,5,0.6,0.7
2022-03-31T15:00:00,1417A,106.6263,29.7228,重庆市,两路,,22,12,30,8,22,71,68,57,57,34,34,8,8,0.6,0.7
2022-03-31T15:00:00,1418A,106.2953,29.5983,重庆市,虎溪,,19,6,28,13,24,64,59,59,59,17,26,4,3,0.6,0.7
2022-03-31T15:00:00,1419A,106.5777,29.5102,重庆市,南坪,,21,11,39,14,32,65,65,43,43,26,38,4,4,0.5,0.7
2022-03-31T15:00:00,1420A,106.6556,29.6277,重庆市,唐家沱,,25,8,36,6,18,79,79,58,58,23,29,3,3,0.5,0.5
2022-03-31T15:00:00,1421A,106.6349,29.4906,重庆市,茶园,,21,5,33,6,24,65,65,48,48,24,31,5,5,0.7,0.8
2022-03-31T15:00:00,1422A,106.3754,29.4572,重庆市,白市驿,,20,2,20,10,26,62,61,52,52,16,27,7,6,0.6,0.7
2022-03-31T15:00:00,1425A,106.6205,29.7166,重庆市,空港,,23,18,32,14,23,71,71,57,57,18,23,9,9,0.5,0.6
2022-03-31T15:00:00,1426A,106.4782,29.4875,重庆市,新山村,,19,16,38,8,27,58,58,44,44,38,46,6,6,0.7,0.7
2022-03-31T15:00:00,1427A,106.5616,29.6453,重庆市,礼嘉,,22,8,25,5,18,69,69,54,54,22,32,7,8,0.4,0.4
2022-03-31T15:00:00,1428A,106.4522,29.7091,重庆市,蔡家,,22,6,25,13,24,70,70,48,48,23,30,3,3,0.5,0.6
2022-03-31T15:00:00,1429A,106.5093,29.3917,重庆市,鱼新街,,16,8,39,5,21,46,46,29,29,32,38,5,7,1.0,1.1
2022-03-31T15:00:00,1431A,103.9728,30.7236,成都市,金泉两河,,,42,44,20,22,83,83,62,62,16,22,,5,,0.4
2022-03-31T15:00:00,1432A,104.1419,30.6764,成都市,十里店,,41,41,43,18,18,87,87,71,71,13,22,3,3,0.3,0.4
2022-03-31T15:00:00,1433A,104.0594,30.5767,成都市,三瓦窑,,42,42,41,14,18,86,86,75,75,13,18,1,1,0.2,0.3
2022-03-31T15:00:00,1434A,104.1122,30.6306,成都市,沙河铺,,38,38,40,26,23,87,87,73,73,17,22,4,5,0.4,0.5
2022-03-31T15:00:00,1437A,104.0431,30.6556,成都市,君平街,,41,41,45,19,24,73,73,58,58,28,30,4,4,0.3,0.3
2022-03-31T15:00:00,1438A,103.6202,31.0201,成都市,灵岩寺(对照点),,24,24,20,16,15,74,74,61,61,3,9,3,4,0.3,0.6
2022-03-31T15:00:00,1439A,106.6899,26.5998,贵阳市,马鞍山,,13,5,14,9,12,40,38,37,37,15,15,4,4,0.6,0.6
2022-03-31T15:00:00,1440A,106.6971,26.5694,贵阳市,市环保站,,13,7,10,6,9,45,41,39,39,16,19,6,11,0.3,0.4
2022-03-31T15:00:00,1441A,106.6243,26.6266,贵阳市,鉴湖路,,,9,13,,4,54,41,45,42,11,10,3,3,0.3,0.5
2022-03-31T15:00:00,1442A,106.7487,26.6343,贵阳市,燕子冲,,34,34,18,14,16,52,39,43,43,11,10,9,7,0.4,0.6
2022-03-31T15:00:00,1443A,106.6555,26.4365,贵阳市,碧云窝,,17,17,23,5,11,47,47,43,43,14,16,7,7,0.4,0.5
2022-03-31T15:00:00,1444A,106.694,26.5161,贵阳市,中院村,,,,21,,9,49,,48,48,,18,,7,,0.6
2022-03-31T15:00:00,1445A,106.7109,26.6027,贵阳市,红边门,,15,12,14,5,9,54,46,50,48,13,17,6,6,0.3,0.4
2022-03-31T15:00:00,1446A,106.7164,26.5699,贵阳市,新华路,,12,12,12,7,9,40,37,37,37,14,13,5,4,0.3,0.4
2022-03-31T15:00:00,1447A,106.674,26.5424,贵阳市,太慈桥,,13,12,20,2,6,40,39,36,36,15,17,1,2,0.3,0.4
2022-03-31T15:00:00,1450A,102.8204,24.8886,昆明市,呈贡新区,,34,34,61,16,38,140,54,82,52,16,28,16,9,0.6,0.4
2022-03-31T15:00:00,1451A,102.6251,24.9608,昆明市,西山森林公园(对照点),,33,31,48,23,40,136,72,106,80,15,11,7,13,0.5,0.7
2022-03-31T15:00:00,1452A,102.7252,25.0902,昆明市,龙泉镇,,33,24,72,23,46,137,69,63,50,19,33,10,10,0.5,0.7
2022-03-31T15:00:00,1453A,102.7266,25.0375,昆明市,东风东路,,30,30,58,21,40,136,77,88,58,10,19,5,6,0.5,0.7
2022-03-31T15:00:00,1454A,102.6742,25.0669,昆明市,金鼎山,,35,28,61,24,42,131,72,91,62,14,22,5,7,0.5,0.6
2022-03-31T15:00:00,1455A,102.6644,25.0401,昆明市,碧鸡广场,,30,30,65,18,44,131,77,86,69,15,26,9,11,0.5,0.6
2022-03-31T15:00:00,1456A,91.1319,29.6514,拉萨市,八廓街,,33,16,42,6,12,104,104,79,79,9,14,6,5,0.1,0.2
2022-03-31T15:00:00,1457A,91.1221,29.6747,拉萨市,市环保局,,41,23,34,25,18,130,130,102,102,4,7,5,5,0.3,0.3
2022-03-31T15:00:00,1458A,91.0874,29.6475,拉萨市,区监测站,,34,26,45,10,20,108,108,86,86,3,7,6,6,0.3,0.3
2022-03-31T15:00:00,1459A,91.1774,29.6541,拉萨市,西藏大学,,33,26,40,5,11,103,103,76,76,5,9,5,5,0.3,0.4
2022-03-31T15:00:00,1460A,90.9798,29.6588,拉萨市,区辐射站,,34,24,43,13,20,108,108,78,78,8,14,6,6,0.5,0.5
2022-03-31T15:00:00,1461A,91.0834,29.6292,拉萨市,拉萨火车站,,35,26,47,10,9,111,111,88,88,4,5,5,5,0.4,0.5
2022-03-31T15:00:00,1462A,108.882,34.2749,西安市,高压开关厂,颗粒物(PM10),63,75,196,16,65,66,66,28,28,20,65,13,14,0.4,0.9
2022-03-31T15:00:00,1463A,108.993,34.2629,西安市,兴庆小区,颗粒物(PM10),64,77,170,19,63,87,87,38,38,19,69,14,13,0.7,1.5
2022-03-31T15:00:00,1464A,109.06,34.2572,西安市,纺织城,颗粒物(PM10),70,90,191,23,75,81,79,36,36,27,60,14,11,0.6,1
2022-03-31T15:00:00,1465A,108.9356,34.2173,西安市,小寨,颗粒物(PM10),60,69,168,24,62,84,84,31,31,22,65,11,8,0.8,1.1
2022-03-31T15:00:00,1466A,108.954,34.2713,西安市,市人民体育场,颗粒物(PM10),64,77,186,18,71,87,87,37,37,17,66,12,10,0.5,0.9
2022-03-31T15:00:00,1467A,108.8922,34.2322,西安市,高新西区,颗粒物(PM10),58,66,182,18,60,83,83,30,30,18,65,15,13,0.4,0.9
2022-03-31T15:00:00,1468A,108.935,34.3474,西安市,经开区,颗粒物(PM10),58,65,177,14,61,85,85,40,40,12,58,8,8,0.4,0.8
2022-03-31T15:00:00,1469A,108.906,34.1546,西安市,长安区,颗粒物(PM10),108,166,198,32,60,81,81,24,24,24,56,16,11,0.6,1
2022-03-31T15:00:00,1471A,109.2186,34.3731,西安市,临潼区,颗粒物(PM10),57,63,160,29,55,83,83,55,52,20,50,10,12,0.5,1
2022-03-31T15:00:00,1472A,108.869,34.378,西安市,草滩(对照点),颗粒物(PM10),57,64,194,6,76,83,83,37,37,17,58,11,11,0.4,0.9
2022-03-31T15:00:00,1473A,108.985,34.1978,西安市,曲江文化产业集团,颗粒物(PM10),71,91,176,30,70,79,79,27,27,28,66,12,7,1.0,1.1
2022-03-31T15:00:00,1474A,109.051,34.3213,西安市,广运潭,颗粒物(PM10),60,70,175,13,59,91,91,44,44,13,57,7,9,0.5,0.8
2022-03-31T15:00:00,1476A,103.631,36.1031,兰州市,兰炼宾馆,颗粒物(PM10),59,68,65,19,24,115,115,88,88,10,19,6,9,0.3,0.4
2022-03-31T15:00:00,1477A,104.1373,35.9454,兰州市,榆中兰大校区(对照点),,43,43,66,7,20,126,126,115,111,7,11,3,4,0.4,0.5
2022-03-31T15:00:00,1478A,103.8412,36.0726,兰州市,生物制品所,颗粒物(PM10),53,55,76,18,22,107,107,71,71,16,44,6,10,0.3,0.4
2022-03-31T15:00:00,1479A,103.831,36.0464,兰州市,铁路设计院,,50,50,66,25,27,111,111,78,74,17,32,6,11,0.4,0.7
2022-03-31T15:00:00,1483A,101.524,36.6867,西宁市,第五水厂(对照点),颗粒物(PM10),52,54,56,24,17,110,110,100,100,17,14,12,12,0.9,0.7
2022-03-31T15:00:00,1484A,105.9512,38.6016,银川市,贺兰山马莲口(对照点),,30,25,29,7,9,112,93,77,74,8,8,10,12,0.4,0.5
2022-03-31T15:00:00,1488A,106.2328,38.4975,银川市,贺兰山东路,,32,14,34,8,17,112,101,66,66,12,22,5,10,0.4,0.6
2022-03-31T15:00:00,1489A,106.1358,38.5036,银川市,学院路,,34,33,48,13,17,120,107,69,69,10,23,8,12,0.4,0.6
2022-03-31T15:00:00,1490A,87.5801,43.8303,乌鲁木齐市,监测站,颗粒物(PM10),70,90,50,20,10,82,80,43,43,33,40,10,5,0.7,0.6
2022-03-31T15:00:00,1491A,87.6046,43.768,乌鲁木齐市,收费所,,38,38,30,17,14,69,66,38,38,36,39,5,5,0.5,0.4
2022-03-31T15:00:00,1492A,87.4754,43.9469,乌鲁木齐市,新疆农科院农场(对照点),,45,45,55,26,16,87,87,38,38,19,36,12,10,0.4,0.4
2022-03-31T15:00:00,1493A,87.5525,43.8711,乌鲁木齐市,铁路局,颗粒物(PM10),62,74,30,43,14,86,78,36,36,35,41,13,6,0.7,0.8
2022-03-31T15:00:00,1494A,87.6432,43.831,乌鲁木齐市,三十一中学,,49,49,28,19,8,78,63,42,42,31,33,9,5,0.5,0.4
2022-03-31T15:00:00,1496A,87.7216,44.1747,乌鲁木齐市,米东区环保局,,29,17,32,10,18,92,92,52,47,3,15,7,7,0.2,0.4
2022-03-31T15:00:00,1508A,112.9433,27.8614,湘潭市,板塘,,30,10,17,6,11,94,94,77,77,8,19,7,7,0.4,0.6
2022-03-31T15:00:00,1511A,112.9118,27.8403,湘潭市,市监测站,,,,9,16,17,75,72,64,64,14,15,6,6,0.6,0.8
2022-03-31T15:00:00,1512A,112.8937,27.8728,湘潭市,江麓,,25,17,21,17,14,76,70,66,66,16,20,10,11,0.4,0.5
2022-03-31T15:00:00,1513A,112.9227,27.8159,湘潭市,岳塘,,27,11,16,10,14,86,86,75,75,19,24,6,8,0.4,0.6
2022-03-31T15:00:00,1514A,112.9074,27.9119,湘潭市,科大,,,,12,11,15,88,83,77,77,17,22,4,4,0.6,0.7
2022-03-31T15:00:00,1515A,113.135,27.8244,株洲市,天台山庄,,27,4,12,4,10,84,84,70,70,12,19,6,5,0.1,0.2
2022-03-31T15:00:00,1518A,113.095,27.8867,株洲市,株冶医院,,34,0,2,7,9,108,108,93,93,10,15,5,4,0.3,0.4
2022-03-31T15:00:00,1519A,113.167,27.8667,株洲市,市四中,,,8,14,5,11,78,77,69,69,,19,4,4,0.3,0.6
2022-03-31T15:00:00,1520A,113.143,27.8381,株洲市,火车站,,30,9,10,2,12,93,93,76,76,16,22,5,5,0.2,0.4
2022-03-31T15:00:00,1524A,113.13,27.8528,株洲市,市监测站,,27,7,10,5,10,85,85,71,71,17,22,1,6,0.5,0.6
2022-03-31T15:00:00,1552A,106.805,26.3003,贵阳市,桐木岭(对照点),,19,17,18,9,10,64,58,59,59,6,7,1,5,0.4,0.5
2022-03-31T15:00:00,1559A,113.251,27.8336,株洲市,大京风景区(对照点),,,,5,5,8,95,95,81,81,5,7,4,4,0.3,0.4
2022-03-31T15:00:00,1562A,113.0048,27.9153,湘潭市,昭山,,26,0,5,9,14,81,81,64,64,12,25,5,5,0.4,0.5
2022-03-31T15:00:00,1564A,112.4876,27.9164,湘潭市,韶山(对照点),,,,14,16,11,99,86,86,86,5,7,3,4,0.5,0.6
2022-03-31T15:00:00,1585A,109.8756,40.6532,包头市,市环境监测站,,31,12,44,9,28,99,99,73,73,13,18,14,8,1.0,0.6
2022-03-31T15:00:00,1587A,109.9991,40.5842,包头市,包头八中,,31,14,32,4,10,97,97,80,80,14,24,17,13,1.1,0.7
2022-03-31T15:00:00,1588A,109.8538,40.6821,包头市,青山宾馆,,31,10,60,15,47,98,98,72,72,12,22,15,11,0.8,0.6
2022-03-31T15:00:00,1589A,109.8642,40.6288,包头市,惠龙物流,,31,19,35,14,19,97,97,74,74,15,19,15,10,1.0,0.6
2022-03-31T15:00:00,1590A,110.0377,40.5546,包头市,东河鸿龙湾,,30,16,46,2,10,96,96,68,68,12,29,20,14,0.9,0.6
2022-03-31T15:00:00,1591A,110.0023,39.8129,鄂尔多斯市,综合楼,,31,17,39,14,19,100,97,82,82,9,25,6,7,0.4,0.5
2022-03-31T15:00:00,1592A,109.9486,39.8261,鄂尔多斯市,巴音孟克林场办事处,,32,14,30,5,9,103,100,82,82,5,22,7,9,0.4,0.5
2022-03-31T15:00:00,1593A,109.7736,39.5986,鄂尔多斯市,康泽苑,,,12,26,0,4,105,105,81,81,2,10,4,4,,0.5
2022-03-31T15:00:00,1594A,109.8119,39.5989,鄂尔多斯市,华泰汽车城,,34,9,30,5,11,107,107,76,76,4,21,5,7,0.4,0.5
2022-03-31T15:00:00,1595A,109.9734,39.7884,鄂尔多斯市,奥林花园,,32,24,44,7,7,102,101,76,76,6,29,9,11,0.6,0.7
2022-03-31T15:00:00,1597A,122.2703,40.7094,营口市,大庆路,,36,13,23,9,17,116,115,103,103,7,11,7,7,0.4,0.9
2022-03-31T15:00:00,1598A,122.215,40.6511,营口市,镜湖西路,,34,20,21,10,11,111,108,88,88,7,11,5,6,0.1,0.5
2022-03-31T15:00:00,1599A,122.167,40.6655,营口市,西炮台,,34,20,18,13,12,108,106,90,90,11,14,9,6,0.4,0.4
2022-03-31T15:00:00,1600A,124.3303,40.0625,丹东市,江湾东路,,31,10,15,8,12,99,99,92,92,6,11,8,10,0.3,0.4
2022-03-31T15:00:00,1601A,124.4256,40.1503,丹东市,临江后街,,30,8,13,4,9,101,93,93,93,11,10,7,7,0.4,0.5
2022-03-31T15:00:00,1602A,124.3933,40.1461,丹东市,元宝山,,30,8,14,3,12,95,94,88,88,4,8,8,9,0.2,0.3
2022-03-31T15:00:00,1603A,124.3633,40.1092,丹东市,民主桥,,30,9,15,5,8,94,93,87,87,5,10,9,9,0.3,0.4
2022-03-31T15:00:00,1604A,122.0303,41.1489,盘锦市,开发区,,36,36,19,14,12,102,102,91,91,12,13,10,6,0.6,0.6
2022-03-31T15:00:00,1605A,122.0485,41.0883,盘锦市,兴隆台,,43,43,21,15,11,97,97,86,86,16,18,12,8,0.6,0.6
2022-03-31T15:00:00,1606A,121.8297,41.1028,盘锦市,新生街道,,30,28,16,19,12,101,93,86,86,15,28,10,9,0.6,0.6
2022-03-31T15:00:00,1607A,120.9092,40.7136,葫芦岛市,龙港区,,29,29,48,11,23,98,89,88,88,12,27,12,56,0.3,0.9
2022-03-31T15:00:00,1608A,120.8392,40.7514,葫芦岛市,化工街,,35,35,45,23,25,102,94,89,89,5,31,5,17,0.3,0.4
2022-03-31T15:00:00,1609A,120.8341,40.7073,葫芦岛市,新区,,30,26,49,7,33,108,96,97,97,13,24,10,15,0.2,0.5
2022-03-31T15:00:00,1610A,120.8695,40.7677,葫芦岛市,东城区,,29,22,39,6,22,102,90,81,81,8,30,6,24,0.4,0.7
2022-03-31T15:00:00,1611A,118.5819,24.9117,泉州市,涂山街,,43,23,25,23,22,137,137,89,89,10,15,7,8,0.6,0.7
2022-03-31T15:00:00,1612A,118.5972,24.8978,泉州市,津头埔,,43,24,25,22,22,136,136,88,88,11,18,9,9,0.5,0.6
2022-03-31T15:00:00,1613A,118.6663,24.9424,泉州市,万安,,42,26,25,26,22,134,134,91,91,6,14,9,9,0.7,0.8
2022-03-31T15:00:00,1614A,118.6117,24.9604,泉州市,清源山(对照点),,41,22,21,19,22,136,131,104,91,11,11,8,8,0.6,0.6
2022-03-31T15:00:00,1616A,117.6795,36.229,济南市,技术学院,,35,31,52,18,38,109,109,96,96,13,24,11,10,0.3,0.5
2022-03-31T15:00:00,1618A,118.3429,35.0532,临沂市,沂河小区,,,,48,28,34,108,108,95,95,13,15,10,8,0.3,0.4
2022-03-31T15:00:00,1619A,118.295,35.0583,临沂市,鲁南制药厂,,36,36,38,24,32,115,108,93,93,14,19,8,6,0.5,0.7
2022-03-31T15:00:00,1620A,118.2794,34.9976,临沂市,新光毛纺厂,,44,44,42,18,26,113,100,86,86,12,20,4,3,0.4,0.6
2022-03-31T15:00:00,1621A,118.3956,35.0888,临沂市,河东保险公司,,41,41,41,20,28,104,104,87,87,13,19,6,4,0.6,0.7
2022-03-31T15:00:00,1622A,116.3032,37.4674,德州市,儿童乐园,,36,35,37,24,23,113,113,93,93,12,23,7,8,0.3,0.3
2022-03-31T15:00:00,1624A,116.2991,37.4451,德州市,监理站,,34,33,34,23,26,107,107,89,89,7,18,7,10,0.6,0.5
2022-03-31T15:00:00,1625A,115.9848,36.4372,聊城市,区政府,,34,33,43,16,25,106,106,86,86,12,17,8,6,0.4,0.5
2022-03-31T15:00:00,1628A,118.0062,37.3803,滨州市,市环保局,,45,44,29,31,23,133,133,110,110,10,16,13,12,1.9,1.8
2022-03-31T15:00:00,1629A,118.0018,37.3617,滨州市,第二水厂,,39,39,36,27,21,113,113,96,96,8,13,13,12,0.5,0.5
2022-03-31T15:00:00,1630A,117.9776,37.393,滨州市,北中新校,,38,38,34,24,20,116,116,96,96,11,22,8,7,0.4,0.3
2022-03-31T15:00:00,1631A,118.0414,36.8103,淄博市,人民公园,,35,34,40,20,27,110,110,91,91,11,21,6,8,0.2,0.3
2022-03-31T15:00:00,1633A,117.8525,36.4847,淄博市,双山,细颗粒物(PM2.5),70,59,64,51,59,107,106,85,85,21,30,10,8,0.5,0.6
2022-03-31T15:00:00,1634A,117.9592,36.6331,淄博市,气象站,颗粒物(PM10),56,62,61,27,40,111,98,84,84,26,28,38,16,0.9,0.9
2022-03-31T15:00:00,1635A,118.3092,36.8194,淄博市,莆田园,,36,34,33,22,26,115,115,97,95,14,18,8,10,0.3,0.4
2022-03-31T15:00:00,1637A,117.558,34.8438,枣庄市,市中区政府,,48,48,60,24,30,153,114,98,98,11,14,21,6,0.7,0.7
2022-03-31T15:00:00,1638A,117.2852,34.7837,枣庄市,薛城环保局,颗粒物(PM10),63,76,76,34,44,144,114,90,90,12,18,15,11,0.3,0.3
2022-03-31T15:00:00,1639A,117.5852,34.7745,枣庄市,峄城区政府,,48,48,63,22,28,146,112,99,99,22,25,19,12,0.4,0.4
2022-03-31T15:00:00,1640A,117.7276,34.5578,枣庄市,台儿庄区环保局,,41,41,53,19,29,141,103,86,86,19,25,9,9,0.6,0.7
2022-03-31T15:00:00,1641A,117.4518,35.0992,枣庄市,山亭区环保局,,36,34,63,17,38,150,113,99,99,16,22,12,13,0.6,0.8
2022-03-31T15:00:00,1642A,121.2514,37.5639,烟台市,开发区,,33,17,31,7,16,105,105,91,91,4,10,6,7,0.1,0.2
2022-03-31T15:00:00,1643A,121.3719,37.5433,烟台市,轴承厂,,32,24,33,13,24,102,101,88,88,8,17,5,5,0.5,0.7
2022-03-31T15:00:00,1644A,121.3181,37.5436,烟台市,西郊化工站,,,27,35,,,100,98,88,88,12,17,6,8,0.2,0.2
2022-03-31T15:00:00,1645A,121.4478,37.4822,烟台市,莱山环保局,,34,27,31,13,19,108,108,95,95,5,11,5,5,0.3,0.4
2022-03-31T15:00:00,1646A,121.2611,37.4967,烟台市,福山环保局,颗粒物(PM10),51,51,41,9,21,115,115,103,103,5,14,6,5,0.9,0.9
2022-03-31T15:00:00,1650A,119.1437,36.7023,潍坊市,环保局,,40,36,36,24,24,126,126,96,96,12,16,12,5,0.6,0.7
2022-03-31T15:00:00,1653A,116.6251,35.4302,济宁市,火炬城,,35,33,61,19,47,111,111,89,89,11,22,8,8,0.6,0.9
2022-03-31T15:00:00,1655A,116.5491,35.4042,济宁市,电化厂,,35,35,66,19,46,107,107,87,87,14,26,6,7,0.6,0.9
2022-03-31T15:00:00,1656A,117.1437,36.1937,泰安市,监测站,,35,14,51,6,38,109,109,92,92,2,16,7,15,0.6,0.8
2022-03-31T15:00:00,1657A,117.0885,36.2017,泰安市,人口学校,,28,27,57,15,43,87,87,72,72,6,15,4,8,0.5,0.5
2022-03-31T15:00:00,1659A,119.471,35.4209,日照市,监测站,,31,31,36,20,21,97,97,84,80,5,12,5,5,0.3,0.4
2022-03-31T15:00:00,1660A,119.523,35.4216,日照市,市政府广场,,36,36,37,21,24,104,104,93,93,7,11,5,4,0.5,0.6
2022-03-31T15:00:00,1661A,119.5587,35.4044,日照市,港务局,,35,31,32,14,20,112,112,99,99,4,8,4,4,0.5,0.6
2022-03-31T15:00:00,1662A,122.1214,37.4236,威海市,华夏技校,,33,22,35,19,33,104,104,95,95,11,16,3,3,0.4,0.6
2022-03-31T15:00:00,1663A,122.0508,37.5236,威海市,山大分校,,32,27,32,17,26,102,102,90,90,12,18,4,4,0.2,0.3
2022-03-31T15:00:00,1664A,122.1067,37.5072,威海市,市监测站,,31,22,40,19,27,98,98,89,89,12,16,5,6,0.4,0.6
2022-03-31T15:00:00,1666A,118.6614,37.4309,东营市,市环保局,,37,36,27,19,16,123,116,95,95,8,14,10,7,0.4,0.4
2022-03-31T15:00:00,1669A,113.5824,24.7733,韶关市,市八中,颗粒物(PM10),55,59,71,35,42,107,107,56,56,11,21,26,17,0.6,0.9
2022-03-31T15:00:00,1671A,113.5917,24.7972,韶关市,园林处,颗粒物(PM10),59,68,73,38,46,101,101,51,51,5,15,27,18,0.7,1
2022-03-31T15:00:00,1672A,113.6735,24.7791,韶关市,韶关学院,细颗粒物(PM2.5),57,54,43,40,35,111,111,57,57,10,16,33,16,0.5,0.7
2022-03-31T15:00:00,1673A,113.5971,24.6863,韶关市,曲江监测站,,50,45,59,35,45,125,121,58,58,13,23,19,15,0.7,1.2
2022-03-31T15:00:00,1674A,116.6794,23.3667,汕头市,金平子站,,,36,64,9,35,153,106,82,82,,32,8,12,0.6,1
2022-03-31T15:00:00,1675A,116.7244,23.3633,汕头市,龙湖子站,,31,29,46,10,32,142,97,84,84,16,32,6,11,0.4,0.7
2022-03-31T15:00:00,1676A,116.7258,23.2775,汕头市,濠江子站,,32,20,38,9,25,135,102,87,87,10,24,8,12,0.5,0.9
2022-03-31T15:00:00,1677A,116.7519,23.4714,汕头市,澄海子站,,30,28,63,16,35,129,94,76,76,13,30,6,10,0.3,0.6
2022-03-31T15:00:00,1678A,116.6092,23.2539,汕头市,潮阳子站,,34,16,50,18,38,142,108,94,94,8,19,10,12,0.4,0.7
2022-03-31T15:00:00,1680A,110.3539,21.2706,湛江市,湛江影剧院,,21,19,28,11,24,136,67,77,75,5,11,5,6,0.5,0.6
2022-03-31T15:00:00,1681A,110.3928,21.2228,湛江市,市环境监测站,,25,8,28,13,22,156,80,80,80,5,12,6,5,0.5,0.5
2022-03-31T15:00:00,1682A,110.4019,21.1997,湛江市,环保局宿舍,,23,12,31,10,21,155,72,86,79,3,9,4,4,0.4,0.5
2022-03-31T15:00:00,1683A,110.4111,21.2028,湛江市,霞山游泳场,,22,12,31,13,23,156,70,82,76,4,8,6,6,0.5,0.5
2022-03-31T15:00:00,1684A,110.3316,21.2679,湛江市,麻章区环保局,,32,32,32,12,24,135,66,78,75,5,8,6,6,0.5,0.6
2022-03-31T15:00:00,1685A,110.4558,21.2567,湛江市,坡头区环保局,,24,12,31,11,23,159,74,80,76,5,11,4,9,0.5,0.6
2022-03-31T15:00:00,1686A,111.0286,21.4688,茂名市,电白南海,,34,29,38,14,25,119,108,83,83,8,13,6,7,0.6,0.6
2022-03-31T15:00:00,1687A,110.9294,21.6533,茂名市,茂石化七小,,40,40,36,24,26,95,86,67,67,12,12,7,6,0.6,0.7
2022-03-31T15:00:00,1688A,110.9107,21.6687,茂名市,健康路,,34,34,32,20,20,91,88,68,68,8,11,8,7,0.6,0.8
2022-03-31T15:00:00,1689A,110.8592,21.6828,茂名市,高岭,,,,43,,21,80,,55,55,,15,,13,,0.7
2022-03-31T15:00:00,1690A,116.1231,24.3284,梅州市,梅江月梅,,28,27,36,14,20,104,89,55,55,6,18,8,8,0.3,0.5
2022-03-31T15:00:00,1691A,116.0797,24.2719,梅州市,梅县新城,,43,43,34,18,23,104,104,60,60,9,29,5,5,0.6,0.7
2022-03-31T15:00:00,1692A,116.1248,24.2654,梅州市,环境监控中心,,30,28,34,15,21,95,95,63,63,6,26,6,7,0.5,0.6
2022-03-31T15:00:00,1693A,115.3653,22.775,汕尾市,市环保局,,47,37,26,27,16,148,148,96,96,11,13,8,7,0.6,0.6
2022-03-31T15:00:00,1694A,115.3706,22.7898,汕尾市,市政府,,49,38,29,22,19,156,156,93,93,10,14,8,7,0.7,0.7
2022-03-31T15:00:00,1695A,115.3622,22.7925,汕尾市,新城中学,,48,32,26,23,17,152,152,100,100,9,11,6,5,0.7,0.7
2022-03-31T15:00:00,1696A,114.6778,23.7569,河源市,源西(对照点),,25,14,28,7,13,85,78,51,51,5,23,2,2,0.6,0.8
2022-03-31T15:00:00,1697A,114.6944,23.7586,河源市,东埔,,26,17,27,4,14,88,83,57,57,6,24,3,4,0.5,0.8
2022-03-31T15:00:00,1698A,114.6892,23.7233,河源市,老城,,25,18,29,10,17,84,79,54,54,5,22,3,4,0.6,0.9
2022-03-31T15:00:00,1699A,111.9797,21.8593,阳江市,鸳鸯湖(对照点),,36,36,52,22,50,112,93,72,72,7,24,8,6,0.6,0.8
2022-03-31T15:00:00,1701A,111.9491,21.8658,阳江市,马南垌,,37,37,50,21,48,108,91,72,72,9,27,6,5,0.7,0.9
2022-03-31T15:00:00,1702A,113.0426,23.691,清远市,环保大楼(对照点),,42,35,36,24,28,134,134,65,65,10,26,7,7,0.7,0.9
2022-03-31T15:00:00,1703A,113.0208,23.7106,清远市,凤城街办,,38,25,49,13,29,121,121,60,60,12,30,7,7,0.6,1.2
2022-03-31T15:00:00,1705A,116.6367,23.6719,潮州市,西园路(对照点),,41,25,43,21,28,137,129,94,94,11,18,9,11,0.7,0.9
2022-03-31T15:00:00,1706A,116.6447,23.6706,潮州市,档案局,,49,49,48,21,32,134,123,89,89,10,19,9,15,0.7,0.8
2022-03-31T15:00:00,1708A,116.3701,23.5345,揭阳市,新兴,,43,41,71,21,34,156,136,99,99,10,26,11,13,0.8,1.1
2022-03-31T15:00:00,1709A,116.3264,23.5443,揭阳市,西马,,46,44,64,23,29,176,146,102,102,7,20,8,10,0.7,0.9
2022-03-31T15:00:00,1710A,116.3611,23.5626,揭阳市,东兴,,50,50,73,22,32,173,152,97,97,11,25,9,11,0.9,1.1
2022-03-31T15:00:00,1711A,116.4151,23.5294,揭阳市,渔湖,,39,36,39,23,32,142,122,90,90,9,18,10,13,0.6,0.9
2022-03-31T15:00:00,1712A,112.0392,22.9169,云浮市,新市府(对照点),,46,40,48,32,33,138,123,81,81,10,17,6,6,0.6,0.8
2022-03-31T15:00:00,1714A,112.0539,22.9539,云浮市,牧羊,细颗粒物(PM2.5),55,46,89,39,51,118,117,61,61,20,36,9,12,0.5,0.8
2022-03-31T15:00:00,1715A,102.575,24.3711,玉溪市,东风水库,颗粒物(PM10),53,56,58,34,37,131,109,89,89,8,16,6,7,0.7,0.8
2022-03-31T15:00:00,1718A,115.4208,35.2464,菏泽市,气象局,颗粒物(PM10),55,60,66,34,48,112,112,82,82,15,19,5,8,0.5,0.5
2022-03-31T15:00:00,1719A,115.4747,35.2375,菏泽市,市政协,,46,46,60,29,45,108,108,83,83,12,17,6,6,0.4,0.5
2022-03-31T15:00:00,1721A,113.3819,40.1097,大同市,果树场(对照点),颗粒物(PM10),63,76,50,3,18,110,100,86,86,3,16,7,12,0.3,0.6
2022-03-31T15:00:00,1723A,113.2994,40.0758,大同市,云冈宾馆,,31,20,45,3,9,107,98,77,77,6,21,6,12,0.3,0.5
2022-03-31T15:00:00,1724A,113.3444,40.0917,大同市,大同大学,,30,15,40,6,12,103,93,76,76,5,19,8,17,0.3,0.4
2022-03-31T15:00:00,1725A,113.2661,40.1269,大同市,安家小村,,30,17,43,12,12,102,96,78,78,4,19,10,15,0.3,0.6
2022-03-31T15:00:00,1726A,113.2711,40.0844,大同市,教育学院,,30,16,45,2,11,99,93,75,75,8,18,9,16,0.3,0.5
2022-03-31T15:00:00,1727A,113.1147,36.1547,长治市,清华站,,,41,84,5,61,115,92,72,72,22,30,10,10,,1.2
2022-03-31T15:00:00,1728A,113.1031,36.1989,长治市,监测站,,31,24,73,5,61,114,99,74,74,9,19,9,9,0.4,1
2022-03-31T15:00:00,1730A,113.0886,36.2125,长治市,审计局,,30,22,72,7,55,105,94,69,69,4,18,19,18,0.3,1.1
2022-03-31T15:00:00,1731A,113.0844,36.1856,长治市,长治八中,,34,34,92,10,51,110,91,68,68,14,24,11,10,0.4,1.1
2022-03-31T15:00:00,1733A,111.5531,36.0783,临汾市,临钢医院,,32,19,90,12,51,107,100,73,73,17,44,5,17,0.1,1.1
2022-03-31T15:00:00,1734A,111.5028,36.0714,临汾市,技工学校,,35,6,103,2,45,112,112,81,81,7,44,7,20,0.2,1.1
2022-03-31T15:00:00,1736A,111.5018,36.0855,临汾市,市委,,33,10,85,2,39,105,105,77,77,8,45,6,18,0.2,0.9
2022-03-31T15:00:00,1738A,113.5758,37.8572,阳泉市,市中心,,32,20,82,2,60,100,100,60,60,13,33,7,8,0.4,0.9
2022-03-31T15:00:00,1739A,113.4894,37.8731,阳泉市,赛鱼,,31,13,65,7,52,98,98,69,69,16,35,10,10,0.2,0.7
2022-03-31T15:00:00,1740A,113.5819,37.8486,阳泉市,南庄,,32,11,74,8,54,102,102,61,61,12,29,7,10,0.4,0.9
2022-03-31T15:00:00,1742A,113.5614,37.8703,阳泉市,平坦,,44,44,89,3,62,100,100,61,61,8,34,5,8,0.3,0.9
2022-03-31T15:00:00,1743A,113.5158,37.8392,阳泉市,大阳泉,,33,4,50,4,42,103,103,79,79,13,23,5,5,0.2,0.8
2022-03-31T15:00:00,1744A,118.9233,42.2816,赤峰市,松山一中,,29,20,33,2,14,95,92,86,86,10,27,9,12,0.3,0.5
2022-03-31T15:00:00,1745A,118.9576,42.2728,赤峰市,哈达街,,28,20,28,4,16,91,89,83,83,9,24,11,17,0.5,0.6
2022-03-31T15:00:00,1746A,118.8788,42.2554,赤峰市,天义路,,27,27,26,2,13,90,85,82,82,24,32,8,13,0.3,0.5
2022-03-31T15:00:00,1748A,123.044,41.1196,鞍山市,深沟寺,,34,23,27,9,20,108,108,85,85,5,13,5,6,0.5,0.6
2022-03-31T15:00:00,1749A,123.011,41.0931,鞍山市,太阳城,,33,22,25,12,17,104,104,84,84,10,16,6,8,0.3,0.4
2022-03-31T15:00:00,1750A,123.0485,41.1442,鞍山市,太平,,32,20,30,8,21,100,100,78,78,10,20,8,11,0.3,0.4
2022-03-31T15:00:00,1751A,122.9642,41.0971,鞍山市,铁西三道街,,32,22,42,8,24,102,102,76,76,8,48,9,29,0.6,1.8
2022-03-31T15:00:00,1752A,122.9341,41.0833,鞍山市,铁西工业园区,,35,20,46,10,27,110,109,85,85,8,42,11,30,0.4,1.5
2022-03-31T15:00:00,1753A,123.022,41.0821,鞍山市,明达新区,,31,17,25,12,18,99,99,79,79,8,15,6,9,0.4,0.6
2022-03-31T15:00:00,1754A,123.1289,41.0228,鞍山市,千山(对照点),,30,14,19,10,14,95,93,75,75,6,16,8,11,0.5,0.5
2022-03-31T15:00:00,1755A,123.7977,41.8491,抚顺市,望花区,,35,19,24,9,15,110,110,94,94,1,6,2,5,0.5,0.5
2022-03-31T15:00:00,1756A,123.9161,41.8822,抚顺市,顺城区,,31,30,27,8,16,98,98,78,78,1,13,4,5,0.5,0.6
2022-03-31T15:00:00,1757A,124.0436,41.8611,抚顺市,东洲区,,32,14,23,7,15,101,101,82,82,4,9,6,10,0.5,0.6
2022-03-31T15:00:00,1758A,123.9247,41.8642,抚顺市,新抚区,,,15,27,16,22,97,94,77,77,,9,6,6,0.2,0.5
2022-03-31T15:00:00,1759A,124.0972,41.8961,抚顺市,大伙房水库,,35,15,19,6,15,114,112,97,95,2,4,8,9,0.4,0.5
2022-03-31T15:00:00,1760A,123.7086,41.8391,抚顺市,沈抚新城,,33,20,22,9,15,105,105,89,89,3,7,5,6,0.6,0.7
2022-03-31T15:00:00,1761A,123.8275,41.3064,本溪市,大峪,,32,22,28,12,13,107,100,86,86,10,13,13,13,0.4,0.5
2022-03-31T15:00:00,1762A,123.7567,41.3325,本溪市,溪湖,,30,24,23,13,15,101,95,88,78,13,14,9,10,0.5,0.6
2022-03-31T15:00:00,1763A,123.7169,41.3094,本溪市,彩屯,,31,27,30,12,20,106,98,80,80,10,20,8,10,0.6,0.8
2022-03-31T15:00:00,1764A,123.7669,41.2864,本溪市,东明,,30,28,24,12,16,102,94,80,80,13,17,6,7,0.4,0.6
2022-03-31T15:00:00,1765A,123.7992,41.2664,本溪市,新立屯,,31,23,21,9,13,106,99,86,86,6,12,10,9,0.6,0.6
2022-03-31T15:00:00,1766A,123.8142,41.3472,本溪市,威宁,,30,25,28,9,15,100,95,76,76,10,15,6,5,0.4,0.6
2022-03-31T15:00:00,1767A,121.1115,41.0879,锦州市,南山,,25,22,35,7,25,86,80,66,66,7,19,8,12,0.3,0.6
2022-03-31T15:00:00,1768A,121.0533,40.8434,锦州市,开发区,,29,19,49,2,30,97,91,78,78,6,19,7,41,0.4,0.7
2022-03-31T15:00:00,1769A,121.1836,41.1119,锦州市,百股街道,,29,18,42,5,28,98,92,78,78,8,19,4,6,0.4,0.9
2022-03-31T15:00:00,1770A,121.1178,41.1222,锦州市,天安街道,,30,23,46,12,24,98,94,79,79,7,30,7,16,0.3,0.9
2022-03-31T15:00:00,1771A,121.1303,41.1386,锦州市,北湖公园,,27,16,42,5,26,93,86,78,78,6,17,6,16,0.4,1.3
2022-03-31T15:00:00,1773A,126.5844,43.8358,吉林市,东局子,,33,15,21,10,15,105,104,89,89,5,12,4,10,0.5,0.6
2022-03-31T15:00:00,1774A,126.5052,43.8245,吉林市,电力学院,,37,20,23,10,16,120,117,100,100,5,13,6,12,0.3,0.5
2022-03-31T15:00:00,1775A,126.6133,43.8972,吉林市,江北,,33,21,23,9,16,104,103,90,90,4,9,6,8,0.5,0.6
2022-03-31T15:00:00,1776A,126.555,43.8306,吉林市,江南公园,,32,12,17,12,16,102,101,85,85,4,13,5,11,0.4,0.6
2022-03-31T15:00:00,1778A,126.7061,43.7133,吉林市,丰满(对照点),,32,13,11,13,10,104,102,91,91,3,3,5,5,0.5,0.6
2022-03-31T15:00:00,1779A,123.9305,47.3636,齐齐哈尔市,安居小区,,29,21,31,14,20,109,92,88,88,6,14,1,3,0.5,0.6
2022-03-31T15:00:00,1780A,123.9488,47.3386,齐齐哈尔市,中心广场,,,16,25,2,12,96,87,82,81,,8,4,6,0.5,0.6
2022-03-31T15:00:00,1781A,123.9483,47.3227,齐齐哈尔市,农牧车辆厂,,31,31,33,9,17,94,82,80,80,12,14,87,13,0.4,0.5
2022-03-31T15:00:00,1783A,123.945,47.2988,齐齐哈尔市,市环境监测站,,28,21,32,10,19,97,87,80,80,5,13,2,21,0.4,0.4
2022-03-31T15:00:00,1784A,129.61,44.561,牡丹江市,环保大楼,,42,42,25,4,13,102,102,88,88,5,12,2,3,0.2,0.3
2022-03-31T15:00:00,1785A,129.6115,44.5782,牡丹江市,文化广场,,32,32,25,20,18,102,102,89,89,4,16,3,5,0.1,0.2
2022-03-31T15:00:00,1786A,129.5904,44.5963,牡丹江市,第一医院,,42,34,28,29,24,100,100,85,85,5,15,2,4,0.4,0.5
2022-03-31T15:00:00,1787A,129.6364,44.6075,牡丹江市,机车工厂,,32,19,28,13,14,102,102,87,87,4,13,5,11,0.2,0.3
2022-03-31T15:00:00,1788A,129.6386,44.5462,牡丹江市,第一中学,,33,22,18,16,14,104,104,93,93,5,8,1,2,0.2,0.2
2022-03-31T15:00:00,1789A,124.81117,46.03138,大庆市,大同区,,33,20,33,17,30,103,103,92,92,3,7,2,5,0.6,0.7
2022-03-31T15:00:00,1790A,125.129,46.533,大庆市,龙凤区,,27,24,35,11,19,86,86,72,72,6,21,4,7,0.1,0.3
2022-03-31T15:00:00,1791A,124.902,46.408,大庆市,红岗区,,30,12,23,10,19,93,93,80,80,5,11,4,4,0.3,0.4
2022-03-31T15:00:00,1792A,125.153,46.586,大庆市,萨尔图区,,29,18,34,20,32,91,91,73,73,7,32,5,8,0.4,0.5
2022-03-31T15:00:00,1793A,124.9042,46.6215,大庆市,让胡路区,,28,15,26,5,17,91,87,77,77,4,16,4,6,0.6,0.6
2022-03-31T15:00:00,1794A,118.3606,31.3519,芜湖市,监测站,颗粒物(PM10),58,66,66,38,41,151,50,105,76,46,25,11,10,0.6,0.7
2022-03-31T15:00:00,1795A,118.3714,31.4134,芜湖市,科创中心,颗粒物(PM10),55,60,58,32,38,148,40,101,68,50,26,11,9,1.0,1
2022-03-31T15:00:00,1796A,118.3673,31.3131,芜湖市,四水厂,颗粒物(PM10),57,64,60,31,37,147,61,107,77,33,23,6,7,0.6,0.8
2022-03-31T15:00:00,1798A,118.5092,31.6837,马鞍山市,湖东路四小,,49,49,54,32,52,166,58,107,72,32,20,6,8,0.8,0.8
2022-03-31T15:00:00,1799A,118.5024,31.6449,马鞍山市,开发区,,44,44,55,18,32,159,55,106,62,34,26,7,8,0.8,0.8
2022-03-31T15:00:00,1800A,118.5228,31.7231,马鞍山市,慈湖,,,,62,,47,143,47,97,66,49,27,,8,,0.7
2022-03-31T15:00:00,1802A,118.6245,31.7241,马鞍山市,濮塘(对照点),颗粒物(PM10),53,56,68,29,40,154,64,92,68,16,12,5,7,0.5,0.7
2022-03-31T15:00:00,1803A,115.9872,29.6815,九江市,十里,,48,41,50,33,38,118,90,112,96,16,25,7,7,0.6,0.7
2022-03-31T15:00:00,1804A,115.9584,29.7046,九江市,茅山头,细颗粒物(PM2.5),57,29,49,40,38,112,81,107,89,16,28,4,7,0.4,0.5
2022-03-31T15:00:00,1805A,115.9877,29.7295,九江市,西园,细颗粒物(PM2.5),57,40,58,40,34,95,70,90,75,16,32,5,8,0.7,0.7
2022-03-31T15:00:00,1806A,116.0172,29.6547,九江市,五七二七厂,,39,35,46,27,25,114,92,108,97,12,15,5,5,0.7,0.8
2022-03-31T15:00:00,1808A,115.9114,29.6038,九江市,综合工业园,,49,25,52,34,35,121,96,112,98,14,29,5,6,0.6,0.6
2022-03-31T15:00:00,1809A,116.0721,29.7535,九江市,石化总厂,细颗粒物(PM2.5),57,48,59,40,39,116,72,108,81,14,26,2,4,0.4,0.5
2022-03-31T15:00:00,1810A,115.9773,29.5698,九江市,庐山气象台(对照点),,32,19,12,5,7,125,100,121,108,5,5,3,3,0.4,0.5
2022-03-31T15:00:00,1812A,112.3931,34.6516,洛阳市,市委党校,细颗粒物(PM2.5),62,72,123,44,76,105,90,62,62,16,25,5,5,0.8,1
2022-03-31T15:00:00,1814A,112.4657,34.6871,洛阳市,豫西宾馆,细颗粒物(PM2.5),63,66,96,45,83,103,88,66,66,12,17,6,5,0.8,1
2022-03-31T15:00:00,1815A,112.494,34.6886,洛阳市,河南林校,颗粒物(PM10),58,65,65,35,42,109,100,84,84,18,18,4,4,0.8,1
2022-03-31T15:00:00,1816A,112.3844,34.623,洛阳市,开发区管委会,细颗粒物(PM2.5),64,71,118,46,83,110,95,68,68,16,23,2,3,0.6,0.8
2022-03-31T15:00:00,1817A,112.4267,34.6258,洛阳市,市委新办公区,颗粒物(PM10),60,70,125,42,83,101,91,64,64,15,22,4,3,0.6,0.8
2022-03-31T15:00:00,1818A,114.4839,36.0621,安阳市,棉研所(对照点),细颗粒物(PM2.5),55,50,64,39,50,103,103,103,103,16,23,5,4,0.4,0.7
2022-03-31T15:00:00,1819A,114.3551,36.1017,安阳市,红庙街,,39,23,57,27,49,99,99,68,68,11,24,6,7,0.2,0.5
2022-03-31T15:00:00,1820A,114.361,36.0681,安阳市,银杏小区,,38,34,56,26,57,102,102,74,74,12,25,4,5,0.3,0.7
2022-03-31T15:00:00,1824A,114.3389,34.7781,开封市,肿瘤医院,颗粒物(PM10),52,54,63,32,61,105,104,83,83,7,10,7,6,0.6,0.7
2022-03-31T15:00:00,1826A,114.2885,34.7965,开封市,世纪星幼儿园,,44,44,58,27,53,103,101,82,82,11,13,9,8,0.5,0.6
2022-03-31T15:00:00,1828A,113.2269,35.2127,焦作市,市环保局,细颗粒物(PM2.5),92,93,113,68,87,89,80,56,56,18,20,4,5,0.8,0.9
2022-03-31T15:00:00,1829A,113.2467,35.176,焦作市,高新区政府,细颗粒物(PM2.5),67,53,111,48,85,92,92,57,57,20,26,8,7,0.9,1
2022-03-31T15:00:00,1830A,113.1987,35.2703,焦作市,影视城(对照点),,,77,113,61,78,82,82,63,63,,12,9,8,0.9,0.9
2022-03-31T15:00:00,1832A,113.3257,33.742,平顶山市,新华旅馆,颗粒物(PM10),56,62,118,35,76,110,110,93,93,7,12,1,3,0.3,0.3
2022-03-31T15:00:00,1833A,113.2919,33.737,平顶山市,规划设计院,颗粒物(PM10),56,61,104,22,63,110,110,94,94,10,10,2,3,0.3,0.5
2022-03-31T15:00:00,1834A,113.182,33.774,平顶山市,平顶山工学院,颗粒物(PM10),55,59,103,31,70,106,106,89,89,8,10,4,5,0.5,0.7
2022-03-31T15:00:00,1835A,111.1922,34.7752,三门峡市,市政府,细颗粒物(PM2.5),139,100,152,106,135,101,62,56,49,19,35,5,11,1.1,1.3
2022-03-31T15:00:00,1836A,111.1587,34.7942,三门峡市,开发区,细颗粒物(PM2.5),129,103,154,98,129,112,56,59,47,19,26,6,11,1.0,1
2022-03-31T15:00:00,1838A,111.143,34.7955,三门峡市,风景区(对照点),细颗粒物(PM2.5),123,90,137,93,120,99,55,57,46,21,26,5,11,1.1,1.1
2022-03-31T15:00:00,1840A,111.2992,30.6981,宜昌市,白龙岗,,41,41,44,24,24,97,69,86,83,37,28,5,5,0.2,0.2
2022-03-31T15:00:00,1841A,111.3549,30.6465,宜昌市,伍家岗,,33,32,46,19,25,104,104,81,81,13,28,6,5,0.7,0.7
2022-03-31T15:00:00,1842A,111.2628,30.6961,宜昌市,点军区,颗粒物(PM10),51,52,54,19,27,101,90,90,90,17,21,6,6,0.5,0.5
2022-03-31T15:00:00,1843A,111.3275,30.7819,宜昌市,夷陵区,,39,39,39,19,21,111,99,93,78,20,18,3,3,0.4,0.3
2022-03-31T15:00:00,1844A,112.2494,30.3197,荆州市,市图书馆,颗粒物(PM10),79,107,69,28,37,85,70,76,75,16,20,6,7,0.9,0.8
2022-03-31T15:00:00,1845A,112.2008,30.3544,荆州市,市委党校,细颗粒物(PM2.5),93,103,71,69,46,87,77,80,79,12,18,6,7,0.8,0.7
2022-03-31T15:00:00,1847A,113.1094,29.3578,岳阳市,南湖风景区,细颗粒物(PM2.5),59,61,39,42,27,99,84,90,76,17,20,7,7,0.8,0.8
2022-03-31T15:00:00,1848A,113.1493,29.4251,岳阳市,城陵矶,细颗粒物(PM2.5),63,51,41,45,26,95,80,81,71,24,25,5,5,0.6,0.6
2022-03-31T15:00:00,1849A,113.1497,29.3575,岳阳市,开发区,颗粒物(PM10),52,54,32,32,21,94,83,88,82,18,16,5,5,0.4,0.7
2022-03-31T15:00:00,1850A,113.2621,29.4758,岳阳市,云溪区,细颗粒物(PM2.5),68,59,34,49,27,98,88,92,83,15,16,7,7,0.7,0.8
2022-03-31T15:00:00,1851A,112.9943,29.4402,岳阳市,君山区,"颗粒物(PM10),细颗粒物(PM2.5)",55,60,39,39,28,109,98,96,82,16,17,3,3,0.6,0.7
2022-03-31T15:00:00,1852A,113.2117,29.355,岳阳市,金凤水库(对照点),细颗粒物(PM2.5),55,52,30,39,24,92,83,82,78,12,13,3,3,0.5,0.5
2022-03-31T15:00:00,1854A,111.6975,28.9703,常德市,市二中,细颗粒物(PM2.5),57,46,46,40,30,102,96,97,97,8,8,5,5,0.8,0.8
2022-03-31T15:00:00,1857A,111.7158,29.1456,常德市,白鹤山(对照点),颗粒物(PM10),54,58,46,36,30,113,105,108,108,8,8,1,2,0.7,0.6
2022-03-31T15:00:00,1858A,110.5319,29.1217,张家界市,永定新区,,36,32,34,20,24,113,113,96,96,10,20,2,2,0.4,0.6
2022-03-31T15:00:00,1859A,110.4697,29.1242,张家界市,电业局,,29,19,23,19,18,95,92,84,79,14,20,6,5,0.1,0.3
2022-03-31T15:00:00,1860A,110.5594,29.3547,张家界市,未央路,,29,21,20,8,18,99,92,87,86,7,7,2,2,0.3,0.4
2022-03-31T15:00:00,1862A,110.4144,25.3167,桂林市,电子科大尧山校区(对照点),,29,3,13,4,12,90,90,58,58,5,7,5,10,0.6,0.7
2022-03-31T15:00:00,1863A,110.2819,25.2697,桂林市,监测站,,20,8,21,3,15,62,62,38,38,8,20,6,7,0.8,0.9
2022-03-31T15:00:00,1864A,110.3089,25.2708,桂林市,龙隐路小学,,25,5,17,6,16,78,78,50,50,6,20,5,10,0.8,0.8
2022-03-31T15:00:00,1865A,110.2869,25.2178,桂林市,八中,,25,4,20,1,14,77,77,46,46,6,22,5,13,0.8,1
2022-03-31T15:00:00,1866A,109.2262,21.588,北海市,牛尾岭水库(对照点),,34,34,35,17,27,92,55,65,56,5,11,3,5,0.5,0.7
2022-03-31T15:00:00,1867A,109.1436,21.4086,北海市,海滩公园,,48,48,39,32,23,128,121,108,89,7,10,6,4,0.6,0.7
2022-03-31T15:00:00,1868A,109.0981,21.4661,北海市,新市环保局,,49,49,36,34,33,115,115,100,73,11,10,6,4,0.7,0.6
2022-03-31T15:00:00,1869A,109.1778,21.5233,北海市,北海工业园,,43,43,40,24,29,106,106,90,67,9,11,6,6,0.8,0.7
2022-03-31T15:00:00,1870A,109.4856,24.3895,柳州市,柳东小学,,16,10,22,11,22,53,49,28,28,4,9,5,5,0.8,0.9
2022-03-31T15:00:00,1871A,109.4157,24.3277,柳州市,环保监测站,,14,11,36,5,36,43,43,16,16,11,29,6,12,0.6,1
2022-03-31T15:00:00,1872A,109.389,24.341,柳州市,河西水厂,,35,32,47,24,36,36,21,8,8,32,31,32,20,1.7,1.3
2022-03-31T15:00:00,1873A,109.4311,24.2921,柳州市,市四中,,15,12,46,6,30,46,46,19,19,4,24,6,9,0.7,1.1
2022-03-31T15:00:00,1874A,109.4006,24.3631,柳州市,市九中,,15,15,24,8,30,36,35,15,15,17,23,32,12,0.6,1
2022-03-31T15:00:00,1875A,109.4958,24.3134,柳州市,古亭山,,14,8,25,7,19,42,42,23,23,6,19,6,5,0.6,0.7
2022-03-31T15:00:00,1876A,109.5078,18.2489,三亚市,河东子站,,34,34,23,9,11,59,53,49,49,4,5,3,3,0.4,0.4
2022-03-31T15:00:00,1877A,109.4964,18.2681,三亚市,河西子站,,20,20,21,10,10,64,57,49,49,3,3,5,5,0.3,0.3
2022-03-31T15:00:00,1878A,104.7778,31.4741,绵阳市,富乐山,,44,44,41,21,22,85,34,74,56,34,10,7,3,0.6,0.5
2022-03-31T15:00:00,1879A,104.7563,31.4535,绵阳市,市人大,,46,46,46,22,21,78,26,68,43,48,23,6,5,0.7,0.7
2022-03-31T15:00:00,1880A,104.6697,31.4668,绵阳市,高新区自来水公司,颗粒物(PM10),56,62,48,26,25,79,39,70,56,32,18,5,5,0.7,0.7
2022-03-31T15:00:00,1881A,104.7287,31.5075,绵阳市,三水厂,颗粒物(PM10),52,54,46,25,22,79,25,70,53,42,19,3,2,0.7,0.6
2022-03-31T15:00:00,1882A,104.563,28.793,宜宾市,石马中学(对照点),,28,28,39,17,27,80,72,62,62,8,10,4,5,0.4,0.5
2022-03-31T15:00:00,1883A,104.6201,28.7728,宜宾市,市委,,28,28,41,18,26,68,65,59,59,20,18,5,5,0.5,0.6
2022-03-31T15:00:00,1884A,104.6055,28.793,宜宾市,宜宾四中,,29,29,37,17,24,76,76,67,67,14,18,5,5,0.5,0.6
2022-03-31T15:00:00,1885A,104.639,28.7562,宜宾市,市政府,,29,29,41,17,26,75,75,67,67,15,17,6,7,0.4,0.5
2022-03-31T15:00:00,1886A,104.5742,28.7199,宜宾市,黄金嘴,,26,26,37,15,23,78,71,66,66,10,13,7,7,0.3,0.5
2022-03-31T15:00:00,1888A,101.6891,26.571,攀枝花市,弄弄坪,,33,33,63,14,34,141,82,77,76,12,28,8,12,0.8,1.1
2022-03-31T15:00:00,1889A,101.5769,26.5928,攀枝花市,河门口,,43,43,60,27,34,144,96,85,85,18,26,14,19,1.2,1
2022-03-31T15:00:00,1890A,101.7169,26.585,攀枝花市,炳草岗,,34,34,55,13,35,133,82,70,70,14,44,5,10,0.6,1
2022-03-31T15:00:00,1891A,101.7369,26.5008,攀枝花市,仁和,颗粒物(PM10),51,52,55,15,33,135,86,114,76,15,21,6,7,0.6,0.6
2022-03-31T15:00:00,1893A,105.4324,28.9634,泸州市,九狮山(对照点),,21,8,25,11,24,82,67,61,61,14,14,4,6,0.4,0.4
2022-03-31T15:00:00,1894A,105.4427,28.9063,泸州市,小市上码头,,20,12,26,12,25,88,61,53,53,18,18,9,10,0.3,0.4
2022-03-31T15:00:00,1895A,105.4241,28.8573,泸州市,兰田宪桥,,20,12,31,11,28,80,61,55,55,13,15,6,8,0.3,0.4
2022-03-31T15:00:00,1896A,105.4379,28.8833,泸州市,市环监站,,19,11,27,10,19,80,60,57,57,16,16,3,4,0.3,0.4
2022-03-31T15:00:00,1901A,104.4239,31.1208,德阳市,东山公园,颗粒物(PM10),51,51,52,20,23,85,75,74,72,14,13,4,4,0.3,0.3
2022-03-31T15:00:00,1902A,104.3826,31.1317,德阳市,西小区,颗粒物(PM10),53,55,59,24,24,77,67,71,69,20,18,5,6,0.3,0.4
2022-03-31T15:00:00,1904A,104.3553,31.1091,德阳市,耐火材料厂,颗粒物(PM10),56,61,56,26,30,73,72,65,64,17,24,6,9,0.3,0.4
2022-03-31T15:00:00,1905A,106.056,30.8064,南充市,西山风景区(对照点),,38,22,24,26,27,91,82,85,85,14,12,4,4,0.5,0.5
2022-03-31T15:00:00,1906A,106.0789,30.8023,南充市,南充市委,,30,30,38,19,21,82,76,78,74,7,6,3,2,0.6,0.6
2022-03-31T15:00:00,1908A,106.1064,30.7856,南充市,高坪区监测站,,27,22,26,18,19,88,86,81,79,10,10,2,3,0.3,0.3
2022-03-31T15:00:00,1909A,106.0642,30.7636,南充市,嘉陵区环保局,,27,26,29,10,22,92,85,86,84,12,9,3,3,0.4,0.4
2022-03-31T15:00:00,1910A,106.1087,30.8388,南充市,市环境监测站,,30,29,36,21,25,75,74,68,68,5,9,14,17,0.4,0.4
2022-03-31T15:00:00,1911A,106.9222,27.6869,遵义市,丁字口,,16,14,22,5,15,70,49,34,34,13,19,6,9,0.3,0.5
2022-03-31T15:00:00,1912A,106.9242,27.7019,遵义市,凤凰山,,18,16,19,12,14,73,57,48,48,10,14,4,5,0.3,0.3
2022-03-31T15:00:00,1913A,106.8906,27.6486,遵义市,忠庄,,18,16,24,8,16,64,56,34,34,13,19,2,2,0.2,0.4
2022-03-31T15:00:00,1914A,106.9231,27.6506,遵义市,舟水桥,,19,9,22,13,18,65,44,29,29,20,18,5,5,0.2,0.3
2022-03-31T15:00:00,1915A,106.9178,27.72,遵义市,干田坝,,18,18,20,11,15,71,56,39,39,14,20,4,6,0.5,0.6
2022-03-31T15:00:00,1916A,103.7897,25.5035,曲靖市,环境监测站,,17,8,48,7,27,141,54,69,54,21,16,8,10,0.7,0.7
2022-03-31T15:00:00,1917A,103.8,25.5364,曲靖市,烟厂办公区,,19,11,43,10,26,150,59,82,59,13,11,4,7,0.7,0.8
2022-03-31T15:00:00,1918A,108.7197,34.3956,咸阳市,气象站(对照点),颗粒物(PM10),61,71,197,16,67,84,84,37,37,26,60,9,9,0.4,1
2022-03-31T15:00:00,1919A,108.673,34.3155,咸阳市,实验中学,颗粒物(PM10),62,73,198,22,64,89,89,27,27,23,62,7,7,0.5,1
2022-03-31T15:00:00,1920A,108.7233,34.3617,咸阳市,师范学院,颗粒物(PM10),63,76,203,17,76,92,92,34,34,20,60,10,7,0.7,1.3
2022-03-31T15:00:00,1922A,109.0656,35.0994,铜川市,党校(对照点),,32,31,128,9,52,100,100,84,84,8,49,6,8,0.3,0.7
2022-03-31T15:00:00,1923A,109.0697,35.0697,铜川市,王益区政府,,32,30,128,8,53,101,101,84,84,13,45,6,12,0.3,0.7
2022-03-31T15:00:00,1924A,108.9344,34.9058,铜川市,新区管委会,,42,42,115,13,43,103,95,81,81,14,34,8,14,0.2,0.5
2022-03-31T15:00:00,1926A,109.4131,36.6275,延安市,枣园(对照点),,35,15,62,5,19,132,112,72,72,5,43,2,3,0.1,0.4
2022-03-31T15:00:00,1927A,109.4761,36.6028,延安市,延大医附院,,37,20,74,13,23,140,116,76,76,4,44,4,5,0.3,0.5
2022-03-31T15:00:00,1929A,109.5056,36.6106,延安市,百米大道,,32,25,56,5,19,122,101,80,80,6,32,3,4,0,0.2
2022-03-31T15:00:00,1930A,107.185,34.3063,宝鸡市,庙沟村(对照点),颗粒物(PM10),70,89,93,33,32,81,71,74,73,27,20,8,5,0.6,0.5
2022-03-31T15:00:00,1931A,107.0708,34.3017,宝鸡市,竹园沟,颗粒物(PM10),72,93,97,28,39,95,92,65,65,20,25,8,3,0.5,0.4
2022-03-31T15:00:00,1932A,107.1906,34.3672,宝鸡市,三陆医院,颗粒物(PM10),77,103,130,33,55,80,77,40,40,28,49,8,8,0.5,0.7
2022-03-31T15:00:00,1933A,107.1431,34.3547,宝鸡市,监测站,颗粒物(PM10),69,87,113,32,46,80,80,42,42,28,41,7,5,0.6,0.7
2022-03-31T15:00:00,1934A,107.1186,34.3739,宝鸡市,技工学校,颗粒物(PM10),71,92,124,27,42,87,79,48,48,25,39,8,7,0.5,0.6
2022-03-31T15:00:00,1935A,107.3906,34.3528,宝鸡市,陈仓区环保局家属楼,颗粒物(PM10),71,92,145,28,59,81,81,41,41,23,45,7,11,0.6,1.1
2022-03-31T15:00:00,1936A,107.2058,34.3497,宝鸡市,文理学院,颗粒物(PM10),74,98,123,35,45,87,87,47,47,28,49,11,9,1.0,1.2
2022-03-31T15:00:00,1937A,107.2386,34.3622,宝鸡市,三迪小学,颗粒物(PM10),74,98,128,36,51,79,79,39,39,24,41,6,6,0.4,0.7
2022-03-31T15:00:00,1938A,109.5293,34.5101,渭南市,农科所(对照点),颗粒物(PM10),62,73,180,17,72,90,90,50,50,15,53,14,14,0.6,0.9
2022-03-31T15:00:00,1939A,109.4974,34.4877,渭南市,日报社,颗粒物(PM10),64,78,178,17,73,95,95,53,53,10,49,16,18,0.7,0.9
2022-03-31T15:00:00,1940A,109.4636,34.493,渭南市,体育馆,颗粒物(PM10),60,70,182,17,69,100,100,56,56,10,54,11,15,0.6,0.9
2022-03-31T15:00:00,1941A,109.4259,34.5023,渭南市,高新一小,颗粒物(PM10),60,70,179,14,72,95,95,53,53,12,52,7,12,0.2,0.7
2022-03-31T15:00:00,1943A,102.1725,38.5339,金昌市,新川苑,,35,20,37,5,10,114,110,79,77,10,18,9,8,0.4,0.4
2022-03-31T15:00:00,1944A,102.1692,38.5167,金昌市,天庆家园,,35,29,42,12,11,113,111,89,80,9,18,9,8,0.3,0.4
2022-03-31T15:00:00,1945A,98.2908,39.7711,嘉峪关市,气象局,,48,48,50,14,18,118,103,82,82,17,24,14,21,0.7,0.8
2022-03-31T15:00:00,1947A,106.3394,38.817,石嘴山市,沙湖旅游区(对照点),,,31,47,10,23,115,115,90,75,4,41,3,10,,0.8
2022-03-31T15:00:00,1948A,106.3668,39.0145,石嘴山市,大武口朝阳西街,,43,43,38,17,16,113,109,89,76,14,18,12,14,0.5,0.5
2022-03-31T15:00:00,1949A,106.7704,39.2282,石嘴山市,惠农南大街,,35,28,45,10,12,109,109,72,72,10,23,14,15,0.5,0.5
2022-03-31T15:00:00,1950A,106.7099,39.1325,石嘴山市,红果子镇惠新街,,37,29,44,10,13,118,118,77,77,11,19,11,16,0.5,0.5
2022-03-31T15:00:00,1951A,84.895,45.6094,克拉玛依市,长征新村,,29,18,17,9,5,91,91,70,68,5,12,7,6,0.3,0.2
2022-03-31T15:00:00,1952A,84.8988,45.5893,克拉玛依市,南林小区,,29,10,22,2,5,92,92,73,71,5,11,5,4,0.4,0.3
2022-03-31T15:00:00,1954A,84.905,44.3396,克拉玛依市,独山子区,,27,26,20,8,9,94,86,63,63,10,14,5,4,0.5,0.5
2022-03-31T15:00:00,1955A,85.6979,46.098,克拉玛依市,乌尔禾区商贸楼,,25,7,11,0,7,81,79,69,59,3,4,6,5,0.4,0.3
2022-03-31T15:00:00,1956A,86.1472,41.7538,巴音郭楞州,孔雀公园,颗粒物(PM10),65,79,33,18,13,111,111,95,84,5,12,3,2,0.4,0.5
2022-03-31T15:00:00,1957A,86.1972,41.7166,巴音郭楞州,棉纺厂,,44,44,16,17,10,104,104,83,75,9,15,3,2,0.3,0.4
2022-03-31T15:00:00,1958A,86.2357,41.7173,巴音郭楞州,经济开发区,颗粒物(PM10),52,54,19,13,11,107,107,88,88,6,7,3,2,0.5,0.5
2022-03-31T15:00:00,1961A,117.532,36.6868,济南市,东山小学,,44,44,65,29,36,109,109,83,83,12,32,16,11,0.6,0.6
2022-03-31T15:00:00,1966A,120.0405,35.8735,青岛市,黄岛区4号,,34,31,41,12,24,108,108,89,89,15,23,6,6,0.7,0.7
2022-03-31T15:00:00,1982A,122.0693,37.2174,威海市,文登开发区,,36,36,40,12,26,108,108,96,96,11,18,4,4,0.4,0.5
2022-03-31T15:00:00,2031A,113.1817,27.9958,株洲市,云田中学,,30,2,9,7,13,93,93,83,83,46,32,4,4,0.3,0.5
2022-03-31T15:00:00,2054A,114.1099,32.1059,信阳市,平桥分局,颗粒物(PM10),79,108,98,55,49,89,47,48,48,15,16,6,6,0.6,0.7
2022-03-31T15:00:00,2064A,113.9956,32.1271,信阳市,南湾水厂,颗粒物(PM10),71,91,100,50,50,107,51,53,53,17,18,5,5,0.5,0.6
2022-03-31T15:00:00,2065A,114.0775,32.1195,信阳市,市酿酒公司,,,,97,,56,92,48,49,49,14,15,,6,0.6,0.7
2022-03-31T15:00:00,2066A,114.0609,32.1399,信阳市,审计局,细颗粒物(PM2.5),92,95,104,68,71,98,44,47,47,18,20,6,6,0.3,0.5
2022-03-31T15:00:00,2067A,114.6613,33.6128,周口市,市环境监测站,细颗粒物(PM2.5),72,82,103,52,69,70,55,60,51,16,15,11,7,0.7,0.7
2022-03-31T15:00:00,2068A,114.6758,33.6347,周口市,周口师范,颗粒物(PM10),64,78,106,45,58,66,54,54,47,15,13,12,9,0.7,0.7
2022-03-31T15:00:00,2069A,114.6546,33.5979,周口市,市运管处,细颗粒物(PM2.5),64,76,100,46,55,68,53,59,50,16,14,10,7,0.7,0.8
2022-03-31T15:00:00,2070A,114.6369,33.6406,周口市,川汇区环保局,"颗粒物(PM10),细颗粒物(PM2.5)",60,69,98,43,62,68,55,58,51,18,16,13,6,0.7,0.7
2022-03-31T15:00:00,2075A,117.6336,24.4674,漳州市,九湖(对照点),臭氧1小时,67,58,50,29,28,175,173,109,109,14,15,6,9,0.5,0.5
2022-03-31T15:00:00,2160A,112.85,35.5051,晋城市,自来水公司,细颗粒物(PM2.5),83,110,163,61,111,100,93,56,50,18,25,3,3,0.6,1.2
2022-03-31T15:00:00,2161A,112.8318,35.4936,晋城市,白云商贸,细颗粒物(PM2.5),77,76,167,56,109,100,97,56,51,14,21,3,3,0.9,1.3
2022-03-31T15:00:00,2162A,112.8508,35.4887,晋城市,市环保局,细颗粒物(PM2.5),83,111,184,61,110,99,94,58,52,13,19,4,4,1.0,1.4
2022-03-31T15:00:00,2163A,112.8676,35.4897,晋城市,技术学院,细颗粒物(PM2.5),79,102,166,58,116,91,88,55,51,15,20,3,3,0.9,1.2
2022-03-31T15:00:00,2165A,112.8453,35.546,晋城市,白马寺 (对照点),颗粒物(PM10),72,93,165,51,100,115,92,67,59,15,22,3,3,1.1,1.3
2022-03-31T15:00:00,2166A,112.4397,39.3522,朔州市,平朔,,30,24,51,5,15,113,95,71,71,7,24,7,11,0.3,0.4
2022-03-31T15:00:00,2167A,112.4575,39.3617,朔州市,朔唯,,30,22,60,4,16,123,95,71,71,11,29,3,8,0.2,0.3
2022-03-31T15:00:00,2168A,112.4258,39.3197,朔州市,区政府,,31,20,50,2,11,117,98,70,70,5,19,6,9,0.3,0.4
2022-03-31T15:00:00,2169A,112.4072,39.3278,朔州市,市环保局,,32,32,68,0,12,119,92,72,72,12,19,6,8,0.2,0.5
2022-03-31T15:00:00,2170A,112.4272,39.3681,朔州市,市二中,,32,22,59,7,16,120,100,75,75,6,27,1,5,0.3,0.4
2022-03-31T15:00:00,2171A,112.7532,37.6945,晋中市,锦纶小区,,32,11,75,4,40,122,101,70,70,9,23,4,4,0.2,0.5
2022-03-31T15:00:00,2173A,112.7249,37.7067,晋中市,南都小区,,31,10,78,8,49,128,98,72,72,12,27,4,5,0.1,0.4
2022-03-31T15:00:00,2174A,112.6991,37.6982,晋中市,榆次区政府,,31,9,73,4,44,122,99,74,74,10,26,3,4,0.1,0.5
2022-03-31T15:00:00,2175A,110.9956,35.0147,运城市,运城中学,颗粒物(PM10),84,117,177,54,82,113,86,57,57,21,40,15,19,0.8,0.9
2022-03-31T15:00:00,2178A,110.9686,35.0303,运城市,地区技校,,,,186,,77,106,84,46,46,,41,14,17,1.0,1.1
2022-03-31T15:00:00,2179A,111.0414,35.1147,运城市,空港新区,颗粒物(PM10),75,100,185,50,85,109,90,58,58,18,42,13,16,0.7,0.9
2022-03-31T15:00:00,2181A,112.7383,38.4519,忻州市,开发区,,34,33,44,6,10,124,106,80,80,6,12,8,9,0.3,0.5
2022-03-31T15:00:00,2182A,112.7003,38.4928,忻州市,会展中心,,31,31,39,9,15,114,85,71,71,8,16,6,7,0.1,0.1
2022-03-31T15:00:00,2183A,111.1406,37.5211,吕梁市,环保局,,32,18,66,15,14,122,102,62,62,5,27,3,3,0.2,0.2
2022-03-31T15:00:00,2185A,111.1297,37.5136,吕梁市,自来水公司,,31,19,59,3,11,118,97,77,64,9,24,3,3,0.1,0.1
2022-03-31T15:00:00,2187A,106.8174,39.6973,乌海市,市林业局,,37,22,55,10,23,116,116,78,78,8,27,14,34,0.6,0.9
2022-03-31T15:00:00,2188A,106.7907,39.6667,乌海市,中海勃湾学校,,38,25,47,8,24,119,119,82,82,12,29,16,21,0.6,0.7
2022-03-31T15:00:00,2191A,122.2532,43.6801,通辽市,艺术职业学校,,,27,48,9,25,111,111,96,96,9,29,5,12,,1
2022-03-31T15:00:00,2192A,119.7594,49.2261,呼伦贝尔市,区环保局,,31,19,31,10,19,102,99,84,84,5,10,5,5,0.3,0.4
2022-03-31T15:00:00,2195A,107.4212,40.761,巴彦淖尔市,附二中,颗粒物(PM10),51,52,51,21,20,114,114,78,78,5,14,5,6,0.5,0.5
2022-03-31T15:00:00,2196A,107.37,40.7372,巴彦淖尔市,市环保大楼,,47,47,42,22,18,119,119,81,81,5,10,7,7,0.4,0.4
2022-03-31T15:00:00,2197A,113.1306,40.9923,乌兰察布市,集宁新区,,30,21,24,8,14,151,96,100,100,1,5,6,7,0.3,0.3
2022-03-31T15:00:00,2200A,122.0392,46.0656,兴安盟,胜华新制药厂,,30,18,33,12,23,94,94,87,87,7,8,1,3,0.1,0.3
2022-03-31T15:00:00,2201A,121.9504,46.0741,兴安盟,科右前旗环保局,,39,39,37,7,23,100,99,94,94,7,18,4,5,0.2,0.4
2022-03-31T15:00:00,2202A,116.1042,43.9317,锡林郭勒盟,市环保监测站,,31,9,17,6,5,98,98,94,86,4,4,10,10,0.6,0.7
2022-03-31T15:00:00,2203A,116.0781,43.9311,锡林郭勒盟,市政府,,,,19,,6,91,91,86,81,3,7,5,7,0.3,0.3
2022-03-31T15:00:00,2204A,105.6467,38.8363,阿拉善盟,西城区西花园(对照点),,,21,35,8,15,124,121,102,95,5,9,7,7,,
2022-03-31T15:00:00,2205A,105.6985,38.8411,阿拉善盟,蒙二幼,,38,11,25,10,14,121,121,103,101,7,8,6,6,0.2,0.3
2022-03-31T15:00:00,2206A,105.724,38.8516,阿拉善盟,环保局新楼,,36,18,26,11,17,122,115,108,102,6,6,7,7,0.2,0.3
2022-03-31T15:00:00,2207A,121.6094,41.998,阜新市,工业园区,,31,22,43,7,24,99,98,79,79,7,19,6,9,0.2,0.4
2022-03-31T15:00:00,2208A,121.6697,42.0279,阜新市,长青街,,30,2,56,3,26,93,93,76,76,5,15,6,17,0.3,0.5
2022-03-31T15:00:00,2209A,121.6673,42.0705,阜新市,农业园区,,29,20,36,5,21,93,92,84,84,8,12,5,19,0.2,0.3
2022-03-31T15:00:00,2210A,121.6717,42.0224,阜新市,东苑,颗粒物(PM10),55,60,56,8,26,97,94,75,75,8,19,15,19,0.3,0.6
2022-03-31T15:00:00,2211A,121.6506,42.0498,阜新市,玉龙新城,,29,15,35,3,22,92,92,76,76,6,21,8,11,0.2,0.5
2022-03-31T15:00:00,2212A,123.2,41.1953,辽阳市,宏伟区,,35,12,24,12,16,111,111,84,84,6,16,8,17,0.3,0.5
2022-03-31T15:00:00,2213A,123.1683,41.2495,辽阳市,新华园,,32,22,26,4,21,102,101,81,81,6,16,5,8,0.4,0.5
2022-03-31T15:00:00,2214A,123.2354,41.2639,辽阳市,滨河路,,33,10,28,9,27,104,104,82,82,6,16,5,14,0.3,0.5
2022-03-31T15:00:00,2215A,123.149,41.2991,辽阳市,铁西工业园,,31,7,26,8,22,98,98,76,76,6,16,9,10,0.4,0.5
2022-03-31T15:00:00,2216A,123.8139,42.3022,铁岭市,汇工街西,,34,12,29,6,22,108,108,85,85,6,21,5,9,0.2,0.4
2022-03-31T15:00:00,2217A,123.8649,42.2923,铁岭市,水上乐园,,33,12,23,2,18,104,104,82,82,8,19,5,5,0.2,0.3
2022-03-31T15:00:00,2218A,123.8486,42.2867,铁岭市,银州路东段,,,14,25,,,101,101,81,81,8,17,5,5,0.5,0.5
2022-03-31T15:00:00,2219A,123.7153,42.2217,铁岭市,金沙江路北,,,19,27,11,15,102,102,80,80,10,17,2,4,,0.3
2022-03-31T15:00:00,2220A,120.4318,41.5881,朝阳市,西梁,颗粒物(PM10),55,60,48,4,30,99,90,65,65,4,17,8,10,0.5,0.7
2022-03-31T15:00:00,2221A,120.4521,41.5646,朝阳市,河畔小区,颗粒物(PM10),58,66,34,5,18,95,89,66,66,4,10,5,8,0.5,0.7
2022-03-31T15:00:00,2222A,120.4176,41.5648,朝阳市,八里堡,颗粒物(PM10),61,72,41,14,19,99,92,66,66,5,18,6,8,0.4,0.7
2022-03-31T15:00:00,2223A,120.3806,41.5969,朝阳市,农业园区,颗粒物(PM10),51,51,35,8,24,97,92,69,69,4,16,5,7,0.5,0.6
2022-03-31T15:00:00,2225A,124.4002,43.1713,四平市,一商场,,32,16,22,13,17,105,102,97,97,1,9,6,8,0.2,0.3
2022-03-31T15:00:00,2226A,124.388,43.193,四平市,境园,,35,9,25,7,14,109,109,92,92,3,11,6,6,0.2,0.4
2022-03-31T15:00:00,2227A,125.1358,42.8845,辽源市,环保局,,34,18,28,11,19,106,106,88,88,5,10,7,8,0.6,0.6
2022-03-31T15:00:00,2229A,125.9358,41.7173,通化市,光明,,33,21,26,8,13,104,104,84,84,5,10,9,16,0.3,0.6
2022-03-31T15:00:00,2230A,125.9446,41.7325,通化市,铁路,,31,11,19,5,13,98,98,81,81,5,9,9,15,0.6,0.8
2022-03-31T15:00:00,2231A,126.4219,41.9171,白山市,喜丰,,34,19,35,4,11,107,107,96,96,5,10,7,9,0.4,0.5
2022-03-31T15:00:00,2232A,126.4077,41.9419,白山市,环保局,,32,19,34,6,12,102,102,90,90,5,9,7,10,1.6,1.4
2022-03-31T15:00:00,2233A,124.8006,45.1214,松原市,江南,,,,38,14,25,101,101,88,88,5,16,,3,0.2,0.4
2022-03-31T15:00:00,2234A,124.7965,45.1722,松原市,江北,,38,16,19,26,14,105,105,90,90,9,13,2,2,0.3,0.3
2022-03-31T15:00:00,2236A,122.8738,45.5725,白城市,市环保局,,29,29,28,13,18,88,88,81,81,18,20,5,6,0.3,0.4
2022-03-31T15:00:00,2237A,129.47,42.8883,延边朝鲜族自治州,妇幼医院,,31,17,13,7,8,98,98,90,90,4,8,6,11,0.5,0.5
2022-03-31T15:00:00,2238A,129.5055,42.9108,延边朝鲜族自治州,延边医院,,32,13,14,11,8,102,102,94,94,3,8,8,12,0.4,0.4
2022-03-31T15:00:00,2239A,129.3964,42.8881,延边朝鲜族自治州,朝阳川镇医院,,32,0,13,6,7,102,100,92,92,3,5,6,5,0.4,0.4
2022-03-31T15:00:00,2240A,130.9762,45.3001,鸡西市,环保局,,28,28,19,10,10,90,87,90,81,14,16,2,2,0.2,0.2
2022-03-31T15:00:00,2243A,130.9429,45.3039,鸡西市,第一中学,,29,28,21,8,9,94,91,84,84,13,16,5,5,0.0,0
2022-03-31T15:00:00,2244A,130.2537,47.3416,鹤岗市,哈啤分公司,,31,18,22,8,14,99,98,96,96,4,5,7,8,0.3,0.3
2022-03-31T15:00:00,2245A,130.2684,47.3086,鹤岗市,斯达机电,,30,17,16,12,9,96,94,93,93,2,5,5,5,0.3,0.4
2022-03-31T15:00:00,2246A,130.3114,47.3388,鹤岗市,东山纸板厂,,30,22,37,7,13,99,95,93,93,1,9,7,9,0.2,0.4
2022-03-31T15:00:00,2248A,131.1511,46.6937,双鸭山市,双合村,,,,40,9,20,93,91,86,86,6,13,7,12,0.5,0.9
2022-03-31T15:00:00,2249A,131.1652,46.6191,双鸭山市,南小市,,,,28,10,15,87,58,64,64,6,10,6,5,0.3,0.4
2022-03-31T15:00:00,2250A,131.1524,46.6554,双鸭山市,环保局,,31,16,37,16,21,101,99,94,94,6,19,4,13,0.2,0.5
2022-03-31T15:00:00,2251A,131.12,46.5656,双鸭山市,苗圃(对照点),,30,10,27,14,18,93,93,87,87,7,7,9,5,0.4,0.4
2022-03-31T15:00:00,2252A,128.5159,47.4311,伊春市,环保局,,30,10,13,3,7,97,96,90,90,6,7,5,5,0.4,0.4
2022-03-31T15:00:00,2253A,128.9102,47.7412,伊春市,电力嘉园,,30,10,18,9,10,99,95,91,91,4,4,4,5,0.4,0.4
2022-03-31T15:00:00,2254A,129.5029,48.471,伊春市,汤旺河国家公园(对照点),,30,4,5,3,4,96,95,93,93,4,4,7,6,0.3,0.2
2022-03-31T15:00:00,2255A,130.2751,46.8028,佳木斯市,佳纺,,30,24,32,5,13,94,93,87,87,4,15,2,3,0.3,0.4
2022-03-31T15:00:00,2256A,130.3995,46.8307,佳木斯市,发电厂,,30,13,14,6,7,96,96,88,88,4,5,1,1,0.3,0.3
2022-03-31T15:00:00,2257A,130.3258,46.7975,佳木斯市,环保局,,29,18,19,10,10,98,92,86,86,2,12,5,5,0.3,0.5
2022-03-31T15:00:00,2258A,130.3648,46.8032,佳木斯市,十一中,,31,16,17,3,10,100,98,92,92,4,12,6,8,0.3,0.4
2022-03-31T15:00:00,2259A,130.3794,46.7588,佳木斯市,四丰(对照点),,27,7,11,6,9,88,86,81,81,2,5,2,3,0.3,0.3
2022-03-31T15:00:00,2262A,131.0518,45.8751,七台河市,新一中(对照点),,29,10,13,4,9,93,92,89,89,5,7,5,6,0.4,0.5
2022-03-31T15:00:00,2263A,127.4833,50.2524,黑河市,交通局,,28,21,16,11,12,90,89,87,87,2,2,3,4,0.3,0.3
2022-03-31T15:00:00,2264A,127.5144,50.2341,黑河市,环保局,,,11,17,7,11,83,80,79,79,,4,4,3,0.2,0.2
2022-03-31T15:00:00,2265A,127.5291,50.2472,黑河市,大黑河岛(对照点),,44,44,26,10,9,85,78,75,75,10,9,7,5,0.3,0.3
2022-03-31T15:00:00,2266A,126.9785,46.6365,绥化市,人和东街,,27,10,33,4,17,85,85,78,78,4,15,5,7,0.3,0.4
2022-03-31T15:00:00,2267A,126.964,46.6528,绥化市,党政办公中心,,25,9,21,6,13,78,78,72,72,1,5,4,6,0.3,0.4
2022-03-31T15:00:00,2269A,124.1069,50.4097,大兴安岭地区,科技局,,26,16,15,6,11,85,83,79,79,4,4,2,2,0.4,0.4
2022-03-31T15:00:00,2270A,117.396,32.939,蚌埠市,工人疗养院,,46,46,89,27,47,133,79,86,69,12,16,4,4,0.4,0.5
2022-03-31T15:00:00,2271A,117.3605,32.9427,蚌埠市,百货大楼,颗粒物(PM10),53,56,115,21,54,126,78,84,65,18,24,5,6,0.5,0.6
2022-03-31T15:00:00,2273A,117.4185,32.8911,蚌埠市,蚌埠学院,,39,39,78,19,54,107,73,56,56,19,32,7,11,0.3,0.4
2022-03-31T15:00:00,2274A,117.3533,32.9673,蚌埠市,淮上区政府,,44,44,87,19,49,126,79,84,64,13,18,8,8,0.4,0.5
2022-03-31T15:00:00,2275A,117.3145,32.8977,蚌埠市,高新区,,44,44,80,27,58,129,80,91,70,9,19,6,9,0.5,0.6
2022-03-31T15:00:00,2277A,116.8305,32.7727,淮南市,潘集区政府,细颗粒物(PM2.5),64,57,85,46,65,122,72,94,60,9,10,4,4,0.6,0.5
2022-03-31T15:00:00,2278A,117.0067,32.6524,淮南市,师范学院,,48,48,89,33,63,114,63,85,55,16,18,7,8,0.5,0.6
2022-03-31T15:00:00,2279A,116.8569,32.5951,淮南市,谢家集区政府,细颗粒物(PM2.5),54,48,83,38,59,117,62,91,54,17,16,5,7,0.4,0.4
2022-03-31T15:00:00,2280A,116.8281,32.633,淮南市,八公山区政府,颗粒物(PM10),61,71,88,43,63,121,61,88,52,13,14,8,11,0.5,0.5
2022-03-31T15:00:00,2281A,116.6325,32.6201,淮南市,焦岗湖风景区管理处(对照点),颗粒物(PM10),57,64,80,39,56,114,67,77,52,10,17,6,7,0.4,0.5
2022-03-31T15:00:00,2282A,116.8004,33.975,淮北市,监测站,颗粒物(PM10),54,57,80,18,45,134,76,70,70,18,19,5,4,0.4,0.7
2022-03-31T15:00:00,2283A,116.8091,33.9007,淮北市,烈山区政府,,45,45,104,15,64,152,89,81,81,18,19,7,5,0.4,0.7
2022-03-31T15:00:00,2284A,116.7856,33.9477,淮北市,职业技术学院,,42,42,67,17,49,132,76,73,73,14,16,6,5,0.5,0.8
2022-03-31T15:00:00,2285A,117.8177,30.9412,铜陵市,市第四中学,颗粒物(PM10),54,58,85,27,35,170,81,112,86,20,19,9,10,0.5,0.6
2022-03-31T15:00:00,2286A,117.8059,30.9273,铜陵市,市公路局,,50,50,67,28,32,164,74,106,79,25,22,9,12,0.9,0.9
2022-03-31T15:00:00,2287A,117.7807,30.9413,铜陵市,市新民污水厂,颗粒物(PM10),56,62,80,37,44,165,64,98,71,36,31,7,10,0.6,0.8
2022-03-31T15:00:00,2288A,117.7439,30.8792,铜陵市,市第九中学,,,,,51,41,137,63,103,74,30,24,5,7,1.4,1.2
2022-03-31T15:00:00,2289A,117.846,30.9413,铜陵市,车站新区,,50,50,68,20,37,150,66,101,74,29,24,6,7,0.4,0.4
2022-03-31T15:00:00,2290A,117.8483,30.97,铜陵市,市职教基地,,49,49,64,28,38,161,72,99,78,24,23,8,9,0.7,0.8
2022-03-31T15:00:00,2291A,117.0809,30.5177,安庆市,环科院,细颗粒物(PM2.5),67,38,53,48,40,141,71,108,76,10,11,5,6,0.6,0.8
2022-03-31T15:00:00,2292A,117.0331,30.5119,安庆市,马山宾馆,细颗粒物(PM2.5),55,40,53,39,35,130,74,107,77,14,14,4,6,0.7,0.8
2022-03-31T15:00:00,2294A,116.9896,30.6145,安庆市,安庆大学,细颗粒物(PM2.5),74,36,53,54,48,138,75,107,79,9,9,4,5,0.6,0.7
2022-03-31T15:00:00,2295A,118.2903,29.6963,黄山市,延安路89号,细颗粒物(PM2.5),55,44,33,39,22,125,97,115,104,8,7,9,10,0.9,0.8
2022-03-31T15:00:00,2296A,118.327,29.7178,黄山市,黄山东路89号,细颗粒物(PM2.5),63,57,36,45,27,115,88,107,96,10,8,8,9,0.6,0.6
2022-03-31T15:00:00,2297A,118.1371,30.2756,黄山市,黄山区政府5号楼,,41,41,37,22,20,144,73,93,80,14,10,8,9,0.6,0.7
2022-03-31T15:00:00,2298A,118.3093,32.3153,滁州市,老年大学,细颗粒物(PM2.5),64,70,90,46,58,149,69,95,68,22,19,8,9,0.4,0.4
2022-03-31T15:00:00,2299A,118.3244,32.2786,滁州市,人大宾馆,细颗粒物(PM2.5),69,73,91,50,59,144,66,88,66,29,24,5,5,0.5,0.5
2022-03-31T15:00:00,2301A,115.8277,32.8929,阜阳市,市监测站,细颗粒物(PM2.5),55,54,102,39,70,124,64,59,59,18,17,10,8,0.6,0.8
2022-03-31T15:00:00,2303A,115.8554,32.8605,阜阳市,开发区,细颗粒物(PM2.5),62,47,107,44,91,117,65,55,55,16,17,4,4,0.5,0.6
2022-03-31T15:00:00,2307A,116.5079,31.737,六安市,监测大楼,细颗粒物(PM2.5),77,76,74,56,49,109,62,84,60,16,15,5,6,0.4,0.5
2022-03-31T15:00:00,2308A,116.4738,31.7643,六安市,皖西学院,,,,76,,48,115,63,95,68,12,12,6,8,0.4,0.5
2022-03-31T15:00:00,2309A,116.4996,31.7905,六安市,朝阳厂,细颗粒物(PM2.5),79,86,84,58,59,100,55,75,59,16,17,5,6,0.5,0.5
2022-03-31T15:00:00,2310A,116.5567,31.7886,六安市,开发区,颗粒物(PM10),69,88,90,49,51,114,63,78,66,15,17,5,6,0.4,0.5
2022-03-31T15:00:00,2311A,115.8072,33.8399,亳州市,污水处理厂,,34,34,95,15,71,98,85,55,55,13,16,6,4,0.4,0.6
2022-03-31T15:00:00,2312A,115.7789,33.8518,亳州市,三国揽胜宫,,44,44,83,19,69,101,91,59,59,9,12,7,5,0.4,0.8
2022-03-31T15:00:00,2314A,117.47,30.6618,池州市,池州学院,,47,47,69,31,44,138,67,83,64,25,27,6,13,0.7,0.8
2022-03-31T15:00:00,2316A,118.7581,30.9454,宣城市,鳌峰子站,,46,45,53,32,40,130,79,93,76,13,13,4,5,0.6,0.7
2022-03-31T15:00:00,2317A,118.7385,30.9743,宣城市,敬亭山子站,,,55,55,,23,127,61,74,63,27,20,5,7,0.5,0.6
2022-03-31T15:00:00,2318A,118.7173,30.9427,宣城市,开发区子站,颗粒物(PM10),55,59,56,35,38,137,79,100,79,18,10,5,5,0.6,0.6
2022-03-31T15:00:00,2319A,119.0141,25.4325,莆田市,荔城区仓后路,,37,37,42,12,27,115,105,75,75,11,27,4,5,0.6,0.8
2022-03-31T15:00:00,2320A,119.0015,25.4553,莆田市,莆田市监测站,,34,29,36,21,31,125,106,67,67,7,12,4,5,0.5,0.7
2022-03-31T15:00:00,2321A,119.1119,25.4561,莆田市,涵江区六中,,32,24,42,17,41,115,102,81,81,2,23,5,6,0.4,0.7
2022-03-31T15:00:00,2322A,119.1013,25.3215,莆田市,秀屿区政府,,33,30,31,16,35,114,103,88,88,10,18,6,8,0.6,0.8
2022-03-31T15:00:00,2323A,118.981,25.4792,莆田市,东圳水库(对照点),,31,24,30,14,26,129,98,62,62,3,5,4,6,0.7,0.8
2022-03-31T15:00:00,2324A,117.6211,26.2625,三明市,三钢,,18,6,26,12,18,81,47,30,30,19,24,2,3,0.7,0.9
2022-03-31T15:00:00,2325A,117.635,26.2714,三明市,三明二中,,15,8,24,10,16,86,48,31,31,19,23,3,3,0.9,1
2022-03-31T15:00:00,2326A,117.6028,26.2378,三明市,三元区政府,,14,10,31,0,19,78,37,28,28,28,22,2,5,0.8,1.1
2022-03-31T15:00:00,2327A,117.7275,26.3108,三明市,洋溪(对照点),,18,9,25,9,17,89,55,36,36,4,6,4,5,0.7,0.8
2022-03-31T15:00:00,2331A,118.0966,26.6761,南平市,茫荡山(对照点),,23,15,6,2,6,90,72,82,73,2,1,4,4,0.7,0.5
2022-03-31T15:00:00,2332A,118.1681,26.6369,南平市,南平市监测站,,23,9,23,13,17,94,72,44,44,6,16,5,5,0.7,0.9
2022-03-31T15:00:00,2333A,118.1825,26.6489,南平市,南平铝业有限公司,,,13,23,9,17,93,,31,30,8,16,5,6,0.7,0.8
2022-03-31T15:00:00,2334A,118.1756,26.6272,南平市,南平七中,,21,16,26,11,16,97,65,46,46,8,13,4,4,0.9,0.9
2022-03-31T15:00:00,2335A,117.0189,25.1181,龙岩市,龙岩师专(对照点),,22,22,35,15,21,110,66,51,51,6,20,6,8,0.4,0.6
2022-03-31T15:00:00,2336A,117.0217,25.1033,龙岩市,龙岩市监测站,,20,16,40,9,20,110,64,50,50,6,26,4,6,0.4,0.8
2022-03-31T15:00:00,2337A,117.0258,25.0661,龙岩市,闽西职业技术学院,,19,10,43,4,18,109,60,47,47,5,24,5,7,0.2,0.6
2022-03-31T15:00:00,2338A,117.0196,25.0306,龙岩市,龙岩学院,,20,11,28,5,14,110,62,50,50,5,14,3,4,0.3,0.5
2022-03-31T15:00:00,2339A,119.5001,26.6946,宁德市,金涵水库(对照点),,35,20,29,16,19,110,110,68,68,11,19,6,7,0.6,0.9
2022-03-31T15:00:00,2341A,119.5388,26.6612,宁德市,宁德市监测站,,34,22,32,11,19,107,107,69,69,13,24,6,8,0.5,0.8
2022-03-31T15:00:00,2342A,117.3102,29.3867,景德镇市,王港中学(对照点),,34,26,26,13,17,112,108,99,99,3,6,4,4,0.5,0.6
2022-03-31T15:00:00,2343A,117.2117,29.2933,景德镇市,老干部活动中心,,39,34,51,27,30,99,97,97,87,9,19,4,6,0.6,0.8
2022-03-31T15:00:00,2344A,117.1894,29.2789,景德镇市,兽医站,,32,26,36,2,27,109,100,106,96,5,21,4,6,0.3,0.4
2022-03-31T15:00:00,2345A,117.1547,29.2617,景德镇市,台达陶瓷,,33,24,36,23,26,105,94,102,91,10,21,3,9,0.5,0.6
2022-03-31T15:00:00,2346A,117.2461,29.2956,景德镇市,陶研所,,45,45,37,14,21,102,102,89,89,6,14,4,4,0.4,0.5
2022-03-31T15:00:00,2347A,114.0997,27.5002,萍乡市,武功山(对照点),,26,4,4,4,3,96,82,72,72,6,11,13,15,0.3,0.5
2022-03-31T15:00:00,2348A,113.8385,27.6434,萍乡市,中医院,,27,5,9,6,14,98,85,90,89,16,19,3,3,0.9,1
2022-03-31T15:00:00,2349A,113.8493,27.6253,萍乡市,市政府车库,,27,12,13,5,5,101,84,93,92,12,17,5,4,0.8,1.2
2022-03-31T15:00:00,2350A,113.8676,27.6435,萍乡市,市环保局,,27,9,12,5,12,102,85,90,90,8,13,4,5,0.8,0.9
2022-03-31T15:00:00,2351A,113.866,27.6198,萍乡市,安源区政府,,25,11,19,2,8,101,80,92,89,16,19,5,7,1.3,1.6
2022-03-31T15:00:00,2352A,115.0861,27.9317,新余市,北岗(对照点),,30,5,22,3,19,98,94,95,95,10,16,3,7,0.4,0.5
2022-03-31T15:00:00,2353A,114.9886,27.8431,新余市,飞宇,颗粒物(PM10),67,84,31,2,17,97,92,93,93,13,21,5,11,0.5,0.6
2022-03-31T15:00:00,2355A,114.9308,27.8036,新余市,市气象局,,30,14,24,7,18,98,96,95,94,16,22,6,7,0.4,0.7
2022-03-31T15:00:00,2357A,116.9822,28.1136,鹰潭市,龙虎山(对照点),,35,7,27,10,17,111,111,93,93,5,8,3,7,0.3,0.6
2022-03-31T15:00:00,2358A,117.0564,28.2642,鹰潭市,新监测站,,34,5,14,14,14,114,107,96,96,7,12,3,8,0.4,0.4
2022-03-31T15:00:00,2359A,117.0311,28.2475,鹰潭市,财苑宾馆,,33,6,16,5,10,109,104,93,93,4,10,2,8,0.4,0.6
2022-03-31T15:00:00,2360A,117.0222,28.2264,鹰潭市,体育馆,,32,12,15,7,14,100,100,86,86,8,13,1,6,0.3,0.2
2022-03-31T15:00:00,2361A,117.0017,28.2131,鹰潭市,三川水表,,32,7,19,9,16,100,100,87,87,10,13,6,10,0.4,0.5
2022-03-31T15:00:00,2363A,114.9367,25.8664,赣州市,地委,,34,34,37,4,18,84,84,42,42,10,39,3,5,0.8,1
2022-03-31T15:00:00,2364A,114.9461,25.8481,赣州市,气象台,,28,14,35,6,22,88,88,38,38,13,28,5,6,0.7,1
2022-03-31T15:00:00,2365A,114.9322,25.8333,赣州市,市图书馆,,,12,35,,34,91,91,40,40,12,29,8,7,1.0,1.2
2022-03-31T15:00:00,2366A,114.8905,25.8471,赣州市,华坚鞋城,,24,15,33,5,23,75,75,33,33,15,31,4,4,0.7,0.9
2022-03-31T15:00:00,2367A,114.9754,27.0803,吉安市,红声器材厂,,36,14,21,9,12,114,114,96,96,11,17,4,5,0.4,0.5
2022-03-31T15:00:00,2368A,114.9658,27.0999,吉安市,市森林工业局,,30,11,26,8,11,97,96,82,82,8,15,3,3,0.4,0.7
2022-03-31T15:00:00,2369A,114.99,27.1312,吉安市,市环境监测站,,31,17,20,6,9,105,99,87,87,15,19,7,7,0.5,0.7
2022-03-31T15:00:00,2370A,115.0093,27.0968,吉安市,青原区法院,,35,20,21,13,12,112,112,92,92,11,19,7,9,0.5,0.6
2022-03-31T15:00:00,2371A,114.3408,27.8064,宜春市,槟榔水业(对照点),,28,13,22,10,15,98,87,91,89,9,14,1,2,0.5,0.6
2022-03-31T15:00:00,2373A,114.3956,27.7844,宜春市,市石油公司,,30,15,22,5,16,102,93,88,88,8,14,3,3,0.7,0.9
2022-03-31T15:00:00,2374A,114.3703,27.7914,宜春市,市气象局,,30,12,22,9,16,101,93,89,89,13,20,3,5,0.7,0.9
2022-03-31T15:00:00,2375A,114.4013,27.8074,宜春市,市广电局,,27,13,22,10,18,96,86,86,86,11,17,1,2,0.6,0.9
2022-03-31T15:00:00,2376A,116.2127,28.0814,抚州市,桐源党溪(对照点),,38,17,25,26,20,103,94,99,95,6,5,5,20,0.7,0.7
2022-03-31T15:00:00,2377A,116.3544,27.9831,抚州市,市站,,30,20,29,13,18,96,94,93,92,5,9,6,6,0.7,0.8
2022-03-31T15:00:00,2378A,116.3565,27.963,抚州市,血防站,,30,22,26,9,15,95,93,92,91,4,8,4,4,0.7,0.8
2022-03-31T15:00:00,2379A,116.3564,28.0007,抚州市,采茶剧团,,32,17,25,9,16,103,102,100,99,7,12,5,6,0.8,0.9
2022-03-31T15:00:00,2380A,116.385,27.9647,抚州市,医学分院,,35,19,25,9,16,111,109,108,106,2,4,4,4,0.9,0.9
2022-03-31T15:00:00,2381A,118.005,28.4572,上饶市,百草园(对照点),,34,24,30,9,18,108,108,99,99,5,8,4,6,0.4,0.4
2022-03-31T15:00:00,2382A,117.9756,28.4436,上饶市,市监测站,,36,23,30,10,19,114,114,106,106,11,12,2,5,0.3,0.4
2022-03-31T15:00:00,2383A,117.9519,28.4628,上饶市,凤凰光学,,35,20,26,24,22,110,110,100,100,10,12,5,10,0.3,0.4
2022-03-31T15:00:00,2385A,114.17,35.9019,鹤壁市,市监测站,细颗粒物(PM2.5),59,46,85,42,72,99,99,76,76,17,26,8,10,0.9,1
2022-03-31T15:00:00,2386A,114.2956,35.7511,鹤壁市,市交警支队,,42,42,82,14,59,94,94,68,68,11,22,9,7,0.5,0.7
2022-03-31T15:00:00,2387A,114.2878,35.7306,鹤壁市,迎宾馆,细颗粒物(PM2.5),52,32,63,36,55,93,93,71,71,16,21,6,5,0.7,0.7
2022-03-31T15:00:00,2389A,113.836,35.311,新乡市,环保西院,颗粒物(PM10),54,58,109,29,69,100,100,70,70,11,22,10,10,0.5,0.7
2022-03-31T15:00:00,2390A,113.884,35.272,新乡市,开发区,,43,43,93,22,64,98,97,73,73,12,23,9,10,0.5,0.8
2022-03-31T15:00:00,2391A,113.883,35.303,新乡市,环保东院,,,,88,,64,102,102,73,73,12,26,11,11,0.4,0.6
2022-03-31T15:00:00,2392A,115.0312,35.7636,濮阳市,环保局,,33,23,43,23,41,104,104,84,84,11,17,8,7,0.4,0.5
2022-03-31T15:00:00,2394A,115.0574,35.7609,濮阳市,油田运输公司,,48,48,67,28,44,109,109,89,89,12,15,7,7,0.5,0.6
2022-03-31T15:00:00,2395A,115.0866,35.7754,濮阳市,油田物探公司,,34,30,26,21,47,108,108,87,87,12,15,10,11,0.3,0.5
2022-03-31T15:00:00,2396A,113.8276,34.0159,许昌市,监测站,颗粒物(PM10),60,69,100,28,40,112,112,88,88,10,12,5,10,0.7,0.8
2022-03-31T15:00:00,2398A,113.7906,33.9953,许昌市,开发区,颗粒物(PM10),58,65,100,26,43,115,115,91,91,7,11,6,11,0.6,0.8
2022-03-31T15:00:00,2399A,114.051,33.5699,漯河市,三五一五工厂,细颗粒物(PM2.5),77,83,85,56,70,78,70,69,69,11,12,6,5,0.6,0.6
2022-03-31T15:00:00,2400A,114.0055,33.5698,漯河市,漯河大学,细颗粒物(PM2.5),82,85,81,60,64,82,74,73,73,14,15,5,5,0.6,0.6
2022-03-31T15:00:00,2401A,114.0138,33.5828,漯河市,市水利局,细颗粒物(PM2.5),84,90,85,62,66,78,70,68,68,9,9,3,2,0.6,0.7
2022-03-31T15:00:00,2402A,114.0261,33.5698,漯河市,市广电局,细颗粒物(PM2.5),73,88,84,53,63,79,72,76,76,10,10,7,6,0.6,0.7
2022-03-31T15:00:00,2403A,112.5192,32.9917,南阳市,环保局,细颗粒物(PM2.5),73,82,126,53,77,126,103,83,83,17,20,9,10,0.8,0.9
2022-03-31T15:00:00,2404A,112.5339,33.0086,南阳市,瓦房庄,颗粒物(PM10),64,78,113,44,79,131,107,86,86,18,22,8,9,0.9,1.1
2022-03-31T15:00:00,2405A,112.5003,32.9735,南阳市,汉画馆,细颗粒物(PM2.5),77,80,130,56,95,123,105,86,86,15,20,8,9,1.0,1.1
2022-03-31T15:00:00,2406A,112.5779,33.0144,南阳市,气象站,细颗粒物(PM2.5),68,83,106,49,79,125,106,87,87,16,18,8,8,0.9,1
2022-03-31T15:00:00,2407A,112.548,32.9692,南阳市,理工学院,细颗粒物(PM2.5),74,80,104,54,68,126,112,90,90,9,14,8,9,1.0,1.1
2022-03-31T15:00:00,2408A,115.6702,34.4285,商丘市,环境监测站,颗粒物(PM10),61,72,96,41,72,102,102,57,57,10,16,13,9,0.6,0.7
2022-03-31T15:00:00,2409A,115.6458,34.4045,商丘市,粮食局,细颗粒物(PM2.5),72,76,105,52,73,102,102,56,56,18,24,9,6,0.7,0.8
2022-03-31T15:00:00,2410A,115.6293,34.3948,商丘市,睢阳区环保局,颗粒物(PM10),67,83,109,40,74,107,107,59,59,14,19,9,6,0.6,0.7
2022-03-31T15:00:00,2420A,114.0189,32.9656,驻马店市,市一纸厂,颗粒物(PM10),88,126,107,59,73,88,50,65,63,16,12,2,5,0.6,0.7
2022-03-31T15:00:00,2421A,114.0114,33.015,驻马店市,市彩印厂,细颗粒物(PM2.5),92,114,107,68,84,85,46,60,59,27,25,6,6,0.7,0.7
2022-03-31T15:00:00,2422A,113.9976,32.9771,驻马店市,天方二分厂,,,,109,,80,82,48,59,58,16,17,4,4,0.8,0.9
2022-03-31T15:00:00,2423A,115.0601,30.2313,黄石市,沈家营,,40,40,54,22,28,101,101,87,87,16,24,11,8,0.6,0.8
2022-03-31T15:00:00,2424A,115.0817,30.2006,黄石市,陈家湾,,45,38,52,31,32,101,101,84,84,16,23,3,5,0.7,0.8
2022-03-31T15:00:00,2426A,114.8988,30.2019,黄石市,铁山,,39,37,42,21,24,123,123,108,102,3,13,4,5,0.3,0.4
2022-03-31T15:00:00,2427A,115.0307,30.2092,黄石市,团城山,,39,37,48,27,26,112,112,97,97,12,21,8,5,0.6,0.7
2022-03-31T15:00:00,2428A,111.0419,32.395,十堰市,武当山(对照点),细颗粒物(PM2.5),77,76,44,56,29,124,88,103,87,9,7,7,8,0.8,0.5
2022-03-31T15:00:00,2429A,110.78,32.6494,十堰市,滨河新村,,,,74,60,36,75,75,60,60,19,32,,8,0.7,0.5
2022-03-31T15:00:00,2430A,110.7258,32.6389,十堰市,刘家沟,细颗粒物(PM2.5),68,84,55,49,31,84,80,72,72,18,20,6,6,0.9,0.7
2022-03-31T15:00:00,2431A,110.8839,32.5714,十堰市,铁二处,细颗粒物(PM2.5),72,86,65,52,36,84,81,63,63,16,24,9,7,0.6,0.5
2022-03-31T15:00:00,2432A,112.155,32.0197,襄阳市,襄城运动路,颗粒物(PM10),64,77,112,41,84,95,60,59,59,19,20,10,10,0.9,1
2022-03-31T15:00:00,2433A,112.1392,32.0564,襄阳市,樊城新华路,细颗粒物(PM2.5),65,69,116,47,85,113,67,70,67,21,23,6,6,0.8,0.9
2022-03-31T15:00:00,2434A,112.1825,32.1142,襄阳市,高新管委会,细颗粒物(PM2.5),63,72,125,45,97,98,69,63,63,21,24,9,10,0.8,0.9
2022-03-31T15:00:00,2435A,112.2106,32.0903,襄阳市,襄州航空路,颗粒物(PM10),58,65,124,32,99,99,82,66,66,13,20,8,9,0.9,1.1
2022-03-31T15:00:00,2436A,114.8938,30.3994,鄂州市,市政府,颗粒物(PM10),57,64,52,30,31,99,99,67,67,10,27,1,1,0.7,0.9
2022-03-31T15:00:00,2437A,114.8989,30.3714,鄂州市,赵家坝,,50,50,48,27,32,109,109,85,81,8,18,6,6,0.8,1
2022-03-31T15:00:00,2439A,112.2014,31.0481,荆门市,竹园小学,细颗粒物(PM2.5),98,106,100,73,66,100,90,82,74,11,15,6,7,0.8,0.7
2022-03-31T15:00:00,2440A,112.1969,30.9891,荆门市,掇刀,细颗粒物(PM2.5),95,111,103,71,76,98,90,83,74,11,13,4,4,0.7,0.7
2022-03-31T15:00:00,2441A,112.2213,31.0386,荆门市,石化一小,细颗粒物(PM2.5),98,103,105,73,69,91,82,71,68,12,12,10,10,0.6,0.6
2022-03-31T15:00:00,2443A,113.9153,30.9285,孝感市,文化路,,,93,105,73,57,100,18,65,29,102,26,8,6,0.5,0.6
2022-03-31T15:00:00,2444A,113.942,30.9075,孝感市,东城区,细颗粒物(PM2.5),87,84,97,64,51,101,45,60,38,16,16,5,6,0.6,0.6
2022-03-31T15:00:00,2446A,114.9028,30.4742,黄冈市,职工中心,颗粒物(PM10),55,60,44,30,35,104,103,73,73,18,26,7,8,0.5,0.7
2022-03-31T15:00:00,2447A,114.3175,29.8142,咸宁市,森林公园(对照点),颗粒物(PM10),53,55,32,32,24,93,78,88,82,3,5,4,4,0.8,0.7
2022-03-31T15:00:00,2448A,114.3107,29.8454,咸宁市,市发改委,细颗粒物(PM2.5),60,44,38,43,28,104,91,97,89,6,8,4,4,0.4,0.5
2022-03-31T15:00:00,2449A,114.2936,29.8566,咸宁市,咸安区政府,细颗粒物(PM2.5),63,45,36,45,27,103,83,90,81,15,16,6,6,0.7,0.8
2022-03-31T15:00:00,2451A,113.3583,31.7275,随州市,市委党校,细颗粒物(PM2.5),75,92,97,55,64,104,76,65,65,14,19,6,6,0.5,0.7
2022-03-31T15:00:00,2452A,113.3833,31.6908,随州市,市林业局,细颗粒物(PM2.5),79,58,79,58,68,114,81,71,71,17,17,4,4,0.6,0.7
2022-03-31T15:00:00,2453A,113.3983,31.7308,随州市,市立交桥水厂,细颗粒物(PM2.5),75,75,99,55,69,111,81,66,66,11,14,15,14,0.7,0.8
2022-03-31T15:00:00,2454A,109.4978,30.2981,恩施土家族苗族自治州,湖北民院,,27,27,41,13,23,97,86,91,90,5,8,4,6,0.3,0.4
2022-03-31T15:00:00,2455A,109.4707,30.2798,恩施土家族苗族自治州,州电力总公司,,36,36,42,12,20,81,72,74,73,8,13,6,6,0.5,0.4
2022-03-31T15:00:00,2456A,112.5003,26.9167,衡阳市,原169医院(对照点),,24,8,10,5,25,86,76,70,70,7,14,2,4,0.6,0.8
2022-03-31T15:00:00,2457A,112.6194,26.9258,衡阳市,衡阳化工总厂,,22,6,14,8,9,68,68,50,50,9,17,5,6,0.5,0.7
2022-03-31T15:00:00,2458A,112.6211,26.8956,衡阳市,珠晖区环保局,,,8,15,,,82,82,60,60,8,23,6,7,0.7,1
2022-03-31T15:00:00,2459A,112.6197,26.8733,衡阳市,市委党校,,26,8,14,7,9,83,83,62,62,8,15,2,4,0.7,0.9
2022-03-31T15:00:00,2460A,112.6006,26.8919,衡阳市,市监测站,,,,17,,14,82,79,62,62,10,20,5,10,0.6,0.9
2022-03-31T15:00:00,2461A,112.5664,26.9056,衡阳市,真空机电公司,,,10,11,,,87,82,67,67,8,18,3,4,0.6,0.9
2022-03-31T15:00:00,2462A,111.5239,27.3033,邵阳市,市水土所(对照点),,30,30,9,4,5,94,92,85,85,4,5,7,7,0.4,0.6
2022-03-31T15:00:00,2463A,111.4733,27.2317,邵阳市,市一中,,28,10,13,6,8,88,88,76,76,8,13,5,5,0.6,0.9
2022-03-31T15:00:00,2464A,111.5283,27.2442,邵阳市,市化工厂,,27,12,12,8,13,90,86,80,80,6,10,4,5,0.4,0.5
2022-03-31T15:00:00,2465A,111.4503,27.2537,邵阳市,市罐头厂,,26,0,12,6,10,94,82,75,75,9,13,5,6,0.4,0.5
