timepoint,stationcode,longitude,latitude,area,positionname,primarypollutant,aqi,pm10,pm10_24h,pm2_5,pm2_5_24h,o3,o3_24h,o3_8h,o3_8h_24h,no2,no2_24h,so2,so2_24h,co,co_24h
2025-09-28T2300,2566A,102.1879,31.914,阿坝藏族羌族自治州,州农科所,,20,20,21,3,7,16,,49,33,8,10,3,4,0.3,0.4
2025-09-28T2300,2568A,102.2502,31.8896,阿坝藏族羌族自治州,马师校,,19,,13,13,13,1,,43,21,7,10,5,5,0.6,0.6
2025-09-28T2300,3994A,102.2165,31.9024,阿坝藏族羌族自治州,马尔康中学西区,,25,,12,17,11,4,,57,33,6,7,4,4,0.6,0.6
2025-09-28T2300,2695A,80.292,41.1694,阿克苏地区,电视台,颗粒物(PM10),129,207,124,63,41,26,,92,74,37,19,5,4,0.9,0.7
2025-09-28T2300,2696A,80.2613,41.1551,阿克苏地区,艺术中心,颗粒物(PM10),129,208,111,84,42,5,,101,79,27,15,4,4,1.5,0.6
2025-09-28T2300,2204A,105.6467,38.8363,阿拉善盟,西城区西花园,,40,40,34,17,14,90,,125,107,16,15,9,9,0.8,0.7
2025-09-28T2300,2205A,105.6985,38.8411,阿拉善盟,蒙二幼,,30,25,34,10,10,95,,119,107,3,8,7,7,0.5,0.5
2025-09-28T2300,2206A,105.724,38.8516,阿拉善盟,环保局新楼,,34,22,28,8,10,106,,114,110,3,5,8,8,0.4,0.4
2025-09-28T2300,2708A,88.1264,47.8517,阿勒泰地区,市站,颗粒物(PM10),77,103,54,22,10,20,,88,58,45,24,3,3,0.5,0.4
2025-09-28T2300,2630A,80.1161,32.5,阿里地区,阿里监测站,,30,6,3,3,3,40,,122,108,60,23,5,4,0.6,0.3
2025-09-28T2300,3192A,80.0903,32.5028,阿里地区,阿里藏医院,,35,13,15,3,5,110,,131,127,3,8,6,6,0.2,0.3
2025-09-28T2300,2642A,109.0318,32.6537,安康市,香溪洞,,25,,9,3,6,80,,60,60,5,9,6,6,0.4,0.5
2025-09-28T2300,2644A,109.0072,32.6975,安康市,汉滨区检察院,,27,13,18,6,8,84,,40,40,6,12,5,5,0.4,0.7
2025-09-28T2300,4054A,109.0325,32.6913,安康市,市邮政管理局,,26,11,19,9,11,82,,48,48,6,16,5,5,0.5,0.8
2025-09-28T2300,2291A,117.0809,30.5177,安庆市,环科院,,34,34,34,14,24,58,,122,87,7,7,6,7,0.7,0.8
2025-09-28T2300,2292A,117.0331,30.5119,安庆市,马山宾馆,,29,29,33,12,16,57,,126,89,10,10,5,5,0.6,0.8
2025-09-28T2300,2294A,116.9896,30.6145,安庆市,安庆大学,,25,25,29,13,18,53,,102,77,10,8,4,4,0.6,0.6
2025-09-28T2300,3173A,117.0598,30.5351,安庆市,市人大,,27,27,34,15,23,56,,124,86,6,7,6,6,0.6,0.7
2025-09-28T2300,3123A,105.9408,26.2431,安顺市,凤凰山,,18,12,13,3,8,56,,58,56,4,5,3,4,0.4,0.4
2025-09-28T2300,3124A,105.9439,26.2564,安顺市,金钟山,,19,13,11,6,6,58,,61,59,4,3,7,7,0.5,0.5
2025-09-28T2300,3125A,105.8983,26.2481,安顺市,娄家坡,,17,8,9,6,9,52,,54,53,3,3,7,7,0.4,0.5
2025-09-28T2300,1819A,114.3551,36.1017,安阳市,红庙街,颗粒物(PM10),58,65,40,40,26,6,,62,39,35,19,5,5,1.2,1
2025-09-28T2300,1820A,114.361,36.0681,安阳市,银杏小区,细颗粒物(PM2.5),63,67,41,45,28,8,,66,40,35,21,4,4,1.1,1
2025-09-28T2300,3141A,114.3922,36.0878,安阳市,信访局,颗粒物(PM10),56,62,38,38,27,11,,70,41,34,19,4,4,1.1,1
2025-09-28T2300,3669A,114.4705,36.0637,安阳市,左辅环卫站,颗粒物(PM10),60,70,40,35,24,10,,74,46,43,23,3,3,0.9,0.8
2025-09-28T2300,3703A,114.2917,36.0949,安阳市,安钢职工学校,细颗粒物(PM2.5),64,64,43,46,31,2,,62,35,33,18,5,5,1.2,0.9
2025-09-28T2300,1748A,123.044,41.1196,鞍山市,深沟寺,,46,46,45,29,24,36,,88,52,29,22,7,9,0.9,1
2025-09-28T2300,1749A,123.011,41.0931,鞍山市,太阳城,,43,43,41,28,23,49,,82,60,14,16,7,9,0.9,1
2025-09-28T2300,1750A,123.0485,41.1442,鞍山市,太平,颗粒物(PM10),59,68,52,33,27,33,,93,50,29,26,8,10,1.0,1
2025-09-28T2300,1751A,122.9642,41.0971,鞍山市,铁西三道街,颗粒物(PM10),79,108,55,54,28,33,,96,51,43,33,7,9,1.3,1.2
2025-09-28T2300,1753A,123.022,41.0821,鞍山市,明达新区,,42,42,39,22,21,50,,94,66,15,15,9,10,1.0,1.1
2025-09-28T2300,4201A,122.9446,41.0826,鞍山市,兴盛南路290号,颗粒物(PM10),75,100,61,44,30,21,,100,45,46,36,8,11,1.1,1.1
2025-09-28T2300,2195A,107.4212,40.761,巴彦淖尔市,附二中,,38,38,42,18,16,74,,117,102,18,25,8,10,0.2,0.3
2025-09-28T2300,2196A,107.37,40.7372,巴彦淖尔市,市环保大楼,,37,37,37,14,19,70,,109,101,16,20,9,10,0.3,0.4
2025-09-28T2300,1956A,86.1472,41.7538,巴音郭楞蒙古自治州,孔雀公园,颗粒物(PM10),119,187,88,41,22,0,,83,57,68,30,7,6,1.0,0.4
2025-09-28T2300,1957A,86.1972,41.7166,巴音郭楞蒙古自治州,棉纺厂,颗粒物(PM10),91,132,103,27,14,24,,88,69,44,19,4,5,0.3,0.2
2025-09-28T2300,1958A,86.2357,41.7173,巴音郭楞蒙古自治州,经济开发区,颗粒物(PM10),68,86,87,18,13,58,,82,66,11,11,5,5,0.2,0.2
2025-09-28T2300,2914A,106.7677,31.8794,巴中市,苏山坪,,17,6,5,3,4,52,,39,39,3,3,4,4,0.4,0.4
2025-09-28T2300,3181A,106.7768,31.8526,巴中市,市五中,,14,6,12,3,7,44,,29,29,4,11,7,7,0.6,0.6
2025-09-28T2300,3183A,106.7418,31.8654,巴中市,圣泉水务公司,,19,6,7,3,6,58,,38,38,3,9,6,6,0.6,0.5
2025-09-28T2300,3616A,106.7616,31.8344,巴中市,市中心医院,,12,,14,7,7,38,,26,26,11,13,8,8,0.7,0.6
2025-09-28T2300,2235A,122.7911,45.6077,白城市,洮北区环保局,,29,29,24,14,12,41,,79,65,9,12,6,5,0.2,0.3
2025-09-28T2300,2236A,122.8738,45.5725,白城市,市环保局,,34,34,25,10,11,44,,81,67,12,9,4,4,0.3,0.3
2025-09-28T2300,2231A,126.4219,41.9171,白山市,喜丰,,35,35,38,12,13,4,,72,33,22,23,5,6,0.5,0.6
2025-09-28T2300,2232A,126.4077,41.9419,白山市,环保局,,27,27,25,11,14,7,,74,39,12,15,7,7,0.6,0.8
2025-09-28T2300,2647A,104.1724,36.5446,白银市,第三小学,,43,42,37,30,21,52,,102,80,29,18,6,10,0.9,0.9
2025-09-28T2300,2648A,104.1465,36.5482,白银市,动力公司,,41,41,32,27,19,54,,98,81,28,15,7,8,0.9,0.6
2025-09-28T2300,2512A,106.6103,23.9011,百色市,市监测站,,19,19,22,3,9,14,,47,25,9,10,6,6,0.4,0.4
2025-09-28T2300,2513A,106.6538,23.8859,百色市,市中心血站,,25,25,26,9,11,4,,51,17,28,20,4,4,0.7,0.7
2025-09-28T2300,3406A,106.6085,23.8798,百色市,祈福高中,,19,19,32,10,12,14,,47,22,12,13,6,5,0.8,0.7
2025-09-28T2300,2270A,117.396,32.939,蚌埠市,工人疗养院,,29,28,38,20,17,70,,71,71,5,12,4,4,0.6,0.6
2025-09-28T2300,2271A,117.3605,32.9427,蚌埠市,百货大楼,,23,21,28,16,17,69,,73,73,11,15,6,7,0.7,0.7
2025-09-28T2300,2273A,117.4185,32.8911,蚌埠市,蚌埠学院,,26,19,26,18,19,69,,76,76,5,9,5,5,0.5,0.5
2025-09-28T2300,2274A,117.3533,32.9673,蚌埠市,淮上区政府,,34,34,35,18,22,56,,74,70,16,15,6,6,0.6,0.6
2025-09-28T2300,2275A,117.3145,32.8977,蚌埠市,高新区,,29,29,31,17,19,60,,64,64,13,17,6,6,0.7,0.7
2025-09-28T2300,3715A,117.3092,32.9314,蚌埠市,蚌埠田家炳中学,,31,31,33,10,17,49,,68,63,17,15,4,4,0.7,0.6
2025-09-28T2300,1585A,109.8756,40.6532,包头市,市环境监测站,颗粒物(PM10),56,61,28,26,10,25,,107,63,64,28,8,8,0.9,0.6
2025-09-28T2300,1587A,109.9991,40.5842,包头市,包头八中,颗粒物(PM10),69,88,35,23,12,4,,108,61,80,39,6,9,0.6,0.6
2025-09-28T2300,1588A,109.8538,40.6821,包头市,青山宾馆,颗粒物(PM10),57,63,22,21,10,1,,100,51,70,23,6,7,0.6,0.6
2025-09-28T2300,1589A,109.8642,40.6288,包头市,惠龙物流,颗粒物(PM10),58,65,26,36,12,20,,109,69,70,25,8,10,0.8,0.6
2025-09-28T2300,1590A,110.0377,40.5546,包头市,东河鸿龙湾,颗粒物(PM10),61,72,27,26,10,4,,120,68,83,38,9,11,0.9,0.6
2025-09-28T2300,3283A,109.9154,40.5685,包头市,滨河大厦,颗粒物(PM10),54,58,26,29,11,2,,116,73,87,31,8,11,0.9,0.6
2025-09-28T2300,3419A,109.9447,40.6261,包头市,包头市委党校,,44,44,21,12,9,19,,120,78,70,33,8,11,0.7,0.7
2025-09-28T2300,3683A,109.8331,40.6576,包头市,昆区政府,颗粒物(PM10),65,80,22,32,10,1,,102,64,84,24,9,10,1.0,0.6
2025-09-28T2300,1930A,107.185,34.3063,宝鸡市,庙沟村,,18,18,14,11,7,55,,68,66,32,22,5,5,0.4,0.5
2025-09-28T2300,1931A,107.0708,34.3017,宝鸡市,竹园沟,,16,15,15,11,10,41,,62,59,5,11,8,8,0.5,0.6
2025-09-28T2300,1932A,107.1906,34.3672,宝鸡市,三陆医院,,30,30,25,19,14,25,,49,41,38,35,6,6,0.7,0.8
2025-09-28T2300,1933A,107.1431,34.3547,宝鸡市,监测站,,24,24,21,14,14,36,,62,56,20,23,5,5,0.6,0.8
2025-09-28T2300,1934A,107.1186,34.3739,宝鸡市,技工学校,,33,29,23,23,17,37,,64,59,23,20,6,6,0.8,0.9
2025-09-28T2300,1936A,107.2058,34.3497,宝鸡市,文理学院,,28,28,20,18,14,44,,60,56,26,26,5,5,0.7,0.8
2025-09-28T2300,1937A,107.2386,34.3622,宝鸡市,三迪小学,,43,32,22,30,19,37,,62,58,30,27,5,5,0.7,0.8
2025-09-28T2300,4308A,107.3898,34.3601,宝鸡市,陈仓区北开路21号,,28,27,16,19,12,42,,72,65,32,28,6,7,0.4,0.6
2025-09-28T2300,1051A,115.493,38.8632,保定市,游泳馆,颗粒物(PM10),66,82,64,45,43,56,,122,98,47,31,8,6,0.2,0.2
2025-09-28T2300,1052A,115.5213,38.8959,保定市,华电二区,细颗粒物(PM2.5),64,76,63,46,43,44,,123,99,60,30,8,4,0.5,0.4
2025-09-28T2300,1053A,115.4713,38.9108,保定市,接待中心,颗粒物(PM10),66,82,64,46,46,53,,108,88,43,28,3,2,0.3,0.3
2025-09-28T2300,1054A,115.4612,38.8416,保定市,地表水厂,颗粒物(PM10),93,136,73,51,34,1,,118,68,107,44,29,8,0.4,0.4
2025-09-28T2300,3581A,115.31981,38.95208,保定市,满城区生态环境分局,颗粒物(PM10),52,53,69,27,39,92,,126,107,27,31,2,2,0.3,0.3
2025-09-28T2300,3582A,115.47694,38.76408,保定市,清苑区第二中学,颗粒物(PM10),68,86,68,43,32,12,,120,99,102,33,5,4,0.4,0.4
2025-09-28T2300,3583A,115.62909,39.02311,保定市,徐水物探局,颗粒物(PM10),71,91,64,46,42,27,,116,79,64,40,5,4,0.5,0.5
2025-09-28T2300,4004A,115.4202,38.8656,保定市,双鹰农机,颗粒物(PM10),74,98,57,52,40,17,,120,77,81,39,5,4,0.3,0.3
2025-09-28T2300,4034A,115.5150,38.8590,保定市,植保所站,颗粒物(PM10),66,82,79,41,43,56,,114,93,52,37,10,9,0.5,0.5
2025-09-28T2300,2594A,99.1678,25.1081,保山市,市环境监测站,,32,,16,22,16,24,,54,44,12,8,7,7,0.3,0.3
2025-09-28T2300,2595A,99.1711,25.1328,保山市,市环保局,,20,15,15,14,8,34,,56,48,3,5,7,8,0.3,0.4
2025-09-28T2300,1867A,109.1436,21.4086,北海市,海滩公园,,11,7,16,3,4,34,,40,38,6,8,6,6,0.5,0.6
2025-09-28T2300,1868A,109.0981,21.4661,北海市,新市环保局,,12,,15,7,11,36,,44,40,7,10,5,6,0.4,0.5
2025-09-28T2300,1869A,109.1778,21.5233,北海市,北海工业园,,17,17,18,3,9,32,,42,39,7,9,4,6,0.4,0.4
2025-09-28T2300,3400A,109.1911,21.4415,北海市,龙潭自来水厂,,26,,19,18,18,31,,39,36,5,7,4,6,0.4,0.5
2025-09-28T2300,1001A,116.3621,39.8784,北京市,万寿西宫,颗粒物(PM10),55,60,45,27,25,73,,120,107,34,22,3,3,0.7,0.6
2025-09-28T2300,1002A,116.2202,40.2915,北京市,定陵,,13,6,22,3,14,41,,105,72,1,2,6,6,0.2,0.4
2025-09-28T2300,1003A,116.4174,39.9289,北京市,东四,颗粒物(PM10),54,57,44,26,23,95,,120,113,32,18,5,5,0.7,0.6
2025-09-28T2300,1004A,116.4072,39.8863,北京市,天坛,,40,40,34,23,21,63,,110,85,24,17,3,4,0.5,0.5
2025-09-28T2300,1005A,116.462,39.9365,北京市,农展馆,,49,49,38,25,23,91,,110,100,26,22,4,3,0.5,0.4
2025-09-28T2300,1006A,116.3392,39.9295,北京市,官园,颗粒物(PM10),56,62,48,26,24,60,,116,102,46,25,6,6,0.6,0.5
2025-09-28T2300,1007A,116.2878,39.9611,北京市,海淀万柳,颗粒物(PM10),51,52,44,22,25,8,,90,64,85,36,4,4,0.5,0.4
2025-09-28T2300,1008A,116.6636,40.135,北京市,顺义新城,,,29,25,19,15,17,,,,28,22,,1,,
2025-09-28T2300,1009A,116.6275,40.3275,北京市,怀柔镇,,19,19,29,12,20,53,,101,82,12,14,2,2,0.6,0.7
2025-09-28T2300,1010A,116.2296,40.217,北京市,昌平镇,,20,8,29,3,21,62,,101,81,10,18,2,2,0.4,0.5
2025-09-28T2300,1011A,116.3966,39.9821,北京市,奥体中心,,48,48,40,22,22,42,,96,85,58,26,4,4,0.8,0.6
2025-09-28T2300,3281A,115.9718,40.4529,北京市,延庆夏都,,19,19,29,6,18,7,,99,55,37,18,3,3,0.4,0.4
2025-09-28T2300,3418A,116.8336,40.4095,北京市,密云新城,,19,19,30,9,17,43,,93,59,9,12,3,3,0.3,0.4
2025-09-28T2300,3671A,116.088,39.9726,北京市,门头沟三家店,,19,15,31,3,18,58,,96,58,12,20,2,2,0.3,0.5
2025-09-28T2300,3672A,116.1541,39.8204,北京市,丰台云岗,,47,47,55,14,25,29,,112,79,57,36,4,3,0.4,0.5
2025-09-28T2300,3673A,116.6804,39.9081,北京市,通州东关,颗粒物(PM10),57,64,46,26,21,88,,107,94,40,33,4,4,0.6,0.6
2025-09-28T2300,3674A,115.9577,39.7603,北京市,房山燕山,,21,21,37,10,23,41,,117,86,26,18,2,2,0.3,0.5
2025-09-28T2300,3675A,116.4672,39.7733,北京市,大兴旧宫,颗粒物(PM10),51,52,45,19,19,53,,117,93,27,27,3,3,0.8,0.7
2025-09-28T2300,3694A,115.986,40.4563,北京市,延庆石河营,,18,18,30,7,18,1,,92,47,36,16,2,2,0.3,0.4
2025-09-28T2300,3695A,116.6151,40.3053,北京市,怀柔新城,,19,15,28,9,20,60,,98,82,4,6,4,4,0.4,0.5
2025-09-28T2300,3696A,116.2545,39.8768,北京市,丰台小屯,颗粒物(PM10),52,54,47,19,23,5,,111,77,75,32,2,2,0.6,0.6
2025-09-28T2300,3697A,116.84,40.3844,北京市,密云镇,,29,29,36,13,20,22,,107,58,30,25,4,4,0.5,0.6
2025-09-28T2300,4182A,116.1942,39.9158,北京市,八角北路9号,,25,25,64,7,26,52,,118,82,33,43,3,2,0.3,0.5
2025-09-28T2300,4194A,117.0790,40.1518,北京市,洳河巡河路,,23,23,31,15,20,29,,94,62,11,9,2,1,0.5,0.6
2025-09-28T2300,1761A,123.8275,41.3064,本溪市,大峪,,38,38,34,15,16,2,,69,38,36,23,7,8,0.7,0.7
2025-09-28T2300,1762A,123.7567,41.3325,本溪市,溪湖,,46,46,44,20,20,5,,63,37,29,28,6,7,1.0,1.3
2025-09-28T2300,1763A,123.7169,41.3094,本溪市,彩屯,细颗粒物(PM2.5),54,45,49,38,42,0,,52,25,31,32,6,8,1.1,1.4
2025-09-28T2300,1764A,123.7669,41.2864,本溪市,东明,颗粒物(PM10),52,54,39,23,18,8,,62,36,43,32,6,7,1.1,1.2
2025-09-28T2300,1765A,123.7992,41.2664,本溪市,新立屯,,38,36,28,26,17,7,,60,26,41,27,6,7,0.9,1
2025-09-28T2300,1766A,123.8142,41.3472,本溪市,威宁,,39,39,30,23,17,3,,60,31,21,19,5,5,0.9,0.6
2025-09-28T2300,2587A,105.2864,27.3125,毕节市,八中,,16,16,20,9,13,44,,52,46,5,9,10,10,0.1,0.2
2025-09-28T2300,2588A,105.31,27.2944,毕节市,师专,,15,13,18,10,13,43,,51,46,6,9,7,7,0.2,0.3
2025-09-28T2300,4263A,105.3688,27.3598,毕节市,工业大道,,19,19,19,11,10,46,,55,52,8,9,8,8,0.5,0.5
2025-09-28T2300,1629A,118.0018,37.3617,滨州市,第二水厂,细颗粒物(PM2.5),63,66,41,45,33,65,,101,83,18,12,5,4,0.6,0.5
2025-09-28T2300,1630A,117.9776,37.393,滨州市,北中新校,细颗粒物(PM2.5),62,58,41,44,30,68,,106,91,22,12,6,6,0.4,0.3
2025-09-28T2300,3514A,117.9378,37.3956,滨州市,中海酒店,细颗粒物(PM2.5),64,68,41,46,33,58,,93,78,26,15,3,3,0.7,0.6
2025-09-28T2300,3515A,117.9378,37.3553,滨州市,开发区一中,细颗粒物(PM2.5),67,70,44,48,36,58,,110,83,32,18,4,4,1.1,0.9
2025-09-28T2300,3516A,118.0917,37.694,滨州市,金海六路,细颗粒物(PM2.5),100,76,44,75,43,49,,105,81,34,20,7,4,0.7,0.5
2025-09-28T2300,4028A,117.9956,37.3753,滨州市,滨州市西街道办事处,细颗粒物(PM2.5),70,56,31,51,35,65,,101,87,16,11,4,3,0.6,0.5
2025-09-28T2300,2311A,115.8072,33.8399,亳州市,污水处理厂,,33,,11,23,15,42,,66,57,14,9,4,4,0.7,0.6
2025-09-28T2300,2312A,115.7789,33.8518,亳州市,三国揽胜宫,,30,25,17,21,13,45,,71,63,9,8,4,4,0.7,0.6
2025-09-28T2300,3332A,115.7633,33.8034,亳州市,亳州学院,,29,27,15,20,9,46,,79,75,8,6,3,3,0.8,0.7
2025-09-28T2300,2693A,82.0485,44.8556,博尔塔拉蒙古自治州,市党校,颗粒物(PM10),52,54,37,21,28,75,,101,96,14,11,4,6,0.2,0.3
2025-09-28T2300,2694A,82.0806,44.8969,博尔塔拉蒙古自治州,市环保局,颗粒物(PM10),82,114,44,33,16,8,,103,77,76,20,7,6,1.0,0.3
2025-09-28T2300,1071A,116.8842,38.2991,沧州市,沧县城建局,颗粒物(PM10),56,62,49,36,34,44,,133,96,70,25,5,3,0.7,0.5
2025-09-28T2300,1072A,116.8584,38.3254,沧州市,电视转播站,细颗粒物(PM2.5),58,61,54,41,35,41,,123,93,48,18,1,2,0.8,0.5
2025-09-28T2300,1073A,116.8709,38.3228,沧州市,市环保局,颗粒物(PM10),75,99,59,43,38,53,,133,102,49,18,8,7,0.7,0.4
2025-09-28T2300,3324A,116.8136,38.3004,沧州市,河北水利电力学院,细颗粒物(PM2.5),67,75,45,48,35,30,,126,80,87,31,3,3,0.7,0.5
2025-09-28T2300,2622A,97.1806,31.1273,昌都市,昌都监测站,,16,,13,11,9,49,,78,68,8,9,4,4,0.3,0.2
2025-09-28T2300,3719A,97.1714,31.1406,昌都市,昌都会议中心,,20,8,11,6,6,62,,88,82,4,5,4,4,0.0,0
2025-09-28T2300,2690A,88.1236,43.8886,昌吉回族自治州,天山天池,,27,27,35,9,10,52,,80,64,10,9,5,6,0.0,0
2025-09-28T2300,2692A,87.2717,44.0297,昌吉回族自治州,新区政务中心,颗粒物(PM10),59,68,40,23,13,3,,100,80,75,25,8,7,1.6,0.5
2025-09-28T2300,3613A,87.3095,44.0142,昌吉回族自治州,亚心广场,颗粒物(PM10),81,112,61,41,13,4,,99,76,92,35,11,9,1.5,0.6
2025-09-28T2300,1120A,125.2863,43.9027,长春市,客车厂,,38,38,31,20,16,42,,82,66,46,26,6,6,0.6,0.5
2025-09-28T2300,1121A,125.2841,43.8463,长春市,邮电学院,,30,30,28,13,15,53,,86,59,30,18,5,5,0.5,0.5
2025-09-28T2300,1122A,125.3716,43.8772,长春市,劳动公园,,46,46,37,26,18,22,,82,47,39,21,6,7,0.6,0.5
2025-09-28T2300,1123A,125.3297,43.8805,长春市,园林处,,32,30,30,22,16,59,,83,64,31,25,4,4,0.6,0.5
2025-09-28T2300,1124A,125.4605,43.79,长春市,净月潭,,19,19,21,12,12,32,,77,54,7,7,4,4,0.4,0.4
2025-09-28T2300,1126A,125.3863,43.8447,长春市,经开区环卫处,,36,36,30,17,13,26,,78,53,34,24,5,5,0.6,0.5
2025-09-28T2300,1127A,125.245,43.7783,长春市,高新区管委会,,29,26,25,20,14,13,,88,54,43,18,4,4,0.5,0.4
2025-09-28T2300,1128A,125.1761,43.8325,长春市,岱山公园,,45,44,34,31,19,4,,83,41,76,38,6,5,0.5,0.5
2025-09-28T2300,4281A,125.3346,43.9164,长春市,北亚泰大街1068号,,41,41,36,25,19,38,,72,56,48,32,9,9,0.7,0.6
2025-09-28T2300,1335A,113.0833,28.2325,长沙市,经开区环保局,,,,51,,30,,,150,141,20,24,4,5,0.6,0.7
2025-09-28T2300,1336A,112.8872,28.2189,长沙市,高开区环保局,颗粒物(PM10),69,88,63,43,35,53,,156,129,35,24,5,5,0.7,0.7
2025-09-28T2300,1337A,113.0792,28.2053,长沙市,马坡岭,,,60,59,39,37,,,194,167,22,31,18,7,0.6,0.7
2025-09-28T2300,1338A,112.9394,28.19,长沙市,湖南师范大学,颗粒物(PM10),55,60,49,38,29,61,,157,124,32,22,4,4,0.9,0.9
2025-09-28T2300,1339A,113.0178,28.1322,长沙市,雨花区环保局,,,71,61,,48,58,,165,134,47,33,7,6,0.8,1
2025-09-28T2300,1340A,112.9792,28.2597,长沙市,伍家岭,颗粒物(PM10),61,72,57,41,33,38,,153,117,31,26,3,3,0.5,0.7
2025-09-28T2300,1341A,113.0014,28.1944,长沙市,火车新站,细颗粒物(PM2.5),62,71,62,44,47,56,,165,125,39,35,7,7,0.9,1
2025-09-28T2300,1342A,112.9844,28.1178,长沙市,天心区环保局,颗粒物(PM10),68,86,57,48,34,80,,175,151,40,32,6,4,1.1,1
2025-09-28T2300,1343A,112.8908,28.1308,长沙市,湖南中医药大学,细颗粒物(PM2.5),68,78,54,49,26,10,,147,81,62,21,4,5,1.3,1.1
2025-09-28T2300,1344A,112.9581,28.3611,长沙市,沙坪,颗粒物(PM10),60,69,46,26,22,51,,136,112,6,12,3,3,0.6,0.7
2025-09-28T2300,1727A,113.1147,36.1547,长治市,清华站,细颗粒物(PM2.5),64,70,36,46,32,15,,78,44,37,25,9,10,1.2,1.1
2025-09-28T2300,1730A,113.0886,36.2125,长治市,审计局,细颗粒物(PM2.5),67,67,30,48,28,8,,79,54,56,27,6,7,1.2,1
2025-09-28T2300,1731A,113.0844,36.1856,长治市,长治八中,细颗粒物(PM2.5),80,94,41,59,35,4,,76,48,47,22,8,9,1.2,1.1
2025-09-28T2300,2845A,113.1569,36.1911,长治市,德盛苑,细颗粒物(PM2.5),58,49,37,41,29,44,,80,66,16,18,11,11,1.1,1
2025-09-28T2300,3568A,113.06,36.0464,长治市,向阳小学,颗粒物(PM10),69,87,58,47,33,22,,82,48,33,25,11,10,1.5,1.1
2025-09-28T2300,3569A,112.8792,36.3144,长治市,屯留一中,,45,45,33,22,24,14,,77,40,32,21,8,10,0.7,0.7
2025-09-28T2300,4189A,113.1131,36.19948,长治市,英华南巷50号,细颗粒物(PM2.5),67,78,42,48,31,15,,74,39,35,28,9,10,1.4,1.2
2025-09-28T2300,4190A,113.2367,36.3344,长治市,学府街1号,颗粒物(PM10),68,86,60,32,39,3,,73,32,46,29,9,13,1.1,1.2
2025-09-28T2300,1854A,111.6975,28.9703,常德市,市二中,细颗粒物(PM2.5),70,,30,51,24,49,,66,66,17,14,6,6,0.6,0.6
2025-09-28T2300,3138A,111.7153,29.0289,常德市,武陵区永安,细颗粒物(PM2.5),58,49,29,41,20,57,,78,76,8,8,5,5,0.7,0.6
2025-09-28T2300,3139A,111.6892,28.9881,常德市,鼎城区玉霞,,50,46,32,35,23,66,,76,76,6,10,3,5,0.7,0.7
2025-09-28T2300,3140A,111.6625,29.0531,常德市,武陵区长庚,细颗粒物(PM2.5),55,44,30,39,22,50,,79,76,10,7,2,3,0.6,0.5
2025-09-28T2300,1196A,119.9633,31.762,常州市,市监测站,,14,14,42,8,28,39,,136,85,18,25,13,12,0.8,0.9
2025-09-28T2300,1200A,119.9468,31.7069,常州市,武进监测站,,18,16,39,12,28,40,,127,84,17,24,8,9,0.9,0.9
2025-09-28T2300,1201A,119.9255,31.9087,常州市,安家,,29,29,47,18,23,36,,116,70,27,26,8,8,0.7,0.7
2025-09-28T2300,3002A,119.9805,31.8174,常州市,行政中心,,25,25,45,11,28,41,,126,80,21,31,4,3,0.9,0.9
2025-09-28T2300,3003A,120.0522,31.7748,常州市,经开区,,25,25,52,16,30,27,,136,80,29,30,7,8,1.0,1.1
2025-09-28T2300,3010A,119.9025,31.7964,常州市,钟楼,,26,26,46,13,28,39,,132,83,25,28,11,9,0.7,0.8
2025-09-28T2300,3429A,119.8598,31.7066,常州市,武进经发区,,23,23,48,13,27,17,,125,74,43,33,9,9,1.0,1
2025-09-28T2300,3430A,119.5826,31.7245,常州市,金坛城区,,20,18,44,14,27,40,,125,79,18,21,8,8,1.0,0.9
2025-09-28T2300,2220A,120.4318,41.5881,朝阳市,西梁,颗粒物(PM10),64,78,48,29,37,1,,109,50,51,24,6,7,0.9,1
2025-09-28T2300,2221A,120.4521,41.5646,朝阳市,河畔小区,,35,35,40,15,31,46,,117,77,23,16,6,7,0.6,0.8
2025-09-28T2300,2222A,120.4176,41.5648,朝阳市,八里堡,细颗粒物(PM2.5),54,49,51,38,33,5,,113,47,53,29,6,7,0.8,1
2025-09-28T2300,2223A,120.3806,41.5969,朝阳市,农业园区,,18,18,34,8,29,41,,106,55,19,20,4,6,0.3,0.8
2025-09-28T2300,1705A,116.6367,23.6719,潮州市,西园路,,46,46,25,14,13,26,,86,53,17,11,5,4,0.3,0.3
2025-09-28T2300,3026A,116.6183,23.6608,潮州市,市政府,,42,42,27,17,12,32,,87,54,16,9,12,9,0.6,0.4
2025-09-28T2300,4036A,116.6461,23.6761,潮州市,金山,,26,26,28,15,10,19,,88,52,14,8,6,5,0.6,0.5
2025-09-28T2300,2473A,113.0116,25.8226,郴州市,市职中,,49,49,37,33,26,0,,55,20,21,13,4,4,0.8,0.7
2025-09-28T2300,2475A,113.0383,25.8071,郴州市,市审计局,,46,46,41,32,31,0,,66,37,20,12,5,7,0.9,0.8
2025-09-28T2300,2476A,113.0348,25.7759,郴州市,市环保局,颗粒物(PM10),52,54,45,27,31,3,,71,37,28,18,5,7,0.7,0.7
2025-09-28T2300,4252A,113.0138,25.8011,郴州市,好美居路49号,颗粒物(PM10),52,54,40,28,26,0,,63,25,24,19,5,6,0.9,0.8
2025-09-28T2300,1431A,103.9728,30.7236,成都市,金泉两河,,14,8,16,3,4,44,,41,40,14,13,2,2,0.6,0.6
2025-09-28T2300,1432A,104.176,30.6872,成都市,十里店,,17,17,14,7,7,38,,48,44,22,14,3,2,0.6,0.6
2025-09-28T2300,1433A,104.079,30.5706,成都市,三瓦窑,,,28,16,9,7,,,55,54,,14,,4,,0.5
2025-09-28T2300,1434A,104.1114,30.63,成都市,沙河铺,,21,21,18,11,6,32,,36,34,26,19,3,2,0.7,0.7
2025-09-28T2300,1437A,104.0786,30.6531,成都市,君平街,,25,25,20,3,8,35,,52,47,12,5,5,5,0.6,0.6
2025-09-28T2300,2880A,104.0239,30.65639,成都市,大石西路,,24,24,18,3,10,34,,45,41,19,15,2,2,0.6,0.6
2025-09-28T2300,3136A,104.2725,30.5589,成都市,龙泉驿区区政府,,13,9,4,7,2,39,,56,54,19,14,4,4,0.5,0.5
2025-09-28T2300,3357A,104.0106,30.6931,成都市,金博路,,15,15,10,3,4,38,,44,41,19,17,6,6,0.4,0.4
2025-09-28T2300,3359A,104.0578,30.5225,成都市,华阳,,16,9,11,3,11,50,,48,48,18,15,4,4,0.5,0.6
2025-09-28T2300,3489A,104.0789,30.4072,成都市,科学城,,18,6,10,3,7,56,,58,58,14,14,4,4,0.5,0.6
2025-09-28T2300,4011A,103.8506,30.6947,成都市,光华大道三段,,17,13,21,3,13,52,,46,46,13,16,2,2,0.7,0.8
2025-09-28T2300,4224A,104.2433,30.5353,成都市,鲸龙路1057号,,13,6,8,3,6,40,,55,52,25,20,4,4,0.6,0.6
2025-09-28T2300,1062A,117.9531,40.9081,承德市,铁路,,30,30,36,17,19,20,,82,42,20,23,2,3,0.3,0.4
2025-09-28T2300,1063A,117.9392,40.9763,承德市,中国银行,,42,42,32,12,13,2,,80,34,22,18,1,2,0.4,0.4
2025-09-28T2300,1064A,117.9503,40.928,承德市,开发区,,36,36,42,18,18,16,,90,51,24,19,3,3,0.4,0.4
2025-09-28T2300,1066A,117.9268,41.0026,承德市,离宫,,28,27,26,19,13,17,,72,41,22,15,5,5,0.3,0.3
2025-09-28T2300,4274A,117.7994,40.9605,承德市,滨河大街98号,,22,22,25,12,16,7,,101,51,24,11,1,2,0.3,0.5
2025-09-28T2300,2314A,117.47,30.6618,池州市,池州学院,,22,22,39,13,26,57,,108,86,12,19,6,7,0.6,0.8
2025-09-28T2300,3237A,117.4918,30.6617,池州市,展览馆,,24,24,42,13,24,53,,107,86,17,22,6,7,0.6,0.8
2025-09-28T2300,3333A,117.5627,30.695,池州市,第八中学,,27,27,44,14,24,49,,106,83,13,22,6,7,0.8,0.9
2025-09-28T2300,3334A,117.5038,30.6243,池州市,第十二中学,,26,26,40,16,22,58,,113,85,12,26,4,4,1.0,1.1
2025-09-28T2300,1744A,118.9233,42.2816,赤峰市,松山一中,颗粒物(PM10),65,80,34,28,13,3,,100,40,55,29,10,8,0.8,0.6
2025-09-28T2300,1745A,118.9576,42.2728,赤峰市,哈达街,,43,43,36,18,12,39,,98,45,27,26,11,11,0.5,0.5
2025-09-28T2300,1746A,118.8788,42.2554,赤峰市,天义路,,38,38,27,19,15,40,,96,39,24,24,15,9,0.6,0.6
2025-09-28T2300,3058A,119.2658,42.0353,赤峰市,银河街,颗粒物(PM10),58,65,37,21,22,7,,84,46,40,16,38,15,0.8,0.5
2025-09-28T2300,3286A,118.9359,42.3147,赤峰市,桥北物流园区,颗粒物(PM10),61,72,36,40,22,26,,95,40,30,30,8,7,0.5,0.5
2025-09-28T2300,2521A,107.3476,22.4136,崇左市,市环保局江州分局,,13,12,25,9,11,32,,60,45,7,9,3,3,0.7,0.8
2025-09-28T2300,4256A,107.3750,22.3736,崇左市,石景林东路7号,,11,9,21,6,12,34,,64,48,9,10,4,5,0.6,0.6
2025-09-28T2300,2298A,118.3093,32.3153,滁州市,老年大学,,33,33,27,19,22,64,,59,59,2,3,5,4,0.4,0.4
2025-09-28T2300,2299A,118.3244,32.2786,滁州市,人大宾馆,,25,21,24,17,21,65,,66,63,5,6,4,4,0.6,0.6
2025-09-28T2300,3207A,118.3118,32.3038,滁州市,市政府原办公楼,,35,27,26,24,26,68,,64,63,9,8,6,5,0.5,0.5
2025-09-28T2300,3331A,118.3267,32.2634,滁州市,图书馆,,28,,33,19,20,69,,63,62,4,7,8,8,0.6,0.6
2025-09-28T2300,2605A,101.5482,25.0441,楚雄彝族自治州,州环境监测站,,,,13,,10,0,,30,21,20,10,10,6,,0.6
2025-09-28T2300,2606A,101.538,25.0492,楚雄彝族自治州,市经济开发区,,29,29,11,20,13,1,,31,20,20,11,5,5,0.7,0.7
2025-09-28T2300,2548A,107.5277,31.2827,达州市,达州职业技术学院,,17,17,30,3,3,30,,25,17,7,12,8,12,0.3,0.3
2025-09-28T2300,2549A,107.5086,31.2186,达州市,市环境监测站,,,3,25,,4,27,,21,14,9,21,6,8,0.3,0.5
2025-09-28T2300,2550A,107.4988,31.2132,达州市,凤凰小区,,9,6,26,3,9,28,,24,17,6,20,6,7,0.3,0.5
2025-09-28T2300,2551A,107.5082,31.1986,达州市,达县机关宾馆,,12,12,26,7,5,17,,21,13,13,21,5,7,0.3,0.4
2025-09-28T2300,2552A,107.4644,31.2124,达州市,市政中心,,21,21,37,3,5,16,,23,15,11,21,5,7,0.3,0.5
2025-09-28T2300,2614A,100.1542,25.7054,大理白族自治州,大理市环境监测站,,23,23,11,12,10,10,,47,37,23,8,5,4,0.8,0.8
2025-09-28T2300,2615A,100.2171,25.5811,大理白族自治州,大理古城,,12,,14,8,8,27,,47,35,9,9,6,6,0.7,0.7
2025-09-28T2300,1109A,121.612,38.9741,大连市,甘井子,颗粒物(PM10),83,116,62,54,32,97,,145,133,31,19,7,7,0.7,0.6
2025-09-28T2300,1110A,121.565,38.9511,大连市,周水子,细颗粒物(PM2.5),72,76,44,52,31,88,,145,116,28,22,4,3,0.9,0.6
2025-09-28T2300,1111A,121.5637,38.8845,大连市,星海三站,颗粒物(PM10),70,89,47,49,29,100,,150,134,13,6,5,4,0.7,0.5
2025-09-28T2300,1112A,121.6302,38.9117,大连市,青泥洼桥,"颗粒物(PM10),细颗粒物(PM2.5)",93,136,61,69,33,57,,143,115,36,17,9,9,1.2,0.8
2025-09-28T2300,1113A,121.6251,38.8638,大连市,傅家庄,细颗粒物(PM2.5),80,72,33,59,29,98,,137,126,25,14,12,10,1.2,0.9
2025-09-28T2300,1114A,121.5213,38.8661,大连市,七贤岭,细颗粒物(PM2.5),60,59,33,43,25,74,,150,127,13,10,7,7,0.9,0.7
2025-09-28T2300,1115A,121.2529,38.8061,大连市,旅顺,颗粒物(PM10),63,75,33,40,23,119,,150,140,9,7,7,7,0.8,0.5
2025-09-28T2300,1116A,121.7485,39.1311,大连市,金州,颗粒物(PM10),76,101,57,53,33,116,,159,137,14,16,10,10,0.7,0.5
2025-09-28T2300,1117A,121.7811,39.0496,大连市,开发区,细颗粒物(PM2.5),92,104,61,68,33,24,,146,106,68,23,6,4,0.9,0.5
2025-09-28T2300,1118A,121.9762,39.0631,大连市,双D港,细颗粒物(PM2.5),63,50,27,45,22,124,,123,104,9,10,10,8,1.0,0.8
2025-09-28T2300,1789A,124.81117,46.03138,大庆市,大同区,,15,15,42,3,23,41,,101,68,8,11,9,10,0.6,0.9
2025-09-28T2300,1790A,125.129,46.533,大庆市,龙凤区,,29,29,45,8,14,48,,76,55,6,13,8,8,0.5,0.7
2025-09-28T2300,1791A,124.902,46.408,大庆市,红岗区,,28,28,38,17,19,43,,87,57,11,16,6,7,0.4,0.6
2025-09-28T2300,1792A,125.153,46.586,大庆市,萨尔图区,,23,23,40,10,17,46,,74,54,7,16,10,10,0.5,0.7
2025-09-28T2300,1793A,124.9042,46.6215,大庆市,让胡路区,,30,30,35,18,17,38,,78,52,13,16,6,6,0.4,0.5
2025-09-28T2300,3481A,125.141,46.634,大庆市,萨区政府监测点,,20,20,37,3,11,47,,80,57,5,11,8,9,0.5,0.6
2025-09-28T2300,1723A,113.2994,40.0758,大同市,云冈宾馆,颗粒物(PM10),52,54,35,19,20,11,,101,56,55,28,6,6,2.2,1
2025-09-28T2300,1724A,113.3444,40.0917,大同市,大同大学,颗粒物(PM10),66,82,41,19,18,21,,100,56,53,32,9,9,0.6,0.9
2025-09-28T2300,1725A,113.2661,40.1269,大同市,安家小村,颗粒物(PM10),61,72,31,19,15,6,,106,67,60,23,6,3,1.6,0.6
2025-09-28T2300,1726A,113.2711,40.0844,大同市,教育学院,颗粒物(PM10),110,169,42,21,17,14,,99,73,59,23,10,8,1.2,0.9
2025-09-28T2300,3282A,113.3397,40.0597,大同市,大同市卫生学校,颗粒物(PM10),57,64,40,17,18,21,,100,60,54,29,10,9,0.7,1
2025-09-28T2300,3565A,113.1367,40.1122,大同市,云冈站,颗粒物(PM10),90,130,45,30,17,5,,106,58,41,19,5,6,0.6,0.5
2025-09-28T2300,3566A,113.1186,40.2556,大同市,图书馆,,48,48,34,14,14,13,,105,61,28,14,4,4,0.7,0.6
2025-09-28T2300,3567A,113.5931,40.0461,大同市,区一中,,19,19,33,11,19,50,,121,78,14,16,5,6,0.6,0.7
2025-09-28T2300,4199A,113.2798,40.0997,大同市,魏都大道141号,颗粒物(PM10),57,64,36,20,19,8,,102,64,62,26,6,5,2.5,0.9
2025-09-28T2300,2269A,124.1069,50.4097,大兴安岭地区,科技局,,24,24,21,11,8,26,,55,48,10,4,8,5,0.2,0.1
2025-09-28T2300,3663A,124.1164,50.4278,大兴安岭地区,红旗社区,,24,24,8,8,4,10,,57,45,20,7,4,5,0.3,0.3
2025-09-28T2300,1600A,124.3303,40.0625,丹东市,江湾东路,,34,34,25,22,16,30,,83,61,26,21,6,8,1.1,0.6
2025-09-28T2300,1601A,124.4256,40.1503,丹东市,临江后街,,33,33,25,17,10,32,,72,49,26,20,7,6,0.9,0.7
2025-09-28T2300,1602A,124.3933,40.1461,丹东市,元宝山,,26,26,18,14,10,57,,72,63,12,12,8,7,0.9,0.7
2025-09-28T2300,1603A,124.3633,40.1092,丹东市,民主桥,,34,34,25,18,13,53,,76,54,24,23,5,5,0.9,0.6
2025-09-28T2300,3541A,109.5726,19.5167,儋州市,第一中学子站,,11,9,9,3,4,34,,36,36,1,1,5,5,0.4,0.4
2025-09-28T2300,3542A,109.5567,19.5187,儋州市,东坡学校子站,,13,,8,3,3,40,,42,41,3,3,3,3,0.2,0.2
2025-09-28T2300,2616A,98.5842,24.428,德宏傣族景颇族自治州,德宏州监测站,,30,23,33,21,19,22,,79,46,17,14,11,11,0.7,0.7
2025-09-28T2300,3677A,98.5881,24.4368,德宏傣族景颇族自治州,芒市人民政府综合楼,,31,31,32,20,17,20,,75,53,12,11,8,9,0.7,0.8
2025-09-28T2300,1901A,104.4239,31.1208,德阳市,东山公园,,17,,6,3,6,52,,50,49,7,10,5,5,0.6,0.6
2025-09-28T2300,1902A,104.3826,31.1317,德阳市,西小区,,12,11,10,8,7,30,,50,48,18,12,3,3,0.7,0.7
2025-09-28T2300,1904A,104.3553,31.1091,德阳市,耐火材料厂,,13,11,13,9,8,29,,48,45,16,14,1,1,0.7,0.8
2025-09-28T2300,3639A,104.4019,31.1244,德阳市,市教育局,,12,11,11,7,6,38,,44,43,14,10,6,6,0.8,0.8
2025-09-28T2300,1622A,116.3032,37.4674,德州市,儿童乐园,细颗粒物(PM2.5),107,80,54,80,48,52,,130,100,42,19,9,10,1.1,0.9
2025-09-28T2300,1624A,116.2991,37.4451,德州市,监理站,细颗粒物(PM2.5),117,92,53,88,48,38,,128,95,49,21,11,12,1.0,0.8
2025-09-28T2300,3066A,116.2721,37.4379,德州市,九衢泉纯净水厂,细颗粒物(PM2.5),77,88,50,56,33,3,,106,57,71,30,11,11,0.9,0.8
2025-09-28T2300,3371A,116.3728,37.4403,德州市,开发区人民医院,细颗粒物(PM2.5),70,80,45,51,32,71,,121,97,35,17,10,10,0.9,0.8
2025-09-28T2300,3511A,116.5652,37.3319,德州市,陵城艺术中心,细颗粒物(PM2.5),77,78,48,56,42,57,,128,98,52,24,13,11,1.0,0.8
2025-09-28T2300,4292A,116.3525,37.4209,德州市,新河东路,细颗粒物(PM2.5),70,83,47,51,32,38,,116,76,55,27,8,8,1.1,0.9
2025-09-28T2300,2621A,99.7056,27.8317,迪庆藏族自治州,迪庆州站,,18,16,16,12,10,36,,49,41,5,6,6,7,0.5,0.5
2025-09-28T2300,3180A,99.7136,27.8094,迪庆藏族自治州,质量技术监督局,,17,17,18,9,7,38,,50,42,6,9,8,8,0.5,0.5
2025-09-28T2300,4257A,104.6092,35.5962,定西市,将台街,细颗粒物(PM2.5),54,48,35,38,26,33,,107,86,40,17,7,7,0.7,0.6
2025-09-28T2300,4309A,104.6159,35.5701,定西市,正龙路62号,颗粒物(PM10),55,59,50,37,28,31,,103,77,25,12,5,5,0.4,0.3
2025-09-28T2300,1389A,113.7547,23.0494,东莞市,莞城梨川,,42,42,33,20,17,36,,93,58,22,20,7,7,0.6,0.6
2025-09-28T2300,1390A,113.7944,23.0128,东莞市,东城石井,颗粒物(PM10),51,51,44,18,15,27,,87,49,36,20,6,6,0.4,0.3
2025-09-28T2300,1391A,113.7383,22.9658,东莞市,南城西平,,35,35,28,11,11,20,,81,50,38,27,4,4,0.6,0.6
2025-09-28T2300,3319A,113.7338,23.0381,东莞市,万江金泰,,40,40,30,20,15,36,,85,55,23,19,6,5,0.5,0.5
2025-09-28T2300,3626A,113.7533,23.0202,东莞市,南城元岭,,44,44,28,17,12,30,,88,55,35,22,6,6,0.5,0.5
2025-09-28T2300,3627A,113.7875,23.0457,东莞市,东城主山,,36,36,36,16,16,28,,94,51,34,28,3,2,0.5,0.6
2025-09-28T2300,1666A,118.6614,37.4309,东营市,市环保局,细颗粒物(PM2.5),55,51,31,39,22,53,,100,77,29,20,9,6,0.6,0.5
2025-09-28T2300,3036A,118.6904,37.4338,东营市,开发区管委会,细颗粒物(PM2.5),70,80,42,51,29,63,,104,83,32,23,9,6,0.8,0.6
2025-09-28T2300,3365A,118.5719,37.565,东营市,垦利区民丰路,颗粒物(PM10),63,75,43,36,28,54,,100,82,24,17,5,4,0.9,0.7
2025-09-28T2300,3498A,118.5055,37.8612,东营市,河口城区,"颗粒物(PM10),细颗粒物(PM2.5)",64,78,39,46,25,44,,120,101,34,16,6,6,0.8,0.6
2025-09-28T2300,3646A,118.4978,37.4623,东营市,胜利站,细颗粒物(PM2.5),67,59,42,48,28,50,,104,88,41,24,7,7,1.0,0.6
2025-09-28T2300,3734A,118.35,37.26,东营市,理想之城,细颗粒物(PM2.5),64,66,39,46,30,47,,96,73,35,25,4,3,0.5,0.5
2025-09-28T2300,1591A,110.0023,39.8129,鄂尔多斯市,综合楼,,44,44,30,14,7,33,,91,58,61,28,8,9,0.6,0.5
2025-09-28T2300,1592A,109.9486,39.8261,鄂尔多斯市,巴音孟克林场办事处,,46,46,41,14,10,64,,96,58,37,33,7,8,0.5,0.6
2025-09-28T2300,1593A,109.7736,39.5986,鄂尔多斯市,康泽苑,,36,36,34,9,11,35,,95,53,24,21,6,7,0.3,0.4
2025-09-28T2300,1594A,109.8119,39.5989,鄂尔多斯市,华泰汽车城,,44,44,30,22,12,3,,88,41,47,28,5,5,0.8,0.4
2025-09-28T2300,1595A,109.9734,39.7884,鄂尔多斯市,奥林花园,颗粒物(PM10),59,68,36,17,8,0,,87,41,83,32,8,8,0.7,0.5
2025-09-28T2300,2436A,114.8938,30.3994,鄂州市,市政府,,46,46,44,25,20,20,,83,72,34,27,6,6,0.8,1
2025-09-28T2300,2437A,114.8989,30.3714,鄂州市,赵家坝,颗粒物(PM10),58,66,58,25,23,29,,105,86,28,20,7,7,0.8,0.9
2025-09-28T2300,3654A,114.8094,30.4089,鄂州市,精准医疗中心,颗粒物(PM10),54,58,40,19,26,31,,109,90,14,25,4,5,0.9,1
2025-09-28T2300,2454A,109.4978,30.2981,恩施土家族苗族自治州,湖北民院,,41,41,25,27,28,15,,64,48,14,12,6,6,0.5,1.2
2025-09-28T2300,2455A,109.4707,30.2798,恩施土家族苗族自治州,州电力总公司,,41,41,25,28,14,2,,54,36,24,14,7,7,0.6,0.5
2025-09-28T2300,3549A,109.5061,30.3772,恩施土家族苗族自治州,龙凤新区,,33,33,25,21,12,1,,57,35,9,7,10,7,0.6,0.6
2025-09-28T2300,2499A,108.3411,21.6158,防城港市,沙万,,19,13,24,13,16,23,,36,26,11,13,4,4,0.6,0.7
2025-09-28T2300,2500A,108.3514,21.7731,防城港市,防城档案局,,15,15,27,7,12,22,,39,29,6,11,3,3,0.6,0.6
2025-09-28T2300,2501A,108.3506,21.6414,防城港市,大海花园,,13,,20,9,15,31,,48,33,8,11,4,6,0.4,0.7
2025-09-28T2300,1371A,113.1294,23.0067,佛山市,湾梁,颗粒物(PM10),51,51,28,14,12,16,,76,52,55,36,8,7,0.4,0.3
2025-09-28T2300,1372A,113.1083,23.0478,佛山市,华材职中,,36,36,29,17,16,27,,93,64,39,25,6,5,0.7,0.6
2025-09-28T2300,1373A,113.144,23.0453,佛山市,南海气象局,,41,41,32,16,17,20,,88,58,51,31,9,7,0.7,0.6
2025-09-28T2300,1374A,113.2881,22.8094,佛山市,顺德苏岗,,32,32,34,9,10,1,,60,35,56,34,6,6,0.7,0.7
2025-09-28T2300,1376A,112.8383,22.8678,佛山市,高明孔堂,,38,38,25,13,12,14,,87,58,57,25,3,3,0.4,0.4
2025-09-28T2300,1377A,112.8836,23.1588,佛山市,三水监测站,,,39,37,19,28,,,78,54,46,32,7,7,0.6,0.6
2025-09-28T2300,1378A,112.867,23.185,佛山市,三水云东海,颗粒物(PM10),52,54,41,10,16,3,,90,36,49,33,1,2,0.7,0.8
2025-09-28T2300,3625A,113.2544,22.7642,佛山市,容桂街道办,,29,29,25,12,13,10,,69,41,40,25,7,7,0.7,0.7
2025-09-28T2300,1282A,119.2681,26.0504,福州市,师大,,17,17,22,6,6,48,,87,57,15,13,6,6,0.3,0.3
2025-09-28T2300,1283A,119.2984,26.1028,福州市,五四北路,,16,16,23,3,4,40,,75,54,11,11,4,4,0.2,0.3
2025-09-28T2300,1284A,119.2648,26.0768,福州市,杨桥西路,,15,15,19,3,5,39,,84,58,11,10,4,4,0.3,0.3
2025-09-28T2300,1285A,119.317,26.0746,福州市,紫阳,,19,19,25,8,6,37,,69,46,13,11,5,6,0.3,0.3
2025-09-28T2300,3048A,119.5799,26.0936,福州市,九龙,,13,8,14,3,4,40,,71,61,6,5,3,4,0.2,0.3
2025-09-28T2300,3526A,119.5189,25.9664,福州市,吴航,,13,12,14,3,6,39,,65,55,8,6,4,5,0.2,0.3
2025-09-28T2300,1755A,123.7977,41.8491,抚顺市,望花区,细颗粒物(PM2.5),63,55,51,45,35,12,,79,56,37,28,10,11,1.1,1.1
2025-09-28T2300,1756A,123.9161,41.8822,抚顺市,顺城区,,47,47,38,25,23,2,,78,37,42,33,7,7,0.9,0.9
2025-09-28T2300,1757A,124.0436,41.8611,抚顺市,东洲区,,20,,21,14,17,32,,87,65,8,8,3,5,0.6,0.6
2025-09-28T2300,1758A,123.9247,41.8642,抚顺市,新抚区,颗粒物(PM10),63,75,39,20,20,2,,69,30,35,28,7,13,0.8,1
2025-09-28T2300,1759A,124.0972,41.8961,抚顺市,大伙房水库,,26,18,22,18,16,17,,86,64,26,15,7,8,0.7,0.6
2025-09-28T2300,1760A,123.7086,41.8391,抚顺市,沈抚新城,细颗粒物(PM2.5),60,61,53,43,32,1,,88,56,55,39,6,9,1.5,1.5
2025-09-28T2300,2376A,116.2127,28.0814,抚州市,桐源党溪,,47,47,48,29,25,27,,102,45,18,13,1,3,1.0,1
2025-09-28T2300,2377A,116.3544,27.9831,抚州市,市站,,,,37,25,24,71,,123,92,10,8,14,5,0.7,0.7
2025-09-28T2300,2378A,116.3565,27.963,抚州市,血防站,,42,42,41,26,25,74,,119,93,7,6,8,6,0.6,0.6
2025-09-28T2300,2379A,116.3564,28.0007,抚州市,采茶剧团,颗粒物(PM10),51,52,44,32,24,63,,118,87,7,5,12,7,0.8,0.8
2025-09-28T2300,2380A,116.385,27.9647,抚州市,医学分院,,48,48,47,30,25,71,,119,90,5,4,4,8,0.7,0.8
2025-09-28T2300,2207A,121.6094,41.998,阜新市,工业园区,颗粒物(PM10),58,65,48,34,20,7,,114,66,58,24,9,13,0.8,0.7
2025-09-28T2300,2208A,121.6697,42.0279,阜新市,长青街,细颗粒物(PM2.5),62,57,34,44,21,28,,112,75,44,19,15,14,0.9,0.7
2025-09-28T2300,2209A,121.6673,42.0705,阜新市,农业园区,颗粒物(PM10),59,67,47,34,25,70,,113,94,20,15,13,10,1.0,0.9
2025-09-28T2300,2210A,121.6717,42.0224,阜新市,东苑,颗粒物(PM10),62,73,49,43,22,38,,106,77,45,26,30,21,1.0,0.8
2025-09-28T2300,2211A,121.6506,42.0498,阜新市,玉龙新城,颗粒物(PM10),68,86,48,39,23,2,,106,46,46,26,8,12,0.8,0.8
2025-09-28T2300,2301A,115.8277,32.8929,阜阳市,市监测站,,35,35,29,15,16,56,,73,62,17,14,4,4,0.6,0.6
2025-09-28T2300,2303A,115.8554,32.8605,阜阳市,开发区,,24,24,27,10,12,50,,70,62,18,12,7,6,0.6,0.6
2025-09-28T2300,2875A,115.784,32.8892,阜阳市,阜阳职业技术学院,,33,33,27,12,11,72,,81,74,11,11,5,5,0.7,0.6
2025-09-28T2300,3468A,115.7901,32.8613,阜阳市,市规划展馆,,29,29,33,19,18,64,,76,68,10,10,4,4,0.3,1
2025-09-28T2300,3469A,115.836,32.9183,阜阳市,枣园社区,,31,31,28,17,16,63,,78,70,13,12,6,5,0.8,0.7
2025-09-28T2300,2669A,102.9099,34.9841,甘南藏族自治州,州政府,,32,,15,22,14,54,,70,61,12,10,3,3,0.3,0.3
2025-09-28T2300,3380A,102.8914,34.9617,甘南藏族自治州,甘肃民族师范学院,,21,9,7,6,8,67,,84,76,10,12,4,4,0.4,0.4
2025-09-28T2300,2570A,101.9603,30.0475,甘孜藏族自治州,水桥子,,12,,5,3,4,36,,62,51,21,15,7,7,0.6,0.6
2025-09-28T2300,3065A,101.9533,29.9972,甘孜藏族自治州,州环保局,,13,13,13,3,6,38,,64,48,19,15,4,4,0.3,0.3
2025-09-28T2300,3414A,115.8347,28.932,赣江新区,桑海产业园,细颗粒物(PM2.5),72,75,51,52,33,103,,128,115,25,22,6,8,0.6,0.5
2025-09-28T2300,2363A,114.9367,25.8664,赣州市,地委,,48,48,33,25,20,17,,95,75,30,13,5,6,0.6,0.5
2025-09-28T2300,2364A,114.9461,25.8481,赣州市,气象台,,40,40,30,19,17,59,,104,90,8,12,6,6,0.4,0.5
2025-09-28T2300,2365A,114.9322,25.8333,赣州市,市图书馆,,33,28,31,23,21,53,,103,82,9,14,6,6,0.5,0.5
2025-09-28T2300,2366A,114.8905,25.8471,赣州市,华坚鞋城,颗粒物(PM10),52,54,36,31,20,44,,108,88,24,17,6,6,0.4,0.5
2025-09-28T2300,3109A,115.0093,25.8613,赣州市,赣县区卫计委,,35,,28,24,20,20,,75,48,18,14,7,7,0.6,0.5
2025-09-28T2300,2684A,106.2792,36.0022,固原市,监测站,,36,36,33,20,19,40,,106,83,33,23,7,7,0.6,0.6
2025-09-28T2300,2685A,106.2375,36.0211,固原市,新区,,40,40,33,12,21,13,,100,63,53,28,6,6,0.7,0.6
2025-09-28T2300,3522A,106.2177,35.9959,固原市,原州区十五小,,33,33,33,22,20,61,,108,90,23,20,7,8,0.6,0.6
2025-09-28T2300,2544A,106.6303,30.4576,广安市,市委,,19,14,27,13,16,30,,75,57,7,12,6,6,0.6,0.6
2025-09-28T2300,2545A,106.6271,30.4663,广安市,友谊中学,,15,15,24,10,13,33,,77,59,7,13,6,7,0.8,0.8
2025-09-28T2300,2547A,106.6388,30.4551,广安市,广电花园,,10,,21,6,13,30,,72,55,7,11,6,7,0.6,0.6
2025-09-28T2300,2902A,106.6351,30.4865,广安市,北辰小学,,13,11,24,9,15,32,,79,60,6,10,6,8,0.7,0.8
2025-09-28T2300,2523A,105.8945,32.4535,广元市,黑石坡,,18,12,10,6,7,55,,59,59,6,8,9,9,0.3,0.4
2025-09-28T2300,2524A,105.821,32.4444,广元市,老城,,23,14,12,3,3,72,,71,71,16,15,4,5,0.7,0.8
2025-09-28T2300,2526A,105.8628,32.4287,广元市,监测站,,20,13,12,3,8,64,,62,62,15,15,4,5,0.7,0.8
2025-09-28T2300,3617A,105.8047,32.4166,广元市,经开区,,22,8,7,6,4,70,,63,63,9,12,2,2,0.6,0.7
2025-09-28T2300,1345A,113.2347,23.1423,广州市,广雅中学,,42,42,37,22,17,29,,92,50,44,35,4,5,0.5,0.6
2025-09-28T2300,1346A,113.2612,23.105,广州市,市五中,,42,42,35,21,17,34,,99,59,44,33,6,7,0.4,0.4
2025-09-28T2300,1348A,113.3478,23.0916,广州市,广东商学院,,47,47,41,22,21,19,,91,47,57,40,4,5,0.2,0.2
2025-09-28T2300,1349A,113.4332,23.1047,广州市,市八十六中,,30,,15,21,17,22,,80,37,57,61,5,7,0.2,0.4
2025-09-28T2300,1350A,113.3505,22.9483,广州市,番禺中学,,30,30,32,13,15,27,,83,57,26,23,7,6,0.6,0.7
2025-09-28T2300,1351A,113.2146,23.3916,广州市,花都师范,,49,49,40,20,18,33,,104,46,39,33,5,5,0.6,0.5
2025-09-28T2300,1352A,113.2597,23.1331,广州市,市监测站,,43,43,37,18,16,26,,94,50,45,34,6,7,0.6,0.6
2025-09-28T2300,1353A,113.5618,23.312,广州市,九龙镇镇龙,,29,29,35,15,18,47,,91,54,13,20,7,8,0.5,0.5
2025-09-28T2300,1354A,113.2765,23.1544,广州市,麓湖,,34,34,31,19,17,14,,90,44,45,32,4,4,0.6,0.4
2025-09-28T2300,1355A,113.443,23.3035,广州市,帽峰山森林公园,,23,23,21,3,9,30,,95,50,16,9,5,5,0.6,0.6
2025-09-28T2300,2846A,113.3221,23.1322,广州市,体育西,,44,44,41,21,19,35,,93,51,39,36,4,6,0.5,0.5
2025-09-28T2300,3298A,113.5717,23.5491,广州市,从化街口,,44,44,30,27,19,10,,85,53,34,18,9,9,0.8,0.7
2025-09-28T2300,3299A,113.3472,23.3692,广州市,白云竹料,,47,47,37,27,20,24,,100,48,40,26,4,5,0.5,0.5
2025-09-28T2300,3300A,113.2981,23.237,广州市,白云嘉禾,,40,40,34,19,17,17,,96,39,49,32,4,5,0.6,0.6
2025-09-28T2300,3301A,113.4256,23.1716,广州市,黄埔科学城,,37,37,33,19,18,32,,100,41,26,23,4,3,0.5,0.5
2025-09-28T2300,3302A,113.3942,23.0483,广州市,番禺大学城,,40,38,43,28,20,2,,90,45,75,39,9,8,0.6,0.5
2025-09-28T2300,3303A,113.4922,22.8168,广州市,南沙黄阁,,35,35,28,13,12,19,,75,50,35,24,6,7,0.5,0.5
2025-09-28T2300,3304A,113.5342,22.7896,广州市,南沙街,,,30,27,13,12,,,80,,29,18,5,6,0.3,0.3
2025-09-28T2300,3443A,113.2902,23.5544,广州市,花都梯面,,18,18,32,7,15,24,,103,53,25,21,7,6,0.4,0.5
2025-09-28T2300,3445A,113.7858,23.7478,广州市,从化良口,,18,18,22,9,14,36,,69,52,10,11,5,5,0.7,0.7
2025-09-28T2300,3446A,113.8051,23.2614,广州市,增城荔城,,35,35,30,20,18,30,,96,62,18,12,5,6,0.5,0.4
2025-09-28T2300,2506A,109.6047,23.0666,贵港市,江南子站,,29,27,34,20,23,40,,43,43,17,19,7,7,0.9,0.9
2025-09-28T2300,2508A,109.5669,23.1065,贵港市,荷城子站,,14,14,22,7,12,40,,48,47,12,16,3,4,0.5,0.6
2025-09-28T2300,3405A,109.5886,23.1172,贵港市,新世纪学校,,22,22,25,13,16,42,,52,50,13,16,2,4,0.5,0.5
2025-09-28T2300,4260A,109.5933,23.0951,贵港市,中山路155-3号,,29,24,32,20,18,43,,52,51,14,15,4,5,0.5,0.6
2025-09-28T2300,1439A,106.6899,26.5998,贵阳市,马鞍山,,14,14,16,9,13,24,,59,43,10,9,2,3,0.7,0.6
2025-09-28T2300,1441A,106.6243,26.6266,贵阳市,鉴湖路,,31,31,22,7,7,25,,57,44,14,7,5,6,0.3,0.4
2025-09-28T2300,1442A,106.7487,26.6343,贵阳市,燕子冲,,18,17,13,12,15,29,,61,48,12,12,6,6,0.2,0.2
2025-09-28T2300,1443A,106.6555,26.4365,贵阳市,碧云窝,,24,24,27,7,7,17,,62,44,17,8,4,5,0.3,0.3
2025-09-28T2300,1445A,106.7109,26.6027,贵阳市,红边门,,24,24,26,9,15,27,,54,39,13,16,4,5,0,0.2
2025-09-28T2300,1446A,106.7164,26.5699,贵阳市,新华路,,17,17,26,3,8,29,,53,41,17,18,3,14,0.3,0.3
2025-09-28T2300,1447A,106.674,26.5424,贵阳市,太慈桥,,19,19,17,9,5,15,,66,44,17,10,3,4,0.1,0.1
2025-09-28T2300,4230A,106.6882,26.5695,贵阳市,花果园大街66号,,18,14,12,12,10,24,,59,45,15,12,3,4,0.6,0.5
2025-09-28T2300,4231A,106.6873,26.5169,贵阳市,漓江路57号,,32,22,21,22,12,21,,60,,18,13,9,8,0.7,0.5
2025-09-28T2300,1864A,110.3089,25.2708,桂林市,龙隐路小学,,49,49,31,32,19,26,,70,47,17,9,5,5,0.4,0.4
2025-09-28T2300,1865A,110.2869,25.2178,桂林市,八中,,41,41,29,21,17,24,,76,48,18,11,6,7,0.6,0.5
2025-09-28T2300,3531A,110.296,25.1253,桂林市,旅游学院,,28,24,25,19,18,16,,74,47,15,11,3,6,0.5,0.5
2025-09-28T2300,4222A,110.1835,25.2444,桂林市,环湖路276号,"颗粒物(PM10),细颗粒物(PM2.5)",52,53,30,36,18,25,,78,54,26,11,46,8,0.4,0.4
2025-09-28T2300,4301A,110.2803,25.2773,桂林市,信义路13号,,49,,26,34,21,33,,76,54,18,8,6,6,0.8,0.7
2025-09-28T2300,2674A,100.2561,34.4714,果洛藏族自治州,玛沁县大武镇,,47,47,35,23,18,99,,98,97,1,3,17,16,0.5,0.5
2025-09-28T2300,1129A,126.5422,45.755,哈尔滨市,岭北,,17,8,42,3,29,52,,110,83,16,20,10,9,0,0.6
2025-09-28T2300,1130A,126.561,45.8167,哈尔滨市,松北商大,,20,20,51,7,23,30,,85,54,18,28,7,8,0.3,0.6
2025-09-28T2300,1131A,126.979,45.5419,哈尔滨市,阿城会宁,颗粒物(PM10),64,77,53,43,32,10,,112,74,47,14,6,8,0.8,0.6
2025-09-28T2300,1132A,126.599,45.7222,哈尔滨市,南岗学府路,,25,25,60,3,27,37,,100,70,24,28,9,11,0.2,0.5
2025-09-28T2300,1133A,126.689,45.7733,哈尔滨市,太平宏伟公园,,27,27,60,10,27,39,,100,71,12,24,7,10,0.3,0.7
2025-09-28T2300,1134A,126.635,45.7667,哈尔滨市,道外承德广场,,34,34,72,11,27,34,,96,70,19,26,7,9,0.5,0.9
2025-09-28T2300,1135A,126.685,45.7319,哈尔滨市,香坊红旗大街,,24,24,61,3,33,36,,102,71,21,34,8,12,0.4,0.7
2025-09-28T2300,1136A,126.6411,45.7258,哈尔滨市,动力和平路,,18,18,60,3,36,39,,104,75,16,30,6,9,0.4,0.7
2025-09-28T2300,1137A,126.593,45.7478,哈尔滨市,道里建国路,,20,17,57,14,28,40,,93,65,14,29,6,9,0.4,1
2025-09-28T2300,1138A,126.615,45.61,哈尔滨市,平房东轻厂,,38,38,59,16,23,13,,98,43,45,27,8,10,0.4,0.7
2025-09-28T2300,1139A,126.595,45.9855,哈尔滨市,呼兰师专,,22,22,49,12,38,33,,100,68,15,20,6,6,0.4,0.7
2025-09-28T2300,1140A,126.6206,45.6842,哈尔滨市,省农科院,,29,29,79,6,34,33,,96,65,20,30,5,5,0.5,0.8
2025-09-28T2300,2688A,93.5128,42.8172,哈密市,地区监测站,,,,45,,16,,,104,,,21,,8,,0.2
2025-09-28T2300,2689A,93.4961,42.8328,哈密市,哈密师范学校,颗粒物(PM10),54,58,51,23,17,61,,103,85,20,24,6,6,0.5,0.5
2025-09-28T2300,2671A,100.9048,36.9639,海北藏族自治州,海晏县西海镇,,33,26,20,23,17,92,,101,97,4,4,9,11,0.5,0.6
2025-09-28T2300,3867A,102.0738,36.5056,海东市,平安区公安北苑,,38,34,36,26,24,81,,97,90,11,11,23,12,0.6,1
2025-09-28T2300,1409A,110.576,19.9507,海口市,东寨港,,,12,13,,,16,,18,16,2,2,1,2,0.0,0
2025-09-28T2300,1410A,110.3232,20.0574,海口市,海南大学,,21,21,20,8,8,41,,44,43,1,2,4,4,0.2,0.2
2025-09-28T2300,1411A,110.283,20.0053,海口市,秀英海南医院,,25,25,18,9,7,36,,39,38,3,3,6,6,0.2,0.2
2025-09-28T2300,1412A,110.338,19.9969,海口市,海南师范大学,,25,25,18,8,7,40,,43,42,3,3,4,4,0.3,0.3
2025-09-28T2300,1413A,110.33,20.0356,海口市,龙华路环保局宿舍,,24,24,17,7,7,38,,42,41,3,3,6,6,0.2,0.2
2025-09-28T2300,3539A,110.5111,19.9736,海口市,桂林洋子站,,21,21,18,9,7,38,,41,40,2,3,5,5,0.2,0.2
2025-09-28T2300,2673A,100.6188,36.2866,海南藏族自治州,共和县恰卜恰镇,,36,36,21,10,7,60,,103,90,21,5,13,12,0.6,0.5
2025-09-28T2300,2676A,97.3731,37.3753,海西蒙古族藏族自治州,德令哈市,颗粒物(PM10),56,61,38,27,17,80,,112,105,11,4,13,14,1.1,1
2025-09-28T2300,1048A,114.5302,36.6116,邯郸市,东污水处理厂,颗粒物(PM10),57,63,50,38,42,16,,98,58,39,23,8,8,1.4,1.3
2025-09-28T2300,1049A,114.4918,36.5713,邯郸市,矿院,细颗粒物(PM2.5),52,49,37,36,37,19,,97,56,33,22,5,6,1.0,1.2
2025-09-28T2300,1050A,114.484,36.6133,邯郸市,丛台公园,颗粒物(PM10),55,59,41,29,32,21,,54,,47,22,9,7,1.1,1.1
2025-09-28T2300,3458A,114.7895,36.5593,邯郸市,香泉濮院小区,颗粒物(PM10),54,58,35,35,27,25,,91,56,29,14,6,5,1.1,1
2025-09-28T2300,3579A,114.50634,36.77178,邯郸市,永年区实验高中,颗粒物(PM10),55,60,59,32,35,27,,96,69,29,24,6,9,2.4,2.1
2025-09-28T2300,3580A,114.20016,36.44293,邯郸市,峰峰矿区临水派出所,"颗粒物(PM10),细颗粒物(PM2.5)",55,60,43,39,31,64,,109,74,18,13,10,7,1.3,1
2025-09-28T2300,2634A,106.9893,33.1842,汉中市,汉川机床厂子校,,19,9,14,3,8,60,,62,62,9,17,3,4,0.6,0.8
2025-09-28T2300,2635A,107.0154,33.0706,汉中市,市监测站,,15,,8,6,9,47,,55,55,9,11,3,4,0.6,0.8
2025-09-28T2300,2636A,107.0089,33.1138,汉中市,鑫源开发区,,11,10,14,3,8,34,,48,45,16,16,3,4,0.7,0.9
2025-09-28T2300,2637A,107.007,33.0323,汉中市,南郑大河坎水厂,,12,8,13,3,9,38,,49,49,18,12,1,1,0.6,0.7
2025-09-28T2300,1223A,120.2072,30.2111,杭州市,滨江,细颗粒物(PM2.5),65,66,58,47,35,124,,148,139,16,23,7,7,0.7,0.5
2025-09-28T2300,1224A,120.0633,30.2747,杭州市,西溪,细颗粒物(PM2.5),68,56,37,49,37,103,,121,116,20,21,6,6,0.7,0.5
2025-09-28T2300,1226A,120.3417,30.3150,杭州市,下沙,细颗粒物(PM2.5),55,54,43,39,29,110,,160,125,18,22,8,8,0.8,0.5
2025-09-28T2300,1227A,120.1269,30.2456,杭州市,卧龙桥,细颗粒物(PM2.5),65,61,46,47,35,33,,137,71,14,13,8,8,0.8,0.6
2025-09-28T2300,1228A,120.1903,30.2692,杭州市,浙江农大,细颗粒物(PM2.5),70,67,63,51,39,94,,119,108,23,26,6,6,0.9,0.7
2025-09-28T2300,1230A,120.1197,30.3119,杭州市,和睦小学,颗粒物(PM10),58,65,50,40,31,109,,134,126,16,20,6,5,0.9,0.7
2025-09-28T2300,1231A,120.3019,30.4183,杭州市,临平镇,"颗粒物(PM10),细颗粒物(PM2.5)",60,69,58,43,32,123,,162,146,15,19,6,6,1.0,0.7
2025-09-28T2300,1232A,120.2753,30.1839,杭州市,城厢镇,细颗粒物(PM2.5),74,54,56,54,44,118,,144,133,17,29,4,4,0.9,0.6
2025-09-28T2300,1233A,120.0883,30.1808,杭州市,云栖,细颗粒物(PM2.5),77,68,46,56,39,34,,143,81,18,20,6,6,1.0,0.8
2025-09-28T2300,3557A,119.9464,30.0494,杭州市,镇二中,细颗粒物(PM2.5),89,,50,66,56,53,,141,88,26,24,4,5,0.7,0.6
2025-09-28T2300,3558A,119.7183,30.2367,杭州市,市府大楼,细颗粒物(PM2.5),54,46,40,38,32,106,,121,107,11,14,9,8,0.7,0.5
2025-09-28T2300,3656A,120.1556,30.2864,杭州市,消防大队,细颗粒物(PM2.5),67,59,51,48,36,103,,136,130,17,18,8,8,0.5,0.4
2025-09-28T2300,1270A,117.1959,31.7848,合肥市,明珠广场,,24,24,24,14,16,50,,62,54,16,21,6,6,0.8,0.7
2025-09-28T2300,1271A,117.3072,31.8764,合肥市,三里街,,36,36,28,17,12,50,,64,56,13,18,4,4,0.8,0.7
2025-09-28T2300,1272A,117.2588,31.8707,合肥市,琥珀山庄,,35,34,25,24,18,57,,69,62,11,12,9,9,0.7,0.6
2025-09-28T2300,1273A,117.1604,31.9052,合肥市,董铺水库,,24,24,27,12,14,48,,55,51,9,9,5,5,0.5,0.4
2025-09-28T2300,1274A,117.25,31.8571,合肥市,长江中路,,34,34,30,16,13,58,,70,64,9,11,7,7,0.8,0.7
2025-09-28T2300,1275A,117.266,31.9436,合肥市,庐阳区,,39,39,29,19,12,56,,67,61,16,15,6,7,0.9,0.8
2025-09-28T2300,1276A,117.3453,31.8616,合肥市,瑶海区,,34,34,31,20,15,49,,67,58,14,26,8,7,0.9,0.8
2025-09-28T2300,1277A,117.3027,31.7964,合肥市,包河区,,27,27,29,12,16,44,,67,49,28,33,9,10,0.8,0.8
2025-09-28T2300,1278A,117.2776,31.7385,合肥市,滨湖新区,,35,31,31,24,23,54,,71,58,13,24,4,6,0.9,0.9
2025-09-28T2300,1279A,117.1318,31.8403,合肥市,高新区,,34,34,26,21,16,57,,66,57,14,16,5,5,0.9,0.8
2025-09-28T2300,3464A,117.3803,31.9147,合肥市,高教基地,,34,34,27,19,15,47,,67,58,13,13,6,6,0.7,0.6
2025-09-28T2300,3614A,79.924,37.0877,和田地区,地区环保局,颗粒物(PM10),129,207,175,67,47,55,,92,81,27,14,2,2,0.3,0.1
2025-09-28T2300,3615A,79.9131,37.113,和田地区,市环保局,颗粒物(PM10),157,264,179,56,42,6,,93,76,73,32,4,5,1.3,0.5
2025-09-28T2300,2517A,108.0497,24.6947,河池市,市环保站,,23,23,26,9,9,4,,54,21,18,12,5,6,0.6,0.6
2025-09-28T2300,2518A,108.0983,24.6989,河池市,市疾控中心,,32,32,27,11,11,15,,52,29,14,15,7,8,0.7,0.7
2025-09-28T2300,1696A,114.6778,23.7569,河源市,源西,,28,28,10,12,13,19,,81,53,32,18,4,4,0.8,0.7
2025-09-28T2300,1697A,114.6944,23.7586,河源市,东埔,,34,34,29,13,14,13,,72,53,38,17,4,5,0.4,0.4
2025-09-28T2300,1698A,114.6892,23.7233,河源市,老城,,28,28,30,3,11,18,,84,58,28,12,4,5,0.8,0.8
2025-09-28T2300,1718A,115.4208,35.2464,菏泽市,气象局,,39,39,22,24,18,32,,95,53,17,14,5,4,0.6,0.5
2025-09-28T2300,4184A,115.4797,35.24401,菏泽市,永昌路1号,,49,40,25,34,21,33,,96,53,16,12,10,8,0.5,0.4
2025-09-28T2300,4193A,115.4715,35.2800,菏泽市,长城路999号,,45,40,23,31,16,27,,92,52,25,18,9,9,0.7,0.5
2025-09-28T2300,2514A,111.5264,24.4172,贺州市,环保小区,,41,41,38,18,23,33,,84,67,18,12,15,14,0.9,0.8
2025-09-28T2300,2515A,111.5608,24.4078,贺州市,政协大楼,,50,50,34,26,20,19,,74,57,31,15,15,12,0.9,0.8
2025-09-28T2300,3534A,111.4744,24.4553,贺州市,西湾,颗粒物(PM10),52,53,30,32,20,20,,70,48,17,14,8,9,0.6,0.6
2025-09-28T2300,2385A,114.17,35.9019,鹤壁市,市监测站,,35,35,38,15,30,35,,50,35,11,17,1,2,0.7,0.9
2025-09-28T2300,2386A,114.2956,35.7511,鹤壁市,市交警支队,颗粒物(PM10),62,74,59,23,31,4,,53,20,32,22,6,4,1.0,0.9
2025-09-28T2300,2387A,114.2878,35.7306,鹤壁市,迎宾馆,颗粒物(PM10),60,70,61,34,35,4,,56,22,34,21,4,4,0.9,0.7
2025-09-28T2300,3474A,114.2617,35.6822,鹤壁市,大新区,颗粒物(PM10),51,52,39,24,27,2,,50,16,30,23,6,7,1.1,0.9
2025-09-28T2300,3596A,114.1572,35.9603,鹤壁市,南山宾馆,细颗粒物(PM2.5),54,,35,38,34,59,,54,43,18,14,8,7,0.7,1
2025-09-28T2300,2244A,130.2537,47.3416,鹤岗市,哈啤分公司,,26,16,22,7,10,83,,89,85,1,4,12,12,0.2,0.3
2025-09-28T2300,2245A,130.2684,47.3086,鹤岗市,斯达机电,,26,18,25,12,11,82,,85,82,3,11,11,13,0.4,0.5
2025-09-28T2300,2246A,130.3114,47.3388,鹤岗市,东山纸板厂,,28,21,35,18,17,87,,89,88,2,11,12,13,0.1,0.6
2025-09-28T2300,2247A,130.1097,47.3382,鹤岗市,五号水库,,20,20,16,8,6,53,,66,60,6,8,6,7,0.1,0.2
2025-09-28T2300,2263A,127.4833,50.2524,黑河市,交通局,,28,24,30,19,15,21,,61,27,20,20,5,6,0.4,0.3
2025-09-28T2300,2264A,127.5144,50.2341,黑河市,环保局,,44,44,25,18,14,14,,59,33,20,12,8,7,0.5,0.4
2025-09-28T2300,2265A,127.5291,50.2472,黑河市,大黑河岛,,46,46,19,8,6,23,,60,36,7,7,13,13,0.2,0.3
2025-09-28T2300,1074A,115.6838,37.7541,衡水市,电机北厂,细颗粒物(PM2.5),75,73,60,55,46,79,,132,114,30,17,7,7,0.9,0.9
2025-09-28T2300,1075A,115.6303,37.7316,衡水市,市监测站,细颗粒物(PM2.5),75,78,57,55,36,71,,128,101,34,19,6,5,0.9,0.8
2025-09-28T2300,3188A,115.6683,37.7217,衡水市,市城管局,细颗粒物(PM2.5),82,87,57,60,39,54,,130,107,44,19,7,7,1.0,0.9
2025-09-28T2300,3459A,115.5989,37.5491,衡水市,地表水厂,颗粒物(PM10),78,105,65,53,33,0,,121,56,84,38,8,5,0.9,0.8
2025-09-28T2300,2456A,112.5003,26.9167,衡阳市,原169医院,细颗粒物(PM2.5),107,112,56,80,34,25,,110,85,43,25,4,5,1.2,0.9
2025-09-28T2300,2457A,112.6194,26.9258,衡阳市,衡阳化工总厂,细颗粒物(PM2.5),70,81,60,51,38,40,,115,98,25,17,7,6,1.2,1.2
2025-09-28T2300,2458A,112.6211,26.8956,衡阳市,珠晖区环保局,细颗粒物(PM2.5),70,86,57,51,32,12,,116,95,56,22,8,8,1.7,1.5
2025-09-28T2300,2459A,112.6197,26.8733,衡阳市,市委党校,细颗粒物(PM2.5),80,92,52,59,30,48,,110,96,26,11,7,6,1.0,0.8
2025-09-28T2300,2460A,112.6006,26.8919,衡阳市,市监测站,细颗粒物(PM2.5),72,64,46,52,32,26,,113,96,32,17,3,4,1.5,1.2
2025-09-28T2300,2461A,112.5664,26.9056,衡阳市,真空机电公司,细颗粒物(PM2.5),78,64,51,57,39,36,,108,91,38,21,4,4,1.7,1.4
2025-09-28T2300,3399A,112.6703,26.882,衡阳市,师范学院,细颗粒物(PM2.5),75,86,55,55,30,45,,102,91,17,13,6,6,1.3,1.2
2025-09-28T2300,2608A,103.3772,23.3993,红河哈尼族彝族自治州,污水处理厂,,25,17,23,17,15,39,,64,54,6,9,10,20,0,0
2025-09-28T2300,2609A,103.3861,23.35,红河哈尼族彝族自治州,监测站,,16,13,24,11,15,38,,63,56,4,7,11,29,0.3,0.3
2025-09-28T2300,3038A,103.3758,23.368,红河哈尼族彝族自治州,州图书馆,,35,,19,24,24,38,,64,54,5,8,2,44,0.1,0.2
2025-09-28T2300,1090A,111.6507,40.7517,呼和浩特市,呼市一监,颗粒物(PM10),56,61,30,20,11,6,,97,61,63,22,13,9,0.5,0.3
2025-09-28T2300,1091A,111.6572,40.8033,呼和浩特市,小召,,46,46,33,17,9,17,,94,64,65,29,6,7,0.5,0.4
2025-09-28T2300,1094A,111.7516,40.8369,呼和浩特市,如意水处理厂,,30,30,20,10,8,13,,96,66,60,25,8,8,0.3,0.3
2025-09-28T2300,1095A,111.7276,40.8062,呼和浩特市,二十九中,,49,49,29,13,10,14,,104,75,66,25,8,8,0.5,0.4
2025-09-28T2300,1096A,111.5512,40.7866,呼和浩特市,工大金川校区,,44,44,46,10,9,1,,95,60,68,28,4,7,0.3,0.2
2025-09-28T2300,1097A,111.717,40.7612,呼和浩特市,化肥厂生活区,,46,46,23,16,10,5,,99,60,69,32,6,7,0.4,0.4
2025-09-28T2300,3698A,111.5968,40.8178,呼和浩特市,红旗小学,,48,48,31,13,9,5,,98,57,74,29,5,7,0.5,0.4
2025-09-28T2300,3699A,111.6518,40.8389,呼和浩特市,海东办,颗粒物(PM10),54,58,35,13,8,5,,100,63,58,22,5,6,0.6,0.4
2025-09-28T2300,2192A,119.7594,49.2261,呼伦贝尔市,区环保局,颗粒物(PM10),64,78,50,37,20,6,,60,28,49,28,12,8,0.8,0.4
2025-09-28T2300,3061A,119.7512,49.1577,呼伦贝尔市,国华电力东,,40,40,24,18,11,16,,69,39,20,13,6,6,0.3,0.3
2025-09-28T2300,1250A,120.0751,30.8669,湖州市,城西水厂,细颗粒物(PM2.5),53,39,65,37,50,66,,181,145,16,28,8,8,0.5,0.5
2025-09-28T2300,2873A,120.0830,30.8929,湖州市,仁皇山新区,,46,40,63,32,45,67,,169,135,13,22,6,6,0.6,0.6
2025-09-28T2300,2907A,120.1844,30.8596,湖州市,吴兴区站,细颗粒物(PM2.5),54,45,55,38,47,60,,173,132,17,22,10,10,0.8,0.7
2025-09-28T2300,3562A,120.4148,30.8538,湖州市,南浔区站,细颗粒物(PM2.5),60,45,44,43,46,71,,170,138,16,14,9,9,1.1,0.9
2025-09-28T2300,1607A,120.9049,40.7211,葫芦岛市,龙港区,细颗粒物(PM2.5),103,,46,77,32,112,,147,128,24,23,8,10,1.0,0.9
2025-09-28T2300,1608A,120.8392,40.7514,葫芦岛市,化工街,细颗粒物(PM2.5),79,90,49,58,31,1,,134,88,110,39,10,13,1.1,0.7
2025-09-28T2300,1609A,120.8341,40.7073,葫芦岛市,新区,细颗粒物(PM2.5),127,,40,96,41,84,,142,119,36,23,7,7,1.3,1.1
2025-09-28T2300,1610A,120.8695,40.7677,葫芦岛市,东城区,细颗粒物(PM2.5),133,,43,101,46,29,,139,97,73,34,21,12,1.3,1.1
2025-09-28T2300,2482A,109.5981,27.5721,怀化市,林科所,,36,36,28,3,7,14,,89,52,24,15,5,4,0.7,0.7
2025-09-28T2300,2483A,109.9453,27.5444,怀化市,河西地税局,,,36,29,24,16,,,71,,26,11,3,6,0.4,0.4
2025-09-28T2300,2484A,109.9781,27.5342,怀化市,市四医院,颗粒物(PM10),54,57,39,35,23,4,,79,50,29,14,6,6,0.2,0.2
2025-09-28T2300,2485A,109.9972,27.5578,怀化市,监测楼,,47,47,37,26,18,0,,84,44,28,10,4,4,0.4,0.2
2025-09-28T2300,2486A,110.0394,27.583,怀化市,市委党校,细颗粒物(PM2.5),59,56,34,42,24,0,,65,36,32,13,6,7,0.5,0.4
2025-09-28T2300,1210A,119.036,33.5981,淮安市,钵池山,,49,36,25,34,21,31,,64,45,25,15,8,8,1.0,0.9
2025-09-28T2300,1211A,119.007,33.575,淮安市,北京南路,,48,46,29,33,23,31,,60,46,19,13,6,7,0.9,0.9
2025-09-28T2300,1212A,118.989,33.6067,淮安市,市监测站,,45,44,36,31,26,28,,72,48,31,21,10,11,1.1,1
2025-09-28T2300,1213A,119.135,33.5039,淮安市,楚州区监测站,,49,49,36,29,19,35,,65,55,27,21,8,8,0.7,0.6
2025-09-28T2300,3426A,118.8755,33.2894,淮安市,新华书店,,40,36,25,28,19,48,,70,64,14,12,7,6,0.8,0.7
2025-09-28T2300,4206A,119.0288,33.6319,淮安市,承德北路606号,,48,48,37,30,22,29,,61,43,23,13,6,7,0.7,0.6
2025-09-28T2300,2282A,116.8004,33.975,淮北市,监测站,,25,22,19,16,14,79,,83,81,10,11,8,8,0.8,0.8
2025-09-28T2300,2283A,116.8091,33.9007,淮北市,烈山区政府,,23,15,11,15,11,72,,86,84,11,11,8,7,0.6,0.6
2025-09-28T2300,3330A,116.8873,33.9836,淮北市,杜集区检察院,,46,32,25,32,21,64,,81,76,5,5,9,9,0.8,0.8
2025-09-28T2300,4017A,116.7923,33.9535,淮北市,市博物馆,,25,22,19,15,14,78,,85,82,11,13,8,7,0.7,0.6
2025-09-28T2300,2277A,116.8305,32.7727,淮南市,潘集区政府,,43,34,27,30,18,56,,68,67,10,5,5,5,0.7,0.6
2025-09-28T2300,2279A,116.8569,32.5951,淮南市,谢家集区政府,,32,32,22,14,12,57,,60,60,10,12,9,8,0.7,0.6
2025-09-28T2300,2280A,116.8281,32.633,淮南市,八公山区政府,,32,32,31,21,17,60,,62,62,10,10,8,8,0.7,0.5
2025-09-28T2300,2894A,117.0566,32.6531,淮南市,经济技术开发区消防队,,29,29,26,6,8,55,,62,62,10,11,8,8,0.4,0.4
2025-09-28T2300,3329A,117.0108,32.5893,淮南市,山南新区,,28,28,25,7,7,67,,69,69,10,13,4,4,0.4,0.4
2025-09-28T2300,4209A,117.0031,32.6445,淮南市,国庆中路369号,,28,26,36,19,21,61,,62,62,9,11,6,6,0.5,0.5
2025-09-28T2300,2446A,114.9028,30.4742,黄冈市,职工中心,,32,30,37,22,23,23,,98,79,26,20,8,8,0.6,0.7
2025-09-28T2300,2929A,114.8858,30.4519,黄冈市,红卫路,,38,38,39,23,27,30,,104,85,18,16,6,6,0.4,0.6
2025-09-28T2300,3398A,114.9136,30.4445,黄冈市,市林业局,,38,36,39,26,23,24,,105,89,26,15,6,5,0.5,0.5
2025-09-28T2300,2672A,102.0199,35.5102,黄南藏族自治州,同仁县隆务镇,,31,31,20,12,9,88,,89,87,10,9,9,9,0.4,0.4
2025-09-28T2300,2295A,118.2903,29.6963,黄山市,延安路89号,,47,47,39,12,21,98,,94,77,5,7,5,5,0.8,0.6
2025-09-28T2300,2297A,118.1371,30.2756,黄山市,黄山区政府5号楼,细颗粒物(PM2.5),52,39,32,36,22,35,,84,66,6,4,5,5,0.8,0.6
2025-09-28T2300,4210A,118.3354,29.7203,黄山市,滨江东路7-2号,,39,39,37,23,16,98,,91,76,5,7,3,3,0.6,0.4
2025-09-28T2300,2423A,115.0601,30.2313,黄石市,沈家营,颗粒物(PM10),53,56,70,25,27,61,,112,90,6,13,7,7,0.5,0.6
2025-09-28T2300,2426A,114.8988,30.2019,黄石市,铁山,颗粒物(PM10),52,54,59,25,27,38,,96,75,7,15,4,6,0.6,0.6
2025-09-28T2300,2427A,115.0307,30.2092,黄石市,团城山,颗粒物(PM10),53,56,60,30,29,56,,113,96,15,14,6,7,0.8,0.8
2025-09-28T2300,3149A,115.0235,30.1578,黄石市,笔架山北路,,36,36,53,19,24,53,,110,93,8,11,7,7,0.7,1
2025-09-28T2300,4185A,115.0780,30.21118,黄石市,磁湖东路29号,颗粒物(PM10),62,73,78,26,29,49,,110,76,9,17,6,7,0.7,0.7
2025-09-28T2300,1392A,114.4183,23.0528,惠州市,河南岸金山湖子站,,19,19,25,6,11,38,,72,49,10,10,9,9,0.5,0.6
2025-09-28T2300,1394A,114.4103,23.1142,惠州市,江北云山西路子站,,23,23,28,9,13,41,,84,61,14,14,11,11,0.5,0.5
2025-09-28T2300,1395A,114.4645,22.7833,惠州市,惠阳区承修路船湖子站,,18,18,25,9,12,32,,74,53,16,11,8,8,0.5,0.5
2025-09-28T2300,1396A,114.5317,22.7422,惠州市,大亚湾管委会子站,,28,28,30,6,10,45,,76,59,11,15,9,10,0.6,0.6
2025-09-28T2300,3314A,114.4338,22.8134,惠州市,惠阳秋长,,29,29,25,9,11,20,,81,56,28,12,5,5,0.5,0.5
2025-09-28T2300,3452A,114.6517,22.775,惠州市,大亚湾霞涌,,13,,20,8,10,39,,82,66,11,9,7,8,0.5,0.5
2025-09-28T2300,2240A,130.9762,45.3001,鸡西市,环保局,,45,45,32,23,14,45,,82,58,24,17,8,8,0.8,0.8
2025-09-28T2300,2243A,130.9429,45.3039,鸡西市,第一中学,,33,33,35,17,13,45,,81,60,17,11,10,9,0.8,0.7
2025-09-28T2300,3707A,131.0207,45.3073,鸡西市,欧美日汽修厂,颗粒物(PM10),51,51,38,26,16,27,,82,51,33,21,10,10,0.8,0.8
2025-09-28T2300,3709A,130.9967,45.3106,鸡西市,市政设施管理处,颗粒物(PM10),51,51,37,20,15,27,,87,51,41,29,12,10,1.0,1
2025-09-28T2300,2367A,114.9754,27.0803,吉安市,红声器材厂,颗粒物(PM10),55,60,47,32,24,28,,121,73,27,10,8,8,0.7,0.8
2025-09-28T2300,2368A,114.9658,27.0999,吉安市,市森林工业局,颗粒物(PM10),51,52,44,28,26,43,,128,78,17,11,8,9,0.7,0.7
2025-09-28T2300,2369A,114.99,27.1312,吉安市,市环境监测站,,38,38,37,15,21,50,,117,81,13,8,6,7,0.7,0.8
2025-09-28T2300,2370A,115.0093,27.0968,吉安市,青原区法院,颗粒物(PM10),54,58,44,34,27,14,,126,81,42,13,8,10,1.0,0.8
2025-09-28T2300,1772A,126.54,43.8622,吉林市,哈达湾,颗粒物(PM10),63,75,28,37,16,22,,94,62,31,17,4,4,0.5,0.4
2025-09-28T2300,1773A,126.5844,43.8358,吉林市,东局子,,23,23,23,14,14,40,,87,57,9,14,6,6,0.8,0.7
2025-09-28T2300,1774A,126.5052,43.8245,吉林市,电力学院,颗粒物(PM10),54,57,35,32,21,11,,85,46,30,20,5,5,0.8,0.7
2025-09-28T2300,1775A,126.6133,43.8972,吉林市,江北,,32,30,26,22,16,26,,82,54,8,12,6,6,0.7,0.6
2025-09-28T2300,1776A,126.555,43.8306,吉林市,江南公园,,25,25,22,15,15,39,,92,60,8,11,3,4,0.5,0.5
2025-09-28T2300,2868A,126.4739,43.953,吉林市,九站,,30,30,31,19,17,44,,90,60,19,24,6,8,0.4,0.4
2025-09-28T2300,1299A,116.9862,36.6114,济南市,科干所,细颗粒物(PM2.5),62,66,33,44,23,30,,105,70,41,18,7,6,0.7,0.5
2025-09-28T2300,1300A,116.9376,36.665,济南市,农科所,颗粒物(PM10),62,73,31,39,21,17,,91,50,56,21,8,8,0.8,0.5
2025-09-28T2300,1301A,117.1265,36.6734,济南市,开发区,细颗粒物(PM2.5),53,51,32,37,23,54,,111,78,21,20,3,2,1.0,0.8
2025-09-28T2300,1303A,117.0624,36.6868,济南市,省种子仓库,细颗粒物(PM2.5),70,70,42,51,31,64,,112,80,30,22,6,5,1.0,0.8
2025-09-28T2300,1304A,116.9489,36.6447,济南市,机床二厂,颗粒物(PM10),67,83,41,44,26,26,,104,59,41,24,7,7,0.7,0.5
2025-09-28T2300,1305A,117.0495,36.663,济南市,市监测站,细颗粒物(PM2.5),59,61,34,42,27,51,,104,74,31,23,2,2,1.1,0.9
2025-09-28T2300,1306A,116.7675,36.5484,济南市,长清党校,细颗粒物(PM2.5),74,56,34,54,23,56,,103,82,35,18,7,6,0.9,0.7
2025-09-28T2300,1616A,117.6795,36.229,济南市,技术学院,细颗粒物(PM2.5),52,51,18,36,17,38,,115,89,44,17,8,8,0.8,0.7
2025-09-28T2300,1961A,117.532,36.6868,济南市,东山小学,颗粒物(PM10),64,78,37,39,24,17,,111,67,56,22,6,6,0.5,0.4
2025-09-28T2300,3059A,117.7161,36.2049,济南市,泰兴公司,,46,46,23,29,15,36,,113,86,30,15,10,9,0.4,0.4
2025-09-28T2300,3064A,117.6867,36.2171,济南市,莱芜战役纪念馆,细颗粒物(PM2.5),64,53,23,46,20,35,,112,88,42,19,8,8,0.8,0.7
2025-09-28T2300,3494A,117.1673,36.9782,济南市,济阳区政府,颗粒物(PM10),67,83,46,44,28,47,,107,85,42,19,7,6,0.8,0.4
2025-09-28T2300,3495A,117.1171,36.63,济南市,锦屏中学,,46,46,26,32,16,45,,99,62,15,16,4,4,1.1,0.9
2025-09-28T2300,3682A,116.9814,36.6819,济南市,济南四建,颗粒物(PM10),63,75,35,44,27,41,,115,79,38,18,5,4,1.1,0.9
2025-09-28T2300,1653A,116.6251,35.4302,济宁市,火炬城,细颗粒物(PM2.5),58,62,33,41,19,40,,109,80,20,11,5,5,0.7,0.4
2025-09-28T2300,1655A,116.5491,35.4042,济宁市,电化厂,,49,49,30,29,18,25,,111,68,34,18,2,2,0.7,0.4
2025-09-28T2300,3500A,116.5814,35.3707,济宁市,北湖一中,细颗粒物(PM2.5),54,45,27,38,20,30,,100,65,21,12,1,3,0.6,0.4
2025-09-28T2300,3501A,116.8249,35.5593,济宁市,服务中心,,49,49,23,34,12,47,,99,74,22,14,5,5,0.7,0.5
2025-09-28T2300,3678A,116.5907,35.4054,济宁市,市第七中学,颗粒物(PM10),54,58,31,24,16,37,,109,76,23,12,7,6,0.7,0.4
2025-09-28T2300,2255A,130.2751,46.8028,佳木斯市,佳纺,,23,23,27,3,11,47,,77,47,14,14,5,6,0.3,0.4
2025-09-28T2300,2256A,130.3995,46.8307,佳木斯市,发电厂,,23,23,36,3,10,58,,86,56,6,16,8,6,0.2,0.2
2025-09-28T2300,2257A,130.3258,46.7975,佳木斯市,环保局,,24,24,25,3,10,53,,83,50,14,13,7,6,0.5,0.5
2025-09-28T2300,2258A,130.3648,46.8032,佳木斯市,十一中,,19,14,24,3,9,59,,81,56,4,10,10,9,0.3,0.4
2025-09-28T2300,2259A,130.3794,46.7588,佳木斯市,四丰,,15,6,8,3,4,48,,44,44,16,11,1,19,0.0,0.2
2025-09-28T2300,1252A,120.7436,30.778,嘉兴市,清河小学,细颗粒物(PM2.5),69,76,47,50,27,79,,160,129,22,19,8,8,1.5,0.9
2025-09-28T2300,1253A,120.726,30.7478,嘉兴市,嘉兴学院,细颗粒物(PM2.5),74,68,48,54,33,90,,165,134,22,21,7,5,1.2,0.5
2025-09-28T2300,2872A,120.7846,30.7525,嘉兴市,南湖区残联,细颗粒物(PM2.5),80,70,48,59,35,92,,171,139,18,16,7,7,1.4,0.8
2025-09-28T2300,3407A,120.6916,30.7739,嘉兴市,秀洲住建,细颗粒物(PM2.5),60,60,46,43,30,75,,171,133,24,19,9,7,1.3,0.7
2025-09-28T2300,1945A,98.2908,39.7711,嘉峪关市,气象局,颗粒物(PM10),63,75,72,17,19,83,,106,95,13,10,15,11,0.5,0.5
2025-09-28T2300,2884A,98.2672,39.7978,嘉峪关市,酒钢宾馆,颗粒物(PM10),67,83,85,22,19,81,,108,95,7,8,25,17,0.5,0.5
2025-09-28T2300,3248A,98.2643,39.7724,嘉峪关市,雄关区,颗粒物(PM10),57,63,62,27,23,75,,100,91,18,17,16,15,0.5,0.5
2025-09-28T2300,1383A,113.1064,22.6058,江门市,北街,,15,15,28,10,11,18,,68,43,29,22,4,4,0.4,0.4
2025-09-28T2300,1384A,113.0731,22.5835,江门市,西区,,29,29,26,8,12,17,,66,39,24,18,9,9,0.5,0.5
2025-09-28T2300,1385A,113.0219,22.5311,江门市,圭峰西,,35,35,26,12,13,10,,66,36,36,19,4,4,0.6,0.6
2025-09-28T2300,1386A,113.0828,22.5947,江门市,东湖,,19,19,23,10,11,12,,64,38,30,20,2,2,0.4,0.4
2025-09-28T2300,3311A,113.1075,22.5647,江门市,江海富民,,29,29,35,11,14,11,,68,39,41,27,6,6,0.5,0.5
2025-09-28T2300,3449A,113.05,22.4667,江门市,新会银湖,,20,20,23,11,14,4,,54,23,26,18,4,4,0.6,0.6
2025-09-28T2300,3335A,113.3137,35.2641,焦作市,马村街道办,,45,32,38,31,34,20,,34,25,20,17,4,4,0.9,0.8
2025-09-28T2300,3336A,113.2465,35.2373,焦作市,焦作技师学院,,37,37,46,22,26,12,,29,19,27,21,7,7,1.2,1.1
2025-09-28T2300,3477A,113.1656,35.2539,焦作市,中站许衡医院,细颗粒物(PM2.5),59,60,46,42,37,7,,31,14,37,28,8,8,1.2,1.1
2025-09-28T2300,3981A,113.2449,35.1803,焦作市,原李万街道办,,35,35,42,14,21,16,,35,27,28,20,8,8,0.8,0.8
2025-09-28T2300,4264A,113.2340,35.2190,焦作市,新安路1731号,,33,32,42,23,29,18,,35,28,23,18,4,4,1.1,1.1
2025-09-28T2300,4295A,113.2722,35.2121,焦作市,人民路3066号,,27,27,45,15,21,18,,34,28,24,16,6,6,0.7,0.7
2025-09-28T2300,1708A,116.3701,23.5345,揭阳市,新兴,,38,38,30,14,14,41,,84,56,22,13,7,8,0.8,0.6
2025-09-28T2300,1709A,116.3264,23.5443,揭阳市,西马,,50,50,31,12,13,48,,88,58,18,11,7,4,0.9,0.7
2025-09-28T2300,1710A,116.3611,23.5626,揭阳市,东兴,,35,35,26,12,11,24,,82,50,22,11,8,10,1.0,0.6
2025-09-28T2300,1711A,116.4151,23.5294,揭阳市,渔湖,,29,29,32,18,14,30,,89,58,21,11,8,9,1.0,0.5
2025-09-28T2300,3320A,116.403,23.5699,揭阳市,曲溪,,46,46,28,18,13,22,,94,56,20,10,2,5,0.8,0.5
2025-09-28T2300,1944A,102.1692,38.5167,金昌市,天庆家园,,46,46,60,16,19,93,,102,102,5,12,4,10,0.6,0.6
2025-09-28T2300,4022A,102.1647,38.5371,金昌市,金川区人防中心,,38,38,50,18,18,93,,98,98,4,9,2,6,0.6,0.5
2025-09-28T2300,4239A,102.1930,38.5319,金昌市,长春路96号,,45,45,54,16,17,89,,96,96,5,9,4,8,0.4,0.5
2025-09-28T2300,1262A,119.647,29.077,金华市,十五中,颗粒物(PM10),54,58,37,30,17,131,,124,112,18,16,6,6,0.6,0.5
2025-09-28T2300,1263A,119.686,29.1029,金华市,监测站,颗粒物(PM10),56,61,37,36,20,106,,123,100,24,23,8,8,0.6,0.5
2025-09-28T2300,3659A,119.656,29.1131,金华市,气象局,颗粒物(PM10),51,52,36,34,18,97,,115,90,22,23,3,3,0.5,0.4
2025-09-28T2300,1767A,121.1115,41.0879,锦州市,南山,细颗粒物(PM2.5),178,,38,134,45,13,,137,89,71,23,34,10,1.4,0.9
2025-09-28T2300,1768A,121.0604,40.8428,锦州市,开发区,细颗粒物(PM2.5),162,,54,123,48,41,,140,99,66,42,15,16,1.3,1
2025-09-28T2300,1769A,121.1836,41.1119,锦州市,百股街道,细颗粒物(PM2.5),92,,36,68,31,41,,138,94,34,23,29,10,1.3,0.8
2025-09-28T2300,1770A,121.1178,41.1222,锦州市,天安街道,细颗粒物(PM2.5),143,,43,109,45,38,,136,94,52,22,24,9,1.8,1.1
2025-09-28T2300,1771A,121.1303,41.1386,锦州市,北湖公园,细颗粒物(PM2.5),139,,44,106,56,52,,113,,33,17,22,9,1.7,1.1
2025-09-28T2300,2160A,112.85,35.5051,晋城市,自来水公司,颗粒物(PM10),54,57,35,27,18,6,,43,18,54,28,4,4,1.3,1.2
2025-09-28T2300,2161A,112.8318,35.4936,晋城市,白云商贸,,48,48,32,24,13,4,,46,18,44,22,3,3,1.3,1
2025-09-28T2300,2162A,112.8508,35.4887,晋城市,市环保局,颗粒物(PM10),54,57,27,27,17,2,,40,15,44,27,3,4,1.4,1.1
2025-09-28T2300,2163A,112.8676,35.4897,晋城市,技术学院,,40,40,29,19,12,3,,40,17,58,29,5,5,1.3,1.2
2025-09-28T2300,3620A,112.8271,35.4828,晋城市,泽州一中,,50,50,33,19,10,29,,52,37,35,22,2,2,0.9,0.8
2025-09-28T2300,2173A,112.7249,37.7067,晋中市,南都小区,细颗粒物(PM2.5),98,121,119,73,88,26,,98,82,55,31,9,13,1.3,1.4
2025-09-28T2300,2174A,112.6991,37.6982,晋中市,榆次区政府,颗粒物(PM10),93,136,113,64,74,21,,93,77,57,32,9,10,0.7,0.8
2025-09-28T2300,2865A,112.7195,37.6828,晋中市,榆次三中,细颗粒物(PM2.5),92,119,110,68,77,8,,98,74,62,32,10,12,0.8,0.9
2025-09-28T2300,4200A,112.7478,37.6954,晋中市,迎宾街26号,细颗粒物(PM2.5),77,92,108,56,73,9,,104,79,51,33,6,9,1.0,1.2
2025-09-28T2300,2439A,112.2014,31.0481,荆门市,竹园小学,,21,14,21,12,26,65,,53,53,9,13,1,3,1.2,1
2025-09-28T2300,2440A,112.1969,30.9891,荆门市,掇刀,,22,,21,14,23,69,,59,58,9,11,1,1,0.5,0.5
2025-09-28T2300,2441A,112.2213,31.0386,荆门市,石化一小,,20,,23,14,18,58,,50,49,8,10,6,5,0.2,0.2
2025-09-28T2300,3012A,112.1849,31.0362,荆门市,西山林语,,22,,16,12,16,70,,57,57,5,7,2,2,0.8,0.9
2025-09-28T2300,3547A,112.1632,31.0138,荆门市,龙泉中学南校,,23,7,15,3,9,73,,58,58,10,11,3,3,0.4,0.5
2025-09-28T2300,1844A,112.2494,30.3197,荆州市,市图书馆,,26,18,39,18,27,51,,78,55,9,18,4,8,0.8,0.8
2025-09-28T2300,1845A,112.2008,30.3544,荆州市,市委党校,,,14,46,14,22,,,73,51,11,20,7,8,0.6,0.7
2025-09-28T2300,3194A,112.2747,30.3122,荆州市,管委会,,22,18,42,15,27,48,,72,51,8,16,7,10,0.7,0.7
2025-09-28T2300,4268A,112.1722,30.3366,荆州市,学苑路85号,,27,27,45,15,35,49,,74,51,15,22,4,4,0.7,0.7
2025-09-28T2300,2343A,117.2117,29.2933,景德镇市,老干部活动中心,细颗粒物(PM2.5),53,45,30,37,23,35,,102,71,31,12,11,4,1.3,1
2025-09-28T2300,2344A,117.1894,29.2789,景德镇市,兽医站,颗粒物(PM10),54,57,38,33,20,40,,103,71,27,13,11,8,0.7,0.7
2025-09-28T2300,2346A,117.2461,29.2956,景德镇市,陶研所,,42,40,32,29,24,33,,105,66,16,9,5,5,0.7,0.7
2025-09-28T2300,4289A,117.1542,29.2566,景德镇市,青少年活动中心,颗粒物(PM10),61,71,46,36,30,22,,103,58,44,27,59,27,0.8,0.8
2025-09-28T2300,1803A,115.9872,29.6815,九江市,十里,细颗粒物(PM2.5),67,65,57,48,41,81,,142,123,26,22,6,7,1.0,1.1
2025-09-28T2300,1804A,115.9584,29.7046,九江市,茅山头,细颗粒物(PM2.5),90,,61,67,41,62,,142,118,21,21,4,4,0.9,0.9
2025-09-28T2300,1805A,115.9877,29.7295,九江市,西园,细颗粒物(PM2.5),64,61,54,46,35,37,,135,108,82,43,10,10,1.2,1.3
2025-09-28T2300,1808A,115.9114,29.6038,九江市,综合工业园,细颗粒物(PM2.5),73,,58,53,37,78,,144,116,20,26,8,8,1.0,1.1
2025-09-28T2300,1809A,116.0721,29.7535,九江市,石化总厂,颗粒物(PM10),62,74,55,43,45,32,,124,93,56,33,6,7,1.0,1
2025-09-28T2300,3190A,116.0254,29.6994,九江市,外国语学校,细颗粒物(PM2.5),63,67,48,45,39,76,,134,115,25,19,7,8,0.8,0.8
2025-09-28T2300,4253A,116.0102,29.6594,九江市,莲花大道8号,颗粒物(PM10),62,74,58,39,33,67,,125,103,6,11,3,5,0.9,0.9
2025-09-28T2300,4240A,98.4958,39.7339,酒泉市,玉门东路5号,颗粒物(PM10),73,95,88,35,28,67,,102,94,17,12,10,10,0.2,0.3
2025-09-28T2300,4241A,98.5099,39.7506,酒泉市,北大街108号,颗粒物(PM10),75,100,94,26,23,59,,97,85,16,10,10,13,0.3,0.3
2025-09-28T2300,2698A,76.0072,39.4467,喀什地区,巡警大队,颗粒物(PM10),190,330,218,98,69,4,,100,79,87,43,12,8,1.8,0.5
2025-09-28T2300,2699A,75.9755,39.4694,喀什地区,吾办,细颗粒物(PM2.5),189,296,201,142,78,3,,94,73,74,35,8,7,1.6,0.6
2025-09-28T2300,4027A,75.9483,39.4689,喀什地区,老干局,颗粒物(PM10),149,247,186,68,48,8,,96,78,79,34,3,2,0.6,0.3
2025-09-28T2300,1824A,114.3389,34.7781,开封市,肿瘤医院,,35,30,26,24,22,22,,46,24,35,30,5,5,1.2,1
2025-09-28T2300,1826A,114.2885,34.7965,开封市,世纪星幼儿园,,39,,22,27,26,25,,52,29,29,24,5,5,1.1,1
2025-09-28T2300,3147A,114.3438,34.8106,开封市,龙亭公园,,31,31,25,18,17,26,,48,26,25,22,8,7,1.3,1.1
2025-09-28T2300,3210A,114.3644,34.7964,开封市,汴京公园,,38,38,28,24,21,26,,46,26,26,25,6,6,1.1,1
2025-09-28T2300,3473A,114.2485,34.8306,开封市,技师学院,,38,32,23,26,20,22,,45,25,27,22,7,6,1.3,1.1
2025-09-28T2300,3592A,114.4644,34.7556,开封市,祥符区生态环境局,,30,23,19,21,20,7,,40,16,42,29,4,4,1.1,0.9
2025-09-28T2300,1951A,84.895,45.6094,克拉玛依市,长征新村,颗粒物(PM10),101,152,54,36,17,12,,93,69,74,20,4,3,0.9,0.4
2025-09-28T2300,1952A,84.8988,45.5893,克拉玛依市,南林小区,颗粒物(PM10),71,92,48,35,12,5,,85,54,69,25,9,6,2.0,0.5
2025-09-28T2300,1954A,84.905,44.3396,克拉玛依市,独山子区,颗粒物(PM10),63,76,40,28,14,82,,107,87,8,11,6,7,0.3,0.3
2025-09-28T2300,1955A,85.6979,46.098,克拉玛依市,乌尔禾区商贸楼,颗粒物(PM10),70,89,43,32,10,10,,90,76,67,18,4,4,0.7,0.5
2025-09-28T2300,3612A,85.1045,45.6899,克拉玛依市,白碱滩区新站,颗粒物(PM10),73,95,69,27,20,77,,98,94,14,21,5,6,0.3,0.4
2025-09-28T2300,2697A,76.1454,39.7142,克孜勒苏柯尔克孜自治州,市人民政府,颗粒物(PM10),126,202,166,68,63,53,,102,87,32,12,5,10,0.1,0.1
2025-09-28T2300,3665A,76.1658,39.7157,克孜勒苏柯尔克孜自治州,克州文化中心,颗粒物(PM10),116,182,171,53,57,43,,100,88,45,16,6,10,0.3,0.2
2025-09-28T2300,1450A,102.8204,24.8886,昆明市,呈贡新区,,15,12,11,8,11,45,,51,46,4,13,3,3,0.3,0.4
2025-09-28T2300,1452A,102.7252,25.0902,昆明市,龙泉镇,,19,19,17,6,7,33,,55,44,9,14,2,2,0.2,0.3
2025-09-28T2300,1453A,102.7266,25.0375,昆明市,东风东路,,21,21,21,9,11,31,,53,38,14,18,3,3,0.2,0.3
2025-09-28T2300,1454A,102.6742,25.0669,昆明市,金鼎山,,12,7,21,3,8,38,,51,43,4,14,1,2,0.2,0.3
2025-09-28T2300,1455A,102.6644,25.0401,昆明市,碧鸡广场,,18,18,16,11,10,30,,45,35,11,17,8,8,0.4,0.5
2025-09-28T2300,3179A,102.7494,25.0119,昆明市,官渡区博物馆,,15,15,18,3,7,24,,50,34,23,22,2,1,0.4,0.4
2025-09-28T2300,3375A,102.8017,24.8336,昆明市,青年创业园,,12,8,10,6,9,38,,45,37,6,11,1,2,0.4,0.5
2025-09-28T2300,3550A,102.7997,24.9786,昆明市,昆明学院,,19,19,18,10,9,37,,42,36,5,15,7,7,0.2,0.3
2025-09-28T2300,3551A,102.5967,24.6736,昆明市,晋宁区生态环境分局,,31,31,21,7,10,52,,44,40,4,12,2,2,0.2,0.4
2025-09-28T2300,3552A,102.6678,24.9856,昆明市,云天化总部,,19,19,12,10,6,33,,45,38,11,11,4,5,0.3,0.4
2025-09-28T2300,1456A,91.1319,29.6514,拉萨市,八廓街,,34,16,11,8,7,106,,106,105,4,7,6,6,0.2,0.2
2025-09-28T2300,1457A,91.1221,29.6747,拉萨市,市环保局,,34,8,10,8,6,107,,114,111,8,9,7,7,0.4,0.4
2025-09-28T2300,1458A,91.0874,29.6475,拉萨市,区监测站,,34,9,10,6,6,107,,103,101,8,12,4,4,0.1,0.1
2025-09-28T2300,1459A,91.1774,29.6541,拉萨市,西藏大学,,33,18,11,7,6,105,,103,102,7,10,8,7,0.4,0.4
2025-09-28T2300,1460A,90.9798,29.6588,拉萨市,区辐射站,,28,14,12,7,7,89,,91,88,10,11,5,5,0.3,0.3
2025-09-28T2300,1461A,91.0834,29.6292,拉萨市,拉萨火车站,,34,11,10,6,7,106,,101,101,4,11,5,6,0.1,0.1
2025-09-28T2300,2520A,109.2203,23.7256,来宾市,来宾技工学校,,16,16,30,9,14,28,,54,35,7,10,8,9,1.0,1
2025-09-28T2300,3535A,109.1781,23.7297,来宾市,兴宾区政府,,19,19,25,10,13,26,,53,34,6,8,3,4,0.8,0.9
2025-09-28T2300,4002A,109.2416,23.7461,来宾市,中南小学,,16,16,30,8,15,25,,53,34,11,12,6,7,0.5,0.6
2025-09-28T2300,1479A,103.831,36.0464,兰州市,铁路设计院,,44,44,46,26,26,19,,74,49,56,42,5,6,0.8,0.8
2025-09-28T2300,3241A,103.7439,36.0842,兰州市,百合公园,颗粒物(PM10),66,81,48,28,22,3,,84,58,72,27,4,4,1.0,0.8
2025-09-28T2300,3242A,103.9611,35.998,兰州市,和平,,33,33,38,15,21,60,,97,78,11,17,1,2,0.5,0.6
2025-09-28T2300,4236A,103.6293,36.0938,兰州市,庄浪东路808号,颗粒物(PM10),57,64,54,28,27,30,,89,54,56,42,12,13,0.5,0.5
2025-09-28T2300,4237A,103.7251,36.1043,兰州市,安宁西路88号,,,75,50,,34,20,,99,73,67,28,4,5,0.6,0.5
2025-09-28T2300,4238A,103.8470,36.0676,兰州市,北滨河东路1号,颗粒物(PM10),54,57,42,36,30,12,,90,54,65,35,6,7,0.7,0.6
2025-09-28T2300,3245A,103.6633,36.533,兰州新区,新区管委会,,46,43,39,32,23,76,,136,114,29,13,6,6,0.4,0.4
2025-09-28T2300,3246A,103.6975,36.4789,兰州新区,舟曲中学,颗粒物(PM10),55,60,41,37,22,93,,129,116,17,16,8,10,0.5,0.4
2025-09-28T2300,1067A,116.6708,39.5111,廊坊市,药材公司,颗粒物(PM10),60,70,56,39,32,66,,121,92,45,31,6,6,0.4,0.4
2025-09-28T2300,1068A,116.7214,39.5589,廊坊市,开发区,颗粒物(PM10),53,55,53,26,24,81,,116,86,32,25,2,2,0.5,0.4
2025-09-28T2300,1070A,116.7244,39.5269,廊坊市,北华航天学院,颗粒物(PM10),56,62,46,23,27,84,,123,98,35,22,6,6,0.4,0.4
2025-09-28T2300,2919A,116.7022,39.5453,廊坊市,河北工业大学,颗粒物(PM10),53,56,43,26,27,92,,122,102,31,25,3,3,0.5,0.4
2025-09-28T2300,2535A,103.7723,29.5462,乐山市,花湖湾,,11,7,21,3,17,33,,53,44,16,15,6,5,0.5,0.6
2025-09-28T2300,2536A,103.7627,29.5844,乐山市,牛耳桥,,10,7,22,3,17,27,,50,41,19,18,7,7,0.7,0.7
2025-09-28T2300,2537A,103.7508,29.6006,乐山市,市第三水厂,,13,13,24,7,18,30,,52,42,19,17,5,5,0.6,0.7
2025-09-28T2300,2538A,103.7571,29.5664,乐山市,市监测站,,11,9,24,3,17,34,,52,44,12,14,4,5,0.6,0.7
2025-09-28T2300,3361A,103.7311,29.5628,乐山市,理工大学,,12,8,22,3,17,38,,55,46,11,13,8,8,0.7,0.8
2025-09-28T2300,2599A,100.2497,26.8802,丽江市,丽江古城,,18,17,18,11,11,56,,60,55,9,10,9,10,0.5,0.6
2025-09-28T2300,2600A,100.2203,26.8906,丽江市,市中心,,18,10,14,9,10,56,,62,59,9,11,8,8,0.6,0.6
2025-09-28T2300,1267A,119.914,28.4514,丽水市,监测站大楼,,35,35,23,12,11,71,,88,60,14,12,4,4,0.4,0.3
2025-09-28T2300,1268A,119.93,28.4586,丽水市,莲都小学,,22,22,25,11,10,53,,84,54,18,15,4,4,0.4,0.3
2025-09-28T2300,1269A,119.879,28.4231,丽水市,余庄前,,30,23,30,21,16,40,,94,42,13,12,4,4,0.4,0.4
2025-09-28T2300,1173A,119.176,34.5885,连云港市,市环境监测站,,49,39,20,34,15,13,,83,60,46,21,6,6,0.8,0.7
2025-09-28T2300,3000A,119.3581,34.6972,连云港市,德源药业,,49,41,24,34,18,49,,87,60,31,26,5,6,1.4,1.2
2025-09-28T2300,3007A,119.178,34.844,连云港市,新城一中,,43,37,26,30,16,40,,70,55,28,20,4,4,0.9,0.8
2025-09-28T2300,3008A,119.3608,34.7519,连云港市,胡沟管理处,,39,31,16,27,11,49,,98,74,34,15,9,8,1.0,0.9
2025-09-28T2300,3009A,119.1478,34.5911,连云港市,矿山设计院,,41,41,20,27,16,4,,76,52,48,20,8,7,1.1,1
2025-09-28T2300,3434A,119.2413,34.6539,连云港市,工贸学校,,28,20,13,19,14,40,,85,69,12,14,7,7,1.1,1.1
2025-09-28T2300,3664A,119.4172,34.7341,连云港市,连云街道,,30,30,22,15,13,43,,91,68,10,18,5,7,0.8,0.9
2025-09-28T2300,2571A,102.3431,27.8099,凉山彝族自治州,青龙寺,,24,24,14,8,6,29,,56,43,8,5,6,5,0.3,0.7
2025-09-28T2300,2572A,102.2721,27.8415,凉山彝族自治州,邛海宾馆,,15,,20,10,12,30,,61,50,12,7,12,12,0.5,0.6
2025-09-28T2300,2573A,102.2625,27.898,凉山彝族自治州,西昌市政府,,28,23,18,19,14,32,,58,45,9,9,11,14,0.5,0.5
2025-09-28T2300,2574A,102.2685,27.8851,凉山彝族自治州,凉山州政府,,27,27,22,17,17,24,,60,45,15,8,10,11,0.8,0.7
2025-09-28T2300,4229A,102.2342,27.8859,凉山彝族自治州,凯乐南路30号,,30,30,22,16,11,26,,59,48,15,14,8,13,0.6,0.7
2025-09-28T2300,2212A,123.2,41.1953,辽阳市,宏伟区,,34,34,39,14,17,47,,86,62,12,23,3,5,0.7,1
2025-09-28T2300,2213A,123.1683,41.2495,辽阳市,新华园,颗粒物(PM10),53,56,47,24,21,20,,99,56,42,30,2,6,0.8,0.9
2025-09-28T2300,2214A,123.2354,41.2639,辽阳市,滨河路,颗粒物(PM10),52,53,45,17,22,36,,88,46,25,24,5,7,0.7,0.9
2025-09-28T2300,2215A,123.149,41.2991,辽阳市,铁西工业园,颗粒物(PM10),67,83,54,43,24,14,,87,44,32,24,6,8,1.0,1
2025-09-28T2300,2227A,125.1358,42.8845,辽源市,环保局,颗粒物(PM10),65,80,46,30,14,4,,77,35,38,34,5,5,0.8,0.6
2025-09-28T2300,3239A,125.0764,42.9078,辽源市,银鹰制药,,42,38,25,29,14,5,,90,39,37,29,8,7,0.7,0.5
2025-09-28T2300,1625A,115.9848,36.4372,聊城市,区政府,颗粒物(PM10),53,56,40,35,30,30,,104,67,35,18,9,9,1.1,0.8
2025-09-28T2300,2878A,116.0072,36.4343,聊城市,聊大东校,颗粒物(PM10),60,70,47,41,38,16,,101,56,53,23,9,9,1.0,0.8
2025-09-28T2300,3200A,115.9819,36.4978,聊城市,监控中心,细颗粒物(PM2.5),58,64,46,41,30,28,,99,58,42,27,9,8,0.9,0.7
2025-09-28T2300,3513A,116.0445,36.4361,聊城市,九州社区,颗粒物(PM10),63,76,55,44,31,32,,110,70,43,20,5,4,0.8,0.6
2025-09-28T2300,4018A,116.0567,36.4608,聊城市,星美广场,颗粒物(PM10),59,68,49,35,28,40,,104,65,26,15,6,5,1.0,0.7
2025-09-28T2300,2632A,94.3681,29.6376,林芝市,林芝监测站,,15,15,9,6,4,27,,59,48,13,5,3,3,0.4,0.4
2025-09-28T2300,2633A,94.3616,29.6616,林芝市,林芝人民医院,,14,14,11,7,5,31,,56,45,7,5,3,3,0.6,0.5
2025-09-28T2300,2603A,100.0781,23.8982,临沧市,市环保局,,38,,14,26,18,12,,36,25,7,6,9,9,0.6,0.5
2025-09-28T2300,2604A,100.0894,23.8822,临沧市,市气象局,,,,14,22,11,,,29,,11,7,9,8,0.5,0.5
2025-09-28T2300,1733A,111.5531,36.0783,临汾市,临钢医院,颗粒物(PM10),64,77,74,40,36,11,,60,38,30,21,6,6,1.5,1.3
2025-09-28T2300,1734A,111.5028,36.0714,临汾市,技工学校,"颗粒物(PM10),细颗粒物(PM2.5)",74,98,70,54,48,10,,53,33,27,21,6,6,1.5,1.3
2025-09-28T2300,1736A,111.5018,36.0855,临汾市,市委,细颗粒物(PM2.5),74,96,81,54,50,10,,57,34,34,27,7,5,1.5,1.3
2025-09-28T2300,3018A,111.505,36.1014,临汾市,唐尧大酒店,"颗粒物(PM10),细颗粒物(PM2.5)",77,104,76,56,43,6,,58,34,35,25,9,7,1.7,1.4
2025-09-28T2300,4244A,111.4879,36.0530,临汾市,启星学校,细颗粒物(PM2.5),79,67,67,58,51,13,,56,35,28,27,7,6,1.4,1.3
2025-09-28T2300,4271A,103.2464,35.6123,临夏回族自治州,滨河东路1号,颗粒物(PM10),63,76,40,44,25,2,,55,24,32,15,8,7,0.7,0.4
2025-09-28T2300,4310A,103.2093,35.5995,临夏回族自治州,新华街21号,细颗粒物(PM2.5),72,80,37,52,25,26,,71,51,34,14,6,5,0.6,0.4
2025-09-28T2300,1618A,118.3429,35.0532,临沂市,沂河小区,,49,48,31,34,20,11,,74,42,66,42,11,9,1.1,0.8
2025-09-28T2300,1619A,118.295,35.0583,临沂市,鲁南制药厂,,48,48,28,23,22,2,,79,37,66,43,12,8,1.0,0.9
2025-09-28T2300,1620A,118.2794,34.9976,临沂市,新光毛纺厂,,42,34,19,29,18,33,,80,49,41,41,9,8,0.7,0.7
2025-09-28T2300,1621A,118.3956,35.0888,临沂市,河东保险公司,颗粒物(PM10),51,51,24,31,17,21,,79,52,49,31,7,6,0.9,0.7
2025-09-28T2300,3370A,118.3564,35.0215,临沂市,十里堡居委,,39,34,24,27,15,21,,84,49,53,40,10,8,0.8,0.7
2025-09-28T2300,3496A,118.3604,35.1084,临沂市,南坊新区,颗粒物(PM10),52,53,27,31,17,11,,79,47,71,37,12,10,1.0,0.8
2025-09-28T2300,3860A,118.3920,35.0300,临沂市,皇山花园小区,,39,39,23,23,14,20,,83,50,44,31,12,10,1.1,1
2025-09-28T2300,1870A,109.4856,24.3895,柳州市,柳东小学,,20,20,23,13,13,22,,70,39,14,9,4,6,0.4,0.4
2025-09-28T2300,1871A,109.4157,24.3277,柳州市,环保监测站,,32,32,29,10,16,20,,64,33,20,13,8,8,0.9,0.7
2025-09-28T2300,1872A,109.389,24.341,柳州市,河西水厂,颗粒物(PM10),52,54,40,30,20,8,,70,33,26,17,6,6,0.5,0.5
2025-09-28T2300,1873A,109.4311,24.2921,柳州市,市四中,,24,24,29,12,17,28,,64,34,17,15,8,8,0.6,0.6
2025-09-28T2300,1874A,109.4006,24.3631,柳州市,市九中,,45,45,36,23,17,8,,67,30,30,17,3,3,0.4,0.5
2025-09-28T2300,1875A,109.4958,24.3134,柳州市,古亭山,,26,26,34,13,13,19,,58,21,17,14,6,8,0.3,0.3
2025-09-28T2300,3402A,109.5422,24.3996,柳州市,市二中,,27,27,24,13,14,7,,67,22,20,14,6,7,0.5,0.5
2025-09-28T2300,2307A,116.5079,31.737,六安市,监测大楼,,40,,22,28,20,56,,60,59,7,9,5,4,0.5,0.5
2025-09-28T2300,2308A,116.4738,31.7643,六安市,皖西学院,,33,,23,23,21,63,,65,64,3,6,2,2,0.5,0.6
2025-09-28T2300,2309A,116.4996,31.7905,六安市,朝阳厂,,33,23,20,23,19,54,,55,55,16,14,1,1,0.5,0.6
2025-09-28T2300,2310A,116.5567,31.7886,六安市,开发区,,28,,21,19,15,46,,56,51,10,18,2,2,0.6,0.6
2025-09-28T2300,2577A,104.83,26.5917,六盘水市,黄土坡,,17,15,11,6,8,52,,52,52,3,8,2,3,0.2,0.3
2025-09-28T2300,2578A,104.89,26.5939,六盘水市,水钢,,17,14,16,9,6,52,,52,52,2,4,2,2,0.2,0.2
2025-09-28T2300,2579A,104.8475,26.5894,六盘水市,民中,,20,20,13,3,5,50,,52,51,3,6,2,2,0.2,0.3
2025-09-28T2300,2580A,104.9544,26.5506,六盘水市,双水,,15,12,15,3,7,48,,51,51,4,5,2,3,0.1,0.2
2025-09-28T2300,2336A,117.0217,25.1033,龙岩市,龙岩市监测站,,36,,23,25,16,20,,90,61,24,14,11,10,0.6,0.5
2025-09-28T2300,2337A,117.0258,25.0661,龙岩市,闽西职业技术学院,,32,32,28,17,15,29,,94,57,13,6,21,13,0.4,0.4
2025-09-28T2300,2338A,117.0196,25.0306,龙岩市,龙岩学院,,22,22,25,12,16,40,,90,56,7,10,4,5,0.5,0.6
2025-09-28T2300,2885A,104.9339,33.3826,陇南市,滨江中学,,41,41,27,19,16,22,,44,34,23,15,6,6,1.0,1
2025-09-28T2300,3247A,104.955,33.371,陇南市,市总工会,,38,38,32,12,8,48,,52,51,7,12,7,7,0.7,0.8
2025-09-28T2300,2487A,111.9589,27.8901,娄底市,电视发射台,,39,39,47,21,23,20,,102,55,5,7,4,5,0.2,0.5
2025-09-28T2300,2488A,111.9975,27.725,娄底市,市监测站,细颗粒物(PM2.5),67,78,54,48,34,18,,87,64,35,18,7,6,0.9,0.9
2025-09-28T2300,2489A,112.0194,27.7314,娄底市,市委党校,细颗粒物(PM2.5),77,75,47,56,34,30,,84,53,26,17,9,6,0.8,0.9
2025-09-28T2300,2490A,111.9561,27.7569,娄底市,涟钢,,50,50,57,32,33,16,,72,48,10,22,6,9,0.7,1.2
2025-09-28T2300,2491A,111.9892,27.7044,娄底市,市政府,细颗粒物(PM2.5),84,73,40,62,30,7,,96,60,28,13,6,6,1.1,1
2025-09-28T2300,1893A,105.4324,28.9634,泸州市,九狮山,,40,40,36,23,17,35,,67,54,7,5,5,5,0.3,0.4
2025-09-28T2300,1894A,105.4427,28.9063,泸州市,小市上码头,,13,12,26,9,13,22,,42,34,8,8,5,6,0.6,0.6
2025-09-28T2300,1895A,105.4241,28.8573,泸州市,兰田宪桥,,19,19,40,8,16,38,,73,58,6,10,4,5,0.7,0.8
2025-09-28T2300,1896A,105.4379,28.8833,泸州市,市环监站,,15,15,30,9,18,36,,68,56,12,13,5,6,0.5,0.6
2025-09-28T2300,4272A,105.3689,28.7783,泸州市,纳溪中医医院,,27,27,32,10,21,50,,85,62,7,13,5,6,0.6,0.7
2025-09-28T2300,2183A,111.1406,37.5211,吕梁市,环保局,颗粒物(PM10),75,100,53,35,30,2,,84,48,54,31,1,2,0.6,0.9
2025-09-28T2300,2185A,111.1297,37.5136,吕梁市,自来水公司,颗粒物(PM10),54,58,41,25,26,39,,81,66,19,22,2,3,0.5,0.6
2025-09-28T2300,2867A,111.1283,37.51,吕梁市,马茂庄小学,颗粒物(PM10),58,66,51,19,25,17,,91,62,44,26,3,5,0.5,0.6
2025-09-28T2300,1812A,112.3931,34.6516,洛阳市,市委党校,,22,22,21,14,18,63,,57,57,14,18,5,6,0.5,0.8
2025-09-28T2300,1815A,112.494,34.6886,洛阳市,河南林校,,27,27,28,16,19,61,,47,47,16,22,5,6,0.5,0.8
2025-09-28T2300,1816A,112.3844,34.623,洛阳市,开发区管委会,,19,17,18,13,14,45,,42,42,13,16,6,7,0.5,0.7
2025-09-28T2300,1817A,112.4267,34.6258,洛阳市,市委新办公区,,22,21,18,15,14,59,,55,55,11,14,6,6,0.4,0.6
2025-09-28T2300,3340A,112.6005,34.6326,洛阳市,伊滨,,22,22,19,13,14,62,,61,61,16,17,5,5,0.3,0.5
2025-09-28T2300,3341A,112.4951,34.6332,洛阳市,中移产业园,,22,19,21,13,16,69,,61,61,12,18,5,6,0.6,0.8
2025-09-28T2300,3593A,112.5736,34.8993,洛阳市,吉利监测站,,35,30,22,24,16,36,,41,39,20,15,6,6,0.8,0.8
2025-09-28T2300,3635A,112.3677,34.662,洛阳市,河科大西苑校区,,23,19,22,9,12,71,,62,62,14,18,7,7,0.5,0.8
2025-09-28T2300,3636A,112.4388,34.6781,洛阳市,英才小学,,31,31,26,20,22,62,,49,49,14,20,6,6,0.7,1
2025-09-28T2300,4214A,112.4600,34.6949,洛阳市,春都路1号院,,28,28,29,15,20,52,,42,42,24,28,4,5,0.5,0.8
2025-09-28T2300,2399A,114.051,33.5699,漯河市,三五一五工厂,,32,25,18,22,20,17,,57,37,22,15,6,7,1.0,0.8
2025-09-28T2300,2400A,114.0055,33.5698,漯河市,漯河大学,,40,40,20,17,19,21,,61,39,22,19,5,5,0.7,0.6
2025-09-28T2300,2401A,114.0138,33.5828,漯河市,市水利局,,25,19,27,17,21,19,,56,34,19,19,6,6,0.7,0.6
2025-09-28T2300,2402A,114.0261,33.5698,漯河市,市广电局,,28,24,29,19,21,19,,61,39,17,13,3,4,0.9,0.7
2025-09-28T2300,3478A,113.9749,33.5664,漯河市,市图书馆,,21,21,24,13,16,29,,58,41,17,18,5,5,0.6,0.6
2025-09-28T2300,4250A,114.0892,33.5882,漯河市,韶山路11号,,36,36,26,20,20,18,,59,36,26,19,5,6,0.9,0.7
2025-09-28T2300,1798A,118.5092,31.6837,马鞍山市,湖东路四小,,31,31,48,18,30,39,,85,60,21,22,7,9,0.7,1
2025-09-28T2300,1799A,118.5024,31.6449,马鞍山市,开发区,,27,27,47,10,20,44,,100,63,13,24,6,8,0.7,1
2025-09-28T2300,1802A,118.6245,31.7241,马鞍山市,濮塘,,23,23,32,10,22,50,,97,68,12,14,7,8,1.1,1.2
2025-09-28T2300,3633A,118.4918,31.6809,马鞍山市,雨山,,29,29,41,18,25,34,,83,53,26,25,3,8,0.6,1.1
2025-09-28T2300,4191A,118.5274,31.72227,马鞍山市,慈湖高新区,,34,34,57,18,25,25,,80,51,32,24,5,7,0.6,0.8
2025-09-28T2300,1686A,111.0286,21.4688,茂名市,电白南海,,27,27,25,14,14,28,,38,34,9,8,6,6,0.6,0.5
2025-09-28T2300,1687A,110.9294,21.6533,茂名市,茂石化七小,,18,17,22,12,9,32,,35,28,6,8,6,6,0.4,0.4
2025-09-28T2300,1688A,110.9107,21.6687,茂名市,健康路,,17,17,15,9,9,32,,39,32,8,9,5,6,0.2,0.3
2025-09-28T2300,1689A,110.8592,21.6828,茂名市,高岭,,24,24,22,3,4,32,,38,32,9,11,9,10,0.5,0.4
2025-09-28T2300,3450A,111.01,21.5165,茂名市,电白水东,,17,17,12,7,7,30,,38,35,10,8,7,7,0.7,0.7
2025-09-28T2300,2539A,104.0308,30.0478,眉山市,黑龙滩水库,,13,6,17,3,11,40,,55,54,8,9,2,2,0.2,0.2
2025-09-28T2300,2540A,103.8416,30.0874,眉山市,气象局,,24,24,29,3,15,27,,45,38,20,19,10,10,0.4,0.5
2025-09-28T2300,3137A,103.8578,30.0744,眉山市,市委党校,,11,7,20,3,10,29,,43,37,21,18,7,7,0.6,0.7
2025-09-28T2300,3148A,103.8291,30.0564,眉山市,区人社局,,33,33,42,3,14,28,,47,39,22,20,7,9,0.8,0.9
2025-09-28T2300,1690A,116.1231,24.3284,梅州市,梅江月梅,,33,33,31,19,15,40,,91,82,23,14,9,9,0.6,0.6
2025-09-28T2300,1691A,116.0797,24.2719,梅州市,梅县新城,,31,31,28,9,12,50,,90,84,19,11,7,7,0.5,0.5
2025-09-28T2300,1692A,116.1248,24.2654,梅州市,环境监控中心,,33,33,29,15,16,32,,84,74,30,15,5,11,0.6,0.6
2025-09-28T2300,3315A,116.1233,24.2991,梅州市,梅龙,,29,29,26,19,12,54,,88,81,18,12,8,8,0.8,0.7
2025-09-28T2300,1878A,104.7778,31.4741,绵阳市,富乐山,,12,12,12,3,6,34,,43,40,7,7,8,8,0.5,0.6
2025-09-28T2300,1880A,104.6697,31.4668,绵阳市,高新区自来水公司,,11,9,8,3,3,30,,39,38,21,17,7,7,0.6,0.6
2025-09-28T2300,1881A,104.7287,31.5075,绵阳市,三水厂,,16,16,10,3,7,39,,44,43,12,15,11,11,0.6,0.6
2025-09-28T2300,3491A,104.69,31.5322,绵阳市,西科大附属小学,,14,9,12,3,6,42,,40,39,18,18,8,8,0.5,0.6
2025-09-28T2300,3492A,104.5648,31.5343,绵阳市,安州区旅游局,,15,,8,3,4,47,,42,42,12,11,8,8,0.6,0.7
2025-09-28T2300,4226A,104.7651,31.4531,绵阳市,绵阳市气象局,,14,9,9,3,5,43,,47,47,6,8,7,6,0.5,0.5
2025-09-28T2300,1784A,129.61,44.561,牡丹江市,环保大楼,,35,26,26,24,13,40,,61,51,17,21,6,7,0.3,0.3
2025-09-28T2300,1785A,129.6115,44.5782,牡丹江市,文化广场,,33,27,32,23,19,37,,57,49,23,25,6,7,0.5,0.6
2025-09-28T2300,1786A,129.5904,44.5963,牡丹江市,第一医院,细颗粒物(PM2.5),55,52,43,39,26,7,,57,36,31,27,6,6,0.4,0.3
2025-09-28T2300,1787A,129.6364,44.6075,牡丹江市,机车工厂,颗粒物(PM10),53,55,41,32,21,0,,52,34,30,25,7,7,0.5,0.4
2025-09-28T2300,1788A,129.6386,44.5462,牡丹江市,第一中学,,32,32,26,13,11,18,,62,42,27,21,5,4,0.3,0.3
2025-09-28T2300,2531A,105.0703,29.61,内江市,市监测站,,15,15,14,7,10,39,,43,41,6,11,1,2,0.5,0.6
2025-09-28T2300,2532A,105.0717,29.5947,内江市,东兴区政府,,12,7,12,3,7,38,,42,40,8,13,4,5,0.4,0.5
2025-09-28T2300,2533A,105.0653,29.5817,内江市,内江二中,,16,16,17,3,13,40,,45,43,8,12,2,2,0.5,0.7
2025-09-28T2300,2534A,105.0406,29.5822,内江市,内江日报社,,16,16,18,3,12,48,,53,50,9,12,3,4,0.4,0.6
2025-09-28T2300,2628A,92.0657,31.4846,那曲市,那曲监测站,颗粒物(PM10),76,101,40,52,18,19,,94,71,53,21,4,3,1.2,0.5
2025-09-28T2300,4243A,92.0515,31.4787,那曲市,那曲市委宣传部,,38,38,28,18,12,50,,111,94,28,16,5,3,0.9,0.7
2025-09-28T2300,1290A,115.8931,28.6843,南昌市,省外办,细颗粒物(PM2.5),55,49,47,39,33,102,,136,112,18,14,2,2,0.8,0.8
2025-09-28T2300,1291A,115.8886,28.7003,南昌市,省林业公司,颗粒物(PM10),52,53,46,31,30,78,,128,98,20,13,2,3,0.4,0.5
2025-09-28T2300,1292A,115.8126,28.7442,南昌市,林科所,,39,39,36,27,22,96,,131,101,15,11,8,8,0.4,0.5
2025-09-28T2300,1294A,115.8518,28.687,南昌市,建工学校,细颗粒物(PM2.5),55,52,49,39,30,109,,140,115,15,13,8,9,0.8,0.8
2025-09-28T2300,1295A,115.8921,28.6424,南昌市,象湖,,33,30,41,22,25,105,,154,122,16,15,8,8,0.9,1.1
2025-09-28T2300,1296A,115.7423,28.7996,南昌市,武术学校,,25,25,21,12,11,10,,110,51,8,8,7,8,0.4,0.5
2025-09-28T2300,3046A,115.9084,28.6062,南昌市,机电学校,,47,47,53,27,28,102,,159,127,10,9,7,8,0.6,0.8
2025-09-28T2300,3690A,115.9721,28.7031,南昌市,外国语学校,颗粒物(PM10),51,51,47,27,24,95,,133,113,26,19,8,8,0.6,0.7
2025-09-28T2300,4192A,115.9316,28.68677,南昌市,南京东路235号,,50,50,51,34,30,103,,145,118,18,17,4,4,1.0,1
2025-09-28T2300,1906A,106.0789,30.8023,南充市,南充市委,,11,6,15,3,10,35,,36,36,8,10,3,3,0.3,0.4
2025-09-28T2300,1907A,106.1031,30.8217,南充市,南充炼油厂,,17,17,22,6,10,39,,40,40,3,6,5,5,0.2,0.2
2025-09-28T2300,4227A,106.1083,30.7884,南充市,梨树横街98号,,14,,15,8,11,42,,44,44,4,6,4,4,0.3,0.3
2025-09-28T2300,4304A,106.1172,30.843,南充市,清泉寺北路188号,,14,6,14,3,10,44,,44,44,5,6,5,5,0.4,0.3
2025-09-28T2300,4305A,106.067,30.7616,南充市,同庆路1号,,12,6,10,3,6,38,,41,41,8,8,5,5,0.3,0.3
2025-09-28T2300,1151A,118.8086,32.1065,南京市,迈皋桥,,20,17,29,14,19,58,,82,52,5,12,4,4,0.8,0.9
2025-09-28T2300,1152A,118.7538,32.0551,南京市,草场门,,27,27,34,14,23,53,,79,56,12,23,3,3,0.7,0.8
2025-09-28T2300,1153A,118.7794,32.0745,南京市,山西路,,31,31,37,14,17,62,,89,58,10,27,3,4,0.7,0.8
2025-09-28T2300,1154A,118.7752,32.0023,南京市,中华门,,22,22,28,9,18,48,,85,59,10,21,4,4,0.6,0.6
2025-09-28T2300,1155A,118.8109,32.0309,南京市,瑞金路,,24,24,31,9,22,47,,80,51,15,23,7,7,0.4,0.5
2025-09-28T2300,1156A,118.7997,32.0754,南京市,玄武湖,,26,26,34,6,14,55,,78,50,14,12,11,11,0.2,0.3
2025-09-28T2300,1157A,118.6414,32.0931,南京市,浦口,,30,30,28,11,13,55,,77,58,14,11,6,6,0.7,0.7
2025-09-28T2300,1158A,118.7356,31.9996,南京市,奥体中心,,30,30,33,12,24,53,,99,70,12,21,7,7,0.6,0.6
2025-09-28T2300,1159A,118.9125,32.1028,南京市,仙林大学城,,27,27,40,7,17,47,,85,52,13,23,8,9,0.8,1
2025-09-28T2300,3422A,118.8436,31.9198,南京市,江宁彩虹桥,,27,27,34,12,22,38,,104,64,14,16,4,4,0.7,0.8
2025-09-28T2300,3427A,118.8554,32.3578,南京市,六合雄州,,28,28,22,13,12,63,,60,57,14,27,5,6,1.0,1
2025-09-28T2300,4249A,118.8708,31.3402,南京市,汶溪路181号,,24,24,37,12,30,50,,128,83,15,16,5,7,0.9,1
2025-09-28T2300,4312A,119.019,31.6512,南京市,中山西路1号,,18,17,36,12,24,40,,102,66,20,25,4,4,0.7,0.8
2025-09-28T2300,1401A,108.3103,22.7881,南宁市,二十一中,,13,13,27,9,15,16,,52,30,15,16,5,7,0.6,0.7
2025-09-28T2300,1402A,108.3141,22.8528,南宁市,北湖,,15,13,28,10,16,21,,70,40,25,22,5,11,0.5,0.6
2025-09-28T2300,1403A,108.3206,22.8225,南宁市,市监测站,,18,17,24,12,13,18,,53,29,17,18,6,7,0.4,0.5
2025-09-28T2300,1404A,108.3829,22.8037,南宁市,大自然花园,,16,15,25,11,15,18,,59,35,13,12,4,5,0.5,0.5
2025-09-28T2300,1406A,108.2397,22.8467,南宁市,区农职院,,19,19,24,9,12,9,,57,28,22,17,3,3,0.6,0.6
2025-09-28T2300,1407A,108.3275,22.735,南宁市,英华嘉园,,26,,37,18,18,14,,59,35,13,16,2,4,0.4,0.5
2025-09-28T2300,3401A,108.4834,22.7618,南宁市,红星社区,,16,16,25,8,13,24,,57,35,9,13,4,5,0.3,0.4
2025-09-28T2300,4221A,108.2177,22.7774,南宁市,乐贤路16号,,24,24,32,16,18,2,,57,31,28,19,2,6,0.4,0.4
2025-09-28T2300,2332A,118.1681,26.6369,南平市,南平市监测站,,11,11,15,3,9,14,,66,39,21,11,4,6,0.4,0.4
2025-09-28T2300,2333A,118.1825,26.6489,南平市,南平铝业有限公司,,21,21,21,7,11,8,,66,34,28,15,5,6,0.6,0.5
2025-09-28T2300,2334A,118.1756,26.6272,南平市,南平七中,,22,22,18,6,8,18,,67,42,12,9,3,4,0.5,0.5
2025-09-28T2300,1168A,120.9098,31.9663,南通市,狼山街道,,20,20,29,11,21,58,,120,72,8,18,3,4,0.7,0.6
2025-09-28T2300,1169A,120.86,32.0005,南通市,虹桥,,25,,31,17,23,60,,123,77,9,17,2,5,0.9,0.8
2025-09-28T2300,1170A,120.87,32.02,南通市,城中,,21,18,36,10,19,65,,118,76,11,18,4,3,0.5,0.7
2025-09-28T2300,1171A,120.94,31.93,南通市,星湖花园,,18,13,28,10,21,56,,94,59,10,27,3,5,0.9,1
2025-09-28T2300,1172A,120.81,32.0417,南通市,紫琅学院,,18,18,32,11,18,57,,116,70,10,18,4,6,0.9,0.8
2025-09-28T2300,3291A,121.067,32.062,南通市,通州监测站,,,12,25,7,18,78,,119,80,,11,,2,0.9,0.8
2025-09-28T2300,3432A,120.9348,31.9883,南通市,环境教育馆,,24,24,36,15,24,74,,132,80,8,19,3,5,0.6,0.5
2025-09-28T2300,2404A,112.5224,33.0122,南阳市,瓦房庄,,21,21,25,11,8,34,,57,46,17,11,7,7,0.7,0.6
2025-09-28T2300,2405A,112.5003,32.9735,南阳市,汉画馆,,24,24,29,16,15,13,,56,40,33,15,7,8,0.7,0.7
2025-09-28T2300,2406A,112.5573,33.027,南阳市,气象站,,16,16,20,9,11,42,,58,51,15,9,8,8,0.6,0.6
2025-09-28T2300,2407A,112.5481,32.9689,南阳市,理工学院,,24,24,28,3,5,34,,58,51,18,13,9,9,0.7,0.7
2025-09-28T2300,4008A,112.5234,32.9922,南阳市,卧龙区政府,,23,23,18,14,16,24,,56,43,25,16,7,7,0.9,0.8
2025-09-28T2300,1234A,121.8358,29.911,宁波市,区环保大楼,,49,49,27,32,14,17,,96,55,56,19,5,6,0.6,0.5
2025-09-28T2300,1235A,121.56,29.82,宁波市,万里学院,,38,,19,26,13,37,,100,73,43,15,6,7,0.5,0.4
2025-09-28T2300,1236A,121.713,29.9572,宁波市,龙赛医院,,33,33,27,10,9,22,,110,57,47,18,6,7,0.5,0.4
2025-09-28T2300,1239A,121.633,29.7733,宁波市,钱湖水厂,细颗粒物(PM2.5),62,59,20,44,13,51,,94,65,17,8,5,5,0.6,0.5
2025-09-28T2300,1240A,121.5856,29.8635,宁波市,太古小学,,31,31,22,10,10,46,,100,71,28,11,3,3,0.7,0.6
2025-09-28T2300,1241A,121.524,29.8674,宁波市,市环境监测中心,,29,29,20,12,9,49,,104,74,28,14,6,7,0.5,0.5
2025-09-28T2300,2871A,121.6147,29.9017,宁波市,万里国际学校,,27,27,21,12,11,47,,115,78,37,12,4,5,0.5,0.4
2025-09-28T2300,3710A,121.5594,29.8975,宁波市,白沙活动中心,,21,17,18,12,9,66,,110,78,19,15,3,2,0.4,0.3
2025-09-28T2300,2341A,119.5388,26.6612,宁德市,宁德市监测站,,12,7,16,6,6,38,,71,52,10,9,4,4,0.4,0.4
2025-09-28T2300,3209A,119.5231,26.6562,宁德市,宁德一中,,18,15,15,12,6,42,,73,53,4,6,6,6,0.2,0.2
2025-09-28T2300,2618A,98.8601,25.8567,怒江傈僳族自治州,州监测站,,24,24,21,10,11,12,,52,33,11,8,8,7,0.5,0.5
2025-09-28T2300,2619A,98.8546,25.8417,怒江傈僳族自治州,泸水一中,,18,,17,12,9,0,,40,21,15,11,5,6,0.6,0.5
2025-09-28T2300,1888A,101.6891,26.571,攀枝花市,弄弄坪,,37,37,39,13,16,11,,62,38,25,17,10,12,0.8,1.2
2025-09-28T2300,1889A,101.5769,26.5928,攀枝花市,河门口,,36,36,32,12,11,16,,63,42,20,13,13,12,0.7,0.9
2025-09-28T2300,1890A,101.7169,26.585,攀枝花市,炳草岗,,36,36,42,14,16,6,,64,34,34,24,8,11,0.8,1.2
2025-09-28T2300,1891A,101.7369,26.5008,攀枝花市,仁和,,20,20,24,12,14,14,,55,31,14,14,9,14,0.7,1
2025-09-28T2300,2835A,101.7227,26.567,攀枝花市,四十中小,,32,32,35,14,20,7,,61,32,32,21,14,13,1.3,1.5
2025-09-28T2300,1604A,122.0303,41.1489,盘锦市,开发区,细颗粒物(PM2.5),54,,23,38,17,67,,113,86,33,20,9,10,0.7,0.5
2025-09-28T2300,1605A,122.0485,41.0883,盘锦市,兴隆台,,50,,24,35,17,53,,118,82,44,23,7,8,0.5,0.4
2025-09-28T2300,1606A,121.8297,41.1028,盘锦市,新生街道,细颗粒物(PM2.5),64,,19,46,21,33,,115,72,62,20,5,6,0.7,0.5
2025-09-28T2300,1832A,113.3257,33.742,平顶山市,新华旅馆,,23,16,19,15,18,72,,63,63,12,15,5,5,0.4,0.6
2025-09-28T2300,1833A,113.2919,33.737,平顶山市,规划设计院,,27,27,20,16,16,62,,61,61,15,15,4,4,0.6,0.8
2025-09-28T2300,1834A,113.182,33.774,平顶山市,平顶山工学院,,23,23,18,9,12,70,,66,66,14,14,6,7,0.6,0.7
2025-09-28T2300,3204A,113.3025,33.73,平顶山市,规划局,,22,14,19,9,15,69,,66,66,15,15,5,6,0.5,0.7
2025-09-28T2300,3594A,112.8867,33.9116,平顶山市,石龙区,,23,17,13,16,12,69,,80,80,10,9,5,5,0.4,0.5
2025-09-28T2300,2656A,106.6692,35.5461,平凉市,聚贤嘉苑,,49,49,48,18,27,22,,102,54,47,32,8,8,0.5,0.6
2025-09-28T2300,2657A,106.7021,35.5307,平凉市,博物馆,颗粒物(PM10),57,64,56,29,24,15,,100,50,34,30,10,10,0.7,0.8
2025-09-28T2300,2347A,114.0997,27.5002,萍乡市,武功山,,13,13,18,3,6,39,,84,69,4,4,14,14,0.6,0.6
2025-09-28T2300,2348A,113.8385,27.6434,萍乡市,中医院,,43,40,51,30,33,46,,116,84,25,17,4,6,1.0,1.2
2025-09-28T2300,2349A,113.8493,27.6253,萍乡市,市政府车库,,50,41,41,35,34,39,,128,87,22,17,12,13,0.8,1.1
2025-09-28T2300,2350A,113.8676,27.6435,萍乡市,市环保局,,41,41,42,27,28,55,,126,94,16,11,6,6,0.3,0.5
2025-09-28T2300,2351A,113.866,27.6198,萍乡市,安源区政府,,40,40,41,28,33,44,,126,90,16,15,8,11,0.6,1
2025-09-28T2300,2319A,119.0141,25.4325,莆田市,荔城区仓后路,,22,22,19,3,4,55,,83,66,10,8,9,8,0.7,0.6
2025-09-28T2300,2320A,119.0015,25.4553,莆田市,莆田市监测站,,23,23,17,7,4,49,,85,68,13,7,9,7,0.6,0.5
2025-09-28T2300,2321A,119.1119,25.4561,莆田市,涵江区六中,,18,17,17,8,5,57,,81,66,11,8,8,6,0.4,0.3
2025-09-28T2300,2322A,119.1013,25.3215,莆田市,秀屿区政府,,21,21,20,3,8,63,,85,72,10,9,7,7,0.4,0.5
2025-09-28T2300,2392A,115.0312,35.7636,濮阳市,环保局,细颗粒物(PM2.5),64,,29,46,36,6,,60,32,30,19,4,4,1.1,0.9
2025-09-28T2300,2394A,115.0574,35.7609,濮阳市,油田运输公司,细颗粒物(PM2.5),67,81,50,48,30,10,,64,36,36,23,6,6,1.3,1.1
2025-09-28T2300,3021A,115,35.7668,濮阳市,濮水河管理处,颗粒物(PM10),67,83,55,29,23,2,,56,23,27,21,8,8,1.2,1.1
2025-09-28T2300,4216A,115.0924,35.7686,濮阳市,任丘路479号,细颗粒物(PM2.5),74,79,54,54,39,14,,67,42,31,18,5,5,1.1,1
2025-09-28T2300,2601A,100.98,22.7633,普洱市,市环保局,,38,38,34,24,18,9,,37,23,7,9,7,8,0.3,0.4
2025-09-28T2300,2602A,100.9817,22.8322,普洱市,普洱第二中学,,38,38,26,20,13,11,,37,23,13,7,7,6,0.3,0.3
2025-09-28T2300,2262A,131.0518,45.8751,七台河市,新一中,,19,11,22,3,11,59,,121,86,18,12,11,11,1.2,1
2025-09-28T2300,3345A,131.0577,45.7879,七台河市,中波台,,27,27,30,6,8,34,,92,72,23,21,8,8,0.6,0.6
2025-09-28T2300,3637A,131.0176,45.7761,七台河市,人民广场,,23,23,34,13,15,40,,106,78,25,19,13,12,0.6,0.7
2025-09-28T2300,3684A,130.8781,45.8222,七台河市,新建矿广场,,19,,34,13,14,39,,100,66,15,14,15,16,0.4,0.6
2025-09-28T2300,1779A,123.9305,47.3636,齐齐哈尔市,安居小区,,25,25,35,3,7,44,,57,45,11,14,1,3,0.3,0.5
2025-09-28T2300,1780A,123.9488,47.3386,齐齐哈尔市,中心广场,,22,22,31,3,7,48,,63,53,14,14,4,5,0.2,0.3
2025-09-28T2300,1781A,123.9483,47.3227,齐齐哈尔市,农牧车辆厂,,27,27,39,16,10,41,,64,54,16,13,3,4,0.7,0.6
2025-09-28T2300,1783A,123.945,47.2988,齐齐哈尔市,市环境监测站,,25,25,33,3,10,44,,62,52,15,15,6,6,0.3,0.4
2025-09-28T2300,3662A,123.6333,47.2075,齐齐哈尔市,富区青少年活动中心,,27,27,46,12,10,23,,62,41,11,12,4,5,0.4,0.5
2025-09-28T2300,2591A,107.9783,26.5747,黔东南苗族侗族自治州,市环境监测站,,13,13,20,9,13,21,,54,34,16,10,3,3,0.5,0.7
2025-09-28T2300,2881A,107.8908,26.5311,黔东南苗族侗族自治州,凯里学院,,19,19,27,13,12,11,,49,31,20,9,1,1,0.6,0.6
2025-09-28T2300,2593A,107.5228,26.2403,黔南布依族苗族自治州,小围寨,,10,7,10,3,2,31,,44,32,3,5,3,3,0.3,0.4
2025-09-28T2300,3538A,107.5175,26.2978,黔南布依族苗族自治州,沙坝,,12,12,15,7,7,17,,34,24,5,6,5,5,0.3,0.4
2025-09-28T2300,2589A,104.9022,25.0925,黔西南布依族苗族自治州,场坝街,,14,14,15,8,8,41,,49,48,5,9,4,5,0.3,0.4
2025-09-28T2300,2590A,104.8811,25.0992,黔西南布依族苗族自治州,坪东大道,,21,21,17,11,8,20,,47,41,10,8,3,3,0.5,0.4
2025-09-28T2300,2502A,108.6236,21.9667,钦州市,市环保站,,9,9,22,3,9,28,,45,35,10,12,2,2,0.6,0.7
2025-09-28T2300,2503A,108.6549,21.9481,钦州市,沙埠小学,,21,21,25,10,13,26,,48,37,9,8,4,3,0.4,0.5
2025-09-28T2300,2504A,108.5989,21.7431,钦州市,港区一小,,13,13,21,9,13,24,,41,32,15,15,3,3,0.4,0.5
2025-09-28T2300,3404A,108.5959,21.9633,钦州市,北职校,,19,19,25,12,14,29,,47,36,7,8,3,3,0.3,0.4
2025-09-28T2300,1043A,119.7493,40.0116,秦皇岛市,第一关,颗粒物(PM10),59,67,64,30,37,4,,139,65,86,58,7,7,0.7,0.7
2025-09-28T2300,1044A,119.5897,39.9499,秦皇岛市,监测站,颗粒物(PM10),65,79,70,37,38,1,,142,87,93,44,8,8,0.8,0.9
2025-09-28T2300,1046A,119.5251,39.9041,秦皇岛市,建设大厦,颗粒物(PM10),66,81,75,26,29,8,,142,92,70,34,5,6,0.7,0.9
2025-09-28T2300,3132A,119.610547,39.943889,秦皇岛市,文明里,颗粒物(PM10),75,99,68,32,31,0,,143,102,118,45,8,8,0.6,0.6
2025-09-28T2300,4198A,119.5090,39.8253,秦皇岛市,北戴河轮滑馆,颗粒物(PM10),59,68,76,28,38,77,,150,133,17,20,2,5,0.7,0.8
2025-09-28T2300,1307A,120.6659,36.2403,青岛市,仰口,,42,40,16,29,10,110,,102,102,9,8,13,11,0.9,0.8
2025-09-28T2300,1310A,120.4134,36.0658,青岛市,市南区东部子站,颗粒物(PM10),51,51,23,27,17,67,,108,100,31,11,8,6,0.3,0.3
2025-09-28T2300,1311A,120.3664,36.1032,青岛市,四方区子站,颗粒物(PM10),58,66,27,31,20,70,,117,106,32,11,7,6,0.5,0.4
2025-09-28T2300,1312A,120.2994,36.054,青岛市,市南区西部子站,,44,44,21,24,16,93,,109,106,17,13,7,7,0.7,0.6
2025-09-28T2300,1313A,120.4581,36.0858,青岛市,崂山区子站,,46,46,19,27,13,66,,106,96,35,15,10,8,0.6,0.4
2025-09-28T2300,1315A,120.3999,36.3083,青岛市,城阳区子站,,36,36,25,24,17,97,,111,94,18,15,5,4,0.6,0.5
2025-09-28T2300,3362A,120.5014,36.4034,青岛市,即墨2号,,45,39,23,31,20,79,,100,93,23,15,4,4,0.5,0.4
2025-09-28T2300,3642A,120.3503,36.0736,青岛市,市北区南部,,39,38,24,27,17,80,,101,95,28,20,11,9,0.9,0.8
2025-09-28T2300,3643A,120.3948,36.1805,青岛市,李沧区北部,颗粒物(PM10),54,58,26,34,22,62,,98,80,36,20,7,6,0.6,0.5
2025-09-28T2300,4290A,120.1969,35.9546,青岛市,珠江路669号,细颗粒物(PM2.5),55,51,24,39,20,68,,98,87,28,23,9,8,0.7,0.6
2025-09-28T2300,1702A,113.0426,23.691,清远市,环保大楼,,40,40,41,21,21,73,,116,95,20,20,8,10,0.7,0.8
2025-09-28T2300,1703A,113.0208,23.7106,清远市,凤城街办,,26,26,30,13,16,59,,116,91,19,21,8,10,0.6,0.6
2025-09-28T2300,3025A,113.0477,23.6344,清远市,技师学院,颗粒物(PM10),51,51,42,29,23,27,,125,80,47,30,5,6,0.6,0.6
2025-09-28T2300,3318A,112.9903,23.7403,清远市,清新太和,,18,18,28,9,16,57,,130,99,10,15,6,6,0.5,0.5
2025-09-28T2300,3455A,113.076,23.7198,清远市,清城东城,,30,30,30,15,15,60,,117,93,17,15,6,7,0.7,0.7
2025-09-28T2300,2661A,107.6325,35.7357,庆阳市,庆阳五中,,49,49,41,20,21,60,,65,63,12,13,8,8,0.6,0.6
2025-09-28T2300,2662A,107.6364,35.7067,庆阳市,市环保局,颗粒物(PM10),52,54,52,21,20,56,,68,61,13,15,4,4,0.5,0.6
2025-09-28T2300,1916A,103.7897,25.5035,曲靖市,环境监测站,,30,30,17,3,6,39,,43,41,7,7,3,3,0.4,0.4
2025-09-28T2300,1917A,103.8,25.5364,曲靖市,烟厂办公区,,15,15,13,3,8,42,,45,44,5,6,4,4,0.3,0.3
2025-09-28T2300,3376A,103.7947,25.462,曲靖市,南苑二区,,15,,11,8,6,46,,48,47,6,5,4,4,0.1,0.2
2025-09-28T2300,3377A,103.7444,25.5261,曲靖市,曲靖师范学院,,21,21,13,3,6,46,,44,43,4,5,2,2,0.2,0.3
2025-09-28T2300,1264A,118.8692,28.9398,衢州市,环保大楼,,49,49,39,30,22,55,,100,87,25,16,5,5,0.5,0.4
2025-09-28T2300,1265A,118.8709,28.9666,衢州市,实验学校,,40,40,32,26,19,62,,112,92,20,16,6,6,0.4,0.4
2025-09-28T2300,1266A,118.8621,28.9808,衢州市,衢州学院,,36,36,33,23,19,55,,113,88,23,18,6,6,0.5,0.4
2025-09-28T2300,1611A,118.5819,24.9117,泉州市,涂山街,,25,25,27,16,14,61,,96,70,17,10,3,2,0.5,0.5
2025-09-28T2300,1612A,118.5972,24.8978,泉州市,津头埔,,22,22,28,12,12,54,,91,67,18,11,4,4,0.5,0.5
2025-09-28T2300,1613A,118.6663,24.9424,泉州市,万安,,27,27,24,12,9,66,,95,78,12,11,2,2,0.5,0.5
2025-09-28T2300,3529A,118.6333,24.9264,泉州市,城华南路,,28,28,19,16,10,44,,84,62,22,11,4,3,0.5,0.4
2025-09-28T2300,2626A,88.8876,29.2718,日喀则市,日喀则监测站,,34,6,8,3,1,108,,110,110,5,6,13,14,0.3,0.4
2025-09-28T2300,3726A,88.8781,29.2426,日喀则市,林业技术推广中心,,32,6,8,3,1,100,,109,108,2,3,6,6,0.3,0.3
2025-09-28T2300,1659A,119.471,35.4209,日照市,监测站,,39,39,13,24,12,0,,89,39,60,28,7,7,1.0,0.8
2025-09-28T2300,1660A,119.523,35.4216,日照市,市政府广场,,48,48,13,27,9,16,,96,73,48,16,4,4,1.2,0.9
2025-09-28T2300,1661A,119.5587,35.4044,日照市,港务局,,44,44,14,30,16,36,,103,77,40,15,3,3,1.1,0.9
2025-09-28T2300,3507A,119.5328,35.4625,日照市,职业技术学院,,35,34,15,24,10,28,,100,69,28,15,4,4,1.0,0.9
2025-09-28T2300,3604A,119.3266,35.1044,日照市,岚山环保分局,,36,36,17,17,10,36,,96,82,33,20,8,8,1.2,1.1
2025-09-28T2300,1835A,111.1922,34.7752,三门峡市,市政府,,26,23,26,13,20,13,,44,32,52,26,7,6,0.7,0.7
2025-09-28T2300,1836A,111.1587,34.7942,三门峡市,开发区,,29,29,33,15,21,29,,44,42,32,20,5,5,0.5,0.6
2025-09-28T2300,3039A,111.1911,34.7829,三门峡市,三门峡市第一小学,,34,34,31,14,19,33,,49,43,34,18,5,4,0.7,0.8
2025-09-28T2300,3598A,111.1,34.7167,三门峡市,富达温泉假日酒店,,30,30,27,16,23,32,,51,49,30,23,7,8,0.5,0.6
2025-09-28T2300,2324A,117.6211,26.2625,三明市,三钢,,17,17,19,8,16,26,,84,55,15,13,2,3,0.4,0.5
2025-09-28T2300,2326A,117.6028,26.2378,三明市,三元区政府,,35,35,25,17,12,8,,90,54,29,15,4,4,0.6,0.6
2025-09-28T2300,1876A,109.5078,18.2489,三亚市,河东子站,,21,21,10,13,7,47,,50,45,3,3,3,2,0.6,0.6
2025-09-28T2300,1877A,109.4964,18.2681,三亚市,河西子站,,31,31,15,15,8,50,,51,49,1,1,7,6,0.4,0.4
2025-09-28T2300,3540A,109.7348,18.3443,三亚市,君悦子站,,44,44,38,18,14,44,,48,42,3,3,3,3,0.5,0.4
2025-09-28T2300,2624A,91.7608,29.2313,山南市,山南监测站,,27,6,5,3,2,84,,86,82,2,4,5,5,0.2,0.2
2025-09-28T2300,2625A,91.7706,29.2436,山南市,山南人民医院,,27,8,9,3,5,84,,84,79,1,4,2,2,0.2,0.2
2025-09-28T2300,1674A,116.6794,23.3667,汕头市,金平子站,,21,21,20,9,8,49,,82,64,14,8,2,2,0.5,0.5
2025-09-28T2300,1675A,116.7244,23.3633,汕头市,龙湖子站,,33,33,21,6,8,49,,87,76,20,8,7,7,0.5,0.5
2025-09-28T2300,1676A,116.7258,23.2775,汕头市,濠江子站,,17,14,22,6,10,53,,76,57,9,5,5,5,0.6,0.6
2025-09-28T2300,1677A,116.7519,23.4714,汕头市,澄海子站,,34,34,26,10,10,57,,80,72,13,9,3,5,0.8,0.7
2025-09-28T2300,1678A,116.6092,23.2539,汕头市,潮阳子站,,21,21,25,9,11,50,,77,68,10,8,5,5,0.6,0.6
2025-09-28T2300,3444A,116.454,23.2684,汕头市,潮南峡山,,45,45,27,18,14,42,,84,71,14,8,7,7,0.7,0.6
2025-09-28T2300,3624A,116.4069,23.2533,汕头市,潮南子站,,46,46,28,26,12,57,,78,70,10,6,5,4,0.6,0.5
2025-09-28T2300,1693A,115.3653,22.775,汕尾市,市环保局,,24,24,22,9,11,57,,76,65,7,7,4,4,0.5,0.6
2025-09-28T2300,1694A,115.3706,22.7898,汕尾市,市政府,,22,22,21,8,11,53,,79,62,8,10,5,6,0.5,0.5
2025-09-28T2300,1695A,115.3622,22.7925,汕尾市,新城中学,,22,22,27,7,10,53,,78,62,8,9,5,6,0.5,0.5
2025-09-28T2300,2645A,109.9154,33.8715,商洛市,监测站,,25,22,13,17,6,54,,79,70,19,14,5,5,0.6,0.7
2025-09-28T2300,3045A,109.9643,33.8471,商洛市,商州区中学,,20,20,16,12,10,50,,76,64,26,22,3,3,0.4,0.5
2025-09-28T2300,2408A,115.6702,34.4285,商丘市,环境监测站,,30,30,15,19,12,30,,79,51,18,12,2,2,0.7,0.6
2025-09-28T2300,2409A,115.6458,34.4045,商丘市,粮食局,,39,,15,27,11,28,,77,52,19,12,4,3,0.6,0.5
2025-09-28T2300,2410A,115.6293,34.3948,商丘市,睢阳区环保局,,35,32,17,24,17,26,,75,42,19,13,2,3,0.7,0.6
2025-09-28T2300,3171A,115.6071,34.4465,商丘市,梁园区档案局,,28,24,14,19,12,22,,73,42,21,12,2,2,0.9,0.8
2025-09-28T2300,1141A,121.4,31.238,上海市,普陀,,40,37,38,28,25,83,,162,111,10,20,5,6,0.7,0.6
2025-09-28T2300,1142A,121.478,31.2036,上海市,十五厂,,49,39,39,34,26,75,,161,92,15,23,6,7,0.9,0.8
2025-09-28T2300,1143A,121.467,31.3008,上海市,虹口,,,,34,,21,,,143,,9,17,6,7,0.5,0.4
2025-09-28T2300,1147A,121.425,31.2261,上海市,静安监测站,,43,37,38,30,25,84,,167,110,14,22,4,5,0.9,0.8
2025-09-28T2300,1148A,121.703,31.1907,上海市,浦东川沙,,,51,42,23,23,,,143,100,12,24,8,9,0.7,0.7
2025-09-28T2300,1149A,121.533,31.2284,上海市,浦东新区监测站,,37,37,38,19,23,78,,160,94,10,20,4,5,0.7,0.6
2025-09-28T2300,1150A,121.577,31.2071,上海市,浦东张江,,41,41,38,23,18,78,,170,98,17,21,6,7,0.9,0.8
2025-09-28T2300,3265A,121.4316,31.3322,上海市,宝山庙行,颗粒物(PM10),51,52,50,30,28,68,,181,124,13,19,5,6,0.6,0.5
2025-09-28T2300,3266A,121.8791,31.4662,上海市,崇明上实东滩,,32,28,24,22,18,64,,151,100,6,13,5,6,0.5,0.4
2025-09-28T2300,3268A,121.3162,31.2838,上海市,嘉定南翔,,42,36,41,29,29,71,,175,127,12,24,4,5,0.6,0.6
2025-09-28T2300,3269A,121.3359,30.7456,上海市,金山新城,细颗粒物(PM2.5),62,52,35,44,28,76,,134,88,15,16,5,7,1.0,0.9
2025-09-28T2300,3270A,121.4996,31.0739,上海市,闵行浦江,,48,45,35,33,22,72,,144,105,13,18,4,4,1.3,1
2025-09-28T2300,3271A,121.2886,31.1663,上海市,青浦徐泾,细颗粒物(PM2.5),55,,34,39,27,83,,180,132,12,18,7,8,0.8,0.7
2025-09-28T2300,3272A,121.2186,31.0378,上海市,松江图书馆,细颗粒物(PM2.5),63,62,39,45,28,76,,178,130,27,26,4,5,0.8,0.6
2025-09-28T2300,3273A,121.3902,31.2059,上海市,长宁仙霞,,,39,39,31,24,74,,144,90,,18,5,6,0.9,0.8
2025-09-28T2300,3274A,121.7965,31.0507,上海市,浦东惠南,,38,36,27,26,20,78,,116,83,8,21,6,7,0.8,0.6
2025-09-28T2300,3544A,121.4891,30.925,上海市,奉贤南桥新城,,47,47,37,30,25,84,,144,106,10,19,5,6,0.7,0.6
2025-09-28T2300,4183A,121.4174,31.16637,上海市,冠生园路458号,,49,40,36,34,25,53,,147,83,22,24,4,4,1.1,0.9
2025-09-28T2300,4205A,121.5419,31.2683,上海市,宁武路151号,,39,39,40,19,20,70,,148,77,16,32,4,4,0.8,0.8
2025-09-28T2300,2382A,117.9756,28.4436,上饶市,市监测站,,48,45,45,33,28,44,,128,94,20,14,14,19,0.5,0.4
2025-09-28T2300,2383A,117.9519,28.4628,上饶市,凤凰光学,颗粒物(PM10),53,56,41,23,23,58,,126,93,7,7,21,15,0.5,0.4
2025-09-28T2300,3685A,117.897,28.4315,上饶市,双创科技城,颗粒物(PM10),51,51,43,31,27,62,,129,97,25,23,12,13,0.6,0.5
2025-09-28T2300,4211A,118.1904,28.4448,上饶市,裕丰大道,颗粒物(PM10),51,51,31,20,15,44,,103,84,14,10,16,15,0.5,0.4
2025-09-28T2300,1669A,113.5824,24.7733,韶关市,市八中,,18,18,41,10,22,40,,89,67,15,11,8,7,0.6,0.6
2025-09-28T2300,1671A,113.5917,24.7972,韶关市,园林处,,22,22,30,13,24,39,,94,71,13,12,15,11,0.8,0.9
2025-09-28T2300,1673A,113.5971,24.6863,韶关市,曲江监测站,,36,36,38,16,24,30,,99,70,29,17,16,10,1.8,1
2025-09-28T2300,2809A,113.6668,24.7756,韶关市,大学路288号,,19,19,38,11,25,15,,96,64,31,14,8,7,0.6,0.8
2025-09-28T2300,3622A,113.5556,24.8082,韶关市,碧湖山庄,,19,19,39,11,22,53,,88,69,10,12,9,7,0.6,0.7
2025-09-28T2300,2464A,111.5283,27.2442,邵阳市,市化工厂,颗粒物(PM10),64,77,43,38,27,14,,73,46,32,19,9,7,0.8,0.7
2025-09-28T2300,2466A,111.4328,27.2272,邵阳市,市环保局,细颗粒物(PM2.5),68,54,48,49,36,28,,77,58,23,15,10,9,0.8,0.8
2025-09-28T2300,4218A,111.4460,27.2472,邵阳市,北塔二期4-26地块,细颗粒物(PM2.5),62,65,50,44,30,14,,72,43,26,19,6,7,0.7,0.6
2025-09-28T2300,4219A,111.4739,27.2282,邵阳市,邵水西路287号,,,58,48,33,30,,,76,54,32,20,6,6,0.7,0.6
