timepoint,stationcode,longitude,latitude,area,positionname,primarypollutant,aqi,pm10,pm10_24h,pm2_5,pm2_5_24h,o3,o3_24h,o3_8h,o3_8h_24h,no2,no2_24h,so2,so2_24h,co,co_24h
2022-07-14T11:00:00,1001A,116.3621,39.8784,北京市,万寿西宫,,34,20,31,5,14,142,107,47,47,9,20,3,3,0.3,0.6
2022-07-14T11:00:00,1002A,116.2202,40.2915,北京市,定陵(对照点),,31,11,17,3,6,177,98,74,74,2,5,3,3,0.2,0.3
2022-07-14T11:00:00,1003A,116.4174,39.9289,北京市,东四,,39,15,28,5,13,169,122,81,63,12,20,3,2,0.3,0.5
2022-07-14T11:00:00,1004A,116.4072,39.8863,北京市,天坛,,35,11,25,4,14,133,111,54,54,13,19,3,3,0.3,0.5
2022-07-14T11:00:00,1005A,116.462,39.9365,北京市,农展馆,,35,14,30,5,13,158,111,63,51,15,24,3,3,0.3,0.6
2022-07-14T11:00:00,1006A,116.3392,39.9295,北京市,官园,,35,11,26,2,11,178,109,55,55,10,20,2,2,0.2,0.4
2022-07-14T11:00:00,1007A,116.2878,39.9611,北京市,海淀万柳,,33,13,28,5,12,167,105,44,44,21,29,3,3,0.2,0.5
2022-07-14T11:00:00,1008A,116.6636,40.135,北京市,顺义新城,,30,10,34,3,14,180,96,65,65,3,16,3,3,0.2,0.5
2022-07-14T11:00:00,1009A,116.6275,40.3275,北京市,怀柔镇,,34,11,20,4,11,210,108,68,68,8,11,1,2,0.2,0.4
2022-07-14T11:00:00,1010A,116.2296,40.217,北京市,昌平镇,,30,11,19,4,8,174,95,68,68,10,17,3,3,0.2,0.4
2022-07-14T11:00:00,1011A,116.3966,39.9821,北京市,奥体中心,,29,14,27,4,9,161,91,57,48,19,31,3,3,0.1,0.3
2022-07-14T11:00:00,1012A,116.184,39.9136,北京市,古城,,35,12,25,4,10,133,111,66,65,10,14,3,3,0.2,0.4
2022-07-14T11:00:00,1015A,117.1444,39.1661,天津市,勤俭道,臭氧1小时,67,52,41,29,23,174,173,82,82,12,13,7,6,1.1,0.7
2022-07-14T11:00:00,1017A,117.237,39.1082,天津市,大直沽八号路,颗粒物(PM10),55,59,43,34,20,165,159,81,79,9,9,7,7,1.0,0.8
2022-07-14T11:00:00,1018A,117.202,39.0927,天津市,前进道,臭氧1小时,62,57,40,27,20,172,169,87,87,14,14,6,6,1.6,1
2022-07-14T11:00:00,1019A,117.1837,39.2133,天津市,淮河道,臭氧1小时,75,70,50,39,29,191,180,92,90,14,18,10,7,1.2,0.8
2022-07-14T11:00:00,1021A,117.307,39.0877,天津市,跃进路,臭氧1小时,87,80,45,29,16,189,189,96,93,14,15,6,6,1.3,0.6
2022-07-14T11:00:00,1023A,117.707,39.0343,天津市,第四大街,细颗粒物(PM2.5),94,111,48,70,27,172,144,73,73,20,18,6,6,1.5,1
2022-07-14T11:00:00,1024A,117.457,38.8394,天津市,永明路,臭氧1小时,74,71,40,38,23,179,179,81,81,21,15,8,6,1.1,0.9
2022-07-14T11:00:00,1026A,117.764,39.1587,天津市,汉北路,细颗粒物(PM2.5),84,101,47,62,29,189,166,78,78,14,14,5,5,1.7,0.9
2022-07-14T11:00:00,1027A,117.157,38.9194,天津市,团泊洼(对照点),臭氧1小时,106,40,39,23,17,212,212,100,100,10,6,6,6,1.5,1.3
2022-07-14T11:00:00,1029A,114.4422,38.0444,石家庄市,职工医院,,45,38,56,20,36,211,141,59,59,7,23,2,6,0.5,1
2022-07-14T11:00:00,1030A,114.6063,38.0266,石家庄市,高新区,,,52,54,26,28,218,,63,28,14,28,5,6,0.8,1.1
2022-07-14T11:00:00,1031A,114.4898,38.1328,石家庄市,西北水源,,,43,51,28,34,228,135,52,47,,23,4,9,0.9,1.3
2022-07-14T11:00:00,1032A,114.4586,38.0058,石家庄市,西南高教,,46,35,56,21,31,191,147,62,62,10,26,7,11,1.1,1.8
2022-07-14T11:00:00,1033A,114.5331,38.0178,石家庄市,世纪公园,颗粒物(PM10),54,58,62,37,36,189,130,52,52,7,16,6,7,0.8,1.3
2022-07-14T11:00:00,1034A,114.509,38.0457,石家庄市,人民会堂,,,38,48,23,29,219,155,74,74,,18,5,10,0.9,1.3
2022-07-14T11:00:00,1035A,114.3524,37.8911,石家庄市,封龙山(对照点),,43,43,41,21,24,177,129,159,133,16,16,2,3,1.1,1.4
2022-07-14T11:00:00,1037A,118.131,39.6363,唐山市,雷达站,颗粒物(PM10),56,61,46,19,16,177,162,92,92,14,16,11,4,1.3,0.7
2022-07-14T11:00:00,1038A,118.1725,39.6334,唐山市,物资局,,,67,41,15,17,172,160,108,93,11,12,17,5,,0.6
2022-07-14T11:00:00,1041A,118.1869,39.622,唐山市,小山,,47,46,31,26,18,183,149,111,83,11,12,13,4,0.9,0.6
2022-07-14T11:00:00,1042A,119.5134,39.8207,秦皇岛市,北戴河环保局,,39,35,53,17,13,143,123,79,70,9,11,7,5,0.3,0.5
2022-07-14T11:00:00,1043A,119.7493,40.0116,秦皇岛市,第一关,,,22,27,12,12,114,,61,54,10,15,11,11,0.2,0.3
2022-07-14T11:00:00,1044A,119.5897,39.9499,秦皇岛市,监测站,,33,33,34,8,20,110,100,50,50,18,15,8,5,0.2,0.4
2022-07-14T11:00:00,1046A,119.5251,39.9041,秦皇岛市,建设大厦,,37,30,35,7,14,117,117,43,43,8,19,3,2,0.3,0.5
2022-07-14T11:00:00,1048A,114.5302,36.6116,邯郸市,东污水处理厂,细颗粒物(PM2.5),117,140,47,88,32,119,60,41,15,29,16,6,7,2.0,1.2
2022-07-14T11:00:00,1050A,114.484,36.6133,邯郸市,丛台公园,细颗粒物(PM2.5),123,123,44,93,35,118,61,43,19,28,19,5,5,2.3,1.3
2022-07-14T11:00:00,1051A,115.493,38.8632,保定市,游泳馆,,42,25,27,10,18,173,133,81,68,9,11,11,11,0.2,0.4
2022-07-14T11:00:00,1052A,115.5213,38.8959,保定市,华电二区,,38,18,37,11,15,182,119,96,70,9,10,5,5,0.4,0.7
2022-07-14T11:00:00,1053A,115.4713,38.9108,保定市,接待中心,,,,38,,15,198,111,89,64,,14,5,5,,0.9
2022-07-14T11:00:00,1054A,115.4612,38.8416,保定市,地表水厂,,42,41,43,14,21,183,133,85,70,8,12,5,6,0.3,0.6
2022-07-14T11:00:00,1055A,115.4323,38.8697,保定市,胶片厂,,38,23,32,10,14,197,121,72,65,10,16,10,10,0.3,0.6
2022-07-14T11:00:00,1056A,115.5086,38.8639,保定市,监测站,,47,47,38,19,19,185,138,94,76,15,13,8,10,0.4,0.7
2022-07-14T11:00:00,1057A,114.8883,40.8336,张家口市,人民公园,,39,10,17,1,2,135,122,74,74,5,8,7,6,0.1,0.1
2022-07-14T11:00:00,1059A,114.8687,40.8042,张家口市,五金库,,36,12,14,2,6,122,115,77,77,10,12,7,7,0.1,0.2
2022-07-14T11:00:00,1060A,114.8902,40.762,张家口市,世纪豪园,,39,8,23,2,9,136,124,83,83,7,13,4,4,0.1,0.2
2022-07-14T11:00:00,1061A,114.8916,40.8661,张家口市,北泵房(对照点),,39,1,17,2,7,133,123,76,76,5,8,9,9,0.5,0.5
2022-07-14T11:00:00,1062A,117.9531,40.9081,承德市,铁路,颗粒物(PM10),53,56,41,9,13,158,90,35,35,20,21,7,5,0.5,0.4
2022-07-14T11:00:00,1063A,117.9392,40.9763,承德市,中国银行,,36,19,19,4,8,146,114,42,42,10,18,5,5,0.2,0.2
2022-07-14T11:00:00,1064A,117.9503,40.928,承德市,开发区,,35,35,34,12,14,170,89,33,33,27,24,5,6,0.4,0.4
2022-07-14T11:00:00,1065A,117.8051,40.9655,承德市,文化中心,,36,34,38,4,12,140,114,49,49,6,21,6,8,0.2,0.3
2022-07-14T11:00:00,1066A,117.9268,41.0026,承德市,离宫(对照点),,,,22,,10,140,,26,26,9,14,2,1,0.2,0.2
2022-07-14T11:00:00,1067A,116.6708,39.5111,廊坊市,药材公司,,,18,29,8,16,154,,86,67,,15,6,6,0.3,0.5
2022-07-14T11:00:00,1068A,116.7214,39.5589,廊坊市,开发区,,39,11,34,8,19,165,123,94,71,12,20,8,8,0.3,0.6
2022-07-14T11:00:00,1070A,116.7244,39.5269,廊坊市,北华航天学院,,39,27,47,12,19,165,124,103,78,15,18,5,5,0.2,0.4
2022-07-14T11:00:00,1071A,116.8842,38.2991,沧州市,沧县城建局,,48,41,30,22,11,152,152,80,80,16,13,7,6,0.8,0.4
2022-07-14T11:00:00,1072A,116.8584,38.3254,沧州市,电视转播站,,,38,23,5,10,134,,88,71,13,11,12,9,0.9,0.5
2022-07-14T11:00:00,1073A,116.8709,38.3228,沧州市,市环保局,颗粒物(PM10),57,64,41,21,11,159,159,89,89,14,13,6,4,0.8,0.4
2022-07-14T11:00:00,1074A,115.6838,37.7541,衡水市,电机北厂,,37,36,23,13,8,134,118,76,71,8,11,8,9,1.5,0.7
2022-07-14T11:00:00,1075A,115.6303,37.7316,衡水市,市监测站,,,41,37,14,9,117,,64,57,8,10,,18,1.2,0.7
2022-07-14T11:00:00,1078A,114.5062,37.0349,邢台市,邢师高专,细颗粒物(PM2.5),70,80,52,51,28,153,115,40,40,13,26,8,9,0.9,1
2022-07-14T11:00:00,1079A,114.5237,37.0851,邢台市,路桥公司,,,91,55,,26,159,121,27,27,,24,,11,1.2,1.3
2022-07-14T11:00:00,1081A,112.5139,37.8873,太原市,尖草坪,颗粒物(PM10),71,91,64,43,31,242,113,64,64,31,32,20,9,1.0,0.9
2022-07-14T11:00:00,1084A,112.469,37.7124,太原市,晋源,颗粒物(PM10),67,84,62,40,29,198,111,46,38,25,35,15,8,1.0,0.5
2022-07-14T11:00:00,1085A,112.5583,37.7394,太原市,小店,颗粒物(PM10),79,107,80,42,36,236,101,36,36,39,41,14,12,1.2,1.1
2022-07-14T11:00:00,1086A,112.5369,37.8692,太原市,桃园,颗粒物(PM10),76,101,56,44,29,241,108,56,56,39,34,18,8,1.4,0.9
2022-07-14T11:00:00,1087A,112.57,37.8195,太原市,坞城,颗粒物(PM10),72,94,67,45,34,243,104,58,46,34,33,5,6,0.9,0.9
2022-07-14T11:00:00,1088A,112.549,37.9854,太原市,南寨,,,92,64,37,29,190,,21,21,26,32,6,4,0.6,0.6
2022-07-14T11:00:00,1090A,111.6507,40.7517,呼和浩特市,呼市一监,,,14,23,2,4,158,,61,61,6,17,6,8,0.3,0.3
2022-07-14T11:00:00,1091A,111.6572,40.8033,呼和浩特市,小召,,,,21,,5,155,110,61,61,8,21,,6,,0.3
2022-07-14T11:00:00,1094A,111.7516,40.8369,呼和浩特市,如意水处理厂,,35,10,16,2,4,158,110,53,53,8,21,8,6,0.3,0.3
2022-07-14T11:00:00,1095A,111.7276,40.8062,呼和浩特市,二十九中,,32,10,21,2,5,156,101,59,59,8,21,7,7,0.3,0.3
2022-07-14T11:00:00,1096A,111.5512,40.7866,呼和浩特市,工大金川校区,,34,14,19,6,7,153,106,72,53,12,18,6,5,0.4,0.4
2022-07-14T11:00:00,1097A,111.717,40.7612,呼和浩特市,化肥厂生活区,,33,12,17,2,4,158,104,72,72,6,14,6,9,0.3,0.3
2022-07-14T11:00:00,1099A,123.505,41.7406,沈阳市,浑南东路,,35,18,17,10,12,128,112,92,92,11,11,7,9,0.5,0.5
2022-07-14T11:00:00,1100A,123.4231,41.6989,沈阳市,新秀街,,29,12,18,9,9,118,92,68,68,14,23,7,9,0.6,0.8
2022-07-14T11:00:00,1102A,123.5903,41.8411,沈阳市,东陵路,,,,23,12,10,100,,62,60,9,12,6,6,0.5,0.5
2022-07-14T11:00:00,1103A,123.4264,41.8467,沈阳市,陵东街,,29,12,18,5,8,100,92,64,64,8,14,3,2,0.4,0.5
2022-07-14T11:00:00,1104A,123.4114,41.7653,沈阳市,文化路,,36,17,18,6,10,135,113,93,93,15,17,8,8,0.4,0.5
2022-07-14T11:00:00,1105A,123.4678,41.7867,沈阳市,小河沿,,32,17,17,6,7,112,102,87,87,21,18,5,4,0.5,0.5
2022-07-14T11:00:00,1106A,123.4017,41.7972,沈阳市,太原街,,35,11,19,5,10,131,112,90,90,20,24,5,5,0.4,0.5
2022-07-14T11:00:00,1108A,123.3783,41.9228,沈阳市,京沈街,,35,11,20,6,10,139,111,86,85,4,11,6,7,0.5,0.6
2022-07-14T11:00:00,1109A,121.612,38.9741,大连市,甘井子,,40,40,26,14,10,119,54,48,48,34,20,5,4,0.5,0.5
2022-07-14T11:00:00,1110A,121.565,38.9511,大连市,周水子,,34,30,24,17,17,120,106,61,61,18,15,5,6,1.1,1.1
2022-07-14T11:00:00,1111A,121.5637,38.8845,大连市,星海三站,,47,47,16,22,11,131,99,66,66,20,19,5,6,0.3,0.3
2022-07-14T11:00:00,1112A,121.6302,38.9117,大连市,青泥洼桥,,50,50,24,34,16,118,106,54,54,39,23,6,6,0.8,0.7
2022-07-14T11:00:00,1113A,121.6251,38.8638,大连市,傅家庄,,23,13,13,12,7,97,73,58,58,7,8,11,10,0.9,0.9
2022-07-14T11:00:00,1114A,121.5213,38.8661,大连市,七贤岭,,40,33,12,20,7,144,126,85,85,11,8,5,5,1.0,0.9
2022-07-14T11:00:00,1115A,121.2529,38.8061,大连市,旅顺,,32,19,16,22,15,119,85,65,65,12,10,4,4,1.1,1.1
2022-07-14T11:00:00,1116A,121.7485,39.1311,大连市,金州,,37,21,29,16,20,132,116,54,54,11,14,9,7,0.6,0.6
2022-07-14T11:00:00,1117A,121.7811,39.0496,大连市,开发区,,,30,17,19,11,114,,42,36,28,22,,7,1.1,1
2022-07-14T11:00:00,1118A,121.9762,39.0631,大连市,双D港,,16,13,8,5,3,73,50,32,32,19,11,9,5,0.4,0.4
2022-07-14T11:00:00,1119A,125.3325,43.9166,长春市,食品厂,,,5,14,1,8,70,,49,49,19,22,,3,0.6,0.5
2022-07-14T11:00:00,1120A,125.2863,43.9027,长春市,客车厂,,,6,13,2,7,85,70,59,59,16,26,,3,0.4,0.4
2022-07-14T11:00:00,1121A,125.2841,43.8463,长春市,邮电学院,,24,0,4,3,7,91,76,63,63,10,16,4,4,0.5,0.4
2022-07-14T11:00:00,1122A,125.3716,43.8772,长春市,劳动公园,,25,6,11,4,8,89,80,64,64,11,21,2,2,0.5,0.6
2022-07-14T11:00:00,1123A,125.3297,43.8805,长春市,园林处,,25,4,12,6,7,88,79,66,66,8,18,3,3,0.6,0.7
2022-07-14T11:00:00,1124A,125.4605,43.79,长春市,净月潭,,26,2,9,2,4,89,81,74,74,9,6,5,5,0.4,0.4
2022-07-14T11:00:00,1126A,125.3863,43.8447,长春市,经开区环卫处,,26,7,10,4,7,97,82,64,64,10,23,3,3,0.4,0.4
2022-07-14T11:00:00,1127A,125.245,43.7783,长春市,高新区管委会,,29,4,9,0,6,91,91,74,74,7,13,3,3,0.4,0.4
2022-07-14T11:00:00,1128A,125.1761,43.8325,长春市,岱山公园,,25,9,10,3,5,92,79,68,68,11,25,4,4,0.3,0.4
2022-07-14T11:00:00,1129A,126.5422,45.755,哈尔滨市,岭北(对照点),,18,5,19,2,14,96,55,46,42,9,19,10,8,0.3,0.3
2022-07-14T11:00:00,1130A,126.561,45.8167,哈尔滨市,松北商大,,,10,26,3,9,90,36,32,27,,26,5,5,0.8,0.8
2022-07-14T11:00:00,1131A,126.979,45.5419,哈尔滨市,阿城会宁,,14,9,31,2,11,71,44,29,29,4,19,5,5,0.7,0.7
2022-07-14T11:00:00,1132A,126.599,45.7222,哈尔滨市,南岗学府路,,16,5,23,0,11,91,49,33,33,8,21,9,13,1.0,1.2
2022-07-14T11:00:00,1133A,126.689,45.7733,哈尔滨市,太平宏伟公园,,13,13,36,7,22,95,40,30,30,14,22,6,7,0.4,0.4
2022-07-14T11:00:00,1134A,126.635,45.7667,哈尔滨市,道外承德广场,,15,15,38,7,9,88,36,28,28,18,28,6,7,0.6,0.5
2022-07-14T11:00:00,1135A,126.685,45.7319,哈尔滨市,香坊红旗大街,,,,25,7,10,91,47,30,30,17,31,12,14,0.4,0.5
2022-07-14T11:00:00,1136A,126.6411,45.7258,哈尔滨市,动力和平路,,,13,35,,,88,43,33,33,14,24,8,10,0.7,0.7
2022-07-14T11:00:00,1137A,126.593,45.7478,哈尔滨市,道里建国路,,35,35,33,6,12,88,47,34,34,16,27,8,9,1.2,1.4
2022-07-14T11:00:00,1138A,126.615,45.61,哈尔滨市,平房东轻厂,,,,32,5,12,74,54,39,39,6,25,2,3,0.4,0.5
2022-07-14T11:00:00,1139A,126.595,45.9855,哈尔滨市,呼兰师专,,13,7,28,3,11,113,39,38,35,12,21,6,7,0.5,0.5
2022-07-14T11:00:00,1140A,126.6206,45.6842,哈尔滨市,省农科院,,19,7,30,2,10,89,58,37,37,14,30,9,9,0.5,0.5
2022-07-14T11:00:00,1141A,121.4,31.238,上海市,普陀,臭氧1小时,88,44,48,29,29,190,190,123,99,14,24,5,5,0.5,0.6
2022-07-14T11:00:00,1142A,121.478,31.2036,上海市,十五厂,,,,58,26,32,187,177,83,76,17,29,3,3,0.6,0.6
2022-07-14T11:00:00,1143A,121.467,31.3008,上海市,虹口,臭氧1小时,102,53,51,27,24,204,204,126,95,18,26,5,4,0.5,0.4
2022-07-14T11:00:00,1144A,121.412,31.1654,上海市,徐汇上师大,,,,51,,40,205,195,90,74,25,39,,6,,0.3
2022-07-14T11:00:00,1145A,121.536,31.2659,上海市,杨浦四漂,臭氧1小时,107,46,48,28,34,335,213,114,97,12,19,6,4,0.7,0.6
2022-07-14T11:00:00,1147A,121.425,31.2261,上海市,静安监测站,臭氧1小时,77,48,50,26,30,181,181,102,85,20,30,1,2,0.4,0.4
2022-07-14T11:00:00,1148A,121.703,31.1907,上海市,浦东川沙,臭氧1小时,95,62,49,40,35,241,196,86,76,34,25,4,5,0.5,0.4
2022-07-14T11:00:00,1149A,121.533,31.2284,上海市,浦东新区监测站,臭氧1小时,84,49,55,22,39,274,187,110,82,17,23,6,5,0.6,0.5
2022-07-14T11:00:00,1150A,121.577,31.2071,上海市,浦东张江,臭氧1小时,79,48,50,32,34,304,183,106,81,21,27,6,5,0.7,0.8
2022-07-14T11:00:00,1151A,118.8086,32.1065,南京市,迈皋桥,,46,41,36,19,16,166,145,82,82,10,17,4,7,0.3,0.3
2022-07-14T11:00:00,1152A,118.7538,32.0551,南京市,草场门,颗粒物(PM10),51,51,37,19,17,154,148,80,70,11,19,6,7,0.7,0.7
2022-07-14T11:00:00,1153A,118.7794,32.0745,南京市,山西路,,,51,40,27,23,156,,81,64,8,14,8,9,0.4,0.4
2022-07-14T11:00:00,1154A,118.7752,32.0023,南京市,中华门,,48,41,41,17,13,151,151,82,82,4,16,4,5,1.3,1.2
2022-07-14T11:00:00,1155A,118.8109,32.0309,南京市,瑞金路,,48,42,38,24,19,158,151,86,86,10,16,6,9,0.3,0.4
2022-07-14T11:00:00,1156A,118.7997,32.0754,南京市,玄武湖,,45,36,32,19,19,143,143,88,85,8,11,4,4,0.7,0.7
2022-07-14T11:00:00,1157A,118.6414,32.0931,南京市,浦口,,43,34,32,17,17,146,136,89,89,3,8,4,6,0.3,0.4
2022-07-14T11:00:00,1158A,118.7356,31.9996,南京市,奥体中心,臭氧1小时,53,51,45,29,21,163,162,76,76,11,26,7,10,0.4,0.5
2022-07-14T11:00:00,1159A,118.9125,32.1028,南京市,仙林大学城,,46,31,37,19,19,168,147,92,92,11,24,6,9,0.6,0.7
2022-07-14T11:00:00,1160A,120.561,31.2472,苏州市,上方山(对照点),,49,49,44,30,27,135,134,82,82,10,16,8,7,0.5,0.5
2022-07-14T11:00:00,1162A,120.591,31.3019,苏州市,彩香,,39,23,32,22,21,142,124,89,89,6,17,6,6,0.4,0.4
2022-07-14T11:00:00,1163A,120.596,31.3264,苏州市,轧钢厂,,,,39,,19,130,,86,68,5,20,6,6,0.5,0.4
2022-07-14T11:00:00,1164A,120.613,31.2703,苏州市,吴中区,,44,28,32,24,20,141,138,84,84,9,21,7,7,0.4,0.5
2022-07-14T11:00:00,1165A,120.543,31.2994,苏州市,苏州新区,,41,31,36,27,23,146,129,90,90,3,9,5,6,0.7,0.7
2022-07-14T11:00:00,1166A,120.669,31.3097,苏州市,苏州工业园区,,38,36,31,18,20,126,120,78,77,9,21,8,7,0.7,0.7
2022-07-14T11:00:00,1167A,120.641,31.3708,苏州市,相城区,,46,44,42,32,29,143,143,88,88,5,26,7,7,0.6,0.6
2022-07-14T11:00:00,1168A,120.9098,31.9663,南通市,狼山街道,臭氧1小时,109,59,40,31,19,218,218,79,79,16,41,9,8,0.9,0.7
2022-07-14T11:00:00,1169A,120.86,32.0005,南通市,虹桥,臭氧1小时,90,54,51,36,30,192,192,69,69,32,52,3,3,0.8,0.7
2022-07-14T11:00:00,1170A,120.87,32.02,南通市,城中,臭氧1小时,92,58,48,33,26,193,193,73,73,21,47,7,7,0.7,0.7
2022-07-14T11:00:00,1171A,120.94,31.93,南通市,星湖花园,臭氧1小时,108,59,47,27,25,234,215,90,90,13,39,11,10,0.9,0.7
2022-07-14T11:00:00,1172A,120.81,32.0417,南通市,紫琅学院,臭氧1小时,105,95,60,29,24,215,209,81,81,22,50,19,17,1.0,1
2022-07-14T11:00:00,1173A,119.176,34.5885,连云港市,市环境监测站,,24,22,42,14,29,136,76,136,85,17,10,1,1,0.6,0.7
2022-07-14T11:00:00,1177A,117.179,34.2761,徐州市,黄河新村,颗粒物(PM10),68,85,56,35,29,163,33,69,55,48,27,12,11,1.0,0.9
2022-07-14T11:00:00,1178A,117.1918,34.2384,徐州市,淮塔,颗粒物(PM10),62,74,54,36,34,159,36,43,43,35,20,8,6,0.8,0.7
2022-07-14T11:00:00,1180A,117.256,34.2153,徐州市,新城区,颗粒物(PM10),56,61,65,34,30,151,38,56,44,23,20,5,6,0.9,0.9
2022-07-14T11:00:00,1181A,117.244,34.2911,徐州市,桃园路,颗粒物(PM10),53,56,67,22,24,171,42,68,41,31,25,11,11,0.8,0.9
2022-07-14T11:00:00,1182A,117.2933,34.2778,徐州市,农科院,,46,46,53,14,18,144,25,29,26,29,31,10,10,0.8,0.8
2022-07-14T11:00:00,1186A,119.389,32.3761,扬州市,邗江监测站,臭氧1小时,77,58,50,28,27,190,181,83,83,8,20,9,9,0.8,0.7
2022-07-14T11:00:00,1188A,120.269,31.4867,无锡市,雪浪,,49,41,32,19,16,182,154,93,93,2,6,14,14,0.2,0.3
2022-07-14T11:00:00,1189A,120.275,31.6219,无锡市,黄巷,,46,46,46,19,23,134,133,80,80,4,26,7,7,1.1,1.1
2022-07-14T11:00:00,1190A,120.294,31.56,无锡市,曹张,,47,40,33,14,19,174,150,87,87,2,27,7,8,0.5,0.6
2022-07-14T11:00:00,1191A,120.242,31.5031,无锡市,漆塘,,45,31,28,16,22,188,144,89,89,1,10,6,6,0.5,0.5
2022-07-14T11:00:00,1192A,120.3489,31.5863,无锡市,东亭,,44,31,34,19,20,159,139,101,101,2,11,8,9,0.6,0.7
2022-07-14T11:00:00,1193A,120.354,31.5475,无锡市,旺庄,,,34,29,,17,176,157,105,105,6,15,11,11,1.3,0.7
2022-07-14T11:00:00,1194A,120.245,31.5631,无锡市,荣巷,,44,39,29,27,22,160,139,91,91,2,6,12,13,0.5,0.6
2022-07-14T11:00:00,1195A,120.299,31.6817,无锡市,堰桥,,48,48,41,24,21,156,146,84,84,4,26,7,9,0.5,0.8
2022-07-14T11:00:00,1196A,119.9633,31.762,常州市,市监测站,,45,34,39,19,18,148,144,94,94,8,19,8,9,0.4,0.5
2022-07-14T11:00:00,1201A,119.9255,31.9087,常州市,安家,,48,41,41,31,33,166,151,77,77,5,25,5,5,0.7,0.8
2022-07-14T11:00:00,1203A,119.6707,32.1875,镇江市,新区办事处,臭氧1小时,83,50,43,27,20,238,186,96,96,19,27,10,12,0.8,0.8
2022-07-14T11:00:00,1204A,119.4974,32.1968,镇江市,职教中心,臭氧1小时,89,64,43,42,20,230,191,92,81,16,19,6,3,1.2,0.7
2022-07-14T11:00:00,1205A,119.4303,32.1328,镇江市,丹徒区监测站,臭氧1小时,104,59,44,28,31,226,208,93,93,11,20,8,4,0.9,0.7
2022-07-14T11:00:00,1206A,119.905,32.4878,泰州市,公园路,臭氧1小时,60,56,39,34,24,195,168,68,68,15,24,9,9,1.0,0.8
2022-07-14T11:00:00,1207A,119.9189,32.4625,泰州市,莲花,臭氧1小时,77,56,39,34,29,214,181,81,81,16,26,12,12,0.9,0.7
2022-07-14T11:00:00,1209A,119.888,32.4639,泰州市,留学生创业园,臭氧1小时,87,58,50,37,28,228,189,71,71,16,38,13,11,0.9,0.8
2022-07-14T11:00:00,1210A,119.036,33.5981,淮安市,钵池山,,44,44,36,23,21,181,115,86,86,11,12,7,7,0.7,0.8
2022-07-14T11:00:00,1212A,118.989,33.6067,淮安市,市监测站,颗粒物(PM10),53,56,45,28,22,174,94,67,67,21,23,6,6,0.8,0.7
2022-07-14T11:00:00,1213A,119.135,33.5039,淮安市,楚州区监测站,,,63,45,27,21,178,,65,64,11,17,7,7,0.6,0.5
2022-07-14T11:00:00,1214A,119.0186,33.6297,淮安市,淮阴区监测站,,46,42,42,32,26,178,100,76,71,15,16,6,6,0.8,0.7
2022-07-14T11:00:00,1215A,120.118,33.4022,盐城市,盐城电厂,,,,40,23,20,143,126,93,93,10,11,5,6,0.4,0.3
2022-07-14T11:00:00,1216A,120.156,33.3942,盐城市,市监测站,,40,39,29,24,15,144,125,107,100,10,8,9,6,0.3,0.3
2022-07-14T11:00:00,1218A,120.2144,33.38,盐城市,开发区管委会,,41,35,32,15,15,140,129,101,101,14,15,11,6,0.6,0.5
2022-07-14T11:00:00,1220A,118.293,33.9528,宿迁市,宿迁学院,颗粒物(PM10),52,53,45,32,30,152,34,99,49,36,12,4,4,0.9,0.7
2022-07-14T11:00:00,1221A,118.2442,33.9592,宿迁市,宿迁中学,颗粒物(PM10),51,52,46,33,28,148,40,106,58,35,13,4,4,0.7,0.6
2022-07-14T11:00:00,1223A,120.2072,30.2111,杭州市,滨江,臭氧1小时,65,46,40,24,22,180,172,71,68,17,23,6,6,0.6,0.6
2022-07-14T11:00:00,1224A,120.0633,30.2747,杭州市,西溪,,47,37,38,26,39,149,149,60,60,11,18,12,10,0.4,0.4
2022-07-14T11:00:00,1226A,120.3461,30.3153,杭州市,下沙,臭氧1小时,58,48,46,21,23,172,166,90,76,9,20,3,4,0.6,0.6
2022-07-14T11:00:00,1227A,120.1269,30.2456,杭州市,卧龙桥,,41,35,29,18,20,129,129,54,54,9,19,5,4,0.6,0.6
2022-07-14T11:00:00,1228A,120.1903,30.2692,杭州市,浙江农大,,45,31,29,18,19,144,141,74,74,8,16,5,6,0.6,0.5
2022-07-14T11:00:00,1230A,120.1197,30.3119,杭州市,和睦小学,,,44,43,26,22,164,164,66,66,13,26,,5,0.6,0.5
2022-07-14T11:00:00,1231A,120.3019,30.4183,杭州市,临平镇,,50,47,43,19,18,166,158,96,65,17,23,4,4,0.6,0.6
2022-07-14T11:00:00,1232A,120.2697,30.1819,杭州市,城厢镇,,45,45,41,24,27,166,139,69,63,13,23,8,9,0.5,0.6
2022-07-14T11:00:00,1233A,120.0883,30.1808,杭州市,云栖,,,32,29,15,15,143,140,60,60,,20,8,7,0.7,0.7
2022-07-14T11:00:00,1234A,121.8358,29.911,宁波市,区环保大楼,颗粒物(PM10),57,64,43,31,19,162,78,38,26,97,51,18,11,1.0,0.7
2022-07-14T11:00:00,1235A,121.56,29.82,宁波市,万里学院,臭氧1小时,111,52,37,35,21,222,222,101,101,18,16,12,11,0.7,0.5
2022-07-14T11:00:00,1236A,121.713,29.9572,宁波市,龙赛医院,臭氧1小时,112,60,44,34,24,223,223,99,99,18,29,6,9,0.8,0.8
2022-07-14T11:00:00,1239A,121.633,29.7733,宁波市,钱湖水厂,臭氧1小时,74,46,24,48,21,179,179,86,86,13,10,7,6,0.6,0.5
2022-07-14T11:00:00,1240A,121.5856,29.8635,宁波市,太古小学,臭氧1小时,93,54,31,47,22,194,194,97,97,24,14,7,7,0.8,0.7
2022-07-14T11:00:00,1241A,121.524,29.8674,宁波市,市环境监测中心,,,78,50,63,31,189,180,74,74,,15,5,5,0.7,0.6
2022-07-14T11:00:00,1242A,120.634,28.0089,温州市,瓯海,,,64,46,40,26,185,174,72,68,,17,6,6,0.5,0.5
2022-07-14T11:00:00,1243A,120.6748,27.9939,温州市,南浦,,48,48,43,29,25,160,144,77,77,14,12,5,4,0.5,0.6
2022-07-14T11:00:00,1244A,120.76,27.9747,温州市,龙湾,臭氧1小时,60,64,43,32,22,168,168,74,74,19,14,7,6,0.5,0.4
2022-07-14T11:00:00,1245A,120.6709,28.0167,温州市,市站,臭氧1小时,68,64,42,30,24,174,174,75,75,24,19,6,5,0.7,0.6
2022-07-14T11:00:00,1247A,120.6053,29.9928,绍兴市,城东开发委,细颗粒物(PM2.5),57,45,43,40,31,156,149,90,90,9,13,3,3,0.8,0.7
2022-07-14T11:00:00,1250A,120.0751,30.8669,湖州市,城西水厂,,36,35,37,15,18,118,113,40,40,24,38,5,7,0.3,0.5
2022-07-14T11:00:00,1252A,120.7436,30.778,嘉兴市,清河小学,臭氧1小时,52,36,46,21,26,191,161,110,86,12,20,11,9,0.6,0.6
2022-07-14T11:00:00,1253A,120.726,30.7478,嘉兴市,嘉兴学院,,49,39,46,34,42,171,155,106,76,15,24,3,4,0.5,0.6
2022-07-14T11:00:00,1255A,121.273,28.6459,台州市,黄岩环保大楼,,41,31,28,16,15,141,131,86,80,10,12,4,4,0.4,0.4
2022-07-14T11:00:00,1256A,121.419,28.6542,台州市,台州环保大楼,,39,27,29,15,14,124,124,102,75,15,12,5,5,0.4,0.4
2022-07-14T11:00:00,1257A,121.377,28.5773,台州市,路桥田洋王,,,22,24,13,14,118,98,91,66,10,12,,5,0.3,0.4
2022-07-14T11:00:00,1258A,122.122,30.0203,舟山市,定海檀枫,,,45,22,16,10,112,112,64,64,,23,5,3,0.4,0.2
2022-07-14T11:00:00,1259A,122.3094,29.9558,舟山市,普陀东港,,29,29,22,11,11,81,81,55,55,32,26,2,2,0.4,0.3
2022-07-14T11:00:00,1260A,122.19,29.9944,舟山市,临城新区,,28,28,23,11,10,108,82,57,57,36,23,6,5,0.3,0.3
2022-07-14T11:00:00,1262A,119.647,29.077,金华市,十五中,颗粒物(PM10),60,69,45,38,30,162,155,73,73,15,19,8,9,0.6,0.6
2022-07-14T11:00:00,1263A,119.686,29.1029,金华市,监测站,细颗粒物(PM2.5),67,69,45,48,23,172,168,73,73,14,18,8,8,0.6,0.5
2022-07-14T11:00:00,1264A,118.8692,28.9398,衢州市,环保大楼,,44,43,50,27,25,149,138,65,65,10,14,9,7,0.5,0.5
2022-07-14T11:00:00,1265A,118.8709,28.9666,衢州市,实验学校,颗粒物(PM10),52,54,53,22,25,147,134,55,55,14,20,5,3,0.3,0.4
2022-07-14T11:00:00,1266A,118.8621,28.9808,衢州市,衢州学院,,47,47,51,28,27,145,131,49,49,12,22,4,5,0.5,0.5
2022-07-14T11:00:00,1267A,119.914,28.4514,丽水市,监测站大楼,,46,46,44,27,19,150,122,123,85,8,10,5,5,0.5,0.5
2022-07-14T11:00:00,1268A,119.93,28.4586,丽水市,莲都小学,颗粒物(PM10),54,57,45,31,22,138,138,112,96,10,11,7,6,0.6,0.5
2022-07-14T11:00:00,1269A,119.879,28.4231,丽水市,余庄前,,,,31,,23,168,149,50,50,,11,10,6,0.5,0.5
2022-07-14T11:00:00,1270A,117.1959,31.7848,合肥市,明珠广场,,44,44,44,17,20,138,133,102,95,11,22,6,6,0.5,0.5
2022-07-14T11:00:00,1272A,117.2588,31.8707,合肥市,琥珀山庄,,41,41,38,19,19,148,130,119,119,12,15,10,10,0.4,0.5
2022-07-14T11:00:00,1273A,117.1604,31.9052,合肥市,董铺水库(对照点),,36,36,40,19,16,127,99,85,81,5,13,11,10,0.4,0.5
2022-07-14T11:00:00,1274A,117.25,31.8571,合肥市,长江中路,,46,46,46,24,22,160,139,126,126,3,10,5,5,0.4,0.5
2022-07-14T11:00:00,1275A,117.266,31.9436,合肥市,庐阳区,颗粒物(PM10),53,56,51,24,24,179,93,99,99,4,14,5,5,0.4,0.6
2022-07-14T11:00:00,1276A,117.336,31.8586,合肥市,瑶海区,,48,48,56,15,22,142,128,96,73,14,25,10,9,0.5,0.5
2022-07-14T11:00:00,1277A,117.3027,31.7964,合肥市,包河区,,48,48,53,19,23,144,125,89,81,9,26,15,11,0.3,0.6
2022-07-14T11:00:00,1278A,117.2776,31.7385,合肥市,滨湖新区,颗粒物(PM10),52,53,51,17,18,150,128,98,77,12,25,11,11,0.2,0.4
2022-07-14T11:00:00,1279A,117.1318,31.8403,合肥市,高新区,,,44,48,17,22,133,,98,98,7,14,5,5,0.7,0.7
2022-07-14T11:00:00,1282A,119.2681,26.0504,福州市,师大,颗粒物(PM10),59,68,59,37,24,217,163,64,64,13,18,3,4,0.6,0.5
2022-07-14T11:00:00,1283A,119.2984,26.1028,福州市,五四北路,臭氧1小时,57,56,52,34,26,233,165,106,96,13,16,3,4,0.4,0.4
2022-07-14T11:00:00,1284A,119.2648,26.0768,福州市,杨桥西路,,,,58,,24,210,,74,55,,18,,4,,0.4
2022-07-14T11:00:00,1285A,119.317,26.0746,福州市,紫阳,颗粒物(PM10),68,85,60,36,25,210,127,69,58,24,20,4,4,0.6,0.4
2022-07-14T11:00:00,1287A,118.1514,24.4767,厦门市,洪文,颗粒物(PM10),54,58,28,20,11,100,83,31,31,27,20,7,6,0.4,0.3
2022-07-14T11:00:00,1288A,118.0661,24.4444,厦门市,鼓浪屿,,50,50,28,23,12,120,68,27,27,33,26,6,10,0.5,0.5
2022-07-14T11:00:00,1290A,115.8931,28.6843,南昌市,省外办,颗粒物(PM10),51,52,51,17,19,157,153,100,100,22,17,11,18,0.6,0.6
2022-07-14T11:00:00,1291A,115.8886,28.7003,南昌市,省林业公司,臭氧1小时,53,44,41,19,15,169,162,96,96,16,20,12,17,0.6,0.6
2022-07-14T11:00:00,1292A,115.8126,28.7442,南昌市,林科所,臭氧1小时,60,41,33,19,18,168,168,69,69,5,33,6,7,0.5,0.5
2022-07-14T11:00:00,1294A,115.8518,28.687,南昌市,建工学校,,49,42,46,22,20,154,154,80,80,4,14,9,12,0.5,0.5
2022-07-14T11:00:00,1296A,115.7423,28.7996,南昌市,武术学校(对照点),,42,34,28,16,18,144,134,49,49,8,8,7,4,0.4,0.3
2022-07-14T11:00:00,1298A,115.9314,28.6842,南昌市,省站,,,70,51,29,24,157,157,87,87,11,14,11,16,,0.7
2022-07-14T11:00:00,1299A,116.9862,36.6114,济南市,科干所,,46,46,31,24,18,143,143,46,46,26,25,6,4,0.9,0.8
2022-07-14T11:00:00,1300A,116.9376,36.665,济南市,农科所,,40,34,31,15,16,128,128,42,42,24,27,6,4,0.6,0.6
2022-07-14T11:00:00,1301A,117.1265,36.6734,济南市,开发区,,46,37,36,17,16,146,146,47,47,19,38,4,2,1.0,0.8
2022-07-14T11:00:00,1303A,117.0624,36.6868,济南市,省种子仓库,,41,41,44,20,29,124,124,41,41,19,35,2,2,0.8,0.8
2022-07-14T11:00:00,1304A,116.9489,36.6447,济南市,机床二厂,颗粒物(PM10),52,54,43,20,22,134,134,42,42,29,32,7,6,0.8,0.7
2022-07-14T11:00:00,1305A,117.0495,36.663,济南市,市监测站,,,63,36,29,18,99,,33,33,21,29,7,9,1.0,0.9
2022-07-14T11:00:00,1306A,116.7675,36.5484,济南市,长清党校,,,,31,24,19,140,140,45,45,,23,211,17,0.9,0.7
2022-07-14T11:00:00,1307A,120.6659,36.2403,青岛市,仰口(对照点),细颗粒物(PM2.5),52,34,29,36,28,92,76,64,60,28,18,6,6,0.7,0.6
2022-07-14T11:00:00,1310A,120.4134,36.0658,青岛市,市南区东部子站,细颗粒物(PM2.5),55,46,51,39,36,168,90,80,50,19,20,8,9,0.5,0.6
2022-07-14T11:00:00,1311A,120.3664,36.1032,青岛市,四方区子站,颗粒物(PM10),57,63,44,39,33,138,87,62,47,30,24,9,7,0.7,0.7
2022-07-14T11:00:00,1312A,120.2994,36.054,青岛市,市南区西部子站,颗粒物(PM10),64,78,53,42,30,165,99,105,45,40,28,11,10,0.7,0.8
2022-07-14T11:00:00,1313A,120.4581,36.0858,青岛市,崂山区子站,,,,47,,28,164,108,79,69,22,22,8,6,0.4,0.6
2022-07-14T11:00:00,1314A,120.1983,35.9608,青岛市,黄岛区子站,颗粒物(PM10),64,78,60,37,33,143,94,38,38,26,54,8,7,0.6,0.6
2022-07-14T11:00:00,1315A,120.3999,36.3083,青岛市,城阳区子站,臭氧1小时,82,62,38,34,22,185,185,86,83,24,17,9,6,0.9,0.8
2022-07-14T11:00:00,1316A,113.69031,34.76122,郑州市,烟厂,,,79,58,,28,135,135,44,44,20,36,5,5,1.1,1
2022-07-14T11:00:00,1317A,113.65724,34.77134,郑州市,郑纺机,,,84,69,,,102,,34,34,20,33,,7,1.3,1.3
2022-07-14T11:00:00,1318A,113.67526,34.80246,郑州市,银行学校,颗粒物(PM10),67,83,54,37,28,147,147,45,45,16,32,4,4,1.1,0.9
2022-07-14T11:00:00,1319A,113.56746,34.81334,郑州市,供水公司,颗粒物(PM10),58,66,63,30,34,148,148,55,55,14,31,5,5,1.1,1.1
2022-07-14T11:00:00,1320A,113.7329,34.7178,郑州市,经开区管委,颗粒物(PM10),51,52,58,29,31,130,130,45,45,16,31,2,2,1.0,1
2022-07-14T11:00:00,1322A,113.60532,34.74838,郑州市,市监测站,颗粒物(PM10),76,101,81,33,33,153,153,50,50,16,33,5,6,1.1,1.1
2022-07-14T11:00:00,1323A,113.64164,34.7525,郑州市,河医大,,,74,69,,,149,149,51,51,20,32,9,5,1.1,1.1
2022-07-14T11:00:00,1324A,113.51488,34.91089,郑州市,岗李水库(对照点),颗粒物(PM10),53,55,61,33,22,142,142,50,50,8,14,8,6,1.5,1.3
2022-07-14T11:00:00,1325A,114.3677,30.5584,武汉市,东湖梨园,,40,27,24,20,12,126,126,75,75,9,10,7,7,0.7,0.6
2022-07-14T11:00:00,1326A,114.2529,30.558,武汉市,汉阳月湖,,42,34,26,17,10,133,133,82,82,15,17,9,8,0.7,0.6
2022-07-14T11:00:00,1327A,114.282,30.6189,武汉市,汉口花桥,,45,36,27,20,15,141,141,87,87,12,13,9,8,0.5,0.5
2022-07-14T11:00:00,1328A,114.3025,30.5332,武汉市,武昌紫阳,,38,34,27,16,12,121,121,70,70,10,14,7,6,0.6,0.6
2022-07-14T11:00:00,1329A,114.3646,30.6217,武汉市,青山钢花,,40,32,28,19,16,127,127,79,79,12,15,7,6,0.5,0.4
2022-07-14T11:00:00,1330A,114.1566,30.4825,武汉市,沌口新区,,,33,33,8,18,110,,60,60,15,27,8,9,0.7,0.6
2022-07-14T11:00:00,1331A,114.3014,30.5944,武汉市,汉口江滩,,36,36,26,14,13,115,115,66,66,24,25,7,7,0.6,0.5
2022-07-14T11:00:00,1333A,114.135,30.6319,武汉市,吴家山,,40,38,37,20,17,128,128,69,69,10,18,7,8,0.6,0.6
2022-07-14T11:00:00,1334A,113.8454,30.2917,武汉市,沉湖七壕(对照点),,38,38,28,10,11,97,94,44,38,8,12,7,7,0.7,0.7
2022-07-14T11:00:00,1335A,113.0833,28.2325,长沙市,经开区环保局,,44,33,33,29,24,140,140,68,68,12,12,11,6,0.9,0.6
2022-07-14T11:00:00,1336A,112.8872,28.2189,长沙市,高开区环保局,,34,31,19,22,19,115,107,73,73,8,12,10,10,0.2,0.2
2022-07-14T11:00:00,1337A,113.0792,28.2053,长沙市,马坡岭,,49,41,35,34,28,146,144,67,67,9,13,7,6,1.0,0.7
2022-07-14T11:00:00,1338A,112.9394,28.19,长沙市,湖南师范大学,,47,47,32,19,16,115,107,61,61,7,11,5,4,0.5,0.5
2022-07-14T11:00:00,1339A,113.0178,28.1322,长沙市,雨花区环保局,,33,32,29,23,19,115,96,52,52,6,15,10,8,0.4,0.4
2022-07-14T11:00:00,1340A,112.9792,28.2597,长沙市,伍家岭,,42,41,33,25,18,133,133,65,65,8,18,5,4,0.7,0.6
2022-07-14T11:00:00,1341A,113.0014,28.1944,长沙市,火车新站,,37,28,31,23,22,124,116,65,65,8,16,10,8,0.4,0.3
2022-07-14T11:00:00,1342A,112.9844,28.1178,长沙市,天心区环保局,,43,43,30,24,21,133,117,70,70,9,14,6,5,0.6,0.5
2022-07-14T11:00:00,1343A,112.8908,28.1308,长沙市,湖南中医药大学,,42,38,37,29,26,108,104,51,51,3,21,2,2,0.4,0.5
2022-07-14T11:00:00,1344A,112.9581,28.3611,长沙市,沙坪(对照点),,43,43,37,26,20,133,133,57,57,11,14,6,4,0.6,0.5
2022-07-14T11:00:00,1345A,113.2347,23.1423,广州市,广雅中学,,30,30,32,17,14,227,73,35,28,19,27,5,5,0.7,0.7
2022-07-14T11:00:00,1346A,113.2612,23.105,广州市,市五中,,28,28,28,17,14,226,71,36,30,19,22,6,6,0.6,0.6
2022-07-14T11:00:00,1348A,113.3478,23.0916,广州市,广东商学院,,24,24,26,10,11,229,69,27,23,20,28,5,4,0.6,0.6
2022-07-14T11:00:00,1349A,113.4332,23.1047,广州市,市八十六中,,29,29,30,13,11,294,73,22,22,17,33,7,8,0.5,0.5
2022-07-14T11:00:00,1350A,113.3505,22.9483,广州市,番禺中学,,27,27,22,11,8,194,69,28,28,14,18,8,8,0.4,0.5
2022-07-14T11:00:00,1351A,113.2146,23.3916,广州市,花都师范,,32,32,37,18,18,232,89,41,41,16,28,11,6,0.4,0.5
2022-07-14T11:00:00,1352A,113.2597,23.1331,广州市,市监测站,,34,34,32,12,14,237,72,42,31,19,23,7,6,0.6,0.6
2022-07-14T11:00:00,1353A,113.5618,23.312,广州市,九龙镇镇龙,,28,28,46,9,20,181,52,14,14,28,38,7,7,0.5,0.6
2022-07-14T11:00:00,1354A,113.2765,23.1544,广州市,麓湖,,25,25,24,14,14,192,69,34,30,18,25,4,4,0.7,0.7
2022-07-14T11:00:00,1355A,113.443,23.3035,广州市,帽峰山森林公园(对照点),,22,18,24,8,10,196,70,45,26,18,24,4,5,0.7,0.7
2022-07-14T11:00:00,1356A,114.1063,22.5545,深圳市,通心岭子站,,12,12,12,4,5,109,38,37,24,13,11,4,3,0.4,0.4
2022-07-14T11:00:00,1357A,114.117,22.5625,深圳市,洪湖,,14,13,16,6,7,115,42,32,24,15,14,8,7,0.4,0.4
2022-07-14T11:00:00,1358A,113.987,22.5417,深圳市,华侨城,,23,22,21,16,8,109,45,21,21,18,20,5,5,0.6,0.6
2022-07-14T11:00:00,1360A,114.2458,22.5689,深圳市,盐田,,14,11,9,5,2,75,42,27,27,16,9,3,3,0.6,0.6
2022-07-14T11:00:00,1361A,114.2283,22.7244,深圳市,龙岗,,29,29,21,10,7,157,46,36,18,24,17,4,4,0.3,0.3
2022-07-14T11:00:00,1363A,114.494,22.5422,深圳市,南澳,,15,6,11,1,4,66,48,27,27,11,7,10,9,0.5,0.5
2022-07-14T11:00:00,1364A,114.41,22.6342,深圳市,葵涌,,12,12,13,4,3,66,34,24,22,13,6,7,7,0.4,0.4
2022-07-14T11:00:00,1365A,114.297,22.5978,深圳市,梅沙,,13,13,11,6,4,68,39,35,15,18,12,6,6,0.4,0.3
2022-07-14T11:00:00,1366A,114.0678,22.738,深圳市,观澜,,22,22,29,8,10,170,55,21,21,20,18,6,6,0.4,0.4
2022-07-14T11:00:00,1367A,113.5814,22.2618,珠海市,吉大,,17,6,5,6,4,70,54,48,41,10,4,6,6,0.4,0.3
2022-07-14T11:00:00,1368A,113.4881,22.2335,珠海市,前山,,16,16,9,3,4,67,44,39,35,12,11,8,8,0.3,0.2
2022-07-14T11:00:00,1369A,113.628,22.4251,珠海市,唐家,,20,12,6,12,6,111,64,47,40,4,7,7,8,0.3,0.2
2022-07-14T11:00:00,1370A,113.299,22.2281,珠海市,斗门,,20,16,10,4,7,106,62,37,32,9,8,11,11,0.5,0.4
2022-07-14T11:00:00,1371A,113.1294,23.0067,佛山市,湾梁,,29,14,24,10,11,184,91,47,33,10,15,5,5,0.3,0.3
2022-07-14T11:00:00,1372A,113.1083,23.0478,佛山市,华材职中,,27,27,26,16,14,212,62,51,28,22,18,9,6,0.4,0.4
2022-07-14T11:00:00,1373A,113.144,23.0453,佛山市,南海气象局,,29,29,30,14,14,189,73,56,34,19,18,7,5,0.5,0.4
2022-07-14T11:00:00,1374A,113.2881,22.8094,佛山市,顺德苏岗,,23,14,11,7,6,184,71,40,28,15,18,5,5,0.4,0.4
2022-07-14T11:00:00,1376A,112.8383,22.8678,佛山市,高明孔堂,,20,20,28,4,13,154,52,39,34,6,11,6,6,0.5,0.5
2022-07-14T11:00:00,1377A,112.8836,23.1588,佛山市,三水监测站,,19,19,38,12,22,197,48,26,19,10,28,9,8,0.6,0.6
2022-07-14T11:00:00,1378A,112.867,23.185,佛山市,三水云东海,,23,23,41,12,23,176,43,39,22,12,22,4,5,0.4,0.6
2022-07-14T11:00:00,1379A,113.3769,22.5211,中山市,华柏园,,25,25,17,11,8,112,69,38,38,9,11,8,5,0.6,0.5
2022-07-14T11:00:00,1380A,113.3881,22.5497,中山市,张溪,,49,49,22,27,13,125,88,44,44,10,10,6,5,0.6,0.4
2022-07-14T11:00:00,1381A,113.4075,22.5111,中山市,紫马岭,,22,22,19,7,9,115,64,25,25,7,15,10,6,0.5,0.5
2022-07-14T11:00:00,1382A,113.4411,22.4853,中山市,长江旅游区(对照点),,27,27,10,9,7,121,64,29,26,6,7,5,3,0.4,0.3
2022-07-14T11:00:00,1383A,113.1064,22.6058,江门市,北街,,27,27,22,8,8,190,78,40,37,11,12,5,5,0.5,0.4
2022-07-14T11:00:00,1384A,113.0731,22.5835,江门市,西区,,20,19,24,6,12,192,62,33,28,12,17,7,6,0.4,0.4
2022-07-14T11:00:00,1385A,113.0219,22.5311,江门市,圭峰西,,19,16,24,8,13,203,58,29,26,5,15,4,5,0.3,0.4
2022-07-14T11:00:00,1386A,113.0828,22.5947,江门市,东湖,,20,17,24,6,10,190,63,37,32,11,13,9,8,0.5,0.5
2022-07-14T11:00:00,1389A,113.7547,23.0494,东莞市,莞城梨川,,30,21,26,9,12,206,94,31,31,16,34,9,8,0.5,0.5
2022-07-14T11:00:00,1391A,113.7383,22.9658,东莞市,南城西平,,30,21,25,14,14,218,96,34,34,26,30,4,4,0.6,0.5
2022-07-14T11:00:00,1392A,114.4183,23.0528,惠州市,河南岸金山湖子站,,27,20,27,12,8,120,86,39,39,12,11,2,2,0.5,0.5
2022-07-14T11:00:00,1393A,114.4053,23.0822,惠州市,下埔横江三路子站,,35,35,24,13,7,130,90,42,42,14,14,3,3,0.5,0.5
2022-07-14T11:00:00,1394A,114.4103,23.1142,惠州市,江北云山西路子站,,40,40,26,14,9,152,113,42,42,12,13,4,4,0.3,0.2
2022-07-14T11:00:00,1395A,114.4645,22.7833,惠州市,惠阳区承修路船湖子站,,41,41,19,7,7,120,93,39,39,18,9,4,4,0.4,0.4
2022-07-14T11:00:00,1396A,114.5317,22.7422,惠州市,大亚湾管委会子站,,31,31,19,8,7,78,67,33,27,18,13,2,3,0.3,0.3
2022-07-14T11:00:00,1397A,112.4267,23.0706,肇庆市,睦岗子站,,25,19,34,12,20,127,78,48,33,8,20,19,17,0.4,0.5
2022-07-14T11:00:00,1398A,112.4645,23.0475,肇庆市,城中子站,,28,28,36,15,21,123,72,36,36,21,22,56,20,0.7,0.7
2022-07-14T11:00:00,1399A,112.5544,23.1522,肇庆市,坑口子站,,23,22,24,12,18,133,72,50,37,11,9,11,10,0.4,0.4
2022-07-14T11:00:00,1401A,108.3103,22.7881,南宁市,二十一中,,29,29,27,10,13,67,53,53,34,9,11,13,10,0.6,0.6
2022-07-14T11:00:00,1402A,108.3141,22.8528,南宁市,北湖,,,16,24,11,11,78,,58,36,6,8,4,5,0.5,0.5
2022-07-14T11:00:00,1403A,108.3206,22.8225,南宁市,市监测站,,28,28,25,10,14,69,48,56,34,23,15,8,8,0.6,0.6
2022-07-14T11:00:00,1404A,108.3829,22.8037,南宁市,大自然花园,,,17,21,14,14,78,,68,39,7,8,,7,0.5,0.6
2022-07-14T11:00:00,1405A,108.4394,22.7904,南宁市,仙葫(对照点),,,23,26,16,14,73,73,53,39,,9,,7,0.6,0.6
2022-07-14T11:00:00,1406A,108.2397,22.8467,南宁市,区农职院,,20,20,22,11,12,94,60,68,37,13,15,6,7,0.4,0.5
2022-07-14T11:00:00,1407A,108.3275,22.735,南宁市,英华嘉园,,32,32,40,10,17,49,37,24,21,24,30,6,6,0.5,0.6
2022-07-14T11:00:00,1408A,108.2257,22.7757,南宁市,沙井镇街道办,,25,19,31,17,13,60,55,52,28,10,17,6,6,0.6,0.6
2022-07-14T11:00:00,1409A,110.576,19.9507,海口市,东寨港(对照点),,,,,22,11,21,21,7,7,1,1,4,5,0.3,0.3
2022-07-14T11:00:00,1410A,110.3232,20.0574,海口市,海南大学,,14,9,11,4,4,44,43,37,37,2,3,5,5,0.6,0.6
2022-07-14T11:00:00,1411A,110.283,20.0053,海口市,秀英海南医院,,14,14,12,3,6,45,41,32,32,3,3,2,2,0.4,0.3
2022-07-14T11:00:00,1412A,110.338,19.9969,海口市,海南师范大学,,14,14,13,4,4,37,37,26,26,5,4,2,2,0.5,0.5
2022-07-14T11:00:00,1413A,110.33,20.0356,海口市,龙华路环保局宿舍,,20,20,11,2,4,46,46,33,33,1,2,4,4,0.8,0.6
2022-07-14T11:00:00,1414A,106.3787,29.8279,重庆市,缙云山(对照点),,29,19,18,6,10,189,91,58,51,21,18,6,6,0.2,0.2
2022-07-14T11:00:00,1416A,106.4213,29.8253,重庆市,天生,,37,37,33,14,14,217,113,63,58,18,18,6,6,0.4,0.4
2022-07-14T11:00:00,1417A,106.6263,29.7228,重庆市,两路,,30,16,20,8,9,156,95,51,51,26,38,7,7,0.4,0.5
2022-07-14T11:00:00,1418A,106.2953,29.5983,重庆市,虎溪,,42,32,32,12,14,174,132,53,53,18,21,12,8,0.6,0.5
2022-07-14T11:00:00,1419A,106.5777,29.5102,重庆市,南坪,,,,27,,12,138,113,82,58,,13,18,9,0.4,0.5
2022-07-14T11:00:00,1420A,106.6556,29.6277,重庆市,唐家沱,,36,14,20,3,7,159,113,58,58,15,22,10,10,0.5,0.5
2022-07-14T11:00:00,1421A,106.6349,29.4906,重庆市,茶园,,33,32,41,7,14,132,103,68,45,9,23,8,7,0.5,0.5
2022-07-14T11:00:00,1422A,106.3754,29.4572,重庆市,白市驿,颗粒物(PM10),62,74,36,12,14,143,99,77,61,35,14,13,7,0.9,0.7
2022-07-14T11:00:00,1425A,106.6205,29.7166,重庆市,空港,,,6,17,,8,169,78,57,51,9,16,,10,,0.7
2022-07-14T11:00:00,1426A,106.4782,29.4875,重庆市,新山村,,31,10,12,6,6,132,97,64,58,14,19,5,5,0.5,0.4
2022-07-14T11:00:00,1427A,106.5616,29.6453,重庆市,礼嘉,,,17,22,5,9,162,110,58,51,30,36,12,11,,0.4
2022-07-14T11:00:00,1428A,106.4522,29.7091,重庆市,蔡家,,34,15,28,5,13,190,106,41,41,22,22,7,5,0.4,0.4
2022-07-14T11:00:00,1429A,106.5093,29.3917,重庆市,鱼新街,,,13,27,7,15,128,88,63,52,,14,,5,0.8,0.7
2022-07-14T11:00:00,1438A,103.6202,31.0201,成都市,灵岩寺(对照点),,32,32,22,8,13,110,65,67,45,6,3,10,14,1.0,0.9
2022-07-14T11:00:00,1439A,106.6899,26.5998,贵阳市,马鞍山,,20,14,12,0,5,70,61,54,53,6,6,5,5,0.7,0.7
2022-07-14T11:00:00,1440A,106.6971,26.5694,贵阳市,市环保站,,24,24,17,8,8,62,52,48,46,14,11,5,4,0.3,0.3
2022-07-14T11:00:00,1441A,106.6243,26.6266,贵阳市,鉴湖路,,19,14,15,5,6,66,58,50,50,6,6,4,4,0.5,0.4
2022-07-14T11:00:00,1442A,106.7487,26.6343,贵阳市,燕子冲,,18,12,17,7,11,64,57,46,46,7,7,7,6,0.5,0.5
2022-07-14T11:00:00,1443A,106.6555,26.4365,贵阳市,碧云窝,,34,34,23,5,6,69,58,51,51,12,7,5,5,0.6,0.6
2022-07-14T11:00:00,1444A,106.694,26.5161,贵阳市,中院村,,,31,23,9,7,59,54,41,41,10,11,,3,0.4,0.4
2022-07-14T11:00:00,1445A,106.7109,26.6027,贵阳市,红边门,,27,27,20,7,13,59,50,44,44,20,17,4,4,0.4,0.5
2022-07-14T11:00:00,1446A,106.7164,26.5699,贵阳市,新华路,,19,9,13,9,9,64,60,48,48,7,7,2,4,0.5,0.4
2022-07-14T11:00:00,1447A,106.674,26.5424,贵阳市,太慈桥,,22,22,20,7,4,68,57,52,52,7,5,4,4,0.3,0.3
2022-07-14T11:00:00,1450A,102.8204,24.8886,昆明市,呈贡新区,,25,23,26,17,14,111,77,74,52,9,13,9,9,0.4,0.4
2022-07-14T11:00:00,1451A,102.6251,24.9608,昆明市,西山森林公园(对照点),,22,17,15,15,11,115,68,91,53,13,9,10,10,0.5,0.5
2022-07-14T11:00:00,1452A,102.7252,25.0902,昆明市,龙泉镇,,24,24,27,15,10,103,68,78,50,12,14,11,12,0.4,0.4
2022-07-14T11:00:00,1453A,102.7266,25.0375,昆明市,东风东路,,23,15,23,11,12,102,71,85,54,14,13,5,7,0.4,0.3
2022-07-14T11:00:00,1454A,102.6742,25.0669,昆明市,金鼎山,,27,27,24,17,14,102,66,87,52,10,7,6,9,0.4,0.4
2022-07-14T11:00:00,1455A,102.6644,25.0401,昆明市,碧鸡广场,,22,21,26,14,12,103,68,75,50,12,13,10,10,0.4,0.4
2022-07-14T11:00:00,1456A,91.1319,29.6514,拉萨市,八廓街,,20,11,14,5,6,112,63,81,58,6,8,6,7,0.2,0.2
2022-07-14T11:00:00,1457A,91.1221,29.6747,拉萨市,市环保局,,41,41,15,9,6,108,58,74,53,11,11,6,7,0.1,0.1
2022-07-14T11:00:00,1458A,91.0874,29.6475,拉萨市,区监测站,,20,8,13,1,3,106,64,82,62,8,8,8,8,0.2,0.2
2022-07-14T11:00:00,1459A,91.1774,29.6541,拉萨市,西藏大学,,21,8,14,3,4,119,65,82,60,7,9,7,7,0.1,0.2
2022-07-14T11:00:00,1460A,90.9798,29.6588,拉萨市,区辐射站,,18,11,14,5,6,101,55,69,57,11,11,8,8,0.1,0.1
2022-07-14T11:00:00,1462A,108.882,34.2749,西安市,高压开关厂,颗粒物(PM10),56,61,47,26,20,83,57,53,45,36,29,4,4,0.8,0.7
2022-07-14T11:00:00,1463A,108.993,34.2629,西安市,兴庆小区,颗粒物(PM10),59,68,37,34,22,73,28,44,27,30,24,4,4,1.2,1
2022-07-14T11:00:00,1464A,109.06,34.2572,西安市,纺织城,颗粒物(PM10),66,82,45,39,20,73,68,26,26,28,32,4,4,1.2,0.8
2022-07-14T11:00:00,1465A,108.9356,34.2173,西安市,小寨,,41,41,34,22,17,87,47,56,45,33,24,2,2,1.0,0.8
2022-07-14T11:00:00,1466A,108.954,34.2713,西安市,市人民体育场,细颗粒物(PM2.5),78,64,39,57,36,49,49,33,33,34,30,4,4,1.1,0.9
2022-07-14T11:00:00,1467A,108.8922,34.2322,西安市,高新西区,颗粒物(PM10),52,53,40,23,20,84,59,54,54,27,22,5,6,1.2,1
2022-07-14T11:00:00,1468A,108.935,34.3474,西安市,经开区,颗粒物(PM10),53,55,38,28,21,84,43,20,20,34,30,1,1,1.0,0.9
2022-07-14T11:00:00,1469A,108.906,34.1546,西安市,长安区,,44,44,36,26,23,96,69,53,53,27,25,4,4,0.9,0.7
2022-07-14T11:00:00,1471A,109.2186,34.3731,西安市,临潼区,颗粒物(PM10),78,106,52,36,22,95,95,60,60,26,24,4,4,1.0,1.2
2022-07-14T11:00:00,1472A,108.869,34.378,西安市,草滩(对照点),颗粒物(PM10),63,75,46,35,25,111,19,10,10,34,31,6,5,1.5,1.4
2022-07-14T11:00:00,1473A,108.985,34.1978,西安市,曲江文化产业集团,颗粒物(PM10),63,76,53,24,20,103,50,44,44,34,26,4,4,1.2,1
2022-07-14T11:00:00,1474A,109.051,34.3213,西安市,广运潭,颗粒物(PM10),63,76,42,30,17,83,83,28,28,18,33,6,5,1.2,0.9
2022-07-14T11:00:00,1476A,103.631,36.1031,兰州市,兰炼宾馆,,46,46,44,26,22,183,98,78,59,21,15,11,7,0.4,0.3
2022-07-14T11:00:00,1478A,103.8412,36.0726,兰州市,生物制品所,,49,49,50,23,25,178,94,82,59,16,20,12,8,1.0,0.8
2022-07-14T11:00:00,1479A,103.831,36.0464,兰州市,铁路设计院,,43,43,44,7,16,185,94,85,54,22,24,10,8,0.6,0.5
2022-07-14T11:00:00,1484A,105.9512,38.6016,银川市,贺兰山马莲口(对照点),,50,50,74,26,48,240,120,145,91,20,12,29,17,0.7,0.7
2022-07-14T11:00:00,1488A,106.2328,38.4975,银川市,贺兰山东路,颗粒物(PM10),58,66,75,30,33,184,88,56,46,29,27,7,10,1.3,0.7
2022-07-14T11:00:00,1489A,106.1358,38.5036,银川市,学院路,,,76,92,37,47,183,,59,42,,24,9,9,2.1,0.9
2022-07-14T11:00:00,1490A,87.5801,43.8303,乌鲁木齐市,监测站,,29,29,19,7,6,125,72,99,68,25,17,4,4,0.4,0.4
2022-07-14T11:00:00,1491A,87.6046,43.768,乌鲁木齐市,收费所,,20,16,22,6,7,123,63,91,56,24,10,7,6,0.4,0.3
2022-07-14T11:00:00,1492A,87.4754,43.9469,乌鲁木齐市,新疆农科院农场(对照点),,28,24,38,0,8,124,87,102,50,5,20,10,12,0.6,0.7
2022-07-14T11:00:00,1493A,87.5525,43.8711,乌鲁木齐市,铁路局,,39,39,24,15,9,131,87,104,62,11,16,3,4,0.4,0.4
2022-07-14T11:00:00,1496A,87.7216,44.1747,乌鲁木齐市,米东区环保局,,26,26,29,11,8,119,76,92,63,11,9,3,5,0.3,0.2
2022-07-14T11:00:00,1508A,112.9433,27.8614,湘潭市,板塘,,,,42,,22,126,,64,56,5,12,7,7,0.4,0.5
2022-07-14T11:00:00,1511A,112.9118,27.8403,湘潭市,市监测站,,34,34,29,23,24,122,94,69,69,15,14,27,13,1.0,0.5
2022-07-14T11:00:00,1512A,112.8937,27.8728,湘潭市,江麓,,,38,41,31,22,127,,71,54,6,14,1,11,0.2,0.5
2022-07-14T11:00:00,1513A,112.9227,27.8159,湘潭市,岳塘,,41,41,39,21,30,127,96,65,65,6,10,15,17,0.5,0.7
2022-07-14T11:00:00,1514A,112.9074,27.9119,湘潭市,科大,,43,43,40,29,22,119,106,69,69,8,12,4,8,0.5,0.5
2022-07-14T11:00:00,1515A,113.135,27.8244,株洲市,天台山庄,,38,17,18,20,22,122,119,75,75,8,11,8,6,0.4,0.4
2022-07-14T11:00:00,1518A,113.095,27.8867,株洲市,株冶医院,,,41,29,,16,139,121,80,80,11,15,6,7,0.5,0.5
2022-07-14T11:00:00,1519A,113.167,27.8667,株洲市,市四中,,38,31,22,19,22,120,119,71,71,7,12,5,6,0.4,0.5
2022-07-14T11:00:00,1520A,113.143,27.8381,株洲市,火车站,,46,46,30,24,21,119,117,66,66,12,15,8,6,0.4,0.4
2022-07-14T11:00:00,1524A,113.13,27.8528,株洲市,市监测站,,40,36,30,24,22,129,127,75,75,7,11,16,12,0.4,0.4
2022-07-14T11:00:00,1562A,113.0048,27.9153,湘潭市,昭山,,36,36,28,18,20,125,107,63,63,5,18,7,8,0.4,0.4
2022-07-14T11:00:00,1564A,112.4876,27.9164,湘潭市,韶山(对照点),,33,33,30,20,14,86,86,54,54,10,11,10,6,0.7,0.6
2022-07-14T11:00:00,1585A,109.8756,40.6532,包头市,市环境监测站,,46,46,33,14,12,193,69,45,39,23,22,38,11,0.7,0.6
2022-07-14T11:00:00,1587A,109.9991,40.5842,包头市,包头八中,颗粒物(PM10),51,52,49,10,17,189,74,34,32,16,28,25,19,0.5,0.6
2022-07-14T11:00:00,1588A,109.8538,40.6821,包头市,青山宾馆,,30,30,26,11,8,181,66,51,46,28,19,30,10,0.7,0.6
2022-07-14T11:00:00,1589A,109.8642,40.6288,包头市,惠龙物流,,47,47,37,13,13,209,81,46,43,14,18,36,14,0.6,0.5
2022-07-14T11:00:00,1590A,110.0377,40.5546,包头市,东河鸿龙湾,,,43,41,7,17,183,57,60,41,,16,,11,0.5,0.7
2022-07-14T11:00:00,1591A,110.0023,39.8129,鄂尔多斯市,综合楼,颗粒物(PM10),66,82,58,21,19,166,54,58,58,58,41,16,16,0.9,0.7
2022-07-14T11:00:00,1592A,109.9486,39.8261,鄂尔多斯市,巴音孟克林场办事处,颗粒物(PM10),63,75,79,27,30,159,77,62,41,45,50,9,13,0.6,0.7
2022-07-14T11:00:00,1593A,109.7736,39.5986,鄂尔多斯市,康泽苑,颗粒物(PM10),75,100,46,36,19,169,110,45,45,28,22,15,5,1.1,0.7
2022-07-14T11:00:00,1594A,109.8119,39.5989,鄂尔多斯市,华泰汽车城,颗粒物(PM10),70,90,50,39,24,171,107,36,36,35,29,28,8,1.2,0.7
2022-07-14T11:00:00,1595A,109.9734,39.7884,鄂尔多斯市,奥林花园,颗粒物(PM10),64,78,64,24,24,165,108,74,74,33,32,10,8,0.9,0.9
2022-07-14T11:00:00,1599A,122.167,40.6655,营口市,西炮台,,47,20,23,12,11,149,149,100,100,10,13,2,2,0.8,0.8
2022-07-14T11:00:00,1600A,124.3303,40.0625,丹东市,江湾东路,,23,12,9,9,5,72,72,40,40,8,8,10,7,0.4,0.5
2022-07-14T11:00:00,1602A,124.3933,40.1461,丹东市,元宝山,,19,13,8,7,5,59,59,30,30,6,5,4,4,0.1,0
2022-07-14T11:00:00,1603A,124.3633,40.1092,丹东市,民主桥,,24,16,11,7,6,74,74,34,34,8,10,9,8,0.6,0.6
2022-07-14T11:00:00,1604A,122.0303,41.1489,盘锦市,开发区,,41,17,18,5,10,130,130,68,68,15,21,6,5,0.5,0.6
2022-07-14T11:00:00,1605A,122.0485,41.0883,盘锦市,兴隆台,,40,20,23,12,12,126,126,73,73,17,22,6,5,0.5,0.7
2022-07-14T11:00:00,1606A,121.8297,41.1028,盘锦市,新生街道,,,17,19,5,8,131,,59,59,8,13,10,5,0.6,0.6
2022-07-14T11:00:00,1607A,120.9092,40.7136,葫芦岛市,龙港区,,33,15,25,0,18,136,103,55,55,4,13,10,10,0.3,0.7
2022-07-14T11:00:00,1608A,120.8392,40.7514,葫芦岛市,化工街,,,12,24,11,20,132,,45,45,5,22,7,6,0.2,0.5
2022-07-14T11:00:00,1610A,120.8695,40.7677,葫芦岛市,东城区,,33,23,26,0,14,121,104,51,51,5,20,10,7,0.1,0.4
2022-07-14T11:00:00,1611A,118.5819,24.9117,泉州市,涂山街,臭氧1小时,72,68,40,30,13,177,177,60,60,22,23,9,8,0.5,0.4
2022-07-14T11:00:00,1612A,118.5972,24.8978,泉州市,津头埔,颗粒物(PM10),67,83,42,30,14,160,153,68,68,27,24,4,5,0.4,0.3
2022-07-14T11:00:00,1613A,118.6663,24.9424,泉州市,万安,颗粒物(PM10),64,78,47,45,18,159,151,44,44,23,23,8,7,0.5,0.5
2022-07-14T11:00:00,1616A,117.6795,36.229,济南市,技术学院,,31,7,25,12,15,136,98,45,45,7,25,4,5,0.6,0.8
2022-07-14T11:00:00,1642A,121.2514,37.5639,烟台市,开发区,颗粒物(PM10),52,53,37,29,22,145,145,85,85,12,13,10,10,0.8,0.8
2022-07-14T11:00:00,1643A,121.3719,37.5433,烟台市,轴承厂,颗粒物(PM10),54,58,38,27,20,139,139,94,94,17,14,12,11,0.5,0.5
2022-07-14T11:00:00,1644A,121.3181,37.5436,烟台市,西郊化工站,颗粒物(PM10),52,53,40,29,21,108,108,75,75,16,15,12,10,0.6,0.6
2022-07-14T11:00:00,1646A,121.2611,37.4967,烟台市,福山环保局,,44,44,39,17,21,131,131,66,66,9,12,5,4,0.9,0.9
2022-07-14T11:00:00,1664A,122.1067,37.5072,威海市,市监测站,,,,22,,18,110,,83,83,12,9,,5,0.6,0.4
2022-07-14T11:00:00,1669A,113.5824,24.7733,韶关市,市八中,臭氧1小时,59,51,35,26,16,184,167,74,74,20,20,20,13,0.6,0.5
2022-07-14T11:00:00,1672A,113.6735,24.7791,韶关市,韶关学院,颗粒物(PM10),68,85,44,46,23,177,129,55,50,37,16,41,20,1.8,0.7
2022-07-14T11:00:00,1674A,116.6794,23.3667,汕头市,金平子站,,32,14,17,15,8,102,102,50,50,8,11,6,6,0.4,0.3
2022-07-14T11:00:00,1675A,116.7244,23.3633,汕头市,龙湖子站,,34,34,21,14,9,104,104,55,55,10,13,7,7,0.7,0.6
2022-07-14T11:00:00,1676A,116.7258,23.2775,汕头市,濠江子站,,28,28,13,14,6,82,82,48,48,6,7,10,9,0.6,0.5
2022-07-14T11:00:00,1677A,116.7519,23.4714,汕头市,澄海子站,,,,28,,11,111,,31,31,,13,,6,,0.5
2022-07-14T11:00:00,1678A,116.6092,23.2539,汕头市,潮阳子站,,39,39,19,12,4,96,96,46,46,6,7,8,9,0.6,0.6
2022-07-14T11:00:00,1680A,110.3539,21.2706,湛江市,湛江影剧院,,17,17,14,5,4,53,49,46,39,3,4,5,5,0.3,0.3
2022-07-14T11:00:00,1681A,110.3928,21.2228,湛江市,市环境监测站,,15,12,12,5,6,51,46,46,37,3,4,5,5,0.4,0.5
2022-07-14T11:00:00,1682A,110.4019,21.1997,湛江市,环保局宿舍,,14,12,13,6,6,49,44,42,36,3,3,3,3,0.4,0.4
2022-07-14T11:00:00,1683A,110.4111,21.2028,湛江市,霞山游泳场,,14,6,18,5,7,49,44,44,37,3,4,4,4,0.3,0.3
2022-07-14T11:00:00,1684A,110.3316,21.2679,湛江市,麻章区环保局,,,19,14,6,6,48,46,43,36,,4,4,4,0.3,0.3
2022-07-14T11:00:00,1685A,110.4558,21.2567,湛江市,坡头区环保局,,,,12,11,6,51,48,49,39,,4,6,5,0.4,0.4
2022-07-14T11:00:00,1686A,111.0286,21.4688,茂名市,电白南海,,24,24,19,7,10,62,59,45,38,5,6,4,3,0.4,0.4
2022-07-14T11:00:00,1687A,110.9294,21.6533,茂名市,茂石化七小,,19,17,18,7,13,59,59,36,36,5,7,4,4,0.4,0.4
2022-07-14T11:00:00,1689A,110.8592,21.6828,茂名市,高岭,,20,17,19,14,14,64,63,39,38,5,8,10,11,0.5,0.5
2022-07-14T11:00:00,1690A,116.1231,24.3284,梅州市,梅江月梅,,42,42,36,26,20,128,108,38,38,8,14,4,4,0.5,0.5
2022-07-14T11:00:00,1691A,116.0797,24.2719,梅州市,梅县新城,,43,39,34,30,18,105,95,34,34,8,20,4,5,0.5,0.5
2022-07-14T11:00:00,1692A,116.1248,24.2654,梅州市,环境监控中心,,40,40,32,26,19,102,101,38,38,9,18,6,6,0.5,0.5
2022-07-14T11:00:00,1693A,115.3653,22.775,汕尾市,市环保局,,20,20,12,5,4,74,54,41,41,6,5,5,5,0.4,0.4
2022-07-14T11:00:00,1694A,115.3706,22.7898,汕尾市,市政府,,19,18,8,8,4,77,58,43,43,3,4,6,6,0.5,0.5
2022-07-14T11:00:00,1695A,115.3622,22.7925,汕尾市,新城中学,颗粒物(PM10),60,69,25,9,7,85,60,44,44,2,3,5,5,0.5,0.4
2022-07-14T11:00:00,1696A,114.6778,23.7569,河源市,源西(对照点),,34,30,35,15,15,106,106,33,33,8,18,4,3,0.4,0.5
2022-07-14T11:00:00,1697A,114.6944,23.7586,河源市,东埔,,33,33,32,11,17,108,93,35,35,10,15,5,4,0.6,0.7
2022-07-14T11:00:00,1698A,114.6892,23.7233,河源市,老城,,32,26,41,15,15,112,102,36,36,8,16,3,2,0.5,0.5
2022-07-14T11:00:00,1701A,111.9491,21.8658,阳江市,马南垌,,33,33,16,8,9,62,58,45,27,11,7,5,4,0.5,0.4
2022-07-14T11:00:00,1702A,113.0426,23.691,清远市,环保大楼(对照点),,48,38,42,27,27,198,151,98,62,10,17,9,6,0.5,0.5
2022-07-14T11:00:00,1703A,113.0208,23.7106,清远市,凤城街办,,38,38,41,25,26,149,115,83,48,11,18,8,6,0.7,0.7
2022-07-14T11:00:00,1705A,116.6367,23.6719,潮州市,西园路(对照点),,37,37,37,24,20,158,110,50,50,8,12,5,7,0.8,0.7
2022-07-14T11:00:00,1708A,116.3701,23.5345,揭阳市,新兴,,,,29,,18,120,,40,40,3,6,,6,0.5,0.5
2022-07-14T11:00:00,1709A,116.3264,23.5443,揭阳市,西马,,35,35,33,18,15,97,90,42,42,4,7,5,6,0.4,0.4
2022-07-14T11:00:00,1710A,116.3611,23.5626,揭阳市,东兴,,31,31,34,16,12,103,91,44,44,5,9,4,4,0.7,0.7
2022-07-14T11:00:00,1711A,116.4151,23.5294,揭阳市,渔湖,,36,36,31,18,15,122,97,46,46,5,10,5,5,0.7,0.7
2022-07-14T11:00:00,1714A,112.0539,22.9539,云浮市,牧羊,,33,32,33,23,15,88,72,45,26,16,14,12,8,0.4,0.4
2022-07-14T11:00:00,1715A,102.575,24.3711,玉溪市,东风水库,,21,16,20,8,9,90,65,42,40,11,12,5,5,0.7,0.7
2022-07-14T11:00:00,1723A,113.2994,40.0758,大同市,云冈宾馆,,33,24,45,7,16,161,104,46,46,9,23,12,17,0.4,0.6
2022-07-14T11:00:00,1725A,113.2661,40.1269,大同市,安家小村,,35,24,64,18,15,175,109,72,48,11,20,16,18,0.5,0.6
2022-07-14T11:00:00,1726A,113.2711,40.0844,大同市,教育学院,,32,32,57,12,17,162,97,54,40,16,25,10,15,0.5,0.7
2022-07-14T11:00:00,1728A,113.1031,36.1989,长治市,监测站,细颗粒物(PM2.5),70,75,50,51,34,137,71,32,32,39,23,9,9,1.5,1.7
2022-07-14T11:00:00,1730A,113.0886,36.2125,长治市,审计局,细颗粒物(PM2.5),113,66,44,85,41,153,,37,,,25,,8,1.8,1.7
2022-07-14T11:00:00,1731A,113.0844,36.1856,长治市,长治八中,细颗粒物(PM2.5),79,74,50,58,38,150,82,37,37,29,28,10,10,1.6,1.7
2022-07-14T11:00:00,1733A,111.5531,36.0783,临汾市,临钢医院,,49,43,30,34,21,141,113,84,52,21,21,3,3,1.6,1.2
2022-07-14T11:00:00,1734A,111.5028,36.0714,临汾市,技工学校,颗粒物(PM10),57,64,41,38,26,138,98,64,43,12,20,3,3,1.7,1.2
2022-07-14T11:00:00,1739A,113.4894,37.8731,阳泉市,赛鱼,,36,36,46,21,24,196,109,40,40,22,44,13,9,1.0,1
2022-07-14T11:00:00,1743A,113.5158,37.8392,阳泉市,大阳泉,,,47,43,25,25,200,,111,97,31,17,9,8,1.0,0.8
2022-07-14T11:00:00,1744A,118.9233,42.2816,赤峰市,松山一中,,31,21,20,2,6,126,99,101,89,13,15,11,12,0.5,0.6
2022-07-14T11:00:00,1745A,118.9576,42.2728,赤峰市,哈达街,,32,10,15,6,5,136,100,100,88,17,17,9,9,0.3,0.4
2022-07-14T11:00:00,1746A,118.8788,42.2554,赤峰市,天义路,,29,9,16,2,5,112,92,92,81,16,19,10,10,0.3,0.3
2022-07-14T11:00:00,1751A,122.9642,41.0971,鞍山市,铁西三道街,,45,17,21,6,11,141,141,86,86,12,21,27,13,0.8,1.1
2022-07-14T11:00:00,1755A,123.7977,41.8491,抚顺市,望花区,,,23,21,9,11,110,,84,84,16,17,5,4,0.3,0.3
2022-07-14T11:00:00,1756A,123.9161,41.8822,抚顺市,顺城区,,33,22,20,8,11,103,103,86,85,20,22,9,9,0.4,0.4
2022-07-14T11:00:00,1757A,124.0436,41.8611,抚顺市,东洲区,,31,21,23,14,13,99,99,84,84,18,16,3,2,0.5,0.6
2022-07-14T11:00:00,1758A,123.9247,41.8642,抚顺市,新抚区,,30,7,16,18,10,102,96,85,85,21,18,5,3,0.5,0.5
2022-07-14T11:00:00,1759A,124.0972,41.8961,抚顺市,大伙房水库,,30,19,17,13,14,94,94,81,81,10,9,6,6,0.6,0.6
2022-07-14T11:00:00,1761A,123.8275,41.3064,本溪市,大峪,,36,26,20,17,9,114,114,80,80,18,14,12,6,0.8,0.7
2022-07-14T11:00:00,1762A,123.7567,41.3325,本溪市,溪湖,,42,22,20,11,14,132,132,100,100,6,17,14,10,0.5,1
2022-07-14T11:00:00,1763A,123.7169,41.3094,本溪市,彩屯,,38,25,26,13,18,120,120,87,87,9,21,6,7,0.4,1.1
2022-07-14T11:00:00,1764A,123.7669,41.2864,本溪市,东明,,48,48,23,19,10,108,106,76,76,33,18,6,5,1.2,0.8
2022-07-14T11:00:00,1765A,123.7992,41.2664,本溪市,新立屯,颗粒物(PM10),60,70,22,31,10,95,95,76,76,31,11,36,8,1.9,1
2022-07-14T11:00:00,1767A,121.1115,41.0879,锦州市,南山,,31,31,27,11,18,113,92,60,52,7,9,9,6,0.5,0.6
2022-07-14T11:00:00,1768A,121.0533,40.8434,锦州市,开发区,,32,14,40,4,24,138,102,52,52,2,16,8,17,0.5,0.9
2022-07-14T11:00:00,1769A,121.1836,41.1119,锦州市,百股街道,,33,18,24,7,17,121,103,67,67,5,10,5,5,0.6,0.7
2022-07-14T11:00:00,1770A,121.1178,41.1222,锦州市,天安街道,,30,24,27,10,18,108,96,85,70,7,13,10,11,0.5,0.7
2022-07-14T11:00:00,1771A,121.1303,41.1386,锦州市,北湖公园,,31,31,24,5,16,110,95,71,69,4,9,5,5,0.5,0.6
2022-07-14T11:00:00,1772A,126.54,43.8622,吉林市,哈达湾,,28,6,15,3,7,88,88,59,59,7,10,5,6,0.5,0.6
2022-07-14T11:00:00,1773A,126.5844,43.8358,吉林市,东局子,,28,6,16,5,9,89,89,60,60,9,10,5,5,0.7,0.7
2022-07-14T11:00:00,1774A,126.5052,43.8245,吉林市,电力学院,,37,37,16,7,10,83,82,55,55,8,11,6,6,0.5,0.6
2022-07-14T11:00:00,1775A,126.6133,43.8972,吉林市,江北,,,10,15,4,8,80,80,49,49,9,9,,6,0.6,0.5
2022-07-14T11:00:00,1776A,126.555,43.8306,吉林市,江南公园,,29,7,15,7,8,90,90,60,60,6,14,4,4,0.5,0.5
2022-07-14T11:00:00,1779A,123.9305,47.3636,齐齐哈尔市,安居小区,,18,11,17,7,11,85,55,68,62,12,16,5,5,0.5,0.6
2022-07-14T11:00:00,1780A,123.9488,47.3386,齐齐哈尔市,中心广场,,,,15,,4,96,50,78,65,15,15,,3,0.5,0.4
2022-07-14T11:00:00,1781A,123.9483,47.3227,齐齐哈尔市,农牧车辆厂,,24,24,26,9,7,94,55,76,65,5,4,3,3,0.4,0.4
2022-07-14T11:00:00,1783A,123.945,47.2988,齐齐哈尔市,市环境监测站,,17,17,11,3,7,97,54,73,68,15,12,5,5,0.4,0.4
2022-07-14T11:00:00,1784A,129.61,44.561,牡丹江市,环保大楼,,22,11,11,6,6,69,69,40,40,4,5,4,4,0.5,0.5
2022-07-14T11:00:00,1786A,129.5904,44.5963,牡丹江市,第一医院,,15,8,7,10,6,55,47,29,29,15,8,3,2,0.8,0.6
2022-07-14T11:00:00,1787A,129.6364,44.6075,牡丹江市,机车工厂,,22,22,15,6,6,56,48,30,30,8,8,3,2,0.3,0.2
2022-07-14T11:00:00,1788A,129.6386,44.5462,牡丹江市,第一中学,,,,15,,5,65,65,31,31,5,9,,2,0.4,0.3
2022-07-14T11:00:00,1789A,124.81117,46.03138,大庆市,大同区,,17,3,11,1,5,106,52,62,54,4,8,6,6,0.2,0.3
2022-07-14T11:00:00,1790A,125.129,46.533,大庆市,龙凤区,,16,5,9,4,5,91,49,79,54,5,9,4,4,0.3,0.3
2022-07-14T11:00:00,1791A,124.902,46.408,大庆市,红岗区,,14,7,8,9,6,110,43,59,53,6,7,3,3,0.3,0.3
2022-07-14T11:00:00,1792A,125.153,46.586,大庆市,萨尔图区,,20,4,11,14,8,96,49,80,55,5,7,4,5,0.3,0.4
2022-07-14T11:00:00,1793A,124.9042,46.6215,大庆市,让胡路区,,,12,12,6,7,91,,65,54,5,10,5,2,0.6,0.4
2022-07-14T11:00:00,1794A,118.3606,31.3519,芜湖市,监测站,,50,50,45,28,27,171,153,101,101,19,30,16,13,0.8,0.5
2022-07-14T11:00:00,1796A,118.3673,31.3131,芜湖市,四水厂,,,,47,,24,176,163,103,103,37,29,,10,,0.6
2022-07-14T11:00:00,1799A,118.5024,31.6449,马鞍山市,开发区,臭氧1小时,53,42,44,27,27,162,162,64,64,10,34,9,9,0.7,0.7
2022-07-14T11:00:00,1800A,118.5228,31.7231,马鞍山市,慈湖,,,,40,,24,162,153,88,78,,14,,6,1.6,0.8
2022-07-14T11:00:00,1802A,118.6245,31.7241,马鞍山市,濮塘(对照点),,50,41,37,21,20,157,157,76,76,7,16,14,13,1.0,0.9
2022-07-14T11:00:00,1803A,115.9872,29.6815,九江市,十里,,36,31,35,25,22,142,114,66,66,12,18,9,9,0.9,1
2022-07-14T11:00:00,1805A,115.9877,29.7295,九江市,西园,,49,49,40,13,18,150,124,97,64,29,25,11,11,0.9,0.7
2022-07-14T11:00:00,1806A,116.0172,29.6547,九江市,五七二七厂,,38,36,31,14,19,166,119,99,78,10,8,4,5,0.6,0.6
2022-07-14T11:00:00,1808A,115.9114,29.6038,九江市,综合工业园,,39,39,35,17,20,140,106,70,67,15,16,6,7,0.6,0.7
2022-07-14T11:00:00,1809A,116.0721,29.7535,九江市,石化总厂,,50,50,46,16,23,178,158,98,79,28,21,12,16,0.9,0.5
2022-07-14T11:00:00,1812A,112.3931,34.6516,洛阳市,市委党校,,,,64,38,49,150,150,76,76,9,19,6,7,1.0,1
2022-07-14T11:00:00,1817A,112.4267,34.6258,洛阳市,市委新办公区,细颗粒物(PM2.5),53,52,63,37,41,137,137,61,61,6,17,7,7,0.9,1
2022-07-14T11:00:00,1818A,114.4839,36.0621,安阳市,棉研所(对照点),细颗粒物(PM2.5),75,91,25,55,14,96,59,39,29,18,11,5,5,2.3,0.9
2022-07-14T11:00:00,1820A,114.361,36.0681,安阳市,银杏小区,颗粒物(PM10),86,122,39,52,21,104,77,40,30,22,17,4,4,2.7,0.9
2022-07-14T11:00:00,1824A,114.3389,34.7781,开封市,肿瘤医院,颗粒物(PM10),51,52,48,31,22,143,143,59,59,8,19,8,7,0.9,1
2022-07-14T11:00:00,1826A,114.2885,34.7965,开封市,世纪星幼儿园,,45,43,50,31,26,126,126,52,52,14,24,4,4,1.1,1.1
2022-07-14T11:00:00,1828A,113.227,35.2125,焦作市,市环保局,颗粒物(PM10),59,68,43,41,26,87,85,35,30,20,18,13,3,1.2,0.9
2022-07-14T11:00:00,1830A,113.1992,35.2590,焦作市,影视城(对照点),,48,35,44,33,40,81,62,25,25,18,17,6,7,1.2,1.1
2022-07-14T11:00:00,1832A,113.3257,33.742,平顶山市,新华旅馆,细颗粒物(PM2.5),85,87,69,63,39,152,148,95,74,15,18,13,6,0.8,0.7
2022-07-14T11:00:00,1835A,111.1922,34.7752,三门峡市,市政府,,43,43,55,8,35,117,116,53,44,6,15,6,6,0.7,1.1
2022-07-14T11:00:00,1836A,111.1587,34.7942,三门峡市,开发区,,34,23,62,15,34,111,108,48,47,6,14,4,4,0.6,0.9
2022-07-14T11:00:00,1838A,111.143,34.7955,三门峡市,风景区(对照点),,34,33,57,8,32,113,106,41,39,4,10,4,4,0.7,1.1
2022-07-14T11:00:00,1840A,111.2992,30.6981,宜昌市,白龙岗,,46,46,33,19,14,152,99,37,37,22,18,7,9,0.5,0.4
2022-07-14T11:00:00,1841A,111.3549,30.6465,宜昌市,伍家岗,,44,44,36,22,17,137,119,36,33,18,21,5,5,0.5,0.4
2022-07-14T11:00:00,1842A,111.2628,30.6961,宜昌市,点军区,,31,31,35,17,17,143,91,33,33,24,17,4,3,0.4,0.3
2022-07-14T11:00:00,1843A,111.3275,30.7819,宜昌市,夷陵区,,38,34,30,17,11,168,121,42,42,13,15,3,4,0.4,0.4
2022-07-14T11:00:00,1844A,112.2494,30.3197,荆州市,市图书馆,,44,44,36,22,20,95,91,76,62,7,9,8,7,0.5,0.5
2022-07-14T11:00:00,1845A,112.2008,30.3544,荆州市,市委党校,,38,38,31,12,19,94,82,78,61,7,10,12,11,0.6,0.5
2022-07-14T11:00:00,1847A,113.1094,29.3578,岳阳市,南湖风景区,,40,31,29,19,18,134,126,98,93,12,9,14,13,0.5,0.4
2022-07-14T11:00:00,1848A,113.1493,29.4251,岳阳市,城陵矶,,39,34,25,26,18,141,122,96,83,7,9,14,14,0.7,0.6
2022-07-14T11:00:00,1849A,113.1497,29.3575,岳阳市,开发区,,48,36,28,33,26,131,123,82,77,7,12,9,10,0.6,0.6
2022-07-14T11:00:00,1850A,113.2621,29.4758,岳阳市,云溪区,,41,24,25,18,17,144,130,95,95,9,7,16,11,0.5,0.4
2022-07-14T11:00:00,1851A,112.9943,29.4402,岳阳市,君山区,,47,31,26,26,21,150,150,88,88,7,7,12,11,0.5,0.4
2022-07-14T11:00:00,1852A,113.2117,29.355,岳阳市,金凤水库(对照点),,41,41,29,24,19,138,118,65,65,6,13,6,5,0.6,0.5
2022-07-14T11:00:00,1854A,111.6975,28.9703,常德市,市二中,,29,29,22,12,15,75,75,68,45,9,9,5,6,0.4,0.4
2022-07-14T11:00:00,1858A,110.5319,29.1217,张家界市,永定新区,,33,33,17,11,12,91,91,38,38,6,9,2,1,0.4,0.4
2022-07-14T11:00:00,1859A,110.4697,29.1242,张家界市,电业局,,29,29,20,10,7,80,80,41,34,9,10,3,2,0.3,0.2
2022-07-14T11:00:00,1860A,110.5594,29.3547,张家界市,未央路,,21,14,15,6,4,73,66,32,32,4,8,3,2,0.3,0.3
2022-07-14T11:00:00,1861A,110.4417,29.315,张家界市,袁家界(对照点),,26,14,16,12,9,83,81,70,66,5,6,9,8,0.3,0.3
2022-07-14T11:00:00,1862A,110.4144,25.3167,桂林市,电子科大尧山校区(对照点),,34,34,35,23,22,105,104,38,38,5,5,11,9,0.6,0.6
2022-07-14T11:00:00,1865A,110.2869,25.2178,桂林市,八中,,50,50,31,19,18,92,92,41,36,9,12,8,7,0.5,0.4
2022-07-14T11:00:00,1867A,109.1436,21.4086,北海市,海滩公园,,,,18,,7,85,,44,34,3,3,5,4,,0.5
2022-07-14T11:00:00,1868A,109.0981,21.4661,北海市,新市环保局,,20,20,16,9,12,75,53,42,36,4,4,4,4,0.5,0.5
2022-07-14T11:00:00,1869A,109.1778,21.5233,北海市,北海工业园,,30,30,31,10,13,81,54,40,28,6,8,6,7,0.4,0.4
2022-07-14T11:00:00,1870A,109.4856,24.3895,柳州市,柳东小学,,30,27,28,21,17,87,66,35,35,6,12,5,5,0.6,0.6
2022-07-14T11:00:00,1871A,109.4157,24.3277,柳州市,环保监测站,,29,15,30,20,16,76,60,54,41,6,13,6,6,0.6,0.6
2022-07-14T11:00:00,1872A,109.389,24.341,柳州市,河西水厂,,28,28,39,18,18,71,53,36,36,7,14,5,5,0.6,0.6
2022-07-14T11:00:00,1873A,109.4311,24.2921,柳州市,市四中,,28,24,36,19,16,81,61,38,34,5,17,7,6,0.4,0.4
2022-07-14T11:00:00,1874A,109.4006,24.3631,柳州市,市九中,,,26,41,12,17,76,,35,35,8,15,7,8,0.4,0.5
2022-07-14T11:00:00,1875A,109.4958,24.3134,柳州市,古亭山,,38,38,28,17,14,78,67,38,38,10,15,6,5,0.5,0.4
2022-07-14T11:00:00,1876A,109.5078,18.2489,三亚市,河东子站,,13,7,9,4,4,46,39,35,33,5,5,2,2,0.4,0.4
2022-07-14T11:00:00,1877A,109.4964,18.2681,三亚市,河西子站,,30,30,11,2,2,49,49,36,36,4,4,4,4,0.3,0.2
2022-07-14T11:00:00,1878A,104.7778,31.4741,绵阳市,富乐山,,27,12,11,10,11,86,86,66,66,6,9,7,8,0.6,0.6
2022-07-14T11:00:00,1879A,104.7563,31.4535,绵阳市,市人大,,26,9,18,5,8,89,82,65,65,19,19,8,4,0.6,0.5
2022-07-14T11:00:00,1880A,104.6697,31.4668,绵阳市,高新区自来水公司,,33,13,19,20,14,104,104,80,80,11,15,5,5,0.5,0.5
2022-07-14T11:00:00,1881A,104.7287,31.5075,绵阳市,三水厂,,30,11,20,9,12,96,96,64,64,10,19,5,5,0.5,0.5
2022-07-14T11:00:00,1883A,104.6201,28.7728,宜宾市,市委,,46,46,40,31,27,145,109,127,92,14,11,7,6,0.7,0.6
2022-07-14T11:00:00,1884A,104.6055,28.793,宜宾市,宜宾四中,,47,47,42,30,26,150,108,138,94,12,12,6,5,0.5,0.4
2022-07-14T11:00:00,1885A,104.639,28.7562,宜宾市,市政府,颗粒物(PM10),54,58,44,30,25,163,132,141,102,20,13,6,6,0.7,0.6
2022-07-14T11:00:00,1890A,101.7169,26.585,攀枝花市,炳草岗,,25,19,37,13,15,96,80,31,31,10,26,20,32,0.6,0.7
2022-07-14T11:00:00,1891A,101.7369,26.5008,攀枝花市,仁和,,22,17,21,11,12,79,70,37,37,5,9,7,6,0.8,0.8
2022-07-14T11:00:00,1893A,105.4324,28.9634,泸州市,九狮山(对照点),,30,25,24,13,15,154,93,50,50,17,11,9,7,0.2,0.4
2022-07-14T11:00:00,1894A,105.4427,28.9063,泸州市,小市上码头,,41,35,50,11,14,185,130,109,104,11,12,5,6,0.6,0.7
2022-07-14T11:00:00,1895A,105.4241,28.8573,泸州市,兰田宪桥,,40,40,43,7,11,180,119,110,90,9,13,2,4,0.5,0.5
2022-07-14T11:00:00,1896A,105.4379,28.8833,泸州市,市环监站,,39,23,40,17,28,178,124,121,112,11,13,3,4,0.4,0.5
2022-07-14T11:00:00,1905A,106.056,30.8064,南充市,西山风景区(对照点),,29,25,24,14,16,152,90,71,71,12,16,2,2,0.7,0.8
2022-07-14T11:00:00,1906A,106.0789,30.8023,南充市,南充市委,,42,42,29,16,11,126,87,54,47,8,11,2,3,0.5,0.5
2022-07-14T11:00:00,1907A,106.1031,30.8217,南充市,南充炼油厂,,41,41,34,11,13,157,106,61,46,6,10,7,6,0.3,0.3
2022-07-14T11:00:00,1908A,106.1064,30.7856,南充市,高坪区监测站,,33,23,28,22,16,163,104,66,62,16,12,1,2,0.5,0.5
2022-07-14T11:00:00,1909A,106.0642,30.7636,南充市,嘉陵区环保局,,,19,25,12,18,146,99,74,74,7,8,6,5,,0.5
2022-07-14T11:00:00,1910A,106.1087,30.8388,南充市,市环境监测站,,40,26,36,28,20,133,94,60,55,9,12,1,2,0.3,0.3
2022-07-14T11:00:00,1912A,106.9242,27.7019,遵义市,凤凰山,,,,15,,11,104,,54,52,,5,,7,,0.5
2022-07-14T11:00:00,1914A,106.9231,27.6506,遵义市,舟水桥,,24,15,19,5,7,96,76,34,34,8,10,1,1,0.4,0.4
2022-07-14T11:00:00,1915A,106.9178,27.72,遵义市,干田坝,,27,9,18,9,11,101,84,55,55,7,7,6,6,0.6,0.6
2022-07-14T11:00:00,1916A,103.7897,25.5035,曲靖市,环境监测站,,21,18,22,11,15,93,67,52,52,7,11,6,7,0.3,0.4
2022-07-14T11:00:00,1917A,103.8,25.5364,曲靖市,烟厂办公区,,22,13,20,10,14,99,69,54,54,3,7,4,6,0.4,0.4
2022-07-14T11:00:00,1918A,108.7197,34.3956,咸阳市,气象站(对照点),颗粒物(PM10),82,113,62,33,25,83,42,32,32,43,32,4,4,1.3,1.3
2022-07-14T11:00:00,1919A,108.673,34.3155,咸阳市,实验中学,颗粒物(PM10),73,96,51,26,22,76,58,44,44,25,20,2,2,1.1,1
2022-07-14T11:00:00,1920A,108.7233,34.3617,咸阳市,师范学院,颗粒物(PM10),70,90,53,28,22,84,37,26,26,32,22,4,4,1.4,1.4
2022-07-14T11:00:00,1922A,109.0656,35.0994,铜川市,党校(对照点),,17,7,22,4,10,53,52,20,20,8,19,6,6,0.1,0.2
2022-07-14T11:00:00,1923A,109.0697,35.0697,铜川市,王益区政府,,,14,29,6,12,75,75,27,27,4,19,,2,0.6,0.7
2022-07-14T11:00:00,1926A,109.4131,36.6275,延安市,枣园(对照点),,28,28,33,12,14,172,22,10,7,18,21,3,3,0.7,0.7
2022-07-14T11:00:00,1927A,109.4761,36.6028,延安市,延大医附院,,36,36,32,12,14,161,14,9,9,27,23,3,3,0.3,0.3
2022-07-14T11:00:00,1929A,109.5056,36.6106,延安市,百米大道,,44,44,43,13,14,157,36,19,13,33,25,4,4,0.8,0.7
2022-07-14T11:00:00,1930A,107.185,34.3063,宝鸡市,庙沟村(对照点),,37,37,29,17,13,71,52,52,52,10,11,4,4,0.8,0.6
2022-07-14T11:00:00,1931A,107.0708,34.3017,宝鸡市,竹园沟,,,31,15,12,8,73,,36,10,,12,4,6,,0.5
2022-07-14T11:00:00,1932A,107.1906,34.3672,宝鸡市,三陆医院,,36,36,37,15,16,93,64,62,62,14,14,5,4,0.9,0.7
2022-07-14T11:00:00,1933A,107.1431,34.3547,宝鸡市,监测站,,38,38,33,18,22,101,65,55,55,26,21,4,5,1.0,0.7
2022-07-14T11:00:00,1934A,107.1186,34.3739,宝鸡市,技工学校,,46,28,32,32,27,100,52,32,32,31,23,3,3,1.0,0.7
2022-07-14T11:00:00,1935A,107.3906,34.3528,宝鸡市,陈仓区环保局家属楼,,,,39,14,18,86,,52,52,,21,,5,0.7,0.6
2022-07-14T11:00:00,1936A,107.2058,34.3497,宝鸡市,文理学院,,26,26,36,14,13,104,65,67,67,28,19,7,7,0.8,0.6
2022-07-14T11:00:00,1937A,107.2386,34.3622,宝鸡市,三迪小学,,26,26,36,17,24,93,61,63,63,25,18,5,6,0.9,0.7
2022-07-14T11:00:00,1939A,109.4974,34.4877,渭南市,日报社,细颗粒物(PM2.5),62,56,40,44,30,121,116,52,52,9,25,8,7,1.0,1.1
2022-07-14T11:00:00,1940A,109.4636,34.493,渭南市,体育馆,细颗粒物(PM2.5),59,46,37,42,26,125,118,46,46,10,32,8,8,1.0,1.1
2022-07-14T11:00:00,1941A,109.4259,34.5023,渭南市,高新一小,,,,55,,23,113,,38,37,,24,,4,1.1,1.1
2022-07-14T11:00:00,1945A,98.2908,39.7711,嘉峪关市,气象局,颗粒物(PM10),51,51,55,22,21,140,89,107,105,23,14,3,7,0.5,0.6
2022-07-14T11:00:00,1947A,106.3394,38.817,石嘴山市,沙湖旅游区(对照点),,,116,76,36,26,195,119,93,56,34,22,,23,3.3,1
2022-07-14T11:00:00,1948A,106.3668,39.0145,石嘴山市,大武口朝阳西街,,45,45,67,22,27,174,97,65,65,19,28,34,18,1.3,0.8
2022-07-14T11:00:00,1949A,106.7704,39.2282,石嘴山市,惠农南大街,,,,54,,16,179,,70,70,11,20,10,12,,0.4
2022-07-14T11:00:00,1950A,106.7099,39.1325,石嘴山市,红果子镇惠新街,,39,39,75,17,21,188,93,70,56,18,30,16,15,0.6,0.5
2022-07-14T11:00:00,1951A,84.895,45.6094,克拉玛依市,长征新村,,24,24,15,11,5,104,73,88,70,5,4,6,7,0.2,0.1
2022-07-14T11:00:00,1952A,84.8988,45.5893,克拉玛依市,南林小区,,22,17,18,11,12,110,69,82,61,17,15,8,8,0.3,0.3
2022-07-14T11:00:00,1954A,84.905,44.3396,克拉玛依市,独山子区,,27,18,9,8,7,114,85,104,87,6,6,7,6,0.4,0.4
2022-07-14T11:00:00,1955A,85.6979,46.098,克拉玛依市,乌尔禾区商贸楼,,21,20,16,2,7,116,66,88,54,6,9,10,10,0.3,0.3
2022-07-14T11:00:00,1956A,86.1472,41.7538,巴音郭楞州,孔雀公园,颗粒物(PM10),313,430,59,72,13,138,85,97,95,11,16,3,3,0.2,0.2
2022-07-14T11:00:00,1957A,86.1972,41.7166,巴音郭楞州,棉纺厂,颗粒物(PM10),500,603,60,76,17,146,97,104,101,9,13,3,3,0.2,0.2
2022-07-14T11:00:00,1958A,86.2357,41.7173,巴音郭楞州,经济开发区,颗粒物(PM10),184,317,39,60,14,143,95,103,100,10,11,3,3,0.2,0.2
2022-07-14T11:00:00,2031A,113.1817,27.9958,株洲市,云田中学,,,44,29,28,18,128,,66,66,9,8,9,6,0.6,0.6
2022-07-14T11:00:00,2054A,114.1099,32.1059,信阳市,平桥分局,,36,11,20,25,22,110,110,86,82,5,7,8,8,0.5,0.5
2022-07-14T11:00:00,2064A,113.9956,32.1271,信阳市,南湾水厂,,36,30,27,18,19,114,114,92,92,7,6,5,5,0.6,0.5
2022-07-14T11:00:00,2065A,114.0775,32.1195,信阳市,市酿酒公司,,37,0,18,7,16,116,116,94,92,4,4,8,8,0.4,0.4
2022-07-14T11:00:00,2066A,114.0609,32.1399,信阳市,审计局,,36,30,30,23,16,114,114,95,92,3,4,7,6,0.7,0.6
2022-07-14T11:00:00,2067A,114.6613,33.6128,周口市,市环境监测站,颗粒物(PM10),84,118,61,46,34,145,142,77,77,15,12,3,3,0.9,0.7
2022-07-14T11:00:00,2068A,114.6758,33.6347,周口市,周口师范,,,108,64,31,22,158,,81,66,8,6,10,4,0.9,0.8
2022-07-14T11:00:00,2069A,114.6546,33.5979,周口市,市运管处,颗粒物(PM10),82,113,61,32,24,147,147,85,84,17,13,7,6,1.0,0.9
2022-07-14T11:00:00,2070A,114.6369,33.6406,周口市,川汇区环保局,颗粒物(PM10),58,65,52,25,22,156,133,75,75,9,10,2,6,0.7,0.7
2022-07-14T11:00:00,2075A,117.6336,24.4674,漳州市,九湖(对照点),,,,,,,86,,,,,5,,8,,0.7
2022-07-14T11:00:00,2160A,112.85,35.5051,晋城市,自来水公司,,39,39,35,24,18,95,78,33,33,21,27,11,5,2.0,1.2
2022-07-14T11:00:00,2161A,112.8318,35.4936,晋城市,白云商贸,,33,33,24,12,11,103,88,37,37,15,24,8,3,1.7,1.2
2022-07-14T11:00:00,2162A,112.8508,35.4887,晋城市,市环保局,,45,37,33,31,21,95,82,36,36,20,28,5,2,2.4,1.4
2022-07-14T11:00:00,2163A,112.8676,35.4897,晋城市,技术学院,,42,28,24,29,12,91,79,39,39,22,26,9,3,2.6,1.4
2022-07-14T11:00:00,2174A,112.6991,37.6982,晋中市,榆次区政府,细颗粒物(PM2.5),80,103,77,59,44,226,92,52,52,19,22,8,7,1.0,0.9
2022-07-14T11:00:00,2175A,110.9956,35.0147,运城市,运城中学,细颗粒物(PM2.5),55,51,40,39,34,125,118,57,51,9,13,14,5,1.1,1.2
2022-07-14T11:00:00,2178A,110.9686,35.0303,运城市,地区技校,,40,39,39,28,24,129,126,62,52,9,12,11,6,1.5,1.3
2022-07-14T11:00:00,2179A,111.0414,35.1147,运城市,空港新区,细颗粒物(PM2.5),57,61,50,40,29,137,133,47,47,15,19,17,10,2.1,1.4
2022-07-14T11:00:00,2181A,112.7383,38.4519,忻州市,开发区,颗粒物(PM10),61,71,49,38,28,174,98,48,48,16,18,20,13,0.8,0.8
2022-07-14T11:00:00,2182A,112.7003,38.4928,忻州市,会展中心,颗粒物(PM10),60,70,50,33,25,171,86,35,35,19,28,14,8,0.4,0.5
2022-07-14T11:00:00,2183A,111.1406,37.5211,吕梁市,环保局,颗粒物(PM10),78,106,72,19,19,154,48,15,15,28,39,16,9,0.6,0.6
2022-07-14T11:00:00,2185A,111.1297,37.5136,吕梁市,自来水公司,颗粒物(PM10),75,99,82,23,19,137,52,21,21,26,29,13,8,0.7,0.8
2022-07-14T11:00:00,2187A,106.8174,39.6973,乌海市,市林业局,,44,44,49,20,18,161,75,115,50,22,16,16,8,1.0,0.6
2022-07-14T11:00:00,2188A,106.7907,39.6667,乌海市,中海勃湾学校,,,51,56,20,18,168,,109,60,23,21,18,14,0.6,0.5
2022-07-14T11:00:00,2191A,122.2532,43.6801,通辽市,艺术职业学校,,31,18,22,5,5,122,97,79,79,18,14,5,5,0.0,0.1
2022-07-14T11:00:00,2192A,119.7594,49.2261,呼伦贝尔市,区环保局,,29,18,19,10,13,105,91,74,74,10,11,4,4,0.4,0.4
2022-07-14T11:00:00,2195A,107.4212,40.761,巴彦淖尔市,附二中,,29,29,30,6,10,123,74,54,54,11,15,12,10,0.5,0.4
2022-07-14T11:00:00,2196A,107.37,40.7372,巴彦淖尔市,市环保大楼,,37,37,30,11,13,124,75,64,59,12,13,12,11,0.5,0.4
2022-07-14T11:00:00,2197A,113.1306,40.9923,乌兰察布市,集宁新区,,,,17,,10,122,122,89,89,6,10,,12,,0.3
2022-07-14T11:00:00,2200A,122.0392,46.0656,兴安盟,胜华新制药厂,,,,13,,11,113,,93,89,,4,3,4,0.1,0.2
2022-07-14T11:00:00,2201A,121.9504,46.0741,兴安盟,科右前旗环保局,,34,9,12,11,10,120,108,84,84,4,7,2,3,0.1,0.2
2022-07-14T11:00:00,2202A,116.1042,43.9317,锡林郭勒盟,市环保监测站,,22,11,19,2,4,120,70,63,56,4,11,10,11,0.4,0.4
2022-07-14T11:00:00,2203A,116.0781,43.9311,锡林郭勒盟,市政府,,,15,13,2,4,133,,77,60,5,8,11,8,0.6,0.7
2022-07-14T11:00:00,2204A,105.6467,38.8363,阿拉善盟,西城区西花园(对照点),,48,48,57,18,28,174,126,147,112,8,8,7,6,0.6,0.6
2022-07-14T11:00:00,2205A,105.6985,38.8411,阿拉善盟,蒙二幼,细颗粒物(PM2.5),53,54,61,37,38,174,134,143,119,7,7,14,12,0.5,0.4
2022-07-14T11:00:00,2206A,105.724,38.8516,阿拉善盟,环保局新楼,,43,30,42,30,30,169,131,134,120,9,8,11,9,0.5,0.4
2022-07-14T11:00:00,2207A,121.6094,41.998,阜新市,工业园区,,25,16,18,4,10,217,80,61,61,8,11,4,5,0.3,0.4
2022-07-14T11:00:00,2208A,121.6697,42.0279,阜新市,长青街,,31,12,18,5,11,98,98,75,75,5,9,6,6,0.2,0.4
2022-07-14T11:00:00,2210A,121.6717,42.0224,阜新市,东苑,,32,18,22,6,12,107,102,85,82,5,7,5,6,0.5,0.6
2022-07-14T11:00:00,2211A,121.6506,42.0498,阜新市,玉龙新城,,31,17,17,5,10,98,98,66,66,6,9,5,5,0.4,0.5
2022-07-14T11:00:00,2212A,123.2,41.1953,辽阳市,宏伟区,,,,14,3,6,133,,99,99,6,8,6,6,0.2,0.4
2022-07-14T11:00:00,2213A,123.1683,41.2495,辽阳市,新华园,,43,14,17,3,6,137,137,99,99,9,11,5,6,0.3,0.5
2022-07-14T11:00:00,2214A,123.2354,41.2639,辽阳市,滨河路,,40,2,20,7,11,128,128,98,98,4,7,9,7,0.4,0.5
2022-07-14T11:00:00,2215A,123.149,41.2991,辽阳市,铁西工业园,,40,6,17,7,10,128,128,91,91,5,10,4,4,0.4,0.6
2022-07-14T11:00:00,2216A,123.8139,42.3022,铁岭市,汇工街西,,,15,18,6,8,98,,90,84,4,7,5,8,0.2,0.6
2022-07-14T11:00:00,2217A,123.8649,42.2923,铁岭市,水上乐园,,27,9,22,6,9,84,84,82,68,9,16,4,5,0.3,0.3
2022-07-14T11:00:00,2218A,123.8486,42.2867,铁岭市,银州路东段,,28,19,20,4,8,90,88,85,75,16,21,6,6,0.3,0.4
2022-07-14T11:00:00,2219A,123.7153,42.2217,铁岭市,金沙江路北,,31,11,16,4,7,97,97,88,81,10,13,4,4,0.4,0.4
2022-07-14T11:00:00,2220A,120.4318,41.5881,朝阳市,西梁,,,24,41,6,13,97,,42,42,9,19,7,6,0.5,0.8
2022-07-14T11:00:00,2221A,120.4521,41.5646,朝阳市,河畔小区,,31,10,34,2,9,99,99,53,53,7,10,6,6,0.3,0.6
2022-07-14T11:00:00,2222A,120.4176,41.5648,朝阳市,八里堡,,35,17,33,9,13,110,110,51,51,5,19,5,5,0.5,0.9
2022-07-14T11:00:00,2223A,120.3806,41.5969,朝阳市,农业园区,,30,11,30,4,10,93,93,54,54,3,12,5,6,0.3,0.5
2022-07-14T11:00:00,2225A,124.4002,43.1713,四平市,一商场,,24,12,11,15,8,99,74,87,80,11,12,1,2,0.4,0.4
2022-07-14T11:00:00,2226A,124.388,43.193,四平市,境园,,19,11,10,11,7,87,60,67,62,4,5,5,5,0.4,0.7
2022-07-14T11:00:00,2227A,125.1358,42.8845,辽源市,环保局,,27,10,15,9,10,99,85,89,89,5,10,4,6,0.4,0.5
2022-07-14T11:00:00,2229A,125.9358,41.7173,通化市,光明,,33,13,9,2,2,104,104,63,63,8,7,7,8,0.5,0.6
2022-07-14T11:00:00,2230A,125.9446,41.7325,通化市,铁路,,33,6,9,1,3,103,103,61,61,9,9,6,8,0.5,0.5
2022-07-14T11:00:00,2231A,126.4219,41.9171,白山市,喜丰,,25,25,19,8,7,78,78,40,40,12,12,10,12,0.9,0.8
2022-07-14T11:00:00,2232A,126.4077,41.9419,白山市,环保局,,,26,28,8,10,92,92,47,47,10,11,,45,,0.6
2022-07-14T11:00:00,2233A,124.8006,45.1214,松原市,江南,,26,4,10,2,7,96,82,83,83,9,9,2,4,0.2,0.4
2022-07-14T11:00:00,2234A,124.7965,45.1722,松原市,江北,,18,3,8,3,4,101,55,76,76,10,10,1,2,0.4,0.4
2022-07-14T11:00:00,2235A,122.7911,45.6077,白城市,洮北区环保局,,27,10,15,0,0,115,85,99,88,6,6,4,4,0.2,0.2
2022-07-14T11:00:00,2236A,122.8738,45.5725,白城市,市环保局,,29,14,17,4,7,110,91,94,92,5,8,4,5,0.2,0.3
2022-07-14T11:00:00,2237A,129.47,42.8883,延边朝鲜族自治州,妇幼医院,,25,9,10,2,3,77,77,66,66,2,6,7,7,0.4,0.4
2022-07-14T11:00:00,2239A,129.3964,42.8881,延边朝鲜族自治州,朝阳川镇医院,,22,4,19,1,2,70,70,54,54,3,5,6,6,0.3,0.3
2022-07-14T11:00:00,2240A,130.9762,45.3001,鸡西市,环保局,,14,14,16,8,7,66,17,22,15,15,13,2,2,0.3,0.2
2022-07-14T11:00:00,2243A,130.9429,45.3039,鸡西市,第一中学,,17,17,20,1,6,77,20,26,18,8,8,4,4,0.2,0.1
2022-07-14T11:00:00,2244A,130.2537,47.3416,鹤岗市,哈啤分公司,,17,5,6,5,5,99,52,52,38,7,8,8,8,0.1,0.1
2022-07-14T11:00:00,2245A,130.2684,47.3086,鹤岗市,斯达机电,,16,5,8,5,4,95,50,53,40,4,6,6,6,0.2,0.2
2022-07-14T11:00:00,2246A,130.3114,47.3388,鹤岗市,东山纸板厂,,,11,10,5,9,96,51,59,39,,8,6,10,,0.1
2022-07-14T11:00:00,2247A,130.1097,47.3382,鹤岗市,五号水库(对照点),,15,4,6,5,4,93,48,51,40,10,12,9,9,0.3,0.4
2022-07-14T11:00:00,2248A,131.1511,46.6937,双鸭山市,双合村,,16,13,17,6,7,108,50,30,30,9,19,4,4,0.2,0.3
2022-07-14T11:00:00,2249A,131.1652,46.6191,双鸭山市,南小市,,,66,24,,8,98,53,35,35,,12,,5,0.1,0.2
2022-07-14T11:00:00,2250A,131.1524,46.6554,双鸭山市,环保局,,15,8,13,5,7,97,46,32,32,4,10,2,3,0.1,0.3
2022-07-14T11:00:00,2251A,131.12,46.5656,双鸭山市,苗圃(对照点),,16,9,24,7,19,92,49,32,32,3,7,4,4,0.4,0.5
2022-07-14T11:00:00,2252A,128.5159,47.4311,伊春市,环保局,,,19,14,1,7,115,56,66,49,3,2,,6,0.2,0.2
2022-07-14T11:00:00,2253A,128.9102,47.7412,伊春市,电力嘉园,,18,5,10,6,6,114,57,67,50,4,6,4,6,0.5,0.4
2022-07-14T11:00:00,2255A,130.2751,46.8028,佳木斯市,佳纺,,31,31,24,12,14,117,60,36,36,12,18,5,5,0.3,0.3
2022-07-14T11:00:00,2256A,130.3995,46.8307,佳木斯市,发电厂,,26,26,24,9,11,116,59,28,26,8,15,7,6,0.4,0.4
2022-07-14T11:00:00,2257A,130.3258,46.7975,佳木斯市,环保局,,30,30,25,10,12,106,50,26,26,18,26,4,4,0.4,0.4
2022-07-14T11:00:00,2258A,130.3648,46.8032,佳木斯市,十一中,,27,27,24,14,14,112,52,27,27,17,23,7,6,0.3,0.3
2022-07-14T11:00:00,2259A,130.3794,46.7588,佳木斯市,四丰(对照点),,,,9,12,11,110,59,24,24,9,27,3,2,0.4,0.4
2022-07-14T11:00:00,2262A,131.0518,45.8751,七台河市,新一中(对照点),,14,3,8,0,6,92,43,39,39,4,9,7,6,0.7,0.7
2022-07-14T11:00:00,2263A,127.4833,50.2524,黑河市,交通局,,21,21,14,3,7,90,65,48,48,5,5,5,5,0.4,0.4
2022-07-14T11:00:00,2264A,127.5144,50.2341,黑河市,环保局,,20,16,17,6,11,91,62,46,46,4,5,2,3,0.3,0.3
2022-07-14T11:00:00,2265A,127.5291,50.2472,黑河市,大黑河岛(对照点),,20,12,14,8,10,93,62,42,42,4,4,5,4,0.5,0.4
2022-07-14T11:00:00,2266A,126.9785,46.6365,绥化市,人和东街,,12,10,19,8,9,98,28,60,27,10,13,6,6,0.3,0.3
2022-07-14T11:00:00,2267A,126.964,46.6528,绥化市,党政办公中心,,,8,16,5,8,98,,60,32,9,14,4,5,0.2,0.2
2022-07-14T11:00:00,2269A,124.1069,50.4097,大兴安岭地区,科技局,,,,10,3,7,98,67,74,45,,5,,3,0.3,0.3
2022-07-14T11:00:00,2270A,117.396,32.939,蚌埠市,工人疗养院,,43,35,41,15,20,154,136,92,83,2,7,10,12,0.3,0.4
2022-07-14T11:00:00,2271A,117.3605,32.9427,蚌埠市,百货大楼,,47,47,40,18,18,149,141,93,84,6,12,11,13,0.4,0.5
2022-07-14T11:00:00,2273A,117.4185,32.8911,蚌埠市,蚌埠学院,,46,46,42,17,17,141,141,85,80,3,8,10,8,0.5,0.5
2022-07-14T11:00:00,2274A,117.3533,32.9673,蚌埠市,淮上区政府,,46,46,46,14,19,142,139,93,77,4,11,11,15,0.4,0.5
2022-07-14T11:00:00,2275A,117.3145,32.8977,蚌埠市,高新区,,44,39,45,22,23,139,138,73,73,7,15,11,11,0.4,0.5
2022-07-14T11:00:00,2277A,116.8305,32.7727,淮南市,潘集区政府,,40,40,34,19,15,122,122,74,74,4,9,7,9,0.2,0.1
2022-07-14T11:00:00,2278A,117.0067,32.6524,淮南市,师范学院,颗粒物(PM10),53,55,34,19,12,122,122,91,91,7,7,6,7,0.2,0.2
2022-07-14T11:00:00,2279A,116.8569,32.5951,淮南市,谢家集区政府,,,43,24,8,9,121,121,79,79,6,9,,6,,0.1
2022-07-14T11:00:00,2280A,116.8281,32.633,淮南市,八公山区政府,,37,32,24,15,15,116,116,89,89,5,9,8,7,0.3,0.3
2022-07-14T11:00:00,2281A,116.6325,32.6201,淮南市,焦岗湖风景区管理处(对照点),,36,32,28,21,15,113,113,76,76,8,9,7,6,0.3,0.2
2022-07-14T11:00:00,2282A,116.8004,33.975,淮北市,监测站,,42,42,42,22,24,164,119,83,77,10,12,6,6,0.5,0.6
2022-07-14T11:00:00,2283A,116.8091,33.9007,淮北市,烈山区政府,,36,28,36,24,27,145,114,69,66,7,10,5,5,0.7,0.8
2022-07-14T11:00:00,2284A,116.7856,33.9477,淮北市,职业技术学院,颗粒物(PM10),51,52,42,22,23,153,116,87,74,6,8,6,6,0.6,0.7
2022-07-14T11:00:00,2285A,117.8177,30.9412,铜陵市,市第四中学,,48,46,35,29,21,162,151,107,107,19,12,11,7,0.5,0.4
2022-07-14T11:00:00,2286A,117.8059,30.9273,铜陵市,市公路局,,47,47,36,23,17,153,144,103,103,20,11,27,16,0.6,0.5
2022-07-14T11:00:00,2287A,117.7807,30.9413,铜陵市,市新民污水厂,颗粒物(PM10),54,57,57,28,25,160,139,67,67,17,39,14,22,0.4,0.4
2022-07-14T11:00:00,2288A,117.7439,30.8792,铜陵市,市第九中学,,,,63,,22,144,132,84,84,,25,10,7,0.6,0.5
2022-07-14T11:00:00,2289A,117.846,30.9413,铜陵市,车站新区,,,57,43,12,19,148,,92,91,20,14,18,12,0.6,0.5
2022-07-14T11:00:00,2290A,117.8483,30.97,铜陵市,市职教基地,,41,38,39,15,16,149,130,80,80,15,13,10,8,0.9,0.9
2022-07-14T11:00:00,2291A,117.0809,30.5177,安庆市,环科院,,,,33,29,21,162,,74,74,10,20,9,5,0.8,0.6
2022-07-14T11:00:00,2292A,117.0331,30.5119,安庆市,马山宾馆,,44,42,33,30,25,162,140,66,66,13,24,7,6,0.7,0.6
2022-07-14T11:00:00,2294A,116.9896,30.6145,安庆市,安庆大学,,46,45,37,29,24,159,145,74,74,11,18,6,5,0.5,0.4
2022-07-14T11:00:00,2295A,118.2903,29.6963,黄山市,延安路89号,,,41,30,13,12,106,,35,19,,5,,5,,0.6
2022-07-14T11:00:00,2296A,118.327,29.7178,黄山市,黄山东路89号,,40,40,26,24,10,112,112,45,45,6,6,8,8,0.4,0.4
2022-07-14T11:00:00,2297A,118.1371,30.2756,黄山市,黄山区政府5号楼,,,41,29,11,13,100,100,46,46,4,5,10,8,,0.3
2022-07-14T11:00:00,2298A,118.3093,32.3153,滁州市,老年大学,,42,42,32,19,17,132,124,120,103,13,9,10,8,0.1,0.1
2022-07-14T11:00:00,2299A,118.3244,32.2786,滁州市,人大宾馆,,40,28,24,17,14,126,126,96,96,9,12,7,8,0.3,0.3
2022-07-14T11:00:00,2301A,115.8277,32.8929,阜阳市,市监测站,,42,32,24,8,9,133,132,109,97,6,11,8,7,0.4,0.4
2022-07-14T11:00:00,2303A,115.8554,32.8605,阜阳市,开发区,,40,37,27,9,10,127,126,77,71,8,17,6,6,0.4,0.4
2022-07-14T11:00:00,2307A,116.5079,31.737,六安市,监测大楼,,30,16,22,15,13,102,96,85,85,1,5,6,6,0.3,0.3
2022-07-14T11:00:00,2308A,116.4738,31.7643,六安市,皖西学院,,35,22,20,17,11,112,112,89,89,2,4,12,11,0.2,0.2
2022-07-14T11:00:00,2309A,116.4996,31.7905,六安市,朝阳厂,,34,21,14,15,13,107,107,87,87,1,3,9,9,0.4,0.4
2022-07-14T11:00:00,2310A,116.5567,31.7886,六安市,开发区,,35,35,31,20,18,115,104,78,78,5,12,6,7,0.3,0.3
2022-07-14T11:00:00,2311A,115.8072,33.8399,亳州市,污水处理厂,颗粒物(PM10),56,61,33,31,17,144,94,62,52,6,6,5,5,0.8,0.7
2022-07-14T11:00:00,2312A,115.7789,33.8518,亳州市,三国揽胜宫,,43,43,37,24,15,146,99,80,59,10,8,7,8,0.7,0.6
2022-07-14T11:00:00,2314A,117.47,30.6618,池州市,池州学院,,,39,34,22,20,159,,80,80,4,6,6,6,,0.4
2022-07-14T11:00:00,2316A,118.7581,30.9454,宣城市,鳌峰子站,,30,25,26,17,18,96,96,55,55,7,12,4,5,0.3,0.3
2022-07-14T11:00:00,2317A,118.7385,30.9743,宣城市,敬亭山子站,,30,24,27,18,19,99,94,61,61,8,13,5,6,0.2,0.3
2022-07-14T11:00:00,2318A,118.7173,30.9427,宣城市,开发区子站,,34,34,31,19,19,95,89,55,55,7,16,5,6,0.4,0.4
2022-07-14T11:00:00,2319A,119.0141,25.4325,莆田市,荔城区仓后路,颗粒物(PM10),61,72,43,33,27,173,133,56,56,17,18,6,4,0.7,0.6
2022-07-14T11:00:00,2320A,119.0015,25.4553,莆田市,莆田市监测站,颗粒物(PM10),58,65,40,25,18,185,141,55,55,17,14,10,6,0.8,0.7
2022-07-14T11:00:00,2321A,119.1119,25.4561,莆田市,涵江区六中,细颗粒物(PM2.5),72,58,37,52,24,206,110,47,47,16,19,12,8,0.7,0.6
2022-07-14T11:00:00,2322A,119.1013,25.3215,莆田市,秀屿区政府,细颗粒物(PM2.5),57,54,28,40,15,154,112,38,38,15,13,10,6,0.7,0.5
2022-07-14T11:00:00,2324A,117.6211,26.2625,三明市,三钢,,,34,39,24,20,117,,31,31,16,18,9,9,0.7,0.7
2022-07-14T11:00:00,2325A,117.635,26.2714,三明市,三明二中,,39,39,37,26,18,116,108,42,42,12,19,12,8,0.9,0.9
2022-07-14T11:00:00,2326A,117.6028,26.2378,三明市,三元区政府,,42,42,34,21,20,133,113,42,42,14,16,9,5,0.6,0.6
2022-07-14T11:00:00,2332A,118.1681,26.6369,南平市,南平市监测站,,46,32,36,32,24,137,122,52,52,8,14,8,6,0.8,0.8
2022-07-14T11:00:00,2333A,118.1825,26.6489,南平市,南平铝业有限公司,,,,39,,21,128,,37,37,6,11,,8,0.7,0.7
2022-07-14T11:00:00,2334A,118.1756,26.6272,南平市,南平七中,,35,34,35,24,24,130,112,44,44,5,12,9,6,0.7,0.7
2022-07-14T11:00:00,2336A,117.0217,25.1033,龙岩市,龙岩市监测站,颗粒物(PM10),51,51,34,22,16,113,113,33,31,18,20,9,9,0.6,0.5
2022-07-14T11:00:00,2337A,117.0258,25.0661,龙岩市,闽西职业技术学院,颗粒物(PM10),76,101,42,32,17,89,89,21,21,25,22,6,14,0.6,0.5
2022-07-14T11:00:00,2338A,117.0196,25.0306,龙岩市,龙岩学院,颗粒物(PM10),51,51,24,22,14,118,118,50,50,12,8,5,4,0.4,0.3
2022-07-14T11:00:00,2339A,119.5001,26.6946,宁德市,金涵水库(对照点),颗粒物(PM10),54,58,44,32,33,203,119,70,70,13,11,5,6,0.8,0.8
2022-07-14T11:00:00,2341A,119.5388,26.6612,宁德市,宁德市监测站,,50,42,48,35,31,189,114,112,74,15,12,6,6,0.9,0.7
2022-07-14T11:00:00,2342A,117.3102,29.3867,景德镇市,王港中学(对照点),,34,30,41,23,21,127,107,51,51,2,7,5,5,0.4,0.3
2022-07-14T11:00:00,2343A,117.2117,29.2933,景德镇市,老干部活动中心,颗粒物(PM10),59,68,51,28,24,138,132,51,51,17,17,10,12,0.5,0.4
2022-07-14T11:00:00,2344A,117.1894,29.2789,景德镇市,兽医站,颗粒物(PM10),66,82,38,33,24,126,120,58,58,43,16,43,12,1.1,0.5
2022-07-14T11:00:00,2345A,117.1547,29.2617,景德镇市,台达陶瓷,颗粒物(PM10),62,73,48,35,22,123,114,54,49,17,18,22,23,0.4,0.4
2022-07-14T11:00:00,2346A,117.2461,29.2956,景德镇市,陶研所,,43,43,36,18,20,126,4,36,14,6,10,4,5,0.5,0.4
2022-07-14T11:00:00,2347A,114.0997,27.5002,萍乡市,武功山(对照点),,27,9,9,5,6,86,86,49,49,8,7,15,11,0.2,0.3
2022-07-14T11:00:00,2348A,113.8385,27.6434,萍乡市,中医院,,30,24,29,9,19,97,96,42,42,12,20,11,10,0.4,0.6
2022-07-14T11:00:00,2349A,113.8493,27.6253,萍乡市,市政府车库,,32,23,31,10,20,109,101,49,49,10,18,6,7,0.4,0.5
2022-07-14T11:00:00,2350A,113.8676,27.6435,萍乡市,市环保局,,34,17,26,18,21,112,106,50,50,6,15,6,12,0.3,0.5
2022-07-14T11:00:00,2351A,113.866,27.6198,萍乡市,安源区政府,,,,31,,21,104,50,34,30,6,11,,17,0.2,0.3
2022-07-14T11:00:00,2352A,115.0861,27.9317,新余市,北岗(对照点),颗粒物(PM10),54,57,40,36,22,150,150,53,53,15,13,16,7,1.1,0.6
2022-07-14T11:00:00,2353A,114.9886,27.8431,新余市,飞宇,颗粒物(PM10),59,68,48,39,23,129,129,55,55,18,16,28,13,1.5,0.8
2022-07-14T11:00:00,2354A,114.9231,27.8246,新余市,第二水厂,颗粒物(PM10),54,58,44,25,19,139,139,90,90,13,18,10,13,0.9,0.9
2022-07-14T11:00:00,2355A,114.9308,27.8036,新余市,市气象局,颗粒物(PM10),56,61,43,32,25,117,117,74,74,17,17,19,15,1.0,0.6
2022-07-14T11:00:00,2357A,116.9822,28.1136,鹰潭市,龙虎山(对照点),,36,36,28,6,9,110,97,47,47,5,6,1,1,0.8,0.7
2022-07-14T11:00:00,2358A,117.0564,28.2642,鹰潭市,新监测站,,39,39,33,12,12,123,117,54,54,1,3,1,2,0.2,0.3
2022-07-14T11:00:00,2359A,117.0311,28.2475,鹰潭市,财苑宾馆,,35,33,30,14,9,116,111,54,54,2,5,3,2,0.2,0.3
2022-07-14T11:00:00,2360A,117.0222,28.2264,鹰潭市,体育馆,,34,31,37,12,12,119,108,52,52,1,3,5,3,0.4,0.3
2022-07-14T11:00:00,2361A,117.0017,28.2131,鹰潭市,三川水表,,,18,35,,13,113,101,49,49,2,2,,2,,0.4
2022-07-14T11:00:00,2362A,114.9017,25.9149,赣州市,通天岩(对照点),臭氧1小时,83,54,39,34,22,186,186,59,59,15,13,10,6,0.5,0.4
2022-07-14T11:00:00,2363A,114.9367,25.8664,赣州市,地委,臭氧1小时,67,57,46,26,20,173,173,89,89,16,21,13,11,0.9,0.9
2022-07-14T11:00:00,2364A,114.9461,25.8481,赣州市,气象台,臭氧1小时,58,46,37,37,24,166,166,67,67,14,18,11,8,0.6,0.6
2022-07-14T11:00:00,2365A,114.9322,25.8333,赣州市,市图书馆,臭氧1小时,94,49,34,30,22,195,195,85,84,16,19,6,8,1.0,1
2022-07-14T11:00:00,2367A,114.9754,27.0803,吉安市,红声器材厂,,,55,45,26,25,145,,86,68,,9,,9,,0.5
2022-07-14T11:00:00,2368A,114.9658,27.0999,吉安市,市森林工业局,臭氧1小时,64,60,46,39,28,171,171,102,102,12,10,18,9,0.4,0.5
2022-07-14T11:00:00,2369A,114.99,27.1312,吉安市,市环境监测站,臭氧1小时,59,59,42,32,23,167,167,100,100,11,10,19,13,0.6,0.6
2022-07-14T11:00:00,2370A,115.0093,27.0968,吉安市,青原区法院,臭氧1小时,59,61,42,31,23,167,167,106,103,7,7,17,15,0.5,0.4
2022-07-14T11:00:00,2373A,114.3956,27.7844,宜春市,市石油公司,,50,50,35,28,17,131,131,49,49,15,15,18,8,1.1,0.7
2022-07-14T11:00:00,2374A,114.3703,27.7914,宜春市,市气象局,颗粒物(PM10),52,54,34,29,16,127,127,52,52,13,12,16,10,0.9,0.6
2022-07-14T11:00:00,2375A,114.4013,27.8074,宜春市,市广电局,,39,39,32,25,19,124,124,51,51,9,12,3,6,1.3,0.7
2022-07-14T11:00:00,2376A,116.2127,28.0814,抚州市,桐源党溪(对照点),,42,42,30,23,17,102,93,39,39,4,10,2,2,0.6,0.6
2022-07-14T11:00:00,2377A,116.3544,27.9831,抚州市,市站,,,36,31,19,18,120,114,70,70,6,7,,2,0.4,0.4
2022-07-14T11:00:00,2378A,116.3565,27.963,抚州市,血防站,,41,41,32,23,20,110,101,62,62,6,11,4,4,0.6,0.4
2022-07-14T11:00:00,2379A,116.3564,28.0007,抚州市,采茶剧团,,40,40,29,21,17,110,106,69,69,4,6,4,4,0.4,0.4
2022-07-14T11:00:00,2380A,116.385,27.9647,抚州市,医学分院,,39,39,32,19,17,109,109,62,58,9,9,4,5,0.6,0.6
2022-07-14T11:00:00,2382A,117.9756,28.4436,上饶市,市监测站,细颗粒物(PM2.5),72,62,45,52,29,143,143,56,56,12,8,11,12,0.6,0.5
2022-07-14T11:00:00,2385A,114.17,35.9019,鹤壁市,市监测站,颗粒物(PM10),59,68,26,32,15,142,142,38,38,18,18,11,5,3.0,1.1
2022-07-14T11:00:00,2386A,114.2956,35.7511,鹤壁市,市交警支队,细颗粒物(PM2.5),95,95,43,71,32,83,60,24,24,35,23,32,6,2.6,1
2022-07-14T11:00:00,2389A,113.836,35.311,新乡市,环保西院,细颗粒物(PM2.5),67,65,43,48,18,130,130,49,49,16,20,8,5,1.4,1.1
2022-07-14T11:00:00,2391A,113.883,35.303,新乡市,环保东院,细颗粒物(PM2.5),64,71,45,46,26,140,140,60,60,13,17,10,6,1.3,1.1
2022-07-14T11:00:00,2392A,115.0312,35.7636,濮阳市,环保局,细颗粒物(PM2.5),59,54,22,42,19,126,126,78,78,12,15,3,3,0.9,0.6
2022-07-14T11:00:00,2394A,115.0574,35.7609,濮阳市,油田运输公司,细颗粒物(PM2.5),64,44,22,46,21,154,129,81,81,11,15,7,2,1.0,0.7
2022-07-14T11:00:00,2395A,115.0866,35.7754,濮阳市,油田物探公司,颗粒物(PM10),52,54,24,18,17,139,139,74,74,9,16,6,2,0.9,0.5
2022-07-14T11:00:00,2396A,113.8276,34.0159,许昌市,监测站,颗粒物(PM10),89,127,91,39,35,162,162,91,81,11,16,8,5,1.0,0.9
2022-07-14T11:00:00,2398A,113.7906,33.9953,许昌市,开发区,,,,66,,37,162,,100,38,8,14,9,7,1.3,1.2
2022-07-14T11:00:00,2399A,114.051,33.5699,漯河市,三五一五工厂,臭氧1小时,77,83,65,51,43,181,181,94,94,8,6,9,10,0.9,0.9
2022-07-14T11:00:00,2400A,114.0055,33.5698,漯河市,漯河大学,臭氧1小时,74,80,61,44,37,179,179,104,89,10,9,12,9,0.8,0.8
2022-07-14T11:00:00,2401A,114.0138,33.5828,漯河市,市水利局,臭氧1小时,72,78,62,46,29,177,177,98,91,13,13,9,7,1.0,1
2022-07-14T11:00:00,2402A,114.0261,33.5698,漯河市,市广电局,臭氧1小时,73,81,59,38,31,178,178,96,89,12,11,16,11,1.0,0.8
2022-07-14T11:00:00,2403A,112.5192,32.9917,南阳市,环保局,"细颗粒物(PM2.5),臭氧1小时",53,51,54,37,34,162,162,128,117,19,16,3,3,0.5,0.6
2022-07-14T11:00:00,2404A,112.5339,33.0086,南阳市,瓦房庄,,,,59,,36,162,136,130,113,12,10,,4,0.8,0.8
2022-07-14T11:00:00,2405A,112.5003,32.9735,南阳市,汉画馆,颗粒物(PM10),55,59,56,33,34,164,151,135,117,18,14,9,9,0.6,0.7
2022-07-14T11:00:00,2406A,112.5779,33.0144,南阳市,气象站,颗粒物(PM10),53,56,57,33,35,153,153,119,107,10,10,7,7,0.7,0.8
2022-07-14T11:00:00,2407A,112.548,32.9692,南阳市,理工学院,"颗粒物(PM10),细颗粒物(PM2.5)",53,56,57,37,39,166,142,126,108,12,13,3,5,0.8,0.8
2022-07-14T11:00:00,2408A,115.6702,34.4285,商丘市,环境监测站,颗粒物(PM10),85,119,68,30,22,158,105,79,62,19,16,5,6,0.8,0.8
2022-07-14T11:00:00,2409A,115.6458,34.4045,商丘市,粮食局,颗粒物(PM10),85,119,75,34,29,171,108,88,69,29,22,3,3,0.9,0.8
2022-07-14T11:00:00,2410A,115.6293,34.3948,商丘市,睢阳区环保局,,,111,62,34,25,164,104,87,56,,15,3,2,0.9,0.8
2022-07-14T11:00:00,2420A,114.0189,32.9656,驻马店市,市一纸厂,细颗粒物(PM2.5),54,43,43,38,33,155,130,89,82,12,11,6,6,0.6,0.5
2022-07-14T11:00:00,2421A,114.0114,33.015,驻马店市,市彩印厂,颗粒物(PM10),58,65,58,39,31,160,141,91,91,9,10,8,7,0.7,0.4
2022-07-14T11:00:00,2422A,113.9976,32.9771,驻马店市,天方二分厂,,45,45,50,24,31,163,140,91,85,6,8,3,3,0.7,0.6
2022-07-14T11:00:00,2423A,115.0601,30.2313,黄石市,沈家营,颗粒物(PM10),67,83,51,14,14,125,125,55,55,8,18,8,8,0.5,0.7
2022-07-14T11:00:00,2424A,115.0817,30.2006,黄石市,陈家湾,,,28,35,,12,127,127,67,66,13,12,,5,0.6,0.5
2022-07-14T11:00:00,2426A,114.8988,30.2019,黄石市,铁山,,39,38,37,15,12,122,122,60,60,2,14,8,15,0.6,0.6
2022-07-14T11:00:00,2427A,115.0307,30.2092,黄石市,团城山,,49,49,44,18,10,124,124,64,64,8,12,8,8,0.5,0.5
2022-07-14T11:00:00,2428A,111.0419,32.395,十堰市,武当山(对照点),,40,29,35,28,29,169,66,81,55,5,5,8,8,0.6,0.6
2022-07-14T11:00:00,2429A,110.78,32.6494,十堰市,滨河新村,,,66,47,40,32,133,,125,97,14,12,6,6,0.9,0.8
2022-07-14T11:00:00,2430A,110.7258,32.6389,十堰市,刘家沟,颗粒物(PM10),54,57,47,36,31,137,113,125,102,10,7,7,7,0.5,0.4
2022-07-14T11:00:00,2431A,110.8839,32.5714,十堰市,铁二处,细颗粒物(PM2.5),65,76,51,47,32,159,122,136,112,8,9,10,11,0.6,0.6
2022-07-14T11:00:00,2432A,112.155,32.0197,襄阳市,襄城运动路,细颗粒物(PM2.5),68,60,40,49,22,168,116,89,82,14,8,8,6,0.7,0.6
2022-07-14T11:00:00,2433A,112.1392,32.0564,襄阳市,樊城新华路,颗粒物(PM10),68,85,51,41,25,154,109,83,75,12,8,5,5,0.9,0.8
2022-07-14T11:00:00,2435A,112.2106,32.0903,襄阳市,襄州航空路,细颗粒物(PM2.5),90,58,40,67,26,167,140,98,94,12,9,8,7,0.9,0.8
2022-07-14T11:00:00,2436A,114.8938,30.3994,鄂州市,市政府,,40,40,46,13,14,120,120,61,61,7,19,5,6,0.5,0.5
2022-07-14T11:00:00,2437A,114.8989,30.3714,鄂州市,赵家坝,,49,49,38,13,12,113,113,52,52,5,14,9,8,0.6,0.5
2022-07-14T11:00:00,2439A,112.2014,31.0481,荆门市,竹园小学,,42,42,34,22,18,105,105,83,71,7,9,6,7,0.7,0.6
2022-07-14T11:00:00,2440A,112.1969,30.9891,荆门市,掇刀,,42,42,34,20,17,106,103,81,71,6,10,9,9,0.5,0.4
2022-07-14T11:00:00,2441A,112.2213,31.0386,荆门市,石化一小,颗粒物(PM10),51,51,32,23,20,107,107,73,73,10,19,7,19,0.6,0.6
2022-07-14T11:00:00,2443A,113.9153,30.9285,孝感市,文化路,,36,27,25,22,15,115,115,85,76,7,9,5,5,0.4,0.4
2022-07-14T11:00:00,2444A,113.942,30.9075,孝感市,东城区,,35,28,26,17,16,114,111,84,74,6,9,6,6,0.4,0.3
2022-07-14T11:00:00,2446A,114.9028,30.4742,黄冈市,职工中心,,,65,48,17,16,112,,63,63,,16,,10,,0.5
2022-07-14T11:00:00,2447A,114.3175,29.8142,咸宁市,森林公园(对照点),,33,24,17,15,9,104,104,87,87,2,2,7,6,0.6,0.5
2022-07-14T11:00:00,2448A,114.3107,29.8454,咸宁市,市发改委,,36,36,32,16,12,98,98,62,58,2,6,5,5,0.4,0.4
2022-07-14T11:00:00,2449A,114.2936,29.8566,咸宁市,咸安区政府,,32,26,25,18,12,100,100,58,58,6,8,4,4,0.5,0.5
2022-07-14T11:00:00,2451A,113.3583,31.7275,随州市,市委党校,,,,28,,12,104,,100,83,,4,8,7,0.6,0.6
2022-07-14T11:00:00,2452A,113.3833,31.6908,随州市,市林业局,,34,24,35,16,15,106,106,92,84,3,4,4,4,0.6,0.6
2022-07-14T11:00:00,2453A,113.3983,31.7308,随州市,市立交桥水厂,,33,30,31,18,16,104,104,74,74,5,9,9,9,0.6,0.6
2022-07-14T11:00:00,2454A,109.4978,30.2981,恩施土家族苗族自治州,湖北民院,,50,50,34,27,24,94,88,36,36,6,6,8,8,0.8,0.7
2022-07-14T11:00:00,2455A,109.4707,30.2798,恩施土家族苗族自治州,州电力总公司,,42,42,29,14,14,141,88,26,20,6,8,4,5,0.5,0.7
2022-07-14T11:00:00,2456A,112.5003,26.9167,衡阳市,原169医院(对照点),,34,34,37,21,20,101,84,56,56,4,14,5,9,0.4,0.5
2022-07-14T11:00:00,2457A,112.6194,26.9258,衡阳市,衡阳化工总厂,,43,43,40,18,22,105,94,68,59,6,11,5,8,0.4,0.5
2022-07-14T11:00:00,2458A,112.6211,26.8956,衡阳市,珠晖区环保局,,,43,32,,,103,101,74,66,7,10,8,14,0.6,0.6
2022-07-14T11:00:00,2459A,112.6197,26.8733,衡阳市,市委党校,,32,27,36,18,20,106,102,67,67,7,11,8,12,0.3,0.4
2022-07-14T11:00:00,2460A,112.6006,26.8919,衡阳市,市监测站,,,,35,,22,155,155,72,72,,11,,20,0.6,0.6
2022-07-14T11:00:00,2461A,112.5664,26.9056,衡阳市,真空机电公司,,,28,42,,,105,92,63,63,6,16,4,25,0.4,1
2022-07-14T11:00:00,2462A,111.5239,27.3033,邵阳市,市水土所(对照点),,43,26,33,30,30,100,90,33,33,4,5,13,10,0.5,0.5
2022-07-14T11:00:00,2463A,111.4733,27.2317,邵阳市,市一中,,25,25,32,15,23,101,80,56,56,5,11,11,9,0.4,0.5
2022-07-14T11:00:00,2464A,111.5283,27.2442,邵阳市,市化工厂,,32,23,36,22,21,100,82,47,47,8,11,8,8,0.4,0.5
2022-07-14T11:00:00,2465A,111.4503,27.2537,邵阳市,市罐头厂,,38,38,34,15,20,99,76,48,48,9,11,11,12,0.4,0.5
2022-07-14T11:00:00,2466A,111.4328,27.2272,邵阳市,市环保局,,,34,34,18,23,96,,54,46,6,11,,5,0.4,0.4
2022-07-14T11:00:00,2467A,112.4067,28.6428,益阳市,甘溪港(对照点),,40,33,30,5,6,127,127,75,75,16,16,6,19,0.7,0.5
2022-07-14T11:00:00,2468A,112.3458,28.5808,益阳市,市环保局,,,15,22,8,16,123,107,83,73,,12,9,7,,0.6
2022-07-14T11:00:00,2469A,112.3437,28.5531,益阳市,市特殊教育学校,,34,21,27,5,17,120,106,76,72,8,10,5,2,0.5,0.4
2022-07-14T11:00:00,2470A,112.3347,28.6047,益阳市,资阳区政务中心,,36,20,27,6,14,124,113,84,83,4,5,1,2,0.7,0.7
2022-07-14T11:00:00,2471A,112.3744,28.5819,益阳市,赫山环保分局,,34,17,29,8,8,115,107,78,77,7,7,6,6,0.8,0.8
2022-07-14T11:00:00,2472A,113.0073,25.9061,郴州市,马头岭(对照点),,33,33,34,6,11,157,102,68,48,18,25,8,11,0.4,0.5
2022-07-14T11:00:00,2473A,113.0116,25.8226,郴州市,市职中,,,32,40,16,19,165,,105,44,7,18,13,17,0.4,0.5
2022-07-14T11:00:00,2474A,113.0161,25.8001,郴州市,兴隆步行街,,39,34,35,18,22,148,124,108,72,9,16,16,16,0.4,0.4
2022-07-14T11:00:00,2475A,113.0383,25.8071,郴州市,市审计局,,41,26,33,19,19,152,130,99,76,10,20,15,25,0.6,0.6
2022-07-14T11:00:00,2476A,113.0348,25.7759,郴州市,市环保局,,39,29,38,16,18,134,123,89,68,12,23,24,28,0.5,0.5
2022-07-14T11:00:00,2477A,111.6217,26.2081,永州市,零陵南津渡(对照点),,25,19,29,16,21,103,80,56,56,3,3,3,10,0.4,0.4
2022-07-14T11:00:00,2478A,111.6156,26.4214,永州市,市环境监测站,,26,25,25,6,16,97,83,66,60,1,4,8,8,0.4,0.4
2022-07-14T11:00:00,2479A,111.6236,26.2331,永州市,零陵区环保局,,25,23,24,11,15,101,77,61,56,4,6,9,10,0.3,0.4
2022-07-14T11:00:00,2480A,111.5992,26.4364,永州市,永州市环保局,,27,25,25,14,19,103,84,62,58,2,7,6,6,0.3,0.4
2022-07-14T11:00:00,2481A,111.5989,26.4519,永州市,冷水滩区环保局,,31,31,37,12,17,85,80,58,58,5,8,6,5,0.3,0.3
2022-07-14T11:00:00,2482A,109.5981,27.5721,怀化市,林科所(对照点),,27,26,21,9,7,85,85,74,74,6,6,5,6,1.2,1.1
2022-07-14T11:00:00,2483A,109.9453,27.5444,怀化市,河西地税局,,25,14,21,5,11,80,80,52,52,5,10,5,4,0.5,0.6
2022-07-14T11:00:00,2484A,109.9781,27.5342,怀化市,市四医院,,,,30,,20,83,83,51,51,4,8,4,6,0.4,0.5
2022-07-14T11:00:00,2485A,109.9972,27.5578,怀化市,监测楼,,30,30,27,14,16,82,82,59,59,5,7,5,5,0.5,0.5
2022-07-14T11:00:00,2486A,110.0394,27.583,怀化市,市委党校,,,27,33,23,21,78,69,39,39,4,10,3,4,,0.6
2022-07-14T11:00:00,2487A,111.9589,27.8901,娄底市,电视发射台(对照点),,28,28,26,17,18,101,81,44,44,3,4,13,10,0.4,0.4
2022-07-14T11:00:00,2488A,111.9975,27.725,娄底市,市监测站,,28,26,37,18,27,93,88,62,37,6,11,7,8,0.3,0.4
2022-07-14T11:00:00,2489A,112.0194,27.7314,娄底市,市委党校,,37,37,40,23,26,96,96,52,42,7,9,12,11,0.4,0.4
2022-07-14T11:00:00,2490A,111.9561,27.7569,娄底市,涟钢,颗粒物(PM10),56,61,50,21,24,90,76,38,38,24,19,35,25,0.9,0.7
2022-07-14T11:00:00,2491A,111.9892,27.7044,娄底市,市政府,,,36,34,29,20,101,85,41,41,4,8,5,2,,0.6
2022-07-14T11:00:00,2492A,109.6414,28.2558,湘西州,跃进水库(对照点),,24,16,17,12,10,75,75,22,22,5,3,9,6,0.4,0.5
2022-07-14T11:00:00,2493A,109.7325,28.3169,湘西州,州政府,,,20,17,12,10,76,,17,14,,6,5,5,0.4,0.4
2022-07-14T11:00:00,2494A,109.6958,28.2675,湘西州,吉首市计生局,,25,19,13,13,10,77,77,27,27,2,6,6,6,0.4,0.5
2022-07-14T11:00:00,2495A,111.3014,23.4832,梧州市,市逸夫小学,,,75,59,,27,126,79,27,27,,19,14,11,0.8,0.8
2022-07-14T11:00:00,2496A,111.3239,23.4794,梧州市,市十一中,颗粒物(PM10),60,70,54,35,22,102,82,25,25,18,28,17,10,0.8,0.7
2022-07-14T11:00:00,2497A,111.247,23.4189,梧州市,龙圩,颗粒物(PM10),70,89,61,45,30,115,76,24,24,28,30,11,9,1.0,0.9
2022-07-14T11:00:00,2498A,111.2711,23.4835,梧州市,龙新,颗粒物(PM10),65,80,62,37,22,108,81,17,17,17,25,8,4,0.8,0.8
2022-07-14T11:00:00,2499A,108.3411,21.6158,防城港市,沙万,,24,24,29,8,11,54,46,29,29,7,14,5,8,0.5,0.5
2022-07-14T11:00:00,2500A,108.3514,21.7731,防城港市,防城档案局,,,22,24,8,11,91,54,31,28,9,12,,8,0.3,0.4
2022-07-14T11:00:00,2501A,108.3506,21.6414,防城港市,大海花园,,31,31,17,6,3,74,50,32,32,6,11,7,8,0.5,0.5
2022-07-14T11:00:00,2502A,108.6236,21.9667,钦州市,市环保站,,19,17,22,9,10,94,58,40,35,6,12,6,7,0.5,0.6
2022-07-14T11:00:00,2503A,108.6549,21.9481,钦州市,沙埠小学,,33,33,30,9,16,92,55,27,27,6,14,6,8,0.5,0.6
2022-07-14T11:00:00,2504A,108.5989,21.7431,钦州市,港区一小,,25,25,35,10,15,75,60,37,28,10,13,7,7,0.6,0.8
2022-07-14T11:00:00,2505A,109.568,23.1478,贵港市,德智高中(对照点),,30,30,35,15,20,92,62,38,34,8,12,11,6,0.3,0.5
2022-07-14T11:00:00,2506A,109.6047,23.0666,贵港市,江南子站,,41,41,40,15,22,106,77,44,42,8,12,4,6,0.4,0.4
2022-07-14T11:00:00,2507A,109.6014,23.0948,贵港市,贵城子站,,26,26,34,12,23,115,70,44,41,11,14,7,9,0.5,0.6
2022-07-14T11:00:00,2508A,109.5669,23.1065,贵港市,荷城子站,,31,31,35,12,20,103,67,44,38,8,11,5,6,0.4,0.5
2022-07-14T11:00:00,2509A,110.1106,22.7019,玉林市,寒山水库(对照点),,44,44,48,17,24,76,68,36,36,5,9,7,7,0.9,0.9
2022-07-14T11:00:00,2510A,110.1675,22.6411,玉林市,市监测站,,23,23,30,11,17,68,58,44,37,5,8,4,8,0.5,0.6
2022-07-14T11:00:00,2511A,110.1433,22.6164,玉林市,南江一中,,,36,37,13,22,75,66,36,36,4,7,,6,0.6,0.7
2022-07-14T11:00:00,2512A,106.6103,23.9011,百色市,市监测站,颗粒物(PM10),56,61,41,16,17,101,101,39,39,14,14,15,11,0.9,0.8
2022-07-14T11:00:00,2513A,106.6538,23.8859,百色市,市中心血站,,31,31,35,20,19,98,98,47,39,10,13,14,12,0.8,0.7
2022-07-14T11:00:00,2514A,111.5264,24.4172,贺州市,环保小区,颗粒物(PM10),53,55,37,23,22,112,112,46,46,13,15,9,9,0.7,0.7
2022-07-14T11:00:00,2515A,111.5608,24.4078,贺州市,政协大楼,,47,47,33,31,23,117,117,48,48,12,13,10,11,0.7,0.6
2022-07-14T11:00:00,2516A,108.2011,24.715,河池市,东仁乐园(对照点),,29,29,19,16,13,64,64,27,27,3,7,4,4,0.1,0.1
2022-07-14T11:00:00,2517A,108.0497,24.6947,河池市,市环保站,,37,37,20,11,9,76,76,28,28,7,12,7,7,0.5,0.5
2022-07-14T11:00:00,2518A,108.0983,24.6989,河池市,市疾控中心,,36,36,56,18,19,83,83,28,28,7,15,7,7,0.6,0.6
2022-07-14T11:00:00,2519A,109.2328,23.7361,来宾市,来宾二中,,23,23,38,16,20,91,69,42,42,5,11,10,16,0.7,0.7
2022-07-14T11:00:00,2520A,109.2203,23.7256,来宾市,来宾技工学校,,42,42,38,12,19,83,60,34,34,5,12,10,12,0.6,0.7
2022-07-14T11:00:00,2521A,107.3476,22.4136,崇左市,市环保局江州分局,,24,24,27,12,12,82,76,25,25,5,10,5,5,0.7,0.7
2022-07-14T11:00:00,2522A,107.3702,22.3707,崇左市,城南新区,,30,30,27,12,18,80,79,39,28,8,11,4,5,0.7,0.6
2022-07-14T11:00:00,2523A,105.8945,32.4535,广元市,黑石坡(对照点),,14,14,19,7,7,66,37,42,30,22,16,11,10,0.4,0.3
2022-07-14T11:00:00,2524A,105.821,32.4444,广元市,老城,,28,28,15,9,7,77,55,38,28,18,17,19,11,1.1,0.8
2022-07-14T11:00:00,2526A,105.8628,32.4287,广元市,监测站,,,,15,15,7,73,52,52,33,18,13,,10,,0.7
2022-07-14T11:00:00,2527A,105.5453,30.5678,遂宁市,石溪浩(对照点),,,46,36,5,7,149,,58,48,9,8,10,9,0.4,0.4
2022-07-14T11:00:00,2528A,105.5582,30.5232,遂宁市,市监测站,颗粒物(PM10),57,63,27,14,10,152,120,64,61,8,9,8,6,0.4,0.4
2022-07-14T11:00:00,2529A,105.5861,30.5366,遂宁市,行政中心,,44,44,28,19,12,163,116,63,59,8,7,6,6,0.5,0.5
2022-07-14T11:00:00,2530A,105.5918,30.4728,遂宁市,美宁食品公司,,,41,27,11,8,169,124,62,61,10,8,,6,,0.4
2022-07-14T11:00:00,2531A,105.0703,29.61,内江市,市监测站,,29,14,21,6,11,194,90,62,50,25,20,16,16,0.6,0.6
2022-07-14T11:00:00,2532A,105.0717,29.5947,内江市,东兴区政府,,28,17,29,6,12,181,87,56,56,18,13,8,7,0.5,0.5
2022-07-14T11:00:00,2533A,105.0653,29.5817,内江市,内江二中,,28,7,20,5,13,182,88,62,60,16,12,11,10,0.7,0.7
2022-07-14T11:00:00,2534A,105.0406,29.5822,内江市,内江日报社,,28,15,24,7,11,212,88,67,56,19,13,8,7,0.5,0.5
2022-07-14T11:00:00,2535A,103.7723,29.5462,乐山市,花湖湾(对照点),,30,30,28,20,14,150,53,60,34,17,14,3,3,0.7,0.7
2022-07-14T11:00:00,2536A,103.7627,29.5844,乐山市,牛耳桥,,39,34,28,27,21,158,62,63,36,23,19,4,3,0.6,0.4
2022-07-14T11:00:00,2537A,103.7508,29.6006,乐山市,市第三水厂,,39,35,29,27,20,162,72,69,44,15,16,3,3,0.6,0.5
2022-07-14T11:00:00,2538A,103.7571,29.5664,乐山市,市监测站,,,37,30,28,19,155,70,68,35,21,16,,2,0.8,0.8
2022-07-14T11:00:00,2539A,104.0308,30.0478,眉山市,黑龙滩水库(对照点),,27,24,12,10,10,210,84,43,36,8,12,4,4,0.6,0.6
2022-07-14T11:00:00,2540A,103.8416,30.0874,眉山市,气象局,,34,34,17,14,8,185,64,46,30,26,22,9,7,0.6,0.5
2022-07-14T11:00:00,2544A,106.6303,30.4576,广安市,市委,,30,24,25,9,12,177,96,76,73,6,8,10,13,0.4,0.4
2022-07-14T11:00:00,2545A,106.6271,30.4663,广安市,友谊中学,,30,18,25,7,14,169,95,68,67,10,13,9,10,0.4,0.5
2022-07-14T11:00:00,2547A,106.6388,30.4551,广安市,广电花园,,35,35,34,5,13,167,92,74,68,7,11,10,11,0.4,0.4
2022-07-14T11:00:00,2548A,107.5277,31.2827,达州市,达州职业技术学院(对照点),,26,26,19,11,9,107,83,34,34,5,17,6,5,0.1,0.2
2022-07-14T11:00:00,2549A,107.5086,31.2186,达州市,市环境监测站,,26,26,22,14,15,94,75,31,31,25,30,6,5,0.4,0.4
2022-07-14T11:00:00,2550A,107.4988,31.2132,达州市,凤凰小区,,27,19,23,9,10,94,85,39,39,15,21,5,5,0.3,0.4
2022-07-14T11:00:00,2551A,107.5082,31.1986,达州市,达县机关宾馆,,25,22,26,9,15,100,80,32,32,10,26,5,7,0.4,0.5
2022-07-14T11:00:00,2552A,107.4644,31.2124,达州市,市政中心,,28,14,18,7,10,93,88,49,37,26,19,5,5,0.5,0.5
2022-07-14T11:00:00,2554A,103.0475,30.02,雅安市,建安厂,,24,15,15,15,9,153,74,108,57,10,13,7,6,0.7,0.6
2022-07-14T11:00:00,2555A,103.0111,29.9833,雅安市,市政府,,20,14,16,7,11,130,63,97,49,8,13,8,7,0.6,0.5
2022-07-14T11:00:00,2556A,102.9905,29.9775,雅安市,川农大,,20,20,15,11,8,136,63,80,41,10,8,9,8,0.4,0.4
2022-07-14T11:00:00,2561A,104.6617,30.1372,资阳市,莲花山(对照点),,30,22,21,11,8,148,93,75,69,10,8,12,7,0.5,0.7
2022-07-14T11:00:00,2562A,104.6356,30.1506,资阳市,资阳中学,,34,30,45,6,12,150,106,77,71,12,10,10,9,0.5,0.5
2022-07-14T11:00:00,2563A,104.6295,30.1383,资阳市,四三一厂,,,13,20,8,11,140,97,70,62,17,15,8,8,,0.4
2022-07-14T11:00:00,2564A,104.6463,30.1146,资阳市,师范校,,,13,21,5,14,134,,64,54,16,16,9,8,0.4,0.4
2022-07-14T11:00:00,2565A,104.6296,30.1256,资阳市,区法院,,33,11,17,6,7,151,105,76,72,13,9,10,10,0.6,0.5
2022-07-14T11:00:00,2566A,102.1879,31.914,阿坝藏族羌族自治州,州农科所(对照点),,20,17,22,14,24,20,20,3,3,8,11,16,16,1.0,1.1
2022-07-14T11:00:00,2567A,102.224,31.9037,阿坝藏族羌族自治州,州监测站,,,9,12,5,7,62,33,17,17,13,9,14,14,,0.5
2022-07-14T11:00:00,2568A,102.2502,31.8896,阿坝藏族羌族自治州,马师校,,11,11,10,4,8,69,33,16,16,15,16,9,10,0.6,0.6
2022-07-14T11:00:00,2570A,101.9603,30.0475,甘孜藏族自治州,水桥子,,18,18,16,1,7,89,47,12,11,4,23,7,6,0.2,0.4
2022-07-14T11:00:00,2571A,102.3431,27.8099,凉山彝族自治州,青龙寺(对照点),,32,9,6,4,8,107,101,67,63,3,4,5,3,0.4,0.3
2022-07-14T11:00:00,2572A,102.2721,27.8415,凉山彝族自治州,邛海宾馆,,34,34,37,15,14,92,88,51,51,5,11,7,7,0.3,0.3
2022-07-14T11:00:00,2573A,102.2625,27.898,凉山彝族自治州,西昌市政府,,27,22,29,14,15,92,85,57,54,4,7,10,13,0.4,0.5
2022-07-14T11:00:00,2574A,102.2685,27.8851,凉山彝族自治州,凉山州政府,,28,24,28,11,14,94,87,50,48,5,10,4,6,0.6,0.7
2022-07-14T11:00:00,2575A,102.237,27.8914,凉山彝族自治州,长安,,27,27,31,12,13,94,83,51,49,10,14,10,16,0.4,0.7
2022-07-14T11:00:00,2577A,104.83,26.5917,六盘水市,黄土坡,,32,23,16,22,13,104,79,64,61,6,6,8,6,0.3,0.2
2022-07-14T11:00:00,2578A,104.89,26.5939,六盘水市,水钢,,29,29,24,15,13,100,74,58,55,4,3,7,7,0.3,0.2
2022-07-14T11:00:00,2579A,104.8475,26.5894,六盘水市,民中,,32,32,25,14,9,98,73,61,57,7,6,8,6,0.4,0.3
2022-07-14T11:00:00,2580A,104.9544,26.5506,六盘水市,双水,,38,14,16,26,16,97,69,60,53,7,6,5,4,0.3,0.3
2022-07-14T11:00:00,2585A,109.1839,27.7344,铜仁地区,铜仁卫校,,19,15,12,7,7,74,60,50,35,4,7,4,4,0.4,0.4
2022-07-14T11:00:00,2586A,109.1753,27.6944,铜仁地区,铜仁七中,,20,14,12,8,7,72,63,36,30,6,6,3,2,0.6,0.5
2022-07-14T11:00:00,2587A,105.2864,27.3125,毕节市,八中,,,19,22,19,17,115,94,69,57,,8,7,9,0.4,0.3
2022-07-14T11:00:00,2588A,105.31,27.2944,毕节市,师专,,28,21,22,16,15,108,88,60,54,5,7,8,7,0.3,0.3
2022-07-14T11:00:00,2589A,104.9022,25.0925,黔西南布依族苗族自治州,场坝街,,19,10,12,7,7,70,58,53,48,4,5,5,5,0.1,0.1
2022-07-14T11:00:00,2590A,104.8811,25.0992,黔西南布依族苗族自治州,坪东大道,,17,13,12,9,6,65,53,48,41,3,4,5,5,0.3,0.3
2022-07-14T11:00:00,2591A,107.9783,26.5747,黔东南苗族侗族自治州,市环境监测站,,22,13,11,8,8,69,69,63,63,6,5,1,2,0.3,0.3
2022-07-14T11:00:00,2593A,107.5228,26.2403,黔南布依族苗族自治州,小围寨,,,,10,,4,64,46,48,45,1,2,,5,0.6,0.6
2022-07-14T11:00:00,2594A,99.1678,25.1081,保山市,市环境监测站,,24,24,18,2,3,79,74,48,48,8,7,6,6,0.4,0.4
2022-07-14T11:00:00,2595A,99.1711,25.1328,保山市,市环保局,,22,15,17,5,7,74,70,43,43,10,6,4,4,0.4,0.3
2022-07-14T11:00:00,2596A,103.7667,27.3736,昭通市,监测站,,32,30,28,12,16,102,102,92,78,6,8,12,16,0.3,0.3
2022-07-14T11:00:00,2597A,103.7225,27.3361,昭通市,环保局,,33,16,20,11,13,103,103,79,72,5,7,10,8,0.4,0.4
2022-07-14T11:00:00,2599A,100.2497,26.8802,丽江市,丽江古城,,28,28,27,5,11,77,75,53,53,12,14,7,7,0.4,0.5
2022-07-14T11:00:00,2600A,100.2203,26.8906,丽江市,市中心,,23,22,17,7,7,75,72,52,52,11,14,10,9,0.6,0.7
2022-07-14T11:00:00,2601A,100.98,22.7633,普洱市,市环保局,,18,11,10,5,5,59,57,35,35,10,10,7,6,0.5,0.4
2022-07-14T11:00:00,2602A,100.9817,22.8322,普洱市,普洱第二中学,,19,7,9,3,6,59,59,21,21,6,13,6,6,0.2,0.3
2022-07-14T11:00:00,2603A,100.0781,23.8982,临沧市,市环保局,,31,31,23,4,9,72,52,38,28,11,8,8,7,0.8,0.7
2022-07-14T11:00:00,2604A,100.0894,23.8822,临沧市,市气象局,颗粒物(PM10),55,59,35,24,17,69,47,30,23,11,11,7,6,0.6,0.5
2022-07-14T11:00:00,2605A,101.5482,25.0441,楚雄州,州环境监测站,,18,13,13,11,11,64,57,64,40,4,7,4,4,0.6,0.5
2022-07-14T11:00:00,2606A,101.538,25.0492,楚雄州,市经济开发区,,19,19,19,9,11,62,54,60,27,5,9,5,5,0.5,0.6
2022-07-14T11:00:00,2608A,103.3772,23.3993,红河州,污水处理厂,,,11,14,12,10,71,46,50,41,,6,,4,0.3,0.3
2022-07-14T11:00:00,2609A,103.3861,23.35,红河州,监测站,,15,8,14,10,13,71,47,51,40,4,8,3,4,0.3,0.3
2022-07-14T11:00:00,2610A,104.2533,23.3594,文山州,州水务局,,17,12,14,4,8,75,54,38,36,6,6,5,4,0.1,0.1
2022-07-14T11:00:00,2611A,104.2319,23.3892,文山州,市便民服务中心,,19,19,13,3,11,75,56,39,38,7,7,4,4,0.1,0.2
2022-07-14T11:00:00,2612A,100.7939,22.0019,西双版纳州,景洪市江南,,26,26,21,10,8,68,58,41,23,15,12,8,7,0.5,0.4
2022-07-14T11:00:00,2613A,100.8017,22.0225,西双版纳州,景洪市江北,,18,5,6,5,5,64,57,30,24,9,9,8,9,0.5,0.4
2022-07-14T11:00:00,2614A,100.1542,25.7054,大理州,大理市环境监测站,,32,32,24,4,6,69,48,60,54,7,7,3,4,0.6,0.5
2022-07-14T11:00:00,2615A,100.2171,25.5811,大理州,大理古城,,22,12,16,15,7,71,69,45,45,6,9,8,8,0.6,0.6
2022-07-14T11:00:00,2616A,98.5842,24.428,德宏州,德宏州监测站,,,19,16,7,7,77,49,31,31,10,10,6,6,,0.3
2022-07-14T11:00:00,2618A,98.8601,25.8567,怒江州,州监测站,,24,24,24,13,13,67,44,24,24,10,11,7,8,0.8,0.7
2022-07-14T11:00:00,2619A,98.8546,25.8417,怒江州,泸水一中,,,28,22,17,10,76,,15,11,11,15,6,6,0.4,0.4
2022-07-14T11:00:00,2621A,99.7056,27.8317,迪庆州,迪庆州站,,23,21,14,16,11,59,48,36,24,10,8,7,7,0.4,0.3
2022-07-14T11:00:00,2622A,97.1806,31.1273,昌都市,昌都监测站,,25,12,11,17,5,76,63,59,40,2,3,10,5,0.8,0.7
2022-07-14T11:00:00,2624A,91.7608,29.2313,山南市,山南监测站,颗粒物(PM10),63,75,14,15,4,91,53,65,57,8,4,6,6,0.3,0.3
2022-07-14T11:00:00,2625A,91.7706,29.2436,山南市,山南人民医院,,19,10,15,4,5,94,60,63,57,3,3,6,6,0.4,0.4
2022-07-14T11:00:00,2628A,92.0657,31.4846,那曲地区,那曲监测站,,27,14,15,9,6,103,86,77,77,7,6,10,10,0.3,0.3
2022-07-14T11:00:00,2630A,80.1161,32.5,阿里地区,阿里监测站,,39,5,10,3,5,124,123,120,120,6,4,7,7,0.3,0.3
2022-07-14T11:00:00,2632A,94.3681,29.6376,林芝市,林芝监测站,,13,3,6,2,3,66,40,51,33,1,2,8,8,0.6,0.6
