timepoint,stationcode,longitude,latitude,area,positionname,primarypollutant,aqi,pm10,pm10_24h,pm2_5,pm2_5_24h,o3,o3_24h,o3_8h,o3_8h_24h,no2,no2_24h,so2,so2_24h,co,co_24h
2022-07-14T19:00:00,1015A,117.1444,39.1661,天津市,勤俭道,臭氧1小时,106,78,52,45,30,235,212,206,206,20,15,9,7,1.4,0.9
2022-07-14T19:00:00,1017A,117.237,39.1082,天津市,大直沽八号路,颗粒物(PM10),69,87,60,44,30,218,165,191,191,17,10,8,7,1.5,1
2022-07-14T19:00:00,1019A,117.1837,39.2133,天津市,淮河道,臭氧1小时,113,82,59,47,34,238,225,220,220,20,19,10,8,1.4,0.9
2022-07-14T19:00:00,1021A,117.307,39.0877,天津市,跃进路,颗粒物(PM10),59,68,60,31,26,244,151,215,215,27,16,6,6,1.7,0.9
2022-07-14T19:00:00,1023A,117.707,39.0343,天津市,第四大街,,36,26,52,11,29,149,50,122,108,72,24,7,6,0.7,1.1
2022-07-14T19:00:00,1024A,117.457,38.8394,天津市,永明路,"颗粒物(PM10),细颗粒物(PM2.5)",54,58,57,38,34,229,141,206,206,14,16,5,6,0.9,1
2022-07-14T19:00:00,1026A,117.764,39.1587,天津市,汉北路,,37,12,48,6,30,168,117,142,137,14,15,5,5,0.6,0.9
2022-07-14T19:00:00,1027A,117.157,38.9194,天津市,团泊洼(对照点),臭氧1小时,117,92,57,40,29,291,233,270,270,13,9,6,6,1.6,1.5
2022-07-14T19:00:00,1029A,114.4422,38.0444,石家庄市,职工医院,臭氧1小时,59,39,54,22,33,181,167,171,171,18,21,4,4,0.3,0.7
2022-07-14T19:00:00,1030A,114.6063,38.0266,石家庄市,高新区,,,46,57,23,30,182,162,166,165,,29,5,5,0.5,0.9
2022-07-14T19:00:00,1031A,114.4898,38.1328,石家庄市,西北水源,,48,35,48,21,32,166,153,157,157,14,23,5,6,0.4,1
2022-07-14T19:00:00,1032A,114.4586,38.0058,石家庄市,西南高教,臭氧1小时,54,50,53,15,30,170,163,160,160,26,27,7,8,0.9,1.4
2022-07-14T19:00:00,1033A,114.5331,38.0178,石家庄市,世纪公园,,45,45,61,22,34,163,140,140,140,10,15,6,6,0.5,0.9
2022-07-14T19:00:00,1034A,114.509,38.0457,石家庄市,人民会堂,臭氧1小时,72,37,48,26,29,190,177,172,172,8,18,5,7,0.5,1
2022-07-14T19:00:00,1035A,114.3524,37.8911,石家庄市,封龙山(对照点),臭氧1小时,64,51,46,27,24,177,171,159,148,15,16,3,3,0.8,1.2
2022-07-14T19:00:00,1037A,118.131,39.6363,唐山市,雷达站,,43,38,54,7,18,212,137,189,189,10,16,2,5,0.4,0.8
2022-07-14T19:00:00,1038A,118.1725,39.6334,唐山市,物资局,,,,48,,19,200,,183,183,35,15,5,7,0.5,0.7
2022-07-14T19:00:00,1041A,118.1869,39.622,唐山市,小山,,42,42,40,15,21,204,128,177,177,10,12,4,6,0.4,0.7
2022-07-14T19:00:00,1042A,119.5134,39.8207,秦皇岛市,北戴河环保局,细颗粒物(PM2.5),73,35,57,53,16,143,122,126,126,5,11,5,5,0.4,0.5
2022-07-14T19:00:00,1044A,119.5897,39.9499,秦皇岛市,监测站,,40,25,36,9,20,142,125,131,131,6,15,6,6,0.1,0.3
2022-07-14T19:00:00,1046A,119.5251,39.9041,秦皇岛市,建设大厦,,39,22,40,4,15,146,123,134,134,3,19,1,2,0.3,0.5
2022-07-14T19:00:00,1048A,114.5302,36.6116,邯郸市,东污水处理厂,颗粒物(PM10),51,51,52,26,32,149,106,135,135,25,16,5,6,0.8,1.2
2022-07-14T19:00:00,1050A,114.484,36.6133,邯郸市,丛台公园,,44,44,46,25,35,149,129,139,139,14,18,4,4,0.8,1.2
2022-07-14T19:00:00,1051A,115.493,38.8632,保定市,游泳馆,,,,28,,18,176,,158,158,12,12,2,10,,0.4
2022-07-14T19:00:00,1052A,115.5213,38.8959,保定市,华电二区,臭氧1小时,52,23,36,11,16,172,161,156,156,10,11,5,5,0.2,0.6
2022-07-14T19:00:00,1053A,115.4713,38.9108,保定市,接待中心,,45,28,39,5,15,173,143,159,159,13,15,5,5,0.2,0.8
2022-07-14T19:00:00,1054A,115.4612,38.8416,保定市,地表水厂,,44,32,45,14,22,186,138,161,161,12,12,6,5,0.2,0.5
2022-07-14T19:00:00,1055A,115.4323,38.8697,保定市,胶片厂,,45,30,32,10,13,180,142,164,164,16,16,9,10,0.2,0.5
2022-07-14T19:00:00,1056A,115.5086,38.8639,保定市,监测站,,50,35,42,14,21,176,160,161,161,13,14,8,9,0.3,0.6
2022-07-14T19:00:00,1057A,114.8883,40.8336,张家口市,人民公园,,41,11,13,2,2,133,130,129,129,9,8,6,6,0.1,0.1
2022-07-14T19:00:00,1059A,114.8687,40.8042,张家口市,五金库,,38,7,11,5,4,124,120,120,120,13,12,7,7,0.2,0.2
2022-07-14T19:00:00,1060A,114.8902,40.762,张家口市,世纪豪园,,41,22,18,9,8,132,130,129,129,11,13,4,4,0.2,0.2
2022-07-14T19:00:00,1061A,114.8916,40.8661,张家口市,北泵房(对照点),,38,22,14,3,6,133,119,128,128,10,8,9,9,0.6,0.5
2022-07-14T19:00:00,1062A,117.9531,40.9081,承德市,铁路,,30,19,34,10,11,121,94,107,107,10,19,3,3,0.2,0.3
2022-07-14T19:00:00,1063A,117.9392,40.9763,承德市,中国银行,,29,14,15,14,6,117,90,104,104,14,18,5,5,0.3,0.2
2022-07-14T19:00:00,1064A,117.9503,40.928,承德市,开发区,,31,15,29,7,11,123,97,110,110,5,24,4,4,0.2,0.3
2022-07-14T19:00:00,1065A,117.8051,40.9655,承德市,文化中心,,30,19,33,6,10,114,96,107,106,6,21,6,6,0.3,0.3
2022-07-14T19:00:00,1066A,117.9268,41.0026,承德市,离宫(对照点),,19,7,20,6,9,106,60,92,91,5,14,1,1,0.2,0.2
2022-07-14T19:00:00,1067A,116.6708,39.5111,廊坊市,药材公司,,44,6,29,11,15,154,138,147,147,13,16,6,6,0.3,0.4
2022-07-14T19:00:00,1068A,116.7214,39.5589,廊坊市,开发区,,42,24,31,12,18,155,132,144,144,18,19,8,7,0.6,0.5
2022-07-14T19:00:00,1070A,116.7244,39.5269,廊坊市,北华航天学院,,46,40,44,12,18,158,146,148,148,17,19,6,5,0.2,0.4
2022-07-14T19:00:00,1071A,116.8842,38.2991,沧州市,沧县城建局,,48,42,39,22,14,178,151,171,171,27,15,6,6,0.5,0.5
2022-07-14T19:00:00,1072A,116.8584,38.3254,沧州市,电视转播站,臭氧1小时,65,44,30,20,16,175,172,168,168,12,12,12,10,0.6,0.5
2022-07-14T19:00:00,1073A,116.8709,38.3228,沧州市,市环保局,臭氧1小时,68,57,52,12,15,190,174,181,181,13,13,4,5,0.4,0.5
2022-07-14T19:00:00,1074A,115.6838,37.7541,衡水市,电机北厂,臭氧1小时,87,36,30,11,12,189,189,165,165,8,12,10,9,0.7,0.8
2022-07-14T19:00:00,1075A,115.6303,37.7316,衡水市,市监测站,臭氧1小时,54,52,45,26,15,171,163,166,166,14,11,5,4,0.6,0.8
2022-07-14T19:00:00,1078A,114.5062,37.0349,邢台市,邢师高专,,,68,60,,31,169,125,151,151,23,24,6,8,,0.9
2022-07-14T19:00:00,1079A,114.5237,37.0851,邢台市,路桥公司,颗粒物(PM10),55,60,59,38,30,176,150,160,160,10,22,6,8,1.0,1.1
2022-07-14T19:00:00,1081A,112.5139,37.8873,太原市,尖草坪,颗粒物(PM10),57,64,76,28,36,229,153,192,192,20,34,8,9,0.8,0.9
2022-07-14T19:00:00,1084A,112.469,37.7124,太原市,晋源,颗粒物(PM10),100,149,78,60,37,193,157,170,170,32,38,8,9,0.9,0.6
2022-07-14T19:00:00,1085A,112.5583,37.7394,太原市,小店,颗粒物(PM10),85,119,94,52,42,193,185,172,172,24,43,6,11,1.0,1
2022-07-14T19:00:00,1086A,112.5369,37.8692,太原市,桃园,颗粒物(PM10),55,59,71,31,34,218,152,187,187,22,36,7,8,0.8,0.9
2022-07-14T19:00:00,1087A,112.57,37.8195,太原市,坞城,颗粒物(PM10),55,60,77,28,39,203,148,161,161,16,35,6,6,0.6,0.9
2022-07-14T19:00:00,1088A,112.549,37.9854,太原市,南寨,颗粒物(PM10),54,58,78,29,34,194,111,163,163,25,37,5,5,0.8,0.7
2022-07-14T19:00:00,1090A,111.6507,40.7517,呼和浩特市,呼市一监,颗粒物(PM10),60,70,20,9,4,155,140,136,136,18,18,7,8,0.4,0.3
2022-07-14T19:00:00,1091A,111.6572,40.8033,呼和浩特市,小召,,46,46,17,9,4,153,138,137,137,26,21,6,5,0.4,0.3
2022-07-14T19:00:00,1094A,111.7516,40.8369,呼和浩特市,如意水处理厂,,50,31,17,9,4,159,159,141,141,13,22,7,6,0.4,0.3
2022-07-14T19:00:00,1095A,111.7276,40.8062,呼和浩特市,二十九中,,48,30,19,7,4,151,151,133,133,15,22,8,7,0.3,0.3
2022-07-14T19:00:00,1096A,111.5512,40.7866,呼和浩特市,工大金川校区,,,,17,,5,150,,136,136,10,18,22,6,0.4,0.4
2022-07-14T19:00:00,1097A,111.717,40.7612,呼和浩特市,化肥厂生活区,,47,36,16,8,4,149,149,132,132,15,14,5,9,0.3,0.3
2022-07-14T19:00:00,1099A,123.505,41.7406,沈阳市,浑南东路,,37,18,17,11,10,136,116,125,125,10,11,7,8,0.5,0.5
2022-07-14T19:00:00,1100A,123.4231,41.6989,沈阳市,新秀街,,32,9,15,10,8,126,100,114,114,26,23,6,8,0.7,0.7
2022-07-14T19:00:00,1102A,123.5903,41.8411,沈阳市,东陵路,,32,12,27,11,10,116,100,113,111,12,12,6,6,0.5,0.5
2022-07-14T19:00:00,1103A,123.4264,41.8467,沈阳市,陵东街,,32,13,14,9,6,111,102,104,104,14,12,3,3,0.4,0.4
2022-07-14T19:00:00,1104A,123.4114,41.7653,沈阳市,文化路,,38,19,16,10,8,134,119,125,125,12,15,6,7,0.4,0.4
2022-07-14T19:00:00,1105A,123.4678,41.7867,沈阳市,小河沿,,37,21,14,11,5,124,116,119,119,15,17,3,4,0.5,0.5
2022-07-14T19:00:00,1106A,123.4017,41.7972,沈阳市,太原街,,38,14,17,10,7,129,120,122,122,19,23,4,5,0.4,0.5
2022-07-14T19:00:00,1108A,123.3783,41.9228,沈阳市,京沈街,,37,37,15,10,7,122,116,118,118,10,8,7,7,0.5,0.5
2022-07-14T19:00:00,1109A,121.612,38.9741,大连市,甘井子,,39,19,30,10,14,149,122,135,135,21,24,5,5,0.4,0.4
2022-07-14T19:00:00,1110A,121.565,38.9511,大连市,周水子,,39,27,29,21,18,129,122,122,122,17,17,5,6,1.0,1.1
2022-07-14T19:00:00,1111A,121.5637,38.8845,大连市,星海三站,,34,27,21,14,14,149,108,127,127,57,22,5,5,0.6,0.3
2022-07-14T19:00:00,1112A,121.6302,38.9117,大连市,青泥洼桥,,35,20,29,11,18,160,112,134,134,47,23,6,6,0.7,0.7
2022-07-14T19:00:00,1113A,121.6251,38.8638,大连市,傅家庄,,,14,15,7,9,110,110,89,89,,8,,10,1.2,0.9
2022-07-14T19:00:00,1114A,121.5213,38.8661,大连市,七贤岭,,42,21,20,10,12,169,134,154,154,16,10,5,5,1.0,0.9
2022-07-14T19:00:00,1115A,121.2529,38.8061,大连市,旅顺,,42,26,19,18,17,144,134,127,127,11,10,4,4,1.1,1.1
2022-07-14T19:00:00,1116A,121.7485,39.1311,大连市,金州,,,30,32,21,22,133,,124,124,18,15,8,8,0.8,0.6
2022-07-14T19:00:00,1117A,121.7811,39.0496,大连市,开发区,,46,37,24,32,17,135,123,118,118,35,23,15,8,0.9,0.9
2022-07-14T19:00:00,1118A,121.9762,39.0631,大连市,双D港,,30,19,14,10,8,127,96,88,88,18,12,8,7,0.4,0.4
2022-07-14T19:00:00,1119A,125.3325,43.9166,长春市,食品厂,,23,7,14,2,6,82,72,73,73,25,22,2,3,0.5,0.5
2022-07-14T19:00:00,1120A,125.2863,43.9027,长春市,客车厂,,26,10,12,9,7,86,82,80,80,21,22,4,3,0.6,0.5
2022-07-14T19:00:00,1121A,125.2841,43.8463,长春市,邮电学院,,25,0,2,6,6,91,79,85,83,19,14,4,4,0.5,0.4
2022-07-14T19:00:00,1122A,125.3716,43.8772,长春市,劳动公园,,29,10,9,5,6,99,92,93,93,17,17,2,2,0.6,0.5
2022-07-14T19:00:00,1123A,125.3297,43.8805,长春市,园林处,,26,11,10,7,7,94,81,87,87,19,15,3,3,0.5,0.6
2022-07-14T19:00:00,1124A,125.4605,43.79,长春市,净月潭,,28,2,7,4,3,89,89,84,81,10,6,5,5,0.4,0.4
2022-07-14T19:00:00,1126A,125.3863,43.8447,长春市,经开区环卫处,,28,11,9,8,6,97,87,88,87,19,20,4,3,0.4,0.4
2022-07-14T19:00:00,1127A,125.245,43.7783,长春市,高新区管委会,,30,11,7,5,5,94,94,87,87,9,11,3,3,0.4,0.4
2022-07-14T19:00:00,1128A,125.1761,43.8325,长春市,岱山公园,,25,8,9,3,4,92,78,81,80,15,18,4,4,0.3,0.3
2022-07-14T19:00:00,1129A,126.5422,45.755,哈尔滨市,岭北(对照点),,18,10,13,6,8,66,55,53,53,14,15,8,9,0.4,0.3
2022-07-14T19:00:00,1130A,126.561,45.8167,哈尔滨市,松北商大,,12,8,17,7,7,47,38,41,41,12,20,5,5,0.8,0.8
2022-07-14T19:00:00,1131A,126.979,45.5419,哈尔滨市,阿城会宁,,25,25,23,2,7,46,43,42,42,8,16,5,5,0.7,0.7
2022-07-14T19:00:00,1132A,126.599,45.7222,哈尔滨市,南岗学府路,,,6,15,4,7,54,45,48,48,14,18,8,11,,1.1
2022-07-14T19:00:00,1133A,126.689,45.7733,哈尔滨市,太平宏伟公园,,,24,25,10,11,58,46,49,49,20,19,8,6,,0.4
2022-07-14T19:00:00,1134A,126.635,45.7667,哈尔滨市,道外承德广场,,19,19,25,6,8,52,38,39,39,22,23,6,6,0.5,0.5
2022-07-14T19:00:00,1135A,126.685,45.7319,哈尔滨市,香坊红旗大街,,14,8,18,5,8,54,43,45,45,24,28,10,12,0.4,0.5
2022-07-14T19:00:00,1136A,126.6411,45.7258,哈尔滨市,动力和平路,,,9,20,,,59,43,47,47,19,20,7,8,0.7,0.7
2022-07-14T19:00:00,1137A,126.593,45.7478,哈尔滨市,道里建国路,,16,14,23,6,9,60,49,50,50,17,22,7,8,0.6,1.2
2022-07-14T19:00:00,1138A,126.615,45.61,哈尔滨市,平房东轻厂,,21,21,24,6,9,54,29,49,45,26,21,6,4,0.2,0.5
2022-07-14T19:00:00,1139A,126.595,45.9855,哈尔滨市,呼兰师专,,23,23,14,5,7,66,57,55,55,16,17,6,6,0.5,0.5
2022-07-14T19:00:00,1140A,126.6206,45.6842,哈尔滨市,省农科院,,,14,19,7,7,58,43,51,49,,26,7,8,0.5,0.6
2022-07-14T19:00:00,1141A,121.4,31.238,上海市,普陀,臭氧1小时,78,53,45,18,26,190,182,162,157,18,23,4,5,0.4,0.5
2022-07-14T19:00:00,1142A,121.478,31.2036,上海市,十五厂,臭氧1小时,117,67,53,28,29,233,233,160,160,30,30,3,3,0.8,0.6
2022-07-14T19:00:00,1143A,121.467,31.3008,上海市,虹口,臭氧1小时,126,58,48,26,25,251,251,171,171,27,25,6,5,0.7,0.5
2022-07-14T19:00:00,1144A,121.412,31.1654,上海市,徐汇上师大,臭氧1小时,63,42,51,21,40,195,170,161,157,27,34,5,6,0.4,0.4
2022-07-14T19:00:00,1145A,121.536,31.2659,上海市,杨浦四漂,臭氧1小时,126,63,42,40,29,251,251,171,171,20,18,6,4,0.6,0.5
2022-07-14T19:00:00,1147A,121.425,31.2261,上海市,静安监测站,,,38,47,28,29,181,,154,149,28,31,3,2,0.3,0.4
2022-07-14T19:00:00,1148A,121.703,31.1907,上海市,浦东川沙,臭氧1小时,113,35,45,40,36,318,225,274,274,26,26,4,4,0.6,0.5
2022-07-14T19:00:00,1149A,121.533,31.2284,上海市,浦东新区监测站,臭氧1小时,131,51,49,62,30,262,262,170,170,26,22,6,5,0.7,0.5
2022-07-14T19:00:00,1150A,121.577,31.2071,上海市,浦东张江,臭氧1小时,117,62,43,38,29,234,234,168,168,35,27,7,5,0.8,0.7
2022-07-14T19:00:00,1151A,118.8086,32.1065,南京市,迈皋桥,,38,38,36,12,16,145,95,131,124,14,17,4,7,0.3,0.3
2022-07-14T19:00:00,1152A,118.7538,32.0551,南京市,草场门,,34,34,37,14,18,153,94,131,125,18,21,3,7,0.6,0.7
2022-07-14T19:00:00,1153A,118.7794,32.0745,南京市,山西路,,36,36,40,22,23,131,91,116,112,12,14,4,9,0.3,0.4
2022-07-14T19:00:00,1154A,118.7752,32.0023,南京市,中华门,,44,44,44,12,14,156,88,139,131,17,18,3,5,0.8,1.2
2022-07-14T19:00:00,1155A,118.8109,32.0309,南京市,瑞金路,,36,36,40,14,19,157,94,141,134,15,17,4,9,0.3,0.4
2022-07-14T19:00:00,1158A,118.7356,31.9996,南京市,奥体中心,,41,41,47,14,23,170,98,143,135,19,26,3,9,0.4,0.5
2022-07-14T19:00:00,1159A,118.9125,32.1028,南京市,仙林大学城,,39,39,38,22,20,167,110,148,144,21,26,4,9,0.6,0.8
2022-07-14T19:00:00,1160A,120.561,31.2472,苏州市,上方山(对照点),,40,39,44,26,26,154,125,140,140,12,16,6,7,0.5,0.5
2022-07-14T19:00:00,1162A,120.591,31.3019,苏州市,彩香,,,34,33,,22,158,145,145,145,12,18,6,6,0.4,0.4
2022-07-14T19:00:00,1163A,120.596,31.3264,苏州市,轧钢厂,,41,39,42,19,20,151,131,135,135,12,22,6,6,0.3,0.4
2022-07-14T19:00:00,1164A,120.613,31.2703,苏州市,吴中区,,45,37,33,19,21,158,142,147,147,9,20,8,7,0.4,0.5
2022-07-14T19:00:00,1165A,120.543,31.2994,苏州市,苏州新区,,49,30,36,13,23,164,156,152,152,6,9,6,6,0.6,0.7
2022-07-14T19:00:00,1166A,120.669,31.3097,苏州市,苏州工业园区,,38,29,33,21,19,143,119,127,127,16,21,7,7,0.6,0.7
2022-07-14T19:00:00,1167A,120.641,31.3708,苏州市,相城区,,44,36,44,29,31,158,139,146,146,8,26,7,7,0.6,0.6
2022-07-14T19:00:00,1168A,120.9098,31.9663,南通市,狼山街道,,48,48,43,19,21,219,92,198,180,55,41,6,8,0.6,0.8
2022-07-14T19:00:00,1169A,120.86,32.0005,南通市,虹桥,,48,36,54,22,33,227,152,201,200,15,49,2,3,0.6,0.8
2022-07-14T19:00:00,1170A,120.87,32.02,南通市,城中,,47,38,51,27,28,224,148,198,196,11,44,7,7,0.5,0.8
2022-07-14T19:00:00,1171A,120.94,31.93,南通市,星湖花园,,40,40,48,22,25,234,121,207,193,58,41,8,11,0.6,0.7
2022-07-14T19:00:00,1172A,120.81,32.0417,南通市,紫琅学院,臭氧1小时,54,44,64,22,27,219,163,203,199,10,51,7,17,0.6,1
2022-07-14T19:00:00,1173A,119.176,34.5885,连云港市,市环境监测站,,27,24,36,12,25,136,85,136,82,9,10,1,1,0.6,0.7
2022-07-14T19:00:00,1177A,117.179,34.2761,徐州市,黄河新村,,31,14,45,6,23,130,98,75,75,18,28,9,10,0.6,0.8
2022-07-14T19:00:00,1178A,117.1918,34.2384,徐州市,淮塔,,31,21,46,9,29,128,97,77,77,13,22,6,6,0.5,0.7
2022-07-14T19:00:00,1180A,117.256,34.2153,徐州市,新城区,颗粒物(PM10),70,90,58,12,25,115,85,70,70,14,22,5,5,0.7,0.9
2022-07-14T19:00:00,1181A,117.244,34.2911,徐州市,桃园路,,31,27,60,5,20,124,97,68,67,15,28,10,11,0.7,0.9
2022-07-14T19:00:00,1182A,117.2933,34.2778,徐州市,农科院,,,17,46,2,16,103,,46,46,20,36,8,10,0.6,0.9
2022-07-14T19:00:00,1186A,119.389,32.3761,扬州市,邗江监测站,,41,41,50,22,26,181,110,132,118,8,20,6,8,0.6,0.7
2022-07-14T19:00:00,1188A,120.269,31.4867,无锡市,雪浪,,49,34,33,17,17,158,154,152,152,3,6,14,14,0.2,0.3
2022-07-14T19:00:00,1189A,120.275,31.6219,无锡市,黄巷,,47,47,48,29,26,168,138,148,148,11,26,7,7,1.1,1.1
2022-07-14T19:00:00,1190A,120.294,31.56,无锡市,曹张,,49,33,34,19,18,163,154,156,156,2,25,6,8,0.5,0.7
2022-07-14T19:00:00,1191A,120.242,31.5031,无锡市,漆塘,,47,27,28,22,23,165,149,158,158,2,8,5,6,0.5,0.6
2022-07-14T19:00:00,1193A,120.354,31.5475,无锡市,旺庄,,50,31,32,17,18,168,157,158,158,10,16,10,11,0.6,0.8
2022-07-14T19:00:00,1194A,120.245,31.5631,无锡市,荣巷,,47,31,31,22,23,153,149,147,147,2,6,12,13,0.6,0.6
2022-07-14T19:00:00,1195A,120.299,31.6817,无锡市,堰桥,颗粒物(PM10),56,61,46,27,24,174,148,158,158,36,29,7,9,0.7,0.8
2022-07-14T19:00:00,1196A,119.9633,31.762,常州市,市监测站,,44,37,42,14,19,206,140,163,163,14,20,8,10,0.5,0.5
2022-07-14T19:00:00,1201A,119.9255,31.9087,常州市,安家,臭氧1小时,52,32,44,23,32,220,161,178,178,12,25,4,5,0.8,0.8
2022-07-14T19:00:00,1203A,119.6707,32.1875,镇江市,新区办事处,,33,31,45,9,21,236,103,182,173,22,25,7,12,0.6,0.8
2022-07-14T19:00:00,1204A,119.4974,32.1968,镇江市,职教中心,,,43,44,,20,227,105,162,152,24,18,2,3,0.6,0.7
2022-07-14T19:00:00,1205A,119.4303,32.1328,镇江市,丹徒区监测站,,44,39,44,26,29,210,140,177,169,11,18,4,4,0.7,0.7
2022-07-14T19:00:00,1206A,119.905,32.4878,泰州市,公园路,,30,22,40,19,26,187,95,144,135,6,25,5,9,0.7,0.8
2022-07-14T19:00:00,1207A,119.9189,32.4625,泰州市,莲花,,35,20,40,19,30,217,110,164,155,9,27,12,12,0.5,0.7
2022-07-14T19:00:00,1209A,119.888,32.4639,泰州市,留学生创业园,,34,30,51,18,28,218,107,168,157,10,39,7,11,0.6,0.9
2022-07-14T19:00:00,1212A,118.989,33.6067,淮安市,市监测站,颗粒物(PM10),54,58,55,28,32,115,83,102,102,18,26,5,6,0.9,0.8
2022-07-14T19:00:00,1213A,119.135,33.5039,淮安市,楚州区监测站,颗粒物(PM10),51,51,51,29,25,129,87,113,108,11,20,6,7,0.7,0.6
2022-07-14T19:00:00,1214A,119.0186,33.6297,淮安市,淮阴区监测站,颗粒物(PM10),52,54,49,34,35,121,85,105,102,16,18,6,6,0.9,0.8
2022-07-14T19:00:00,1215A,120.118,33.4022,盐城市,盐城电厂,,37,36,45,20,22,146,118,129,129,10,11,5,5,0.6,0.4
2022-07-14T19:00:00,1216A,120.156,33.3942,盐城市,市监测站,,36,27,33,12,17,145,115,129,128,9,9,6,7,0.4,0.3
2022-07-14T19:00:00,1218A,120.2144,33.38,盐城市,开发区管委会,,37,29,34,13,17,148,118,133,132,13,15,8,8,0.6,0.6
2022-07-14T19:00:00,1220A,118.293,33.9528,宿迁市,宿迁学院,,28,16,48,15,32,130,87,99,62,12,17,3,4,0.7,0.8
2022-07-14T19:00:00,1221A,118.2442,33.9592,宿迁市,宿迁中学,,32,14,47,13,28,142,100,106,70,11,16,1,3,0.4,0.6
2022-07-14T19:00:00,1224A,120.0633,30.2747,杭州市,西溪,,45,30,37,25,37,149,143,113,109,15,19,11,11,0.4,0.4
2022-07-14T19:00:00,1226A,120.3461,30.3153,杭州市,下沙,,49,43,43,28,22,166,155,158,158,17,20,3,4,0.6,0.6
2022-07-14T19:00:00,1227A,120.1269,30.2456,杭州市,卧龙桥,,30,30,30,18,20,129,66,117,108,17,20,4,5,0.7,0.6
2022-07-14T19:00:00,1228A,120.1903,30.2692,杭州市,浙江农大,,46,30,30,19,19,145,145,138,138,20,17,6,6,0.5,0.6
2022-07-14T19:00:00,1230A,120.1197,30.3119,杭州市,和睦小学,臭氧1小时,90,42,43,16,20,192,192,141,141,21,27,7,6,0.5,0.5
2022-07-14T19:00:00,1231A,120.3019,30.4183,杭州市,临平镇,臭氧1小时,58,36,42,13,17,171,166,157,157,12,24,4,4,0.6,0.6
2022-07-14T19:00:00,1232A,120.2697,30.1819,杭州市,城厢镇,,36,36,40,20,25,143,107,123,118,13,23,7,9,0.4,0.6
2022-07-14T19:00:00,1235A,121.56,29.82,宁波市,万里学院,臭氧1小时,83,61,41,30,26,246,186,218,218,16,18,9,11,0.5,0.6
2022-07-14T19:00:00,1236A,121.713,29.9572,宁波市,龙赛医院,臭氧1小时,63,62,58,36,33,299,170,251,251,30,28,8,10,0.9,0.9
2022-07-14T19:00:00,1239A,121.633,29.7733,宁波市,钱湖水厂,,39,32,31,23,28,252,124,199,199,12,12,5,6,0.5,0.5
2022-07-14T19:00:00,1240A,121.5856,29.8635,宁波市,太古小学,臭氧1小时,99,48,39,33,29,288,199,235,235,13,16,6,7,0.8,0.7
2022-07-14T19:00:00,1241A,121.524,29.8674,宁波市,市环境监测中心,臭氧1小时,67,57,61,46,43,268,173,205,204,21,16,3,6,0.7,0.6
2022-07-14T19:00:00,1242A,120.634,28.0089,温州市,瓯海,,32,32,46,18,27,226,56,191,162,19,17,6,6,0.5,0.5
2022-07-14T19:00:00,1243A,120.6748,27.9939,温州市,南浦,,45,44,44,31,26,231,54,158,151,16,12,4,4,0.4,0.6
2022-07-14T19:00:00,1244A,120.76,27.9747,温州市,龙湾,,33,33,41,15,21,168,48,126,110,16,13,6,6,0.3,0.3
2022-07-14T19:00:00,1245A,120.6709,28.0167,温州市,市站,,47,47,45,14,25,231,61,164,153,17,18,5,5,0.4,0.6
2022-07-14T19:00:00,1247A,120.6053,29.9928,绍兴市,城东开发委,,44,44,43,27,32,149,114,128,122,4,12,2,3,0.6,0.7
2022-07-14T19:00:00,1252A,120.7436,30.778,嘉兴市,清河小学,,50,38,43,20,25,191,157,151,151,16,19,9,9,0.6,0.6
2022-07-14T19:00:00,1253A,120.726,30.7478,嘉兴市,嘉兴学院,,50,31,43,28,39,162,160,151,151,15,24,5,4,0.5,0.6
2022-07-14T19:00:00,1255A,121.273,28.6459,台州市,黄岩环保大楼,,29,28,28,17,15,144,91,134,131,14,12,8,4,0.4,0.4
2022-07-14T19:00:00,1256A,121.419,28.6542,台州市,台州环保大楼,,33,33,29,20,14,134,47,111,97,15,12,4,5,0.5,0.4
2022-07-14T19:00:00,1257A,121.377,28.5773,台州市,路桥田洋王,,36,36,26,16,14,145,67,111,106,14,12,4,5,0.6,0.4
2022-07-14T19:00:00,1258A,122.122,30.0203,舟山市,定海檀枫,,29,29,28,12,12,194,45,149,142,36,25,2,3,0.2,0.3
2022-07-14T19:00:00,1259A,122.3094,29.9558,舟山市,普陀东港,,26,26,24,17,12,112,39,85,77,18,24,5,2,0.3,0.3
2022-07-14T19:00:00,1260A,122.19,29.9944,舟山市,临城新区,,22,22,26,12,11,154,42,113,113,42,28,4,5,0.3,0.3
2022-07-14T19:00:00,1262A,119.647,29.077,金华市,十五中,,48,48,48,31,32,165,146,149,149,13,19,5,9,0.5,0.6
2022-07-14T19:00:00,1263A,119.686,29.1029,金华市,监测站,,47,44,45,11,24,183,150,160,160,12,18,4,8,0.5,0.6
2022-07-14T19:00:00,1264A,118.8692,28.9398,衢州市,环保大楼,颗粒物(PM10),51,52,52,26,26,163,117,132,132,17,14,6,8,0.6,0.6
2022-07-14T19:00:00,1266A,118.8621,28.9808,衢州市,衢州学院,颗粒物(PM10),52,54,51,30,27,145,144,135,135,13,23,6,5,0.6,0.5
2022-07-14T19:00:00,1267A,119.914,28.4514,丽水市,监测站大楼,,44,44,43,29,23,143,101,123,118,14,11,6,5,0.4,0.4
2022-07-14T19:00:00,1268A,119.93,28.4586,丽水市,莲都小学,颗粒物(PM10),51,52,49,23,22,151,110,128,124,14,12,6,6,0.5,0.5
2022-07-14T19:00:00,1269A,119.879,28.4231,丽水市,余庄前,,36,36,34,17,25,149,47,126,103,9,12,6,6,0.4,0.5
2022-07-14T19:00:00,1270A,117.1959,31.7848,合肥市,明珠广场,,41,41,44,12,21,133,111,116,111,21,22,5,6,0.6,0.6
2022-07-14T19:00:00,1272A,117.2588,31.8707,合肥市,琥珀山庄,,40,31,39,14,19,138,126,127,125,19,16,10,10,0.5,0.5
2022-07-14T19:00:00,1273A,117.1604,31.9052,合肥市,董铺水库(对照点),,44,44,42,9,17,121,95,113,112,19,14,11,10,0.5,0.5
2022-07-14T19:00:00,1274A,117.25,31.8571,合肥市,长江中路,颗粒物(PM10),54,58,47,24,21,150,133,139,137,15,10,5,5,0.6,0.5
2022-07-14T19:00:00,1275A,117.266,31.9436,合肥市,庐阳区,,48,48,52,17,23,138,85,121,117,35,14,5,5,0.4,0.4
2022-07-14T19:00:00,1276A,117.336,31.8586,合肥市,瑶海区,,46,46,58,17,23,147,98,123,118,31,27,9,9,0.6,0.6
2022-07-14T19:00:00,1277A,117.3027,31.7964,合肥市,包河区,,48,48,54,27,22,144,97,125,121,34,27,15,13,0.7,0.6
2022-07-14T19:00:00,1279A,117.1318,31.8403,合肥市,高新区,,44,44,51,24,23,125,113,121,120,17,16,5,6,0.6,0.7
2022-07-14T19:00:00,1282A,119.2681,26.0504,福州市,师大,颗粒物(PM10),55,60,59,19,25,237,141,188,188,15,19,4,4,0.6,0.6
2022-07-14T19:00:00,1283A,119.2984,26.1028,福州市,五四北路,颗粒物(PM10),56,61,51,16,26,225,134,185,185,18,16,4,4,0.4,0.4
2022-07-14T19:00:00,1284A,119.2648,26.0768,福州市,杨桥西路,颗粒物(PM10),58,66,58,20,25,220,139,183,183,16,18,4,5,0.4,0.4
2022-07-14T19:00:00,1285A,119.317,26.0746,福州市,紫阳,颗粒物(PM10),57,64,58,20,24,212,126,170,170,19,20,4,4,0.5,0.5
2022-07-14T19:00:00,1288A,118.0661,24.4444,厦门市,鼓浪屿,,35,20,29,16,15,151,111,138,138,16,26,1,6,0.5,0.5
2022-07-14T19:00:00,1290A,115.8931,28.6843,南昌市,省外办,臭氧1小时,57,52,54,22,22,189,165,168,168,12,18,7,19,0.7,0.6
2022-07-14T19:00:00,1291A,115.8886,28.7003,南昌市,省林业公司,臭氧1小时,59,44,44,22,17,204,167,176,176,9,21,8,18,0.7,0.6
2022-07-14T19:00:00,1292A,115.8126,28.7442,南昌市,林科所,,46,39,36,19,19,184,146,166,166,15,34,2,6,0.5,0.5
2022-07-14T19:00:00,1294A,115.8518,28.687,南昌市,建工学校,臭氧1小时,52,45,51,26,20,200,161,169,169,7,15,7,13,0.5,0.5
2022-07-14T19:00:00,1296A,115.7423,28.7996,南昌市,武术学校(对照点),,41,41,27,25,19,168,94,139,137,6,8,2,3,0.3,0.3
2022-07-14T19:00:00,1298A,115.9314,28.6842,南昌市,省站,臭氧1小时,53,45,54,24,26,182,162,169,169,4,14,6,16,0.7,0.7
2022-07-14T19:00:00,1299A,116.9862,36.6114,济南市,科干所,,48,36,35,20,21,242,152,202,202,23,26,5,5,0.7,0.9
2022-07-14T19:00:00,1300A,116.9376,36.665,济南市,农科所,,34,22,34,12,17,206,106,171,171,10,26,4,5,0.5,0.6
2022-07-14T19:00:00,1301A,117.1265,36.6734,济南市,开发区,,41,34,41,22,20,224,131,189,189,28,36,3,4,0.7,0.9
2022-07-14T19:00:00,1303A,117.0624,36.6868,济南市,省种子仓库,,42,39,47,29,32,175,134,155,155,15,35,2,3,0.6,0.8
2022-07-14T19:00:00,1304A,116.9489,36.6447,济南市,机床二厂,,44,24,47,10,23,222,139,188,188,11,32,7,7,0.6,0.8
2022-07-14T19:00:00,1305A,117.0495,36.663,济南市,市监测站,,45,34,40,11,19,221,142,184,184,22,29,5,12,0.8,0.9
2022-07-14T19:00:00,1306A,116.7675,36.5484,济南市,长清党校,,40,27,32,20,20,220,127,188,188,18,24,8,17,0.8,0.7
2022-07-14T19:00:00,1307A,120.6659,36.2403,青岛市,仰口(对照点),,44,44,34,29,31,118,97,112,112,25,20,6,6,0.6,0.6
2022-07-14T19:00:00,1310A,120.4134,36.0658,青岛市,市南区东部子站,,35,7,48,12,34,127,110,113,113,10,21,8,9,0.4,0.5
2022-07-14T19:00:00,1311A,120.3664,36.1032,青岛市,四方区子站,,42,19,45,29,34,121,88,101,101,20,25,4,8,0.6,0.7
2022-07-14T19:00:00,1312A,120.2994,36.054,青岛市,市南区西部子站,,29,29,55,12,30,125,84,105,93,44,37,9,10,0.7,0.7
2022-07-14T19:00:00,1313A,120.4581,36.0858,青岛市,崂山区子站,,40,12,45,12,27,135,126,122,122,14,24,5,6,0.3,0.4
2022-07-14T19:00:00,1314A,120.1983,35.9608,青岛市,黄岛区子站,,35,14,58,12,31,122,111,109,109,22,55,5,7,0.4,0.6
2022-07-14T19:00:00,1315A,120.3999,36.3083,青岛市,城阳区子站,,46,46,46,13,24,227,72,187,177,44,24,7,7,0.7,0.8
2022-07-14T19:00:00,1316A,113.69031,34.76122,郑州市,烟厂,,,64,60,,28,182,152,166,166,12,34,4,4,1.0,1
2022-07-14T19:00:00,1325A,114.3677,30.5584,武汉市,东湖梨园,,39,33,28,20,14,141,122,131,131,9,11,6,7,0.7,0.6
2022-07-14T19:00:00,1326A,114.2529,30.558,武汉市,汉阳月湖,,42,35,30,19,12,137,132,130,130,17,18,11,9,0.6,0.6
2022-07-14T19:00:00,1327A,114.282,30.6189,武汉市,汉口花桥,,42,34,31,20,17,153,134,140,140,13,13,7,8,0.5,0.5
2022-07-14T19:00:00,1328A,114.3025,30.5332,武汉市,武昌紫阳,,40,31,30,21,14,138,128,130,130,11,14,6,6,0.6,0.6
2022-07-14T19:00:00,1329A,114.3646,30.6217,武汉市,青山钢花,,41,37,31,17,19,154,129,134,134,14,15,6,6,0.5,0.4
2022-07-14T19:00:00,1330A,114.1566,30.4825,武汉市,沌口新区,,41,41,38,21,17,119,103,114,113,26,31,6,9,0.7,0.7
2022-07-14T19:00:00,1331A,114.3014,30.5944,武汉市,汉口江滩,,40,36,29,28,16,152,93,128,127,42,26,7,7,0.6,0.6
2022-07-14T19:00:00,1333A,114.135,30.6319,武汉市,吴家山,,41,41,39,22,18,134,106,119,116,10,18,6,8,0.6,0.6
2022-07-14T19:00:00,1335A,113.0833,28.2325,长沙市,经开区环保局,,40,38,36,24,27,141,127,129,129,5,12,5,6,0.6,0.6
2022-07-14T19:00:00,1336A,112.8872,28.2189,长沙市,高开区环保局,,35,16,21,24,20,113,105,104,104,7,13,8,10,0.1,0.2
2022-07-14T19:00:00,1337A,113.0792,28.2053,长沙市,马坡岭,,41,30,38,21,29,146,130,134,134,4,14,5,6,0.7,0.7
2022-07-14T19:00:00,1339A,113.0178,28.1322,长沙市,雨花区环保局,,32,23,30,22,21,109,102,96,96,6,15,6,8,0.3,0.4
2022-07-14T19:00:00,1340A,112.9792,28.2597,长沙市,伍家岭,,37,27,34,24,20,133,116,116,115,12,19,4,4,0.7,0.6
2022-07-14T19:00:00,1341A,113.0014,28.1944,长沙市,火车新站,,40,30,32,28,23,123,123,110,110,8,17,8,8,0.2,0.3
2022-07-14T19:00:00,1342A,112.9844,28.1178,长沙市,天心区环保局,,38,32,32,22,22,121,121,111,111,10,15,3,5,0.5,0.5
2022-07-14T19:00:00,1343A,112.8908,28.1308,长沙市,湖南中医药大学,,35,23,38,24,27,108,88,99,97,7,22,2,3,0.4,0.5
2022-07-14T19:00:00,1344A,112.9581,28.3611,长沙市,沙坪(对照点),,39,39,39,22,22,133,104,113,110,13,15,4,4,0.5,0.5
2022-07-14T19:00:00,1345A,113.2347,23.1423,广州市,广雅中学,,50,50,34,32,16,193,156,156,156,21,28,4,5,0.4,0.7
2022-07-14T19:00:00,1346A,113.2612,23.105,广州市,市五中,臭氧1小时,55,40,29,21,15,226,164,163,163,20,23,5,6,0.7,0.6
2022-07-14T19:00:00,1348A,113.3478,23.0916,广州市,广东商学院,颗粒物(PM10),53,56,26,29,12,188,152,153,153,21,28,4,4,0.6,0.6
2022-07-14T19:00:00,1349A,113.4332,23.1047,广州市,市八十六中,,44,40,27,16,11,203,138,160,160,42,33,8,7,0.6,0.5
2022-07-14T19:00:00,1350A,113.3505,22.9483,广州市,番禺中学,,31,25,24,11,10,218,97,154,154,15,18,8,8,0.4,0.5
2022-07-14T19:00:00,1351A,113.2146,23.3916,广州市,花都师范,臭氧1小时,127,41,37,24,19,254,254,196,196,19,27,7,7,0.4,0.5
2022-07-14T19:00:00,1352A,113.2597,23.1331,广州市,市监测站,臭氧1小时,67,38,33,28,15,191,173,166,166,18,23,6,6,0.7,0.6
2022-07-14T19:00:00,1353A,113.5618,23.312,广州市,九龙镇镇龙,臭氧1小时,99,46,46,19,20,199,199,153,153,27,40,7,7,0.6,0.6
2022-07-14T19:00:00,1354A,113.2765,23.1544,广州市,麓湖,,48,35,27,18,15,190,152,162,162,13,24,3,4,0.6,0.7
2022-07-14T19:00:00,1355A,113.443,23.3035,广州市,帽峰山森林公园(对照点),,41,29,24,18,11,201,129,156,156,14,25,4,5,0.8,0.7
2022-07-14T19:00:00,1356A,114.1063,22.5545,深圳市,通心岭子站,,14,14,13,6,5,79,38,59,59,20,13,3,3,0.4,0.4
2022-07-14T19:00:00,1357A,114.117,22.5625,深圳市,洪湖,,15,15,15,8,6,84,47,68,68,20,15,8,8,0.4,0.4
2022-07-14T19:00:00,1358A,113.987,22.5417,深圳市,华侨城,,17,17,17,3,5,61,42,50,50,21,18,5,5,0.6,0.6
2022-07-14T19:00:00,1360A,114.2458,22.5689,深圳市,盐田,,14,10,11,3,3,91,43,73,73,16,11,3,3,0.2,0.6
2022-07-14T19:00:00,1361A,114.2283,22.7244,深圳市,龙岗,,25,25,22,8,7,138,73,99,99,24,20,5,4,0.3,0.3
2022-07-14T19:00:00,1363A,114.494,22.5422,深圳市,南澳,,15,7,10,4,4,92,46,70,70,9,8,9,9,0.5,0.5
2022-07-14T19:00:00,1364A,114.41,22.6342,深圳市,葵涌,,15,12,12,4,3,78,47,60,60,6,6,7,7,0.3,0.4
2022-07-14T19:00:00,1365A,114.297,22.5978,深圳市,梅沙,,13,13,12,7,5,88,34,71,71,21,14,6,6,0.3,0.3
2022-07-14T19:00:00,1366A,114.0678,22.738,深圳市,观澜,,34,34,25,11,7,115,40,92,92,17,18,6,6,0.4,0.4
2022-07-14T19:00:00,1367A,113.5814,22.2618,珠海市,吉大,,25,12,6,17,6,65,56,58,58,2,4,6,6,0.3,0.4
2022-07-14T19:00:00,1368A,113.4881,22.2335,珠海市,前山,,21,21,12,6,4,70,45,54,54,12,11,8,8,0.2,0.2
2022-07-14T19:00:00,1369A,113.628,22.4251,珠海市,唐家,,20,9,7,13,8,101,63,80,80,4,5,8,8,0.3,0.3
2022-07-14T19:00:00,1370A,113.299,22.2281,珠海市,斗门,,25,7,9,17,7,100,43,65,65,7,8,10,10,0.4,0.4
2022-07-14T19:00:00,1371A,113.1294,23.0067,佛山市,湾梁,,40,19,23,13,10,163,128,136,136,14,14,4,5,0.3,0.3
2022-07-14T19:00:00,1372A,113.1083,23.0478,佛山市,华材职中,,40,22,24,15,13,148,125,131,131,14,17,5,6,0.3,0.3
2022-07-14T19:00:00,1373A,113.144,23.0453,佛山市,南海气象局,,43,43,28,17,13,163,130,140,140,18,18,4,5,0.5,0.4
2022-07-14T19:00:00,1374A,113.2881,22.8094,佛山市,顺德苏岗,,28,16,13,7,9,190,87,149,149,13,18,5,5,0.4,0.4
2022-07-14T19:00:00,1376A,112.8383,22.8678,佛山市,高明孔堂,,36,25,24,15,11,114,114,79,79,11,10,6,6,0.5,0.5
2022-07-14T19:00:00,1377A,112.8836,23.1588,佛山市,三水监测站,,33,31,35,21,19,179,103,102,102,46,29,5,8,0.5,0.6
2022-07-14T19:00:00,1378A,112.867,23.185,佛山市,三水云东海,,34,34,35,15,21,145,103,95,95,14,21,5,6,0.4,0.5
2022-07-14T19:00:00,1379A,113.3769,22.5211,中山市,华柏园,,17,17,16,9,8,102,44,82,82,7,10,4,5,0.5,0.5
2022-07-14T19:00:00,1380A,113.3881,22.5497,中山市,张溪,,16,13,19,6,12,107,51,86,85,5,9,4,5,0.4,0.5
2022-07-14T19:00:00,1381A,113.4075,22.5111,中山市,紫马岭,,27,27,19,9,8,103,46,82,82,8,14,6,7,0.4,0.5
2022-07-14T19:00:00,1382A,113.4411,22.4853,中山市,长江旅游区(对照点),,15,11,10,6,6,104,48,79,79,5,6,3,3,0.3,0.3
2022-07-14T19:00:00,1383A,113.1064,22.6058,江门市,北街,,36,36,20,9,8,118,69,105,105,11,11,5,5,0.5,0.4
2022-07-14T19:00:00,1384A,113.0731,22.5835,江门市,西区,,36,36,24,14,10,115,55,98,98,17,16,8,6,0.5,0.4
2022-07-14T19:00:00,1385A,113.0219,22.5311,江门市,圭峰西,,28,28,21,8,9,104,52,79,79,13,14,6,5,0.6,0.4
2022-07-14T19:00:00,1386A,113.0828,22.5947,江门市,东湖,,30,30,23,15,9,120,69,105,105,11,13,9,8,0.5,0.5
2022-07-14T19:00:00,1389A,113.7547,23.0494,东莞市,莞城梨川,,37,37,25,16,11,197,110,164,164,22,28,8,8,0.5,0.5
2022-07-14T19:00:00,1391A,113.7383,22.9658,东莞市,南城西平,,36,30,22,25,11,167,79,139,139,23,29,4,4,0.4,0.5
2022-07-14T19:00:00,1392A,114.4183,23.0528,惠州市,河南岸金山湖子站,,41,41,32,7,11,183,83,152,152,42,14,2,2,0.7,0.5
2022-07-14T19:00:00,1393A,114.4053,23.0822,惠州市,下埔横江三路子站,,,,26,16,13,198,115,170,170,37,16,3,3,0.7,0.5
2022-07-14T19:00:00,1394A,114.4103,23.1142,惠州市,江北云山西路子站,,,,31,15,12,222,135,197,197,24,15,4,4,0.4,0.3
2022-07-14T19:00:00,1395A,114.4645,22.7833,惠州市,惠阳区承修路船湖子站,,19,14,20,9,7,139,60,111,111,16,10,4,4,0.4,0.4
2022-07-14T19:00:00,1396A,114.5317,22.7422,惠州市,大亚湾管委会子站,,20,20,17,7,7,125,59,94,94,13,13,2,2,0.3,0.3
2022-07-14T19:00:00,1397A,112.4267,23.0706,肇庆市,睦岗子站,,,20,33,13,20,113,,93,93,12,21,13,20,0.4,0.5
2022-07-14T19:00:00,1398A,112.4645,23.0475,肇庆市,城中子站,,,15,36,9,21,110,106,101,101,14,21,13,21,,0.7
2022-07-14T19:00:00,1399A,112.5544,23.1522,肇庆市,坑口子站,,35,27,24,15,18,119,109,105,105,14,9,10,11,0.4,0.4
2022-07-14T19:00:00,1401A,108.3103,22.7881,南宁市,二十一中,,25,11,27,12,14,94,78,85,85,9,13,14,12,0.7,0.6
2022-07-14T19:00:00,1402A,108.3141,22.8528,南宁市,北湖,,30,30,27,17,13,111,84,95,95,9,9,4,5,0.5,0.5
2022-07-14T19:00:00,1403A,108.3206,22.8225,南宁市,市监测站,,36,36,27,13,15,94,72,83,83,19,16,7,8,0.6,0.6
2022-07-14T19:00:00,1404A,108.3829,22.8037,南宁市,大自然花园,,24,19,23,13,14,104,75,88,88,9,9,6,7,0.5,0.6
2022-07-14T19:00:00,1405A,108.4394,22.7904,南宁市,仙葫(对照点),,23,20,27,16,15,84,66,73,73,6,9,7,7,0.5,0.6
2022-07-14T19:00:00,1406A,108.2397,22.8467,南宁市,区农职院,,30,28,23,16,13,120,93,104,104,16,15,6,7,0.5,0.5
2022-07-14T19:00:00,1407A,108.3275,22.735,南宁市,英华嘉园,,,58,43,22,19,73,,62,62,28,31,5,6,0.7,0.6
2022-07-14T19:00:00,1408A,108.2257,22.7757,南宁市,沙井镇街道办,,35,35,34,15,16,106,72,83,83,13,18,4,5,0.6,0.7
2022-07-14T19:00:00,1409A,110.576,19.9507,海口市,东寨港(对照点),,,,,12,13,26,11,14,13,1,1,3,4,0.3,0.3
2022-07-14T19:00:00,1410A,110.3232,20.0574,海口市,海南大学,,10,10,10,6,4,44,31,37,31,2,3,4,5,0.6,0.6
2022-07-14T19:00:00,1411A,110.283,20.0053,海口市,秀英海南医院,,18,15,11,12,7,52,41,44,44,1,3,2,2,0.3,0.3
2022-07-14T19:00:00,1412A,110.338,19.9969,海口市,海南师范大学,,11,11,13,2,3,41,35,37,37,3,4,2,2,0.4,0.5
2022-07-14T19:00:00,1413A,110.33,20.0356,海口市,龙华路环保局宿舍,,15,15,10,2,3,46,44,44,44,2,2,4,4,0.8,0.7
2022-07-14T19:00:00,1414A,106.3787,29.8279,重庆市,缙云山(对照点),臭氧1小时,67,22,18,9,9,208,173,177,177,12,18,5,6,0.2,0.2
2022-07-14T19:00:00,1416A,106.4213,29.8253,重庆市,天生,臭氧1小时,60,30,34,9,14,219,168,196,196,12,18,5,6,0.4,0.4
2022-07-14T19:00:00,1417A,106.6263,29.7228,重庆市,两路,,32,20,20,3,8,152,100,136,136,50,36,6,7,0.6,0.5
2022-07-14T19:00:00,1418A,106.2953,29.5983,重庆市,虎溪,臭氧1小时,84,38,34,17,15,190,187,175,175,15,21,6,8,0.5,0.5
2022-07-14T19:00:00,1419A,106.5777,29.5102,重庆市,南坪,,47,41,30,17,13,166,148,157,157,11,13,7,9,0.5,0.4
2022-07-14T19:00:00,1420A,106.6556,29.6277,重庆市,唐家沱,,46,12,18,9,6,164,145,151,151,11,21,9,10,0.6,0.5
2022-07-14T19:00:00,1421A,106.6349,29.4906,重庆市,茶园,,44,33,40,8,13,150,139,142,142,12,23,6,7,0.5,0.5
2022-07-14T19:00:00,1422A,106.3754,29.4572,重庆市,白市驿,,39,29,32,13,15,159,123,140,140,15,14,5,7,0.7,0.7
2022-07-14T19:00:00,1425A,106.6205,29.7166,重庆市,空港,,41,21,17,12,9,158,131,143,143,15,16,8,9,0.4,0.6
2022-07-14T19:00:00,1426A,106.4782,29.4875,重庆市,新山村,,40,25,13,10,7,165,128,139,139,25,19,4,5,0.6,0.5
2022-07-14T19:00:00,1427A,106.5616,29.6453,重庆市,礼嘉,,45,29,23,12,9,185,143,170,170,51,36,11,11,0,0.3
2022-07-14T19:00:00,1428A,106.4522,29.7091,重庆市,蔡家,,50,30,28,17,13,224,157,194,194,10,23,5,5,0.3,0.4
2022-07-14T19:00:00,1429A,106.5093,29.3917,重庆市,鱼新街,,33,23,23,10,12,136,104,118,118,18,13,5,5,0.7,0.8
2022-07-14T19:00:00,1438A,103.6202,31.0201,成都市,灵岩寺(对照点),,45,11,22,13,13,144,144,108,108,1,3,2,13,0.9,0.9
2022-07-14T19:00:00,1439A,106.6899,26.5998,贵阳市,马鞍山,,22,12,13,5,4,75,70,72,72,8,6,4,5,0.6,0.7
2022-07-14T19:00:00,1441A,106.6243,26.6266,贵阳市,鉴湖路,,22,14,15,7,7,70,69,68,68,6,6,2,4,0.5,0.4
2022-07-14T19:00:00,1442A,106.7487,26.6343,贵阳市,燕子冲,,21,21,18,14,12,71,63,68,68,6,7,6,7,0.5,0.5
2022-07-14T19:00:00,1443A,106.6555,26.4365,贵阳市,碧云窝,,36,36,24,9,5,73,72,68,68,4,7,5,5,0.6,0.6
2022-07-14T19:00:00,1444A,106.694,26.5161,贵阳市,中院村,,17,17,22,5,6,63,50,59,59,17,12,1,3,0.5,0.4
2022-07-14T19:00:00,1445A,106.7109,26.6027,贵阳市,红边门,,22,22,21,12,12,67,60,64,64,18,17,3,4,0.4,0.5
2022-07-14T19:00:00,1446A,106.7164,26.5699,贵阳市,新华路,,,,12,,10,71,61,68,68,12,7,3,4,,0.4
2022-07-14T19:00:00,1447A,106.674,26.5424,贵阳市,太慈桥,,22,17,18,2,4,71,69,68,68,6,5,4,4,0.3,0.3
2022-07-14T19:00:00,1450A,102.8204,24.8886,昆明市,呈贡新区,,37,25,27,16,15,126,117,109,109,8,13,8,9,0.3,0.4
2022-07-14T19:00:00,1452A,102.7252,25.0902,昆明市,龙泉镇,,39,22,24,11,13,136,122,121,121,12,14,10,12,0.3,0.4
2022-07-14T19:00:00,1453A,102.7266,25.0375,昆明市,东风东路,,39,26,25,15,13,131,123,119,119,16,14,5,7,0.3,0.4
2022-07-14T19:00:00,1454A,102.6742,25.0669,昆明市,金鼎山,,37,22,27,12,16,136,118,120,120,8,8,5,8,0.3,0.4
2022-07-14T19:00:00,1456A,91.1319,29.6514,拉萨市,八廓街,,25,17,14,16,6,85,80,81,76,10,8,7,7,0.2,0.2
2022-07-14T19:00:00,1457A,91.1221,29.6747,拉萨市,市环保局,,26,11,16,3,5,83,82,75,75,8,10,7,7,0.1,0.1
2022-07-14T19:00:00,1459A,91.1774,29.6541,拉萨市,西藏大学,,29,10,13,5,4,95,90,85,85,7,9,8,7,0.1,0.1
2022-07-14T19:00:00,1460A,90.9798,29.6588,拉萨市,区辐射站,,21,11,12,7,5,78,67,69,66,11,10,8,8,0.1,0.1
2022-07-14T19:00:00,1462A,108.882,34.2749,西安市,高压开关厂,颗粒物(PM10),83,116,71,41,27,135,107,113,113,30,32,5,4,0.9,0.8
2022-07-14T19:00:00,1463A,108.993,34.2629,西安市,兴庆小区,细颗粒物(PM2.5),67,68,53,48,30,140,99,112,112,26,28,4,4,1.1,1.1
2022-07-14T19:00:00,1464A,109.06,34.2572,西安市,纺织城,颗粒物(PM10),73,96,63,41,27,144,96,117,117,28,34,4,4,1.1,0.9
2022-07-14T19:00:00,1465A,108.9356,34.2173,西安市,小寨,,,57,45,29,22,123,,99,99,31,28,2,2,1.1,0.9
2022-07-14T19:00:00,1466A,108.954,34.2713,西安市,市人民体育场,细颗粒物(PM2.5),95,76,50,71,48,129,101,108,108,21,31,4,4,1.0,1
2022-07-14T19:00:00,1467A,108.8922,34.2322,西安市,高新西区,颗粒物(PM10),84,118,64,35,24,129,94,106,106,24,25,6,6,1.3,1.1
2022-07-14T19:00:00,1468A,108.935,34.3474,西安市,经开区,颗粒物(PM10),61,71,51,43,28,120,89,94,94,24,33,1,1,0.9,0.9
2022-07-14T19:00:00,1469A,108.906,34.1546,西安市,长安区,,,63,50,28,27,124,86,100,100,21,27,,4,0.9,0.8
2022-07-14T19:00:00,1471A,109.2186,34.3731,西安市,临潼区,颗粒物(PM10),96,141,64,46,27,155,142,145,145,33,23,4,4,1.1,1.1
2022-07-14T19:00:00,1472A,108.869,34.378,西安市,草滩(对照点),颗粒物(PM10),69,87,55,40,31,80,52,64,64,28,33,6,6,1.2,1.4
2022-07-14T19:00:00,1473A,108.985,34.1978,西安市,曲江文化产业集团,颗粒物(PM10),70,89,75,32,26,136,92,105,105,27,30,4,4,1.2,1.1
2022-07-14T19:00:00,1474A,109.051,34.3213,西安市,广运潭,细颗粒物(PM2.5),64,76,52,46,24,141,107,123,123,27,32,6,6,1.2,1
2022-07-14T19:00:00,1476A,103.631,36.1031,兰州市,兰炼宾馆,,46,46,41,15,20,161,125,144,144,9,15,10,7,0.1,0.3
2022-07-14T19:00:00,1478A,103.8412,36.0726,兰州市,生物制品所,,42,33,41,26,22,151,132,141,141,18,18,9,9,0.9,0.8
2022-07-14T19:00:00,1479A,103.831,36.0464,兰州市,铁路设计院,,38,32,40,14,16,148,121,138,138,24,22,8,9,0.7,0.5
2022-07-14T19:00:00,1484A,105.9512,38.6016,银川市,贺兰山马莲口(对照点),,35,12,51,8,26,165,112,145,131,8,12,7,16,0.4,0.5
2022-07-14T19:00:00,1488A,106.2328,38.4975,银川市,贺兰山东路,,26,9,58,7,23,166,83,108,108,13,29,7,9,0.4,0.7
2022-07-14T19:00:00,1490A,87.5801,43.8303,乌鲁木齐市,监测站,,34,18,20,0,5,115,107,101,101,10,17,4,4,0.3,0.4
2022-07-14T19:00:00,1491A,87.6046,43.768,乌鲁木齐市,收费所,,33,19,23,9,7,111,105,101,101,4,9,8,6,0.2,0.2
2022-07-14T19:00:00,1493A,87.5525,43.8711,乌鲁木齐市,铁路局,,34,27,23,7,9,118,108,105,105,9,15,3,4,0.3,0.4
2022-07-14T19:00:00,1494A,87.6432,43.831,乌鲁木齐市,三十一中学,,,,14,,13,104,104,102,102,5,5,4,6,0.4,0.4
2022-07-14T19:00:00,1496A,87.7216,44.1747,乌鲁木齐市,米东区环保局,,32,16,29,5,8,102,102,94,94,2,10,2,3,0.2,0.2
2022-07-14T19:00:00,1508A,112.9433,27.8614,湘潭市,板塘,,36,26,42,23,23,124,115,112,112,9,12,5,6,0.1,0.4
2022-07-14T19:00:00,1512A,112.8937,27.8728,湘潭市,江麓,,40,40,42,15,22,121,121,115,115,9,15,3,12,0.4,0.6
2022-07-14T19:00:00,1604A,122.0303,41.1489,盘锦市,开发区,,38,36,18,10,11,141,119,124,124,16,21,5,5,0.5,0.6
2022-07-14T19:00:00,1605A,122.0485,41.0883,盘锦市,兴隆台,,36,31,24,6,10,138,114,123,122,17,22,5,5,0.6,0.6
2022-07-14T19:00:00,1611A,118.5819,24.9117,泉州市,涂山街,,,45,42,15,17,235,130,189,189,16,23,,8,0.5,0.4
2022-07-14T19:00:00,1616A,117.6795,36.229,济南市,技术学院,臭氧1小时,107,73,27,22,17,214,214,147,147,25,24,6,4,1.2,0.8
2022-07-14T19:00:00,1642A,121.2514,37.5639,烟台市,开发区,臭氧1小时,97,41,47,34,28,201,197,186,186,7,13,8,11,0.8,0.8
2022-07-14T19:00:00,1644A,121.3181,37.5436,烟台市,西郊化工站,细颗粒物(PM2.5),55,51,50,39,29,160,148,149,149,12,14,6,11,0.7,0.6
2022-07-14T19:00:00,1646A,121.2611,37.4967,烟台市,福山环保局,细颗粒物(PM2.5),62,70,52,44,28,166,166,159,159,15,13,3,5,1.1,0.9
2022-07-14T19:00:00,1664A,122.1067,37.5072,威海市,市监测站,细颗粒物(PM2.5),68,68,35,49,29,159,78,139,130,70,13,6,5,0.8,0.5
2022-07-14T19:00:00,1674A,116.6794,23.3667,汕头市,金平子站,,48,48,18,16,11,119,72,93,90,12,11,5,6,0.4,0.4
2022-07-14T19:00:00,1696A,114.6778,23.7569,河源市,源西(对照点),颗粒物(PM10),51,51,40,26,18,141,105,125,125,22,20,3,3,0.6,0.5
2022-07-14T19:00:00,1697A,114.6944,23.7586,河源市,东埔,颗粒物(PM10),56,62,37,25,20,141,140,134,134,16,16,4,4,0.8,0.7
2022-07-14T19:00:00,1698A,114.6892,23.7233,河源市,老城,,47,47,46,18,17,155,149,145,145,10,17,2,2,0.6,0.5
2022-07-14T19:00:00,1702A,113.0426,23.691,清远市,环保大楼(对照点),臭氧1小时,65,22,44,17,29,220,172,193,193,9,17,7,7,0.5,0.5
2022-07-14T19:00:00,1703A,113.0208,23.7106,清远市,凤城街办,,46,25,44,15,27,172,147,141,141,12,19,7,7,0.6,0.7
2022-07-14T19:00:00,1728A,113.1031,36.1989,长治市,监测站,,50,50,51,27,31,144,126,130,130,7,20,9,9,1.1,1.4
2022-07-14T19:00:00,1730A,113.0886,36.2125,长治市,审计局,细颗粒物(PM2.5),52,47,45,36,35,162,139,151,149,9,22,9,9,1.2,1.3
2022-07-14T19:00:00,1731A,113.0844,36.1856,长治市,长治八中,,50,47,50,35,33,149,132,136,136,8,24,10,10,1.2,1.4
2022-07-14T19:00:00,1733A,111.5531,36.0783,临汾市,临钢医院,细颗粒物(PM2.5),89,108,47,66,33,208,168,174,174,54,27,2,3,1.7,1.4
2022-07-14T19:00:00,1769A,121.1836,41.1119,锦州市,百股街道,,47,47,21,6,11,126,126,115,115,26,10,9,6,0.7,0.6
2022-07-14T19:00:00,1770A,121.1178,41.1222,锦州市,天安街道,颗粒物(PM10),51,52,24,18,14,128,128,110,110,19,13,26,11,0.8,0.6
2022-07-14T19:00:00,1774A,126.5052,43.8245,吉林市,电力学院,,21,13,14,8,7,83,65,79,76,15,9,6,6,0.5,0.5
2022-07-14T19:00:00,1776A,126.555,43.8306,吉林市,江南公园,,22,8,9,7,6,90,68,82,78,15,9,4,4,0.5,0.5
2022-07-14T19:00:00,1794A,118.3606,31.3519,芜湖市,监测站,细颗粒物(PM2.5),63,53,44,45,29,170,99,134,126,38,31,11,12,0.5,0.5
2022-07-14T19:00:00,1796A,118.3673,31.3131,芜湖市,四水厂,细颗粒物(PM2.5),67,61,48,48,26,177,100,145,122,53,28,10,10,0.8,0.7
2022-07-14T19:00:00,1817A,112.4267,34.6258,洛阳市,市委新办公区,颗粒物(PM10),54,57,60,26,38,186,160,169,169,8,15,10,6,0.9,0.9
2022-07-14T19:00:00,1824A,114.3389,34.7781,开封市,肿瘤医院,,40,39,48,26,24,184,128,166,166,8,18,4,7,0.7,0.9
2022-07-14T19:00:00,1826A,114.2885,34.7965,开封市,世纪星幼儿园,,,55,49,38,23,157,116,145,145,,23,3,4,0.8,1
2022-07-14T19:00:00,1828A,113.227,35.2125,焦作市,市环保局,臭氧1小时,82,56,47,29,29,195,185,163,163,7,16,4,4,1.6,1
2022-07-14T19:00:00,1830A,113.1992,35.2590,焦作市,影视城(对照点),细颗粒物(PM2.5),54,55,51,38,39,162,162,122,122,10,14,7,7,1.7,1.1
2022-07-14T19:00:00,1838A,111.143,34.7955,三门峡市,风景区(对照点),颗粒物(PM10),53,56,57,14,30,161,161,148,148,7,10,4,4,0.7,0.9
2022-07-14T19:00:00,1840A,111.2992,30.6981,宜昌市,白龙岗,颗粒物(PM10),52,53,35,19,14,141,97,128,128,20,18,11,9,0.4,0.4
2022-07-14T19:00:00,1841A,111.3549,30.6465,宜昌市,伍家岗,颗粒物(PM10),53,55,38,17,18,143,95,123,123,15,20,5,5,0.4,0.4
2022-07-14T19:00:00,1842A,111.2628,30.6961,宜昌市,点军区,颗粒物(PM10),51,52,38,22,19,144,101,122,122,17,18,3,3,0.3,0.3
2022-07-14T19:00:00,1843A,111.3275,30.7819,宜昌市,夷陵区,,31,31,29,19,12,159,95,139,139,14,13,4,4,0.3,0.3
2022-07-14T19:00:00,1844A,112.2494,30.3197,荆州市,市图书馆,,,47,37,19,21,98,,94,94,13,10,7,7,0.4,0.5
2022-07-14T19:00:00,1845A,112.2008,30.3544,荆州市,市委党校,,27,24,33,15,19,94,85,87,87,8,10,10,11,0.6,0.6
2022-07-14T19:00:00,1914A,106.9231,27.6506,遵义市,舟水桥,,,20,18,5,6,116,102,100,100,,10,1,1,0.3,0.4
2022-07-14T19:00:00,1920A,108.7233,34.3617,咸阳市,师范学院,颗粒物(PM10),73,95,69,29,28,104,58,83,83,27,23,3,4,1.3,1.4
2022-07-14T19:00:00,1922A,109.0656,35.0994,铜川市,党校(对照点),,,,24,17,11,90,90,69,69,16,16,6,6,0.4,0.2
2022-07-14T19:00:00,1945A,98.2908,39.7711,嘉峪关市,气象局,颗粒物(PM10),56,61,59,19,21,125,89,107,90,19,17,1,8,0.5,0.6
2022-07-14T19:00:00,1948A,106.3668,39.0145,石嘴山市,大武口朝阳西街,,34,34,58,14,25,168,81,108,108,17,27,10,17,0.8,0.9
2022-07-14T19:00:00,2069A,114.6546,33.5979,周口市,市运管处,,29,20,63,20,24,164,91,145,140,13,14,3,6,0.8,0.9
2022-07-14T19:00:00,2192A,119.7594,49.2261,呼伦贝尔市,区环保局,,25,18,17,10,11,110,80,96,95,12,9,5,4,0.4,0.4
2022-07-14T19:00:00,2206A,105.724,38.8516,阿拉善盟,环保局新楼,,37,29,38,17,28,163,117,134,132,6,8,7,9,0.4,0.4
2022-07-14T19:00:00,2207A,121.6094,41.998,阜新市,工业园区,,26,19,15,5,7,105,82,98,98,13,11,4,4,0.3,0.3
2022-07-14T19:00:00,2252A,128.5159,47.4311,伊春市,环保局,,12,11,13,8,7,95,30,66,51,8,2,5,6,0.2,0.2
2022-07-14T19:00:00,2253A,128.9102,47.7412,伊春市,电力嘉园,,13,10,9,9,6,84,29,67,50,8,5,5,5,0.4,0.4
2022-07-14T19:00:00,2262A,131.0518,45.8751,七台河市,新一中(对照点),,9,3,7,0,4,48,28,39,32,7,9,6,6,0.7,0.7
2022-07-14T19:00:00,2269A,124.1069,50.4097,大兴安岭地区,科技局,,16,15,10,11,5,74,50,74,65,7,5,4,4,0.2,0.3
2022-07-14T19:00:00,2339A,119.5001,26.6946,宁德市,金涵水库(对照点),细颗粒物(PM2.5),53,46,42,37,28,155,115,144,144,16,11,6,5,0.9,0.7
2022-07-14T19:00:00,2352A,115.0861,27.9317,新余市,北岗(对照点),,43,37,47,30,27,196,95,154,152,10,14,4,8,0.5,0.7
2022-07-14T19:00:00,2353A,114.9886,27.8431,新余市,飞宇,,42,42,55,24,27,141,108,124,124,6,17,9,14,0.7,0.9
2022-07-14T19:00:00,2354A,114.9231,27.8246,新余市,第二水厂,,,37,46,21,22,151,108,136,133,,18,9,13,0.9,0.9
2022-07-14T19:00:00,2355A,114.9308,27.8036,新余市,市气象局,,36,34,45,25,27,126,100,116,116,8,16,4,13,0.3,0.6
2022-07-14T19:00:00,2362A,114.9017,25.9149,赣州市,通天岩(对照点),,30,24,40,20,24,186,96,147,138,11,14,5,6,0.4,0.4
2022-07-14T19:00:00,2364A,114.9461,25.8481,赣州市,气象台,,31,22,39,12,25,174,99,141,132,7,18,5,8,0.5,0.6
2022-07-14T19:00:00,2365A,114.9322,25.8333,赣州市,市图书馆,,33,16,34,9,23,195,105,151,136,18,19,3,8,0.8,1
2022-07-14T19:00:00,2366A,114.8905,25.8471,赣州市,华坚鞋城,细颗粒物(PM2.5),72,8,49,52,30,152,98,152,98,11,19,4,14,0.8,0.7
2022-07-14T19:00:00,2389A,113.836,35.311,新乡市,环保西院,,,42,54,14,27,221,123,184,184,16,20,4,6,,1.3
2022-07-14T19:00:00,2391A,113.883,35.303,新乡市,环保东院,,40,40,56,27,32,225,125,188,188,4,15,5,7,0.9,1.3
2022-07-14T19:00:00,2399A,114.051,33.5699,漯河市,三五一五工厂,"颗粒物(PM10),细颗粒物(PM2.5)",52,54,71,36,47,239,157,201,201,2,7,4,10,0.7,0.9
2022-07-14T19:00:00,2428A,111.0419,32.395,十堰市,武当山(对照点),,44,44,34,29,26,103,103,89,89,5,4,8,8,0.6,0.6
2022-07-14T19:00:00,2437A,114.8989,30.3714,鄂州市,赵家坝,,35,25,42,10,14,113,110,105,105,18,16,8,8,0.6,0.5
2022-07-14T19:00:00,2439A,112.2014,31.0481,荆门市,竹园小学,,38,38,37,22,21,124,120,118,118,8,9,6,7,0.7,0.6
2022-07-14T19:00:00,2440A,112.1969,30.9891,荆门市,掇刀,,39,32,35,18,19,124,122,118,118,9,10,10,10,0.5,0.5
2022-07-14T19:00:00,2441A,112.2213,31.0386,荆门市,石化一小,,40,25,36,28,21,129,85,116,116,41,21,48,20,0.6,0.6
2022-07-14T19:00:00,2468A,112.3458,28.5808,益阳市,市环保局,,36,28,23,15,16,133,115,110,110,16,12,9,7,0.5,0.5
2022-07-14T19:00:00,2471A,112.3744,28.5819,益阳市,赫山环保分局,,37,37,30,10,8,130,105,107,107,6,7,1,7,0.9,0.8
2022-07-14T19:00:00,2474A,113.0161,25.8001,郴州市,兴隆步行街,,49,49,36,21,22,159,130,141,141,22,16,37,18,0.5,0.4
2022-07-14T19:00:00,2479A,111.6236,26.2331,永州市,零陵区环保局,,31,31,23,17,15,88,80,80,80,5,5,12,11,0.4,0.4
2022-07-14T19:00:00,2481A,111.5989,26.4519,永州市,冷水滩区环保局,,27,27,35,17,16,86,77,82,82,6,7,4,5,0.3,0.3
2022-07-14T19:00:00,2523A,105.8945,32.4535,广元市,黑石坡(对照点),,27,27,19,6,6,118,86,75,75,18,18,11,10,0.4,0.3
2022-07-14T19:00:00,2593A,107.5228,26.2403,黔南布依族苗族自治州,小围寨,,23,12,11,0,4,72,72,65,65,1,2,4,5,0.5,0.6
2022-07-14T19:00:00,2655A,100.4154,38.9422,张掖市,区工会,颗粒物(PM10),55,60,45,22,24,120,96,109,89,10,11,7,8,0.2,0.2
2022-07-14T19:00:00,2658A,98.5061,39.7443,酒泉市,仓门街子站,颗粒物(PM10),59,68,58,23,23,124,99,112,89,14,13,5,5,0.4,0.4
2022-07-14T19:00:00,2659A,98.4989,39.7256,酒泉市,油田生活基地,颗粒物(PM10),62,73,62,28,27,125,100,112,89,13,14,5,5,0.4,0.4
2022-07-14T19:00:00,2667A,103.2069,35.5993,临夏回族自治州,环保局,,42,42,55,22,26,126,100,114,114,7,17,10,8,0.6,0.7
2022-07-14T19:00:00,2676A,97.3731,37.3753,海西蒙古族藏族自治州,德令哈市,,,,57,,27,117,,102,102,2,3,2,5,0.3,0.5
2022-07-14T19:00:00,2686A,89.1904,42.9418,吐鲁番地区,市环保局,,40,24,80,6,23,134,126,122,122,9,12,4,5,0.5,0.5
2022-07-14T19:00:00,2690A,88.1236,43.8886,昌吉州,天山天池(对照点),,39,4,10,2,5,123,122,113,113,5,5,5,5,0.4,0.5
2022-07-14T19:00:00,2696A,80.2613,41.1551,阿克苏地区,艺术中心,颗粒物(PM10),79,108,109,33,34,153,132,132,132,6,19,4,6,0.4,0.5
2022-07-14T19:00:00,2700A,75.9538,39.4682,喀什地区,市环境监测站,颗粒物(PM10),51,51,78,21,19,140,140,130,130,8,16,8,8,0.3,0.4
2022-07-14T19:00:00,2703A,81.2815,43.9404,伊犁哈萨克州,市环保局,,43,19,29,7,13,136,136,129,129,9,21,10,9,0.3,0.4
2022-07-14T19:00:00,2704A,81.2996,43.9174,伊犁哈萨克州,新政府片区,,41,14,22,0,9,132,130,124,124,5,15,8,8,0.3,0.4
2022-07-14T19:00:00,2705A,81.3364,43.941,伊犁哈萨克州,第二水厂,,43,40,27,6,10,135,135,127,127,9,17,8,8,0.4,0.4
2022-07-14T19:00:00,2708A,88.1264,47.8517,阿勒泰地区,市站,,29,24,20,5,4,110,90,83,83,6,7,3,3,0.3,0.3
2022-07-14T19:00:00,2835A,101.7227,26.567,攀枝花市,四十中小,,30,28,32,19,18,109,94,101,101,16,28,5,62,0.2,0.5
2022-07-14T19:00:00,2845A,113.1569,36.1911,长治市,德盛苑,,43,38,42,22,26,145,136,133,133,10,17,10,9,0.9,1.4
2022-07-14T19:00:00,2846A,113.3221,23.1322,广州市,体育西,臭氧1小时,65,56,32,29,16,206,172,167,167,22,23,7,7,0.8,0.7
2022-07-14T19:00:00,2858A,117.7918,39.2474,天津市,河西一经路,,39,12,49,6,32,199,122,161,156,20,28,7,7,0.5,1
2022-07-14T19:00:00,2859A,117.3747,38.9846,天津市,津沽路,,46,46,63,30,37,237,128,201,201,13,17,4,4,0.8,1.1
2022-07-14T19:00:00,2860A,117.1589,39.0845,天津市,宾水西道,臭氧1小时,90,72,55,46,33,255,192,200,200,16,17,6,6,1.3,1
2022-07-14T19:00:00,2862A,114.5481,38.0378,石家庄市,22中南校区,,,48,54,16,28,178,,164,164,21,19,4,4,0.6,0.9
2022-07-14T19:00:00,2869A,119.447,32.4155,扬州市,五台山医院,,36,32,41,25,28,193,112,146,131,15,19,8,11,0.4,0.5
2022-07-14T19:00:00,2870A,119.4424,32.1873,镇江市,市疾控中心,,40,40,43,20,21,183,78,137,126,20,20,1,3,0.6,0.6
2022-07-14T19:00:00,2871A,121.6147,29.9017,宁波市,万里国际学校,臭氧1小时,108,46,34,42,26,293,216,248,248,13,16,9,8,0.7,0.7
2022-07-14T19:00:00,2872A,120.7846,30.7525,嘉兴市,南湖区残联,,,,46,23,28,207,163,162,162,12,22,6,5,0.5,0.6
2022-07-14T19:00:00,2884A,98.2672,39.7978,嘉峪关市,酒钢宾馆,颗粒物(PM10),52,53,62,22,26,129,100,120,91,15,15,9,24,0.2,0.9
2022-07-14T19:00:00,2885A,104.9339,33.3826,陇南市,滨江中学,,36,36,32,11,6,78,73,68,68,17,21,7,8,0.5,0.6
2022-07-14T19:00:00,2897A,123.2444,41.7347,沈阳市,沈辽西路,,37,18,18,8,7,119,117,116,116,6,10,5,5,0.5,0.5
2022-07-14T19:00:00,2900A,123.5953,41.9086,沈阳市,裕农路,,31,18,13,10,6,117,97,111,111,16,14,4,3,0.5,0.5
2022-07-14T19:00:00,2907A,120.1844,30.8596,湖州市,吴兴区站,,48,37,40,16,17,173,151,147,147,9,34,6,8,0.4,0.5
2022-07-14T19:00:00,2919A,116.7022,39.5453,廊坊市,河北工业大学,,49,28,38,6,15,156,156,151,151,20,21,7,6,0.3,0.4
2022-07-14T19:00:00,2921A,120.5483,30.0003,绍兴市,树下王站,,49,45,48,34,29,177,138,158,152,7,17,5,6,0.6,0.7
2022-07-14T19:00:00,2922A,117.1941,39.1067,天津市,大理道,臭氧1小时,85,71,71,39,30,225,188,205,205,20,15,8,6,1.3,0.8
2022-07-14T19:00:00,2924A,106.2266,38.4418,银川市,水乡路,,24,24,46,14,19,150,74,99,99,13,27,2,5,0.6,0.7
2022-07-14T19:00:00,2996A,118.283,33.965,宿迁市,市供电局,,30,17,48,13,30,144,94,98,72,7,12,4,5,0.6,0.7
2022-07-14T19:00:00,2997A,119.8767,32.3289,泰州市,王营,,33,25,43,17,24,241,103,164,154,11,27,6,10,0.6,0.8
2022-07-14T19:00:00,3000A,119.3581,34.6972,连云港市,德源药业,,36,36,33,24,21,181,113,162,102,5,8,3,2,0.8,0.7
2022-07-14T19:00:00,3002A,119.9805,31.8174,常州市,行政中心,臭氧1小时,65,37,40,26,28,216,172,166,166,17,19,8,8,0.7,0.7
2022-07-14T19:00:00,3003A,120.0522,31.7748,常州市,经开区,臭氧1小时,79,52,44,31,20,195,183,165,165,26,18,8,6,0.8,0.7
2022-07-14T19:00:00,3004A,120.1544,33.3663,盐城市,宝龙广场,,,27,36,12,18,159,,136,136,11,12,3,4,0.6,0.5
2022-07-14T19:00:00,3005A,117.1814,34.29,徐州市,鼓楼区政府,,32,21,40,7,21,129,100,82,71,7,21,7,8,0.5,0.8
2022-07-14T19:00:00,3006A,117.1694,34.1781,徐州市,铜山区招生办,,32,19,42,8,32,143,101,77,77,11,23,8,9,0.4,0.6
2022-07-14T19:00:00,3008A,119.3608,34.7519,连云港市,胡沟管理处,,31,17,43,7,24,163,97,117,83,13,30,3,5,0.7,0.7
2022-07-14T19:00:00,3009A,119.1478,34.5911,连云港市,矿山设计院,,32,22,38,9,23,150,102,150,96,9,9,3,2,0.6,0.7
2022-07-14T19:00:00,3010A,119.9025,31.7964,常州市,钟楼,,42,33,46,18,23,204,134,156,156,9,16,2,5,0.3,0.4
2022-07-14T19:00:00,3012A,112.1849,31.0362,荆门市,西山林语,,39,35,34,18,14,126,123,118,118,8,9,5,5,0.6,0.6
2022-07-14T19:00:00,3014A,106.4958,29.5346,重庆市,歇台子,,45,34,21,20,12,168,142,124,124,20,16,5,4,0.9,0.7
2022-07-14T19:00:00,3015A,106.4037,29.5728,重庆市,龙井湾,臭氧1小时,78,16,13,5,6,205,182,178,178,14,15,4,5,0.7,0.6
2022-07-14T19:00:00,3016A,106.5507,29.4153,重庆市,龙洲湾,,39,7,17,7,10,141,123,123,123,12,18,5,5,0.4,0.4
2022-07-14T19:00:00,3020A,117.2101,39.1699,天津市,中山北路,臭氧1小时,107,74,55,43,29,258,214,219,219,17,11,8,6,1.6,1
2022-07-14T19:00:00,3025A,113.0477,23.6344,清远市,技师学院,,47,30,48,16,31,180,150,155,155,13,20,4,4,0.4,0.5
2022-07-14T19:00:00,3033A,87.4651,43.4569,乌鲁木齐市,培训基地,,,,7,,2,120,,112,112,4,3,,4,0.3,0.5
2022-07-14T19:00:00,3046A,115.9084,28.6062,南昌市,机电学校,,,60,62,16,17,187,180,175,175,10,22,,23,0.5,0.6
2022-07-14T19:00:00,3051A,117.3876,39.1488,天津市,西四道,颗粒物(PM10),59,68,56,34,26,238,140,204,204,31,20,4,4,1.6,1.1
2022-07-14T19:00:00,3054A,113.9194,35.2847,新乡市,市委党校,,,26,40,7,25,218,114,183,183,9,19,,5,1.0,1.4
2022-07-14T19:00:00,3059A,117.7161,36.2049,济南市,泰兴公司,,41,41,30,22,13,136,128,126,126,22,28,6,6,0.8,0.7
2022-07-14T19:00:00,3061A,119.7512,49.1577,呼伦贝尔市,国华电力东,,27,17,15,14,12,109,84,99,97,5,5,2,3,0.3,0.3
2022-07-14T19:00:00,3064A,117.6867,36.2171,济南市,莱芜战役纪念馆,臭氧1小时,102,75,31,36,14,203,203,136,136,19,21,3,2,1.2,0.9
2022-07-14T19:00:00,3131A,114.879,40.7993,张家口市,烟厂,,30,27,17,6,4,100,95,94,94,9,10,6,5,0.1,0
2022-07-14T19:00:00,3132A,119.610547,39.943889,秦皇岛市,文明里,,41,25,44,11,14,134,129,131,131,7,16,8,9,0.4,0.5
2022-07-14T19:00:00,3133A,106.5468,29.5654,重庆市,上清寺,,43,10,9,4,5,184,135,164,164,20,26,5,6,0.7,0.7
2022-07-14T19:00:00,3141A,114.3922,36.0878,安阳市,信访局,,,39,47,,,159,126,143,143,11,16,5,5,0.7,1.1
2022-07-14T19:00:00,3147A,114.3438,34.8106,开封市,龙亭公园,细颗粒物(PM2.5),58,58,47,41,24,177,124,157,157,6,13,2,3,0.8,1
2022-07-14T19:00:00,3153A,114.3877,30.4908,武汉市,民族大道182号,,41,41,30,10,42,133,118,119,119,8,10,4,5,0.6,0.6
2022-07-14T19:00:00,3164A,119.4686,32.3942,扬州市,广陵建设局,,38,38,40,18,26,191,99,143,127,20,15,9,12,0.4,0.5
2022-07-14T19:00:00,3169A,113.2725,35.2067,焦作市,太极体育中心(启用180720),臭氧1小时,67,60,52,32,28,199,173,163,163,7,17,2,3,1.5,1
2022-07-14T19:00:00,3186A,103.7158,36.1058,兰州市,教育港,,47,47,37,31,22,173,124,153,153,9,10,14,8,0.4,0.5
2022-07-14T19:00:00,3188A,115.6683,37.7217,衡水市,市城管局,颗粒物(PM10),65,79,55,22,16,190,166,178,178,11,13,9,11,0.7,0.8
2022-07-14T19:00:00,3191A,118.3225,33.9447,宿迁市,宿豫区政府,,26,17,42,16,31,148,82,102,66,14,17,4,4,0.6,0.7
2022-07-14T19:00:00,3194A,112.2747,30.3122,荆州市,管委会,,30,26,31,14,22,106,94,97,97,15,11,8,9,0.5,0.5
2022-07-14T19:00:00,3195A,119.3633,32.3972,扬州市,市体育局,颗粒物(PM10),52,53,51,22,25,177,89,128,113,23,28,6,9,0.5,0.6
2022-07-14T19:00:00,3206A,114.9149,27.807,新余市,新钢沁园村,,39,39,47,4,21,126,99,111,110,7,16,5,11,0.4,0.6
2022-07-14T19:00:00,3210A,114.3644,34.7964,开封市,汴京公园,,,58,44,35,30,172,113,157,157,,15,,4,1.0,1.1
2022-07-14T19:00:00,3216A,114.6622,24.5183,漳州市,漳州党校,,41,39,29,26,21,228,130,184,184,9,16,4,6,0.5,0.5
2022-07-14T19:00:00,3282A,113.3397,40.0597,大同市,大同市卫生学校,,44,27,29,2,8,161,139,145,145,9,16,12,21,0.3,0.4
2022-07-14T19:00:00,3294A,119.5653,32.4222,扬州市,引江管理处,,36,32,42,18,26,202,114,158,144,9,26,4,6,0.6,0.7
2022-07-14T19:00:00,3372A,116.3572,37.4094,德州市,太阳城中学,,41,27,31,20,22,216,131,178,178,13,14,8,10,0.6,0.5
2022-07-14T19:00:00,3401A,108.4834,22.7618,南宁市,红星社区,,25,25,34,13,18,85,71,78,78,6,11,6,7,0.4,0.5
2022-07-14T19:00:00,3402A,109.5422,24.3996,柳州市,市二中,,27,23,36,14,18,105,85,99,99,4,14,7,9,0.4,0.5
2022-07-14T19:00:00,3404A,108.5959,21.9633,钦州市,北职校,,20,17,30,11,15,89,62,69,69,8,10,6,8,0.6,0.8
2022-07-14T19:00:00,3457A,118.4359,39.2762,唐山市,冀东油田职工医院,,,,45,6,22,141,,135,135,11,20,8,9,0.1,0.5
2022-07-14T19:00:00,3459A,115.5989,37.5491,衡水市,地表水厂,,48,42,25,19,11,173,152,147,147,6,14,6,6,1.1,0.7
2022-07-14T19:00:00,3461A,117.3045,39.7169,天津市,建设路,臭氧1小时,87,26,44,12,26,193,189,176,176,20,13,9,9,0.5,0.5
2022-07-14T19:00:00,3473A,114.2485,34.8306,开封市,技师学院,,,53,45,,,166,116,152,152,9,16,3,3,0.7,0.8
2022-07-14T19:00:00,3487A,104.2394,30.5319,成都市,车城东七路,臭氧1小时,103,47,37,35,26,206,206,189,189,12,16,3,6,0.6,0.5
2022-07-14T19:00:00,3489A,104.0789,30.4072,成都市,科学城,臭氧1小时,124,67,41,47,27,248,247,199,199,12,18,7,7,0.5,0.5
2022-07-14T19:00:00,3524A,108.6116,34.1164,西安市,文体局,颗粒物(PM10),59,68,51,20,23,110,76,89,89,15,17,3,3,1.0,1
2022-07-14T19:00:00,3539A,110.5111,19.9736,海口市,桂林洋子站,,22,16,12,15,7,45,29,37,37,5,5,3,4,0.3,0.3
2022-07-14T19:00:00,3578A,118.24498,39.66941,唐山市,政府服务中心,,44,44,43,9,20,206,132,183,183,12,14,4,6,0.5,0.8
2022-07-14T19:00:00,3605A,109.09,34.5236,西安市,无线电监控中心,"颗粒物(PM10),细颗粒物(PM2.5)",87,124,65,64,28,166,133,149,149,34,33,2,2,1.1,1
2022-07-14T19:00:00,3606A,108.7108,34.46,西咸新区,北杜,,,90,44,38,23,155,96,122,122,,23,7,7,0.7,0.7
2022-07-14T19:00:00,3608A,108.8558,34.4978,西咸新区,崇文塔,细颗粒物(PM2.5),109,112,55,82,37,162,115,141,141,28,32,6,6,0.9,1
2022-07-14T19:00:00,3622A,113.5556,24.8082,韶关市,碧湖山庄,,47,34,38,14,17,186,150,176,176,7,12,10,11,0.6,0.6
2022-07-14T19:00:00,3628A,112.0336,22.9374,云浮市,文笔,,26,14,21,11,7,82,82,68,68,7,10,10,9,0.3,0.3
2022-07-14T19:00:00,3643A,120.3948,36.1805,青岛市,李沧区北部,,34,29,52,17,38,213,108,159,159,35,29,6,11,0.5,0.6
2022-07-14T19:00:00,3652A,109.4809,36.5786,延安市,西北局旧址,,36,36,38,16,11,109,83,91,91,17,25,5,5,0.4,0.5
2022-07-14T19:00:00,3663A,124.1164,50.4278,大兴安岭地区,红旗社区,,25,25,19,14,13,79,52,78,68,5,5,5,5,0.3,0.3
2022-07-14T19:00:00,3682A,116.9814,36.6819,济南市,济南四建,,39,24,42,7,23,190,122,160,160,10,33,2,3,0.6,0.8
2022-07-14T19:00:00,3684A,130.8781,45.8222,七台河市,新建矿广场,,10,0,10,4,8,44,30,32,26,6,11,11,11,0.4,0.4
2022-07-14T19:00:00,3685A,117.897,28.4315,上饶市,双创科技城,,43,43,48,25,27,129,116,112,112,8,19,10,9,0.6,0.6
2022-07-14T19:00:00,3690A,115.9721,28.7031,南昌市,外国语学校,,48,46,49,22,26,179,153,162,162,14,18,8,16,0.5,0.5
2022-07-14T19:00:00,3692A,118.2059,39.6585,唐山市,消防缸窑路中队,,,,52,,23,202,139,184,184,8,9,,5,0.4,0.8
2022-07-14T19:00:00,3693A,118.1436,39.6202,唐山市,路南电大,,39,30,38,24,23,197,122,172,172,11,14,2,5,0.5,0.8
2022-07-14T19:00:00,3698A,111.5968,40.8178,呼和浩特市,红旗小学,,47,36,26,9,6,158,148,143,143,18,20,13,4,0.3,0.3
2022-07-14T19:00:00,3699A,111.6518,40.8389,呼和浩特市,海东办,,50,36,21,8,5,162,159,147,147,16,23,12,5,0.4,0.3
2022-07-14T19:00:00,3710A,121.5594,29.8975,宁波市,白沙活动中心,臭氧1小时,104,60,45,42,30,293,207,240,240,21,21,3,3,0.8,0.8
