timepoint,stationcode,longitude,latitude,area,positionname,primarypollutant,aqi,pm10,pm10_24h,pm2_5,pm2_5_24h,o3,o3_24h,o3_8h,o3_8h_24h,no2,no2_24h,so2,so2_24h,co,co_24h
2025-02-16T0200,2566A,102.1879,31.914,阿坝藏族羌族自治州,州农科所,,20,17,29,9,12,62,,,,4,9,8,9,0,0
2025-02-16T0200,2568A,102.2502,31.8896,阿坝藏族羌族自治州,马师校,,23,19,27,16,13,61,,,,10,9,5,5,0.5,0.5
2025-02-16T0200,3994A,102.2165,31.9024,阿坝藏族羌族自治州,马尔康中学西区,,27,15,21,14,11,84,,,,5,7,6,6,0.5,0.6
2025-02-16T0200,2695A,80.292,41.1694,阿克苏地区,电视台,颗粒物(PM10),266,396,420,117,94,13,,,,72,35,8,3,2.0,1
2025-02-16T0200,2696A,80.2613,41.1551,阿克苏地区,艺术中心,颗粒物(PM10),283,408,451,127,102,5,,,,84,35,9,7,2.4,1.2
2025-02-16T0200,2204A,105.6467,38.8363,阿拉善盟,西城区西花园,,50,50,72,29,27,95,,,,8,9,16,13,0.6,0.6
2025-02-16T0200,2205A,105.6985,38.8411,阿拉善盟,蒙二幼,颗粒物(PM10),54,57,72,15,18,89,,,,6,8,5,5,0.8,0.8
2025-02-16T0200,2206A,105.724,38.8516,阿拉善盟,环保局新楼,,41,41,62,16,18,101,,,,2,4,6,6,1.0,1
2025-02-16T0200,2708A,88.1264,47.8517,阿勒泰地区,市站,,19,14,15,7,9,58,,,,12,21,2,6,0.5,0.5
2025-02-16T0200,2630A,80.1161,32.5,阿里地区,阿里监测站,,28,,5,6,6,88,,,,1,2,9,7,0.5,0.5
2025-02-16T0200,3192A,80.0903,32.5028,阿里地区,阿里藏医院,,30,6,14,3,2,95,,,,2,2,5,4,0.4,0.5
2025-02-16T0200,2642A,109.0318,32.6537,安康市,香溪洞,,33,27,38,23,24,72,,,,8,8,12,11,0.5,0.5
2025-02-16T0200,2644A,109.0072,32.6975,安康市,汉滨区检察院,,34,34,43,18,22,48,,,,12,16,6,20,0.5,0.6
2025-02-16T0200,4054A,109.0325,32.6913,安康市,市邮政管理局,,38,38,52,22,30,40,,,,18,25,8,13,0.4,0.6
2025-02-16T0200,2291A,117.0809,30.5177,安庆市,环科院,细颗粒物(PM2.5),82,88,89,60,74,3,,,,52,35,6,6,0.9,0.9
2025-02-16T0200,2292A,117.0331,30.5119,安庆市,马山宾馆,细颗粒物(PM2.5),94,94,85,70,78,7,,,,48,39,7,7,0.9,0.9
2025-02-16T0200,2294A,116.9896,30.6145,安庆市,安庆大学,细颗粒物(PM2.5),103,101,94,77,74,21,,,,40,30,7,7,1.0,0.9
2025-02-16T0200,3173A,117.0598,30.5351,安庆市,市人大,细颗粒物(PM2.5),93,89,90,69,76,7,,,,46,35,5,5,0.9,0.8
2025-02-16T0200,3123A,105.9408,26.2431,安顺市,凤凰山,,43,38,30,30,26,58,,,,11,15,14,22,0.5,0.6
2025-02-16T0200,3124A,105.9439,26.2564,安顺市,金钟山,,39,34,24,27,25,61,,,,8,12,10,21,0.6,0.6
2025-02-16T0200,3125A,105.8983,26.2481,安顺市,娄家坡,,43,35,27,30,27,55,,,,13,14,13,20,0.6,0.6
2025-02-16T0200,1819A,114.3551,36.1017,安阳市,红庙街,颗粒物(PM10),74,97,83,22,38,68,,,,8,30,9,12,0.5,1
2025-02-16T0200,1820A,114.361,36.0681,安阳市,银杏小区,颗粒物(PM10),70,90,73,19,39,74,,,,7,24,9,9,0.3,0.7
2025-02-16T0200,3141A,114.3922,36.0878,安阳市,信访局,颗粒物(PM10),76,102,76,23,38,80,,,,10,27,11,11,0.6,1
2025-02-16T0200,3669A,114.4705,36.0637,安阳市,左辅环卫站,颗粒物(PM10),84,118,99,20,48,76,,,,7,29,10,9,0.6,0.7
2025-02-16T0200,3703A,114.2917,36.0949,安阳市,安钢职工学校,颗粒物(PM10),71,92,90,25,45,62,,,,20,27,19,9,0.9,1
2025-02-16T0200,1748A,123.044,41.1196,鞍山市,深沟寺,细颗粒物(PM2.5),82,93,100,60,75,42,,,,30,22,15,12,0.9,0.9
2025-02-16T0200,1749A,123.011,41.0931,鞍山市,太阳城,颗粒物(PM10),64,78,102,40,69,47,,,,29,22,20,10,1.0,0.9
2025-02-16T0200,1750A,123.0485,41.1442,鞍山市,太平,颗粒物(PM10),65,80,110,46,74,44,,,,32,28,12,8,1.1,1.3
2025-02-16T0200,1751A,122.9642,41.0971,鞍山市,铁西三道街,,47,47,125,19,84,53,,,,26,55,14,43,0.8,1.1
2025-02-16T0200,1753A,123.022,41.0821,鞍山市,明达新区,细颗粒物(PM2.5),63,73,98,45,73,54,,,,25,21,11,9,0.7,0.8
2025-02-16T0200,4201A,122.9446,41.0826,鞍山市,兴盛南路290号,,46,46,129,19,89,50,,,,21,43,15,14,0.8,1.4
2025-02-16T0200,2195A,107.4212,40.761,巴彦淖尔市,附二中,颗粒物(PM10),74,97,90,34,29,38,,,,39,15,12,4,0.7,0.4
2025-02-16T0200,2196A,107.37,40.7372,巴彦淖尔市,市环保大楼,颗粒物(PM10),70,89,86,30,26,34,,,,41,16,7,5,0.4,0.3
2025-02-16T0200,1956A,86.1472,41.7538,巴音郭楞蒙古自治州,孔雀公园,颗粒物(PM10),192,334,351,62,57,,,,,35,34,5,6,,0.6
2025-02-16T0200,1957A,86.1972,41.7166,巴音郭楞蒙古自治州,棉纺厂,颗粒物(PM10),180,310,413,49,54,15,,,,69,32,4,4,0.5,0.5
2025-02-16T0200,1958A,86.2357,41.7173,巴音郭楞蒙古自治州,经济开发区,颗粒物(PM10),152,254,323,31,42,60,,,,8,14,4,4,0.3,0.3
2025-02-16T0200,2914A,106.7677,31.8794,巴中市,苏山坪,细颗粒物(PM2.5),70,69,48,51,35,42,,,,21,16,4,4,0.5,0.5
2025-02-16T0200,3181A,106.7768,31.8526,巴中市,市五中,细颗粒物(PM2.5),69,75,49,50,38,10,,,,25,21,4,4,0.8,0.8
2025-02-16T0200,3183A,106.7418,31.8654,巴中市,圣泉水务公司,细颗粒物(PM2.5),58,50,46,41,35,3,,,,43,29,5,5,0.7,0.8
2025-02-16T0200,3616A,106.7616,31.8344,巴中市,市中心医院,细颗粒物(PM2.5),83,69,51,61,38,4,,,,35,22,5,5,1.0,1
2025-02-16T0200,2235A,122.7911,45.6077,白城市,洮北区环保局,,21,19,49,14,40,65,,,,7,17,6,6,0.2,0.3
2025-02-16T0200,2236A,122.8738,45.5725,白城市,市环保局,,30,,53,21,40,61,,,,13,19,4,7,0.4,0.5
2025-02-16T0200,2231A,126.4219,41.9171,白山市,喜丰,细颗粒物(PM2.5),78,102,84,57,43,63,,,,36,30,13,18,0.9,0.8
2025-02-16T0200,2232A,126.4077,41.9419,白山市,环保局,细颗粒物(PM2.5),95,101,81,71,49,43,,,,58,44,10,17,1.3,1.1
2025-02-16T0200,2647A,104.1724,36.5446,白银市,第三小学,颗粒物(PM10),131,211,83,50,28,65,,,,15,20,8,66,0.4,0.7
2025-02-16T0200,2648A,104.1465,36.5482,白银市,动力公司,颗粒物(PM10),119,188,71,41,23,62,,,,12,16,1,32,0.4,0.6
2025-02-16T0200,2512A,106.6103,23.9011,百色市,市监测站,,36,36,28,19,16,30,,,,11,16,6,7,0.8,0.8
2025-02-16T0200,2513A,106.6538,23.8859,百色市,市中心血站,,37,37,30,18,17,30,,,,10,14,8,10,0.8,0.9
2025-02-16T0200,3406A,106.6085,23.8798,百色市,祈福高中,,32,32,31,16,14,29,,,,10,15,5,5,0.9,0.9
2025-02-16T0200,2270A,117.396,32.939,蚌埠市,工人疗养院,细颗粒物(PM2.5),113,130,124,85,84,55,,,,44,38,6,7,0.8,0.8
2025-02-16T0200,2271A,117.3605,32.9427,蚌埠市,百货大楼,细颗粒物(PM2.5),117,128,121,88,81,66,,,,31,33,7,8,0.8,0.8
2025-02-16T0200,2273A,117.4185,32.8911,蚌埠市,蚌埠学院,细颗粒物(PM2.5),110,139,127,83,85,41,,,,57,43,7,8,0.7,0.7
2025-02-16T0200,2274A,117.3533,32.9673,蚌埠市,淮上区政府,细颗粒物(PM2.5),118,129,124,89,86,71,,,,32,36,12,11,0.9,1
2025-02-16T0200,2275A,117.3145,32.8977,蚌埠市,高新区,细颗粒物(PM2.5),127,132,123,96,88,24,,,,70,45,8,10,0.8,0.8
2025-02-16T0200,3715A,117.3092,32.9314,蚌埠市,蚌埠田家炳中学,细颗粒物(PM2.5),128,146,130,97,87,26,,,,70,51,22,14,0.7,0.7
2025-02-16T0200,1585A,109.8756,40.6532,包头市,市环境监测站,,24,18,111,12,39,74,,,,10,33,12,14,0.4,0.8
2025-02-16T0200,1587A,109.9991,40.5842,包头市,包头八中,,31,31,109,6,35,67,,,,13,31,10,14,0.4,0.7
2025-02-16T0200,1588A,109.8538,40.6821,包头市,青山宾馆,,21,14,91,3,29,66,,,,12,30,8,10,0.4,0.7
2025-02-16T0200,1589A,109.8642,40.6288,包头市,惠龙物流,,24,22,99,3,39,76,,,,10,30,8,12,0.5,0.8
2025-02-16T0200,1590A,110.0377,40.5546,包头市,东河鸿龙湾,,22,16,100,3,23,68,,,,16,27,12,13,0.5,0.7
2025-02-16T0200,3283A,109.9154,40.5685,包头市,滨河大厦,,18,6,73,3,26,56,,,,24,20,11,12,0.7,0.9
2025-02-16T0200,3419A,109.9447,40.6261,包头市,包头市委党校,,20,20,98,3,27,62,,,,15,29,9,12,0.8,0.9
2025-02-16T0200,3683A,109.8331,40.6576,包头市,昆区政府,,22,21,99,3,30,68,,,,11,31,10,14,0.5,0.9
2025-02-16T0200,1930A,107.185,34.3063,宝鸡市,庙沟村,,49,49,38,18,14,82,,,,8,9,6,6,0.5,0.5
2025-02-16T0200,1931A,107.0708,34.3017,宝鸡市,竹园沟,,37,37,43,17,23,62,,,,14,15,5,6,0.2,0.3
2025-02-16T0200,1932A,107.1906,34.3672,宝鸡市,三陆医院,颗粒物(PM10),55,60,62,29,32,51,,,,15,32,3,5,0.5,0.5
2025-02-16T0200,1933A,107.1431,34.3547,宝鸡市,监测站,,49,49,54,23,27,36,,,,22,20,6,7,0.5,0.5
2025-02-16T0200,1934A,107.1186,34.3739,宝鸡市,技工学校,颗粒物(PM10),52,53,58,30,28,47,,,,12,18,6,6,0.5,0.5
2025-02-16T0200,1935A,107.3906,34.3528,宝鸡市,陈仓区环保局家属楼,颗粒物(PM10),69,87,68,43,36,22,,,,51,33,42,33,0.6,0.5
2025-02-16T0200,1936A,107.2058,34.3497,宝鸡市,文理学院,"颗粒物(PM10),细颗粒物(PM2.5)",55,60,54,39,29,43,,,,28,29,6,7,0.5,0.5
2025-02-16T0200,1937A,107.2386,34.3622,宝鸡市,三迪小学,细颗粒物(PM2.5),67,72,63,48,33,31,,,,36,37,6,6,0.6,0.6
2025-02-16T0200,1051A,115.493,38.8632,保定市,游泳馆,,37,37,80,7,49,79,,,,7,37,5,12,0.0,0.5
2025-02-16T0200,1052A,115.5213,38.8959,保定市,华电二区,,47,47,76,28,49,70,,,,9,28,7,12,0.1,0.4
2025-02-16T0200,1053A,115.4713,38.9108,保定市,接待中心,,48,48,88,7,43,76,,,,9,30,5,9,0.3,0.6
2025-02-16T0200,1054A,115.4612,38.8416,保定市,地表水厂,颗粒物(PM10),67,84,110,12,52,63,,,,28,36,2,6,0.3,0.7
2025-02-16T0200,3581A,115.31981,38.95208,保定市,满城区生态环境分局,,29,24,88,3,29,90,,,,6,24,6,9,0.3,0.5
2025-02-16T0200,3582A,115.47694,38.76408,保定市,清苑区第二中学,颗粒物(PM10),51,51,101,9,40,64,,,,20,37,5,10,0.2,0.6
2025-02-16T0200,3583A,115.62909,39.02311,保定市,徐水物探局,,50,50,95,9,46,87,,,,12,38,7,11,0.2,0.5
2025-02-16T0200,4004A,115.4202,38.8656,保定市,双鹰农机,,42,42,90,9,38,81,,,,1,26,3,7,0.3,0.7
2025-02-16T0200,4034A,115.5150,38.8590,保定市,植保所站,,39,39,92,23,47,72,,,,13,32,2,8,0.3,0.7
2025-02-16T0200,2594A,99.1678,25.1081,保山市,市环境监测站,,47,47,45,21,28,86,,,,6,10,6,6,0.3,0.3
2025-02-16T0200,2595A,99.1711,25.1328,保山市,市环保局,细颗粒物(PM2.5),53,52,45,37,29,98,,,,4,7,7,7,0.4,0.4
2025-02-16T0200,1867A,109.1436,21.4086,北海市,海滩公园,颗粒物(PM10),52,53,41,29,32,23,,,,14,14,6,6,0.8,0.8
2025-02-16T0200,1868A,109.0981,21.4661,北海市,新市环保局,,42,38,32,29,32,25,,,,16,16,6,6,0.8,0.7
2025-02-16T0200,1869A,109.1778,21.5233,北海市,北海工业园,,49,45,51,34,44,22,,,,16,18,9,8,1.0,1
2025-02-16T0200,3400A,109.1911,21.4415,北海市,龙潭自来水厂,细颗粒物(PM2.5),62,51,41,44,41,20,,,,15,13,6,6,0.8,0.8
2025-02-16T0200,1001A,116.3621,39.8784,北京市,万寿西宫,颗粒物(PM10),58,66,114,19,47,61,,,,20,42,3,5,0.2,0.5
2025-02-16T0200,1003A,116.4174,39.9289,北京市,东四,,49,49,114,19,43,59,,,,13,32,3,5,0.1,0.4
2025-02-16T0200,1004A,116.4072,39.8863,北京市,天坛,颗粒物(PM10),57,64,115,16,43,69,,,,15,33,3,4,0.2,0.5
2025-02-16T0200,1005A,116.462,39.9365,北京市,农展馆,,44,44,111,11,45,73,,,,14,38,4,7,0.3,0.6
2025-02-16T0200,1006A,116.3392,39.9295,北京市,官园,颗粒物(PM10),61,72,115,19,41,49,,,,17,29,49,7,0.3,0.5
2025-02-16T0200,1007A,116.2878,39.9611,北京市,海淀万柳,,50,50,95,14,34,57,,,,16,35,4,5,0.5,0.6
2025-02-16T0200,1008A,116.6636,40.135,北京市,顺义新城,,43,43,94,11,36,68,,,,2,26,4,5,0.1,0.4
2025-02-16T0200,1009A,116.6275,40.3275,北京市,怀柔镇,,50,50,84,14,34,74,,,,2,17,2,3,0.4,0.6
2025-02-16T0200,1010A,116.2296,40.217,北京市,昌平镇,颗粒物(PM10),51,52,110,14,33,60,,,,7,21,3,2,0.2,0.4
2025-02-16T0200,1011A,116.3966,39.9821,北京市,奥体中心,,47,47,107,16,43,59,,,,20,35,3,6,0.2,0.5
2025-02-16T0200,3281A,115.9718,40.4529,北京市,延庆夏都,,25,20,81,3,30,77,,,,1,16,4,6,0.3,0.6
2025-02-16T0200,3418A,116.8336,40.4095,北京市,密云新城,颗粒物(PM10),58,65,80,18,33,69,,,,5,19,4,4,0.3,0.5
2025-02-16T0200,3671A,116.088,39.9726,北京市,门头沟三家店,,33,33,95,11,35,69,,,,5,14,4,4,0.1,0.2
2025-02-16T0200,3672A,116.1541,39.8204,北京市,丰台云岗,,36,36,91,12,40,78,,,,5,29,3,5,0.2,0.4
2025-02-16T0200,3673A,116.6804,39.9081,北京市,通州东关,颗粒物(PM10),51,51,143,18,56,66,,,,8,44,5,9,0.1,0.4
2025-02-16T0200,3674A,115.9577,39.7603,北京市,房山燕山,,30,30,81,8,37,80,,,,1,23,3,3,0.1,0.4
2025-02-16T0200,3675A,116.4672,39.7733,北京市,大兴旧宫,颗粒物(PM10),57,64,114,14,46,53,,,,10,34,3,2,0.1,0.5
2025-02-16T0200,3694A,115.986,40.4563,北京市,延庆石河营,,24,18,79,3,30,76,,,,1,17,4,5,0.4,0.7
2025-02-16T0200,3695A,116.6151,40.3053,北京市,怀柔新城,,48,48,83,15,34,74,,,,2,12,4,5,0.1,0.3
2025-02-16T0200,3696A,116.2545,39.8768,北京市,丰台小屯,颗粒物(PM10),53,55,108,16,40,64,,,,10,35,2,3,0.2,0.4
2025-02-16T0200,3697A,116.84,40.3844,北京市,密云镇,颗粒物(PM10),62,74,85,17,32,72,,,,8,28,5,6,0.2,0.4
2025-02-16T0200,4182A,116.1942,39.9158,北京市,八角北路9号,颗粒物(PM10),51,52,115,11,34,73,,,,3,24,2,3,0,0.2
2025-02-16T0200,4194A,117.0790,40.1518,北京市,洳河巡河路,颗粒物(PM10),57,63,86,20,46,65,,,,6,18,3,2,0.2,0.5
2025-02-16T0200,1761A,123.8275,41.3064,本溪市,大峪,细颗粒物(PM2.5),104,105,96,78,65,65,,,,27,21,6,10,1.1,1
2025-02-16T0200,1762A,123.7567,41.3325,本溪市,溪湖,细颗粒物(PM2.5),134,144,115,102,79,44,,,,50,36,10,13,2.3,1.3
2025-02-16T0200,1763A,123.7169,41.3094,本溪市,彩屯,细颗粒物(PM2.5),127,134,144,96,91,66,,,,21,37,8,20,1.2,3
2025-02-16T0200,1764A,123.7669,41.2864,本溪市,东明,细颗粒物(PM2.5),129,116,92,98,76,37,,,,52,28,10,14,1.2,0.8
2025-02-16T0200,1765A,123.7992,41.2664,本溪市,新立屯,细颗粒物(PM2.5),114,92,79,86,69,39,,,,80,28,6,7,0.8,0.8
2025-02-16T0200,1766A,123.8142,41.3472,本溪市,威宁,细颗粒物(PM2.5),117,122,107,88,72,25,,,,42,28,2,6,1.2,0.9
2025-02-16T0200,2587A,105.2864,27.3125,毕节市,八中,,35,33,34,24,26,47,,,,9,9,8,10,0.8,0.7
2025-02-16T0200,2588A,105.31,27.2944,毕节市,师专,,42,39,36,29,28,61,,,,10,10,8,8,0.7,0.6
2025-02-16T0200,4263A,105.3688,27.3598,毕节市,工业大道,,46,38,36,32,28,59,,,,10,11,7,9,0.6,0.6
2025-02-16T0200,1629A,118.0018,37.3617,滨州市,第二水厂,细颗粒物(PM2.5),113,156,116,85,60,17,,,,75,47,23,18,1.4,0.9
2025-02-16T0200,1630A,117.9776,37.393,滨州市,北中新校,细颗粒物(PM2.5),110,149,115,83,61,9,,,,90,47,20,18,0.9,0.7
2025-02-16T0200,3514A,117.9378,37.3956,滨州市,中海酒店,细颗粒物(PM2.5),117,163,120,88,65,12,,,,90,44,18,17,1.3,0.9
2025-02-16T0200,3515A,117.9378,37.3553,滨州市,开发区一中,细颗粒物(PM2.5),132,180,132,100,63,19,,,,85,51,24,21,0.7,0.6
2025-02-16T0200,3516A,118.0917,37.694,滨州市,金海六路,细颗粒物(PM2.5),134,173,138,102,73,7,,,,88,58,32,17,1.4,1.2
2025-02-16T0200,4028A,117.9956,37.3753,滨州市,滨州市西街道办事处,细颗粒物(PM2.5),119,153,117,90,73,6,,,,67,42,20,15,1.4,0.9
2025-02-16T0200,2311A,115.8072,33.8399,亳州市,污水处理厂,颗粒物(PM10),73,96,95,50,52,59,,,,20,22,7,11,0.5,0.7
2025-02-16T0200,2312A,115.7789,33.8518,亳州市,三国揽胜宫,细颗粒物(PM2.5),85,112,114,63,58,61,,,,23,22,5,10,0.4,0.5
2025-02-16T0200,3332A,115.7633,33.8034,亳州市,亳州学院,颗粒物(PM10),79,108,107,55,57,54,,,,22,23,4,11,0.4,0.5
2025-02-16T0200,2693A,82.0485,44.8556,博尔塔拉蒙古自治州,市党校,细颗粒物(PM2.5),85,78,63,63,51,97,,,,15,16,8,10,0.6,0.8
2025-02-16T0200,2694A,82.0806,44.8969,博尔塔拉蒙古自治州,市环保局,颗粒物(PM10),75,100,81,54,46,47,,,,52,29,5,6,1.2,1.2
2025-02-16T0200,1071A,116.8842,38.2991,沧州市,沧县城建局,颗粒物(PM10),94,138,139,54,80,27,,,,52,50,7,10,0.4,0.7
2025-02-16T0200,1072A,116.8584,38.3254,沧州市,电视转播站,颗粒物(PM10),92,134,129,44,75,20,,,,55,48,8,12,0.5,0.8
2025-02-16T0200,1073A,116.8709,38.3228,沧州市,市环保局,"颗粒物(PM10),细颗粒物(PM2.5)",102,153,130,76,77,6,,,,66,46,10,13,0.7,0.9
2025-02-16T0200,3324A,116.8136,38.3004,沧州市,河北水利电力学院,颗粒物(PM10),108,166,142,67,69,21,,,,56,47,10,15,0.5,0.7
2025-02-16T0200,2622A,97.1806,31.1273,昌都市,昌都监测站,,19,19,25,9,12,60,,,,6,9,5,5,0.5,0.6
2025-02-16T0200,3719A,97.1714,31.1406,昌都市,昌都会议中心,,24,20,23,9,10,74,,,,3,2,6,6,0.4,0.4
2025-02-16T0200,2690A,88.1236,43.8886,昌吉回族自治州,天山天池,,28,6,9,3,5,87,,,,2,2,6,6,0.4,0.4
2025-02-16T0200,2692A,87.2717,44.0297,昌吉回族自治州,新区政务中心,细颗粒物(PM2.5),142,146,168,108,121,54,,,,34,23,3,3,1.3,1.2
2025-02-16T0200,3613A,87.3095,44.0142,昌吉回族自治州,亚心广场,细颗粒物(PM2.5),138,122,170,105,149,78,,,,4,7,5,5,1.1,1.2
2025-02-16T0200,1119A,125.3325,43.9166,长春市,食品厂,"颗粒物(PM10),细颗粒物(PM2.5)",52,53,85,36,55,69,,,,16,30,7,13,0.4,0.7
2025-02-16T0200,1120A,125.2863,43.9027,长春市,客车厂,细颗粒物(PM2.5),63,47,77,45,64,70,,,,16,28,6,12,0.4,0.6
2025-02-16T0200,1121A,125.2841,43.8463,长春市,邮电学院,细颗粒物(PM2.5),62,48,78,44,53,70,,,,21,25,8,13,0.6,0.8
2025-02-16T0200,1122A,125.3716,43.8772,长春市,劳动公园,,49,48,76,34,46,78,,,,17,27,7,12,0.8,0.9
2025-02-16T0200,1123A,125.3297,43.8805,长春市,园林处,细颗粒物(PM2.5),55,45,76,39,52,77,,,,11,21,9,14,0.5,0.7
2025-02-16T0200,1124A,125.4605,43.79,长春市,净月潭,细颗粒物(PM2.5),53,42,74,37,47,74,,,,14,15,8,10,0.5,0.6
2025-02-16T0200,1126A,125.3863,43.8447,长春市,经开区环卫处,细颗粒物(PM2.5),53,53,74,37,46,76,,,,13,26,6,12,0.7,0.9
2025-02-16T0200,1127A,125.245,43.7783,长春市,高新区管委会,细颗粒物(PM2.5),53,50,68,37,48,71,,,,16,27,7,11,0.3,0.6
2025-02-16T0200,1128A,125.1761,43.8325,长春市,岱山公园,细颗粒物(PM2.5),53,47,73,37,55,76,,,,15,27,5,10,0.5,0.7
2025-02-16T0200,1335A,113.0833,28.2325,长沙市,经开区环保局,细颗粒物(PM2.5),89,81,60,66,44,4,,,,57,30,4,3,0.9,0.7
2025-02-16T0200,1336A,112.8872,28.2189,长沙市,高开区环保局,细颗粒物(PM2.5),87,69,54,64,42,22,,,,32,14,4,4,1.0,0.6
2025-02-16T0200,1337A,113.0792,28.2053,长沙市,马坡岭,细颗粒物(PM2.5),73,77,59,53,43,3,,,,46,28,3,3,0.9,0.6
2025-02-16T0200,1338A,112.9394,28.19,长沙市,湖南师范大学,细颗粒物(PM2.5),67,73,57,48,38,13,,,,24,13,3,3,1.0,0.8
2025-02-16T0200,1339A,113.0178,28.1322,长沙市,雨花区环保局,细颗粒物(PM2.5),89,73,59,66,46,21,,,,39,27,5,4,1.0,0.7
2025-02-16T0200,1340A,112.9792,28.2597,长沙市,伍家岭,细颗粒物(PM2.5),80,85,67,59,46,0,,,,36,21,4,4,1.0,0.7
2025-02-16T0200,1341A,113.0014,28.1944,长沙市,火车新站,细颗粒物(PM2.5),94,84,63,70,50,16,,,,45,28,2,2,1.1,0.8
2025-02-16T0200,1342A,112.9844,28.1178,长沙市,天心区环保局,细颗粒物(PM2.5),77,64,53,56,44,5,,,,49,25,3,3,1.1,0.8
2025-02-16T0200,1343A,112.8908,28.1308,长沙市,湖南中医药大学,细颗粒物(PM2.5),69,72,56,50,41,0,,,,33,17,3,3,0.9,0.7
2025-02-16T0200,1344A,112.9581,28.3611,长沙市,沙坪,细颗粒物(PM2.5),75,61,53,55,42,12,,,,26,16,7,7,1.1,0.9
2025-02-16T0200,1727A,113.1147,36.1547,长治市,清华站,颗粒物(PM10),52,53,53,19,23,41,,,,25,23,10,11,0.6,0.8
2025-02-16T0200,1730A,113.0886,36.2125,长治市,审计局,颗粒物(PM10),52,54,60,24,29,60,,,,22,23,11,11,0.4,0.7
2025-02-16T0200,1731A,113.0844,36.1856,长治市,长治八中,颗粒物(PM10),65,79,75,41,35,34,,,,33,23,11,12,0.6,0.7
2025-02-16T0200,2845A,113.1569,36.1911,长治市,德盛苑,颗粒物(PM10),53,55,55,19,24,69,,,,18,18,7,8,0.5,0.7
2025-02-16T0200,3568A,113.06,36.0464,长治市,向阳小学,颗粒物(PM10),61,72,74,36,29,54,,,,22,19,17,20,0.5,0.6
2025-02-16T0200,3569A,112.8792,36.3144,长治市,屯留一中,颗粒物(PM10),54,58,55,15,39,18,,,,58,36,14,12,0.6,0.7
2025-02-16T0200,4189A,113.1131,36.19948,长治市,英华南巷50号,细颗粒物(PM2.5),64,71,66,46,30,32,,,,38,28,9,14,0.5,0.7
2025-02-16T0200,4190A,113.2367,36.3344,长治市,学府街1号,颗粒物(PM10),75,100,86,42,41,26,,,,53,31,16,15,0.9,1
2025-02-16T0200,1854A,111.6975,28.9703,常德市,市二中,颗粒物(PM10),60,70,55,29,27,3,,,,45,22,5,4,0.5,0.4
2025-02-16T0200,3138A,111.7153,29.0289,常德市,武陵区永安,细颗粒物(PM2.5),74,78,48,54,30,13,,,,51,18,3,2,0.9,0.5
2025-02-16T0200,3139A,111.6892,28.9881,常德市,鼎城区玉霞,细颗粒物(PM2.5),53,47,43,37,27,1,,,,37,17,4,3,0.7,0.5
2025-02-16T0200,3140A,111.6625,29.0531,常德市,武陵区长庚,颗粒物(PM10),58,66,48,38,29,3,,,,41,16,2,2,0.6,0.4
2025-02-16T0200,1196A,119.9633,31.762,常州市,市监测站,细颗粒物(PM2.5),142,156,129,108,86,10,,,,47,51,7,9,1.1,1
2025-02-16T0200,1200A,119.9468,31.7069,常州市,武进监测站,细颗粒物(PM2.5),129,127,106,98,79,8,,,,43,39,6,7,1.2,0.9
2025-02-16T0200,1201A,119.9255,31.9087,常州市,安家,细颗粒物(PM2.5),133,165,123,101,86,3,,,,51,48,11,10,1.3,1
2025-02-16T0200,3002A,119.9805,31.8174,常州市,行政中心,细颗粒物(PM2.5),143,137,107,109,82,17,,,,32,39,14,16,1.1,0.8
2025-02-16T0200,3003A,120.0522,31.7748,常州市,经开区,细颗粒物(PM2.5),143,148,114,109,81,20,,,,39,41,7,8,1.0,0.7
2025-02-16T0200,3010A,119.9025,31.7964,常州市,钟楼,细颗粒物(PM2.5),155,150,117,118,88,8,,,,40,42,7,9,1.4,1
2025-02-16T0200,3429A,119.8598,31.7066,常州市,武进经发区,细颗粒物(PM2.5),142,135,115,108,92,12,,,,44,44,6,7,1.2,0.9
2025-02-16T0200,3430A,119.5826,31.7245,常州市,金坛城区,细颗粒物(PM2.5),144,127,115,110,95,22,,,,28,31,7,8,1.2,1
2025-02-16T0200,2220A,120.4318,41.5881,朝阳市,西梁,,25,24,78,13,34,78,,,,2,23,7,13,0.2,0.7
2025-02-16T0200,2221A,120.4521,41.5646,朝阳市,河畔小区,,26,26,80,7,33,72,,,,4,21,4,9,0.3,0.8
2025-02-16T0200,2222A,120.4176,41.5648,朝阳市,八里堡,,25,25,85,9,37,72,,,,4,23,6,10,0.4,0.9
2025-02-16T0200,2223A,120.3806,41.5969,朝阳市,农业园区,,23,20,77,7,40,71,,,,7,23,5,11,0.4,0.8
2025-02-16T0200,1705A,116.6367,23.6719,潮州市,西园路,细颗粒物(PM2.5),100,,45,75,55,59,,,,16,17,6,6,0.3,0.4
2025-02-16T0200,3026A,116.6183,23.6608,潮州市,市政府,细颗粒物(PM2.5),89,,52,66,48,91,,,,12,18,7,6,0.7,0.8
2025-02-16T0200,4036A,116.6461,23.6761,潮州市,金山,,,,39,56,50,,,,,12,15,7,7,0.6,0.6
2025-02-16T0200,2472A,113.0073,25.9061,郴州市,马头岭,,26,26,62,17,39,37,,,,16,18,8,8,0.7,0.8
2025-02-16T0200,2473A,113.0116,25.8226,郴州市,市职中,,26,20,63,18,55,27,,,,14,18,3,4,0.8,0.9
2025-02-16T0200,2475A,113.0383,25.8071,郴州市,市审计局,,32,24,71,22,60,22,,,,18,17,3,4,0.8,0.9
2025-02-16T0200,2476A,113.0348,25.7759,郴州市,市环保局,,39,,76,27,70,22,,,,18,19,8,8,0.8,0.9
2025-02-16T0200,4252A,113.0138,25.8011,郴州市,好美居路49号,,36,26,75,25,67,28,,,,16,21,5,6,0.8,1
2025-02-16T0200,1431A,103.9728,30.7236,成都市,金泉两河,,46,46,40,28,20,41,,,,17,22,2,2,0.6,0.5
2025-02-16T0200,1432A,104.176,30.6872,成都市,十里店,细颗粒物(PM2.5),57,58,39,40,23,22,,,,39,22,2,2,0.6,0.5
2025-02-16T0200,1433A,104.079,30.5706,成都市,三瓦窑,细颗粒物(PM2.5),63,64,40,45,25,18,,,,51,31,4,4,0.8,0.7
2025-02-16T0200,1434A,104.1114,30.63,成都市,沙河铺,细颗粒物(PM2.5),70,,45,51,33,25,,,,35,29,4,4,0.7,0.5
2025-02-16T0200,1437A,104.0786,30.6531,成都市,君平街,细颗粒物(PM2.5),59,51,40,42,28,43,,,,25,26,5,5,0.7,0.6
2025-02-16T0200,2880A,104.0239,30.65639,成都市,大石西路,细颗粒物(PM2.5),54,46,42,38,26,42,,,,29,31,4,4,0.7,0.6
2025-02-16T0200,3136A,104.2725,30.5589,成都市,龙泉驿区区政府,细颗粒物(PM2.5),52,51,37,36,26,32,,,,28,25,4,4,0.6,0.6
2025-02-16T0200,3357A,104.0106,30.6931,成都市,金博路,,31,31,30,16,16,37,,,,21,25,1,1,0.5,0.5
2025-02-16T0200,3359A,104.0578,30.5225,成都市,华阳,细颗粒物(PM2.5),73,63,44,53,37,25,,,,36,28,7,7,0.6,0.7
2025-02-16T0200,3488A,104.3853,30.7453,成都市,青白江技师分院,,50,50,38,34,26,21,,,,31,21,3,3,0.7,0.6
2025-02-16T0200,3489A,104.0789,30.4072,成都市,科学城,细颗粒物(PM2.5),55,50,43,39,34,18,,,,39,26,5,5,0.6,0.5
2025-02-16T0200,4011A,103.8506,30.6947,成都市,光华大道三段,,32,32,29,17,14,46,,,,16,22,4,4,0.4,0.4
2025-02-16T0200,4224A,104.2433,30.5353,成都市,鲸龙路1057号,细颗粒物(PM2.5),59,63,49,42,33,16,,,,34,26,1,1,0.7,0.6
2025-02-16T0200,1062A,117.9531,40.9081,承德市,铁路,颗粒物(PM10),61,72,76,27,28,64,,,,10,26,6,10,0.3,0.6
2025-02-16T0200,1063A,117.9392,40.9763,承德市,中国银行,颗粒物(PM10),57,63,94,15,26,59,,,,6,19,3,5,0.3,0.6
2025-02-16T0200,1064A,117.9503,40.928,承德市,开发区,颗粒物(PM10),64,78,84,23,35,61,,,,15,25,5,9,0.4,0.7
2025-02-16T0200,1065A,117.8051,40.9655,承德市,文化中心,颗粒物(PM10),63,76,97,16,26,73,,,,7,23,4,9,0.2,0.6
2025-02-16T0200,1066A,117.9268,41.0026,承德市,离宫,颗粒物(PM10),58,65,82,32,33,70,,,,4,16,5,7,0.2,0.5
2025-02-16T0200,2314A,117.47,30.6618,池州市,池州学院,细颗粒物(PM2.5),59,45,66,42,64,32,,,,11,24,4,9,0.8,0.9
2025-02-16T0200,3237A,117.4918,30.6617,池州市,展览馆,细颗粒物(PM2.5),72,60,89,52,77,37,,,,8,23,5,7,1.0,0.9
2025-02-16T0200,3333A,117.5627,30.695,池州市,第八中学,细颗粒物(PM2.5),67,60,79,48,67,32,,,,11,24,4,8,0.9,0.9
2025-02-16T0200,3334A,117.5038,30.6243,池州市,第十二中学,细颗粒物(PM2.5),63,55,75,45,67,30,,,,9,25,2,4,1.2,0.9
2025-02-16T0200,1744A,118.9233,42.2816,赤峰市,松山一中,,21,20,83,3,20,65,,,,8,24,8,9,0.4,0.6
2025-02-16T0200,1745A,118.9576,42.2728,赤峰市,哈达街,,23,14,78,11,19,73,,,,8,25,7,8,0.6,0.7
2025-02-16T0200,1746A,118.8788,42.2554,赤峰市,天义路,,19,6,81,3,20,58,,,,8,19,8,8,0.2,0.4
2025-02-16T0200,3058A,119.2658,42.0353,赤峰市,银河街,,25,,70,17,31,51,,,,15,21,16,17,0.4,0.7
2025-02-16T0200,3286A,118.9359,42.3147,赤峰市,桥北物流园区,,20,,66,10,24,61,,,,11,25,5,6,0.4,0.5
2025-02-16T0200,2521A,107.3476,22.4136,崇左市,市环保局江州分局,,18,18,51,11,32,16,,,,12,17,4,4,0.7,0.9
2025-02-16T0200,4256A,107.3750,22.3736,崇左市,石景林东路7号,,20,20,39,13,32,21,,,,12,18,4,4,0.7,0.9
2025-02-16T0200,2298A,118.3093,32.3153,滁州市,老年大学,细颗粒物(PM2.5),105,97,99,79,78,38,,,,39,37,5,6,0.7,0.8
2025-02-16T0200,2299A,118.3244,32.2786,滁州市,人大宾馆,细颗粒物(PM2.5),100,85,102,75,82,73,,,,26,45,7,9,0.7,0.9
2025-02-16T0200,3207A,118.3118,32.3038,滁州市,市政府原办公楼,细颗粒物(PM2.5),94,80,87,70,76,57,,,,27,40,4,7,0.5,0.7
2025-02-16T0200,3331A,118.3267,32.2634,滁州市,图书馆,细颗粒物(PM2.5),95,105,104,71,76,66,,,,19,35,6,8,0.7,0.9
2025-02-16T0200,2605A,101.5482,25.0441,楚雄彝族自治州,州环境监测站,细颗粒物(PM2.5),78,78,45,57,34,24,,,,53,19,15,7,0.8,0.6
2025-02-16T0200,2606A,101.538,25.0492,楚雄彝族自治州,市经济开发区,细颗粒物(PM2.5),72,68,46,52,36,52,,,,24,17,8,7,0.8,0.5
2025-02-16T0200,2548A,107.5277,31.2827,达州市,达州职业技术学院,颗粒物(PM10),58,66,51,40,33,0,,,,24,20,5,5,0.6,0.6
2025-02-16T0200,2549A,107.5086,31.2186,达州市,市环境监测站,颗粒物(PM10),59,67,50,41,29,3,,,,38,34,5,5,0.7,0.7
2025-02-16T0200,2550A,107.4988,31.2132,达州市,凤凰小区,细颗粒物(PM2.5),58,58,48,41,31,6,,,,37,32,6,7,0.8,0.8
2025-02-16T0200,2552A,107.4644,31.2124,达州市,市政中心,颗粒物(PM10),59,68,59,41,30,2,,,,40,35,3,4,0.9,0.9
2025-02-16T0200,2614A,100.1542,25.7054,大理白族自治州,大理市环境监测站,,39,31,29,27,25,97,,,,3,6,6,6,0.5,0.6
2025-02-16T0200,2615A,100.2171,25.5811,大理白族自治州,大理古城,,31,18,28,14,21,97,,,,2,7,6,6,0.5,0.6
2025-02-16T0200,1109A,121.612,38.9741,大连市,甘井子,颗粒物(PM10),95,140,120,67,84,27,,,,52,47,6,10,1.2,1.1
2025-02-16T0200,1110A,121.565,38.9511,大连市,周水子,细颗粒物(PM2.5),150,129,116,115,98,27,,,,42,38,7,12,1.1,1.4
2025-02-16T0200,1111A,121.5637,38.8845,大连市,星海三站,细颗粒物(PM2.5),120,130,110,91,78,44,,,,36,31,6,11,1.3,1.2
2025-02-16T0200,1112A,121.6302,38.9117,大连市,青泥洼桥,细颗粒物(PM2.5),138,155,113,105,81,14,,,,65,36,10,15,1.2,1
2025-02-16T0200,1113A,121.6251,38.8638,大连市,傅家庄,细颗粒物(PM2.5),113,116,114,85,85,47,,,,33,29,11,12,0.9,0.8
2025-02-16T0200,1114A,121.5213,38.8661,大连市,七贤岭,细颗粒物(PM2.5),128,175,115,97,72,49,,,,24,25,7,11,0.9,0.9
2025-02-16T0200,1115A,121.2529,38.8061,大连市,旅顺,细颗粒物(PM2.5),127,158,114,96,81,37,,,,48,36,10,10,1.2,1
2025-02-16T0200,1117A,121.7811,39.0496,大连市,开发区,细颗粒物(PM2.5),134,129,130,102,100,23,,,,42,53,13,13,1.8,1.4
2025-02-16T0200,1118A,121.9762,39.0631,大连市,双D港,细颗粒物(PM2.5),119,92,84,90,76,58,,,,27,32,7,7,1.5,1.2
2025-02-16T0200,1789A,124.81117,46.03138,大庆市,大同区,,45,31,84,31,66,69,,,,12,21,5,9,0.5,0.9
2025-02-16T0200,1790A,125.129,46.533,大庆市,龙凤区,,34,34,52,23,37,70,,,,19,19,9,10,0.4,0.5
2025-02-16T0200,1791A,124.902,46.408,大庆市,红岗区,,42,30,56,29,42,74,,,,11,18,6,10,0.4,0.6
2025-02-16T0200,1792A,125.153,46.586,大庆市,萨尔图区,,35,28,48,24,33,72,,,,22,19,8,9,0.2,0.3
2025-02-16T0200,1793A,124.9042,46.6215,大庆市,让胡路区,,43,31,43,30,38,74,,,,8,13,7,10,0.3,0.4
2025-02-16T0200,3481A,125.141,46.634,大庆市,萨区政府监测点,,40,40,44,24,29,66,,,,20,13,5,8,0.5,0.4
2025-02-16T0200,1723A,113.2994,40.0758,大同市,云冈宾馆,,23,23,111,8,20,70,,,,5,16,9,11,0.7,0.6
2025-02-16T0200,1724A,113.3444,40.0917,大同市,大同大学,,22,22,96,8,26,69,,,,7,18,11,15,0.4,0.5
2025-02-16T0200,1725A,113.2661,40.1269,大同市,安家小村,,21,21,107,3,21,66,,,,8,12,8,10,0.5,0.5
2025-02-16T0200,1726A,113.2711,40.0844,大同市,教育学院,细颗粒物(PM2.5),92,,107,68,26,68,,,,13,21,7,10,0.5,0.5
2025-02-16T0200,3282A,113.3397,40.0597,大同市,大同市卫生学校,,23,15,104,11,26,71,,,,6,21,6,10,0.5,0.5
2025-02-16T0200,3565A,113.1367,40.1122,大同市,云冈站,,33,33,104,13,29,49,,,,18,23,14,17,0.5,0.5
2025-02-16T0200,3566A,113.1186,40.2556,大同市,图书馆,,35,35,109,16,29,52,,,,19,13,19,13,1.0,0.6
2025-02-16T0200,3567A,113.5931,40.0461,大同市,区一中,,22,22,109,10,19,64,,,,9,21,15,24,0.4,0.5
2025-02-16T0200,4199A,113.2798,40.0997,大同市,魏都大道141号,,25,25,107,9,25,62,,,,13,21,13,15,0.6,0.5
2025-02-16T0200,2269A,124.1069,50.4097,大兴安岭地区,科技局,,47,47,27,29,20,62,,,,5,7,9,10,0.3,0.3
2025-02-16T0200,3663A,124.1164,50.4278,大兴安岭地区,红旗社区,,19,19,32,13,20,42,,,,15,23,9,10,0.4,0.4
2025-02-16T0200,1600A,124.3303,40.0625,丹东市,江湾东路,细颗粒物(PM2.5),74,72,96,54,66,77,,,,15,19,10,16,1.0,1.5
2025-02-16T0200,1601A,124.4256,40.1503,丹东市,临江后街,细颗粒物(PM2.5),83,82,91,61,65,72,,,,15,22,9,12,1.2,1.3
2025-02-16T0200,1602A,124.3933,40.1461,丹东市,元宝山,细颗粒物(PM2.5),82,77,85,60,60,64,,,,17,23,7,10,0.7,0.9
2025-02-16T0200,1603A,124.3633,40.1092,丹东市,民主桥,细颗粒物(PM2.5),89,83,98,66,66,39,,,,34,28,7,8,1.5,1.3
2025-02-16T0200,3541A,109.5726,19.5167,儋州市,第一中学子站,,17,6,17,3,6,53,,,,2,4,2,2,0.7,0.8
2025-02-16T0200,3542A,109.5567,19.5187,儋州市,东坡学校子站,,19,13,14,3,7,58,,,,2,5,2,5,0.5,0.6
2025-02-16T0200,2616A,98.5842,24.428,德宏傣族景颇族自治州,德宏州监测站,细颗粒物(PM2.5),82,71,68,60,53,24,,,,51,27,10,12,0.8,0.7
2025-02-16T0200,3677A,98.5881,24.4368,德宏傣族景颇族自治州,芒市人民政府综合楼,细颗粒物(PM2.5),80,85,80,59,48,62,,,,12,15,7,9,0.6,0.6
2025-02-16T0200,1901A,104.4239,31.1208,德阳市,东山公园,细颗粒物(PM2.5),58,55,44,41,33,42,,,,20,23,3,3,0.8,0.7
2025-02-16T0200,1902A,104.3826,31.1317,德阳市,西小区,细颗粒物(PM2.5),63,66,55,45,38,31,,,,37,35,5,4,0.7,0.7
2025-02-16T0200,1904A,104.3553,31.1091,德阳市,耐火材料厂,细颗粒物(PM2.5),65,72,55,47,38,16,,,,48,32,5,4,0.8,0.8
2025-02-16T0200,3639A,104.4019,31.1244,德阳市,市教育局,细颗粒物(PM2.5),67,59,47,48,35,33,,,,34,33,4,4,0.8,0.7
2025-02-16T0200,1622A,116.3032,37.4674,德州市,儿童乐园,颗粒物(PM10),81,112,126,34,58,30,,,,57,38,10,13,0.8,1.1
2025-02-16T0200,1624A,116.2991,37.4451,德州市,监理站,颗粒物(PM10),84,117,123,34,55,43,,,,50,46,13,21,0.7,1
2025-02-16T0200,3066A,116.2721,37.4379,德州市,九衢泉纯净水厂,颗粒物(PM10),89,127,123,31,56,34,,,,56,44,13,16,0.9,1
2025-02-16T0200,3371A,116.3728,37.4403,德州市,开发区人民医院,颗粒物(PM10),82,114,113,29,49,51,,,,36,41,13,16,0.6,0.9
2025-02-16T0200,3372A,116.3572,37.4094,德州市,太阳城中学,颗粒物(PM10),81,112,117,29,56,62,,,,28,39,12,16,0.4,0.6
2025-02-16T0200,3511A,116.5652,37.3319,德州市,陵城艺术中心,颗粒物(PM10),89,127,118,41,55,16,,,,69,41,16,16,0.8,0.9
2025-02-16T0200,2621A,99.7056,27.8317,迪庆藏族自治州,迪庆州站,,28,22,30,14,17,87,,,,6,9,8,8,0.5,0.5
2025-02-16T0200,3180A,99.7136,27.8094,迪庆藏族自治州,质量技术监督局,,25,,24,17,16,80,,,,5,9,8,8,0.5,0.6
2025-02-16T0200,2663A,104.6241,35.5734,定西市,东关小学,颗粒物(PM10),76,102,80,38,32,30,,,,30,15,17,17,1.2,1
2025-02-16T0200,4257A,104.6092,35.5962,定西市,将台街,颗粒物(PM10),62,74,67,36,31,16,,,,44,29,18,20,0.5,0.9
2025-02-16T0200,1389A,113.7547,23.0494,东莞市,莞城梨川,细颗粒物(PM2.5),79,86,54,58,35,7,,,,70,37,7,6,0.7,0.5
2025-02-16T0200,1390A,113.7944,23.0128,东莞市,东城石井,细颗粒物(PM2.5),65,61,45,47,33,4,,,,49,30,8,7,0.6,0.5
2025-02-16T0200,1391A,113.7383,22.9658,东莞市,南城西平,,28,27,36,19,26,57,,,,18,34,5,5,0.3,0.5
2025-02-16T0200,3319A,113.7338,23.0381,东莞市,万江金泰,细颗粒物(PM2.5),69,82,50,50,30,12,,,,75,30,5,3,0.6,0.5
2025-02-16T0200,3626A,113.7533,23.0202,东莞市,南城元岭,颗粒物(PM10),51,51,47,31,31,13,,,,57,30,8,8,0.7,0.8
2025-02-16T0200,3627A,113.7875,23.0457,东莞市,东城主山,细颗粒物(PM2.5),68,72,50,49,32,8,,,,54,33,7,5,0.6,0.5
2025-02-16T0200,1666A,118.6614,37.4309,东营市,市环保局,细颗粒物(PM2.5),104,136,125,78,70,25,,,,65,49,16,15,0.6,0.6
2025-02-16T0200,3036A,118.6904,37.4338,东营市,开发区管委会,细颗粒物(PM2.5),110,142,135,83,75,38,,,,64,56,16,16,0.8,0.9
2025-02-16T0200,3365A,118.5719,37.565,东营市,垦利区民丰路,细颗粒物(PM2.5),128,168,150,97,77,12,,,,79,55,15,20,2.5,1.1
2025-02-16T0200,3498A,118.5055,37.8612,东营市,河口城区,细颗粒物(PM2.5),140,210,158,107,71,17,,,,64,39,15,14,1.1,0.9
2025-02-16T0200,3646A,118.4978,37.4623,东营市,胜利站,细颗粒物(PM2.5),125,167,143,95,77,12,,,,81,62,28,20,1.1,1
2025-02-16T0200,3734A,118.35,37.26,东营市,理想之城,细颗粒物(PM2.5),132,156,139,100,77,7,,,,103,71,21,21,1.0,1
2025-02-16T0200,1591A,110.0023,39.8129,鄂尔多斯市,综合楼,,36,36,90,12,17,57,,,,29,13,9,7,0.3,0.3
2025-02-16T0200,1592A,109.9486,39.8261,鄂尔多斯市,巴音孟克林场办事处,颗粒物(PM10),51,51,87,12,20,29,,,,54,15,15,8,0.3,0.3
2025-02-16T0200,1593A,109.7736,39.5986,鄂尔多斯市,康泽苑,颗粒物(PM10),54,58,108,19,24,68,,,,9,7,5,5,0.4,0.3
2025-02-16T0200,1594A,109.8119,39.5989,鄂尔多斯市,华泰汽车城,颗粒物(PM10),52,53,104,19,27,58,,,,13,9,3,4,0.3,0.3
2025-02-16T0200,1595A,109.9734,39.7884,鄂尔多斯市,奥林花园,,41,41,93,7,17,45,,,,38,18,10,15,0.4,0.4
2025-02-16T0200,2436A,114.8938,30.3994,鄂州市,市政府,细颗粒物(PM2.5),89,85,84,66,68,50,,,,30,26,7,8,1.1,1.3
2025-02-16T0200,2437A,114.8989,30.3714,鄂州市,赵家坝,细颗粒物(PM2.5),94,86,85,70,67,57,,,,21,19,7,2,0.8,1
2025-02-16T0200,3654A,114.8094,30.4089,鄂州市,精准医疗中心,细颗粒物(PM2.5),95,90,80,71,65,54,,,,28,23,4,5,0.7,0.8
2025-02-16T0200,2454A,109.4978,30.2981,恩施土家族苗族自治州,湖北民院,,48,42,33,33,28,15,,,,28,20,3,3,0.2,0.2
2025-02-16T0200,2455A,109.4707,30.2798,恩施土家族苗族自治州,州电力总公司,细颗粒物(PM2.5),63,53,39,45,32,7,,,,28,20,3,3,1.0,0.9
2025-02-16T0200,3549A,109.5061,30.3772,恩施土家族苗族自治州,龙凤新区,,30,30,28,21,20,24,,,,6,9,6,6,0.5,0.5
2025-02-16T0200,2499A,108.3411,21.6158,防城港市,沙万,,25,24,28,17,22,31,,,,10,14,7,7,0.7,0.8
2025-02-16T0200,2500A,108.3514,21.7731,防城港市,防城档案局,,28,28,24,18,18,23,,,,13,13,4,4,0.7,0.8
2025-02-16T0200,2501A,108.3506,21.6414,防城港市,大海花园,,35,30,26,24,27,36,,,,10,13,4,4,0.8,0.8
2025-02-16T0200,1371A,113.1294,23.0067,佛山市,湾梁,颗粒物(PM10),67,83,59,38,24,4,,,,77,46,6,7,0.7,0.5
2025-02-16T0200,1372A,113.1083,23.0478,佛山市,华材职中,细颗粒物(PM2.5),84,78,54,62,35,9,,,,75,45,8,8,1.0,0.8
2025-02-16T0200,1373A,113.144,23.0453,佛山市,南海气象局,颗粒物(PM10),58,65,44,40,28,2,,,,73,44,8,8,0.6,0.4
2025-02-16T0200,1374A,113.2881,22.8094,佛山市,顺德苏岗,颗粒物(PM10),60,70,45,36,28,0,,,,59,34,5,5,0.9,0.7
2025-02-16T0200,1376A,112.8383,22.8678,佛山市,高明孔堂,颗粒物(PM10),66,81,38,37,24,10,,,,50,24,4,4,0.8,0.7
2025-02-16T0200,1377A,112.8836,23.1588,佛山市,三水监测站,细颗粒物(PM2.5),72,88,53,52,33,4,,,,62,49,3,3,0.9,0.7
2025-02-16T0200,1378A,112.867,23.185,佛山市,三水云东海,细颗粒物(PM2.5),84,73,49,62,34,0,,,,59,46,3,3,0.9,0.7
2025-02-16T0200,3625A,113.2544,22.7642,佛山市,容桂街道办,,35,31,32,24,25,48,,,,26,32,6,7,0.7,0.7
2025-02-16T0200,1282A,119.2681,26.0504,福州市,师大,细颗粒物(PM2.5),97,79,46,72,38,23,,,,37,27,5,4,0.8,0.6
2025-02-16T0200,1283A,119.2984,26.1028,福州市,五四北路,细颗粒物(PM2.5),79,61,48,58,41,4,,,,51,35,4,4,0.9,0.7
2025-02-16T0200,1284A,119.2648,26.0768,福州市,杨桥西路,细颗粒物(PM2.5),83,73,46,61,36,19,,,,34,28,4,5,0.7,0.5
2025-02-16T0200,1285A,119.317,26.0746,福州市,紫阳,细颗粒物(PM2.5),115,93,66,87,58,16,,,,46,43,7,6,1.0,0.8
2025-02-16T0200,3048A,119.5799,26.0936,福州市,九龙,细颗粒物(PM2.5),85,68,40,63,40,13,,,,28,25,4,4,0.8,0.7
2025-02-16T0200,3526A,119.5189,25.9664,福州市,吴航,细颗粒物(PM2.5),74,72,54,54,39,14,,,,47,35,5,5,0.9,0.7
2025-02-16T0200,1755A,123.7977,41.8491,抚顺市,望花区,细颗粒物(PM2.5),158,148,119,120,91,20,,,,53,45,9,13,1.5,1.3
2025-02-16T0200,1756A,123.9161,41.8822,抚顺市,顺城区,细颗粒物(PM2.5),128,144,124,97,84,16,,,,64,55,8,10,1.5,1.4
2025-02-16T0200,1757A,124.0436,41.8611,抚顺市,东洲区,细颗粒物(PM2.5),113,119,100,85,68,46,,,,34,21,4,8,1.0,1
2025-02-16T0200,1758A,123.9247,41.8642,抚顺市,新抚区,细颗粒物(PM2.5),178,160,132,134,93,9,,,,76,64,5,7,1.3,1.1
2025-02-16T0200,1759A,124.0972,41.8961,抚顺市,大伙房水库,细颗粒物(PM2.5),115,115,95,87,72,39,,,,47,23,5,8,1.0,0.9
2025-02-16T0200,1760A,123.7086,41.8391,抚顺市,沈抚新城,细颗粒物(PM2.5),159,149,115,121,86,16,,,,70,38,6,9,1.7,1.3
2025-02-16T0200,2376A,116.2127,28.0814,抚州市,桐源党溪,,42,42,45,23,27,3,,,,7,4,1,1,0.6,0.6
2025-02-16T0200,2377A,116.3544,27.9831,抚州市,市站,,38,38,37,26,26,47,,,,16,15,4,6,0.7,0.9
2025-02-16T0200,2378A,116.3565,27.963,抚州市,血防站,,48,48,44,30,27,45,,,,17,15,7,10,0.9,1.1
2025-02-16T0200,2379A,116.3564,28.0007,抚州市,采茶剧团,,37,37,36,24,26,40,,,,9,7,5,5,1.3,1.5
2025-02-16T0200,2380A,116.385,27.9647,抚州市,医学分院,,43,43,38,22,23,21,,,,31,12,5,4,0.6,0.7
2025-02-16T0200,2207A,121.6094,41.998,阜新市,工业园区,颗粒物(PM10),69,87,142,8,79,87,,,,8,33,3,14,0.2,0.9
2025-02-16T0200,2208A,121.6697,42.0279,阜新市,长青街,,43,43,113,14,69,81,,,,7,32,6,13,0.2,0.8
2025-02-16T0200,2209A,121.6673,42.0705,阜新市,农业园区,颗粒物(PM10),54,58,120,7,64,78,,,,3,24,9,18,0.5,0.9
2025-02-16T0200,2210A,121.6717,42.0224,阜新市,东苑,颗粒物(PM10),53,56,120,3,66,76,,,,7,38,4,19,0.3,0.8
2025-02-16T0200,2211A,121.6506,42.0498,阜新市,玉龙新城,颗粒物(PM10),62,74,136,16,76,81,,,,7,39,7,16,0.2,0.8
2025-02-16T0200,2301A,115.8277,32.8929,阜阳市,市监测站,细颗粒物(PM2.5),65,76,102,47,74,77,,,,14,25,8,9,0.3,0.6
2025-02-16T0200,2303A,115.8554,32.8605,阜阳市,开发区,细颗粒物(PM2.5),85,111,132,63,70,64,,,,26,33,8,9,0.5,0.7
2025-02-16T0200,2875A,115.784,32.8892,阜阳市,阜阳职业技术学院,细颗粒物(PM2.5),78,81,104,57,69,68,,,,16,20,8,9,0.4,0.5
2025-02-16T0200,3468A,115.7901,32.8613,阜阳市,市规划展馆,细颗粒物(PM2.5),78,85,110,57,70,72,,,,20,21,8,9,0.7,0.8
2025-02-16T0200,3469A,115.836,32.9183,阜阳市,枣园社区,细颗粒物(PM2.5),72,84,110,52,67,82,,,,13,27,6,6,0.5,0.7
2025-02-16T0200,2669A,102.9099,34.9841,甘南藏族自治州,州政府,,40,40,48,21,22,50,,,,17,20,11,12,0.6,0.7
2025-02-16T0200,3380A,102.8914,34.9617,甘南藏族自治州,甘肃民族师范学院,颗粒物(PM10),56,61,51,13,17,25,,,,30,26,3,6,0.5,0.5
2025-02-16T0200,2570A,101.9603,30.0475,甘孜藏族自治州,水桥子,,16,13,13,8,7,51,,,,15,12,3,3,0.4,0.3
2025-02-16T0200,3065A,101.9533,29.9972,甘孜藏族自治州,州环保局,,19,16,15,3,6,60,,,,10,9,4,4,0.3,0.3
2025-02-16T0200,3414A,115.8347,28.932,赣江新区,桑海产业园,,19,,27,13,22,0,,,,36,19,6,6,0.8,0.6
2025-02-16T0200,2362A,114.9017,25.9149,赣州市,通天岩,颗粒物(PM10),59,68,70,19,18,32,,,,10,11,8,9,0.9,0.9
2025-02-16T0200,2363A,114.9367,25.8664,赣州市,地委,细颗粒物(PM2.5),62,57,75,44,53,37,,,,10,13,6,6,1.1,1.1
2025-02-16T0200,2364A,114.9461,25.8481,赣州市,气象台,颗粒物(PM10),55,60,84,37,48,45,,,,13,20,7,9,0.9,1
2025-02-16T0200,2365A,114.9322,25.8333,赣州市,市图书馆,细颗粒物(PM2.5),53,37,71,37,54,42,,,,13,18,4,4,1.0,1
2025-02-16T0200,2366A,114.8905,25.8471,赣州市,华坚鞋城,,49,43,72,34,49,36,,,,8,12,5,6,0.1,0.6
2025-02-16T0200,3109A,115.0093,25.8613,赣州市,赣县区卫计委,细颗粒物(PM2.5),53,44,62,37,50,36,,,,11,18,3,4,0.6,0.6
2025-02-16T0200,2683A,106.2319,36.1417,固原市,马园,颗粒物(PM10),86,122,86,37,31,6,,,,58,40,6,7,0.7,0.7
2025-02-16T0200,2684A,106.2792,36.0022,固原市,监测站,颗粒物(PM10),79,107,74,29,26,60,,,,20,23,9,9,1.1,0.9
2025-02-16T0200,2685A,106.2375,36.0211,固原市,新区,颗粒物(PM10),79,108,74,49,33,35,,,,44,33,6,6,0.7,0.7
2025-02-16T0200,3522A,106.2177,35.9959,固原市,原州区十五小,颗粒物(PM10),77,104,64,33,19,71,,,,11,13,7,8,0.7,0.5
2025-02-16T0200,2544A,106.6303,30.4576,广安市,市委,细颗粒物(PM2.5),80,72,52,59,41,10,,,,37,23,4,4,1.0,0.8
2025-02-16T0200,2545A,106.6271,30.4663,广安市,友谊中学,细颗粒物(PM2.5),80,69,54,59,43,7,,,,31,27,1,2,0.7,0.7
2025-02-16T0200,2547A,106.6388,30.4551,广安市,广电花园,细颗粒物(PM2.5),73,70,48,53,41,3,,,,33,24,3,3,0.8,0.5
2025-02-16T0200,2902A,106.6351,30.4865,广安市,北辰小学,细颗粒物(PM2.5),67,57,52,48,37,13,,,,23,23,3,4,0.9,0.9
2025-02-16T0200,2523A,105.8945,32.4535,广元市,黑石坡,,16,6,56,3,25,51,,,,2,6,4,9,0.4,0.6
2025-02-16T0200,2524A,105.821,32.4444,广元市,老城,颗粒物(PM10),57,63,57,37,28,0,,,,52,35,3,2,0.8,0.8
2025-02-16T0200,2526A,105.8628,32.4287,广元市,监测站,颗粒物(PM10),55,59,51,37,33,18,,,,35,18,5,5,0.7,0.5
2025-02-16T0200,3617A,105.8047,32.4166,广元市,经开区,细颗粒物(PM2.5),59,60,60,42,43,7,,,,43,32,2,5,0.5,0.7
2025-02-16T0200,1345A,113.2347,23.1423,广州市,广雅中学,颗粒物(PM10),60,69,40,38,26,6,,,,71,39,4,4,0.8,0.6
2025-02-16T0200,1346A,113.2612,23.105,广州市,市五中,,37,32,45,9,31,4,,,,73,41,3,2,0.9,0.7
2025-02-16T0200,1348A,113.3478,23.0916,广州市,广东商学院,颗粒物(PM10),68,86,43,48,33,2,,,,75,41,5,4,1.0,0.8
2025-02-16T0200,1349A,113.4332,23.1047,广州市,市八十六中,,40,36,41,19,25,3,,,,80,50,3,2,0.6,0.6
2025-02-16T0200,1350A,113.3505,22.9483,广州市,番禺中学,,44,44,32,28,25,14,,,,53,31,4,4,0.9,0.8
2025-02-16T0200,1351A,113.2146,23.3916,广州市,花都师范,细颗粒物(PM2.5),65,69,50,47,34,18,,,,27,40,6,5,0.8,0.8
2025-02-16T0200,1352A,113.2597,23.1331,广州市,市监测站,颗粒物(PM10),54,58,34,35,22,3,,,,74,38,5,5,0.9,0.7
2025-02-16T0200,1353A,113.5618,23.312,广州市,九龙镇镇龙,细颗粒物(PM2.5),55,56,55,39,39,1,,,,51,43,4,8,0.7,0.7
2025-02-16T0200,1354A,113.2765,23.1544,广州市,麓湖,,49,49,30,33,21,7,,,,60,34,3,2,0.7,0.6
2025-02-16T0200,1355A,113.443,23.3035,广州市,帽峰山森林公园,,31,31,36,13,16,34,,,,18,38,5,6,0.7,0.7
2025-02-16T0200,2846A,113.3221,23.1322,广州市,体育西,细颗粒物(PM2.5),65,70,45,47,32,2,,,,83,51,4,4,0.8,0.6
2025-02-16T0200,3298A,113.5717,23.5491,广州市,从化街口,细颗粒物(PM2.5),83,77,62,61,47,2,,,,46,33,12,8,0.9,0.8
2025-02-16T0200,3299A,113.3472,23.3692,广州市,白云竹料,细颗粒物(PM2.5),77,87,65,56,41,7,,,,53,47,6,6,1.0,0.8
2025-02-16T0200,3300A,113.2981,23.237,广州市,白云嘉禾,"颗粒物(PM10),细颗粒物(PM2.5)",60,70,49,43,32,3,,,,63,47,5,5,0.8,0.7
2025-02-16T0200,3301A,113.4256,23.1716,广州市,黄埔科学城,细颗粒物(PM2.5),54,55,48,38,33,5,,,,45,38,7,7,0.7,0.6
2025-02-16T0200,3302A,113.3942,23.0483,广州市,番禺大学城,颗粒物(PM10),67,84,64,31,22,0,,,,78,44,8,8,1.0,0.8
2025-02-16T0200,3303A,113.4922,22.8168,广州市,南沙黄阁,,44,44,32,24,21,14,,,,52,29,7,4,0.7,0.7
2025-02-16T0200,3304A,113.5342,22.7896,广州市,南沙街,,41,41,28,20,18,42,,,,24,31,4,5,0.6,0.7
2025-02-16T0200,3443A,113.2902,23.5544,广州市,花都梯面,颗粒物(PM10),59,67,53,41,30,33,,,,22,41,7,5,0.8,0.7
2025-02-16T0200,3445A,113.7858,23.7478,广州市,从化良口,,25,19,28,17,26,18,,,,17,17,5,5,0.6,0.6
2025-02-16T0200,3446A,113.8051,23.2614,广州市,增城荔城,细颗粒物(PM2.5),64,62,63,46,46,21,,,,23,26,5,5,0.7,0.7
2025-02-16T0200,2506A,109.6047,23.0666,贵港市,江南子站,细颗粒物(PM2.5),54,44,65,38,59,23,,,,18,23,8,8,0.3,0.6
2025-02-16T0200,2507A,109.6014,23.0948,贵港市,贵城子站,,47,47,63,30,44,20,,,,16,21,6,7,0.9,1.1
2025-02-16T0200,2508A,109.5669,23.1065,贵港市,荷城子站,,42,31,49,29,43,23,,,,14,17,9,9,0.7,0.9
2025-02-16T0200,3405A,109.5886,23.1172,贵港市,新世纪学校,,39,39,58,25,49,24,,,,11,19,2,8,0.7,0.8
2025-02-16T0200,1439A,106.6899,26.5998,贵阳市,马鞍山,颗粒物(PM10),52,53,34,27,15,36,,,,10,11,4,5,0.4,0.4
2025-02-16T0200,1441A,106.6243,26.6266,贵阳市,鉴湖路,,46,46,39,22,23,49,,,,11,12,12,11,0.5,0.5
2025-02-16T0200,1442A,106.7487,26.6343,贵阳市,燕子冲,,32,29,19,22,18,52,,,,9,11,8,8,0.5,0.5
2025-02-16T0200,1443A,106.6555,26.4365,贵阳市,碧云窝,,44,44,36,24,19,53,,,,14,19,13,13,0.6,0.5
2025-02-16T0200,1445A,106.7109,26.6027,贵阳市,红边门,,42,41,32,29,23,58,,,,11,13,10,12,0.5,0.6
2025-02-16T0200,1446A,106.7164,26.5699,贵阳市,新华路,,44,44,33,19,16,56,,,,10,13,9,12,0.5,0.6
2025-02-16T0200,1447A,106.674,26.5424,贵阳市,太慈桥,,42,29,23,29,18,46,,,,12,16,7,9,0.5,0.4
2025-02-16T0200,4230A,106.6882,26.5695,贵阳市,花果园大街66号,,,,22,37,26,40,,,,14,15,7,8,0.4,0.3
2025-02-16T0200,4231A,106.6873,26.5169,贵阳市,漓江路57号,,39,39,30,27,21,55,,,,14,19,11,12,0.5,0.5
2025-02-16T0200,1862A,110.4144,25.3167,桂林市,电子科大尧山校区,,22,,26,15,28,40,,,,9,10,4,4,0.8,1
2025-02-16T0200,1864A,110.3089,25.2708,桂林市,龙隐路小学,,26,,39,18,40,40,,,,14,16,14,11,0.8,0.9
2025-02-16T0200,1865A,110.2869,25.2178,桂林市,八中,,28,,40,19,39,34,,,,14,18,9,8,0.9,1
2025-02-16T0200,3531A,110.296,25.1253,桂林市,旅游学院,,20,14,39,14,44,29,,,,17,19,6,6,0.9,1
2025-02-16T0200,4222A,110.1835,25.2444,桂林市,环湖路276号,,20,,36,14,36,41,,,,12,14,6,6,0.8,0.9
2025-02-16T0200,2674A,100.2561,34.4714,果洛藏族自治州,玛沁县大武镇,,39,39,38,16,15,65,,,,5,3,17,15,0.4,0.4
2025-02-16T0200,1129A,126.5422,45.755,哈尔滨市,岭北,,26,19,78,18,62,72,,,,16,34,9,16,0.7,0.9
2025-02-16T0200,1130A,126.561,45.8167,哈尔滨市,松北商大,,43,,84,30,66,68,,,,10,31,7,6,0.5,0.9
2025-02-16T0200,1131A,126.979,45.5419,哈尔滨市,阿城会宁,细颗粒物(PM2.5),62,46,89,44,67,64,,,,18,26,1,11,0.6,0.8
2025-02-16T0200,1132A,126.599,45.7222,哈尔滨市,南岗学府路,,42,42,101,19,61,69,,,,15,31,4,11,0.5,0.9
2025-02-16T0200,1133A,126.689,45.7733,哈尔滨市,太平宏伟公园,,39,,97,27,64,62,,,,16,33,7,7,0.5,0.7
2025-02-16T0200,1134A,126.635,45.7667,哈尔滨市,道外承德广场,,46,46,111,27,70,57,,,,20,32,11,12,1.0,1.2
2025-02-16T0200,1135A,126.685,45.7319,哈尔滨市,香坊红旗大街,,41,41,106,17,73,59,,,,16,33,13,23,0.6,1
2025-02-16T0200,1136A,126.6411,45.7258,哈尔滨市,动力和平路,,36,30,92,25,66,51,,,,26,31,8,15,0.7,1
2025-02-16T0200,1137A,126.593,45.7478,哈尔滨市,道里建国路,,33,25,90,23,67,58,,,,14,33,6,21,0.4,1
2025-02-16T0200,1138A,126.615,45.61,哈尔滨市,平房东轻厂,,38,,76,26,55,56,,,,16,23,1,6,0.5,0.7
2025-02-16T0200,1139A,126.595,45.9855,哈尔滨市,呼兰师专,,22,,86,15,76,61,,,,13,29,5,11,0.6,1
2025-02-16T0200,1140A,126.6206,45.6842,哈尔滨市,省农科院,,43,32,102,30,73,64,,,,13,30,10,16,0.6,0.9
2025-02-16T0200,2688A,93.5128,42.8172,哈密市,地区监测站,颗粒物(PM10),54,58,79,16,25,70,,,,13,20,4,7,0.2,0.3
2025-02-16T0200,2689A,93.4961,42.8328,哈密市,哈密师范学校,,40,40,57,19,21,52,,,,24,24,6,6,0.7,0.7
2025-02-16T0200,2671A,100.9048,36.9639,海北藏族自治州,海晏县西海镇,,21,17,33,11,17,67,,,,2,5,9,10,0.4,0.5
2025-02-16T0200,3867A,102.0738,36.5056,海东市,平安区公安北苑,细颗粒物(PM2.5),54,52,52,38,29,64,,,,4,12,5,5,0.4,0.5
2025-02-16T0200,1409A,110.576,19.9507,海口市,东寨港,,17,17,13,7,11,52,,,,4,4,1,2,0.5,0.5
2025-02-16T0200,1410A,110.3232,20.0574,海口市,海南大学,,19,16,23,8,14,60,,,,9,13,5,6,0.4,0.4
2025-02-16T0200,1411A,110.283,20.0053,海口市,秀英海南医院,,23,23,18,7,12,63,,,,6,13,4,4,0.3,0.4
2025-02-16T0200,1412A,110.338,19.9969,海口市,海南师范大学,,21,21,23,8,13,66,,,,6,9,5,5,0.5,0.5
2025-02-16T0200,1413A,110.33,20.0356,海口市,龙华路环保局宿舍,,20,19,20,8,14,63,,,,4,10,6,6,0.3,0.4
2025-02-16T0200,3539A,110.5111,19.9736,海口市,桂林洋子站,,19,18,16,9,9,59,,,,4,4,5,5,0.3,0.4
2025-02-16T0200,2673A,100.6188,36.2866,海南藏族自治州,共和县恰卜恰镇,,38,38,33,12,11,50,,,,25,11,10,9,0.5,0.4
2025-02-16T0200,2676A,97.3731,37.3753,海西蒙古族藏族自治州,德令哈市,,36,36,42,21,17,88,,,,4,8,16,17,0.4,0.5
2025-02-16T0200,1048A,114.5302,36.6116,邯郸市,东污水处理厂,颗粒物(PM10),64,78,63,3,30,80,,,,6,26,1,14,0.2,1
2025-02-16T0200,1049A,114.4918,36.5713,邯郸市,矿院,颗粒物(PM10),63,76,73,9,38,68,,,,8,31,2,11,0.3,1
2025-02-16T0200,1050A,114.484,36.6133,邯郸市,丛台公园,,,84,61,16,31,,,,,10,25,7,19,0.3,1
2025-02-16T0200,3458A,114.7895,36.5593,邯郸市,香泉濮院小区,颗粒物(PM10),69,88,89,19,41,58,,,,23,35,6,14,0.4,0.9
2025-02-16T0200,3579A,114.50634,36.77178,邯郸市,永年区实验高中,颗粒物(PM10),80,110,92,23,34,71,,,,14,45,3,25,0.4,1.4
2025-02-16T0200,3580A,114.20016,36.44293,邯郸市,峰峰矿区临水派出所,颗粒物(PM10),87,123,59,19,17,74,,,,13,15,11,12,0.7,0.5
2025-02-16T0200,2634A,106.9893,33.1842,汉中市,汉川机床厂子校,细颗粒物(PM2.5),55,51,42,39,31,49,,,,6,7,6,7,1.0,1.1
2025-02-16T0200,2635A,107.0154,33.0706,汉中市,市监测站,细颗粒物(PM2.5),94,89,62,70,43,12,,,,52,33,7,7,1.7,1.4
2025-02-16T0200,2636A,107.0089,33.1138,汉中市,鑫源开发区,细颗粒物(PM2.5),90,87,62,67,46,13,,,,60,35,9,8,1.2,1
2025-02-16T0200,2637A,107.007,33.0323,汉中市,南郑大河坎水厂,细颗粒物(PM2.5),62,67,54,44,34,25,,,,30,24,6,8,0.9,0.8
2025-02-16T0200,1223A,120.2072,30.2111,杭州市,滨江,细颗粒物(PM2.5),60,54,71,43,60,2,,,,52,53,6,6,1.0,0.9
2025-02-16T0200,1224A,120.0633,30.2747,杭州市,西溪,颗粒物(PM10),51,52,84,28,50,3,,,,28,38,6,6,0.8,0.7
2025-02-16T0200,1226A,120.3461,30.3153,杭州市,下沙,细颗粒物(PM2.5),69,50,66,50,70,2,,,,63,63,8,8,1.1,1
2025-02-16T0200,1227A,120.1269,30.2456,杭州市,卧龙桥,,44,44,72,29,50,4,,,,28,40,5,5,0.9,0.9
2025-02-16T0200,1228A,120.1903,30.2692,杭州市,浙江农大,细颗粒物(PM2.5),60,45,75,43,62,1,,,,44,54,7,6,0.9,0.8
2025-02-16T0200,1230A,120.1197,30.3119,杭州市,和睦小学,细颗粒物(PM2.5),69,69,84,50,61,2,,,,45,51,6,7,1.1,0.9
2025-02-16T0200,1231A,120.3019,30.4183,杭州市,临平镇,细颗粒物(PM2.5),98,75,92,73,88,3,,,,47,49,5,5,1.0,0.9
2025-02-16T0200,1232A,120.2697,30.1819,杭州市,城厢镇,细颗粒物(PM2.5),82,70,93,60,70,2,,,,52,59,6,6,1.0,1
2025-02-16T0200,1233A,120.0883,30.1808,杭州市,云栖,,49,48,77,34,60,5,,,,27,42,6,6,0.8,0.8
2025-02-16T0200,3557A,119.9464,30.0494,杭州市,镇二中,细颗粒物(PM2.5),57,48,60,40,48,2,,,,40,45,5,6,1.3,1.2
2025-02-16T0200,3558A,119.7183,30.2367,杭州市,市府大楼,细颗粒物(PM2.5),57,56,78,40,57,4,,,,35,36,7,7,1.2,1
2025-02-16T0200,3656A,120.1556,30.2864,杭州市,消防大队,细颗粒物(PM2.5),74,65,84,54,69,4,,,,45,49,6,6,1.1,1
2025-02-16T0200,1270A,117.1959,31.7848,合肥市,明珠广场,细颗粒物(PM2.5),98,92,94,73,70,16,,,,52,40,7,8,0.8,0.9
2025-02-16T0200,1271A,117.3072,31.8764,合肥市,三里街,细颗粒物(PM2.5),94,105,107,70,72,1,,,,64,51,5,6,0.6,0.7
2025-02-16T0200,1272A,117.2588,31.8707,合肥市,琥珀山庄,细颗粒物(PM2.5),97,90,98,72,75,7,,,,72,50,7,7,1.0,0.9
2025-02-16T0200,1273A,117.1604,31.9052,合肥市,董铺水库,细颗粒物(PM2.5),79,95,94,58,56,17,,,,48,29,2,3,0.6,0.6
2025-02-16T0200,1274A,117.25,31.8571,合肥市,长江中路,细颗粒物(PM2.5),98,83,100,73,74,29,,,,49,41,7,8,0.9,1
2025-02-16T0200,1275A,117.266,31.9436,合肥市,庐阳区,细颗粒物(PM2.5),94,95,102,70,68,23,,,,61,42,3,4,0.7,0.7
2025-02-16T0200,1276A,117.336,31.8586,合肥市,瑶海区,细颗粒物(PM2.5),103,95,104,77,72,10,,,,51,52,6,7,0.9,1
2025-02-16T0200,1277A,117.3027,31.7964,合肥市,包河区,细颗粒物(PM2.5),104,95,96,78,72,12,,,,46,35,4,5,0.7,0.8
2025-02-16T0200,1278A,117.2776,31.7385,合肥市,滨湖新区,颗粒物(PM10),76,102,97,53,57,0,,,,59,38,4,4,0.5,0.6
2025-02-16T0200,1279A,117.1318,31.8403,合肥市,高新区,细颗粒物(PM2.5),80,90,90,59,65,43,,,,36,34,2,3,0.6,0.7
2025-02-16T0200,3464A,117.3803,31.9147,合肥市,高教基地,细颗粒物(PM2.5),89,94,102,66,73,19,,,,40,42,5,7,0.6,0.7
2025-02-16T0200,3614A,79.924,37.0877,和田地区,地区环保局,颗粒物(PM10),500,714,710,164,155,42,,,,7,4,18,6,1.3,0.7
2025-02-16T0200,3615A,79.9131,37.113,和田地区,市环保局,颗粒物(PM10),500,682,674,147,121,30,,,,32,17,5,2,7.5,1.9
2025-02-16T0200,2516A,108.2011,24.715,河池市,东仁乐园,,30,30,19,20,10,9,,,,28,12,6,6,0.9,0.9
2025-02-16T0200,2517A,108.0497,24.6947,河池市,市环保站,,32,31,18,22,12,14,,,,17,10,10,9,0.7,0.6
2025-02-16T0200,2518A,108.0983,24.6989,河池市,市疾控中心,,49,40,21,34,16,7,,,,19,11,6,6,0.7,0.6
2025-02-16T0200,1696A,114.6778,23.7569,河源市,源西,细颗粒物(PM2.5),62,,41,44,43,13,,,,35,28,4,5,0.7,0.7
2025-02-16T0200,1697A,114.6944,23.7586,河源市,东埔,细颗粒物(PM2.5),77,60,39,56,44,1,,,,56,28,3,3,0.8,0.8
2025-02-16T0200,1698A,114.6892,23.7233,河源市,老城,细颗粒物(PM2.5),55,42,42,39,45,12,,,,32,18,4,4,0.8,0.8
2025-02-16T0200,1718A,115.4208,35.2464,菏泽市,气象局,颗粒物(PM10),83,116,121,41,62,46,,,,35,35,11,9,0.5,0.6
2025-02-16T0200,3374A,115.5564,35.0891,菏泽市,定陶老年大学,细颗粒物(PM2.5),77,100,104,56,58,39,,,,37,28,7,8,0.8,0.8
2025-02-16T0200,4184A,115.4797,35.24401,菏泽市,永昌路1号,颗粒物(PM10),72,94,99,34,57,60,,,,29,34,12,11,0.5,0.7
2025-02-16T0200,4193A,115.4715,35.2800,菏泽市,长城路999号,颗粒物(PM10),75,99,105,31,50,44,,,,38,36,12,12,0.9,1
2025-02-16T0200,2514A,111.5264,24.4172,贺州市,环保小区,细颗粒物(PM2.5),58,,73,41,67,44,,,,10,15,5,6,1.0,1.1
2025-02-16T0200,2515A,111.5608,24.4078,贺州市,政协大楼,细颗粒物(PM2.5),64,47,76,46,70,38,,,,12,16,7,7,0.9,1
2025-02-16T0200,3534A,111.4744,24.4553,贺州市,西湾,细颗粒物(PM2.5),63,47,81,45,71,41,,,,10,14,6,7,0.9,1
2025-02-16T0200,2385A,114.17,35.9019,鹤壁市,市监测站,颗粒物(PM10),81,111,72,34,26,58,,,,32,32,4,3,0.3,0.5
2025-02-16T0200,2386A,114.2956,35.7511,鹤壁市,市交警支队,颗粒物(PM10),66,82,85,16,36,69,,,,14,42,7,4,0.2,0.5
2025-02-16T0200,2387A,114.2878,35.7306,鹤壁市,迎宾馆,颗粒物(PM10),78,106,98,18,34,72,,,,10,35,7,5,0.6,0.7
2025-02-16T0200,3474A,114.2617,35.6822,鹤壁市,大新区,颗粒物(PM10),63,76,84,14,39,68,,,,19,46,9,7,0.3,0.5
2025-02-16T0200,3596A,114.1572,35.9603,鹤壁市,南山宾馆,颗粒物(PM10),74,98,55,31,31,80,,,,10,12,12,11,0.2,0.2
2025-02-16T0200,2244A,130.2537,47.3416,鹤岗市,哈啤分公司,,25,,32,17,27,62,,,,2,10,12,14,0.3,0.5
2025-02-16T0200,2245A,130.2684,47.3086,鹤岗市,斯达机电,,25,25,32,15,23,62,,,,3,12,13,16,0.2,0.3
2025-02-16T0200,2246A,130.3114,47.3388,鹤岗市,东山纸板厂,,32,32,70,19,37,60,,,,8,20,11,13,1.0,1.8
2025-02-16T0200,2247A,130.1097,47.3382,鹤岗市,五号水库,,26,22,22,11,16,82,,,,5,8,8,9,0.4,0.4
2025-02-16T0200,2263A,127.4833,50.2524,黑河市,交通局,,22,16,41,11,25,69,,,,8,25,7,8,0.4,0.6
2025-02-16T0200,2264A,127.5144,50.2341,黑河市,环保局,,32,25,54,22,33,70,,,,7,27,5,8,0.3,0.6
2025-02-16T0200,1074A,115.6838,37.7541,衡水市,电机北厂,颗粒物(PM10),82,113,116,45,57,46,,,,23,36,7,14,0.4,0.7
2025-02-16T0200,1075A,115.6303,37.7316,衡水市,市监测站,颗粒物(PM10),71,91,108,28,56,53,,,,23,36,11,15,0.4,0.7
2025-02-16T0200,3188A,115.6683,37.7217,衡水市,市城管局,颗粒物(PM10),76,102,118,33,57,59,,,,19,40,9,18,0.4,0.7
2025-02-16T0200,3459A,115.5989,37.5491,衡水市,地表水厂,颗粒物(PM10),76,102,113,25,63,56,,,,20,48,10,16,0.4,0.6
2025-02-16T0200,2456A,112.5003,26.9167,衡阳市,原169医院,,32,31,35,22,32,1,,,,32,18,11,9,0.8,0.6
2025-02-16T0200,2457A,112.6194,26.9258,衡阳市,衡阳化工总厂,,39,,32,27,31,15,,,,26,19,2,2,0.8,0.8
2025-02-16T0200,2458A,112.6211,26.8956,衡阳市,珠晖区环保局,,40,33,34,28,35,9,,,,30,20,4,4,0.8,0.8
2025-02-16T0200,2459A,112.6197,26.8733,衡阳市,市委党校,,39,30,33,27,31,12,,,,33,24,7,7,0.9,0.9
2025-02-16T0200,2460A,112.6006,26.8919,衡阳市,市监测站,,50,37,43,35,35,5,,,,37,20,6,6,1.0,0.9
2025-02-16T0200,2461A,112.5664,26.9056,衡阳市,真空机电公司,,48,33,44,33,41,3,,,,44,24,4,4,0.9,0.7
2025-02-16T0200,3399A,112.6703,26.882,衡阳市,师范学院,,38,32,33,26,36,15,,,,19,17,6,6,1.0,0.9
2025-02-16T0200,2608A,103.3772,23.3993,红河哈尼族彝族自治州,污水处理厂,细颗粒物(PM2.5),60,,49,43,39,89,,,,5,7,6,7,0.6,0.6
2025-02-16T0200,2609A,103.3861,23.35,红河哈尼族彝族自治州,监测站,细颗粒物(PM2.5),55,48,48,39,35,88,,,,7,7,9,8,0.6,0.6
2025-02-16T0200,3038A,103.3758,23.368,红河哈尼族彝族自治州,州图书馆,细颗粒物(PM2.5),57,46,42,40,35,86,,,,5,7,6,6,0.6,0.5
2025-02-16T0200,1090A,111.6507,40.7517,呼和浩特市,呼市一监,,25,12,103,3,38,78,,,,6,19,5,8,0.3,0.5
2025-02-16T0200,1091A,111.6572,40.8033,呼和浩特市,小召,,25,14,111,3,35,78,,,,10,23,6,6,0.3,0.5
2025-02-16T0200,1094A,111.7516,40.8369,呼和浩特市,如意水处理厂,,21,14,100,3,31,66,,,,8,25,7,9,0.2,0.5
2025-02-16T0200,1095A,111.7276,40.8062,呼和浩特市,二十九中,,22,16,106,6,36,68,,,,6,21,3,5,0.3,0.5
2025-02-16T0200,1096A,111.5512,40.7866,呼和浩特市,工大金川校区,,21,17,108,3,37,66,,,,9,23,5,8,0.3,0.5
2025-02-16T0200,1097A,111.717,40.7612,呼和浩特市,化肥厂生活区,,21,14,106,3,33,66,,,,12,20,5,7,0.3,0.4
2025-02-16T0200,3698A,111.5968,40.8178,呼和浩特市,红旗小学,,25,12,107,3,36,77,,,,8,27,5,8,0.4,0.6
2025-02-16T0200,3699A,111.6518,40.8389,呼和浩特市,海东办,,23,9,101,3,32,73,,,,8,26,4,7,0.6,0.7
2025-02-16T0200,2192A,119.7594,49.2261,呼伦贝尔市,区环保局,,42,32,31,29,22,77,,,,6,13,7,12,0.4,0.4
2025-02-16T0200,3061A,119.7512,49.1577,呼伦贝尔市,国华电力东,,32,32,31,20,17,79,,,,5,5,6,7,0.3,0.4
2025-02-16T0200,1250A,120.0751,30.8669,湖州市,城西水厂,细颗粒物(PM2.5),103,96,107,77,90,23,,,,34,45,7,7,1.0,0.8
2025-02-16T0200,2873A,120.0875,30.8955,湖州市,仁皇山新区,细颗粒物(PM2.5),102,90,97,76,85,33,,,,25,41,7,6,1.1,1
2025-02-16T0200,2907A,120.1844,30.8596,湖州市,吴兴区站,细颗粒物(PM2.5),114,98,107,86,82,25,,,,29,38,5,5,1.0,0.8
2025-02-16T0200,3562A,120.4148,30.8538,湖州市,南浔区站,细颗粒物(PM2.5),135,130,106,103,84,13,,,,42,44,8,8,1.0,0.7
2025-02-16T0200,1607A,120.9092,40.7136,葫芦岛市,龙港区,颗粒物(PM10),55,60,121,3,86,64,,,,12,42,7,12,0.4,1
2025-02-16T0200,1608A,120.8392,40.7514,葫芦岛市,化工街,,48,48,143,7,80,70,,,,14,54,6,13,0.2,0.9
2025-02-16T0200,1609A,120.8341,40.7073,葫芦岛市,新区,,44,44,109,3,82,72,,,,12,47,11,13,0.4,1
2025-02-16T0200,1610A,120.8695,40.7677,葫芦岛市,东城区,,47,47,135,9,102,64,,,,8,55,10,15,0.1,0.8
2025-02-16T0200,2482A,109.5981,27.5721,怀化市,林科所,,33,33,22,17,15,6,,,,22,12,5,5,1.3,1.1
2025-02-16T0200,2483A,109.9453,27.5444,怀化市,河西地税局,,50,44,37,35,28,3,,,,21,18,6,5,0.7,0.6
2025-02-16T0200,2484A,109.9781,27.5342,怀化市,市四医院,,48,48,39,32,27,2,,,,32,20,5,3,0.9,0.8
2025-02-16T0200,2485A,109.9972,27.5578,怀化市,监测楼,颗粒物(PM10),53,55,35,34,26,8,,,,27,22,10,6,0.8,0.7
2025-02-16T0200,2486A,110.0394,27.583,怀化市,市委党校,,48,41,31,33,26,7,,,,23,17,6,7,0.6,0.6
2025-02-16T0200,1210A,119.036,33.5981,淮安市,钵池山,细颗粒物(PM2.5),124,117,113,94,85,58,,,,37,42,10,12,0.9,1
2025-02-16T0200,1211A,119.007,33.575,淮安市,北京南路,细颗粒物(PM2.5),114,114,110,86,82,31,,,,56,51,9,11,0.9,1
2025-02-16T0200,1212A,118.989,33.6067,淮安市,市监测站,细颗粒物(PM2.5),117,102,112,88,88,67,,,,30,42,10,11,0.9,1
2025-02-16T0200,1213A,119.135,33.5039,淮安市,楚州区监测站,细颗粒物(PM2.5),186,,115,140,104,17,,,,73,46,8,9,0.9,0.9
2025-02-16T0200,3426A,118.8755,33.2894,淮安市,新华书店,细颗粒物(PM2.5),110,103,115,83,86,55,,,,30,43,8,10,0.8,0.9
2025-02-16T0200,4206A,119.0288,33.6319,淮安市,承德北路606号,细颗粒物(PM2.5),108,119,126,81,83,73,,,,29,44,8,10,0.7,0.9
2025-02-16T0200,2282A,116.8004,33.975,淮北市,监测站,细颗粒物(PM2.5),112,130,129,84,77,51,,,,36,33,9,10,0.9,0.8
2025-02-16T0200,2283A,116.8091,33.9007,淮北市,烈山区政府,细颗粒物(PM2.5),123,142,124,93,80,38,,,,49,40,6,8,0.9,0.9
2025-02-16T0200,3330A,116.8873,33.9836,淮北市,杜集区检察院,细颗粒物(PM2.5),113,131,122,85,78,55,,,,33,30,7,7,0.8,0.9
2025-02-16T0200,4017A,116.7923,33.9535,淮北市,市博物馆,细颗粒物(PM2.5),122,144,132,92,83,44,,,,42,35,11,11,1.1,1
2025-02-16T0200,2277A,116.8305,32.7727,淮南市,潘集区政府,细颗粒物(PM2.5),129,131,130,98,92,67,,,,30,31,7,7,0.7,0.7
2025-02-16T0200,2279A,116.8569,32.5951,淮南市,谢家集区政府,细颗粒物(PM2.5),98,109,118,73,79,73,,,,30,34,8,8,0.7,0.7
2025-02-16T0200,2280A,116.8281,32.633,淮南市,八公山区政府,颗粒物(PM10),74,97,107,53,72,96,,,,8,17,9,8,0.5,0.7
2025-02-16T0200,2281A,116.6325,32.6201,淮南市,焦岗湖风景区管理处,细颗粒物(PM2.5),80,91,90,59,60,29,,,,11,14,9,9,0.3,0.4
2025-02-16T0200,2894A,117.0566,32.6531,淮南市,经济技术开发区消防队,细颗粒物(PM2.5),97,107,111,72,73,84,,,,19,26,8,8,0.6,0.7
2025-02-16T0200,3329A,117.0108,32.5893,淮南市,山南新区,细颗粒物(PM2.5),114,123,119,86,81,82,,,,17,24,9,8,0.6,0.8
2025-02-16T0200,4209A,117.0031,32.6445,淮南市,国庆中路369号,"颗粒物(PM10),细颗粒物(PM2.5)",85,119,119,63,74,80,,,,23,34,8,8,0.7,0.7
2025-02-16T0200,2446A,114.9028,30.4742,黄冈市,职工中心,细颗粒物(PM2.5),84,90,87,62,63,30,,,,36,26,2,4,0.6,0.7
2025-02-16T0200,2929A,114.8858,30.4519,黄冈市,红卫路,细颗粒物(PM2.5),80,82,84,59,61,39,,,,38,27,6,7,0.7,0.8
2025-02-16T0200,3398A,114.9136,30.4445,黄冈市,市林业局,细颗粒物(PM2.5),94,97,83,70,61,7,,,,67,26,9,10,0.9,0.9
2025-02-16T0200,2672A,102.0199,35.5102,黄南藏族自治州,同仁县隆务镇,颗粒物(PM10),61,72,55,30,25,62,,,,4,3,16,17,0.6,0.4
2025-02-16T0200,2295A,118.2903,29.6963,黄山市,延安路89号,,28,21,38,19,37,29,,,,6,10,4,4,0.5,0.6
2025-02-16T0200,2297A,118.1371,30.2756,黄山市,黄山区政府5号楼,,35,,45,24,32,23,,,,10,12,8,8,0.5,0.5
2025-02-16T0200,4210A,118.3354,29.7203,黄山市,滨江东路7-2号,,30,,51,21,41,28,,,,10,14,4,4,0.6,0.6
2025-02-16T0200,2423A,115.0601,30.2313,黄石市,沈家营,细颗粒物(PM2.5),85,97,87,63,55,10,,,,64,30,8,8,0.9,0.8
2025-02-16T0200,2426A,114.8988,30.2019,黄石市,铁山,细颗粒物(PM2.5),85,91,77,63,64,23,,,,24,21,14,12,0.8,0.8
2025-02-16T0200,2427A,115.0307,30.2092,黄石市,团城山,细颗粒物(PM2.5),98,104,84,73,58,32,,,,34,23,7,8,0.9,0.8
2025-02-16T0200,3149A,115.0235,30.1578,黄石市,笔架山北路,细颗粒物(PM2.5),84,87,74,62,60,32,,,,27,22,10,12,1.0,1
2025-02-16T0200,4185A,115.0780,30.21118,黄石市,磁湖东路29号,颗粒物(PM10),74,98,92,53,65,18,,,,35,23,7,9,1.0,1.1
2025-02-16T0200,1392A,114.4183,23.0528,惠州市,河南岸金山湖子站,细颗粒物(PM2.5),74,76,44,54,35,26,,,,44,27,7,7,1.0,0.9
2025-02-16T0200,1393A,114.4053,23.0822,惠州市,下埔横江三路子站,细颗粒物(PM2.5),79,84,46,58,35,20,,,,54,26,7,7,1.0,0.7
2025-02-16T0200,1394A,114.4103,23.1142,惠州市,江北云山西路子站,细颗粒物(PM2.5),69,76,44,50,33,25,,,,42,22,7,7,1.1,1
2025-02-16T0200,1395A,114.4645,22.7833,惠州市,惠阳区承修路船湖子站,,49,49,33,30,22,20,,,,40,19,9,9,0.8,0.7
2025-02-16T0200,1396A,114.5317,22.7422,惠州市,大亚湾管委会子站,,36,36,25,25,18,30,,,,31,17,6,6,0.8,0.8
2025-02-16T0200,3314A,114.4338,22.8134,惠州市,惠阳秋长,颗粒物(PM10),62,73,46,38,27,11,,,,59,24,7,6,0.9,0.8
2025-02-16T0200,3452A,114.6517,22.775,惠州市,大亚湾霞涌,,30,24,25,21,14,37,,,,23,16,8,8,0.5,0.6
2025-02-16T0200,2240A,130.9762,45.3001,鸡西市,环保局,,48,48,49,27,30,30,,,,35,28,12,13,0.7,0.5
2025-02-16T0200,2243A,130.9429,45.3039,鸡西市,第一中学,细颗粒物(PM2.5),55,40,36,39,26,32,,,,46,22,16,8,0.5,0.3
2025-02-16T0200,3707A,131.0207,45.3073,鸡西市,欧美日汽修厂,细颗粒物(PM2.5),87,90,64,64,40,25,,,,43,26,15,12,1.1,0.7
2025-02-16T0200,3709A,130.9967,45.3106,鸡西市,市政设施管理处,细颗粒物(PM2.5),79,70,49,58,34,16,,,,56,30,14,12,0.7,0.5
2025-02-16T0200,2367A,114.9754,27.0803,吉安市,红声器材厂,,36,36,61,25,44,24,,,,23,28,11,15,1.0,0.9
2025-02-16T0200,2368A,114.9658,27.0999,吉安市,市森林工业局,,33,33,57,22,45,20,,,,38,38,7,9,0.6,0.7
2025-02-16T0200,2369A,114.99,27.1312,吉安市,市环境监测站,,33,26,55,23,43,22,,,,27,32,13,14,1.0,0.8
2025-02-16T0200,2370A,115.0093,27.0968,吉安市,青原区法院,,40,36,60,28,48,26,,,,25,32,10,14,0.9,0.8
2025-02-16T0200,1772A,126.54,43.8622,吉林市,哈达湾,细颗粒物(PM2.5),73,83,75,53,48,81,,,,18,19,8,11,0.8,0.8
2025-02-16T0200,1773A,126.5844,43.8358,吉林市,东局子,细颗粒物(PM2.5),74,92,84,54,44,82,,,,16,19,8,9,0.8,0.8
2025-02-16T0200,1774A,126.5052,43.8245,吉林市,电力学院,细颗粒物(PM2.5),79,83,76,58,52,85,,,,16,23,4,7,0.6,0.8
2025-02-16T0200,1775A,126.6133,43.8972,吉林市,江北,细颗粒物(PM2.5),78,93,85,57,49,76,,,,21,25,7,11,0.7,0.9
2025-02-16T0200,1776A,126.555,43.8306,吉林市,江南公园,细颗粒物(PM2.5),83,80,83,61,58,80,,,,17,19,4,7,1.7,0.8
2025-02-16T0200,2868A,126.4739,43.953,吉林市,九站,细颗粒物(PM2.5),80,80,88,59,54,62,,,,29,29,6,14,0.7,0.7
2025-02-16T0200,1299A,116.9862,36.6114,济南市,科干所,细颗粒物(PM2.5),77,97,89,56,45,47,,,,61,23,14,11,0.7,0.5
2025-02-16T0200,1300A,116.9376,36.665,济南市,农科所,颗粒物(PM10),95,139,106,66,51,19,,,,95,33,16,13,1.0,0.9
2025-02-16T0200,1301A,117.1265,36.6734,济南市,开发区,细颗粒物(PM2.5),108,127,86,81,52,34,,,,76,23,18,12,1.1,0.9
2025-02-16T0200,1303A,117.0624,36.6868,济南市,省种子仓库,颗粒物(PM10),112,173,106,83,52,7,,,,99,34,22,11,1.1,0.7
2025-02-16T0200,1304A,116.9489,36.6447,济南市,机床二厂,细颗粒物(PM2.5),92,132,107,68,58,23,,,,97,36,21,21,1.1,0.9
2025-02-16T0200,1305A,117.0495,36.663,济南市,市监测站,细颗粒物(PM2.5),108,149,95,81,50,6,,,,121,29,23,13,0.8,0.5
2025-02-16T0200,1306A,116.7675,36.5484,济南市,长清党校,颗粒物(PM10),96,142,109,61,59,38,,,,72,31,12,11,0.8,0.7
2025-02-16T0200,1616A,117.6795,36.229,济南市,技术学院,细颗粒物(PM2.5),119,134,124,90,81,28,,,,78,56,19,21,1.4,1.3
2025-02-16T0200,1961A,117.532,36.6868,济南市,东山小学,细颗粒物(PM2.5),85,110,99,63,50,45,,,,59,27,9,11,0.8,0.7
2025-02-16T0200,3059A,117.7161,36.2049,济南市,泰兴公司,细颗粒物(PM2.5),117,129,131,88,79,7,,,,86,63,13,17,1.3,1.3
2025-02-16T0200,3064A,117.6867,36.2171,济南市,莱芜战役纪念馆,细颗粒物(PM2.5),117,141,132,88,78,17,,,,93,58,13,16,1.3,1.1
2025-02-16T0200,3494A,117.1673,36.9782,济南市,济阳区政府,细颗粒物(PM2.5),104,142,113,78,58,67,,,,32,33,27,18,1.1,0.7
2025-02-16T0200,3495A,117.1171,36.63,济南市,锦屏中学,细颗粒物(PM2.5),68,76,83,49,47,78,,,,18,18,9,11,0.8,0.8
2025-02-16T0200,3682A,116.9814,36.6819,济南市,济南四建,细颗粒物(PM2.5),95,136,96,71,52,4,,,,122,31,19,14,0.7,0.5
2025-02-16T0200,1653A,116.6251,35.4302,济宁市,火炬城,颗粒物(PM10),85,120,116,56,62,48,,,,34,32,19,17,0.9,0.9
2025-02-16T0200,1655A,116.5491,35.4042,济宁市,电化厂,细颗粒物(PM2.5),117,148,144,88,86,33,,,,45,33,22,18,1.0,0.9
2025-02-16T0200,3500A,116.5814,35.3707,济宁市,北湖一中,细颗粒物(PM2.5),94,112,110,70,74,57,,,,41,46,21,17,0.8,0.8
2025-02-16T0200,3501A,116.8249,35.5593,济宁市,服务中心,细颗粒物(PM2.5),113,143,142,85,80,44,,,,44,40,19,14,1.0,0.9
2025-02-16T0200,3678A,116.5907,35.4054,济宁市,市第七中学,细颗粒物(PM2.5),100,114,109,75,75,50,,,,36,33,15,10,0.7,0.8
2025-02-16T0200,2255A,130.2751,46.8028,佳木斯市,佳纺,,20,15,47,7,35,63,,,,6,27,3,7,0.3,0.5
2025-02-16T0200,2256A,130.3995,46.8307,佳木斯市,发电厂,,22,20,39,7,30,68,,,,3,21,4,7,0.2,0.3
2025-02-16T0200,2257A,130.3258,46.7975,佳木斯市,环保局,,20,16,49,3,33,62,,,,3,26,7,9,0.1,0.4
2025-02-16T0200,2258A,130.3648,46.8032,佳木斯市,十一中,,19,10,41,8,35,59,,,,6,30,4,7,0.2,0.4
2025-02-16T0200,2259A,130.3794,46.7588,佳木斯市,四丰,,22,,40,15,25,64,,,,5,15,1,1,0.3,0.4
2025-02-16T0200,1252A,120.7436,30.778,嘉兴市,清河小学,细颗粒物(PM2.5),94,93,73,70,50,7,,,,42,41,4,4,1.0,0.6
2025-02-16T0200,1253A,120.726,30.7478,嘉兴市,嘉兴学院,细颗粒物(PM2.5),108,106,86,81,64,2,,,,42,37,6,6,1.0,0.7
2025-02-16T0200,2872A,120.7846,30.7525,嘉兴市,南湖区残联,细颗粒物(PM2.5),120,102,71,91,69,13,,,,36,36,7,7,1.1,0.8
2025-02-16T0200,3407A,120.6916,30.7739,嘉兴市,秀洲住建,细颗粒物(PM2.5),99,74,61,74,58,2,,,,42,39,4,5,0.9,0.9
2025-02-16T0200,1945A,98.2908,39.7711,嘉峪关市,气象局,颗粒物(PM10),142,234,222,53,47,41,,,,24,12,5,5,0.4,0.4
2025-02-16T0200,2884A,98.2672,39.7978,嘉峪关市,酒钢宾馆,颗粒物(PM10),152,254,232,51,47,58,,,,6,8,1,11,0.5,0.6
2025-02-16T0200,3248A,98.2643,39.7724,嘉峪关市,雄关区,颗粒物(PM10),130,209,193,40,44,46,,,,19,16,9,8,0.4,0.5
2025-02-16T0200,1383A,113.1064,22.6058,江门市,北街,,42,33,26,29,20,51,,,,17,17,3,2,0.7,0.6
2025-02-16T0200,1384A,113.0731,22.5835,江门市,西区,,41,41,29,23,19,50,,,,26,22,5,5,0.6,0.6
2025-02-16T0200,1385A,113.0219,22.5311,江门市,圭峰西,,41,41,32,28,22,53,,,,18,16,5,5,0.7,0.8
2025-02-16T0200,1386A,113.0828,22.5947,江门市,东湖,,50,50,30,19,19,51,,,,18,16,7,7,0.5,0.5
2025-02-16T0200,3311A,113.1075,22.5647,江门市,江海富民,颗粒物(PM10),54,58,41,32,26,54,,,,19,16,6,5,0.4,0.4
2025-02-16T0200,3449A,113.05,22.4667,江门市,新会银湖,,38,32,27,26,24,47,,,,16,16,6,6,0.7,0.7
2025-02-16T0200,3169A,113.2725,35.2067,焦作市,太极体育中心,颗粒物(PM10),60,69,72,12,19,78,,,,11,18,10,12,0.6,0.8
2025-02-16T0200,3335A,113.3137,35.2641,焦作市,马村街道办,颗粒物(PM10),57,64,67,22,32,85,,,,7,15,7,12,0.4,0.7
2025-02-16T0200,3336A,113.2465,35.2373,焦作市,焦作技师学院,颗粒物(PM10),63,75,75,19,28,82,,,,8,19,6,10,0.8,1
2025-02-16T0200,3477A,113.1656,35.2539,焦作市,中站许衡医院,颗粒物(PM10),62,74,71,32,32,78,,,,13,16,13,13,0.8,0.9
2025-02-16T0200,3981A,113.2449,35.1803,焦作市,原李万街道办,颗粒物(PM10),59,67,74,17,26,81,,,,13,20,11,14,0.6,0.8
2025-02-16T0200,4264A,113.2340,35.2190,焦作市,新安路1731号,颗粒物(PM10),67,83,79,24,32,73,,,,18,21,12,13,0.5,0.6
2025-02-16T0200,1708A,116.3701,23.5345,揭阳市,新兴,细颗粒物(PM2.5),129,,68,98,58,59,,,,26,29,6,8,0.8,0.9
2025-02-16T0200,1709A,116.3264,23.5443,揭阳市,西马,细颗粒物(PM2.5),127,110,61,96,47,59,,,,27,26,9,10,0.7,0.8
2025-02-16T0200,1710A,116.3611,23.5626,揭阳市,东兴,细颗粒物(PM2.5),123,115,72,93,60,50,,,,35,25,16,9,1.2,1.1
2025-02-16T0200,1711A,116.4151,23.5294,揭阳市,渔湖,颗粒物(PM10),75,100,62,54,37,55,,,,27,25,6,8,0.7,0.8
2025-02-16T0200,3320A,116.403,23.5699,揭阳市,曲溪,细颗粒物(PM2.5),77,96,63,56,44,72,,,,27,30,7,13,0.6,0.7
2025-02-16T0200,1944A,102.1692,38.5167,金昌市,天庆家园,颗粒物(PM10),82,114,116,39,36,64,,,,15,13,9,17,0.6,0.8
2025-02-16T0200,4022A,102.1647,38.5371,金昌市,金川区人防中心,颗粒物(PM10),99,148,142,45,36,65,,,,7,6,13,9,0.6,0.6
2025-02-16T0200,4239A,102.1930,38.5319,金昌市,长春路96号,颗粒物(PM10),101,151,116,60,37,43,,,,27,11,20,20,1.0,0.6
2025-02-16T0200,1262A,119.647,29.077,金华市,十五中,细颗粒物(PM2.5),77,67,108,56,86,5,,,,49,53,4,4,0.9,0.9
2025-02-16T0200,1263A,119.686,29.1029,金华市,监测站,细颗粒物(PM2.5),82,78,110,60,86,5,,,,55,60,5,5,0.8,0.8
2025-02-16T0200,3659A,119.656,29.1131,金华市,气象局,细颗粒物(PM2.5),85,78,113,63,87,3,,,,46,52,4,4,0.9,0.8
2025-02-16T0200,1767A,121.1115,41.0879,锦州市,南山,,38,38,104,3,96,74,,,,10,58,8,17,0.3,1.1
2025-02-16T0200,1768A,121.0533,40.8434,锦州市,开发区,,42,42,117,6,92,70,,,,7,51,10,15,0.5,1
2025-02-16T0200,1769A,121.1836,41.1119,锦州市,百股街道,,38,38,115,7,97,68,,,,9,53,9,16,0.5,1.3
2025-02-16T0200,1770A,121.1178,41.1222,锦州市,天安街道,,41,41,129,3,103,61,,,,9,52,5,13,0.6,1.5
2025-02-16T0200,1771A,121.1303,41.1386,锦州市,北湖公园,,39,39,117,9,98,65,,,,10,60,8,15,0.3,1
2025-02-16T0200,2160A,112.85,35.5051,晋城市,自来水公司,颗粒物(PM10),58,65,66,17,27,65,,,,25,22,7,14,0.4,0.8
2025-02-16T0200,2161A,112.8318,35.4936,晋城市,白云商贸,颗粒物(PM10),63,76,77,12,19,56,,,,30,25,6,10,0.8,0.9
2025-02-16T0200,2162A,112.8508,35.4887,晋城市,市环保局,颗粒物(PM10),67,83,76,22,26,47,,,,31,25,7,13,0.6,0.8
2025-02-16T0200,2163A,112.8676,35.4897,晋城市,技术学院,颗粒物(PM10),61,72,68,24,25,63,,,,25,23,7,12,0.6,0.7
2025-02-16T0200,3620A,112.8271,35.4828,晋城市,泽州一中,颗粒物(PM10),55,60,65,12,25,75,,,,15,19,6,9,0.5,0.8
2025-02-16T0200,2173A,112.7249,37.7067,晋中市,南都小区,颗粒物(PM10),104,158,132,32,38,74,,,,17,33,7,20,0.0,0.5
2025-02-16T0200,2174A,112.6991,37.6982,晋中市,榆次区政府,颗粒物(PM10),101,151,139,18,34,78,,,,9,27,6,17,0.4,0.3
2025-02-16T0200,2865A,112.7195,37.6828,晋中市,榆次三中,颗粒物(PM10),111,171,154,22,33,83,,,,3,24,8,18,0.4,0.8
2025-02-16T0200,4200A,112.7478,37.6954,晋中市,迎宾街26号,颗粒物(PM10),101,151,145,27,35,81,,,,5,27,2,17,0.2,0.9
2025-02-16T0200,2439A,112.2014,31.0481,荆门市,竹园小学,细颗粒物(PM2.5),72,82,97,52,57,65,,,,15,19,8,5,0.7,0.8
2025-02-16T0200,2440A,112.1969,30.9891,荆门市,掇刀,细颗粒物(PM2.5),79,93,106,58,62,42,,,,25,23,11,10,0.6,0.6
2025-02-16T0200,2441A,112.2213,31.0386,荆门市,石化一小,细颗粒物(PM2.5),79,89,105,58,62,54,,,,25,25,14,8,0.8,0.8
2025-02-16T0200,3012A,112.1849,31.0362,荆门市,西山林语,细颗粒物(PM2.5),68,76,86,49,55,67,,,,18,17,6,4,0.3,0.4
2025-02-16T0200,3547A,112.1632,31.0138,荆门市,龙泉中学南校,细颗粒物(PM2.5),82,88,100,60,63,56,,,,9,18,15,9,0.9,0.9
2025-02-16T0200,1844A,112.2494,30.3197,荆州市,市图书馆,细颗粒物(PM2.5),74,61,83,54,78,35,,,,30,25,4,6,0.6,0.7
2025-02-16T0200,1845A,112.2008,30.3544,荆州市,市委党校,细颗粒物(PM2.5),75,69,92,55,75,28,,,,32,29,5,6,0.7,0.7
2025-02-16T0200,3194A,112.2747,30.3122,荆州市,管委会,细颗粒物(PM2.5),68,58,97,49,79,47,,,,23,26,7,8,0.6,0.7
2025-02-16T0200,4268A,112.1722,30.3366,荆州市,学苑路85号,细颗粒物(PM2.5),77,63,81,56,67,40,,,,26,29,9,9,0.6,0.7
2025-02-16T0200,2343A,117.2117,29.2933,景德镇市,老干部活动中心,细颗粒物(PM2.5),77,62,43,56,43,26,,,,26,16,8,5,0.9,0.7
2025-02-16T0200,2344A,117.1894,29.2789,景德镇市,兽医站,颗粒物(PM10),62,73,48,32,28,19,,,,26,18,8,5,0.9,0.9
2025-02-16T0200,2345A,117.1547,29.2617,景德镇市,台达陶瓷,,46,46,47,32,33,12,,,,37,27,36,18,0.8,1.4
2025-02-16T0200,2346A,117.2461,29.2956,景德镇市,陶研所,细颗粒物(PM2.5),75,,43,55,48,28,,,,15,25,3,4,0.4,0.4
2025-02-16T0200,1803A,115.9872,29.6815,九江市,十里,细颗粒物(PM2.5),64,66,66,46,43,8,,,,43,29,7,7,1.0,1
2025-02-16T0200,1804A,115.9584,29.7046,九江市,茅山头,细颗粒物(PM2.5),52,38,59,36,41,5,,,,43,31,12,11,0.7,0.8
2025-02-16T0200,1805A,115.9877,29.7295,九江市,西园,,49,47,62,34,44,19,,,,38,32,9,11,1.1,1.3
2025-02-16T0200,1808A,115.9114,29.6038,九江市,综合工业园,"颗粒物(PM10),细颗粒物(PM2.5)",54,58,55,38,45,8,,,,50,38,4,6,0.9,1
2025-02-16T0200,1809A,116.0721,29.7535,九江市,石化总厂,细颗粒物(PM2.5),62,55,65,44,56,28,,,,30,33,12,13,1.0,1.1
2025-02-16T0200,1810A,115.9773,29.5698,九江市,庐山气象台,,31,31,39,13,34,90,,,,4,6,13,9,0.7,0.9
2025-02-16T0200,3190A,116.0254,29.6994,九江市,外国语学校,细颗粒物(PM2.5),60,57,61,43,46,9,,,,61,38,6,6,0.9,1
2025-02-16T0200,4253A,116.0102,29.6594,九江市,莲花大道8号,细颗粒物(PM2.5),55,45,71,39,54,34,,,,13,14,5,7,0.8,1
2025-02-16T0200,2658A,98.5061,39.7443,酒泉市,仓门街子站,,,,230,41,42,61,,,,4,5,8,10,0.3,0.3
2025-02-16T0200,4240A,98.4958,39.7339,酒泉市,玉门东路5号,颗粒物(PM10),155,259,235,49,46,57,,,,4,6,6,8,0.3,0.4
2025-02-16T0200,2698A,76.0072,39.4467,喀什地区,巡警大队,颗粒物(PM10),500,615,556,165,130,6,,,,99,47,16,8,4.1,2.1
2025-02-16T0200,2699A,75.9755,39.4694,喀什地区,吾办,颗粒物(PM10),489,589,549,182,138,4,,,,93,50,13,8,3.5,1.8
2025-02-16T0200,4027A,75.9483,39.4689,喀什地区,老干局,颗粒物(PM10),500,617,574,115,101,7,,,,84,45,11,7,3.2,2.3
2025-02-16T0200,1824A,114.3389,34.7781,开封市,肿瘤医院,颗粒物(PM10),63,76,87,25,41,75,,,,11,25,8,8,0.8,0.9
2025-02-16T0200,1826A,114.2885,34.7965,开封市,世纪星幼儿园,颗粒物(PM10),63,76,83,27,45,64,,,,22,35,7,6,0.7,0.8
2025-02-16T0200,3147A,114.3438,34.8106,开封市,龙亭公园,颗粒物(PM10),59,67,88,24,40,67,,,,22,31,6,6,0.9,0.9
2025-02-16T0200,3210A,114.3644,34.7964,开封市,汴京公园,颗粒物(PM10),54,58,94,22,39,74,,,,22,39,7,7,0.4,0.4
2025-02-16T0200,3473A,114.2485,34.8306,开封市,技师学院,颗粒物(PM10),58,66,82,28,36,62,,,,29,35,6,7,0.7,0.7
2025-02-16T0200,3592A,114.4644,34.7556,开封市,祥符区生态环境局,颗粒物(PM10),68,85,106,27,52,73,,,,16,32,5,6,0.7,0.8
2025-02-16T0200,1951A,84.895,45.6094,克拉玛依市,长征新村,颗粒物(PM10),66,81,88,47,58,69,,,,37,32,6,7,0.8,0.8
2025-02-16T0200,1952A,84.8988,45.5893,克拉玛依市,南林小区,细颗粒物(PM2.5),95,81,88,71,68,52,,,,35,24,2,3,1.0,0.9
2025-02-16T0200,1954A,84.905,44.3396,克拉玛依市,独山子区,细颗粒物(PM2.5),94,,69,70,71,104,,,,18,28,5,5,0.9,1
2025-02-16T0200,1955A,85.6979,46.098,克拉玛依市,乌尔禾区商贸楼,细颗粒物(PM2.5),156,125,92,119,78,32,,,,82,51,7,7,3.1,1.6
2025-02-16T0200,3612A,85.1045,45.6899,克拉玛依市,白碱滩区新站,细颗粒物(PM2.5),79,95,97,58,63,64,,,,24,32,6,6,1.2,1.2
2025-02-16T0200,2697A,76.1454,39.7142,克孜勒苏柯尔克孜自治州,市人民政府,颗粒物(PM10),436,536,549,120,141,57,,,,19,16,6,5,0.8,0.7
2025-02-16T0200,3665A,76.1658,39.7157,克孜勒苏柯尔克孜自治州,克州文化中心,颗粒物(PM10),444,544,563,112,116,58,,,,17,16,9,10,0.6,0.6
2025-02-16T0200,1450A,102.8204,24.8886,昆明市,呈贡新区,细颗粒物(PM2.5),69,56,57,50,44,69,,,,28,17,18,9,1.0,0.7
2025-02-16T0200,1452A,102.7252,25.0902,昆明市,龙泉镇,细颗粒物(PM2.5),80,76,53,59,39,8,,,,59,33,7,9,0.7,0.5
2025-02-16T0200,1453A,102.7266,25.0375,昆明市,东风东路,细颗粒物(PM2.5),109,102,61,82,45,20,,,,59,23,8,11,1.0,0.7
2025-02-16T0200,1454A,102.6742,25.0669,昆明市,金鼎山,细颗粒物(PM2.5),84,77,57,62,40,6,,,,73,29,10,11,0.8,0.6
2025-02-16T0200,1455A,102.6644,25.0401,昆明市,碧鸡广场,细颗粒物(PM2.5),89,90,59,66,44,38,,,,39,27,8,10,0.8,0.7
2025-02-16T0200,3179A,102.7494,25.0119,昆明市,官渡区博物馆,细颗粒物(PM2.5),87,76,53,64,39,60,,,,32,23,9,11,0.8,0.6
2025-02-16T0200,3375A,102.8017,24.8336,昆明市,青年创业园,细颗粒物(PM2.5),69,67,54,50,40,85,,,,16,11,31,10,0.9,0.6
2025-02-16T0200,3550A,102.7997,24.9786,昆明市,昆明学院,细颗粒物(PM2.5),75,77,59,55,41,92,,,,14,15,7,7,0.7,0.5
2025-02-16T0200,3551A,102.5967,24.6736,昆明市,晋宁区生态环境分局,细颗粒物(PM2.5),67,64,58,48,42,76,,,,14,10,5,6,0.7,0.5
2025-02-16T0200,3552A,102.6678,24.9856,昆明市,云天化总部,细颗粒物(PM2.5),78,74,54,57,39,5,,,,86,18,10,11,0.6,0.4
2025-02-16T0200,1456A,91.1319,29.6514,拉萨市,八廓街,,28,26,28,9,11,89,,,,6,8,6,6,0.4,0.4
2025-02-16T0200,1457A,91.1221,29.6747,拉萨市,市环保局,,27,27,29,8,10,79,,,,11,16,6,5,0.4,0.5
2025-02-16T0200,1458A,91.0874,29.6475,拉萨市,区监测站,,27,25,26,6,8,85,,,,8,13,6,6,0.4,0.4
2025-02-16T0200,1459A,91.1774,29.6541,拉萨市,西藏大学,,34,34,33,3,8,87,,,,6,8,6,5,0.4,0.4
2025-02-16T0200,1460A,90.9798,29.6588,拉萨市,区辐射站,,30,18,34,7,12,94,,,,6,19,6,7,0.6,0.7
2025-02-16T0200,1461A,91.0834,29.6292,拉萨市,拉萨火车站,,27,25,28,9,10,86,,,,8,12,4,4,0.3,0.3
2025-02-16T0200,2520A,109.2203,23.7256,来宾市,来宾技工学校,,25,20,29,17,24,46,,,,10,12,6,6,0.9,1
2025-02-16T0200,3535A,109.1781,23.7297,来宾市,兴宾区政府,,28,28,37,16,30,40,,,,11,13,6,5,0.7,0.8
2025-02-16T0200,4002A,109.2416,23.7461,来宾市,中南小学,,29,29,29,18,25,37,,,,12,12,6,6,0.9,0.9
2025-02-16T0200,1479A,103.831,36.0464,兰州市,铁路设计院,颗粒物(PM10),68,85,73,44,44,30,,,,62,53,10,14,0.9,1.1
2025-02-16T0200,3241A,103.7439,36.0842,兰州市,百合公园,颗粒物(PM10),65,80,63,31,31,14,,,,68,36,10,10,0.7,0.6
2025-02-16T0200,3242A,103.9611,35.998,兰州市,和平,颗粒物(PM10),60,69,77,28,34,72,,,,12,30,11,18,0.5,0.9
2025-02-16T0200,4236A,103.6293,36.0938,兰州市,庄浪东路808号,颗粒物(PM10),64,77,68,37,35,59,,,,24,36,7,20,0.5,0.7
2025-02-16T0200,4237A,103.7251,36.1043,兰州市,安宁西路88号,颗粒物(PM10),77,103,72,39,34,27,,,,56,35,16,21,0.6,0.6
2025-02-16T0200,4238A,103.8470,36.0676,兰州市,北滨河东路1号,颗粒物(PM10),73,95,67,41,38,15,,,,75,48,10,14,0.7,0.8
2025-02-16T0200,3245A,103.6633,36.533,兰州新区,新区管委会,颗粒物(PM10),106,161,66,50,30,56,,,,11,11,8,15,0.4,0.3
2025-02-16T0200,3246A,103.6975,36.4789,兰州新区,舟曲中学,颗粒物(PM10),134,218,74,56,27,68,,,,14,15,30,11,0.4,0.3
2025-02-16T0200,1067A,116.6708,39.5111,廊坊市,药材公司,颗粒物(PM10),54,57,144,14,73,66,,,,16,49,3,9,0.2,0.9
2025-02-16T0200,1068A,116.7214,39.5589,廊坊市,开发区,,48,48,137,16,75,69,,,,10,50,2,7,0.2,0.7
2025-02-16T0200,1070A,116.7244,39.5269,廊坊市,北华航天学院,,43,43,143,8,70,70,,,,13,54,3,9,0.2,0.8
2025-02-16T0200,2919A,116.7022,39.5453,廊坊市,河北工业大学,,49,49,132,15,70,66,,,,14,52,5,10,0.2,0.7
2025-02-16T0200,2535A,103.7723,29.5462,乐山市,花湖湾,细颗粒物(PM2.5),79,70,59,58,46,63,,,,18,17,7,6,0.6,0.5
2025-02-16T0200,2536A,103.7627,29.5844,乐山市,牛耳桥,细颗粒物(PM2.5),80,78,62,59,46,14,,,,36,24,5,6,0.6,0.5
2025-02-16T0200,2537A,103.7508,29.6006,乐山市,市第三水厂,细颗粒物(PM2.5),79,78,59,58,41,18,,,,31,24,3,4,0.7,0.5
2025-02-16T0200,2538A,103.7571,29.5664,乐山市,市监测站,细颗粒物(PM2.5),57,61,56,40,35,44,,,,20,17,6,6,0.9,0.7
2025-02-16T0200,3361A,103.7311,29.5628,乐山市,理工大学,细颗粒物(PM2.5),73,73,56,53,42,39,,,,24,18,6,5,0.6,0.5
2025-02-16T0200,2599A,100.2497,26.8802,丽江市,丽江古城,,43,31,21,30,19,53,,,,11,10,8,8,0.7,0.6
2025-02-16T0200,2600A,100.2203,26.8906,丽江市,市中心,,24,16,15,16,12,74,,,,9,9,8,10,0.5,0.6
2025-02-16T0200,1267A,119.914,28.4514,丽水市,监测站大楼,,49,,38,34,37,11,,,,25,22,3,4,0.9,0.6
2025-02-16T0200,1268A,119.93,28.4586,丽水市,莲都小学,细颗粒物(PM2.5),59,44,45,42,31,14,,,,26,26,6,5,0.8,0.6
2025-02-16T0200,1269A,119.879,28.4231,丽水市,余庄前,细颗粒物(PM2.5),53,43,45,37,33,8,,,,23,21,4,4,0.9,0.7
2025-02-16T0200,1173A,119.176,34.5885,连云港市,市环境监测站,细颗粒物(PM2.5),107,122,105,80,71,74,,,,22,27,10,10,0.6,0.6
2025-02-16T0200,3000A,119.3581,34.6972,连云港市,德源药业,细颗粒物(PM2.5),107,114,106,80,71,38,,,,56,47,6,7,0.7,0.7
2025-02-16T0200,3007A,119.178,34.844,连云港市,新城一中,细颗粒物(PM2.5),128,120,107,97,87,43,,,,45,39,10,11,0.8,0.8
2025-02-16T0200,3008A,119.3608,34.7519,连云港市,胡沟管理处,细颗粒物(PM2.5),98,97,85,73,62,76,,,,33,37,8,7,0.9,0.9
2025-02-16T0200,3009A,119.1478,34.5911,连云港市,矿山设计院,细颗粒物(PM2.5),110,136,116,83,71,72,,,,28,30,7,6,0.9,1
2025-02-16T0200,3434A,119.2413,34.6539,连云港市,工贸学校,细颗粒物(PM2.5),108,114,114,81,82,83,,,,22,30,11,11,0.7,0.7
2025-02-16T0200,3664A,119.4172,34.7341,连云港市,连云街道,细颗粒物(PM2.5),87,111,105,64,71,99,,,,19,28,10,13,0.7,0.7
2025-02-16T0200,2571A,102.3431,27.8099,凉山彝族自治州,青龙寺,,29,29,30,8,7,55,,,,13,8,3,4,0.8,0.9
2025-02-16T0200,2572A,102.2721,27.8415,凉山彝族自治州,邛海宾馆,,36,36,31,18,15,54,,,,20,10,6,5,0.7,0.5
2025-02-16T0200,2573A,102.2625,27.898,凉山彝族自治州,西昌市政府,,29,25,26,20,20,68,,,,5,10,6,8,0.5,0.6
2025-02-16T0200,2574A,102.2685,27.8851,凉山彝族自治州,凉山州政府,,26,24,25,18,19,66,,,,8,11,6,7,0.5,0.5
2025-02-16T0200,2575A,102.237,27.8914,凉山彝族自治州,长安,,29,28,26,20,16,66,,,,9,11,12,12,0.7,0.6
2025-02-16T0200,2212A,123.2,41.1953,辽阳市,宏伟区,颗粒物(PM10),85,119,75,58,69,56,,,,23,14,15,13,0.6,0.5
2025-02-16T0200,2213A,123.1683,41.2495,辽阳市,新华园,颗粒物(PM10),86,122,85,54,72,44,,,,30,23,8,10,1.1,1.1
2025-02-16T0200,2214A,123.2354,41.2639,辽阳市,滨河路,颗粒物(PM10),76,102,77,41,74,57,,,,20,20,6,11,0.8,0.9
2025-02-16T0200,2215A,123.149,41.2991,辽阳市,铁西工业园,颗粒物(PM10),87,123,95,39,74,48,,,,21,26,5,7,0.6,0.8
2025-02-16T0200,2227A,125.1358,42.8845,辽源市,环保局,颗粒物(PM10),58,65,78,34,44,61,,,,21,27,14,13,1.0,1.3
2025-02-16T0200,3239A,125.0764,42.9078,辽源市,银鹰制药,细颗粒物(PM2.5),68,70,84,49,62,63,,,,16,30,6,11,0.9,1.2
2025-02-16T0200,1625A,115.9848,36.4372,聊城市,区政府,颗粒物(PM10),86,122,117,62,65,42,,,,47,43,21,20,1.1,1.1
2025-02-16T0200,2878A,116.0072,36.4343,聊城市,聊大东校,"颗粒物(PM10),细颗粒物(PM2.5)",90,129,124,67,73,48,,,,41,36,16,17,0.8,0.8
2025-02-16T0200,3200A,115.9819,36.4978,聊城市,监控中心,颗粒物(PM10),89,128,121,58,67,36,,,,54,47,20,20,0.9,1
2025-02-16T0200,3513A,116.0445,36.4361,聊城市,九州社区,颗粒物(PM10),84,117,114,61,70,51,,,,37,34,20,19,0.8,0.9
2025-02-16T0200,4018A,116.0567,36.4608,聊城市,星美广场,颗粒物(PM10),79,108,119,52,69,47,,,,32,32,22,21,1.0,1.1
2025-02-16T0200,2632A,94.3681,29.6376,林芝市,林芝监测站,,33,12,10,8,7,105,,,,2,2,7,6,0.5,0.5
2025-02-16T0200,2633A,94.3616,29.6616,林芝市,林芝人民医院,,32,14,15,6,7,102,,,,1,2,6,6,0.5,0.4
2025-02-16T0200,2603A,100.0781,23.8982,临沧市,市环保局,细颗粒物(PM2.5),62,64,62,44,47,64,,,,12,14,8,9,0.6,0.6
2025-02-16T0200,2604A,100.0894,23.8822,临沧市,市气象局,细颗粒物(PM2.5),67,53,56,48,44,59,,,,14,14,9,9,0.5,0.5
2025-02-16T0200,1733A,111.5531,36.0783,临汾市,临钢医院,颗粒物(PM10),65,79,100,24,43,38,,,,20,33,5,8,0.6,1.2
2025-02-16T0200,1734A,111.5028,36.0714,临汾市,技工学校,颗粒物(PM10),70,89,95,32,56,13,,,,52,40,7,12,0.6,1.2
2025-02-16T0200,1736A,111.5018,36.0855,临汾市,市委,颗粒物(PM10),72,94,107,26,48,32,,,,32,41,5,9,0.5,1.1
2025-02-16T0200,3018A,111.505,36.1014,临汾市,唐尧大酒店,颗粒物(PM10),70,90,101,33,48,34,,,,27,39,6,11,0.6,1.1
2025-02-16T0200,4244A,111.4879,36.0530,临汾市,启星学校,颗粒物(PM10),63,76,92,23,57,24,,,,29,38,3,8,0.4,1.1
2025-02-16T0200,2667A,103.2069,35.5993,临夏回族自治州,环保局,颗粒物(PM10),89,127,97,45,26,21,,,,33,20,5,9,1.4,1.1
2025-02-16T0200,2668A,103.2417,35.6057,临夏回族自治州,建设大厦,颗粒物(PM10),58,65,67,22,23,30,,,,18,17,2,3,1.0,1
2025-02-16T0200,1618A,118.3429,35.0532,临沂市,沂河小区,细颗粒物(PM2.5),129,161,126,98,86,39,,,,52,40,28,22,1.2,0.9
2025-02-16T0200,1619A,118.295,35.0583,临沂市,鲁南制药厂,细颗粒物(PM2.5),130,163,132,99,88,43,,,,51,43,28,20,1.1,0.9
2025-02-16T0200,1620A,118.2794,34.9976,临沂市,新光毛纺厂,细颗粒物(PM2.5),127,146,121,96,85,31,,,,60,49,14,21,1.1,1
2025-02-16T0200,1621A,118.3956,35.0888,临沂市,河东保险公司,细颗粒物(PM2.5),125,163,119,95,81,17,,,,74,48,14,16,1.1,0.9
2025-02-16T0200,3370A,118.3564,35.0215,临沂市,十里堡居委,细颗粒物(PM2.5),134,166,126,102,85,22,,,,58,45,24,27,1.0,0.9
2025-02-16T0200,3496A,118.3604,35.1084,临沂市,南坊新区,细颗粒物(PM2.5),128,144,120,97,81,58,,,,44,40,18,14,1.0,0.8
2025-02-16T0200,3860A,118.3920,35.0300,临沂市,皇山花园小区,细颗粒物(PM2.5),127,166,121,96,78,31,,,,63,51,17,20,1.1,1
2025-02-16T0200,1870A,109.4856,24.3895,柳州市,柳东小学,,19,19,17,12,18,41,,,,11,12,10,10,0.7,0.8
2025-02-16T0200,1871A,109.4157,24.3277,柳州市,环保监测站,,28,28,22,19,19,42,,,,12,16,9,10,0.6,0.8
2025-02-16T0200,1872A,109.389,24.341,柳州市,河西水厂,,34,34,22,17,15,30,,,,20,14,12,6,1.6,1.1
2025-02-16T0200,1873A,109.4311,24.2921,柳州市,市四中,,22,22,19,14,17,42,,,,10,14,7,9,0.5,0.8
2025-02-16T0200,1874A,109.4006,24.3631,柳州市,市九中,,28,28,26,16,18,32,,,,18,17,6,11,0.7,1.3
2025-02-16T0200,1875A,109.4958,24.3134,柳州市,古亭山,,18,17,15,12,15,40,,,,6,8,7,7,0.5,0.7
2025-02-16T0200,3402A,109.5422,24.3996,柳州市,市二中,,22,,16,15,14,16,,,,15,12,9,8,0.8,0.8
2025-02-16T0200,2307A,116.5079,31.737,六安市,监测大楼,细颗粒物(PM2.5),82,66,79,60,61,70,,,,25,29,5,6,0.7,0.8
2025-02-16T0200,2308A,116.4738,31.7643,六安市,皖西学院,细颗粒物(PM2.5),84,81,87,62,60,50,,,,32,33,4,5,0.7,0.8
2025-02-16T0200,2309A,116.4996,31.7905,六安市,朝阳厂,细颗粒物(PM2.5),78,67,80,57,60,87,,,,21,32,5,5,0.7,0.8
2025-02-16T0200,2310A,116.5567,31.7886,六安市,开发区,细颗粒物(PM2.5),87,111,100,64,64,27,,,,41,37,3,5,0.7,0.7
2025-02-16T0200,2577A,104.83,26.5917,六盘水市,黄土坡,,42,,43,29,30,48,,,,10,16,8,12,0.6,0.7
2025-02-16T0200,2578A,104.89,26.5939,六盘水市,水钢,,43,,56,30,43,39,,,,21,21,9,11,0.7,0.7
2025-02-16T0200,2579A,104.8475,26.5894,六盘水市,民中,,28,27,38,19,29,42,,,,13,18,9,11,0.6,0.6
2025-02-16T0200,2580A,104.9544,26.5506,六盘水市,双水,,26,24,35,18,26,49,,,,11,12,9,10,0.6,0.6
2025-02-16T0200,2336A,117.0217,25.1033,龙岩市,龙岩市监测站,细颗粒物(PM2.5),55,40,30,39,22,34,,,,17,18,11,7,0.7,0.7
2025-02-16T0200,2337A,117.0258,25.0661,龙岩市,闽西职业技术学院,,49,,35,34,22,41,,,,12,17,4,3,0.6,0.6
2025-02-16T0200,2338A,117.0196,25.0306,龙岩市,龙岩学院,,32,,27,22,21,25,,,,17,10,3,3,0.5,0.5
2025-02-16T0200,2885A,104.9339,33.3826,陇南市,滨江中学,颗粒物(PM10),52,54,57,34,30,34,,,,31,21,30,22,1.2,1
2025-02-16T0200,3247A,104.955,33.371,陇南市,市总工会,,,,65,20,28,59,,,,8,16,6,11,0.7,0.9
2025-02-16T0200,2487A,111.9589,27.8901,娄底市,电视发射台,,30,25,25,21,21,16,,,,8,11,5,5,0.6,0.7
2025-02-16T0200,2488A,111.9975,27.725,娄底市,市监测站,,50,50,39,34,31,14,,,,21,19,8,10,0.9,1
2025-02-16T0200,2489A,112.0194,27.7314,娄底市,市委党校,,49,42,42,34,33,20,,,,16,22,3,3,0.6,0.8
2025-02-16T0200,2490A,111.9561,27.7569,娄底市,涟钢,颗粒物(PM10),53,55,42,35,31,10,,,,19,18,9,12,0.6,0.7
2025-02-16T0200,2491A,111.9892,27.7044,娄底市,市政府,,39,39,40,24,34,14,,,,20,18,5,8,0.5,0.6
2025-02-16T0200,1894A,105.4427,28.9063,泸州市,小市上码头,细颗粒物(PM2.5),88,112,75,65,46,6,,,,53,25,6,6,0.9,0.5
2025-02-16T0200,1895A,105.4241,28.8573,泸州市,兰田宪桥,细颗粒物(PM2.5),72,76,62,52,40,6,,,,38,23,3,3,0.7,0.6
2025-02-16T0200,1896A,105.4379,28.8833,泸州市,市环监站,细颗粒物(PM2.5),74,86,70,54,41,10,,,,52,25,5,6,0.6,0.4
2025-02-16T0200,3490A,105.3617,28.7703,泸州市,纳溪区环保局,细颗粒物(PM2.5),58,62,67,41,45,2,,,,25,19,5,6,0.9,0.8
2025-02-16T0200,2183A,111.1406,37.5211,吕梁市,环保局,颗粒物(PM10),71,92,108,23,25,29,,,,44,27,3,5,0.3,0.4
2025-02-16T0200,2185A,111.1297,37.5136,吕梁市,自来水公司,颗粒物(PM10),75,100,106,32,27,39,,,,35,23,2,6,0.3,0.5
2025-02-16T0200,2867A,111.1283,37.51,吕梁市,马茂庄小学,颗粒物(PM10),85,120,114,26,26,27,,,,49,29,14,9,0.1,0.3
2025-02-16T0200,1812A,112.3931,34.6516,洛阳市,市委党校,颗粒物(PM10),60,70,81,34,36,46,,,,31,31,6,8,0.4,0.5
2025-02-16T0200,1815A,112.494,34.6886,洛阳市,河南林校,细颗粒物(PM2.5),78,79,84,57,51,25,,,,62,39,5,6,0.7,0.7
2025-02-16T0200,1816A,112.3844,34.623,洛阳市,开发区管委会,细颗粒物(PM2.5),72,80,82,52,48,49,,,,25,22,6,6,0.5,0.6
2025-02-16T0200,1817A,112.4267,34.6258,洛阳市,市委新办公区,颗粒物(PM10),63,75,79,44,43,54,,,,26,23,6,6,0.6,0.6
2025-02-16T0200,3340A,112.6005,34.6326,洛阳市,伊滨,细颗粒物(PM2.5),67,79,85,48,51,61,,,,18,17,5,5,0.7,0.7
2025-02-16T0200,3341A,112.4951,34.6332,洛阳市,中移产业园,颗粒物(PM10),57,64,70,37,40,61,,,,32,32,6,7,0.5,0.5
2025-02-16T0200,3593A,112.5736,34.8993,洛阳市,吉利监测站,颗粒物(PM10),69,87,67,28,37,10,,,,67,29,6,7,0.4,0.5
2025-02-16T0200,3635A,112.3677,34.662,洛阳市,河科大西苑校区,颗粒物(PM10),64,77,86,45,45,36,,,,32,25,15,11,0.7,0.7
2025-02-16T0200,3636A,112.4388,34.6781,洛阳市,英才小学,颗粒物(PM10),66,81,86,43,45,46,,,,42,36,6,8,0.5,0.5
2025-02-16T0200,4214A,112.4600,34.6949,洛阳市,春都路1号院,颗粒物(PM10),67,83,101,38,45,48,,,,46,40,8,10,0.5,0.8
2025-02-16T0200,2399A,114.051,33.5699,漯河市,三五一五工厂,细颗粒物(PM2.5),67,81,97,48,61,68,,,,18,17,6,6,0.5,0.5
2025-02-16T0200,2400A,114.0055,33.5698,漯河市,漯河大学,颗粒物(PM10),69,88,98,48,57,68,,,,20,21,8,7,0.4,0.4
2025-02-16T0200,2401A,114.0138,33.5828,漯河市,市水利局,"颗粒物(PM10),细颗粒物(PM2.5)",70,90,94,51,54,66,,,,17,16,5,5,0.4,0.5
2025-02-16T0200,2402A,114.0261,33.5698,漯河市,市广电局,"颗粒物(PM10),细颗粒物(PM2.5)",67,83,94,48,56,72,,,,18,17,7,7,0.4,0.5
2025-02-16T0200,3478A,113.9749,33.5664,漯河市,市图书馆,细颗粒物(PM2.5),93,94,105,69,62,69,,,,16,15,7,5,0.6,0.6
2025-02-16T0200,4250A,114.0892,33.5882,漯河市,韶山路11号,颗粒物(PM10),75,99,106,53,60,72,,,,14,16,8,8,0.5,0.5
2025-02-16T0200,1798A,118.5092,31.6837,马鞍山市,湖东路四小,细颗粒物(PM2.5),108,103,119,81,81,25,,,,42,47,10,11,1.1,1
2025-02-16T0200,1799A,118.5024,31.6449,马鞍山市,开发区,细颗粒物(PM2.5),120,115,118,91,94,8,,,,55,49,8,8,1.0,0.8
2025-02-16T0200,1802A,118.6245,31.7241,马鞍山市,濮塘,细颗粒物(PM2.5),123,108,113,93,93,21,,,,66,55,5,9,1.1,1.1
2025-02-16T0200,3633A,118.4918,31.6809,马鞍山市,雨山,细颗粒物(PM2.5),117,118,127,88,92,14,,,,44,44,7,8,1.2,0.9
2025-02-16T0200,4191A,118.5274,31.72227,马鞍山市,慈湖高新区,细颗粒物(PM2.5),119,110,121,90,97,28,,,,39,49,11,11,1.2,0.9
2025-02-16T0200,1686A,111.0286,21.4688,茂名市,电白南海,,,22,26,,13,69,,,,12,10,3,3,0.7,0.7
2025-02-16T0200,1687A,110.9294,21.6533,茂名市,茂石化七小,,32,31,29,22,21,52,,,,11,10,1,1,0.5,0.6
2025-02-16T0200,1688A,110.9107,21.6687,茂名市,健康路,,27,27,26,14,19,49,,,,13,10,4,2,0.7,0.8
2025-02-16T0200,1689A,110.8592,21.6828,茂名市,高岭,,41,41,38,22,18,32,,,,16,15,3,14,0.7,0.8
2025-02-16T0200,3450A,111.01,21.5165,茂名市,电白水东,,23,14,20,7,11,72,,,,3,5,5,3,0.6,0.6
2025-02-16T0200,2539A,104.0308,30.0478,眉山市,黑龙滩水库,细颗粒物(PM2.5),53,49,44,37,36,40,,,,8,6,2,3,0.5,0.5
2025-02-16T0200,2540A,103.8416,30.0874,眉山市,气象局,细颗粒物(PM2.5),79,82,58,58,41,17,,,,42,21,5,6,0.6,0.5
2025-02-16T0200,3137A,103.8578,30.0744,眉山市,市委党校,细颗粒物(PM2.5),64,61,48,46,33,20,,,,38,24,6,7,0.6,0.5
2025-02-16T0200,3148A,103.8291,30.0564,眉山市,区人社局,细颗粒物(PM2.5),70,,40,51,35,11,,,,54,25,7,8,0.7,0.5
2025-02-16T0200,1690A,116.1231,24.3284,梅州市,梅江月梅,,40,40,30,22,23,7,,,,39,22,8,8,0.6,0.6
2025-02-16T0200,1691A,116.0797,24.2719,梅州市,梅县新城,,38,28,34,26,26,41,,,,16,21,5,5,0.5,0.6
2025-02-16T0200,1692A,116.1248,24.2654,梅州市,环境监控中心,,39,36,32,27,29,16,,,,38,23,6,8,0.6,0.6
2025-02-16T0200,3315A,116.1233,24.2991,梅州市,梅龙,,30,29,36,21,25,32,,,,31,30,6,7,0.7,0.8
2025-02-16T0200,1878A,104.7778,31.4741,绵阳市,富乐山,细颗粒物(PM2.5),58,53,46,41,34,40,,,,19,23,2,2,0.7,0.7
2025-02-16T0200,1880A,104.6697,31.4668,绵阳市,高新区自来水公司,细颗粒物(PM2.5),64,72,62,46,35,11,,,,36,28,3,3,0.6,0.6
2025-02-16T0200,1881A,104.7287,31.5075,绵阳市,三水厂,细颗粒物(PM2.5),69,73,62,50,41,17,,,,37,33,6,6,1.0,1
2025-02-16T0200,3491A,104.69,31.5322,绵阳市,西科大附属小学,细颗粒物(PM2.5),60,67,62,43,37,11,,,,50,35,6,6,1.0,0.9
2025-02-16T0200,3492A,104.5648,31.5343,绵阳市,安州区旅游局,细颗粒物(PM2.5),85,72,60,63,42,4,,,,37,30,10,9,0.9,0.7
2025-02-16T0200,4226A,104.7651,31.4531,绵阳市,绵阳市气象局,细颗粒物(PM2.5),68,77,60,49,35,22,,,,37,26,4,5,0.7,0.6
2025-02-16T0200,1784A,129.61,44.561,牡丹江市,环保大楼,细颗粒物(PM2.5),58,57,85,41,50,54,,,,24,45,10,13,0.6,0.9
2025-02-16T0200,1785A,129.6115,44.5782,牡丹江市,文化广场,细颗粒物(PM2.5),69,72,102,50,58,49,,,,40,51,18,17,0.7,1.2
2025-02-16T0200,1786A,129.5904,44.5963,牡丹江市,第一医院,细颗粒物(PM2.5),83,66,78,61,59,39,,,,34,38,13,15,0.9,1
2025-02-16T0200,1787A,129.6364,44.6075,牡丹江市,机车工厂,细颗粒物(PM2.5),68,66,99,49,56,39,,,,25,36,12,15,0.8,1
2025-02-16T0200,1788A,129.6386,44.5462,牡丹江市,第一中学,细颗粒物(PM2.5),63,65,60,45,38,23,,,,39,40,10,12,1.2,1
2025-02-16T0200,2531A,105.0703,29.61,内江市,市监测站,细颗粒物(PM2.5),64,,36,46,43,27,,,,22,27,5,6,0.6,0.7
2025-02-16T0200,2532A,105.0717,29.5947,内江市,东兴区政府,细颗粒物(PM2.5),57,52,41,40,34,30,,,,24,25,5,5,0.7,0.7
2025-02-16T0200,2533A,105.0653,29.5817,内江市,内江二中,细颗粒物(PM2.5),68,61,49,49,38,16,,,,38,23,7,7,0.9,0.8
2025-02-16T0200,2534A,105.0406,29.5822,内江市,内江日报社,细颗粒物(PM2.5),77,,49,56,42,31,,,,28,29,7,8,0.6,0.6
2025-02-16T0200,2628A,92.0657,31.4846,那曲市,那曲监测站,,23,16,30,3,16,71,,,,9,11,13,9,0.5,0.7
2025-02-16T0200,3128A,92.0506,31.4797,那曲市,那曲会议中心,,30,23,27,6,10,94,,,,1,5,2,3,0.5,0.5
2025-02-16T0200,1290A,115.8931,28.6843,南昌市,省外办,细颗粒物(PM2.5),55,54,37,39,35,16,,,,35,23,4,4,0.6,0.4
2025-02-16T0200,1291A,115.8886,28.7003,南昌市,省林业公司,细颗粒物(PM2.5),55,46,30,39,31,3,,,,39,23,6,6,0.5,0.4
2025-02-16T0200,1292A,115.8126,28.7442,南昌市,林科所,,28,19,25,19,23,6,,,,36,28,5,5,0.8,0.7
2025-02-16T0200,1294A,115.8518,28.687,南昌市,建工学校,细颗粒物(PM2.5),62,44,31,44,31,9,,,,42,30,7,7,0.9,0.8
2025-02-16T0200,1295A,115.8921,28.6424,南昌市,象湖,,47,47,28,31,30,2,,,,41,27,6,5,0.9,0.8
2025-02-16T0200,1296A,115.7423,28.7996,南昌市,武术学校,,17,17,18,7,12,14,,,,11,13,3,3,0.6,0.6
2025-02-16T0200,3046A,115.9084,28.6062,南昌市,机电学校,细颗粒物(PM2.5),55,55,37,39,30,3,,,,35,25,6,6,0.9,0.8
2025-02-16T0200,3690A,115.9721,28.7031,南昌市,外国语学校,颗粒物(PM10),51,52,38,32,29,2,,,,39,27,3,2,0.4,0.5
2025-02-16T0200,4192A,115.9316,28.68677,南昌市,南京东路235号,细颗粒物(PM2.5),62,50,36,44,35,8,,,,46,30,5,4,0.8,0.7
2025-02-16T0200,1905A,106.056,30.8064,南充市,西山风景区,,49,,31,34,30,43,,,,8,10,3,3,0.6,0.6
2025-02-16T0200,1906A,106.0789,30.8023,南充市,南充市委,细颗粒物(PM2.5),57,52,45,40,35,14,,,,24,24,3,3,0.6,0.7
2025-02-16T0200,1907A,106.1031,30.8217,南充市,南充炼油厂,细颗粒物(PM2.5),72,73,49,52,38,1,,,,37,25,3,4,0.9,0.8
2025-02-16T0200,1909A,106.0642,30.7636,南充市,嘉陵区环保局,颗粒物(PM10),52,54,51,34,33,2,,,,40,28,4,4,0.9,0.9
2025-02-16T0200,1910A,106.1087,30.8388,南充市,市环境监测站,颗粒物(PM10),58,66,50,40,39,0,,,,39,29,6,6,0.7,0.6
2025-02-16T0200,4227A,106.1083,30.7884,南充市,梨树横街98号,细颗粒物(PM2.5),62,60,47,44,35,2,,,,42,28,5,5,1.1,0.8
2025-02-16T0200,1151A,118.8086,32.1065,南京市,迈皋桥,细颗粒物(PM2.5),94,105,96,70,65,23,,,,50,42,4,4,0.9,0.7
2025-02-16T0200,1152A,118.7538,32.0551,南京市,草场门,细颗粒物(PM2.5),104,102,95,78,70,6,,,,60,45,8,7,1.1,0.9
2025-02-16T0200,1153A,118.7794,32.0745,南京市,山西路,细颗粒物(PM2.5),110,119,110,83,75,27,,,,44,33,4,4,0.9,0.7
2025-02-16T0200,1154A,118.7752,32.0023,南京市,中华门,细颗粒物(PM2.5),110,110,99,83,72,16,,,,49,40,4,4,1.0,0.7
2025-02-16T0200,1155A,118.8109,32.0309,南京市,瑞金路,细颗粒物(PM2.5),113,110,104,85,74,10,,,,54,43,7,7,1.1,0.9
2025-02-16T0200,1156A,118.7997,32.0754,南京市,玄武湖,细颗粒物(PM2.5),118,118,103,89,72,16,,,,42,33,8,8,0.8,0.7
2025-02-16T0200,1157A,118.6414,32.0931,南京市,浦口,细颗粒物(PM2.5),105,123,109,79,68,43,,,,25,36,7,7,0.7,0.7
2025-02-16T0200,1158A,118.7356,31.9996,南京市,奥体中心,细颗粒物(PM2.5),110,117,109,83,74,17,,,,55,48,8,7,0.9,0.7
2025-02-16T0200,1159A,118.9125,32.1028,南京市,仙林大学城,细颗粒物(PM2.5),122,110,99,92,74,15,,,,59,46,10,10,1.4,1
2025-02-16T0200,3422A,118.8436,31.9198,南京市,江宁彩虹桥,细颗粒物(PM2.5),104,131,113,78,68,21,,,,38,36,6,6,1.2,0.9
2025-02-16T0200,3423A,119.0138,31.6494,南京市,溧水永阳,细颗粒物(PM2.5),139,,96,106,95,17,,,,34,37,4,5,1.2,1
2025-02-16T0200,3427A,118.8554,32.3578,南京市,六合雄州,"颗粒物(PM10),细颗粒物(PM2.5)",74,98,101,54,58,57,,,,12,37,5,6,0.8,0.9
2025-02-16T0200,4249A,118.8708,31.3402,南京市,汶溪路181号,细颗粒物(PM2.5),112,109,112,84,98,23,,,,22,23,2,4,1.2,1.1
2025-02-16T0200,1401A,108.3103,22.7881,南宁市,二十一中,,29,29,41,12,32,13,,,,25,25,5,6,0.8,0.9
2025-02-16T0200,1402A,108.3141,22.8528,南宁市,北湖,,22,,43,15,36,12,,,,27,26,6,11,0.8,1
2025-02-16T0200,1403A,108.3206,22.8225,南宁市,市监测站,,28,25,42,19,40,13,,,,24,24,10,10,1.0,1.1
2025-02-16T0200,1404A,108.3829,22.8037,南宁市,大自然花园,,28,28,38,18,37,15,,,,21,19,8,5,0.7,1.2
2025-02-16T0200,1405A,108.4394,22.7904,南宁市,仙葫,,29,29,39,18,33,5,,,,23,17,2,2,0.7,0.8
2025-02-16T0200,1406A,108.2397,22.8467,南宁市,区农职院,,26,26,43,12,25,18,,,,13,19,6,6,0.7,0.9
2025-02-16T0200,1407A,108.3275,22.735,南宁市,英华嘉园,,26,26,37,13,28,8,,,,26,21,6,6,0.7,0.7
2025-02-16T0200,3401A,108.4834,22.7618,南宁市,红星社区,,24,24,46,15,36,16,,,,14,15,8,8,0.8,1
2025-02-16T0200,4221A,108.2177,22.7774,南宁市,乐贤路16号,,23,20,32,16,28,17,,,,16,23,4,4,0.8,0.9
2025-02-16T0200,2332A,118.1681,26.6369,南平市,南平市监测站,细颗粒物(PM2.5),62,56,47,44,35,27,,,,11,15,4,6,0.7,0.7
2025-02-16T0200,2333A,118.1825,26.6489,南平市,南平铝业有限公司,细颗粒物(PM2.5),68,50,36,49,36,30,,,,13,17,4,6,0.8,0.8
2025-02-16T0200,2334A,118.1756,26.6272,南平市,南平七中,细颗粒物(PM2.5),62,50,38,44,31,21,,,,13,14,4,5,0.8,0.7
2025-02-16T0200,1168A,120.9098,31.9663,南通市,狼山街道,细颗粒物(PM2.5),142,142,87,108,71,3,,,,58,48,8,7,1.2,0.8
2025-02-16T0200,1169A,120.86,32.0005,南通市,虹桥,细颗粒物(PM2.5),169,149,97,128,77,0,,,,79,54,8,6,1.3,0.4
2025-02-16T0200,1170A,120.87,32.02,南通市,城中,细颗粒物(PM2.5),158,162,110,120,76,4,,,,67,58,9,7,1.7,0.7
2025-02-16T0200,1171A,120.94,31.93,南通市,星湖花园,细颗粒物(PM2.5),149,144,84,114,65,0,,,,66,53,6,6,1.1,0.6
2025-02-16T0200,1172A,120.81,32.0417,南通市,紫琅学院,细颗粒物(PM2.5),158,160,103,120,76,1,,,,67,48,3,2,1.8,1.1
2025-02-16T0200,3291A,121.067,32.062,南通市,通州监测站,细颗粒物(PM2.5),149,146,86,114,64,6,,,,60,34,5,4,1.2,0.8
2025-02-16T0200,3432A,120.9348,31.9883,南通市,环境教育馆,细颗粒物(PM2.5),140,134,93,107,77,2,,,,49,39,5,5,1.3,0.7
2025-02-16T0200,2404A,112.5224,33.0122,南阳市,瓦房庄,细颗粒物(PM2.5),117,129,126,88,83,7,,,,60,38,8,9,1.1,0.8
2025-02-16T0200,2405A,112.5003,32.9735,南阳市,汉画馆,细颗粒物(PM2.5),88,103,119,65,69,8,,,,60,39,7,9,0.7,0.7
2025-02-16T0200,2406A,112.5573,33.027,南阳市,气象站,细颗粒物(PM2.5),107,133,134,80,76,28,,,,49,35,6,7,0.9,0.7
2025-02-16T0200,2407A,112.5481,32.9689,南阳市,理工学院,细颗粒物(PM2.5),104,112,107,78,70,11,,,,72,38,8,7,0.8,0.7
2025-02-16T0200,4008A,112.5234,32.9922,南阳市,卧龙区政府,细颗粒物(PM2.5),95,110,119,71,72,18,,,,56,41,6,7,0.7,0.8
2025-02-16T0200,1234A,121.8358,29.911,宁波市,区环保大楼,细颗粒物(PM2.5),99,78,63,74,45,49,,,,27,46,7,7,0.9,0.8
2025-02-16T0200,1235A,121.56,29.82,宁波市,万里学院,细颗粒物(PM2.5),103,105,68,77,44,22,,,,33,40,6,6,1.0,0.8
2025-02-16T0200,1236A,121.713,29.9572,宁波市,龙赛医院,细颗粒物(PM2.5),105,,64,79,51,47,,,,17,44,6,6,0.8,0.7
2025-02-16T0200,1239A,121.633,29.7733,宁波市,钱湖水厂,细颗粒物(PM2.5),92,75,48,68,36,32,,,,30,40,5,5,1.1,0.9
2025-02-16T0200,1240A,121.5856,29.8635,宁波市,太古小学,细颗粒物(PM2.5),77,79,57,56,40,34,,,,31,44,7,7,0.8,0.6
2025-02-16T0200,1241A,121.524,29.8674,宁波市,市环境监测中心,细颗粒物(PM2.5),104,123,88,78,49,21,,,,43,52,6,6,0.8,0.7
2025-02-16T0200,2871A,121.6147,29.9017,宁波市,万里国际学校,颗粒物(PM10),74,98,59,47,33,30,,,,24,41,6,6,1.1,0.9
2025-02-16T0200,3710A,121.5594,29.8975,宁波市,白沙活动中心,细颗粒物(PM2.5),78,80,54,57,36,30,,,,31,39,5,5,0.7,0.6
2025-02-16T0200,2341A,119.5388,26.6612,宁德市,宁德市监测站,细颗粒物(PM2.5),59,,51,42,46,48,,,,11,14,5,5,0.6,0.9
2025-02-16T0200,3209A,119.5231,26.6562,宁德市,宁德一中,细颗粒物(PM2.5),54,41,43,38,44,37,,,,18,20,5,5,0.6,0.7
2025-02-16T0200,2618A,98.8601,25.8567,怒江傈僳族自治州,州监测站,,33,33,25,21,17,62,,,,5,8,5,5,0.3,0.3
2025-02-16T0200,2619A,98.8546,25.8417,怒江傈僳族自治州,泸水一中,,40,29,23,28,19,33,,,,13,15,6,6,0.4,0.5
2025-02-16T0200,1888A,101.6891,26.571,攀枝花市,弄弄坪,,32,26,42,22,25,56,,,,17,24,12,22,0.6,1.6
2025-02-16T0200,1889A,101.5769,26.5928,攀枝花市,河门口,,38,38,31,21,20,34,,,,28,17,9,9,0.5,0.6
2025-02-16T0200,1890A,101.7169,26.585,攀枝花市,炳草岗,,44,44,37,25,22,18,,,,44,32,6,10,0.7,1.1
2025-02-16T0200,1891A,101.7369,26.5008,攀枝花市,仁和,,30,30,30,20,21,45,,,,15,17,6,7,0.4,0.6
2025-02-16T0200,2835A,101.7227,26.567,攀枝花市,四十中小,,43,43,44,23,26,3,,,,62,36,12,19,1.1,1.5
2025-02-16T0200,1604A,122.0303,41.1489,盘锦市,开发区,颗粒物(PM10),59,68,98,8,82,72,,,,8,29,9,10,0.4,0.9
2025-02-16T0200,1605A,122.0485,41.0883,盘锦市,兴隆台,颗粒物(PM10),60,70,94,7,80,74,,,,7,30,7,8,0.4,1
2025-02-16T0200,1606A,121.8297,41.1028,盘锦市,新生街道,颗粒物(PM10),52,54,85,10,86,51,,,,34,40,10,11,0.5,1.1
2025-02-16T0200,1832A,113.3257,33.742,平顶山市,新华旅馆,颗粒物(PM10),80,110,109,52,53,58,,,,26,23,4,5,0.3,0.4
2025-02-16T0200,1833A,113.2919,33.737,平顶山市,规划设计院,颗粒物(PM10),69,88,105,42,52,49,,,,32,30,5,6,0.3,0.3
2025-02-16T0200,1834A,113.182,33.774,平顶山市,平顶山工学院,颗粒物(PM10),60,70,87,34,45,66,,,,24,19,4,6,0.6,0.6
2025-02-16T0200,3204A,113.3025,33.73,平顶山市,规划局,细颗粒物(PM2.5),67,80,100,48,58,49,,,,36,28,3,5,0.5,0.2
2025-02-16T0200,3594A,112.8867,33.9116,平顶山市,石龙区,颗粒物(PM10),55,59,79,19,31,84,,,,19,26,5,7,0.3,0.5
2025-02-16T0200,2656A,106.6692,35.5461,平凉市,聚贤嘉苑,颗粒物(PM10),61,72,64,27,22,58,,,,25,25,8,8,0.3,0.3
2025-02-16T0200,2657A,106.7021,35.5307,平凉市,博物馆,颗粒物(PM10),60,69,71,26,25,52,,,,29,27,26,13,0.6,0.5
2025-02-16T0200,2347A,114.0997,27.5002,萍乡市,武功山,,18,,22,12,25,45,,,,6,10,5,6,0.7,0.7
2025-02-16T0200,2348A,113.8385,27.6434,萍乡市,中医院,,46,36,48,32,35,42,,,,16,25,7,8,1.1,1.2
2025-02-16T0200,2349A,113.8493,27.6253,萍乡市,市政府车库,细颗粒物(PM2.5),54,,39,38,40,45,,,,8,17,6,7,0.9,0.9
2025-02-16T0200,2350A,113.8676,27.6435,萍乡市,市环保局,,45,41,47,31,38,41,,,,13,25,7,9,1.2,1.2
2025-02-16T0200,2351A,113.866,27.6198,萍乡市,安源区政府,,50,44,44,35,31,45,,,,12,19,8,9,1.0,0.9
2025-02-16T0200,2319A,119.0141,25.4325,莆田市,荔城区仓后路,细颗粒物(PM2.5),84,76,44,62,35,32,,,,22,17,5,5,0.8,0.7
2025-02-16T0200,2320A,119.0015,25.4553,莆田市,莆田市监测站,细颗粒物(PM2.5),53,45,33,37,24,39,,,,11,14,4,4,0.5,0.5
2025-02-16T0200,2321A,119.1119,25.4561,莆田市,涵江区六中,细颗粒物(PM2.5),85,80,43,63,37,17,,,,42,24,4,4,0.7,0.6
2025-02-16T0200,2322A,119.1013,25.3215,莆田市,秀屿区政府,细颗粒物(PM2.5),94,,43,70,45,32,,,,20,17,3,4,0.7,0.6
2025-02-16T0200,2392A,115.0312,35.7636,濮阳市,环保局,颗粒物(PM10),60,70,80,20,40,55,,,,22,27,7,6,0.6,0.7
2025-02-16T0200,2394A,115.0574,35.7609,濮阳市,油田运输公司,颗粒物(PM10),66,81,92,21,41,57,,,,20,31,7,6,0.8,0.9
2025-02-16T0200,3021A,115,35.7668,濮阳市,濮水河管理处,颗粒物(PM10),65,80,96,16,40,53,,,,23,30,7,7,0.8,0.8
2025-02-16T0200,4216A,115.0924,35.7686,濮阳市,任丘路479号,颗粒物(PM10),67,83,92,16,43,58,,,,21,30,8,8,0.5,0.7
2025-02-16T0200,2601A,100.98,22.7633,普洱市,市环保局,颗粒物(PM10),61,72,79,33,37,51,,,,13,11,5,6,0.6,0.6
2025-02-16T0200,2602A,100.9817,22.8322,普洱市,普洱第二中学,颗粒物(PM10),60,70,76,40,40,10,,,,52,24,5,5,0.8,0.7
2025-02-16T0200,2262A,131.0518,45.8751,七台河市,新一中,,23,22,27,12,20,73,,,,11,14,12,13,0.7,0.7
2025-02-16T0200,3637A,131.0176,45.7761,七台河市,人民广场,,30,30,55,21,34,59,,,,18,27,9,10,0.2,0.4
2025-02-16T0200,3684A,130.8781,45.8222,七台河市,新建矿广场,,43,,42,30,34,47,,,,30,29,11,10,0.3,0.3
2025-02-16T0200,1779A,123.9305,47.3636,齐齐哈尔市,安居小区,,38,34,30,26,20,54,,,,23,16,8,13,0.5,0.4
2025-02-16T0200,1780A,123.9488,47.3386,齐齐哈尔市,中心广场,,27,27,27,17,17,67,,,,14,15,5,9,0.4,0.4
2025-02-16T0200,1781A,123.9483,47.3227,齐齐哈尔市,农牧车辆厂,,32,24,24,22,13,64,,,,15,14,6,9,0.3,0.3
2025-02-16T0200,1783A,123.945,47.2988,齐齐哈尔市,市环境监测站,,30,22,28,21,17,70,,,,13,13,6,7,0.3,0.3
2025-02-16T0200,3662A,123.6333,47.2075,齐齐哈尔市,富区青少年活动中心,,23,23,30,16,14,65,,,,11,12,8,8,0.5,0.5
2025-02-16T0200,2591A,107.9783,26.5747,黔东南苗族侗族自治州,市环境监测站,,42,38,26,29,22,19,,,,19,15,6,5,0.8,0.7
2025-02-16T0200,2881A,107.8908,26.5311,黔东南苗族侗族自治州,凯里学院,细颗粒物(PM2.5),128,,16,97,28,25,,,,10,14,4,3,0.9,0.8
2025-02-16T0200,2593A,107.5228,26.2403,黔南布依族苗族自治州,小围寨,,19,19,16,12,12,30,,,,9,10,4,6,0.8,0.8
2025-02-16T0200,3538A,107.5175,26.2978,黔南布依族苗族自治州,沙坝,,31,31,21,19,13,32,,,,5,6,6,6,0.8,0.8
2025-02-16T0200,2589A,104.9022,25.0925,黔西南布依族苗族自治州,场坝街,细颗粒物(PM2.5),59,59,36,42,24,11,,,,24,14,28,7,0.4,0.4
2025-02-16T0200,2590A,104.8811,25.0992,黔西南布依族苗族自治州,坪东大道,细颗粒物(PM2.5),60,,30,43,24,21,,,,15,14,6,6,0.3,0.3
2025-02-16T0200,2502A,108.6236,21.9667,钦州市,市环保站,,27,27,35,14,26,23,,,,16,22,8,7,0.8,0.9
2025-02-16T0200,2503A,108.6549,21.9481,钦州市,沙埠小学,,28,28,34,15,24,19,,,,19,19,6,6,0.9,1
2025-02-16T0200,2504A,108.5989,21.7431,钦州市,港区一小,,43,43,35,22,24,19,,,,26,33,8,11,0.9,0.9
2025-02-16T0200,3404A,108.5959,21.9633,钦州市,北职校,,29,24,34,20,32,24,,,,15,21,6,6,0.9,1
2025-02-16T0200,1043A,119.7493,40.0116,秦皇岛市,第一关,颗粒物(PM10),75,100,148,42,90,73,,,,11,71,5,17,0.2,1.4
2025-02-16T0200,1044A,119.5897,39.9499,秦皇岛市,监测站,颗粒物(PM10),78,105,150,37,85,69,,,,15,69,5,16,0.3,1.6
2025-02-16T0200,1046A,119.5251,39.9041,秦皇岛市,建设大厦,颗粒物(PM10),83,116,157,34,76,66,,,,15,65,4,18,0.3,1.5
2025-02-16T0200,3132A,119.610547,39.943889,秦皇岛市,文明里,颗粒物(PM10),85,120,168,40,72,68,,,,12,71,6,15,0.1,1.3
2025-02-16T0200,4198A,119.5090,39.8253,秦皇岛市,北戴河轮滑馆,颗粒物(PM10),84,118,151,42,76,61,,,,18,57,8,14,0.3,1
2025-02-16T0200,1307A,120.6659,36.2403,青岛市,仰口,细颗粒物(PM2.5),97,106,94,72,69,97,,,,20,19,11,6,0.9,0.9
2025-02-16T0200,1310A,120.4134,36.0658,青岛市,市南区东部子站,细颗粒物(PM2.5),132,146,124,100,78,45,,,,49,39,10,10,0.9,0.8
2025-02-16T0200,1311A,120.3664,36.1032,青岛市,四方区子站,细颗粒物(PM2.5),138,144,122,105,91,40,,,,56,43,6,8,1.0,1.2
2025-02-16T0200,1312A,120.2994,36.054,青岛市,市南区西部子站,细颗粒物(PM2.5),113,163,122,85,78,6,,,,137,64,16,10,1.0,1.2
2025-02-16T0200,1313A,120.4581,36.0858,青岛市,崂山区子站,细颗粒物(PM2.5),117,136,115,88,74,57,,,,42,38,10,10,0.8,0.9
2025-02-16T0200,1315A,120.3999,36.3083,青岛市,城阳区子站,细颗粒物(PM2.5),108,151,124,81,68,43,,,,71,54,12,12,1.1,1.2
2025-02-16T0200,1966A,120.0405,35.8735,青岛市,黄岛区4号,细颗粒物(PM2.5),113,136,127,85,90,64,,,,53,58,16,13,1.3,1.4
2025-02-16T0200,3362A,120.5014,36.4034,青岛市,即墨2号,细颗粒物(PM2.5),156,166,137,119,96,47,,,,54,41,16,15,1.3,1.2
2025-02-16T0200,3642A,120.3503,36.0736,青岛市,市北区南部,细颗粒物(PM2.5),110,142,124,83,77,31,,,,66,38,11,8,1.0,1.1
2025-02-16T0200,3643A,120.3948,36.1805,青岛市,李沧区北部,细颗粒物(PM2.5),134,139,122,102,91,55,,,,49,46,15,15,1.2,1.3
2025-02-16T0200,1702A,113.0426,23.691,清远市,环保大楼,颗粒物(PM10),91,132,89,50,37,35,,,,13,30,4,4,1.0,1
2025-02-16T0200,1703A,113.0208,23.7106,清远市,凤城街办,细颗粒物(PM2.5),62,64,62,44,44,27,,,,28,37,7,7,0.9,0.8
2025-02-16T0200,3025A,113.0477,23.6344,清远市,技师学院,颗粒物(PM10),59,68,60,40,36,35,,,,24,34,9,8,0.9,0.8
2025-02-16T0200,3318A,112.9903,23.7403,清远市,清新太和,细颗粒物(PM2.5),60,68,61,43,37,46,,,,14,29,8,8,0.9,0.8
2025-02-16T0200,3455A,113.076,23.7198,清远市,清城东城,颗粒物(PM10),77,103,76,55,42,40,,,,14,29,6,6,1.1,1
2025-02-16T0200,2661A,107.6325,35.7357,庆阳市,庆阳五中,颗粒物(PM10),67,84,59,25,21,85,,,,4,8,2,3,0.3,0.3
2025-02-16T0200,2662A,107.6364,35.7067,庆阳市,市环保局,颗粒物(PM10),68,86,60,23,19,87,,,,4,7,3,3,0.4,0.3
2025-02-16T0200,1916A,103.7897,25.5035,曲靖市,环境监测站,细颗粒物(PM2.5),77,76,57,56,34,36,,,,21,26,15,7,0.8,0.6
2025-02-16T0200,1917A,103.8,25.5364,曲靖市,烟厂办公区,颗粒物(PM10),63,76,58,39,36,47,,,,18,26,6,6,0.8,0.5
2025-02-16T0200,3376A,103.7947,25.462,曲靖市,南苑二区,颗粒物(PM10),62,73,49,39,33,39,,,,20,13,15,5,1.0,0.6
2025-02-16T0200,3377A,103.7444,25.5261,曲靖市,曲靖师范学院,细颗粒物(PM2.5),79,101,59,58,43,31,,,,31,22,8,17,0.7,0.6
2025-02-16T0200,1264A,118.8692,28.9398,衢州市,环保大楼,,32,28,80,22,61,39,,,,8,29,3,4,0.6,0.8
2025-02-16T0200,1265A,118.8709,28.9666,衢州市,实验学校,,25,20,65,17,56,44,,,,11,21,4,3,0.7,0.9
2025-02-16T0200,1266A,118.8621,28.9808,衢州市,衢州学院,,29,22,71,20,61,32,,,,14,34,4,4,0.7,0.8
2025-02-16T0200,1611A,118.5819,24.9117,泉州市,涂山街,细颗粒物(PM2.5),60,,33,43,32,62,,,,12,19,2,4,0.7,0.7
2025-02-16T0200,1612A,118.5972,24.8978,泉州市,津头埔,细颗粒物(PM2.5),57,,33,40,30,49,,,,16,19,2,4,0.6,0.6
2025-02-16T0200,1613A,118.6663,24.9424,泉州市,万安,,48,,28,33,24,56,,,,15,18,2,3,0.7,0.7
2025-02-16T0200,3529A,118.6333,24.9264,泉州市,城华南路,,50,50,38,35,24,55,,,,14,21,2,3,0.5,0.5
2025-02-16T0200,2626A,88.8876,29.2718,日喀则市,日喀则监测站,,35,27,35,9,10,111,,,,2,6,6,4,0.4,0.5
2025-02-16T0200,3726A,88.8781,29.2426,日喀则市,林业技术推广中心,,34,25,46,7,9,106,,,,2,6,6,6,0.4,0.4
2025-02-16T0200,1659A,119.471,35.4209,日照市,监测站,细颗粒物(PM2.5),109,119,129,82,88,3,,,,95,71,10,12,1.2,1.3
2025-02-16T0200,1660A,119.523,35.4216,日照市,市政府广场,细颗粒物(PM2.5),99,105,132,74,84,6,,,,48,62,10,14,0.9,1.3
2025-02-16T0200,1661A,119.5587,35.4044,日照市,港务局,细颗粒物(PM2.5),113,117,166,85,100,41,,,,71,81,13,17,1.0,1.4
2025-02-16T0200,3507A,119.5328,35.4625,日照市,职业技术学院,细颗粒物(PM2.5),92,117,136,68,81,62,,,,49,63,10,11,1.0,1.3
2025-02-16T0200,3604A,119.3266,35.1044,日照市,岚山环保分局,细颗粒物(PM2.5),107,122,122,80,83,57,,,,42,54,33,16,1.1,1.2
2025-02-16T0200,1835A,111.1922,34.7752,三门峡市,市政府,细颗粒物(PM2.5),70,64,77,51,60,2,,,,59,41,11,10,0.8,0.7
2025-02-16T0200,1836A,111.1587,34.7942,三门峡市,开发区,颗粒物(PM10),67,84,86,40,49,24,,,,46,33,4,5,0.7,0.7
2025-02-16T0200,3039A,111.1911,34.7829,三门峡市,三门峡市第一小学,颗粒物(PM10),59,68,78,34,42,11,,,,56,40,12,10,0.8,0.8
2025-02-16T0200,3598A,111.1,34.7167,三门峡市,富达温泉假日酒店,颗粒物(PM10),70,90,111,38,59,9,,,,70,50,14,16,1.1,1
2025-02-16T0200,2324A,117.6211,26.2625,三明市,三钢,细颗粒物(PM2.5),97,,55,72,60,16,,,,20,22,3,5,0.9,1.1
2025-02-16T0200,2325A,117.635,26.2714,三明市,三明二中,细颗粒物(PM2.5),79,,52,58,50,13,,,,21,23,2,5,0.7,1
2025-02-16T0200,2326A,117.6028,26.2378,三明市,三元区政府,细颗粒物(PM2.5),60,,53,43,50,6,,,,26,23,4,7,0.8,1.2
2025-02-16T0200,1876A,109.5078,18.2489,三亚市,河东子站,,20,10,10,9,5,61,,,,2,4,1,1,0.2,0.2
2025-02-16T0200,1877A,109.4964,18.2681,三亚市,河西子站,,18,8,7,6,4,57,,,,3,4,3,3,0.3,0.3
2025-02-16T0200,3540A,109.7348,18.3443,三亚市,君悦子站,,22,21,13,3,4,69,,,,4,5,3,3,0.3,0.4
2025-02-16T0200,2624A,91.7608,29.2313,山南市,山南监测站,,27,27,33,3,7,79,,,,5,4,7,7,0.4,0.4
2025-02-16T0200,2625A,91.7706,29.2436,山南市,山南人民医院,,34,34,44,6,12,78,,,,4,4,6,4,0.6,0.6
2025-02-16T0200,1674A,116.6794,23.3667,汕头市,金平子站,细颗粒物(PM2.5),97,,27,72,40,88,,,,12,16,6,6,0.5,0.5
2025-02-16T0200,1675A,116.7244,23.3633,汕头市,龙湖子站,细颗粒物(PM2.5),73,,27,53,30,90,,,,15,16,3,4,0.6,0.6
2025-02-16T0200,1676A,116.7258,23.2775,汕头市,濠江子站,细颗粒物(PM2.5),100,,22,75,38,73,,,,10,13,3,4,0.7,0.7
2025-02-16T0200,1677A,116.7519,23.4714,汕头市,澄海子站,细颗粒物(PM2.5),107,,36,80,42,100,,,,12,14,2,4,0.7,0.7
2025-02-16T0200,1678A,116.6092,23.2539,汕头市,潮阳子站,细颗粒物(PM2.5),69,,30,50,27,68,,,,13,13,6,7,0.6,0.7
2025-02-16T0200,3444A,116.454,23.2684,汕头市,潮南峡山,颗粒物(PM10),77,104,61,39,29,77,,,,11,11,8,8,0.6,0.5
2025-02-16T0200,3624A,116.4069,23.2533,汕头市,潮南子站,细颗粒物(PM2.5),78,104,76,57,42,76,,,,14,16,8,9,0.6,0.6
2025-02-16T0200,1693A,115.3653,22.775,汕尾市,市环保局,,43,,24,30,30,61,,,,13,9,8,8,0.8,0.8
2025-02-16T0200,1694A,115.3706,22.7898,汕尾市,市政府,,38,38,25,25,29,61,,,,10,10,9,9,0.7,0.7
2025-02-16T0200,1695A,115.3622,22.7925,汕尾市,新城中学,,42,,29,29,28,54,,,,7,8,8,8,0.5,0.6
2025-02-16T0200,2645A,109.9154,33.8715,商洛市,监测站,颗粒物(PM10),57,64,53,35,24,16,,,,56,35,3,3,0.5,0.5
2025-02-16T0200,3045A,109.9643,33.8471,商洛市,商州区中学,颗粒物(PM10),59,67,57,28,25,10,,,,59,30,2,2,0.6,0.5
2025-02-16T0200,2408A,115.6702,34.4285,商丘市,环境监测站,细颗粒物(PM2.5),80,84,95,59,67,62,,,,34,28,5,6,0.4,0.5
2025-02-16T0200,2409A,115.6458,34.4045,商丘市,粮食局,细颗粒物(PM2.5),82,101,95,60,65,54,,,,32,22,5,6,0.3,0.2
2025-02-16T0200,2410A,115.6293,34.3948,商丘市,睢阳区环保局,细颗粒物(PM2.5),124,130,109,94,73,23,,,,62,35,4,5,0.5,0.6
2025-02-16T0200,3171A,115.6071,34.4465,商丘市,梁园区档案局,细颗粒物(PM2.5),97,102,97,72,70,49,,,,34,27,5,6,0.3,0.4
2025-02-16T0200,1141A,121.4,31.238,上海市,普陀,细颗粒物(PM2.5),142,124,72,108,57,2,,,,70,62,9,6,1.1,0.8
2025-02-16T0200,1142A,121.478,31.2036,上海市,十五厂,细颗粒物(PM2.5),152,132,68,116,60,3,,,,63,55,8,7,1.1,0.9
2025-02-16T0200,1143A,121.467,31.3008,上海市,虹口,细颗粒物(PM2.5),138,109,58,105,55,9,,,,70,61,8,8,1.1,0.8
2025-02-16T0200,1147A,121.425,31.2261,上海市,静安监测站,细颗粒物(PM2.5),144,134,71,110,57,2,,,,67,61,10,9,1.2,0.9
2025-02-16T0200,1148A,121.703,31.1907,上海市,浦东川沙,细颗粒物(PM2.5),122,107,55,92,43,1,,,,70,59,6,5,1.1,0.8
2025-02-16T0200,1149A,121.533,31.2284,上海市,浦东新区监测站,细颗粒物(PM2.5),152,120,64,116,49,13,,,,61,59,7,6,1.2,0.9
2025-02-16T0200,1150A,121.577,31.2071,上海市,浦东张江,细颗粒物(PM2.5),148,120,61,113,50,3,,,,68,54,6,5,1.2,0.9
2025-02-16T0200,3265A,121.4316,31.3322,上海市,宝山庙行,细颗粒物(PM2.5),129,123,70,98,52,4,,,,60,57,8,8,1.1,0.8
2025-02-16T0200,3266A,121.8791,31.4662,上海市,崇明上实东滩,细颗粒物(PM2.5),110,112,49,83,33,5,,,,72,42,4,4,1.0,0.6
2025-02-16T0200,3268A,121.3162,31.2838,上海市,嘉定南翔,细颗粒物(PM2.5),127,107,68,96,56,1,,,,60,60,7,6,1.0,0.6
2025-02-16T0200,3269A,121.3359,30.7456,上海市,金山新城,细颗粒物(PM2.5),140,,64,107,59,8,,,,44,34,3,3,1.1,0.8
2025-02-16T0200,3270A,121.4996,31.0739,上海市,闵行浦江,细颗粒物(PM2.5),128,121,62,97,49,4,,,,58,58,5,5,0.9,0.6
2025-02-16T0200,3271A,121.2886,31.1663,上海市,青浦徐泾,细颗粒物(PM2.5),127,112,74,96,58,3,,,,53,53,6,5,1.1,0.8
2025-02-16T0200,3272A,121.2186,31.0378,上海市,松江图书馆,细颗粒物(PM2.5),135,116,74,103,62,5,,,,51,48,7,7,1.1,0.8
2025-02-16T0200,3273A,121.3902,31.2059,上海市,长宁仙霞,细颗粒物(PM2.5),125,116,72,95,53,4,,,,57,56,7,6,1.3,1
