timepoint,stationcode,longitude,latitude,area,positionname,primarypollutant,aqi,pm10,pm10_24h,pm2_5,pm2_5_24h,o3,o3_24h,o3_8h,o3_8h_24h,no2,no2_24h,so2,so2_24h,co,co_24h
2025-02-16T2200,2566A,102.1879,31.914,阿坝藏族羌族自治州,州农科所,,22,18,26,9,10,68,,82,78,5,7,8,9,0,0
2025-02-16T2200,2568A,102.2502,31.8896,阿坝藏族羌族自治州,马师校,,,22,17,18,10,,,100,98,10,10,5,5,0.6,0.5
2025-02-16T2200,3994A,102.2165,31.9024,阿坝藏族羌族自治州,马尔康中学西区,,,,15,,12,78,,103,99,14,7,7,6,0.7,0.6
2025-02-16T2200,2695A,80.292,41.1694,阿克苏地区,电视台,颗粒物(PM10),500,635,396,149,100,33,,70,63,62,43,4,5,1.2,1.3
2025-02-16T2200,2696A,80.2613,41.1551,阿克苏地区,艺术中心,颗粒物(PM10),322,437,409,115,105,4,,70,57,87,45,11,8,2.0,1.4
2025-02-16T2200,2204A,105.6467,38.8363,阿拉善盟,西城区西花园,颗粒物(PM10),56,62,60,25,26,92,,104,97,20,10,18,16,0.8,0.6
2025-02-16T2200,2205A,105.6985,38.8411,阿拉善盟,蒙二幼,,44,44,52,13,16,79,,98,91,10,9,5,5,0.9,0.8
2025-02-16T2200,2206A,105.724,38.8516,阿拉善盟,环保局新楼,,36,36,47,12,16,95,,100,96,4,4,6,6,1.1,1
2025-02-16T2200,2708A,88.1264,47.8517,阿勒泰地区,市站,,21,8,8,3,6,65,,76,71,18,15,4,3,0.4,0.4
2025-02-16T2200,2630A,80.1161,32.5,阿里地区,阿里监测站,,31,6,5,3,3,98,,98,98,1,2,9,8,0.4,0.5
2025-02-16T2200,3192A,80.0903,32.5028,阿里地区,阿里藏医院,,32,8,9,3,3,100,,100,100,2,3,5,6,0.4,0.5
2025-02-16T2200,2642A,109.0318,32.6537,安康市,香溪洞,颗粒物(PM10),53,56,38,21,20,77,,87,87,14,11,13,14,0.5,0.5
2025-02-16T2200,2644A,109.0072,32.6975,安康市,汉滨区检察院,颗粒物(PM10),58,65,43,29,20,44,,73,65,27,18,6,8,0.6,0.5
2025-02-16T2200,4054A,109.0325,32.6913,安康市,市邮政管理局,颗粒物(PM10),66,81,52,43,27,28,,72,53,43,27,8,10,0.8,0.6
2025-02-16T2200,2291A,117.0809,30.5177,安庆市,环科院,细颗粒物(PM2.5),118,130,86,89,64,9,,73,65,93,41,8,7,1.2,1
2025-02-16T2200,2292A,117.0331,30.5119,安庆市,马山宾馆,细颗粒物(PM2.5),119,111,81,90,66,18,,90,82,85,39,10,8,1.2,1
2025-02-16T2200,2294A,116.9896,30.6145,安庆市,安庆大学,细颗粒物(PM2.5),80,88,102,59,76,81,,89,89,27,35,8,8,0.9,1
2025-02-16T2200,3173A,117.0598,30.5351,安庆市,市人大,细颗粒物(PM2.5),127,126,93,96,69,6,,84,74,89,36,8,7,1.2,1
2025-02-16T2200,3123A,105.9408,26.2431,安顺市,凤凰山,细颗粒物(PM2.5),92,70,43,68,36,40,,65,60,25,16,33,20,0.7,0.6
2025-02-16T2200,3124A,105.9439,26.2564,安顺市,金钟山,细颗粒物(PM2.5),90,,39,67,34,44,,67,63,19,12,24,17,0.8,0.6
2025-02-16T2200,3125A,105.8983,26.2481,安顺市,娄家坡,细颗粒物(PM2.5),82,65,42,60,36,42,,64,60,22,16,20,19,0.8,0.7
2025-02-16T2200,1819A,114.3551,36.1017,安阳市,红庙街,颗粒物(PM10),58,65,96,28,22,49,,82,74,26,14,4,9,0.5,0.7
2025-02-16T2200,1820A,114.361,36.0681,安阳市,银杏小区,颗粒物(PM10),59,68,90,31,25,57,,88,79,20,13,4,7,0.3,0.5
2025-02-16T2200,3141A,114.3922,36.0878,安阳市,信访局,颗粒物(PM10),61,72,90,31,24,51,,93,81,29,15,4,7,0.6,0.6
2025-02-16T2200,3669A,114.4705,36.0637,安阳市,左辅环卫站,颗粒物(PM10),74,97,112,44,25,42,,88,72,31,13,4,6,0.5,0.5
2025-02-16T2200,3703A,114.2917,36.0949,安阳市,安钢职工学校,颗粒物(PM10),62,74,96,39,28,35,,86,76,36,17,4,12,0.7,0.8
2025-02-16T2200,1748A,123.044,41.1196,鞍山市,深沟寺,颗粒物(PM10),51,51,50,11,24,62,,72,64,11,17,11,10,0.5,0.6
2025-02-16T2200,1749A,123.011,41.0931,鞍山市,太阳城,颗粒物(PM10),57,63,57,14,26,52,,76,63,26,18,38,13,1.7,0.8
2025-02-16T2200,1750A,123.0485,41.1442,鞍山市,太平,颗粒物(PM10),56,62,51,13,24,61,,77,68,15,19,7,6,1.1,1.1
2025-02-16T2200,1751A,122.9642,41.0971,鞍山市,铁西三道街,颗粒物(PM10),53,56,58,11,28,76,,79,76,11,31,16,23,0.9,1.3
2025-02-16T2200,1753A,123.022,41.0821,鞍山市,明达新区,颗粒物(PM10),54,57,46,14,25,56,,76,67,25,17,32,11,1.5,0.7
2025-02-16T2200,4201A,122.9446,41.0826,鞍山市,兴盛南路290号,颗粒物(PM10),56,62,62,14,33,60,,69,63,17,27,12,15,0.8,1
2025-02-16T2200,2195A,107.4212,40.761,巴彦淖尔市,附二中,,49,49,85,26,31,67,,74,70,13,21,8,13,0.4,0.5
2025-02-16T2200,2196A,107.37,40.7372,巴彦淖尔市,市环保大楼,,47,47,68,24,24,74,,86,83,17,20,4,5,0.2,0.3
2025-02-16T2200,1956A,86.1472,41.7538,巴音郭楞蒙古自治州,孔雀公园,颗粒物(PM10),172,294,320,65,65,64,,75,74,20,34,5,6,0.5,0.7
2025-02-16T2200,1957A,86.1972,41.7166,巴音郭楞蒙古自治州,棉纺厂,颗粒物(PM10),202,351,359,57,53,21,,74,64,67,38,3,4,0.7,0.6
2025-02-16T2200,1958A,86.2357,41.7173,巴音郭楞蒙古自治州,经济开发区,颗粒物(PM10),164,277,282,40,41,77,,80,79,7,13,4,5,0.4,0.4
2025-02-16T2200,2914A,106.7677,31.8794,巴中市,苏山坪,细颗粒物(PM2.5),73,78,55,53,40,51,,73,71,30,16,6,5,0.5,0.5
2025-02-16T2200,3181A,106.7768,31.8526,巴中市,市五中,细颗粒物(PM2.5),83,77,62,61,44,32,,68,63,24,21,5,5,0.8,0.9
2025-02-16T2200,3183A,106.7418,31.8654,巴中市,圣泉水务公司,细颗粒物(PM2.5),79,78,51,58,40,4,,75,60,60,29,5,5,0.9,0.7
2025-02-16T2200,3616A,106.7616,31.8344,巴中市,市中心医院,细颗粒物(PM2.5),78,89,59,57,48,14,,71,60,44,24,5,5,1.1,1
2025-02-16T2200,2235A,122.7911,45.6077,白城市,洮北区环保局,,49,49,29,32,19,53,,78,69,21,11,10,7,0.4,0.3
2025-02-16T2200,2236A,122.8738,45.5725,白城市,市环保局,细颗粒物(PM2.5),55,41,24,39,21,24,,78,66,51,15,4,6,0.6,0.4
2025-02-16T2200,2231A,126.4219,41.9171,白山市,喜丰,,36,36,67,21,38,39,,82,70,44,28,10,11,0.6,0.7
2025-02-16T2200,2232A,126.4077,41.9419,白山市,环保局,颗粒物(PM10),56,62,72,28,45,53,,86,73,26,33,11,12,0.8,0.9
2025-02-16T2200,2647A,104.1724,36.5446,白银市,第三小学,颗粒物(PM10),113,175,178,50,47,83,,94,93,24,19,62,37,1.4,0.5
2025-02-16T2200,2648A,104.1465,36.5482,白银市,动力公司,颗粒物(PM10),108,166,175,52,42,64,,101,93,32,16,23,19,1.0,0.5
2025-02-16T2200,2512A,106.6103,23.9011,百色市,市监测站,,36,36,33,23,20,28,,45,42,16,12,6,6,0.9,0.8
2025-02-16T2200,2513A,106.6538,23.8859,百色市,市中心血站,细颗粒物(PM2.5),52,49,38,36,24,13,,45,38,34,14,8,8,1.0,0.8
2025-02-16T2200,3406A,106.6085,23.8798,百色市,祈福高中,,45,45,37,26,20,10,,44,39,34,16,5,5,1.0,0.9
2025-02-16T2200,2270A,117.396,32.939,蚌埠市,工人疗养院,颗粒物(PM10),74,98,120,30,53,79,,100,93,18,28,6,6,0.5,0.6
2025-02-16T2200,2271A,117.3605,32.9427,蚌埠市,百货大楼,颗粒物(PM10),77,104,120,37,54,74,,100,92,17,22,8,8,0.6,0.6
2025-02-16T2200,2273A,117.4185,32.8911,蚌埠市,蚌埠学院,颗粒物(PM10),70,90,128,28,57,78,,100,94,19,33,7,7,0.4,0.5
2025-02-16T2200,2274A,117.3533,32.9673,蚌埠市,淮上区政府,颗粒物(PM10),85,119,132,48,57,62,,102,86,28,25,10,11,0.7,0.8
2025-02-16T2200,2275A,117.3145,32.8977,蚌埠市,高新区,颗粒物(PM10),91,132,128,47,60,50,,95,80,38,36,10,9,0.5,0.6
2025-02-16T2200,3715A,117.3092,32.9314,蚌埠市,蚌埠田家炳中学,颗粒物(PM10),95,139,135,42,59,37,,97,81,57,41,7,14,0.5,0.5
2025-02-16T2200,1585A,109.8756,40.6532,包头市,市环境监测站,,48,48,28,22,12,12,,82,66,76,22,10,13,0.7,0.6
2025-02-16T2200,1587A,109.9991,40.5842,包头市,包头八中,颗粒物(PM10),52,54,39,24,17,18,,79,64,58,28,11,12,0.5,0.6
2025-02-16T2200,1588A,109.8538,40.6821,包头市,青山宾馆,,38,36,21,25,11,9,,78,61,75,22,7,9,0.7,0.5
2025-02-16T2200,1589A,109.8642,40.6288,包头市,惠龙物流,,39,38,26,27,14,27,,86,74,65,21,7,10,1.6,0.8
2025-02-16T2200,1590A,110.0377,40.5546,包头市,东河鸿龙湾,,38,38,32,3,10,47,,87,74,44,28,8,12,0.5,0.6
2025-02-16T2200,3283A,109.9154,40.5685,包头市,滨河大厦,,27,25,26,9,16,33,,83,74,54,21,8,12,0.7,0.8
2025-02-16T2200,3419A,109.9447,40.6261,包头市,包头市委党校,,36,36,32,11,13,15,,80,65,67,25,8,9,1.0,0.9
2025-02-16T2200,3683A,109.8331,40.6576,包头市,昆区政府,,40,40,26,18,12,36,,79,68,53,20,10,14,0.8,0.7
2025-02-16T2200,1930A,107.185,34.3063,宝鸡市,庙沟村,颗粒物(PM10),74,97,68,38,25,63,,98,88,35,13,7,6,0.6,0.6
2025-02-16T2200,1931A,107.0708,34.3017,宝鸡市,竹园沟,颗粒物(PM10),75,100,73,36,29,55,,100,86,22,15,6,6,0.4,0.3
2025-02-16T2200,1932A,107.1906,34.3672,宝鸡市,三陆医院,颗粒物(PM10),84,118,89,61,33,13,,97,84,73,27,5,5,0.9,0.5
2025-02-16T2200,1933A,107.1431,34.3547,宝鸡市,监测站,细颗粒物(PM2.5),93,110,83,69,29,43,,96,85,34,19,7,7,0.6,0.5
2025-02-16T2200,1934A,107.1186,34.3739,宝鸡市,技工学校,颗粒物(PM10),79,108,84,53,29,55,,91,84,26,18,9,6,0.7,0.5
2025-02-16T2200,1935A,107.3906,34.3528,宝鸡市,陈仓区环保局家属楼,颗粒物(PM10),105,159,99,71,39,35,,94,82,55,32,8,43,0.6,0.5
2025-02-16T2200,1936A,107.2058,34.3497,宝鸡市,文理学院,颗粒物(PM10),85,119,80,61,34,38,,98,84,41,24,5,6,0.4,0.4
2025-02-16T2200,1937A,107.2386,34.3622,宝鸡市,三迪小学,细颗粒物(PM2.5),97,137,88,72,38,43,,89,82,44,30,6,7,0.7,0.5
2025-02-16T2200,1051A,115.493,38.8632,保定市,游泳馆,,39,39,26,23,9,47,,90,76,36,10,5,5,0.1,0.1
2025-02-16T2200,1052A,115.5213,38.8959,保定市,华电二区,细颗粒物(PM2.5),52,40,29,36,16,34,,89,73,47,12,5,7,0.2,0.2
2025-02-16T2200,1053A,115.4713,38.9108,保定市,接待中心,,47,47,38,29,9,45,,84,72,38,13,6,6,0.6,0.4
2025-02-16T2200,1054A,115.4612,38.8416,保定市,地表水厂,颗粒物(PM10),51,51,51,28,9,32,,92,76,57,18,4,2,0.5,0.4
2025-02-16T2200,3581A,115.31981,38.95208,保定市,满城区生态环境分局,颗粒物(PM10),57,63,33,31,11,40,,97,72,49,15,8,7,0.5,0.3
2025-02-16T2200,3582A,115.47694,38.76408,保定市,清苑区第二中学,颗粒物(PM10),65,80,40,41,11,36,,88,72,40,17,6,5,0.4,0.2
2025-02-16T2200,3583A,115.62909,39.02311,保定市,徐水物探局,细颗粒物(PM2.5),70,78,36,51,9,52,,106,88,58,16,8,5,0.5,0.2
2025-02-16T2200,4004A,115.4202,38.8656,保定市,双鹰农机,,50,50,30,25,10,36,,94,79,42,5,4,3,0.5,0.3
2025-02-16T2200,4034A,115.5150,38.8590,保定市,植保所站,颗粒物(PM10),62,74,38,33,17,27,,89,70,57,15,9,4,0.4,0.3
2025-02-16T2200,2594A,99.1678,25.1081,保山市,市环境监测站,细颗粒物(PM2.5),59,46,55,42,41,51,,78,78,8,17,5,6,0.4,0.5
2025-02-16T2200,2595A,99.1711,25.1328,保山市,市环保局,细颗粒物(PM2.5),60,48,53,43,37,64,,89,87,7,10,6,7,0.5,0.5
2025-02-16T2200,1867A,109.1436,21.4086,北海市,海滩公园,,42,36,41,29,29,32,,44,43,14,13,6,6,0.8,0.7
2025-02-16T2200,1868A,109.0981,21.4661,北海市,新市环保局,,49,,33,34,29,32,,42,41,16,14,7,6,0.8,0.8
2025-02-16T2200,1869A,109.1778,21.5233,北海市,北海工业园,,49,37,42,34,33,28,,40,39,17,15,11,8,1.0,1
2025-02-16T2200,3400A,109.1911,21.4415,北海市,龙潭自来水厂,细颗粒物(PM2.5),54,,40,38,36,27,,37,36,15,13,7,6,0.8,0.8
2025-02-16T2200,1001A,116.3621,39.8784,北京市,万寿西宫,,23,22,34,6,10,73,,81,78,9,11,2,2,0.2,0.2
2025-02-16T2200,1003A,116.4174,39.9289,北京市,东四,,26,26,34,7,11,58,,71,67,8,11,2,3,0.1,0.2
2025-02-16T2200,1004A,116.4072,39.8863,北京市,天坛,,25,25,38,6,10,76,,85,81,9,10,3,4,0.2,0.3
2025-02-16T2200,1005A,116.462,39.9365,北京市,农展馆,,25,22,31,8,11,80,,87,84,7,10,4,4,0.3,0.3
2025-02-16T2200,1006A,116.3392,39.9295,北京市,官园,,23,23,37,9,11,65,,73,71,6,7,6,11,0.3,0.3
2025-02-16T2200,1007A,116.2878,39.9611,北京市,海淀万柳,,21,21,31,3,8,64,,72,71,11,11,3,4,0.5,0.4
2025-02-16T2200,1008A,116.6636,40.135,北京市,顺义新城,,27,27,29,6,8,77,,82,80,2,2,4,4,0.2,0.2
2025-02-16T2200,1009A,116.6275,40.3275,北京市,怀柔镇,,25,15,30,3,9,78,,80,80,1,4,2,2,0.4,0.4
2025-02-16T2200,1010A,116.2296,40.217,北京市,昌平镇,,21,21,32,7,10,64,,69,68,3,6,3,2,0.2,0.2
2025-02-16T2200,1011A,116.3966,39.9821,北京市,奥体中心,,24,24,33,10,12,69,,78,75,12,14,4,4,0.3,0.3
2025-02-16T2200,3281A,115.9718,40.4529,北京市,延庆夏都,,24,18,26,6,7,74,,79,78,2,3,4,4,0.4,0.4
2025-02-16T2200,3418A,116.8336,40.4095,北京市,密云新城,,23,14,28,3,8,73,,77,76,2,3,4,4,0.3,0.3
2025-02-16T2200,3671A,116.088,39.9726,北京市,门头沟三家店,,23,21,28,7,10,71,,76,74,2,4,3,4,0.2,0.2
2025-02-16T2200,3672A,116.1541,39.8204,北京市,丰台云岗,,25,21,26,6,8,78,,84,82,1,4,3,3,0.2,0.2
2025-02-16T2200,3673A,116.6804,39.9081,北京市,通州东关,,27,27,34,7,11,62,,71,65,10,10,5,5,0.2,0.2
2025-02-16T2200,3674A,115.9577,39.7603,北京市,房山燕山,,27,27,23,3,7,75,,84,80,2,2,3,2,0.2,0.1
2025-02-16T2200,3675A,116.4672,39.7733,北京市,大兴旧宫,,23,23,35,3,8,66,,74,70,6,7,3,2,0.2,0.2
2025-02-16T2200,3694A,115.986,40.4563,北京市,延庆石河营,,24,17,24,6,7,75,,81,80,3,3,4,4,0.4,0.4
2025-02-16T2200,3695A,116.6151,40.3053,北京市,怀柔新城,,25,15,29,3,10,79,,80,80,2,3,4,5,0.1,0.1
2025-02-16T2200,3696A,116.2545,39.8768,北京市,丰台小屯,,23,22,32,7,10,72,,77,75,2,4,1,1,0.2,0.2
2025-02-16T2200,3697A,116.84,40.3844,北京市,密云镇,,25,16,31,3,8,77,,82,81,5,6,6,6,0.2,0.2
2025-02-16T2200,4182A,116.1942,39.9158,北京市,八角北路9号,,27,27,34,7,8,70,,74,73,2,3,1,1,0.2,0
2025-02-16T2200,4194A,117.0790,40.1518,北京市,洳河巡河路,,21,8,21,3,10,67,,71,70,3,4,3,3,0.2,0.2
2025-02-16T2200,1761A,123.8275,41.3064,本溪市,大峪,,40,40,46,13,34,67,,79,72,13,16,7,8,0.7,0.8
2025-02-16T2200,1762A,123.7567,41.3325,本溪市,溪湖,,46,46,63,10,35,64,,78,70,17,23,9,9,0.6,0.9
2025-02-16T2200,1763A,123.7169,41.3094,本溪市,彩屯,,47,47,58,14,38,63,,76,71,10,14,8,8,0.7,0.9
2025-02-16T2200,1764A,123.7669,41.2864,本溪市,东明,颗粒物(PM10),66,82,59,18,42,59,,72,66,16,22,11,10,0.5,0.7
2025-02-16T2200,1765A,123.7992,41.2664,本溪市,新立屯,颗粒物(PM10),63,76,52,8,32,73,,88,79,20,28,8,7,0.5,0.6
2025-02-16T2200,1766A,123.8142,41.3472,本溪市,威宁,颗粒物(PM10),68,85,67,12,33,46,,81,67,33,22,4,4,0.6,0.7
2025-02-16T2200,2587A,105.2864,27.3125,毕节市,八中,细颗粒物(PM2.5),58,62,53,41,35,54,,64,59,12,13,8,9,0.8,0.8
2025-02-16T2200,2588A,105.31,27.2944,毕节市,师专,细颗粒物(PM2.5),58,56,48,41,36,61,,69,64,11,12,7,8,0.7,0.7
2025-02-16T2200,4263A,105.3688,27.3598,毕节市,工业大道,细颗粒物(PM2.5),58,57,49,41,37,64,,72,67,12,13,7,8,0.7,0.7
2025-02-16T2200,1629A,118.0018,37.3617,滨州市,第二水厂,颗粒物(PM10),52,53,83,29,34,39,,79,67,34,31,12,13,0.5,0.6
2025-02-16T2200,1630A,117.9776,37.393,滨州市,北中新校,颗粒物(PM10),51,51,89,29,41,46,,81,70,36,41,13,13,0.4,0.5
2025-02-16T2200,3514A,117.9378,37.3956,滨州市,中海酒店,,46,46,90,29,45,54,,84,77,26,40,14,12,0.4,0.5
2025-02-16T2200,3515A,117.9378,37.3553,滨州市,开发区一中,,46,46,101,19,40,45,,81,69,34,40,14,14,0.3,0.4
2025-02-16T2200,3516A,118.0917,37.694,滨州市,金海六路,,39,39,87,17,38,51,,80,68,21,37,19,12,0.7,0.9
2025-02-16T2200,4028A,117.9956,37.3753,滨州市,滨州市西街道办事处,细颗粒物(PM2.5),52,41,83,36,41,41,,82,69,32,31,12,10,0.5,0.7
2025-02-16T2200,2311A,115.8072,33.8399,亳州市,污水处理厂,颗粒物(PM10),80,109,107,38,34,52,,89,79,33,20,10,8,0.5,0.5
2025-02-16T2200,2312A,115.7789,33.8518,亳州市,三国揽胜宫,颗粒物(PM10),83,115,108,41,38,57,,94,84,34,22,10,6,0.4,0.4
2025-02-16T2200,3332A,115.7633,33.8034,亳州市,亳州学院,颗粒物(PM10),75,100,103,29,32,70,,92,86,21,21,5,4,0.3,0.3
2025-02-16T2200,2693A,82.0485,44.8556,博尔塔拉蒙古自治州,市党校,细颗粒物(PM2.5),85,66,55,63,48,85,,92,92,21,17,10,9,0.8,0.6
2025-02-16T2200,2694A,82.0806,44.8969,博尔塔拉蒙古自治州,市环保局,颗粒物(PM10),55,60,79,33,46,58,,75,72,51,34,8,7,1.1,1.2
2025-02-16T2200,1071A,116.8842,38.2991,沧州市,沧县城建局,颗粒物(PM10),69,88,77,45,37,42,,81,63,37,29,9,5,0.4,0.3
2025-02-16T2200,1072A,116.8584,38.3254,沧州市,电视转播站,颗粒物(PM10),80,110,71,44,30,34,,80,63,42,29,6,5,0.4,0.4
2025-02-16T2200,1073A,116.8709,38.3228,沧州市,市环保局,细颗粒物(PM2.5),64,76,76,46,36,27,,76,60,43,28,9,7,0.5,0.5
2025-02-16T2200,2622A,97.1806,31.1273,昌都市,昌都监测站,,40,40,20,21,11,85,,91,91,2,5,5,5,0.4,0.5
2025-02-16T2200,3719A,97.1714,31.1406,昌都市,昌都会议中心,,39,39,20,27,10,109,,112,112,1,2,6,6,0.3,0.4
2025-02-16T2200,2690A,88.1236,43.8886,昌吉回族自治州,天山天池,,42,42,13,20,6,103,,106,105,9,4,6,6,0.7,0.5
2025-02-16T2200,2692A,87.2717,44.0297,昌吉回族自治州,新区政务中心,细颗粒物(PM2.5),77,97,126,56,89,33,,85,78,61,26,3,3,1.3,1.2
2025-02-16T2200,3613A,87.3095,44.0142,昌吉回族自治州,亚心广场,,,,134,,117,71,,94,92,27,11,4,6,0.8,1.3
2025-02-16T2200,1119A,125.3325,43.9166,长春市,食品厂,,36,28,38,25,25,66,,74,66,16,15,8,8,0.3,0.3
2025-02-16T2200,1120A,125.2863,43.9027,长春市,客车厂,,45,32,35,31,28,66,,68,62,12,16,6,6,0.3,0.3
2025-02-16T2200,1121A,125.2841,43.8463,长春市,邮电学院,,35,30,34,24,28,68,,71,67,12,14,8,9,0.4,0.4
2025-02-16T2200,1122A,125.3716,43.8772,长春市,劳动公园,,28,27,33,19,21,71,,77,72,14,14,8,8,0.7,0.7
2025-02-16T2200,1123A,125.3297,43.8805,长春市,园林处,,35,28,32,24,27,68,,73,68,11,11,10,10,0.5,0.5
2025-02-16T2200,1124A,125.4605,43.79,长春市,净月潭,,27,27,35,16,21,67,,72,68,10,10,8,8,0.3,0.3
2025-02-16T2200,1126A,125.3863,43.8447,长春市,经开区环卫处,,30,30,34,18,22,66,,68,61,14,16,10,11,0.6,0.6
2025-02-16T2200,1127A,125.245,43.7783,长春市,高新区管委会,,32,32,34,21,23,63,,72,66,15,13,8,8,0.3,0.2
2025-02-16T2200,1128A,125.1761,43.8325,长春市,岱山公园,,43,43,41,24,24,62,,74,68,15,13,6,6,0.5,0.4
2025-02-16T2200,1335A,113.0833,28.2325,长沙市,经开区环保局,细颗粒物(PM2.5),92,94,73,68,55,4,,19,17,53,42,5,5,1.2,1
2025-02-16T2200,1336A,112.8872,28.2189,长沙市,高开区环保局,细颗粒物(PM2.5),97,101,75,72,62,4,,20,18,62,39,5,4,1.6,1.2
2025-02-16T2200,1337A,113.0792,28.2053,长沙市,马坡岭,细颗粒物(PM2.5),88,101,73,65,51,3,,23,18,55,42,4,3,1.1,0.9
2025-02-16T2200,1338A,112.9394,28.19,长沙市,湖南师范大学,细颗粒物(PM2.5),77,87,74,56,50,4,,24,22,42,30,3,3,1.3,1.2
2025-02-16T2200,1339A,113.0178,28.1322,长沙市,雨花区环保局,细颗粒物(PM2.5),105,106,74,79,57,2,,14,9,68,47,6,5,1.1,1
2025-02-16T2200,1340A,112.9792,28.2597,长沙市,伍家岭,细颗粒物(PM2.5),94,107,80,70,58,0,,12,8,47,35,4,4,1.2,1
2025-02-16T2200,1341A,113.0014,28.1944,长沙市,火车新站,细颗粒物(PM2.5),113,102,83,85,64,6,,20,14,69,49,3,3,1.6,1.2
2025-02-16T2200,1342A,112.9844,28.1178,长沙市,天心区环保局,细颗粒物(PM2.5),93,105,72,69,57,0,,14,8,70,49,4,4,1.7,1.3
2025-02-16T2200,1343A,112.8908,28.1308,长沙市,湖南中医药大学,,,119,75,,52,2,,16,15,52,37,4,4,1.5,1.2
2025-02-16T2200,1344A,112.9581,28.3611,长沙市,沙坪,细颗粒物(PM2.5),82,67,55,60,43,10,,28,25,16,21,7,7,1.5,1.3
2025-02-16T2200,1727A,113.1147,36.1547,长治市,清华站,颗粒物(PM10),56,61,55,29,17,56,,92,80,25,18,15,12,0.7,0.6
2025-02-16T2200,1730A,113.0886,36.2125,长治市,审计局,颗粒物(PM10),52,54,52,31,20,64,,95,84,26,17,15,10,0.5,0.5
2025-02-16T2200,1731A,113.0844,36.1856,长治市,长治八中,颗粒物(PM10),63,76,71,32,27,49,,92,80,34,20,17,11,0.5,0.5
2025-02-16T2200,2845A,113.1569,36.1911,长治市,德盛苑,,50,50,55,24,18,68,,94,87,28,16,8,9,0.5,0.6
2025-02-16T2200,3568A,113.06,36.0464,长治市,向阳小学,颗粒物(PM10),61,72,77,38,28,66,,92,83,22,18,17,16,0.4,0.5
2025-02-16T2200,3569A,112.8792,36.3144,长治市,屯留一中,颗粒物(PM10),53,55,54,27,17,35,,95,79,57,32,14,11,0.5,0.5
2025-02-16T2200,4189A,113.1131,36.19948,长治市,英华南巷50号,颗粒物(PM10),58,65,63,34,24,52,,102,88,42,24,14,13,0.5,0.5
2025-02-16T2200,4190A,113.2367,36.3344,长治市,学府街1号,颗粒物(PM10),59,67,83,33,38,13,,98,61,55,30,12,13,0.7,0.6
2025-02-16T2200,1854A,111.6975,28.9703,常德市,市二中,细颗粒物(PM2.5),72,89,66,52,34,24,,32,32,45,30,5,5,0.6,0.5
2025-02-16T2200,3138A,111.7153,29.0289,常德市,武陵区永安,细颗粒物(PM2.5),62,68,65,44,42,48,,28,28,32,35,3,4,0.5,0.7
2025-02-16T2200,3139A,111.6892,28.9881,常德市,鼎城区玉霞,细颗粒物(PM2.5),74,82,57,54,36,11,,26,20,44,27,4,4,0.8,0.6
2025-02-16T2200,3140A,111.6625,29.0531,常德市,武陵区长庚,细颗粒物(PM2.5),75,92,67,55,43,1,,25,14,60,32,2,3,0.9,0.6
2025-02-16T2200,1196A,119.9633,31.762,常州市,市监测站,细颗粒物(PM2.5),132,139,114,100,83,91,,97,96,39,40,14,10,0.7,0.9
2025-02-16T2200,1200A,119.9468,31.7069,常州市,武进监测站,细颗粒物(PM2.5),112,111,101,84,76,95,,95,95,29,29,13,8,0.7,1
2025-02-16T2200,1201A,119.9255,31.9087,常州市,安家,细颗粒物(PM2.5),155,172,120,118,84,91,,99,95,36,38,13,11,0.9,1
2025-02-16T2200,3002A,119.9805,31.8174,常州市,行政中心,细颗粒物(PM2.5),142,137,101,108,84,99,,95,95,27,28,19,16,0.8,1
2025-02-16T2200,3003A,120.0522,31.7748,常州市,经开区,细颗粒物(PM2.5),134,141,115,102,81,98,,108,106,35,32,11,9,0.8,0.9
2025-02-16T2200,3010A,119.9025,31.7964,常州市,钟楼,细颗粒物(PM2.5),137,138,109,104,83,94,,97,94,32,32,14,10,0.9,1.1
2025-02-16T2200,3429A,119.8598,31.7066,常州市,武进经发区,细颗粒物(PM2.5),103,143,111,77,81,93,,98,98,35,33,12,8,0.7,1
2025-02-16T2200,3430A,119.5826,31.7245,常州市,金坛城区,颗粒物(PM10),77,103,101,43,75,80,,105,103,26,24,12,9,0.6,1
2025-02-16T2200,2220A,120.4318,41.5881,朝阳市,西梁,,30,30,35,3,12,78,,84,80,4,5,8,8,0.3,0.3
2025-02-16T2200,2221A,120.4521,41.5646,朝阳市,河畔小区,,42,42,37,10,12,73,,76,74,6,7,6,5,0.4,0.4
2025-02-16T2200,2222A,120.4176,41.5648,朝阳市,八里堡,,48,48,46,14,12,74,,79,76,4,6,7,6,0.4,0.4
2025-02-16T2200,2223A,120.3806,41.5969,朝阳市,农业园区,,34,34,32,12,12,70,,82,79,10,7,7,6,0.4,0.4
2025-02-16T2200,1705A,116.6367,23.6719,潮州市,西园路,细颗粒物(PM2.5),179,,59,135,76,58,,104,92,23,18,10,6,0.5,0.4
2025-02-16T2200,3026A,116.6183,23.6608,潮州市,市政府,细颗粒物(PM2.5),100,79,62,75,69,62,,105,94,19,16,9,5,0.8,0.8
2025-02-16T2200,4036A,116.6461,23.6761,潮州市,金山,细颗粒物(PM2.5),115,94,53,87,70,58,,90,85,18,16,8,7,0.7,0.7
2025-02-16T2200,2472A,113.0073,25.9061,郴州市,马头岭,,46,46,34,28,17,35,,52,48,22,18,8,8,0.7,0.7
2025-02-16T2200,2473A,113.0116,25.8226,郴州市,市职中,细颗粒物(PM2.5),55,41,26,39,24,27,,40,37,16,16,4,4,0.8,0.8
2025-02-16T2200,2475A,113.0383,25.8071,郴州市,市审计局,细颗粒物(PM2.5),52,41,29,36,23,28,,46,42,17,15,3,3,0.9,0.9
2025-02-16T2200,2476A,113.0348,25.7759,郴州市,市环保局,细颗粒物(PM2.5),55,40,30,39,30,24,,36,34,18,17,7,7,0.7,0.8
2025-02-16T2200,4252A,113.0138,25.8011,郴州市,好美居路49号,细颗粒物(PM2.5),62,50,33,44,30,30,,43,40,24,20,5,5,0.8,0.8
2025-02-16T2200,1431A,103.9728,30.7236,成都市,金泉两河,细颗粒物(PM2.5),62,67,55,44,34,43,,62,59,34,28,2,2,0.6,0.6
2025-02-16T2200,1432A,104.176,30.6872,成都市,十里店,细颗粒物(PM2.5),59,60,59,42,40,42,,76,73,34,29,2,2,0.6,0.6
2025-02-16T2200,1433A,104.079,30.5706,成都市,三瓦窑,颗粒物(PM10),57,64,61,36,40,46,,66,64,34,35,4,4,0.8,0.8
2025-02-16T2200,1434A,104.1114,30.63,成都市,沙河铺,细颗粒物(PM2.5),63,53,60,45,48,58,,72,70,24,31,4,4,0.6,0.6
2025-02-16T2200,1437A,104.0786,30.6531,成都市,君平街,细颗粒物(PM2.5),59,47,58,42,44,62,,69,69,24,30,5,5,0.6,0.7
2025-02-16T2200,2880A,104.0239,30.65639,成都市,大石西路,细颗粒物(PM2.5),80,68,61,59,44,45,,69,66,43,34,4,4,0.7,0.7
2025-02-16T2200,3136A,104.2725,30.5589,成都市,龙泉驿区区政府,,42,39,50,29,34,70,,82,82,14,25,4,4,0.7,0.6
2025-02-16T2200,3357A,104.0106,30.6931,成都市,金博路,细颗粒物(PM2.5),67,61,49,48,32,43,,64,63,35,29,2,2,0.5,0.5
2025-02-16T2200,3359A,104.0578,30.5225,成都市,华阳,细颗粒物(PM2.5),64,58,58,46,45,43,,74,69,37,29,8,7,0.6,0.6
2025-02-16T2200,3488A,104.3853,30.7453,成都市,青白江技师分院,细颗粒物(PM2.5),53,44,54,37,41,63,,80,76,19,27,3,3,0.7,0.7
2025-02-16T2200,3489A,104.0789,30.4072,成都市,科学城,,,47,51,36,40,50,,80,75,30,27,5,5,,0.6
2025-02-16T2200,4011A,103.8506,30.6947,成都市,光华大道三段,颗粒物(PM10),54,57,48,33,27,51,,67,65,31,27,4,4,0.6,0.5
2025-02-16T2200,4224A,104.2433,30.5353,成都市,鲸龙路1057号,,50,49,61,35,43,67,,80,78,15,28,1,1,0.6,0.7
2025-02-16T2200,1062A,117.9531,40.9081,承德市,铁路,,24,21,32,7,11,76,,78,77,3,7,4,5,0.2,0.2
2025-02-16T2200,1063A,117.9392,40.9763,承德市,中国银行,,26,26,42,3,9,74,,76,73,1,6,3,3,0.2,0.3
2025-02-16T2200,1064A,117.9503,40.928,承德市,开发区,,40,40,44,14,17,80,,84,83,4,11,4,5,0.3,0.3
2025-02-16T2200,1065A,117.8051,40.9655,承德市,文化中心,,29,29,36,3,7,78,,82,81,5,8,3,3,0.2,0.2
2025-02-16T2200,1066A,117.9268,41.0026,承德市,离宫,,40,40,38,14,17,76,,78,76,4,5,4,4,0.2,0.2
2025-02-16T2200,2314A,117.47,30.6618,池州市,池州学院,细颗粒物(PM2.5),98,94,65,73,53,57,,101,93,37,18,6,7,0.7,0.8
2025-02-16T2200,3237A,117.4918,30.6617,池州市,展览馆,细颗粒物(PM2.5),87,94,73,64,55,30,,100,85,37,16,5,7,0.9,0.9
2025-02-16T2200,3333A,117.5627,30.695,池州市,第八中学,细颗粒物(PM2.5),98,114,73,73,54,76,,102,95,29,18,7,6,0.8,0.8
2025-02-16T2200,3334A,117.5038,30.6243,池州市,第十二中学,细颗粒物(PM2.5),79,96,67,58,50,3,,103,78,76,22,4,4,0.8,1
2025-02-16T2200,1744A,118.9233,42.2816,赤峰市,松山一中,,22,22,29,3,9,60,,70,66,12,15,8,10,0.4,0.5
2025-02-16T2200,1745A,118.9576,42.2728,赤峰市,哈达街,,32,,25,22,12,65,,67,67,13,17,7,8,0.6,0.6
2025-02-16T2200,1746A,118.8788,42.2554,赤峰市,天义路,,22,22,24,8,7,56,,63,61,10,13,7,9,0.3,0.3
2025-02-16T2200,3058A,119.2658,42.0353,赤峰市,银河街,,22,19,32,15,18,52,,66,61,17,14,18,16,0.6,0.5
2025-02-16T2200,3286A,118.9359,42.3147,赤峰市,桥北物流园区,,19,14,17,10,10,59,,68,64,20,17,5,6,0.4,0.4
2025-02-16T2200,2521A,107.3476,22.4136,崇左市,市环保局江州分局,,49,49,24,25,15,30,,36,35,15,11,4,4,0.8,0.7
2025-02-16T2200,4256A,107.3750,22.3736,崇左市,石景林东路7号,,40,37,27,28,18,30,,36,35,13,12,4,4,0.5,0.6
2025-02-16T2200,2298A,118.3093,32.3153,滁州市,老年大学,颗粒物(PM10),78,105,97,38,57,66,,98,91,23,28,4,5,0.4,0.6
2025-02-16T2200,2299A,118.3244,32.2786,滁州市,人大宾馆,颗粒物(PM10),85,120,106,31,56,76,,106,100,29,27,10,9,0.6,0.7
2025-02-16T2200,3207A,118.3118,32.3038,滁州市,市政府原办公楼,,,99,90,39,56,68,,101,95,26,27,6,6,,0.4
2025-02-16T2200,3331A,118.3267,32.2634,滁州市,图书馆,颗粒物(PM10),75,100,101,26,54,73,,104,98,29,23,7,8,0.6,0.8
2025-02-16T2200,2605A,101.5482,25.0441,楚雄彝族自治州,州环境监测站,细颗粒物(PM2.5),62,58,54,44,43,32,,101,82,39,32,6,8,0.8,0.7
2025-02-16T2200,2606A,101.538,25.0492,楚雄彝族自治州,市经济开发区,细颗粒物(PM2.5),63,68,55,45,42,32,,96,76,38,26,7,8,0.8,0.7
2025-02-16T2200,2548A,107.5277,31.2827,达州市,达州职业技术学院,细颗粒物(PM2.5),89,101,62,66,40,1,,55,35,44,23,6,6,1.1,0.7
2025-02-16T2200,2549A,107.5086,31.2186,达州市,市环境监测站,细颗粒物(PM2.5),79,94,63,58,38,3,,55,39,71,38,7,6,1.4,0.9
2025-02-16T2200,2550A,107.4988,31.2132,达州市,凤凰小区,细颗粒物(PM2.5),85,97,61,63,42,5,,53,33,72,38,10,8,1.7,1
2025-02-16T2200,2551A,107.5082,31.1986,达州市,达县机关宾馆,颗粒物(PM10),73,95,60,51,38,2,,52,33,53,34,7,6,1.1,0.7
2025-02-16T2200,2552A,107.4644,31.2124,达州市,市政中心,细颗粒物(PM2.5),92,111,72,68,41,2,,50,34,78,40,5,7,1.8,1.1
2025-02-16T2200,2614A,100.1542,25.7054,大理白族自治州,大理市环境监测站,细颗粒物(PM2.5),57,,33,40,29,66,,91,71,11,8,6,6,0.7,0.6
2025-02-16T2200,2615A,100.2171,25.5811,大理白族自治州,大理古城,,25,22,24,13,22,80,,95,75,6,8,6,6,0.5,0.6
2025-02-16T2200,1109A,121.612,38.9741,大连市,甘井子,,40,40,75,13,33,71,,83,78,26,32,9,7,0.6,0.7
2025-02-16T2200,1110A,121.565,38.9511,大连市,周水子,,37,37,69,16,45,66,,82,73,24,25,11,10,0.6,0.8
2025-02-16T2200,1111A,121.5637,38.8845,大连市,星海三站,,31,31,62,12,32,71,,80,77,20,21,9,10,0.7,0.9
2025-02-16T2200,1112A,121.6302,38.9117,大连市,青泥洼桥,,31,31,57,14,34,67,,78,71,22,27,12,12,0.6,0.7
2025-02-16T2200,1113A,121.6251,38.8638,大连市,傅家庄,,28,28,59,8,31,73,,76,73,17,22,13,12,0.5,0.6
2025-02-16T2200,1114A,121.5213,38.8661,大连市,七贤岭,,28,28,62,12,30,81,,87,85,12,14,10,9,0.6,0.7
2025-02-16T2200,1115A,121.2529,38.8061,大连市,旅顺,,39,39,58,25,32,58,,83,77,30,20,10,8,0.8,0.8
2025-02-16T2200,1116A,121.7485,39.1311,大连市,金州,颗粒物(PM10),53,56,77,24,29,60,,81,74,25,19,7,8,0.9,0.9
2025-02-16T2200,1117A,121.7811,39.0496,大连市,开发区,,44,44,66,25,40,52,,76,68,31,23,12,12,0.6,0.8
2025-02-16T2200,1118A,121.9762,39.0631,大连市,双D港,,36,36,64,11,34,79,,89,86,20,20,10,9,0.7,1
2025-02-16T2200,1789A,124.81117,46.03138,大庆市,大同区,,43,31,33,30,29,65,,74,71,12,11,4,6,0.5,0.5
2025-02-16T2200,1790A,125.129,46.533,大庆市,龙凤区,,32,28,36,22,22,60,,78,74,23,21,8,8,0.4,0.4
2025-02-16T2200,1791A,124.902,46.408,大庆市,红岗区,,29,29,31,15,22,64,,79,77,12,12,7,8,0.5,0.5
2025-02-16T2200,1792A,125.153,46.586,大庆市,萨尔图区,,38,38,38,22,23,51,,74,68,34,25,6,7,0.2,0.2
2025-02-16T2200,1793A,124.9042,46.6215,大庆市,让胡路区,,36,30,33,25,29,60,,77,73,14,9,7,8,0.3,0.3
2025-02-16T2200,3481A,125.141,46.634,大庆市,萨区政府监测点,,36,36,34,19,22,49,,79,73,27,19,5,6,0.5,0.4
2025-02-16T2200,1723A,113.2994,40.0758,大同市,云冈宾馆,,23,21,29,7,7,71,,85,79,5,9,6,10,0.5,0.6
2025-02-16T2200,1724A,113.3444,40.0917,大同市,大同大学,,19,19,22,9,8,57,,84,76,16,13,13,12,0.4,0.4
2025-02-16T2200,1725A,113.2661,40.1269,大同市,安家小村,,38,38,28,8,8,56,,85,76,14,12,7,9,0.4,0.5
2025-02-16T2200,1726A,113.2711,40.0844,大同市,教育学院,,33,33,29,12,15,62,,84,77,14,16,5,9,0.6,0.5
2025-02-16T2200,3282A,113.3397,40.0597,大同市,大同市卫生学校,,28,28,29,6,9,67,,82,78,10,12,6,7,0.3,0.6
2025-02-16T2200,3565A,113.1367,40.1122,大同市,云冈站,,46,46,35,20,13,46,,83,64,26,22,16,15,0.4,0.5
2025-02-16T2200,3566A,113.1186,40.2556,大同市,图书馆,,30,30,28,16,13,57,,80,71,11,10,10,10,0.5,0.6
2025-02-16T2200,3567A,113.5931,40.0461,大同市,区一中,,35,35,29,14,10,64,,84,76,10,9,15,13,0.5,0.5
2025-02-16T2200,4199A,113.2798,40.0997,大同市,魏都大道141号,,33,33,32,12,15,56,,76,69,14,15,11,13,0.6,0.5
2025-02-16T2200,2269A,124.1069,50.4097,大兴安岭地区,科技局,,22,16,24,12,18,69,,70,70,5,6,8,9,0.2,0.3
2025-02-16T2200,3663A,124.1164,50.4278,大兴安岭地区,红旗社区,,23,6,21,3,15,72,,71,70,3,17,4,8,0.2,0.4
2025-02-16T2200,1600A,124.3303,40.0625,丹东市,江湾东路,,38,38,60,18,41,69,,83,79,17,17,10,10,0.6,0.7
2025-02-16T2200,1601A,124.4256,40.1503,丹东市,临江后街,,23,23,62,9,43,63,,83,78,19,20,11,9,0.8,1.1
2025-02-16T2200,1602A,124.3933,40.1461,丹东市,元宝山,,22,21,55,15,41,70,,78,74,9,18,9,8,0.5,0.6
2025-02-16T2200,1603A,124.3633,40.1092,丹东市,民主桥,,42,42,66,14,41,58,,76,70,21,20,5,5,0.6,0.8
2025-02-16T2200,3541A,109.5726,19.5167,儋州市,第一中学子站,细颗粒物(PM2.5),68,82,23,49,13,66,,82,81,9,4,3,3,0.9,0.7
2025-02-16T2200,3542A,109.5567,19.5187,儋州市,东坡学校子站,细颗粒物(PM2.5),67,72,22,48,13,70,,87,86,9,4,2,2,0.9,0.6
2025-02-16T2200,2616A,98.5842,24.428,德宏傣族景颇族自治州,德宏州监测站,细颗粒物(PM2.5),98,86,76,73,61,36,,100,92,33,28,7,11,1.2,0.8
2025-02-16T2200,3677A,98.5881,24.4368,德宏傣族景颇族自治州,芒市人民政府综合楼,细颗粒物(PM2.5),65,75,91,47,59,60,,107,103,12,18,5,9,0.4,0.6
2025-02-16T2200,1901A,104.4239,31.1208,德阳市,东山公园,细颗粒物(PM2.5),70,67,60,51,46,73,,78,78,15,23,2,3,0.8,0.8
2025-02-16T2200,1902A,104.3826,31.1317,德阳市,西小区,细颗粒物(PM2.5),74,68,72,54,54,52,,68,66,31,35,4,4,0.8,0.8
2025-02-16T2200,1904A,104.3553,31.1091,德阳市,耐火材料厂,细颗粒物(PM2.5),73,72,70,53,53,42,,73,71,36,32,4,5,1.0,0.9
2025-02-16T2200,3639A,104.4019,31.1244,德阳市,市教育局,细颗粒物(PM2.5),77,65,63,56,48,38,,71,68,47,37,4,4,0.9,0.8
2025-02-16T2200,1622A,116.3032,37.4674,德州市,儿童乐园,颗粒物(PM10),54,58,79,29,24,58,,85,76,27,27,21,11,0.7,0.8
2025-02-16T2200,1624A,116.2991,37.4451,德州市,监理站,颗粒物(PM10),51,51,74,19,20,56,,88,77,31,28,11,12,0.7,0.7
2025-02-16T2200,3066A,116.2721,37.4379,德州市,九衢泉纯净水厂,颗粒物(PM10),51,51,75,24,22,53,,86,76,34,29,12,10,0.7,0.7
2025-02-16T2200,3371A,116.3728,37.4403,德州市,开发区人民医院,颗粒物(PM10),53,56,75,22,21,51,,83,70,37,30,12,11,0.8,0.9
2025-02-16T2200,3372A,116.3572,37.4094,德州市,太阳城中学,颗粒物(PM10),60,70,77,36,22,47,,85,72,39,27,12,10,0.7,0.6
2025-02-16T2200,3511A,116.5652,37.3319,德州市,陵城艺术中心,颗粒物(PM10),69,88,84,41,25,40,,76,64,34,27,28,12,0.8,0.6
2025-02-16T2200,2621A,99.7056,27.8317,迪庆藏族自治州,迪庆州站,,29,23,28,13,16,90,,101,95,10,8,8,8,0.6,0.5
2025-02-16T2200,3180A,99.7136,27.8094,迪庆藏族自治州,质量技术监督局,,29,,20,20,12,84,,90,85,10,7,8,8,0.7,0.6
2025-02-16T2200,2663A,104.6241,35.5734,定西市,东关小学,颗粒物(PM10),82,114,94,51,36,28,,102,86,51,18,37,18,1.4,1
2025-02-16T2200,4257A,104.6092,35.5962,定西市,将台街,细颗粒物(PM2.5),88,112,80,65,34,28,,92,78,56,32,37,22,1.5,0.7
2025-02-16T2200,1389A,113.7547,23.0494,东莞市,莞城梨川,细颗粒物(PM2.5),65,76,73,47,49,47,,109,92,28,38,11,8,0.8,0.7
2025-02-16T2200,1390A,113.7944,23.0128,东莞市,东城石井,细颗粒物(PM2.5),73,75,62,53,47,37,,124,93,38,32,10,8,1.0,0.6
2025-02-16T2200,1391A,113.7383,22.9658,东莞市,南城西平,细颗粒物(PM2.5),64,68,47,46,36,52,,127,104,33,26,9,7,0.9,0.5
2025-02-16T2200,3319A,113.7338,23.0381,东莞市,万江金泰,"颗粒物(PM10),细颗粒物(PM2.5)",59,68,69,42,44,49,,117,102,31,40,2,3,0.8,0.6
2025-02-16T2200,3626A,113.7533,23.0202,东莞市,南城元岭,"颗粒物(PM10),细颗粒物(PM2.5)",65,79,67,47,44,48,,112,94,24,30,11,9,0.9,0.7
2025-02-16T2200,3627A,113.7875,23.0457,东莞市,东城主山,细颗粒物(PM2.5),68,70,68,49,44,38,,112,88,30,33,7,6,1.0,0.6
2025-02-16T2200,1666A,118.6614,37.4309,东营市,市环保局,,36,36,64,9,26,38,,82,70,46,27,4,7,0.3,0.3
2025-02-16T2200,3036A,118.6904,37.4338,东营市,开发区管委会,,41,41,73,12,30,31,,81,69,59,32,4,7,0.4,0.5
2025-02-16T2200,3365A,118.5719,37.565,东营市,垦利区民丰路,,34,34,75,9,30,41,,78,65,34,30,16,11,0.4,0.7
2025-02-16T2200,3498A,118.5055,37.8612,东营市,河口城区,颗粒物(PM10),57,63,89,39,33,38,,89,74,29,23,6,7,0.7,0.6
2025-02-16T2200,3646A,118.4978,37.4623,东营市,胜利站,,38,38,84,9,33,58,,82,72,24,32,9,11,0.5,0.6
2025-02-16T2200,3734A,118.35,37.26,东营市,理想之城,,48,48,76,17,35,23,,86,60,55,43,9,12,0.6,0.6
2025-02-16T2200,1591A,110.0023,39.8129,鄂尔多斯市,综合楼,颗粒物(PM10),52,53,41,14,10,54,,86,75,41,21,10,8,0.5,0.4
2025-02-16T2200,1592A,109.9486,39.8261,鄂尔多斯市,巴音孟克林场办事处,,29,29,42,12,10,50,,89,75,41,27,10,10,0.4,0.3
2025-02-16T2200,1593A,109.7736,39.5986,鄂尔多斯市,康泽苑,,39,39,40,14,12,52,,92,83,26,10,5,5,0.5,0.4
2025-02-16T2200,1594A,109.8119,39.5989,鄂尔多斯市,华泰汽车城,,39,39,45,17,15,20,,88,71,56,18,5,3,0.6,0.4
2025-02-16T2200,1595A,109.9734,39.7884,鄂尔多斯市,奥林花园,颗粒物(PM10),52,53,42,14,11,43,,88,76,44,25,15,9,0.6,0.4
2025-02-16T2200,2436A,114.8938,30.3994,鄂州市,市政府,细颗粒物(PM2.5),93,106,93,69,67,52,,97,89,56,38,18,11,1.6,1.3
2025-02-16T2200,2437A,114.8989,30.3714,鄂州市,赵家坝,细颗粒物(PM2.5),90,105,90,67,63,65,,100,94,31,25,4,5,0.9,0.9
2025-02-16T2200,3654A,114.8094,30.4089,鄂州市,精准医疗中心,细颗粒物(PM2.5),87,107,102,64,67,75,,114,112,37,33,4,4,0.5,0.7
2025-02-16T2200,2454A,109.4978,30.2981,恩施土家族苗族自治州,湖北民院,细颗粒物(PM2.5),69,52,39,50,31,32,,54,52,34,25,3,3,0.3,0.2
2025-02-16T2200,2455A,109.4707,30.2798,恩施土家族苗族自治州,州电力总公司,细颗粒物(PM2.5),73,66,46,53,37,14,,47,43,44,22,3,3,1.2,1
2025-02-16T2200,3549A,109.5061,30.3772,恩施土家族苗族自治州,龙凤新区,细颗粒物(PM2.5),54,47,30,38,23,22,,48,45,18,12,6,6,0.7,0.5
2025-02-16T2200,2499A,108.3411,21.6158,防城港市,沙万,,36,28,21,25,14,33,,35,33,11,10,7,7,0.6,0.6
2025-02-16T2200,2500A,108.3514,21.7731,防城港市,防城档案局,,35,33,25,24,15,24,,27,25,13,11,4,4,0.6,0.7
2025-02-16T2200,2501A,108.3506,21.6414,防城港市,大海花园,,40,30,22,28,19,40,,40,39,11,10,4,4,0.7,0.7
2025-02-16T2200,1371A,113.1294,23.0067,佛山市,湾梁,颗粒物(PM10),57,63,95,28,44,44,,88,85,30,49,8,7,0.7,0.7
2025-02-16T2200,1372A,113.1083,23.0478,佛山市,华材职中,细颗粒物(PM2.5),60,66,94,43,57,51,,92,88,31,51,9,9,1.0,1
2025-02-16T2200,1373A,113.144,23.0453,佛山市,南海气象局,细颗粒物(PM2.5),53,44,69,37,44,44,,90,86,25,45,10,9,0.7,0.7
2025-02-16T2200,1374A,113.2881,22.8094,佛山市,顺德苏岗,细颗粒物(PM2.5),64,68,72,46,47,45,,113,109,27,44,6,5,1.1,0.9
2025-02-16T2200,1376A,112.8383,22.8678,佛山市,高明孔堂,颗粒物(PM10),54,57,77,35,48,43,,87,85,23,36,8,7,0.9,0.9
2025-02-16T2200,1377A,112.8836,23.1588,佛山市,三水监测站,,46,46,79,32,43,42,,73,67,23,33,3,3,0.9,0.9
2025-02-16T2200,1378A,112.867,23.185,佛山市,三水云东海,,40,39,68,28,49,46,,73,68,19,30,3,2,0.9,0.9
2025-02-16T2200,3625A,113.2544,22.7642,佛山市,容桂街道办,细颗粒物(PM2.5),67,66,65,48,46,45,,112,110,34,40,8,7,1.0,0.9
2025-02-16T2200,1282A,119.2681,26.0504,福州市,师大,细颗粒物(PM2.5),69,,50,50,52,79,,87,86,24,25,5,4,0.6,0.7
2025-02-16T2200,1283A,119.2984,26.1028,福州市,五四北路,细颗粒物(PM2.5),75,62,54,55,57,60,,76,74,34,35,5,4,0.7,0.8
2025-02-16T2200,1284A,119.2648,26.0768,福州市,杨桥西路,细颗粒物(PM2.5),69,58,53,50,51,74,,86,84,27,27,6,4,0.6,0.6
2025-02-16T2200,1285A,119.317,26.0746,福州市,紫阳,细颗粒物(PM2.5),84,72,62,62,62,63,,64,63,33,41,7,6,0.7,0.8
2025-02-16T2200,3048A,119.5799,26.0936,福州市,九龙,细颗粒物(PM2.5),77,,46,56,55,78,,82,82,18,22,4,4,0.7,0.6
2025-02-16T2200,3526A,119.5189,25.9664,福州市,吴航,细颗粒物(PM2.5),60,50,44,43,36,83,,90,90,20,23,4,4,0.6,0.6
2025-02-16T2200,1755A,123.7977,41.8491,抚顺市,望花区,颗粒物(PM10),72,94,73,10,37,72,,82,71,8,19,2,6,0.6,0.8
2025-02-16T2200,1756A,123.9161,41.8822,抚顺市,顺城区,颗粒物(PM10),69,88,70,7,32,74,,82,71,9,24,4,7,0.4,0.7
2025-02-16T2200,1757A,124.0436,41.8611,抚顺市,东洲区,颗粒物(PM10),75,99,66,16,31,64,,82,71,15,16,1,4,0.6,0.7
2025-02-16T2200,1758A,123.9247,41.8642,抚顺市,新抚区,颗粒物(PM10),71,91,77,9,40,75,,82,72,7,27,4,5,0.3,0.6
2025-02-16T2200,1759A,124.0972,41.8961,抚顺市,大伙房水库,颗粒物(PM10),73,96,61,8,31,69,,78,63,8,20,5,7,0.5,0.7
2025-02-16T2200,1760A,123.7086,41.8391,抚顺市,沈抚新城,颗粒物(PM10),78,105,73,6,34,69,,82,68,14,23,2,5,0.4,0.7
2025-02-16T2200,2376A,116.2127,28.0814,抚州市,桐源党溪,颗粒物(PM10),55,59,44,23,24,8,,49,30,8,4,1,2,0.7,0.7
2025-02-16T2200,2377A,116.3544,27.9831,抚州市,市站,细颗粒物(PM2.5),57,60,42,40,27,31,,63,50,26,18,8,7,0.7,0.7
2025-02-16T2200,2378A,116.3565,27.963,抚州市,血防站,细颗粒物(PM2.5),64,68,50,46,28,35,,70,56,28,17,8,8,1.2,1
2025-02-16T2200,2379A,116.3564,28.0007,抚州市,采茶剧团,细颗粒物(PM2.5),59,53,42,42,27,17,,52,40,21,11,6,6,1.7,1.5
2025-02-16T2200,2380A,116.385,27.9647,抚州市,医学分院,颗粒物(PM10),60,70,44,41,24,30,,55,47,19,14,3,4,0.6,0.6
2025-02-16T2200,2207A,121.6094,41.998,阜新市,工业园区,颗粒物(PM10),57,64,80,8,11,80,,84,83,6,9,2,5,0.3,0.3
2025-02-16T2200,2208A,121.6697,42.0279,阜新市,长青街,,39,39,56,11,13,73,,81,79,5,7,6,6,0.2,0.2
2025-02-16T2200,2209A,121.6673,42.0705,阜新市,农业园区,,45,45,50,3,7,71,,80,77,2,3,8,9,0.6,0.5
2025-02-16T2200,2210A,121.6717,42.0224,阜新市,东苑,颗粒物(PM10),55,59,64,7,7,68,,76,74,6,8,4,5,0.4,0.4
2025-02-16T2200,2211A,121.6506,42.0498,阜新市,玉龙新城,,49,49,61,11,14,74,,83,80,6,9,5,7,0.2,0.2
2025-02-16T2200,2301A,115.8277,32.8929,阜阳市,市监测站,颗粒物(PM10),71,91,92,40,45,60,,91,83,34,19,8,8,0.3,0.4
2025-02-16T2200,2303A,115.8554,32.8605,阜阳市,开发区,颗粒物(PM10),94,138,128,36,44,61,,95,84,28,24,8,9,0.5,0.5
2025-02-16T2200,2875A,115.784,32.8892,阜阳市,阜阳职业技术学院,颗粒物(PM10),73,96,107,34,44,66,,93,87,19,17,8,9,0.3,0.4
2025-02-16T2200,3468A,115.7901,32.8613,阜阳市,市规划展馆,颗粒物(PM10),76,101,103,27,40,78,,99,94,20,19,8,9,0.7,0.7
2025-02-16T2200,3469A,115.836,32.9183,阜阳市,枣园社区,颗粒物(PM10),83,116,101,42,39,66,,100,91,26,17,6,6,0.5,0.5
2025-02-16T2200,2669A,102.9099,34.9841,甘南藏族自治州,州政府,颗粒物(PM10),56,61,44,30,22,73,,86,85,17,18,14,12,0.6,0.6
2025-02-16T2200,3380A,102.8914,34.9617,甘南藏族自治州,甘肃民族师范学院,颗粒物(PM10),55,59,52,17,15,83,,87,87,14,24,5,6,0.5,0.4
2025-02-16T2200,2570A,101.9603,30.0475,甘孜藏族自治州,水桥子,,21,,13,12,7,66,,78,76,13,11,3,3,0.4,0.4
2025-02-16T2200,3065A,101.9533,29.9972,甘孜藏族自治州,州环保局,,24,21,14,8,6,74,,78,78,10,9,4,4,0.4,0.4
2025-02-16T2200,3414A,115.8347,28.932,赣江新区,桑海产业园,细颗粒物(PM2.5),68,70,35,49,23,0,,24,13,32,24,6,6,0.7,0.7
2025-02-16T2200,2363A,114.9367,25.8664,赣州市,地委,,,36,40,20,29,40,,42,40,,10,11,6,0.9,1.1
2025-02-16T2200,2364A,114.9461,25.8481,赣州市,气象台,,47,47,47,19,24,48,,48,47,18,16,8,7,0.8,1
2025-02-16T2200,2365A,114.9322,25.8333,赣州市,市图书馆,,36,32,32,25,28,42,,44,42,15,14,4,4,0.9,1
2025-02-16T2200,2366A,114.8905,25.8471,赣州市,华坚鞋城,,,39,34,19,24,41,,39,39,11,10,5,5,,0.5
2025-02-16T2200,3109A,115.0093,25.8613,赣州市,赣县区卫计委,,42,,30,29,27,37,,39,38,12,12,2,3,0.6,0.6
2025-02-16T2200,2683A,106.2319,36.1417,固原市,马园,颗粒物(PM10),99,148,165,39,41,70,,82,74,17,35,7,8,0.3,0.5
2025-02-16T2200,2684A,106.2792,36.0022,固原市,监测站,颗粒物(PM10),96,142,169,34,41,87,,94,91,13,19,6,9,0.5,0.9
2025-02-16T2200,2685A,106.2375,36.0211,固原市,新区,颗粒物(PM10),80,109,166,34,40,86,,94,93,11,26,6,5,0.6,0.6
2025-02-16T2200,3522A,106.2177,35.9959,固原市,原州区十五小,颗粒物(PM10),106,162,172,47,46,87,,97,94,14,12,10,8,0.5,0.5
2025-02-16T2200,2544A,106.6303,30.4576,广安市,市委,细颗粒物(PM2.5),94,115,73,70,55,10,,60,46,63,31,5,4,1.7,1
2025-02-16T2200,2545A,106.6271,30.4663,广安市,友谊中学,细颗粒物(PM2.5),93,92,70,69,52,4,,59,45,64,33,3,2,1.1,0.8
2025-02-16T2200,2547A,106.6388,30.4551,广安市,广电花园,细颗粒物(PM2.5),109,110,67,82,53,5,,52,40,66,32,4,3,1.6,0.8
2025-02-16T2200,2902A,106.6351,30.4865,广安市,北辰小学,细颗粒物(PM2.5),84,85,67,62,49,28,,60,53,35,25,4,4,1.2,1
2025-02-16T2200,2523A,105.8945,32.4535,广元市,黑石坡,颗粒物(PM10),64,78,66,41,29,72,,76,76,6,8,11,10,0.5,0.5
2025-02-16T2200,2524A,105.821,32.4444,广元市,老城,细颗粒物(PM2.5),63,70,67,45,39,71,,82,82,14,30,1,3,0.3,0.6
2025-02-16T2200,2526A,105.8628,32.4287,广元市,监测站,细颗粒物(PM2.5),64,46,55,46,37,77,,86,86,15,21,4,7,0.4,0.5
2025-02-16T2200,3617A,105.8047,32.4166,广元市,经开区,细颗粒物(PM2.5),63,58,69,45,50,68,,74,74,11,28,2,6,0.5,0.7
2025-02-16T2200,1345A,113.2347,23.1423,广州市,广雅中学,"颗粒物(PM10),细颗粒物(PM2.5)",53,56,78,37,46,43,,89,83,19,39,6,5,0.8,0.8
2025-02-16T2200,1346A,113.2612,23.105,广州市,市五中,颗粒物(PM10),51,51,59,35,36,42,,98,90,23,43,4,4,0.9,0.9
2025-02-16T2200,1348A,113.3478,23.0916,广州市,广东商学院,颗粒物(PM10),54,57,72,35,45,39,,106,97,30,44,6,5,1.1,1
2025-02-16T2200,1349A,113.4332,23.1047,广州市,市八十六中,细颗粒物(PM2.5),60,58,63,43,41,53,,107,99,17,46,4,3,0.9,0.8
2025-02-16T2200,1350A,113.3505,22.9483,广州市,番禺中学,颗粒物(PM10),58,65,61,31,38,46,,132,124,30,46,6,5,1.1,1
2025-02-16T2200,1351A,113.2146,23.3916,广州市,花都师范,,44,44,61,30,41,39,,71,65,18,23,8,7,1.0,0.9
2025-02-16T2200,1352A,113.2597,23.1331,广州市,市监测站,颗粒物(PM10),51,52,68,34,41,42,,93,86,24,44,7,7,1.0,0.9
2025-02-16T2200,1353A,113.5618,23.312,广州市,九龙镇镇龙,细颗粒物(PM2.5),55,52,65,39,48,45,,90,82,23,30,7,7,0.9,0.8
2025-02-16T2200,1354A,113.2765,23.1544,广州市,麓湖,细颗粒物(PM2.5),55,55,63,39,43,44,,102,94,25,37,7,4,0.9,0.8
2025-02-16T2200,1355A,113.443,23.3035,广州市,帽峰山森林公园,,49,47,56,34,40,51,,93,87,18,20,8,7,1.0,0.9
2025-02-16T2200,2846A,113.3221,23.1322,广州市,体育西,,,56,69,33,48,,,101,100,21,50,6,5,,0.8
2025-02-16T2200,3298A,113.5717,23.5491,广州市,从化街口,,,,74,36,58,50,,86,80,15,22,9,11,1.0,0.9
2025-02-16T2200,3299A,113.3472,23.3692,广州市,白云竹料,,49,46,77,34,52,52,,87,79,14,27,8,8,1.0,1
2025-02-16T2200,3300A,113.2981,23.237,广州市,白云嘉禾,颗粒物(PM10),51,52,73,33,47,35,,88,79,37,41,7,7,0.9,0.8
2025-02-16T2200,3301A,113.4256,23.1716,广州市,黄埔科学城,细颗粒物(PM2.5),53,52,59,37,44,50,,101,91,16,27,9,8,0.9,0.7
2025-02-16T2200,3302A,113.3942,23.0483,广州市,番禺大学城,颗粒物(PM10),60,70,81,31,34,34,,83,75,38,51,8,8,1.4,1.1
2025-02-16T2200,3303A,113.4922,22.8168,广州市,南沙黄阁,颗粒物(PM10),58,65,61,40,44,49,,125,120,30,36,6,5,1.0,0.9
2025-02-16T2200,3304A,113.5342,22.7896,广州市,南沙街,颗粒物(PM10),64,77,54,37,35,52,,122,120,33,35,8,7,1.0,0.8
2025-02-16T2200,3443A,113.2902,23.5544,广州市,花都梯面,,43,39,56,30,44,42,,74,68,18,20,6,7,0.9,0.8
2025-02-16T2200,3445A,113.7858,23.7478,广州市,从化良口,,25,20,50,17,45,64,,77,76,10,12,6,6,0.7,0.7
2025-02-16T2200,3446A,113.8051,23.2614,广州市,增城荔城,细颗粒物(PM2.5),58,54,58,41,45,63,,87,85,12,19,5,5,0.8,0.7
2025-02-16T2200,2506A,109.6047,23.0666,贵港市,江南子站,,39,31,28,27,26,33,,37,37,21,16,7,7,0.3,0.3
2025-02-16T2200,2507A,109.6014,23.0948,贵港市,贵城子站,,36,36,31,25,21,28,,32,32,18,14,6,6,0.8,0.9
2025-02-16T2200,2508A,109.5669,23.1065,贵港市,荷城子站,,32,29,23,22,18,31,,36,36,14,12,9,9,0.6,0.7
2025-02-16T2200,3405A,109.5886,23.1172,贵港市,新世纪学校,,42,39,28,29,22,36,,38,38,11,9,1,2,0.6,0.6
2025-02-16T2200,1439A,106.6899,26.5998,贵阳市,马鞍山,,39,29,49,27,28,36,,54,51,16,12,5,6,0.5,0.5
2025-02-16T2200,1441A,106.6243,26.6266,贵阳市,鉴湖路,,45,44,60,31,38,42,,54,52,16,12,9,14,0.5,0.6
2025-02-16T2200,1442A,106.7487,26.6343,贵阳市,燕子冲,,39,,27,27,25,45,,57,56,12,11,7,11,0.7,0.6
2025-02-16T2200,1443A,106.6555,26.4365,贵阳市,碧云窝,,44,44,46,27,25,38,,47,45,24,21,25,18,0.7,0.6
2025-02-16T2200,1445A,106.7109,26.6027,贵阳市,红边门,,42,39,42,29,32,41,,54,51,17,15,15,16,0.7,0.6
2025-02-16T2200,1446A,106.7164,26.5699,贵阳市,新华路,,36,36,41,19,19,42,,55,53,17,13,14,13,0.6,0.6
2025-02-16T2200,1447A,106.674,26.5424,贵阳市,太慈桥,,35,29,33,24,25,31,,53,50,19,15,7,12,0.6,0.5
2025-02-16T2200,4230A,106.6882,26.5695,贵阳市,花果园大街66号,,48,,35,33,34,36,,45,44,20,16,9,10,0.6,0.5
2025-02-16T2200,4231A,106.6873,26.5169,贵阳市,漓江路57号,,45,39,39,31,28,33,,52,49,33,20,13,15,0.7,0.6
2025-02-16T2200,1862A,110.4144,25.3167,桂林市,电子科大尧山校区,,36,27,18,25,14,74,,76,76,9,9,5,4,0.7,0.7
2025-02-16T2200,1864A,110.3089,25.2708,桂林市,龙隐路小学,,32,31,22,22,18,77,,81,81,16,14,8,10,0.6,0.7
2025-02-16T2200,1865A,110.2869,25.2178,桂林市,八中,,34,34,24,23,19,61,,67,66,24,18,7,8,0.7,0.8
2025-02-16T2200,3531A,110.296,25.1253,桂林市,旅游学院,,28,,17,19,18,78,,72,72,9,17,6,6,0.7,0.8
2025-02-16T2200,4222A,110.1835,25.2444,桂林市,环湖路276号,,39,39,23,27,18,82,,77,77,12,14,7,7,0.6,0.7
2025-02-16T2200,4301A,110.2803,25.2773,桂林市,信义路13号,,49,,26,34,28,62,,66,65,18,13,8,8,0.6,0.5
2025-02-16T2200,2674A,100.2561,34.4714,果洛藏族自治州,玛沁县大武镇,,47,47,43,25,16,89,,94,93,2,3,19,17,0.3,0.4
2025-02-16T2200,1129A,126.5422,45.755,哈尔滨市,岭北,,39,36,33,27,29,82,,91,89,20,18,6,7,0.6,0.7
2025-02-16T2200,1130A,126.561,45.8167,哈尔滨市,松北商大,,43,38,41,30,32,54,,85,79,34,16,5,6,0.5,0.5
2025-02-16T2200,1131A,126.979,45.5419,哈尔滨市,阿城会宁,细颗粒物(PM2.5),58,54,55,41,43,67,,81,74,25,19,10,4,0.6,0.6
2025-02-16T2200,1132A,126.599,45.7222,哈尔滨市,南岗学府路,,42,42,49,26,28,67,,80,75,24,20,10,6,0.3,0.5
2025-02-16T2200,1133A,126.689,45.7733,哈尔滨市,太平宏伟公园,,36,34,41,25,31,61,,80,76,26,19,4,5,0.4,0.5
2025-02-16T2200,1134A,126.635,45.7667,哈尔滨市,道外承德广场,颗粒物(PM10),56,61,61,31,36,63,,76,73,25,21,19,10,0.6,0.8
2025-02-16T2200,1135A,126.685,45.7319,哈尔滨市,香坊红旗大街,,38,31,46,26,31,68,,79,77,15,18,9,12,0.3,0.5
2025-02-16T2200,1136A,126.6411,45.7258,哈尔滨市,动力和平路,,38,36,43,26,30,65,,79,76,22,20,16,8,0.6,0.7
2025-02-16T2200,1137A,126.593,45.7478,哈尔滨市,道里建国路,,43,32,37,30,30,52,,76,71,32,18,7,7,0.4,0.4
2025-02-16T2200,1138A,126.615,45.61,哈尔滨市,平房东轻厂,,48,35,37,33,32,72,,78,71,18,19,4,3,0.5,0.4
2025-02-16T2200,1139A,126.595,45.9855,哈尔滨市,呼兰师专,,33,24,32,23,26,64,,75,71,14,15,8,7,0.6,0.6
2025-02-16T2200,1140A,126.6206,45.6842,哈尔滨市,省农科院,,43,40,51,30,39,72,,82,80,16,16,13,11,0.5,0.6
2025-02-16T2200,2688A,93.5128,42.8172,哈密市,地区监测站,颗粒物(PM10),111,171,115,37,26,35,,74,64,54,21,8,6,0.8,0.5
2025-02-16T2200,2689A,93.4961,42.8328,哈密市,哈密师范学校,颗粒物(PM10),99,148,88,40,27,12,,72,58,75,34,6,6,1.3,0.8
2025-02-16T2200,2671A,100.9048,36.9639,海北藏族自治州,海晏县西海镇,,26,25,20,15,10,82,,104,99,5,3,9,10,0.4,0.4
2025-02-16T2200,3867A,102.0738,36.5056,海东市,平安区公安北苑,颗粒物(PM10),63,76,57,34,36,87,,99,96,16,14,7,6,0.7,0.6
2025-02-16T2200,1409A,110.576,19.9507,海口市,东寨港,,15,,16,8,9,47,,69,63,5,4,3,2,0.4,0.4
2025-02-16T2200,1410A,110.3232,20.0574,海口市,海南大学,,42,42,21,23,11,63,,85,82,15,11,5,5,0.4,0.4
2025-02-16T2200,1411A,110.283,20.0053,海口市,秀英海南医院,,23,23,21,13,10,57,,83,78,15,10,4,4,0.4,0.4
2025-02-16T2200,1412A,110.338,19.9969,海口市,海南师范大学,,26,26,21,14,10,59,,88,81,13,8,5,5,0.4,0.4
2025-02-16T2200,1413A,110.33,20.0356,海口市,龙华路环保局宿舍,,29,24,21,20,11,61,,85,81,13,7,6,6,0.3,0.3
2025-02-16T2200,3539A,110.5111,19.9736,海口市,桂林洋子站,,24,24,19,12,9,56,,81,76,8,4,6,5,0.3,0.3
2025-02-16T2200,2673A,100.6188,36.2866,海南藏族自治州,共和县恰卜恰镇,,39,39,34,21,13,44,,111,94,32,16,12,10,0.6,0.5
2025-02-16T2200,2676A,97.3731,37.3753,海西蒙古族藏族自治州,德令哈市,细颗粒物(PM2.5),52,,31,36,17,81,,108,102,18,6,18,17,0.7,0.5
2025-02-16T2200,1048A,114.5302,36.6116,邯郸市,东污水处理厂,,50,50,63,24,14,47,,79,66,29,15,3,4,0.4,0.4
2025-02-16T2200,1049A,114.4918,36.5713,邯郸市,矿院,颗粒物(PM10),55,60,61,31,13,31,,75,59,41,13,4,3,0.4,0.4
2025-02-16T2200,1050A,114.484,36.6133,邯郸市,丛台公园,,40,40,58,19,14,48,,80,70,29,14,8,8,0.4,0.4
2025-02-16T2200,3458A,114.7895,36.5593,邯郸市,香泉濮院小区,颗粒物(PM10),59,67,78,23,17,51,,85,71,26,19,5,4,0.4,0.4
2025-02-16T2200,3579A,114.50634,36.77178,邯郸市,永年区实验高中,颗粒物(PM10),64,77,82,38,18,40,,79,63,41,18,7,5,0.6,0.5
2025-02-16T2200,3580A,114.20016,36.44293,邯郸市,峰峰矿区临水派出所,颗粒物(PM10),59,67,90,26,21,68,,83,79,12,14,4,8,0.4,0.6
2025-02-16T2200,2634A,106.9893,33.1842,汉中市,汉川机床厂子校,,29,28,42,20,30,64,,96,86,3,6,6,7,1.0,1
2025-02-16T2200,2635A,107.0154,33.0706,汉中市,市监测站,细颗粒物(PM2.5),105,121,69,79,49,32,,89,72,58,35,10,7,1.6,1.3
2025-02-16T2200,2636A,107.0089,33.1138,汉中市,鑫源开发区,细颗粒物(PM2.5),87,90,65,64,47,18,,95,77,71,39,8,7,1.4,0.9
2025-02-16T2200,2637A,107.007,33.0323,汉中市,南郑大河坎水厂,细颗粒物(PM2.5),97,110,60,72,38,41,,92,78,41,24,8,7,1.0,0.8
2025-02-16T2200,1223A,120.2072,30.2111,杭州市,滨江,颗粒物(PM10),57,64,43,37,32,82,,93,90,37,34,8,6,0.6,0.8
2025-02-16T2200,1224A,120.0633,30.2747,杭州市,西溪,,43,43,52,20,21,18,,98,76,33,23,6,6,0.6,0.7
2025-02-16T2200,1227A,120.1269,30.2456,杭州市,卧龙桥,,41,41,35,22,22,46,,94,82,30,26,6,6,0.8,0.8
2025-02-16T2200,1228A,120.1903,30.2692,杭州市,浙江农大,细颗粒物(PM2.5),69,80,38,50,31,14,,78,57,96,46,8,7,0.8,0.7
2025-02-16T2200,1230A,120.1197,30.3119,杭州市,和睦小学,颗粒物(PM10),62,73,50,40,33,16,,96,80,106,39,7,7,1.1,0.9
2025-02-16T2200,1231A,120.3019,30.4183,杭州市,临平镇,颗粒物(PM10),64,77,56,33,42,105,,108,108,18,31,9,6,0.7,0.8
2025-02-16T2200,1232A,120.2697,30.1819,杭州市,城厢镇,颗粒物(PM10),54,58,51,31,40,55,,83,76,57,39,7,6,0.8,0.8
2025-02-16T2200,1233A,120.0883,30.1808,杭州市,云栖,,36,36,35,21,23,44,,84,69,31,26,6,6,0.5,0.6
2025-02-16T2200,3557A,119.9464,30.0494,杭州市,镇二中,,42,42,35,28,28,7,,75,55,64,35,6,6,1.1,1.1
2025-02-16T2200,3558A,119.7183,30.2367,杭州市,市府大楼,颗粒物(PM10),55,60,41,38,28,51,,90,78,30,25,7,7,0.7,0.8
2025-02-16T2200,3656A,120.1556,30.2864,杭州市,消防大队,颗粒物(PM10),55,60,46,37,34,69,,106,98,47,32,8,7,0.9,0.9
2025-02-16T2200,1270A,117.1959,31.7848,合肥市,明珠广场,颗粒物(PM10),91,132,101,39,50,70,,100,93,35,37,9,8,0.6,0.7
2025-02-16T2200,1271A,117.3072,31.8764,合肥市,三里街,颗粒物(PM10),82,114,106,36,49,66,,92,81,29,42,8,6,0.3,0.5
2025-02-16T2200,1272A,117.2588,31.8707,合肥市,琥珀山庄,颗粒物(PM10),91,132,104,33,50,60,,88,78,40,47,10,8,0.6,0.8
2025-02-16T2200,1273A,117.1604,31.9052,合肥市,董铺水库,颗粒物(PM10),107,163,109,36,41,58,,88,82,29,30,5,4,0.5,0.4
2025-02-16T2200,1274A,117.25,31.8571,合肥市,长江中路,颗粒物(PM10),91,132,108,43,53,73,,96,88,31,38,10,9,0.7,0.8
2025-02-16T2200,1275A,117.266,31.9436,合肥市,庐阳区,颗粒物(PM10),97,144,111,34,47,76,,96,92,23,33,5,4,0.5,0.5
2025-02-16T2200,1276A,117.336,31.8586,合肥市,瑶海区,颗粒物(PM10),100,149,109,34,49,65,,83,78,31,38,8,7,0.6,0.7
2025-02-16T2200,1277A,117.3027,31.7964,合肥市,包河区,颗粒物(PM10),90,129,102,34,50,54,,89,75,42,36,7,5,0.6,0.6
2025-02-16T2200,1278A,117.2776,31.7385,合肥市,滨湖新区,颗粒物(PM10),96,141,108,34,40,66,,91,83,33,38,5,5,0.4,0.4
2025-02-16T2200,1279A,117.1318,31.8403,合肥市,高新区,颗粒物(PM10),100,149,103,40,46,70,,96,90,36,31,5,4,0.6,0.5
2025-02-16T2200,3464A,117.3803,31.9147,合肥市,高教基地,颗粒物(PM10),93,136,107,33,45,62,,89,74,28,34,9,7,0.4,0.5
2025-02-16T2200,3614A,79.924,37.0877,和田地区,地区环保局,颗粒物(PM10),474,574,680,148,145,52,,77,73,3,4,2,6,0.7,0.7
2025-02-16T2200,3615A,79.9131,37.113,和田地区,市环保局,颗粒物(PM10),419,519,757,100,119,47,,76,71,19,18,1,2,0.9,2.2
2025-02-16T2200,2516A,108.2011,24.715,河池市,东仁乐园,,46,38,36,32,27,43,,52,48,9,17,7,6,0.9,0.9
2025-02-16T2200,2517A,108.0497,24.6947,河池市,市环保站,细颗粒物(PM2.5),52,44,33,36,26,33,,49,45,12,14,13,9,0.7,0.6
2025-02-16T2200,2518A,108.0983,24.6989,河池市,市疾控中心,细颗粒物(PM2.5),58,46,37,41,29,30,,49,44,16,14,7,6,0.7,0.7
2025-02-16T2200,1696A,114.6778,23.7569,河源市,源西,,36,32,43,25,42,58,,77,74,15,20,5,5,0.7,0.7
2025-02-16T2200,1697A,114.6944,23.7586,河源市,东埔,,42,32,45,29,47,55,,80,75,15,21,3,3,0.8,0.8
2025-02-16T2200,1698A,114.6892,23.7233,河源市,老城,,33,31,46,23,43,53,,80,74,11,16,4,4,0.9,0.9
2025-02-16T2200,1718A,115.4208,35.2464,菏泽市,气象局,颗粒物(PM10),65,80,104,35,32,48,,86,77,43,27,5,6,0.5,0.4
2025-02-16T2200,3374A,115.5564,35.0891,菏泽市,定陶老年大学,颗粒物(PM10),68,85,91,41,29,51,,87,78,36,23,6,7,0.7,0.6
2025-02-16T2200,4184A,115.4797,35.24401,菏泽市,永昌路1号,颗粒物(PM10),72,94,104,40,31,44,,87,73,51,28,9,10,0.7,0.5
2025-02-16T2200,4193A,115.4715,35.2800,菏泽市,长城路999号,颗粒物(PM10),65,79,98,30,26,37,,75,63,50,28,9,10,0.4,0.7
2025-02-16T2200,2514A,111.5264,24.4172,贺州市,环保小区,,29,29,33,17,29,58,,62,62,9,11,5,5,0.7,0.9
2025-02-16T2200,2515A,111.5608,24.4078,贺州市,政协大楼,,37,37,41,18,28,57,,56,56,9,11,7,7,0.6,0.8
2025-02-16T2200,3534A,111.4744,24.4553,贺州市,西湾,,32,32,37,20,30,62,,62,62,8,10,6,6,0.6,0.8
2025-02-16T2200,2385A,114.17,35.9019,鹤壁市,市监测站,颗粒物(PM10),82,113,102,47,30,14,,89,73,64,28,2,4,0.4,0.4
2025-02-16T2200,2386A,114.2956,35.7511,鹤壁市,市交警支队,颗粒物(PM10),72,94,87,41,20,23,,85,66,54,22,1,3,0.2,0.3
2025-02-16T2200,2387A,114.2878,35.7306,鹤壁市,迎宾馆,颗粒物(PM10),78,105,107,28,19,29,,87,69,40,15,1,4,0.9,0.5
2025-02-16T2200,3474A,114.2617,35.6822,鹤壁市,大新区,颗粒物(PM10),66,82,89,45,22,27,,85,70,52,23,4,5,0.4,0.4
2025-02-16T2200,3596A,114.1572,35.9603,鹤壁市,南山宾馆,细颗粒物(PM2.5),75,90,107,55,37,55,,91,82,28,14,9,12,0.1,0.2
2025-02-16T2200,2244A,130.2537,47.3416,鹤岗市,哈啤分公司,,26,,19,18,16,66,,68,66,3,4,12,12,0.4,0.3
2025-02-16T2200,2245A,130.2684,47.3086,鹤岗市,斯达机电,,20,18,20,14,16,64,,65,64,3,6,13,13,0.2,0.2
2025-02-16T2200,2246A,130.3114,47.3388,鹤岗市,东山纸板厂,,38,38,29,20,19,58,,60,57,8,13,11,13,0.5,0.9
2025-02-16T2200,2247A,130.1097,47.3382,鹤岗市,五号水库,,24,18,17,9,10,76,,87,84,7,7,8,8,0.4,0.4
2025-02-16T2200,2263A,127.4833,50.2524,黑河市,交通局,,25,21,19,17,14,57,,66,59,11,11,7,7,0.4,0.4
2025-02-16T2200,2264A,127.5144,50.2341,黑河市,环保局,,26,,21,18,16,58,,66,59,8,8,4,5,0.3,0.3
2025-02-16T2200,1074A,115.6838,37.7541,衡水市,电机北厂,,35,35,68,10,26,67,,83,75,17,22,5,6,0.4,0.4
2025-02-16T2200,1075A,115.6303,37.7316,衡水市,市监测站,,42,42,62,21,23,70,,85,79,17,21,4,5,0.3,0.4
2025-02-16T2200,3188A,115.6683,37.7217,衡水市,市城管局,,46,46,65,19,24,58,,80,68,24,21,3,7,0.4,0.4
2025-02-16T2200,3459A,115.5989,37.5491,衡水市,地表水厂,颗粒物(PM10),54,57,64,26,20,7,,87,55,77,27,15,8,0.5,0.4
2025-02-16T2200,2456A,112.5003,26.9167,衡阳市,原169医院,,38,38,30,25,22,14,,25,24,28,22,10,26,0.7,0.7
2025-02-16T2200,2457A,112.6194,26.9258,衡阳市,衡阳化工总厂,细颗粒物(PM2.5),64,53,35,46,34,24,,35,34,19,22,5,3,0.9,0.8
2025-02-16T2200,2458A,112.6211,26.8956,衡阳市,珠晖区环保局,细颗粒物(PM2.5),60,,32,43,31,26,,34,34,22,24,4,4,0.9,0.8
2025-02-16T2200,2459A,112.6197,26.8733,衡阳市,市委党校,细颗粒物(PM2.5),62,,32,44,32,31,,39,39,26,28,8,8,1.0,0.9
2025-02-16T2200,2460A,112.6006,26.8919,衡阳市,市监测站,细颗粒物(PM2.5),62,61,42,44,33,24,,36,35,20,25,9,7,1.0,1
2025-02-16T2200,2461A,112.5664,26.9056,衡阳市,真空机电公司,颗粒物(PM10),69,87,39,48,35,18,,32,30,32,31,7,4,1.0,0.8
2025-02-16T2200,3399A,112.6703,26.882,衡阳市,师范学院,细颗粒物(PM2.5),55,55,34,39,26,32,,40,40,25,22,9,7,1.2,0.9
2025-02-16T2200,2609A,103.3861,23.35,红河哈尼族彝族自治州,监测站,细颗粒物(PM2.5),62,49,51,44,39,70,,100,92,12,8,10,7,0.8,0.6
2025-02-16T2200,3038A,103.3758,23.368,红河哈尼族彝族自治州,州图书馆,细颗粒物(PM2.5),63,,43,45,36,69,,94,87,9,6,6,6,0.7,0.6
2025-02-16T2200,1090A,111.6507,40.7517,呼和浩特市,呼市一监,,22,14,28,8,15,68,,84,81,11,12,5,7,0.4,0.4
2025-02-16T2200,1091A,111.6572,40.8033,呼和浩特市,小召,,21,17,28,8,12,65,,84,79,20,16,4,6,0.3,0.3
2025-02-16T2200,1094A,111.7516,40.8369,呼和浩特市,如意水处理厂,,22,10,20,3,8,70,,75,74,7,12,6,7,0.3,0.3
2025-02-16T2200,1095A,111.7276,40.8062,呼和浩特市,二十九中,,20,16,20,7,10,61,,77,74,14,12,3,3,0.4,0.4
2025-02-16T2200,1096A,111.5512,40.7866,呼和浩特市,工大金川校区,,22,14,26,11,12,69,,79,75,10,15,5,6,0.4,0.4
2025-02-16T2200,1097A,111.717,40.7612,呼和浩特市,化肥厂生活区,,35,35,26,20,12,53,,83,77,24,15,6,6,0.4,0.3
2025-02-16T2200,3698A,111.5968,40.8178,呼和浩特市,红旗小学,,25,7,23,6,10,79,,87,85,8,12,4,6,0.4,0.5
2025-02-16T2200,3699A,111.6518,40.8389,呼和浩特市,海东办,,21,9,19,3,10,66,,80,76,12,15,3,6,0.6,0.7
2025-02-16T2200,2192A,119.7594,49.2261,呼伦贝尔市,区环保局,,23,21,32,12,25,71,,73,72,10,16,7,8,0.4,0.4
2025-02-16T2200,3061A,119.7512,49.1577,呼伦贝尔市,国华电力东,,28,28,30,13,21,70,,77,75,9,9,6,6,0.3,0.4
2025-02-16T2200,1250A,120.0751,30.8669,湖州市,城西水厂,颗粒物(PM10),74,97,73,53,52,69,,100,93,47,31,11,8,0.7,0.7
2025-02-16T2200,2873A,120.0875,30.8955,湖州市,仁皇山新区,颗粒物(PM10),70,89,68,50,52,80,,106,102,32,25,10,8,0.8,0.9
2025-02-16T2200,2907A,120.1844,30.8596,湖州市,吴兴区站,细颗粒物(PM2.5),73,77,64,53,54,79,,106,100,28,21,9,6,0.7,0.7
2025-02-16T2200,3562A,120.4148,30.8538,湖州市,南浔区站,细颗粒物(PM2.5),70,79,72,51,59,79,,120,110,42,35,11,9,0.6,0.7
2025-02-16T2200,1607A,120.9092,40.7136,葫芦岛市,龙港区,,48,48,52,16,15,47,,79,65,31,17,14,10,0.6,0.6
2025-02-16T2200,1608A,120.8392,40.7514,葫芦岛市,化工街,颗粒物(PM10),54,58,56,9,12,52,,78,52,30,23,10,9,0.4,0.3
2025-02-16T2200,1609A,120.8341,40.7073,葫芦岛市,新区,,43,43,43,18,11,45,,83,67,38,17,20,14,0.7,0.5
2025-02-16T2200,1610A,120.8695,40.7677,葫芦岛市,东城区,颗粒物(PM10),71,92,52,15,16,56,,74,49,17,17,10,9,0.2,0.1
2025-02-16T2200,2482A,109.5981,27.5721,怀化市,林科所,,25,25,31,14,20,26,,39,39,6,13,9,6,1.1,1.2
2025-02-16T2200,2483A,109.9453,27.5444,怀化市,河西地税局,颗粒物(PM10),59,67,51,39,37,4,,33,27,24,21,6,7,0.7,0.7
2025-02-16T2200,2484A,109.9781,27.5342,怀化市,市四医院,细颗粒物(PM2.5),60,65,52,43,35,12,,46,38,30,23,16,8,1.1,1
2025-02-16T2200,2485A,109.9972,27.5578,怀化市,监测楼,细颗粒物(PM2.5),69,81,50,50,34,2,,35,31,34,27,5,9,1.2,0.9
2025-02-16T2200,2486A,110.0394,27.583,怀化市,市委党校,细颗粒物(PM2.5),59,55,48,42,39,10,,36,32,25,23,10,15,0.8,0.8
2025-02-16T2200,1210A,119.036,33.5981,淮安市,钵池山,颗粒物(PM10),68,85,129,45,86,62,,102,91,18,33,8,13,0.7,1.1
2025-02-16T2200,1211A,119.007,33.575,淮安市,北京南路,颗粒物(PM10),69,88,127,37,81,65,,102,95,16,41,9,13,0.5,1.1
2025-02-16T2200,1212A,118.989,33.6067,淮安市,市监测站,颗粒物(PM10),67,83,125,29,87,69,,108,99,17,30,8,11,0.7,1
2025-02-16T2200,1213A,119.135,33.5039,淮安市,楚州区监测站,颗粒物(PM10),79,107,138,49,104,63,,102,92,18,40,8,10,0.8,0.9
2025-02-16T2200,3426A,118.8755,33.2894,淮安市,新华书店,颗粒物(PM10),96,142,128,59,80,54,,102,94,32,30,10,10,0.8,0.8
2025-02-16T2200,4206A,119.0288,33.6319,淮安市,承德北路606号,颗粒物(PM10),70,90,140,43,81,62,,99,89,20,33,7,11,0.5,0.8
2025-02-16T2200,2282A,116.8004,33.975,淮北市,监测站,颗粒物(PM10),66,82,115,32,50,60,,87,78,24,23,7,9,0.5,0.6
2025-02-16T2200,2283A,116.8091,33.9007,淮北市,烈山区政府,颗粒物(PM10),71,91,118,28,54,67,,96,90,22,31,6,7,0.6,0.7
2025-02-16T2200,3330A,116.8873,33.9836,淮北市,杜集区检察院,颗粒物(PM10),87,124,131,42,55,51,,89,80,31,26,6,6,0.6,0.8
2025-02-16T2200,4017A,116.7923,33.9535,淮北市,市博物馆,颗粒物(PM10),70,90,122,30,51,67,,90,84,23,26,9,10,0.6,0.7
2025-02-16T2200,2277A,116.8305,32.7727,淮南市,潘集区政府,颗粒物(PM10),127,203,142,76,65,51,,91,73,35,26,6,7,0.5,0.5
2025-02-16T2200,2279A,116.8569,32.5951,淮南市,谢家集区政府,颗粒物(PM10),84,118,127,45,55,56,,92,83,31,24,9,8,0.5,0.6
2025-02-16T2200,2280A,116.8281,32.633,淮南市,八公山区政府,颗粒物(PM10),87,123,119,43,48,63,,95,88,15,9,9,8,0.5,0.5
2025-02-16T2200,2281A,116.6325,32.6201,淮南市,焦岗湖风景区管理处,颗粒物(PM10),76,102,96,45,47,42,,65,60,14,11,8,9,0.2,0.3
2025-02-16T2200,2894A,117.0566,32.6531,淮南市,经济技术开发区消防队,颗粒物(PM10),84,118,132,48,51,64,,93,85,13,16,6,8,0.5,0.6
2025-02-16T2200,3329A,117.0108,32.5893,淮南市,山南新区,颗粒物(PM10),98,146,146,29,57,83,,102,99,11,14,7,8,0.4,0.5
2025-02-16T2200,4209A,117.0031,32.6445,淮南市,国庆中路369号,颗粒物(PM10),80,110,122,35,55,65,,93,85,21,23,6,8,0.6,0.6
2025-02-16T2200,2446A,114.9028,30.4742,黄冈市,职工中心,细颗粒物(PM2.5),80,98,98,59,66,86,,106,103,31,31,6,5,0.6,0.7
2025-02-16T2200,2929A,114.8858,30.4519,黄冈市,红卫路,细颗粒物(PM2.5),87,93,94,64,65,86,,111,107,32,32,8,8,0.7,0.8
2025-02-16T2200,3398A,114.9136,30.4445,黄冈市,市林业局,细颗粒物(PM2.5),83,93,94,61,64,86,,106,104,26,33,12,12,0.8,0.9
2025-02-16T2200,2672A,102.0199,35.5102,黄南藏族自治州,同仁县隆务镇,,47,47,48,20,24,75,,91,88,3,4,13,15,0.5,0.4
2025-02-16T2200,2295A,118.2903,29.6963,黄山市,延安路89号,颗粒物(PM10),56,62,29,31,15,28,,47,,29,10,5,4,0.4,0.5
2025-02-16T2200,2297A,118.1371,30.2756,黄山市,黄山区政府5号楼,,47,47,46,23,24,44,,99,89,11,9,7,8,0.4,0.4
2025-02-16T2200,4210A,118.3354,29.7203,黄山市,滨江东路7-2号,颗粒物(PM10),51,51,38,32,21,23,,71,53,14,11,4,4,0.6,0.5
2025-02-16T2200,2423A,115.0601,30.2313,黄石市,沈家营,细颗粒物(PM2.5),84,106,96,62,60,84,,8,,34,46,21,10,1.0,1
2025-02-16T2200,2426A,114.8988,30.2019,黄石市,铁山,细颗粒物(PM2.5),87,120,87,64,59,26,,110,78,53,24,8,12,0.7,0.7
2025-02-16T2200,2427A,115.0307,30.2092,黄石市,团城山,细颗粒物(PM2.5),87,103,96,64,61,72,,108,102,36,29,14,14,1.0,0.9
2025-02-16T2200,3149A,115.0235,30.1578,黄石市,笔架山北路,细颗粒物(PM2.5),97,90,81,72,62,86,,117,112,30,25,15,12,1.1,1.1
2025-02-16T2200,4185A,115.0780,30.21118,黄石市,磁湖东路29号,细颗粒物(PM2.5),88,117,102,65,64,50,,115,104,52,32,9,12,1.2,1.2
2025-02-16T2200,1392A,114.4183,23.0528,惠州市,河南岸金山湖子站,,47,47,54,31,40,67,,93,86,20,27,9,8,0.8,1
2025-02-16T2200,1393A,114.4053,23.0822,惠州市,下埔横江三路子站,,43,41,54,30,39,73,,96,90,17,26,8,7,0.8,0.7
2025-02-16T2200,1394A,114.4103,23.1142,惠州市,江北云山西路子站,,,45,52,33,37,75,,97,93,15,23,9,8,,1
2025-02-16T2200,1395A,114.4645,22.7833,惠州市,惠阳区承修路船湖子站,颗粒物(PM10),52,53,45,32,29,65,,101,89,18,25,9,9,0.9,0.8
2025-02-16T2200,1396A,114.5317,22.7422,惠州市,大亚湾管委会子站,"颗粒物(PM10),细颗粒物(PM2.5)",55,59,37,39,25,93,,106,100,26,27,7,6,0.8,0.8
2025-02-16T2200,3314A,114.4338,22.8134,惠州市,惠阳秋长,,41,41,54,28,30,82,,113,106,15,29,6,7,0.8,0.8
2025-02-16T2200,3452A,114.6517,22.775,惠州市,大亚湾霞涌,,40,40,29,25,19,101,,96,91,19,22,8,8,0.5,0.6
2025-02-16T2200,2240A,130.9762,45.3001,鸡西市,环保局,,25,22,41,17,26,56,,68,67,14,18,6,10,0.3,0.4
2025-02-16T2200,2243A,130.9429,45.3039,鸡西市,第一中学,细颗粒物(PM2.5),65,66,37,47,25,60,,70,68,9,18,7,11,0.3,0.3
2025-02-16T2200,3707A,131.0207,45.3073,鸡西市,欧美日汽修厂,,29,26,54,20,36,68,,74,72,11,21,3,11,0.4,0.7
2025-02-16T2200,3709A,130.9967,45.3106,鸡西市,市政设施管理处,,28,28,49,18,31,58,,66,64,11,25,6,10,0.3,0.5
2025-02-16T2200,2367A,114.9754,27.0803,吉安市,红声器材厂,颗粒物(PM10),56,61,41,36,25,24,,40,36,28,21,15,13,0.7,0.9
2025-02-16T2200,2368A,114.9658,27.0999,吉安市,市森林工业局,细颗粒物(PM2.5),59,59,38,42,27,27,,41,36,44,31,9,7,0.6,0.7
2025-02-16T2200,2369A,114.99,27.1312,吉安市,市环境监测站,颗粒物(PM10),51,51,38,26,27,25,,40,36,29,24,15,14,0.7,0.9
2025-02-16T2200,2370A,115.0093,27.0968,吉安市,青原区法院,细颗粒物(PM2.5),58,60,41,41,30,11,,40,34,43,28,6,10,0.7,0.8
2025-02-16T2200,1772A,126.54,43.8622,吉林市,哈达湾,,26,26,49,10,26,72,,78,76,11,13,7,8,0.4,0.6
2025-02-16T2200,1773A,126.5844,43.8358,吉林市,东局子,,27,27,48,14,29,71,,80,76,14,12,7,7,0.5,0.6
2025-02-16T2200,1774A,126.5052,43.8245,吉林市,电力学院,,28,24,43,19,34,72,,81,78,10,11,4,4,0.4,0.5
2025-02-16T2200,1775A,126.6133,43.8972,吉林市,江北,,24,24,47,14,28,75,,76,75,14,17,8,7,0.5,0.6
2025-02-16T2200,1776A,126.555,43.8306,吉林市,江南公园,,22,20,40,10,28,69,,75,72,13,15,4,4,0.5,0.9
2025-02-16T2200,2868A,126.4739,43.953,吉林市,九站,,28,26,44,19,30,64,,77,74,20,17,7,8,0.5,0.5
2025-02-16T2200,1299A,116.9862,36.6114,济南市,科干所,,46,46,86,15,32,54,,78,72,30,35,14,10,0.4,0.4
2025-02-16T2200,1300A,116.9376,36.665,济南市,农科所,颗粒物(PM10),58,66,99,20,34,23,,76,58,69,45,15,11,0.8,0.8
2025-02-16T2200,1301A,117.1265,36.6734,济南市,开发区,颗粒物(PM10),53,56,86,24,41,32,,78,68,51,35,8,10,0.8,0.8
2025-02-16T2200,1303A,117.0624,36.6868,济南市,省种子仓库,颗粒物(PM10),64,78,108,29,39,34,,78,69,44,41,8,10,0.5,0.6
2025-02-16T2200,1304A,116.9489,36.6447,济南市,机床二厂,颗粒物(PM10),53,56,99,17,36,51,,80,73,41,42,11,14,0.7,0.8
2025-02-16T2200,1305A,117.0495,36.663,济南市,市监测站,颗粒物(PM10),51,51,95,15,35,47,,73,66,35,44,9,12,0.3,0.5
2025-02-16T2200,1306A,116.7675,36.5484,济南市,长清党校,颗粒物(PM10),52,54,96,22,35,57,,86,78,32,34,7,8,0.4,0.5
2025-02-16T2200,1616A,117.6795,36.229,济南市,技术学院,颗粒物(PM10),57,63,112,29,56,39,,79,66,47,49,13,15,0.8,1
2025-02-16T2200,1961A,117.532,36.6868,济南市,东山小学,颗粒物(PM10),69,88,101,27,38,33,,79,65,49,38,9,12,0.6,0.7
2025-02-16T2200,3059A,117.7161,36.2049,济南市,泰兴公司,颗粒物(PM10),58,66,120,24,61,36,,78,67,47,53,9,12,0.8,1.1
2025-02-16T2200,3064A,117.6867,36.2171,济南市,莱芜战役纪念馆,颗粒物(PM10),59,68,121,24,55,56,,79,70,36,53,9,11,0.7,1
2025-02-16T2200,3494A,117.1673,36.9782,济南市,济阳区政府,颗粒物(PM10),63,76,102,32,40,46,,68,64,26,32,22,17,0.4,0.5
2025-02-16T2200,3495A,117.1171,36.63,济南市,锦屏中学,,37,37,82,17,33,52,,80,69,22,24,5,9,0.6,0.7
2025-02-16T2200,3682A,116.9814,36.6819,济南市,济南四建,颗粒物(PM10),59,68,95,24,36,36,,74,64,46,44,11,11,0.3,0.4
2025-02-16T2200,1653A,116.6251,35.4302,济宁市,火炬城,颗粒物(PM10),53,56,94,12,27,59,,88,80,25,28,10,13,0.5,0.7
2025-02-16T2200,1655A,116.5491,35.4042,济宁市,电化厂,颗粒物(PM10),56,62,123,24,54,61,,82,76,17,30,9,14,0.6,0.8
2025-02-16T2200,3500A,116.5814,35.3707,济宁市,北湖一中,,33,33,90,19,40,64,,84,79,33,40,7,13,0.4,0.6
2025-02-16T2200,3501A,116.8249,35.5593,济宁市,服务中心,颗粒物(PM10),53,56,116,27,50,39,,81,71,38,38,9,12,0.6,0.7
2025-02-16T2200,3678A,116.5907,35.4054,济宁市,市第七中学,,39,38,93,27,43,62,,85,79,24,31,2,7,0.4,0.6
2025-02-16T2200,2255A,130.2751,46.8028,佳木斯市,佳纺,细颗粒物(PM2.5),54,52,23,38,14,48,,59,45,20,19,5,6,0.5,0.4
2025-02-16T2200,2256A,130.3995,46.8307,佳木斯市,发电厂,,39,34,15,27,11,59,,66,56,12,9,6,6,0.3,0.2
2025-02-16T2200,2257A,130.3258,46.7975,佳木斯市,环保局,,39,39,21,27,13,54,,59,48,12,13,8,9,0.2,0.2
2025-02-16T2200,2258A,130.3648,46.8032,佳木斯市,十一中,,,,16,,12,,,55,44,14,17,6,7,0.3,0.3
2025-02-16T2200,2259A,130.3794,46.7588,佳木斯市,四丰,颗粒物(PM10),57,64,36,24,14,54,,63,53,12,14,1,1,0.4,0.4
2025-02-16T2200,1252A,120.7436,30.778,嘉兴市,清河小学,颗粒物(PM10),65,79,64,44,43,53,,95,86,54,36,6,5,0.5,0.7
2025-02-16T2200,1253A,120.726,30.7478,嘉兴市,嘉兴学院,细颗粒物(PM2.5),68,78,72,49,51,61,,105,95,38,31,8,7,0.8,0.9
2025-02-16T2200,2872A,120.7846,30.7525,嘉兴市,南湖区残联,细颗粒物(PM2.5),70,82,76,51,54,70,,107,100,37,30,10,8,0.8,0.8
2025-02-16T2200,3407A,120.6916,30.7739,嘉兴市,秀洲住建,细颗粒物(PM2.5),73,88,58,53,51,68,,110,100,39,31,8,5,0.6,0.6
2025-02-16T2200,1945A,98.2908,39.7711,嘉峪关市,气象局,颗粒物(PM10),90,129,181,39,45,29,,98,85,58,20,6,6,0.5,0.4
2025-02-16T2200,2884A,98.2672,39.7978,嘉峪关市,酒钢宾馆,颗粒物(PM10),104,158,200,48,45,25,,91,80,58,17,3,4,0.7,0.5
2025-02-16T2200,3248A,98.2643,39.7724,嘉峪关市,雄关区,颗粒物(PM10),83,116,154,38,37,13,,99,85,73,23,12,7,0.6,0.5
2025-02-16T2200,1383A,113.1064,22.6058,江门市,北街,颗粒物(PM10),55,59,54,38,43,50,,107,105,34,28,4,3,1.0,0.8
2025-02-16T2200,1384A,113.0731,22.5835,江门市,西区,颗粒物(PM10),58,65,54,39,32,48,,109,107,43,34,6,6,1.0,0.8
2025-02-16T2200,1385A,113.0219,22.5311,江门市,圭峰西,细颗粒物(PM2.5),58,43,53,41,39,62,,109,108,27,25,6,6,1.1,0.9
2025-02-16T2200,1386A,113.0828,22.5947,江门市,东湖,细颗粒物(PM2.5),73,56,62,53,37,51,,115,113,30,25,7,7,0.8,0.7
2025-02-16T2200,3311A,113.1075,22.5647,江门市,江海富民,细颗粒物(PM2.5),87,86,72,64,48,51,,110,108,36,29,7,7,0.8,0.6
2025-02-16T2200,3449A,113.05,22.4667,江门市,新会银湖,细颗粒物(PM2.5),82,65,60,60,46,48,,102,100,37,29,7,7,1.1,0.9
2025-02-16T2200,3169A,113.2725,35.2067,焦作市,太极体育中心,颗粒物(PM10),80,109,91,26,17,70,,97,90,18,11,10,9,0.6,0.6
2025-02-16T2200,3335A,113.3137,35.2641,焦作市,马村街道办,颗粒物(PM10),85,119,87,36,28,66,,93,83,25,13,11,10,0.6,0.5
2025-02-16T2200,3336A,113.2465,35.2373,焦作市,焦作技师学院,颗粒物(PM10),78,105,91,34,23,72,,95,89,18,12,8,7,0.8,0.8
2025-02-16T2200,3477A,113.1656,35.2539,焦作市,中站许衡医院,颗粒物(PM10),70,90,87,40,29,78,,93,89,18,14,10,10,0.6,0.6
2025-02-16T2200,3981A,113.2449,35.1803,焦作市,原李万街道办,颗粒物(PM10),80,109,95,29,18,71,,101,94,22,14,13,12,0.6,0.6
2025-02-16T2200,4264A,113.2340,35.2190,焦作市,新安路1731号,颗粒物(PM10),85,120,96,37,25,72,,98,92,21,15,9,8,0.5,0.4
2025-02-16T2200,1708A,116.3701,23.5345,揭阳市,新兴,细颗粒物(PM2.5),64,,79,46,85,64,,116,101,27,28,7,7,0.9,0.9
2025-02-16T2200,1709A,116.3264,23.5443,揭阳市,西马,细颗粒物(PM2.5),58,,74,41,75,82,,131,116,17,25,9,9,0.8,0.9
2025-02-16T2200,1710A,116.3611,23.5626,揭阳市,东兴,细颗粒物(PM2.5),69,,96,50,83,75,,128,113,17,25,8,9,1.0,1.1
2025-02-16T2200,1711A,116.4151,23.5294,揭阳市,渔湖,,43,43,76,21,41,77,,124,112,16,23,6,7,0.8,0.7
2025-02-16T2200,3320A,116.403,23.5699,揭阳市,曲溪,颗粒物(PM10),60,70,73,38,51,71,,129,113,29,31,17,12,0.7,0.7
2025-02-16T2200,1944A,102.1692,38.5167,金昌市,天庆家园,颗粒物(PM10),69,87,108,31,43,76,,96,87,19,20,16,24,0.6,1
2025-02-16T2200,4022A,102.1647,38.5371,金昌市,金川区人防中心,颗粒物(PM10),85,120,125,40,43,65,,91,82,18,12,7,13,0.7,0.7
2025-02-16T2200,4239A,102.1930,38.5319,金昌市,长春路96号,颗粒物(PM10),84,118,106,60,41,44,,92,84,42,21,24,24,0.6,0.6
2025-02-16T2200,1262A,119.647,29.077,金华市,十五中,颗粒物(PM10),54,57,42,32,30,40,,80,65,38,31,7,6,0.9,0.8
2025-02-16T2200,1263A,119.686,29.1029,金华市,监测站,,50,49,44,35,33,43,,79,67,36,33,8,5,0.7,0.7
2025-02-16T2200,3659A,119.656,29.1131,金华市,气象局,,48,48,43,30,32,42,,78,64,32,28,8,5,0.8,0.7
2025-02-16T2200,1767A,121.1115,41.0879,锦州市,南山,,48,48,41,13,12,79,,84,81,12,13,9,9,0.4,0.4
2025-02-16T2200,1768A,121.0533,40.8434,锦州市,开发区,,39,39,54,11,16,66,,81,58,13,17,10,14,0.6,0.6
2025-02-16T2200,1769A,121.1836,41.1119,锦州市,百股街道,,48,48,46,12,16,66,,69,66,9,13,7,9,0.4,0.5
2025-02-16T2200,1770A,121.1178,41.1222,锦州市,天安街道,颗粒物(PM10),56,62,43,10,7,75,,76,75,7,10,5,5,0.6,0.6
2025-02-16T2200,1771A,121.1303,41.1386,锦州市,北湖公园,,48,48,36,10,11,72,,78,74,6,8,7,8,0.3,0.3
2025-02-16T2200,2160A,112.85,35.5051,晋城市,自来水公司,颗粒物(PM10),60,70,74,29,19,57,,92,85,34,17,9,8,0.8,0.5
2025-02-16T2200,2161A,112.8318,35.4936,晋城市,白云商贸,颗粒物(PM10),71,91,83,17,11,63,,98,92,34,19,8,6,0.9,0.7
2025-02-16T2200,2162A,112.8508,35.4887,晋城市,市环保局,颗粒物(PM10),77,103,75,34,18,34,,90,80,57,20,9,8,0.6,0.4
2025-02-16T2200,2163A,112.8676,35.4897,晋城市,技术学院,颗粒物(PM10),66,81,81,29,18,38,,92,83,56,19,7,7,0.6,0.5
2025-02-16T2200,3620A,112.8271,35.4828,晋城市,泽州一中,颗粒物(PM10),52,53,64,14,13,71,,94,90,25,13,6,6,0.6,0.5
2025-02-16T2200,2173A,112.7249,37.7067,晋中市,南都小区,颗粒物(PM10),56,62,108,29,28,42,,92,76,45,22,11,8,0.2,0.1
2025-02-16T2200,2174A,112.6991,37.6982,晋中市,榆次区政府,颗粒物(PM10),58,66,108,23,26,32,,89,74,47,22,9,7,0.4,0.4
2025-02-16T2200,2865A,112.7195,37.6828,晋中市,榆次三中,颗粒物(PM10),65,80,120,27,22,32,,88,75,46,17,13,8,0.9,0.7
2025-02-16T2200,4200A,112.7478,37.6954,晋中市,迎宾街26号,颗粒物(PM10),67,83,114,27,25,41,,91,79,40,16,7,5,0.5,0.4
2025-02-16T2200,2439A,112.2014,31.0481,荆门市,竹园小学,细颗粒物(PM2.5),119,116,89,90,56,81,,102,96,30,24,8,6,1.0,0.8
2025-02-16T2200,2440A,112.1969,30.9891,荆门市,掇刀,细颗粒物(PM2.5),115,124,94,87,53,89,,101,98,26,25,14,12,0.7,0.6
2025-02-16T2200,2441A,112.2213,31.0386,荆门市,石化一小,细颗粒物(PM2.5),105,112,96,79,56,84,,103,99,34,28,15,11,0.8,0.7
2025-02-16T2200,3012A,112.1849,31.0362,荆门市,西山林语,细颗粒物(PM2.5),88,106,75,65,47,94,,105,103,24,22,7,5,0.6,0.4
2025-02-16T2200,3547A,112.1632,31.0138,荆门市,龙泉中学南校,细颗粒物(PM2.5),119,126,86,90,50,70,,101,95,28,20,12,11,0.8,0.9
2025-02-16T2200,1844A,112.2494,30.3197,荆州市,市图书馆,细颗粒物(PM2.5),122,95,72,92,61,55,,102,92,31,27,6,6,0.9,0.7
2025-02-16T2200,1845A,112.2008,30.3544,荆州市,市委党校,细颗粒物(PM2.5),109,107,81,82,62,47,,98,86,40,30,7,7,0.8,0.7
2025-02-16T2200,3194A,112.2747,30.3122,荆州市,管委会,细颗粒物(PM2.5),110,106,78,83,60,62,,111,100,32,28,9,9,0.7,0.6
2025-02-16T2200,4268A,112.1722,30.3366,荆州市,学苑路85号,细颗粒物(PM2.5),119,92,69,90,62,35,,106,92,50,30,11,11,0.8,0.7
2025-02-16T2200,2343A,117.2117,29.2933,景德镇市,老干部活动中心,细颗粒物(PM2.5),102,105,68,76,56,8,,66,48,45,24,6,6,1.3,0.9
2025-02-16T2200,2344A,117.1894,29.2789,景德镇市,兽医站,细颗粒物(PM2.5),88,122,78,65,41,6,,67,46,68,33,9,7,1.4,1.1
2025-02-16T2200,2345A,117.1547,29.2617,景德镇市,台达陶瓷,细颗粒物(PM2.5),82,99,69,60,41,13,,62,48,69,35,70,28,1.0,1
2025-02-16T2200,2346A,117.2461,29.2956,景德镇市,陶研所,细颗粒物(PM2.5),100,,57,75,59,19,,62,48,36,26,3,4,0.6,0.5
2025-02-16T2200,1803A,115.9872,29.6815,九江市,十里,细颗粒物(PM2.5),78,82,65,57,42,8,,89,65,64,37,7,8,1.2,0.9
2025-02-16T2200,1804A,115.9584,29.7046,九江市,茅山头,颗粒物(PM10),59,68,63,37,37,7,,76,57,55,42,4,9,0.7,0.8
2025-02-16T2200,1805A,115.9877,29.7295,九江市,西园,细颗粒物(PM2.5),67,67,59,48,39,10,,93,67,79,39,10,11,1.3,1.2
2025-02-16T2200,1808A,115.9114,29.6038,九江市,综合工业园,细颗粒物(PM2.5),53,50,59,37,41,25,,81,66,43,39,4,5,0.8,0.9
2025-02-16T2200,1809A,116.0721,29.7535,九江市,石化总厂,细颗粒物(PM2.5),82,,58,60,47,27,,87,67,38,30,10,12,1.0,1
2025-02-16T2200,1810A,115.9773,29.5698,九江市,庐山气象台,颗粒物(PM10),58,65,53,24,35,116,,110,110,6,8,23,10,0.8,0.8
2025-02-16T2200,3190A,116.0254,29.6994,九江市,外国语学校,细颗粒物(PM2.5),72,72,66,52,45,42,,101,83,41,42,8,7,1.0,0.9
2025-02-16T2200,4253A,116.0102,29.6594,九江市,莲花大道8号,颗粒物(PM10),64,78,69,40,47,53,,89,77,18,15,5,6,0.8,0.8
2025-02-16T2200,2658A,98.5061,39.7443,酒泉市,仓门街子站,颗粒物(PM10),108,166,189,64,45,41,,96,87,37,9,12,10,0.9,0.4
2025-02-16T2200,4240A,98.4958,39.7339,酒泉市,玉门东路5号,颗粒物(PM10),118,185,202,75,48,28,,91,81,38,9,10,8,0.9,0.4
2025-02-16T2200,2698A,76.0072,39.4467,喀什地区,巡警大队,颗粒物(PM10),413,513,537,107,122,63,,74,74,26,47,5,8,0.7,1.8
2025-02-16T2200,2699A,75.9755,39.4694,喀什地区,吾办,颗粒物(PM10),425,525,532,132,129,63,,73,73,29,44,7,8,0.8,1.5
2025-02-16T2200,4027A,75.9483,39.4689,喀什地区,老干局,颗粒物(PM10),418,518,539,,93,54,,78,76,40,40,8,6,1.3,2
2025-02-16T2200,1824A,114.3389,34.7781,开封市,肿瘤医院,颗粒物(PM10),82,113,87,41,27,60,,91,82,24,14,5,7,0.8,0.8
2025-02-16T2200,1826A,114.2885,34.7965,开封市,世纪星幼儿园,颗粒物(PM10),81,112,84,41,32,60,,84,78,36,24,6,7,0.7,0.7
2025-02-16T2200,3147A,114.3438,34.8106,开封市,龙亭公园,颗粒物(PM10),79,107,86,50,28,56,,88,78,36,21,4,5,0.9,0.8
2025-02-16T2200,3210A,114.3644,34.7964,开封市,汴京公园,颗粒物(PM10),70,90,92,45,26,52,,95,84,74,29,8,7,0.8,0.3
2025-02-16T2200,3473A,114.2485,34.8306,开封市,技师学院,颗粒物(PM10),83,115,83,51,28,56,,88,80,85,31,8,6,1.0,0.7
2025-02-16T2200,3592A,114.4644,34.7556,开封市,祥符区生态环境局,颗粒物(PM10),86,122,110,41,35,50,,86,70,38,22,4,6,0.7,0.7
2025-02-16T2200,1951A,84.895,45.6094,克拉玛依市,长征新村,细颗粒物(PM2.5),98,88,95,73,64,95,,90,90,30,36,6,7,0.9,0.9
2025-02-16T2200,1952A,84.8988,45.5893,克拉玛依市,南林小区,细颗粒物(PM2.5),102,92,97,76,73,91,,91,91,21,28,2,3,1.0,1
2025-02-16T2200,1954A,84.905,44.3396,克拉玛依市,独山子区,,40,,44,28,44,101,,106,105,12,18,5,5,0.3,0.5
2025-02-16T2200,1955A,85.6979,46.098,克拉玛依市,乌尔禾区商贸楼,细颗粒物(PM2.5),139,107,81,106,71,108,,113,113,26,35,6,6,1.1,1.2
2025-02-16T2200,3612A,85.1045,45.6899,克拉玛依市,白碱滩区新站,细颗粒物(PM2.5),107,120,125,80,84,76,,88,88,37,41,6,6,1.5,1.4
2025-02-16T2200,2697A,76.1454,39.7142,克孜勒苏柯尔克孜自治州,市人民政府,颗粒物(PM10),489,589,520,236,124,60,,93,91,32,17,7,5,0.9,0.8
2025-02-16T2200,3665A,76.1658,39.7157,克孜勒苏柯尔克孜自治州,克州文化中心,颗粒物(PM10),500,711,528,231,118,66,,86,86,29,16,12,10,0.8,0.6
2025-02-16T2200,1450A,102.8204,24.8886,昆明市,呈贡新区,细颗粒物(PM2.5),77,60,55,56,45,68,,101,91,26,26,11,10,0.9,0.9
2025-02-16T2200,1452A,102.7252,25.0902,昆明市,龙泉镇,细颗粒物(PM2.5),58,58,57,41,44,88,,105,98,16,33,7,7,0.6,0.6
2025-02-16T2200,1453A,102.7266,25.0375,昆明市,东风东路,细颗粒物(PM2.5),58,61,66,41,50,79,,97,90,16,31,6,7,0.7,0.8
2025-02-16T2200,1454A,102.6742,25.0669,昆明市,金鼎山,细颗粒物(PM2.5),58,58,68,41,46,82,,99,92,17,38,9,10,0.6,0.7
2025-02-16T2200,1455A,102.6644,25.0401,昆明市,碧鸡广场,细颗粒物(PM2.5),63,60,64,45,49,77,,100,93,20,31,6,7,0.6,0.7
2025-02-16T2200,3179A,102.7494,25.0119,昆明市,官渡区博物馆,细颗粒物(PM2.5),58,45,61,41,47,92,,104,98,11,34,7,9,0.6,0.8
2025-02-16T2200,3375A,102.8017,24.8336,昆明市,青年创业园,细颗粒物(PM2.5),65,63,55,47,42,70,,109,96,20,18,13,12,0.8,0.7
2025-02-16T2200,3550A,102.7997,24.9786,昆明市,昆明学院,细颗粒物(PM2.5),64,61,64,46,46,86,,105,98,14,21,4,7,0.6,0.7
2025-02-16T2200,3551A,102.5967,24.6736,昆明市,晋宁区生态环境分局,细颗粒物(PM2.5),67,65,61,48,42,84,,105,93,7,11,3,5,0.9,0.9
2025-02-16T2200,3552A,102.6678,24.9856,昆明市,云天化总部,细颗粒物(PM2.5),62,57,60,44,46,98,,111,106,8,31,6,8,0.5,0.5
2025-02-16T2200,1456A,91.1319,29.6514,拉萨市,八廓街,,34,20,19,10,9,106,,126,124,12,8,7,6,0.5,0.4
2025-02-16T2200,1457A,91.1221,29.6747,拉萨市,市环保局,,28,25,18,14,8,89,,113,108,22,14,7,5,0.6,0.4
2025-02-16T2200,1458A,91.0874,29.6475,拉萨市,区监测站,,34,12,15,6,7,107,,117,117,13,10,6,6,0.4,0.4
2025-02-16T2200,1459A,91.1774,29.6541,拉萨市,西藏大学,,33,14,21,7,6,103,,114,114,10,8,5,6,0.4,0.4
2025-02-16T2200,1460A,90.9798,29.6588,拉萨市,区辐射站,,32,32,17,15,8,98,,126,122,24,10,9,7,0.8,0.6
2025-02-16T2200,1461A,91.0834,29.6292,拉萨市,拉萨火车站,,37,10,14,7,7,118,,122,122,3,8,4,4,0.2,0.2
2025-02-16T2200,2520A,109.2203,23.7256,来宾市,来宾技工学校,,43,36,28,30,22,44,,57,52,20,12,7,6,0.9,0.9
2025-02-16T2200,3535A,109.1781,23.7297,来宾市,兴宾区政府,,46,42,28,32,20,30,,49,43,21,13,5,6,0.8,0.7
2025-02-16T2200,4002A,109.2416,23.7461,来宾市,中南小学,,38,38,31,26,22,36,,50,44,21,12,5,5,0.8,0.8
2025-02-16T2200,1479A,103.831,36.0464,兰州市,铁路设计院,"颗粒物(PM10),细颗粒物(PM2.5)",97,143,109,72,53,7,,68,56,116,62,13,15,1.6,1.3
2025-02-16T2200,3241A,103.7439,36.0842,兰州市,百合公园,颗粒物(PM10),91,132,114,58,43,6,,81,55,96,43,14,12,1.0,0.7
2025-02-16T2200,3242A,103.9611,35.998,兰州市,和平,颗粒物(PM10),81,111,100,48,38,76,,87,82,22,26,13,17,0.6,0.8
2025-02-16T2200,4236A,103.6293,36.0938,兰州市,庄浪东路808号,颗粒物(PM10),78,106,117,50,47,33,,110,89,71,43,8,14,0.9,0.8
2025-02-16T2200,4237A,103.7251,36.1043,兰州市,安宁西路88号,颗粒物(PM10),88,126,130,61,46,18,,100,74,86,42,18,22,0.9,0.7
2025-02-16T2200,4238A,103.8470,36.0676,兰州市,北滨河东路1号,细颗粒物(PM2.5),103,146,118,77,47,7,,81,65,106,57,12,13,1.1,0.9
2025-02-16T2200,3245A,103.6633,36.533,兰州新区,新区管委会,细颗粒物(PM2.5),103,143,95,77,44,70,,103,97,17,13,31,18,0.6,0.5
2025-02-16T2200,3246A,103.6975,36.4789,兰州新区,舟曲中学,颗粒物(PM10),91,132,146,45,46,73,,100,96,22,15,17,17,0.4,0.4
2025-02-16T2200,1067A,116.6708,39.5111,廊坊市,药材公司,,27,27,35,7,10,62,,79,70,17,14,3,3,0.3,0.3
2025-02-16T2200,1068A,116.7214,39.5589,廊坊市,开发区,,28,28,33,9,15,59,,81,73,16,10,2,2,0.2,0.2
2025-02-16T2200,1070A,116.7244,39.5269,廊坊市,北华航天学院,,28,28,33,6,8,59,,81,74,22,14,3,3,0.2,0.2
2025-02-16T2200,2919A,116.7022,39.5453,廊坊市,河北工业大学,,40,40,34,14,10,56,,79,73,20,12,4,5,0.3,0.2
2025-02-16T2200,2535A,103.7723,29.5462,乐山市,花湖湾,颗粒物(PM10),76,102,68,48,55,14,,76,65,65,22,6,6,0.9,0.6
2025-02-16T2200,2536A,103.7627,29.5844,乐山市,牛耳桥,细颗粒物(PM2.5),77,75,70,56,55,4,,62,43,59,32,6,6,0.8,0.6
2025-02-16T2200,2537A,103.7508,29.6006,乐山市,市第三水厂,细颗粒物(PM2.5),69,68,66,50,49,11,,67,52,50,22,4,4,0.8,0.6
2025-02-16T2200,2538A,103.7571,29.5664,乐山市,市监测站,细颗粒物(PM2.5),58,54,59,41,42,11,,68,58,60,23,5,6,1.2,0.9
2025-02-16T2200,3361A,103.7311,29.5628,乐山市,理工大学,细颗粒物(PM2.5),73,65,66,53,51,43,,70,64,36,24,6,7,0.6,0.6
2025-02-16T2200,2599A,100.2497,26.8802,丽江市,丽江古城,,39,34,26,27,21,75,,91,86,13,11,8,8,0.7,0.6
2025-02-16T2200,2600A,100.2203,26.8906,丽江市,市中心,,29,,20,20,17,77,,87,84,11,12,10,10,0.6,0.5
2025-02-16T2200,1267A,119.914,28.4514,丽水市,监测站大楼,,32,32,26,14,21,46,,89,85,29,18,4,3,0.6,0.7
2025-02-16T2200,1268A,119.93,28.4586,丽水市,莲都小学,,22,21,27,15,24,51,,94,90,33,19,6,6,0.5,0.7
2025-02-16T2200,1269A,119.879,28.4231,丽水市,余庄前,,21,21,30,11,23,44,,80,73,10,15,4,4,0.4,0.7
2025-02-16T2200,1173A,119.176,34.5885,连云港市,市环境监测站,,44,44,125,14,70,70,,86,77,16,27,8,15,0.4,0.8
2025-02-16T2200,3000A,119.3581,34.6972,连云港市,德源药业,,44,44,119,9,63,71,,79,75,12,45,6,12,0.3,0.8
2025-02-16T2200,3007A,119.178,34.844,连云港市,新城一中,颗粒物(PM10),62,74,118,14,80,53,,72,64,26,43,10,12,0.5,0.8
2025-02-16T2200,3008A,119.3608,34.7519,连云港市,胡沟管理处,,25,22,93,9,61,80,,86,81,16,37,5,13,0.4,0.9
2025-02-16T2200,3009A,119.1478,34.5911,连云港市,矿山设计院,,48,48,137,14,70,73,,90,80,13,30,5,11,0.7,1
2025-02-16T2200,3434A,119.2413,34.6539,连云港市,工贸学校,,38,38,109,13,68,70,,84,77,15,29,8,15,0.4,0.9
2025-02-16T2200,3664A,119.4172,34.7341,连云港市,连云街道,,30,30,99,12,54,70,,88,74,21,28,7,13,0.4,0.7
2025-02-16T2200,2571A,102.3431,27.8099,凉山彝族自治州,青龙寺,,28,25,31,10,9,87,,98,97,4,7,3,4,0.9,0.9
2025-02-16T2200,2572A,102.2721,27.8415,凉山彝族自治州,邛海宾馆,,36,36,39,19,20,94,,94,94,4,10,4,4,0.5,0.6
2025-02-16T2200,2573A,102.2625,27.898,凉山彝族自治州,西昌市政府,,30,30,30,20,22,79,,90,88,6,8,4,5,0.5,0.5
2025-02-16T2200,2574A,102.2685,27.8851,凉山彝族自治州,凉山州政府,,38,,29,26,22,85,,93,92,6,9,4,6,0.4,0.5
2025-02-16T2200,2575A,102.237,27.8914,凉山彝族自治州,长安,细颗粒物(PM2.5),53,,42,37,36,86,,95,94,8,12,10,10,0.9,0.6
2025-02-16T2200,2212A,123.2,41.1953,辽阳市,宏伟区,颗粒物(PM10),65,80,48,13,27,69,,84,77,9,10,13,14,0.2,0.3
2025-02-16T2200,2213A,123.1683,41.2495,辽阳市,新华园,颗粒物(PM10),66,81,53,16,31,59,,73,65,12,16,8,8,0.8,0.8
2025-02-16T2200,2214A,123.2354,41.2639,辽阳市,滨河路,颗粒物(PM10),59,67,45,14,26,69,,78,72,9,13,5,5,0.5,0.6
2025-02-16T2200,2215A,123.149,41.2991,辽阳市,铁西工业园,颗粒物(PM10),59,68,53,15,31,64,,80,66,13,18,3,4,0.4,0.5
2025-02-16T2200,2227A,125.1358,42.8845,辽源市,环保局,颗粒物(PM10),54,58,50,14,23,68,,82,77,10,13,33,14,0.8,0.9
2025-02-16T2200,3239A,125.0764,42.9078,辽源市,银鹰制药,颗粒物(PM10),53,56,47,18,32,74,,84,78,5,10,6,8,0.7,0.8
2025-02-16T2200,1625A,115.9848,36.4372,聊城市,区政府,,40,40,79,17,27,59,,83,76,28,26,13,14,0.6,0.8
2025-02-16T2200,2878A,116.0072,36.4343,聊城市,聊大东校,颗粒物(PM10),56,61,82,23,30,51,,83,75,33,24,9,10,0.4,0.5
2025-02-16T2200,3200A,115.9819,36.4978,聊城市,监控中心,颗粒物(PM10),54,58,87,27,27,29,,82,66,61,30,17,13,0.6,0.6
2025-02-16T2200,3513A,116.0445,36.4361,聊城市,九州社区,颗粒物(PM10),54,58,78,29,28,43,,85,72,43,24,10,11,0.6,0.5
2025-02-16T2200,4018A,116.0567,36.4608,聊城市,星美广场,颗粒物(PM10),63,75,79,38,27,36,,81,66,42,25,15,16,0.7,0.7
2025-02-16T2200,2632A,94.3681,29.6376,林芝市,林芝监测站,,35,12,11,10,8,110,,115,115,1,2,7,7,0.5,0.5
2025-02-16T2200,2633A,94.3616,29.6616,林芝市,林芝人民医院,,34,19,14,10,8,106,,112,111,3,3,6,6,0.5,0.4
2025-02-16T2200,2603A,100.0781,23.8982,临沧市,市环保局,细颗粒物(PM2.5),69,63,59,50,44,80,,109,104,14,13,9,10,0.6,0.6
2025-02-16T2200,2604A,100.0894,23.8822,临沧市,市气象局,细颗粒物(PM2.5),73,63,54,53,45,79,,108,102,18,14,9,10,0.6,0.5
2025-02-16T2200,1733A,111.5531,36.0783,临汾市,临钢医院,颗粒物(PM10),65,79,93,17,22,56,,95,90,25,30,4,5,0.6,0.6
2025-02-16T2200,1734A,111.5028,36.0714,临汾市,技工学校,颗粒物(PM10),71,91,83,44,28,38,,89,76,41,29,9,8,0.8,0.6
2025-02-16T2200,1736A,111.5018,36.0855,临汾市,市委,颗粒物(PM10),76,102,90,26,20,40,,95,84,47,27,6,5,0.6,0.5
2025-02-16T2200,3018A,111.505,36.1014,临汾市,唐尧大酒店,颗粒物(PM10),59,67,89,22,23,49,,92,83,34,27,6,6,0.5,0.5
2025-02-16T2200,4244A,111.4879,36.0530,临汾市,启星学校,"颗粒物(PM10),细颗粒物(PM2.5)",70,90,73,51,29,37,,90,78,36,28,5,4,0.5,0.4
2025-02-16T2200,2667A,103.2069,35.5993,临夏回族自治州,环保局,颗粒物(PM10),93,136,109,62,45,43,,95,87,41,24,13,7,1.7,1.4
2025-02-16T2200,2668A,103.2417,35.6057,临夏回族自治州,建设大厦,颗粒物(PM10),97,144,78,28,22,12,,99,74,62,20,8,5,1.9,1.2
2025-02-16T2200,1618A,118.3429,35.0532,临沂市,沂河小区,颗粒物(PM10),52,53,139,27,77,62,,86,76,13,42,11,22,0.5,1
2025-02-16T2200,1619A,118.295,35.0583,临沂市,鲁南制药厂,颗粒物(PM10),52,53,139,20,74,60,,88,77,21,47,10,20,0.4,1
2025-02-16T2200,1620A,118.2794,34.9976,临沂市,新光毛纺厂,,44,44,128,20,71,62,,87,77,22,51,8,18,0.5,1
2025-02-16T2200,1621A,118.3956,35.0888,临沂市,河东保险公司,,48,48,135,21,79,58,,87,76,25,50,6,16,0.5,1
2025-02-16T2200,3370A,118.3564,35.0215,临沂市,十里堡居委,,46,46,139,19,79,63,,90,80,15,41,10,22,0.3,0.9
2025-02-16T2200,3496A,118.3604,35.1084,临沂市,南坊新区,,41,41,132,17,76,58,,88,77,28,46,8,15,0.4,0.8
2025-02-16T2200,3860A,118.3920,35.0300,临沂市,皇山花园小区,颗粒物(PM10),52,53,138,22,75,59,,85,75,22,49,7,16,0.6,1
2025-02-16T2200,1870A,109.4856,24.3895,柳州市,柳东小学,,40,40,25,25,19,66,,52,52,13,12,9,10,1.0,0.8
2025-02-16T2200,1871A,109.4157,24.3277,柳州市,环保监测站,,26,25,29,18,22,66,,50,50,12,14,9,9,0.5,0.6
2025-02-16T2200,1872A,109.389,24.341,柳州市,河西水厂,,45,36,33,31,19,56,,40,,14,16,3,9,0.6,1.2
2025-02-16T2200,1873A,109.4311,24.2921,柳州市,市四中,,25,19,26,17,17,68,,53,53,16,12,7,8,0.5,0.5
2025-02-16T2200,1874A,109.4006,24.3631,柳州市,市九中,,26,26,29,12,19,64,,51,51,10,14,6,6,0.7,0.7
2025-02-16T2200,1875A,109.4958,24.3134,柳州市,古亭山,,28,28,22,15,15,78,,62,62,11,8,8,7,0.4,0.5
2025-02-16T2200,3402A,109.5422,24.3996,柳州市,市二中,,29,29,21,18,19,64,,50,50,11,13,9,9,0.6,0.8
2025-02-16T2200,2308A,116.4738,31.7643,六安市,皖西学院,颗粒物(PM10),105,159,101,62,44,72,,102,93,27,28,9,6,0.7,0.7
2025-02-16T2200,2309A,116.4996,31.7905,六安市,朝阳厂,颗粒物(PM10),93,135,86,58,42,67,,100,90,30,23,8,5,0.7,0.6
2025-02-16T2200,2310A,116.5567,31.7886,六安市,开发区,颗粒物(PM10),99,147,112,54,50,59,,101,81,37,29,6,5,0.6,0.5
2025-02-16T2200,2577A,104.83,26.5917,六盘水市,黄土坡,"颗粒物(PM10),细颗粒物(PM2.5)",58,66,48,41,34,40,,59,43,23,19,14,13,0.8,0.8
2025-02-16T2200,2578A,104.89,26.5939,六盘水市,水钢,细颗粒物(PM2.5),78,83,53,57,40,50,,57,56,13,17,9,12,0.5,0.5
2025-02-16T2200,2579A,104.8475,26.5894,六盘水市,民中,细颗粒物(PM2.5),58,52,45,41,32,41,,56,42,20,20,12,11,0.7,0.7
2025-02-16T2200,2580A,104.9544,26.5506,六盘水市,双水,细颗粒物(PM2.5),57,58,39,40,28,49,,62,55,16,13,10,11,0.7,0.6
2025-02-16T2200,2336A,117.0217,25.1033,龙岩市,龙岩市监测站,,20,19,32,14,25,58,,83,72,14,16,4,8,0.7,0.7
2025-02-16T2200,2337A,117.0258,25.0661,龙岩市,闽西职业技术学院,,25,24,35,17,23,49,,82,70,13,17,4,5,0.7,0.6
2025-02-16T2200,2338A,117.0196,25.0306,龙岩市,龙岩学院,,35,35,30,17,21,54,,83,73,11,12,4,3,0.6,0.6
2025-02-16T2200,2885A,104.9339,33.3826,陇南市,滨江中学,颗粒物(PM10),58,66,51,31,27,81,,83,83,9,19,6,23,0.8,0.9
2025-02-16T2200,3247A,104.955,33.371,陇南市,市总工会,,45,45,89,21,24,87,,87,87,7,13,5,13,0.7,0.8
2025-02-16T2200,2487A,111.9589,27.8901,娄底市,电视发射台,,49,42,32,34,23,11,,37,31,14,10,6,6,0.7,0.6
2025-02-16T2200,2488A,111.9975,27.725,娄底市,市监测站,细颗粒物(PM2.5),97,110,63,72,44,2,,8,6,41,30,10,11,2.0,1.4
2025-02-16T2200,2489A,112.0194,27.7314,娄底市,市委党校,细颗粒物(PM2.5),74,87,56,54,41,5,,15,10,37,25,4,3,1.6,1
2025-02-16T2200,2490A,111.9561,27.7569,娄底市,涟钢,细颗粒物(PM2.5),87,98,64,64,43,5,,16,7,24,24,13,12,1.1,0.8
2025-02-16T2200,2491A,111.9892,27.7044,娄底市,市政府,颗粒物(PM10),66,82,49,47,36,5,,14,10,28,23,6,6,1.0,0.7
2025-02-16T2200,1894A,105.4427,28.9063,泸州市,小市上码头,细颗粒物(PM2.5),97,120,99,72,60,62,,81,79,22,32,7,6,0.6,0.7
2025-02-16T2200,1895A,105.4241,28.8573,泸州市,兰田宪桥,细颗粒物(PM2.5),65,78,78,47,50,37,,68,65,39,29,4,4,0.8,0.7
2025-02-16T2200,1896A,105.4379,28.8833,泸州市,市环监站,细颗粒物(PM2.5),89,102,89,66,56,43,,70,66,36,33,6,6,0.5,0.5
2025-02-16T2200,3490A,105.3617,28.7703,泸州市,纳溪区环保局,细颗粒物(PM2.5),93,72,70,69,62,28,,63,59,37,24,6,7,0.9,0.8
2025-02-16T2200,2183A,111.1406,37.5211,吕梁市,环保局,颗粒物(PM10),69,88,101,14,22,7,,77,56,70,34,5,4,0.4,0.3
2025-02-16T2200,2185A,111.1297,37.5136,吕梁市,自来水公司,颗粒物(PM10),57,64,109,18,23,50,,80,74,23,26,4,7,0.4,0.4
2025-02-16T2200,2867A,111.1283,37.51,吕梁市,马茂庄小学,颗粒物(PM10),71,92,106,27,22,6,,78,64,72,34,7,9,0.2,0.2
2025-02-16T2200,1812A,112.3931,34.6516,洛阳市,市委党校,颗粒物(PM10),83,116,86,46,27,22,,87,72,63,28,8,9,0.7,0.5
2025-02-16T2200,1815A,112.494,34.6886,洛阳市,河南林校,细颗粒物(PM2.5),89,116,84,66,39,22,,94,78,69,36,7,6,0.9,0.7
2025-02-16T2200,1816A,112.3844,34.623,洛阳市,开发区管委会,颗粒物(PM10),75,99,84,51,35,55,,94,83,30,18,7,6,0.6,0.5
2025-02-16T2200,1817A,112.4267,34.6258,洛阳市,市委新办公区,颗粒物(PM10),78,105,82,53,34,47,,96,84,43,22,6,6,0.7,0.6
2025-02-16T2200,3340A,112.6005,34.6326,洛阳市,伊滨,颗粒物(PM10),81,111,88,54,42,45,,95,81,28,19,5,6,0.8,0.8
2025-02-16T2200,3341A,112.4951,34.6332,洛阳市,中移产业园,颗粒物(PM10),68,85,76,43,30,32,,95,81,64,30,9,8,0.6,0.4
2025-02-16T2200,3593A,112.5736,34.8993,洛阳市,吉利监测站,颗粒物(PM10),72,93,79,34,28,53,,99,86,39,30,8,6,0.6,0.4
2025-02-16T2200,3635A,112.3677,34.662,洛阳市,河科大西苑校区,颗粒物(PM10),89,127,94,56,36,10,,94,72,74,25,11,14,0.9,0.7
2025-02-16T2200,3636A,112.4388,34.6781,洛阳市,英才小学,颗粒物(PM10),79,108,85,51,34,23,,94,80,74,36,8,8,0.7,0.5
2025-02-16T2200,4214A,112.4600,34.6949,洛阳市,春都路1号院,颗粒物(PM10),85,119,101,46,33,45,,85,77,48,40,10,9,0.6,0.6
2025-02-16T2200,2399A,114.051,33.5699,漯河市,三五一五工厂,颗粒物(PM10),95,139,109,48,44,68,,94,84,23,18,5,6,0.5,0.5
2025-02-16T2200,2400A,114.0055,33.5698,漯河市,漯河大学,颗粒物(PM10),93,136,104,44,40,63,,97,89,29,22,7,7,0.4,0.4
2025-02-16T2200,2401A,114.0138,33.5828,漯河市,市水利局,颗粒物(PM10),90,129,105,44,42,65,,94,87,25,18,5,5,0.4,0.4
2025-02-16T2200,2402A,114.0261,33.5698,漯河市,市广电局,颗粒物(PM10),94,137,102,45,40,56,,97,87,36,20,8,7,0.4,0.5
2025-02-16T2200,3478A,113.9749,33.5664,漯河市,市图书馆,颗粒物(PM10),88,125,101,44,42,66,,98,90,25,17,5,6,0.6,0.6
2025-02-16T2200,4250A,114.0892,33.5882,漯河市,韶山路11号,颗粒物(PM10),90,130,108,46,43,52,,88,77,29,17,8,9,0.5,0.5
2025-02-16T2200,1798A,118.5092,31.6837,马鞍山市,湖东路四小,颗粒物(PM10),86,122,108,21,56,72,,96,86,34,37,17,16,1.2,1.1
2025-02-16T2200,1799A,118.5024,31.6449,马鞍山市,开发区,颗粒物(PM10),89,127,108,26,63,67,,103,97,40,37,25,10,1.3,0.8
2025-02-16T2200,1802A,118.6245,31.7241,马鞍山市,濮塘,颗粒物(PM10),82,114,108,27,65,81,,113,107,22,41,7,8,0.6,0.9
2025-02-16T2200,3633A,118.4918,31.6809,马鞍山市,雨山,颗粒物(PM10),91,132,113,29,64,54,,96,88,51,35,32,13,1.5,0.9
2025-02-16T2200,4191A,118.5274,31.72227,马鞍山市,慈湖高新区,颗粒物(PM10),77,104,96,31,66,56,,92,84,46,35,12,16,0.6,0.9
2025-02-16T2200,1686A,111.0286,21.4688,茂名市,电白南海,,29,29,28,12,17,46,,69,59,15,9,3,3,0.7,0.7
2025-02-16T2200,1687A,110.9294,21.6533,茂名市,茂石化七小,细颗粒物(PM2.5),67,66,41,48,29,26,,87,69,15,11,12,3,1.1,0.7
2025-02-16T2200,1688A,110.9107,21.6687,茂名市,健康路,,,,39,,27,26,,86,68,,10,13,4,1.2,0.9
2025-02-16T2200,1689A,110.8592,21.6828,茂名市,高岭,细颗粒物(PM2.5),64,66,48,46,27,22,,74,56,14,13,4,7,1.1,0.8
2025-02-16T2200,3450A,111.01,21.5165,茂名市,电白水东,颗粒物(PM10),54,58,21,34,10,38,,72,59,16,5,11,4,0.9,0.6
2025-02-16T2200,2539A,104.0308,30.0478,眉山市,黑龙滩水库,细颗粒物(PM2.5),70,66,53,51,42,52,,82,77,6,5,3,3,0.6,0.5
2025-02-16T2200,2540A,103.8416,30.0874,眉山市,气象局,细颗粒物(PM2.5),94,92,78,70,54,32,,80,69,42,28,6,6,0.7,0.6
2025-02-16T2200,3137A,103.8578,30.0744,眉山市,市委党校,细颗粒物(PM2.5),70,73,63,51,46,25,,71,60,54,29,7,6,0.7,0.6
2025-02-16T2200,3148A,103.8291,30.0564,眉山市,区人社局,细颗粒物(PM2.5),85,,54,63,48,42,,73,63,37,33,9,8,0.7,0.7
2025-02-16T2200,1690A,116.1231,24.3284,梅州市,梅江月梅,,23,22,33,16,28,53,,82,74,13,20,8,8,0.8,0.7
2025-02-16T2200,1691A,116.0797,24.2719,梅州市,梅县新城,,29,,34,20,29,53,,86,79,10,13,4,5,0.7,0.6
2025-02-16T2200,1692A,116.1248,24.2654,梅州市,环境监控中心,,30,,33,21,29,54,,85,76,12,18,6,6,0.7,0.6
2025-02-16T2200,3315A,116.1233,24.2991,梅州市,梅龙,,25,22,35,17,28,57,,87,78,16,21,6,6,0.8,0.8
2025-02-16T2200,1878A,104.7778,31.4741,绵阳市,富乐山,,49,45,54,34,42,41,,71,67,28,23,2,2,0.7,0.7
2025-02-16T2200,1880A,104.6697,31.4668,绵阳市,高新区自来水公司,"颗粒物(PM10),细颗粒物(PM2.5)",64,78,73,46,45,29,,67,62,44,33,3,4,0.6,0.6
2025-02-16T2200,1881A,104.7287,31.5075,绵阳市,三水厂,细颗粒物(PM2.5),63,66,75,45,51,27,,70,64,51,36,6,6,1.0,0.9
2025-02-16T2200,3491A,104.69,31.5322,绵阳市,西科大附属小学,细颗粒物(PM2.5),62,65,72,44,48,8,,67,60,72,36,6,6,0.9,0.9
2025-02-16T2200,3492A,104.5648,31.5343,绵阳市,安州区旅游局,细颗粒物(PM2.5),79,80,72,58,55,30,,72,69,41,29,10,10,0.9,0.8
2025-02-16T2200,4226A,104.7651,31.4531,绵阳市,绵阳市气象局,颗粒物(PM10),57,64,71,38,43,42,,66,64,35,29,7,5,0.6,0.6
2025-02-16T2200,1784A,129.61,44.561,牡丹江市,环保大楼,,35,35,63,20,38,61,,82,70,16,26,7,9,0.5,0.7
2025-02-16T2200,1785A,129.6115,44.5782,牡丹江市,文化广场,,49,36,70,34,56,70,,86,76,17,30,10,12,0.5,0.8
2025-02-16T2200,1786A,129.5904,44.5963,牡丹江市,第一医院,,38,33,68,26,60,72,,84,73,9,25,7,10,0.5,0.8
2025-02-16T2200,1787A,129.6364,44.6075,牡丹江市,机车工厂,,42,40,82,29,55,64,,79,68,10,24,12,11,0.6,1
2025-02-16T2200,1788A,129.6386,44.5462,牡丹江市,第一中学,,35,27,58,24,42,71,,86,75,11,23,7,9,0.6,0.9
2025-02-16T2200,2531A,105.0703,29.61,内江市,市监测站,细颗粒物(PM2.5),68,51,48,49,48,43,,69,67,33,27,6,6,0.7,0.7
2025-02-16T2200,2532A,105.0717,29.5947,内江市,东兴区政府,细颗粒物(PM2.5),59,47,50,42,42,49,,76,73,36,26,5,5,0.8,0.7
2025-02-16T2200,2533A,105.0653,29.5817,内江市,内江二中,颗粒物(PM10),68,85,57,46,48,37,,76,71,43,26,7,7,0.8,0.8
2025-02-16T2200,2534A,105.0406,29.5822,内江市,内江日报社,细颗粒物(PM2.5),63,55,50,45,48,35,,73,69,48,30,8,8,0.7,0.6
2025-02-16T2200,2628A,92.0657,31.4846,那曲市,那曲监测站,,33,30,35,23,13,52,,86,82,33,8,17,8,1.3,0.6
2025-02-16T2200,3128A,92.0506,31.4797,那曲市,那曲会议中心,,28,28,44,12,12,83,,104,102,9,4,3,2,0.5,0.5
2025-02-16T2200,1290A,115.8931,28.6843,南昌市,省外办,细颗粒物(PM2.5),77,73,51,56,43,19,,43,34,40,30,4,4,0.8,0.6
2025-02-16T2200,1291A,115.8886,28.7003,南昌市,省林业公司,细颗粒物(PM2.5),77,68,44,56,37,5,,26,20,45,31,9,6,0.8,0.6
2025-02-16T2200,1292A,115.8126,28.7442,南昌市,林科所,颗粒物(PM10),58,66,38,39,28,2,,34,24,51,35,7,5,0.9,0.8
2025-02-16T2200,1294A,115.8518,28.687,南昌市,建工学校,细颗粒物(PM2.5),74,62,45,54,40,8,,32,26,53,34,10,7,1.1,0.9
2025-02-16T2200,1295A,115.8921,28.6424,南昌市,象湖,细颗粒物(PM2.5),70,83,44,51,36,3,,26,19,50,37,6,6,1.1,0.9
2025-02-16T2200,1296A,115.7423,28.7996,南昌市,武术学校,,35,25,21,24,13,8,,41,24,14,13,3,3,0.6,0.6
2025-02-16T2200,3046A,115.9084,28.6062,南昌市,机电学校,细颗粒物(PM2.5),89,94,54,66,37,4,,28,20,43,32,7,6,1.1,0.9
2025-02-16T2200,3690A,115.9721,28.7031,南昌市,外国语学校,细颗粒物(PM2.5),67,78,62,48,37,2,,20,13,50,37,3,3,0.8,0.6
2025-02-16T2200,4192A,115.9316,28.68677,南昌市,南京东路235号,细颗粒物(PM2.5),87,112,57,64,46,8,,30,20,55,42,6,5,1.2,0.9
2025-02-16T2200,1905A,106.056,30.8064,南充市,西山风景区,细颗粒物(PM2.5),53,43,39,37,36,71,,69,69,9,15,3,3,0.6,0.7
2025-02-16T2200,1906A,106.0789,30.8023,南充市,南充市委,细颗粒物(PM2.5),67,75,56,48,41,7,,54,47,55,30,3,3,1.1,0.8
2025-02-16T2200,1907A,106.1031,30.8217,南充市,南充炼油厂,细颗粒物(PM2.5),75,86,61,55,46,1,,53,43,76,34,4,4,1.5,1
2025-02-16T2200,1909A,106.0642,30.7636,南充市,嘉陵区环保局,细颗粒物(PM2.5),62,72,63,44,37,4,,53,44,66,35,4,4,1.3,1
2025-02-16T2200,1910A,106.1087,30.8388,南充市,市环境监测站,细颗粒物(PM2.5),69,76,61,50,41,5,,51,44,74,34,6,6,1.0,0.7
2025-02-16T2200,4227A,106.1083,30.7884,南充市,梨树横街98号,细颗粒物(PM2.5),69,79,62,50,43,4,,52,46,77,40,5,5,1.3,1
2025-02-16T2200,1151A,118.8086,32.1065,南京市,迈皋桥,颗粒物(PM10),67,84,92,24,53,77,,103,98,23,32,8,5,0.7,0.6
2025-02-16T2200,1152A,118.7538,32.0551,南京市,草场门,颗粒物(PM10),84,117,97,34,54,62,,91,86,30,36,7,7,0.5,0.8
2025-02-16T2200,1153A,118.7794,32.0745,南京市,山西路,颗粒物(PM10),84,117,112,31,59,72,,105,98,27,23,4,4,0.5,0.6
2025-02-16T2200,1154A,118.7752,32.0023,南京市,中华门,颗粒物(PM10),78,105,99,31,56,63,,94,88,34,35,4,7,0.6,0.8
2025-02-16T2200,1155A,118.8109,32.0309,南京市,瑞金路,颗粒物(PM10),79,107,103,31,59,59,,94,86,36,36,6,6,0.8,0.9
2025-02-16T2200,1156A,118.7997,32.0754,南京市,玄武湖,颗粒物(PM10),78,105,104,29,58,60,,106,96,25,27,11,9,0.5,0.6
2025-02-16T2200,1157A,118.6414,32.0931,南京市,浦口,颗粒物(PM10),89,128,111,36,56,81,,102,98,17,22,11,8,0.4,0.6
2025-02-16T2200,1158A,118.7356,31.9996,南京市,奥体中心,颗粒物(PM10),83,116,104,34,58,72,,100,95,30,37,8,8,0.4,0.7
2025-02-16T2200,1159A,118.9125,32.1028,南京市,仙林大学城,颗粒物(PM10),87,124,109,36,60,62,,93,86,32,36,10,9,0.6,1
2025-02-16T2200,3422A,118.8436,31.9198,南京市,江宁彩虹桥,颗粒物(PM10),73,95,109,29,55,57,,100,93,29,25,7,7,0.6,0.9
2025-02-16T2200,3423A,119.0138,31.6494,南京市,溧水永阳,颗粒物(PM10),63,75,82,30,69,51,,98,92,41,28,4,5,0.4,1
2025-02-16T2200,3427A,118.8554,32.3578,南京市,六合雄州,颗粒物(PM10),79,108,84,36,44,64,,98,88,18,16,6,5,0.6,0.7
2025-02-16T2200,4249A,118.8708,31.3402,南京市,汶溪路181号,颗粒物(PM10),79,108,87,47,61,66,,96,89,22,16,7,5,0.7,1
2025-02-16T2200,1401A,108.3103,22.7881,南宁市,二十一中,,40,35,33,28,19,22,,28,26,28,23,6,5,0.7,0.7
2025-02-16T2200,1402A,108.3141,22.8528,南宁市,北湖,细颗粒物(PM2.5),63,57,34,45,29,7,,26,20,40,24,24,8,0.9,0.8
2025-02-16T2200,1403A,108.3206,22.8225,南宁市,市监测站,,49,49,35,31,22,12,,22,20,32,24,15,10,1.0,1
2025-02-16T2200,1404A,108.3829,22.8037,南宁市,大自然花园,,,,32,,21,19,,28,27,20,20,5,6,0.8,0.7
2025-02-16T2200,1405A,108.4394,22.7904,南宁市,仙葫,,50,45,29,35,21,26,,25,25,17,19,4,2,0.7,0.6
2025-02-16T2200,1406A,108.2397,22.8467,南宁市,区农职院,,46,46,32,31,17,14,,32,25,23,13,7,6,0.8,0.6
2025-02-16T2200,1407A,108.3275,22.735,南宁市,英华嘉园,,42,39,34,29,19,22,,24,24,21,22,6,6,0.7,0.6
2025-02-16T2200,3401A,108.4834,22.7618,南宁市,红星社区,,32,27,26,22,19,42,,41,41,11,13,8,7,0.7,0.7
2025-02-16T2200,4221A,108.2177,22.7774,南宁市,乐贤路16号,颗粒物(PM10),56,61,31,30,19,15,,30,25,26,15,4,4,0.9,0.8
2025-02-16T2200,2332A,118.1681,26.6369,南平市,南平市监测站,,26,18,42,18,34,47,,51,50,12,12,4,4,0.7,0.8
2025-02-16T2200,2333A,118.1825,26.6489,南平市,南平铝业有限公司,,22,18,35,15,34,51,,55,55,13,13,4,4,0.8,0.9
2025-02-16T2200,2334A,118.1756,26.6272,南平市,南平七中,,22,15,38,15,33,49,,53,53,11,12,6,5,0.8,0.8
2025-02-16T2200,1168A,120.9098,31.9663,南通市,狼山街道,细颗粒物(PM2.5),159,186,129,121,94,93,,86,85,26,48,8,10,1.0,1.2
2025-02-16T2200,1169A,120.86,32.0005,南通市,虹桥,细颗粒物(PM2.5),156,167,134,119,104,99,,84,84,37,70,7,10,0.5,0.9
2025-02-16T2200,1170A,120.87,32.02,南通市,城中,细颗粒物(PM2.5),162,200,156,123,102,95,,90,90,27,55,8,11,1.0,1.4
2025-02-16T2200,1171A,120.94,31.93,南通市,星湖花园,细颗粒物(PM2.5),145,171,132,111,95,86,,62,,30,59,8,9,0.7,1
2025-02-16T2200,1172A,120.81,32.0417,南通市,紫琅学院,细颗粒物(PM2.5),153,190,143,117,97,89,,103,100,30,48,4,4,1.4,1.6
2025-02-16T2200,3291A,121.067,32.062,南通市,通州监测站,细颗粒物(PM2.5),170,180,139,129,98,92,,104,99,25,47,4,7,1.0,1.3
2025-02-16T2200,3432A,120.9348,31.9883,南通市,环境教育馆,细颗粒物(PM2.5),163,185,128,124,93,100,,97,96,20,43,6,8,1.0,1.3
2025-02-16T2200,2404A,112.5224,33.0122,南阳市,瓦房庄,颗粒物(PM10),78,106,115,46,66,50,,93,85,36,38,8,8,0.7,0.7
2025-02-16T2200,2405A,112.5003,32.9735,南阳市,汉画馆,颗粒物(PM10),75,100,112,42,56,55,,89,73,28,43,7,7,0.6,0.7
2025-02-16T2200,2406A,112.5573,33.027,南阳市,气象站,颗粒物(PM10),78,105,127,39,61,73,,95,91,28,36,7,6,0.5,0.6
2025-02-16T2200,2407A,112.5481,32.9689,南阳市,理工学院,颗粒物(PM10),76,101,106,45,62,67,,94,88,31,45,7,7,0.6,0.7
2025-02-16T2200,4008A,112.5234,32.9922,南阳市,卧龙区政府,颗粒物(PM10),79,107,114,42,60,60,,88,81,35,43,7,6,0.7,0.7
2025-02-16T2200,1234A,121.8358,29.911,宁波市,区环保大楼,细颗粒物(PM2.5),77,85,86,56,67,54,,88,78,60,43,14,9,0.9,0.9
2025-02-16T2200,1235A,121.56,29.82,宁波市,万里学院,细颗粒物(PM2.5),67,71,76,48,58,57,,117,105,51,32,6,6,0.9,0.9
2025-02-16T2200,1236A,121.713,29.9572,宁波市,龙赛医院,细颗粒物(PM2.5),75,93,74,55,64,20,,109,92,92,30,7,7,0.9,0.9
2025-02-16T2200,1239A,121.633,29.7733,宁波市,钱湖水厂,细颗粒物(PM2.5),60,68,64,43,54,28,,120,92,82,34,7,6,0.9,1
2025-02-16T2200,1240A,121.5856,29.8635,宁波市,太古小学,颗粒物(PM10),66,81,69,42,45,47,,124,98,67,32,8,8,0.7,0.7
2025-02-16T2200,1241A,121.524,29.8674,宁波市,市环境监测中心,细颗粒物(PM2.5),73,78,85,53,53,35,,116,84,84,42,9,7,1.0,0.8
2025-02-16T2200,2871A,121.6147,29.9017,宁波市,万里国际学校,颗粒物(PM10),63,75,79,41,38,58,,108,91,49,33,9,7,0.9,1
2025-02-16T2200,3710A,121.5594,29.8975,宁波市,白沙活动中心,颗粒物(PM10),60,70,64,41,42,44,,124,,67,32,6,6,0.6,0.6
2025-02-16T2200,2341A,119.5388,26.6612,宁德市,宁德市监测站,细颗粒物(PM2.5),90,,42,67,49,68,,63,63,12,12,4,5,0.7,0.7
2025-02-16T2200,3209A,119.5231,26.6562,宁德市,宁德一中,细颗粒物(PM2.5),87,,40,64,47,71,,66,66,22,20,4,5,0.6,0.6
2025-02-16T2200,2618A,98.8601,25.8567,怒江傈僳族自治州,州监测站,,43,32,34,30,24,57,,58,57,7,9,5,5,0.4,0.4
2025-02-16T2200,2619A,98.8546,25.8417,怒江傈僳族自治州,泸水一中,,,31,33,29,28,41,,44,44,,16,6,6,0.4,0.4
2025-02-16T2200,1888A,101.6891,26.571,攀枝花市,弄弄坪,颗粒物(PM10),59,68,49,26,31,79,,85,79,17,31,38,30,1.6,2.5
2025-02-16T2200,1889A,101.5769,26.5928,攀枝花市,河门口,,30,30,38,20,24,83,,100,97,8,17,7,10,0.5,0.6
2025-02-16T2200,1890A,101.7169,26.585,攀枝花市,炳草岗,,29,22,44,20,23,83,,97,91,18,33,9,11,0.7,1.2
2025-02-16T2200,1891A,101.7369,26.5008,攀枝花市,仁和,颗粒物(PM10),53,56,39,30,25,58,,102,87,21,20,8,12,0.6,1
2025-02-16T2200,2835A,101.7227,26.567,攀枝花市,四十中小,,40,40,46,20,24,72,,96,90,30,37,34,16,1.4,1.4
2025-02-16T2200,1604A,122.0303,41.1489,盘锦市,开发区,颗粒物(PM10),64,77,62,10,19,76,,82,75,9,12,7,8,0.4,0.5
2025-02-16T2200,1605A,122.0485,41.0883,盘锦市,兴隆台,颗粒物(PM10),57,64,56,9,17,76,,81,75,7,12,4,6,0.4,0.5
2025-02-16T2200,1606A,121.8297,41.1028,盘锦市,新生街道,颗粒物(PM10),57,64,51,11,23,50,,81,54,35,34,10,10,0.5,0.6
2025-02-16T2200,1832A,113.3257,33.742,平顶山市,新华旅馆,颗粒物(PM10),111,172,105,50,38,29,,101,82,56,22,5,5,0.3,0.3
2025-02-16T2200,1833A,113.2919,33.737,平顶山市,规划设计院,,,,93,,34,58,,96,82,34,24,9,7,0.4,0.3
2025-02-16T2200,1834A,113.182,33.774,平顶山市,平顶山工学院,颗粒物(PM10),84,118,84,46,29,52,,101,86,44,19,7,6,0.5,0.5
2025-02-16T2200,3204A,113.3025,33.73,平顶山市,规划局,颗粒物(PM10),100,149,97,57,40,55,,89,81,33,23,8,5,0.5,0.4
2025-02-16T2200,2656A,106.6692,35.5461,平凉市,聚贤嘉苑,颗粒物(PM10),82,113,121,33,28,49,,93,84,46,27,9,10,0.5,0.4
2025-02-16T2200,2657A,106.7021,35.5307,平凉市,博物馆,颗粒物(PM10),110,170,133,73,36,31,,92,73,64,32,32,17,1.5,0.6
2025-02-16T2200,2347A,114.0997,27.5002,萍乡市,武功山,,29,,5,20,12,12,,41,23,8,6,5,5,0.8,0.7
2025-02-16T2200,2348A,113.8385,27.6434,萍乡市,中医院,细颗粒物(PM2.5),72,80,54,52,37,5,,40,25,41,24,6,7,1.6,1.4
2025-02-16T2200,2349A,113.8493,27.6253,萍乡市,市政府车库,细颗粒物(PM2.5),77,67,43,56,39,5,,41,24,36,17,5,6,1.4,1.2
2025-02-16T2200,2350A,113.8676,27.6435,萍乡市,市环保局,细颗粒物(PM2.5),65,61,45,47,35,6,,39,24,44,23,7,7,1.4,1.3
2025-02-16T2200,2351A,113.866,27.6198,萍乡市,安源区政府,细颗粒物(PM2.5),69,77,46,50,35,3,,40,21,34,22,6,7,1.3,1.2
2025-02-16T2200,2319A,119.0141,25.4325,莆田市,荔城区仓后路,细颗粒物(PM2.5),54,46,61,38,51,77,,93,91,22,21,4,4,0.8,0.9
2025-02-16T2200,2320A,119.0015,25.4553,莆田市,莆田市监测站,细颗粒物(PM2.5),69,61,54,50,48,70,,93,91,26,20,4,4,0.7,0.7
2025-02-16T2200,2321A,119.1119,25.4561,莆田市,涵江区六中,细颗粒物(PM2.5),65,60,56,47,49,94,,96,95,19,28,4,4,0.6,0.7
2025-02-16T2200,2322A,119.1013,25.3215,莆田市,秀屿区政府,细颗粒物(PM2.5),60,,42,43,48,101,,109,107,16,16,5,4,1.0,0.7
2025-02-16T2200,2392A,115.0312,35.7636,濮阳市,环保局,颗粒物(PM10),60,70,70,34,19,45,,78,71,38,20,9,5,0.7,0.6
2025-02-16T2200,2394A,115.0574,35.7609,濮阳市,油田运输公司,颗粒物(PM10),87,124,79,44,18,31,,79,68,44,20,10,4,0.9,0.7
2025-02-16T2200,3021A,115,35.7668,濮阳市,濮水河管理处,颗粒物(PM10),66,82,76,29,17,39,,78,70,36,19,6,5,0.8,0.6
2025-02-16T2200,4216A,115.0924,35.7686,濮阳市,任丘路479号,颗粒物(PM10),65,80,77,31,17,41,,81,72,39,22,14,6,0.6,0.4
2025-02-16T2200,2601A,100.98,22.7633,普洱市,市环保局,颗粒物(PM10),63,76,75,38,30,106,,108,107,8,11,6,6,0.6,0.6
2025-02-16T2200,2602A,100.9817,22.8322,普洱市,普洱第二中学,颗粒物(PM10),71,91,75,47,34,52,,98,89,29,23,4,5,0.8,0.8
2025-02-16T2200,2262A,131.0518,45.8751,七台河市,新一中,,26,22,19,18,14,71,,84,81,13,11,12,13,0.7,0.7
2025-02-16T2200,3345A,131.0577,45.7879,七台河市,中波台,,32,27,32,22,21,56,,65,60,18,20,7,14,0.2,0.2
2025-02-16T2200,3637A,131.0176,45.7761,七台河市,人民广场,细颗粒物(PM2.5),54,47,49,38,29,47,,62,54,24,22,10,12,0.4,0.4
2025-02-16T2200,3684A,130.8781,45.8222,七台河市,新建矿广场,细颗粒物(PM2.5),53,,21,37,26,51,,67,61,18,20,10,11,0.4,0.3
2025-02-16T2200,1779A,123.9305,47.3636,齐齐哈尔市,安居小区,细颗粒物(PM2.5),60,48,31,43,21,62,,80,72,22,15,8,9,0.6,0.4
2025-02-16T2200,1780A,123.9488,47.3386,齐齐哈尔市,中心广场,,42,42,27,23,17,60,,75,67,25,15,6,10,0.7,0.5
2025-02-16T2200,1781A,123.9483,47.3227,齐齐哈尔市,农牧车辆厂,,31,31,22,8,13,67,,80,75,17,13,7,10,0.4,0.3
2025-02-16T2200,1783A,123.945,47.2988,齐齐哈尔市,市环境监测站,颗粒物(PM10),53,56,28,34,18,58,,80,71,23,15,6,9,0.6,0.3
2025-02-16T2200,3662A,123.6333,47.2075,齐齐哈尔市,富区青少年活动中心,,38,32,25,26,12,62,,81,70,19,13,9,8,0.6,0.5
2025-02-16T2200,2591A,107.9783,26.5747,黔东南苗族侗族自治州,市环境监测站,,33,30,33,23,25,67,,60,60,11,16,4,5,0.4,0.6
2025-02-16T2200,2881A,107.8908,26.5311,黔东南苗族侗族自治州,凯里学院,细颗粒物(PM2.5),112,,23,84,51,67,,20,,10,14,4,4,0.3,0.9
2025-02-16T2200,2593A,107.5228,26.2403,黔南布依族苗族自治州,小围寨,,25,,22,17,15,48,,53,51,7,9,5,6,0.8,0.8
2025-02-16T2200,3538A,107.5175,26.2978,黔南布依族苗族自治州,沙坝,,28,24,28,19,19,52,,58,57,4,5,6,7,0.6,0.8
2025-02-16T2200,2589A,104.9022,25.0925,黔西南布依族苗族自治州,场坝街,细颗粒物(PM2.5),64,59,43,46,29,39,,43,42,13,15,3,11,0.5,0.4
2025-02-16T2200,2590A,104.8811,25.0992,黔西南布依族苗族自治州,坪东大道,细颗粒物(PM2.5),75,60,32,55,27,37,,41,40,18,15,4,7,0.4,0.3
2025-02-16T2200,2502A,108.6236,21.9667,钦州市,市环保站,,39,39,32,27,19,39,,40,39,14,14,7,7,0.8,0.8
2025-02-16T2200,2503A,108.6549,21.9481,钦州市,沙埠小学,,43,43,36,26,21,34,,36,35,18,17,6,6,0.8,0.9
2025-02-16T2200,2504A,108.5989,21.7431,钦州市,港区一小,,45,45,35,27,22,28,,32,31,29,26,9,9,0.8,0.8
2025-02-16T2200,3404A,108.5959,21.9633,钦州市,北职校,,46,44,30,32,25,38,,37,37,14,14,6,6,0.8,0.8
2025-02-16T2200,1043A,119.7493,40.0116,秦皇岛市,第一关,,48,37,38,33,26,5,,81,58,75,22,7,5,0.5,0.3
2025-02-16T2200,1044A,119.5897,39.9499,秦皇岛市,监测站,颗粒物(PM10),56,62,53,35,22,4,,80,58,70,22,7,4,1.0,0.4
2025-02-16T2200,1046A,119.5251,39.9041,秦皇岛市,建设大厦,颗粒物(PM10),55,60,56,32,26,15,,79,62,56,22,4,3,0.7,0.4
2025-02-16T2200,3132A,119.610547,39.943889,秦皇岛市,文明里,颗粒物(PM10),60,69,56,26,22,9,,77,58,58,19,4,5,0.6,0.2
2025-02-16T2200,4198A,119.5090,39.8253,秦皇岛市,北戴河轮滑馆,,41,41,54,17,21,31,,79,67,32,14,8,7,0.4,0.3
2025-02-16T2200,1307A,120.6659,36.2403,青岛市,仰口,,26,9,111,9,58,83,,91,85,15,21,3,8,0.4,0.8
2025-02-16T2200,1310A,120.4134,36.0658,青岛市,市南区东部子站,,34,34,133,17,68,57,,80,72,24,38,8,14,0.6,0.8
2025-02-16T2200,1311A,120.3664,36.1032,青岛市,四方区子站,,35,34,121,24,74,58,,84,74,23,40,7,13,0.6,0.9
2025-02-16T2200,1312A,120.2994,36.054,青岛市,市南区西部子站,,27,27,120,7,63,61,,78,73,27,58,6,11,0.5,0.9
2025-02-16T2200,1313A,120.4581,36.0858,青岛市,崂山区子站,,24,24,122,14,65,59,,86,78,22,36,9,14,0.5,0.8
2025-02-16T2200,1314A,120.1983,35.9608,青岛市,黄岛区子站,,27,27,45,7,10,51,,,,31,23,5,14,0.6,0.6
2025-02-16T2200,1315A,120.3999,36.3083,青岛市,城阳区子站,,34,34,113,17,53,58,,85,76,29,45,10,11,0.7,1
2025-02-16T2200,1966A,120.0405,35.8735,青岛市,黄岛区4号,,31,31,114,12,62,64,,83,78,24,38,9,14,0.7,1.1
2025-02-16T2200,3362A,120.5014,36.4034,青岛市,即墨2号,,29,29,128,14,77,66,,81,75,22,38,7,12,0.6,1
2025-02-16T2200,3642A,120.3503,36.0736,青岛市,市北区南部,,42,42,136,14,65,40,,69,60,31,42,10,11,0.7,0.9
2025-02-16T2200,3643A,120.3948,36.1805,青岛市,李沧区北部,,39,39,123,24,75,40,,80,70,38,38,13,15,0.7,0.9
2025-02-16T2200,1702A,113.0426,23.691,清远市,环保大楼,,41,41,84,22,39,49,,66,62,10,12,4,4,1.1,1.1
2025-02-16T2200,1703A,113.0208,23.7106,清远市,凤城街办,,33,29,52,23,40,48,,62,58,14,19,6,6,0.9,0.9
2025-02-16T2200,3025A,113.0477,23.6344,清远市,技师学院,,36,36,61,25,39,51,,71,65,17,19,7,7,1.2,1
2025-02-16T2200,3318A,112.9903,23.7403,清远市,清新太和,,32,30,50,22,34,60,,69,66,11,12,7,7,1.0,1
2025-02-16T2200,3455A,113.076,23.7198,清远市,清城东城,,36,34,70,25,41,54,,67,64,8,11,6,6,1.1,1.1
2025-02-16T2200,2661A,107.6325,35.7357,庆阳市,庆阳五中,细颗粒物(PM2.5),97,105,107,72,42,75,,94,92,26,10,6,4,0.7,0.4
2025-02-16T2200,2662A,107.6364,35.7067,庆阳市,市环保局,颗粒物(PM10),71,92,107,33,33,91,,96,95,13,9,3,4,0.4,0.4
2025-02-16T2200,1916A,103.7897,25.5035,曲靖市,环境监测站,,44,44,55,26,35,29,,51,46,17,20,7,8,0.8,0.8
2025-02-16T2200,1917A,103.8,25.5364,曲靖市,烟厂办公区,,30,30,55,16,33,40,,59,57,12,17,3,5,0.7,0.8
2025-02-16T2200,3376A,103.7947,25.462,曲靖市,南苑二区,,45,,53,31,36,34,,52,48,16,17,7,7,0.9,0.9
2025-02-16T2200,3377A,103.7444,25.5261,曲靖市,曲靖师范学院,,49,49,61,21,48,36,,57,54,16,20,6,7,0.7,0.8
2025-02-16T2200,1264A,118.8692,28.9398,衢州市,环保大楼,颗粒物(PM10),53,56,41,35,30,29,,57,48,24,13,4,4,0.6,0.6
2025-02-16T2200,1265A,118.8709,28.9666,衢州市,实验学校,,49,47,33,34,27,44,,66,58,23,15,4,4,0.7,0.6
2025-02-16T2200,1266A,118.8621,28.9808,衢州市,衢州学院,,49,48,35,34,27,34,,59,48,31,18,5,4,0.7,0.7
2025-02-16T2200,1611A,118.5819,24.9117,泉州市,涂山街,细颗粒物(PM2.5),54,,41,38,41,98,,103,103,18,16,4,3,0.9,0.8
2025-02-16T2200,1612A,118.5972,24.8978,泉州市,津头埔,,50,,38,35,41,95,,98,98,15,17,3,2,0.8,0.7
2025-02-16T2200,1613A,118.6663,24.9424,泉州市,万安,,43,34,40,30,36,104,,109,109,17,17,4,3,1.0,0.9
2025-02-16T2200,3529A,118.6333,24.9264,泉州市,城华南路,颗粒物(PM10),52,54,53,29,35,91,,98,98,25,22,3,2,0.8,0.7
2025-02-16T2200,2626A,88.8876,29.2718,日喀则市,日喀则监测站,,25,24,18,17,7,76,,119,111,36,5,6,4,0.8,0.4
2025-02-16T2200,3726A,88.8781,29.2426,日喀则市,林业技术推广中心,,26,22,18,10,4,81,,114,107,6,2,9,6,0.5,0.4
2025-02-16T2200,1659A,119.471,35.4209,日照市,监测站,,27,27,110,15,60,67,,78,74,18,57,7,10,0.5,0.9
2025-02-16T2200,1660A,119.523,35.4216,日照市,市政府广场,,29,29,104,7,53,79,,79,78,11,35,4,8,0.5,0.8
2025-02-16T2200,1661A,119.5587,35.4044,日照市,港务局,,31,31,112,14,64,80,,83,81,11,44,8,13,0.5,0.8
2025-02-16T2200,3507A,119.5328,35.4625,日照市,职业技术学院,,29,29,110,9,50,78,,79,78,15,38,5,9,0.6,0.9
2025-02-16T2200,3604A,119.3266,35.1044,日照市,岚山环保分局,颗粒物(PM10),51,51,128,20,67,58,,87,74,37,43,45,24,3.9,1.7
2025-02-16T2200,1835A,111.1922,34.7752,三门峡市,市政府,颗粒物(PM10),73,96,80,41,42,39,,96,77,38,37,11,10,0.6,0.7
2025-02-16T2200,1836A,111.1587,34.7942,三门峡市,开发区,颗粒物(PM10),77,104,81,38,28,46,,96,85,32,31,6,6,0.7,0.6
2025-02-16T2200,3039A,111.1911,34.7829,三门峡市,三门峡市第一小学,颗粒物(PM10),80,109,83,30,25,38,,84,74,40,33,12,9,0.7,0.7
2025-02-16T2200,3598A,111.1,34.7167,三门峡市,富达温泉假日酒店,颗粒物(PM10),81,112,101,37,34,35,,94,82,54,38,15,13,1.1,0.9
2025-02-16T2200,2324A,117.6211,26.2625,三明市,三钢,,23,20,37,16,43,41,,36,36,15,17,3,4,0.7,1.1
2025-02-16T2200,2325A,117.635,26.2714,三明市,三明二中,,25,,34,17,38,49,,41,41,10,16,2,2,0.7,0.8
2025-02-16T2200,2326A,117.6028,26.2378,三明市,三元区政府,,18,16,30,12,31,52,,46,46,11,17,3,4,0.9,0.9
2025-02-16T2200,1876A,109.5078,18.2489,三亚市,河东子站,,19,13,14,6,7,60,,66,62,5,4,1,1,0.2,0.2
2025-02-16T2200,1877A,109.4964,18.2681,三亚市,河西子站,,17,13,11,8,6,54,,68,62,6,4,3,3,0.3,0.3
2025-02-16T2200,3540A,109.7348,18.3443,三亚市,君悦子站,,22,22,18,6,6,62,,75,71,8,6,3,3,0.3,0.3
2025-02-16T2200,2624A,91.7608,29.2313,山南市,山南监测站,,35,13,27,3,5,112,,116,116,4,5,6,8,0.3,0.4
2025-02-16T2200,2625A,91.7706,29.2436,山南市,山南人民医院,,35,21,34,9,9,109,,114,114,5,4,4,5,0.5,0.6
