timepoint,stationcode,longitude,latitude,area,positionname,primarypollutant,aqi,pm10,pm10_24h,pm2_5,pm2_5_24h,o3,o3_24h,o3_8h,o3_8h_24h,no2,no2_24h,so2,so2_24h,co,co_24h
2025-09-21T2100,2566A,102.1879,31.914,阿坝藏族羌族自治州,州农科所,,14,14,17,3,6,31,,54,49,9,7,3,2,0.2,0.2
2025-09-21T2100,2568A,102.2502,31.8896,阿坝藏族羌族自治州,马师校,,30,,17,21,13,19,,43,40,7,8,8,8,0.5,0.6
2025-09-21T2100,3994A,102.2165,31.9024,阿坝藏族羌族自治州,马尔康中学西区,,28,28,21,18,15,22,,52,47,7,5,10,9,0.7,0.7
2025-09-21T2100,2695A,80.292,41.1694,阿克苏地区,电视台,颗粒物(PM10),86,121,105,42,40,80,,105,104,16,20,5,5,0.5,0.6
2025-09-21T2100,2696A,80.2613,41.1551,阿克苏地区,艺术中心,颗粒物(PM10),73,96,101,39,45,83,,109,108,1,12,4,4,0.5,0.6
2025-09-21T2100,2204A,105.6467,38.8363,阿拉善盟,西城区西花园,,22,19,25,15,18,46,,62,54,17,12,9,10,0.9,0.8
2025-09-21T2100,2205A,105.6985,38.8411,阿拉善盟,蒙二幼,,31,31,27,14,12,69,,100,85,16,7,8,8,0.8,0.6
2025-09-21T2100,2206A,105.724,38.8516,阿拉善盟,环保局新楼,,23,20,30,10,13,71,,99,84,14,8,8,9,0.7,0.6
2025-09-21T2100,2708A,88.1264,47.8517,阿勒泰地区,市站,颗粒物(PM10),56,62,25,3,6,30,,60,57,40,17,3,3,0.6,0.5
2025-09-21T2100,2630A,80.1161,32.5,阿里地区,阿里监测站,,35,6,3,3,3,110,,112,112,10,17,4,4,0.2,0.2
2025-09-21T2100,3192A,80.0903,32.5028,阿里地区,阿里藏医院,,38,9,12,3,5,119,,117,117,4,12,6,6,0.1,0.2
2025-09-21T2100,2642A,109.0318,32.6537,安康市,香溪洞,,19,11,14,6,7,58,,87,52,5,8,7,7,0.4,0.4
2025-09-21T2100,2644A,109.0072,32.6975,安康市,汉滨区检察院,,18,18,16,3,8,50,,62,48,9,11,4,4,0.4,0.4
2025-09-21T2100,4054A,109.0325,32.6913,安康市,市邮政管理局,,27,27,16,10,6,52,,70,50,8,11,5,5,0.5,0.5
2025-09-21T2100,2291A,117.0809,30.5177,安庆市,环科院,,30,25,27,14,18,93,,106,106,10,10,8,6,0.7,0.7
2025-09-21T2100,2292A,117.0331,30.5119,安庆市,马山宾馆,,29,25,27,12,22,90,,105,105,12,11,6,5,0.5,0.5
2025-09-21T2100,2294A,116.9896,30.6145,安庆市,安庆大学,,29,24,29,13,19,92,,102,102,11,12,5,4,0.5,0.5
2025-09-21T2100,3173A,117.0598,30.5351,安庆市,市人大,,29,27,29,13,18,91,,104,104,16,15,6,6,0.6,0.6
2025-09-21T2100,3122A,105.9606,26.2611,安顺市,伍家关,,26,22,20,18,14,52,,63,61,4,3,7,8,0.6,0.6
2025-09-21T2100,3123A,105.9408,26.2431,安顺市,凤凰山,,35,,20,24,20,52,,65,63,5,4,11,9,0.5,0.5
2025-09-21T2100,3124A,105.9439,26.2564,安顺市,金钟山,,28,20,20,19,16,55,,69,66,3,3,9,8,0.5,0.4
2025-09-21T2100,3125A,105.8983,26.2481,安顺市,娄家坡,,29,20,18,20,17,50,,62,60,2,2,10,8,0.5,0.5
2025-09-21T2100,1818A,114.4839,36.0621,安阳市,棉研所,,,,,,,,,,,,,,,,
2025-09-21T2100,1819A,114.3551,36.1017,安阳市,红庙街,,36,36,61,20,27,81,,73,65,16,33,6,9,0.9,1
2025-09-21T2100,1820A,114.361,36.0681,安阳市,银杏小区,,45,40,50,31,31,88,,81,72,19,31,4,5,0.7,0.7
2025-09-21T2100,3141A,114.3922,36.0878,安阳市,信访局,,38,38,52,23,27,83,,77,68,19,28,4,5,0.8,0.8
2025-09-21T2100,3669A,114.4705,36.0637,安阳市,左辅环卫站,颗粒物(PM10),53,55,58,36,28,74,,86,72,26,44,5,5,1.0,0.7
2025-09-21T2100,3703A,114.2917,36.0949,安阳市,安钢职工学校,,48,36,64,33,37,73,,72,68,29,29,13,10,1.6,1.1
2025-09-21T2100,1748A,123.044,41.1196,鞍山市,深沟寺,,40,40,39,17,22,61,,110,101,24,25,7,10,0.7,0.9
2025-09-21T2100,1749A,123.011,41.0931,鞍山市,太阳城,,48,48,43,24,25,85,,107,106,23,24,8,10,0.5,0.9
2025-09-21T2100,1750A,123.0485,41.1442,鞍山市,太平,颗粒物(PM10),54,58,64,25,32,52,,107,93,39,36,9,14,1.2,1.3
2025-09-21T2100,1751A,122.9642,41.0971,鞍山市,铁西三道街,颗粒物(PM10),85,120,87,54,37,9,,92,85,83,46,8,10,1.4,1.8
2025-09-21T2100,1753A,123.022,41.0821,鞍山市,明达新区,颗粒物(PM10),53,55,44,24,23,51,,108,100,29,21,9,10,0.8,1.3
2025-09-21T2100,1754A,123.1289,41.0228,鞍山市,千山,,,,21,,13,,,69,,,11,,5,,0.4
2025-09-21T2100,4201A,122.9446,41.0826,鞍山市,兴盛南路290号,颗粒物(PM10),71,92,86,33,36,32,,104,86,64,55,11,19,1.0,1.8
2025-09-21T2100,2195A,107.4212,40.761,巴彦淖尔市,附二中,,33,33,39,15,22,94,,107,104,7,10,8,12,0.4,0.4
2025-09-21T2100,2196A,107.37,40.7372,巴彦淖尔市,市环保大楼,,33,33,37,21,19,92,,104,102,6,10,8,10,0.5,0.6
2025-09-21T2100,1956A,86.1472,41.7538,巴音郭楞蒙古自治州,孔雀公园,颗粒物(PM10),72,94,31,17,14,88,,87,87,11,8,5,7,0.2,0.2
2025-09-21T2100,1957A,86.1972,41.7166,巴音郭楞蒙古自治州,棉纺厂,颗粒物(PM10),54,57,29,12,7,93,,95,95,11,6,4,4,0.2,0.2
2025-09-21T2100,1958A,86.2357,41.7173,巴音郭楞蒙古自治州,经济开发区,颗粒物(PM10),67,83,21,3,6,84,,92,90,14,3,5,5,0.2,0.2
2025-09-21T2100,2914A,106.7677,31.8794,巴中市,苏山坪,,11,6,5,3,1,34,,46,43,4,4,4,5,0.3,0.4
2025-09-21T2100,3181A,106.7768,31.8526,巴中市,市五中,,9,6,7,3,3,20,,41,37,18,6,7,7,0.6,0.6
2025-09-21T2100,3183A,106.7418,31.8654,巴中市,圣泉水务公司,,14,6,3,3,2,42,,43,41,6,6,6,6,0.4,0.5
2025-09-21T2100,3616A,106.7616,31.8344,巴中市,市中心医院,,9,6,5,3,2,23,,43,38,17,7,8,8,0.6,0.5
2025-09-21T2100,2235A,122.7911,45.6077,白城市,洮北区环保局,,36,36,22,12,15,51,,74,68,17,13,4,6,0.5,0.4
2025-09-21T2100,2236A,122.8738,45.5725,白城市,市环保局,,18,12,22,12,11,28,,71,53,23,14,4,3,0.4,0.4
2025-09-21T2100,2231A,126.4219,41.9171,白山市,喜丰,颗粒物(PM10),63,75,31,16,12,10,,65,54,37,19,4,6,0.5,0.5
2025-09-21T2100,2232A,126.4077,41.9419,白山市,环保局,,39,30,21,27,15,23,,74,67,16,14,6,6,0.5,0.4
2025-09-21T2100,2647A,104.1724,36.5446,白银市,第三小学,,42,42,33,29,25,30,,43,43,33,23,7,17,1.2,1.1
2025-09-21T2100,2648A,104.1465,36.5482,白银市,动力公司,细颗粒物(PM2.5),55,56,33,39,25,30,,48,48,16,19,7,13,0.6,0.7
2025-09-21T2100,2512A,106.6103,23.9011,百色市,市监测站,,39,39,33,18,20,51,,93,87,19,13,8,10,0.6,0.5
2025-09-21T2100,2513A,106.6538,23.8859,百色市,市中心血站,,31,31,39,15,22,59,,86,82,19,16,5,11,0.7,0.7
2025-09-21T2100,3406A,106.6085,23.8798,百色市,祈福高中,,42,42,50,26,28,50,,88,82,29,21,8,8,0.7,0.7
2025-09-21T2100,2270A,117.396,32.939,蚌埠市,工人疗养院,,44,44,51,17,25,90,,139,123,13,14,5,5,0.5,0.5
2025-09-21T2100,2271A,117.3605,32.9427,蚌埠市,百货大楼,,38,38,41,18,26,88,,138,123,20,22,7,7,0.5,0.6
2025-09-21T2100,2273A,117.4185,32.8911,蚌埠市,蚌埠学院,,34,34,39,21,29,80,,135,118,31,28,8,8,0.3,0.4
2025-09-21T2100,2274A,117.3533,32.9673,蚌埠市,淮上区政府,,44,44,45,25,28,93,,140,124,16,26,6,7,0.4,0.5
2025-09-21T2100,2275A,117.3145,32.8977,蚌埠市,高新区,,34,22,37,14,24,106,,136,130,12,23,6,8,0.4,0.5
2025-09-21T2100,3715A,117.3092,32.9314,蚌埠市,蚌埠田家炳中学,,37,37,40,17,22,99,,142,131,12,17,5,6,0.4,0.4
2025-09-21T2100,1585A,109.8756,40.6532,包头市,市环境监测站,,35,28,42,24,17,74,,94,92,17,36,6,10,0.5,0.5
2025-09-21T2100,1587A,109.9991,40.5842,包头市,包头八中,,26,26,48,17,20,69,,93,89,16,38,4,19,0.5,0.7
2025-09-21T2100,1588A,109.8538,40.6821,包头市,青山宾馆,,28,21,34,19,21,53,,87,83,25,40,8,8,0.9,0.8
2025-09-21T2100,1589A,109.8642,40.6288,包头市,惠龙物流,,23,,35,16,18,71,,88,87,13,32,5,11,0.5,0.6
2025-09-21T2100,1590A,110.0377,40.5546,包头市,东河鸿龙湾,,25,15,43,11,19,77,,103,99,12,36,6,10,0.8,0.7
2025-09-21T2100,3283A,109.9154,40.5685,包头市,滨河大厦,,24,16,34,15,18,74,,93,90,10,24,5,8,0.5,0.6
2025-09-21T2100,3419A,109.9447,40.6261,包头市,包头市委党校,,29,29,35,11,15,64,,100,96,22,34,5,10,0.6,0.6
2025-09-21T2100,3683A,109.8331,40.6576,包头市,昆区政府,,28,24,40,19,23,66,,88,86,21,35,14,11,0.8,0.7
2025-09-21T2100,1930A,107.185,34.3063,宝鸡市,庙沟村,,22,,10,3,9,70,,87,81,15,11,5,5,0.3,0.4
2025-09-21T2100,1931A,107.0708,34.3017,宝鸡市,竹园沟,,22,6,11,3,9,69,,85,79,9,7,7,7,0.5,0.6
2025-09-21T2100,1932A,107.1906,34.3672,宝鸡市,三陆医院,,23,6,15,3,11,73,,82,79,15,15,6,6,0.5,0.6
2025-09-21T2100,1933A,107.1431,34.3547,宝鸡市,监测站,,25,,13,3,11,80,,86,84,10,10,4,4,0.6,0.7
2025-09-21T2100,1934A,107.1186,34.3739,宝鸡市,技工学校,,23,,13,3,11,71,,80,76,15,12,5,6,0.5,0.6
2025-09-21T2100,1936A,107.2058,34.3497,宝鸡市,文理学院,,25,6,14,3,10,78,,86,84,11,11,4,4,0.4,0.5
2025-09-21T2100,1937A,107.2386,34.3622,宝鸡市,三迪小学,,22,,15,3,12,69,,80,77,20,15,4,5,0.5,0.6
2025-09-21T2100,4308A,107.3898,34.3601,宝鸡市,陈仓区北开路21号,,23,,9,3,10,72,,81,79,14,14,5,6,0.3,0.4
2025-09-21T2100,1051A,115.493,38.8632,保定市,游泳馆,细颗粒物(PM2.5),80,73,71,59,44,89,,152,141,30,36,8,8,0.2,0.2
2025-09-21T2100,1052A,115.5213,38.8959,保定市,华电二区,细颗粒物(PM2.5),59,58,62,42,37,103,,160,153,22,34,6,5,0.6,0.6
2025-09-21T2100,1053A,115.4713,38.9108,保定市,接待中心,细颗粒物(PM2.5),83,91,69,61,45,93,,146,138,20,29,4,5,0.4,0.4
2025-09-21T2100,1054A,115.4612,38.8416,保定市,地表水厂,颗粒物(PM10),71,92,83,43,37,68,,146,131,41,42,8,8,0.4,0.4
2025-09-21T2100,3581A,115.31981,38.95208,保定市,满城区生态环境分局,颗粒物(PM10),65,80,84,46,40,113,,164,158,18,32,2,3,0.5,0.5
2025-09-21T2100,3582A,115.47694,38.76408,保定市,清苑区第二中学,颗粒物(PM10),69,87,99,43,49,84,,151,132,27,36,4,5,0.5,0.6
2025-09-21T2100,3583A,115.62909,39.02311,保定市,徐水物探局,细颗粒物(PM2.5),60,66,71,43,43,110,,154,141,24,46,3,5,0.6,0.6
2025-09-21T2100,4004A,115.4202,38.8656,保定市,双鹰农机,细颗粒物(PM2.5),74,93,76,54,41,88,,150,142,31,35,5,7,0.5,0.4
2025-09-21T2100,4034A,115.5150,38.8590,保定市,植保所站,"颗粒物(PM10),细颗粒物(PM2.5)",69,88,83,50,41,94,,153,144,32,40,3,3,0.5,0.5
2025-09-21T2100,2594A,99.1678,25.1081,保山市,市环境监测站,,45,,21,31,20,46,,64,61,11,7,10,7,0.4,0.4
2025-09-21T2100,2595A,99.1711,25.1328,保山市,市环保局,,21,21,22,6,13,54,,68,66,5,5,10,8,0.4,0.5
2025-09-21T2100,1866A,109.2262,21.588,北海市,牛尾岭水库,,12,8,25,8,19,37,,60,47,6,10,3,2,0.7,0.7
2025-09-21T2100,1867A,109.1436,21.4086,北海市,海滩公园,,27,27,33,12,16,44,,103,82,8,9,5,7,0.8,0.8
2025-09-21T2100,1868A,109.0981,21.4661,北海市,新市环保局,,20,16,32,14,24,48,,92,76,10,11,5,7,0.7,0.7
2025-09-21T2100,1869A,109.1778,21.5233,北海市,北海工业园,,25,18,35,17,22,43,,87,70,11,10,13,6,0.7,0.7
2025-09-21T2100,3400A,109.1911,21.4415,北海市,龙潭自来水厂,,22,18,32,15,24,34,,93,73,10,9,4,6,0.6,0.6
2025-09-21T2100,1001A,116.3621,39.8784,北京市,万寿西宫,细颗粒物(PM2.5),72,92,54,52,28,122,,157,153,31,28,4,4,0.8,0.6
2025-09-21T2100,1002A,116.2202,40.2915,北京市,定陵,,45,45,27,25,12,78,,125,117,6,4,5,5,0.5,0.3
2025-09-21T2100,1003A,116.4174,39.9289,北京市,东四,颗粒物(PM10),68,86,54,47,27,140,,169,169,28,30,6,5,0.8,0.6
2025-09-21T2100,1004A,116.4072,39.8863,北京市,天坛,颗粒物(PM10),60,69,49,40,26,80,,150,140,26,26,3,4,0.9,0.7
2025-09-21T2100,1005A,116.462,39.9365,北京市,农展馆,颗粒物(PM10),63,75,52,42,26,108,,156,154,27,33,5,4,0.9,0.6
2025-09-21T2100,1006A,116.3392,39.9295,北京市,官园,"颗粒物(PM10),细颗粒物(PM2.5)",72,93,53,52,24,143,,165,165,32,30,7,6,1.0,0.7
2025-09-21T2100,1007A,116.2878,39.9611,北京市,海淀万柳,颗粒物(PM10),71,92,52,50,25,95,,127,124,32,36,4,4,0.8,0.5
2025-09-21T2100,1008A,116.6636,40.135,北京市,顺义新城,,,,,,,,,,,,,,,,
2025-09-21T2100,1009A,116.6275,40.3275,北京市,怀柔镇,颗粒物(PM10),54,57,35,31,18,82,,136,131,19,14,3,3,0.8,0.6
2025-09-21T2100,1010A,116.2296,40.217,北京市,昌平镇,颗粒物(PM10),55,59,32,32,14,91,,130,128,15,16,3,3,0.8,0.6
2025-09-21T2100,1011A,116.3966,39.9821,北京市,奥体中心,,,76,47,45,23,130,,150,150,30,30,,5,0.7,0.4
2025-09-21T2100,3281A,115.9718,40.4529,北京市,延庆夏都,颗粒物(PM10),56,62,29,32,14,104,,132,132,24,18,3,3,0.6,0.4
2025-09-21T2100,3418A,116.8336,40.4095,北京市,密云新城,颗粒物(PM10),62,74,33,38,16,46,,140,129,24,8,3,4,0.9,0.4
2025-09-21T2100,3671A,116.088,39.9726,北京市,门头沟三家店,颗粒物(PM10),67,83,38,44,20,46,,133,118,41,18,2,2,0.8,0.5
2025-09-21T2100,3672A,116.1541,39.8204,北京市,丰台云岗,颗粒物(PM10),76,102,51,50,25,48,,128,119,73,31,2,2,0.7,0.5
2025-09-21T2100,3673A,116.6804,39.9081,北京市,通州东关,颗粒物(PM10),61,72,67,40,32,72,,160,148,57,42,7,5,1.0,0.7
2025-09-21T2100,3674A,115.9577,39.7603,北京市,房山燕山,"颗粒物(PM10),细颗粒物(PM2.5)",59,68,43,42,21,112,,137,136,16,14,2,2,0.6,0.4
2025-09-21T2100,3675A,116.4672,39.7733,北京市,大兴旧宫,颗粒物(PM10),62,73,61,35,28,87,,148,141,29,35,4,4,0.7,0.6
2025-09-21T2100,3694A,115.986,40.4563,北京市,延庆石河营,颗粒物(PM10),63,75,36,37,14,81,,124,122,21,14,2,2,0.5,0.3
2025-09-21T2100,3695A,116.6151,40.3053,北京市,怀柔新城,颗粒物(PM10),52,53,30,29,16,89,,131,127,11,8,5,4,0.5,0.3
2025-09-21T2100,3696A,116.2545,39.8768,北京市,丰台小屯,颗粒物(PM10),84,117,56,58,26,53,,139,129,87,35,2,3,0.9,0.5
2025-09-21T2100,3697A,116.84,40.3844,北京市,密云镇,细颗粒物(PM2.5),70,78,36,51,19,100,,151,150,36,20,7,6,1.1,0.6
2025-09-21T2100,4182A,116.1942,39.9158,北京市,八角北路9号,颗粒物(PM10),74,98,52,44,21,71,,146,141,57,32,2,3,0.8,0.5
2025-09-21T2100,4194A,117.0790,40.1518,北京市,洳河巡河路,颗粒物(PM10),56,62,42,33,22,89,,146,133,15,13,4,4,1.0,0.6
2025-09-21T2100,1761A,123.8275,41.3064,本溪市,大峪,,36,36,29,19,9,26,,102,86,35,25,8,9,1.0,1
2025-09-21T2100,1762A,123.7567,41.3325,本溪市,溪湖,颗粒物(PM10),74,98,56,24,18,20,,100,77,45,31,6,8,0.7,1
2025-09-21T2100,1763A,123.7169,41.3094,本溪市,彩屯,颗粒物(PM10),54,58,45,32,26,31,,85,67,27,31,6,13,0.6,1.4
2025-09-21T2100,1764A,123.7669,41.2864,本溪市,东明,颗粒物(PM10),52,54,43,24,17,31,,103,80,50,35,8,10,1.2,1.2
2025-09-21T2100,1765A,123.7992,41.2664,本溪市,新立屯,,28,28,24,13,12,29,,94,66,49,30,6,6,0.6,0.9
2025-09-21T2100,1766A,123.8142,41.3472,本溪市,威宁,,48,48,40,21,16,25,,99,78,29,24,4,6,0.6,0.6
2025-09-21T2100,2587A,105.2864,27.3125,毕节市,八中,颗粒物(PM10),53,55,28,34,27,56,,63,63,8,8,7,9,0.6,0.5
2025-09-21T2100,2588A,105.31,27.2944,毕节市,师专,,43,43,30,30,22,50,,59,59,13,11,11,12,0.6,0.6
2025-09-21T2100,4263A,105.3688,27.3598,毕节市,工业大道,细颗粒物(PM2.5),62,56,30,44,24,53,,67,66,10,7,7,7,0.8,0.7
2025-09-21T2100,1629A,118.0018,37.3617,滨州市,第二水厂,,36,36,42,22,23,86,,131,115,30,34,7,7,0.3,0.4
2025-09-21T2100,1630A,117.9776,37.393,滨州市,北中新校,颗粒物(PM10),64,78,45,24,22,86,,142,125,33,33,8,7,0.5,0.6
2025-09-21T2100,3514A,117.9378,37.3956,滨州市,中海酒店,,39,34,34,27,23,106,,145,135,18,27,5,5,0.5,0.5
2025-09-21T2100,3515A,117.9378,37.3553,滨州市,开发区一中,,48,48,44,24,25,100,,142,129,24,30,6,6,0.5,0.5
2025-09-21T2100,3516A,118.0917,37.694,滨州市,金海六路,,46,46,44,24,28,109,,142,130,14,20,8,9,0.2,0.3
2025-09-21T2100,4028A,117.9956,37.3753,滨州市,滨州市西街道办事处,,36,36,34,22,24,98,,130,119,23,29,7,6,0.4,0.5
2025-09-21T2100,2311A,115.8072,33.8399,亳州市,污水处理厂,,46,44,34,32,32,93,,119,105,14,18,7,8,0.4,0.4
2025-09-21T2100,2312A,115.7789,33.8518,亳州市,三国揽胜宫,细颗粒物(PM2.5),57,58,37,40,34,102,,129,121,17,16,8,6,0.6,0.6
2025-09-21T2100,3332A,115.7633,33.8034,亳州市,亳州学院,细颗粒物(PM2.5),60,55,45,43,35,115,,134,129,12,12,8,8,0.6,0.6
2025-09-21T2100,2693A,82.0485,44.8556,博尔塔拉蒙古自治州,市党校,,26,23,18,13,16,83,,93,93,16,6,2,2,0.2,0.2
2025-09-21T2100,2694A,82.0806,44.8969,博尔塔拉蒙古自治州,市环保局,,36,36,24,15,10,81,,95,95,19,11,6,5,0.3,0.3
2025-09-21T2100,1071A,116.8842,38.2991,沧州市,沧县城建局,,45,45,51,22,29,91,,151,137,51,45,3,5,0.3,0.5
2025-09-21T2100,1072A,116.8584,38.3254,沧州市,电视转播站,,46,46,51,27,29,126,,144,138,21,25,1,3,0.4,0.5
2025-09-21T2100,1073A,116.8709,38.3228,沧州市,市环保局,颗粒物(PM10),53,55,61,30,33,112,,141,130,24,35,7,8,0.3,0.4
2025-09-21T2100,3324A,116.8136,38.3004,沧州市,河北水利电力学院,,41,41,43,20,25,108,,151,142,29,23,9,11,0.4,0.4
2025-09-21T2100,2622A,97.1806,31.1273,昌都市,昌都监测站,,17,17,6,9,5,53,,91,86,20,5,5,5,0.2,0.2
2025-09-21T2100,3719A,97.1714,31.1406,昌都市,昌都会议中心,,25,8,7,7,5,79,,96,94,8,5,4,4,0.1,0.1
2025-09-21T2100,2690A,88.1236,43.8886,昌吉回族自治州,天山天池,,,,,,,,,,,,9,,8,,0.5
2025-09-21T2100,2692A,87.2717,44.0297,昌吉回族自治州,新区政务中心,,25,10,16,8,10,80,,99,98,10,10,6,6,0.2,0.2
2025-09-21T2100,3613A,87.3095,44.0142,昌吉回族自治州,亚心广场,,24,24,21,3,6,73,,99,97,19,13,6,7,0.2,0.2
2025-09-21T2100,1120A,125.2863,43.9027,长春市,客车厂,颗粒物(PM10),73,96,41,43,21,4,,69,41,67,40,5,6,1.1,0.5
2025-09-21T2100,1121A,125.2841,43.8463,长春市,邮电学院,,38,38,31,26,18,11,,76,59,48,29,5,5,0.7,0.5
2025-09-21T2100,1122A,125.3716,43.8772,长春市,劳动公园,细颗粒物(PM2.5),75,76,53,55,22,9,,75,60,60,39,7,7,0.5,0.2
2025-09-21T2100,1123A,125.3297,43.8805,长春市,园林处,,36,36,29,16,16,16,,73,58,55,33,6,7,0.6,0.5
2025-09-21T2100,1124A,125.4605,43.79,长春市,净月潭,,17,15,21,3,11,53,,76,68,6,16,4,4,0.2,0.3
2025-09-21T2100,1125A,125.7194,43.515,长春市,甩湾子,,,,,,,,,,,,,,,,
2025-09-21T2100,1126A,125.3863,43.8447,长春市,经开区环卫处,颗粒物(PM10),51,52,42,16,18,2,,74,52,59,31,5,6,0.5,0.5
2025-09-21T2100,1127A,125.245,43.7783,长春市,高新区管委会,,28,25,36,19,17,9,,79,56,47,27,3,3,0.6,0.5
2025-09-21T2100,1128A,125.1761,43.8325,长春市,岱山公园,,42,40,33,27,20,2,,75,56,84,38,5,6,0.6,0.4
2025-09-21T2100,4281A,125.3346,43.9164,长春市,北亚泰大街1068号,颗粒物(PM10),64,78,40,41,23,3,,71,52,70,38,9,9,0.8,0.5
2025-09-21T2100,1335A,113.0833,28.2325,长沙市,经开区环保局,,32,28,29,22,20,23,,33,29,25,21,4,4,0.5,0.5
2025-09-21T2100,1336A,112.8872,28.2189,长沙市,高开区环保局,,35,35,31,23,25,35,,50,38,12,11,4,4,0.4,0.4
2025-09-21T2100,1337A,113.0792,28.2053,长沙市,马坡岭,,35,33,31,24,24,29,,36,35,17,17,4,5,0.7,0.6
2025-09-21T2100,1338A,112.9394,28.19,长沙市,湖南师范大学,,30,30,27,20,19,38,,51,42,16,14,3,3,0.8,0.7
2025-09-21T2100,1339A,113.0178,28.1322,长沙市,雨花区环保局,,36,30,27,25,23,33,,40,38,17,17,6,6,0.8,0.7
2025-09-21T2100,1340A,112.9792,28.2597,长沙市,伍家岭,,29,29,28,18,19,34,,41,41,18,15,2,3,0.4,0.3
2025-09-21T2100,1341A,113.0014,28.1944,长沙市,火车新站,,29,29,28,12,18,37,,43,41,16,15,6,7,0.7,0.6
2025-09-21T2100,1342A,112.9844,28.1178,长沙市,天心区环保局,,29,28,28,20,19,38,,46,42,18,16,3,4,0.5,0.4
2025-09-21T2100,1343A,112.8908,28.1308,长沙市,湖南中医药大学,,28,28,28,15,19,39,,51,42,11,10,3,3,0.6,0.6
2025-09-21T2100,1344A,112.9581,28.3611,长沙市,沙坪,,33,33,32,17,17,41,,51,44,19,17,3,4,0.9,0.7
2025-09-21T2100,1727A,113.1147,36.1547,长治市,清华站,,28,11,28,3,11,89,,86,85,9,22,7,10,0.5,1
2025-09-21T2100,1730A,113.0886,36.2125,长治市,审计局,,30,,29,9,18,96,,85,85,9,32,5,7,0.5,0.8
2025-09-21T2100,1731A,113.0844,36.1856,长治市,长治八中,,29,,46,12,21,91,,86,86,6,26,8,10,0.6,0.9
2025-09-21T2100,2845A,113.1569,36.1911,长治市,德盛苑,,26,10,20,3,7,81,,90,90,6,13,7,9,0.6,1.2
2025-09-21T2100,3568A,113.06,36.0464,长治市,向阳小学,,27,27,36,6,13,84,,87,86,11,19,4,6,0.5,0.5
2025-09-21T2100,3569A,112.8792,36.3144,长治市,屯留一中,,28,19,36,19,21,80,,80,80,16,26,8,10,0.7,0.6
2025-09-21T2100,4189A,113.1131,36.19948,长治市,英华南巷50号,,28,,38,14,14,89,,82,82,9,28,8,11,0.5,1
2025-09-21T2100,4190A,113.2367,36.3344,长治市,学府街1号,,34,11,36,9,16,107,,99,99,4,19,3,2,0.4,0.7
2025-09-21T2100,1854A,111.6975,28.9703,常德市,市二中,,36,26,30,25,21,86,,96,96,10,11,4,6,0.4,0.4
2025-09-21T2100,1857A,111.7158,29.1456,常德市,白鹤山,,,,,,,,,,,,,,,,
2025-09-21T2100,3138A,111.7153,29.0289,常德市,武陵区永安,,40,31,31,28,21,85,,96,96,8,8,4,6,0.7,0.6
2025-09-21T2100,3139A,111.6892,28.9881,常德市,鼎城区玉霞,,45,38,34,31,23,88,,99,98,8,8,2,4,0.7,0.6
2025-09-21T2100,3140A,111.6625,29.0531,常德市,武陵区长庚,,35,31,30,24,24,83,,97,96,8,11,5,7,0.4,0.4
2025-09-21T2100,1196A,119.9633,31.762,常州市,市监测站,,32,25,29,8,17,101,,137,126,13,16,7,8,0.4,0.6
2025-09-21T2100,1200A,119.9468,31.7069,常州市,武进监测站,,31,28,32,12,14,97,,133,122,16,21,13,12,0.7,0.8
2025-09-21T2100,1201A,119.9255,31.9087,常州市,安家,,32,32,32,12,15,100,,129,115,15,18,7,8,0.5,0.6
2025-09-21T2100,3002A,119.9805,31.8174,常州市,行政中心,,30,29,35,12,17,95,,136,120,17,17,10,10,0.6,0.7
2025-09-21T2100,3003A,120.0522,31.7748,常州市,经开区,,30,22,35,9,16,95,,130,120,14,19,5,7,0.6,0.8
2025-09-21T2100,3010A,119.9025,31.7964,常州市,钟楼,,31,29,28,9,14,99,,142,127,17,18,8,9,0.7,0.8
2025-09-21T2100,3429A,119.8598,31.7066,常州市,武进经发区,,29,25,31,11,15,92,,129,118,18,23,10,10,0.7,0.8
2025-09-21T2100,3430A,119.5826,31.7245,常州市,金坛城区,,30,30,28,11,15,81,,135,124,24,18,9,9,0.6,0.7
2025-09-21T2100,2220A,120.4318,41.5881,朝阳市,西梁,,42,42,41,16,19,100,,99,99,17,25,8,7,0.5,0.6
2025-09-21T2100,2221A,120.4521,41.5646,朝阳市,河畔小区,,36,31,32,11,9,113,,107,107,13,17,9,8,0.5,0.5
2025-09-21T2100,2222A,120.4176,41.5648,朝阳市,八里堡,,44,44,37,21,13,80,,96,93,32,27,10,9,0.6,0.6
2025-09-21T2100,2223A,120.3806,41.5969,朝阳市,农业园区,,34,34,31,22,16,50,,96,80,30,24,3,4,0.6,0.5
2025-09-21T2100,1705A,116.6367,23.6719,潮州市,西园路,,23,23,13,3,5,23,,54,44,8,7,3,4,0.2,0.2
2025-09-21T2100,3026A,116.6183,23.6608,潮州市,市政府,,30,30,15,7,6,29,,54,48,9,7,8,8,0.8,0.6
2025-09-21T2100,4036A,116.6461,23.6761,潮州市,金山,,7,6,14,3,4,21,,51,42,6,5,4,5,0.5,0.4
2025-09-21T2100,2472A,113.0073,25.9061,郴州市,马头岭,,19,17,17,13,11,42,,48,48,3,4,5,5,0.5,0.4
2025-09-21T2100,2473A,113.0116,25.8226,郴州市,市职中,,29,22,14,20,11,28,,37,36,10,10,2,3,0.8,0.7
2025-09-21T2100,2475A,113.0383,25.8071,郴州市,市审计局,,20,20,12,9,9,35,,43,43,8,7,6,7,0.5,0.5
2025-09-21T2100,2476A,113.0348,25.7759,郴州市,市环保局,,23,23,16,13,10,29,,39,38,11,9,4,4,0.7,0.6
2025-09-21T2100,4252A,113.0138,25.8011,郴州市,好美居路49号,,27,27,16,17,11,34,,44,43,14,10,4,4,0.7,0.6
2025-09-21T2100,1431A,103.9728,30.7236,成都市,金泉两河,,17,17,14,3,6,24,,39,29,13,11,2,2,0.5,0.6
2025-09-21T2100,1432A,104.176,30.6872,成都市,十里店,,22,22,21,13,13,24,,32,26,13,15,2,2,0.6,0.6
2025-09-21T2100,1433A,104.079,30.5706,成都市,三瓦窑,,12,12,20,8,12,32,,46,39,17,19,3,4,0.3,0.5
2025-09-21T2100,1434A,104.1114,30.63,成都市,沙河铺,,30,30,28,8,13,24,,33,24,10,11,5,3,0.7,0.8
2025-09-21T2100,1437A,104.0786,30.6531,成都市,君平街,,24,24,24,3,12,22,,43,31,18,14,4,5,0.6,0.7
2025-09-21T2100,1438A,103.613,31.0283,成都市,灵岩寺,,,,,,,,,,,,,,,,
2025-09-21T2100,2880A,104.0239,30.65639,成都市,大石西路,,20,14,22,14,16,24,,39,28,16,16,2,2,0.6,0.7
2025-09-21T2100,3136A,104.2725,30.5589,成都市,龙泉驿区区政府,,9,6,14,3,8,23,,32,32,17,21,4,5,0.4,0.5
2025-09-21T2100,3357A,104.0106,30.6931,成都市,金博路,,10,7,12,7,6,23,,37,27,18,16,6,6,0.3,0.4
2025-09-21T2100,3359A,104.0578,30.5225,成都市,华阳,,13,9,20,9,17,30,,40,32,13,16,4,4,0.5,0.6
2025-09-21T2100,3488A,104.3853,30.7453,成都市,青白江技师分院,,23,23,18,7,10,28,,30,30,9,11,4,4,0.7,0.7
2025-09-21T2100,3489A,104.0789,30.4072,成都市,科学城,,10,8,24,6,17,29,,41,33,10,14,4,4,0.3,0.4
2025-09-21T2100,4011A,103.8506,30.6947,成都市,光华大道三段,,23,23,18,10,9,28,,42,35,15,14,2,2,0.6,0.7
2025-09-21T2100,4224A,104.2433,30.5353,成都市,鲸龙路1057号,,10,10,24,7,18,18,,33,32,18,18,4,4,0.5,0.5
2025-09-21T2100,1062A,117.9531,40.9081,承德市,铁路,,44,44,26,23,9,50,,106,100,26,19,2,2,0.7,0.4
2025-09-21T2100,1063A,117.9392,40.9763,承德市,中国银行,,43,43,29,19,8,50,,121,114,27,15,2,2,0.7,0.4
2025-09-21T2100,1064A,117.9503,40.928,承德市,开发区,,42,42,38,19,16,82,,124,121,15,18,3,3,0.6,0.4
2025-09-21T2100,1066A,117.9268,41.0026,承德市,离宫,,25,23,20,15,10,78,,93,88,9,12,5,6,0.6,0.4
2025-09-21T2100,4274A,117.7994,40.9605,承德市,滨河大街98号,,30,28,28,21,10,54,,98,92,12,14,3,3,0.6,0.4
2025-09-21T2100,2314A,117.47,30.6618,池州市,池州学院,,30,15,23,10,15,94,,98,98,7,14,5,6,0.6,0.6
2025-09-21T2100,3237A,117.4918,30.6617,池州市,展览馆,,30,14,22,9,13,95,,99,99,9,14,5,6,0.6,0.7
2025-09-21T2100,3333A,117.5627,30.695,池州市,第八中学,,29,13,22,8,13,92,,98,97,6,12,6,6,0.9,1.1
2025-09-21T2100,3334A,117.5038,30.6243,池州市,第十二中学,,30,15,20,10,14,96,,95,95,9,12,4,4,0.7,0.9
2025-09-21T2100,1744A,118.9233,42.2816,赤峰市,松山一中,颗粒物(PM10),56,61,41,30,14,71,,82,80,29,36,14,20,0.8,0.8
2025-09-21T2100,1745A,118.9576,42.2728,赤峰市,哈达街,颗粒物(PM10),59,68,41,32,14,66,,68,68,36,38,13,37,0.8,0.8
2025-09-21T2100,1746A,118.8788,42.2554,赤峰市,天义路,,40,40,27,26,18,65,,90,90,36,31,27,30,0.7,0.7
2025-09-21T2100,3058A,119.2658,42.0353,赤峰市,银河街,颗粒物(PM10),57,64,47,33,17,53,,90,86,22,21,46,23,0.7,0.6
2025-09-21T2100,3286A,118.9359,42.3147,赤峰市,桥北物流园区,颗粒物(PM10),63,75,36,38,17,19,,80,66,81,29,44,15,1.1,0.7
2025-09-21T2100,2521A,107.3476,22.4136,崇左市,市环保局江州分局,,32,32,40,17,20,87,,96,94,7,16,2,2,0.9,0.8
2025-09-21T2100,4256A,107.3750,22.3736,崇左市,石景林东路7号,,32,32,34,18,28,89,,116,109,7,12,5,5,0.5,0.5
2025-09-21T2100,2298A,118.3093,32.3153,滁州市,老年大学,,28,25,30,17,23,89,,143,130,4,5,4,4,0.2,0.3
2025-09-21T2100,2299A,118.3244,32.2786,滁州市,人大宾馆,,29,29,30,16,20,88,,146,133,7,8,5,5,0.3,0.4
2025-09-21T2100,3207A,118.3118,32.3038,滁州市,市政府原办公楼,,38,29,33,26,26,90,,142,129,8,12,6,6,0.2,0.3
2025-09-21T2100,3331A,118.3267,32.2634,滁州市,图书馆,,28,21,22,12,18,87,,146,133,7,7,12,11,0.3,0.4
2025-09-21T2100,2605A,101.5482,25.0441,楚雄彝族自治州,州环境监测站,,22,22,14,8,9,32,,35,35,4,8,8,8,0.5,0.6
2025-09-21T2100,2606A,101.538,25.0492,楚雄彝族自治州,市经济开发区,,19,15,16,13,11,33,,38,37,6,9,6,7,0.6,0.7
2025-09-21T2100,2548A,107.5277,31.2827,达州市,达州职业技术学院,,19,19,19,3,1,27,,30,30,12,10,7,10,0.2,0.3
2025-09-21T2100,2549A,107.5086,31.2186,达州市,市环境监测站,,9,8,14,3,0,24,,22,22,18,19,5,7,0.3,0.4
2025-09-21T2100,2550A,107.4988,31.2132,达州市,凤凰小区,,9,9,13,3,3,22,,21,21,18,18,4,6,0.4,0.5
2025-09-21T2100,2551A,107.5082,31.1986,达州市,达县机关宾馆,,12,12,12,8,5,21,,21,21,18,18,3,6,0.3,0.3
2025-09-21T2100,2552A,107.4644,31.2124,达州市,市政中心,,25,25,22,3,0,14,,18,16,23,15,3,5,0.3,0.3
2025-09-21T2100,2614A,100.1542,25.7054,大理白族自治州,大理市环境监测站,,29,,11,20,12,51,,56,54,8,7,4,4,0.5,0.6
2025-09-21T2100,2615A,100.2171,25.5811,大理白族自治州,大理古城,,25,20,14,17,9,29,,63,55,19,7,6,6,0.7,0.6
2025-09-21T2100,1109A,121.612,38.9741,大连市,甘井子,,34,34,32,20,17,99,,130,110,32,19,8,8,0.3,0.2
2025-09-21T2100,1110A,121.565,38.9511,大连市,周水子,,39,39,30,25,17,100,,119,98,33,26,5,6,0.5,0.4
2025-09-21T2100,1111A,121.5637,38.8845,大连市,星海三站,,30,27,26,21,17,82,,124,101,21,17,5,6,0.4,0.3
2025-09-21T2100,1112A,121.6302,38.9117,大连市,青泥洼桥,,44,44,32,28,17,43,,116,86,54,19,8,9,0.9,0.6
2025-09-21T2100,1113A,121.6251,38.8638,大连市,傅家庄,,28,22,24,19,16,84,,119,105,24,14,9,10,0.7,0.6
2025-09-21T2100,1114A,121.5213,38.8661,大连市,七贤岭,,27,27,24,14,15,67,,123,99,17,13,6,7,0.6,0.6
2025-09-21T2100,1115A,121.2529,38.8061,大连市,旅顺,,34,26,22,20,14,108,,128,118,12,9,9,9,0.3,0.3
2025-09-21T2100,1116A,121.7485,39.1311,大连市,金州,,31,31,29,16,16,60,,117,97,39,17,9,9,0.3,0.3
2025-09-21T2100,1117A,121.7811,39.0496,大连市,开发区,,43,,25,30,16,33,,115,92,64,20,8,8,0.5,0.5
2025-09-21T2100,1118A,121.9762,39.0631,大连市,双D港,,29,9,23,3,14,92,,123,104,4,9,7,9,0.5,0.7
2025-09-21T2100,1789A,124.81117,46.03138,大庆市,大同区,,,40,21,14,8,,,68,55,23,14,9,8,,0.7
2025-09-21T2100,1790A,125.129,46.533,大庆市,龙凤区,,,104,40,,13,25,,74,56,44,27,8,8,0.8,0.8
2025-09-21T2100,1791A,124.902,46.408,大庆市,红岗区,,45,44,33,31,15,39,,80,64,30,18,6,6,0.6,0.5
2025-09-21T2100,1792A,125.153,46.586,大庆市,萨尔图区,颗粒物(PM10),75,100,36,38,14,3,,70,51,67,26,10,9,1.2,0.7
2025-09-21T2100,1793A,124.9042,46.6215,大庆市,让胡路区,,34,34,23,22,15,28,,77,60,35,18,6,6,0.7,0.5
2025-09-21T2100,3481A,125.141,46.634,大庆市,萨区政府监测点,,38,38,24,17,5,33,,76,64,41,22,8,8,0.7,0.6
2025-09-21T2100,1721A,113.3819,40.1097,大同市,果树场,,26,19,24,8,8,83,,86,86,13,22,6,5,0.4,0.5
2025-09-21T2100,1723A,113.2994,40.0758,大同市,云冈宾馆,,28,28,36,3,10,74,,97,94,20,26,5,6,0.6,1
2025-09-21T2100,1724A,113.3444,40.0917,大同市,大同大学,,28,21,31,8,12,89,,106,104,13,21,7,8,0.5,0.7
2025-09-21T2100,1725A,113.2661,40.1269,大同市,安家小村,,28,28,39,12,12,86,,101,99,15,26,6,6,0.4,1.2
2025-09-21T2100,1726A,113.2711,40.0844,大同市,教育学院,,28,28,40,16,14,83,,94,93,14,25,7,8,0.5,1
2025-09-21T2100,3282A,113.3397,40.0597,大同市,大同市卫生学校,,24,21,33,14,12,76,,92,90,20,28,9,9,0.6,0.7
2025-09-21T2100,3565A,113.1367,40.1122,大同市,云冈站,,39,39,51,8,16,90,,86,85,9,21,11,8,0.4,0.7
2025-09-21T2100,3566A,113.1186,40.2556,大同市,图书馆,颗粒物(PM10),57,63,33,13,12,85,,81,78,9,16,7,5,0.5,0.7
2025-09-21T2100,3567A,113.5931,40.0461,大同市,区一中,,29,29,20,12,8,89,,110,108,14,9,6,7,0.5,0.5
2025-09-21T2100,4199A,113.2798,40.0997,大同市,魏都大道141号,,28,23,40,16,14,89,,100,99,13,28,4,5,0.5,1.1
2025-09-21T2100,2269A,124.1069,50.4097,大兴安岭地区,科技局,,41,41,21,20,13,15,,58,46,15,6,9,6,0.3,0.2
2025-09-21T2100,3663A,124.1164,50.4278,大兴安岭地区,红旗社区,,36,36,14,17,7,2,,59,44,26,9,4,4,0.5,0.4
2025-09-21T2100,1600A,124.3303,40.0625,丹东市,江湾东路,,49,49,21,15,10,5,,80,55,49,23,9,9,0.9,0.7
2025-09-21T2100,1601A,124.4256,40.1503,丹东市,临江后街,,37,37,22,16,10,26,,75,56,29,20,6,7,0.8,0.7
2025-09-21T2100,1602A,124.3933,40.1461,丹东市,元宝山,,34,34,18,8,7,13,,75,66,42,16,7,7,0.8,0.6
2025-09-21T2100,1603A,124.3633,40.1092,丹东市,民主桥,,41,41,23,18,9,17,,78,58,42,22,7,8,0.7,0.5
2025-09-21T2100,3541A,109.5726,19.5167,儋州市,第一中学子站,,28,28,20,18,11,65,,64,64,5,4,7,7,0.3,0.3
2025-09-21T2100,3542A,109.5567,19.5187,儋州市,东坡学校子站,,29,29,19,19,10,75,,76,75,8,5,6,5,0.4,0.3
2025-09-21T2100,2616A,98.5842,24.428,德宏傣族景颇族自治州,德宏州监测站,,20,19,25,14,13,38,,70,64,10,9,7,8,0.7,0.6
2025-09-21T2100,3677A,98.5881,24.4368,德宏傣族景颇族自治州,芒市人民政府综合楼,,,22,32,11,13,,,68,65,8,8,6,7,0.6,0.5
2025-09-21T2100,1901A,104.4239,31.1208,德阳市,东山公园,,13,,7,3,8,39,,30,30,6,8,4,5,0.5,0.6
2025-09-21T2100,1902A,104.3826,31.1317,德阳市,西小区,,14,11,11,6,8,42,,35,35,7,9,3,3,0.4,0.5
2025-09-21T2100,1904A,104.3553,31.1091,德阳市,耐火材料厂,,12,11,16,7,7,37,,30,30,11,11,3,2,0.7,0.7
2025-09-21T2100,3639A,104.4019,31.1244,德阳市,市教育局,,12,10,12,3,8,36,,28,28,6,7,4,5,0.6,0.7
2025-09-21T2100,1622A,116.3032,37.4674,德州市,儿童乐园,细颗粒物(PM2.5),62,68,56,44,31,56,,138,115,53,27,10,11,0.7,0.6
2025-09-21T2100,1624A,116.2991,37.4451,德州市,监理站,"颗粒物(PM10),细颗粒物(PM2.5)",58,66,54,41,32,92,,138,115,37,34,17,17,0.7,0.5
2025-09-21T2100,3066A,116.2721,37.4379,德州市,九衢泉纯净水厂,细颗粒物(PM2.5),55,56,63,39,31,46,,120,88,64,51,11,12,0.5,0.4
2025-09-21T2100,3371A,116.3728,37.4403,德州市,开发区人民医院,,48,48,57,29,30,94,,123,100,32,36,12,15,0.5,0.5
2025-09-21T2100,3511A,116.5652,37.3319,德州市,陵城艺术中心,细颗粒物(PM2.5),55,56,52,39,35,88,,138,118,39,36,11,13,1.0,1
2025-09-21T2100,4292A,116.3525,37.4209,德州市,新河东路,,48,48,56,27,32,100,,116,95,24,44,10,12,0.8,0.7
2025-09-21T2100,2621A,99.7056,27.8317,迪庆藏族自治州,迪庆州站,,24,24,14,10,10,48,,49,49,6,5,7,7,0.3,0.3
2025-09-21T2100,3180A,99.7136,27.8094,迪庆藏族自治州,质量技术监督局,,16,13,15,3,8,49,,48,48,7,6,8,8,0.4,0.4
2025-09-21T2100,4257A,104.6092,35.5962,定西市,将台街,,,61,21,30,14,,,65,63,29,10,8,8,0.6,0.6
2025-09-21T2100,4309A,104.6159,35.5701,定西市,正龙路62号,,36,36,25,15,14,43,,59,57,9,7,5,6,0.3,0.4
2025-09-21T2100,1389A,113.7547,23.0494,东莞市,莞城梨川,,26,26,14,17,12,10,,47,38,29,19,6,6,0.6,0.5
2025-09-21T2100,1390A,113.7944,23.0128,东莞市,东城石井,,18,18,18,3,9,5,,40,31,20,21,5,5,0.7,0.7
2025-09-21T2100,1391A,113.7383,22.9658,东莞市,南城西平,,,8,14,3,10,,,35,32,16,23,2,2,0.4,0.4
2025-09-21T2100,3319A,113.7338,23.0381,东莞市,万江金泰,,20,20,14,13,10,14,,42,36,23,18,5,5,0.7,0.7
2025-09-21T2100,3626A,113.7533,23.0202,东莞市,南城元岭,,18,18,12,10,10,12,,42,34,25,20,4,4,0.5,0.5
2025-09-21T2100,3627A,113.7875,23.0457,东莞市,东城主山,,30,30,16,17,11,7,,48,36,37,24,2,1,0.6,0.4
2025-09-21T2100,1666A,118.6614,37.4309,东营市,市环保局,,40,19,26,9,12,128,,149,145,15,26,6,10,0.3,0.4
2025-09-21T2100,3036A,118.6904,37.4338,东营市,开发区管委会,,43,29,36,14,19,135,,153,150,15,23,6,10,0.6,0.7
2025-09-21T2100,3365A,118.5719,37.565,东营市,垦利区民丰路,,,,33,,16,,,143,138,27,30,8,5,0.4,0.6
2025-09-21T2100,3498A,118.5055,37.8612,东营市,河口城区,,38,24,31,10,14,119,,140,134,16,15,6,6,0.6,0.6
2025-09-21T2100,3646A,118.4978,37.4623,东营市,胜利站,,39,33,42,3,15,122,,144,139,24,32,7,9,0.4,0.5
2025-09-21T2100,3734A,118.35,37.26,东营市,理想之城,,30,29,34,14,19,96,,132,122,31,39,3,4,0.5,0.5
2025-09-21T2100,1591A,110.0023,39.8129,鄂尔多斯市,综合楼,,23,22,46,9,25,71,,93,85,15,28,3,8,0.6,0.7
2025-09-21T2100,1592A,109.9486,39.8261,鄂尔多斯市,巴音孟克林场办事处,,25,22,54,17,25,78,,100,90,16,27,4,10,0.5,0.7
2025-09-21T2100,1593A,109.7736,39.5986,鄂尔多斯市,康泽苑,,23,19,50,12,24,72,,91,87,14,25,8,9,0.4,0.5
2025-09-21T2100,1594A,109.8119,39.5989,鄂尔多斯市,华泰汽车城,,20,14,48,14,24,62,,81,79,15,29,5,7,0.6,0.7
2025-09-21T2100,1595A,109.9734,39.7884,鄂尔多斯市,奥林花园,,21,19,58,14,24,67,,88,81,14,26,5,8,0.7,0.8
2025-09-21T2100,2436A,114.8938,30.3994,鄂州市,市政府,,40,40,17,16,6,37,,69,66,35,14,6,6,0.7,0.5
2025-09-21T2100,2437A,114.8989,30.3714,鄂州市,赵家坝,颗粒物(PM10),51,51,27,25,6,48,,76,73,23,11,6,6,1.1,0.8
2025-09-21T2100,3654A,114.8094,30.4089,鄂州市,精准医疗中心,,35,35,22,22,9,61,,76,75,17,15,5,6,0.7,0.6
2025-09-21T2100,2454A,109.4978,30.2981,恩施土家族苗族自治州,湖北民院,,23,23,21,9,6,40,,53,53,9,8,6,6,0.5,0.5
2025-09-21T2100,2455A,109.4707,30.2798,恩施土家族苗族自治州,州电力总公司,,23,23,18,16,8,29,,45,44,11,9,5,5,0.4,0.4
2025-09-21T2100,3549A,109.5061,30.3772,恩施土家族苗族自治州,龙凤新区,,27,27,19,10,6,31,,63,58,8,7,6,6,0.6,0.6
2025-09-21T2100,2499A,108.3411,21.6158,防城港市,沙万,,45,45,34,26,21,54,,88,82,18,13,6,5,0.9,0.5
2025-09-21T2100,2500A,108.3514,21.7731,防城港市,防城档案局,颗粒物(PM10),51,51,36,22,21,56,,80,76,16,11,4,3,0.7,0.6
2025-09-21T2100,2501A,108.3506,21.6414,防城港市,大海花园,,36,,30,25,19,67,,98,93,9,6,6,6,0.7,0.6
2025-09-21T2100,1371A,113.1294,23.0067,佛山市,湾梁,,14,7,5,3,3,17,,34,31,27,23,6,6,0.6,0.7
2025-09-21T2100,1372A,113.1083,23.0478,佛山市,华材职中,,14,14,5,3,5,21,,43,39,19,14,4,4,0.5,0.5
2025-09-21T2100,1373A,113.144,23.0453,佛山市,南海气象局,,26,26,11,7,7,17,,37,33,25,19,6,5,0.8,0.8
2025-09-21T2100,1374A,113.2881,22.8094,佛山市,顺德苏岗,,18,18,16,3,6,3,,25,17,34,27,5,6,0.6,0.7
2025-09-21T2100,1376A,112.8383,22.8678,佛山市,高明孔堂,,11,,5,3,5,33,,56,46,11,11,2,2,0.3,0.3
2025-09-21T2100,1377A,112.8836,23.1588,佛山市,三水监测站,,16,,3,11,8,13,,46,39,24,16,4,5,0.5,0.5
2025-09-21T2100,1378A,112.867,23.185,佛山市,三水云东海,,24,24,13,6,7,20,,56,45,21,21,1,2,0.6,0.7
2025-09-21T2100,3625A,113.2544,22.7642,佛山市,容桂街道办,,13,7,4,3,9,12,,32,26,26,24,5,8,0.7,0.7
2025-09-21T2100,1280A,119.3903,26.0543,福州市,鼓山,,,,12,,4,,,57,,,4,,1,,0.2
2025-09-21T2100,1282A,119.2681,26.0504,福州市,师大,,26,20,15,9,5,83,,75,75,7,9,5,5,0.3,0.3
2025-09-21T2100,1283A,119.2984,26.1028,福州市,五四北路,,27,17,15,6,9,84,,74,74,8,8,3,4,0.3,0.2
2025-09-21T2100,1284A,119.2648,26.0768,福州市,杨桥西路,,27,16,14,7,4,86,,77,77,6,6,3,3,0.3,0.2
2025-09-21T2100,1285A,119.317,26.0746,福州市,紫阳,,29,29,17,6,5,81,,71,71,4,6,5,5,0.3,0.2
2025-09-21T2100,3048A,119.5799,26.0936,福州市,九龙,,37,21,17,7,4,117,,107,107,2,4,3,4,0.3,0.2
2025-09-21T2100,3526A,119.5189,25.9664,福州市,吴航,,37,25,18,10,9,116,,104,104,2,4,4,4,0.2,0.2
2025-09-21T2100,1755A,123.7977,41.8491,抚顺市,望花区,颗粒物(PM10),59,68,55,29,24,16,,96,80,58,31,8,9,0.7,0.7
2025-09-21T2100,1756A,123.9161,41.8822,抚顺市,顺城区,,48,48,39,28,18,14,,97,76,48,31,6,6,0.7,0.6
2025-09-21T2100,1757A,124.0436,41.8611,抚顺市,东洲区,,29,,37,20,17,42,,93,83,32,24,6,6,0.4,0.4
2025-09-21T2100,1758A,123.9247,41.8642,抚顺市,新抚区,,,55,42,30,19,,,100,90,46,26,6,7,0.7,1
2025-09-21T2100,1759A,124.0972,41.8961,抚顺市,大伙房水库,,26,26,31,12,14,63,,95,86,13,22,9,9,0.4,0.5
2025-09-21T2100,1760A,123.7086,41.8391,抚顺市,沈抚新城,,31,31,36,21,22,13,,102,81,42,25,7,8,0.6,0.9
2025-09-21T2100,2376A,116.2127,28.0814,抚州市,桐源党溪,,50,50,37,21,17,79,,77,77,9,8,6,5,1.1,0.9
2025-09-21T2100,2377A,116.3544,27.9831,抚州市,市站,,39,39,32,24,18,87,,84,84,8,6,5,6,1.0,0.9
2025-09-21T2100,2378A,116.3565,27.963,抚州市,血防站,,45,45,36,21,20,84,,82,82,8,6,5,7,0.7,0.5
2025-09-21T2100,2379A,116.3564,28.0007,抚州市,采茶剧团,,43,42,35,30,17,76,,74,74,5,4,5,6,1.1,0.9
2025-09-21T2100,2380A,116.385,27.9647,抚州市,医学分院,,49,49,47,21,18,80,,85,85,4,4,4,6,0.8,0.7
2025-09-21T2100,2207A,121.6094,41.998,阜新市,工业园区,细颗粒物(PM2.5),70,77,41,51,15,9,,110,94,76,25,14,10,0.9,0.5
2025-09-21T2100,2208A,121.6697,42.0279,阜新市,长青街,,45,45,36,30,16,43,,105,96,34,26,10,12,0.5,1.6
2025-09-21T2100,2209A,121.6673,42.0705,阜新市,农业园区,,35,35,31,9,8,82,,104,99,11,13,8,8,0.5,0.9
2025-09-21T2100,2210A,121.6717,42.0224,阜新市,东苑,颗粒物(PM10),58,65,59,25,17,31,,105,95,53,30,21,19,0.7,1.8
2025-09-21T2100,2211A,121.6506,42.0498,阜新市,玉龙新城,颗粒物(PM10),64,77,45,29,15,4,,106,80,75,33,14,12,0.6,0.6
2025-09-21T2100,2301A,115.8277,32.8929,阜阳市,市监测站,,48,48,45,23,23,98,,122,110,37,29,5,4,0.4,0.3
2025-09-21T2100,2303A,115.8554,32.8605,阜阳市,开发区,颗粒物(PM10),51,52,42,26,25,93,,117,108,24,20,7,7,0.5,0.5
2025-09-21T2100,2875A,115.784,32.8892,阜阳市,阜阳职业技术学院,颗粒物(PM10),52,54,40,25,20,100,,125,119,29,22,6,6,0.5,0.5
2025-09-21T2100,3468A,115.7901,32.8613,阜阳市,市规划展馆,,44,44,41,19,22,134,,134,133,18,19,5,5,0.4,0.4
2025-09-21T2100,3469A,115.836,32.9183,阜阳市,枣园社区,颗粒物(PM10),59,68,44,30,25,89,,123,109,34,30,7,6,0.6,0.5
2025-09-21T2100,2669A,102.9099,34.9841,甘南藏族自治州,州政府,,35,35,24,23,17,30,,65,57,24,11,7,8,0.4,0.4
2025-09-21T2100,3380A,102.8914,34.9617,甘南藏族自治州,甘肃民族师范学院,,39,39,13,15,12,11,,68,58,29,11,4,4,0.2,0.2
2025-09-21T2100,2570A,101.9603,30.0475,甘孜藏族自治州,水桥子,,16,6,5,3,4,50,,40,,9,15,7,7,0.5,0.4
2025-09-21T2100,3065A,101.9533,29.9972,甘孜藏族自治州,州环保局,,17,17,12,3,6,39,,54,52,16,11,5,5,0.5,0.4
2025-09-21T2100,3414A,115.8347,28.932,赣江新区,桑海产业园,细颗粒物(PM2.5),59,56,35,42,24,60,,65,65,20,14,7,5,1.0,0.7
2025-09-21T2100,2362A,114.9017,25.9149,赣州市,通天岩,,30,30,23,15,12,32,,60,52,8,5,17,17,1.1,1
2025-09-21T2100,2363A,114.9367,25.8664,赣州市,地委,,32,32,23,16,13,45,,62,59,9,8,5,5,0.8,0.7
2025-09-21T2100,2364A,114.9461,25.8481,赣州市,气象台,,35,35,25,15,10,42,,61,58,7,6,7,7,0.8,0.8
2025-09-21T2100,2365A,114.9322,25.8333,赣州市,市图书馆,,30,30,18,21,12,41,,61,58,7,5,4,4,0.9,0.8
2025-09-21T2100,2366A,114.8905,25.8471,赣州市,华坚鞋城,颗粒物(PM10),51,51,23,22,11,41,,58,54,13,9,3,4,0.5,0.5
2025-09-21T2100,3109A,115.0093,25.8613,赣州市,赣县区卫计委,,20,20,16,13,15,34,,56,53,5,5,6,7,0.7,0.6
2025-09-21T2100,2683A,106.2319,36.1417,固原市,马园,,,,,,,,,,,,,,,,
2025-09-21T2100,2684A,106.2792,36.0022,固原市,监测站,,22,16,5,3,3,69,,92,78,8,6,6,7,0.4,0.4
2025-09-21T2100,2685A,106.2375,36.0211,固原市,新区,,19,8,4,6,1,58,,84,66,8,6,6,6,0.5,0.5
2025-09-21T2100,3522A,106.2177,35.9959,固原市,原州区十五小,,18,12,3,8,3,56,,77,66,12,8,7,6,0.4,0.4
2025-09-21T2100,2543A,106.6308,30.5278,广安市,小平旧居,,,,,,,,,,,,,,,,
2025-09-21T2100,2544A,106.6303,30.4576,广安市,市委,,17,17,14,8,8,38,,36,36,6,8,6,5,0.5,0.5
2025-09-21T2100,2545A,106.6271,30.4663,广安市,友谊中学,,,15,14,13,8,,,41,41,7,9,5,5,0.6,0.7
2025-09-21T2100,2547A,106.6388,30.4551,广安市,广电花园,,16,16,11,8,7,36,,34,34,6,6,4,4,0.6,0.7
2025-09-21T2100,2902A,106.6351,30.4865,广安市,北辰小学,,17,17,12,9,6,38,,36,36,5,6,7,8,0.6,0.6
2025-09-21T2100,2523A,105.8945,32.4535,广元市,黑石坡,,14,9,7,7,7,44,,51,48,6,7,11,10,0.2,0.3
2025-09-21T2100,2524A,105.821,32.4444,广元市,老城,,24,13,12,3,2,76,,85,84,12,9,7,7,0.5,0.5
2025-09-21T2100,2526A,105.8628,32.4287,广元市,监测站,,21,9,12,7,8,66,,72,72,14,11,6,6,0.5,0.5
2025-09-21T2100,3617A,105.8047,32.4166,广元市,经开区,,22,6,4,3,2,68,,74,73,12,9,2,2,0.5,0.5
2025-09-21T2100,1345A,113.2347,23.1423,广州市,广雅中学,,22,21,10,15,8,13,,44,40,37,23,3,3,0.6,0.5
2025-09-21T2100,1346A,113.2612,23.105,广州市,市五中,,21,21,12,13,8,12,,46,42,41,23,5,5,0.2,0.2
2025-09-21T2100,1348A,113.3478,23.0916,广州市,广东商学院,,35,26,12,24,10,12,,42,39,37,22,4,4,0.3,0.3
2025-09-21T2100,1349A,113.4332,23.1047,广州市,市八十六中,,21,17,7,14,7,9,,38,34,42,25,5,4,0.7,0.6
2025-09-21T2100,1350A,113.3505,22.9483,广州市,番禺中学,,15,13,9,8,6,12,,36,31,30,22,5,5,0.7,0.7
2025-09-21T2100,1351A,113.2146,23.3916,广州市,花都师范,,18,13,12,12,11,16,,57,52,32,23,4,4,0.6,0.6
2025-09-21T2100,1352A,113.2597,23.1331,广州市,市监测站,,22,22,13,14,8,15,,46,43,32,19,5,5,0.4,0.4
2025-09-21T2100,1353A,113.5618,23.312,广州市,九龙镇镇龙,,11,11,13,3,8,20,,62,52,10,17,7,7,0.4,0.4
2025-09-21T2100,1354A,113.2765,23.1544,广州市,麓湖,,18,18,10,12,7,7,,43,39,31,23,3,3,0.3,0.3
2025-09-21T2100,1355A,113.443,23.3035,广州市,帽峰山森林公园,,8,8,5,3,5,25,,57,51,8,10,4,4,0.4,0.5
2025-09-21T2100,2846A,113.3221,23.1322,广州市,体育西,,26,24,13,18,9,12,,44,41,37,24,5,5,0.6,0.6
2025-09-21T2100,3298A,113.5717,23.5491,广州市,从化街口,,17,17,9,9,6,0,,36,24,26,14,8,8,0.7,0.6
2025-09-21T2100,3299A,113.3472,23.3692,广州市,白云竹料,,10,10,8,6,6,21,,53,49,19,16,4,4,0.5,0.5
2025-09-21T2100,3300A,113.2981,23.237,广州市,白云嘉禾,,18,18,10,11,8,17,,49,45,29,22,4,4,0.5,0.5
2025-09-21T2100,3301A,113.4256,23.1716,广州市,黄埔科学城,,16,16,11,9,7,21,,54,48,18,16,3,3,0.7,0.7
2025-09-21T2100,3302A,113.3942,23.0483,广州市,番禺大学城,,19,,11,13,7,12,,41,36,35,21,6,6,0.5,0.5
2025-09-21T2100,3303A,113.4922,22.8168,广州市,南沙黄阁,,14,13,14,7,7,7,,34,29,27,17,5,5,0.8,0.6
2025-09-21T2100,3304A,113.5342,22.7896,广州市,南沙街,,14,13,14,6,7,9,,34,30,28,19,4,4,0.5,0.5
2025-09-21T2100,3443A,113.2902,23.5544,广州市,花都梯面,,10,10,7,3,3,18,,59,52,10,10,5,5,0.4,0.5
2025-09-21T2100,3445A,113.7858,23.7478,广州市,从化良口,,12,12,8,3,5,7,,36,24,5,5,5,5,0.5,0.5
2025-09-21T2100,3446A,113.8051,23.2614,广州市,增城荔城,,11,11,12,3,8,11,,52,41,8,10,4,5,0.4,0.4
2025-09-21T2100,2505A,109.568,23.1478,贵港市,德智高中,,,,,,,,,,,,,,,,
2025-09-21T2100,2506A,109.6047,23.0666,贵港市,江南子站,,29,29,21,14,19,22,,39,33,22,13,11,6,0.9,0.7
2025-09-21T2100,2508A,109.5669,23.1065,贵港市,荷城子站,,11,9,15,3,8,33,,41,34,12,12,3,4,0.7,0.7
2025-09-21T2100,3405A,109.5886,23.1172,贵港市,新世纪学校,,18,14,19,12,13,40,,44,39,8,12,1,1,0.6,0.6
2025-09-21T2100,4260A,109.5933,23.0951,贵港市,中山路155-3号,,30,30,21,11,17,33,,45,40,13,11,4,4,0.6,0.5
2025-09-21T2100,1439A,106.6899,26.5998,贵阳市,马鞍山,,12,12,17,7,15,37,,58,54,9,6,3,3,0.3,0.3
2025-09-21T2100,1441A,106.6243,26.6266,贵阳市,鉴湖路,,,,30,,12,,,62,62,,8,4,5,0.4,0.4
2025-09-21T2100,1442A,106.7487,26.6343,贵阳市,燕子冲,,18,12,15,12,16,47,,62,61,10,10,4,4,0.4,0.4
2025-09-21T2100,1443A,106.6555,26.4365,贵阳市,碧云窝,,27,27,30,9,11,40,,56,54,11,9,5,4,0.3,0.3
2025-09-21T2100,1445A,106.7109,26.6027,贵阳市,红边门,,20,17,22,14,17,36,,54,50,13,6,2,3,0.2,0.3
2025-09-21T2100,1446A,106.7164,26.5699,贵阳市,新华路,,22,22,22,3,10,41,,57,54,15,9,3,5,0.3,0.4
2025-09-21T2100,1447A,106.674,26.5424,贵阳市,太慈桥,,14,12,17,9,10,44,,63,60,14,10,1,1,0.3,0.3
2025-09-21T2100,1552A,106.805,26.3003,贵阳市,桐木岭,,32,30,31,22,19,47,,53,51,8,8,2,2,0.2,0.2
2025-09-21T2100,4230A,106.6882,26.5695,贵阳市,花果园大街66号,,13,,10,9,18,36,,54,52,13,7,3,3,0.3,0.4
2025-09-21T2100,4231A,106.6873,26.5169,贵阳市,漓江路57号,,,,21,9,13,,,59,58,,9,5,5,0.5,0.5
2025-09-21T2100,1862A,110.4144,25.3167,桂林市,电子科大尧山校区,,,,,,,,,,,,,,,,
2025-09-21T2100,1864A,110.3089,25.2708,桂林市,龙隐路小学,,24,24,15,8,7,66,,69,69,9,8,4,4,0.6,0.6
2025-09-21T2100,1865A,110.2869,25.2178,桂林市,八中,,22,16,15,15,8,66,,69,69,8,8,5,6,0.6,0.5
2025-09-21T2100,3531A,110.296,25.1253,桂林市,旅游学院,,22,7,8,7,7,69,,76,76,6,5,4,3,0.6,0.6
2025-09-21T2100,4222A,110.1835,25.2444,桂林市,环湖路276号,,20,,17,12,12,61,,62,62,8,8,5,5,0.6,0.6
2025-09-21T2100,4301A,110.2803,25.2773,桂林市,信义路13号,,22,,14,3,4,68,,70,70,8,7,5,6,0.7,0.7
2025-09-21T2100,2674A,100.2561,34.4714,果洛藏族自治州,玛沁县大武镇,,,58,24,20,13,,,89,89,2,4,25,23,0.5,0.4
2025-09-21T2100,1129A,126.5422,45.755,哈尔滨市,岭北,,27,27,15,15,9,48,,89,83,32,19,9,7,0.2,0.3
2025-09-21T2100,1130A,126.561,45.8167,哈尔滨市,松北商大,,49,49,26,15,8,19,,67,54,30,23,6,6,0.5,0.3
2025-09-21T2100,1131A,126.979,45.5419,哈尔滨市,阿城会宁,颗粒物(PM10),52,53,45,23,16,5,,68,47,45,25,7,9,0.5,0.7
2025-09-21T2100,1132A,126.599,45.7222,哈尔滨市,南岗学府路,颗粒物(PM10),78,106,31,46,9,0,,71,54,41,15,8,8,1.3,0.7
2025-09-21T2100,1133A,126.689,45.7733,哈尔滨市,太平宏伟公园,颗粒物(PM10),68,85,27,26,14,2,,71,58,71,19,9,8,0.9,0.5
2025-09-21T2100,1134A,126.635,45.7667,哈尔滨市,道外承德广场,颗粒物(PM10),52,53,34,15,8,8,,70,56,64,21,6,6,0.7,0.4
2025-09-21T2100,1135A,126.685,45.7319,哈尔滨市,香坊红旗大街,颗粒物(PM10),89,127,29,51,14,4,,72,58,72,26,11,8,1.1,0.5
2025-09-21T2100,1136A,126.6411,45.7258,哈尔滨市,动力和平路,颗粒物(PM10),53,56,24,31,10,5,,75,62,70,23,6,4,0.8,0.4
2025-09-21T2100,1137A,126.593,45.7478,哈尔滨市,道里建国路,颗粒物(PM10),61,71,23,16,10,5,,71,53,76,29,10,9,1.5,0.7
2025-09-21T2100,1138A,126.615,45.61,哈尔滨市,平房东轻厂,,43,43,36,13,15,2,,65,43,66,35,9,9,0.8,0.5
2025-09-21T2100,1139A,126.595,45.9855,哈尔滨市,呼兰师专,,27,27,19,12,11,51,,67,60,24,12,6,6,0.4,0.4
2025-09-21T2100,1140A,126.6206,45.6842,哈尔滨市,省农科院,颗粒物(PM10),98,145,36,28,10,2,,72,56,84,24,5,4,0.9,0.5
2025-09-21T2100,2688A,93.5128,42.8172,哈密市,地区监测站,颗粒物(PM10),52,54,74,14,24,76,,99,97,23,31,3,3,0.0,0.1
2025-09-21T2100,2689A,93.4961,42.8328,哈密市,哈密师范学校,,48,48,62,13,20,74,,98,96,22,32,4,6,0.4,0.4
2025-09-21T2100,2671A,100.9048,36.9639,海北藏族自治州,海晏县西海镇,,27,27,19,17,20,60,,98,94,12,3,10,10,0.4,0.6
2025-09-21T2100,3867A,102.0738,36.5056,海东市,平安区公安北苑,,27,27,34,14,27,36,,65,65,14,14,8,19,0.7,1.1
2025-09-21T2100,1409A,110.576,19.9507,海口市,东寨港,,20,,21,14,9,13,,21,20,4,6,3,4,0.5,0.5
2025-09-21T2100,1410A,110.3232,20.0574,海口市,海南大学,,23,15,20,8,12,71,,87,85,3,10,4,4,0.2,0.2
2025-09-21T2100,1411A,110.283,20.0053,海口市,秀英海南医院,,21,21,23,10,12,63,,82,79,6,10,6,6,0.2,0.3
2025-09-21T2100,1412A,110.338,19.9969,海口市,海南师范大学,,25,25,23,11,11,65,,95,86,6,9,4,4,0.3,0.3
2025-09-21T2100,1413A,110.33,20.0356,海口市,龙华路环保局宿舍,,22,21,19,11,11,69,,89,85,5,9,6,6,0.1,0.1
2025-09-21T2100,3539A,110.5111,19.9736,海口市,桂林洋子站,,21,21,26,12,12,57,,81,75,5,11,5,6,0.2,0.3
2025-09-21T2100,2673A,100.6188,36.2866,海南藏族自治州,共和县恰卜恰镇,,36,36,27,3,10,47,,107,99,36,5,11,11,0.6,0.5
2025-09-21T2100,2676A,97.3731,37.3753,海西蒙古族藏族自治州,德令哈市,,45,45,34,20,20,99,,112,110,4,3,12,12,0.3,0.3
2025-09-21T2100,1048A,114.5302,36.6116,邯郸市,东污水处理厂,,39,33,67,27,50,84,,53,53,12,42,6,10,0.7,0.9
2025-09-21T2100,1049A,114.4918,36.5713,邯郸市,矿院,,39,,56,27,48,81,,45,45,12,44,5,7,0.5,0.8
2025-09-21T2100,1050A,114.484,36.6133,邯郸市,丛台公园,,28,24,60,17,36,87,,55,55,15,42,10,13,0.5,0.8
2025-09-21T2100,3458A,114.7895,36.5593,邯郸市,香泉濮院小区,,49,,66,34,35,56,,56,44,31,32,4,7,0.8,0.6
2025-09-21T2100,3579A,114.50634,36.77178,邯郸市,永年区实验高中,,31,31,70,16,35,67,,46,46,18,48,4,8,0.7,1.3
2025-09-21T2100,3580A,114.20016,36.44293,邯郸市,峰峰矿区临水派出所,,29,20,46,12,29,92,,83,83,16,25,6,13,0.9,1.1
2025-09-21T2100,2634A,106.9893,33.1842,汉中市,汉川机床厂子校,,21,21,9,14,6,64,,114,87,14,6,4,4,0.6,0.5
2025-09-21T2100,2635A,107.0154,33.0706,汉中市,市监测站,,20,20,9,9,8,61,,95,77,10,6,6,6,0.6,0.5
2025-09-21T2100,2636A,107.0089,33.1138,汉中市,鑫源开发区,,23,23,10,11,5,66,,92,76,9,5,3,4,0.5,0.4
2025-09-21T2100,2637A,107.007,33.0323,汉中市,南郑大河坎水厂,,22,20,11,6,6,68,,92,77,10,5,6,5,0.5,0.4
2025-09-21T2100,1223A,120.2072,30.2111,杭州市,滨江,,50,50,34,21,17,84,,104,102,35,27,9,8,0.6,0.6
2025-09-21T2100,1224A,120.0633,30.2747,杭州市,西溪,,43,43,27,28,20,33,,69,59,34,26,6,6,0.6,0.6
2025-09-21T2100,1226A,120.3417,30.3150,杭州市,下沙,,36,36,26,21,15,45,,107,97,58,26,8,8,0.9,0.8
2025-09-21T2100,1227A,120.1269,30.2456,杭州市,卧龙桥,,35,35,26,21,17,34,,86,71,28,17,8,8,0.7,0.7
2025-09-21T2100,1228A,120.1903,30.2692,杭州市,浙江农大,颗粒物(PM10),61,71,39,35,19,41,,92,85,54,31,6,6,0.8,0.6
2025-09-21T2100,1230A,120.1197,30.3119,杭州市,和睦小学,,33,33,27,18,15,89,,110,108,32,23,5,6,0.6,0.7
2025-09-21T2100,1231A,120.3019,30.4183,杭州市,临平镇,颗粒物(PM10),55,60,30,28,15,80,,124,120,30,20,6,6,0.5,0.5
2025-09-21T2100,1232A,120.2753,30.1839,杭州市,城厢镇,,39,39,30,20,22,69,,91,86,39,33,5,5,0.6,0.7
2025-09-21T2100,1233A,120.0883,30.1808,杭州市,云栖,,32,32,25,18,18,59,,78,68,23,20,6,6,0.7,0.7
2025-09-21T2100,3557A,119.9464,30.0494,杭州市,镇二中,,45,43,27,31,20,59,,77,76,22,17,4,4,0.9,0.8
2025-09-21T2100,3558A,119.7183,30.2367,杭州市,市府大楼,,31,31,19,21,16,68,,100,98,22,11,8,8,0.6,0.5
2025-09-21T2100,3656A,120.1556,30.2864,杭州市,消防大队,,44,44,28,29,17,56,,106,98,40,24,8,8,0.7,0.6
2025-09-21T2100,1270A,117.1959,31.7848,合肥市,明珠广场,颗粒物(PM10),51,51,38,29,22,101,,120,118,31,22,8,8,0.7,0.7
2025-09-21T2100,1271A,117.3072,31.8764,合肥市,三里街,颗粒物(PM10),53,56,37,31,17,93,,115,113,28,18,5,4,0.7,0.6
2025-09-21T2100,1272A,117.2588,31.8707,合肥市,琥珀山庄,,44,44,38,28,19,114,,127,127,16,13,10,9,0.7,0.7
2025-09-21T2100,1273A,117.1604,31.9052,合肥市,董铺水库,颗粒物(PM10),56,61,37,29,18,106,,108,108,15,13,5,5,0.6,0.5
2025-09-21T2100,1274A,117.25,31.8571,合肥市,长江中路,,46,46,41,27,20,119,,130,130,14,12,8,8,0.8,0.7
2025-09-21T2100,1275A,117.266,31.9436,合肥市,庐阳区,颗粒物(PM10),54,58,45,24,19,107,,125,123,23,20,6,6,0.8,0.7
2025-09-21T2100,1276A,117.3453,31.8616,合肥市,瑶海区,颗粒物(PM10),59,68,39,37,20,83,,111,,39,22,8,8,0.8,0.6
2025-09-21T2100,1277A,117.3027,31.7964,合肥市,包河区,颗粒物(PM10),60,70,42,39,22,60,,101,86,65,44,9,9,0.7,0.6
2025-09-21T2100,1278A,117.2776,31.7385,合肥市,滨湖新区,颗粒物(PM10),51,51,39,34,26,106,,129,127,21,16,5,5,0.9,0.8
2025-09-21T2100,1279A,117.1318,31.8403,合肥市,高新区,,40,39,39,24,22,128,,126,126,18,20,6,6,0.8,0.7
2025-09-21T2100,3464A,117.3803,31.9147,合肥市,高教基地,,49,48,35,34,17,94,,114,111,19,14,7,7,0.6,0.6
2025-09-21T2100,3614A,79.924,37.0877,和田地区,地区环保局,颗粒物(PM10),152,254,331,101,96,75,,98,97,18,9,2,5,0.3,0.3
2025-09-21T2100,3615A,79.9131,37.113,和田地区,市环保局,颗粒物(PM10),139,228,299,83,98,75,,98,96,24,23,2,5,0.2,0.3
2025-09-21T2100,2516A,108.2011,24.715,河池市,东仁乐园,,,,,,,,,,,,,,,,
2025-09-21T2100,2517A,108.0497,24.6947,河池市,市环保站,,19,,17,12,12,59,,68,67,6,7,8,6,0.7,0.7
2025-09-21T2100,2518A,108.0983,24.6989,河池市,市疾控中心,,21,21,20,14,13,59,,68,66,9,11,9,8,0.7,0.7
2025-09-21T2100,1696A,114.6778,23.7569,河源市,源西,,18,18,12,12,5,5,,33,19,19,12,4,4,0.8,0.7
2025-09-21T2100,1697A,114.6944,23.7586,河源市,东埔,,12,12,11,3,5,5,,30,18,19,10,4,4,0.6,0.4
2025-09-21T2100,1698A,114.6892,23.7233,河源市,老城,,22,22,14,8,5,3,,34,22,21,8,4,4,1.1,0.7
2025-09-21T2100,1718A,115.4208,35.2464,菏泽市,气象局,颗粒物(PM10),57,63,63,38,36,81,,113,110,31,39,4,5,0.5,0.6
2025-09-21T2100,3374A,115.5564,35.0891,菏泽市,定陶老年大学,颗粒物(PM10),51,51,43,27,21,70,,116,109,27,23,7,7,0.3,0.3
2025-09-21T2100,4184A,115.4797,35.24401,菏泽市,永昌路1号,颗粒物(PM10),61,72,61,29,36,74,,106,103,30,30,10,10,0.2,0.3
2025-09-21T2100,4193A,115.4715,35.2800,菏泽市,长城路999号,颗粒物(PM10),59,67,66,35,37,66,,103,98,39,43,8,10,0.3,0.3
2025-09-21T2100,2514A,111.5264,24.4172,贺州市,环保小区,,20,17,11,14,11,31,,47,43,11,8,13,12,0.8,0.7
2025-09-21T2100,2515A,111.5608,24.4078,贺州市,政协大楼,,20,14,13,14,8,27,,40,36,12,8,11,10,0.9,0.8
2025-09-21T2100,3534A,111.4744,24.4553,贺州市,西湾,,22,18,13,15,11,22,,41,34,10,7,10,11,0.7,0.7
2025-09-21T2100,2385A,114.17,35.9019,鹤壁市,市监测站,细颗粒物(PM2.5),55,49,41,39,26,64,,76,69,26,18,5,6,1.6,0.8
2025-09-21T2100,2386A,114.2956,35.7511,鹤壁市,市交警支队,细颗粒物(PM2.5),70,70,54,51,29,55,,75,68,32,27,7,8,1.4,0.8
2025-09-21T2100,2387A,114.2878,35.7306,鹤壁市,迎宾馆,细颗粒物(PM2.5),73,71,46,53,26,52,,73,66,30,23,4,5,1.4,0.7
2025-09-21T2100,3474A,114.2617,35.6822,鹤壁市,大新区,细颗粒物(PM2.5),77,,37,56,25,56,,72,67,28,21,8,6,1.4,0.6
2025-09-21T2100,3596A,114.1572,35.9603,鹤壁市,南山宾馆,细颗粒物(PM2.5),57,,42,40,38,81,,101,76,23,18,5,6,1.3,0.8
2025-09-21T2100,2244A,130.2537,47.3416,鹤岗市,哈啤分公司,颗粒物(PM10),54,58,23,24,10,25,,77,63,20,5,10,10,0.8,0.6
2025-09-21T2100,2245A,130.2684,47.3086,鹤岗市,斯达机电,,32,,17,22,14,48,,72,67,9,6,11,12,0.4,0.4
2025-09-21T2100,2246A,130.3114,47.3388,鹤岗市,东山纸板厂,颗粒物(PM10),58,65,44,23,15,17,,79,58,18,10,11,12,0.7,0.5
2025-09-21T2100,2247A,130.1097,47.3382,鹤岗市,五号水库,,12,12,11,7,6,26,,57,46,13,7,4,4,0.1,0.1
2025-09-21T2100,2263A,127.4833,50.2524,黑河市,交通局,,20,19,20,14,13,50,,61,57,8,11,10,7,0.4,0.4
2025-09-21T2100,2264A,127.5144,50.2341,黑河市,环保局,,23,23,31,11,15,48,,59,54,8,14,2,3,0.4,0.5
2025-09-21T2100,2265A,127.5291,50.2472,黑河市,大黑河岛,,,,,,,,,,,,,,,,
2025-09-21T2100,1074A,115.6838,37.7541,衡水市,电机北厂,,40,37,53,28,27,97,,125,109,12,23,7,8,0.4,0.4
2025-09-21T2100,1075A,115.6303,37.7316,衡水市,市监测站,,31,31,55,15,28,89,,121,105,12,25,9,11,0.3,0.4
2025-09-21T2100,3188A,115.6683,37.7217,衡水市,市城管局,,39,36,49,27,29,107,,127,115,11,28,10,11,0.4,0.5
2025-09-21T2100,3459A,115.5989,37.5491,衡水市,地表水厂,,41,41,64,19,29,83,,112,96,12,48,3,5,0.3,0.4
2025-09-21T2100,2456A,112.5003,26.9167,衡阳市,原169医院,,23,23,21,15,15,49,,63,58,13,9,2,2,0.7,0.6
2025-09-21T2100,2457A,112.6194,26.9258,衡阳市,衡阳化工总厂,,30,,24,21,17,43,,54,50,12,11,5,3,0.8,0.8
2025-09-21T2100,2458A,112.6211,26.8956,衡阳市,珠晖区环保局,,23,21,24,16,14,42,,53,52,15,14,7,7,1.0,1
2025-09-21T2100,2459A,112.6197,26.8733,衡阳市,市委党校,,22,22,25,13,14,46,,55,55,11,11,5,6,0.6,0.6
2025-09-21T2100,2460A,112.6006,26.8919,衡阳市,市监测站,,32,,25,22,15,42,,56,53,15,10,4,4,1.0,0.9
2025-09-21T2100,2461A,112.5664,26.9056,衡阳市,真空机电公司,,29,28,21,20,16,41,,54,51,11,6,5,4,1.0,0.9
2025-09-21T2100,3399A,112.6703,26.882,衡阳市,师范学院,,20,19,23,14,14,46,,59,58,11,10,4,4,0.9,0.9
2025-09-21T2100,2608A,103.3772,23.3993,红河哈尼族彝族自治州,污水处理厂,,39,31,25,27,17,50,,63,56,10,8,11,13,0.3,0.3
2025-09-21T2100,2609A,103.3861,23.35,红河哈尼族彝族自治州,监测站,,44,44,32,20,15,64,,64,58,4,4,12,16,0.3,0.3
2025-09-21T2100,3038A,103.3758,23.368,红河哈尼族彝族自治州,州图书馆,,43,,20,30,24,69,,69,62,7,7,2,10,0.2,0.2
2025-09-21T2100,1090A,111.6507,40.7517,呼和浩特市,呼市一监,,36,36,27,10,8,81,,90,88,10,12,7,6,0.4,0.6
2025-09-21T2100,1091A,111.6572,40.8033,呼和浩特市,小召,,46,46,32,15,10,82,,93,90,21,25,9,7,0.5,0.5
2025-09-21T2100,1094A,111.7516,40.8369,呼和浩特市,如意水处理厂,,39,39,29,12,8,83,,94,92,14,25,11,8,0.4,0.3
2025-09-21T2100,1095A,111.7276,40.8062,呼和浩特市,二十九中,,45,45,31,13,9,84,,98,94,18,25,10,8,0.5,0.6
2025-09-21T2100,1096A,111.5512,40.7866,呼和浩特市,工大金川校区,颗粒物(PM10),55,59,40,9,11,81,,86,85,18,33,4,4,0.4,0.4
2025-09-21T2100,1097A,111.717,40.7612,呼和浩特市,化肥厂生活区,,43,43,25,12,8,77,,90,86,23,20,7,7,0.4,0.6
2025-09-21T2100,3698A,111.5968,40.8178,呼和浩特市,红旗小学,,39,39,39,8,11,88,,96,94,17,34,7,7,0.4,0.4
2025-09-21T2100,3699A,111.6518,40.8389,呼和浩特市,海东办,,46,46,40,11,12,89,,102,100,17,32,7,6,0.5,0.4
2025-09-21T2100,2192A,119.7594,49.2261,呼伦贝尔市,区环保局,,38,38,35,20,19,50,,59,57,15,17,5,5,0.4,0.4
2025-09-21T2100,3061A,119.7512,49.1577,呼伦贝尔市,国华电力东,,27,27,21,15,11,38,,67,58,13,13,5,6,0.2,0.2
2025-09-21T2100,1250A,120.0751,30.8669,湖州市,城西水厂,,33,19,21,9,14,105,,135,130,20,19,7,7,0.3,0.4
2025-09-21T2100,2873A,120.0830,30.8929,湖州市,仁皇山新区,,31,21,20,10,12,97,,129,125,17,13,5,5,0.4,0.4
2025-09-21T2100,2907A,120.1844,30.8596,湖州市,吴兴区站,,26,26,24,14,13,82,,123,116,22,14,9,8,0.4,0.5
2025-09-21T2100,3562A,120.4148,30.8538,湖州市,南浔区站,,28,28,28,15,15,74,,116,107,16,16,6,6,0.7,0.6
2025-09-21T2100,1607A,120.9049,40.7211,葫芦岛市,龙港区,,31,31,44,19,22,58,,118,107,24,31,8,27,0.6,0.7
2025-09-21T2100,1608A,120.8392,40.7514,葫芦岛市,化工街,颗粒物(PM10),71,92,48,34,18,2,,112,93,104,39,20,42,0.5,0.4
2025-09-21T2100,1609A,120.8341,40.7073,葫芦岛市,新区,二氧化氮,51,48,42,30,19,8,,117,99,102,47,6,17,0.8,0.7
2025-09-21T2100,1610A,120.8695,40.7677,葫芦岛市,东城区,颗粒物(PM10),84,117,44,54,18,6,,114,91,86,42,32,26,0.9,0.7
2025-09-21T2100,2482A,109.5981,27.5721,怀化市,林科所,,32,26,27,22,11,94,,94,94,8,8,4,4,0.6,0.6
2025-09-21T2100,2483A,109.9453,27.5444,怀化市,河西地税局,,36,30,26,25,19,78,,79,79,8,8,5,6,0.4,0.4
2025-09-21T2100,2484A,109.9781,27.5342,怀化市,市四医院,颗粒物(PM10),52,53,38,28,21,77,,82,81,6,5,6,6,0.0,0.1
2025-09-21T2100,2485A,109.9972,27.5578,怀化市,监测楼,,43,39,28,30,21,76,,82,82,3,12,4,3,0.2,0.2
2025-09-21T2100,2486A,110.0394,27.583,怀化市,市委党校,,36,33,26,25,23,76,,80,80,7,6,6,5,0.3,0.4
2025-09-21T2100,1210A,119.036,33.5981,淮安市,钵池山,,30,24,35,19,29,95,,108,103,13,27,7,8,0.6,0.7
2025-09-21T2100,1211A,119.007,33.575,淮安市,北京南路,,31,22,35,17,26,97,,110,104,15,24,7,8,0.4,0.5
2025-09-21T2100,1212A,118.989,33.6067,淮安市,市监测站,,32,27,36,17,23,102,,114,107,18,30,10,11,0.5,0.5
2025-09-21T2100,1213A,119.135,33.5039,淮安市,楚州区监测站,,34,34,43,15,25,96,,110,103,16,24,7,8,0.6,0.7
2025-09-21T2100,3426A,118.8755,33.2894,淮安市,新华书店,,30,30,34,9,17,82,,109,97,16,20,7,11,0.6,0.7
2025-09-21T2100,4206A,119.0288,33.6319,淮安市,承德北路606号,,39,39,37,21,28,78,,107,96,29,29,7,8,0.6,0.5
2025-09-21T2100,2282A,116.8004,33.975,淮北市,监测站,,37,37,37,9,18,104,,137,129,9,20,8,9,0.7,0.8
2025-09-21T2100,2283A,116.8091,33.9007,淮北市,烈山区政府,,37,7,50,7,20,117,,148,141,7,18,8,9,0.3,0.5
2025-09-21T2100,3330A,116.8873,33.9836,淮北市,杜集区检察院,,37,23,37,11,21,116,,147,139,4,11,10,11,0.5,0.6
2025-09-21T2100,4017A,116.7923,33.9535,淮北市,市博物馆,,36,20,43,3,22,114,,146,139,11,22,8,9,0.5,0.7
2025-09-21T2100,2277A,116.8305,32.7727,淮南市,潘集区政府,,48,43,45,33,28,99,,121,112,8,13,5,5,0.4,0.4
2025-09-21T2100,2279A,116.8569,32.5951,淮南市,谢家集区政府,,49,49,30,28,22,84,,115,102,21,16,8,9,0.4,0.3
2025-09-21T2100,2280A,116.8281,32.633,淮南市,八公山区政府,颗粒物(PM10),51,51,43,30,22,90,,117,108,15,15,11,11,0.3,0.3
2025-09-21T2100,2281A,116.6325,32.6201,淮南市,焦岗湖风景区管理处,,,,,,,,,,,,,,,,
2025-09-21T2100,2894A,117.0566,32.6531,淮南市,经济技术开发区消防队,,49,49,36,11,14,86,,108,96,18,19,8,9,0.2,0.2
2025-09-21T2100,3329A,117.0108,32.5893,淮南市,山南新区,,49,49,20,23,13,100,,125,116,19,17,4,5,0.3,0.2
2025-09-21T2100,4209A,117.0031,32.6445,淮南市,国庆中路369号,,43,34,39,30,22,94,,123,113,17,14,6,6,0.4,0.3
2025-09-21T2100,2446A,114.9028,30.4742,黄冈市,职工中心,,32,24,16,22,13,66,,81,80,16,11,7,7,0.6,0.5
2025-09-21T2100,2929A,114.8858,30.4519,黄冈市,红卫路,,35,29,19,24,13,64,,80,79,15,11,6,5,0.5,0.4
2025-09-21T2100,3398A,114.9136,30.4445,黄冈市,市林业局,,38,38,21,26,11,60,,83,81,18,12,5,5,0.7,0.6
2025-09-21T2100,2672A,102.0199,35.5102,黄南藏族自治州,同仁县隆务镇,,34,34,32,10,17,49,,74,71,9,12,9,10,0.3,0.4
2025-09-21T2100,2295A,118.2903,29.6963,黄山市,延安路89号,,34,34,17,9,4,98,,96,96,6,5,3,4,0.2,0.2
2025-09-21T2100,2297A,118.1371,30.2756,黄山市,黄山区政府5号楼,,32,,19,22,14,72,,74,74,5,5,4,4,0.6,0.6
2025-09-21T2100,4210A,118.3354,29.7203,黄山市,滨江东路7-2号,,31,22,20,3,4,98,,94,94,5,7,3,3,0.5,0.5
2025-09-21T2100,2423A,115.0601,30.2313,黄石市,沈家营,,46,46,30,23,11,46,,68,66,12,9,8,9,0.5,0.5
2025-09-21T2100,2426A,114.8988,30.2019,黄石市,铁山,颗粒物(PM10),59,68,35,27,12,23,,62,55,34,10,6,6,1.1,1.1
2025-09-21T2100,2427A,115.0307,30.2092,黄石市,团城山,,44,44,30,28,13,53,,67,66,18,12,11,8,0.9,0.8
2025-09-21T2100,3149A,115.0235,30.1578,黄石市,笔架山北路,,41,41,42,17,7,48,,62,61,12,8,8,8,0.4,0.3
2025-09-21T2100,4185A,115.0780,30.21118,黄石市,磁湖东路29号,颗粒物(PM10),52,54,33,26,14,49,,62,61,12,11,10,8,0.7,0.5
2025-09-21T2100,1392A,114.4183,23.0528,惠州市,河南岸金山湖子站,,20,20,13,12,8,19,,35,29,13,11,8,8,0.5,0.5
2025-09-21T2100,1393A,114.4053,23.0822,惠州市,下埔横江三路子站,,21,21,16,10,9,15,,37,28,15,11,7,7,0.7,0.7
2025-09-21T2100,1394A,114.4103,23.1142,惠州市,江北云山西路子站,,19,19,13,11,8,16,,41,31,18,14,22,10,0.5,0.4
2025-09-21T2100,1395A,114.4645,22.7833,惠州市,惠阳区承修路船湖子站,,13,12,8,6,5,41,,43,42,12,10,7,7,0.5,0.5
2025-09-21T2100,1396A,114.5317,22.7422,惠州市,大亚湾管委会子站,,18,12,9,6,5,56,,46,46,8,10,9,9,0.4,0.4
2025-09-21T2100,3314A,114.4338,22.8134,惠州市,惠阳秋长,,17,17,8,7,7,33,,46,42,17,9,8,8,0.5,0.4
2025-09-21T2100,3452A,114.6517,22.775,惠州市,大亚湾霞涌,,25,,8,10,5,78,,54,54,5,6,9,8,0.7,0.7
2025-09-21T2100,2240A,130.9762,45.3001,鸡西市,环保局,颗粒物(PM10),56,62,24,26,9,6,,62,44,41,16,7,6,0.9,0.7
2025-09-21T2100,2243A,130.9429,45.3039,鸡西市,第一中学,颗粒物(PM10),68,85,24,18,7,30,,62,50,22,12,9,8,0.8,0.7
2025-09-21T2100,3707A,131.0207,45.3073,鸡西市,欧美日汽修厂,颗粒物(PM10),93,136,32,48,15,4,,60,40,36,18,9,9,0.9,0.7
2025-09-21T2100,3709A,130.9967,45.3106,鸡西市,市政设施管理处,颗粒物(PM10),56,61,27,28,10,2,,64,46,53,25,9,8,1.2,0.9
2025-09-21T2100,2367A,114.9754,27.0803,吉安市,红声器材厂,颗粒物(PM10),53,55,35,29,19,47,,56,56,11,8,9,9,0.9,0.8
2025-09-21T2100,2368A,114.9658,27.0999,吉安市,市森林工业局,颗粒物(PM10),53,56,34,31,20,40,,51,51,11,9,8,8,0.7,0.6
2025-09-21T2100,2369A,114.99,27.1312,吉安市,市环境监测站,颗粒物(PM10),55,59,31,32,18,53,,52,52,8,7,35,11,0.7,0.6
2025-09-21T2100,2370A,115.0093,27.0968,吉安市,青原区法院,,49,49,33,34,22,50,,54,54,8,4,10,9,0.9,0.9
2025-09-21T2100,1772A,126.54,43.8622,吉林市,哈达湾,,47,47,33,20,16,11,,78,61,58,24,6,11,0.7,0.5
2025-09-21T2100,1773A,126.5844,43.8358,吉林市,东局子,,39,39,26,18,15,19,,80,58,37,21,7,9,0.7,0.6
2025-09-21T2100,1774A,126.5052,43.8245,吉林市,电力学院,颗粒物(PM10),55,59,29,28,15,10,,77,58,38,19,7,11,0.6,0.5
2025-09-21T2100,1775A,126.6133,43.8972,吉林市,江北,,48,44,32,33,20,25,,71,54,22,16,7,10,0.7,0.6
2025-09-21T2100,1776A,126.555,43.8306,吉林市,江南公园,颗粒物(PM10),51,52,29,19,16,10,,76,56,44,22,4,7,0.5,0.4
2025-09-21T2100,1778A,126.7061,43.7133,吉林市,丰满,,,,,,,,,,,,,,,,
2025-09-21T2100,2868A,126.4739,43.953,吉林市,九站,颗粒物(PM10),63,76,38,31,20,4,,73,54,57,29,13,20,0.6,0.5
2025-09-21T2100,1299A,116.9862,36.6114,济南市,科干所,,36,36,39,17,18,80,,106,104,29,38,9,8,0.6,0.6
2025-09-21T2100,1300A,116.9376,36.665,济南市,农科所,颗粒物(PM10),57,63,49,34,20,52,,94,85,43,48,9,9,0.9,0.7
2025-09-21T2100,1301A,117.1265,36.6734,济南市,开发区,颗粒物(PM10),57,63,44,29,20,69,,121,109,41,37,11,9,0.9,0.7
2025-09-21T2100,1303A,117.0624,36.6868,济南市,省种子仓库,颗粒物(PM10),63,75,61,39,26,61,,109,94,48,50,9,7,0.9,0.8
2025-09-21T2100,1304A,116.9489,36.6447,济南市,机床二厂,颗粒物(PM10),57,63,58,32,24,74,,111,101,42,48,10,9,0.6,0.5
2025-09-21T2100,1305A,117.0495,36.663,济南市,市监测站,颗粒物(PM10),57,63,51,34,22,65,,109,94,43,40,5,4,1.0,0.8
2025-09-21T2100,1306A,116.7675,36.5484,济南市,长清党校,,44,44,35,27,17,70,,83,80,39,46,7,7,0.9,0.7
2025-09-21T2100,1616A,117.6795,36.229,济南市,技术学院,,25,19,35,17,21,78,,108,99,22,39,7,8,0.6,0.7
2025-09-21T2100,1961A,117.532,36.6868,济南市,东山小学,颗粒物(PM10),64,78,50,24,21,54,,114,84,51,41,12,9,0.6,0.6
2025-09-21T2100,3059A,117.7161,36.2049,济南市,泰兴公司,,29,29,39,9,20,70,,109,100,22,40,7,8,0.2,0.3
2025-09-21T2100,3064A,117.6867,36.2171,济南市,莱芜战役纪念馆,,26,22,40,17,25,83,,105,99,19,43,2,3,0.5,0.7
2025-09-21T2100,3494A,117.1673,36.9782,济南市,济阳区政府,颗粒物(PM10),56,61,57,29,26,92,,122,113,24,35,16,11,0.4,0.4
2025-09-21T2100,3495A,117.1171,36.63,济南市,锦屏中学,,,34,30,,10,70,,110,100,26,23,12,11,0.8,0.7
2025-09-21T2100,3682A,116.9814,36.6819,济南市,济南四建,颗粒物(PM10),58,66,58,29,28,74,,113,101,37,51,7,6,0.8,0.9
2025-09-21T2100,1653A,116.6251,35.4302,济宁市,火炬城,,40,40,41,22,22,80,,116,108,22,24,6,6,0.2,0.3
2025-09-21T2100,1655A,116.5491,35.4042,济宁市,电化厂,,36,36,43,19,22,96,,122,116,22,36,2,4,0.2,0.3
2025-09-21T2100,3500A,116.5814,35.3707,济宁市,北湖一中,,29,28,39,17,26,90,,110,106,15,29,1,3,0.3,0.4
2025-09-21T2100,3501A,116.8249,35.5593,济宁市,服务中心,,40,40,44,9,14,58,,100,94,33,34,6,7,0.3,0.4
2025-09-21T2100,3678A,116.5907,35.4054,济宁市,市第七中学,,38,38,50,14,21,82,,110,103,21,29,6,7,0.3,0.4
2025-09-21T2100,2255A,130.2751,46.8028,佳木斯市,佳纺,颗粒物(PM10),59,68,29,21,11,7,,52,32,33,20,5,4,0.5,0.4
2025-09-21T2100,2256A,130.3995,46.8307,佳木斯市,发电厂,颗粒物(PM10),51,51,27,19,8,3,,61,42,52,17,15,14,1.0,0.7
2025-09-21T2100,2257A,130.3258,46.7975,佳木斯市,环保局,,35,35,24,12,12,15,,58,41,36,21,8,8,0.6,0.6
2025-09-21T2100,2258A,130.3648,46.8032,佳木斯市,十一中,颗粒物(PM10),59,67,23,35,10,5,,57,38,50,21,12,12,0.7,0.5
2025-09-21T2100,2259A,130.3794,46.7588,佳木斯市,四丰,,,24,8,,5,23,,30,29,9,12,2,7,0.2,0.2
2025-09-21T2100,1252A,120.7436,30.778,嘉兴市,清河小学,,32,32,24,13,11,52,,107,92,28,15,6,7,0.6,0.8
2025-09-21T2100,1253A,120.726,30.7478,嘉兴市,嘉兴学院,,26,26,22,12,11,70,,120,102,23,18,4,5,0.6,0.7
2025-09-21T2100,2872A,120.7846,30.7525,嘉兴市,南湖区残联,,33,33,22,14,11,67,,114,97,21,15,6,6,0.6,0.7
2025-09-21T2100,3407A,120.6916,30.7739,嘉兴市,秀洲住建,,33,33,22,13,12,56,,113,97,34,19,7,7,0.6,0.7
2025-09-21T2100,1945A,98.2908,39.7711,嘉峪关市,气象局,颗粒物(PM10),97,144,120,27,26,82,,119,113,25,20,44,11,1.8,1
2025-09-21T2100,2884A,98.2672,39.7978,嘉峪关市,酒钢宾馆,颗粒物(PM10),95,139,135,31,32,94,,125,120,24,16,40,21,0.9,0.7
2025-09-21T2100,3248A,98.2643,39.7724,嘉峪关市,雄关区,,,119,103,45,30,79,,120,113,34,27,,15,0,0.5
2025-09-21T2100,1383A,113.1064,22.6058,江门市,北街,,9,9,13,3,9,20,,43,34,16,14,4,4,0.4,0.4
2025-09-21T2100,1384A,113.0731,22.5835,江门市,西区,,11,7,15,3,9,20,,47,34,22,20,8,8,0.4,0.5
2025-09-21T2100,1385A,113.0219,22.5311,江门市,圭峰西,,9,6,13,6,8,21,,54,47,16,12,3,3,0.5,0.6
2025-09-21T2100,1386A,113.0828,22.5947,江门市,东湖,,11,11,13,6,8,15,,43,31,17,16,6,6,0.4,0.4
2025-09-21T2100,3311A,113.1075,22.5647,江门市,江海富民,,27,27,25,15,12,21,,49,36,25,24,5,5,0.4,0.4
2025-09-21T2100,3449A,113.05,22.4667,江门市,新会银湖,,15,11,15,10,13,4,,42,34,24,16,2,3,0.6,0.6
2025-09-21T2100,1830A,113.1992,35.2590,焦作市,影视城,,,,30,,14,,,91,,,10,,8,,0.3
2025-09-21T2100,3335A,113.3137,35.2641,焦作市,马村街道办,,32,22,41,3,17,102,,103,103,9,15,1,3,0.2,0.5
2025-09-21T2100,3336A,113.2465,35.2373,焦作市,焦作技师学院,,34,8,31,3,14,106,,100,100,6,14,6,8,0.3,0.5
2025-09-21T2100,3477A,113.1656,35.2539,焦作市,中站许衡医院,,46,,32,32,31,116,,105,105,6,14,4,6,0.2,0.4
2025-09-21T2100,3981A,113.2449,35.1803,焦作市,原李万街道办,,35,34,47,3,17,112,,100,100,9,18,5,12,0.2,0.5
2025-09-21T2100,4264A,113.2340,35.2190,焦作市,新安路1731号,,35,24,41,3,18,109,,103,103,6,14,3,6,0.4,0.6
2025-09-21T2100,4295A,113.2722,35.2121,焦作市,人民路3066号,,34,22,44,3,12,108,,100,100,3,14,3,6,0.0,0.3
2025-09-21T2100,1708A,116.3701,23.5345,揭阳市,新兴,,30,30,19,15,11,16,,84,71,35,13,21,9,0.8,0.5
2025-09-21T2100,1709A,116.3264,23.5443,揭阳市,西马,颗粒物(PM10),51,52,20,13,9,57,,90,84,22,10,6,7,0.8,0.5
2025-09-21T2100,1710A,116.3611,23.5626,揭阳市,东兴,,28,28,19,14,9,25,,78,65,26,12,24,11,0.8,0.6
2025-09-21T2100,1711A,116.4151,23.5294,揭阳市,渔湖,,28,28,24,19,7,17,,88,71,27,9,16,8,0.7,0.6
2025-09-21T2100,3320A,116.403,23.5699,揭阳市,曲溪,,23,23,17,11,9,31,,82,70,22,11,22,8,0.6,0.4
2025-09-21T2100,1944A,102.1692,38.5167,金昌市,天庆家园,,36,36,33,12,20,69,,95,95,9,10,2,10,0.3,0.3
2025-09-21T2100,4022A,102.1647,38.5371,金昌市,金川区人防中心,,36,36,31,8,16,62,,93,92,11,10,4,8,0.5,0.6
2025-09-21T2100,4239A,102.1930,38.5319,金昌市,长春路96号,,19,8,34,3,16,59,,87,86,9,8,5,10,0.5,0.5
2025-09-21T2100,1262A,119.647,29.077,金华市,十五中,颗粒物(PM10),51,51,33,31,20,62,,92,88,29,21,5,4,0.7,0.6
2025-09-21T2100,1263A,119.686,29.1029,金华市,监测站,,48,48,34,27,19,64,,93,89,26,19,4,3,0.6,0.6
2025-09-21T2100,3659A,119.656,29.1131,金华市,气象局,,40,40,25,22,14,82,,95,94,22,19,6,5,0.4,0.4
2025-09-21T2100,1767A,121.1115,41.0879,锦州市,南山,,43,38,34,30,21,52,,114,100,47,26,6,10,0.7,0.7
2025-09-21T2100,1768A,121.0604,40.8428,锦州市,开发区,,,,42,26,21,1,,108,80,115,35,24,41,0.7,0.7
2025-09-21T2100,1769A,121.1836,41.1119,锦州市,百股街道,,31,31,30,17,14,54,,112,99,27,23,6,12,0.7,0.6
2025-09-21T2100,1770A,121.1178,41.1222,锦州市,天安街道,细颗粒物(PM2.5),65,69,44,47,22,41,,114,100,67,38,13,16,1.0,0.9
2025-09-21T2100,1771A,121.1303,41.1386,锦州市,北湖公园,颗粒物(PM10),52,53,34,35,17,62,,111,102,45,23,12,12,0.7,0.6
2025-09-21T2100,2160A,112.85,35.5051,晋城市,自来水公司,,29,27,42,3,18,91,,99,98,11,23,3,4,0.4,0.7
2025-09-21T2100,2161A,112.8318,35.4936,晋城市,白云商贸,,30,17,40,3,17,93,,100,100,8,21,3,3,0.4,0.6
2025-09-21T2100,2162A,112.8508,35.4887,晋城市,市环保局,,32,27,33,22,16,85,,93,92,12,22,3,4,0.3,0.6
2025-09-21T2100,2163A,112.8676,35.4897,晋城市,技术学院,,25,15,34,3,11,80,,90,89,12,22,4,5,0.3,0.5
2025-09-21T2100,2165A,112.8453,35.546,晋城市,白马寺,,34,10,32,10,23,108,,106,106,5,12,6,7,0.2,0.5
2025-09-21T2100,3620A,112.8271,35.4828,晋城市,泽州一中,,30,13,37,3,16,95,,105,104,8,17,2,3,0.3,0.6
2025-09-21T2100,2173A,112.7249,37.7067,晋中市,南都小区,,23,20,32,16,19,60,,85,78,24,23,4,6,0.6,0.6
2025-09-21T2100,2174A,112.6991,37.6982,晋中市,榆次区政府,,19,,28,13,15,58,,81,76,24,26,5,7,0.4,0.1
2025-09-21T2100,2865A,112.7195,37.6828,晋中市,榆次三中,,22,9,28,3,8,70,,81,78,15,24,7,8,0.0,0.1
2025-09-21T2100,4200A,112.7478,37.6954,晋中市,迎宾街26号,,22,9,28,3,8,69,,84,78,20,22,4,6,0.4,0.4
2025-09-21T2100,2439A,112.2014,31.0481,荆门市,竹园小学,,50,50,45,30,26,77,,83,83,15,15,1,2,0.4,0.4
2025-09-21T2100,2440A,112.1969,30.9891,荆门市,掇刀,颗粒物(PM10),52,53,44,35,27,83,,87,87,12,11,1,1,0.5,0.4
2025-09-21T2100,2441A,112.2213,31.0386,荆门市,石化一小,,49,49,43,32,29,69,,81,80,15,16,3,5,0.2,0.3
2025-09-21T2100,3012A,112.1849,31.0362,荆门市,西山林语,,44,44,38,28,22,82,,86,86,11,12,3,4,0.4,0.4
2025-09-21T2100,3547A,112.1632,31.0138,荆门市,龙泉中学南校,,31,31,30,15,19,89,,90,90,6,12,3,5,0.4,0.4
2025-09-21T2100,1844A,112.2494,30.3197,荆州市,市图书馆,,33,,28,23,20,68,,89,84,19,16,4,5,0.6,0.5
2025-09-21T2100,1845A,112.2008,30.3544,荆州市,市委党校,,38,38,28,25,19,62,,83,78,17,14,6,7,0.5,0.4
2025-09-21T2100,3194A,112.2747,30.3122,荆州市,管委会,,29,26,29,20,19,68,,83,78,13,15,6,7,0.6,0.5
2025-09-21T2100,4268A,112.1722,30.3366,荆州市,学苑路85号,,49,41,24,34,22,66,,89,85,14,11,4,4,0.5,0.4
2025-09-21T2100,2342A,117.3102,29.3867,景德镇市,王港中学,,,,,,,,,,,,,,,,
2025-09-21T2100,2343A,117.2117,29.2933,景德镇市,老干部活动中心,,19,19,11,11,8,27,,53,49,29,10,8,7,0.7,0.6
2025-09-21T2100,2344A,117.1894,29.2789,景德镇市,兽医站,,32,32,19,11,6,45,,58,57,11,6,5,4,0.8,0.7
2025-09-21T2100,2346A,117.2461,29.2956,景德镇市,陶研所,,18,18,14,12,10,46,,57,57,8,5,4,4,0.6,0.5
2025-09-21T2100,4289A,117.1542,29.2566,景德镇市,青少年活动中心,,22,18,12,15,7,46,,61,60,10,7,1,2,0.6,0.6
2025-09-21T2100,1803A,115.9872,29.6815,九江市,十里,,48,47,36,33,27,98,,100,100,14,11,5,4,0.8,0.7
2025-09-21T2100,1804A,115.9584,29.7046,九江市,茅山头,细颗粒物(PM2.5),54,50,36,38,28,98,,95,95,9,9,4,4,0.7,0.6
2025-09-21T2100,1805A,115.9877,29.7295,九江市,西园,,39,38,33,27,22,100,,101,101,20,17,5,4,0.9,0.8
2025-09-21T2100,1808A,115.9114,29.6038,九江市,综合工业园,,49,49,35,26,25,101,,93,93,12,14,7,6,0.8,0.8
2025-09-21T2100,1809A,116.0721,29.7535,九江市,石化总厂,颗粒物(PM10),53,55,43,26,29,98,,100,100,17,15,3,2,0.7,0.6
2025-09-21T2100,1810A,115.9773,29.5698,九江市,庐山气象台,,,,,,,,,,,,,,,,
2025-09-21T2100,3190A,116.0254,29.6994,九江市,外国语学校,细颗粒物(PM2.5),52,42,36,36,28,92,,89,89,17,17,3,2,0.7,0.6
2025-09-21T2100,4253A,116.0102,29.6594,九江市,莲花大道8号,颗粒物(PM10),53,55,43,25,23,86,,84,84,7,6,5,4,0.7,0.6
2025-09-21T2100,4240A,98.4958,39.7339,酒泉市,玉门东路5号,颗粒物(PM10),104,158,123,45,40,101,,118,117,5,17,7,11,0.2,0.4
2025-09-21T2100,4241A,98.5099,39.7506,酒泉市,北大街108号,颗粒物(PM10),98,146,113,28,33,94,,114,111,1,15,9,13,0.2,0.5
2025-09-21T2100,2698A,76.0072,39.4467,喀什地区,巡警大队,颗粒物(PM10),124,197,252,73,85,98,,114,114,16,44,4,6,0.4,0.5
2025-09-21T2100,2699A,75.9755,39.4694,喀什地区,吾办,颗粒物(PM10),123,196,182,78,98,90,,110,110,24,34,5,5,0.5,0.5
2025-09-21T2100,4027A,75.9483,39.4689,喀什地区,老干局,颗粒物(PM10),128,206,212,59,59,96,,113,113,17,27,3,3,0.3,0.3
2025-09-21T2100,1824A,114.3389,34.7781,开封市,肿瘤医院,细颗粒物(PM2.5),77,70,44,56,30,82,,98,93,27,28,6,4,0.9,0.8
2025-09-21T2100,1826A,114.2885,34.7965,开封市,世纪星幼儿园,细颗粒物(PM2.5),72,59,40,52,27,88,,100,97,22,25,7,6,0.9,0.8
2025-09-21T2100,3147A,114.3438,34.8106,开封市,龙亭公园,细颗粒物(PM2.5),65,76,45,47,24,74,,90,84,25,26,10,7,1.1,1
2025-09-21T2100,3210A,114.3644,34.7964,开封市,汴京公园,细颗粒物(PM2.5),72,79,49,52,30,79,,94,88,28,30,7,6,0.8,0.8
2025-09-21T2100,3473A,114.2485,34.8306,开封市,技师学院,细颗粒物(PM2.5),72,64,37,52,28,76,,90,87,24,23,9,7,1.0,0.8
2025-09-21T2100,3592A,114.4644,34.7556,开封市,祥符区生态环境局,颗粒物(PM10),60,70,41,41,25,64,,87,83,31,31,5,5,0.9,0.8
2025-09-21T2100,1951A,84.895,45.6094,克拉玛依市,长征新村,,22,8,8,3,6,70,,85,85,15,6,3,2,0.2,0.1
2025-09-21T2100,1952A,84.8988,45.5893,克拉玛依市,南林小区,,27,27,12,8,6,35,,82,78,33,10,6,5,0.4,0.2
2025-09-21T2100,1954A,84.905,44.3396,克拉玛依市,独山子区,,19,18,15,6,7,59,,92,88,29,10,4,4,0.4,0.2
2025-09-21T2100,1955A,85.6979,46.098,克拉玛依市,乌尔禾区商贸楼,,25,25,14,7,5,61,,85,84,17,8,3,3,0.3,0.2
2025-09-21T2100,3612A,85.1045,45.6899,克拉玛依市,白碱滩区新站,颗粒物(PM10),52,53,34,23,10,63,,90,90,19,9,4,4,0.3,0.2
2025-09-21T2100,2697A,76.1454,39.7142,克孜勒苏柯尔克孜自治州,市人民政府,颗粒物(PM10),117,183,184,73,70,92,,120,120,18,11,5,6,0.2,0.1
2025-09-21T2100,3665A,76.1658,39.7157,克孜勒苏柯尔克孜自治州,克州文化中心,颗粒物(PM10),110,169,189,66,70,101,,116,116,11,15,8,8,0.3,0.2
2025-09-21T2100,1450A,102.8204,24.8886,昆明市,呈贡新区,,23,,15,16,13,42,,77,70,22,15,2,5,0.5,0.5
2025-09-21T2100,1451A,102.6251,24.9608,昆明市,西山森林公园,,,,,,,,,,,,,,,,
2025-09-21T2100,1452A,102.7252,25.0902,昆明市,龙泉镇,,31,31,20,19,11,21,,68,62,30,14,2,2,0.5,0.4
2025-09-21T2100,1453A,102.7266,25.0375,昆明市,东风东路,,31,31,23,14,13,45,,80,72,19,14,4,5,0.4,0.3
2025-09-21T2100,1454A,102.6742,25.0669,昆明市,金鼎山,,29,29,29,12,10,40,,68,63,19,11,2,2,0.4,0.4
2025-09-21T2100,1455A,102.6644,25.0401,昆明市,碧鸡广场,,30,30,24,13,9,32,,68,60,26,18,8,9,0.6,0.5
2025-09-21T2100,3179A,102.7494,25.0119,昆明市,官渡区博物馆,,25,25,19,11,8,39,,78,71,23,13,2,3,0.5,0.3
2025-09-21T2100,3375A,102.8017,24.8336,昆明市,青年创业园,,22,19,19,15,13,22,,70,63,26,12,3,4,0.4,0.5
2025-09-21T2100,3550A,102.7997,24.9786,昆明市,昆明学院,,26,26,21,14,12,35,,73,66,25,13,7,8,0.5,0.5
2025-09-21T2100,3551A,102.5967,24.6736,昆明市,晋宁区生态环境分局,,26,26,20,17,10,44,,64,62,10,10,2,2,0.5,0.5
2025-09-21T2100,3552A,102.6678,24.9856,昆明市,云天化总部,,19,15,19,13,12,47,,77,71,13,14,4,6,0.3,0.4
2025-09-21T2100,1456A,91.1319,29.6514,拉萨市,八廓街,,30,30,12,10,8,55,,102,96,44,11,8,5,0.4,0.2
2025-09-21T2100,1457A,91.1221,29.6747,拉萨市,市环保局,,23,23,11,12,7,56,,104,98,25,12,8,8,0.5,0.1
2025-09-21T2100,1458A,91.0874,29.6475,拉萨市,区监测站,,36,27,11,7,6,35,,97,87,71,19,6,4,0.6,0.4
2025-09-21T2100,1459A,91.1774,29.6541,拉萨市,西藏大学,,23,13,9,9,6,73,,100,97,32,12,8,7,0.5,0.4
2025-09-21T2100,1460A,90.9798,29.6588,拉萨市,区辐射站,,20,19,20,8,9,64,,88,85,25,19,5,6,0.4,0.4
2025-09-21T2100,1461A,91.0834,29.6292,拉萨市,拉萨火车站,,24,20,11,14,7,74,,95,93,21,15,6,5,0.7,0.6
2025-09-21T2100,2520A,109.2203,23.7256,来宾市,来宾技工学校,,25,24,18,17,9,39,,62,56,11,8,9,9,0.7,0.6
2025-09-21T2100,3535A,109.1781,23.7297,来宾市,兴宾区政府,,26,22,20,18,12,28,,70,63,18,9,10,9,0.9,0.8
2025-09-21T2100,4002A,109.2416,23.7461,来宾市,中南小学,,21,21,18,9,8,33,,57,52,15,10,6,6,0.7,0.7
2025-09-21T2100,1477A,104.1373,35.9454,兰州市,榆中兰大校区,,,,,,,,,,,,,,,,
2025-09-21T2100,1479A,103.831,36.0464,兰州市,铁路设计院,颗粒物(PM10),75,99,49,45,29,2,,32,29,76,31,6,8,1.4,0.9
2025-09-21T2100,3241A,103.7439,36.0842,兰州市,百合公园,颗粒物(PM10),56,61,40,37,24,4,,41,40,65,20,6,5,0.8,0.6
2025-09-21T2100,3242A,103.9611,35.998,兰州市,和平,颗粒物(PM10),57,63,41,31,19,11,,49,47,40,26,8,8,0.8,0.7
2025-09-21T2100,4236A,103.6293,36.0938,兰州市,庄浪东路808号,细颗粒物(PM2.5),57,57,53,40,27,2,,39,36,60,36,13,15,0.6,0.6
2025-09-21T2100,4237A,103.7251,36.1043,兰州市,安宁西路88号,"颗粒物(PM10),细颗粒物(PM2.5)",55,59,44,39,35,26,,54,54,45,20,4,8,0.6,0.5
2025-09-21T2100,4238A,103.8470,36.0676,兰州市,北滨河东路1号,颗粒物(PM10),60,69,39,34,30,2,,43,40,72,27,6,8,0.9,0.6
2025-09-21T2100,3245A,103.6633,36.533,兰州新区,新区管委会,,44,44,38,27,28,53,,70,70,23,17,6,8,0.7,0.6
2025-09-21T2100,3246A,103.6975,36.4789,兰州新区,舟曲中学,,39,36,44,27,30,47,,60,60,24,19,11,21,0.6,0.8
2025-09-21T2100,1067A,116.6708,39.5111,廊坊市,药材公司,颗粒物(PM10),55,60,83,31,50,115,,158,150,26,45,7,8,0.4,0.6
2025-09-21T2100,1068A,116.7214,39.5589,廊坊市,开发区,颗粒物(PM10),70,90,82,46,42,90,,153,138,32,40,5,4,0.6,0.6
2025-09-21T2100,1070A,116.7244,39.5269,廊坊市,北华航天学院,颗粒物(PM10),65,79,74,16,48,109,,164,152,25,45,8,8,0.5,0.6
2025-09-21T2100,2919A,116.7022,39.5453,廊坊市,河北工业大学,颗粒物(PM10),56,62,69,26,45,114,,166,157,25,44,5,5,0.4,0.5
2025-09-21T2100,2535A,103.7723,29.5462,乐山市,花湖湾,,20,20,23,14,16,41,,45,44,16,14,5,5,0.2,0.3
2025-09-21T2100,2536A,103.7627,29.5844,乐山市,牛耳桥,,25,23,23,17,16,34,,52,50,25,17,5,5,0.6,0.6
2025-09-21T2100,2537A,103.7508,29.6006,乐山市,市第三水厂,,22,21,24,15,18,35,,49,47,25,18,4,4,0.7,0.6
2025-09-21T2100,2538A,103.7571,29.5664,乐山市,市监测站,,21,21,23,13,13,41,,53,52,16,11,5,6,0.7,0.7
2025-09-21T2100,3361A,103.7311,29.5628,乐山市,理工大学,,22,16,22,15,16,47,,55,54,13,11,6,7,0.7,0.7
2025-09-21T2100,2598A,100.2143,26.8576,丽江市,西南郊,,14,6,12,3,5,44,,52,51,10,6,7,7,1.0,0.8
2025-09-21T2100,2599A,100.2497,26.8802,丽江市,丽江古城,,22,22,19,14,9,46,,50,50,14,12,9,10,0.4,0.5
2025-09-21T2100,2600A,100.2203,26.8906,丽江市,市中心,,20,,12,14,9,45,,50,50,14,11,12,11,0.6,0.5
2025-09-21T2100,1267A,119.914,28.4514,丽水市,监测站大楼,,26,26,13,8,7,52,,65,64,12,12,5,4,0.5,0.5
2025-09-21T2100,1268A,119.93,28.4586,丽水市,莲都小学,,26,26,12,11,5,63,,66,66,13,14,3,3,0.5,0.6
2025-09-21T2100,1269A,119.879,28.4231,丽水市,余庄前,,33,33,18,13,9,8,,42,31,12,13,5,5,0.5,0.6
2025-09-21T2100,1173A,119.176,34.5885,连云港市,市环境监测站,,35,19,39,7,24,111,,125,123,11,33,6,7,0.6,0.9
2025-09-21T2100,3000A,119.3581,34.6972,连云港市,德源药业,,31,17,36,9,18,97,,115,110,17,41,4,5,0.5,0.7
2025-09-21T2100,3007A,119.178,34.844,连云港市,新城一中,,35,28,44,8,21,110,,129,124,10,24,4,9,0.4,0.7
2025-09-21T2100,3008A,119.3608,34.7519,连云港市,胡沟管理处,,36,17,24,3,11,115,,128,125,6,15,7,8,0.8,1
2025-09-21T2100,3009A,119.1478,34.5911,连云港市,矿山设计院,,34,19,39,9,25,108,,120,119,9,37,10,10,0.7,0.9
2025-09-21T2100,3434A,119.2413,34.6539,连云港市,工贸学校,,37,21,36,7,15,116,,129,127,7,14,8,9,0.7,0.9
2025-09-21T2100,3664A,119.4172,34.7341,连云港市,连云街道,,32,22,23,8,11,101,,124,120,22,16,6,6,0.4,0.5
2025-09-21T2100,2571A,102.3431,27.8099,凉山彝族自治州,青龙寺,,16,16,12,7,5,26,,58,50,4,3,4,4,0.6,0.6
2025-09-21T2100,2572A,102.2721,27.8415,凉山彝族自治州,邛海宾馆,,23,23,18,11,9,39,,59,56,18,9,10,9,0.5,0.5
2025-09-21T2100,2573A,102.2625,27.898,凉山彝族自治州,西昌市政府,,13,11,15,9,8,39,,60,57,6,7,3,5,0.4,0.4
2025-09-21T2100,2574A,102.2685,27.8851,凉山彝族自治州,凉山州政府,,26,26,20,18,16,34,,61,57,14,8,9,10,0.7,0.7
2025-09-21T2100,4229A,102.2342,27.8859,凉山彝族自治州,凯乐南路30号,,20,16,20,11,11,62,,59,59,6,15,11,11,0.6,0.8
2025-09-21T2100,2212A,123.2,41.1953,辽阳市,宏伟区,颗粒物(PM10),77,104,50,32,19,38,,100,89,47,32,3,6,1.0,0.7
2025-09-21T2100,2213A,123.1683,41.2495,辽阳市,新华园,颗粒物(PM10),87,124,60,46,21,31,,124,104,63,39,6,7,1.0,0.7
2025-09-21T2100,2214A,123.2354,41.2639,辽阳市,滨河路,颗粒物(PM10),70,90,56,24,20,1,,100,77,71,30,6,7,0.9,0.8
2025-09-21T2100,2215A,123.149,41.2991,辽阳市,铁西工业园,颗粒物(PM10),74,97,60,52,29,13,,102,78,71,35,5,6,0.8,0.7
2025-09-21T2100,2227A,125.1358,42.8845,辽源市,环保局,颗粒物(PM10),60,69,49,20,15,5,,91,64,46,19,9,10,0.7,0.5
2025-09-21T2100,3239A,125.0764,42.9078,辽源市,银鹰制药,颗粒物(PM10),57,63,31,21,14,2,,85,54,47,25,6,6,0.6,0.5
2025-09-21T2100,1625A,115.9848,36.4372,聊城市,区政府,颗粒物(PM10),60,70,49,41,24,53,,97,84,45,40,14,12,0.8,0.8
2025-09-21T2100,2878A,116.0072,36.4343,聊城市,聊大东校,颗粒物(PM10),69,88,54,41,30,76,,95,86,40,38,17,12,1.0,0.8
2025-09-21T2100,3200A,115.9819,36.4978,聊城市,监控中心,颗粒物(PM10),68,86,64,39,30,22,,73,53,66,62,10,11,0.7,0.7
2025-09-21T2100,3513A,116.0445,36.4361,聊城市,九州社区,颗粒物(PM10),64,78,55,35,24,86,,99,94,34,36,10,8,0.6,0.5
2025-09-21T2100,4018A,116.0567,36.4608,聊城市,星美广场,颗粒物(PM10),65,79,63,40,28,66,,89,81,41,48,13,10,0.6,0.6
2025-09-21T2100,2632A,94.3681,29.6376,林芝市,林芝监测站,,12,7,5,7,5,36,,48,45,9,5,4,4,0.5,0.4
2025-09-21T2100,2633A,94.3616,29.6616,林芝市,林芝人民医院,,12,10,7,8,4,34,,47,44,12,5,5,6,0.7,0.6
2025-09-21T2100,2603A,100.0781,23.8982,临沧市,市环保局,细颗粒物(PM2.5),57,,17,40,20,15,,37,29,8,6,11,8,0.4,0.4
2025-09-21T2100,2604A,100.0894,23.8822,临沧市,市气象局,,25,17,17,17,13,16,,31,26,9,7,8,8,0.5,0.5
2025-09-21T2100,1733A,111.5531,36.0783,临汾市,临钢医院,,23,8,42,3,15,72,,70,70,13,23,5,7,0.5,0.7
2025-09-21T2100,1734A,111.5028,36.0714,临汾市,技工学校,,22,13,37,12,25,70,,67,67,11,21,3,4,0.6,0.8
2025-09-21T2100,1736A,111.5018,36.0855,临汾市,市委,,24,21,48,3,17,76,,73,73,16,26,3,5,0.5,0.7
2025-09-21T2100,3018A,111.505,36.1014,临汾市,唐尧大酒店,,23,22,50,8,17,71,,68,68,19,26,5,6,0.5,0.7
2025-09-21T2100,4244A,111.4879,36.0530,临汾市,启星学校,,26,,37,18,27,81,,74,74,12,24,2,3,0.8,0.9
2025-09-21T2100,4271A,103.2464,35.6123,临夏回族自治州,滨河东路1号,颗粒物(PM10),64,78,51,30,29,0,,37,34,37,18,9,9,0.6,0.5
2025-09-21T2100,4310A,103.2093,35.5995,临夏回族自治州,新华街21号,颗粒物(PM10),58,66,36,32,27,25,,58,58,32,18,6,6,1.3,0.5
2025-09-21T2100,1618A,118.3429,35.0532,临沂市,沂河小区,,46,46,47,21,25,91,,125,118,25,37,11,10,0.5,0.6
2025-09-21T2100,1619A,118.295,35.0583,临沂市,鲁南制药厂,,44,44,48,18,26,104,,130,125,19,35,10,9,0.6,0.7
2025-09-21T2100,1620A,118.2794,34.9976,临沂市,新光毛纺厂,,46,46,53,26,31,101,,129,123,24,49,10,9,0.6,0.7
2025-09-21T2100,1621A,118.3956,35.0888,临沂市,河东保险公司,,39,39,42,14,22,96,,128,121,25,36,8,8,0.5,0.6
2025-09-21T2100,3370A,118.3564,35.0215,临沂市,十里堡居委,,34,34,46,14,20,101,,130,124,22,40,8,9,0.4,0.5
2025-09-21T2100,3496A,118.3604,35.1084,临沂市,南坊新区,,41,41,44,14,21,108,,130,126,23,39,9,10,0.6,0.6
2025-09-21T2100,3860A,118.3920,35.0300,临沂市,皇山花园小区,,39,39,49,11,23,93,,130,121,23,40,9,11,0.7,0.8
2025-09-21T2100,1870A,109.4856,24.3895,柳州市,柳东小学,,23,19,18,13,11,73,,72,72,7,8,5,5,0.6,0.5
2025-09-21T2100,1871A,109.4157,24.3277,柳州市,环保监测站,,22,18,16,15,10,69,,69,69,8,8,7,7,0.8,0.8
2025-09-21T2100,1872A,109.389,24.341,柳州市,河西水厂,,25,19,21,14,14,78,,78,78,9,8,6,5,0.5,0.5
2025-09-21T2100,1873A,109.4311,24.2921,柳州市,市四中,,22,15,14,9,8,68,,68,68,11,10,8,8,0.8,0.7
2025-09-21T2100,1874A,109.4006,24.3631,柳州市,市九中,,23,22,21,16,12,70,,70,70,9,7,3,2,0.8,0.7
2025-09-21T2100,1875A,109.4958,24.3134,柳州市,古亭山,,23,21,14,11,6,72,,71,71,9,7,7,8,0.6,0.6
2025-09-21T2100,3402A,109.5422,24.3996,柳州市,市二中,,23,13,13,9,8,72,,77,77,11,9,6,6,0.8,0.7
2025-09-21T2100,2307A,116.5079,31.737,六安市,监测大楼,细颗粒物(PM2.5),63,53,32,45,24,40,,111,98,34,13,6,6,0.8,0.6
2025-09-21T2100,2308A,116.4738,31.7643,六安市,皖西学院,细颗粒物(PM2.5),53,54,28,37,25,62,,116,104,16,9,3,3,0.6,0.4
2025-09-21T2100,2309A,116.4996,31.7905,六安市,朝阳厂,细颗粒物(PM2.5),59,56,32,42,22,54,,111,101,28,17,2,2,0.6,0.4
2025-09-21T2100,2310A,116.5567,31.7886,六安市,开发区,,42,42,23,25,21,60,,109,100,19,13,3,2,0.6,0.4
2025-09-21T2100,2576A,104.8,26.5892,六盘水市,窑上,,,,30,29,21,60,,65,65,4,4,13,13,0.3,0.3
2025-09-21T2100,2577A,104.83,26.5917,六盘水市,黄土坡,,23,23,16,16,12,62,,68,68,8,8,2,3,0.1,0.1
2025-09-21T2100,2578A,104.89,26.5939,六盘水市,水钢,,25,25,22,15,7,59,,69,69,6,4,3,3,0.3,0.2
2025-09-21T2100,2579A,104.8475,26.5894,六盘水市,民中,,28,28,14,14,9,60,,68,68,8,6,2,2,0.4,0.3
2025-09-21T2100,2580A,104.9544,26.5506,六盘水市,双水,,25,22,18,17,11,59,,66,66,10,6,3,3,0.2,0.2
2025-09-21T2100,2335A,117.0189,25.1181,龙岩市,龙岩师专,,,,,,,,,,,,,,,,
2025-09-21T2100,2336A,117.0217,25.1033,龙岩市,龙岩市监测站,,10,,16,3,10,29,,59,44,8,11,12,8,0.4,0.5
2025-09-21T2100,2337A,117.0258,25.0661,龙岩市,闽西职业技术学院,,9,8,19,3,7,26,,54,40,7,9,7,11,0.4,0.4
2025-09-21T2100,2338A,117.0196,25.0306,龙岩市,龙岩学院,,13,13,16,3,6,14,,49,33,12,9,6,6,0.5,0.5
2025-09-21T2100,2665A,105.0822,33.3261,陇南市,汉王镇固水子,,,,,,,,,,,,,,,,
2025-09-21T2100,2885A,104.9339,33.3826,陇南市,滨江中学,,38,38,24,16,10,21,,37,34,15,7,5,5,0.8,0.8
2025-09-21T2100,3247A,104.955,33.371,陇南市,市总工会,,44,44,31,13,8,15,,35,30,21,9,7,7,0.8,0.7
2025-09-21T2100,2487A,111.9589,27.8901,娄底市,电视发射台,,24,13,20,3,11,75,,87,74,5,5,6,5,0.5,0.5
2025-09-21T2100,2488A,111.9975,27.725,娄底市,市监测站,,21,11,25,7,13,65,,69,68,10,11,6,7,0.8,0.9
2025-09-21T2100,2489A,112.0194,27.7314,娄底市,市委党校,,22,19,22,12,17,70,,80,73,8,7,3,3,0.3,0.3
2025-09-21T2100,2490A,111.9561,27.7569,娄底市,涟钢,,28,26,28,19,17,50,,62,58,14,11,2,2,1.0,0.6
2025-09-21T2100,2491A,111.9892,27.7044,娄底市,市政府,,23,10,19,3,16,72,,72,71,6,7,6,7,0.6,0.7
2025-09-21T2100,1893A,105.4324,28.9634,泸州市,九狮山,,27,27,26,3,9,29,,51,45,8,6,6,5,0.4,0.3
2025-09-21T2100,1894A,105.4427,28.9063,泸州市,小市上码头,,14,14,16,6,6,25,,40,35,11,10,5,5,0.5,0.5
2025-09-21T2100,1895A,105.4241,28.8573,泸州市,兰田宪桥,,16,16,20,8,7,29,,55,43,18,11,5,4,0.7,0.7
2025-09-21T2100,1896A,105.4379,28.8833,泸州市,市环监站,,19,19,20,8,10,21,,47,32,22,18,7,7,0.6,0.5
2025-09-21T2100,4272A,105.3689,28.7783,泸州市,纳溪中医医院,,,16,16,9,11,,,59,50,10,12,2,2,0.6,0.7
2025-09-21T2100,2183A,111.1406,37.5211,吕梁市,环保局,,19,10,47,7,18,60,,66,66,25,41,1,4,0.3,0.4
2025-09-21T2100,2185A,111.1297,37.5136,吕梁市,自来水公司,,20,14,54,3,16,63,,68,68,17,31,2,5,0.4,0.6
2025-09-21T2100,2867A,111.1283,37.51,吕梁市,马茂庄小学,,21,12,54,3,17,67,,64,64,20,39,3,6,0.3,0.5
2025-09-21T2100,1812A,112.3931,34.6516,洛阳市,市委党校,,30,16,36,14,27,95,,87,87,14,35,6,6,0.5,0.7
2025-09-21T2100,1815A,112.494,34.6886,洛阳市,河南林校,,32,21,41,14,31,102,,92,92,14,34,5,7,0.4,0.6
2025-09-21T2100,1816A,112.3844,34.623,洛阳市,开发区管委会,,36,20,34,18,25,114,,101,101,7,19,4,7,0.6,0.8
2025-09-21T2100,1817A,112.4267,34.6258,洛阳市,市委新办公区,,30,,38,17,28,95,,80,80,12,23,6,8,0.4,0.6
2025-09-21T2100,3340A,112.6005,34.6326,洛阳市,伊滨,,29,,28,9,27,92,,78,78,15,26,5,5,0.4,0.7
2025-09-21T2100,3341A,112.4951,34.6332,洛阳市,中移产业园,,29,21,44,9,26,92,,79,79,14,37,5,7,0.4,0.8
2025-09-21T2100,3593A,112.5736,34.8993,洛阳市,吉利监测站,,29,16,41,8,28,92,,92,92,10,25,5,6,0.4,0.6
2025-09-21T2100,3635A,112.3677,34.662,洛阳市,河科大西苑校区,,33,14,44,12,21,104,,96,96,11,36,6,8,0.4,0.7
2025-09-21T2100,3636A,112.4388,34.6781,洛阳市,英才小学,,30,,43,14,29,94,,85,85,10,34,5,6,0.5,0.8
2025-09-21T2100,4214A,112.4600,34.6949,洛阳市,春都路1号院,,29,,35,12,25,91,,81,81,13,31,8,9,0.4,0.5
2025-09-21T2100,2399A,114.051,33.5699,漯河市,三五一五工厂,,46,46,36,30,20,90,,115,111,18,18,7,7,0.6,0.5
2025-09-21T2100,2400A,114.0055,33.5698,漯河市,漯河大学,,49,45,33,34,24,90,,116,112,17,16,6,6,0.4,0.4
2025-09-21T2100,2401A,114.0138,33.5828,漯河市,市水利局,颗粒物(PM10),51,51,39,34,25,87,,112,108,18,16,7,7,0.6,0.5
2025-09-21T2100,2402A,114.0261,33.5698,漯河市,市广电局,颗粒物(PM10),55,59,41,32,23,94,,124,119,16,14,4,4,0.5,0.5
2025-09-21T2100,3478A,113.9749,33.5664,漯河市,市图书馆,,44,44,35,28,21,96,,114,112,16,16,6,7,0.6,0.6
2025-09-21T2100,4250A,114.0892,33.5882,漯河市,韶山路11号,,46,44,35,32,23,73,,107,101,24,19,5,5,0.6,0.5
2025-09-21T2100,1798A,118.5092,31.6837,马鞍山市,湖东路四小,颗粒物(PM10),52,54,39,28,21,103,,141,136,28,18,8,7,0.7,0.6
2025-09-21T2100,1799A,118.5024,31.6449,马鞍山市,开发区,,,61,39,35,20,,,138,137,42,21,13,8,0.7,0.6
2025-09-21T2100,1802A,118.6245,31.7241,马鞍山市,濮塘,,36,36,32,22,21,108,,150,146,14,13,8,9,1.1,1
2025-09-21T2100,3633A,118.4918,31.6809,马鞍山市,雨山,,49,49,35,25,18,113,,140,136,27,20,4,4,0.9,0.8
2025-09-21T2100,4191A,118.5274,31.72227,马鞍山市,慈湖高新区,,40,40,36,20,16,110,,134,130,26,21,6,5,0.5,0.5
2025-09-21T2100,1686A,111.0286,21.4688,茂名市,电白南海,,22,22,27,9,16,48,,62,61,13,14,4,6,0.5,0.5
2025-09-21T2100,1687A,110.9294,21.6533,茂名市,茂石化七小,,19,19,23,9,14,38,,47,46,10,10,6,7,0.7,0.6
2025-09-21T2100,1688A,110.9107,21.6687,茂名市,健康路,,18,,16,12,14,41,,53,52,14,12,7,9,1.1,1
2025-09-21T2100,1689A,110.8592,21.6828,茂名市,高岭,,,31,35,9,13,46,,49,49,15,17,9,16,,0.6
2025-09-21T2100,3450A,111.01,21.5165,茂名市,电白水东,,18,14,23,12,12,51,,61,60,12,11,7,8,0.8,0.8
2025-09-21T2100,2539A,104.0308,30.0478,眉山市,黑龙滩水库,,18,13,11,12,9,37,,44,44,6,3,3,3,0.4,0.3
2025-09-21T2100,2540A,103.8416,30.0874,眉山市,气象局,,27,27,27,3,13,33,,52,44,18,14,9,10,0.5,0.4
2025-09-21T2100,3137A,103.8578,30.0744,眉山市,市委党校,,14,14,19,3,8,30,,48,41,17,15,7,8,0.6,0.6
2025-09-21T2100,3148A,103.8291,30.0564,眉山市,区人社局,,35,35,36,7,8,32,,51,44,19,14,8,9,0.7,0.7
2025-09-21T2100,1690A,116.1231,24.3284,梅州市,梅江月梅,,12,12,9,3,4,20,,43,36,13,8,8,8,0.6,0.5
2025-09-21T2100,1691A,116.0797,24.2719,梅州市,梅县新城,,13,13,10,3,3,8,,49,40,21,6,6,7,0.5,0.5
2025-09-21T2100,1692A,116.1248,24.2654,梅州市,环境监控中心,,32,,10,22,8,12,,38,30,16,8,4,7,0.5,0.5
2025-09-21T2100,3315A,116.1233,24.2991,梅州市,梅龙,,10,9,8,7,4,17,,40,34,15,5,8,8,0.7,0.5
2025-09-21T2100,1878A,104.7778,31.4741,绵阳市,富乐山,,15,14,17,8,6,48,,38,38,4,5,8,8,0.6,0.6
2025-09-21T2100,1880A,104.6697,31.4668,绵阳市,高新区自来水公司,,9,6,7,3,1,28,,25,25,8,9,7,7,0.6,0.6
2025-09-21T2100,1881A,104.7287,31.5075,绵阳市,三水厂,,14,6,7,3,2,42,,40,40,4,5,10,11,0.6,0.6
2025-09-21T2100,3491A,104.69,31.5322,绵阳市,西科大附属小学,,13,6,8,3,3,41,,39,39,7,9,8,8,0.5,0.6
2025-09-21T2100,3492A,104.5648,31.5343,绵阳市,安州区旅游局,,11,6,6,3,2,33,,33,33,7,8,5,6,0.3,0.5
2025-09-21T2100,4226A,104.7651,31.4531,绵阳市,绵阳市气象局,,14,,7,3,6,44,,36,34,4,5,7,7,0.4,0.4
2025-09-21T2100,1784A,129.61,44.561,牡丹江市,环保大楼,,33,33,22,16,16,23,,67,56,20,18,5,6,0.3,0.3
2025-09-21T2100,1785A,129.6115,44.5782,牡丹江市,文化广场,,43,43,31,28,26,16,,66,53,32,21,6,7,0.7,0.5
2025-09-21T2100,1786A,129.5904,44.5963,牡丹江市,第一医院,细颗粒物(PM2.5),55,49,29,39,25,5,,64,46,34,18,5,6,0.6,0.4
2025-09-21T2100,1787A,129.6364,44.6075,牡丹江市,机车工厂,,44,44,28,30,19,20,,69,54,18,13,6,7,0.4,0.4
2025-09-21T2100,1788A,129.6386,44.5462,牡丹江市,第一中学,,40,28,22,28,17,28,,65,51,11,15,4,4,0.2,0.3
2025-09-21T2100,2531A,105.0703,29.61,内江市,市监测站,,15,15,11,10,8,20,,43,37,10,9,2,2,0.6,0.5
2025-09-21T2100,2532A,105.0717,29.5947,内江市,东兴区政府,,7,6,8,3,4,22,,42,39,10,10,4,4,0.5,0.5
2025-09-21T2100,2533A,105.0653,29.5817,内江市,内江二中,,15,15,14,7,11,20,,40,36,13,12,2,2,0.6,0.6
2025-09-21T2100,2534A,105.0406,29.5822,内江市,内江日报社,,21,21,13,7,11,28,,44,42,8,13,3,3,0.6,0.5
2025-09-21T2100,2628A,92.0657,31.4846,那曲市,那曲监测站,,28,21,17,18,9,87,,97,96,20,13,7,5,0.6,0.4
2025-09-21T2100,4243A,92.0515,31.4787,那曲市,那曲市委宣传部,,33,10,8,8,5,104,,114,114,9,7,5,4,0.3,0.3
2025-09-21T2100,1290A,115.8931,28.6843,南昌市,省外办,,,54,37,44,27,56,,67,67,,2,4,4,0.5,0.4
2025-09-21T2100,1291A,115.8886,28.7003,南昌市,省林业公司,细颗粒物(PM2.5),52,51,28,36,23,55,,66,66,13,7,2,2,0.8,0.7
2025-09-21T2100,1292A,115.8126,28.7442,南昌市,林科所,,42,31,17,29,16,70,,70,70,14,11,8,8,0.4,0.3
2025-09-21T2100,1294A,115.8518,28.687,南昌市,建工学校,细颗粒物(PM2.5),58,64,42,41,26,66,,66,66,30,24,8,8,1.0,0.9
2025-09-21T2100,1295A,115.8921,28.6424,南昌市,象湖,"颗粒物(PM10),细颗粒物(PM2.5)",52,53,33,36,22,65,,77,77,22,17,7,7,1.0,0.8
2025-09-21T2100,1296A,115.7423,28.7996,南昌市,武术学校,细颗粒物(PM2.5),52,38,18,36,17,32,,45,43,10,11,6,6,0.7,0.6
2025-09-21T2100,3046A,115.9084,28.6062,南昌市,机电学校,细颗粒物(PM2.5),58,63,39,41,25,68,,83,83,19,13,6,6,0.8,0.6
2025-09-21T2100,3690A,115.9721,28.7031,南昌市,外国语学校,细颗粒物(PM2.5),59,55,37,42,22,70,,84,84,21,15,7,7,0.7,0.5
2025-09-21T2100,4192A,115.9316,28.68677,南昌市,南京东路235号,细颗粒物(PM2.5),57,57,38,40,23,72,,85,85,20,14,4,3,1.1,1
2025-09-21T2100,1905A,106.056,30.8064,南充市,西山风景区,,,,,,,,,,,,,,,,
2025-09-21T2100,1906A,106.0789,30.8023,南充市,南充市委,,10,9,10,7,6,26,,25,25,10,11,3,3,0.4,0.4
2025-09-21T2100,1907A,106.1031,30.8217,南充市,南充炼油厂,,26,26,19,3,6,30,,29,29,6,7,5,5,0.1,0.2
2025-09-21T2100,4227A,106.1083,30.7884,南充市,梨树横街98号,,18,,10,12,7,34,,33,33,5,5,3,4,0.2,0.3
2025-09-21T2100,4304A,106.1172,30.843,南充市,清泉寺北路188号,,15,15,9,3,5,36,,34,34,5,6,4,4,0.3,0.3
2025-09-21T2100,4305A,106.067,30.7616,南充市,同庆路1号,,10,6,9,3,3,29,,27,27,11,11,5,5,0.3,0.3
2025-09-21T2100,1151A,118.8086,32.1065,南京市,迈皋桥,,27,26,26,14,19,85,,143,126,12,11,3,4,0.4,0.5
2025-09-21T2100,1152A,118.7538,32.0551,南京市,草场门,,27,27,32,14,17,77,,130,118,22,19,4,4,0.5,0.5
2025-09-21T2100,1153A,118.7794,32.0745,南京市,山西路,,29,29,34,9,12,84,,141,127,16,14,5,4,0.5,0.5
2025-09-21T2100,1154A,118.7752,32.0023,南京市,中华门,,,22,29,12,15,81,,135,125,19,16,4,4,,0.5
2025-09-21T2100,1155A,118.8109,32.0309,南京市,瑞金路,,24,24,28,14,16,76,,129,117,8,5,6,7,0.3,0.3
2025-09-21T2100,1156A,118.7997,32.0754,南京市,玄武湖,,28,28,30,8,9,74,,130,115,11,11,4,4,0.4,0.4
2025-09-21T2100,1157A,118.6414,32.0931,南京市,浦口,,30,30,35,12,14,74,,133,120,26,19,7,7,0.4,0.4
2025-09-21T2100,1158A,118.7356,31.9996,南京市,奥体中心,,30,24,33,9,16,95,,147,138,15,12,8,8,0.4,0.4
2025-09-21T2100,1159A,118.9125,32.1028,南京市,仙林大学城,,39,39,34,9,13,79,,139,120,17,12,8,8,0.6,0.6
2025-09-21T2100,3422A,118.8436,31.9198,南京市,江宁彩虹桥,,45,45,31,19,17,106,,143,137,22,12,6,5,0.7,0.6
2025-09-21T2100,3427A,118.8554,32.3578,南京市,六合雄州,,28,25,29,8,17,87,,142,122,12,12,8,7,0.4,0.5
2025-09-21T2100,4249A,118.8708,31.3402,南京市,汶溪路181号,,32,22,26,22,22,88,,114,108,20,17,5,5,0.7,0.7
2025-09-21T2100,4312A,119.019,31.6512,南京市,中山西路1号,,33,29,30,19,19,104,,126,123,20,17,4,4,0.8,0.8
2025-09-21T2100,1401A,108.3103,22.7881,南宁市,二十一中,,22,,24,15,19,58,,76,73,10,8,6,6,0.6,0.6
2025-09-21T2100,1402A,108.3141,22.8528,南宁市,北湖,,29,29,26,18,18,61,,81,76,11,10,5,6,0.7,0.7
2025-09-21T2100,1403A,108.3206,22.8225,南宁市,市监测站,,28,21,23,19,21,53,,69,65,12,11,6,6,0.7,0.7
2025-09-21T2100,1404A,108.3829,22.8037,南宁市,大自然花园,,26,26,26,14,19,58,,72,68,9,9,5,7,0.8,0.8
2025-09-21T2100,1405A,108.4394,22.7904,南宁市,仙葫,,23,,22,16,16,58,,74,70,6,5,3,5,0.8,0.7
2025-09-21T2100,1406A,108.2397,22.8467,南宁市,区农职院,,26,23,30,18,20,58,,83,76,13,13,4,5,0.6,0.5
2025-09-21T2100,1407A,108.3275,22.735,南宁市,英华嘉园,,25,,23,17,20,57,,76,72,9,8,2,3,0.6,0.5
2025-09-21T2100,3401A,108.4834,22.7618,南宁市,红星社区,,17,17,24,8,15,53,,74,70,9,10,4,4,0.5,0.5
2025-09-21T2100,4221A,108.2177,22.7774,南宁市,乐贤路16号,,30,30,32,16,23,52,,79,73,16,23,8,7,0.7,0.7
2025-09-21T2100,2331A,118.0966,26.6761,南平市,茫荡山,,,,9,,4,,,39,,,,,2,,0.3
2025-09-21T2100,2332A,118.1681,26.6369,南平市,南平市监测站,,12,12,9,6,7,20,,54,44,11,6,4,4,0.5,0.4
2025-09-21T2100,2333A,118.1825,26.6489,南平市,南平铝业有限公司,,20,20,12,6,6,29,,59,51,15,7,4,4,0.6,0.5
2025-09-21T2100,2334A,118.1756,26.6272,南平市,南平七中,,20,20,16,3,6,12,,53,40,8,4,3,4,0.7,0.5
2025-09-21T2100,1168A,120.9098,31.9663,南通市,狼山街道,,23,21,20,7,10,72,,103,97,15,10,3,4,0.6,0.7
2025-09-21T2100,1169A,120.86,32.0005,南通市,虹桥,,26,18,19,9,13,83,,110,104,12,10,3,3,0.4,0.4
2025-09-21T2100,1170A,120.87,32.02,南通市,城中,,,30,29,14,11,,,104,101,22,15,2,2,0.5,0.6
2025-09-21T2100,1171A,120.94,31.93,南通市,星湖花园,,26,12,18,6,10,81,,108,103,13,9,3,3,0.6,0.7
2025-09-21T2100,1172A,120.81,32.0417,南通市,紫琅学院,,26,26,24,11,10,68,,100,92,18,12,3,5,0.7,0.7
2025-09-21T2100,3291A,121.067,32.062,南通市,通州监测站,,,9,16,3,9,91,,111,107,5,5,1,2,,0.8
2025-09-21T2100,3432A,120.9348,31.9883,南通市,环境教育馆,,29,29,28,11,11,73,,110,102,17,10,4,3,0.3,0.3
2025-09-21T2100,2404A,112.5224,33.0122,南阳市,瓦房庄,颗粒物(PM10),52,54,37,23,16,95,,105,104,12,11,9,9,0.6,0.6
2025-09-21T2100,2405A,112.5003,32.9735,南阳市,汉画馆,,46,46,32,28,20,91,,100,100,15,13,9,9,0.7,0.6
2025-09-21T2100,2406A,112.5573,33.027,南阳市,气象站,,45,45,35,27,17,95,,108,105,10,10,9,9,0.6,0.5
2025-09-21T2100,2407A,112.5481,32.9689,南阳市,理工学院,颗粒物(PM10),52,53,38,17,7,98,,107,106,12,12,10,9,0.7,0.7
2025-09-21T2100,4008A,112.5234,32.9922,南阳市,卧龙区政府,,47,47,32,24,17,96,,103,103,14,13,8,7,0.7,0.6
2025-09-21T2100,1234A,121.8358,29.911,宁波市,区环保大楼,,25,25,19,8,10,79,,119,102,27,16,6,6,0.4,0.4
2025-09-21T2100,1235A,121.56,29.82,宁波市,万里学院,,30,21,18,8,8,96,,128,118,14,11,8,7,0.5,0.6
2025-09-21T2100,1236A,121.713,29.9572,宁波市,龙赛医院,,29,28,21,7,8,90,,115,103,13,13,6,6,0.3,0.4
2025-09-21T2100,1239A,121.633,29.7733,宁波市,钱湖水厂,,26,23,16,10,9,81,,123,110,15,13,6,6,0.5,0.6
2025-09-21T2100,1240A,121.5856,29.8635,宁波市,太古小学,,28,24,17,8,8,89,,122,111,13,9,4,3,0.5,0.6
2025-09-21T2100,1241A,121.524,29.8674,宁波市,市环境监测中心,,28,19,17,9,7,87,,117,106,16,13,7,8,0.6,0.7
2025-09-21T2100,2871A,121.6147,29.9017,宁波市,万里国际学校,,29,24,22,10,9,92,,127,115,17,11,6,5,0.6,0.7
2025-09-21T2100,3710A,121.5594,29.8975,宁波市,白沙活动中心,,28,23,32,7,7,89,,124,110,19,13,7,9,0.2,0.3
2025-09-21T2100,2339A,119.5001,26.6946,宁德市,金涵水库,,,,15,,7,,,15,,,4,,1,,0.5
2025-09-21T2100,2341A,119.5388,26.6612,宁德市,宁德市监测站,,28,21,16,12,9,88,,68,68,10,14,4,4,0.6,0.6
2025-09-21T2100,3209A,119.5231,26.6562,宁德市,宁德一中,,29,29,16,3,6,88,,72,72,10,8,5,5,0.4,0.4
2025-09-21T2100,2618A,98.8601,25.8567,怒江傈僳族自治州,州监测站,,39,39,27,22,15,17,,51,42,16,10,6,5,0.6,0.5
2025-09-21T2100,2619A,98.8546,25.8417,怒江傈僳族自治州,泸水一中,,25,21,21,17,13,4,,38,30,20,11,4,4,0.5,0.4
2025-09-21T2100,1888A,101.6891,26.571,攀枝花市,弄弄坪,,36,36,39,16,16,34,,70,60,17,17,6,12,0.6,0.7
2025-09-21T2100,1889A,101.5769,26.5928,攀枝花市,河门口,,19,19,29,10,14,34,,70,63,7,12,8,16,0.6,1
2025-09-21T2100,1890A,101.7169,26.585,攀枝花市,炳草岗,,28,28,41,15,17,30,,71,62,24,21,6,16,0.7,0.8
2025-09-21T2100,1891A,101.7369,26.5008,攀枝花市,仁和,,39,39,23,27,15,21,,58,47,15,12,8,9,0.7,0.7
2025-09-21T2100,2835A,101.7227,26.567,攀枝花市,四十中小,,33,33,33,15,17,22,,69,58,34,20,10,18,1.2,0.9
2025-09-21T2100,1604A,122.0303,41.1489,盘锦市,开发区,细颗粒物(PM2.5),67,67,34,48,24,25,,106,87,68,31,19,10,0.7,0.5
2025-09-21T2100,1605A,122.0485,41.0883,盘锦市,兴隆台,二氧化氮,51,43,35,20,20,8,,122,91,101,44,9,14,0.5,0.4
2025-09-21T2100,1606A,121.8297,41.1028,盘锦市,新生街道,,39,18,25,16,15,14,,111,90,78,34,6,7,0.4,0.4
2025-09-21T2100,1832A,113.3257,33.742,平顶山市,新华旅馆,颗粒物(PM10),67,84,49,40,28,79,,89,89,18,23,7,7,0.4,0.4
2025-09-21T2100,1833A,113.2919,33.737,平顶山市,规划设计院,颗粒物(PM10),52,54,51,33,32,80,,90,90,21,22,5,5,0.6,0.6
2025-09-21T2100,1834A,113.182,33.774,平顶山市,平顶山工学院,,48,48,42,31,26,82,,95,95,18,16,8,8,0.5,0.5
2025-09-21T2100,3204A,113.3025,33.73,平顶山市,规划局,颗粒物(PM10),57,63,49,37,32,85,,97,96,21,21,8,8,0.6,0.6
2025-09-21T2100,3594A,112.8867,33.9116,平顶山市,石龙区,颗粒物(PM10),58,66,43,36,27,76,,105,103,25,26,8,9,0.6,0.6
2025-09-21T2100,2656A,106.6692,35.5461,平凉市,聚贤嘉苑,,28,23,30,19,19,69,,86,80,12,12,8,9,0.6,0.6
2025-09-21T2100,2657A,106.7021,35.5307,平凉市,博物馆,,31,31,30,17,14,74,,85,80,9,11,9,9,0.5,0.6
2025-09-21T2100,2347A,114.0997,27.5002,萍乡市,武功山,,19,19,10,7,6,33,,45,42,6,7,14,14,0.6,0.7
2025-09-21T2100,2348A,113.8385,27.6434,萍乡市,中医院,细颗粒物(PM2.5),74,61,40,54,29,48,,50,50,13,18,17,10,0.8,0.9
2025-09-21T2100,2349A,113.8493,27.6253,萍乡市,市政府车库,,50,,28,35,25,50,,52,52,14,18,12,14,0.7,0.7
2025-09-21T2100,2350A,113.8676,27.6435,萍乡市,市环保局,颗粒物(PM10),52,54,32,35,25,51,,54,54,10,13,10,12,0.5,0.6
2025-09-21T2100,2351A,113.866,27.6198,萍乡市,安源区政府,细颗粒物(PM2.5),84,,29,62,33,39,,48,47,21,16,10,15,0.8,0.7
2025-09-21T2100,2319A,119.0141,25.4325,莆田市,荔城区仓后路,,24,20,24,3,7,74,,70,70,5,7,7,7,0.6,0.4
2025-09-21T2100,2320A,119.0015,25.4553,莆田市,莆田市监测站,,25,16,12,3,3,77,,70,70,4,6,6,6,0.5,0.5
2025-09-21T2100,2321A,119.1119,25.4561,莆田市,涵江区六中,,27,18,20,3,5,86,,80,80,4,7,4,5,0.3,0.3
2025-09-21T2100,2322A,119.1013,25.3215,莆田市,秀屿区政府,,28,19,23,3,9,89,,83,83,7,10,5,5,0.4,0.4
2025-09-21T2100,2323A,118.981,25.4792,莆田市,东圳水库,,,,11,,4,,,51,,,4,,3,,0.7
2025-09-21T2100,2392A,115.0312,35.7636,濮阳市,环保局,细颗粒物(PM2.5),79,,44,58,34,44,,95,85,45,35,8,6,1.0,0.9
2025-09-21T2100,2394A,115.0574,35.7609,濮阳市,油田运输公司,颗粒物(PM10),68,86,55,41,30,37,,100,88,50,33,8,8,1.1,1
2025-09-21T2100,3021A,115,35.7668,濮阳市,濮水河管理处,颗粒物(PM10),67,83,46,39,23,25,,81,55,46,23,7,7,0.9,0.9
2025-09-21T2100,4216A,115.0924,35.7686,濮阳市,任丘路479号,颗粒物(PM10),67,83,57,47,34,25,,89,76,50,27,6,7,1.0,0.9
2025-09-21T2100,2601A,100.98,22.7633,普洱市,市环保局,细颗粒物(PM2.5),55,,27,39,16,20,,42,36,6,5,7,7,0.4,0.4
2025-09-21T2100,2602A,100.9817,22.8322,普洱市,普洱第二中学,,39,39,31,23,16,11,,48,36,9,8,6,6,0.4,0.3
2025-09-21T2100,2262A,131.0518,45.8751,七台河市,新一中,,34,34,14,8,7,34,,71,60,12,11,11,10,1.1,0.5
2025-09-21T2100,3345A,131.0577,45.7879,七台河市,中波台,颗粒物(PM10),55,59,29,16,7,18,,52,42,43,20,6,7,0.6,0.4
2025-09-21T2100,3637A,131.0176,45.7761,七台河市,人民广场,颗粒物(PM10),56,62,27,26,12,16,,63,48,45,20,12,12,0.8,0.6
2025-09-21T2100,3684A,130.8781,45.8222,七台河市,新建矿广场,,20,,34,14,13,24,,56,44,18,13,12,11,0.5,0.5
2025-09-21T2100,1779A,123.9305,47.3636,齐齐哈尔市,安居小区,,33,33,30,15,12,50,,60,55,18,19,4,4,0.4,0.4
2025-09-21T2100,1780A,123.9488,47.3386,齐齐哈尔市,中心广场,,36,36,26,7,6,53,,67,61,22,21,4,4,0.4,0.4
2025-09-21T2100,1781A,123.9483,47.3227,齐齐哈尔市,农牧车辆厂,,31,31,38,20,13,51,,66,59,16,17,5,5,0.4,0.6
2025-09-21T2100,1783A,123.945,47.2988,齐齐哈尔市,市环境监测站,,34,34,27,13,13,58,,71,67,15,18,11,7,0.2,0.4
2025-09-21T2100,3662A,123.6333,47.2075,齐齐哈尔市,富区青少年活动中心,颗粒物(PM10),58,66,36,34,12,52,,60,58,7,15,6,5,0.6,0.5
2025-09-21T2100,2591A,107.9783,26.5747,黔东南苗族侗族自治州,市环境监测站,,32,29,18,22,18,54,,61,60,5,5,3,3,0.6,0.6
2025-09-21T2100,2881A,107.8908,26.5311,黔东南苗族侗族自治州,凯里学院,,36,36,22,23,15,58,,66,64,11,10,3,2,0.7,0.6
2025-09-21T2100,2593A,107.5228,26.2403,黔南布依族苗族自治州,小围寨,,25,17,16,17,10,41,,46,46,11,4,2,2,0.5,0.5
2025-09-21T2100,3538A,107.5175,26.2978,黔南布依族苗族自治州,沙坝,,28,24,24,19,17,54,,54,54,5,6,4,3,0.5,0.5
2025-09-21T2100,2589A,104.9022,25.0925,黔西南布依族苗族自治州,场坝街,,36,36,22,20,14,54,,64,62,8,7,6,6,0.5,0.4
2025-09-21T2100,2590A,104.8811,25.0992,黔西南布依族苗族自治州,坪东大道,,,,30,47,19,49,,63,60,12,7,3,3,0.6,0.4
2025-09-21T2100,2502A,108.6236,21.9667,钦州市,市环保站,,22,22,40,14,16,56,,85,77,11,13,3,4,0.6,0.6
2025-09-21T2100,2503A,108.6549,21.9481,钦州市,沙埠小学,,24,24,42,16,22,58,,88,82,7,11,2,3,0.7,0.8
2025-09-21T2100,2504A,108.5989,21.7431,钦州市,港区一小,,43,43,45,16,21,54,,85,75,15,15,3,4,0.8,0.8
2025-09-21T2100,3404A,108.5959,21.9633,钦州市,北职校,,37,37,47,17,28,55,,87,80,10,13,3,4,0.6,0.7
2025-09-21T2100,1043A,119.7493,40.0116,秦皇岛市,第一关,颗粒物(PM10),59,68,43,38,24,17,,117,83,88,53,7,8,0.3,0.3
2025-09-21T2100,1044A,119.5897,39.9499,秦皇岛市,监测站,颗粒物(PM10),64,78,44,24,15,27,,136,124,97,34,8,8,0.6,0.4
2025-09-21T2100,1046A,119.5251,39.9041,秦皇岛市,建设大厦,颗粒物(PM10),64,78,47,20,15,10,,138,124,83,31,6,7,0.4,0.4
2025-09-21T2100,3132A,119.610547,39.943889,秦皇岛市,文明里,颗粒物(PM10),56,61,44,21,14,81,,148,143,62,32,9,10,0.5,0.3
2025-09-21T2100,4198A,119.5090,39.8253,秦皇岛市,北戴河轮滑馆,颗粒物(PM10),56,61,49,30,22,104,,150,148,21,27,3,5,0.5,0.5
2025-09-21T2100,1307A,120.6659,36.2403,青岛市,仰口,,36,20,28,10,12,115,,126,121,7,9,12,13,0.8,0.8
2025-09-21T2100,1310A,120.4134,36.0658,青岛市,市南区东部子站,,31,31,31,17,15,86,,133,120,29,13,6,8,0.4,0.3
2025-09-21T2100,1311A,120.3664,36.1032,青岛市,四方区子站,,44,44,37,27,20,59,,132,115,48,19,2,3,0.4,0.3
2025-09-21T2100,1312A,120.2994,36.054,青岛市,市南区西部子站,,,46,37,20,16,,,138,130,42,23,6,9,0.7,0.6
2025-09-21T2100,1313A,120.4581,36.0858,青岛市,崂山区子站,,25,24,25,12,12,78,,134,118,26,13,8,9,0.4,0.4
2025-09-21T2100,1315A,120.3999,36.3083,青岛市,城阳区子站,颗粒物(PM10),53,56,40,20,20,69,,135,116,43,23,4,4,0.6,0.5
2025-09-21T2100,3362A,120.5014,36.4034,青岛市,即墨2号,,45,45,36,17,21,70,,128,113,32,17,4,5,0.4,0.4
2025-09-21T2100,3642A,120.3503,36.0736,青岛市,市北区南部,,34,34,35,19,18,68,,117,107,35,23,6,6,0.8,0.7
2025-09-21T2100,3643A,120.3948,36.1805,青岛市,李沧区北部,,41,19,28,12,20,130,,120,118,9,15,6,7,0.3,0.4
2025-09-21T2100,4290A,120.1969,35.9546,青岛市,珠江路669号,,41,41,42,22,23,69,,130,121,34,43,3,3,0.5,0.5
2025-09-21T2100,4291A,120.0424,35.8656,青岛市,黄岛区人民政府广场,,,,31,,14,,,113,,,17,,6,,0.7
2025-09-21T2100,1702A,113.0426,23.691,清远市,环保大楼,,12,6,4,3,5,38,,61,59,5,10,8,7,0.5,0.6
2025-09-21T2100,1703A,113.0208,23.7106,清远市,凤城街办,,11,7,7,3,5,35,,60,58,10,13,8,8,0.4,0.5
2025-09-21T2100,3025A,113.0477,23.6344,清远市,技师学院,,11,11,11,3,6,28,,67,62,14,15,16,7,0.4,0.5
2025-09-21T2100,3318A,112.9903,23.7403,清远市,清新太和,,12,11,9,6,5,36,,62,60,13,14,4,4,0.4,0.5
2025-09-21T2100,3455A,113.076,23.7198,清远市,清城东城,,11,8,8,3,3,33,,57,54,7,10,8,7,0.5,0.6
2025-09-21T2100,2661A,107.6325,35.7357,庆阳市,庆阳五中,,24,12,15,8,9,75,,84,82,6,5,7,7,0.3,0.4
2025-09-21T2100,2662A,107.6364,35.7067,庆阳市,市环保局,,25,13,22,3,10,80,,89,87,6,7,3,3,0.5,0.5
2025-09-21T2100,1916A,103.7897,25.5035,曲靖市,环境监测站,,27,27,22,10,10,41,,65,61,13,10,5,4,0.5,0.4
2025-09-21T2100,1917A,103.8,25.5364,曲靖市,烟厂办公区,,33,33,21,18,12,44,,64,61,9,9,4,4,0.5,0.4
2025-09-21T2100,3376A,103.7947,25.462,曲靖市,南苑二区,,25,25,17,12,10,48,,63,61,10,8,3,4,0.5,0.4
2025-09-21T2100,3377A,103.7444,25.5261,曲靖市,曲靖师范学院,,35,35,20,13,13,46,,74,70,7,7,2,3,0.3,0.3
2025-09-21T2100,1264A,118.8692,28.9398,衢州市,环保大楼,,40,40,27,24,16,72,,75,75,12,10,4,4,0.6,0.6
2025-09-21T2100,1265A,118.8709,28.9666,衢州市,实验学校,,38,34,21,26,15,91,,92,92,12,10,1,1,0.5,0.5
2025-09-21T2100,1266A,118.8621,28.9808,衢州市,衢州学院,,35,35,20,23,13,88,,87,87,12,11,4,4,0.5,0.5
2025-09-21T2100,1611A,118.5819,24.9117,泉州市,涂山街,,20,20,24,9,12,63,,72,70,6,11,2,2,0.3,0.3
2025-09-21T2100,1612A,118.5972,24.8978,泉州市,津头埔,,21,21,26,8,12,66,,72,70,7,12,3,3,0.4,0.4
2025-09-21T2100,1613A,118.6663,24.9424,泉州市,万安,,24,24,24,8,9,70,,72,71,5,10,2,2,0.4,0.4
2025-09-21T2100,1614A,118.6117,24.9604,泉州市,清源山,,,,15,,16,,,52,,,2,,2,,0.2
2025-09-21T2100,3529A,118.6333,24.9264,泉州市,城华南路,,20,18,18,9,9,64,,70,68,6,8,3,3,0.4,0.4
2025-09-21T2100,2626A,88.8876,29.2718,日喀则市,日喀则监测站,,25,10,6,3,0,77,,94,93,14,8,16,15,0.4,0.4
2025-09-21T2100,3726A,88.8781,29.2426,日喀则市,林业技术推广中心,,,7,7,3,2,,,92,92,3,4,7,6,0.7,0.4
2025-09-21T2100,1659A,119.471,35.4209,日照市,监测站,颗粒物(PM10),53,56,31,22,18,41,,132,115,58,34,6,8,0.9,0.8
2025-09-21T2100,1660A,119.523,35.4216,日照市,市政府广场,,32,27,23,12,12,102,,137,133,16,11,5,7,0.7,0.7
2025-09-21T2100,1661A,119.5587,35.4044,日照市,港务局,,40,,25,19,24,127,,142,140,4,10,3,5,0.6,0.7
2025-09-21T2100,3507A,119.5328,35.4625,日照市,职业技术学院,,33,22,27,9,13,104,,134,129,10,10,6,7,0.6,0.7
2025-09-21T2100,3604A,119.3266,35.1044,日照市,岚山环保分局,,39,17,41,15,24,122,,132,129,11,33,7,34,0.6,2.9
2025-09-21T2100,1835A,111.1922,34.7752,三门峡市,市政府,,26,9,16,9,12,81,,102,100,29,22,6,7,0.3,0.3
2025-09-21T2100,1836A,111.1587,34.7942,三门峡市,开发区,,,11,18,8,12,94,,91,91,17,18,4,5,,0.4
2025-09-21T2100,1838A,111.143,34.7955,三门峡市,风景区,,32,8,15,8,12,101,,96,96,9,10,5,6,0.3,0.4
2025-09-21T2100,3039A,111.1911,34.7829,三门峡市,三门峡市第一小学,,29,9,16,7,7,90,,100,100,17,13,6,6,0.4,0.4
2025-09-21T2100,3598A,111.1,34.7167,三门峡市,富达温泉假日酒店,,30,7,19,6,10,93,,85,85,11,20,5,6,0.7,0.7
2025-09-21T2100,2324A,117.6211,26.2625,三明市,三钢,,15,,13,6,7,47,,64,60,8,8,2,5,0.4,0.4
2025-09-21T2100,2325A,117.635,26.2714,三明市,三明二中,,,,,,,,,,,,,,,,
2025-09-21T2100,2326A,117.6028,26.2378,三明市,三元区政府,,16,7,14,3,6,50,,65,60,6,8,2,4,0.4,0.5
2025-09-21T2100,2327A,117.7275,26.3108,三明市,洋溪,,,,12,,7,,,42,,,7,,8,,0.8
2025-09-21T2100,1876A,109.5078,18.2489,三亚市,河东子站,,22,22,17,13,8,32,,62,56,16,13,2,2,0.5,0.5
2025-09-21T2100,1877A,109.4964,18.2681,三亚市,河西子站,,23,23,19,10,8,26,,62,51,14,10,4,4,0.5,0.4
2025-09-21T2100,3540A,109.7348,18.3443,三亚市,君悦子站,,40,40,29,14,7,30,,61,52,14,9,4,3,0.5,0.4
2025-09-21T2100,2624A,91.7608,29.2313,山南市,山南监测站,,29,6,6,3,3,92,,90,90,5,5,6,6,0.2,0.2
2025-09-21T2100,2625A,91.7706,29.2436,山南市,山南人民医院,,33,8,8,6,4,103,,97,97,2,3,3,3,0.2,0.2
2025-09-21T2100,1674A,116.6794,23.3667,汕头市,金平子站,,23,23,14,12,4,57,,90,90,12,9,3,2,0.6,0.6
2025-09-21T2100,1675A,116.7244,23.3633,汕头市,龙湖子站,,21,21,15,3,4,54,,87,86,9,6,7,7,0.5,0.4
2025-09-21T2100,1676A,116.7258,23.2775,汕头市,濠江子站,,16,16,16,3,5,50,,84,81,6,6,5,5,0.5,0.5
2025-09-21T2100,1677A,116.7519,23.4714,汕头市,澄海子站,,34,34,17,8,7,52,,85,83,15,7,4,4,0.8,0.6
2025-09-21T2100,1678A,116.6092,23.2539,汕头市,潮阳子站,,26,26,13,6,5,57,,78,78,8,8,4,4,0.7,0.7
2025-09-21T2100,3444A,116.454,23.2684,汕头市,潮南峡山,,36,36,13,18,8,61,,78,78,12,7,6,6,0.7,0.6
2025-09-21T2100,3624A,116.4069,23.2533,汕头市,潮南子站,,29,29,16,18,7,57,,74,73,15,8,5,4,0.6,0.4
2025-09-21T2100,1693A,115.3653,22.775,汕尾市,市环保局,,22,8,10,7,5,70,,63,63,11,11,3,3,0.4,0.4
2025-09-21T2100,1694A,115.3706,22.7898,汕尾市,市政府,,22,,11,8,5,68,,66,66,9,7,5,4,0.4,0.4
2025-09-21T2100,1695A,115.3622,22.7925,汕尾市,新城中学,,24,,11,9,6,74,,66,66,7,6,6,5,0.5,0.5
2025-09-21T2100,2645A,109.9154,33.8715,商洛市,监测站,,20,7,12,3,6,64,,82,70,8,8,4,5,0.5,0.5
2025-09-21T2100,3045A,109.9643,33.8471,商洛市,商州区中学,,16,,15,10,9,51,,74,57,22,17,3,5,0.3,0.4
2025-09-21T2100,2408A,115.6702,34.4285,商丘市,环境监测站,,50,50,42,29,24,90,,137,127,21,23,3,3,0.3,0.4
2025-09-21T2100,2409A,115.6458,34.4045,商丘市,粮食局,,38,38,35,17,19,99,,138,130,20,18,6,5,0.4,0.5
2025-09-21T2100,2410A,115.6293,34.3948,商丘市,睢阳区环保局,,43,40,39,30,26,105,,140,133,15,19,7,6,0.4,0.5
2025-09-21T2100,3171A,115.6071,34.4465,商丘市,梁园区档案局,,46,46,29,30,26,86,,126,116,25,27,5,3,0.4,0.4
2025-09-21T2100,1141A,121.4,31.238,上海市,普陀,,29,17,22,7,11,91,,114,102,14,14,5,5,0.4,0.5
2025-09-21T2100,1142A,121.478,31.2036,上海市,十五厂,,28,22,25,10,13,89,,109,98,15,13,6,6,0.7,0.7
2025-09-21T2100,1143A,121.467,31.3008,上海市,虹口,,,20,21,8,11,,,100,94,10,10,7,6,0.7,0.5
2025-09-21T2100,1147A,121.425,31.2261,上海市,静安监测站,,29,21,22,8,12,91,,119,105,16,13,4,4,0.4,0.5
2025-09-21T2100,1148A,121.703,31.1907,上海市,浦东川沙,,29,16,22,3,10,91,,107,99,13,9,7,7,0.5,0.6
2025-09-21T2100,1149A,121.533,31.2284,上海市,浦东新区监测站,,28,17,20,13,15,88,,113,97,12,9,5,5,0.3,0.4
2025-09-21T2100,1150A,121.577,31.2071,上海市,浦东张江,,28,22,20,6,8,89,,112,106,23,13,6,6,0.7,0.8
2025-09-21T2100,3265A,121.4316,31.3322,上海市,宝山庙行,,23,21,24,3,11,72,,110,98,23,12,9,9,0.5,0.6
2025-09-21T2100,3266A,121.8791,31.4662,上海市,崇明上实东滩,,,12,16,6,9,,,111,103,10,8,4,4,0.1,0.3
