timepoint,stationcode,longitude,latitude,area,positionname,primarypollutant,aqi,pm10,pm10_24h,pm2_5,pm2_5_24h,o3,o3_24h,o3_8h,o3_8h_24h,no2,no2_24h,so2,so2_24h,co,co_24h
2022-10-23T23:00:00,1001A,116.3621,39.8784,北京市,万寿西宫,,39,39,23,17,9,67,7,57,33,52,31,2,1,0.5,0.4
2022-10-23T23:00:00,1002A,116.2202,40.2915,北京市,定陵(对照点),,17,13,18,3,4,73,52,67,55,4,5,3,2,0.2,0.2
2022-10-23T23:00:00,1003A,116.4174,39.9289,北京市,东四,颗粒物(PM10),51,52,30,20,10,72,14,65,48,52,30,1,2,0.4,0.3
2022-10-23T23:00:00,1004A,116.4072,39.8863,北京市,天坛,,41,41,24,15,8,73,10,63,36,39,25,3,2,0.3,0.3
2022-10-23T23:00:00,1005A,116.462,39.9365,北京市,农展馆,,44,44,23,17,8,63,7,57,37,59,35,3,3,0.5,0.3
2022-10-23T23:00:00,1006A,116.3392,39.9295,北京市,官园,,,52,25,18,7,68,3,57,34,53,26,1,2,,0.4
2022-10-23T23:00:00,1007A,116.2878,39.9611,北京市,海淀万柳,,46,46,27,15,7,67,0,54,20,60,41,1,1,0.6,0.4
2022-10-23T23:00:00,1008A,116.6636,40.135,北京市,顺义新城,颗粒物(PM10),59,68,26,18,7,73,9,64,36,41,30,3,3,0.4,0.2
2022-10-23T23:00:00,1009A,116.6275,40.3275,北京市,怀柔镇,,17,17,16,6,6,66,41,57,45,11,14,3,3,0.4,0.4
2022-10-23T23:00:00,1010A,116.2296,40.217,北京市,昌平镇,,15,15,17,4,5,60,46,54,47,6,13,3,2,0.2,0.2
2022-10-23T23:00:00,1011A,116.3966,39.9821,北京市,奥体中心,,41,41,24,15,7,66,5,58,36,64,34,3,3,0.5,0.3
2022-10-23T23:00:00,1012A,116.184,39.9136,北京市,古城,颗粒物(PM10),54,58,28,23,8,69,2,59,35,66,32,1,2,0.7,0.4
2022-10-23T23:00:00,1015A,117.1444,39.1661,天津市,勤俭道,颗粒物(PM10),67,84,64,42,30,72,7,59,30,68,47,6,7,0.9,0.7
2022-10-23T23:00:00,1017A,117.237,39.1082,天津市,大直沽八号路,颗粒物(PM10),79,107,67,53,32,74,5,67,36,70,47,7,7,1.7,0.7
2022-10-23T23:00:00,1018A,117.202,39.0927,天津市,前进道,颗粒物(PM10),62,74,59,34,30,77,4,66,35,67,47,6,8,1.2,0.5
2022-10-23T23:00:00,1019A,117.1837,39.2133,天津市,淮河道,颗粒物(PM10),67,84,69,36,30,77,4,66,38,77,53,8,8,0.9,0.6
2022-10-23T23:00:00,1021A,117.307,39.0877,天津市,跃进路,颗粒物(PM10),87,124,74,49,30,72,5,62,32,62,47,8,7,1.4,0.7
2022-10-23T23:00:00,1023A,117.707,39.0343,天津市,第四大街,,40,40,50,11,22,70,0,57,26,73,47,6,6,0.9,0.7
2022-10-23T23:00:00,1024A,117.457,38.8394,天津市,永明路,颗粒物(PM10),53,55,51,24,24,66,1,57,27,70,49,7,8,1.0,0.7
2022-10-23T23:00:00,1026A,117.764,39.1587,天津市,汉北路,,42,42,44,11,19,77,30,58,31,43,43,8,8,0.7,0.6
2022-10-23T23:00:00,1027A,117.157,38.9194,天津市,团泊洼(对照点),,35,35,61,17,26,68,4,63,35,68,42,8,8,0.8,0.8
2022-10-23T23:00:00,1029A,114.4422,38.0444,石家庄市,职工医院,颗粒物(PM10),65,80,83,35,30,98,12,86,61,80,56,6,10,0.5,0.5
2022-10-23T23:00:00,1030A,114.6063,38.0266,石家庄市,高新区,,,72,66,42,30,101,,86,80,52,41,7,7,0.5,0.5
2022-10-23T23:00:00,1031A,114.4898,38.1328,石家庄市,西北水源,颗粒物(PM10),67,84,93,28,30,106,13,90,56,69,48,6,4,0.6,0.6
2022-10-23T23:00:00,1032A,114.4586,38.0058,石家庄市,西南高教,细颗粒物(PM2.5),60,65,79,43,38,108,7,95,58,88,55,6,11,0.5,0.5
2022-10-23T23:00:00,1033A,114.5331,38.0178,石家庄市,世纪公园,颗粒物(PM10),56,61,74,29,32,97,10,84,55,87,47,5,6,0.6,0.6
2022-10-23T23:00:00,1034A,114.509,38.0457,石家庄市,人民会堂,细颗粒物(PM2.5),72,70,76,52,35,103,31,92,71,74,52,10,10,0.8,0.8
2022-10-23T23:00:00,1035A,114.3524,37.8911,石家庄市,封龙山(对照点),颗粒物(PM10),72,93,70,35,30,112,112,100,100,18,24,8,7,0.6,0.5
2022-10-23T23:00:00,1037A,118.131,39.6363,唐山市,雷达站,颗粒物(PM10),54,58,57,19,21,79,37,69,50,39,41,4,2,0.6,0.5
2022-10-23T23:00:00,1038A,118.1725,39.6334,唐山市,物资局,颗粒物(PM10),60,70,61,33,21,74,29,66,49,45,42,8,6,0.7,0.6
2022-10-23T23:00:00,1040A,118.1705,39.6506,唐山市,十二中,,48,48,55,9,14,69,23,59,42,48,43,7,4,0.8,0.5
2022-10-23T23:00:00,1041A,118.1869,39.622,唐山市,小山,颗粒物(PM10),51,51,55,15,16,72,26,60,37,37,38,7,5,0.6,0.5
2022-10-23T23:00:00,1042A,119.5134,39.8207,秦皇岛市,北戴河环保局,,46,46,30,4,7,84,84,78,78,42,39,5,7,0.2,0.3
2022-10-23T23:00:00,1043A,119.7493,40.0116,秦皇岛市,第一关,,30,30,38,5,11,79,20,72,33,42,36,7,8,0.2,0.4
2022-10-23T23:00:00,1044A,119.5897,39.9499,秦皇岛市,监测站,颗粒物(PM10),51,52,49,29,19,73,4,69,32,54,38,8,10,0.4,0.4
2022-10-23T23:00:00,1046A,119.5251,39.9041,秦皇岛市,建设大厦,颗粒物(PM10),59,68,61,32,19,82,12,80,45,60,44,12,13,0.4,0.5
2022-10-23T23:00:00,1047A,114.5129,36.61763,邯郸市,环保局,,,,,,,,,,,,,,,,
2022-10-23T23:00:00,1048A,114.5302,36.6116,邯郸市,东污水处理厂,细颗粒物(PM2.5),117,132,111,88,55,117,33,87,48,81,69,7,14,0.9,1.7
2022-10-23T23:00:00,1049A,114.4918,36.5713,邯郸市,矿院,细颗粒物(PM2.5),109,136,112,82,47,121,6,103,61,96,64,8,13,1.7,1.4
2022-10-23T23:00:00,1050A,114.484,36.6133,邯郸市,丛台公园,颗粒物(PM10),87,124,116,60,53,125,2,106,52,80,62,6,17,1.3,2
2022-10-23T23:00:00,1051A,115.493,38.8632,保定市,游泳馆,颗粒物(PM10),54,58,50,26,20,107,22,93,52,66,40,7,6,0.4,0.3
2022-10-23T23:00:00,1052A,115.5213,38.8959,保定市,华电二区,颗粒物(PM10),54,57,51,34,21,96,28,83,52,54,40,6,5,0.5,0.4
2022-10-23T23:00:00,1053A,115.4713,38.9108,保定市,接待中心,颗粒物(PM10),57,64,54,36,23,99,6,86,41,71,48,5,5,0.5,0.3
2022-10-23T23:00:00,1054A,115.4612,38.8416,保定市,地表水厂,颗粒物(PM10),75,100,79,30,23,90,14,82,55,85,48,8,6,0.4,0.4
2022-10-23T23:00:00,1055A,115.4323,38.8697,保定市,胶片厂,,,,55,,29,12,,17,,,46,,3,,0.4
2022-10-23T23:00:00,1056A,115.5086,38.8639,保定市,监测站,颗粒物(PM10),61,71,65,39,25,103,29,86,48,59,46,7,4,0.7,0.7
2022-10-23T23:00:00,1057A,114.8883,40.8336,张家口市,人民公园,,23,23,17,6,5,81,54,76,64,9,7,8,7,0.1,0.1
2022-10-23T23:00:00,1059A,114.8687,40.8042,张家口市,五金库,,19,12,17,7,6,82,60,76,65,9,11,9,9,0.2,0.3
2022-10-23T23:00:00,1060A,114.8902,40.762,张家口市,世纪豪园,,20,20,18,9,7,82,45,76,58,24,14,2,2,0.4,0.4
2022-10-23T23:00:00,1061A,114.8916,40.8661,张家口市,北泵房(对照点),,21,21,20,8,9,83,57,76,61,8,7,6,6,0.4,0.4
2022-10-23T23:00:00,1062A,117.9531,40.9081,承德市,铁路,,28,23,28,19,11,70,14,53,29,36,32,5,7,0.2,0.3
2022-10-23T23:00:00,1063A,117.9392,40.9763,承德市,中国银行,颗粒物(PM10),51,51,33,19,9,71,2,56,25,44,31,3,3,0.6,0.4
2022-10-23T23:00:00,1064A,117.9503,40.928,承德市,开发区,颗粒物(PM10),51,52,33,18,13,77,5,61,32,49,32,5,5,0.6,0.4
2022-10-23T23:00:00,1065A,117.8051,40.9655,承德市,文化中心,,43,43,45,1,13,72,3,65,31,51,33,2,6,0.4,0.5
2022-10-23T23:00:00,1066A,117.9268,41.0026,承德市,离宫(对照点),,29,19,23,20,13,69,18,58,40,29,21,7,7,0.2,0.2
2022-10-23T23:00:00,1067A,116.6708,39.5111,廊坊市,药材公司,,40,40,41,19,16,77,27,68,50,54,40,3,3,0.4,0.4
2022-10-23T23:00:00,1068A,116.7214,39.5589,廊坊市,开发区,细颗粒物(PM2.5),62,54,35,44,18,79,12,63,37,50,44,8,7,0.6,0.5
2022-10-23T23:00:00,1070A,116.7244,39.5269,廊坊市,北华航天学院,颗粒物(PM10),60,70,48,30,14,74,7,63,37,63,46,4,4,0.6,0.5
2022-10-23T23:00:00,1071A,116.8842,38.2991,沧州市,沧县城建局,颗粒物(PM10),62,73,87,32,34,133,6,99,36,82,49,7,8,0.5,0.5
2022-10-23T23:00:00,1072A,116.8584,38.3254,沧州市,电视转播站,颗粒物(PM10),65,79,81,25,27,140,8,110,47,80,44,2,5,0.5,0.5
2022-10-23T23:00:00,1073A,116.8709,38.3228,沧州市,市环保局,颗粒物(PM10),64,77,91,38,37,135,9,108,42,83,48,9,11,0.6,0.5
2022-10-23T23:00:00,1074A,115.6838,37.7541,衡水市,电机北厂,颗粒物(PM10),89,127,115,49,39,113,76,100,75,50,42,13,15,0.3,0.4
2022-10-23T23:00:00,1075A,115.6303,37.7316,衡水市,市监测站,颗粒物(PM10),86,121,100,58,38,106,72,92,69,52,44,9,9,0.6,0.6
2022-10-23T23:00:00,1077A,114.4704,37.0886,邢台市,达活泉,颗粒物(PM10),86,121,89,36,37,113,2,104,58,75,48,11,10,1.0,0.8
2022-10-23T23:00:00,1078A,114.5062,37.0349,邢台市,邢师高专,颗粒物(PM10),70,90,92,41,40,112,4,96,49,79,51,6,8,0.9,0.8
2022-10-23T23:00:00,1079A,114.5237,37.0851,邢台市,路桥公司,颗粒物(PM10),74,97,78,41,39,114,6,105,61,61,39,7,10,0.9,0.6
2022-10-23T23:00:00,1080A,114.4725,37.0719,邢台市,市环保局,颗粒物(PM10),86,121,116,39,38,112,17,104,64,76,45,8,8,0.7,0.5
2022-10-23T23:00:00,1081A,112.5139,37.8873,太原市,尖草坪,颗粒物(PM10),64,77,81,30,26,93,11,72,40,70,54,8,12,0.6,0.7
2022-10-23T23:00:00,1083A,112.434,38.0108,太原市,上兰(对照点),,,,,,,,,,,,,,,,
2022-10-23T23:00:00,1084A,112.469,37.7124,太原市,晋源,颗粒物(PM10),73,95,85,40,30,95,5,65,38,76,52,7,8,1.0,0.6
2022-10-23T23:00:00,1085A,112.5583,37.7394,太原市,小店,颗粒物(PM10),108,165,124,60,40,89,4,69,35,85,62,7,11,0.8,0.8
2022-10-23T23:00:00,1086A,112.5369,37.8692,太原市,桃园,颗粒物(PM10),72,93,84,38,29,90,4,70,37,80,59,6,14,0.7,0.9
2022-10-23T23:00:00,1087A,112.57,37.8195,太原市,坞城,颗粒物(PM10),79,107,100,45,32,87,6,75,39,81,57,20,21,1.4,1.1
2022-10-23T23:00:00,1088A,112.549,37.9854,太原市,南寨,颗粒物(PM10),58,66,74,21,21,84,5,70,35,57,44,5,7,0.4,0.4
2022-10-23T23:00:00,1089A,112.4701,37.782,太原市,金胜,,,,,,,,,,,,,,,,
2022-10-23T23:00:00,1090A,111.6507,40.7517,呼和浩特市,呼市一监,,,,,,,,,,,,,,,,
2022-10-23T23:00:00,1091A,111.6572,40.8033,呼和浩特市,小召,细颗粒物(PM2.5),72,78,44,52,26,121,54,102,84,42,25,11,11,0.5,0.4
2022-10-23T23:00:00,1094A,111.7516,40.8369,呼和浩特市,如意水处理厂,细颗粒物(PM2.5),73,89,48,53,23,120,26,92,71,62,29,7,6,0.6,0.5
2022-10-23T23:00:00,1095A,111.7276,40.8062,呼和浩特市,二十九中,细颗粒物(PM2.5),64,76,42,46,23,119,39,94,77,47,26,10,9,0.7,0.6
2022-10-23T23:00:00,1096A,111.5512,40.7866,呼和浩特市,工大金川校区,,,51,62,24,30,119,20,89,55,46,27,7,17,,
2022-10-23T23:00:00,1097A,111.717,40.7612,呼和浩特市,化肥厂生活区,,,77,58,42,35,107,28,85,61,,,14,32,0.6,0.5
2022-10-23T23:00:00,1098A,123.6836,41.9339,沈阳市,森林路(对照点),,,,,,,,,,,,,,,,
2022-10-23T23:00:00,1099A,123.505,41.7406,沈阳市,浑南东路,,,91,42,59,20,67,8,58,31,58,31,17,19,1.1,0.7
2022-10-23T23:00:00,1100A,123.4231,41.6989,沈阳市,新秀街,颗粒物(PM10),54,58,52,20,19,72,5,62,32,62,42,11,20,0.7,0.8
2022-10-23T23:00:00,1102A,123.5903,41.8411,沈阳市,东陵路,,31,31,45,14,20,69,13,59,24,35,28,9,11,0.3,0.5
2022-10-23T23:00:00,1103A,123.4264,41.8467,沈阳市,陵东街,颗粒物(PM10),78,105,61,50,24,68,5,61,26,61,41,8,8,1.0,0.8
2022-10-23T23:00:00,1104A,123.4114,41.7653,沈阳市,文化路,,38,38,43,20,22,69,19,61,40,48,37,10,15,0.5,0.6
2022-10-23T23:00:00,1105A,123.4678,41.7867,沈阳市,小河沿,,45,45,40,26,18,66,7,59,32,54,34,6,8,0.8,0.7
2022-10-23T23:00:00,1106A,123.4017,41.7972,沈阳市,太原街,,42,42,41,19,20,67,16,56,29,51,43,7,14,0.6,0.6
2022-10-23T23:00:00,1108A,123.3783,41.9228,沈阳市,京沈街,,48,48,42,20,22,68,9,63,40,58,38,27,15,0.5,0.5
2022-10-23T23:00:00,1109A,121.612,38.9741,大连市,甘井子,,21,21,20,9,9,101,56,82,62,20,19,6,6,0.8,0.8
2022-10-23T23:00:00,1110A,121.565,38.9511,大连市,周水子,,33,33,27,14,9,96,37,79,57,39,30,6,5,0.4,0.4
2022-10-23T23:00:00,1111A,121.5637,38.8845,大连市,星海三站,,21,21,20,10,10,85,41,69,47,30,30,5,6,0.8,0.8
2022-10-23T23:00:00,1112A,121.6302,38.9117,大连市,青泥洼桥,,,26,22,9,7,93,58,76,56,30,38,,7,0.5,0.6
2022-10-23T23:00:00,1113A,121.6251,38.8638,大连市,傅家庄,,21,21,23,9,7,78,48,64,51,20,22,6,7,0.7,0.7
2022-10-23T23:00:00,1114A,121.5213,38.8661,大连市,七贤岭,,24,24,21,10,8,115,41,90,61,29,18,6,7,0.7,0.6
2022-10-23T23:00:00,1115A,121.2529,38.8061,大连市,旅顺,,,27,24,16,8,104,41,88,69,21,13,7,7,,0.4
2022-10-23T23:00:00,1116A,121.7485,39.1311,大连市,金州,,27,27,23,13,10,94,51,78,60,26,25,9,10,0.3,0.3
2022-10-23T23:00:00,1117A,121.7811,39.0496,大连市,开发区,,25,25,29,16,12,108,53,85,68,29,30,12,11,0.4,0.4
2022-10-23T23:00:00,1118A,121.9762,39.0631,大连市,双D港,,21,21,19,10,10,89,55,76,61,8,10,9,9,0.8,0.7
2022-10-23T23:00:00,1119A,125.3325,43.9166,长春市,食品厂,颗粒物(PM10),59,68,33,37,17,52,5,49,31,61,31,8,7,0.9,0.4
2022-10-23T23:00:00,1120A,125.2863,43.9027,长春市,客车厂,,48,48,29,17,19,48,4,45,25,57,36,7,10,0.7,0.4
2022-10-23T23:00:00,1121A,125.2841,43.8463,长春市,邮电学院,,30,30,27,17,13,61,17,57,38,38,29,6,10,0.3,0.3
2022-10-23T23:00:00,1122A,125.3716,43.8772,长春市,劳动公园,,37,37,28,17,14,62,8,57,40,49,25,6,7,0.5,0.3
2022-10-23T23:00:00,1123A,125.3297,43.8805,长春市,园林处,,29,27,24,20,15,54,11,51,40,45,26,5,6,0.5,0.4
2022-10-23T23:00:00,1124A,125.4605,43.79,长春市,净月潭,,19,19,21,5,8,58,28,56,39,18,19,5,6,0.3,0.3
2022-10-23T23:00:00,1125A,125.7194,43.515,长春市,甩湾子(对照点),,,,,,,,,,,,,,,,
2022-10-23T23:00:00,1126A,125.3863,43.8447,长春市,经开区环卫处,,25,21,34,17,13,61,4,58,41,50,25,7,8,0.6,0.4
2022-10-23T23:00:00,1127A,125.245,43.7783,长春市,高新区管委会,,,56,27,32,16,59,4,55,27,59,27,9,6,0.5,0.3
2022-10-23T23:00:00,1128A,125.1761,43.8325,长春市,岱山公园,颗粒物(PM10),53,56,31,28,14,62,6,59,29,52,28,8,7,0.6,0.4
2022-10-23T23:00:00,1129A,126.5422,45.755,哈尔滨市,岭北(对照点),,21,21,24,9,15,58,36,54,45,18,14,5,6,0.4,0.4
2022-10-23T23:00:00,1130A,126.561,45.8167,哈尔滨市,松北商大,,18,17,22,12,12,65,24,57,40,35,20,6,6,0.7,0.7
2022-10-23T23:00:00,1131A,126.979,45.5419,哈尔滨市,阿城会宁,颗粒物(PM10),58,65,41,38,21,56,6,48,25,44,26,13,14,0.6,0.5
2022-10-23T23:00:00,1132A,126.599,45.7222,哈尔滨市,南岗学府路,,24,24,26,9,10,61,45,54,47,14,19,2,6,0.5,0.5
2022-10-23T23:00:00,1133A,126.689,45.7733,哈尔滨市,太平宏伟公园,,26,26,25,10,11,64,38,57,45,25,20,7,8,0.5,0.4
2022-10-23T23:00:00,1134A,126.635,45.7667,哈尔滨市,道外承德广场,,,,30,10,10,59,38,53,45,22,21,13,13,0.3,0.3
2022-10-23T23:00:00,1135A,126.685,45.7319,哈尔滨市,香坊红旗大街,,18,18,25,9,22,60,45,55,50,17,24,3,8,0.4,0.4
2022-10-23T23:00:00,1136A,126.6411,45.7258,哈尔滨市,动力和平路,,27,27,22,7,11,56,35,51,42,26,26,17,11,0.4,0.4
2022-10-23T23:00:00,1137A,126.593,45.7478,哈尔滨市,道里建国路,,13,11,21,8,13,57,39,52,43,22,24,9,15,0.4,0.3
2022-10-23T23:00:00,1138A,126.615,45.61,哈尔滨市,平房东轻厂,,39,39,28,12,15,49,2,41,13,48,32,10,10,0.5,0.5
2022-10-23T23:00:00,1139A,126.595,45.9855,哈尔滨市,呼兰师专,,23,18,27,16,19,56,29,48,33,26,21,7,7,0.6,0.5
2022-10-23T23:00:00,1140A,126.6206,45.6842,哈尔滨市,省农科院,,17,17,25,10,17,60,36,54,45,24,26,10,11,1.2,1
2022-10-23T23:00:00,1141A,121.4,31.238,上海市,普陀,,32,32,42,8,22,126,70,110,82,23,18,3,4,0.5,0.6
2022-10-23T23:00:00,1142A,121.478,31.2036,上海市,十五厂,,26,26,38,10,23,140,76,122,89,23,17,6,7,0.4,0.5
2022-10-23T23:00:00,1143A,121.467,31.3008,上海市,虹口,,29,29,44,8,19,114,69,100,75,11,11,6,5,0.5,0.6
2022-10-23T23:00:00,1144A,121.412,31.1654,上海市,徐汇上师大,,32,32,47,10,22,137,85,119,88,17,19,7,7,0.6,0.6
2022-10-23T23:00:00,1145A,121.536,31.2659,上海市,杨浦四漂,,27,27,44,8,18,128,69,113,82,34,25,6,7,0.5,0.5
2022-10-23T23:00:00,1146A,120.978,31.0935,上海市,青浦淀山湖(对照点),,,,,,,,,,,,,,,,
2022-10-23T23:00:00,1147A,121.425,31.2261,上海市,静安监测站,,32,32,48,14,27,127,74,112,82,20,16,5,5,0.5,0.5
2022-10-23T23:00:00,1148A,121.703,31.1907,上海市,浦东川沙,,34,34,42,13,24,124,62,108,79,30,23,8,8,0.5,0.6
2022-10-23T23:00:00,1149A,121.533,31.2284,上海市,浦东新区监测站,,32,32,43,20,28,118,68,102,76,27,14,6,6,0.5,0.6
2022-10-23T23:00:00,1150A,121.577,31.2071,上海市,浦东张江,,26,26,39,15,22,119,69,100,75,19,17,6,5,0.5,0.6
2022-10-23T23:00:00,1151A,118.8086,32.1065,南京市,迈皋桥,颗粒物(PM10),56,62,75,17,33,136,2,112,48,75,41,4,5,0.4,0.4
2022-10-23T23:00:00,1152A,118.7538,32.0551,南京市,草场门,,36,36,69,17,42,132,28,114,63,68,46,2,3,0.4,0.5
2022-10-23T23:00:00,1153A,118.7794,32.0745,南京市,山西路,颗粒物(PM10),54,58,77,14,36,153,29,133,69,72,40,4,4,0.2,0.4
2022-10-23T23:00:00,1154A,118.7752,32.0023,南京市,中华门,颗粒物(PM10),56,61,76,12,33,148,10,130,67,88,47,3,4,0.4,0.5
2022-10-23T23:00:00,1155A,118.8109,32.0309,南京市,瑞金路,颗粒物(PM10),52,53,66,14,34,146,40,131,72,46,20,4,4,0.5,0.5
2022-10-23T23:00:00,1156A,118.7997,32.0754,南京市,玄武湖,颗粒物(PM10),55,60,73,14,35,142,11,122,56,75,41,3,4,0.2,0.4
2022-10-23T23:00:00,1157A,118.6414,32.0931,南京市,浦口,颗粒物(PM10),52,53,63,17,35,138,73,123,90,22,20,7,7,0.4,0.6
2022-10-23T23:00:00,1158A,118.7356,31.9996,南京市,奥体中心,颗粒物(PM10),51,51,72,14,34,144,33,129,79,65,36,4,4,0.3,0.4
2022-10-23T23:00:00,1159A,118.9125,32.1028,南京市,仙林大学城,,48,48,68,12,29,142,5,123,59,67,39,2,4,0.5,0.6
2022-10-23T23:00:00,1160A,120.561,31.2472,苏州市,上方山(对照点),,40,40,50,15,28,144,67,127,81,21,17,6,6,0.4,0.5
2022-10-23T23:00:00,1161A,120.628,31.2864,苏州市,南门,,,,,,,,,,,,,,,,
2022-10-23T23:00:00,1162A,120.591,31.3019,苏州市,彩香,,26,26,40,9,25,157,71,138,87,19,15,5,6,0.4,0.6
2022-10-23T23:00:00,1163A,120.596,31.3264,苏州市,轧钢厂,,30,30,42,7,21,154,71,133,82,25,22,6,6,0.5,0.6
2022-10-23T23:00:00,1164A,120.613,31.2703,苏州市,吴中区,,25,25,40,7,21,158,72,137,84,22,18,7,6,0.5,0.6
2022-10-23T23:00:00,1165A,120.543,31.2994,苏州市,苏州新区,,24,24,38,9,24,153,74,134,81,18,16,6,7,0.6,0.8
2022-10-23T23:00:00,1166A,120.669,31.3097,苏州市,苏州工业园区,,24,24,38,8,23,155,69,132,80,25,20,6,6,0.6,0.7
2022-10-23T23:00:00,1167A,120.641,31.3708,苏州市,相城区,,26,26,34,6,18,151,57,127,73,36,26,6,7,0.5,0.6
2022-10-23T23:00:00,1168A,120.9098,31.9663,南通市,狼山街道,,32,32,34,7,15,122,90,110,97,12,12,7,6,0.3,0.4
2022-10-23T23:00:00,1169A,120.86,32.0005,南通市,虹桥,,36,36,38,7,22,109,84,102,89,19,16,6,5,0.4,0.4
2022-10-23T23:00:00,1170A,120.87,32.02,南通市,城中,,,37,35,13,25,104,76,98,88,,13,1,2,0.4,0.2
2022-10-23T23:00:00,1171A,120.94,31.93,南通市,星湖花园,,42,42,38,17,21,114,68,103,84,26,14,7,6,0.4,0.3
2022-10-23T23:00:00,1172A,120.81,32.0417,南通市,紫琅学院,,49,49,36,17,22,123,64,113,88,32,18,7,6,0.6,0.5
2022-10-23T23:00:00,1173A,119.176,34.5885,连云港市,市环境监测站,颗粒物(PM10),53,56,73,17,23,108,67,87,80,30,28,6,8,0.3,0.5
2022-10-23T23:00:00,1177A,117.179,34.2761,徐州市,黄河新村,颗粒物(PM10),80,110,122,48,44,109,31,94,50,74,46,11,11,1.2,1
2022-10-23T23:00:00,1178A,117.1918,34.2384,徐州市,淮塔,颗粒物(PM10),71,92,117,41,41,114,6,113,60,81,42,7,10,0.8,0.8
2022-10-23T23:00:00,1180A,117.256,34.2153,徐州市,新城区,颗粒物(PM10),70,90,112,36,42,113,21,102,60,81,46,9,11,0.7,0.7
2022-10-23T23:00:00,1181A,117.244,34.2911,徐州市,桃园路,颗粒物(PM10),64,78,117,29,36,106,25,90,48,50,35,11,10,0.8,0.7
2022-10-23T23:00:00,1182A,117.2933,34.2778,徐州市,农科院,,,90,112,31,34,100,6,84,32,91,51,11,9,0.9,0.7
2022-10-23T23:00:00,1186A,119.389,32.3761,扬州市,邗江监测站,颗粒物(PM10),57,63,58,26,25,102,57,98,75,31,22,5,6,0.6,0.6
2022-10-23T23:00:00,1188A,120.269,31.4867,无锡市,雪浪,,41,41,57,14,28,147,61,120,70,28,24,9,7,0.8,0.8
2022-10-23T23:00:00,1189A,120.275,31.6219,无锡市,黄巷,颗粒物(PM10),51,51,64,14,27,143,58,118,71,28,22,8,8,0.6,0.8
2022-10-23T23:00:00,1190A,120.294,31.56,无锡市,曹张,,38,38,58,14,31,145,58,120,69,32,22,9,9,0.6,0.8
2022-10-23T23:00:00,1191A,120.242,31.5031,无锡市,漆塘,,39,39,60,14,30,154,79,129,81,17,20,10,10,0.8,0.9
2022-10-23T23:00:00,1192A,120.3489,31.5863,无锡市,东亭,,,,60,,30,138,,112,66,18,23,8,8,0.8,1
2022-10-23T23:00:00,1193A,120.354,31.5475,无锡市,旺庄,,39,39,58,12,30,145,75,120,76,22,24,11,11,0.8,0.9
2022-10-23T23:00:00,1194A,120.245,31.5631,无锡市,荣巷,,46,46,59,17,33,150,64,126,76,33,24,9,9,0.6,0.8
2022-10-23T23:00:00,1195A,120.299,31.6817,无锡市,堰桥,颗粒物(PM10),53,56,53,27,29,141,35,120,63,38,19,7,6,1.0,0.9
2022-10-23T23:00:00,1196A,119.9633,31.762,常州市,市监测站,,32,32,57,20,34,129,46,111,60,47,25,6,5,0.5,0.5
2022-10-23T23:00:00,1200A,119.9468,31.7069,常州市,武进监测站,,28,28,53,15,26,148,55,131,70,40,26,7,7,0.4,0.6
2022-10-23T23:00:00,1201A,119.9255,31.9087,常州市,安家,,32,30,51,22,31,141,65,116,77,31,24,6,5,0.5,0.6
2022-10-23T23:00:00,1203A,119.6707,32.1875,镇江市,新区办事处,,48,48,49,19,24,119,41,105,74,47,32,6,7,0.6,0.5
2022-10-23T23:00:00,1204A,119.4974,32.1968,镇江市,职教中心,颗粒物(PM10),52,54,52,16,37,131,56,113,74,37,25,3,6,0.3,0.3
2022-10-23T23:00:00,1205A,119.4303,32.1328,镇江市,丹徒区监测站,颗粒物(PM10),60,70,52,34,47,133,42,116,72,50,33,4,4,0.4,0.4
2022-10-23T23:00:00,1206A,119.905,32.4878,泰州市,公园路,颗粒物(PM10),51,51,48,17,20,104,69,95,83,20,18,7,9,0.7,0.7
2022-10-23T23:00:00,1207A,119.9189,32.4625,泰州市,莲花,,42,42,53,22,29,102,64,94,84,23,18,7,8,0.7,0.6
2022-10-23T23:00:00,1209A,119.888,32.4639,泰州市,留学生创业园,颗粒物(PM10),54,57,40,17,22,104,78,96,88,19,17,7,9,0.6,0.6
2022-10-23T23:00:00,1210A,119.036,33.5981,淮安市,钵池山,颗粒物(PM10),52,53,75,23,41,106,70,98,79,22,29,7,7,0.6,0.7
2022-10-23T23:00:00,1211A,119.007,33.575,淮安市,北京南路,颗粒物(PM10),58,66,81,25,42,112,58,102,60,34,33,9,9,0.7,0.6
2022-10-23T23:00:00,1212A,118.989,33.6067,淮安市,市监测站,颗粒物(PM10),53,56,75,20,41,111,77,103,78,24,32,5,4,0.9,0.9
2022-10-23T23:00:00,1213A,119.135,33.5039,淮安市,楚州区监测站,颗粒物(PM10),58,66,82,22,37,110,51,97,75,29,24,8,8,0.6,0.7
2022-10-23T23:00:00,1214A,119.0186,33.6297,淮安市,淮阴区监测站,颗粒物(PM10),56,62,86,20,43,106,71,98,76,25,31,8,6,0.5,0.5
2022-10-23T23:00:00,1215A,120.118,33.4022,盐城市,盐城电厂,,48,48,58,19,21,118,68,108,84,32,18,6,8,0.5,0.5
2022-10-23T23:00:00,1216A,120.156,33.3942,盐城市,市监测站,颗粒物(PM10),52,53,56,17,22,114,63,107,90,37,23,4,5,0.5,0.5
2022-10-23T23:00:00,1218A,120.2144,33.38,盐城市,开发区管委会,,50,50,50,19,24,115,55,104,75,38,23,8,9,0.6,0.7
2022-10-23T23:00:00,1220A,118.293,33.9528,宿迁市,宿迁学院,颗粒物(PM10),83,115,86,40,39,126,5,108,67,108,44,9,9,0.8,0.8
2022-10-23T23:00:00,1221A,118.2442,33.9592,宿迁市,宿迁中学,颗粒物(PM10),79,108,92,36,34,132,10,111,70,85,37,6,8,0.9,0.7
2022-10-23T23:00:00,1223A,120.2072,30.2111,杭州市,滨江,,21,20,77,9,45,164,66,158,134,31,29,5,6,0.4,0.7
2022-10-23T23:00:00,1224A,120.0633,30.2747,杭州市,西溪,颗粒物(PM10),53,55,76,27,40,165,55,153,123,24,21,8,9,0.7,0.8
2022-10-23T23:00:00,1225A,119.026,29.635,杭州市,千岛湖(对照点),,,,,,,,,,,,,,,,
2022-10-23T23:00:00,1226A,120.3461,30.3153,杭州市,下沙,,29,21,73,9,42,161,41,152,111,58,36,9,9,0.5,0.8
2022-10-23T23:00:00,1227A,120.1269,30.2456,杭州市,卧龙桥,,33,33,68,15,53,165,60,155,118,30,30,7,7,0.5,0.8
2022-10-23T23:00:00,1228A,120.1903,30.2692,杭州市,浙江农大,,22,22,67,14,44,171,69,160,134,31,30,7,7,0.5,0.8
2022-10-23T23:00:00,1229A,120.157,30.2897,杭州市,朝晖五区,,,,,,,,,,,,,,,,
2022-10-23T23:00:00,1230A,120.1197,30.3119,杭州市,和睦小学,颗粒物(PM10),52,53,81,25,47,159,50,149,119,48,36,4,5,0.7,0.9
2022-10-23T23:00:00,1231A,120.3019,30.4183,杭州市,临平镇,,28,28,87,7,39,174,59,161,129,23,24,6,7,0.6,0.9
2022-10-23T23:00:00,1232A,120.2697,30.1819,杭州市,城厢镇,,33,33,69,8,44,168,67,160,138,30,26,7,7,0.7,1
2022-10-23T23:00:00,1233A,120.0883,30.1808,杭州市,云栖,,38,38,63,18,38,161,70,149,117,25,24,6,6,0.6,0.8
2022-10-23T23:00:00,1234A,121.8358,29.911,宁波市,区环保大楼,,22,21,24,5,10,140,69,119,92,21,15,9,9,0.4,0.4
2022-10-23T23:00:00,1235A,121.56,29.82,宁波市,万里学院,,28,20,30,6,14,160,89,134,108,12,12,6,6,0.5,0.5
2022-10-23T23:00:00,1236A,121.713,29.9572,宁波市,龙赛医院,,29,25,28,6,12,142,92,127,103,14,16,8,8,0.3,0.4
2022-10-23T23:00:00,1239A,121.633,29.7733,宁波市,钱湖水厂,,25,24,28,8,15,148,80,128,104,16,11,6,6,0.5,0.5
2022-10-23T23:00:00,1240A,121.5856,29.8635,宁波市,太古小学,,26,26,29,4,12,146,76,122,98,21,16,9,9,0.4,0.4
2022-10-23T23:00:00,1241A,121.524,29.8674,宁波市,市环境监测中心,,25,21,30,5,11,155,77,129,100,17,12,6,8,0.2,0.3
2022-10-23T23:00:00,1242A,120.634,28.0089,温州市,瓯海,颗粒物(PM10),54,58,70,31,35,150,99,133,104,30,41,7,7,0.5,0.5
2022-10-23T23:00:00,1243A,120.6748,27.9939,温州市,南浦,颗粒物(PM10),51,51,59,25,34,136,105,127,106,23,31,6,6,0.3,0.4
2022-10-23T23:00:00,1244A,120.76,27.9747,温州市,龙湾,颗粒物(PM10),63,75,66,31,32,129,29,121,95,72,44,7,7,0.5,0.5
2022-10-23T23:00:00,1245A,120.6709,28.0167,温州市,市站,颗粒物(PM10),51,51,56,32,36,146,118,131,110,20,31,6,6,0.4,0.4
2022-10-23T23:00:00,1246A,120.598,30.0911,绍兴市,袍江站,,,,,,,,,,,,,,,,
2022-10-23T23:00:00,1247A,120.6053,29.9928,绍兴市,城东开发委,,29,29,54,8,40,155,61,141,115,24,22,9,9,0.6,0.7
2022-10-23T23:00:00,1250A,120.0751,30.8669,湖州市,城西水厂,,33,33,68,4,42,194,67,165,126,26,38,6,7,0.4,0.7
2022-10-23T23:00:00,1252A,120.7436,30.778,嘉兴市,清河小学,,30,30,41,13,24,173,64,146,89,31,25,7,6,0.4,0.4
2022-10-23T23:00:00,1253A,120.726,30.7478,嘉兴市,嘉兴学院,,41,41,44,11,22,170,67,145,96,27,21,6,5,0.3,0.4
2022-10-23T23:00:00,1255A,121.273,28.6459,台州市,黄岩环保大楼,颗粒物(PM10),59,68,54,32,33,135,118,128,127,13,16,6,6,0.5,0.4
2022-10-23T23:00:00,1256A,121.419,28.6542,台州市,台州环保大楼,,42,42,52,19,30,155,103,144,140,13,12,8,8,0.4,0.4
2022-10-23T23:00:00,1257A,121.377,28.5773,台州市,路桥田洋王,颗粒物(PM10),52,53,51,28,28,141,114,136,134,12,12,6,6,0.6,0.5
2022-10-23T23:00:00,1258A,122.122,30.0203,舟山市,定海檀枫,,29,27,28,9,15,151,92,125,105,7,7,4,4,0.2,0.3
2022-10-23T23:00:00,1259A,122.3094,29.9558,舟山市,普陀东港,,30,26,31,11,14,154,93,124,103,12,16,4,4,0.2,0.2
2022-10-23T23:00:00,1260A,122.19,29.9944,舟山市,临城新区,,,20,29,9,12,143,,119,104,7,10,6,5,0.4,0.4
2022-10-23T23:00:00,1261A,119.649,29.1131,金华市,四中(停运161031),,,,,,,,,,,,,,,,
2022-10-23T23:00:00,1262A,119.647,29.077,金华市,十五中,细颗粒物(PM2.5),87,101,78,64,56,157,86,145,128,43,32,6,7,0.7,0.7
2022-10-23T23:00:00,1263A,119.686,29.1029,金华市,监测站,颗粒物(PM10),77,104,80,53,44,171,80,157,132,53,34,1,3,0.7,0.6
2022-10-23T23:00:00,1264A,118.8692,28.9398,衢州市,环保大楼,细颗粒物(PM2.5),79,76,79,58,58,160,79,147,124,39,26,8,7,0.6,0.7
2022-10-23T23:00:00,1265A,118.8709,28.9666,衢州市,实验学校,细颗粒物(PM2.5),70,88,73,51,56,160,124,149,140,28,31,16,8,0.6,0.6
2022-10-23T23:00:00,1266A,118.8621,28.9808,衢州市,衢州学院,细颗粒物(PM2.5),78,89,81,57,56,171,116,153,139,30,28,16,10,0.5,0.5
2022-10-23T23:00:00,1267A,119.914,28.4514,丽水市,监测站大楼,颗粒物(PM10),52,54,61,35,37,147,137,139,135,11,18,7,8,0.5,0.5
2022-10-23T23:00:00,1268A,119.93,28.4586,丽水市,莲都小学,颗粒物(PM10),61,71,68,31,39,153,139,144,139,14,22,7,7,0.5,0.5
2022-10-23T23:00:00,1269A,119.879,28.4231,丽水市,余庄前,,48,44,60,33,40,167,114,148,137,16,18,6,6,0.4,0.4
2022-10-23T23:00:00,1270A,117.1959,31.7848,合肥市,明珠广场,颗粒物(PM10),67,83,106,27,54,205,45,168,104,56,50,9,10,0.4,0.6
2022-10-23T23:00:00,1271A,117.3072,31.8764,合肥市,三里街,颗粒物(PM10),64,77,77,27,31,189,41,164,104,65,35,8,9,0.5,0.6
2022-10-23T23:00:00,1272A,117.2588,31.8707,合肥市,琥珀山庄,颗粒物(PM10),58,66,83,22,43,187,55,164,102,38,38,8,9,0.6,0.7
2022-10-23T23:00:00,1273A,117.1604,31.9052,合肥市,董铺水库(对照点),颗粒物(PM10),78,106,100,35,46,167,45,145,97,47,42,7,8,0.6,0.7
2022-10-23T23:00:00,1274A,117.25,31.8571,合肥市,长江中路,颗粒物(PM10),59,68,88,24,52,194,72,168,118,27,37,7,8,0.5,0.7
2022-10-23T23:00:00,1275A,117.266,31.9436,合肥市,庐阳区,,,97,97,29,50,185,51,156,121,,40,66,12,0.4,0.6
2022-10-23T23:00:00,1276A,117.336,31.8586,合肥市,瑶海区,颗粒物(PM10),59,68,77,17,40,188,70,166,109,30,28,12,13,0.6,0.7
2022-10-23T23:00:00,1277A,117.3027,31.7964,合肥市,包河区,颗粒物(PM10),65,80,84,27,40,187,9,161,70,94,70,11,13,0.7,0.7
2022-10-23T23:00:00,1278A,117.2776,31.7385,合肥市,滨湖新区,颗粒物(PM10),64,78,82,22,35,185,70,160,114,27,45,10,11,0.4,0.4
2022-10-23T23:00:00,1279A,117.1318,31.8403,合肥市,高新区,颗粒物(PM10),63,75,95,24,50,199,75,165,104,33,62,5,7,0.5,0.7
2022-10-23T23:00:00,1280A,119.3903,26.0543,福州市,鼓山(对照点),,,,,,,,,,,,,,,,
2022-10-23T23:00:00,1282A,119.2681,26.0504,福州市,师大,,48,48,46,18,22,148,130,138,132,6,8,3,5,0.2,0.3
2022-10-23T23:00:00,1283A,119.2984,26.1028,福州市,五四北路,,40,38,43,20,21,152,126,139,131,7,8,3,4,0.3,0.4
2022-10-23T23:00:00,1284A,119.2648,26.0768,福州市,杨桥西路,,42,42,44,23,21,156,129,144,135,7,9,3,4,0.3,0.4
2022-10-23T23:00:00,1285A,119.317,26.0746,福州市,紫阳,,49,49,46,24,23,158,131,144,137,7,8,6,7,0.4,0.4
2022-10-23T23:00:00,1286A,118.1608,24.8169,厦门市,溪东(对照点),,,,,,,,,,,,,,,,
2022-10-23T23:00:00,1287A,118.1514,24.4767,厦门市,洪文,,40,40,45,23,26,155,78,125,91,16,17,4,3,0.3,0.3
2022-10-23T23:00:00,1288A,118.0661,24.4444,厦门市,鼓浪屿,,37,37,42,14,21,172,78,135,95,19,22,5,5,0.4,0.3
2022-10-23T23:00:00,1290A,115.8931,28.6843,南昌市,省外办,细颗粒物(PM2.5),99,132,100,74,47,178,150,166,159,20,20,14,13,1.0,1
2022-10-23T23:00:00,1291A,115.8886,28.7003,南昌市,省林业公司,细颗粒物(PM2.5),94,117,87,70,48,168,142,160,153,31,28,9,9,1.0,0.8
2022-10-23T23:00:00,1292A,115.8126,28.7442,南昌市,林科所,细颗粒物(PM2.5),92,114,78,68,43,187,169,180,177,15,15,12,11,1.1,0.9
2022-10-23T23:00:00,1294A,115.8518,28.687,南昌市,建工学校,颗粒物(PM10),87,123,89,54,43,179,158,168,163,28,27,13,12,1.3,1.1
2022-10-23T23:00:00,1295A,115.8921,28.6424,南昌市,象湖,细颗粒物(PM2.5),104,98,76,78,50,173,150,163,157,18,18,9,9,1.0,0.9
2022-10-23T23:00:00,1296A,115.7423,28.7996,南昌市,武术学校(对照点),细颗粒物(PM2.5),77,67,56,56,38,134,107,128,123,12,9,12,11,1.1,0.7
2022-10-23T23:00:00,1298A,115.9314,28.6842,南昌市,省站,细颗粒物(PM2.5),110,126,94,83,57,163,138,155,148,19,21,10,11,1.0,0.9
2022-10-23T23:00:00,1299A,116.9862,36.6114,济南市,科干所,颗粒物(PM10),62,73,70,24,22,109,58,86,70,38,36,6,5,0.6,0.5
2022-10-23T23:00:00,1300A,116.9376,36.665,济南市,农科所,颗粒物(PM10),90,129,99,42,27,96,3,77,34,91,58,7,6,1.1,0.5
2022-10-23T23:00:00,1301A,117.1265,36.6734,济南市,开发区,颗粒物(PM10),78,105,88,32,24,95,1,73,30,89,61,6,5,0.8,0.5
2022-10-23T23:00:00,1303A,117.0624,36.6868,济南市,省种子仓库,颗粒物(PM10),82,114,92,44,29,100,8,84,41,89,60,5,4,1.1,0.6
2022-10-23T23:00:00,1304A,116.9489,36.6447,济南市,机床二厂,颗粒物(PM10),113,176,116,56,40,102,6,85,39,90,60,8,6,1.1,0.9
2022-10-23T23:00:00,1305A,117.0495,36.663,济南市,市监测站,颗粒物(PM10),69,88,82,29,24,107,8,89,42,91,59,8,7,0.9,0.6
2022-10-23T23:00:00,1306A,116.7675,36.5484,济南市,长清党校,颗粒物(PM10),74,98,95,39,35,114,19,96,72,75,41,8,9,0.6,0.6
2022-10-23T23:00:00,1307A,120.6659,36.2403,青岛市,仰口(对照点),,44,44,28,14,10,104,104,92,92,9,9,9,5,0.5,0.4
2022-10-23T23:00:00,1308A,120.3905,36.1851,青岛市,李沧区子站,,,,,,,,,,,,,,,,
2022-10-23T23:00:00,1309A,120.3471,36.0699,青岛市,市北区子站,,,,,,,,,,,,,,,,
2022-10-23T23:00:00,1310A,120.4134,36.0658,青岛市,市南区东部子站,颗粒物(PM10),58,66,49,24,13,138,5,101,69,97,40,9,8,0.8,0.5
2022-10-23T23:00:00,1311A,120.3664,36.1032,青岛市,四方区子站,,,,61,,24,64,,,,,20,,6,,0.4
2022-10-23T23:00:00,1312A,120.2994,36.054,青岛市,市南区西部子站,颗粒物(PM10),67,83,53,17,16,154,8,108,69,96,44,9,9,0.6,0.5
2022-10-23T23:00:00,1313A,120.4581,36.0858,青岛市,崂山区子站,颗粒物(PM10),51,51,48,14,14,121,13,91,69,83,34,7,6,0.6,0.5
2022-10-23T23:00:00,1314A,120.1983,35.9608,青岛市,黄岛区子站,细颗粒物(PM2.5),74,78,52,54,21,110,31,95,74,71,49,9,6,0.5,0.3
2022-10-23T23:00:00,1315A,120.3999,36.3083,青岛市,城阳区子站,颗粒物(PM10),80,110,62,36,18,92,7,77,31,76,45,6,6,1.1,0.7
2022-10-23T23:00:00,1316A,113.69031,34.76122,郑州市,烟厂,细颗粒物(PM2.5),107,127,112,80,63,162,88,145,133,42,32,,10,0.8,0.7
2022-10-23T23:00:00,1317A,113.65724,34.77134,郑州市,郑纺机,细颗粒物(PM2.5),109,113,112,82,68,168,50,149,123,46,38,9,13,1.0,0.7
2022-10-23T23:00:00,1318A,113.67526,34.80246,郑州市,银行学校,细颗粒物(PM2.5),102,108,109,76,65,116,66,104,94,28,28,8,11,1.0,0.9
2022-10-23T23:00:00,1319A,113.56746,34.81334,郑州市,供水公司,细颗粒物(PM2.5),85,106,109,63,57,167,91,146,132,28,32,8,9,0.9,0.8
2022-10-23T23:00:00,1320A,113.7329,34.7178,郑州市,经开区管委,细颗粒物(PM2.5),110,141,115,83,69,162,58,147,107,48,28,6,9,0.7,0.6
2022-10-23T23:00:00,1321A,113.73961,34.77172,郑州市,四十七中,颗粒物(PM10),84,117,116,50,42,154,93,137,123,41,30,10,13,0.7,0.6
2022-10-23T23:00:00,1322A,113.60532,34.74838,郑州市,市监测站,颗粒物(PM10),86,121,125,47,49,177,67,155,135,38,29,6,9,0.7,0.7
2022-10-23T23:00:00,1323A,113.64164,34.7525,郑州市,河医大,细颗粒物(PM2.5),93,116,114,69,66,167,64,138,112,47,38,9,11,0.8,0.8
2022-10-23T23:00:00,1324A,113.51488,34.91089,郑州市,岗李水库(对照点),,,,,,,,,,,,,,,,
2022-10-23T23:00:00,1325A,114.3677,30.5584,武汉市,东湖梨园,臭氧1小时,65,73,73,39,52,234,172,211,190,20,30,9,14,0.7,1.4
2022-10-23T23:00:00,1326A,114.2529,30.558,武汉市,汉阳月湖,细颗粒物(PM2.5),64,71,75,46,49,213,144,192,160,32,32,8,9,0.9,0.9
2022-10-23T23:00:00,1327A,114.282,30.6189,武汉市,汉口花桥,颗粒物(PM10),60,70,72,39,41,210,159,185,162,17,24,11,12,0.7,0.8
2022-10-23T23:00:00,1328A,114.3025,30.5332,武汉市,武昌紫阳,颗粒物(PM10),58,66,80,28,39,204,135,185,148,37,41,10,15,0.8,1.3
2022-10-23T23:00:00,1329A,114.3646,30.6217,武汉市,青山钢花,细颗粒物(PM2.5),62,68,77,44,50,200,141,176,130,30,39,10,11,0.5,0.6
2022-10-23T23:00:00,1330A,114.1566,30.4825,武汉市,沌口新区,颗粒物(PM10),57,63,76,37,44,204,140,184,152,33,42,10,12,0.7,0.8
2022-10-23T23:00:00,1331A,114.3014,30.5944,武汉市,汉口江滩,臭氧1小时,58,58,67,36,42,214,166,191,171,15,27,8,10,0.9,0.9
2022-10-23T23:00:00,1333A,114.135,30.6319,武汉市,吴家山,颗粒物(PM10),61,71,70,32,43,212,145,194,173,32,34,9,10,0.9,0.8
2022-10-23T23:00:00,1334A,113.8454,30.2917,武汉市,沉湖七壕(对照点),颗粒物(PM10),68,85,68,41,39,236,117,210,172,29,27,9,10,0.8,0.8
2022-10-23T23:00:00,1335A,113.0833,28.2325,长沙市,经开区环保局,颗粒物(PM10),76,101,102,45,69,213,129,188,163,28,32,10,10,0.6,0.6
2022-10-23T23:00:00,1336A,112.8872,28.2189,长沙市,高开区环保局,细颗粒物(PM2.5),89,99,104,66,76,229,125,206,182,30,20,11,12,0.6,0.6
2022-10-23T23:00:00,1337A,113.0792,28.2053,长沙市,马坡岭,细颗粒物(PM2.5),80,98,100,59,75,207,94,184,159,39,29,12,12,0.6,0.6
2022-10-23T23:00:00,1338A,112.9394,28.19,长沙市,湖南师范大学,细颗粒物(PM2.5),77,90,94,56,74,215,125,197,177,25,21,7,7,0.9,0.9
2022-10-23T23:00:00,1339A,113.0178,28.1322,长沙市,雨花区环保局,细颗粒物(PM2.5),85,97,98,63,67,209,110,176,160,36,32,12,11,0.4,0.5
2022-10-23T23:00:00,1340A,112.9792,28.2597,长沙市,伍家岭,细颗粒物(PM2.5),92,108,111,68,75,231,114,207,180,37,24,10,10,0.9,0.8
2022-10-23T23:00:00,1341A,113.0014,28.1944,长沙市,火车新站,细颗粒物(PM2.5),73,91,95,53,62,216,123,196,173,29,24,10,10,0.7,0.6
2022-10-23T23:00:00,1342A,112.9844,28.1178,长沙市,天心区环保局,颗粒物(PM10),72,93,97,51,66,225,94,193,160,27,28,10,10,0.5,0.5
2022-10-23T23:00:00,1343A,112.8908,28.1308,长沙市,湖南中医药大学,细颗粒物(PM2.5),78,103,117,57,70,213,118,192,168,27,19,6,7,0.8,0.8
2022-10-23T23:00:00,1344A,112.9581,28.3611,长沙市,沙坪(对照点),细颗粒物(PM2.5),73,87,95,53,69,215,126,194,175,18,19,8,9,0.8,0.8
2022-10-23T23:00:00,1345A,113.2347,23.1423,广州市,广雅中学,颗粒物(PM10),60,70,74,38,37,167,94,152,108,41,62,8,8,0.7,0.8
2022-10-23T23:00:00,1346A,113.2612,23.105,广州市,市五中,颗粒物(PM10),52,53,59,34,37,194,106,178,136,32,48,7,8,0.7,0.8
2022-10-23T23:00:00,1348A,113.3478,23.0916,广州市,广东商学院,颗粒物(PM10),53,56,63,29,32,185,74,164,133,40,49,6,7,0.7,0.7
2022-10-23T23:00:00,1349A,113.4332,23.1047,广州市,市八十六中,颗粒物(PM10),66,82,80,31,32,165,62,153,107,58,59,8,9,0.7,0.7
2022-10-23T23:00:00,1350A,113.3505,22.9483,广州市,番禺中学,,50,50,59,27,29,191,82,181,149,30,41,12,12,0.6,0.7
2022-10-23T23:00:00,1351A,113.2146,23.3916,广州市,花都师范,,48,48,47,28,26,169,103,155,145,26,28,9,10,0.8,0.7
2022-10-23T23:00:00,1352A,113.2597,23.1331,广州市,市监测站,颗粒物(PM10),58,65,64,35,32,188,101,175,141,38,51,7,8,0.8,0.8
2022-10-23T23:00:00,1353A,113.5618,23.312,广州市,九龙镇镇龙,颗粒物(PM10),92,134,96,53,37,142,2,127,48,80,51,5,5,0.7,0.6
2022-10-23T23:00:00,1354A,113.2765,23.1544,广州市,麓湖,,,73,50,42,29,190,,172,119,62,45,5,5,0.7,0.6
2022-10-23T23:00:00,1355A,113.443,23.3035,广州市,帽峰山森林公园(对照点),颗粒物(PM10),57,64,41,38,24,170,76,154,129,55,19,12,8,0.6,0.4
2022-10-23T23:00:00,1356A,114.1063,22.5545,深圳市,通心岭子站,,44,44,41,23,23,157,111,134,121,7,18,4,5,0.5,0.6
2022-10-23T23:00:00,1357A,114.117,22.5625,深圳市,洪湖,颗粒物(PM10),57,63,51,29,26,159,118,136,126,11,25,6,7,0.6,0.7
2022-10-23T23:00:00,1358A,113.987,22.5417,深圳市,华侨城,颗粒物(PM10),53,55,49,25,24,162,119,138,126,10,25,6,7,0.5,0.5
2022-10-23T23:00:00,1359A,113.9181,22.5171,深圳市,南海子站,,46,46,44,28,26,178,125,157,142,12,25,4,5,0.4,0.4
2022-10-23T23:00:00,1360A,114.2458,22.5689,深圳市,盐田,,40,40,35,24,23,154,113,131,123,10,31,6,7,0.5,0.6
2022-10-23T23:00:00,1361A,114.2283,22.7244,深圳市,龙岗,颗粒物(PM10),53,56,47,26,24,162,103,138,119,13,20,4,6,0.4,0.5
2022-10-23T23:00:00,1362A,113.8953,22.5861,深圳市,西乡,,,,,,,,,,,,,,,,
2022-10-23T23:00:00,1363A,114.494,22.5422,深圳市,南澳,,40,40,34,23,20,138,96,130,121,9,11,12,12,0.6,0.7
2022-10-23T23:00:00,1364A,114.41,22.6342,深圳市,葵涌,,41,41,34,26,22,145,100,134,123,9,13,7,7,0.6,0.7
2022-10-23T23:00:00,1365A,114.297,22.5978,深圳市,梅沙,颗粒物(PM10),51,51,44,23,22,160,116,136,123,6,13,8,10,0.5,0.5
2022-10-23T23:00:00,1366A,114.0678,22.738,深圳市,观澜,颗粒物(PM10),60,70,75,28,30,153,88,138,99,21,33,6,7,0.5,0.6
2022-10-23T23:00:00,1367A,113.5814,22.2618,珠海市,吉大,,41,41,43,24,31,190,121,148,128,8,27,5,6,0.4,0.5
2022-10-23T23:00:00,1368A,113.4881,22.2335,珠海市,前山,,47,47,58,23,27,176,117,152,124,18,41,5,7,0.3,0.4
2022-10-23T23:00:00,1369A,113.628,22.4251,珠海市,唐家,,46,46,41,31,29,189,115,150,127,15,22,7,8,0.5,0.5
2022-10-23T23:00:00,1370A,113.299,22.2281,珠海市,斗门,,45,45,58,22,29,197,100,165,130,12,33,7,10,0.5,0.6
2022-10-23T23:00:00,1371A,113.1294,23.0067,佛山市,湾梁,颗粒物(PM10),63,75,74,36,36,214,87,194,146,44,57,10,10,0.7,0.8
2022-10-23T23:00:00,1372A,113.1083,23.0478,佛山市,华材职中,颗粒物(PM10),73,95,80,40,44,190,92,171,118,43,62,12,14,0.6,0.8
2022-10-23T23:00:00,1373A,113.144,23.0453,佛山市,南海气象局,颗粒物(PM10),70,89,72,44,37,199,85,179,135,53,63,10,10,0.8,0.9
2022-10-23T23:00:00,1374A,113.2881,22.8094,佛山市,顺德苏岗,颗粒物(PM10),53,55,53,31,31,203,83,187,153,24,42,6,9,0.8,0.9
2022-10-23T23:00:00,1375A,113.2544,22.7642,佛山市,容桂街道办,,,,,,,,,,,,,,,,
2022-10-23T23:00:00,1376A,112.8383,22.8678,佛山市,高明孔堂,颗粒物(PM10),56,62,58,38,31,222,86,199,148,34,29,11,13,0.8,0.7
2022-10-23T23:00:00,1377A,112.8836,23.1588,佛山市,三水监测站,细颗粒物(PM2.5),67,78,77,48,44,176,51,163,115,75,52,10,12,0.8,0.8
2022-10-23T23:00:00,1378A,112.867,23.185,佛山市,三水云东海,颗粒物(PM10),58,66,68,40,40,187,78,170,126,31,44,7,12,0.6,0.6
2022-10-23T23:00:00,1379A,113.3769,22.5211,中山市,华柏园,,41,41,57,26,33,232,96,199,152,17,37,5,9,0.5,0.7
2022-10-23T23:00:00,1380A,113.3881,22.5497,中山市,张溪,,39,39,68,20,32,245,106,216,166,14,36,5,9,0.4,0.5
2022-10-23T23:00:00,1381A,113.4075,22.5111,中山市,紫马岭,,36,36,50,25,29,227,100,192,151,12,24,6,9,0.4,0.5
2022-10-23T23:00:00,1382A,113.4411,22.4853,中山市,长江旅游区(对照点),,42,42,44,12,23,220,109,186,147,12,17,7,8,0.6,0.6
2022-10-23T23:00:00,1383A,113.1064,22.6058,江门市,北街,,39,36,65,27,33,221,81,203,163,19,38,6,12,0.6,0.8
2022-10-23T23:00:00,1384A,113.0731,22.5835,江门市,西区,颗粒物(PM10),56,61,73,26,33,232,88,214,172,19,40,8,13,0.5,0.7
2022-10-23T23:00:00,1385A,113.0219,22.5311,江门市,圭峰西,颗粒物(PM10),57,63,63,26,28,243,92,220,182,22,29,6,9,0.5,0.6
2022-10-23T23:00:00,1386A,113.0828,22.5947,江门市,东湖,颗粒物(PM10),57,64,68,23,32,226,92,210,171,18,36,7,12,0.5,0.7
2022-10-23T23:00:00,1387A,113.7875,23.0457,东莞市,东城主山,,,,,,,,,,,,,,,,
2022-10-23T23:00:00,1388A,113.7533,23.0202,东莞市,南城元岭,,,,,,,,,,,,,,,,
2022-10-23T23:00:00,1389A,113.7547,23.0494,东莞市,莞城梨川,颗粒物(PM10),60,69,60,34,29,198,76,181,141,33,40,8,11,0.6,0.7
2022-10-23T23:00:00,1390A,113.7944,23.0128,东莞市,东城石井,颗粒物(PM10),56,62,45,34,27,182,68,168,125,27,26,9,12,0.8,0.8
2022-10-23T23:00:00,1391A,113.7383,22.9658,东莞市,南城西平,,45,6,80,31,30,172,69,164,128,36,44,10,14,0.7,0.7
2022-10-23T23:00:00,1392A,114.4183,23.0528,惠州市,河南岸金山湖子站,细颗粒物(PM2.5),59,63,60,42,27,148,93,136,110,16,23,4,9,0.6,0.6
2022-10-23T23:00:00,1393A,114.4053,23.0822,惠州市,下埔横江三路子站,细颗粒物(PM2.5),57,59,53,40,25,160,98,149,117,19,25,6,10,0.4,0.5
2022-10-23T23:00:00,1394A,114.4103,23.1142,惠州市,江北云山西路子站,,,,,,61,151,98,151,104,,16,5,6,0.4,0.4
2022-10-23T23:00:00,1395A,114.4645,22.7833,惠州市,惠阳区承修路船湖子站,颗粒物(PM10),59,67,73,27,25,150,113,140,133,16,20,6,8,0.8,0.9
2022-10-23T23:00:00,1396A,114.5317,22.7422,惠州市,大亚湾管委会子站,颗粒物(PM10),58,66,49,24,22,139,104,129,120,20,21,3,4,0.6,0.7
2022-10-23T23:00:00,1397A,112.4267,23.0706,肇庆市,睦岗子站,颗粒物(PM10),56,62,50,32,29,193,15,183,111,107,59,6,7,0.8,0.6
2022-10-23T23:00:00,1398A,112.4645,23.0475,肇庆市,城中子站,颗粒物(PM10),56,62,49,32,26,187,33,178,108,92,56,11,16,0.8,0.6
2022-10-23T23:00:00,1399A,112.5544,23.1522,肇庆市,坑口子站,,39,36,38,27,25,191,113,179,149,22,24,10,11,0.6,0.6
2022-10-23T23:00:00,1400A,112.4753,23.1,肇庆市,七星岩子站(对照点),,42,39,43,28,25,184,132,180,162,12,23,5,6,0.7,0.7
2022-10-23T23:00:00,1401A,108.3103,22.7881,南宁市,二十一中,细颗粒物(PM2.5),90,100,74,67,43,173,13,160,108,85,45,8,14,1.2,1
2022-10-23T23:00:00,1402A,108.3141,22.8528,南宁市,北湖,颗粒物(PM10),111,172,89,83,50,166,5,153,97,81,41,11,11,1.0,0.8
2022-10-23T23:00:00,1403A,108.3206,22.8225,南宁市,市监测站,细颗粒物(PM2.5),83,112,88,61,48,168,5,144,82,124,72,11,14,1.4,1
2022-10-23T23:00:00,1404A,108.3829,22.8037,南宁市,大自然花园,颗粒物(PM10),66,81,67,47,44,168,82,152,110,48,49,10,10,0.9,1
2022-10-23T23:00:00,1405A,108.4394,22.7904,南宁市,仙葫(对照点),颗粒物(PM10),122,194,92,66,49,164,2,151,78,108,58,10,10,1.2,0.8
2022-10-23T23:00:00,1406A,108.2397,22.8467,南宁市,区农职院,,,66,56,40,33,175,65,167,115,,33,9,9,1.0,1
2022-10-23T23:00:00,1407A,108.3275,22.735,南宁市,英华嘉园,颗粒物(PM10),78,106,71,54,41,159,6,137,69,114,52,9,13,1.4,1.1
2022-10-23T23:00:00,1408A,108.2257,22.7757,南宁市,沙井镇街道办,颗粒物(PM10),144,238,88,72,43,183,4,160,101,112,45,25,13,1.0,0.8
2022-10-23T23:00:00,1409A,110.576,19.9507,海口市,东寨港(对照点),,,49,48,31,26,72,54,70,66,,,6,6,0.5,0.5
2022-10-23T23:00:00,1410A,110.3232,20.0574,海口市,海南大学,臭氧1小时,59,53,49,32,32,189,167,178,177,20,24,10,9,0.7,0.7
2022-10-23T23:00:00,1411A,110.283,20.0053,海口市,秀英海南医院,臭氧1小时,58,59,56,38,32,183,166,167,167,13,28,8,7,0.6,0.6
2022-10-23T23:00:00,1412A,110.338,19.9969,海口市,海南师范大学,臭氧1小时,62,66,59,24,24,188,169,182,181,15,25,9,8,0.8,0.8
2022-10-23T23:00:00,1413A,110.33,20.0356,海口市,龙华路环保局宿舍,臭氧1小时,60,58,53,25,27,177,168,173,173,11,20,8,7,0.7,0.7
2022-10-23T23:00:00,1414A,106.3787,29.8279,重庆市,缙云山(对照点),细颗粒物(PM2.5),55,55,56,39,33,190,122,181,105,16,26,5,5,0.5,0.5
2022-10-23T23:00:00,1416A,106.4213,29.8253,重庆市,天生,细颗粒物(PM2.5),87,71,121,64,86,67,41,55,55,47,69,12,11,1.0,1.2
2022-10-23T23:00:00,1417A,106.6263,29.7228,重庆市,两路,细颗粒物(PM2.5),67,78,98,48,63,71,69,57,57,30,81,9,15,0.7,1
2022-10-23T23:00:00,1418A,106.2953,29.5983,重庆市,虎溪,细颗粒物(PM2.5),73,83,125,53,82,91,68,58,54,35,90,10,15,0.8,1.2
2022-10-23T23:00:00,1419A,106.5777,29.5102,重庆市,南坪,细颗粒物(PM2.5),93,98,123,69,83,73,58,60,58,29,83,4,14,0.8,1.2
2022-10-23T23:00:00,1420A,106.6556,29.6277,重庆市,唐家沱,细颗粒物(PM2.5),74,93,125,54,69,99,72,66,66,28,82,10,16,0.6,0.9
2022-10-23T23:00:00,1421A,106.6349,29.4906,重庆市,茶园,细颗粒物(PM2.5),112,103,162,84,85,42,35,33,30,52,105,8,13,0.9,1.3
2022-10-23T23:00:00,1422A,106.3754,29.4572,重庆市,白市驿,细颗粒物(PM2.5),73,82,155,53,106,96,58,76,58,39,78,13,26,1.2,1.4
2022-10-23T23:00:00,1425A,106.6205,29.7166,重庆市,空港,细颗粒物(PM2.5),85,63,95,63,73,93,81,74,73,17,70,13,20,0.6,1
2022-10-23T23:00:00,1426A,106.4782,29.4875,重庆市,新山村,细颗粒物(PM2.5),93,84,155,69,96,96,47,41,34,56,124,6,13,0.7,1.2
2022-10-23T23:00:00,1427A,106.5616,29.6453,重庆市,礼嘉,细颗粒物(PM2.5),73,69,138,53,71,72,72,53,53,35,115,11,17,0.8,1.4
2022-10-23T23:00:00,1428A,106.4522,29.7091,重庆市,蔡家,细颗粒物(PM2.5),115,102,118,87,80,76,44,43,42,38,75,9,10,0.9,1
2022-10-23T23:00:00,1429A,106.5093,29.3917,重庆市,鱼新街,细颗粒物(PM2.5),97,89,134,72,100,48,42,39,39,34,89,12,21,1.1,1.3
2022-10-23T23:00:00,1431A,103.9728,30.7236,成都市,金泉两河,细颗粒物(PM2.5),137,118,100,104,69,198,139,162,148,14,35,8,10,0.8,0.7
2022-10-23T23:00:00,1432A,104.1419,30.6764,成都市,十里店,细颗粒物(PM2.5),114,118,115,86,72,164,92,143,132,31,58,8,9,0.8,0.9
2022-10-23T23:00:00,1433A,104.0594,30.5767,成都市,三瓦窑,细颗粒物(PM2.5),128,110,108,97,66,187,142,161,143,22,64,10,6,0.6,0.7
2022-10-23T23:00:00,1434A,104.1122,30.6306,成都市,沙河铺,细颗粒物(PM2.5),122,110,95,92,66,174,96,146,127,26,54,9,7,0.8,0.8
2022-10-23T23:00:00,1437A,104.0431,30.6556,成都市,君平街,细颗粒物(PM2.5),134,123,105,102,77,192,114,163,143,29,57,6,9,1.0,1
2022-10-23T23:00:00,1438A,103.6202,31.0201,成都市,灵岩寺(对照点),细颗粒物(PM2.5),77,83,58,56,39,150,95,132,128,16,12,6,10,0.7,0.6
2022-10-23T23:00:00,1439A,106.6899,26.5998,贵阳市,马鞍山,,35,31,32,24,24,133,60,119,91,16,10,4,5,0.4,0.4
2022-10-23T23:00:00,1440A,106.6971,26.5694,贵阳市,市环保站,,46,46,34,26,22,134,87,124,107,32,18,5,5,0.3,0.3
2022-10-23T23:00:00,1441A,106.6243,26.6266,贵阳市,鉴湖路,,44,44,39,19,21,138,117,130,123,11,10,5,5,0.4,0.4
2022-10-23T23:00:00,1442A,106.7487,26.6343,贵阳市,燕子冲,,49,44,40,34,31,147,101,136,114,25,20,5,5,0.4,0.4
2022-10-23T23:00:00,1443A,106.6555,26.4365,贵阳市,碧云窝,颗粒物(PM10),62,73,52,34,26,151,84,134,106,29,16,7,5,0.4,0.4
2022-10-23T23:00:00,1444A,106.694,26.5161,贵阳市,中院村,颗粒物(PM10),53,56,44,31,25,135,109,122,99,20,22,8,7,0.4,0.5
2022-10-23T23:00:00,1445A,106.7109,26.6027,贵阳市,红边门,"颗粒物(PM10),细颗粒物(PM2.5)",52,53,42,36,29,145,74,132,98,43,24,7,6,0.6,0.5
2022-10-23T23:00:00,1446A,106.7164,26.5699,贵阳市,新华路,颗粒物(PM10),52,53,35,31,26,139,96,130,101,22,13,5,5,0.4,0.4
2022-10-23T23:00:00,1447A,106.674,26.5424,贵阳市,太慈桥,颗粒物(PM10),53,56,42,29,21,129,37,120,71,42,16,4,4,0.6,0.4
2022-10-23T23:00:00,1450A,102.8204,24.8886,昆明市,呈贡新区,,44,44,24,20,11,61,7,51,36,40,20,7,7,0.6,0.4
2022-10-23T23:00:00,1451A,102.6251,24.9608,昆明市,西山森林公园(对照点),,20,10,8,3,6,69,64,63,63,7,7,7,6,0.6,0.6
2022-10-23T23:00:00,1452A,102.7252,25.0902,昆明市,龙泉镇,,28,28,23,15,13,58,11,47,38,34,17,10,7,0.6,0.5
2022-10-23T23:00:00,1453A,102.7266,25.0375,昆明市,东风东路,,34,34,26,19,15,63,21,48,33,35,28,17,10,0.6,0.5
2022-10-23T23:00:00,1454A,102.6742,25.0669,昆明市,金鼎山,,25,25,25,15,16,56,27,47,38,24,22,9,6,0.5,0.5
2022-10-23T23:00:00,1455A,102.6644,25.0401,昆明市,碧鸡广场,,40,40,25,12,14,61,8,51,34,46,27,10,10,0.7,0.5
2022-10-23T23:00:00,1456A,91.1319,29.6514,拉萨市,八廓街,,,7,7,,,116,106,111,108,7,8,7,7,0,0
2022-10-23T23:00:00,1457A,91.1221,29.6747,拉萨市,市环保局,,32,4,7,0,2,114,101,108,104,4,6,2,2,0.2,0.2
2022-10-23T23:00:00,1458A,91.0874,29.6475,拉萨市,区监测站,,37,6,5,0,2,124,116,120,118,2,3,8,8,0.3,0.3
2022-10-23T23:00:00,1459A,91.1774,29.6541,拉萨市,西藏大学,,34,9,10,0,2,115,107,110,110,5,6,10,10,0.0,0.1
2022-10-23T23:00:00,1460A,90.9798,29.6588,拉萨市,区辐射站,,32,6,5,5,5,115,102,112,109,4,5,8,8,0.2,0.2
2022-10-23T23:00:00,1461A,91.0834,29.6292,拉萨市,拉萨火车站,,34,6,7,8,3,116,107,111,110,6,5,10,10,0,0
2022-10-23T23:00:00,1462A,108.882,34.2749,西安市,高压开关厂,颗粒物(PM10),97,144,152,56,72,111,7,91,54,101,82,10,11,1.2,1
2022-10-23T23:00:00,1463A,108.993,34.2629,西安市,兴庆小区,颗粒物(PM10),95,140,106,58,56,109,4,90,55,90,51,12,14,1.1,0.8
2022-10-23T23:00:00,1464A,109.06,34.2572,西安市,纺织城,颗粒物(PM10),93,136,136,45,58,101,3,68,32,78,67,13,14,1.1,1
2022-10-23T23:00:00,1465A,108.9356,34.2173,西安市,小寨,颗粒物(PM10),94,137,116,53,50,109,4,92,51,104,59,13,13,1.6,1.1
2022-10-23T23:00:00,1466A,108.954,34.2713,西安市,市人民体育场,颗粒物(PM10),86,122,126,62,76,108,6,85,53,90,64,9,11,1.5,0.8
2022-10-23T23:00:00,1467A,108.8922,34.2322,西安市,高新西区,颗粒物(PM10),88,126,123,45,60,116,5,97,58,99,73,10,10,1.3,1.1
2022-10-23T23:00:00,1468A,108.935,34.3474,西安市,经开区,颗粒物(PM10),107,163,131,54,58,98,5,81,55,106,78,11,12,1.5,1
2022-10-23T23:00:00,1469A,108.906,34.1546,西安市,长安区,颗粒物(PM10),128,206,140,85,60,129,4,95,52,89,57,6,8,1.0,0.7
2022-10-23T23:00:00,1470A,109.2,34.6575,西安市,阎良区,,,,,,,,,,,,,,,,
2022-10-23T23:00:00,1471A,109.2186,34.3731,西安市,临潼区,"颗粒物(PM10),细颗粒物(PM2.5)",75,99,119,55,57,117,63,90,71,33,50,12,13,1.0,0.8
2022-10-23T23:00:00,1472A,108.869,34.378,西安市,草滩(对照点),颗粒物(PM10),86,121,117,34,52,92,8,92,30,76,74,9,11,1.1,1.1
2022-10-23T23:00:00,1473A,108.985,34.1978,西安市,曲江文化产业集团,颗粒物(PM10),97,143,118,55,68,116,2,97,60,103,64,10,13,1.4,0.9
2022-10-23T23:00:00,1474A,109.051,34.3213,西安市,广运潭,颗粒物(PM10),95,139,123,45,58,101,3,68,35,91,68,12,12,0.9,0.7
2022-10-23T23:00:00,1476A,103.631,36.1031,兰州市,兰炼宾馆,颗粒物(PM10),75,100,87,53,44,158,14,127,90,99,51,9,26,1.0,0.7
2022-10-23T23:00:00,1477A,104.1373,35.9454,兰州市,榆中兰大校区(对照点),,,,,,,,,,,,,,,,
2022-10-23T23:00:00,1478A,103.8412,36.0726,兰州市,生物制品所,颗粒物(PM10),66,82,84,44,38,134,5,106,65,83,55,6,12,0.9,0.8
2022-10-23T23:00:00,1479A,103.831,36.0464,兰州市,铁路设计院,颗粒物(PM10),78,105,87,52,42,135,8,105,62,92,64,9,14,1.5,1.2
2022-10-23T23:00:00,1480A,101.748,36.6428,西宁市,市环境监测站,,,,,,,,,,,,,,,,
2022-10-23T23:00:00,1482A,101.834,36.5819,西宁市,四陆医院,,,,,,,,,,,,,,,,
2022-10-23T23:00:00,1483A,101.524,36.6867,西宁市,第五水厂(对照点),,,,,,,,,,,,,,,,
2022-10-23T23:00:00,1484A,105.9512,38.6016,银川市,贺兰山马莲口(对照点),,46,46,41,31,21,147,122,135,133,17,18,16,21,0.6,0.6
2022-10-23T23:00:00,1488A,106.2328,38.4975,银川市,贺兰山东路,细颗粒物(PM2.5),89,119,67,66,45,127,61,113,97,50,37,16,14,0.9,0.7
2022-10-23T23:00:00,1489A,106.1358,38.5036,银川市,学院路,颗粒物(PM10),98,145,84,47,34,132,60,109,89,44,39,16,16,1.3,1.1
2022-10-23T23:00:00,1490A,87.5801,43.8303,乌鲁木齐市,监测站,颗粒物(PM10),74,97,137,42,49,96,22,84,65,57,34,9,11,1.0,0.8
2022-10-23T23:00:00,1491A,87.6046,43.768,乌鲁木齐市,收费所,颗粒物(PM10),72,93,196,46,71,102,31,97,78,46,16,8,10,0.6,0.3
2022-10-23T23:00:00,1492A,87.4754,43.9469,乌鲁木齐市,新疆农科院农场(对照点),细颗粒物(PM2.5),62,41,23,44,46,68,3,58,39,70,47,5,6,1.0,1.1
2022-10-23T23:00:00,1493A,87.5525,43.8711,乌鲁木齐市,铁路局,颗粒物(PM10),71,92,78,44,44,94,17,76,62,53,40,8,10,1.0,1.1
2022-10-23T23:00:00,1494A,87.6432,43.831,乌鲁木齐市,三十一中学,,,138,194,,,116,64,93,81,32,17,18,15,0.7,0.4
2022-10-23T23:00:00,1496A,87.7216,44.1747,乌鲁木齐市,米东区环保局,颗粒物(PM10),93,136,121,39,59,82,58,66,65,26,33,12,13,0.4,0.7
2022-10-23T23:00:00,1508A,112.9433,27.8614,湘潭市,板塘,细颗粒物(PM2.5),80,93,102,59,78,226,135,211,188,36,29,16,15,0.4,0.5
2022-10-23T23:00:00,1511A,112.9118,27.8403,湘潭市,市监测站,细颗粒物(PM2.5),83,85,93,61,73,213,140,196,176,24,24,11,12,0.6,0.6
2022-10-23T23:00:00,1512A,112.8937,27.8728,湘潭市,江麓,细颗粒物(PM2.5),77,97,102,56,62,238,152,219,200,27,21,13,11,0.6,0.6
2022-10-23T23:00:00,1513A,112.9227,27.8159,湘潭市,岳塘,颗粒物(PM10),75,99,109,54,71,224,144,208,188,31,28,10,11,0.4,0.8
2022-10-23T23:00:00,1514A,112.9074,27.9119,湘潭市,科大,细颗粒物(PM2.5),87,98,114,64,76,233,146,214,194,30,24,8,8,0.6,0.6
2022-10-23T23:00:00,1515A,113.135,27.8244,株洲市,天台山庄,细颗粒物(PM2.5),69,68,67,50,47,224,130,209,186,42,34,5,7,0.7,0.5
2022-10-23T23:00:00,1518A,113.095,27.8867,株洲市,株冶医院,细颗粒物(PM2.5),72,75,90,52,55,224,84,204,172,80,47,7,10,0.6,0.6
2022-10-23T23:00:00,1519A,113.167,27.8667,株洲市,市四中,细颗粒物(PM2.5),78,100,77,57,54,226,106,214,181,55,42,11,11,0.9,0.6
2022-10-23T23:00:00,1520A,113.143,27.8381,株洲市,火车站,细颗粒物(PM2.5),92,85,81,68,50,238,81,222,187,71,38,8,9,1.3,0.8
2022-10-23T23:00:00,1524A,113.13,27.8528,株洲市,市监测站,细颗粒物(PM2.5),92,90,83,68,56,225,107,210,181,54,32,3,6,0.9,0.7
2022-10-23T23:00:00,1552A,106.805,26.3003,贵阳市,桐木岭(对照点),,,,,,,,,,,,,,,,
2022-10-23T23:00:00,1559A,113.251,27.8336,株洲市,大京风景区(对照点),颗粒物(PM10),60,70,71,42,42,202,92,185,151,21,17,3,5,0.6,0.6
2022-10-23T23:00:00,1562A,113.0048,27.9153,湘潭市,昭山,细颗粒物(PM2.5),82,111,124,60,75,221,92,201,169,47,30,5,6,0.7,0.7
2022-10-23T23:00:00,1564A,112.4876,27.9164,湘潭市,韶山(对照点),颗粒物(PM10),78,106,84,40,39,186,172,181,178,21,19,12,13,0.6,0.6
2022-10-23T23:00:00,1585A,109.8756,40.6532,包头市,市环境监测站,,44,44,36,17,13,91,15,83,51,51,24,10,17,1.3,1
2022-10-23T23:00:00,1587A,109.9991,40.5842,包头市,包头八中,颗粒物(PM10),61,72,50,17,16,93,0,84,44,69,40,18,12,1.0,0.7
2022-10-23T23:00:00,1588A,109.8538,40.6821,包头市,青山宾馆,颗粒物(PM10),65,80,43,32,16,73,4,68,39,67,34,14,23,1.0,1
2022-10-23T23:00:00,1589A,109.8642,40.6288,包头市,惠龙物流,,40,40,33,27,13,91,26,83,58,41,23,10,13,1.2,0.9
2022-10-23T23:00:00,1590A,110.0377,40.5546,包头市,东河鸿龙湾,颗粒物(PM10),67,84,45,28,15,100,2,85,46,64,39,14,13,1.1,0.7
2022-10-23T23:00:00,1591A,110.0023,39.8129,鄂尔多斯市,综合楼,颗粒物(PM10),58,66,33,11,7,76,16,68,43,61,29,21,10,0.8,0.5
2022-10-23T23:00:00,1592A,109.9486,39.8261,鄂尔多斯市,巴音孟克林场办事处,颗粒物(PM10),56,61,34,22,13,92,21,80,58,63,36,23,13,1.0,0.8
2022-10-23T23:00:00,1593A,109.7736,39.5986,鄂尔多斯市,康泽苑,,31,31,27,7,7,94,25,85,47,30,20,5,5,1.0,1
2022-10-23T23:00:00,1594A,109.8119,39.5989,鄂尔多斯市,华泰汽车城,,41,41,35,17,13,87,6,76,36,57,26,8,8,0.6,0.5
2022-10-23T23:00:00,1595A,109.9734,39.7884,鄂尔多斯市,奥林花园,颗粒物(PM10),81,112,55,27,12,88,5,74,31,73,40,15,8,0.8,0.4
2022-10-23T23:00:00,1596A,122.2414,40.6592,营口市,学府南路,,,,,,,,,,,,,,,,
2022-10-23T23:00:00,1597A,122.2703,40.7094,营口市,大庆路,颗粒物(PM10),52,53,43,30,22,84,14,74,37,46,35,4,8,0.6,0.8
2022-10-23T23:00:00,1598A,122.215,40.6511,营口市,镜湖西路,,42,42,38,26,15,75,16,66,45,42,33,3,7,0.8,0.9
2022-10-23T23:00:00,1599A,122.167,40.6655,营口市,西炮台,细颗粒物(PM2.5),57,57,31,40,19,78,18,70,47,41,30,9,13,0.6,0.7
2022-10-23T23:00:00,1600A,124.3303,40.0625,丹东市,江湾东路,,22,22,26,9,11,77,56,67,57,12,20,10,11,0.4,0.4
2022-10-23T23:00:00,1601A,124.4256,40.1503,丹东市,临江后街,,,,,,,,,72,,,,,,,
2022-10-23T23:00:00,1602A,124.3933,40.1461,丹东市,元宝山,,21,21,34,6,12,66,59,58,58,11,20,9,13,0.4,0.5
2022-10-23T23:00:00,1603A,124.3633,40.1092,丹东市,民主桥,,25,25,29,9,10,76,52,65,56,15,21,10,13,0.4,0.6
2022-10-23T23:00:00,1604A,122.0303,41.1489,盘锦市,开发区,,36,29,22,25,12,70,14,64,48,50,30,7,14,0.9,0.7
2022-10-23T23:00:00,1605A,122.0485,41.0883,盘锦市,兴隆台,,47,47,24,31,11,71,5,65,46,57,25,10,15,1.0,0.5
2022-10-23T23:00:00,1606A,121.8297,41.1028,盘锦市,新生街道,,27,24,24,13,13,69,4,62,38,54,30,10,49,0.7,0.6
2022-10-23T23:00:00,1607A,120.9092,40.7136,葫芦岛市,龙港区,颗粒物(PM10),76,101,44,36,17,73,14,65,38,63,28,229,44,1.3,0.4
2022-10-23T23:00:00,1608A,120.8392,40.7514,葫芦岛市,化工街,,,63,46,,,75,10,69,36,59,35,,,0.9,0.7
2022-10-23T23:00:00,1609A,120.8341,40.7073,葫芦岛市,新区,颗粒物(PM10),55,60,37,27,12,72,9,67,40,67,40,21,13,0.9,0.6
2022-10-23T23:00:00,1610A,120.8695,40.7677,葫芦岛市,东城区,颗粒物(PM10),58,65,44,21,17,67,4,60,26,57,35,18,19,0.9,0.6
2022-10-23T23:00:00,1611A,118.5819,24.9117,泉州市,涂山街,,,39,40,,12,148,115,132,105,8,10,6,7,0.6,0.6
2022-10-23T23:00:00,1612A,118.5972,24.8978,泉州市,津头埔,,41,41,39,21,20,144,113,129,101,6,8,6,7,0.4,0.5
2022-10-23T23:00:00,1613A,118.6663,24.9424,泉州市,万安,,42,42,40,28,27,155,125,142,113,6,9,6,8,0.5,0.6
2022-10-23T23:00:00,1614A,118.6117,24.9604,泉州市,清源山(对照点),,,,,,,,,,,,,,,,
2022-10-23T23:00:00,1616A,117.6795,36.229,济南市,技术学院,颗粒物(PM10),79,107,110,35,27,116,5,96,58,93,47,7,8,1.2,1.1
2022-10-23T23:00:00,1618A,118.3429,35.0532,临沂市,沂河小区,细颗粒物(PM2.5),88,100,73,65,26,111,25,98,63,84,28,11,9,0.7,0.5
2022-10-23T23:00:00,1619A,118.295,35.0583,临沂市,鲁南制药厂,颗粒物(PM10),81,112,75,53,19,122,20,108,70,93,35,14,9,0.9,0.6
2022-10-23T23:00:00,1620A,118.2794,34.9976,临沂市,新光毛纺厂,细颗粒物(PM2.5),124,163,81,94,20,116,8,102,66,99,39,9,7,1.1,0.8
2022-10-23T23:00:00,1621A,118.3956,35.0888,临沂市,河东保险公司,颗粒物(PM10),65,80,65,38,21,113,26,104,78,68,27,10,7,1.0,0.7
2022-10-23T23:00:00,1622A,116.3032,37.4674,德州市,儿童乐园,颗粒物(PM10),85,119,123,48,42,132,54,113,69,68,56,11,16,0.6,0.7
2022-10-23T23:00:00,1624A,116.2991,37.4451,德州市,监理站,颗粒物(PM10),84,118,126,59,49,137,51,119,78,75,48,14,18,0.7,0.8
2022-10-23T23:00:00,1625A,115.9848,36.4372,聊城市,区政府,颗粒物(PM10),92,133,131,53,53,132,3,94,48,75,53,10,14,1.4,1
2022-10-23T23:00:00,1628A,118.0062,37.3803,滨州市,市环保局,颗粒物(PM10),55,59,80,27,30,108,29,100,68,46,31,16,32,0.6,0.6
2022-10-23T23:00:00,1629A,118.0018,37.3617,滨州市,第二水厂,颗粒物(PM10),59,67,70,28,28,108,32,98,69,47,42,14,20,0.5,0.6
2022-10-23T23:00:00,1630A,117.9776,37.393,滨州市,北中新校,颗粒物(PM10),60,69,56,27,26,106,14,98,63,63,37,25,18,0.6,0.5
2022-10-23T23:00:00,1631A,118.0414,36.8103,淄博市,人民公园,颗粒物(PM10),79,107,113,43,38,101,8,84,49,89,56,15,13,0.9,0.8
2022-10-23T23:00:00,1632A,118.0253,36.8406,淄博市,东风化工厂,,,,,,,,,,,,,,,,
2022-10-23T23:00:00,1633A,117.8525,36.4847,淄博市,双山,颗粒物(PM10),79,107,96,43,31,93,9,86,42,70,42,18,10,0.6,0.5
2022-10-23T23:00:00,1634A,117.9592,36.6331,淄博市,气象站,颗粒物(PM10),99,147,120,44,34,106,1,90,39,81,57,13,14,0.8,0.7
2022-10-23T23:00:00,1635A,118.3092,36.8194,淄博市,莆田园,颗粒物(PM10),85,119,102,46,39,141,9,100,44,80,52,10,12,1.6,1.7
2022-10-23T23:00:00,1636A,117.8661,36.805,淄博市,三金集团,,,,,,,,,,,,,,,,
2022-10-23T23:00:00,1637A,117.558,34.8438,枣庄市,市中区政府,,,200,117,,29,124,10,101,52,75,38,9,9,1.5,0.7
2022-10-23T23:00:00,1638A,117.2852,34.7837,枣庄市,薛城环保局,,,76,106,24,32,134,8,117,40,78,42,17,14,0.9,0.8
2022-10-23T23:00:00,1639A,117.5852,34.7745,枣庄市,峄城区政府,颗粒物(PM10),81,112,96,36,22,122,12,103,62,77,30,9,10,1.1,0.8
2022-10-23T23:00:00,1640A,117.7276,34.5578,枣庄市,台儿庄区环保局,颗粒物(PM10),80,110,95,51,36,127,8,107,58,77,38,10,11,1.1,0.8
2022-10-23T23:00:00,1641A,117.4518,35.0992,枣庄市,山亭区环保局,颗粒物(PM10),53,56,102,17,41,143,46,136,82,41,31,8,14,0.8,0.8
2022-10-23T23:00:00,1642A,121.2514,37.5639,烟台市,开发区,,19,7,29,2,7,88,59,77,71,6,18,8,10,0.2,0.3
2022-10-23T23:00:00,1643A,121.3719,37.5433,烟台市,轴承厂,,21,12,31,4,14,96,66,85,76,6,16,8,10,0.1,0.2
2022-10-23T23:00:00,1644A,121.3181,37.5436,烟台市,西郊化工站,,22,22,41,6,11,95,60,86,76,13,17,8,15,0.6,0.7
2022-10-23T23:00:00,1645A,121.4478,37.4822,烟台市,莱山环保局,,21,14,29,3,7,98,67,90,84,6,13,7,9,0.2,0.2
2022-10-23T23:00:00,1646A,121.2611,37.4967,烟台市,福山环保局,,48,48,42,27,11,82,13,71,58,61,31,7,12,0.5,0.3
2022-10-23T23:00:00,1648A,119.12,36.7019,潍坊市,仲裁委,,,,,,,,,,,,,,,,
2022-10-23T23:00:00,1650A,119.1437,36.7023,潍坊市,环保局,颗粒物(PM10),57,63,59,32,23,104,58,88,71,42,37,15,10,0.8,0.6
2022-10-23T23:00:00,1652A,119.1936,36.7729,潍坊市,寒亭监测站,,,,,,,,,,,,,,,,
2022-10-23T23:00:00,1653A,116.6251,35.4302,济宁市,火炬城,颗粒物(PM10),61,71,110,36,73,151,67,134,92,31,34,8,10,0.4,0.7
2022-10-23T23:00:00,1655A,116.5491,35.4042,济宁市,电化厂,颗粒物(PM10),77,103,141,53,83,156,15,133,57,79,44,9,14,0.9,0.9
2022-10-23T23:00:00,1656A,117.1437,36.1937,泰安市,监测站,颗粒物(PM10),63,75,94,32,30,111,66,98,79,21,24,10,11,0.6,0.7
2022-10-23T23:00:00,1657A,117.0885,36.2017,泰安市,人口学校,颗粒物(PM10),65,80,81,31,27,102,79,91,77,23,24,12,11,0.3,0.5
2022-10-23T23:00:00,1658A,117.1089,36.1758,泰安市,电力学校,,,80,95,31,29,108,55,94,66,,,8,10,0.9,1
2022-10-23T23:00:00,1659A,119.471,35.4209,日照市,监测站,颗粒物(PM10),53,56,45,27,14,86,0,78,46,72,35,10,8,1.1,0.7
2022-10-23T23:00:00,1660A,119.523,35.4216,日照市,市政府广场,颗粒物(PM10),58,66,49,23,12,86,6,78,50,82,30,6,6,0.9,0.5
2022-10-23T23:00:00,1661A,119.5587,35.4044,日照市,港务局,颗粒物(PM10),60,70,47,22,13,101,13,90,55,82,27,8,7,0.8,0.4
2022-10-23T23:00:00,1662A,122.1214,37.4236,威海市,华夏技校,,24,24,20,10,8,103,69,98,92,4,6,5,6,0.1,0.1
2022-10-23T23:00:00,1663A,122.0508,37.5236,威海市,山大分校,,23,17,17,2,3,108,72,99,93,6,7,2,3,0.2,0.2
2022-10-23T23:00:00,1664A,122.1067,37.5072,威海市,市监测站,,23,15,17,5,7,97,72,91,87,6,10,5,4,0.2,0.3
2022-10-23T23:00:00,1665A,118.5019,37.4658,东营市,西城阳光环保公司,,,,,,,,,,,,,,,,
2022-10-23T23:00:00,1666A,118.6614,37.4309,东营市,市环保局,颗粒物(PM10),52,53,48,34,17,114,63,104,82,34,34,10,14,0.7,0.7
2022-10-23T23:00:00,1669A,113.5824,24.7733,韶关市,市八中,,47,47,51,19,29,170,105,162,136,16,15,13,18,0.6,0.6
2022-10-23T23:00:00,1670A,113.5556,24.8082,韶关市,碧湖山庄,,,,,,,,,,,,,,,,
2022-10-23T23:00:00,1671A,113.5917,24.7972,韶关市,园林处,,36,24,52,20,34,174,113,164,140,10,13,11,16,0.6,0.6
2022-10-23T23:00:00,1672A,113.6735,24.7791,韶关市,韶关学院,,38,29,58,26,29,170,68,161,114,33,32,10,14,0.6,0.6
2022-10-23T23:00:00,1673A,113.5971,24.6863,韶关市,曲江监测站,颗粒物(PM10),51,52,48,26,24,181,62,174,132,47,29,11,14,0.9,0.8
2022-10-23T23:00:00,1674A,116.6794,23.3667,汕头市,金平子站,,37,37,34,14,20,173,81,147,116,13,16,9,9,0.4,0.5
2022-10-23T23:00:00,1675A,116.7244,23.3633,汕头市,龙湖子站,颗粒物(PM10),52,53,49,11,19,168,80,144,113,12,15,10,10,0.4,0.5
2022-10-23T23:00:00,1676A,116.7258,23.2775,汕头市,濠江子站,,27,23,32,17,17,164,84,133,110,9,12,8,9,0.4,0.5
2022-10-23T23:00:00,1677A,116.7519,23.4714,汕头市,澄海子站,,29,29,34,14,22,178,81,144,111,14,17,10,13,0.5,0.6
2022-10-23T23:00:00,1678A,116.6092,23.2539,汕头市,潮阳子站,,28,28,34,12,19,156,86,134,111,6,13,8,8,0.3,0.4
2022-10-23T23:00:00,1679A,116.4069,23.2533,汕头市,潮南子站,,,,,,,,,,,,,,,,
2022-10-23T23:00:00,1680A,110.3539,21.2706,湛江市,湛江影剧院,细颗粒物(PM2.5),78,92,73,57,50,189,66,175,144,62,29,14,19,1.0,0.8
2022-10-23T23:00:00,1681A,110.3928,21.2228,湛江市,市环境监测站,,50,50,68,27,46,186,160,173,168,20,21,11,17,0.6,0.6
2022-10-23T23:00:00,1682A,110.4019,21.1997,湛江市,环保局宿舍,臭氧1小时,65,59,70,39,49,186,172,173,166,22,24,14,24,0.7,0.8
2022-10-23T23:00:00,1683A,110.4111,21.2028,湛江市,霞山游泳场,臭氧1小时,55,56,71,36,47,186,164,169,166,27,24,14,24,0.7,0.8
2022-10-23T23:00:00,1684A,110.3316,21.2679,湛江市,麻章区环保局,细颗粒物(PM2.5),89,94,81,66,51,181,108,172,136,37,31,16,20,0.7,0.7
2022-10-23T23:00:00,1685A,110.4558,21.2567,湛江市,坡头区环保局,细颗粒物(PM2.5),68,68,76,49,55,188,154,172,163,15,22,10,16,0.8,0.8
2022-10-23T23:00:00,1686A,111.0286,21.4688,茂名市,电白南海,颗粒物(PM10),64,78,79,41,44,197,89,185,157,36,26,9,16,0.7,0.6
2022-10-23T23:00:00,1687A,110.9294,21.6533,茂名市,茂石化七小,细颗粒物(PM2.5),98,114,81,73,50,180,126,152,136,27,20,19,24,0.8,0.8
2022-10-23T23:00:00,1688A,110.9107,21.6687,茂名市,健康路,颗粒物(PM10),67,83,78,47,44,184,122,166,147,25,19,16,25,1.0,1
2022-10-23T23:00:00,1689A,110.8592,21.6828,茂名市,高岭,细颗粒物(PM2.5),85,83,87,63,58,179,90,162,141,35,25,17,29,0.8,0.9
2022-10-23T23:00:00,1690A,116.1231,24.3284,梅州市,梅江月梅,颗粒物(PM10),53,55,42,32,23,174,121,154,134,13,25,13,13,0.5,0.5
2022-10-23T23:00:00,1691A,116.0797,24.2719,梅州市,梅县新城,颗粒物(PM10),61,72,49,37,28,162,39,145,103,59,32,9,9,0.7,0.5
2022-10-23T23:00:00,1692A,116.1248,24.2654,梅州市,环境监控中心,,45,45,47,28,27,154,59,134,95,34,36,8,10,0.5,0.5
2022-10-23T23:00:00,1693A,115.3653,22.775,汕尾市,市环保局,,32,32,38,20,21,143,96,124,118,8,11,8,8,0.6,0.7
2022-10-23T23:00:00,1694A,115.3706,22.7898,汕尾市,市政府,,40,40,39,20,28,142,94,123,117,9,12,8,8,0.5,0.6
2022-10-23T23:00:00,1695A,115.3622,22.7925,汕尾市,新城中学,,47,47,43,23,23,143,98,125,119,7,11,9,9,0.4,0.5
2022-10-23T23:00:00,1696A,114.6778,23.7569,河源市,源西(对照点),颗粒物(PM10),60,69,49,36,28,158,38,150,98,82,29,7,10,0.6,0.4
2022-10-23T23:00:00,1697A,114.6944,23.7586,河源市,东埔,颗粒物(PM10),56,62,44,38,28,171,110,162,137,28,13,9,11,0.8,0.7
2022-10-23T23:00:00,1698A,114.6892,23.7233,河源市,老城,,,,53,,30,168,95,159,121,23,13,,9,0.7,0.7
2022-10-23T23:00:00,1699A,111.9797,21.8593,阳江市,鸳鸯湖(对照点),臭氧1小时,93,74,60,45,42,250,194,224,224,10,16,8,11,0.7,0.8
2022-10-23T23:00:00,1700A,111.9508,21.8536,阳江市,南恩路,,,,,,,,,,,,,,,,
2022-10-23T23:00:00,1701A,111.9491,21.8658,阳江市,马南垌,臭氧1小时,63,73,68,36,44,234,170,215,212,16,26,8,13,0.7,0.8
2022-10-23T23:00:00,1702A,113.0426,23.691,清远市,环保大楼(对照点),,48,41,43,28,28,219,153,208,185,13,19,9,9,0.8,0.8
2022-10-23T23:00:00,1703A,113.0208,23.7106,清远市,凤城街办,,44,44,50,26,28,170,119,162,144,21,27,5,4,0.8,0.8
2022-10-23T23:00:00,1705A,116.6367,23.6719,潮州市,西园路(对照点),颗粒物(PM10),53,55,51,33,32,176,91,150,135,14,14,9,9,0.6,0.6
2022-10-23T23:00:00,1706A,116.6447,23.6706,潮州市,档案局,,49,49,45,10,31,176,88,147,132,12,12,12,11,0.6,0.7
2022-10-23T23:00:00,1708A,116.3701,23.5345,揭阳市,新兴,,36,36,55,22,36,168,84,149,126,5,14,13,14,0.5,0.7
2022-10-23T23:00:00,1709A,116.3264,23.5443,揭阳市,西马,,43,43,63,21,36,156,78,135,118,4,15,9,11,0.5,0.8
2022-10-23T23:00:00,1710A,116.3611,23.5626,揭阳市,东兴,,32,29,55,22,34,155,76,136,118,6,15,8,13,0.4,0.7
2022-10-23T23:00:00,1711A,116.4151,23.5294,揭阳市,渔湖,,40,40,57,17,30,147,74,128,110,8,16,9,12,0.4,0.7
2022-10-23T23:00:00,1712A,112.0392,22.9169,云浮市,新市府(对照点),,,,,,,,,,,,,,,,
2022-10-23T23:00:00,1713A,112.0369,22.9394,云浮市,市监测站,,,,,,,,,,,,,,,,
2022-10-23T23:00:00,1714A,112.0539,22.9539,云浮市,牧羊,,43,43,66,29,31,174,129,167,155,18,31,28,27,1.0,0.7
2022-10-23T23:00:00,1715A,102.575,24.3711,玉溪市,东风水库,,23,23,15,11,9,65,22,57,48,16,12,5,5,0.7,0.7
2022-10-23T23:00:00,1718A,115.4208,35.2464,菏泽市,气象局,颗粒物(PM10),113,176,170,81,74,199,58,180,130,79,46,7,11,1.2,0.8
2022-10-23T23:00:00,1719A,115.4747,35.2375,菏泽市,市政协,细颗粒物(PM2.5),117,180,170,88,89,205,70,175,109,85,53,3,7,0.8,0.8
2022-10-23T23:00:00,1720A,115.455,35.27,菏泽市,菏泽学院,,,,,,,,,,,,,,,,
2022-10-23T23:00:00,1721A,113.3819,40.1097,大同市,果树场(对照点),,,,,,,,,,,,,,,,
2022-10-23T23:00:00,1723A,113.2994,40.0758,大同市,云冈宾馆,,35,35,62,11,18,80,34,75,58,22,24,9,18,0.5,0.7
2022-10-23T23:00:00,1724A,113.3444,40.0917,大同市,大同大学,,25,25,47,4,12,93,54,83,72,12,15,20,17,0.5,0.7
2022-10-23T23:00:00,1725A,113.2661,40.1269,大同市,安家小村,,,,,,,,,,,,,,,,
2022-10-23T23:00:00,1726A,113.2711,40.0844,大同市,教育学院,,48,48,45,28,23,80,19,76,55,37,21,13,28,0.5,0.5
2022-10-23T23:00:00,1727A,113.1147,36.1547,长治市,清华站,颗粒物(PM10),62,73,113,29,56,139,82,103,81,32,50,10,12,0.8,1.3
2022-10-23T23:00:00,1728A,113.1031,36.1989,长治市,监测站,颗粒物(PM10),72,93,95,44,52,121,50,92,59,47,52,19,16,2.1,1.4
2022-10-23T23:00:00,1730A,113.0886,36.2125,长治市,审计局,颗粒物(PM10),66,82,86,44,50,122,66,101,77,41,49,19,11,1.8,1.2
2022-10-23T23:00:00,1731A,113.0844,36.1856,长治市,长治八中,颗粒物(PM10),77,103,108,43,46,120,42,96,67,44,48,16,14,0.8,0.8
2022-10-23T23:00:00,1733A,111.5531,36.0783,临汾市,临钢医院,颗粒物(PM10),53,55,49,36,34,107,38,94,60,27,28,2,3,0.8,0.7
2022-10-23T23:00:00,1734A,111.5028,36.0714,临汾市,技工学校,,,,,46,36,102,37,92,66,31,28,7,9,0.8,0.7
2022-10-23T23:00:00,1735A,111.5169,36.0822,临汾市,工商学校,,,,,,,,,,,,,,,,
2022-10-23T23:00:00,1736A,111.5018,36.0855,临汾市,市委,颗粒物(PM10),57,63,49,38,28,104,38,96,74,28,24,2,4,0.8,0.6
2022-10-23T23:00:00,1738A,113.5758,37.8572,阳泉市,市中心,颗粒物(PM10),75,100,100,27,27,83,4,67,29,75,59,17,23,0.5,0.8
2022-10-23T23:00:00,1739A,113.4894,37.8731,阳泉市,赛鱼,颗粒物(PM10),65,79,76,21,26,81,2,65,22,68,58,16,15,0.5,0.5
2022-10-23T23:00:00,1740A,113.5819,37.8486,阳泉市,南庄,颗粒物(PM10),66,82,99,28,29,85,9,70,39,69,50,15,17,0.7,0.8
2022-10-23T23:00:00,1741A,113.6292,37.8531,阳泉市,白羊墅,,,,,,,,,,,,,,,,
2022-10-23T23:00:00,1742A,113.5614,37.8703,阳泉市,平坦,颗粒物(PM10),70,89,100,20,30,88,6,73,36,91,63,25,20,0.6,0.8
2022-10-23T23:00:00,1743A,113.5158,37.8392,阳泉市,大阳泉,颗粒物(PM10),63,76,57,28,24,92,92,84,84,24,34,17,14,0.8,0.6
2022-10-23T23:00:00,1744A,118.9233,42.2816,赤峰市,松山一中,颗粒物(PM10),56,62,19,23,8,73,9,68,38,48,30,17,13,0.6,0.5
2022-10-23T23:00:00,1745A,118.9576,42.2728,赤峰市,哈达街,颗粒物(PM10),57,64,20,36,7,77,15,72,43,49,26,15,12,0.8,0.5
2022-10-23T23:00:00,1746A,118.8788,42.2554,赤峰市,天义路,,42,42,20,19,5,75,9,69,36,41,24,14,13,0.7,0.4
2022-10-23T23:00:00,1748A,123.044,41.1196,鞍山市,深沟寺,,30,30,34,15,19,121,27,71,45,36,30,9,14,0.4,0.8
2022-10-23T23:00:00,1749A,123.011,41.0931,鞍山市,太阳城,,32,32,35,16,18,73,22,63,47,36,25,18,16,0.4,1
2022-10-23T23:00:00,1750A,123.0485,41.1442,鞍山市,太平,,41,41,55,18,23,127,14,66,28,50,40,12,18,0.4,0.9
2022-10-23T23:00:00,1751A,122.9642,41.0971,鞍山市,铁西三道街,颗粒物(PM10),74,97,65,51,29,62,7,52,26,54,45,9,22,1.0,1.7
2022-10-23T23:00:00,1752A,122.9341,41.0833,鞍山市,铁西工业园区,,,136,67,60,28,68,4,55,27,56,44,11,19,1.2,1.3
2022-10-23T23:00:00,1753A,123.022,41.0821,鞍山市,明达新区,,39,39,38,17,19,64,9,56,39,50,28,11,16,0.4,1
2022-10-23T23:00:00,1754A,123.1289,41.0228,鞍山市,千山(对照点),,,,,,,,,,,,,,,,
2022-10-23T23:00:00,1755A,123.7977,41.8491,抚顺市,望花区,细颗粒物(PM2.5),113,151,65,85,33,72,9,63,29,51,34,10,12,1.9,1.2
2022-10-23T23:00:00,1756A,123.9161,41.8822,抚顺市,顺城区,细颗粒物(PM2.5),84,97,55,62,31,66,8,56,24,48,35,11,13,1.2,0.9
2022-10-23T23:00:00,1757A,124.0436,41.8611,抚顺市,东洲区,颗粒物(PM10),73,95,55,35,27,69,6,61,30,47,28,6,10,0.7,0.7
2022-10-23T23:00:00,1758A,123.9247,41.8642,抚顺市,新抚区,颗粒物(PM10),81,111,55,48,26,72,5,62,29,37,26,6,8,0.6,0.4
2022-10-23T23:00:00,1759A,124.0972,41.8961,抚顺市,大伙房水库,颗粒物(PM10),60,70,45,33,24,65,26,56,37,28,26,6,7,0.5,0.7
2022-10-23T23:00:00,1760A,123.7086,41.8391,抚顺市,沈抚新城,颗粒物(PM10),53,56,53,31,23,70,4,63,31,34,24,8,12,0.6,0.5
2022-10-23T23:00:00,1761A,123.8275,41.3064,本溪市,大峪,,28,24,44,19,17,63,19,54,44,36,34,9,14,0.6,0.9
2022-10-23T23:00:00,1762A,123.7567,41.3325,本溪市,溪湖,颗粒物(PM10),86,121,69,32,23,69,5,56,38,49,36,8,14,0.5,0.8
2022-10-23T23:00:00,1763A,123.7169,41.3094,本溪市,彩屯,,47,47,78,13,31,66,20,50,26,31,38,7,14,0.6,1.4
2022-10-23T23:00:00,1764A,123.7669,41.2864,本溪市,东明,,48,48,58,28,23,67,8,57,35,51,41,10,17,0.7,1
2022-10-23T23:00:00,1765A,123.7992,41.2664,本溪市,新立屯,,30,30,35,10,17,67,4,56,32,52,38,7,14,0.5,0.9
2022-10-23T23:00:00,1766A,123.8142,41.3472,本溪市,威宁,颗粒物(PM10),59,68,49,31,22,61,5,49,29,47,35,6,9,0.7,0.7
2022-10-23T23:00:00,1767A,121.1115,41.0879,锦州市,南山,细颗粒物(PM2.5),87,96,51,64,28,65,6,59,40,51,36,9,12,1.2,0.7
2022-10-23T23:00:00,1768A,121.0533,40.8434,锦州市,开发区,颗粒物(PM10),97,143,76,54,27,71,6,66,42,60,38,27,26,1.1,0.7
2022-10-23T23:00:00,1769A,121.1836,41.1119,锦州市,百股街道,颗粒物(PM10),54,58,53,27,21,71,10,66,40,44,33,7,15,1.1,1
2022-10-23T23:00:00,1770A,121.1178,41.1222,锦州市,天安街道,颗粒物(PM10),76,102,61,55,31,70,11,65,37,61,34,11,12,1.2,0.6
2022-10-23T23:00:00,1771A,121.1303,41.1386,锦州市,北湖公园,细颗粒物(PM2.5),155,68,67,118,37,70,14,65,43,49,28,8,19,1.5,1
2022-10-23T23:00:00,1772A,126.54,43.8622,吉林市,哈达湾,,22,22,22,10,13,60,44,54,50,24,23,9,9,0.6,0.6
2022-10-23T23:00:00,1773A,126.5844,43.8358,吉林市,东局子,,35,35,26,20,15,53,16,46,38,41,24,10,7,0.8,0.6
2022-10-23T23:00:00,1774A,126.5052,43.8245,吉林市,电力学院,,,,26,,19,64,,58,56,,20,8,8,,0.6
2022-10-23T23:00:00,1775A,126.6133,43.8972,吉林市,江北,,40,40,27,23,16,59,23,53,43,25,18,6,5,0.8,0.6
2022-10-23T23:00:00,1776A,126.555,43.8306,吉林市,江南公园,,26,26,23,16,17,59,33,52,46,29,21,7,7,0.4,0.4
2022-10-23T23:00:00,1778A,126.7061,43.7133,吉林市,丰满(对照点),,,,,,,,,,,,,,,,
2022-10-23T23:00:00,1779A,123.9305,47.3636,齐齐哈尔市,安居小区,细颗粒物(PM2.5),54,55,36,38,14,59,25,51,24,36,24,7,5,0.7,0.7
2022-10-23T23:00:00,1780A,123.9488,47.3386,齐齐哈尔市,中心广场,颗粒物(PM10),51,51,24,17,7,59,33,52,31,27,20,13,7,0.3,0.4
2022-10-23T23:00:00,1781A,123.9483,47.3227,齐齐哈尔市,农牧车辆厂,,39,39,25,19,9,62,28,56,31,30,19,11,6,0.4,0.3
2022-10-23T23:00:00,1783A,123.945,47.2988,齐齐哈尔市,市环境监测站,,40,37,26,28,21,60,25,55,31,26,16,7,4,0.4,0.4
2022-10-23T23:00:00,1784A,129.61,44.561,牡丹江市,环保大楼,,39,26,35,27,19,47,33,40,32,16,24,4,5,0.4,0.4
2022-10-23T23:00:00,1785A,129.6115,44.5782,牡丹江市,文化广场,颗粒物(PM10),58,66,47,35,22,44,6,37,20,36,27,4,4,0.9,0.5
2022-10-23T23:00:00,1786A,129.5904,44.5963,牡丹江市,第一医院,,48,48,36,24,22,47,13,41,22,28,24,6,8,0.9,0.7
2022-10-23T23:00:00,1787A,129.6364,44.6075,牡丹江市,机车工厂,,45,45,47,19,20,52,20,46,31,23,24,1,1,0.6,0.6
2022-10-23T23:00:00,1788A,129.6386,44.5462,牡丹江市,第一中学,,29,21,30,20,16,47,16,43,21,14,21,2,3,0.4,0.4
2022-10-23T23:00:00,1789A,124.81117,46.03138,大庆市,大同区,,35,35,18,13,8,66,41,59,46,17,10,3,3,0.4,0.4
2022-10-23T23:00:00,1790A,125.129,46.533,大庆市,龙凤区,,29,29,24,15,12,61,19,54,32,46,21,6,4,0.4,0.3
2022-10-23T23:00:00,1791A,124.902,46.408,大庆市,红岗区,,20,20,17,7,12,66,47,60,46,10,13,5,7,0.3,0.3
2022-10-23T23:00:00,1792A,125.153,46.586,大庆市,萨尔图区,,29,29,15,15,10,64,12,57,33,53,19,9,8,0.8,0.5
2022-10-23T23:00:00,1793A,124.9042,46.6215,大庆市,让胡路区,,39,34,20,27,13,64,9,57,31,48,16,4,3,0.6,0.3
2022-10-23T23:00:00,1794A,118.3606,31.3519,芜湖市,监测站,颗粒物(PM10),76,101,77,41,57,146,55,130,86,42,50,10,11,0.7,1
2022-10-23T23:00:00,1795A,118.3714,31.4134,芜湖市,科创中心,颗粒物(PM10),88,125,97,34,62,168,56,145,90,44,54,8,9,0.5,0.9
2022-10-23T23:00:00,1796A,118.3673,31.3131,芜湖市,四水厂,细颗粒物(PM2.5),74,94,76,54,48,155,60,139,104,40,35,8,9,0.6,0.8
2022-10-23T23:00:00,1797A,118.4022,31.3839,芜湖市,济民医院(对照点),,,,,,,,,,,,,,,,
2022-10-23T23:00:00,1798A,118.5092,31.6837,马鞍山市,湖东路四小,,50,50,63,9,32,160,55,144,81,35,40,6,7,0.5,0.8
2022-10-23T23:00:00,1799A,118.5024,31.6449,马鞍山市,开发区,颗粒物(PM10),56,62,75,17,48,158,51,130,86,43,47,8,8,0.6,0.8
2022-10-23T23:00:00,1800A,118.5228,31.7231,马鞍山市,慈湖,颗粒物(PM10),52,54,81,18,45,162,64,152,98,36,46,18,9,0.6,0.9
2022-10-23T23:00:00,1801A,118.48,31.6928,马鞍山市,马钢动力厂,,,,,,,,,,,,,,,,
2022-10-23T23:00:00,1802A,118.6245,31.7241,马鞍山市,濮塘(对照点),,48,48,68,19,37,165,69,141,103,20,18,5,4,0.5,0.7
2022-10-23T23:00:00,1803A,115.9872,29.6815,九江市,十里,细颗粒物(PM2.5),85,104,77,63,45,203,170,187,180,25,24,10,10,0.9,0.8
2022-10-23T23:00:00,1804A,115.9584,29.7046,九江市,茅山头,细颗粒物(PM2.5),94,99,74,70,48,191,164,177,171,17,17,13,11,1.0,0.9
2022-10-23T23:00:00,1805A,115.9877,29.7295,九江市,西园,细颗粒物(PM2.5),93,100,77,69,47,195,158,179,170,26,24,13,12,0.9,0.7
2022-10-23T23:00:00,1806A,116.0172,29.6547,九江市,五七二七厂,细颗粒物(PM2.5),94,92,70,70,47,188,160,177,173,18,22,10,10,0.6,0.6
2022-10-23T23:00:00,1808A,115.9114,29.6038,九江市,综合工业园,,,94,72,75,47,185,,172,170,25,28,10,10,0.5,0.7
2022-10-23T23:00:00,1809A,116.0721,29.7535,九江市,石化总厂,细颗粒物(PM2.5),102,126,91,76,46,197,150,181,169,24,25,10,11,1.0,0.8
2022-10-23T23:00:00,1810A,115.9773,29.5698,九江市,庐山气象台(对照点),细颗粒物(PM2.5),97,71,41,72,42,162,83,146,110,14,13,10,9,0.8,0.5
2022-10-23T23:00:00,1811A,112.3628,34.6692,洛阳市,中信二小,,,,,,,,,,,,,,,,
2022-10-23T23:00:00,1812A,112.3931,34.6516,洛阳市,市委党校,细颗粒物(PM2.5),119,164,144,90,65,196,22,168,97,97,55,10,13,0.9,0.9
2022-10-23T23:00:00,1814A,112.4657,34.6871,洛阳市,豫西宾馆,细颗粒物(PM2.5),105,147,144,79,70,185,9,152,90,99,52,6,10,0.7,0.7
2022-10-23T23:00:00,1815A,112.494,34.6886,洛阳市,河南林校,细颗粒物(PM2.5),98,131,121,73,66,183,49,158,111,57,42,7,9,0.5,0.6
2022-10-23T23:00:00,1816A,112.3844,34.623,洛阳市,开发区管委会,细颗粒物(PM2.5),98,122,110,73,61,200,55,171,129,53,32,6,8,0.6,0.5
2022-10-23T23:00:00,1817A,112.4267,34.6258,洛阳市,市委新办公区,细颗粒物(PM2.5),95,125,119,71,62,196,17,158,88,88,45,5,10,1.0,0.7
2022-10-23T23:00:00,1818A,114.4839,36.0621,安阳市,棉研所(对照点),,,,,,,,,,,,,,,,
2022-10-23T23:00:00,1819A,114.3551,36.1017,安阳市,红庙街,"颗粒物(PM10),细颗粒物(PM2.5)",99,147,124,74,58,148,7,124,75,94,52,11,14,1.1,1
2022-10-23T23:00:00,1820A,114.361,36.0681,安阳市,银杏小区,,,142,119,63,61,150,5,131,74,,64,7,9,1.2,0.9
2022-10-23T23:00:00,1824A,114.3389,34.7781,开封市,肿瘤医院,细颗粒物(PM2.5),158,192,136,120,84,187,32,160,88,84,44,12,11,1.1,0.8
2022-10-23T23:00:00,1826A,114.2885,34.7965,开封市,世纪星幼儿园,细颗粒物(PM2.5),120,174,141,91,79,179,4,158,94,100,38,3,4,1.6,0.9
2022-10-23T23:00:00,1828A,113.227,35.2125,焦作市,市环保局,颗粒物(PM10),86,121,112,63,54,165,101,135,125,23,23,11,10,0.8,0.8
2022-10-23T23:00:00,1829A,113.2464,35.1764,焦作市,高新区政府（停运20220628）,,,,,,,,,,,,,,,,
2022-10-23T23:00:00,1830A,113.1992,35.2590,焦作市,影视城(对照点),,,,,,,,,,,,,,,,
2022-10-23T23:00:00,1832A,113.3257,33.742,平顶山市,新华旅馆,细颗粒物(PM2.5),135,170,152,103,83,170,62,150,112,76,28,8,12,0.7,0.7
2022-10-23T23:00:00,1833A,113.2919,33.737,平顶山市,规划设计院,细颗粒物(PM2.5),122,175,152,92,78,192,107,159,132,56,49,8,9,0.3,0.5
2022-10-23T23:00:00,1834A,113.182,33.774,平顶山市,平顶山工学院,细颗粒物(PM2.5),117,172,156,88,74,196,132,182,164,34,28,5,11,0.8,0.9
2022-10-23T23:00:00,1835A,111.1922,34.7752,三门峡市,市政府,颗粒物(PM10),83,116,90,48,49,140,3,112,52,72,50,8,10,0.9,0.8
2022-10-23T23:00:00,1836A,111.1587,34.7942,三门峡市,开发区,颗粒物(PM10),78,106,95,45,51,148,34,117,81,46,29,7,8,0.8,0.9
2022-10-23T23:00:00,1838A,111.143,34.7955,三门峡市,风景区(对照点),,,,,,,,,,,,,,,,
2022-10-23T23:00:00,1839A,111.3009,30.7157,宜昌市,四零三,,,,,,,,,,,,,,,,
2022-10-23T23:00:00,1840A,111.2992,30.6981,宜昌市,白龙岗,细颗粒物(PM2.5),94,107,70,70,39,218,97,197,136,37,36,5,6,1.1,1
2022-10-23T23:00:00,1841A,111.3549,30.6465,宜昌市,伍家岗,颗粒物(PM10),70,89,70,48,38,205,24,185,125,87,42,7,7,0.8,0.6
2022-10-23T23:00:00,1842A,111.2628,30.6961,宜昌市,点军区,细颗粒物(PM2.5),156,141,73,119,49,213,74,189,140,28,25,8,8,0.9,0.6
2022-10-23T23:00:00,1843A,111.3275,30.7819,宜昌市,夷陵区,细颗粒物(PM2.5),85,115,78,63,48,222,41,187,114,65,38,11,11,0.8,0.7
2022-10-23T23:00:00,1844A,112.2494,30.3197,荆州市,市图书馆,细颗粒物(PM2.5),102,104,87,76,66,221,150,208,171,24,30,12,10,0.8,0.8
2022-10-23T23:00:00,1845A,112.2008,30.3544,荆州市,市委党校,细颗粒物(PM2.5),99,112,96,74,62,220,158,203,158,26,35,11,10,0.9,0.9
2022-10-23T23:00:00,1847A,113.1094,29.3578,岳阳市,南湖风景区,细颗粒物(PM2.5),79,77,85,58,64,230,179,212,202,27,30,12,16,0.9,0.9
2022-10-23T23:00:00,1848A,113.1493,29.4251,岳阳市,城陵矶,颗粒物(PM10),71,91,99,51,56,204,159,184,174,40,53,8,11,0.7,0.8
2022-10-23T23:00:00,1849A,113.1497,29.3575,岳阳市,开发区,臭氧1小时,69,82,85,45,59,207,175,193,184,30,40,10,12,0.7,0.8
2022-10-23T23:00:00,1850A,113.2621,29.4758,岳阳市,云溪区,臭氧1小时,83,76,80,45,49,210,186,197,192,21,26,14,14,0.7,0.8
2022-10-23T23:00:00,1851A,112.9943,29.4402,岳阳市,君山区,细颗粒物(PM2.5),85,95,92,63,67,216,129,201,182,36,27,16,12,1.1,0.9
2022-10-23T23:00:00,1852A,113.2117,29.355,岳阳市,金凤水库(对照点),臭氧1小时,101,68,74,39,49,215,201,205,204,12,19,9,9,0.8,0.9
2022-10-23T23:00:00,1854A,111.6975,28.9703,常德市,市二中,细颗粒物(PM2.5),93,120,102,69,65,202,150,193,176,22,28,17,13,0.5,0.4
2022-10-23T23:00:00,1857A,111.7158,29.1456,常德市,白鹤山(对照点),臭氧1小时,90,95,70,61,51,203,192,195,190,11,11,8,8,0.5,0.5
2022-10-23T23:00:00,1858A,110.5319,29.1217,张家界市,永定新区,颗粒物(PM10),67,83,68,43,42,178,90,166,130,33,22,5,6,0.3,0.3
2022-10-23T23:00:00,1859A,110.4697,29.1242,张家界市,电业局,颗粒物(PM10),63,75,66,38,39,178,94,169,137,35,24,6,7,0.5,0.4
2022-10-23T23:00:00,1860A,110.5594,29.3547,张家界市,未央路,,49,49,52,29,31,183,93,175,136,9,7,3,5,0.2,0.2
2022-10-23T23:00:00,1861A,110.4417,29.315,张家界市,袁家界(对照点),臭氧1小时,101,67,47,36,24,202,202,192,192,14,13,14,13,0.6,0.6
2022-10-23T23:00:00,1862A,110.4144,25.3167,桂林市,电子科大尧山校区(对照点),臭氧1小时,62,71,58,40,32,195,169,188,182,11,9,63,16,0.6,0.6
2022-10-23T23:00:00,1863A,110.2819,25.2697,桂林市,监测站,颗粒物(PM10),52,54,61,33,36,180,148,173,160,19,13,11,9,0.7,0.7
2022-10-23T23:00:00,1864A,110.3089,25.2708,桂林市,龙隐路小学,细颗粒物(PM2.5),52,51,53,36,38,176,159,171,166,10,9,14,11,0.7,0.7
2022-10-23T23:00:00,1865A,110.2869,25.2178,桂林市,八中,颗粒物(PM10),54,57,55,35,39,177,152,170,160,17,16,12,10,0.5,0.5
2022-10-23T23:00:00,1866A,109.2262,21.588,北海市,牛尾岭水库(对照点),,,,,,,,,,,,,,,,
2022-10-23T23:00:00,1867A,109.1436,21.4086,北海市,海滩公园,臭氧1小时,111,79,81,66,60,225,221,212,212,9,16,12,10,1.2,1.2
2022-10-23T23:00:00,1868A,109.0981,21.4661,北海市,新市环保局,细颗粒物(PM2.5),89,83,70,66,61,230,181,206,204,17,17,11,14,0.9,0.8
2022-10-23T23:00:00,1869A,109.1778,21.5233,北海市,北海工业园,细颗粒物(PM2.5),110,139,89,83,60,231,52,184,141,55,27,9,12,1.0,0.8
2022-10-23T23:00:00,1870A,109.4856,24.3895,柳州市,柳东小学,颗粒物(PM10),53,56,51,35,38,175,147,169,164,8,8,10,11,0.6,0.6
2022-10-23T23:00:00,1871A,109.4157,24.3277,柳州市,环保监测站,颗粒物(PM10),58,66,61,19,25,172,90,165,140,44,20,14,17,0.7,0.6
2022-10-23T23:00:00,1872A,109.389,24.341,柳州市,河西水厂,细颗粒物(PM2.5),92,132,82,68,49,163,56,154,117,54,27,31,21,1.6,1.5
2022-10-23T23:00:00,1873A,109.4311,24.2921,柳州市,市四中,颗粒物(PM10),68,86,72,43,42,168,92,160,126,33,17,13,17,0.9,0.7
2022-10-23T23:00:00,1874A,109.4006,24.3631,柳州市,市九中,颗粒物(PM10),83,115,74,56,46,155,80,150,125,43,23,18,18,1.2,1
2022-10-23T23:00:00,1875A,109.4958,24.3134,柳州市,古亭山,颗粒物(PM10),51,51,49,31,34,174,120,165,133,20,15,14,14,0.7,0.7
2022-10-23T23:00:00,1876A,109.5078,18.2489,三亚市,河东子站,,42,42,39,27,24,150,61,130,107,20,13,3,4,0.5,0.4
2022-10-23T23:00:00,1877A,109.4964,18.2681,三亚市,河西子站,,50,49,36,35,25,130,30,116,92,29,12,2,3,0.6,0.4
2022-10-23T23:00:00,1878A,104.7778,31.4741,绵阳市,富乐山,细颗粒物(PM2.5),59,51,47,42,37,142,90,130,121,8,19,5,5,0.6,0.6
2022-10-23T23:00:00,1879A,104.7563,31.4535,绵阳市,市人大,细颗粒物(PM2.5),72,64,64,52,39,131,86,114,106,20,40,6,3,0.6,0.6
2022-10-23T23:00:00,1880A,104.6697,31.4668,绵阳市,高新区自来水公司,细颗粒物(PM2.5),63,63,77,45,44,128,81,103,99,12,35,8,7,0.6,0.7
2022-10-23T23:00:00,1881A,104.7287,31.5075,绵阳市,三水厂,细颗粒物(PM2.5),63,66,80,45,45,138,91,119,109,18,33,5,5,0.6,0.7
2022-10-23T23:00:00,1882A,104.563,28.793,宜宾市,石马中学(对照点),细颗粒物(PM2.5),135,144,114,103,81,93,24,60,42,53,50,11,11,1.3,1.2
2022-10-23T23:00:00,1883A,104.6201,28.7728,宜宾市,市委,细颗粒物(PM2.5),169,176,109,128,74,99,59,84,82,47,58,21,16,1.0,0.8
2022-10-23T23:00:00,1884A,104.6055,28.793,宜宾市,宜宾四中,细颗粒物(PM2.5),162,188,127,123,81,90,35,78,68,73,58,15,12,1.1,0.9
2022-10-23T23:00:00,1885A,104.639,28.7562,宜宾市,市政府,细颗粒物(PM2.5),217,218,122,167,81,86,48,68,64,47,61,20,13,1.2,0.9
2022-10-23T23:00:00,1886A,104.5742,28.7199,宜宾市,黄金嘴,细颗粒物(PM2.5),138,143,102,105,73,115,18,86,62,66,44,15,12,1.2,1
2022-10-23T23:00:00,1888A,101.6891,26.571,攀枝花市,弄弄坪,颗粒物(PM10),60,69,68,38,45,108,3,75,36,53,31,18,16,1.2,1.2
2022-10-23T23:00:00,1889A,101.5769,26.5928,攀枝花市,河门口,,33,33,47,17,27,124,26,91,59,20,19,12,17,1.2,1.3
2022-10-23T23:00:00,1890A,101.7169,26.585,攀枝花市,炳草岗,颗粒物(PM10),64,78,60,45,55,104,3,72,32,55,40,39,26,1.4,1.3
2022-10-23T23:00:00,1891A,101.7369,26.5008,攀枝花市,仁和,,38,36,51,26,37,108,17,75,38,17,18,7,18,0.8,1.1
2022-10-23T23:00:00,1893A,105.4324,28.9634,泸州市,九狮山(对照点),细颗粒物(PM2.5),253,225,125,203,113,80,34,54,48,37,44,13,12,0.7,0.6
2022-10-23T23:00:00,1894A,105.4427,28.9063,泸州市,小市上码头,细颗粒物(PM2.5),301,290,188,251,161,121,56,94,83,43,57,20,24,1.3,1.1
2022-10-23T23:00:00,1895A,105.4241,28.8573,泸州市,兰田宪桥,细颗粒物(PM2.5),240,270,179,190,132,85,56,60,56,44,55,22,19,1.3,1.2
2022-10-23T23:00:00,1896A,105.4379,28.8833,泸州市,市环监站,细颗粒物(PM2.5),265,255,185,215,157,88,44,64,60,44,58,41,30,1.0,0.9
2022-10-23T23:00:00,1897A,104.7547,29.3628,自贡市,大塘山(对照点),,,,,,,,,,,,,,,,
2022-10-23T23:00:00,1900A,104.7692,29.3411,自贡市,春华路,,,,,,,,,,,,,,,,
2022-10-23T23:00:00,1901A,104.4239,31.1208,德阳市,东山公园,细颗粒物(PM2.5),92,107,86,68,44,169,122,155,146,17,28,12,10,0.8,0.7
2022-10-23T23:00:00,1902A,104.3826,31.1317,德阳市,西小区,细颗粒物(PM2.5),82,94,87,60,50,164,113,148,138,25,43,12,12,0.8,0.8
2022-10-23T23:00:00,1903A,104.4053,31.1167,德阳市,市检察院,,,,,,,,,,,,,,,,
2022-10-23T23:00:00,1904A,104.3553,31.1091,德阳市,耐火材料厂,细颗粒物(PM2.5),89,105,94,66,58,164,120,150,141,21,39,15,17,0.7,0.7
2022-10-23T23:00:00,1905A,106.056,30.8064,南充市,西山风景区(对照点),,,,,,,,,,,,,,,,
2022-10-23T23:00:00,1906A,106.0789,30.8023,南充市,南充市委,细颗粒物(PM2.5),92,101,92,68,61,100,58,77,72,23,27,5,9,0.8,0.7
2022-10-23T23:00:00,1907A,106.1031,30.8217,南充市,南充炼油厂,细颗粒物(PM2.5),82,81,98,60,64,98,71,89,86,13,27,8,20,0.7,0.7
2022-10-23T23:00:00,1908A,106.1064,30.7856,南充市,高坪区监测站,细颗粒物(PM2.5),89,94,101,66,75,83,61,74,73,8,25,10,15,0.6,0.6
2022-10-23T23:00:00,1909A,106.0642,30.7636,南充市,嘉陵区环保局,细颗粒物(PM2.5),103,94,91,77,82,102,65,80,75,22,36,12,18,0.7,0.7
2022-10-23T23:00:00,1910A,106.1087,30.8388,南充市,市环境监测站,细颗粒物(PM2.5),93,79,93,69,70,83,54,73,68,19,26,10,13,0.7,0.6
2022-10-23T23:00:00,1911A,106.9222,27.6869,遵义市,丁字口,细颗粒物(PM2.5),52,51,48,36,37,148,44,135,96,48,24,11,8,1.1,0.9
2022-10-23T23:00:00,1912A,106.9242,27.7019,遵义市,凤凰山,,43,41,49,30,29,161,134,148,143,10,16,7,6,0.5,0.6
2022-10-23T23:00:00,1913A,106.8906,27.6486,遵义市,忠庄,颗粒物(PM10),67,83,56,36,34,150,117,141,128,14,23,3,2,0.4,0.6
2022-10-23T23:00:00,1914A,106.9231,27.6506,遵义市,舟水桥,细颗粒物(PM2.5),98,131,65,73,41,145,52,138,100,34,24,5,3,0.3,0.4
2022-10-23T23:00:00,1915A,106.9178,27.72,遵义市,干田坝,,47,47,49,31,34,156,49,140,113,38,22,6,7,0.8,0.8
2022-10-23T23:00:00,1916A,103.7897,25.5035,曲靖市,环境监测站,,35,31,32,24,21,77,47,64,46,12,15,5,7,0.4,0.4
2022-10-23T23:00:00,1917A,103.8,25.5364,曲靖市,烟厂办公区,,20,20,27,12,18,81,52,66,53,9,13,4,8,0.5,0.7
2022-10-23T23:00:00,1918A,108.7197,34.3956,咸阳市,气象站(对照点),细颗粒物(PM2.5),143,202,146,109,72,87,5,58,27,109,82,13,13,1.1,1
2022-10-23T23:00:00,1919A,108.673,34.3155,咸阳市,实验中学,颗粒物(PM10),147,243,187,80,74,112,6,83,45,90,77,7,9,1.5,1.1
2022-10-23T23:00:00,1920A,108.7233,34.3617,咸阳市,师范学院,细颗粒物(PM2.5),139,207,150,106,76,108,10,77,44,96,74,9,10,1.1,0.9
2022-10-23T23:00:00,1922A,109.0656,35.0994,铜川市,党校(对照点),颗粒物(PM10),123,196,111,84,49,111,4,88,33,107,65,14,16,0.9,0.6
2022-10-23T23:00:00,1923A,109.0697,35.0697,铜川市,王益区政府,颗粒物(PM10),92,133,101,55,45,131,9,100,49,75,53,16,18,0.9,0.7
2022-10-23T23:00:00,1924A,108.9344,34.9058,铜川市,新区管委会,颗粒物(PM10),83,115,100,41,45,125,62,111,70,39,36,20,18,0.7,0.7
2022-10-23T23:00:00,1925A,108.9589,34.8731,铜川市,新区兰芝公司,,,,,,,,,,,,,,,,
2022-10-23T23:00:00,1926A,109.4131,36.6275,延安市,枣园(对照点),颗粒物(PM10),61,71,52,21,16,126,4,90,46,59,36,4,5,0.5,0.4
2022-10-23T23:00:00,1927A,109.4761,36.6028,延安市,延大医附院,颗粒物(PM10),60,70,56,27,21,106,3,79,34,68,43,5,6,0.7,0.6
2022-10-23T23:00:00,1928A,109.4824,36.5767,延安市,市监测站,,,,,,,,,,,,,,,,
2022-10-23T23:00:00,1929A,109.5056,36.6106,延安市,百米大道,颗粒物(PM10),76,101,67,38,24,109,4,81,37,78,51,9,9,1.1,0.7
2022-10-23T23:00:00,1930A,107.185,34.3063,宝鸡市,庙沟村(对照点),细颗粒物(PM2.5),104,149,88,78,49,133,69,113,98,49,34,6,6,0.8,0.6
2022-10-23T23:00:00,1931A,107.0708,34.3017,宝鸡市,竹园沟,细颗粒物(PM2.5),119,100,78,90,60,150,53,128,94,37,31,5,6,0.8,0.7
2022-10-23T23:00:00,1932A,107.1906,34.3672,宝鸡市,三陆医院,细颗粒物(PM2.5),173,180,118,131,82,140,39,113,83,56,40,8,8,1.1,0.8
2022-10-23T23:00:00,1933A,107.1431,34.3547,宝鸡市,监测站,细颗粒物(PM2.5),115,126,95,87,65,142,35,118,86,51,43,6,8,0.9,0.7
2022-10-23T23:00:00,1934A,107.1186,34.3739,宝鸡市,技工学校,细颗粒物(PM2.5),144,138,103,110,72,145,58,120,100,47,38,6,9,0.9,0.7
2022-10-23T23:00:00,1935A,107.3906,34.3528,宝鸡市,陈仓区环保局家属楼,颗粒物(PM10),127,204,148,88,72,120,4,95,61,95,64,8,11,1.2,1
2022-10-23T23:00:00,1936A,107.2058,34.3497,宝鸡市,文理学院,细颗粒物(PM2.5),138,156,108,105,76,139,45,119,90,61,44,8,9,0.8,0.6
2022-10-23T23:00:00,1937A,107.2386,34.3622,宝鸡市,三迪小学,细颗粒物(PM2.5),155,175,123,118,84,132,29,109,76,79,56,8,9,1.0,0.7
2022-10-23T23:00:00,1938A,109.5293,34.5101,渭南市,农科所(对照点),细颗粒物(PM2.5),98,136,123,73,68,122,45,90,58,40,49,13,15,1.0,0.9
2022-10-23T23:00:00,1939A,109.4974,34.4877,渭南市,日报社,细颗粒物(PM2.5),118,161,139,89,80,115,5,86,38,77,68,19,18,1.0,0.8
2022-10-23T23:00:00,1940A,109.4636,34.493,渭南市,体育馆,细颗粒物(PM2.5),95,129,131,71,80,130,14,96,45,84,66,20,18,0.9,0.8
2022-10-23T23:00:00,1941A,109.4259,34.5023,渭南市,高新一小,细颗粒物(PM2.5),118,148,137,89,78,112,4,86,41,90,61,19,19,1.1,0.9
2022-10-23T23:00:00,1943A,102.1725,38.5339,金昌市,新川苑,颗粒物(PM10),109,168,122,69,44,139,25,118,82,76,38,10,40,1.4,0.9
2022-10-23T23:00:00,1944A,102.1692,38.5167,金昌市,天庆家园,颗粒物(PM10),92,133,106,61,36,137,36,118,74,74,47,20,46,1.7,1.1
2022-10-23T23:00:00,1945A,98.2908,39.7711,嘉峪关市,气象局,颗粒物(PM10),67,83,63,27,23,131,39,115,83,48,26,2,4,0.3,0.3
2022-10-23T23:00:00,1947A,106.3394,38.817,石嘴山市,沙湖旅游区(对照点),颗粒物(PM10),110,169,128,59,60,130,12,111,85,94,51,28,22,1.4,1.3
2022-10-23T23:00:00,1948A,106.3668,39.0145,石嘴山市,大武口朝阳西街,颗粒物(PM10),58,66,67,35,34,126,84,104,98,30,43,11,33,0.7,1
2022-10-23T23:00:00,1949A,106.7704,39.2282,石嘴山市,惠农南大街,,26,26,65,8,24,102,37,84,47,37,44,8,18,0.3,0.7
2022-10-23T23:00:00,1950A,106.7099,39.1325,石嘴山市,红果子镇惠新街,颗粒物(PM10),51,52,65,25,32,112,44,85,60,39,40,7,15,0.3,0.5
2022-10-23T23:00:00,1951A,84.895,45.6094,克拉玛依市,长征新村,,44,44,20,2,6,90,72,84,81,2,5,5,5,0.1,0.1
2022-10-23T23:00:00,1952A,84.8988,45.5893,克拉玛依市,南林小区,颗粒物(PM10),64,77,28,14,11,95,78,88,85,3,6,1,1,0.3,0.3
2022-10-23T23:00:00,1953A,85.1186,45.6886,克拉玛依市,白碱滩区,,,,,,,,,,,,,,,,
2022-10-23T23:00:00,1954A,84.905,44.3396,克拉玛依市,独山子区,颗粒物(PM10),53,55,56,18,22,108,70,101,94,7,17,6,8,0.2,0.4
2022-10-23T23:00:00,1955A,85.6979,46.098,克拉玛依市,乌尔禾区商贸楼,,,,32,20,8,94,66,81,77,1,7,3,4,0.2,0.2
2022-10-23T23:00:00,1956A,86.1472,41.7538,巴音郭楞州,孔雀公园,颗粒物(PM10),208,355,372,98,95,89,18,81,71,46,26,4,4,0.8,0.3
2022-10-23T23:00:00,1957A,86.1972,41.7166,巴音郭楞州,棉纺厂,颗粒物(PM10),226,368,468,100,110,93,46,86,80,26,13,5,5,0.3,0.2
2022-10-23T23:00:00,1958A,86.2357,41.7173,巴音郭楞州,经济开发区,颗粒物(PM10),187,323,418,77,95,92,55,84,78,15,13,7,7,0.3,0.3
2022-10-23T23:00:00,1959A,118.746,36.881,寿光市,监测站,,,,,,,,,,,,,,,,
2022-10-23T23:00:00,1960A,118.780,36.864,寿光市,世纪学校,,,,,,,,,,,,,,,,
2022-10-23T23:00:00,1961A,117.532,36.6868,济南市,东山小学,颗粒物(PM10),74,98,96,24,17,92,23,74,30,67,50,7,6,0.4,0.2
2022-10-23T23:00:00,1962A,117.541,36.710,章丘市,明水开发区,,,,,,,,,,,,,,,,
2022-10-23T23:00:00,1963A,120.610,36.440,即墨市,环保局子站,,,,,,,,,,,,,,,,
2022-10-23T23:00:00,1964A,120.470,36.390,即墨市,开发区子站,,,,,,,,,,,,,,,,
2022-10-23T23:00:00,1965A,120.005,35.878,胶南市,JN子站,,,,,,,,,,,,,,,,
2022-10-23T23:00:00,1966A,120.0405,35.8735,青岛市,黄岛区4号,颗粒物(PM10),57,63,47,24,13,110,42,100,74,67,34,7,6,0.7,0.5
2022-10-23T23:00:00,1967A,120.008,36.283,胶州市,胶州环保局,,,,,,,,,,,,,,,,
2022-10-23T23:00:00,1968A,120.014,36.253,胶州市,胶州一中,,,,,,,,,,,,,,,,
2022-10-23T23:00:00,1969A,120.537,36.865,莱西市,环保局子站,,,,,,,,,,,,,,,,
2022-10-23T23:00:00,1970A,120.515,36.885,莱西市,人民广场子站,,,,,,,,,,,,,,,,
2022-10-23T23:00:00,1971A,119.952,36.792,平度市,1号,,,,,,,,,,,,,,,,
2022-10-23T23:00:00,1972A,119.976,36.799,平度市,2号,,,,,,,,,,,,,,,,
2022-10-23T23:00:00,1973A,120.747,37.825,蓬莱市,蓬莱环保局,,,,,,,,,,,,,,,,
2022-10-23T23:00:00,1974A,120.773,37.809,蓬莱市,蓬莱博物馆,,,,,,,,,,,,,,,,
2022-10-23T23:00:00,1975A,120.399,37.374,招远市,招远环保局,,,,,,,,,,,,,,,,
2022-10-23T23:00:00,1976A,120.394,37.364,招远市,招远教育局,,,,,,,,,,,,,,,,
2022-10-23T23:00:00,1977A,119.941,37.177,莱州市,莱州环保局,,,,,,,,,,,,,,,,
2022-10-23T23:00:00,1978A,119.959,37.180,莱州市,莱州外经委,,,,,,,,,,,,,,,,
2022-10-23T23:00:00,1979A,122.471,37.154,荣成市,荣成市环保局办公楼,,,,,,,,,,,,,,,,
2022-10-23T23:00:00,1980A,122.410,37.161,荣成市,山东成山轮胎公司,,,,,,,,,,,,,,,,
2022-10-23T23:00:00,1981A,122.038,37.197,文登市,文登市环保局,,,,,,,,,,,,,,,,
2022-10-23T23:00:00,1982A,122.0693,37.2174,威海市,文登开发区,颗粒物(PM10),59,68,34,31,12,95,23,86,72,59,24,5,5,0.6,0.3
2022-10-23T23:00:00,1983A,121.531,36.913,乳山市,乳山市环保局,,,,,,,,,,,,,,,,
2022-10-23T23:00:00,1984A,121.544,36.907,乳山市,乳山市气象局,,,,,,,,,,,,,,,,
2022-10-23T23:00:00,1985A,120.636,31.155,吴江市,吴江市环保局,,,,,,,,,,,,,,,,
2022-10-23T23:00:00,1986A,120.635,31.170,吴江市,教师进修学校,,,,,,,,,,,,,,,,
2022-10-23T23:00:00,1987A,120.658,31.172,吴江市,吴江开发区,,,,,,,,,,,,,,,,
2022-10-23T23:00:00,1988A,120.953,31.388,昆山市,昆山实验小学,,,,,,,,,,,,,,,,
2022-10-23T23:00:00,1989A,120.999,31.381,昆山市,震川中学,,,,,,,,,,,,,,,,
2022-10-23T23:00:00,1990A,120.758,31.670,常熟市,海虞子站,,,,,,,,,,,,,,,,
2022-10-23T23:00:00,1991A,120.721,31.671,常熟市,兴福子站,,,,,,,,,,,,,,,,
2022-10-23T23:00:00,1992A,120.734,31.656,常熟市,菱塘子站,,,,,,,,,,,,,,,,
2022-10-23T23:00:00,1993A,120.526,31.874,张家港市,张家港市监测站,,,,,,,,,,,,,,,,
2022-10-23T23:00:00,1994A,120.550,31.882,张家港市,城北小学,,,,,,,,,,,,,,,,
2022-10-23T23:00:00,1995A,121.115,31.453,太仓市,太仓市监测站,,,,,,,,,,,,,,,,
2022-10-23T23:00:00,1996A,121.140,31.422,太仓市,科教新城实小,,,,,,,,,,,,,,,,
2022-10-23T23:00:00,1997A,119.146,31.955,句容市,消防指挥中心,,,,,,,,,,,,,,,,
2022-10-23T23:00:00,1998A,119.180,31.955,句容市,房家坝,,,,,,,,,,,,,,,,
2022-10-23T23:00:00,1999A,120.268,31.920,江阴市,虹桥邮政,,,,,,,,,,,,,,,,
2022-10-23T23:00:00,2000A,120.237,31.909,江阴市,五星公园,,,,,,,,,,,,,,,,
2022-10-23T23:00:00,2001A,120.302,31.920,江阴市,第二实验小学,,,,,,,,,,,,,,,,
2022-10-23T23:00:00,2002A,119.818,31.354,宜兴市,宜兴市环保局,,,,,,,,,,,,,,,,
2022-10-23T23:00:00,2003A,119.794,31.371,宜兴市,宜园,,,,,,,,,,,,,,,,
2022-10-23T23:00:00,2004A,119.579,31.751,金坛市,金坛市环境监测站,,,,,,,,,,,,,,,,
2022-10-23T23:00:00,2005A,119.579,31.737,金坛市,金坛市自来水公司,,,,,,,,,,,,,,,,
2022-10-23T23:00:00,2006A,119.460,31.400,溧阳市,溧阳市东门子站,,,,,,,,,,,,,,,,
2022-10-23T23:00:00,2007A,119.438,31.317,溧阳市,燕山子站,,,,,,,,,,,,,,,,
2022-10-23T23:00:00,2008A,121.173,31.896,海门市,海门市监测站,,,,,,,,,,,,,,,,
2022-10-23T23:00:00,2009A,121.1518,31.89708,海门市,社会福利院,,,,,,,,,,,,,,,,
2022-10-23T23:00:00,2010A,119.7183,30.2366,临安市,市政府,,,,,,,,,,,,,,,,
2022-10-23T23:00:00,2011A,119.6942,30.2311,临安市,四中,,,,,,,,,,,,,,,,
2022-10-23T23:00:00,2012A,119.954,30.054,富阳市,监测站,,,,,,,,,,,,,,,,
2022-10-23T23:00:00,2013A,119.946,30.049,富阳市,富春二小,,,,,,,,,,,,,,,,
2022-10-23T23:00:00,2014A,120.091,29.305,义乌市,江东,,,,,,,,,,,,,,,,
2022-10-23T23:00:00,2015A,120.040,29.334,义乌市,北苑,,,,,,,,,,,,,,,,
2022-10-23T23:00:00,2016A,120.251,29.719,诸暨市,图书馆,,,,,,,,,,,,,,,,
2022-10-23T23:00:00,2017A,120.209,29.732,诸暨市,富林印务,,,,,,,,,,,,,,,,
2022-10-23T23:00:00,2018A,121.989,39.625,瓦房店市,抱龙山庄,,,,,,,,,,,,,,,,
2022-10-23T23:00:00,2019A,122.011,39.617,瓦房店市,东山公园,,,,,,,,,,,,,,,,
2022-10-23T23:00:00,2031A,113.1817,27.9958,株洲市,云田中学,,,,80,53,45,211,121,192,172,34,27,10,11,0.8,0.6
2022-10-23T23:00:00,2054A,114.1099,32.1059,信阳市,平桥分局,细颗粒物(PM2.5),110,139,133,83,83,219,133,193,141,34,37,12,11,0.9,1
2022-10-23T23:00:00,2064A,113.9956,32.1271,信阳市,南湾水厂,细颗粒物(PM2.5),117,143,138,88,95,220,149,201,176,27,26,11,12,0.9,0.9
2022-10-23T23:00:00,2065A,114.0775,32.1195,信阳市,市酿酒公司,细颗粒物(PM2.5),110,134,126,83,85,220,124,191,118,38,53,13,12,1.0,1.1
2022-10-23T23:00:00,2066A,114.0609,32.1399,信阳市,审计局,细颗粒物(PM2.5),133,155,145,101,107,222,43,187,87,96,63,9,10,1.1,1
2022-10-23T23:00:00,2067A,114.6613,33.6128,周口市,市环境监测站,细颗粒物(PM2.5),134,155,161,102,102,202,118,176,150,30,28,12,12,1.2,1.1
2022-10-23T23:00:00,2068A,114.6758,33.6347,周口市,周口师范,细颗粒物(PM2.5),144,158,160,110,109,203,111,178,151,34,35,8,11,1.0,0.9
2022-10-23T23:00:00,2069A,114.6546,33.5979,周口市,市运管处,颗粒物(PM10),116,182,162,84,84,200,117,176,152,42,27,11,8,1.2,1
2022-10-23T23:00:00,2070A,114.6369,33.6406,周口市,川汇区环保局,细颗粒物(PM2.5),114,154,167,86,99,201,96,173,141,39,38,6,9,0.9,1.1
2022-10-23T23:00:00,2075A,117.6336,24.4674,漳州市,九湖(对照点),,,,,,,,,,,,,,,,
2022-10-23T23:00:00,2160A,112.85,35.5051,晋城市,自来水公司,细颗粒物(PM2.5),89,119,115,66,62,177,42,155,129,76,43,8,11,1.1,1.2
2022-10-23T23:00:00,2161A,112.8318,35.4936,晋城市,白云商贸,颗粒物(PM10),85,120,114,53,51,160,48,141,112,60,34,6,9,0.9,1
2022-10-23T23:00:00,2162A,112.8508,35.4887,晋城市,市环保局,,,,92,61,61,167,31,144,108,87,54,7,10,1.2,1.1
2022-10-23T23:00:00,2163A,112.8676,35.4897,晋城市,技术学院,颗粒物(PM10),95,139,113,68,69,160,21,141,112,95,48,6,9,1.1,1
2022-10-23T23:00:00,2164A,112.8271,35.4828,晋城市,泽州一中,,,,,,,,,,,,,,,,
2022-10-23T23:00:00,2165A,112.8453,35.546,晋城市,白马寺 (对照点),,,,,,,,,,,,,,,,
2022-10-23T23:00:00,2166A,112.4397,39.3522,朔州市,平朔,颗粒物(PM10),76,102,90,34,22,87,17,73,50,43,37,8,13,0.5,0.4
2022-10-23T23:00:00,2167A,112.4575,39.3617,朔州市,朔唯,颗粒物(PM10),115,180,110,32,23,94,8,78,48,59,43,15,17,0.5,0.4
2022-10-23T23:00:00,2168A,112.4258,39.3197,朔州市,区政府,颗粒物(PM10),60,69,71,18,28,91,35,76,62,30,26,4,8,0.6,0.6
2022-10-23T23:00:00,2169A,112.4072,39.3278,朔州市,市环保局,颗粒物(PM10),74,97,71,35,23,88,14,75,54,49,28,6,10,0.7,0.6
2022-10-23T23:00:00,2170A,112.4272,39.3681,朔州市,市二中,颗粒物(PM10),83,116,96,32,21,93,10,80,48,50,37,12,14,0.4,0.4
2022-10-23T23:00:00,2171A,112.7532,37.6945,晋中市,锦纶小区,颗粒物(PM10),60,70,82,30,31,92,8,72,39,63,42,8,9,0.3,0.3
2022-10-23T23:00:00,2173A,112.7249,37.7067,晋中市,南都小区,颗粒物(PM10),87,123,67,48,32,93,6,72,39,77,53,6,8,0.7,0.5
2022-10-23T23:00:00,2174A,112.6991,37.6982,晋中市,榆次区政府,颗粒物(PM10),63,75,90,30,34,92,8,70,38,65,50,8,11,0.4,0.5
2022-10-23T23:00:00,2175A,110.9956,35.0147,运城市,运城中学,细颗粒物(PM2.5),80,93,104,59,62,159,76,139,117,15,16,12,15,0.9,1.1
2022-10-23T23:00:00,2176A,111.0233,35.0611,运城市,禹都开发区,,,,,,,,,,,,,,,,
2022-10-23T23:00:00,2178A,110.9686,35.0303,运城市,地区技校,细颗粒物(PM2.5),70,87,111,51,54,168,77,152,125,19,22,13,16,1.0,1.2
2022-10-23T23:00:00,2179A,111.0414,35.1147,运城市,空港新区,细颗粒物(PM2.5),119,131,146,90,92,177,45,158,120,62,36,38,26,1.8,2.5
2022-10-23T23:00:00,2181A,112.7383,38.4519,忻州市,开发区,颗粒物(PM10),53,55,57,17,15,83,7,70,37,62,40,9,12,0.4,0.4
2022-10-23T23:00:00,2182A,112.7003,38.4928,忻州市,会展中心,颗粒物(PM10),69,88,73,30,20,77,4,61,27,56,43,9,12,0.4,0.4
2022-10-23T23:00:00,2183A,111.1406,37.5211,吕梁市,环保局,颗粒物(PM10),77,103,95,13,18,66,0,51,24,60,46,2,6,0.2,0.3
2022-10-23T23:00:00,2185A,111.1297,37.5136,吕梁市,自来水公司,颗粒物(PM10),105,159,115,22,19,61,3,45,27,49,40,6,7,0.4,0.4
2022-10-23T23:00:00,2186A,106.8288,39.6778,乌海市,聚英学校,,,,,,,,,,,,,,,,
2022-10-23T23:00:00,2187A,106.8174,39.6973,乌海市,市林业局,颗粒物(PM10),66,81,43,32,23,110,6,93,62,78,42,18,32,0.7,0.9
2022-10-23T23:00:00,2188A,106.7907,39.6667,乌海市,中海勃湾学校,颗粒物(PM10),71,92,61,41,34,111,8,98,62,78,48,27,46,0.7,1.2
2022-10-23T23:00:00,2191A,122.2532,43.6801,通辽市,艺术职业学校,颗粒物(PM10),54,57,36,19,14,70,31,64,27,37,27,7,6,0.5,0.3
2022-10-23T23:00:00,2192A,119.7594,49.2261,呼伦贝尔市,区环保局,颗粒物(PM10),53,55,34,35,22,68,27,61,28,27,22,5,5,0.4,0.4
2022-10-23T23:00:00,2194A,107.5936,40.916,巴彦淖尔市,秋林养殖基地(对照点),,,,,,,,,,,,,,,,
2022-10-23T23:00:00,2195A,107.4212,40.761,巴彦淖尔市,附二中,颗粒物(PM10),109,167,77,76,28,95,10,79,42,70,32,17,7,0.7,0.5
2022-10-23T23:00:00,2196A,107.37,40.7372,巴彦淖尔市,市环保大楼,"颗粒物(PM10),细颗粒物(PM2.5)",78,106,68,57,32,105,29,91,52,45,28,6,4,0.7,0.5
2022-10-23T23:00:00,2197A,113.1306,40.9923,乌兰察布市,集宁新区,,28,28,24,10,12,81,22,74,52,40,16,13,8,0.5,0.5
2022-10-23T23:00:00,2200A,122.0392,46.0656,兴安盟,胜华新制药厂,颗粒物(PM10),72,94,48,44,27,71,3,66,23,46,19,5,4,0.9,0.4
2022-10-23T23:00:00,2201A,121.9504,46.0741,兴安盟,科右前旗环保局,细颗粒物(PM2.5),88,114,39,65,24,72,6,66,22,46,21,7,4,0.8,0.3
2022-10-23T23:00:00,2202A,116.1042,43.9317,锡林郭勒盟,市环保监测站,,20,20,15,6,5,72,33,66,45,14,7,10,8,0.2,0.2
2022-10-23T23:00:00,2203A,116.0781,43.9311,锡林郭勒盟,市政府,,27,27,14,4,4,70,14,63,38,27,12,8,8,0.2,0.1
2022-10-23T23:00:00,2204A,105.6467,38.8363,阿拉善盟,西城区西花园(对照点),,49,49,30,22,10,113,105,106,102,15,14,8,9,0.5,0.4
2022-10-23T23:00:00,2205A,105.6985,38.8411,阿拉善盟,蒙二幼,,49,49,28,33,15,116,112,106,106,8,8,10,10,0.4,0.3
2022-10-23T23:00:00,2206A,105.724,38.8516,阿拉善盟,环保局新楼,,36,34,16,23,10,121,114,110,110,8,8,6,6,0.4,0.4
2022-10-23T23:00:00,2207A,121.6094,41.998,阜新市,工业园区,颗粒物(PM10),57,63,53,27,23,71,6,66,28,39,29,6,9,0.5,0.5
2022-10-23T23:00:00,2208A,121.6697,42.0279,阜新市,长青街,"颗粒物(PM10),细颗粒物(PM2.5)",73,95,49,53,23,69,6,64,30,52,33,7,9,1.6,0.6
2022-10-23T23:00:00,2209A,121.6673,42.0705,阜新市,农业园区,,17,15,21,7,10,66,53,62,56,10,14,7,16,0.2,0.3
2022-10-23T23:00:00,2210A,121.6717,42.0224,阜新市,东苑,颗粒物(PM10),75,100,55,38,22,73,8,68,30,48,32,19,22,3.7,0.9
2022-10-23T23:00:00,2211A,121.6506,42.0498,阜新市,玉龙新城,"颗粒物(PM10),细颗粒物(PM2.5)",60,69,52,43,21,68,5,63,20,28,22,6,7,0.6,0.5
2022-10-23T23:00:00,2212A,123.2,41.1953,辽阳市,宏伟区,颗粒物(PM10),55,60,46,26,17,70,12,56,33,43,33,17,16,0.9,0.9
2022-10-23T23:00:00,2213A,123.1683,41.2495,辽阳市,新华园,细颗粒物(PM2.5),98,118,63,73,30,65,10,55,33,52,43,15,19,1.5,0.9
2022-10-23T23:00:00,2214A,123.2354,41.2639,辽阳市,滨河路,细颗粒物(PM2.5),70,71,53,51,32,72,5,56,28,50,40,10,12,0.8,1
2022-10-23T23:00:00,2215A,123.149,41.2991,辽阳市,铁西工业园,细颗粒物(PM2.5),129,87,66,98,47,68,3,53,18,48,42,13,18,0.8,1.1
2022-10-23T23:00:00,2216A,123.8139,42.3022,铁岭市,汇工街西,细颗粒物(PM2.5),83,97,48,61,35,69,5,64,30,48,33,35,21,1.4,0.8
2022-10-23T23:00:00,2217A,123.8649,42.2923,铁岭市,水上乐园,颗粒物(PM10),51,51,44,26,19,62,30,57,34,34,39,8,10,1.3,1.2
2022-10-23T23:00:00,2218A,123.8486,42.2867,铁岭市,银州路东段,,29,27,51,20,27,60,24,56,36,28,31,5,7,0.8,0.8
2022-10-23T23:00:00,2219A,123.7153,42.2217,铁岭市,金沙江路北,颗粒物(PM10),58,66,37,27,16,68,6,62,39,54,32,9,11,0.7,0.6
2022-10-23T23:00:00,2220A,120.4318,41.5881,朝阳市,西梁,颗粒物(PM10),52,54,41,26,19,67,6,63,29,47,30,10,11,0.9,0.8
2022-10-23T23:00:00,2221A,120.4521,41.5646,朝阳市,河畔小区,,39,39,36,18,15,63,7,60,35,48,23,8,11,0.9,0.9
2022-10-23T23:00:00,2222A,120.4176,41.5648,朝阳市,八里堡,颗粒物(PM10),66,82,54,23,19,65,4,60,26,46,30,16,19,0.8,0.9
2022-10-23T23:00:00,2223A,120.3806,41.5969,朝阳市,农业园区,,21,21,31,9,12,70,16,68,35,40,30,6,7,0.6,0.6
2022-10-23T23:00:00,2225A,124.4002,43.1713,四平市,一商场,,43,43,31,27,15,61,21,56,34,40,22,10,5,0.4,0.3
2022-10-23T23:00:00,2226A,124.388,43.193,四平市,境园,颗粒物(PM10),55,60,34,34,11,67,5,62,30,36,22,8,6,0.4,0.2
2022-10-23T23:00:00,2227A,125.1358,42.8845,辽源市,环保局,,40,33,26,28,21,71,23,65,47,28,16,8,9,0.6,0.6
2022-10-23T23:00:00,2229A,125.9358,41.7173,通化市,光明,,33,33,23,9,12,70,24,65,48,27,19,10,13,0.3,0.4
2022-10-23T23:00:00,2230A,125.9446,41.7325,通化市,铁路,,31,31,35,12,21,72,28,70,55,28,23,9,11,0.5,0.5
2022-10-23T23:00:00,2231A,126.4219,41.9171,白山市,喜丰,,24,24,37,5,15,66,52,62,59,11,21,6,8,0.6,0.7
2022-10-23T23:00:00,2232A,126.4077,41.9419,白山市,环保局,,36,36,49,2,18,68,40,65,59,17,19,8,13,0.6,0.7
2022-10-23T23:00:00,2233A,124.8006,45.1214,松原市,江南,颗粒物(PM10),59,68,31,32,11,63,4,58,31,53,18,7,6,1.0,0.4
2022-10-23T23:00:00,2234A,124.7965,45.1722,松原市,江北,,34,34,22,5,8,69,7,63,34,49,15,4,3,0.3,0.2
2022-10-23T23:00:00,2235A,122.7911,45.6077,白城市,洮北区环保局,,47,47,31,24,13,86,64,82,58,22,17,7,6,0.3,0.2
2022-10-23T23:00:00,2236A,122.8738,45.5725,白城市,市环保局,颗粒物(PM10),53,56,32,23,12,78,17,74,33,50,17,6,7,0.6,0.5
2022-10-23T23:00:00,2237A,129.47,42.8883,延边朝鲜族自治州,妇幼医院,,14,12,19,8,13,66,44,50,32,13,19,10,13,0.4,0.4
2022-10-23T23:00:00,2238A,129.5055,42.9108,延边朝鲜族自治州,延边医院,,18,18,25,12,15,64,53,53,44,10,19,7,10,0.4,0.5
2022-10-23T23:00:00,2239A,129.3964,42.8881,延边朝鲜族自治州,朝阳川镇医院,,14,14,16,8,10,65,42,55,40,11,13,5,7,0.3,0.4
2022-10-23T23:00:00,2240A,130.9762,45.3001,鸡西市,环保局,,22,22,23,13,12,49,36,44,35,14,18,2,3,0.2,0.2
2022-10-23T23:00:00,2243A,130.9429,45.3039,鸡西市,第一中学,,19,19,21,13,11,58,39,53,45,8,7,4,5,0.4,0.3
2022-10-23T23:00:00,2244A,130.2537,47.3416,鹤岗市,哈啤分公司,,17,12,14,8,9,60,52,58,54,5,6,6,7,0.2,0.2
2022-10-23T23:00:00,2245A,130.2684,47.3086,鹤岗市,斯达机电,,21,21,19,10,11,61,45,58,45,7,11,6,6,0.4,0.3
2022-10-23T23:00:00,2246A,130.3114,47.3388,鹤岗市,东山纸板厂,,34,34,41,20,17,61,41,57,27,10,14,7,7,0.3,0.5
2022-10-23T23:00:00,2247A,130.1097,47.3382,鹤岗市,五号水库(对照点),,19,14,11,13,9,62,38,60,45,11,6,4,4,0.2,0.1
2022-10-23T23:00:00,2248A,131.1511,46.6937,双鸭山市,双合村,颗粒物(PM10),63,75,21,27,11,62,5,58,17,35,17,5,6,0.5,0.3
2022-10-23T23:00:00,2249A,131.1652,46.6191,双鸭山市,南小市,,34,34,40,19,13,62,19,60,22,19,15,5,6,0.4,0.3
2022-10-23T23:00:00,2250A,131.1524,46.6554,双鸭山市,环保局,颗粒物(PM10),56,61,25,28,15,71,9,67,27,35,17,5,5,0.6,0.3
2022-10-23T23:00:00,2251A,131.12,46.5656,双鸭山市,苗圃(对照点),,30,29,21,21,19,58,26,54,32,6,6,4,5,0.3,0.3
2022-10-23T23:00:00,2252A,128.5159,47.4311,伊春市,环保局,,15,15,13,7,6,54,18,49,24,16,13,7,5,0.4,0.4
2022-10-23T23:00:00,2253A,128.9102,47.7412,伊春市,电力嘉园,,33,28,18,23,10,58,25,53,33,12,11,3,2,0.3,0.3
2022-10-23T23:00:00,2254A,129.5029,48.471,伊春市,汤旺河国家公园(对照点),,36,36,32,15,17,56,25,52,34,3,3,5,6,0.2,0.1
2022-10-23T23:00:00,2255A,130.2751,46.8028,佳木斯市,佳纺,颗粒物(PM10),70,89,38,16,9,62,5,56,18,27,17,3,4,0.5,0.4
2022-10-23T23:00:00,2256A,130.3995,46.8307,佳木斯市,发电厂,颗粒物(PM10),53,55,24,20,7,62,21,58,32,20,9,2,2,0.4,0.3
2022-10-23T23:00:00,2257A,130.3258,46.7975,佳木斯市,环保局,,49,49,21,22,11,59,4,54,20,41,21,8,6,0.5,0.4
2022-10-23T23:00:00,2258A,130.3648,46.8032,佳木斯市,十一中,,44,44,17,23,9,63,7,57,32,48,19,3,3,0.7,0.4
2022-10-23T23:00:00,2259A,130.3794,46.7588,佳木斯市,四丰(对照点),细颗粒物(PM2.5),84,35,20,62,41,58,17,52,21,25,35,1,1,0.4,0.3
2022-10-23T23:00:00,2262A,131.0518,45.8751,七台河市,新一中(对照点),,33,33,19,13,10,73,39,68,49,16,10,7,7,0.4,0.3
2022-10-23T23:00:00,2263A,127.4833,50.2524,黑河市,交通局,,20,20,25,7,10,58,33,55,28,13,14,7,6,0.6,0.7
2022-10-23T23:00:00,2264A,127.5144,50.2341,黑河市,环保局,,22,12,18,15,10,60,45,57,44,9,9,7,6,0.5,0.6
2022-10-23T23:00:00,2265A,127.5291,50.2472,黑河市,大黑河岛(对照点),,31,31,15,10,6,60,35,56,38,4,4,2,6,0.2,0.2
2022-10-23T23:00:00,2266A,126.9785,46.6365,绥化市,人和东街,颗粒物(PM10),54,58,31,36,18,66,40,58,47,19,16,3,4,0.6,0.5
2022-10-23T23:00:00,2267A,126.964,46.6528,绥化市,党政办公中心,细颗粒物(PM2.5),62,72,34,44,20,81,38,70,45,25,16,5,4,0.6,0.5
2022-10-23T23:00:00,2269A,124.1069,50.4097,大兴安岭地区,科技局,,19,13,9,13,10,69,43,66,47,5,6,2,3,0.3,0.3
2022-10-23T23:00:00,2270A,117.396,32.939,蚌埠市,工人疗养院,颗粒物(PM10),74,98,130,47,70,123,45,106,59,64,53,21,11,0.3,0.5
2022-10-23T23:00:00,2271A,117.3605,32.9427,蚌埠市,百货大楼,颗粒物(PM10),71,91,105,42,68,126,27,105,61,81,54,17,12,0.3,0.5
2022-10-23T23:00:00,2273A,117.4185,32.8911,蚌埠市,蚌埠学院,颗粒物(PM10),68,85,115,34,63,115,36,97,57,61,59,12,15,0.4,0.5
2022-10-23T23:00:00,2274A,117.3533,32.9673,蚌埠市,淮上区政府,颗粒物(PM10),71,92,138,34,77,125,7,106,64,104,46,17,11,0.2,0.4
2022-10-23T23:00:00,2275A,117.3145,32.8977,蚌埠市,高新区,颗粒物(PM10),62,73,127,22,74,124,72,104,73,33,56,11,15,0.3,0.6
2022-10-23T23:00:00,2277A,116.8305,32.7727,淮南市,潘集区政府,细颗粒物(PM2.5),104,124,155,78,99,180,58,145,90,29,35,7,8,0.3,0.5
2022-10-23T23:00:00,2278A,117.0067,32.6524,淮南市,师范学院,颗粒物(PM10),77,104,153,31,88,160,70,130,70,24,50,12,10,0.8,1
2022-10-23T23:00:00,2279A,116.8569,32.5951,淮南市,谢家集区政府,颗粒物(PM10),68,85,127,27,74,186,73,156,93,22,34,11,20,0.4,0.6
2022-10-23T23:00:00,2280A,116.8281,32.633,淮南市,八公山区政府,颗粒物(PM10),66,82,106,43,89,191,59,160,95,35,29,33,16,0.8,0.7
2022-10-23T23:00:00,2281A,116.6325,32.6201,淮南市,焦岗湖风景区管理处(对照点),颗粒物(PM10),77,103,139,42,83,201,15,169,85,20,16,10,11,0.4,0.6
2022-10-23T23:00:00,2282A,116.8004,33.975,淮北市,监测站,颗粒物(PM10),59,68,111,27,47,135,50,107,72,33,26,8,11,0.7,0.7
2022-10-23T23:00:00,2283A,116.8091,33.9007,淮北市,烈山区政府,颗粒物(PM10),80,110,108,41,51,106,23,98,54,70,38,6,8,0.5,0.5
2022-10-23T23:00:00,2284A,116.7856,33.9477,淮北市,职业技术学院,颗粒物(PM10),72,94,118,36,51,105,34,93,33,55,45,8,10,0.9,0.9
2022-10-23T23:00:00,2285A,117.8177,30.9412,铜陵市,市第四中学,细颗粒物(PM2.5),107,145,126,80,65,180,88,162,136,39,39,4,7,0.7,0.7
2022-10-23T23:00:00,2286A,117.8059,30.9273,铜陵市,市公路局,细颗粒物(PM2.5),105,120,112,79,73,176,112,157,138,26,34,5,7,0.6,0.7
2022-10-23T23:00:00,2287A,117.7807,30.9413,铜陵市,市新民污水厂,颗粒物(PM10),84,118,119,60,63,184,106,167,140,30,47,10,12,0.6,0.6
2022-10-23T23:00:00,2288A,117.7439,30.8792,铜陵市,市第九中学,细颗粒物(PM2.5),94,126,137,70,73,179,120,161,138,36,49,6,11,0.8,1.2
2022-10-23T23:00:00,2289A,117.846,30.9413,铜陵市,车站新区,细颗粒物(PM2.5),107,108,91,80,63,174,69,155,124,46,38,3,5,0.6,0.6
2022-10-23T23:00:00,2290A,117.8483,30.97,铜陵市,市职教基地,细颗粒物(PM2.5),113,133,100,85,62,186,81,165,134,21,24,4,6,0.8,0.8
2022-10-23T23:00:00,2291A,117.0809,30.5177,安庆市,环科院,细颗粒物(PM2.5),119,125,88,90,58,205,122,186,168,26,21,12,11,1.1,0.8
2022-10-23T23:00:00,2292A,117.0331,30.5119,安庆市,马山宾馆,细颗粒物(PM2.5),98,104,76,73,51,210,131,191,173,23,19,11,9,1.2,0.9
2022-10-23T23:00:00,2294A,116.9896,30.6145,安庆市,安庆大学,细颗粒物(PM2.5),77,89,76,56,51,212,148,195,184,19,18,6,7,1.0,0.9
2022-10-23T23:00:00,2295A,118.2903,29.6963,黄山市,延安路89号,细颗粒物(PM2.5),70,67,43,51,35,170,159,162,161,13,13,8,6,0.5,0.4
2022-10-23T23:00:00,2296A,118.327,29.7178,黄山市,黄山东路89号,细颗粒物(PM2.5),62,66,50,44,33,162,150,155,153,16,16,7,6,0.4,0.3
2022-10-23T23:00:00,2297A,118.1371,30.2756,黄山市,黄山区政府5号楼,颗粒物(PM10),72,93,78,48,41,178,70,162,122,13,14,6,6,0.8,0.7
2022-10-23T23:00:00,2298A,118.3093,32.3153,滁州市,老年大学,颗粒物(PM10),58,65,63,23,33,128,53,113,81,36,26,8,8,0.3,0.3
2022-10-23T23:00:00,2299A,118.3244,32.2786,滁州市,人大宾馆,颗粒物(PM10),56,62,78,16,35,128,49,112,68,49,37,4,5,0.3,0.4
2022-10-23T23:00:00,2301A,115.8277,32.8929,阜阳市,市监测站,细颗粒物(PM2.5),140,161,182,107,130,202,73,173,136,39,53,16,14,0.8,1.1
2022-10-23T23:00:00,2303A,115.8554,32.8605,阜阳市,开发区,细颗粒物(PM2.5),137,178,201,104,135,218,68,180,140,55,53,12,12,0.8,0.9
2022-10-23T23:00:00,2306A,116.989,33.6306,宿州市,火车站,,,,,,,,,,,,,,,,
2022-10-23T23:00:00,2307A,116.5079,31.737,六安市,监测大楼,细颗粒物(PM2.5),85,100,106,63,74,199,125,174,151,24,47,8,8,0.5,0.5
2022-10-23T23:00:00,2308A,116.4738,31.7643,六安市,皖西学院,颗粒物(PM10),95,140,102,62,60,196,113,178,146,26,33,6,7,0.6,0.6
2022-10-23T23:00:00,2309A,116.4996,31.7905,六安市,朝阳厂,细颗粒物(PM2.5),93,97,102,69,72,181,83,159,115,37,36,5,5,0.7,0.7
2022-10-23T23:00:00,2310A,116.5567,31.7886,六安市,开发区,细颗粒物(PM2.5),117,170,143,88,88,201,74,177,127,41,41,7,9,0.6,0.6
2022-10-23T23:00:00,2311A,115.8072,33.8399,亳州市,污水处理厂,细颗粒物(PM2.5),110,145,150,83,94,189,27,163,104,65,37,25,13,0.8,0.8
2022-10-23T23:00:00,2312A,115.7789,33.8518,亳州市,三国揽胜宫,细颗粒物(PM2.5),119,150,165,90,87,193,57,166,116,50,38,9,10,0.9,0.9
2022-10-23T23:00:00,2314A,117.47,30.6618,池州市,池州学院,细颗粒物(PM2.5),92,108,92,68,60,196,117,174,149,20,28,5,10,1.0,0.9
2022-10-23T23:00:00,2315A,117.4974,30.6539,池州市,平天湖(对照点),,,,,,,,,,,,,,,,
