timepoint,stationcode,longitude,latitude,area,positionname,primarypollutant,aqi,pm10,pm10_24h,pm2_5,pm2_5_24h,o3,o3_24h,o3_8h,o3_8h_24h,no2,no2_24h,so2,so2_24h,co,co_24h
2026-01-09T0000,2568A,102.2503,31.8896,阿坝藏族羌族自治州,马师校,,32,32,22,15,14,28,,65,37,22,16,5,4,0.5,0.5
2026-01-09T0000,3994A,102.2174,31.9016,阿坝藏族羌族自治州,马尔康中学西区,,20,,10,14,10,32,,66,44,22,12,6,6,0.5,0.5
2026-01-09T0000,2695A,80.2899,41.1684,阿克苏地区,电视台,细颗粒物(PM2.5),159,190,101,121,66,6,,53,38,84,43,6,5,2.7,1.4
2026-01-09T0000,2696A,80.2592,41.1541,阿克苏地区,艺术中心,细颗粒物(PM2.5),128,149,90,97,66,6,,54,34,70,35,5,4,1.5,1
2026-01-09T0000,2205A,105.699,38.8409,阿拉善盟,蒙二幼,颗粒物(PM10),122,194,73,30,15,71,,86,70,13,11,10,10,0.7,0.6
2026-01-09T0000,2206A,105.7198,38.8508,阿拉善盟,环保局新楼,颗粒物(PM10),95,139,53,35,15,77,,84,78,6,6,9,9,0.6,0.6
2026-01-09T0000,2708A,88.1266,47.8515,阿勒泰地区,市站,,44,44,32,27,20,50,,56,44,25,31,2,3,0.5,0.5
2026-01-09T0000,4166A,88.1198,47.7931,阿勒泰地区,阿勒泰路33号,,48,48,35,28,22,48,,66,48,28,22,2,2,0.6,0.6
2026-01-09T0000,2630A,80.1171,32.4999,阿里地区,阿里监测站,,15,6,3,3,3,22,,65,47,29,13,9,9,0.6,0.5
2026-01-09T0000,3192A,80.0906,32.5029,阿里地区,阿里藏医院,,28,28,13,18,8,37,,79,70,26,8,19,13,1.0,0.7
2026-01-09T0000,2644A,109.0088,32.6974,安康市,汉滨区检察院,颗粒物(PM10),52,53,47,34,33,10,,58,28,32,23,4,5,0.5,0.6
2026-01-09T0000,4054A,109.0324,32.6913,安康市,市邮政管理局,细颗粒物(PM2.5),68,65,53,49,38,4,,53,22,41,27,9,8,0.8,0.8
2026-01-09T0000,2291A,117.0806,30.5181,安庆市,环科院,细颗粒物(PM2.5),75,81,68,55,44,31,,85,48,45,47,6,8,0.5,0.6
2026-01-09T0000,2292A,117.0331,30.5118,安庆市,马山宾馆,细颗粒物(PM2.5),73,79,68,53,45,6,,84,48,80,48,6,8,0.6,0.8
2026-01-09T0000,2294A,116.9897,30.6146,安庆市,安庆大学,细颗粒物(PM2.5),65,76,63,47,43,22,,84,51,34,33,2,4,0.6,0.8
2026-01-09T0000,3173A,117.0598,30.5351,安庆市,市人大,细颗粒物(PM2.5),79,85,74,58,49,12,,82,38,67,52,6,9,0.6,0.7
2026-01-09T0000,3123A,105.9408,26.2431,安顺市,凤凰山,细颗粒物(PM2.5),59,46,41,42,33,78,,102,88,17,17,20,19,0.5,0.4
2026-01-09T0000,3124A,105.9443,26.2567,安顺市,金钟山,细颗粒物(PM2.5),52,47,41,36,31,80,,102,91,14,14,26,21,0.8,0.7
2026-01-09T0000,3125A,105.8983,26.248,安顺市,娄家坡,细颗粒物(PM2.5),54,46,43,38,36,85,,102,92,11,14,13,14,0.6,0.6
2026-01-09T0000,1819A,114.3552,36.1017,安阳市,红庙街,颗粒物(PM10),68,86,77,39,40,30,,64,49,33,31,3,4,0.5,0.7
2026-01-09T0000,1820A,114.361,36.0681,安阳市,银杏小区,颗粒物(PM10),72,94,80,47,48,31,,66,48,32,32,4,6,0.4,0.6
2026-01-09T0000,3141A,114.3921,36.0879,安阳市,信访局,颗粒物(PM10),70,89,79,42,42,38,,68,52,29,29,5,7,0.6,0.8
2026-01-09T0000,3669A,114.4706,36.0634,安阳市,左辅环卫站,颗粒物(PM10),79,108,94,56,55,36,,70,50,34,31,6,6,0.5,0.6
2026-01-09T0000,4117A,114.2918,36.0769,安阳市,钢三路198号,颗粒物(PM10),70,89,88,42,44,30,,60,44,34,31,4,4,0.5,0.7
2026-01-09T0000,1748A,123.0441,41.1201,鞍山市,深沟寺,颗粒物(PM10),52,54,42,31,20,57,,64,62,20,19,9,11,0.7,0.9
2026-01-09T0000,1749A,123.011,41.0931,鞍山市,太阳城,颗粒物(PM10),52,54,43,26,18,57,,65,62,20,19,13,16,0.7,0.9
2026-01-09T0000,1750A,123.0483,41.1445,鞍山市,太平,颗粒物(PM10),61,72,54,32,20,57,,60,59,20,23,11,14,0.6,0.8
2026-01-09T0000,1751A,122.964,41.0968,鞍山市,铁西三道街,颗粒物(PM10),65,80,59,34,21,53,,57,55,27,28,15,20,1.0,1.1
2026-01-09T0000,1753A,123.0219,41.0822,鞍山市,明达新区,颗粒物(PM10),55,59,44,30,19,59,,65,63,16,16,12,14,0.5,0.7
2026-01-09T0000,4201A,122.944647,41.082639,鞍山市,兴盛南路290号,颗粒物(PM10),60,69,63,28,25,58,,59,57,24,33,12,15,0.6,1
2026-01-09T0000,2195A,107.4206,40.7609,巴彦淖尔市,附二中,颗粒物(PM10),127,203,129,55,31,64,,65,62,6,7,2,3,0.3,0.4
2026-01-09T0000,2196A,107.37,40.7372,巴彦淖尔市,市环保大楼,颗粒物(PM10),126,202,130,54,27,71,,74,68,5,7,3,4,0.3,0.4
2026-01-09T0000,1956A,86.1476,41.7529,巴音郭楞蒙古自治州,孔雀公园,颗粒物(PM10),85,119,119,40,33,34,,53,50,31,21,7,7,0.9,0.6
2026-01-09T0000,1957A,86.1971,41.7166,巴音郭楞蒙古自治州,棉纺厂,颗粒物(PM10),136,222,150,34,21,38,,57,52,26,13,/,/,/,/
2026-01-09T0000,1958A,86.236,41.7172,巴音郭楞蒙古自治州,经济开发区,颗粒物(PM10),101,151,124,26,20,44,,48,47,21,16,5,5,0.5,0.4
2026-01-09T0000,3181A,106.776805,31.852614,巴中市,市五中,细颗粒物(PM2.5),118,115,80,89,61,20,,71,51,36,27,5,6,1.1,1
2026-01-09T0000,3183A,106.7419,31.8654,巴中市,圣泉水务公司,细颗粒物(PM2.5),89,81,68,66,53,21,,69,35,42,34,4,4,0.6,0.6
2026-01-09T0000,3616A,106.7617,31.8343,巴中市,市中心医院,细颗粒物(PM2.5),130,128,83,99,64,4,,68,36,47,33,6,7,1.1,0.9
2026-01-09T0000,2235A,122.7909,45.608,白城市,洮北区环保局,,47,47,45,18,20,55,,53,47,8,12,6,5,0.2,0.2
2026-01-09T0000,2236A,122.8741,45.5725,白城市,市环保局,颗粒物(PM10),51,51,59,18,24,40,,51,41,13,18,5,5,0.3,0.3
2026-01-09T0000,2231A,126.4219,41.9172,白山市,喜丰,颗粒物(PM10),64,78,55,35,24,8,,53,18,52,30,18,14,1.0,0.7
2026-01-09T0000,2232A,126.4082,41.9416,白山市,环保局,"颗粒物(PM10),细颗粒物(PM2.5)",58,65,39,41,28,8,,49,18,43,26,12,10,1.1,0.9
2026-01-09T0000,2647A,104.1727,36.5448,白银市,第三小学,颗粒物(PM10),52,53,60,22,39,22,,68,42,41,38,13,44,0.8,1.2
2026-01-09T0000,2648A,104.1467,36.5482,白银市,动力公司,,31,31,47,15,29,31,,77,43,27,31,4,18,0.6,0.9
2026-01-09T0000,2512A,106.6102,23.901,百色市,市监测站,,,,52,,39,,,71,54,,21,,8,,0.7
2026-01-09T0000,2513A,106.6524,23.8842,百色市,市中心血站,细颗粒物(PM2.5),78,67,71,57,53,12,,74,40,53,34,8,9,0.8,0.9
2026-01-09T0000,4133A,106.6273,23.8798,百色市,龙景西路,颗粒物(PM10),71,92,69,49,46,7,,80,38,43,24,7,8,0.8,0.7
2026-01-09T0000,2270A,117.396,32.9389,蚌埠市,工人疗养院,细颗粒物(PM2.5),95,107,101,71,59,55,,67,53,32,40,10,9,0.8,0.6
2026-01-09T0000,2271A,117.3606,32.9428,蚌埠市,百货大楼,细颗粒物(PM2.5),89,96,90,66,60,53,,68,44,36,43,14,10,0.9,0.7
2026-01-09T0000,2273A,117.4183,32.8909,蚌埠市,蚌埠学院,细颗粒物(PM2.5),107,107,98,80,61,31,,65,48,51,46,5,8,0.5,0.5
2026-01-09T0000,2274A,117.3534,32.9672,蚌埠市,淮上区政府,细颗粒物(PM2.5),92,110,99,68,63,55,,70,46,37,46,8,6,0.9,0.7
2026-01-09T0000,2275A,117.3143,32.8977,蚌埠市,高新区,细颗粒物(PM2.5),93,117,104,69,66,19,,59,32,62,48,9,11,0.6,0.5
2026-01-09T0000,3715A,117.3091,32.9314,蚌埠市,蚌埠田家炳中学,细颗粒物(PM2.5),100,129,110,75,70,27,,64,37,60,51,16,9,0.7,0.6
2026-01-09T0000,1585A,109.8761,40.6533,包头市,市环境监测站,颗粒物(PM10),119,188,115,37,32,2,,51,34,67,48,12,13,1.2,1.3
2026-01-09T0000,1587A,109.9992,40.5843,包头市,包头八中,颗粒物(PM10),85,120,98,32,45,38,,51,28,35,47,19,9,0.5,0.8
2026-01-09T0000,1589A,109.8641,40.6288,包头市,惠龙物流,颗粒物(PM10),102,154,104,37,36,20,,53,44,50,43,16,17,1.2,0.9
2026-01-09T0000,1590A,110.0376,40.5546,包头市,东河鸿龙湾,颗粒物(PM10),84,117,84,14,37,45,,54,31,26,56,7,12,0.6,1.2
2026-01-09T0000,3283A,109.9154,40.5684,包头市,滨河大厦,颗粒物(PM10),67,83,82,10,31,42,,56,51,25,35,5,7,0.5,0.8
2026-01-09T0000,3419A,109.9449,40.6259,包头市,包头市委党校,颗粒物(PM10),99,147,104,24,39,9,,55,45,62,44,12,15,1.0,1
2026-01-09T0000,3683A,109.8332,40.6577,包头市,昆区政府,颗粒物(PM10),117,183,108,43,40,3,,50,32,80,56,16,17,1.6,1.6
2026-01-09T0000,1931A,107.0802,34.3129,宝鸡市,竹园沟,,40,37,34,28,26,32,,68,44,28,18,6,6,0.3,0.4
2026-01-09T0000,1933A,107.1429,34.3549,宝鸡市,监测站,细颗粒物(PM2.5),64,52,48,46,36,21,,63,38,38,31,4,5,0.5,0.5
2026-01-09T0000,1934A,107.1172,34.3759,宝鸡市,技工学校,细颗粒物(PM2.5),64,,56,46,36,38,,67,48,18,21,4,8,0.5,0.5
2026-01-09T0000,1936A,107.2025,34.3518,宝鸡市,文理学院,细颗粒物(PM2.5),64,63,49,46,35,26,,71,42,39,31,4,5,0.5,0.5
2026-01-09T0000,1937A,107.2396,34.3626,宝鸡市,三迪小学,细颗粒物(PM2.5),78,71,56,57,41,22,,67,39,42,34,4,4,0.5,0.5
2026-01-09T0000,4155A,107.1721,34.3558,宝鸡市,滨河北路,颗粒物(PM10),61,71,53,42,34,28,,67,36,29,30,4,5,0.5,0.6
2026-01-09T0000,4308A,107.3898,34.3601,宝鸡市,陈仓区北开路21号,细颗粒物(PM2.5),89,89,74,66,54,27,,66,38,42,36,14,35,0.5,0.6
2026-01-09T0000,1051A,115.4803,38.8568,保定市,游泳馆,"颗粒物(PM10),细颗粒物(PM2.5)",72,94,89,52,54,29,,54,42,32,40,13,9,0.5,0.6
2026-01-09T0000,1052A,115.509,38.8895,保定市,华电二区,细颗粒物(PM2.5),77,92,75,56,51,24,,58,38,29,35,4,5,0.8,1.2
2026-01-09T0000,1053A,115.4588,38.9037,保定市,接待中心,细颗粒物(PM2.5),77,94,90,56,51,24,,54,40,36,35,5,4,0.4,0.5
2026-01-09T0000,1054A,115.4484,38.8344,保定市,地表水厂,颗粒物(PM10),84,117,106,58,53,29,,56,40,39,44,7,6,0.5,0.5
2026-01-09T0000,3581A,115.3136,38.9511,保定市,满城区生态环境分局,颗粒物(PM10),82,114,105,51,52,16,,54,28,51,51,8,7,0.8,0.9
2026-01-09T0000,3582A,115.4709,38.7628,保定市,清苑区第二中学,细颗粒物(PM2.5),82,106,103,60,45,25,,56,36,33,36,9,9,0.6,0.6
2026-01-09T0000,3583A,115.6231,39.0223,保定市,徐水物探局,颗粒物(PM10),86,122,119,62,55,23,,54,40,42,45,12,10,0.7,0.8
2026-01-09T0000,4004A,115.4199,38.8665,保定市,双鹰农机,颗粒物(PM10),87,124,115,54,53,27,,60,44,38,39,8,9,0.6,0.6
2026-01-09T0000,4034A,115.515,38.8589,保定市,植保所站,细颗粒物(PM2.5),85,89,88,63,55,25,,50,37,44,53,8,6,0.7,0.8
2026-01-09T0000,2594A,99.1589,25.1137,保山市,市环境监测站,,28,23,27,19,20,63,,85,74,7,10,4,3,0.3,0.4
2026-01-09T0000,2595A,99.1616,25.1381,保山市,市环保局,,45,,29,31,20,74,,89,81,4,6,4,4,0.5,0.4
2026-01-09T0000,1867A,109.1435,21.4085,北海市,海滩公园,颗粒物(PM10),61,71,54,39,36,100,,122,115,15,17,10,10,0.8,0.6
2026-01-09T0000,1868A,109.0983,21.466,北海市,新市环保局,细颗粒物(PM2.5),70,57,53,51,45,97,,121,114,22,18,6,5,0.6,0.6
2026-01-09T0000,1869A,109.1775,21.5232,北海市,北海工业园,细颗粒物(PM2.5),92,78,56,68,43,79,,108,99,31,20,10,9,0.7,0.6
2026-01-09T0000,3400A,109.1844,21.4396,北海市,龙潭自来水厂,细颗粒物(PM2.5),99,87,62,74,48,56,,110,84,25,21,9,9,0.8,0.7
2026-01-09T0000,1001A,116.3611,39.8786,北京市,万寿西宫,颗粒物(PM10),84,118,74,50,35,10,,38,24,60,62,4,3,0.6,0.7
2026-01-09T0000,1003A,116.4174,39.9289,北京市,东四,颗粒物(PM10),81,111,66,45,28,4,,40,26,70,49,5,5,1.0,0.7
2026-01-09T0000,1004A,116.4073,39.8858,北京市,天坛,颗粒物(PM10),73,95,65,45,31,3,,40,23,58,49,2,3,0.7,0.6
2026-01-09T0000,1005A,116.4622,39.9364,北京市,农展馆,颗粒物(PM10),81,111,66,48,30,3,,42,27,63,48,4,5,1.0,0.8
2026-01-09T0000,1006A,116.3399,39.9293,北京市,官园,颗粒物(PM10),77,103,66,48,35,1,,38,24,73,53,5,5,0.9,0.8
2026-01-09T0000,1007A,116.2879,39.9613,北京市,海淀万柳,颗粒物(PM10),71,92,69,45,33,2,,33,15,74,60,4,4,0.8,0.8
2026-01-09T0000,1008A,116.6635,40.1349,北京市,顺义新城,颗粒物(PM10),82,114,59,56,28,1,,40,13,68,42,3,3,0.9,0.6
2026-01-09T0000,1009A,116.6275,40.327,北京市,怀柔镇,颗粒物(PM10),56,62,41,38,24,13,,30,8,51,43,6,7,0.7,0.6
2026-01-09T0000,1010A,116.2295,40.217,北京市,昌平镇,颗粒物(PM10),59,67,54,36,28,13,,27,20,52,50,5,5,0.7,0.7
2026-01-09T0000,1011A,116.3968,39.982,北京市,奥体中心,颗粒物(PM10),80,109,60,54,28,2,,40,23,72,50,5,4,1.2,0.9
2026-01-09T0000,3418A,116.8336,40.4095,北京市,密云新城,颗粒物(PM10),70,90,50,47,24,4,,38,9,51,38,3,4,0.7,0.5
2026-01-09T0000,3671A,116.0879,39.9725,北京市,门头沟三家店,颗粒物(PM10),67,84,71,44,35,10,,41,16,42,38,2,3,0.7,0.6
2026-01-09T0000,3672A,116.1507,39.8246,北京市,丰台云岗,颗粒物(PM10),83,116,78,51,37,1,,42,18,63,51,4,4,0.8,0.7
2026-01-09T0000,3674A,115.9578,39.7602,北京市,房山燕山,颗粒物(PM10),79,107,73,54,47,25,,48,35,31,30,4,5,0.7,0.6
2026-01-09T0000,3675A,116.4669,39.7734,北京市,大兴旧宫,颗粒物(PM10),87,124,84,43,33,13,,44,28,42,47,2,3,0.6,0.6
2026-01-09T0000,3694A,115.9859,40.4562,北京市,延庆石河营,颗粒物(PM10),60,70,52,37,30,3,,58,26,53,31,3,3,0.9,0.7
2026-01-09T0000,3695A,116.6151,40.3052,北京市,怀柔新城,"颗粒物(PM10),细颗粒物(PM2.5)",60,70,42,43,24,15,,31,11,45,36,5,5,0.6,0.5
2026-01-09T0000,3696A,116.2542,39.8764,北京市,丰台小屯,颗粒物(PM10),97,143,86,53,36,1,,30,11,74,61,4,5,0.9,0.7
2026-01-09T0000,3697A,116.8399,40.3843,北京市,密云镇,细颗粒物(PM2.5),93,117,56,69,28,4,,39,7,60,48,3,2,0.9,0.6
2026-01-09T0000,4057A,115.9423,40.4431,北京市,延庆百泉,颗粒物(PM10),55,59,57,32,32,18,,55,34,39,28,2,3,0.6,0.7
2026-01-09T0000,4058A,116.6598,39.9164,北京市,通州新华,颗粒物(PM10),88,125,81,45,29,11,,31,22,61,58,5,5,0.5,0.5
2026-01-09T0000,4182A,116.1942,39.9158,北京市,石景山八角,颗粒物(PM10),87,123,80,51,35,6,,36,18,74,56,3,2,0.9,0.6
2026-01-09T0000,4194A,117.078628,40.151726,北京市,平谷新城,细颗粒物(PM2.5),88,103,56,65,33,6,,33,9,49,39,3,2,0.8,0.6
2026-01-09T0000,1761A,123.8274146,41.31234549,本溪市,大峪,,49,49,61,18,24,57,,58,57,15,31,11,9,0.7,1
2026-01-09T0000,1763A,123.7169,41.3094,本溪市,彩屯,颗粒物(PM10),51,52,68,22,34,37,,51,38,41,40,19,14,3.5,2.6
2026-01-09T0000,1764A,123.7672166,41.28649327,本溪市,东明,颗粒物(PM10),52,53,68,21,26,64,,64,62,9,25,10,8,0.6,1.1
2026-01-09T0000,1765A,123.799345,41.266614,本溪市,新立屯,,38,38,45,12,15,58,,61,60,14,25,11,10,0.8,1
2026-01-09T0000,1766A,123.829144,41.336777,本溪市,威宁,颗粒物(PM10),59,68,71,22,27,45,,52,50,22,28,8,7,0.6,0.9
2026-01-09T0000,2587A,105.287,27.3133,毕节市,八中,细颗粒物(PM2.5),79,74,41,58,37,52,,79,66,16,15,13,14,0.7,0.6
2026-01-09T0000,2588A,105.3079,27.2987,毕节市,师专,细颗粒物(PM2.5),74,68,40,54,33,65,,87,78,17,17,12,13,0.6,0.5
2026-01-09T0000,4263A,105.3688,27.3598,毕节市,工业大道,细颗粒物(PM2.5),64,63,44,46,34,57,,84,72,14,16,13,12,/,/
2026-01-09T0000,1629A,117.9961,37.3604,滨州市,第二水厂,颗粒物(PM10),69,88,62,44,32,3,,55,22,71,49,18,19,0.7,0.6
2026-01-09T0000,1630A,117.9789,37.3931,滨州市,北中新校,颗粒物(PM10),69,88,58,46,30,11,,60,34,68,47,20,14,0.6,0.6
2026-01-09T0000,3514A,117.9379,37.3959,滨州市,中海酒店,细颗粒物(PM2.5),70,78,63,51,40,50,,62,49,31,43,16,16,0.8,0.7
2026-01-09T0000,3515A,117.9381509,37.35547456,滨州市,开发区一中,颗粒物(PM10),71,92,67,48,36,13,,59,29,56,41,28,26,0.7,0.6
2026-01-09T0000,3516A,118.0914,37.6938,滨州市,金海六路,颗粒物(PM10),67,83,62,44,30,11,,66,34,73,52,9,11,0.8,0.7
2026-01-09T0000,4028A,117.9955,37.3752,滨州市,滨州市西街道办事处,细颗粒物(PM2.5),70,85,60,51,35,11,,63,34,55,38,21,17,0.6,0.4
2026-01-09T0000,2311A,115.8071,33.8399,亳州市,污水处理厂,细颗粒物(PM2.5),68,81,83,49,51,72,,72,68,12,36,5,10,0.3,0.5
2026-01-09T0000,2312A,115.7789,33.8519,亳州市,三国揽胜宫,"颗粒物(PM10),细颗粒物(PM2.5)",72,94,89,52,56,70,,68,64,17,34,6,8,0.5,0.6
2026-01-09T0000,3332A,115.7631,33.803,亳州市,亳州学院,细颗粒物(PM2.5),85,101,80,63,48,61,,76,64,23,34,5,7,0.4,0.5
2026-01-09T0000,2693A,82.0482,44.8553,博尔塔拉蒙古自治州,市党校,颗粒物(PM10),57,64,83,31,40,53,,49,42,19,30,2,4,0.4,0.7
2026-01-09T0000,2694A,82.0805,44.8966,博尔塔拉蒙古自治州,市环保局,,40,34,91,28,43,28,,48,34,36,40,8,12,1.0,1
2026-01-09T0000,1071A,116.8733,38.2922,沧州市,沧县城建局,细颗粒物(PM2.5),79,101,71,58,38,42,,60,45,31,44,6,8,0.4,0.5
2026-01-09T0000,1072A,116.8462,38.3189,沧州市,电视转播站,颗粒物(PM10),69,87,69,48,36,43,,58,49,30,41,5,4,0.5,0.5
2026-01-09T0000,1073A,116.8588,38.3161,沧州市,市环保局,颗粒物(PM10),81,111,68,59,42,36,,57,41,29,41,7,7,0.5,0.6
2026-01-09T0000,3324A,116.8011,38.294,沧州市,河北水利电力学院,颗粒物(PM10),75,100,78,47,34,31,,51,30,35,52,12,11,0.7,0.6
2026-01-09T0000,2622A,97.1813,31.1289,昌都市,昌都监测站,颗粒物(PM10),68,85,46,40,18,11,,78,38,44,21,2,2,1.4,0.8
2026-01-09T0000,3719A,97.1707,31.1428,昌都市,昌都会议中心,,18,18,15,12,9,49,,83,65,6,5,2,2,0.4,0.4
2026-01-09T0000,2692A,87.2722,44.0298,昌吉回族自治州,新区政务中心,细颗粒物(PM2.5),129,131,144,98,104,0,,63,20,73,51,8,8,1.6,1.4
2026-01-09T0000,3613A,87.3069,44.0093,昌吉回族自治州,亚心广场,细颗粒物(PM2.5),113,112,151,85,111,17,,67,44,58,38,7,7,1.0,1.3
2026-01-09T0000,4164A,87.2057,43.9289,昌吉回族自治州,财政所,细颗粒物(PM2.5),88,89,69,65,50,45,,63,52,22,18,5,5,0.8,0.6
2026-01-09T0000,1120A,125.2874,43.9024,长春市,客车厂,,47,47,47,27,42,43,,49,43,24,33,11,10,0.5,0.6
2026-01-09T0000,1121A,125.2943,43.8508,长春市,邮电学院,,38,38,44,23,32,40,,44,39,23,29,14,14,0.5,0.5
2026-01-09T0000,1122A,125.3648,43.8745,长春市,劳动公园,,38,38,48,17,33,50,,56,52,17,24,10,10,0.6,0.7
2026-01-09T0000,1123A,125.3233,43.8781,长春市,园林处,,33,33,41,19,31,49,,52,50,14,22,11,10,0.6,0.6
2026-01-09T0000,1124A,125.4604,43.7904,长春市,净月潭,,32,32,38,17,25,55,,59,57,10,17,7,6,0.4,0.4
2026-01-09T0000,1126A,125.38,43.8422,长春市,经开区环卫处,,34,34,51,16,29,48,,52,48,17,28,6,6,0.5,0.6
2026-01-09T0000,1127A,125.234,43.7761,长春市,高新区管委会,,32,32,53,20,48,49,,59,54,17,27,7,6,0.5,0.7
2026-01-09T0000,1128A,125.1695,43.83,长春市,岱山公园,,40,40,59,24,45,24,,44,29,46,41,8,8,0.5,0.7
2026-01-09T0000,4281A,125.334645,43.916281,长春市,北亚泰大街1068号,,36,36,42,25,31,45,,50,45,6,24,9,8,0.6,0.7
2026-01-09T0000,1335A,113.082,28.2421,长沙市,经开区环保局,细颗粒物(PM2.5),62,67,61,44,42,21,,88,67,84,47,4,5,0.7,0.5
2026-01-09T0000,1336A,112.8873,28.2202,长沙市,高开区环保局,细颗粒物(PM2.5),92,97,65,68,50,0,,83,49,94,49,6,6,0.9,0.6
2026-01-09T0000,1337A,113.0785,28.2012,长沙市,马坡岭,细颗粒物(PM2.5),85,93,73,63,50,3,,89,54,80,45,4,5,1.1,0.7
2026-01-09T0000,1338A,112.9448,28.1894,长沙市,湖南师范大学,颗粒物(PM10),52,54,58,32,38,53,,98,73,35,46,6,6,0.5,0.7
2026-01-09T0000,1339A,113.0177,28.1322,长沙市,雨花区环保局,细颗粒物(PM2.5),74,64,70,54,47,25,,91,75,78,50,8,8,0.9,0.7
2026-01-09T0000,1340A,112.9795,28.2593,长沙市,伍家岭,颗粒物(PM10),102,154,86,74,51,2,,85,51,74,51,5,6,0.8,0.5
2026-01-09T0000,1341A,113.002,28.1944,长沙市,火车新站,细颗粒物(PM2.5),89,80,71,66,49,12,,93,70,90,51,8,10,1.1,0.7
2026-01-09T0000,1342A,112.9846,28.1177,长沙市,天心区环保局,细颗粒物(PM2.5),64,57,60,46,43,10,,98,81,91,50,6,7,0.9,0.8
2026-01-09T0000,1343A,112.8906,28.1307,长沙市,湖南中医药大学,颗粒物(PM10),69,87,65,46,30,2,,88,44,85,57,6,7,0.7,0.7
2026-01-09T0000,1727A,113.1146,36.1547,长治市,清华站,,36,36,51,14,25,69,,76,70,14,24,13,11,0.7,0.7
2026-01-09T0000,1730A,113.0887,36.2126,长治市,审计局,,36,36,53,17,26,63,,73,69,18,27,9,12,0.5,0.6
2026-01-09T0000,1731A,113.0845,36.1856,长治市,长治八中,,42,42,66,24,31,58,,74,66,18,20,12,12,0.5,0.6
2026-01-09T0000,2845A,113.1561,36.1912,长治市,德盛苑,,31,31,48,17,29,75,,80,78,12,17,11,11,0.4,0.7
2026-01-09T0000,3568A,113.0603,36.0464,长治市,向阳小学,颗粒物(PM10),59,68,75,30,30,60,,82,69,25,24,15,12,0.5,0.6
2026-01-09T0000,3569A,112.8788,36.315,长治市,屯留一中,颗粒物(PM10),51,52,54,23,22,53,,78,69,16,18,9,6,1.0,0.6
2026-01-09T0000,4189A,113.113092,36.199482,长治市,英华南巷50号,,43,43,58,29,41,58,,75,66,16,22,9,9,0.5,0.6
2026-01-09T0000,4190A,113.23666,36.33435,长治市,学府街1号,颗粒物(PM10),51,52,59,26,27,15,,74,59,61,30,14,11,1.2,0.7
2026-01-09T0000,1854A,111.696,28.9725,常德市,市二中,细颗粒物(PM2.5),89,79,57,66,50,63,,104,89,31,24,7,6,0.6,0.6
2026-01-09T0000,3138A,111.7152,29.0288,常德市,武陵区永安,细颗粒物(PM2.5),112,109,69,84,53,16,,98,77,62,29,5,5,1.1,0.8
2026-01-09T0000,3139A,111.6891,28.9881,常德市,鼎城区玉霞,细颗粒物(PM2.5),120,98,67,91,60,3,,96,65,76,28,8,8,0.7,0.8
2026-01-09T0000,3140A,111.6651,29.0526,常德市,武陵区长庚,细颗粒物(PM2.5),122,119,70,92,59,7,,101,72,69,31,5,5,0.9,0.7
2026-01-09T0000,1196A,119.9524,31.7586,常州市,市监测站,细颗粒物(PM2.5),140,146,98,107,67,1,,67,27,106,67,7,6,1.1,0.9
2026-01-09T0000,1200A,119.9351,31.703,常州市,武进监测站,细颗粒物(PM2.5),119,119,92,90,65,12,,66,33,85,59,9,11,0.8,0.6
2026-01-09T0000,3002A,119.9701,31.813,常州市,行政中心,细颗粒物(PM2.5),122,135,97,92,61,4,,73,31,97,64,8,9,0.9,0.7
2026-01-09T0000,3003A,120.0434,31.7726,常州市,经开区,细颗粒物(PM2.5),135,183,113,103,64,7,,76,30,101,60,8,12,1.1,0.8
2026-01-09T0000,3010A,119.8919,31.7892,常州市,钟楼,细颗粒物(PM2.5),104,118,93,78,62,7,,66,30,84,57,8,9,1.1,0.7
2026-01-09T0000,3429A,119.8595,31.706,常州市,武进经发区,细颗粒物(PM2.5),144,134,95,110,76,3,,71,32,103,57,10,10,0.9,0.7
2026-01-09T0000,3430A,119.5812,31.7256,常州市,金坛城区,细颗粒物(PM2.5),123,114,95,93,68,15,,59,36,66,40,14,9,0.9,0.8
2026-01-09T0000,4089A,119.9551,31.863,常州市,崇义南街5-H号,细颗粒物(PM2.5),128,128,101,97,72,0,,70,20,97,68,6,9,1.2,0.9
2026-01-09T0000,2220A,120.4318,41.588,朝阳市,西梁,颗粒物(PM10),56,61,66,38,32,44,,56,52,31,30,8,10,0.9,1
2026-01-09T0000,2221A,120.452,41.565,朝阳市,河畔小区,细颗粒物(PM2.5),52,50,52,36,27,47,,63,58,29,26,8,10,0.7,0.8
2026-01-09T0000,2222A,120.4176,41.5648,朝阳市,八里堡,颗粒物(PM10),55,59,55,32,28,38,,57,51,41,31,16,14,1.8,1
2026-01-09T0000,3026A,116.6179,23.6608,潮州市,市政府,颗粒物(PM10),59,67,41,28,23,47,,100,78,22,12,7,7,0.6,0.4
2026-01-09T0000,4036A,116.646,23.676,潮州市,金山,,45,45,38,29,26,45,,94,70,22,13,4,4,0.4,0.3
2026-01-09T0000,2473A,113.0116,25.8228,郴州市,市职中,细颗粒物(PM2.5),60,59,45,43,35,2,,91,46,46,24,4,8,0.6,0.6
2026-01-09T0000,2475A,113.0381,25.8074,郴州市,市审计局,细颗粒物(PM2.5),60,54,48,43,36,11,,94,52,49,32,3,6,/,/
2026-01-09T0000,2476A,113.0348,25.7757,郴州市,市环保局,细颗粒物(PM2.5),65,76,59,47,38,2,,90,44,70,35,4,7,0.7,0.7
2026-01-09T0000,4252A,113.0138,25.8011,郴州市,好美居路49号,细颗粒物(PM2.5),65,55,46,47,38,1,,98,46,65,34,2,6,/,/
2026-01-09T0000,1431A,103.9727,30.7242,成都市,金泉两河,细颗粒物(PM2.5),82,82,86,60,56,1,,77,41,91,57,2,3,2.3,1
2026-01-09T0000,1432A,104.1423,30.6765,成都市,十里店,细颗粒物(PM2.5),75,71,72,55,49,53,,93,74,52,44,4,6,0.6,0.6
2026-01-09T0000,1433A,104.0594,30.5765,成都市,三瓦窑,细颗粒物(PM2.5),82,74,75,60,57,18,,88,65,88,52,5,5,0.8,0.7
2026-01-09T0000,1434A,104.1122,30.6306,成都市,沙河铺,细颗粒物(PM2.5),79,82,72,58,57,27,,78,54,68,51,3,3,0.7,0.7
2026-01-09T0000,2880A,104.0219,30.6561,成都市,大石西路,"颗粒物(PM10),细颗粒物(PM2.5)",72,94,78,52,54,1,,80,54,88,49,5,6,1.2,0.8
2026-01-09T0000,3136A,104.2724,30.559,成都市,龙泉驿区区政府,细颗粒物(PM2.5),73,68,48,53,37,75,,69,69,11,17,7,7,0.6,0.6
2026-01-09T0000,3357A,104.0028,30.6891,成都市,金博路,细颗粒物(PM2.5),74,82,68,54,54,1,,82,50,90,56,4,5,1.6,1
2026-01-09T0000,3359A,104.056,30.5228,成都市,华阳,细颗粒物(PM2.5),85,73,68,63,54,14,,84,61,78,39,4,5,1.1,0.9
2026-01-09T0000,3488A,104.387954,30.746684,成都市,青石路225号,细颗粒物(PM2.5),84,71,65,62,51,103,,93,81,20,42,6,6,0.4,0.5
2026-01-09T0000,3489A,104.0788,30.4054,成都市,科学城,细颗粒物(PM2.5),64,61,58,46,45,19,,85,60,52,29,6,7,0.6,0.6
2026-01-09T0000,4011A,103.8505,30.6946,成都市,光华大道三段,细颗粒物(PM2.5),83,94,94,61,68,2,,82,38,81,47,3,4,1.3,0.9
2026-01-09T0000,4144A,104.3257,30.6406,成都市,八角井街185号,细颗粒物(PM2.5),104,78,63,78,47,102,,93,93,13,27,4,3,0.5,0.8
2026-01-09T0000,4224A,104.2433276,30.53529463,成都市,鲸龙路1057号,细颗粒物(PM2.5),89,74,63,66,50,99,,94,90,19,30,6,7,0.3,0.4
2026-01-09T0000,1062A,117.9531,40.908,承德市,铁路,颗粒物(PM10),65,79,59,44,30,11,,28,9,39,37,7,6,1.0,0.8
2026-01-09T0000,1063A,117.9397,40.9763,承德市,中国银行,细颗粒物(PM2.5),77,82,61,56,30,6,,40,9,46,37,2,4,1.2,0.9
2026-01-09T0000,4073A,117.9462,40.95,承德市,杏林街1号,细颗粒物(PM2.5),69,60,49,50,30,16,,46,18,39,31,6,6,0.8,0.7
2026-01-09T0000,4274A,117.7994,40.9605,承德市,滨河大街98号,细颗粒物(PM2.5),64,68,63,46,30,10,,38,31,46,34,7,11,0.8,0.9
2026-01-09T0000,2314A,117.4698,30.6617,池州市,池州学院,细颗粒物(PM2.5),55,58,56,39,38,29,,89,57,45,35,5,5,1.3,1.4
2026-01-09T0000,3237A,117.4918,30.6617,池州市,展览馆,"颗粒物(PM10),细颗粒物(PM2.5)",52,54,52,36,32,6,,86,40,55,39,1,3,0.7,1.2
2026-01-09T0000,3333A,117.5626,30.695,池州市,第八中学,细颗粒物(PM2.5),58,61,54,41,36,50,,90,75,31,33,4,6,0.6,0.8
2026-01-09T0000,3334A,117.5037,30.6242,池州市,第十二中学,颗粒物(PM10),57,64,65,33,38,27,,80,33,46,47,3,5,1.2,1.1
2026-01-09T0000,1744A,118.9229,42.2816,赤峰市,松山一中,颗粒物(PM10),54,58,44,25,19,51,,60,54,17,29,8,10,1.0,1
2026-01-09T0000,1745A,118.9588,42.2733,赤峰市,哈达街,颗粒物(PM10),53,55,44,17,17,59,,67,60,12,23,6,8,0.7,0.9
2026-01-09T0000,1746A,118.8792,42.2551,赤峰市,天义路,,39,36,26,27,20,65,,76,70,12,20,5,6,0.5,0.7
2026-01-09T0000,3058A,119.2656,42.0356,赤峰市,银河街,"颗粒物(PM10),细颗粒物(PM2.5)",59,67,82,42,42,50,,68,59,17,20,14,27,0.9,1.1
2026-01-09T0000,3286A,118.9359,42.3146,赤峰市,桥北物流园区,,46,46,31,24,23,52,,64,59,16,27,4,8,0.8,0.8
2026-01-09T0000,2521A,107.3473,22.4137,崇左市,市环保局江州分局,细颗粒物(PM2.5),65,76,52,47,35,17,,87,55,37,22,7,7,0.7,0.6
2026-01-09T0000,4256A,107.375,22.3736,崇左市,石景林东路7号,细颗粒物(PM2.5),60,60,47,43,37,22,,90,63,36,22,8,9,0.6,0.5
2026-01-09T0000,3207A,118.31131,32.3033,滁州市,市政府原办公楼,细颗粒物(PM2.5),90,89,86,67,58,11,,72,38,64,40,5,7,1.0,0.7
2026-01-09T0000,3331A,118.3268,32.2633,滁州市,图书馆,细颗粒物(PM2.5),74,84,83,54,51,29,,78,44,48,33,9,11,0.7,0.6
2026-01-09T0000,4101A,118.3196,32.3335,滁州市,银山路666号,细颗粒物(PM2.5),193,,82,145,74,6,,83,33,50,33,8,10,0.5,0.7
2026-01-09T0000,4102A,118.3426,32.2979,滁州市,黄山路555号,细颗粒物(PM2.5),113,116,106,85,76,5,,85,40,68,38,9,12,1.2,0.9
2026-01-09T0000,2606A,101.5379,25.0492,楚雄彝族自治州,市经济开发区,,35,27,17,24,15,38,,41,40,8,7,2,2,0.7,0.7
2026-01-09T0000,4153A,101.5536,25.0343,楚雄彝族自治州,团结路562号,,25,,12,17,11,39,,42,41,2,2,1,2,0.5,0.6
2026-01-09T0000,2549A,107.5087,31.2186,达州市,市环境监测站,细颗粒物(PM2.5),153,136,105,117,85,10,,63,29,56,42,5,6,0.7,0.7
2026-01-09T0000,2550A,107.4988,31.2132,达州市,凤凰小区,细颗粒物(PM2.5),144,136,113,110,87,9,,67,24,51,41,3,5,0.7,0.7
2026-01-09T0000,2551A,107.5081,31.1987,达州市,达县机关宾馆,细颗粒物(PM2.5),137,132,113,104,82,4,,59,13,56,45,2,3,0.8,0.9
2026-01-09T0000,2552A,107.4644,31.2124,达州市,市政中心,细颗粒物(PM2.5),144,140,123,110,83,6,,63,25,63,46,6,7,0.8,0.8
2026-01-09T0000,2614A,100.2168,25.5818,大理白族自治州,大理市环境监测站,,,28,22,7,19,79,,79,79,7,8,6,12,,0.6
2026-01-09T0000,2615A,100.1542,25.7055,大理白族自治州,大理古城,,29,,21,20,15,59,,84,75,20,11,8,8,0.7,0.7
2026-01-09T0000,1109A,121.6119,38.974,大连市,甘井子,,43,43,40,26,22,65,,66,62,19,22,10,10,0.4,0.5
2026-01-09T0000,1110A,121.565,38.9509,大连市,周水子,,42,42,37,25,23,62,,59,59,17,24,20,9,0.5,0.4
2026-01-09T0000,1111A,121.5637,38.8849,大连市,星海三站,,36,35,29,25,20,61,,63,62,18,19,9,8,0.5,0.5
2026-01-09T0000,1112A,121.6301,38.9117,大连市,青泥洼桥,,42,42,36,26,19,59,,62,61,20,21,11,9,0.4,0.3
2026-01-09T0000,1113A,121.6248,38.8643,大连市,傅家庄,,41,41,31,24,19,57,,63,62,18,17,10,8,0.4,0.3
2026-01-09T0000,1114A,121.5117,38.8636,大连市,七贤岭,,36,36,34,22,20,59,,64,63,15,16,10,9,0.6,0.6
2026-01-09T0000,1116A,121.7507,39.1339,大连市,金州,,48,47,41,33,27,54,,62,48,31,25,15,10,0.5,0.4
2026-01-09T0000,1117A,121.7811,39.0495,大连市,开发区,,45,45,34,31,20,47,,55,46,27,21,5,5,0.7,0.6
2026-01-09T0000,1118A,121.9762,39.0631,大连市,双D港,,47,47,39,24,19,65,,70,66,19,15,10,11,0.3,0.4
2026-01-09T0000,4082A,121.2548,38.8188,大连市,旅顺,,43,43,35,23,20,59,,64,63,12,12,6,6,0.6,0.7
2026-01-09T0000,1789A,124.8085,46.0381,大庆市,大同区,颗粒物(PM10),65,80,58,38,34,40,,57,48,21,19,7,7,0.6,0.5
2026-01-09T0000,1790A,125.1166,46.5255,大庆市,龙凤区,颗粒物(PM10),76,101,51,50,33,33,,51,46,31,26,18,9,0.6,0.6
2026-01-09T0000,1791A,124.8894,46.4007,大庆市,红岗区,颗粒物(PM10),56,62,45,31,23,26,,50,43,33,21,6,5,0.8,0.6
2026-01-09T0000,1792A,125.1391,46.578,大庆市,萨尔图区,细颗粒物(PM2.5),74,91,56,54,31,31,,48,43,22,20,9,9,0.5,0.5
2026-01-09T0000,1793A,124.9026,46.6217,大庆市,让胡路区,,50,50,36,35,30,26,,54,46,34,17,6,6,0.5,0.5
2026-01-09T0000,3481A,125.127,46.6277,大庆市,萨区政府监测点,颗粒物(PM10),56,61,51,36,26,34,,51,46,25,20,9,9,0.5,0.7
2026-01-09T0000,1723A,113.2926,40.0759,大同市,云冈宾馆,颗粒物(PM10),60,69,82,20,31,44,,58,50,28,33,12,9,0.7,0.9
2026-01-09T0000,1724A,113.3437,40.0921,大同市,大同大学,颗粒物(PM10),57,63,79,25,33,45,,64,53,27,31,10,7,0.5,0.8
2026-01-09T0000,1725A,113.2637,40.129,大同市,安家小村,颗粒物(PM10),59,68,92,24,37,53,,70,59,22,32,8,9,0.4,1.6
2026-01-09T0000,3282A,113.3399,40.0586,大同市,大同市卫生学校,颗粒物(PM10),61,72,82,23,30,40,,62,52,32,34,12,7,0.4,0.5
2026-01-09T0000,3565A,113.1371,40.1122,大同市,云冈站,颗粒物(PM10),52,53,71,22,29,43,,73,56,18,23,6,6,0.6,0.7
2026-01-09T0000,3566A,113.1186,40.2556,大同市,图书馆,颗粒物(PM10),57,63,74,22,38,41,,71,54,20,19,8,10,0.6,0.7
2026-01-09T0000,3567A,113.5931,40.0459,大同市,区一中,颗粒物(PM10),71,92,100,38,42,34,,74,52,43,32,5,4,0.6,0.7
2026-01-09T0000,4199A,113.2798248,40.09972476,大同市,魏都大道141号,颗粒物(PM10),64,78,104,24,33,40,,64,50,33,36,10,8,0.6,1.2
2026-01-09T0000,2269A,124.1068,50.4091,大兴安岭地区,科技局,,33,26,24,23,18,48,,49,48,6,5,6,5,0.3,0.3
2026-01-09T0000,3663A,124.117,50.4279,大兴安岭地区,红旗社区,,18,17,18,12,10,37,,52,47,24,20,12,7,0.3,0.3
2026-01-09T0000,1600A,124.33,40.0625,丹东市,江湾东路,,33,33,58,14,26,57,,53,43,6,17,9,12,0.7,0.8
2026-01-09T0000,1601A,124.4242,40.1513,丹东市,临江后街,,48,48,50,22,21,50,,60,48,12,21,6,14,0.7,0.8
2026-01-09T0000,1602A,124.3935,40.1461,丹东市,元宝山,,41,41,41,23,20,53,,54,48,9,15,7,12,0.5,0.6
2026-01-09T0000,1603A,124.3634,40.1093,丹东市,民主桥,颗粒物(PM10),51,51,52,20,22,43,,54,46,18,20,9,12,0.7,0.7
2026-01-09T0000,3541A,109.5726195,19.51688767,儋州市,第一中学子站,,38,38,38,22,26,64,,101,78,7,8,4,9,0.5,0.5
2026-01-09T0000,3542A,109.5567,19.5187,儋州市,东坡学校子站,,39,39,36,18,23,95,,109,102,6,7,5,5,0.6,0.6
2026-01-09T0000,2616A,98.5611,24.4273,德宏傣族景颇族自治州,德宏州监测站,细颗粒物(PM2.5),65,61,61,47,49,23,,82,55,34,25,6,7,0.8,0.7
2026-01-09T0000,3677A,98.5887,24.4366,德宏傣族景颇族自治州,芒市人民政府综合楼,,48,45,58,33,38,41,,76,60,11,18,4,5,0.7,0.8
2026-01-09T0000,1901A,104.424,31.1209,德阳市,东山公园,细颗粒物(PM2.5),84,67,62,62,54,89,,100,97,13,19,4,5,0.7,0.7
2026-01-09T0000,1902A,104.3827,31.1318,德阳市,西小区,细颗粒物(PM2.5),84,93,98,62,63,7,,81,59,78,50,4,5,0.9,0.9
2026-01-09T0000,1904A,104.3553,31.1091,德阳市,耐火材料厂,细颗粒物(PM2.5),149,129,99,114,77,10,,83,62,72,53,2,4,0.8,0.8
2026-01-09T0000,4145A,104.4144,31.1495,德阳市,市林业局,细颗粒物(PM2.5),88,80,71,65,59,7,,85,55,71,39,3,3,0.9,0.8
2026-01-09T0000,1622A,116.3034,37.4675,德州市,儿童乐园,颗粒物(PM10),78,105,82,53,37,52,,64,57,28,41,12,15,1.0,1.1
2026-01-09T0000,1624A,116.2992,37.4449,德州市,监理站,"颗粒物(PM10),细颗粒物(PM2.5)",73,95,81,53,41,60,,72,65,28,42,14,17,0.7,0.8
2026-01-09T0000,3066A,116.2722,37.438,德州市,九衢泉纯净水厂,细颗粒物(PM2.5),77,90,89,56,48,45,,61,49,34,49,14,18,0.7,0.8
2026-01-09T0000,3371A,116.3693,37.44,德州市,开发区人民医院,颗粒物(PM10),75,100,76,53,34,55,,70,62,46,54,13,16,0.6,0.6
2026-01-09T0000,3511A,116.5687,37.3331,德州市,陵城艺术中心,颗粒物(PM10),76,102,81,48,38,34,,59,43,42,46,18,18,0.4,0.4
2026-01-09T0000,4292A,116.352738,37.420875,德州市,新河东路,细颗粒物(PM2.5),79,102,82,58,45,50,,62,49,32,55,14,17,0.9,1
2026-01-09T0000,2621A,99.7054,27.8319,迪庆藏族自治州,迪庆州站,,43,32,35,30,23,47,,83,66,18,12,6,5,0.8,0.6
2026-01-09T0000,3180A,99.7122,27.8129,迪庆藏族自治州,质量技术监督局,细颗粒物(PM2.5),60,,35,43,22,52,,88,72,18,14,4,4,0.8,0.6
2026-01-09T0000,4257A,104.6092,35.5962,定西市,将台街,细颗粒物(PM2.5),70,68,56,51,40,43,,82,56,33,30,20,15,1.1,0.7
2026-01-09T0000,4309A,104.6159,35.5701,定西市,正龙路62号,细颗粒物(PM2.5),87,91,68,64,43,35,,78,60,25,14,16,12,1.4,0.8
2026-01-09T0000,1390A,113.7943,23.0132,东莞市,东城石井,,42,42,29,23,17,32,,101,62,52,26,6,7,0.5,0.5
2026-01-09T0000,1391A,113.7384,22.9659,东莞市,南城西平,颗粒物(PM10),57,63,37,29,20,0,,96,38,105,60,10,9,0.6,0.5
2026-01-09T0000,3319A,113.7283,23.041,东莞市,万江金泰,,38,38,30,20,17,53,,95,54,37,26,7,6,0.6,0.6
2026-01-09T0000,4129A,113.8666,23.1062,东莞市,裕兴路,颗粒物(PM10),54,58,37,31,19,60,,116,80,41,30,6,7,0.7,0.6
2026-01-09T0000,4130A,114.0076,22.9739,东莞市,教育路1号,颗粒物(PM10),60,70,54,33,27,31,,98,44,67,45,9,6,0.5,0.5
2026-01-09T0000,4131A,113.7981,22.8124,东莞市,长怡路1号,颗粒物(PM10),72,94,44,43,21,4,,90,35,98,43,11,9,0.6,0.4
2026-01-09T0000,1666A,118.6612,37.4313,东营市,市环保局,颗粒物(PM10),68,85,63,39,30,33,,57,36,47,50,17,25,0.8,0.9
2026-01-09T0000,3036A,118.6903,37.4337,东营市,开发区管委会,颗粒物(PM10),65,80,63,39,32,27,,57,31,51,52,20,25,0.8,0.8
2026-01-09T0000,3365A,118.5721,37.5654,东营市,垦利区民丰路,颗粒物(PM10),64,78,57,39,29,33,,59,34,44,50,11,11,1.1,1
2026-01-09T0000,3498A,118.5063,37.8606,东营市,河口城区,颗粒物(PM10),67,83,64,37,30,12,,61,32,56,56,7,7,0.9,0.8
2026-01-09T0000,3646A,118.4979,37.4623,东营市,胜利站,颗粒物(PM10),62,74,56,41,31,30,,50,26,47,50,19,21,1.2,1.1
2026-01-09T0000,3734A,118.5753,37.4405,东营市,理想之城,细颗粒物(PM2.5),64,75,65,46,36,26,,53,22,40,54,15,18,0.9,0.9
2026-01-09T0000,1591A,110.0024,39.8127,鄂尔多斯市,综合楼,颗粒物(PM10),52,53,46,12,20,68,,62,61,10,18,4,6,0.3,0.6
2026-01-09T0000,1592A,109.9485,39.8259,鄂尔多斯市,巴音孟克林场办事处,颗粒物(PM10),59,68,54,19,20,74,,71,70,8,14,5,7,0.2,0.3
2026-01-09T0000,1593A,109.7734,39.5987,鄂尔多斯市,康泽苑,颗粒物(PM10),63,75,61,22,26,76,,77,70,9,18,6,6,0.3,0.5
2026-01-09T0000,1594A,109.8121,39.5987,鄂尔多斯市,华泰汽车城,颗粒物(PM10),64,78,66,22,23,77,,77,72,8,20,5,5,0.3,0.4
2026-01-09T0000,1595A,109.9734,39.7884,鄂尔多斯市,奥林花园,颗粒物(PM10),60,70,62,12,19,69,,68,63,13,24,1,2,0.3,0.5
2026-01-09T0000,2436A,114.894,30.3989,鄂州市,市政府,细颗粒物(PM2.5),70,78,59,51,39,0,,64,29,63,41,5,5,1.0,0.7
2026-01-09T0000,2437A,114.8986,30.3714,鄂州市,赵家坝,颗粒物(PM10),67,84,73,36,42,9,,87,37,41,31,8,8,0.8,0.6
2026-01-09T0000,3654A,114.8093,30.4091,鄂州市,精准医疗中心,颗粒物(PM10),63,75,61,34,38,55,,90,64,36,38,11,5,0.5,0.4
2026-01-09T0000,2454A,109.4978,30.2979,恩施土家族苗族自治州,湖北民院,细颗粒物(PM2.5),155,,68,118,66,13,,76,42,30,13,6,6,1.1,0.8
2026-01-09T0000,3549A,109.5061,30.3771,恩施土家族苗族自治州,龙凤新区,细颗粒物(PM2.5),92,80,60,68,49,12,,66,35,13,13,7,7,0.5,0.4
2026-01-09T0000,2499A,108.3411,21.6159,防城港市,沙万,颗粒物(PM10),51,51,49,33,35,64,,96,84,25,17,11,7,0.5,0.4
2026-01-09T0000,2500A,108.3515,21.7733,防城港市,防城档案局,细颗粒物(PM2.5),64,76,80,46,41,28,,96,47,32,25,4,6,0.6,0.5
2026-01-09T0000,2501A,108.3506,21.6414,防城港市,大海花园,细颗粒物(PM2.5),57,49,45,40,36,80,,109,90,18,12,15,9,0.6,0.6
2026-01-09T0000,1371A,113.1293,23.0065,佛山市,湾梁,,36,36,33,25,20,42,,94,70,51,29,/,/,/,/
2026-01-09T0000,1372A,113.1082,23.0477,佛山市,华材职中,颗粒物(PM10),51,51,40,27,23,26,,90,60,74,36,8,8,0.5,0.5
2026-01-09T0000,1373A,113.1439,23.045,佛山市,南海气象局,,40,40,32,24,23,33,,95,68,61,32,/,/,/,/
2026-01-09T0000,1374A,113.2879,22.8094,佛山市,顺德苏岗,,50,50,29,22,17,40,,89,60,53,37,/,/,0.6,0.5
2026-01-09T0000,1376A,112.8384,22.8678,佛山市,高明孔堂,,39,39,40,26,26,54,,93,70,30,27,/,/,/,/
2026-01-09T0000,1377A,112.8835,23.1584,佛山市,三水监测站,,46,46,49,28,29,44,,82,52,48,39,5,7,0.6,0.6
2026-01-09T0000,1378A,112.8668,23.185,佛山市,三水云东海,,41,41,36,26,26,34,,89,66,39,27,/,/,/,/
2026-01-09T0000,3625A,113.2568,22.7629,佛山市,容桂街道办,颗粒物(PM10),51,51,36,29,20,28,,86,58,66,36,/,/,/,/
2026-01-09T0000,1282A,119.2681,26.0506,福州市,师大,,47,47,41,31,28,77,,104,94,33,26,4,4,0.5,0.5
2026-01-09T0000,1283A,119.2983,26.1028,福州市,五四北路,,46,42,38,32,30,95,,105,103,22,22,6,5,0.6,0.6
2026-01-09T0000,1284A,119.2648,26.0769,福州市,杨桥西路,,42,38,37,29,28,99,,103,101,15,18,6,5,/,/
2026-01-09T0000,3048A,119.5799,26.0937,福州市,九龙,,36,36,32,24,27,85,,117,108,24,19,5,5,0.6,0.6
2026-01-09T0000,3526A,119.5188,25.9666,福州市,吴航,,38,38,42,26,30,68,,111,92,26,30,5,6,0.5,0.6
2026-01-09T0000,4104A,119.3106,26.0648,福州市,路通桥巷6号,细颗粒物(PM2.5),53,49,45,37,35,98,,97,88,16,20,/,/,/,/
2026-01-09T0000,1755A,123.7974,41.8494,抚顺市,望花区,颗粒物(PM10),51,52,85,24,40,54,,52,52,20,34,12,11,0.6,1.3
2026-01-09T0000,1756A,123.9161,41.8827,抚顺市,顺城区,,47,47,72,20,38,51,,44,42,22,37,10,9,0.6,1
2026-01-09T0000,1757A,124.0437,41.8615,抚顺市,东洲区,,38,38,74,18,55,59,,56,54,15,26,20,9,0.9,1.1
2026-01-09T0000,1758A,123.9246,41.8638,抚顺市,新抚区,,49,49,78,22,43,50,,44,36,28,40,9,8,0.9,1.2
2026-01-09T0000,1759A,124.0972,41.8961,抚顺市,大伙房水库,,34,34,69,18,42,61,,61,56,10,20,12,11,0.7,0.9
2026-01-09T0000,1760A,123.708,41.8386,抚顺市,沈抚新城,颗粒物(PM10),54,57,77,24,40,56,,48,48,21,35,10,9,1.1,1.4
2026-01-09T0000,2377A,116.3544,27.9833,抚州市,市站,细颗粒物(PM2.5),62,64,50,44,32,18,,104,80,55,24,10,11,0.7,0.5
2026-01-09T0000,2378A,116.3562,27.9631,抚州市,血防站,颗粒物(PM10),60,70,55,40,32,3,,98,74,81,32,10,10,1.0,0.9
2026-01-09T0000,2379A,116.3561,28.0007,抚州市,采茶剧团,细颗粒物(PM2.5),69,66,55,50,33,21,,106,76,50,27,8,9,0.8,0.7
2026-01-09T0000,2380A,116.3854,27.9648,抚州市,医学分院,颗粒物(PM10),67,83,58,41,32,28,,104,81,39,21,7,12,0.8,0.6
2026-01-09T0000,2207A,121.6095,41.9978,阜新市,工业园区,细颗粒物(PM2.5),64,69,87,46,37,15,,59,34,49,29,26,20,1.0,0.7
2026-01-09T0000,2208A,121.6567,42.0188,阜新市,长青街,细颗粒物(PM2.5),62,63,50,44,23,23,,53,34,44,26,24,15,1.0,0.6
2026-01-09T0000,2209A,121.6672,42.07,阜新市,农业园区,细颗粒物(PM2.5),77,90,54,56,26,23,,55,37,44,19,44,16,1.0,0.5
2026-01-09T0000,2211A,121.6343,42.0455,阜新市,玉龙新城,细颗粒物(PM2.5),74,79,68,54,30,8,,57,32,61,33,25,12,1.1,0.7
2026-01-09T0000,2301A,115.8276,32.8929,阜阳市,市监测站,细颗粒物(PM2.5),89,115,100,66,62,44,,74,54,36,47,5,6,0.5,0.7
2026-01-09T0000,2303A,115.8551,32.8606,阜阳市,开发区,细颗粒物(PM2.5),88,78,94,65,58,42,,76,49,41,48,6,7,0.5,0.6
2026-01-09T0000,2875A,115.783962,32.889217,阜阳市,阜阳职业技术学院,细颗粒物(PM2.5),73,78,81,53,53,42,,75,37,48,51,8,9,0.5,0.6
2026-01-09T0000,3468A,115.79,32.8614,阜阳市,市规划展馆,细颗粒物(PM2.5),90,109,88,67,62,48,,83,59,39,45,7,8,0.6,0.6
2026-01-09T0000,3469A,115.835101,32.918568,阜阳市,枣园社区,细颗粒物(PM2.5),88,115,99,65,61,38,,78,44,51,57,7,8,0.5,0.5
2026-01-09T0000,2669A,102.9097,34.9841,甘南藏族自治州,州政府,颗粒物(PM10),53,55,37,27,19,14,,83,61,52,28,10,5,1.1,0.7
2026-01-09T0000,3380A,102.8915,34.9618,甘南藏族自治州,甘肃民族师范学院,颗粒物(PM10),63,75,42,18,15,16,,79,48,53,26,9,10,0.9,0.4
2026-01-09T0000,2570A,101.96,30.048,甘孜藏族自治州,水桥子,,18,12,14,9,7,31,,83,64,36,21,6,6,0.9,0.9
2026-01-09T0000,3065A,101.9534,29.9976,甘孜藏族自治州,州环保局,,20,14,16,3,6,61,,82,72,6,12,5,5,0.6,0.5
2026-01-09T0000,2363A,114.9368,25.8663,赣州市,地委,颗粒物(PM10),52,53,42,28,24,19,,104,68,55,27,7,8,0.9,0.8
2026-01-09T0000,2364A,114.946,25.8483,赣州市,气象台,颗粒物(PM10),66,81,55,25,21,6,,102,65,86,40,2,4,0.7,0.5
2026-01-09T0000,2365A,114.932,25.8332,赣州市,市图书馆,颗粒物(PM10),58,66,42,30,24,0,,91,65,77,35,4,4,0.8,0.5
2026-01-09T0000,2366A,114.8905,25.8472,赣州市,华坚鞋城,颗粒物(PM10),52,53,43,31,24,19,,91,64,58,29,6,6,0.5,0.3
2026-01-09T0000,3109A,115.0094,25.8614,赣州市,赣县区卫计委,,45,36,38,31,30,9,,101,60,44,25,7,8,0.5,0.4
2026-01-09T0000,2684A,106.2753,36.0057,固原市,监测站,,26,15,44,10,23,81,,77,63,7,28,4,6,0.3,0.9
2026-01-09T0000,2685A,106.2384,36.0189,固原市,新区,,29,16,38,3,16,90,,85,77,5,24,2,3,0.3,0.7
2026-01-09T0000,2544A,106.6307,30.4577,广安市,市委,细颗粒物(PM2.5),123,103,91,93,73,66,,69,63,22,33,8,9,0.9,1
2026-01-09T0000,2545A,106.6266,30.4662,广安市,友谊中学,细颗粒物(PM2.5),103,92,78,77,68,87,,90,80,15,21,7,7,0.7,0.8
2026-01-09T0000,2547A,106.6386,30.4551,广安市,广电花园,细颗粒物(PM2.5),112,104,86,84,69,58,,69,59,28,30,9,9,0.8,0.8
2026-01-09T0000,2902A,106.6347,30.4868,广安市,北辰小学,细颗粒物(PM2.5),110,96,84,83,68,83,,96,90,14,20,26,24,0.9,0.9
2026-01-09T0000,2524A,105.8211,32.4444,广元市,老城,颗粒物(PM10),72,93,54,50,41,5,,74,40,79,52,7,8,0.9,0.9
2026-01-09T0000,2526A,105.8629,32.429,广元市,监测站,细颗粒物(PM2.5),79,81,63,58,44,22,,69,56,49,36,4,6,1.1,1
2026-01-09T0000,3617A,105.8047,32.4167,广元市,经开区,细颗粒物(PM2.5),75,71,68,55,47,31,,62,52,36,41,2,5,0.8,1
2026-01-09T0000,1345A,113.2346,23.1423,广州市,广雅中学,颗粒物(PM10),53,56,41,33,25,10,,95,54,90,44,7,6,0.6,0.5
2026-01-09T0000,1346A,113.2611,23.105,广州市,市五中,,33,33,37,21,23,69,,108,78,41,35,11,11,/,/
2026-01-09T0000,1348A,113.3477,23.0916,广州市,广东商学院,,31,31,29,18,19,59,,94,70,33,23,7,7,0.1,0.1
2026-01-09T0000,1349A,113.4332,23.105,广州市,市八十六中,,37,34,28,22,18,21,,98,67,73,33,8,8,/,/
2026-01-09T0000,1350A,113.3506,22.9488,广州市,番禺中学,,38,38,33,21,20,54,,97,70,48,35,3,3,0.3,0.3
2026-01-09T0000,1351A,113.2147,23.3918,广州市,花都师范,,34,34,33,19,20,85,,100,89,19,19,12,10,0.5,0.5
2026-01-09T0000,1352A,113.2599,23.1329,广州市,市监测站,细颗粒物(PM2.5),52,,38,36,28,55,,95,55,48,43,6,4,/,/
2026-01-09T0000,1353A,113.5618,23.3119,广州市,九龙镇镇龙,,42,42,31,23,19,34,,92,70,42,24,6,6,0.4,0.4
2026-01-09T0000,1354A,113.2764,23.1544,广州市,麓湖,,28,28,32,18,22,55,,95,62,40,31,11,11,0.3,0.4
2026-01-09T0000,2846A,113.3209,23.1323,广州市,体育西,,32,32,37,20,21,51,,93,70,35,24,7,8,0.5,0.4
2026-01-09T0000,3298A,113.5718,23.5493,广州市,从化街口,,39,37,30,27,22,45,,100,74,48,33,9,10,0.4,0.5
2026-01-09T0000,3299A,113.3463,23.369,广州市,白云竹料,,41,41,35,25,22,49,,108,79,41,25,8,7,0.4,0.4
2026-01-09T0000,3300A,113.2981,23.2365,广州市,白云嘉禾,颗粒物(PM10),51,51,48,25,24,23,,103,49,76,51,8,7,/,/
2026-01-09T0000,3301A,113.4256,23.1716,广州市,黄埔科学城,,32,32,27,18,17,64,,112,86,28,19,6,6,0.6,0.5
2026-01-09T0000,3302A,113.3942,23.0485,广州市,番禺大学城,,41,34,28,20,17,16,,105,71,82,33,9,9,0.4,0.3
2026-01-09T0000,3303A,113.4923,22.8169,广州市,南沙黄阁,颗粒物(PM10),54,57,43,23,20,9,,100,50,93,43,13,11,/,/
2026-01-09T0000,3304A,113.534,22.7893,广州市,南沙街,颗粒物(PM10),55,59,38,27,19,8,,93,50,80,30,8,7,0.5,0.4
2026-01-09T0000,3443A,113.2905,23.5541,广州市,花都梯面,,30,24,25,16,16,95,,103,97,11,13,14,10,/,/
2026-01-09T0000,3445A,113.786,23.7479,广州市,从化良口,,23,14,20,9,14,72,,99,85,11,8,8,9,/,/
2026-01-09T0000,3446A,113.805,23.2614,广州市,增城荔城,,27,22,24,13,16,86,,98,71,10,16,8,8,0.4,0.4
2026-01-09T0000,2506A,109.604387,23.066791,贵港市,江南子站,颗粒物(PM10),90,129,101,66,63,3,,110,64,81,41,8,8,0.8,0.9
2026-01-09T0000,2508A,109.5669,23.1065,贵港市,荷城子站,细颗粒物(PM2.5),58,58,55,41,41,33,,104,73,56,24,5,7,1.0,0.5
2026-01-09T0000,3405A,109.5886,23.1172,贵港市,新世纪学校,细颗粒物(PM2.5),52,46,60,36,43,86,,106,82,18,20,/,/,0.4,0.5
2026-01-09T0000,4260A,109.5933,23.095,贵港市,中山路155-3号,细颗粒物(PM2.5),72,52,57,52,48,33,,111,76,55,24,/,/,0.8,0.6
2026-01-09T0000,1439A,106.6863,26.6035,贵阳市,马鞍山,细颗粒物(PM2.5),77,63,47,56,40,18,,94,58,40,19,9,9,/,/
2026-01-09T0000,1441A,106.6241,26.6266,贵阳市,鉴湖路,细颗粒物(PM2.5),58,61,54,41,32,64,,97,78,23,21,14,8,0.6,0.5
2026-01-09T0000,1442A,106.7468,26.6344,贵阳市,燕子冲,细颗粒物(PM2.5),83,75,56,61,50,26,,98,66,40,20,14,11,0.9,0.6
2026-01-09T0000,1443A,106.6556,26.4362,贵阳市,碧云窝,细颗粒物(PM2.5),73,78,62,53,41,40,,93,69,24,18,20,11,/,/
2026-01-09T0000,1445A,106.6963,26.6063,贵阳市,红边门,细颗粒物(PM2.5),83,83,62,61,49,12,,80,36,62,32,73,28,/,/
2026-01-09T0000,1446A,106.7162383,26.56964667,贵阳市,新华路,细颗粒物(PM2.5),64,68,67,46,43,19,,94,48,58,31,24,15,0.8,0.6
2026-01-09T0000,1447A,106.6742,26.542,贵阳市,太慈桥,颗粒物(PM10),56,61,48,39,35,27,,84,61,53,26,4,6,/,/
2026-01-09T0000,4230A,106.688212,26.56952,贵阳市,花果园大街66号,,48,48,49,31,30,41,,81,48,42,30,13,12,/,/
2026-01-09T0000,4231A,106.687268,26.516892,贵阳市,漓江路57号,细颗粒物(PM2.5),64,66,53,46,40,22,,90,63,61,26,32,15,0.9,0.7
2026-01-09T0000,1864A,110.3091,25.2705,桂林市,龙隐路小学,,46,,41,32,36,85,,96,83,12,14,8,10,0.2,0.2
2026-01-09T0000,1865A,110.2849361,25.22909545,桂林市,八中,细颗粒物(PM2.5),54,,43,38,36,71,,90,75,25,23,8,10,0.3,0.4
2026-01-09T0000,3531A,110.296,25.1254,桂林市,旅游学院,细颗粒物(PM2.5),55,56,42,39,33,33,,102,70,41,23,5,6,0.4,0.5
2026-01-09T0000,4222A,110.1835,25.2444,桂林市,环湖路276号,,45,39,41,31,31,72,,91,80,26,23,17,18,0.5,0.5
2026-01-09T0000,4301A,110.2803,25.2773,桂林市,信义路13号,,45,31,38,31,32,94,,96,88,14,18,6,9,0.4,0.4
2026-01-09T0000,2674A,100.2262,34.4854,果洛藏族自治州,玛沁县大武镇,,30,30,35,16,9,79,,95,92,8,5,15,17,0.3,0.4
2026-01-09T0000,1130A,126.5557,45.8109,哈尔滨市,松北商大,,35,35,41,20,28,36,,47,43,24,25,9,8,0.6,0.6
2026-01-09T0000,1132A,126.6162,45.719,哈尔滨市,南岗学府路,,41,41,38,21,28,45,,42,41,16,22,9,10,0.7,0.8
2026-01-09T0000,1133A,126.6894,45.7733,哈尔滨市,太平宏伟公园,,46,46,42,23,28,42,,48,45,22,23,11,15,0.5,0.6
2026-01-09T0000,1134A,126.6361,45.7672,哈尔滨市,道外承德广场,颗粒物(PM10),59,67,61,24,29,41,,44,38,25,33,10,16,0.5,0.9
2026-01-09T0000,1136A,126.644,45.7261,哈尔滨市,动力和平路,,38,38,47,23,31,31,,44,40,30,28,11,12,0.6,0.7
2026-01-09T0000,1137A,126.5933,45.7479,哈尔滨市,道里建国路,,47,47,43,27,32,40,,39,38,18,27,9,13,0.6,0.8
2026-01-09T0000,1138A,126.6127,45.6119,哈尔滨市,平房东轻厂,,30,27,40,21,31,53,,50,49,13,23,5,6,0.5,0.7
2026-01-09T0000,1139A,126.5875,45.9827,哈尔滨市,呼兰师专,颗粒物(PM10),81,111,47,34,37,36,,40,36,22,26,7,12,0.8,0.7
2026-01-09T0000,1140A,126.6299,45.6799,哈尔滨市,省农科院,,41,41,47,24,33,37,,40,33,32,38,10,11,0.3,0.4
2026-01-09T0000,4282A,126.6769,45.7379,哈尔滨市,华山路1号,,34,34,42,21,30,37,,46,44,27,28,18,20,0.6,0.6
2026-01-09T0000,4283A,126.9717,45.5356,哈尔滨市,解放大街52号,,23,23,39,16,34,63,,61,60,8,16,11,11,0.6,0.7
2026-01-09T0000,2688A,93.5124,42.8176,哈密市,地区监测站,细颗粒物(PM2.5),78,90,89,57,44,25,,45,33,18,17,3,2,0.6,0.5
2026-01-09T0000,2689A,93.5014,42.8312,哈密市,哈密师范学校,颗粒物(PM10),69,87,88,38,33,30,,43,34,25,26,4,5,0.6,0.6
2026-01-09T0000,2671A,100.9016,36.9464,海北藏族自治州,海晏县西海镇,,27,26,28,12,14,85,,85,85,2,3,9,7,0.3,0.4
2026-01-09T0000,3867A,102.074,36.5056,海东市,平安区公安局北苑,细颗粒物(PM2.5),72,69,50,52,33,40,,63,52,13,21,18,22,1.0,1.1
2026-01-09T0000,4163A,102.0984,36.5119,海东市,滨河路,细颗粒物(PM2.5),68,64,47,49,32,26,,62,41,46,36,27,22,1.0,1
2026-01-09T0000,1410A,110.3189,20.0596,海口市,海南大学,,33,33,34,18,21,102,,120,116,12,10,7,8,0.2,0.2
2026-01-09T0000,1411A,110.2827,20.0051,海口市,秀英海南医院,,41,41,41,27,23,67,,113,98,39,20,9,9,0.3,0.3
2026-01-09T0000,1412A,110.3391,19.9979,海口市,海南师范大学,,39,39,38,25,22,54,,122,108,52,17,7,8,0.5,0.4
2026-01-09T0000,1413A,110.3303,20.0359,海口市,龙华路环保局宿舍,,,,35,,22,,,120,,,12,,,,0.4
2026-01-09T0000,3539A,110.5111,19.9737,海口市,桂林洋子站,,46,46,35,29,22,97,,117,108,15,13,/,/,/,/
2026-01-09T0000,4134A,110.1952,20.0451,海口市,长滨二路9号,,49,49,35,28,24,64,,114,103,30,12,/,/,/,/
2026-01-09T0000,2673A,100.6158,36.2985,海南藏族自治州,共和县恰卜恰镇,,33,33,41,3,15,99,,94,94,1,13,14,13,0.3,0.4
2026-01-09T0000,2676A,97.373,37.376,海西蒙古族藏族自治州,德令哈市,,32,23,17,22,11,70,,84,78,11,6,14,13,0.6,0.5
2026-01-09T0000,1049A,114.492,36.5712,邯郸市,矿院,细颗粒物(PM2.5),73,67,74,53,59,20,,68,48,40,38,5,5,0.6,0.7
2026-01-09T0000,1050A,114.4839,36.6136,邯郸市,丛台公园,颗粒物(PM10),59,68,67,41,46,31,,69,52,37,39,6,8,0.5,0.7
2026-01-09T0000,3458A,114.7893,36.5592,邯郸市,香泉濮院小区,细颗粒物(PM2.5),83,101,79,61,51,49,,77,62,24,33,4,8,0.6,0.7
2026-01-09T0000,3580A,114.1998,36.4439,邯郸市,峰峰矿区临水派出所,细颗粒物(PM2.5),52,40,53,36,39,56,,79,65,16,18,11,12,0.8,0.8
2026-01-09T0000,4068A,114.5209,36.7697,邯郸市,建安街268号,细颗粒物(PM2.5),67,73,79,48,47,27,,55,42,39,42,13,7,0.6,0.7
2026-01-09T0000,4069A,114.5488,36.6177,邯郸市,丛台东路558号,,,87,78,67,51,9,,62,39,52,47,6,8,,0.8
2026-01-09T0000,2635A,107.0155,33.0707,汉中市,市监测站,细颗粒物(PM2.5),163,,82,124,76,24,,69,40,42,39,5,6,1.4,1.1
2026-01-09T0000,2636A,107.0083,33.114,汉中市,鑫源开发区,细颗粒物(PM2.5),114,,75,86,68,8,,76,51,64,40,19,8,1.1,0.8
2026-01-09T0000,2637A,107.0072,33.0323,汉中市,南郑大河坎水厂,细颗粒物(PM2.5),134,119,89,102,70,23,,70,40,36,30,6,7,1.1,1
2026-01-09T0000,1223A,120.2073,30.2111,杭州市,滨江,细颗粒物(PM2.5),112,124,78,84,48,7,,70,48,81,47,7,8,1.0,0.6
2026-01-09T0000,1224A,120.0625,30.2737,杭州市,西溪,细颗粒物(PM2.5),73,79,57,53,38,0,,81,36,55,38,8,10,1.0,0.9
2026-01-09T0000,1226A,120.3417,30.315,杭州市,下沙,细颗粒物(PM2.5),90,101,68,67,45,1,,76,30,107,58,11,11,0.9,0.7
2026-01-09T0000,1227A,120.1252,30.2465,杭州市,卧龙桥,细颗粒物(PM2.5),77,81,53,56,35,24,,84,38,32,27,9,10,0.6,0.5
2026-01-09T0000,1228A,120.1902,30.2691,杭州市,浙江农大,细颗粒物(PM2.5),117,139,82,88,52,2,,78,35,81,53,6,8,0.9,0.6
2026-01-09T0000,1230A,120.1195,30.3121,杭州市,和睦小学,细颗粒物(PM2.5),93,112,72,69,45,4,,80,45,82,46,6,7,1.0,0.7
2026-01-09T0000,1231A,120.3076,30.4146,杭州市,临平镇,细颗粒物(PM2.5),107,120,75,80,45,2,,79,42,90,30,9,10,0.9,0.5
2026-01-09T0000,1232A,120.2753,30.1839,杭州市,城厢镇,细颗粒物(PM2.5),94,95,67,70,38,0,,85,41,88,49,9,9,0.9,0.6
2026-01-09T0000,1233A,120.0883,30.1808,杭州市,云栖,细颗粒物(PM2.5),74,83,52,54,34,35,,82,45,28,26,4,5,0.6,0.5
2026-01-09T0000,3557A,119.9463,30.0496,杭州市,镇二中,细颗粒物(PM2.5),89,88,55,66,44,3,,73,35,63,44,5,6,0.8,0.7
2026-01-09T0000,3558A,119.7184,30.2367,杭州市,市府大楼,细颗粒物(PM2.5),82,98,65,60,42,22,,81,47,34,24,10,11,0.8,0.6
2026-01-09T0000,3656A,120.1554,30.2863,杭州市,消防大队,细颗粒物(PM2.5),92,92,63,68,45,17,,76,44,60,41,7,8,0.8,0.5
2026-01-09T0000,1270A,117.1957,31.7845,合肥市,明珠广场,细颗粒物(PM2.5),70,78,86,51,46,43,,50,30,66,81,9,8,0.8,0.9
2026-01-09T0000,1271A,117.307,31.8765,合肥市,三里街,细颗粒物(PM2.5),89,122,84,66,45,1,,52,14,101,70,8,8,1.3,0.9
2026-01-09T0000,1272A,117.2587,31.8703,合肥市,琥珀山庄,细颗粒物(PM2.5),94,95,79,70,48,8,,66,22,104,64,8,9,1.7,1
2026-01-09T0000,1275A,117.2593,31.9376,合肥市,庐阳区,颗粒物(PM10),71,92,84,48,42,17,,74,35,90,58,8,8,0.9,0.7
2026-01-09T0000,1276A,117.345251,31.861615,合肥市,瑶海区,细颗粒物(PM2.5),74,92,83,54,46,1,,56,13,118,71,8,7,0.6,0.6
2026-01-09T0000,1277A,117.3033,31.7967,合肥市,包河区,细颗粒物(PM2.5),73,88,84,53,48,12,,50,22,94,81,9,9,0.8,0.9
2026-01-09T0000,1278A,117.278,31.7392,合肥市,滨湖新区,细颗粒物(PM2.5),73,92,86,53,54,2,,60,48,102,63,7,6,0.9,1
2026-01-09T0000,1279A,117.1324,31.8395,合肥市,高新区,细颗粒物(PM2.5),68,80,74,49,39,34,,80,54,71,57,6,6,0.6,0.6
2026-01-09T0000,3464A,117.3802,31.9148,合肥市,高教基地,细颗粒物(PM2.5),87,85,80,64,49,10,,70,24,67,53,7,8,0.7,0.7
2026-01-09T0000,4098A,117.2518,31.8404,合肥市,中国科学技术大学,颗粒物(PM10),65,80,73,45,39,40,,68,36,63,54,10,10,0.7,0.6
2026-01-09T0000,3614A,79.9241,37.0878,和田地区,地区环保局,,,239,101,,54,30,,58,52,89,38,48,8,3.5,0.9
2026-01-09T0000,3615A,79.9132,37.1137,和田地区,市环保局,颗粒物(PM10),85,120,84,43,41,8,,61,40,88,47,8,4,2.7,1.4
2026-01-09T0000,2517A,108.0496,24.6957,河池市,市环保站,颗粒物(PM10),53,56,41,34,27,13,,92,51,40,24,2,3,0.7,0.6
2026-01-09T0000,4302A,108.0901,24.6945,河池市,上任中路54号,细颗粒物(PM2.5),117,89,50,88,36,6,,84,38,50,31,6,5,0.9,0.7
2026-01-09T0000,1697A,114.6962,23.7538,河源市,东埔,,29,26,24,20,20,84,,104,92,18,16,9,8,0.4,0.5
2026-01-09T0000,1698A,114.6895,23.7232,河源市,老城,,35,35,30,15,17,77,,92,84,21,15,8,7,0.6,0.7
2026-01-09T0000,3374A,115.5562,35.089,菏泽市,定陶老年大学,细颗粒物(PM2.5),77,97,79,56,45,57,,74,65,22,30,4,8,0.4,0.6
2026-01-09T0000,4114A,115.4239,35.2593,菏泽市,黄河路600号,细颗粒物(PM2.5),89,111,94,66,56,51,,74,61,29,37,4,5,0.6,0.7
2026-01-09T0000,4115A,115.5025,35.2727,菏泽市,菏泽市人社局,颗粒物(PM10),79,107,82,56,46,60,,74,68,22,33,4,8,0.5,0.5
2026-01-09T0000,4184A,115.479691,35.244011,菏泽市,永昌路1号,,,,85,63,50,53,,71,63,27,36,6,10,0.5,0.6
2026-01-09T0000,4193A,115.471542,35.280012,菏泽市,长城路999号,颗粒物(PM10),77,103,87,51,44,62,,78,70,22,33,7,9,0.6,0.6
2026-01-09T0000,2514A,111.5264,24.4178,贺州市,环保小区,细颗粒物(PM2.5),79,,47,58,41,43,,97,66,24,22,8,8,0.5,0.4
2026-01-09T0000,2515A,111.561,24.4074,贺州市,政协大楼,颗粒物(PM10),55,60,41,38,30,6,,100,56,55,29,8,9,0.8,0.6
2026-01-09T0000,3534A,111.4744,24.455,贺州市,西湾,颗粒物(PM10),61,72,55,43,35,27,,89,58,41,29,6,8,0.7,0.6
2026-01-09T0000,2385A,114.17,35.9019,鹤壁市,市监测站,颗粒物(PM10),53,56,73,31,41,46,,65,58,27,26,6,6,0.6,0.7
2026-01-09T0000,2386A,114.2953,35.7512,鹤壁市,市交警支队,颗粒物(PM10),68,86,79,48,40,37,,60,47,36,31,4,6,0.6,0.6
2026-01-09T0000,2387A,114.2877,35.7302,鹤壁市,迎宾馆,颗粒物(PM10),82,114,87,40,41,32,,62,46,37,27,5,7,0.7,0.7
2026-01-09T0000,3474A,114.2616,35.6824,鹤壁市,大新区,颗粒物(PM10),82,114,84,48,40,12,,62,33,58,33,6,6,0.6,0.6
2026-01-09T0000,3596A,114.1573,35.9607,鹤壁市,南山宾馆,颗粒物(PM10),64,77,75,37,36,45,,64,54,22,18,8,8,0.6,0.6
2026-01-09T0000,2244A,130.2537,47.3416,鹤岗市,哈啤分公司,细颗粒物(PM2.5),58,41,34,41,28,37,,66,32,27,16,9,7,0.6,0.5
2026-01-09T0000,2245A,130.2683,47.3087,鹤岗市,斯达机电,,40,37,32,28,24,37,,60,38,27,15,12,7,0.6,0.5
2026-01-09T0000,2246A,130.3114,47.3388,鹤岗市,东山纸板厂,,48,40,32,33,26,32,,54,27,33,22,17,11,0.5,0.9
2026-01-09T0000,2263A,127.4832,50.2524,黑河市,交通局,,40,40,25,24,18,34,,48,36,20,20,11,8,0.6,0.4
2026-01-09T0000,2264A,127.5146,50.2339,黑河市,环保局,,29,22,21,20,19,35,,45,32,23,21,9,9,0.5,0.6
2026-01-09T0000,1074A,115.6839,37.754,衡水市,电机北厂,细颗粒物(PM2.5),80,91,72,59,36,39,,65,57,24,27,6,8,0.6,0.5
2026-01-09T0000,1075A,115.6303,37.7318,衡水市,市监测站,细颗粒物(PM2.5),77,76,70,56,40,37,,60,49,30,42,7,10,0.6,0.6
2026-01-09T0000,3188A,115.6684,37.7216,衡水市,市城管局,颗粒物(PM10),75,100,80,49,42,35,,61,51,35,46,8,10,0.6,0.6
2026-01-09T0000,3459A,115.599,37.5491,衡水市,地表水厂,细颗粒物(PM2.5),77,92,75,56,48,34,,60,41,27,45,6,10,0.5,0.6
2026-01-09T0000,2457A,112.6209,26.9268,衡阳市,衡阳化工总厂,细颗粒物(PM2.5),94,85,58,70,44,2,,86,60,62,34,9,9,1.2,0.8
2026-01-09T0000,2458A,112.621,26.8957,衡阳市,珠晖区环保局,细颗粒物(PM2.5),64,63,60,46,50,10,,67,40,66,46,5,6,1.1,1
2026-01-09T0000,2459A,112.628,26.8654,衡阳市,市委党校,细颗粒物(PM2.5),73,66,63,53,50,21,,92,73,56,35,9,11,1.0,1
2026-01-09T0000,2460A,112.6007,26.8977,衡阳市,市监测站,细颗粒物(PM2.5),87,101,84,64,55,1,,77,39,70,43,8,8,2.0,1.2
2026-01-09T0000,2461A,112.5658,26.9013,衡阳市,真空机电公司,细颗粒物(PM2.5),82,94,66,60,44,3,,82,47,70,38,7,12,1.6,1
2026-01-09T0000,3399A,112.6703,26.8817,衡阳市,师范学院,细颗粒物(PM2.5),82,87,65,60,42,12,,90,60,58,36,5,5,0.9,0.8
2026-01-09T0000,3038A,103.3757,23.3679,红河哈尼族彝族自治州,州图书馆,,25,25,26,17,21,48,,45,45,7,8,7,7,0.5,0.6
2026-01-09T0000,4154A,103.401,23.3561,红河哈尼族彝族自治州,蒙自市朝阳路,,26,22,21,18,17,42,,42,41,4,6,4,4,0.5,0.6
2026-01-09T0000,1090A,111.6506,40.7517,呼和浩特市,呼市一监,颗粒物(PM10),78,105,95,54,53,2,,35,11,58,45,4,4,1.1,1.2
2026-01-09T0000,1094A,111.7516,40.8369,呼和浩特市,如意水处理厂,颗粒物(PM10),66,81,86,37,45,0,,37,11,72,53,10,11,0.6,0.7
2026-01-09T0000,1095A,111.727798,40.806187,呼和浩特市,二十九中,颗粒物(PM10),76,102,92,48,45,3,,37,13,67,46,13,13,1.0,0.7
2026-01-09T0000,1097A,111.717,40.7617,呼和浩特市,化肥厂生活区,颗粒物(PM10),74,98,98,50,52,2,,34,12,62,48,7,7,1.1,0.9
2026-01-09T0000,3699A,111.6519,40.8389,呼和浩特市,海东办,颗粒物(PM10),80,110,93,55,46,4,,39,13,62,45,6,6,1.2,0.8
2026-01-09T0000,4275A,111.591512,40.827312,呼和浩特市,成吉思汗西街8号,颗粒物(PM10),68,85,83,39,40,6,,34,14,56,42,6,5,0.8,0.7
2026-01-09T0000,4276A,111.6597,40.8077,呼和浩特市,公园东路75号,颗粒物(PM10),76,102,95,50,50,8,,35,17,67,50,8,7,0.9,0.7
2026-01-09T0000,4277A,111.5427,40.7846,呼和浩特市,金海路35号,颗粒物(PM10),73,95,96,44,49,0,,36,10,62,46,10,9,1.1,1
2026-01-09T0000,3061A,119.7511,49.1576,呼伦贝尔市,国华电力东,,38,,20,26,16,53,,58,49,19,24,5,6,0.3,0.4
2026-01-09T0000,4279A,119.7569,49.2222,呼伦贝尔市,伊敏大街东7号,,28,,28,19,19,38,,56,,22,19,7,8,0.5,0.5
2026-01-09T0000,1250A,120.075,30.867,湖州市,城西水厂,细颗粒物(PM2.5),80,101,89,59,51,36,,78,43,54,49,10,14,0.5,0.6
2026-01-09T0000,2873A,120.083,30.8929,湖州市,仁皇山新区,细颗粒物(PM2.5),108,111,92,81,63,4,,71,50,96,55,11,15,0.7,0.7
2026-01-09T0000,2907A,120.1846,30.8592,湖州市,吴兴区站,细颗粒物(PM2.5),100,99,80,75,62,8,,76,54,87,43,9,11,0.7,0.7
2026-01-09T0000,3562A,120.4146,30.8538,湖州市,南浔区站,细颗粒物(PM2.5),119,124,83,90,60,17,,76,57,66,44,8,11,1.0,0.9
2026-01-09T0000,1607A,120.904878,40.721091,葫芦岛市,龙港区,颗粒物(PM10),67,83,65,39,33,28,,57,33,47,39,13,20,0.9,1
2026-01-09T0000,1608A,120.8382,40.7521,葫芦岛市,化工街,颗粒物(PM10),78,105,85,51,44,12,,50,20,65,46,36,45,0.8,0.8
2026-01-09T0000,1609A,120.8339,40.7078,葫芦岛市,新区,"颗粒物(PM10),细颗粒物(PM2.5)",62,74,55,44,31,5,,53,21,75,52,11,16,1.0,0.9
2026-01-09T0000,1610A,120.8697,40.7679,葫芦岛市,东城区,"颗粒物(PM10),细颗粒物(PM2.5)",64,77,63,46,38,18,,50,22,58,46,13,28,1.0,1
2026-01-09T0000,2483A,109.9297,27.5383,怀化市,河西地税局,细颗粒物(PM2.5),68,53,54,49,46,7,,72,36,29,22,2,4,/,/
2026-01-09T0000,2484A,109.9783,27.5342,怀化市,市四医院,细颗粒物(PM2.5),82,97,66,60,49,0,,72,37,50,29,10,11,0.8,0.7
2026-01-09T0000,2485A,109.9971,27.5579,怀化市,监测楼,细颗粒物(PM2.5),104,93,67,78,55,1,,79,39,39,31,2,4,0.6,0.3
2026-01-09T0000,1210A,119.0566,33.5991,淮安市,钵池山,细颗粒物(PM2.5),72,73,65,52,48,67,,80,66,27,36,9,10,0.4,0.4
2026-01-09T0000,1211A,119.0083,33.578,淮安市,北京南路,细颗粒物(PM2.5),73,75,67,53,45,48,,65,35,30,39,11,11,0.6,0.7
2026-01-09T0000,1212A,118.9938,33.6083,淮安市,市监测站,细颗粒物(PM2.5),73,73,56,53,38,59,,72,56,29,35,20,13,0.9,0.9
2026-01-09T0000,1213A,119.135,33.5038,淮安市,楚州区监测站,细颗粒物(PM2.5),78,81,71,57,44,17,,71,34,76,44,10,11,0.6,0.6
2026-01-09T0000,3426A,118.8757,33.2897,淮安市,新华书店,细颗粒物(PM2.5),79,75,78,58,52,58,,72,57,24,39,10,14,0.7,1.2
2026-01-09T0000,4092A,119.119691,33.550006,淮安市,枚皋中路89号,细颗粒物(PM2.5),84,87,72,62,50,32,,80,43,54,39,9,10,0.8,0.7
2026-01-09T0000,4206A,119.028838,33.631911,淮安市,承德北路606号,细颗粒物(PM2.5),68,75,71,49,44,67,,74,56,24,37,17,12,0.6,0.6
2026-01-09T0000,2282A,116.8005,33.9749,淮北市,监测站,细颗粒物(PM2.5),93,102,89,69,55,49,,71,60,42,40,13,13,0.8,0.9
2026-01-09T0000,2283A,116.8094,33.9008,淮北市,烈山区政府,细颗粒物(PM2.5),100,114,94,75,59,29,,73,47,50,34,13,13,0.6,0.6
2026-01-09T0000,4017A,116.7926,33.9534,淮北市,市博物馆,细颗粒物(PM2.5),104,112,90,78,59,50,,72,62,39,38,9,9,0.7,0.7
2026-01-09T0000,4100A,116.8322,33.9884,淮北市,杜集区第一实验学校,细颗粒物(PM2.5),92,99,90,68,55,46,,98,52,30,36,10,12,0.6,0.6
2026-01-09T0000,2277A,116.8304,32.7726,淮南市,潘集区政府,细颗粒物(PM2.5),97,105,102,72,68,54,,66,58,32,37,8,10,0.7,0.7
2026-01-09T0000,2279A,116.8569,32.5949,淮南市,谢家集区政府,细颗粒物(PM2.5),74,86,97,54,45,55,,75,67,29,34,10,13,0.6,0.5
2026-01-09T0000,2280A,116.8279,32.6333,淮南市,八公山区政府,细颗粒物(PM2.5),78,85,72,57,40,68,,74,71,20,27,6,10,0.5,0.5
2026-01-09T0000,2894A,117.0561,32.6536,淮南市,经济技术开发区消防队,细颗粒物(PM2.5),82,104,118,60,60,48,,66,44,43,45,8,11,0.6,0.6
2026-01-09T0000,3329A,117.011,32.5891,淮南市,山南新区,"颗粒物(PM10),细颗粒物(PM2.5)",79,107,96,58,46,50,,70,60,37,35,4,7,0.6,0.6
2026-01-09T0000,4209A,117.003137,32.644456,淮南市,国庆中路369号,细颗粒物(PM2.5),82,84,82,60,60,46,,61,45,38,48,9,11,0.7,0.8
2026-01-09T0000,2446A,114.9021,30.474,黄冈市,职工中心,细颗粒物(PM2.5),62,71,47,44,29,14,,88,63,74,29,10,6,0.7,0.6
2026-01-09T0000,2929A,114.8858,30.4519,黄冈市,红卫路,细颗粒物(PM2.5),62,68,49,44,33,3,,86,48,82,36,12,6,0.6,0.6
2026-01-09T0000,3398A,114.9134,30.4446,黄冈市,市林业局,颗粒物(PM10),67,83,52,44,30,9,,92,63,78,31,10,5,0.6,0.5
2026-01-09T0000,2672A,102.02,35.5101,黄南藏族自治州,同仁县隆务镇,,44,44,30,12,13,65,,64,63,2,7,9,11,0.4,0.4
2026-01-09T0000,2295A,118.2905,29.6965,黄山市,延安路89号,,36,27,34,25,26,27,,100,66,23,16,3,4,0.4,0.5
2026-01-09T0000,2297A,118.1369,30.2755,黄山市,黄山区政府5号楼,,40,31,38,28,25,31,,94,56,13,12,2,3,0.3,0.3
2026-01-09T0000,4210A,118.335445,29.720283,黄山市,滨江东路7-2号,细颗粒物(PM2.5),57,54,51,40,34,38,,89,58,13,17,/,/,/,/
2026-01-09T0000,2423A,115.0547,30.2332,黄石市,沈家营,颗粒物(PM10),59,68,63,34,35,20,,82,45,44,40,5,7,1.2,1.2
2026-01-09T0000,2426A,114.899,30.211,黄石市,铁山,颗粒物(PM10),58,65,68,28,44,22,,86,55,34,31,5,7,0.6,0.6
2026-01-09T0000,2427A,115.0259,30.2108,黄石市,团城山,颗粒物(PM10),59,67,64,37,37,24,,93,61,56,38,7,6,0.8,0.7
2026-01-09T0000,3149A,115.0174,30.1591,黄石市,笔架山北路,颗粒物(PM10),60,69,87,33,42,48,,86,70,20,29,8,7,1.0,1.1
2026-01-09T0000,4185A,115.078022,30.21118,黄石市,磁湖东路29号,颗粒物(PM10),55,60,63,35,42,15,,68,31,42,44,6,7,1.0,1
2026-01-09T0000,1392A,114.4181,23.0528,惠州市,河南岸金山湖子站,,32,32,32,16,18,75,,91,78,23,21,9,7,0.5,0.5
2026-01-09T0000,1393A,114.4055,23.0824,惠州市,下埔横江三路子站,,35,35,30,20,18,82,,98,84,15,14,10,9,0.3,0.3
2026-01-09T0000,1395A,114.4645,22.7832,惠州市,惠阳区承修路船湖子站,,36,36,35,22,21,43,,98,60,40,24,7,8,0.4,0.4
2026-01-09T0000,1396A,114.5316,22.7423,惠州市,大亚湾管委会子站,,43,43,30,26,19,58,,93,78,26,12,7,7,0.3,0.3
2026-01-09T0000,3314A,114.4334,22.8134,惠州市,惠阳秋长,,41,41,38,20,20,73,,105,82,29,20,/,/,/,/
2026-01-09T0000,3452A,114.6521,22.7755,惠州市,大亚湾霞涌,,25,25,33,15,18,77,,97,83,17,14,/,/,/,/
2026-01-09T0000,4300A,114.4089,23.1147,惠州市,文华一路1号,,31,31,30,19,19,94,,106,95,14,15,/,/,/,/
2026-01-09T0000,2240A,130.9618,45.2926,鸡西市,环保局,,20,18,15,14,10,37,,55,46,13,7,7,6,0.5,0.4
2026-01-09T0000,2243A,130.9294,45.2959,鸡西市,第一中学,,23,20,13,16,11,59,,59,59,5,5,4,4,0.6,0.6
2026-01-09T0000,3707A,131.0069,45.2988,鸡西市,欧美日汽修厂,细颗粒物(PM2.5),70,84,32,51,16,10,,58,30,40,14,24,10,0.7,0.5
2026-01-09T0000,2367A,114.9753,27.0803,吉安市,红声器材厂,颗粒物(PM10),62,74,53,41,31,8,,98,66,70,34,9,10,0.7,0.6
2026-01-09T0000,2369A,114.9903,27.1313,吉安市,市环境监测站,,,67,49,47,31,,,101,89,57,30,8,12,/,/
2026-01-09T0000,2370A,115.009527,27.096792,吉安市,青原区法院,细颗粒物(PM2.5),78,85,51,57,30,8,,90,50,60,37,10,11,0.7,0.6
2026-01-09T0000,1772A,126.54,43.8622,吉林市,哈达湾,,26,24,43,18,28,70,,63,63,8,21,8,9,1.1,1.1
2026-01-09T0000,1773A,126.5843,43.8358,吉林市,东局子,,23,23,31,16,25,60,,58,58,10,20,6,4,0.6,1
2026-01-09T0000,1774A,126.5051,43.8243,吉林市,电力学院,,25,20,40,17,28,62,,55,54,9,23,11,11,0.6,0.8
2026-01-09T0000,1775A,126.6133,43.8971,吉林市,江北,,30,30,42,16,28,58,,60,60,10,16,8,7,0.8,1.2
2026-01-09T0000,1776A,126.5549,43.8304,吉林市,江南公园,,29,24,39,20,30,68,,61,61,8,22,8,8,0.5,0.7
2026-01-09T0000,2868A,126.4737,43.953,吉林市,九站,,26,26,36,18,28,62,,60,60,12,24,7,10,0.6,0.6
2026-01-09T0000,1299A,116.9866,36.6118,济南市,科干所,颗粒物(PM10),73,95,56,42,23,77,,71,71,17,30,8,11,0.8,0.8
2026-01-09T0000,1300A,116.9379,36.6652,济南市,农科所,颗粒物(PM10),68,85,64,39,24,69,,65,64,18,35,6,9,0.6,0.7
2026-01-09T0000,1301A,117.1265,36.6736,济南市,开发区,颗粒物(PM10),66,81,49,46,25,79,,72,71,19,35,6,5,0.7,0.7
2026-01-09T0000,1303A,117.0616,36.6865,济南市,省种子仓库,颗粒物(PM10),71,92,63,39,24,81,,73,73,17,37,6,6,0.6,0.7
2026-01-09T0000,1304A,116.9495185,36.644937,济南市,机床二厂,颗粒物(PM10),80,110,81,46,30,72,,68,67,24,40,9,18,0.8,0.9
2026-01-09T0000,1305A,117.0496,36.6629,济南市,市监测站,颗粒物(PM10),69,88,50,39,20,79,,72,72,11,24,6,5,0.6,0.6
2026-01-09T0000,1306A,116.7674,36.5458,济南市,长清党校,颗粒物(PM10),72,93,50,39,22,62,,70,63,25,34,10,8,0.8,0.7
2026-01-09T0000,1961A,117.5323,36.6865,济南市,东山小学,颗粒物(PM10),68,85,50,39,21,70,,74,67,22,28,7,5,0.9,0.8
2026-01-09T0000,3059A,117.7181,36.205,济南市,泰兴公司,"颗粒物(PM10),细颗粒物(PM2.5)",64,78,69,46,43,55,,72,66,33,41,8,9,0.7,0.8
2026-01-09T0000,3064A,117.6861,36.2172,济南市,莱芜战役纪念馆,细颗粒物(PM2.5),63,66,66,45,43,58,,66,59,28,41,14,11,0.4,0.6
2026-01-09T0000,3494A,117.1673,36.9782,济南市,济阳区政府,,,98,74,39,29,,,58,,25,42,9,12,0.5,0.5
2026-01-09T0000,3495A,117.1168,36.6299,济南市,锦屏中学,颗粒物(PM10),64,78,42,34,17,79,,74,73,18,20,4,4,0.6,0.6
2026-01-09T0000,4108A,117.7107,36.2385,济南市,山财大街5号,颗粒物(PM10),53,56,63,36,27,68,,76,70,30,33,16,12,0.8,0.7
2026-01-09T0000,4109A,116.9744,36.6889,济南市,无影山路12号,颗粒物(PM10),73,95,66,46,25,72,,68,67,15,34,8,12,0.1,0.2
2026-01-09T0000,1653A,116.6229,35.4288,济宁市,火炬城,细颗粒物(PM2.5),94,87,63,70,45,58,,76,63,25,35,5,8,0.5,0.5
2026-01-09T0000,3500A,116.5808,35.3703,济宁市,北湖一中,细颗粒物(PM2.5),102,86,58,76,46,50,,73,61,30,34,8,10,0.6,0.6
2026-01-09T0000,3501A,116.8251,35.5592,济宁市,服务中心,颗粒物(PM10),74,97,74,52,37,33,,63,48,47,52,15,14,0.8,0.8
2026-01-09T0000,3678A,116.5907,35.4054,济宁市,市第七中学,细颗粒物(PM2.5),83,83,65,61,35,61,,78,68,25,32,8,11,0.6,0.7
2026-01-09T0000,4111A,116.6075,35.4566,济宁市,任和路,细颗粒物(PM2.5),83,97,74,61,36,62,,74,65,26,39,8,10,0.6,0.6
2026-01-09T0000,4112A,116.5648,35.3921,济宁市,文体南路1号,细颗粒物(PM2.5),97,110,69,72,37,48,,75,66,32,35,6,14,0.6,0.7
2026-01-09T0000,2255A,130.2749,46.8028,佳木斯市,佳纺,,22,18,24,15,16,58,,51,48,3,12,6,8,0.4,0.4
2026-01-09T0000,2257A,130.3258,46.7975,佳木斯市,环保局,,20,15,21,14,17,63,,52,51,3,13,7,8,0.2,0.6
2026-01-09T0000,4285A,130.363,46.806,佳木斯市,顺和街,,20,20,19,14,14,50,,45,42,9,15,9,10,0.4,0.4
2026-01-09T0000,4286A,130.3952,46.8268,佳木斯市,长安路196号,,21,21,20,12,14,50,,49,41,12,14,6,7,0.4,0.4
2026-01-09T0000,1252A,120.7439,30.778,嘉兴市,清河小学,细颗粒物(PM2.5),159,158,96,121,65,4,,77,43,77,50,6,9,1.4,0.9
2026-01-09T0000,1253A,120.7261,30.7477,嘉兴市,嘉兴学院,细颗粒物(PM2.5),119,135,88,90,59,6,,81,43,75,49,8,10,1.0,0.9
2026-01-09T0000,2872A,120.7845,30.7524,嘉兴市,南湖区残联,细颗粒物(PM2.5),123,132,87,93,61,16,,88,55,81,51,6,8,1.1,0.8
2026-01-09T0000,3407A,120.6915,30.7741,嘉兴市,秀洲住建,细颗粒物(PM2.5),130,133,97,99,68,1,,81,32,75,51,7,9,0.9,0.7
2026-01-09T0000,1945A,98.291,39.7705,嘉峪关市,气象局,颗粒物(PM10),92,134,63,36,25,58,,74,68,22,18,14,24,0.7,0.6
2026-01-09T0000,2884A,98.2672,39.7978,嘉峪关市,酒钢宾馆,颗粒物(PM10),95,139,72,34,28,60,,71,63,17,16,16,26,0.7,0.7
2026-01-09T0000,3248A,98.2644,39.7723,嘉峪关市,雄关区,颗粒物(PM10),75,100,47,34,24,65,,77,69,19,20,12,20,0.5,0.5
2026-01-09T0000,1383A,113.1063,22.6058,江门市,北街,,49,49,37,28,21,45,,95,68,53,33,/,/,/,/
2026-01-09T0000,1384A,113.073,22.5835,江门市,西区,颗粒物(PM10),51,51,43,29,25,35,,90,52,58,37,/,/,/,/
2026-01-09T0000,1385A,113.0218,22.531,江门市,圭峰西,,37,37,36,23,22,70,,88,81,28,29,/,/,/,/
2026-01-09T0000,1386A,113.0826,22.5947,江门市,东湖,,48,48,37,32,22,40,,94,64,52,34,9,8,0.5,0.5
2026-01-09T0000,3311A,113.1077,22.5647,江门市,江海富民,颗粒物(PM10),56,62,44,15,18,44,,95,62,57,44,/,/,0.3,0.4
2026-01-09T0000,3449A,113.0496,22.4669,江门市,新会银湖,颗粒物(PM10),60,70,45,34,26,18,,88,44,60,37,8,8,0.5,0.4
2026-01-09T0000,3335A,113.3137,35.2643,焦作市,马村街道办,颗粒物(PM10),57,64,70,35,36,25,,70,44,41,24,12,9,0.7,0.6
2026-01-09T0000,3336A,113.2464,35.2374,焦作市,焦作技师学院,颗粒物(PM10),59,67,63,39,30,28,,73,40,48,28,14,10,0.5,0.4
2026-01-09T0000,3477A,113.1656,35.2536,焦作市,中站许衡医院,,39,39,54,22,30,58,,74,64,21,16,3,7,0.4,0.5
2026-01-09T0000,3981A,113.2456,35.18,焦作市,原李万街道办,颗粒物(PM10),76,101,82,36,31,9,,73,27,51,24,12,11,0.8,0.6
2026-01-09T0000,4264A,113.234,35.219,焦作市,新安路1731号,颗粒物(PM10),68,86,70,45,34,22,,71,33,47,27,9,6,0.7,0.6
2026-01-09T0000,4295A,113.2722,35.2121,焦作市,人民路3066号,颗粒物(PM10),75,99,76,38,30,16,,66,31,45,23,13,8,0.6,0.5
2026-01-09T0000,1708A,116.3701,23.5345,揭阳市,新兴,细颗粒物(PM2.5),84,101,60,62,37,13,,89,60,88,41,11,11,0.8,0.6
2026-01-09T0000,1709A,116.3261,23.5442,揭阳市,西马,颗粒物(PM10),66,81,60,45,31,56,,89,69,35,29,7,6,1.0,0.8
2026-01-09T0000,1710A,116.361,23.5627,揭阳市,东兴,颗粒物(PM10),66,82,60,37,31,49,,84,65,54,37,22,11,/,/
2026-01-09T0000,1711A,116.4151,23.5295,揭阳市,渔湖,颗粒物(PM10),71,92,64,50,39,34,,87,63,69,46,8,8,/,/
2026-01-09T0000,3320A,116.4028,23.5699,揭阳市,曲溪,细颗粒物(PM2.5),67,80,62,48,37,41,,96,70,53,36,14,10,0.6,0.5
2026-01-09T0000,1944A,102.1691,38.5166,金昌市,天庆家园,颗粒物(PM10),51,51,53,21,24,43,,68,55,28,25,32,18,0.8,0.9
2026-01-09T0000,4022A,102.1648,38.5369,金昌市,金川区人防中心,,47,47,37,31,21,42,,74,63,29,18,29,14,0.9,0.8
2026-01-09T0000,4239A,102.193042,38.531887,金昌市,长春路96号,颗粒物(PM10),56,62,52,26,24,44,,74,59,30,27,41,21,0.8,1.1
2026-01-09T0000,1262A,119.6478,29.0773,金华市,十五中,颗粒物(PM10),58,66,64,40,41,40,,90,47,38,44,3,5,0.3,0.4
2026-01-09T0000,1263A,119.6859,29.1032,金华市,监测站,细颗粒物(PM2.5),65,73,67,47,42,29,,74,30,47,50,4,4,0.4,0.4
2026-01-09T0000,3659A,119.656,29.1132,金华市,气象局,细颗粒物(PM2.5),74,85,69,54,43,21,,79,31,59,53,4,4,0.7,0.8
2026-01-09T0000,1767A,121.1114,41.0879,锦州市,南山,细颗粒物(PM2.5),73,67,56,53,39,22,,55,27,50,38,11,16,1.0,0.9
2026-01-09T0000,1768A,121.060361,40.842794,锦州市,开发区,颗粒物(PM10),77,104,85,45,33,10,,52,23,60,46,13,27,0.9,0.9
2026-01-09T0000,1769A,121.1836,41.1118,锦州市,百股街道,细颗粒物(PM2.5),62,67,47,44,24,29,,59,32,43,36,8,18,0.9,1
2026-01-09T0000,1770A,121.1176,41.1224,锦州市,天安街道,细颗粒物(PM2.5),79,103,48,58,27,27,,62,30,47,33,48,17,2.2,0.9
2026-01-09T0000,1771A,121.1303,41.1385,锦州市,北湖公园,细颗粒物(PM2.5),89,102,48,66,27,37,,56,32,42,29,59,16,2.1,1
2026-01-09T0000,2160A,112.8496,35.5051,晋城市,自来水公司,,44,44,58,19,24,20,,68,47,52,25,7,5,0.7,0.7
2026-01-09T0000,2162A,112.8509,35.4886,晋城市,市环保局,颗粒物(PM10),74,98,58,24,21,12,,77,44,62,26,7,4,0.7,0.6
2026-01-09T0000,3620A,112.8258,35.4804,晋城市,泽州一中,颗粒物(PM10),58,65,59,27,18,42,,79,64,36,15,4,4,0.5,0.2
2026-01-09T0000,4078A,112.8246,35.5152,晋城市,前书院路,颗粒物(PM10),52,54,61,6,17,52,,71,54,24,20,5,5,0.5,0.4
2026-01-09T0000,4079A,112.8864,35.4773,晋城市,祥云街666号,颗粒物(PM10),52,54,56,18,24,35,,76,52,46,26,6,5,0.4,0.4
2026-01-09T0000,2174A,112.6992,37.6984,晋中市,榆次区政府,颗粒物(PM10),70,90,93,45,42,22,,65,45,43,33,18,16,1.2,0.8
2026-01-09T0000,2865A,112.7195,37.683,晋中市,榆次三中,颗粒物(PM10),78,105,97,44,35,11,,64,41,56,30,24,16,1.6,1
2026-01-09T0000,4080A,112.7375,37.7215,晋中市,广安街188号,颗粒物(PM10),73,96,90,48,39,26,,62,46,39,34,15,12,0.9,0.6
2026-01-09T0000,4200A,112.7478,37.6954,晋中市,迎宾街26号,颗粒物(PM10),76,102,94,51,38,19,,65,45,48,34,25,17,1.0,0.8
2026-01-09T0000,2439A,112.2012,31.048,荆门市,竹园小学,细颗粒物(PM2.5),95,85,60,71,41,75,,89,75,25,27,1,2,0.4,0.3
2026-01-09T0000,2440A,112.1968,30.9892,荆门市,掇刀,细颗粒物(PM2.5),80,91,59,59,40,68,,97,81,29,23,6,6,0.6,0.5
2026-01-09T0000,3012A,112.1849,31.0361,荆门市,西山林语,细颗粒物(PM2.5),70,78,53,51,33,65,,92,78,19,20,2,6,0.3,0.3
2026-01-09T0000,3547A,112.1631,31.0134,荆门市,龙泉中学南校,细颗粒物(PM2.5),92,85,59,68,40,71,,93,78,15,14,9,9,0.6,0.5
2026-01-09T0000,4124A,112.2213,31.0654,荆门市,新台西路6号,细颗粒物(PM2.5),100,86,75,75,58,76,,88,75,25,32,10,9,0.6,0.5
2026-01-09T0000,1844A,112.2493,30.3198,荆州市,市图书馆,细颗粒物(PM2.5),87,,60,64,57,56,,100,82,39,32,8,9,0.8,0.8
2026-01-09T0000,1845A,112.2009,30.3543,荆州市,市委党校,细颗粒物(PM2.5),88,76,68,65,60,26,,82,57,63,41,4,6,1.0,0.9
2026-01-09T0000,3194A,112.2749,30.3124,荆州市,管委会,细颗粒物(PM2.5),88,67,58,65,58,50,,91,76,49,33,9,11,0.8,0.8
2026-01-09T0000,4268A,112.1722,30.3366,荆州市,学苑路85号,细颗粒物(PM2.5),68,58,62,49,55,60,,103,85,38,38,17,15,0.7,0.7
2026-01-09T0000,2343A,117.2114,29.2931,景德镇市,老干部活动中心,细颗粒物(PM2.5),55,57,46,39,35,4,,83,47,46,24,7,9,0.7,0.5
2026-01-09T0000,2344A,117.1893,29.2789,景德镇市,兽医站,颗粒物(PM10),55,59,49,38,36,18,,89,48,32,28,8,10,1.0,0.9
2026-01-09T0000,2346A,117.246,29.2958,景德镇市,陶研所,细颗粒物(PM2.5),59,56,43,42,33,9,,84,44,24,22,4,3,0.5,0.4
2026-01-09T0000,4289A,117.154766,29.256967,景德镇市,青少年活动中心,颗粒物(PM10),60,70,53,40,32,26,,85,40,34,36,14,20,/,/
2026-01-09T0000,1803A,115.9873,29.6816,九江市,十里,细颗粒物(PM2.5),64,68,58,46,42,7,,96,38,73,56,5,6,1.2,1
2026-01-09T0000,1804A,115.9583,29.7047,九江市,茅山头,颗粒物(PM10),54,58,55,31,35,2,,83,31,84,49,5,6,0.8,0.9
2026-01-09T0000,1805A,115.9877,29.7295,九江市,西园,颗粒物(PM10),55,60,57,37,37,10,,85,37,97,61,3,4,0.8,0.8
2026-01-09T0000,1808A,115.9112,29.6038,九江市,综合工业园,,49,49,60,31,47,12,,92,48,72,58,3,6,0.8,0.8
2026-01-09T0000,3190A,116.0254,29.6995,九江市,外国语学校,细颗粒物(PM2.5),59,59,54,42,38,5,,78,39,87,56,8,11,1.0,0.9
2026-01-09T0000,4253A,116.010205,29.659402,九江市,莲花大道8号,,47,47,55,20,38,66,,81,63,10,22,3,5,0.3,0.5
2026-01-09T0000,4240A,98.495752,39.733935,酒泉市,玉门东路5号,颗粒物(PM10),82,114,70,44,31,51,,67,60,17,22,10,13,0.7,0.6
2026-01-09T0000,4241A,98.5099,39.7506,酒泉市,北大街108号,颗粒物(PM10),81,112,66,40,30,47,,64,58,22,25,10,12,0.8,0.7
2026-01-09T0000,2698A,76.0071,39.466,喀什地区,巡警大队,细颗粒物(PM2.5),206,224,136,156,94,5,,57,43,86,48,9,5,5.1,2.4
2026-01-09T0000,2699A,75.9756,39.4693,喀什地区,吾办,细颗粒物(PM2.5),203,190,140,153,108,5,,55,40,95,51,8,6,4.4,2.5
2026-01-09T0000,4027A,75.9485,39.4688,喀什地区,老干局,细颗粒物(PM2.5),232,243,173,182,117,5,,58,39,91,47,6,5,4.9,3.2
2026-01-09T0000,1824A,114.3389,34.778,开封市,肿瘤医院,细颗粒物(PM2.5),69,86,98,50,56,40,,65,53,32,38,6,7,0.6,0.7
2026-01-09T0000,1826A,114.2884,34.7966,开封市,世纪星幼儿园,细颗粒物(PM2.5),82,93,90,60,60,35,,65,54,39,36,5,5,0.6,0.6
2026-01-09T0000,3147A,114.3434,34.8101,开封市,龙亭公园,颗粒物(PM10),70,89,93,50,58,41,,66,57,43,48,10,10,0.5,0.5
2026-01-09T0000,3210A,114.3645,34.7955,开封市,汴京公园,颗粒物(PM10),77,103,105,50,60,41,,61,51,33,42,6,7,0.6,0.7
2026-01-09T0000,3473A,114.2485,34.8306,开封市,技师学院,"颗粒物(PM10),细颗粒物(PM2.5)",73,95,87,53,48,40,,70,60,37,35,8,8,0.7,0.7
2026-01-09T0000,3592A,114.4518,34.7503,开封市,祥符区生态环境局,颗粒物(PM10),81,112,95,54,61,41,,66,51,39,42,5,8,0.5,0.7
2026-01-09T0000,1951A,84.886,45.6029,克拉玛依市,长征新村,细颗粒物(PM2.5),169,162,146,128,108,48,,52,52,31,32,4,4,1.0,0.9
2026-01-09T0000,1952A,84.8894,45.5827,克拉玛依市,南林小区,细颗粒物(PM2.5),120,165,143,91,84,46,,56,54,24,21,4,4,1.4,1.3
2026-01-09T0000,1954A,84.896,44.3328,克拉玛依市,独山子区,,37,37,65,24,44,43,,68,59,32,22,5,5,0.6,0.7
2026-01-09T0000,1955A,85.6888,46.0909,克拉玛依市,乌尔禾区商贸楼,细颗粒物(PM2.5),156,158,135,119,114,17,,53,41,59,37,4,5,1.1,1.2
2026-01-09T0000,3612A,85.1045,45.6895,克拉玛依市,白碱滩区新站,细颗粒物(PM2.5),186,186,161,140,119,55,,54,54,21,22,7,7,1.1,1.1
2026-01-09T0000,2697A,76.1457,39.7143,克孜勒苏柯尔克孜自治州,市人民政府,颗粒物(PM10),71,91,84,48,53,46,,77,66,16,15,3,4,0.6,0.4
2026-01-09T0000,3665A,76.1654,39.7157,克孜勒苏柯尔克孜自治州,克州文化中心,细颗粒物(PM2.5),68,64,72,49,55,53,,70,61,19,19,4,4,0.7,0.9
2026-01-09T0000,1450A,102.8203,24.889,昆明市,呈贡新区,,24,24,21,16,15,20,,29,27,30,17,2,2,0.6,0.5
2026-01-09T0000,1452A,102.7253,25.0904,昆明市,龙泉镇,,33,33,30,21,23,13,,28,14,20,17,2,2,0.8,0.8
2026-01-09T0000,1453A,102.7267,25.0378,昆明市,东风东路,,43,37,40,30,31,22,,24,20,20,24,3,3,0.6,0.7
2026-01-09T0000,1454A,102.6744,25.0671,昆明市,金鼎山,,25,24,39,17,23,20,,25,17,16,21,2,2,0.8,0.8
2026-01-09T0000,1455A,102.6643,25.0401,昆明市,碧鸡广场,,35,27,32,24,26,13,,22,14,25,26,2,3,0.5,0.6
2026-01-09T0000,3179A,102.7491,25.012,昆明市,官渡区博物馆,,39,,33,27,26,28,,23,23,17,26,2,2,0.6,0.8
2026-01-09T0000,3375A,102.8016,24.8336,昆明市,青年创业园,,26,25,20,18,15,30,,36,33,15,9,4,2,0.6,0.7
2026-01-09T0000,3550A,102.8,24.9787,昆明市,昆明学院,,32,29,32,22,24,25,,23,20,21,24,4,2,0.8,0.9
2026-01-09T0000,3551A,102.5969,24.6738,昆明市,晋宁区生态环境分局,,32,25,27,22,20,22,,21,21,13,14,2,2,0.7,0.7
2026-01-09T0000,3552A,102.6673,24.9861,昆明市,云天化总部,,29,26,32,20,23,27,,22,22,12,26,4,4,0.5,0.9
2026-01-09T0000,1456A,91.132,29.6515,拉萨市,八廓街,,46,43,28,32,16,28,,85,61,43,20,9,8,1.5,0.7
2026-01-09T0000,1457A,91.1221,29.6748,拉萨市,市环保局,,49,44,29,34,21,20,,80,52,35,22,10,8,1.7,1
2026-01-09T0000,1458A,91.0874,29.6476,拉萨市,区监测站,,39,35,20,27,12,18,,78,55,67,30,6,4,1.5,0.9
2026-01-09T0000,1459A,91.1774,29.6541,拉萨市,西藏大学,,18,18,22,8,10,53,,78,66,23,19,5,5,0.4,0.4
2026-01-09T0000,1460A,90.9798,29.6586,拉萨市,区辐射站,,23,23,41,14,21,58,,75,63,20,33,4,5,0.6,0.7
2026-01-09T0000,1461A,91.0831,29.6292,拉萨市,拉萨火车站,,39,38,25,27,12,8,,79,59,72,36,6,5,1.4,0.8
2026-01-09T0000,2520A,109.2203,23.7252,来宾市,来宾技工学校,细颗粒物(PM2.5),95,86,62,71,48,33,,100,62,32,22,7,9,0.8,0.6
2026-01-09T0000,3535A,109.1781,23.7293,来宾市,兴宾区政府,细颗粒物(PM2.5),98,96,56,73,44,51,,108,80,22,13,7,7,0.7,0.6
2026-01-09T0000,4002A,109.2312,23.7428,来宾市,中南小学,细颗粒物(PM2.5),69,72,64,50,47,6,,104,51,58,32,5,9,0.6,0.6
2026-01-09T0000,1479A,103.8309,36.0467,兰州市,铁路设计院,,,,,,,,,,,,,,,,
2026-01-09T0000,3241A,103.7439,36.0841,兰州市,百合公园,,,,83,,60,,,43,,,64,,24,,1.3
2026-01-09T0000,3242A,103.9613,35.9985,兰州市,和平,,32,30,71,22,56,26,,67,56,47,35,7,13,0.7,1.3
2026-01-09T0000,4236A,103.629272,36.093822,兰州市,庄浪东路808号,颗粒物(PM10),56,62,87,39,57,12,,57,26,72,56,14,25,0.9,1.3
2026-01-09T0000,4237A,103.7251,36.104344,兰州市,安宁西路88号,,,75,101,42,56,,,56,28,69,69,10,24,0.9,1.3
2026-01-09T0000,4238A,103.846982,36.067567,兰州市,北滨河东路1号,细颗粒物(PM2.5),104,122,91,78,56,3,,52,21,83,71,15,17,1.6,1.8
2026-01-09T0000,1067A,116.6712,39.5109,廊坊市,药材公司,细颗粒物(PM2.5),93,119,89,69,45,7,,46,29,59,50,9,5,1.0,0.9
2026-01-09T0000,1068A,116.7215,39.5592,廊坊市,开发区,细颗粒物(PM2.5),92,125,94,68,47,7,,45,29,58,57,8,7,0.8,0.8
2026-01-09T0000,1070A,116.7246,39.5273,廊坊市,北华航天学院,颗粒物(PM10),92,133,100,64,51,11,,47,30,58,53,8,5,0.8,0.9
2026-01-09T0000,2919A,116.7022,39.5454,廊坊市,河北工业大学,颗粒物(PM10),89,127,90,63,46,20,,47,34,50,52,11,6,0.8,0.7
2026-01-09T0000,2536A,103.7629,29.5844,乐山市,牛耳桥,细颗粒物(PM2.5),105,95,66,79,54,10,,63,38,44,31,8,8,0.7,0.7
2026-01-09T0000,2537A,103.7501,29.6002,乐山市,市第三水厂,细颗粒物(PM2.5),99,98,69,74,54,1,,63,33,59,39,6,6,0.8,0.7
2026-01-09T0000,2538A,103.7571,29.5664,乐山市,市监测站,细颗粒物(PM2.5),90,82,68,67,52,1,,68,47,49,29,6,8,0.9,0.9
2026-01-09T0000,3361A,103.7313,29.563,乐山市,理工大学,细颗粒物(PM2.5),102,90,69,76,55,6,,69,47,46,29,4,5,0.7,0.7
2026-01-09T0000,2599A,100.2497,26.8802,丽江市,丽江古城,,25,21,30,14,17,79,,88,78,8,14,7,8,0.4,0.5
2026-01-09T0000,2600A,100.2203,26.8906,丽江市,市中心,,25,20,21,10,9,79,,90,78,8,14,7,7,0.3,0.4
2026-01-09T0000,1267A,119.9141,28.4513,丽水市,监测站大楼,,43,39,41,30,28,22,,86,59,42,31,5,9,0.4,0.4
2026-01-09T0000,1268A,119.93,28.4589,丽水市,莲都小学,,46,46,43,26,25,42,,88,69,30,26,/,/,/,/
2026-01-09T0000,1269A,119.8794,28.4232,丽水市,余庄前,,46,46,41,30,28,11,,81,48,32,24,4,5,0.3,0.3
2026-01-09T0000,1173A,119.1759,34.5885,连云港市,市环境监测站,"颗粒物(PM10),细颗粒物(PM2.5)",64,78,49,46,30,56,,57,46,27,36,11,14,0.6,0.8
2026-01-09T0000,3000A,119.3577,34.6971,连云港市,德源药业,细颗粒物(PM2.5),67,75,69,48,22,59,,58,32,30,36,8,8,0.5,0.5
2026-01-09T0000,3007A,119.178,34.8442,连云港市,新城一中,细颗粒物(PM2.5),94,77,61,70,32,1,,64,26,81,42,13,19,0.8,1.1
2026-01-09T0000,3008A,119.3607,34.7519,连云港市,胡沟管理处,"颗粒物(PM10),细颗粒物(PM2.5)",52,53,28,36,17,60,,63,46,32,25,6,7,0.6,0.6
2026-01-09T0000,3009A,119.1478,34.5913,连云港市,矿山设计院,颗粒物(PM10),58,66,48,39,25,75,,62,54,15,34,8,11,0.8,0.9
2026-01-09T0000,3434A,119.2414,34.6539,连云港市,工贸学校,细颗粒物(PM2.5),69,72,37,50,23,57,,60,55,25,23,12,14,0.7,0.7
2026-01-09T0000,3664A,119.4171,34.734,连云港市,连云街道,颗粒物(PM10),57,64,32,39,18,78,,63,63,20,30,5,8,0.6,0.7
2026-01-09T0000,2573A,102.2629,27.8981,凉山彝族自治州,西昌市政府,细颗粒物(PM2.5),60,48,30,43,25,40,,66,54,18,11,5,5,0.8,0.6
2026-01-09T0000,2574A,102.2686,27.885,凉山彝族自治州,凉山州政府,颗粒物(PM10),54,58,32,29,20,28,,65,47,26,14,7,7,0.9,0.3
2026-01-09T0000,4229A,102.2342,27.8859,凉山彝族自治州,凯乐南路30号,细颗粒物(PM2.5),178,174,46,134,29,18,,65,41,40,17,6,5,1.0,0.5
2026-01-09T0000,2212A,123.1978,41.2036,辽阳市,宏伟区,,35,35,51,23,20,63,,66,65,10,13,6,7,0.5,0.5
2026-01-09T0000,2213A,123.1684,41.2497,辽阳市,新华园,,50,50,61,28,22,54,,61,58,19,24,9,12,0.3,0.7
2026-01-09T0000,2214A,123.2355,41.2663,辽阳市,滨河路,,42,42,49,21,21,50,,53,51,14,19,9,14,0.5,0.5
2026-01-09T0000,4083A,123.153,41.2874,辽阳市,铁西路150号,颗粒物(PM10),60,69,60,36,21,51,,59,56,23,25,10,11,0.6,0.7
2026-01-09T0000,2227A,125.1359,42.8845,辽源市,环保局,,44,44,118,26,39,54,,58,51,17,25,6,5,0.6,0.9
2026-01-09T0000,4085A,125.0998,42.9134,辽源市,安宁大街333号,颗粒物(PM10),51,52,55,13,33,58,,52,50,12,25,7,5,0.3,0.6
2026-01-09T0000,1625A,115.9789,36.4372,聊城市,区政府,细颗粒物(PM2.5),83,106,74,61,36,47,,71,59,34,40,14,15,0.9,0.8
2026-01-09T0000,3200A,115.9772,36.4986,聊城市,监控中心,细颗粒物(PM2.5),85,112,74,63,39,54,,75,66,26,38,13,14,0.7,0.6
2026-01-09T0000,3513A,116.0443,36.436,聊城市,九州社区,细颗粒物(PM2.5),92,109,78,68,41,55,,79,65,19,28,5,10,0.7,0.5
2026-01-09T0000,4018A,116.0564,36.4609,聊城市,星美广场,"颗粒物(PM10),细颗粒物(PM2.5)",83,115,76,61,34,53,,74,63,22,26,7,7,0.6,0.5
2026-01-09T0000,4113A,116.0091,36.4495,聊城市,利民路,细颗粒物(PM2.5),84,96,62,62,35,45,,69,59,37,40,11,11,0.6,0.6
2026-01-09T0000,2632A,94.3683,29.6373,林芝市,林芝监测站,,23,11,11,9,11,71,,86,78,2,4,3,3,0.3,0.3
2026-01-09T0000,2633A,94.3616,29.6634,林芝市,林芝人民医院,,19,19,17,12,10,59,,75,63,6,7,5,6,0.4,0.5
2026-01-09T0000,2603A,100.0779,23.8981,临沧市,市环保局,细颗粒物(PM2.5),75,,35,55,43,25,,58,40,15,12,3,3,0.6,0.5
2026-01-09T0000,2604A,100.0894,23.882,临沧市,市气象局,细颗粒物(PM2.5),58,43,37,41,27,29,,61,43,11,11,5,6,0.7,0.5
2026-01-09T0000,1733A,111.5552,36.0791,临汾市,临钢医院,,,,82,,32,,,63,,,23,,7,,0.6
2026-01-09T0000,1734A,111.4984,36.0734,临汾市,技工学校,细颗粒物(PM2.5),77,98,81,56,34,16,,63,39,42,23,5,7,1.0,0.7
2026-01-09T0000,1736A,111.5017,36.0857,临汾市,市委,颗粒物(PM10),66,82,84,32,25,30,,68,46,33,25,8,10,1.1,0.9
2026-01-09T0000,3018A,111.5048,36.1015,临汾市,唐尧大酒店,颗粒物(PM10),68,85,82,39,26,28,,70,44,34,25,3,5,1.0,0.8
2026-01-09T0000,4244A,111.4879,36.053,临汾市,启星学校,颗粒物(PM10),72,93,76,42,30,0,,67,28,70,38,5,9,1.6,1.1
2026-01-09T0000,4271A,103.2464,35.6123,临夏回族自治州,滨河东路1号,"颗粒物(PM10),细颗粒物(PM2.5)",149,247,158,114,83,9,,55,25,39,36,5,6,1.7,1.6
2026-01-09T0000,4310A,103.207136,35.599807,临夏回族自治州,新华街21号,细颗粒物(PM2.5),182,203,129,137,88,12,,55,33,54,39,10,11,1.9,1.2
2026-01-09T0000,1618A,118.3429,35.0532,临沂市,沂河小区,细颗粒物(PM2.5),89,92,63,66,41,37,,62,50,51,41,28,18,0.8,0.8
2026-01-09T0000,1619A,118.2962,35.0568,临沂市,鲁南制药厂,细颗粒物(PM2.5),85,95,64,63,39,38,,62,49,52,42,40,22,0.7,0.7
2026-01-09T0000,1620A,118.2793,34.9976,临沂市,新光毛纺厂,细颗粒物(PM2.5),85,95,62,63,39,13,,62,37,76,45,42,22,0.8,0.8
2026-01-09T0000,1621A,118.3955,35.0889,临沂市,河东保险公司,细颗粒物(PM2.5),88,92,59,65,37,43,,69,57,44,40,19,15,0.7,0.7
2026-01-09T0000,3370A,118.3563,35.0215,临沂市,十里堡居委,细颗粒物(PM2.5),100,112,68,75,35,19,,65,37,70,50,29,22,0.8,0.9
2026-01-09T0000,3496A,118.359,35.1067,临沂市,南坊新区,细颗粒物(PM2.5),70,80,59,51,36,53,,70,61,44,43,29,17,0.7,0.7
2026-01-09T0000,3860A,118.3915,35.0297,临沂市,皇山花园小区,细颗粒物(PM2.5),79,92,70,58,38,34,,69,54,54,51,29,21,0.9,0.9
2026-01-09T0000,1870A,109.4854,24.3898,柳州市,柳东小学,细颗粒物(PM2.5),98,74,53,73,49,70,,114,102,26,12,16,11,0.8,0.5
2026-01-09T0000,1871A,109.4109,24.3304,柳州市,环保监测站,细颗粒物(PM2.5),87,106,77,64,58,5,,99,44,65,34,7,10,0.9,0.6
2026-01-09T0000,1872A,109.3886,24.3408,柳州市,河西水厂,细颗粒物(PM2.5),115,159,100,87,67,4,,105,45,68,39,12,17,0.7,0.7
2026-01-09T0000,1873A,109.4263,24.2951,柳州市,市四中,细颗粒物(PM2.5),79,94,70,58,54,1,,98,37,72,35,11,13,1.3,0.7
2026-01-09T0000,1874A,109.396,24.3658,柳州市,市九中,颗粒物(PM10),86,122,78,61,65,6,,105,,70,37,10,13,1.1,0.8
2026-01-09T0000,1875A,109.4912,24.3164,柳州市,古亭山,,40,33,43,28,28,1,,99,39,74,31,12,12,0.6,0.6
2026-01-09T0000,3402A,109.5422,24.3994,柳州市,市二中,细颗粒物(PM2.5),99,78,62,74,60,6,,103,50,53,28,8,9,0.7,0.6
2026-01-09T0000,2307A,116.5078,31.7369,六安市,监测大楼,细颗粒物(PM2.5),69,73,58,50,35,24,,74,55,65,40,4,4,0.6,0.5
2026-01-09T0000,2308A,116.4738,31.7642,六安市,皖西学院,细颗粒物(PM2.5),72,88,65,52,36,2,,81,30,70,39,5,5,0.7,0.5
2026-01-09T0000,2309A,116.4997,31.7904,六安市,朝阳厂,细颗粒物(PM2.5),72,84,61,52,35,3,,74,40,81,37,5,6,0.8,0.5
2026-01-09T0000,2310A,116.5566,31.7885,六安市,开发区,细颗粒物(PM2.5),79,98,81,58,43,27,,71,25,48,46,4,5,0.5,0.5
2026-01-09T0000,2577A,104.8293,26.592,六盘水市,黄土坡,,42,42,28,23,21,80,,77,73,13,15,9,14,0.5,0.6
2026-01-09T0000,2579A,104.8481,26.5898,六盘水市,民中,,39,30,28,27,21,81,,78,75,12,14,6,9,0.5,0.6
2026-01-09T0000,2580A,104.9541,26.5506,六盘水市,双水,,48,44,34,33,20,81,,84,82,10,10,6,5,0.4,0.5
2026-01-09T0000,4151A,104.8899,26.5685,六盘水市,钟山大道中段564号,,45,45,37,29,22,81,,80,78,9,16,8,12,0.5,0.8
2026-01-09T0000,2336A,117.022,25.1031,龙岩市,龙岩市监测站,,30,30,28,19,16,54,,100,84,29,16,42,18,0.4,0.4
2026-01-09T0000,2337A,117.0257,25.0662,龙岩市,闽西职业技术学院,颗粒物(PM10),55,60,38,19,18,33,,103,77,41,19,31,13,0.5,0.5
2026-01-09T0000,2338A,117.0195,25.0306,龙岩市,龙岩学院,,29,21,29,20,20,58,,97,79,12,13,7,10,/,/
2026-01-09T0000,2885A,104.9344,33.3827,陇南市,滨江中学,细颗粒物(PM2.5),89,121,91,66,51,2,,54,14,67,49,23,18,3.6,2.2
2026-01-09T0000,3247A,104.9551,33.3709,陇南市,市总工会,颗粒物(PM10),75,100,74,48,36,9,,56,30,56,36,12,11,1.7,1
2026-01-09T0000,2488A,111.9984,27.7346,娄底市,市监测站,细颗粒物(PM2.5),102,96,71,76,54,14,,97,66,68,36,7,15,1.2,1.3
2026-01-09T0000,2491A,111.9888,27.7035,娄底市,市政府,细颗粒物(PM2.5),79,71,59,58,45,27,,90,56,24,22,5,6,0.8,0.9
2026-01-09T0000,4127A,111.9812,27.7591,娄底市,涟钢职大,细颗粒物(PM2.5),73,77,61,53,37,45,,93,73,39,27,6,9,0.7,1.2
2026-01-09T0000,4128A,112.0303,27.7457,娄底市,娄底体校,细颗粒物(PM2.5),63,64,55,45,44,29,,90,59,17,19,2,4,0.6,0.6
2026-01-09T0000,1894A,105.4427,28.9063,泸州市,小市上码头,细颗粒物(PM2.5),223,198,93,173,68,16,,68,57,62,30,15,12,1.4,1.1
2026-01-09T0000,1895A,105.4241,28.8573,泸州市,兰田宪桥,细颗粒物(PM2.5),140,131,84,107,68,14,,70,56,43,25,8,8,1.2,1
2026-01-09T0000,1896A,105.4378,28.8833,泸州市,市环监站,细颗粒物(PM2.5),150,144,87,115,67,23,,73,62,59,36,9,10,1.2,1
2026-01-09T0000,4272A,105.3689,28.7783,泸州市,纳溪中医医院,细颗粒物(PM2.5),122,117,84,92,66,5,,64,39,36,26,7,8,1.0,0.9
2026-01-09T0000,2183A,111.1447,37.5212,吕梁市,环保局,颗粒物(PM10),63,75,94,20,34,3,,53,14,59,40,3,7,0.4,0.5
2026-01-09T0000,2185A,111.1285,37.5338,吕梁市,自来水公司,颗粒物(PM10),116,182,113,39,38,0,,52,23,52,33,7,6,0.5,0.5
2026-01-09T0000,2867A,111.1225,37.5093,吕梁市,马茂庄小学,颗粒物(PM10),69,88,111,23,38,0,,52,17,59,41,4,8,0.4,0.6
2026-01-09T0000,1812A,112.3934,34.6517,洛阳市,市委党校,细颗粒物(PM2.5),70,79,62,51,30,36,,74,49,33,27,15,10,0.6,0.5
2026-01-09T0000,1815A,112.494,34.6883,洛阳市,河南林校,颗粒物(PM10),72,94,76,49,28,41,,73,42,33,36,14,11,0.7,0.7
2026-01-09T0000,1816A,112.3843,34.623,洛阳市,开发区管委会,,,,60,,27,,,72,50,,30,,15,,0.4
2026-01-09T0000,1817A,112.4263,34.6249,洛阳市,市委新办公区,细颗粒物(PM2.5),82,100,64,60,34,23,,80,50,40,23,12,10,0.8,0.6
2026-01-09T0000,3340A,112.6005,34.6323,洛阳市,伊滨,颗粒物(PM10),65,80,62,44,29,44,,75,48,28,20,9,7,0.5,0.4
2026-01-09T0000,3341A,112.495,34.6338,洛阳市,中移产业园,"颗粒物(PM10),细颗粒物(PM2.5)",72,93,66,52,31,42,,77,63,36,28,15,11,0.6,0.5
2026-01-09T0000,3593A,112.5736,34.8993,洛阳市,吉利监测站,颗粒物(PM10),54,57,61,30,24,34,,83,41,47,36,8,7,0.6,0.7
2026-01-09T0000,3635A,112.3678,34.6623,洛阳市,河科大西苑校区,细颗粒物(PM2.5),75,96,69,55,26,4,,78,43,55,25,11,9,0.8,0.5
2026-01-09T0000,3636A,112.4387,34.678,洛阳市,英才小学,"颗粒物(PM10),细颗粒物(PM2.5)",70,89,70,51,33,22,,81,45,56,41,15,11,0.8,0.6
2026-01-09T0000,4214A,112.460027,34.694929,洛阳市,春都路1号院,颗粒物(PM10),76,102,78,47,28,23,,80,43,46,32,12,10,0.9,0.8
2026-01-09T0000,2399A,114.051,33.5721,漯河市,三五一五工厂,细颗粒物(PM2.5),78,92,95,57,51,45,,77,60,28,24,8,10,0.8,0.8
2026-01-09T0000,2400A,114.0055,33.5698,漯河市,漯河大学,细颗粒物(PM2.5),73,94,87,53,42,38,,81,63,40,31,7,8,0.6,0.7
2026-01-09T0000,2401A,114.0134,33.5826,漯河市,市水利局,"颗粒物(PM10),细颗粒物(PM2.5)",73,95,89,53,48,37,,68,59,33,23,8,9,0.7,0.7
2026-01-09T0000,2402A,114.0261,33.5697,漯河市,市广电局,颗粒物(PM10),68,85,87,48,47,60,,84,75,22,23,8,9,0.7,0.7
2026-01-09T0000,3478A,113.9691,33.568,漯河市,市图书馆,颗粒物(PM10),79,108,100,54,52,45,,66,54,24,24,11,8,0.7,0.7
2026-01-09T0000,4250A,114.089259,33.588274,漯河市,韶山路11号,颗粒物(PM10),71,91,92,48,46,52,,73,65,24,29,10,9,0.5,0.5
2026-01-09T0000,1798A,118.5084,31.6838,马鞍山市,湖东路四小,颗粒物(PM10),82,113,91,59,48,4,,72,23,78,52,5,10,0.8,1
2026-01-09T0000,1799A,118.5019,31.6449,马鞍山市,开发区,细颗粒物(PM2.5),98,112,87,73,55,5,,80,25,81,54,7,8,0.8,0.7
2026-01-09T0000,3633A,118.4914,31.681,马鞍山市,雨山,细颗粒物(PM2.5),80,107,88,59,52,22,,78,37,72,54,8,13,0.9,1
2026-01-09T0000,4191A,118.527362,31.722269,马鞍山市,慈湖高新区,细颗粒物(PM2.5),87,109,107,64,65,40,,76,42,49,49,7,16,0.6,0.6
2026-01-09T0000,1686A,111.0285,21.469,茂名市,电白南海,颗粒物(PM10),64,78,53,34,28,55,,118,98,39,22,20,17,0.6,0.5
2026-01-09T0000,1687A,110.9294,21.6533,茂名市,茂石化七小,颗粒物(PM10),57,63,53,29,30,68,,110,90,36,26,16,15,0.5,0.5
2026-01-09T0000,1688A,110.9108,21.6688,茂名市,健康路,细颗粒物(PM2.5),73,83,53,53,37,45,,122,94,53,31,19,26,0.8,0.7
2026-01-09T0000,1689A,110.8592,21.6826,茂名市,高岭,颗粒物(PM10),75,100,68,44,31,34,,118,84,44,28,13,18,/,/
2026-01-09T0000,3450A,111.0101,21.5165,茂名市,电白水东,颗粒物(PM10),56,61,43,36,26,70,,115,102,25,15,22,15,/,/
2026-01-09T0000,2540A,103.8414,30.0871,眉山市,气象局,细颗粒物(PM2.5),100,103,77,75,59,4,,85,70,62,32,10,9,0.7,0.6
2026-01-09T0000,3148A,103.829,30.0563,眉山市,区人社局,细颗粒物(PM2.5),104,97,77,78,58,4,,71,46,69,41,8,7,1.0,0.8
2026-01-09T0000,4148A,103.8836,30.0695,眉山市,眉职院,细颗粒物(PM2.5),72,83,72,52,45,22,,79,52,46,30,2,2,0.7,0.7
2026-01-09T0000,1690A,116.1248,24.3307,梅州市,梅江月梅,,41,41,37,25,26,36,,94,65,33,27,/,/,/,/
2026-01-09T0000,1691A,116.0798,24.2719,梅州市,梅县新城,颗粒物(PM10),52,53,37,33,23,5,,87,57,55,32,7,7,0.7,0.5
2026-01-09T0000,3315A,116.1234,24.2994,梅州市,梅龙,,36,36,35,18,19,29,,85,48,31,26,10,10,0.5,0.5
2026-01-09T0000,1878A,104.7775,31.4741,绵阳市,富乐山,细颗粒物(PM2.5),75,62,73,55,58,52,,86,79,22,28,11,11,0.5,0.7
2026-01-09T0000,1880A,104.6698,31.4668,绵阳市,高新区自来水公司,细颗粒物(PM2.5),92,110,108,68,66,0,,80,42,74,46,10,9,1.1,1
2026-01-09T0000,3491A,104.6899,31.5324,绵阳市,西科大附属小学,细颗粒物(PM2.5),115,136,106,87,68,6,,69,35,57,46,8,9,0.8,0.7
2026-01-09T0000,3492A,104.5647,31.5343,绵阳市,安州区旅游局,细颗粒物(PM2.5),132,142,90,100,69,15,,77,42,48,40,10,11,1.4,1.2
2026-01-09T0000,4146A,104.7092,31.4972,绵阳市,科技城新区公安局,细颗粒物(PM2.5),117,115,91,88,65,3,,82,56,77,47,3,4,1.2,0.9
2026-01-09T0000,4226A,104.765114,31.453094,绵阳市,绵阳市气象局,细颗粒物(PM2.5),97,98,82,72,60,1,,75,55,74,39,8,8,0.8,0.8
2026-01-09T0000,1784A,129.61,44.561,牡丹江市,环保大楼,颗粒物(PM10),55,59,27,30,18,15,,58,34,39,16,5,3,0.8,0.4
2026-01-09T0000,1787A,129.6364,44.6075,牡丹江市,机车工厂,颗粒物(PM10),87,123,46,56,25,4,,54,17,48,22,29,11,1.0,0.4
2026-01-09T0000,1788A,129.6386,44.5462,牡丹江市,第一中学,,42,35,25,29,23,13,,55,26,37,14,6,5,0.6,0.4
2026-01-09T0000,4287A,129.5992,44.5964,牡丹江市,东晓云街98号,细颗粒物(PM2.5),67,51,43,48,32,15,,54,21,32,18,8,6,0.9,0.6
2026-01-09T0000,2531A,105.0703,29.61,内江市,市监测站,细颗粒物(PM2.5),102,93,73,76,67,14,,94,,48,27,5,5,0.8,0.8
2026-01-09T0000,2533A,105.0657,29.5807,内江市,内江二中,细颗粒物(PM2.5),103,132,91,77,71,2,,77,42,70,45,5,5,1.1,1
2026-01-09T0000,2534A,105.0407,29.5828,内江市,内江日报社,细颗粒物(PM2.5),100,,72,75,65,4,,80,43,80,49,3,3,0.9,0.7
2026-01-09T0000,4147A,105.0433,29.6105,内江市,玉峰路西段888号,细颗粒物(PM2.5),133,130,92,101,66,10,,84,49,59,36,4,4,0.8,0.7
2026-01-09T0000,2628A,92.0653,31.4846,那曲市,那曲监测站,细颗粒物(PM2.5),119,147,70,90,35,22,,80,66,72,25,20,10,4.7,1.4
2026-01-09T0000,4243A,92.0515,31.4787,那曲市,那曲市委宣传部,细颗粒物(PM2.5),82,99,47,60,22,30,,87,75,44,19,11,8,1.9,1.2
2026-01-09T0000,1291A,115.8887,28.7006,南昌市,省林业公司,细颗粒物(PM2.5),70,73,67,51,38,2,,88,43,96,51,4,6,1.1,0.7
2026-01-09T0000,1292A,115.813,28.7443,南昌市,林科所,颗粒物(PM10),69,88,48,41,31,1,,99,44,91,39,10,8,0.6,0.5
2026-01-09T0000,1294A,115.8518,28.687,南昌市,建工学校,细颗粒物(PM2.5),72,81,66,52,40,9,,90,45,63,39,13,14,1.0,0.8
2026-01-09T0000,1295A,115.8926,28.6425,南昌市,象湖,细颗粒物(PM2.5),77,82,63,56,42,1,,91,41,95,52,10,11,1.4,1
2026-01-09T0000,3046A,115.9084,28.6062,南昌市,机电学校,颗粒物(PM10),71,91,78,44,45,3,,94,54,85,49,6,9,0.7,0.7
2026-01-09T0000,3690A,115.9718,28.7032,南昌市,外国语学校,细颗粒物(PM2.5),74,77,62,54,41,10,,98,60,85,55,14,14,0.9,0.7
2026-01-09T0000,4106A,115.7923,28.6873,南昌市,工业二路,,48,45,49,33,32,28,,125,53,69,47,4,5,0.3,0.3
2026-01-09T0000,4192A,115.931587,28.686774,南昌市,南京东路235号,细颗粒物(PM2.5),97,94,63,72,44,5,,96,48,91,56,6,7,1.3,0.6
2026-01-09T0000,1906A,106.0791,30.8022,南充市,南充市委,细颗粒物(PM2.5),108,103,95,81,75,27,,61,32,39,43,4,5,0.7,0.9
2026-01-09T0000,1907A,106.1038,30.8215,南充市,南充炼油厂,细颗粒物(PM2.5),118,108,95,89,73,40,,83,58,45,35,7,6,0.6,0.6
2026-01-09T0000,4227A,106.108336,30.788436,南充市,梨树横街98号,细颗粒物(PM2.5),120,112,87,91,64,6,,78,48,73,42,6,7,1.1,0.9
2026-01-09T0000,4304A,106.1172,30.843,南充市,清泉寺北路188号,细颗粒物(PM2.5),84,81,72,62,66,72,,97,88,22,25,6,6,0.4,0.5
2026-01-09T0000,4305A,106.067,30.7616,南充市,同庆路1号,细颗粒物(PM2.5),113,92,80,85,65,1,,71,26,73,43,6,7,1.0,1.1
2026-01-09T0000,1151A,118.8033,32.1085,南京市,迈皋桥,细颗粒物(PM2.5),70,76,78,51,50,27,,78,36,62,41,2,4,1.0,0.9
2026-01-09T0000,1152A,118.7487,32.057,南京市,草场门,细颗粒物(PM2.5),89,92,95,66,54,18,,66,33,74,52,8,10,0.6,0.6
2026-01-09T0000,1154A,118.770105,32.004342,南京市,中华门,细颗粒物(PM2.5),83,90,85,61,51,0,,68,30,84,47,5,5,0.9,0.7
2026-01-09T0000,1155A,118.8059,32.0329,南京市,瑞金路,细颗粒物(PM2.5),94,92,90,70,57,4,,61,20,105,64,4,4,1.1,1.1
2026-01-09T0000,1156A,118.7946,32.0774,南京市,玄武湖,细颗粒物(PM2.5),70,84,83,51,51,38,,64,30,32,30,4,4,0.8,0.9
2026-01-09T0000,1157A,118.6415,32.0964,南京市,浦口,颗粒物(PM10),68,86,92,45,53,19,,72,53,62,30,8,10,0.6,0.6
2026-01-09T0000,1158A,118.730129,32.000956,南京市,奥体中心,细颗粒物(PM2.5),89,86,85,66,54,19,,81,35,80,52,8,8,0.8,0.7
2026-01-09T0000,1159A,118.9072,32.1047,南京市,仙林大学城,细颗粒物(PM2.5),77,97,91,56,54,10,,65,27,75,55,6,9,1.0,1.1
2026-01-09T0000,3422A,118.8443,31.919,南京市,江宁彩虹桥,细颗粒物(PM2.5),92,100,78,68,48,0,,67,23,84,50,4,5,0.8,0.6
2026-01-09T0000,3427A,118.8497,32.3599,南京市,六合雄州,细颗粒物(PM2.5),74,82,82,54,53,9,,78,36,61,40,9,9,0.8,0.8
2026-01-09T0000,4086A,118.7641,32.0841,南京市,新模范马路66号,细颗粒物(PM2.5),94,71,96,70,60,37,,69,43,46,43,4,9,0.9,1.1
2026-01-09T0000,4249A,118.8707617,31.34017673,南京市,汶溪路181号,细颗粒物(PM2.5),82,76,66,60,51,22,,74,50,60,45,7,8,0.8,0.8
2026-01-09T0000,4312A,119.019,31.6512,南京市,中山西路1号,细颗粒物(PM2.5),99,95,72,74,56,11,,61,20,59,40,4,4,0.8,0.7
2026-01-09T0000,1401A,108.3098,22.788,南宁市,二十一中,细颗粒物(PM2.5),57,50,52,40,43,4,,83,57,70,34,5,10,0.8,0.5
2026-01-09T0000,1402A,108.3135,22.8529,南宁市,北湖,颗粒物(PM10),71,92,55,46,36,1,,93,57,80,44,13,8,0.9,0.7
2026-01-09T0000,1403A,108.3205,22.8222,南宁市,市监测站,细颗粒物(PM2.5),55,53,53,39,36,42,,89,73,53,38,16,13,0.9,0.8
2026-01-09T0000,1404A,108.3828,22.8038,南宁市,大自然花园,,45,43,49,31,35,57,,93,74,32,27,10,9,0.7,0.6
2026-01-09T0000,1406A,108.2397,22.8462,南宁市,区农职院,细颗粒物(PM2.5),53,43,47,37,35,10,,93,43,46,32,9,15,0.7,0.7
2026-01-09T0000,1407A,108.3285,22.7356,南宁市,英华嘉园,细颗粒物(PM2.5),62,58,54,44,41,3,,90,48,65,33,4,7,0.9,0.6
2026-01-09T0000,3401A,108.4829,22.762,南宁市,红星社区,细颗粒物(PM2.5),68,62,48,49,37,32,,107,81,49,27,7,8,0.7,0.6
2026-01-09T0000,4132A,108.2927,23.1477,南宁市,起凤路9号,细颗粒物(PM2.5),88,86,56,65,45,3,,94,57,52,27,2,3,0.7,0.6
2026-01-09T0000,4221A,108.2177,22.7774,南宁市,乐贤路16号,颗粒物(PM10),73,96,58,38,37,0,,90,39,62,37,2,4,0.6,0.5
2026-01-09T0000,2332A,118.1682,26.6371,南平市,南平市监测站,,36,34,37,25,27,20,,90,46,35,28,4,4,0.4,0.5
2026-01-09T0000,2334A,118.1757,26.6276,南平市,南平七中,,22,22,38,15,25,31,,89,60,33,23,5,5,0.5,0.5
2026-01-09T0000,1168A,120.9056,31.9669,南通市,狼山街道,细颗粒物(PM2.5),99,90,89,74,67,1,,78,36,67,36,2,3,0.6,0.6
2026-01-09T0000,1170A,120.8635,32.0231,南通市,城中,细颗粒物(PM2.5),74,82,102,54,67,16,,72,30,65,56,6,5,0.7,0.8
2026-01-09T0000,1171A,120.9376,31.9301,南通市,星湖花园,细颗粒物(PM2.5),55,57,88,39,60,26,,82,41,53,46,4,5,0.4,0.6
2026-01-09T0000,1172A,120.8053,32.046,南通市,紫琅学院,细颗粒物(PM2.5),104,107,117,78,80,2,,80,24,80,54,4,6,1.2,0.9
2026-01-09T0000,3291A,121.0631,32.0644,南通市,通州监测站,细颗粒物(PM2.5),64,61,90,46,67,55,,84,55,28,41,4,4,0.6,0.8
2026-01-09T0000,3432A,120.9348,31.9874,南通市,环境教育馆,细颗粒物(PM2.5),122,119,95,92,68,4,,82,36,74,53,7,6,1.0,0.7
2026-01-09T0000,4091A,120.8692,31.9885,南通市,洪江路,细颗粒物(PM2.5),82,111,99,60,68,9,,75,36,66,49,2,4,0.1,0.5
2026-01-09T0000,2404A,112.5338,33.0086,南阳市,瓦房庄,细颗粒物(PM2.5),82,98,70,60,42,5,,80,46,61,27,8,7,0.9,0.6
2026-01-09T0000,2405A,112.5002,32.9734,南阳市,汉画馆,"颗粒物(PM10),细颗粒物(PM2.5)",64,78,70,46,39,15,,78,52,52,28,6,6,0.7,0.6
2026-01-09T0000,2406A,112.5778,33.0144,南阳市,气象站,细颗粒物(PM2.5),83,97,75,61,36,9,,82,56,66,29,6,6,0.9,0.6
2026-01-09T0000,2407A,112.548,32.9687,南阳市,理工学院,颗粒物(PM10),56,61,66,36,36,64,,82,62,28,31,15,7,0.5,0.5
2026-01-09T0000,4008A,112.5233,32.9921,南阳市,卧龙区政府,颗粒物(PM10),73,95,72,51,40,16,,73,47,52,30,8,6,0.9,0.6
2026-01-09T0000,1234A,121.8352,29.9111,宁波市,区环保大楼,细颗粒物(PM2.5),99,103,86,74,54,2,,63,35,85,68,6,9,1.1,0.9
2026-01-09T0000,1235A,121.5595,29.8208,宁波市,万里学院,细颗粒物(PM2.5),89,97,74,66,51,2,,80,47,89,50,5,6,0.7,0.6
2026-01-09T0000,1236A,121.713,29.9564,宁波市,龙赛医院,细颗粒物(PM2.5),102,118,93,76,59,1,,60,42,96,62,4,6,0.9,0.7
2026-01-09T0000,1240A,121.5855,29.8635,宁波市,太古小学,细颗粒物(PM2.5),89,102,76,66,51,4,,83,51,88,47,5,5,0.9,0.7
2026-01-09T0000,1241A,121.5239,29.8673,宁波市,市环境监测中心,细颗粒物(PM2.5),79,96,76,58,46,0,,74,36,90,53,7,8,0.9,0.8
2026-01-09T0000,2871A,121.6156,29.9015,宁波市,万里国际学校,细颗粒物(PM2.5),93,92,72,69,52,17,,81,49,81,57,5,6,0.8,0.7
2026-01-09T0000,3710A,121.5593,29.8976,宁波市,白沙活动中心,细颗粒物(PM2.5),87,78,60,64,46,7,,76,41,88,51,5,6,0.9,0.7
2026-01-09T0000,4095A,121.8962,29.7529,宁波市,中科路88号,细颗粒物(PM2.5),98,93,70,73,54,9,,80,38,65,46,5,8,0.6,0.7
2026-01-09T0000,2341A,119.5387,26.6611,宁德市,宁德市监测站,,39,30,34,27,24,82,,96,90,16,20,6,7,0.4,0.5
2026-01-09T0000,3209A,119.5231,26.6562,宁德市,宁德一中,,30,28,34,21,24,74,,95,87,15,16,6,6,0.5,0.6
2026-01-09T0000,2618A,98.859,25.8541,怒江傈僳族自治州,州监测站,,50,48,36,35,23,37,,80,60,18,12,7,6,0.6,0.4
2026-01-09T0000,2619A,98.8607,25.8168,怒江傈僳族自治州,泸水一中,,42,,30,29,23,23,,68,43,24,17,6,6,0.6,0.6
2026-01-09T0000,1888A,101.6891,26.571,攀枝花市,弄弄坪,细颗粒物(PM2.5),57,54,49,40,33,29,,72,51,24,19,9,13,0.8,0.8
2026-01-09T0000,1889A,101.577,26.5914,攀枝花市,河门口,,43,42,49,30,33,45,,71,54,10,18,12,22,0.8,1.5
2026-01-09T0000,1891A,101.7365,26.4986,攀枝花市,仁和,,47,47,47,32,30,32,,65,43,14,18,8,10,0.8,0.9
2026-01-09T0000,2835A,101.7222,26.567,攀枝花市,四十中小,颗粒物(PM10),51,52,46,30,27,23,,67,50,37,17,47,20,1.3,0.9
2026-01-09T0000,1604A,122.0303,41.1489,盘锦市,开发区,细颗粒物(PM2.5),55,54,28,39,17,34,,54,42,21,15,5,4,1.2,0.9
2026-01-09T0000,1605A,122.0486,41.0883,盘锦市,兴隆台,细颗粒物(PM2.5),54,52,30,38,18,34,,56,44,34,26,5,5,0.7,0.6
2026-01-09T0000,1606A,121.8297,41.1026,盘锦市,新生街道,细颗粒物(PM2.5),64,60,35,46,19,31,,62,46,37,27,7,7,0.7,0.5
2026-01-09T0000,1832A,113.3257,33.7423,平顶山市,新华旅馆,颗粒物(PM10),59,67,81,34,29,74,,85,69,18,24,5,8,0.3,0.4
2026-01-09T0000,1833A,113.2917,33.737,平顶山市,规划设计院,颗粒物(PM10),59,68,81,33,34,68,,85,75,14,24,6,9,0.4,0.3
2026-01-09T0000,1834A,113.182,33.7738,平顶山市,平顶山工学院,颗粒物(PM10),59,67,76,34,36,68,,86,72,18,19,8,10,0.3,0.3
2026-01-09T0000,3594A,112.8736,33.9068,平顶山市,石龙区,颗粒物(PM10),53,55,81,24,31,86,,87,75,15,25,7,6,0.5,0.5
2026-01-09T0000,4116A,113.284,33.7139,平顶山市,姚电大道23号,颗粒物(PM10),80,110,109,38,40,64,,81,63,24,29,7,10,0.4,0.5
2026-01-09T0000,2656A,106.6633,35.5338,平凉市,聚贤嘉苑,颗粒物(PM10),52,53,39,32,25,44,,67,38,35,34,10,12,0.7,0.7
2026-01-09T0000,2657A,106.7021,35.5307,平凉市,博物馆,细颗粒物(PM2.5),55,45,54,39,34,41,,62,33,31,37,13,13,0.8,0.9
2026-01-09T0000,2348A,113.8384,27.6436,萍乡市,中医院,细颗粒物(PM2.5),94,99,92,70,60,6,,100,43,66,42,5,7,1.4,1.3
2026-01-09T0000,2350A,113.8677,27.6438,萍乡市,市环保局,细颗粒物(PM2.5),88,84,69,65,52,31,,108,66,54,35,16,14,0.9,0.9
2026-01-09T0000,2351A,113.8663,27.6202,萍乡市,安源区政府,细颗粒物(PM2.5),102,97,72,76,60,31,,83,52,25,27,8,10,1.1,1.5
2026-01-09T0000,4107A,113.8686,27.6668,萍乡市,联洪村委会,细颗粒物(PM2.5),87,88,75,64,54,21,,105,64,61,32,8,8,1.1,1.1
2026-01-09T0000,2319A,119.0142,25.4324,莆田市,荔城区仓后路,,36,32,39,25,26,105,,106,103,12,15,/,/,/,/
2026-01-09T0000,2320A,119.0016,25.4553,莆田市,莆田市监测站,,36,26,33,24,23,113,,109,108,9,11,3,3,0.4,0.5
2026-01-09T0000,2321A,119.112,25.4561,莆田市,涵江区六中,,35,31,37,24,25,112,,113,112,13,18,/,/,0.5,0.6
2026-01-09T0000,2322A,119.1014,25.3215,莆田市,秀屿区政府,,43,43,41,27,30,108,,114,110,11,14,2,4,0.5,0.5
2026-01-09T0000,2392A,115.0312,35.7636,濮阳市,环保局,细颗粒物(PM2.5),63,69,67,45,33,57,,66,63,21,36,8,9,0.5,0.6
2026-01-09T0000,3021A,115,35.7667,濮阳市,濮水河管理处,颗粒物(PM10),70,89,79,45,32,53,,67,60,14,24,7,9,0.7,0.8
2026-01-09T0000,4118A,115.0552,35.7816,濮阳市,中原东路68号,颗粒物(PM10),76,102,84,42,38,58,,69,65,28,39,6,9,0.4,0.5
2026-01-09T0000,4216A,115.0923632,35.76857718,濮阳市,任丘路479号,颗粒物(PM10),75,100,76,50,46,53,,65,58,22,38,6,9,0.5,0.6
2026-01-09T0000,2601A,100.9801,22.7634,普洱市,市环保局,,29,29,33,13,18,39,,52,42,4,6,4,4,0.4,0.4
2026-01-09T0000,2602A,100.9763,22.8237,普洱市,普洱第二中学,,28,26,32,19,19,35,,53,36,6,7,4,4,0.3,0.5
2026-01-09T0000,3345A,131.0413,45.7795,七台河市,中波台,,32,25,22,22,16,27,,56,38,21,16,7,8,0.4,0.3
2026-01-09T0000,3637A,131.0136,45.7688,七台河市,人民广场,,30,30,29,20,24,34,,52,36,27,22,10,9,0.6,0.5
2026-01-09T0000,3684A,130.8639,45.8144,七台河市,新建矿广场,,48,48,29,20,22,5,,52,26,50,16,12,8,0.6,0.3
2026-01-09T0000,1779A,123.9307,47.3641,齐齐哈尔市,安居小区,,34,34,31,22,13,27,,47,38,28,18,8,8,0.6,0.6
2026-01-09T0000,1780A,123.9497,47.3389,齐齐哈尔市,中心广场,,36,36,27,17,13,31,,42,36,20,19,6,6,0.5,0.6
2026-01-09T0000,1781A,123.9483,47.3229,齐齐哈尔市,农牧车辆厂,,44,44,35,12,14,35,,49,42,15,15,3,4,0.3,0.4
2026-01-09T0000,1783A,123.9442,47.2994,齐齐哈尔市,市环境监测站,,40,40,40,26,16,36,,54,44,20,15,5,7,0.6,0.6
2026-01-09T0000,3662A,123.6341,47.2079,齐齐哈尔市,富区青少年活动中心,颗粒物(PM10),51,51,45,22,17,34,,50,41,12,13,4,5,0.6,0.6
2026-01-09T0000,2591A,107.9765,26.5724,黔东南苗族侗族自治州,市环境监测站,细颗粒物(PM2.5),62,50,46,44,39,20,,76,39,36,25,4,3,0.6,0.6
2026-01-09T0000,2881A,107.8909,26.531,黔东南苗族侗族自治州,凯里学院,,43,41,45,30,35,28,,87,61,26,18,4,5,0.5,0.5
2026-01-09T0000,2593A,107.5223,26.2371,黔南布依族苗族自治州,小围寨,细颗粒物(PM2.5),55,44,47,39,42,24,,96,62,24,11,10,10,0.8,0.8
2026-01-09T0000,3538A,107.5175,26.2977,黔南布依族苗族自治州,沙坝,细颗粒物(PM2.5),55,56,57,39,42,20,,94,54,24,16,9,9,0.9,0.8
2026-01-09T0000,2589A,104.9022,25.0943,黔西南布依族苗族自治州,场坝街,细颗粒物(PM2.5),80,75,70,59,57,65,,78,71,12,15,7,16,0.7,0.6
2026-01-09T0000,2590A,104.8812,25.0994,黔西南布依族苗族自治州,坪东大道,细颗粒物(PM2.5),90,,62,67,57,64,,79,68,11,16,7,15,0.7,0.7
2026-01-09T0000,2502A,108.6238,21.9667,钦州市,市环保站,细颗粒物(PM2.5),77,100,91,56,49,52,,106,76,49,35,5,6,0.8,1.5
2026-01-09T0000,2503A,108.655,21.9481,钦州市,沙埠小学,细颗粒物(PM2.5),107,105,84,80,58,55,,110,79,51,33,14,10,1.0,0.9
2026-01-09T0000,2504A,108.5989,21.7435,钦州市,港区一小,细颗粒物(PM2.5),83,90,76,61,46,52,,99,75,45,35,10,10,0.8,0.8
2026-01-09T0000,3404A,108.5959,21.9634,钦州市,北职校,细颗粒物(PM2.5),79,92,72,58,48,41,,104,68,41,27,8,11,1.2,1
2026-01-09T0000,1046A,119.5247,39.9346,秦皇岛市,建设大厦,细颗粒物(PM2.5),83,114,69,61,40,11,,48,23,61,43,19,9,1.3,0.7
2026-01-09T0000,3132A,119.5979,39.938,秦皇岛市,文明里,颗粒物(PM10),76,101,67,43,24,12,,42,23,58,38,17,12,1.0,0.6
2026-01-09T0000,4066A,119.7458,39.9952,秦皇岛市,南园路157号,颗粒物(PM10),84,117,63,53,26,17,,47,26,53,38,17,11,1.2,0.6
2026-01-09T0000,4067A,119.5131,39.8858,秦皇岛市,翠岛大街1号,颗粒物(PM10),73,95,62,44,27,13,,48,22,51,32,20,12,0.8,0.6
2026-01-09T0000,4198A,119.509013,39.825305,秦皇岛市,北戴河轮滑馆,颗粒物(PM10),68,85,60,46,29,31,,51,34,36,32,7,7,0.6,0.4
2026-01-09T0000,1310A,120.404,36.0625,青岛市,市南区东部子站,,41,41,31,27,16,55,,63,60,23,24,15,11,0.9,0.7
2026-01-09T0000,1311A,120.362344,36.10282,青岛市,四方区子站,颗粒物(PM10),58,66,71,34,22,47,,61,55,32,30,9,7,0.9,0.7
2026-01-09T0000,1312A,120.294373,36.054183,青岛市,市南区西部子站,颗粒物(PM10),54,58,38,29,19,44,,57,53,34,28,8,6,0.8,0.6
2026-01-09T0000,1313A,120.4581,36.0858,青岛市,崂山区子站,,36,36,25,22,12,56,,66,61,21,22,16,11,0.6,0.6
2026-01-09T0000,1315A,120.3945,36.3083,青岛市,城阳区子站,颗粒物(PM10),60,70,57,27,29,31,,59,34,56,45,13,10,1.2,1
2026-01-09T0000,3642A,120.3454,36.0735,青岛市,市北区南部,,47,47,38,22,16,40,,58,51,31,25,7,4,0.8,0.6
2026-01-09T0000,3643A,120.3897,36.18,青岛市,李沧区北部,颗粒物(PM10),54,58,42,34,31,29,,58,37,53,36,22,11,1.1,1
2026-01-09T0000,4110A,120.5222,36.4089,青岛市,盟旺路653号,,49,49,56,21,29,29,,62,34,53,38,9,7,0.9,0.7
2026-01-09T0000,4290A,120.196923,35.954556,青岛市,珠江路669号,"颗粒物(PM10),细颗粒物(PM2.5)",53,56,36,37,25,48,,71,61,33,37,17,13,0.9,0.7
2026-01-09T0000,4291A,120.0424,35.8656,青岛市,黄岛区人民政府广场,颗粒物(PM10),62,73,50,29,25,50,,70,54,38,39,22,11,1.1,0.9
2026-01-09T0000,1703A,113.0218,23.7086,清远市,凤城街办,,27,22,28,13,20,86,,102,91,18,20,/,/,/,/
2026-01-09T0000,3025A,113.0479,23.6343,清远市,技师学院,,30,30,33,16,18,56,,95,83,37,24,10,9,0.3,0.4
2026-01-09T0000,3318A,112.9898,23.7403,清远市,清新太和,,30,18,26,10,18,95,,115,107,15,14,7,7,0.4,0.4
2026-01-09T0000,3455A,113.076,23.72,清远市,清城东城,,24,24,28,13,18,75,,103,97,21,17,/,/,/,/
2026-01-09T0000,2661A,107.6325,35.7357,庆阳市,庆阳五中,,50,50,45,34,23,72,,92,76,18,18,6,6,0.8,0.6
2026-01-09T0000,2662A,107.6361,35.7067,庆阳市,市环保局,,50,47,46,35,23,82,,85,85,12,19,8,13,0.5,0.5
2026-01-09T0000,1916A,103.7897,25.5036,曲靖市,环境监测站,,50,50,51,30,30,22,,50,30,23,18,2,4,0.7,0.7
2026-01-09T0000,1917A,103.8013,25.5357,曲靖市,烟厂办公区,,47,47,56,32,32,25,,46,,19,17,4,6,0.7,0.7
2026-01-09T0000,3376A,103.7926,25.4651,曲靖市,南苑二区,,43,35,51,30,35,38,,46,28,11,14,3,4,0.6,0.7
2026-01-09T0000,3377A,103.7442,25.5259,曲靖市,曲靖师范学院,,35,,46,24,34,39,,40,27,10,21,2,2,0.4,0.6
2026-01-09T0000,1264A,118.8694,28.94,衢州市,环保大楼,颗粒物(PM10),54,57,56,35,37,21,,94,44,53,35,/,/,/,/
2026-01-09T0000,1266A,118.8622,28.9809,衢州市,衢州学院,,49,49,50,25,29,4,,92,44,72,42,5,8,0.5,0.5
2026-01-09T0000,4097A,118.9646,28.9832,衢州市,衢州三中,细颗粒物(PM2.5),67,77,58,48,38,2,,94,33,70,36,6,10,0.6,0.7
2026-01-09T0000,1611A,118.5818,24.9116,泉州市,涂山街,,33,32,42,20,29,105,,106,102,11,17,4,4,0.5,0.5
2026-01-09T0000,1612A,118.597,24.8976,泉州市,津头埔,,35,32,41,24,30,100,,107,100,16,20,5,5,0.5,0.6
2026-01-09T0000,1613A,118.6669,24.9422,泉州市,万安,,36,36,41,24,27,91,,103,96,18,17,4,4,0.6,0.6
2026-01-09T0000,4105A,118.6355,24.9148,泉州市,霞新路6号,,37,37,41,23,28,102,,108,98,19,26,/,/,0.4,0.3
2026-01-09T0000,2626A,88.8873,29.2723,日喀则市,日喀则监测站,,37,37,29,19,12,54,,88,71,24,13,7,6,0.9,0.6
2026-01-09T0000,3726A,88.8775,29.2425,日喀则市,林业技术推广中心,,28,16,28,3,10,87,,92,92,4,5,9,10,0.1,0.3
2026-01-09T0000,1659A,119.4711,35.421,日照市,监测站,细颗粒物(PM2.5),75,92,53,55,29,8,,55,16,71,46,20,15,1.1,0.9
2026-01-09T0000,1660A,119.523,35.4216,日照市,市政府广场,细颗粒物(PM2.5),68,73,44,49,23,39,,54,33,46,37,16,15,0.8,0.6
2026-01-09T0000,1661A,119.5511,35.4113,日照市,港务局,细颗粒物(PM2.5),70,80,49,51,30,28,,56,27,60,36,14,13,0.8,0.7
2026-01-09T0000,3507A,119.5326,35.4627,日照市,职业技术学院,颗粒物(PM10),65,80,46,46,22,40,,58,35,50,38,18,13,1.1,0.8
2026-01-09T0000,3604A,119.3267,35.1043,日照市,岚山环保分局,细颗粒物(PM2.5),72,83,62,52,39,24,,64,35,68,46,14,28,0.8,1.8
2026-01-09T0000,1835A,111.1922,34.7752,三门峡市,市政府,,46,46,61,29,34,1,,67,24,63,44,11,14,0.5,0.6
2026-01-09T0000,1836A,111.1588,34.794,三门峡市,开发区,颗粒物(PM10),58,65,67,34,30,11,,69,40,49,37,6,7,0.6,0.5
2026-01-09T0000,3039A,111.1911,34.7829,三门峡市,三门峡市第一小学,颗粒物(PM10),54,57,68,33,29,1,,65,28,68,43,10,12,0.6,0.6
2026-01-09T0000,3598A,111.1031,34.719,三门峡市,富达温泉假日酒店,颗粒物(PM10),54,58,70,31,31,13,,65,38,47,29,13,12,1.0,0.8
2026-01-09T0000,2324A,117.621,26.2626,三明市,三钢,,38,30,40,26,27,31,,94,53,34,27,5,7,0.6,1.4
2026-01-09T0000,2325A,117.6352,26.2714,三明市,三明二中,,35,30,34,24,25,27,,90,54,31,23,4,5,0.5,0.9
2026-01-09T0000,2326A,117.6028,26.2377,三明市,三元区政府,,43,43,42,28,28,17,,87,39,40,28,7,7,0.7,0.9
2026-01-09T0000,1877A,109.4962,18.2682,三亚市,河西子站,颗粒物(PM10),51,52,45,20,24,99,,122,104,11,12,7,7,0.6,0.6
2026-01-09T0000,3540A,109.7348,18.3443,三亚市,君悦子站,,37,37,43,22,25,100,,114,108,9,11,6,7,0.5,0.6
2026-01-09T0000,4135A,109.1714,18.3739,三亚市,城东小学站,细颗粒物(PM2.5),53,39,40,37,30,76,,116,96,11,11,/,/,/,/
2026-01-09T0000,2624A,91.7592,29.234,山南市,山南监测站,颗粒物(PM10),66,81,52,38,18,44,,87,76,24,12,6,5,0.7,0.4
2026-01-09T0000,2625A,91.7701,29.2436,山南市,山南人民医院,颗粒物(PM10),56,61,42,12,12,58,,80,72,11,11,4,6,0.4,0.4
2026-01-09T0000,1674A,116.6795,23.3666,汕头市,金平子站,,41,41,47,23,29,97,,107,104,18,26,5,9,0.7,0.8
2026-01-09T0000,1675A,116.7248,23.3632,汕头市,龙湖子站,,38,38,42,19,25,96,,106,104,14,20,12,12,/,/
2026-01-09T0000,1676A,116.7257,23.2774,汕头市,濠江子站,,39,39,42,23,28,99,,112,110,14,20,12,10,/,/
2026-01-09T0000,1677A,116.7518,23.4712,汕头市,澄海子站,,44,44,46,25,29,99,,110,107,15,22,7,10,0.3,0.4
2026-01-09T0000,1678A,116.6088,23.2539,汕头市,潮阳子站,,34,34,43,15,23,107,,115,114,13,22,8,9,0.4,0.5
2026-01-09T0000,3444A,116.4539,23.2684,汕头市,潮南峡山,,46,46,52,23,31,93,,113,101,16,22,9,11,0.5,0.6
2026-01-09T0000,3624A,116.4069,23.2533,汕头市,潮南子站,颗粒物(PM10),57,63,68,29,38,82,,102,96,24,29,11,9,/,/
2026-01-09T0000,1693A,115.3653,22.7751,汕尾市,市环保局,细颗粒物(PM2.5),52,46,29,36,18,73,,91,88,24,13,8,8,0.6,0.4
2026-01-09T0000,1695A,115.362,22.7926,汕尾市,新城中学,,50,48,29,35,18,82,,88,68,18,15,6,6,0.6,0.5
2026-01-09T0000,2645A,109.9155,33.8714,商洛市,监测站,,39,39,37,25,22,19,,72,32,43,33,6,6,0.5,0.4
2026-01-09T0000,3045A,109.9647,33.8486,商洛市,商州区中学,,36,35,46,25,20,7,,65,24,52,38,7,7,0.7,0.6
2026-01-09T0000,2408A,115.6701,34.4283,商丘市,环境监测站,细颗粒物(PM2.5),87,78,77,64,59,84,,82,80,16,37,5,6,0.2,0.3
2026-01-09T0000,2409A,115.6458,34.4047,商丘市,粮食局,细颗粒物(PM2.5),84,90,73,62,50,76,,80,78,14,28,5,8,0.2,0.4
2026-01-09T0000,3171A,115.6069,34.4465,商丘市,梁园区档案局,细颗粒物(PM2.5),93,100,74,69,54,65,,73,69,20,36,7,8,0.4,0.5
2026-01-09T0000,4119A,115.6701,34.3767,商丘市,北海东路185号,细颗粒物(PM2.5),90,122,92,67,52,55,,74,57,31,35,4,6,0.5,0.6
2026-01-09T0000,4120A,115.6172,34.3704,商丘市,中山大街3号,细颗粒物(PM2.5),108,135,101,81,59,43,,68,51,30,35,6,6,0.4,0.5
2026-01-09T0000,1141A,121.401,31.2382,上海市,普陀,细颗粒物(PM2.5),93,85,101,69,74,6,,76,33,94,73,7,8,0.9,1
2026-01-09T0000,1142A,121.4774,31.2043,上海市,十五厂,细颗粒物(PM2.5),68,73,96,49,68,34,,82,56,62,62,7,9,0.8,1
2026-01-09T0000,1143A,121.4673,31.3011,上海市,虹口,细颗粒物(PM2.5),68,79,104,49,66,4,,70,27,86,62,7,9,0.7,0.9
2026-01-09T0000,1147A,121.4253,31.226,上海市,静安监测站,细颗粒物(PM2.5),70,74,95,51,67,32,,84,47,58,66,7,9,0.6,0.8
2026-01-09T0000,1148A,121.7029,31.1905,上海市,浦东川沙,"颗粒物(PM10),细颗粒物(PM2.5)",67,84,94,48,61,8,,80,34,80,62,7,8,0.6,0.8
2026-01-09T0000,1149A,121.5339,31.229,上海市,浦东新区监测站,细颗粒物(PM2.5),73,75,94,53,73,40,,77,46,57,68,7,9,0.7,1
2026-01-09T0000,1150A,121.5776,31.2038,上海市,浦东张江,细颗粒物(PM2.5),65,78,97,47,62,15,,77,40,72,60,7,8,0.7,0.8
2026-01-09T0000,3265A,121.4242,31.3303,上海市,宝山庙行,细颗粒物(PM2.5),79,90,102,58,74,2,,78,20,92,72,7,9,0.7,0.8
2026-01-09T0000,3266A,121.8789,31.4662,上海市,崇明上实东滩,颗粒物(PM10),51,52,100,34,61,43,,80,49,11,19,4,5,0.6,0.7
2026-01-09T0000,3268A,121.316,31.2839,上海市,嘉定南翔,细颗粒物(PM2.5),95,96,101,71,73,2,,72,24,82,64,5,7,0.9,0.9
2026-01-09T0000,3269A,121.3357,30.7455,上海市,金山新城,细颗粒物(PM2.5),75,59,78,55,68,41,,71,45,36,54,8,11,0.4,0.6
