timepoint,stationcode,longitude,latitude,area,positionname,primarypollutant,aqi,pm10,pm10_24h,pm2_5,pm2_5_24h,o3,o3_24h,o3_8h,o3_8h_24h,no2,no2_24h,so2,so2_24h,co,co_24h
2026-01-09T1800,2568A,102.2503,31.8896,阿坝藏族羌族自治州,马师校,,29,26,23,20,17,64,,69,69,16,15,4,4,0.4,0.5
2026-01-09T1800,3994A,102.2174,31.9016,阿坝藏族羌族自治州,马尔康中学西区,,25,22,11,17,10,62,,68,68,17,14,6,6,0.5,0.5
2026-01-09T1800,2695A,80.2899,41.1684,阿克苏地区,电视台,,,,104,,66,,,37,37,21,47,5,5,0.8,1.3
2026-01-09T1800,2696A,80.2592,41.1541,阿克苏地区,艺术中心,细颗粒物(PM2.5),84,81,94,62,68,82,,46,46,17,36,5,4,0.7,1
2026-01-09T1800,2205A,105.699,38.8409,阿拉善盟,蒙二幼,颗粒物(PM10),128,205,183,32,29,77,,81,80,10,9,9,9,0.6,0.6
2026-01-09T1800,2206A,105.7198,38.8508,阿拉善盟,环保局新楼,颗粒物(PM10),118,186,158,36,32,76,,80,78,6,6,8,8,0.5,0.6
2026-01-09T1800,2708A,88.1266,47.8515,阿勒泰地区,市站,,36,,27,25,16,33,,50,50,45,36,3,2,0.7,0.5
2026-01-09T1800,4166A,88.1198,47.7931,阿勒泰地区,阿勒泰路33号,,48,43,32,33,21,48,,59,52,30,26,2,3,0.7,0.6
2026-01-09T1800,2630A,80.1171,32.4999,阿里地区,阿里监测站,,23,6,3,3,3,71,,60,60,1,9,4,7,0.3,0.5
2026-01-09T1800,3192A,80.0906,32.5029,阿里地区,阿里藏医院,,25,6,13,3,8,80,,64,64,1,8,8,13,0.5,0.7
2026-01-09T1800,2644A,109.0088,32.6974,安康市,汉滨区检察院,细颗粒物(PM2.5),77,75,54,56,38,69,,56,56,37,25,6,5,0.9,0.6
2026-01-09T1800,4054A,109.0324,32.6913,安康市,市邮政管理局,细颗粒物(PM2.5),93,99,64,69,46,28,,43,43,61,32,7,9,1.6,0.9
2026-01-09T1800,2291A,117.0806,30.5181,安庆市,环科院,颗粒物(PM10),54,57,65,37,43,99,,97,97,21,42,7,7,0.3,0.4
2026-01-09T1800,2292A,117.0331,30.5118,安庆市,马山宾馆,"颗粒物(PM10),细颗粒物(PM2.5)",52,54,64,36,40,80,,88,88,39,46,6,6,0.5,0.5
2026-01-09T1800,2294A,116.9897,30.6146,安庆市,安庆大学,细颗粒物(PM2.5),54,55,65,38,44,100,,98,98,25,34,6,5,0.6,0.6
2026-01-09T1800,3173A,117.0598,30.5351,安庆市,市人大,,50,49,72,35,45,93,,97,97,32,50,8,8,0.4,0.5
2026-01-09T1800,3123A,105.9408,26.2431,安顺市,凤凰山,细颗粒物(PM2.5),103,83,56,77,50,74,,73,73,20,22,22,27,0.6,0.6
2026-01-09T1800,3124A,105.9443,26.2567,安顺市,金钟山,细颗粒物(PM2.5),112,84,54,84,49,75,,73,72,15,17,29,28,0.7,0.8
2026-01-09T1800,3125A,105.8983,26.248,安顺市,娄家坡,细颗粒物(PM2.5),100,77,54,75,47,72,,78,72,18,16,17,19,0.8,0.7
2026-01-09T1800,1819A,114.3552,36.1017,安阳市,红庙街,颗粒物(PM10),87,123,76,11,28,72,,75,75,14,23,14,4,0.7,0.6
2026-01-09T1800,1820A,114.361,36.0681,安阳市,银杏小区,,,115,79,13,35,78,,79,79,,29,3,5,0.3,0.5
2026-01-09T1800,3141A,114.3921,36.0879,安阳市,信访局,颗粒物(PM10),85,120,75,24,34,78,,80,80,10,22,11,7,0.7,0.6
2026-01-09T1800,3669A,114.4706,36.0634,安阳市,左辅环卫站,颗粒物(PM10),88,126,95,13,41,83,,80,80,6,28,7,6,0.4,0.5
2026-01-09T1800,4117A,114.2918,36.0769,安阳市,钢三路198号,颗粒物(PM10),68,86,72,22,29,68,,70,70,22,27,2,4,0.3,0.5
2026-01-09T1800,1748A,123.0441,41.1201,鞍山市,深沟寺,细颗粒物(PM2.5),65,69,64,47,40,53,,57,57,25,20,7,9,0.9,0.8
2026-01-09T1800,1749A,123.011,41.0931,鞍山市,太阳城,细颗粒物(PM2.5),69,79,69,50,39,55,,59,59,28,21,10,13,0.9,0.9
2026-01-09T1800,1750A,123.0483,41.1445,鞍山市,太平,细颗粒物(PM2.5),70,85,79,51,40,49,,52,52,36,24,10,11,0.9,0.7
2026-01-09T1800,1751A,122.964,41.0968,鞍山市,铁西三道街,细颗粒物(PM2.5),84,107,95,62,48,30,,51,50,59,32,27,19,1.1,1.2
2026-01-09T1800,1753A,123.0219,41.0822,鞍山市,明达新区,细颗粒物(PM2.5),69,77,73,50,41,55,,60,60,22,17,12,13,0.7,0.6
2026-01-09T1800,4201A,122.944647,41.082639,鞍山市,兴盛南路290号,细颗粒物(PM2.5),73,90,83,53,44,52,,52,52,34,30,11,15,0.6,0.8
2026-01-09T1800,2195A,107.4206,40.7609,巴彦淖尔市,附二中,颗粒物(PM10),82,113,364,45,62,64,,67,67,7,6,4,3,0.4,0.4
2026-01-09T1800,2196A,107.37,40.7372,巴彦淖尔市,市环保大楼,颗粒物(PM10),86,122,338,39,52,72,,75,75,6,6,4,4,0.4,0.4
2026-01-09T1800,1956A,86.1476,41.7529,巴音郭楞蒙古自治州,孔雀公园,细颗粒物(PM2.5),89,95,156,66,47,72,,52,52,22,31,8,7,0.6,0.7
2026-01-09T1800,1957A,86.1971,41.7166,巴音郭楞蒙古自治州,棉纺厂,颗粒物(PM10),99,148,200,46,36,53,,48,48,38,31,/,/,/,/
2026-01-09T1800,1958A,86.236,41.7172,巴音郭楞蒙古自治州,经济开发区,颗粒物(PM10),86,121,156,50,36,54,,54,54,29,19,6,5,0.7,0.6
2026-01-09T1800,3181A,106.776805,31.852614,巴中市,市五中,细颗粒物(PM2.5),85,82,90,63,69,92,,65,65,21,29,6,5,0.9,1
2026-01-09T1800,3183A,106.7419,31.8654,巴中市,圣泉水务公司,细颗粒物(PM2.5),87,74,73,64,59,76,,74,74,39,32,5,4,0.8,0.7
2026-01-09T1800,3616A,106.7617,31.8343,巴中市,市中心医院,细颗粒物(PM2.5),84,78,88,62,70,78,,69,69,31,34,8,7,1.0,1
2026-01-09T1800,2235A,122.7909,45.608,白城市,洮北区环保局,,44,44,50,28,28,43,,47,47,21,18,7,6,0.3,0.3
2026-01-09T1800,2236A,122.8741,45.5725,白城市,市环保局,,35,29,52,24,25,47,,49,49,13,18,5,5,0.3,0.3
2026-01-09T1800,2231A,126.4219,41.9172,白山市,喜丰,颗粒物(PM10),60,69,79,39,36,50,,48,48,18,43,10,17,0.9,1.1
2026-01-09T1800,2232A,126.4082,41.9416,白山市,环保局,细颗粒物(PM2.5),69,54,55,50,40,18,,40,40,43,36,12,14,1.4,1.2
2026-01-09T1800,2647A,104.1727,36.5448,白银市,第三小学,颗粒物(PM10),52,53,59,15,35,81,,69,69,12,39,4,27,0.4,1
2026-01-09T1800,2648A,104.1467,36.5482,白银市,动力公司,颗粒物(PM10),54,58,49,15,28,80,,80,80,10,30,4,16,0.4,0.9
2026-01-09T1800,2512A,106.6102,23.901,百色市,市监测站,,39,35,70,27,56,98,,67,67,14,26,10,14,0.6,1.1
2026-01-09T1800,2513A,106.6524,23.8842,百色市,市中心血站,,37,37,84,24,60,97,,71,71,17,39,8,19,0.5,0.9
2026-01-09T1800,4133A,106.6273,23.8798,百色市,龙景西路,,49,49,89,22,52,110,,85,85,12,32,10,16,0.5,0.8
2026-01-09T1800,2270A,117.396,32.9389,蚌埠市,工人疗养院,,,70,91,27,46,96,,91,91,,30,5,7,,0.6
2026-01-09T1800,2271A,117.3606,32.9428,蚌埠市,百货大楼,颗粒物(PM10),57,63,78,29,47,94,,91,91,18,31,8,8,0.5,0.6
2026-01-09T1800,2273A,117.4183,32.8909,蚌埠市,蚌埠学院,细颗粒物(PM2.5),70,75,87,51,53,81,,98,98,29,33,9,7,0.5,0.6
2026-01-09T1800,2274A,117.3534,32.9672,蚌埠市,淮上区政府,颗粒物(PM10),58,66,84,35,50,91,,95,95,23,30,3,4,0.6,0.6
2026-01-09T1800,2275A,117.3143,32.8977,蚌埠市,高新区,颗粒物(PM10),58,66,93,34,55,77,,72,72,24,41,8,8,0.4,0.4
2026-01-09T1800,3715A,117.3091,32.9314,蚌埠市,蚌埠田家炳中学,颗粒物(PM10),62,74,100,43,59,75,,84,84,35,44,7,10,0.5,0.6
2026-01-09T1800,1585A,109.8761,40.6533,包头市,市环境监测站,颗粒物(PM10),78,105,296,3,32,69,,72,72,13,38,3,10,0.6,1.4
2026-01-09T1800,1587A,109.9992,40.5843,包头市,包头八中,颗粒物(PM10),78,106,232,16,44,68,,71,70,15,35,3,6,0.3,0.6
2026-01-09T1800,1589A,109.8641,40.6288,包头市,惠龙物流,颗粒物(PM10),84,117,283,10,36,69,,70,70,14,32,8,15,0.3,0.8
2026-01-09T1800,1590A,110.0376,40.5546,包头市,东河鸿龙湾,颗粒物(PM10),84,117,216,15,36,74,,74,74,7,41,6,9,0.4,1
2026-01-09T1800,3283A,109.9154,40.5684,包头市,滨河大厦,颗粒物(PM10),82,114,227,15,34,69,,71,71,6,15,5,6,0.5,0.5
2026-01-09T1800,3419A,109.9449,40.6259,包头市,包头市委党校,颗粒物(PM10),63,75,231,3,39,70,,71,71,10,28,6,12,0.4,0.8
2026-01-09T1800,3683A,109.8332,40.6577,包头市,昆区政府,颗粒物(PM10),69,87,252,12,39,71,,71,71,14,46,6,14,0.5,1.4
2026-01-09T1800,1931A,107.0802,34.3129,宝鸡市,竹园沟,颗粒物(PM10),53,55,40,34,31,46,,69,69,29,22,6,6,0.4,0.4
2026-01-09T1800,1933A,107.1429,34.3549,宝鸡市,监测站,,34,34,53,22,38,55,,58,58,43,34,5,5,0.6,0.5
2026-01-09T1800,1934A,107.1172,34.3759,宝鸡市,技工学校,,36,36,58,18,37,65,,59,59,34,26,6,6,0.4,0.6
2026-01-09T1800,1936A,107.2025,34.3518,宝鸡市,文理学院,,34,34,51,21,36,67,,62,62,28,32,4,5,0.4,0.5
2026-01-09T1800,1937A,107.2396,34.3626,宝鸡市,三迪小学,,40,40,60,18,42,70,,61,61,40,39,4,5,0.3,0.5
2026-01-09T1800,4155A,107.1721,34.3558,宝鸡市,滨河北路,,31,31,56,16,34,53,,60,60,49,31,6,5,0.3,0.5
2026-01-09T1800,4308A,107.3898,34.3601,宝鸡市,陈仓区北开路21号,,,66,75,22,50,,,77,77,53,37,7,36,0,0.4
2026-01-09T1800,1051A,115.4803,38.8568,保定市,游泳馆,颗粒物(PM10),195,339,122,40,59,78,,49,49,7,39,6,13,0.2,0.6
2026-01-09T1800,1052A,115.509,38.8895,保定市,华电二区,颗粒物(PM10),172,293,113,55,59,72,,41,41,1,38,3,5,0.4,0.9
2026-01-09T1800,1053A,115.4588,38.9037,保定市,接待中心,颗粒物(PM10),160,269,118,46,57,77,,47,47,4,40,3,4,0.1,0.5
2026-01-09T1800,1054A,115.4484,38.8344,保定市,地表水厂,颗粒物(PM10),289,412,157,47,61,79,,50,50,13,43,3,6,0.1,0.6
2026-01-09T1800,3581A,115.3136,38.9511,保定市,满城区生态环境分局,颗粒物(PM10),240,378,161,36,64,81,,54,54,13,48,1,7,0.4,0.9
2026-01-09T1800,3582A,115.4709,38.7628,保定市,清苑区第二中学,颗粒物(PM10),472,572,160,52,55,75,,49,49,7,33,5,10,0.2,0.7
2026-01-09T1800,3583A,115.6231,39.0223,保定市,徐水物探局,颗粒物(PM10),296,417,148,50,65,76,,43,43,7,43,3,10,,0.8
2026-01-09T1800,4004A,115.4199,38.8665,保定市,双鹰农机,颗粒物(PM10),375,480,155,49,53,85,,57,57,6,39,4,8,0.2,0.7
2026-01-09T1800,4034A,115.515,38.8589,保定市,植保所站,颗粒物(PM10),168,285,119,48,59,74,,41,41,6,47,3,5,0.2,0.8
2026-01-09T1800,2594A,99.1589,25.1137,保山市,市环境监测站,,28,25,26,10,21,89,,82,82,6,9,2,3,0.2,0.3
2026-01-09T1800,2595A,99.1616,25.1381,保山市,市环保局,,39,31,30,27,22,91,,82,82,4,6,4,4,0.4,0.4
2026-01-09T1800,1867A,109.1435,21.4085,北海市,海滩公园,,45,40,53,22,36,141,,125,125,16,17,10,15,0.9,0.8
2026-01-09T1800,1868A,109.0983,21.466,北海市,新市环保局,,40,33,54,24,43,125,,122,122,23,22,4,8,0.4,0.6
2026-01-09T1800,1869A,109.1775,21.5232,北海市,北海工业园,,48,48,61,27,46,121,,115,115,23,22,8,13,0.6,0.6
2026-01-09T1800,3400A,109.1844,21.4396,北海市,龙潭自来水厂,,43,31,69,22,52,135,,118,118,20,23,9,11,0.5,0.7
2026-01-09T1800,1001A,116.3611,39.8786,北京市,万寿西宫,颗粒物(PM10),91,132,119,43,55,35,,16,16,51,67,2,4,0.5,0.8
2026-01-09T1800,1003A,116.4174,39.9289,北京市,东四,颗粒物(PM10),99,148,123,27,53,55,,23,23,27,61,4,6,0.3,0.7
2026-01-09T1800,1004A,116.4073,39.8858,北京市,天坛,颗粒物(PM10),88,126,108,34,53,37,,17,17,45,62,2,3,0.6,0.8
2026-01-09T1800,1005A,116.4622,39.9364,北京市,农展馆,颗粒物(PM10),91,132,123,32,57,66,,24,24,11,56,3,6,0.5,1
2026-01-09T1800,1006A,116.3399,39.9293,北京市,官园,颗粒物(PM10),106,162,121,39,55,52,,20,20,30,60,3,6,0.6,0.9
2026-01-09T1800,1007A,116.2879,39.9613,北京市,海淀万柳,颗粒物(PM10),96,141,105,22,48,63,,23,23,16,65,2,4,0.4,0.9
2026-01-09T1800,1008A,116.6635,40.1349,北京市,顺义新城,颗粒物(PM10),100,150,114,27,56,50,,29,29,32,58,3,5,0.5,0.9
2026-01-09T1800,1009A,116.6275,40.327,北京市,怀柔镇,颗粒物(PM10),78,106,82,27,48,59,,32,32,24,48,6,7,0.5,0.8
2026-01-09T1800,1010A,116.2295,40.217,北京市,昌平镇,颗粒物(PM10),113,176,92,23,43,71,,36,36,11,47,4,6,0.4,0.9
2026-01-09T1800,1011A,116.3968,39.982,北京市,奥体中心,颗粒物(PM10),104,158,120,26,56,74,,29,29,12,57,2,5,0.5,1.1
2026-01-09T1800,3418A,116.8336,40.4095,北京市,密云新城,颗粒物(PM10),103,155,99,73,50,11,,29,29,72,48,6,4,0.8,0.7
2026-01-09T1800,3671A,116.0879,39.9725,北京市,门头沟三家店,颗粒物(PM10),116,182,93,22,42,76,,39,39,6,41,2,3,0.4,0.7
2026-01-09T1800,3672A,116.1507,39.8246,北京市,丰台云岗,颗粒物(PM10),96,142,109,25,47,83,,32,32,8,53,2,4,0.3,0.8
2026-01-09T1800,3674A,115.9578,39.7602,北京市,房山燕山,颗粒物(PM10),95,139,109,22,58,74,,45,45,9,35,3,6,0.2,0.6
2026-01-09T1800,3675A,116.4669,39.7734,北京市,大兴旧宫,颗粒物(PM10),98,146,131,67,54,6,,20,19,70,51,4,4,0.8,0.8
2026-01-09T1800,3694A,115.9859,40.4562,北京市,延庆石河营,颗粒物(PM10),119,188,90,15,34,79,,66,66,5,34,2,3,0.3,0.7
2026-01-09T1800,3695A,116.6151,40.3052,北京市,怀柔新城,颗粒物(PM10),71,92,83,21,46,57,,29,29,19,39,4,5,0.3,0.6
2026-01-09T1800,3696A,116.2542,39.8764,北京市,丰台小屯,颗粒物(PM10),86,121,122,31,52,44,,15,15,35,68,4,5,0.5,0.9
2026-01-09T1800,3697A,116.8399,40.3843,北京市,密云镇,颗粒物(PM10),100,149,101,72,54,5,,25,24,75,54,4,3,0.9,0.8
2026-01-09T1800,4057A,115.9423,40.4431,北京市,延庆百泉,颗粒物(PM10),136,222,97,15,33,67,,57,57,2,27,2,3,0.3,0.6
2026-01-09T1800,4058A,116.6598,39.9164,北京市,通州新华,颗粒物(PM10),102,154,142,30,59,34,,21,21,54,67,4,5,0.4,0.7
2026-01-09T1800,4182A,116.1942,39.9158,北京市,石景山八角,颗粒物(PM10),86,122,113,19,48,63,,23,23,19,64,3,2,0.2,0.8
2026-01-09T1800,4194A,117.078628,40.151726,北京市,平谷新城,细颗粒物(PM2.5),117,161,111,88,62,13,,28,28,77,50,4,3,0.9,0.8
2026-01-09T1800,1761A,123.8274146,41.31234549,本溪市,大峪,细颗粒物(PM2.5),82,101,65,60,34,49,,54,54,40,23,11,11,0.9,0.8
2026-01-09T1800,1763A,123.7169,41.3094,本溪市,彩屯,细颗粒物(PM2.5),84,103,63,62,35,44,,44,44,37,40,14,19,2.6,3.4
2026-01-09T1800,1764A,123.7672166,41.28649327,本溪市,东明,细颗粒物(PM2.5),73,78,60,53,30,66,,62,62,23,14,11,10,0.8,0.7
2026-01-09T1800,1765A,123.799345,41.266614,本溪市,新立屯,颗粒物(PM10),57,63,51,39,30,71,,60,60,23,17,12,12,0.9,0.9
2026-01-09T1800,1766A,123.829144,41.336777,本溪市,威宁,细颗粒物(PM2.5),82,92,70,60,35,32,,45,45,47,28,11,10,1.0,0.8
2026-01-09T1800,2587A,105.287,27.3133,毕节市,八中,细颗粒物(PM2.5),133,124,69,101,57,54,,68,64,39,18,19,15,0.9,0.7
2026-01-09T1800,2588A,105.3079,27.2987,毕节市,师专,细颗粒物(PM2.5),128,117,65,97,54,66,,76,66,35,20,17,13,0.8,0.6
2026-01-09T1800,4263A,105.3688,27.3598,毕节市,工业大道,细颗粒物(PM2.5),102,102,64,76,49,61,,68,67,33,17,18,14,/,/
2026-01-09T1800,1629A,117.9961,37.3604,滨州市,第二水厂,颗粒物(PM10),79,107,94,46,42,49,,59,59,32,40,13,14,0.5,0.6
2026-01-09T1800,1630A,117.9789,37.3931,滨州市,北中新校,颗粒物(PM10),75,100,83,46,44,52,,62,62,37,42,11,12,0.6,0.6
2026-01-09T1800,3514A,117.9379,37.3959,滨州市,中海酒店,颗粒物(PM10),78,105,88,46,46,52,,64,64,34,30,12,14,0.7,0.7
2026-01-09T1800,3515A,117.9381509,37.35547456,滨州市,开发区一中,颗粒物(PM10),85,119,96,48,46,42,,61,61,34,37,18,20,0.7,0.7
2026-01-09T1800,3516A,118.0914,37.6938,滨州市,金海六路,颗粒物(PM10),97,144,95,51,39,37,,64,64,53,47,8,8,0.8,0.8
2026-01-09T1800,4028A,117.9955,37.3752,滨州市,滨州市西街道办事处,颗粒物(PM10),81,112,92,46,47,54,,65,65,27,33,11,14,0.6,0.5
2026-01-09T1800,2311A,115.8071,33.8399,亳州市,污水处理厂,颗粒物(PM10),59,68,80,23,41,70,,78,78,25,14,3,6,0.3,0.4
2026-01-09T1800,2312A,115.7789,33.8519,亳州市,三国揽胜宫,颗粒物(PM10),56,62,82,32,45,75,,79,78,22,21,6,6,0.3,0.5
2026-01-09T1800,3332A,115.7631,33.803,亳州市,亳州学院,颗粒物(PM10),53,56,79,25,49,76,,79,79,24,24,3,5,0.1,0.3
2026-01-09T1800,2693A,82.0482,44.8553,博尔塔拉蒙古自治州,市党校,细颗粒物(PM2.5),128,125,121,97,76,62,,71,70,38,28,7,4,1.3,1
2026-01-09T1800,2694A,82.0805,44.8966,博尔塔拉蒙古自治州,市环保局,"颗粒物(PM10),细颗粒物(PM2.5)",85,120,114,63,59,60,,68,63,32,31,5,7,1.4,1.2
2026-01-09T1800,1071A,116.8733,38.2922,沧州市,沧县城建局,颗粒物(PM10),128,205,105,51,53,48,,56,56,40,32,6,6,0.5,0.5
2026-01-09T1800,1072A,116.8462,38.3189,沧州市,电视转播站,颗粒物(PM10),113,175,101,48,53,46,,52,52,38,33,1,5,0.5,0.6
2026-01-09T1800,1073A,116.8588,38.3161,沧州市,市环保局,颗粒物(PM10),127,204,103,53,57,46,,52,52,32,29,7,8,0.5,0.6
2026-01-09T1800,3324A,116.8011,38.294,沧州市,河北水利电力学院,颗粒物(PM10),153,256,119,50,47,41,,50,49,42,38,7,10,0.4,0.6
2026-01-09T1800,2622A,97.1813,31.1289,昌都市,昌都监测站,,,37,45,,19,40,,66,66,40,23,2,3,0.6,0.9
2026-01-09T1800,3719A,97.1707,31.1428,昌都市,昌都会议中心,,24,19,16,8,9,74,,70,70,2,4,1,1,0.2,0.3
2026-01-09T1800,2692A,87.2722,44.0298,昌吉回族自治州,新区政务中心,细颗粒物(PM2.5),80,84,93,59,65,61,,53,53,23,46,7,7,1.0,1.2
2026-01-09T1800,3613A,87.3069,44.0093,昌吉回族自治州,亚心广场,细颗粒物(PM2.5),83,68,91,61,67,77,,57,57,10,37,7,7,0.7,0.9
2026-01-09T1800,4164A,87.2057,43.9289,昌吉回族自治州,财政所,细颗粒物(PM2.5),85,75,66,63,49,58,,59,59,24,18,5,5,0.7,0.7
2026-01-09T1800,1120A,125.2874,43.9024,长春市,客车厂,细颗粒物(PM2.5),53,41,57,37,48,39,,30,30,33,37,10,13,0.5,0.6
2026-01-09T1800,1121A,125.2943,43.8508,长春市,邮电学院,,,,58,,38,43,,32,32,,34,11,15,,0.6
2026-01-09T1800,1122A,125.3648,43.8745,长春市,劳动公园,细颗粒物(PM2.5),67,71,63,48,36,35,,36,36,40,31,10,11,0.7,0.7
2026-01-09T1800,1123A,125.3233,43.8781,长春市,园林处,细颗粒物(PM2.5),54,48,55,38,35,43,,32,32,25,28,9,11,0.6,0.7
2026-01-09T1800,1124A,125.4604,43.7904,长春市,净月潭,细颗粒物(PM2.5),80,66,51,59,40,39,,39,38,29,22,7,8,0.6,0.6
2026-01-09T1800,1126A,125.38,43.8422,长春市,经开区环卫处,,45,45,60,31,31,43,,31,31,31,34,6,9,0.5,0.6
2026-01-09T1800,1127A,125.234,43.7761,长春市,高新区管委会,细颗粒物(PM2.5),58,43,54,41,37,27,,30,28,45,34,8,8,0.7,0.7
2026-01-09T1800,1128A,125.1695,43.83,长春市,岱山公园,,49,38,58,34,42,20,,28,24,58,42,6,8,0.5,0.6
2026-01-09T1800,4281A,125.334645,43.916281,长春市,北亚泰大街1068号,细颗粒物(PM2.5),53,46,57,37,41,43,,36,36,27,14,6,11,0.6,0.7
2026-01-09T1800,1335A,113.082,28.2421,长沙市,经开区环保局,颗粒物(PM10),52,54,67,35,44,96,,89,89,30,46,7,6,0.7,0.6
2026-01-09T1800,1336A,112.8873,28.2202,长沙市,高开区环保局,细颗粒物(PM2.5),57,47,72,40,54,96,,82,82,18,48,7,8,0.6,0.7
2026-01-09T1800,1337A,113.0785,28.2012,长沙市,马坡岭,,50,49,77,35,54,99,,90,90,27,43,8,6,0.8,0.8
2026-01-09T1800,1338A,112.9448,28.1894,长沙市,湖南师范大学,,50,44,64,35,41,93,,88,88,36,50,7,7,0.7,0.7
2026-01-09T1800,1339A,113.0177,28.1322,长沙市,雨花区环保局,,40,40,66,24,43,106,,89,89,21,47,12,10,0.6,0.7
2026-01-09T1800,1340A,112.9795,28.2593,长沙市,伍家岭,细颗粒物(PM2.5),54,51,93,38,58,91,,85,85,33,52,6,6,0.5,0.6
2026-01-09T1800,1341A,113.002,28.1944,长沙市,火车新站,,,,80,,55,89,,94,94,30,56,11,10,0.6,0.8
2026-01-09T1800,1342A,112.9846,28.1177,长沙市,天心区环保局,,43,43,64,30,45,109,,95,95,26,50,10,8,0.9,0.8
2026-01-09T1800,1343A,112.8906,28.1307,长沙市,湖南中医药大学,细颗粒物(PM2.5),53,49,73,37,48,95,,91,91,40,51,10,8,0.8,0.8
2026-01-09T1800,1727A,113.1146,36.1547,长治市,清华站,颗粒物(PM10),55,59,43,12,15,80,,82,82,11,18,9,11,0.4,0.6
2026-01-09T1800,1730A,113.0887,36.2126,长治市,审计局,颗粒物(PM10),55,60,47,12,17,71,,76,76,15,21,6,9,0.4,0.5
2026-01-09T1800,1731A,113.0845,36.1856,长治市,长治八中,颗粒物(PM10),66,81,62,19,25,73,,77,77,9,15,9,11,0.4,0.6
2026-01-09T1800,2845A,113.1561,36.1912,长治市,德盛苑,颗粒物(PM10),56,62,40,14,18,81,,83,83,13,14,7,9,0.3,0.4
2026-01-09T1800,3568A,113.0603,36.0464,长治市,向阳小学,颗粒物(PM10),71,92,67,19,20,84,,88,88,14,18,7,12,0.3,0.5
2026-01-09T1800,3569A,112.8788,36.315,长治市,屯留一中,颗粒物(PM10),66,81,59,15,20,72,,80,80,11,13,6,8,0.5,0.9
2026-01-09T1800,4189A,113.113092,36.199482,长治市,英华南巷50号,,,74,54,,29,78,,84,83,11,16,5,8,0.4,0.5
2026-01-09T1800,4190A,113.23666,36.33435,长治市,学府街1号,颗粒物(PM10),97,144,67,17,23,70,,77,77,16,26,10,10,0.5,0.7
2026-01-09T1800,1854A,111.696,28.9725,常德市,市二中,,34,30,56,21,47,106,,90,90,10,22,5,5,0.4,0.5
2026-01-09T1800,3138A,111.7152,29.0288,常德市,武陵区永安,,31,31,73,19,53,89,,84,84,16,27,5,5,0.5,0.7
2026-01-09T1800,3139A,111.6891,28.9881,常德市,鼎城区玉霞,,43,43,66,26,56,89,,82,82,18,28,10,7,0.3,0.5
2026-01-09T1800,3140A,111.6651,29.0526,常德市,武陵区长庚,,35,28,72,24,57,64,,80,80,45,28,5,4,0.5,0.6
2026-01-09T1800,1196A,119.9524,31.7586,常州市,市监测站,,47,47,107,31,75,82,,92,92,34,65,8,8,0.6,0.9
2026-01-09T1800,1200A,119.9351,31.703,常州市,武进监测站,,48,40,92,33,66,83,,93,93,33,51,9,14,0.3,0.6
2026-01-09T1800,3002A,119.9701,31.813,常州市,行政中心,颗粒物(PM10),51,52,102,22,67,84,,89,89,30,56,10,10,0.5,0.8
2026-01-09T1800,3003A,120.0434,31.7726,常州市,经开区,颗粒物(PM10),55,59,124,36,72,76,,91,91,36,58,12,10,0.5,1
2026-01-09T1800,3010A,119.8919,31.7892,常州市,钟楼,颗粒物(PM10),54,58,97,31,64,83,,86,86,29,53,12,11,0.4,0.7
2026-01-09T1800,3429A,119.8595,31.706,常州市,武进经发区,,49,47,103,34,83,91,,91,91,23,61,10,11,0.5,0.7
2026-01-09T1800,3430A,119.5812,31.7256,常州市,金坛城区,,43,43,93,30,70,76,,68,68,21,47,7,11,0.6,0.8
2026-01-09T1800,4089A,119.9551,31.863,常州市,崇义南街5-H号,颗粒物(PM10),54,58,101,25,71,71,,82,82,39,62,9,9,0.6,0.9
2026-01-09T1800,2220A,120.4318,41.588,朝阳市,西梁,细颗粒物(PM2.5),99,100,88,74,49,27,,38,38,46,37,21,16,1.1,1.1
2026-01-09T1800,2221A,120.452,41.565,朝阳市,河畔小区,细颗粒物(PM2.5),89,82,69,66,46,30,,40,40,41,32,33,16,1.1,1
2026-01-09T1800,2222A,120.4176,41.5648,朝阳市,八里堡,细颗粒物(PM2.5),82,95,78,60,45,31,,39,39,46,39,28,18,1.2,1.2
2026-01-09T1800,3026A,116.6179,23.6608,潮州市,市政府,细颗粒物(PM2.5),82,79,51,60,27,116,,108,108,25,18,10,8,0.5,0.4
2026-01-09T1800,4036A,116.646,23.676,潮州市,金山,细颗粒物(PM2.5),93,82,43,69,29,125,,106,106,18,16,6,5,0.4,0.3
2026-01-09T1800,2473A,113.0116,25.8228,郴州市,市职中,,40,34,45,28,33,81,,82,82,18,27,8,6,0.4,0.6
2026-01-09T1800,2475A,113.0381,25.8074,郴州市,市审计局,,32,32,49,18,34,88,,90,90,20,33,7,5,/,/
2026-01-09T1800,2476A,113.0348,25.7757,郴州市,市环保局,,34,34,56,19,36,70,,80,80,21,39,6,6,0.5,0.6
2026-01-09T1800,4252A,113.0138,25.8011,郴州市,好美居路49号,,32,31,45,22,36,81,,90,90,28,35,6,4,/,/
2026-01-09T1800,1431A,103.9727,30.7242,成都市,金泉两河,细颗粒物(PM2.5),78,77,93,57,63,108,,84,84,28,62,4,3,0.7,1.3
2026-01-09T1800,1432A,104.1423,30.6765,成都市,十里店,细颗粒物(PM2.5),95,102,87,71,59,120,,88,88,26,53,5,5,0.6,0.7
2026-01-09T1800,1433A,104.0594,30.5765,成都市,三瓦窑,细颗粒物(PM2.5),100,87,84,75,65,122,,87,87,23,63,4,5,0.6,0.8
2026-01-09T1800,1434A,104.1122,30.6306,成都市,沙河铺,细颗粒物(PM2.5),122,,85,92,70,106,,78,78,26,63,4,4,0.6,0.7
2026-01-09T1800,2880A,104.0219,30.6561,成都市,大石西路,细颗粒物(PM2.5),89,96,86,66,62,107,,78,78,26,61,6,6,0.7,1.1
2026-01-09T1800,3136A,104.2724,30.559,成都市,龙泉驿区区政府,细颗粒物(PM2.5),77,70,68,56,55,103,,75,75,16,21,7,7,0.4,0.6
2026-01-09T1800,3357A,104.0028,30.6891,成都市,金博路,细颗粒物(PM2.5),94,76,81,70,65,116,,86,86,24,63,5,5,0.7,1.2
2026-01-09T1800,3359A,104.056,30.5228,成都市,华阳,细颗粒物(PM2.5),64,66,76,46,60,114,,90,90,23,55,4,4,0.6,0.9
2026-01-09T1800,3488A,104.387954,30.746684,成都市,青石路225号,细颗粒物(PM2.5),118,98,79,89,67,122,,96,96,27,41,5,5,0.6,0.6
2026-01-09T1800,3489A,104.0788,30.4054,成都市,科学城,细颗粒物(PM2.5),105,82,72,79,61,120,,97,97,13,33,8,7,0.1,0.5
2026-01-09T1800,4011A,103.8505,30.6946,成都市,光华大道三段,细颗粒物(PM2.5),93,85,106,69,78,117,,93,93,24,56,5,4,0.6,1.1
2026-01-09T1800,4144A,104.3257,30.6406,成都市,八角井街185号,细颗粒物(PM2.5),93,110,86,69,72,113,,84,84,20,25,4,3,0.6,0.7
2026-01-09T1800,4224A,104.2433276,30.53529463,成都市,鲸龙路1057号,细颗粒物(PM2.5),75,72,80,55,67,107,,91,91,9,43,6,6,0.5,0.5
2026-01-09T1800,1062A,117.9531,40.908,承德市,铁路,颗粒物(PM10),85,120,91,48,47,13,,20,20,49,41,8,7,0.7,1.1
2026-01-09T1800,1063A,117.9397,40.9763,承德市,中国银行,颗粒物(PM10),80,110,88,33,49,34,,29,29,34,41,2,3,0.6,1
2026-01-09T1800,4073A,117.9462,40.95,承德市,杏林街1号,颗粒物(PM10),75,99,77,44,48,30,,28,28,34,39,7,6,0.7,0.9
2026-01-09T1800,4274A,117.7994,40.9605,承德市,滨河大街98号,颗粒物(PM10),79,108,71,42,44,39,,26,26,33,38,7,7,0.6,0.7
2026-01-09T1800,2314A,117.4698,30.6617,池州市,池州学院,,47,47,55,28,35,97,,90,90,19,31,5,4,0.6,0.9
2026-01-09T1800,3237A,117.4918,30.6617,池州市,展览馆,,46,46,51,19,30,99,,94,94,23,35,3,2,0.7,0.9
2026-01-09T1800,3333A,117.5626,30.695,池州市,第八中学,,40,40,52,22,33,104,,101,101,21,28,4,4,0.5,0.8
2026-01-09T1800,3334A,117.5037,30.6242,池州市,第十二中学,,47,47,59,28,32,100,,100,100,24,40,4,4,0.3,1
2026-01-09T1800,1744A,118.9229,42.2816,赤峰市,松山一中,颗粒物(PM10),76,102,85,36,33,25,,21,21,36,38,12,24,1.2,1.5
2026-01-09T1800,1745A,118.9588,42.2733,赤峰市,哈达街,颗粒物(PM10),81,112,86,46,33,21,,26,21,44,34,23,44,1.5,1.2
2026-01-09T1800,1746A,118.8792,42.2551,赤峰市,天义路,细颗粒物(PM2.5),78,91,65,57,41,26,,40,23,45,34,16,27,0.9,1
2026-01-09T1800,3058A,119.2656,42.0356,赤峰市,银河街,颗粒物(PM10),86,121,103,45,65,40,,28,24,22,30,14,24,0.9,1.3
2026-01-09T1800,3286A,118.9359,42.3146,赤峰市,桥北物流园区,细颗粒物(PM2.5),64,76,65,46,43,35,,40,40,32,30,8,15,1.0,1.1
2026-01-09T1800,2521A,107.3473,22.4137,崇左市,市环保局江州分局,细颗粒物(PM2.5),57,62,67,40,47,129,,110,110,16,26,12,8,0.7,0.7
2026-01-09T1800,4256A,107.375,22.3736,崇左市,石景林东路7号,细颗粒物(PM2.5),59,48,55,42,42,129,,110,110,15,24,10,9,0.4,0.6
2026-01-09T1800,3207A,118.31131,32.3033,滁州市,市政府原办公楼,,48,48,79,30,52,104,,94,94,16,39,7,7,0.4,0.7
2026-01-09T1800,3331A,118.3268,32.2633,滁州市,图书馆,,46,46,79,25,45,94,,86,86,18,39,11,11,0.4,0.6
2026-01-09T1800,4101A,118.3196,32.3335,滁州市,银山路666号,细颗粒物(PM2.5),57,44,76,40,66,102,,88,88,19,35,18,11,0.3,0.5
2026-01-09T1800,4102A,118.3426,32.2979,滁州市,黄山路555号,细颗粒物(PM2.5),57,60,104,40,70,105,,95,95,20,50,12,12,0.6,0.9
2026-01-09T1800,2606A,101.5379,25.0492,楚雄彝族自治州,市经济开发区,,19,14,17,8,15,58,,61,61,6,7,2,2,0.6,0.6
2026-01-09T1800,4153A,101.5536,25.0343,楚雄彝族自治州,团结路562号,,27,27,15,11,12,33,,46,44,4,2,1,2,0.5,0.5
2026-01-09T1800,2549A,107.5087,31.2186,达州市,市环境监测站,细颗粒物(PM2.5),83,87,103,61,84,52,,62,62,72,47,9,8,0.6,0.7
2026-01-09T1800,2550A,107.4988,31.2132,达州市,凤凰小区,,,,111,68,86,53,,61,61,,44,7,7,0.9,0.7
2026-01-09T1800,2551A,107.5081,31.1987,达州市,达县机关宾馆,细颗粒物(PM2.5),118,175,117,89,83,6,,50,50,95,50,6,4,2.2,0.9
2026-01-09T1800,2552A,107.4644,31.2124,达州市,市政中心,细颗粒物(PM2.5),79,96,119,58,83,83,,70,70,38,47,8,8,0.5,0.7
2026-01-09T1800,2614A,100.2168,25.5818,大理白族自治州,大理市环境监测站,,25,22,25,13,20,78,,74,74,7,8,6,11,0.5,0.6
2026-01-09T1800,2615A,100.1542,25.7055,大理白族自治州,大理古城,,42,34,21,29,18,69,,85,85,19,11,8,8,0.5,0.7
2026-01-09T1800,1109A,121.6119,38.974,大连市,甘井子,细颗粒物(PM2.5),84,93,62,62,43,56,,77,76,53,30,11,12,0.8,0.5
2026-01-09T1800,1110A,121.565,38.9509,大连市,周水子,细颗粒物(PM2.5),97,90,61,72,42,52,,69,67,45,27,11,17,0.8,0.6
2026-01-09T1800,1111A,121.5637,38.8849,大连市,星海三站,细颗粒物(PM2.5),84,80,53,62,42,63,,73,73,34,23,8,9,0.8,0.6
2026-01-09T1800,1112A,121.6301,38.9117,大连市,青泥洼桥,细颗粒物(PM2.5),139,,63,106,52,69,,74,74,31,24,9,10,0.7,0.5
2026-01-09T1800,1113A,121.6248,38.8643,大连市,傅家庄,细颗粒物(PM2.5),75,86,60,55,40,71,,71,71,28,22,10,10,0.6,0.5
2026-01-09T1800,1114A,121.5117,38.8636,大连市,七贤岭,细颗粒物(PM2.5),75,85,56,55,38,65,,70,70,34,22,11,11,0.9,0.7
2026-01-09T1800,1116A,121.7507,39.1339,大连市,金州,细颗粒物(PM2.5),102,109,68,76,48,60,,73,73,48,35,11,12,0.7,0.6
2026-01-09T1800,1117A,121.7811,39.0495,大连市,开发区,细颗粒物(PM2.5),80,91,60,59,42,28,,68,65,71,31,6,6,1.1,0.8
2026-01-09T1800,1118A,121.9762,39.0631,大连市,双D港,细颗粒物(PM2.5),85,83,62,63,40,66,,81,80,36,23,10,10,0.5,0.4
2026-01-09T1800,4082A,121.2548,38.8188,大连市,旅顺,细颗粒物(PM2.5),85,101,68,63,41,67,,70,70,26,18,8,8,0.8,0.7
2026-01-09T1800,1789A,124.8085,46.0381,大庆市,大同区,颗粒物(PM10),51,52,68,33,36,39,,51,51,27,17,6,7,0.6,0.6
2026-01-09T1800,1790A,125.1166,46.5255,大庆市,龙凤区,,44,44,50,21,27,41,,44,44,36,30,11,10,0.6,0.6
2026-01-09T1800,1791A,124.8894,46.4007,大庆市,红岗区,,38,36,55,26,31,40,,41,41,26,20,6,5,0.7,0.7
2026-01-09T1800,1792A,125.1391,46.578,大庆市,萨尔图区,,49,49,59,32,34,46,,43,43,18,22,8,8,0.4,0.5
2026-01-09T1800,1793A,124.9026,46.6217,大庆市,让胡路区,,49,36,48,34,36,55,,38,,19,17,8,7,0.5,0.5
2026-01-09T1800,3481A,125.127,46.6277,大庆市,萨区政府监测点,细颗粒物(PM2.5),52,46,61,36,32,53,,50,50,15,23,8,9,0.4,0.5
2026-01-09T1800,1723A,113.2926,40.0759,大同市,云冈宾馆,颗粒物(PM10),90,129,188,11,24,67,,67,67,9,20,4,9,0.4,0.5
2026-01-09T1800,1724A,113.3437,40.0921,大同市,大同大学,颗粒物(PM10),112,173,167,13,28,72,,72,72,8,19,2,7,0.4,0.5
2026-01-09T1800,1725A,113.2637,40.129,大同市,安家小村,颗粒物(PM10),119,187,183,9,28,72,,59,59,8,19,3,6,0.2,0.4
2026-01-09T1800,3282A,113.3399,40.0586,大同市,大同市卫生学校,颗粒物(PM10),100,150,176,13,27,67,,67,67,12,23,3,8,0.2,0.3
2026-01-09T1800,3565A,113.1371,40.1122,大同市,云冈站,颗粒物(PM10),145,240,175,18,28,69,,70,70,5,12,4,6,0.4,0.5
2026-01-09T1800,3566A,113.1186,40.2556,大同市,图书馆,颗粒物(PM10),171,291,147,27,35,72,,72,72,2,12,2,8,0.4,0.5
2026-01-09T1800,3567A,113.5931,40.0459,大同市,区一中,颗粒物(PM10),141,231,190,15,35,79,,78,78,9,23,2,3,0.2,0.4
2026-01-09T1800,4199A,113.2798248,40.09972476,大同市,魏都大道141号,颗粒物(PM10),118,186,205,9,28,69,,70,70,9,21,4,7,0.4,0.5
2026-01-09T1800,2269A,124.1068,50.4091,大兴安岭地区,科技局,,39,38,26,27,20,22,,43,42,33,12,9,6,0.6,0.3
2026-01-09T1800,3663A,124.117,50.4279,大兴安岭地区,红旗社区,细颗粒物(PM2.5),69,56,23,50,17,10,,42,40,55,23,12,7,0.7,0.4
2026-01-09T1800,1600A,124.33,40.0625,丹东市,江湾东路,"颗粒物(PM10),细颗粒物(PM2.5)",75,99,74,55,40,52,,52,52,20,23,10,16,1.0,1.3
2026-01-09T1800,1601A,124.4242,40.1513,丹东市,临江后街,细颗粒物(PM2.5),82,110,69,60,34,36,,44,43,42,32,13,22,1.1,1
2026-01-09T1800,1602A,124.3935,40.1461,丹东市,元宝山,细颗粒物(PM2.5),63,74,62,45,38,48,,48,48,32,24,12,14,0.8,0.9
2026-01-09T1800,1603A,124.3634,40.1093,丹东市,民主桥,颗粒物(PM10),78,105,69,53,37,34,,46,46,47,30,22,16,1.5,0.9
2026-01-09T1800,3541A,109.5726195,19.51688767,儋州市,第一中学子站,,36,35,38,18,22,114,,86,86,8,8,4,5,0.5,0.5
2026-01-09T1800,3542A,109.5567,19.5187,儋州市,东坡学校子站,,40,31,36,23,21,126,,116,116,10,7,5,5,0.4,0.5
2026-01-09T1800,2616A,98.5611,24.4273,德宏傣族景颇族自治州,德宏州监测站,,41,41,57,25,47,94,,75,75,11,24,6,7,0.5,0.7
2026-01-09T1800,3677A,98.5887,24.4366,德宏傣族景颇族自治州,芒市人民政府综合楼,,44,44,56,25,37,85,,70,70,10,15,4,4,0.5,0.8
2026-01-09T1800,1901A,104.424,31.1209,德阳市,东山公园,细颗粒物(PM2.5),89,69,71,66,64,117,,100,100,22,19,6,6,0.7,0.7
2026-01-09T1800,1902A,104.3827,31.1318,德阳市,西小区,细颗粒物(PM2.5),92,89,108,68,76,100,,81,81,34,50,6,7,0.8,0.9
2026-01-09T1800,1904A,104.3553,31.1091,德阳市,耐火材料厂,细颗粒物(PM2.5),98,88,106,73,87,109,,81,81,34,49,4,5,0.7,0.8
2026-01-09T1800,4145A,104.4144,31.1495,德阳市,市林业局,,,70,84,60,74,114,,96,96,,47,5,4,0.8,0.9
2026-01-09T1800,1622A,116.3034,37.4675,德州市,儿童乐园,颗粒物(PM10),76,102,115,31,49,58,,60,60,37,29,15,14,1.2,1.1
2026-01-09T1800,1624A,116.2992,37.4449,德州市,监理站,颗粒物(PM10),78,105,106,24,48,62,,67,67,40,29,15,15,0.8,0.8
2026-01-09T1800,3066A,116.2722,37.438,德州市,九衢泉纯净水厂,颗粒物(PM10),80,110,104,31,49,52,,58,58,43,32,14,14,0.8,0.7
2026-01-09T1800,3371A,116.3693,37.44,德州市,开发区人民医院,颗粒物(PM10),69,88,109,24,45,69,,65,65,47,44,14,14,0.8,0.6
2026-01-09T1800,3511A,116.5687,37.3331,德州市,陵城艺术中心,颗粒物(PM10),71,92,103,31,48,53,,56,56,43,40,9,15,0.4,0.4
2026-01-09T1800,4292A,116.352738,37.420875,德州市,新河东路,颗粒物(PM10),69,88,106,29,51,61,,60,60,49,34,14,15,1.2,1
2026-01-09T1800,2621A,99.7054,27.8319,迪庆藏族自治州,迪庆州站,,28,28,31,14,21,79,,77,77,7,12,5,5,0.4,0.6
2026-01-09T1800,3180A,99.7122,27.8129,迪庆藏族自治州,质量技术监督局,,,22,33,12,18,,,74,,7,14,4,4,0.3,0.5
2026-01-09T1800,4257A,104.6092,35.5962,定西市,将台街,颗粒物(PM10),58,65,61,30,41,89,,80,80,15,30,17,16,0.5,0.8
2026-01-09T1800,4309A,104.6159,35.5701,定西市,正龙路62号,细颗粒物(PM2.5),87,88,76,64,45,82,,78,78,14,16,18,14,0.7,1
2026-01-09T1800,1390A,113.7943,23.0132,东莞市,东城石井,,29,25,36,14,21,91,,112,112,24,34,6,7,0.4,0.5
2026-01-09T1800,1391A,113.7384,22.9659,东莞市,南城西平,,32,32,47,20,25,102,,108,108,27,65,9,10,0.5,0.5
2026-01-09T1800,3319A,113.7283,23.041,东莞市,万江金泰,,33,33,42,18,23,95,,102,102,20,34,7,7,0.5,0.6
2026-01-09T1800,4129A,113.8666,23.1062,东莞市,裕兴路,,37,32,46,13,22,118,,138,138,29,34,4,8,0.6,0.6
2026-01-09T1800,4130A,114.0076,22.9739,东莞市,教育路1号,,38,38,57,18,31,99,,106,106,40,54,6,7,0.5,0.6
2026-01-09T1800,4131A,113.7981,22.8124,东莞市,长怡路1号,,44,44,54,21,26,120,,110,110,33,49,8,9,0.4,0.4
2026-01-09T1800,1666A,118.6612,37.4313,东营市,市环保局,颗粒物(PM10),89,127,91,41,40,53,,75,72,40,44,27,18,0.7,0.8
2026-01-09T1800,3036A,118.6903,37.4337,东营市,开发区管委会,颗粒物(PM10),86,121,96,51,42,54,,69,69,44,47,35,23,0.7,0.8
2026-01-09T1800,3365A,118.5721,37.5654,东营市,垦利区民丰路,颗粒物(PM10),97,144,97,48,42,40,,65,65,46,42,11,12,1.0,1
2026-01-09T1800,3498A,118.5063,37.8606,东营市,河口城区,颗粒物(PM10),106,161,104,56,44,58,,74,74,34,42,8,8,0.8,0.9
2026-01-09T1800,3646A,118.4979,37.4623,东营市,胜利站,,,97,84,51,44,39,,59,59,56,47,18,20,,1.1
2026-01-09T1800,3734A,118.5753,37.4405,东营市,理想之城,颗粒物(PM10),87,124,94,48,47,44,,66,66,48,51,11,13,0.9,0.9
2026-01-09T1800,1591A,110.0024,39.8127,鄂尔多斯市,综合楼,颗粒物(PM10),189,327,243,58,42,70,,76,73,8,10,3,4,0.3,0.3
2026-01-09T1800,1592A,109.9485,39.8259,鄂尔多斯市,巴音孟克林场办事处,颗粒物(PM10),324,439,328,53,42,74,,79,77,6,8,6,6,0.3,0.2
2026-01-09T1800,1593A,109.7734,39.5987,鄂尔多斯市,康泽苑,颗粒物(PM10),398,498,301,66,41,79,,82,81,5,8,4,6,0.3,0.3
2026-01-09T1800,1594A,109.8121,39.5987,鄂尔多斯市,华泰汽车城,颗粒物(PM10),422,522,292,66,39,78,,83,82,6,8,3,4,0.3,0.3
2026-01-09T1800,1595A,109.9734,39.7884,鄂尔多斯市,奥林花园,颗粒物(PM10),385,488,329,48,39,72,,71,71,9,17,2,7,0.3,0.3
2026-01-09T1800,2436A,114.894,30.3989,鄂州市,市政府,细颗粒物(PM2.5),54,51,63,38,40,77,,68,68,28,45,8,11,0.8,0.8
2026-01-09T1800,2437A,114.8986,30.3714,鄂州市,赵家坝,细颗粒物(PM2.5),53,42,67,37,39,101,,89,89,10,25,8,10,0.8,0.8
2026-01-09T1800,3654A,114.8093,30.4091,鄂州市,精准医疗中心,,47,47,70,32,42,118,,101,101,11,43,4,7,0.3,0.5
2026-01-09T1800,2454A,109.4978,30.2979,恩施土家族苗族自治州,湖北民院,细颗粒物(PM2.5),69,53,71,50,70,80,,66,66,21,24,7,6,0.7,0.9
2026-01-09T1800,3549A,109.5061,30.3771,恩施土家族苗族自治州,龙凤新区,,,45,61,36,49,56,,60,60,,15,7,7,0.4,0.4
2026-01-09T1800,2499A,108.3411,21.6159,防城港市,沙万,颗粒物(PM10),63,75,60,31,37,116,,114,114,36,22,7,10,0.5,0.5
2026-01-09T1800,2500A,108.3515,21.7733,防城港市,防城档案局,细颗粒物(PM2.5),68,63,82,49,47,144,,120,120,22,29,9,6,0.7,0.6
2026-01-09T1800,2501A,108.3506,21.6414,防城港市,大海花园,颗粒物(PM10),56,62,56,34,38,136,,130,130,31,21,16,13,1.4,0.7
2026-01-09T1800,1371A,113.1293,23.0065,佛山市,湾梁,颗粒物(PM10),51,51,39,28,24,107,,93,93,36,38,/,/,/,/
2026-01-09T1800,1372A,113.1082,23.0477,佛山市,华材职中,颗粒物(PM10),56,61,49,33,28,110,,92,92,36,55,8,8,0.4,0.5
2026-01-09T1800,1373A,113.1439,23.045,佛山市,南海气象局,,43,43,40,29,25,114,,96,96,32,41,/,/,/,/
2026-01-09T1800,1374A,113.2879,22.8094,佛山市,顺德苏岗,,46,46,36,24,20,87,,88,88,39,44,/,/,0.6,0.5
2026-01-09T1800,1376A,112.8384,22.8678,佛山市,高明孔堂,,50,45,43,35,29,92,,93,93,29,32,/,/,/,/
2026-01-09T1800,1377A,112.8835,23.1584,佛山市,三水监测站,,46,46,49,26,28,77,,86,86,39,41,5,7,0.5,0.6
2026-01-09T1800,1378A,112.8668,23.185,佛山市,三水云东海,,37,37,35,19,23,76,,94,94,24,27,/,/,/,/
2026-01-09T1800,3625A,113.2568,22.7629,佛山市,容桂街道办,颗粒物(PM10),51,51,41,27,24,81,,83,83,44,46,/,/,/,/
2026-01-09T1800,1282A,119.2681,26.0506,福州市,师大,颗粒物(PM10),58,65,47,38,34,105,,109,109,42,30,6,5,0.5,0.5
2026-01-09T1800,1283A,119.2983,26.1028,福州市,五四北路,颗粒物(PM10),57,63,43,37,36,95,,105,105,46,26,6,6,0.7,0.6
2026-01-09T1800,1284A,119.2648,26.0769,福州市,杨桥西路,"颗粒物(PM10),细颗粒物(PM2.5)",57,63,43,40,35,106,,109,109,31,19,7,6,/,/
2026-01-09T1800,3048A,119.5799,26.0937,福州市,九龙,细颗粒物(PM2.5),67,54,40,48,33,123,,120,120,23,21,6,7,0.6,0.6
2026-01-09T1800,3526A,119.5188,25.9666,福州市,吴航,,50,50,50,30,32,127,,114,114,23,26,6,6,0.6,0.6
2026-01-09T1800,4104A,119.3106,26.0648,福州市,路通桥巷6号,颗粒物(PM10),57,64,57,37,38,114,,105,105,23,21,/,/,/,/
2026-01-09T1800,1755A,123.7974,41.8494,抚顺市,望花区,细颗粒物(PM2.5),102,108,74,76,44,32,,36,36,47,35,32,18,0.9,0.8
2026-01-09T1800,1756A,123.9161,41.8827,抚顺市,顺城区,细颗粒物(PM2.5),82,90,69,60,42,24,,32,32,58,46,12,11,1.0,1
2026-01-09T1800,1757A,124.0437,41.8615,抚顺市,东洲区,细颗粒物(PM2.5),79,88,58,58,34,58,,56,56,23,24,10,12,0.8,0.9
2026-01-09T1800,1758A,123.9246,41.8638,抚顺市,新抚区,细颗粒物(PM2.5),93,101,76,69,43,17,,33,33,73,50,14,10,1.4,1.1
2026-01-09T1800,1759A,124.0972,41.8961,抚顺市,大伙房水库,细颗粒物(PM2.5),74,78,51,54,30,59,,57,57,16,13,11,12,0.9,0.8
2026-01-09T1800,1760A,123.708,41.8386,抚顺市,沈抚新城,细颗粒物(PM2.5),148,,70,113,48,24,,45,45,68,39,13,12,1.5,1.3
2026-01-09T1800,2377A,116.3544,27.9833,抚州市,市站,,,46,52,30,32,81,,99,99,,23,10,10,,0.6
2026-01-09T1800,2378A,116.3562,27.9631,抚州市,血防站,,42,42,52,22,31,95,,94,94,30,31,6,8,1.0,0.9
2026-01-09T1800,2379A,116.3561,28.0007,抚州市,采茶剧团,,41,41,56,17,32,112,,108,108,20,20,6,8,0.6,0.7
2026-01-09T1800,2380A,116.3854,27.9648,抚州市,医学分院,,45,45,57,24,31,106,,108,108,11,18,4,10,0.7,0.7
2026-01-09T1800,2207A,121.6095,41.9978,阜新市,工业园区,颗粒物(PM10),73,95,89,50,54,33,,52,52,36,37,17,21,0.8,1
2026-01-09T1800,2208A,121.6567,42.0188,阜新市,长青街,细颗粒物(PM2.5),80,92,73,59,50,34,,53,53,32,38,18,19,0.8,1
2026-01-09T1800,2209A,121.6672,42.07,阜新市,农业园区,细颗粒物(PM2.5),73,92,68,53,39,37,,53,53,30,27,9,19,0.6,0.7
2026-01-09T1800,2211A,121.6343,42.0455,阜新市,玉龙新城,细颗粒物(PM2.5),78,97,84,57,50,37,,54,54,36,41,13,15,0.7,1
2026-01-09T1800,2301A,115.8276,32.8929,阜阳市,市监测站,颗粒物(PM10),56,61,79,37,47,89,,96,96,23,25,6,6,0.4,0.4
2026-01-09T1800,2303A,115.8551,32.8606,阜阳市,开发区,颗粒物(PM10),61,71,78,33,47,82,,92,91,27,31,7,9,0.4,0.4
2026-01-09T1800,2875A,115.783962,32.889217,阜阳市,阜阳职业技术学院,颗粒物(PM10),55,59,63,31,38,92,,100,100,20,30,8,8,0.4,0.4
2026-01-09T1800,3468A,115.79,32.8614,阜阳市,市规划展馆,细颗粒物(PM2.5),60,43,81,43,50,95,,104,104,23,25,7,7,0.5,0.5
2026-01-09T1800,3469A,115.835101,32.918568,阜阳市,枣园社区,细颗粒物(PM2.5),58,50,77,41,47,91,,98,98,21,29,6,6,0.4,0.4
2026-01-09T1800,2669A,102.9097,34.9841,甘南藏族自治州,州政府,,30,26,42,6,23,95,,93,93,4,25,4,5,0.2,0.8
2026-01-09T1800,3380A,102.8915,34.9618,甘南藏族自治州,甘肃民族师范学院,,29,29,56,3,13,84,,82,82,2,22,5,9,0.2,0.6
2026-01-09T1800,2570A,101.96,30.048,甘孜藏族自治州,水桥子,,25,10,18,10,10,79,,64,64,6,21,6,6,0.2,0.7
2026-01-09T1800,3065A,101.9534,29.9976,甘孜藏族自治州,州环保局,,24,24,18,3,5,76,,71,71,11,12,6,5,0.6,0.6
2026-01-09T1800,2363A,114.9368,25.8663,赣州市,地委,,35,33,43,24,26,88,,84,84,31,32,8,8,0.7,0.8
2026-01-09T1800,2364A,114.946,25.8483,赣州市,气象台,,48,48,57,16,22,98,,90,90,28,46,2,5,0.6,0.5
2026-01-09T1800,2365A,114.932,25.8332,赣州市,市图书馆,,46,46,48,21,26,42,,73,73,79,42,3,5,0.8,0.6
2026-01-09T1800,2366A,114.8905,25.8472,赣州市,华坚鞋城,,46,46,47,21,28,78,,74,74,27,35,6,8,0.4,0.4
2026-01-09T1800,3109A,115.0094,25.8614,赣州市,赣县区卫计委,,,34,42,25,34,91,,84,84,24,28,7,8,,0.5
2026-01-09T1800,2684A,106.2753,36.0057,固原市,监测站,颗粒物(PM10),53,55,38,12,14,75,,81,77,10,15,4,5,0.4,0.5
2026-01-09T1800,2685A,106.2384,36.0189,固原市,新区,,,,31,26,11,78,,89,85,13,13,3,3,0.3,0.4
2026-01-09T1800,2544A,106.6307,30.4577,广安市,市委,,,72,99,66,85,97,,79,79,24,30,,9,0.8,1
2026-01-09T1800,2545A,106.6266,30.4662,广安市,友谊中学,细颗粒物(PM2.5),95,81,90,71,78,107,,88,88,25,23,7,6,0.7,0.8
2026-01-09T1800,2547A,106.6386,30.4551,广安市,广电花园,细颗粒物(PM2.5),85,66,98,63,82,92,,92,92,38,29,10,9,0.6,0.8
2026-01-09T1800,2902A,106.6347,30.4868,广安市,北辰小学,细颗粒物(PM2.5),98,73,92,73,80,107,,90,90,22,19,25,24,0.9,0.9
2026-01-09T1800,2524A,105.8211,32.4444,广元市,老城,,,66,78,60,59,75,,61,61,,59,11,10,,1
2026-01-09T1800,2526A,105.8629,32.429,广元市,监测站,细颗粒物(PM2.5),74,87,76,54,58,58,,57,57,52,39,4,4,1.1,1
2026-01-09T1800,3617A,105.8047,32.4167,广元市,经开区,细颗粒物(PM2.5),82,75,83,60,63,47,,54,54,56,46,4,8,1.0,1.1
2026-01-09T1800,1345A,113.2346,23.1423,广州市,广雅中学,,,45,46,25,26,80,,89,89,,44,4,5,,0.5
2026-01-09T1800,1346A,113.2611,23.105,广州市,市五中,颗粒物(PM10),52,53,40,26,25,92,,102,102,53,37,10,10,/,/
2026-01-09T1800,1348A,113.3477,23.0916,广州市,广东商学院,,38,38,36,23,22,96,,91,91,28,27,8,7,0.1,0.1
2026-01-09T1800,1349A,113.4332,23.105,广州市,市八十六中,,36,36,32,24,21,99,,99,99,34,39,9,8,/,/
2026-01-09T1800,1350A,113.3506,22.9488,广州市,番禺中学,颗粒物(PM10),51,52,42,31,25,93,,96,96,43,43,3,3,0.4,0.3
2026-01-09T1800,1351A,113.2147,23.3918,广州市,花都师范,,34,34,39,19,21,108,,105,105,21,25,8,9,0.5,0.5
2026-01-09T1800,1352A,113.2599,23.1329,广州市,市监测站,,50,50,40,27,32,77,,90,90,62,42,3,4,/,/
2026-01-09T1800,1353A,113.5618,23.3119,广州市,九龙镇镇龙,,44,44,35,22,21,78,,94,93,42,25,7,6,0.4,0.4
2026-01-09T1800,1354A,113.2764,23.1544,广州市,麓湖,,40,40,35,22,22,78,,89,89,38,33,10,10,0.4,0.4
2026-01-09T1800,2846A,113.3209,23.1323,广州市,体育西,,43,43,37,23,23,94,,89,89,24,24,8,8,0.4,0.5
2026-01-09T1800,3298A,113.5718,23.5493,广州市,从化街口,,30,30,39,18,26,85,,99,99,28,37,13,11,0.3,0.4
2026-01-09T1800,3299A,113.3463,23.369,广州市,白云竹料,,38,38,42,20,25,97,,104,104,33,34,6,7,0.4,0.4
2026-01-09T1800,3300A,113.2981,23.2365,广州市,白云嘉禾,颗粒物(PM10),51,51,49,23,24,103,,103,103,38,44,7,7,/,/
2026-01-09T1800,3301A,113.4256,23.1716,广州市,黄埔科学城,,39,39,32,22,19,116,,110,110,25,21,8,6,0.5,0.5
2026-01-09T1800,3302A,113.3942,23.0485,广州市,番禺大学城,,39,39,33,22,20,106,,101,101,30,40,9,9,0.4,0.3
2026-01-09T1800,3303A,113.4923,22.8169,广州市,南沙黄阁,颗粒物(PM10),52,54,49,25,26,83,,101,101,47,57,7,10,/,/
2026-01-09T1800,3304A,113.534,22.7893,广州市,南沙街,,,,46,,26,87,,105,105,35,41,,7,0.4,0.4
2026-01-09T1800,3443A,113.2905,23.5541,广州市,花都梯面,,28,22,26,12,17,89,,102,102,16,13,7,10,/,/
2026-01-09T1800,3445A,113.786,23.7479,广州市,从化良口,,27,23,17,17,13,85,,94,94,14,11,8,8,/,/
2026-01-09T1800,3446A,113.805,23.2614,广州市,增城荔城,,32,27,25,18,17,101,,102,102,13,14,7,8,0.4,0.4
2026-01-09T1800,2506A,109.604387,23.066791,贵港市,江南子站,颗粒物(PM10),51,51,112,32,66,128,,102,102,13,45,8,10,0.5,0.9
2026-01-09T1800,2508A,109.5669,23.1065,贵港市,荷城子站,,44,44,71,29,46,110,,102,102,18,41,8,9,0.7,0.9
2026-01-09T1800,3405A,109.5886,23.1172,贵港市,新世纪学校,,49,41,63,34,43,120,,105,105,14,29,/,/,0.3,0.4
2026-01-09T1800,4260A,109.5933,23.095,贵港市,中山路155-3号,,46,46,72,29,54,128,,104,104,12,38,/,/,0.5,0.7
2026-01-09T1800,1439A,106.6863,26.6035,贵阳市,马鞍山,细颗粒物(PM2.5),94,85,59,70,48,58,,46,46,37,36,24,13,/,/
2026-01-09T1800,1441A,106.6241,26.6266,贵阳市,鉴湖路,细颗粒物(PM2.5),83,97,65,61,39,48,,54,54,38,28,23,13,0.8,0.7
2026-01-09T1800,1442A,106.7468,26.6344,贵阳市,燕子冲,细颗粒物(PM2.5),98,85,68,73,58,50,,36,36,49,41,24,23,0.9,0.9
2026-01-09T1800,1443A,106.6556,26.4362,贵阳市,碧云窝,细颗粒物(PM2.5),70,73,81,51,55,67,,50,50,25,33,14,20,/,/
2026-01-09T1800,1445A,106.6963,26.6063,贵阳市,红边门,细颗粒物(PM2.5),92,92,76,68,55,39,,30,30,50,56,23,41,/,/
2026-01-09T1800,1446A,106.7162383,26.56964667,贵阳市,新华路,细颗粒物(PM2.5),89,102,73,66,46,47,,44,44,43,48,20,18,0.8,0.8
2026-01-09T1800,1447A,106.6742,26.542,贵阳市,太慈桥,细颗粒物(PM2.5),85,85,62,63,44,57,,42,42,40,45,15,8,/,/
2026-01-09T1800,4230A,106.688212,26.56952,贵阳市,花果园大街66号,细颗粒物(PM2.5),68,75,59,49,37,51,,36,36,40,51,18,19,/,/
2026-01-09T1800,4231A,106.687268,26.516892,贵阳市,漓江路57号,细颗粒物(PM2.5),85,83,66,63,48,58,,45,45,38,47,25,25,1.1,1
2026-01-09T1800,1864A,110.3091,25.2705,桂林市,龙隐路小学,,40,40,47,27,40,100,,92,92,12,18,8,13,0.1,0.2
2026-01-09T1800,1865A,110.2849361,25.22909545,桂林市,八中,,43,43,48,30,41,90,,91,91,24,28,8,11,0.3,0.4
2026-01-09T1800,3531A,110.296,25.1254,桂林市,旅游学院,,34,27,50,14,32,106,,97,97,12,24,5,7,0.2,0.3
2026-01-09T1800,4222A,110.1835,25.2444,桂林市,环湖路276号,,42,39,49,29,36,85,,89,89,11,30,7,15,0.4,0.5
2026-01-09T1800,4301A,110.2803,25.2773,桂林市,信义路13号,,46,46,47,31,35,105,,96,96,17,24,6,11,0.5,0.5
2026-01-09T1800,2674A,100.2262,34.4854,果洛藏族自治州,玛沁县大武镇,,31,17,32,6,9,99,,97,97,2,3,8,15,0.2,0.3
2026-01-09T1800,1130A,126.5557,45.8109,哈尔滨市,松北商大,细颗粒物(PM2.5),57,57,54,40,35,34,,41,41,30,27,7,11,0.6,0.6
2026-01-09T1800,1132A,126.6162,45.719,哈尔滨市,南岗学府路,细颗粒物(PM2.5),60,57,57,43,34,34,,38,38,31,26,14,17,1.0,0.8
2026-01-09T1800,1133A,126.6894,45.7733,哈尔滨市,太平宏伟公园,细颗粒物(PM2.5),67,55,55,48,33,40,,44,44,25,25,10,21,0.6,0.6
2026-01-09T1800,1134A,126.6361,45.7672,哈尔滨市,道外承德广场,细颗粒物(PM2.5),65,70,81,47,36,38,,42,42,32,34,11,16,0.8,0.7
2026-01-09T1800,1136A,126.644,45.7261,哈尔滨市,动力和平路,细颗粒物(PM2.5),67,53,57,48,36,31,,40,40,32,28,14,14,0.9,0.7
2026-01-09T1800,1137A,126.5933,45.7479,哈尔滨市,道里建国路,细颗粒物(PM2.5),69,,58,50,40,33,,39,39,31,28,1,11,0.7,0.6
2026-01-09T1800,1138A,126.6127,45.6119,哈尔滨市,平房东轻厂,细颗粒物(PM2.5),78,86,62,57,42,7,,34,31,66,30,12,8,0.8,0.7
2026-01-09T1800,1139A,126.5875,45.9827,哈尔滨市,呼兰师专,细颗粒物(PM2.5),108,,65,81,46,31,,40,40,33,24,9,8,0.8,0.8
2026-01-09T1800,1140A,126.6299,45.6799,哈尔滨市,省农科院,细颗粒物(PM2.5),58,51,65,41,41,34,,40,40,40,36,18,14,0.5,0.5
2026-01-09T1800,4282A,126.6769,45.7379,哈尔滨市,华山路1号,细颗粒物(PM2.5),59,51,55,42,32,38,,40,40,30,30,18,23,0.8,0.7
2026-01-09T1800,4283A,126.9717,45.5356,哈尔滨市,解放大街52号,细颗粒物(PM2.5),87,83,59,64,44,40,,43,35,32,23,14,15,1.0,0.8
2026-01-09T1800,2688A,93.5124,42.8176,哈密市,地区监测站,细颗粒物(PM2.5),89,114,100,66,61,46,,48,48,18,18,5,3,0.6,0.4
2026-01-09T1800,2689A,93.5014,42.8312,哈密市,哈密师范学校,颗粒物(PM10),94,138,102,38,42,46,,47,47,23,26,8,5,0.7,0.6
2026-01-09T1800,2671A,100.9016,36.9464,海北藏族自治州,海晏县西海镇,,41,41,32,12,13,86,,86,86,1,1,8,7,0.3,0.3
2026-01-09T1800,3867A,102.074,36.5056,海东市,平安区公安局北苑,颗粒物(PM10),61,72,55,3,30,70,,70,70,11,24,6,19,0.4,0.9
2026-01-09T1800,4163A,102.0984,36.5119,海东市,滨河路,颗粒物(PM10),79,107,58,20,30,82,,75,75,15,35,4,19,0.4,0.8
2026-01-09T1800,1410A,110.3189,20.0596,海口市,海南大学,,48,34,34,21,18,151,,133,133,11,13,7,7,0.2,0.2
2026-01-09T1800,1411A,110.2827,20.0051,海口市,秀英海南医院,,44,40,47,20,26,138,,126,126,12,30,9,9,0.3,0.4
2026-01-09T1800,1412A,110.3391,19.9979,海口市,海南师范大学,,47,36,47,22,25,150,,135,135,13,27,7,7,0.4,0.4
2026-01-09T1800,1413A,110.3303,20.0359,海口市,龙华路环保局宿舍,,48,37,34,20,20,151,,134,134,14,14,/,/,0.5,0.4
2026-01-09T1800,3539A,110.5111,19.9737,海口市,桂林洋子站,,46,39,44,21,27,146,,132,132,13,24,/,/,/,/
2026-01-09T1800,4134A,110.1952,20.0451,海口市,长滨二路9号,,45,29,38,19,23,141,,126,126,9,17,/,/,/,/
2026-01-09T1800,2673A,100.6158,36.2985,海南藏族自治州,共和县恰卜恰镇,颗粒物(PM10),60,69,45,9,10,101,,94,94,2,10,10,11,0.3,0.4
2026-01-09T1800,2676A,97.373,37.376,海西蒙古族藏族自治州,德令哈市,,28,17,15,9,10,87,,88,88,9,6,9,12,0.5,0.5
2026-01-09T1800,1049A,114.492,36.5712,邯郸市,矿院,颗粒物(PM10),109,167,77,44,46,81,,80,80,20,31,4,5,0.4,0.6
2026-01-09T1800,1050A,114.4839,36.6136,邯郸市,丛台公园,颗粒物(PM10),85,120,70,14,36,86,,83,83,10,29,2,8,0.4,0.7
2026-01-09T1800,3458A,114.7893,36.5592,邯郸市,香泉濮院小区,颗粒物(PM10),128,206,106,19,45,85,,80,80,8,23,4,5,0.3,0.5
2026-01-09T1800,3580A,114.1998,36.4439,邯郸市,峰峰矿区临水派出所,颗粒物(PM10),81,111,47,12,22,82,,83,83,6,12,8,10,0.4,0.6
2026-01-09T1800,4068A,114.5209,36.7697,邯郸市,建安街268号,颗粒物(PM10),93,136,83,22,37,78,,78,78,11,30,4,10,0.3,0.7
2026-01-09T1800,4069A,114.5488,36.6177,邯郸市,丛台东路558号,颗粒物(PM10),96,142,82,30,39,88,,81,81,12,38,7,8,0.4,0.6
2026-01-09T1800,2635A,107.0155,33.0707,汉中市,市监测站,细颗粒物(PM2.5),73,66,89,53,84,87,,70,70,25,41,7,7,0.6,1.2
2026-01-09T1800,2636A,107.0083,33.114,汉中市,鑫源开发区,细颗粒物(PM2.5),65,59,74,47,68,92,,74,74,19,42,5,9,0.4,0.8
2026-01-09T1800,2637A,107.0072,33.0323,汉中市,南郑大河坎水厂,细颗粒物(PM2.5),85,79,101,63,80,86,,68,68,28,33,9,7,0.8,1.1
2026-01-09T1800,1223A,120.2073,30.2111,杭州市,滨江,,,79,91,53,59,66,,72,72,45,51,8,8,,0.7
2026-01-09T1800,1224A,120.0625,30.2737,杭州市,西溪,,50,50,74,27,48,72,,81,81,28,41,9,9,0.9,0.9
2026-01-09T1800,1226A,120.3417,30.315,杭州市,下沙,细颗粒物(PM2.5),68,75,89,49,58,71,,75,75,45,65,10,10,0.7,0.8
2026-01-09T1800,1227A,120.1252,30.2465,杭州市,卧龙桥,细颗粒物(PM2.5),64,65,70,46,50,51,,71,71,48,33,10,9,0.5,0.5
2026-01-09T1800,1228A,120.1902,30.2691,杭州市,浙江农大,细颗粒物(PM2.5),72,77,99,52,65,66,,72,72,52,55,7,7,0.6,0.6
2026-01-09T1800,1230A,120.1195,30.3121,杭州市,和睦小学,细颗粒物(PM2.5),67,81,91,48,59,65,,78,78,44,47,6,7,0.7,0.8
2026-01-09T1800,1231A,120.3076,30.4146,杭州市,临平镇,颗粒物(PM10),67,83,100,44,64,60,,66,66,44,53,8,9,0.5,0.7
2026-01-09T1800,1232A,120.2753,30.1839,杭州市,城厢镇,细颗粒物(PM2.5),67,82,87,48,57,70,,74,74,60,55,9,9,0.3,0.6
2026-01-09T1800,1233A,120.0883,30.1808,杭州市,云栖,颗粒物(PM10),53,55,73,29,47,61,,73,73,33,31,3,4,0.5,0.6
2026-01-09T1800,3557A,119.9463,30.0496,杭州市,镇二中,,46,44,68,32,52,82,,72,72,26,45,6,6,0.5,0.7
2026-01-09T1800,3558A,119.7184,30.2367,杭州市,市府大楼,颗粒物(PM10),51,51,80,30,50,75,,80,80,24,28,11,11,0.5,0.7
2026-01-09T1800,3656A,120.1554,30.2863,杭州市,消防大队,细颗粒物(PM2.5),67,70,83,48,60,53,,64,64,55,49,8,7,0.6,0.6
2026-01-09T1800,1270A,117.1957,31.7845,合肥市,明珠广场,颗粒物(PM10),60,70,78,39,45,59,,63,63,44,64,7,8,0.5,0.7
2026-01-09T1800,1271A,117.307,31.8765,合肥市,三里街,,,61,86,36,48,58,,57,57,,77,6,7,0.8,0.9
2026-01-09T1800,1272A,117.2587,31.8703,合肥市,琥珀山庄,细颗粒物(PM2.5),62,68,79,44,52,70,,75,75,40,67,9,8,0.9,1.1
2026-01-09T1800,1275A,117.2593,31.9376,合肥市,庐阳区,颗粒物(PM10),59,68,81,34,42,70,,33,,46,67,9,8,0.8,0.9
2026-01-09T1800,1276A,117.345251,31.861615,合肥市,瑶海区,细颗粒物(PM2.5),62,70,85,44,47,45,,70,70,71,74,6,6,0.5,0.6
2026-01-09T1800,1277A,117.3033,31.7967,合肥市,包河区,细颗粒物(PM2.5),64,66,76,46,49,71,,77,77,39,66,8,8,0.7,0.8
2026-01-09T1800,1278A,117.278,31.7392,合肥市,滨湖新区,细颗粒物(PM2.5),55,53,71,39,48,84,,80,80,27,52,6,5,0.6,0.8
2026-01-09T1800,1279A,117.1324,31.8395,合肥市,高新区,颗粒物(PM10),56,61,68,34,37,76,,76,76,34,49,5,6,0.5,0.5
2026-01-09T1800,3464A,117.3802,31.9148,合肥市,高教基地,细颗粒物(PM2.5),62,68,76,44,51,73,,79,79,37,48,8,8,0.6,0.6
2026-01-09T1800,4098A,117.2518,31.8404,合肥市,中国科学技术大学,颗粒物(PM10),57,63,71,37,42,68,,72,72,44,54,10,10,0.6,0.6
2026-01-09T1800,3614A,79.9241,37.0878,和田地区,地区环保局,颗粒物(PM10),60,70,96,32,51,82,,64,64,13,34,3,7,0.3,0.6
2026-01-09T1800,3615A,79.9132,37.1137,和田地区,市环保局,,,,90,,50,83,,64,64,,44,,4,0.3,1.4
2026-01-09T1800,2517A,108.0496,24.6957,河池市,市环保站,颗粒物(PM10),59,68,47,32,31,75,,70,70,24,27,12,4,0.7,0.6
2026-01-09T1800,4302A,108.0901,24.6945,河池市,上任中路54号,细颗粒物(PM2.5),57,43,57,40,41,89,,61,61,19,36,24,7,0.6,0.7
2026-01-09T1800,1697A,114.6962,23.7538,河源市,东埔,,29,27,30,20,22,89,,98,98,26,22,6,8,0.5,0.5
2026-01-09T1800,1698A,114.6895,23.7232,河源市,老城,,43,43,33,27,17,96,,101,101,18,22,6,7,0.6,0.7
2026-01-09T1800,3374A,115.5562,35.089,菏泽市,定陶老年大学,颗粒物(PM10),73,95,92,29,41,62,,71,71,25,21,2,3,0.3,0.3
2026-01-09T1800,4114A,115.4239,35.2593,菏泽市,黄河路600号,颗粒物(PM10),78,105,105,22,47,69,,73,73,25,25,2,3,0.3,0.4
2026-01-09T1800,4115A,115.5025,35.2727,菏泽市,菏泽市人社局,颗粒物(PM10),75,100,91,20,40,72,,73,73,20,20,2,4,0.3,0.4
2026-01-09T1800,4184A,115.479691,35.244011,菏泽市,永昌路1号,颗粒物(PM10),79,107,96,31,46,68,,73,73,27,23,6,6,0.4,0.4
2026-01-09T1800,4193A,115.471542,35.280012,菏泽市,长城路999号,颗粒物(PM10),76,102,94,18,38,77,,77,77,19,21,9,8,0.4,0.5
2026-01-09T1800,2514A,111.5264,24.4178,贺州市,环保小区,,44,44,48,27,41,113,,90,90,14,22,8,7,0.4,0.5
2026-01-09T1800,2515A,111.561,24.4074,贺州市,政协大楼,,40,38,48,28,33,105,,102,102,17,33,10,9,0.5,0.7
2026-01-09T1800,3534A,111.4744,24.455,贺州市,西湾,,42,42,54,26,34,93,,93,93,25,29,9,8,0.4,0.6
2026-01-09T1800,2385A,114.17,35.9019,鹤壁市,市监测站,颗粒物(PM10),54,58,58,18,24,85,,79,79,26,24,3,4,0.5,0.6
2026-01-09T1800,2386A,114.2953,35.7512,鹤壁市,市交警支队,颗粒物(PM10),56,61,78,11,33,77,,66,66,10,34,3,5,0.2,0.6
2026-01-09T1800,2387A,114.2877,35.7302,鹤壁市,迎宾馆,颗粒物(PM10),71,92,92,21,33,83,,68,68,22,34,1,5,0.4,0.7
2026-01-09T1800,3474A,114.2616,35.6824,鹤壁市,大新区,颗粒物(PM10),51,51,88,3,30,87,,71,71,6,37,4,7,0.3,0.6
2026-01-09T1800,3596A,114.1573,35.9607,鹤壁市,南山宾馆,颗粒物(PM10),70,89,61,17,22,85,,83,83,6,13,4,6,0.3,0.5
2026-01-09T1800,2244A,130.2537,47.3416,鹤岗市,哈啤分公司,细颗粒物(PM2.5),107,85,49,80,48,16,,48,32,51,27,8,8,0.9,0.7
2026-01-09T1800,2245A,130.2683,47.3087,鹤岗市,斯达机电,颗粒物(PM10),68,85,51,47,35,12,,44,28,60,30,10,10,0.9,0.6
2026-01-09T1800,2246A,130.3114,47.3388,鹤岗市,东山纸板厂,颗粒物(PM10),91,132,44,66,39,11,,42,29,60,34,12,15,1.4,0.7
2026-01-09T1800,2263A,127.4832,50.2524,黑河市,交通局,,26,20,27,18,23,41,,53,49,20,17,6,9,0.4,0.4
2026-01-09T1800,2264A,127.5146,50.2339,黑河市,环保局,,,25,21,22,18,38,,36,36,18,16,7,7,,0.6
2026-01-09T1800,1074A,115.6839,37.754,衡水市,电机北厂,颗粒物(PM10),130,209,130,17,43,73,,65,65,9,21,,9,0.3,0.5
2026-01-09T1800,1075A,115.6303,37.7318,衡水市,市监测站,颗粒物(PM10),129,208,130,38,46,72,,64,64,13,26,4,7,0.3,0.5
2026-01-09T1800,3188A,115.6684,37.7216,衡水市,市城管局,颗粒物(PM10),165,280,146,35,48,76,,66,66,16,29,5,8,0.3,0.6
2026-01-09T1800,3459A,115.599,37.5491,衡水市,地表水厂,颗粒物(PM10),172,294,116,22,48,81,,71,71,2,27,4,7,0.3,0.5
2026-01-09T1800,2457A,112.6209,26.9268,衡阳市,衡阳化工总厂,细颗粒物(PM2.5),59,62,65,42,46,92,,83,83,27,37,9,9,0.8,0.8
2026-01-09T1800,2458A,112.621,26.8957,衡阳市,珠晖区环保局,细颗粒物(PM2.5),59,54,61,42,46,102,,102,102,22,47,9,6,0.9,1
2026-01-09T1800,2459A,112.628,26.8654,衡阳市,市委党校,细颗粒物(PM2.5),52,37,59,36,49,105,,88,88,17,35,14,12,0.7,0.8
2026-01-09T1800,2460A,112.6007,26.8977,衡阳市,市监测站,颗粒物(PM10),52,54,87,30,55,93,,90,90,27,45,10,9,0.8,1.2
2026-01-09T1800,2461A,112.5658,26.9013,衡阳市,真空机电公司,颗粒物(PM10),53,56,73,36,47,81,,76,76,36,43,9,13,0.9,1
2026-01-09T1800,3399A,112.6703,26.8817,衡阳市,师范学院,,46,38,65,32,42,103,,90,90,22,37,6,5,0.7,0.8
2026-01-09T1800,3038A,103.3757,23.3679,红河哈尼族彝族自治州,州图书馆,,24,24,23,6,19,60,,59,59,6,6,6,7,0.5,0.5
2026-01-09T1800,4154A,103.401,23.3561,红河哈尼族彝族自治州,蒙自市朝阳路,,29,,21,20,19,56,,58,58,5,5,5,4,0.4,0.5
2026-01-09T1800,1090A,111.6506,40.7517,呼和浩特市,呼市一监,,27,27,122,3,42,74,,60,60,6,40,1,4,0.2,0.9
2026-01-09T1800,1094A,111.7516,40.8369,呼和浩特市,如意水处理厂,,22,21,85,3,33,70,,57,57,15,54,9,11,0,0.4
2026-01-09T1800,1095A,111.727798,40.806187,呼和浩特市,二十九中,,43,43,107,3,37,71,,58,58,6,44,9,12,0.2,0.7
2026-01-09T1800,1097A,111.717,40.7617,呼和浩特市,化肥厂生活区,,40,40,115,3,42,70,,59,59,11,45,5,7,0.4,1
2026-01-09T1800,3699A,111.6519,40.8389,呼和浩特市,海东办,,31,31,109,3,36,78,,64,64,8,44,4,5,0.2,0.8
2026-01-09T1800,4275A,111.591512,40.827312,呼和浩特市,成吉思汗西街8号,,24,24,104,3,34,68,,58,58,6,38,4,6,0.4,0.7
2026-01-09T1800,4276A,111.6597,40.8077,呼和浩特市,公园东路75号,,36,36,125,3,39,63,,52,52,12,47,5,7,0.1,0.7
2026-01-09T1800,4277A,111.5427,40.7846,呼和浩特市,金海路35号,,42,42,114,3,36,69,,58,58,10,43,7,9,0.5,0.9
2026-01-09T1800,3061A,119.7511,49.1576,呼伦贝尔市,国华电力东,,43,42,25,30,21,49,,58,58,25,21,4,5,0.5,0.4
2026-01-09T1800,4279A,119.7569,49.2222,呼伦贝尔市,伊敏大街东7号,颗粒物(PM10),52,54,28,34,26,13,,35,31,50,28,13,9,0.8,0.6
2026-01-09T1800,1250A,120.075,30.867,湖州市,城西水厂,,49,49,90,30,57,88,,82,82,23,53,10,11,0.3,0.6
2026-01-09T1800,2873A,120.083,30.8929,湖州市,仁皇山新区,,50,50,95,32,68,64,,74,74,54,64,11,12,0.5,0.7
2026-01-09T1800,2907A,120.1846,30.8592,湖州市,吴兴区站,颗粒物(PM10),55,60,92,37,67,71,,80,80,39,52,7,9,0.6,0.7
2026-01-09T1800,3562A,120.4146,30.8538,湖州市,南浔区站,颗粒物(PM10),61,72,99,41,72,57,,67,67,45,62,8,9,0.7,0.9
2026-01-09T1800,1607A,120.904878,40.721091,葫芦岛市,龙港区,细颗粒物(PM2.5),120,109,120,91,66,32,,35,35,52,60,15,39,1.2,1.2
2026-01-09T1800,1608A,120.8382,40.7521,葫芦岛市,化工街,细颗粒物(PM2.5),89,110,129,66,66,43,,32,32,41,66,38,48,0.8,1
2026-01-09T1800,1609A,120.8339,40.7078,葫芦岛市,新区,细颗粒物(PM2.5),97,77,92,72,54,42,,35,35,41,64,10,18,1.1,1.2
2026-01-09T1800,1610A,120.8697,40.7679,葫芦岛市,东城区,细颗粒物(PM2.5),166,,107,126,69,17,,28,28,76,66,28,24,1.6,1.3
2026-01-09T1800,2483A,109.9297,27.5383,怀化市,河西地税局,,50,42,56,35,49,75,,73,73,27,26,6,4,/,/
2026-01-09T1800,2484A,109.9783,27.5342,怀化市,市四医院,颗粒物(PM10),54,57,73,31,50,68,,76,76,24,31,14,11,0.6,0.7
2026-01-09T1800,2485A,109.9971,27.5579,怀化市,监测楼,,49,37,66,34,55,82,,86,86,22,31,6,3,0.2,0.3
2026-01-09T1800,1210A,119.0566,33.5991,淮安市,钵池山,细颗粒物(PM2.5),58,56,75,41,50,82,,83,83,20,25,8,12,0.2,0.5
2026-01-09T1800,1211A,119.0083,33.578,淮安市,北京南路,颗粒物(PM10),63,75,86,43,52,53,,68,68,37,39,38,13,1.6,0.7
2026-01-09T1800,1212A,118.9938,33.6083,淮安市,市监测站,颗粒物(PM10),51,51,76,31,49,73,,78,78,24,37,9,15,0.7,1.2
2026-01-09T1800,1213A,119.135,33.5038,淮安市,楚州区监测站,颗粒物(PM10),56,61,84,30,51,68,,73,73,27,46,14,11,0.4,0.7
2026-01-09T1800,3426A,118.8757,33.2897,淮安市,新华书店,颗粒物(PM10),55,59,81,34,55,76,,76,76,22,40,9,11,0.8,0.9
2026-01-09T1800,4092A,119.119691,33.550006,淮安市,枚皋中路89号,细颗粒物(PM2.5),53,53,87,37,59,84,,84,84,19,36,10,11,0.4,0.8
2026-01-09T1800,4206A,119.028838,33.631911,淮安市,承德北路606号,细颗粒物(PM2.5),58,63,83,41,49,72,,76,76,23,34,8,13,0.5,0.7
2026-01-09T1800,2282A,116.8005,33.9749,淮北市,监测站,,,82,96,47,57,72,,80,79,,34,10,11,0.7,0.8
2026-01-09T1800,2283A,116.8094,33.9008,淮北市,烈山区政府,颗粒物(PM10),65,80,101,39,59,77,,88,88,22,34,11,12,0.3,0.5
2026-01-09T1800,4017A,116.7926,33.9534,淮北市,市博物馆,颗粒物(PM10),65,79,95,44,58,70,,74,74,40,35,6,7,0.5,0.6
2026-01-09T1800,4100A,116.8322,33.9884,淮北市,杜集区第一实验学校,颗粒物(PM10),67,83,94,39,56,76,,75,75,24,27,8,9,0.5,0.6
2026-01-09T1800,2277A,116.8304,32.7726,淮南市,潘集区政府,颗粒物(PM10),63,75,90,37,54,88,,91,91,23,27,7,8,0.7,0.6
2026-01-09T1800,2279A,116.8569,32.5949,淮南市,谢家集区政府,颗粒物(PM10),55,60,76,22,35,89,,90,90,23,28,8,9,0.5,0.5
2026-01-09T1800,2280A,116.8279,32.6333,淮南市,八公山区政府,,48,48,70,27,37,104,,95,95,11,21,4,5,0.4,0.5
2026-01-09T1800,2894A,117.0561,32.6536,淮南市,经济技术开发区消防队,颗粒物(PM10),62,74,89,29,40,100,,93,93,17,27,6,7,0.5,0.5
2026-01-09T1800,3329A,117.011,32.5891,淮南市,山南新区,颗粒物(PM10),60,69,85,19,36,90,,88,88,29,27,4,4,0.5,0.5
2026-01-09T1800,4209A,117.003137,32.644456,淮南市,国庆中路369号,细颗粒物(PM2.5),58,57,67,41,43,91,,85,85,19,29,9,8,0.6,0.7
2026-01-09T1800,2446A,114.9021,30.474,黄冈市,职工中心,,44,44,55,29,35,108,,91,91,20,33,8,8,0.7,0.7
2026-01-09T1800,2929A,114.8858,30.4519,黄冈市,红卫路,细颗粒物(PM2.5),53,49,57,37,39,92,,86,86,27,40,8,9,0.6,0.6
2026-01-09T1800,3398A,114.9134,30.4446,黄冈市,市林业局,,50,50,64,30,36,111,,93,93,22,38,7,8,0.6,0.6
2026-01-09T1800,2672A,102.02,35.5101,黄南藏族自治州,同仁县隆务镇,细颗粒物(PM2.5),87,,36,64,15,73,,72,72,8,5,11,12,0.4,0.4
2026-01-09T1800,2295A,118.2905,29.6965,黄山市,延安路89号,,34,34,41,23,31,107,,94,94,9,17,5,4,0.4,0.5
2026-01-09T1800,2297A,118.1369,30.2755,黄山市,黄山区政府5号楼,,48,47,41,33,27,100,,95,95,13,12,3,2,0.3,0.4
2026-01-09T1800,4210A,118.335445,29.720283,黄山市,滨江东路7-2号,,48,46,56,33,39,99,,84,84,14,17,/,/,/,/
2026-01-09T1800,2423A,115.0547,30.2332,黄石市,沈家营,颗粒物(PM10),51,51,70,30,40,87,,70,70,20,48,5,9,1.2,1.3
2026-01-09T1800,2426A,114.899,30.211,黄石市,铁山,,50,48,63,35,37,89,,95,95,35,32,7,15,0.5,0.6
2026-01-09T1800,2427A,115.0259,30.2108,黄石市,团城山,,42,39,66,29,36,101,,83,83,19,45,6,8,0.5,0.7
2026-01-09T1800,3149A,115.0174,30.1591,黄石市,笔架山北路,颗粒物(PM10),52,53,93,29,43,75,,78,78,29,31,8,16,1.1,1.2
2026-01-09T1800,4185A,115.078022,30.21118,黄石市,磁湖东路29号,细颗粒物(PM2.5),90,79,71,67,46,45,,71,71,72,50,11,10,1.2,1
2026-01-09T1800,1392A,114.4181,23.0528,惠州市,河南岸金山湖子站,,,36,35,23,20,,,94,94,36,24,6,8,0.5,0.5
2026-01-09T1800,1393A,114.4055,23.0824,惠州市,下埔横江三路子站,,35,35,34,20,20,103,,103,103,18,15,10,10,0.3,0.3
2026-01-09T1800,1395A,114.4645,22.7832,惠州市,惠阳区承修路船湖子站,,31,31,35,17,20,99,,102,102,19,26,7,7,0.3,0.4
2026-01-09T1800,1396A,114.5316,22.7423,惠州市,大亚湾管委会子站,,32,32,34,16,19,92,,99,99,21,16,7,7,0.3,0.2
2026-01-09T1800,3314A,114.4334,22.8134,惠州市,惠阳秋长,,41,41,38,20,21,102,,111,111,24,22,/,/,/,/
2026-01-09T1800,3452A,114.6521,22.7755,惠州市,大亚湾霞涌,颗粒物(PM10),52,53,33,25,17,106,,105,105,16,15,/,/,/,/
2026-01-09T1800,4300A,114.4089,23.1147,惠州市,文华一路1号,,,,34,,21,,,106,,,16,,,,
2026-01-09T1800,2240A,130.9618,45.2926,鸡西市,环保局,细颗粒物(PM2.5),72,75,52,52,35,17,,24,24,38,28,12,10,0.9,0.7
2026-01-09T1800,2243A,130.9294,45.2959,鸡西市,第一中学,细颗粒物(PM2.5),72,70,45,52,33,64,,57,55,11,11,4,4,1.0,0.8
2026-01-09T1800,3707A,131.0069,45.2988,鸡西市,欧美日汽修厂,细颗粒物(PM2.5),87,82,73,64,50,16,,37,35,39,29,20,22,0.6,0.5
2026-01-09T1800,2367A,114.9753,27.0803,吉安市,红声器材厂,,,31,52,20,28,96,,97,97,,29,9,10,0.4,0.6
2026-01-09T1800,2369A,114.9903,27.1313,吉安市,市环境监测站,,32,32,50,22,33,100,,101,101,16,34,9,10,/,/
2026-01-09T1800,2370A,115.009527,27.096792,吉安市,青原区法院,,42,42,60,20,34,90,,84,84,21,42,11,11,0.5,0.6
2026-01-09T1800,1772A,126.54,43.8622,吉林市,哈达湾,细颗粒物(PM2.5),84,114,49,62,31,25,,64,42,49,20,10,12,1.4,1.1
2026-01-09T1800,1773A,126.5843,43.8358,吉林市,东局子,细颗粒物(PM2.5),115,101,46,87,40,19,,52,34,45,21,5,7,1.3,0.9
2026-01-09T1800,1774A,126.5051,43.8243,吉林市,电力学院,细颗粒物(PM2.5),114,110,49,86,38,28,,56,43,44,22,44,16,1.2,0.8
2026-01-09T1800,1775A,126.6133,43.8971,吉林市,江北,细颗粒物(PM2.5),119,122,62,90,39,32,,48,38,32,21,7,10,1.3,1
2026-01-09T1800,1776A,126.5549,43.8304,吉林市,江南公园,细颗粒物(PM2.5),102,104,55,76,39,16,,61,34,54,22,10,10,1.0,0.7
2026-01-09T1800,2868A,126.4737,43.953,吉林市,九站,细颗粒物(PM2.5),87,95,50,64,32,37,,47,43,32,24,14,9,1.0,0.7
2026-01-09T1800,1299A,116.9866,36.6118,济南市,科干所,颗粒物(PM10),71,92,82,39,35,73,,74,74,28,19,11,8,0.8,0.8
2026-01-09T1800,1300A,116.9379,36.6652,济南市,农科所,颗粒物(PM10),74,98,88,39,41,54,,66,65,38,22,10,7,0.8,0.6
2026-01-09T1800,1301A,117.1265,36.6736,济南市,开发区,颗粒物(PM10),66,81,71,42,37,72,,76,75,33,22,8,7,0.8,0.7
2026-01-09T1800,1303A,117.0616,36.6865,济南市,省种子仓库,颗粒物(PM10),69,88,81,36,36,69,,76,75,33,20,9,7,0.9,0.7
2026-01-09T1800,1304A,116.9495185,36.644937,济南市,机床二厂,颗粒物(PM10),75,100,98,51,44,66,,68,68,36,26,18,11,0.5,0.7
2026-01-09T1800,1305A,117.0496,36.6629,济南市,市监测站,颗粒物(PM10),68,85,79,37,35,71,,75,74,24,15,8,7,0.7,0.6
2026-01-09T1800,1306A,116.7674,36.5458,济南市,长清党校,颗粒物(PM10),67,83,85,42,43,66,,68,68,32,24,9,10,0.8,0.8
2026-01-09T1800,1961A,117.5323,36.6865,济南市,东山小学,颗粒物(PM10),69,88,88,42,40,70,,79,78,29,22,6,7,0.8,0.9
2026-01-09T1800,3059A,117.7181,36.205,济南市,泰兴公司,颗粒物(PM10),78,105,89,53,52,54,,77,77,48,36,10,9,0.7,0.7
2026-01-09T1800,3064A,117.6861,36.2172,济南市,莱芜战役纪念馆,细颗粒物(PM2.5),77,90,79,56,51,62,,74,73,37,28,10,10,0.4,0.4
2026-01-09T1800,3494A,117.1673,36.9782,济南市,济阳区政府,颗粒物(PM10),77,103,92,42,38,52,,68,67,46,28,8,9,0.7,0.5
2026-01-09T1800,3495A,117.1168,36.6299,济南市,锦屏中学,颗粒物(PM10),63,76,68,32,30,76,,78,78,25,20,6,4,0.7,0.6
2026-01-09T1800,4108A,117.7107,36.2385,济南市,山财大街5号,颗粒物(PM10),78,105,80,40,42,73,,82,82,40,31,13,14,0.9,0.9
2026-01-09T1800,4109A,116.9744,36.6889,济南市,无影山路12号,颗粒物(PM10),73,95,87,42,43,64,,70,70,31,18,13,9,0.1,0.1
2026-01-09T1800,1653A,116.6229,35.4288,济宁市,火炬城,颗粒物(PM10),70,89,81,39,53,78,,77,77,23,21,4,4,0.4,0.4
2026-01-09T1800,3500A,116.5808,35.3703,济宁市,北湖一中,颗粒物(PM10),67,84,81,39,57,67,,74,74,30,24,7,8,0.4,0.5
2026-01-09T1800,3501A,116.8251,35.5592,济宁市,服务中心,颗粒物(PM10),75,100,95,38,46,55,,63,63,41,39,10,12,0.6,0.7
2026-01-09T1800,3678A,116.5907,35.4054,济宁市,市第七中学,颗粒物(PM10),73,96,86,31,44,80,,81,81,26,22,6,7,0.4,0.5
2026-01-09T1800,4111A,116.6075,35.4566,济宁市,任和路,颗粒物(PM10),78,106,93,24,46,76,,75,75,28,23,5,7,0.4,0.5
2026-01-09T1800,4112A,116.5648,35.3921,济宁市,文体南路1号,颗粒物(PM10),79,107,97,21,51,71,,77,77,29,23,4,5,0.4,0.5
2026-01-09T1800,2255A,130.2749,46.8028,佳木斯市,佳纺,细颗粒物(PM2.5),77,79,39,56,26,8,,48,31,61,20,9,9,1.1,0.6
2026-01-09T1800,2257A,130.3258,46.7975,佳木斯市,环保局,细颗粒物(PM2.5),84,68,32,62,27,4,,47,19,66,29,13,9,0.9,0.5
2026-01-09T1800,4285A,130.363,46.806,佳木斯市,顺和街,细颗粒物(PM2.5),72,60,29,52,24,3,,39,17,60,29,12,11,0.7,0.5
2026-01-09T1800,4286A,130.3952,46.8268,佳木斯市,长安路196号,颗粒物(PM10),57,64,29,39,22,16,,44,32,50,20,9,7,0.7,0.5
2026-01-09T1800,1252A,120.7439,30.778,嘉兴市,清河小学,细颗粒物(PM2.5),62,71,121,44,87,59,,71,71,51,62,7,8,0.3,0.9
2026-01-09T1800,1253A,120.7261,30.7477,嘉兴市,嘉兴学院,颗粒物(PM10),59,68,113,41,75,52,,71,71,54,63,8,9,0.4,0.7
2026-01-09T1800,2872A,120.7845,30.7524,嘉兴市,南湖区残联,细颗粒物(PM2.5),65,65,113,47,81,75,,81,81,44,71,6,7,0.6,0.9
2026-01-09T1800,3407A,120.6915,30.7741,嘉兴市,秀洲住建,颗粒物(PM10),57,64,122,37,85,62,,78,78,46,67,7,8,0.4,0.8
2026-01-09T1800,1945A,98.291,39.7705,嘉峪关市,气象局,,,,102,,28,80,,70,70,13,18,14,15,,0.6
2026-01-09T1800,2884A,98.2672,39.7978,嘉峪关市,酒钢宾馆,颗粒物(PM10),102,153,120,19,31,42,,56,40,60,29,32,20,1.3,0.8
2026-01-09T1800,3248A,98.2644,39.7723,嘉峪关市,雄关区,颗粒物(PM10),64,77,78,21,27,74,,70,70,25,25,11,14,0.3,0.5
2026-01-09T1800,1383A,113.1063,22.6058,江门市,北街,,42,42,45,28,27,100,,94,94,43,47,/,/,/,/
2026-01-09T1800,1384A,113.073,22.5835,江门市,西区,颗粒物(PM10),51,52,51,33,30,92,,89,89,44,50,/,/,/,/
2026-01-09T1800,1385A,113.0218,22.531,江门市,圭峰西,颗粒物(PM10),51,51,40,32,26,98,,88,88,38,34,/,/,/,/
2026-01-09T1800,1386A,113.0826,22.5947,江门市,东湖,颗粒物(PM10),51,51,46,21,27,97,,94,94,40,46,8,9,0.4,0.5
2026-01-09T1800,3311A,113.1077,22.5647,江门市,江海富民,,46,46,49,11,15,99,,94,94,48,53,/,/,0.3,0.3
2026-01-09T1800,3449A,113.0496,22.4669,江门市,新会银湖,颗粒物(PM10),55,60,51,37,32,85,,90,90,47,50,8,9,0.3,0.4
2026-01-09T1800,3335A,113.3137,35.2643,焦作市,马村街道办,颗粒物(PM10),57,64,68,14,28,87,,79,79,9,24,5,11,0.1,0.5
2026-01-09T1800,3336A,113.2464,35.2374,焦作市,焦作技师学院,,,60,67,12,30,88,,80,80,,31,,12,0.3,0.4
2026-01-09T1800,3477A,113.1656,35.2536,焦作市,中站许衡医院,颗粒物(PM10),54,57,58,17,26,88,,84,84,8,17,4,8,0.2,0.5
2026-01-09T1800,3981A,113.2456,35.18,焦作市,原李万街道办,颗粒物(PM10),73,96,73,7,23,84,,79,79,8,25,6,9,0.3,0.5
2026-01-09T1800,4264A,113.234,35.219,焦作市,新安路1731号,颗粒物(PM10),59,68,72,12,31,86,,78,78,10,29,4,7,0.3,0.6
2026-01-09T1800,4295A,113.2722,35.2121,焦作市,人民路3066号,颗粒物(PM10),66,82,76,9,24,82,,71,71,5,23,4,8,0.2,0.4
2026-01-09T1800,1708A,116.3701,23.5345,揭阳市,新兴,颗粒物(PM10),57,64,71,33,45,96,,98,98,44,53,14,17,0.6,0.6
2026-01-09T1800,1709A,116.3261,23.5442,揭阳市,西马,,,81,78,34,40,103,,96,96,,41,8,8,0.6,1
2026-01-09T1800,1710A,116.361,23.5627,揭阳市,东兴,颗粒物(PM10),53,55,76,33,40,99,,94,94,31,44,12,13,/,/
2026-01-09T1800,1711A,116.4151,23.5295,揭阳市,渔湖,颗粒物(PM10),53,55,69,26,39,110,,106,106,33,50,14,15,/,/
2026-01-09T1800,3320A,116.4028,23.5699,揭阳市,曲溪,颗粒物(PM10),55,59,73,33,41,110,,111,111,32,40,10,14,0.5,0.6
2026-01-09T1800,1944A,102.1691,38.5166,金昌市,天庆家园,颗粒物(PM10),73,95,76,19,23,73,,69,69,7,19,5,23,0.6,0.8
2026-01-09T1800,4022A,102.1648,38.5369,金昌市,金川区人防中心,颗粒物(PM10),69,87,62,22,22,76,,72,72,6,15,4,21,0.5,0.7
2026-01-09T1800,4239A,102.193042,38.531887,金昌市,长春路96号,颗粒物(PM10),71,91,73,20,22,75,,71,71,6,16,6,28,0.6,0.7
2026-01-09T1800,1262A,119.6478,29.0773,金华市,十五中,细颗粒物(PM2.5),69,78,76,50,47,72,,86,86,61,46,6,4,0.8,0.4
2026-01-09T1800,1263A,119.6859,29.1032,金华市,监测站,"颗粒物(PM10),细颗粒物(PM2.5)",62,73,91,44,59,76,,74,74,51,58,7,5,0.6,0.5
2026-01-09T1800,3659A,119.656,29.1132,金华市,气象局,颗粒物(PM10),66,81,80,46,51,65,,80,80,60,55,5,4,0.8,0.8
2026-01-09T1800,1767A,121.1114,41.0879,锦州市,南山,细颗粒物(PM2.5),135,125,90,103,67,12,,31,30,73,56,14,32,1.2,1.1
2026-01-09T1800,1768A,121.060361,40.842794,锦州市,开发区,细颗粒物(PM2.5),142,115,129,108,69,20,,22,22,60,60,11,16,1.2,1.1
2026-01-09T1800,1769A,121.1836,41.1118,锦州市,百股街道,细颗粒物(PM2.5),125,114,102,95,69,11,,34,33,76,56,40,28,1.3,1.2
2026-01-09T1800,1770A,121.1176,41.1224,锦州市,天安街道,细颗粒物(PM2.5),148,136,95,113,67,9,,32,30,74,54,18,32,1.7,1.6
2026-01-09T1800,1771A,121.1303,41.1385,锦州市,北湖公园,细颗粒物(PM2.5),216,166,100,166,73,7,,30,28,71,48,21,29,1.8,1.4
2026-01-09T1800,2160A,112.8496,35.5051,晋城市,自来水公司,颗粒物(PM10),60,69,60,22,20,71,,75,75,19,27,5,6,0.6,0.8
2026-01-09T1800,2162A,112.8509,35.4886,晋城市,市环保局,颗粒物(PM10),54,57,63,14,20,84,,86,86,19,35,4,5,0.5,0.7
2026-01-09T1800,3620A,112.8258,35.4804,晋城市,泽州一中,颗粒物(PM10),65,80,57,14,15,86,,86,86,8,14,4,4,0.3,0.3
2026-01-09T1800,4078A,112.8246,35.5152,晋城市,前书院路,颗粒物(PM10),69,88,74,11,13,76,,75,75,14,23,5,5,0.4,0.5
2026-01-09T1800,4079A,112.8864,35.4773,晋城市,祥云街666号,颗粒物(PM10),63,76,60,19,19,86,,85,85,13,26,4,7,0.3,0.5
2026-01-09T1800,2174A,112.6992,37.6984,晋中市,榆次区政府,颗粒物(PM10),500,649,169,36,44,76,,71,71,13,36,10,20,0.3,0.9
2026-01-09T1800,2865A,112.7195,37.683,晋中市,榆次三中,颗粒物(PM10),500,823,190,34,36,80,,73,73,6,36,5,20,0.3,1.1
2026-01-09T1800,4080A,112.7375,37.7215,晋中市,广安街188号,颗粒物(PM10),500,606,165,44,42,80,,72,72,9,36,6,15,0.0,0.7
2026-01-09T1800,4200A,112.7478,37.6954,晋中市,迎宾街26号,颗粒物(PM10),500,708,170,39,39,80,,72,72,11,34,6,21,0.4,0.9
2026-01-09T1800,2439A,112.2012,31.048,荆门市,竹园小学,细颗粒物(PM2.5),74,66,94,54,68,92,,79,79,22,27,4,2,0.3,0.5
2026-01-09T1800,2440A,112.1968,30.9892,荆门市,掇刀,细颗粒物(PM2.5),74,56,87,54,60,96,,91,91,21,26,5,6,0.5,0.6
2026-01-09T1800,3012A,112.1849,31.0361,荆门市,西山林语,细颗粒物(PM2.5),67,62,82,48,56,94,,86,86,21,24,5,5,0.4,0.4
2026-01-09T1800,3547A,112.1631,31.0134,荆门市,龙泉中学南校,,,71,85,48,64,92,,90,90,,18,6,9,,0.6
2026-01-09T1800,4124A,112.2213,31.0654,荆门市,新台西路6号,细颗粒物(PM2.5),89,81,95,66,80,92,,83,83,22,33,9,10,0.6,0.7
2026-01-09T1800,1844A,112.2493,30.3198,荆州市,市图书馆,细颗粒物(PM2.5),67,48,66,48,71,93,,88,88,25,28,6,8,0.7,0.8
2026-01-09T1800,1845A,112.2009,30.3543,荆州市,市委党校,细颗粒物(PM2.5),67,49,72,48,69,78,,75,75,29,36,3,5,0.7,0.8
2026-01-09T1800,3194A,112.2749,30.3124,荆州市,管委会,细颗粒物(PM2.5),59,44,67,42,71,94,,86,86,22,29,6,10,0.7,0.8
2026-01-09T1800,4268A,112.1722,30.3366,荆州市,学苑路85号,,,56,69,44,62,88,,88,88,24,34,14,15,,0.7
2026-01-09T1800,2343A,117.2114,29.2931,景德镇市,老干部活动中心,细颗粒物(PM2.5),60,48,49,43,37,86,,83,83,21,26,16,10,0.5,0.5
2026-01-09T1800,2344A,117.1893,29.2789,景德镇市,兽医站,细颗粒物(PM2.5),52,50,53,36,40,105,,91,91,18,29,13,12,0.7,0.9
2026-01-09T1800,2346A,117.246,29.2958,景德镇市,陶研所,细颗粒物(PM2.5),60,46,48,43,40,87,,84,84,14,25,4,5,0.5,0.4
2026-01-09T1800,4289A,117.154766,29.256967,景德镇市,青少年活动中心,颗粒物(PM10),52,53,62,26,34,111,,93,93,17,36,8,24,/,/
2026-01-09T1800,1803A,115.9873,29.6816,九江市,十里,,43,38,52,30,36,84,,97,97,34,51,6,6,0.8,0.9
2026-01-09T1800,1804A,115.9583,29.7047,九江市,茅山头,,44,44,49,23,29,88,,91,91,24,55,5,5,0.7,0.8
2026-01-09T1800,1805A,115.9877,29.7295,九江市,西园,,43,43,52,24,30,70,,83,83,56,70,2,3,0.7,0.8
2026-01-09T1800,1808A,115.9112,29.6038,九江市,综合工业园,,40,37,47,28,35,101,,99,99,26,47,4,3,0.8,0.7
2026-01-09T1800,3190A,116.0254,29.6995,九江市,外国语学校,,50,47,49,35,35,51,,68,68,58,57,8,11,0.8,0.8
2026-01-09T1800,4253A,116.010205,29.659402,九江市,莲花大道8号,细颗粒物(PM2.5),53,,39,37,25,73,,88,88,19,15,4,4,0.4,0.3
2026-01-09T1800,4240A,98.495752,39.733935,酒泉市,玉门东路5号,颗粒物(PM10),78,105,117,28,32,64,,64,64,20,15,18,11,0.7,0.5
2026-01-09T1800,4241A,98.5099,39.7506,酒泉市,北大街108号,颗粒物(PM10),65,80,109,24,30,65,,64,64,21,18,18,10,0.6,0.5
2026-01-09T1800,2698A,76.0071,39.466,喀什地区,巡警大队,颗粒物(PM10),60,69,123,33,79,65,,38,38,26,47,11,6,1.0,2.1
2026-01-09T1800,2699A,75.9756,39.4693,喀什地区,吾办,颗粒物(PM10),59,67,129,39,90,68,,44,44,21,51,9,7,0.8,2.2
2026-01-09T1800,4027A,75.9485,39.4688,喀什地区,老干局,颗粒物(PM10),59,67,154,30,96,74,,45,45,16,46,4,5,0.9,3
2026-01-09T1800,1824A,114.3389,34.778,开封市,肿瘤医院,颗粒物(PM10),67,83,91,18,39,64,,76,76,30,30,4,6,0.4,0.6
2026-01-09T1800,1826A,114.2884,34.7966,开封市,世纪星幼儿园,颗粒物(PM10),63,76,83,18,44,69,,76,76,25,30,2,4,0.3,0.4
2026-01-09T1800,3147A,114.3434,34.8101,开封市,龙亭公园,颗粒物(PM10),69,88,86,8,35,71,,78,78,36,36,7,9,0.3,0.4
2026-01-09T1800,3210A,114.3645,34.7955,开封市,汴京公园,颗粒物(PM10),67,84,98,19,41,63,,70,70,31,32,4,6,0.4,0.6
2026-01-09T1800,3473A,114.2485,34.8306,开封市,技师学院,颗粒物(PM10),58,66,79,14,36,77,,78,78,18,26,5,7,0.5,0.6
2026-01-09T1800,3592A,114.4518,34.7503,开封市,祥符区生态环境局,颗粒物(PM10),66,81,81,18,42,58,,73,73,39,33,7,5,0.5,0.5
2026-01-09T1800,1951A,84.886,45.6029,克拉玛依市,长征新村,,21,17,108,13,73,66,,58,58,16,30,5,4,0.2,0.7
2026-01-09T1800,1952A,84.8894,45.5827,克拉玛依市,南林小区,,24,24,116,12,68,66,,56,56,11,18,4,4,0.5,1.1
2026-01-09T1800,1954A,84.896,44.3328,克拉玛依市,独山子区,细颗粒物(PM2.5),69,69,52,50,33,65,,58,58,17,18,5,5,0.6,0.6
2026-01-09T1800,1955A,85.6888,46.0909,克拉玛依市,乌尔禾区商贸楼,,23,23,107,6,82,69,,58,58,19,38,6,5,0.3,0.9
2026-01-09T1800,3612A,85.1045,45.6895,克拉玛依市,白碱滩区新站,,40,,109,28,82,69,,62,62,17,23,8,7,0.3,0.8
2026-01-09T1800,2697A,76.1457,39.7143,克孜勒苏柯尔克孜自治州,市人民政府,细颗粒物(PM2.5),57,57,63,40,38,87,,64,64,11,14,1,2,0.2,0.3
2026-01-09T1800,3665A,76.1654,39.7157,克孜勒苏柯尔克孜自治州,克州文化中心,,43,38,59,30,41,86,,59,59,9,19,4,4,0.4,0.8
2026-01-09T1800,1450A,102.8203,24.889,昆明市,呈贡新区,,24,22,25,6,15,74,,71,71,9,17,6,4,0.5,0.6
2026-01-09T1800,1452A,102.7253,25.0904,昆明市,龙泉镇,,29,29,32,11,21,68,,65,65,14,18,4,2,0.6,0.8
2026-01-09T1800,1453A,102.7267,25.0378,昆明市,东风东路,,23,19,33,16,26,70,,64,64,20,20,5,4,0.4,0.6
2026-01-09T1800,1454A,102.6744,25.0671,昆明市,金鼎山,,38,38,33,11,17,72,,65,65,12,17,3,2,0.6,0.7
2026-01-09T1800,1455A,102.6643,25.0401,昆明市,碧鸡广场,,22,14,26,12,22,68,,64,64,16,20,4,3,0.4,0.5
2026-01-09T1800,3179A,102.7491,25.012,昆明市,官渡区博物馆,,,,35,10,26,78,,73,73,13,19,3,2,,0.8
2026-01-09T1800,3375A,102.8016,24.8336,昆明市,青年创业园,,24,13,22,11,19,74,,72,72,4,10,3,4,0.4,0.5
2026-01-09T1800,3550A,102.8,24.9787,昆明市,昆明学院,,23,16,29,11,21,73,,58,58,13,18,3,3,0.3,0.7
2026-01-09T1800,3551A,102.5969,24.6738,昆明市,晋宁区生态环境分局,,22,15,26,9,20,69,,61,61,4,11,1,2,0.4,0.6
2026-01-09T1800,3552A,102.6673,24.9861,昆明市,云天化总部,,25,13,27,9,20,77,,69,69,15,16,5,5,0.4,0.5
2026-01-09T1800,1456A,91.132,29.6515,拉萨市,八廓街,,30,21,27,6,14,94,,78,78,12,17,8,8,0.2,0.6
2026-01-09T1800,1457A,91.1221,29.6748,拉萨市,市环保局,,24,23,37,10,23,76,,71,71,20,25,8,9,0.8,1.2
2026-01-09T1800,1458A,91.0874,29.6476,拉萨市,区监测站,,27,14,22,3,11,86,,74,74,16,29,5,4,0.7,0.8
2026-01-09T1800,1459A,91.1774,29.6541,拉萨市,西藏大学,,29,23,25,7,9,91,,73,73,15,18,5,5,0.3,0.3
2026-01-09T1800,1460A,90.9798,29.6586,拉萨市,区辐射站,,25,25,33,9,18,70,,63,63,28,28,4,5,0.5,0.6
2026-01-09T1800,1461A,91.0831,29.6292,拉萨市,拉萨火车站,,25,17,24,7,14,80,,64,64,18,32,5,5,0.5,0.9
2026-01-09T1800,2520A,109.2203,23.7252,来宾市,来宾技工学校,颗粒物(PM10),51,51,73,32,52,103,,87,87,11,29,7,13,0.4,0.7
2026-01-09T1800,3535A,109.1781,23.7293,来宾市,兴宾区政府,,45,43,66,31,50,108,,90,90,10,17,7,7,0.4,0.6
2026-01-09T1800,4002A,109.2312,23.7428,来宾市,中南小学,,36,31,69,25,48,104,,91,91,17,39,6,7,0.4,0.6
2026-01-09T1800,1479A,103.8309,36.0467,兰州市,铁路设计院,,,,,,,,,,,,,,,,
2026-01-09T1800,3241A,103.7439,36.0841,兰州市,百合公园,颗粒物(PM10),57,63,81,25,54,68,,42,42,26,59,13,22,0.5,1.4
2026-01-09T1800,3242A,103.9613,35.9985,兰州市,和平,颗粒物(PM10),61,71,67,38,46,82,,65,65,12,36,13,16,0.6,1.4
2026-01-09T1800,4236A,103.629272,36.093822,兰州市,庄浪东路808号,颗粒物(PM10),70,89,92,43,54,60,,49,49,37,59,21,29,0.8,1.3
2026-01-09T1800,4237A,103.7251,36.104344,兰州市,安宁西路88号,颗粒物(PM10),67,84,94,28,50,92,,54,54,25,67,16,22,0.7,1.2
2026-01-09T1800,4238A,103.846982,36.067567,兰州市,北滨河东路1号,颗粒物(PM10),70,90,81,35,49,91,,66,66,33,68,12,16,0.5,1.4
2026-01-09T1800,1067A,116.6712,39.5109,廊坊市,药材公司,细颗粒物(PM2.5),112,129,125,84,76,16,,30,30,68,53,7,8,1.0,0.9
2026-01-09T1800,1068A,116.7215,39.5592,廊坊市,开发区,细颗粒物(PM2.5),112,145,136,84,78,8,,24,24,80,62,8,10,0.8,0.8
2026-01-09T1800,1070A,116.7246,39.5273,廊坊市,北华航天学院,细颗粒物(PM2.5),117,137,137,88,79,17,,30,30,66,56,7,8,0.8,0.8
2026-01-09T1800,2919A,116.7022,39.5454,廊坊市,河北工业大学,细颗粒物(PM2.5),114,154,138,86,75,15,,26,26,68,54,8,10,0.8,0.8
2026-01-09T1800,2536A,103.7629,29.5844,乐山市,牛耳桥,细颗粒物(PM2.5),72,58,78,52,69,99,,81,81,19,32,8,8,0.5,0.7
2026-01-09T1800,2537A,103.7501,29.6002,乐山市,市第三水厂,细颗粒物(PM2.5),69,59,83,50,67,97,,80,80,23,39,7,7,0.6,0.7
2026-01-09T1800,2538A,103.7571,29.5664,乐山市,市监测站,细颗粒物(PM2.5),74,59,80,54,68,96,,77,77,14,29,7,7,0.5,0.7
2026-01-09T1800,3361A,103.7313,29.563,乐山市,理工大学,细颗粒物(PM2.5),67,56,80,48,68,102,,89,89,12,29,6,5,0.4,0.6
2026-01-09T1800,2599A,100.2497,26.8802,丽江市,丽江古城,,42,42,28,10,13,93,,86,86,12,10,11,8,0.5,0.5
2026-01-09T1800,2600A,100.2203,26.8906,丽江市,市中心,,45,45,21,20,10,90,,81,81,15,13,10,7,0.5,0.4
2026-01-09T1800,1267A,119.9141,28.4513,丽水市,监测站大楼,细颗粒物(PM2.5),92,,40,68,28,20,,76,75,56,32,5,6,1.4,0.4
2026-01-09T1800,1268A,119.93,28.4589,丽水市,莲都小学,,49,49,46,22,25,57,,82,82,39,29,/,/,/,/
2026-01-09T1800,1269A,119.8794,28.4232,丽水市,余庄前,,26,26,42,15,27,56,,78,78,18,24,5,5,0.2,0.3
2026-01-09T1800,1173A,119.1759,34.5885,连云港市,市环境监测站,颗粒物(PM10),63,75,80,39,50,78,,76,76,21,29,11,12,0.5,0.6
2026-01-09T1800,3000A,119.3577,34.6971,连云港市,德源药业,颗粒物(PM10),64,78,83,36,42,88,,81,81,21,32,8,8,0.4,0.5
2026-01-09T1800,3007A,119.178,34.8442,连云港市,新城一中,细颗粒物(PM2.5),75,91,79,55,60,78,,78,78,26,46,11,12,0.7,0.8
2026-01-09T1800,3008A,119.3607,34.7519,连云港市,胡沟管理处,颗粒物(PM10),60,70,67,39,38,75,,78,78,29,28,5,6,0.5,0.6
2026-01-09T1800,3009A,119.1478,34.5913,连云港市,矿山设计院,颗粒物(PM10),64,78,78,34,40,77,,79,79,25,22,11,9,0.7,0.8
2026-01-09T1800,3434A,119.2414,34.6539,连云港市,工贸学校,细颗粒物(PM2.5),67,78,79,48,52,71,,72,72,26,24,13,13,0.7,0.7
2026-01-09T1800,3664A,119.4171,34.734,连云港市,连云街道,颗粒物(PM10),61,72,69,36,38,92,,85,85,22,23,5,5,0.6,0.6
2026-01-09T1800,2573A,102.2629,27.8981,凉山彝族自治州,西昌市政府,细颗粒物(PM2.5),62,67,67,44,58,68,,55,55,18,24,8,6,0.9,0.9
2026-01-09T1800,2574A,102.2686,27.885,凉山彝族自治州,凉山州政府,细颗粒物(PM2.5),251,,83,201,76,64,,57,57,19,26,9,8,1.0,1
2026-01-09T1800,4229A,102.2342,27.8859,凉山彝族自治州,凯乐南路30号,细颗粒物(PM2.5),65,73,97,47,69,53,,50,50,39,37,18,7,1.3,0.8
2026-01-09T1800,2212A,123.1978,41.2036,辽阳市,宏伟区,细颗粒物(PM2.5),72,57,51,52,34,69,,65,65,16,11,7,7,0.7,0.6
2026-01-09T1800,2213A,123.1684,41.2497,辽阳市,新华园,细颗粒物(PM2.5),78,71,55,57,34,59,,58,58,27,19,8,8,0.5,0.4
2026-01-09T1800,2214A,123.2355,41.2663,辽阳市,滨河路,细颗粒物(PM2.5),74,78,55,54,31,40,,50,46,32,16,17,25,0.6,0.4
2026-01-09T1800,4083A,123.153,41.2874,辽阳市,铁西路150号,细颗粒物(PM2.5),70,68,62,51,36,58,,55,55,28,23,10,10,0.7,0.7
2026-01-09T1800,2227A,125.1359,42.8845,辽源市,环保局,细颗粒物(PM2.5),98,86,66,73,42,26,,48,37,45,30,5,7,1.2,0.9
2026-01-09T1800,4085A,125.0998,42.9134,辽源市,安宁大街333号,细颗粒物(PM2.5),108,93,69,81,40,33,,45,39,28,24,4,7,0.7,0.5
2026-01-09T1800,1625A,115.9789,36.4372,聊城市,区政府,颗粒物(PM10),77,103,98,19,47,66,,64,64,29,30,13,14,0.7,0.8
2026-01-09T1800,3200A,115.9772,36.4986,聊城市,监控中心,颗粒物(PM10),86,121,99,24,49,71,,70,70,31,25,12,13,0.6,0.7
2026-01-09T1800,3513A,116.0443,36.436,聊城市,九州社区,颗粒物(PM10),77,104,100,20,50,73,,75,75,19,17,9,5,0.5,0.6
2026-01-09T1800,4018A,116.0564,36.4609,聊城市,星美广场,颗粒物(PM10),73,96,102,20,47,70,,71,71,20,18,7,5,0.5,0.6
2026-01-09T1800,4113A,116.0091,36.4495,聊城市,利民路,,,92,91,19,48,,,56,,,29,,12,,0.6
2026-01-09T1800,2632A,94.3683,29.6373,林芝市,林芝监测站,,25,21,12,7,10,77,,70,70,2,4,4,3,0.3,0.3
2026-01-09T1800,2633A,94.3616,29.6634,林芝市,林芝人民医院,,28,28,18,8,10,68,,61,61,6,7,3,5,0.3,0.4
2026-01-09T1800,2603A,100.0779,23.8981,临沧市,市环保局,细颗粒物(PM2.5),88,,36,65,39,81,,74,74,7,11,6,3,0.3,0.5
2026-01-09T1800,2604A,100.0894,23.882,临沧市,市气象局,,28,28,39,15,34,79,,70,70,9,11,7,6,0.4,0.5
2026-01-09T1800,1733A,111.5552,36.0791,临汾市,临钢医院,颗粒物(PM10),80,110,100,44,50,51,,49,49,33,36,11,8,1.2,1.2
2026-01-09T1800,1734A,111.4984,36.0734,临汾市,技工学校,"颗粒物(PM10),细颗粒物(PM2.5)",73,96,98,53,47,54,,48,48,30,39,9,7,1.2,1.1
2026-01-09T1800,1736A,111.5017,36.0857,临汾市,市委,颗粒物(PM10),70,89,98,39,40,62,,51,51,31,40,13,10,1.4,1.3
2026-01-09T1800,3018A,111.5048,36.1015,临汾市,唐尧大酒店,颗粒物(PM10),72,93,96,47,43,60,,51,51,38,41,9,5,1.3,1.1
2026-01-09T1800,4244A,111.4879,36.053,临汾市,启星学校,颗粒物(PM10),75,99,92,44,42,61,,53,53,42,54,13,8,1.5,1.5
2026-01-09T1800,4271A,103.2464,35.6123,临夏回族自治州,滨河东路1号,,32,32,145,7,71,68,,60,60,23,35,7,6,0.4,1.4
2026-01-09T1800,4310A,103.207136,35.599807,临夏回族自治州,新华街21号,,,83,127,11,80,63,,56,56,,37,7,11,0.3,1.5
2026-01-09T1800,1618A,118.3429,35.0532,临沂市,沂河小区,颗粒物(PM10),78,105,105,56,70,70,,68,68,32,43,15,22,0.6,0.7
2026-01-09T1800,1619A,118.2962,35.0568,临沂市,鲁南制药厂,颗粒物(PM10),79,107,108,54,66,62,,65,65,41,46,21,23,0.5,0.7
2026-01-09T1800,1620A,118.2793,34.9976,临沂市,新光毛纺厂,颗粒物(PM10),75,100,110,52,66,70,,71,71,32,47,16,25,0.6,0.8
2026-01-09T1800,1621A,118.3955,35.0889,临沂市,河东保险公司,颗粒物(PM10),70,90,94,49,57,79,,78,78,31,34,16,18,0.6,0.7
2026-01-09T1800,3370A,118.3563,35.0215,临沂市,十里堡居委,颗粒物(PM10),73,95,109,39,59,73,,72,72,34,49,15,25,0.5,0.7
2026-01-09T1800,3496A,118.359,35.1067,临沂市,南坊新区,颗粒物(PM10),70,90,97,46,55,77,,76,76,35,40,13,19,0.6,0.7
2026-01-09T1800,3860A,118.3915,35.0297,临沂市,皇山花园小区,颗粒物(PM10),74,97,102,41,55,82,,79,79,29,41,16,23,0.7,0.8
2026-01-09T1800,1870A,109.4854,24.3898,柳州市,柳东小学,细颗粒物(PM2.5),68,58,53,49,48,127,,107,107,25,18,20,17,1.4,0.6
2026-01-09T1800,1871A,109.4109,24.3304,柳州市,环保监测站,颗粒物(PM10),59,68,100,37,69,106,,89,89,26,44,18,13,0.9,0.8
2026-01-09T1800,1872A,109.3886,24.3408,柳州市,河西水厂,,,73,123,32,77,79,,91,91,42,47,,16,0.5,0.8
2026-01-09T1800,1873A,109.4263,24.2951,柳州市,市四中,细颗粒物(PM2.5),54,51,80,38,61,117,,93,93,28,45,18,16,1.2,0.8
2026-01-09T1800,1874A,109.396,24.3658,柳州市,市九中,,,,115,,79,,,90,90,,46,,16,,1
2026-01-09T1800,1875A,109.4912,24.3164,柳州市,古亭山,颗粒物(PM10),56,61,44,36,31,94,,104,104,26,39,13,15,0.7,0.6
2026-01-09T1800,3402A,109.5422,24.3994,柳州市,市二中,细颗粒物(PM2.5),55,48,63,39,57,121,,100,100,17,32,13,10,0.5,0.5
2026-01-09T1800,2307A,116.5078,31.7369,六安市,监测大楼,,35,35,53,21,34,93,,93,93,19,31,4,4,0.4,0.4
2026-01-09T1800,2308A,116.4738,31.7642,六安市,皖西学院,,45,37,62,31,35,105,,105,105,13,32,5,5,0.3,0.5
2026-01-09T1800,2309A,116.4997,31.7904,六安市,朝阳厂,,37,37,52,19,32,92,,94,94,16,34,5,6,0.3,0.5
2026-01-09T1800,2310A,116.5566,31.7885,六安市,开发区,,,,73,20,41,89,,96,96,27,40,5,5,0.3,0.5
2026-01-09T1800,2577A,104.8293,26.592,六盘水市,黄土坡,细颗粒物(PM2.5),125,155,80,95,55,32,,74,50,51,22,18,14,1.5,0.8
2026-01-09T1800,2579A,104.8481,26.5898,六盘水市,民中,细颗粒物(PM2.5),144,136,71,110,57,38,,74,48,42,22,9,8,1.4,0.8
2026-01-09T1800,2580A,104.9541,26.5506,六盘水市,双水,细颗粒物(PM2.5),135,146,80,103,55,53,,75,52,32,17,11,8,0.8,0.6
2026-01-09T1800,4151A,104.8899,26.5685,六盘水市,钟山大道中段564号,细颗粒物(PM2.5),137,163,91,104,56,48,,72,48,28,17,8,10,1.3,0.9
2026-01-09T1800,2336A,117.022,25.1031,龙岩市,龙岩市监测站,,30,30,29,19,18,91,,97,97,22,19,8,24,0.4,0.4
2026-01-09T1800,2337A,117.0257,25.0662,龙岩市,闽西职业技术学院,,31,19,42,13,18,99,,100,100,13,22,7,15,0.4,0.4
2026-01-09T1800,2338A,117.0195,25.0306,龙岩市,龙岩学院,,33,33,31,16,19,87,,97,97,12,14,7,9,/,/
2026-01-09T1800,2885A,104.9344,33.3827,陇南市,滨江中学,颗粒物(PM10),101,152,104,74,52,14,,46,46,,66,5,16,1.8,2.2
2026-01-09T1800,3247A,104.9551,33.3709,陇南市,市总工会,,,,75,59,40,52,,56,55,28,36,8,11,0.7,1.1
2026-01-09T1800,2488A,111.9984,27.7346,娄底市,市监测站,"颗粒物(PM10),细颗粒物(PM2.5)",52,53,70,36,53,105,,92,92,21,39,9,12,0.7,1.1
2026-01-09T1800,2491A,111.9888,27.7035,娄底市,市政府,颗粒物(PM10),53,56,60,31,46,104,,106,106,22,21,9,6,0.6,0.7
2026-01-09T1800,4127A,111.9812,27.7591,娄底市,涟钢职大,细颗粒物(PM2.5),63,58,65,45,40,97,,84,84,29,31,8,13,0.5,1.4
2026-01-09T1800,4128A,112.0303,27.7457,娄底市,娄底体校,,50,50,60,30,45,98,,76,76,17,20,6,4,0.4,0.5
2026-01-09T1800,1894A,105.4427,28.9063,泸州市,小市上码头,细颗粒物(PM2.5),79,84,134,58,104,108,,79,79,17,35,11,13,1.0,1.2
2026-01-09T1800,1895A,105.4241,28.8573,泸州市,兰田宪桥,细颗粒物(PM2.5),94,87,110,70,87,104,,85,85,24,27,9,8,1.1,1.1
2026-01-09T1800,1896A,105.4378,28.8833,泸州市,市环监站,细颗粒物(PM2.5),84,79,117,62,93,117,,97,97,19,37,11,9,0.9,1.1
2026-01-09T1800,4272A,105.3689,28.7783,泸州市,纳溪中医医院,细颗粒物(PM2.5),87,71,98,64,79,103,,79,79,16,26,8,8,0.8,0.9
2026-01-09T1800,2183A,111.1447,37.5212,吕梁市,环保局,颗粒物(PM10),488,588,134,37,26,74,,58,58,5,41,1,5,0.4,0.5
2026-01-09T1800,2185A,111.1285,37.5338,吕梁市,自来水公司,颗粒物(PM10),449,549,167,43,34,74,,57,57,5,34,1,7,0.3,0.5
2026-01-09T1800,2867A,111.1225,37.5093,吕梁市,马茂庄小学,颗粒物(PM10),500,632,153,62,32,72,,52,52,6,42,2,7,0.2,0.4
2026-01-09T1800,1812A,112.3934,34.6517,洛阳市,市委党校,颗粒物(PM10),53,55,58,18,30,80,,78,78,17,26,7,10,0.3,0.5
2026-01-09T1800,1815A,112.494,34.6883,洛阳市,河南林校,颗粒物(PM10),59,67,75,26,29,81,,79,79,17,33,8,12,0.4,0.7
2026-01-09T1800,1816A,112.3843,34.623,洛阳市,开发区管委会,,,52,66,16,32,76,,,,,56,3,34,0.6,0.5
2026-01-09T1800,1817A,112.4263,34.6249,洛阳市,市委新办公区,颗粒物(PM10),53,55,61,20,34,87,,85,85,13,25,8,10,0.4,0.6
2026-01-09T1800,3340A,112.6005,34.6323,洛阳市,伊滨,颗粒物(PM10),53,56,64,21,34,83,,80,80,8,22,6,8,0.2,0.4
2026-01-09T1800,3341A,112.495,34.6338,洛阳市,中移产业园,颗粒物(PM10),55,59,63,18,32,81,,80,80,19,26,8,11,0.3,0.4
2026-01-09T1800,3593A,112.5736,34.8993,洛阳市,吉利监测站,颗粒物(PM10),53,56,52,12,22,88,,86,86,16,31,8,8,0.4,0.6
2026-01-09T1800,3635A,112.3678,34.6623,洛阳市,河科大西苑校区,颗粒物(PM10),53,56,67,19,30,80,,80,80,13,26,7,9,0.4,0.6
2026-01-09T1800,3636A,112.4387,34.678,洛阳市,英才小学,颗粒物(PM10),53,56,70,22,36,84,,82,82,17,35,9,12,0.3,0.6
2026-01-09T1800,4214A,112.460027,34.694929,洛阳市,春都路1号院,颗粒物(PM10),58,66,78,16,29,78,,79,79,15,30,7,10,0.5,0.7
2026-01-09T1800,2399A,114.051,33.5721,漯河市,三五一五工厂,颗粒物(PM10),58,65,82,39,46,75,,78,78,16,19,7,9,0.7,0.8
2026-01-09T1800,2400A,114.0055,33.5698,漯河市,漯河大学,颗粒物(PM10),53,55,73,29,41,71,,75,75,15,21,6,8,0.5,0.6
2026-01-09T1800,2401A,114.0134,33.5826,漯河市,市水利局,颗粒物(PM10),54,58,71,34,42,69,,72,72,11,15,7,8,0.6,0.6
2026-01-09T1800,2402A,114.0261,33.5697,漯河市,市广电局,颗粒物(PM10),52,54,71,31,42,76,,83,83,17,16,7,9,0.6,0.7
2026-01-09T1800,3478A,113.9691,33.568,漯河市,市图书馆,细颗粒物(PM2.5),55,53,81,39,46,64,,68,68,12,16,5,7,0.4,0.7
2026-01-09T1800,4250A,114.089259,33.588274,漯河市,韶山路11号,颗粒物(PM10),55,59,78,35,42,70,,74,74,24,20,7,9,0.3,0.4
2026-01-09T1800,1798A,118.5084,31.6838,马鞍山市,湖东路四小,颗粒物(PM10),63,75,96,40,52,81,,82,82,34,53,6,6,0.5,0.9
2026-01-09T1800,1799A,118.5019,31.6449,马鞍山市,开发区,颗粒物(PM10),66,82,95,45,62,72,,81,81,46,56,6,7,0.4,0.8
2026-01-09T1800,3633A,118.4914,31.681,马鞍山市,雨山,"颗粒物(PM10),细颗粒物(PM2.5)",64,78,93,46,55,82,,84,84,36,56,8,9,0.5,0.9
2026-01-09T1800,4191A,118.527362,31.722269,马鞍山市,慈湖高新区,细颗粒物(PM2.5),67,78,99,48,60,81,,78,78,35,49,5,7,0.4,0.7
2026-01-09T1800,1686A,111.0285,21.469,茂名市,电白南海,,48,48,50,24,24,122,,116,116,20,22,10,18,0.5,0.4
2026-01-09T1800,1687A,110.9294,21.6533,茂名市,茂石化七小,颗粒物(PM10),52,53,53,24,29,115,,114,114,22,27,12,13,0.4,0.5
2026-01-09T1800,1688A,110.9108,21.6688,茂名市,健康路,,39,39,54,24,36,120,,122,122,29,33,16,28,0.9,0.7
2026-01-09T1800,1689A,110.8592,21.6826,茂名市,高岭,,39,34,83,12,35,122,,121,121,16,39,9,29,/,/
2026-01-09T1800,3450A,111.0101,21.5165,茂名市,电白水东,,,29,39,22,24,116,,114,114,,15,8,15,/,/
2026-01-09T1800,2540A,103.8414,30.0871,眉山市,气象局,细颗粒物(PM2.5),67,60,80,48,67,115,,87,87,18,35,10,11,0.4,0.6
2026-01-09T1800,3148A,103.829,30.0563,眉山市,区人社局,细颗粒物(PM2.5),62,65,87,44,67,99,,97,97,26,46,8,9,0.7,0.9
2026-01-09T1800,4148A,103.8836,30.0695,眉山市,眉职院,细颗粒物(PM2.5),60,67,83,43,55,112,,86,86,16,28,2,3,0.5,0.7
2026-01-09T1800,1690A,116.1248,24.3307,梅州市,梅江月梅,,42,40,38,29,22,99,,92,92,21,30,/,/,/,/
2026-01-09T1800,1691A,116.0798,24.2719,梅州市,梅县新城,,43,43,40,30,25,82,,86,86,32,32,8,8,0.6,0.5
2026-01-09T1800,3315A,116.1234,24.2994,梅州市,梅龙,,41,41,37,23,20,80,,82,82,32,28,8,9,0.6,0.5
2026-01-09T1800,1878A,104.7775,31.4741,绵阳市,富乐山,细颗粒物(PM2.5),92,81,81,68,66,92,,70,70,17,31,12,11,0.5,0.6
2026-01-09T1800,1880A,104.6698,31.4668,绵阳市,高新区自来水公司,细颗粒物(PM2.5),98,91,111,73,76,102,,77,77,25,47,9,9,0.8,1
2026-01-09T1800,3491A,104.6899,31.5324,绵阳市,西科大附属小学,细颗粒物(PM2.5),124,113,121,94,82,96,,73,73,28,45,10,9,0.2,0.8
2026-01-09T1800,3492A,104.5647,31.5343,绵阳市,安州区旅游局,细颗粒物(PM2.5),92,84,101,68,79,97,,80,80,37,42,18,14,1.1,1.3
2026-01-09T1800,4146A,104.7092,31.4972,绵阳市,科技城新区公安局,细颗粒物(PM2.5),88,92,107,65,77,107,,89,89,24,44,4,4,0.7,1.1
2026-01-09T1800,4226A,104.765114,31.453094,绵阳市,绵阳市气象局,细颗粒物(PM2.5),93,82,95,69,71,88,,60,60,27,42,8,8,0.4,0.6
2026-01-09T1800,1784A,129.61,44.561,牡丹江市,环保大楼,细颗粒物(PM2.5),68,55,50,49,30,38,,39,39,39,30,9,6,0.6,0.6
2026-01-09T1800,1787A,129.6364,44.6075,牡丹江市,机车工厂,颗粒物(PM10),91,132,88,59,44,16,,34,34,52,42,34,19,0.8,0.8
2026-01-09T1800,1788A,129.6386,44.5462,牡丹江市,第一中学,颗粒物(PM10),67,84,45,46,30,8,,33,33,68,34,11,7,1.0,0.7
2026-01-09T1800,4287A,129.5992,44.5964,牡丹江市,东晓云街98号,细颗粒物(PM2.5),114,134,70,86,55,16,,42,42,58,36,14,9,1.2,0.9
2026-01-09T1800,2531A,105.0703,29.61,内江市,市监测站,细颗粒物(PM2.5),102,85,92,76,81,130,,102,102,29,34,7,6,0.7,0.9
2026-01-09T1800,2533A,105.0657,29.5807,内江市,内江二中,,,111,100,74,76,125,,94,94,28,47,6,5,,1
2026-01-09T1800,2534A,105.0407,29.5828,内江市,内江日报社,细颗粒物(PM2.5),94,88,76,70,75,121,,98,98,40,51,3,3,0.6,0.8
2026-01-09T1800,4147A,105.0433,29.6105,内江市,玉峰路西段888号,,,,106,72,77,135,,102,102,,44,6,4,,0.8
2026-01-09T1800,2628A,92.0653,31.4846,那曲市,那曲监测站,,25,18,59,13,33,80,,67,67,6,24,7,9,0.6,1.3
2026-01-09T1800,4243A,92.0515,31.4787,那曲市,那曲市委宣传部,,,18,51,3,24,,,63,63,2,20,4,8,0.3,1.2
2026-01-09T1800,1291A,115.8887,28.7006,南昌市,省林业公司,细颗粒物(PM2.5),62,66,65,44,42,99,,88,88,18,57,8,7,0.7,0.8
2026-01-09T1800,1292A,115.813,28.7443,南昌市,林科所,"颗粒物(PM10),细颗粒物(PM2.5)",58,66,56,41,35,97,,96,96,28,57,11,9,0.2,0.3
2026-01-09T1800,1294A,115.8518,28.687,南昌市,建工学校,细颗粒物(PM2.5),65,74,70,47,45,91,,84,84,23,35,17,16,0.6,0.7
2026-01-09T1800,1295A,115.8926,28.6425,南昌市,象湖,细颗粒物(PM2.5),58,57,63,41,45,91,,80,80,33,58,12,13,0.8,0.9
2026-01-09T1800,3046A,115.9084,28.6062,南昌市,机电学校,颗粒物(PM10),60,69,79,41,49,94,,86,86,28,50,7,12,0.5,0.6
2026-01-09T1800,3690A,115.9718,28.7032,南昌市,外国语学校,细颗粒物(PM2.5),69,58,77,50,49,89,,88,88,39,58,16,15,0.6,0.8
2026-01-09T1800,4106A,115.7923,28.6873,南昌市,工业二路,细颗粒物(PM2.5),54,56,50,38,35,98,,109,109,28,46,10,7,0.3,0.3
2026-01-09T1800,4192A,115.931587,28.686774,南昌市,南京东路235号,细颗粒物(PM2.5),65,66,80,47,57,95,,90,90,46,68,9,9,0.4,0.8
2026-01-09T1800,1906A,106.0791,30.8022,南充市,南充市委,细颗粒物(PM2.5),90,74,92,67,78,86,,62,62,26,42,5,5,0.7,0.8
2026-01-09T1800,1907A,106.1038,30.8215,南充市,南充炼油厂,细颗粒物(PM2.5),88,78,98,65,77,98,,77,77,25,38,6,6,0.5,0.6
2026-01-09T1800,4227A,106.108336,30.788436,南充市,梨树横街98号,细颗粒物(PM2.5),78,70,91,57,73,107,,92,92,24,46,7,7,0.6,0.9
2026-01-09T1800,4304A,106.1172,30.843,南充市,清泉寺北路188号,细颗粒物(PM2.5),82,61,72,60,65,109,,82,82,28,24,7,7,0.5,0.5
2026-01-09T1800,4305A,106.067,30.7616,南充市,同庆路1号,细颗粒物(PM2.5),73,56,86,53,72,97,,70,70,24,52,8,7,0.9,1.2
2026-01-09T1800,1151A,118.8033,32.1085,南京市,迈皋桥,颗粒物(PM10),58,66,77,34,48,69,,80,80,32,42,14,6,1.3,0.9
2026-01-09T1800,1152A,118.7487,32.057,南京市,草场门,颗粒物(PM10),65,80,90,31,50,69,,74,74,45,57,18,11,1.2,0.7
2026-01-09T1800,1154A,118.770105,32.004342,南京市,中华门,颗粒物(PM10),57,63,81,36,49,78,,73,73,27,55,4,5,0.6,0.8
2026-01-09T1800,1155A,118.8059,32.0329,南京市,瑞金路,颗粒物(PM10),59,68,83,36,54,74,,69,69,33,71,4,4,0.8,1.1
2026-01-09T1800,1156A,118.7946,32.0774,南京市,玄武湖,颗粒物(PM10),60,70,81,35,48,69,,71,71,20,30,4,4,1.1,1
2026-01-09T1800,1157A,118.6415,32.0964,南京市,浦口,颗粒物(PM10),62,73,90,32,49,73,,66,66,33,48,9,11,0.3,0.6
2026-01-09T1800,1158A,118.730129,32.000956,南京市,奥体中心,颗粒物(PM10),66,81,87,39,51,75,,83,83,44,61,14,10,0.9,0.9
2026-01-09T1800,1159A,118.9072,32.1047,南京市,仙林大学城,颗粒物(PM10),59,68,86,34,49,79,,71,71,30,52,9,9,0.8,1
2026-01-09T1800,3422A,118.8443,31.919,南京市,江宁彩虹桥,颗粒物(PM10),54,57,78,31,48,82,,82,82,23,55,5,9,0.5,0.7
2026-01-09T1800,3427A,118.8497,32.3599,南京市,六合雄州,颗粒物(PM10),63,76,82,43,52,87,,76,76,30,55,11,13,0.8,1
2026-01-09T1800,4086A,118.7641,32.0841,南京市,新模范马路66号,,,,99,34,51,68,,75,75,37,47,7,5,1.6,1
2026-01-09T1800,4249A,118.8707617,31.34017673,南京市,汶溪路181号,,44,44,67,28,51,88,,93,93,26,40,7,7,0.5,0.7
2026-01-09T1800,4312A,119.019,31.6512,南京市,中山西路1号,,48,48,73,31,55,80,,82,82,25,39,3,4,0.4,0.7
2026-01-09T1800,1401A,108.3098,22.788,南宁市,二十一中,细颗粒物(PM2.5),65,53,63,47,49,109,,78,78,15,41,5,5,0.4,0.6
2026-01-09T1800,1402A,108.3135,22.8529,南宁市,北湖,,50,50,66,35,44,100,,88,88,35,50,4,13,0.6,0.8
2026-01-09T1800,1403A,108.3205,22.8222,南宁市,市监测站,细颗粒物(PM2.5),60,,56,43,42,110,,90,90,25,41,8,12,0.6,0.8
2026-01-09T1800,1404A,108.3828,22.8038,南宁市,大自然花园,细颗粒物(PM2.5),60,55,52,43,38,116,,98,98,22,29,7,8,0.6,0.6
2026-01-09T1800,1406A,108.2397,22.8462,南宁市,区农职院,细颗粒物(PM2.5),55,39,47,39,40,108,,98,98,25,36,9,10,0.7,0.7
2026-01-09T1800,1407A,108.3285,22.7356,南宁市,英华嘉园,细颗粒物(PM2.5),63,54,66,45,52,118,,90,90,16,44,5,5,0.5,0.7
2026-01-09T1800,3401A,108.4829,22.762,南宁市,红星社区,,50,50,57,34,46,125,,100,100,13,37,8,7,0.5,0.7
2026-01-09T1800,4132A,108.2927,23.1477,南宁市,起凤路9号,"颗粒物(PM10),细颗粒物(PM2.5)",52,53,72,36,57,113,,92,92,15,30,4,4,0.5,0.6
2026-01-09T1800,4221A,108.2177,22.7774,南宁市,乐贤路16号,细颗粒物(PM2.5),52,52,72,36,42,114,,84,84,23,45,3,6,0.4,0.5
2026-01-09T1800,2332A,118.1682,26.6371,南平市,南平市监测站,,46,43,38,32,26,71,,87,87,21,27,4,5,0.5,0.5
2026-01-09T1800,2334A,118.1757,26.6276,南平市,南平七中,颗粒物(PM10),52,54,33,23,21,71,,88,88,26,25,5,5,0.5,0.5
2026-01-09T1800,1168A,120.9056,31.9669,南通市,狼山街道,细颗粒物(PM2.5),53,51,88,37,67,74,,72,72,32,49,4,4,0.4,0.6
2026-01-09T1800,1170A,120.8635,32.0231,南通市,城中,颗粒物(PM10),58,66,103,36,65,67,,69,69,47,63,9,7,0.9,0.9
2026-01-09T1800,1171A,120.9376,31.9301,南通市,星湖花园,颗粒物(PM10),54,57,93,35,62,72,,73,73,48,58,6,7,0.3,0.6
2026-01-09T1800,1172A,120.8053,32.046,南通市,紫琅学院,,,57,108,36,70,50,,70,70,64,63,5,6,,0.4
2026-01-09T1800,3291A,121.0631,32.0644,南通市,通州监测站,颗粒物(PM10),54,58,90,31,61,84,,75,75,44,51,5,6,0.6,0.7
2026-01-09T1800,3432A,120.9348,31.9874,南通市,环境教育馆,,50,48,95,35,67,89,,79,79,26,58,6,6,0.5,0.8
2026-01-09T1800,4091A,120.8692,31.9885,南通市,洪江路,颗粒物(PM10),51,51,92,26,67,56,,69,69,49,63,4,4,0.7,0.3
2026-01-09T1800,2404A,112.5338,33.0086,南阳市,瓦房庄,,40,40,67,15,43,72,,73,73,16,26,6,9,0.4,0.7
2026-01-09T1800,2405A,112.5002,32.9734,南阳市,汉画馆,,40,40,71,12,43,64,,31,,21,33,6,8,0.4,0.7
2026-01-09T1800,2406A,112.5778,33.0144,南阳市,气象站,,35,35,71,12,35,78,,76,76,16,26,5,8,0.5,0.7
2026-01-09T1800,2407A,112.548,32.9687,南阳市,理工学院,,39,39,62,8,35,73,,73,73,17,28,5,9,0.4,0.6
2026-01-09T1800,4008A,112.5233,32.9921,南阳市,卧龙区政府,,32,32,71,16,40,64,,68,68,20,30,5,8,0.5,0.7
2026-01-09T1800,1234A,121.8352,29.9111,宁波市,区环保大楼,"颗粒物(PM10),细颗粒物(PM2.5)",68,85,94,49,64,98,,86,86,48,62,7,7,0.5,0.9
2026-01-09T1800,1235A,121.5595,29.8208,宁波市,万里学院,细颗粒物(PM2.5),78,95,89,57,61,100,,89,89,33,55,6,7,0.6,0.7
2026-01-09T1800,1236A,121.713,29.9564,宁波市,龙赛医院,细颗粒物(PM2.5),84,94,101,62,64,78,,80,80,49,57,4,5,0.8,0.8
2026-01-09T1800,1240A,121.5855,29.8635,宁波市,太古小学,细颗粒物(PM2.5),84,82,88,62,60,104,,94,94,30,49,6,6,0.7,0.8
2026-01-09T1800,1241A,121.5239,29.8673,宁波市,市环境监测中心,细颗粒物(PM2.5),85,84,86,63,56,84,,83,83,42,53,8,9,0.8,0.8
2026-01-09T1800,2871A,121.6156,29.9015,宁波市,万里国际学校,,,,86,,63,,,84,,,63,,6,,0.7
2026-01-09T1800,3710A,121.5593,29.8976,宁波市,白沙活动中心,细颗粒物(PM2.5),73,68,72,53,56,95,,89,89,38,54,6,6,0.7,0.8
2026-01-09T1800,4095A,121.8962,29.7529,宁波市,中科路88号,细颗粒物(PM2.5),69,62,85,50,70,132,,123,123,14,38,6,6,0.5,0.6
2026-01-09T1800,2341A,119.5387,26.6611,宁德市,宁德市监测站,颗粒物(PM10),57,63,39,30,30,82,,102,102,42,25,8,8,0.7,0.5
2026-01-09T1800,3209A,119.5231,26.6562,宁德市,宁德一中,细颗粒物(PM2.5),57,51,40,40,31,90,,101,101,22,18,6,7,0.6,0.6
2026-01-09T1800,2618A,98.859,25.8541,怒江傈僳族自治州,州监测站,,31,31,34,16,22,82,,74,74,10,12,7,7,0.4,0.4
2026-01-09T1800,2619A,98.8607,25.8168,怒江傈僳族自治州,泸水一中,,35,35,29,20,22,68,,63,63,15,18,6,6,0.5,0.5
2026-01-09T1800,1888A,101.6891,26.571,攀枝花市,弄弄坪,,50,50,58,32,41,90,,75,75,16,25,12,20,0.8,1.3
2026-01-09T1800,1889A,101.577,26.5914,攀枝花市,河门口,,43,43,51,27,34,89,,66,66,12,20,16,16,1.0,1.1
2026-01-09T1800,1891A,101.7365,26.4986,攀枝花市,仁和,,34,34,52,23,36,77,,67,67,25,22,11,12,0.8,1.3
2026-01-09T1800,2835A,101.7222,26.567,攀枝花市,四十中小,,50,50,60,34,38,88,,70,70,15,31,16,29,1.0,1.8
2026-01-09T1800,1604A,122.0303,41.1489,盘锦市,开发区,细颗粒物(PM2.5),155,,70,118,58,10,,35,34,49,25,9,7,1.3,1.4
2026-01-09T1800,1605A,122.0486,41.0883,盘锦市,兴隆台,细颗粒物(PM2.5),109,,66,82,51,34,,39,39,56,39,7,6,1.0,0.8
2026-01-09T1800,1606A,121.8297,41.1026,盘锦市,新生街道,,,86,72,73,51,33,,41,41,,38,8,9,,0.9
2026-01-09T1800,1832A,113.3257,33.7423,平顶山市,新华旅馆,颗粒物(PM10),53,56,69,34,34,71,,80,80,25,24,5,6,0.4,0.4
2026-01-09T1800,1833A,113.2917,33.737,平顶山市,规划设计院,颗粒物(PM10),56,61,68,28,36,71,,81,81,19,20,6,7,0.4,0.4
2026-01-09T1800,1834A,113.182,33.7738,平顶山市,平顶山工学院,颗粒物(PM10),51,52,63,27,36,79,,85,85,20,19,8,8,0.3,0.4
2026-01-09T1800,3594A,112.8736,33.9068,平顶山市,石龙区,颗粒物(PM10),54,57,70,26,36,80,,82,82,29,28,7,7,0.3,0.5
2026-01-09T1800,4116A,113.284,33.7139,平顶山市,姚电大道23号,颗粒物(PM10),63,75,95,42,41,65,,81,81,30,27,7,8,0.5,0.4
2026-01-09T1800,2656A,106.6633,35.5338,平凉市,聚贤嘉苑,,46,46,38,24,21,92,,84,84,7,28,14,13,0.6,0.7
2026-01-09T1800,2657A,106.7021,35.5307,平凉市,博物馆,颗粒物(PM10),57,63,49,19,28,92,,82,82,9,30,10,12,0.3,0.7
2026-01-09T1800,2348A,113.8384,27.6436,萍乡市,中医院,颗粒物(PM10),58,65,90,35,56,77,,91,91,39,44,9,8,1.3,1.4
2026-01-09T1800,2350A,113.8677,27.6438,萍乡市,市环保局,,42,39,74,29,52,92,,106,106,36,41,17,17,1.0,1.1
2026-01-09T1800,2351A,113.8663,27.6202,萍乡市,安源区政府,,42,34,71,29,58,88,,85,85,20,28,12,11,1.0,1.2
2026-01-09T1800,4107A,113.8686,27.6668,萍乡市,联洪村委会,颗粒物(PM10),53,55,75,28,48,81,,92,92,33,37,8,9,1.1,1.1
2026-01-09T1800,2319A,119.0142,25.4324,莆田市,荔城区仓后路,颗粒物(PM10),61,71,46,40,33,121,,117,117,24,17,/,/,/,/
2026-01-09T1800,2320A,119.0016,25.4553,莆田市,莆田市监测站,颗粒物(PM10),59,68,40,38,30,122,,121,121,24,14,4,4,0.6,0.5
2026-01-09T1800,2321A,119.112,25.4561,莆田市,涵江区六中,细颗粒物(PM2.5),58,58,46,41,32,119,,118,118,24,16,/,/,0.6,0.6
2026-01-09T1800,2322A,119.1014,25.3215,莆田市,秀屿区政府,细颗粒物(PM2.5),59,58,46,42,37,121,,120,120,18,15,6,4,0.5,0.5
2026-01-09T1800,2392A,115.0312,35.7636,濮阳市,环保局,颗粒物(PM10),74,97,74,13,34,64,,62,62,23,24,6,7,0.3,0.5
2026-01-09T1800,3021A,115,35.7667,濮阳市,濮水河管理处,颗粒物(PM10),83,115,87,16,33,64,,61,61,9,14,5,7,0.6,0.7
2026-01-09T1800,4118A,115.0552,35.7816,濮阳市,中原东路68号,颗粒物(PM10),88,125,93,20,35,63,,70,70,29,28,6,7,0.3,0.4
2026-01-09T1800,4216A,115.0923632,35.76857718,濮阳市,任丘路479号,颗粒物(PM10),76,102,89,24,38,59,,61,61,29,25,5,7,0.5,0.5
2026-01-09T1800,2601A,100.9801,22.7634,普洱市,市环保局,,39,39,36,10,15,60,,52,52,7,6,4,4,0.4,0.4
2026-01-09T1800,2602A,100.9763,22.8237,普洱市,普洱第二中学,,37,37,33,11,18,62,,53,53,7,9,5,5,0.3,0.3
2026-01-09T1800,3345A,131.0413,45.7795,七台河市,中波台,细颗粒物(PM2.5),75,74,32,55,23,16,,43,32,47,20,7,8,0.6,0.4
2026-01-09T1800,3637A,131.0136,45.7688,七台河市,人民广场,细颗粒物(PM2.5),102,96,37,76,30,10,,36,28,65,32,13,10,1.4,0.7
2026-01-09T1800,3684A,130.8639,45.8144,七台河市,新建矿广场,细颗粒物(PM2.5),132,163,69,100,41,3,,27,25,60,38,4,13,0.9,0.5
2026-01-09T1800,1779A,123.9307,47.3641,齐齐哈尔市,安居小区,细颗粒物(PM2.5),58,,41,41,31,44,,50,50,24,23,8,9,0.7,0.7
2026-01-09T1800,1780A,123.9497,47.3389,齐齐哈尔市,中心广场,细颗粒物(PM2.5),52,46,36,36,24,26,,45,45,38,20,22,7,0.8,0.7
2026-01-09T1800,1781A,123.9483,47.3229,齐齐哈尔市,农牧车辆厂,,41,41,37,19,21,34,,50,50,30,17,4,4,0.5,0.4
2026-01-09T1800,1783A,123.9442,47.2994,齐齐哈尔市,市环境监测站,,45,45,41,27,24,32,,52,52,38,20,12,8,0.6,0.6
2026-01-09T1800,3662A,123.6341,47.2079,齐齐哈尔市,富区青少年活动中心,,40,40,51,24,34,41,,50,50,26,18,6,5,0.5,0.6
2026-01-09T1800,2591A,107.9765,26.5724,黔东南苗族侗族自治州,市环境监测站,细颗粒物(PM2.5),82,,55,60,49,15,,12,12,57,38,4,3,0.7,0.7
2026-01-09T1800,2881A,107.8909,26.531,黔东南苗族侗族自治州,凯里学院,颗粒物(PM10),63,75,53,39,36,43,,27,27,27,24,6,5,0.5,0.5
2026-01-09T1800,2593A,107.5223,26.2371,黔南布依族苗族自治州,小围寨,细颗粒物(PM2.5),55,46,47,39,39,56,,33,33,14,20,9,10,0.7,0.8
2026-01-09T1800,3538A,107.5175,26.2977,黔南布依族苗族自治州,沙坝,细颗粒物(PM2.5),58,56,57,41,39,39,,26,26,24,23,9,9,0.9,0.9
2026-01-09T1800,2589A,104.9022,25.0943,黔西南布依族苗族自治州,场坝街,细颗粒物(PM2.5),84,83,70,62,58,54,,64,62,24,15,11,7,0.9,0.7
2026-01-09T1800,2590A,104.8812,25.0994,黔西南布依族苗族自治州,坪东大道,细颗粒物(PM2.5),84,67,63,62,58,62,,65,65,18,14,9,8,0.8,0.7
2026-01-09T1800,2502A,108.6238,21.9667,钦州市,市环保站,颗粒物(PM10),58,66,96,29,50,128,,117,117,21,37,5,6,0.7,1.5
2026-01-09T1800,2503A,108.655,21.9481,钦州市,沙埠小学,颗粒物(PM10),58,66,90,38,62,126,,120,120,30,39,7,11,0.8,1
2026-01-09T1800,2504A,108.5989,21.7435,钦州市,港区一小,颗粒物(PM10),67,83,87,38,54,125,,113,113,31,44,9,11,0.7,1
2026-01-09T1800,3404A,108.5959,21.9634,钦州市,北职校,颗粒物(PM10),53,55,81,31,53,137,,120,120,16,34,11,10,0.8,2.1
2026-01-09T1800,1046A,119.5247,39.9346,秦皇岛市,建设大厦,细颗粒物(PM2.5),93,113,113,69,60,32,,44,44,54,53,11,17,0.9,1.1
2026-01-09T1800,3132A,119.5979,39.938,秦皇岛市,文明里,颗粒物(PM10),85,120,112,62,49,28,,38,38,56,54,13,19,0.7,0.9
2026-01-09T1800,4066A,119.7458,39.9952,秦皇岛市,南园路157号,细颗粒物(PM2.5),98,118,117,73,61,34,,43,43,52,51,12,17,0.8,1.1
2026-01-09T1800,4067A,119.5131,39.8858,秦皇岛市,翠岛大街1号,细颗粒物(PM2.5),98,132,108,73,58,29,,42,42,52,50,13,20,0.9,1
2026-01-09T1800,4198A,119.509013,39.825305,秦皇岛市,北戴河轮滑馆,细颗粒物(PM2.5),88,122,100,65,52,42,,48,48,50,40,6,8,0.9,0.7
2026-01-09T1800,1310A,120.404,36.0625,青岛市,市南区东部子站,颗粒物(PM10),75,100,70,39,36,74,,75,75,27,25,10,14,0.6,0.9
2026-01-09T1800,1311A,120.362344,36.10282,青岛市,四方区子站,颗粒物(PM10),76,102,92,53,42,68,,76,76,39,28,6,8,0.8,0.9
2026-01-09T1800,1312A,120.294373,36.054183,青岛市,市南区西部子站,颗粒物(PM10),81,112,80,46,38,72,,71,71,36,32,7,8,0.7,0.8
2026-01-09T1800,1313A,120.4581,36.0858,青岛市,崂山区子站,颗粒物(PM10),73,95,66,34,33,80,,80,80,28,23,11,14,0.4,0.6
2026-01-09T1800,1315A,120.3945,36.3083,青岛市,城阳区子站,颗粒物(PM10),82,114,89,44,35,60,,74,73,50,45,10,12,0.9,1
2026-01-09T1800,3642A,120.3454,36.0735,青岛市,市北区南部,颗粒物(PM10),77,103,72,44,36,63,,68,68,32,25,4,7,0.7,0.8
2026-01-09T1800,3643A,120.3897,36.18,青岛市,李沧区北部,颗粒物(PM10),80,110,80,56,46,58,,66,66,44,39,12,14,0.9,1
2026-01-09T1800,4110A,120.5222,36.4089,青岛市,盟旺路653号,颗粒物(PM10),77,103,83,47,40,61,,76,75,49,43,6,8,0.9,0.8
2026-01-09T1800,4290A,120.196923,35.954556,青岛市,珠江路669号,细颗粒物(PM2.5),89,100,70,66,44,76,,77,77,35,29,14,16,0.8,0.9
2026-01-09T1800,4291A,120.0424,35.8656,青岛市,黄岛区人民政府广场,颗粒物(PM10),82,114,86,44,40,72,,76,76,45,38,12,16,0.9,1.2
2026-01-09T1800,1703A,113.0218,23.7086,清远市,凤城街办,,30,25,28,16,18,96,,97,97,19,25,/,/,/,/
2026-01-09T1800,3025A,113.0479,23.6343,清远市,技师学院,,30,27,32,14,17,93,,96,96,22,26,7,11,0.3,0.4
2026-01-09T1800,3318A,112.9898,23.7403,清远市,清新太和,,29,25,28,16,17,92,,101,101,21,19,5,7,0.3,0.4
2026-01-09T1800,3455A,113.076,23.72,清远市,清城东城,,30,26,28,15,15,93,,100,100,22,18,/,/,/,/
2026-01-09T1800,2661A,107.6325,35.7357,庆阳市,庆阳五中,,46,46,49,15,24,75,,86,85,22,17,6,6,0.4,0.6
2026-01-09T1800,2662A,107.6361,35.7067,庆阳市,市环保局,,50,50,48,12,21,86,,88,88,13,12,5,6,0.3,0.4
2026-01-09T1800,1916A,103.7897,25.5036,曲靖市,环境监测站,,45,45,43,19,25,54,,50,50,20,20,4,3,0.5,0.7
2026-01-09T1800,1917A,103.8013,25.5357,曲靖市,烟厂办公区,,48,48,46,27,30,47,,46,46,19,18,4,4,0.6,0.6
2026-01-09T1800,3376A,103.7926,25.4651,曲靖市,南苑二区,,48,48,41,25,29,59,,57,57,16,13,4,4,0.6,0.6
2026-01-09T1800,3377A,103.7442,25.5259,曲靖市,曲靖师范学院,细颗粒物(PM2.5),59,50,37,42,29,43,,54,54,23,15,13,2,0.7,0.5
2026-01-09T1800,1264A,118.8694,28.94,衢州市,环保大楼,颗粒物(PM10),58,66,59,32,34,93,,96,96,29,41,/,/,/,/
2026-01-09T1800,1266A,118.8622,28.9809,衢州市,衢州学院,,48,48,52,24,27,98,,89,89,21,45,9,7,0.5,0.6
2026-01-09T1800,4097A,118.9646,28.9832,衢州市,衢州三中,颗粒物(PM10),53,56,69,34,41,85,,94,93,30,51,8,8,0.8,0.7
2026-01-09T1800,1611A,118.5818,24.9116,泉州市,涂山街,颗粒物(PM10),59,68,42,41,30,118,,118,118,23,15,5,4,0.6,0.5
2026-01-09T1800,1612A,118.597,24.8976,泉州市,津头埔,颗粒物(PM10),59,67,43,36,30,111,,116,116,27,18,6,6,0.6,0.5
2026-01-09T1800,1613A,118.6669,24.9422,泉州市,万安,颗粒物(PM10),60,70,46,34,30,111,,113,113,22,18,5,4,0.6,0.6
2026-01-09T1800,4105A,118.6355,24.9148,泉州市,霞新路6号,颗粒物(PM10),54,57,47,37,30,118,,120,120,28,21,/,/,0.5,0.4
2026-01-09T1800,2626A,88.8873,29.2723,日喀则市,日喀则监测站,,,,32,8,14,,,67,67,6,16,7,6,0.2,0.7
2026-01-09T1800,3726A,88.8775,29.2425,日喀则市,林业技术推广中心,,27,26,28,3,7,86,,73,73,7,7,10,10,0.2,0.2
2026-01-09T1800,1659A,119.4711,35.421,日照市,监测站,颗粒物(PM10),85,119,103,45,56,57,,66,66,46,51,14,17,0.8,1.1
2026-01-09T1800,1660A,119.523,35.4216,日照市,市政府广场,颗粒物(PM10),76,102,89,44,50,66,,71,71,38,43,15,16,0.6,0.7
2026-01-09T1800,1661A,119.5511,35.4113,日照市,港务局,颗粒物(PM10),84,117,108,59,59,54,,64,64,53,52,13,16,0.9,1
2026-01-09T1800,3507A,119.5326,35.4627,日照市,职业技术学院,颗粒物(PM10),81,112,94,41,45,67,,71,71,44,45,14,15,0.9,1
2026-01-09T1800,3604A,119.3267,35.1043,日照市,岚山环保分局,颗粒物(PM10),73,95,96,50,57,72,,75,75,38,52,17,14,0.7,0.8
2026-01-09T1800,1835A,111.1922,34.7752,三门峡市,市政府,,46,46,57,18,33,75,,68,68,22,44,8,12,0.3,0.6
2026-01-09T1800,1836A,111.1588,34.794,三门峡市,开发区,,45,45,65,16,33,74,,66,66,19,35,4,6,0.3,0.5
2026-01-09T1800,3039A,111.1911,34.7829,三门峡市,三门峡市第一小学,颗粒物(PM10),55,60,64,13,31,74,,63,63,19,47,7,9,0.4,0.6
2026-01-09T1800,3598A,111.1031,34.719,三门峡市,富达温泉假日酒店,颗粒物(PM10),63,75,65,28,34,65,,65,65,30,40,10,12,0.4,0.8
2026-01-09T1800,2324A,117.621,26.2626,三明市,三钢,,50,45,38,35,29,66,,86,86,42,30,9,9,1.2,1.2
2026-01-09T1800,2325A,117.6352,26.2714,三明市,三明二中,,39,39,37,25,25,79,,81,81,23,24,10,8,1.1,0.9
2026-01-09T1800,2326A,117.6028,26.2377,三明市,三元区政府,细颗粒物(PM2.5),52,47,43,36,30,30,,74,73,65,34,6,9,1.1,1
2026-01-09T1800,1877A,109.4962,18.2682,三亚市,河西子站,,42,28,36,11,15,132,,119,119,6,13,6,6,0.5,0.6
2026-01-09T1800,3540A,109.7348,18.3443,三亚市,君悦子站,颗粒物(PM10),60,69,39,18,18,140,,125,125,11,11,6,6,0.5,0.5
2026-01-09T1800,4135A,109.1714,18.3739,三亚市,城东小学站,,37,36,33,22,24,118,,114,114,10,11,/,/,/,/
2026-01-09T1800,2624A,91.7592,29.234,山南市,山南监测站,,,6,59,3,22,,,52,,8,11,5,5,,0.4
2026-01-09T1800,2625A,91.7701,29.2436,山南市,山南人民医院,,24,20,43,6,14,75,,60,60,8,10,6,5,0.3,0.4
2026-01-09T1800,1674A,116.6795,23.3666,汕头市,金平子站,,46,46,48,27,29,136,,122,122,17,22,6,8,0.7,0.8
2026-01-09T1800,1675A,116.7248,23.3632,汕头市,龙湖子站,,49,49,46,28,24,128,,118,118,18,18,12,14,/,/
2026-01-09T1800,1676A,116.7257,23.2774,汕头市,濠江子站,颗粒物(PM10),56,62,44,31,26,137,,117,117,18,17,9,11,/,/
2026-01-09T1800,1677A,116.7518,23.4712,汕头市,澄海子站,颗粒物(PM10),58,65,53,32,31,128,,122,122,22,20,8,11,0.4,0.4
2026-01-09T1800,1678A,116.6088,23.2539,汕头市,潮阳子站,颗粒物(PM10),51,51,43,25,23,137,,127,127,16,17,9,10,0.4,0.4
2026-01-09T1800,3444A,116.4539,23.2684,汕头市,潮南峡山,颗粒物(PM10),53,56,53,33,31,135,,126,126,17,18,11,11,0.4,0.5
2026-01-09T1800,3624A,116.4069,23.2533,汕头市,潮南子站,颗粒物(PM10),76,102,66,39,34,122,,109,109,21,25,9,9,/,/
2026-01-09T1800,1693A,115.3653,22.7751,汕尾市,市环保局,颗粒物(PM10),54,58,38,28,24,140,,114,114,16,17,8,8,0.5,0.5
2026-01-09T1800,1695A,115.362,22.7926,汕尾市,新城中学,颗粒物(PM10),53,56,37,34,25,142,,114,114,14,18,6,6,0.6,0.6
2026-01-09T1800,2645A,109.9155,33.8714,商洛市,监测站,,45,45,35,26,21,41,,75,75,52,33,5,6,0.6,0.4
2026-01-09T1800,3045A,109.9647,33.8486,商洛市,商州区中学,,,53,46,48,25,62,,73,73,,39,6,6,0.4,0.6
2026-01-09T1800,2408A,115.6701,34.4283,商丘市,环境监测站,,,82,78,42,48,74,,82,82,29,19,,4,0.1,0.2
2026-01-09T1800,2409A,115.6458,34.4047,商丘市,粮食局,颗粒物(PM10),74,98,79,45,49,72,,79,79,33,18,4,5,0,0.2
2026-01-09T1800,3171A,115.6069,34.4465,商丘市,梁园区档案局,颗粒物(PM10),60,69,80,38,47,72,,79,79,24,18,5,6,0.3,0.4
2026-01-09T1800,4119A,115.6701,34.3767,商丘市,北海东路185号,颗粒物(PM10),62,74,92,40,49,75,,80,80,25,27,3,4,0.4,0.5
2026-01-09T1800,4120A,115.6172,34.3704,商丘市,中山大街3号,"颗粒物(PM10),细颗粒物(PM2.5)",74,97,102,54,57,63,,77,77,30,24,4,4,0.2,0.4
2026-01-09T1800,1141A,121.401,31.2382,上海市,普陀,,,,93,,71,77,,86,86,,59,10,8,,0.7
2026-01-09T1800,1142A,121.4774,31.2043,上海市,十五厂,细颗粒物(PM2.5),88,87,87,65,63,54,,78,78,78,62,10,9,0.9,0.9
2026-01-09T1800,1143A,121.4673,31.3011,上海市,虹口,颗粒物(PM10),74,98,90,50,61,61,,78,78,61,56,10,8,0.6,0.6
2026-01-09T1800,1147A,121.4253,31.226,上海市,静安监测站,细颗粒物(PM2.5),85,88,87,63,64,81,,91,91,52,49,10,8,0.6,0.6
2026-01-09T1800,1148A,121.7029,31.1905,上海市,浦东川沙,细颗粒物(PM2.5),88,100,89,65,58,100,,94,94,36,57,8,8,0.7,0.7
2026-01-09T1800,1149A,121.5339,31.229,上海市,浦东新区监测站,,,96,85,72,63,75,,82,82,,56,,8,0.9,0.8
2026-01-09T1800,1150A,121.5776,31.2038,上海市,浦东张江,细颗粒物(PM2.5),92,101,90,68,58,81,,90,90,54,59,9,8,0.7,0.7
2026-01-09T1800,3265A,121.4242,31.3303,上海市,宝山庙行,细颗粒物(PM2.5),73,90,93,53,66,76,,82,82,47,60,9,8,0.6,0.6
2026-01-09T1800,3266A,121.8789,31.4662,上海市,崇明上实东滩,细颗粒物(PM2.5),75,86,75,55,51,97,,94,94,36,25,6,5,0.6,0.6
2026-01-09T1800,3268A,121.316,31.2839,上海市,嘉定南翔,细颗粒物(PM2.5),70,84,95,51,67,60,,81,81,66,72,7,6,0.6,0.7
2026-01-09T1800,3269A,121.3357,30.7455,上海市,金山新城,细颗粒物(PM2.5),103,85,82,77,73,100,,95,95,36,37,10,11,0.6,0.6
2026-01-09T1800,3270A,121.4996,31.0741,上海市,闵行浦江,细颗粒物(PM2.5),83,95,89,61,63,67,,90,90,63,62,9,8,0.6,0.6
2026-01-09T1800,3271A,121.2886,31.1663,上海市,青浦徐泾,细颗粒物(PM2.5),80,81,94,59,64,54,,80,80,64,70,7,7,0.7,0.9
2026-01-09T1800,3272A,121.2193,31.0382,上海市,松江图书馆,细颗粒物(PM2.5),79,84,106,58,70,72,,88,88,56,77,8,8,0.6,0.7
2026-01-09T1800,3273A,121.3904,31.206,上海市,长宁仙霞,细颗粒物(PM2.5),85,83,84,63,62,63,,81,81,66,60,10,9,0.6,0.6
2026-01-09T1800,3274A,121.7964,31.0507,上海市,浦东惠南,,,100,92,68,60,76,,103,103,,56,6,6,,0.9
2026-01-09T1800,3544A,121.4891,30.925,上海市,奉贤南桥新城,细颗粒物(PM2.5),97,95,96,72,70,96,,100,100,51,54,9,9,0.7,0.7
