timepoint,stationcode,longitude,latitude,area,positionname,primarypollutant,aqi,pm10,pm10_24h,pm2_5,pm2_5_24h,o3,o3_24h,o3_8h,o3_8h_24h,no2,no2_24h,so2,so2_24h,co,co_24h
2026-01-09T0400,2568A,102.2503,31.8896,阿坝藏族羌族自治州,马师校,,28,20,23,19,14,32,,,,9,17,5,5,0.4,0.5
2026-01-09T0400,3994A,102.2174,31.9016,阿坝藏族羌族自治州,马尔康中学西区,,12,9,10,3,10,38,,,,9,13,6,6,0.4,0.5
2026-01-09T0400,2695A,80.2899,41.1684,阿克苏地区,电视台,细颗粒物(PM2.5),79,80,97,58,63,19,,,,40,43,5,5,1.1,1.2
2026-01-09T0400,2696A,80.2592,41.1541,阿克苏地区,艺术中心,细颗粒物(PM2.5),63,65,86,45,62,35,,,,22,34,4,4,0.8,0.9
2026-01-09T0400,2205A,105.699,38.8409,阿拉善盟,蒙二幼,颗粒物(PM10),76,102,90,21,17,81,,,,5,11,10,10,0.5,0.6
2026-01-09T0400,2206A,105.7198,38.8508,阿拉善盟,环保局新楼,颗粒物(PM10),76,101,66,21,17,81,,,,4,6,9,9,0.6,0.6
2026-01-09T0400,2708A,88.1266,47.8515,阿勒泰地区,市站,,25,25,34,13,22,52,,,,22,32,2,2,0.5,0.5
2026-01-09T0400,4166A,88.1198,47.7931,阿勒泰地区,阿勒泰路33号,,28,24,38,19,25,60,,,,14,24,2,2,0.5,0.6
2026-01-09T0400,2630A,80.1171,32.4999,阿里地区,阿里监测站,,18,6,3,3,3,56,,,,3,9,4,9,0.4,0.5
2026-01-09T0400,3192A,80.0906,32.5029,阿里地区,阿里藏医院,,16,13,13,11,8,44,,,,10,9,12,13,0.7,0.7
2026-01-09T0400,2644A,109.0088,32.6974,安康市,汉滨区检察院,,36,36,48,24,33,19,,,,12,23,4,5,0.5,0.6
2026-01-09T0400,4054A,109.0324,32.6913,安康市,市邮政管理局,细颗粒物(PM2.5),52,46,54,36,39,9,,,,21,28,10,8,0.5,0.8
2026-01-09T0400,2291A,117.0806,30.5181,安庆市,环科院,"颗粒物(PM10),细颗粒物(PM2.5)",57,63,70,40,44,0,,,,65,47,5,8,0.4,0.6
2026-01-09T0400,2292A,117.0331,30.5118,安庆市,马山宾馆,颗粒物(PM10),53,56,69,27,44,12,,,,45,46,4,8,0.5,0.7
2026-01-09T0400,2294A,116.9897,30.6146,安庆市,安庆大学,颗粒物(PM10),63,75,64,43,42,4,,,,45,31,3,4,0.7,0.7
2026-01-09T0400,3173A,117.0598,30.5351,安庆市,市人大,颗粒物(PM10),61,72,76,40,49,9,,,,58,50,6,9,0.6,0.7
2026-01-09T0400,3123A,105.9408,26.2431,安顺市,凤凰山,细颗粒物(PM2.5),60,50,42,43,35,68,,,,18,17,22,20,0.5,0.4
2026-01-09T0400,3124A,105.9443,26.2567,安顺市,金钟山,细颗粒物(PM2.5),59,46,41,42,32,70,,,,16,14,25,22,0.8,0.7
2026-01-09T0400,3125A,105.8983,26.248,安顺市,娄家坡,细颗粒物(PM2.5),58,49,44,41,36,75,,,,11,14,17,15,0.7,0.6
2026-01-09T0400,1819A,114.3552,36.1017,安阳市,红庙街,颗粒物(PM10),69,87,78,33,39,26,,,,30,28,3,4,0.5,0.6
2026-01-09T0400,1820A,114.361,36.0681,安阳市,银杏小区,颗粒物(PM10),65,79,79,42,46,27,,,,29,31,4,5,0.4,0.5
2026-01-09T0400,3141A,114.3921,36.0879,安阳市,信访局,颗粒物(PM10),62,73,78,39,42,31,,,,28,27,6,6,0.6,0.7
2026-01-09T0400,3669A,114.4706,36.0634,安阳市,左辅环卫站,细颗粒物(PM2.5),80,104,97,59,56,13,,,,42,29,5,6,0.5,0.6
2026-01-09T0400,4117A,114.2918,36.0769,安阳市,钢三路198号,颗粒物(PM10),64,77,85,42,42,25,,,,27,30,4,4,0.6,0.6
2026-01-09T0400,1748A,123.0441,41.1201,鞍山市,深沟寺,颗粒物(PM10),56,61,45,38,23,51,,,,20,19,11,11,0.8,0.9
2026-01-09T0400,1749A,123.011,41.0931,鞍山市,太阳城,颗粒物(PM10),56,62,47,34,21,51,,,,19,20,14,15,0.9,1
2026-01-09T0400,1750A,123.0483,41.1445,鞍山市,太平,颗粒物(PM10),64,78,60,38,24,51,,,,21,23,13,13,0.8,0.8
2026-01-09T0400,1751A,122.964,41.0968,鞍山市,铁西三道街,颗粒物(PM10),69,88,66,41,26,46,,,,28,29,17,20,1.3,1.1
2026-01-09T0400,1753A,123.0219,41.0822,鞍山市,明达新区,颗粒物(PM10),59,68,48,35,23,54,,,,15,16,13,14,0.6,0.7
2026-01-09T0400,4201A,122.944647,41.082639,鞍山市,兴盛南路290号,颗粒物(PM10),61,71,66,33,27,51,,,,25,31,13,14,0.6,1
2026-01-09T0400,2195A,107.4206,40.7609,巴彦淖尔市,附二中,颗粒物(PM10),190,329,170,60,37,66,,,,4,7,,3,0.3,0.4
2026-01-09T0400,2196A,107.37,40.7372,巴彦淖尔市,市环保大楼,颗粒物(PM10),178,306,170,33,32,73,,,,4,7,4,4,0.4,0.4
2026-01-09T0400,1956A,86.1476,41.7529,巴音郭楞蒙古自治州,孔雀公园,颗粒物(PM10),75,100,132,44,35,6,,,,62,27,7,7,0.8,0.6
2026-01-09T0400,1957A,86.1971,41.7166,巴音郭楞蒙古自治州,棉纺厂,颗粒物(PM10),92,134,172,27,24,31,,,,23,18,/,/,/,/
2026-01-09T0400,1958A,86.236,41.7172,巴音郭楞蒙古自治州,经济开发区,颗粒物(PM10),57,64,136,17,22,40,,,,11,17,5,5,0.5,0.5
2026-01-09T0400,3181A,106.776805,31.852614,巴中市,市五中,细颗粒物(PM2.5),95,94,84,71,64,6,,,,36,29,5,6,1.1,1
2026-01-09T0400,3183A,106.7419,31.8654,巴中市,圣泉水务公司,细颗粒物(PM2.5),77,68,69,56,54,34,,,,18,32,3,4,0.5,0.6
2026-01-09T0400,3616A,106.7617,31.8343,巴中市,市中心医院,细颗粒物(PM2.5),99,91,85,74,66,2,,,,36,33,6,7,0.9,0.9
2026-01-09T0400,2235A,122.7909,45.608,白城市,洮北区环保局,,,37,47,21,19,29,,,,18,12,4,5,,0.2
2026-01-09T0400,2236A,122.8741,45.5725,白城市,市环保局,,44,44,58,28,21,28,,,,21,15,6,5,0.3,0.3
2026-01-09T0400,2231A,126.4219,41.9172,白山市,喜丰,颗粒物(PM10),60,70,60,29,26,6,,,,50,35,15,15,1.1,0.8
2026-01-09T0400,2232A,126.4082,41.9416,白山市,环保局,,46,43,42,32,30,3,,,,43,30,15,11,1.2,1
2026-01-09T0400,2647A,104.1727,36.5448,白银市,第三小学,,40,40,59,28,39,18,,,,38,38,14,45,1.0,1.2
2026-01-09T0400,2648A,104.1467,36.5482,白银市,动力公司,,28,24,46,19,29,36,,,,17,31,6,19,0.8,0.9
2026-01-09T0400,2512A,106.6102,23.901,百色市,市监测站,细颗粒物(PM2.5),87,81,50,64,39,6,,,,33,20,7,8,1.2,0.8
2026-01-09T0400,2513A,106.6524,23.8842,百色市,市中心血站,细颗粒物(PM2.5),93,88,72,69,56,3,,,,52,35,23,11,0.8,0.8
2026-01-09T0400,4133A,106.6273,23.8798,百色市,龙景西路,,,,68,,45,,,80,,,24,,8,,0.7
2026-01-09T0400,2270A,117.396,32.9389,蚌埠市,工人疗养院,,,105,103,52,59,64,,,,22,37,7,9,,0.6
2026-01-09T0400,2271A,117.3606,32.9428,蚌埠市,百货大楼,细颗粒物(PM2.5),68,79,89,49,59,65,,,,20,38,8,10,0.5,0.7
2026-01-09T0400,2273A,117.4183,32.8909,蚌埠市,蚌埠学院,,,112,102,74,63,,,,,33,45,9,8,1.2,0.6
2026-01-09T0400,2274A,117.3534,32.9672,蚌埠市,淮上区政府,细颗粒物(PM2.5),78,90,99,57,62,68,,,,20,42,4,5,0.6,0.7
2026-01-09T0400,2275A,117.3143,32.8977,蚌埠市,高新区,细颗粒物(PM2.5),92,114,106,68,68,32,,,,43,48,7,10,0.5,0.5
2026-01-09T0400,3715A,117.3091,32.9314,蚌埠市,蚌埠田家炳中学,细颗粒物(PM2.5),95,113,109,71,69,34,,,,42,50,9,11,0.5,0.6
2026-01-09T0400,1585A,109.8761,40.6533,包头市,市环境监测站,颗粒物(PM10),101,151,131,23,32,5,,,,58,47,9,14,1.4,1.4
2026-01-09T0400,1587A,109.9992,40.5843,包头市,包头八中,颗粒物(PM10),88,125,107,38,45,9,,,,50,47,5,10,1.0,0.9
2026-01-09T0400,1589A,109.8641,40.6288,包头市,惠龙物流,颗粒物(PM10),96,141,115,37,35,11,,,,54,43,15,18,1.0,0.9
2026-01-09T0400,1590A,110.0376,40.5546,包头市,东河鸿龙湾,颗粒物(PM10),76,101,89,36,38,13,,,,67,55,9,12,1.3,1.2
2026-01-09T0400,3283A,109.9154,40.5684,包头市,滨河大厦,颗粒物(PM10),77,104,88,28,31,58,,,,8,30,4,7,0.5,0.7
2026-01-09T0400,3419A,109.9449,40.6259,包头市,包头市委党校,颗粒物(PM10),97,144,116,40,41,35,,,,34,42,10,16,0.8,1
2026-01-09T0400,3683A,109.8332,40.6577,包头市,昆区政府,颗粒物(PM10),96,141,123,38,40,3,,,,70,56,10,17,1.3,1.6
2026-01-09T0400,1931A,107.0802,34.3129,宝鸡市,竹园沟,,40,39,37,28,27,26,,,,19,21,5,6,0.4,0.4
2026-01-09T0400,1933A,107.1429,34.3549,宝鸡市,监测站,,50,37,49,35,36,29,,,,26,31,4,5,0.4,0.5
2026-01-09T0400,1934A,107.1172,34.3759,宝鸡市,技工学校,,49,42,56,34,36,36,,,,12,21,4,8,0.5,0.5
2026-01-09T0400,1936A,107.2025,34.3518,宝鸡市,文理学院,细颗粒物(PM2.5),54,52,49,38,35,34,,,,25,30,5,5,0.4,0.4
2026-01-09T0400,1937A,107.2396,34.3626,宝鸡市,三迪小学,细颗粒物(PM2.5),64,48,57,46,41,27,,,,31,34,4,5,0.4,0.5
2026-01-09T0400,4155A,107.1721,34.3558,宝鸡市,滨河北路,颗粒物(PM10),54,58,54,35,34,32,,,,20,29,5,5,0.4,0.5
2026-01-09T0400,4308A,107.3898,34.3601,宝鸡市,陈仓区北开路21号,细颗粒物(PM2.5),78,69,74,57,55,40,,,,33,37,70,40,0.7,0.6
2026-01-09T0400,1051A,115.4803,38.8568,保定市,游泳馆,细颗粒物(PM2.5),79,92,93,58,55,8,,,,46,35,13,10,0.6,0.6
2026-01-09T0400,1052A,115.509,38.8895,保定市,华电二区,,,83,80,55,51,0,,,,50,34,5,4,,1.1
2026-01-09T0400,1053A,115.4588,38.9037,保定市,接待中心,细颗粒物(PM2.5),87,101,94,64,51,3,,,,52,35,3,4,0.5,0.5
2026-01-09T0400,1054A,115.4484,38.8344,保定市,地表水厂,细颗粒物(PM2.5),80,107,109,59,52,8,,,,48,39,5,6,0.6,0.6
2026-01-09T0400,3581A,115.3136,38.9511,保定市,满城区生态环境分局,颗粒物(PM10),91,132,111,61,53,0,,,,58,48,5,7,0.9,0.9
2026-01-09T0400,3582A,115.4709,38.7628,保定市,清苑区第二中学,颗粒物(PM10),79,107,106,57,45,14,,,,31,32,11,9,0.7,0.6
2026-01-09T0400,3583A,115.6231,39.0223,保定市,徐水物探局,细颗粒物(PM2.5),97,128,124,72,57,2,,,,60,42,10,10,0.7,0.8
2026-01-09T0400,4004A,115.4199,38.8665,保定市,双鹰农机,颗粒物(PM10),85,120,118,55,51,7,,,,53,36,7,9,0.7,0.6
2026-01-09T0400,4034A,115.515,38.8589,保定市,植保所站,细颗粒物(PM2.5),82,88,90,60,54,2,,,,59,48,8,6,0.9,0.8
2026-01-09T0400,2594A,99.1589,25.1137,保山市,市环境监测站,,36,,26,25,20,56,,,,5,10,3,3,0.3,0.4
2026-01-09T0400,2595A,99.1616,25.1381,保山市,市环保局,,29,29,30,9,20,69,,,,3,6,4,4,0.3,0.4
2026-01-09T0400,1867A,109.1435,21.4085,北海市,海滩公园,细颗粒物(PM2.5),62,56,55,44,37,76,,,,20,17,25,11,0.8,0.7
2026-01-09T0400,1868A,109.0983,21.466,北海市,新市环保局,细颗粒物(PM2.5),64,57,55,46,47,75,,,,20,18,11,6,0.6,0.6
2026-01-09T0400,1869A,109.1775,21.5232,北海市,北海工业园,细颗粒物(PM2.5),68,67,58,49,46,60,,,,21,19,24,10,0.6,0.6
2026-01-09T0400,3400A,109.1844,21.4396,北海市,龙潭自来水厂,细颗粒物(PM2.5),82,67,64,60,51,51,,,,20,21,10,9,0.7,0.7
2026-01-09T0400,1001A,116.3611,39.8786,北京市,万寿西宫,颗粒物(PM10),81,112,86,50,41,0,,,,74,63,3,4,0.7,0.7
2026-01-09T0400,1003A,116.4174,39.9289,北京市,东四,颗粒物(PM10),80,110,81,51,35,2,,,,67,53,5,5,0.7,0.7
2026-01-09T0400,1004A,116.4073,39.8858,北京市,天坛,颗粒物(PM10),71,92,74,48,35,3,,,,65,52,2,3,0.8,0.7
2026-01-09T0400,1005A,116.4622,39.9364,北京市,农展馆,颗粒物(PM10),84,117,80,56,37,3,,,,66,48,5,5,1.0,0.8
2026-01-09T0400,1006A,116.3399,39.9293,北京市,官园,颗粒物(PM10),79,107,80,50,41,1,,,,67,54,6,5,0.8,0.8
2026-01-09T0400,1007A,116.2879,39.9613,北京市,海淀万柳,颗粒物(PM10),65,79,75,38,36,2,,,,66,60,3,4,0.8,0.8
2026-01-09T0400,1008A,116.6635,40.1349,北京市,顺义新城,颗粒物(PM10),69,88,69,47,34,1,,,,61,47,4,3,0.8,0.7
2026-01-09T0400,1009A,116.6275,40.327,北京市,怀柔镇,细颗粒物(PM2.5),58,63,49,41,28,18,,,,38,46,6,7,0.7,0.6
2026-01-09T0400,1010A,116.2295,40.217,北京市,昌平镇,颗粒物(PM10),62,73,58,41,31,19,,,,37,48,5,5,0.7,0.7
2026-01-09T0400,1011A,116.3968,39.982,北京市,奥体中心,颗粒物(PM10),75,100,73,51,35,1,,,,67,50,5,5,1.0,0.9
2026-01-09T0400,3418A,116.8336,40.4095,北京市,密云新城,颗粒物(PM10),68,85,62,43,31,3,,,,45,44,3,4,0.7,0.6
2026-01-09T0400,3671A,116.0879,39.9725,北京市,门头沟三家店,颗粒物(PM10),58,66,75,32,37,8,,,,39,39,2,3,0.6,0.7
2026-01-09T0400,3672A,116.1507,39.8246,北京市,丰台云岗,颗粒物(PM10),71,92,86,43,41,0,,,,64,52,4,4,0.8,0.7
2026-01-09T0400,3674A,115.9578,39.7602,北京市,房山燕山,细颗粒物(PM2.5),79,101,83,58,51,24,,,,26,31,5,5,0.6,0.6
2026-01-09T0400,3675A,116.4669,39.7734,北京市,大兴旧宫,颗粒物(PM10),83,116,95,46,37,6,,,,38,44,2,3,0.7,0.6
2026-01-09T0400,3694A,115.9859,40.4562,北京市,延庆石河营,颗粒物(PM10),54,58,55,32,31,7,,,,42,34,2,4,0.7,0.7
2026-01-09T0400,3695A,116.6151,40.3052,北京市,怀柔新城,"颗粒物(PM10),细颗粒物(PM2.5)",60,70,50,43,29,16,,,,34,40,4,5,0.5,0.5
2026-01-09T0400,3696A,116.2542,39.8764,北京市,丰台小屯,颗粒物(PM10),79,107,94,48,40,1,,,,71,61,4,5,0.7,0.7
2026-01-09T0400,3697A,116.8399,40.3843,北京市,密云镇,颗粒物(PM10),64,77,65,42,34,2,,,,54,48,2,2,0.7,0.6
2026-01-09T0400,4057A,115.9423,40.4431,北京市,延庆百泉,颗粒物(PM10),57,64,60,33,32,12,,,,32,28,1,3,0.6,0.7
2026-01-09T0400,4058A,116.6598,39.9164,北京市,通州新华,颗粒物(PM10),97,144,98,63,36,1,,,,80,60,5,5,0.8,0.5
2026-01-09T0400,4182A,116.1942,39.9158,北京市,石景山八角,颗粒物(PM10),71,91,89,41,39,5,,,,69,56,2,2,0.7,0.7
2026-01-09T0400,4194A,117.078628,40.151726,北京市,平谷新城,细颗粒物(PM2.5),74,92,69,54,41,6,,,,39,43,3,2,0.8,0.7
2026-01-09T0400,1761A,123.8274146,41.31234549,本溪市,大峪,颗粒物(PM10),53,56,60,23,24,50,,,,16,25,11,10,0.7,1
2026-01-09T0400,1763A,123.7169,41.3094,本溪市,彩屯,颗粒物(PM10),52,54,65,27,32,29,,,,45,42,16,16,3.8,3.1
2026-01-09T0400,1764A,123.7672166,41.28649327,本溪市,东明,,39,39,65,25,23,61,,,,8,19,10,9,0.7,1
2026-01-09T0400,1765A,123.799345,41.266614,本溪市,新立屯,细颗粒物(PM2.5),55,,44,39,16,56,,,,12,20,12,10,0.9,1
2026-01-09T0400,1766A,123.829144,41.336777,本溪市,威宁,,,50,69,27,26,43,,,,20,25,7,8,,0.9
2026-01-09T0400,2587A,105.287,27.3133,毕节市,八中,细颗粒物(PM2.5),62,57,45,44,39,67,,,,10,16,12,14,0.6,0.6
2026-01-09T0400,2588A,105.3079,27.2987,毕节市,师专,细颗粒物(PM2.5),63,54,44,45,35,78,,,,10,18,10,13,0.5,0.5
2026-01-09T0400,4263A,105.3688,27.3598,毕节市,工业大道,细颗粒物(PM2.5),62,56,47,44,35,67,,,,12,16,16,12,/,/
2026-01-09T0400,1629A,117.9961,37.3604,滨州市,第二水厂,颗粒物(PM10),68,85,70,38,36,31,,,,34,45,12,19,0.6,0.6
2026-01-09T0400,1630A,117.9789,37.3931,滨州市,北中新校,颗粒物(PM10),62,73,63,41,34,33,,,,42,45,10,15,0.6,0.6
2026-01-09T0400,3514A,117.9379,37.3959,滨州市,中海酒店,"颗粒物(PM10),细颗粒物(PM2.5)",64,78,66,46,39,44,,,,31,36,12,16,0.7,0.7
2026-01-09T0400,3515A,117.9381509,37.35547456,滨州市,开发区一中,颗粒物(PM10),68,85,74,48,40,23,,,,42,39,15,25,0.7,0.6
2026-01-09T0400,3516A,118.0914,37.6938,滨州市,金海六路,颗粒物(PM10),69,88,69,46,32,18,,,,55,51,6,9,1.0,0.8
2026-01-09T0400,4028A,117.9955,37.3752,滨州市,滨州市西街道办事处,颗粒物(PM10),68,85,69,48,38,38,,,,29,36,11,17,0.5,0.5
2026-01-09T0400,2311A,115.8071,33.8399,亳州市,污水处理厂,颗粒物(PM10),65,80,82,42,49,65,,,,10,30,4,8,0.3,0.4
2026-01-09T0400,2312A,115.7789,33.8519,亳州市,三国揽胜宫,细颗粒物(PM2.5),72,87,89,52,54,62,,,,19,30,7,8,0.5,0.6
2026-01-09T0400,3332A,115.7631,33.803,亳州市,亳州学院,细颗粒物(PM2.5),78,89,83,57,51,49,,,,25,29,4,6,0.4,0.5
2026-01-09T0400,2693A,82.0482,44.8553,博尔塔拉蒙古自治州,市党校,细颗粒物(PM2.5),82,112,80,60,38,63,,,,24,28,3,4,1.1,0.7
2026-01-09T0400,2694A,82.0805,44.8966,博尔塔拉蒙古自治州,市环保局,颗粒物(PM10),80,110,83,53,41,67,,,,19,38,5,11,1.1,1
2026-01-09T0400,1071A,116.8733,38.2922,沧州市,沧县城建局,细颗粒物(PM2.5),85,98,78,63,41,37,,,,30,39,5,8,0.5,0.5
2026-01-09T0400,1072A,116.8462,38.3189,沧州市,电视转播站,细颗粒物(PM2.5),77,96,73,56,39,42,,,,29,34,5,5,0.5,0.5
2026-01-09T0400,1073A,116.8588,38.3161,沧州市,市环保局,细颗粒物(PM2.5),78,86,73,57,45,30,,,,31,34,7,8,0.5,0.5
2026-01-09T0400,3324A,116.8011,38.294,沧州市,河北水利电力学院,颗粒物(PM10),75,100,84,46,35,31,,,,35,44,10,11,0.5,0.6
2026-01-09T0400,2622A,97.1813,31.1289,昌都市,昌都监测站,,23,23,46,3,18,51,,,,4,21,3,2,0.6,0.8
2026-01-09T0400,3719A,97.1707,31.1428,昌都市,昌都会议中心,,17,8,15,3,9,53,,,,1,5,1,2,0.2,0.4
2026-01-09T0400,2692A,87.2722,44.0298,昌吉回族自治州,新区政务中心,细颗粒物(PM2.5),84,93,129,62,92,5,,,,60,51,7,8,1.2,1.3
2026-01-09T0400,3613A,87.3069,44.0093,昌吉回族自治州,亚心广场,细颗粒物(PM2.5),89,88,132,66,97,13,,,,56,41,7,7,0.9,1.2
2026-01-09T0400,4164A,87.2057,43.9289,昌吉回族自治州,财政所,颗粒物(PM10),51,52,71,35,52,56,,,,10,20,5,5,0.6,0.7
2026-01-09T0400,1120A,125.2874,43.9024,长春市,客车厂,细颗粒物(PM2.5),55,50,48,39,40,24,,,,34,31,15,11,0.6,0.6
2026-01-09T0400,1121A,125.2943,43.8508,长春市,邮电学院,颗粒物(PM10),52,54,44,31,31,26,,,,30,28,16,14,0.5,0.5
2026-01-09T0400,1122A,125.3648,43.8745,长春市,劳动公园,颗粒物(PM10),52,54,50,29,32,32,,,,30,23,12,10,0.7,0.7
2026-01-09T0400,1123A,125.3233,43.8781,长春市,园林处,颗粒物(PM10),51,51,44,26,30,34,,,,21,22,10,10,0.7,0.7
2026-01-09T0400,1124A,125.4604,43.7904,长春市,净月潭,,34,34,38,19,24,44,,,,14,15,7,6,0.5,0.4
2026-01-09T0400,1126A,125.38,43.8422,长春市,经开区环卫处,,43,43,51,22,28,30,,,,29,25,7,6,0.7,0.6
2026-01-09T0400,1127A,125.234,43.7761,长春市,高新区管委会,颗粒物(PM10),51,52,47,30,37,37,,,,27,22,8,7,0.7,0.7
2026-01-09T0400,1128A,125.1695,43.83,长春市,岱山公园,,48,48,53,30,37,34,,,,24,37,7,8,0.5,0.6
2026-01-09T0400,4281A,125.334645,43.916281,长春市,北亚泰大街1068号,,50,50,44,35,31,28,,,,8,17,12,8,0.7,0.7
2026-01-09T0400,1335A,113.082,28.2421,长沙市,经开区环保局,细颗粒物(PM2.5),72,88,63,52,43,6,,,,73,49,6,6,0.6,0.5
2026-01-09T0400,1336A,112.8873,28.2202,长沙市,高开区环保局,细颗粒物(PM2.5),87,91,70,64,53,0,,,,77,52,6,6,1.0,0.7
2026-01-09T0400,1337A,113.0785,28.2012,长沙市,马坡岭,细颗粒物(PM2.5),83,98,76,61,53,2,,,,61,45,6,5,0.7,0.8
2026-01-09T0400,1338A,112.9448,28.1894,长沙市,湖南师范大学,"颗粒物(PM10),细颗粒物(PM2.5)",57,63,57,40,38,5,,,,91,46,6,6,0.6,0.6
2026-01-09T0400,1339A,113.0177,28.1322,长沙市,雨花区环保局,细颗粒物(PM2.5),73,72,67,53,45,12,,,,74,49,10,9,0.6,0.6
2026-01-09T0400,1340A,112.9795,28.2593,长沙市,伍家岭,细颗粒物(PM2.5),95,114,86,71,52,1,,,,55,51,5,6,0.7,0.5
2026-01-09T0400,1341A,113.002,28.1944,长沙市,火车新站,细颗粒物(PM2.5),85,112,77,63,53,5,,,,80,52,10,10,0.8,0.7
2026-01-09T0400,1342A,112.9846,28.1177,长沙市,天心区环保局,颗粒物(PM10),67,84,64,47,44,12,,,,78,52,8,7,0.9,0.8
2026-01-09T0400,1343A,112.8906,28.1307,长沙市,湖南中医药大学,颗粒物(PM10),72,94,68,51,35,1,,,,54,55,5,6,0.7,0.7
2026-01-09T0400,1727A,113.1146,36.1547,长治市,清华站,,31,31,46,12,22,54,,,,18,22,10,11,0.7,0.7
2026-01-09T0400,1730A,113.0887,36.2126,长治市,审计局,,42,42,48,22,23,35,,,,38,26,9,11,0.5,0.5
2026-01-09T0400,1731A,113.0845,36.1856,长治市,长治八中,颗粒物(PM10),54,58,61,37,30,57,,,,12,20,14,12,0.6,0.6
2026-01-09T0400,2845A,113.1561,36.1912,长治市,德盛苑,,26,26,42,17,25,76,,,,13,16,9,11,0.4,0.6
2026-01-09T0400,3568A,113.0603,36.0464,长治市,向阳小学,,36,36,68,19,27,68,,,,13,20,14,12,0.5,0.6
2026-01-09T0400,3569A,112.8788,36.315,长治市,屯留一中,,46,46,50,24,21,62,,,,11,16,7,7,1.1,0.7
2026-01-09T0400,4189A,113.113092,36.199482,长治市,英华南巷50号,,38,38,52,24,37,53,,,,14,20,8,9,0.5,0.6
2026-01-09T0400,4190A,113.23666,36.33435,长治市,学府街1号,颗粒物(PM10),51,52,57,25,27,28,,,,35,28,10,10,0.9,0.7
2026-01-09T0400,1854A,111.696,28.9725,常德市,市二中,细颗粒物(PM2.5),93,85,61,69,54,25,,,,23,23,4,5,0.6,0.6
2026-01-09T0400,3138A,111.7152,29.0288,常德市,武陵区永安,细颗粒物(PM2.5),113,110,77,85,60,13,,,,44,30,4,5,0.9,0.8
2026-01-09T0400,3139A,111.6891,28.9881,常德市,鼎城区玉霞,细颗粒物(PM2.5),87,75,70,64,62,5,,,,30,27,5,8,0.6,0.8
2026-01-09T0400,3140A,111.6651,29.0526,常德市,武陵区长庚,细颗粒物(PM2.5),109,112,79,82,66,22,,,,32,30,4,5,0.7,0.7
2026-01-09T0400,1196A,119.9524,31.7586,常州市,市监测站,细颗粒物(PM2.5),138,151,113,105,77,2,,,,84,70,9,7,0.9,0.9
2026-01-09T0400,1200A,119.9351,31.703,常州市,武进监测站,细颗粒物(PM2.5),117,125,102,88,71,18,,,,68,59,13,11,0.6,0.7
2026-01-09T0400,3002A,119.9701,31.813,常州市,行政中心,细颗粒物(PM2.5),123,134,106,93,68,17,,,,68,65,13,9,,0.8
2026-01-09T0400,3003A,120.0434,31.7726,常州市,经开区,细颗粒物(PM2.5),123,161,129,93,72,12,,,,79,64,8,13,1.3,0.9
2026-01-09T0400,3010A,119.8919,31.7892,常州市,钟楼,细颗粒物(PM2.5),117,123,103,88,68,20,,,,69,60,11,9,0.7,0.8
2026-01-09T0400,3429A,119.8595,31.706,常州市,武进经发区,细颗粒物(PM2.5),155,141,108,118,88,1,,,,90,62,13,11,0.8,0.7
2026-01-09T0400,3430A,119.5812,31.7256,常州市,金坛城区,细颗粒物(PM2.5),113,118,105,85,77,2,,,,72,45,,10,0.9,0.8
2026-01-09T0400,4089A,119.9551,31.863,常州市,崇义南街5-H号,细颗粒物(PM2.5),129,118,108,98,78,2,,,,88,70,10,8,1.1,0.9
2026-01-09T0400,2220A,120.4318,41.588,朝阳市,西梁,,,80,71,41,35,35,,,,32,28,,10,1.0,1
2026-01-09T0400,2221A,120.452,41.565,朝阳市,河畔小区,颗粒物(PM10),60,70,55,40,28,39,,,,29,24,11,10,0.9,0.8
2026-01-09T0400,2222A,120.4176,41.5648,朝阳市,八里堡,颗粒物(PM10),60,70,58,37,28,40,,,,30,29,13,14,0.7,1.1
2026-01-09T0400,3026A,116.6179,23.6608,潮州市,市政府,,34,34,41,20,23,30,,,,22,13,9,7,0.3,0.4
2026-01-09T0400,4036A,116.646,23.676,潮州市,金山,,25,24,39,17,26,47,,,,8,14,3,5,0.2,0.3
2026-01-09T0400,2473A,113.0116,25.8228,郴州市,市职中,,49,48,45,34,35,0,,,,35,24,3,7,0.5,0.6
2026-01-09T0400,2475A,113.0381,25.8074,郴州市,市审计局,细颗粒物(PM2.5),57,48,47,40,36,0,,,,44,33,1,6,/,/
2026-01-09T0400,2476A,113.0348,25.7757,郴州市,市环保局,细颗粒物(PM2.5),65,65,59,47,39,2,,,,48,37,3,7,0.6,0.7
2026-01-09T0400,4252A,113.0138,25.8011,郴州市,好美居路49号,细颗粒物(PM2.5),57,48,47,40,38,0,,,,42,35,1,6,/,/
2026-01-09T0400,1431A,103.9727,30.7242,成都市,金泉两河,细颗粒物(PM2.5),78,92,81,57,52,1,,,,75,58,2,3,1.4,1.1
2026-01-09T0400,1432A,104.1423,30.6765,成都市,十里店,细颗粒物(PM2.5),80,83,72,59,50,4,,,,80,43,4,6,0.7,0.6
2026-01-09T0400,1433A,104.0594,30.5765,成都市,三瓦窑,细颗粒物(PM2.5),93,74,75,69,57,9,,,,84,55,4,5,0.7,0.7
2026-01-09T0400,1434A,104.1122,30.6306,成都市,沙河铺,细颗粒物(PM2.5),90,98,73,67,58,15,,,,73,52,3,3,0.7,0.7
2026-01-09T0400,2880A,104.0219,30.6561,成都市,大石西路,细颗粒物(PM2.5),93,94,76,69,53,1,,,,78,52,5,5,1.1,0.9
2026-01-09T0400,3136A,104.2724,30.559,成都市,龙泉驿区区政府,细颗粒物(PM2.5),77,61,52,56,40,45,,,,18,19,6,7,0.6,0.6
2026-01-09T0400,3357A,104.0028,30.6891,成都市,金博路,细颗粒物(PM2.5),87,88,67,64,52,1,,,,78,56,4,5,1.1,1
2026-01-09T0400,3359A,104.056,30.5228,成都市,华阳,细颗粒物(PM2.5),83,73,68,61,54,1,,,,69,43,3,4,1.0,0.9
2026-01-09T0400,3488A,104.387954,30.746684,成都市,青石路225号,细颗粒物(PM2.5),95,80,67,71,54,25,,,,53,41,5,6,0.5,0.5
2026-01-09T0400,3489A,104.0788,30.4054,成都市,科学城,细颗粒物(PM2.5),79,72,61,58,48,2,,,,44,32,6,7,0.6,0.5
2026-01-09T0400,4011A,103.8505,30.6946,成都市,光华大道三段,细颗粒物(PM2.5),109,112,93,82,67,3,,,,66,51,3,4,1.0,1
2026-01-09T0400,4144A,104.3257,30.6406,成都市,八角井街185号,细颗粒物(PM2.5),104,81,67,78,53,60,,,,14,26,2,3,0.6,0.7
2026-01-09T0400,4224A,104.2433276,30.53529463,成都市,鲸龙路1057号,细颗粒物(PM2.5),92,77,66,68,53,24,,,,57,35,6,7,0.4,0.4
2026-01-09T0400,1062A,117.9531,40.908,承德市,铁路,颗粒物(PM10),66,82,63,47,34,4,,,,42,38,5,6,1.2,0.9
2026-01-09T0400,1063A,117.9397,40.9763,承德市,中国银行,颗粒物(PM10),69,87,66,49,34,4,,,,44,38,1,4,1.0,0.9
2026-01-09T0400,4073A,117.9462,40.95,承德市,杏林街1号,细颗粒物(PM2.5),78,77,52,57,33,3,,,,41,32,4,6,1.1,0.8
2026-01-09T0400,4274A,117.7994,40.9605,承德市,滨河大街98号,细颗粒物(PM2.5),67,70,65,48,35,9,,,,40,35,3,12,0.6,0.9
2026-01-09T0400,2314A,117.4698,30.6617,池州市,池州学院,细颗粒物(PM2.5),52,51,56,36,38,26,,,,37,34,4,5,1.4,1.3
2026-01-09T0400,3237A,117.4918,30.6617,池州市,展览馆,,45,45,52,31,32,18,,,,34,37,1,2,1.7,1.1
2026-01-09T0400,3333A,117.5626,30.695,池州市,第八中学,细颗粒物(PM2.5),53,53,55,37,36,33,,,,37,33,4,6,1.4,0.9
2026-01-09T0400,3334A,117.5037,30.6242,池州市,第十二中学,颗粒物(PM10),54,57,65,32,37,13,,,,54,45,3,5,1.6,1.1
2026-01-09T0400,1744A,118.9229,42.2816,赤峰市,松山一中,颗粒物(PM10),58,65,49,20,19,13,,,,42,29,8,8,1.2,1.1
2026-01-09T0400,1745A,118.9588,42.2733,赤峰市,哈达街,颗粒物(PM10),57,63,50,18,18,18,,,,35,23,11,7,1.2,0.9
2026-01-09T0400,1746A,118.8792,42.2551,赤峰市,天义路,,43,43,29,28,22,54,,,,13,18,5,6,0.5,0.6
2026-01-09T0400,3058A,119.2656,42.0356,赤峰市,银河街,"颗粒物(PM10),细颗粒物(PM2.5)",57,64,84,40,45,29,,,,21,20,17,27,1.0,1.1
2026-01-09T0400,3286A,118.9359,42.3146,赤峰市,桥北物流园区,颗粒物(PM10),54,57,37,29,26,27,,,,24,25,21,8,1.1,0.8
2026-01-09T0400,2521A,107.3473,22.4137,崇左市,市环保局江州分局,细颗粒物(PM2.5),63,51,52,45,36,8,,,,26,22,6,7,0.6,0.6
2026-01-09T0400,4256A,107.375,22.3736,崇左市,石景林东路7号,细颗粒物(PM2.5),58,42,46,41,37,25,,,,23,22,8,9,0.5,0.5
2026-01-09T0400,3207A,118.31131,32.3033,滁州市,市政府原办公楼,细颗粒物(PM2.5),79,85,89,58,60,51,,,,29,43,6,7,0.5,0.7
2026-01-09T0400,3331A,118.3268,32.2633,滁州市,图书馆,细颗粒物(PM2.5),74,92,86,54,52,40,,,,31,37,10,11,0.6,0.6
2026-01-09T0400,4101A,118.3196,32.3335,滁州市,银山路666号,细颗粒物(PM2.5),89,69,85,66,77,0,,,,39,36,7,10,0.4,0.7
2026-01-09T0400,4102A,118.3426,32.2979,滁州市,黄山路555号,细颗粒物(PM2.5),114,122,112,86,80,0,,,,78,47,12,11,0.9,0.9
2026-01-09T0400,2606A,101.5379,25.0492,楚雄彝族自治州,市经济开发区,,25,,17,17,16,44,,,,4,6,2,2,0.5,0.7
2026-01-09T0400,4153A,101.5536,25.0343,楚雄彝族自治州,团结路562号,,20,16,12,14,12,43,,,,2,2,1,2,0.5,0.6
2026-01-09T0400,2549A,107.5087,31.2186,达州市,市环境监测站,细颗粒物(PM2.5),117,100,102,88,84,10,,,,35,42,5,6,0.5,0.7
2026-01-09T0400,2550A,107.4988,31.2132,达州市,凤凰小区,细颗粒物(PM2.5),119,105,110,90,86,12,,,,31,41,4,5,0.5,0.7
2026-01-09T0400,2551A,107.5081,31.1987,达州市,达县机关宾馆,细颗粒物(PM2.5),108,100,112,81,81,18,,,,30,46,2,3,0.7,0.8
2026-01-09T0400,2552A,107.4644,31.2124,达州市,市政中心,细颗粒物(PM2.5),119,115,121,90,83,8,,,,38,47,5,7,0.5,0.8
2026-01-09T0400,2614A,100.2168,25.5818,大理白族自治州,大理市环境监测站,,38,26,23,26,18,75,,,,7,8,6,12,0.5,0.6
2026-01-09T0400,2615A,100.1542,25.7055,大理白族自治州,大理古城,,35,,21,24,15,56,,,,11,11,8,8,0.7,0.7
2026-01-09T0400,1109A,121.6119,38.974,大连市,甘井子,细颗粒物(PM2.5),58,51,42,41,24,50,,,,26,23,10,10,0.5,0.4
2026-01-09T0400,1110A,121.565,38.9509,大连市,周水子,细颗粒物(PM2.5),58,55,39,41,24,50,,,,23,24,19,12,0.5,0.4
2026-01-09T0400,1111A,121.5637,38.8849,大连市,星海三站,细颗粒物(PM2.5),59,49,31,42,22,45,,,,23,20,9,8,0.8,0.5
2026-01-09T0400,1112A,121.6301,38.9117,大连市,青泥洼桥,细颗粒物(PM2.5),62,67,39,44,22,46,,,,25,22,11,10,0.6,0.4
2026-01-09T0400,1113A,121.6248,38.8643,大连市,傅家庄,"颗粒物(PM10),细颗粒物(PM2.5)",55,60,34,39,21,47,,,,22,18,10,9,0.6,0.4
2026-01-09T0400,1114A,121.5117,38.8636,大连市,七贤岭,细颗粒物(PM2.5),54,51,36,38,21,47,,,,22,17,10,10,0.7,0.6
2026-01-09T0400,1116A,121.7507,39.1339,大连市,金州,细颗粒物(PM2.5),55,55,42,39,28,52,,,,25,27,11,11,0.5,0.4
2026-01-09T0400,1117A,121.7811,39.0495,大连市,开发区,细颗粒物(PM2.5),57,55,36,40,22,33,,,,33,24,6,5,0.8,0.7
2026-01-09T0400,1118A,121.9762,39.0631,大连市,双D港,颗粒物(PM10),55,59,40,36,20,54,,,,22,16,10,10,0.5,0.4
2026-01-09T0400,4082A,121.2548,38.8188,大连市,旅顺,细颗粒物(PM2.5),60,68,40,43,22,46,,,,16,14,8,6,0.7,0.7
2026-01-09T0400,1789A,124.8085,46.0381,大庆市,大同区,颗粒物(PM10),68,86,66,29,35,38,,,,15,18,6,8,0.5,0.6
2026-01-09T0400,1790A,125.1166,46.5255,大庆市,龙凤区,颗粒物(PM10),58,65,58,29,35,29,,,,34,28,9,10,0.7,0.6
2026-01-09T0400,1791A,124.8894,46.4007,大庆市,红岗区,颗粒物(PM10),59,67,51,33,26,36,,,,15,21,4,5,0.7,0.6
2026-01-09T0400,1792A,125.1391,46.578,大庆市,萨尔图区,颗粒物(PM10),64,78,62,34,34,27,,,,25,22,8,9,0.5,0.5
2026-01-09T0400,1793A,124.9026,46.6217,大庆市,让胡路区,颗粒物(PM10),55,59,42,37,31,45,,,,11,19,7,6,0.5,0.5
2026-01-09T0400,3481A,125.127,46.6277,大庆市,萨区政府监测点,颗粒物(PM10),65,80,60,36,29,21,,,,36,23,8,9,0.7,0.6
2026-01-09T0400,1723A,113.2926,40.0759,大同市,云冈宾馆,颗粒物(PM10),62,73,79,9,28,53,,,,18,30,7,9,0.6,0.8
2026-01-09T0400,1724A,113.3437,40.0921,大同市,大同大学,颗粒物(PM10),59,67,78,18,31,54,,,,18,29,6,7,0.4,0.7
2026-01-09T0400,1725A,113.2637,40.129,大同市,安家小村,颗粒物(PM10),57,64,87,19,34,53,,,,19,28,7,9,0.4,1.1
2026-01-09T0400,3282A,113.3399,40.0586,大同市,大同市卫生学校,颗粒物(PM10),60,69,81,19,28,52,,,,20,32,10,8,0.3,0.5
2026-01-09T0400,3565A,113.1371,40.1122,大同市,云冈站,颗粒物(PM10),54,57,68,22,26,44,,,,13,19,6,7,0.6,0.7
2026-01-09T0400,3566A,113.1186,40.2556,大同市,图书馆,颗粒物(PM10),57,64,74,21,38,49,,,,14,18,6,11,0.5,0.7
2026-01-09T0400,3567A,113.5931,40.0459,大同市,区一中,颗粒物(PM10),60,69,97,33,38,45,,,,25,30,4,4,0.6,0.6
2026-01-09T0400,4199A,113.2798248,40.09972476,大同市,魏都大道141号,颗粒物(PM10),62,74,100,24,31,50,,,,21,32,6,8,0.5,1.1
2026-01-09T0400,2269A,124.1068,50.4091,大兴安岭地区,科技局,,35,26,25,24,19,43,,,,8,7,5,5,0.3,0.3
2026-01-09T0400,3663A,124.117,50.4279,大兴安岭地区,红旗社区,,16,14,19,11,11,38,,,,18,18,5,7,0.3,0.3
2026-01-09T0400,1600A,124.33,40.0625,丹东市,江湾东路,,50,50,59,25,27,35,,,,20,18,7,12,1.1,0.9
2026-01-09T0400,1601A,124.4242,40.1513,丹东市,临江后街,颗粒物(PM10),51,52,54,24,23,23,,,,38,24,15,14,0.9,0.8
2026-01-09T0400,1602A,124.3935,40.1461,丹东市,元宝山,,34,34,42,18,21,51,,,,7,14,9,11,0.5,0.6
2026-01-09T0400,1603A,124.3634,40.1093,丹东市,民主桥,,43,43,53,19,24,40,,,,15,20,6,12,0.6,0.7
2026-01-09T0400,3541A,109.5726195,19.51688767,儋州市,第一中学子站,,44,44,38,26,26,44,,,,10,8,5,8,0.6,0.5
2026-01-09T0400,3542A,109.5567,19.5187,儋州市,东坡学校子站,,40,40,37,23,22,69,,,,7,7,4,5,0.6,0.6
2026-01-09T0400,2616A,98.5611,24.4273,德宏傣族景颇族自治州,德宏州监测站,细颗粒物(PM2.5),70,55,60,51,48,11,,,,31,25,6,7,0.7,0.7
2026-01-09T0400,3677A,98.5887,24.4366,德宏傣族景颇族自治州,芒市人民政府综合楼,细颗粒物(PM2.5),52,45,57,36,38,30,,,,9,17,4,5,0.7,0.8
2026-01-09T0400,1901A,104.424,31.1209,德阳市,东山公园,细颗粒物(PM2.5),93,78,62,69,54,50,,,,27,21,4,5,0.7,0.7
2026-01-09T0400,1902A,104.3827,31.1318,德阳市,西小区,细颗粒物(PM2.5),92,101,94,68,61,3,,,,68,50,3,5,0.9,0.9
2026-01-09T0400,1904A,104.3553,31.1091,德阳市,耐火材料厂,细颗粒物(PM2.5),120,106,92,91,74,13,,,,46,50,2,4,0.7,0.8
2026-01-09T0400,4145A,104.4144,31.1495,德阳市,市林业局,细颗粒物(PM2.5),108,91,71,81,60,3,,,,61,42,2,3,0.8,0.8
2026-01-09T0400,1622A,116.3034,37.4675,德州市,儿童乐园,细颗粒物(PM2.5),79,95,91,58,41,44,,,,26,34,13,15,1.0,1.1
2026-01-09T0400,1624A,116.2992,37.4449,德州市,监理站,细颗粒物(PM2.5),79,105,86,58,43,52,,,,27,34,13,16,0.7,0.8
2026-01-09T0400,3066A,116.2722,37.438,德州市,九衢泉纯净水厂,细颗粒物(PM2.5),77,95,89,56,47,43,,,,27,41,12,17,0.7,0.8
2026-01-09T0400,3371A,116.3693,37.44,德州市,开发区人民医院,细颗粒物(PM2.5),77,102,87,56,39,50,,,,42,49,13,16,0.6,0.6
2026-01-09T0400,3511A,116.5687,37.3331,德州市,陵城艺术中心,颗粒物(PM10),76,102,87,53,39,39,,,,37,43,17,18,0.5,0.4
2026-01-09T0400,4292A,116.352738,37.420875,德州市,新河东路,细颗粒物(PM2.5),83,97,89,61,48,44,,,,30,45,13,17,0.9,1
2026-01-09T0400,2621A,99.7054,27.8319,迪庆藏族自治州,迪庆州站,,18,17,34,12,23,47,,,,7,12,5,5,0.4,0.6
2026-01-09T0400,3180A,99.7122,27.8129,迪庆藏族自治州,质量技术监督局,,23,17,35,16,23,53,,,,9,14,4,4,0.4,0.6
2026-01-09T0400,4257A,104.6092,35.5962,定西市,将台街,细颗粒物(PM2.5),74,65,58,54,42,19,,,,34,29,11,15,1.0,0.8
2026-01-09T0400,4309A,104.6159,35.5701,定西市,正龙路62号,细颗粒物(PM2.5),67,69,71,48,44,38,,,,11,15,6,12,0.9,0.9
2026-01-09T0400,1390A,113.7943,23.0132,东莞市,东城石井,,28,28,29,16,17,49,,,,28,28,6,7,0.4,0.4
2026-01-09T0400,1391A,113.7384,22.9659,东莞市,南城西平,颗粒物(PM10),55,59,40,28,21,0,,,,96,65,9,10,0.5,0.5
2026-01-09T0400,3319A,113.7283,23.041,东莞市,万江金泰,,32,32,31,17,17,69,,,,21,27,7,6,0.5,0.6
2026-01-09T0400,4129A,113.8666,23.1062,东莞市,裕兴路,,33,33,38,18,18,62,,,,33,32,5,6,0.6,0.6
2026-01-09T0400,4130A,114.0076,22.9739,东莞市,教育路1号,,,75,56,44,28,26,,,,71,50,7,7,,0.5
2026-01-09T0400,4131A,113.7981,22.8124,东莞市,长怡路1号,,50,50,44,23,20,44,,,,46,42,9,9,0.4,0.4
2026-01-09T0400,1666A,118.6612,37.4313,东营市,市环保局,颗粒物(PM10),68,85,71,41,35,25,,,,50,48,16,25,0.8,0.9
2026-01-09T0400,3036A,118.6903,37.4337,东营市,开发区管委会,颗粒物(PM10),73,96,72,44,35,35,,,,46,51,23,26,0.8,0.8
2026-01-09T0400,3365A,118.5721,37.5654,东营市,垦利区民丰路,颗粒物(PM10),73,95,64,44,32,27,,,,47,46,13,11,1.1,1
2026-01-09T0400,3498A,118.5063,37.8606,东营市,河口城区,颗粒物(PM10),75,100,72,46,34,32,,,,44,50,9,7,1.1,0.9
2026-01-09T0400,3646A,118.4979,37.4623,东营市,胜利站,颗粒物(PM10),68,86,64,46,36,32,,,,44,51,20,20,1.1,1.1
2026-01-09T0400,3734A,118.5753,37.4405,东营市,理想之城,颗粒物(PM10),69,88,73,48,40,11,,,,56,54,11,19,0.9,1
2026-01-09T0400,1591A,110.0024,39.8127,鄂尔多斯市,综合楼,颗粒物(PM10),159,268,71,58,24,78,,,,4,16,3,6,0.2,0.5
2026-01-09T0400,1592A,109.9485,39.8259,鄂尔多斯市,巴音孟克林场办事处,颗粒物(PM10),209,356,85,58,23,80,,,,5,13,6,7,0.2,0.3
2026-01-09T0400,1593A,109.7734,39.5987,鄂尔多斯市,康泽苑,颗粒物(PM10),161,271,83,48,27,79,,,,7,16,5,6,0.2,0.4
2026-01-09T0400,1594A,109.8121,39.5987,鄂尔多斯市,华泰汽车城,颗粒物(PM10),146,241,85,51,25,82,,,,5,18,3,5,0.2,0.4
2026-01-09T0400,1595A,109.9734,39.7884,鄂尔多斯市,奥林花园,颗粒物(PM10),192,334,89,51,22,71,,,,14,23,10,5,0.3,0.4
2026-01-09T0400,2436A,114.894,30.3989,鄂州市,市政府,颗粒物(PM10),62,74,60,42,36,11,,,,52,43,17,6,0.7,0.7
2026-01-09T0400,2437A,114.8986,30.3714,鄂州市,赵家坝,颗粒物(PM10),56,61,71,39,39,12,,,,33,30,8,8,0.8,0.6
2026-01-09T0400,3654A,114.8093,30.4091,鄂州市,精准医疗中心,颗粒物(PM10),72,94,61,49,36,5,,,,66,40,6,5,0.7,0.4
2026-01-09T0400,2454A,109.4978,30.2979,恩施土家族苗族自治州,湖北民院,细颗粒物(PM2.5),94,70,68,70,67,16,,,,17,17,6,6,0.8,0.8
2026-01-09T0400,3549A,109.5061,30.3771,恩施土家族苗族自治州,龙凤新区,细颗粒物(PM2.5),69,56,57,50,46,4,,,,7,13,7,7,0.3,0.4
2026-01-09T0400,2499A,108.3411,21.6159,防城港市,沙万,细颗粒物(PM2.5),52,52,49,36,34,73,,,,15,17,12,8,0.4,0.4
2026-01-09T0400,2500A,108.3515,21.7733,防城港市,防城档案局,细颗粒物(PM2.5),67,81,77,48,42,35,,,,26,26,4,6,0.6,0.5
2026-01-09T0400,2501A,108.3506,21.6414,防城港市,大海花园,细颗粒物(PM2.5),53,44,46,37,36,74,,,,13,13,12,10,0.6,0.6
2026-01-09T0400,1371A,113.1293,23.0065,佛山市,湾梁,,31,31,34,21,20,60,,,,31,31,/,/,/,/
2026-01-09T0400,1372A,113.1082,23.0477,佛山市,华材职中,,37,34,41,24,24,25,,,,73,39,8,8,0.5,0.5
2026-01-09T0400,1373A,113.1439,23.045,佛山市,南海气象局,,34,34,33,23,23,57,,,,35,34,/,/,/,/
2026-01-09T0400,1374A,113.2879,22.8094,佛山市,顺德苏岗,,35,35,31,17,17,43,,,,44,39,/,/,0.5,0.5
2026-01-09T0400,1376A,112.8384,22.8678,佛山市,高明孔堂,,41,41,39,26,26,36,,,,36,26,/,/,/,/
2026-01-09T0400,1377A,112.8835,23.1584,佛山市,三水监测站,,46,46,50,28,28,32,,,,50,39,9,7,0.5,0.6
2026-01-09T0400,1378A,112.8668,23.185,佛山市,三水云东海,,44,44,35,23,24,31,,,,35,27,/,/,/,/
2026-01-09T0400,3625A,113.2568,22.7629,佛山市,容桂街道办,,35,31,37,24,21,36,,,,48,40,/,/,/,/
2026-01-09T0400,1282A,119.2681,26.0506,福州市,师大,,45,39,41,31,29,63,,,,28,26,3,4,0.5,0.5
2026-01-09T0400,1283A,119.2983,26.1028,福州市,五四北路,,48,42,38,33,30,70,,,,25,22,5,5,0.7,0.6
2026-01-09T0400,1284A,119.2648,26.0769,福州市,杨桥西路,,42,36,37,29,28,74,,,,16,17,5,5,/,/
2026-01-09T0400,3048A,119.5799,26.0937,福州市,九龙,,43,36,34,30,27,89,,,,16,19,6,5,0.7,0.6
2026-01-09T0400,3526A,119.5188,25.9666,福州市,吴航,,,57,41,38,29,82,,,,19,27,6,6,,0.6
2026-01-09T0400,4104A,119.3106,26.0648,福州市,路通桥巷6号,细颗粒物(PM2.5),52,41,46,36,34,75,,,,16,19,/,/,/,/
2026-01-09T0400,1755A,123.7974,41.8494,抚顺市,望花区,颗粒物(PM10),58,65,83,35,39,44,,,,23,31,23,14,0.7,1.2
2026-01-09T0400,1756A,123.9161,41.8827,抚顺市,顺城区,颗粒物(PM10),53,56,70,34,36,3,,,,62,39,9,9,0.9,1
2026-01-09T0400,1757A,124.0437,41.8615,抚顺市,东洲区,颗粒物(PM10),53,55,68,29,50,33,,,,32,23,31,10,0.8,1
2026-01-09T0400,1758A,123.9246,41.8638,抚顺市,新抚区,颗粒物(PM10),60,70,72,35,38,10,,,,56,41,6,9,1.0,1.1
2026-01-09T0400,1759A,124.0972,41.8961,抚顺市,大伙房水库,,47,47,66,23,40,54,,,,11,18,12,12,0.7,0.9
2026-01-09T0400,1760A,123.708,41.8386,抚顺市,沈抚新城,颗粒物(PM10),54,58,74,34,40,48,,,,27,32,11,10,1.4,1.3
2026-01-09T0400,2377A,116.3544,27.9833,抚州市,市站,细颗粒物(PM2.5),57,58,51,40,33,48,,,,22,23,12,11,0.6,0.5
2026-01-09T0400,2378A,116.3562,27.9631,抚州市,血防站,颗粒物(PM10),57,63,54,38,33,54,,,,18,30,12,10,1.0,0.9
2026-01-09T0400,2379A,116.3561,28.0007,抚州市,采茶剧团,细颗粒物(PM2.5),59,62,55,42,34,25,,,,30,24,7,9,0.7,0.7
2026-01-09T0400,2380A,116.3854,27.9648,抚州市,医学分院,颗粒物(PM10),58,65,60,36,33,50,,,,12,20,9,12,0.7,0.6
2026-01-09T0400,2207A,121.6095,41.9978,阜新市,工业园区,颗粒物(PM10),96,142,92,56,44,9,,,,36,30,13,22,1.1,0.8
2026-01-09T0400,2208A,121.6567,42.0188,阜新市,长青街,细颗粒物(PM2.5),93,81,60,69,32,1,,,,55,33,12,17,1.4,0.7
2026-01-09T0400,2209A,121.6672,42.07,阜新市,农业园区,颗粒物(PM10),59,67,62,41,33,35,,,,27,24,22,21,0.7,0.6
2026-01-09T0400,2211A,121.6343,42.0455,阜新市,玉龙新城,细颗粒物(PM2.5),72,80,75,52,38,5,,,,54,37,11,13,1.4,0.8
2026-01-09T0400,2301A,115.8276,32.8929,阜阳市,市监测站,颗粒物(PM10),64,77,98,41,59,66,,,,17,40,6,6,0.4,0.6
2026-01-09T0400,2303A,115.8551,32.8606,阜阳市,开发区,细颗粒物(PM2.5),63,71,94,45,57,49,,,,21,43,5,7,0.4,0.6
2026-01-09T0400,2875A,115.783962,32.889217,阜阳市,阜阳职业技术学院,颗粒物(PM10),54,58,79,34,51,75,,,,13,44,9,9,0.4,0.6
2026-01-09T0400,3468A,115.79,32.8614,阜阳市,市规划展馆,颗粒物(PM10),69,88,92,43,62,68,,,,18,37,7,8,0.5,0.6
2026-01-09T0400,3469A,115.835101,32.918568,阜阳市,枣园社区,颗粒物(PM10),65,80,100,44,61,64,,,,17,48,6,8,0.4,0.5
2026-01-09T0400,2669A,102.9097,34.9841,甘南藏族自治州,州政府,,44,44,37,23,20,14,,,,37,27,4,5,1.4,0.7
2026-01-09T0400,3380A,102.8915,34.9618,甘南藏族自治州,甘肃民族师范学院,,38,38,42,10,15,29,,,,26,25,9,11,0.6,0.4
2026-01-09T0400,2570A,101.96,30.048,甘孜藏族自治州,水桥子,,18,18,15,8,7,31,,,,24,21,6,6,0.9,0.9
2026-01-09T0400,3065A,101.9534,29.9976,甘孜藏族自治州,州环保局,,16,9,16,3,6,49,,,,12,12,5,5,0.5,0.5
2026-01-09T0400,2363A,114.9368,25.8663,赣州市,地委,,49,49,43,30,25,26,,,,34,28,7,8,0.8,0.9
2026-01-09T0400,2364A,114.946,25.8483,赣州市,气象台,颗粒物(PM10),53,56,55,23,21,26,,,,39,42,3,4,0.4,0.5
2026-01-09T0400,2365A,114.932,25.8332,赣州市,市图书馆,,47,47,44,26,24,9,,,,48,37,4,4,0.5,0.5
2026-01-09T0400,2366A,114.8905,25.8472,赣州市,华坚鞋城,,40,40,45,26,24,15,,,,50,33,5,7,0.3,0.3
2026-01-09T0400,3109A,115.0094,25.8614,赣州市,赣县区卫计委,,,28,39,27,31,35,,,,19,25,7,8,,0.4
2026-01-09T0400,2684A,106.2753,36.0057,固原市,监测站,,27,16,38,7,19,85,,,,3,23,3,6,0.3,0.7
2026-01-09T0400,2685A,106.2384,36.0189,固原市,新区,,30,12,37,3,15,93,,,,2,21,2,3,0.3,0.6
2026-01-09T0400,2544A,106.6307,30.4577,广安市,市委,细颗粒物(PM2.5),127,101,93,96,76,41,,,,18,30,8,9,0.9,1
2026-01-09T0400,2545A,106.6266,30.4662,广安市,友谊中学,细颗粒物(PM2.5),109,89,81,82,70,38,,,,14,20,5,7,0.7,0.8
2026-01-09T0400,2547A,106.6386,30.4551,广安市,广电花园,细颗粒物(PM2.5),124,103,90,94,72,39,,,,15,29,8,9,0.7,0.8
2026-01-09T0400,2902A,106.6347,30.4868,广安市,北辰小学,细颗粒物(PM2.5),108,85,86,81,71,38,,,,12,19,22,24,0.8,0.9
2026-01-09T0400,2524A,105.8211,32.4444,广元市,老城,细颗粒物(PM2.5),64,58,60,46,45,14,,,,52,53,3,8,0.7,0.9
2026-01-09T0400,2526A,105.8629,32.429,广元市,监测站,细颗粒物(PM2.5),74,62,67,54,48,33,,,,24,37,2,6,0.8,1
2026-01-09T0400,3617A,105.8047,32.4167,广元市,经开区,细颗粒物(PM2.5),82,79,71,60,50,0,,,,57,41,6,5,1.2,1
2026-01-09T0400,1345A,113.2346,23.1423,广州市,广雅中学,,41,41,41,24,24,54,,,,37,42,5,6,0.4,0.5
2026-01-09T0400,1346A,113.2611,23.105,广州市,市五中,,33,33,37,23,23,82,,,,25,36,11,11,/,/
2026-01-09T0400,1348A,113.3477,23.0916,广州市,广东商学院,,35,35,31,21,20,68,,,,23,24,6,7,0.1,0.1
2026-01-09T0400,1349A,113.4332,23.105,广州市,市八十六中,,35,30,28,24,18,57,,,,39,34,8,8,/,/
2026-01-09T0400,1350A,113.3506,22.9488,广州市,番禺中学,,35,35,34,23,20,60,,,,43,37,2,3,0.3,0.3
2026-01-09T0400,1351A,113.2147,23.3918,广州市,花都师范,,29,28,32,17,19,91,,,,12,19,7,9,0.4,0.5
2026-01-09T0400,1352A,113.2599,23.1329,广州市,市监测站,,45,32,37,31,29,73,,,,29,42,5,4,/,/
2026-01-09T0400,1353A,113.5618,23.3119,广州市,九龙镇镇龙,,33,33,30,18,18,52,,,,26,22,6,6,0.4,0.4
2026-01-09T0400,1354A,113.2764,23.1544,广州市,麓湖,,32,31,32,22,22,67,,,,22,30,12,11,0.3,0.4
2026-01-09T0400,2846A,113.3209,23.1323,广州市,体育西,,33,33,37,21,22,69,,,,16,23,8,8,0.4,0.4
2026-01-09T0400,3298A,113.5718,23.5493,广州市,从化街口,,40,38,32,28,23,37,,,,43,34,11,10,0.3,0.4
2026-01-09T0400,3299A,113.3463,23.369,广州市,白云竹料,,37,37,36,24,22,38,,,,45,26,7,7,0.4,0.4
2026-01-09T0400,3300A,113.2981,23.2365,广州市,白云嘉禾,,40,40,48,21,23,70,,,,30,47,8,7,/,/
2026-01-09T0400,3301A,113.4256,23.1716,广州市,黄埔科学城,,30,30,28,18,17,81,,,,17,20,5,6,0.5,0.5
2026-01-09T0400,3302A,113.3942,23.0485,广州市,番禺大学城,,31,31,28,18,17,49,,,,49,35,9,9,0.3,0.3
2026-01-09T0400,3303A,113.4923,22.8169,广州市,南沙黄阁,,41,41,42,22,20,46,,,,50,46,13,11,/,/
2026-01-09T0400,3304A,113.534,22.7893,广州市,南沙街,,34,34,39,23,19,56,,,,29,32,7,7,0.5,0.4
2026-01-09T0400,3443A,113.2905,23.5541,广州市,花都梯面,,27,26,25,17,16,84,,,,13,13,9,10,/,/
2026-01-09T0400,3445A,113.786,23.7479,广州市,从化良口,,22,13,19,8,14,70,,,,8,8,8,8,/,/
2026-01-09T0400,3446A,113.805,23.2614,广州市,增城荔城,,27,24,23,17,16,85,,,,9,15,9,8,0.4,0.4
2026-01-09T0400,2506A,109.604387,23.066791,贵港市,江南子站,细颗粒物(PM2.5),156,197,106,119,64,6,,,,66,42,9,8,1.2,0.9
2026-01-09T0400,2508A,109.5669,23.1065,贵港市,荷城子站,细颗粒物(PM2.5),77,83,59,56,42,19,,,,50,32,6,7,1.0,0.6
2026-01-09T0400,3405A,109.5886,23.1172,贵港市,新世纪学校,细颗粒物(PM2.5),67,73,62,48,43,27,,,,46,24,/,/,0.5,0.5
2026-01-09T0400,4260A,109.5933,23.095,贵港市,中山路155-3号,细颗粒物(PM2.5),99,,65,74,52,10,,,,62,30,/,/,1.0,0.7
2026-01-09T0400,1439A,106.6863,26.6035,贵阳市,马鞍山,细颗粒物(PM2.5),64,58,50,46,42,12,,,,35,23,9,9,/,/
2026-01-09T0400,1441A,106.6241,26.6266,贵阳市,鉴湖路,颗粒物(PM10),57,63,56,36,32,38,,,,25,23,12,10,0.8,0.6
2026-01-09T0400,1442A,106.7468,26.6344,贵阳市,燕子冲,细颗粒物(PM2.5),73,63,56,53,50,5,,,,50,24,17,11,0.9,0.7
2026-01-09T0400,1443A,106.6556,26.4362,贵阳市,碧云窝,细颗粒物(PM2.5),92,80,66,68,44,11,,,,35,20,15,12,/,/
2026-01-09T0400,1445A,106.6963,26.6063,贵阳市,红边门,细颗粒物(PM2.5),73,61,64,53,50,26,,,,39,38,27,33,/,/
2026-01-09T0400,1446A,106.7162383,26.56964667,贵阳市,新华路,细颗粒物(PM2.5),70,63,68,51,44,24,,,,38,38,15,16,0.8,0.7
2026-01-09T0400,1447A,106.6742,26.542,贵阳市,太慈桥,细颗粒物(PM2.5),64,58,49,46,36,30,,,,34,30,6,6,/,/
2026-01-09T0400,4230A,106.688212,26.56952,贵阳市,花果园大街66号,"颗粒物(PM10),细颗粒物(PM2.5)",53,56,52,37,32,20,,,,47,36,22,14,/,/
2026-01-09T0400,4231A,106.687268,26.516892,贵阳市,漓江路57号,细颗粒物(PM2.5),79,68,55,58,41,2,,,,66,32,28,17,1.2,0.8
2026-01-09T0400,1864A,110.3091,25.2705,桂林市,龙隐路小学,,42,32,41,29,36,63,,,,10,14,7,9,0.2,0.2
2026-01-09T0400,1865A,110.2849361,25.22909545,桂林市,八中,细颗粒物(PM2.5),64,,44,46,37,29,,,,41,24,8,9,0.5,0.4
2026-01-09T0400,3531A,110.296,25.1254,桂林市,旅游学院,细颗粒物(PM2.5),52,51,44,36,34,19,,,,34,24,10,7,0.3,0.4
2026-01-09T0400,4222A,110.1835,25.2444,桂林市,环湖路276号,细颗粒物(PM2.5),55,48,42,39,32,12,,,,54,25,41,20,0.5,0.5
2026-01-09T0400,4301A,110.2803,25.2773,桂林市,信义路13号,,42,29,38,29,30,69,,,,19,18,10,8,0.4,0.4
2026-01-09T0400,2674A,100.2262,34.4854,果洛藏族自治州,玛沁县大武镇,,38,38,36,7,9,48,,,,3,4,17,16,0.3,0.4
2026-01-09T0400,1130A,126.5557,45.8109,哈尔滨市,松北商大,,46,46,42,29,28,24,,,,33,26,9,8,0.6,0.6
2026-01-09T0400,1132A,126.6162,45.719,哈尔滨市,南岗学府路,,45,45,41,29,29,30,,,,24,23,12,10,0.8,0.8
2026-01-09T0400,1133A,126.6894,45.7733,哈尔滨市,太平宏伟公园,,41,41,45,26,29,25,,,,35,25,12,14,0.6,0.6
2026-01-09T0400,1134A,126.6361,45.7672,哈尔滨市,道外承德广场,颗粒物(PM10),66,82,65,30,30,19,,,,44,35,15,16,0.6,0.8
2026-01-09T0400,1136A,126.644,45.7261,哈尔滨市,动力和平路,,40,38,50,28,33,27,,,,31,29,10,11,0.6,0.7
2026-01-09T0400,1137A,126.5933,45.7479,哈尔滨市,道里建国路,,49,49,47,32,34,23,,,,35,29,9,14,0.6,0.8
2026-01-09T0400,1138A,126.6127,45.6119,哈尔滨市,平房东轻厂,,38,38,40,23,31,26,,,,29,19,6,6,0.6,0.6
2026-01-09T0400,1139A,126.5875,45.9827,哈尔滨市,呼兰师专,细颗粒物(PM2.5),57,41,47,40,38,27,,,,26,25,11,12,1.0,0.8
2026-01-09T0400,1140A,126.6299,45.6799,哈尔滨市,省农科院,,41,41,47,26,32,26,,,,36,36,10,11,0.4,0.4
2026-01-09T0400,4282A,126.6769,45.7379,哈尔滨市,华山路1号,颗粒物(PM10),51,51,45,27,31,16,,,,44,30,17,19,0.7,0.6
2026-01-09T0400,4283A,126.9717,45.5356,哈尔滨市,解放大街52号,,34,34,37,21,31,45,,,,18,13,11,11,0.7,0.7
2026-01-09T0400,2688A,93.5124,42.8176,哈密市,地区监测站,细颗粒物(PM2.5),77,99,89,56,47,15,,,,26,16,3,2,0.6,0.4
2026-01-09T0400,2689A,93.5014,42.8312,哈密市,哈密师范学校,颗粒物(PM10),81,111,87,43,33,16,,,,36,22,4,5,1.2,0.5
2026-01-09T0400,2671A,100.9016,36.9464,海北藏族自治州,海晏县西海镇,,27,13,30,12,14,86,,,,1,3,5,7,0.3,0.4
2026-01-09T0400,3867A,102.074,36.5056,海东市,平安区公安局北苑,细颗粒物(PM2.5),60,,51,43,33,29,,,,19,22,10,22,0.9,1.1
2026-01-09T0400,4163A,102.0984,36.5119,海东市,滨河路,细颗粒物(PM2.5),57,50,49,40,34,36,,,,27,37,14,22,0.8,1
2026-01-09T0400,1410A,110.3189,20.0596,海口市,海南大学,,38,38,34,21,20,88,,,,17,12,7,8,0.3,0.2
2026-01-09T0400,1411A,110.2827,20.0051,海口市,秀英海南医院,颗粒物(PM10),57,63,41,37,24,30,,,,47,20,8,9,0.5,0.3
2026-01-09T0400,1412A,110.3391,19.9979,海口市,海南师范大学,颗粒物(PM10),53,56,38,29,22,70,,,,24,18,6,8,0.4,0.4
2026-01-09T0400,1413A,110.3303,20.0359,海口市,龙华路环保局宿舍,,,,34,,20,,,120,,,12,,,,0.4
2026-01-09T0400,3539A,110.5111,19.9737,海口市,桂林洋子站,细颗粒物(PM2.5),52,51,37,36,23,44,,,,41,19,/,/,/,/
2026-01-09T0400,4134A,110.1952,20.0451,海口市,长滨二路9号,颗粒物(PM10),56,61,37,34,25,24,,,,56,15,/,/,/,/
2026-01-09T0400,2673A,100.6158,36.2985,海南藏族自治州,共和县恰卜恰镇,,26,26,41,6,12,57,,,,14,13,12,13,0.4,0.4
2026-01-09T0400,2676A,97.373,37.376,海西蒙古族藏族自治州,德令哈市,,24,19,19,9,13,76,,,,3,7,12,12,0.4,0.5
2026-01-09T0400,1049A,114.492,36.5712,邯郸市,矿院,细颗粒物(PM2.5),85,70,75,63,60,8,,,,48,35,5,5,0.7,0.7
2026-01-09T0400,1050A,114.4839,36.6136,邯郸市,丛台公园,细颗粒物(PM2.5),62,56,68,44,47,25,,,,34,35,7,8,0.6,0.7
2026-01-09T0400,3458A,114.7893,36.5592,邯郸市,香泉濮院小区,细颗粒物(PM2.5),72,82,84,52,55,34,,,,27,29,4,7,0.5,0.7
2026-01-09T0400,3580A,114.1998,36.4439,邯郸市,峰峰矿区临水派出所,,28,28,50,17,36,70,,,,7,16,8,11,0.5,0.7
2026-01-09T0400,4068A,114.5209,36.7697,邯郸市,建安街268号,细颗粒物(PM2.5),64,70,77,46,45,4,,,,57,40,10,9,0.7,0.7
2026-01-09T0400,4069A,114.5488,36.6177,邯郸市,丛台东路558号,细颗粒物(PM2.5),83,74,79,61,51,17,,,,35,41,8,8,0.6,0.7
2026-01-09T0400,2635A,107.0155,33.0707,汉中市,市监测站,细颗粒物(PM2.5),122,,83,92,78,10,,,,44,39,6,6,1.3,1.1
2026-01-09T0400,2636A,107.0083,33.114,汉中市,鑫源开发区,细颗粒物(PM2.5),88,69,74,65,68,41,,,,51,42,11,8,1.0,0.8
2026-01-09T0400,2637A,107.0072,33.0323,汉中市,南郑大河坎水厂,细颗粒物(PM2.5),107,94,89,80,72,14,,,,31,30,6,7,1.0,1
2026-01-09T0400,1223A,120.2073,30.2111,杭州市,滨江,细颗粒物(PM2.5),87,98,83,64,51,0,,,,66,48,6,8,0.7,0.7
2026-01-09T0400,1224A,120.0625,30.2737,杭州市,西溪,细颗粒物(PM2.5),69,78,64,50,43,0,,,,51,39,8,10,0.9,0.9
2026-01-09T0400,1226A,120.3417,30.315,杭州市,下沙,细颗粒物(PM2.5),94,107,76,70,51,1,,,,86,61,9,11,1.0,0.7
2026-01-09T0400,1227A,120.1252,30.2465,杭州市,卧龙桥,,,,59,,39,,,84,,,27,,10,,0.5
2026-01-09T0400,1228A,120.1902,30.2691,杭州市,浙江农大,细颗粒物(PM2.5),100,111,91,75,57,3,,,,67,53,6,8,0.6,0.6
2026-01-09T0400,1230A,120.1195,30.3121,杭州市,和睦小学,细颗粒物(PM2.5),89,103,81,66,50,2,,,,63,47,5,7,0.9,0.7
2026-01-09T0400,1231A,120.3076,30.4146,杭州市,临平镇,细颗粒物(PM2.5),103,112,88,77,54,1,,,,74,40,8,10,0.8,0.6
2026-01-09T0400,1232A,120.2753,30.1839,杭州市,城厢镇,细颗粒物(PM2.5),82,92,72,60,43,1,,,,68,50,8,9,0.6,0.6
2026-01-09T0400,1233A,120.0883,30.1808,杭州市,云栖,细颗粒物(PM2.5),77,80,59,56,38,17,,,,30,27,3,5,0.6,0.5
2026-01-09T0400,3557A,119.9463,30.0496,杭州市,镇二中,细颗粒物(PM2.5),80,73,60,59,47,4,,,,51,44,5,6,0.7,0.7
2026-01-09T0400,3558A,119.7184,30.2367,杭州市,市府大楼,细颗粒物(PM2.5),79,90,73,58,46,15,,,,33,27,10,11,0.8,0.7
2026-01-09T0400,3656A,120.1554,30.2863,杭州市,消防大队,细颗粒物(PM2.5),98,95,70,73,51,4,,,,67,43,6,8,0.6,0.5
2026-01-09T0400,1270A,117.1957,31.7845,合肥市,明珠广场,颗粒物(PM10),64,78,86,44,47,23,,,,65,77,7,8,0.7,0.9
2026-01-09T0400,1271A,117.307,31.8765,合肥市,三里街,细颗粒物(PM2.5),73,90,90,53,49,0,,,,91,74,7,8,0.9,0.9
2026-01-09T0400,1272A,117.2587,31.8703,合肥市,琥珀山庄,细颗粒物(PM2.5),72,75,84,52,51,34,,,,55,66,9,9,0.8,1.1
2026-01-09T0400,1275A,117.2593,31.9376,合肥市,庐阳区,颗粒物(PM10),64,78,88,41,44,56,,,,47,61,8,8,0.8,0.8
2026-01-09T0400,1276A,117.345251,31.861615,合肥市,瑶海区,颗粒物(PM10),67,83,88,44,49,19,,,,74,79,5,7,0.5,0.6
2026-01-09T0400,1277A,117.3033,31.7967,合肥市,包河区,细颗粒物(PM2.5),70,73,88,51,52,9,,,,86,85,8,10,0.7,0.9
2026-01-09T0400,1278A,117.278,31.7392,合肥市,滨湖新区,细颗粒物(PM2.5),77,80,85,56,55,4,,,,89,65,6,6,0.9,1
2026-01-09T0400,1279A,117.1324,31.8395,合肥市,高新区,颗粒物(PM10),60,70,76,36,41,47,,,,45,57,6,6,0.4,0.6
2026-01-09T0400,3464A,117.3802,31.9148,合肥市,高教基地,细颗粒物(PM2.5),72,78,83,52,52,23,,,,56,54,8,8,0.6,0.7
2026-01-09T0400,4098A,117.2518,31.8404,合肥市,中国科学技术大学,细颗粒物(PM2.5),67,75,77,48,42,48,,,,44,56,10,10,0.5,0.7
2026-01-09T0400,3614A,79.9241,37.0878,和田地区,地区环保局,颗粒物(PM10),68,85,107,46,57,40,,,,26,41,3,9,0.4,0.9
2026-01-09T0400,3615A,79.9132,37.1137,和田地区,市环保局,细颗粒物(PM2.5),123,120,100,93,49,14,,,,56,50,3,5,2.4,1.6
2026-01-09T0400,2517A,108.0496,24.6957,河池市,市环保站,,42,40,41,29,28,11,,,,33,23,2,3,0.6,0.6
2026-01-09T0400,4302A,108.0901,24.6945,河池市,上任中路54号,,50,44,50,35,36,2,,,,40,31,4,5,0.7,0.7
2026-01-09T0400,1697A,114.6962,23.7538,河源市,东埔,,32,27,23,22,19,67,,,,22,17,8,8,0.4,0.4
2026-01-09T0400,1698A,114.6895,23.7232,河源市,老城,,31,31,30,10,15,29,,,,36,17,6,7,0.7,0.7
2026-01-09T0400,3374A,115.5562,35.089,菏泽市,定陶老年大学,颗粒物(PM10),68,85,83,46,46,53,,,,18,27,3,6,0.3,0.5
2026-01-09T0400,4114A,115.4239,35.2593,菏泽市,黄河路600号,颗粒物(PM10),72,93,96,51,56,50,,,,21,33,3,5,0.4,0.6
2026-01-09T0400,4115A,115.5025,35.2727,菏泽市,菏泽市人社局,颗粒物(PM10),68,86,84,45,46,53,,,,20,28,3,6,0.4,0.5
2026-01-09T0400,4184A,115.479691,35.244011,菏泽市,永昌路1号,细颗粒物(PM2.5),73,90,88,53,51,49,,,,23,30,5,9,0.4,0.5
2026-01-09T0400,4193A,115.471542,35.280012,菏泽市,长城路999号,颗粒物(PM10),67,83,88,36,43,57,,,,18,28,7,8,0.5,0.6
2026-01-09T0400,2514A,111.5264,24.4178,贺州市,环保小区,,48,,46,33,40,26,,,,26,21,5,7,0.4,0.4
2026-01-09T0400,2515A,111.561,24.4074,贺州市,政协大楼,细颗粒物(PM2.5),57,47,42,40,31,1,,,,47,31,10,9,0.7,0.7
2026-01-09T0400,3534A,111.4744,24.455,贺州市,西湾,细颗粒物(PM2.5),57,58,56,40,34,23,,,,32,29,7,8,0.5,0.6
2026-01-09T0400,2385A,114.17,35.9019,鹤壁市,市监测站,,47,47,70,21,39,32,,,,19,25,3,6,0.7,0.7
2026-01-09T0400,2386A,114.2953,35.7512,鹤壁市,市交警支队,颗粒物(PM10),60,69,80,42,39,4,,,,56,33,2,5,0.6,0.6
2026-01-09T0400,2387A,114.2877,35.7302,鹤壁市,迎宾馆,颗粒物(PM10),70,89,91,44,41,7,,,,45,30,4,6,0.7,0.7
2026-01-09T0400,3474A,114.2616,35.6824,鹤壁市,大新区,颗粒物(PM10),66,82,88,32,41,16,,,,47,37,8,7,0.7,0.6
2026-01-09T0400,3596A,114.1573,35.9607,鹤壁市,南山宾馆,,47,47,73,26,35,56,,,,15,19,9,8,0.5,0.6
2026-01-09T0400,2244A,130.2537,47.3416,鹤岗市,哈啤分公司,,32,27,37,22,31,52,,,,11,18,6,7,0.5,0.5
2026-01-09T0400,2245A,130.2683,47.3087,鹤岗市,斯达机电,,33,24,33,23,24,54,,,,10,16,6,8,0.4,0.5
2026-01-09T0400,2246A,130.3114,47.3388,鹤岗市,东山纸板厂,,40,30,34,28,28,55,,,,12,25,10,12,0.4,0.9
2026-01-09T0400,2263A,127.4832,50.2524,黑河市,交通局,,42,37,29,29,21,36,,,,16,23,10,10,0.6,0.5
2026-01-09T0400,2264A,127.5146,50.2339,黑河市,环保局,,33,,24,23,21,36,,,,20,24,8,10,0.6,0.6
2026-01-09T0400,1074A,115.6839,37.754,衡水市,电机北厂,颗粒物(PM10),77,104,84,55,41,34,,,,23,26,8,8,0.5,0.5
2026-01-09T0400,1075A,115.6303,37.7318,衡水市,市监测站,细颗粒物(PM2.5),75,96,79,55,44,31,,,,28,36,6,10,0.5,0.6
2026-01-09T0400,3188A,115.6684,37.7216,衡水市,市城管局,细颗粒物(PM2.5),82,93,91,60,46,30,,,,33,40,7,9,0.6,0.6
2026-01-09T0400,3459A,115.599,37.5491,衡水市,地表水厂,细颗粒物(PM2.5),77,84,81,56,51,23,,,,33,37,6,9,0.5,0.6
2026-01-09T0400,2457A,112.6209,26.9268,衡阳市,衡阳化工总厂,,,45,60,37,43,5,,,,,34,8,9,0.8,0.8
2026-01-09T0400,2458A,112.621,26.8957,衡阳市,珠晖区环保局,细颗粒物(PM2.5),65,61,59,47,48,2,,,,62,46,5,6,1.1,1
2026-01-09T0400,2459A,112.628,26.8654,衡阳市,市委党校,细颗粒物(PM2.5),79,64,60,58,48,1,,,,52,34,10,11,1.0,0.9
2026-01-09T0400,2460A,112.6007,26.8977,衡阳市,市监测站,细颗粒物(PM2.5),74,80,84,54,53,2,,,,46,43,8,8,1.2,1.2
2026-01-09T0400,2461A,112.5658,26.9013,衡阳市,真空机电公司,细颗粒物(PM2.5),72,88,66,52,43,0,,,,50,38,6,12,1.1,1
2026-01-09T0400,3399A,112.6703,26.8817,衡阳市,师范学院,细颗粒物(PM2.5),64,59,62,46,41,10,,,,46,35,3,5,0.9,0.8
2026-01-09T0400,3038A,103.3757,23.3679,红河哈尼族彝族自治州,州图书馆,,22,19,27,15,22,47,,,,4,8,6,7,0.5,0.6
2026-01-09T0400,4154A,103.401,23.3561,红河哈尼族彝族自治州,蒙自市朝阳路,,20,17,23,14,18,42,,,,2,6,4,4,0.4,0.5
2026-01-09T0400,1090A,111.6506,40.7517,呼和浩特市,呼市一监,颗粒物(PM10),64,78,94,44,49,0,,,,52,45,3,4,1.1,1.1
2026-01-09T0400,1094A,111.7516,40.8369,呼和浩特市,如意水处理厂,颗粒物(PM10),65,80,86,40,44,0,,,,66,55,10,11,0.5,0.6
2026-01-09T0400,1095A,111.727798,40.806187,呼和浩特市,二十九中,颗粒物(PM10),67,83,93,40,45,3,,,,52,47,12,13,0.6,0.7
2026-01-09T0400,1097A,111.717,40.7617,呼和浩特市,化肥厂生活区,颗粒物(PM10),67,84,98,42,51,2,,,,56,49,7,7,1.0,1
2026-01-09T0400,3699A,111.6519,40.8389,呼和浩特市,海东办,颗粒物(PM10),67,83,92,44,45,4,,,,52,45,5,6,1.0,0.8
2026-01-09T0400,4275A,111.591512,40.827312,呼和浩特市,成吉思汗西街8号,颗粒物(PM10),68,85,88,43,42,6,,,,49,43,7,6,0.9,0.8
2026-01-09T0400,4276A,111.6597,40.8077,呼和浩特市,公园东路75号,颗粒物(PM10),67,83,99,44,51,8,,,,59,52,7,8,0.8,0.7
2026-01-09T0400,4277A,111.5427,40.7846,呼和浩特市,金海路35号,颗粒物(PM10),68,85,95,43,46,0,,,,53,46,8,9,1.0,1
2026-01-09T0400,3061A,119.7511,49.1576,呼伦贝尔市,国华电力东,,30,30,22,20,17,54,,,,19,24,5,6,0.3,0.4
2026-01-09T0400,4279A,119.7569,49.2222,呼伦贝尔市,伊敏大街东7号,,25,,27,17,20,32,,,,25,21,6,8,0.5,0.5
2026-01-09T0400,1250A,120.075,30.867,湖州市,城西水厂,细颗粒物(PM2.5),85,100,95,63,55,14,,,,66,50,10,13,0.6,0.6
2026-01-09T0400,2873A,120.083,30.8929,湖州市,仁皇山新区,细颗粒物(PM2.5),103,102,99,77,69,9,,,,79,61,11,15,0.6,0.7
2026-01-09T0400,2907A,120.1846,30.8592,湖州市,吴兴区站,细颗粒物(PM2.5),110,115,90,83,68,4,,,,76,49,12,11,0.8,0.8
2026-01-09T0400,3562A,120.4146,30.8538,湖州市,南浔区站,细颗粒物(PM2.5),123,127,95,93,69,0,,,,113,52,8,11,0.9,0.9
2026-01-09T0400,1607A,120.904878,40.721091,葫芦岛市,龙港区,,,96,73,43,35,14,,,,60,40,,19,0.9,0.9
2026-01-09T0400,1608A,120.8382,40.7521,葫芦岛市,化工街,颗粒物(PM10),76,102,90,48,45,10,,,,64,48,32,38,0.8,0.8
2026-01-09T0400,1609A,120.8339,40.7078,葫芦岛市,新区,颗粒物(PM10),67,84,59,42,32,9,,,,66,52,11,15,1.0,0.9
2026-01-09T0400,1610A,120.8697,40.7679,葫芦岛市,东城区,细颗粒物(PM2.5),74,91,66,54,38,7,,,,68,48,16,20,1.2,1
2026-01-09T0400,2483A,109.9297,27.5383,怀化市,河西地税局,细颗粒物(PM2.5),59,43,55,42,47,6,,,,17,22,2,4,/,/
2026-01-09T0400,2484A,109.9783,27.5342,怀化市,市四医院,,,71,67,50,47,,,,,41,30,9,10,,0.7
2026-01-09T0400,2485A,109.9971,27.5579,怀化市,监测楼,细颗粒物(PM2.5),80,64,66,59,54,2,,,,29,31,1,4,0.3,0.3
2026-01-09T0400,1210A,119.0566,33.5991,淮安市,钵池山,细颗粒物(PM2.5),72,73,64,52,47,50,,,,27,31,14,11,0.4,0.4
2026-01-09T0400,1211A,119.0083,33.578,淮安市,北京南路,细颗粒物(PM2.5),79,90,67,58,44,36,,,,30,34,12,12,0.6,0.6
2026-01-09T0400,1212A,118.9938,33.6083,淮安市,市监测站,,,78,57,61,40,63,,,,38,33,16,15,,0.9
2026-01-09T0400,1213A,119.135,33.5038,淮安市,楚州区监测站,细颗粒物(PM2.5),77,76,70,56,43,25,,,,43,44,9,11,0.8,0.7
2026-01-09T0400,3426A,118.8757,33.2897,淮安市,新华书店,细颗粒物(PM2.5),90,94,76,67,51,21,,,,49,36,10,14,1.0,1.1
2026-01-09T0400,4092A,119.119691,33.550006,淮安市,枚皋中路89号,细颗粒物(PM2.5),87,76,71,64,49,52,,,,26,35,11,11,0.7,0.7
2026-01-09T0400,4206A,119.028838,33.631911,淮安市,承德北路606号,细颗粒物(PM2.5),72,88,69,52,43,47,,,,29,32,14,13,0.6,0.6
2026-01-09T0400,2282A,116.8005,33.9749,淮北市,监测站,细颗粒物(PM2.5),89,112,91,66,55,51,,,,33,40,11,13,0.8,0.9
2026-01-09T0400,2283A,116.8094,33.9008,淮北市,烈山区政府,细颗粒物(PM2.5),97,126,99,72,61,34,,,,41,37,13,13,0.5,0.6
2026-01-09T0400,4017A,116.7926,33.9534,淮北市,市博物馆,细颗粒物(PM2.5),97,109,92,72,61,51,,,,34,37,6,9,0.6,0.7
2026-01-09T0400,4100A,116.8322,33.9884,淮北市,杜集区第一实验学校,细颗粒物(PM2.5),95,104,91,71,55,46,,,,26,34,10,12,0.7,0.6
2026-01-09T0400,2277A,116.8304,32.7726,淮南市,潘集区政府,颗粒物(PM10),68,85,104,48,68,59,,,,23,37,8,10,0.6,0.7
2026-01-09T0400,2279A,116.8569,32.5949,淮南市,谢家集区政府,颗粒物(PM10),69,88,96,41,45,35,,,,39,36,8,13,0.5,0.5
2026-01-09T0400,2280A,116.8279,32.6333,淮南市,八公山区政府,细颗粒物(PM2.5),65,72,76,47,44,51,,,,24,28,5,9,0.5,0.5
2026-01-09T0400,2894A,117.0561,32.6536,淮南市,经济技术开发区消防队,"颗粒物(PM10),细颗粒物(PM2.5)",64,78,118,46,59,69,,,,20,42,7,10,0.5,0.6
2026-01-09T0400,3329A,117.011,32.5891,淮南市,山南新区,颗粒物(PM10),70,90,97,44,49,65,,,,23,33,4,6,0.5,0.6
2026-01-09T0400,4209A,117.003137,32.644456,淮南市,国庆中路369号,颗粒物(PM10),55,59,81,38,58,62,,,,20,42,8,11,0.6,0.8
2026-01-09T0400,2446A,114.9021,30.474,黄冈市,职工中心,细颗粒物(PM2.5),58,61,48,41,29,30,,,,30,30,7,7,0.7,0.6
2026-01-09T0400,2929A,114.8858,30.4519,黄冈市,红卫路,细颗粒物(PM2.5),67,60,50,48,33,15,,,,40,39,8,7,0.5,0.6
2026-01-09T0400,3398A,114.9134,30.4446,黄冈市,市林业局,,,,50,,27,,,92,,,28,,5,,0.5
2026-01-09T0400,2672A,102.02,35.5101,黄南藏族自治州,同仁县隆务镇,,29,29,32,7,14,60,,,,2,7,9,12,0.2,0.4
2026-01-09T0400,2295A,118.2905,29.6965,黄山市,延安路89号,,23,23,35,6,26,22,,,,14,17,3,4,0.4,0.4
2026-01-09T0400,2297A,118.1369,30.2755,黄山市,黄山区政府5号楼,,49,35,42,34,27,18,,,,12,12,2,3,0.4,0.3
2026-01-09T0400,4210A,118.335445,29.720283,黄山市,滨江东路7-2号,,41,41,52,28,34,19,,,,15,17,/,/,/,/
2026-01-09T0400,2423A,115.0547,30.2332,黄石市,沈家营,颗粒物(PM10),63,75,63,42,34,0,,,,60,43,5,6,1.2,1.2
2026-01-09T0400,2426A,114.899,30.211,黄石市,铁山,细颗粒物(PM2.5),53,54,64,37,39,32,,,,40,35,10,8,0.5,0.6
2026-01-09T0400,2427A,115.0259,30.2108,黄石市,团城山,颗粒物(PM10),62,74,65,34,34,2,,,,66,43,7,6,0.7,0.6
2026-01-09T0400,3149A,115.0174,30.1591,黄石市,笔架山北路,颗粒物(PM10),70,89,88,45,42,34,,,,27,29,7,7,1.2,1.1
2026-01-09T0400,4185A,115.078022,30.21118,黄石市,磁湖东路29号,细颗粒物(PM2.5),60,63,61,43,40,0,,,,54,44,6,7,1.0,1
2026-01-09T0400,1392A,114.4181,23.0528,惠州市,河南岸金山湖子站,,31,31,31,18,17,76,,,,21,21,8,7,0.5,0.5
2026-01-09T0400,1393A,114.4055,23.0824,惠州市,下埔横江三路子站,,36,36,29,22,17,78,,,,13,14,12,9,0.2,0.3
2026-01-09T0400,1395A,114.4645,22.7832,惠州市,惠阳区承修路船湖子站,,26,26,31,17,19,67,,,,18,24,7,7,0.3,0.4
2026-01-09T0400,1396A,114.5316,22.7423,惠州市,大亚湾管委会子站,,31,31,30,18,18,74,,,,12,13,7,7,0.2,0.2
2026-01-09T0400,3314A,114.4334,22.8134,惠州市,惠阳秋长,,36,36,38,22,19,74,,,,19,21,/,/,/,/
2026-01-09T0400,3452A,114.6521,22.7755,惠州市,大亚湾霞涌,,,27,31,15,16,,,,,13,14,/,/,/,/
2026-01-09T0400,4300A,114.4089,23.1147,惠州市,文华一路1号,,31,31,29,20,18,84,,,,14,14,/,/,/,/
2026-01-09T0400,2240A,130.9618,45.2926,鸡西市,环保局,,41,41,18,24,12,22,,,,26,11,8,7,0.6,0.4
2026-01-09T0400,2243A,130.9294,45.2959,鸡西市,第一中学,,29,21,15,20,12,60,,,,5,5,4,4,0.6,0.6
2026-01-09T0400,3707A,131.0069,45.2988,鸡西市,欧美日汽修厂,颗粒物(PM10),60,69,42,39,22,24,,,,24,18,14,12,0.4,0.5
2026-01-09T0400,2367A,114.9753,27.0803,吉安市,红声器材厂,颗粒物(PM10),55,60,54,27,30,22,,,,37,32,9,10,0.6,0.6
2026-01-09T0400,2369A,114.9903,27.1313,吉安市,市环境监测站,细颗粒物(PM2.5),52,51,51,36,32,21,,,,35,30,8,12,/,/
2026-01-09T0400,2370A,115.009527,27.096792,吉安市,青原区法院,颗粒物(PM10),52,54,55,35,33,6,,,,49,38,9,11,0.6,0.6
2026-01-09T0400,1772A,126.54,43.8622,吉林市,哈达湾,,29,29,37,20,25,66,,,,10,18,8,8,1.1,1.1
2026-01-09T0400,1773A,126.5843,43.8358,吉林市,东局子,,32,28,29,22,24,55,,,,12,17,6,5,0.7,0.9
2026-01-09T0400,1774A,126.5051,43.8243,吉林市,电力学院,,30,26,36,21,27,59,,,,10,20,11,12,0.6,0.8
2026-01-09T0400,1775A,126.6133,43.8971,吉林市,江北,,41,41,42,21,26,51,,,,15,16,8,7,0.8,1.1
2026-01-09T0400,1776A,126.5549,43.8304,吉林市,江南公园,,36,36,37,24,29,63,,,,10,19,8,8,0.5,0.7
2026-01-09T0400,2868A,126.4737,43.953,吉林市,九站,,34,34,36,20,26,54,,,,18,22,8,11,0.6,0.6
2026-01-09T0400,1299A,116.9866,36.6118,济南市,科干所,颗粒物(PM10),69,88,66,32,26,74,,,,16,26,8,10,0.7,0.8
2026-01-09T0400,1300A,116.9379,36.6652,济南市,农科所,颗粒物(PM10),75,100,68,44,27,67,,,,18,28,6,7,0.6,0.7
2026-01-09T0400,1301A,117.1265,36.6736,济南市,开发区,颗粒物(PM10),64,78,57,39,28,77,,,,17,30,6,6,0.7,0.7
2026-01-09T0400,1303A,117.0616,36.6865,济南市,省种子仓库,颗粒物(PM10),70,90,70,39,27,79,,,,16,30,6,6,0.6,0.7
2026-01-09T0400,1304A,116.9495185,36.644937,济南市,机床二厂,颗粒物(PM10),80,110,88,51,33,68,,,,23,33,8,15,0.8,0.9
2026-01-09T0400,1305A,117.0496,36.6629,济南市,市监测站,颗粒物(PM10),68,85,60,34,24,77,,,,9,22,6,6,0.5,0.6
2026-01-09T0400,1306A,116.7674,36.5458,济南市,长清党校,颗粒物(PM10),73,95,59,49,28,62,,,,20,28,10,8,0.8,0.7
2026-01-09T0400,1961A,117.5323,36.6865,济南市,东山小学,颗粒物(PM10),75,100,60,44,26,72,,,,20,24,7,5,0.9,0.8
2026-01-09T0400,3059A,117.7181,36.205,济南市,泰兴公司,细颗粒物(PM2.5),83,88,71,61,45,50,,,,34,37,8,9,0.7,0.8
2026-01-09T0400,3064A,117.6861,36.2172,济南市,莱芜战役纪念馆,细颗粒物(PM2.5),84,85,67,62,44,64,,,,25,35,10,11,0.4,0.6
2026-01-09T0400,3494A,117.1673,36.9782,济南市,济阳区政府,颗粒物(PM10),73,95,81,44,30,66,,,,21,38,9,10,0.5,0.5
2026-01-09T0400,3495A,117.1168,36.6299,济南市,锦屏中学,颗粒物(PM10),62,73,51,34,22,78,,,,16,20,4,4,0.6,0.6
2026-01-09T0400,4108A,117.7107,36.2385,济南市,山财大街5号,细颗粒物(PM2.5),73,83,67,53,32,69,,,,31,31,13,13,0.9,0.8
2026-01-09T0400,4109A,116.9744,36.6889,济南市,无影山路12号,颗粒物(PM10),76,102,72,49,29,70,,,,14,26,8,10,0.0,0.1
2026-01-09T0400,1653A,116.6229,35.4288,济宁市,火炬城,细颗粒物(PM2.5),89,91,69,66,50,63,,,,16,31,4,7,0.4,0.5
2026-01-09T0400,3500A,116.5808,35.3703,济宁市,北湖一中,细颗粒物(PM2.5),89,93,67,66,51,55,,,,22,32,7,10,0.5,0.6
2026-01-09T0400,3501A,116.8251,35.5592,济宁市,服务中心,颗粒物(PM10),78,106,79,56,41,39,,,,39,48,12,14,0.8,0.8
2026-01-09T0400,3678A,116.5907,35.4054,济宁市,市第七中学,细颗粒物(PM2.5),79,86,72,58,40,64,,,,18,30,8,11,0.5,0.7
2026-01-09T0400,4111A,116.6075,35.4566,济宁市,任和路,"颗粒物(PM10),细颗粒物(PM2.5)",77,104,80,56,41,63,,,,19,33,8,9,0.5,0.6
2026-01-09T0400,4112A,116.5648,35.3921,济宁市,文体南路1号,细颗粒物(PM2.5),93,112,80,69,46,54,,,,23,33,5,11,0.5,0.7
2026-01-09T0400,2255A,130.2749,46.8028,佳木斯市,佳纺,,18,15,24,10,17,56,,,,3,10,6,8,0.4,0.4
2026-01-09T0400,2257A,130.3258,46.7975,佳木斯市,环保局,,20,13,20,8,17,61,,,,4,12,7,8,0.3,0.5
2026-01-09T0400,4285A,130.363,46.806,佳木斯市,顺和街,,17,17,19,8,14,43,,,,16,15,9,10,0.3,0.4
2026-01-09T0400,4286A,130.3952,46.8268,佳木斯市,长安路196号,,15,14,21,10,15,46,,,,15,15,5,7,0.3,0.4
2026-01-09T0400,1252A,120.7439,30.778,嘉兴市,清河小学,细颗粒物(PM2.5),140,144,110,107,77,1,,,,88,53,7,9,1.2,1
2026-01-09T0400,1253A,120.7261,30.7477,嘉兴市,嘉兴学院,细颗粒物(PM2.5),125,138,102,95,68,0,,,,93,55,10,10,0.8,0.9
2026-01-09T0400,2872A,120.7845,30.7524,嘉兴市,南湖区残联,细颗粒物(PM2.5),137,149,100,104,70,3,,,,97,55,7,8,1.1,0.9
2026-01-09T0400,3407A,120.6915,30.7741,嘉兴市,秀洲住建,细颗粒物(PM2.5),139,144,110,106,77,1,,,,78,55,8,9,1.1,0.8
2026-01-09T0400,1945A,98.291,39.7705,嘉峪关市,气象局,颗粒物(PM10),75,100,74,29,27,64,,,,15,17,13,22,0.5,0.6
2026-01-09T0400,2884A,98.2672,39.7978,嘉峪关市,酒钢宾馆,颗粒物(PM10),90,129,85,36,29,44,,,,23,16,36,25,1.3,0.8
2026-01-09T0400,3248A,98.2644,39.7723,嘉峪关市,雄关区,颗粒物(PM10),71,92,58,34,27,14,,,,59,23,16,19,1.0,0.5
2026-01-09T0400,1383A,113.1063,22.6058,江门市,北街,,44,44,39,28,22,38,,,,55,37,/,/,/,/
2026-01-09T0400,1384A,113.073,22.5835,江门市,西区,,50,50,46,28,26,27,,,,55,41,/,/,/,/
2026-01-09T0400,1385A,113.0218,22.531,江门市,圭峰西,,34,34,35,22,22,68,,,,27,29,/,/,/,/
2026-01-09T0400,1386A,113.0826,22.5947,江门市,东湖,,45,45,39,29,23,27,,,,56,38,9,9,0.5,0.5
2026-01-09T0400,3311A,113.1077,22.5647,江门市,江海富民,,34,34,43,13,16,41,,,,52,47,/,/,0.2,0.4
2026-01-09T0400,3449A,113.0496,22.4669,江门市,新会银湖,,48,48,46,29,27,14,,,,68,41,9,8,0.4,0.4
2026-01-09T0400,3335A,113.3137,35.2643,焦作市,马村街道办,颗粒物(PM10),55,59,67,26,34,52,,,,18,23,11,10,0.7,0.6
2026-01-09T0400,3336A,113.2464,35.2374,焦作市,焦作技师学院,颗粒物(PM10),51,51,62,27,29,57,,,,21,28,13,10,0.5,0.4
2026-01-09T0400,3477A,113.1656,35.2536,焦作市,中站许衡医院,,39,39,50,22,27,65,,,,14,16,8,7,0.8,0.5
2026-01-09T0400,3981A,113.2456,35.18,焦作市,原李万街道办,颗粒物(PM10),51,51,78,14,27,43,,,,18,24,9,9,0.5,0.6
2026-01-09T0400,4264A,113.234,35.219,焦作市,新安路1731号,颗粒物(PM10),54,58,67,27,32,59,,,,18,27,7,6,0.6,0.6
2026-01-09T0400,4295A,113.2722,35.2121,焦作市,人民路3066号,颗粒物(PM10),56,62,75,19,27,46,,,,16,22,8,7,0.4,0.5
2026-01-09T0400,1708A,116.3701,23.5345,揭阳市,新兴,细颗粒物(PM2.5),74,81,57,54,34,19,,,,79,41,32,12,0.7,0.6
2026-01-09T0400,1709A,116.3261,23.5442,揭阳市,西马,颗粒物(PM10),68,86,60,39,31,2,,,,56,32,6,6,1.0,0.9
2026-01-09T0400,1710A,116.361,23.5627,揭阳市,东兴,颗粒物(PM10),67,84,61,44,30,5,,,,69,36,12,12,/,/
2026-01-09T0400,1711A,116.4151,23.5295,揭阳市,渔湖,细颗粒物(PM2.5),87,105,63,64,35,1,,,,97,45,30,9,/,/
2026-01-09T0400,3320A,116.4028,23.5699,揭阳市,曲溪,细颗粒物(PM2.5),63,69,62,45,36,41,,,,33,35,10,10,0.5,0.5
2026-01-09T0400,1944A,102.1691,38.5166,金昌市,天庆家园,颗粒物(PM10),59,68,58,24,23,24,,,,34,25,52,21,1.2,0.9
2026-01-09T0400,4022A,102.1648,38.5369,金昌市,金川区人防中心,,45,45,40,21,20,31,,,,26,19,43,17,0.9,0.8
2026-01-09T0400,4239A,102.193042,38.531887,金昌市,长春路96号,颗粒物(PM10),54,57,48,18,19,57,,,,14,23,24,21,0.7,0.9
2026-01-09T0400,1262A,119.6478,29.0773,金华市,十五中,细颗粒物(PM2.5),67,77,68,48,43,15,,,,55,44,3,5,0.4,0.4
2026-01-09T0400,1263A,119.6859,29.1032,金华市,监测站,细颗粒物(PM2.5),79,91,73,58,45,2,,,,62,53,3,5,0.5,0.4
2026-01-09T0400,3659A,119.656,29.1132,金华市,气象局,细颗粒物(PM2.5),77,82,72,56,45,3,,,,64,54,4,4,0.8,0.8
2026-01-09T0400,1767A,121.1114,41.0879,锦州市,南山,细颗粒物(PM2.5),79,87,65,58,45,19,,,,50,42,23,16,1.1,1
2026-01-09T0400,1768A,121.060361,40.842794,锦州市,开发区,颗粒物(PM10),81,111,93,46,34,4,,,,62,49,15,19,0.9,0.9
2026-01-09T0400,1769A,121.1836,41.1118,锦州市,百股街道,,,78,55,48,30,26,,,,,38,15,18,1.0,1
2026-01-09T0400,1770A,121.1176,41.1224,锦州市,天安街道,细颗粒物(PM2.5),87,102,60,64,35,6,,,,62,37,27,20,1.7,1.1
2026-01-09T0400,1771A,121.1303,41.1385,锦州市,北湖公园,细颗粒物(PM2.5),83,100,60,61,34,29,,,,47,33,35,19,1.4,1.1
2026-01-09T0400,2160A,112.8496,35.5051,晋城市,自来水公司,颗粒物(PM10),52,54,54,25,22,32,,,,33,28,7,6,1.0,0.7
2026-01-09T0400,2162A,112.8509,35.4886,晋城市,市环保局,颗粒物(PM10),51,52,57,22,20,10,,,,56,32,6,5,0.9,0.6
2026-01-09T0400,3620A,112.8258,35.4804,晋城市,泽州一中,,41,41,54,14,17,64,,,,10,16,4,4,0.4,0.3
2026-01-09T0400,4078A,112.8246,35.5152,晋城市,前书院路,,47,47,56,10,15,35,,,,32,21,5,4,0.5,0.4
2026-01-09T0400,4079A,112.8864,35.4773,晋城市,祥云街666号,,48,48,53,18,22,40,,,,34,29,10,6,0.8,0.4
2026-01-09T0400,2174A,112.6992,37.6984,晋中市,榆次区政府,颗粒物(PM10),80,110,98,56,44,10,,,,55,38,32,20,1.3,1
2026-01-09T0400,2865A,112.7195,37.683,晋中市,榆次三中,颗粒物(PM10),80,110,102,46,37,7,,,,55,38,36,20,1.2,1.1
2026-01-09T0400,4080A,112.7375,37.7215,晋中市,广安街188号,"颗粒物(PM10),细颗粒物(PM2.5)",79,108,93,58,41,3,,,,59,36,14,14,1.0,0.7
2026-01-09T0400,4200A,112.7478,37.6954,晋中市,迎宾街26号,颗粒物(PM10),80,110,98,46,41,10,,,,53,37,36,21,1.1,0.9
2026-01-09T0400,2439A,112.2012,31.048,荆门市,竹园小学,细颗粒物(PM2.5),114,100,67,86,47,75,,,,21,27,2,2,0.5,0.3
2026-01-09T0400,2440A,112.1968,30.9892,荆门市,掇刀,,,94,64,70,43,74,,,,21,22,7,6,,0.5
2026-01-09T0400,3012A,112.1849,31.0361,荆门市,西山林语,,,92,59,69,37,66,,,,,22,4,6,0.4,0.3
2026-01-09T0400,3547A,112.1631,31.0134,荆门市,龙泉中学南校,细颗粒物(PM2.5),104,102,65,78,44,66,,,,7,16,10,9,,0.5
2026-01-09T0400,4124A,112.2213,31.0654,荆门市,新台西路6号,细颗粒物(PM2.5),114,97,75,86,58,45,,,,38,28,10,9,1.0,0.5
2026-01-09T0400,1844A,112.2493,30.3198,荆州市,市图书馆,细颗粒物(PM2.5),104,90,65,78,61,46,,,,,31,7,9,0.8,0.8
2026-01-09T0400,1845A,112.2009,30.3543,荆州市,市委党校,细颗粒物(PM2.5),97,87,69,72,61,33,,,,41,38,4,6,0.9,0.8
2026-01-09T0400,3194A,112.2749,30.3124,荆州市,管委会,细颗粒物(PM2.5),104,82,63,78,61,40,,,,,35,8,11,0.8,0.8
2026-01-09T0400,4268A,112.1722,30.3366,荆州市,学苑路85号,细颗粒物(PM2.5),118,,63,89,58,20,,,,45,38,14,16,0.8,0.7
2026-01-09T0400,2343A,117.2114,29.2931,景德镇市,老干部活动中心,细颗粒物(PM2.5),55,52,47,39,37,0,,,,32,24,7,8,0.5,0.5
2026-01-09T0400,2344A,117.1893,29.2789,景德镇市,兽医站,细颗粒物(PM2.5),65,58,50,47,36,3,,,,39,27,7,10,0.9,0.9
2026-01-09T0400,2346A,117.246,29.2958,景德镇市,陶研所,细颗粒物(PM2.5),80,62,45,59,36,1,,,,30,21,4,3,0.4,0.4
2026-01-09T0400,4289A,117.154766,29.256967,景德镇市,青少年活动中心,颗粒物(PM10),59,68,55,34,32,8,,,,39,35,7,19,/,/
2026-01-09T0400,1803A,115.9873,29.6816,九江市,十里,细颗粒物(PM2.5),52,50,57,36,42,9,,,,57,55,4,6,0.8,1
2026-01-09T0400,1804A,115.9583,29.7047,九江市,茅山头,,,40,55,22,32,1,,,,73,55,4,5,,0.9
2026-01-09T0400,1805A,115.9877,29.7295,九江市,西园,,44,44,58,28,37,6,,,,87,67,2,4,0.7,0.8
2026-01-09T0400,1808A,115.9112,29.6038,九江市,综合工业园,,45,,56,31,44,19,,,,53,54,2,5,0.7,0.8
2026-01-09T0400,3190A,116.0254,29.6995,九江市,外国语学校,细颗粒物(PM2.5),54,45,53,38,38,7,,,,73,58,8,10,0.8,0.9
2026-01-09T0400,4253A,116.010205,29.659402,九江市,莲花大道8号,,29,25,52,20,34,65,,,,2,20,2,4,0.3,0.5
2026-01-09T0400,4240A,98.495752,39.733935,酒泉市,玉门东路5号,颗粒物(PM10),82,114,82,41,33,21,,,,24,21,9,13,0.8,0.6
2026-01-09T0400,4241A,98.5099,39.7506,酒泉市,北大街108号,颗粒物(PM10),81,112,78,42,32,10,,,,42,24,9,12,1.0,0.7
2026-01-09T0400,2698A,76.0071,39.466,喀什地区,巡警大队,细颗粒物(PM2.5),152,164,145,116,99,7,,,,49,49,3,5,2.3,2.4
2026-01-09T0400,2699A,75.9756,39.4693,喀什地区,吾办,细颗粒物(PM2.5),190,168,142,143,111,4,,,,59,52,6,6,3.2,2.5
2026-01-09T0400,4027A,75.9485,39.4688,喀什地区,老干局,细颗粒物(PM2.5),147,180,176,112,114,2,,,,52,47,3,5,3.8,3.2
2026-01-09T0400,1824A,114.3389,34.778,开封市,肿瘤医院,颗粒物(PM10),70,90,98,42,53,26,,,,35,35,6,7,0.7,0.7
2026-01-09T0400,1826A,114.2884,34.7966,开封市,世纪星幼儿园,细颗粒物(PM2.5),83,95,92,61,60,27,,,,37,35,4,5,0.6,0.6
2026-01-09T0400,3147A,114.3434,34.8101,开封市,龙亭公园,细颗粒物(PM2.5),73,90,92,53,56,34,,,,43,44,10,10,0.5,0.5
2026-01-09T0400,3210A,114.3645,34.7955,开封市,汴京公园,颗粒物(PM10),87,124,106,51,58,28,,,,37,38,5,7,0.7,0.7
2026-01-09T0400,3473A,114.2485,34.8306,开封市,技师学院,细颗粒物(PM2.5),72,86,88,52,47,32,,,,36,34,8,9,0.7,0.7
2026-01-09T0400,3592A,114.4518,34.7503,开封市,祥符区生态环境局,颗粒物(PM10),74,98,97,45,57,36,,,,33,37,4,7,0.5,0.6
2026-01-09T0400,1951A,84.886,45.6029,克拉玛依市,长征新村,细颗粒物(PM2.5),130,148,149,99,108,55,,,,29,32,4,4,0.9,0.9
2026-01-09T0400,1952A,84.8894,45.5827,克拉玛依市,南林小区,细颗粒物(PM2.5),125,160,147,95,86,51,,,,18,21,4,4,1.3,1.3
2026-01-09T0400,1954A,84.896,44.3328,克拉玛依市,独山子区,,36,36,55,19,37,54,,,,21,19,5,5,0.6,0.6
2026-01-09T0400,1955A,85.6888,46.0909,克拉玛依市,乌尔禾区商贸楼,细颗粒物(PM2.5),135,131,144,103,119,45,,,,32,38,4,5,1.0,1.2
2026-01-09T0400,3612A,85.1045,45.6895,克拉玛依市,白碱滩区新站,细颗粒物(PM2.5),115,118,159,87,119,64,,,,21,23,7,8,0.8,1.1
2026-01-09T0400,2697A,76.1457,39.7143,克孜勒苏柯尔克孜自治州,市人民政府,颗粒物(PM10),53,55,80,35,50,50,,,,6,14,3,3,0.1,0.4
2026-01-09T0400,3665A,76.1654,39.7157,克孜勒苏柯尔克孜自治州,克州文化中心,细颗粒物(PM2.5),58,44,70,41,54,53,,,,5,18,3,4,0.5,0.9
2026-01-09T0400,1450A,102.8203,24.889,昆明市,呈贡新区,,29,29,22,16,15,16,,,,34,20,4,2,0.8,0.6
2026-01-09T0400,1452A,102.7253,25.0904,昆明市,龙泉镇,,40,40,27,24,20,1,,,,25,19,2,2,0.8,0.9
2026-01-09T0400,1453A,102.7267,25.0378,昆明市,东风东路,,42,33,37,29,29,26,,,,15,23,3,3,0.6,0.7
2026-01-09T0400,1454A,102.6744,25.0671,昆明市,金鼎山,,30,30,34,17,20,16,,,,18,20,2,2,0.7,0.8
2026-01-09T0400,1455A,102.6643,25.0401,昆明市,碧鸡广场,,38,29,27,26,24,20,,,,18,24,2,3,0.5,0.6
2026-01-09T0400,3179A,102.7491,25.012,昆明市,官渡区博物馆,,39,,29,27,24,26,,,,15,23,2,2,0.6,0.7
2026-01-09T0400,3375A,102.8016,24.8336,昆明市,青年创业园,,29,22,20,20,15,32,,,,14,10,4,3,0.5,0.7
2026-01-09T0400,3550A,102.8,24.9787,昆明市,昆明学院,,30,28,31,21,23,36,,,,10,24,3,2,0.8,0.9
2026-01-09T0400,3551A,102.5969,24.6738,昆明市,晋宁区生态环境分局,,25,21,26,17,21,28,,,,10,14,2,2,0.6,0.7
2026-01-09T0400,3552A,102.6673,24.9861,昆明市,云天化总部,,35,29,29,24,21,27,,,,12,22,4,4,0.5,0.8
2026-01-09T0400,1456A,91.132,29.6515,拉萨市,八廓街,,20,16,25,9,15,61,,,,7,17,7,8,0.4,0.7
2026-01-09T0400,1457A,91.1221,29.6748,拉萨市,市环保局,,38,38,31,25,22,12,,,,31,23,8,9,1.9,1.1
2026-01-09T0400,1458A,91.0874,29.6476,拉萨市,区监测站,,18,18,20,9,12,50,,,,21,30,4,4,0.8,0.9
2026-01-09T0400,1459A,91.1774,29.6541,拉萨市,西藏大学,,18,18,20,7,8,56,,,,12,18,5,5,0.2,0.4
2026-01-09T0400,1460A,90.9798,29.6586,拉萨市,区辐射站,,18,8,39,6,20,55,,,,12,31,3,5,0.3,0.7
2026-01-09T0400,1461A,91.0831,29.6292,拉萨市,拉萨火车站,,25,25,27,15,14,16,,,,49,38,4,5,1.2,0.9
2026-01-09T0400,2520A,109.2203,23.7252,来宾市,来宾技工学校,细颗粒物(PM2.5),75,86,65,55,49,1,,,,47,25,14,10,0.7,0.6
2026-01-09T0400,3535A,109.1781,23.7293,来宾市,兴宾区政府,细颗粒物(PM2.5),84,78,59,62,46,33,,,,14,14,5,7,0.6,0.5
2026-01-09T0400,4002A,109.2312,23.7428,来宾市,中南小学,细颗粒物(PM2.5),79,77,66,58,47,2,,,,50,34,6,8,0.6,0.6
2026-01-09T0400,1479A,103.8309,36.0467,兰州市,铁路设计院,,,,,,,,,,,,,,,,
2026-01-09T0400,3241A,103.7439,36.0841,兰州市,百合公园,,,,86,,61,,,43,,,65,,26,,1.4
2026-01-09T0400,3242A,103.9613,35.9985,兰州市,和平,,48,48,69,33,54,9,,,,57,38,10,13,1.5,1.3
2026-01-09T0400,4236A,103.629272,36.093822,兰州市,庄浪东路808号,细颗粒物(PM2.5),58,60,85,41,55,14,,,,55,58,24,26,1.1,1.3
2026-01-09T0400,4237A,103.7251,36.104344,兰州市,安宁西路88号,,,,103,,57,,,56,,,67,,27,,1.4
2026-01-09T0400,4238A,103.846982,36.067567,兰州市,北滨河东路1号,细颗粒物(PM2.5),55,57,86,39,54,3,,,,77,72,11,17,1.4,1.8
2026-01-09T0400,1067A,116.6712,39.5109,廊坊市,药材公司,细颗粒物(PM2.5),100,114,99,75,52,4,,,,61,49,7,6,0.9,0.9
2026-01-09T0400,1068A,116.7215,39.5592,廊坊市,开发区,细颗粒物(PM2.5),117,137,108,88,55,0,,,,69,56,10,7,0.9,0.8
2026-01-09T0400,1070A,116.7246,39.5273,廊坊市,北华航天学院,细颗粒物(PM2.5),103,137,109,77,55,4,,,,63,52,7,6,0.8,0.8
2026-01-09T0400,2919A,116.7022,39.5454,廊坊市,河北工业大学,细颗粒物(PM2.5),103,131,102,77,53,12,,,,56,49,9,8,0.7,0.7
2026-01-09T0400,2536A,103.7629,29.5844,乐山市,牛耳桥,细颗粒物(PM2.5),97,80,69,72,58,19,,,,21,32,8,8,0.6,0.7
2026-01-09T0400,2537A,103.7501,29.6002,乐山市,市第三水厂,,,88,74,73,58,15,,,,36,40,6,7,,0.7
2026-01-09T0400,2538A,103.7571,29.5664,乐山市,市监测站,细颗粒物(PM2.5),88,78,73,65,57,9,,,,32,29,6,8,0.6,0.8
2026-01-09T0400,3361A,103.7313,29.563,乐山市,理工大学,细颗粒物(PM2.5),97,87,71,72,58,3,,,,43,29,4,5,0.7,0.6
2026-01-09T0400,2599A,100.2497,26.8802,丽江市,丽江古城,,25,18,30,13,17,78,,,,6,13,8,8,0.5,0.5
2026-01-09T0400,2600A,100.2203,26.8906,丽江市,市中心,,25,16,21,7,10,77,,,,6,13,7,7,0.3,0.4
2026-01-09T0400,1267A,119.9141,28.4513,丽水市,监测站大楼,,34,34,42,22,28,8,,,,43,30,10,8,0.4,0.4
2026-01-09T0400,1268A,119.93,28.4589,丽水市,莲都小学,,47,47,44,28,25,6,,,,49,26,/,/,/,/
2026-01-09T0400,1269A,119.8794,28.4232,丽水市,余庄前,,39,36,42,27,28,9,,,,23,24,4,5,0.3,0.3
2026-01-09T0400,1173A,119.1759,34.5885,连云港市,市环境监测站,细颗粒物(PM2.5),73,73,51,53,33,59,,,,25,33,12,14,0.6,0.8
2026-01-09T0400,3000A,119.3577,34.6971,连云港市,德源药业,细颗粒物(PM2.5),64,68,71,46,26,60,,,,25,36,8,8,0.5,0.5
2026-01-09T0400,3007A,119.178,34.8442,连云港市,新城一中,细颗粒物(PM2.5),89,79,62,66,39,27,,,,53,42,12,17,0.8,1
2026-01-09T0400,3008A,119.3607,34.7519,连云港市,胡沟管理处,细颗粒物(PM2.5),64,66,34,46,21,67,,,,21,27,7,7,0.6,0.6
2026-01-09T0400,3009A,119.1478,34.5913,连云港市,矿山设计院,,,80,50,39,27,70,,,,10,28,9,11,,1
2026-01-09T0400,3434A,119.2414,34.6539,连云港市,工贸学校,细颗粒物(PM2.5),78,84,45,57,28,51,,,,27,23,14,14,0.8,0.7
2026-01-09T0400,3664A,119.4171,34.734,连云港市,连云街道,颗粒物(PM10),62,73,39,43,22,73,,,,20,28,5,8,0.6,0.7
2026-01-09T0400,2573A,102.2629,27.8981,凉山彝族自治州,西昌市政府,细颗粒物(PM2.5),95,72,36,71,32,28,,,,20,13,6,5,0.9,0.7
2026-01-09T0400,2574A,102.2686,27.885,凉山彝族自治州,凉山州政府,颗粒物(PM10),80,109,45,58,24,28,,,,20,16,6,7,1.0,0.5
2026-01-09T0400,4229A,102.2342,27.8859,凉山彝族自治州,凯乐南路30号,细颗粒物(PM2.5),138,133,64,105,43,14,,,,40,22,6,5,0.8,0.6
2026-01-09T0400,2212A,123.1978,41.2036,辽阳市,宏伟区,,48,48,53,28,21,58,,,,9,13,6,7,0.5,0.5
2026-01-09T0400,2213A,123.1684,41.2497,辽阳市,新华园,,49,49,61,26,25,53,,,,15,23,7,12,0.4,0.6
2026-01-09T0400,2214A,123.2355,41.2663,辽阳市,滨河路,,40,40,48,23,21,50,,,,10,18,59,19,0.4,0.5
2026-01-09T0400,4083A,123.153,41.2874,辽阳市,铁西路150号,颗粒物(PM10),54,58,62,27,22,49,,,,19,24,10,12,0.6,0.7
2026-01-09T0400,2227A,125.1359,42.8845,辽源市,环保局,颗粒物(PM10),54,58,105,29,37,57,,,,14,22,6,5,0.6,0.8
2026-01-09T0400,4085A,125.0998,42.9134,辽源市,安宁大街333号,颗粒物(PM10),57,63,54,27,28,52,,,,15,21,7,6,0.4,0.5
2026-01-09T0400,1625A,115.9789,36.4372,聊城市,区政府,颗粒物(PM10),75,99,83,53,42,47,,,,28,36,13,15,0.8,0.8
2026-01-09T0400,3200A,115.9772,36.4986,聊城市,监控中心,,,95,83,56,43,51,,,,,32,12,14,0.7,0.7
2026-01-09T0400,3513A,116.0443,36.436,聊城市,九州社区,细颗粒物(PM2.5),78,102,84,57,45,56,,,,13,22,4,6,0.6,0.5
2026-01-09T0400,4018A,116.0564,36.4609,聊城市,星美广场,细颗粒物(PM2.5),78,103,84,57,39,53,,,,17,21,4,6,0.6,0.5
2026-01-09T0400,4113A,116.0091,36.4495,聊城市,利民路,细颗粒物(PM2.5),78,90,70,57,40,46,,,,26,34,13,11,0.6,0.6
2026-01-09T0400,2632A,94.3683,29.6373,林芝市,林芝监测站,,19,12,12,9,12,59,,,,2,4,2,3,0.3,0.3
2026-01-09T0400,2633A,94.3616,29.6634,林芝市,林芝人民医院,,16,12,18,8,10,50,,,,5,7,5,6,0.4,0.5
2026-01-09T0400,2603A,100.0779,23.8981,临沧市,市环保局,,39,32,35,27,41,25,,,,7,12,3,3,0.4,0.5
2026-01-09T0400,2604A,100.0894,23.882,临沧市,市气象局,,43,30,38,30,28,19,,,,9,11,5,6,0.5,0.5
2026-01-09T0400,1733A,111.5552,36.0791,临汾市,临钢医院,,,,83,,34,,,63,,,25,,8,,0.7
2026-01-09T0400,1734A,111.4984,36.0734,临汾市,技工学校,颗粒物(PM10),68,85,85,44,38,0,,,,47,29,4,7,1.0,0.8
2026-01-09T0400,1736A,111.5017,36.0857,临汾市,市委,颗粒物(PM10),61,71,86,35,28,3,,,,46,31,6,10,1.1,1
2026-01-09T0400,3018A,111.5048,36.1015,临汾市,唐尧大酒店,颗粒物(PM10),67,83,84,39,30,4,,,,44,30,2,5,1.0,0.9
2026-01-09T0400,4244A,111.4879,36.053,临汾市,启星学校,颗粒物(PM10),66,82,79,40,32,0,,,,61,45,4,9,1.4,1.2
2026-01-09T0400,4271A,103.2464,35.6123,临夏回族自治州,滨河东路1号,细颗粒物(PM2.5),104,135,158,78,82,15,,,,26,37,4,6,1.5,1.6
2026-01-09T0400,4310A,103.207136,35.599807,临夏回族自治州,新华街21号,细颗粒物(PM2.5),119,126,126,90,85,8,,,,41,37,8,11,2.0,1.3
2026-01-09T0400,1618A,118.3429,35.0532,临沂市,沂河小区,细颗粒物(PM2.5),110,114,71,83,48,23,,,,54,42,22,20,0.8,0.8
2026-01-09T0400,1619A,118.2962,35.0568,临沂市,鲁南制药厂,细颗粒物(PM2.5),98,97,73,73,46,23,,,,56,45,20,23,0.7,0.7
2026-01-09T0400,1620A,118.2793,34.9976,临沂市,新光毛纺厂,细颗粒物(PM2.5),98,92,71,73,46,21,,,,53,48,22,23,0.8,0.8
2026-01-09T0400,1621A,118.3955,35.0889,临沂市,河东保险公司,细颗粒物(PM2.5),89,92,65,66,42,32,,,,38,37,17,16,0.7,0.7
2026-01-09T0400,3370A,118.3563,35.0215,临沂市,十里堡居委,细颗粒物(PM2.5),94,110,76,70,43,25,,,,51,51,23,24,0.7,0.8
2026-01-09T0400,3496A,118.359,35.1067,临沂市,南坊新区,细颗粒物(PM2.5),83,88,65,61,40,39,,,,44,42,16,18,0.7,0.7
2026-01-09T0400,3860A,118.3915,35.0297,临沂市,皇山花园小区,"颗粒物(PM10),细颗粒物(PM2.5)",73,95,74,53,42,34,,,,43,47,21,22,0.8,0.9
2026-01-09T0400,1870A,109.4854,24.3898,柳州市,柳东小学,细颗粒物(PM2.5),84,71,54,62,49,63,,,,21,15,21,15,0.5,0.5
2026-01-09T0400,1871A,109.4109,24.3304,柳州市,环保监测站,细颗粒物(PM2.5),107,131,71,80,49,10,,,,47,36,11,9,0.8,0.6
2026-01-09T0400,1872A,109.3886,24.3408,柳州市,河西水厂,细颗粒物(PM2.5),117,131,97,88,60,4,,,,46,39,18,15,0.7,0.7
2026-01-09T0400,1873A,109.4263,24.2951,柳州市,市四中,细颗粒物(PM2.5),92,77,63,68,46,10,,,,54,38,15,13,0.8,0.7
2026-01-09T0400,1874A,109.396,24.3658,柳州市,市九中,细颗粒物(PM2.5),109,157,75,82,57,16,,,,50,38,16,12,0.9,0.8
2026-01-09T0400,1875A,109.4912,24.3164,柳州市,古亭山,,35,26,42,24,27,68,,,,17,31,21,13,0.6,0.6
2026-01-09T0400,3402A,109.5422,24.3994,柳州市,市二中,细颗粒物(PM2.5),98,73,63,73,56,0,,,,38,31,10,9,0.6,0.6
2026-01-09T0400,2307A,116.5078,31.7369,六安市,监测大楼,颗粒物(PM10),53,55,61,35,38,58,,,,24,37,4,4,0.5,0.5
2026-01-09T0400,2308A,116.4738,31.7642,六安市,皖西学院,细颗粒物(PM2.5),57,62,68,40,38,56,,,,23,39,5,5,0.4,0.5
2026-01-09T0400,2309A,116.4997,31.7904,六安市,朝阳厂,细颗粒物(PM2.5),59,55,65,42,37,60,,,,16,39,5,6,0.4,0.5
2026-01-09T0400,2310A,116.5566,31.7885,六安市,开发区,颗粒物(PM10),63,75,86,42,45,21,,,,41,46,3,5,0.5,0.5
2026-01-09T0400,2577A,104.8293,26.592,六盘水市,黄土坡,颗粒物(PM10),51,51,32,35,22,75,,,,12,15,8,13,0.5,0.6
2026-01-09T0400,2579A,104.8481,26.5898,六盘水市,民中,细颗粒物(PM2.5),55,43,31,39,24,78,,,,10,15,6,8,0.5,0.6
2026-01-09T0400,2580A,104.9541,26.5506,六盘水市,双水,细颗粒物(PM2.5),60,53,38,43,24,77,,,,12,11,7,6,0.4,0.5
2026-01-09T0400,4151A,104.8899,26.5685,六盘水市,钟山大道中段564号,细颗粒物(PM2.5),60,55,40,43,25,73,,,,10,14,10,11,0.6,0.7
2026-01-09T0400,2336A,117.022,25.1031,龙岩市,龙岩市监测站,,29,29,28,16,17,44,,,,19,17,37,23,0.4,0.4
2026-01-09T0400,2337A,117.0257,25.0662,龙岩市,闽西职业技术学院,颗粒物(PM10),54,57,40,18,18,31,,,,31,20,21,14,0.4,0.5
2026-01-09T0400,2338A,117.0195,25.0306,龙岩市,龙岩学院,,34,34,29,20,19,42,,,,16,13,9,10,/,/
2026-01-09T0400,2885A,104.9344,33.3827,陇南市,滨江中学,颗粒物(PM10),52,53,94,32,50,4,,,,48,50,9,18,1.6,2.2
2026-01-09T0400,3247A,104.9551,33.3709,陇南市,市总工会,颗粒物(PM10),51,52,73,33,37,23,,,,28,36,10,11,0.9,1.1
2026-01-09T0400,2488A,111.9984,27.7346,娄底市,市监测站,细颗粒物(PM2.5),65,62,69,47,53,6,,,,58,39,9,15,1.0,1.2
2026-01-09T0400,2491A,111.9888,27.7035,娄底市,市政府,细颗粒物(PM2.5),63,53,58,45,44,15,,,,14,22,5,6,0.7,0.8
2026-01-09T0400,4127A,111.9812,27.7591,娄底市,涟钢职大,颗粒物(PM10),61,72,60,34,37,35,,,,20,27,5,9,1.6,1.2
2026-01-09T0400,4128A,112.0303,27.7457,娄底市,娄底体校,细颗粒物(PM2.5),62,57,55,44,43,12,,,,18,19,2,4,0.4,0.6
2026-01-09T0400,1894A,105.4427,28.9063,泸州市,小市上码头,细颗粒物(PM2.5),204,186,110,154,85,20,,,,38,31,14,12,1.3,1.1
2026-01-09T0400,1895A,105.4241,28.8573,泸州市,兰田宪桥,细颗粒物(PM2.5),120,116,90,91,72,20,,,,23,27,7,8,1.0,1.1
2026-01-09T0400,1896A,105.4378,28.8833,泸州市,市环监站,细颗粒物(PM2.5),143,136,97,109,76,11,,,,45,37,8,10,1.1,1
2026-01-09T0400,4272A,105.3689,28.7783,泸州市,纳溪中医医院,细颗粒物(PM2.5),110,90,90,83,69,9,,,,21,27,7,8,0.8,0.9
2026-01-09T0400,2183A,111.1447,37.5212,吕梁市,环保局,颗粒物(PM10),64,77,88,27,30,2,,,,49,41,3,7,0.5,0.5
2026-01-09T0400,2185A,111.1285,37.5338,吕梁市,自来水公司,颗粒物(PM10),107,164,120,38,36,0,,,,45,34,8,6,0.6,0.5
2026-01-09T0400,2867A,111.1225,37.5093,吕梁市,马茂庄小学,颗粒物(PM10),65,80,105,27,35,0,,,,49,42,6,7,0.4,0.5
2026-01-09T0400,1812A,112.3934,34.6517,洛阳市,市委党校,,50,50,61,35,32,33,,,,26,28,9,10,0.5,0.5
2026-01-09T0400,1815A,112.494,34.6883,洛阳市,河南林校,颗粒物(PM10),55,60,75,37,29,27,,,,30,37,11,12,0.6,0.7
2026-01-09T0400,1816A,112.3843,34.623,洛阳市,开发区管委会,,,,58,,26,,,72,,,31,,16,,0.4
2026-01-09T0400,1817A,112.4263,34.6249,洛阳市,市委新办公区,细颗粒物(PM2.5),62,70,65,44,36,19,,,,32,25,10,10,0.7,0.6
2026-01-09T0400,3340A,112.6005,34.6323,洛阳市,伊滨,颗粒物(PM10),75,100,67,49,33,34,,,,29,22,11,8,0.5,0.4
2026-01-09T0400,3341A,112.495,34.6338,洛阳市,中移产业园,颗粒物(PM10),55,59,66,33,32,31,,,,33,28,12,11,0.5,0.5
2026-01-09T0400,3593A,112.5736,34.8993,洛阳市,吉利监测站,,38,38,58,16,23,67,,,,18,36,7,7,0.5,0.6
2026-01-09T0400,3635A,112.3678,34.6623,洛阳市,河科大西苑校区,颗粒物(PM10),53,56,70,34,29,41,,,,22,28,9,9,0.5,0.6
2026-01-09T0400,3636A,112.4387,34.678,洛阳市,英才小学,细颗粒物(PM2.5),60,55,71,43,37,29,,,,31,44,11,12,0.6,0.7
2026-01-09T0400,4214A,112.460027,34.694929,洛阳市,春都路1号院,颗粒物(PM10),61,72,79,38,31,9,,,,49,36,9,10,0.9,0.8
2026-01-09T0400,2399A,114.051,33.5721,漯河市,三五一五工厂,,,64,93,37,51,79,,,,9,24,7,9,,0.8
2026-01-09T0400,2400A,114.0055,33.5698,漯河市,漯河大学,颗粒物(PM10),56,62,86,29,43,70,,,,12,29,7,8,0.5,0.6
2026-01-09T0400,2401A,114.0134,33.5826,漯河市,市水利局,,,58,86,34,46,74,,,,9,21,8,9,,0.6
2026-01-09T0400,2402A,114.0261,33.5697,漯河市,市广电局,颗粒物(PM10),52,54,84,34,46,77,,,,13,21,7,9,0.6,0.7
2026-01-09T0400,3478A,113.9691,33.568,漯河市,市图书馆,颗粒物(PM10),57,63,98,35,51,68,,,,10,22,5,8,0.6,0.7
2026-01-09T0400,4250A,114.089259,33.588274,漯河市,韶山路11号,颗粒物(PM10),56,62,90,33,46,68,,,,15,27,7,9,0.4,0.5
2026-01-09T0400,1798A,118.5084,31.6838,马鞍山市,湖东路四小,细颗粒物(PM2.5),83,102,98,61,52,17,,,,57,54,4,8,1.0,1
2026-01-09T0400,1799A,118.5019,31.6449,马鞍山市,开发区,细颗粒物(PM2.5),107,113,95,80,61,6,,,,66,57,6,8,1.0,0.8
2026-01-09T0400,3633A,118.4914,31.681,马鞍山市,雨山,细颗粒物(PM2.5),83,96,94,61,56,19,,,,64,57,8,13,0.9,1
2026-01-09T0400,4191A,118.527362,31.722269,马鞍山市,慈湖高新区,细颗粒物(PM2.5),100,117,113,75,70,28,,,,52,49,8,12,0.8,0.6
2026-01-09T0400,1686A,111.0285,21.469,茂名市,电白南海,,39,39,54,19,28,60,,,,23,23,23,17,0.4,0.5
2026-01-09T0400,1687A,110.9294,21.6533,茂名市,茂石化七小,,36,36,52,22,30,71,,,,16,25,10,14,0.3,0.5
2026-01-09T0400,1688A,110.9108,21.6688,茂名市,健康路,细颗粒物(PM2.5),52,44,53,36,37,46,,,,32,31,19,25,0.5,0.7
2026-01-09T0400,1689A,110.8592,21.6826,茂名市,高岭,"颗粒物(PM10),细颗粒物(PM2.5)",64,78,73,46,33,32,,,,34,30,32,19,/,/
2026-01-09T0400,3450A,111.0101,21.5165,茂名市,电白水东,,39,39,44,24,26,62,,,,17,16,31,16,/,/
2026-01-09T0400,2540A,103.8414,30.0871,眉山市,气象局,细颗粒物(PM2.5),92,76,76,68,58,30,,,,26,32,9,9,0.5,0.6
2026-01-09T0400,3148A,103.829,30.0563,眉山市,区人社局,细颗粒物(PM2.5),94,88,77,70,57,0,,,,44,42,6,8,0.8,0.8
2026-01-09T0400,4148A,103.8836,30.0695,眉山市,眉职院,细颗粒物(PM2.5),75,81,73,55,46,13,,,,35,29,1,2,0.6,0.7
2026-01-09T0400,1690A,116.1248,24.3307,梅州市,梅江月梅,,36,36,34,20,23,19,,,,40,27,/,/,/,/
2026-01-09T0400,1691A,116.0798,24.2719,梅州市,梅县新城,,36,36,37,18,22,10,,,,40,32,7,7,0.4,0.5
2026-01-09T0400,3315A,116.1234,24.2994,梅州市,梅龙,,29,29,35,16,18,27,,,,23,26,9,10,0.4,0.5
2026-01-09T0400,1878A,104.7775,31.4741,绵阳市,富乐山,细颗粒物(PM2.5),95,80,72,71,59,4,,,,50,27,11,11,0.7,0.6
2026-01-09T0400,1880A,104.6698,31.4668,绵阳市,高新区自来水公司,细颗粒物(PM2.5),122,139,106,92,68,1,,,,44,47,8,9,1.1,1
2026-01-09T0400,3491A,104.6899,31.5324,绵阳市,西科大附属小学,细颗粒物(PM2.5),102,130,111,76,72,9,,,,44,46,8,9,1.0,0.7
2026-01-09T0400,3492A,104.5647,31.5343,绵阳市,安州区旅游局,细颗粒物(PM2.5),100,84,92,75,71,14,,,,28,42,15,12,1.2,1.3
2026-01-09T0400,4146A,104.7092,31.4972,绵阳市,科技城新区公安局,细颗粒物(PM2.5),128,134,96,97,69,20,,,,44,46,4,4,1.3,0.9
2026-01-09T0400,4226A,104.765114,31.453094,绵阳市,绵阳市气象局,细颗粒物(PM2.5),119,117,84,90,62,0,,,,49,40,8,8,0.8,0.7
2026-01-09T0400,1784A,129.61,44.561,牡丹江市,环保大楼,,46,46,31,18,19,29,,,,21,19,5,3,0.4,0.4
2026-01-09T0400,1787A,129.6364,44.6075,牡丹江市,机车工厂,颗粒物(PM10),59,68,57,41,30,4,,,,41,27,6,13,0.8,0.5
2026-01-09T0400,1788A,129.6386,44.5462,牡丹江市,第一中学,,42,34,29,29,24,9,,,,33,19,5,5,0.7,0.5
2026-01-09T0400,4287A,129.5992,44.5964,牡丹江市,东晓云街98号,细颗粒物(PM2.5),64,56,51,46,38,11,,,,30,23,5,7,0.8,0.7
2026-01-09T0400,2531A,105.0703,29.61,内江市,市监测站,细颗粒物(PM2.5),119,,81,90,74,41,,,,20,32,6,6,0.7,0.9
2026-01-09T0400,2533A,105.0657,29.5807,内江市,内江二中,细颗粒物(PM2.5),107,,94,80,73,3,,,,56,47,4,5,0.9,1
2026-01-09T0400,2534A,105.0407,29.5828,内江市,内江日报社,细颗粒物(PM2.5),107,,73,80,68,37,,,,39,49,2,3,0.6,0.7
2026-01-09T0400,4147A,105.0433,29.6105,内江市,玉峰路西段888号,细颗粒物(PM2.5),98,105,96,73,69,21,,,,39,37,2,4,0.7,0.8
2026-01-09T0400,2628A,92.0653,31.4846,那曲市,那曲监测站,,37,37,71,14,35,36,,,,19,24,6,10,1.6,1.4
2026-01-09T0400,4243A,92.0515,31.4787,那曲市,那曲市委宣传部,,47,47,51,24,23,22,,,,26,18,6,8,1.5,1.1
2026-01-09T0400,1291A,115.8887,28.7006,南昌市,省林业公司,颗粒物(PM10),51,51,62,34,38,26,,,,71,53,4,5,0.8,0.8
2026-01-09T0400,1292A,115.813,28.7443,南昌市,林科所,,46,46,52,24,33,1,,,,77,48,6,8,0.2,0.5
2026-01-09T0400,1294A,115.8518,28.687,南昌市,建工学校,,48,48,63,31,40,46,,,,28,37,12,14,0.6,0.8
2026-01-09T0400,1295A,115.8926,28.6425,南昌市,象湖,颗粒物(PM10),57,63,62,36,41,0,,,,74,52,8,10,0.9,1
2026-01-09T0400,3046A,115.9084,28.6062,南昌市,机电学校,细颗粒物(PM2.5),62,64,77,44,46,14,,,,63,47,4,9,0.6,0.7
2026-01-09T0400,3690A,115.9718,28.7032,南昌市,外国语学校,,,76,65,60,44,2,,,,81,55,12,14,,0.7
2026-01-09T0400,4106A,115.7923,28.6873,南昌市,工业二路,,45,45,47,29,33,15,,,,66,46,4,5,0.3,0.3
2026-01-09T0400,4192A,115.931587,28.686774,南昌市,南京东路235号,细颗粒物(PM2.5),78,84,66,57,47,3,,,,86,57,6,7,1.1,0.7
2026-01-09T0400,1906A,106.0791,30.8022,南充市,南充市委,细颗粒物(PM2.5),98,87,93,73,75,23,,,,21,41,4,5,0.6,0.9
2026-01-09T0400,1907A,106.1038,30.8215,南充市,南充炼油厂,细颗粒物(PM2.5),113,96,92,85,73,8,,,,38,36,6,7,0.6,0.6
2026-01-09T0400,4227A,106.108336,30.788436,南充市,梨树横街98号,细颗粒物(PM2.5),104,92,89,78,68,13,,,,42,45,6,7,0.7,0.9
2026-01-09T0400,4304A,106.1172,30.843,南充市,清泉寺北路188号,细颗粒物(PM2.5),78,71,69,57,63,60,,,,20,22,7,6,0.4,0.4
2026-01-09T0400,4305A,106.067,30.7616,南充市,同庆路1号,细颗粒物(PM2.5),100,85,80,75,66,9,,,,48,46,6,7,0.6,1.1
2026-01-09T0400,1151A,118.8033,32.1085,南京市,迈皋桥,细颗粒物(PM2.5),85,91,81,63,54,37,,,,44,42,4,4,0.7,0.9
2026-01-09T0400,1152A,118.7487,32.057,南京市,草场门,细颗粒物(PM2.5),83,97,100,61,58,14,,,,69,56,8,10,0.5,0.7
2026-01-09T0400,1154A,118.770105,32.004342,南京市,中华门,细颗粒物(PM2.5),83,90,89,61,55,0,,,,72,54,5,5,0.7,0.8
2026-01-09T0400,1155A,118.8059,32.0329,南京市,瑞金路,细颗粒物(PM2.5),94,95,94,70,61,6,,,,63,71,4,4,0.9,1.1
2026-01-09T0400,1156A,118.7946,32.0774,南京市,玄武湖,细颗粒物(PM2.5),92,102,87,68,55,29,,,,28,31,4,4,0.8,0.9
2026-01-09T0400,1157A,118.6415,32.0964,南京市,浦口,细颗粒物(PM2.5),74,93,93,54,54,10,,,,72,36,11,10,0.7,0.6
2026-01-09T0400,1158A,118.730129,32.000956,南京市,奥体中心,细颗粒物(PM2.5),83,93,90,61,57,3,,,,83,59,7,8,0.8,0.7
2026-01-09T0400,1159A,118.9072,32.1047,南京市,仙林大学城,细颗粒物(PM2.5),89,100,93,66,56,24,,,,52,55,7,8,0.9,1
2026-01-09T0400,3422A,118.8443,31.919,南京市,江宁彩虹桥,细颗粒物(PM2.5),85,87,84,63,53,0,,,,67,55,3,5,0.7,0.7
2026-01-09T0400,3427A,118.8497,32.3599,南京市,六合雄州,细颗粒物(PM2.5),70,86,85,51,54,7,,,,64,45,8,9,0.9,0.8
2026-01-09T0400,4086A,118.7641,32.0841,南京市,新模范马路66号,细颗粒物(PM2.5),103,114,102,77,64,16,,,,58,45,4,8,0.8,1.1
2026-01-09T0400,4249A,118.8707617,31.34017673,南京市,汶溪路181号,细颗粒物(PM2.5),79,80,71,58,54,23,,,,42,46,7,8,0.7,0.8
2026-01-09T0400,4312A,119.019,31.6512,南京市,中山西路1号,细颗粒物(PM2.5),92,75,77,68,61,7,,,,46,44,4,4,0.8,0.7
2026-01-09T0400,1401A,108.3098,22.788,南宁市,二十一中,细颗粒物(PM2.5),74,59,52,54,43,0,,,,60,37,4,9,0.8,0.6
2026-01-09T0400,1402A,108.3135,22.8529,南宁市,北湖,细颗粒物(PM2.5),70,76,56,51,37,0,,,,58,44,5,7,0.9,0.7
2026-01-09T0400,1403A,108.3205,22.8222,南宁市,市监测站,细颗粒物(PM2.5),60,58,51,43,36,51,,,,28,36,17,13,0.8,0.7
2026-01-09T0400,1404A,108.3828,22.8038,南宁市,大自然花园,颗粒物(PM10),51,51,49,35,34,51,,,,18,27,9,9,0.6,0.6
2026-01-09T0400,1406A,108.2397,22.8462,南宁市,区农职院,细颗粒物(PM2.5),53,38,49,37,36,18,,,,32,34,11,15,0.7,0.7
2026-01-09T0400,1407A,108.3285,22.7356,南宁市,英华嘉园,细颗粒物(PM2.5),69,68,58,50,43,6,,,,47,36,4,6,0.7,0.7
2026-01-09T0400,3401A,108.4829,22.762,南宁市,红星社区,细颗粒物(PM2.5),65,55,49,47,38,18,,,,46,31,5,7,0.7,0.6
2026-01-09T0400,4132A,108.2927,23.1477,南宁市,起凤路9号,细颗粒物(PM2.5),137,105,58,104,48,0,,,,30,27,1,2,0.7,0.6
2026-01-09T0400,4221A,108.2177,22.7774,南宁市,乐贤路16号,细颗粒物(PM2.5),60,64,61,43,37,0,,,,46,39,2,4,0.5,0.5
2026-01-09T0400,2332A,118.1682,26.6371,南平市,南平市监测站,,35,32,38,24,28,10,,,,35,28,4,4,0.3,0.5
2026-01-09T0400,2334A,118.1757,26.6276,南平市,南平七中,,33,23,36,23,24,12,,,,39,24,4,6,0.5,0.5
2026-01-09T0400,1168A,120.9056,31.9669,南通市,狼山街道,细颗粒物(PM2.5),77,67,85,56,63,7,,,,46,35,3,3,0.5,0.5
2026-01-09T0400,1170A,120.8635,32.0231,南通市,城中,细颗粒物(PM2.5),73,85,97,53,61,16,,,,59,52,5,5,0.7,0.7
2026-01-09T0400,1171A,120.9376,31.9301,南通市,星湖花园,细颗粒物(PM2.5),84,93,86,62,57,16,,,,69,42,7,5,0.6,0.5
2026-01-09T0400,1172A,120.8053,32.046,南通市,紫琅学院,细颗粒物(PM2.5),80,94,112,59,75,13,,,,58,52,5,5,0.3,0.8
2026-01-09T0400,3291A,121.0631,32.0644,南通市,通州监测站,细颗粒物(PM2.5),62,68,86,44,62,58,,,,24,36,3,4,0.6,0.7
2026-01-09T0400,3432A,120.9348,31.9874,南通市,环境教育馆,细颗粒物(PM2.5),70,61,92,51,65,2,,,,61,50,4,5,0.6,0.7
2026-01-09T0400,4091A,120.8692,31.9885,南通市,洪江路,细颗粒物(PM2.5),87,70,94,64,64,12,,,,58,46,2,4,0,0.4
2026-01-09T0400,2404A,112.5338,33.0086,南阳市,瓦房庄,细颗粒物(PM2.5),79,67,72,58,43,50,,,,20,28,8,8,0.5,0.6
2026-01-09T0400,2405A,112.5002,32.9734,南阳市,汉画馆,细颗粒物(PM2.5),65,69,72,47,39,42,,,,29,32,6,6,0.5,0.6
2026-01-09T0400,2406A,112.5778,33.0144,南阳市,气象站,颗粒物(PM10),61,71,76,39,36,51,,,,21,29,8,7,0.6,0.6
2026-01-09T0400,2407A,112.548,32.9687,南阳市,理工学院,细颗粒物(PM2.5),60,68,66,43,35,46,,,,27,31,7,8,0.5,0.5
2026-01-09T0400,4008A,112.5233,32.9921,南阳市,卧龙区政府,细颗粒物(PM2.5),67,82,75,48,41,43,,,,28,32,7,7,0.5,0.6
2026-01-09T0400,1234A,121.8352,29.9111,宁波市,区环保大楼,细颗粒物(PM2.5),100,103,90,75,58,10,,,,55,65,5,9,1.0,1
2026-01-09T0400,1235A,121.5595,29.8208,宁波市,万里学院,细颗粒物(PM2.5),84,89,78,62,53,1,,,,70,54,5,7,0.7,0.7
2026-01-09T0400,1236A,121.713,29.9564,宁波市,龙赛医院,细颗粒物(PM2.5),87,104,94,64,60,16,,,,59,60,6,6,0.7,0.7
2026-01-09T0400,1240A,121.5855,29.8635,宁波市,太古小学,细颗粒物(PM2.5),80,90,79,59,53,2,,,,68,48,6,6,0.9,0.8
2026-01-09T0400,1241A,121.5239,29.8673,宁波市,市环境监测中心,,,86,77,52,46,14,,,,55,53,,8,0.8,0.8
2026-01-09T0400,2871A,121.6156,29.9015,宁波市,万里国际学校,细颗粒物(PM2.5),82,87,74,60,53,1,,,,80,59,5,6,0.7,0.7
2026-01-09T0400,3710A,121.5593,29.8976,宁波市,白沙活动中心,细颗粒物(PM2.5),80,76,62,59,48,21,,,,56,53,5,6,0.8,0.7
2026-01-09T0400,4095A,121.8962,29.7529,宁波市,中科路88号,细颗粒物(PM2.5),100,93,75,75,59,25,,,,35,45,4,8,0.7,0.6
2026-01-09T0400,2341A,119.5387,26.6611,宁德市,宁德市监测站,,50,36,35,35,25,64,,,,19,21,9,7,0.6,0.5
2026-01-09T0400,3209A,119.5231,26.6562,宁德市,宁德一中,,39,39,35,23,26,61,,,,14,16,8,6,0.7,0.6
2026-01-09T0400,2618A,98.859,25.8541,怒江傈僳族自治州,州监测站,,30,30,34,20,22,39,,,,11,12,7,6,0.4,0.4
2026-01-09T0400,2619A,98.8607,25.8168,怒江傈僳族自治州,泸水一中,,23,16,30,16,23,25,,,,14,17,6,6,0.4,0.6
2026-01-09T0400,1888A,101.6891,26.571,攀枝花市,弄弄坪,细颗粒物(PM2.5),64,62,49,46,33,31,,,,29,19,29,13,1.6,0.9
2026-01-09T0400,1889A,101.577,26.5914,攀枝花市,河门口,细颗粒物(PM2.5),52,51,50,36,34,16,,,,23,19,11,21,1.1,1.4
2026-01-09T0400,1891A,101.7365,26.4986,攀枝花市,仁和,细颗粒物(PM2.5),58,58,51,41,33,17,,,,17,19,8,10,1.0,0.9
2026-01-09T0400,2835A,101.7222,26.567,攀枝花市,四十中小,颗粒物(PM10),61,71,49,43,30,11,,,,41,22,33,22,2.8,1
2026-01-09T0400,1604A,122.0303,41.1489,盘锦市,开发区,细颗粒物(PM2.5),67,68,35,48,23,28,,,,20,17,5,4,1.3,1
2026-01-09T0400,1605A,122.0486,41.0883,盘锦市,兴隆台,细颗粒物(PM2.5),60,63,37,43,23,32,,,,30,29,4,5,0.8,0.6
2026-01-09T0400,1606A,121.8297,41.1026,盘锦市,新生街道,细颗粒物(PM2.5),69,84,41,50,24,22,,,,32,27,5,7,0.9,0.6
2026-01-09T0400,1832A,113.3257,33.7423,平顶山市,新华旅馆,颗粒物(PM10),52,53,77,29,28,81,,,,14,22,6,7,0.3,0.4
2026-01-09T0400,1833A,113.2917,33.737,平顶山市,规划设计院,颗粒物(PM10),52,54,74,29,31,80,,,,9,17,7,9,0.3,0.2
2026-01-09T0400,1834A,113.182,33.7738,平顶山市,平顶山工学院,,48,48,71,27,33,81,,,,14,17,8,9,0.3,0.3
2026-01-09T0400,3594A,112.8736,33.9068,平顶山市,石龙区,颗粒物(PM10),64,78,79,45,32,44,,,,36,23,7,6,0.6,0.5
2026-01-09T0400,4116A,113.284,33.7139,平顶山市,姚电大道23号,颗粒物(PM10),63,76,100,34,37,73,,,,22,26,8,9,0.4,0.5
2026-01-09T0400,2656A,106.6633,35.5338,平凉市,聚贤嘉苑,,29,29,41,19,26,61,,,,22,33,14,13,0.6,0.7
2026-01-09T0400,2657A,106.7021,35.5307,平凉市,博物馆,,34,34,54,21,34,48,,,,23,36,10,13,0.6,0.8
2026-01-09T0400,2348A,113.8384,27.6436,萍乡市,中医院,细颗粒物(PM2.5),98,109,89,73,57,1,,,,42,42,5,7,1.2,1.2
2026-01-09T0400,2350A,113.8677,27.6438,萍乡市,市环保局,细颗粒物(PM2.5),87,82,71,64,52,15,,,,44,37,15,14,0.9,0.9
2026-01-09T0400,2351A,113.8663,27.6202,萍乡市,安源区政府,细颗粒物(PM2.5),83,75,72,61,59,12,,,,28,28,8,10,1.1,1.5
2026-01-09T0400,4107A,113.8686,27.6668,萍乡市,联洪村委会,颗粒物(PM10),79,108,75,54,52,16,,,,39,34,11,9,1.1,1
2026-01-09T0400,2319A,119.0142,25.4324,莆田市,荔城区仓后路,,48,42,39,33,26,95,,,,12,14,/,/,/,/
2026-01-09T0400,2320A,119.0016,25.4553,莆田市,莆田市监测站,,,31,33,29,24,97,,,,10,11,,4,0.5,0.4
2026-01-09T0400,2321A,119.112,25.4561,莆田市,涵江区六中,,48,41,40,33,26,93,,,,14,18,/,/,0.5,0.6
2026-01-09T0400,2322A,119.1014,25.3215,莆田市,秀屿区政府,,,34,42,34,31,94,,,,12,14,,4,0.5,0.5
2026-01-09T0400,2392A,115.0312,35.7636,濮阳市,环保局,颗粒物(PM10),58,66,71,37,36,46,,,,23,32,7,9,0.5,0.6
2026-01-09T0400,3021A,115,35.7667,濮阳市,濮水河管理处,颗粒物(PM10),65,79,84,42,36,38,,,,16,21,5,9,0.8,0.8
2026-01-09T0400,4118A,115.0552,35.7816,濮阳市,中原东路68号,颗粒物(PM10),69,88,86,37,39,47,,,,26,35,7,9,0.4,0.5
2026-01-09T0400,4216A,115.0923632,35.76857718,濮阳市,任丘路479号,颗粒物(PM10),69,87,81,43,46,39,,,,23,33,6,9,0.6,0.6
2026-01-09T0400,2601A,100.9801,22.7634,普洱市,市环保局,,32,32,33,13,20,37,,,,3,6,4,4,0.4,0.4
2026-01-09T0400,2602A,100.9763,22.8237,普洱市,普洱第二中学,,26,26,32,10,20,30,,,,8,8,5,4,0.3,0.4
2026-01-09T0400,3345A,131.0413,45.7795,七台河市,中波台,,22,20,22,15,17,34,,,,12,16,7,8,0.3,0.3
2026-01-09T0400,3637A,131.0136,45.7688,七台河市,人民广场,,26,24,30,18,23,41,,,,14,22,8,10,0.5,0.5
2026-01-09T0400,3684A,130.8639,45.8144,七台河市,新建矿广场,颗粒物(PM10),63,75,34,37,22,11,,,,42,21,26,10,0.6,0.3
2026-01-09T0400,1779A,123.9307,47.3641,齐齐哈尔市,安居小区,细颗粒物(PM2.5),64,51,36,46,17,17,,,,35,21,9,9,0.8,0.7
2026-01-09T0400,1780A,123.9497,47.3389,齐齐哈尔市,中心广场,,42,42,32,27,16,35,,,,16,20,6,6,0.6,0.6
2026-01-09T0400,1781A,123.9483,47.3229,齐齐哈尔市,农牧车辆厂,,41,41,38,27,15,28,,,,22,16,4,4,0.5,0.4
2026-01-09T0400,1783A,123.9442,47.2994,齐齐哈尔市,市环境监测站,,47,47,41,29,17,36,,,,21,16,8,7,0.7,0.6
2026-01-09T0400,3662A,123.6341,47.2079,齐齐哈尔市,富区青少年活动中心,,44,44,48,29,19,34,,,,10,14,3,5,0.6,0.6
2026-01-09T0400,2591A,107.9765,26.5724,黔东南苗族侗族自治州,市环境监测站,,48,39,45,33,39,17,,,,25,26,2,3,0.5,0.6
2026-01-09T0400,2881A,107.8909,26.531,黔东南苗族侗族自治州,凯里学院,细颗粒物(PM2.5),55,48,43,39,34,12,,,,22,18,4,5,0.5,0.5
2026-01-09T0400,2593A,107.5223,26.2371,黔南布依族苗族自治州,小围寨,,49,44,47,34,41,12,,,,23,14,8,10,0.7,0.8
2026-01-09T0400,3538A,107.5175,26.2977,黔南布依族苗族自治州,沙坝,细颗粒物(PM2.5),52,51,52,36,40,16,,,,14,17,6,8,0.8,0.8
2026-01-09T0400,2589A,104.9022,25.0943,黔西南布依族苗族自治州,场坝街,细颗粒物(PM2.5),84,68,70,62,57,65,,,,10,15,4,14,0.7,0.6
2026-01-09T0400,2590A,104.8812,25.0994,黔西南布依族苗族自治州,坪东大道,细颗粒物(PM2.5),79,,61,58,57,60,,,,11,15,8,14,0.7,0.7
2026-01-09T0400,2502A,108.6238,21.9667,钦州市,市环保站,细颗粒物(PM2.5),73,80,91,53,49,62,,,,29,34,8,6,0.7,1.2
2026-01-09T0400,2503A,108.655,21.9481,钦州市,沙埠小学,细颗粒物(PM2.5),87,84,88,64,61,47,,,,39,35,9,11,0.9,0.9
2026-01-09T0400,2504A,108.5989,21.7435,钦州市,港区一小,细颗粒物(PM2.5),78,76,78,57,48,45,,,,42,37,8,10,1.3,0.9
2026-01-09T0400,3404A,108.5959,21.9634,钦州市,北职校,细颗粒物(PM2.5),89,92,75,66,51,19,,,,44,30,9,10,4.6,1.3
2026-01-09T0400,1046A,119.5247,39.9346,秦皇岛市,建设大厦,细颗粒物(PM2.5),75,94,78,55,43,11,,,,63,46,19,12,1.3,0.9
2026-01-09T0400,3132A,119.5979,39.938,秦皇岛市,文明里,颗粒物(PM10),72,93,76,42,27,11,,,,59,45,19,14,1.1,0.7
2026-01-09T0400,4066A,119.7458,39.9952,秦皇岛市,南园路157号,细颗粒物(PM2.5),80,104,75,59,32,14,,,,57,42,19,13,1.3,0.7
2026-01-09T0400,4067A,119.5131,39.8858,秦皇岛市,翠岛大街1号,颗粒物(PM10),81,111,72,51,31,7,,,,58,39,19,14,1.2,0.7
2026-01-09T0400,4198A,119.509013,39.825305,秦皇岛市,北戴河轮滑馆,颗粒物(PM10),73,96,68,47,32,30,,,,33,34,7,8,0.7,0.5
2026-01-09T0400,1310A,120.404,36.0625,青岛市,市南区东部子站,"颗粒物(PM10),细颗粒物(PM2.5)",62,73,40,44,20,50,,,,32,26,19,12,1.3,0.8
2026-01-09T0400,1311A,120.362344,36.10282,青岛市,四方区子站,颗粒物(PM10),63,75,75,44,26,64,,,,23,31,9,9,0.9,0.8
2026-01-09T0400,1312A,120.294373,36.054183,青岛市,市南区西部子站,颗粒物(PM10),62,73,45,42,23,52,,,,34,30,9,7,0.9,0.6
2026-01-09T0400,1313A,120.4581,36.0858,青岛市,崂山区子站,"颗粒物(PM10),细颗粒物(PM2.5)",58,66,33,41,16,55,,,,27,23,19,13,1.1,0.6
2026-01-09T0400,1315A,120.3945,36.3083,青岛市,城阳区子站,颗粒物(PM10),59,68,61,32,29,44,,,,47,47,12,11,1.0,1.1
2026-01-09T0400,3642A,120.3454,36.0735,青岛市,市北区南部,颗粒物(PM10),58,66,42,39,20,55,,,,22,26,8,5,0.9,0.6
2026-01-09T0400,3643A,120.3897,36.18,青岛市,李沧区北部,细颗粒物(PM2.5),58,63,47,41,32,51,,,,33,38,14,13,1.1,1
2026-01-09T0400,4110A,120.5222,36.4089,青岛市,盟旺路653号,颗粒物(PM10),63,75,61,34,29,47,,,,42,43,10,8,0.7,0.8
2026-01-09T0400,4290A,120.196923,35.954556,青岛市,珠江路669号,细颗粒物(PM2.5),59,61,36,42,24,59,,,,25,31,16,14,1.0,0.7
2026-01-09T0400,4291A,120.0424,35.8656,青岛市,黄岛区人民政府广场,颗粒物(PM10),62,73,52,41,25,48,,,,36,36,12,12,1.1,0.9
2026-01-09T0400,1703A,113.0218,23.7086,清远市,凤城街办,,30,30,27,19,19,40,,,,43,19,/,/,/,/
2026-01-09T0400,3025A,113.0479,23.6343,清远市,技师学院,,39,39,33,20,17,53,,,,35,24,18,9,0.4,0.4
2026-01-09T0400,3318A,112.9898,23.7403,清远市,清新太和,,24,23,26,13,17,76,,,,19,14,7,7,0.4,0.4
2026-01-09T0400,3455A,113.076,23.72,清远市,清城东城,,33,33,28,17,17,80,,,,21,16,/,/,/,/
2026-01-09T0400,2661A,107.6325,35.7357,庆阳市,庆阳五中,,32,32,47,18,25,77,,,,8,19,4,7,0.4,0.7
2026-01-09T0400,2662A,107.6361,35.7067,庆阳市,市环保局,,40,40,48,16,26,79,,,,8,20,6,13,0.3,0.5
2026-01-09T0400,1916A,103.7897,25.5036,曲靖市,环境监测站,,30,,49,21,31,29,,,,13,18,2,4,0.6,0.7
2026-01-09T0400,1917A,103.8013,25.5357,曲靖市,烟厂办公区,,32,32,56,20,31,31,,,,12,17,4,5,0.6,0.7
2026-01-09T0400,3376A,103.7926,25.4651,曲靖市,南苑二区,,37,37,52,20,34,32,,,,10,14,3,4,0.5,0.7
2026-01-09T0400,3377A,103.7442,25.5259,曲靖市,曲靖师范学院,,36,27,45,25,35,32,,,,11,20,2,2,0.5,0.5
2026-01-09T0400,1264A,118.8694,28.94,衢州市,环保大楼,,48,48,55,28,35,22,,,,34,37,/,/,/,/
2026-01-09T0400,1266A,118.8622,28.9809,衢州市,衢州学院,颗粒物(PM10),51,51,50,27,28,5,,,,59,42,5,8,0.5,0.5
2026-01-09T0400,4097A,118.9646,28.9832,衢州市,衢州三中,细颗粒物(PM2.5),63,74,60,45,39,1,,,,53,42,6,9,0.6,0.7
2026-01-09T0400,1611A,118.5818,24.9116,泉州市,涂山街,,39,32,40,27,28,92,,,,11,15,3,4,0.5,0.5
2026-01-09T0400,1612A,118.597,24.8976,泉州市,津头埔,,43,33,40,30,29,92,,,,13,19,5,5,0.4,0.5
2026-01-09T0400,1613A,118.6669,24.9422,泉州市,万安,,39,38,42,27,27,85,,,,16,16,3,4,0.5,0.5
2026-01-09T0400,4105A,118.6355,24.9148,泉州市,霞新路6号,,43,43,42,27,28,98,,,,14,24,/,/,0.4,0.3
2026-01-09T0400,2626A,88.8873,29.2723,日喀则市,日喀则监测站,,20,20,27,14,11,35,,,,19,13,3,6,0.8,0.6
2026-01-09T0400,3726A,88.8775,29.2425,日喀则市,林业技术推广中心,,17,15,29,3,9,52,,,,7,5,9,10,0.2,0.3
2026-01-09T0400,1659A,119.4711,35.421,日照市,监测站,细颗粒物(PM2.5),74,83,61,54,36,34,,,,38,49,15,16,1.0,1
2026-01-09T0400,1660A,119.523,35.4216,日照市,市政府广场,细颗粒物(PM2.5),74,78,51,54,28,49,,,,33,40,14,15,0.7,0.6
2026-01-09T0400,1661A,119.5511,35.4113,日照市,港务局,细颗粒物(PM2.5),87,90,58,64,35,38,,,,43,42,13,14,0.9,0.8
2026-01-09T0400,3507A,119.5326,35.4627,日照市,职业技术学院,颗粒物(PM10),68,85,54,46,26,46,,,,39,41,12,14,1.0,0.9
2026-01-09T0400,3604A,119.3267,35.1043,日照市,岚山环保分局,细颗粒物(PM2.5),93,95,66,69,43,31,,,,54,49,12,22,0.9,1.4
2026-01-09T0400,1835A,111.1922,34.7752,三门峡市,市政府,,47,47,58,30,31,2,,,,50,44,13,14,0.7,0.7
2026-01-09T0400,1836A,111.1588,34.794,三门峡市,开发区,颗粒物(PM10),59,67,65,36,30,2,,,,48,35,8,8,0.9,0.5
2026-01-09T0400,3039A,111.1911,34.7829,三门峡市,三门峡市第一小学,颗粒物(PM10),53,55,65,29,27,2,,,,58,45,8,12,0.7,0.6
2026-01-09T0400,3598A,111.1031,34.719,三门峡市,富达温泉假日酒店,颗粒物(PM10),57,64,68,37,31,5,,,,62,36,11,13,0.9,0.8
2026-01-09T0400,2324A,117.621,26.2626,三明市,三钢,,40,36,39,28,27,21,,,,28,27,6,7,1.6,1.2
2026-01-09T0400,2325A,117.6352,26.2714,三明市,三明二中,,28,27,34,19,24,26,,,,17,22,5,5,0.6,0.8
2026-01-09T0400,2326A,117.6028,26.2377,三明市,三元区政府,,39,32,43,27,29,18,,,,26,29,7,7,0.7,0.9
2026-01-09T0400,1877A,109.4962,18.2682,三亚市,河西子站,,32,26,43,14,22,101,,,,5,12,7,7,0.5,0.6
2026-01-09T0400,3540A,109.7348,18.3443,三亚市,君悦子站,,35,33,43,24,24,64,,,,16,11,6,7,0.5,0.5
2026-01-09T0400,4135A,109.1714,18.3739,三亚市,城东小学站,,35,31,39,24,29,76,,,,8,11,/,/,/,/
2026-01-09T0400,2624A,91.7592,29.234,山南市,山南监测站,,31,31,57,13,21,38,,,,8,13,4,5,0.4,0.4
2026-01-09T0400,2625A,91.7701,29.2436,山南市,山南人民医院,,42,,45,29,13,37,,,,10,11,6,5,0.4,0.4
2026-01-09T0400,1674A,116.6795,23.3666,汕头市,金平子站,,43,40,42,30,24,82,,,,19,21,8,9,0.7,0.8
2026-01-09T0400,1675A,116.7248,23.3632,汕头市,龙湖子站,,42,42,39,24,23,77,,,,18,17,13,12,/,/
2026-01-09T0400,1676A,116.7257,23.2774,汕头市,濠江子站,,41,41,40,26,26,84,,,,16,18,9,10,/,/
2026-01-09T0400,1677A,116.7518,23.4712,汕头市,澄海子站,细颗粒物(PM2.5),57,48,44,40,25,74,,,,23,18,40,10,0.4,0.4
2026-01-09T0400,1678A,116.6088,23.2539,汕头市,潮阳子站,,36,36,40,20,19,93,,,,14,19,8,9,0.4,0.5
2026-01-09T0400,3444A,116.4539,23.2684,汕头市,潮南峡山,颗粒物(PM10),52,53,48,33,28,82,,,,16,19,10,11,0.7,0.6
2026-01-09T0400,3624A,116.4069,23.2533,汕头市,潮南子站,,,55,59,34,32,73,,,,,25,8,9,/,/
2026-01-09T0400,1693A,115.3653,22.7751,汕尾市,市环保局,,30,25,31,21,20,77,,,,12,14,8,8,0.4,0.4
2026-01-09T0400,1695A,115.362,22.7926,汕尾市,新城中学,,26,25,31,18,20,78,,,,10,16,6,6,0.5,0.5
2026-01-09T0400,2645A,109.9155,33.8714,商洛市,监测站,,30,30,37,16,22,22,,,,35,34,6,6,0.4,0.4
2026-01-09T0400,3045A,109.9647,33.8486,商洛市,商州区中学,,28,28,46,15,21,10,,,,42,39,5,7,0.6,0.6
2026-01-09T0400,2408A,115.6701,34.4283,商丘市,环境监测站,颗粒物(PM10),65,79,75,42,55,76,,,,14,30,4,6,0.2,0.3
2026-01-09T0400,2409A,115.6458,34.4047,商丘市,粮食局,细颗粒物(PM2.5),74,65,74,54,51,62,,,,14,25,5,7,0.2,0.3
2026-01-09T0400,3171A,115.6069,34.4465,商丘市,梁园区档案局,细颗粒物(PM2.5),67,77,77,48,54,61,,,,14,31,6,8,0.4,0.5
2026-01-09T0400,4119A,115.6701,34.3767,商丘市,北海东路185号,颗粒物(PM10),78,105,96,54,54,39,,,,32,35,3,5,0.5,0.6
2026-01-09T0400,4120A,115.6172,34.3704,商丘市,中山大街3号,细颗粒物(PM2.5),88,110,106,65,62,39,,,,24,33,4,6,0.4,0.5
2026-01-09T0400,1141A,121.401,31.2382,上海市,普陀,细颗粒物(PM2.5),75,78,97,55,71,45,,,,46,65,7,8,0.6,0.9
2026-01-09T0400,1142A,121.4774,31.2043,上海市,十五厂,细颗粒物(PM2.5),72,80,90,52,64,14,,,,78,58,7,9,0.8,1
2026-01-09T0400,1143A,121.4673,31.3011,上海市,虹口,细颗粒物(PM2.5),65,75,99,47,63,18,,,,53,59,7,9,0.6,0.8
2026-01-09T0400,1147A,121.4253,31.226,上海市,静安监测站,细颗粒物(PM2.5),72,74,92,52,65,50,,,,42,57,7,9,0.5,0.8
2026-01-09T0400,1148A,121.7029,31.1905,上海市,浦东川沙,细颗粒物(PM2.5),75,85,90,55,58,6,,,,74,61,7,8,0.8,0.8
2026-01-09T0400,1149A,121.5339,31.229,上海市,浦东新区监测站,细颗粒物(PM2.5),72,73,88,52,66,48,,,,49,60,7,8,0.7,0.9
2026-01-09T0400,1150A,121.5776,31.2038,上海市,浦东张江,细颗粒物(PM2.5),73,84,92,53,59,7,,,,76,59,7,8,0.7,0.7
2026-01-09T0400,3265A,121.4242,31.3303,上海市,宝山庙行,细颗粒物(PM2.5),74,83,98,54,71,21,,,,58,68,6,8,0.6,0.8
2026-01-09T0400,3266A,121.8789,31.4662,上海市,崇明上实东滩,,43,41,84,30,52,29,,,,8,18,4,5,0.5,0.7
2026-01-09T0400,3268A,121.316,31.2839,上海市,嘉定南翔,细颗粒物(PM2.5),87,86,100,64,73,2,,,,87,66,5,7,0.7,0.8
2026-01-09T0400,3269A,121.3357,30.7455,上海市,金山新城,细颗粒物(PM2.5),88,79,78,65,69,54,,,,24,48,9,11,0.4,0.6
2026-01-09T0400,3270A,121.4996,31.0741,上海市,闵行浦江,细颗粒物(PM2.5),77,83,92,56,63,2,,,,72,65,6,9,0.5,0.7
2026-01-09T0400,3271A,121.2886,31.1663,上海市,青浦徐泾,细颗粒物(PM2.5),77,88,98,56,63,0,,,,83,69,6,7,0.9,1
2026-01-09T0400,3272A,121.2193,31.0382,上海市,松江图书馆,细颗粒物(PM2.5),84,98,104,62,68,3,,,,94,81,6,8,0.6,0.8
2026-01-09T0400,3273A,121.3904,31.206,上海市,长宁仙霞,细颗粒物(PM2.5),67,74,89,48,62,42,,,,46,60,7,9,0.5,0.7
2026-01-09T0400,3274A,121.7964,31.0507,上海市,浦东惠南,细颗粒物(PM2.5),75,87,91,55,59,2,,,,71,58,6,6,0.8,0.9
2026-01-09T0400,3544A,121.4891,30.925,上海市,奉贤南桥新城,细颗粒物(PM2.5),79,91,94,58,67,67,,,,29,64,8,9,0.5,0.7
2026-01-09T0400,4183A,121.417401,31.16637,上海市,冠生园路458号,细颗粒物(PM2.5),79,74,86,58,65,8,,,,75,68,5,7,0.6,0.8
2026-01-09T0400,4205A,121.541914,31.268301,上海市,宁武路151号,细颗粒物(PM2.5),68,74,90,49,58,2,,,,90,66,5,6,0.6,0.8
2026-01-09T0400,2382A,117.9758,28.4439,上饶市,市监测站,"颗粒物(PM10),细颗粒物(PM2.5)",57,64,55,40,32,40,,,,34,25,22,19,/,/
2026-01-09T0400,2383A,117.9521,28.4637,上饶市,凤凰光学,颗粒物(PM10),52,53,58,32,31,8,,,,45,40,24,19,0.5,0.8
2026-01-09T0400,3685A,117.897,28.4316,上饶市,双创科技城,细颗粒物(PM2.5),63,67,62,45,40,17,,,,57,50,16,13,0.8,0.8
2026-01-09T0400,4211A,118.190438,28.444845,上饶市,裕丰大道,,46,43,55,32,34,39,,,,18,28,8,12,0.5,0.6
2026-01-09T0400,1669A,113.5821,24.7733,韶关市,市八中,,45,45,39,28,26,20,,,,41,33,14,10,0.6,0.5
2026-01-09T0400,1671A,113.5916,24.7973,韶关市,园林处,,39,36,32,27,27,8,,,,56,32,9,10,/,/
2026-01-09T0400,1673A,113.5971,24.6864,韶关市,曲江监测站,,43,43,49,22,30,20,,,,29,32,11,17,0.3,0.7
2026-01-09T0400,2809A,113.6668,24.7756,韶关市,大学路288号,,29,20,23,20,18,13,,,,20,18,3,6,/,/
2026-01-09T0400,3622A,113.5556,24.8082,韶关市,碧湖山庄,,50,50,44,32,29,28,,,,26,19,9,9,0.4,0.4
2026-01-09T0400,2464A,111.5277,27.2442,邵阳市,市化工厂,细颗粒物(PM2.5),88,92,78,65,55,7,,,,42,33,8,8,1.0,1
2026-01-09T0400,2466A,111.4327,27.2276,邵阳市,市环保局,细颗粒物(PM2.5),78,58,61,57,53,27,,,,22,25,5,10,1.1,1
2026-01-09T0400,4218A,111.446,27.2472,邵阳市,北塔二期4-26地块,,,,68,,58,,,82,,,23,,7,,1.0
2026-01-09T0400,4219A,111.4739,27.2282,邵阳市,邵水西路287号,细颗粒物(PM2.5),93,,67,69,57,15,,,,30,28,8,12,0.7,0.8
2026-01-09T0400,1247A,120.6053,29.9927,绍兴市,城东开发委,细颗粒物(PM2.5),78,80,73,57,48,20,,,,34,40,7,9,0.7,0.7
2026-01-09T0400,2921A,120.5482,30.0003,绍兴市,树下王站,细颗粒物(PM2.5),75,83,71,55,45,10,,,,50,45,6,8,0.8,0.8
2026-01-09T0400,3408A,120.5685,29.936,绍兴市,绍兴中专,细颗粒物(PM2.5),77,77,72,56,45,17,,,,40,40,6,8,0.4,0.5
2026-01-09T0400,3409A,120.4905,30.086,绍兴市,柯桥区政府,细颗粒物(PM2.5),99,95,70,74,50,0,,,,60,43,4,7,0.7,0.6
2026-01-09T0400,3410A,120.8751,30.0249,绍兴市,重华小学,细颗粒物(PM2.5),67,75,68,48,47,27,,,,40,40,7,7,0.7,0.8
2026-01-09T0400,3411A,120.837,30.0137,绍兴市,上虞中学,细颗粒物(PM2.5),73,68,68,53,49,9,,,,48,44,7,9,0.7,0.7
2026-01-09T0400,3560A,120.4715,30.0414,绍兴市,柯桥妇保,细颗粒物(PM2.5),82,82,69,60,44,12,,,,33,34,5,7,0.6,0.7
2026-01-09T0400,3658A,120.6156,30.0762,绍兴市,袍江中学,细颗粒物(PM2.5),84,82,80,62,56,18,,,,43,50,7,9,0.6,0.6
2026-01-09T0400,1356A,114.0948,22.5506,深圳市,通心岭子站,,35,35,36,17,18,58,,,,20,34,8,8,0.4,0.5
2026-01-09T0400,1357A,114.1153,22.5713,深圳市,洪湖,,43,43,44,18,19,75,,,,18,38,10,9,0.6,0.6
2026-01-09T0400,1358A,113.9823,22.5398,深圳市,华侨城,,31,31,32,18,16,68,,,,24,26,/,/,/,/
2026-01-09T0400,1359A,113.9181,22.517,深圳市,南海子站,,39,39,46,21,23,57,,,,26,32,7,6,0.5,0.6
2026-01-09T0400,1360A,114.2345,22.565,深圳市,盐田,,28,24,23,13,12,88,,,,7,12,8,8,0.5,0.5
2026-01-09T0400,1363A,114.4911,22.5381,深圳市,南澳,,18,13,18,9,12,56,,,,10,12,/,/,/,/
2026-01-09T0400,1364A,114.41,22.6346,深圳市,葵涌,,27,27,27,16,16,75,,,,14,19,9,9,0.5,0.5
2026-01-09T0400,1365A,114.2967,22.5978,深圳市,梅沙,,30,28,28,15,13,93,,,,12,14,/,/,/,/
2026-01-09T0400,1366A,114.0563,22.7353,深圳市,观澜,颗粒物(PM10),67,84,63,47,28,5,,,,63,44,6,7,0.6,0.5
2026-01-09T0400,3305A,114.0614,22.556,深圳市,莲花,,33,33,30,20,18,72,,,,22,25,/,/,/,/
2026-01-09T0400,3306A,114.0144,22.6163,深圳市,民治,,32,32,39,21,21,51,,,,37,39,/,/,/,/
2026-01-09T0400,3307A,114.1756,22.6421,深圳市,横岗,,41,41,38,23,22,69,,,,23,34,/,/,/,/
2026-01-09T0400,3447A,114.344,22.7115,深圳市,坪山,颗粒物(PM10),57,63,42,21,19,51,,,,36,39,11,10,0.6,0.6
2026-01-09T0400,3623A,113.8952,22.586,深圳市,西乡,,37,37,33,20,18,55,,,,34,26,7,6,0.5,0.5
2026-01-09T0400,4220A,114.214113,22.713717,深圳市,黄阁路,,35,35,27,21,17,54,,,,27,21,8,8,0.4,0.4
2026-01-09T0400,1099A,123.5058,41.7084,沈阳市,浑南东路,颗粒物(PM10),53,55,62,29,33,38,,,,32,41,11,11,0.7,0.9
2026-01-09T0400,1100A,123.4238,41.6992,沈阳市,新秀街,颗粒物(PM10),62,73,61,28,26,44,,,,28,32,14,11,1.0,1
2026-01-09T0400,1102A,123.5903,41.8412,沈阳市,东陵路,颗粒物(PM10),54,58,61,28,30,39,,,,29,34,8,8,1.3,0.8
2026-01-09T0400,1103A,123.4267,41.8466,沈阳市,陵东街,颗粒物(PM10),53,56,47,32,22,34,,,,31,30,24,17,0.9,0.8
2026-01-09T0400,1104A,123.4116,41.7654,沈阳市,文化路,颗粒物(PM10),58,65,54,33,24,51,,,,21,27,11,12,0.7,0.7
2026-01-09T0400,1105A,123.4673,41.787,沈阳市,小河沿,颗粒物(PM10),53,55,52,32,28,35,,,,40,34,16,17,0.8,0.8
2026-01-09T0400,1106A,123.4019,41.7978,沈阳市,太原街,颗粒物(PM10),59,68,51,39,29,40,,,,29,32,13,15,0.7,0.6
2026-01-09T0400,1108A,123.3778,41.9233,沈阳市,京沈街,细颗粒物(PM2.5),63,72,54,45,27,36,,,,34,34,12,11,0.9,0.7
