timepoint,stationcode,longitude,latitude,area,positionname,primarypollutant,aqi,pm10,pm10_24h,pm2_5,pm2_5_24h,o3,o3_24h,o3_8h,o3_8h_24h,no2,no2_24h,so2,so2_24h,co,co_24h
2023-09-06T00:00:00,1001A,116.3621,39.8784,北京市,万寿西宫,细颗粒物(PM2.5),103,103,109,77,91,189,98,183,159,31,20,2,2,0.9,1
2023-09-06T00:00:00,1002A,116.2202,40.2915,北京市,定陵,细颗粒物(PM2.5),95,95,84,71,67,210,85,178,123,7,10,3,3,0.9,0.9
2023-09-06T00:00:00,1003A,116.4174,39.9289,北京市,东四,细颗粒物(PM2.5),84,91,109,62,84,198,125,188,164,17,23,3,2,0.7,0.9
2023-09-06T00:00:00,1004A,116.4072,39.8863,北京市,天坛,细颗粒物(PM2.5),92,84,104,68,90,175,96,168,140,20,19,3,3,0.6,0.8
2023-09-06T00:00:00,1005A,116.462,39.9365,北京市,农展馆,细颗粒物(PM2.5),79,84,111,58,82,186,125,180,158,19,30,1,2,0.7,0.9
2023-09-06T00:00:00,1006A,116.3392,39.9295,北京市,官园,细颗粒物(PM2.5),99,92,90,74,91,205,125,197,176,21,21,3,3,0.7,0.8
2023-09-06T00:00:00,1007A,116.2878,39.9611,北京市,海淀万柳,细颗粒物(PM2.5),87,91,102,64,76,189,114,169,147,27,32,3,2,0.7,0.8
2023-09-06T00:00:00,1008A,116.6636,40.135,北京市,顺义新城,细颗粒物(PM2.5),102,101,98,76,69,197,72,174,118,15,15,3,3,1.0,0.9
2023-09-06T00:00:00,1009A,116.6275,40.3275,北京市,怀柔镇,细颗粒物(PM2.5),94,93,89,70,67,201,112,181,142,17,14,3,3,1.0,0.8
2023-09-06T00:00:00,1010A,116.2296,40.217,北京市,昌平镇,细颗粒物(PM2.5),92,93,77,68,72,220,115,200,158,12,15,3,3,0.9,0.9
2023-09-06T00:00:00,1011A,116.3966,39.9821,北京市,奥体中心,细颗粒物(PM2.5),95,91,87,71,76,174,107,165,152,21,30,3,3,0.7,0.9
2023-09-06T00:00:00,1012A,116.184,39.9136,北京市,古城,细颗粒物(PM2.5),94,130,92,70,78,194,68,179,128,37,27,3,3,0.9,0.9
2023-09-06T00:00:00,1015A,117.1444,39.1661,天津市,勤俭道,细颗粒物(PM2.5),103,108,85,77,69,246,121,219,156,17,23,7,9,0.8,1
2023-09-06T00:00:00,1017A,117.237,39.1082,天津市,大直沽八号路,细颗粒物(PM2.5),98,128,100,73,69,219,91,189,121,28,30,5,6,0.7,0.9
2023-09-06T00:00:00,1018A,117.202,39.0927,天津市,前进道,细颗粒物(PM2.5),104,112,87,78,57,212,74,187,126,30,25,5,6,0.8,1
2023-09-06T00:00:00,1019A,117.1837,39.2133,天津市,淮河道,细颗粒物(PM2.5),94,110,101,70,71,250,83,223,146,28,24,5,6,0.9,1
2023-09-06T00:00:00,1021A,117.307,39.0877,天津市,跃进路,细颗粒物(PM2.5),97,104,82,72,58,217,63,190,126,42,33,6,8,0.9,1.1
2023-09-06T00:00:00,1023A,117.707,39.0343,天津市,第四大街,颗粒物(PM10),57,63,60,39,38,151,90,138,103,38,36,5,5,0.6,0.6
2023-09-06T00:00:00,1024A,117.457,38.8394,天津市,永明路,细颗粒物(PM2.5),65,61,61,47,44,176,98,166,133,25,14,6,6,0.6,0.6
2023-09-06T00:00:00,1026A,117.764,39.1587,天津市,汉北路,细颗粒物(PM2.5),54,54,52,38,35,195,106,173,134,18,12,6,6,0.5,0.6
2023-09-06T00:00:00,1027A,117.157,38.9194,天津市,团泊洼,细颗粒物(PM2.5),84,85,76,62,55,195,99,177,129,19,25,3,4,0.7,0.8
2023-09-06T00:00:00,1029A,114.4422,38.0444,石家庄市,职工医院,颗粒物(PM10),77,104,95,54,55,207,35,196,138,90,32,1,2,0.6,0.7
2023-09-06T00:00:00,1030A,114.6063,38.0266,石家庄市,高新区,颗粒物(PM10),67,84,88,47,52,208,78,194,142,45,35,1,2,0.6,0.7
2023-09-06T00:00:00,1031A,114.4898,38.1328,石家庄市,西北水源,颗粒物(PM10),79,107,99,54,55,190,37,181,126,64,29,3,3,0.7,0.8
2023-09-06T00:00:00,1032A,114.4586,38.0058,石家庄市,西南高教,细颗粒物(PM2.5),74,88,83,54,53,213,71,199,136,38,23,3,1,0.6,0.7
2023-09-06T00:00:00,1033A,114.5331,38.0178,石家庄市,世纪公园,颗粒物(PM10),66,82,82,42,44,188,81,176,137,28,23,1,2,0.7,0.8
2023-09-06T00:00:00,1034A,114.509,38.0457,石家庄市,人民会堂,细颗粒物(PM2.5),67,73,81,48,54,199,114,190,158,25,25,4,4,0.6,0.7
2023-09-06T00:00:00,1035A,114.3524,37.8911,石家庄市,封龙山,臭氧1小时,69,74,79,32,42,203,175,183,179,8,10,2,4,0.9,0.9
2023-09-06T00:00:00,1037A,118.131,39.6363,唐山市,雷达站,颗粒物(PM10),64,77,94,35,61,213,94,193,137,20,20,4,6,0.5,1.2
2023-09-06T00:00:00,1038A,118.1725,39.6334,唐山市,物资局,颗粒物(PM10),73,96,95,46,57,203,77,184,124,27,25,5,8,1.1,1.4
2023-09-06T00:00:00,1040A,118.1705,39.6506,唐山市,十二中,细颗粒物(PM2.5),62,71,84,44,60,203,73,186,123,26,27,3,6,1.1,1.3
2023-09-06T00:00:00,1041A,118.1869,39.622,唐山市,小山,颗粒物(PM10),76,102,102,44,62,208,67,188,118,32,27,3,6,0.5,1
2023-09-06T00:00:00,1042A,119.5134,39.8207,秦皇岛市,北戴河环保局,细颗粒物(PM2.5),60,65,72,43,50,175,76,153,121,26,24,8,9,0.3,0.3
2023-09-06T00:00:00,1043A,119.7493,40.0116,秦皇岛市,第一关,细颗粒物(PM2.5),70,76,82,51,59,157,13,134,63,81,46,8,8,0.5,0.5
2023-09-06T00:00:00,1044A,119.5897,39.9499,秦皇岛市,监测站,细颗粒物(PM2.5),80,92,87,59,64,148,11,130,84,90,40,6,6,0.7,0.7
2023-09-06T00:00:00,1046A,119.5251,39.9041,秦皇岛市,建设大厦,颗粒物(PM10),70,89,87,35,38,172,0,154,79,80,40,2,4,0.4,0.5
2023-09-06T00:00:00,1048A,114.5302,36.6116,邯郸市,东污水处理厂,细颗粒物(PM2.5),89,78,71,66,60,175,89,171,131,28,32,4,6,0.7,0.8
2023-09-06T00:00:00,1049A,114.4918,36.5713,邯郸市,矿院,细颗粒物(PM2.5),79,61,61,58,58,183,106,174,139,27,32,1,3,0.7,0.8
2023-09-06T00:00:00,1050A,114.484,36.6133,邯郸市,丛台公园,细颗粒物(PM2.5),74,87,77,54,50,181,74,176,143,24,18,4,6,0.5,0.7
2023-09-06T00:00:00,1051A,115.493,38.8632,保定市,游泳馆,细颗粒物(PM2.5),82,90,86,60,56,213,88,198,142,51,24,5,6,0.7,0.6
2023-09-06T00:00:00,1052A,115.5213,38.8959,保定市,华电二区,细颗粒物(PM2.5),74,69,74,54,49,196,110,190,152,24,14,6,5,0.9,0.8
2023-09-06T00:00:00,1053A,115.4713,38.9108,保定市,接待中心,颗粒物(PM10),79,107,86,53,53,197,64,187,141,39,16,7,7,0.6,0.6
2023-09-06T00:00:00,1054A,115.4612,38.8416,保定市,地表水厂,颗粒物(PM10),105,159,102,55,45,195,12,187,104,101,32,9,9,0.8,0.7
2023-09-06T00:00:00,1056A,115.5086,38.8639,保定市,监测站,细颗粒物(PM2.5),87,90,77,64,56,212,106,198,161,38,20,10,7,0.6,0.5
2023-09-06T00:00:00,1057A,114.8883,40.8336,张家口市,人民公园,,31,31,38,5,16,179,66,162,116,8,9,2,3,0.3,0.3
2023-09-06T00:00:00,1059A,114.8687,40.8042,张家口市,五金库,,42,42,50,25,28,187,77,168,123,8,11,1,2,0.4,0.5
2023-09-06T00:00:00,1060A,114.8902,40.762,张家口市,世纪豪园,细颗粒物(PM2.5),62,68,51,44,33,184,97,163,132,18,13,2,3,0.5,0.4
2023-09-06T00:00:00,1061A,114.8916,40.8661,张家口市,北泵房,,31,31,34,13,18,191,65,170,112,8,8,5,6,0.3,0.4
2023-09-06T00:00:00,1062A,117.9531,40.9081,承德市,铁路,细颗粒物(PM2.5),85,100,80,63,54,161,60,148,101,25,24,7,8,1.2,1
2023-09-06T00:00:00,1063A,117.9392,40.9763,承德市,中国银行,细颗粒物(PM2.5),90,97,74,67,48,169,56,157,111,23,19,8,10,0.9,0.9
2023-09-06T00:00:00,1064A,117.9503,40.928,承德市,开发区,细颗粒物(PM2.5),70,72,66,51,45,173,76,150,122,26,24,5,6,1.1,1
2023-09-06T00:00:00,1065A,117.8051,40.9655,承德市,文化中心,细颗粒物(PM2.5),84,98,82,62,50,164,69,157,106,36,28,4,14,0.8,0.8
2023-09-06T00:00:00,1066A,117.9268,41.0026,承德市,离宫,细颗粒物(PM2.5),69,86,71,50,34,168,53,156,104,17,13,1,2,0.6,0.7
2023-09-06T00:00:00,1067A,116.6708,39.5111,廊坊市,药材公司,细颗粒物(PM2.5),92,96,102,68,79,204,102,191,155,15,21,5,2,0.5,0.7
2023-09-06T00:00:00,1068A,116.7214,39.5589,廊坊市,开发区,细颗粒物(PM2.5),72,84,106,52,71,192,120,177,147,14,20,3,2,0.7,0.8
2023-09-06T00:00:00,1070A,116.7244,39.5269,廊坊市,北华航天学院,颗粒物(PM10),74,98,112,52,67,203,116,186,153,16,23,10,4,0.7,0.9
2023-09-06T00:00:00,1071A,116.8842,38.2991,沧州市,沧县城建局,细颗粒物(PM2.5),67,72,79,48,50,216,93,200,142,27,25,3,6,0.6,0.7
2023-09-06T00:00:00,1072A,116.8584,38.3254,沧州市,电视转播站,细颗粒物(PM2.5),83,71,79,61,58,224,115,206,156,16,20,6,9,0.5,0.6
2023-09-06T00:00:00,1073A,116.8709,38.3228,沧州市,市环保局,细颗粒物(PM2.5),65,69,82,47,51,220,111,198,145,15,21,1,4,0.4,0.5
2023-09-06T00:00:00,1074A,115.6838,37.7541,衡水市,电机北厂,细颗粒物(PM2.5),97,100,86,72,56,191,94,183,137,27,26,6,5,0.7,0.7
2023-09-06T00:00:00,1075A,115.6303,37.7316,衡水市,市监测站,细颗粒物(PM2.5),72,82,73,52,45,193,135,184,158,20,24,4,3,0.7,0.7
2023-09-06T00:00:00,1077A,114.4704,37.0886,邢台市,达活泉,颗粒物(PM10),68,86,94,45,46,197,107,187,138,15,13,1,2,0.5,0.7
2023-09-06T00:00:00,1078A,114.5062,37.0349,邢台市,邢师高专,细颗粒物(PM2.5),82,97,91,60,55,185,14,172,109,66,29,4,4,0.8,0.7
2023-09-06T00:00:00,1079A,114.5237,37.0851,邢台市,路桥公司,细颗粒物(PM2.5),69,79,83,50,52,190,102,175,114,20,20,7,7,0.7,0.9
2023-09-06T00:00:00,1080A,114.4725,37.0719,邢台市,市环保局,细颗粒物(PM2.5),73,78,87,53,51,189,108,178,138,13,13,4,5,0.6,0.8
2023-09-06T00:00:00,1081A,112.522,37.8873,太原市,尖草坪,细颗粒物(PM2.5),80,82,72,59,48,181,148,168,154,15,21,5,7,0.8,0.9
2023-09-06T00:00:00,1083A,112.434,38.0108,太原市,上兰,,,,,,,,,,,,,,,,
2023-09-06T00:00:00,1084A,112.469,37.7124,太原市,晋源,细颗粒物(PM2.5),97,84,66,72,46,172,130,159,145,22,23,7,5,0.9,0.9
2023-09-06T00:00:00,1085A,112.5583,37.7394,太原市,小店,颗粒物(PM10),93,136,93,67,48,172,127,159,144,21,25,4,5,0.8,0.9
2023-09-06T00:00:00,1086A,112.5369,37.8692,太原市,桃园,细颗粒物(PM2.5),74,82,75,54,43,171,152,161,152,11,27,3,6,0.7,1
2023-09-06T00:00:00,1087A,112.57,37.8195,太原市,坞城,细颗粒物(PM2.5),73,70,69,53,47,173,150,162,158,15,25,6,10,0.7,1
2023-09-06T00:00:00,1088A,112.549,37.9854,太原市,南寨,细颗粒物(PM2.5),74,72,66,54,41,169,115,162,142,18,23,5,5,0.5,0.5
2023-09-06T00:00:00,1090A,111.6507,40.7517,呼和浩特市,呼市一监,,44,44,36,24,18,153,83,137,98,22,24,7,7,0.5,0.5
2023-09-06T00:00:00,1091A,111.6572,40.8033,呼和浩特市,小召,,39,39,36,19,15,142,84,136,121,26,30,7,7,0.4,0.5
2023-09-06T00:00:00,1094A,111.7516,40.8369,呼和浩特市,如意水处理厂,,46,46,39,17,13,147,62,136,103,45,26,8,9,0.4,0.4
2023-09-06T00:00:00,1095A,111.7276,40.8062,呼和浩特市,二十九中,,42,42,37,18,15,149,85,140,116,22,25,9,8,0.6,0.6
2023-09-06T00:00:00,1096A,111.5512,40.7866,呼和浩特市,工大金川校区,,46,46,43,20,15,152,104,138,107,12,25,6,6,0.4,0.5
2023-09-06T00:00:00,1097A,111.717,40.7612,呼和浩特市,化肥厂生活区,,48,48,42,17,14,148,84,138,105,20,23,8,9,0.4,0.4
2023-09-06T00:00:00,1098A,123.6836,41.9339,沈阳市,森林路,,,,,,,,,,,,,,,,
2023-09-06T00:00:00,1099A,123.505,41.7406,沈阳市,浑南东路,,32,32,41,14,24,118,29,100,58,42,26,10,7,0.8,0.9
2023-09-06T00:00:00,1100A,123.4231,41.6989,沈阳市,新秀街,,23,22,40,12,21,129,32,106,72,45,25,12,8,0.7,0.8
2023-09-06T00:00:00,1102A,123.5903,41.8411,沈阳市,东陵路,,20,20,35,10,19,108,28,89,45,17,18,6,6,0.4,0.6
2023-09-06T00:00:00,1103A,123.4264,41.8467,沈阳市,陵东街,,25,25,29,10,17,138,5,108,48,33,21,6,6,0.6,0.6
2023-09-06T00:00:00,1104A,123.4114,41.7653,沈阳市,文化路,,22,22,34,12,22,136,43,109,69,37,24,8,6,0.5,0.6
2023-09-06T00:00:00,1105A,123.4678,41.7867,沈阳市,小河沿,,25,25,36,9,18,125,32,102,65,46,26,6,6,0.7,0.8
2023-09-06T00:00:00,1106A,123.4017,41.7972,沈阳市,太原街,,33,33,35,14,20,133,13,106,53,51,24,8,7,0.7,0.6
2023-09-06T00:00:00,1108A,123.3783,41.9228,沈阳市,京沈街,,28,28,28,14,21,134,19,111,63,21,9,10,9,0.6,0.6
2023-09-06T00:00:00,1109A,121.612,38.9741,大连市,甘井子,细颗粒物(PM2.5),59,49,68,42,40,179,104,170,128,13,20,5,6,0.8,0.5
2023-09-06T00:00:00,1110A,121.565,38.9511,大连市,周水子,,45,39,51,31,39,185,99,167,121,18,28,6,6,0.7,0.7
2023-09-06T00:00:00,1111A,121.5637,38.8845,大连市,星海三站,,45,39,58,31,43,250,111,201,134,9,19,7,9,0.5,0.6
2023-09-06T00:00:00,1112A,121.6302,38.9117,大连市,青泥洼桥,细颗粒物(PM2.5),52,49,59,36,42,194,90,172,118,23,35,7,8,0.8,0.9
2023-09-06T00:00:00,1113A,121.6251,38.8638,大连市,傅家庄,,48,42,56,33,42,255,106,212,135,18,28,10,11,0.6,0.7
2023-09-06T00:00:00,1114A,121.5213,38.8661,大连市,七贤岭,,43,39,48,30,36,213,122,195,149,7,13,6,7,0.6,0.7
2023-09-06T00:00:00,1115A,121.2529,38.8061,大连市,旅顺,,39,24,45,19,34,197,123,180,145,10,14,5,6,0.6,0.8
2023-09-06T00:00:00,1116A,121.7485,39.1311,大连市,金州,细颗粒物(PM2.5),55,49,51,39,37,184,90,167,124,15,16,9,10,0.5,0.6
2023-09-06T00:00:00,1117A,121.7811,39.0496,大连市,开发区,细颗粒物(PM2.5),62,56,56,44,45,176,95,165,127,18,29,12,10,0.8,0.8
2023-09-06T00:00:00,1118A,121.9762,39.0631,大连市,双D港,细颗粒物(PM2.5),69,60,57,50,42,223,120,191,148,16,14,10,10,0.8,0.8
2023-09-06T00:00:00,1119A,125.3325,43.9166,长春市,食品厂,,34,34,25,15,11,70,11,66,35,53,21,24,6,0.5,0.4
2023-09-06T00:00:00,1120A,125.2863,43.9027,长春市,客车厂,,40,40,23,16,11,70,10,64,30,58,23,6,5,0.6,0.5
2023-09-06T00:00:00,1121A,125.2841,43.8463,长春市,邮电学院,,31,31,27,3,9,78,5,72,40,45,14,5,5,0.4,0.3
2023-09-06T00:00:00,1122A,125.3716,43.8772,长春市,劳动公园,,36,36,26,7,7,78,6,70,35,56,22,9,7,0.5,0.4
2023-09-06T00:00:00,1123A,125.3297,43.8805,长春市,园林处,,38,38,23,11,8,74,18,68,52,52,20,8,6,0.5,0.4
2023-09-06T00:00:00,1124A,125.4605,43.79,长春市,净月潭,,12,12,13,1,5,86,22,75,49,13,8,6,6,0.3,0.3
2023-09-06T00:00:00,1125A,125.7194,43.515,长春市,甩湾子,,,,,,,,,,,,,,,,
2023-09-06T00:00:00,1126A,125.3863,43.8447,长春市,经开区环卫处,,35,35,25,10,7,80,1,70,27,48,21,5,5,0.4,0.4
2023-09-06T00:00:00,1127A,125.245,43.7783,长春市,高新区管委会,颗粒物(PM10),56,62,28,7,10,77,2,70,27,51,25,6,5,0.5,0.4
2023-09-06T00:00:00,1128A,125.1761,43.8325,长春市,岱山公园,颗粒物(PM10),54,57,29,10,9,70,5,62,20,60,27,4,4,0.7,0.5
2023-09-06T00:00:00,1129A,126.5422,45.755,哈尔滨市,岭北,,16,16,9,11,6,75,27,67,44,30,10,13,10,0,0
2023-09-06T00:00:00,1130A,126.561,45.8167,哈尔滨市,松北商大,,21,21,16,14,7,65,8,58,20,37,16,6,6,0.5,0.4
2023-09-06T00:00:00,1131A,126.979,45.5419,哈尔滨市,阿城会宁,,37,37,25,19,9,69,5,64,28,30,14,5,8,0.6,0.7
2023-09-06T00:00:00,1132A,126.599,45.7222,哈尔滨市,南岗学府路,颗粒物(PM10),67,84,29,31,9,70,1,64,27,56,17,8,6,0.9,0.5
2023-09-06T00:00:00,1133A,126.689,45.7733,哈尔滨市,太平宏伟公园,颗粒物(PM10),79,108,26,22,10,68,5,60,28,55,17,5,5,0.6,0.4
2023-09-06T00:00:00,1134A,126.635,45.7667,哈尔滨市,道外承德广场,,50,50,20,17,7,70,5,62,33,61,17,6,7,0.5,0.6
2023-09-06T00:00:00,1135A,126.685,45.7319,哈尔滨市,香坊红旗大街,颗粒物(PM10),61,71,29,29,10,70,7,65,31,61,21,7,2,0.9,0.7
2023-09-06T00:00:00,1136A,126.6411,45.7258,哈尔滨市,动力和平路,,,53,23,,2,71,3,64,28,63,22,13,7,0.6,0.4
2023-09-06T00:00:00,1137A,126.593,45.7478,哈尔滨市,道里建国路,颗粒物(PM10),60,70,21,12,7,71,5,62,27,54,19,6,3,1.6,0.5
2023-09-06T00:00:00,1138A,126.615,45.61,哈尔滨市,平房东轻厂,,45,45,25,12,7,72,14,62,22,40,20,6,6,0.5,0.3
2023-09-06T00:00:00,1139A,126.595,45.9855,哈尔滨市,呼兰师专,,27,27,15,13,4,53,11,49,40,47,14,6,6,0.6,0.4
2023-09-06T00:00:00,1140A,126.6206,45.6842,哈尔滨市,省农科院,颗粒物(PM10),72,93,35,24,9,75,7,69,30,68,23,9,6,0.8,0.5
2023-09-06T00:00:00,1141A,121.4,31.238,上海市,普陀,,31,31,28,16,12,75,30,57,39,16,16,9,6,0.5,0.5
2023-09-06T00:00:00,1142A,121.478,31.2036,上海市,十五厂,,28,28,31,17,16,82,36,61,39,18,21,11,11,0.7,0.7
2023-09-06T00:00:00,1143A,121.467,31.3008,上海市,虹口,,33,28,27,23,16,72,26,56,35,28,26,7,7,0.2,0.3
2023-09-06T00:00:00,1144A,121.412,31.1654,上海市,徐汇上师大,,29,29,25,16,16,85,31,62,38,24,22,7,6,0.4,0.4
2023-09-06T00:00:00,1145A,121.536,31.2659,上海市,杨浦四漂,,31,31,29,16,15,76,25,63,38,24,21,6,6,0.4,0.5
2023-09-06T00:00:00,1147A,121.425,31.2261,上海市,静安监测站,,28,28,25,17,15,82,35,62,44,19,20,3,3,0.7,0.7
2023-09-06T00:00:00,1148A,121.703,31.1907,上海市,浦东川沙,,26,26,25,15,14,83,45,73,54,7,10,6,6,0.5,0.5
2023-09-06T00:00:00,1149A,121.533,31.2284,上海市,浦东新区监测站,,28,28,25,15,13,75,28,57,37,19,17,6,6,0.4,0.4
2023-09-06T00:00:00,1150A,121.577,31.2071,上海市,浦东张江,,33,32,26,23,20,70,35,60,42,15,17,6,6,0.5,0.5
2023-09-06T00:00:00,1151A,118.8086,32.1065,南京市,迈皋桥,,24,24,26,12,11,90,11,74,42,29,17,4,4,0.3,0.2
2023-09-06T00:00:00,1152A,118.7538,32.0551,南京市,草场门,,26,26,27,5,12,101,6,79,46,37,21,4,3,0.5,0.5
2023-09-06T00:00:00,1153A,118.7794,32.0745,南京市,山西路,,31,31,33,12,12,103,5,79,45,30,16,4,4,0.2,0.3
2023-09-06T00:00:00,1154A,118.7752,32.0023,南京市,中华门,,22,22,27,7,12,99,15,78,47,23,17,3,3,0.6,0.7
2023-09-06T00:00:00,1155A,118.8109,32.0309,南京市,瑞金路,,27,27,26,12,12,97,20,76,46,14,10,11,12,0.2,0.2
2023-09-06T00:00:00,1156A,118.7997,32.0754,南京市,玄武湖,,27,27,28,8,10,87,1,73,42,39,18,6,5,0.5,0.6
2023-09-06T00:00:00,1157A,118.6414,32.0931,南京市,浦口,,28,28,27,8,11,91,25,81,56,18,15,5,6,0.1,0.3
2023-09-06T00:00:00,1158A,118.7356,31.9996,南京市,奥体中心,,34,34,28,19,17,102,22,84,54,23,17,7,6,0.4,0.4
2023-09-06T00:00:00,1159A,118.9125,32.1028,南京市,仙林大学城,,36,36,25,12,13,93,14,78,44,26,17,9,9,0.6,0.5
2023-09-06T00:00:00,1160A,120.561,31.2472,苏州市,上方山,,26,26,30,17,17,54,21,44,38,16,15,8,7,0.3,0.3
2023-09-06T00:00:00,1162A,120.591,31.3019,苏州市,彩香,,30,30,29,18,16,73,18,58,48,18,11,8,7,0.5,0.5
2023-09-06T00:00:00,1163A,120.596,31.3264,苏州市,轧钢厂,,37,37,32,18,16,77,20,61,48,17,12,10,9,0.6,0.6
2023-09-06T00:00:00,1164A,120.613,31.2703,苏州市,吴中区,,35,35,36,16,15,66,23,49,39,19,19,8,8,0.5,0.5
2023-09-06T00:00:00,1165A,120.543,31.2994,苏州市,苏州新区,,,,,,,,,,,,,,,,
2023-09-06T00:00:00,1166A,120.669,31.3097,苏州市,苏州工业园区,,26,26,28,15,16,70,24,55,45,19,18,9,8,0.5,0.5
2023-09-06T00:00:00,1167A,120.641,31.3708,苏州市,相城区,,26,25,25,18,16,73,20,58,46,15,13,10,9,0.6,0.6
2023-09-06T00:00:00,1168A,120.9098,31.9663,南通市,狼山街道,,23,23,19,15,7,85,18,72,45,26,14,9,8,0.3,0.5
2023-09-06T00:00:00,1169A,120.86,32.0005,南通市,虹桥,,23,23,20,16,13,72,34,64,47,11,12,7,6,0.4,0.4
2023-09-06T00:00:00,1170A,120.87,32.02,南通市,城中,,20,20,17,14,9,69,32,61,46,15,10,8,7,0.4,0.4
2023-09-06T00:00:00,1171A,120.94,31.93,南通市,星湖花园,,19,19,17,10,7,83,35,67,46,9,10,8,7,0.4,0.5
2023-09-06T00:00:00,1172A,120.81,32.0417,南通市,紫琅学院,,17,17,15,10,6,72,25,62,40,19,12,7,6,0.4,0.4
2023-09-06T00:00:00,1173A,119.176,34.5885,连云港市,市环境监测站,,24,24,27,14,12,119,48,103,78,15,14,7,7,0.3,0.3
2023-09-06T00:00:00,1177A,117.179,34.2761,徐州市,黄河新村,,31,31,58,20,29,170,94,157,117,16,29,9,12,0.3,0.5
2023-09-06T00:00:00,1178A,117.1918,34.2384,徐州市,淮塔,,48,48,54,32,28,174,68,158,114,26,24,9,12,0.3,0.3
2023-09-06T00:00:00,1180A,117.256,34.2153,徐州市,新城区,,48,48,58,25,28,171,69,151,111,20,24,6,9,0.5,0.5
2023-09-06T00:00:00,1181A,117.244,34.2911,徐州市,桃园路,颗粒物(PM10),53,56,68,27,33,163,59,152,94,32,30,10,12,0.6,0.7
2023-09-06T00:00:00,1182A,117.2933,34.2778,徐州市,农科院,颗粒物(PM10),54,58,53,25,33,166,37,149,76,54,40,9,11,0.4,0.4
2023-09-06T00:00:00,1186A,119.389,32.3761,扬州市,邗江监测站,,22,22,24,12,12,65,28,59,48,12,11,6,9,0.3,0.4
2023-09-06T00:00:00,1188A,120.269,31.4867,无锡市,雪浪,,27,27,29,17,13,85,20,67,51,26,18,7,6,0.6,0.5
2023-09-06T00:00:00,1189A,120.275,31.6219,无锡市,黄巷,,27,27,27,14,14,89,26,71,50,21,21,7,6,0.7,0.7
2023-09-06T00:00:00,1190A,120.294,31.56,无锡市,曹张,,35,35,29,22,14,81,19,67,49,25,17,10,8,0.8,0.6
2023-09-06T00:00:00,1191A,120.242,31.5031,无锡市,漆塘,,,,26,,13,86,,72,58,24,22,9,7,,0.6
2023-09-06T00:00:00,1192A,120.3489,31.5863,无锡市,东亭,,31,31,26,17,16,85,21,67,48,28,23,6,6,0.6,0.5
2023-09-06T00:00:00,1193A,120.354,31.5475,无锡市,旺庄,,32,31,29,22,17,94,22,72,50,19,15,13,10,1.0,0.8
2023-09-06T00:00:00,1194A,120.245,31.5631,无锡市,荣巷,,28,24,23,19,12,83,27,69,54,14,12,12,10,0.8,0.5
2023-09-06T00:00:00,1195A,120.299,31.6817,无锡市,堰桥,,29,29,24,12,12,90,17,76,51,21,14,5,6,0.5,0.5
2023-09-06T00:00:00,1196A,119.9633,31.762,常州市,市监测站,,26,25,34,18,17,114,16,88,62,39,22,9,9,0.5,0.5
2023-09-06T00:00:00,1200A,119.9468,31.7069,常州市,武进监测站,,38,38,32,19,16,109,25,96,68,22,16,7,7,0.7,0.8
2023-09-06T00:00:00,1201A,119.9255,31.9087,常州市,安家,,28,28,28,13,17,87,20,79,50,22,16,8,8,0.5,0.6
2023-09-06T00:00:00,1203A,119.6707,32.1875,镇江市,新区办事处,,25,24,22,17,14,69,23,56,38,22,15,7,6,0.2,0.5
2023-09-06T00:00:00,1204A,119.4974,32.1968,镇江市,职教中心,,32,32,26,15,14,79,19,66,36,25,16,2,3,0.6,0.7
2023-09-06T00:00:00,1205A,119.4303,32.1328,镇江市,丹徒区监测站,,30,26,27,21,17,84,19,70,41,23,14,3,2,0.4,0.6
2023-09-06T00:00:00,1206A,119.905,32.4878,泰州市,公园路,,25,12,17,17,13,62,38,50,42,9,9,6,6,0.5,0.5
2023-09-06T00:00:00,1207A,119.9189,32.4625,泰州市,莲花,,20,17,17,14,10,63,42,52,44,9,8,4,4,0.4,0.4
2023-09-06T00:00:00,1209A,119.888,32.4639,泰州市,留学生创业园,,34,34,23,18,11,66,45,53,46,8,9,6,6,0.4,0.4
2023-09-06T00:00:00,1210A,119.036,33.5981,淮安市,钵池山,,31,31,23,17,18,75,23,65,49,19,8,8,8,0.7,0.7
2023-09-06T00:00:00,1211A,119.007,33.575,淮安市,北京南路,,24,24,22,16,14,79,37,66,51,20,13,8,7,0.4,0.5
2023-09-06T00:00:00,1212A,118.989,33.6067,淮安市,市监测站,,31,31,29,14,15,79,39,70,57,20,14,6,6,0.4,0.5
2023-09-06T00:00:00,1213A,119.135,33.5039,淮安市,楚州区监测站,,22,22,21,14,12,62,30,58,46,19,10,10,8,0.5,0.6
2023-09-06T00:00:00,1214A,119.0186,33.6297,淮安市,淮阴区监测站,,31,31,29,15,18,77,29,67,49,26,15,6,6,0.5,0.5
2023-09-06T00:00:00,1215A,120.118,33.4022,盐城市,盐城电厂,,19,19,14,9,6,65,44,60,50,7,5,7,6,0.3,0.3
2023-09-06T00:00:00,1216A,120.156,33.3942,盐城市,市监测站,,23,17,11,16,10,68,40,64,51,12,7,6,5,0.1,0.1
2023-09-06T00:00:00,1218A,120.2144,33.38,盐城市,开发区管委会,,26,18,8,18,6,68,42,63,53,10,7,8,8,0.4,0.4
2023-09-06T00:00:00,1220A,118.293,33.9528,宿迁市,宿迁学院,,,,29,,23,113,,105,90,,15,,9,,0.4
2023-09-06T00:00:00,1221A,118.2442,33.9592,宿迁市,宿迁中学,,24,24,27,14,20,110,58,100,88,19,16,6,6,0.5,0.5
2023-09-06T00:00:00,1223A,120.2072,30.2111,杭州市,滨江,,30,30,26,14,13,98,49,84,62,12,13,7,7,0.6,0.6
2023-09-06T00:00:00,1224A,120.0633,30.2747,杭州市,西溪,,35,35,26,20,16,86,3,64,25,38,20,3,3,0.9,0.7
2023-09-06T00:00:00,1226A,120.3461,30.3153,杭州市,下沙,,32,32,28,18,14,100,28,82,52,25,18,3,3,0.5,0.4
2023-09-06T00:00:00,1227A,120.1269,30.2456,杭州市,卧龙桥,,28,28,25,18,16,110,8,84,26,21,19,3,4,0.7,0.6
2023-09-06T00:00:00,1228A,120.1903,30.2692,杭州市,浙江农大,,23,23,25,13,15,92,53,80,46,11,22,7,8,0.5,0.5
2023-09-06T00:00:00,1230A,120.1197,30.3119,杭州市,和睦小学,,39,39,30,20,16,97,23,73,31,40,30,7,8,0.7,0.7
2023-09-06T00:00:00,1231A,120.3019,30.4183,杭州市,临平镇,,31,31,34,10,15,100,20,84,39,27,20,4,5,0.4,0.5
2023-09-06T00:00:00,1232A,120.2697,30.1819,杭州市,城厢镇,,31,31,26,20,16,84,37,71,45,24,21,6,7,0.5,0.4
2023-09-06T00:00:00,1233A,120.0883,30.1808,杭州市,云栖,,32,32,26,14,13,103,12,66,25,17,14,6,7,0.6,0.5
2023-09-06T00:00:00,1234A,121.8358,29.911,宁波市,区环保大楼,,25,24,20,17,14,76,53,66,45,26,25,5,5,0.4,0.4
2023-09-06T00:00:00,1235A,121.56,29.82,宁波市,万里学院,颗粒物(PM10),55,59,31,23,18,83,1,62,19,49,31,5,5,0.6,0.7
2023-09-06T00:00:00,1236A,121.713,29.9572,宁波市,龙赛医院,,38,38,31,12,9,80,59,73,60,16,19,7,8,0.4,0.5
2023-09-06T00:00:00,1239A,121.633,29.7733,宁波市,钱湖水厂,,37,37,32,17,16,83,3,61,23,17,19,5,6,0.6,0.6
2023-09-06T00:00:00,1240A,121.5856,29.8635,宁波市,太古小学,,28,28,25,16,13,78,51,67,50,19,28,5,5,0.6,0.7
2023-09-06T00:00:00,1241A,121.524,29.8674,宁波市,市环境监测中心,,35,35,29,18,13,97,63,78,62,9,17,8,9,0.3,0.4
2023-09-06T00:00:00,1242A,120.634,28.0089,温州市,瓯海,颗粒物(PM10),53,55,31,29,18,78,2,54,5,46,28,8,7,0.6,0.5
2023-09-06T00:00:00,1243A,120.6748,27.9939,温州市,南浦,,39,39,25,21,12,78,4,59,38,42,17,6,5,0.6,0.4
2023-09-06T00:00:00,1244A,120.76,27.9747,温州市,龙湾,,47,47,28,23,12,68,4,56,21,50,26,8,7,0.6,0.5
2023-09-06T00:00:00,1245A,120.6709,28.0167,温州市,市站,颗粒物(PM10),52,54,28,35,16,73,3,51,21,44,23,7,6,0.6,0.5
2023-09-06T00:00:00,1247A,120.6053,29.9928,绍兴市,城东开发委,,47,47,27,26,15,71,33,63,36,20,18,9,8,0.5,0.4
2023-09-06T00:00:00,1250A,120.0751,30.8669,湖州市,城西水厂,,43,43,33,25,18,63,29,55,37,27,26,5,3,0.6,0.5
2023-09-06T00:00:00,1252A,120.7436,30.778,嘉兴市,清河小学,,38,38,33,17,14,100,20,68,31,41,26,6,6,0.5,0.5
2023-09-06T00:00:00,1253A,120.726,30.7478,嘉兴市,嘉兴学院,,33,33,27,22,16,101,16,72,28,31,24,4,4,0.5,0.5
2023-09-06T00:00:00,1255A,121.273,28.6459,台州市,黄岩环保大楼,,30,30,27,15,15,68,26,56,39,12,11,5,5,0.6,0.6
2023-09-06T00:00:00,1256A,121.419,28.6542,台州市,台州环保大楼,,24,24,20,11,12,66,44,60,56,7,6,6,6,0.4,0.4
2023-09-06T00:00:00,1257A,121.377,28.5773,台州市,路桥田洋王,,16,16,21,11,11,69,50,61,56,4,5,3,3,0.3,0.3
2023-09-06T00:00:00,1258A,122.122,30.0203,舟山市,定海檀枫,,25,25,21,11,10,69,48,60,59,11,8,6,6,0.5,0.4
2023-09-06T00:00:00,1259A,122.3094,29.9558,舟山市,普陀东港,,27,27,22,14,10,79,61,74,71,8,8,5,5,0.4,0.4
2023-09-06T00:00:00,1260A,122.19,29.9944,舟山市,临城新区,,21,21,18,13,9,73,55,68,66,7,5,8,7,0.4,0.3
2023-09-06T00:00:00,1262A,119.647,29.077,金华市,十五中,,17,17,25,7,13,76,31,65,46,18,23,3,3,0.4,0.4
2023-09-06T00:00:00,1263A,119.686,29.1029,金华市,监测站,,16,16,27,10,17,70,22,59,41,25,23,3,4,0.5,0.5
2023-09-06T00:00:00,1264A,118.8692,28.9398,衢州市,环保大楼,,39,39,36,25,22,60,28,59,47,22,17,4,5,0.3,0.4
2023-09-06T00:00:00,1265A,118.8709,28.9666,衢州市,实验学校,,33,33,33,18,18,70,35,64,57,17,14,6,5,0.3,0.3
2023-09-06T00:00:00,1266A,118.8621,28.9808,衢州市,衢州学院,,43,43,29,18,20,68,30,57,41,24,19,3,5,0.2,0.3
2023-09-06T00:00:00,1267A,119.914,28.4514,丽水市,监测站大楼,,14,14,17,8,8,63,12,49,26,23,12,5,6,0.4,0.4
2023-09-06T00:00:00,1268A,119.93,28.4586,丽水市,莲都小学,,18,18,18,10,9,64,11,50,28,25,11,5,5,0.4,0.3
2023-09-06T00:00:00,1269A,119.879,28.4231,丽水市,余庄前,,28,28,21,12,9,61,5,51,17,15,11,5,6,0.5,0.4
2023-09-06T00:00:00,1270A,117.1959,31.7848,合肥市,明珠广场,,24,24,31,14,19,102,36,85,58,17,18,5,5,0.5,0.6
2023-09-06T00:00:00,1271A,117.3072,31.8764,合肥市,三里街,,28,19,30,19,21,84,21,75,46,21,17,5,5,0.2,0.4
2023-09-06T00:00:00,1272A,117.2588,31.8707,合肥市,琥珀山庄,,28,17,29,19,16,122,29,94,57,14,14,4,5,0.6,0.6
2023-09-06T00:00:00,1273A,117.1604,31.9052,合肥市,董铺水库,,17,17,28,9,15,94,26,88,65,14,10,5,5,0.2,0.3
2023-09-06T00:00:00,1274A,117.25,31.8571,合肥市,长江中路,,27,27,34,15,20,93,30,85,59,15,10,6,6,0.4,0.5
2023-09-06T00:00:00,1275A,117.266,31.9436,合肥市,庐阳区,,27,27,34,14,20,86,27,78,54,16,14,5,5,0.3,0.4
2023-09-06T00:00:00,1276A,117.336,31.8586,合肥市,瑶海区,,27,27,35,17,18,87,31,79,47,11,10,4,4,0.5,0.6
2023-09-06T00:00:00,1277A,117.3027,31.7964,合肥市,包河区,,27,27,30,17,20,85,6,76,34,44,31,6,5,0.5,0.5
2023-09-06T00:00:00,1278A,117.2776,31.7385,合肥市,滨湖新区,,31,31,32,14,18,98,38,85,62,18,16,5,6,0.3,0.4
2023-09-06T00:00:00,1279A,117.1318,31.8403,合肥市,高新区,,31,31,33,17,22,103,23,91,62,30,20,9,8,0.7,0.6
2023-09-06T00:00:00,1280A,119.3903,26.0543,福州市,鼓山,,,,,,,,,,,,,,,,
2023-09-06T00:00:00,1282A,119.2681,26.0504,福州市,师大,,,,11,,3,56,,44,30,,5,,3,,0.3
2023-09-06T00:00:00,1283A,119.2984,26.1028,福州市,五四北路,,11,8,12,1,1,53,34,42,31,4,7,2,2,0.4,0.4
2023-09-06T00:00:00,1284A,119.2648,26.0768,福州市,杨桥西路,,11,6,9,0,0,48,35,40,30,3,7,2,3,0.2,0.3
2023-09-06T00:00:00,1285A,119.317,26.0746,福州市,紫阳,,10,7,10,4,2,63,31,47,30,3,5,3,3,0.3,0.3
2023-09-06T00:00:00,1286A,118.1608,24.8169,厦门市,溪东,,,,,,,,,,,,,,,,
2023-09-06T00:00:00,1287A,118.1514,24.4767,厦门市,洪文,,13,13,14,4,4,64,34,59,48,5,3,3,3,0.2,0.2
2023-09-06T00:00:00,1288A,118.0661,24.4444,厦门市,鼓浪屿,,18,18,12,10,6,51,31,49,41,6,3,2,2,0.4,0.4
2023-09-06T00:00:00,1290A,115.8931,28.6843,南昌市,省外办,,33,33,41,22,24,101,18,82,28,23,14,2,3,0.5,0.6
2023-09-06T00:00:00,1291A,115.8886,28.7003,南昌市,省林业公司,,28,27,34,19,24,104,11,84,26,31,11,5,5,0.6,0.7
2023-09-06T00:00:00,1292A,115.8126,28.7442,南昌市,林科所,,34,34,31,9,18,110,31,96,39,16,12,5,6,0.1,0.5
2023-09-06T00:00:00,1294A,115.8518,28.687,南昌市,建工学校,,37,37,34,3,16,116,20,96,33,22,10,11,10,0.4,0.6
2023-09-06T00:00:00,1295A,115.8921,28.6424,南昌市,象湖,,23,22,30,16,24,106,27,89,33,15,12,5,6,0.4,0.4
2023-09-06T00:00:00,1296A,115.7423,28.7996,南昌市,武术学校,,36,17,18,25,26,105,10,93,24,5,8,6,5,0.2,0.3
2023-09-06T00:00:00,1298A,115.9314,28.6842,南昌市,省站,,24,24,36,16,22,111,32,94,34,7,8,4,6,0.6,0.8
2023-09-06T00:00:00,1299A,116.9862,36.6114,济南市,科干所,颗粒物(PM10),54,58,84,37,52,254,112,230,173,30,34,8,8,0.6,0.7
2023-09-06T00:00:00,1300A,116.9376,36.665,济南市,农科所,颗粒物(PM10),56,61,80,37,46,243,101,225,164,27,33,9,8,0.5,0.6
2023-09-06T00:00:00,1301A,117.1265,36.6734,济南市,开发区,颗粒物(PM10),63,76,78,37,45,248,77,217,142,37,40,8,8,0.7,0.8
2023-09-06T00:00:00,1303A,117.0624,36.6868,济南市,省种子仓库,颗粒物(PM10),60,70,88,36,48,241,101,222,159,20,36,10,9,0.5,0.7
2023-09-06T00:00:00,1304A,116.9489,36.6447,济南市,机床二厂,颗粒物(PM10),58,66,89,32,46,242,99,222,164,33,36,9,8,0.6,0.7
2023-09-06T00:00:00,1305A,117.0495,36.663,济南市,市监测站,颗粒物(PM10),62,73,83,37,50,251,90,229,161,40,41,8,7,0.6,0.7
2023-09-06T00:00:00,1306A,116.7675,36.5484,济南市,长清党校,细颗粒物(PM2.5),74,78,83,54,54,244,143,225,177,21,31,4,4,0.5,0.6
2023-09-06T00:00:00,1307A,120.6659,36.2403,青岛市,仰口,,25,17,17,17,16,66,63,61,59,4,5,6,5,0.3,0.3
2023-09-06T00:00:00,1310A,120.4134,36.0658,青岛市,市南区东部子站,,31,31,22,17,11,112,20,89,56,39,18,4,5,0.5,0.4
2023-09-06T00:00:00,1311A,120.3664,36.1032,青岛市,四方区子站,,24,24,29,9,12,122,36,96,47,34,29,6,5,0.4,0.5
2023-09-06T00:00:00,1312A,120.2994,36.054,青岛市,市南区西部子站,,39,39,25,15,10,124,8,92,55,60,22,7,5,0.4,0.4
2023-09-06T00:00:00,1313A,120.4581,36.0858,青岛市,崂山区子站,,31,31,20,12,13,104,14,90,47,49,22,7,7,0.2,0.2
2023-09-06T00:00:00,1314A,120.1983,35.9608,青岛市,黄岛区子站,,31,31,27,15,13,120,29,97,64,40,31,12,6,0.5,0.5
2023-09-06T00:00:00,1315A,120.3999,36.3083,青岛市,城阳区子站,,39,39,38,12,14,115,7,97,41,58,35,6,6,0.6,0.6
2023-09-06T00:00:00,1316A,113.69031,34.76122,郑州市,烟厂,细颗粒物(PM2.5),64,74,75,46,42,202,143,190,158,22,31,2,2,0.7,0.7
2023-09-06T00:00:00,1317A,113.65724,34.77134,郑州市,郑纺机,细颗粒物(PM2.5),64,71,72,46,40,200,143,190,160,14,28,2,2,0.7,0.8
2023-09-06T00:00:00,1318A,113.67526,34.80246,郑州市,银行学校,,,,,,,,,,,,,,,,
2023-09-06T00:00:00,1319A,113.56746,34.81334,郑州市,供水公司,细颗粒物(PM2.5),62,62,72,44,40,188,114,179,141,27,31,3,3,0.5,0.5
2023-09-06T00:00:00,1320A,113.7329,34.7178,郑州市,经开区管委,细颗粒物(PM2.5),68,72,81,49,49,193,123,185,150,22,37,4,4,0.8,0.8
2023-09-06T00:00:00,1321A,113.73961,34.77172,郑州市,四十七中,,,75,72,,118,186,121,173,140,13,21,2,2,0.7,0.8
2023-09-06T00:00:00,1322A,113.60532,34.74838,郑州市,市监测站,细颗粒物(PM2.5),63,71,78,45,43,198,136,189,156,19,32,5,6,0.6,0.7
2023-09-06T00:00:00,1323A,113.64164,34.7525,郑州市,河医大,细颗粒物(PM2.5),64,70,71,46,42,182,128,170,142,24,31,4,5,0.7,0.8
2023-09-06T00:00:00,1324A,113.51488,34.91089,郑州市,岗李水库,,,,,,,,,,,,,,,,
2023-09-06T00:00:00,1325A,114.3677,30.5584,武汉市,东湖梨园,,32,32,29,17,19,147,76,127,81,13,14,7,8,0.7,0.8
2023-09-06T00:00:00,1326A,114.2529,30.558,武汉市,汉阳月湖,,28,17,32,19,17,134,56,124,76,22,19,6,6,0.5,0.6
2023-09-06T00:00:00,1327A,114.282,30.6189,武汉市,汉口花桥,,32,23,34,22,21,137,78,121,82,10,14,7,6,0.5,0.6
2023-09-06T00:00:00,1328A,114.3025,30.5332,武汉市,武昌紫阳,,26,26,31,17,21,164,78,138,86,14,16,7,8,0.4,0.5
2023-09-06T00:00:00,1329A,114.3646,30.6217,武汉市,青山钢花,,35,28,33,24,24,132,77,123,87,13,16,8,9,0.7,0.7
2023-09-06T00:00:00,1330A,114.1566,30.4825,武汉市,沌口新区,,35,20,32,24,28,174,70,144,90,18,20,7,8,0.5,0.6
2023-09-06T00:00:00,1331A,114.3014,30.5944,武汉市,汉口江滩,,24,24,31,13,18,138,70,116,72,8,16,6,7,0.5,0.5
2023-09-06T00:00:00,1333A,114.135,30.6319,武汉市,吴家山,,26,26,28,15,17,138,76,127,94,11,11,8,8,0.6,0.6
2023-09-06T00:00:00,1334A,113.8454,30.2917,武汉市,沉湖七壕,,36,36,35,16,26,163,66,149,102,14,15,4,4,0.6,0.7
2023-09-06T00:00:00,1335A,113.0833,28.2325,长沙市,经开区环保局,,45,41,36,31,28,136,88,120,78,24,17,8,6,0.6,0.5
2023-09-06T00:00:00,1336A,112.8872,28.2189,长沙市,高开区环保局,,49,49,45,29,32,138,120,129,117,6,4,7,7,0.6,0.7
2023-09-06T00:00:00,1337A,113.0792,28.2053,长沙市,马坡岭,,49,47,47,34,30,149,46,132,62,39,21,6,6,1.0,0.8
2023-09-06T00:00:00,1338A,112.9394,28.19,长沙市,湖南师范大学,颗粒物(PM10),58,66,59,36,30,142,70,128,82,8,5,4,4,0.8,0.8
2023-09-06T00:00:00,1339A,113.0178,28.1322,长沙市,雨花区环保局,,31,31,37,18,26,140,36,125,70,30,15,5,6,0.8,0.5
2023-09-06T00:00:00,1340A,112.9792,28.2597,长沙市,伍家岭,颗粒物(PM10),53,55,47,36,31,132,76,123,87,30,16,3,3,0.8,0.8
2023-09-06T00:00:00,1341A,113.0014,28.1944,长沙市,火车新站,,42,31,31,29,26,132,78,119,70,23,14,5,6,0.9,0.9
2023-09-06T00:00:00,1342A,112.9844,28.1178,长沙市,天心区环保局,,28,14,34,10,23,139,1,124,63,55,16,2,3,0.6,0.6
2023-09-06T00:00:00,1343A,112.8908,28.1308,长沙市,湖南中医药大学,,39,35,49,27,32,145,51,135,76,28,10,2,3,0.9,0.9
2023-09-06T00:00:00,1344A,112.9581,28.3611,长沙市,沙坪,颗粒物(PM10),53,55,55,31,27,152,111,141,136,9,8,7,7,0.6,0.6
2023-09-06T00:00:00,1345A,113.2347,23.1423,广州市,广雅中学,细颗粒物(PM2.5),55,54,40,39,26,110,25,91,53,52,29,8,8,1.0,1
2023-09-06T00:00:00,1346A,113.2612,23.105,广州市,市五中,细颗粒物(PM2.5),52,48,37,36,27,132,46,108,72,29,17,8,8,0.8,0.7
2023-09-06T00:00:00,1348A,113.3478,23.0916,广州市,广东商学院,颗粒物(PM10),52,53,52,26,24,110,39,90,59,33,25,4,5,0.5,0.5
2023-09-06T00:00:00,1349A,113.4332,23.1047,广州市,市八十六中,,42,40,35,29,24,107,42,92,68,28,19,6,5,0.7,0.6
2023-09-06T00:00:00,1350A,113.3505,22.9483,广州市,番禺中学,,38,38,36,25,21,138,59,105,72,20,22,5,6,0.7,0.7
2023-09-06T00:00:00,1351A,113.2146,23.3916,广州市,花都师范,,40,40,34,27,22,102,62,95,79,15,14,10,8,0.9,0.8
2023-09-06T00:00:00,1352A,113.2597,23.1331,广州市,市监测站,颗粒物(PM10),51,51,41,33,26,121,39,96,67,42,30,8,9,0.8,0.7
2023-09-06T00:00:00,1353A,113.5618,23.312,广州市,九龙镇镇龙,,46,46,34,30,23,91,40,80,54,19,14,8,8,0.6,0.5
2023-09-06T00:00:00,1354A,113.2765,23.1544,广州市,麓湖,,44,44,38,30,22,119,26,92,55,35,25,6,9,0.9,0.8
2023-09-06T00:00:00,1355A,113.443,23.3035,广州市,帽峰山森林公园,,36,29,27,25,21,90,40,85,68,13,11,7,7,0.4,0.3
2023-09-06T00:00:00,1356A,114.1063,22.5545,深圳市,通心岭子站,,37,37,32,24,20,124,16,88,42,26,25,5,7,0.7,0.7
2023-09-06T00:00:00,1357A,114.117,22.5625,深圳市,洪湖,颗粒物(PM10),52,53,44,30,21,123,16,84,37,35,31,6,5,0.6,0.6
2023-09-06T00:00:00,1358A,113.987,22.5417,深圳市,华侨城,,38,38,34,24,20,128,27,97,49,27,25,7,7,0.8,0.7
2023-09-06T00:00:00,1359A,113.9181,22.5171,深圳市,南海子站,颗粒物(PM10),60,70,53,35,28,117,18,92,54,40,33,5,5,0.8,0.9
2023-09-06T00:00:00,1360A,114.2458,22.5689,深圳市,盐田,细颗粒物(PM2.5),55,41,33,39,25,118,27,86,53,22,19,4,5,0.6,0.7
2023-09-06T00:00:00,1361A,114.2283,22.7244,深圳市,龙岗,颗粒物(PM10),51,52,38,30,22,121,0,90,33,50,24,8,8,0.9,0.7
2023-09-06T00:00:00,1363A,114.494,22.5422,深圳市,南澳,,29,29,30,19,17,115,17,90,40,13,20,5,5,0.7,0.8
2023-09-06T00:00:00,1364A,114.41,22.6342,深圳市,葵涌,,31,31,35,20,21,104,9,83,35,32,20,5,5,0.6,0.6
2023-09-06T00:00:00,1365A,114.297,22.5978,深圳市,梅沙,,47,47,37,23,22,118,16,90,44,22,14,6,6,0.7,0.7
2023-09-06T00:00:00,1366A,114.0678,22.738,深圳市,观澜,颗粒物(PM10),53,56,46,29,22,139,14,98,34,42,28,6,7,0.8,0.7
2023-09-06T00:00:00,1367A,113.5814,22.2618,珠海市,吉大,,32,32,32,18,16,170,54,134,76,18,19,4,5,0.7,0.6
2023-09-06T00:00:00,1368A,113.4881,22.2335,珠海市,前山,,46,46,33,24,22,156,83,127,76,30,24,9,9,0.5,0.4
2023-09-06T00:00:00,1369A,113.628,22.4251,珠海市,唐家,,35,35,34,23,18,162,24,124,59,19,18,6,6,0.5,0.5
2023-09-06T00:00:00,1370A,113.299,22.2281,珠海市,斗门,细颗粒物(PM2.5),54,38,33,38,29,186,120,157,108,12,19,10,8,0.8,0.6
2023-09-06T00:00:00,1371A,113.1294,23.0067,佛山市,湾梁,,44,44,27,28,21,120,39,103,68,33,20,8,8,0.7,0.7
2023-09-06T00:00:00,1372A,113.1083,23.0478,佛山市,华材职中,细颗粒物(PM2.5),53,51,34,37,25,114,35,97,62,41,27,6,8,0.6,0.5
2023-09-06T00:00:00,1373A,113.144,23.0453,佛山市,南海气象局,,46,43,36,32,22,112,41,96,63,28,22,8,8,0.6,0.6
2023-09-06T00:00:00,1374A,113.2881,22.8094,佛山市,顺德苏岗,,46,46,33,24,20,147,36,113,57,27,18,7,8,0.8,0.7
2023-09-06T00:00:00,1376A,112.8383,22.8678,佛山市,高明孔堂,细颗粒物(PM2.5),73,48,38,53,28,133,24,113,70,34,23,6,8,0.8,0.7
2023-09-06T00:00:00,1377A,112.8836,23.1588,佛山市,三水监测站,颗粒物(PM10),59,68,35,41,20,108,2,92,55,61,25,6,4,1.0,0.8
2023-09-06T00:00:00,1378A,112.867,23.185,佛山市,三水云东海,细颗粒物(PM2.5),55,50,34,39,25,106,4,82,39,51,20,5,6,0.9,0.6
2023-09-06T00:00:00,1379A,113.3769,22.5211,中山市,华柏园,,43,43,35,28,23,172,48,134,70,27,23,7,7,0.5,0.5
2023-09-06T00:00:00,1380A,113.3881,22.5497,中山市,张溪,,49,49,41,33,20,168,51,128,64,20,21,5,6,0.5,0.6
2023-09-06T00:00:00,1381A,113.4075,22.5111,中山市,紫马岭,,46,46,35,27,22,163,20,126,58,37,21,6,6,0.6,0.5
2023-09-06T00:00:00,1382A,113.4411,22.4853,中山市,长江旅游区,,,,,,,,,,,,,,,,
2023-09-06T00:00:00,1383A,113.1064,22.6058,江门市,北街,,48,44,37,33,25,159,40,130,76,34,24,7,8,0.6,0.5
2023-09-06T00:00:00,1384A,113.0731,22.5835,江门市,西区,,46,46,38,32,24,162,35,136,79,38,22,8,8,0.7,0.7
2023-09-06T00:00:00,1385A,113.0219,22.5311,江门市,圭峰西,,49,48,33,34,21,152,48,128,91,14,10,5,5,0.6,0.5
2023-09-06T00:00:00,1386A,113.0828,22.5947,江门市,东湖,,40,40,37,23,24,156,50,131,79,23,18,9,10,0.7,0.6
2023-09-06T00:00:00,1389A,113.7547,23.0494,东莞市,莞城梨川,,39,39,33,26,21,89,48,78,56,19,17,10,10,0.8,0.7
2023-09-06T00:00:00,1390A,113.7944,23.0128,东莞市,东城石井,,35,34,29,24,18,84,49,76,57,12,11,3,6,0.8,0.8
2023-09-06T00:00:00,1391A,113.7383,22.9658,东莞市,南城西平,,38,38,32,25,20,79,34,70,49,30,23,10,7,1.0,0.9
2023-09-06T00:00:00,1392A,114.4183,23.0528,惠州市,河南岸金山湖子站,,31,31,34,18,18,72,40,57,37,13,17,4,4,0.5,0.5
2023-09-06T00:00:00,1393A,114.4053,23.0822,惠州市,下埔横江三路子站,,24,24,29,16,19,70,43,64,42,9,11,4,5,0.5,0.5
2023-09-06T00:00:00,1394A,114.4103,23.1142,惠州市,江北云山西路子站,,20,20,27,13,18,78,39,66,42,11,8,4,5,0.5,0.4
2023-09-06T00:00:00,1395A,114.4645,22.7833,惠州市,惠阳区承修路船湖子站,,,30,32,19,20,100,21,78,42,10,11,5,5,,0.8
2023-09-06T00:00:00,1396A,114.5317,22.7422,惠州市,大亚湾管委会子站,,29,29,30,18,18,105,28,81,42,24,18,6,6,0.6,0.6
2023-09-06T00:00:00,1397A,112.4267,23.0706,肇庆市,睦岗子站,,44,44,30,25,21,96,20,86,50,39,15,18,17,0.5,0.4
2023-09-06T00:00:00,1398A,112.4645,23.0475,肇庆市,城中子站,,45,45,30,24,18,91,19,86,54,45,17,10,10,0.7,0.6
2023-09-06T00:00:00,1399A,112.5544,23.1522,肇庆市,坑口子站,,29,26,26,20,19,83,38,78,51,18,13,4,4,0.4,0.4
2023-09-06T00:00:00,1400A,112.4753,23.1,肇庆市,七星岩子站,,,,,,,,,,,,,,,,
2023-09-06T00:00:00,1401A,108.3103,22.7881,南宁市,二十一中,颗粒物(PM10),66,81,37,38,21,121,4,102,51,50,22,5,11,1.2,0.8
2023-09-06T00:00:00,1402A,108.3141,22.8528,南宁市,北湖,颗粒物(PM10),55,60,36,28,21,108,4,95,43,39,16,6,6,0.9,0.8
2023-09-06T00:00:00,1403A,108.3206,22.8225,南宁市,市监测站,细颗粒物(PM2.5),62,69,37,44,21,108,6,89,36,74,31,10,10,1.2,0.8
2023-09-06T00:00:00,1404A,108.3829,22.8037,南宁市,大自然花园,,29,27,29,20,19,94,39,81,52,18,15,5,8,0.7,0.8
2023-09-06T00:00:00,1405A,108.4394,22.7904,南宁市,仙葫,颗粒物(PM10),52,53,34,34,21,81,2,75,41,46,22,7,6,0.9,0.7
2023-09-06T00:00:00,1406A,108.2397,22.8467,南宁市,区农职院,,35,35,31,22,19,118,5,103,56,35,16,9,9,0.7,0.7
2023-09-06T00:00:00,1407A,108.3275,22.735,南宁市,英华嘉园,,47,47,36,28,22,106,3,93,42,50,23,6,8,0.9,0.7
2023-09-06T00:00:00,1408A,108.2257,22.7757,南宁市,沙井镇街道办,颗粒物(PM10),54,58,41,25,14,120,2,105,46,47,24,11,11,0.8,0.7
2023-09-06T00:00:00,1409A,110.576,19.9507,海口市,东寨港,,,,,,,,,,,,,,,,
2023-09-06T00:00:00,1410A,110.3232,20.0574,海口市,海南大学,,24,24,31,13,20,139,67,128,97,19,18,6,7,0.4,0.5
2023-09-06T00:00:00,1411A,110.283,20.0053,海口市,秀英海南医院,,20,20,30,12,19,133,52,117,80,27,18,6,7,0.5,0.5
2023-09-06T00:00:00,1412A,110.338,19.9969,海口市,海南师范大学,,22,17,29,12,20,130,68,122,91,10,14,8,8,0.4,0.5
2023-09-06T00:00:00,1413A,110.33,20.0356,海口市,龙华路环保局宿舍,,23,19,28,12,20,129,73,120,94,9,12,7,8,0.4,0.5
2023-09-06T00:00:00,1414A,106.3787,29.8279,重庆市,缙云山,,34,25,27,12,12,181,108,156,130,8,12,10,11,0.2,0.3
2023-09-06T00:00:00,1416A,106.4213,29.8253,重庆市,天生,颗粒物(PM10),51,51,50,35,34,178,42,149,82,48,38,6,7,0.7,0.8
2023-09-06T00:00:00,1417A,106.6263,29.7228,重庆市,两路,,42,25,38,29,28,191,55,154,89,48,42,11,13,0.9,1
2023-09-06T00:00:00,1418A,106.2953,29.5983,重庆市,虎溪,颗粒物(PM10),51,51,54,29,34,210,46,184,116,61,40,5,8,0.7,0.7
2023-09-06T00:00:00,1419A,106.5777,29.5102,重庆市,南坪,,42,42,47,24,28,163,73,149,123,35,24,9,9,0.6,0.6
2023-09-06T00:00:00,1420A,106.6556,29.6277,重庆市,唐家沱,,50,50,53,22,26,198,37,184,110,61,39,9,9,0.6,0.6
2023-09-06T00:00:00,1421A,106.6349,29.4906,重庆市,茶园,颗粒物(PM10),72,93,69,25,25,163,14,139,76,93,57,7,6,0.8,0.9
2023-09-06T00:00:00,1422A,106.3754,29.4572,重庆市,白市驿,,36,36,48,14,31,185,82,167,134,32,22,8,11,0.7,0.7
2023-09-06T00:00:00,1425A,106.6205,29.7166,重庆市,空港,,38,38,41,25,21,219,84,183,124,40,27,11,11,0.8,0.8
2023-09-06T00:00:00,1426A,106.4782,29.4875,重庆市,新山村,,37,37,51,14,26,197,79,172,119,36,44,12,13,0.6,0.7
2023-09-06T00:00:00,1427A,106.5616,29.6453,重庆市,礼嘉,,41,41,48,16,25,173,60,147,97,35,42,15,12,0.8,0.8
2023-09-06T00:00:00,1428A,106.4522,29.7091,重庆市,蔡家,颗粒物(PM10),51,52,55,26,33,197,56,163,98,38,32,8,9,0.9,0.9
2023-09-06T00:00:00,1429A,106.5093,29.3917,重庆市,鱼新街,颗粒物(PM10),51,52,43,26,28,173,40,147,97,58,35,6,7,0.9,0.9
2023-09-06T00:00:00,1431A,103.9728,30.7236,成都市,金泉两河,细颗粒物(PM2.5),79,71,63,58,42,216,75,177,130,15,17,7,5,0.7,0.6
2023-09-06T00:00:00,1432A,104.176,30.6872,成都市,十里店,细颗粒物(PM2.5),62,66,69,44,45,208,107,187,149,20,31,5,5,0.6,0.7
2023-09-06T00:00:00,1433A,104.079,30.5706,成都市,三瓦窑,细颗粒物(PM2.5),69,70,68,50,44,191,68,171,126,44,45,2,3,0.8,0.7
2023-09-06T00:00:00,1434A,104.1114,30.63,成都市,沙河铺,细颗粒物(PM2.5),74,67,65,54,44,194,84,173,131,30,26,3,3,0.7,0.7
2023-09-06T00:00:00,1437A,104.0786,30.6531,成都市,君平街,细颗粒物(PM2.5),83,80,63,61,47,221,87,194,147,27,25,9,5,0.8,0.7
2023-09-06T00:00:00,1438A,103.613,31.0283,成都市,灵岩寺,,35,34,33,24,23,145,104,137,119,3,5,11,14,0.7,0.7
2023-09-06T00:00:00,1439A,106.6899,26.5998,贵阳市,马鞍山,,24,24,18,9,9,115,22,98,56,18,11,4,4,0.4,0.4
2023-09-06T00:00:00,1440A,106.6971,26.5694,贵阳市,市环保站,,38,31,18,26,17,123,34,104,63,28,15,4,4,0.4,0.3
2023-09-06T00:00:00,1441A,106.6243,26.6266,贵阳市,鉴湖路,,24,24,22,12,9,119,51,96,66,9,7,5,5,0.4,0.4
2023-09-06T00:00:00,1442A,106.7487,26.6343,贵阳市,燕子冲,,25,24,18,17,13,112,35,95,59,15,12,5,5,0.6,0.6
2023-09-06T00:00:00,1443A,106.6555,26.4365,贵阳市,碧云窝,,44,44,32,24,14,128,14,105,47,16,13,4,4,0.5,0.5
2023-09-06T00:00:00,1444A,106.694,26.5161,贵阳市,中院村,,27,27,27,14,12,107,37,90,50,22,20,7,7,0.3,0.3
2023-09-06T00:00:00,1445A,106.7109,26.6027,贵阳市,红边门,,39,39,26,24,17,121,27,100,57,25,15,5,5,0.5,0.5
2023-09-06T00:00:00,1446A,106.7164,26.5699,贵阳市,新华路,,39,39,25,22,13,124,30,105,61,29,15,6,5,0.3,0.3
2023-09-06T00:00:00,1447A,106.674,26.5424,贵阳市,太慈桥,,19,19,17,9,10,117,9,96,47,31,18,5,4,0.4,0.4
2023-09-06T00:00:00,1450A,102.8204,24.8886,昆明市,呈贡新区,,26,25,26,18,14,81,59,75,63,19,15,4,9,0.5,0.5
2023-09-06T00:00:00,1451A,102.6251,24.9608,昆明市,西山森林公园,,26,18,19,15,12,122,82,113,99,12,8,8,9,0.6,0.6
2023-09-06T00:00:00,1452A,102.7252,25.0902,昆明市,龙泉镇,颗粒物(PM10),51,51,26,23,18,96,17,87,59,49,21,8,10,0.5,0.5
2023-09-06T00:00:00,1453A,102.7266,25.0375,昆明市,东风东路,,46,46,27,18,15,91,42,83,66,45,22,10,9,0.6,0.5
2023-09-06T00:00:00,1454A,102.6742,25.0669,昆明市,金鼎山,,47,47,28,19,14,103,33,90,71,36,16,9,8,0.4,0.3
2023-09-06T00:00:00,1455A,102.6644,25.0401,昆明市,碧鸡广场,,,38,28,22,11,107,,93,71,49,21,15,10,0.4,0.4
2023-09-06T00:00:00,1456A,91.1319,29.6514,拉萨市,八廓街,,24,20,18,9,8,138,75,133,110,34,19,7,7,0.4,0.3
2023-09-06T00:00:00,1457A,91.1221,29.6747,拉萨市,市环保局,,34,34,19,15,10,131,41,128,89,40,22,7,7,0.5,0.3
2023-09-06T00:00:00,1458A,91.0874,29.6475,拉萨市,区监测站,,37,37,15,13,8,129,22,123,82,54,19,8,8,0.5,0.3
2023-09-06T00:00:00,1459A,91.1774,29.6541,拉萨市,西藏大学,,27,15,12,9,7,136,86,131,112,14,11,9,8,0.6,0.3
2023-09-06T00:00:00,1460A,90.9798,29.6588,拉萨市,区辐射站,,21,21,16,11,8,121,63,118,97,31,16,12,10,0.3,0.2
2023-09-06T00:00:00,1461A,91.0834,29.6292,拉萨市,拉萨火车站,,34,34,22,13,10,126,70,122,98,25,15,6,6,0.3,0.1
2023-09-06T00:00:00,1462A,108.882,34.2749,西安市,高压开关厂,,44,44,43,21,19,159,98,127,94,22,24,7,8,0.6,0.6
2023-09-06T00:00:00,1463A,108.993,34.2629,西安市,兴庆小区,,34,25,34,16,16,131,107,115,103,9,14,6,7,0.4,0.4
2023-09-06T00:00:00,1464A,109.06,34.2572,西安市,纺织城,,39,39,38,15,17,115,93,104,94,26,24,4,5,0.4,0.5
2023-09-06T00:00:00,1465A,108.9356,34.2173,西安市,小寨,,34,32,40,11,13,128,108,117,100,5,10,7,6,0.4,0.5
2023-09-06T00:00:00,1466A,108.954,34.2713,西安市,市人民体育场,,32,27,41,14,20,152,101,118,94,10,17,6,7,0.4,0.5
2023-09-06T00:00:00,1467A,108.8922,34.2322,西安市,高新西区,,35,24,35,14,21,156,109,127,102,8,14,6,6,0.4,0.5
2023-09-06T00:00:00,1468A,108.935,34.3474,西安市,经开区,,33,33,43,14,20,158,96,129,96,10,12,3,4,0.3,0.4
2023-09-06T00:00:00,1469A,108.906,34.1546,西安市,长安区,,42,42,45,14,16,165,78,136,97,25,21,7,8,0.2,0.2
2023-09-06T00:00:00,1471A,109.2186,34.3731,西安市,临潼区,,32,30,42,22,23,151,79,128,103,20,18,5,6,0.3,0.4
2023-09-06T00:00:00,1472A,108.869,34.378,西安市,草滩,,31,31,45,11,13,167,83,139,98,38,33,6,12,0.3,0.5
2023-09-06T00:00:00,1473A,108.985,34.1978,西安市,曲江文化产业集团,,35,35,33,11,11,122,110,116,102,11,14,8,6,0.5,0.5
2023-09-06T00:00:00,1474A,109.051,34.3213,西安市,广运潭,,35,34,41,12,20,147,111,122,98,9,14,7,8,0.4,0.5
2023-09-06T00:00:00,1476A,103.631,36.1031,兰州市,兰炼宾馆,,44,44,42,26,24,153,93,133,106,10,14,2,3,0.2,0.3
2023-09-06T00:00:00,1477A,104.1373,35.9454,兰州市,榆中兰大校区,,,,,,,,,,,,,,,,
2023-09-06T00:00:00,1478A,103.8412,36.0726,兰州市,生物制品所,细颗粒物(PM2.5),54,48,43,38,31,123,88,112,95,13,16,4,4,0.7,0.7
2023-09-06T00:00:00,1479A,103.831,36.0464,兰州市,铁路设计院,,43,41,40,30,27,129,91,117,100,14,16,6,6,0.4,0.3
2023-09-06T00:00:00,1483A,101.524,36.6867,西宁市,第五水厂,,,,,,,,,,,,,,,,
2023-09-06T00:00:00,1484A,105.9512,38.6016,银川市,贺兰山马莲口,,38,38,37,21,17,158,108,142,113,8,11,3,6,0.3,0.3
2023-09-06T00:00:00,1488A,106.2328,38.4975,银川市,贺兰山东路,,42,42,53,26,23,175,114,145,119,12,19,7,11,0.5,0.6
2023-09-06T00:00:00,1489A,106.1358,38.5036,银川市,学院路,,48,48,47,18,18,163,101,139,108,9,14,8,9,0.5,0.6
2023-09-06T00:00:00,1490A,87.5801,43.8303,乌鲁木齐市,监测站,,33,29,16,11,6,67,0,57,38,66,21,4,4,0.6,0.4
2023-09-06T00:00:00,1491A,87.6046,43.768,乌鲁木齐市,收费所,,30,30,16,16,10,86,4,77,31,36,21,3,3,0.7,0.3
2023-09-06T00:00:00,1492A,87.4754,43.9469,乌鲁木齐市,新疆农科院农场,颗粒物(PM10),62,74,34,15,11,60,0,55,18,66,36,4,3,0.9,0.6
2023-09-06T00:00:00,1493A,87.5525,43.8711,乌鲁木齐市,铁路局,,35,35,15,10,7,62,0,53,26,58,21,4,4,1.1,0.5
2023-09-06T00:00:00,1494A,87.6432,43.831,乌鲁木齐市,三十一中学,,27,27,16,8,9,84,11,68,41,53,16,4,4,0.5,0.3
2023-09-06T00:00:00,1496A,87.7216,44.1747,乌鲁木齐市,米东区环保局,,24,24,16,16,9,80,11,73,58,35,10,6,7,0.4,0.3
2023-09-06T00:00:00,1508A,112.9433,27.8614,湘潭市,板塘,,38,38,47,17,27,147,50,134,76,30,13,6,6,0.6,0.7
2023-09-06T00:00:00,1511A,112.9118,27.8403,湘潭市,市监测站,,29,29,41,20,28,139,54,129,78,16,10,4,4,0.7,0.6
2023-09-06T00:00:00,1512A,112.8937,27.8728,湘潭市,江麓,,28,28,46,19,29,136,71,125,87,12,14,10,10,0.3,0.3
2023-09-06T00:00:00,1513A,112.9227,27.8159,湘潭市,岳塘,,30,30,48,20,28,144,64,133,81,18,14,7,7,0.4,0.3
2023-09-06T00:00:00,1514A,112.9074,27.9119,湘潭市,科大,,26,26,47,16,26,136,56,128,77,17,9,4,5,0.4,0.5
2023-09-06T00:00:00,1515A,113.135,27.8244,株洲市,天台山庄,,26,26,40,18,30,153,32,132,71,32,16,5,5,0.6,0.7
2023-09-06T00:00:00,1518A,113.095,27.8867,株洲市,株冶医院,,38,38,48,21,28,150,25,131,64,30,25,4,6,0.6,0.7
2023-09-06T00:00:00,1519A,113.167,27.8667,株洲市,市四中,,34,34,48,17,28,147,33,129,64,25,19,8,8,0.6,0.6
2023-09-06T00:00:00,1520A,113.143,27.8381,株洲市,火车站,,36,36,48,17,32,148,8,128,63,38,18,5,5,0.8,0.6
2023-09-06T00:00:00,1524A,113.13,27.8528,株洲市,市监测站,,38,35,45,26,34,150,33,134,73,30,16,6,6,0.8,0.8
2023-09-06T00:00:00,1552A,106.805,26.3003,贵阳市,桐木岭,,,,,,,,,,,,,,,,
2023-09-06T00:00:00,1559A,113.251,27.8336,株洲市,大京风景区,,23,23,38,12,24,115,18,100,44,5,6,4,5,0.4,0.5
2023-09-06T00:00:00,1562A,113.0048,27.9153,湘潭市,昭山,,29,29,52,19,28,156,28,138,62,31,14,4,5,0.5,0.6
2023-09-06T00:00:00,1564A,112.4876,27.9164,湘潭市,韶山,,35,31,45,20,23,136,111,124,115,7,7,8,8,0.4,0.5
2023-09-06T00:00:00,1585A,109.8756,40.6532,包头市,市环境监测站,,44,44,46,14,18,179,85,166,113,26,32,12,25,0.6,0.8
2023-09-06T00:00:00,1587A,109.9991,40.5842,包头市,包头八中,颗粒物(PM10),56,62,57,22,22,180,91,173,130,23,25,18,36,0.6,0.9
2023-09-06T00:00:00,1588A,109.8538,40.6821,包头市,青山宾馆,颗粒物(PM10),52,53,53,18,24,176,92,168,121,19,34,12,16,0.6,0.8
2023-09-06T00:00:00,1589A,109.8642,40.6288,包头市,惠龙物流,颗粒物(PM10),53,55,46,20,21,187,86,177,132,24,26,11,24,0.6,0.8
2023-09-06T00:00:00,1590A,110.0377,40.5546,包头市,东河鸿龙湾,,42,42,47,18,19,184,87,173,124,23,27,24,26,0.5,0.6
2023-09-06T00:00:00,1591A,110.0023,39.8129,鄂尔多斯市,综合楼,颗粒物(PM10),57,63,68,19,21,158,93,153,117,37,26,10,11,0.7,0.7
2023-09-06T00:00:00,1592A,109.9486,39.8261,鄂尔多斯市,巴音孟克林场办事处,颗粒物(PM10),59,68,64,29,26,169,114,164,131,26,23,10,13,0.5,0.7
2023-09-06T00:00:00,1593A,109.7736,39.5986,鄂尔多斯市,康泽苑,颗粒物(PM10),56,61,62,26,30,162,88,155,120,28,24,18,16,0.7,0.8
2023-09-06T00:00:00,1594A,109.8119,39.5989,鄂尔多斯市,华泰汽车城,颗粒物(PM10),56,61,66,27,28,150,87,144,110,24,28,16,12,0.8,0.7
2023-09-06T00:00:00,1595A,109.9734,39.7884,鄂尔多斯市,奥林花园,颗粒物(PM10),62,73,69,19,24,154,94,151,112,29,26,8,10,0.6,0.8
2023-09-06T00:00:00,1597A,122.2703,40.7094,营口市,大庆路,,31,31,56,18,44,130,54,120,89,17,18,4,5,0.7,1.1
2023-09-06T00:00:00,1598A,122.2150,40.6511,营口市,镜湖西路,,32,32,64,16,42,119,62,114,95,16,20,6,6,0.6,0.9
2023-09-06T00:00:00,1599A,122.1658,40.6789,营口市,西炮台,,41,41,73,18,48,120,53,114,85,14,17,7,6,0.6,1
2023-09-06T00:00:00,1600A,124.3303,40.0625,丹东市,江湾东路,,45,42,41,31,28,140,88,128,93,12,18,6,6,0.8,0.8
2023-09-06T00:00:00,1601A,124.4256,40.1503,丹东市,临江后街,,30,30,32,20,19,128,81,114,92,8,13,6,7,0.6,0.6
2023-09-06T00:00:00,1602A,124.3933,40.1461,丹东市,元宝山,,33,31,31,23,20,117,76,105,90,8,11,8,8,0.7,1.1
2023-09-06T00:00:00,1603A,124.3633,40.1092,丹东市,民主桥,,35,35,34,23,20,131,84,120,87,6,15,4,4,0.8,0.8
2023-09-06T00:00:00,1604A,122.0303,41.1489,盘锦市,开发区,,26,25,37,18,23,110,71,101,89,20,20,4,4,0.6,0.7
2023-09-06T00:00:00,1605A,122.0485,41.0883,盘锦市,兴隆台,,23,22,35,13,27,113,73,105,92,18,17,7,7,0.5,0.6
2023-09-06T00:00:00,1606A,121.8297,41.1028,盘锦市,新生街道,,21,21,29,14,19,104,47,97,64,28,22,7,7,0.5,0.6
2023-09-06T00:00:00,1607A,120.9092,40.7136,葫芦岛市,龙港区,,42,40,61,29,40,151,20,128,73,63,31,15,47,0.3,0.7
2023-09-06T00:00:00,1608A,120.8392,40.7514,葫芦岛市,化工街,,44,44,59,17,32,146,9,127,68,59,27,8,13,0.4,0.5
2023-09-06T00:00:00,1609A,120.8341,40.7073,葫芦岛市,新区,,50,50,49,27,42,123,28,116,53,48,27,7,9,0.8,0.9
2023-09-06T00:00:00,1610A,120.8695,40.7677,葫芦岛市,东城区,,35,35,51,8,25,147,42,127,72,44,31,9,13,0.5,0.7
2023-09-06T00:00:00,1611A,118.5819,24.9117,泉州市,涂山街,,18,6,8,2,4,67,57,63,58,6,7,4,4,0.4,0.4
2023-09-06T00:00:00,1612A,118.5972,24.8978,泉州市,津头埔,,16,6,9,5,5,64,49,59,50,11,11,3,3,0.5,0.5
2023-09-06T00:00:00,1613A,118.6663,24.9424,泉州市,万安,,,,10,6,4,75,56,64,58,7,7,2,2,0.4,0.6
2023-09-06T00:00:00,1614A,118.6117,24.9604,泉州市,清源山,,,,,,,,,,,,,,,,
2023-09-06T00:00:00,1616A,117.6795,36.229,济南市,技术学院,细颗粒物(PM2.5),65,75,72,47,36,235,81,222,161,40,31,10,9,1.0,0.9
2023-09-06T00:00:00,1618A,118.3429,35.0532,临沂市,沂河小区,,46,46,44,23,23,166,84,157,126,14,16,9,8,0.8,0.4
2023-09-06T00:00:00,1619A,118.295,35.0583,临沂市,鲁南制药厂,,44,44,40,21,18,198,119,183,154,11,15,10,8,0.9,0.6
2023-09-06T00:00:00,1620A,118.2794,34.9976,临沂市,新光毛纺厂,,41,41,34,25,22,166,90,151,123,14,17,11,8,1.2,0.8
2023-09-06T00:00:00,1621A,118.3956,35.0888,临沂市,河东保险公司,,36,36,36,17,19,169,82,156,128,16,20,5,5,0.8,0.5
2023-09-06T00:00:00,1622A,116.3032,37.4674,德州市,儿童乐园,细颗粒物(PM2.5),67,68,88,48,54,216,125,202,161,17,26,10,12,0.8,0.9
2023-09-06T00:00:00,1624A,116.2991,37.4451,德州市,监理站,细颗粒物(PM2.5),64,69,82,46,52,212,130,202,173,10,24,12,9,0.6,0.7
2023-09-06T00:00:00,1625A,115.9848,36.4372,聊城市,区政府,细颗粒物(PM2.5),84,88,86,62,59,234,127,227,185,19,25,9,6,0.7,0.7
2023-09-06T00:00:00,1628A,118.0062,37.3803,滨州市,市环保局,颗粒物(PM10),65,79,69,44,40,200,133,179,129,18,15,5,7,0.2,0.3
2023-09-06T00:00:00,1629A,118.0018,37.3617,滨州市,第二水厂,细颗粒物(PM2.5),64,63,62,46,38,203,129,182,134,9,8,1,3,0.6,0.6
2023-09-06T00:00:00,1630A,117.9776,37.393,滨州市,北中新校,细颗粒物(PM2.5),65,73,72,47,40,211,110,190,134,19,17,6,9,0.5,0.6
2023-09-06T00:00:00,1631A,118.0414,36.8103,淄博市,人民公园,细颗粒物(PM2.5),58,61,83,41,41,236,122,205,131,14,32,14,12,0.4,0.9
2023-09-06T00:00:00,1633A,117.8525,36.4847,淄博市,双山,细颗粒物(PM2.5),65,70,65,47,37,253,58,224,136,30,23,14,13,0.6,0.5
2023-09-06T00:00:00,1634A,117.9592,36.6331,淄博市,气象站,"颗粒物(PM10),细颗粒物(PM2.5)",64,77,71,46,48,240,99,217,128,10,22,13,13,0.6,0.3
2023-09-06T00:00:00,1635A,118.3092,36.8194,淄博市,莆田园,细颗粒物(PM2.5),62,63,80,44,45,212,121,184,123,18,31,10,15,0.7,1.6
2023-09-06T00:00:00,1637A,117.558,34.8438,枣庄市,市中区政府,颗粒物(PM10),67,83,72,46,32,217,75,203,148,40,35,20,14,0.6,0.6
2023-09-06T00:00:00,1638A,117.2852,34.7837,枣庄市,薛城环保局,颗粒物(PM10),59,68,64,34,30,225,104,203,145,31,39,13,14,0.6,0.8
2023-09-06T00:00:00,1639A,117.5852,34.7745,枣庄市,峄城区政府,颗粒物(PM10),51,51,65,24,25,216,124,200,151,17,29,31,16,0.6,0.8
2023-09-06T00:00:00,1640A,117.7276,34.5578,枣庄市,台儿庄区环保局,,46,46,56,22,34,164,101,148,112,19,26,13,11,0.5,0.6
2023-09-06T00:00:00,1641A,117.4518,35.0992,枣庄市,山亭区环保局,颗粒物(PM10),53,56,47,32,29,212,123,204,178,19,18,8,11,0.5,0.5
2023-09-06T00:00:00,1642A,121.2514,37.5639,烟台市,开发区,细颗粒物(PM2.5),70,63,38,51,29,204,117,178,168,12,7,4,4,1.0,0.8
2023-09-06T00:00:00,1643A,121.3719,37.5433,烟台市,轴承厂,细颗粒物(PM2.5),89,75,43,66,34,166,123,147,147,14,9,7,7,0.7,0.5
2023-09-06T00:00:00,1644A,121.3181,37.5436,烟台市,西郊化工站,细颗粒物(PM2.5),90,73,47,67,37,183,115,162,155,18,18,2,2,0.9,0.7
2023-09-06T00:00:00,1645A,121.4478,37.4822,烟台市,莱山环保局,细颗粒物(PM2.5),62,56,33,44,24,187,142,148,144,8,7,6,6,0.8,0.5
2023-09-06T00:00:00,1646A,121.2611,37.4967,烟台市,福山环保局,颗粒物(PM10),65,80,52,46,24,152,104,133,128,24,25,8,8,1.0,0.8
2023-09-06T00:00:00,1650A,119.1437,36.7023,潍坊市,环保局,细颗粒物(PM2.5),55,48,60,39,37,189,147,171,152,5,22,8,10,0.5,0.6
2023-09-06T00:00:00,1653A,116.6251,35.4302,济宁市,火炬城,颗粒物(PM10),80,110,74,51,33,241,118,220,180,21,19,11,14,0.9,1
2023-09-06T00:00:00,1655A,116.5491,35.4042,济宁市,电化厂,颗粒物(PM10),81,111,87,58,33,222,119,204,161,23,25,14,15,0.9,1
2023-09-06T00:00:00,1656A,117.1437,36.1937,泰安市,监测站,细颗粒物(PM2.5),72,73,69,52,46,251,157,211,204,10,11,10,11,0.6,0.8
2023-09-06T00:00:00,1657A,117.0885,36.2017,泰安市,人口学校,颗粒物(PM10),52,53,58,35,34,232,159,207,202,11,14,7,7,0.5,0.7
2023-09-06T00:00:00,1658A,117.1089,36.1758,泰安市,电力学校,颗粒物(PM10),67,83,74,47,43,239,145,203,196,8,15,10,11,0.5,0.6
2023-09-06T00:00:00,1659A,119.471,35.4209,日照市,监测站,,39,34,22,13,12,156,8,136,58,77,37,6,6,0.5,0.5
2023-09-06T00:00:00,1660A,119.523,35.4216,日照市,市政府广场,,,17,20,12,10,138,,123,80,19,12,4,5,0.5,0.4
2023-09-06T00:00:00,1661A,119.5587,35.4044,日照市,港务局,,23,14,20,16,13,148,55,123,80,11,10,7,7,0.4,0.4
2023-09-06T00:00:00,1662A,122.1214,37.4236,威海市,华夏技校,细颗粒物(PM2.5),53,51,30,37,22,167,160,153,153,8,9,6,5,0.7,0.4
2023-09-06T00:00:00,1663A,122.0508,37.5236,威海市,山大分校,细颗粒物(PM2.5),64,66,42,46,28,188,156,176,172,9,7,10,9,0.9,0.6
2023-09-06T00:00:00,1664A,122.1067,37.5072,威海市,市监测站,细颗粒物(PM2.5),62,61,40,44,26,168,131,157,154,6,5,10,10,0.8,0.6
2023-09-06T00:00:00,1666A,118.6614,37.4309,东营市,市环保局,,41,34,45,17,32,179,129,162,160,5,9,5,6,0.3,0.3
2023-09-06T00:00:00,1669A,113.5824,24.7733,韶关市,市八中,,26,11,35,18,20,78,41,66,44,4,9,12,11,0.4,0.6
2023-09-06T00:00:00,1671A,113.5917,24.7972,韶关市,园林处,,18,18,35,11,25,76,45,69,44,2,6,13,12,0.6,0.7
2023-09-06T00:00:00,1672A,113.6735,24.7791,韶关市,韶关学院,,33,16,35,23,25,50,6,46,20,23,11,14,11,0.5,0.5
2023-09-06T00:00:00,1673A,113.5971,24.6863,韶关市,曲江监测站,,28,13,50,19,26,58,22,50,16,19,19,10,11,0.7,0.8
2023-09-06T00:00:00,1674A,116.6794,23.3667,汕头市,金平子站,,26,12,12,18,12,71,69,42,42,14,16,4,5,0.7,0.7
2023-09-06T00:00:00,1675A,116.7244,23.3633,汕头市,龙湖子站,,26,16,12,12,7,91,82,59,59,13,13,6,6,0.6,0.6
2023-09-06T00:00:00,1676A,116.7258,23.2775,汕头市,濠江子站,,25,14,14,13,12,82,77,65,65,11,9,6,7,0.4,0.4
2023-09-06T00:00:00,1677A,116.7519,23.4714,汕头市,澄海子站,,28,14,13,19,13,71,71,43,43,16,15,3,2,0.2,0.3
2023-09-06T00:00:00,1678A,116.6092,23.2539,汕头市,潮阳子站,,22,13,15,15,11,81,67,61,61,6,6,7,8,0.4,0.4
2023-09-06T00:00:00,1680A,110.3539,21.2706,湛江市,湛江影剧院,,33,33,33,14,18,104,84,96,89,12,11,10,14,0.8,0.8
2023-09-06T00:00:00,1681A,110.3928,21.2228,湛江市,市环境监测站,,31,29,29,15,18,106,97,97,89,7,12,7,12,0.6,0.7
2023-09-06T00:00:00,1682A,110.4019,21.1997,湛江市,环保局宿舍,,33,33,30,20,19,103,99,96,91,9,12,5,9,0.5,0.7
2023-09-06T00:00:00,1683A,110.4111,21.2028,湛江市,霞山游泳场,,40,40,29,20,18,106,102,98,90,11,13,6,11,0.6,0.7
2023-09-06T00:00:00,1684A,110.3316,21.2679,湛江市,麻章区环保局,,49,49,34,21,16,101,74,91,84,14,14,26,12,0.7,0.7
2023-09-06T00:00:00,1685A,110.4558,21.2567,湛江市,坡头区环保局,,30,30,27,14,18,104,95,98,93,16,11,6,13,0.7,0.7
2023-09-06T00:00:00,1686A,111.0286,21.4688,茂名市,电白南海,,31,24,37,14,24,148,98,132,113,8,14,8,13,0.6,0.8
2023-09-06T00:00:00,1687A,110.9294,21.6533,茂名市,茂石化七小,,32,29,28,22,20,108,79,88,88,11,10,14,12,0.6,0.7
2023-09-06T00:00:00,1688A,110.9107,21.6687,茂名市,健康路,,27,22,23,12,12,120,86,93,92,8,9,8,13,0.6,0.8
2023-09-06T00:00:00,1689A,110.8592,21.6828,茂名市,高岭,,27,27,30,17,22,103,72,85,84,14,11,5,10,0.7,0.7
2023-09-06T00:00:00,1690A,116.1231,24.3284,梅州市,梅江月梅,,9,4,17,5,8,37,14,32,21,18,14,2,2,0.6,0.5
2023-09-06T00:00:00,1691A,116.0797,24.2719,梅州市,梅县新城,,8,7,16,4,8,37,21,34,24,15,15,6,5,0.7,0.6
2023-09-06T00:00:00,1692A,116.1248,24.2654,梅州市,环境监控中心,,15,15,17,5,9,38,29,25,25,10,15,7,8,0.5,0.5
2023-09-06T00:00:00,1693A,115.3653,22.775,汕尾市,市环保局,,26,21,22,18,18,76,39,65,50,8,7,9,8,0.6,0.6
2023-09-06T00:00:00,1694A,115.3706,22.7898,汕尾市,市政府,,23,21,21,16,21,83,44,68,56,11,8,6,6,0.7,0.7
2023-09-06T00:00:00,1695A,115.3622,22.7925,汕尾市,新城中学,,27,27,24,18,17,64,33,55,44,14,8,7,6,0.7,0.7
2023-09-06T00:00:00,1696A,114.6778,23.7569,河源市,源西,,12,8,34,8,22,66,32,62,39,11,9,4,5,0.7,0.7
2023-09-06T00:00:00,1697A,114.6944,23.7586,河源市,东埔,,15,5,36,10,25,67,39,64,40,7,8,5,5,0.6,0.6
2023-09-06T00:00:00,1698A,114.6892,23.7233,河源市,老城,,19,19,33,8,18,67,38,65,43,8,7,4,4,0.6,0.6
2023-09-06T00:00:00,1699A,111.9797,21.8593,阳江市,鸳鸯湖,,38,14,27,26,13,131,119,114,114,5,8,5,5,0.8,0.8
2023-09-06T00:00:00,1701A,111.9491,21.8658,阳江市,马南垌,,33,30,29,23,16,123,94,104,104,10,8,6,6,0.5,0.5
2023-09-06T00:00:00,1702A,113.0426,23.691,清远市,环保大楼,,,,31,,24,90,,84,71,,10,,7,,0.7
2023-09-06T00:00:00,1703A,113.0208,23.7106,清远市,凤城街办,,50,50,39,30,26,86,41,80,61,18,8,6,6,0.7,0.6
2023-09-06T00:00:00,1705A,116.6367,23.6719,潮州市,西园路,,13,8,13,6,8,42,39,34,34,10,8,4,4,0.4,0.4
2023-09-06T00:00:00,1706A,116.6447,23.6706,潮州市,档案局,,15,6,10,10,8,43,43,37,37,8,6,6,5,0.4,0.4
2023-09-06T00:00:00,1708A,116.3701,23.5345,揭阳市,新兴,,25,25,15,13,11,41,23,37,26,18,6,9,6,0.8,0.6
2023-09-06T00:00:00,1709A,116.3264,23.5443,揭阳市,西马,,19,14,17,13,11,39,26,34,26,16,9,9,6,0.8,0.7
2023-09-06T00:00:00,1710A,116.3611,23.5626,揭阳市,东兴,,23,23,16,12,10,40,26,36,25,21,13,7,3,0.8,0.7
2023-09-06T00:00:00,1711A,116.4151,23.5294,揭阳市,渔湖,,22,22,15,3,9,45,27,40,27,17,10,5,4,0.7,0.6
2023-09-06T00:00:00,1712A,112.0392,22.9169,云浮市,新市府,,28,27,28,19,16,96,25,85,46,10,10,8,10,0.9,0.8
2023-09-06T00:00:00,1714A,112.0539,22.9539,云浮市,牧羊,,35,35,33,22,16,101,11,91,36,44,24,25,16,0.5,0.6
2023-09-06T00:00:00,1715A,102.575,24.3711,玉溪市,东风水库,,26,26,17,17,12,87,30,79,63,17,9,7,6,0.8,0.6
2023-09-06T00:00:00,1718A,115.4208,35.2464,菏泽市,气象局,细颗粒物(PM2.5),85,104,93,63,55,230,156,205,182,23,35,4,4,0.8,0.7
2023-09-06T00:00:00,1719A,115.4747,35.2375,菏泽市,市政协,细颗粒物(PM2.5),100,97,86,75,60,232,169,209,185,18,22,6,6,0.7,0.7
2023-09-06T00:00:00,1721A,113.3819,40.1097,大同市,果树场,,,,,,,,,,,,,,,,
2023-09-06T00:00:00,1723A,113.2994,40.0758,大同市,云冈宾馆,颗粒物(PM10),51,52,54,24,21,145,50,132,96,47,32,8,10,0.5,0.6
2023-09-06T00:00:00,1724A,113.3444,40.0917,大同市,大同大学,,40,40,43,15,19,145,73,136,106,28,24,8,17,0.4,0.6
2023-09-06T00:00:00,1725A,113.2661,40.1269,大同市,安家小村,,40,40,47,7,15,146,71,134,103,18,20,11,12,0.5,0.5
2023-09-06T00:00:00,1726A,113.2711,40.0844,大同市,教育学院,颗粒物(PM10),53,56,53,19,20,149,39,136,95,52,35,7,10,0.7,0.7
2023-09-06T00:00:00,1727A,113.1147,36.1547,长治市,清华站,细颗粒物(PM2.5),77,65,61,56,35,173,113,152,133,19,21,10,10,1.2,0.9
2023-09-06T00:00:00,1728A,113.1031,36.1989,长治市,监测站,细颗粒物(PM2.5),62,58,54,44,35,175,116,162,142,25,25,6,8,1.2,1.7
2023-09-06T00:00:00,1730A,113.0886,36.2125,长治市,审计局,细颗粒物(PM2.5),67,51,52,48,37,165,151,149,145,9,19,8,9,0.9,1.4
2023-09-06T00:00:00,1731A,113.0844,36.1856,长治市,长治八中,颗粒物(PM10),61,71,65,40,33,167,107,151,132,20,22,10,10,1.1,0.9
2023-09-06T00:00:00,1733A,111.5531,36.0783,临汾市,临钢医院,,43,43,65,22,26,185,113,164,128,13,20,9,9,0.7,0.8
2023-09-06T00:00:00,1734A,111.5028,36.0714,临汾市,技工学校,颗粒物(PM10),51,51,68,35,38,180,100,162,121,19,19,8,9,0.6,0.8
2023-09-06T00:00:00,1736A,111.5018,36.0855,临汾市,市委,颗粒物(PM10),55,59,71,29,36,165,103,151,113,17,20,10,10,0.6,0.7
2023-09-06T00:00:00,1738A,113.5758,37.8572,阳泉市,市中心,颗粒物(PM10),68,85,78,46,49,187,62,179,149,48,30,9,37,1.0,1.2
2023-09-06T00:00:00,1739A,113.4894,37.8731,阳泉市,赛鱼,细颗粒物(PM2.5),63,55,74,45,50,177,54,171,126,13,25,8,13,0.8,1
2023-09-06T00:00:00,1740A,113.5819,37.8486,阳泉市,南庄,细颗粒物(PM2.5),64,75,105,46,50,187,114,181,150,12,27,6,33,0.9,1.1
2023-09-06T00:00:00,1742A,113.5614,37.8703,阳泉市,平坦,细颗粒物(PM2.5),100,101,96,75,58,184,54,178,147,51,29,9,32,0.8,1
2023-09-06T00:00:00,1743A,113.5158,37.8392,阳泉市,大阳泉,细颗粒物(PM2.5),72,86,72,52,51,181,176,174,165,14,14,7,8,0.8,1
2023-09-06T00:00:00,1744A,118.9233,42.2816,赤峰市,松山一中,细颗粒物(PM2.5),62,67,58,44,29,143,48,118,83,33,34,16,20,0.9,0.9
2023-09-06T00:00:00,1745A,118.9576,42.2728,赤峰市,哈达街,细颗粒物(PM2.5),74,73,61,54,36,137,24,107,64,51,39,30,32,0.8,0.7
2023-09-06T00:00:00,1746A,118.8788,42.2554,赤峰市,天义路,细颗粒物(PM2.5),64,52,48,46,32,153,37,132,93,38,28,12,17,0.7,0.6
2023-09-06T00:00:00,1748A,123.044,41.1196,鞍山市,深沟寺,,42,42,66,22,41,134,26,109,75,34,23,3,5,0.6,0.9
2023-09-06T00:00:00,1749A,123.011,41.0931,鞍山市,太阳城,细颗粒物(PM2.5),54,51,73,38,55,149,28,114,86,28,26,6,8,0.8,1
2023-09-06T00:00:00,1750A,123.0485,41.1442,鞍山市,太平,,49,49,92,23,44,139,24,109,76,47,30,7,8,0.7,1
2023-09-06T00:00:00,1751A,122.9642,41.0971,鞍山市,铁西三道街,,37,37,90,20,53,128,33,94,53,37,45,11,26,0.9,2.5
2023-09-06T00:00:00,1752A,122.9341,41.0833,鞍山市,铁西工业园区,颗粒物(PM10),58,65,93,32,53,150,18,117,77,44,37,30,18,2.2,2.1
2023-09-06T00:00:00,1753A,123.022,41.0821,鞍山市,明达新区,,41,41,72,20,43,140,26,109,82,36,28,4,6,0.7,0.9
2023-09-06T00:00:00,1754A,123.1289,41.0228,鞍山市,千山,,,,,,,,,,,,,,,,
2023-09-06T00:00:00,1755A,123.7977,41.8491,抚顺市,望花区,颗粒物(PM10),51,51,39,22,40,112,28,92,61,37,15,7,5,0.3,0.4
2023-09-06T00:00:00,1756A,123.9161,41.8822,抚顺市,顺城区,,30,30,43,10,25,119,46,100,51,24,24,5,5,0.2,0.5
2023-09-06T00:00:00,1757A,124.0436,41.8611,抚顺市,东洲区,,28,28,40,10,24,122,22,109,60,33,16,8,9,0.4,0.6
2023-09-06T00:00:00,1758A,123.9247,41.8642,抚顺市,新抚区,,27,27,38,10,28,124,35,103,61,20,18,9,6,0.4,0.6
2023-09-06T00:00:00,1759A,124.0972,41.8961,抚顺市,大伙房水库,,17,17,30,8,18,112,25,100,63,29,12,5,5,0.3,0.5
2023-09-06T00:00:00,1760A,123.7086,41.8391,抚顺市,沈抚新城,,27,27,30,11,21,103,25,90,48,32,14,6,5,0.5,0.6
2023-09-06T00:00:00,1761A,123.8275,41.3064,本溪市,大峪,,43,43,65,20,34,126,14,113,63,29,22,5,5,0.7,1
2023-09-06T00:00:00,1762A,123.7567,41.3325,本溪市,溪湖,,41,41,67,17,35,133,21,116,64,27,22,7,8,0.8,1
2023-09-06T00:00:00,1763A,123.7169,41.3094,本溪市,彩屯,,29,29,65,16,42,126,14,105,57,31,31,6,6,0.7,1.2
2023-09-06T00:00:00,1764A,123.7669,41.2864,本溪市,东明,,41,41,65,26,42,134,22,119,62,33,30,6,7,0.8,1.1
2023-09-06T00:00:00,1765A,123.7992,41.2664,本溪市,新立屯,,33,29,57,23,32,126,10,114,41,37,28,7,8,0.7,1.1
2023-09-06T00:00:00,1766A,123.8142,41.3472,本溪市,威宁,,48,48,54,23,40,111,8,98,38,22,20,6,6,0.9,1.1
2023-09-06T00:00:00,1767A,121.1115,41.0879,锦州市,南山,,20,20,39,10,26,130,64,114,84,18,16,6,5,0.6,0.7
2023-09-06T00:00:00,1768A,121.0533,40.8434,锦州市,开发区,,25,22,39,17,25,129,28,118,82,49,22,5,7,0.6,0.7
2023-09-06T00:00:00,1769A,121.1836,41.1119,锦州市,百股街道,,30,30,38,12,29,130,47,113,78,24,17,5,5,0.5,0.7
2023-09-06T00:00:00,1770A,121.1178,41.1222,锦州市,天安街道,,28,21,45,19,30,117,59,107,74,15,16,9,8,0.5,0.8
2023-09-06T00:00:00,1771A,121.1303,41.1386,锦州市,北湖公园,,22,22,50,13,28,119,58,109,75,11,12,8,8,0.6,0.8
2023-09-06T00:00:00,1772A,126.54,43.8622,吉林市,哈达湾,,29,29,30,9,14,86,32,78,50,25,18,10,10,0.5,0.7
2023-09-06T00:00:00,1773A,126.5844,43.8358,吉林市,东局子,,31,31,25,12,16,84,7,77,40,37,18,6,8,0.7,0.7
2023-09-06T00:00:00,1774A,126.5052,43.8245,吉林市,电力学院,,28,28,30,8,15,83,9,76,42,28,15,15,13,0.6,0.6
2023-09-06T00:00:00,1775A,126.6133,43.8972,吉林市,江北,,30,30,29,15,13,83,28,76,48,14,14,9,9,0.6,0.6
2023-09-06T00:00:00,1776A,126.555,43.8306,吉林市,江南公园,,30,30,31,10,19,85,7,76,36,35,22,6,8,0.6,0.8
2023-09-06T00:00:00,1778A,126.7061,43.7133,吉林市,丰满,,,,,,,,,,,,,,,,
2023-09-06T00:00:00,1779A,123.9305,47.3636,齐齐哈尔市,安居小区,,21,21,30,5,14,56,56,48,46,5,15,5,5,0.3,0.3
2023-09-06T00:00:00,1780A,123.9488,47.3386,齐齐哈尔市,中心广场,,17,17,18,8,11,54,49,50,46,8,11,3,2,0.3,0.3
2023-09-06T00:00:00,1781A,123.9483,47.3227,齐齐哈尔市,农牧车辆厂,,15,14,23,2,5,54,47,52,51,9,11,9,6,0.3,0.3
2023-09-06T00:00:00,1783A,123.945,47.2988,齐齐哈尔市,市环境监测站,,14,12,15,6,8,58,44,55,51,12,10,5,4,0.2,0.2
2023-09-06T00:00:00,1784A,129.61,44.561,牡丹江市,环保大楼,,21,21,17,9,11,100,21,79,41,10,11,5,5,0.4,0.5
2023-09-06T00:00:00,1785A,129.6115,44.5782,牡丹江市,文化广场,,39,26,24,27,16,91,6,75,37,28,15,6,6,0.5,0.4
2023-09-06T00:00:00,1786A,129.5904,44.5963,牡丹江市,第一医院,,33,28,20,23,12,91,23,74,36,8,11,5,5,0.3,0.4
2023-09-06T00:00:00,1787A,129.6364,44.6075,牡丹江市,机车工厂,,34,34,26,8,10,93,18,77,41,12,9,2,3,0.5,0.6
2023-09-06T00:00:00,1788A,129.6386,44.5462,牡丹江市,第一中学,,15,15,18,5,6,98,10,79,32,12,10,5,5,0.4,0.5
2023-09-06T00:00:00,1789A,124.81117,46.03138,大庆市,大同区,,16,14,19,8,11,67,51,62,51,7,9,6,5,0.3,0.3
2023-09-06T00:00:00,1790A,125.129,46.533,大庆市,龙凤区,,15,12,17,5,8,94,47,74,49,6,10,2,3,0.2,0.2
2023-09-06T00:00:00,1791A,124.902,46.408,大庆市,红岗区,,22,22,16,14,9,104,48,86,54,10,11,3,3,0.4,0.6
2023-09-06T00:00:00,1792A,125.153,46.586,大庆市,萨尔图区,,23,23,18,7,5,106,52,75,54,8,10,6,6,0.3,0.4
2023-09-06T00:00:00,1793A,124.9042,46.6215,大庆市,让胡路区,,26,26,19,10,11,89,58,73,56,8,12,4,4,0.3,0.3
2023-09-06T00:00:00,1794A,118.3606,31.3519,芜湖市,监测站,,42,42,31,26,21,106,55,95,81,19,14,6,6,0.6,0.6
2023-09-06T00:00:00,1795A,118.3714,31.4134,芜湖市,科创中心,,40,40,38,24,22,106,34,92,64,35,26,7,8,1.5,0.8
2023-09-06T00:00:00,1796A,118.3673,31.3131,芜湖市,四水厂,,37,37,34,24,20,111,60,99,84,21,17,4,4,0.6,0.6
2023-09-06T00:00:00,1798A,118.5092,31.6837,马鞍山市,湖东路四小,,30,30,29,19,20,101,27,86,65,16,15,9,10,0.4,0.4
2023-09-06T00:00:00,1799A,118.5024,31.6449,马鞍山市,开发区,,30,30,32,16,21,105,32,93,69,11,11,7,7,0.6,0.7
2023-09-06T00:00:00,1800A,118.5228,31.7231,马鞍山市,慈湖,,31,31,33,17,20,102,25,91,65,20,18,11,11,0.5,0.6
2023-09-06T00:00:00,1802A,118.6245,31.7241,马鞍山市,濮塘,,25,14,19,17,18,96,23,82,54,10,7,3,4,0.7,0.8
2023-09-06T00:00:00,1803A,115.9872,29.6815,九江市,十里,,36,36,40,25,27,119,59,113,94,15,12,10,9,0.6,0.7
2023-09-06T00:00:00,1804A,115.9584,29.7046,九江市,茅山头,,31,31,38,17,27,124,63,116,94,17,17,9,9,0.7,0.7
2023-09-06T00:00:00,1805A,115.9877,29.7295,九江市,西园,,,,40,,21,100,,70,,,18,,10,,0.4
2023-09-06T00:00:00,1806A,116.0172,29.6547,九江市,五七二七厂,,36,36,35,21,22,122,58,104,84,12,11,9,10,0.6,0.6
2023-09-06T00:00:00,1808A,115.9114,29.6038,九江市,综合工业园,,35,35,39,22,23,134,72,119,103,14,16,12,12,0.7,0.7
2023-09-06T00:00:00,1809A,116.0721,29.7535,九江市,石化总厂,,40,40,44,22,22,124,53,116,89,22,18,8,8,0.8,0.8
2023-09-06T00:00:00,1810A,115.9773,29.5698,九江市,庐山气象台,,29,18,15,20,14,115,69,78,76,6,17,7,9,0.9,0.8
2023-09-06T00:00:00,1812A,112.3931,34.6516,洛阳市,市委党校,细颗粒物(PM2.5),88,85,83,65,62,206,84,190,160,31,25,6,9,0.7,0.6
2023-09-06T00:00:00,1814A,112.4657,34.6871,洛阳市,豫西宾馆,细颗粒物(PM2.5),94,109,86,70,55,205,71,186,141,39,21,6,5,1.2,1
2023-09-06T00:00:00,1815A,112.494,34.6886,洛阳市,河南林校,细颗粒物(PM2.5),78,95,76,57,48,207,67,187,136,44,22,8,7,0.7,0.6
2023-09-06T00:00:00,1816A,112.3844,34.623,洛阳市,开发区管委会,细颗粒物(PM2.5),72,81,73,52,44,209,88,192,147,17,18,3,3,0.6,0.5
2023-09-06T00:00:00,1817A,112.4267,34.6258,洛阳市,市委新办公区,细颗粒物(PM2.5),105,98,72,79,57,201,103,183,149,16,10,,5,0.8,0.6
2023-09-06T00:00:00,1818A,114.4839,36.0621,安阳市,棉研所,,,,,,,,,,,,,,,,
2023-09-06T00:00:00,1819A,114.3551,36.1017,安阳市,红庙街,颗粒物(PM10),73,95,83,51,45,178,86,172,143,29,19,3,5,1.2,1.1
2023-09-06T00:00:00,1820A,114.361,36.0681,安阳市,银杏小区,,,95,80,,,183,12,176,128,49,19,5,7,0.7,0.8
2023-09-06T00:00:00,1824A,114.3389,34.7781,开封市,肿瘤医院,细颗粒物(PM2.5),87,92,84,64,53,184,99,177,136,18,15,12,6,0.9,0.8
2023-09-06T00:00:00,1826A,114.2885,34.7965,开封市,世纪星幼儿园,,,90,78,,,186,98,175,142,23,20,6,6,0.7,0.7
2023-09-06T00:00:00,1828A,113.227,35.2125,焦作市,市环保局,细颗粒物(PM2.5),68,69,66,49,46,204,110,188,146,17,13,6,7,0.8,0.6
2023-09-06T00:00:00,1830A,113.1992,35.2590,焦作市,影视城,,,,,,,,,,,,,,,,
2023-09-06T00:00:00,1832A,113.3257,33.742,平顶山市,新华旅馆,颗粒物(PM10),62,73,69,41,39,185,124,176,146,27,30,8,8,0.8,0.6
2023-09-06T00:00:00,1833A,113.2919,33.737,平顶山市,规划设计院,颗粒物(PM10),63,76,63,42,40,182,120,175,146,32,27,10,8,0.9,0.7
2023-09-06T00:00:00,1834A,113.182,33.774,平顶山市,平顶山工学院,颗粒物(PM10),64,77,79,36,38,198,110,187,152,31,21,7,7,0.9,0.8
2023-09-06T00:00:00,1835A,111.1922,34.7752,三门峡市,市政府,细颗粒物(PM2.5),67,79,60,48,37,172,96,159,149,38,20,6,7,0.9,0.8
2023-09-06T00:00:00,1836A,111.1587,34.7942,三门峡市,开发区,颗粒物(PM10),71,91,74,44,36,169,148,159,159,19,16,6,8,0.7,0.6
2023-09-06T00:00:00,1838A,111.143,34.7955,三门峡市,风景区,,,,,,,,,,,,,,,,
2023-09-06T00:00:00,1840A,111.2992,30.6981,宜昌市,白龙岗,颗粒物(PM10),52,53,44,29,22,174,99,154,124,13,18,2,2,0.6,0.6
2023-09-06T00:00:00,1841A,111.3549,30.6465,宜昌市,伍家岗,,41,41,34,27,23,174,98,160,122,16,19,6,6,0.5,0.5
2023-09-06T00:00:00,1842A,111.2628,30.6961,宜昌市,点军区,颗粒物(PM10),59,67,39,34,22,177,87,166,132,16,16,8,7,0.8,0.7
2023-09-06T00:00:00,1843A,111.3275,30.7819,宜昌市,夷陵区,细颗粒物(PM2.5),58,48,37,41,21,164,66,146,120,22,18,6,6,0.5,0.4
2023-09-06T00:00:00,1844A,112.2494,30.3197,荆州市,市图书馆,颗粒物(PM10),67,83,34,42,18,145,79,138,110,15,13,10,11,0.5,0.6
2023-09-06T00:00:00,1845A,112.2008,30.3544,荆州市,市委党校,"颗粒物(PM10),细颗粒物(PM2.5)",53,56,40,37,24,152,71,140,102,19,17,10,12,0.7,0.6
2023-09-06T00:00:00,1847A,113.1094,29.3578,岳阳市,南湖风景区,,46,41,41,32,29,164,78,157,121,15,13,10,8,0.7,0.7
2023-09-06T00:00:00,1848A,113.1493,29.4251,岳阳市,城陵矶,,46,38,42,32,28,154,75,146,114,16,16,8,9,0.8,0.8
2023-09-06T00:00:00,1849A,113.1497,29.3575,岳阳市,开发区,,50,50,46,25,28,163,80,158,121,13,14,7,8,0.7,0.8
2023-09-06T00:00:00,1850A,113.2621,29.4758,岳阳市,云溪区,,39,39,35,25,26,163,77,153,118,10,11,7,8,0.7,0.8
2023-09-06T00:00:00,1851A,112.9943,29.4402,岳阳市,君山区,,45,34,43,31,32,147,86,133,111,8,10,8,9,0.6,0.7
2023-09-06T00:00:00,1852A,113.2117,29.355,岳阳市,金凤水库,,43,42,40,30,27,175,83,163,124,9,9,4,5,0.7,0.8
2023-09-06T00:00:00,1854A,111.6975,28.9703,常德市,市二中,,44,44,54,22,35,146,107,142,128,8,11,6,8,0.7,0.8
2023-09-06T00:00:00,1857A,111.7158,29.1456,常德市,白鹤山,,36,19,21,3,6,155,115,148,141,3,2,8,10,0.6,0.6
2023-09-06T00:00:00,1858A,110.5319,29.1217,张家界市,永定新区,,48,48,42,26,28,137,76,129,103,27,17,6,6,0.4,0.4
2023-09-06T00:00:00,1859A,110.4697,29.1242,张家界市,电业局,,,,42,,28,130,,76,,,16,,4,,0.5
2023-09-06T00:00:00,1860A,110.5594,29.3547,张家界市,未央路,细颗粒物(PM2.5),53,48,41,37,25,136,52,122,83,14,8,3,4,0.6,0.5
2023-09-06T00:00:00,1861A,110.4417,29.315,张家界市,袁家界,,42,33,32,11,18,152,132,125,125,5,5,8,8,0.6,0.7
2023-09-06T00:00:00,1862A,110.4144,25.3167,桂林市,电子科大尧山校区,,40,40,41,26,26,103,68,94,76,8,7,4,4,0.7,0.7
2023-09-06T00:00:00,1863A,110.2819,25.2697,桂林市,监测站,,48,48,45,28,27,110,86,102,87,12,10,9,9,0.7,0.7
2023-09-06T00:00:00,1864A,110.3089,25.2708,桂林市,龙隐路小学,,41,41,40,27,26,109,83,103,89,9,7,8,8,0.8,0.8
2023-09-06T00:00:00,1865A,110.2869,25.2178,桂林市,八中,,40,29,41,28,28,110,87,106,93,11,11,5,6,0.8,0.7
2023-09-06T00:00:00,1866A,109.2262,21.588,北海市,牛尾岭水库,,30,30,25,20,18,117,54,78,69,13,9,5,14,0.6,0.8
2023-09-06T00:00:00,1867A,109.1436,21.4086,北海市,海滩公园,,35,35,30,24,14,126,84,108,97,10,9,8,5,0.6,0.7
2023-09-06T00:00:00,1868A,109.0981,21.4661,北海市,新市环保局,,42,35,27,29,18,111,77,104,93,11,7,12,6,0.6,0.6
2023-09-06T00:00:00,1869A,109.1778,21.5233,北海市,北海工业园,,47,47,32,27,19,96,61,92,84,21,12,7,10,0.6,0.6
2023-09-06T00:00:00,1870A,109.4856,24.3895,柳州市,柳东小学,细颗粒物(PM2.5),58,38,27,41,24,96,70,92,87,10,5,10,11,0.5,0.4
2023-09-06T00:00:00,1871A,109.4157,24.3277,柳州市,环保监测站,,36,28,30,25,22,86,61,82,77,10,9,4,6,0.6,0.4
2023-09-06T00:00:00,1872A,109.389,24.341,柳州市,河西水厂,,42,42,38,28,22,88,54,81,77,15,18,6,11,0.5,0.7
2023-09-06T00:00:00,1873A,109.4311,24.2921,柳州市,市四中,,48,48,32,32,19,90,67,84,80,15,10,8,9,0.8,0.7
2023-09-06T00:00:00,1874A,109.4006,24.3631,柳州市,市九中,,43,43,36,24,21,90,64,84,78,8,9,6,8,0.6,1
2023-09-06T00:00:00,1875A,109.4958,24.3134,柳州市,古亭山,,42,42,30,27,19,98,56,94,84,11,7,9,7,0.6,0.5
2023-09-06T00:00:00,1876A,109.5078,18.2489,三亚市,河东子站,,26,17,17,8,8,103,81,97,93,6,7,4,3,0.5,0.5
2023-09-06T00:00:00,1877A,109.4964,18.2681,三亚市,河西子站,,21,21,14,10,9,105,66,96,89,10,5,2,2,0.5,0.5
2023-09-06T00:00:00,1878A,104.7778,31.4741,绵阳市,富乐山,细颗粒物(PM2.5),53,53,58,37,42,200,79,168,116,19,19,3,4,0.8,0.8
2023-09-06T00:00:00,1879A,104.7563,31.4535,绵阳市,市人大,颗粒物(PM10),53,56,68,36,46,193,95,165,121,22,31,10,11,0.7,0.8
2023-09-06T00:00:00,1880A,104.6697,31.4668,绵阳市,高新区自来水公司,细颗粒物(PM2.5),85,105,80,63,47,195,88,181,122,30,33,9,9,0.7,0.6
2023-09-06T00:00:00,1881A,104.7287,31.5075,绵阳市,三水厂,细颗粒物(PM2.5),70,72,90,51,59,200,74,163,115,38,41,8,8,0.9,0.6
2023-09-06T00:00:00,1882A,104.563,28.793,宜宾市,石马中学,,,,,,,,,,,,,,,,
2023-09-06T00:00:00,1883A,104.6201,28.7728,宜宾市,市委,细颗粒物(PM2.5),65,75,54,47,34,184,41,161,124,48,25,12,12,0.7,0.6
2023-09-06T00:00:00,1884A,104.6055,28.793,宜宾市,宜宾四中,细颗粒物(PM2.5),72,88,57,52,38,195,43,170,97,49,27,14,11,0.7,0.6
2023-09-06T00:00:00,1885A,104.639,28.7562,宜宾市,市政府,细颗粒物(PM2.5),89,91,65,66,42,183,21,158,98,65,33,11,11,0.8,0.7
2023-09-06T00:00:00,1886A,104.5742,28.7199,宜宾市,黄金嘴,,45,45,45,28,32,172,39,152,98,44,22,10,12,0.5,0.6
2023-09-06T00:00:00,1888A,101.6891,26.571,攀枝花市,弄弄坪,颗粒物(PM10),63,76,59,39,33,184,60,148,108,29,26,20,17,1.5,1.7
2023-09-06T00:00:00,1889A,101.5769,26.5928,攀枝花市,河门口,颗粒物(PM10),58,65,53,38,29,226,66,173,132,23,22,12,16,1.1,1.1
2023-09-06T00:00:00,1890A,101.7169,26.585,攀枝花市,炳草岗,细颗粒物(PM2.5),60,60,61,43,33,203,36,167,102,55,35,16,21,1.4,1.5
2023-09-06T00:00:00,1891A,101.7369,26.5008,攀枝花市,仁和,细颗粒物(PM2.5),53,54,50,37,32,178,59,156,103,19,21,8,17,0.5,0.8
2023-09-06T00:00:00,1893A,105.4324,28.9634,泸州市,九狮山,颗粒物(PM10),67,84,51,37,32,114,44,108,70,22,21,7,8,0.6,0.4
2023-09-06T00:00:00,1894A,105.4427,28.9063,泸州市,小市上码头,细颗粒物(PM2.5),79,81,59,58,41,148,73,134,107,31,20,9,12,0.6,0.6
2023-09-06T00:00:00,1895A,105.4241,28.8573,泸州市,兰田宪桥,颗粒物(PM10),56,62,52,38,39,127,30,118,83,42,20,12,9,0.5,0.6
2023-09-06T00:00:00,1896A,105.4379,28.8833,泸州市,市环监站,颗粒物(PM10),62,73,54,41,35,123,55,115,94,41,24,32,10,0.6,0.6
2023-09-06T00:00:00,1901A,104.4239,31.1208,德阳市,东山公园,颗粒物(PM10),66,82,74,37,37,202,126,187,142,20,20,2,6,0.7,0.7
2023-09-06T00:00:00,1902A,104.3826,31.1317,德阳市,西小区,颗粒物(PM10),61,71,82,36,49,205,127,186,144,7,31,3,8,0.6,0.8
2023-09-06T00:00:00,1904A,104.3553,31.1091,德阳市,耐火材料厂,颗粒物(PM10),51,52,97,31,50,217,114,196,144,14,29,3,9,0.7,0.9
2023-09-06T00:00:00,1905A,106.056,30.8064,南充市,西山风景区,细颗粒物(PM2.5),58,43,56,41,42,178,119,165,142,10,14,5,6,0.3,0.6
2023-09-06T00:00:00,1906A,106.0789,30.8023,南充市,南充市委,细颗粒物(PM2.5),58,60,63,41,46,205,77,179,122,29,24,10,11,0.5,0.6
2023-09-06T00:00:00,1907A,106.1031,30.8217,南充市,南充炼油厂,颗粒物(PM10),74,97,78,45,44,200,28,174,113,57,22,11,10,0.6,0.6
2023-09-06T00:00:00,1908A,106.1064,30.7856,南充市,高坪区监测站,细颗粒物(PM2.5),64,75,65,46,45,183,55,160,102,37,31,9,9,0.4,0.4
2023-09-06T00:00:00,1909A,106.0642,30.7636,南充市,嘉陵区环保局,细颗粒物(PM2.5),55,56,66,39,45,206,90,177,113,33,33,8,8,0.4,0.6
2023-09-06T00:00:00,1910A,106.1087,30.8388,南充市,市环境监测站,"颗粒物(PM10),细颗粒物(PM2.5)",68,85,71,49,46,186,53,163,114,40,24,10,10,0.5,0.5
2023-09-06T00:00:00,1911A,106.9222,27.6869,遵义市,丁字口,,29,29,26,20,17,108,23,96,57,42,25,6,5,0.7,0.6
2023-09-06T00:00:00,1912A,106.9242,27.7019,遵义市,凤凰山,,36,31,28,25,21,132,41,120,93,37,15,8,8,0.7,0.5
2023-09-06T00:00:00,1913A,106.8906,27.6486,遵义市,忠庄,,47,47,33,31,20,124,57,115,83,23,25,3,2,0.5,0.5
2023-09-06T00:00:00,1914A,106.9231,27.6506,遵义市,舟水桥,细颗粒物(PM2.5),60,60,36,43,20,129,23,118,66,25,16,2,2,0.8,0.7
2023-09-06T00:00:00,1915A,106.9178,27.72,遵义市,干田坝,,38,32,24,26,17,132,22,116,70,34,16,6,6,0.7,0.6
2023-09-06T00:00:00,1916A,103.7897,25.5035,曲靖市,环境监测站,,28,26,41,19,18,111,72,103,78,13,18,5,11,0.4,0.8
2023-09-06T00:00:00,1917A,103.8,25.5364,曲靖市,烟厂办公区,,24,21,31,14,17,113,75,108,83,8,14,4,9,0.4,0.6
2023-09-06T00:00:00,1918A,108.7197,34.3956,咸阳市,气象站,,,,,,,,,,,,,,,,
2023-09-06T00:00:00,1919A,108.673,34.3155,咸阳市,实验中学,,39,39,53,19,24,169,69,146,89,26,18,6,7,0.4,0.5
2023-09-06T00:00:00,1920A,108.7233,34.3617,咸阳市,师范学院,,45,45,48,17,23,159,72,139,84,26,22,4,5,0.4,0.5
2023-09-06T00:00:00,1922A,109.0656,35.0994,铜川市,党校,颗粒物(PM10),62,73,49,27,24,139,114,136,110,34,26,11,12,0.7,0.7
2023-09-06T00:00:00,1923A,109.0697,35.0697,铜川市,王益区政府,,44,44,37,24,22,143,102,139,110,8,13,6,6,0.5,0.5
2023-09-06T00:00:00,1924A,108.9344,34.9058,铜川市,新区管委会,,42,42,44,22,24,151,15,145,83,13,14,7,7,0.5,0.6
2023-09-06T00:00:00,1926A,109.4131,36.6275,延安市,枣园,颗粒物(PM10),53,55,37,22,20,140,9,135,80,68,26,6,7,0.5,0.5
2023-09-06T00:00:00,1927A,109.4761,36.6028,延安市,延大医附院,颗粒物(PM10),52,54,40,19,19,144,22,135,91,66,25,4,5,0.7,0.6
2023-09-06T00:00:00,1929A,109.5056,36.6106,延安市,百米大道,颗粒物(PM10),52,54,46,21,24,142,56,137,106,37,25,11,9,0.8,0.8
2023-09-06T00:00:00,1930A,107.185,34.3063,宝鸡市,庙沟村,,38,38,48,24,28,155,96,137,119,10,12,8,8,0.2,0.2
2023-09-06T00:00:00,1931A,107.0708,34.3017,宝鸡市,竹园沟,,38,32,41,26,26,187,69,156,114,19,16,5,6,0.6,0.6
2023-09-06T00:00:00,1932A,107.1906,34.3672,宝鸡市,三陆医院,颗粒物(PM10),53,56,64,30,33,205,57,179,133,39,27,6,9,0.6,0.6
2023-09-06T00:00:00,1933A,107.1431,34.3547,宝鸡市,监测站,,46,46,53,32,30,200,72,170,121,32,27,7,8,0.5,0.5
2023-09-06T00:00:00,1934A,107.1186,34.3739,宝鸡市,技工学校,细颗粒物(PM2.5),57,55,62,40,40,197,70,174,132,29,23,6,8,0.6,0.7
2023-09-06T00:00:00,1935A,107.3906,34.3528,宝鸡市,陈仓区环保局家属楼,颗粒物(PM10),52,53,60,28,28,204,63,179,130,41,27,8,8,0.6,0.6
2023-09-06T00:00:00,1936A,107.2058,34.3497,宝鸡市,文理学院,颗粒物(PM10),55,59,57,21,28,208,71,181,136,33,22,6,7,0.6,0.6
2023-09-06T00:00:00,1937A,107.2386,34.3622,宝鸡市,三迪小学,颗粒物(PM10),58,65,59,20,32,203,75,178,133,29,23,6,7,0.6,0.6
2023-09-06T00:00:00,1938A,109.5293,34.5101,渭南市,农科所,颗粒物(PM10),53,56,46,31,27,146,58,137,90,24,19,5,5,0.5,0.4
2023-09-06T00:00:00,1939A,109.4974,34.4877,渭南市,日报社,颗粒物(PM10),52,53,48,32,28,153,21,146,77,67,27,6,5,0.5,0.4
2023-09-06T00:00:00,1940A,109.4636,34.493,渭南市,体育馆,颗粒物(PM10),60,70,50,32,24,156,12,149,69,79,37,6,5,0.6,0.5
2023-09-06T00:00:00,1941A,109.4259,34.5023,渭南市,高新一小,颗粒物(PM10),51,52,55,31,24,154,95,147,108,14,16,6,6,0.5,0.6
2023-09-06T00:00:00,1943A,102.1725,38.5339,金昌市,新川苑,,,,169,,38,119,,118,118,,26,,7,,0.4
2023-09-06T00:00:00,1944A,102.1692,38.5167,金昌市,天庆家园,颗粒物(PM10),67,83,112,35,37,134,58,124,103,49,20,46,19,0.9,0.7
2023-09-06T00:00:00,1945A,98.2908,39.7711,嘉峪关市,气象局,颗粒物(PM10),118,185,183,58,59,143,11,133,89,107,46,7,19,0.5,0.7
2023-09-06T00:00:00,1947A,106.3394,38.817,石嘴山市,沙湖旅游区,,42,42,52,17,20,176,85,164,118,12,10,10,13,0.5,0.6
2023-09-06T00:00:00,1948A,106.3668,39.0145,石嘴山市,大武口朝阳西街,颗粒物(PM10),60,70,63,18,20,164,86,156,115,15,15,13,11,0.5,0.4
2023-09-06T00:00:00,1949A,106.7704,39.2282,石嘴山市,惠农南大街,,,40,60,17,19,126,,121,113,18,17,14,8,0.7,0.6
2023-09-06T00:00:00,1950A,106.7099,39.1325,石嘴山市,红果子镇惠新街,,35,35,60,17,18,126,92,123,106,15,17,48,11,0.3,0.3
2023-09-06T00:00:00,1951A,84.895,45.6094,克拉玛依市,长征新村,,27,8,12,7,6,94,84,86,77,1,7,10,9,0.2,0.2
2023-09-06T00:00:00,1952A,84.8988,45.5893,克拉玛依市,南林小区,,27,6,10,5,6,96,85,88,77,5,9,6,6,0.3,0.3
2023-09-06T00:00:00,1954A,84.905,44.3396,克拉玛依市,独山子区,,21,9,8,11,9,122,66,105,96,6,5,6,7,0.4,0.3
2023-09-06T00:00:00,1955A,85.6979,46.098,克拉玛依市,乌尔禾区商贸楼,,25,11,15,2,6,87,77,84,81,1,3,7,6,0.3,0.3
2023-09-06T00:00:00,1956A,86.1472,41.7538,巴音郭楞州,孔雀公园,,25,21,89,6,21,116,80,102,78,10,12,7,7,0.2,0.3
2023-09-06T00:00:00,1957A,86.1972,41.7166,巴音郭楞州,棉纺厂,,24,20,97,15,25,118,75,104,82,14,10,5,5,0.3,0.3
2023-09-06T00:00:00,1958A,86.2357,41.7173,巴音郭楞州,经济开发区,,25,24,91,10,20,118,79,107,89,11,6,9,7,0.1,0.2
2023-09-06T00:00:00,1961A,117.532,36.6868,济南市,东山小学,颗粒物(PM10),77,103,74,44,37,269,59,232,132,45,31,10,7,0.8,0.7
2023-09-06T00:00:00,1966A,120.0405,35.8735,青岛市,黄岛区4号,,34,34,25,14,13,126,23,106,66,47,24,6,5,0.5,0.4
2023-09-06T00:00:00,1982A,122.0693,37.2174,威海市,文登开发区,颗粒物(PM10),58,66,36,36,18,176,139,150,150,8,10,7,6,0.6,0.5
2023-09-06T00:00:00,2031A,113.1817,27.9958,株洲市,云田中学,,28,28,39,17,27,148,27,126,58,10,13,6,6,0.7,0.8
2023-09-06T00:00:00,2054A,114.1099,32.1059,信阳市,平桥分局,,33,29,27,23,18,103,81,97,90,18,14,4,3,0.6,0.6
2023-09-06T00:00:00,2064A,113.9956,32.1271,信阳市,南湾水厂,,50,50,41,22,17,100,82,98,89,17,12,5,4,0.7,0.7
2023-09-06T00:00:00,2065A,114.0775,32.1195,信阳市,市酿酒公司,,43,43,28,21,18,102,89,99,96,18,16,4,3,0.6,0.6
2023-09-06T00:00:00,2066A,114.0609,32.1399,信阳市,审计局,,47,47,38,22,16,112,93,106,102,14,14,5,4,0.6,0.6
2023-09-06T00:00:00,2067A,114.6613,33.6128,周口市,市环境监测站,细颗粒物(PM2.5),69,71,45,50,28,191,135,176,163,22,16,7,7,0.8,0.5
2023-09-06T00:00:00,2068A,114.6758,33.6347,周口市,周口师范,颗粒物(PM10),67,84,50,46,27,188,88,170,142,21,11,5,6,0.7,0.6
2023-09-06T00:00:00,2069A,114.6546,33.5979,周口市,市运管处,颗粒物(PM10),63,75,51,42,27,185,136,167,158,20,17,8,9,0.7,0.5
2023-09-06T00:00:00,2070A,114.6369,33.6406,周口市,川汇区环保局,颗粒物(PM10),68,86,55,46,25,181,102,166,138,20,14,8,7,0.8,0.6
2023-09-06T00:00:00,2075A,117.6336,24.4674,漳州市,九湖,,,,,,,,,,,,,,,,
2023-09-06T00:00:00,2160A,112.85,35.5051,晋城市,自来水公司,颗粒物(PM10),81,112,70,51,37,204,90,185,172,39,18,10,10,1.2,1
2023-09-06T00:00:00,2161A,112.8318,35.4936,晋城市,白云商贸,颗粒物(PM10),78,105,76,41,35,200,81,180,168,36,23,9,9,1.0,0.9
2023-09-06T00:00:00,2162A,112.8508,35.4887,晋城市,市环保局,颗粒物(PM10),79,108,80,44,38,189,76,170,150,58,27,9,9,1.1,0.9
2023-09-06T00:00:00,2163A,112.8676,35.4897,晋城市,技术学院,颗粒物(PM10),61,71,65,39,35,191,117,174,161,31,26,8,8,1.0,0.9
2023-09-06T00:00:00,2165A,112.8453,35.546,晋城市,白马寺,,,,,,,,,,,,,,,,
2023-09-06T00:00:00,2166A,112.4397,39.3522,朔州市,平朔,颗粒物(PM10),57,63,62,35,25,143,88,138,110,16,26,5,7,0.9,0.8
2023-09-06T00:00:00,2167A,112.4575,39.3617,朔州市,朔唯,颗粒物(PM10),68,86,83,38,28,137,75,131,102,19,26,6,10,0.8,0.7
2023-09-06T00:00:00,2168A,112.4258,39.3197,朔州市,区政府,细颗粒物(PM2.5),59,56,50,42,29,133,92,129,108,21,26,5,8,0.7,0.6
2023-09-06T00:00:00,2169A,112.4072,39.3278,朔州市,市环保局,颗粒物(PM10),53,56,58,30,23,145,100,139,117,19,28,4,11,0.6,0.6
2023-09-06T00:00:00,2170A,112.4272,39.3681,朔州市,市二中,细颗粒物(PM2.5),59,66,67,42,26,135,79,130,105,20,28,7,9,0.8,0.7
2023-09-06T00:00:00,2171A,112.7532,37.6945,晋中市,锦纶小区,颗粒物(PM10),63,75,64,35,34,182,146,168,160,16,14,11,10,0.7,0.7
2023-09-06T00:00:00,2173A,112.7249,37.7067,晋中市,南都小区,细颗粒物(PM2.5),67,78,71,48,48,176,141,161,151,17,16,9,8,0.6,0.6
2023-09-06T00:00:00,2174A,112.6991,37.6982,晋中市,榆次区政府,颗粒物(PM10),63,75,72,38,42,175,141,160,153,16,16,11,10,0.7,0.6
2023-09-06T00:00:00,2175A,110.9956,35.0147,运城市,运城中学,臭氧1小时,70,68,62,40,32,184,176,174,174,6,6,5,5,0.5,0.4
2023-09-06T00:00:00,2178A,110.9686,35.0303,运城市,地区技校,细颗粒物(PM2.5),65,70,55,47,32,172,167,163,163,6,7,4,5,0.7,0.4
2023-09-06T00:00:00,2179A,111.0414,35.1147,运城市,空港新区,臭氧1小时,70,70,69,42,37,180,176,170,170,9,9,4,5,0.6,0.5
2023-09-06T00:00:00,2181A,112.7383,38.4519,忻州市,开发区,细颗粒物(PM2.5),62,57,54,44,37,154,63,138,108,38,20,9,11,0.9,0.7
2023-09-06T00:00:00,2182A,112.7003,38.4928,忻州市,会展中心,细颗粒物(PM2.5),67,56,51,48,39,149,101,133,106,26,21,15,12,0.7,0.6
2023-09-06T00:00:00,2183A,111.1406,37.5211,吕梁市,环保局,颗粒物(PM10),78,106,80,34,36,172,10,155,85,92,43,3,3,0.7,0.8
2023-09-06T00:00:00,2185A,111.1297,37.5136,吕梁市,自来水公司,颗粒物(PM10),58,65,87,31,37,181,46,163,108,74,39,6,5,0.7,0.8
2023-09-06T00:00:00,2187A,106.8174,39.6973,乌海市,市林业局,颗粒物(PM10),73,95,78,22,19,137,126,131,131,7,10,11,12,0.7,0.7
2023-09-06T00:00:00,2188A,106.7907,39.6667,乌海市,中海勃湾学校,颗粒物(PM10),58,66,69,14,18,137,120,128,127,10,13,11,13,0.4,0.5
2023-09-06T00:00:00,2191A,122.2532,43.6801,通辽市,艺术职业学校,,43,43,24,0,9,102,56,96,71,16,13,6,5,0,0.2
2023-09-06T00:00:00,2192A,119.7594,49.2261,呼伦贝尔市,区环保局,颗粒物(PM10),70,89,43,26,16,73,4,64,36,44,23,4,4,0.7,0.5
2023-09-06T00:00:00,2195A,107.4212,40.761,巴彦淖尔市,附二中,颗粒物(PM10),52,53,70,23,22,152,124,146,140,9,8,4,5,0.5,0.5
2023-09-06T00:00:00,2196A,107.37,40.7372,巴彦淖尔市,市环保大楼,,44,44,66,26,24,150,122,144,140,6,6,5,5,0.4,0.5
2023-09-06T00:00:00,2197A,113.1306,40.9923,乌兰察布市,集宁新区,,34,34,34,22,18,162,78,146,116,21,19,38,18,0.5,0.6
2023-09-06T00:00:00,2200A,122.0392,46.0656,兴安盟,胜华新制药厂,,18,18,24,12,16,80,57,72,68,6,8,2,3,0.4,0.4
2023-09-06T00:00:00,2201A,121.9504,46.0741,兴安盟,科右前旗环保局,,28,25,23,19,18,82,58,73,67,6,7,3,4,0.5,0.5
2023-09-06T00:00:00,2202A,116.1042,43.9317,锡林郭勒盟,市环保监测站,,41,41,26,11,8,133,78,125,101,3,6,13,14,0.3,0.2
2023-09-06T00:00:00,2203A,116.0781,43.9311,锡林郭勒盟,市政府,,26,23,19,7,5,139,82,133,109,6,7,11,13,0.3,0.2
2023-09-06T00:00:00,2204A,105.6467,38.8363,阿拉善盟,西城区西花园,,35,35,54,22,22,128,99,122,112,9,9,8,8,0.6,0.6
2023-09-06T00:00:00,2205A,105.6985,38.8411,阿拉善盟,蒙二幼,颗粒物(PM10),53,55,83,23,22,232,132,184,144,6,8,8,8,0.5,0.4
2023-09-06T00:00:00,2206A,105.724,38.8516,阿拉善盟,环保局新楼,,38,38,57,21,22,156,120,146,136,6,6,6,7,0.5,0.4
2023-09-06T00:00:00,2207A,121.6094,41.998,阜新市,工业园区,,49,49,54,10,17,94,12,83,53,43,21,5,37,1.1,0.9
2023-09-06T00:00:00,2208A,121.6697,42.0279,阜新市,长青街,颗粒物(PM10),52,53,46,24,22,88,23,77,50,29,19,22,31,0.7,0.6
2023-09-06T00:00:00,2209A,121.6673,42.0705,阜新市,农业园区,,50,25,32,35,22,81,68,73,65,11,11,11,15,4.6,1.4
2023-09-06T00:00:00,2210A,121.6717,42.0224,阜新市,东苑,颗粒物(PM10),56,61,51,21,21,88,34,76,49,31,19,52,35,0.9,0.7
2023-09-06T00:00:00,2211A,121.6506,42.0498,阜新市,玉龙新城,颗粒物(PM10),57,63,43,16,17,70,6,61,35,43,22,5,20,1.0,1
2023-09-06T00:00:00,2212A,123.2,41.1953,辽阳市,宏伟区,,50,50,79,28,43,142,19,107,76,47,29,25,12,0.6,0.9
2023-09-06T00:00:00,2213A,123.1683,41.2495,辽阳市,新华园,,47,47,65,18,35,136,14,100,68,49,31,16,12,0.7,0.9
2023-09-06T00:00:00,2214A,123.2354,41.2639,辽阳市,滨河路,颗粒物(PM10),58,65,65,30,42,134,9,103,66,51,31,41,13,0.8,1
2023-09-06T00:00:00,2215A,123.149,41.2991,辽阳市,铁西工业园,,35,35,58,23,31,145,5,104,54,50,36,6,7,0.6,0.8
2023-09-06T00:00:00,2216A,123.8139,42.3022,铁岭市,汇工街西,,29,19,24,7,13,106,2,101,42,58,18,7,10,0.5,0.6
2023-09-06T00:00:00,2217A,123.8649,42.2923,铁岭市,水上乐园,,29,29,28,9,13,98,16,90,34,37,28,2,2,0.5,0.6
2023-09-06T00:00:00,2218A,123.8486,42.2867,铁岭市,银州路东段,,14,14,24,5,14,96,29,90,42,21,23,3,3,0.4,0.5
2023-09-06T00:00:00,2219A,123.7153,42.2217,铁岭市,金沙江路北,,23,23,23,7,13,105,44,97,58,28,16,6,6,0.6,0.7
2023-09-06T00:00:00,2220A,120.4318,41.5881,朝阳市,西梁,,37,37,79,20,41,130,37,121,75,27,17,18,16,0.6,0.9
2023-09-06T00:00:00,2221A,120.4521,41.5646,朝阳市,河畔小区,,28,28,85,16,40,132,64,123,84,12,12,18,14,0.5,0.8
2023-09-06T00:00:00,2222A,120.4176,41.5648,朝阳市,八里堡,,32,32,75,17,42,135,41,125,80,28,18,17,14,0.7,1
2023-09-06T00:00:00,2223A,120.3806,41.5969,朝阳市,农业园区,,27,27,57,14,42,132,29,121,61,34,23,11,11,0.6,0.8
2023-09-06T00:00:00,2225A,124.4002,43.1713,四平市,一商场,,22,22,29,8,14,93,30,84,46,32,18,7,7,0.2,0.3
2023-09-06T00:00:00,2226A,124.388,43.193,四平市,境园,,31,31,27,17,16,94,2,89,44,36,13,3,4,0.3,0.3
2023-09-06T00:00:00,2227A,125.1358,42.8845,辽源市,环保局,,21,21,16,10,9,103,6,91,53,29,11,7,9,0.6,0.6
2023-09-06T00:00:00,2229A,125.9358,41.7173,通化市,光明,,25,25,37,11,18,114,26,100,58,10,16,7,11,0.3,0.8
2023-09-06T00:00:00,2230A,125.9446,41.7325,通化市,铁路,,22,19,28,15,17,116,25,104,64,11,15,5,9,0.6,1.1
2023-09-06T00:00:00,2231A,126.4219,41.9171,白山市,喜丰,,46,46,56,12,16,39,8,31,24,23,18,21,19,0.6,0.7
2023-09-06T00:00:00,2232A,126.4077,41.9419,白山市,环保局,,43,43,37,9,15,120,20,107,59,18,11,7,9,0.1,0.3
2023-09-06T00:00:00,2233A,124.8006,45.1214,松原市,江南,,20,20,16,9,6,73,37,66,42,13,12,6,5,0.4,0.4
2023-09-06T00:00:00,2234A,124.7965,45.1722,松原市,江北,,28,28,53,17,15,69,22,69,36,27,23,5,3,0.5,0.5
2023-09-06T00:00:00,2235A,122.7911,45.6077,白城市,洮北区环保局,,17,13,16,4,7,75,53,68,52,8,12,5,5,0.1,0.1
2023-09-06T00:00:00,2236A,122.8738,45.5725,白城市,市环保局,,18,18,20,5,5,81,53,73,60,17,11,7,6,0.3,0.3
2023-09-06T00:00:00,2237A,129.47,42.8883,延边朝鲜族自治州,妇幼医院,,11,9,27,3,14,112,34,99,55,12,12,8,8,0.4,0.6
2023-09-06T00:00:00,2238A,129.5055,42.9108,延边朝鲜族自治州,延边医院,,25,25,32,7,14,115,49,99,60,16,15,6,6,0.6,0.7
2023-09-06T00:00:00,2239A,129.3964,42.8881,延边朝鲜族自治州,朝阳川镇医院,,16,16,24,1,10,118,30,104,59,7,7,8,8,0.5,0.6
2023-09-06T00:00:00,2240A,130.9762,45.3001,鸡西市,环保局,颗粒物(PM10),53,56,35,25,18,53,0,39,18,25,19,5,5,0.6,0.4
2023-09-06T00:00:00,2243A,130.9429,45.3039,鸡西市,第一中学,,25,25,24,12,13,70,5,53,32,21,13,6,6,0.3,0.2
2023-09-06T00:00:00,2244A,130.2537,47.3416,鹤岗市,哈啤分公司,,34,34,18,19,13,55,17,48,25,21,14,9,9,0.2,0.3
2023-09-06T00:00:00,2245A,130.2684,47.3086,鹤岗市,斯达机电,,22,22,17,12,11,57,13,51,31,10,8,8,8,0.3,0.3
2023-09-06T00:00:00,2246A,130.3114,47.3388,鹤岗市,东山纸板厂,颗粒物(PM10),84,118,35,15,16,54,0,49,13,17,9,12,10,0.7,0.4
2023-09-06T00:00:00,2247A,130.1097,47.3382,鹤岗市,五号水库,,9,8,12,6,8,60,13,53,25,8,5,9,11,0.3,0.3
2023-09-06T00:00:00,2248A,131.1511,46.6937,双鸭山市,双合村,颗粒物(PM10),63,75,34,17,10,57,2,44,15,18,10,14,7,2.0,0.3
2023-09-06T00:00:00,2249A,131.1652,46.6191,双鸭山市,南小市,,17,17,27,5,12,57,11,44,21,7,8,5,5,0.2,0.2
2023-09-06T00:00:00,2250A,131.1524,46.6554,双鸭山市,环保局,,41,41,30,19,14,57,6,44,17,17,14,11,9,1.0,0.4
2023-09-06T00:00:00,2251A,131.12,46.5656,双鸭山市,苗圃,,14,12,16,9,8,75,42,65,51,4,6,3,4,0.4,0.4
2023-09-06T00:00:00,2252A,128.5159,47.4311,伊春市,环保局,,16,16,21,11,6,53,11,50,20,8,7,5,4,0.3,0.3
2023-09-06T00:00:00,2253A,128.9102,47.7412,伊春市,电力嘉园,,17,17,18,8,12,55,9,51,19,5,6,5,5,0.4,0.5
2023-09-06T00:00:00,2254A,129.5029,48.471,伊春市,汤旺河国家公园,,20,19,15,14,13,60,13,56,23,2,2,14,13,0.4,0.4
2023-09-06T00:00:00,2255A,130.2751,46.8028,佳木斯市,佳纺,,32,32,30,10,11,54,8,45,26,19,12,2,3,0.4,0.5
2023-09-06T00:00:00,2256A,130.3995,46.8307,佳木斯市,发电厂,,35,35,21,18,13,64,4,55,32,22,8,6,4,0.6,0.4
2023-09-06T00:00:00,2257A,130.3258,46.7975,佳木斯市,环保局,,33,33,27,12,10,56,11,46,22,22,15,3,3,0.4,0.5
2023-09-06T00:00:00,2258A,130.3648,46.8032,佳木斯市,十一中,,36,36,22,15,12,58,8,52,29,27,14,4,4,0.5,0.5
2023-09-06T00:00:00,2259A,130.3794,46.7588,佳木斯市,四丰,,17,17,18,4,8,71,30,57,39,5,8,1,1,0.2,0.3
2023-09-06T00:00:00,2262A,131.0518,45.8751,七台河市,新一中,,12,12,18,7,15,61,15,48,34,6,7,7,7,0.7,0.8
2023-09-06T00:00:00,2263A,127.4833,50.2524,黑河市,交通局,,38,38,16,8,9,63,3,51,16,20,16,6,7,0.5,0.5
2023-09-06T00:00:00,2264A,127.5144,50.2341,黑河市,环保局,,26,26,17,10,8,64,7,53,28,23,11,3,8,0.3,0.3
2023-09-06T00:00:00,2265A,127.5291,50.2472,黑河市,大黑河岛,,,30,13,12,11,,,,,2,2,1,4,0.5,0.4
2023-09-06T00:00:00,2266A,126.9785,46.6365,绥化市,人和东街,,16,16,15,7,6,68,46,60,46,15,11,4,4,0.3,0.2
2023-09-06T00:00:00,2267A,126.964,46.6528,绥化市,党政办公中心,,18,11,9,6,4,66,57,60,53,9,7,4,9,0.3,0.2
2023-09-06T00:00:00,2269A,124.1069,50.4097,大兴安岭地区,科技局,,26,24,13,18,8,68,18,59,34,4,4,4,3,0.3,0.3
2023-09-06T00:00:00,2270A,117.396,32.939,蚌埠市,工人疗养院,,42,42,43,17,16,71,31,60,42,24,10,3,3,0.3,0.4
2023-09-06T00:00:00,2271A,117.3605,32.9427,蚌埠市,百货大楼,,50,50,42,18,16,69,37,62,46,21,9,4,4,0.3,0.3
2023-09-06T00:00:00,2273A,117.4185,32.8911,蚌埠市,蚌埠学院,,44,44,38,27,20,70,8,58,30,56,22,27,8,0.3,0.4
2023-09-06T00:00:00,2274A,117.3533,32.9673,蚌埠市,淮上区政府,,34,34,40,10,20,66,40,59,44,15,12,4,4,0.3,0.4
2023-09-06T00:00:00,2275A,117.3145,32.8977,蚌埠市,高新区,,26,24,32,18,19,82,62,68,58,14,10,6,4,0.5,0.5
2023-09-06T00:00:00,2277A,116.8305,32.7727,淮南市,潘集区政府,,32,32,38,13,20,79,32,63,51,16,16,6,7,0.2,0.2
2023-09-06T00:00:00,2278A,117.0067,32.6524,淮南市,师范学院,,28,28,41,17,22,81,28,59,47,20,17,11,9,0.3,0.4
2023-09-06T00:00:00,2279A,116.8569,32.5951,淮南市,谢家集区政府,,22,22,30,3,11,94,23,69,53,25,20,7,6,0.0,0.2
2023-09-06T00:00:00,2280A,116.8281,32.633,淮南市,八公山区政府,,25,25,44,13,28,85,30,62,50,12,15,6,6,0.3,0.4
2023-09-06T00:00:00,2281A,116.6325,32.6201,淮南市,焦岗湖风景区管理处,,27,27,29,4,23,68,13,52,35,22,13,3,2,0.3,0.3
2023-09-06T00:00:00,2282A,116.8004,33.975,淮北市,监测站,,50,50,44,20,20,166,88,150,120,16,19,2,3,0.5,0.4
2023-09-06T00:00:00,2283A,116.8091,33.9007,淮北市,烈山区政府,,48,48,40,19,19,168,82,150,123,16,11,8,7,0.4,0.4
2023-09-06T00:00:00,2285A,117.8177,30.9412,铜陵市,市第四中学,,35,35,40,20,20,74,37,70,56,11,16,9,7,0.1,0.2
2023-09-06T00:00:00,2286A,117.8059,30.9273,铜陵市,市公路局,,29,26,34,20,21,77,37,74,57,14,19,8,7,0.3,0.5
2023-09-06T00:00:00,2287A,117.7807,30.9413,铜陵市,市新民污水厂,颗粒物(PM10),52,53,43,21,18,86,4,80,58,68,17,8,6,0.4,0.4
2023-09-06T00:00:00,2288A,117.7439,30.8792,铜陵市,市第九中学,颗粒物(PM10),56,61,48,30,20,84,12,77,55,48,20,13,8,1.5,0.7
2023-09-06T00:00:00,2289A,117.846,30.9413,铜陵市,车站新区,,32,32,33,19,23,80,38,72,59,12,15,7,5,0.2,0.3
2023-09-06T00:00:00,2290A,117.8483,30.97,铜陵市,市职教基地,,32,32,28,10,12,79,8,68,52,31,12,4,4,0.6,0.6
2023-09-06T00:00:00,2291A,117.0809,30.5177,安庆市,环科院,,25,25,34,17,20,128,58,107,77,11,11,10,7,0.5,0.5
2023-09-06T00:00:00,2292A,117.0331,30.5119,安庆市,马山宾馆,,23,23,32,15,20,131,61,113,83,10,11,8,5,0.6,0.6
2023-09-06T00:00:00,2294A,116.9896,30.6145,安庆市,安庆大学,,34,34,32,20,19,113,59,99,78,11,10,6,5,0.5,0.5
2023-09-06T00:00:00,2295A,118.2903,29.6963,黄山市,延安路89号,,34,34,36,1,6,66,42,61,53,9,7,5,4,0.3,0.3
2023-09-06T00:00:00,2296A,118.327,29.7178,黄山市,黄山东路89号,,18,18,22,1,10,67,37,56,47,9,7,5,5,0.3,0.4
2023-09-06T00:00:00,2297A,118.1371,30.2756,黄山市,黄山区政府5号楼,,31,31,33,10,11,49,1,47,14,11,9,6,6,0.4,0.4
2023-09-06T00:00:00,2298A,118.3093,32.3153,滁州市,老年大学,,21,21,24,5,9,73,41,63,52,12,9,5,5,0.1,0.1
2023-09-06T00:00:00,2299A,118.3244,32.2786,滁州市,人大宾馆,,10,10,15,5,7,71,32,60,47,15,13,7,6,0.2,0.3
2023-09-06T00:00:00,2301A,115.8277,32.8929,阜阳市,市监测站,,26,26,24,12,12,106,61,98,86,14,11,6,7,0.4,0.4
2023-09-06T00:00:00,2303A,115.8554,32.8605,阜阳市,开发区,,41,41,33,22,25,95,57,88,75,19,14,8,8,0.4,0.4
2023-09-06T00:00:00,2307A,116.5079,31.737,六安市,监测大楼,,19,19,30,1,11,104,30,84,63,16,11,4,6,0.4,0.4
2023-09-06T00:00:00,2308A,116.4738,31.7643,六安市,皖西学院,,18,18,33,4,9,98,29,84,64,17,11,6,7,0.2,0.2
2023-09-06T00:00:00,2309A,116.4996,31.7905,六安市,朝阳厂,,12,12,26,1,12,94,34,83,62,13,10,7,7,0.5,0.5
2023-09-06T00:00:00,2310A,116.5567,31.7886,六安市,开发区,,34,34,37,18,17,88,22,76,56,23,9,6,6,0.4,0.5
2023-09-06T00:00:00,2311A,115.8072,33.8399,亳州市,污水处理厂,颗粒物(PM10),62,74,47,42,26,174,95,157,124,19,15,22,12,0.8,0.7
2023-09-06T00:00:00,2312A,115.7789,33.8518,亳州市,三国揽胜宫,颗粒物(PM10),63,76,48,44,26,170,121,158,143,20,17,23,14,0.8,0.7
2023-09-06T00:00:00,2314A,117.47,30.6618,池州市,池州学院,,32,32,32,20,20,104,30,78,50,22,18,6,6,0.5,0.6
2023-09-06T00:00:00,2316A,118.7581,30.9454,宣城市,鳌峰子站,,37,37,29,16,17,73,41,61,43,26,22,4,4,0.5,0.6
2023-09-06T00:00:00,2317A,118.7385,30.9743,宣城市,敬亭山子站,,28,28,34,16,15,73,32,55,39,24,26,7,9,0.3,0.5
2023-09-06T00:00:00,2318A,118.7173,30.9427,宣城市,开发区子站,,27,27,29,16,17,77,41,62,46,30,24,5,6,0.4,0.5
2023-09-06T00:00:00,2319A,119.0141,25.4325,莆田市,荔城区仓后路,,16,2,14,1,5,75,49,57,49,7,6,8,8,0.7,0.7
2023-09-06T00:00:00,2320A,119.0015,25.4553,莆田市,莆田市监测站,,17,4,18,1,3,73,54,59,52,3,5,6,7,0.6,0.6
2023-09-06T00:00:00,2321A,119.1119,25.4561,莆田市,涵江区六中,,19,5,18,0,6,74,58,60,52,7,7,7,7,0.6,0.6
2023-09-06T00:00:00,2322A,119.1013,25.3215,莆田市,秀屿区政府,,16,10,16,0,5,71,51,59,53,5,4,7,9,0.5,0.7
2023-09-06T00:00:00,2323A,118.981,25.4792,莆田市,东圳水库,,,,,,,,,,,,,,,,
2023-09-06T00:00:00,2324A,117.6211,26.2625,三明市,三钢,,13,6,18,9,14,41,28,32,24,3,7,6,7,0.4,0.3
2023-09-06T00:00:00,2325A,117.635,26.2714,三明市,三明二中,,9,2,15,1,10,42,28,36,26,9,11,2,3,0.4,0.5
2023-09-06T00:00:00,2326A,117.6028,26.2378,三明市,三元区政府,,9,6,17,3,10,42,27,33,25,5,9,6,8,0.5,0.6
2023-09-06T00:00:00,2327A,117.7275,26.3108,三明市,洋溪,,,,,,,,,,,,,,,,
2023-09-06T00:00:00,2331A,118.0966,26.6761,南平市,茫荡山,,,,,,,,,,,,,,,,
2023-09-06T00:00:00,2332A,118.1681,26.6369,南平市,南平市监测站,,10,8,15,4,9,46,29,41,31,6,7,4,4,0.4,0.4
2023-09-06T00:00:00,2333A,118.1825,26.6489,南平市,南平铝业有限公司,,19,19,17,5,9,47,25,40,32,7,6,3,3,0.4,0.4
2023-09-06T00:00:00,2334A,118.1756,26.6272,南平市,南平七中,,7,7,16,4,10,45,21,39,29,5,5,4,5,0.5,0.5
2023-09-06T00:00:00,2335A,117.0189,25.1181,龙岩市,龙岩师专,,,,,,,,,,,,,,,,
2023-09-06T00:00:00,2336A,117.0217,25.1033,龙岩市,龙岩市监测站,,16,12,8,5,5,56,49,51,51,8,6,5,3,0.3,0.3
2023-09-06T00:00:00,2337A,117.0258,25.0661,龙岩市,闽西职业技术学院,,15,12,8,4,5,52,45,46,46,4,5,4,4,0.3,0.3
2023-09-06T00:00:00,2338A,117.0196,25.0306,龙岩市,龙岩学院,,13,5,8,4,3,47,39,40,40,7,6,2,3,0.3,0.3
2023-09-06T00:00:00,2339A,119.5001,26.6946,宁德市,金涵水库,,,,,,,,,,,,,,,,
2023-09-06T00:00:00,2341A,119.5388,26.6612,宁德市,宁德市监测站,,12,12,7,6,5,29,22,25,24,6,7,4,4,0.5,0.5
2023-09-06T00:00:00,2342A,117.3102,29.3867,景德镇市,王港中学,,28,16,21,19,13,36,7,30,10,7,6,4,4,0.3,0.4
2023-09-06T00:00:00,2343A,117.2117,29.2933,景德镇市,老干部活动中心,,21,21,27,13,15,54,23,50,28,9,9,4,4,0.2,0.2
2023-09-06T00:00:00,2344A,117.1894,29.2789,景德镇市,兽医站,,35,35,28,14,20,59,26,55,29,10,10,7,7,0.4,0.4
2023-09-06T00:00:00,2345A,117.1547,29.2617,景德镇市,台达陶瓷,,28,28,24,19,17,60,25,57,31,12,10,3,4,0.3,0.3
2023-09-06T00:00:00,2346A,117.2461,29.2956,景德镇市,陶研所,,28,28,34,18,13,49,4,44,18,24,10,4,5,0.3,0.3
2023-09-06T00:00:00,2347A,114.0997,27.5002,萍乡市,武功山,,12,6,8,8,7,90,21,73,31,4,4,8,8,0.3,0.4
2023-09-06T00:00:00,2348A,113.8385,27.6434,萍乡市,中医院,,,,50,,36,96,54,84,67,7,12,24,17,0.6,0.9
2023-09-06T00:00:00,2349A,113.8493,27.6253,萍乡市,市政府车库,,38,38,42,26,27,100,53,86,68,9,12,43,15,0.4,0.6
2023-09-06T00:00:00,2350A,113.8676,27.6435,萍乡市,市环保局,,35,30,42,24,27,107,60,95,76,7,10,39,12,0.5,0.7
2023-09-06T00:00:00,2351A,113.866,27.6198,萍乡市,安源区政府,,41,41,42,27,28,97,50,88,67,14,12,36,13,1.2,1
2023-09-06T00:00:00,2352A,115.0861,27.9317,新余市,北岗,,29,27,32,20,24,79,13,70,33,14,8,18,15,0.7,0.7
2023-09-06T00:00:00,2353A,114.9886,27.8431,新余市,飞宇,,48,48,47,30,27,82,19,73,41,20,13,20,12,0.4,0.4
2023-09-06T00:00:00,2354A,114.9231,27.8246,新余市,第二水厂,,46,46,43,20,23,94,30,86,54,18,15,11,10,0.2,0.2
2023-09-06T00:00:00,2355A,114.9308,27.8036,新余市,市气象局,,40,40,41,22,28,84,27,76,46,15,11,12,10,0.6,0.6
2023-09-06T00:00:00,2357A,116.9822,28.1136,鹰潭市,龙虎山,,32,31,22,22,15,57,12,45,31,14,8,9,7,0.4,0.3
2023-09-06T00:00:00,2358A,117.0564,28.2642,鹰潭市,新监测站,,26,26,29,16,14,50,13,42,27,12,10,20,13,0.4,0.3
2023-09-06T00:00:00,2359A,117.0311,28.2475,鹰潭市,财苑宾馆,,33,32,29,23,13,62,14,49,32,16,10,38,21,0.5,0.4
2023-09-06T00:00:00,2360A,117.0222,28.2264,鹰潭市,体育馆,,42,42,34,23,16,60,2,49,21,20,17,40,21,0.6,0.5
2023-09-06T00:00:00,2361A,117.0017,28.2131,鹰潭市,三川水表,,49,49,36,28,19,61,0,46,17,25,20,30,14,0.8,0.6
2023-09-06T00:00:00,2362A,114.9017,25.9149,赣州市,通天岩,,,,,,,,,,,,,,,,
2023-09-06T00:00:00,2363A,114.9367,25.8664,赣州市,地委,,19,18,37,13,26,94,34,82,52,5,6,13,12,1.0,1.1
2023-09-06T00:00:00,2364A,114.9461,25.8481,赣州市,气象台,,20,11,33,14,26,105,31,88,50,8,10,5,6,0.6,0.8
2023-09-06T00:00:00,2365A,114.9322,25.8333,赣州市,市图书馆,,29,26,43,20,29,94,34,82,51,6,9,4,12,0.8,0.9
2023-09-06T00:00:00,2366A,114.8905,25.8471,赣州市,华坚鞋城,,23,23,39,14,26,101,38,88,55,4,7,3,3,0.6,0.7
2023-09-06T00:00:00,2367A,114.9754,27.0803,吉安市,红声器材厂,,33,33,42,20,23,84,35,73,43,14,12,5,8,0.7,0.7
2023-09-06T00:00:00,2368A,114.9658,27.0999,吉安市,市森林工业局,,32,32,40,18,25,87,31,74,42,9,8,9,10,0.7,0.8
2023-09-06T00:00:00,2369A,114.99,27.1312,吉安市,市环境监测站,颗粒物(PM10),62,73,44,16,22,87,22,74,35,15,12,6,11,0.7,0.6
2023-09-06T00:00:00,2370A,115.0093,27.0968,吉安市,青原区法院,,31,31,38,20,24,86,28,75,40,16,13,16,15,0.6,0.7
2023-09-06T00:00:00,2371A,114.3408,27.8064,宜春市,槟榔水业,,36,35,39,25,22,84,42,71,49,13,16,2,2,0.9,1
2023-09-06T00:00:00,2373A,114.3956,27.7844,宜春市,市石油公司,,43,43,41,25,24,98,27,79,45,17,15,5,7,0.8,0.8
2023-09-06T00:00:00,2374A,114.3703,27.7914,宜春市,市气象局,,,39,45,25,27,98,43,81,59,18,17,6,7,,0.8
2023-09-06T00:00:00,2375A,114.4013,27.8074,宜春市,市广电局,,46,39,41,32,29,97,49,85,60,11,13,8,12,0.8,0.9
2023-09-06T00:00:00,2376A,116.2127,28.0814,抚州市,桐源党溪,,24,24,30,9,20,77,14,58,25,3,3,3,2,0.6,0.7
2023-09-06T00:00:00,2377A,116.3544,27.9831,抚州市,市站,,24,24,37,15,24,85,22,62,32,15,10,7,2,1.0,1
2023-09-06T00:00:00,2378A,116.3565,27.963,抚州市,血防站,,31,31,42,7,22,88,20,63,32,9,4,5,3,0.5,0.7
2023-09-06T00:00:00,2379A,116.3564,28.0007,抚州市,采茶剧团,,24,24,35,14,23,82,15,58,28,10,6,2,3,0.8,0.9
2023-09-06T00:00:00,2380A,116.385,27.9647,抚州市,医学分院,,22,22,33,13,22,89,18,62,30,15,8,8,6,0.5,0.8
2023-09-06T00:00:00,2381A,118.005,28.4572,上饶市,百草园,,,,,,,,,,,,,,,,
2023-09-06T00:00:00,2382A,117.9756,28.4436,上饶市,市监测站,,39,39,28,25,14,83,45,48,45,10,9,7,7,0.3,0.3
2023-09-06T00:00:00,2383A,117.9519,28.4628,上饶市,凤凰光学,,50,50,29,28,16,69,23,41,28,19,12,5,8,0.4,0.4
2023-09-06T00:00:00,2385A,114.17,35.9019,鹤壁市,市监测站,颗粒物(PM10),112,174,87,76,52,205,48,185,94,70,30,6,6,0.9,0.9
2023-09-06T00:00:00,2386A,114.2956,35.7511,鹤壁市,市交警支队,细颗粒物(PM2.5),94,102,70,70,49,180,78,167,117,30,26,11,7,0.6,0.8
2023-09-06T00:00:00,2387A,114.2878,35.7306,鹤壁市,迎宾馆,细颗粒物(PM2.5),82,78,68,60,47,184,76,170,112,35,29,13,8,0.8,1
2023-09-06T00:00:00,2389A,113.836,35.311,新乡市,环保西院,颗粒物(PM10),86,121,75,47,44,182,74,177,129,37,31,8,8,1.2,1
2023-09-06T00:00:00,2390A,113.884,35.272,新乡市,开发区,"颗粒物(PM10),细颗粒物(PM2.5)",58,65,55,41,41,180,108,174,140,16,18,3,4,0.4,0.4
2023-09-06T00:00:00,2391A,113.883,35.303,新乡市,环保东院,细颗粒物(PM2.5),70,82,74,51,40,179,85,174,127,32,29,7,6,0.9,0.9
2023-09-06T00:00:00,2392A,115.0312,35.7636,濮阳市,环保局,细颗粒物(PM2.5),83,83,72,61,49,184,145,176,161,16,18,6,6,0.8,0.8
2023-09-06T00:00:00,2394A,115.0574,35.7609,濮阳市,油田运输公司,细颗粒物(PM2.5),92,104,83,68,52,187,146,178,164,14,18,8,8,0.8,0.7
2023-09-06T00:00:00,2395A,115.0866,35.7754,濮阳市,油田物探公司,细颗粒物(PM2.5),108,105,83,81,60,184,119,175,150,14,16,5,6,0.7,0.7
2023-09-06T00:00:00,2396A,113.8276,34.0159,许昌市,监测站,细颗粒物(PM2.5),68,74,68,49,38,185,144,176,160,16,23,20,6,0.5,0.5
2023-09-06T00:00:00,2398A,113.7906,33.9953,许昌市,开发区,细颗粒物(PM2.5),67,71,73,48,44,181,141,176,158,10,24,10,5,0.7,0.7
2023-09-06T00:00:00,2399A,114.051,33.5699,漯河市,三五一五工厂,颗粒物(PM10),66,81,58,44,30,189,120,167,147,21,21,13,13,0.8,0.6
2023-09-06T00:00:00,2400A,114.0055,33.5698,漯河市,漯河大学,颗粒物(PM10),61,71,50,41,26,197,143,179,167,15,15,10,9,0.7,0.6
2023-09-06T00:00:00,2401A,114.0138,33.5828,漯河市,市水利局,细颗粒物(PM2.5),64,75,53,46,32,186,117,167,152,21,20,10,11,0.7,0.6
2023-09-06T00:00:00,2402A,114.0261,33.5698,漯河市,市广电局,颗粒物(PM10),64,78,55,44,30,195,145,177,166,17,16,11,10,0.7,0.5
2023-09-06T00:00:00,2404A,112.5224,33.0122,南阳市,瓦房庄,颗粒物(PM10),62,74,60,40,31,156,118,148,135,15,13,6,6,0.8,0.7
2023-09-06T00:00:00,2405A,112.5003,32.9735,南阳市,汉画馆,颗粒物(PM10),54,58,52,33,28,156,129,148,142,14,14,7,7,0.7,0.6
2023-09-06T00:00:00,2406A,112.5573,33.027,南阳市,气象站,颗粒物(PM10),57,63,52,35,25,158,119,144,132,15,14,8,8,0.7,0.7
2023-09-06T00:00:00,2407A,112.5481,32.9689,南阳市,理工学院,颗粒物(PM10),55,59,54,37,31,160,137,148,136,9,11,5,5,0.5,0.5
2023-09-06T00:00:00,2408A,115.6702,34.4285,商丘市,环境监测站,颗粒物(PM10),64,77,55,39,29,205,128,181,162,26,16,9,9,0.6,0.6
2023-09-06T00:00:00,2409A,115.6458,34.4045,商丘市,粮食局,"颗粒物(PM10),细颗粒物(PM2.5)",59,67,48,42,31,205,137,186,174,30,14,4,7,0.8,0.7
2023-09-06T00:00:00,2410A,115.6293,34.3948,商丘市,睢阳区环保局,颗粒物(PM10),88,126,56,53,30,209,73,192,163,45,16,8,11,0.8,0.6
2023-09-06T00:00:00,2420A,114.0189,32.9656,驻马店市,市一纸厂,,43,43,40,27,22,144,133,136,136,11,20,7,8,0.4,0.5
2023-09-06T00:00:00,2421A,114.0114,33.015,驻马店市,市彩印厂,颗粒物(PM10),53,56,40,24,24,151,110,139,136,17,13,8,10,0.5,0.3
2023-09-06T00:00:00,2422A,113.9976,32.9771,驻马店市,天方二分厂,,45,45,36,30,27,144,133,137,137,9,13,6,7,0.2,0.2
2023-09-06T00:00:00,2423A,115.0601,30.2313,黄石市,沈家营,,40,40,51,18,21,141,20,124,62,26,15,10,8,0.4,0.5
2023-09-06T00:00:00,2424A,115.0817,30.2006,黄石市,陈家湾,,31,31,47,15,23,134,35,122,69,8,9,6,7,0.3,0.4
2023-09-06T00:00:00,2426A,114.8988,30.2019,黄石市,铁山,,25,19,42,6,24,142,80,134,98,4,17,7,9,0.5,1
2023-09-06T00:00:00,2427A,115.0307,30.2092,黄石市,团城山,,29,29,43,6,16,152,17,141,74,41,14,6,7,0.5,0.6
2023-09-06T00:00:00,2428A,111.0419,32.395,十堰市,武当山,,32,21,30,19,21,147,100,139,125,6,6,10,10,0.7,0.8
2023-09-06T00:00:00,2429A,110.78,32.6494,十堰市,滨河新村,颗粒物(PM10),59,68,55,28,33,147,50,140,114,36,19,8,9,0.8,0.8
2023-09-06T00:00:00,2430A,110.7258,32.6389,十堰市,刘家沟,,50,44,51,35,33,150,81,142,115,5,8,7,9,0.7,0.8
2023-09-06T00:00:00,2431A,110.8839,32.5714,十堰市,铁二处,,40,36,42,28,26,159,87,151,122,5,7,6,7,0.7,0.8
2023-09-06T00:00:00,2432A,112.155,32.0197,襄阳市,襄城运动路,颗粒物(PM10),52,53,48,12,25,131,85,126,105,18,18,7,9,0.5,0.6
2023-09-06T00:00:00,2433A,112.1392,32.0564,襄阳市,樊城新华路,,47,47,53,16,28,140,105,130,111,16,20,9,9,0.4,0.5
2023-09-06T00:00:00,2434A,112.1825,32.1142,襄阳市,高新管委会,颗粒物(PM10),52,53,52,24,30,138,107,128,112,13,19,8,8,0.7,0.8
2023-09-06T00:00:00,2435A,112.2106,32.0903,襄阳市,襄州航空路,颗粒物(PM10),54,58,48,19,23,133,93,126,107,20,21,8,8,0.6,0.7
2023-09-06T00:00:00,2436A,114.8938,30.3994,鄂州市,市政府,,15,15,33,7,17,134,25,120,56,20,12,3,3,0.5,0.7
2023-09-06T00:00:00,2437A,114.8989,30.3714,鄂州市,赵家坝,,31,31,45,10,18,145,35,130,62,22,18,3,4,0.4,0.6
2023-09-06T00:00:00,2439A,112.2014,31.0481,荆门市,竹园小学,颗粒物(PM10),52,53,48,31,24,168,98,154,125,15,15,14,12,0.6,0.7
2023-09-06T00:00:00,2440A,112.1969,30.9891,荆门市,掇刀,,45,45,43,26,22,155,94,146,116,12,11,7,8,0.5,0.5
2023-09-06T00:00:00,2441A,112.2213,31.0386,荆门市,石化一小,颗粒物(PM10),54,58,54,27,27,164,108,154,124,16,14,6,10,0.5,0.5
2023-09-06T00:00:00,2443A,113.9153,30.9285,孝感市,文化路,,34,34,29,14,20,128,74,118,92,7,9,7,8,0.5,0.8
2023-09-06T00:00:00,2444A,113.942,30.9075,孝感市,东城区,,23,16,36,10,18,131,72,123,93,10,10,7,8,0.5,0.6
2023-09-06T00:00:00,2446A,114.9028,30.4742,黄冈市,职工中心,,20,20,40,13,23,137,29,124,60,4,4,8,8,0.6,0.7
2023-09-06T00:00:00,2447A,114.3175,29.8142,咸宁市,森林公园,,34,34,38,18,21,141,57,130,101,4,4,5,7,0.8,0.8
2023-09-06T00:00:00,2448A,114.3107,29.8454,咸宁市,市发改委,,23,22,34,11,22,164,71,150,113,10,9,10,10,0.5,0.6
2023-09-06T00:00:00,2449A,114.2936,29.8566,咸宁市,咸安区政府,,25,24,37,17,26,166,69,149,107,12,14,11,11,0.6,0.7
