timepoint,stationcode,longitude,latitude,area,positionname,primarypollutant,aqi,pm10,pm10_24h,pm2_5,pm2_5_24h,o3,o3_24h,o3_8h,o3_8h_24h,no2,no2_24h,so2,so2_24h,co,co_24h
2023-09-06T05:00:00,1001A,116.3621,39.8784,北京市,万寿西宫,细颗粒物(PM2.5),128,120,101,97,82,189,79,110,97,20,20,2,2,0.8,1
2023-09-06T05:00:00,1002A,116.2202,40.2915,北京市,定陵,细颗粒物(PM2.5),98,89,88,73,70,210,25,64,44,8,10,3,3,0.9,0.9
2023-09-06T05:00:00,1003A,116.4174,39.9289,北京市,东四,细颗粒物(PM2.5),102,109,101,76,76,198,98,117,112,17,22,1,2,0.8,0.8
2023-09-06T05:00:00,1004A,116.4072,39.8863,北京市,天坛,细颗粒物(PM2.5),104,90,96,78,83,175,26,78,55,17,19,3,3,0.5,0.7
2023-09-06T05:00:00,1005A,116.462,39.9365,北京市,农展馆,细颗粒物(PM2.5),100,97,101,75,74,186,5,120,76,88,29,3,2,0.8,0.9
2023-09-06T05:00:00,1006A,116.3392,39.9295,北京市,官园,细颗粒物(PM2.5),120,105,86,91,83,205,87,129,113,18,20,3,3,0.6,0.8
2023-09-06T05:00:00,1007A,116.2878,39.9611,北京市,海淀万柳,细颗粒物(PM2.5),113,116,103,85,76,189,25,90,62,43,29,3,2,0.6,0.7
2023-09-06T05:00:00,1008A,116.6636,40.135,北京市,顺义新城,细颗粒物(PM2.5),122,123,100,92,72,197,52,63,61,21,16,3,3,1.0,1
2023-09-06T05:00:00,1009A,116.6275,40.3275,北京市,怀柔镇,细颗粒物(PM2.5),100,95,92,75,69,201,57,85,69,8,14,3,3,0.8,0.9
2023-09-06T05:00:00,1010A,116.2296,40.217,北京市,昌平镇,细颗粒物(PM2.5),104,92,83,78,72,220,64,109,89,19,15,3,3,0.8,0.9
2023-09-06T05:00:00,1011A,116.3966,39.9821,北京市,奥体中心,细颗粒物(PM2.5),118,85,85,89,70,174,85,111,102,16,23,3,3,0.7,0.9
2023-09-06T05:00:00,1012A,116.184,39.9136,北京市,古城,细颗粒物(PM2.5),98,106,98,73,80,194,7,58,33,14,26,3,3,0.8,0.9
2023-09-06T05:00:00,1015A,117.1444,39.1661,天津市,勤俭道,细颗粒物(PM2.5),89,84,81,66,65,246,108,133,112,11,22,6,8,0.7,0.9
2023-09-06T05:00:00,1017A,117.237,39.1082,天津市,大直沽八号路,细颗粒物(PM2.5),93,104,100,69,65,219,88,85,79,18,31,4,6,0.6,0.8
2023-09-06T05:00:00,1018A,117.202,39.0927,天津市,前进道,细颗粒物(PM2.5),94,93,84,70,55,212,79,98,89,23,25,5,6,0.7,0.9
2023-09-06T05:00:00,1019A,117.1837,39.2133,天津市,淮河道,细颗粒物(PM2.5),104,111,92,78,62,250,70,65,61,36,26,5,6,0.8,0.9
2023-09-06T05:00:00,1021A,117.307,39.0877,天津市,跃进路,细颗粒物(PM2.5),82,82,81,60,56,217,47,80,71,44,32,6,8,0.8,1
2023-09-06T05:00:00,1023A,117.707,39.0343,天津市,第四大街,细颗粒物(PM2.5),67,79,61,48,38,151,68,89,76,43,34,5,5,0.6,0.6
2023-09-06T05:00:00,1024A,117.457,38.8394,天津市,永明路,细颗粒物(PM2.5),75,72,60,55,44,176,88,92,91,16,14,6,6,0.6,0.6
2023-09-06T05:00:00,1026A,117.764,39.1587,天津市,汉北路,细颗粒物(PM2.5),74,71,58,54,40,195,66,95,74,25,15,6,6,0.5,0.6
2023-09-06T05:00:00,1027A,117.157,38.9194,天津市,团泊洼,细颗粒物(PM2.5),117,110,71,88,51,195,38,90,68,54,22,6,4,0.8,0.8
2023-09-06T05:00:00,1029A,114.4422,38.0444,石家庄市,职工医院,细颗粒物(PM2.5),82,100,91,60,52,207,54,37,37,41,32,3,2,0.7,0.7
2023-09-06T05:00:00,1030A,114.6063,38.0266,石家庄市,高新区,细颗粒物(PM2.5),73,94,86,53,51,208,69,61,49,29,32,1,1,1.3,0.7
2023-09-06T05:00:00,1031A,114.4898,38.1328,石家庄市,西北水源,细颗粒物(PM2.5),93,107,96,69,54,190,27,28,28,41,28,3,3,1.1,0.8
2023-09-06T05:00:00,1032A,114.4586,38.0058,石家庄市,西南高教,细颗粒物(PM2.5),78,86,79,57,54,213,53,68,53,36,24,2,1,0.8,0.7
2023-09-06T05:00:00,1033A,114.5331,38.0178,石家庄市,世纪公园,颗粒物(PM10),77,104,84,51,44,188,30,47,33,50,26,2,2,1.0,0.8
2023-09-06T05:00:00,1034A,114.509,38.0457,石家庄市,人民会堂,细颗粒物(PM2.5),89,94,82,66,54,199,20,31,26,64,30,4,4,0.8,0.7
2023-09-06T05:00:00,1035A,114.3524,37.8911,石家庄市,封龙山,细颗粒物(PM2.5),72,65,77,52,41,193,168,175,171,8,10,4,3,1.0,1
2023-09-06T05:00:00,1037A,118.131,39.6363,唐山市,雷达站,细颗粒物(PM2.5),104,108,90,78,55,213,72,82,72,18,21,7,5,0.6,1
2023-09-06T05:00:00,1038A,118.1725,39.6334,唐山市,物资局,细颗粒物(PM2.5),112,116,94,84,52,203,44,73,52,25,23,11,8,0.8,1.2
2023-09-06T05:00:00,1040A,118.1705,39.6506,唐山市,十二中,细颗粒物(PM2.5),110,108,82,83,56,203,44,66,48,28,28,6,5,0.8,1.2
2023-09-06T05:00:00,1041A,118.1869,39.622,唐山市,小山,细颗粒物(PM2.5),105,123,99,79,56,208,30,70,51,38,28,8,6,0.9,0.9
2023-09-06T05:00:00,1042A,119.5134,39.8207,秦皇岛市,北戴河环保局,细颗粒物(PM2.5),99,89,76,74,54,175,21,73,47,54,27,9,9,0.3,0.3
2023-09-06T05:00:00,1043A,119.7493,40.0116,秦皇岛市,第一关,细颗粒物(PM2.5),60,62,78,43,56,157,7,21,18,82,41,10,8,0.4,0.5
2023-09-06T05:00:00,1044A,119.5897,39.9499,秦皇岛市,监测站,细颗粒物(PM2.5),70,41,85,51,62,148,65,33,33,26,42,7,6,0.5,0.7
2023-09-06T05:00:00,1046A,119.5251,39.9041,秦皇岛市,建设大厦,颗粒物(PM10),67,83,83,32,38,172,0,0,0,53,44,3,3,0.5,0.5
2023-09-06T05:00:00,1048A,114.5302,36.6116,邯郸市,东污水处理厂,细颗粒物(PM2.5),98,83,72,73,63,175,59,74,63,20,23,6,6,0.9,0.8
2023-09-06T05:00:00,1049A,114.4918,36.5713,邯郸市,矿院,细颗粒物(PM2.5),92,70,62,68,60,183,72,83,73,24,25,3,3,1.0,0.9
2023-09-06T05:00:00,1050A,114.484,36.6133,邯郸市,丛台公园,细颗粒物(PM2.5),75,87,80,55,52,181,73,74,69,14,14,6,6,0.6,0.7
2023-09-06T05:00:00,1051A,115.493,38.8632,保定市,游泳馆,细颗粒物(PM2.5),105,115,85,79,58,213,58,70,68,36,29,7,6,0.6,0.6
2023-09-06T05:00:00,1052A,115.5213,38.8959,保定市,华电二区,细颗粒物(PM2.5),94,99,75,70,49,196,74,89,85,20,16,7,6,0.7,0.8
2023-09-06T05:00:00,1053A,115.4713,38.9108,保定市,接待中心,颗粒物(PM10),86,122,86,60,52,197,84,85,84,18,17,7,7,0.6,0.6
2023-09-06T05:00:00,1054A,115.4612,38.8416,保定市,地表水厂,细颗粒物(PM2.5),100,124,104,75,46,195,64,41,41,37,38,9,9,0.9,0.7
2023-09-06T05:00:00,1056A,115.5086,38.8639,保定市,监测站,细颗粒物(PM2.5),110,112,81,83,57,212,74,102,91,28,22,8,7,0.6,0.5
2023-09-06T05:00:00,1057A,114.8883,40.8336,张家口市,人民公园,,37,37,41,21,17,179,39,60,47,7,9,3,3,0.3,0.3
2023-09-06T05:00:00,1059A,114.8687,40.8042,张家口市,五金库,,38,31,53,26,30,187,50,70,59,4,11,1,2,0.4,0.5
2023-09-06T05:00:00,1060A,114.8902,40.762,张家口市,世纪豪园,,46,36,52,32,34,184,51,68,58,7,12,2,3,0.3,0.4
2023-09-06T05:00:00,1061A,114.8916,40.8661,张家口市,北泵房,,34,34,35,22,20,191,45,61,51,5,8,6,6,0.3,0.4
2023-09-06T05:00:00,1062A,117.9531,40.9081,承德市,铁路,细颗粒物(PM2.5),79,100,82,58,54,161,7,56,26,51,29,7,8,0.8,1
2023-09-06T05:00:00,1063A,117.9392,40.9763,承德市,中国银行,细颗粒物(PM2.5),78,97,78,57,52,169,10,46,25,26,19,7,10,0.8,0.9
2023-09-06T05:00:00,1064A,117.9503,40.928,承德市,开发区,细颗粒物(PM2.5),69,65,67,50,46,173,29,70,49,25,25,4,5,1.0,1
2023-09-06T05:00:00,1065A,117.8051,40.9655,承德市,文化中心,细颗粒物(PM2.5),102,94,85,76,53,164,20,79,46,28,23,4,14,0.8,0.8
2023-09-06T05:00:00,1066A,117.9268,41.0026,承德市,离宫,颗粒物(PM10),82,114,78,53,38,168,17,44,29,13,11,2,2,0.7,0.7
2023-09-06T05:00:00,1067A,116.6708,39.5111,廊坊市,药材公司,细颗粒物(PM2.5),115,122,100,87,72,204,37,87,66,29,20,5,2,0.7,0.7
2023-09-06T05:00:00,1068A,116.7214,39.5589,廊坊市,开发区,细颗粒物(PM2.5),104,108,100,78,66,192,33,98,57,15,18,2,3,0.6,0.8
2023-09-06T05:00:00,1070A,116.7244,39.5269,廊坊市,北华航天学院,细颗粒物(PM2.5),92,113,107,68,62,203,28,96,60,38,22,9,4,0.9,0.9
2023-09-06T05:00:00,1071A,116.8842,38.2991,沧州市,沧县城建局,细颗粒物(PM2.5),80,81,79,59,50,216,79,100,74,22,26,5,6,0.5,0.7
2023-09-06T05:00:00,1072A,116.8584,38.3254,沧州市,电视转播站,细颗粒物(PM2.5),79,77,78,58,57,224,62,91,73,21,20,9,9,0.5,0.6
2023-09-06T05:00:00,1073A,116.8709,38.3228,沧州市,市环保局,细颗粒物(PM2.5),82,80,81,60,50,220,66,104,73,25,22,5,4,0.4,0.5
2023-09-06T05:00:00,1074A,115.6838,37.7541,衡水市,电机北厂,细颗粒物(PM2.5),85,83,88,63,58,191,52,112,83,29,22,10,7,0.6,0.7
2023-09-06T05:00:00,1075A,115.6303,37.7316,衡水市,市监测站,细颗粒物(PM2.5),77,81,75,56,47,193,89,125,105,17,21,4,4,0.7,0.7
2023-09-06T05:00:00,1077A,114.4704,37.0886,邢台市,达活泉,"颗粒物(PM10),细颗粒物(PM2.5)",68,85,90,49,45,197,89,98,85,10,10,1,2,0.5,0.6
2023-09-06T05:00:00,1078A,114.5062,37.0349,邢台市,邢师高专,颗粒物(PM10),78,106,91,56,54,185,25,27,25,45,26,4,4,0.8,0.7
2023-09-06T05:00:00,1079A,114.5237,37.0851,邢台市,路桥公司,细颗粒物(PM2.5),68,79,79,49,50,190,100,115,101,9,15,7,7,0.7,0.9
2023-09-06T05:00:00,1080A,114.4725,37.0719,邢台市,市环保局,颗粒物(PM10),74,97,85,53,50,189,78,87,69,11,10,4,5,0.5,0.7
2023-09-06T05:00:00,1081A,112.522,37.8873,太原市,尖草坪,细颗粒物(PM2.5),82,79,72,60,50,181,95,133,119,20,18,4,7,0.7,0.9
2023-09-06T05:00:00,1083A,112.434,38.0108,太原市,上兰,,,,,,,,,,,,,,,,
2023-09-06T05:00:00,1084A,112.469,37.7124,太原市,晋源,细颗粒物(PM2.5),82,72,70,60,49,172,88,123,104,21,20,5,5,0.7,0.9
2023-09-06T05:00:00,1085A,112.5583,37.7394,太原市,小店,颗粒物(PM10),100,150,94,73,47,172,90,123,108,26,22,5,5,0.8,0.9
2023-09-06T05:00:00,1086A,112.5369,37.8692,太原市,桃园,细颗粒物(PM2.5),74,85,74,54,45,171,76,149,108,35,21,4,6,0.9,0.9
2023-09-06T05:00:00,1087A,112.57,37.8195,太原市,坞城,细颗粒物(PM2.5),100,90,66,75,48,173,85,149,122,32,21,9,9,1.1,1
2023-09-06T05:00:00,1088A,112.549,37.9854,太原市,南寨,细颗粒物(PM2.5),65,63,64,47,43,169,20,85,48,24,18,3,5,0.3,0.5
2023-09-06T05:00:00,1090A,111.6507,40.7517,呼和浩特市,呼市一监,,32,29,35,22,18,153,61,77,65,26,22,5,7,0.5,0.5
2023-09-06T05:00:00,1091A,111.6572,40.8033,呼和浩特市,小召,,34,34,34,22,15,142,61,74,62,32,25,5,7,0.5,0.5
2023-09-06T05:00:00,1094A,111.7516,40.8369,呼和浩特市,如意水处理厂,颗粒物(PM10),54,58,43,26,15,147,37,42,36,45,28,9,9,0.6,0.4
2023-09-06T05:00:00,1095A,111.7276,40.8062,呼和浩特市,二十九中,,40,40,37,26,16,149,54,72,58,32,24,9,9,0.7,0.6
2023-09-06T05:00:00,1096A,111.5512,40.7866,呼和浩特市,工大金川校区,,33,33,41,22,17,152,31,74,59,46,25,4,6,0.5,0.5
2023-09-06T05:00:00,1097A,111.717,40.7612,呼和浩特市,化肥厂生活区,,48,48,43,22,15,148,63,93,73,25,21,7,9,0.4,0.4
2023-09-06T05:00:00,1098A,123.6836,41.9339,沈阳市,森林路,,,,,,,,,,,,,,,,
2023-09-06T05:00:00,1099A,123.505,41.7406,沈阳市,浑南东路,,24,24,34,11,18,118,17,30,26,35,26,14,8,0.7,0.9
2023-09-06T05:00:00,1100A,123.4231,41.6989,沈阳市,新秀街,,21,20,30,12,16,129,13,28,20,41,27,15,9,0.7,0.8
2023-09-06T05:00:00,1102A,123.5903,41.8411,沈阳市,东陵路,,16,16,26,7,15,108,29,31,30,16,15,6,6,0.4,0.5
2023-09-06T05:00:00,1103A,123.4264,41.8467,沈阳市,陵东街,,26,26,26,12,14,138,5,5,5,24,22,6,6,0.6,0.6
2023-09-06T05:00:00,1104A,123.4114,41.7653,沈阳市,文化路,,24,24,28,8,17,136,25,44,39,34,24,20,8,0.8,0.6
2023-09-06T05:00:00,1105A,123.4678,41.7867,沈阳市,小河沿,,21,21,29,5,13,125,27,45,40,30,24,9,6,0.8,0.7
2023-09-06T05:00:00,1106A,123.4017,41.7972,沈阳市,太原街,,27,27,32,7,15,133,23,36,33,31,25,25,9,1.1,0.7
2023-09-06T05:00:00,1108A,123.3783,41.9228,沈阳市,京沈街,,37,37,29,15,17,134,9,29,20,16,11,10,9,0.6,0.6
2023-09-06T05:00:00,1109A,121.612,38.9741,大连市,甘井子,细颗粒物(PM2.5),87,78,68,64,43,179,61,97,83,19,16,10,6,1.2,0.6
2023-09-06T05:00:00,1110A,121.565,38.9511,大连市,周水子,细颗粒物(PM2.5),69,64,55,50,42,185,85,94,90,17,23,9,6,1.1,0.8
2023-09-06T05:00:00,1111A,121.5637,38.8845,大连市,星海三站,细颗粒物(PM2.5),73,61,62,53,47,250,91,103,98,10,15,12,9,0.8,0.6
2023-09-06T05:00:00,1112A,121.6302,38.9117,大连市,青泥洼桥,细颗粒物(PM2.5),73,71,61,53,45,194,65,87,79,27,26,13,9,1.1,1
2023-09-06T05:00:00,1113A,121.6251,38.8638,大连市,傅家庄,细颗粒物(PM2.5),69,59,59,50,45,255,87,100,95,16,20,12,10,0.8,0.8
2023-09-06T05:00:00,1114A,121.5213,38.8661,大连市,七贤岭,细颗粒物(PM2.5),68,48,52,49,40,213,98,113,108,9,11,9,8,1.2,0.8
2023-09-06T05:00:00,1115A,121.2529,38.8061,大连市,旅顺,颗粒物(PM10),51,52,47,32,34,197,82,110,98,14,12,6,6,1.3,0.8
2023-09-06T05:00:00,1116A,121.7485,39.1311,大连市,金州,细颗粒物(PM2.5),68,66,54,49,41,184,70,82,75,16,16,12,11,0.7,0.6
2023-09-06T05:00:00,1117A,121.7811,39.0496,大连市,开发区,细颗粒物(PM2.5),65,59,58,47,45,176,75,94,84,19,20,12,11,0.8,0.8
2023-09-06T05:00:00,1118A,121.9762,39.0631,大连市,双D港,细颗粒物(PM2.5),74,57,63,54,47,223,83,111,96,18,16,11,10,0.8,0.9
2023-09-06T05:00:00,1119A,125.3325,43.9166,长春市,食品厂,,49,49,30,13,11,70,10,6,6,52,30,5,6,0.4,0.4
2023-09-06T05:00:00,1120A,125.2863,43.9027,长春市,客车厂,,39,39,28,7,11,70,22,12,12,41,31,5,5,0.5,0.5
2023-09-06T05:00:00,1121A,125.2841,43.8463,长春市,邮电学院,,16,16,26,7,7,78,11,8,8,27,19,5,5,0.3,0.3
2023-09-06T05:00:00,1122A,125.3716,43.8772,长春市,劳动公园,,30,30,26,6,5,78,8,14,10,47,29,6,7,0.4,0.4
2023-09-06T05:00:00,1123A,125.3297,43.8805,长春市,园林处,,25,25,22,3,6,74,16,20,20,45,27,6,6,0.4,0.4
2023-09-06T05:00:00,1124A,125.4605,43.79,长春市,净月潭,,11,11,11,1,3,86,9,30,24,8,8,5,6,0.2,0.3
2023-09-06T05:00:00,1125A,125.7194,43.515,长春市,甩湾子,,,,,,,,,,,,,,,,
2023-09-06T05:00:00,1126A,125.3863,43.8447,长春市,经开区环卫处,颗粒物(PM10),57,64,28,23,8,80,6,5,5,34,27,5,5,0.3,0.4
2023-09-06T05:00:00,1127A,125.245,43.7783,长春市,高新区管委会,,19,19,31,9,8,77,7,5,5,36,31,7,6,0.3,0.4
2023-09-06T05:00:00,1128A,125.1761,43.8325,长春市,岱山公园,颗粒物(PM10),64,78,38,11,8,70,5,5,5,51,36,5,4,0.4,0.5
2023-09-06T05:00:00,1129A,126.5422,45.755,哈尔滨市,岭北,,,20,11,18,7,75,50,42,42,14,13,16,11,,0
2023-09-06T05:00:00,1130A,126.561,45.8167,哈尔滨市,松北商大,,30,30,19,10,8,65,7,13,7,46,25,8,6,0.5,0.5
2023-09-06T05:00:00,1131A,126.979,45.5419,哈尔滨市,阿城会宁,,14,14,27,9,12,69,8,7,7,21,17,6,7,0.5,0.7
2023-09-06T05:00:00,1132A,126.599,45.7222,哈尔滨市,南岗学府路,颗粒物(PM10),51,52,37,13,12,70,0,1,1,45,27,11,8,0.7,0.6
2023-09-06T05:00:00,1133A,126.689,45.7733,哈尔滨市,太平宏伟公园,,38,38,32,10,11,68,17,9,9,30,25,5,5,0.4,0.4
2023-09-06T05:00:00,1134A,126.635,45.7667,哈尔滨市,道外承德广场,,29,29,23,11,7,70,31,25,25,28,24,9,7,0.2,0.6
2023-09-06T05:00:00,1135A,126.685,45.7319,哈尔滨市,香坊红旗大街,,20,20,34,12,11,70,18,22,18,35,29,9,4,0.7,0.7
2023-09-06T05:00:00,1136A,126.6411,45.7258,哈尔滨市,动力和平路,,,40,29,,2,71,9,18,16,36,30,14,10,0.5,0.5
2023-09-06T05:00:00,1137A,126.593,45.7478,哈尔滨市,道里建国路,,46,46,30,12,8,71,20,8,8,34,27,12,5,1.3,0.9
2023-09-06T05:00:00,1138A,126.615,45.61,哈尔滨市,平房东轻厂,,22,22,27,9,7,72,27,37,34,11,22,6,6,0.3,0.4
2023-09-06T05:00:00,1139A,126.595,45.9855,哈尔滨市,呼兰师专,,35,35,23,16,6,53,14,7,7,38,23,6,6,0.6,0.5
2023-09-06T05:00:00,1140A,126.6206,45.6842,哈尔滨市,省农科院,,47,47,42,12,11,75,7,7,7,45,33,10,8,0.6,0.6
2023-09-06T05:00:00,1141A,121.4,31.238,上海市,普陀,,21,21,29,11,13,75,24,26,24,14,16,5,6,0.5,0.5
2023-09-06T05:00:00,1142A,121.478,31.2036,上海市,十五厂,,23,20,31,16,18,82,26,36,30,19,20,11,11,0.7,0.7
2023-09-06T05:00:00,1143A,121.467,31.3008,上海市,虹口,,23,22,27,16,17,72,21,24,23,24,26,6,7,0.2,0.3
2023-09-06T05:00:00,1144A,121.412,31.1654,上海市,徐汇上师大,,21,21,26,13,16,85,26,32,29,18,21,6,6,0.4,0.4
2023-09-06T05:00:00,1145A,121.536,31.2659,上海市,杨浦四漂,,22,22,29,12,15,76,26,34,30,16,18,7,6,0.4,0.5
2023-09-06T05:00:00,1147A,121.425,31.2261,上海市,静安监测站,,21,21,27,14,15,82,27,40,31,19,19,4,4,0.7,0.7
2023-09-06T05:00:00,1148A,121.703,31.1907,上海市,浦东川沙,,18,18,25,11,14,83,32,43,35,10,9,6,6,0.5,0.5
2023-09-06T05:00:00,1149A,121.533,31.2284,上海市,浦东新区监测站,,20,20,26,8,13,75,22,28,22,16,17,6,6,0.3,0.4
2023-09-06T05:00:00,1150A,121.577,31.2071,上海市,浦东张江,,29,20,26,20,20,70,16,35,22,23,16,5,5,0.5,0.5
2023-09-06T05:00:00,1151A,118.8086,32.1065,南京市,迈皋桥,,28,28,25,12,11,90,3,10,6,26,18,5,4,0.3,0.2
2023-09-06T05:00:00,1152A,118.7538,32.0551,南京市,草场门,,32,32,27,12,11,101,0,6,4,38,23,4,3,0.5,0.5
2023-09-06T05:00:00,1153A,118.7794,32.0745,南京市,山西路,,39,39,33,14,12,103,0,6,2,31,18,5,4,0.3,0.3
2023-09-06T05:00:00,1154A,118.7752,32.0023,南京市,中华门,,17,17,26,7,10,99,3,12,7,28,17,3,3,0.6,0.7
2023-09-06T05:00:00,1155A,118.8109,32.0309,南京市,瑞金路,,19,19,25,7,11,97,13,17,15,13,10,13,12,0.2,0.2
2023-09-06T05:00:00,1156A,118.7997,32.0754,南京市,玄武湖,,33,33,29,12,9,87,0,2,0,32,21,6,6,0.6,0.6
2023-09-06T05:00:00,1157A,118.6414,32.0931,南京市,浦口,,26,26,27,16,11,91,5,17,9,25,16,4,6,0.1,0.3
2023-09-06T05:00:00,1158A,118.7356,31.9996,南京市,奥体中心,,24,24,27,12,17,102,13,20,16,24,17,6,6,0.3,0.4
2023-09-06T05:00:00,1159A,118.9125,32.1028,南京市,仙林大学城,,34,34,27,14,12,93,0,8,3,33,19,8,9,0.5,0.5
2023-09-06T05:00:00,1160A,120.561,31.2472,苏州市,上方山,,25,25,30,15,17,54,17,17,14,12,15,8,8,0.3,0.3
2023-09-06T05:00:00,1162A,120.591,31.3019,苏州市,彩香,,32,32,30,20,17,73,23,20,20,8,11,7,7,0.5,0.5
2023-09-06T05:00:00,1163A,120.596,31.3264,苏州市,轧钢厂,,40,40,34,19,17,77,26,23,23,8,12,9,9,0.6,0.6
2023-09-06T05:00:00,1164A,120.613,31.2703,苏州市,吴中区,,36,36,37,20,17,66,23,20,20,12,18,9,8,0.4,0.5
2023-09-06T05:00:00,1165A,120.543,31.2994,苏州市,苏州新区,,,,,,,,,,,,,,,,
2023-09-06T05:00:00,1166A,120.669,31.3097,苏州市,苏州工业园区,,31,31,29,15,17,70,27,22,22,12,17,8,8,0.4,0.5
2023-09-06T05:00:00,1167A,120.641,31.3708,苏州市,相城区,,32,27,26,22,18,73,19,20,20,14,13,10,10,0.6,0.6
2023-09-06T05:00:00,1168A,120.9098,31.9663,南通市,狼山街道,,14,14,19,7,8,85,24,20,20,13,14,8,8,0.3,0.4
2023-09-06T05:00:00,1169A,120.86,32.0005,南通市,虹桥,,22,20,21,15,14,72,24,29,28,16,12,6,6,0.4,0.4
2023-09-06T05:00:00,1170A,120.87,32.02,南通市,城中,,18,18,19,10,10,69,19,29,27,23,12,7,7,0.4,0.4
2023-09-06T05:00:00,1171A,120.94,31.93,南通市,星湖花园,,14,14,18,7,8,83,19,30,23,17,11,6,7,0.5,0.5
2023-09-06T05:00:00,1172A,120.81,32.0417,南通市,紫琅学院,,21,21,16,11,8,72,5,17,14,28,13,7,6,0.4,0.4
2023-09-06T05:00:00,1173A,119.176,34.5885,连云港市,市环境监测站,,39,39,28,14,12,119,2,41,26,45,15,8,7,0.3,0.3
2023-09-06T05:00:00,1177A,117.179,34.2761,徐州市,黄河新村,,45,39,52,31,27,170,58,86,67,25,24,9,12,0.4,0.4
2023-09-06T05:00:00,1178A,117.1918,34.2384,徐州市,淮塔,颗粒物(PM10),52,53,52,34,27,174,30,67,49,31,22,8,12,0.3,0.3
2023-09-06T05:00:00,1180A,117.256,34.2153,徐州市,新城区,颗粒物(PM10),62,73,58,38,28,171,35,42,35,30,23,7,9,0.5,0.5
2023-09-06T05:00:00,1181A,117.244,34.2911,徐州市,桃园路,颗粒物(PM10),70,90,63,45,29,163,13,49,25,53,27,10,11,0.7,0.7
2023-09-06T05:00:00,1182A,117.2933,34.2778,徐州市,农科院,细颗粒物(PM2.5),58,56,49,41,30,166,25,33,27,45,36,10,11,0.4,0.4
2023-09-06T05:00:00,1186A,119.389,32.3761,扬州市,邗江监测站,,24,24,23,15,12,65,29,29,29,10,11,18,9,0.4,0.4
2023-09-06T05:00:00,1188A,120.269,31.4867,无锡市,雪浪,,27,27,31,17,15,85,16,21,16,19,18,7,6,0.6,0.6
2023-09-06T05:00:00,1189A,120.275,31.6219,无锡市,黄巷,,25,23,29,17,15,89,18,19,18,22,22,8,6,0.7,0.7
2023-09-06T05:00:00,1190A,120.294,31.56,无锡市,曹张,,30,30,30,12,15,81,13,21,18,22,17,10,9,0.5,0.6
2023-09-06T05:00:00,1191A,120.242,31.5031,无锡市,漆塘,,35,22,27,24,15,86,21,15,15,19,22,8,7,0.7,0.6
2023-09-06T05:00:00,1192A,120.3489,31.5863,无锡市,东亭,,32,31,27,22,18,85,6,22,17,35,24,7,6,0.5,0.5
2023-09-06T05:00:00,1193A,120.354,31.5475,无锡市,旺庄,,35,27,30,24,18,94,16,19,18,16,16,12,11,0.7,0.8
2023-09-06T05:00:00,1194A,120.245,31.5631,无锡市,荣巷,,35,29,24,24,14,83,20,25,23,12,12,12,11,0.5,0.5
2023-09-06T05:00:00,1195A,120.299,31.6817,无锡市,堰桥,,32,24,26,22,14,90,10,12,11,20,15,5,6,0.5,0.5
2023-09-06T05:00:00,1196A,119.9633,31.762,常州市,市监测站,,37,37,35,20,18,114,10,18,12,29,23,11,9,0.5,0.5
2023-09-06T05:00:00,1200A,119.9468,31.7069,常州市,武进监测站,,36,36,34,15,16,109,12,19,13,22,17,9,7,0.7,0.8
2023-09-06T05:00:00,1201A,119.9255,31.9087,常州市,安家,颗粒物(PM10),53,56,29,21,17,87,16,12,12,24,18,10,8,0.5,0.6
2023-09-06T05:00:00,1203A,119.6707,32.1875,镇江市,新区办事处,,35,34,25,24,16,69,28,27,27,17,16,3,5,0.6,0.4
2023-09-06T05:00:00,1204A,119.4974,32.1968,镇江市,职教中心,,48,48,29,29,15,79,12,17,11,22,17,1,3,0.6,0.6
2023-09-06T05:00:00,1205A,119.4303,32.1328,镇江市,丹徒区监测站,,50,33,27,35,19,84,14,14,12,18,15,2,2,0.5,0.5
2023-09-06T05:00:00,1206A,119.905,32.4878,泰州市,公园路,,28,24,20,19,16,62,14,31,23,21,11,8,7,0.7,0.6
2023-09-06T05:00:00,1207A,119.9189,32.4625,泰州市,莲花,,28,24,19,19,12,63,23,42,30,16,9,4,4,0.5,0.4
2023-09-06T05:00:00,1209A,119.888,32.4639,泰州市,留学生创业园,,33,33,26,22,14,66,22,41,30,18,10,6,6,0.5,0.4
2023-09-06T05:00:00,1210A,119.036,33.5981,淮安市,钵池山,,29,24,24,20,17,75,35,23,22,11,10,7,7,0.7,0.7
2023-09-06T05:00:00,1211A,119.007,33.575,淮安市,北京南路,,32,19,24,22,15,79,49,36,36,14,15,7,7,0.5,0.5
2023-09-06T05:00:00,1212A,118.989,33.6067,淮安市,市监测站,,25,24,29,17,15,79,57,44,44,11,14,6,6,0.4,0.4
2023-09-06T05:00:00,1213A,119.135,33.5039,淮安市,楚州区监测站,,25,17,21,17,13,62,44,41,41,14,11,7,8,0.5,0.5
2023-09-06T05:00:00,1214A,119.0186,33.6297,淮安市,淮阴区监测站,,25,22,27,17,17,77,53,35,35,10,16,6,6,0.5,0.5
2023-09-06T05:00:00,1215A,120.118,33.4022,盐城市,盐城电厂,,24,24,17,9,8,65,39,41,38,6,6,6,6,0.3,0.3
2023-09-06T05:00:00,1216A,120.156,33.3942,盐城市,市监测站,,19,17,14,13,11,68,29,33,27,12,9,6,6,0.2,0.1
2023-09-06T05:00:00,1218A,120.2144,33.38,盐城市,开发区管委会,,23,13,10,16,9,68,22,40,29,17,9,10,8,0.4,0.4
2023-09-06T05:00:00,1220A,118.293,33.9528,宿迁市,宿迁学院,,,,,,,,,,,,,,,,
2023-09-06T05:00:00,1221A,118.2442,33.9592,宿迁市,宿迁中学,细颗粒物(PM2.5),53,45,27,37,19,110,23,50,31,23,17,6,6,0.5,0.5
2023-09-06T05:00:00,1223A,120.2072,30.2111,杭州市,滨江,,38,38,28,17,13,98,24,43,30,17,13,7,7,0.6,0.6
2023-09-06T05:00:00,1224A,120.0633,30.2747,杭州市,西溪,,29,29,28,19,17,86,18,17,17,19,22,3,3,0.7,0.7
2023-09-06T05:00:00,1226A,120.3461,30.3153,杭州市,下沙,,32,32,29,17,15,100,16,25,20,26,19,3,3,0.5,0.4
2023-09-06T05:00:00,1227A,120.1269,30.2456,杭州市,卧龙桥,,26,26,26,17,17,110,25,20,20,18,20,4,4,0.5,0.6
2023-09-06T05:00:00,1228A,120.1903,30.2692,杭州市,浙江农大,,25,24,26,17,16,92,22,27,25,24,23,8,8,0.5,0.5
2023-09-06T05:00:00,1230A,120.1197,30.3119,杭州市,和睦小学,,32,32,32,17,17,97,16,21,20,34,32,8,8,0.7,0.7
2023-09-06T05:00:00,1231A,120.3019,30.4183,杭州市,临平镇,,39,39,36,21,16,100,19,25,24,19,20,5,5,0.4,0.5
2023-09-06T05:00:00,1232A,120.2697,30.1819,杭州市,城厢镇,,39,31,27,27,17,84,30,36,32,16,20,7,6,0.5,0.4
2023-09-06T05:00:00,1233A,120.0883,30.1808,杭州市,云栖,,31,31,28,14,14,103,31,24,21,15,15,7,7,0.5,0.5
2023-09-06T05:00:00,1234A,121.8358,29.911,宁波市,区环保大楼,,25,25,21,17,14,76,40,49,34,21,24,5,5,0.4,0.4
2023-09-06T05:00:00,1235A,121.56,29.82,宁波市,万里学院,颗粒物(PM10),51,51,36,18,17,83,38,48,40,18,29,6,5,0.4,0.7
2023-09-06T05:00:00,1236A,121.713,29.9572,宁波市,龙赛医院,,44,44,34,13,10,80,41,45,40,17,17,8,7,0.4,0.4
2023-09-06T05:00:00,1239A,121.633,29.7733,宁波市,钱湖水厂,,28,28,31,12,14,83,10,30,24,24,18,6,6,0.5,0.6
2023-09-06T05:00:00,1240A,121.5856,29.8635,宁波市,太古小学,,28,28,25,17,13,78,38,59,40,19,25,5,5,0.6,0.7
2023-09-06T05:00:00,1241A,121.524,29.8674,宁波市,市环境监测中心,,34,34,29,16,14,97,43,62,48,12,14,10,9,0.3,0.4
2023-09-06T05:00:00,1242A,120.634,28.0089,温州市,瓯海,,41,41,37,22,21,78,2,2,2,38,31,7,7,0.6,0.5
2023-09-06T05:00:00,1243A,120.6748,27.9939,温州市,南浦,,34,34,33,16,16,78,3,4,3,35,21,6,5,0.5,0.5
2023-09-06T05:00:00,1244A,120.76,27.9747,温州市,龙湾,,45,45,37,24,17,68,4,5,4,35,29,8,7,0.6,0.6
2023-09-06T05:00:00,1245A,120.6709,28.0167,温州市,市站,,38,38,35,23,20,73,2,3,2,36,26,6,6,0.6,0.5
2023-09-06T05:00:00,1247A,120.6053,29.9928,绍兴市,城东开发委,,35,35,32,24,18,71,31,42,39,12,17,6,8,0.4,0.5
2023-09-06T05:00:00,1250A,120.0751,30.8669,湖州市,城西水厂,,38,38,35,23,20,63,23,27,21,20,26,4,3,0.5,0.5
2023-09-06T05:00:00,1252A,120.7436,30.778,嘉兴市,清河小学,,43,43,36,19,15,100,20,22,20,32,28,6,6,0.5,0.5
2023-09-06T05:00:00,1253A,120.726,30.7478,嘉兴市,嘉兴学院,,43,34,28,30,18,101,6,24,14,31,25,4,4,0.5,0.5
2023-09-06T05:00:00,1255A,121.273,28.6459,台州市,黄岩环保大楼,,25,25,28,11,16,68,18,24,15,10,11,5,5,0.6,0.6
2023-09-06T05:00:00,1256A,121.419,28.6542,台州市,台州环保大楼,,24,24,22,10,13,66,38,41,39,7,6,6,6,0.4,0.4
2023-09-06T05:00:00,1257A,121.377,28.5773,台州市,路桥田洋王,,26,26,22,11,12,69,35,42,36,6,5,3,3,0.3,0.3
2023-09-06T05:00:00,1258A,122.122,30.0203,舟山市,定海檀枫,,28,28,23,17,12,69,47,49,48,9,8,6,6,0.4,0.4
2023-09-06T05:00:00,1259A,122.3094,29.9558,舟山市,普陀东港,,28,28,25,16,12,79,62,68,65,6,8,4,4,0.4,0.4
2023-09-06T05:00:00,1260A,122.19,29.9944,舟山市,临城新区,,25,25,20,16,11,73,58,57,57,4,5,7,7,0.4,0.3
2023-09-06T05:00:00,1262A,119.647,29.077,金华市,十五中,,27,27,26,12,13,76,21,21,21,19,22,3,3,0.3,0.4
2023-09-06T05:00:00,1263A,119.686,29.1029,金华市,监测站,,31,31,29,16,18,70,4,18,12,31,23,4,4,0.6,0.6
2023-09-06T05:00:00,1264A,118.8692,28.9398,衢州市,环保大楼,,48,44,40,33,26,60,16,24,21,22,19,5,4,0.4,0.4
2023-09-06T05:00:00,1265A,118.8709,28.9666,衢州市,实验学校,,47,47,38,25,20,70,20,32,27,21,16,6,6,0.4,0.3
2023-09-06T05:00:00,1266A,118.8621,28.9808,衢州市,衢州学院,,48,48,35,29,22,68,18,25,24,25,21,5,5,0.4,0.3
2023-09-06T05:00:00,1267A,119.914,28.4514,丽水市,监测站大楼,,14,14,17,8,8,63,5,13,7,17,14,5,7,0.4,0.4
2023-09-06T05:00:00,1268A,119.93,28.4586,丽水市,莲都小学,,21,21,20,10,10,64,4,12,7,24,14,5,5,0.4,0.3
2023-09-06T05:00:00,1269A,119.879,28.4231,丽水市,余庄前,,21,21,21,9,10,61,3,4,3,13,13,5,6,0.5,0.4
2023-09-06T05:00:00,1270A,117.1959,31.7848,合肥市,明珠广场,,27,27,29,14,17,102,18,34,27,17,18,5,5,0.5,0.6
2023-09-06T05:00:00,1271A,117.3072,31.8764,合肥市,三里街,,22,22,28,9,19,84,16,20,19,18,17,5,5,0.2,0.3
2023-09-06T05:00:00,1272A,117.2588,31.8707,合肥市,琥珀山庄,,22,22,27,9,15,122,21,35,29,14,13,5,5,0.5,0.6
2023-09-06T05:00:00,1273A,117.1604,31.9052,合肥市,董铺水库,,14,14,24,9,13,94,27,29,29,12,10,5,5,0.2,0.3
2023-09-06T05:00:00,1274A,117.25,31.8571,合肥市,长江中路,,19,19,31,13,20,93,19,30,26,12,10,7,6,0.4,0.5
2023-09-06T05:00:00,1275A,117.266,31.9436,合肥市,庐阳区,,28,24,31,19,19,86,22,26,26,18,14,5,5,0.3,0.4
2023-09-06T05:00:00,1276A,117.336,31.8586,合肥市,瑶海区,,24,24,33,9,15,87,20,32,26,11,10,4,4,0.6,0.6
2023-09-06T05:00:00,1277A,117.3027,31.7964,合肥市,包河区,,29,29,29,12,18,85,5,11,10,28,31,6,5,0.4,0.5
2023-09-06T05:00:00,1278A,117.2776,31.7385,合肥市,滨湖新区,,25,22,30,17,17,98,17,34,26,17,16,7,6,0.3,0.4
2023-09-06T05:00:00,1279A,117.1318,31.8403,合肥市,高新区,,19,19,30,12,19,103,24,26,25,17,20,8,8,0.5,0.6
2023-09-06T05:00:00,1280A,119.3903,26.0543,福州市,鼓山,,,,,,,,,,,,,,,,
2023-09-06T05:00:00,1282A,119.2681,26.0504,福州市,师大,,,,,,,,,,,,,,,,
2023-09-06T05:00:00,1283A,119.2984,26.1028,福州市,五四北路,,8,6,10,5,2,53,20,31,27,12,7,2,2,0.3,0.4
2023-09-06T05:00:00,1284A,119.2648,26.0768,福州市,杨桥西路,,12,12,9,6,1,48,26,32,27,7,8,3,3,0.2,0.3
2023-09-06T05:00:00,1285A,119.317,26.0746,福州市,紫阳,,9,8,9,6,3,63,17,30,24,12,6,3,3,0.3,0.3
2023-09-06T05:00:00,1286A,118.1608,24.8169,厦门市,溪东,,,,,,,,,,,,,,,,
2023-09-06T05:00:00,1287A,118.1514,24.4767,厦门市,洪文,,16,16,15,3,4,64,34,32,32,5,3,3,3,0.2,0.2
2023-09-06T05:00:00,1288A,118.0661,24.4444,厦门市,鼓浪屿,,13,11,14,5,7,51,41,32,32,2,4,1,1,0.4,0.4
2023-09-06T05:00:00,1290A,115.8931,28.6843,南昌市,省外办,,33,33,39,22,23,101,29,31,31,16,14,7,4,0.7,0.6
2023-09-06T05:00:00,1291A,115.8886,28.7003,南昌市,省林业公司,,34,34,32,22,22,104,28,31,31,15,12,10,6,0.8,0.7
2023-09-06T05:00:00,1292A,115.8126,28.7442,南昌市,林科所,,22,22,31,12,16,110,46,52,50,5,13,7,6,0.2,0.4
2023-09-06T05:00:00,1294A,115.8518,28.687,南昌市,建工学校,,22,20,32,15,15,116,40,45,44,11,12,12,11,0.6,0.6
2023-09-06T05:00:00,1295A,115.8921,28.6424,南昌市,象湖,,32,19,27,22,22,106,36,37,37,13,13,6,6,0.6,0.4
2023-09-06T05:00:00,1296A,115.7423,28.7996,南昌市,武术学校,细颗粒物(PM2.5),57,25,19,40,27,105,16,28,25,11,8,7,6,0.4,0.3
2023-09-06T05:00:00,1298A,115.9314,28.6842,南昌市,省站,,35,35,34,21,21,111,39,45,44,8,8,7,6,0.7,0.7
2023-09-06T05:00:00,1299A,116.9862,36.6114,济南市,科干所,细颗粒物(PM2.5),55,51,79,39,48,254,60,115,89,35,30,5,8,0.5,0.7
2023-09-06T05:00:00,1300A,116.9376,36.665,济南市,农科所,颗粒物(PM10),56,61,76,37,43,243,19,87,57,58,30,6,9,0.6,0.6
2023-09-06T05:00:00,1301A,117.1265,36.6734,济南市,开发区,颗粒物(PM10),67,83,81,39,44,248,15,67,37,78,41,5,8,0.6,0.8
2023-09-06T05:00:00,1303A,117.0624,36.6868,济南市,省种子仓库,颗粒物(PM10),57,63,85,36,45,241,42,85,70,43,33,6,9,0.6,0.6
2023-09-06T05:00:00,1304A,116.9489,36.6447,济南市,机床二厂,颗粒物(PM10),62,73,86,39,43,242,15,85,51,69,38,6,8,0.6,0.7
2023-09-06T05:00:00,1305A,117.0495,36.663,济南市,市监测站,颗粒物(PM10),56,61,82,39,47,251,40,86,60,61,43,4,7,0.6,0.7
2023-09-06T05:00:00,1306A,116.7675,36.5484,济南市,长清党校,细颗粒物(PM2.5),77,71,84,56,55,244,56,121,87,50,29,3,4,0.5,0.6
2023-09-06T05:00:00,1307A,120.6659,36.2403,青岛市,仰口,,25,17,18,17,16,66,60,51,51,3,5,6,5,0.2,0.3
2023-09-06T05:00:00,1310A,120.4134,36.0658,青岛市,市南区东部子站,,44,44,25,17,13,112,12,10,10,45,24,4,5,0.5,0.4
2023-09-06T05:00:00,1311A,120.3664,36.1032,青岛市,四方区子站,,46,46,29,19,13,122,29,32,23,31,30,5,6,0.5,0.5
2023-09-06T05:00:00,1312A,120.2994,36.054,青岛市,市南区西部子站,,44,44,30,24,11,124,48,26,24,22,27,5,5,0.5,0.4
2023-09-06T05:00:00,1313A,120.4581,36.0858,青岛市,崂山区子站,,36,36,23,19,14,104,14,12,12,44,28,8,7,0.3,0.2
2023-09-06T05:00:00,1314A,120.1983,35.9608,青岛市,黄岛区子站,颗粒物(PM10),56,61,30,24,15,120,10,39,32,49,29,7,6,0.6,0.5
2023-09-06T05:00:00,1315A,120.3999,36.3083,青岛市,城阳区子站,,36,36,36,17,14,115,33,36,35,26,29,7,6,0.6,0.6
2023-09-06T05:00:00,1316A,113.69031,34.76122,郑州市,烟厂,细颗粒物(PM2.5),92,100,77,68,45,202,90,122,110,19,26,5,2,0.8,0.7
2023-09-06T05:00:00,1317A,113.65724,34.77134,郑州市,郑纺机,细颗粒物(PM2.5),88,89,74,65,44,200,98,144,116,14,20,4,2,0.9,0.7
2023-09-06T05:00:00,1318A,113.67526,34.80246,郑州市,银行学校,,,,,,,,,,,,,,,,
2023-09-06T05:00:00,1319A,113.56746,34.81334,郑州市,供水公司,细颗粒物(PM2.5),89,87,73,66,44,188,50,83,65,40,29,4,3,0.6,0.5
2023-09-06T05:00:00,1320A,113.7329,34.7178,郑州市,经开区管委,细颗粒物(PM2.5),90,85,80,67,51,193,98,106,105,20,26,4,4,0.8,0.8
2023-09-06T05:00:00,1321A,113.73961,34.77172,郑州市,四十七中,细颗粒物(PM2.5),125,109,72,95,110,186,68,110,88,15,17,4,2,0.9,0.8
2023-09-06T05:00:00,1322A,113.60532,34.74838,郑州市,市监测站,颗粒物(PM10),97,144,79,66,46,198,54,146,106,43,26,8,6,0.7,0.7
2023-09-06T05:00:00,1323A,113.64164,34.7525,郑州市,河医大,细颗粒物(PM2.5),79,72,73,58,44,182,87,121,109,16,28,7,5,0.8,0.8
2023-09-06T05:00:00,1324A,113.51488,34.91089,郑州市,岗李水库,,,,,,,,,,,,,,,,
2023-09-06T05:00:00,1325A,114.3677,30.5584,武汉市,东湖梨园,,36,36,30,17,18,147,52,68,54,18,16,9,8,1.0,1
2023-09-06T05:00:00,1326A,114.2529,30.558,武汉市,汉阳月湖,,29,29,30,14,15,134,43,69,61,18,19,6,6,0.5,0.5
2023-09-06T05:00:00,1327A,114.282,30.6189,武汉市,汉口花桥,,35,33,32,24,20,137,54,71,62,13,14,7,7,0.5,0.5
2023-09-06T05:00:00,1328A,114.3025,30.5332,武汉市,武昌紫阳,,41,41,31,16,19,164,55,78,61,16,16,9,8,0.8,0.6
2023-09-06T05:00:00,1329A,114.3646,30.6217,武汉市,青山钢花,,32,31,31,22,23,132,54,73,64,14,15,8,9,0.6,0.7
2023-09-06T05:00:00,1330A,114.1566,30.4825,武汉市,沌口新区,,36,28,31,25,27,174,59,76,67,17,19,8,8,0.8,0.6
2023-09-06T05:00:00,1331A,114.3014,30.5944,武汉市,汉口江滩,,27,27,30,14,17,138,51,69,57,8,17,6,7,0.6,0.5
2023-09-06T05:00:00,1333A,114.135,30.6319,武汉市,吴家山,,35,25,28,24,17,138,58,79,70,13,11,8,8,0.6,0.6
2023-09-06T05:00:00,1334A,113.8454,30.2917,武汉市,沉湖七壕,,32,32,34,14,22,163,54,55,53,16,16,4,4,0.6,0.7
2023-09-06T05:00:00,1335A,113.0833,28.2325,长沙市,经开区环保局,,45,37,33,31,26,136,54,86,69,18,16,7,6,0.5,0.5
2023-09-06T05:00:00,1336A,112.8872,28.2189,长沙市,高开区环保局,,50,50,44,30,30,138,68,106,87,4,4,7,7,0.6,0.7
2023-09-06T05:00:00,1337A,113.0792,28.2053,长沙市,马坡岭,"颗粒物(PM10),细颗粒物(PM2.5)",52,53,46,36,29,149,56,65,56,21,21,6,6,0.8,0.8
2023-09-06T05:00:00,1338A,112.9394,28.19,长沙市,湖南师范大学,颗粒物(PM10),61,72,56,37,28,142,65,77,72,7,5,4,4,0.7,0.7
2023-09-06T05:00:00,1339A,113.0178,28.1322,长沙市,雨花区环保局,,46,46,34,25,24,140,56,35,35,23,19,5,6,0.5,0.5
2023-09-06T05:00:00,1340A,112.9792,28.2597,长沙市,伍家岭,颗粒物(PM10),51,52,46,28,29,132,57,88,68,19,17,3,3,0.7,0.8
2023-09-06T05:00:00,1341A,113.0014,28.1944,长沙市,火车新站,,42,39,31,29,25,132,58,78,67,20,16,5,6,0.8,0.9
2023-09-06T05:00:00,1342A,112.9844,28.1178,长沙市,天心区环保局,,44,44,31,26,20,139,64,28,28,18,21,3,3,0.6,0.6
2023-09-06T05:00:00,1343A,112.8908,28.1308,长沙市,湖南中医药大学,颗粒物(PM10),51,51,47,27,29,145,54,64,59,12,11,3,3,0.8,0.9
2023-09-06T05:00:00,1344A,112.9581,28.3611,长沙市,沙坪,颗粒物(PM10),55,60,53,30,27,152,66,107,84,11,8,9,7,0.6,0.6
2023-09-06T05:00:00,1345A,113.2347,23.1423,广州市,广雅中学,,48,48,46,33,31,110,28,38,32,33,30,9,8,1.0,1
2023-09-06T05:00:00,1346A,113.2612,23.105,广州市,市五中,,50,43,41,35,31,132,41,46,43,22,17,9,8,0.8,0.7
2023-09-06T05:00:00,1348A,113.3478,23.0916,广州市,广东商学院,,50,50,56,33,28,110,23,46,32,38,26,10,6,0.5,0.5
2023-09-06T05:00:00,1349A,113.4332,23.1047,广州市,市八十六中,,48,44,38,33,28,107,24,26,25,34,20,6,5,0.8,0.7
2023-09-06T05:00:00,1350A,113.3505,22.9483,广州市,番禺中学,,45,41,39,31,25,138,39,58,45,29,22,7,6,0.8,0.8
2023-09-06T05:00:00,1351A,113.2146,23.3916,广州市,花都师范,,43,41,39,30,26,102,35,60,47,22,15,10,8,0.9,0.8
2023-09-06T05:00:00,1352A,113.2597,23.1331,广州市,市监测站,,45,42,47,31,31,121,31,30,30,38,31,12,9,0.8,0.7
2023-09-06T05:00:00,1353A,113.5618,23.312,广州市,九龙镇镇龙,,44,44,39,29,26,91,13,29,25,28,17,8,8,0.6,0.5
2023-09-06T05:00:00,1354A,113.2765,23.1544,广州市,麓湖,,45,45,42,30,26,119,11,16,15,42,27,10,9,0.9,0.8
2023-09-06T05:00:00,1355A,113.443,23.3035,广州市,帽峰山森林公园,,42,36,30,29,24,90,34,38,33,22,12,11,7,0.5,0.3
2023-09-06T05:00:00,1356A,114.1063,22.5545,深圳市,通心岭子站,,22,22,32,15,20,124,26,12,12,14,25,6,6,0.6,0.7
2023-09-06T05:00:00,1357A,114.117,22.5625,深圳市,洪湖,,38,38,43,21,22,123,22,15,15,26,31,6,5,0.6,0.6
2023-09-06T05:00:00,1358A,113.987,22.5417,深圳市,华侨城,,29,29,34,16,21,128,26,22,22,16,25,7,7,0.7,0.8
2023-09-06T05:00:00,1359A,113.9181,22.5171,深圳市,南海子站,,40,40,56,19,28,117,16,16,16,36,31,4,5,0.7,0.8
2023-09-06T05:00:00,1360A,114.2458,22.5689,深圳市,盐田,细颗粒物(PM2.5),55,33,35,39,30,118,22,29,28,24,20,4,5,0.6,0.7
2023-09-06T05:00:00,1361A,114.2283,22.7244,深圳市,龙岗,,27,27,42,18,24,121,28,14,14,21,27,8,8,0.7,0.8
2023-09-06T05:00:00,1363A,114.494,22.5422,深圳市,南澳,,35,30,32,24,19,115,16,15,15,22,22,5,5,0.8,0.8
2023-09-06T05:00:00,1364A,114.41,22.6342,深圳市,葵涌,,28,28,35,19,21,104,17,16,15,24,22,5,5,0.6,0.6
2023-09-06T05:00:00,1365A,114.297,22.5978,深圳市,梅沙,,43,43,42,21,22,118,4,19,14,28,17,6,6,0.7,0.7
2023-09-06T05:00:00,1366A,114.0678,22.738,深圳市,观澜,,46,46,48,28,24,139,14,20,18,35,28,8,7,0.8,0.8
2023-09-06T05:00:00,1367A,113.5814,22.2618,珠海市,吉大,,32,28,32,22,17,170,46,55,53,15,17,4,5,0.7,0.7
2023-09-06T05:00:00,1368A,113.4881,22.2335,珠海市,前山,,44,44,36,24,22,156,40,107,64,26,23,8,9,0.5,0.5
2023-09-06T05:00:00,1369A,113.628,22.4251,珠海市,唐家,,30,29,35,21,19,162,35,35,35,11,15,5,6,0.5,0.5
2023-09-06T05:00:00,1370A,113.299,22.2281,珠海市,斗门,,36,33,36,25,32,186,51,65,57,11,17,8,8,0.6,0.6
2023-09-06T05:00:00,1371A,113.1294,23.0067,佛山市,湾梁,,40,39,33,28,23,120,31,35,28,30,23,11,8,0.7,0.6
2023-09-06T05:00:00,1372A,113.1083,23.0478,佛山市,华材职中,,46,44,41,32,28,114,17,14,14,46,32,12,8,0.6,0.6
2023-09-06T05:00:00,1373A,113.144,23.0453,佛山市,南海气象局,颗粒物(PM10),55,60,43,31,26,112,13,38,22,48,26,9,8,0.8,0.6
2023-09-06T05:00:00,1374A,113.2881,22.8094,佛山市,顺德苏岗,细颗粒物(PM2.5),55,50,37,39,23,147,21,42,34,33,20,11,8,0.8,0.8
2023-09-06T05:00:00,1376A,112.8383,22.8678,佛山市,高明孔堂,细颗粒物(PM2.5),58,51,42,41,38,133,27,32,28,29,24,15,9,0.7,0.7
2023-09-06T05:00:00,1377A,112.8836,23.1588,佛山市,三水监测站,,41,41,39,25,24,108,26,26,21,42,29,5,4,0.8,0.8
2023-09-06T05:00:00,1378A,112.867,23.185,佛山市,三水云东海,,42,42,37,29,28,106,24,11,11,28,24,5,6,0.7,0.7
2023-09-06T05:00:00,1379A,113.3769,22.5211,中山市,华柏园,细颗粒物(PM2.5),58,45,41,41,27,172,27,52,32,37,26,11,7,0.6,0.5
2023-09-06T05:00:00,1380A,113.3881,22.5497,中山市,张溪,颗粒物(PM10),53,56,45,28,24,168,21,53,34,36,22,8,6,0.6,0.6
2023-09-06T05:00:00,1381A,113.4075,22.5111,中山市,紫马岭,细颗粒物(PM2.5),52,45,39,36,26,163,25,25,22,30,22,9,7,0.6,0.5
2023-09-06T05:00:00,1382A,113.4411,22.4853,中山市,长江旅游区,,,,,,,,,,,,,,,,
2023-09-06T05:00:00,1383A,113.1064,22.6058,江门市,北街,细颗粒物(PM2.5),57,52,41,40,29,159,39,43,36,24,24,11,8,0.6,0.5
2023-09-06T05:00:00,1384A,113.0731,22.5835,江门市,西区,颗粒物(PM10),53,56,42,32,26,162,45,37,37,24,22,13,8,0.7,0.7
2023-09-06T05:00:00,1385A,113.0219,22.5311,江门市,圭峰西,细颗粒物(PM2.5),55,57,38,39,26,152,45,47,45,16,9,8,6,0.6,0.6
2023-09-06T05:00:00,1386A,113.0828,22.5947,江门市,东湖,颗粒物(PM10),54,57,41,28,26,156,44,47,39,21,18,14,10,0.6,0.6
2023-09-06T05:00:00,1389A,113.7547,23.0494,东莞市,莞城梨川,,22,20,33,15,23,89,45,46,43,12,16,11,11,0.7,0.8
2023-09-06T05:00:00,1390A,113.7944,23.0128,东莞市,东城石井,,26,26,31,16,20,84,39,44,40,10,11,5,5,0.8,0.8
2023-09-06T05:00:00,1391A,113.7383,22.9658,东莞市,南城西平,,28,28,34,18,22,79,26,33,29,25,23,10,7,0.9,0.9
2023-09-06T05:00:00,1392A,114.4183,23.0528,惠州市,河南岸金山湖子站,,20,20,33,13,19,72,39,41,39,10,16,4,4,0.4,0.5
2023-09-06T05:00:00,1393A,114.4053,23.0822,惠州市,下埔横江三路子站,,16,16,28,10,18,70,38,39,39,8,11,4,5,0.5,0.5
2023-09-06T05:00:00,1394A,114.4103,23.1142,惠州市,江北云山西路子站,,18,17,26,12,17,78,38,38,37,8,8,4,5,0.5,0.5
2023-09-06T05:00:00,1395A,114.4645,22.7833,惠州市,惠阳区承修路船湖子站,,27,27,31,18,20,100,17,22,19,18,12,4,5,0.7,0.8
2023-09-06T05:00:00,1396A,114.5317,22.7422,惠州市,大亚湾管委会子站,,27,27,30,17,18,105,30,42,39,20,17,5,6,0.6,0.6
2023-09-06T05:00:00,1397A,112.4267,23.0706,肇庆市,睦岗子站,,37,37,34,22,23,96,47,39,39,18,19,20,18,0.4,0.4
2023-09-06T05:00:00,1398A,112.4645,23.0475,肇庆市,城中子站,,39,39,33,24,20,91,38,40,40,34,22,10,10,0.6,0.6
2023-09-06T05:00:00,1399A,112.5544,23.1522,肇庆市,坑口子站,,26,24,28,18,21,83,27,37,34,21,15,3,4,0.4,0.4
2023-09-06T05:00:00,1400A,112.4753,23.1,肇庆市,七星岩子站,,,,,,,,,,,,,,,,
2023-09-06T05:00:00,1401A,108.3103,22.7881,南宁市,二十一中,颗粒物(PM10),53,55,44,30,24,121,4,4,4,37,26,22,10,0.9,0.9
2023-09-06T05:00:00,1402A,108.3141,22.8528,南宁市,北湖,颗粒物(PM10),55,60,47,31,25,108,4,4,4,36,21,20,9,1.1,0.8
2023-09-06T05:00:00,1403A,108.3206,22.8225,南宁市,市监测站,,43,38,43,30,23,108,6,6,6,46,37,18,10,0.8,0.8
2023-09-06T05:00:00,1404A,108.3829,22.8037,南宁市,大自然花园,颗粒物(PM10),55,60,31,31,21,94,1,17,6,34,18,9,8,0.9,0.8
2023-09-06T05:00:00,1405A,108.4394,22.7904,南宁市,仙葫,,40,40,37,28,24,81,4,6,5,30,24,9,7,0.7,0.7
2023-09-06T05:00:00,1406A,108.2397,22.8467,南宁市,区农职院,,35,33,33,24,20,118,11,13,13,29,18,9,9,0.7,0.7
2023-09-06T05:00:00,1407A,108.3275,22.735,南宁市,英华嘉园,,46,46,39,22,24,106,2,6,4,35,26,9,8,0.7,0.7
2023-09-06T05:00:00,1408A,108.2257,22.7757,南宁市,沙井镇街道办,,43,43,46,27,16,120,2,2,2,31,26,5,10,0.7,0.7
2023-09-06T05:00:00,1409A,110.576,19.9507,海口市,东寨港,,,,,,,,,,,,,,,,
2023-09-06T05:00:00,1410A,110.3232,20.0574,海口市,海南大学,,19,19,30,12,19,139,54,70,57,15,16,6,7,0.4,0.5
2023-09-06T05:00:00,1411A,110.283,20.0053,海口市,秀英海南医院,,22,21,28,15,18,133,44,56,53,21,18,8,7,0.5,0.5
2023-09-06T05:00:00,1412A,110.338,19.9969,海口市,海南师范大学,,18,16,27,11,18,130,57,63,59,16,12,8,8,0.5,0.5
2023-09-06T05:00:00,1413A,110.33,20.0356,海口市,龙华路环保局宿舍,,19,18,26,13,19,129,42,66,56,24,13,7,8,0.5,0.5
2023-09-06T05:00:00,1414A,106.3787,29.8279,重庆市,缙云山,,25,20,26,12,12,181,80,96,86,10,13,11,11,0.2,0.3
2023-09-06T05:00:00,1416A,106.4213,29.8253,重庆市,天生,,39,28,46,27,31,178,46,55,49,28,33,7,7,0.7,0.7
2023-09-06T05:00:00,1417A,106.6263,29.7228,重庆市,两路,,39,32,38,27,28,191,28,47,42,58,44,11,13,0.9,1
2023-09-06T05:00:00,1418A,106.2953,29.5983,重庆市,虎溪,,48,48,53,24,30,210,15,25,15,54,42,5,8,0.7,0.7
2023-09-06T05:00:00,1419A,106.5777,29.5102,重庆市,南坪,,37,37,45,13,25,163,47,69,61,31,22,9,9,0.5,0.6
2023-09-06T05:00:00,1420A,106.6556,29.6277,重庆市,唐家沱,颗粒物(PM10),52,53,51,22,23,198,2,13,10,54,39,7,9,0.6,0.6
2023-09-06T05:00:00,1421A,106.6349,29.4906,重庆市,茶园,颗粒物(PM10),65,79,61,21,22,163,6,20,15,64,55,6,6,0.7,0.8
2023-09-06T05:00:00,1422A,106.3754,29.4572,重庆市,白市驿,,28,28,39,17,26,185,79,78,74,12,20,9,11,0.6,0.7
2023-09-06T05:00:00,1425A,106.6205,29.7166,重庆市,空港,,37,37,38,20,20,219,76,75,75,20,27,8,11,0.7,0.8
2023-09-06T05:00:00,1426A,106.4782,29.4875,重庆市,新山村,,37,37,42,17,19,197,45,75,52,35,34,11,12,0.6,0.6
2023-09-06T05:00:00,1427A,106.5616,29.6453,重庆市,礼嘉,,37,37,42,20,23,173,41,52,38,33,35,11,13,0.7,0.8
2023-09-06T05:00:00,1428A,106.4522,29.7091,重庆市,蔡家,颗粒物(PM10),61,71,53,31,32,197,29,52,44,35,32,7,8,0.9,0.9
2023-09-06T05:00:00,1429A,106.5093,29.3917,重庆市,鱼新街,,41,41,38,21,23,173,19,30,26,49,35,6,7,0.9,0.9
2023-09-06T05:00:00,1431A,103.9728,30.7236,成都市,金泉两河,细颗粒物(PM2.5),70,77,60,51,39,216,69,73,70,10,14,6,6,0.6,0.6
2023-09-06T05:00:00,1432A,104.176,30.6872,成都市,十里店,细颗粒物(PM2.5),75,81,69,55,45,208,60,104,84,20,22,4,5,0.7,0.7
2023-09-06T05:00:00,1433A,104.079,30.5706,成都市,三瓦窑,细颗粒物(PM2.5),62,64,65,44,43,191,47,72,67,42,32,3,3,0.6,0.7
2023-09-06T05:00:00,1434A,104.1114,30.63,成都市,沙河铺,细颗粒物(PM2.5),65,76,67,47,46,194,68,102,88,23,24,3,3,0.7,0.7
2023-09-06T05:00:00,1437A,104.0786,30.6531,成都市,君平街,细颗粒物(PM2.5),94,70,62,70,47,221,76,83,81,17,20,8,5,0.7,0.7
2023-09-06T05:00:00,1438A,103.613,31.0283,成都市,灵岩寺,,43,40,35,30,25,145,131,108,103,2,5,6,13,0.7,0.7
2023-09-06T05:00:00,1439A,106.6899,26.5998,贵阳市,马鞍山,,22,22,19,12,10,115,13,16,15,10,10,5,5,0.4,0.4
2023-09-06T05:00:00,1440A,106.6971,26.5694,贵阳市,市环保站,,25,17,18,17,17,123,62,57,57,7,12,3,4,0.2,0.3
2023-09-06T05:00:00,1441A,106.6243,26.6266,贵阳市,鉴湖路,,22,22,23,12,10,119,70,60,60,4,7,4,5,0.4,0.4
2023-09-06T05:00:00,1442A,106.7487,26.6343,贵阳市,燕子冲,,32,19,21,22,14,112,19,23,16,12,12,5,5,0.5,0.6
2023-09-06T05:00:00,1443A,106.6555,26.4365,贵阳市,碧云窝,,34,34,33,22,15,128,3,10,6,17,13,4,4,0.6,0.5
2023-09-06T05:00:00,1444A,106.694,26.5161,贵阳市,中院村,,27,27,28,9,13,107,17,46,40,32,17,7,7,0.3,0.3
2023-09-06T05:00:00,1445A,106.7109,26.6027,贵阳市,红边门,,42,24,28,29,20,121,23,30,25,16,14,4,5,0.5,0.5
2023-09-06T05:00:00,1446A,106.7164,26.5699,贵阳市,新华路,,25,24,23,17,14,124,45,45,45,10,11,5,5,0.3,0.3
2023-09-06T05:00:00,1447A,106.674,26.5424,贵阳市,太慈桥,,18,17,17,12,10,117,12,10,10,13,17,4,4,0.4,0.4
2023-09-06T05:00:00,1450A,102.8204,24.8886,昆明市,呈贡新区,,23,23,27,16,15,81,62,61,61,10,14,3,7,0.6,0.5
2023-09-06T05:00:00,1451A,102.6251,24.9608,昆明市,西山森林公园,,24,20,19,14,12,122,75,76,76,6,8,9,8,0.6,0.6
2023-09-06T05:00:00,1452A,102.7252,25.0902,昆明市,龙泉镇,,26,25,26,18,17,96,55,52,52,14,20,9,10,0.4,0.4
2023-09-06T05:00:00,1453A,102.7266,25.0375,昆明市,东风东路,,27,27,27,17,15,91,70,64,64,10,19,7,8,0.4,0.5
2023-09-06T05:00:00,1454A,102.6742,25.0669,昆明市,金鼎山,,27,27,28,15,14,103,72,62,62,6,15,6,8,0.2,0.3
2023-09-06T05:00:00,1455A,102.6644,25.0401,昆明市,碧鸡广场,,32,32,28,12,12,107,68,66,66,12,24,9,10,0.3,0.4
2023-09-06T05:00:00,1456A,91.1319,29.6514,拉萨市,八廓街,,23,15,19,7,9,138,72,72,72,14,18,6,7,0.3,0.3
2023-09-06T05:00:00,1457A,91.1221,29.6747,拉萨市,市环保局,,18,15,19,8,10,131,56,61,58,17,21,6,6,0.2,0.3
2023-09-06T05:00:00,1458A,91.0874,29.6475,拉萨市,区监测站,,20,17,18,8,8,129,63,48,48,14,23,8,8,0.3,0.3
2023-09-06T05:00:00,1459A,91.1774,29.6541,拉萨市,西藏大学,,22,11,12,7,7,136,68,80,72,8,10,9,8,0.2,0.3
2023-09-06T05:00:00,1460A,90.9798,29.6588,拉萨市,区辐射站,,20,20,20,11,9,121,36,42,40,31,23,12,10,0.2,0.2
2023-09-06T05:00:00,1461A,91.0834,29.6292,拉萨市,拉萨火车站,,20,20,24,10,10,126,56,62,57,17,17,6,6,0.3,0.1
2023-09-06T05:00:00,1462A,108.882,34.2749,西安市,高压开关厂,细颗粒物(PM2.5),63,56,45,45,22,159,102,109,106,20,22,8,8,0.6,0.6
2023-09-06T05:00:00,1463A,108.993,34.2629,西安市,兴庆小区,颗粒物(PM10),51,51,36,25,18,131,99,118,112,15,14,8,7,0.5,0.4
2023-09-06T05:00:00,1464A,109.06,34.2572,西安市,纺织城,,37,35,38,22,19,131,118,119,119,24,22,5,6,0.5,0.5
2023-09-06T05:00:00,1465A,108.9356,34.2173,西安市,小寨,,36,32,39,18,14,128,114,113,113,5,10,6,7,0.5,0.5
2023-09-06T05:00:00,1466A,108.954,34.2713,西安市,市人民体育场,颗粒物(PM10),54,58,43,29,21,152,91,112,104,19,17,8,7,0.6,0.5
2023-09-06T05:00:00,1467A,108.8922,34.2322,西安市,高新西区,,44,44,36,24,21,156,99,117,113,13,14,7,7,0.5,0.5
2023-09-06T05:00:00,1468A,108.935,34.3474,西安市,经开区,细颗粒物(PM2.5),72,61,45,52,24,158,92,105,94,13,11,5,4,0.5,0.4
2023-09-06T05:00:00,1469A,108.906,34.1546,西安市,长安区,,44,44,45,17,16,165,108,91,91,15,19,9,8,0.2,0.2
2023-09-06T05:00:00,1471A,109.2186,34.3731,西安市,临潼区,颗粒物(PM10),59,68,47,40,26,151,47,58,54,31,19,6,6,0.5,0.4
2023-09-06T05:00:00,1472A,108.869,34.378,西安市,草滩,颗粒物(PM10),59,67,46,20,14,167,93,83,78,38,33,8,10,0.5,0.4
2023-09-06T05:00:00,1473A,108.985,34.1978,西安市,曲江文化产业集团,,37,36,34,15,12,122,118,116,116,12,14,6,6,0.6,0.5
2023-09-06T05:00:00,1474A,109.051,34.3213,西安市,广运潭,颗粒物(PM10),55,60,44,37,21,147,72,102,81,18,14,13,9,0.6,0.5
2023-09-06T05:00:00,1476A,103.631,36.1031,兰州市,兰炼宾馆,,37,37,43,17,24,153,74,90,83,12,14,4,3,0.3,0.3
2023-09-06T05:00:00,1477A,104.1373,35.9454,兰州市,榆中兰大校区,,,,,,,,,,,,,,,,
2023-09-06T05:00:00,1478A,103.8412,36.0726,兰州市,生物制品所,细颗粒物(PM2.5),52,35,44,36,33,123,78,85,80,11,17,4,4,0.8,0.7
2023-09-06T05:00:00,1479A,103.831,36.0464,兰州市,铁路设计院,,45,35,42,31,28,129,78,90,84,11,16,9,6,0.4,0.3
2023-09-06T05:00:00,1483A,101.524,36.6867,西宁市,第五水厂,,,,,,,,,,,,,,,,
2023-09-06T05:00:00,1484A,105.9512,38.6016,银川市,贺兰山马莲口,,37,31,34,19,17,158,117,113,113,6,10,4,5,0.3,0.3
2023-09-06T05:00:00,1488A,106.2328,38.4975,银川市,贺兰山东路,,46,46,54,25,23,175,119,117,116,10,17,8,10,0.5,0.6
2023-09-06T05:00:00,1489A,106.1358,38.5036,银川市,学院路,,33,31,44,13,18,163,105,106,105,6,13,6,9,0.5,0.6
2023-09-06T05:00:00,1490A,87.5801,43.8303,乌鲁木齐市,监测站,,23,23,14,3,6,67,30,18,18,17,26,4,4,0.3,0.4
2023-09-06T05:00:00,1491A,87.6046,43.768,乌鲁木齐市,收费所,,18,18,17,9,9,82,6,4,4,21,24,3,3,0.3,0.3
2023-09-06T05:00:00,1492A,87.4754,43.9469,乌鲁木齐市,新疆农科院农场,,33,33,33,8,10,60,0,0,0,56,41,4,3,0.7,0.6
2023-09-06T05:00:00,1493A,87.5525,43.8711,乌鲁木齐市,铁路局,,19,19,16,5,6,58,10,3,3,29,29,4,4,0.5,0.6
2023-09-06T05:00:00,1494A,87.6432,43.831,乌鲁木齐市,三十一中学,,20,20,13,5,10,62,33,19,19,23,24,5,4,0.3,0.3
2023-09-06T05:00:00,1496A,87.7216,44.1747,乌鲁木齐市,米东区环保局,,17,14,16,5,9,78,52,28,28,9,14,8,7,0.2,0.4
2023-09-06T05:00:00,1508A,112.9433,27.8614,湘潭市,板塘,细颗粒物(PM2.5),55,57,44,39,23,147,46,43,43,21,16,3,6,0.6,0.7
2023-09-06T05:00:00,1511A,112.9118,27.8403,湘潭市,市监测站,,49,44,38,34,26,139,50,66,59,12,11,4,4,0.6,0.6
2023-09-06T05:00:00,1512A,112.8937,27.8728,湘潭市,江麓,颗粒物(PM10),53,56,45,33,27,136,51,67,56,12,14,11,10,0.1,0.2
2023-09-06T05:00:00,1513A,112.9227,27.8159,湘潭市,岳塘,颗粒物(PM10),52,54,42,33,26,144,49,66,59,20,15,7,7,0.4,0.3
2023-09-06T05:00:00,1514A,112.9074,27.9119,湘潭市,科大,颗粒物(PM10),54,57,44,33,24,136,41,61,49,13,10,4,4,0.4,0.5
2023-09-06T05:00:00,1515A,113.135,27.8244,株洲市,天台山庄,颗粒物(PM10),53,56,29,31,23,153,48,35,35,19,17,6,6,0.7,0.7
2023-09-06T05:00:00,1518A,113.095,27.8867,株洲市,株冶医院,,50,50,39,29,22,150,28,22,21,31,23,8,6,0.8,0.7
2023-09-06T05:00:00,1519A,113.167,27.8667,株洲市,市四中,颗粒物(PM10),58,66,41,32,24,147,8,16,11,45,20,10,8,0.7,0.5
2023-09-06T05:00:00,1520A,113.143,27.8381,株洲市,火车站,细颗粒物(PM2.5),68,59,40,49,28,148,40,23,23,22,19,6,5,0.6,0.6
2023-09-06T05:00:00,1524A,113.13,27.8528,株洲市,市监测站,"颗粒物(PM10),细颗粒物(PM2.5)",52,53,38,36,28,150,40,30,30,24,18,7,6,0.8,0.8
2023-09-06T05:00:00,1552A,106.805,26.3003,贵阳市,桐木岭,,,,,,,,,,,,,,,,
2023-09-06T05:00:00,1559A,113.251,27.8336,株洲市,大京风景区,,43,43,31,21,20,115,19,19,19,13,6,4,4,0.4,0.5
2023-09-06T05:00:00,1562A,113.0048,27.9153,湘潭市,昭山,,36,36,43,21,24,156,11,18,8,25,18,4,4,0.5,0.5
2023-09-06T05:00:00,1564A,112.4876,27.9164,湘潭市,韶山,,50,50,43,24,21,136,80,105,91,8,7,8,8,0.4,0.4
2023-09-06T05:00:00,1585A,109.8756,40.6532,包头市,市环境监测站,,35,35,44,23,18,179,103,94,94,18,30,14,21,0.7,0.8
2023-09-06T05:00:00,1587A,109.9991,40.5842,包头市,包头八中,细颗粒物(PM2.5),54,54,55,38,24,180,109,105,105,20,23,21,34,0.7,0.8
2023-09-06T05:00:00,1588A,109.8538,40.6821,包头市,青山宾馆,,43,38,42,30,23,176,102,90,90,17,27,12,14,0.7,0.7
2023-09-06T05:00:00,1589A,109.8642,40.6288,包头市,惠龙物流,,44,44,45,17,20,187,98,91,91,24,24,17,23,0.8,0.8
2023-09-06T05:00:00,1590A,110.0377,40.5546,包头市,东河鸿龙湾,,35,32,45,24,19,184,88,90,90,24,23,20,21,0.7,0.6
2023-09-06T05:00:00,1591A,110.0023,39.8129,鄂尔多斯市,综合楼,颗粒物(PM10),59,68,67,31,22,158,93,103,100,27,26,10,9,0.8,0.7
2023-09-06T05:00:00,1592A,109.9486,39.8261,鄂尔多斯市,巴音孟克林场办事处,颗粒物(PM10),59,68,63,39,27,169,107,119,116,22,22,12,12,0.7,0.6
2023-09-06T05:00:00,1593A,109.7736,39.5986,鄂尔多斯市,康泽苑,细颗粒物(PM2.5),68,56,59,49,30,162,72,108,95,23,22,13,15,0.8,0.8
2023-09-06T05:00:00,1594A,109.8119,39.5989,鄂尔多斯市,华泰汽车城,颗粒物(PM10),79,107,63,41,29,150,50,98,81,35,22,12,11,0.8,0.7
2023-09-06T05:00:00,1595A,109.9734,39.7884,鄂尔多斯市,奥林花园,颗粒物(PM10),60,70,68,34,25,154,86,106,98,27,23,10,10,0.9,0.7
2023-09-06T05:00:00,1597A,122.2703,40.7094,营口市,大庆路,,38,38,42,21,31,130,28,50,41,18,15,7,5,1.1,0.9
2023-09-06T05:00:00,1598A,122.2150,40.6511,营口市,镜湖西路,,42,42,48,23,27,119,30,54,41,20,17,8,6,0.7,0.8
2023-09-06T05:00:00,1599A,122.1658,40.6789,营口市,西炮台,,42,42,57,15,29,120,29,50,40,18,14,7,6,0.6,0.7
2023-09-06T05:00:00,1600A,124.3303,40.0625,丹东市,江湾东路,,25,20,38,15,26,140,80,86,83,7,15,6,6,0.6,0.8
2023-09-06T05:00:00,1601A,124.4256,40.1503,丹东市,临江后街,,21,18,30,12,18,128,66,83,77,9,11,6,6,0.5,0.6
2023-09-06T05:00:00,1602A,124.3933,40.1461,丹东市,元宝山,,26,20,29,18,20,117,66,76,73,8,9,9,8,0.6,0.9
2023-09-06T05:00:00,1603A,124.3633,40.1092,丹东市,民主桥,,24,23,33,15,20,131,75,85,82,6,13,4,4,0.6,0.8
2023-09-06T05:00:00,1604A,122.0303,41.1489,盘锦市,开发区,,23,22,29,16,15,110,48,67,57,20,17,4,3,0.6,0.6
2023-09-06T05:00:00,1605A,122.0485,41.0883,盘锦市,兴隆台,,29,29,26,13,17,113,40,70,58,26,17,8,6,0.5,0.5
2023-09-06T05:00:00,1606A,121.8297,41.1028,盘锦市,新生街道,,29,29,24,14,14,104,38,46,43,29,22,7,7,0.4,0.5
2023-09-06T05:00:00,1607A,120.9092,40.7136,葫芦岛市,龙港区,,36,36,52,22,36,151,16,27,24,42,32,13,47,0.4,0.6
2023-09-06T05:00:00,1608A,120.8392,40.7514,葫芦岛市,化工街,,34,34,49,17,25,146,6,14,12,50,28,25,13,0.3,0.5
2023-09-06T05:00:00,1609A,120.8341,40.7073,葫芦岛市,新区,细颗粒物(PM2.5),73,55,46,53,36,123,8,25,16,48,30,5,9,0.8,0.9
2023-09-06T05:00:00,1610A,120.8695,40.7677,葫芦岛市,东城区,,26,26,43,16,19,147,7,55,27,47,31,12,12,0.5,0.6
2023-09-06T05:00:00,1611A,118.5819,24.9117,泉州市,涂山街,,12,10,8,4,4,67,38,54,48,11,8,4,4,0.4,0.4
2023-09-06T05:00:00,1612A,118.5972,24.8978,泉州市,津头埔,,12,8,8,8,6,64,36,49,44,13,12,4,3,0.5,0.5
2023-09-06T05:00:00,1613A,118.6663,24.9424,泉州市,万安,,15,8,9,10,4,75,36,52,47,12,8,2,2,0.4,0.5
2023-09-06T05:00:00,1614A,118.6117,24.9604,泉州市,清源山,,,,,,,,,,,,,,,,
2023-09-06T05:00:00,1616A,117.6795,36.229,济南市,技术学院,细颗粒物(PM2.5),63,73,78,45,40,235,50,69,58,30,31,8,10,1.0,0.9
2023-09-06T05:00:00,1618A,118.3429,35.0532,临沂市,沂河小区,颗粒物(PM10),63,75,49,43,26,166,78,78,75,22,16,8,8,0.5,0.5
2023-09-06T05:00:00,1619A,118.295,35.0583,临沂市,鲁南制药厂,颗粒物(PM10),63,75,47,39,22,198,88,108,87,17,14,6,8,0.5,0.6
2023-09-06T05:00:00,1620A,118.2794,34.9976,临沂市,新光毛纺厂,细颗粒物(PM2.5),57,61,38,40,25,166,75,81,76,14,16,8,9,0.9,0.9
2023-09-06T05:00:00,1621A,118.3956,35.0888,临沂市,河东保险公司,颗粒物(PM10),57,63,39,39,22,169,53,61,58,27,18,4,5,0.6,0.5
2023-09-06T05:00:00,1622A,116.3032,37.4674,德州市,儿童乐园,细颗粒物(PM2.5),67,70,85,48,51,216,80,122,107,21,22,14,13,0.9,0.9
2023-09-06T05:00:00,1624A,116.2991,37.4451,德州市,监理站,细颗粒物(PM2.5),70,74,79,51,50,212,85,112,100,12,20,19,10,0.8,0.7
2023-09-06T05:00:00,1625A,115.9848,36.4372,聊城市,区政府,细颗粒物(PM2.5),83,86,88,61,61,234,52,110,86,30,20,5,7,0.6,0.7
2023-09-06T05:00:00,1628A,118.0062,37.3803,滨州市,市环保局,颗粒物(PM10),57,63,70,39,43,200,101,128,108,20,16,15,10,0.2,0.3
2023-09-06T05:00:00,1629A,118.0018,37.3617,滨州市,第二水厂,细颗粒物(PM2.5),57,61,65,40,42,203,92,102,89,21,10,4,4,0.6,0.7
2023-09-06T05:00:00,1630A,117.9776,37.393,滨州市,北中新校,细颗粒物(PM2.5),62,70,73,44,42,211,73,95,80,25,17,6,8,0.5,0.5
2023-09-06T05:00:00,1631A,118.0414,36.8103,淄博市,人民公园,细颗粒物(PM2.5),67,70,78,48,42,236,93,114,100,18,25,4,11,0.8,0.7
2023-09-06T05:00:00,1633A,117.8525,36.4847,淄博市,双山,细颗粒物(PM2.5),55,56,71,39,40,253,30,36,31,31,24,6,13,0.5,0.5
2023-09-06T05:00:00,1634A,117.9592,36.6331,淄博市,气象站,细颗粒物(PM2.5),94,78,77,70,52,240,21,63,28,39,23,14,14,0.5,0.4
2023-09-06T05:00:00,1635A,118.3092,36.8194,淄博市,莆田园,颗粒物(PM10),104,158,84,70,48,212,8,118,42,63,29,24,14,4.6,1.6
2023-09-06T05:00:00,1637A,117.558,34.8438,枣庄市,市中区政府,颗粒物(PM10),63,75,74,39,35,217,55,74,60,43,34,14,14,0.7,0.6
2023-09-06T05:00:00,1638A,117.2852,34.7837,枣庄市,薛城环保局,,44,44,66,28,32,225,82,110,102,53,35,10,13,0.7,0.8
2023-09-06T05:00:00,1639A,117.5852,34.7745,枣庄市,峄城区政府,颗粒物(PM10),68,85,62,39,26,216,29,120,75,43,24,9,17,0.8,0.8
2023-09-06T05:00:00,1640A,117.7276,34.5578,枣庄市,台儿庄区环保局,细颗粒物(PM2.5),83,73,53,61,31,164,43,81,56,22,22,9,11,0.7,0.6
2023-09-06T05:00:00,1641A,117.4518,35.0992,枣庄市,山亭区环保局,细颗粒物(PM2.5),55,46,51,39,32,212,72,104,86,16,18,7,10,0.7,0.5
2023-09-06T05:00:00,1642A,121.2514,37.5639,烟台市,开发区,,39,31,41,27,30,204,81,100,90,11,8,5,4,0.8,0.9
2023-09-06T05:00:00,1643A,121.3719,37.5433,烟台市,轴承厂,,50,36,47,35,38,166,84,103,87,13,11,7,7,0.5,0.5
2023-09-06T05:00:00,1644A,121.3181,37.5436,烟台市,西郊化工站,,48,34,48,33,40,183,74,89,78,18,17,2,2,0.7,0.7
2023-09-06T05:00:00,1645A,121.4478,37.4822,烟台市,莱山环保局,,32,27,37,22,26,187,96,105,95,11,9,6,7,0.5,0.6
2023-09-06T05:00:00,1646A,121.2611,37.4967,烟台市,福山环保局,,44,44,53,22,25,152,76,89,82,20,21,8,8,0.8,0.8
2023-09-06T05:00:00,1650A,119.1437,36.7023,潍坊市,环保局,细颗粒物(PM2.5),74,66,58,54,38,189,96,142,120,13,16,7,10,0.6,0.6
2023-09-06T05:00:00,1653A,116.6251,35.4302,济宁市,火炬城,,41,41,79,24,36,241,89,86,85,15,20,12,13,0.7,1
2023-09-06T05:00:00,1655A,116.5491,35.4042,济宁市,电化厂,,,73,90,29,36,222,79,89,85,17,24,,14,0.8,1
2023-09-06T05:00:00,1656A,117.1437,36.1937,泰安市,监测站,细颗粒物(PM2.5),65,61,71,47,48,251,84,112,96,13,12,8,10,0.5,0.7
2023-09-06T05:00:00,1657A,117.0885,36.2017,泰安市,人口学校,细颗粒物(PM2.5),54,51,60,38,36,232,104,147,121,10,14,6,7,0.5,0.7
2023-09-06T05:00:00,1658A,117.1089,36.1758,泰安市,电力学校,细颗粒物(PM2.5),72,75,76,52,45,239,75,113,91,14,13,11,11,0.5,0.6
2023-09-06T05:00:00,1659A,119.471,35.4209,日照市,监测站,,42,39,24,29,14,156,9,7,7,75,37,8,6,0.6,0.5
2023-09-06T05:00:00,1660A,119.523,35.4216,日照市,市政府广场,颗粒物(PM10),52,53,23,32,11,138,78,57,57,16,14,6,5,0.6,0.4
2023-09-06T05:00:00,1661A,119.5587,35.4044,日照市,港务局,颗粒物(PM10),51,51,22,31,14,148,81,68,68,17,11,8,7,0.6,0.4
2023-09-06T05:00:00,1662A,122.1214,37.4236,威海市,华夏技校,,46,46,36,32,27,167,102,146,114,12,10,5,5,0.6,0.5
2023-09-06T05:00:00,1663A,122.0508,37.5236,威海市,山大分校,,,,,,,,,,,,,,,,
2023-09-06T05:00:00,1664A,122.1067,37.5072,威海市,市监测站,颗粒物(PM10),51,51,45,27,30,168,103,122,99,5,6,10,10,0.8,0.7
2023-09-06T05:00:00,1666A,118.6614,37.4309,东营市,市环保局,,49,36,43,34,32,179,96,118,104,2,8,5,6,0.3,0.3
2023-09-06T05:00:00,1669A,113.5824,24.7733,韶关市,市八中,,20,13,35,14,22,78,36,38,38,5,9,10,11,0.5,0.6
2023-09-06T05:00:00,1671A,113.5917,24.7972,韶关市,园林处,,33,18,33,23,24,76,38,43,40,2,6,10,12,0.6,0.7
2023-09-06T05:00:00,1672A,113.6735,24.7791,韶关市,韶关学院,,19,19,34,10,24,50,32,24,24,5,11,7,10,0.4,0.5
2023-09-06T05:00:00,1673A,113.5971,24.6863,韶关市,曲江监测站,,20,18,46,14,26,58,38,34,34,6,18,19,12,0.6,0.8
2023-09-06T05:00:00,1674A,116.6794,23.3667,汕头市,金平子站,,16,11,12,8,11,71,51,61,50,17,16,4,4,0.7,0.7
2023-09-06T05:00:00,1675A,116.7244,23.3633,汕头市,龙湖子站,,22,16,12,11,8,91,70,77,66,15,13,6,6,0.6,0.7
2023-09-06T05:00:00,1676A,116.7258,23.2775,汕头市,濠江子站,,20,13,14,10,12,82,62,60,60,9,10,6,7,0.4,0.4
2023-09-06T05:00:00,1677A,116.7519,23.4714,汕头市,澄海子站,,20,10,13,11,12,74,62,74,62,12,15,3,2,0.2,0.3
2023-09-06T05:00:00,1678A,116.6092,23.2539,汕头市,潮阳子站,,16,1,15,5,11,81,50,52,49,4,7,7,8,0.4,0.4
2023-09-06T05:00:00,1680A,110.3539,21.2706,湛江市,湛江影剧院,,47,47,36,32,19,104,65,80,72,11,11,37,16,0.9,0.8
2023-09-06T05:00:00,1681A,110.3928,21.2228,湛江市,市环境监测站,细颗粒物(PM2.5),59,40,31,42,22,106,56,99,73,17,12,24,13,0.7,0.7
2023-09-06T05:00:00,1682A,110.4019,21.1997,湛江市,环保局宿舍,,46,40,33,32,23,105,75,105,86,11,11,10,12,0.6,0.7
2023-09-06T05:00:00,1683A,110.4111,21.2028,湛江市,霞山游泳场,,43,43,35,29,21,109,81,109,89,10,13,16,14,0.6,0.7
2023-09-06T05:00:00,1684A,110.3316,21.2679,湛江市,麻章区环保局,细颗粒物(PM2.5),67,46,37,48,20,101,69,76,74,13,13,55,15,0.8,0.7
2023-09-06T05:00:00,1685A,110.4558,21.2567,湛江市,坡头区环保局,,36,36,29,24,19,104,69,98,82,22,12,22,11,0.7,0.7
2023-09-06T05:00:00,1686A,111.0286,21.4688,茂名市,电白南海,,45,36,36,31,24,148,87,100,98,9,10,10,11,0.6,0.8
2023-09-06T05:00:00,1687A,110.9294,21.6533,茂名市,茂石化七小,,39,29,28,27,20,108,71,77,76,8,9,17,11,0.6,0.7
2023-09-06T05:00:00,1688A,110.9107,21.6687,茂名市,健康路,,29,29,24,17,12,120,74,83,80,8,7,18,11,0.7,0.7
2023-09-06T05:00:00,1689A,110.8592,21.6828,茂名市,高岭,,39,39,31,22,22,103,33,67,51,23,12,10,9,0.9,0.8
2023-09-06T05:00:00,1690A,116.1231,24.3284,梅州市,梅江月梅,,10,3,13,2,6,37,32,23,23,8,14,2,2,0.6,0.5
2023-09-06T05:00:00,1691A,116.0797,24.2719,梅州市,梅县新城,,10,1,13,2,6,37,30,25,25,9,13,6,5,0.6,0.6
2023-09-06T05:00:00,1692A,116.1248,24.2654,梅州市,环境监控中心,,12,5,14,2,7,38,36,36,35,6,14,7,7,0.5,0.5
2023-09-06T05:00:00,1693A,115.3653,22.775,汕尾市,市环保局,,23,23,25,13,18,76,31,37,33,8,8,8,8,0.6,0.6
2023-09-06T05:00:00,1694A,115.3706,22.7898,汕尾市,市政府,,20,15,22,14,20,83,36,42,41,10,9,8,6,0.7,0.7
2023-09-06T05:00:00,1695A,115.3622,22.7925,汕尾市,新城中学,,28,28,26,17,18,64,25,34,31,12,9,7,6,0.7,0.7
2023-09-06T05:00:00,1696A,114.6778,23.7569,河源市,源西,,10,5,25,3,15,66,30,35,30,11,9,4,4,0.6,0.7
2023-09-06T05:00:00,1697A,114.6944,23.7586,河源市,东埔,,12,12,33,3,20,65,29,36,32,7,8,5,5,0.7,0.7
2023-09-06T05:00:00,1698A,114.6892,23.7233,河源市,老城,,10,8,28,4,15,66,32,36,32,7,8,4,4,0.5,0.6
2023-09-06T05:00:00,1699A,111.9797,21.8593,阳江市,鸳鸯湖,,25,21,25,17,14,131,69,81,78,8,7,5,5,0.7,0.8
2023-09-06T05:00:00,1701A,111.9491,21.8658,阳江市,马南垌,,33,20,28,23,16,123,65,77,73,6,6,5,5,0.4,0.5
2023-09-06T05:00:00,1702A,113.0426,23.691,清远市,环保大楼,,40,29,33,28,28,90,47,47,47,11,10,8,7,0.6,0.7
2023-09-06T05:00:00,1703A,113.0208,23.7106,清远市,凤城街办,,32,32,41,18,27,86,43,52,42,14,10,7,6,0.6,0.6
2023-09-06T05:00:00,1705A,116.6367,23.6719,潮州市,西园路,,15,8,12,9,10,74,46,62,56,11,9,4,4,0.4,0.4
2023-09-06T05:00:00,1706A,116.6447,23.6706,潮州市,档案局,,16,10,10,5,8,78,49,67,59,9,8,6,6,0.6,0.4
2023-09-06T05:00:00,1708A,116.3701,23.5345,揭阳市,新兴,,23,23,16,10,11,36,33,30,30,10,9,9,7,0.9,0.7
2023-09-06T05:00:00,1709A,116.3264,23.5443,揭阳市,西马,,21,21,18,13,11,38,35,32,32,10,11,6,7,0.9,0.7
2023-09-06T05:00:00,1710A,116.3611,23.5626,揭阳市,东兴,,28,28,18,16,11,43,35,33,33,16,16,5,4,0.8,0.7
2023-09-06T05:00:00,1711A,116.4151,23.5294,揭阳市,渔湖,,24,24,17,14,10,38,35,32,32,13,13,4,4,1.0,0.7
2023-09-06T05:00:00,1712A,112.0392,22.9169,云浮市,新市府,,31,31,29,19,18,96,31,28,28,7,9,9,10,0.8,0.8
2023-09-06T05:00:00,1714A,112.0539,22.9539,云浮市,牧羊,颗粒物(PM10),57,63,39,24,18,101,4,8,7,31,25,18,17,0.5,0.5
2023-09-06T05:00:00,1715A,102.575,24.3711,玉溪市,东风水库,,26,25,18,18,12,86,14,27,22,20,10,7,6,0.9,0.7
2023-09-06T05:00:00,1718A,115.4208,35.2464,菏泽市,气象局,细颗粒物(PM2.5),104,113,98,78,60,230,90,139,109,24,25,7,5,0.7,0.7
2023-09-06T05:00:00,1719A,115.4747,35.2375,菏泽市,市政协,细颗粒物(PM2.5),110,107,93,83,65,232,105,171,136,17,19,8,7,0.8,0.7
2023-09-06T05:00:00,1721A,113.3819,40.1097,大同市,果树场,,,,,,,,,,,,,,,,
2023-09-06T05:00:00,1723A,113.2994,40.0758,大同市,云冈宾馆,颗粒物(PM10),57,64,56,23,22,145,27,18,12,35,33,20,10,0.6,0.6
2023-09-06T05:00:00,1724A,113.3444,40.0917,大同市,大同大学,颗粒物(PM10),64,78,43,27,19,145,21,67,37,45,24,38,14,0.9,0.6
2023-09-06T05:00:00,1725A,113.2661,40.1269,大同市,安家小村,颗粒物(PM10),62,74,44,23,15,146,11,81,52,38,19,12,12,1.0,0.6
2023-09-06T05:00:00,1726A,113.2711,40.0844,大同市,教育学院,颗粒物(PM10),54,58,52,21,19,149,17,28,19,48,35,16,10,1.1,0.7
2023-09-06T05:00:00,1727A,113.1147,36.1547,长治市,清华站,细颗粒物(PM2.5),70,71,61,51,41,173,43,99,62,19,19,8,10,1.0,1
2023-09-06T05:00:00,1728A,113.1031,36.1989,长治市,监测站,细颗粒物(PM2.5),83,72,56,61,41,175,42,80,62,32,24,6,6,1.4,1.2
2023-09-06T05:00:00,1730A,113.0886,36.2125,长治市,审计局,细颗粒物(PM2.5),92,77,56,68,44,165,7,117,54,57,21,8,8,0.9,0.9
2023-09-06T05:00:00,1731A,113.0844,36.1856,长治市,长治八中,颗粒物(PM10),70,90,68,43,36,167,9,91,51,58,24,13,10,1.0,0.9
2023-09-06T05:00:00,1733A,111.5531,36.0783,临汾市,临钢医院,颗粒物(PM10),62,73,67,36,28,185,87,116,99,16,18,9,9,0.9,0.8
2023-09-06T05:00:00,1734A,111.5028,36.0714,临汾市,技工学校,细颗粒物(PM2.5),67,76,68,48,39,180,86,102,91,18,18,8,9,0.8,0.8
2023-09-06T05:00:00,1736A,111.5018,36.0855,临汾市,市委,细颗粒物(PM2.5),77,76,71,56,37,165,85,101,87,18,19,9,10,0.8,0.7
2023-09-06T05:00:00,1738A,113.5758,37.8572,阳泉市,市中心,细颗粒物(PM2.5),74,87,73,54,46,187,3,27,11,59,34,8,29,1.0,1.1
2023-09-06T05:00:00,1739A,113.4894,37.8731,阳泉市,赛鱼,细颗粒物(PM2.5),68,68,73,49,49,177,4,26,9,49,27,8,13,0.8,1
2023-09-06T05:00:00,1740A,113.5819,37.8486,阳泉市,南庄,颗粒物(PM10),93,136,97,53,48,187,24,61,42,36,26,6,23,0.9,1
2023-09-06T05:00:00,1742A,113.5614,37.8703,阳泉市,平坦,细颗粒物(PM2.5),84,82,89,62,55,184,5,14,9,61,36,8,27,0.8,0.9
2023-09-06T05:00:00,1743A,113.5158,37.8392,阳泉市,大阳泉,颗粒物(PM10),75,100,73,49,55,181,115,166,146,13,15,6,8,0.9,0.9
2023-09-06T05:00:00,1744A,118.9233,42.2816,赤峰市,松山一中,细颗粒物(PM2.5),58,57,61,41,32,143,8,41,25,39,33,11,21,0.9,0.9
2023-09-06T05:00:00,1745A,118.9576,42.2728,赤峰市,哈达街,细颗粒物(PM2.5),63,60,64,45,40,137,11,25,17,31,39,16,33,0.7,0.8
2023-09-06T05:00:00,1746A,118.8788,42.2554,赤峰市,天义路,细颗粒物(PM2.5),62,50,51,44,36,153,40,39,39,14,26,11,16,0.6,0.6
2023-09-06T05:00:00,1748A,123.044,41.1196,鞍山市,深沟寺,,46,46,60,24,35,134,6,17,9,34,28,3,5,0.7,0.8
2023-09-06T05:00:00,1749A,123.011,41.0931,鞍山市,太阳城,细颗粒物(PM2.5),58,60,64,41,49,149,5,15,8,33,27,7,8,0.9,1
2023-09-06T05:00:00,1750A,123.0485,41.1442,鞍山市,太平,颗粒物(PM10),53,56,78,29,38,139,7,15,9,45,35,11,9,0.7,0.9
2023-09-06T05:00:00,1751A,122.9642,41.0971,鞍山市,铁西三道街,颗粒物(PM10),66,82,76,39,43,128,5,24,13,46,47,45,30,2.8,2.6
2023-09-06T05:00:00,1752A,122.9341,41.0833,鞍山市,铁西工业园区,颗粒物(PM10),55,60,79,29,42,150,5,8,6,27,34,11,19,1.9,2.1
2023-09-06T05:00:00,1753A,123.022,41.0821,鞍山市,明达新区,颗粒物(PM10),51,52,63,26,35,140,5,9,5,41,32,10,7,0.8,0.9
2023-09-06T05:00:00,1754A,123.1289,41.0228,鞍山市,千山,,,,,,,,,,,,,,,,
2023-09-06T05:00:00,1755A,123.7977,41.8491,抚顺市,望花区,,31,31,35,13,27,112,26,36,34,25,16,8,6,0.3,0.3
2023-09-06T05:00:00,1756A,123.9161,41.8822,抚顺市,顺城区,,20,20,34,8,17,119,35,55,44,16,21,6,5,0.3,0.4
2023-09-06T05:00:00,1757A,124.0436,41.8611,抚顺市,东洲区,,18,18,32,8,18,122,27,34,32,11,13,7,9,0.4,0.5
2023-09-06T05:00:00,1758A,123.9247,41.8642,抚顺市,新抚区,,20,20,31,9,20,124,18,37,30,26,15,9,6,0.5,0.5
2023-09-06T05:00:00,1759A,124.0972,41.8961,抚顺市,大伙房水库,,15,15,25,6,14,112,36,41,40,9,8,7,6,0.3,0.5
2023-09-06T05:00:00,1760A,123.7086,41.8391,抚顺市,沈抚新城,,19,19,25,6,15,103,28,43,38,16,13,8,6,0.5,0.6
2023-09-06T05:00:00,1761A,123.8275,41.3064,本溪市,大峪,,43,43,54,15,28,126,10,12,10,27,22,5,5,0.6,0.9
2023-09-06T05:00:00,1762A,123.7567,41.3325,本溪市,溪湖,,40,40,53,13,27,133,5,14,7,30,23,8,8,0.8,0.9
2023-09-06T05:00:00,1763A,123.7169,41.3094,本溪市,彩屯,,28,28,50,18,33,126,6,17,9,26,31,6,6,0.8,1.1
2023-09-06T05:00:00,1764A,123.7669,41.2864,本溪市,东明,,37,37,58,19,36,134,5,8,6,31,28,7,7,0.6,1
2023-09-06T05:00:00,1765A,123.7992,41.2664,本溪市,新立屯,,28,17,49,19,30,126,15,11,11,26,27,8,8,0.5,0.9
2023-09-06T05:00:00,1766A,123.8142,41.3472,本溪市,威宁,,33,33,50,20,34,111,6,8,6,20,20,6,6,0.9,1
2023-09-06T05:00:00,1767A,121.1115,41.0879,锦州市,南山,,33,33,35,22,20,130,23,51,34,17,15,5,5,0.7,0.7
2023-09-06T05:00:00,1768A,121.0533,40.8434,锦州市,开发区,,39,38,37,27,21,129,10,24,21,40,21,30,11,0.8,0.7
2023-09-06T05:00:00,1769A,121.1836,41.1119,锦州市,百股街道,,35,34,33,24,24,130,37,33,33,17,16,16,6,0.9,0.7
2023-09-06T05:00:00,1770A,121.1178,41.1222,锦州市,天安街道,,35,35,37,21,26,117,23,38,35,28,17,9,8,0.6,0.7
2023-09-06T05:00:00,1771A,121.1303,41.1386,锦州市,北湖公园,,28,28,40,19,24,119,32,45,38,9,11,9,9,0.7,0.8
2023-09-06T05:00:00,1772A,126.54,43.8622,吉林市,哈达湾,,31,31,25,10,9,86,10,8,7,26,22,7,10,0.5,0.6
2023-09-06T05:00:00,1773A,126.5844,43.8358,吉林市,东局子,,26,26,21,11,11,84,11,12,11,22,21,6,8,0.5,0.7
2023-09-06T05:00:00,1774A,126.5052,43.8245,吉林市,电力学院,,23,23,24,7,10,83,6,13,7,20,18,9,14,0.6,0.6
2023-09-06T05:00:00,1775A,126.6133,43.8972,吉林市,江北,,26,26,22,10,9,83,16,22,17,14,16,8,9,0.7,0.6
2023-09-06T05:00:00,1776A,126.555,43.8306,吉林市,江南公园,,27,27,27,10,13,85,7,7,7,28,25,6,8,0.6,0.7
2023-09-06T05:00:00,1778A,126.7061,43.7133,吉林市,丰满,,,,,,,,,,,,,,,,
2023-09-06T05:00:00,1779A,123.9305,47.3636,齐齐哈尔市,安居小区,,21,21,29,7,13,56,20,49,38,16,14,5,5,0.3,0.3
2023-09-06T05:00:00,1780A,123.9488,47.3386,齐齐哈尔市,中心广场,,19,19,18,12,12,54,36,46,40,7,11,2,2,0.4,0.3
2023-09-06T05:00:00,1781A,123.9483,47.3227,齐齐哈尔市,农牧车辆厂,,19,19,24,4,3,54,29,46,38,10,10,5,6,0.4,0.3
2023-09-06T05:00:00,1783A,123.945,47.2988,齐齐哈尔市,市环境监测站,,13,12,14,9,7,58,29,47,39,10,9,3,4,0.3,0.2
2023-09-06T05:00:00,1784A,129.61,44.561,牡丹江市,环保大楼,,18,18,17,8,10,100,11,25,15,12,11,5,5,0.4,0.4
2023-09-06T05:00:00,1785A,129.6115,44.5782,牡丹江市,文化广场,,33,28,22,23,17,91,7,9,8,14,15,6,6,0.3,0.4
2023-09-06T05:00:00,1786A,129.5904,44.5963,牡丹江市,第一医院,,30,30,22,16,12,91,8,24,15,10,10,5,5,0.3,0.3
2023-09-06T05:00:00,1787A,129.6364,44.6075,牡丹江市,机车工厂,,38,38,29,10,12,93,8,13,10,9,10,2,3,0.5,0.6
2023-09-06T05:00:00,1788A,129.6386,44.5462,牡丹江市,第一中学,,22,22,17,13,7,98,2,10,7,10,10,5,5,0.4,0.4
2023-09-06T05:00:00,1789A,124.81117,46.03138,大庆市,大同区,,12,8,18,2,11,67,37,49,42,8,9,6,5,0.3,0.3
2023-09-06T05:00:00,1790A,125.129,46.533,大庆市,龙凤区,,16,16,17,7,7,94,36,49,40,8,11,2,3,0.2,0.2
2023-09-06T05:00:00,1791A,124.902,46.408,大庆市,红岗区,,12,12,18,5,8,104,28,51,42,13,11,3,3,0.4,0.6
2023-09-06T05:00:00,1792A,125.153,46.586,大庆市,萨尔图区,,14,12,20,6,6,106,42,56,48,6,11,6,6,0.4,0.4
2023-09-06T05:00:00,1793A,124.9042,46.6215,大庆市,让胡路区,,16,16,19,11,11,89,33,57,46,10,13,4,4,0.3,0.3
2023-09-06T05:00:00,1794A,118.3606,31.3519,芜湖市,监测站,,35,27,32,24,22,106,13,40,24,20,13,6,6,0.5,0.5
2023-09-06T05:00:00,1795A,118.3714,31.4134,芜湖市,科创中心,,38,38,38,21,22,106,5,20,11,37,27,8,7,1.3,0.7
2023-09-06T05:00:00,1796A,118.3673,31.3131,芜湖市,四水厂,,42,28,35,29,21,111,18,53,36,22,16,5,4,0.6,0.6
2023-09-06T05:00:00,1798A,118.5092,31.6837,马鞍山市,湖东路四小,,30,22,28,21,19,101,11,21,16,17,13,10,9,0.4,0.4
2023-09-06T05:00:00,1799A,118.5024,31.6449,马鞍山市,开发区,,30,30,32,17,20,105,13,27,19,14,11,8,6,0.7,0.7
2023-09-06T05:00:00,1800A,118.5228,31.7231,马鞍山市,慈湖,,28,28,30,17,18,102,18,25,20,17,16,12,11,0.5,0.6
2023-09-06T05:00:00,1802A,118.6245,31.7241,马鞍山市,濮塘,,25,16,18,17,19,96,19,20,18,11,7,4,4,0.7,0.7
2023-09-06T05:00:00,1803A,115.9872,29.6815,九江市,十里,,28,28,38,19,26,119,46,52,48,13,12,10,9,0.7,0.7
2023-09-06T05:00:00,1804A,115.9584,29.7046,九江市,茅山头,,42,30,36,29,25,124,49,52,50,14,17,10,9,0.7,0.7
2023-09-06T05:00:00,1805A,115.9877,29.7295,九江市,西园,,,,,,,,,,,,,,,,
2023-09-06T05:00:00,1806A,116.0172,29.6547,九江市,五七二七厂,,29,29,34,17,21,122,41,46,41,9,11,10,10,0.6,0.6
2023-09-06T05:00:00,1808A,115.9114,29.6038,九江市,综合工业园,,33,23,37,23,23,134,44,58,48,17,16,13,12,0.7,0.7
2023-09-06T05:00:00,1809A,116.0721,29.7535,九江市,石化总厂,,35,35,43,21,22,124,46,50,45,18,18,9,8,0.7,0.8
2023-09-06T05:00:00,1810A,115.9773,29.5698,九江市,庐山气象台,,22,19,17,15,16,115,62,69,66,4,11,8,9,0.6,0.8
2023-09-06T05:00:00,1812A,112.3931,34.6516,洛阳市,市委党校,细颗粒物(PM2.5),108,90,84,81,65,206,36,52,37,37,25,8,8,0.6,0.6
2023-09-06T05:00:00,1814A,112.4657,34.6871,洛阳市,豫西宾馆,细颗粒物(PM2.5),98,90,85,73,58,205,59,79,66,23,19,10,5,1.4,1
2023-09-06T05:00:00,1815A,112.494,34.6886,洛阳市,河南林校,细颗粒物(PM2.5),90,97,78,67,50,207,50,77,65,28,23,9,7,0.8,0.6
2023-09-06T05:00:00,1816A,112.3844,34.623,洛阳市,开发区管委会,细颗粒物(PM2.5),79,99,80,58,48,209,35,75,49,33,20,1,3,0.6,0.6
2023-09-06T05:00:00,1817A,112.4267,34.6258,洛阳市,市委新办公区,细颗粒物(PM2.5),123,92,81,93,65,201,30,88,59,23,12,,6,0.7,0.6
2023-09-06T05:00:00,1818A,114.4839,36.0621,安阳市,棉研所,,,,,,,,,,,,,,,,
2023-09-06T05:00:00,1819A,114.3551,36.1017,安阳市,红庙街,细颗粒物(PM2.5),79,103,83,58,45,178,64,80,69,26,18,7,4,1.3,1
2023-09-06T05:00:00,1820A,114.361,36.0681,安阳市,银杏小区,,,112,87,,,183,32,20,20,29,20,7,6,1.1,0.9
2023-09-06T05:00:00,1824A,114.3389,34.7781,开封市,肿瘤医院,细颗粒物(PM2.5),95,94,86,71,56,184,78,102,84,11,15,4,6,0.8,0.8
2023-09-06T05:00:00,1826A,114.2885,34.7965,开封市,世纪星幼儿园,细颗粒物(PM2.5),92,88,81,68,68,186,61,94,67,21,21,6,6,0.7,0.7
2023-09-06T05:00:00,1828A,113.227,35.2125,焦作市,市环保局,细颗粒物(PM2.5),98,78,68,73,48,204,37,120,86,30,14,7,7,0.8,0.7
2023-09-06T05:00:00,1830A,113.1992,35.2590,焦作市,影视城,,,,,,,,,,,,,,,,
2023-09-06T05:00:00,1832A,113.3257,33.742,平顶山市,新华旅馆,颗粒物(PM10),70,89,72,43,40,185,85,110,102,30,26,7,7,0.8,0.7
2023-09-06T05:00:00,1833A,113.2919,33.737,平顶山市,规划设计院,细颗粒物(PM2.5),80,101,67,59,42,182,40,116,78,46,27,8,8,0.9,0.8
2023-09-06T05:00:00,1834A,113.182,33.774,平顶山市,平顶山工学院,颗粒物(PM10),95,140,83,58,40,198,74,106,86,20,19,11,8,1.0,0.8
2023-09-06T05:00:00,1835A,111.1922,34.7752,三门峡市,市政府,细颗粒物(PM2.5),74,78,61,54,39,172,33,128,80,58,22,5,6,0.9,0.8
2023-09-06T05:00:00,1836A,111.1587,34.7942,三门峡市,开发区,颗粒物(PM10),79,108,77,50,39,169,78,126,100,18,17,8,7,0.7,0.6
2023-09-06T05:00:00,1838A,111.143,34.7955,三门峡市,风景区,,,,,,,,,,,,,,,,
2023-09-06T05:00:00,1840A,111.2992,30.6981,宜昌市,白龙岗,,34,34,44,19,21,174,76,95,83,10,18,1,2,0.5,0.6
2023-09-06T05:00:00,1841A,111.3549,30.6465,宜昌市,伍家岗,,27,25,32,17,21,174,86,98,93,9,16,5,6,0.4,0.5
2023-09-06T05:00:00,1842A,111.2628,30.6961,宜昌市,点军区,,34,34,39,12,20,177,66,89,78,11,15,7,7,0.7,0.7
2023-09-06T05:00:00,1843A,111.3275,30.7819,宜昌市,夷陵区,,48,48,38,22,21,164,47,79,54,16,18,5,6,0.4,0.4
2023-09-06T05:00:00,1844A,112.2494,30.3197,荆州市,市图书馆,,50,27,34,35,19,145,79,77,77,15,13,14,11,0.6,0.6
2023-09-06T05:00:00,1845A,112.2008,30.3544,荆州市,市委党校,,36,36,38,21,24,152,77,76,73,14,16,13,12,0.7,0.6
2023-09-06T05:00:00,1847A,113.1094,29.3578,岳阳市,南湖风景区,,35,32,42,24,28,164,46,73,59,17,13,9,8,0.7,0.7
2023-09-06T05:00:00,1848A,113.1493,29.4251,岳阳市,城陵矶,,35,35,41,22,28,154,39,67,54,20,15,10,9,0.9,0.9
2023-09-06T05:00:00,1849A,113.1497,29.3575,岳阳市,开发区,,33,33,47,20,28,163,52,71,62,10,13,10,8,0.7,0.8
2023-09-06T05:00:00,1850A,113.2621,29.4758,岳阳市,云溪区,,32,27,37,22,26,163,44,68,57,12,12,10,8,0.7,0.8
2023-09-06T05:00:00,1851A,112.9943,29.4402,岳阳市,君山区,,45,23,39,31,31,147,48,73,59,11,10,8,9,0.6,0.7
2023-09-06T05:00:00,1852A,113.2117,29.355,岳阳市,金凤水库,,38,31,41,26,28,175,52,73,63,7,9,5,5,0.8,0.8
2023-09-06T05:00:00,1854A,111.6975,28.9703,常德市,市二中,,27,26,44,18,25,146,84,98,89,6,8,6,7,0.7,0.7
2023-09-06T05:00:00,1857A,111.7158,29.1456,常德市,白鹤山,,30,17,20,13,6,155,95,101,96,1,2,8,10,0.6,0.6
2023-09-06T05:00:00,1858A,110.5319,29.1217,张家界市,永定新区,,35,35,42,22,26,137,67,67,63,20,17,5,6,0.3,0.4
2023-09-06T05:00:00,1859A,110.4697,29.1242,张家界市,电业局,,,,,,,,,,,,,,,,
2023-09-06T05:00:00,1860A,110.5594,29.3547,张家界市,未央路,,36,31,41,25,26,136,44,53,49,6,8,3,4,0.4,0.5
2023-09-06T05:00:00,1861A,110.4417,29.315,张家界市,袁家界,,30,21,29,20,17,147,94,126,112,5,5,8,8,0.6,0.7
2023-09-06T05:00:00,1862A,110.4144,25.3167,桂林市,电子科大尧山校区,,38,38,41,26,27,103,82,89,87,8,7,4,4,0.7,0.7
2023-09-06T05:00:00,1863A,110.2819,25.2697,桂林市,监测站,,48,47,46,33,30,110,79,86,84,8,10,9,8,0.7,0.7
2023-09-06T05:00:00,1864A,110.3089,25.2708,桂林市,龙隐路小学,,45,45,42,27,28,109,81,84,82,7,7,8,8,0.8,0.8
2023-09-06T05:00:00,1865A,110.2869,25.2178,桂林市,八中,颗粒物(PM10),51,51,41,29,29,110,82,86,84,8,11,6,6,0.9,0.7
2023-09-06T05:00:00,1866A,109.2262,21.588,北海市,牛尾岭水库,,36,35,27,25,19,117,22,45,33,17,11,5,14,0.6,0.8
2023-09-06T05:00:00,1867A,109.1436,21.4086,北海市,海滩公园,,43,43,33,24,17,126,62,84,78,12,10,5,5,0.7,0.6
2023-09-06T05:00:00,1868A,109.0981,21.4661,北海市,新市环保局,,49,39,30,34,21,111,62,79,70,10,8,6,9,0.7,0.6
2023-09-06T05:00:00,1869A,109.1778,21.5233,北海市,北海工业园,细颗粒物(PM2.5),53,38,37,37,23,96,46,58,50,18,14,6,10,0.6,0.6
2023-09-06T05:00:00,1870A,109.4856,24.3895,柳州市,柳东小学,,45,38,30,31,28,96,51,74,65,8,5,25,11,0.4,0.4
2023-09-06T05:00:00,1871A,109.4157,24.3277,柳州市,环保监测站,,50,50,36,32,24,86,27,61,38,19,11,8,6,0.6,0.5
2023-09-06T05:00:00,1872A,109.389,24.341,柳州市,河西水厂,,39,39,43,25,25,88,26,33,30,20,16,6,10,0.4,0.5
2023-09-06T05:00:00,1873A,109.4311,24.2921,柳州市,市四中,,45,45,38,29,23,90,26,65,46,24,12,16,9,0.9,0.7
2023-09-06T05:00:00,1874A,109.4006,24.3631,柳州市,市九中,颗粒物(PM10),53,56,42,35,24,90,29,50,29,17,11,17,9,0.7,0.8
2023-09-06T05:00:00,1875A,109.4958,24.3134,柳州市,古亭山,,40,40,32,24,22,98,27,57,38,22,9,8,7,0.6,0.6
2023-09-06T05:00:00,1876A,109.5078,18.2489,三亚市,河东子站,,20,18,16,9,8,103,64,84,70,6,7,3,3,0.5,0.5
2023-09-06T05:00:00,1877A,109.4964,18.2681,三亚市,河西子站,,16,16,15,8,8,105,50,76,54,7,6,1,2,0.4,0.5
2023-09-06T05:00:00,1878A,104.7778,31.4741,绵阳市,富乐山,细颗粒物(PM2.5),60,59,59,43,43,200,79,76,76,11,16,3,4,0.7,0.8
2023-09-06T05:00:00,1879A,104.7563,31.4535,绵阳市,市人大,细颗粒物(PM2.5),55,53,63,39,42,193,84,88,87,10,24,10,11,0.7,0.7
2023-09-06T05:00:00,1880A,104.6697,31.4668,绵阳市,高新区自来水公司,细颗粒物(PM2.5),55,52,72,39,44,195,97,104,103,13,26,7,8,0.6,0.6
2023-09-06T05:00:00,1881A,104.7287,31.5075,绵阳市,三水厂,细颗粒物(PM2.5),64,61,80,46,52,200,81,92,90,16,34,7,8,0.7,0.6
2023-09-06T05:00:00,1882A,104.563,28.793,宜宾市,石马中学,,,,,,,,,,,,,,,,
2023-09-06T05:00:00,1883A,104.6201,28.7728,宜宾市,市委,颗粒物(PM10),64,78,52,45,32,184,33,33,33,35,29,12,11,0.6,0.6
2023-09-06T05:00:00,1884A,104.6055,28.793,宜宾市,宜宾四中,"颗粒物(PM10),细颗粒物(PM2.5)",60,69,57,43,37,195,35,48,32,35,31,12,11,0.6,0.6
2023-09-06T05:00:00,1885A,104.639,28.7562,宜宾市,市政府,细颗粒物(PM2.5),64,66,63,46,39,183,54,31,31,24,34,11,11,0.6,0.7
2023-09-06T05:00:00,1886A,104.5742,28.7199,宜宾市,黄金嘴,,50,50,42,32,29,172,45,41,41,27,24,11,11,0.5,0.5
2023-09-06T05:00:00,1888A,101.6891,26.571,攀枝花市,弄弄坪,细颗粒物(PM2.5),53,52,60,37,35,184,34,62,39,26,28,10,17,1.2,1.7
2023-09-06T05:00:00,1889A,101.5769,26.5928,攀枝花市,河门口,颗粒物(PM10),52,53,54,32,30,226,30,45,37,26,22,10,16,0.9,1.1
2023-09-06T05:00:00,1890A,101.7169,26.585,攀枝花市,炳草岗,细颗粒物(PM2.5),75,73,64,55,36,203,36,40,39,39,35,20,21,1.4,1.5
2023-09-06T05:00:00,1891A,101.7369,26.5008,攀枝花市,仁和,,48,46,52,33,34,178,33,54,43,21,21,7,17,0.5,0.8
2023-09-06T05:00:00,1893A,105.4324,28.9634,泸州市,九狮山,,39,39,41,21,24,114,33,42,36,21,21,6,8,0.4,0.4
2023-09-06T05:00:00,1894A,105.4427,28.9063,泸州市,小市上码头,细颗粒物(PM2.5),60,63,51,43,35,148,38,50,45,28,20,61,15,0.6,0.5
2023-09-06T05:00:00,1895A,105.4241,28.8573,泸州市,兰田宪桥,细颗粒物(PM2.5),64,68,48,46,33,127,24,25,24,21,22,8,9,0.5,0.5
2023-09-06T05:00:00,1896A,105.4379,28.8833,泸州市,市环监站,细颗粒物(PM2.5),58,55,49,41,32,123,42,43,40,27,26,20,16,0.5,0.5
2023-09-06T05:00:00,1901A,104.4239,31.1208,德阳市,东山公园,颗粒物(PM10),53,56,72,34,37,202,102,133,122,8,16,1,4,0.6,0.7
2023-09-06T05:00:00,1902A,104.3826,31.1317,德阳市,西小区,,48,46,72,33,43,205,117,123,121,7,21,1,7,0.6,0.7
2023-09-06T05:00:00,1904A,104.3553,31.1091,德阳市,耐火材料厂,,46,43,82,32,42,217,107,118,113,7,22,3,8,0.7,0.8
2023-09-06T05:00:00,1905A,106.056,30.8064,南充市,西山风景区,细颗粒物(PM2.5),73,90,55,53,41,178,52,126,76,15,13,5,5,0.7,0.6
2023-09-06T05:00:00,1906A,106.0789,30.8023,南充市,南充市委,细颗粒物(PM2.5),77,59,62,56,46,205,29,61,41,23,25,9,11,0.5,0.6
2023-09-06T05:00:00,1907A,106.1031,30.8217,南充市,南充炼油厂,颗粒物(PM10),84,118,77,58,42,200,35,35,34,19,23,9,11,0.6,0.5
2023-09-06T05:00:00,1908A,106.1064,30.7856,南充市,高坪区监测站,细颗粒物(PM2.5),80,93,64,59,44,183,38,30,30,22,31,9,9,0.4,0.4
2023-09-06T05:00:00,1909A,106.0642,30.7636,南充市,嘉陵区环保局,细颗粒物(PM2.5),67,65,64,48,43,206,24,52,34,33,34,5,8,0.5,0.5
2023-09-06T05:00:00,1910A,106.1087,30.8388,南充市,市环境监测站,细颗粒物(PM2.5),65,66,67,47,44,186,48,72,58,17,23,8,10,0.5,0.5
2023-09-06T05:00:00,1911A,106.9222,27.6869,遵义市,丁字口,,30,24,24,21,17,108,28,26,26,19,26,6,5,0.7,0.7
2023-09-06T05:00:00,1912A,106.9242,27.7019,遵义市,凤凰山,,38,38,26,22,20,132,40,48,45,20,15,9,8,0.7,0.5
2023-09-06T05:00:00,1913A,106.8906,27.6486,遵义市,忠庄,,37,37,32,21,18,124,16,40,28,56,27,2,2,0.5,0.5
2023-09-06T05:00:00,1914A,106.9231,27.6506,遵义市,舟水桥,,45,37,36,31,22,129,15,20,18,13,15,2,2,0.8,0.7
2023-09-06T05:00:00,1915A,106.9178,27.72,遵义市,干田坝,,35,19,23,24,18,132,23,24,24,15,17,6,6,0.7,0.6
2023-09-06T05:00:00,1916A,103.7897,25.5035,曲靖市,环境监测站,,32,32,35,13,16,111,51,72,63,15,15,10,10,0.7,0.7
2023-09-06T05:00:00,1917A,103.8,25.5364,曲靖市,烟厂办公区,,32,28,27,22,16,113,52,75,66,12,11,4,8,0.5,0.5
2023-09-06T05:00:00,1918A,108.7197,34.3956,咸阳市,气象站,,,,,,,,,,,,,,,,
2023-09-06T05:00:00,1919A,108.673,34.3155,咸阳市,实验中学,细颗粒物(PM2.5),68,65,54,49,26,169,92,83,83,16,16,7,7,0.5,0.5
2023-09-06T05:00:00,1920A,108.7233,34.3617,咸阳市,师范学院,细颗粒物(PM2.5),67,63,48,48,25,159,103,92,92,18,21,5,5,0.5,0.5
2023-09-06T05:00:00,1922A,109.0656,35.0994,铜川市,党校,细颗粒物(PM2.5),59,62,46,42,26,139,119,130,125,35,25,12,12,0.8,0.7
2023-09-06T05:00:00,1923A,109.0697,35.0697,铜川市,王益区政府,细颗粒物(PM2.5),53,47,40,37,25,143,116,110,110,6,9,5,6,0.6,0.5
2023-09-06T05:00:00,1924A,108.9344,34.9058,铜川市,新区管委会,颗粒物(PM10),55,60,48,32,25,151,106,98,98,15,14,8,7,0.6,0.6
2023-09-06T05:00:00,1926A,109.4131,36.6275,延安市,枣园,,37,37,39,21,21,140,4,8,6,29,28,6,7,0.4,0.5
2023-09-06T05:00:00,1927A,109.4761,36.6028,延安市,延大医附院,,38,38,41,21,20,144,5,11,7,32,28,4,5,0.6,0.7
2023-09-06T05:00:00,1929A,109.5056,36.6106,延安市,百米大道,,49,47,46,34,26,142,26,31,30,26,24,11,11,0.9,0.8
2023-09-06T05:00:00,1930A,107.185,34.3063,宝鸡市,庙沟村,,40,40,47,26,28,155,52,87,61,13,14,8,8,0.2,0.2
2023-09-06T05:00:00,1931A,107.0708,34.3017,宝鸡市,竹园沟,,32,30,41,22,26,187,43,67,55,14,16,5,6,0.6,0.6
2023-09-06T05:00:00,1932A,107.1906,34.3672,宝鸡市,三陆医院,颗粒物(PM10),51,51,60,25,31,205,79,55,48,20,27,9,9,0.5,0.6
2023-09-06T05:00:00,1933A,107.1431,34.3547,宝鸡市,监测站,颗粒物(PM10),51,51,53,27,30,200,46,69,56,24,27,8,8,0.5,0.5
2023-09-06T05:00:00,1934A,107.1186,34.3739,宝鸡市,技工学校,颗粒物(PM10),55,60,59,36,38,197,43,61,52,19,23,9,8,0.6,0.7
2023-09-06T05:00:00,1935A,107.3906,34.3528,宝鸡市,陈仓区环保局家属楼,,46,46,58,29,28,204,66,59,59,20,26,9,8,0.6,0.6
2023-09-06T05:00:00,1936A,107.2058,34.3497,宝鸡市,文理学院,,41,41,58,25,27,208,81,71,64,15,23,8,7,0.5,0.6
2023-09-06T05:00:00,1937A,107.2386,34.3622,宝鸡市,三迪小学,,44,44,58,30,30,203,80,69,69,15,24,9,8,0.5,0.6
2023-09-06T05:00:00,1938A,109.5293,34.5101,渭南市,农科所,,34,34,46,19,27,146,28,43,32,21,19,4,5,0.4,0.4
2023-09-06T05:00:00,1939A,109.4974,34.4877,渭南市,日报社,颗粒物(PM10),57,63,50,39,28,153,4,10,8,54,30,5,5,0.5,0.4
2023-09-06T05:00:00,1940A,109.4636,34.493,渭南市,体育馆,颗粒物(PM10),57,63,51,37,25,156,2,16,11,63,38,4,4,0.6,0.5
2023-09-06T05:00:00,1941A,109.4259,34.5023,渭南市,高新一小,细颗粒物(PM2.5),62,55,57,44,26,154,89,83,81,11,15,6,6,0.6,0.6
2023-09-06T05:00:00,1943A,102.1725,38.5339,金昌市,新川苑,,,,,,,,,,,,,,,,
2023-09-06T05:00:00,1944A,102.1692,38.5167,金昌市,天庆家园,颗粒物(PM10),56,62,86,23,30,134,60,55,55,18,24,10,21,0.9,0.8
2023-09-06T05:00:00,1945A,98.2908,39.7711,嘉峪关市,气象局,颗粒物(PM10),92,134,194,34,61,143,88,50,50,16,44,11,17,0.3,0.6
2023-09-06T05:00:00,1947A,106.3394,38.817,石嘴山市,沙湖旅游区,,37,37,48,20,19,176,113,103,103,6,9,12,12,0.6,0.5
2023-09-06T05:00:00,1948A,106.3668,39.0145,石嘴山市,大武口朝阳西街,,45,45,59,23,20,164,114,98,98,2,13,2,11,0.4,0.4
2023-09-06T05:00:00,1949A,106.7704,39.2282,石嘴山市,惠农南大街,颗粒物(PM10),51,51,58,19,18,126,98,101,100,14,16,7,8,0.6,0.6
2023-09-06T05:00:00,1950A,106.7099,39.1325,石嘴山市,红果子镇惠新街,,50,50,61,23,19,126,94,98,96,14,15,21,14,0.3,0.3
2023-09-06T05:00:00,1951A,84.895,45.6094,克拉玛依市,长征新村,,19,7,11,1,5,84,60,79,64,6,7,9,9,0.2,0.2
2023-09-06T05:00:00,1952A,84.8988,45.5893,克拉玛依市,南林小区,,15,10,10,6,6,85,45,82,56,14,11,6,6,0.5,0.4
2023-09-06T05:00:00,1954A,84.905,44.3396,克拉玛依市,独山子区,,21,5,7,6,8,122,67,68,67,2,5,6,7,0.3,0.3
2023-09-06T05:00:00,1955A,85.6979,46.098,克拉玛依市,乌尔禾区商贸楼,,31,31,15,7,6,85,48,65,54,5,4,6,6,0.3,0.3
2023-09-06T05:00:00,1956A,86.1472,41.7538,巴音郭楞州,孔雀公园,,36,36,79,8,20,116,58,85,80,19,13,7,7,0.3,0.3
2023-09-06T05:00:00,1957A,86.1972,41.7166,巴音郭楞州,棉纺厂,,24,14,78,4,22,118,76,78,78,16,11,6,6,0.3,0.3
2023-09-06T05:00:00,1958A,86.2357,41.7173,巴音郭楞州,经济开发区,,29,8,65,12,16,118,90,85,85,4,7,9,8,0.2,0.2
2023-09-06T05:00:00,1961A,117.532,36.6868,济南市,东山小学,"颗粒物(PM10),细颗粒物(PM2.5)",59,68,76,42,39,269,85,100,85,27,28,7,7,0.8,0.7
2023-09-06T05:00:00,1966A,120.0405,35.8735,青岛市,黄岛区4号,颗粒物(PM10),54,58,29,36,15,126,19,50,33,41,23,7,6,0.5,0.4
2023-09-06T05:00:00,1982A,122.0693,37.2174,威海市,文登开发区,颗粒物(PM10),52,53,43,34,23,176,94,128,114,7,9,6,6,0.7,0.5
2023-09-06T05:00:00,2031A,113.1817,27.9958,株洲市,云田中学,细颗粒物(PM2.5),53,48,35,37,25,148,14,35,24,32,14,6,6,0.8,0.7
2023-09-06T05:00:00,2054A,114.1099,32.1059,信阳市,平桥分局,,39,39,29,23,18,103,64,84,73,13,13,4,3,0.6,0.6
2023-09-06T05:00:00,2064A,113.9956,32.1271,信阳市,南湾水厂,颗粒物(PM10),51,51,42,25,19,100,70,83,81,10,12,5,4,0.7,0.7
2023-09-06T05:00:00,2065A,114.0775,32.1195,信阳市,市酿酒公司,颗粒物(PM10),52,53,32,28,19,102,68,83,73,18,15,5,3,0.6,0.6
2023-09-06T05:00:00,2066A,114.0609,32.1399,信阳市,审计局,,46,46,40,25,17,112,52,90,73,25,13,5,4,0.7,0.6
2023-09-06T05:00:00,2067A,114.6613,33.6128,周口市,市环境监测站,细颗粒物(PM2.5),68,79,51,49,33,191,100,138,120,22,18,10,7,0.7,0.6
2023-09-06T05:00:00,2068A,114.6758,33.6347,周口市,周口师范,细颗粒物(PM2.5),92,107,60,68,34,188,46,83,63,30,14,11,6,0.8,0.6
2023-09-06T05:00:00,2069A,114.6546,33.5979,周口市,市运管处,细颗粒物(PM2.5),62,53,55,44,30,185,95,138,122,16,17,11,9,0.7,0.6
2023-09-06T05:00:00,2070A,114.6369,33.6406,周口市,川汇区环保局,细颗粒物(PM2.5),77,80,64,56,32,181,49,73,60,33,18,13,9,0.8,0.6
2023-09-06T05:00:00,2075A,117.6336,24.4674,漳州市,九湖,,,,,,,,,,,,,,,,
2023-09-06T05:00:00,2160A,112.85,35.5051,晋城市,自来水公司,细颗粒物(PM2.5),92,109,70,68,39,204,48,100,75,32,19,10,10,1.6,1.1
2023-09-06T05:00:00,2161A,112.8318,35.4936,晋城市,白云商贸,细颗粒物(PM2.5),73,65,77,53,37,200,57,76,71,29,22,9,9,1.4,1
2023-09-06T05:00:00,2162A,112.8508,35.4887,晋城市,市环保局,细颗粒物(PM2.5),77,90,80,56,39,189,47,64,52,34,28,9,9,1.2,1
2023-09-06T05:00:00,2163A,112.8676,35.4897,晋城市,技术学院,细颗粒物(PM2.5),64,68,63,46,36,191,41,67,58,37,26,8,8,1.1,0.9
2023-09-06T05:00:00,2165A,112.8453,35.546,晋城市,白马寺,,,,,,,,,,,,,,,,
2023-09-06T05:00:00,2166A,112.4397,39.3522,朔州市,平朔,细颗粒物(PM2.5),58,56,58,41,28,143,51,79,58,10,19,4,6,0.6,0.8
2023-09-06T05:00:00,2167A,112.4575,39.3617,朔州市,朔唯,颗粒物(PM10),71,91,76,45,29,137,33,64,54,36,21,8,9,0.7,0.7
2023-09-06T05:00:00,2168A,112.4258,39.3197,朔州市,区政府,细颗粒物(PM2.5),69,68,50,50,33,133,59,101,84,19,20,5,8,0.7,0.6
2023-09-06T05:00:00,2169A,112.4072,39.3278,朔州市,市环保局,颗粒物(PM10),63,76,60,37,26,145,52,112,78,28,24,7,8,0.7,0.6
2023-09-06T05:00:00,2170A,112.4272,39.3681,朔州市,市二中,细颗粒物(PM2.5),59,54,63,42,30,135,55,63,61,12,22,6,9,0.7,0.8
2023-09-06T05:00:00,2171A,112.7532,37.6945,晋中市,锦纶小区,颗粒物(PM10),64,78,64,35,34,182,67,128,86,17,14,9,10,0.5,0.7
2023-09-06T05:00:00,2173A,112.7249,37.7067,晋中市,南都小区,细颗粒物(PM2.5),89,78,68,66,45,176,74,129,108,23,16,6,8,0.6,0.6
2023-09-06T05:00:00,2174A,112.6991,37.6982,晋中市,榆次区政府,颗粒物(PM10),75,99,69,46,42,175,67,130,106,21,15,9,10,0.6,0.7
2023-09-06T05:00:00,2175A,110.9956,35.0147,运城市,运城中学,细颗粒物(PM2.5),68,77,61,49,35,184,168,173,169,5,6,5,5,0.5,0.4
2023-09-06T05:00:00,2178A,110.9686,35.0303,运城市,地区技校,细颗粒物(PM2.5),69,67,58,50,36,172,158,165,162,5,7,4,5,0.7,0.5
2023-09-06T05:00:00,2179A,111.0414,35.1147,运城市,空港新区,细颗粒物(PM2.5),70,81,72,51,40,180,170,176,173,6,8,5,5,0.6,0.5
2023-09-06T05:00:00,2181A,112.7383,38.4519,忻州市,开发区,细颗粒物(PM2.5),52,48,55,36,40,154,29,59,41,32,21,8,10,0.8,0.8
2023-09-06T05:00:00,2182A,112.7003,38.4928,忻州市,会展中心,细颗粒物(PM2.5),69,51,51,50,41,149,46,90,62,32,20,10,11,0.6,0.7
2023-09-06T05:00:00,2183A,111.1406,37.5211,吕梁市,环保局,细颗粒物(PM2.5),80,76,79,59,36,172,45,34,34,38,42,3,3,0.8,0.8
2023-09-06T05:00:00,2185A,111.1297,37.5136,吕梁市,自来水公司,颗粒物(PM10),101,151,81,51,37,181,5,49,28,64,39,5,5,0.8,0.8
2023-09-06T05:00:00,2187A,106.8174,39.6973,乌海市,市林业局,颗粒物(PM10),52,53,75,18,18,137,120,124,122,9,10,16,12,0.8,0.7
2023-09-06T05:00:00,2188A,106.7907,39.6667,乌海市,中海勃湾学校,,40,40,64,20,18,137,111,117,114,15,13,19,13,0.5,0.5
2023-09-06T05:00:00,2191A,122.2532,43.6801,通辽市,艺术职业学校,,20,20,21,8,9,102,55,58,57,17,14,5,5,0.0,0.1
2023-09-06T05:00:00,2192A,119.7594,49.2261,呼伦贝尔市,区环保局,颗粒物(PM10),51,51,49,18,18,73,9,6,6,26,26,4,4,0.4,0.5
2023-09-06T05:00:00,2195A,107.4212,40.761,巴彦淖尔市,附二中,,49,49,67,13,21,152,115,120,117,6,8,5,5,0.6,0.5
2023-09-06T05:00:00,2196A,107.37,40.7372,巴彦淖尔市,市环保大楼,,47,47,61,19,25,150,115,118,115,3,6,4,5,0.6,0.5
2023-09-06T05:00:00,2197A,113.1306,40.9923,乌兰察布市,集宁新区,,44,44,35,30,19,162,45,75,59,27,20,21,21,0.6,0.6
2023-09-06T05:00:00,2200A,122.0392,46.0656,兴安盟,胜华新制药厂,,26,26,23,14,15,80,37,55,47,7,7,3,3,0.3,0.4
2023-09-06T05:00:00,2201A,121.9504,46.0741,兴安盟,科右前旗环保局,,33,29,22,23,18,82,24,51,38,15,7,3,3,0.5,0.5
2023-09-06T05:00:00,2202A,116.1042,43.9317,锡林郭勒盟,市环保监测站,,32,30,30,22,11,133,50,80,67,5,6,10,14,0.4,0.3
2023-09-06T05:00:00,2203A,116.0781,43.9311,锡林郭勒盟,市政府,,25,25,21,9,6,139,59,80,71,6,7,11,13,0.4,0.3
2023-09-06T05:00:00,2204A,105.6467,38.8363,阿拉善盟,西城区西花园,,49,46,51,34,22,128,105,100,100,7,9,8,8,0.6,0.6
2023-09-06T05:00:00,2205A,105.6985,38.8411,阿拉善盟,蒙二幼,,40,40,81,26,25,232,126,129,128,4,8,8,8,0.5,0.4
2023-09-06T05:00:00,2206A,105.724,38.8516,阿拉善盟,环保局新楼,,40,39,57,24,24,156,127,123,123,5,6,6,7,0.5,0.4
2023-09-06T05:00:00,2207A,121.6094,41.998,阜新市,工业园区,,39,39,46,16,10,94,9,12,9,30,23,5,32,1.1,0.9
2023-09-06T05:00:00,2208A,121.6697,42.0279,阜新市,长青街,颗粒物(PM10),56,62,50,30,21,88,24,28,21,24,20,21,32,0.7,0.6
2023-09-06T05:00:00,2209A,121.6673,42.0705,阜新市,农业园区,二氧化硫,71,13,23,9,15,81,57,74,69,25,12,291,27,0.7,1.1
2023-09-06T05:00:00,2210A,121.6717,42.0224,阜新市,东苑,颗粒物(PM10),60,70,55,16,20,88,20,23,20,34,22,30,36,0.8,0.7
2023-09-06T05:00:00,2211A,121.6506,42.0498,阜新市,玉龙新城,颗粒物(PM10),56,61,41,19,14,70,15,15,15,36,25,8,19,4.8,1.3
2023-09-06T05:00:00,2212A,123.2,41.1953,辽阳市,宏伟区,,43,43,65,25,37,142,1,11,5,35,32,12,13,0.7,0.8
2023-09-06T05:00:00,2213A,123.1683,41.2495,辽阳市,新华园,颗粒物(PM10),54,58,49,24,28,136,3,18,8,38,30,36,20,0.7,0.8
2023-09-06T05:00:00,2214A,123.2354,41.2639,辽阳市,滨河路,颗粒物(PM10),54,58,60,30,35,134,5,5,5,33,30,13,14,0.9,0.9
2023-09-06T05:00:00,2215A,123.149,41.2991,辽阳市,铁西工业园,,40,40,42,19,25,145,2,2,2,50,35,12,7,1.0,0.7
2023-09-06T05:00:00,2216A,123.8139,42.3022,铁岭市,汇工街西,,18,13,23,7,12,106,0,10,4,36,24,28,17,1.2,0.6
2023-09-06T05:00:00,2217A,123.8649,42.2923,铁岭市,水上乐园,,31,31,26,7,11,98,9,8,8,33,30,3,2,0.5,0.5
2023-09-06T05:00:00,2218A,123.8486,42.2867,铁岭市,银州路东段,,17,13,19,2,10,96,6,11,6,34,25,3,3,0.4,0.5
2023-09-06T05:00:00,2219A,123.7153,42.2217,铁岭市,金沙江路北,,17,17,22,6,10,105,3,22,12,28,19,6,6,0.5,0.7
2023-09-06T05:00:00,2220A,120.4318,41.5881,朝阳市,西梁,颗粒物(PM10),53,56,66,25,34,130,17,24,19,24,19,22,17,0.7,0.8
2023-09-06T05:00:00,2221A,120.4521,41.5646,朝阳市,河畔小区,,49,49,72,13,33,132,23,52,41,18,13,13,16,0.6,0.7
2023-09-06T05:00:00,2222A,120.4176,41.5648,朝阳市,八里堡,颗粒物(PM10),54,58,65,25,35,135,18,37,25,28,20,23,15,0.8,0.9
2023-09-06T05:00:00,2223A,120.3806,41.5969,朝阳市,农业园区,颗粒物(PM10),61,72,52,13,35,132,5,13,7,35,24,10,11,0.6,0.8
2023-09-06T05:00:00,2225A,124.4002,43.1713,四平市,一商场,,39,39,30,9,12,93,33,32,32,21,21,7,7,0.2,0.2
2023-09-06T05:00:00,2226A,124.388,43.193,四平市,境园,,41,41,30,17,14,94,10,5,5,34,20,3,3,0.3,0.3
2023-09-06T05:00:00,2227A,125.1358,42.8845,辽源市,环保局,,13,13,16,8,8,103,5,12,9,14,14,7,9,0.5,0.6
2023-09-06T05:00:00,2229A,125.9358,41.7173,通化市,光明,颗粒物(PM10),53,56,37,34,18,114,5,20,10,27,17,15,12,1.8,0.9
2023-09-06T05:00:00,2230A,125.9446,41.7325,通化市,铁路,颗粒物(PM10),70,89,30,49,18,116,5,26,14,30,16,17,10,1.7,1.2
2023-09-06T05:00:00,2231A,126.4219,41.9171,白山市,喜丰,,26,26,54,9,14,39,6,8,7,14,18,16,18,0.6,0.7
2023-09-06T05:00:00,2232A,126.4077,41.9419,白山市,环保局,,27,27,35,3,12,120,13,26,21,10,10,6,9,0.0,0.3
2023-09-06T05:00:00,2233A,124.8006,45.1214,松原市,江南,,14,11,16,4,6,73,43,41,41,9,12,6,5,0.4,0.4
2023-09-06T05:00:00,2234A,124.7965,45.1722,松原市,江北,,16,10,33,4,12,69,51,45,45,6,16,5,4,0.4,0.4
2023-09-06T05:00:00,2235A,122.7911,45.6077,白城市,洮北区环保局,,15,8,15,4,5,75,46,56,50,7,10,5,5,0.1,0.1
2023-09-06T05:00:00,2236A,122.8738,45.5725,白城市,市环保局,,25,25,20,4,5,81,59,64,62,6,9,6,6,0.3,0.3
2023-09-06T05:00:00,2237A,129.47,42.8883,延边朝鲜族自治州,妇幼医院,,16,16,25,5,12,112,15,23,20,12,13,8,8,0.4,0.5
2023-09-06T05:00:00,2238A,129.5055,42.9108,延边朝鲜族自治州,延边医院,,15,15,31,6,12,115,29,40,31,11,16,6,6,0.6,0.7
2023-09-06T05:00:00,2239A,129.3964,42.8881,延边朝鲜族自治州,朝阳川镇医院,,10,10,22,1,8,118,18,31,24,6,6,8,8,0.4,0.5
2023-09-06T05:00:00,2240A,130.9762,45.3001,鸡西市,环保局,,17,17,33,10,17,53,9,7,7,6,18,4,5,0.3,0.4
2023-09-06T05:00:00,2243A,130.9429,45.3039,鸡西市,第一中学,,8,5,19,5,11,70,9,12,9,7,12,6,6,0.2,0.2
2023-09-06T05:00:00,2244A,130.2537,47.3416,鹤岗市,哈啤分公司,,22,22,20,10,13,55,12,12,12,2,16,11,9,0.2,0.3
2023-09-06T05:00:00,2245A,130.2684,47.3086,鹤岗市,斯达机电,,16,16,17,9,11,57,25,21,21,8,8,8,8,0.3,0.3
2023-09-06T05:00:00,2246A,130.3114,47.3388,鹤岗市,东山纸板厂,颗粒物(PM10),84,118,64,19,16,54,0,0,0,12,10,13,10,1.0,0.5
2023-09-06T05:00:00,2247A,130.1097,47.3382,鹤岗市,五号水库,,10,6,10,7,7,60,10,14,13,5,5,9,10,0.3,0.3
2023-09-06T05:00:00,2248A,131.1511,46.6937,双鸭山市,双合村,,27,27,35,5,9,57,5,5,5,12,11,8,7,0.7,0.5
2023-09-06T05:00:00,2249A,131.1652,46.6191,双鸭山市,南小市,,29,29,27,3,10,57,18,13,13,5,9,5,5,0.2,0.2
2023-09-06T05:00:00,2250A,131.1524,46.6554,双鸭山市,环保局,,19,18,30,13,15,57,20,16,16,7,14,8,9,0.2,0.4
2023-09-06T05:00:00,2251A,131.12,46.5656,双鸭山市,苗圃,,23,10,15,16,8,75,50,44,44,3,6,2,4,0.4,0.4
2023-09-06T05:00:00,2252A,128.5159,47.4311,伊春市,环保局,,14,14,20,7,6,53,19,11,11,3,8,6,4,0.2,0.3
2023-09-06T05:00:00,2253A,128.9102,47.7412,伊春市,电力嘉园,,16,16,19,6,10,55,26,13,13,5,6,5,5,0.4,0.5
2023-09-06T05:00:00,2254A,129.5029,48.471,伊春市,汤旺河国家公园,,20,14,15,14,12,60,10,15,14,1,2,14,13,0.3,0.4
2023-09-06T05:00:00,2255A,130.2751,46.8028,佳木斯市,佳纺,,23,23,29,7,10,54,10,12,10,17,13,2,3,0.4,0.4
2023-09-06T05:00:00,2256A,130.3995,46.8307,佳木斯市,发电厂,,23,23,20,10,12,64,5,13,10,17,9,4,4,0.5,0.4
2023-09-06T05:00:00,2257A,130.3258,46.7975,佳木斯市,环保局,,30,30,26,7,8,56,13,15,13,19,17,4,3,0.4,0.4
2023-09-06T05:00:00,2258A,130.3648,46.8032,佳木斯市,十一中,,35,35,24,12,9,58,7,17,15,24,15,4,4,0.5,0.5
2023-09-06T05:00:00,2259A,130.3794,46.7588,佳木斯市,四丰,,10,10,15,4,5,71,29,29,29,4,8,1,1,0.2,0.2
2023-09-06T05:00:00,2262A,131.0518,45.8751,七台河市,新一中,,8,6,17,5,14,61,10,14,9,5,8,7,7,0.5,0.8
2023-09-06T05:00:00,2263A,127.4833,50.2524,黑河市,交通局,,14,14,19,7,9,63,13,14,14,12,18,5,7,0.4,0.5
2023-09-06T05:00:00,2264A,127.5144,50.2341,黑河市,环保局,,20,19,20,14,9,64,18,14,14,8,13,3,8,0.3,0.3
2023-09-06T05:00:00,2265A,127.5291,50.2472,黑河市,大黑河岛,,,22,15,16,12,,,,,2,2,1,4,0.4,0.4
2023-09-06T05:00:00,2266A,126.9785,46.6365,绥化市,人和东街,,30,30,18,13,7,68,30,43,36,17,13,21,5,0.5,0.3
2023-09-06T05:00:00,2267A,126.964,46.6528,绥化市,党政办公中心,,19,19,11,12,6,66,40,56,44,16,10,8,8,0.4,0.3
2023-09-06T05:00:00,2269A,124.1069,50.4097,大兴安岭地区,科技局,,26,16,15,18,9,68,18,18,18,2,4,3,3,0.2,0.3
2023-09-06T05:00:00,2270A,117.396,32.939,蚌埠市,工人疗养院,,37,37,39,16,14,71,29,41,35,9,10,3,3,0.3,0.4
2023-09-06T05:00:00,2271A,117.3605,32.9427,蚌埠市,百货大楼,,37,37,39,13,13,69,35,42,39,7,9,4,4,0.3,0.3
2023-09-06T05:00:00,2273A,117.4185,32.8911,蚌埠市,蚌埠学院,,31,31,34,15,18,70,19,12,9,22,26,6,8,0.3,0.4
2023-09-06T05:00:00,2274A,117.3533,32.9673,蚌埠市,淮上区政府,,29,29,37,12,17,66,29,47,36,12,11,4,4,0.3,0.3
2023-09-06T05:00:00,2275A,117.3145,32.8977,蚌埠市,高新区,,29,29,29,17,17,82,42,52,37,9,11,4,4,0.4,0.5
2023-09-06T05:00:00,2277A,116.8305,32.7727,淮南市,潘集区政府,,33,28,32,23,18,79,20,28,25,18,13,8,7,0.3,0.2
2023-09-06T05:00:00,2278A,117.0067,32.6524,淮南市,师范学院,,40,40,38,25,20,81,20,44,35,15,15,9,9,0.3,0.3
2023-09-06T05:00:00,2279A,116.8569,32.5951,淮南市,谢家集区政府,,24,24,26,2,9,94,25,34,31,19,19,8,6,0.1,0.1
2023-09-06T05:00:00,2280A,116.8281,32.633,淮南市,八公山区政府,,34,34,39,21,24,85,18,28,26,17,15,6,6,0.3,0.4
2023-09-06T05:00:00,2281A,116.6325,32.6201,淮南市,焦岗湖风景区管理处,,27,27,27,10,19,68,6,13,10,22,14,3,3,0.3,0.3
2023-09-06T05:00:00,2282A,116.8004,33.975,淮北市,监测站,,44,44,45,25,21,166,57,82,69,15,17,1,3,0.7,0.4
2023-09-06T05:00:00,2283A,116.8091,33.9007,淮北市,烈山区政府,,42,42,39,22,20,168,56,79,69,10,10,6,7,0.5,0.4
2023-09-06T05:00:00,2285A,117.8177,30.9412,铜陵市,市第四中学,,40,40,40,19,20,74,24,25,15,20,16,11,7,0.2,0.2
2023-09-06T05:00:00,2286A,117.8059,30.9273,铜陵市,市公路局,,39,39,34,17,20,77,27,34,19,17,17,10,8,0.4,0.4
2023-09-06T05:00:00,2287A,117.7807,30.9413,铜陵市,市新民污水厂,颗粒物(PM10),53,56,45,16,18,86,12,5,5,35,24,9,6,0.6,0.5
2023-09-06T05:00:00,2288A,117.7439,30.8792,铜陵市,市第九中学,,49,49,50,18,22,84,30,12,12,16,22,11,9,0.4,0.9
2023-09-06T05:00:00,2289A,117.846,30.9413,铜陵市,车站新区,,45,45,33,21,23,80,28,31,18,14,17,9,6,0.2,0.3
2023-09-06T05:00:00,2290A,117.8483,30.97,铜陵市,市职教基地,,34,34,30,13,14,79,13,5,5,19,16,4,4,0.6,0.6
2023-09-06T05:00:00,2291A,117.0809,30.5177,安庆市,环科院,,26,26,34,18,20,128,41,56,48,11,11,9,7,0.6,0.5
2023-09-06T05:00:00,2292A,117.0331,30.5119,安庆市,马山宾馆,,29,28,31,20,20,131,44,59,53,12,11,7,5,0.7,0.6
2023-09-06T05:00:00,2294A,116.9896,30.6145,安庆市,安庆大学,,38,34,34,26,21,113,44,57,51,12,10,7,6,0.6,0.5
2023-09-06T05:00:00,2295A,118.2903,29.6963,黄山市,延安路89号,,40,40,37,7,7,66,17,28,20,7,7,3,4,0.3,0.3
2023-09-06T05:00:00,2296A,118.327,29.7178,黄山市,黄山东路89号,,20,15,22,14,10,60,37,36,36,7,8,4,5,0.4,0.4
2023-09-06T05:00:00,2297A,118.1371,30.2756,黄山市,黄山区政府5号楼,,31,31,31,7,11,49,8,3,3,6,9,6,6,0.3,0.4
2023-09-06T05:00:00,2298A,118.3093,32.3153,滁州市,老年大学,,25,25,22,10,7,73,30,39,33,11,9,6,5,0.2,0.1
2023-09-06T05:00:00,2299A,118.3244,32.2786,滁州市,人大宾馆,,14,14,13,1,5,71,24,28,25,17,14,8,6,0.3,0.2
2023-09-06T05:00:00,2301A,115.8277,32.8929,阜阳市,市监测站,,19,19,22,13,12,106,54,58,57,9,11,7,7,0.4,0.4
2023-09-06T05:00:00,2303A,115.8554,32.8605,阜阳市,开发区,,32,22,29,22,22,95,42,51,46,14,14,8,8,0.3,0.4
2023-09-06T05:00:00,2307A,116.5079,31.737,六安市,监测大楼,,27,27,27,6,9,104,19,35,26,14,11,5,5,0.3,0.4
2023-09-06T05:00:00,2308A,116.4738,31.7643,六安市,皖西学院,,35,35,32,6,9,98,17,32,23,18,12,7,6,0.1,0.2
2023-09-06T05:00:00,2309A,116.4996,31.7905,六安市,朝阳厂,,23,17,25,16,12,94,19,26,23,14,11,7,7,0.4,0.5
2023-09-06T05:00:00,2310A,116.5567,31.7886,六安市,开发区,,35,35,35,15,17,88,21,19,19,11,11,5,6,0.4,0.5
2023-09-06T05:00:00,2311A,115.8072,33.8399,亳州市,污水处理厂,细颗粒物(PM2.5),67,73,52,48,31,174,37,101,63,34,15,14,13,0.8,0.7
2023-09-06T05:00:00,2312A,115.7789,33.8518,亳州市,三国揽胜宫,细颗粒物(PM2.5),69,65,56,50,31,170,63,125,94,23,17,16,15,0.9,0.8
2023-09-06T05:00:00,2314A,117.47,30.6618,池州市,池州学院,,36,36,33,24,22,104,9,20,9,30,21,8,6,0.6,0.6
2023-09-06T05:00:00,2316A,118.7581,30.9454,宣城市,鳌峰子站,,40,40,30,22,17,73,20,30,27,21,22,9,5,0.6,0.5
2023-09-06T05:00:00,2317A,118.7385,30.9743,宣城市,敬亭山子站,,39,39,34,25,16,73,21,23,21,32,24,11,9,0.3,0.4
2023-09-06T05:00:00,2318A,118.7173,30.9427,宣城市,开发区子站,,35,35,28,21,17,77,29,38,32,24,23,14,7,0.4,0.4
2023-09-06T05:00:00,2319A,119.0141,25.4325,莆田市,荔城区仓后路,,10,7,14,2,6,75,31,46,38,9,7,8,8,0.7,0.7
2023-09-06T05:00:00,2320A,119.0015,25.4553,莆田市,莆田市监测站,,,,19,0,3,73,33,50,42,3,5,6,7,0.6,0.6
2023-09-06T05:00:00,2321A,119.1119,25.4561,莆田市,涵江区六中,,9,8,18,3,6,74,28,55,37,12,9,7,7,0.6,0.6
2023-09-06T05:00:00,2322A,119.1013,25.3215,莆田市,秀屿区政府,,9,7,14,0,5,71,27,45,36,6,6,8,9,0.5,0.7
2023-09-06T05:00:00,2323A,118.981,25.4792,莆田市,东圳水库,,,,,,,,,,,,,,,,
2023-09-06T05:00:00,2324A,117.6211,26.2625,三明市,三钢,,15,11,15,10,12,41,22,28,25,5,6,8,7,0.4,0.4
2023-09-06T05:00:00,2325A,117.635,26.2714,三明市,三明二中,,17,17,13,4,7,42,23,28,26,10,11,4,3,0.4,0.5
2023-09-06T05:00:00,2326A,117.6028,26.2378,三明市,三元区政府,,15,15,13,2,7,42,24,28,25,7,8,11,8,0.6,0.6
2023-09-06T05:00:00,2327A,117.7275,26.3108,三明市,洋溪,,,,,,,,,,,,,,,,
2023-09-06T05:00:00,2331A,118.0966,26.6761,南平市,茫荡山,,,,,,,,,,,,,,,,
2023-09-06T05:00:00,2332A,118.1681,26.6369,南平市,南平市监测站,,9,9,12,4,7,46,21,25,24,7,7,4,4,0.4,0.4
2023-09-06T05:00:00,2333A,118.1825,26.6489,南平市,南平铝业有限公司,,20,20,14,3,7,47,23,26,25,5,6,3,3,0.4,0.4
2023-09-06T05:00:00,2334A,118.1756,26.6272,南平市,南平七中,,,,13,3,8,45,17,25,21,2,4,4,5,0.4,0.5
2023-09-06T05:00:00,2335A,117.0189,25.1181,龙岩市,龙岩师专,,,,,,,,,,,,,,,,
2023-09-06T05:00:00,2336A,117.0217,25.1033,龙岩市,龙岩市监测站,,15,14,8,3,4,56,47,53,51,7,7,7,4,0.3,0.3
2023-09-06T05:00:00,2337A,117.0258,25.0661,龙岩市,闽西职业技术学院,,12,9,7,5,4,52,36,47,44,8,5,4,4,0.3,0.3
2023-09-06T05:00:00,2338A,117.0196,25.0306,龙岩市,龙岩学院,,15,15,7,4,3,47,36,41,38,7,7,3,3,0.3,0.3
2023-09-06T05:00:00,2339A,119.5001,26.6946,宁德市,金涵水库,,,,,,,,,,,,,,,,
2023-09-06T05:00:00,2341A,119.5388,26.6612,宁德市,宁德市监测站,,10,5,7,4,4,29,8,25,20,20,8,3,3,0.4,0.5
2023-09-06T05:00:00,2342A,117.3102,29.3867,景德镇市,王港中学,,18,16,20,12,12,36,4,8,6,5,6,4,4,0.4,0.4
2023-09-06T05:00:00,2343A,117.2117,29.2933,景德镇市,老干部活动中心,,28,28,27,14,14,54,21,23,23,12,10,4,4,0.2,0.2
2023-09-06T05:00:00,2344A,117.1894,29.2789,景德镇市,兽医站,,22,19,26,15,18,59,28,26,26,9,10,7,7,0.3,0.4
2023-09-06T05:00:00,2345A,117.1547,29.2617,景德镇市,台达陶瓷,,26,16,24,18,17,57,30,29,29,8,10,4,4,0.3,0.3
2023-09-06T05:00:00,2346A,117.2461,29.2956,景德镇市,陶研所,,45,45,34,15,14,49,13,6,6,8,12,3,4,0.3,0.3
2023-09-06T05:00:00,2347A,114.0997,27.5002,萍乡市,武功山,,9,9,8,2,6,90,18,21,20,4,4,9,9,0.3,0.4
2023-09-06T05:00:00,2348A,113.8385,27.6434,萍乡市,中医院,,30,18,44,21,32,96,36,49,43,6,11,16,21,0.5,0.8
2023-09-06T05:00:00,2349A,113.8493,27.6253,萍乡市,市政府车库,,39,39,41,26,27,100,32,47,40,10,12,33,25,0.4,0.6
2023-09-06T05:00:00,2350A,113.8676,27.6435,萍乡市,市环保局,,43,31,40,30,25,107,37,52,46,10,9,22,24,0.4,0.6
2023-09-06T05:00:00,2351A,113.866,27.6198,萍乡市,安源区政府,,43,36,42,30,28,97,26,44,37,19,13,27,19,0.6,1.1
2023-09-06T05:00:00,2352A,115.0861,27.9317,新余市,北岗,,28,28,31,18,22,79,6,8,7,19,10,24,15,0.7,0.7
2023-09-06T05:00:00,2353A,114.9886,27.8431,新余市,飞宇,颗粒物(PM10),51,52,48,28,26,82,15,11,11,17,15,22,14,0.4,0.4
2023-09-06T05:00:00,2354A,114.9231,27.8246,新余市,第二水厂,,45,45,43,24,22,94,16,28,19,22,16,13,10,0.1,0.2
2023-09-06T05:00:00,2355A,114.9308,27.8036,新余市,市气象局,,38,38,41,26,26,84,15,20,15,19,13,22,12,0.5,0.6
2023-09-06T05:00:00,2357A,116.9822,28.1136,鹰潭市,龙虎山,,36,34,24,25,16,52,28,19,19,7,8,5,8,0.4,0.3
2023-09-06T05:00:00,2358A,117.0564,28.2642,鹰潭市,新监测站,,30,22,29,21,15,50,38,26,26,4,11,6,15,0.4,0.4
2023-09-06T05:00:00,2359A,117.0311,28.2475,鹰潭市,财苑宾馆,,33,19,30,23,15,62,43,33,33,12,12,14,22,0.3,0.4
2023-09-06T05:00:00,2360A,117.0222,28.2264,鹰潭市,体育馆,,26,26,34,16,17,60,41,28,28,8,17,11,18,0.3,0.5
2023-09-06T05:00:00,2361A,117.0017,28.2131,鹰潭市,三川水表,,24,24,34,16,19,61,38,27,27,7,19,4,14,0.4,0.6
2023-09-06T05:00:00,2362A,114.9017,25.9149,赣州市,通天岩,,,,,,,,,,,,,,,,
2023-09-06T05:00:00,2363A,114.9367,25.8664,赣州市,地委,,21,21,32,13,22,85,25,32,29,4,6,8,10,1.0,1.1
2023-09-06T05:00:00,2364A,114.9461,25.8481,赣州市,气象台,,22,9,28,15,22,90,20,28,24,7,10,4,5,0.6,0.8
2023-09-06T05:00:00,2365A,114.9322,25.8333,赣州市,市图书馆,,19,17,36,13,24,86,25,32,29,6,8,4,10,0.7,0.8
2023-09-06T05:00:00,2366A,114.8905,25.8471,赣州市,华坚鞋城,,20,20,35,11,23,87,34,37,35,3,6,2,3,0.6,0.7
2023-09-06T05:00:00,2367A,114.9754,27.0803,吉安市,红声器材厂,,23,23,39,12,22,84,20,26,24,19,13,8,7,0.5,0.7
2023-09-06T05:00:00,2368A,114.9658,27.0999,吉安市,市森林工业局,,26,26,36,15,22,86,20,27,22,9,9,14,11,0.5,0.7
2023-09-06T05:00:00,2369A,114.99,27.1312,吉安市,市环境监测站,,25,25,41,11,20,78,15,19,16,18,13,10,10,0.5,0.6
2023-09-06T05:00:00,2370A,115.0093,27.0968,吉安市,青原区法院,,24,24,34,12,22,86,14,24,19,19,14,15,14,0.5,0.7
2023-09-06T05:00:00,2371A,114.3408,27.8064,宜春市,槟榔水业,,37,37,38,20,22,84,21,43,29,19,16,2,2,0.9,1
2023-09-06T05:00:00,2373A,114.3956,27.7844,宜春市,市石油公司,,39,39,43,25,25,98,23,30,26,12,14,3,7,0.8,0.8
2023-09-06T05:00:00,2374A,114.3703,27.7914,宜春市,市气象局,,40,38,45,28,28,98,23,36,30,17,15,6,8,0.8,0.8
2023-09-06T05:00:00,2375A,114.4013,27.8074,宜春市,市广电局,,46,44,43,32,30,97,26,43,33,12,13,8,11,0.8,0.8
2023-09-06T05:00:00,2376A,116.2127,28.0814,抚州市,桐源党溪,,26,26,26,13,16,54,11,13,10,3,3,3,3,0.6,0.7
2023-09-06T05:00:00,2377A,116.3544,27.9831,抚州市,市站,,34,34,32,22,20,58,24,25,25,16,11,12,4,1.2,1
2023-09-06T05:00:00,2378A,116.3565,27.963,抚州市,血防站,,43,43,37,16,17,60,21,21,21,10,5,9,4,0.6,0.6
2023-09-06T05:00:00,2379A,116.3564,28.0007,抚州市,采茶剧团,,34,34,30,21,19,56,16,18,17,12,7,2,3,0.9,0.8
2023-09-06T05:00:00,2380A,116.385,27.9647,抚州市,医学分院,,25,25,28,16,19,58,20,20,20,16,10,14,7,0.6,0.7
2023-09-06T05:00:00,2381A,118.005,28.4572,上饶市,百草园,,,,,,,,,,,,,,,,
2023-09-06T05:00:00,2382A,117.9756,28.4436,上饶市,市监测站,,28,28,27,18,14,52,34,38,37,10,9,6,7,0.4,0.3
2023-09-06T05:00:00,2383A,117.9519,28.4628,上饶市,凤凰光学,,26,26,30,17,18,42,27,25,25,7,13,1,8,0.3,0.4
2023-09-06T05:00:00,2385A,114.17,35.9019,鹤壁市,市监测站,细颗粒物(PM2.5),107,138,105,80,59,205,71,56,56,41,37,8,7,1.3,1
2023-09-06T05:00:00,2386A,114.2956,35.7511,鹤壁市,市交警支队,细颗粒物(PM2.5),103,122,80,77,56,180,55,78,65,37,24,13,8,1.1,0.8
2023-09-06T05:00:00,2387A,114.2878,35.7306,鹤壁市,迎宾馆,细颗粒物(PM2.5),89,91,74,66,51,184,58,70,61,32,30,16,10,1.1,1
2023-09-06T05:00:00,2389A,113.836,35.311,新乡市,环保西院,细颗粒物(PM2.5),85,108,75,63,44,182,63,97,79,37,24,16,8,1.3,1.1
2023-09-06T05:00:00,2390A,113.884,35.272,新乡市,开发区,细颗粒物(PM2.5),79,71,57,58,42,180,113,133,127,12,16,5,4,0.5,0.4
2023-09-06T05:00:00,2391A,113.883,35.303,新乡市,环保东院,细颗粒物(PM2.5),70,84,77,51,43,179,116,105,105,20,27,6,6,0.9,0.9
2023-09-06T05:00:00,2392A,115.0312,35.7636,濮阳市,环保局,细颗粒物(PM2.5),97,88,76,72,55,184,104,136,126,17,16,8,6,0.8,0.8
2023-09-06T05:00:00,2394A,115.0574,35.7609,濮阳市,油田运输公司,细颗粒物(PM2.5),107,120,91,80,58,187,99,128,117,17,16,9,8,0.8,0.7
2023-09-06T05:00:00,2395A,115.0866,35.7754,濮阳市,油田物探公司,细颗粒物(PM2.5),134,125,93,102,69,184,69,110,94,21,16,6,6,0.7,0.7
2023-09-06T05:00:00,2396A,113.8276,34.0159,许昌市,监测站,细颗粒物(PM2.5),104,96,69,78,41,185,57,140,83,41,21,5,7,0.7,0.5
2023-09-06T05:00:00,2398A,113.7906,33.9953,许昌市,开发区,细颗粒物(PM2.5),107,111,73,80,47,181,64,128,60,31,21,5,6,0.8,0.7
2023-09-06T05:00:00,2399A,114.051,33.5699,漯河市,三五一五工厂,颗粒物(PM10),67,83,64,44,34,189,90,115,103,27,19,15,13,0.8,0.7
2023-09-06T05:00:00,2400A,114.0055,33.5698,漯河市,漯河大学,细颗粒物(PM2.5),63,74,56,45,31,197,111,131,119,19,14,14,10,0.7,0.6
2023-09-06T05:00:00,2401A,114.0138,33.5828,漯河市,市水利局,细颗粒物(PM2.5),75,83,59,55,37,186,104,113,105,19,18,17,12,0.7,0.6
2023-09-06T05:00:00,2402A,114.0261,33.5698,漯河市,市广电局,细颗粒物(PM2.5),75,81,61,55,34,195,95,143,124,24,15,14,11,0.7,0.6
2023-09-06T05:00:00,2404A,112.5224,33.0122,南阳市,瓦房庄,颗粒物(PM10),58,66,61,40,32,156,126,128,128,10,12,6,6,0.8,0.7
2023-09-06T05:00:00,2405A,112.5003,32.9735,南阳市,汉画馆,细颗粒物(PM2.5),55,56,52,39,29,156,133,131,131,9,13,8,7,0.7,0.6
2023-09-06T05:00:00,2406A,112.5573,33.027,南阳市,气象站,颗粒物(PM10),52,54,53,33,26,158,109,109,109,13,14,8,8,0.7,0.7
2023-09-06T05:00:00,2407A,112.5481,32.9689,南阳市,理工学院,细颗粒物(PM2.5),57,62,55,40,31,160,139,134,134,6,11,5,5,0.6,0.5
2023-09-06T05:00:00,2408A,115.6702,34.4285,商丘市,环境监测站,颗粒物(PM10),64,77,60,39,31,205,92,120,103,30,18,6,8,0.7,0.6
2023-09-06T05:00:00,2409A,115.6458,34.4045,商丘市,粮食局,颗粒物(PM10),60,69,55,38,35,205,123,140,135,18,15,6,5,0.8,0.7
2023-09-06T05:00:00,2410A,115.6293,34.3948,商丘市,睢阳区环保局,颗粒物(PM10),76,102,72,48,35,209,0,66,38,80,25,8,9,0.8,0.6
2023-09-06T05:00:00,2420A,114.0189,32.9656,驻马店市,市一纸厂,细颗粒物(PM2.5),55,53,40,39,24,144,30,116,71,28,16,6,8,0.5,0.4
2023-09-06T05:00:00,2421A,114.0114,33.015,驻马店市,市彩印厂,颗粒物(PM10),64,78,46,36,24,151,74,110,94,18,13,9,10,0.6,0.4
2023-09-06T05:00:00,2422A,113.9976,32.9771,驻马店市,天方二分厂,细颗粒物(PM2.5),67,74,40,48,27,144,38,91,68,24,12,5,7,0.2,0.2
2023-09-06T05:00:00,2423A,115.0601,30.2313,黄石市,沈家营,,36,36,46,12,17,141,15,21,17,19,16,4,8,0.4,0.4
2023-09-06T05:00:00,2424A,115.0817,30.2006,黄石市,陈家湾,,24,24,42,16,19,134,19,20,19,7,10,6,8,0.3,0.4
2023-09-06T05:00:00,2426A,114.8988,30.2019,黄石市,铁山,,27,27,34,17,17,142,53,66,48,15,13,16,9,0.6,0.8
2023-09-06T05:00:00,2427A,115.0307,30.2092,黄石市,团城山,,32,32,38,10,12,152,27,31,26,17,15,5,7,0.4,0.5
2023-09-06T05:00:00,2428A,111.0419,32.395,十堰市,武当山,,34,23,29,18,20,147,107,102,102,6,6,10,10,0.8,0.8
2023-09-06T05:00:00,2429A,110.78,32.6494,十堰市,滨河新村,细颗粒物(PM2.5),53,51,55,37,32,147,50,68,57,17,19,9,9,0.8,0.8
2023-09-06T05:00:00,2430A,110.7258,32.6389,十堰市,刘家沟,"颗粒物(PM10),细颗粒物(PM2.5)",60,70,53,43,33,150,35,69,49,9,8,14,10,0.9,0.8
2023-09-06T05:00:00,2431A,110.8839,32.5714,十堰市,铁二处,,29,27,42,20,25,159,56,78,67,3,8,6,7,0.7,0.7
2023-09-06T05:00:00,2432A,112.155,32.0197,襄阳市,襄城运动路,颗粒物(PM10),57,63,50,26,24,131,52,90,56,20,18,10,9,0.6,0.5
2023-09-06T05:00:00,2433A,112.1392,32.0564,襄阳市,樊城新华路,颗粒物(PM10),58,65,54,32,25,140,62,108,81,28,18,10,9,0.5,0.5
2023-09-06T05:00:00,2434A,112.1825,32.1142,襄阳市,高新管委会,细颗粒物(PM2.5),65,63,54,47,30,138,71,108,95,25,17,7,8,0.8,0.8
2023-09-06T05:00:00,2435A,112.2106,32.0903,襄阳市,襄州航空路,颗粒物(PM10),57,63,50,34,24,133,100,94,94,17,18,9,8,0.7,0.7
2023-09-06T05:00:00,2436A,114.8938,30.3994,鄂州市,市政府,,40,40,30,13,14,134,48,39,39,10,13,2,3,0.6,0.6
2023-09-06T05:00:00,2437A,114.8989,30.3714,鄂州市,赵家坝,,46,46,45,24,17,145,25,42,35,30,19,7,4,0.5,0.5
2023-09-06T05:00:00,2439A,112.2014,31.0481,荆门市,竹园小学,,50,50,50,21,24,168,103,101,98,12,15,9,11,0.5,0.6
2023-09-06T05:00:00,2440A,112.1969,30.9891,荆门市,掇刀,,41,41,45,23,23,155,101,98,97,9,10,7,8,0.4,0.5
2023-09-06T05:00:00,2441A,112.2213,31.0386,荆门市,石化一小,,49,49,56,28,28,164,92,103,94,15,14,9,10,0.5,0.5
2023-09-06T05:00:00,2443A,113.9153,30.9285,孝感市,文化路,,25,17,26,17,19,128,45,72,66,9,8,7,7,0.5,0.7
2023-09-06T05:00:00,2444A,113.942,30.9075,孝感市,东城区,,27,27,34,11,18,131,40,66,60,11,10,6,8,0.5,0.6
2023-09-06T05:00:00,2446A,114.9028,30.4742,黄冈市,职工中心,,26,26,38,17,21,137,55,46,46,2,4,8,8,0.6,0.6
2023-09-06T05:00:00,2447A,114.3175,29.8142,咸宁市,森林公园,,38,38,37,14,20,141,28,52,38,4,4,6,6,1.0,0.8
2023-09-06T05:00:00,2448A,114.3107,29.8454,咸宁市,市发改委,,35,35,33,17,20,164,31,59,43,14,8,11,10,0.8,0.6
2023-09-06T05:00:00,2449A,114.2936,29.8566,咸宁市,咸安区政府,,36,36,36,21,25,166,26,58,38,18,14,12,11,0.8,0.7
2023-09-06T05:00:00,2451A,113.3583,31.7275,随州市,市委党校,,43,43,36,30,21,121,53,90,76,12,8,12,8,0.7,0.7
2023-09-06T05:00:00,2452A,113.3833,31.6908,随州市,市林业局,,38,38,31,25,21,126,72,91,77,14,11,7,6,0.8,0.8
2023-09-06T05:00:00,2453A,113.3983,31.7308,随州市,市立交桥水厂,,32,25,29,22,20,120,73,73,73,16,12,9,9,0.6,0.6
2023-09-06T05:00:00,2454A,109.4978,30.2981,恩施土家族苗族自治州,湖北民院,,38,38,40,24,25,162,67,62,62,6,8,11,11,0.7,0.7
2023-09-06T05:00:00,2455A,109.4707,30.2798,恩施土家族苗族自治州,州电力总公司,细颗粒物(PM2.5),93,33,43,69,44,133,29,38,34,16,18,9,9,0.8,0.9
2023-09-06T05:00:00,2456A,112.5003,26.9167,衡阳市,原169医院,,,,,,,,,,,,,,,,
