timepoint,stationcode,longitude,latitude,area,positionname,primarypollutant,aqi,pm10,pm10_24h,pm2_5,pm2_5_24h,o3,o3_24h,o3_8h,o3_8h_24h,no2,no2_24h,so2,so2_24h,co,co_24h
2022-04-01T09:00:00,1001A,116.3621,39.8784,北京市,万寿西宫,,19,19,11,8,6,78,48,41,39,25,16,1,3,0.3,0.2
2022-04-01T09:00:00,1002A,116.2202,40.2915,北京市,定陵(对照点),,20,17,8,7,3,96,63,48,48,10,9,2,1,0.1,0.1
2022-04-01T09:00:00,1003A,116.4174,39.9289,北京市,东四,,27,27,13,8,5,94,43,49,42,26,16,3,3,0.3,0.2
2022-04-01T09:00:00,1004A,116.4072,39.8863,北京市,天坛,,24,24,11,11,6,92,52,30,30,23,16,1,3,0.3,0.2
2022-04-01T09:00:00,1005A,116.462,39.9365,北京市,农展馆,,23,23,12,8,6,92,48,46,33,24,21,1,2,0.3,0.3
2022-04-01T09:00:00,1006A,116.3392,39.9295,北京市,官园,,18,14,10,6,5,89,55,43,42,15,17,3,2,0.3,0.2
2022-04-01T09:00:00,1007A,116.2878,39.9611,北京市,海淀万柳,,19,16,12,6,5,91,58,28,16,18,28,3,3,0.3,0.3
2022-04-01T09:00:00,1008A,116.6636,40.135,北京市,顺义新城,,36,36,15,12,5,88,48,47,41,15,15,1,3,0.2,0.2
2022-04-01T09:00:00,1009A,116.6275,40.3275,北京市,怀柔镇,,26,26,12,6,5,94,48,60,47,20,13,1,2,0.2,0.2
2022-04-01T09:00:00,1010A,116.2296,40.217,北京市,昌平镇,,23,23,9,9,4,95,36,64,40,30,12,3,3,0.4,0.2
2022-04-01T09:00:00,1011A,116.3966,39.9821,北京市,奥体中心,,18,15,10,5,4,89,56,48,46,15,17,3,3,0.2,0.2
2022-04-01T09:00:00,1012A,116.184,39.9136,北京市,古城,,25,25,15,7,6,93,51,46,32,26,17,1,2,0.3,0.2
2022-04-01T09:00:00,1015A,117.1444,39.1661,天津市,勤俭道,细颗粒物(PM2.5),64,69,42,46,24,97,74,47,46,25,22,12,7,0.8,0.6
2022-04-01T09:00:00,1017A,117.237,39.1082,天津市,大直沽八号路,细颗粒物(PM2.5),62,65,40,44,26,100,72,54,54,28,23,11,7,0.6,0.4
2022-04-01T09:00:00,1018A,117.202,39.0927,天津市,前进道,细颗粒物(PM2.5),69,72,44,50,27,99,68,46,46,30,23,10,6,0.6,0.4
2022-04-01T09:00:00,1019A,117.1837,39.2133,天津市,淮河道,细颗粒物(PM2.5),62,71,45,44,24,97,77,39,33,23,30,13,8,0.7,0.6
2022-04-01T09:00:00,1021A,117.307,39.0877,天津市,跃进路,细颗粒物(PM2.5),64,67,49,46,30,99,63,50,32,36,32,8,6,0.7,0.6
2022-04-01T09:00:00,1023A,117.707,39.0343,天津市,第四大街,颗粒物(PM10),51,52,50,30,25,94,59,41,40,37,38,12,8,0.4,0.3
2022-04-01T09:00:00,1024A,117.457,38.8394,天津市,永明路,,42,42,45,29,29,102,90,51,45,16,26,11,9,0.5,0.6
2022-04-01T09:00:00,1026A,117.764,39.1587,天津市,汉北路,颗粒物(PM10),53,55,44,35,27,98,58,43,15,40,34,14,8,0.7,0.6
2022-04-01T09:00:00,1027A,117.157,38.9194,天津市,团泊洼(对照点),细颗粒物(PM2.5),74,69,46,54,29,102,61,47,47,36,27,13,7,0.7,0.6
2022-04-01T09:00:00,1029A,114.4422,38.0444,石家庄市,职工医院,颗粒物(PM10),60,70,44,23,27,110,23,68,21,57,33,5,4,0.5,0.4
2022-04-01T09:00:00,1030A,114.6063,38.0266,石家庄市,高新区,颗粒物(PM10),53,55,54,18,21,106,46,38,18,43,38,9,5,0.6,0.5
2022-04-01T09:00:00,1031A,114.4898,38.1328,石家庄市,西北水源,颗粒物(PM10),53,55,52,13,27,105,31,50,18,29,23,2,3,0.4,0.4
2022-04-01T09:00:00,1032A,114.4586,38.0058,石家庄市,西南高教,颗粒物(PM10),62,73,60,27,27,109,14,44,7,54,31,6,3,0.7,0.5
2022-04-01T09:00:00,1033A,114.5331,38.0178,石家庄市,世纪公园,颗粒物(PM10),55,60,54,18,26,106,33,53,24,45,23,8,4,0.4,0.4
2022-04-01T09:00:00,1034A,114.509,38.0457,石家庄市,人民会堂,颗粒物(PM10),57,64,49,20,31,113,33,69,26,60,36,5,4,0.5,0.5
2022-04-01T09:00:00,1035A,114.3524,37.8911,石家庄市,封龙山(对照点),,30,30,39,20,21,93,79,85,84,18,15,14,9,0.3,0.3
2022-04-01T09:00:00,1037A,118.131,39.6363,唐山市,雷达站,细颗粒物(PM2.5),52,52,43,36,29,108,80,62,48,16,12,10,4,0.8,0.7
2022-04-01T09:00:00,1038A,118.1725,39.6334,唐山市,物资局,,45,45,42,27,32,103,80,58,46,17,16,11,5,0.8,0.7
2022-04-01T09:00:00,1040A,118.1705,39.6506,唐山市,十二中,细颗粒物(PM2.5),60,43,40,43,37,100,76,59,38,16,15,11,5,0.8,0.7
2022-04-01T09:00:00,1041A,118.1869,39.622,唐山市,小山,,46,30,46,32,34,109,80,60,46,18,18,12,5,0.9,0.7
2022-04-01T09:00:00,1042A,119.5134,39.8207,秦皇岛市,北戴河环保局,,20,17,27,13,12,103,63,63,43,16,19,7,7,0.8,0.7
2022-04-01T09:00:00,1043A,119.7493,40.0116,秦皇岛市,第一关,,25,22,37,5,12,113,79,44,44,13,29,5,6,0.2,0.2
2022-04-01T09:00:00,1044A,119.5897,39.9499,秦皇岛市,监测站,,36,36,38,14,11,107,54,46,46,29,25,5,4,0.5,0.4
2022-04-01T09:00:00,1046A,119.5251,39.9041,秦皇岛市,建设大厦,颗粒物(PM10),51,52,45,17,23,112,64,54,49,25,21,4,4,0.5,0.4
2022-04-01T09:00:00,1048A,114.5302,36.6116,邯郸市,东污水处理厂,颗粒物(PM10),51,52,52,29,29,94,47,44,44,28,30,6,8,0.3,0.3
2022-04-01T09:00:00,1049A,114.4918,36.5713,邯郸市,矿院,颗粒物(PM10),58,66,62,21,34,100,59,47,47,20,26,6,6,0.3,0.4
2022-04-01T09:00:00,1050A,114.484,36.6133,邯郸市,丛台公园,,50,50,53,25,28,108,65,54,54,19,17,8,5,0.4,0.5
2022-04-01T09:00:00,1051A,115.493,38.8632,保定市,游泳馆,颗粒物(PM10),53,56,48,17,14,103,33,16,10,48,33,6,6,0.5,0.4
2022-04-01T09:00:00,1053A,115.4713,38.9108,保定市,接待中心,颗粒物(PM10),52,53,50,11,19,104,35,13,13,49,37,7,6,0.8,0.7
2022-04-01T09:00:00,1054A,115.4612,38.8416,保定市,地表水厂,颗粒物(PM10),76,102,74,23,25,106,21,9,8,61,39,10,9,0.5,0.4
2022-04-01T09:00:00,1055A,115.4323,38.8697,保定市,胶片厂,颗粒物(PM10),54,57,51,19,19,106,30,10,10,46,30,4,4,0.7,0.5
2022-04-01T09:00:00,1056A,115.5086,38.8639,保定市,监测站,颗粒物(PM10),54,58,48,23,20,99,18,16,8,58,32,6,4,0.6,0.6
2022-04-01T09:00:00,1057A,114.8883,40.8336,张家口市,人民公园,,28,28,17,6,2,103,59,66,59,11,7,4,3,0.2,0.2
2022-04-01T09:00:00,1059A,114.8687,40.8042,张家口市,五金库,,25,24,16,17,11,102,62,75,64,14,9,5,3,0.5,0.4
2022-04-01T09:00:00,1060A,114.8902,40.762,张家口市,世纪豪园,,45,45,18,18,7,99,50,65,56,23,8,5,2,0.5,0.4
2022-04-01T09:00:00,1061A,114.8916,40.8661,张家口市,北泵房(对照点),,21,19,14,8,10,104,65,64,56,6,5,7,6,0.3,0.3
2022-04-01T09:00:00,1062A,117.9531,40.9081,承德市,铁路,,46,46,22,16,17,98,22,46,29,35,16,5,5,0.4,0.3
2022-04-01T09:00:00,1063A,117.9392,40.9763,承德市,中国银行,,46,46,26,2,10,97,36,24,24,22,18,5,3,0.4,0.3
2022-04-01T09:00:00,1064A,117.9503,40.928,承德市,开发区,,42,42,31,21,17,102,34,20,20,34,26,5,5,0.4,0.3
2022-04-01T09:00:00,1065A,117.8051,40.9655,承德市,文化中心,,41,41,21,10,10,94,37,28,24,31,18,4,2,0.5,0.3
2022-04-01T09:00:00,1066A,117.9268,41.0026,承德市,离宫(对照点),,19,19,16,13,16,90,44,37,34,15,10,9,8,0.3,0.3
2022-04-01T09:00:00,1067A,116.6708,39.5111,廊坊市,药材公司,,28,28,21,5,10,103,44,81,44,42,20,2,1,0.3,0.3
2022-04-01T09:00:00,1068A,116.7214,39.5589,廊坊市,开发区,,24,24,21,14,10,106,49,72,53,26,9,1,1,0.3,0.2
2022-04-01T09:00:00,1070A,116.7244,39.5269,廊坊市,北华航天学院,,25,25,25,7,6,99,52,68,47,34,19,4,3,0.3,0.3
2022-04-01T09:00:00,1071A,116.8842,38.2991,沧州市,沧县城建局,细颗粒物(PM2.5),54,53,46,38,27,100,62,57,54,33,23,20,7,0.5,0.4
2022-04-01T09:00:00,1072A,116.8584,38.3254,沧州市,电视转播站,颗粒物(PM10),54,58,49,27,24,97,72,60,60,25,24,20,9,0.4,0.5
2022-04-01T09:00:00,1073A,116.8709,38.3228,沧州市,市环保局,细颗粒物(PM2.5),57,58,46,40,30,102,77,59,59,26,25,19,11,0.5,0.4
2022-04-01T09:00:00,1074A,115.6838,37.7541,衡水市,电机北厂,细颗粒物(PM2.5),68,54,37,49,23,109,53,64,26,35,27,15,9,0.5,0.3
2022-04-01T09:00:00,1075A,115.6303,37.7316,衡水市,市监测站,细颗粒物(PM2.5),68,76,50,49,20,107,56,73,33,29,20,17,12,0.4,0.1
2022-04-01T09:00:00,1077A,114.4704,37.0886,邢台市,达活泉,,35,35,63,12,26,104,58,64,48,26,22,8,7,0.2,0.3
2022-04-01T09:00:00,1078A,114.5062,37.0349,邢台市,邢师高专,,39,39,55,24,34,108,44,65,44,38,32,6,4,0.6,0.7
2022-04-01T09:00:00,1079A,114.5237,37.0851,邢台市,路桥公司,,34,34,50,14,27,105,52,64,52,25,22,8,4,0.4,0.5
2022-04-01T09:00:00,1080A,114.4725,37.0719,邢台市,市环保局,,25,15,53,17,31,101,53,64,47,34,29,5,2,0.4,0.5
2022-04-01T09:00:00,1081A,112.5139,37.8873,太原市,尖草坪,颗粒物(PM10),66,82,53,32,20,98,51,43,41,31,30,10,8,0.7,0.4
2022-04-01T09:00:00,1083A,112.434,38.0108,太原市,上兰(对照点),,46,46,34,22,17,106,63,74,67,15,12,4,5,0.4,0.3
2022-04-01T09:00:00,1084A,112.469,37.7124,太原市,晋源,颗粒物(PM10),57,63,40,27,17,101,49,77,46,42,30,9,7,0.5,0.4
2022-04-01T09:00:00,1085A,112.5583,37.7394,太原市,小店,颗粒物(PM10),58,66,43,32,17,100,59,70,55,32,26,14,10,0.5,0.4
2022-04-01T09:00:00,1086A,112.5369,37.8692,太原市,桃园,颗粒物(PM10),73,95,53,35,19,102,41,84,51,51,26,38,7,1.6,0.4
2022-04-01T09:00:00,1087A,112.57,37.8195,太原市,坞城,颗粒物(PM10),68,85,48,34,18,104,43,82,52,47,24,18,10,0.7,0.2
2022-04-01T09:00:00,1088A,112.549,37.9854,太原市,南寨,颗粒物(PM10),72,93,64,35,19,104,37,14,9,47,34,10,7,0.6,0.5
2022-04-01T09:00:00,1090A,111.6507,40.7517,呼和浩特市,呼市一监,,46,46,28,17,12,107,38,70,44,41,20,12,7,0.7,0.4
2022-04-01T09:00:00,1091A,111.6572,40.8033,呼和浩特市,小召,,36,36,23,12,11,94,31,73,36,47,24,16,8,0.6,0.4
2022-04-01T09:00:00,1094A,111.7516,40.8369,呼和浩特市,如意水处理厂,,23,23,17,12,7,99,47,33,33,33,27,14,9,0.5,0.3
2022-04-01T09:00:00,1095A,111.7276,40.8062,呼和浩特市,二十九中,,24,24,18,11,8,102,45,47,47,35,20,12,8,0.7,0.5
2022-04-01T09:00:00,1096A,111.5512,40.7866,呼和浩特市,工大金川校区,,43,43,28,22,10,92,36,48,36,36,22,14,10,0.8,0.5
2022-04-01T09:00:00,1097A,111.717,40.7612,呼和浩特市,化肥厂生活区,颗粒物(PM10),53,56,39,14,10,91,43,46,44,28,18,13,9,0.6,0.4
2022-04-01T09:00:00,1098A,123.6836,41.9339,沈阳市,森林路(对照点),,50,50,26,33,18,103,59,59,49,18,8,17,9,0.9,0.5
2022-04-01T09:00:00,1099A,123.505,41.7406,沈阳市,浑南东路,,45,43,29,31,22,106,51,58,17,27,22,34,15,0.7,0.6
2022-04-01T09:00:00,1100A,123.4231,41.6989,沈阳市,新秀街,细颗粒物(PM2.5),55,58,32,39,21,105,52,31,28,25,24,17,12,0.7,0.5
2022-04-01T09:00:00,1102A,123.5903,41.8411,沈阳市,东陵路,,50,49,29,35,19,103,41,47,37,25,12,22,12,0.7,0.5
2022-04-01T09:00:00,1103A,123.4264,41.8467,沈阳市,陵东街,,22,22,24,13,16,105,68,59,38,15,20,10,6,0.5,0.5
2022-04-01T09:00:00,1104A,123.4114,41.7653,沈阳市,文化路,细颗粒物(PM2.5),55,50,29,39,22,110,50,59,49,28,14,16,8,0.8,0.6
2022-04-01T09:00:00,1105A,123.4678,41.7867,沈阳市,小河沿,,40,40,26,26,18,101,49,60,37,33,18,19,8,0.7,0.5
2022-04-01T09:00:00,1106A,123.4017,41.7972,沈阳市,太原街,,29,25,26,20,20,102,65,53,53,16,15,14,8,0.4,0.4
2022-04-01T09:00:00,1108A,123.3783,41.9228,沈阳市,京沈街,细颗粒物(PM2.5),89,36,23,66,23,107,68,72,66,10,10,8,7,0.6,0.6
2022-04-01T09:00:00,1109A,121.612,38.9741,大连市,甘井子,,40,40,26,20,15,105,61,74,63,31,20,10,6,1.0,0.6
2022-04-01T09:00:00,1110A,121.565,38.9511,大连市,周水子,,39,39,30,18,14,87,52,53,43,24,24,11,6,0.7,0.4
2022-04-01T09:00:00,1111A,121.5637,38.8845,大连市,星海三站,,36,36,29,21,18,113,69,67,60,27,22,10,9,0.5,0.3
2022-04-01T09:00:00,1112A,121.6302,38.9117,大连市,青泥洼桥,,30,18,14,21,14,112,67,82,66,36,26,14,11,0.7,0.5
2022-04-01T09:00:00,1113A,121.6251,38.8638,大连市,傅家庄,,28,28,26,14,13,127,74,86,75,32,23,15,9,0.6,0.4
2022-04-01T09:00:00,1114A,121.5213,38.8661,大连市,七贤岭,,27,22,26,7,12,122,86,78,76,14,14,18,17,0.6,0.5
2022-04-01T09:00:00,1115A,121.2529,38.8061,大连市,旅顺,,46,46,27,25,16,113,77,85,74,22,14,16,11,0.8,0.5
2022-04-01T09:00:00,1116A,121.7485,39.1311,大连市,金州,,44,44,28,26,18,103,64,76,65,32,19,14,7,0.8,0.5
2022-04-01T09:00:00,1117A,121.7811,39.0496,大连市,开发区,,33,33,25,16,14,97,64,88,68,30,18,12,9,0.6,0.3
2022-04-01T09:00:00,1118A,121.9762,39.0631,大连市,双D港,,33,28,20,23,18,106,78,79,74,25,19,9,6,0.8,0.6
2022-04-01T09:00:00,1119A,125.3325,43.9166,长春市,食品厂,,40,38,29,28,26,98,70,60,52,13,16,9,9,0.5,0.5
2022-04-01T09:00:00,1120A,125.2863,43.9027,长春市,客车厂,,38,37,30,26,22,100,71,61,61,12,14,9,9,0.7,0.7
2022-04-01T09:00:00,1121A,125.2841,43.8463,长春市,邮电学院,颗粒物(PM10),51,51,40,22,25,102,66,52,52,16,12,19,6,0.6,0.5
2022-04-01T09:00:00,1122A,125.3716,43.8772,长春市,劳动公园,,40,40,30,24,23,106,72,43,43,19,19,16,9,0.6,0.6
2022-04-01T09:00:00,1123A,125.3297,43.8805,长春市,园林处,,35,35,28,21,20,104,72,62,58,14,17,12,14,0.5,0.5
2022-04-01T09:00:00,1124A,125.4605,43.79,长春市,净月潭,,35,24,22,24,18,107,81,62,62,8,9,7,7,0.5,0.4
2022-04-01T09:00:00,1125A,125.7194,43.515,长春市,甩湾子(对照点),,35,35,40,21,19,105,77,43,43,5,5,9,8,0.5,0.4
2022-04-01T09:00:00,1126A,125.3863,43.8447,长春市,经开区环卫处,,43,39,29,30,27,100,68,34,34,12,20,15,13,0.7,0.6
2022-04-01T09:00:00,1127A,125.245,43.7783,长春市,高新区管委会,,39,35,29,27,23,107,77,47,47,10,21,7,6,0.5,0.5
2022-04-01T09:00:00,1128A,125.1761,43.8325,长春市,岱山公园,,38,35,32,26,22,98,68,53,53,9,14,8,7,0.5,0.5
2022-04-01T09:00:00,1129A,126.5422,45.755,哈尔滨市,岭北(对照点),,30,30,29,18,16,113,82,76,73,5,8,11,10,0.3,0.3
2022-04-01T09:00:00,1130A,126.561,45.8167,哈尔滨市,松北商大,,32,25,22,22,14,106,69,72,65,8,9,5,4,0.6,0.5
2022-04-01T09:00:00,1131A,126.979,45.5419,哈尔滨市,阿城会宁,颗粒物(PM10),58,65,38,24,22,98,66,50,50,14,17,9,11,1.6,1.1
2022-04-01T09:00:00,1132A,126.599,45.7222,哈尔滨市,南岗学府路,,40,36,18,28,16,96,66,70,65,20,10,13,13,0.8,0.7
2022-04-01T09:00:00,1133A,126.689,45.7733,哈尔滨市,太平宏伟公园,,36,36,31,18,18,102,78,79,76,16,16,13,15,0.6,0.5
2022-04-01T09:00:00,1134A,126.635,45.7667,哈尔滨市,道外承德广场,,36,36,42,23,17,98,71,67,66,13,13,16,15,0.5,0.5
2022-04-01T09:00:00,1135A,126.685,45.7319,哈尔滨市,香坊红旗大街,颗粒物(PM10),54,58,34,22,17,98,68,72,69,18,12,16,16,0.7,0.5
2022-04-01T09:00:00,1136A,126.6411,45.7258,哈尔滨市,动力和平路,颗粒物(PM10),52,53,28,28,16,98,62,66,62,21,14,18,16,0.7,0.5
2022-04-01T09:00:00,1137A,126.593,45.7478,哈尔滨市,道里建国路,,39,39,26,23,16,98,76,68,66,14,18,9,8,0.6,0.5
2022-04-01T09:00:00,1138A,126.615,45.61,哈尔滨市,平房东轻厂,,31,31,31,20,20,100,75,58,58,9,22,19,15,0.5,0.5
2022-04-01T09:00:00,1139A,126.595,45.9855,哈尔滨市,呼兰师专,细颗粒物(PM2.5),52,44,32,36,20,86,72,71,64,13,11,13,9,0.7,0.6
2022-04-01T09:00:00,1140A,126.6206,45.6842,哈尔滨市,省农科院,,46,46,33,26,19,100,63,55,55,20,20,17,12,1.6,1.2
2022-04-01T09:00:00,1141A,121.4,31.238,上海市,普陀,,36,36,37,19,19,109,106,108,96,17,19,8,5,1.3,1
2022-04-01T09:00:00,1142A,121.478,31.2036,上海市,十五厂,,33,28,30,19,23,105,105,102,98,10,14,6,5,0.6,0.6
2022-04-01T09:00:00,1143A,121.467,31.3008,上海市,虹口,,39,39,35,20,21,101,101,98,92,13,16,4,2,0.7,0.6
2022-04-01T09:00:00,1144A,121.412,31.1654,上海市,徐汇上师大,,36,33,37,25,22,98,97,98,92,13,16,8,7,1.2,1.1
2022-04-01T09:00:00,1145A,121.536,31.2659,上海市,杨浦四漂,,34,29,31,18,21,108,108,102,101,6,8,8,7,0.6,0.6
2022-04-01T09:00:00,1147A,121.425,31.2261,上海市,静安监测站,,37,37,37,21,23,103,103,100,96,13,18,5,4,0.6,0.6
2022-04-01T09:00:00,1148A,121.703,31.1907,上海市,浦东川沙,,35,27,30,18,22,112,112,104,102,11,15,5,4,0.6,0.6
2022-04-01T09:00:00,1149A,121.533,31.2284,上海市,浦东新区监测站,,35,33,35,17,20,112,112,106,105,10,13,5,5,0.6,0.6
2022-04-01T09:00:00,1150A,121.577,31.2071,上海市,浦东张江,,32,31,32,17,23,100,100,96,90,14,17,5,4,0.7,0.7
2022-04-01T09:00:00,1151A,118.8086,32.1065,南京市,迈皋桥,颗粒物(PM10),51,51,43,24,20,70,55,66,42,40,36,5,4,0.6,0.6
2022-04-01T09:00:00,1152A,118.7538,32.0551,南京市,草场门,,46,46,39,27,20,81,68,77,63,32,31,8,6,0.4,0.4
2022-04-01T09:00:00,1153A,118.7794,32.0745,南京市,山西路,颗粒物(PM10),56,61,45,29,29,80,65,78,60,41,30,4,4,0.4,0.4
2022-04-01T09:00:00,1154A,118.7752,32.0023,南京市,中华门,颗粒物(PM10),54,58,47,27,24,92,71,75,67,36,27,3,4,0.3,0.4
2022-04-01T09:00:00,1155A,118.8109,32.0309,南京市,瑞金路,,48,48,43,24,28,85,66,82,62,25,21,7,4,0.7,0.5
2022-04-01T09:00:00,1156A,118.7997,32.0754,南京市,玄武湖,颗粒物(PM10),51,51,41,24,24,76,64,69,52,33,27,5,4,0.4,0.4
2022-04-01T09:00:00,1157A,118.6414,32.0931,南京市,浦口,,44,44,42,22,21,86,61,86,65,28,23,6,5,0.5,0.7
2022-04-01T09:00:00,1158A,118.7356,31.9996,南京市,奥体中心,颗粒物(PM10),52,53,40,29,24,94,76,94,78,28,22,10,7,0.5,0.5
2022-04-01T09:00:00,1159A,118.9125,32.1028,南京市,仙林大学城,,41,41,33,27,23,84,75,75,55,28,25,11,5,0.6,0.6
2022-04-01T09:00:00,1160A,120.561,31.2472,苏州市,上方山(对照点),,38,38,36,23,28,92,81,88,69,20,18,7,5,0.6,0.6
2022-04-01T09:00:00,1162A,120.591,31.3019,苏州市,彩香,,38,31,32,26,23,95,83,89,74,18,17,8,6,1.0,0.9
2022-04-01T09:00:00,1163A,120.596,31.3264,苏州市,轧钢厂,,39,39,42,26,22,97,86,92,76,18,18,8,5,0.7,0.6
2022-04-01T09:00:00,1164A,120.613,31.2703,苏州市,吴中区,,48,48,37,22,24,93,83,87,78,21,18,6,4,0.8,0.6
2022-04-01T09:00:00,1165A,120.543,31.2994,苏州市,苏州新区,,37,37,45,23,24,97,87,93,75,16,17,10,8,0.8,0.8
2022-04-01T09:00:00,1166A,120.669,31.3097,苏州市,苏州工业园区,,40,35,32,28,24,94,76,87,70,27,22,10,7,0.9,0.6
2022-04-01T09:00:00,1167A,120.641,31.3708,苏州市,相城区,,45,45,38,27,26,94,81,91,77,17,14,10,5,1.1,0.8
2022-04-01T09:00:00,1168A,120.9098,31.9663,南通市,狼山街道,,49,49,37,24,21,108,99,96,96,11,11,8,6,0.5,0.4
2022-04-01T09:00:00,1169A,120.86,32.0005,南通市,虹桥,,48,48,37,28,23,91,77,79,74,11,10,9,7,0.6,0.5
2022-04-01T09:00:00,1170A,120.87,32.02,南通市,城中,,47,47,38,21,22,96,85,91,80,18,17,5,4,0.5,0.5
2022-04-01T09:00:00,1171A,120.94,31.93,南通市,星湖花园,,45,43,37,31,25,101,93,87,87,12,13,5,4,0.8,0.6
2022-04-01T09:00:00,1172A,120.81,32.0417,南通市,紫琅学院,颗粒物(PM10),53,55,39,31,25,100,87,81,74,14,15,8,7,0.5,0.4
2022-04-01T09:00:00,1173A,119.176,34.5885,连云港市,市环境监测站,,46,46,41,12,21,108,86,97,85,12,12,7,6,0.7,0.6
2022-04-01T09:00:00,1177A,117.179,34.2761,徐州市,黄河新村,颗粒物(PM10),62,73,57,33,38,116,94,72,63,10,16,9,10,0.5,0.6
2022-04-01T09:00:00,1178A,117.1918,34.2384,徐州市,淮塔,颗粒物(PM10),51,51,51,27,31,116,92,58,58,14,23,8,10,0.6,0.7
2022-04-01T09:00:00,1180A,117.256,34.2153,徐州市,新城区,,45,42,62,31,32,113,89,56,56,12,23,8,9,0.6,0.6
2022-04-01T09:00:00,1181A,117.244,34.2911,徐州市,桃园路,颗粒物(PM10),51,51,59,33,32,114,92,52,52,9,20,10,11,0.3,0.4
2022-04-01T09:00:00,1182A,117.2933,34.2778,徐州市,农科院,,44,44,51,19,27,110,89,50,50,5,14,10,11,0.6,0.7
2022-04-01T09:00:00,1186A,119.389,32.3761,扬州市,邗江监测站,,48,48,41,31,23,95,93,88,88,16,15,6,6,0.4,0.4
2022-04-01T09:00:00,1188A,120.269,31.4867,无锡市,雪浪,,36,36,43,15,18,94,87,84,80,15,17,8,6,0.4,0.4
2022-04-01T09:00:00,1189A,120.275,31.6219,无锡市,黄巷,,37,37,42,17,21,103,92,91,79,19,22,11,7,0.6,0.5
2022-04-01T09:00:00,1190A,120.294,31.56,无锡市,曹张,,34,34,37,14,21,96,94,86,79,5,10,9,7,0.9,0.8
2022-04-01T09:00:00,1191A,120.242,31.5031,无锡市,漆塘,,38,34,38,26,25,97,89,90,83,14,14,9,6,0.7,0.7
2022-04-01T09:00:00,1192A,120.3489,31.5863,无锡市,东亭,,44,44,41,14,20,92,82,80,73,14,17,6,6,0.7,0.7
2022-04-01T09:00:00,1193A,120.354,31.5475,无锡市,旺庄,,34,34,40,22,27,98,90,91,82,9,12,8,7,0.8,0.7
2022-04-01T09:00:00,1194A,120.245,31.5631,无锡市,荣巷,,34,34,36,22,23,97,86,91,86,20,16,11,8,0.8,0.7
2022-04-01T09:00:00,1195A,120.299,31.6817,无锡市,堰桥,,39,34,34,27,25,99,94,87,83,11,14,10,7,1.1,0.9
2022-04-01T09:00:00,1196A,119.9633,31.762,常州市,市监测站,,35,30,35,24,23,89,81,80,78,21,20,6,6,0.4,0.4
2022-04-01T09:00:00,1200A,119.9468,31.7069,常州市,武进监测站,,40,40,37,26,26,98,95,97,93,14,14,8,4,0.5,0.5
2022-04-01T09:00:00,1201A,119.9255,31.9087,常州市,安家,细颗粒物(PM2.5),53,39,36,37,27,96,96,95,88,10,14,6,5,0.4,0.4
2022-04-01T09:00:00,1203A,119.6707,32.1875,镇江市,新区办事处,颗粒物(PM10),51,51,41,24,25,95,76,94,66,35,30,6,6,0.5,0.5
2022-04-01T09:00:00,1204A,119.4974,32.1968,镇江市,职教中心,,44,44,33,26,25,78,76,64,64,21,22,9,6,0.4,0.4
2022-04-01T09:00:00,1205A,119.4303,32.1328,镇江市,丹徒区监测站,,37,37,33,25,29,98,98,82,82,20,23,4,3,0.3,0.3
2022-04-01T09:00:00,1206A,119.905,32.4878,泰州市,公园路,,48,48,36,31,26,88,78,67,62,14,14,6,7,0.6,0.6
2022-04-01T09:00:00,1207A,119.9189,32.4625,泰州市,莲花,,45,42,35,31,29,106,88,84,84,11,13,6,10,0.8,0.7
2022-04-01T09:00:00,1209A,119.888,32.4639,泰州市,留学生创业园,颗粒物(PM10),54,57,39,31,21,98,88,85,76,16,16,13,11,0.6,0.6
2022-04-01T09:00:00,1210A,119.036,33.5981,淮安市,钵池山,颗粒物(PM10),51,51,45,24,29,88,70,66,59,20,23,8,10,0.6,0.6
2022-04-01T09:00:00,1211A,119.007,33.575,淮安市,北京南路,颗粒物(PM10),53,56,50,23,27,92,76,78,70,25,23,9,10,0.5,0.5
2022-04-01T09:00:00,1212A,118.989,33.6067,淮安市,市监测站,颗粒物(PM10),65,79,57,36,27,99,75,71,68,23,22,10,10,0.6,0.6
2022-04-01T09:00:00,1213A,119.135,33.5039,淮安市,楚州区监测站,颗粒物(PM10),51,51,45,12,22,99,83,77,76,20,22,10,10,0.4,0.5
2022-04-01T09:00:00,1214A,119.0186,33.6297,淮安市,淮阴区监测站,颗粒物(PM10),55,59,44,25,26,92,68,63,63,23,24,10,10,0.6,0.6
2022-04-01T09:00:00,1215A,120.118,33.4022,盐城市,盐城电厂,,48,48,43,26,28,106,74,70,70,17,18,7,7,0.4,0.4
2022-04-01T09:00:00,1216A,120.156,33.3942,盐城市,市监测站,,,48,38,26,25,102,71,56,55,22,27,,4,0.4,0.4
2022-04-01T09:00:00,1218A,120.2144,33.38,盐城市,开发区管委会,,37,37,31,18,17,105,71,67,57,20,20,7,5,0.5,0.5
2022-04-01T09:00:00,1220A,118.293,33.9528,宿迁市,宿迁学院,颗粒物(PM10),55,60,39,30,29,106,82,71,71,10,18,5,4,0.5,0.3
2022-04-01T09:00:00,1221A,118.2442,33.9592,宿迁市,宿迁中学,,39,26,34,27,27,104,84,77,77,11,17,6,4,0.6,0.5
2022-04-01T09:00:00,1223A,120.2072,30.2111,杭州市,滨江,,27,25,42,17,28,88,85,82,82,28,27,8,6,0.5,0.6
2022-04-01T09:00:00,1224A,120.0633,30.2747,杭州市,西溪,,25,19,37,14,23,92,78,82,82,29,30,4,4,0.7,0.7
2022-04-01T09:00:00,1226A,120.3461,30.3153,杭州市,下沙,,30,30,46,6,19,90,90,77,77,20,33,9,7,0.6,0.7
2022-04-01T09:00:00,1227A,120.1269,30.2456,杭州市,卧龙桥,,23,20,35,14,32,86,73,76,76,29,28,8,6,0.6,0.7
2022-04-01T09:00:00,1228A,120.1903,30.2692,杭州市,浙江农大,,33,28,39,23,33,95,74,85,83,36,31,6,4,0.5,0.6
2022-04-01T09:00:00,1230A,120.1197,30.3119,杭州市,和睦小学,,26,26,47,13,25,86,72,78,77,28,31,4,3,0.7,0.7
2022-04-01T09:00:00,1231A,120.3019,30.4183,杭州市,临平镇,,36,28,48,25,33,95,91,85,85,21,23,6,4,0.6,0.8
2022-04-01T09:00:00,1232A,120.2697,30.1819,杭州市,城厢镇,,26,23,42,17,29,87,82,81,81,31,32,6,6,0.7,0.8
2022-04-01T09:00:00,1233A,120.0883,30.1808,杭州市,云栖,,24,17,40,6,19,81,74,59,54,23,24,7,6,0.6,0.7
2022-04-01T09:00:00,1234A,121.8358,29.911,宁波市,区环保大楼,,27,18,31,10,19,101,86,96,91,20,27,6,6,0.4,0.5
2022-04-01T09:00:00,1235A,121.56,29.82,宁波市,万里学院,,25,19,28,3,15,108,80,100,96,23,17,11,8,0.3,0.3
2022-04-01T09:00:00,1236A,121.713,29.9572,宁波市,龙赛医院,,28,22,28,9,16,102,87,98,96,19,19,6,5,0.4,0.5
2022-04-01T09:00:00,1239A,121.633,29.7733,宁波市,钱湖水厂,,29,11,22,4,14,104,92,98,97,15,17,9,8,0.4,0.5
2022-04-01T09:00:00,1240A,121.5856,29.8635,宁波市,太古小学,,24,12,28,2,29,92,76,85,82,20,19,7,7,0.6,0.6
2022-04-01T09:00:00,1241A,121.524,29.8674,宁波市,市环境监测中心,,24,23,31,6,13,109,75,96,89,24,18,11,8,0.6,0.6
2022-04-01T09:00:00,1242A,120.634,28.0089,温州市,瓯海,,32,32,26,19,13,101,52,75,60,34,26,5,5,0.4,0.4
2022-04-01T09:00:00,1243A,120.6748,27.9939,温州市,南浦,,29,29,31,12,18,104,67,79,66,19,21,6,5,0.4,0.4
2022-04-01T09:00:00,1244A,120.76,27.9747,温州市,龙湾,,30,30,33,16,13,105,73,79,53,20,29,4,4,0.4,0.4
2022-04-01T09:00:00,1245A,120.6709,28.0167,温州市,市站,,48,48,35,19,18,100,67,76,65,19,22,5,5,0.3,0.3
2022-04-01T09:00:00,1247A,120.6053,29.9928,绍兴市,城东开发委,,22,7,31,11,28,85,69,74,74,28,26,7,5,0.6,0.7
2022-04-01T09:00:00,1250A,120.0751,30.8669,湖州市,城西水厂,,33,33,34,14,20,104,92,99,86,29,31,6,5,0.6,0.6
2022-04-01T09:00:00,1252A,120.7436,30.778,嘉兴市,清河小学,,26,25,30,18,22,94,80,88,80,28,26,8,5,0.7,0.5
2022-04-01T09:00:00,1253A,120.726,30.7478,嘉兴市,嘉兴学院,,27,27,33,6,18,93,81,87,81,26,22,11,9,1.1,1
2022-04-01T09:00:00,1255A,121.273,28.6459,台州市,黄岩环保大楼,,33,33,35,18,13,94,69,69,66,15,15,7,5,0.3,0.2
2022-04-01T09:00:00,1256A,121.419,28.6542,台州市,台州环保大楼,,31,31,38,11,11,106,86,81,79,15,14,5,4,0.4,0.4
2022-04-01T09:00:00,1257A,121.377,28.5773,台州市,路桥田洋王,,39,39,39,24,15,98,70,78,71,14,12,5,5,0.4,0.4
2022-04-01T09:00:00,1258A,122.122,30.0203,舟山市,定海檀枫,,27,20,26,9,16,97,86,96,89,8,6,2,1,0.3,0.3
2022-04-01T09:00:00,1259A,122.3094,29.9558,舟山市,普陀东港,,30,18,27,2,14,107,96,106,98,12,10,3,3,0.4,0.4
2022-04-01T09:00:00,1260A,122.19,29.9944,舟山市,临城新区,,28,22,27,7,12,104,89,103,94,16,12,2,3,0.3,0.4
2022-04-01T09:00:00,1262A,119.647,29.077,金华市,十五中,,26,26,31,14,24,93,73,58,58,22,23,9,6,0.6,0.6
2022-04-01T09:00:00,1263A,119.686,29.1029,金华市,监测站,,25,25,30,8,17,91,73,56,56,18,22,11,5,0.4,0.5
2022-04-01T09:00:00,1264A,118.8692,28.9398,衢州市,环保大楼,,37,37,31,15,19,106,63,60,60,22,18,5,4,0.6,0.6
2022-04-01T09:00:00,1265A,118.8709,28.9666,衢州市,实验学校,,21,20,26,13,18,112,66,65,61,23,18,3,3,0.6,0.6
2022-04-01T09:00:00,1266A,118.8621,28.9808,衢州市,衢州学院,,25,25,32,14,18,109,56,64,54,19,17,4,4,0.6,0.6
2022-04-01T09:00:00,1267A,119.914,28.4514,丽水市,监测站大楼,,39,39,21,26,10,93,55,62,60,12,11,5,5,0.6,0.4
2022-04-01T09:00:00,1268A,119.93,28.4586,丽水市,莲都小学,,48,48,30,26,8,102,59,67,64,15,13,5,5,0.5,0.3
2022-04-01T09:00:00,1269A,119.879,28.4231,丽水市,余庄前,,,55,24,,12,99,,60,48,15,15,6,6,0.6,0.4
2022-04-01T09:00:00,1270A,117.1959,31.7848,合肥市,明珠广场,颗粒物(PM10),51,51,58,22,33,72,68,66,66,30,25,6,5,0.7,0.6
2022-04-01T09:00:00,1271A,117.3072,31.8764,合肥市,三里街,,48,48,55,17,32,65,65,57,57,22,21,8,7,0,0.3
2022-04-01T09:00:00,1272A,117.2588,31.8707,合肥市,琥珀山庄,,48,48,56,22,32,62,59,59,55,32,22,8,5,0.6,0.5
2022-04-01T09:00:00,1273A,117.1604,31.9052,合肥市,董铺水库(对照点),颗粒物(PM10),58,66,56,36,31,68,57,64,48,25,21,10,8,0.6,0.6
2022-04-01T09:00:00,1274A,117.25,31.8571,合肥市,长江中路,,48,48,58,19,27,75,73,68,68,27,21,10,7,0.5,0.5
2022-04-01T09:00:00,1275A,117.266,31.9436,合肥市,庐阳区,颗粒物(PM10),56,61,62,19,31,61,56,51,46,28,27,10,7,0.5,0.5
2022-04-01T09:00:00,1276A,117.336,31.8586,合肥市,瑶海区,,48,48,53,22,33,70,69,62,59,24,20,7,6,0.5,0.5
2022-04-01T09:00:00,1277A,117.3027,31.7964,合肥市,包河区,颗粒物(PM10),58,66,64,22,43,55,51,37,35,37,43,5,4,0.5,0.5
2022-04-01T09:00:00,1278A,117.2776,31.7385,合肥市,滨湖新区,,48,48,58,22,34,73,71,66,66,29,26,8,6,0.4,0.4
2022-04-01T09:00:00,1279A,117.1318,31.8403,合肥市,高新区,颗粒物(PM10),56,62,59,29,38,66,63,58,58,31,27,9,7,0.3,0.4
2022-04-01T09:00:00,1280A,119.3903,26.0543,福州市,鼓山(对照点),,35,32,21,10,8,122,110,113,113,11,11,5,3,0.4,0.4
2022-04-01T09:00:00,1282A,119.2681,26.0504,福州市,师大,,34,32,24,10,8,113,107,113,104,14,14,3,2,0.4,0.4
2022-04-01T09:00:00,1284A,119.2648,26.0768,福州市,杨桥西路,,32,32,20,10,14,102,98,102,92,8,12,4,3,0.8,0.8
2022-04-01T09:00:00,1285A,119.317,26.0746,福州市,紫阳,,34,30,22,11,10,111,107,110,107,10,14,6,5,0.4,0.5
2022-04-01T09:00:00,1286A,118.1608,24.8169,厦门市,溪东(对照点),,31,19,24,16,26,115,99,100,100,5,4,2,1,0.2,0.3
2022-04-01T09:00:00,1287A,118.1514,24.4767,厦门市,洪文,,36,36,31,13,16,118,92,100,98,13,9,4,3,0.3,0.4
2022-04-01T09:00:00,1288A,118.0661,24.4444,厦门市,鼓浪屿,颗粒物(PM10),75,100,36,11,11,131,94,98,97,7,6,3,2,0.3,0.4
2022-04-01T09:00:00,1290A,115.8931,28.6843,南昌市,省外办,,,70,48,54,34,105,,74,73,14,10,4,3,0.9,0.8
2022-04-01T09:00:00,1291A,115.8886,28.7003,南昌市,省林业公司,细颗粒物(PM2.5),62,63,45,44,31,104,56,71,68,16,10,8,5,0.8,0.7
2022-04-01T09:00:00,1292A,115.8126,28.7442,南昌市,林科所,颗粒物(PM10),56,61,35,27,22,108,59,77,72,8,4,10,5,0.6,0.6
2022-04-01T09:00:00,1294A,115.8518,28.687,南昌市,建工学校,细颗粒物(PM2.5),77,51,43,56,36,102,54,73,69,24,17,10,8,0.6,0.5
2022-04-01T09:00:00,1295A,115.8921,28.6424,南昌市,象湖,细颗粒物(PM2.5),59,50,39,42,29,97,52,67,66,16,11,3,2,0.8,0.7
2022-04-01T09:00:00,1296A,115.7423,28.7996,南昌市,武术学校(对照点),细颗粒物(PM2.5),58,47,34,41,24,109,59,68,66,17,12,4,6,0.8,0.8
2022-04-01T09:00:00,1298A,115.9314,28.6842,南昌市,省站,细颗粒物(PM2.5),70,69,41,51,30,95,52,68,66,14,7,5,2,0.6,0.5
2022-04-01T09:00:00,1299A,116.9862,36.6114,济南市,科干所,,31,31,41,12,18,110,86,64,48,19,28,10,12,0.7,0.8
2022-04-01T09:00:00,1300A,116.9376,36.665,济南市,农科所,颗粒物(PM10),55,59,56,20,19,108,47,38,14,45,38,10,12,0.5,0.4
2022-04-01T09:00:00,1301A,117.1265,36.6734,济南市,开发区,,39,39,51,15,21,108,79,36,22,21,36,8,13,0.3,0.4
2022-04-01T09:00:00,1303A,117.0624,36.6868,济南市,省种子仓库,颗粒物(PM10),52,53,59,27,26,112,44,16,10,48,44,10,14,0.9,0.8
2022-04-01T09:00:00,1304A,116.9489,36.6447,济南市,机床二厂,颗粒物(PM10),52,54,57,24,22,110,58,48,15,35,39,8,10,0.7,0.6
2022-04-01T09:00:00,1305A,117.0495,36.663,济南市,市监测站,颗粒物(PM10),51,51,51,22,22,108,47,35,22,48,40,11,14,0.5,0.5
2022-04-01T09:00:00,1306A,116.7675,36.5484,济南市,长清党校,颗粒物(PM10),51,51,52,17,19,104,64,51,30,24,34,10,10,0.7,0.7
2022-04-01T09:00:00,1307A,120.6659,36.2403,青岛市,仰口(对照点),,31,31,33,12,19,98,79,89,82,14,13,7,6,0.5,0.5
2022-04-01T09:00:00,1310A,120.4134,36.0658,青岛市,市南区东部子站,,39,39,36,19,17,99,61,90,72,35,22,9,6,0.5,0.4
2022-04-01T09:00:00,1311A,120.3664,36.1032,青岛市,四方区子站,,46,46,39,24,23,104,63,91,66,35,25,12,9,0.5,0.5
2022-04-01T09:00:00,1312A,120.2994,36.054,青岛市,市南区西部子站,,44,44,39,15,17,103,65,90,78,28,19,10,8,0.5,0.4
2022-04-01T09:00:00,1313A,120.4581,36.0858,青岛市,崂山区子站,,41,41,41,17,16,104,70,91,80,28,19,11,8,0.5,0.4
2022-04-01T09:00:00,1314A,120.1983,35.9608,青岛市,黄岛区子站,,41,41,48,22,24,97,67,45,44,39,46,10,9,0.6,0.6
2022-04-01T09:00:00,1315A,120.3999,36.3083,青岛市,城阳区子站,颗粒物(PM10),51,51,40,20,18,100,78,81,74,16,13,7,7,0.5,0.5
2022-04-01T09:00:00,1316A,113.69031,34.76122,郑州市,烟厂,颗粒物(PM10),59,67,44,35,30,103,67,61,54,31,23,14,7,0.5,0.5
2022-04-01T09:00:00,1317A,113.65724,34.77134,郑州市,郑纺机,颗粒物(PM10),55,60,47,37,27,102,66,65,39,36,28,15,8,0.6,0.6
2022-04-01T09:00:00,1318A,113.67526,34.80246,郑州市,银行学校,细颗粒物(PM2.5),60,56,44,43,28,100,47,60,26,28,16,3,3,0.7,0.6
2022-04-01T09:00:00,1319A,113.56746,34.81334,郑州市,供水公司,细颗粒物(PM2.5),64,76,52,46,28,111,18,26,5,68,41,9,5,0.7,0.5
2022-04-01T09:00:00,1320A,113.7329,34.7178,郑州市,经开区管委,细颗粒物(PM2.5),62,50,40,44,29,109,56,60,32,45,31,13,6,0.7,0.6
2022-04-01T09:00:00,1321A,113.73961,34.77172,郑州市,四十七中,细颗粒物(PM2.5),53,47,45,37,32,111,56,48,23,38,30,13,6,0.7,0.7
2022-04-01T09:00:00,1322A,113.60532,34.74838,郑州市,市监测站,颗粒物(PM10),60,70,57,38,25,108,63,78,19,44,35,15,7,0.7,0.7
2022-04-01T09:00:00,1325A,114.3677,30.5584,武汉市,东湖梨园,,49,48,71,34,61,63,38,48,47,38,21,17,7,1.7,0.8
2022-04-01T09:00:00,1326A,114.2529,30.558,武汉市,汉阳月湖,,41,41,70,12,30,75,56,53,53,22,22,6,5,0.7,0.8
2022-04-01T09:00:00,1327A,114.282,30.6189,武汉市,汉口花桥,,43,43,81,27,54,63,48,47,47,22,18,8,7,0.9,1
2022-04-01T09:00:00,1328A,114.3025,30.5332,武汉市,武昌紫阳,,41,41,74,18,38,65,37,45,43,28,14,9,7,1.1,1.1
2022-04-01T09:00:00,1329A,114.3646,30.6217,武汉市,青山钢花,细颗粒物(PM2.5),55,45,78,39,62,54,45,40,40,27,20,7,6,0.7,1
2022-04-01T09:00:00,1330A,114.1566,30.4825,武汉市,沌口新区,,42,42,71,18,40,73,40,44,44,28,22,8,6,0.7,0.8
2022-04-01T09:00:00,1331A,114.3014,30.5944,武汉市,汉口江滩,,45,45,77,17,39,66,51,49,49,22,19,7,6,0.7,0.8
2022-04-01T09:00:00,1333A,114.135,30.6319,武汉市,吴家山,,49,49,82,32,59,60,56,51,51,21,16,9,8,0.8,0.8
2022-04-01T09:00:00,1334A,113.8454,30.2917,武汉市,沉湖七壕(对照点),,46,46,78,15,33,73,49,41,41,11,12,3,3,0.7,0.8
2022-04-01T09:00:00,1335A,113.0833,28.2325,长沙市,经开区环保局,细颗粒物(PM2.5),127,83,23,96,31,98,38,85,64,23,15,6,6,0.7,0.5
2022-04-01T09:00:00,1336A,112.8872,28.2189,长沙市,高开区环保局,细颗粒物(PM2.5),94,93,28,70,24,100,39,84,65,19,13,5,6,0.6,0.4
2022-04-01T09:00:00,1337A,113.0792,28.2053,长沙市,马坡岭,细颗粒物(PM2.5),124,86,24,94,25,98,41,86,70,18,9,8,7,0.7,0.4
2022-04-01T09:00:00,1338A,112.9394,28.19,长沙市,湖南师范大学,细颗粒物(PM2.5),104,71,27,78,21,98,39,79,63,16,10,7,7,0.6,0.5
2022-04-01T09:00:00,1339A,113.0178,28.1322,长沙市,雨花区环保局,细颗粒物(PM2.5),82,60,19,60,19,100,45,89,74,20,12,4,4,0.7,0.4
2022-04-01T09:00:00,1340A,112.9792,28.2597,长沙市,伍家岭,细颗粒物(PM2.5),90,68,23,67,16,96,32,75,58,24,17,5,5,0.7,0.5
2022-04-01T09:00:00,1341A,113.0014,28.1944,长沙市,火车新站,细颗粒物(PM2.5),130,69,26,99,31,94,32,86,65,28,15,7,6,0.5,0.3
2022-04-01T09:00:00,1342A,112.9844,28.1178,长沙市,天心区环保局,细颗粒物(PM2.5),78,50,14,57,17,94,46,88,72,16,9,5,4,0.8,0.5
2022-04-01T09:00:00,1343A,112.8908,28.1308,长沙市,湖南中医药大学,细颗粒物(PM2.5),99,69,24,74,21,102,43,84,68,13,9,3,3,0.7,0.5
2022-04-01T09:00:00,1344A,112.9581,28.3611,长沙市,沙坪(对照点),细颗粒物(PM2.5),105,110,38,79,28,96,37,75,54,14,10,6,7,0.9,0.7
2022-04-01T09:00:00,1345A,113.2347,23.1423,广州市,广雅中学,,20,10,56,3,25,188,62,48,48,19,49,6,6,1.1,1.2
2022-04-01T09:00:00,1346A,113.2612,23.105,广州市,市五中,,22,8,48,3,25,199,70,54,54,14,39,4,4,0.8,1
2022-04-01T09:00:00,1348A,113.3478,23.0916,广州市,广东商学院,,23,7,37,3,19,175,73,55,55,14,40,3,5,0.7,0.9
2022-04-01T09:00:00,1349A,113.4332,23.1047,广州市,市八十六中,,18,10,41,2,17,218,56,47,47,25,45,6,9,1.0,1.1
2022-04-01T09:00:00,1350A,113.3505,22.9483,广州市,番禺中学,,18,12,39,2,16,208,56,46,46,16,34,6,8,0.9,1
2022-04-01T09:00:00,1351A,113.2146,23.3916,广州市,花都师范,,21,6,32,3,18,198,66,61,61,16,22,4,4,0.7,0.8
2022-04-01T09:00:00,1352A,113.2597,23.1331,广州市,市监测站,,21,8,50,3,22,221,67,51,51,17,41,5,6,0.9,1
2022-04-01T09:00:00,1353A,113.5618,23.312,广州市,九龙镇镇龙,,15,6,37,2,15,85,46,38,38,24,35,5,5,0.7,0.7
2022-04-01T09:00:00,1354A,113.2765,23.1544,广州市,麓湖,,20,7,41,2,17,179,61,48,48,21,36,6,7,0.8,0.9
2022-04-01T09:00:00,1355A,113.443,23.3035,广州市,帽峰山森林公园(对照点),,23,4,25,2,13,164,73,63,63,8,12,6,7,0.9,1
2022-04-01T09:00:00,1356A,114.1063,22.5545,深圳市,通心岭子站,,15,8,18,2,9,123,45,84,76,13,6,2,2,0.7,0.5
2022-04-01T09:00:00,1357A,114.117,22.5625,深圳市,洪湖,,21,10,25,2,10,129,65,80,74,17,15,5,5,0.8,0.6
2022-04-01T09:00:00,1358A,113.987,22.5417,深圳市,华侨城,,22,7,18,1,9,93,69,83,77,14,10,4,4,1.1,0.8
2022-04-01T09:00:00,1359A,113.9181,22.5171,深圳市,南海子站,,22,9,21,2,9,105,69,84,79,9,7,3,2,0.7,0.5
2022-04-01T09:00:00,1360A,114.2458,22.5689,深圳市,盐田,,20,4,21,1,12,128,62,65,54,13,34,1,3,0.9,0.8
2022-04-01T09:00:00,1361A,114.2283,22.7244,深圳市,龙岗,,20,10,20,2,8,98,61,71,67,23,19,1,2,0.6,0.4
2022-04-01T09:00:00,1363A,114.494,22.5422,深圳市,南澳,,25,12,21,4,9,103,77,82,82,10,15,4,5,0.5,0.5
2022-04-01T09:00:00,1364A,114.41,22.6342,深圳市,葵涌,,18,6,20,1,9,121,56,94,76,9,7,4,4,0.6,0.4
2022-04-01T09:00:00,1365A,114.297,22.5978,深圳市,梅沙,,20,6,22,0,9,144,63,99,86,11,9,4,4,0.9,0.7
2022-04-01T09:00:00,1366A,114.0678,22.738,深圳市,观澜,,22,9,33,1,13,111,69,51,51,17,32,4,5,0.8,0.5
2022-04-01T09:00:00,1367A,113.5814,22.2618,珠海市,吉大,,24,24,29,7,15,114,59,68,68,28,24,9,10,0.5,0.5
2022-04-01T09:00:00,1368A,113.4881,22.2335,珠海市,前山,,23,18,31,12,14,107,72,83,83,22,26,9,10,0.6,0.5
2022-04-01T09:00:00,1369A,113.628,22.4251,珠海市,唐家,,19,19,27,6,16,140,58,68,68,17,26,8,9,0.7,0.5
2022-04-01T09:00:00,1370A,113.299,22.2281,珠海市,斗门,,22,22,26,7,14,138,65,74,74,26,22,17,8,0.4,0.4
2022-04-01T09:00:00,1371A,113.1294,23.0067,佛山市,湾梁,,23,12,69,4,26,226,72,58,58,12,41,8,10,0.7,0.8
2022-04-01T09:00:00,1372A,113.1083,23.0478,佛山市,华材职中,,20,17,66,4,26,254,62,56,56,25,43,4,6,0.7,0.8
2022-04-01T09:00:00,1373A,113.144,23.0453,佛山市,南海气象局,,20,11,51,6,28,222,62,53,53,18,39,4,6,0.6,0.7
2022-04-01T09:00:00,1374A,113.2881,22.8094,佛山市,顺德苏岗,,18,13,35,0,18,165,55,40,40,19,36,3,2,0.9,0.9
2022-04-01T09:00:00,1376A,112.8383,22.8678,佛山市,高明孔堂,,21,21,51,7,27,275,42,47,47,29,32,11,13,0.8,0.9
2022-04-01T09:00:00,1377A,112.8836,23.1588,佛山市,三水监测站,,15,9,54,4,23,196,45,47,46,17,31,4,5,0.8,0.8
2022-04-01T09:00:00,1378A,112.867,23.185,佛山市,三水云东海,,22,22,46,5,18,201,47,53,50,17,26,5,7,0.7,0.7
2022-04-01T09:00:00,1379A,113.3769,22.5211,中山市,华柏园,,14,5,27,8,23,99,37,33,33,27,29,4,4,0.9,0.7
2022-04-01T09:00:00,1380A,113.3881,22.5497,中山市,张溪,,13,10,37,4,20,118,39,35,35,26,30,2,2,0.8,0.6
2022-04-01T09:00:00,1381A,113.4075,22.5111,中山市,紫马岭,,,12,33,7,15,117,,30,30,,27,,4,,0.4
2022-04-01T09:00:00,1382A,113.4411,22.4853,中山市,长江旅游区(对照点),,15,8,23,7,12,109,48,36,36,22,24,2,2,0.8,0.5
2022-04-01T09:00:00,1383A,113.1064,22.6058,江门市,北街,,17,3,44,4,21,277,52,39,39,23,38,6,8,0.6,0.6
2022-04-01T09:00:00,1384A,113.0731,22.5835,江门市,西区,,17,11,46,4,22,289,52,36,36,24,37,6,8,0.8,0.7
2022-04-01T09:00:00,1385A,113.0219,22.5311,江门市,圭峰西,,38,38,43,4,25,294,56,37,37,20,32,5,7,0.5,0.5
2022-04-01T09:00:00,1386A,113.0828,22.5947,江门市,东湖,,17,10,44,5,23,292,53,38,38,22,34,5,7,0.7,0.6
2022-04-01T09:00:00,1389A,113.7547,23.0494,东莞市,莞城梨川,,22,7,35,2,18,257,68,57,57,14,28,8,9,0.8,0.9
2022-04-01T09:00:00,1390A,113.7944,23.0128,东莞市,东城石井,,22,8,36,3,19,305,70,56,56,15,31,6,7,0.7,0.7
2022-04-01T09:00:00,1391A,113.7383,22.9658,东莞市,南城西平,,22,8,37,5,22,309,70,50,50,14,32,6,6,0.7,0.7
2022-04-01T09:00:00,1392A,114.4183,23.0528,惠州市,河南岸金山湖子站,,21,3,27,1,11,106,65,74,74,12,13,4,4,0.7,0.6
2022-04-01T09:00:00,1393A,114.4053,23.0822,惠州市,下埔横江三路子站,,22,5,25,1,9,121,69,77,77,12,15,4,4,0.7,0.6
2022-04-01T09:00:00,1394A,114.4103,23.1142,惠州市,江北云山西路子站,,,,30,2,12,150,67,75,75,10,10,5,6,0.6,0.4
2022-04-01T09:00:00,1395A,114.4645,22.7833,惠州市,惠阳区承修路船湖子站,,18,8,27,3,10,138,56,84,70,14,11,3,4,0.7,0.6
2022-04-01T09:00:00,1396A,114.5317,22.7422,惠州市,大亚湾管委会子站,,16,7,24,9,15,156,49,88,70,14,11,3,4,0.9,0.7
2022-04-01T09:00:00,1397A,112.4267,23.0706,肇庆市,睦岗子站,,14,4,37,2,22,169,44,47,47,25,33,5,9,0.9,0.9
2022-04-01T09:00:00,1398A,112.4645,23.0475,肇庆市,城中子站,,18,3,35,2,21,179,55,53,53,15,34,5,9,0.7,0.7
2022-04-01T09:00:00,1399A,112.5544,23.1522,肇庆市,坑口子站,,13,5,34,3,21,182,41,45,45,20,19,3,5,0.6,0.6
2022-04-01T09:00:00,1400A,112.4753,23.1,肇庆市,七星岩子站(对照点),,15,4,31,2,24,161,46,51,51,14,17,6,11,0.7,0.7
2022-04-01T09:00:00,1401A,108.3103,22.7881,南宁市,二十一中,,20,10,25,4,16,68,64,60,60,13,17,18,11,0.8,0.9
2022-04-01T09:00:00,1402A,108.3141,22.8528,南宁市,北湖,,20,12,32,3,16,63,61,56,56,12,17,11,11,0.5,0.8
2022-04-01T09:00:00,1403A,108.3206,22.8225,南宁市,市监测站,,20,13,24,6,16,63,61,57,57,20,24,11,11,0.7,0.9
2022-04-01T09:00:00,1404A,108.3829,22.8037,南宁市,大自然花园,,20,14,26,9,19,65,62,58,58,16,19,7,7,0.5,0.7
2022-04-01T09:00:00,1405A,108.4394,22.7904,南宁市,仙葫(对照点),,18,11,27,7,18,63,56,55,55,20,18,6,6,0.7,0.8
2022-04-01T09:00:00,1406A,108.2397,22.8467,南宁市,区农职院,,23,8,28,1,14,73,71,67,67,9,17,6,7,0.6,0.8
2022-04-01T09:00:00,1407A,108.3275,22.735,南宁市,英华嘉园,,20,14,27,4,15,64,64,54,54,15,21,7,7,0.6,0.8
2022-04-01T09:00:00,1408A,108.2257,22.7757,南宁市,沙井镇街道办,,20,18,31,8,19,67,62,59,59,14,20,5,5,0.6,0.8
2022-04-01T09:00:00,1409A,110.576,19.9507,海口市,东寨港(对照点),,25,9,24,9,13,105,80,74,74,4,3,1,3,0.4,0.4
2022-04-01T09:00:00,1410A,110.3232,20.0574,海口市,海南大学,,28,19,29,13,14,136,87,102,101,6,5,4,4,0.6,0.5
2022-04-01T09:00:00,1411A,110.283,20.0053,海口市,秀英海南医院,,20,20,27,10,16,96,59,84,79,2,2,4,4,0.4,0.4
2022-04-01T09:00:00,1412A,110.338,19.9969,海口市,海南师范大学,,24,17,28,8,13,102,76,87,87,6,6,1,2,0.5,0.4
2022-04-01T09:00:00,1413A,110.33,20.0356,海口市,龙华路环保局宿舍,,30,30,29,10,15,114,94,102,102,5,5,5,4,0.5,0.5
2022-04-01T09:00:00,1414A,106.3787,29.8279,重庆市,缙云山(对照点),,30,7,6,9,5,104,95,93,93,8,9,5,5,0.6,0.6
2022-04-01T09:00:00,1416A,106.4213,29.8253,重庆市,天生,,30,30,17,16,10,66,56,49,44,24,19,6,6,0.6,0.6
2022-04-01T09:00:00,1417A,106.6263,29.7228,重庆市,两路,,22,20,14,13,9,77,52,74,68,44,28,8,8,1.1,0.7
2022-04-01T09:00:00,1418A,106.2953,29.5983,重庆市,虎溪,,29,23,16,20,18,64,48,48,48,29,23,2,3,0.7,0.6
2022-04-01T09:00:00,1419A,106.5777,29.5102,重庆市,南坪,,21,21,18,13,12,87,62,61,61,16,25,4,4,0.5,0.5
2022-04-01T09:00:00,1420A,106.6556,29.6277,重庆市,唐家沱,,28,28,15,9,7,81,72,73,73,23,21,3,3,0.4,0.5
2022-04-01T09:00:00,1421A,106.6349,29.4906,重庆市,茶园,,23,23,15,15,9,75,44,72,60,35,27,6,5,0.7,0.7
2022-04-01T09:00:00,1422A,106.3754,29.4572,重庆市,白市驿,,21,3,4,12,13,66,65,51,51,16,19,6,6,0.7,0.7
2022-04-01T09:00:00,1425A,106.6205,29.7166,重庆市,空港,,23,22,18,16,13,79,55,75,70,33,17,9,9,0.5,0.5
2022-04-01T09:00:00,1426A,106.4782,29.4875,重庆市,新山村,,26,23,18,18,12,62,47,62,56,47,40,6,6,0.8,0.7
2022-04-01T09:00:00,1427A,106.5616,29.6453,重庆市,礼嘉,,22,15,9,12,7,73,48,66,62,43,27,8,7,0.4,0.4
2022-04-01T09:00:00,1428A,106.4522,29.7091,重庆市,蔡家,,25,16,12,17,14,70,50,53,53,34,28,3,3,0.6,0.5
2022-04-01T09:00:00,1429A,106.5093,29.3917,重庆市,鱼新街,,19,14,11,6,6,76,35,62,54,37,26,5,5,1.1,1
2022-04-01T09:00:00,1431A,103.9728,30.7236,成都市,金泉两河,,30,30,39,19,20,83,23,53,37,23,15,4,4,0.5,0.3
2022-04-01T09:00:00,1432A,104.1419,30.6764,成都市,十里店,,44,44,46,24,21,87,43,58,56,36,22,5,3,0.4,0.3
2022-04-01T09:00:00,1433A,104.0594,30.5767,成都市,三瓦窑,,38,37,43,26,19,87,27,50,41,48,23,2,1,0.6,0.3
2022-04-01T09:00:00,1434A,104.1122,30.6306,成都市,沙河铺,,36,36,43,23,22,89,56,58,58,25,21,5,5,0.5,0.4
2022-04-01T09:00:00,1437A,104.0431,30.6556,成都市,君平街,,36,36,42,23,23,81,44,57,54,36,30,3,3,0.4,0.3
2022-04-01T09:00:00,1438A,103.6202,31.0201,成都市,灵岩寺(对照点),,23,7,20,11,14,94,73,80,80,4,6,4,3,0.2,0.3
2022-04-01T09:00:00,1439A,106.6899,26.5998,贵阳市,马鞍山,,22,7,6,7,6,68,68,66,64,12,11,4,4,0.8,0.6
2022-04-01T09:00:00,1440A,106.6971,26.5694,贵阳市,市环保站,,22,5,5,7,4,80,70,74,73,24,16,4,6,0.4,0.3
2022-04-01T09:00:00,1441A,106.6243,26.6266,贵阳市,鉴湖路,,24,7,7,2,3,78,76,70,70,7,7,2,3,0.1,0.3
2022-04-01T09:00:00,1442A,106.7487,26.6343,贵阳市,燕子冲,,27,9,8,14,9,85,85,72,72,6,8,6,7,0.5,0.4
2022-04-01T09:00:00,1443A,106.6555,26.4365,贵阳市,碧云窝,,26,17,16,5,5,86,81,81,77,15,12,3,5,0.5,0.4
2022-04-01T09:00:00,1444A,106.694,26.5161,贵阳市,中院村,,26,24,12,7,3,91,82,82,82,20,13,6,7,0.5,0.4
2022-04-01T09:00:00,1445A,106.7109,26.6027,贵阳市,红边门,,30,14,9,7,5,93,93,85,83,14,12,5,7,0.4,0.3
2022-04-01T09:00:00,1446A,106.7164,26.5699,贵阳市,新华路,,23,9,8,2,3,81,71,74,72,18,10,5,5,0.3,0.2
2022-04-01T09:00:00,1447A,106.674,26.5424,贵阳市,太慈桥,,25,14,13,0,1,77,77,71,71,11,12,1,2,0.3,0.3
2022-04-01T09:00:00,1450A,102.8204,24.8886,昆明市,呈贡新区,,27,7,31,2,17,93,85,79,79,13,14,8,8,0.4,0.5
2022-04-01T09:00:00,1451A,102.6251,24.9608,昆明市,西山森林公园(对照点),,31,4,18,3,14,97,97,86,86,7,12,6,6,0.4,0.6
2022-04-01T09:00:00,1452A,102.7252,25.0902,昆明市,龙泉镇,,,4,20,6,20,87,,77,77,16,16,8,9,0.4,0.5
2022-04-01T09:00:00,1453A,102.7266,25.0375,昆明市,东风东路,,27,3,21,1,14,92,85,82,82,13,12,5,5,0.4,0.5
2022-04-01T09:00:00,1454A,102.6742,25.0669,昆明市,金鼎山,,26,2,21,6,18,90,83,78,78,13,13,5,5,0.3,0.4
2022-04-01T09:00:00,1455A,102.6644,25.0401,昆明市,碧鸡广场,,27,3,22,1,12,91,86,83,83,15,14,8,9,0.4,0.5
2022-04-01T09:00:00,1456A,91.1319,29.6514,拉萨市,八廓街,,43,43,28,18,10,115,78,94,91,16,12,6,6,0.2,0.1
2022-04-01T09:00:00,1457A,91.1221,29.6747,拉萨市,市环保局,,45,45,30,23,14,147,86,119,112,17,7,4,5,0.3,0.3
2022-04-01T09:00:00,1458A,91.0874,29.6475,拉萨市,区监测站,,35,35,28,15,10,121,73,90,85,17,7,6,6,0.3,0.3
2022-04-01T09:00:00,1459A,91.1774,29.6541,拉萨市,西藏大学,,38,38,30,14,10,119,79,99,93,10,7,4,5,0.3,0.3
2022-04-01T09:00:00,1460A,90.9798,29.6588,拉萨市,区辐射站,,,35,30,22,18,127,84,97,87,17,17,6,6,,0.5
2022-04-01T09:00:00,1461A,91.0834,29.6292,拉萨市,拉萨火车站,,41,41,33,15,8,128,75,114,107,27,6,5,5,0.6,0.4
2022-04-01T09:00:00,1462A,108.882,34.2749,西安市,高压开关厂,细颗粒物(PM2.5),163,177,128,124,44,69,10,10,8,59,62,10,12,1.0,0.7
2022-04-01T09:00:00,1463A,108.993,34.2629,西安市,兴庆小区,细颗粒物(PM2.5),125,148,105,95,41,87,8,11,7,57,57,10,13,1.3,1
2022-04-01T09:00:00,1464A,109.06,34.2572,西安市,纺织城,细颗粒物(PM2.5),127,140,119,96,45,82,10,4,4,47,53,12,12,1.0,0.8
2022-04-01T09:00:00,1465A,108.9356,34.2173,西安市,小寨,颗粒物(PM10),115,179,106,81,39,93,8,26,9,59,57,7,9,1.2,1
2022-04-01T09:00:00,1466A,108.954,34.2713,西安市,市人民体育场,细颗粒物(PM2.5),149,154,116,114,51,89,12,11,5,52,60,8,10,1.0,0.7
2022-04-01T09:00:00,1467A,108.8922,34.2322,西安市,高新西区,细颗粒物(PM2.5),139,155,108,106,44,90,12,23,13,64,59,11,13,1.2,0.8
2022-04-01T09:00:00,1468A,108.935,34.3474,西安市,经开区,细颗粒物(PM2.5),138,129,111,105,43,85,25,6,6,32,55,5,7,0.9,0.6
2022-04-01T09:00:00,1469A,108.906,34.1546,西安市,长安区,颗粒物(PM10),115,180,144,44,41,81,8,5,5,51,55,10,12,0.9,0.9
2022-04-01T09:00:00,1471A,109.2186,34.3731,西安市,临潼区,颗粒物(PM10),120,190,102,80,41,90,14,75,12,44,35,8,10,1.1,0.7
2022-04-01T09:00:00,1472A,108.869,34.378,西安市,草滩(对照点),细颗粒物(PM2.5),185,113,101,139,40,83,25,8,8,38,47,7,9,1.0,0.6
2022-04-01T09:00:00,1473A,108.985,34.1978,西安市,曲江文化产业集团,细颗粒物(PM2.5),118,163,109,89,40,79,4,11,5,56,60,6,8,1.1,0.9
2022-04-01T09:00:00,1474A,109.051,34.3213,西安市,广运潭,细颗粒物(PM2.5),134,138,106,102,42,91,19,6,6,32,47,5,8,1.0,0.7
2022-04-01T09:00:00,1476A,103.631,36.1031,兰州市,兰炼宾馆,颗粒物(PM10),58,65,58,37,27,120,60,95,64,37,18,12,9,0.5,0.4
2022-04-01T09:00:00,1477A,104.1373,35.9454,兰州市,榆中兰大校区(对照点),颗粒物(PM10),55,59,51,20,17,130,75,90,76,22,14,13,5,0.8,0.6
2022-04-01T09:00:00,1478A,103.8412,36.0726,兰州市,生物制品所,颗粒物(PM10),59,68,62,12,21,111,28,75,21,68,42,13,9,0.6,0.4
2022-04-01T09:00:00,1479A,103.831,36.0464,兰州市,铁路设计院,颗粒物(PM10),73,95,63,29,28,113,20,89,35,72,36,11,8,1.1,0.6
2022-04-01T09:00:00,1483A,101.524,36.6867,西宁市,第五水厂(对照点),,34,34,38,19,20,123,89,102,87,14,14,11,11,0.9,0.8
2022-04-01T09:00:00,1484A,105.9512,38.6016,银川市,贺兰山马莲口(对照点),,32,32,28,8,9,105,82,105,96,14,8,10,10,0.4,0.4
2022-04-01T09:00:00,1488A,106.2328,38.4975,银川市,贺兰山东路,颗粒物(PM10),64,78,39,25,17,105,41,56,46,58,43,16,7,0.7,0.5
2022-04-01T09:00:00,1489A,106.1358,38.5036,银川市,学院路,颗粒物(PM10),67,84,51,26,21,116,47,72,66,48,37,18,11,0.7,0.5
2022-04-01T09:00:00,1490A,87.5801,43.8303,乌鲁木齐市,监测站,颗粒物(PM10),55,59,64,25,15,105,3,15,8,55,43,6,6,1.1,0.7
2022-04-01T09:00:00,1491A,87.6046,43.768,乌鲁木齐市,收费所,,49,49,42,24,18,94,6,2,2,67,45,5,5,0.8,0.4
2022-04-01T09:00:00,1492A,87.4754,43.9469,乌鲁木齐市,新疆农科院农场(对照点),,,77,64,22,20,95,2,1,1,57,34,11,10,0.6,0.4
2022-04-01T09:00:00,1493A,87.5525,43.8711,乌鲁木齐市,铁路局,,46,46,41,16,17,97,2,3,3,60,46,5,6,1.2,0.8
2022-04-01T09:00:00,1494A,87.6432,43.831,乌鲁木齐市,三十一中学,,34,34,42,16,12,89,56,28,28,25,41,7,6,0.4,0.4
2022-04-01T09:00:00,1496A,87.7216,44.1747,乌鲁木齐市,米东区环保局,颗粒物(PM10),66,82,36,23,14,99,2,48,4,36,17,7,6,0.6,0.4
2022-04-01T09:00:00,1508A,112.9433,27.8614,湘潭市,板塘,细颗粒物(PM2.5),97,66,26,72,23,94,53,84,77,16,10,5,6,0.6,0.4
2022-04-01T09:00:00,1511A,112.9118,27.8403,湘潭市,市监测站,细颗粒物(PM2.5),80,46,19,59,21,85,33,85,70,25,12,6,6,0.8,0.6
2022-04-01T09:00:00,1512A,112.8937,27.8728,湘潭市,江麓,细颗粒物(PM2.5),109,89,30,82,18,79,32,69,62,20,16,11,10,0.5,0.3
2022-04-01T09:00:00,1513A,112.9227,27.8159,湘潭市,岳塘,细颗粒物(PM2.5),70,62,25,51,17,93,51,91,81,27,17,10,7,0.6,0.4
2022-04-01T09:00:00,1514A,112.9074,27.9119,湘潭市,科大,细颗粒物(PM2.5),55,57,30,39,14,92,38,79,70,23,17,5,4,0.7,0.6
2022-04-01T09:00:00,1515A,113.135,27.8244,株洲市,天台山庄,细颗粒物(PM2.5),59,34,24,42,14,89,53,82,72,16,12,5,4,0.2,0.1
2022-04-01T09:00:00,1518A,113.095,27.8867,株洲市,株冶医院,细颗粒物(PM2.5),67,34,11,48,14,112,63,100,88,13,10,5,5,0.4,0.2
2022-04-01T09:00:00,1519A,113.167,27.8667,株洲市,市四中,细颗粒物(PM2.5),67,28,14,48,16,89,58,79,72,9,12,4,4,0.4,0.3
2022-04-01T09:00:00,1520A,113.143,27.8381,株洲市,火车站,,48,41,19,33,12,95,60,81,76,21,17,5,5,0.4,0.3
2022-04-01T09:00:00,1524A,113.13,27.8528,株洲市,市监测站,,50,44,18,35,14,89,52,84,72,20,15,5,4,0.6,0.5
2022-04-01T09:00:00,1552A,106.805,26.3003,贵阳市,桐木岭(对照点),,31,17,17,9,10,103,97,101,97,5,5,4,5,0.3,0.3
2022-04-01T09:00:00,1559A,113.251,27.8336,株洲市,大京风景区(对照点),,,,11,25,11,95,64,80,70,5,5,5,4,0.3,0.3
2022-04-01T09:00:00,1562A,113.0048,27.9153,湘潭市,昭山,,,,7,65,21,81,43,68,63,18,14,5,5,0.7,0.4
2022-04-01T09:00:00,1564A,112.4876,27.9164,湘潭市,韶山(对照点),"颗粒物(PM10),细颗粒物(PM2.5)",72,93,70,52,24,99,44,84,62,8,6,4,4,0.6,0.5
2022-04-01T09:00:00,1585A,109.8756,40.6532,包头市,市环境监测站,,50,50,33,32,17,104,43,69,38,32,23,44,18,1.0,0.7
2022-04-01T09:00:00,1587A,109.9991,40.5842,包头市,包头八中,颗粒物(PM10),58,65,39,31,19,110,50,77,47,30,21,77,25,1.8,1
2022-04-01T09:00:00,1588A,109.8538,40.6821,包头市,青山宾馆,,45,38,35,31,31,100,45,59,34,38,28,33,19,0.9,0.6
2022-04-01T09:00:00,1589A,109.8642,40.6288,包头市,惠龙物流,,45,44,33,31,17,106,46,69,45,28,20,28,13,0.7,0.5
2022-04-01T09:00:00,1590A,110.0377,40.5546,包头市,东河鸿龙湾,,35,31,34,24,17,114,54,51,44,19,22,33,24,0.7,0.7
2022-04-01T09:00:00,1591A,110.0023,39.8129,鄂尔多斯市,综合楼,颗粒物(PM10),85,119,55,39,25,106,82,46,46,17,35,6,13,0.5,0.6
2022-04-01T09:00:00,1592A,109.9486,39.8261,鄂尔多斯市,巴音孟克林场办事处,颗粒物(PM10),84,117,43,31,15,106,88,61,61,8,21,6,13,0.4,0.5
2022-04-01T09:00:00,1593A,109.7736,39.5986,鄂尔多斯市,康泽苑,颗粒物(PM10),52,54,24,9,4,106,80,80,80,14,13,5,5,0.9,0.8
2022-04-01T09:00:00,1594A,109.8119,39.5989,鄂尔多斯市,华泰汽车城,颗粒物(PM10),59,67,38,24,14,110,77,51,38,16,27,8,8,0.5,0.5
2022-04-01T09:00:00,1595A,109.9734,39.7884,鄂尔多斯市,奥林花园,颗粒物(PM10),70,90,51,19,11,109,67,29,28,32,36,32,15,0.7,0.8
2022-04-01T09:00:00,1597A,122.2703,40.7094,营口市,大庆路,,33,33,28,18,18,116,71,67,50,19,14,23,8,0.7,0.7
2022-04-01T09:00:00,1598A,122.215,40.6511,营口市,镜湖西路,,30,30,25,20,15,108,82,76,64,14,12,23,8,0.1,0.2
2022-04-01T09:00:00,1599A,122.167,40.6655,营口市,西炮台,颗粒物(PM10),52,53,27,29,17,108,80,65,54,23,17,38,10,0.5,0.4
2022-04-01T09:00:00,1600A,124.3303,40.0625,丹东市,江湾东路,,30,28,25,21,20,100,84,88,77,14,12,12,11,0.4,0.4
2022-04-01T09:00:00,1601A,124.4256,40.1503,丹东市,临江后街,,30,30,21,21,17,101,82,91,78,19,12,7,8,0.5,0.5
2022-04-01T09:00:00,1602A,124.3933,40.1461,丹东市,元宝山,,29,27,19,20,14,98,78,84,78,14,9,10,10,0.3,0.3
2022-04-01T09:00:00,1603A,124.3633,40.1092,丹东市,民主桥,,28,28,22,16,13,94,75,90,72,14,10,10,10,0.4,0.5
2022-04-01T09:00:00,1604A,122.0303,41.1489,盘锦市,开发区,,28,28,34,13,18,102,62,19,19,22,34,13,7,0.7,0.7
2022-04-01T09:00:00,1605A,122.0485,41.0883,盘锦市,兴隆台,,50,50,41,27,18,97,48,20,20,45,41,13,9,0.8,0.7
2022-04-01T09:00:00,1606A,121.8297,41.1028,盘锦市,新生街道,,48,48,31,29,17,101,48,22,22,34,40,36,17,1.0,0.7
2022-04-01T09:00:00,1607A,120.9092,40.7136,葫芦岛市,龙港区,颗粒物(PM10),54,58,41,12,18,98,65,60,59,31,24,13,17,0.7,0.6
2022-04-01T09:00:00,1608A,120.8392,40.7514,葫芦岛市,化工街,颗粒物(PM10),67,84,49,40,23,100,76,52,52,16,26,6,11,0.3,0.4
2022-04-01T09:00:00,1609A,120.8341,40.7073,葫芦岛市,新区,颗粒物(PM10),53,55,38,31,16,101,90,65,65,50,24,20,12,0.6,0.4
2022-04-01T09:00:00,1610A,120.8695,40.7677,葫芦岛市,东城区,颗粒物(PM10),52,53,41,14,16,102,66,46,46,21,25,9,16,0.6,0.6
2022-04-01T09:00:00,1611A,118.5819,24.9117,泉州市,涂山街,,34,26,26,10,14,140,107,114,111,12,10,7,7,0.4,0.5
2022-04-01T09:00:00,1612A,118.5972,24.8978,泉州市,津头埔,,33,26,27,11,15,138,104,113,109,13,10,8,8,0.5,0.5
2022-04-01T09:00:00,1613A,118.6663,24.9424,泉州市,万安,,33,31,28,16,20,134,104,110,107,6,5,8,8,0.6,0.7
2022-04-01T09:00:00,1614A,118.6117,24.9604,泉州市,清源山(对照点),,34,31,26,9,15,136,106,115,111,7,11,7,7,0.5,0.5
2022-04-01T09:00:00,1616A,117.6795,36.229,济南市,技术学院,颗粒物(PM10),51,51,48,23,25,109,87,60,60,18,23,9,11,0.3,0.4
2022-04-01T09:00:00,1618A,118.3429,35.0532,临沂市,沂河小区,,44,44,52,15,35,111,85,87,81,13,17,8,10,0.3,0.3
2022-04-01T09:00:00,1619A,118.295,35.0583,临沂市,鲁南制药厂,,32,31,40,22,30,112,94,99,89,14,19,8,8,0.6,0.6
2022-04-01T09:00:00,1620A,118.2794,34.9976,临沂市,新光毛纺厂,,36,36,47,11,24,105,87,88,84,11,20,3,5,0.4,0.5
2022-04-01T09:00:00,1621A,118.3956,35.0888,临沂市,河东保险公司,,39,39,47,17,29,109,89,88,76,14,22,6,6,0.5,0.6
2022-04-01T09:00:00,1622A,116.3032,37.4674,德州市,儿童乐园,颗粒物(PM10),57,63,43,29,23,114,82,56,56,17,21,9,9,0.6,0.5
2022-04-01T09:00:00,1624A,116.2991,37.4451,德州市,监理站,细颗粒物(PM2.5),70,61,44,51,28,110,78,62,62,16,15,10,9,0.7,0.6
2022-04-01T09:00:00,1625A,115.9848,36.4372,聊城市,区政府,颗粒物(PM10),62,73,53,35,22,106,42,66,28,45,34,27,9,0.6,0.5
2022-04-01T09:00:00,1628A,118.0062,37.3803,滨州市,市环保局,,40,40,47,16,30,133,108,102,84,10,16,25,17,1.9,1.9
2022-04-01T09:00:00,1629A,118.0018,37.3617,滨州市,第二水厂,,46,46,53,24,30,113,91,80,67,9,14,25,16,0.6,0.6
2022-04-01T09:00:00,1630A,117.9776,37.393,滨州市,北中新校,,43,43,48,14,28,116,96,78,61,11,17,30,10,0.4,0.4
2022-04-01T09:00:00,1631A,118.0414,36.8103,淄博市,人民公园,颗粒物(PM10),71,92,51,26,26,116,54,77,61,41,24,11,15,0.9,0.3
2022-04-01T09:00:00,1633A,117.8525,36.4847,淄博市,双山,细颗粒物(PM2.5),58,61,59,41,34,107,73,38,36,24,33,6,10,0.7,0.7
2022-04-01T09:00:00,1634A,117.9592,36.6331,淄博市,气象站,颗粒物(PM10),65,79,61,36,31,113,63,92,46,35,30,16,17,0.8,0.7
2022-04-01T09:00:00,1635A,118.3092,36.8194,淄博市,莆田园,颗粒物(PM10),54,58,45,22,27,121,82,94,75,17,18,7,12,1.0,0.5
2022-04-01T09:00:00,1637A,117.558,34.8438,枣庄市,市中区政府,颗粒物(PM10),52,53,65,12,29,119,96,86,86,10,17,4,14,0.6,0.7
2022-04-01T09:00:00,1638A,117.2852,34.7837,枣庄市,薛城环保局,颗粒物(PM10),57,63,67,17,33,116,87,79,79,15,23,7,15,0.3,0.3
2022-04-01T09:00:00,1639A,117.5852,34.7745,枣庄市,峄城区政府,颗粒物(PM10),53,56,62,22,29,118,91,85,83,22,26,13,13,0.3,0.4
2022-04-01T09:00:00,1640A,117.7276,34.5578,枣庄市,台儿庄区环保局,颗粒物(PM10),59,68,55,39,31,109,73,64,64,23,26,10,9,0.7,0.6
2022-04-01T09:00:00,1641A,117.4518,35.0992,枣庄市,山亭区环保局,,36,36,47,20,25,116,96,89,89,11,17,31,16,0.5,0.6
2022-04-01T09:00:00,1642A,121.2514,37.5639,烟台市,开发区,,,36,30,17,12,106,77,94,76,12,11,,7,0.1,0.1
2022-04-01T09:00:00,1643A,121.3719,37.5433,烟台市,轴承厂,,41,41,30,16,18,102,74,84,73,20,16,6,5,0.7,0.6
2022-04-01T09:00:00,1644A,121.3181,37.5436,烟台市,西郊化工站,,,46,32,,,101,76,91,78,17,16,7,8,0.2,0.2
2022-04-01T09:00:00,1645A,121.4478,37.4822,烟台市,莱山环保局,,34,34,27,12,11,116,88,88,84,9,9,5,6,0.3,0.3
2022-04-01T09:00:00,1646A,121.2611,37.4967,烟台市,福山环保局,,44,44,34,12,11,117,93,102,87,12,11,5,6,0.9,0.9
2022-04-01T09:00:00,1650A,119.1437,36.7023,潍坊市,环保局,,41,41,45,23,29,138,91,96,70,20,20,11,8,0.7,0.7
2022-04-01T09:00:00,1653A,116.6251,35.4302,济宁市,火炬城,颗粒物(PM10),55,60,44,29,18,111,75,66,62,22,22,10,9,0.5,0.6
2022-04-01T09:00:00,1655A,116.5491,35.4042,济宁市,电化厂,细颗粒物(PM2.5),58,58,43,41,25,107,72,74,69,26,23,10,7,0.7,0.6
2022-04-01T09:00:00,1656A,117.1437,36.1937,泰安市,监测站,颗粒物(PM10),53,56,39,31,21,109,90,84,76,15,10,23,12,0.9,0.7
2022-04-01T09:00:00,1657A,117.0885,36.2017,泰安市,人口学校,颗粒物(PM10),56,61,44,31,23,96,80,72,67,11,11,13,6,0.6,0.4
2022-04-01T09:00:00,1658A,117.1089,36.1758,泰安市,电力学校,,48,48,40,25,24,96,82,72,60,10,13,18,19,0.5,0.4
2022-04-01T09:00:00,1659A,119.471,35.4209,日照市,监测站,,39,39,40,12,21,97,78,78,74,8,12,4,5,0.3,0.3
2022-04-01T09:00:00,1660A,119.523,35.4216,日照市,市政府广场,,31,31,39,12,21,107,91,94,83,6,11,4,6,0.4,0.5
2022-04-01T09:00:00,1661A,119.5587,35.4044,日照市,港务局,,31,27,34,9,18,118,98,101,97,1,6,3,5,0.5,0.5
2022-04-01T09:00:00,1662A,122.1214,37.4236,威海市,华夏技校,,44,44,30,19,23,118,86,83,82,9,11,3,4,0.4,0.4
2022-04-01T09:00:00,1663A,122.0508,37.5236,威海市,山大分校,,29,29,27,12,16,109,80,80,78,14,14,4,4,0.2,0.2
2022-04-01T09:00:00,1664A,122.1067,37.5072,威海市,市监测站,,34,34,31,11,18,108,84,80,80,11,13,6,6,0.4,0.4
2022-04-01T09:00:00,1666A,118.6614,37.4309,东营市,市环保局,,44,44,40,22,24,123,75,91,55,31,19,13,8,0.5,0.4
2022-04-01T09:00:00,1669A,113.5824,24.7733,韶关市,市八中,,21,18,25,2,14,107,67,83,74,13,12,8,14,0.5,0.7
2022-04-01T09:00:00,1671A,113.5917,24.7972,韶关市,园林处,,21,5,24,11,21,101,65,79,70,6,6,8,14,0.7,0.8
2022-04-01T09:00:00,1672A,113.6735,24.7791,韶关市,韶关学院,,20,7,21,6,15,111,62,76,69,11,11,7,14,0.4,0.6
2022-04-01T09:00:00,1673A,113.5971,24.6863,韶关市,曲江监测站,,22,13,25,3,15,125,68,80,70,10,15,7,14,0.4,0.7
2022-04-01T09:00:00,1674A,116.6794,23.3667,汕头市,金平子站,颗粒物(PM10),52,53,48,8,12,118,94,115,105,16,13,11,9,0.7,0.6
2022-04-01T09:00:00,1675A,116.7244,23.3633,汕头市,龙湖子站,,42,42,39,7,12,120,90,106,99,21,18,8,7,0.4,0.4
2022-04-01T09:00:00,1676A,116.7258,23.2775,汕头市,濠江子站,,41,41,33,9,12,127,97,109,102,15,12,10,9,0.5,0.6
2022-04-01T09:00:00,1677A,116.7519,23.4714,汕头市,澄海子站,,42,42,38,12,17,114,78,103,90,20,16,7,7,0.3,0.4
2022-04-01T09:00:00,1678A,116.6092,23.2539,汕头市,潮阳子站,,45,45,37,19,24,130,95,116,104,19,12,11,11,0.4,0.5
2022-04-01T09:00:00,1680A,110.3539,21.2706,湛江市,湛江影剧院,,13,2,24,4,15,97,40,77,37,10,9,6,8,0.7,0.6
2022-04-01T09:00:00,1681A,110.3928,21.2228,湛江市,市环境监测站,,13,8,22,6,16,98,41,81,44,11,10,6,6,0.7,0.5
2022-04-01T09:00:00,1682A,110.4019,21.1997,湛江市,环保局宿舍,,17,17,24,7,14,96,37,79,45,10,8,5,5,0.7,0.5
2022-04-01T09:00:00,1683A,110.4111,21.2028,湛江市,霞山游泳场,,13,5,23,9,17,91,39,78,43,10,9,8,7,0.6,0.5
2022-04-01T09:00:00,1684A,110.3316,21.2679,湛江市,麻章区环保局,,12,9,26,6,16,98,38,76,34,8,7,8,7,0.8,0.6
2022-04-01T09:00:00,1685A,110.4558,21.2567,湛江市,坡头区环保局,,13,8,23,8,14,100,40,89,48,10,8,5,5,0.7,0.6
2022-04-01T09:00:00,1686A,111.0286,21.4688,茂名市,电白南海,,25,22,29,17,14,108,24,73,55,13,12,9,6,0.8,0.6
2022-04-01T09:00:00,1687A,110.9294,21.6533,茂名市,茂石化七小,,13,12,25,9,16,95,30,24,24,15,14,7,11,0.8,0.6
2022-04-01T09:00:00,1688A,110.9107,21.6687,茂名市,健康路,,10,2,18,1,11,91,32,26,26,9,9,18,19,0.9,0.7
2022-04-01T09:00:00,1689A,110.8592,21.6828,茂名市,高岭,,12,5,22,0,6,64,36,28,28,8,9,15,17,0.8,0.6
2022-04-01T09:00:00,1690A,116.1231,24.3284,梅州市,梅江月梅,,20,1,22,1,11,127,62,60,60,10,12,7,8,0.5,0.5
2022-04-01T09:00:00,1691A,116.0797,24.2719,梅州市,梅县新城,,17,6,24,4,16,104,53,62,61,12,16,4,6,0.6,0.7
2022-04-01T09:00:00,1692A,116.1248,24.2654,梅州市,环境监控中心,,21,5,22,2,14,98,65,66,66,10,15,6,6,0.6,0.6
2022-04-01T09:00:00,1693A,115.3653,22.775,汕尾市,市环保局,,27,27,28,16,16,148,76,95,92,13,9,7,7,0.6,0.5
2022-04-01T09:00:00,1694A,115.3706,22.7898,汕尾市,市政府,,40,40,29,11,14,156,72,96,90,18,8,6,6,0.7,0.6
2022-04-01T09:00:00,1695A,115.3622,22.7925,汕尾市,新城中学,,44,44,29,16,19,152,81,95,91,10,7,5,5,0.6,0.6
2022-04-01T09:00:00,1696A,114.6778,23.7569,河源市,源西(对照点),,,,16,6,8,85,66,76,70,7,9,2,2,0.7,0.7
2022-04-01T09:00:00,1697A,114.6944,23.7586,河源市,东埔,,20,0,15,10,6,87,64,80,72,11,10,3,3,0.7,0.7
2022-04-01T09:00:00,1698A,114.6892,23.7233,河源市,老城,,21,0,15,2,7,83,67,78,73,9,9,3,3,0.8,0.7
2022-04-01T09:00:00,1699A,111.9797,21.8593,阳江市,鸳鸯湖(对照点),,12,12,33,7,21,126,38,30,30,16,17,5,6,0.9,0.8
2022-04-01T09:00:00,1701A,111.9491,21.8658,阳江市,马南垌,,22,22,39,3,23,109,40,33,33,16,20,4,5,0.9,0.8
2022-04-01T09:00:00,1702A,113.0426,23.691,清远市,环保大楼(对照点),,23,4,20,2,15,152,71,66,66,8,13,7,7,0.7,0.8
2022-04-01T09:00:00,1703A,113.0208,23.7106,清远市,凤城街办,,20,3,18,2,12,139,62,62,60,13,14,7,7,0.8,0.8
2022-04-01T09:00:00,1705A,116.6367,23.6719,潮州市,西园路(对照点),,24,7,35,15,23,137,74,98,87,15,14,7,8,0.6,0.7
2022-04-01T09:00:00,1706A,116.6447,23.6706,潮州市,档案局,,29,29,37,8,19,134,69,95,82,15,13,8,9,0.8,0.7
2022-04-01T09:00:00,1708A,116.3701,23.5345,揭阳市,新兴,,30,30,46,16,25,147,80,92,82,10,13,9,11,0.6,0.8
2022-04-01T09:00:00,1709A,116.3264,23.5443,揭阳市,西马,,48,48,49,19,22,156,77,93,83,8,9,6,8,0.6,0.7
2022-04-01T09:00:00,1710A,116.3611,23.5626,揭阳市,东兴,,29,29,52,12,19,157,79,95,84,10,12,6,8,0.6,0.8
2022-04-01T09:00:00,1711A,116.4151,23.5294,揭阳市,渔湖,,35,35,32,20,23,142,74,90,78,12,12,10,10,0.5,0.6
2022-04-01T09:00:00,1712A,112.0392,22.9169,云浮市,新市府(对照点),,18,6,33,3,22,138,55,62,61,14,14,6,7,0.7,0.7
2022-04-01T09:00:00,1714A,112.0539,22.9539,云浮市,牧羊,,20,1,43,1,25,118,62,59,59,7,17,7,10,0.5,0.6
2022-04-01T09:00:00,1715A,102.575,24.3711,玉溪市,东风水库,,,,29,0,17,119,79,63,63,6,10,5,6,0.5,0.7
2022-04-01T09:00:00,1718A,115.4208,35.2464,菏泽市,气象局,颗粒物(PM10),70,90,69,35,38,112,61,69,50,37,32,18,8,0.6,0.5
2022-04-01T09:00:00,1719A,115.4747,35.2375,菏泽市,市政协,颗粒物(PM10),67,83,59,35,34,108,60,69,49,33,27,25,10,0.6,0.5
2022-04-01T09:00:00,1721A,113.3819,40.1097,大同市,果树场(对照点),颗粒物(PM10),55,59,56,31,21,105,57,18,18,23,22,11,11,0.4,0.6
2022-04-01T09:00:00,1723A,113.2994,40.0758,大同市,云冈宾馆,颗粒物(PM10),64,78,54,27,15,101,40,9,9,37,28,11,9,0.7,0.5
2022-04-01T09:00:00,1724A,113.3444,40.0917,大同市,大同大学,颗粒物(PM10),70,90,43,31,18,96,56,30,20,26,24,13,14,0.5,0.4
2022-04-01T09:00:00,1725A,113.2661,40.1269,大同市,安家小村,颗粒物(PM10),85,120,65,38,15,97,49,12,12,30,28,20,15,0.7,0.7
2022-04-01T09:00:00,1726A,113.2711,40.0844,大同市,教育学院,颗粒物(PM10),75,100,51,42,17,96,46,46,13,36,28,14,14,0.6,0.6
2022-04-01T09:00:00,1727A,113.1147,36.1547,长治市,清华站,颗粒物(PM10),61,72,63,31,44,96,72,53,40,24,26,18,13,1.0,0.9
2022-04-01T09:00:00,1728A,113.1031,36.1989,长治市,监测站,颗粒物(PM10),61,71,58,36,42,101,57,68,42,26,18,9,9,0.8,0.7
2022-04-01T09:00:00,1730A,113.0886,36.2125,长治市,审计局,细颗粒物(PM2.5),64,74,54,46,39,98,47,43,41,27,18,30,21,0.9,0.7
2022-04-01T09:00:00,1731A,113.0844,36.1856,长治市,长治八中,细颗粒物(PM2.5),77,98,67,56,38,95,60,55,46,24,21,20,10,0.8,0.8
2022-04-01T09:00:00,1733A,111.5531,36.0783,临汾市,临钢医院,细颗粒物(PM2.5),78,61,57,57,43,112,45,42,42,33,33,9,10,0.7,0.6
2022-04-01T09:00:00,1734A,111.5028,36.0714,临汾市,技工学校,细颗粒物(PM2.5),53,49,59,37,38,115,63,48,48,19,26,13,14,0.6,0.7
2022-04-01T09:00:00,1736A,111.5018,36.0855,临汾市,市委,细颗粒物(PM2.5),62,47,55,44,36,106,58,45,45,24,30,11,12,0.6,0.7
2022-04-01T09:00:00,1738A,113.5758,37.8572,阳泉市,市中心,颗粒物(PM10),73,95,58,36,22,101,32,63,30,57,34,16,11,0.8,0.6
2022-04-01T09:00:00,1739A,113.4894,37.8731,阳泉市,赛鱼,,39,39,45,24,25,102,36,53,11,49,39,15,13,0.5,0.4
2022-04-01T09:00:00,1740A,113.5819,37.8486,阳泉市,南庄,颗粒物(PM10),65,79,40,27,25,103,38,72,44,50,28,20,11,0.8,0.6
2022-04-01T09:00:00,1742A,113.5614,37.8703,阳泉市,平坦,颗粒物(PM10),85,120,68,39,23,101,32,55,31,55,33,16,11,0.7,0.6
2022-04-01T09:00:00,1743A,113.5158,37.8392,阳泉市,大阳泉,,33,33,19,21,22,107,72,80,73,18,16,14,8,0.5,0.4
2022-04-01T09:00:00,1744A,118.9233,42.2816,赤峰市,松山一中,,40,40,24,23,9,95,46,54,40,29,21,18,13,0.7,0.5
2022-04-01T09:00:00,1745A,118.9576,42.2728,赤峰市,哈达街,,29,29,20,9,11,91,51,59,47,23,17,11,11,0.7,0.6
2022-04-01T09:00:00,1746A,118.8788,42.2554,赤峰市,天义路,,33,33,18,13,7,90,52,72,44,26,25,14,11,0.6,0.5
2022-04-01T09:00:00,1748A,123.044,41.1196,鞍山市,深沟寺,细颗粒物(PM2.5),72,63,33,52,22,108,32,59,44,64,15,55,9,3.7,0.9
2022-04-01T09:00:00,1749A,123.011,41.0931,鞍山市,太阳城,细颗粒物(PM2.5),54,54,31,38,21,104,51,57,40,37,20,25,9,1.8,0.6
2022-04-01T09:00:00,1750A,123.0485,41.1442,鞍山市,太平,细颗粒物(PM2.5),77,94,40,56,24,100,25,38,28,77,25,61,13,4.0,0.7
2022-04-01T09:00:00,1751A,122.9642,41.0971,鞍山市,铁西三道街,颗粒物(PM10),71,91,50,48,27,102,52,31,28,34,36,25,19,1.8,1.4
2022-04-01T09:00:00,1752A,122.9341,41.0833,鞍山市,铁西工业园区,颗粒物(PM10),57,63,51,37,31,110,64,41,32,25,31,26,18,1.8,1
2022-04-01T09:00:00,1753A,123.022,41.0821,鞍山市,明达新区,颗粒物(PM10),65,80,36,41,21,99,50,50,34,37,20,30,10,2.0,0.8
2022-04-01T09:00:00,1754A,123.1289,41.0228,鞍山市,千山(对照点),,25,25,23,17,16,95,67,36,36,20,14,20,11,0.9,0.6
2022-04-01T09:00:00,1755A,123.7977,41.8491,抚顺市,望花区,细颗粒物(PM2.5),73,93,44,53,28,111,49,51,29,30,12,21,13,1.0,0.7
2022-04-01T09:00:00,1756A,123.9161,41.8822,抚顺市,顺城区,颗粒物(PM10),59,67,45,18,22,99,42,32,29,32,16,8,4,1.3,0.8
2022-04-01T09:00:00,1757A,124.0436,41.8611,抚顺市,东洲区,细颗粒物(PM2.5),57,52,36,40,22,101,44,38,38,24,14,14,8,1.0,0.6
2022-04-01T09:00:00,1758A,123.9247,41.8642,抚顺市,新抚区,细颗粒物(PM2.5),82,64,48,60,33,96,40,19,19,29,24,14,7,0.8,0.4
2022-04-01T09:00:00,1759A,124.0972,41.8961,抚顺市,大伙房水库,,46,46,29,26,16,114,69,66,52,4,5,8,8,0.6,0.4
2022-04-01T09:00:00,1760A,123.7086,41.8391,抚顺市,沈抚新城,颗粒物(PM10),69,87,39,40,24,106,51,38,28,21,13,22,7,1.0,0.8
2022-04-01T09:00:00,1761A,123.8275,41.3064,本溪市,大峪,颗粒物(PM10),73,96,27,45,18,107,30,63,32,46,17,29,13,2.1,0.6
2022-04-01T09:00:00,1762A,123.7567,41.3325,本溪市,溪湖,细颗粒物(PM2.5),108,150,46,81,24,102,22,37,26,66,22,131,14,4.4,0.9
2022-04-01T09:00:00,1763A,123.7169,41.3094,本溪市,彩屯,细颗粒物(PM2.5),207,206,53,157,36,106,24,48,35,70,19,88,12,6.5,1
2022-04-01T09:00:00,1764A,123.7669,41.2864,本溪市,东明,颗粒物(PM10),73,95,36,51,21,102,22,30,23,58,24,39,9,3.1,0.7
2022-04-01T09:00:00,1765A,123.7992,41.2664,本溪市,新立屯,颗粒物(PM10),53,56,30,35,18,106,39,46,33,47,19,34,11,2.6,0.9
2022-04-01T09:00:00,1766A,123.8142,41.3472,本溪市,威宁,颗粒物(PM10),86,121,43,56,22,100,35,22,21,28,19,6,5,1.7,0.6
2022-04-01T09:00:00,1767A,121.1115,41.0879,锦州市,南山,,36,36,39,14,20,83,64,55,46,7,14,13,12,0.4,0.4
2022-04-01T09:00:00,1768A,121.0533,40.8434,锦州市,开发区,颗粒物(PM10),62,74,56,34,24,92,66,61,58,26,23,28,26,1.1,0.7
2022-04-01T09:00:00,1769A,121.1836,41.1119,锦州市,百股街道,细颗粒物(PM2.5),67,69,44,48,26,98,41,45,42,44,21,14,8,0.8,0.8
2022-04-01T09:00:00,1770A,121.1178,41.1222,锦州市,天安街道,,43,43,45,21,21,98,68,83,40,16,22,25,15,0.4,0.5
2022-04-01T09:00:00,1771A,121.1303,41.1386,锦州市,北湖公园,,48,48,42,20,20,93,59,77,49,25,18,16,13,0.6,0.8
2022-04-01T09:00:00,1773A,126.5844,43.8358,吉林市,东局子,,34,34,25,23,16,105,84,72,72,9,10,7,6,0.6,0.6
2022-04-01T09:00:00,1774A,126.5052,43.8245,吉林市,电力学院,,29,26,24,15,16,120,90,62,62,9,8,11,8,0.5,0.4
2022-04-01T09:00:00,1775A,126.6133,43.8972,吉林市,江北,,35,35,29,19,17,104,80,62,62,12,10,13,9,0.6,0.7
2022-04-01T09:00:00,1776A,126.555,43.8306,吉林市,江南公园,,32,28,20,22,16,102,80,64,61,10,10,8,6,0.5,0.5
2022-04-01T09:00:00,1778A,126.7061,43.7133,吉林市,丰满(对照点),,24,15,18,11,15,104,74,68,62,2,3,5,6,0.7,0.6
2022-04-01T09:00:00,1779A,123.9305,47.3636,齐齐哈尔市,安居小区,,42,42,29,13,16,97,74,69,66,12,11,3,2,0.6,0.6
2022-04-01T09:00:00,1780A,123.9488,47.3386,齐齐哈尔市,中心广场,,32,32,21,20,9,90,65,72,69,12,5,5,4,0.5,0.5
2022-04-01T09:00:00,1781A,123.9483,47.3227,齐齐哈尔市,农牧车辆厂,,41,41,31,13,12,92,68,70,64,14,12,2,10,0.5,0.5
2022-04-01T09:00:00,1783A,123.945,47.2988,齐齐哈尔市,市环境监测站,,30,30,26,14,16,91,69,62,61,13,10,4,3,0.5,0.4
2022-04-01T09:00:00,1784A,129.61,44.561,牡丹江市,环保大楼,,,30,25,,9,102,83,74,66,7,6,3,2,0.3,0.3
2022-04-01T09:00:00,1785A,129.6115,44.5782,牡丹江市,文化广场,,,12,19,17,18,102,82,80,68,8,7,,3,0.2,0.2
2022-04-01T09:00:00,1786A,129.5904,44.5963,牡丹江市,第一医院,,25,17,24,8,20,100,80,72,70,8,6,7,4,0.5,0.4
2022-04-01T09:00:00,1787A,129.6364,44.6075,牡丹江市,机车工厂,,26,16,21,7,10,102,82,69,54,8,9,7,5,0.2,0.2
2022-04-01T09:00:00,1788A,129.6386,44.5462,牡丹江市,第一中学,,28,19,21,11,13,104,88,77,60,6,6,2,2,0.2,0.2
2022-04-01T09:00:00,1789A,124.81117,46.03138,大庆市,大同区,,39,26,31,27,25,104,65,77,56,5,5,3,3,0.6,0.6
2022-04-01T09:00:00,1790A,125.129,46.533,大庆市,龙凤区,,43,43,35,17,19,86,58,61,56,28,17,24,10,0.3,0.2
2022-04-01T09:00:00,1791A,124.902,46.408,大庆市,红岗区,,22,21,20,15,12,93,64,66,61,6,6,5,3,0.5,0.4
2022-04-01T09:00:00,1792A,125.153,46.586,大庆市,萨尔图区,,44,44,33,28,28,91,63,65,60,23,20,9,8,0.6,0.5
2022-04-01T09:00:00,1793A,124.9042,46.6215,大庆市,让胡路区,,41,41,32,25,23,92,57,56,51,16,13,10,5,0.8,0.7
2022-04-01T09:00:00,1794A,118.3606,31.3519,芜湖市,监测站,,41,41,48,13,28,87,76,67,66,36,32,11,10,0.5,0.6
2022-04-01T09:00:00,1795A,118.3714,31.4134,芜湖市,科创中心,,50,50,48,19,28,77,72,58,57,36,35,9,8,0.6,0.8
2022-04-01T09:00:00,1796A,118.3673,31.3131,芜湖市,四水厂,,41,41,49,12,25,85,81,73,73,31,26,8,6,0.5,0.5
2022-04-01T09:00:00,1798A,118.5092,31.6837,马鞍山市,湖东路四小,,38,37,37,26,32,79,62,73,64,34,26,14,9,0.6,0.6
2022-04-01T09:00:00,1799A,118.5024,31.6449,马鞍山市,开发区,,48,48,38,11,15,77,54,77,64,41,30,12,8,0.7,0.7
2022-04-01T09:00:00,1800A,118.5228,31.7231,马鞍山市,慈湖,颗粒物(PM10),52,54,45,33,37,81,42,80,42,49,39,14,7,0.7,0.6
2022-04-01T09:00:00,1802A,118.6245,31.7241,马鞍山市,濮塘(对照点),,38,38,45,17,26,73,60,55,50,19,13,8,5,0.5,0.5
2022-04-01T09:00:00,1803A,115.9872,29.6815,九江市,十里,,46,44,51,32,38,101,69,80,68,21,16,8,6,0.6,0.6
2022-04-01T09:00:00,1804A,115.9584,29.7046,九江市,茅山头,,48,28,46,33,38,99,69,77,65,20,16,10,5,0.4,0.4
2022-04-01T09:00:00,1805A,115.9877,29.7295,九江市,西园,细颗粒物(PM2.5),53,44,55,37,40,85,56,69,55,30,19,11,7,0.6,0.7
2022-04-01T09:00:00,1806A,116.0172,29.6547,九江市,五七二七厂,,49,49,51,28,31,99,72,80,71,16,11,6,5,0.7,0.7
2022-04-01T09:00:00,1808A,115.9114,29.6038,九江市,综合工业园,颗粒物(PM10),53,55,53,31,40,105,72,78,67,19,17,8,5,0.6,0.6
2022-04-01T09:00:00,1809A,116.0721,29.7535,九江市,石化总厂,颗粒物(PM10),51,51,58,33,43,88,68,72,62,20,15,6,3,0.4,0.4
2022-04-01T09:00:00,1810A,115.9773,29.5698,九江市,庐山气象台(对照点),,33,26,13,23,13,113,88,85,76,5,6,1,8,0.4,0.5
2022-04-01T09:00:00,1812A,112.3931,34.6516,洛阳市,市委党校,细颗粒物(PM2.5),79,103,80,58,47,98,27,48,24,49,32,12,6,0.9,0.8
2022-04-01T09:00:00,1814A,112.4657,34.6871,洛阳市,豫西宾馆,细颗粒物(PM2.5),67,58,57,48,49,101,43,46,34,29,22,13,6,0.8,0.8
2022-04-01T09:00:00,1815A,112.494,34.6886,洛阳市,河南林校,颗粒物(PM10),69,88,72,43,39,116,59,46,40,33,31,12,4,0.8,0.8
2022-04-01T09:00:00,1816A,112.3844,34.623,洛阳市,开发区管委会,细颗粒物(PM2.5),73,75,71,53,49,103,36,38,23,49,33,6,3,0.5,0.6
2022-04-01T09:00:00,1817A,112.4267,34.6258,洛阳市,市委新办公区,细颗粒物(PM2.5),73,87,77,53,46,102,39,32,28,42,29,7,4,0.6,0.6
2022-04-01T09:00:00,1818A,114.4839,36.0621,安阳市,棉研所(对照点),颗粒物(PM10),55,59,56,23,27,103,42,18,18,30,45,12,6,0.4,0.4
2022-04-01T09:00:00,1819A,114.3551,36.1017,安阳市,红庙街,,49,49,56,22,28,101,53,18,18,35,39,10,7,0.4,0.4
2022-04-01T09:00:00,1820A,114.361,36.0681,安阳市,银杏小区,,46,46,59,25,32,103,57,19,19,32,41,8,5,0.4,0.5
2022-04-01T09:00:00,1824A,114.3389,34.7781,开封市,肿瘤医院,细颗粒物(PM2.5),83,84,54,61,39,105,57,56,50,29,19,17,10,0.8,0.6
2022-04-01T09:00:00,1826A,114.2885,34.7965,开封市,世纪星幼儿园,细颗粒物(PM2.5),70,60,46,51,35,103,60,72,59,33,20,19,11,0.8,0.6
2022-04-01T09:00:00,1828A,113.2269,35.2127,焦作市,市环保局,颗粒物(PM10),65,79,79,46,57,103,49,49,45,26,20,8,4,0.7,0.7
2022-04-01T09:00:00,1829A,113.2467,35.176,焦作市,高新区政府,细颗粒物(PM2.5),85,90,83,63,59,104,41,14,14,33,36,18,8,0.9,0.7
2022-04-01T09:00:00,1830A,113.1987,35.2703,焦作市,影视城(对照点),,46,34,69,32,52,95,76,79,74,4,6,8,8,0.7,0.8
2022-04-01T09:00:00,1832A,113.3257,33.742,平顶山市,新华旅馆,"颗粒物(PM10),细颗粒物(PM2.5)",62,73,87,44,48,114,77,61,61,20,20,9,5,0.3,0.3
2022-04-01T09:00:00,1833A,113.2919,33.737,平顶山市,规划设计院,颗粒物(PM10),54,58,74,28,36,118,86,67,67,18,18,8,4,0.3,0.3
2022-04-01T09:00:00,1834A,113.182,33.774,平顶山市,平顶山工学院,颗粒物(PM10),61,72,74,41,46,111,66,64,64,24,14,18,7,0.5,0.5
2022-04-01T09:00:00,1835A,111.1922,34.7752,三门峡市,市政府,,45,45,80,31,81,76,73,71,71,22,21,13,7,0.6,0.9
2022-04-01T09:00:00,1836A,111.1587,34.7942,三门峡市,开发区,细颗粒物(PM2.5),52,48,83,36,78,72,65,69,67,21,20,11,8,0.5,0.8
2022-04-01T09:00:00,1838A,111.143,34.7955,三门峡市,风景区(对照点),,50,50,78,34,76,69,66,64,64,20,22,11,7,0.5,0.9
2022-04-01T09:00:00,1840A,111.2992,30.6981,宜昌市,白龙岗,细颗粒物(PM2.5),70,68,62,51,43,97,17,60,32,40,30,5,5,0.7,0.5
2022-04-01T09:00:00,1841A,111.3549,30.6465,宜昌市,伍家岗,细颗粒物(PM2.5),64,68,59,46,41,107,20,29,21,36,23,6,5,0.8,0.7
2022-04-01T09:00:00,1842A,111.2628,30.6961,宜昌市,点军区,颗粒物(PM10),60,70,73,41,42,101,24,31,25,20,20,7,6,0.9,0.8
2022-04-01T09:00:00,1843A,111.3275,30.7819,宜昌市,夷陵区,,,62,52,39,37,100,55,84,68,,17,4,3,0.6,0.5
2022-04-01T09:00:00,1844A,112.2494,30.3197,荆州市,市图书馆,"颗粒物(PM10),细颗粒物(PM2.5)",62,73,74,44,40,94,61,68,62,19,19,7,8,0.8,0.8
2022-04-01T09:00:00,1845A,112.2008,30.3544,荆州市,市委党校,细颗粒物(PM2.5),72,69,74,52,52,95,66,67,64,16,16,6,7,0.7,0.7
2022-04-01T09:00:00,1847A,113.1094,29.3578,岳阳市,南湖风景区,细颗粒物(PM2.5),64,64,58,46,37,102,35,47,38,21,18,6,7,0.9,0.8
2022-04-01T09:00:00,1848A,113.1493,29.4251,岳阳市,城陵矶,细颗粒物(PM2.5),67,58,51,48,38,103,34,42,39,24,23,6,5,0.8,0.6
2022-04-01T09:00:00,1849A,113.1497,29.3575,岳阳市,开发区,颗粒物(PM10),53,55,48,32,30,100,36,47,38,24,18,4,5,0.5,0.4
2022-04-01T09:00:00,1850A,113.2621,29.4758,岳阳市,云溪区,细颗粒物(PM2.5),60,61,51,43,35,104,37,44,37,19,15,8,7,0.8,0.6
2022-04-01T09:00:00,1851A,112.9943,29.4402,岳阳市,君山区,细颗粒物(PM2.5),78,73,58,57,43,106,38,57,43,17,17,3,3,0.8,0.7
2022-04-01T09:00:00,1852A,113.2117,29.355,岳阳市,金凤水库(对照点),,,,50,,36,96,27,42,34,19,12,4,3,0.6,0.4
2022-04-01T09:00:00,1854A,111.6975,28.9703,常德市,市二中,细颗粒物(PM2.5),57,55,57,40,38,102,59,63,62,10,8,5,5,0.9,0.8
2022-04-01T09:00:00,1857A,111.7158,29.1456,常德市,白鹤山(对照点),细颗粒物(PM2.5),60,64,58,43,35,112,68,75,74,10,10,1,2,0.8,0.7
2022-04-01T09:00:00,1858A,110.5319,29.1217,张家界市,永定新区,颗粒物(PM10),53,56,50,33,31,113,65,83,69,16,15,2,2,0.7,0.6
2022-04-01T09:00:00,1859A,110.4697,29.1242,张家界市,电业局,细颗粒物(PM2.5),64,56,40,46,26,97,69,74,69,14,14,5,5,0.3,0.2
2022-04-01T09:00:00,1862A,110.4144,25.3167,桂林市,电子科大尧山校区(对照点),,32,10,8,4,5,102,102,97,97,4,5,5,5,0.4,0.5
2022-04-01T09:00:00,1863A,110.2819,25.2697,桂林市,监测站,,28,11,11,4,6,89,89,86,86,8,8,6,6,0.5,0.6
2022-04-01T09:00:00,1864A,110.3089,25.2708,桂林市,龙隐路小学,,30,8,9,6,6,93,93,88,88,6,7,5,5,0.6,0.7
2022-04-01T09:00:00,1865A,110.2869,25.2178,桂林市,八中,,29,22,8,4,4,92,92,88,88,5,6,5,5,0.7,0.8
2022-04-01T09:00:00,1866A,109.2262,21.588,北海市,牛尾岭水库(对照点),,,0,22,,15,78,54,48,48,7,7,3,3,0.6,0.6
2022-04-01T09:00:00,1867A,109.1436,21.4086,北海市,海滩公园,,21,9,29,5,18,124,65,56,56,8,8,4,5,0.6,0.7
2022-04-01T09:00:00,1868A,109.0981,21.4661,北海市,新市环保局,,20,3,29,9,28,115,62,54,54,6,9,4,5,0.6,0.7
2022-04-01T09:00:00,1869A,109.1778,21.5233,北海市,北海工业园,,19,10,33,2,24,126,60,53,53,8,9,4,7,0.7,0.8
2022-04-01T09:00:00,1870A,109.4856,24.3895,柳州市,柳东小学,,25,22,15,11,13,81,80,80,80,4,5,5,5,0.6,0.7
2022-04-01T09:00:00,1871A,109.4157,24.3277,柳州市,环保监测站,,26,26,20,7,10,79,79,74,74,13,14,6,13,0.4,0.5
2022-04-01T09:00:00,1872A,109.389,24.341,柳州市,河西水厂,颗粒物(PM10),51,51,42,33,32,147,37,22,22,52,50,48,47,2.0,2.4
2022-04-01T09:00:00,1873A,109.4311,24.2921,柳州市,市四中,,25,19,15,14,11,77,77,74,74,8,8,6,8,0.6,0.6
2022-04-01T09:00:00,1874A,109.4006,24.3631,柳州市,市九中,,35,35,23,21,15,72,65,72,66,21,18,31,29,0.3,0.6
2022-04-01T09:00:00,1875A,109.4958,24.3134,柳州市,古亭山,,25,21,13,4,7,81,79,80,80,6,6,6,6,0.5,0.5
2022-04-01T09:00:00,1876A,109.5078,18.2489,三亚市,河东子站,,13,13,20,8,11,59,39,47,42,5,5,3,3,0.4,0.4
2022-04-01T09:00:00,1877A,109.4964,18.2681,三亚市,河西子站,,15,15,20,8,10,64,33,48,39,4,4,5,5,0.4,0.3
2022-04-01T09:00:00,1878A,104.7778,31.4741,绵阳市,富乐山,,28,28,37,14,19,85,8,26,13,32,20,5,6,0.8,0.6
2022-04-01T09:00:00,1879A,104.7563,31.4535,绵阳市,市人大,,32,32,43,16,21,63,7,46,18,42,38,6,6,1.0,0.7
2022-04-01T09:00:00,1880A,104.6697,31.4668,绵阳市,高新区自来水公司,,43,43,47,26,24,71,5,26,17,42,29,8,6,1.0,0.7
2022-04-01T09:00:00,1881A,104.7287,31.5075,绵阳市,三水厂,,35,32,43,24,23,78,9,12,9,31,32,2,2,0.8,0.7
2022-04-01T09:00:00,1882A,104.563,28.793,宜宾市,石马中学(对照点),,23,22,30,16,21,82,67,66,66,13,10,5,5,0.5,0.5
2022-04-01T09:00:00,1883A,104.6201,28.7728,宜宾市,市委,,21,21,32,14,20,79,60,65,61,27,18,5,5,0.6,0.5
2022-04-01T09:00:00,1884A,104.6055,28.793,宜宾市,宜宾四中,,22,20,29,15,21,86,66,67,66,23,16,5,5,0.6,0.5
2022-04-01T09:00:00,1885A,104.639,28.7562,宜宾市,市政府,,21,20,31,14,21,82,66,68,68,26,15,6,7,0.5,0.4
2022-04-01T09:00:00,1886A,104.5742,28.7199,宜宾市,黄金嘴,,20,20,27,14,17,83,53,68,65,24,11,7,7,0.5,0.4
2022-04-01T09:00:00,1888A,101.6891,26.571,攀枝花市,弄弄坪,,18,11,22,7,12,95,56,58,58,14,11,10,9,0.8,0.9
2022-04-01T09:00:00,1889A,101.5769,26.5928,攀枝花市,河门口,,28,28,31,15,18,106,32,33,33,40,28,37,24,2.3,1.7
2022-04-01T09:00:00,1890A,101.7169,26.585,攀枝花市,炳草岗,,16,16,23,7,11,90,46,52,50,27,17,9,7,0.7,0.7
2022-04-01T09:00:00,1891A,101.7369,26.5008,攀枝花市,仁和,,20,8,22,3,10,95,61,57,57,17,15,5,6,0.5,0.5
2022-04-01T09:00:00,1893A,105.4324,28.9634,泸州市,九狮山(对照点),,33,33,14,18,13,71,60,68,65,16,15,5,4,0.5,0.4
2022-04-01T09:00:00,1894A,105.4427,28.9063,泸州市,小市上码头,,33,33,16,20,16,71,56,70,66,25,17,10,9,0.4,0.3
2022-04-01T09:00:00,1895A,105.4241,28.8573,泸州市,兰田宪桥,,30,30,17,15,13,68,58,67,63,14,13,6,8,0.3,0.3
2022-04-01T09:00:00,1896A,105.4379,28.8833,泸州市,市环监站,,29,29,15,16,10,72,54,70,66,21,14,4,3,0.4,0.3
2022-04-01T09:00:00,1901A,104.4239,31.1208,德阳市,东山公园,,39,39,45,22,21,75,17,44,30,38,22,4,3,0.4,0.3
2022-04-01T09:00:00,1902A,104.3826,31.1317,德阳市,西小区,,47,47,49,27,21,74,13,46,36,48,24,6,6,0.7,0.4
2022-04-01T09:00:00,1904A,104.3553,31.1091,德阳市,耐火材料厂,细颗粒物(PM2.5),58,59,51,41,26,72,9,45,29,45,27,7,9,0.5,0.4
2022-04-01T09:00:00,1905A,106.056,30.8064,南充市,西山风景区(对照点),,30,25,23,21,22,104,84,103,91,14,13,3,4,0.5,0.5
2022-04-01T09:00:00,1906A,106.0789,30.8023,南充市,南充市委,,,32,33,16,17,89,56,88,79,18,9,2,2,,0.6
2022-04-01T09:00:00,1907A,106.1031,30.8217,南充市,南充炼油厂,,30,30,29,12,13,91,66,90,83,16,5,8,12,0.4,0.3
2022-04-01T09:00:00,1908A,106.1064,30.7856,南充市,高坪区监测站,,24,20,22,12,15,101,76,99,93,8,10,1,2,0.4,0.3
2022-04-01T09:00:00,1909A,106.0642,30.7636,南充市,嘉陵区环保局,,29,4,23,20,17,100,80,98,93,30,12,3,3,0.6,0.4
2022-04-01T09:00:00,1910A,106.1087,30.8388,南充市,市环境监测站,,33,24,30,23,21,84,46,84,72,29,8,4,11,0.5,0.4
2022-04-01T09:00:00,1911A,106.9222,27.6869,遵义市,丁字口,,24,21,19,16,12,96,76,90,88,25,16,8,7,0.4,0.3
2022-04-01T09:00:00,1912A,106.9242,27.7019,遵义市,凤凰山,,26,21,17,16,14,97,81,93,92,20,13,6,4,0.4,0.3
2022-04-01T09:00:00,1913A,106.8906,27.6486,遵义市,忠庄,,39,23,17,27,14,92,73,88,84,21,16,1,2,0.4,0.3
2022-04-01T09:00:00,1914A,106.9231,27.6506,遵义市,舟水桥,,26,18,17,18,18,103,70,88,88,18,19,4,5,0.2,0.2
2022-04-01T09:00:00,1915A,106.9178,27.72,遵义市,干田坝,,39,24,19,27,16,103,72,95,92,26,14,6,5,0.5,0.5
2022-04-01T09:00:00,1916A,103.7897,25.5035,曲靖市,环境监测站,,32,32,22,11,15,87,54,79,74,28,18,9,9,0.7,0.7
2022-04-01T09:00:00,1917A,103.8,25.5364,曲靖市,烟厂办公区,,25,25,19,16,13,91,64,81,80,15,11,4,5,0.7,0.7
2022-04-01T09:00:00,1918A,108.7197,34.3956,咸阳市,气象站(对照点),细颗粒物(PM2.5),169,146,120,128,44,88,25,7,7,47,70,9,10,1.0,0.7
2022-04-01T09:00:00,1919A,108.673,34.3155,咸阳市,实验中学,细颗粒物(PM2.5),155,168,122,118,50,89,22,5,5,45,61,10,8,1.1,0.8
2022-04-01T09:00:00,1920A,108.7233,34.3617,咸阳市,师范学院,细颗粒物(PM2.5),168,147,117,127,51,97,27,7,7,40,56,7,8,1.4,1
2022-04-01T09:00:00,1922A,109.0656,35.0994,铜川市,党校(对照点),颗粒物(PM10),51,51,58,30,18,101,20,14,14,40,42,7,6,0.5,0.4
2022-04-01T09:00:00,1923A,109.0697,35.0697,铜川市,王益区政府,颗粒物(PM10),56,62,60,31,19,101,28,13,13,35,33,15,9,0.6,0.4
2022-04-01T09:00:00,1924A,108.9344,34.9058,铜川市,新区管委会,颗粒物(PM10),60,69,55,41,21,103,31,41,37,34,26,8,9,0.6,0.3
2022-04-01T09:00:00,1926A,109.4131,36.6275,延安市,枣园(对照点),,46,46,46,17,11,115,27,12,12,23,31,3,2,0.2,0.2
2022-04-01T09:00:00,1927A,109.4761,36.6028,延安市,延大医附院,颗粒物(PM10),53,55,45,11,14,120,22,9,9,29,33,4,4,0.5,0.5
2022-04-01T09:00:00,1929A,109.5056,36.6106,延安市,百米大道,颗粒物(PM10),54,58,47,17,16,106,22,7,7,35,38,3,3,0.2,0.2
2022-04-01T09:00:00,1930A,107.185,34.3063,宝鸡市,庙沟村(对照点),颗粒物(PM10),55,59,75,27,32,96,54,55,55,13,22,4,6,0.5,0.5
2022-04-01T09:00:00,1931A,107.0708,34.3017,宝鸡市,竹园沟,,38,34,72,26,32,96,42,46,38,18,21,2,4,0.4,0.4
2022-04-01T09:00:00,1932A,107.1906,34.3672,宝鸡市,三陆医院,颗粒物(PM10),75,100,96,49,47,90,25,14,14,40,44,13,12,0.7,0.6
2022-04-01T09:00:00,1933A,107.1431,34.3547,宝鸡市,监测站,颗粒物(PM10),58,65,77,35,38,89,33,29,27,27,33,3,5,0.7,0.6
2022-04-01T09:00:00,1934A,107.1186,34.3739,宝鸡市,技工学校,颗粒物(PM10),69,88,92,39,35,93,31,41,32,27,28,16,8,0.7,0.5
2022-04-01T09:00:00,1935A,107.3906,34.3528,宝鸡市,陈仓区环保局家属楼,颗粒物(PM10),84,118,113,60,54,90,29,20,20,36,42,51,15,3.3,1.1
2022-04-01T09:00:00,1936A,107.2058,34.3497,宝鸡市,文理学院,颗粒物(PM10),65,80,87,44,39,98,31,33,28,40,40,12,10,1.2,1.1
2022-04-01T09:00:00,1937A,107.2386,34.3622,宝鸡市,三迪小学,颗粒物(PM10),78,106,95,49,45,92,28,24,19,32,34,7,6,0.6,0.5
2022-04-01T09:00:00,1938A,109.5293,34.5101,渭南市,农科所(对照点),细颗粒物(PM2.5),122,136,122,92,53,91,35,49,17,27,37,8,13,1.0,0.9
2022-04-01T09:00:00,1939A,109.4974,34.4877,渭南市,日报社,颗粒物(PM10),96,141,107,63,44,98,17,35,17,37,36,12,14,1.0,0.8
2022-04-01T09:00:00,1940A,109.4636,34.493,渭南市,体育馆,细颗粒物(PM2.5),110,144,111,83,42,103,14,37,13,42,42,12,16,1.1,0.8
2022-04-01T09:00:00,1941A,109.4259,34.5023,渭南市,高新一小,细颗粒物(PM2.5),128,149,121,97,54,99,25,17,11,26,41,6,10,1.0,0.7
2022-04-01T09:00:00,1943A,102.1725,38.5339,金昌市,新川苑,,28,7,29,4,7,114,88,92,92,13,12,5,7,0.5,0.5
2022-04-01T09:00:00,1944A,102.1692,38.5167,金昌市,天庆家园,,28,28,35,3,10,113,84,95,92,16,13,6,10,0.6,0.5
2022-04-01T09:00:00,1945A,98.2908,39.7711,嘉峪关市,气象局,,36,36,55,7,15,116,33,69,42,49,27,14,25,1.0,0.8
2022-04-01T09:00:00,1947A,106.3394,38.817,石嘴山市,沙湖旅游区(对照点),颗粒物(PM10),76,102,61,25,17,128,53,80,76,28,18,8,6,0.5,0.5
2022-04-01T09:00:00,1948A,106.3668,39.0145,石嘴山市,大武口朝阳西街,,29,20,48,10,19,115,92,100,96,12,22,1,10,0.3,0.5
2022-04-01T09:00:00,1949A,106.7704,39.2282,石嘴山市,惠农南大街,,44,44,57,17,17,117,84,66,64,20,28,19,21,0.5,0.8
2022-04-01T09:00:00,1950A,106.7099,39.1325,石嘴山市,红果子镇惠新街,,38,38,57,12,19,123,91,88,88,11,20,16,16,0.5,0.6
2022-04-01T09:00:00,1951A,84.895,45.6094,克拉玛依市,长征新村,,19,19,28,1,6,95,59,81,72,20,11,6,6,0.4,0.3
2022-04-01T09:00:00,1952A,84.8988,45.5893,克拉玛依市,南林小区,,29,22,27,7,6,96,21,83,58,58,17,2,3,1.1,0.5
2022-04-01T09:00:00,1954A,84.905,44.3396,克拉玛依市,独山子区,,31,31,26,13,10,105,52,62,59,24,15,4,5,0.6,0.5
2022-04-01T09:00:00,1955A,85.6979,46.098,克拉玛依市,乌尔禾区商贸楼,,16,16,23,6,8,83,31,28,26,24,19,6,6,0.4,0.4
2022-04-01T09:00:00,1956A,86.1472,41.7538,巴音郭楞州,孔雀公园,颗粒物(PM10),94,137,113,32,28,113,24,28,28,70,39,2,3,0.7,0.6
2022-04-01T09:00:00,1957A,86.1972,41.7166,巴音郭楞州,棉纺厂,颗粒物(PM10),87,124,96,40,27,109,17,24,24,66,32,2,2,0.5,0.4
2022-04-01T09:00:00,1958A,86.2357,41.7173,巴音郭楞州,经济开发区,颗粒物(PM10),79,108,105,22,23,113,46,54,54,39,19,2,2,0.4,0.4
2022-04-01T09:00:00,1961A,117.532,36.6868,济南市,东山小学,颗粒物(PM10),63,76,67,10,26,114,76,32,32,24,32,10,13,0.6,0.6
2022-04-01T09:00:00,1966A,120.0405,35.8735,青岛市,黄岛区4号,,46,46,39,17,17,108,87,101,80,23,21,10,7,0.7,0.6
2022-04-01T09:00:00,1982A,122.0693,37.2174,威海市,文登开发区,,31,31,35,12,16,123,91,79,76,11,16,4,5,0.4,0.5
2022-04-01T09:00:00,2031A,113.1817,27.9958,株洲市,云田中学,细颗粒物(PM2.5),52,44,21,36,12,102,50,88,75,14,19,5,4,0.4,0.3
2022-04-01T09:00:00,2054A,114.1099,32.1059,信阳市,平桥分局,细颗粒物(PM2.5),65,65,90,47,50,53,43,40,35,28,20,9,7,0.7,0.6
2022-04-01T09:00:00,2064A,113.9956,32.1271,信阳市,南湾水厂,颗粒物(PM10),77,104,92,46,48,58,35,34,34,26,21,8,6,0.7,0.6
2022-04-01T09:00:00,2065A,114.0775,32.1195,信阳市,市酿酒公司,细颗粒物(PM2.5),72,66,86,52,57,55,50,35,32,23,20,9,6,0.7,0.7
2022-04-01T09:00:00,2066A,114.0609,32.1399,信阳市,审计局,细颗粒物(PM2.5),89,86,89,66,68,51,39,20,20,28,27,9,7,0.5,0.4
2022-04-01T09:00:00,2067A,114.6613,33.6128,周口市,市环境监测站,颗粒物(PM10),65,79,79,42,50,79,52,66,56,24,20,24,17,0.6,0.7
2022-04-01T09:00:00,2068A,114.6758,33.6347,周口市,周口师范,颗粒物(PM10),64,78,81,43,46,78,46,62,49,26,19,28,20,0.6,0.7
2022-04-01T09:00:00,2069A,114.6546,33.5979,周口市,市运管处,颗粒物(PM10),64,77,79,39,44,80,54,57,57,26,20,25,15,0.6,0.7
2022-04-01T09:00:00,2070A,114.6369,33.6406,周口市,川汇区环保局,颗粒物(PM10),65,80,75,44,43,82,44,59,53,30,22,40,11,1.0,0.7
2022-04-01T09:00:00,2075A,117.6336,24.4674,漳州市,九湖(对照点),,36,36,46,17,25,175,93,99,93,18,13,6,7,0.3,0.4
2022-04-01T09:00:00,2160A,112.85,35.5051,晋城市,自来水公司,细颗粒物(PM2.5),89,76,98,66,64,93,35,79,27,37,28,5,3,0.7,0.7
2022-04-01T09:00:00,2161A,112.8318,35.4936,晋城市,白云商贸,细颗粒物(PM2.5),85,95,94,63,58,97,32,74,28,34,23,4,3,1.0,0.9
2022-04-01T09:00:00,2162A,112.8508,35.4887,晋城市,市环保局,细颗粒物(PM2.5),79,94,107,58,64,94,26,72,21,40,28,4,4,1.1,1
2022-04-01T09:00:00,2163A,112.8676,35.4897,晋城市,技术学院,细颗粒物(PM2.5),70,70,98,51,66,88,38,66,38,35,22,4,3,0.7,0.8
2022-04-01T09:00:00,2165A,112.8453,35.546,晋城市,白马寺 (对照点),颗粒物(PM10),68,86,90,29,54,93,68,85,83,23,17,2,3,0.6,0.9
2022-04-01T09:00:00,2166A,112.4397,39.3522,朔州市,平朔,颗粒物(PM10),81,112,65,48,30,95,27,38,17,53,28,25,15,1.0,0.5
2022-04-01T09:00:00,2167A,112.4575,39.3617,朔州市,朔唯,颗粒物(PM10),93,136,73,46,30,101,25,39,14,56,31,24,10,0.6,0.4
2022-04-01T09:00:00,2168A,112.4258,39.3197,朔州市,区政府,颗粒物(PM10),80,110,57,44,22,101,34,44,26,48,24,26,12,0.9,0.5
2022-04-01T09:00:00,2169A,112.4072,39.3278,朔州市,市环保局,颗粒物(PM10),91,132,64,46,22,100,38,51,36,57,27,22,12,0.8,0.5
2022-04-01T09:00:00,2170A,112.4272,39.3681,朔州市,市二中,颗粒物(PM10),85,119,66,58,27,100,28,52,18,54,27,19,8,0.7,0.5
2022-04-01T09:00:00,2171A,112.7532,37.6945,晋中市,锦纶小区,颗粒物(PM10),66,81,35,38,16,105,46,68,49,31,22,6,5,0.5,0.3
2022-04-01T09:00:00,2173A,112.7249,37.7067,晋中市,南都小区,颗粒物(PM10),70,90,34,27,21,104,50,47,44,34,28,12,8,0.5,0.3
2022-04-01T09:00:00,2174A,112.6991,37.6982,晋中市,榆次区政府,颗粒物(PM10),65,79,32,35,18,104,51,50,45,34,28,12,7,0.5,0.3
2022-04-01T09:00:00,2175A,110.9956,35.0147,运城市,运城中学,颗粒物(PM10),60,69,108,42,60,95,84,86,86,17,20,10,10,0.4,0.7
2022-04-01T09:00:00,2178A,110.9686,35.0303,运城市,地区技校,颗粒物(PM10),62,73,107,26,56,97,80,80,80,15,17,9,9,0.5,0.8
2022-04-01T09:00:00,2179A,111.0414,35.1147,运城市,空港新区,"颗粒物(PM10),细颗粒物(PM2.5)",70,89,115,51,70,92,74,78,74,20,19,9,10,0.5,0.8
2022-04-01T09:00:00,2181A,112.7383,38.4519,忻州市,开发区,,50,50,39,15,12,106,66,57,44,14,15,24,13,0.4,0.4
2022-04-01T09:00:00,2182A,112.7003,38.4928,忻州市,会展中心,颗粒物(PM10),52,54,36,22,16,89,56,41,33,24,24,17,9,0.3,0.2
2022-04-01T09:00:00,2183A,111.1406,37.5211,吕梁市,环保局,颗粒物(PM10),75,100,60,24,14,104,21,4,4,46,40,7,3,0.6,0.4
2022-04-01T09:00:00,2185A,111.1297,37.5136,吕梁市,自来水公司,颗粒物(PM10),88,126,72,25,14,101,21,7,5,41,35,12,4,0.3,0.2
2022-04-01T09:00:00,2187A,106.8174,39.6973,乌海市,市林业局,颗粒物(PM10),55,59,55,28,22,122,89,92,86,8,13,5,8,0.3,0.4
2022-04-01T09:00:00,2188A,106.7907,39.6667,乌海市,中海勃湾学校,颗粒物(PM10),51,51,55,26,24,124,92,101,96,9,18,6,9,0.4,0.5
2022-04-01T09:00:00,2191A,122.2532,43.6801,通辽市,艺术职业学校,,34,34,31,20,12,114,85,78,72,16,14,7,6,0,0.3
2022-04-01T09:00:00,2192A,119.7594,49.2261,呼伦贝尔市,区环保局,,27,27,23,15,15,105,51,66,54,24,9,5,5,0.7,0.4
2022-04-01T09:00:00,2195A,107.4212,40.761,巴彦淖尔市,附二中,颗粒物(PM10),70,89,78,30,25,114,71,94,84,11,8,4,5,0.4,0.4
2022-04-01T09:00:00,2196A,107.37,40.7372,巴彦淖尔市,市环保大楼,颗粒物(PM10),72,93,73,35,26,119,70,105,81,7,7,3,6,0.2,0.5
2022-04-01T09:00:00,2197A,113.1306,40.9923,乌兰察布市,集宁新区,,42,42,24,25,16,151,40,64,32,35,17,19,9,0.9,0.4
2022-04-01T09:00:00,2200A,122.0392,46.0656,兴安盟,胜华新制药厂,,29,29,30,20,18,97,77,58,56,7,10,1,2,0.2,0.2
2022-04-01T09:00:00,2201A,121.9504,46.0741,兴安盟,科右前旗环保局,,26,13,29,11,17,105,83,71,69,9,11,4,4,0.2,0.2
2022-04-01T09:00:00,2202A,116.1042,43.9317,锡林郭勒盟,市环保监测站,,18,13,13,2,6,99,57,62,50,18,8,10,9,0.2,0.4
2022-04-01T09:00:00,2203A,116.0781,43.9311,锡林郭勒盟,市政府,,18,10,12,2,4,91,56,61,50,12,10,7,7,0.4,0.4
2022-04-01T09:00:00,2204A,105.6467,38.8363,阿拉善盟,西城区西花园(对照点),,30,28,32,14,15,127,95,108,103,11,9,6,7,0.4,0.4
2022-04-01T09:00:00,2205A,105.6985,38.8411,阿拉善盟,蒙二幼,,33,33,22,20,15,126,100,110,106,8,8,5,6,0.4,0.3
2022-04-01T09:00:00,2206A,105.724,38.8516,阿拉善盟,环保局新楼,,35,26,24,24,18,119,98,113,108,10,7,7,7,0.4,0.3
2022-04-01T09:00:00,2207A,121.6094,41.998,阜新市,工业园区,颗粒物(PM10),57,64,42,22,18,102,66,66,56,21,17,27,11,0.5,0.4
2022-04-01T09:00:00,2208A,121.6697,42.0279,阜新市,长青街,,35,35,31,17,14,97,65,52,52,12,11,15,9,0.5,0.4
2022-04-01T09:00:00,2209A,121.6673,42.0705,阜新市,农业园区,,36,36,21,25,10,96,62,75,67,17,10,8,7,0.3,0.3
2022-04-01T09:00:00,2210A,121.6717,42.0224,阜新市,东苑,,38,38,60,13,21,94,63,59,57,17,19,13,16,0.5,0.5
2022-04-01T09:00:00,2211A,121.6506,42.0498,阜新市,玉龙新城,,39,39,32,13,16,96,65,42,42,11,22,11,10,0.4,0.4
2022-04-01T09:00:00,2212A,123.2,41.1953,辽阳市,宏伟区,,38,38,33,24,20,111,48,57,42,45,17,25,18,0.8,0.5
2022-04-01T09:00:00,2213A,123.1683,41.2495,辽阳市,新华园,细颗粒物(PM2.5),73,72,38,53,32,102,39,50,31,48,19,33,11,1.0,0.6
2022-04-01T09:00:00,2214A,123.2354,41.2639,辽阳市,滨河路,细颗粒物(PM2.5),87,68,37,64,32,104,46,50,34,42,18,25,10,0.9,0.5
2022-04-01T09:00:00,2215A,123.149,41.2991,辽阳市,铁西工业园,颗粒物(PM10),77,104,42,47,31,98,45,24,24,34,22,21,12,1.1,0.6
2022-04-01T09:00:00,2216A,123.8139,42.3022,铁岭市,汇工街西,颗粒物(PM10),62,74,42,42,33,108,56,33,33,25,19,8,7,0.5,0.4
2022-04-01T09:00:00,2217A,123.8649,42.2923,铁岭市,水上乐园,,48,48,33,19,22,104,61,46,46,23,14,9,5,0.3,0.3
2022-04-01T09:00:00,2218A,123.8486,42.2867,铁岭市,银州路东段,颗粒物(PM10),58,66,38,25,28,102,62,52,43,22,16,8,5,0.6,0.6
2022-04-01T09:00:00,2219A,123.7153,42.2217,铁岭市,金沙江路北,颗粒物(PM10),52,54,37,32,21,102,52,38,38,28,22,6,3,0.3,0.3
2022-04-01T09:00:00,2220A,120.4318,41.5881,朝阳市,西梁,颗粒物(PM10),67,84,51,30,18,94,44,48,35,30,16,29,11,1.4,0.7
2022-04-01T09:00:00,2221A,120.4521,41.5646,朝阳市,河畔小区,颗粒物(PM10),55,60,43,26,15,92,50,49,44,19,12,18,7,0.8,0.7
2022-04-01T09:00:00,2222A,120.4176,41.5648,朝阳市,八里堡,颗粒物(PM10),60,70,47,20,17,94,42,50,30,31,18,30,9,1.3,0.6
2022-04-01T09:00:00,2223A,120.3806,41.5969,朝阳市,农业园区,颗粒物(PM10),72,93,42,32,16,94,56,60,43,19,14,15,6,0.8,0.6
2022-04-01T09:00:00,2225A,124.4002,43.1713,四平市,一商场,,43,33,29,30,19,102,66,63,61,4,8,7,8,0.3,0.3
2022-04-01T09:00:00,2226A,124.388,43.193,四平市,境园,,36,36,28,19,16,109,68,46,46,5,12,7,7,0.2,0.3
2022-04-01T09:00:00,2227A,125.1358,42.8845,辽源市,环保局,细颗粒物(PM2.5),67,58,31,48,24,106,80,53,33,12,12,9,8,0.7,0.7
2022-04-01T09:00:00,2229A,125.9358,41.7173,通化市,光明,,38,38,25,21,14,105,46,62,43,25,11,43,15,1.5,0.6
2022-04-01T09:00:00,2230A,125.9446,41.7325,通化市,铁路,,48,48,24,28,15,101,32,60,41,44,12,82,20,4.2,1
2022-04-01T09:00:00,2231A,126.4219,41.9171,白山市,喜丰,颗粒物(PM10),58,66,37,20,13,111,71,63,55,14,9,16,9,0.6,0.5
2022-04-01T09:00:00,2232A,126.4077,41.9419,白山市,环保局,颗粒物(PM10),52,53,38,25,14,104,70,56,52,15,10,21,11,1.9,1.6
2022-04-01T09:00:00,2233A,124.8006,45.1214,松原市,江南,细颗粒物(PM2.5),67,67,39,48,22,102,69,48,48,12,12,4,3,0.4,0.4
2022-04-01T09:00:00,2234A,124.7965,45.1722,松原市,江北,,33,21,25,23,21,106,72,63,56,12,13,2,2,0.4,0.4
2022-04-01T09:00:00,2236A,122.8738,45.5725,白城市,市环保局,,30,30,29,14,19,88,68,62,54,16,18,5,5,0.4,0.3
2022-04-01T09:00:00,2237A,129.47,42.8883,延边朝鲜族自治州,妇幼医院,,29,21,18,8,10,98,90,85,78,6,8,6,10,0.5,0.5
2022-04-01T09:00:00,2238A,129.5055,42.9108,延边朝鲜族自治州,延边医院,,30,29,20,9,13,104,96,94,91,5,4,8,8,0.6,0.4
2022-04-01T09:00:00,2239A,129.3964,42.8881,延边朝鲜族自治州,朝阳川镇医院,,30,9,15,5,10,102,94,81,80,3,4,5,5,0.4,0.4
2022-04-01T09:00:00,2240A,130.9762,45.3001,鸡西市,环保局,,23,17,19,11,9,90,71,72,68,16,17,2,2,0.2,0.2
2022-04-01T09:00:00,2243A,130.9429,45.3039,鸡西市,第一中学,,24,18,18,10,8,94,76,78,72,13,14,5,5,0.1,0.1
2022-04-01T09:00:00,2244A,130.2537,47.3416,鹤岗市,哈啤分公司,,29,15,18,15,14,99,90,89,88,4,5,8,8,0.3,0.3
2022-04-01T09:00:00,2245A,130.2684,47.3086,鹤岗市,斯达机电,,27,11,17,6,10,96,86,74,74,3,6,5,6,0.2,0.5
2022-04-01T09:00:00,2246A,130.3114,47.3388,鹤岗市,东山纸板厂,,28,18,21,6,10,96,88,84,82,2,3,8,8,0.3,0.6
2022-04-01T09:00:00,2248A,131.1511,46.6937,双鸭山市,双合村,,25,17,11,13,10,91,78,76,76,7,8,6,7,0.5,0.5
2022-04-01T09:00:00,2249A,131.1652,46.6191,双鸭山市,南小市,颗粒物(PM10),52,53,28,10,12,70,67,68,68,8,7,6,3,0.3,0.3
2022-04-01T09:00:00,2250A,131.1524,46.6554,双鸭山市,环保局,,28,18,18,13,15,100,88,90,87,7,7,4,4,0.3,0.3
2022-04-01T09:00:00,2251A,131.12,46.5656,双鸭山市,苗圃(对照点),,32,13,24,22,19,93,89,88,86,5,6,3,5,0.3,0.3
2022-04-01T09:00:00,2252A,128.5159,47.4311,伊春市,环保局,,26,5,11,5,7,96,83,74,74,6,6,4,5,0.3,0.4
2022-04-01T09:00:00,2253A,128.9102,47.7412,伊春市,电力嘉园,,26,7,14,5,9,96,83,82,75,5,4,5,5,0.4,0.4
2022-04-01T09:00:00,2254A,129.5029,48.471,伊春市,汤旺河国家公园(对照点),,28,9,6,4,4,96,89,82,80,5,4,6,6,0.3,0.2
2022-04-01T09:00:00,2255A,130.2751,46.8028,佳木斯市,佳纺,,25,23,24,13,10,93,78,70,68,7,7,3,3,0.3,0.3
2022-04-01T09:00:00,2256A,130.3995,46.8307,佳木斯市,发电厂,,26,8,12,6,6,96,82,75,75,2,3,1,2,0.3,0.3
2022-04-01T09:00:00,2257A,130.3258,46.7975,佳木斯市,环保局,,25,21,17,15,9,92,80,70,70,5,6,6,5,0.3,0.5
2022-04-01T09:00:00,2258A,130.3648,46.8032,佳木斯市,十一中,,27,19,14,10,8,100,85,72,72,7,10,6,8,0.4,0.4
2022-04-01T09:00:00,2259A,130.3794,46.7588,佳木斯市,四丰(对照点),,24,8,11,8,7,87,76,70,70,2,6,1,2,0.3,0.3
2022-04-01T09:00:00,2262A,131.0518,45.8751,七台河市,新一中(对照点),,25,11,10,7,7,93,80,70,70,5,5,6,6,0.5,0.5
2022-04-01T09:00:00,2263A,127.4833,50.2524,黑河市,交通局,,25,5,13,7,10,90,79,76,76,4,2,5,4,0.3,0.3
2022-04-01T09:00:00,2264A,127.5144,50.2341,黑河市,环保局,,26,8,15,9,10,82,82,81,81,5,4,3,4,0.4,0.3
2022-04-01T09:00:00,2265A,127.5291,50.2472,黑河市,大黑河岛(对照点),,25,14,23,4,8,79,77,73,73,6,8,4,5,0.3,0.3
2022-04-01T09:00:00,2266A,126.9785,46.6365,绥化市,人和东街,,40,40,30,23,15,85,49,55,39,14,14,8,6,0.5,0.4
2022-04-01T09:00:00,2267A,126.964,46.6528,绥化市,党政办公中心,,36,36,20,25,14,78,50,55,46,7,5,6,5,0.5,0.4
2022-04-01T09:00:00,2269A,124.1069,50.4097,大兴安岭地区,科技局,,23,12,15,9,10,85,73,58,58,5,5,3,3,0.4,0.4
2022-04-01T09:00:00,2271A,117.3605,32.9427,蚌埠市,百货大楼,颗粒物(PM10),69,88,69,39,32,78,69,49,49,23,30,7,6,0.6,0.5
2022-04-01T09:00:00,2273A,117.4185,32.8911,蚌埠市,蚌埠学院,颗粒物(PM10),53,56,52,34,30,73,62,42,42,28,41,10,12,0.3,0.3
2022-04-01T09:00:00,2274A,117.3533,32.9673,蚌埠市,淮上区政府,颗粒物(PM10),57,63,55,36,28,79,73,55,55,16,21,9,7,0.5,0.4
2022-04-01T09:00:00,2275A,117.3145,32.8977,蚌埠市,高新区,"颗粒物(PM10),细颗粒物(PM2.5)",52,53,46,36,30,82,78,59,59,16,21,8,6,0.6,0.5
2022-04-01T09:00:00,2277A,116.8305,32.7727,淮南市,潘集区政府,细颗粒物(PM2.5),69,69,63,50,46,72,57,45,33,16,14,7,4,0.4,0.5
2022-04-01T09:00:00,2278A,117.0067,32.6524,淮南市,师范学院,,50,50,54,35,38,73,73,48,48,15,20,8,8,0.5,0.5
2022-04-01T09:00:00,2279A,116.8569,32.5951,淮南市,谢家集区政府,颗粒物(PM10),60,70,58,42,41,73,73,51,47,25,20,9,8,0.4,0.3
2022-04-01T09:00:00,2280A,116.8281,32.633,淮南市,八公山区政府,,,68,58,51,41,67,,52,37,15,15,12,11,0.3,0.4
2022-04-01T09:00:00,2281A,116.6325,32.6201,淮南市,焦岗湖风景区管理处(对照点),细颗粒物(PM2.5),63,57,56,45,36,67,64,24,24,14,19,12,6,0.4,0.4
2022-04-01T09:00:00,2282A,116.8004,33.975,淮北市,监测站,细颗粒物(PM2.5),70,84,71,51,33,90,64,38,38,24,26,7,6,0.7,0.5
2022-04-01T09:00:00,2283A,116.8091,33.9007,淮北市,烈山区政府,颗粒物(PM10),61,71,70,38,34,107,76,29,29,22,34,9,8,0.5,0.6
2022-04-01T09:00:00,2284A,116.7856,33.9477,淮北市,职业技术学院,细颗粒物(PM2.5),68,68,65,49,34,92,69,42,42,18,21,8,8,0.6,0.6
2022-04-01T09:00:00,2285A,117.8177,30.9412,铜陵市,市第四中学,,33,33,60,23,32,88,86,78,78,22,22,14,9,0.4,0.5
2022-04-01T09:00:00,2286A,117.8059,30.9273,铜陵市,市公路局,,38,38,53,24,31,82,78,70,70,26,26,14,11,0.7,0.8
2022-04-01T09:00:00,2287A,117.7807,30.9413,铜陵市,市新民污水厂,,41,41,64,28,38,86,79,76,76,24,30,9,7,0.4,0.7
2022-04-01T09:00:00,2288A,117.7439,30.8792,铜陵市,市第九中学,,,,,30,41,84,82,69,69,17,20,9,6,0.6,0.9
2022-04-01T09:00:00,2289A,117.846,30.9413,铜陵市,车站新区,,39,39,49,25,25,79,70,64,64,19,23,5,5,0.0,0.3
2022-04-01T09:00:00,2290A,117.8483,30.97,铜陵市,市职教基地,,36,36,50,16,32,85,78,74,74,17,22,12,8,0.5,0.7
2022-04-01T09:00:00,2291A,117.0809,30.5177,安庆市,环科院,,40,40,54,20,47,79,75,61,61,16,14,9,6,0.5,0.6
2022-04-01T09:00:00,2292A,117.0331,30.5119,安庆市,马山宾馆,,37,37,56,17,40,83,73,64,64,22,18,7,5,0.7,0.8
2022-04-01T09:00:00,2294A,116.9896,30.6145,安庆市,安庆大学,,36,31,53,25,53,84,75,67,67,17,13,6,4,0.6,0.6
2022-04-01T09:00:00,2295A,118.2903,29.6963,黄山市,延安路89号,细颗粒物(PM2.5),68,51,38,49,35,105,72,75,71,9,8,12,9,0.6,0.7
2022-04-01T09:00:00,2296A,118.327,29.7178,黄山市,黄山东路89号,,49,48,43,34,32,98,65,68,65,11,8,10,8,0.3,0.5
2022-04-01T09:00:00,2297A,118.1371,30.2756,黄山市,黄山区政府5号楼,"颗粒物(PM10),细颗粒物(PM2.5)",52,53,47,36,28,86,60,72,55,10,9,9,8,0.4,0.5
2022-04-01T09:00:00,2298A,118.3093,32.3153,滁州市,老年大学,颗粒物(PM10),58,66,61,38,41,82,82,70,58,21,21,12,9,0.4,0.3
2022-04-01T09:00:00,2299A,118.3244,32.2786,滁州市,人大宾馆,颗粒物(PM10),55,59,59,33,38,78,75,62,62,27,28,6,5,0.5,0.4
2022-04-01T09:00:00,2301A,115.8277,32.8929,阜阳市,市监测站,颗粒物(PM10),60,70,58,37,36,68,47,48,31,26,25,10,9,0.6,0.6
2022-04-01T09:00:00,2303A,115.8554,32.8605,阜阳市,开发区,颗粒物(PM10),64,78,61,39,39,65,45,37,27,24,26,8,5,0.6,0.6
2022-04-01T09:00:00,2307A,116.5079,31.737,六安市,监测大楼,细颗粒物(PM2.5),59,59,63,42,47,73,67,64,50,26,18,6,5,0.4,0.4
2022-04-01T09:00:00,2308A,116.4738,31.7643,六安市,皖西学院,颗粒物(PM10),56,61,66,32,40,75,72,68,56,21,14,13,8,0.4,0.4
2022-04-01T09:00:00,2309A,116.4996,31.7905,六安市,朝阳厂,颗粒物(PM10),57,63,66,38,48,62,48,59,46,35,19,14,6,0.5,0.5
2022-04-01T09:00:00,2310A,116.5567,31.7886,六安市,开发区,颗粒物(PM10),63,76,74,36,42,70,63,58,50,20,15,10,5,0.3,0.4
2022-04-01T09:00:00,2311A,115.8072,33.8399,亳州市,污水处理厂,"颗粒物(PM10),细颗粒物(PM2.5)",60,70,69,43,42,90,37,53,42,19,19,15,7,0.5,0.5
2022-04-01T09:00:00,2312A,115.7789,33.8518,亳州市,三国揽胜宫,颗粒物(PM10),68,86,70,36,40,95,40,64,48,18,15,17,8,0.7,0.6
2022-04-01T09:00:00,2314A,117.47,30.6618,池州市,池州学院,,27,27,50,18,33,83,77,67,67,21,23,7,12,0.4,0.7
2022-04-01T09:00:00,2316A,118.7581,30.9454,宣城市,鳌峰子站,,34,34,39,17,27,81,78,74,74,21,16,8,4,0.5,0.6
2022-04-01T09:00:00,2317A,118.7385,30.9743,宣城市,敬亭山子站,,41,41,42,18,27,70,70,62,62,22,24,9,6,0.5,0.5
2022-04-01T09:00:00,2318A,118.7173,30.9427,宣城市,开发区子站,,36,36,41,16,27,90,87,82,82,25,14,8,5,0.6,0.6
2022-04-01T09:00:00,2319A,119.0141,25.4325,莆田市,荔城区仓后路,,33,22,28,11,12,113,104,108,106,13,11,4,3,0.6,0.5
2022-04-01T09:00:00,2320A,119.0015,25.4553,莆田市,莆田市监测站,,34,29,27,18,20,116,108,113,112,5,8,5,4,0.5,0.5
2022-04-01T09:00:00,2321A,119.1119,25.4561,莆田市,涵江区六中,,35,29,28,17,15,115,110,115,112,5,3,8,6,0.4,0.4
2022-04-01T09:00:00,2322A,119.1013,25.3215,莆田市,秀屿区政府,,33,31,29,15,15,116,105,114,107,16,11,8,5,0.5,0.5
2022-04-01T09:00:00,2323A,118.981,25.4792,莆田市,东圳水库(对照点),,35,17,24,10,14,117,112,115,113,2,3,4,5,0.5,0.6
2022-04-01T09:00:00,2324A,117.6211,26.2625,三明市,三钢,,25,8,11,7,10,81,77,79,79,12,16,2,2,0.5,0.6
2022-04-01T09:00:00,2325A,117.635,26.2714,三明市,三明二中,,23,1,12,6,10,82,72,81,79,15,16,3,3,0.6,0.8
2022-04-01T09:00:00,2326A,117.6028,26.2378,三明市,三元区政府,,24,12,13,14,7,86,75,83,81,14,16,2,3,0.5,0.7
2022-04-01T09:00:00,2327A,117.7275,26.3108,三明市,洋溪(对照点),,26,19,15,9,11,83,81,82,80,5,5,10,6,0.5,0.6
2022-04-01T09:00:00,2331A,118.0966,26.6761,南平市,茫荡山(对照点),,25,0,2,2,2,80,78,77,77,2,3,4,4,0.6,0.6
2022-04-01T09:00:00,2332A,118.1681,26.6369,南平市,南平市监测站,,28,8,10,8,10,90,89,89,88,6,10,4,5,0.6,0.8
2022-04-01T09:00:00,2333A,118.1825,26.6489,南平市,南平铝业有限公司,,29,7,12,9,9,92,90,88,88,6,10,4,7,0.4,0.7
2022-04-01T09:00:00,2334A,118.1756,26.6272,南平市,南平七中,,26,12,13,7,9,94,81,89,88,8,8,9,5,0.7,0.8
2022-04-01T09:00:00,2335A,117.0189,25.1181,龙岩市,龙岩师专(对照点),,23,3,20,10,15,84,73,64,64,8,13,5,7,0.4,0.6
2022-04-01T09:00:00,2336A,117.0217,25.1033,龙岩市,龙岩市监测站,,24,3,20,2,14,82,74,64,64,9,13,5,5,0.3,0.5
2022-04-01T09:00:00,2337A,117.0258,25.0661,龙岩市,闽西职业技术学院,,22,12,21,8,11,76,68,59,59,9,10,5,5,0.3,0.3
2022-04-01T09:00:00,2338A,117.0196,25.0306,龙岩市,龙岩学院,,20,11,17,4,10,72,63,53,53,12,11,4,3,0.4,0.4
2022-04-01T09:00:00,2339A,119.5001,26.6946,宁德市,金涵水库(对照点),,22,22,16,6,8,110,70,84,78,6,11,6,6,0.4,0.5
2022-04-01T09:00:00,2341A,119.5388,26.6612,宁德市,宁德市监测站,,23,22,19,16,11,107,63,80,71,21,14,7,7,0.5,0.5
2022-04-01T09:00:00,2342A,117.3102,29.3867,景德镇市,王港中学(对照点),,42,39,26,29,17,112,65,62,62,6,4,10,15,0.5,0.5
2022-04-01T09:00:00,2343A,117.2117,29.2933,景德镇市,老干部活动中心,颗粒物(PM10),52,54,39,29,23,104,61,76,71,12,9,4,4,0.6,0.6
2022-04-01T09:00:00,2344A,117.1894,29.2789,景德镇市,兽医站,,42,38,28,29,19,108,63,78,74,12,11,5,4,0.3,0.3
2022-04-01T09:00:00,2345A,117.1547,29.2617,景德镇市,台达陶瓷,,36,36,27,22,17,99,60,76,72,14,11,4,5,0.5,0.4
2022-04-01T09:00:00,2346A,117.2461,29.2956,景德镇市,陶研所,,39,39,39,26,16,102,59,65,61,12,7,4,4,0.5,0.4
2022-04-01T09:00:00,2347A,114.0997,27.5002,萍乡市,武功山(对照点),,29,17,4,11,4,99,90,70,69,4,4,14,13,0.1,0.2
2022-04-01T09:00:00,2348A,113.8385,27.6434,萍乡市,中医院,,29,20,13,20,15,111,45,94,75,27,15,7,3,0.9,0.8
2022-04-01T09:00:00,2349A,113.8493,27.6253,萍乡市,市政府车库,,29,29,17,19,10,100,63,87,76,17,12,7,6,0.8,1.1
2022-04-01T09:00:00,2350A,113.8676,27.6435,萍乡市,市环保局,,42,36,20,29,14,108,61,88,76,14,8,8,5,0.7,0.7
2022-04-01T09:00:00,2351A,113.866,27.6198,萍乡市,安源区政府,,43,43,28,24,13,108,59,84,74,23,15,4,5,0.8,1.5
2022-04-01T09:00:00,2352A,115.0861,27.9317,新余市,北岗(对照点),,42,40,22,29,17,100,66,77,69,8,9,5,7,0.5,0.4
2022-04-01T09:00:00,2353A,114.9886,27.8431,新余市,飞宇,,39,39,41,26,18,97,62,73,67,15,13,13,9,0.5,0.3
2022-04-01T09:00:00,2354A,114.9231,27.8246,新余市,第二水厂,,46,46,26,23,17,99,68,81,75,13,10,6,6,0.5,0.4
2022-04-01T09:00:00,2355A,114.9308,27.8036,新余市,市气象局,,47,47,30,30,22,103,68,84,76,18,14,5,6,0.3,0.3
2022-04-01T09:00:00,2357A,116.9822,28.1136,鹰潭市,龙虎山(对照点),,30,30,16,15,10,113,80,92,84,5,5,3,3,0.3,0.3
2022-04-01T09:00:00,2358A,117.0564,28.2642,鹰潭市,新监测站,,35,35,18,19,14,114,72,93,80,19,12,36,25,0.5,0.4
2022-04-01T09:00:00,2359A,117.0311,28.2475,鹰潭市,财苑宾馆,,43,43,19,14,10,109,63,92,77,19,9,49,21,0.6,0.5
2022-04-01T09:00:00,2360A,117.0222,28.2264,鹰潭市,体育馆,,42,40,24,29,12,101,58,92,72,18,12,29,18,0.1,0.1
2022-04-01T09:00:00,2361A,117.0017,28.2131,鹰潭市,三川水表,,44,44,20,24,14,100,58,92,72,17,11,30,20,0.4,0.4
2022-04-01T09:00:00,2362A,114.9017,25.9149,赣州市,通天岩(对照点),,,28,19,19,9,99,89,96,92,5,7,6,5,,
2022-04-01T09:00:00,2363A,114.9367,25.8664,赣州市,地委,,39,39,20,19,10,108,88,93,88,10,11,4,5,0.5,0.7
2022-04-01T09:00:00,2364A,114.9461,25.8481,赣州市,气象台,,28,18,13,13,10,108,87,89,89,12,10,5,5,0.6,0.6
2022-04-01T09:00:00,2365A,114.9322,25.8333,赣州市,市图书馆,,48,25,16,33,22,122,95,105,100,11,11,9,8,0.6,0.8
2022-04-01T09:00:00,2366A,114.8905,25.8471,赣州市,华坚鞋城,,43,43,16,23,13,102,80,92,86,6,12,4,4,0.4,0.5
2022-04-01T09:00:00,2367A,114.9754,27.0803,吉安市,红声器材厂,,46,46,28,30,16,114,69,84,76,13,9,6,5,0.4,0.5
2022-04-01T09:00:00,2368A,114.9658,27.0999,吉安市,市森林工业局,,42,42,24,26,14,97,64,83,73,11,8,4,3,0.4,0.4
2022-04-01T09:00:00,2369A,114.99,27.1312,吉安市,市环境监测站,,46,46,25,28,13,105,66,88,76,15,12,7,7,0.6,0.6
2022-04-01T09:00:00,2370A,115.0093,27.0968,吉安市,青原区法院,,47,47,26,28,15,112,70,93,79,14,12,9,8,0.6,0.5
2022-04-01T09:00:00,2371A,114.3408,27.8064,宜春市,槟榔水业(对照点),,44,44,24,21,14,104,50,88,68,16,8,3,2,0.6,0.4
2022-04-01T09:00:00,2373A,114.3956,27.7844,宜春市,市石油公司,,38,38,23,24,15,111,65,93,72,8,6,5,3,0.7,0.7
2022-04-01T09:00:00,2374A,114.3703,27.7914,宜春市,市气象局,,37,37,24,23,15,111,69,96,79,17,13,6,4,0.7,0.6
2022-04-01T09:00:00,2375A,114.4013,27.8074,宜春市,市广电局,,45,40,24,31,17,106,56,87,72,17,9,3,3,0.5,0.6
2022-04-01T09:00:00,2376A,116.2127,28.0814,抚州市,桐源党溪(对照点),,39,38,24,27,16,105,78,92,83,5,4,6,5,0.4,0.5
2022-04-01T09:00:00,2377A,116.3544,27.9831,抚州市,市站,,38,38,26,22,15,98,70,83,77,9,6,7,6,0.7,0.7
2022-04-01T09:00:00,2378A,116.3565,27.963,抚州市,血防站,,38,38,26,19,13,98,69,83,77,9,5,5,4,0.6,0.7
2022-04-01T09:00:00,2379A,116.3564,28.0007,抚州市,采茶剧团,,31,31,23,19,14,105,75,89,82,9,8,6,6,0.7,0.8
2022-04-01T09:00:00,2380A,116.385,27.9647,抚州市,医学分院,,38,38,23,20,13,115,86,98,91,3,2,4,4,0.8,0.8
2022-04-01T09:00:00,2381A,118.005,28.4572,上饶市,百草园(对照点),,40,40,27,22,14,108,57,82,65,7,5,4,4,0.6,0.5
2022-04-01T09:00:00,2382A,117.9756,28.4436,上饶市,市监测站,,39,39,27,18,17,114,59,90,70,14,10,4,3,0.4,0.3
2022-04-01T09:00:00,2383A,117.9519,28.4628,上饶市,凤凰光学,,43,27,24,30,20,110,59,79,68,15,13,15,17,0.5,0.4
2022-04-01T09:00:00,2385A,114.17,35.9019,鹤壁市,市监测站,颗粒物(PM10),64,77,80,44,42,99,44,17,15,41,39,23,7,1.9,1
2022-04-01T09:00:00,2386A,114.2956,35.7511,鹤壁市,市交警支队,颗粒物(PM10),69,87,81,47,33,97,28,5,5,43,43,17,12,0.9,0.7
2022-04-01T09:00:00,2387A,114.2878,35.7306,鹤壁市,迎宾馆,"颗粒物(PM10),细颗粒物(PM2.5)",63,75,57,45,31,97,33,13,8,39,41,15,8,0.8,0.8
2022-04-01T09:00:00,2389A,113.836,35.311,新乡市,环保西院,颗粒物(PM10),67,83,91,34,42,100,48,13,13,41,41,18,11,0.6,0.5
2022-04-01T09:00:00,2390A,113.884,35.272,新乡市,开发区,颗粒物(PM10),55,59,80,36,41,98,39,7,7,51,44,21,11,0.7,0.7
2022-04-01T09:00:00,2391A,113.883,35.303,新乡市,环保东院,颗粒物(PM10),59,67,66,38,37,102,45,10,10,46,46,22,12,0.5,0.5
2022-04-01T09:00:00,2392A,115.0312,35.7636,濮阳市,环保局,颗粒物(PM10),53,56,40,34,28,104,65,53,51,33,33,19,11,0.6,0.5
2022-04-01T09:00:00,2394A,115.0574,35.7609,濮阳市,油田运输公司,颗粒物(PM10),76,102,62,35,28,112,67,54,42,34,35,25,13,0.6,0.6
2022-04-01T09:00:00,2395A,115.0866,35.7754,濮阳市,油田物探公司,颗粒物(PM10),61,72,46,31,26,110,65,46,43,32,30,31,15,0.5,0.4
2022-04-01T09:00:00,2396A,113.8276,34.0159,许昌市,监测站,颗粒物(PM10),61,71,68,36,31,117,63,72,43,28,20,10,12,0.8,0.7
2022-04-01T09:00:00,2398A,113.7906,33.9953,许昌市,开发区,,50,50,63,35,31,119,76,68,43,17,15,10,8,0.6,0.6
2022-04-01T09:00:00,2399A,114.051,33.5699,漯河市,三五一五工厂,细颗粒物(PM2.5),62,66,67,44,45,79,53,62,57,25,21,12,8,0.5,0.6
2022-04-01T09:00:00,2400A,114.0055,33.5698,漯河市,漯河大学,细颗粒物(PM2.5),73,66,63,53,46,84,55,60,58,27,23,12,7,0.5,0.5
2022-04-01T09:00:00,2401A,114.0138,33.5828,漯河市,市水利局,细颗粒物(PM2.5),74,63,65,54,50,80,48,55,52,22,18,8,4,0.6,0.6
2022-04-01T09:00:00,2402A,114.0261,33.5698,漯河市,市广电局,细颗粒物(PM2.5),67,66,67,48,49,80,53,49,49,24,24,13,8,0.6,0.5
2022-04-01T09:00:00,2403A,112.5192,32.9917,南阳市,环保局,细颗粒物(PM2.5),83,91,95,61,60,109,67,64,54,28,24,13,9,0.8,0.8
2022-04-01T09:00:00,2404A,112.5339,33.0086,南阳市,瓦房庄,细颗粒物(PM2.5),80,99,95,59,55,113,74,58,54,26,27,12,9,0.9,0.9
2022-04-01T09:00:00,2405A,112.5003,32.9735,南阳市,汉画馆,细颗粒物(PM2.5),82,94,96,60,62,110,72,56,43,24,21,12,8,1.0,1
2022-04-01T09:00:00,2406A,112.5779,33.0144,南阳市,气象站,细颗粒物(PM2.5),87,114,98,64,58,111,57,46,46,29,23,12,8,0.9,0.9
2022-04-01T09:00:00,2407A,112.548,32.9692,南阳市,理工学院,细颗粒物(PM2.5),84,106,94,62,58,115,71,59,59,18,16,13,9,0.9,0.9
2022-04-01T09:00:00,2408A,115.6702,34.4285,商丘市,环境监测站,细颗粒物(PM2.5),62,72,64,44,37,110,52,58,48,20,18,15,13,0.7,0.5
2022-04-01T09:00:00,2409A,115.6458,34.4045,商丘市,粮食局,细颗粒物(PM2.5),72,77,68,52,44,108,52,65,51,29,25,13,10,0.8,0.6
2022-04-01T09:00:00,2410A,115.6293,34.3948,商丘市,睢阳区环保局,颗粒物(PM10),63,75,71,44,35,112,55,71,57,27,20,12,9,0.7,0.5
2022-04-01T09:00:00,2420A,114.0189,32.9656,驻马店市,市一纸厂,细颗粒物(PM2.5),70,59,80,51,59,75,75,55,55,18,17,9,5,0.5,0.6
2022-04-01T09:00:00,2421A,114.0114,33.015,驻马店市,市彩印厂,细颗粒物(PM2.5),70,80,90,51,58,64,59,48,48,30,27,11,8,0.6,0.7
2022-04-01T09:00:00,2422A,113.9976,32.9771,驻马店市,天方二分厂,细颗粒物(PM2.5),62,65,84,44,59,63,56,47,47,34,22,11,5,0.7,0.8
2022-04-01T09:00:00,2423A,115.0601,30.2313,黄石市,沈家营,,47,47,44,13,25,110,48,50,50,18,17,7,7,0.7,0.6
2022-04-01T09:00:00,2424A,115.0817,30.2006,黄石市,陈家湾,,48,48,45,21,31,101,52,47,47,24,19,6,4,1.0,0.8
2022-04-01T09:00:00,2426A,114.8988,30.2019,黄石市,铁山,,42,40,44,29,27,123,50,52,52,12,14,5,5,1.1,0.7
2022-04-01T09:00:00,2427A,115.0307,30.2092,黄石市,团城山,,41,41,44,18,26,114,58,54,54,18,16,5,6,0.7,0.7
2022-04-01T09:00:00,2428A,111.0419,32.395,十堰市,武当山(对照点),,38,37,53,26,39,97,89,84,84,9,9,9,8,0.5,0.7
2022-04-01T09:00:00,2429A,110.78,32.6494,十堰市,滨河新村,颗粒物(PM10),82,113,90,55,52,75,12,50,15,32,27,9,7,1.0,0.7
2022-04-01T09:00:00,2430A,110.7258,32.6389,十堰市,刘家沟,细颗粒物(PM2.5),73,70,69,53,45,84,29,36,23,19,19,7,6,1.0,0.9
2022-04-01T09:00:00,2431A,110.8839,32.5714,十堰市,铁二处,颗粒物(PM10),52,54,66,30,42,84,33,33,26,16,16,8,8,0.6,0.6
2022-04-01T09:00:00,2432A,112.155,32.0197,襄阳市,襄城运动路,细颗粒物(PM2.5),82,106,90,60,53,71,28,52,40,34,22,10,10,1.1,0.9
2022-04-01T09:00:00,2433A,112.1392,32.0564,襄阳市,樊城新华路,细颗粒物(PM2.5),79,101,89,58,58,80,50,65,50,35,25,7,6,0.9,0.8
2022-04-01T09:00:00,2434A,112.1825,32.1142,襄阳市,高新管委会,细颗粒物(PM2.5),89,118,87,66,58,88,59,54,39,25,25,10,14,0.8,0.8
2022-04-01T09:00:00,2435A,112.2106,32.0903,襄阳市,襄州航空路,细颗粒物(PM2.5),75,93,81,55,46,89,58,65,45,22,18,10,9,1.0,1
2022-04-01T09:00:00,2436A,114.8938,30.3994,鄂州市,市政府,,50,48,56,35,37,104,56,43,43,16,17,1,1,0.7,0.8
2022-04-01T09:00:00,2437A,114.8989,30.3714,鄂州市,赵家坝,细颗粒物(PM2.5),60,47,51,43,40,113,56,52,52,17,12,7,6,0.9,0.9
2022-04-01T09:00:00,2439A,112.2014,31.0481,荆门市,竹园小学,颗粒物(PM10),82,113,98,59,64,93,73,86,65,17,15,9,7,0.7,0.8
2022-04-01T09:00:00,2440A,112.1969,30.9891,荆门市,掇刀,细颗粒物(PM2.5),82,84,97,60,65,90,77,86,72,16,13,7,4,0.6,0.7
2022-04-01T09:00:00,2441A,112.2213,31.0386,荆门市,石化一小,细颗粒物(PM2.5),83,113,95,61,67,83,64,70,61,21,15,12,10,0.6,0.6
2022-04-01T09:00:00,2443A,113.9153,30.9285,孝感市,文化路,,,82,117,38,74,35,26,17,17,99,87,8,7,0.5,0.5
2022-04-01T09:00:00,2444A,113.942,30.9075,孝感市,东城区,颗粒物(PM10),63,76,113,42,64,51,46,36,36,19,15,8,5,0.5,0.6
2022-04-01T09:00:00,2446A,114.9028,30.4742,黄冈市,职工中心,细颗粒物(PM2.5),53,46,51,37,42,110,63,48,48,23,21,7,7,0.6,0.7
