timepoint,stationcode,longitude,latitude,area,positionname,primarypollutant,aqi,pm10,pm10_24h,pm2_5,pm2_5_24h,o3,o3_24h,o3_8h,o3_8h_24h,no2,no2_24h,so2,so2_24h,co,co_24h
2025-02-20T2200,2566A,102.1879,31.914,阿坝藏族羌族自治州,州农科所,,23,22,27,9,9,71,,91,87,6,9,9,10,0,0
2025-02-20T2200,2568A,102.2502,31.8896,阿坝藏族羌族自治州,马师校,细颗粒物(PM2.5),52,,18,36,15,50,,95,85,25,9,4,5,0.6,0.5
2025-02-20T2200,3994A,102.2165,31.9024,阿坝藏族羌族自治州,马尔康中学西区,,22,22,15,13,12,70,,102,93,13,7,6,6,0.6,0.5
2025-02-20T2200,2695A,80.292,41.1694,阿克苏地区,电视台,颗粒物(PM10),126,202,208,69,62,58,,94,92,37,35,4,4,0.8,1
2025-02-20T2200,2696A,80.2613,41.1551,阿克苏地区,艺术中心,颗粒物(PM10),130,209,219,61,63,40,,88,84,45,33,9,7,0.9,1
2025-02-20T2200,2204A,105.6467,38.8363,阿拉善盟,西城区西花园,细颗粒物(PM2.5),67,68,67,48,43,87,,107,105,14,12,15,17,0.8,0.8
2025-02-20T2200,2205A,105.6985,38.8411,阿拉善盟,蒙二幼,颗粒物(PM10),59,67,58,36,36,80,,101,98,16,13,8,10,0.8,1
2025-02-20T2200,2206A,105.724,38.8516,阿拉善盟,环保局新楼,,49,49,53,27,30,92,,103,102,9,10,8,10,0.6,0.8
2025-02-20T2200,2708A,88.1264,47.8517,阿勒泰地区,市站,,19,19,15,11,7,56,,84,79,30,14,2,3,0.5,0.5
2025-02-20T2200,2630A,80.1161,32.5,阿里地区,阿里监测站,,30,6,9,3,4,94,,95,95,2,6,11,10,0.5,0.5
2025-02-20T2200,3192A,80.0903,32.5028,阿里地区,阿里藏医院,,31,16,12,3,4,98,,98,98,2,3,16,7,0.5,0.5
2025-02-20T2200,2642A,109.0318,32.6537,安康市,香溪洞,细颗粒物(PM2.5),124,,92,94,86,79,,88,86,17,17,10,11,0.8,0.8
2025-02-20T2200,2644A,109.0072,32.6975,安康市,汉滨区检察院,细颗粒物(PM2.5),120,128,125,91,85,86,,95,94,18,19,12,16,0.7,0.7
2025-02-20T2200,4054A,109.0325,32.6913,安康市,市邮政管理局,细颗粒物(PM2.5),127,130,124,96,89,84,,90,88,19,21,6,7,0.8,0.8
2025-02-20T2200,2291A,117.0809,30.5177,安庆市,环科院,细颗粒物(PM2.5),53,,66,37,49,65,,74,60,20,21,5,7,0.5,0.5
2025-02-20T2200,2292A,117.0331,30.5119,安庆市,马山宾馆,细颗粒物(PM2.5),55,,62,39,52,64,,78,59,24,24,7,8,0.6,0.6
2025-02-20T2200,2294A,116.9896,30.6145,安庆市,安庆大学,,45,31,70,31,50,75,,88,66,19,20,5,6,0.5,0.6
2025-02-20T2200,3173A,117.0598,30.5351,安庆市,市人大,细颗粒物(PM2.5),55,,66,39,51,65,,77,58,23,23,5,6,0.6,0.6
2025-02-20T2200,3122A,105.9606,26.2611,安顺市,伍家关,,40,40,23,23,11,31,,39,37,14,15,23,14,0.7,0.6
2025-02-20T2200,3123A,105.9408,26.2431,安顺市,凤凰山,细颗粒物(PM2.5),55,41,18,39,17,25,,34,33,18,17,40,21,0.8,0.7
2025-02-20T2200,3124A,105.9439,26.2564,安顺市,金钟山,,42,32,16,29,14,31,,37,37,12,13,22,18,0.8,0.7
2025-02-20T2200,3125A,105.8983,26.2481,安顺市,娄家坡,细颗粒物(PM2.5),52,,17,36,16,28,,37,36,14,15,17,16,0.8,0.7
2025-02-20T2200,1818A,114.4839,36.0621,安阳市,棉研所,细颗粒物(PM2.5),77,56,59,56,54,37,,70,60,27,21,7,9,0.5,0.5
2025-02-20T2200,1819A,114.3551,36.1017,安阳市,红庙街,细颗粒物(PM2.5),62,66,63,44,44,61,,76,71,16,15,2,5,0.2,0.7
2025-02-20T2200,1820A,114.361,36.0681,安阳市,银杏小区,细颗粒物(PM2.5),69,54,55,50,51,54,,80,72,24,15,4,6,0.5,0.5
2025-02-20T2200,3141A,114.3922,36.0878,安阳市,信访局,细颗粒物(PM2.5),68,58,61,49,51,52,,84,74,31,20,2,5,0.4,0.5
2025-02-20T2200,3669A,114.4705,36.0637,安阳市,左辅环卫站,细颗粒物(PM2.5),74,78,73,54,52,49,,81,72,18,14,3,5,0.4,0.5
2025-02-20T2200,3703A,114.2917,36.0949,安阳市,安钢职工学校,细颗粒物(PM2.5),77,56,62,56,56,64,,78,74,16,17,9,6,0.4,0.6
2025-02-20T2200,1748A,123.044,41.1196,鞍山市,深沟寺,细颗粒物(PM2.5),54,53,36,38,22,45,,71,64,27,15,9,11,0.6,0.6
2025-02-20T2200,1749A,123.011,41.0931,鞍山市,太阳城,,47,47,49,29,28,56,,72,68,18,22,8,18,0.5,1.3
2025-02-20T2200,1750A,123.0485,41.1442,鞍山市,太平,颗粒物(PM10),76,101,55,49,26,39,,75,64,40,22,9,10,0.9,0.8
2025-02-20T2200,1751A,122.9642,41.0971,鞍山市,铁西三道街,,45,45,53,29,22,60,,74,65,20,26,6,9,0.5,0.8
2025-02-20T2200,1753A,123.022,41.0821,鞍山市,明达新区,,44,44,51,25,27,66,,75,72,16,25,8,12,0.5,1
2025-02-20T2200,1754A,123.1289,41.0228,鞍山市,千山,,,,42,,20,,,40,,,19,,6,,0.8
2025-02-20T2200,4201A,122.9446,41.0826,鞍山市,兴盛南路290号,颗粒物(PM10),57,63,63,34,33,47,,68,58,35,37,22,12,0.4,1.1
2025-02-20T2200,2195A,107.4212,40.761,巴彦淖尔市,附二中,颗粒物(PM10),60,70,45,34,21,53,,72,68,23,12,13,16,0.5,0.5
2025-02-20T2200,2196A,107.37,40.7372,巴彦淖尔市,市环保大楼,细颗粒物(PM2.5),62,62,42,44,17,59,,77,71,24,13,8,9,0.4,0.3
2025-02-20T2200,1956A,86.1472,41.7538,巴音郭楞蒙古自治州,孔雀公园,颗粒物(PM10),128,205,237,33,47,35,,83,77,63,29,4,6,0.5,0.5
2025-02-20T2200,1957A,86.1972,41.7166,巴音郭楞蒙古自治州,棉纺厂,颗粒物(PM10),133,215,267,50,38,23,,90,79,79,33,3,4,0.6,0.5
2025-02-20T2200,1958A,86.2357,41.7173,巴音郭楞蒙古自治州,经济开发区,颗粒物(PM10),124,197,205,28,33,72,,98,96,19,8,4,4,0.4,0.4
2025-02-20T2200,2914A,106.7677,31.8794,巴中市,苏山坪,,49,42,41,34,32,57,,59,58,10,10,4,5,0.4,0.4
2025-02-20T2200,3181A,106.7768,31.8526,巴中市,市五中,细颗粒物(PM2.5),63,55,53,45,38,20,,56,50,26,24,4,4,0.7,0.7
2025-02-20T2200,3183A,106.7418,31.8654,巴中市,圣泉水务公司,细颗粒物(PM2.5),58,54,48,41,39,4,,61,49,49,25,6,6,0.8,0.7
2025-02-20T2200,3616A,106.7616,31.8344,巴中市,市中心医院,,48,37,50,33,46,22,,58,54,32,26,6,6,0.7,0.7
2025-02-20T2200,2235A,122.7911,45.6077,白城市,洮北区环保局,,30,30,28,18,17,59,,68,63,18,20,5,5,0.4,0.4
2025-02-20T2200,2236A,122.8738,45.5725,白城市,市环保局,,44,44,26,26,18,23,,70,51,51,22,8,7,0.3,0.1
2025-02-20T2200,2231A,126.4219,41.9171,白山市,喜丰,颗粒物(PM10),52,53,57,15,24,38,,73,62,38,30,21,15,0.8,0.6
2025-02-20T2200,2232A,126.4077,41.9419,白山市,环保局,颗粒物(PM10),55,60,60,29,25,59,,75,68,17,31,10,14,0.5,0.6
2025-02-20T2200,2647A,104.1724,36.5446,白银市,第三小学,"颗粒物(PM10),细颗粒物(PM2.5)",63,75,68,45,45,90,,105,101,23,23,97,67,0.8,0.9
2025-02-20T2200,2648A,104.1465,36.5482,白银市,动力公司,颗粒物(PM10),63,75,57,44,39,93,,112,108,23,21,20,23,0.7,0.8
2025-02-20T2200,2512A,106.6103,23.9011,百色市,市监测站,,29,29,24,19,17,7,,14,12,26,24,9,11,1.0,1
2025-02-20T2200,2513A,106.6538,23.8859,百色市,市中心血站,,30,22,26,21,22,4,,14,11,26,23,9,13,1.0,1
2025-02-20T2200,3406A,106.6085,23.8798,百色市,祈福高中,,25,24,23,17,15,8,,16,14,24,25,7,8,1.0,0.9
2025-02-20T2200,2270A,117.396,32.939,蚌埠市,工人疗养院,,46,46,51,24,28,71,,90,87,21,15,4,4,0.4,0.5
2025-02-20T2200,2271A,117.3605,32.9427,蚌埠市,百货大楼,,49,49,52,26,29,70,,87,83,19,12,4,5,0.3,0.4
2025-02-20T2200,2273A,117.4185,32.8911,蚌埠市,蚌埠学院,,45,39,49,31,34,57,,90,81,36,20,8,6,0.4,0.4
2025-02-20T2200,2274A,117.3533,32.9673,蚌埠市,淮上区政府,细颗粒物(PM2.5),55,51,51,39,34,71,,80,78,17,16,8,7,0.7,0.6
2025-02-20T2200,2275A,117.3145,32.8977,蚌埠市,高新区,,45,39,48,31,32,79,,90,88,16,19,7,8,0.4,0.5
2025-02-20T2200,3715A,117.3092,32.9314,蚌埠市,蚌埠田家炳中学,细颗粒物(PM2.5),52,51,53,36,33,73,,89,86,23,18,5,5,0.4,0.4
2025-02-20T2200,1585A,109.8756,40.6532,包头市,市环境监测站,颗粒物(PM10),51,51,21,19,12,6,,73,50,81,23,17,12,0.9,0.6
2025-02-20T2200,1587A,109.9991,40.5842,包头市,包头八中,颗粒物(PM10),66,81,30,43,16,8,,71,55,75,24,18,15,1.0,0.6
2025-02-20T2200,1588A,109.8538,40.6821,包头市,青山宾馆,,40,40,18,24,11,11,,70,48,70,23,10,11,0.8,0.6
2025-02-20T2200,1589A,109.8642,40.6288,包头市,惠龙物流,颗粒物(PM10),55,60,23,25,11,10,,76,56,79,23,12,10,1.5,0.9
2025-02-20T2200,1590A,110.0377,40.5546,包头市,东河鸿龙湾,细颗粒物(PM2.5),72,86,31,52,12,12,,78,55,88,26,22,13,1.1,0.6
2025-02-20T2200,3283A,109.9154,40.5685,包头市,滨河大厦,颗粒物(PM10),62,73,22,31,11,22,,76,61,75,25,12,10,0.9,0.7
2025-02-20T2200,3419A,109.9447,40.6261,包头市,包头市委党校,细颗粒物(PM2.5),69,72,31,50,13,8,,72,53,74,26,16,11,1.1,0.4
2025-02-20T2200,3683A,109.8331,40.6576,包头市,昆区政府,,44,44,20,29,11,14,,69,51,75,24,16,13,0.9,0.6
2025-02-20T2200,1930A,107.185,34.3063,宝鸡市,庙沟村,细颗粒物(PM2.5),138,,75,105,84,33,,35,33,27,24,5,6,0.7,0.8
2025-02-20T2200,1931A,107.0708,34.3017,宝鸡市,竹园沟,细颗粒物(PM2.5),123,,84,93,89,32,,37,35,27,27,6,6,0.8,0.8
2025-02-20T2200,1932A,107.1906,34.3672,宝鸡市,三陆医院,细颗粒物(PM2.5),117,,94,88,100,34,,41,41,26,23,3,4,0.9,0.9
2025-02-20T2200,1933A,107.1431,34.3547,宝鸡市,监测站,细颗粒物(PM2.5),117,91,96,88,95,40,,40,40,24,24,6,6,0.7,0.8
2025-02-20T2200,1934A,107.1186,34.3739,宝鸡市,技工学校,细颗粒物(PM2.5),120,,79,91,95,35,,39,39,23,21,3,3,0.9,0.9
2025-02-20T2200,1935A,107.3906,34.3528,宝鸡市,陈仓区环保局家属楼,细颗粒物(PM2.5),122,,93,92,102,21,,44,31,35,25,6,6,0.7,0.7
2025-02-20T2200,1936A,107.2058,34.3497,宝鸡市,文理学院,细颗粒物(PM2.5),108,83,90,81,89,38,,43,43,27,25,5,4,0.6,0.7
2025-02-20T2200,1937A,107.2386,34.3622,宝鸡市,三迪小学,细颗粒物(PM2.5),107,,90,80,96,29,,38,36,32,26,5,5,0.7,0.8
2025-02-20T2200,1051A,115.493,38.8632,保定市,游泳馆,细颗粒物(PM2.5),60,62,49,43,33,43,,59,,42,36,11,7,0.5,0.4
2025-02-20T2200,1052A,115.5213,38.8959,保定市,华电二区,颗粒物(PM10),69,88,49,47,34,6,,82,62,86,38,10,11,0.5,0.5
2025-02-20T2200,1053A,115.4713,38.9108,保定市,接待中心,细颗粒物(PM2.5),60,54,53,43,32,28,,81,70,65,33,7,8,0.5,0.6
2025-02-20T2200,1054A,115.4612,38.8416,保定市,地表水厂,颗粒物(PM10),58,65,67,35,38,37,,81,72,57,39,4,5,0.5,0.5
2025-02-20T2200,3581A,115.31981,38.95208,保定市,满城区生态环境分局,颗粒物(PM10),73,95,63,48,30,13,,84,65,84,41,10,11,0.9,0.6
2025-02-20T2200,3582A,115.47694,38.76408,保定市,清苑区第二中学,颗粒物(PM10),75,100,75,53,39,18,,77,62,72,43,8,7,0.5,0.6
2025-02-20T2200,3583A,115.62909,39.02311,保定市,徐水物探局,颗粒物(PM10),53,56,46,31,26,42,,106,87,80,38,5,6,0.7,0.4
2025-02-20T2200,4004A,115.4202,38.8656,保定市,双鹰农机,细颗粒物(PM2.5),59,56,59,42,35,42,,82,76,45,30,6,6,0.7,0.6
2025-02-20T2200,4034A,115.5150,38.8590,保定市,植保所站,细颗粒物(PM2.5),58,58,62,41,37,31,,78,67,58,42,6,7,0.7,0.7
2025-02-20T2200,2594A,99.1678,25.1081,保山市,市环境监测站,细颗粒物(PM2.5),53,53,46,37,34,85,,103,100,12,10,6,6,0.4,0.4
2025-02-20T2200,2595A,99.1711,25.1328,保山市,市环保局,颗粒物(PM10),51,52,48,33,32,96,,105,103,4,7,7,7,0.5,0.6
2025-02-20T2200,1866A,109.2262,21.588,北海市,牛尾岭水库,,,46,34,38,23,67,,94,85,,10,6,6,0.6,0.5
2025-02-20T2200,1867A,109.1436,21.4086,北海市,海滩公园,,42,42,36,24,18,91,,114,105,9,9,6,7,0.7,0.7
2025-02-20T2200,1868A,109.0981,21.4661,北海市,新市环保局,,40,40,37,24,21,86,,107,98,12,12,6,6,0.6,0.6
2025-02-20T2200,1869A,109.1778,21.5233,北海市,北海工业园,颗粒物(PM10),62,73,54,37,30,79,,113,98,15,13,8,9,0.8,0.7
2025-02-20T2200,3400A,109.1911,21.4415,北海市,龙潭自来水厂,,40,40,39,23,24,80,,104,95,13,12,6,8,0.5,0.5
2025-02-20T2200,1001A,116.3621,39.8784,北京市,万寿西宫,,22,13,18,7,8,70,,76,75,12,16,2,3,0.3,0.4
2025-02-20T2200,1002A,116.2202,40.2915,北京市,定陵,,,,,,,,,,,,,,,,
2025-02-20T2200,1003A,116.4174,39.9289,北京市,东四,,22,15,17,7,8,68,,80,78,11,13,3,3,0.2,0.3
2025-02-20T2200,1004A,116.4072,39.8863,北京市,天坛,,21,14,22,7,11,67,,75,74,14,17,3,4,0.4,0.4
2025-02-20T2200,1005A,116.462,39.9365,北京市,农展馆,,23,12,16,3,7,72,,84,82,16,20,4,5,0.4,0.5
2025-02-20T2200,1006A,116.3392,39.9295,北京市,官园,,19,16,15,7,7,59,,69,68,15,12,6,6,0.3,0.3
2025-02-20T2200,1007A,116.2878,39.9611,北京市,海淀万柳,,19,19,16,7,7,50,,64,62,22,16,2,3,0.5,0.5
2025-02-20T2200,1008A,116.6636,40.135,北京市,顺义新城,,23,16,15,7,7,72,,77,76,10,9,4,4,0.3,0.2
2025-02-20T2200,1009A,116.6275,40.3275,北京市,怀柔镇,,21,9,13,3,7,65,,70,70,12,8,3,2,0.5,0.5
2025-02-20T2200,1010A,116.2296,40.217,北京市,昌平镇,,20,14,18,10,10,62,,65,65,5,20,3,2,0.3,0.3
2025-02-20T2200,1011A,116.3966,39.9821,北京市,奥体中心,,20,13,14,7,8,63,,74,72,16,16,4,4,0.3,0.3
2025-02-20T2200,3281A,115.9718,40.4529,北京市,延庆夏都,,22,10,19,3,11,69,,74,74,3,14,5,5,0.3,0.4
2025-02-20T2200,3418A,116.8336,40.4095,北京市,密云新城,,24,8,9,3,4,75,,72,72,1,3,4,4,0.2,0.3
2025-02-20T2200,3671A,116.088,39.9726,北京市,门头沟三家店,,20,20,21,11,9,43,,76,69,24,23,3,3,0.2,0.2
2025-02-20T2200,3672A,116.1541,39.8204,北京市,丰台云岗,,20,16,21,8,10,64,,77,75,13,17,3,3,0.3,0.3
2025-02-20T2200,3673A,116.6804,39.9081,北京市,通州东关,,19,19,35,9,17,51,,66,59,24,27,5,8,0.2,0.6
2025-02-20T2200,3674A,115.9577,39.7603,北京市,房山燕山,,26,26,29,8,13,54,,69,66,17,17,3,3,0.2,0.3
2025-02-20T2200,3675A,116.4672,39.7733,北京市,大兴旧宫,,19,12,26,3,14,59,,67,66,14,23,1,3,0.1,0.4
2025-02-20T2200,3694A,115.986,40.4563,北京市,延庆石河营,,22,10,18,6,10,70,,75,75,2,13,4,4,0.4,0.4
2025-02-20T2200,3695A,116.6151,40.3053,北京市,怀柔新城,,23,10,12,6,9,71,,73,73,5,5,5,4,0.2,0.2
2025-02-20T2200,3696A,116.2545,39.8768,北京市,丰台小屯,,21,13,16,6,6,65,,72,71,8,12,1,2,0.2,0.2
2025-02-20T2200,3697A,116.84,40.3844,北京市,密云镇,,25,9,12,3,5,80,,77,76,5,9,2,1,0.2,0.3
2025-02-20T2200,4182A,116.1942,39.9158,北京市,八角北路9号,,20,20,19,8,7,64,,72,71,9,11,1,1,0.2,0.1
2025-02-20T2200,4194A,117.0790,40.1518,北京市,洳河巡河路,,24,6,15,3,12,76,,66,66,4,16,3,2,0.3,0.4
2025-02-20T2200,1761A,123.8275,41.3064,本溪市,大峪,,34,34,47,20,26,46,,70,60,24,32,7,8,0.6,1.1
2025-02-20T2200,1762A,123.7567,41.3325,本溪市,溪湖,颗粒物(PM10),58,66,56,40,31,10,,69,50,67,39,8,7,0.8,0.9
2025-02-20T2200,1763A,123.7169,41.3094,本溪市,彩屯,,48,48,51,33,34,28,,68,47,36,34,6,7,0.9,0.9
2025-02-20T2200,1764A,123.7669,41.2864,本溪市,东明,"颗粒物(PM10),细颗粒物(PM2.5)",53,56,55,37,31,9,,60,46,56,38,12,15,1.0,1.3
2025-02-20T2200,1765A,123.7992,41.2664,本溪市,新立屯,,42,34,46,29,38,30,,78,54,50,40,6,11,0.5,1.3
2025-02-20T2200,1766A,123.8142,41.3472,本溪市,威宁,颗粒物(PM10),59,68,65,34,28,9,,68,41,56,32,2,4,0.8,0.8
2025-02-20T2200,2587A,105.2864,27.3125,毕节市,八中,,29,27,14,20,11,47,,49,49,9,12,7,8,0.8,0.8
2025-02-20T2200,2588A,105.31,27.2944,毕节市,师专,,33,28,12,23,9,52,,56,56,10,12,5,5,0.7,0.7
2025-02-20T2200,4263A,105.3688,27.3598,毕节市,工业大道,,23,21,11,16,9,55,,58,57,12,13,7,7,0.7,0.7
2025-02-20T2200,1629A,118.0018,37.3617,滨州市,第二水厂,颗粒物(PM10),52,53,60,27,37,57,,89,82,29,36,12,14,0.6,0.7
2025-02-20T2200,1630A,117.9776,37.393,滨州市,北中新校,,46,46,64,27,38,66,,92,85,28,38,12,15,0.6,0.7
2025-02-20T2200,3514A,117.9378,37.3956,滨州市,中海酒店,,49,44,54,34,41,67,,96,88,22,27,9,13,0.5,0.6
2025-02-20T2200,3515A,117.9378,37.3553,滨州市,开发区一中,,46,46,68,24,39,70,,95,90,24,40,10,13,0.5,0.6
2025-02-20T2200,3516A,118.0917,37.694,滨州市,金海六路,,37,37,52,24,32,70,,90,82,21,29,7,13,0.9,0.9
2025-02-20T2200,4028A,117.9956,37.3753,滨州市,滨州市西街道办事处,细颗粒物(PM2.5),55,44,57,39,44,62,,90,84,26,35,10,12,0.8,0.9
2025-02-20T2200,2311A,115.8072,33.8399,亳州市,污水处理厂,,44,44,52,28,31,82,,86,83,12,12,8,6,0.4,0.5
2025-02-20T2200,2312A,115.7789,33.8518,亳州市,三国揽胜宫,,50,50,62,22,28,86,,89,87,15,17,8,5,0.3,0.4
2025-02-20T2200,3332A,115.7633,33.8034,亳州市,亳州学院,,50,50,56,23,27,78,,86,81,15,15,5,4,0.3,0.2
2025-02-20T2200,2693A,82.0485,44.8556,博尔塔拉蒙古自治州,市党校,细颗粒物(PM2.5),89,85,74,66,60,83,,96,96,23,20,8,8,2.0,1.8
2025-02-20T2200,2694A,82.0806,44.8969,博尔塔拉蒙古自治州,市环保局,细颗粒物(PM2.5),70,88,94,51,52,62,,73,72,48,35,6,7,1.8,1.5
2025-02-20T2200,1071A,116.8842,38.2991,沧州市,沧县城建局,细颗粒物(PM2.5),63,65,69,45,47,37,,74,66,55,43,5,10,0.6,0.6
2025-02-20T2200,1072A,116.8584,38.3254,沧州市,电视转播站,细颗粒物(PM2.5),58,55,65,41,44,50,,72,69,36,37,9,11,0.5,0.6
2025-02-20T2200,1073A,116.8709,38.3228,沧州市,市环保局,细颗粒物(PM2.5),59,60,63,42,45,41,,70,64,41,36,7,12,0.5,0.5
2025-02-20T2200,3324A,116.8136,38.3004,沧州市,河北水利电力学院,颗粒物(PM10),51,51,67,32,47,50,,71,66,31,34,6,12,0.4,0.5
2025-02-20T2200,2622A,97.1806,31.1273,昌都市,昌都监测站,细颗粒物(PM2.5),65,61,17,47,10,23,,69,61,43,8,7,6,1.6,0.6
2025-02-20T2200,3719A,97.1714,31.1406,昌都市,昌都会议中心,,25,13,11,10,6,79,,99,95,3,2,9,7,0.4,0.3
2025-02-20T2200,2690A,88.1236,43.8886,昌吉回族自治州,天山天池,,34,34,21,14,10,100,,113,112,5,4,5,5,0.5,0.5
2025-02-20T2200,2692A,87.2717,44.0297,昌吉回族自治州,新区政务中心,细颗粒物(PM2.5),73,87,124,53,87,62,,70,70,29,38,2,2,0.8,1.2
2025-02-20T2200,3613A,87.3095,44.0142,昌吉回族自治州,亚心广场,细颗粒物(PM2.5),104,95,137,78,118,55,,77,77,29,19,4,5,0.7,1
2025-02-20T2200,1119A,125.3325,43.9166,长春市,食品厂,,39,39,43,24,26,53,,71,61,28,34,8,8,0.3,0.5
2025-02-20T2200,1120A,125.2863,43.9027,长春市,客车厂,细颗粒物(PM2.5),60,60,43,43,35,26,,64,44,56,39,8,7,0.6,0.5
2025-02-20T2200,1121A,125.2841,43.8463,长春市,邮电学院,细颗粒物(PM2.5),57,50,32,40,27,49,,73,61,31,29,8,8,0.6,0.6
2025-02-20T2200,1122A,125.3716,43.8772,长春市,劳动公园,,28,,35,19,23,60,,75,68,24,27,8,7,0.4,0.5
2025-02-20T2200,1123A,125.3297,43.8805,长春市,园林处,,26,25,35,18,25,65,,72,68,14,24,9,10,0.3,0.4
2025-02-20T2200,1124A,125.4605,43.79,长春市,净月潭,,30,27,34,21,22,51,,73,65,18,19,7,7,0.5,0.5
2025-02-20T2200,1125A,125.7194,43.515,长春市,甩湾子,,,,,,,,,,,,,,,,
2025-02-20T2200,1126A,125.3863,43.8447,长春市,经开区环卫处,,32,32,40,17,22,58,,66,62,18,29,5,6,0.3,0.6
2025-02-20T2200,1127A,125.245,43.7783,长春市,高新区管委会,,38,38,38,21,29,44,,72,60,35,33,16,8,0.7,0.8
2025-02-20T2200,1128A,125.1761,43.8325,长春市,岱山公园,细颗粒物(PM2.5),63,57,37,45,31,12,,76,55,73,36,10,8,0.9,0.7
2025-02-20T2200,1335A,113.0833,28.2325,长沙市,经开区环保局,细颗粒物(PM2.5),123,118,39,93,38,34,,48,48,32,29,7,4,0.7,0.5
2025-02-20T2200,1336A,112.8872,28.2189,长沙市,高开区环保局,细颗粒物(PM2.5),125,125,50,95,50,51,,63,61,14,15,4,3,0.8,0.7
2025-02-20T2200,1337A,113.0792,28.2053,长沙市,马坡岭,细颗粒物(PM2.5),104,134,45,78,33,38,,51,51,28,28,3,2,0.7,0.6
2025-02-20T2200,1338A,112.9394,28.19,长沙市,湖南师范大学,细颗粒物(PM2.5),113,128,52,85,39,44,,60,59,16,16,2,3,0.7,0.6
2025-02-20T2200,1339A,113.0178,28.1322,长沙市,雨花区环保局,细颗粒物(PM2.5),127,124,45,96,38,42,,55,55,24,24,4,4,0.6,0.5
2025-02-20T2200,1340A,112.9792,28.2597,长沙市,伍家岭,细颗粒物(PM2.5),122,131,58,92,47,40,,53,51,20,25,4,3,0.7,0.7
2025-02-20T2200,1341A,113.0014,28.1944,长沙市,火车新站,细颗粒物(PM2.5),134,136,46,102,43,,,59,59,23,21,2,2,0.9,0.8
2025-02-20T2200,1342A,112.9844,28.1178,长沙市,天心区环保局,细颗粒物(PM2.5),102,119,40,76,34,39,,56,56,29,27,2,2,0.8,0.7
2025-02-20T2200,1343A,112.8908,28.1308,长沙市,湖南中医药大学,细颗粒物(PM2.5),127,130,60,96,47,42,,59,58,22,22,3,3,0.9,0.8
2025-02-20T2200,1344A,112.9581,28.3611,长沙市,沙坪,细颗粒物(PM2.5),122,94,44,92,38,41,,62,57,22,14,8,7,0.8,0.7
2025-02-20T2200,1727A,113.1147,36.1547,长治市,清华站,细颗粒物(PM2.5),119,97,68,90,67,47,,64,55,24,20,10,8,1.2,0.8
2025-02-20T2200,1730A,113.0886,36.2125,长治市,审计局,细颗粒物(PM2.5),138,,73,105,80,47,,68,60,23,20,6,5,1.2,0.8
2025-02-20T2200,1731A,113.0844,36.1856,长治市,长治八中,细颗粒物(PM2.5),139,,84,106,79,43,,62,53,26,22,9,8,1.2,0.8
2025-02-20T2200,2845A,113.1569,36.1911,长治市,德盛苑,细颗粒物(PM2.5),125,104,83,95,73,50,,67,56,24,23,9,3,1.3,1
2025-02-20T2200,3568A,113.06,36.0464,长治市,向阳小学,细颗粒物(PM2.5),138,107,83,105,67,40,,66,56,30,23,8,8,1.0,0.7
2025-02-20T2200,3569A,112.8792,36.3144,长治市,屯留一中,细颗粒物(PM2.5),137,,76,104,75,48,,76,68,33,26,17,8,0.8,0.7
2025-02-20T2200,4189A,113.1131,36.19948,长治市,英华南巷50号,细颗粒物(PM2.5),134,,75,102,76,54,,76,66,28,25,10,8,1.2,0.9
2025-02-20T2200,4190A,113.2367,36.3344,长治市,学府街1号,,,95,78,,40,72,,78,76,20,22,6,3,1.2,1
2025-02-20T2200,1854A,111.6975,28.9703,常德市,市二中,细颗粒物(PM2.5),134,149,126,102,78,23,,54,48,39,20,4,4,0.8,0.7
2025-02-20T2200,1857A,111.7158,29.1456,常德市,白鹤山,,,,,,,,,,,,,,,,
2025-02-20T2200,3138A,111.7153,29.0289,常德市,武陵区永安,细颗粒物(PM2.5),132,130,114,100,88,47,,56,52,31,23,2,3,0.8,0.7
2025-02-20T2200,3139A,111.6892,28.9881,常德市,鼎城区玉霞,细颗粒物(PM2.5),110,130,112,83,77,24,,54,48,42,18,3,4,1.0,0.8
2025-02-20T2200,3140A,111.6625,29.0531,常德市,武陵区长庚,细颗粒物(PM2.5),133,140,119,101,85,31,,50,46,35,24,4,4,0.7,0.7
2025-02-20T2200,1196A,119.9633,31.762,常州市,市监测站,,28,28,44,14,27,68,,82,77,20,21,7,8,0.2,0.4
2025-02-20T2200,1200A,119.9468,31.7069,常州市,武进监测站,,38,38,46,18,25,66,,81,76,18,19,8,8,0.2,0.5
2025-02-20T2200,1201A,119.9255,31.9087,常州市,安家,,31,31,46,11,23,68,,69,66,21,29,7,9,0.3,0.5
2025-02-20T2200,3002A,119.9805,31.8174,常州市,行政中心,,24,24,39,13,24,70,,77,72,16,21,11,12,0.4,0.6
2025-02-20T2200,3003A,120.0522,31.7748,常州市,经开区,,36,36,49,12,20,76,,88,82,19,22,5,7,0.2,0.4
2025-02-20T2200,3010A,119.9025,31.7964,常州市,钟楼,,28,28,49,12,23,69,,82,76,20,21,6,8,0.4,0.6
2025-02-20T2200,3429A,119.8598,31.7066,常州市,武进经发区,,27,27,48,13,27,69,,85,78,23,26,6,8,0.4,0.6
2025-02-20T2200,3430A,119.5826,31.7245,常州市,金坛城区,,29,29,52,16,31,68,,84,78,19,24,7,8,0.4,0.5
2025-02-20T2200,2220A,120.4318,41.5881,朝阳市,西梁,颗粒物(PM10),62,73,40,28,19,34,,78,65,39,23,11,6,0.9,0.6
2025-02-20T2200,2221A,120.4521,41.5646,朝阳市,河畔小区,,50,50,38,32,14,40,,69,62,28,16,7,5,0.8,0.7
2025-02-20T2200,2222A,120.4176,41.5648,朝阳市,八里堡,,44,44,48,16,18,51,,75,65,22,20,7,7,0.2,0.4
2025-02-20T2200,2223A,120.3806,41.5969,朝阳市,农业园区,,29,29,30,17,16,54,,78,65,20,14,7,7,0.6,0.5
2025-02-20T2200,1705A,116.6367,23.6719,潮州市,西园路,细颗粒物(PM2.5),55,40,43,39,35,81,,107,102,18,17,7,6,0.4,0.3
2025-02-20T2200,3026A,116.6183,23.6608,潮州市,市政府,,32,31,45,22,30,79,,104,99,20,21,5,4,0.7,0.7
2025-02-20T2200,4036A,116.6461,23.6761,潮州市,金山,,45,,38,31,31,81,,105,100,14,14,8,7,0.6,0.6
2025-02-20T2200,2472A,113.0073,25.9061,郴州市,马头岭,,13,,9,9,7,26,,39,30,23,19,7,8,0.7,0.7
2025-02-20T2200,2473A,113.0116,25.8226,郴州市,市职中,,10,8,12,7,9,14,,29,18,17,17,4,4,0.8,0.8
2025-02-20T2200,2475A,113.0383,25.8071,郴州市,市审计局,,13,13,13,7,8,16,,34,21,18,15,2,6,1.2,0.8
2025-02-20T2200,2476A,113.0348,25.7759,郴州市,市环保局,,11,11,19,6,10,12,,25,16,18,16,3,5,1.0,0.9
2025-02-20T2200,4252A,113.0138,25.8011,郴州市,好美居路49号,,13,,13,9,11,18,,34,21,22,20,5,8,0.8,0.8
2025-02-20T2200,1431A,103.9728,30.7236,成都市,金泉两河,颗粒物(PM10),53,56,44,36,26,24,,46,41,34,23,2,2,0.5,0.5
2025-02-20T2200,1432A,104.176,30.6872,成都市,十里店,细颗粒物(PM2.5),59,46,45,42,36,38,,51,49,19,22,2,2,0.6,0.6
2025-02-20T2200,1433A,104.079,30.5706,成都市,三瓦窑,细颗粒物(PM2.5),59,47,50,42,35,42,,47,46,22,29,3,4,0.7,0.8
2025-02-20T2200,1434A,104.1114,30.63,成都市,沙河铺,细颗粒物(PM2.5),62,48,49,44,43,43,,47,46,21,24,4,4,0.6,0.6
2025-02-20T2200,1437A,104.0786,30.6531,成都市,君平街,细颗粒物(PM2.5),58,58,48,41,39,35,,46,46,26,26,5,5,0.5,0.5
2025-02-20T2200,1438A,103.613,31.0283,成都市,灵岩寺,,,,,,,,,,,,,,,,
2025-02-20T2200,2880A,104.0239,30.65639,成都市,大石西路,细颗粒物(PM2.5),67,54,48,48,37,35,,44,43,28,28,4,4,0.5,0.6
2025-02-20T2200,3136A,104.2725,30.5589,成都市,龙泉驿区区政府,,35,29,44,24,36,45,,57,57,12,25,3,4,0.7,0.8
2025-02-20T2200,3357A,104.0106,30.6931,成都市,金博路,颗粒物(PM10),51,52,38,29,28,28,,40,39,33,28,2,2,0.5,0.5
2025-02-20T2200,3359A,104.0578,30.5225,成都市,华阳,,49,44,47,34,41,28,,41,38,33,32,6,6,0.6,0.7
2025-02-20T2200,3488A,104.3853,30.7453,成都市,青白江技师分院,细颗粒物(PM2.5),54,46,46,38,38,4,,51,41,41,25,5,4,0.4,0.4
2025-02-20T2200,3489A,104.0789,30.4072,成都市,科学城,,43,35,51,30,40,53,,54,54,13,26,4,4,0.7,0.7
2025-02-20T2200,4011A,103.8506,30.6947,成都市,光华大道三段,细颗粒物(PM2.5),60,48,38,43,23,31,,47,42,28,23,4,4,0.5,0.5
2025-02-20T2200,4224A,104.2433,30.5353,成都市,鲸龙路1057号,,,,51,,38,40,,57,57,,27,,1,0.7,0.7
2025-02-20T2200,1062A,117.9531,40.9081,承德市,铁路,,23,15,22,3,10,72,,77,77,5,13,4,5,0.2,0.4
2025-02-20T2200,1063A,117.9392,40.9763,承德市,中国银行,,34,34,23,13,8,62,,75,74,6,9,1,2,0.3,0.3
2025-02-20T2200,1064A,117.9503,40.928,承德市,开发区,,30,30,31,15,17,78,,84,84,4,14,2,3,0.2,0.4
2025-02-20T2200,1065A,117.8051,40.9655,承德市,文化中心,,43,43,38,16,10,52,,77,73,16,22,3,3,0.4,0.3
2025-02-20T2200,1066A,117.9268,41.0026,承德市,离宫,,25,25,22,15,15,68,,79,78,5,7,3,3,0.2,0.3
2025-02-20T2200,2314A,117.47,30.6618,池州市,池州学院,,36,,54,25,43,73,,69,61,14,19,4,6,0.5,0.5
2025-02-20T2200,3237A,117.4918,30.6617,池州市,展览馆,,46,,56,32,42,76,,80,64,11,14,4,5,0.5,0.5
2025-02-20T2200,3333A,117.5627,30.695,池州市,第八中学,,36,27,52,25,39,72,,79,62,12,15,3,4,0.4,0.4
2025-02-20T2200,3334A,117.5038,30.6243,池州市,第十二中学,,43,34,51,30,38,70,,81,65,14,13,4,5,0.5,0.5
2025-02-20T2200,1744A,118.9233,42.2816,赤峰市,松山一中,,20,20,22,3,7,56,,65,60,15,19,7,11,0.5,0.6
2025-02-20T2200,1745A,118.9576,42.2728,赤峰市,哈达街,,17,17,18,3,6,47,,66,57,15,21,5,7,0.4,0.6
2025-02-20T2200,1746A,118.8788,42.2554,赤峰市,天义路,,19,19,19,9,7,50,,61,56,16,15,15,9,0.5,0.5
2025-02-20T2200,3058A,119.2658,42.0353,赤峰市,银河街,,34,34,34,8,13,47,,59,54,18,19,18,19,0.6,0.8
2025-02-20T2200,3286A,118.9359,42.3147,赤峰市,桥北物流园区,,17,14,16,8,9,54,,64,58,17,21,5,5,0.5,0.5
2025-02-20T2200,2521A,107.3476,22.4136,崇左市,市环保局江州分局,,43,38,70,30,44,7,,14,13,20,18,5,5,1.0,1
2025-02-20T2200,4256A,107.3750,22.3736,崇左市,石景林东路7号,,45,45,73,30,47,6,,17,14,29,27,4,4,0.9,0.8
2025-02-20T2200,2298A,118.3093,32.3153,滁州市,老年大学,,40,40,56,23,36,71,,88,84,14,17,1,3,0.3,0.4
2025-02-20T2200,2299A,118.3244,32.2786,滁州市,人大宾馆,,38,38,53,18,37,70,,91,85,20,24,7,8,0.5,0.6
2025-02-20T2200,3207A,118.3118,32.3038,滁州市,市政府原办公楼,,35,34,44,24,33,67,,86,82,18,20,4,5,0.3,0.5
2025-02-20T2200,3331A,118.3267,32.2634,滁州市,图书馆,,44,44,55,17,34,66,,88,84,11,6,4,6,0.5,0.6
2025-02-20T2200,2605A,101.5482,25.0441,楚雄彝族自治州,州环境监测站,,39,39,38,27,31,102,,109,107,10,12,5,6,0.5,0.5
2025-02-20T2200,2606A,101.538,25.0492,楚雄彝族自治州,市经济开发区,,46,44,42,32,31,100,,106,104,10,13,6,7,0.6,0.5
2025-02-20T2200,2548A,107.5277,31.2827,达州市,达州职业技术学院,,40,40,44,21,28,19,,65,45,22,23,4,5,0.5,0.4
2025-02-20T2200,2549A,107.5086,31.2186,达州市,市环境监测站,,36,36,39,19,22,6,,58,45,51,34,4,4,0.7,0.5
2025-02-20T2200,2550A,107.4988,31.2132,达州市,凤凰小区,,34,34,33,22,23,10,,65,52,53,31,6,6,0.8,0.6
2025-02-20T2200,2551A,107.5082,31.1986,达州市,达县机关宾馆,细颗粒物(PM2.5),53,44,34,37,25,3,,61,46,56,35,5,4,0.6,0.5
2025-02-20T2200,2552A,107.4644,31.2124,达州市,市政中心,,44,44,42,19,20,14,,59,50,50,33,2,2,0.7,0.6
2025-02-20T2200,2614A,100.1542,25.7054,大理白族自治州,大理市环境监测站,,29,28,27,20,23,86,,87,87,6,7,6,6,0.3,0.5
2025-02-20T2200,2615A,100.2171,25.5811,大理白族自治州,大理古城,,36,34,27,25,23,95,,96,96,6,9,6,7,0.5,0.5
2025-02-20T2200,1109A,121.612,38.9741,大连市,甘井子,,33,33,33,21,18,68,,81,75,22,19,9,7,0.6,0.5
2025-02-20T2200,1110A,121.565,38.9511,大连市,周水子,,43,43,52,22,17,50,,77,66,32,27,8,9,0.6,0.4
2025-02-20T2200,1111A,121.5637,38.8845,大连市,星海三站,,30,30,32,17,18,57,,80,73,22,16,15,12,0.6,0.6
2025-02-20T2200,1112A,121.6302,38.9117,大连市,青泥洼桥,,34,34,33,19,16,69,,78,72,13,14,14,13,0.5,0.5
2025-02-20T2200,1113A,121.6251,38.8638,大连市,傅家庄,,28,28,29,19,16,61,,76,71,19,17,7,7,0.5,0.6
2025-02-20T2200,1114A,121.5213,38.8661,大连市,七贤岭,,37,37,29,20,16,58,,85,79,16,12,9,9,0.7,0.7
2025-02-20T2200,1115A,121.2529,38.8061,大连市,旅顺,,23,22,25,15,16,72,,79,76,11,11,12,12,0.7,0.6
2025-02-20T2200,1116A,121.7485,39.1311,大连市,金州,,40,40,42,20,21,78,,80,77,12,16,8,8,1.0,0.9
2025-02-20T2200,1117A,121.7811,39.0496,大连市,开发区,,38,30,31,26,20,69,,72,70,13,14,14,13,0.8,0.7
2025-02-20T2200,1118A,121.9762,39.0631,大连市,双D港,,41,41,35,26,20,77,,87,83,14,14,12,11,0.7,0.7
2025-02-20T2200,1789A,124.81117,46.03138,大庆市,大同区,细颗粒物(PM2.5),65,52,40,47,36,56,,68,66,16,13,3,4,0.7,0.6
2025-02-20T2200,1790A,125.129,46.533,大庆市,龙凤区,,33,33,31,20,23,38,,74,66,50,25,6,8,0.7,0.5
2025-02-20T2200,1791A,124.902,46.408,大庆市,红岗区,,42,33,33,29,22,65,,72,68,13,15,3,3,0.6,0.5
2025-02-20T2200,1792A,125.153,46.586,大庆市,萨尔图区,,37,37,32,18,19,45,,66,62,40,29,5,6,0.5,0.4
2025-02-20T2200,1793A,124.9042,46.6215,大庆市,让胡路区,,38,29,31,26,27,57,,71,68,21,12,7,7,0.4,0.3
2025-02-20T2200,3481A,125.141,46.634,大庆市,萨区政府监测点,,32,27,31,22,19,44,,68,64,33,25,5,5,0.7,0.5
2025-02-20T2200,1721A,113.3819,40.1097,大同市,果树场,,36,36,22,20,11,31,,82,63,24,6,11,8,0.6,0.4
2025-02-20T2200,1723A,113.2994,40.0758,大同市,云冈宾馆,颗粒物(PM10),59,68,23,23,8,24,,84,68,51,14,11,10,0.8,0.7
2025-02-20T2200,1724A,113.3444,40.0917,大同市,大同大学,,39,32,16,27,8,19,,81,62,51,16,13,15,0.7,0.5
2025-02-20T2200,1725A,113.2661,40.1269,大同市,安家小村,,44,44,24,12,6,41,,83,67,30,11,9,9,0.6,0.3
2025-02-20T2200,1726A,113.2711,40.0844,大同市,教育学院,细颗粒物(PM2.5),58,60,22,41,9,12,,82,64,66,16,13,8,1.0,0.5
2025-02-20T2200,3282A,113.3397,40.0597,大同市,大同市卫生学校,,42,42,17,22,8,57,,82,74,29,11,7,8,0.2,0.1
2025-02-20T2200,3565A,113.1367,40.1122,大同市,云冈站,,29,29,39,14,14,7,,80,61,54,26,32,22,0.6,0.6
2025-02-20T2200,3566A,113.1186,40.2556,大同市,图书馆,,31,31,25,18,16,36,,72,57,15,15,13,15,0.5,0.6
2025-02-20T2200,3567A,113.5931,40.0461,大同市,区一中,颗粒物(PM10),55,60,40,31,15,70,,86,81,13,12,21,17,0.5,0.4
2025-02-20T2200,4199A,113.2798,40.0997,大同市,魏都大道141号,颗粒物(PM10),54,58,24,33,9,19,,84,65,57,15,17,13,0.9,0.5
2025-02-20T2200,2269A,124.1069,50.4097,大兴安岭地区,科技局,,30,21,17,21,16,65,,74,71,6,5,4,7,0.3,0.2
2025-02-20T2200,3663A,124.1164,50.4278,大兴安岭地区,红旗社区,,35,24,12,24,10,56,,64,60,14,12,10,8,0.6,0.4
2025-02-20T2200,1600A,124.3303,40.0625,丹东市,江湾东路,,34,34,79,22,25,71,,77,75,13,16,10,11,0.6,0.7
2025-02-20T2200,1601A,124.4256,40.1503,丹东市,临江后街,,30,30,31,19,18,70,,77,73,10,17,8,12,0.6,0.6
2025-02-20T2200,1602A,124.3933,40.1461,丹东市,元宝山,,25,25,26,16,15,67,,72,70,9,11,9,10,0.8,0.8
2025-02-20T2200,1603A,124.3633,40.1092,丹东市,民主桥,,32,32,33,15,16,68,,70,69,11,17,6,6,0.9,0.9
2025-02-20T2200,3541A,109.5726,19.5167,儋州市,第一中学子站,,35,35,28,15,14,79,,89,87,3,5,3,3,0.5,0.6
2025-02-20T2200,3542A,109.5567,19.5187,儋州市,东坡学校子站,,32,32,30,16,14,83,,95,92,3,4,2,2,0.5,0.6
2025-02-20T2200,2616A,98.5842,24.428,德宏傣族景颇族自治州,德宏州监测站,细颗粒物(PM2.5),78,88,84,57,57,57,,117,103,36,30,9,11,1.0,0.9
2025-02-20T2200,3677A,98.5881,24.4368,德宏傣族景颇族自治州,芒市人民政府综合楼,颗粒物(PM10),66,82,98,44,51,89,,120,112,14,17,5,8,0.7,0.7
2025-02-20T2200,1901A,104.4239,31.1208,德阳市,东山公园,细颗粒物(PM2.5),57,40,41,40,39,43,,54,53,10,15,2,2,0.5,0.5
2025-02-20T2200,1902A,104.3826,31.1317,德阳市,西小区,细颗粒物(PM2.5),52,44,47,36,42,47,,53,52,21,24,3,3,0.5,0.5
2025-02-20T2200,1904A,104.3553,31.1091,德阳市,耐火材料厂,细颗粒物(PM2.5),54,45,46,38,40,39,,49,48,21,23,3,3,0.4,0.5
2025-02-20T2200,3639A,104.4019,31.1244,德阳市,市教育局,,48,39,43,33,39,37,,54,51,26,25,3,3,0.5,0.5
2025-02-20T2200,1622A,116.3032,37.4674,德州市,儿童乐园,细颗粒物(PM2.5),73,83,86,53,53,73,,94,84,27,34,14,19,1.0,1
2025-02-20T2200,1624A,116.2991,37.4451,德州市,监理站,细颗粒物(PM2.5),67,73,78,48,53,75,,96,87,33,38,16,18,0.8,0.7
2025-02-20T2200,3066A,116.2721,37.4379,德州市,九衢泉纯净水厂,颗粒物(PM10),63,75,78,39,49,75,,93,85,28,39,15,18,0.7,0.6
2025-02-20T2200,3371A,116.3728,37.4403,德州市,开发区人民医院,"颗粒物(PM10),细颗粒物(PM2.5)",62,73,84,44,52,71,,95,86,34,42,18,21,1.0,0.8
2025-02-20T2200,3372A,116.3572,37.4094,德州市,太阳城中学,细颗粒物(PM2.5),73,78,85,53,54,72,,95,86,25,38,16,18,1.2,1.1
2025-02-20T2200,3511A,116.5652,37.3319,德州市,陵城艺术中心,细颗粒物(PM2.5),70,75,91,51,59,61,,88,79,33,37,18,19,0.9,0.8
2025-02-20T2200,2621A,99.7056,27.8317,迪庆藏族自治州,迪庆州站,,37,37,28,14,15,87,,94,90,10,10,6,6,0.4,0.3
2025-02-20T2200,3180A,99.7136,27.8094,迪庆藏族自治州,质量技术监督局,,32,24,20,22,12,84,,91,87,10,9,8,8,0.3,0.3
2025-02-20T2200,2663A,104.6241,35.5734,定西市,东关小学,,,62,67,36,36,,,107,102,13,11,9,10,0.6,0.5
2025-02-20T2200,4257A,104.6092,35.5962,定西市,将台街,细颗粒物(PM2.5),54,54,66,38,37,63,,95,85,21,21,21,17,1.5,0.5
2025-02-20T2200,1389A,113.7547,23.0494,东莞市,莞城梨川,颗粒物(PM10),55,60,50,20,26,77,,131,107,27,27,4,4,0.4,0.4
2025-02-20T2200,1390A,113.7944,23.0128,东莞市,东城石井,,45,45,44,20,23,81,,123,104,27,28,8,8,0.4,0.4
2025-02-20T2200,1391A,113.7383,22.9658,东莞市,南城西平,颗粒物(PM10),63,76,46,27,24,69,,120,99,41,40,1,3,0.4,0.4
2025-02-20T2200,3319A,113.7338,23.0381,东莞市,万江金泰,,43,43,42,20,22,81,,136,113,29,29,2,2,0.4,0.4
2025-02-20T2200,3626A,113.7533,23.0202,东莞市,南城元岭,,47,47,46,20,24,76,,121,101,25,27,4,4,0.6,0.5
2025-02-20T2200,3627A,113.7875,23.0457,东莞市,东城主山,,49,49,51,19,23,75,,120,90,32,34,6,6,0.3,0.3
2025-02-20T2200,1666A,118.6614,37.4309,东营市,市环保局,,29,29,45,14,28,75,,90,86,18,28,3,9,0.3,0.4
2025-02-20T2200,3036A,118.6904,37.4338,东营市,开发区管委会,,29,29,51,14,30,82,,96,92,21,27,3,9,0.5,0.7
2025-02-20T2200,3365A,118.5719,37.565,东营市,垦利区民丰路,,27,27,48,14,28,64,,92,83,24,32,15,20,0.4,0.6
2025-02-20T2200,3498A,118.5055,37.8612,东营市,河口城区,,39,39,48,22,23,72,,94,89,14,15,4,6,0.6,0.7
2025-02-20T2200,3646A,118.4978,37.4623,东营市,胜利站,,36,36,50,19,26,78,,92,89,16,24,8,13,0.6,0.7
2025-02-20T2200,3734A,118.35,37.26,东营市,理想之城,,31,31,47,19,27,79,,92,88,17,37,7,12,0.6,0.7
2025-02-20T2200,1591A,110.0023,39.8129,鄂尔多斯市,综合楼,颗粒物(PM10),60,70,48,27,15,56,,67,65,36,36,13,13,0.5,0.5
2025-02-20T2200,1592A,109.9486,39.8261,鄂尔多斯市,巴音孟克林场办事处,,41,41,46,12,15,67,,69,69,23,36,9,12,0.3,0.4
2025-02-20T2200,1593A,109.7736,39.5986,鄂尔多斯市,康泽苑,细颗粒物(PM2.5),79,102,36,58,16,49,,78,70,34,23,24,8,0.4,0.5
2025-02-20T2200,1594A,109.8119,39.5989,鄂尔多斯市,华泰汽车城,,39,39,35,17,15,38,,73,63,43,30,6,5,0.3,0.5
2025-02-20T2200,1595A,109.9734,39.7884,鄂尔多斯市,奥林花园,颗粒物(PM10),52,53,47,17,16,55,,67,61,31,31,8,10,0.4,0.5
2025-02-20T2200,2436A,114.8938,30.3994,鄂州市,市政府,细颗粒物(PM2.5),109,83,82,82,66,44,,73,64,28,41,5,7,0.6,0.9
2025-02-20T2200,2437A,114.8989,30.3714,鄂州市,赵家坝,细颗粒物(PM2.5),104,83,78,78,63,48,,76,69,16,23,1,4,0.7,0.9
2025-02-20T2200,3654A,114.8094,30.4089,鄂州市,精准医疗中心,细颗粒物(PM2.5),93,78,79,69,62,48,,110,82,18,35,6,6,0.5,0.6
2025-02-20T2200,2454A,109.4978,30.2981,恩施土家族苗族自治州,湖北民院,细颗粒物(PM2.5),83,,48,61,52,40,,66,57,28,23,6,6,0.7,0.6
2025-02-20T2200,2455A,109.4707,30.2798,恩施土家族苗族自治州,州电力总公司,,,75,59,61,50,31,,61,51,20,19,6,4,,0.9
2025-02-20T2200,3549A,109.5061,30.3772,恩施土家族苗族自治州,龙凤新区,细颗粒物(PM2.5),57,52,43,40,33,18,,60,44,13,13,6,7,0.7,0.6
2025-02-20T2200,2499A,108.3411,21.6158,防城港市,沙万,细颗粒物(PM2.5),77,74,74,56,52,28,,74,67,26,23,9,10,1.0,0.9
2025-02-20T2200,2500A,108.3514,21.7731,防城港市,防城档案局,细颗粒物(PM2.5),75,75,85,55,53,18,,45,41,18,20,4,4,0.9,0.9
2025-02-20T2200,2501A,108.3506,21.6414,防城港市,大海花园,细颗粒物(PM2.5),108,,76,81,75,37,,86,76,19,21,6,7,1.1,1.1
2025-02-20T2200,1371A,113.1294,23.0067,佛山市,湾梁,,48,48,56,22,22,68,,135,122,32,40,8,7,0.6,0.6
2025-02-20T2200,1372A,113.1083,23.0478,佛山市,华材职中,,48,48,48,28,25,77,,157,143,34,38,9,8,0.5,0.5
2025-02-20T2200,1373A,113.144,23.0453,佛山市,南海气象局,,50,50,46,30,25,59,,138,121,33,32,10,8,0.4,0.4
2025-02-20T2200,1374A,113.2881,22.8094,佛山市,顺德苏岗,,45,41,49,31,21,61,,108,96,34,31,5,5,0.5,0.5
2025-02-20T2200,1376A,112.8383,22.8678,佛山市,高明孔堂,,47,47,40,25,23,86,,127,120,13,15,5,5,0.7,0.7
2025-02-20T2200,1377A,112.8836,23.1588,佛山市,三水监测站,,35,31,56,24,32,81,,131,116,30,44,1,2,0.4,0.6
2025-02-20T2200,1378A,112.867,23.185,佛山市,三水云东海,,48,48,51,19,31,89,,159,141,30,46,3,2,0.5,0.7
2025-02-20T2200,3625A,113.2544,22.7642,佛山市,容桂街道办,,41,41,40,24,24,65,,117,99,32,32,7,7,0.6,0.6
2025-02-20T2200,1280A,119.3903,26.0543,福州市,鼓山,,,,6,,3,,,86,,,7,,3,,0.4
2025-02-20T2200,1282A,119.2681,26.0504,福州市,师大,,27,8,10,3,4,85,,80,80,10,13,3,3,0.4,0.5
2025-02-20T2200,1283A,119.2984,26.1028,福州市,五四北路,,26,17,8,3,4,82,,81,80,15,16,3,3,0.5,0.6
2025-02-20T2200,1284A,119.2648,26.0768,福州市,杨桥西路,,28,14,9,3,4,88,,84,84,12,16,3,3,0.4,0.4
2025-02-20T2200,1285A,119.317,26.0746,福州市,紫阳,,26,8,11,3,4,81,,78,78,13,17,2,2,0.4,0.5
2025-02-20T2200,3048A,119.5799,26.0936,福州市,九龙,,24,6,9,3,5,75,,73,73,12,15,3,3,0.4,0.6
2025-02-20T2200,3526A,119.5189,25.9664,福州市,吴航,,26,6,10,3,7,81,,82,82,10,12,4,3,0.4,0.6
2025-02-20T2200,1755A,123.7977,41.8491,抚顺市,望花区,细颗粒物(PM2.5),84,68,72,62,43,12,,68,54,56,36,2,4,1.3,1.1
2025-02-20T2200,1756A,123.9161,41.8822,抚顺市,顺城区,细颗粒物(PM2.5),67,68,68,48,39,29,,67,56,42,38,7,7,1.0,1
2025-02-20T2200,1757A,124.0436,41.8611,抚顺市,东洲区,细颗粒物(PM2.5),64,65,70,46,46,37,,61,55,26,21,6,6,0.8,0.8
2025-02-20T2200,1758A,123.9247,41.8642,抚顺市,新抚区,细颗粒物(PM2.5),57,61,61,40,34,17,,69,57,48,37,3,4,0.9,0.8
2025-02-20T2200,1759A,124.0972,41.8961,抚顺市,大伙房水库,细颗粒物(PM2.5),72,61,49,52,35,44,,64,57,24,24,7,6,0.8,0.7
2025-02-20T2200,1760A,123.7086,41.8391,抚顺市,沈抚新城,细颗粒物(PM2.5),84,,50,62,51,10,,70,47,70,36,4,4,1.3,0.9
2025-02-20T2200,2376A,116.2127,28.0814,抚州市,桐源党溪,,24,24,30,12,14,47,,45,45,3,3,1,2,0.5,0.6
2025-02-20T2200,2377A,116.3544,27.9831,抚州市,市站,,19,16,22,11,13,59,,51,51,8,15,3,9,0.8,0.9
2025-02-20T2200,2378A,116.3565,27.963,抚州市,血防站,,25,25,27,10,14,62,,54,54,8,16,8,12,0.7,0.8
2025-02-20T2200,2379A,116.3564,28.0007,抚州市,采茶剧团,,18,13,20,12,14,42,,40,38,3,9,5,13,0.4,0.6
2025-02-20T2200,2380A,116.385,27.9647,抚州市,医学分院,,19,19,24,9,13,47,,42,42,6,13,26,6,0.8,0.8
2025-02-20T2200,2207A,121.6094,41.998,阜新市,工业园区,细颗粒物(PM2.5),153,123,46,117,25,25,,76,57,47,20,18,11,1.3,0.4
2025-02-20T2200,2208A,121.6697,42.0279,阜新市,长青街,,38,36,25,26,12,26,,73,63,37,10,6,6,0.6,0.4
2025-02-20T2200,2209A,121.6673,42.0705,阜新市,农业园区,,39,29,22,27,7,62,,71,67,9,8,12,9,0.4,0.2
2025-02-20T2200,2210A,121.6717,42.0224,阜新市,东苑,细颗粒物(PM2.5),98,,32,73,15,12,,65,50,56,14,23,6,1.4,0.7
2025-02-20T2200,2211A,121.6506,42.0498,阜新市,玉龙新城,细颗粒物(PM2.5),73,68,52,53,23,10,,76,47,56,25,10,6,1.0,0.5
2025-02-20T2200,2301A,115.8277,32.8929,阜阳市,市监测站,,46,42,61,32,48,80,,81,81,10,12,6,6,0.3,0.3
2025-02-20T2200,2303A,115.8554,32.8605,阜阳市,开发区,颗粒物(PM10),53,55,74,35,44,76,,75,75,15,17,6,6,0.4,0.4
2025-02-20T2200,2875A,115.784,32.8892,阜阳市,阜阳职业技术学院,,45,42,61,31,43,78,,79,79,10,12,7,7,0.3,0.3
2025-02-20T2200,3468A,115.7901,32.8613,阜阳市,市规划展馆,,45,45,63,25,43,83,,86,86,13,15,6,7,0.2,0.5
2025-02-20T2200,3469A,115.836,32.9183,阜阳市,枣园社区,,46,46,65,23,44,85,,86,86,11,13,5,5,0.4,0.5
2025-02-20T2200,2669A,102.9099,34.9841,甘南藏族自治州,州政府,颗粒物(PM10),59,68,47,27,26,54,,86,79,26,13,14,11,0.6,0.5
2025-02-20T2200,3380A,102.8914,34.9617,甘南藏族自治州,甘肃民族师范学院,,42,42,49,11,18,74,,86,76,14,18,4,5,0.5,0.5
2025-02-20T2200,2570A,101.9603,30.0475,甘孜藏族自治州,水桥子,,20,18,11,14,7,36,,61,56,26,15,3,3,0.6,0.6
2025-02-20T2200,3065A,101.9533,29.9972,甘孜藏族自治州,州环保局,,19,16,13,3,6,23,,68,60,38,14,4,4,0.6,0.6
2025-02-20T2200,3414A,115.8347,28.932,赣江新区,桑海产业园,细颗粒物(PM2.5),57,46,37,40,30,40,,41,40,18,17,5,5,0.4,0.5
2025-02-20T2200,2362A,114.9017,25.9149,赣州市,通天岩,,17,17,22,3,5,17,,27,18,12,10,8,8,0.6,0.8
2025-02-20T2200,2363A,114.9367,25.8664,赣州市,地委,,16,16,23,3,10,25,,29,24,11,9,2,7,0.8,0.9
2025-02-20T2200,2364A,114.9461,25.8481,赣州市,气象台,,23,23,29,3,8,28,,34,26,19,16,7,6,0.6,0.7
2025-02-20T2200,2365A,114.9322,25.8333,赣州市,市图书馆,,13,13,16,7,9,26,,34,26,19,16,4,4,0.6,0.8
2025-02-20T2200,2366A,114.8905,25.8471,赣州市,华坚鞋城,,10,7,20,7,11,30,,28,22,11,12,5,5,0.2,0.2
2025-02-20T2200,3109A,115.0093,25.8613,赣州市,赣县区卫计委,,9,7,16,3,11,21,,24,21,17,14,2,3,0.4,0.5
2025-02-20T2200,2683A,106.2319,36.1417,固原市,马园,,50,47,64,35,47,55,,72,68,32,26,6,6,0.6,0.7
2025-02-20T2200,2684A,106.2792,36.0022,固原市,监测站,细颗粒物(PM2.5),72,61,46,52,39,74,,86,84,15,12,6,5,0.6,0.5
2025-02-20T2200,2685A,106.2375,36.0211,固原市,新区,细颗粒物(PM2.5),62,59,46,44,34,68,,80,78,19,14,6,5,0.6,0.5
2025-02-20T2200,3522A,106.2177,35.9959,固原市,原州区十五小,细颗粒物(PM2.5),107,92,55,80,42,58,,86,79,30,16,11,10,0.9,0.7
2025-02-20T2200,2543A,106.6308,30.5278,广安市,小平旧居,,,,,,,,,,,,,,,,
2025-02-20T2200,2544A,106.6303,30.4576,广安市,市委,,29,29,38,20,31,50,,63,62,11,11,3,3,0.4,0.5
2025-02-20T2200,2545A,106.6271,30.4663,广安市,友谊中学,,35,33,40,24,31,45,,63,59,19,15,2,2,0.5,0.5
2025-02-20T2200,2547A,106.6388,30.4551,广安市,广电花园,,40,,37,28,34,47,,60,58,14,16,2,2,0.3,0.4
2025-02-20T2200,2902A,106.6351,30.4865,广安市,北辰小学,,32,28,40,22,30,48,,64,62,16,13,4,4,0.5,0.6
2025-02-20T2200,2523A,105.8945,32.4535,广元市,黑石坡,,42,37,43,29,34,7,,26,24,20,18,9,9,0.5,0.5
2025-02-20T2200,2524A,105.821,32.4444,广元市,老城,细颗粒物(PM2.5),62,46,51,44,32,39,,46,45,30,26,1,2,0.3,0.3
2025-02-20T2200,2526A,105.8628,32.4287,广元市,监测站,细颗粒物(PM2.5),57,55,44,40,36,43,,46,46,30,25,3,3,0.6,0.6
2025-02-20T2200,3617A,105.8047,32.4166,广元市,经开区,细颗粒物(PM2.5),72,57,47,52,42,39,,44,44,27,27,2,2,0.6,0.6
2025-02-20T2200,1345A,113.2347,23.1423,广州市,广雅中学,,40,40,52,24,26,84,,132,121,28,39,4,4,0.5,0.6
2025-02-20T2200,1346A,113.2612,23.105,广州市,市五中,,42,42,48,20,24,82,,122,115,28,36,3,3,0.6,0.6
2025-02-20T2200,1348A,113.3478,23.0916,广州市,广东商学院,,42,42,44,24,26,67,,112,104,34,44,4,4,0.7,0.7
2025-02-20T2200,1349A,113.4332,23.1047,广州市,市八十六中,,47,47,48,20,25,51,,103,76,53,62,3,4,0.3,0.4
2025-02-20T2200,1350A,113.3505,22.9483,广州市,番禺中学,,38,38,41,22,22,67,,115,105,34,32,5,5,0.7,0.7
2025-02-20T2200,1351A,113.2146,23.3916,广州市,花都师范,颗粒物(PM10),54,57,60,26,31,64,,111,99,41,49,6,6,0.7,0.7
2025-02-20T2200,1352A,113.2597,23.1331,广州市,市监测站,,40,40,44,19,22,79,,121,114,31,39,5,6,0.6,0.6
2025-02-20T2200,1353A,113.5618,23.312,广州市,九龙镇镇龙,颗粒物(PM10),59,68,56,35,31,43,,140,111,71,41,8,6,0.6,0.5
2025-02-20T2200,1354A,113.2765,23.1544,广州市,麓湖,,48,48,44,24,23,77,,123,115,36,40,4,3,0.5,0.5
2025-02-20T2200,1355A,113.443,23.3035,广州市,帽峰山森林公园,颗粒物(PM10),51,51,40,16,14,66,,114,101,37,29,12,8,0.8,0.7
2025-02-20T2200,2846A,113.3221,23.1322,广州市,体育西,颗粒物(PM10),51,51,50,26,26,70,,118,109,33,34,4,4,0.5,0.6
2025-02-20T2200,3298A,113.5717,23.5491,广州市,从化街口,"颗粒物(PM10),细颗粒物(PM2.5)",57,64,66,40,43,84,,172,146,41,38,9,10,0.7,0.8
2025-02-20T2200,3299A,113.3472,23.3692,广州市,白云竹料,颗粒物(PM10),51,52,55,24,29,78,,120,111,39,39,8,8,0.7,0.7
2025-02-20T2200,3300A,113.2981,23.237,广州市,白云嘉禾,颗粒物(PM10),56,61,52,27,26,65,,109,99,54,55,6,6,0.5,0.6
2025-02-20T2200,3301A,113.4256,23.1716,广州市,黄埔科学城,颗粒物(PM10),55,59,50,26,26,49,,114,92,54,50,8,8,0.5,0.5
2025-02-20T2200,3302A,113.3942,23.0483,广州市,番禺大学城,颗粒物(PM10),56,62,55,22,22,49,,87,78,40,41,8,8,0.9,0.9
2025-02-20T2200,3303A,113.4922,22.8168,广州市,南沙黄阁,,33,33,43,22,20,66,,97,88,30,34,5,5,0.4,0.5
2025-02-20T2200,3304A,113.5342,22.7896,广州市,南沙街,,32,32,39,19,19,68,,100,91,36,34,6,6,0.6,0.6
2025-02-20T2200,3443A,113.2902,23.5544,广州市,花都梯面,颗粒物(PM10),58,65,48,38,28,87,,132,121,26,34,8,5,0.8,0.7
2025-02-20T2200,3445A,113.7858,23.7478,广州市,从化良口,,46,44,36,32,27,81,,120,106,16,14,7,6,0.6,0.6
2025-02-20T2200,3446A,113.8051,23.2614,广州市,增城荔城,颗粒物(PM10),54,57,57,29,33,84,,177,146,26,26,6,8,0.5,0.5
2025-02-20T2200,2505A,109.568,23.1478,贵港市,德智高中,,,,,,,,,,,,,,,,
2025-02-20T2200,2506A,109.6047,23.0666,贵港市,江南子站,细颗粒物(PM2.5),109,100,87,82,65,20,,47,36,24,26,7,9,0.8,0.8
2025-02-20T2200,2507A,109.6014,23.0948,贵港市,贵城子站,细颗粒物(PM2.5),90,93,70,67,45,20,,44,34,25,24,6,7,0.6,0.5
2025-02-20T2200,2508A,109.5669,23.1065,贵港市,荷城子站,细颗粒物(PM2.5),104,88,64,78,46,20,,33,27,10,16,9,9,0.8,0.7
2025-02-20T2200,3405A,109.5886,23.1172,贵港市,新世纪学校,细颗粒物(PM2.5),108,102,70,81,50,22,,40,32,19,17,1,1,0.8,0.8
2025-02-20T2200,1439A,106.6899,26.5998,贵阳市,马鞍山,,32,22,9,22,5,44,,41,41,7,9,5,4,0.2,0.3
2025-02-20T2200,1441A,106.6243,26.6266,贵阳市,鉴湖路,,39,39,18,14,5,38,,46,39,13,12,11,10,0.5,0.5
2025-02-20T2200,1442A,106.7487,26.6343,贵阳市,燕子冲,,28,,11,19,8,48,,51,48,7,7,6,6,0.5,0.5
2025-02-20T2200,1443A,106.6555,26.4365,贵阳市,碧云窝,,34,34,17,22,6,41,,42,42,15,18,11,10,0.5,0.5
2025-02-20T2200,1445A,106.7109,26.6027,贵阳市,红边门,,,,10,27,11,45,,44,43,,5,10,9,0.6,0.6
2025-02-20T2200,1446A,106.7164,26.5699,贵阳市,新华路,,27,27,15,17,9,46,,49,47,8,9,6,7,0.6,0.5
2025-02-20T2200,1447A,106.674,26.5424,贵阳市,太慈桥,,31,31,12,19,7,45,,46,46,13,14,7,6,0.2,0.2
2025-02-20T2200,1552A,106.805,26.3003,贵阳市,桐木岭,,24,24,21,14,11,40,,42,42,8,8,12,9,0.9,0.9
2025-02-20T2200,4230A,106.6882,26.5695,贵阳市,花果园大街66号,,43,,6,30,12,38,,40,40,11,10,5,5,0.5,0.5
2025-02-20T2200,4231A,106.6873,26.5169,贵阳市,漓江路57号,,25,24,11,17,8,45,,49,48,12,14,10,10,0.5,0.5
2025-02-20T2200,1862A,110.4144,25.3167,桂林市,电子科大尧山校区,,20,,3,14,5,50,,51,51,10,8,4,4,0.7,0.7
2025-02-20T2200,1864A,110.3089,25.2708,桂林市,龙隐路小学,,17,10,6,6,6,52,,54,51,11,10,8,7,0.9,0.9
2025-02-20T2200,1865A,110.2869,25.2178,桂林市,八中,,14,7,9,3,9,43,,44,41,18,18,6,6,0.6,0.6
2025-02-20T2200,3531A,110.296,25.1253,桂林市,旅游学院,,13,,4,9,6,39,,40,39,18,18,6,6,0.8,0.8
2025-02-20T2200,4222A,110.1835,25.2444,桂林市,环湖路276号,,16,6,8,3,7,51,,52,46,10,10,7,6,0.7,0.7
2025-02-20T2200,4301A,110.2803,25.2773,桂林市,信义路13号,,16,,7,10,8,49,,51,45,13,13,12,12,0.5,0.5
2025-02-20T2200,2674A,100.2561,34.4714,果洛藏族自治州,玛沁县大武镇,,37,37,41,20,13,73,,97,88,3,3,18,19,0.4,0.5
2025-02-20T2200,1129A,126.5422,45.755,哈尔滨市,岭北,,26,18,37,14,31,81,,83,81,18,21,5,9,0.6,0.7
2025-02-20T2200,1130A,126.561,45.8167,哈尔滨市,松北商大,,28,22,36,19,29,65,,76,72,15,19,8,13,0.4,0.5
2025-02-20T2200,1131A,126.979,45.5419,哈尔滨市,阿城会宁,细颗粒物(PM2.5),69,,68,50,58,38,,75,70,47,29,12,10,1.0,0.9
2025-02-20T2200,1132A,126.599,45.7222,哈尔滨市,南岗学府路,,25,22,41,9,22,79,,50,,12,22,3,10,0.3,0.4
2025-02-20T2200,1133A,126.689,45.7733,哈尔滨市,太平宏伟公园,,27,27,40,18,25,67,,74,72,19,23,8,15,0.5,0.8
2025-02-20T2200,1134A,126.635,45.7667,哈尔滨市,道外承德广场,,44,44,48,27,30,70,,75,74,18,23,16,12,0.6,0.3
2025-02-20T2200,1135A,126.685,45.7319,哈尔滨市,香坊红旗大街,,28,27,37,19,34,75,,76,76,10,23,7,15,0.6,0.8
2025-02-20T2200,1136A,126.6411,45.7258,哈尔滨市,动力和平路,,46,,34,32,27,70,,79,77,17,18,33,16,0.6,0.5
2025-02-20T2200,1137A,126.593,45.7478,哈尔滨市,道里建国路,,20,16,36,14,28,61,,69,65,19,18,1,8,0.5,0.5
2025-02-20T2200,1138A,126.615,45.61,哈尔滨市,平房东轻厂,,42,29,53,29,40,27,,73,60,58,39,8,7,0.8,0.9
2025-02-20T2200,1139A,126.595,45.9855,哈尔滨市,呼兰师专,,50,,46,35,40,49,,74,64,32,26,8,7,0.6,0.7
2025-02-20T2200,1140A,126.6206,45.6842,哈尔滨市,省农科院,,26,22,55,18,44,71,,80,79,16,32,12,14,0.4,0.7
2025-02-20T2200,2688A,93.5128,42.8172,哈密市,地区监测站,颗粒物(PM10),68,85,82,27,25,48,,86,78,52,32,12,7,0.8,0.4
2025-02-20T2200,2689A,93.4961,42.8328,哈密市,哈密师范学校,颗粒物(PM10),61,71,62,23,21,41,,85,76,56,40,7,6,1.1,0.8
2025-02-20T2200,2671A,100.9048,36.9639,海北藏族自治州,海晏县西海镇,,41,41,64,21,35,99,,102,102,1,10,9,11,0.4,0.6
2025-02-20T2200,3867A,102.0738,36.5056,海东市,平安区公安北苑,细颗粒物(PM2.5),63,74,74,45,40,102,,106,105,14,15,16,20,0.7,0.6
2025-02-20T2200,1409A,110.576,19.9507,海口市,东寨港,,33,33,28,18,15,73,,87,82,3,3,3,3,0.5,0.5
2025-02-20T2200,1410A,110.3232,20.0574,海口市,海南大学,颗粒物(PM10),55,59,44,22,19,77,,95,87,14,9,3,5,0.5,0.4
2025-02-20T2200,1411A,110.283,20.0053,海口市,秀英海南医院,,46,46,37,20,16,85,,95,89,10,9,4,4,0.4,0.4
2025-02-20T2200,1412A,110.338,19.9969,海口市,海南师范大学,,49,49,38,20,16,82,,100,92,10,8,3,6,0.4,0.4
2025-02-20T2200,1413A,110.33,20.0356,海口市,龙华路环保局宿舍,,48,48,35,20,16,76,,95,88,11,7,4,3,0.4,0.4
2025-02-20T2200,3539A,110.5111,19.9736,海口市,桂林洋子站,,43,43,32,18,15,85,,98,93,4,5,3,3,0.4,0.3
2025-02-20T2200,2673A,100.6188,36.2866,海南藏族自治州,共和县恰卜恰镇,,35,33,53,3,20,112,,115,115,2,16,8,9,0.3,0.5
2025-02-20T2200,2676A,97.3731,37.3753,海西蒙古族藏族自治州,德令哈市,,43,43,40,22,15,82,,107,102,2,5,16,16,0.4,0.5
2025-02-20T2200,1048A,114.5302,36.6116,邯郸市,东污水处理厂,细颗粒物(PM2.5),62,60,53,44,36,65,,86,78,13,15,1,3,0.4,0.5
2025-02-20T2200,1049A,114.4918,36.5713,邯郸市,矿院,细颗粒物(PM2.5),67,56,56,48,44,59,,84,74,20,17,1,3,0.4,0.5
2025-02-20T2200,1050A,114.484,36.6133,邯郸市,丛台公园,细颗粒物(PM2.5),65,66,54,47,44,59,,86,79,17,14,8,9,0.4,0.5
2025-02-20T2200,3458A,114.7895,36.5593,邯郸市,香泉濮院小区,细颗粒物(PM2.5),63,68,47,45,35,60,,90,77,18,13,2,3,0.5,0.5
2025-02-20T2200,3579A,114.50634,36.77178,邯郸市,永年区实验高中,细颗粒物(PM2.5),73,89,64,53,38,53,,86,78,21,23,4,6,0.6,0.7
2025-02-20T2200,3580A,114.20016,36.44293,邯郸市,峰峰矿区临水派出所,细颗粒物(PM2.5),88,81,68,65,51,53,,90,81,17,13,2,5,0.7,0.9
2025-02-20T2200,2634A,106.9893,33.1842,汉中市,汉川机床厂子校,细颗粒物(PM2.5),100,,52,75,59,43,,84,70,8,6,6,6,0.6,0.5
2025-02-20T2200,2635A,107.0154,33.0706,汉中市,市监测站,细颗粒物(PM2.5),113,90,72,85,64,31,,74,59,32,15,5,5,1.5,1.2
2025-02-20T2200,2636A,107.0089,33.1138,汉中市,鑫源开发区,细颗粒物(PM2.5),112,86,68,84,76,38,,77,66,29,16,5,4,1.0,0.7
2025-02-20T2200,2637A,107.007,33.0323,汉中市,南郑大河坎水厂,细颗粒物(PM2.5),114,98,82,86,68,25,,71,56,33,20,6,4,1.2,0.9
2025-02-20T2200,1223A,120.2072,30.2111,杭州市,滨江,,24,8,46,8,38,76,,79,79,21,26,6,6,0.4,0.5
2025-02-20T2200,1224A,120.0633,30.2747,杭州市,西溪,,25,8,54,8,34,78,,88,88,15,16,6,6,0.4,0.5
2025-02-20T2200,1226A,120.3461,30.3153,杭州市,下沙,,22,10,52,3,32,70,,74,74,18,24,8,8,0.7,0.7
2025-02-20T2200,1227A,120.1269,30.2456,杭州市,卧龙桥,,26,6,45,3,33,83,,90,90,16,21,5,5,0.3,0.4
2025-02-20T2200,1228A,120.1903,30.2692,杭州市,浙江农大,,23,12,55,3,35,71,,77,77,17,21,6,6,0.3,0.3
2025-02-20T2200,1230A,120.1197,30.3119,杭州市,和睦小学,,25,,34,14,33,77,,85,85,20,24,6,6,0.4,0.5
2025-02-20T2200,1231A,120.3019,30.4183,杭州市,临平镇,,27,10,41,6,28,84,,87,86,10,15,5,5,0.4,0.5
2025-02-20T2200,1232A,120.2697,30.1819,杭州市,城厢镇,,22,13,30,11,23,69,,,,20,22,6,6,0.4,0.4
2025-02-20T2200,1233A,120.0883,30.1808,杭州市,云栖,,25,15,51,11,34,78,,87,86,21,24,6,6,0.5,0.6
2025-02-20T2200,3557A,119.9464,30.0494,杭州市,镇二中,,25,,31,15,31,77,,79,79,19,23,5,5,0.5,0.7
2025-02-20T2200,3558A,119.7183,30.2367,杭州市,市府大楼,,24,14,50,12,33,76,,82,82,20,22,6,6,0.5,0.6
2025-02-20T2200,3656A,120.1556,30.2864,杭州市,消防大队,,27,9,51,3,34,85,,90,90,19,23,5,6,0.4,0.5
2025-02-20T2200,1270A,117.1959,31.7848,合肥市,明珠广场,细颗粒物(PM2.5),67,73,69,48,43,61,,78,75,30,27,6,8,0.7,0.7
2025-02-20T2200,1271A,117.3072,31.8764,合肥市,三里街,细颗粒物(PM2.5),73,73,68,53,43,59,,76,72,30,27,5,6,0.5,0.5
2025-02-20T2200,1272A,117.2588,31.8707,合肥市,琥珀山庄,细颗粒物(PM2.5),74,70,68,54,54,59,,76,72,28,25,7,8,0.8,0.7
2025-02-20T2200,1273A,117.1604,31.9052,合肥市,董铺水库,颗粒物(PM10),59,68,71,41,36,77,,83,83,20,21,3,4,0.6,0.5
2025-02-20T2200,1274A,117.25,31.8571,合肥市,长江中路,细颗粒物(PM2.5),79,73,74,58,51,64,,83,79,33,27,7,8,0.8,0.7
2025-02-20T2200,1275A,117.266,31.9436,合肥市,庐阳区,细颗粒物(PM2.5),70,78,74,51,45,63,,80,77,28,24,2,3,0.7,0.6
2025-02-20T2200,1276A,117.336,31.8586,合肥市,瑶海区,细颗粒物(PM2.5),70,78,72,51,45,51,,71,66,37,29,6,6,0.7,0.6
2025-02-20T2200,1277A,117.3027,31.7964,合肥市,包河区,细颗粒物(PM2.5),73,68,69,53,46,44,,74,67,36,31,3,4,0.8,0.7
2025-02-20T2200,1278A,117.2776,31.7385,合肥市,滨湖新区,细颗粒物(PM2.5),79,68,73,58,52,62,,80,75,25,23,3,4,0.6,0.5
2025-02-20T2200,1279A,117.1318,31.8403,合肥市,高新区,细颗粒物(PM2.5),74,70,72,54,48,70,,82,79,29,28,2,3,0.5,0.6
2025-02-20T2200,3464A,117.3803,31.9147,合肥市,高教基地,细颗粒物(PM2.5),77,72,70,56,52,62,,82,79,23,20,6,7,0.6,0.5
2025-02-20T2200,3614A,79.924,37.0877,和田地区,地区环保局,颗粒物(PM10),178,305,297,126,74,24,,38,,54,16,32,13,8.5,1.7
2025-02-20T2200,3615A,79.9131,37.113,和田地区,市环保局,颗粒物(PM10),125,200,228,44,57,33,,90,81,45,19,5,2,1.2,1.5
2025-02-20T2200,2516A,108.2011,24.715,河池市,东仁乐园,,11,9,11,3,7,11,,26,25,21,12,5,5,0.7,0.7
2025-02-20T2200,2517A,108.0497,24.6947,河池市,市环保站,,11,11,8,6,6,21,,28,27,12,11,7,7,0.7,0.7
2025-02-20T2200,2518A,108.0983,24.6989,河池市,市疾控中心,,8,8,7,3,4,15,,21,21,13,11,6,5,0.7,0.7
2025-02-20T2200,1696A,114.6778,23.7569,河源市,源西,,36,34,41,25,27,86,,104,98,19,28,5,5,0.5,0.5
2025-02-20T2200,1697A,114.6944,23.7586,河源市,东埔,颗粒物(PM10),53,55,44,26,29,93,,111,107,22,23,4,4,0.6,0.7
2025-02-20T2200,1698A,114.6892,23.7233,河源市,老城,,43,43,47,22,31,93,,111,108,21,19,4,4,0.7,0.7
2025-02-20T2200,1718A,115.4208,35.2464,菏泽市,气象局,细颗粒物(PM2.5),63,58,87,45,58,77,,53,53,20,34,7,9,0.4,0.6
2025-02-20T2200,3374A,115.5564,35.0891,菏泽市,定陶老年大学,细颗粒物(PM2.5),55,51,72,39,44,88,,77,77,15,28,5,7,0.7,0.8
2025-02-20T2200,4184A,115.4797,35.24401,菏泽市,永昌路1号,细颗粒物(PM2.5),65,70,98,47,58,82,,58,58,23,35,8,11,0.6,0.7
2025-02-20T2200,4193A,115.4715,35.2800,菏泽市,长城路999号,细颗粒物(PM2.5),58,61,94,41,56,71,,42,42,20,35,11,13,0.5,0.6
2025-02-20T2200,2514A,111.5264,24.4172,贺州市,环保小区,,18,13,24,12,14,30,,35,33,12,11,5,6,0.9,0.9
2025-02-20T2200,2515A,111.5608,24.4078,贺州市,政协大楼,,28,28,30,10,14,30,,30,30,11,12,7,8,0.7,0.8
2025-02-20T2200,3534A,111.4744,24.4553,贺州市,西湾,,18,13,22,12,14,33,,33,33,11,11,6,6,0.8,0.8
2025-02-20T2200,2385A,114.17,35.9019,鹤壁市,市监测站,细颗粒物(PM2.5),78,74,70,57,45,58,,74,69,30,28,2,3,0.2,0.5
2025-02-20T2200,2386A,114.2956,35.7511,鹤壁市,市交警支队,细颗粒物(PM2.5),74,82,62,54,38,50,,77,70,24,20,3,7,0.5,0.4
2025-02-20T2200,2387A,114.2878,35.7306,鹤壁市,迎宾馆,细颗粒物(PM2.5),80,73,69,59,42,50,,76,69,27,24,4,5,0.5,0.5
2025-02-20T2200,3474A,114.2617,35.6822,鹤壁市,大新区,细颗粒物(PM2.5),74,79,52,54,45,45,,70,59,27,23,3,5,0.5,0.5
2025-02-20T2200,3596A,114.1572,35.9603,鹤壁市,南山宾馆,细颗粒物(PM2.5),85,100,72,63,57,59,,78,71,18,14,4,6,0.2,0.3
2025-02-20T2200,2244A,130.2537,47.3416,鹤岗市,哈啤分公司,,30,24,22,21,18,69,,66,59,2,7,11,12,0.4,0.4
2025-02-20T2200,2245A,130.2684,47.3086,鹤岗市,斯达机电,,39,31,24,27,19,62,,66,59,6,8,12,12,0.3,0.3
2025-02-20T2200,2246A,130.3114,47.3388,鹤岗市,东山纸板厂,,49,,27,34,18,58,,66,48,15,15,14,11,0.6,0.5
2025-02-20T2200,2247A,130.1097,47.3382,鹤岗市,五号水库,,27,27,19,15,12,70,,91,83,8,7,6,7,0.2,0.1
2025-02-20T2200,2263A,127.4833,50.2524,黑河市,交通局,,20,,14,14,12,64,,77,70,9,6,6,6,0.3,0.2
2025-02-20T2200,2264A,127.5144,50.2341,黑河市,环保局,,22,14,18,13,14,70,,70,68,5,6,4,5,0.5,0.5
2025-02-20T2200,2265A,127.5291,50.2472,黑河市,大黑河岛,,,,,,,,,,,,,,,,
2025-02-20T2200,1074A,115.6838,37.7541,衡水市,电机北厂,细颗粒物(PM2.5),80,92,88,59,58,55,,80,69,29,38,9,12,0.5,0.6
2025-02-20T2200,1075A,115.6303,37.7316,衡水市,市监测站,细颗粒物(PM2.5),67,61,75,48,53,66,,84,75,28,37,10,13,0.5,0.6
2025-02-20T2200,3188A,115.6683,37.7217,衡水市,市城管局,细颗粒物(PM2.5),78,69,79,57,58,55,,80,68,34,43,11,14,0.6,0.6
2025-02-20T2200,3459A,115.5989,37.5491,衡水市,地表水厂,细颗粒物(PM2.5),75,68,73,55,55,32,,94,76,53,52,7,13,0.5,0.6
2025-02-20T2200,2456A,112.5003,26.9167,衡阳市,原169医院,,37,37,18,17,12,40,,34,34,16,15,2,3,0.6,0.6
2025-02-20T2200,2457A,112.6194,26.9258,衡阳市,衡阳化工总厂,细颗粒物(PM2.5),53,,19,37,17,47,,36,36,21,18,3,3,0.7,0.7
2025-02-20T2200,2458A,112.6211,26.8956,衡阳市,珠晖区环保局,,42,,18,29,18,47,,38,38,22,20,3,3,0.8,0.8
2025-02-20T2200,2459A,112.6197,26.8733,衡阳市,市委党校,,38,28,18,26,15,51,,41,41,22,19,7,7,0.8,0.7
2025-02-20T2200,2460A,112.6006,26.8919,衡阳市,市监测站,,50,37,24,35,19,50,,40,39,18,15,8,7,0.9,0.9
2025-02-20T2200,2461A,112.5664,26.9056,衡阳市,真空机电公司,,42,39,20,29,21,47,,37,37,27,25,5,4,0.7,0.7
2025-02-20T2200,3399A,112.6703,26.882,衡阳市,师范学院,,26,26,16,16,15,45,,38,38,21,18,6,6,0.9,0.9
2025-02-20T2200,2608A,103.3772,23.3993,红河哈尼族彝族自治州,污水处理厂,,45,43,34,31,31,71,,86,81,5,6,6,6,0.6,0.6
2025-02-20T2200,2609A,103.3861,23.35,红河哈尼族彝族自治州,监测站,细颗粒物(PM2.5),58,45,36,41,22,72,,92,85,7,7,7,7,0.7,0.7
2025-02-20T2200,3038A,103.3758,23.368,红河哈尼族彝族自治州,州图书馆,,48,,24,33,23,71,,85,82,6,7,6,6,0.6,0.6
2025-02-20T2200,1090A,111.6507,40.7517,呼和浩特市,呼市一监,细颗粒物(PM2.5),75,80,22,55,11,50,,83,72,35,9,16,7,0.4,0.2
2025-02-20T2200,1091A,111.6572,40.8033,呼和浩特市,小召,细颗粒物(PM2.5),85,97,27,63,14,44,,82,73,57,17,9,5,0.7,0.4
2025-02-20T2200,1094A,111.7516,40.8369,呼和浩特市,如意水处理厂,颗粒物(PM10),52,53,17,34,10,19,,76,68,68,12,10,8,0.5,0.3
2025-02-20T2200,1095A,111.7276,40.8062,呼和浩特市,二十九中,颗粒物(PM10),71,91,20,23,6,53,,76,72,38,12,6,3,0.2,0.1
2025-02-20T2200,1096A,111.5512,40.7866,呼和浩特市,工大金川校区,颗粒物(PM10),66,82,27,45,14,61,,81,72,29,15,7,8,0.6,0.4
2025-02-20T2200,1097A,111.717,40.7612,呼和浩特市,化肥厂生活区,细颗粒物(PM2.5),68,74,20,49,9,64,,82,75,36,12,12,6,0.5,0.3
2025-02-20T2200,3698A,111.5968,40.8178,呼和浩特市,红旗小学,颗粒物(PM10),56,61,28,34,12,72,,84,72,24,17,5,6,0.5,0.5
2025-02-20T2200,3699A,111.6518,40.8389,呼和浩特市,海东办,颗粒物(PM10),56,61,19,37,11,14,,80,66,67,16,8,5,0.6,0.4
2025-02-20T2200,2192A,119.7594,49.2261,呼伦贝尔市,区环保局,,35,35,31,22,23,67,,72,71,13,21,6,6,0.3,0.5
2025-02-20T2200,3061A,119.7512,49.1577,呼伦贝尔市,国华电力东,,35,29,30,24,20,64,,76,72,12,9,3,4,0.3,0.3
2025-02-20T2200,1250A,120.0751,30.8669,湖州市,城西水厂,,22,20,49,10,29,68,,80,74,21,22,6,7,0.3,0.4
2025-02-20T2200,2873A,120.0875,30.8955,湖州市,仁皇山新区,,,,,,,,,,,,,,,,
2025-02-20T2200,2907A,120.1844,30.8596,湖州市,吴兴区站,,28,28,47,15,29,68,,72,70,12,17,4,5,0.2,0.4
2025-02-20T2200,3562A,120.4148,30.8538,湖州市,南浔区站,,,,47,,29,,,82,,,21,,8,,0.3
2025-02-20T2200,1607A,120.9092,40.7136,葫芦岛市,龙港区,细颗粒物(PM2.5),73,72,44,53,27,26,,75,61,44,30,14,14,1.3,0.7
2025-02-20T2200,1608A,120.8392,40.7514,葫芦岛市,化工街,细颗粒物(PM2.5),70,83,65,51,28,8,,76,57,82,42,29,19,0.9,0.5
2025-02-20T2200,1609A,120.8341,40.7073,葫芦岛市,新区,细颗粒物(PM2.5),124,,42,94,25,9,,78,60,80,43,16,15,1.2,0.7
2025-02-20T2200,1610A,120.8695,40.7677,葫芦岛市,东城区,细颗粒物(PM2.5),93,78,57,69,27,6,,71,53,81,32,24,16,1.2,0.7
2025-02-20T2200,2482A,109.5981,27.5721,怀化市,林科所,,28,25,17,19,13,66,,72,70,10,8,5,5,1.4,1.3
2025-02-20T2200,2483A,109.9453,27.5444,怀化市,河西地税局,细颗粒物(PM2.5),62,55,31,44,28,59,,67,65,12,10,6,6,0.7,0.6
2025-02-20T2200,2484A,109.9781,27.5342,怀化市,市四医院,细颗粒物(PM2.5),67,55,36,48,28,56,,63,60,13,10,3,4,0.9,0.8
2025-02-20T2200,2485A,109.9972,27.5578,怀化市,监测楼,细颗粒物(PM2.5),58,52,30,41,22,53,,61,58,12,10,5,5,0.8,0.7
2025-02-20T2200,2486A,110.0394,27.583,怀化市,市委党校,细颗粒物(PM2.5),52,49,25,36,22,57,,66,64,17,13,4,5,0.9,0.8
2025-02-20T2200,1210A,119.036,33.5981,淮安市,钵池山,,41,41,37,27,25,78,,91,86,14,15,9,7,0.5,0.5
2025-02-20T2200,1211A,119.007,33.575,淮安市,北京南路,,38,36,37,26,24,77,,91,87,14,15,9,9,0.5,0.6
2025-02-20T2200,1212A,118.989,33.6067,淮安市,市监测站,,39,29,34,27,25,83,,96,93,16,15,8,8,0.6,0.6
2025-02-20T2200,1213A,119.135,33.5039,淮安市,楚州区监测站,,46,46,41,24,25,62,,92,82,24,15,7,8,0.6,0.7
2025-02-20T2200,3426A,118.8755,33.2894,淮安市,新华书店,,35,35,37,23,22,69,,89,82,17,16,8,8,0.4,0.4
2025-02-20T2200,4206A,119.0288,33.6319,淮安市,承德北路606号,,48,48,47,27,26,74,,91,86,18,21,8,7,0.6,0.6
2025-02-20T2200,2282A,116.8004,33.975,淮北市,监测站,,48,48,53,31,32,85,,81,81,13,14,6,5,0.5,0.5
2025-02-20T2200,2283A,116.8091,33.9007,淮北市,烈山区政府,,46,42,47,32,32,94,,94,94,14,13,4,4,0.6,0.6
2025-02-20T2200,3330A,116.8873,33.9836,淮北市,杜集区检察院,细颗粒物(PM2.5),58,56,51,41,34,87,,88,88,14,14,4,4,0.6,0.7
2025-02-20T2200,4017A,116.7923,33.9535,淮北市,市博物馆,,49,46,50,34,31,90,,87,87,13,15,6,7,0.6,0.6
2025-02-20T2200,2277A,116.8305,32.7727,淮南市,潘集区政府,细颗粒物(PM2.5),58,57,63,41,47,73,,85,82,15,13,3,3,0.4,0.5
2025-02-20T2200,2279A,116.8569,32.5951,淮南市,谢家集区政府,颗粒物(PM10),51,52,69,32,42,64,,86,81,19,17,6,6,0.5,0.5
2025-02-20T2200,2280A,116.8281,32.633,淮南市,八公山区政府,,47,47,64,30,41,70,,92,83,12,10,8,7,0.4,0.5
2025-02-20T2200,2281A,116.6325,32.6201,淮南市,焦岗湖风景区管理处,,34,34,55,23,34,54,,70,66,11,9,9,9,0,0
2025-02-20T2200,2894A,117.0566,32.6531,淮南市,经济技术开发区消防队,颗粒物(PM10),56,62,63,33,39,64,,103,86,21,14,5,5,0.5,0.5
2025-02-20T2200,3329A,117.0108,32.5893,淮南市,山南新区,颗粒物(PM10),53,56,62,30,37,72,,98,91,14,11,7,6,0.5,0.5
2025-02-20T2200,4209A,117.0031,32.6445,淮南市,国庆中路369号,颗粒物(PM10),53,55,63,17,39,69,,93,86,20,15,6,5,0.3,0.3
2025-02-20T2200,2446A,114.9028,30.4742,黄冈市,职工中心,,,,85,,59,,,58,,,30,,6,,0.6
2025-02-20T2200,2929A,114.8858,30.4519,黄冈市,红卫路,细颗粒物(PM2.5),94,88,83,70,61,52,,87,74,23,30,6,8,0.7,0.8
2025-02-20T2200,3398A,114.9136,30.4445,黄冈市,市林业局,细颗粒物(PM2.5),92,84,81,68,58,47,,82,70,20,24,8,12,0.6,0.7
2025-02-20T2200,2672A,102.0199,35.5102,黄南藏族自治州,同仁县隆务镇,颗粒物(PM10),58,65,72,26,40,67,,88,83,5,6,16,14,0.4,0.4
2025-02-20T2200,2295A,118.2903,29.6963,黄山市,延安路89号,,22,10,16,3,12,70,,77,77,9,7,4,4,0.2,0.2
2025-02-20T2200,2297A,118.1371,30.2756,黄山市,黄山区政府5号楼,,20,8,22,6,14,61,,69,68,8,6,7,7,0.3,0.3
2025-02-20T2200,4210A,118.3354,29.7203,黄山市,滨江东路7-2号,,21,11,21,3,11,65,,74,73,8,8,4,4,0.4,0.4
2025-02-20T2200,2423A,115.0601,30.2313,黄石市,沈家营,细颗粒物(PM2.5),77,88,74,56,43,55,,88,75,22,32,14,13,0.8,0.7
2025-02-20T2200,2426A,114.8988,30.2019,黄石市,铁山,细颗粒物(PM2.5),92,69,71,68,55,58,,85,80,13,20,9,13,0.7,0.7
2025-02-20T2200,2427A,115.0307,30.2092,黄石市,团城山,细颗粒物(PM2.5),85,85,75,63,50,53,,74,70,27,24,7,7,0.6,0.5
2025-02-20T2200,3149A,115.0235,30.1578,黄石市,笔架山北路,细颗粒物(PM2.5),87,67,63,64,45,48,,86,71,16,20,4,6,0.9,0.8
2025-02-20T2200,4185A,115.0780,30.21118,黄石市,磁湖东路29号,细颗粒物(PM2.5),88,102,79,65,54,69,,96,86,12,22,6,7,1.0,0.9
2025-02-20T2200,1392A,114.4183,23.0528,惠州市,河南岸金山湖子站,,38,38,38,21,20,74,,107,99,21,17,8,8,0.4,0.5
2025-02-20T2200,1393A,114.4053,23.0822,惠州市,下埔横江三路子站,,44,44,42,24,23,82,,116,107,22,18,7,8,0.5,0.5
2025-02-20T2200,1394A,114.4103,23.1142,惠州市,江北云山西路子站,,40,40,40,21,22,88,,122,113,20,18,7,8,0.5,0.6
2025-02-20T2200,1395A,114.4645,22.7833,惠州市,惠阳区承修路船湖子站,,29,26,44,13,20,92,,109,106,10,13,9,10,0.6,0.6
2025-02-20T2200,1396A,114.5317,22.7422,惠州市,大亚湾管委会子站,,30,24,41,12,19,95,,114,110,9,12,6,7,0.5,0.5
2025-02-20T2200,3314A,114.4338,22.8134,惠州市,惠阳秋长,,32,19,45,12,19,100,,117,114,10,17,7,10,0.6,0.6
2025-02-20T2200,3452A,114.6517,22.775,惠州市,大亚湾霞涌,,33,23,36,13,18,104,,115,113,8,15,6,7,0.4,0.5
2025-02-20T2200,2240A,130.9762,45.3001,鸡西市,环保局,,27,27,23,10,13,70,,77,71,7,8,5,6,0.5,0.5
2025-02-20T2200,2243A,130.9429,45.3039,鸡西市,第一中学,,23,11,19,10,13,73,,80,74,4,6,6,6,0.3,0.2
2025-02-20T2200,3707A,131.0207,45.3073,鸡西市,欧美日汽修厂,,26,26,27,18,19,78,,82,77,9,14,9,9,0.8,0.6
2025-02-20T2200,3709A,130.9967,45.3106,鸡西市,市政设施管理处,,32,32,25,17,18,69,,77,66,7,15,4,5,0.4,0.4
2025-02-20T2200,2367A,114.9754,27.0803,吉安市,红声器材厂,,18,18,25,7,11,43,,35,35,18,21,12,12,0.6,0.6
2025-02-20T2200,2368A,114.9658,27.0999,吉安市,市森林工业局,,18,18,19,9,11,45,,37,37,19,23,12,13,0.3,0.5
2025-02-20T2200,2369A,114.99,27.1312,吉安市,市环境监测站,,17,17,27,9,18,41,,33,33,20,23,14,15,0.5,0.5
2025-02-20T2200,2370A,115.0093,27.0968,吉安市,青原区法院,,15,14,21,10,14,45,,36,36,26,29,5,6,0.4,0.5
2025-02-20T2200,1772A,126.54,43.8622,吉林市,哈达湾,,36,32,31,25,21,56,,78,71,26,16,27,10,0.6,0.5
2025-02-20T2200,1773A,126.5844,43.8358,吉林市,东局子,颗粒物(PM10),53,55,42,31,25,41,,74,62,32,22,11,9,0.7,0.5
2025-02-20T2200,1774A,126.5052,43.8245,吉林市,电力学院,,42,35,37,29,29,59,,77,71,16,19,6,5,0.6,0.6
2025-02-20T2200,1775A,126.6133,43.8972,吉林市,江北,细颗粒物(PM2.5),55,49,50,39,33,48,,74,59,28,28,6,7,1.1,0.8
2025-02-20T2200,1776A,126.555,43.8306,吉林市,江南公园,,33,33,31,23,26,57,,73,68,26,23,17,5,0.4,0.6
2025-02-20T2200,1778A,126.7061,43.7133,吉林市,丰满,,36,30,26,25,21,61,,80,74,10,9,6,7,0.7,0.7
2025-02-20T2200,2868A,126.4739,43.953,吉林市,九站,,46,41,37,32,28,44,,78,66,35,28,8,12,0.7,0.6
2025-02-20T2200,1299A,116.9862,36.6114,济南市,科干所,细颗粒物(PM2.5),89,100,82,66,48,63,,86,78,39,42,12,12,0.6,0.6
2025-02-20T2200,1300A,116.9376,36.665,济南市,农科所,细颗粒物(PM2.5),80,103,100,59,50,52,,81,76,49,57,13,15,0.9,1
2025-02-20T2200,1301A,117.1265,36.6734,济南市,开发区,细颗粒物(PM2.5),85,98,79,63,47,63,,84,80,43,47,17,13,0.6,0.7
2025-02-20T2200,1303A,117.0624,36.6868,济南市,省种子仓库,细颗粒物(PM2.5),85,117,97,63,53,63,,84,80,34,49,15,13,0.7,0.8
2025-02-20T2200,1304A,116.9489,36.6447,济南市,机床二厂,细颗粒物(PM2.5),98,110,100,73,58,50,,83,76,53,60,15,20,0.9,1
2025-02-20T2200,1305A,117.0495,36.663,济南市,市监测站,细颗粒物(PM2.5),77,100,87,56,46,60,,81,78,48,57,19,16,0.5,0.7
2025-02-20T2200,1306A,116.7675,36.5484,济南市,长清党校,细颗粒物(PM2.5),95,95,101,71,59,63,,91,87,38,53,8,13,0.7,0.8
2025-02-20T2200,1616A,117.6795,36.229,济南市,技术学院,细颗粒物(PM2.5),140,134,79,107,57,35,,79,68,55,40,20,16,1.4,1.3
2025-02-20T2200,1961A,117.532,36.6868,济南市,东山小学,颗粒物(PM10),77,103,76,49,37,30,,100,86,76,44,17,12,0.8,0.8
2025-02-20T2200,3059A,117.7161,36.2049,济南市,泰兴公司,细颗粒物(PM2.5),113,124,86,85,53,16,,82,66,70,44,10,14,1.2,0.9
2025-02-20T2200,3064A,117.6867,36.2171,济南市,莱芜战役纪念馆,细颗粒物(PM2.5),128,144,89,97,55,39,,80,71,57,41,20,13,2.7,1.3
2025-02-20T2200,3494A,117.1673,36.9782,济南市,济阳区政府,细颗粒物(PM2.5),83,85,79,61,44,55,,84,75,27,34,15,25,0.6,0.6
2025-02-20T2200,3495A,117.1171,36.63,济南市,锦屏中学,细颗粒物(PM2.5),70,73,68,51,43,58,,70,64,28,30,9,9,0.8,0.9
2025-02-20T2200,3682A,116.9814,36.6819,济南市,济南四建,"颗粒物(PM10),细颗粒物(PM2.5)",74,97,92,54,52,54,,78,74,50,62,14,17,0.5,0.6
2025-02-20T2200,1653A,116.6251,35.4302,济宁市,火炬城,颗粒物(PM10),65,79,61,44,30,38,,71,59,40,24,13,12,0.8,0.7
2025-02-20T2200,1655A,116.5491,35.4042,济宁市,电化厂,细颗粒物(PM2.5),98,132,85,73,51,10,,70,46,63,21,16,14,0.9,0.8
2025-02-20T2200,3500A,116.5814,35.3707,济宁市,北湖一中,细颗粒物(PM2.5),98,98,58,73,42,14,,70,53,54,30,11,8,1.1,0.9
2025-02-20T2200,3501A,116.8249,35.5593,济宁市,服务中心,细颗粒物(PM2.5),72,92,74,52,40,47,,72,60,33,26,12,8,0.8,0.6
2025-02-20T2200,3678A,116.5907,35.4054,济宁市,市第七中学,细颗粒物(PM2.5),83,88,59,61,45,35,,72,60,45,25,10,8,0.6,0.5
2025-02-20T2200,2255A,130.2751,46.8028,佳木斯市,佳纺,细颗粒物(PM2.5),57,55,42,40,33,23,,78,59,61,25,7,5,0.9,0.7
2025-02-20T2200,2256A,130.3995,46.8307,佳木斯市,发电厂,细颗粒物(PM2.5),52,45,32,36,28,53,,75,65,28,21,5,6,0.4,0.4
2025-02-20T2200,2257A,130.3258,46.7975,佳木斯市,环保局,,48,48,31,32,23,47,,72,59,28,19,11,8,0.4,0.4
2025-02-20T2200,2258A,130.3648,46.8032,佳木斯市,十一中,,47,47,37,32,27,39,,64,55,40,26,7,6,0.5,0.4
2025-02-20T2200,2259A,130.3794,46.7588,佳木斯市,四丰,,28,23,34,19,16,72,,78,77,7,8,1,1,0.6,0.5
2025-02-20T2200,1252A,120.7436,30.778,嘉兴市,清河小学,,22,18,35,10,22,70,,78,75,17,18,4,4,0.5,0.5
2025-02-20T2200,1253A,120.726,30.7478,嘉兴市,嘉兴学院,,25,25,43,8,23,73,,78,75,13,15,6,6,0.4,0.5
2025-02-20T2200,2872A,120.7846,30.7525,嘉兴市,南湖区残联,,34,34,48,3,20,75,,81,78,12,13,7,8,0.3,0.4
2025-02-20T2200,3407A,120.6916,30.7739,嘉兴市,秀洲住建,,24,,35,10,24,76,,80,79,14,16,5,5,0.3,0.2
2025-02-20T2200,1945A,98.2908,39.7711,嘉峪关市,气象局,颗粒物(PM10),79,107,86,34,29,83,,100,99,12,17,3,7,0.4,0.4
2025-02-20T2200,2884A,98.2672,39.7978,嘉峪关市,酒钢宾馆,颗粒物(PM10),74,97,93,29,29,85,,97,94,9,15,2,9,0.4,0.6
2025-02-20T2200,3248A,98.2643,39.7724,嘉峪关市,雄关区,颗粒物(PM10),66,82,75,38,27,86,,102,101,14,22,12,14,0.5,0.4
2025-02-20T2200,1383A,113.1064,22.6058,江门市,北街,,29,29,41,15,18,89,,115,105,13,19,3,4,0.6,0.6
2025-02-20T2200,1384A,113.0731,22.5835,江门市,西区,,40,40,39,22,21,100,,122,115,16,21,5,6,0.4,0.4
2025-02-20T2200,1385A,113.0219,22.5311,江门市,圭峰西,,30,,40,19,22,94,,111,105,11,17,5,6,0.6,0.7
2025-02-20T2200,1386A,113.0828,22.5947,江门市,东湖,,34,34,35,21,23,102,,122,116,14,20,11,8,0.4,0.4
2025-02-20T2200,3311A,113.1075,22.5647,江门市,江海富民,颗粒物(PM10),51,52,49,17,25,96,,117,111,13,19,6,7,0.4,0.4
2025-02-20T2200,3449A,113.05,22.4667,江门市,新会银湖,,30,24,37,21,24,91,,116,108,14,19,6,8,0.6,0.6
2025-02-20T2200,1830A,113.1992,35.2590,焦作市,影视城,细颗粒物(PM2.5),125,,67,95,51,26,,64,39,13,20,12,14,0.5,0.8
2025-02-20T2200,3169A,113.2725,35.2067,焦作市,太极体育中心,细颗粒物(PM2.5),79,79,75,58,45,43,,64,,21,19,5,9,0.5,0.6
2025-02-20T2200,3335A,113.3137,35.2641,焦作市,马村街道办,细颗粒物(PM2.5),85,95,75,63,52,50,,62,59,20,22,6,8,0.6,0.6
2025-02-20T2200,3336A,113.2465,35.2373,焦作市,焦作技师学院,细颗粒物(PM2.5),79,90,73,58,45,52,,60,58,18,19,4,7,1.0,0.9
2025-02-20T2200,3477A,113.1656,35.2539,焦作市,中站许衡医院,细颗粒物(PM2.5),88,83,76,65,50,39,,59,49,27,24,5,9,0.8,0.7
2025-02-20T2200,3981A,113.2449,35.1803,焦作市,原李万街道办,细颗粒物(PM2.5),85,102,85,63,45,43,,66,61,23,21,7,10,0.5,0.6
2025-02-20T2200,4264A,113.2340,35.2190,焦作市,新安路1731号,细颗粒物(PM2.5),89,93,84,66,50,60,,66,64,16,19,5,7,0.8,0.7
2025-02-20T2200,1708A,116.3701,23.5345,揭阳市,新兴,,49,,42,34,31,89,,116,108,20,23,6,7,0.6,0.6
2025-02-20T2200,1709A,116.3264,23.5443,揭阳市,西马,,31,30,47,21,29,98,,125,119,12,20,8,9,0.5,0.5
2025-02-20T2200,1710A,116.3611,23.5626,揭阳市,东兴,,36,36,47,25,27,93,,120,115,15,18,6,7,0.8,0.8
2025-02-20T2200,1711A,116.4151,23.5294,揭阳市,渔湖,,30,23,43,17,21,96,,124,118,16,22,6,8,0.6,0.6
2025-02-20T2200,3320A,116.403,23.5699,揭阳市,曲溪,,32,32,48,22,28,102,,126,121,18,26,6,8,0.4,0.5
2025-02-20T2200,1944A,102.1692,38.5167,金昌市,天庆家园,细颗粒物(PM2.5),117,112,66,88,38,56,,104,95,46,14,14,16,1.2,0.8
2025-02-20T2200,4022A,102.1647,38.5371,金昌市,金川区人防中心,颗粒物(PM10),76,101,81,31,35,72,,99,95,8,9,7,13,0.6,0.5
2025-02-20T2200,4239A,102.1930,38.5319,金昌市,长春路96号,细颗粒物(PM2.5),200,,72,150,68,71,,98,95,26,16,11,20,0.9,0.7
2025-02-20T2200,1262A,119.647,29.077,金华市,十五中,,19,12,28,8,20,60,,72,69,27,31,4,4,0.4,0.4
2025-02-20T2200,1263A,119.686,29.1029,金华市,监测站,,20,10,32,10,24,63,,69,69,18,26,4,4,0.4,0.4
2025-02-20T2200,3659A,119.656,29.1131,金华市,气象局,,19,9,31,7,22,58,,69,62,31,33,4,4,0.4,0.4
2025-02-20T2200,1767A,121.1115,41.0879,锦州市,南山,细颗粒物(PM2.5),98,,36,73,27,23,,78,63,59,21,15,15,1.1,0.6
2025-02-20T2200,1768A,121.0533,40.8434,锦州市,开发区,颗粒物(PM10),59,68,62,30,23,7,,72,52,73,44,24,21,0.9,1
2025-02-20T2200,1769A,121.1836,41.1119,锦州市,百股街道,细颗粒物(PM2.5),70,81,38,51,19,22,,76,58,49,22,16,11,1.2,0.7
2025-02-20T2200,1770A,121.1178,41.1222,锦州市,天安街道,,43,38,30,30,15,46,,70,58,25,14,13,14,0.8,0.5
2025-02-20T2200,1771A,121.1303,41.1386,锦州市,北湖公园,,41,41,32,28,16,52,,76,61,19,13,16,13,0.9,0.4
2025-02-20T2200,2160A,112.85,35.5051,晋城市,自来水公司,细颗粒物(PM2.5),89,66,66,66,44,40,,72,52,27,21,6,7,0.5,0.5
2025-02-20T2200,2161A,112.8318,35.4936,晋城市,白云商贸,细颗粒物(PM2.5),89,79,78,66,41,38,,77,54,29,21,4,5,1.0,0.9
2025-02-20T2200,2162A,112.8508,35.4887,晋城市,市环保局,颗粒物(PM10),80,109,75,58,43,38,,71,49,26,20,5,6,0.6,0.6
2025-02-20T2200,2163A,112.8676,35.4897,晋城市,技术学院,细颗粒物(PM2.5),77,89,74,56,36,41,,71,51,27,22,5,6,0.8,0.7
2025-02-20T2200,2165A,112.8453,35.546,晋城市,白马寺,,,,,,,,,,,,,,,,
2025-02-20T2200,3620A,112.8271,35.4828,晋城市,泽州一中,,,83,65,63,41,,,73,,29,22,5,5,0.7,0.5
2025-02-20T2200,2173A,112.7249,37.7067,晋中市,南都小区,细颗粒物(PM2.5),100,127,87,75,50,41,,87,82,50,30,18,10,0.7,0.3
2025-02-20T2200,2174A,112.6991,37.6982,晋中市,榆次区政府,细颗粒物(PM2.5),92,124,86,68,46,43,,82,77,43,27,13,8,0.8,0.6
2025-02-20T2200,2865A,112.7195,37.6828,晋中市,榆次三中,细颗粒物(PM2.5),147,158,92,112,51,40,,85,79,50,31,10,9,0.9,0.6
2025-02-20T2200,4200A,112.7478,37.6954,晋中市,迎宾街26号,细颗粒物(PM2.5),113,127,91,85,50,47,,88,84,44,28,8,5,1.0,0.7
2025-02-20T2200,2439A,112.2014,31.0481,荆门市,竹园小学,细颗粒物(PM2.5),109,114,120,82,80,59,,74,68,21,24,4,6,0.8,0.8
2025-02-20T2200,2440A,112.1969,30.9891,荆门市,掇刀,细颗粒物(PM2.5),107,111,119,80,78,62,,79,72,19,20,8,10,0.6,0.7
2025-02-20T2200,2441A,112.2213,31.0386,荆门市,石化一小,细颗粒物(PM2.5),109,109,117,82,74,50,,79,68,31,23,5,10,0.8,0.7
2025-02-20T2200,3012A,112.1849,31.0362,荆门市,西山林语,细颗粒物(PM2.5),109,101,111,82,75,66,,83,78,18,20,5,5,0.4,0.4
2025-02-20T2200,3547A,112.1632,31.0138,荆门市,龙泉中学南校,细颗粒物(PM2.5),109,116,123,82,84,65,,81,76,10,17,9,10,0.8,0.8
2025-02-20T2200,1844A,112.2494,30.3197,荆州市,市图书馆,细颗粒物(PM2.5),118,92,98,89,93,48,,69,65,28,27,5,7,0.7,0.8
2025-02-20T2200,1845A,112.2008,30.3544,荆州市,市委党校,细颗粒物(PM2.5),115,93,109,87,89,50,,75,71,32,28,6,8,0.7,0.8
2025-02-20T2200,3194A,112.2747,30.3122,荆州市,管委会,细颗粒物(PM2.5),118,101,107,89,94,55,,71,68,24,25,7,9,0.7,0.7
2025-02-20T2200,4268A,112.1722,30.3366,荆州市,学苑路85号,细颗粒物(PM2.5),114,97,107,86,90,52,,75,71,27,27,8,11,0.7,0.8
2025-02-20T2200,2342A,117.3102,29.3867,景德镇市,王港中学,,,,,,,,,,,,,,,,
2025-02-20T2200,2343A,117.2117,29.2933,景德镇市,老干部活动中心,,22,,14,3,14,70,,62,62,7,10,3,4,0.3,0.4
2025-02-20T2200,2344A,117.1894,29.2789,景德镇市,兽医站,,22,10,23,7,9,69,,63,63,14,10,3,3,0.4,0.4
2025-02-20T2200,2345A,117.1547,29.2617,景德镇市,台达陶瓷,,21,,17,3,11,66,,58,58,10,13,2,7,0.4,0.4
2025-02-20T2200,2346A,117.2461,29.2956,景德镇市,陶研所,,20,6,12,3,14,61,,54,54,11,13,4,4,0.3,0.3
2025-02-20T2200,1803A,115.9872,29.6815,九江市,十里,细颗粒物(PM2.5),54,45,48,38,34,54,,63,57,21,21,14,15,0.6,0.4
2025-02-20T2200,1804A,115.9584,29.7046,九江市,茅山头,,,,30,,15,,,,,,25,,13,,0.4
2025-02-20T2200,1805A,115.9877,29.7295,九江市,西园,细颗粒物(PM2.5),53,44,44,37,33,58,,66,61,24,25,9,10,1.1,1
2025-02-20T2200,1808A,115.9114,29.6038,九江市,综合工业园,细颗粒物(PM2.5),54,41,48,38,42,61,,62,60,26,40,4,4,0.8,0.8
2025-02-20T2200,1809A,116.0721,29.7535,九江市,石化总厂,细颗粒物(PM2.5),78,62,55,57,47,59,,62,61,22,24,11,11,0.8,0.8
2025-02-20T2200,1810A,115.9773,29.5698,九江市,庐山气象台,,26,10,21,8,19,83,,100,67,5,7,21,11,0.9,0.9
2025-02-20T2200,3190A,116.0254,29.6994,九江市,外国语学校,细颗粒物(PM2.5),53,42,46,37,35,64,,73,65,26,26,5,6,0.8,0.8
2025-02-20T2200,4253A,116.0102,29.6594,九江市,莲花大道8号,细颗粒物(PM2.5),65,54,46,47,42,51,,64,54,14,13,6,6,0.5,0.4
2025-02-20T2200,2658A,98.5061,39.7443,酒泉市,仓门街子站,,,,92,,29,,,94,93,8,12,8,24,,0.4
2025-02-20T2200,4240A,98.4958,39.7339,酒泉市,玉门东路5号,颗粒物(PM10),82,114,98,45,38,81,,92,90,6,12,8,14,0.4,0.4
2025-02-20T2200,2698A,76.0072,39.4467,喀什地区,巡警大队,颗粒物(PM10),165,280,339,80,89,53,,78,75,40,47,9,9,1.0,1.5
2025-02-20T2200,2699A,75.9755,39.4694,喀什地区,吾办,颗粒物(PM10),167,284,332,77,100,50,,73,70,41,48,9,10,0.7,1.3
2025-02-20T2200,4027A,75.9483,39.4689,喀什地区,老干局,,,,354,71,70,18,,78,72,82,41,16,10,1.8,1.6
2025-02-20T2200,1824A,114.3389,34.7781,开封市,肿瘤医院,细颗粒物(PM2.5),79,66,62,58,47,47,,60,59,18,17,6,8,0.9,0.8
2025-02-20T2200,1826A,114.2885,34.7965,开封市,世纪星幼儿园,细颗粒物(PM2.5),89,,62,66,53,55,,65,65,25,27,6,7,0.7,0.8
2025-02-20T2200,3147A,114.3438,34.8106,开封市,龙亭公园,细颗粒物(PM2.5),84,,58,62,51,46,,56,56,26,23,2,5,0.5,0.4
2025-02-20T2200,3210A,114.3644,34.7964,开封市,汴京公园,细颗粒物(PM2.5),90,73,63,67,51,46,,58,57,20,21,4,7,1.1,1
2025-02-20T2200,3473A,114.2485,34.8306,开封市,技师学院,细颗粒物(PM2.5),77,60,71,56,46,55,,52,,26,30,5,6,0.7,0.8
2025-02-20T2200,3592A,114.4644,34.7556,开封市,祥符区生态环境局,细颗粒物(PM2.5),83,70,84,61,58,37,,47,46,34,30,3,8,0.9,1.2
2025-02-20T2200,1951A,84.895,45.6094,克拉玛依市,长征新村,细颗粒物(PM2.5),73,70,47,53,28,76,,89,89,33,28,6,6,0.8,0.6
2025-02-20T2200,1952A,84.8988,45.5893,克拉玛依市,南林小区,细颗粒物(PM2.5),72,76,47,52,33,95,,99,99,15,21,3,3,0.8,0.8
2025-02-20T2200,1954A,84.905,44.3396,克拉玛依市,独山子区,细颗粒物(PM2.5),98,77,82,73,82,65,,111,103,70,36,4,4,0.9,0.9
2025-02-20T2200,1955A,85.6979,46.098,克拉玛依市,乌尔禾区商贸楼,颗粒物(PM10),51,52,53,28,40,83,,101,100,28,31,5,6,0.7,1.1
2025-02-20T2200,3612A,85.1045,45.6899,克拉玛依市,白碱滩区新站,细颗粒物(PM2.5),87,93,60,64,38,82,,98,98,26,28,5,6,1.3,1.1
2025-02-20T2200,2697A,76.1454,39.7142,克孜勒苏柯尔克孜自治州,市人民政府,颗粒物(PM10),165,280,313,80,85,59,,90,87,38,17,5,5,1.1,1.1
2025-02-20T2200,3665A,76.1658,39.7157,克孜勒苏柯尔克孜自治州,克州文化中心,颗粒物(PM10),172,293,299,69,74,60,,88,84,35,15,9,9,,0.6
2025-02-20T2200,1450A,102.8204,24.8886,昆明市,呈贡新区,颗粒物(PM10),51,51,51,34,38,70,,104,93,29,17,5,6,0.4,0.5
2025-02-20T2200,1451A,102.6251,24.9608,昆明市,西山森林公园,,,,,,,,,,,,,,,,
2025-02-20T2200,1452A,102.7252,25.0902,昆明市,龙泉镇,,46,46,42,27,29,53,,112,101,44,23,7,7,0.5,0.5
2025-02-20T2200,1453A,102.7266,25.0375,昆明市,东风东路,,43,40,48,30,37,90,,107,102,13,16,7,10,0.6,0.7
2025-02-20T2200,1454A,102.6742,25.0669,昆明市,金鼎山,颗粒物(PM10),51,52,41,32,30,74,,105,97,25,17,6,6,0.5,0.5
2025-02-20T2200,1455A,102.6644,25.0401,昆明市,碧鸡广场,,45,43,46,31,37,62,,108,95,37,22,7,9,0.5,0.6
2025-02-20T2200,3179A,102.7494,25.0119,昆明市,官渡区博物馆,,40,40,47,25,35,91,,110,104,13,16,9,10,0.4,0.6
2025-02-20T2200,3375A,102.8017,24.8336,昆明市,青年创业园,,48,48,47,33,35,91,,110,104,10,11,6,8,0.4,0.4
2025-02-20T2200,3550A,102.7997,24.9786,昆明市,昆明学院,,39,39,47,26,35,96,,112,106,10,16,6,6,0.5,0.6
2025-02-20T2200,3551A,102.5967,24.6736,昆明市,晋宁区生态环境分局,细颗粒物(PM2.5),62,69,54,44,37,77,,106,97,16,11,10,6,0.8,0.7
2025-02-20T2200,3552A,102.6678,24.9856,昆明市,云天化总部,,36,34,45,25,34,101,,118,114,6,13,8,9,0.3,0.4
2025-02-20T2200,1456A,91.1319,29.6514,拉萨市,八廓街,,32,29,14,22,8,78,,113,106,30,9,7,6,0.6,0.4
2025-02-20T2200,1457A,91.1221,29.6747,拉萨市,市环保局,颗粒物(PM10),53,56,14,32,8,54,,107,99,40,14,9,4,1.1,0.5
2025-02-20T2200,1458A,91.0874,29.6475,拉萨市,区监测站,,25,18,10,8,6,78,,107,102,26,11,6,6,0.6,0.4
2025-02-20T2200,1459A,91.1774,29.6541,拉萨市,西藏大学,,31,25,13,7,7,98,,107,104,13,9,6,5,0.3,0.5
2025-02-20T2200,1460A,90.9798,29.6588,拉萨市,区辐射站,,42,42,17,22,9,68,,107,103,37,15,9,7,0.5,0.3
2025-02-20T2200,1461A,91.0834,29.6292,拉萨市,拉萨火车站,,29,18,10,11,6,92,,109,106,12,8,4,4,0.3,0.2
2025-02-20T2200,2520A,109.2203,23.7256,来宾市,来宾技工学校,,16,13,36,11,20,25,,27,27,15,15,6,6,1.0,1.2
2025-02-20T2200,3535A,109.1781,23.7297,来宾市,兴宾区政府,,12,9,30,8,21,31,,30,30,12,14,5,5,1.1,1
2025-02-20T2200,4002A,109.2416,23.7461,来宾市,中南小学,,16,,35,11,20,26,,28,27,14,14,6,7,1.1,1.1
2025-02-20T2200,1477A,104.1373,35.9454,兰州市,榆中兰大校区,,,,,,,,,,,,,,,,
2025-02-20T2200,1479A,103.831,36.0464,兰州市,铁路设计院,细颗粒物(PM2.5),87,107,74,64,54,38,,82,72,74,41,10,9,0.9,0.8
2025-02-20T2200,3241A,103.7439,36.0842,兰州市,百合公园,细颗粒物(PM2.5),77,91,69,56,41,41,,98,82,56,20,7,7,0.8,0.5
2025-02-20T2200,3242A,103.9611,35.998,兰州市,和平,细颗粒物(PM2.5),85,94,90,63,53,43,,87,79,56,35,10,14,0.8,0.9
2025-02-20T2200,4236A,103.6293,36.0938,兰州市,庄浪东路808号,细颗粒物(PM2.5),73,91,71,53,48,52,,111,95,55,27,5,10,0.8,0.6
2025-02-20T2200,4237A,103.7251,36.1043,兰州市,安宁西路88号,细颗粒物(PM2.5),90,105,76,67,47,71,,116,106,45,24,15,17,0.7,0.5
2025-02-20T2200,4238A,103.8470,36.0676,兰州市,北滨河东路1号,细颗粒物(PM2.5),94,86,69,70,48,52,,95,84,56,31,11,10,0.9,0.7
2025-02-20T2200,3245A,103.6633,36.533,兰州新区,新区管委会,细颗粒物(PM2.5),73,77,62,53,42,101,,114,111,14,13,37,20,0.5,0.4
2025-02-20T2200,3246A,103.6975,36.4789,兰州新区,舟曲中学,细颗粒物(PM2.5),62,72,71,44,40,89,,108,105,20,15,16,20,0.5,0.5
2025-02-20T2200,1067A,116.6708,39.5111,廊坊市,药材公司,,45,45,48,25,31,29,,71,56,48,34,5,8,0.7,0.9
2025-02-20T2200,1068A,116.7214,39.5589,廊坊市,开发区,,29,29,43,15,30,40,,72,59,37,39,7,9,0.4,0.7
2025-02-20T2200,1070A,116.7244,39.5269,廊坊市,北华航天学院,,46,46,43,22,29,40,,74,62,50,45,6,8,0.6,0.8
2025-02-20T2200,2919A,116.7022,39.5453,廊坊市,河北工业大学,,42,42,44,27,28,38,,70,59,36,34,6,8,0.5,0.7
2025-02-20T2200,2535A,103.7723,29.5462,乐山市,花湖湾,,50,47,48,35,38,48,,57,51,15,18,6,14,0.5,0.6
2025-02-20T2200,2536A,103.7627,29.5844,乐山市,牛耳桥,细颗粒物(PM2.5),62,58,56,44,47,38,,48,43,22,24,6,6,0.5,0.5
2025-02-20T2200,2537A,103.7508,29.6006,乐山市,市第三水厂,,50,43,43,35,34,40,,56,50,17,16,3,3,0.6,0.5
2025-02-20T2200,2538A,103.7571,29.5664,乐山市,市监测站,,40,38,39,28,32,44,,52,46,14,18,4,4,0.6,0.6
2025-02-20T2200,3361A,103.7311,29.5628,乐山市,理工大学,,48,37,43,33,37,20,,54,40,30,20,5,5,0.5,0.5
2025-02-20T2200,2598A,100.2143,26.8576,丽江市,西南郊,,30,22,22,13,13,93,,100,96,3,3,5,4,0.5,0.5
2025-02-20T2200,2599A,100.2497,26.8802,丽江市,丽江古城,,26,23,17,18,12,79,,92,87,12,10,8,8,0.6,0.6
2025-02-20T2200,2600A,100.2203,26.8906,丽江市,市中心,,25,,12,16,9,77,,89,85,13,11,7,8,0.6,0.5
2025-02-20T2200,1267A,119.914,28.4514,丽水市,监测站大楼,,19,6,15,3,12,58,,64,60,15,16,3,3,0.2,0.3
2025-02-20T2200,1268A,119.93,28.4586,丽水市,莲都小学,,20,,16,3,15,63,,67,64,14,16,5,5,0.3,0.3
2025-02-20T2200,1269A,119.879,28.4231,丽水市,余庄前,,20,6,17,3,12,63,,66,62,14,16,4,4,0.4,0.4
2025-02-20T2200,1173A,119.176,34.5885,连云港市,市环境监测站,,34,34,33,19,17,80,,86,86,14,12,8,8,0.4,0.4
2025-02-20T2200,3000A,119.3581,34.6972,连云港市,德源药业,颗粒物(PM10),58,66,42,24,21,18,,75,66,66,27,5,6,0.4,0.5
2025-02-20T2200,3007A,119.178,34.844,连云港市,新城一中,,44,44,44,30,28,51,,80,70,46,34,9,9,0.3,0.3
2025-02-20T2200,3008A,119.3608,34.7519,连云港市,胡沟管理处,,32,27,28,22,17,86,,79,78,20,31,6,7,0.9,0.9
2025-02-20T2200,3009A,119.1478,34.5911,连云港市,矿山设计院,,36,36,35,24,18,86,,90,90,14,14,4,4,0.3,0.5
2025-02-20T2200,3434A,119.2413,34.6539,连云港市,工贸学校,,43,43,38,25,22,91,,90,90,10,14,8,9,0.6,0.5
2025-02-20T2200,3664A,119.4172,34.7341,连云港市,连云街道,,33,33,34,17,20,92,,92,92,15,24,6,9,0.5,0.5
2025-02-20T2200,2571A,102.3431,27.8099,凉山彝族自治州,青龙寺,,30,30,23,8,7,77,,104,100,14,6,4,4,0.8,0.9
2025-02-20T2200,2572A,102.2721,27.8415,凉山彝族自治州,邛海宾馆,,35,35,29,19,16,71,,106,102,24,11,8,11,0.6,0.7
2025-02-20T2200,2573A,102.2625,27.898,凉山彝族自治州,西昌市政府,,37,37,40,22,22,87,,99,98,8,9,7,12,0.5,0.9
2025-02-20T2200,2574A,102.2685,27.8851,凉山彝族自治州,凉山州政府,,41,41,31,23,17,84,,104,102,13,12,12,15,0.3,0.6
2025-02-20T2200,2575A,102.237,27.8914,凉山彝族自治州,长安,,36,36,32,20,20,99,,107,106,13,15,16,12,1.1,0.8
2025-02-20T2200,2212A,123.2,41.1953,辽阳市,宏伟区,,38,30,39,26,23,58,,82,76,18,14,19,11,0.6,0.6
2025-02-20T2200,2213A,123.1683,41.2495,辽阳市,新华园,,43,30,41,30,27,42,,72,65,36,25,18,12,1.0,0.9
2025-02-20T2200,2214A,123.2354,41.2639,辽阳市,滨河路,细颗粒物(PM2.5),55,44,38,39,26,46,,78,70,30,21,6,7,0.5,0.7
2025-02-20T2200,2215A,123.149,41.2991,辽阳市,铁西工业园,细颗粒物(PM2.5),59,55,57,42,39,23,,74,56,36,27,9,9,0.8,0.8
2025-02-20T2200,2227A,125.1358,42.8845,辽源市,环保局,颗粒物(PM10),86,121,97,62,34,15,,79,57,66,40,5,11,2.1,1.3
2025-02-20T2200,3239A,125.0764,42.9078,辽源市,银鹰制药,细颗粒物(PM2.5),77,79,68,56,47,32,,81,57,37,31,5,5,0.8,0.7
2025-02-20T2200,1625A,115.9848,36.4372,聊城市,区政府,细颗粒物(PM2.5),99,105,74,74,48,40,,81,70,36,30,14,17,0.9,0.8
2025-02-20T2200,2878A,116.0072,36.4343,聊城市,聊大东校,细颗粒物(PM2.5),108,117,81,81,54,43,,79,70,33,29,9,14,0.8,0.8
2025-02-20T2200,3200A,115.9819,36.4978,聊城市,监控中心,细颗粒物(PM2.5),110,130,88,83,55,31,,83,68,44,37,17,17,1.1,0.9
2025-02-20T2200,3513A,116.0445,36.4361,聊城市,九州社区,细颗粒物(PM2.5),87,96,80,64,51,45,,86,76,38,33,9,16,0.8,0.8
2025-02-20T2200,4018A,116.0567,36.4608,聊城市,星美广场,细颗粒物(PM2.5),89,101,79,66,51,50,,85,77,26,27,15,21,0.9,0.9
2025-02-20T2200,2632A,94.3681,29.6376,林芝市,林芝监测站,,20,12,7,7,5,61,,101,90,2,2,6,6,0.6,0.5
2025-02-20T2200,2633A,94.3616,29.6616,林芝市,林芝人民医院,,31,16,9,7,6,98,,98,98,1,3,6,6,0.5,0.5
2025-02-20T2200,2603A,100.0781,23.8982,临沧市,市环保局,细颗粒物(PM2.5),92,,59,68,39,64,,110,102,24,13,14,10,0.6,0.5
2025-02-20T2200,2604A,100.0894,23.8822,临沧市,市气象局,,,71,53,47,38,,,112,,15,14,15,10,0.5,0.5
2025-02-20T2200,1733A,111.5531,36.0783,临汾市,临钢医院,细颗粒物(PM2.5),105,121,79,79,47,35,,73,63,31,18,7,5,1.3,0.9
2025-02-20T2200,1734A,111.5028,36.0714,临汾市,技工学校,细颗粒物(PM2.5),143,119,76,109,59,25,,71,60,40,17,11,7,1.0,0.7
2025-02-20T2200,1736A,111.5018,36.0855,临汾市,市委,细颗粒物(PM2.5),122,132,81,92,53,31,,77,65,41,20,8,5,0.9,0.6
2025-02-20T2200,3018A,111.505,36.1014,临汾市,唐尧大酒店,细颗粒物(PM2.5),120,127,80,91,57,32,,76,66,37,17,9,6,1.2,0.8
2025-02-20T2200,4244A,111.4879,36.0530,临汾市,启星学校,细颗粒物(PM2.5),117,118,75,88,61,19,,72,59,44,18,4,3,0.8,0.6
2025-02-20T2200,2667A,103.2069,35.5993,临夏回族自治州,环保局,,,,81,,31,,,73,,,14,,6,,0.7
2025-02-20T2200,4271A,103.2464,35.6123,临夏回族自治州,滨河东路1号,颗粒物(PM10),78,106,67,35,29,30,,87,76,36,13,3,4,1.2,0.8
2025-02-20T2200,1618A,118.3429,35.0532,临沂市,沂河小区,"颗粒物(PM10),细颗粒物(PM2.5)",60,70,56,43,35,64,,72,69,19,21,10,11,0.5,0.6
2025-02-20T2200,1619A,118.295,35.0583,临沂市,鲁南制药厂,颗粒物(PM10),59,68,55,32,32,50,,63,56,66,34,9,11,0.5,0.6
2025-02-20T2200,1620A,118.2794,34.9976,临沂市,新光毛纺厂,颗粒物(PM10),54,58,50,34,34,60,,72,64,27,23,12,10,0.6,0.6
2025-02-20T2200,1621A,118.3956,35.0888,临沂市,河东保险公司,细颗粒物(PM2.5),68,83,56,49,34,46,,78,62,42,30,6,7,0.6,0.6
2025-02-20T2200,3370A,118.3564,35.0215,临沂市,十里堡居委,细颗粒物(PM2.5),67,56,47,48,32,68,,75,70,20,22,8,10,0.4,0.5
2025-02-20T2200,3496A,118.3604,35.1084,临沂市,南坊新区,"颗粒物(PM10),细颗粒物(PM2.5)",64,78,52,46,33,53,,75,68,35,30,8,8,0.6,0.6
2025-02-20T2200,3860A,118.3920,35.0300,临沂市,皇山花园小区,"颗粒物(PM10),细颗粒物(PM2.5)",58,66,52,41,33,56,,76,69,33,28,7,7,0.8,0.7
2025-02-20T2200,1870A,109.4856,24.3895,柳州市,柳东小学,,12,9,13,6,11,30,,32,32,14,13,9,9,1.2,1.2
2025-02-20T2200,1871A,109.4157,24.3277,柳州市,环保监测站,,10,10,16,7,13,31,,29,29,13,18,8,9,0.8,0.8
2025-02-20T2200,1872A,109.389,24.341,柳州市,河西水厂,,11,11,23,3,14,19,,21,21,22,18,4,7,0.8,1
2025-02-20T2200,1873A,109.4311,24.2921,柳州市,市四中,,,,17,7,10,31,,31,31,14,13,7,7,0.7,0.7
2025-02-20T2200,1874A,109.4006,24.3631,柳州市,市九中,,12,12,17,8,11,23,,28,27,17,17,5,6,0.9,0.9
2025-02-20T2200,1875A,109.4958,24.3134,柳州市,古亭山,,11,,17,6,10,34,,35,35,12,10,7,7,0.6,0.6
2025-02-20T2200,3402A,109.5422,24.3996,柳州市,市二中,,10,8,14,3,10,31,,31,31,14,14,9,9,0.5,0.6
2025-02-20T2200,2307A,116.5079,31.737,六安市,监测大楼,细颗粒物(PM2.5),72,60,68,52,52,55,,71,68,22,24,4,5,0.7,0.7
2025-02-20T2200,2308A,116.4738,31.7643,六安市,皖西学院,细颗粒物(PM2.5),72,77,82,52,52,61,,71,70,25,28,3,5,0.6,0.7
2025-02-20T2200,2309A,116.4996,31.7905,六安市,朝阳厂,,,59,69,56,52,52,,67,64,28,33,2,4,,0.7
2025-02-20T2200,2310A,116.5567,31.7886,六安市,开发区,细颗粒物(PM2.5),69,75,87,50,57,53,,75,69,26,25,3,4,0.6,0.6
2025-02-20T2200,2576A,104.8,26.5892,六盘水市,窑上,细颗粒物(PM2.5),54,44,37,38,20,13,,23,21,19,13,5,5,0.8,0.8
2025-02-20T2200,2577A,104.83,26.5917,六盘水市,黄土坡,,35,28,24,24,19,13,,22,20,26,18,12,11,0.9,0.8
2025-02-20T2200,2578A,104.89,26.5939,六盘水市,水钢,细颗粒物(PM2.5),62,,36,44,31,19,,29,28,18,15,8,9,0.5,0.6
2025-02-20T2200,2579A,104.8475,26.5894,六盘水市,民中,,29,29,23,14,15,16,,20,20,22,20,10,10,0.8,0.8
2025-02-20T2200,2580A,104.9544,26.5506,六盘水市,双水,,18,12,15,12,10,22,,27,26,18,14,10,9,0.5,0.6
2025-02-20T2200,2335A,117.0189,25.1181,龙岩市,龙岩师专,,,,,,,,,,,,,,,,
2025-02-20T2200,2336A,117.0217,25.1033,龙岩市,龙岩市监测站,,40,34,35,28,26,58,,73,63,18,20,11,10,0.5,0.6
2025-02-20T2200,2337A,117.0258,25.0661,龙岩市,闽西职业技术学院,,36,34,45,25,29,57,,70,61,17,19,8,7,0.5,0.6
2025-02-20T2200,2338A,117.0196,25.0306,龙岩市,龙岩学院,,38,31,35,26,29,55,,74,64,11,12,3,3,0.4,0.5
2025-02-20T2200,2665A,105.0822,33.3261,陇南市,汉王镇固水子,,,,,,,,,,,,,,,,
2025-02-20T2200,2885A,104.9339,33.3826,陇南市,滨江中学,,49,46,39,34,25,47,,48,48,17,20,8,14,0.8,0.9
2025-02-20T2200,3247A,104.955,33.371,陇南市,市总工会,,47,47,35,31,21,50,,53,52,18,17,8,9,1.1,1
2025-02-20T2200,2487A,111.9589,27.8901,娄底市,电视发射台,细颗粒物(PM2.5),74,,29,54,30,80,,74,74,15,10,5,5,0.6,0.6
2025-02-20T2200,2488A,111.9975,27.725,娄底市,市监测站,细颗粒物(PM2.5),72,75,43,52,28,58,,55,55,35,32,11,8,0.7,0.7
2025-02-20T2200,2489A,112.0194,27.7314,娄底市,市委党校,细颗粒物(PM2.5),89,76,44,66,36,76,,64,64,20,20,3,3,0.6,0.6
2025-02-20T2200,2490A,111.9561,27.7569,娄底市,涟钢,细颗粒物(PM2.5),73,63,43,53,36,68,,64,64,14,12,7,8,0.6,0.6
2025-02-20T2200,2491A,111.9892,27.7044,娄底市,市政府,细颗粒物(PM2.5),87,84,39,64,32,69,,59,59,22,20,5,5,0.7,0.7
2025-02-20T2200,1893A,105.4324,28.9634,泸州市,九狮山,,,,,,,,,,,,,,,,
2025-02-20T2200,1894A,105.4427,28.9063,泸州市,小市上码头,细颗粒物(PM2.5),82,104,92,60,55,16,,28,20,23,22,5,6,0.3,0.3
2025-02-20T2200,1895A,105.4241,28.8573,泸州市,兰田宪桥,细颗粒物(PM2.5),80,84,85,59,60,15,,28,24,29,22,4,4,0.6,0.6
2025-02-20T2200,1896A,105.4379,28.8833,泸州市,市环监站,细颗粒物(PM2.5),89,107,101,66,61,15,,30,19,27,25,5,5,0.4,0.4
2025-02-20T2200,3490A,105.3617,28.7703,泸州市,纳溪区环保局,,,,82,,81,,,32,,,15,,4,,0.7
2025-02-20T2200,2183A,111.1406,37.5211,吕梁市,环保局,细颗粒物(PM2.5),93,112,85,69,61,3,,64,38,70,39,6,9,0.8,0.6
2025-02-20T2200,2185A,111.1297,37.5136,吕梁市,自来水公司,细颗粒物(PM2.5),67,82,81,48,58,29,,61,42,45,33,7,7,0.6,0.6
2025-02-20T2200,2867A,111.1283,37.51,吕梁市,马茂庄小学,颗粒物(PM10),89,127,93,46,56,7,,57,41,62,37,22,12,0.4,0.5
2025-02-20T2200,1812A,112.3931,34.6516,洛阳市,市委党校,细颗粒物(PM2.5),93,,68,69,39,46,,63,60,22,23,3,6,0.6,0.5
2025-02-20T2200,1815A,112.494,34.6886,洛阳市,河南林校,细颗粒物(PM2.5),102,,58,76,49,46,,70,64,26,22,2,4,0.7,0.6
2025-02-20T2200,1816A,112.3844,34.623,洛阳市,开发区管委会,细颗粒物(PM2.5),87,87,74,64,53,58,,73,71,20,22,5,6,0.6,0.6
2025-02-20T2200,1817A,112.4267,34.6258,洛阳市,市委新办公区,细颗粒物(PM2.5),98,89,79,73,48,53,,75,70,25,24,2,19,1.3,0.8
2025-02-20T2200,3340A,112.6005,34.6326,洛阳市,伊滨,细颗粒物(PM2.5),104,86,80,78,61,52,,68,66,20,23,4,7,0.7,0.7
2025-02-20T2200,3341A,112.4951,34.6332,洛阳市,中移产业园,细颗粒物(PM2.5),103,,61,77,64,53,,67,65,22,27,2,5,0.8,0.8
2025-02-20T2200,3593A,112.5736,34.8993,洛阳市,吉利监测站,细颗粒物(PM2.5),108,82,67,81,63,50,,64,57,20,27,4,7,0.5,0.5
2025-02-20T2200,3635A,112.3677,34.662,洛阳市,河科大西苑校区,细颗粒物(PM2.5),89,77,68,66,49,47,,70,64,24,21,5,7,0.8,0.7
2025-02-20T2200,3636A,112.4388,34.6781,洛阳市,英才小学,细颗粒物(PM2.5),83,80,66,61,42,46,,72,66,24,22,2,5,0.5,0.5
2025-02-20T2200,4214A,112.4600,34.6949,洛阳市,春都路1号院,细颗粒物(PM2.5),80,79,77,59,44,44,,74,67,29,25,6,8,0.8,0.7
2025-02-20T2200,2399A,114.051,33.5699,漯河市,三五一五工厂,细颗粒物(PM2.5),108,,92,81,72,38,,49,38,19,21,3,4,0.7,0.7
2025-02-20T2200,2400A,114.0055,33.5698,漯河市,漯河大学,细颗粒物(PM2.5),89,69,89,66,65,38,,48,37,20,22,3,5,0.6,0.5
2025-02-20T2200,2401A,114.0138,33.5828,漯河市,市水利局,细颗粒物(PM2.5),92,70,91,68,69,36,,46,35,19,21,2,4,0.4,0.5
2025-02-20T2200,2402A,114.0261,33.5698,漯河市,市广电局,细颗粒物(PM2.5),94,73,88,70,64,33,,45,35,21,23,3,5,0.6,0.6
2025-02-20T2200,3478A,113.9749,33.5664,漯河市,市图书馆,细颗粒物(PM2.5),103,81,99,77,75,36,,45,36,20,22,1,4,0.7,0.6
2025-02-20T2200,4250A,114.0892,33.5882,漯河市,韶山路11号,细颗粒物(PM2.5),107,89,101,80,72,32,,50,37,23,23,3,6,0.6,0.7
2025-02-20T2200,1798A,118.5092,31.6837,马鞍山市,湖东路四小,颗粒物(PM10),51,52,61,35,35,70,,82,79,24,25,10,8,0.5,0.5
2025-02-20T2200,1799A,118.5024,31.6449,马鞍山市,开发区,细颗粒物(PM2.5),55,56,65,39,44,65,,78,75,25,28,8,7,0.5,0.5
2025-02-20T2200,1802A,118.6245,31.7241,马鞍山市,濮塘,细颗粒物(PM2.5),57,55,58,40,42,68,,85,81,16,16,4,6,0.5,0.6
2025-02-20T2200,3633A,118.4918,31.6809,马鞍山市,雨山,细颗粒物(PM2.5),57,60,70,40,44,66,,81,77,21,21,6,6,0.7,0.7
2025-02-20T2200,4191A,118.5274,31.72227,马鞍山市,慈湖高新区,细颗粒物(PM2.5),70,62,66,51,49,61,,79,72,26,23,8,8,0.4,0.6
2025-02-20T2200,1686A,111.0286,21.4688,茂名市,电白南海,颗粒物(PM10),51,51,49,14,19,91,,98,96,10,8,3,3,0.7,0.7
2025-02-20T2200,1687A,110.9294,21.6533,茂名市,茂石化七小,,41,41,42,22,21,96,,104,100,8,7,2,2,0.8,0.8
2025-02-20T2200,1688A,110.9107,21.6687,茂名市,健康路,,41,41,37,17,19,98,,105,100,8,8,3,3,0.8,0.8
2025-02-20T2200,1689A,110.8592,21.6828,茂名市,高岭,,48,48,49,19,19,94,,103,97,9,12,2,10,0.6,0.6
2025-02-20T2200,3450A,111.01,21.5165,茂名市,电白水东,,34,34,37,14,17,96,,95,95,3,6,2,3,0.6,0.8
2025-02-20T2200,2539A,104.0308,30.0478,眉山市,黑龙滩水库,细颗粒物(PM2.5),53,49,47,37,37,46,,54,52,6,12,3,3,0.5,0.5
2025-02-20T2200,2540A,103.8416,30.0874,眉山市,气象局,细颗粒物(PM2.5),70,56,51,51,44,14,,50,38,33,23,4,4,0.6,0.5
2025-02-20T2200,3137A,103.8578,30.0744,眉山市,市委党校,细颗粒物(PM2.5),62,51,47,44,38,23,,48,37,27,28,5,6,0.7,0.6
2025-02-20T2200,3148A,103.8291,30.0564,眉山市,区人社局,细颗粒物(PM2.5),64,,42,46,40,12,,47,37,40,30,7,7,0.8,0.7
2025-02-20T2200,1690A,116.1231,24.3284,梅州市,梅江月梅,,42,38,37,29,28,118,,108,108,9,10,11,10,0.6,0.5
2025-02-20T2200,1691A,116.0797,24.2719,梅州市,梅县新城,细颗粒物(PM2.5),53,42,42,37,31,96,,110,105,24,22,7,6,0.7,0.6
2025-02-20T2200,1692A,116.1248,24.2654,梅州市,环境监控中心,,50,50,42,34,31,97,,104,99,25,25,8,7,0.8,0.6
2025-02-20T2200,3315A,116.1233,24.2991,梅州市,梅龙,,44,44,41,27,27,111,,108,107,22,18,12,7,0.6,0.5
2025-02-20T2200,1878A,104.7778,31.4741,绵阳市,富乐山,,43,38,41,30,34,24,,40,36,8,16,2,2,0.4,0.4
2025-02-20T2200,1880A,104.6697,31.4668,绵阳市,高新区自来水公司,,49,49,47,31,32,17,,43,40,34,27,3,3,0.6,0.6
2025-02-20T2200,1881A,104.7287,31.5075,绵阳市,三水厂,,49,48,49,34,39,4,,48,43,46,27,6,6,0.7,0.6
2025-02-20T2200,3491A,104.69,31.5322,绵阳市,西科大附属小学,细颗粒物(PM2.5),55,50,46,39,33,7,,46,39,41,26,6,6,0.5,0.4
2025-02-20T2200,3492A,104.5648,31.5343,绵阳市,安州区旅游局,细颗粒物(PM2.5),55,46,43,39,34,31,,41,36,20,20,13,12,0.7,0.7
2025-02-20T2200,4226A,104.7651,31.4531,绵阳市,绵阳市气象局,,36,32,50,25,33,40,,42,42,13,17,5,4,0.4,0.4
2025-02-20T2200,1784A,129.61,44.561,牡丹江市,环保大楼,"颗粒物(PM10),细颗粒物(PM2.5)",54,57,40,38,23,37,,77,64,34,17,7,6,0.6,0.5
2025-02-20T2200,1785A,129.6115,44.5782,牡丹江市,文化广场,细颗粒物(PM2.5),58,48,36,41,30,38,,81,70,45,21,10,8,0.9,0.6
2025-02-20T2200,1786A,129.5904,44.5963,牡丹江市,第一医院,细颗粒物(PM2.5),60,,41,43,35,56,,78,71,18,19,7,7,1.0,0.7
2025-02-20T2200,1787A,129.6364,44.6075,牡丹江市,机车工厂,细颗粒物(PM2.5),52,50,57,36,31,36,,74,62,30,20,8,8,0.8,0.8
2025-02-20T2200,1788A,129.6386,44.5462,牡丹江市,第一中学,,39,39,30,27,23,48,,78,65,21,13,9,8,0.4,0.3
2025-02-20T2200,2531A,105.0703,29.61,内江市,市监测站,细颗粒物(PM2.5),70,52,45,51,46,19,,38,33,18,16,5,5,0.7,0.6
2025-02-20T2200,2532A,105.0717,29.5947,内江市,东兴区政府,,,51,45,,43,12,,37,28,22,19,4,5,0.8,0.7
2025-02-20T2200,2533A,105.0653,29.5817,内江市,内江二中,细颗粒物(PM2.5),77,76,56,56,49,19,,38,35,24,19,6,6,0.8,0.7
2025-02-20T2200,2534A,105.0406,29.5822,内江市,内江日报社,细颗粒物(PM2.5),77,57,50,56,46,17,,36,33,27,23,6,6,0.6,0.5
2025-02-20T2200,2628A,92.0657,31.4846,那曲市,那曲监测站,,30,30,35,21,26,57,,78,75,20,16,12,10,0.6,0.9
2025-02-20T2200,3128A,92.0506,31.4797,那曲市,那曲会议中心,,28,28,28,11,15,81,,98,96,6,9,7,8,0.7,1
2025-02-20T2200,1290A,115.8931,28.6843,南昌市,省外办,细颗粒物(PM2.5),73,57,42,53,34,61,,60,59,16,18,4,4,0.5,0.4
2025-02-20T2200,1291A,115.8886,28.7003,南昌市,省林业公司,细颗粒物(PM2.5),73,,27,53,30,48,,51,48,15,15,6,6,0.5,0.4
2025-02-20T2200,1292A,115.8126,28.7442,南昌市,林科所,细颗粒物(PM2.5),55,39,25,39,24,50,,57,54,14,16,5,5,0.7,0.6
2025-02-20T2200,1294A,115.8518,28.687,南昌市,建工学校,细颗粒物(PM2.5),64,47,30,46,26,49,,53,48,27,27,6,6,0.8,0.7
2025-02-20T2200,1295A,115.8921,28.6424,南昌市,象湖,细颗粒物(PM2.5),67,,24,48,28,55,,60,56,20,19,5,5,0.9,0.8
2025-02-20T2200,1296A,115.7423,28.7996,南昌市,武术学校,,25,24,24,17,19,50,,60,57,18,13,3,4,0.6,0.5
2025-02-20T2200,3046A,115.9084,28.6062,南昌市,机电学校,细颗粒物(PM2.5),67,56,32,48,27,51,,56,53,18,19,7,7,0.8,0.8
2025-02-20T2200,3690A,115.9721,28.7031,南昌市,外国语学校,细颗粒物(PM2.5),65,56,31,47,24,45,,54,46,22,17,3,3,0.5,0.4
2025-02-20T2200,4192A,115.9316,28.68677,南昌市,南京东路235号,细颗粒物(PM2.5),70,,29,51,31,54,,58,55,18,16,4,3,0.8,0.8
2025-02-20T2200,1905A,106.056,30.8064,南充市,西山风景区,,32,27,38,22,32,48,,55,54,6,8,1,2,0.6,0.6
2025-02-20T2200,1906A,106.0789,30.8023,南充市,南充市委,,36,28,47,25,40,26,,53,44,29,22,5,4,0.6,0.6
2025-02-20T2200,1907A,106.1031,30.8217,南充市,南充炼油厂,,40,30,43,28,39,41,,52,48,12,16,4,4,0.5,0.6
2025-02-20T2200,1909A,106.0642,30.7636,南充市,嘉陵区环保局,,37,37,52,24,38,33,,46,42,24,23,5,4,0.5,0.6
2025-02-20T2200,1910A,106.1087,30.8388,南充市,市环境监测站,,40,,47,28,36,41,,56,53,12,13,6,6,0.5,0.5
2025-02-20T2200,4227A,106.1083,30.7884,南充市,梨树横街98号,,30,30,46,19,35,41,,53,50,20,21,6,5,0.7,0.7
2025-02-20T2200,1151A,118.8086,32.1065,南京市,迈皋桥,,27,27,44,17,25,64,,83,79,19,20,4,4,0.3,0.5
2025-02-20T2200,1152A,118.7538,32.0551,南京市,草场门,,41,41,50,17,29,51,,72,69,24,21,5,6,0.6,0.7
2025-02-20T2200,1153A,118.7794,32.0745,南京市,山西路,,39,39,58,14,31,67,,88,84,4,6,4,4,0.3,0.5
2025-02-20T2200,1154A,118.7752,32.0023,南京市,中华门,,34,34,50,14,28,63,,81,79,14,17,3,4,0.4,0.5
2025-02-20T2200,1155A,118.8109,32.0309,南京市,瑞金路,,31,31,51,14,29,63,,84,81,16,11,6,6,0.6,0.7
2025-02-20T2200,1156A,118.7997,32.0754,南京市,玄武湖,,34,34,51,9,26,64,,82,78,19,18,7,8,0.4,0.5
2025-02-20T2200,1157A,118.6414,32.0931,南京市,浦口,,39,39,59,23,28,63,,68,67,20,26,7,8,0.4,0.6
2025-02-20T2200,1158A,118.7356,31.9996,南京市,奥体中心,,39,39,56,17,31,68,,89,87,19,23,5,6,0.3,0.5
2025-02-20T2200,1159A,118.9125,32.1028,南京市,仙林大学城,,34,34,50,14,28,68,,86,82,14,18,7,8,0.4,0.6
2025-02-20T2200,3422A,118.8436,31.9198,南京市,江宁彩虹桥,,33,33,57,17,28,61,,76,73,14,17,4,5,0.4,0.6
2025-02-20T2200,3423A,119.0138,31.6494,南京市,溧水永阳,细颗粒物(PM2.5),54,,44,38,39,61,,81,77,25,24,4,4,0.5,0.6
2025-02-20T2200,3427A,118.8554,32.3578,南京市,六合雄州,,21,21,42,12,18,64,,82,77,7,7,2,4,0.5,0.6
2025-02-20T2200,4249A,118.8708,31.3402,南京市,汶溪路181号,细颗粒物(PM2.5),59,46,59,42,43,62,,73,70,20,20,2,3,0.4,0.4
2025-02-20T2200,1401A,108.3103,22.7881,南宁市,二十一中,,23,,57,16,39,15,,10,7,22,31,6,6,1.1,1.1
2025-02-20T2200,1402A,108.3141,22.8528,南宁市,北湖,,28,28,52,18,36,7,,8,5,30,30,8,9,1.0,1.1
2025-02-20T2200,1403A,108.3206,22.8225,南宁市,市监测站,,32,,56,22,36,11,,7,5,23,30,10,10,1.2,1.3
2025-02-20T2200,1404A,108.3829,22.8037,南宁市,大自然花园,,29,22,53,20,38,23,,14,14,16,26,6,6,1.5,1.6
2025-02-20T2200,1405A,108.4394,22.7904,南宁市,仙葫,,20,20,53,10,35,18,,14,14,14,24,2,3,0.8,0.9
2025-02-20T2200,1406A,108.2397,22.8467,南宁市,区农职院,,35,35,47,23,26,1,,8,5,23,23,9,9,0.9,0.9
2025-02-20T2200,1407A,108.3275,22.735,南宁市,英华嘉园,,33,33,64,20,40,16,,10,6,17,27,7,7,0.9,1
2025-02-20T2200,3401A,108.4834,22.7618,南宁市,红星社区,,23,23,55,12,37,14,,28,20,14,20,7,8,1.0,1.1
2025-02-20T2200,4221A,108.2177,22.7774,南宁市,乐贤路16号,,39,38,62,27,37,4,,7,5,26,24,6,6,1.2,1.1
2025-02-20T2200,2331A,118.0966,26.6761,南平市,茫荡山,,,,,,,,,,,,,,,,
2025-02-20T2200,2332A,118.1681,26.6369,南平市,南平市监测站,,18,,16,12,15,46,,65,58,8,14,3,5,0.5,0.5
2025-02-20T2200,2333A,118.1825,26.6489,南平市,南平铝业有限公司,,15,10,16,3,13,48,,60,53,10,18,4,5,0.6,0.7
2025-02-20T2200,2334A,118.1756,26.6272,南平市,南平七中,,15,,14,10,13,39,,63,58,13,13,5,4,0.6,0.5
2025-02-20T2200,1168A,120.9098,31.9663,南通市,狼山街道,,36,36,30,20,15,77,,86,83,16,13,5,5,0.4,0.5
2025-02-20T2200,1169A,120.86,32.0005,南通市,虹桥,,35,32,40,24,17,83,,79,77,14,18,5,5,0.0,0.1
2025-02-20T2200,1170A,120.87,32.02,南通市,城中,,40,40,34,17,15,78,,83,80,16,14,5,6,0.5,0.5
2025-02-20T2200,1171A,120.94,31.93,南通市,星湖花园,,31,31,25,20,15,78,,82,79,17,14,6,6,0.2,0.2
2025-02-20T2200,1172A,120.81,32.0417,南通市,紫琅学院,,30,26,27,21,13,80,,81,80,14,16,2,2,0.3,0.4
2025-02-20T2200,3291A,121.067,32.062,南通市,通州监测站,,31,31,28,14,14,89,,90,89,11,12,3,3,0.3,0.4
2025-02-20T2200,3432A,120.9348,31.9883,南通市,环境教育馆,,32,27,30,22,16,87,,94,90,9,8,4,4,0.5,0.5
2025-02-20T2200,2404A,112.5224,33.0122,南阳市,瓦房庄,细颗粒物(PM2.5),107,94,96,80,69,52,,68,62,19,18,5,9,0.6,0.7
2025-02-20T2200,2405A,112.5003,32.9735,南阳市,汉画馆,细颗粒物(PM2.5),80,86,90,59,55,57,,72,65,21,21,6,9,0.6,0.6
2025-02-20T2200,2406A,112.5573,33.027,南阳市,气象站,细颗粒物(PM2.5),104,99,105,78,66,50,,68,61,19,18,4,7,0.7,0.6
2025-02-20T2200,2407A,112.5481,32.9689,南阳市,理工学院,细颗粒物(PM2.5),95,90,92,71,65,47,,69,59,21,19,5,8,0.6,0.6
2025-02-20T2200,4008A,112.5234,32.9922,南阳市,卧龙区政府,细颗粒物(PM2.5),90,89,94,67,63,54,,70,62,23,23,5,8,0.7,0.6
2025-02-20T2200,1234A,121.8358,29.911,宁波市,区环保大楼,,18,,41,12,28,55,,75,67,35,30,5,6,0.6,0.8
2025-02-20T2200,1235A,121.56,29.82,宁波市,万里学院,,22,13,49,9,32,69,,76,74,15,19,12,6,0.4,0.6
2025-02-20T2200,1236A,121.713,29.9572,宁波市,龙赛医院,,24,12,43,12,26,75,,77,76,14,25,4,6,0.4,0.5
2025-02-20T2200,1239A,121.633,29.7733,宁波市,钱湖水厂,,21,7,35,7,28,67,,78,78,22,19,5,5,0.4,0.4
2025-02-20T2200,1240A,121.5856,29.8635,宁波市,太古小学,,22,13,49,8,28,68,,82,80,24,27,7,7,0.3,0.4
2025-02-20T2200,1241A,121.524,29.8674,宁波市,市环境监测中心,,23,13,60,9,32,73,,76,76,20,28,5,6,0.4,0.5
2025-02-20T2200,2871A,121.6147,29.9017,宁波市,万里国际学校,,26,26,50,6,23,69,,77,74,16,25,6,7,0.3,0.3
2025-02-20T2200,3710A,121.5594,29.8975,宁波市,白沙活动中心,,23,23,50,9,30,72,,78,75,22,31,5,5,0.3,0.3
2025-02-20T2200,2339A,119.5001,26.6946,宁德市,金涵水库,,,,,,,,,,,,,,,,
2025-02-20T2200,2341A,119.5388,26.6612,宁德市,宁德市监测站,,18,,13,10,17,57,,53,53,13,14,4,4,0.6,0.6
2025-02-20T2200,3209A,119.5231,26.6562,宁德市,宁德一中,,20,14,12,14,17,60,,63,61,15,14,4,4,0.3,0.3
2025-02-20T2200,2618A,98.8601,25.8567,怒江傈僳族自治州,州监测站,,45,44,31,31,19,47,,76,71,18,9,6,6,0.4,0.4
2025-02-20T2200,2619A,98.8546,25.8417,怒江傈僳族自治州,泸水一中,细颗粒物(PM2.5),54,43,29,38,22,18,,58,46,30,14,6,6,0.7,0.4
2025-02-20T2200,1888A,101.6891,26.571,攀枝花市,弄弄坪,,32,31,42,22,27,73,,92,81,19,31,10,25,0.5,1.7
2025-02-20T2200,1889A,101.5769,26.5928,攀枝花市,河门口,,30,23,32,14,21,93,,103,102,7,17,7,10,0.4,0.6
2025-02-20T2200,1890A,101.7169,26.585,攀枝花市,炳草岗,,40,40,43,21,23,36,,100,86,48,36,6,12,0.7,1.3
2025-02-20T2200,1891A,101.7369,26.5008,攀枝花市,仁和,,49,49,33,27,24,49,,98,82,26,19,7,7,0.7,0.6
2025-02-20T2200,2835A,101.7227,26.567,攀枝花市,四十中小,,40,40,45,24,24,85,,98,89,16,33,8,19,0.5,1.4
2025-02-20T2200,1604A,122.0303,41.1489,盘锦市,开发区,细颗粒物(PM2.5),58,50,37,41,22,41,,77,67,29,24,12,7,0.6,0.6
2025-02-20T2200,1605A,122.0485,41.0883,盘锦市,兴隆台,颗粒物(PM10),51,51,36,30,21,46,,74,66,26,25,13,8,0.8,0.7
2025-02-20T2200,1606A,121.8297,41.1028,盘锦市,新生街道,细颗粒物(PM2.5),59,,44,42,22,21,,78,53,62,40,10,13,0.7,0.8
2025-02-20T2200,1832A,113.3257,33.742,平顶山市,新华旅馆,细颗粒物(PM2.5),93,89,98,69,62,25,,56,34,28,23,3,5,0.7,0.6
2025-02-20T2200,1833A,113.2919,33.737,平顶山市,规划设计院,细颗粒物(PM2.5),94,77,89,70,60,32,,60,39,28,26,4,6,0.5,0.5
2025-02-20T2200,1834A,113.182,33.774,平顶山市,平顶山工学院,细颗粒物(PM2.5),83,68,87,61,56,32,,56,40,20,21,2,5,0.5,0.5
2025-02-20T2200,3204A,113.3025,33.73,平顶山市,规划局,细颗粒物(PM2.5),104,,86,78,67,29,,60,38,28,23,2,5,0.7,0.4
2025-02-20T2200,3594A,112.8867,33.9116,平顶山市,石龙区,细颗粒物(PM2.5),119,109,98,90,64,25,,65,56,40,30,4,8,0.5,0.5
2025-02-20T2200,2656A,106.6692,35.5461,平凉市,聚贤嘉苑,,,,,,,,,,,,,,,,
2025-02-20T2200,2657A,106.7021,35.5307,平凉市,博物馆,细颗粒物(PM2.5),69,61,67,50,48,56,,80,63,23,36,8,7,0.9,0.7
2025-02-20T2200,2347A,114.0997,27.5002,萍乡市,武功山,,13,,3,6,8,40,,39,39,7,9,4,5,0.4,0.6
2025-02-20T2200,2348A,113.8385,27.6434,萍乡市,中医院,,25,17,21,17,16,48,,50,50,18,20,5,5,0.8,0.8
2025-02-20T2200,2349A,113.8493,27.6253,萍乡市,市政府车库,,30,,18,21,18,46,,48,47,17,18,4,4,0.6,0.7
2025-02-20T2200,2350A,113.8676,27.6435,萍乡市,市环保局,,29,24,19,20,16,44,,47,46,18,18,2,6,0.5,0.6
2025-02-20T2200,2351A,113.866,27.6198,萍乡市,安源区政府,,23,20,21,16,14,35,,44,41,23,22,3,6,0.8,0.9
2025-02-20T2200,2319A,119.0141,25.4325,莆田市,荔城区仓后路,,23,16,12,6,3,72,,84,77,12,11,3,2,0.6,0.6
2025-02-20T2200,2320A,119.0015,25.4553,莆田市,莆田市监测站,,25,6,8,3,2,77,,89,82,7,7,3,3,0.5,0.5
2025-02-20T2200,2321A,119.1119,25.4561,莆田市,涵江区六中,,25,9,14,3,6,80,,89,84,15,16,2,2,0.4,0.5
2025-02-20T2200,2322A,119.1013,25.3215,莆田市,秀屿区政府,,26,,12,6,5,82,,85,83,14,15,3,3,0.5,0.5
2025-02-20T2200,2323A,118.981,25.4792,莆田市,东圳水库,,,,,,,,,,,,,,,,
2025-02-20T2200,2392A,115.0312,35.7636,濮阳市,环保局,细颗粒物(PM2.5),73,65,54,53,41,34,,67,53,35,19,4,6,0.8,0.8
2025-02-20T2200,2394A,115.0574,35.7609,濮阳市,油田运输公司,细颗粒物(PM2.5),74,79,69,54,39,43,,63,51,27,20,4,5,0.9,0.9
2025-02-20T2200,3021A,115,35.7668,濮阳市,濮水河管理处,细颗粒物(PM2.5),73,80,64,53,36,32,,64,45,35,22,5,6,0.3,0.4
2025-02-20T2200,4216A,115.0924,35.7686,濮阳市,任丘路479号,颗粒物(PM10),82,114,69,52,44,54,,67,57,20,19,6,7,1.0,0.9
2025-02-20T2200,2601A,100.98,22.7633,普洱市,市环保局,颗粒物(PM10),72,94,74,41,33,65,,116,98,14,12,7,7,0.7,0.6
2025-02-20T2200,2602A,100.9817,22.8322,普洱市,普洱第二中学,,,,70,,35,,,102,96,27,25,3,3,0.5,0.8
2025-02-20T2200,2262A,131.0518,45.8751,七台河市,新一中,,27,17,27,12,19,86,,96,89,9,10,13,11,0.7,0.7
2025-02-20T2200,3345A,131.0577,45.7879,七台河市,中波台,,45,40,44,31,34,51,,79,66,35,25,11,10,0.4,0.3
2025-02-20T2200,3637A,131.0176,45.7761,七台河市,人民广场,,38,38,56,15,35,57,,83,64,27,26,6,10,0.4,0.5
2025-02-20T2200,3684A,130.8781,45.8222,七台河市,新建矿广场,,45,41,42,31,32,44,,82,65,30,21,5,7,0.5,0.4
2025-02-20T2200,1779A,123.9305,47.3636,齐齐哈尔市,安居小区,,49,44,34,34,21,14,,76,52,69,25,5,5,0.5,0.3
2025-02-20T2200,1780A,123.9488,47.3386,齐齐哈尔市,中心广场,,,,26,,16,33,,68,53,43,20,6,6,0.9,0.5
2025-02-20T2200,1781A,123.9483,47.3227,齐齐哈尔市,农牧车辆厂,颗粒物(PM10),53,56,24,32,18,22,,73,53,52,19,10,7,0.7,0.4
2025-02-20T2200,1783A,123.945,47.2988,齐齐哈尔市,市环境监测站,细颗粒物(PM2.5),68,71,29,49,19,10,,72,54,68,20,6,5,0.8,0.4
2025-02-20T2200,3662A,123.6333,47.2075,齐齐哈尔市,富区青少年活动中心,颗粒物(PM10),96,142,32,45,17,15,,74,63,57,16,17,8,1.7,0.6
2025-02-20T2200,2591A,107.9783,26.5747,黔东南苗族侗族自治州,市环境监测站,,25,20,14,17,13,66,,59,59,8,10,2,2,0.6,0.6
2025-02-20T2200,2881A,107.8908,26.5311,黔东南苗族侗族自治州,凯里学院,,20,14,5,8,7,62,,58,57,10,9,1,2,0.6,0.5
2025-02-20T2200,2593A,107.5228,26.2403,黔南布依族苗族自治州,小围寨,,15,6,4,3,2,48,,45,44,6,8,4,5,0.9,0.8
2025-02-20T2200,3538A,107.5175,26.2978,黔南布依族苗族自治州,沙坝,,17,9,7,3,3,54,,54,51,2,4,5,5,0.7,0.7
2025-02-20T2200,2589A,104.9022,25.0925,黔西南布依族苗族自治州,场坝街,,30,30,20,9,10,14,,26,23,15,9,3,3,0.4,0.3
2025-02-20T2200,2590A,104.8811,25.0992,黔西南布依族苗族自治州,坪东大道,,26,24,19,18,10,18,,23,23,11,9,4,4,0.2,0.2
2025-02-20T2200,2502A,108.6236,21.9667,钦州市,市环保站,细颗粒物(PM2.5),100,107,98,75,64,26,,45,38,31,30,9,9,1.4,1.2
2025-02-20T2200,2503A,108.6549,21.9481,钦州市,沙埠小学,细颗粒物(PM2.5),84,93,87,62,56,30,,40,38,27,31,7,8,1.4,1.2
2025-02-20T2200,2504A,108.5989,21.7431,钦州市,港区一小,细颗粒物(PM2.5),98,102,97,73,57,17,,54,49,33,26,11,10,1.2,1.1
2025-02-20T2200,3404A,108.5959,21.9633,钦州市,北职校,细颗粒物(PM2.5),127,97,82,96,73,22,,49,40,33,29,7,7,1.3,1.1
2025-02-20T2200,1043A,119.7493,40.0116,秦皇岛市,第一关,细颗粒物(PM2.5),58,45,31,41,27,35,,82,62,55,42,5,6,0.4,0.4
2025-02-20T2200,1044A,119.5897,39.9499,秦皇岛市,监测站,颗粒物(PM10),54,57,38,33,19,34,,81,75,48,27,4,3,0.5,0.4
2025-02-20T2200,1046A,119.5251,39.9041,秦皇岛市,建设大厦,颗粒物(PM10),63,75,42,34,26,3,,81,68,75,28,6,5,0.8,0.5
2025-02-20T2200,3132A,119.610547,39.943889,秦皇岛市,文明里,,43,43,39,14,15,78,,81,81,10,23,4,4,0.2,0.3
2025-02-20T2200,4198A,119.5090,39.8253,秦皇岛市,北戴河轮滑馆,,31,31,34,16,17,80,,81,80,4,18,7,8,0.2,0.4
2025-02-20T2200,1307A,120.6659,36.2403,青岛市,仰口,,42,36,36,29,29,59,,94,75,19,10,3,4,0.7,0.7
2025-02-20T2200,1310A,120.4134,36.0658,青岛市,市南区东部子站,,29,27,38,19,21,92,,91,91,7,13,8,9,0.4,0.5
2025-02-20T2200,1311A,120.3664,36.1032,青岛市,四方区子站,,28,24,35,19,26,86,,93,92,12,22,4,5,0.6,0.7
2025-02-20T2200,1312A,120.2994,36.054,青岛市,市南区西部子站,,29,27,42,12,20,91,,93,93,14,22,8,10,0.5,0.6
2025-02-20T2200,1313A,120.4581,36.0858,青岛市,崂山区子站,,27,27,32,14,18,83,,97,95,13,14,9,10,0.5,0.6
2025-02-20T2200,1315A,120.3999,36.3083,青岛市,城阳区子站,,39,39,50,20,26,57,,81,74,39,30,7,10,0.7,0.9
2025-02-20T2200,1966A,120.0405,35.8735,青岛市,黄岛区4号,,41,41,42,19,23,81,,101,99,23,32,8,9,0.8,0.8
2025-02-20T2200,3362A,120.5014,36.4034,青岛市,即墨2号,细颗粒物(PM2.5),83,80,55,61,41,52,,85,74,38,21,13,10,1.0,0.9
2025-02-20T2200,3642A,120.3503,36.0736,青岛市,市北区南部,,28,28,38,14,20,76,,77,77,9,16,7,7,0.6,0.7
2025-02-20T2200,3643A,120.3948,36.1805,青岛市,李沧区北部,,42,36,44,29,33,63,,82,76,38,29,10,12,0.7,0.8
2025-02-20T2200,4290A,120.1969,35.9546,青岛市,珠江路669号,,39,31,47,27,30,95,,94,94,13,43,7,9,0.6,0.7
2025-02-20T2200,1702A,113.0426,23.691,清远市,环保大楼,颗粒物(PM10),62,73,87,33,40,91,,144,137,19,24,7,10,1.1,1.1
2025-02-20T2200,1703A,113.0208,23.7106,清远市,凤城街办,颗粒物(PM10),52,54,67,34,45,98,,142,136,23,33,7,12,0.9,0.9
2025-02-20T2200,3025A,113.0477,23.6344,清远市,技师学院,颗粒物(PM10),59,67,77,38,44,92,,155,144,28,42,11,15,0.7,0.7
2025-02-20T2200,3318A,112.9903,23.7403,清远市,清新太和,颗粒物(PM10),51,52,67,32,42,115,,159,155,15,30,9,10,0.9,0.9
2025-02-20T2200,3455A,113.076,23.7198,清远市,清城东城,颗粒物(PM10),59,67,88,41,45,100,,153,142,16,23,8,10,0.9,1
2025-02-20T2200,2661A,107.6325,35.7357,庆阳市,庆阳五中,细颗粒物(PM2.5),110,90,56,83,52,56,,76,68,25,15,3,3,0.8,0.6
2025-02-20T2200,2662A,107.6364,35.7067,庆阳市,市环保局,细颗粒物(PM2.5),107,93,54,80,43,62,,74,66,19,14,4,3,0.8,0.5
2025-02-20T2200,1916A,103.7897,25.5035,曲靖市,环境监测站,颗粒物(PM10),54,57,38,24,22,91,,110,105,14,13,4,4,0.5,0.5
2025-02-20T2200,1917A,103.8,25.5364,曲靖市,烟厂办公区,,47,47,39,25,23,96,,111,109,9,13,4,7,0.4,0.5
2025-02-20T2200,3376A,103.7947,25.462,曲靖市,南苑二区,,36,36,35,19,22,92,,113,110,10,10,4,4,0.4,0.4
2025-02-20T2200,3377A,103.7444,25.5261,曲靖市,曲靖师范学院,颗粒物(PM10),56,61,42,38,32,80,,113,106,28,14,11,18,0.5,0.5
2025-02-20T2200,1264A,118.8692,28.9398,衢州市,环保大楼,,20,6,23,3,18,64,,68,68,12,14,2,3,0.5,0.5
2025-02-20T2200,1265A,118.8709,28.9666,衢州市,实验学校,,23,6,18,3,14,73,,83,81,12,11,5,4,0.4,0.3
2025-02-20T2200,1266A,118.8621,28.9808,衢州市,衢州学院,,20,6,16,3,13,63,,75,70,20,17,4,3,0.5,0.5
2025-02-20T2200,1611A,118.5819,24.9117,泉州市,涂山街,,24,17,20,14,14,74,,92,83,18,13,4,2,0.7,0.7
2025-02-20T2200,1612A,118.5972,24.8978,泉州市,津头埔,,22,15,20,15,14,62,,82,71,24,16,3,2,0.6,0.6
2025-02-20T2200,1613A,118.6663,24.9424,泉州市,万安,,23,18,20,12,11,71,,92,82,21,14,5,3,0.5,0.5
2025-02-20T2200,1614A,118.6117,24.9604,泉州市,清源山,,,,,,,,,,,,,,,,
2025-02-20T2200,3529A,118.6333,24.9264,泉州市,城华南路,,20,20,21,13,12,63,,85,72,26,16,4,2,0.5,0.5
2025-02-20T2200,2626A,88.8876,29.2718,日喀则市,日喀则监测站,,30,16,24,9,8,96,,106,105,18,9,3,4,0.6,0.5
2025-02-20T2200,3726A,88.8781,29.2426,日喀则市,林业技术推广中心,,32,18,27,6,9,100,,101,101,2,4,7,7,0.3,0.5
2025-02-20T2200,1659A,119.471,35.4209,日照市,监测站,,38,36,44,26,28,54,,78,73,37,48,8,8,0.6,0.7
2025-02-20T2200,1660A,119.523,35.4216,日照市,市政府广场,,36,36,40,21,22,69,,84,83,26,23,5,5,0.6,0.6
2025-02-20T2200,1661A,119.5587,35.4044,日照市,港务局,,48,48,40,27,27,65,,91,88,38,21,10,9,0.6,0.7
2025-02-20T2200,3507A,119.5328,35.4625,日照市,职业技术学院,,34,34,37,22,19,72,,90,88,23,21,6,6,0.5,0.7
2025-02-20T2200,3604A,119.3266,35.1044,日照市,岚山环保分局,,41,41,46,27,27,93,,81,81,18,29,7,7,0.7,0.7
2025-02-20T2200,1835A,111.1922,34.7752,三门峡市,市政府,细颗粒物(PM2.5),114,,55,86,62,42,,62,49,23,19,5,6,0.8,0.7
