timepoint,stationcode,longitude,latitude,area,positionname,primarypollutant,aqi,pm10,pm10_24h,pm2_5,pm2_5_24h,o3,o3_24h,o3_8h,o3_8h_24h,no2,no2_24h,so2,so2_24h,co,co_24h
2024-04-12T0800,2566A,102.1879,31.914,阿坝藏族羌族自治州,州农科所,,20,20,26,5,10,9,,15,15,15,7,3,3,1.3,0.5
2024-04-12T0800,2568A,102.2502,31.8896,阿坝藏族羌族自治州,马师校,,22,20,23,15,13,25,,42,42,14,8,4,4,0.3,0.3
2024-04-12T0800,3994A,102.2165,31.9024,阿坝藏族羌族自治州,马尔康中学西区,,28,27,24,19,17,32,,49,49,14,7,4,4,0.3,0.2
2024-04-12T0800,2695A,80.292,41.1694,阿克苏地区,电视台,,46,46,73,27,24,64,,59,59,10,15,6,6,0.7,0.8
2024-04-12T0800,2696A,80.2613,41.1551,阿克苏地区,艺术中心,颗粒物(PM10),56,61,72,24,21,62,,36,36,17,31,4,4,0.9,1.1
2024-04-12T0800,2204A,105.6467,38.8363,阿拉善盟,西城区西花园,颗粒物(PM10),60,69,51,26,18,96,,110,110,9,6,8,9,0.8,0.8
2024-04-12T0800,2205A,105.6985,38.8411,阿拉善盟,蒙二幼,颗粒物(PM10),57,64,63,24,18,97,,105,105,14,8,8,8,0.5,0.4
2024-04-12T0800,2206A,105.724,38.8516,阿拉善盟,环保局新楼,颗粒物(PM10),60,69,53,21,18,115,,120,120,6,6,8,8,0.5,0.5
2024-04-12T0800,2708A,88.1264,47.8517,阿勒泰地区,市站,,22,,4,6,4,70,,64,64,4,10,4,5,0.2,0.2
2024-04-12T0800,2630A,80.1161,32.5,阿里地区,阿里监测站,,50,50,41,5,9,82,,95,95,18,10,20,9,0.5,0.5
2024-04-12T0800,3192A,80.0903,32.5028,阿里地区,阿里藏医院,,33,16,15,5,5,104,,119,119,10,3,13,9,0.5,0.4
2024-04-12T0800,2642A,109.0318,32.6537,安康市,香溪洞,,16,,24,11,13,21,,25,25,8,9,6,6,0.4,0.5
2024-04-12T0800,2643A,109.0281,32.6939,安康市,安康市监测站,,33,33,27,22,20,8,,17,17,12,12,8,9,0.4,0.4
2024-04-12T0800,2644A,109.0072,32.6975,安康市,汉滨区检察院,,31,31,28,17,15,10,,15,15,10,10,9,9,0.5,0.5
2024-04-12T0800,2291A,117.0809,30.5177,安庆市,环科院,,46,44,52,32,36,43,,40,40,33,49,7,9,0.9,0.8
2024-04-12T0800,2292A,117.0331,30.5119,安庆市,马山宾馆,,46,40,54,32,39,24,,29,29,54,51,6,9,1.0,0.9
2024-04-12T0800,2294A,116.9896,30.6145,安庆市,安庆大学,颗粒物(PM10),51,51,57,30,43,56,,27,27,40,34,8,9,0.7,0.6
2024-04-12T0800,3173A,117.0598,30.5351,安庆市,市人大,,48,37,52,33,42,36,,52,52,40,35,6,9,0.9,0.8
2024-04-12T0800,3122A,105.9606,26.2611,安顺市,伍家关,,,,,,,,,,,,,,,,
2024-04-12T0800,3123A,105.9408,26.2431,安顺市,凤凰山,细颗粒物(PM2.5),73,57,56,53,51,38,,46,46,12,10,17,10,1.0,1
2024-04-12T0800,3124A,105.9439,26.2564,安顺市,金钟山,细颗粒物(PM2.5),70,,57,51,54,37,,46,46,10,10,8,7,0.9,0.8
2024-04-12T0800,3125A,105.8983,26.2481,安顺市,娄家坡,细颗粒物(PM2.5),58,48,59,41,50,36,,46,46,10,9,6,8,0.8,0.7
2024-04-12T0800,1818A,114.4839,36.0621,安阳市,棉研所,,,,,,,,,,,,,,,,
2024-04-12T0800,1819A,114.3551,36.1017,安阳市,红庙街,细颗粒物(PM2.5),69,59,106,50,46,48,,56,56,17,17,8,9,0.8,0.5
2024-04-12T0800,1820A,114.361,36.0681,安阳市,银杏小区,细颗粒物(PM2.5),69,,75,50,54,46,,55,55,11,11,8,9,0.6,0.6
2024-04-12T0800,3141A,114.3922,36.0878,安阳市,信访局,,,59,88,40,46,,,,,17,12,4,5,0.7,0.7
2024-04-12T0800,3669A,114.4705,36.0637,安阳市,左辅环卫站,细颗粒物(PM2.5),73,70,81,53,52,30,,40,40,20,18,6,7,0.5,0.4
2024-04-12T0800,3703A,114.2917,36.0949,安阳市,安钢职工学校,细颗粒物(PM2.5),80,61,97,59,59,34,,52,52,25,21,8,10,0.5,0.5
2024-04-12T0800,1748A,123.044,41.1196,鞍山市,深沟寺,,38,38,49,24,32,98,,106,106,13,9,6,6,0.5,0.4
2024-04-12T0800,1749A,123.011,41.0931,鞍山市,太阳城,颗粒物(PM10),52,53,65,30,39,127,,142,142,13,10,9,9,0.8,0.8
2024-04-12T0800,1750A,123.0485,41.1442,鞍山市,太平,,44,44,55,27,34,96,,109,109,21,13,5,5,0.5,0.5
2024-04-12T0800,1751A,122.9642,41.0971,鞍山市,铁西三道街,颗粒物(PM10),53,55,67,33,42,114,,132,132,24,16,5,5,0.6,0.6
2024-04-12T0800,1752A,122.9341,41.0833,鞍山市,铁西工业园区,颗粒物(PM10),56,62,70,35,44,119,,128,128,16,14,9,7,0.9,0.5
2024-04-12T0800,1753A,123.022,41.0821,鞍山市,明达新区,颗粒物(PM10),51,52,64,31,41,123,,135,135,11,9,10,10,0.6,0.6
2024-04-12T0800,1754A,123.1289,41.0228,鞍山市,千山,,,,,,,,,,,,,,,,
2024-04-12T0800,2195A,107.4212,40.761,巴彦淖尔市,附二中,颗粒物(PM10),83,115,139,36,41,77,,82,82,20,12,3,5,0.5,0.5
2024-04-12T0800,2196A,107.37,40.7372,巴彦淖尔市,市环保大楼,,,,143,,37,50,,62,62,23,11,,6,0.4,0.4
2024-04-12T0800,1956A,86.1472,41.7538,巴音郭楞蒙古自治州,孔雀公园,,47,47,63,15,16,80,,80,80,6,15,7,7,0.4,0.3
2024-04-12T0800,1957A,86.1972,41.7166,巴音郭楞蒙古自治州,棉纺厂,,44,44,61,11,14,58,,67,67,30,21,6,4,0.3,0.3
2024-04-12T0800,1958A,86.2357,41.7173,巴音郭楞蒙古自治州,经济开发区,,37,37,50,7,15,92,,85,85,3,8,7,7,0.3,0.3
2024-04-12T0800,2914A,106.7677,31.8794,巴中市,苏山坪,,18,18,24,12,18,55,,59,59,6,8,3,4,0.3,0.3
2024-04-12T0800,3182A,106.7656,31.8545,巴中市,丽阳花园,,32,32,26,21,18,7,,12,12,25,17,4,4,0.8,0.5
2024-04-12T0800,3183A,106.7418,31.8654,巴中市,圣泉水务公司,,29,29,26,20,18,4,,3,3,22,22,4,4,0.7,0.5
2024-04-12T0800,3616A,106.7616,31.8344,巴中市,市中心医院,,32,32,25,21,16,4,,7,7,16,13,5,5,0.6,0.4
2024-04-12T0800,2235A,122.7911,45.6077,白城市,洮北区环保局,颗粒物(PM10),91,131,131,56,57,82,,85,85,11,12,8,7,0.4,0.5
2024-04-12T0800,2236A,122.8738,45.5725,白城市,市环保局,颗粒物(PM10),81,112,121,58,58,73,,77,77,18,20,8,7,0.5,0.6
2024-04-12T0800,2231A,126.4219,41.9171,白山市,喜丰,颗粒物(PM10),66,82,51,26,23,23,,23,23,42,25,21,13,1.1,0.9
2024-04-12T0800,2232A,126.4077,41.9419,白山市,环保局,颗粒物(PM10),64,78,53,25,25,24,,15,15,25,20,11,10,0.9,0.8
2024-04-12T0800,2647A,104.1724,36.5446,白银市,第三小学,颗粒物(PM10),64,77,93,31,36,52,,74,74,42,31,38,42,1.1,0.8
2024-04-12T0800,2648A,104.1465,36.5482,白银市,动力公司,颗粒物(PM10),53,55,81,28,29,72,,76,76,26,26,24,36,1.1,0.8
2024-04-12T0800,2512A,106.6103,23.9011,百色市,市监测站,细颗粒物(PM2.5),68,58,61,49,41,16,,38,38,23,14,17,18,0.8,0.8
2024-04-12T0800,2513A,106.6538,23.8859,百色市,市中心血站,细颗粒物(PM2.5),64,66,64,46,43,32,,41,41,15,14,20,18,0.9,0.9
2024-04-12T0800,3406A,106.6085,23.8798,百色市,祈福高中,细颗粒物(PM2.5),74,66,63,54,46,12,,29,29,27,16,18,21,1.0,1
2024-04-12T0800,2270A,117.396,32.939,蚌埠市,工人疗养院,细颗粒物(PM2.5),110,146,89,83,44,51,,74,74,27,27,11,9,1.0,0.6
2024-04-12T0800,2271A,117.3605,32.9427,蚌埠市,百货大楼,细颗粒物(PM2.5),100,136,86,75,45,61,,85,85,31,25,6,6,1.0,0.6
2024-04-12T0800,2273A,117.4185,32.8911,蚌埠市,蚌埠学院,细颗粒物(PM2.5),110,95,68,83,46,42,,72,72,23,25,6,7,0.9,0.6
2024-04-12T0800,2274A,117.3533,32.9673,蚌埠市,淮上区政府,细颗粒物(PM2.5),122,127,86,92,54,52,,69,69,27,20,9,7,0.9,0.6
2024-04-12T0800,2275A,117.3145,32.8977,蚌埠市,高新区,细颗粒物(PM2.5),107,112,68,80,44,72,,91,91,22,22,7,8,0.9,0.6
2024-04-12T0800,3715A,117.3092,32.9314,蚌埠市,蚌埠田家炳中学,细颗粒物(PM2.5),100,133,87,75,48,64,,87,87,38,23,8,9,0.8,0.5
2024-04-12T0800,1585A,109.8756,40.6532,包头市,市环境监测站,颗粒物(PM10),127,204,123,63,37,22,,40,40,62,33,15,16,1.0,0.8
2024-04-12T0800,1587A,109.9991,40.5842,包头市,包头八中,颗粒物(PM10),149,247,115,88,43,23,,23,23,69,42,18,15,0.8,0.6
2024-04-12T0800,1588A,109.8538,40.6821,包头市,青山宾馆,颗粒物(PM10),151,251,124,85,43,22,,52,52,50,25,17,16,0.9,0.7
2024-04-12T0800,1589A,109.8642,40.6288,包头市,惠龙物流,颗粒物(PM10),122,194,127,65,39,25,,41,41,65,35,20,22,1.0,0.8
2024-04-12T0800,1590A,110.0377,40.5546,包头市,东河鸿龙湾,颗粒物(PM10),112,173,93,54,27,16,,33,33,71,27,21,11,1.0,0.7
2024-04-12T0800,3283A,109.9154,40.5685,包头市,滨河大厦,颗粒物(PM10),128,205,103,60,36,11,,24,24,70,29,16,12,0.8,0.5
2024-04-12T0800,3419A,109.9447,40.6261,包头市,包头市委党校,颗粒物(PM10),145,240,122,75,38,13,,34,34,86,34,12,15,0.6,0.4
2024-04-12T0800,3683A,109.8331,40.6576,包头市,昆区政府,颗粒物(PM10),145,240,130,94,50,30,,48,48,51,34,18,19,1.1,1.3
2024-04-12T0800,1930A,107.185,34.3063,宝鸡市,庙沟村,,31,31,29,14,18,55,,64,64,20,19,8,8,0.5,0.5
2024-04-12T0800,1931A,107.0708,34.3017,宝鸡市,竹园沟,,26,22,29,18,17,24,,35,35,18,17,3,4,0.5,0.5
2024-04-12T0800,1932A,107.1906,34.3672,宝鸡市,三陆医院,颗粒物(PM10),57,63,57,39,31,22,,33,33,37,33,9,7,0.7,0.6
2024-04-12T0800,1933A,107.1431,34.3547,宝鸡市,监测站,,43,43,47,25,25,18,,24,24,30,29,6,6,0.7,0.6
2024-04-12T0800,1934A,107.1186,34.3739,宝鸡市,技工学校,,47,47,57,31,26,28,,46,46,21,21,27,9,0.6,0.5
2024-04-12T0800,1935A,107.3906,34.3528,宝鸡市,陈仓区环保局家属楼,,,72,66,48,40,,,52,52,34,36,40,12,0.9,0.6
2024-04-12T0800,1936A,107.2058,34.3497,宝鸡市,文理学院,颗粒物(PM10),52,53,56,23,23,23,,39,39,34,26,6,6,0.5,0.4
2024-04-12T0800,1937A,107.2386,34.3622,宝鸡市,三迪小学,颗粒物(PM10),54,57,56,34,29,21,,35,35,46,34,8,7,0.7,0.6
2024-04-12T0800,1051A,115.493,38.8632,保定市,游泳馆,细颗粒物(PM2.5),74,78,144,54,65,43,,58,58,11,12,5,7,0.2,0.3
2024-04-12T0800,1052A,115.5213,38.8959,保定市,华电二区,细颗粒物(PM2.5),55,55,94,39,62,47,,56,56,12,13,3,6,0.7,0.8
2024-04-12T0800,1053A,115.4713,38.9108,保定市,接待中心,颗粒物(PM10),56,61,104,29,52,46,,60,60,8,11,3,5,0.4,0.5
2024-04-12T0800,1054A,115.4612,38.8416,保定市,地表水厂,细颗粒物(PM2.5),68,77,128,49,62,47,,55,55,15,23,4,6,0.5,0.7
2024-04-12T0800,3581A,115.31981,38.95208,保定市,满城区生态环境分局,细颗粒物(PM2.5),83,97,126,61,72,19,,35,35,24,17,3,5,0.5,0.5
2024-04-12T0800,3582A,115.47694,38.76408,保定市,清苑区第二中学,颗粒物(PM10),66,81,117,45,58,36,,51,51,24,22,7,9,0.5,0.5
2024-04-12T0800,3583A,115.62909,39.02311,保定市,徐水物探局,"颗粒物(PM10),细颗粒物(PM2.5)",64,78,135,46,72,32,,52,52,22,22,10,10,0.4,0.4
2024-04-12T0800,4004A,115.4202,38.8656,保定市,双鹰农机,细颗粒物(PM2.5),64,65,109,46,61,41,,57,57,16,16,10,12,0.6,0.7
2024-04-12T0800,4034A,115.5150,38.8590,保定市,植保所站,细颗粒物(PM2.5),68,80,112,49,65,38,,57,57,28,20,8,8,0.8,0.7
2024-04-12T0800,2594A,99.1678,25.1081,保山市,市环境监测站,细颗粒物(PM2.5),67,68,67,48,42,88,,102,102,14,12,8,7,0.8,0.6
2024-04-12T0800,2595A,99.1711,25.1328,保山市,市环保局,细颗粒物(PM2.5),63,67,67,45,40,97,,110,110,9,10,6,6,0.6,0.6
2024-04-12T0800,1866A,109.2262,21.588,北海市,牛尾岭水库,,,,,,,,,,,,,,,,
2024-04-12T0800,1867A,109.1436,21.4086,北海市,海滩公园,,33,33,40,22,18,64,,67,67,8,7,7,7,0.7,0.7
2024-04-12T0800,1868A,109.0981,21.4661,北海市,新市环保局,,30,30,42,19,21,64,,70,70,9,8,7,6,0.7,0.7
2024-04-12T0800,1869A,109.1778,21.5233,北海市,北海工业园,,49,49,54,22,28,53,,56,56,12,9,8,7,0.5,0.5
2024-04-12T0800,3400A,109.1911,21.4415,北海市,龙潭自来水厂,,40,39,37,28,23,57,,63,63,9,7,7,5,0.6,0.6
2024-04-12T0800,1001A,116.3621,39.8784,北京市,万寿西宫,细颗粒物(PM2.5),274,293,193,224,143,1,,8,8,100,68,1,1,1.3,1
2024-04-12T0800,1002A,116.2202,40.2915,北京市,定陵,,,,,,,,,,,,,,,,
2024-04-12T0800,1003A,116.4174,39.9289,北京市,东四,细颗粒物(PM2.5),257,289,209,207,145,3,,8,8,90,59,4,4,1.4,1
2024-04-12T0800,1004A,116.4072,39.8863,北京市,天坛,细颗粒物(PM2.5),266,227,151,216,129,3,,4,4,66,40,2,2,1.4,0.9
2024-04-12T0800,1005A,116.462,39.9365,北京市,农展馆,细颗粒物(PM2.5),223,241,187,173,137,2,,8,8,83,62,3,3,1.1,0.9
2024-04-12T0800,1006A,116.3392,39.9295,北京市,官园,细颗粒物(PM2.5),249,278,183,199,131,7,,11,11,93,57,4,4,1.2,0.8
2024-04-12T0800,1007A,116.2878,39.9611,北京市,海淀万柳,细颗粒物(PM2.5),218,226,169,168,119,19,,22,22,77,53,4,4,1.1,0.9
2024-04-12T0800,1008A,116.6636,40.135,北京市,顺义新城,细颗粒物(PM2.5),169,164,172,128,126,36,,52,52,40,36,1,2,0.8,0.7
2024-04-12T0800,1009A,116.6275,40.3275,北京市,怀柔镇,细颗粒物(PM2.5),170,168,132,129,102,42,,68,68,31,27,2,1,0.8,0.5
2024-04-12T0800,1010A,116.2296,40.217,北京市,昌平镇,细颗粒物(PM2.5),206,225,143,156,100,8,,14,14,73,49,3,2,1.0,0.7
2024-04-12T0800,1011A,116.3966,39.9821,北京市,奥体中心,细颗粒物(PM2.5),236,246,176,186,138,5,,2,2,93,69,2,3,1.0,0.8
2024-04-12T0800,1012A,116.184,39.9136,北京市,古城,细颗粒物(PM2.5),230,,159,180,108,22,,5,5,68,58,1,1,1.2,1
2024-04-12T0800,3281A,115.9718,40.4529,北京市,延庆夏都,细颗粒物(PM2.5),183,185,120,138,86,63,,92,92,36,20,1,2,0.9,0.6
2024-04-12T0800,3417A,117.0709,40.1465,北京市,平谷新城,细颗粒物(PM2.5),140,147,167,107,122,52,,98,98,45,39,1,2,0.7,0.7
2024-04-12T0800,3418A,116.8336,40.4095,北京市,密云新城,细颗粒物(PM2.5),169,175,148,128,101,23,,49,49,26,26,3,2,0.7,0.5
2024-04-12T0800,3671A,116.088,39.9726,北京市,门头沟三家店,,,,,,,,,,,,,,,,
2024-04-12T0800,3672A,116.1541,39.8204,北京市,丰台云岗,细颗粒物(PM2.5),229,260,160,179,113,35,,44,44,47,43,2,1,1.0,0.8
2024-04-12T0800,3673A,116.6804,39.9081,北京市,通州东关,细颗粒物(PM2.5),176,180,202,133,141,11,,26,26,52,46,1,2,0.9,0.8
2024-04-12T0800,3674A,115.9577,39.7603,北京市,房山燕山,细颗粒物(PM2.5),173,177,117,131,95,28,,41,41,42,31,3,2,0.8,0.7
2024-04-12T0800,3675A,116.4672,39.7733,北京市,大兴旧宫,细颗粒物(PM2.5),110,106,144,83,109,9,,8,8,64,43,1,2,0.8,0.7
2024-04-12T0800,3694A,115.986,40.4563,北京市,延庆石河营,细颗粒物(PM2.5),190,186,112,143,85,62,,80,80,34,22,3,2,0.8,0.6
2024-04-12T0800,3695A,116.6151,40.3053,北京市,怀柔新城,细颗粒物(PM2.5),172,166,134,130,105,54,,75,75,17,23,3,2,0.8,0.6
2024-04-12T0800,3696A,116.2545,39.8768,北京市,丰台小屯,细颗粒物(PM2.5),261,284,179,211,122,30,,6,6,61,62,3,2,1.1,0.7
2024-04-12T0800,3697A,116.84,40.3844,北京市,密云镇,细颗粒物(PM2.5),172,169,142,130,104,4,,4,4,51,44,3,3,0.9,0.7
2024-04-12T0800,1761A,123.8275,41.3064,本溪市,大峪,颗粒物(PM10),52,54,45,24,25,117,,109,109,18,9,9,8,0.6,0.5
2024-04-12T0800,1762A,123.7567,41.3325,本溪市,溪湖,颗粒物(PM10),51,52,50,30,28,115,,116,116,16,12,14,12,0.9,0.6
2024-04-12T0800,1763A,123.7169,41.3094,本溪市,彩屯,颗粒物(PM10),57,63,57,38,34,76,,69,69,45,40,32,28,2.8,2.6
2024-04-12T0800,1764A,123.7669,41.2864,本溪市,东明,,40,40,37,26,28,118,,118,118,12,9,6,6,0.5,0.5
2024-04-12T0800,1765A,123.7992,41.2664,本溪市,新立屯,,42,34,34,24,28,134,,133,133,10,7,11,11,0.3,0.3
2024-04-12T0800,1766A,123.8142,41.3472,本溪市,威宁,颗粒物(PM10),51,52,43,26,25,119,,104,104,17,17,10,10,0.7,0.6
2024-04-12T0800,2587A,105.2864,27.3125,毕节市,八中,,35,34,21,24,16,34,,62,62,20,10,5,6,0.8,0.6
2024-04-12T0800,2588A,105.31,27.2944,毕节市,师专,,33,28,22,23,18,47,,64,64,12,10,7,7,0.6,0.5
2024-04-12T0800,3537A,105.3631,27.3533,毕节市,长征村,,49,45,35,34,26,45,,59,59,13,9,8,7,0.5,0.5
2024-04-12T0800,1629A,118.0018,37.3617,滨州市,第二水厂,颗粒物(PM10),79,107,96,56,46,80,,68,68,44,34,17,12,1.1,0.9
2024-04-12T0800,1630A,117.9776,37.393,滨州市,北中新校,颗粒物(PM10),81,112,98,53,50,87,,80,80,37,30,20,15,1.1,0.9
2024-04-12T0800,3514A,117.9378,37.3956,滨州市,中海酒店,细颗粒物(PM2.5),79,85,96,58,48,91,,106,106,34,24,20,17,0.9,0.9
2024-04-12T0800,3515A,117.9378,37.3553,滨州市,开发区一中,颗粒物(PM10),81,112,101,51,45,84,,87,87,52,37,19,14,0.9,0.8
2024-04-12T0800,3516A,118.0917,37.694,滨州市,金海六路,细颗粒物(PM2.5),104,129,101,78,49,55,,50,50,46,33,31,14,1.0,0.7
2024-04-12T0800,4028A,117.9956,37.3753,滨州市,滨州市西街道办事处,细颗粒物(PM2.5),83,107,95,61,50,80,,77,77,39,27,20,15,1.0,0.8
2024-04-12T0800,2311A,115.8072,33.8399,亳州市,污水处理厂,颗粒物(PM10),75,99,61,46,35,66,,71,71,27,16,12,12,0.6,0.6
2024-04-12T0800,2312A,115.7789,33.8518,亳州市,三国揽胜宫,,,62,56,46,31,,,73,73,21,14,,8,0.7,0.6
2024-04-12T0800,3332A,115.7633,33.8034,亳州市,亳州学院,"颗粒物(PM10),细颗粒物(PM2.5)",83,115,71,61,36,71,,83,83,18,11,11,10,0.6,0.6
2024-04-12T0800,2693A,82.0485,44.8556,博尔塔拉蒙古自治州,市党校,,14,14,18,8,8,35,,52,52,7,6,9,7,0.2,0.2
2024-04-12T0800,2694A,82.0806,44.8969,博尔塔拉蒙古自治州,市环保局,,36,36,37,12,12,18,,34,34,19,15,7,7,0.3,0.3
2024-04-12T0800,1071A,116.8842,38.2991,沧州市,沧县城建局,颗粒物(PM10),63,75,104,41,59,58,,70,70,19,22,3,4,0.6,0.7
2024-04-12T0800,1072A,116.8584,38.3254,沧州市,电视转播站,细颗粒物(PM2.5),83,84,109,61,66,56,,70,70,14,18,7,9,0.4,0.4
2024-04-12T0800,1073A,116.8709,38.3228,沧州市,市环保局,细颗粒物(PM2.5),73,,90,53,70,58,,74,74,18,21,4,6,0.5,0.5
2024-04-12T0800,3324A,116.8136,38.3004,沧州市,河北水利电力学院,细颗粒物(PM2.5),62,66,96,44,51,55,,62,62,16,21,9,10,0.4,0.5
2024-04-12T0800,2622A,97.1806,31.1273,昌都市,昌都监测站,,20,19,16,14,12,55,,71,71,18,10,8,8,0.9,0.7
2024-04-12T0800,3719A,97.1714,31.1406,昌都市,昌都会议中心,,21,,10,12,11,65,,82,82,16,6,8,8,0.5,0.4
2024-04-12T0800,2690A,88.1236,43.8886,昌吉回族自治州,天山天池,,,6,9,,5,64,,52,52,5,5,2,4,0.5,0.5
2024-04-12T0800,2692A,87.2717,44.0297,昌吉回族自治州,新区政务中心,颗粒物(PM10),52,53,35,31,17,6,,25,25,50,32,4,6,0.7,0.6
2024-04-12T0800,3613A,87.3095,44.0142,昌吉回族自治州,亚心广场,颗粒物(PM10),54,58,41,12,10,12,,35,35,51,36,6,8,1.2,1.1
2024-04-12T0800,1119A,125.3325,43.9166,长春市,食品厂,颗粒物(PM10),62,74,72,29,48,109,,110,110,19,18,8,10,0.5,0.6
2024-04-12T0800,1120A,125.2863,43.9027,长春市,客车厂,颗粒物(PM10),56,62,67,36,46,109,,106,106,16,16,6,7,0.5,0.5
2024-04-12T0800,1121A,125.2841,43.8463,长春市,邮电学院,颗粒物(PM10),61,71,75,35,49,107,,106,106,19,15,9,12,0.5,0.5
2024-04-12T0800,1122A,125.3716,43.8772,长春市,劳动公园,颗粒物(PM10),58,66,73,30,49,119,,119,119,16,15,6,7,0.4,0.5
2024-04-12T0800,1123A,125.3297,43.8805,长春市,园林处,颗粒物(PM10),53,55,61,26,40,106,,108,108,19,15,8,9,0.3,0.3
2024-04-12T0800,1124A,125.4605,43.79,长春市,净月潭,,48,48,58,25,42,119,,107,107,6,8,8,9,0.4,0.4
2024-04-12T0800,1125A,125.7194,43.515,长春市,甩湾子,,,,,,,,,,,,,,,,
2024-04-12T0800,1126A,125.3863,43.8447,长春市,经开区环卫处,颗粒物(PM10),55,60,69,28,46,114,,109,109,14,15,6,8,0.5,0.6
2024-04-12T0800,1127A,125.245,43.7783,长春市,高新区管委会,颗粒物(PM10),56,62,63,39,42,105,,98,98,20,13,10,10,0.6,0.5
2024-04-12T0800,1128A,125.1761,43.8325,长春市,岱山公园,颗粒物(PM10),62,73,68,39,51,103,,95,95,22,18,8,9,0.5,0.5
2024-04-12T0800,1335A,113.0833,28.2325,长沙市,经开区环保局,细颗粒物(PM2.5),55,,46,39,40,34,,27,27,14,22,5,6,0.5,0.6
2024-04-12T0800,1336A,112.8872,28.2189,长沙市,高开区环保局,,50,39,63,35,41,42,,37,37,15,22,4,5,0.8,0.8
2024-04-12T0800,1337A,113.0792,28.2053,长沙市,马坡岭,细颗粒物(PM2.5),57,52,51,40,41,34,,23,23,5,17,6,7,0.6,0.6
2024-04-12T0800,1338A,112.9394,28.19,长沙市,湖南师范大学,颗粒物(PM10),53,56,58,29,33,34,,33,33,11,20,4,5,0.8,0.9
2024-04-12T0800,1339A,113.0178,28.1322,长沙市,雨花区环保局,,48,47,53,33,34,19,,21,21,23,31,4,5,1.0,1
2024-04-12T0800,1340A,112.9792,28.2597,长沙市,伍家岭,细颗粒物(PM2.5),59,49,58,42,44,15,,18,18,20,29,4,5,0.9,1
2024-04-12T0800,1341A,113.0014,28.1944,长沙市,火车新站,细颗粒物(PM2.5),58,,54,41,35,21,,26,26,22,30,2,3,0.8,0.8
2024-04-12T0800,1342A,112.9844,28.1178,长沙市,天心区环保局,细颗粒物(PM2.5),73,53,61,53,44,22,,13,13,27,39,1,2,0.3,0.5
2024-04-12T0800,1343A,112.8908,28.1308,长沙市,湖南中医药大学,细颗粒物(PM2.5),70,59,60,51,50,24,,21,21,18,28,4,4,1.0,1
2024-04-12T0800,1344A,112.9581,28.3611,长沙市,沙坪,,,,44,,23,,,51,,,12,,6,,0.6
2024-04-12T0800,1727A,113.1147,36.1547,长治市,清华站,颗粒物(PM10),67,83,63,46,32,63,,83,83,35,23,9,10,1.0,0.8
2024-04-12T0800,1728A,113.1031,36.1989,长治市,监测站,,,,99,,68,,,58,,,42,,16,,1.1
2024-04-12T0800,1730A,113.0886,36.2125,长治市,审计局,细颗粒物(PM2.5),110,98,58,83,38,48,,93,93,43,22,14,14,0.7,0.5
2024-04-12T0800,1731A,113.0844,36.1856,长治市,长治八中,颗粒物(PM10),93,136,76,46,32,36,,95,95,70,30,10,8,0.9,0.6
2024-04-12T0800,2845A,113.1569,36.1911,长治市,德盛苑,细颗粒物(PM2.5),52,50,53,36,32,107,,128,128,22,20,11,11,0.8,0.7
2024-04-12T0800,3568A,113.06,36.0464,长治市,向阳小学,细颗粒物(PM2.5),104,108,79,78,45,74,,98,98,31,19,15,14,0.9,0.7
2024-04-12T0800,3569A,112.8792,36.3144,长治市,屯留一中,颗粒物(PM10),57,63,65,35,36,58,,54,54,34,25,8,9,0.7,0.7
2024-04-12T0800,3570A,113.235,36.3489,长治市,潞城四中,细颗粒物(PM2.5),99,116,81,74,42,46,,47,47,46,30,9,8,1.4,0.4
2024-04-12T0800,1854A,111.6975,28.9703,常德市,市二中,,19,19,36,13,22,41,,41,41,9,14,6,6,0.7,0.7
2024-04-12T0800,1857A,111.7158,29.1456,常德市,白鹤山,细颗粒物(PM2.5),58,46,56,41,53,43,,41,41,6,6,6,5,0.8,0.8
2024-04-12T0800,3138A,111.7153,29.0289,常德市,武陵区永安,,25,22,32,17,24,47,,48,48,10,13,6,7,0.6,0.6
2024-04-12T0800,3139A,111.6892,28.9881,常德市,鼎城区玉霞,,20,20,34,13,22,42,,38,38,12,17,8,8,0.7,0.7
2024-04-12T0800,3140A,111.6625,29.0531,常德市,武陵区长庚,,33,,35,23,29,48,,39,39,8,16,7,8,0.7,0.7
2024-04-12T0800,1196A,119.9633,31.762,常州市,市监测站,颗粒物(PM10),80,109,96,37,35,9,,40,40,63,45,8,10,0.7,0.6
2024-04-12T0800,1200A,119.9468,31.7069,常州市,武进监测站,颗粒物(PM10),80,109,88,36,35,17,,46,46,46,32,19,18,0.9,0.8
2024-04-12T0800,1201A,119.9255,31.9087,常州市,安家,颗粒物(PM10),78,105,98,42,42,4,,6,6,58,60,10,10,1.3,1
2024-04-12T0800,3002A,119.9805,31.8174,常州市,行政中心,颗粒物(PM10),69,87,84,35,40,6,,33,33,53,45,15,16,0.6,0.7
2024-04-12T0800,3003A,120.0522,31.7748,常州市,经开区,颗粒物(PM10),64,77,96,33,37,4,,28,28,68,50,6,8,0.7,0.7
2024-04-12T0800,3010A,119.9025,31.7964,常州市,钟楼,颗粒物(PM10),65,79,86,40,37,8,,47,47,58,39,8,10,0.9,0.8
2024-04-12T0800,3429A,119.8598,31.7066,常州市,武进经发区,颗粒物(PM10),61,72,76,31,33,16,,47,47,46,39,8,10,1.0,0.9
2024-04-12T0800,3430A,119.5826,31.7245,常州市,金坛城区,细颗粒物(PM2.5),54,55,76,38,31,27,,62,62,44,26,7,8,0.8,0.6
2024-04-12T0800,2220A,120.4318,41.5881,朝阳市,西梁,细颗粒物(PM2.5),138,142,123,105,95,103,,133,133,30,21,25,20,1.0,1.1
2024-04-12T0800,2221A,120.4521,41.5646,朝阳市,河畔小区,细颗粒物(PM2.5),115,135,132,87,102,119,,138,138,22,17,17,15,1.0,1.1
2024-04-12T0800,2222A,120.4176,41.5648,朝阳市,八里堡,细颗粒物(PM2.5),134,146,136,102,89,95,,125,125,32,22,23,20,1.1,1.3
2024-04-12T0800,2223A,120.3806,41.5969,朝阳市,农业园区,,,,88,,60,,,110,,,16,,13,,0.9
2024-04-12T0800,1705A,116.6367,23.6719,潮州市,西园路,,49,49,67,31,37,25,,43,43,20,22,5,11,0.5,0.4
2024-04-12T0800,3026A,116.6183,23.6608,潮州市,市政府,细颗粒物(PM2.5),57,51,76,40,41,36,,68,68,27,25,7,14,1.0,0.8
2024-04-12T0800,4036A,116.6461,23.6761,潮州市,金山,细颗粒物(PM2.5),54,48,59,38,46,12,,30,30,25,22,6,10,0.8,0.7
2024-04-12T0800,2472A,113.0073,25.9061,郴州市,马头岭,,48,48,44,21,16,18,,23,23,20,21,5,12,0.9,0.9
2024-04-12T0800,2473A,113.0116,25.8226,郴州市,市职中,细颗粒物(PM2.5),55,45,39,39,33,12,,16,16,20,17,6,9,1.1,1
2024-04-12T0800,2474A,113.0161,25.8001,郴州市,兴隆步行街,细颗粒物(PM2.5),57,51,51,40,34,9,,14,14,24,22,4,9,1.2,1
2024-04-12T0800,2475A,113.0383,25.8071,郴州市,市审计局,,46,42,39,32,29,7,,13,13,25,21,7,8,1.0,0.8
2024-04-12T0800,2476A,113.0348,25.7759,郴州市,市环保局,细颗粒物(PM2.5),68,56,44,49,35,5,,9,9,31,24,6,8,1.0,0.9
2024-04-12T0800,1431A,103.9728,30.7236,成都市,金泉两河,,26,26,31,2,12,1,,30,30,25,15,1,1,0.9,0.7
2024-04-12T0800,1432A,104.176,30.6872,成都市,十里店,,34,34,31,14,14,3,,42,42,63,26,2,1,0.8,0.6
2024-04-12T0800,1433A,104.079,30.5706,成都市,三瓦窑,,34,34,31,22,19,7,,23,23,64,28,2,3,0.7,0.4
2024-04-12T0800,1434A,104.1114,30.63,成都市,沙河铺,,30,30,36,13,20,2,,27,27,37,23,4,2,0.6,0.5
2024-04-12T0800,1437A,104.0786,30.6531,成都市,君平街,,46,46,35,11,15,32,,52,52,36,22,4,4,0.6,0.4
2024-04-12T0800,1438A,103.613,31.0283,成都市,灵岩寺,,44,44,38,21,24,79,,103,103,17,15,24,7,0.8,0.6
2024-04-12T0800,2880A,104.0239,30.65639,成都市,大石西路,,39,39,35,9,18,17,,46,46,32,20,2,3,0.6,0.5
2024-04-12T0800,3136A,104.2725,30.5589,成都市,龙泉驿区区政府,,27,27,19,14,13,49,,69,69,12,6,2,2,0.5,0.4
2024-04-12T0800,3357A,104.0106,30.6931,成都市,金博路,,43,43,31,15,17,0,,44,44,49,16,2,2,0.9,0.6
2024-04-12T0800,3359A,104.0578,30.5225,成都市,华阳,,32,29,28,22,22,4,,30,30,39,17,3,2,0.6,0.4
2024-04-12T0800,3487A,104.2394,30.5319,成都市,车城东七路,,43,40,29,30,21,26,,61,61,40,12,4,3,0.7,0.5
2024-04-12T0800,3488A,104.3853,30.7453,成都市,青白江技师分院,,23,23,20,12,11,35,,53,53,37,17,2,3,0.7,0.6
2024-04-12T0800,3489A,104.0789,30.4072,成都市,科学城,,40,35,27,28,20,19,,47,47,29,12,4,4,0.7,0.5
2024-04-12T0800,4011A,103.8506,30.6947,成都市,光华大道三段,细颗粒物(PM2.5),64,59,44,46,29,2,,26,26,36,25,1,2,1.0,0.7
2024-04-12T0800,1062A,117.9531,40.9081,承德市,铁路,细颗粒物(PM2.5),113,164,91,85,51,33,,45,45,67,32,8,10,0.8,0.6
2024-04-12T0800,1063A,117.9392,40.9763,承德市,中国银行,颗粒物(PM10),123,196,88,80,43,54,,51,51,51,29,9,10,0.7,0.6
2024-04-12T0800,1064A,117.9503,40.928,承德市,开发区,颗粒物(PM10),108,165,98,78,53,46,,60,60,64,33,8,8,0.8,0.6
2024-04-12T0800,1065A,117.8051,40.9655,承德市,文化中心,细颗粒物(PM2.5),137,216,111,104,56,39,,57,57,79,32,8,16,0.8,0.6
2024-04-12T0800,1066A,117.9268,41.0026,承德市,离宫,细颗粒物(PM2.5),127,163,92,96,48,79,,81,81,31,17,4,5,0.6,0.5
2024-04-12T0800,2314A,117.47,30.6618,池州市,池州学院,,39,35,47,27,34,57,,70,70,18,17,4,11,1.1,0.7
2024-04-12T0800,3237A,117.4918,30.6617,池州市,展览馆,,38,38,54,22,28,53,,65,65,14,17,3,6,1.3,0.7
2024-04-12T0800,3333A,117.5627,30.695,池州市,第八中学,,43,39,54,30,36,36,,57,57,17,18,3,4,1.5,1.2
2024-04-12T0800,3334A,117.5038,30.6243,池州市,第十二中学,,43,41,56,30,33,29,,50,50,29,21,3,5,1.5,1
2024-04-12T0800,1744A,118.9233,42.2816,赤峰市,松山一中,细颗粒物(PM2.5),98,123,72,73,27,135,,148,148,24,18,13,10,0.8,0.5
2024-04-12T0800,1745A,118.9576,42.2728,赤峰市,哈达街,细颗粒物(PM2.5),93,122,82,69,33,120,,134,134,27,21,14,11,0.9,0.6
2024-04-12T0800,1746A,118.8788,42.2554,赤峰市,天义路,"颗粒物(PM10),细颗粒物(PM2.5)",80,109,60,59,25,133,,141,141,21,13,7,6,0.7,0.5
2024-04-12T0800,3058A,119.2658,42.0353,赤峰市,银河街,细颗粒物(PM2.5),127,159,97,96,44,104,,111,111,34,20,21,20,1.1,0.8
2024-04-12T0800,3286A,118.9359,42.3147,赤峰市,桥北物流园区,细颗粒物(PM2.5),140,146,86,107,51,132,,142,142,25,16,11,9,1.0,0.9
2024-04-12T0800,2521A,107.3476,22.4136,崇左市,市环保局江州分局,细颗粒物(PM2.5),53,50,50,37,36,17,,30,30,14,8,8,8,0.6,0.7
2024-04-12T0800,2522A,107.3702,22.3707,崇左市,城南新区,,50,50,49,32,36,12,,31,31,19,10,6,7,0.6,0.6
2024-04-12T0800,2298A,118.3093,32.3153,滁州市,老年大学,细颗粒物(PM2.5),98,92,83,73,54,9,,26,26,48,32,10,10,1.0,0.8
2024-04-12T0800,2299A,118.3244,32.2786,滁州市,人大宾馆,细颗粒物(PM2.5),112,,77,84,59,13,,26,26,44,34,7,8,1.1,0.9
2024-04-12T0800,3207A,118.3118,32.3038,滁州市,市政府原办公楼,细颗粒物(PM2.5),102,79,83,76,61,14,,28,28,47,33,9,8,1.0,0.8
2024-04-12T0800,3331A,118.3267,32.2634,滁州市,图书馆,细颗粒物(PM2.5),107,,76,80,55,12,,28,28,39,28,9,10,1.1,0.9
2024-04-12T0800,2605A,101.5482,25.0441,楚雄彝族自治州,州环境监测站,细颗粒物(PM2.5),93,,65,69,56,54,,51,51,37,25,7,7,0.9,0.8
2024-04-12T0800,2606A,101.538,25.0492,楚雄彝族自治州,市经济开发区,细颗粒物(PM2.5),77,72,66,56,49,52,,59,59,35,23,6,6,0.8,0.7
2024-04-12T0800,2548A,107.5277,31.2827,达州市,达州职业技术学院,,25,25,31,8,8,10,,7,7,15,18,4,5,0.7,0.7
2024-04-12T0800,2549A,107.5086,31.2186,达州市,市环境监测站,,25,25,27,12,11,5,,4,4,21,24,5,5,0.6,0.5
2024-04-12T0800,2550A,107.4988,31.2132,达州市,凤凰小区,,19,19,27,9,13,10,,6,6,20,25,5,6,0.7,0.7
2024-04-12T0800,2551A,107.5082,31.1986,达州市,达县机关宾馆,,26,19,25,18,14,10,,5,5,19,27,3,3,0.6,0.5
2024-04-12T0800,2552A,107.4644,31.2124,达州市,市政中心,,36,36,35,14,14,7,,5,5,23,28,4,5,0.8,0.7
2024-04-12T0800,2614A,100.1542,25.7054,大理白族自治州,大理市环境监测站,颗粒物(PM10),58,66,69,36,34,118,,101,101,10,17,8,7,0.7,0.6
2024-04-12T0800,2615A,100.2171,25.5811,大理白族自治州,大理古城,细颗粒物(PM2.5),72,,53,52,43,78,,115,115,32,14,6,6,0.7,0.6
2024-04-12T0800,1109A,121.612,38.9741,大连市,甘井子,颗粒物(PM10),55,59,75,26,33,62,,76,76,36,34,4,4,0.5,0.6
2024-04-12T0800,1110A,121.565,38.9511,大连市,周水子,颗粒物(PM10),53,56,69,25,34,49,,82,82,40,29,6,5,0.6,0.6
2024-04-12T0800,1111A,121.5637,38.8845,大连市,星海三站,颗粒物(PM10),51,52,61,26,33,66,,81,81,27,23,4,5,0.4,0.5
2024-04-12T0800,1112A,121.6302,38.9117,大连市,青泥洼桥,,50,50,67,25,34,64,,78,78,31,19,9,9,0.7,0.7
2024-04-12T0800,1113A,121.6251,38.8638,大连市,傅家庄,颗粒物(PM10),51,51,71,23,30,79,,84,84,16,19,9,8,0.4,0.4
2024-04-12T0800,1114A,121.5213,38.8661,大连市,七贤岭,颗粒物(PM10),59,68,80,24,31,61,,67,67,24,26,10,10,0.4,0.5
2024-04-12T0800,1115A,121.2529,38.8061,大连市,旅顺,,38,38,58,19,32,84,,98,98,27,24,8,9,0.6,0.7
2024-04-12T0800,1116A,121.7485,39.1311,大连市,金州,颗粒物(PM10),53,56,60,35,34,64,,98,98,25,19,8,9,0.7,0.7
2024-04-12T0800,1117A,121.7811,39.0496,大连市,开发区,颗粒物(PM10),56,62,64,32,31,38,,62,62,49,34,7,6,0.3,0.4
2024-04-12T0800,1118A,121.9762,39.0631,大连市,双D港,,32,32,46,21,24,54,,45,45,26,23,11,7,0.7,0.7
2024-04-12T0800,1789A,124.81117,46.03138,大庆市,大同区,细颗粒物(PM2.5),84,107,165,62,104,91,,81,81,19,21,10,10,0.5,0.7
2024-04-12T0800,1790A,125.129,46.533,大庆市,龙凤区,细颗粒物(PM2.5),68,69,139,49,103,74,,75,75,21,24,10,12,0.5,0.8
2024-04-12T0800,1791A,124.902,46.408,大庆市,红岗区,颗粒物(PM10),69,88,131,44,75,75,,72,72,14,21,8,9,0.8,1
2024-04-12T0800,1792A,125.153,46.586,大庆市,萨尔图区,细颗粒物(PM2.5),73,87,160,53,95,74,,73,73,20,24,8,11,0.4,0.6
2024-04-12T0800,1793A,124.9042,46.6215,大庆市,让胡路区,细颗粒物(PM2.5),72,79,120,52,66,69,,80,80,17,18,10,11,0.6,0.8
2024-04-12T0800,3481A,125.141,46.634,大庆市,萨区政府监测点,"颗粒物(PM10),细颗粒物(PM2.5)",67,84,152,48,93,82,,82,82,17,20,9,11,0.5,0.7
2024-04-12T0800,1721A,113.3819,40.1097,大同市,果树场,,,,,,,,,,,,,,,,
2024-04-12T0800,1723A,113.2994,40.0758,大同市,云冈宾馆,颗粒物(PM10),91,131,77,48,28,29,,41,41,61,32,17,12,1.0,0.5
2024-04-12T0800,1724A,113.3444,40.0917,大同市,大同大学,颗粒物(PM10),83,116,73,35,27,49,,48,48,50,28,30,20,0.9,0.5
2024-04-12T0800,1725A,113.2661,40.1269,大同市,安家小村,颗粒物(PM10),68,86,80,25,24,83,,59,59,24,20,26,21,0.8,0.6
2024-04-12T0800,1726A,113.2711,40.0844,大同市,教育学院,颗粒物(PM10),102,153,86,45,27,31,,35,35,76,38,22,16,1.0,0.6
2024-04-12T0800,3282A,113.3397,40.0597,大同市,大同市卫生学校,颗粒物(PM10),84,118,80,47,29,25,,57,57,60,31,15,13,0.9,0.5
2024-04-12T0800,3565A,113.1367,40.1122,大同市,云冈站,颗粒物(PM10),62,74,58,26,20,47,,32,32,37,21,35,19,0.5,1.8
2024-04-12T0800,3566A,113.1186,40.2556,大同市,图书馆,颗粒物(PM10),63,76,55,31,22,49,,67,67,33,15,56,18,0.7,0.5
2024-04-12T0800,3567A,113.5931,40.0461,大同市,区一中,颗粒物(PM10),95,139,74,57,27,57,,72,72,44,22,28,13,1.0,0.6
2024-04-12T0800,3676A,113.2802,40.0995,大同市,第二人民医院,颗粒物(PM10),94,138,85,31,26,65,,50,50,48,29,22,15,0.8,0.5
2024-04-12T0800,2269A,124.1069,50.4097,大兴安岭地区,科技局,细颗粒物(PM2.5),103,98,37,77,22,64,,66,66,22,10,7,6,0.7,0.4
2024-04-12T0800,3663A,124.1164,50.4278,大兴安岭地区,红旗社区,细颗粒物(PM2.5),109,117,30,82,22,79,,59,59,15,10,11,8,0.9,0.6
2024-04-12T0800,1600A,124.3303,40.0625,丹东市,江湾东路,,42,42,37,25,18,86,,94,94,19,12,17,14,0.6,0.4
2024-04-12T0800,1601A,124.4256,40.1503,丹东市,临江后街,,41,41,34,23,13,96,,83,83,10,8,17,14,0.8,0.8
2024-04-12T0800,1602A,124.3933,40.1461,丹东市,元宝山,,44,44,32,22,14,85,,84,84,21,13,18,10,0.7,0.4
2024-04-12T0800,1603A,124.3633,40.1092,丹东市,民主桥,,38,38,35,22,13,78,,84,84,15,8,17,12,0.8,0.7
2024-04-12T0800,3541A,109.5726,19.5167,儋州市,第一中学子站,,25,25,26,15,15,46,,53,53,5,3,4,4,0.6,0.6
2024-04-12T0800,3542A,109.5567,19.5187,儋州市,东坡学校子站,,30,30,25,17,14,37,,48,48,9,4,10,8,0.7,0.7
2024-04-12T0800,2616A,98.5842,24.428,德宏傣族景颇族自治州,德宏州监测站,细颗粒物(PM2.5),110,,86,83,60,38,,54,54,37,29,14,10,0.8,0.8
2024-04-12T0800,3677A,98.5881,24.4368,德宏傣族景颇族自治州,芒市人民政府综合楼,细颗粒物(PM2.5),79,75,79,58,60,69,,76,76,20,20,9,7,0.8,0.8
2024-04-12T0800,1901A,104.4239,31.1208,德阳市,东山公园,,37,37,30,22,17,44,,45,45,11,15,2,2,0.5,0.5
2024-04-12T0800,1902A,104.3826,31.1317,德阳市,西小区,,46,46,45,27,27,10,,9,9,39,32,2,4,0.9,0.6
2024-04-12T0800,1904A,104.3553,31.1091,德阳市,耐火材料厂,颗粒物(PM10),58,65,48,31,28,5,,5,5,39,25,6,4,0.8,0.6
2024-04-12T0800,3639A,104.4019,31.1244,德阳市,市教育局,,39,39,34,23,20,11,,10,10,42,27,3,2,0.8,0.6
2024-04-12T0800,1622A,116.3032,37.4674,德州市,儿童乐园,细颗粒物(PM2.5),79,90,98,58,49,67,,72,72,20,17,9,11,0.8,0.8
2024-04-12T0800,1624A,116.2991,37.4451,德州市,监理站,细颗粒物(PM2.5),89,88,91,66,55,72,,80,80,22,17,12,14,0.7,0.6
2024-04-12T0800,3066A,116.2721,37.4379,德州市,九衢泉纯净水厂,颗粒物(PM10),74,97,95,48,43,64,,73,73,26,17,9,9,0.8,0.7
2024-04-12T0800,3371A,116.3728,37.4403,德州市,开发区人民医院,细颗粒物(PM2.5),73,88,94,53,41,61,,69,69,15,12,11,11,0.7,0.6
2024-04-12T0800,3372A,116.3572,37.4094,德州市,太阳城中学,细颗粒物(PM2.5),85,92,88,63,48,58,,65,65,16,13,9,10,0.9,0.6
2024-04-12T0800,3511A,116.5652,37.3319,德州市,陵城艺术中心,"颗粒物(PM10),细颗粒物(PM2.5)",67,83,82,48,40,72,,66,66,19,19,9,9,1.0,0.8
2024-04-12T0800,2621A,99.7056,27.8317,迪庆藏族自治州,迪庆州站,,40,40,35,21,21,42,,55,55,18,14,6,6,0.4,0.3
2024-04-12T0800,3180A,99.7136,27.8094,迪庆藏族自治州,质量技术监督局,,30,30,30,19,16,45,,60,60,23,14,6,6,0.6,0.5
2024-04-12T0800,2663A,104.6241,35.5734,定西市,东关小学,颗粒物(PM10),58,65,53,29,23,54,,61,61,25,15,3,2,0.4,0.3
2024-04-12T0800,2664A,104.6194,35.5934,定西市,供电公司,颗粒物(PM10),59,68,42,29,26,38,,43,43,39,22,4,3,0.4,0.2
2024-04-12T0800,1389A,113.7547,23.0494,东莞市,莞城梨川,颗粒物(PM10),76,102,63,45,31,26,,36,36,42,30,9,8,0.8,0.8
2024-04-12T0800,1390A,113.7944,23.0128,东莞市,东城石井,颗粒物(PM10),64,77,54,44,32,11,,16,16,45,30,8,7,0.8,0.7
2024-04-12T0800,1391A,113.7383,22.9658,东莞市,南城西平,"颗粒物(PM10),细颗粒物(PM2.5)",57,63,57,40,32,40,,43,43,30,28,4,4,0.7,0.7
2024-04-12T0800,3319A,113.7338,23.0381,东莞市,万江金泰,细颗粒物(PM2.5),64,75,56,46,33,25,,32,32,40,30,8,8,0.7,0.7
2024-04-12T0800,3626A,113.7533,23.0202,东莞市,南城元岭,细颗粒物(PM2.5),59,66,61,42,31,19,,25,25,46,33,8,8,0.9,0.8
2024-04-12T0800,3627A,113.7875,23.0457,东莞市,东城主山,细颗粒物(PM2.5),69,66,52,50,31,20,,32,32,44,30,9,9,0.8,0.8
2024-04-12T0800,1666A,118.6614,37.4309,东营市,市环保局,颗粒物(PM10),68,85,87,44,39,74,,73,73,33,27,34,18,0.9,0.6
2024-04-12T0800,3036A,118.6904,37.4338,东营市,开发区管委会,"颗粒物(PM10),细颗粒物(PM2.5)",64,78,88,46,41,76,,81,81,31,29,28,16,1.0,0.8
2024-04-12T0800,3365A,118.5719,37.565,东营市,垦利区民丰路,颗粒物(PM10),65,80,90,41,39,68,,78,78,48,38,23,15,1.1,0.9
2024-04-12T0800,3498A,118.5055,37.8612,东营市,河口城区,细颗粒物(PM2.5),79,105,108,58,61,69,,60,60,32,25,17,11,1.1,1
2024-04-12T0800,3646A,118.4978,37.4623,东营市,胜利站,细颗粒物(PM2.5),58,61,84,41,39,65,,72,72,41,35,16,14,0.9,0.9
2024-04-12T0800,3734A,118.35,37.26,东营市,理想之城,颗粒物(PM10),70,90,91,39,40,56,,59,59,38,31,13,14,1.0,0.9
2024-04-12T0800,1591A,110.0023,39.8129,鄂尔多斯市,综合楼,颗粒物(PM10),86,122,68,36,17,89,,86,86,28,20,5,5,0.5,0.5
2024-04-12T0800,1592A,109.9486,39.8261,鄂尔多斯市,巴音孟克林场办事处,颗粒物(PM10),79,107,67,31,20,79,,77,77,32,21,9,7,0.5,0.5
2024-04-12T0800,1593A,109.7736,39.5986,鄂尔多斯市,康泽苑,颗粒物(PM10),74,97,54,34,19,62,,80,80,21,14,4,6,0.5,0.5
2024-04-12T0800,1594A,109.8119,39.5989,鄂尔多斯市,华泰汽车城,颗粒物(PM10),71,92,48,34,20,24,,47,47,45,23,7,9,0.5,0.4
2024-04-12T0800,1595A,109.9734,39.7884,鄂尔多斯市,奥林花园,颗粒物(PM10),103,156,67,48,20,45,,45,45,66,31,8,6,0.6,0.5
2024-04-12T0800,2436A,114.8938,30.3994,鄂州市,市政府,颗粒物(PM10),74,97,71,50,37,16,,13,13,42,34,9,10,1.1,1
2024-04-12T0800,2437A,114.8989,30.3714,鄂州市,赵家坝,细颗粒物(PM2.5),83,76,67,61,49,20,,17,17,27,24,9,9,1.2,1
2024-04-12T0800,3654A,114.8094,30.4089,鄂州市,精准医疗中心,颗粒物(PM10),71,91,77,43,40,38,,28,28,21,31,7,8,1.0,0.9
2024-04-12T0800,2454A,109.4978,30.2981,恩施土家族苗族自治州,湖北民院,,39,38,51,27,28,2,,0,0,20,30,6,6,0.8,0.7
2024-04-12T0800,2455A,109.4707,30.2798,恩施土家族苗族自治州,州电力总公司,,27,27,35,18,23,6,,5,5,20,28,6,6,0.8,0.8
2024-04-12T0800,3549A,109.5061,30.3772,恩施土家族苗族自治州,龙凤新区,,23,23,27,12,17,8,,5,5,13,16,7,7,0.9,0.8
2024-04-12T0800,2499A,108.3411,21.6158,防城港市,沙万,颗粒物(PM10),53,55,55,21,24,49,,51,51,17,25,13,8,0.7,0.8
2024-04-12T0800,2500A,108.3514,21.7731,防城港市,防城档案局,,49,49,50,22,28,48,,50,50,19,19,3,5,0.6,0.7
2024-04-12T0800,2501A,108.3506,21.6414,防城港市,大海花园,,37,37,47,16,22,60,,60,60,13,20,4,8,0.6,0.7
2024-04-12T0800,1371A,113.1294,23.0067,佛山市,湾梁,,48,48,58,21,24,57,,65,65,22,25,6,7,0.6,0.6
2024-04-12T0800,1372A,113.1083,23.0478,佛山市,华材职中,颗粒物(PM10),51,51,58,30,29,58,,64,64,26,29,5,6,0.5,0.5
2024-04-12T0800,1373A,113.144,23.0453,佛山市,南海气象局,,42,35,51,29,31,53,,58,58,22,28,7,7,0.6,0.6
2024-04-12T0800,1374A,113.2881,22.8094,佛山市,顺德苏岗,,45,44,48,31,27,66,,66,66,19,24,5,5,1.0,0.8
2024-04-12T0800,1376A,112.8383,22.8678,佛山市,高明孔堂,,35,34,47,24,27,63,,63,63,9,15,7,8,0.5,0.6
2024-04-12T0800,1377A,112.8836,23.1588,佛山市,三水监测站,颗粒物(PM10),64,78,70,28,33,7,,19,19,56,54,9,7,0.8,0.7
2024-04-12T0800,1378A,112.867,23.185,佛山市,三水云东海,细颗粒物(PM2.5),57,54,62,40,42,33,,34,34,43,41,9,6,0.6,0.6
2024-04-12T0800,3625A,113.2544,22.7642,佛山市,容桂街道办,,41,41,51,24,26,59,,62,62,21,26,6,7,0.8,0.7
2024-04-12T0800,1280A,119.3903,26.0543,福州市,鼓山,,,,,,,,,,,,,,,,
2024-04-12T0800,1282A,119.2681,26.0504,福州市,师大,颗粒物(PM10),57,64,65,38,35,32,,37,37,28,21,4,5,0.6,0.5
2024-04-12T0800,1283A,119.2984,26.1028,福州市,五四北路,颗粒物(PM10),51,52,53,35,33,45,,47,47,19,19,4,4,0.3,0.3
2024-04-12T0800,1284A,119.2648,26.0768,福州市,杨桥西路,颗粒物(PM10),53,56,57,34,30,37,,43,43,26,19,4,4,0.5,0.5
2024-04-12T0800,1285A,119.317,26.0746,福州市,紫阳,颗粒物(PM10),55,59,58,36,32,38,,42,42,23,23,4,4,0.5,0.5
2024-04-12T0800,3048A,119.5799,26.0936,福州市,九龙,颗粒物(PM10),59,67,50,38,28,33,,35,35,30,19,4,5,0.5,0.5
2024-04-12T0800,3526A,119.5189,25.9664,福州市,吴航,颗粒物(PM10),59,68,63,39,34,29,,23,23,26,24,4,6,0.5,0.5
2024-04-12T0800,1755A,123.7977,41.8491,抚顺市,望花区,,46,46,55,30,36,132,,122,122,10,12,12,19,0.6,0.5
2024-04-12T0800,1756A,123.9161,41.8822,抚顺市,顺城区,颗粒物(PM10),56,62,59,32,35,135,,144,144,23,12,8,8,0.6,0.6
2024-04-12T0800,1757A,124.0436,41.8611,抚顺市,东洲区,,50,50,52,32,32,132,,127,127,8,7,6,7,0.5,0.5
2024-04-12T0800,1758A,123.9247,41.8642,抚顺市,新抚区,,42,42,50,23,26,134,,140,140,18,11,12,11,0.6,0.8
2024-04-12T0800,1759A,124.0972,41.8961,抚顺市,大伙房水库,,46,35,49,25,27,147,,144,144,7,6,6,6,0.5,0.5
2024-04-12T0800,1760A,123.7086,41.8391,抚顺市,沈抚新城,,45,45,47,30,27,121,,124,124,16,9,10,9,0.9,0.6
2024-04-12T0800,2376A,116.2127,28.0814,抚州市,桐源党溪,,42,42,44,29,24,46,,50,50,6,6,5,7,0.4,0.2
2024-04-12T0800,2377A,116.3544,27.9831,抚州市,市站,,42,42,42,29,26,46,,53,53,13,14,4,5,0.8,0.7
2024-04-12T0800,2378A,116.3565,27.963,抚州市,血防站,,44,44,43,29,26,48,,60,60,17,16,4,3,1.0,0.8
2024-04-12T0800,2379A,116.3564,28.0007,抚州市,采茶剧团,,42,41,41,29,26,46,,54,54,11,15,2,5,0.7,0.7
2024-04-12T0800,2380A,116.385,27.9647,抚州市,医学分院,颗粒物(PM10),51,51,44,25,22,45,,52,52,12,17,11,9,0.9,0.8
2024-04-12T0800,2207A,121.6094,41.998,阜新市,工业园区,颗粒物(PM10),63,75,94,35,39,103,,107,107,22,19,12,14,1.0,1
2024-04-12T0800,2208A,121.6697,42.0279,阜新市,长青街,细颗粒物(PM2.5),92,116,109,68,67,106,,111,111,23,22,14,13,0.8,0.8
2024-04-12T0800,2209A,121.6673,42.0705,阜新市,农业园区,颗粒物(PM10),86,121,121,61,58,99,,105,105,22,19,11,11,0.7,0.7
2024-04-12T0800,2210A,121.6717,42.0224,阜新市,东苑,细颗粒物(PM2.5),94,79,92,70,63,98,,107,107,19,18,19,15,0.8,0.8
2024-04-12T0800,2211A,121.6506,42.0498,阜新市,玉龙新城,颗粒物(PM10),65,80,90,34,35,96,,102,102,22,17,14,13,0.7,0.8
2024-04-12T0800,2301A,115.8277,32.8929,阜阳市,市监测站,颗粒物(PM10),61,71,68,41,37,93,,88,88,20,20,8,9,0.6,0.5
2024-04-12T0800,2303A,115.8554,32.8605,阜阳市,开发区,细颗粒物(PM2.5),63,60,63,45,39,104,,100,100,19,18,5,6,0.5,0.4
2024-04-12T0800,2875A,115.784,32.8892,阜阳市,阜阳职业技术学院,颗粒物(PM10),71,91,72,42,33,96,,95,95,20,21,6,7,0.8,0.5
2024-04-12T0800,3468A,115.7901,32.8613,阜阳市,市规划展馆,细颗粒物(PM2.5),75,63,62,55,42,86,,92,92,18,17,6,7,0.6,0.5
2024-04-12T0800,3469A,115.836,32.9183,阜阳市,枣园社区,细颗粒物(PM2.5),92,,57,68,43,80,,64,64,27,27,6,7,0.6,0.5
2024-04-12T0800,2669A,102.9099,34.9841,甘南藏族自治州,州政府,颗粒物(PM10),62,73,49,31,23,11,,5,5,33,32,15,14,1.0,0.6
2024-04-12T0800,3380A,102.8914,34.9617,甘南藏族自治州,甘肃民族师范学院,颗粒物(PM10),56,61,51,28,17,8,,8,8,42,34,13,12,0.8,0.3
2024-04-12T0800,2570A,101.9603,30.0475,甘孜藏族自治州,水桥子,,29,29,22,9,11,15,,24,24,42,34,3,2,0.4,0.3
2024-04-12T0800,3065A,101.9533,29.9972,甘孜藏族自治州,州环保局,,24,24,21,9,6,61,,62,62,15,22,1,2,0.2,0.2
2024-04-12T0800,3414A,115.8347,28.932,赣江新区,桑海产业园,,30,24,32,21,21,26,,30,30,30,29,6,7,0.5,0.5
2024-04-12T0800,2362A,114.9017,25.9149,赣州市,通天岩,,,,,,,,,,,,,,,,
2024-04-12T0800,2363A,114.9367,25.8664,赣州市,地委,"颗粒物(PM10),细颗粒物(PM2.5)",64,78,60,46,33,19,,12,12,45,32,8,11,1.1,1.1
2024-04-12T0800,2364A,114.9461,25.8481,赣州市,气象台,细颗粒物(PM2.5),63,71,54,45,35,11,,15,15,40,24,16,12,0.9,0.8
2024-04-12T0800,2365A,114.9322,25.8333,赣州市,市图书馆,颗粒物(PM10),61,71,56,43,35,20,,31,31,24,18,40,18,1.1,1
2024-04-12T0800,2366A,114.8905,25.8471,赣州市,华坚鞋城,细颗粒物(PM2.5),67,72,59,48,35,17,,22,22,28,18,22,19,0.8,0.8
2024-04-12T0800,3109A,115.0093,25.8613,赣州市,赣县区卫计委,颗粒物(PM10),54,58,56,37,36,20,,13,13,31,30,11,11,0.9,0.8
2024-04-12T0800,2683A,106.2319,36.1417,固原市,马园,,39,39,44,21,16,18,,20,20,57,36,6,5,0.7,0.6
2024-04-12T0800,2684A,106.2792,36.0022,固原市,监测站,,32,32,30,12,14,57,,61,61,28,19,5,5,0.4,0.3
2024-04-12T0800,2685A,106.2375,36.0211,固原市,新区,颗粒物(PM10),57,63,43,18,15,36,,44,44,37,24,4,5,0.6,0.3
2024-04-12T0800,3522A,106.2177,35.9959,固原市,原州区十五小,,36,36,29,15,14,94,,110,110,24,10,8,8,0.4,0.2
2024-04-12T0800,2543A,106.6308,30.5278,广安市,小平旧居,,,,,,,,,,,,,,,,
2024-04-12T0800,2544A,106.6303,30.4576,广安市,市委,,38,38,36,8,21,17,,16,16,16,18,3,5,0.9,0.8
2024-04-12T0800,2545A,106.6271,30.4663,广安市,友谊中学,,19,17,32,13,21,17,,19,19,16,18,5,5,0.8,0.7
2024-04-12T0800,2547A,106.6388,30.4551,广安市,广电花园,,25,25,32,8,21,17,,15,15,14,17,5,6,0.8,0.8
2024-04-12T0800,2902A,106.6351,30.4865,广安市,北辰小学,,32,32,35,16,20,16,,22,22,15,13,5,5,0.8,0.7
2024-04-12T0800,2523A,105.8945,32.4535,广元市,黑石坡,,18,17,17,12,9,37,,57,57,14,9,10,8,0.6,0.4
2024-04-12T0800,2524A,105.821,32.4444,广元市,老城,,33,33,41,17,12,14,,31,31,30,15,13,10,1.2,0.8
2024-04-12T0800,2526A,105.8628,32.4287,广元市,监测站,,38,34,21,26,15,16,,30,30,25,12,8,7,0.8,0.5
2024-04-12T0800,3617A,105.8047,32.4166,广元市,经开区,,39,39,29,20,17,17,,28,28,26,15,10,7,0.9,0.6
2024-04-12T0800,1345A,113.2347,23.1423,广州市,广雅中学,,49,49,55,28,33,49,,50,50,36,42,7,7,0.9,0.9
2024-04-12T0800,1346A,113.2612,23.105,广州市,市五中,,48,48,59,30,37,44,,47,47,37,36,10,9,0.7,0.7
2024-04-12T0800,1348A,113.3478,23.0916,广州市,广东商学院,颗粒物(PM10),52,54,55,29,32,18,,7,7,47,46,4,5,0.7,0.7
2024-04-12T0800,1349A,113.4332,23.1047,广州市,市八十六中,颗粒物(PM10),51,52,53,26,25,14,,15,15,57,54,7,7,0.7,0.7
2024-04-12T0800,1350A,113.3505,22.9483,广州市,番禺中学,颗粒物(PM10),52,53,53,27,28,38,,35,35,41,39,4,4,0.7,0.7
2024-04-12T0800,1351A,113.2146,23.3916,广州市,花都师范,颗粒物(PM10),59,68,70,30,34,20,,16,16,53,50,6,7,0.7,0.7
2024-04-12T0800,1352A,113.2597,23.1331,广州市,市监测站,,46,46,55,28,30,46,,46,46,35,38,8,7,0.6,0.7
2024-04-12T0800,1353A,113.5618,23.312,广州市,九龙镇镇龙,颗粒物(PM10),57,64,72,33,37,8,,11,11,41,45,6,6,0.7,0.7
2024-04-12T0800,1354A,113.2765,23.1544,广州市,麓湖,,46,46,57,30,33,56,,39,39,22,32,7,6,0.7,0.7
2024-04-12T0800,1355A,113.443,23.3035,广州市,帽峰山森林公园,,47,47,54,25,29,24,,24,24,45,29,6,6,0.6,0.6
2024-04-12T0800,2846A,113.3221,23.1322,广州市,体育西,颗粒物(PM10),54,58,59,30,32,20,,8,8,40,37,9,8,0.8,0.8
2024-04-12T0800,3298A,113.5717,23.5491,广州市,从化街口,细颗粒物(PM2.5),62,66,68,44,43,10,,18,18,38,32,5,6,1.0,0.8
2024-04-12T0800,3299A,113.3472,23.3692,广州市,白云竹料,颗粒物(PM10),60,69,69,40,35,12,,19,19,46,43,7,7,1.0,0.9
2024-04-12T0800,3300A,113.2981,23.237,广州市,白云嘉禾,颗粒物(PM10),63,76,67,42,35,21,,10,10,56,54,5,5,0.8,0.8
2024-04-12T0800,3301A,113.4256,23.1716,广州市,黄埔科学城,颗粒物(PM10),69,87,73,43,37,23,,20,20,41,43,7,8,0.8,0.8
2024-04-12T0800,3302A,113.3942,23.0483,广州市,番禺大学城,颗粒物(PM10),57,63,59,27,28,30,,24,24,38,38,5,5,0.7,0.6
2024-04-12T0800,3303A,113.4922,22.8168,广州市,南沙黄阁,,45,45,50,31,27,30,,51,51,46,30,6,6,0.8,0.7
2024-04-12T0800,3304A,113.5342,22.7896,广州市,南沙街,,40,36,43,28,25,50,,54,54,27,25,7,7,0.6,0.6
2024-04-12T0800,3443A,113.2902,23.5544,广州市,花都梯面,细颗粒物(PM2.5),62,72,65,44,40,13,,4,4,39,36,7,7,0.9,0.8
2024-04-12T0800,3445A,113.7858,23.7478,广州市,从化良口,,43,43,42,29,28,16,,28,28,16,16,4,4,0.6,0.6
2024-04-12T0800,3446A,113.8051,23.2614,广州市,增城荔城,细颗粒物(PM2.5),67,74,60,48,35,13,,16,16,43,28,8,6,0.8,0.7
2024-04-12T0800,2505A,109.568,23.1478,贵港市,德智高中,,35,28,50,24,32,38,,26,26,20,37,6,6,0.7,0.8
2024-04-12T0800,2506A,109.6047,23.0666,贵港市,江南子站,颗粒物(PM10),53,56,59,34,36,6,,12,12,32,27,8,8,1.0,0.9
2024-04-12T0800,2507A,109.6014,23.0948,贵港市,贵城子站,细颗粒物(PM2.5),54,49,62,38,40,18,,18,18,24,24,8,8,0.8,0.9
2024-04-12T0800,2508A,109.5669,23.1065,贵港市,荷城子站,,42,36,47,29,33,18,,20,20,22,21,8,9,0.7,0.9
2024-04-12T0800,3405A,109.5886,23.1172,贵港市,新世纪学校,,46,44,47,32,32,18,,19,19,28,27,8,9,0.9,1
2024-04-12T0800,1439A,106.6899,26.5998,贵阳市,马鞍山,,14,14,26,5,11,8,,14,14,9,15,6,6,0.6,0.7
2024-04-12T0800,1440A,106.6971,26.5694,贵阳市,市环保站,,28,,29,19,25,17,,26,26,16,18,3,3,0.5,0.6
2024-04-12T0800,1441A,106.6243,26.6266,贵阳市,鉴湖路,,35,29,41,24,26,13,,23,23,15,17,4,3,0.7,0.6
2024-04-12T0800,1442A,106.7487,26.6343,贵阳市,燕子冲,,31,31,23,12,16,14,,20,20,15,14,9,5,0.6,0.7
2024-04-12T0800,1443A,106.6555,26.4365,贵阳市,碧云窝,,39,39,39,19,21,11,,17,17,14,15,4,5,0.6,0.6
2024-04-12T0800,1444A,106.694,26.5161,贵阳市,中院村,,27,27,32,17,19,11,,18,18,13,13,7,7,0.6,0.6
2024-04-12T0800,1445A,106.7109,26.6027,贵阳市,红边门,,31,31,33,19,25,13,,22,22,16,14,4,5,0.5,0.6
2024-04-12T0800,1446A,106.7164,26.5699,贵阳市,新华路,,25,22,29,17,22,23,,29,29,12,15,1,2,0.5,0.6
2024-04-12T0800,1447A,106.674,26.5424,贵阳市,太慈桥,,22,22,28,9,18,14,,21,21,15,16,5,6,0.5,0.5
2024-04-12T0800,1552A,106.805,26.3003,贵阳市,桐木岭,,,,,,,,,,,,,,,,
2024-04-12T0800,1862A,110.4144,25.3167,桂林市,电子科大尧山校区,,43,43,40,25,27,36,,37,37,9,10,5,12,1.0,0.9
2024-04-12T0800,1863A,110.2819,25.2697,桂林市,监测站,细颗粒物(PM2.5),72,69,69,52,52,4,,3,3,26,30,12,17,1.3,1.2
2024-04-12T0800,1864A,110.3089,25.2708,桂林市,龙隐路小学,细颗粒物(PM2.5),55,49,46,39,40,5,,4,4,19,25,5,9,1.0,1
2024-04-12T0800,1865A,110.2869,25.2178,桂林市,八中,颗粒物(PM10),59,67,62,41,42,3,,2,2,16,23,6,10,1.1,1
2024-04-12T0800,3403A,110.1764,25.2381,桂林市,创业大厦,细颗粒物(PM2.5),62,48,46,44,40,2,,2,2,23,24,9,12,0.9,0.9
2024-04-12T0800,3531A,110.296,25.1253,桂林市,旅游学院,,49,39,52,34,43,1,,0,0,18,23,7,8,0.8,0.8
2024-04-12T0800,2674A,100.2561,34.4714,果洛藏族自治州,玛沁县大武镇,,22,22,26,15,17,58,,62,62,14,15,17,12,0.4,0.4
2024-04-12T0800,1129A,126.5422,45.755,哈尔滨市,岭北,细颗粒物(PM2.5),63,64,129,45,97,116,,93,93,18,30,13,17,0.8,0.9
2024-04-12T0800,1130A,126.561,45.8167,哈尔滨市,松北商大,"颗粒物(PM10),细颗粒物(PM2.5)",60,70,121,43,88,111,,94,94,12,19,6,8,0.6,0.8
2024-04-12T0800,1131A,126.979,45.5419,哈尔滨市,阿城会宁,细颗粒物(PM2.5),59,66,106,42,73,119,,98,98,9,14,9,12,0.5,0.6
2024-04-12T0800,1132A,126.599,45.7222,哈尔滨市,南岗学府路,颗粒物(PM10),66,81,131,35,73,88,,79,79,23,26,9,9,0.7,0.8
2024-04-12T0800,1133A,126.689,45.7733,哈尔滨市,太平宏伟公园,颗粒物(PM10),64,77,125,39,85,105,,85,85,17,25,7,8,0.4,0.6
2024-04-12T0800,1134A,126.635,45.7667,哈尔滨市,道外承德广场,细颗粒物(PM2.5),72,82,134,52,92,98,,85,85,29,30,20,15,0.2,0.5
2024-04-12T0800,1135A,126.685,45.7319,哈尔滨市,香坊红旗大街,颗粒物(PM10),66,82,124,44,88,96,,80,80,24,29,9,10,0.6,0.7
2024-04-12T0800,1136A,126.6411,45.7258,哈尔滨市,动力和平路,颗粒物(PM10),63,76,121,34,73,103,,87,87,18,24,9,10,0.6,0.8
2024-04-12T0800,1137A,126.593,45.7478,哈尔滨市,道里建国路,细颗粒物(PM2.5),79,74,132,58,102,98,,88,88,22,23,17,17,1.7,1.7
2024-04-12T0800,1138A,126.615,45.61,哈尔滨市,平房东轻厂,颗粒物(PM10),58,65,117,38,72,96,,80,80,12,16,7,9,0.4,0.6
2024-04-12T0800,1139A,126.595,45.9855,哈尔滨市,呼兰师专,细颗粒物(PM2.5),65,73,147,47,104,94,,82,82,24,28,12,13,0.7,0.8
2024-04-12T0800,1140A,126.6206,45.6842,哈尔滨市,省农科院,细颗粒物(PM2.5),70,78,134,51,90,96,,76,76,20,30,8,9,0.6,0.8
2024-04-12T0800,2688A,93.5128,42.8172,哈密市,地区监测站,颗粒物(PM10),51,52,47,20,17,27,,39,39,49,23,3,4,0.3,0.3
2024-04-12T0800,2689A,93.4961,42.8328,哈密市,哈密师范学校,颗粒物(PM10),71,92,49,21,17,20,,29,29,48,25,5,5,0.7,0.5
2024-04-12T0800,2671A,100.9048,36.9639,海北藏族自治州,海晏县西海镇,,31,31,36,15,14,36,,48,48,14,9,12,12,0.4,0.4
2024-04-12T0800,3867A,102.0738,36.5056,海东市,平安区公安北苑,颗粒物(PM10),56,62,42,25,16,36,,48,48,23,16,12,10,0.6,0.5
2024-04-12T0800,1409A,110.576,19.9507,海口市,东寨港,,,,,,,,,,,,,,,,
2024-04-12T0800,1410A,110.3232,20.0574,海口市,海南大学,,34,34,43,20,20,63,,66,66,8,7,5,5,0.5,0.4
2024-04-12T0800,1411A,110.283,20.0053,海口市,秀英海南医院,,32,32,39,20,20,58,,64,64,12,10,5,5,0.4,0.4
2024-04-12T0800,1412A,110.338,19.9969,海口市,海南师范大学,,32,32,38,19,20,67,,66,66,7,6,5,5,0.5,0.5
2024-04-12T0800,1413A,110.33,20.0356,海口市,龙华路环保局宿舍,,32,32,40,20,20,58,,65,65,11,9,6,6,0.4,0.4
2024-04-12T0800,3539A,110.5111,19.9736,海口市,桂林洋子站,,35,35,40,16,18,48,,53,53,6,5,5,5,0.4,0.4
2024-04-12T0800,2673A,100.6188,36.2866,海南藏族自治州,共和县恰卜恰镇,,35,35,32,13,16,48,,57,57,26,18,13,12,0.6,0.6
2024-04-12T0800,2676A,97.3731,37.3753,海西蒙古族藏族自治州,德令哈市,,31,31,38,7,11,93,,80,80,11,12,12,13,0.5,0.5
2024-04-12T0800,1048A,114.5302,36.6116,邯郸市,东污水处理厂,细颗粒物(PM2.5),89,,75,66,57,44,,54,54,20,20,7,9,0.5,0.5
2024-04-12T0800,1049A,114.4918,36.5713,邯郸市,矿院,细颗粒物(PM2.5),67,59,93,48,51,42,,51,51,14,16,7,8,0.7,0.7
2024-04-12T0800,1050A,114.484,36.6133,邯郸市,丛台公园,细颗粒物(PM2.5),73,61,78,53,49,41,,50,50,16,15,5,6,0.6,0.6
2024-04-12T0800,3458A,114.7895,36.5593,邯郸市,香泉濮院小区,颗粒物(PM10),61,71,72,41,41,53,,62,62,16,16,6,7,0.4,0.3
2024-04-12T0800,3579A,114.50634,36.77178,邯郸市,永年区实验高中,细颗粒物(PM2.5),73,92,101,53,57,52,,62,62,22,20,10,8,0.8,0.4
2024-04-12T0800,3580A,114.20016,36.44293,邯郸市,峰峰矿区临水派出所,颗粒物(PM10),69,88,98,37,44,52,,60,60,18,13,16,13,1.6,1.4
2024-04-12T0800,2634A,106.9893,33.1842,汉中市,汉川机床厂子校,,12,10,20,8,13,28,,32,32,10,10,4,4,0.3,0.3
2024-04-12T0800,2635A,107.0154,33.0706,汉中市,市监测站,,32,30,35,22,19,22,,28,28,24,21,8,8,0.9,0.8
2024-04-12T0800,2636A,107.0089,33.1138,汉中市,鑫源开发区,,26,26,36,15,18,29,,32,32,19,21,8,10,0.7,0.6
2024-04-12T0800,2637A,107.007,33.0323,汉中市,南郑大河坎水厂,,30,30,32,21,21,14,,19,19,12,15,7,7,0.6,0.6
2024-04-12T0800,1223A,120.2072,30.2111,杭州市,滨江,颗粒物(PM10),61,72,86,39,37,15,,45,45,37,36,4,6,0.6,0.6
2024-04-12T0800,1224A,120.0633,30.2747,杭州市,西溪,细颗粒物(PM2.5),72,75,66,52,41,9,,22,22,34,33,6,6,0.8,0.7
2024-04-12T0800,1226A,120.3461,30.3153,杭州市,下沙,"颗粒物(PM10),细颗粒物(PM2.5)",63,76,84,45,38,8,,8,8,53,53,6,7,0.7,0.7
2024-04-12T0800,1227A,120.1269,30.2456,杭州市,卧龙桥,细颗粒物(PM2.5),69,58,58,50,41,22,,35,35,18,28,4,5,0.7,0.7
2024-04-12T0800,1228A,120.1903,30.2692,杭州市,浙江农大,细颗粒物(PM2.5),74,76,71,54,40,27,,36,36,29,36,4,6,0.8,0.7
2024-04-12T0800,1230A,120.1197,30.3119,杭州市,和睦小学,颗粒物(PM10),98,145,107,58,44,19,,38,38,39,35,6,8,0.8,0.7
2024-04-12T0800,1231A,120.3019,30.4183,杭州市,临平镇,细颗粒物(PM2.5),84,99,92,62,49,19,,15,15,36,37,4,6,0.7,0.6
2024-04-12T0800,1232A,120.2697,30.1819,杭州市,城厢镇,细颗粒物(PM2.5),77,70,79,56,47,22,,19,19,30,39,5,6,1.0,0.9
2024-04-12T0800,1233A,120.0883,30.1808,杭州市,云栖,颗粒物(PM10),55,60,65,38,34,12,,24,24,25,32,6,6,0.7,0.7
2024-04-12T0800,3557A,119.9464,30.0494,杭州市,镇二中,细颗粒物(PM2.5),59,66,67,42,41,20,,22,22,48,47,6,7,1.1,1
2024-04-12T0800,3558A,119.7183,30.2367,杭州市,市府大楼,细颗粒物(PM2.5),67,68,78,48,48,46,,49,49,27,34,5,6,0.8,0.7
2024-04-12T0800,3656A,120.1556,30.2864,杭州市,消防大队,细颗粒物(PM2.5),82,90,76,60,45,28,,38,38,47,45,7,8,0.9,0.8
2024-04-12T0800,1270A,117.1959,31.7848,合肥市,明珠广场,细颗粒物(PM2.5),89,107,90,66,53,18,,31,31,76,54,9,5,0.9,0.8
2024-04-12T0800,1271A,117.3072,31.8764,合肥市,三里街,颗粒物(PM10),65,80,102,46,54,66,,32,32,44,59,5,7,0.8,0.8
2024-04-12T0800,1272A,117.2588,31.8707,合肥市,琥珀山庄,颗粒物(PM10),65,80,94,44,41,75,,22,22,32,50,4,5,0.7,0.8
2024-04-12T0800,1273A,117.1604,31.9052,合肥市,董铺水库,细颗粒物(PM2.5),73,85,91,53,42,34,,27,27,23,31,1,2,0.5,0.5
2024-04-12T0800,1274A,117.25,31.8571,合肥市,长江中路,颗粒物(PM10),74,97,96,49,52,78,,21,21,25,49,4,6,1.0,1
2024-04-12T0800,1275A,117.266,31.9436,合肥市,庐阳区,颗粒物(PM10),73,95,110,51,53,50,,34,34,52,58,4,6,0.7,0.6
2024-04-12T0800,1276A,117.336,31.8586,合肥市,瑶海区,细颗粒物(PM2.5),80,97,110,59,54,74,,29,29,39,61,7,8,0.8,0.7
2024-04-12T0800,1277A,117.3027,31.7964,合肥市,包河区,细颗粒物(PM2.5),79,105,106,58,53,32,,15,15,76,66,7,10,0.6,0.5
2024-04-12T0800,1278A,117.2776,31.7385,合肥市,滨湖新区,颗粒物(PM10),76,102,81,48,42,71,,64,64,34,32,7,8,0.6,0.5
2024-04-12T0800,1279A,117.1318,31.8403,合肥市,高新区,细颗粒物(PM2.5),99,102,91,74,52,32,,30,30,61,50,7,8,0.9,0.8
2024-04-12T0800,3464A,117.3803,31.9147,合肥市,高教基地,颗粒物(PM10),62,74,84,38,37,57,,33,33,33,46,4,7,0.6,0.6
2024-04-12T0800,3614A,79.924,37.0877,和田地区,地区环保局,颗粒物(PM10),198,345,156,93,41,81,,80,80,14,11,6,6,0.5,0.6
2024-04-12T0800,3615A,79.9131,37.113,和田地区,市环保局,颗粒物(PM10),138,226,142,42,35,74,,71,71,17,32,5,6,0.5,0.6
2024-04-12T0800,2516A,108.2011,24.715,河池市,东仁乐园,颗粒物(PM10),56,61,46,28,22,5,,5,5,13,13,5,5,1.0,1
2024-04-12T0800,2517A,108.0497,24.6947,河池市,市环保站,颗粒物(PM10),59,68,51,38,29,5,,4,4,14,18,7,7,1.0,1
2024-04-12T0800,2518A,108.0983,24.6989,河池市,市疾控中心,颗粒物(PM10),73,95,45,49,28,4,,4,4,18,21,6,6,1.1,1
2024-04-12T0800,1696A,114.6778,23.7569,河源市,源西,细颗粒物(PM2.5),59,53,53,42,31,14,,8,8,28,30,4,4,1.0,0.9
2024-04-12T0800,1697A,114.6944,23.7586,河源市,东埔,细颗粒物(PM2.5),60,65,62,43,34,30,,13,13,26,28,8,7,0.7,0.7
2024-04-12T0800,1698A,114.6892,23.7233,河源市,老城,颗粒物(PM10),55,60,50,38,27,22,,10,10,23,19,8,7,0.8,0.7
2024-04-12T0800,1718A,115.4208,35.2464,菏泽市,气象局,细颗粒物(PM2.5),80,89,74,59,35,67,,74,74,24,20,8,6,0.6,0.5
2024-04-12T0800,1719A,115.4747,35.2375,菏泽市,市政协,颗粒物(PM10),63,75,55,41,35,69,,86,86,21,13,6,5,0.7,0.5
2024-04-12T0800,3374A,115.5564,35.0891,菏泽市,定陶老年大学,细颗粒物(PM2.5),79,92,62,58,32,71,,76,76,24,18,5,5,0.6,0.5
2024-04-12T0800,3647A,115.4702,35.2706,菏泽市,菏泽医专,颗粒物(PM10),67,84,56,42,27,57,,79,79,23,14,7,6,0.5,0.5
2024-04-12T0800,2514A,111.5264,24.4172,贺州市,环保小区,,39,39,70,25,37,10,,6,6,21,29,13,9,0.9,1
2024-04-12T0800,2515A,111.5608,24.4078,贺州市,政协大楼,,39,38,61,27,36,2,,1,1,18,26,9,10,1.0,1
2024-04-12T0800,3534A,111.4744,24.4553,贺州市,西湾,,42,40,58,29,37,3,,3,3,21,31,9,8,1.0,1
2024-04-12T0800,2385A,114.17,35.9019,鹤壁市,市监测站,细颗粒物(PM2.5),78,80,98,57,66,32,,37,37,29,28,8,12,0.8,0.7
2024-04-12T0800,2386A,114.2956,35.7511,鹤壁市,市交警支队,细颗粒物(PM2.5),67,68,82,48,61,34,,54,54,23,17,9,11,1.0,0.7
2024-04-12T0800,2387A,114.2878,35.7306,鹤壁市,迎宾馆,细颗粒物(PM2.5),92,,65,68,63,32,,52,52,24,19,13,13,0.5,0.5
2024-04-12T0800,3474A,114.2617,35.6822,鹤壁市,大新区,细颗粒物(PM2.5),70,62,74,51,40,28,,30,30,22,24,10,10,0.8,0.8
2024-04-12T0800,3596A,114.1572,35.9603,鹤壁市,南山宾馆,细颗粒物(PM2.5),75,98,99,55,62,22,,40,40,28,19,11,11,1.0,0.9
2024-04-12T0800,2244A,130.2537,47.3416,鹤岗市,哈啤分公司,颗粒物(PM10),79,108,100,50,52,48,,63,63,33,21,20,17,0.8,0.8
2024-04-12T0800,2245A,130.2684,47.3086,鹤岗市,斯达机电,细颗粒物(PM2.5),69,80,90,50,51,73,,85,85,25,27,12,14,0.9,0.8
2024-04-12T0800,2246A,130.3114,47.3388,鹤岗市,东山纸板厂,细颗粒物(PM2.5),64,65,112,46,58,63,,35,35,26,30,14,15,0.8,1.2
2024-04-12T0800,2247A,130.1097,47.3382,鹤岗市,五号水库,颗粒物(PM10),54,58,60,37,32,69,,47,47,17,13,11,10,0.7,0.6
2024-04-12T0800,2263A,127.4833,50.2524,黑河市,交通局,细颗粒物(PM2.5),135,155,69,103,47,77,,70,70,22,13,7,6,0.8,0.5
2024-04-12T0800,2264A,127.5144,50.2341,黑河市,环保局,细颗粒物(PM2.5),147,179,74,112,52,81,,82,82,19,12,5,4,1.0,0.6
2024-04-12T0800,2265A,127.5291,50.2472,黑河市,大黑河岛,细颗粒物(PM2.5),166,159,68,126,51,,,,,,,,,,
2024-04-12T0800,1074A,115.6838,37.7541,衡水市,电机北厂,细颗粒物(PM2.5),55,48,83,39,51,68,,76,76,6,9,4,4,0.4,0.5
2024-04-12T0800,1075A,115.6303,37.7316,衡水市,市监测站,细颗粒物(PM2.5),67,55,86,48,50,66,,74,74,15,17,6,6,0.6,0.6
2024-04-12T0800,3188A,115.6683,37.7217,衡水市,市城管局,细颗粒物(PM2.5),60,52,87,43,55,60,,67,67,12,16,3,4,0.4,0.5
2024-04-12T0800,3459A,115.5989,37.5491,衡水市,地表水厂,颗粒物(PM10),62,74,102,38,49,61,,61,61,10,14,8,7,0.4,0.5
2024-04-12T0800,2456A,112.5003,26.9167,衡阳市,原169医院,,45,45,51,31,30,15,,25,25,25,24,6,7,1.0,1
2024-04-12T0800,2457A,112.6194,26.9258,衡阳市,衡阳化工总厂,细颗粒物(PM2.5),54,40,64,38,44,21,,28,28,15,17,7,12,0.9,1
2024-04-12T0800,2458A,112.6211,26.8956,衡阳市,珠晖区环保局,细颗粒物(PM2.5),54,,61,38,40,17,,23,23,21,24,6,9,1.0,1.1
2024-04-12T0800,2459A,112.6197,26.8733,衡阳市,市委党校,,45,38,59,31,35,20,,27,27,22,22,7,10,1.0,1.1
2024-04-12T0800,2460A,112.6006,26.8919,衡阳市,市监测站,,49,49,57,28,38,21,,27,27,16,19,6,10,1.0,1.2
2024-04-12T0800,2461A,112.5664,26.9056,衡阳市,真空机电公司,,49,44,60,34,37,20,,24,24,18,21,8,12,1.1,1.1
2024-04-12T0800,3399A,112.6703,26.882,衡阳市,师范学院,颗粒物(PM10),52,53,58,29,39,17,,23,23,22,22,7,11,0.9,1
2024-04-12T0800,2608A,103.3772,23.3993,红河哈尼族彝族自治州,污水处理厂,细颗粒物(PM2.5),75,70,68,55,48,71,,81,81,19,12,11,9,0.8,0.7
2024-04-12T0800,2609A,103.3861,23.35,红河哈尼族彝族自治州,监测站,细颗粒物(PM2.5),68,70,53,49,44,90,,92,92,15,11,7,8,0.8,0.7
2024-04-12T0800,3038A,103.3758,23.368,红河哈尼族彝族自治州,州图书馆,细颗粒物(PM2.5),60,64,60,43,40,104,,96,96,12,9,5,5,0.5,0.5
2024-04-12T0800,1090A,111.6507,40.7517,呼和浩特市,呼市一监,颗粒物(PM10),73,95,95,46,33,45,,68,68,39,18,12,13,0.7,0.5
2024-04-12T0800,1091A,111.6572,40.8033,呼和浩特市,小召,颗粒物(PM10),71,92,95,32,28,39,,66,66,46,26,9,11,0.8,0.5
2024-04-12T0800,1094A,111.7516,40.8369,呼和浩特市,如意水处理厂,颗粒物(PM10),84,117,90,37,28,22,,56,56,66,26,14,13,0.6,0.4
2024-04-12T0800,1095A,111.7276,40.8062,呼和浩特市,二十九中,颗粒物(PM10),79,108,92,42,28,29,,61,61,50,23,13,13,0.6,0.5
2024-04-12T0800,1096A,111.5512,40.7866,呼和浩特市,工大金川校区,颗粒物(PM10),89,128,102,46,35,22,,49,49,66,27,10,10,0.5,0.3
2024-04-12T0800,1097A,111.717,40.7612,呼和浩特市,化肥厂生活区,颗粒物(PM10),90,130,107,45,31,26,,62,62,59,26,13,13,0.8,0.5
2024-04-12T0800,3698A,111.5968,40.8178,呼和浩特市,红旗小学,颗粒物(PM10),101,151,117,41,33,17,,52,52,71,31,14,8,0.6,0.4
2024-04-12T0800,3699A,111.6518,40.8389,呼和浩特市,海东办,颗粒物(PM10),78,105,105,37,33,43,,48,48,42,28,7,9,0.4,0.3
2024-04-12T0800,2192A,119.7594,49.2261,呼伦贝尔市,区环保局,,31,31,40,18,20,59,,56,56,11,18,4,5,0.3,0.4
2024-04-12T0800,3061A,119.7512,49.1577,呼伦贝尔市,国华电力东,,39,39,29,14,11,60,,63,63,6,7,4,4,0.3,0.3
2024-04-12T0800,1250A,120.0751,30.8669,湖州市,城西水厂,细颗粒物(PM2.5),73,71,80,53,46,16,,14,14,45,54,3,5,0.7,0.7
2024-04-12T0800,2873A,120.0875,30.8955,湖州市,仁皇山新区,细颗粒物(PM2.5),75,68,70,55,44,12,,14,14,44,44,7,8,0.7,0.7
2024-04-12T0800,2907A,120.1844,30.8596,湖州市,吴兴区站,细颗粒物(PM2.5),60,62,67,43,38,12,,17,17,38,38,4,6,0.5,0.6
2024-04-12T0800,3562A,120.4148,30.8538,湖州市,南浔区站,细颗粒物(PM2.5),52,49,57,36,34,13,,17,17,37,33,6,7,0.7,0.6
2024-04-12T0800,1607A,120.9092,40.7136,葫芦岛市,龙港区,颗粒物(PM10),60,69,85,41,54,93,,96,96,10,14,6,8,0.5,0.5
2024-04-12T0800,1608A,120.8392,40.7514,葫芦岛市,化工街,颗粒物(PM10),75,100,105,46,60,81,,97,97,24,21,10,14,0.4,0.5
2024-04-12T0800,1609A,120.8341,40.7073,葫芦岛市,新区,颗粒物(PM10),60,70,76,40,57,91,,101,101,18,17,6,8,0.7,0.6
2024-04-12T0800,1610A,120.8695,40.7677,葫芦岛市,东城区,细颗粒物(PM2.5),74,74,87,54,65,75,,97,97,37,26,7,8,0.7,0.7
2024-04-12T0800,2482A,109.5981,27.5721,怀化市,林科所,,23,23,27,14,15,27,,33,33,4,4,9,11,0.9,0.8
2024-04-12T0800,2483A,109.9453,27.5444,怀化市,河西地税局,,32,32,36,22,26,13,,22,22,19,13,8,12,0.8,0.7
2024-04-12T0800,2484A,109.9781,27.5342,怀化市,市四医院,,33,24,32,23,27,20,,26,26,12,11,8,8,0.7,0.7
2024-04-12T0800,2485A,109.9972,27.5578,怀化市,监测楼,,34,34,36,23,25,14,,20,20,15,11,9,9,0.7,0.6
2024-04-12T0800,2486A,110.0394,27.583,怀化市,市委党校,,,,34,,22,,,,,,13,,8,,0.6
2024-04-12T0800,1210A,119.036,33.5981,淮安市,钵池山,细颗粒物(PM2.5),113,,51,85,43,33,,41,41,23,20,5,7,0.7,0.7
2024-04-12T0800,1211A,119.007,33.575,淮安市,北京南路,细颗粒物(PM2.5),102,,54,76,41,30,,51,51,24,19,6,8,0.7,0.6
2024-04-12T0800,1212A,118.989,33.6067,淮安市,市监测站,细颗粒物(PM2.5),77,80,55,56,32,29,,54,54,26,19,7,9,0.7,0.6
2024-04-12T0800,1213A,119.135,33.5039,淮安市,楚州区监测站,细颗粒物(PM2.5),98,78,59,73,46,36,,48,48,23,23,6,8,0.6,0.6
2024-04-12T0800,1214A,119.0186,33.6297,淮安市,淮阴区监测站,细颗粒物(PM2.5),100,83,61,75,42,27,,48,48,31,24,4,6,0.5,0.4
2024-04-12T0800,3426A,118.8755,33.2894,淮安市,新华书店,颗粒物(PM10),63,76,62,43,40,18,,34,34,31,27,5,7,0.5,0.6
2024-04-12T0800,2282A,116.8004,33.975,淮北市,监测站,细颗粒物(PM2.5),67,67,65,48,36,87,,98,98,28,18,13,8,0.8,0.6
2024-04-12T0800,2283A,116.8091,33.9007,淮北市,烈山区政府,细颗粒物(PM2.5),117,132,81,88,51,81,,87,87,25,17,12,9,0.7,0.5
2024-04-12T0800,3330A,116.8873,33.9836,淮北市,杜集区检察院,细颗粒物(PM2.5),109,97,74,82,50,93,,110,110,21,16,8,6,1.0,0.8
2024-04-12T0800,4017A,116.7923,33.9535,淮北市,市博物馆,细颗粒物(PM2.5),62,66,62,44,35,89,,96,96,18,12,10,7,0.9,0.7
2024-04-12T0800,2277A,116.8305,32.7727,淮南市,潘集区政府,细颗粒物(PM2.5),69,79,73,50,43,66,,61,61,23,23,6,8,0.5,0.5
2024-04-12T0800,2278A,117.0067,32.6524,淮南市,师范学院,细颗粒物(PM2.5),69,85,73,50,42,71,,91,91,20,16,10,10,0.3,0.3
2024-04-12T0800,2279A,116.8569,32.5951,淮南市,谢家集区政府,颗粒物(PM10),54,57,60,30,29,81,,91,91,25,24,5,9,0.4,0.4
2024-04-12T0800,2280A,116.8281,32.633,淮南市,八公山区政府,细颗粒物(PM2.5),87,86,77,64,45,63,,77,77,18,17,1,5,0.5,0.4
2024-04-12T0800,2281A,116.6325,32.6201,淮南市,焦岗湖风景区管理处,,47,47,58,22,23,76,,74,74,17,25,2,3,0.3,0.3
2024-04-12T0800,2894A,117.0566,32.6531,淮南市,经济技术开发区消防队,细颗粒物(PM2.5),88,76,68,65,38,53,,67,67,28,28,5,5,0.6,0.5
2024-04-12T0800,3329A,117.0108,32.5893,淮南市,山南新区,颗粒物(PM10),74,98,63,42,33,79,,96,96,19,15,5,4,0.5,0.4
2024-04-12T0800,2446A,114.9028,30.4742,黄冈市,职工中心,细颗粒物(PM2.5),87,89,77,64,53,29,,26,26,21,23,6,6,0.8,0.8
2024-04-12T0800,2929A,114.8858,30.4519,黄冈市,红卫路,细颗粒物(PM2.5),99,88,65,74,50,19,,26,26,42,26,8,9,1.0,1
2024-04-12T0800,3398A,114.9136,30.4445,黄冈市,市林业局,细颗粒物(PM2.5),88,92,70,65,50,23,,23,23,34,25,3,4,0.6,0.6
2024-04-12T0800,2672A,102.0199,35.5102,黄南藏族自治州,同仁县隆务镇,,28,28,31,14,13,48,,67,67,16,6,6,4,0.7,0.5
2024-04-12T0800,2295A,118.2903,29.6963,黄山市,延安路89号,,44,44,58,1,17,52,,42,42,6,12,6,6,0.7,0.7
2024-04-12T0800,2296A,118.327,29.7178,黄山市,黄山东路89号,,29,29,40,12,18,42,,41,41,12,13,5,5,0.7,0.7
2024-04-12T0800,2297A,118.1371,30.2756,黄山市,黄山区政府5号楼,,28,28,34,18,21,24,,27,27,7,10,4,5,0.7,0.6
2024-04-12T0800,2423A,115.0601,30.2313,黄石市,沈家营,颗粒物(PM10),61,72,65,28,32,43,,23,23,23,32,15,13,0.6,0.6
2024-04-12T0800,2424A,115.0817,30.2006,黄石市,陈家湾,颗粒物(PM10),68,85,70,34,34,39,,31,31,42,24,12,13,0.8,0.8
2024-04-12T0800,2426A,114.8988,30.2019,黄石市,铁山,细颗粒物(PM2.5),75,72,69,55,44,18,,19,19,40,30,9,12,2.4,1.3
2024-04-12T0800,2427A,115.0307,30.2092,黄石市,团城山,颗粒物(PM10),60,70,57,27,22,69,,44,44,8,18,6,8,0.9,0.7
2024-04-12T0800,3149A,115.0235,30.1578,黄石市,笔架山北路,颗粒物(PM10),62,74,64,25,28,50,,41,41,15,19,4,8,1.0,0.7
2024-04-12T0800,1392A,114.4183,23.0528,惠州市,河南岸金山湖子站,细颗粒物(PM2.5),58,61,53,41,33,45,,61,61,21,16,6,6,0.7,0.7
2024-04-12T0800,1393A,114.4053,23.0822,惠州市,下埔横江三路子站,颗粒物(PM10),54,58,57,37,32,61,,74,74,19,16,8,6,0.7,0.7
2024-04-12T0800,1394A,114.4103,23.1142,惠州市,江北云山西路子站,颗粒物(PM10),55,59,57,25,27,59,,70,70,22,15,7,6,0.7,0.6
2024-04-12T0800,1395A,114.4645,22.7833,惠州市,惠阳区承修路船湖子站,,41,41,39,22,22,70,,81,81,22,17,3,4,0.7,0.6
2024-04-12T0800,1396A,114.5317,22.7422,惠州市,大亚湾管委会子站,颗粒物(PM10),53,56,49,25,23,42,,60,60,44,22,3,3,0.8,0.7
2024-04-12T0800,3314A,114.4338,22.8134,惠州市,惠阳秋长,颗粒物(PM10),54,58,44,31,22,60,,74,74,33,23,9,9,0.6,0.6
2024-04-12T0800,3452A,114.6517,22.775,惠州市,大亚湾霞涌,,41,41,33,24,17,29,,38,38,28,12,6,6,0.7,0.6
2024-04-12T0800,2240A,130.9762,45.3001,鸡西市,环保局,颗粒物(PM10),66,82,93,44,47,49,,60,60,41,19,7,7,0.6,0.5
2024-04-12T0800,2243A,130.9429,45.3039,鸡西市,第一中学,颗粒物(PM10),56,62,73,31,36,73,,85,85,18,12,10,8,0.5,0.5
2024-04-12T0800,3707A,131.0207,45.3073,鸡西市,欧美日汽修厂,细颗粒物(PM2.5),143,169,117,109,66,41,,35,35,35,24,9,7,0.2,0.2
2024-04-12T0800,3709A,130.9967,45.3106,鸡西市,市政设施管理处,细颗粒物(PM2.5),107,136,115,80,56,28,,13,13,69,37,8,6,0.9,0.7
2024-04-12T0800,2367A,114.9754,27.0803,吉安市,红声器材厂,细颗粒物(PM2.5),65,58,52,47,36,28,,19,19,22,28,12,16,0.6,0.7
2024-04-12T0800,2368A,114.9658,27.0999,吉安市,市森林工业局,细颗粒物(PM2.5),64,62,50,46,38,26,,21,21,22,28,11,15,0.9,0.8
2024-04-12T0800,2369A,114.99,27.1312,吉安市,市环境监测站,颗粒物(PM10),55,59,48,38,31,28,,22,22,20,26,12,16,1.0,0.9
2024-04-12T0800,2370A,115.0093,27.0968,吉安市,青原区法院,,,62,50,44,36,,,17,17,,28,,15,,0.7
2024-04-12T0800,1772A,126.54,43.8622,吉林市,哈达湾,颗粒物(PM10),59,68,53,37,34,136,,127,127,19,11,8,6,0.7,0.6
2024-04-12T0800,1773A,126.5844,43.8358,吉林市,东局子,颗粒物(PM10),51,52,58,31,36,122,,119,119,16,11,5,5,0.7,0.6
2024-04-12T0800,1774A,126.5052,43.8245,吉林市,电力学院,颗粒物(PM10),54,58,63,32,37,147,,133,133,12,11,10,9,0.6,0.6
2024-04-12T0800,1775A,126.6133,43.8972,吉林市,江北,颗粒物(PM10),53,56,62,28,36,130,,122,122,13,10,8,8,0.7,0.6
2024-04-12T0800,1776A,126.555,43.8306,吉林市,江南公园,细颗粒物(PM2.5),64,68,60,46,43,135,,122,122,18,12,7,7,0.7,0.6
2024-04-12T0800,1778A,126.7061,43.7133,吉林市,丰满,,,,,,,,,,,,,,,,
2024-04-12T0800,2868A,126.4739,43.953,吉林市,九站,细颗粒物(PM2.5),74,80,66,54,40,138,,125,125,9,11,8,9,0.6,0.6
2024-04-12T0800,1299A,116.9862,36.6114,济南市,科干所,颗粒物(PM10),59,68,69,34,32,128,,124,124,11,12,7,8,0.8,0.7
2024-04-12T0800,1300A,116.9376,36.665,济南市,农科所,颗粒物(PM10),66,81,81,37,31,109,,114,114,24,17,7,7,0.7,0.6
2024-04-12T0800,1301A,117.1265,36.6734,济南市,开发区,颗粒物(PM10),56,61,61,31,41,130,,135,135,18,15,7,8,0.7,0.6
2024-04-12T0800,1303A,117.0624,36.6868,济南市,省种子仓库,颗粒物(PM10),67,83,80,29,31,121,,127,127,17,10,4,5,0.5,0.5
2024-04-12T0800,1304A,116.9489,36.6447,济南市,机床二厂,颗粒物(PM10),68,85,80,34,28,110,,100,100,27,22,7,7,0.7,0.7
2024-04-12T0800,1305A,117.0495,36.663,济南市,市监测站,颗粒物(PM10),53,56,63,32,28,138,,139,139,17,17,11,11,0.7,0.6
2024-04-12T0800,1306A,116.7675,36.5484,济南市,长清党校,颗粒物(PM10),55,59,66,34,37,138,,123,123,12,13,8,8,0.7,0.7
2024-04-12T0800,1616A,117.6795,36.229,济南市,技术学院,细颗粒物(PM2.5),98,124,84,73,43,63,,91,91,46,21,13,13,1.1,0.9
2024-04-12T0800,1961A,117.532,36.6868,济南市,东山小学,颗粒物(PM10),68,85,73,39,30,129,,132,132,20,17,10,8,0.5,0.4
2024-04-12T0800,3059A,117.7161,36.2049,济南市,泰兴公司,细颗粒物(PM2.5),94,136,86,70,43,60,,62,62,45,30,15,13,1.1,1
2024-04-12T0800,3064A,117.6867,36.2171,济南市,莱芜战役纪念馆,细颗粒物(PM2.5),92,122,86,68,41,57,,78,78,49,26,12,11,1.1,0.9
2024-04-12T0800,3494A,117.1673,36.9782,济南市,济阳区政府,细颗粒物(PM2.5),80,,74,59,37,61,,88,88,62,32,9,9,0.8,0.7
2024-04-12T0800,3495A,117.1171,36.63,济南市,锦屏中学,颗粒物(PM10),53,56,62,32,29,137,,136,136,7,7,7,8,0.5,0.5
2024-04-12T0800,3682A,116.9814,36.6819,济南市,济南四建,颗粒物(PM10),59,68,69,34,30,118,,115,115,18,15,8,8,0.7,0.6
2024-04-12T0800,1653A,116.6251,35.4302,济宁市,火炬城,颗粒物(PM10),63,76,71,41,33,91,,87,87,21,14,10,9,1.0,0.8
2024-04-12T0800,1655A,116.5491,35.4042,济宁市,电化厂,颗粒物(PM10),74,97,84,34,26,89,,85,85,17,13,9,8,1.1,0.9
2024-04-12T0800,3500A,116.5814,35.3707,济宁市,北湖一中,细颗粒物(PM2.5),73,73,74,53,35,86,,82,82,20,13,8,8,1.1,1
2024-04-12T0800,3501A,116.8249,35.5593,济宁市,服务中心,颗粒物(PM10),75,99,81,39,31,79,,86,86,20,15,8,5,0.9,0.9
2024-04-12T0800,3678A,116.5907,35.4054,济宁市,市第七中学,颗粒物(PM10),66,82,71,41,30,86,,78,78,21,14,9,7,1.1,0.9
2024-04-12T0800,2255A,130.2751,46.8028,佳木斯市,佳纺,细颗粒物(PM2.5),68,66,77,49,50,99,,103,103,14,12,6,6,0.7,0.6
2024-04-12T0800,2256A,130.3995,46.8307,佳木斯市,发电厂,细颗粒物(PM2.5),78,66,81,57,53,97,,91,91,20,21,4,4,0.6,0.6
2024-04-12T0800,2257A,130.3258,46.7975,佳木斯市,环保局,细颗粒物(PM2.5),68,62,79,49,50,106,,117,117,16,15,5,5,0.7,0.6
2024-04-12T0800,2258A,130.3648,46.8032,佳木斯市,十一中,细颗粒物(PM2.5),74,62,83,54,55,88,,103,103,20,16,7,7,0.7,0.7
2024-04-12T0800,2259A,130.3794,46.7588,佳木斯市,四丰,细颗粒物(PM2.5),69,63,67,50,45,112,,111,111,10,9,1,6,0.9,0.8
2024-04-12T0800,1252A,120.7436,30.778,嘉兴市,清河小学,,47,47,49,26,20,16,,19,19,36,30,7,8,0.5,0.3
2024-04-12T0800,1253A,120.726,30.7478,嘉兴市,嘉兴学院,颗粒物(PM10),54,57,54,34,27,12,,17,17,41,31,6,8,0.5,0.4
2024-04-12T0800,2872A,120.7846,30.7525,嘉兴市,南湖区残联,细颗粒物(PM2.5),55,53,49,39,28,10,,18,18,45,31,8,8,0.6,0.5
2024-04-12T0800,3407A,120.6916,30.7739,嘉兴市,秀洲住建,,44,44,49,30,25,9,,18,18,43,33,6,7,0.6,0.6
2024-04-12T0800,1945A,98.2908,39.7711,嘉峪关市,气象局,颗粒物(PM10),107,163,176,41,45,69,,78,78,22,18,21,10,0.5,0.5
2024-04-12T0800,2884A,98.2672,39.7978,嘉峪关市,酒钢宾馆,颗粒物(PM10),106,161,183,44,48,51,,74,74,31,18,17,25,0.4,0.5
2024-04-12T0800,3248A,98.2643,39.7724,嘉峪关市,雄关区,颗粒物(PM10),90,130,139,41,45,54,,70,70,30,19,6,9,0.4,0.5
2024-04-12T0800,1383A,113.1064,22.6058,江门市,北街,,48,34,41,33,27,68,,76,76,16,17,7,7,0.6,0.5
2024-04-12T0800,1384A,113.0731,22.5835,江门市,西区,,,42,48,21,25,62,,75,75,23,18,6,7,,0.6
2024-04-12T0800,1385A,113.0219,22.5311,江门市,圭峰西,,46,45,42,32,26,24,,59,59,32,16,3,4,0.9,0.7
2024-04-12T0800,1386A,113.0828,22.5947,江门市,东湖,,45,45,51,21,25,68,,76,76,19,18,5,6,0.6,0.6
2024-04-12T0800,3311A,113.1075,22.5647,江门市,江海富民,颗粒物(PM10),63,75,65,39,27,60,,80,80,22,17,7,7,0.6,0.5
2024-04-12T0800,3449A,113.05,22.4667,江门市,新会银湖,,39,36,39,27,25,48,,62,62,18,17,4,4,0.7,0.7
2024-04-12T0800,1828A,113.227,35.2125,焦作市,市环保局,细颗粒物(PM2.5),87,105,74,64,37,16,,40,40,49,22,6,6,0.8,0.6
2024-04-12T0800,1830A,113.1992,35.2590,焦作市,影视城,,,,,,,,,,,,,,,,
2024-04-12T0800,3169A,113.2725,35.2067,焦作市,太极体育中心,颗粒物(PM10),96,142,82,61,42,22,,29,29,40,28,6,7,0.7,0.5
2024-04-12T0800,3335A,113.3137,35.2641,焦作市,马村街道办,细颗粒物(PM2.5),77,98,86,56,39,34,,42,42,29,26,14,11,0.7,0.8
2024-04-12T0800,3336A,113.2465,35.2373,焦作市,焦作技师学院,细颗粒物(PM2.5),67,71,66,48,39,38,,50,50,30,20,5,8,0.9,0.7
2024-04-12T0800,3477A,113.1656,35.2539,焦作市,中站许衡医院,细颗粒物(PM2.5),73,78,68,53,35,44,,55,55,32,19,13,11,1.0,0.7
2024-04-12T0800,3981A,113.2449,35.1803,焦作市,原李万街道办,颗粒物(PM10),69,88,79,46,32,21,,30,30,41,23,10,9,0.7,0.6
2024-04-12T0800,1708A,116.3701,23.5345,揭阳市,新兴,细颗粒物(PM2.5),74,84,66,54,45,41,,56,56,26,21,10,11,0.9,0.7
2024-04-12T0800,1709A,116.3264,23.5443,揭阳市,西马,细颗粒物(PM2.5),65,,64,47,34,20,,53,53,37,18,12,10,1.0,0.7
2024-04-12T0800,1710A,116.3611,23.5626,揭阳市,东兴,细颗粒物(PM2.5),94,107,75,70,47,27,,46,46,38,20,15,13,1.1,0.9
2024-04-12T0800,1711A,116.4151,23.5294,揭阳市,渔湖,颗粒物(PM10),71,91,70,30,31,26,,44,44,40,22,11,9,0.9,0.7
2024-04-12T0800,3320A,116.403,23.5699,揭阳市,曲溪,颗粒物(PM10),60,69,61,39,34,31,,43,43,30,21,20,10,0.8,0.8
2024-04-12T0800,1944A,102.1692,38.5167,金昌市,天庆家园,颗粒物(PM10),88,126,93,31,20,29,,44,44,47,20,11,9,1.0,0.5
2024-04-12T0800,3170A,102.1864,38.5253,金昌市,市委党校,颗粒物(PM10),86,121,121,36,37,48,,50,50,37,19,35,17,0.6,0.5
2024-04-12T0800,4022A,102.1647,38.5371,金昌市,金川区人防中心,颗粒物(PM10),96,141,117,27,25,26,,59,59,45,14,7,6,0.6,0.4
2024-04-12T0800,1262A,119.647,29.077,金华市,十五中,细颗粒物(PM2.5),77,59,62,56,39,56,,88,88,34,25,5,5,0.7,0.6
2024-04-12T0800,1263A,119.686,29.1029,金华市,监测站,细颗粒物(PM2.5),59,59,69,42,38,76,,82,82,27,25,2,3,0.6,0.5
2024-04-12T0800,3659A,119.656,29.1131,金华市,气象局,细颗粒物(PM2.5),58,61,66,41,38,54,,72,72,40,31,5,5,0.6,0.5
2024-04-12T0800,1767A,121.1115,41.0879,锦州市,南山,细颗粒物(PM2.5),85,72,102,63,88,96,,104,104,24,24,12,17,0.5,0.6
2024-04-12T0800,1768A,121.0533,40.8434,锦州市,开发区,细颗粒物(PM2.5),63,61,90,45,58,93,,93,93,24,31,9,10,0.7,0.7
2024-04-12T0800,1769A,121.1836,41.1119,锦州市,百股街道,细颗粒物(PM2.5),67,63,83,48,62,102,,104,104,20,24,10,11,0.6,0.7
2024-04-12T0800,1770A,121.1178,41.1222,锦州市,天安街道,细颗粒物(PM2.5),75,80,106,55,75,93,,103,103,25,26,13,17,0.7,0.8
2024-04-12T0800,1771A,121.1303,41.1386,锦州市,北湖公园,细颗粒物(PM2.5),79,70,91,58,75,82,,95,95,25,22,14,18,0.7,0.8
2024-04-12T0800,2160A,112.85,35.5051,晋城市,自来水公司,颗粒物(PM10),74,97,71,46,34,45,,41,41,34,28,5,7,1.1,0.9
2024-04-12T0800,2161A,112.8318,35.4936,晋城市,白云商贸,颗粒物(PM10),74,97,77,48,33,33,,37,37,37,28,6,8,1.1,0.9
2024-04-12T0800,2162A,112.8508,35.4887,晋城市,市环保局,颗粒物(PM10),80,110,82,44,32,34,,25,25,45,37,5,8,1.0,0.8
2024-04-12T0800,2163A,112.8676,35.4897,晋城市,技术学院,颗粒物(PM10),77,103,84,39,36,27,,38,38,44,26,6,8,1.0,0.9
2024-04-12T0800,2165A,112.8453,35.546,晋城市,白马寺,,,,,,,,,,,,,,,,
2024-04-12T0800,3620A,112.8271,35.4828,晋城市,泽州一中,颗粒物(PM10),73,96,79,44,33,38,,46,46,35,27,8,10,0.9,0.8
2024-04-12T0800,2171A,112.7532,37.6945,晋中市,锦纶小区,颗粒物(PM10),70,90,96,46,40,40,,52,52,33,32,11,15,0.5,0.6
2024-04-12T0800,2173A,112.7249,37.7067,晋中市,南都小区,颗粒物(PM10),69,88,88,35,35,55,,72,72,36,26,13,16,0.8,0.7
2024-04-12T0800,2174A,112.6991,37.6982,晋中市,榆次区政府,颗粒物(PM10),65,80,89,45,37,64,,76,76,31,25,13,16,0.6,0.6
2024-04-12T0800,2865A,112.7195,37.6828,晋中市,榆次三中,颗粒物(PM10),85,119,97,36,37,25,,52,52,48,32,11,16,0.8,0.7
2024-04-12T0800,2439A,112.2014,31.0481,荆门市,竹园小学,细颗粒物(PM2.5),119,112,96,90,72,19,,34,34,24,22,8,10,0.8,0.7
2024-04-12T0800,2440A,112.1969,30.9891,荆门市,掇刀,细颗粒物(PM2.5),87,109,80,64,62,30,,40,40,16,17,9,9,0.6,0.6
2024-04-12T0800,2441A,112.2213,31.0386,荆门市,石化一小,细颗粒物(PM2.5),123,112,94,93,73,22,,39,39,26,25,13,23,0.8,0.7
2024-04-12T0800,3012A,112.1849,31.0362,荆门市,西山林语,细颗粒物(PM2.5),100,102,85,75,63,24,,31,31,22,21,6,11,0.7,0.7
2024-04-12T0800,3547A,112.1632,31.0138,荆门市,龙泉中学南校,细颗粒物(PM2.5),58,63,44,41,29,33,,26,26,11,14,8,10,0.7,0.8
2024-04-12T0800,1844A,112.2494,30.3197,荆州市,市图书馆,,39,39,51,15,29,38,,40,40,10,26,6,6,1.1,1
2024-04-12T0800,1845A,112.2008,30.3544,荆州市,市委党校,,37,37,56,22,34,36,,40,40,14,26,5,6,0.8,0.8
2024-04-12T0800,3194A,112.2747,30.3122,荆州市,管委会,,32,32,52,19,39,39,,40,40,11,26,8,9,0.9,0.9
2024-04-12T0800,3548A,112.1655,30.3364,荆州市,学苑路,,23,22,43,16,51,41,,41,41,14,25,6,7,0.7,0.7
2024-04-12T0800,2342A,117.3102,29.3867,景德镇市,王港中学,,,,,,,,,,,,,,,,
2024-04-12T0800,2343A,117.2117,29.2933,景德镇市,老干部活动中心,,18,18,35,7,24,32,,39,39,14,15,4,7,0.4,0.4
2024-04-12T0800,2344A,117.1894,29.2789,景德镇市,兽医站,,16,,38,11,25,36,,46,46,5,14,8,10,0.6,0.7
2024-04-12T0800,2345A,117.1547,29.2617,景德镇市,台达陶瓷,,18,14,33,12,25,33,,43,43,19,24,15,24,0.5,0.7
2024-04-12T0800,2346A,117.2461,29.2956,景德镇市,陶研所,,16,16,34,8,21,30,,39,39,12,15,4,9,0.4,0.5
2024-04-12T0800,1803A,115.9872,29.6815,九江市,十里,,26,22,47,18,33,35,,34,34,33,32,11,11,0.9,0.8
2024-04-12T0800,1804A,115.9584,29.7046,九江市,茅山头,,48,42,42,33,33,40,,38,38,24,35,10,11,0.9,0.9
2024-04-12T0800,1805A,115.9877,29.7295,九江市,西园,,46,40,47,32,34,37,,24,24,19,34,14,14,0.9,0.8
2024-04-12T0800,1806A,116.0172,29.6547,九江市,五七二七厂,,19,,40,13,31,50,,41,41,15,17,9,10,0.9,0.9
2024-04-12T0800,1808A,115.9114,29.6038,九江市,综合工业园,细颗粒物(PM2.5),52,,42,36,31,32,,32,32,34,42,11,12,1.0,1
2024-04-12T0800,1809A,116.0721,29.7535,九江市,石化总厂,,42,42,44,23,27,46,,35,35,34,40,4,6,1.0,0.9
2024-04-12T0800,1810A,115.9773,29.5698,九江市,庐山气象台,,22,3,11,2,14,69,,68,68,6,9,7,8,0.7,0.9
2024-04-12T0800,3190A,116.0254,29.6994,九江市,外国语学校,,33,33,48,22,30,42,,32,32,32,37,13,15,1.0,0.9
2024-04-12T0800,2658A,98.5061,39.7443,酒泉市,仓门街子站,颗粒物(PM10),112,173,212,38,47,54,,56,56,22,20,14,12,0.5,0.5
2024-04-12T0800,2659A,98.4989,39.7256,酒泉市,油田生活基地,颗粒物(PM10),108,166,204,37,43,49,,62,62,26,18,14,15,0.4,0.4
2024-04-12T0800,2698A,76.0072,39.4467,喀什地区,巡警大队,颗粒物(PM10),73,96,80,14,16,28,,37,37,39,35,3,3,0.6,0.6
2024-04-12T0800,2699A,75.9755,39.4694,喀什地区,吾办,颗粒物(PM10),63,75,93,38,38,24,,20,20,36,40,3,3,0.5,0.6
2024-04-12T0800,4027A,75.9483,39.4689,喀什地区,老干局,颗粒物(PM10),69,87,100,18,24,44,,33,33,22,32,3,3,0.4,0.6
2024-04-12T0800,1824A,114.3389,34.7781,开封市,肿瘤医院,颗粒物(PM10),55,60,54,30,28,29,,39,39,21,14,2,3,0.4,0.4
2024-04-12T0800,1826A,114.2885,34.7965,开封市,世纪星幼儿园,颗粒物(PM10),51,51,51,28,24,33,,46,46,22,14,4,4,0.6,0.6
2024-04-12T0800,3147A,114.3438,34.8106,开封市,龙亭公园,,42,39,51,29,23,34,,49,49,22,13,4,4,0.5,0.5
2024-04-12T0800,3210A,114.3644,34.7964,开封市,汴京公园,细颗粒物(PM2.5),64,56,57,46,36,33,,41,41,22,16,4,4,0.6,0.6
2024-04-12T0800,3473A,114.2485,34.8306,开封市,技师学院,细颗粒物(PM2.5),88,,51,65,39,38,,56,56,14,6,7,6,0.9,0.8
2024-04-12T0800,3592A,114.4644,34.7556,开封市,祥符区生态环境局,颗粒物(PM10),52,53,53,33,30,35,,18,18,22,26,4,5,0.5,0.5
2024-04-12T0800,1951A,84.895,45.6094,克拉玛依市,长征新村,,19,8,14,1,5,58,,72,72,16,7,8,8,0.2,0.2
2024-04-12T0800,1952A,84.8988,45.5893,克拉玛依市,南林小区,,21,5,13,4,7,66,,75,75,11,7,6,6,0.2,0.2
2024-04-12T0800,1954A,84.905,44.3396,克拉玛依市,独山子区,,18,18,19,5,7,54,,66,66,9,12,7,7,0.3,0.3
2024-04-12T0800,1955A,85.6979,46.098,克拉玛依市,乌尔禾区商贸楼,,15,14,8,5,6,45,,64,64,8,3,12,11,0.3,0.2
2024-04-12T0800,3612A,85.1045,45.6899,克拉玛依市,白碱滩区新站,,24,5,10,2,8,75,,79,79,4,4,10,10,0.1,0.1
2024-04-12T0800,2697A,76.1454,39.7142,克孜勒苏柯尔克孜自治州,市人民政府,,50,50,45,14,21,79,,68,68,1,8,6,6,0.2,0.2
2024-04-12T0800,3665A,76.1658,39.7157,克孜勒苏柯尔克孜自治州,克州文化中心,,46,46,46,11,22,82,,68,68,3,13,7,8,0.2,0.3
2024-04-12T0800,1450A,102.8204,24.8886,昆明市,呈贡新区,细颗粒物(PM2.5),92,74,71,68,64,105,,98,98,19,20,10,7,1.0,0.9
2024-04-12T0800,1451A,102.6251,24.9608,昆明市,西山森林公园,,,,,,,,,,,,,,,,
2024-04-12T0800,1452A,102.7252,25.0902,昆明市,龙泉镇,细颗粒物(PM2.5),69,74,65,50,44,16,,42,42,85,36,6,7,1.1,0.9
2024-04-12T0800,1453A,102.7266,25.0375,昆明市,东风东路,细颗粒物(PM2.5),78,80,68,57,53,105,,113,113,30,19,16,9,1.0,0.9
2024-04-12T0800,1454A,102.6742,25.0669,昆明市,金鼎山,细颗粒物(PM2.5),83,77,68,61,51,90,,88,88,37,25,12,11,1.0,0.9
2024-04-12T0800,1455A,102.6644,25.0401,昆明市,碧鸡广场,细颗粒物(PM2.5),88,81,65,65,54,84,,82,82,43,25,15,11,1.1,0.8
2024-04-12T0800,3179A,102.7494,25.0119,昆明市,官渡区博物馆,细颗粒物(PM2.5),82,81,68,60,51,100,,112,112,35,19,16,12,1.1,1
2024-04-12T0800,3375A,102.8017,24.8336,昆明市,青年创业园,细颗粒物(PM2.5),93,90,77,69,61,26,,64,64,79,25,16,10,1.2,1
2024-04-12T0800,3550A,102.7997,24.9786,昆明市,昆明学院,细颗粒物(PM2.5),89,84,71,66,54,92,,121,121,36,15,13,12,1.0,0.9
2024-04-12T0800,3551A,102.5967,24.6736,昆明市,晋宁区生态环境分局,细颗粒物(PM2.5),89,93,75,66,59,101,,99,99,13,11,4,4,1.0,1
2024-04-12T0800,3552A,102.6678,24.9856,昆明市,云天化总部,细颗粒物(PM2.5),84,81,68,62,52,98,,97,97,32,21,12,9,0.9,0.9
2024-04-12T0800,1456A,91.1319,29.6514,拉萨市,八廓街,,41,41,23,21,15,94,,114,114,20,17,7,6,0.5,0.5
2024-04-12T0800,1457A,91.1221,29.6747,拉萨市,市环保局,,27,26,22,18,13,86,,111,111,18,13,6,6,0.4,0.3
2024-04-12T0800,1458A,91.0874,29.6475,拉萨市,区监测站,,37,37,19,16,12,82,,112,112,27,14,5,5,0.3,0.2
2024-04-12T0800,1459A,91.1774,29.6541,拉萨市,西藏大学,,31,24,20,17,14,98,,118,118,18,10,3,3,0.8,0.7
2024-04-12T0800,1460A,90.9798,29.6588,拉萨市,区辐射站,,28,21,21,13,13,87,,107,107,15,15,6,6,0.4,0.3
2024-04-12T0800,1461A,91.0834,29.6292,拉萨市,拉萨火车站,,26,26,19,15,13,68,,107,107,45,15,3,3,0.4,0.4
2024-04-12T0800,2520A,109.2203,23.7256,来宾市,来宾技工学校,,47,47,53,28,30,43,,28,28,8,20,8,8,0.7,1.1
2024-04-12T0800,3535A,109.1781,23.7297,来宾市,兴宾区政府,细颗粒物(PM2.5),52,43,43,36,30,40,,34,34,15,22,5,7,0.9,0.9
2024-04-12T0800,4002A,109.2416,23.7461,来宾市,中南小学,颗粒物(PM10),53,55,47,32,32,32,,21,21,16,24,10,10,0.9,1
2024-04-12T0800,1476A,103.631,36.1031,兰州市,兰炼宾馆,颗粒物(PM10),75,99,63,39,35,15,,25,25,60,45,39,17,1.0,0.6
2024-04-12T0800,1477A,104.1373,35.9454,兰州市,榆中兰大校区,,,,,,,,,,,,,,,,
2024-04-12T0800,1478A,103.8412,36.0726,兰州市,生物制品所,颗粒物(PM10),74,98,67,45,39,7,,4,4,61,53,10,12,0.8,0.4
2024-04-12T0800,1479A,103.831,36.0464,兰州市,铁路设计院,颗粒物(PM10),62,74,71,33,35,7,,12,12,75,66,12,12,0.8,0.8
2024-04-12T0800,3186A,103.7158,36.1058,兰州市,教育港,颗粒物(PM10),75,100,66,46,37,9,,4,4,58,45,18,13,0.8,0.6
2024-04-12T0800,3241A,103.7439,36.0842,兰州市,百合公园,颗粒物(PM10),66,82,64,31,29,6,,4,4,54,50,9,10,1.0,0.7
2024-04-12T0800,3242A,103.9611,35.998,兰州市,和平,,46,46,52,21,23,53,,72,72,36,24,9,12,0.3,0.3
2024-04-12T0800,3245A,103.6633,36.533,兰州新区,新区管委会,颗粒物(PM10),78,106,74,38,32,14,,46,46,40,19,18,25,0.7,0.5
2024-04-12T0800,3246A,103.6975,36.4789,兰州新区,舟曲中学,颗粒物(PM10),77,104,65,39,26,16,,48,48,45,22,19,26,0.6,0.4
2024-04-12T0800,1067A,116.6708,39.5111,廊坊市,药材公司,细颗粒物(PM2.5),68,77,133,49,87,42,,57,57,20,30,3,5,0.6,0.7
2024-04-12T0800,1068A,116.7214,39.5589,廊坊市,开发区,颗粒物(PM10),66,82,140,46,86,51,,69,69,24,34,2,3,0.5,0.6
2024-04-12T0800,1070A,116.7244,39.5269,廊坊市,北华航天学院,细颗粒物(PM2.5),72,70,146,52,90,50,,65,65,20,33,3,4,0.6,0.7
2024-04-12T0800,2919A,116.7022,39.5453,廊坊市,河北工业大学,"颗粒物(PM10),细颗粒物(PM2.5)",65,80,135,47,85,50,,70,70,25,34,4,5,0.5,0.6
2024-04-12T0800,2535A,103.7723,29.5462,乐山市,花湖湾,细颗粒物(PM2.5),62,55,32,44,27,24,,45,45,21,15,4,4,0.8,0.6
2024-04-12T0800,2536A,103.7627,29.5844,乐山市,牛耳桥,细颗粒物(PM2.5),54,47,37,38,27,5,,26,26,39,28,4,4,0.9,0.6
2024-04-12T0800,2537A,103.7508,29.6006,乐山市,市第三水厂,"颗粒物(PM10),细颗粒物(PM2.5)",52,53,38,36,25,9,,25,25,44,34,4,4,0.9,0.7
2024-04-12T0800,2538A,103.7571,29.5664,乐山市,市监测站,,45,45,35,26,25,7,,35,35,32,20,6,7,1.0,0.6
2024-04-12T0800,3361A,103.7311,29.5628,乐山市,理工大学,,40,40,37,28,26,4,,15,15,39,24,14,8,1.6,0.7
2024-04-12T0800,2598A,100.2143,26.8576,丽江市,西南郊,,,,,,,,,,,,,,,,
2024-04-12T0800,2599A,100.2497,26.8802,丽江市,丽江古城,,34,34,36,23,22,79,,88,88,22,14,8,8,0.6,0.5
2024-04-12T0800,2600A,100.2203,26.8906,丽江市,市中心,,27,27,22,14,12,57,,87,87,30,12,8,8,0.5,0.4
2024-04-12T0800,1267A,119.914,28.4514,丽水市,监测站大楼,,42,,44,29,33,50,,65,65,20,16,3,4,0.6,0.4
2024-04-12T0800,1268A,119.93,28.4586,丽水市,莲都小学,,38,38,48,23,25,60,,71,71,17,14,3,3,0.5,0.4
2024-04-12T0800,1269A,119.879,28.4231,丽水市,余庄前,,,28,45,22,26,,,56,56,19,15,4,4,0.6,0.5
2024-04-12T0800,1173A,119.176,34.5885,连云港市,市环境监测站,颗粒物(PM10),51,51,52,34,28,74,,73,73,14,14,8,8,0.2,0.2
2024-04-12T0800,3000A,119.3581,34.6972,连云港市,德源药业,细颗粒物(PM2.5),52,51,50,36,23,56,,67,67,24,14,7,6,0.7,0.6
2024-04-12T0800,3007A,119.178,34.844,连云港市,新城一中,颗粒物(PM10),54,58,71,16,24,57,,51,51,30,37,7,8,0.5,0.6
2024-04-12T0800,3008A,119.3608,34.7519,连云港市,胡沟管理处,颗粒物(PM10),69,88,53,34,24,11,,83,83,66,24,14,9,0.6,0.6
2024-04-12T0800,3009A,119.1478,34.5911,连云港市,矿山设计院,颗粒物(PM10),56,61,55,29,25,64,,70,70,16,14,7,7,0.7,0.7
2024-04-12T0800,3434A,119.2413,34.6539,连云港市,工贸学校,,45,45,43,21,22,98,,106,106,6,8,8,8,0.5,0.4
2024-04-12T0800,3664A,119.4172,34.7341,连云港市,连云街道,颗粒物(PM10),52,53,53,21,21,51,,102,102,45,28,4,5,0.5,0.4
2024-04-12T0800,2571A,102.3431,27.8099,凉山彝族自治州,青龙寺,,37,37,27,7,6,67,,88,88,10,5,9,6,0.8,0.5
2024-04-12T0800,2572A,102.2721,27.8415,凉山彝族自治州,邛海宾馆,,29,29,27,19,18,56,,94,94,31,10,14,10,0.7,0.5
2024-04-12T0800,2573A,102.2625,27.898,凉山彝族自治州,西昌市政府,,30,28,32,21,21,78,,91,91,12,8,8,9,0.6,0.5
2024-04-12T0800,2574A,102.2685,27.8851,凉山彝族自治州,凉山州政府,,42,42,33,25,19,65,,89,89,22,8,10,11,0.7,0.5
2024-04-12T0800,2575A,102.237,27.8914,凉山彝族自治州,长安,,33,33,36,21,21,38,,78,78,44,14,11,14,0.7,0.7
2024-04-12T0800,2212A,123.2,41.1953,辽阳市,宏伟区,,35,,37,24,32,103,,108,108,11,9,10,10,0.5,0.5
2024-04-12T0800,2213A,123.1683,41.2495,辽阳市,新华园,,33,25,40,21,31,103,,110,110,11,9,7,7,0.5,0.5
2024-04-12T0800,2214A,123.2354,41.2639,辽阳市,滨河路,,42,38,41,29,35,95,,103,103,14,9,8,8,0.6,0.6
2024-04-12T0800,2215A,123.149,41.2991,辽阳市,铁西工业园,,34,28,46,21,30,108,,116,116,10,8,11,11,0.6,0.6
2024-04-12T0800,2227A,125.1358,42.8845,辽源市,环保局,,43,30,33,21,22,135,,128,128,15,11,8,7,0.6,0.6
2024-04-12T0800,3239A,125.0764,42.9078,辽源市,银鹰制药,,41,31,40,23,26,130,,126,126,16,10,9,8,0.6,0.6
2024-04-12T0800,1625A,115.9848,36.4372,聊城市,区政府,颗粒物(PM10),73,96,79,48,35,74,,70,70,22,16,15,8,0.9,0.8
2024-04-12T0800,2878A,116.0072,36.4343,聊城市,聊大东校,细颗粒物(PM2.5),70,86,72,51,35,73,,67,67,17,17,11,9,0.7,0.6
2024-04-12T0800,3200A,115.9819,36.4978,聊城市,监控中心,颗粒物(PM10),67,83,78,44,32,84,,76,76,16,15,14,9,0.8,0.6
2024-04-12T0800,3513A,116.0445,36.4361,聊城市,九州社区,颗粒物(PM10),80,109,87,57,36,68,,63,63,20,15,10,15,0.9,0.7
2024-04-12T0800,4018A,116.0567,36.4608,聊城市,星美广场,颗粒物(PM10),74,97,83,42,32,68,,68,68,15,11,8,12,0.7,0.7
2024-04-12T0800,2632A,94.3681,29.6376,林芝市,林芝监测站,,30,21,18,16,12,95,,114,114,2,3,5,5,0.7,0.6
2024-04-12T0800,2633A,94.3616,29.6616,林芝市,林芝人民医院,,29,22,20,18,15,91,,113,113,8,6,6,6,0.6,0.6
2024-04-12T0800,2603A,100.0781,23.8982,临沧市,市环保局,细颗粒物(PM2.5),104,90,86,78,80,48,,72,72,30,16,15,11,1.1,1
2024-04-12T0800,2604A,100.0894,23.8822,临沧市,市气象局,细颗粒物(PM2.5),115,97,95,87,78,51,,72,72,27,19,15,11,1.1,1
2024-04-12T0800,1733A,111.5531,36.0783,临汾市,临钢医院,颗粒物(PM10),54,57,77,29,28,42,,27,27,28,26,5,7,0.6,0.6
2024-04-12T0800,1734A,111.5028,36.0714,临汾市,技工学校,颗粒物(PM10),64,78,74,32,34,45,,34,34,34,34,6,10,0.7,0.7
2024-04-12T0800,1736A,111.5018,36.0855,临汾市,市委,颗粒物(PM10),67,83,77,24,26,46,,31,31,27,28,4,8,0.7,0.7
2024-04-12T0800,3018A,111.505,36.1014,临汾市,唐尧大酒店,颗粒物(PM10),70,90,85,30,30,36,,27,27,32,29,6,9,0.7,0.7
2024-04-12T0800,3668A,111.5036,36.0414,临汾市,城南,颗粒物(PM10),78,105,73,34,37,13,,9,9,43,39,7,9,0.7,0.6
2024-04-12T0800,2667A,103.2069,35.5993,临夏回族自治州,环保局,颗粒物(PM10),67,83,77,33,30,26,,30,30,26,21,4,4,0.7,0.5
2024-04-12T0800,2668A,103.2417,35.6057,临夏回族自治州,建设大厦,颗粒物(PM10),59,67,60,29,28,37,,48,48,23,21,6,6,0.5,0.4
2024-04-12T0800,1618A,118.3429,35.0532,临沂市,沂河小区,颗粒物(PM10),60,70,74,34,35,67,,60,60,20,19,8,10,0.3,0.4
2024-04-12T0800,1619A,118.295,35.0583,临沂市,鲁南制药厂,颗粒物(PM10),58,66,74,25,31,72,,68,68,21,21,7,10,0.5,0.4
2024-04-12T0800,1620A,118.2794,34.9976,临沂市,新光毛纺厂,颗粒物(PM10),59,68,69,39,37,60,,56,56,28,27,5,9,0.5,0.6
2024-04-12T0800,1621A,118.3956,35.0888,临沂市,河东保险公司,颗粒物(PM10),62,73,67,29,36,50,,47,47,29,22,5,8,0.2,0.3
2024-04-12T0800,3370A,118.3564,35.0215,临沂市,十里堡居委,颗粒物(PM10),54,58,65,24,33,65,,57,57,18,20,6,9,0.7,0.5
2024-04-12T0800,3496A,118.3604,35.1084,临沂市,南坊新区,颗粒物(PM10),58,66,70,24,33,62,,59,59,27,21,7,10,0.4,0.4
2024-04-12T0800,3860A,118.3920,35.0300,临沂市,皇山花园小区,颗粒物(PM10),60,70,66,35,40,65,,57,57,26,22,12,11,0.3,0.4
2024-04-12T0800,1870A,109.4856,24.3895,柳州市,柳东小学,,38,32,35,26,28,32,,16,16,16,27,6,6,0.7,0.8
2024-04-12T0800,1871A,109.4157,24.3277,柳州市,环保监测站,,50,48,52,35,38,22,,11,11,19,29,6,6,1.0,1.2
2024-04-12T0800,1872A,109.389,24.341,柳州市,河西水厂,,48,48,44,27,27,28,,19,19,17,28,2,2,0.7,0.9
2024-04-12T0800,1873A,109.4311,24.2921,柳州市,市四中,,46,46,59,31,32,31,,22,22,16,28,5,5,0.8,1.1
2024-04-12T0800,1874A,109.4006,24.3631,柳州市,市九中,颗粒物(PM10),57,64,61,29,30,10,,4,4,35,35,6,6,0.9,1.1
2024-04-12T0800,1875A,109.4958,24.3134,柳州市,古亭山,,50,50,53,33,33,4,,3,3,28,30,5,6,1.0,1.2
2024-04-12T0800,3402A,109.5422,24.3996,柳州市,市二中,,48,48,42,26,23,3,,4,4,26,26,7,8,0.8,0.9
2024-04-12T0800,2307A,116.5079,31.737,六安市,监测大楼,细颗粒物(PM2.5),83,,54,61,49,87,,90,90,28,23,5,5,0.7,0.6
2024-04-12T0800,2308A,116.4738,31.7643,六安市,皖西学院,细颗粒物(PM2.5),85,,68,63,50,105,,87,87,19,23,8,5,0.7,0.6
2024-04-12T0800,2309A,116.4996,31.7905,六安市,朝阳厂,细颗粒物(PM2.5),78,,58,57,54,99,,76,76,16,24,5,6,0.5,0.5
2024-04-12T0800,2310A,116.5567,31.7886,六安市,开发区,颗粒物(PM10),52,53,72,35,38,92,,78,78,13,23,4,6,0.7,0.7
2024-04-12T0800,2576A,104.8,26.5892,六盘水市,窑上,,,,,,,,,,,,,,,,
2024-04-12T0800,2577A,104.83,26.5917,六盘水市,黄土坡,细颗粒物(PM2.5),98,106,78,73,50,39,,60,60,27,15,10,8,1.2,0.7
2024-04-12T0800,2578A,104.89,26.5939,六盘水市,水钢,细颗粒物(PM2.5),82,92,77,60,46,54,,68,68,18,12,9,9,0.6,0.6
2024-04-12T0800,2579A,104.8475,26.5894,六盘水市,民中,细颗粒物(PM2.5),79,81,68,58,46,48,,62,62,19,14,8,8,1.0,0.7
2024-04-12T0800,2580A,104.9544,26.5506,六盘水市,双水,细颗粒物(PM2.5),79,100,72,58,44,61,,66,66,9,11,6,7,0.7,0.6
2024-04-12T0800,2335A,117.0189,25.1181,龙岩市,龙岩师专,,,,,,,,,,,,,,,,
2024-04-12T0800,2336A,117.0217,25.1033,龙岩市,龙岩市监测站,,48,42,44,33,33,12,,14,14,25,20,11,8,0.9,0.7
2024-04-12T0800,2337A,117.0258,25.0661,龙岩市,闽西职业技术学院,颗粒物(PM10),55,60,49,36,32,9,,9,9,25,24,31,16,0.7,0.6
2024-04-12T0800,2338A,117.0196,25.0306,龙岩市,龙岩学院,,36,34,37,25,25,24,,31,31,13,10,5,5,0.7,0.6
2024-04-12T0800,2665A,105.0822,33.3261,陇南市,汉王镇固水子,,,,,,,,,,,,,,,,
2024-04-12T0800,2885A,104.9339,33.3826,陇南市,滨江中学,颗粒物(PM10),63,76,53,20,16,30,,40,40,22,13,36,18,0.7,0.5
2024-04-12T0800,3247A,104.955,33.371,陇南市,市总工会,,44,44,37,13,11,34,,50,50,19,11,13,9,0.7,0.6
2024-04-12T0800,2487A,111.9589,27.8901,娄底市,电视发射台,细颗粒物(PM2.5),53,49,52,37,34,22,,18,18,5,6,5,6,1.1,1.1
2024-04-12T0800,2488A,111.9975,27.725,娄底市,市监测站,细颗粒物(PM2.5),62,64,68,44,38,26,,31,31,14,16,6,8,0.8,0.8
2024-04-12T0800,2489A,112.0194,27.7314,娄底市,市委党校,细颗粒物(PM2.5),52,48,56,36,40,26,,28,28,13,16,5,6,0.8,0.9
2024-04-12T0800,2490A,111.9561,27.7569,娄底市,涟钢,,46,46,65,31,43,19,,24,24,22,25,9,9,0.5,1
2024-04-12T0800,2491A,111.9892,27.7044,娄底市,市政府,细颗粒物(PM2.5),53,48,53,37,38,30,,32,32,15,18,6,7,0.9,0.9
2024-04-12T0800,1893A,105.4324,28.9634,泸州市,九狮山,颗粒物(PM10),52,53,39,34,25,18,,34,34,26,16,8,6,0.6,0.4
2024-04-12T0800,1894A,105.4427,28.9063,泸州市,小市上码头,细颗粒物(PM2.5),68,80,54,49,34,22,,50,50,26,17,9,10,0.8,0.5
2024-04-12T0800,1895A,105.4241,28.8573,泸州市,兰田宪桥,细颗粒物(PM2.5),70,79,54,51,33,17,,37,37,27,16,13,7,0.7,0.6
2024-04-12T0800,1896A,105.4379,28.8833,泸州市,市环监站,细颗粒物(PM2.5),74,73,58,54,42,22,,47,47,22,15,11,10,0.7,0.6
2024-04-12T0800,3490A,105.3617,28.7703,泸州市,纳溪区环保局,细颗粒物(PM2.5),55,46,41,39,28,6,,23,23,24,18,4,6,0.5,0.4
2024-04-12T0800,2183A,111.1406,37.5211,吕梁市,环保局,颗粒物(PM10),81,112,75,39,24,20,,22,22,50,43,10,9,0.6,0.5
2024-04-12T0800,2185A,111.1297,37.5136,吕梁市,自来水公司,颗粒物(PM10),132,213,93,44,28,12,,9,9,50,43,9,8,0.6,0.5
2024-04-12T0800,2867A,111.1283,37.51,吕梁市,马茂庄小学,颗粒物(PM10),103,156,102,37,30,25,,8,8,50,50,8,7,0.5,0.5
2024-04-12T0800,1812A,112.3931,34.6516,洛阳市,市委党校,细颗粒物(PM2.5),97,83,57,72,38,31,,50,50,23,16,4,6,0.8,0.6
2024-04-12T0800,1814A,112.4657,34.6871,洛阳市,豫西宾馆,细颗粒物(PM2.5),77,102,66,56,33,24,,50,50,39,21,7,9,0.8,0.6
2024-04-12T0800,1815A,112.494,34.6886,洛阳市,河南林校,细颗粒物(PM2.5),84,74,50,62,35,37,,40,40,13,12,7,7,0.8,0.7
2024-04-12T0800,1816A,112.3844,34.623,洛阳市,开发区管委会,细颗粒物(PM2.5),82,91,55,60,34,25,,42,42,24,16,6,7,0.7,0.5
2024-04-12T0800,1817A,112.4267,34.6258,洛阳市,市委新办公区,细颗粒物(PM2.5),82,82,51,60,32,33,,49,49,17,12,7,7,0.6,0.5
2024-04-12T0800,3340A,112.6005,34.6326,洛阳市,伊滨,细颗粒物(PM2.5),75,55,48,55,30,24,,26,26,28,20,8,7,0.7,0.5
2024-04-12T0800,3341A,112.4951,34.6332,洛阳市,中移产业园,细颗粒物(PM2.5),89,78,48,66,30,33,,47,47,19,12,8,7,0.8,0.6
2024-04-12T0800,3593A,112.5736,34.8993,洛阳市,吉利监测站,颗粒物(PM10),58,66,66,36,30,28,,23,23,25,31,3,4,0.8,0.6
2024-04-12T0800,3635A,112.3677,34.662,洛阳市,河科大西苑校区,细颗粒物(PM2.5),79,85,58,58,31,11,,42,42,34,17,9,10,0.7,0.5
2024-04-12T0800,3636A,112.4388,34.6781,洛阳市,英才小学,颗粒物(PM10),78,106,66,56,32,25,,52,52,27,16,7,9,0.7,0.5
2024-04-12T0800,2399A,114.051,33.5699,漯河市,三五一五工厂,颗粒物(PM10),56,61,55,29,29,37,,27,27,27,16,10,8,0.4,0.4
2024-04-12T0800,2400A,114.0055,33.5698,漯河市,漯河大学,颗粒物(PM10),58,66,65,36,39,48,,26,26,22,20,11,11,0.5,0.5
2024-04-12T0800,2401A,114.0138,33.5828,漯河市,市水利局,细颗粒物(PM2.5),55,48,52,39,36,44,,28,28,18,16,6,7,1.1,0.8
2024-04-12T0800,2402A,114.0261,33.5698,漯河市,市广电局,细颗粒物(PM2.5),53,54,57,37,30,34,,27,27,36,22,6,5,0.5,0.5
2024-04-12T0800,3478A,113.9749,33.5664,漯河市,市图书馆,细颗粒物(PM2.5),54,40,46,38,31,55,,35,35,15,16,12,11,0.7,0.7
2024-04-12T0800,3479A,114.0967,33.5906,漯河市,召陵区卫健委,颗粒物(PM10),53,56,52,31,31,22,,21,21,34,20,7,6,0.6,0.6
2024-04-12T0800,1798A,118.5092,31.6837,马鞍山市,湖东路四小,细颗粒物(PM2.5),88,78,81,65,40,69,,70,70,30,27,8,12,0.8,0.8
2024-04-12T0800,1799A,118.5024,31.6449,马鞍山市,开发区,颗粒物(PM10),76,101,87,50,48,81,,73,73,33,39,6,9,0.9,1
2024-04-12T0800,1800A,118.5228,31.7231,马鞍山市,慈湖,颗粒物(PM10),73,95,76,43,42,77,,67,67,35,30,10,12,0.9,0.8
2024-04-12T0800,1802A,118.6245,31.7241,马鞍山市,濮塘,颗粒物(PM10),64,78,57,45,31,43,,53,53,23,16,5,6,0.9,0.8
2024-04-12T0800,3633A,118.4918,31.6809,马鞍山市,雨山,细颗粒物(PM2.5),60,57,68,43,37,73,,73,73,30,27,6,10,0.9,0.9
2024-04-12T0800,1686A,111.0286,21.4688,茂名市,电白南海,,44,44,46,24,24,68,,82,82,15,11,9,7,0.7,0.6
2024-04-12T0800,1687A,110.9294,21.6533,茂名市,茂石化七小,颗粒物(PM10),51,51,46,34,29,50,,73,73,18,11,13,8,1.1,0.8
2024-04-12T0800,1688A,110.9107,21.6687,茂名市,健康路,,39,36,36,27,20,59,,73,73,15,10,14,8,0.7,0.6
2024-04-12T0800,1689A,110.8592,21.6828,茂名市,高岭,,48,48,52,27,22,64,,78,78,18,14,9,9,0.8,0.7
2024-04-12T0800,3450A,111.01,21.5165,茂名市,电白水东,,39,39,37,19,21,67,,75,75,14,13,5,6,0.7,0.6
2024-04-12T0800,2539A,104.0308,30.0478,眉山市,黑龙滩水库,,28,28,25,16,17,34,,62,62,6,4,5,5,0.5,0.4
2024-04-12T0800,2540A,103.8416,30.0874,眉山市,气象局,,,69,31,24,14,,,,,52,26,10,9,0.7,0.4
2024-04-12T0800,3137A,103.8578,30.0744,眉山市,市委党校,,44,44,30,27,17,11,,34,34,52,24,18,12,1.0,0.3
2024-04-12T0800,3148A,103.8291,30.0564,眉山市,区人社局,,35,34,25,24,18,5,,29,29,54,28,11,11,0.7,0.4
2024-04-12T0800,1690A,116.1231,24.3284,梅州市,梅江月梅,,48,42,54,33,32,17,,8,8,19,20,12,5,0.7,0.7
2024-04-12T0800,1691A,116.0797,24.2719,梅州市,梅县新城,颗粒物(PM10),51,52,51,33,34,6,,7,7,20,24,4,4,0.8,0.7
2024-04-12T0800,1692A,116.1248,24.2654,梅州市,环境监控中心,,50,50,50,32,29,10,,4,4,26,28,28,5,0.9,0.8
2024-04-12T0800,3315A,116.1233,24.2991,梅州市,梅龙,细颗粒物(PM2.5),69,51,50,50,35,30,,12,12,17,20,42,11,0.8,0.8
2024-04-12T0800,1878A,104.7778,31.4741,绵阳市,富乐山,,45,37,28,31,21,10,,34,34,20,13,7,8,0.6,0.5
2024-04-12T0800,1879A,104.7563,31.4535,绵阳市,市人大,颗粒物(PM10),59,68,44,28,23,6,,14,14,39,34,9,9,0.8,0.6
2024-04-12T0800,1880A,104.6697,31.4668,绵阳市,高新区自来水公司,颗粒物(PM10),65,79,62,41,32,5,,3,3,44,37,11,9,0.8,0.5
2024-04-12T0800,1881A,104.7287,31.5075,绵阳市,三水厂,"颗粒物(PM10),细颗粒物(PM2.5)",62,74,48,44,33,1,,0,0,33,31,7,6,0.8,0.6
2024-04-12T0800,3491A,104.69,31.5322,绵阳市,西科大附属小学,颗粒物(PM10),56,62,51,34,29,5,,4,4,39,34,14,8,0.9,0.6
2024-04-12T0800,3492A,104.5648,31.5343,绵阳市,安州区旅游局,细颗粒物(PM2.5),58,63,50,41,33,9,,22,22,24,21,8,8,0.8,0.6
2024-04-12T0800,1784A,129.61,44.561,牡丹江市,环保大楼,细颗粒物(PM2.5),102,140,75,76,50,36,,49,49,36,23,10,8,1.0,0.7
2024-04-12T0800,1785A,129.6115,44.5782,牡丹江市,文化广场,细颗粒物(PM2.5),153,204,84,117,59,21,,35,35,58,27,15,12,1.5,0.9
2024-04-12T0800,1786A,129.5904,44.5963,牡丹江市,第一医院,颗粒物(PM10),88,125,93,63,62,29,,30,30,52,27,15,11,1.2,0.9
2024-04-12T0800,1787A,129.6364,44.6075,牡丹江市,机车工厂,颗粒物(PM10),103,156,104,72,51,24,,25,25,59,32,15,11,0.9,0.7
2024-04-12T0800,1788A,129.6386,44.5462,牡丹江市,第一中学,颗粒物(PM10),62,74,60,25,37,47,,38,38,32,22,14,11,0.9,0.8
2024-04-12T0800,2531A,105.0703,29.61,内江市,市监测站,颗粒物(PM10),66,82,42,44,32,6,,30,30,35,21,8,7,0.7,0.3
2024-04-12T0800,2532A,105.0717,29.5947,内江市,东兴区政府,颗粒物(PM10),62,73,46,40,23,31,,50,50,27,16,8,7,0.6,0.4
2024-04-12T0800,2533A,105.0653,29.5817,内江市,内江二中,细颗粒物(PM2.5),59,55,30,42,26,12,,42,42,38,17,7,6,1.0,0.7
2024-04-12T0800,2534A,105.0406,29.5822,内江市,内江日报社,细颗粒物(PM2.5),69,56,27,50,29,9,,36,36,55,27,8,7,1.0,0.8
2024-04-12T0800,2628A,92.0657,31.4846,那曲市,那曲监测站,细颗粒物(PM2.5),57,50,48,40,30,42,,63,63,19,11,11,8,1.3,0.8
2024-04-12T0800,3128A,92.0506,31.4797,那曲市,那曲会议中心,颗粒物(PM10),69,87,45,46,23,54,,76,76,24,11,10,8,0.2,0.3
2024-04-12T0800,1290A,115.8931,28.6843,南昌市,省外办,,,29,48,22,31,34,,28,28,22,29,,7,0.6,0.6
2024-04-12T0800,1291A,115.8886,28.7003,南昌市,省林业公司,,32,27,41,22,28,26,,15,15,28,39,4,6,0.6,0.6
2024-04-12T0800,1292A,115.8126,28.7442,南昌市,林科所,,20,19,28,14,20,34,,28,28,20,28,6,8,0.4,0.5
2024-04-12T0800,1294A,115.8518,28.687,南昌市,建工学校,,34,34,50,18,31,30,,35,35,21,27,4,6,0.6,0.7
2024-04-12T0800,1295A,115.8921,28.6424,南昌市,象湖,,29,29,46,20,31,28,,32,32,25,28,4,6,0.9,0.9
2024-04-12T0800,1296A,115.7423,28.7996,南昌市,武术学校,,30,,16,21,26,45,,29,29,5,9,5,5,0.5,0.5
2024-04-12T0800,1298A,115.9314,28.6842,南昌市,省站,,32,,46,22,30,32,,36,36,18,20,11,9,0.8,0.8
2024-04-12T0800,3046A,115.9084,28.6062,南昌市,机电学校,,35,33,53,24,33,39,,29,29,20,28,7,9,0.6,0.7
2024-04-12T0800,3690A,115.9721,28.7031,南昌市,外国语学校,,39,29,44,27,32,40,,40,40,21,24,3,5,0.6,0.6
2024-04-12T0800,1905A,106.056,30.8064,南充市,西山风景区,,,,,,,,,,,,,,,,
2024-04-12T0800,1906A,106.0789,30.8023,南充市,南充市委,,49,49,39,28,26,5,,6,6,17,24,7,7,0.7,0.6
2024-04-12T0800,1907A,106.1031,30.8217,南充市,南充炼油厂,,50,50,42,33,28,6,,15,15,21,22,10,6,0.3,0.3
2024-04-12T0800,1908A,106.1064,30.7856,南充市,高坪区监测站,,34,34,37,15,22,16,,17,17,19,24,6,10,0.3,0.2
2024-04-12T0800,1909A,106.0642,30.7636,南充市,嘉陵区环保局,颗粒物(PM10),51,52,41,27,25,8,,13,13,28,27,6,7,0.7,0.5
2024-04-12T0800,1910A,106.1087,30.8388,南充市,市环境监测站,颗粒物(PM10),51,51,39,34,28,11,,20,20,12,24,4,5,0.5,0.5
2024-04-12T0800,1151A,118.8086,32.1065,南京市,迈皋桥,细颗粒物(PM2.5),85,77,74,63,51,25,,22,22,49,39,5,4,0.9,0.8
2024-04-12T0800,1152A,118.7538,32.0551,南京市,草场门,细颗粒物(PM2.5),85,70,75,63,48,18,,36,36,47,33,3,3,0.9,0.6
2024-04-12T0800,1153A,118.7794,32.0745,南京市,山西路,细颗粒物(PM2.5),107,95,85,80,56,27,,49,49,52,32,4,4,0.6,0.5
2024-04-12T0800,1154A,118.7752,32.0023,南京市,中华门,细颗粒物(PM2.5),85,75,76,63,44,19,,32,32,54,22,7,7,0.9,0.7
2024-04-12T0800,1155A,118.8109,32.0309,南京市,瑞金路,细颗粒物(PM2.5),70,88,86,51,44,13,,26,26,43,22,4,4,0.6,0.5
2024-04-12T0800,1156A,118.7997,32.0754,南京市,玄武湖,细颗粒物(PM2.5),95,,73,71,48,14,,34,34,54,35,8,9,0.7,0.6
2024-04-12T0800,1157A,118.6414,32.0931,南京市,浦口,,50,44,68,35,33,40,,20,20,22,40,4,5,0.9,0.8
2024-04-12T0800,1158A,118.7356,31.9996,南京市,奥体中心,细颗粒物(PM2.5),77,90,89,56,46,62,,55,55,33,30,8,9,0.6,0.6
2024-04-12T0800,1159A,118.9125,32.1028,南京市,仙林大学城,细颗粒物(PM2.5),77,80,80,56,47,30,,28,28,35,31,9,9,0.8,0.7
2024-04-12T0800,3422A,118.8436,31.9198,南京市,江宁彩虹桥,细颗粒物(PM2.5),83,,67,61,50,20,,27,27,49,30,3,4,0.8,0.6
2024-04-12T0800,3423A,119.0138,31.6494,南京市,溧水永阳,颗粒物(PM10),60,70,67,35,34,72,,60,60,37,27,4,4,0.6,0.5
2024-04-12T0800,3424A,118.879,31.3302,南京市,高淳老职中,"颗粒物(PM10),细颗粒物(PM2.5)",52,53,57,36,38,84,,86,86,27,23,5,7,0.7,0.7
2024-04-12T0800,3427A,118.8554,32.3578,南京市,六合雄州,细颗粒物(PM2.5),57,48,68,40,48,12,,21,21,35,37,3,4,0.8,0.7
2024-04-12T0800,1401A,108.3103,22.7881,南宁市,二十一中,颗粒物(PM10),52,54,52,32,28,44,,53,53,12,15,4,4,0.9,0.9
2024-04-12T0800,1402A,108.3141,22.8528,南宁市,北湖,颗粒物(PM10),61,72,62,36,31,36,,45,45,16,17,4,4,1.0,1
2024-04-12T0800,1403A,108.3206,22.8225,南宁市,市监测站,颗粒物(PM10),53,55,55,36,29,39,,50,50,15,17,5,5,0.8,0.9
2024-04-12T0800,1404A,108.3829,22.8037,南宁市,大自然花园,,48,48,50,33,31,48,,54,54,10,11,5,5,0.7,0.8
2024-04-12T0800,1405A,108.4394,22.7904,南宁市,仙葫,,49,49,55,26,32,44,,45,45,16,17,6,6,0.9,1.1
2024-04-12T0800,1406A,108.2397,22.8467,南宁市,区农职院,"颗粒物(PM10),细颗粒物(PM2.5)",54,57,58,38,28,29,,45,45,26,23,6,6,1.1,0.9
2024-04-12T0800,1407A,108.3275,22.735,南宁市,英华嘉园,颗粒物(PM10),65,80,57,37,30,32,,38,38,20,23,6,6,0.8,0.8
2024-04-12T0800,1408A,108.2257,22.7757,南宁市,沙井镇街道办,,,67,54,40,32,24,,28,28,28,26,4,4,,0.9
2024-04-12T0800,3401A,108.4834,22.7618,南宁市,红星社区,颗粒物(PM10),52,53,52,32,34,39,,26,26,16,20,8,7,0.8,0.8
2024-04-12T0800,2331A,118.0966,26.6761,南平市,茫荡山,,,,,,,,,,,,,,,,
2024-04-12T0800,2332A,118.1681,26.6369,南平市,南平市监测站,,50,50,41,31,24,7,,5,5,23,22,5,4,0.8,0.6
2024-04-12T0800,2333A,118.1825,26.6489,南平市,南平铝业有限公司,,45,43,35,31,24,10,,10,10,21,21,7,8,0.9,0.8
2024-04-12T0800,2334A,118.1756,26.6272,南平市,南平七中,,46,34,40,32,25,4,,7,7,23,20,4,4,0.9,0.8
2024-04-12T0800,1168A,120.9098,31.9663,南通市,狼山街道,,42,42,47,23,20,25,,40,40,31,32,8,11,0.5,0.6
2024-04-12T0800,1169A,120.86,32.0005,南通市,虹桥,,45,45,53,27,24,16,,35,35,33,28,5,7,0.5,0.6
2024-04-12T0800,1170A,120.87,32.02,南通市,城中,,48,48,63,31,28,20,,39,39,36,28,5,7,0.8,0.7
2024-04-12T0800,1171A,120.94,31.93,南通市,星湖花园,,43,43,50,30,26,16,,32,32,35,30,7,8,0.8,0.7
2024-04-12T0800,1172A,120.81,32.0417,南通市,紫琅学院,,36,36,50,24,22,14,,36,36,37,33,8,10,0.7,0.7
2024-04-12T0800,3291A,121.067,32.062,南通市,通州监测站,,36,36,52,19,22,33,,49,49,14,14,8,9,0.7,0.7
2024-04-12T0800,3432A,120.9348,31.9883,南通市,环境教育馆,,42,41,48,29,24,20,,33,33,32,29,7,9,0.4,0.6
2024-04-12T0800,2404A,112.5224,33.0122,南阳市,瓦房庄,细颗粒物(PM2.5),67,55,53,48,36,39,,49,49,24,23,4,5,0.5,0.5
2024-04-12T0800,2405A,112.5003,32.9735,南阳市,汉画馆,细颗粒物(PM2.5),70,53,55,51,46,19,,28,28,27,25,3,4,0.5,0.5
2024-04-12T0800,2406A,112.5573,33.027,南阳市,气象站,细颗粒物(PM2.5),67,51,51,48,41,43,,50,50,19,22,6,7,0.5,0.5
2024-04-12T0800,2407A,112.5481,32.9689,南阳市,理工学院,细颗粒物(PM2.5),67,56,56,48,42,22,,29,29,26,28,4,5,0.7,0.6
2024-04-12T0800,4008A,112.5234,32.9922,南阳市,卧龙区政府,细颗粒物(PM2.5),59,44,47,42,37,29,,39,39,23,24,5,7,0.7,0.7
2024-04-12T0800,1234A,121.8358,29.911,宁波市,区环保大楼,,29,29,44,14,16,18,,8,8,46,39,6,7,0.7,0.6
2024-04-12T0800,1235A,121.56,29.82,宁波市,万里学院,,18,18,35,11,20,40,,40,40,19,14,7,7,0.6,0.6
2024-04-12T0800,1236A,121.713,29.9572,宁波市,龙赛医院,,30,30,48,13,17,17,,10,10,51,44,9,10,0.4,0.4
2024-04-12T0800,1239A,121.633,29.7733,宁波市,钱湖水厂,,18,16,33,12,22,32,,46,46,23,11,8,8,0.7,0.7
2024-04-12T0800,1240A,121.5856,29.8635,宁波市,太古小学,,18,,24,11,17,30,,38,38,35,19,8,8,0.7,0.7
2024-04-12T0800,1241A,121.524,29.8674,宁波市,市环境监测中心,,29,,34,20,18,35,,44,44,38,23,7,7,0.6,0.5
2024-04-12T0800,2871A,121.6147,29.9017,宁波市,万里国际学校,,37,37,45,19,21,28,,30,30,41,25,9,9,0.5,0.4
2024-04-12T0800,3710A,121.5594,29.8975,宁波市,白沙活动中心,,20,20,38,11,17,43,,40,40,29,22,8,8,0.5,0.4
2024-04-12T0800,2339A,119.5001,26.6946,宁德市,金涵水库,,,,,,,,,,,,,,,,
2024-04-12T0800,2341A,119.5388,26.6612,宁德市,宁德市监测站,细颗粒物(PM2.5),70,,48,51,35,17,,34,34,32,18,7,8,0.8,0.6
2024-04-12T0800,3209A,119.5231,26.6562,宁德市,宁德一中,,40,33,55,28,30,33,,39,39,16,19,7,8,0.8,0.6
2024-04-12T0800,2618A,98.8601,25.8567,怒江傈僳族自治州,州监测站,,32,26,36,22,28,77,,80,80,4,7,6,6,0.4,0.4
2024-04-12T0800,2619A,98.8546,25.8417,怒江傈僳族自治州,泸水一中,,35,27,43,24,31,59,,68,68,15,17,7,7,0.4,0.5
2024-04-12T0800,1888A,101.6891,26.571,攀枝花市,弄弄坪,细颗粒物(PM2.5),75,88,68,55,43,52,,70,70,50,37,75,46,2.1,1.7
2024-04-12T0800,1889A,101.5769,26.5928,攀枝花市,河门口,细颗粒物(PM2.5),73,73,54,53,35,47,,70,70,36,22,12,11,0.8,0.6
2024-04-12T0800,1890A,101.7169,26.585,攀枝花市,炳草岗,细颗粒物(PM2.5),67,75,58,48,32,23,,42,42,67,38,34,27,1.7,1.3
2024-04-12T0800,1891A,101.7369,26.5008,攀枝花市,仁和,细颗粒物(PM2.5),69,68,50,50,36,53,,81,81,38,17,9,9,1.0,0.7
2024-04-12T0800,2835A,101.7227,26.567,攀枝花市,四十中小,"颗粒物(PM10),细颗粒物(PM2.5)",69,88,58,50,36,19,,62,62,92,38,112,46,6.5,2.5
2024-04-12T0800,1604A,122.0303,41.1489,盘锦市,开发区,细颗粒物(PM2.5),65,60,77,47,55,110,,118,118,21,22,6,8,0.5,0.6
2024-04-12T0800,1605A,122.0485,41.0883,盘锦市,兴隆台,,50,49,74,35,52,108,,114,114,17,20,9,11,0.6,0.7
2024-04-12T0800,1606A,121.8297,41.1028,盘锦市,新生街道,细颗粒物(PM2.5),52,37,57,36,48,104,,108,108,18,19,7,9,0.5,0.6
2024-04-12T0800,1832A,113.3257,33.742,平顶山市,新华旅馆,细颗粒物(PM2.5),69,69,62,50,33,37,,28,28,35,26,9,8,0.4,0.4
2024-04-12T0800,1833A,113.2919,33.737,平顶山市,规划设计院,颗粒物(PM10),58,66,54,40,34,36,,46,46,24,16,7,7,0.7,0.6
2024-04-12T0800,1834A,113.182,33.774,平顶山市,平顶山工学院,颗粒物(PM10),53,55,55,31,27,33,,42,42,13,12,4,5,0.5,0.6
2024-04-12T0800,3204A,113.3025,33.73,平顶山市,规划局,颗粒物(PM10),58,66,53,39,33,34,,40,40,25,16,8,8,0.9,0.8
2024-04-12T0800,3594A,112.8867,33.9116,平顶山市,石龙区,"颗粒物(PM10),细颗粒物(PM2.5)",63,75,60,45,32,12,,10,10,32,23,7,8,0.6,0.4
2024-04-12T0800,2656A,106.6692,35.5461,平凉市,聚贤嘉苑,,46,46,38,22,17,20,,38,38,51,36,8,9,0.4,0.4
2024-04-12T0800,2657A,106.7021,35.5307,平凉市,博物馆,颗粒物(PM10),51,51,47,17,20,24,,36,36,40,26,8,9,0.6,0.4
2024-04-12T0800,2347A,114.0997,27.5002,萍乡市,武功山,,21,21,27,10,16,8,,7,7,16,15,12,11,0.9,0.6
2024-04-12T0800,2348A,113.8385,27.6434,萍乡市,中医院,细颗粒物(PM2.5),60,53,54,43,43,6,,14,14,29,25,4,13,1.4,1.1
2024-04-12T0800,2349A,113.8493,27.6253,萍乡市,市政府车库,,43,43,48,25,35,10,,13,13,25,26,9,17,1.4,1.2
2024-04-12T0800,2350A,113.8676,27.6435,萍乡市,市环保局,,38,33,48,26,36,7,,11,11,20,21,6,19,1.2,1
2024-04-12T0800,2351A,113.866,27.6198,萍乡市,安源区政府,,43,30,52,30,33,5,,10,10,22,23,7,15,1.3,1.1
2024-04-12T0800,2319A,119.0141,25.4325,莆田市,荔城区仓后路,颗粒物(PM10),52,54,52,35,29,26,,42,42,25,17,5,6,0.8,0.6
2024-04-12T0800,2320A,119.0015,25.4553,莆田市,莆田市监测站,细颗粒物(PM2.5),53,43,46,37,29,34,,38,38,14,17,7,7,0.7,0.6
2024-04-12T0800,2321A,119.1119,25.4561,莆田市,涵江区六中,细颗粒物(PM2.5),59,54,52,42,31,25,,32,32,29,25,9,7,1.1,0.9
2024-04-12T0800,2322A,119.1013,25.3215,莆田市,秀屿区政府,细颗粒物(PM2.5),62,60,44,44,29,24,,51,51,34,14,8,10,0.9,0.6
2024-04-12T0800,2323A,118.981,25.4792,莆田市,东圳水库,,,,,,,,,,,,,,,,
2024-04-12T0800,2392A,115.0312,35.7636,濮阳市,环保局,细颗粒物(PM2.5),70,,45,51,33,71,,75,75,12,10,9,8,0.8,0.7
2024-04-12T0800,2394A,115.0574,35.7609,濮阳市,油田运输公司,细颗粒物(PM2.5),84,99,63,62,35,63,,70,70,18,13,12,10,0.8,0.7
2024-04-12T0800,2395A,115.0866,35.7754,濮阳市,油田物探公司,细颗粒物(PM2.5),97,109,65,72,37,50,,52,52,22,13,9,7,0.7,0.5
2024-04-12T0800,3021A,115,35.7668,濮阳市,濮水河管理处,细颗粒物(PM2.5),70,51,52,51,36,65,,66,66,9,8,9,9,0.6,0.6
2024-04-12T0800,2601A,100.98,22.7633,普洱市,市环保局,细颗粒物(PM2.5),83,83,78,61,55,66,,75,75,17,14,10,10,0.7,0.7
2024-04-12T0800,2602A,100.9817,22.8322,普洱市,普洱第二中学,颗粒物(PM10),62,73,66,42,46,42,,38,38,44,30,12,12,0.8,0.7
2024-04-12T0800,2262A,131.0518,45.8751,七台河市,新一中,细颗粒物(PM2.5),75,73,77,55,45,76,,63,63,18,16,16,11,1.1,1
2024-04-12T0800,3345A,131.0577,45.7879,七台河市,中波台,细颗粒物(PM2.5),59,66,74,42,43,43,,57,57,28,24,10,8,0.8,0.8
2024-04-12T0800,3637A,131.0176,45.7761,七台河市,人民广场,颗粒物(PM10),79,107,97,55,57,57,,76,76,30,25,12,10,0.8,0.7
2024-04-12T0800,3684A,130.8781,45.8222,七台河市,新建矿广场,颗粒物(PM10),98,146,109,43,59,68,,46,46,32,31,51,28,1.0,1.1
2024-04-12T0800,1779A,123.9305,47.3636,齐齐哈尔市,安居小区,细颗粒物(PM2.5),93,96,122,69,72,73,,89,89,23,24,16,15,0.9,0.8
2024-04-12T0800,1780A,123.9488,47.3386,齐齐哈尔市,中心广场,颗粒物(PM10),80,110,160,47,57,72,,88,88,25,25,7,8,0.7,0.7
2024-04-12T0800,1781A,123.9483,47.3227,齐齐哈尔市,农牧车辆厂,颗粒物(PM10),73,95,126,46,56,79,,90,90,16,20,9,10,0.6,0.7
2024-04-12T0800,1783A,123.945,47.2988,齐齐哈尔市,市环境监测站,颗粒物(PM10),77,103,130,54,63,81,,89,89,15,20,6,6,0.5,0.6
2024-04-12T0800,3662A,123.6333,47.2075,齐齐哈尔市,富区青少年活动中心,颗粒物(PM10),75,100,129,44,61,64,,80,80,16,18,9,9,0.7,0.7
2024-04-12T0800,2591A,107.9783,26.5747,黔东南苗族侗族自治州,市环境监测站,,32,24,34,22,28,21,,30,30,12,12,3,2,0.6,0.6
2024-04-12T0800,2881A,107.8908,26.5311,黔东南苗族侗族自治州,凯里学院,,23,17,28,16,24,33,,34,34,11,9,2,3,0.4,0.5
2024-04-12T0800,2593A,107.5228,26.2403,黔南布依族苗族自治州,小围寨,,8,7,19,5,15,13,,18,18,9,9,4,4,0.5,0.6
2024-04-12T0800,3538A,107.5175,26.2978,黔南布依族苗族自治州,沙坝,,14,14,22,5,13,16,,16,16,7,11,4,4,0.4,0.5
2024-04-12T0800,2589A,104.9022,25.0925,黔西南布依族苗族自治州,场坝街,,45,39,38,31,28,59,,68,68,11,8,2,2,0.5,0.5
2024-04-12T0800,2590A,104.8811,25.0992,黔西南布依族苗族自治州,坪东大道,,46,46,43,29,31,64,,72,72,7,6,2,2,0.5,0.5
2024-04-12T0800,2502A,108.6236,21.9667,钦州市,市环保站,,48,48,56,29,26,34,,44,44,20,18,12,7,0.8,0.7
2024-04-12T0800,2503A,108.6549,21.9481,钦州市,沙埠小学,颗粒物(PM10),55,59,51,34,29,31,,39,39,25,18,16,9,0.9,0.8
2024-04-12T0800,2504A,108.5989,21.7431,钦州市,港区一小,颗粒物(PM10),55,59,62,24,25,49,,61,61,26,22,8,7,0.7,0.8
2024-04-12T0800,3404A,108.5959,21.9633,钦州市,北职校,细颗粒物(PM2.5),58,49,66,41,29,31,,40,40,23,20,13,6,0.8,0.7
2024-04-12T0800,1042A,119.5134,39.8207,秦皇岛市,北戴河环保局,细颗粒物(PM2.5),84,100,124,62,80,58,,83,83,30,31,8,11,0.5,0.7
2024-04-12T0800,1043A,119.7493,40.0116,秦皇岛市,第一关,细颗粒物(PM2.5),123,152,154,93,115,36,,61,61,52,41,12,14,0.9,1
2024-04-12T0800,1044A,119.5897,39.9499,秦皇岛市,监测站,细颗粒物(PM2.5),114,141,155,86,114,60,,80,80,45,41,16,15,1.1,1.2
2024-04-12T0800,1046A,119.5251,39.9041,秦皇岛市,建设大厦,细颗粒物(PM2.5),99,132,147,74,91,49,,80,80,45,34,16,14,0.9,1
2024-04-12T0800,3132A,119.610547,39.943889,秦皇岛市,文明里,细颗粒物(PM2.5),108,135,146,81,100,49,,77,77,52,49,14,12,1.1,1
2024-04-12T0800,1307A,120.6659,36.2403,青岛市,仰口,,48,48,50,29,26,72,,102,102,22,13,3,3,0.4,0.3
2024-04-12T0800,1310A,120.4134,36.0658,青岛市,市南区东部子站,颗粒物(PM10),51,51,44,24,16,55,,76,76,25,14,6,6,0.5,0.5
2024-04-12T0800,1311A,120.3664,36.1032,青岛市,四方区子站,,48,48,48,27,24,66,,88,88,30,19,4,4,0.5,0.5
2024-04-12T0800,1312A,120.2994,36.054,青岛市,市南区西部子站,,29,27,35,20,14,67,,77,77,19,17,6,6,0.6,0.6
2024-04-12T0800,1313A,120.4581,36.0858,青岛市,崂山区子站,,31,31,38,17,14,67,,72,72,20,14,6,6,0.4,0.4
2024-04-12T0800,1314A,120.1983,35.9608,青岛市,黄岛区子站,,22,22,37,10,19,60,,78,78,21,13,5,6,0.6,0.6
2024-04-12T0800,1315A,120.3999,36.3083,青岛市,城阳区子站,颗粒物(PM10),53,56,59,15,22,73,,100,100,40,25,8,8,0.6,0.6
2024-04-12T0800,1966A,120.0405,35.8735,青岛市,黄岛区4号,,36,36,38,14,15,70,,85,85,22,17,8,8,0.5,0.5
2024-04-12T0800,3362A,120.5014,36.4034,青岛市,即墨2号,颗粒物(PM10),58,65,64,26,28,62,,82,82,29,18,4,5,0.6,0.5
2024-04-12T0800,3642A,120.3503,36.0736,青岛市,市北区南部,,37,37,40,19,15,71,,90,90,23,18,6,7,0.6,0.5
2024-04-12T0800,3643A,120.3948,36.1805,青岛市,李沧区北部,,41,41,51,22,24,83,,96,96,22,23,8,8,0.5,0.5
2024-04-12T0800,1702A,113.0426,23.691,清远市,环保大楼,颗粒物(PM10),61,72,74,39,39,6,,40,40,42,24,7,6,1.0,1
2024-04-12T0800,1703A,113.0208,23.7106,清远市,凤城街办,细颗粒物(PM2.5),74,81,81,54,51,18,,49,49,47,37,8,7,0.8,0.7
2024-04-12T0800,3025A,113.0477,23.6344,清远市,技师学院,颗粒物(PM10),66,81,98,41,52,24,,25,25,40,39,6,7,0.6,0.7
2024-04-12T0800,3318A,112.9903,23.7403,清远市,清新太和,细颗粒物(PM2.5),72,81,72,52,42,20,,45,45,44,32,9,8,0.8,0.7
2024-04-12T0800,3455A,113.076,23.7198,清远市,清城东城,细颗粒物(PM2.5),92,98,87,68,75,15,,44,44,44,32,7,7,0.7,0.6
