timepoint,stationcode,longitude,latitude,area,positionname,primarypollutant,aqi,pm10,pm10_24h,pm2_5,pm2_5_24h,o3,o3_24h,o3_8h,o3_8h_24h,no2,no2_24h,so2,so2_24h,co,co_24h
2024-09-21T2100,2566A,102.1879,31.914,阿坝藏族羌族自治州,州农科所,,23,23,12,8,6,31,,48,48,12,10,7,7,0,0
2024-09-21T2100,2568A,102.2502,31.8896,阿坝藏族羌族自治州,马师校,,25,25,22,10,9,12,,42,39,13,6,5,4,0.4,0.4
2024-09-21T2100,3994A,102.2165,31.9024,阿坝藏族羌族自治州,马尔康中学西区,,39,,16,27,15,18,,46,44,14,8,5,5,0.5,0.5
2024-09-21T2100,2695A,80.292,41.1694,阿克苏地区,电视台,颗粒物(PM10),114,178,151,54,47,71,,120,120,50,37,4,4,1.1,0.9
2024-09-21T2100,2696A,80.2613,41.1551,阿克苏地区,艺术中心,颗粒物(PM10),99,148,130,47,44,70,,117,117,39,38,4,4,0.9,1.3
2024-09-21T2100,2204A,105.6467,38.8363,阿拉善盟,西城区西花园,,36,32,25,18,15,114,,131,131,18,13,9,9,0.8,0.7
2024-09-21T2100,2205A,105.6985,38.8411,阿拉善盟,蒙二幼,,34,31,22,15,11,107,,113,113,14,9,8,7,0.6,0.5
2024-09-21T2100,2206A,105.724,38.8516,阿拉善盟,环保局新楼,,36,28,22,13,10,113,,114,114,12,7,10,9,0.5,0.4
2024-09-21T2100,2708A,88.1264,47.8517,阿勒泰地区,市站,颗粒物(PM10),56,62,37,8,9,70,,82,53,32,23,7,7,0.3,0.2
2024-09-21T2100,2630A,80.1161,32.5,阿里地区,阿里监测站,,,,10,3,4,,,117,117,7,19,6,7,0.3,0.3
2024-09-21T2100,3192A,80.0903,32.5028,阿里地区,阿里藏医院,,42,6,12,3,3,134,,121,121,5,13,6,7,0.2,0.3
2024-09-21T2100,2642A,109.0318,32.6537,安康市,香溪洞,,25,12,12,3,5,79,,86,86,5,6,8,7,0.2,0.3
2024-09-21T2100,2643A,109.0281,32.6939,安康市,安康市监测站,,30,30,18,9,8,64,,85,82,12,10,10,10,0.4,0.5
2024-09-21T2100,2644A,109.0072,32.6975,安康市,汉滨区检察院,,21,21,16,3,7,66,,88,86,12,10,8,8,0.4,0.4
2024-09-21T2100,2291A,117.0809,30.5177,安庆市,环科院,,32,32,16,16,7,58,,53,53,11,9,7,7,0.5,0.5
2024-09-21T2100,2292A,117.0331,30.5119,安庆市,马山宾馆,,30,30,19,19,12,63,,57,57,11,9,8,9,0.4,0.5
2024-09-21T2100,2294A,116.9896,30.6145,安庆市,安庆大学,,32,32,16,20,10,64,,55,55,9,8,7,8,0.4,0.4
2024-09-21T2100,3173A,117.0598,30.5351,安庆市,市人大,,,,20,,12,,,51,51,12,8,7,7,0.5,0.7
2024-09-21T2100,3123A,105.9408,26.2431,安顺市,凤凰山,,20,20,45,11,36,64,,92,88,6,10,7,10,0.4,0.6
2024-09-21T2100,3124A,105.9439,26.2564,安顺市,金钟山,,25,25,71,14,45,68,,93,89,4,7,8,12,0.5,0.8
2024-09-21T2100,3125A,105.8983,26.2481,安顺市,娄家坡,,22,16,38,13,32,68,,93,90,6,9,6,9,0.5,0.7
2024-09-21T2100,1819A,114.3551,36.1017,安阳市,红庙街,,27,27,14,14,4,78,,98,97,9,11,5,4,0.4,0.4
2024-09-21T2100,1820A,114.361,36.0681,安阳市,银杏小区,,28,24,11,3,3,87,,100,99,7,10,3,3,0.2,0.3
2024-09-21T2100,3141A,114.3922,36.0878,安阳市,信访局,,27,26,11,3,1,84,,103,102,14,16,3,3,0.4,0.4
2024-09-21T2100,3669A,114.4705,36.0637,安阳市,左辅环卫站,,28,28,20,6,5,71,,94,89,22,15,3,3,0.7,0.7
2024-09-21T2100,3703A,114.2917,36.0949,安阳市,安钢职工学校,,29,29,17,12,8,71,,96,95,17,16,6,6,0.3,0.6
2024-09-21T2100,1748A,123.044,41.1196,鞍山市,深沟寺,,21,21,18,13,9,40,,70,65,19,14,5,4,0.5,0.4
2024-09-21T2100,1749A,123.011,41.0931,鞍山市,太阳城,,,23,18,12,9,,,71,70,19,15,16,7,,0.4
2024-09-21T2100,1750A,123.0485,41.1442,鞍山市,太平,,31,31,24,14,11,36,,68,62,30,21,9,7,0.6,0.5
2024-09-21T2100,1751A,122.9642,41.0971,鞍山市,铁西三道街,,47,47,33,32,15,10,,58,44,57,29,67,28,3.3,2.2
2024-09-21T2100,1752A,122.9341,41.0833,鞍山市,铁西工业园区,,24,24,23,11,10,42,,72,64,29,22,16,14,0.9,0.8
2024-09-21T2100,1753A,123.022,41.0821,鞍山市,明达新区,,27,27,17,13,9,44,,63,60,16,14,9,5,0.6,0.4
2024-09-21T2100,2195A,107.4212,40.761,巴彦淖尔市,附二中,颗粒物(PM10),59,67,38,29,18,59,,89,86,31,15,5,8,0.4,0.4
2024-09-21T2100,2196A,107.37,40.7372,巴彦淖尔市,市环保大楼,,40,40,30,8,14,56,,94,88,24,12,4,5,0.4,0.4
2024-09-21T2100,1956A,86.1472,41.7538,巴音郭楞蒙古自治州,孔雀公园,,,,107,,25,,,104,104,43,32,7,10,0.5,0.4
2024-09-21T2100,1957A,86.1972,41.7166,巴音郭楞蒙古自治州,棉纺厂,颗粒物(PM10),108,165,112,50,33,62,,100,98,37,27,5,6,0.6,0.5
2024-09-21T2100,1958A,86.2357,41.7173,巴音郭楞蒙古自治州,经济开发区,颗粒物(PM10),107,163,119,50,34,57,,109,99,28,14,7,7,0.4,0.3
2024-09-21T2100,2914A,106.7677,31.8794,巴中市,苏山坪,,22,13,12,6,4,68,,72,58,8,6,3,3,0.3,0.3
2024-09-21T2100,3182A,106.7656,31.8545,巴中市,丽阳花园,,31,31,17,18,9,16,,68,38,29,15,5,4,0.7,0.5
2024-09-21T2100,3183A,106.7418,31.8654,巴中市,圣泉水务公司,,25,25,12,14,7,3,,76,34,35,13,3,3,0.7,0.5
2024-09-21T2100,3616A,106.7616,31.8344,巴中市,市中心医院,,29,29,14,16,6,16,,64,38,23,13,5,5,0.6,0.5
2024-09-21T2100,2235A,122.7911,45.6077,白城市,洮北区环保局,,28,28,22,18,12,40,,72,60,25,15,5,6,0.2,0.3
2024-09-21T2100,2236A,122.8738,45.5725,白城市,市环保局,,49,49,40,12,9,18,,66,46,39,24,6,7,0.2,0.3
2024-09-21T2100,2231A,126.4219,41.9171,白山市,喜丰,,15,8,8,3,3,48,,68,46,5,6,4,6,0.4,0.4
2024-09-21T2100,2232A,126.4077,41.9419,白山市,环保局,,31,31,20,3,4,43,,62,39,4,7,8,6,0.5,0.5
2024-09-21T2100,2647A,104.1724,36.5446,白银市,第三小学,,32,32,50,16,22,89,,102,102,13,26,18,82,0.6,1
2024-09-21T2100,2648A,104.1465,36.5482,白银市,动力公司,,25,24,34,17,18,80,,103,102,20,22,15,33,0.4,0.9
2024-09-21T2100,2512A,106.6103,23.9011,百色市,市监测站,,21,21,32,14,17,31,,40,39,5,12,5,5,0.5,0.6
2024-09-21T2100,2513A,106.6538,23.8859,百色市,市中心血站,,26,26,42,17,21,30,,44,42,9,18,3,6,0.5,0.6
2024-09-21T2100,3406A,106.6085,23.8798,百色市,祈福高中,,28,28,43,14,18,27,,35,34,10,16,4,3,0.6,0.6
2024-09-21T2100,2270A,117.396,32.939,蚌埠市,工人疗养院,,42,42,30,17,8,102,,109,109,14,6,6,6,0.4,0.3
2024-09-21T2100,2271A,117.3605,32.9427,蚌埠市,百货大楼,,40,40,30,12,7,103,,109,109,11,6,6,6,0.4,0.3
2024-09-21T2100,2273A,117.4185,32.8911,蚌埠市,蚌埠学院,,35,34,22,17,10,112,,114,114,11,6,7,6,0.3,0.3
2024-09-21T2100,2274A,117.3533,32.9673,蚌埠市,淮上区政府,,39,39,27,18,12,92,,99,99,15,9,7,6,0.3,0.2
2024-09-21T2100,2275A,117.3145,32.8977,蚌埠市,高新区,,39,39,25,13,11,104,,106,106,16,10,9,22,0.3,0.3
2024-09-21T2100,3715A,117.3092,32.9314,蚌埠市,蚌埠田家炳中学,,41,41,33,13,10,98,,102,102,12,10,5,5,0.4,0.3
2024-09-21T2100,1585A,109.8756,40.6532,包头市,市环境监测站,,27,25,9,8,6,33,,82,74,54,16,5,5,0.5,0
2024-09-21T2100,1587A,109.9991,40.5842,包头市,包头八中,,19,16,15,3,4,45,,80,75,37,16,4,3,0.5,0.4
2024-09-21T2100,1588A,109.8538,40.6821,包头市,青山宾馆,,18,17,7,3,3,56,,80,70,28,12,4,5,0.4,0.5
2024-09-21T2100,1589A,109.8642,40.6288,包头市,惠龙物流,,18,10,12,3,4,50,,81,76,36,14,6,5,0.5,0.4
2024-09-21T2100,1590A,110.0377,40.5546,包头市,东河鸿龙湾,,20,18,11,3,5,40,,76,70,39,14,9,9,0.5,0.4
2024-09-21T2100,3283A,109.9154,40.5685,包头市,滨河大厦,颗粒物(PM10),51,52,12,25,5,40,,81,74,55,18,10,7,0.9,0.5
2024-09-21T2100,3419A,109.9447,40.6261,包头市,包头市委党校,,25,14,12,6,4,33,,79,72,50,15,4,4,0.4,0.4
2024-09-21T2100,3683A,109.8331,40.6576,包头市,昆区政府,,17,12,7,3,2,53,,78,75,33,13,4,4,0.4,0.3
2024-09-21T2100,1930A,107.185,34.3063,宝鸡市,庙沟村,,29,13,14,3,6,92,,106,104,4,6,8,8,0.2,0.3
2024-09-21T2100,1931A,107.0708,34.3017,宝鸡市,竹园沟,,24,24,16,10,6,54,,103,92,14,9,7,7,0.4,0.4
2024-09-21T2100,1932A,107.1906,34.3672,宝鸡市,三陆医院,,26,26,34,3,9,42,,106,95,34,23,6,8,0.5,0.5
2024-09-21T2100,1933A,107.1431,34.3547,宝鸡市,监测站,,31,31,22,8,6,41,,101,88,26,14,6,6,0.7,0.6
2024-09-21T2100,1934A,107.1186,34.3739,宝鸡市,技工学校,,30,,24,21,11,50,,102,94,21,16,8,8,0.5,0.5
2024-09-21T2100,1935A,107.3906,34.3528,宝鸡市,陈仓区环保局家属楼,,39,39,22,13,12,41,,106,92,34,22,8,10,0.6,0.5
2024-09-21T2100,1936A,107.2058,34.3497,宝鸡市,文理学院,,28,28,22,3,7,49,,104,93,27,17,8,8,0.4,0.4
2024-09-21T2100,1937A,107.2386,34.3622,宝鸡市,三迪小学,,25,23,23,12,13,36,,105,92,50,25,8,8,0.5,0.5
2024-09-21T2100,1051A,115.493,38.8632,保定市,游泳馆,,28,28,18,3,0,71,,104,98,14,10,3,3,0.2,0.2
2024-09-21T2100,1052A,115.5213,38.8959,保定市,华电二区,,33,33,14,13,8,44,,96,86,27,9,1,2,0,0
2024-09-21T2100,1053A,115.4713,38.9108,保定市,接待中心,,28,28,18,8,4,61,,97,90,22,14,2,2,0,0
2024-09-21T2100,1054A,115.4612,38.8416,保定市,地表水厂,,33,33,24,7,3,68,,99,93,18,16,1,2,0,0
2024-09-21T2100,3581A,115.31981,38.95208,保定市,满城区生态环境分局,,41,41,11,9,4,47,,56,,39,16,2,2,0.3,0.2
2024-09-21T2100,3582A,115.47694,38.76408,保定市,清苑区第二中学,,39,39,19,18,8,56,,100,91,25,14,3,3,0.3,0.3
2024-09-21T2100,3583A,115.62909,39.02311,保定市,徐水物探局,,18,18,9,3,0,49,,96,86,28,14,3,2,0.4,0.4
2024-09-21T2100,4004A,115.4202,38.8656,保定市,双鹰农机,,30,30,17,14,7,74,,106,101,14,13,3,2,0.2,0.2
2024-09-21T2100,4034A,115.5150,38.8590,保定市,植保所站,,31,31,16,12,8,63,,104,96,20,8,2,2,0,0
2024-09-21T2100,2594A,99.1678,25.1081,保山市,市环境监测站,,47,47,37,26,20,71,,103,95,14,10,9,8,0.6,0.5
2024-09-21T2100,2595A,99.1711,25.1328,保山市,市环保局,,44,44,40,11,17,78,,108,102,8,8,7,7,0.4,0.3
2024-09-21T2100,1867A,109.1436,21.4086,北海市,海滩公园,,20,19,26,7,13,61,,87,81,7,11,4,5,0.6,0.6
2024-09-21T2100,1868A,109.0981,21.4661,北海市,新市环保局,,28,,23,19,17,59,,92,81,8,10,4,5,0.8,0.8
2024-09-21T2100,1869A,109.1778,21.5233,北海市,北海工业园,,18,16,29,12,18,50,,84,75,10,11,7,8,0.5,0.6
2024-09-21T2100,3400A,109.1911,21.4415,北海市,龙潭自来水厂,,19,19,24,12,19,45,,79,73,6,9,4,5,0.6,0.7
2024-09-21T2100,1001A,116.3621,39.8784,北京市,万寿西宫,,18,7,4,3,1,57,,77,72,17,15,3,3,0.4,0.3
2024-09-21T2100,1002A,116.2202,40.2915,北京市,定陵,,15,6,4,3,2,46,,66,61,3,4,3,3,0.2,0.2
2024-09-21T2100,1003A,116.4174,39.9289,北京市,东四,,21,8,4,3,2,67,,81,78,11,10,4,4,0.3,0.4
2024-09-21T2100,1004A,116.4072,39.8863,北京市,天坛,,20,6,4,3,1,61,,79,75,15,13,3,2,0.2,0.2
2024-09-21T2100,1005A,116.462,39.9365,北京市,农展馆,,20,6,3,3,1,61,,73,70,10,12,4,3,0.2,0.2
2024-09-21T2100,1006A,116.3392,39.9295,北京市,官园,,17,7,4,3,1,53,,73,68,18,14,5,5,0.3,0.3
2024-09-21T2100,1007A,116.2878,39.9611,北京市,海淀万柳,,20,6,4,3,1,61,,73,69,10,14,2,2,0.1,0.2
2024-09-21T2100,1008A,116.6636,40.135,北京市,顺义新城,,14,6,3,3,1,43,,70,64,17,6,3,3,0.2,0.2
2024-09-21T2100,1009A,116.6275,40.3275,北京市,怀柔镇,,20,6,4,3,2,62,,76,72,5,8,3,3,0.2,0.3
2024-09-21T2100,1010A,116.2296,40.217,北京市,昌平镇,,19,7,5,3,2,58,,69,66,6,13,3,3,0.3,0.3
2024-09-21T2100,1011A,116.3966,39.9821,北京市,奥体中心,,17,9,6,3,1,54,,58,58,14,17,1,2,0.2,0.3
2024-09-21T2100,1012A,116.184,39.9136,北京市,古城,,21,6,5,3,2,67,,72,71,5,14,2,2,0.2,0.3
2024-09-21T2100,3281A,115.9718,40.4529,北京市,延庆夏都,,22,6,3,3,1,68,,79,75,2,5,3,3,0.2,0.2
2024-09-21T2100,3417A,117.0709,40.1465,北京市,平谷新城,,18,10,6,7,3,56,,83,77,13,6,3,3,0.2,0.1
2024-09-21T2100,3418A,116.8336,40.4095,北京市,密云新城,,,,10,2,2,67,,76,74,2,2,3,3,0.2,0.2
2024-09-21T2100,3671A,116.088,39.9726,北京市,门头沟三家店,,19,7,5,3,1,59,,68,63,7,9,5,5,0.1,0.2
2024-09-21T2100,3672A,116.1541,39.8204,北京市,丰台云岗,,18,6,4,3,2,56,,70,64,10,10,3,3,0.3,0.3
2024-09-21T2100,3673A,116.6804,39.9081,北京市,通州东关,,17,10,4,3,1,54,,73,68,22,14,3,3,0.2,0.2
2024-09-21T2100,3674A,115.9577,39.7603,北京市,房山燕山,,20,6,2,3,1,61,,71,68,3,4,3,3,0.1,0.2
2024-09-21T2100,3675A,116.4672,39.7733,北京市,大兴旧宫,,21,6,3,3,1,65,,79,76,8,11,3,3,0.2,0.2
2024-09-21T2100,3694A,115.986,40.4563,北京市,延庆石河营,,21,6,3,3,1,65,,76,72,5,6,3,3,0.2,0.2
2024-09-21T2100,3695A,116.6151,40.3053,北京市,怀柔新城,,20,6,3,3,2,62,,77,74,2,5,3,3,0.1,0.2
2024-09-21T2100,3696A,116.2545,39.8768,北京市,丰台小屯,,20,7,7,3,2,62,,70,68,8,11,3,3,0.3,0.4
2024-09-21T2100,3697A,116.84,40.3844,北京市,密云镇,,21,6,4,3,2,65,,77,74,4,7,2,2,0.3,0.4
2024-09-21T2100,1761A,123.8275,41.3064,本溪市,大峪,,16,14,15,3,4,51,,64,63,12,11,9,8,0.9,0.7
2024-09-21T2100,1762A,123.7567,41.3325,本溪市,溪湖,,17,17,14,9,6,53,,66,65,17,12,7,7,0.6,0.6
2024-09-21T2100,1763A,123.7169,41.3094,本溪市,彩屯,,26,26,22,14,11,22,,55,51,43,24,12,8,1.0,0.8
2024-09-21T2100,1764A,123.7669,41.2864,本溪市,东明,,24,24,18,10,6,44,,63,62,27,15,7,6,0.9,0.6
2024-09-21T2100,1765A,123.7992,41.2664,本溪市,新立屯,,20,20,16,6,4,41,,70,67,16,13,5,5,0.7,0.6
2024-09-21T2100,1766A,123.8142,41.3472,本溪市,威宁,,33,33,17,9,9,23,,64,56,39,15,8,8,0.9,0.8
2024-09-21T2100,2587A,105.2864,27.3125,毕节市,八中,,23,21,16,16,14,57,,88,77,8,7,6,5,0.5,0.4
2024-09-21T2100,2588A,105.31,27.2944,毕节市,师专,,22,18,17,13,13,69,,97,80,12,9,8,6,0.5,0.5
2024-09-21T2100,3537A,105.3631,27.3533,毕节市,长征村,,24,16,18,12,9,75,,100,84,4,4,8,7,0.5,0.5
2024-09-21T2100,1629A,118.0018,37.3617,滨州市,第二水厂,,29,29,14,12,3,66,,96,94,25,11,6,5,0.4,0.3
2024-09-21T2100,1630A,117.9776,37.393,滨州市,北中新校,,24,24,18,12,4,46,,95,88,21,6,6,7,0.7,0.4
2024-09-21T2100,3514A,117.9378,37.3956,滨州市,中海酒店,,24,24,13,14,7,39,,92,86,43,10,5,4,0.7,0.5
2024-09-21T2100,3515A,117.9378,37.3553,滨州市,开发区一中,,44,44,18,19,4,56,,92,89,30,12,7,6,0.6,0.5
2024-09-21T2100,3516A,118.0917,37.694,滨州市,金海六路,,46,41,16,12,2,6,,97,79,91,14,4,3,0.8,0.7
2024-09-21T2100,4028A,117.9956,37.3753,滨州市,滨州市西街道办事处,,31,31,11,14,8,76,,96,94,19,9,6,6,0.8,0.5
2024-09-21T2100,2311A,115.8072,33.8399,亳州市,污水处理厂,,28,28,31,3,7,89,,108,107,19,13,11,3,0.2,0.3
2024-09-21T2100,2312A,115.7789,33.8518,亳州市,三国揽胜宫,,31,29,26,14,14,99,,107,107,10,8,4,3,0.3,0.3
2024-09-21T2100,3332A,115.7633,33.8034,亳州市,亳州学院,,33,28,31,3,10,104,,111,111,12,10,3,3,0.3,0.3
2024-09-21T2100,2693A,82.0485,44.8556,博尔塔拉蒙古自治州,市党校,,33,31,50,22,17,104,,124,123,11,8,4,6,0.3,0.4
2024-09-21T2100,2694A,82.0806,44.8969,博尔塔拉蒙古自治州,市环保局,颗粒物(PM10),54,57,61,15,18,89,,120,117,20,16,6,6,0.4,0.6
2024-09-21T2100,1071A,116.8842,38.2991,沧州市,沧县城建局,,29,29,18,17,9,55,,96,89,34,19,1,2,0.2,0.3
2024-09-21T2100,1072A,116.8584,38.3254,沧州市,电视转播站,,26,26,19,9,5,68,,102,96,32,21,4,4,0.2,0.3
2024-09-21T2100,1073A,116.8709,38.3228,沧州市,市环保局,,24,24,20,16,16,50,,96,87,34,17,1,2,0.2,0.2
2024-09-21T2100,3324A,116.8136,38.3004,沧州市,河北水利电力学院,,23,17,11,9,10,72,,96,93,21,17,1,2,0.4,0.3
2024-09-21T2100,2622A,97.1806,31.1273,昌都市,昌都监测站,,,,5,,4,36,,66,59,12,5,7,7,,0.8
2024-09-21T2100,3719A,97.1714,31.1406,昌都市,昌都会议中心,,22,22,6,6,5,57,,58,58,3,4,8,8,0.5,0.6
2024-09-21T2100,2690A,88.1236,43.8886,昌吉回族自治州,天山天池,,32,32,23,12,6,83,,112,106,5,5,23,19,0.5,0.5
2024-09-21T2100,2692A,87.2717,44.0297,昌吉回族自治州,新区政务中心,颗粒物(PM10),51,51,63,17,23,91,,120,120,29,32,7,8,0.6,0.7
2024-09-21T2100,3613A,87.3095,44.0142,昌吉回族自治州,亚心广场,颗粒物(PM10),59,68,80,12,15,88,,115,115,40,39,3,6,0.7,0.7
2024-09-21T2100,1119A,125.3325,43.9166,长春市,食品厂,,23,23,17,13,8,30,,55,49,30,15,8,4,0.4,0.2
2024-09-21T2100,1120A,125.2863,43.9027,长春市,客车厂,,23,23,17,15,9,41,,51,49,23,16,6,6,0.3,0.2
2024-09-21T2100,1121A,125.2841,43.8463,长春市,邮电学院,,23,23,17,12,6,39,,52,50,24,15,8,6,0.3,0.2
2024-09-21T2100,1122A,125.3716,43.8772,长春市,劳动公园,,29,29,25,9,8,35,,58,52,34,20,11,8,0.2,0.2
2024-09-21T2100,1123A,125.3297,43.8805,长春市,园林处,,23,23,18,8,7,38,,54,51,30,17,7,5,0.3,0.2
2024-09-21T2100,1124A,125.4605,43.79,长春市,净月潭,,24,24,17,6,5,18,,52,44,39,12,6,6,0.3,0.3
2024-09-21T2100,1126A,125.3863,43.8447,长春市,经开区环卫处,,28,28,20,10,6,28,,52,46,28,19,8,8,0.4,0.3
2024-09-21T2100,1127A,125.245,43.7783,长春市,高新区管委会,,36,36,21,15,7,24,,52,43,40,19,6,6,0.4,0.3
2024-09-21T2100,1128A,125.1761,43.8325,长春市,岱山公园,,38,38,25,10,8,12,,46,34,51,25,7,5,0.4,0.5
2024-09-21T2100,1335A,113.0833,28.2325,长沙市,经开区环保局,,42,42,40,6,14,92,,88,88,11,12,1,2,0.3,0.4
2024-09-21T2100,1336A,112.8872,28.2189,长沙市,高开区环保局,,45,45,51,9,26,94,,91,91,4,8,4,4,0.3,0.4
2024-09-21T2100,1337A,113.0792,28.2053,长沙市,马坡岭,,42,42,43,3,16,98,,94,94,9,12,4,3,0.4,0.6
2024-09-21T2100,1338A,112.9394,28.19,长沙市,湖南师范大学,,44,44,50,8,22,90,,90,90,6,7,5,4,0.3,0.4
2024-09-21T2100,1339A,113.0178,28.1322,长沙市,雨花区环保局,,39,39,41,19,21,88,,88,88,11,13,5,5,0.4,0.5
2024-09-21T2100,1340A,112.9792,28.2597,长沙市,伍家岭,,41,41,47,6,23,82,,86,86,9,9,4,2,0.6,0.7
2024-09-21T2100,1341A,113.0014,28.1944,长沙市,火车新站,颗粒物(PM10),54,57,46,12,23,85,,85,85,6,10,4,4,0.4,0.6
2024-09-21T2100,1342A,112.9844,28.1178,长沙市,天心区环保局,,42,42,47,8,14,82,,82,82,9,10,3,3,0.3,0.4
2024-09-21T2100,1343A,112.8908,28.1308,长沙市,湖南中医药大学,颗粒物(PM10),51,52,62,3,24,98,,96,96,5,9,5,6,0.6,0.7
2024-09-21T2100,1344A,112.9581,28.3611,长沙市,沙坪,,30,20,49,12,16,96,,94,94,10,11,2,2,0.5,0.6
2024-09-21T2100,1727A,113.1147,36.1547,长治市,清华站,,25,20,12,14,6,77,,107,103,12,9,8,8,0.7,0.6
2024-09-21T2100,1728A,113.1031,36.1989,长治市,监测站,,30,30,15,12,6,73,,99,96,14,12,10,10,0.6,0.7
2024-09-21T2100,1730A,113.0886,36.2125,长治市,审计局,,24,22,13,12,7,76,,100,96,13,13,8,8,0.5,0.4
2024-09-21T2100,1731A,113.0844,36.1856,长治市,长治八中,,28,28,15,15,8,76,,99,96,12,10,8,8,0.7,0.6
2024-09-21T2100,2845A,113.1569,36.1911,长治市,德盛苑,,25,23,12,9,6,77,,108,104,6,7,4,5,0.6,0.6
2024-09-21T2100,3568A,113.06,36.0464,长治市,向阳小学,,49,49,31,25,18,74,,109,104,13,10,8,8,0.6,0.4
2024-09-21T2100,3569A,112.8792,36.3144,长治市,屯留一中,,37,37,25,12,13,66,,104,95,21,16,10,11,1.0,0.8
2024-09-21T2100,3570A,113.235,36.3489,长治市,潞城四中,,33,33,16,17,12,75,,105,99,12,8,6,7,1.1,0.7
2024-09-21T2100,1854A,111.6975,28.9703,常德市,市二中,,49,49,66,16,23,104,,114,114,8,10,9,11,0.4,0.6
2024-09-21T2100,3138A,111.7153,29.0289,常德市,武陵区永安,,,48,57,14,20,100,,111,111,10,9,10,10,,0.6
2024-09-21T2100,3139A,111.6892,28.9881,常德市,鼎城区玉霞,,49,49,66,14,23,105,,115,115,8,10,10,10,0.5,0.6
2024-09-21T2100,3140A,111.6625,29.0531,常德市,武陵区长庚,,48,48,58,11,22,101,,110,110,9,10,10,11,0.4,0.5
2024-09-21T2100,1196A,119.9633,31.762,常州市,市监测站,,,,9,13,10,,,78,78,6,6,6,5,,0.5
2024-09-21T2100,1200A,119.9468,31.7069,常州市,武进监测站,,27,26,16,6,7,84,,76,76,5,4,8,6,0.5,0.6
2024-09-21T2100,1201A,119.9255,31.9087,常州市,安家,,25,23,21,14,9,78,,76,76,14,11,8,7,0.3,0.5
2024-09-21T2100,3002A,119.9805,31.8174,常州市,行政中心,,26,23,22,10,6,81,,77,77,9,10,3,9,0.3,0.4
2024-09-21T2100,3003A,120.0522,31.7748,常州市,经开区,,26,26,22,10,7,80,,78,78,10,9,10,8,0.3,0.3
2024-09-21T2100,3010A,119.9025,31.7964,常州市,钟楼,,22,14,9,11,6,68,,66,66,14,13,8,7,0.0,0.2
2024-09-21T2100,3429A,119.8598,31.7066,常州市,武进经发区,,33,33,22,15,13,69,,71,71,17,8,10,9,0.4,0.4
2024-09-21T2100,3430A,119.5826,31.7245,常州市,金坛城区,,46,46,22,16,13,78,,75,75,18,12,9,8,0.5,0.5
2024-09-21T2100,2220A,120.4318,41.5881,朝阳市,西梁,颗粒物(PM10),52,53,16,32,7,13,,68,52,45,11,12,6,0.6,0.3
2024-09-21T2100,2221A,120.4521,41.5646,朝阳市,河畔小区,,21,21,12,9,5,23,,66,58,36,7,10,8,0.6,0.4
2024-09-21T2100,2222A,120.4176,41.5648,朝阳市,八里堡,颗粒物(PM10),59,68,23,15,9,6,,67,50,56,18,9,8,0.9,0.5
2024-09-21T2100,2223A,120.3806,41.5969,朝阳市,农业园区,,19,17,13,13,6,25,,65,52,26,8,6,7,0.4,0.3
2024-09-21T2100,1705A,116.6367,23.6719,潮州市,西园路,,36,36,15,3,2,38,,56,51,16,8,3,3,0.6,0.5
2024-09-21T2100,3026A,116.6183,23.6608,潮州市,市政府,,21,21,14,7,6,49,,65,60,14,6,8,4,0.8,0.7
2024-09-21T2100,4036A,116.6461,23.6761,潮州市,金山,,22,22,15,12,12,44,,69,64,15,7,13,8,0.7,0.5
2024-09-21T2100,2472A,113.0073,25.9061,郴州市,马头岭,,45,45,43,13,16,63,,56,56,6,10,8,10,0.2,0.2
2024-09-21T2100,2473A,113.0116,25.8226,郴州市,市职中,,42,42,33,29,26,61,,57,57,9,14,4,5,0.5,0.7
2024-09-21T2100,2474A,113.0161,25.8001,郴州市,兴隆步行街,,42,42,37,15,22,58,,54,54,11,11,4,6,0.5,0.7
2024-09-21T2100,2475A,113.0383,25.8071,郴州市,市审计局,,40,40,29,27,24,55,,51,51,12,11,3,7,0.7,0.8
2024-09-21T2100,2476A,113.0348,25.7759,郴州市,市环保局,,43,43,30,29,26,49,,48,48,10,12,4,7,0.7,0.8
2024-09-21T2100,1431A,103.9728,30.7236,成都市,金泉两河,,34,34,19,3,4,73,,136,128,23,11,3,4,0.5,0.4
2024-09-21T2100,1432A,104.176,30.6872,成都市,十里店,,27,27,11,3,5,66,,116,108,35,22,2,2,0.3,0.2
2024-09-21T2100,1433A,104.079,30.5706,成都市,三瓦窑,,29,29,18,6,5,73,,131,123,23,11,2,3,0.4,0.3
2024-09-21T2100,1434A,104.1114,30.63,成都市,沙河铺,,26,26,22,3,6,72,,129,120,23,12,4,4,0.6,0.5
2024-09-21T2100,1437A,104.0786,30.6531,成都市,君平街,,27,25,19,18,6,86,,131,126,15,13,2,4,0.4,0.4
2024-09-21T2100,2880A,104.0239,30.65639,成都市,大石西路,,28,25,19,7,6,88,,131,127,16,14,5,6,0.5,0.5
2024-09-21T2100,3136A,104.2725,30.5589,成都市,龙泉驿区区政府,,30,17,11,9,4,94,,120,114,11,14,4,4,0.4,0.4
2024-09-21T2100,3357A,104.0106,30.6931,成都市,金博路,,27,27,16,10,5,82,,132,125,13,15,3,3,0.4,0.4
2024-09-21T2100,3359A,104.0578,30.5225,成都市,华阳,,25,14,18,7,4,79,,121,116,14,11,3,4,0.4,0.3
2024-09-21T2100,3487A,104.2394,30.5319,成都市,车城东七路,,38,38,15,17,7,93,,121,116,14,13,3,3,0.4,0.4
2024-09-21T2100,3488A,104.3853,30.7453,成都市,青白江技师分院,,29,18,13,3,4,91,,119,109,17,19,2,3,0.5,0.4
2024-09-21T2100,3489A,104.0789,30.4072,成都市,科学城,,30,21,18,10,8,96,,130,126,11,12,4,4,0.4,0.4
2024-09-21T2100,4011A,103.8506,30.6947,成都市,光华大道三段,,39,39,21,10,9,86,,154,146,30,13,2,3,0.6,0.5
2024-09-21T2100,1062A,117.9531,40.9081,承德市,铁路,,19,19,13,10,5,13,,69,52,28,14,7,8,0.3,0.2
2024-09-21T2100,1063A,117.9392,40.9763,承德市,中国银行,,27,27,11,3,3,15,,69,48,20,12,5,5,0.4,0.3
2024-09-21T2100,1064A,117.9503,40.928,承德市,开发区,,24,24,18,13,10,28,,71,57,13,11,6,6,0.2,0.2
2024-09-21T2100,1065A,117.8051,40.9655,承德市,文化中心,,40,40,16,14,5,10,,68,51,29,13,7,7,0.3,0.2
2024-09-21T2100,1066A,117.9268,41.0026,承德市,离宫,,30,30,11,20,13,18,,55,38,9,4,3,2,0.3,0.3
2024-09-21T2100,2314A,117.47,30.6618,池州市,池州学院,,27,27,25,13,13,59,,47,47,12,10,5,5,0.4,0.5
2024-09-21T2100,3237A,117.4918,30.6617,池州市,展览馆,,26,26,19,14,10,67,,51,51,8,9,4,5,0.5,0.6
2024-09-21T2100,3333A,117.5627,30.695,池州市,第八中学,,31,31,29,10,11,61,,56,56,14,11,5,4,0.6,0.6
2024-09-21T2100,3334A,117.5038,30.6243,池州市,第十二中学,,31,31,24,14,13,65,,52,52,14,12,5,5,0.6,0.7
2024-09-21T2100,1744A,118.9233,42.2816,赤峰市,松山一中,,15,11,10,3,3,45,,68,62,22,14,9,9,0.2,0.2
2024-09-21T2100,1745A,118.9576,42.2728,赤峰市,哈达街,,18,12,9,9,4,57,,70,65,13,12,9,7,0.3,0.3
2024-09-21T2100,1746A,118.8788,42.2554,赤峰市,天义路,,22,22,19,3,5,28,,64,53,29,13,7,6,0.1,0.1
2024-09-21T2100,3058A,119.2658,42.0353,赤峰市,银河街,,28,28,18,14,8,45,,69,62,16,12,19,13,0.4,0.4
2024-09-21T2100,3286A,118.9359,42.3147,赤峰市,桥北物流园区,,18,18,10,10,7,57,,69,64,13,13,8,7,0.4,0.5
2024-09-21T2100,2521A,107.3476,22.4136,崇左市,市环保局江州分局,细颗粒物(PM2.5),58,51,31,41,19,26,,60,50,10,6,2,2,0.8,0.7
2024-09-21T2100,2522A,107.3702,22.3707,崇左市,城南新区,,18,16,28,12,17,46,,67,59,5,6,2,2,0.8,0.8
2024-09-21T2100,2298A,118.3093,32.3153,滁州市,老年大学,,32,32,25,12,13,93,,90,90,13,6,4,6,0.2,0.2
2024-09-21T2100,2299A,118.3244,32.2786,滁州市,人大宾馆,,38,38,30,10,13,99,,93,93,10,6,7,6,0.4,0.4
2024-09-21T2100,3207A,118.3118,32.3038,滁州市,市政府原办公楼,,34,34,24,20,18,94,,88,88,14,8,7,6,0.3,0.3
2024-09-21T2100,3331A,118.3267,32.2634,滁州市,图书馆,,,,26,12,13,101,,92,92,12,6,6,5,0.2,0.2
2024-09-21T2100,2605A,101.5482,25.0441,楚雄彝族自治州,州环境监测站,,25,,30,17,20,74,,92,88,9,23,11,21,0.7,0.7
2024-09-21T2100,2606A,101.538,25.0492,楚雄彝族自治州,市经济开发区,,35,33,31,24,22,71,,92,86,13,21,10,12,0.7,0.7
2024-09-21T2100,2548A,107.5277,31.2827,达州市,达州职业技术学院,,19,16,21,13,7,54,,68,65,15,13,8,9,0.5,0.5
2024-09-21T2100,2549A,107.5086,31.2186,达州市,市环境监测站,,20,20,21,3,1,64,,70,68,12,14,12,9,0.4,0.4
2024-09-21T2100,2550A,107.4988,31.2132,达州市,凤凰小区,,22,17,15,7,4,69,,78,76,14,11,12,9,0.3,0.3
2024-09-21T2100,2551A,107.5082,31.1986,达州市,达县机关宾馆,,19,19,17,3,5,60,,74,72,20,15,10,7,0.3,0.3
2024-09-21T2100,2552A,107.4644,31.2124,达州市,市政中心,,26,26,20,7,4,63,,73,72,15,12,7,6,0.3,0.3
2024-09-21T2100,2614A,100.1542,25.7054,大理白族自治州,大理市环境监测站,,43,43,33,25,22,35,,100,88,37,22,8,8,0.7,0.6
2024-09-21T2100,2615A,100.2171,25.5811,大理白族自治州,大理古城,,25,22,29,17,19,59,,93,86,17,11,8,8,0.7,0.6
2024-09-21T2100,1109A,121.612,38.9741,大连市,甘井子,,24,24,38,3,8,66,,77,76,20,19,7,7,0.5,0.3
2024-09-21T2100,1110A,121.565,38.9511,大连市,周水子,,20,15,12,3,6,62,,72,72,15,14,7,7,0.6,0.6
2024-09-21T2100,1111A,121.5637,38.8845,大连市,星海三站,,20,19,14,6,8,63,,79,78,11,8,6,6,0.2,0.2
2024-09-21T2100,1112A,121.6302,38.9117,大连市,青泥洼桥,,20,16,16,3,8,62,,74,73,16,14,6,6,0.2,0.4
2024-09-21T2100,1113A,121.6251,38.8638,大连市,傅家庄,,20,13,43,3,6,64,,75,74,11,11,6,6,0.1,0.1
2024-09-21T2100,1114A,121.5213,38.8661,大连市,七贤岭,,23,19,16,3,6,73,,84,84,10,9,6,6,0.5,0.5
2024-09-21T2100,1115A,121.2529,38.8061,大连市,旅顺,,,14,15,3,7,76,,85,84,11,8,,4,0.3,0.4
2024-09-21T2100,1116A,121.7485,39.1311,大连市,金州,,20,16,16,3,9,61,,76,75,16,15,10,7,0.4,0.6
2024-09-21T2100,1117A,121.7811,39.0496,大连市,开发区,,20,20,19,3,9,64,,73,73,9,10,6,7,0.3,0.5
2024-09-21T2100,1118A,121.9762,39.0631,大连市,双D港,,22,21,26,6,9,68,,85,84,15,16,7,6,0.5,0.6
2024-09-21T2100,1789A,124.81117,46.03138,大庆市,大同区,细颗粒物(PM2.5),59,55,29,42,20,38,,65,49,24,17,4,4,0.9,0.6
2024-09-21T2100,1790A,125.129,46.533,大庆市,龙凤区,颗粒物(PM10),59,67,34,30,16,25,,62,47,42,24,5,2,0.6,0.4
2024-09-21T2100,1791A,124.902,46.408,大庆市,红岗区,,40,40,35,12,13,44,,68,59,29,24,11,7,0.3,0.4
2024-09-21T2100,1792A,125.153,46.586,大庆市,萨尔图区,颗粒物(PM10),64,77,21,31,9,14,,59,42,59,20,10,5,0.6,0.3
2024-09-21T2100,1793A,124.9042,46.6215,大庆市,让胡路区,,46,46,41,23,17,6,,59,41,48,26,5,5,0.5,0.2
2024-09-21T2100,3481A,125.141,46.634,大庆市,萨区政府监测点,,41,41,15,18,8,14,,61,42,49,16,5,5,0.6,0.4
2024-09-21T2100,1723A,113.2994,40.0758,大同市,云冈宾馆,,20,20,8,7,4,53,,76,71,30,14,7,7,0.5,0.6
2024-09-21T2100,1724A,113.3444,40.0917,大同市,大同大学,,16,11,8,7,5,50,,75,71,24,10,7,11,0.3,0.2
2024-09-21T2100,1725A,113.2661,40.1269,大同市,安家小村,,19,19,11,11,6,54,,74,66,23,11,10,11,0.3,0.4
2024-09-21T2100,1726A,113.2711,40.0844,大同市,教育学院,,37,37,13,24,7,17,,70,62,62,17,7,7,0.7,0.4
2024-09-21T2100,3282A,113.3397,40.0597,大同市,大同市卫生学校,,20,,8,14,6,54,,76,73,24,8,7,7,0.3,0.4
2024-09-21T2100,3565A,113.1367,40.1122,大同市,云冈站,,16,16,14,3,5,25,,75,64,22,10,11,10,0.5,0.5
2024-09-21T2100,3566A,113.1186,40.2556,大同市,图书馆,,21,21,11,3,6,27,,73,60,10,9,8,9,0.4,0.4
2024-09-21T2100,3567A,113.5931,40.0461,大同市,区一中,,19,6,7,3,4,60,,81,73,8,7,9,8,0.5,0.4
2024-09-21T2100,3676A,113.2802,40.0995,大同市,第二人民医院,,44,44,10,16,6,31,,75,66,39,11,10,10,0.4,0.4
2024-09-21T2100,2269A,124.1069,50.4097,大兴安岭地区,科技局,,30,30,13,20,12,41,,61,54,8,5,5,6,0.3,0.3
2024-09-21T2100,3663A,124.1164,50.4278,大兴安岭地区,红旗社区,,44,44,18,28,11,0,,57,39,36,14,2,2,0.5,0.4
2024-09-21T2100,1600A,124.3303,40.0625,丹东市,江湾东路,,15,6,6,3,2,47,,54,52,6,5,9,8,0.5,0.5
2024-09-21T2100,1601A,124.4256,40.1503,丹东市,临江后街,,17,7,4,3,2,52,,58,57,4,4,6,6,0.4,0.4
2024-09-21T2100,1602A,124.3933,40.1461,丹东市,元宝山,,15,6,5,3,4,46,,51,50,4,4,3,3,0.4,0.3
2024-09-21T2100,1603A,124.3633,40.1092,丹东市,民主桥,,15,12,11,3,3,45,,53,51,11,8,4,4,0.5,0.4
2024-09-21T2100,3541A,109.5726,19.5167,儋州市,第一中学子站,,15,9,15,3,6,47,,59,57,3,4,4,5,0.5,0.5
2024-09-21T2100,3542A,109.5567,19.5187,儋州市,东坡学校子站,,16,13,14,3,6,49,,63,61,3,5,4,4,0.5,0.5
2024-09-21T2100,2616A,98.5842,24.428,德宏傣族景颇族自治州,德宏州监测站,,48,48,47,24,30,78,,113,107,9,12,6,10,0.6,0.6
2024-09-21T2100,3677A,98.5881,24.4368,德宏傣族景颇族自治州,芒市人民政府综合楼,,40,40,41,18,29,85,,115,107,7,11,6,8,0.5,0.6
2024-09-21T2100,1901A,104.4239,31.1208,德阳市,东山公园,,30,28,18,9,6,94,,117,114,10,9,3,2,0.4,0.4
2024-09-21T2100,1902A,104.3826,31.1317,德阳市,西小区,,27,23,19,11,7,84,,114,108,13,10,2,2,0.4,0.4
2024-09-21T2100,1904A,104.3553,31.1091,德阳市,耐火材料厂,,22,20,20,14,8,70,,113,104,24,11,4,3,0.4,0.4
2024-09-21T2100,3639A,104.4019,31.1244,德阳市,市教育局,,25,25,17,11,6,78,,114,108,18,10,2,2,0.4,0.3
2024-09-21T2100,1622A,116.3032,37.4674,德州市,儿童乐园,,41,41,19,12,6,52,,100,91,44,17,12,9,0.5,0.4
2024-09-21T2100,1624A,116.2991,37.4451,德州市,监理站,,27,27,10,9,4,81,,104,102,25,18,13,8,0.5,0.5
2024-09-21T2100,3066A,116.2721,37.4379,德州市,九衢泉纯净水厂,,28,27,13,12,7,87,,105,104,21,14,18,9,0.3,0.3
2024-09-21T2100,3371A,116.3728,37.4403,德州市,开发区人民医院,,34,34,16,14,5,74,,101,96,29,16,9,8,0.5,0.4
2024-09-21T2100,3372A,116.3572,37.4094,德州市,太阳城中学,,34,34,17,9,6,74,,101,98,28,19,11,10,0.4,0.4
2024-09-21T2100,3511A,116.5652,37.3319,德州市,陵城艺术中心,,31,31,14,9,2,60,,95,89,35,18,9,8,0.5,0.5
2024-09-21T2100,2621A,99.7056,27.8317,迪庆藏族自治州,迪庆州站,,27,27,29,18,17,78,,77,77,10,11,7,12,0.3,0.3
2024-09-21T2100,3180A,99.7136,27.8094,迪庆藏族自治州,质量技术监督局,,25,19,24,8,10,77,,78,77,9,11,6,7,0.3,0.3
2024-09-21T2100,2663A,104.6241,35.5734,定西市,东关小学,,41,41,30,26,16,83,,100,99,6,12,5,5,0.3,0.2
2024-09-21T2100,2664A,104.6194,35.5934,定西市,供电公司,,44,44,30,23,20,86,,101,99,4,16,6,6,0.2,0.2
2024-09-21T2100,1389A,113.7547,23.0494,东莞市,莞城梨川,,16,16,17,9,10,30,,48,40,16,18,6,6,0.6,0.6
2024-09-21T2100,1390A,113.7944,23.0128,东莞市,东城石井,,,18,15,8,8,,,46,38,27,20,5,4,,0.6
2024-09-21T2100,1391A,113.7383,22.9658,东莞市,南城西平,,17,16,16,3,6,17,,49,34,34,24,9,8,0.8,0.7
2024-09-21T2100,3319A,113.7338,23.0381,东莞市,万江金泰,,14,14,16,8,10,30,,51,43,17,18,7,8,0.5,0.5
2024-09-21T2100,3626A,113.7533,23.0202,东莞市,南城元岭,,17,17,15,9,8,23,,50,38,22,17,7,6,0.7,0.7
2024-09-21T2100,3627A,113.7875,23.0457,东莞市,东城主山,,14,14,14,8,10,27,,50,40,22,19,6,6,0.5,0.5
2024-09-21T2100,1666A,118.6614,37.4309,东营市,市环保局,,31,24,14,12,5,98,,102,102,28,21,6,5,0.4,0.2
2024-09-21T2100,3036A,118.6904,37.4338,东营市,开发区管委会,,41,41,21,19,6,83,,98,97,25,9,5,3,0.4,0.2
2024-09-21T2100,3365A,118.5719,37.565,东营市,垦利区民丰路,,27,27,13,12,3,83,,82,82,18,11,6,4,0.4,0.1
2024-09-21T2100,3498A,118.5055,37.8612,东营市,河口城区,,36,36,17,20,6,64,,88,87,21,9,7,5,0.6,0.4
2024-09-21T2100,3646A,118.4978,37.4623,东营市,胜利站,,25,18,21,17,3,80,,89,89,21,9,6,6,0.5,0.3
2024-09-21T2100,3734A,118.35,37.26,东营市,理想之城,,31,31,16,14,6,76,,85,84,31,10,5,4,0.4,0.1
2024-09-21T2100,1591A,110.0023,39.8129,鄂尔多斯市,综合楼,颗粒物(PM10),59,68,25,27,8,65,,98,93,41,14,15,12,0.8,0.5
2024-09-21T2100,1592A,109.9486,39.8261,鄂尔多斯市,巴音孟克林场办事处,颗粒物(PM10),52,53,28,29,11,73,,91,90,28,17,7,6,0.6,0.4
2024-09-21T2100,1593A,109.7736,39.5986,鄂尔多斯市,康泽苑,,39,39,18,22,7,50,,102,95,40,9,8,9,0.6,0.4
2024-09-21T2100,1594A,109.8119,39.5989,鄂尔多斯市,华泰汽车城,颗粒物(PM10),52,53,21,24,12,18,,98,84,61,14,8,10,0.7,0.5
2024-09-21T2100,1595A,109.9734,39.7884,鄂尔多斯市,奥林花园,颗粒物(PM10),51,51,29,29,11,65,,87,85,25,18,7,6,0.9,0.6
2024-09-21T2100,2436A,114.8938,30.3994,鄂州市,市政府,,29,29,35,7,9,79,,72,72,10,10,11,11,0.7,0.7
2024-09-21T2100,2437A,114.8989,30.3714,鄂州市,赵家坝,,32,32,39,9,7,76,,74,74,10,9,9,9,0.7,0.7
2024-09-21T2100,3654A,114.8094,30.4089,鄂州市,精准医疗中心,,47,47,37,10,7,94,,75,75,7,10,5,6,0.5,0.5
2024-09-21T2100,2454A,109.4978,30.2981,恩施土家族苗族自治州,湖北民院,,22,22,21,14,17,68,,78,75,13,14,9,9,0.7,0.8
2024-09-21T2100,2455A,109.4707,30.2798,恩施土家族苗族自治州,州电力总公司,,21,,24,13,16,67,,78,75,16,22,8,8,0.8,0.8
2024-09-21T2100,3549A,109.5061,30.3772,恩施土家族苗族自治州,龙凤新区,,43,35,22,30,17,52,,75,66,11,11,6,6,1.0,0.9
2024-09-21T2100,2499A,108.3411,21.6158,防城港市,沙万,,29,29,32,20,21,60,,95,86,12,11,7,9,0.8,0.8
2024-09-21T2100,2500A,108.3514,21.7731,防城港市,防城档案局,,20,,47,14,25,43,,85,77,17,18,6,7,0.7,0.7
2024-09-21T2100,2501A,108.3506,21.6414,防城港市,大海花园,,24,24,32,16,21,59,,90,83,9,11,6,6,0.8,0.8
2024-09-21T2100,1371A,113.1294,23.0067,佛山市,湾梁,,29,29,15,3,7,7,,56,37,51,26,7,7,0.8,0.7
2024-09-21T2100,1372A,113.1083,23.0478,佛山市,华材职中,,22,22,16,12,13,9,,51,36,43,30,7,6,0.5,0.5
2024-09-21T2100,1373A,113.144,23.0453,佛山市,南海气象局,,24,24,15,11,10,5,,43,28,41,20,7,6,0.6,0.6
2024-09-21T2100,1374A,113.2881,22.8094,佛山市,顺德苏岗,,23,23,10,7,6,6,,43,29,41,21,7,7,0.7,0.7
2024-09-21T2100,1376A,112.8383,22.8678,佛山市,高明孔堂,,13,9,22,8,11,29,,50,46,25,22,5,5,0.4,0.4
2024-09-21T2100,1377A,112.8836,23.1588,佛山市,三水监测站,,25,24,17,14,16,2,,61,38,49,30,6,6,0.7,0.6
2024-09-21T2100,1378A,112.867,23.185,佛山市,三水云东海,,22,22,17,9,14,0,,54,30,37,27,6,8,0.7,0.6
2024-09-21T2100,3625A,113.2544,22.7642,佛山市,容桂街道办,,16,14,7,9,10,22,,45,35,32,25,6,6,0.7,0.7
2024-09-21T2100,1282A,119.2681,26.0504,福州市,师大,,18,17,26,10,11,55,,104,90,6,8,2,2,0.4,0.5
2024-09-21T2100,1283A,119.2984,26.1028,福州市,五四北路,,26,26,24,8,12,62,,90,88,4,5,4,4,0.3,0.4
2024-09-21T2100,1284A,119.2648,26.0768,福州市,杨桥西路,,28,28,25,10,14,67,,106,98,6,8,3,4,0.4,0.5
2024-09-21T2100,1285A,119.317,26.0746,福州市,紫阳,,22,22,26,8,13,48,,84,77,10,12,2,2,0,0.1
2024-09-21T2100,3048A,119.5799,26.0936,福州市,九龙,,15,15,20,3,9,40,,90,70,2,3,6,6,0.4,0.5
2024-09-21T2100,3526A,119.5189,25.9664,福州市,吴航,,14,13,22,3,10,42,,89,73,2,6,6,6,0.2,0.4
2024-09-21T2100,1755A,123.7977,41.8491,抚顺市,望花区,,15,15,17,7,9,47,,60,59,14,10,8,7,0.3,0.3
2024-09-21T2100,1756A,123.9161,41.8822,抚顺市,顺城区,,21,21,18,12,10,24,,58,52,37,14,6,5,0.4,0.3
2024-09-21T2100,1757A,124.0436,41.8611,抚顺市,东洲区,,23,,16,16,8,42,,59,57,14,12,10,8,0.4,0.4
2024-09-21T2100,1758A,123.9247,41.8642,抚顺市,新抚区,,18,18,15,10,9,49,,62,62,22,14,4,4,0.2,0.2
2024-09-21T2100,1759A,124.0972,41.8961,抚顺市,大伙房水库,颗粒物(PM10),51,52,18,8,6,42,,60,56,12,6,6,6,0.2,0.3
2024-09-21T2100,1760A,123.7086,41.8391,抚顺市,沈抚新城,,13,13,16,3,8,39,,66,62,21,13,7,7,0.2,0.2
2024-09-21T2100,2376A,116.2127,28.0814,抚州市,桐源党溪,,42,42,30,20,13,44,,74,71,4,6,5,6,0.7,0.6
2024-09-21T2100,2377A,116.3544,27.9831,抚州市,市站,,28,28,26,14,13,39,,63,60,9,7,3,3,1.0,0.9
2024-09-21T2100,2378A,116.3565,27.963,抚州市,血防站,,31,31,28,15,13,36,,59,56,9,10,4,3,0.8,0.8
2024-09-21T2100,2379A,116.3564,28.0007,抚州市,采茶剧团,,26,26,25,14,13,37,,64,61,5,6,4,6,0.8,0.8
2024-09-21T2100,2380A,116.385,27.9647,抚州市,医学分院,,29,29,24,12,10,39,,60,57,6,7,4,4,1.1,1.1
2024-09-21T2100,2207A,121.6094,41.998,阜新市,工业园区,,36,36,16,6,6,13,,70,56,44,12,6,6,0.5,0.4
2024-09-21T2100,2208A,121.6697,42.0279,阜新市,长青街,,13,13,10,3,2,35,,65,56,16,8,5,5,0.5,0.4
2024-09-21T2100,2209A,121.6673,42.0705,阜新市,农业园区,,14,,10,7,4,43,,63,57,12,8,4,4,0.6,0.3
2024-09-21T2100,2210A,121.6717,42.0224,阜新市,东苑,,16,16,13,7,4,40,,68,60,20,7,8,8,0.6,0.5
2024-09-21T2100,2211A,121.6506,42.0498,阜新市,玉龙新城,颗粒物(PM10),64,77,19,6,4,7,,70,49,42,12,7,7,0.7,0.6
2024-09-21T2100,2301A,115.8277,32.8929,阜阳市,市监测站,,31,31,32,10,16,98,,106,106,15,9,7,7,0.3,0.4
2024-09-21T2100,2303A,115.8554,32.8605,阜阳市,开发区,,32,21,45,13,13,101,,108,108,15,12,6,6,0.5,0.5
2024-09-21T2100,2875A,115.784,32.8892,阜阳市,阜阳职业技术学院,,32,14,34,10,13,101,,109,109,13,9,8,6,0.3,0.3
2024-09-21T2100,3468A,115.7901,32.8613,阜阳市,市规划展馆,,33,16,33,6,16,104,,110,110,17,12,8,7,0.3,0.4
2024-09-21T2100,3469A,115.836,32.9183,阜阳市,枣园社区,,30,23,29,6,14,94,,107,107,19,9,8,8,0.4,0.5
2024-09-21T2100,2669A,102.9099,34.9841,甘南藏族自治州,州政府,,27,27,14,17,14,67,,89,84,7,5,8,9,0.3,0.3
2024-09-21T2100,3380A,102.8914,34.9617,甘南藏族自治州,甘肃民族师范学院,,35,,10,24,7,66,,87,82,7,8,3,4,0.5,0.5
2024-09-21T2100,2570A,101.9603,30.0475,甘孜藏族自治州,水桥子,,21,10,12,3,6,66,,81,78,5,11,5,5,0.3,0.3
2024-09-21T2100,3065A,101.9533,29.9972,甘孜藏族自治州,州环保局,,,16,16,3,5,,,83,80,12,16,3,2,0.3,0.2
2024-09-21T2100,3414A,115.8347,28.932,赣江新区,桑海产业园,颗粒物(PM10),53,56,44,13,12,46,,73,66,10,12,12,13,0.5,0.2
2024-09-21T2100,2363A,114.9367,25.8664,赣州市,地委,颗粒物(PM10),94,138,28,16,16,51,,56,50,6,6,11,9,0.8,0.9
2024-09-21T2100,2364A,114.9461,25.8481,赣州市,气象台,,23,19,22,16,16,50,,58,50,2,7,3,5,0.9,0.9
2024-09-21T2100,2365A,114.9322,25.8333,赣州市,市图书馆,,35,35,22,20,13,53,,63,55,6,5,5,4,0.7,0.7
2024-09-21T2100,2366A,114.8905,25.8471,赣州市,华坚鞋城,,20,20,21,12,13,53,,54,49,5,6,2,2,0.5,0.5
2024-09-21T2100,3109A,115.0093,25.8613,赣州市,赣县区卫计委,,,25,21,12,13,,,65,52,7,8,6,7,,0.7
2024-09-21T2100,2683A,106.2319,36.1417,固原市,马园,颗粒物(PM10),67,83,38,22,13,29,,97,81,43,20,6,6,0.8,0.8
2024-09-21T2100,2684A,106.2792,36.0022,固原市,监测站,,48,48,25,20,18,51,,84,79,30,13,4,4,0.6,0.5
2024-09-21T2100,2685A,106.2375,36.0211,固原市,新区,,48,48,27,19,13,62,,99,93,29,13,6,6,0.4,0.3
2024-09-21T2100,3522A,106.2177,35.9959,固原市,原州区十五小,颗粒物(PM10),52,53,31,22,18,74,,104,98,26,13,5,4,0.5,0.5
2024-09-21T2100,2544A,106.6303,30.4576,广安市,市委,,28,,15,19,11,75,,105,99,10,9,2,2,0.4,0.3
2024-09-21T2100,2545A,106.6271,30.4663,广安市,友谊中学,,28,28,18,15,12,74,,102,96,13,11,3,3,0.4,0.4
2024-09-21T2100,2547A,106.6388,30.4551,广安市,广电花园,,25,22,19,15,12,77,,105,99,10,9,3,2,0.3,0.3
2024-09-21T2100,2902A,106.6351,30.4865,广安市,北辰小学,,26,26,22,15,12,68,,102,96,14,7,5,4,0.4,0.3
2024-09-21T2100,2523A,105.8945,32.4535,广元市,黑石坡,,27,18,12,7,7,86,,83,83,4,3,8,7,0.3,0.2
2024-09-21T2100,2524A,105.821,32.4444,广元市,老城,,18,11,13,3,7,41,,87,78,36,7,2,2,0.5,0.4
2024-09-21T2100,2526A,105.8628,32.4287,广元市,监测站,,28,26,17,10,7,88,,94,92,9,3,3,2,0.6,0.5
2024-09-21T2100,3617A,105.8047,32.4166,广元市,经开区,,18,17,11,12,5,55,,90,82,26,7,5,4,0.5,0.4
2024-09-21T2100,1345A,113.2347,23.1423,广州市,广雅中学,,17,17,17,9,10,38,,52,43,22,26,5,5,0.7,0.8
2024-09-21T2100,1346A,113.2612,23.105,广州市,市五中,,19,19,16,12,13,33,,55,41,24,20,4,4,0.7,0.7
2024-09-21T2100,1348A,113.3478,23.0916,广州市,广东商学院,,18,18,15,12,11,25,,45,34,31,25,4,4,0.6,0.6
2024-09-21T2100,1349A,113.4332,23.1047,广州市,市八十六中,,18,18,16,10,9,32,,46,38,25,29,4,3,0.7,0.6
2024-09-21T2100,1350A,113.3505,22.9483,广州市,番禺中学,,26,26,14,13,9,16,,52,37,43,22,6,5,0.7,0.6
2024-09-21T2100,1351A,113.2146,23.3916,广州市,花都师范,,,27,18,13,11,,,59,46,33,15,4,4,0.9,0.8
2024-09-21T2100,1352A,113.2597,23.1331,广州市,市监测站,,15,15,16,8,10,34,,47,39,21,24,5,5,0.7,0.7
2024-09-21T2100,1353A,113.5618,23.312,广州市,九龙镇镇龙,,16,16,17,7,10,32,,46,43,20,16,6,6,0.5,0.5
2024-09-21T2100,1354A,113.2765,23.1544,广州市,麓湖,,14,14,18,7,10,37,,47,38,23,27,4,5,0.5,0.6
2024-09-21T2100,1355A,113.443,23.3035,广州市,帽峰山森林公园,,16,6,8,3,7,49,,57,53,12,10,7,7,0.5,0.6
2024-09-21T2100,2846A,113.3221,23.1322,广州市,体育西,,18,18,17,9,11,36,,46,38,18,21,5,5,0.6,0.6
2024-09-21T2100,3298A,113.5717,23.5491,广州市,从化街口,,13,8,15,3,7,41,,48,45,9,10,8,8,0.6,0.6
2024-09-21T2100,3299A,113.3472,23.3692,广州市,白云竹料,,19,19,15,10,11,30,,55,45,24,16,5,4,0.6,0.6
2024-09-21T2100,3300A,113.2981,23.237,广州市,白云嘉禾,,16,16,19,9,13,31,,50,44,30,29,6,6,0.9,0.9
2024-09-21T2100,3301A,113.4256,23.1716,广州市,黄埔科学城,,14,12,16,3,10,43,,53,47,12,14,8,7,0.6,0.6
2024-09-21T2100,3302A,113.3942,23.0483,广州市,番禺大学城,,,68,26,12,8,,,43,35,29,21,10,9,0.5,0.5
2024-09-21T2100,3303A,113.4922,22.8168,广州市,南沙黄阁,,16,16,12,10,10,32,,56,40,27,27,5,5,0.6,0.5
2024-09-21T2100,3304A,113.5342,22.7896,广州市,南沙街,,15,15,12,10,8,32,,55,41,21,21,6,7,0.6,0.6
2024-09-21T2100,3443A,113.2902,23.5544,广州市,花都梯面,,20,20,19,10,11,7,,52,36,13,10,5,6,0.7,0.6
2024-09-21T2100,3445A,113.7858,23.7478,广州市,从化良口,,13,10,11,6,7,39,,40,36,6,6,6,6,0.7,0.7
2024-09-21T2100,3446A,113.8051,23.2614,广州市,增城荔城,,13,13,13,6,7,23,,45,40,14,10,5,4,0.5,0.5
2024-09-21T2100,2506A,109.6047,23.0666,贵港市,江南子站,,20,17,44,14,23,25,,78,57,19,22,7,9,0.7,0.8
2024-09-21T2100,2507A,109.6014,23.0948,贵港市,贵城子站,,22,22,37,15,24,34,,72,57,13,19,6,7,0.6,0.7
2024-09-21T2100,2508A,109.5669,23.1065,贵港市,荷城子站,,15,9,31,3,13,48,,69,58,7,16,9,10,0.5,0.6
2024-09-21T2100,3405A,109.5886,23.1172,贵港市,新世纪学校,,14,9,28,3,17,43,,70,56,6,12,6,6,0.8,0.8
2024-09-21T2100,1439A,106.6899,26.5998,贵阳市,马鞍山,,22,22,13,7,2,51,,86,72,12,8,3,3,0.3,0.2
2024-09-21T2100,1440A,106.6971,26.5694,贵阳市,市环保站,,23,17,22,16,18,63,,86,79,7,7,3,4,0.4,0.4
2024-09-21T2100,1441A,106.6243,26.6266,贵阳市,鉴湖路,,24,24,25,14,13,52,,76,68,7,6,5,5,0.4,0.4
2024-09-21T2100,1442A,106.7487,26.6343,贵阳市,燕子冲,,20,19,15,14,17,60,,80,72,7,6,5,5,0.4,0.4
2024-09-21T2100,1443A,106.6555,26.4365,贵阳市,碧云窝,,24,24,37,14,13,58,,80,73,8,10,5,5,0.3,0.4
2024-09-21T2100,1444A,106.694,26.5161,贵阳市,中院村,,,27,23,14,14,,,80,73,11,7,5,5,0.5,0.7
2024-09-21T2100,1445A,106.7109,26.6027,贵阳市,红边门,,32,27,24,22,24,58,,79,72,10,9,3,4,0.7,0.6
2024-09-21T2100,1446A,106.7164,26.5699,贵阳市,新华路,,20,17,13,14,15,64,,86,78,6,6,4,4,0.2,0.4
2024-09-21T2100,1447A,106.674,26.5424,贵阳市,太慈桥,,19,14,16,12,10,59,,84,73,7,6,5,5,0.4,0.4
2024-09-21T2100,1862A,110.4144,25.3167,桂林市,电子科大尧山校区,,23,,29,10,17,72,,63,63,4,6,3,5,0.8,0.8
2024-09-21T2100,1863A,110.2819,25.2697,桂林市,监测站,,19,19,25,13,22,54,,54,52,10,10,6,8,0.6,0.6
2024-09-21T2100,1864A,110.3089,25.2708,桂林市,龙隐路小学,,26,26,24,13,21,60,,58,57,5,6,6,9,0.6,0.6
2024-09-21T2100,1865A,110.2869,25.2178,桂林市,八中,,,9,24,7,17,58,,57,56,,8,6,8,0.6,0.6
2024-09-21T2100,3403A,110.1764,25.2381,桂林市,创业大厦,,25,17,28,17,26,52,,53,52,7,11,7,26,0.5,0.5
2024-09-21T2100,3531A,110.296,25.1253,桂林市,旅游学院,,18,9,20,9,16,57,,63,62,5,7,6,9,0.4,0.4
2024-09-21T2100,2674A,100.2561,34.4714,果洛藏族自治州,玛沁县大武镇,,,,9,,9,62,,94,88,18,3,8,7,,0.5
2024-09-21T2100,1129A,126.5422,45.755,哈尔滨市,岭北,,32,32,22,10,13,32,,79,68,30,25,5,7,0.8,0.6
2024-09-21T2100,1130A,126.561,45.8167,哈尔滨市,松北商大,颗粒物(PM10),77,104,44,20,12,6,,57,38,58,27,9,8,0.8,0.5
2024-09-21T2100,1131A,126.979,45.5419,哈尔滨市,阿城会宁,颗粒物(PM10),128,205,42,42,14,1,,55,36,41,19,12,11,0.7,0.5
2024-09-21T2100,1132A,126.599,45.7222,哈尔滨市,南岗学府路,颗粒物(PM10),57,63,41,35,17,7,,63,51,51,26,6,7,0.9,0.5
2024-09-21T2100,1133A,126.689,45.7733,哈尔滨市,太平宏伟公园,颗粒物(PM10),54,58,50,29,21,3,,52,38,53,31,8,8,1.0,0.7
2024-09-21T2100,1134A,126.635,45.7667,哈尔滨市,道外承德广场,颗粒物(PM10),54,58,49,35,20,8,,52,43,64,39,4,5,0.5,0.6
2024-09-21T2100,1135A,126.685,45.7319,哈尔滨市,香坊红旗大街,颗粒物(PM10),53,56,46,14,17,11,,59,46,54,30,5,8,0.8,0.7
2024-09-21T2100,1136A,126.6411,45.7258,哈尔滨市,动力和平路,细颗粒物(PM2.5),59,62,29,42,13,12,,61,52,55,28,10,8,0.8,0.6
2024-09-21T2100,1137A,126.593,45.7478,哈尔滨市,道里建国路,颗粒物(PM10),51,52,33,17,15,5,,62,48,61,26,6,6,0.6,0.5
2024-09-21T2100,1138A,126.615,45.61,哈尔滨市,平房东轻厂,颗粒物(PM10),72,93,66,26,20,5,,56,37,78,41,10,8,0.6,0.5
2024-09-21T2100,1139A,126.595,45.9855,哈尔滨市,呼兰师专,,47,47,36,28,14,16,,54,44,38,27,8,8,0.8,0.6
2024-09-21T2100,1140A,126.6206,45.6842,哈尔滨市,省农科院,,,193,50,,16,7,,59,43,70,32,6,7,1.1,0.7
2024-09-21T2100,2688A,93.5128,42.8172,哈密市,地区监测站,颗粒物(PM10),69,88,76,26,24,36,,125,111,98,45,10,6,0.7,0.3
2024-09-21T2100,2689A,93.4961,42.8328,哈密市,哈密师范学校,颗粒物(PM10),66,81,65,25,23,65,,123,113,48,39,5,5,0.7,0.6
2024-09-21T2100,2671A,100.9048,36.9639,海北藏族自治州,海晏县西海镇,,33,33,24,21,17,81,,97,96,8,10,12,13,0.7,0.7
2024-09-21T2100,3867A,102.0738,36.5056,海东市,平安区公安北苑,,50,50,30,21,17,87,,97,97,20,19,15,13,0.5,0.4
2024-09-21T2100,1410A,110.3232,20.0574,海口市,海南大学,,36,35,16,25,9,108,,93,93,6,6,5,6,0.5,0.4
2024-09-21T2100,1411A,110.283,20.0053,海口市,秀英海南医院,,28,28,15,12,9,52,,84,83,17,13,5,4,0.3,0.3
2024-09-21T2100,1412A,110.338,19.9969,海口市,海南师范大学,,27,27,15,11,6,53,,85,83,9,6,5,5,0.6,0.5
2024-09-21T2100,1413A,110.33,20.0356,海口市,龙华路环保局宿舍,,35,35,14,20,8,93,,88,88,9,6,5,4,0.4,0.3
2024-09-21T2100,3539A,110.5111,19.9736,海口市,桂林洋子站,,30,27,14,17,7,96,,87,87,5,6,6,5,0.3,0.3
2024-09-21T2100,2673A,100.6188,36.2866,海南藏族自治州,共和县恰卜恰镇,,31,31,14,3,5,62,,91,86,21,9,15,14,0.6,0.5
2024-09-21T2100,2676A,97.3731,37.3753,海西蒙古族藏族自治州,德令哈市,,,60,41,24,11,,,108,108,19,11,8,9,0.5,0.5
2024-09-21T2100,1048A,114.5302,36.6116,邯郸市,东污水处理厂,,28,28,10,9,2,60,,86,82,26,11,1,1,0.4,0.3
2024-09-21T2100,1049A,114.4918,36.5713,邯郸市,矿院,,27,27,12,7,2,72,,92,90,17,12,2,2,0.1,0
2024-09-21T2100,1050A,114.484,36.6133,邯郸市,丛台公园,,23,15,8,8,2,73,,90,89,17,8,1,2,0.3,0.3
2024-09-21T2100,3458A,114.7895,36.5593,邯郸市,香泉濮院小区,,27,27,22,11,2,59,,91,87,28,8,2,2,0.2,0.2
2024-09-21T2100,3579A,114.50634,36.77178,邯郸市,永年区实验高中,,,,15,,8,71,,95,92,32,14,3,2,0.3,0.3
2024-09-21T2100,3580A,114.20016,36.44293,邯郸市,峰峰矿区临水派出所,,27,23,6,6,1,84,,94,94,13,6,2,2,0.5,0.5
2024-09-21T2100,2634A,106.9893,33.1842,汉中市,汉川机床厂子校,,25,12,24,10,11,77,,92,91,5,7,4,5,0.6,0.6
2024-09-21T2100,2635A,107.0154,33.0706,汉中市,市监测站,,27,13,17,8,10,84,,98,96,7,8,8,8,0.4,0.4
2024-09-21T2100,2636A,107.0089,33.1138,汉中市,鑫源开发区,,21,,18,13,8,66,,97,93,18,11,9,11,0.4,0.5
2024-09-21T2100,2637A,107.007,33.0323,汉中市,南郑大河坎水厂,,18,16,14,12,8,52,,97,91,32,9,8,8,0.5,0.4
2024-09-21T2100,1223A,120.2072,30.2111,杭州市,滨江,,31,31,19,13,10,52,,50,50,12,14,5,4,0.5,0.6
2024-09-21T2100,1224A,120.0633,30.2747,杭州市,西溪,,19,,13,11,9,60,,54,54,15,16,5,5,0.7,0.7
2024-09-21T2100,1226A,120.3461,30.3153,杭州市,下沙,,29,29,21,10,8,55,,53,53,27,28,6,6,0.6,0.6
2024-09-21T2100,1227A,120.1269,30.2456,杭州市,卧龙桥,,22,19,16,15,11,63,,58,58,13,13,5,5,0.4,0.5
2024-09-21T2100,1228A,120.1903,30.2692,杭州市,浙江农大,,24,24,16,15,12,50,,47,47,18,20,8,7,0.6,0.6
2024-09-21T2100,1230A,120.1197,30.3119,杭州市,和睦小学,,25,25,16,12,8,63,,59,59,12,16,6,6,0.6,0.6
2024-09-21T2100,1231A,120.3019,30.4183,杭州市,临平镇,,26,26,22,3,7,68,,59,59,7,12,4,4,0.6,0.7
2024-09-21T2100,1232A,120.2697,30.1819,杭州市,城厢镇,,28,27,18,19,13,50,,56,56,21,15,5,5,0.5,0.6
2024-09-21T2100,1233A,120.0883,30.1808,杭州市,云栖,,19,19,14,3,4,58,,52,52,11,12,6,7,0.6,0.6
2024-09-21T2100,3557A,119.9464,30.0494,杭州市,镇二中,,19,,8,11,12,59,,51,51,10,15,8,8,0.6,0.7
2024-09-21T2100,3558A,119.7183,30.2367,杭州市,市府大楼,,21,,17,10,10,66,,61,61,10,14,5,6,0.4,0.5
2024-09-21T2100,3656A,120.1556,30.2864,杭州市,消防大队,,28,28,18,13,9,58,,52,52,10,13,8,8,0.7,0.8
2024-09-21T2100,1270A,117.1959,31.7848,合肥市,明珠广场,,34,34,26,17,11,57,,52,52,20,13,5,6,0.7,0.7
2024-09-21T2100,1271A,117.3072,31.8764,合肥市,三里街,,39,39,26,14,8,75,,58,58,14,10,7,7,0.4,0.3
2024-09-21T2100,1272A,117.2588,31.8707,合肥市,琥珀山庄,,29,29,25,18,19,79,,62,62,14,10,8,7,0.4,0.4
2024-09-21T2100,1273A,117.1604,31.9052,合肥市,董铺水库,,36,36,27,14,12,52,,52,52,10,8,2,3,0.5,0.4
2024-09-21T2100,1274A,117.25,31.8571,合肥市,长江中路,,41,41,33,18,15,69,,54,54,21,12,8,8,0.4,0.4
2024-09-21T2100,1275A,117.266,31.9436,合肥市,庐阳区,,29,29,26,17,10,79,,65,65,13,10,4,5,0.5,0.5
2024-09-21T2100,1276A,117.336,31.8586,合肥市,瑶海区,,39,39,26,16,10,71,,61,61,27,15,7,7,0.4,0.4
2024-09-21T2100,1277A,117.3027,31.7964,合肥市,包河区,,34,34,24,14,11,68,,52,52,28,17,4,4,0.4,0.4
2024-09-21T2100,1278A,117.2776,31.7385,合肥市,滨湖新区,,31,31,24,17,11,66,,50,50,22,14,5,6,0.5,0.5
2024-09-21T2100,1279A,117.1318,31.8403,合肥市,高新区,,39,39,30,19,16,61,,49,49,16,12,8,8,0.7,0.7
2024-09-21T2100,3464A,117.3803,31.9147,合肥市,高教基地,,30,30,23,14,11,72,,66,66,12,8,3,4,0.3,0.3
2024-09-21T2100,3614A,79.924,37.0877,和田地区,地区环保局,颗粒物(PM10),194,337,279,96,78,85,,101,100,15,16,12,7,0.6,0.7
2024-09-21T2100,3615A,79.9131,37.113,和田地区,市环保局,颗粒物(PM10),172,293,275,91,80,48,,98,94,50,28,7,7,0.6,0.5
2024-09-21T2100,2516A,108.2011,24.715,河池市,东仁乐园,,24,24,29,12,16,33,,55,50,6,9,5,5,0.6,0.6
2024-09-21T2100,2517A,108.0497,24.6947,河池市,市环保站,,15,,25,7,16,48,,55,54,7,13,8,8,0.6,0.6
2024-09-21T2100,2518A,108.0983,24.6989,河池市,市疾控中心,,16,13,28,7,17,49,,56,56,9,16,9,9,0.5,0.6
2024-09-21T2100,1696A,114.6778,23.7569,河源市,源西,,15,9,11,8,8,46,,51,45,10,9,4,4,0.6,0.5
2024-09-21T2100,1697A,114.6944,23.7586,河源市,东埔,,15,15,9,9,8,43,,48,42,14,11,2,2,0.7,0.6
2024-09-21T2100,1698A,114.6892,23.7233,河源市,老城,,18,18,16,6,7,40,,47,42,13,10,2,2,0.7,0.6
2024-09-21T2100,1718A,115.4208,35.2464,菏泽市,气象局,,33,33,19,13,8,88,,106,106,31,13,5,2,0.2,0.2
2024-09-21T2100,1719A,115.4747,35.2375,菏泽市,市政协,,29,28,20,14,8,92,,103,103,12,10,4,4,0.1,0.2
2024-09-21T2100,3374A,115.5564,35.0891,菏泽市,定陶老年大学,,28,27,22,7,4,88,,104,104,18,11,6,6,0.1,0.2
2024-09-21T2100,3647A,115.4702,35.2706,菏泽市,菏泽医专,,34,34,19,3,5,86,,101,101,22,11,5,3,0.3,0.3
2024-09-21T2100,2514A,111.5264,24.4172,贺州市,环保小区,,15,10,30,10,16,42,,64,59,9,10,5,5,0.6,0.7
2024-09-21T2100,2515A,111.5608,24.4078,贺州市,政协大楼,,24,24,32,15,19,39,,68,61,13,12,5,5,0.6,0.6
2024-09-21T2100,3534A,111.4744,24.4553,贺州市,西湾,,16,16,25,11,19,41,,56,52,8,10,7,7,0.6,0.7
2024-09-21T2100,2385A,114.17,35.9019,鹤壁市,市监测站,,43,43,17,20,8,75,,100,96,20,11,4,3,0.6,0.7
2024-09-21T2100,2386A,114.2956,35.7511,鹤壁市,市交警支队,,42,42,18,18,4,54,,100,93,42,16,2,3,0.4,0.4
2024-09-21T2100,2387A,114.2878,35.7306,鹤壁市,迎宾馆,,24,24,10,15,7,67,,103,99,42,18,4,3,0.5,0.5
2024-09-21T2100,3474A,114.2617,35.6822,鹤壁市,大新区,,25,,13,11,8,79,,103,101,22,16,6,6,0.4,0.5
2024-09-21T2100,3596A,114.1572,35.9603,鹤壁市,南山宾馆,,33,,8,23,11,78,,101,99,17,9,1,2,0.2,0.1
2024-09-21T2100,2244A,130.2537,47.3416,鹤岗市,哈啤分公司,,46,46,19,29,17,16,,58,42,12,4,14,13,0.8,0.6
2024-09-21T2100,2245A,130.2684,47.3086,鹤岗市,斯达机电,,39,38,21,27,15,22,,58,44,19,9,11,11,0.4,0.3
2024-09-21T2100,2246A,130.3114,47.3388,鹤岗市,东山纸板厂,颗粒物(PM10),112,173,38,32,19,7,,57,35,23,12,17,16,1.0,0.6
2024-09-21T2100,2247A,130.1097,47.3382,鹤岗市,五号水库,,20,20,22,9,7,26,,62,48,10,4,16,16,0.4,0.4
2024-09-21T2100,2263A,127.4833,50.2524,黑河市,交通局,,32,29,18,22,13,31,,61,50,17,10,7,6,0.4,0.3
2024-09-21T2100,2264A,127.5144,50.2341,黑河市,环保局,,20,18,14,14,10,46,,68,60,12,8,7,4,0.4,0.4
2024-09-21T2100,2265A,127.5291,50.2472,黑河市,大黑河岛,,29,29,11,13,7,43,,52,51,20,8,1,2,0.1,0.1
2024-09-21T2100,1074A,115.6838,37.7541,衡水市,电机北厂,,20,18,18,11,7,59,,93,88,39,12,4,4,0.3,0.2
2024-09-21T2100,1075A,115.6303,37.7316,衡水市,市监测站,,27,24,18,7,6,85,,97,97,18,13,4,4,0.2,0.2
2024-09-21T2100,3188A,115.6683,37.7217,衡水市,市城管局,,29,29,14,13,8,78,,98,97,28,11,2,2,0.4,0.3
2024-09-21T2100,3459A,115.5989,37.5491,衡水市,地表水厂,,30,27,11,3,3,94,,97,97,9,6,3,3,0.4,0.3
2024-09-21T2100,2456A,112.5003,26.9167,衡阳市,原169医院,,29,28,28,12,20,90,,72,72,7,8,9,11,0.5,0.5
2024-09-21T2100,2457A,112.6194,26.9258,衡阳市,衡阳化工总厂,,,36,37,,,82,,64,64,8,9,8,14,0.6,0.7
2024-09-21T2100,2458A,112.6211,26.8956,衡阳市,珠晖区环保局,,,34,33,,,84,,65,65,6,10,6,7,0.7,0.8
2024-09-21T2100,2459A,112.6197,26.8733,衡阳市,市委党校,,32,32,34,10,18,86,,69,69,6,8,8,8,0.6,0.7
2024-09-21T2100,2460A,112.6006,26.8919,衡阳市,市监测站,,34,34,30,10,19,89,,71,71,6,8,6,10,0.6,0.8
2024-09-21T2100,2461A,112.5664,26.9056,衡阳市,真空机电公司,,33,33,32,13,20,91,,72,72,4,7,7,7,0.6,0.8
2024-09-21T2100,3399A,112.6703,26.882,衡阳市,师范学院,,34,34,36,18,22,69,,61,61,11,10,7,8,0.7,0.7
2024-09-21T2100,2608A,103.3772,23.3993,红河哈尼族彝族自治州,污水处理厂,,42,34,31,29,24,17,,66,51,18,17,6,17,0.6,0.5
2024-09-21T2100,2609A,103.3861,23.35,红河哈尼族彝族自治州,监测站,,42,42,30,17,18,18,,74,58,23,17,19,17,0.5,0.5
2024-09-21T2100,3038A,103.3758,23.368,红河哈尼族彝族自治州,州图书馆,,30,30,31,18,14,22,,70,55,19,15,8,16,0.4,0.4
2024-09-21T2100,1090A,111.6507,40.7517,呼和浩特市,呼市一监,,20,12,6,6,2,63,,79,71,10,4,5,6,0.4,0.3
2024-09-21T2100,1091A,111.6572,40.8033,呼和浩特市,小召,,21,12,4,3,4,65,,80,72,12,8,6,6,0.3,0.3
2024-09-21T2100,1094A,111.7516,40.8369,呼和浩特市,如意水处理厂,,15,8,4,3,2,48,,73,65,21,7,6,6,0.3,0.2
2024-09-21T2100,1095A,111.7276,40.8062,呼和浩特市,二十九中,,21,11,8,3,2,65,,79,73,15,9,4,4,0.4,0.3
2024-09-21T2100,1096A,111.5512,40.7866,呼和浩特市,工大金川校区,,22,22,11,3,2,44,,70,60,26,13,2,2,0.3,0.3
2024-09-21T2100,1097A,111.717,40.7612,呼和浩特市,化肥厂生活区,,20,9,7,3,2,61,,78,70,14,6,7,8,0.4,0.4
2024-09-21T2100,3698A,111.5968,40.8178,呼和浩特市,红旗小学,,15,9,5,3,2,48,,74,64,20,11,2,2,0.3,0.2
2024-09-21T2100,3699A,111.6518,40.8389,呼和浩特市,海东办,,24,22,4,6,2,27,,75,63,47,11,4,4,0.4,0.3
2024-09-21T2100,2192A,119.7594,49.2261,呼伦贝尔市,区环保局,,28,27,24,19,17,42,,61,57,22,18,6,6,0.4,0.4
2024-09-21T2100,3061A,119.7512,49.1577,呼伦贝尔市,国华电力东,,31,31,24,21,13,30,,64,56,18,12,4,4,0.4,0.3
2024-09-21T2100,1250A,120.0751,30.8669,湖州市,城西水厂,,25,25,19,11,11,80,,65,65,10,12,4,4,0.3,0.3
2024-09-21T2100,2873A,120.0875,30.8955,湖州市,仁皇山新区,,25,24,20,13,11,78,,67,67,9,10,6,6,0.5,0.5
2024-09-21T2100,2907A,120.1844,30.8596,湖州市,吴兴区站,,28,28,20,10,10,72,,57,57,7,11,5,5,0.4,0.4
2024-09-21T2100,3562A,120.4148,30.8538,湖州市,南浔区站,,26,26,19,11,10,72,,58,58,10,11,6,5,0.4,0.6
2024-09-21T2100,1607A,120.9092,40.7136,葫芦岛市,龙港区,,43,43,20,13,7,12,,68,53,66,21,20,14,0.6,0.3
2024-09-21T2100,1608A,120.8392,40.7514,葫芦岛市,化工街,,19,19,12,12,4,48,,67,64,23,9,23,15,0.5,0.1
2024-09-21T2100,1609A,120.8341,40.7073,葫芦岛市,新区,,21,21,15,13,5,49,,69,64,30,15,16,13,0.4,0.3
2024-09-21T2100,1610A,120.8695,40.7677,葫芦岛市,东城区,,19,19,17,12,6,45,,65,59,22,8,23,10,0.8,0.3
2024-09-21T2100,2482A,109.5981,27.5721,怀化市,林科所,,25,24,26,11,16,78,,73,73,10,10,10,7,0.3,0.3
2024-09-21T2100,2483A,109.9453,27.5444,怀化市,河西地税局,,30,30,36,11,20,77,,74,74,11,12,9,8,0.6,0.6
2024-09-21T2100,2484A,109.9781,27.5342,怀化市,市四医院,,28,28,37,11,23,82,,77,77,5,8,6,9,0.5,0.6
2024-09-21T2100,2485A,109.9972,27.5578,怀化市,监测楼,,31,31,42,13,22,78,,75,75,8,11,6,6,0.4,0.5
2024-09-21T2100,2486A,110.0394,27.583,怀化市,市委党校,,33,33,41,12,20,79,,75,75,8,10,48,20,0.6,0.7
2024-09-21T2100,1210A,119.036,33.5981,淮安市,钵池山,,41,41,23,12,9,65,,84,83,17,12,8,7,0.6,0.6
2024-09-21T2100,1211A,119.007,33.575,淮安市,北京南路,,39,39,28,6,7,67,,85,85,17,10,8,6,0.3,0.4
2024-09-21T2100,1212A,118.989,33.6067,淮安市,市监测站,,,39,21,,13,75,,93,92,20,19,8,6,0.3,0.2
2024-09-21T2100,1213A,119.135,33.5039,淮安市,楚州区监测站,,49,49,33,16,10,66,,86,85,16,10,7,6,0.8,0.7
2024-09-21T2100,1214A,119.0186,33.6297,淮安市,淮阴区监测站,,41,41,27,14,13,64,,87,86,20,12,5,3,0.4,0.4
2024-09-21T2100,3426A,118.8755,33.2894,淮安市,新华书店,颗粒物(PM10),51,51,30,14,11,76,,98,97,22,14,9,7,0.5,0.5
2024-09-21T2100,2282A,116.8004,33.975,淮北市,监测站,,31,31,21,6,10,99,,108,108,17,10,8,6,0.6,0.5
2024-09-21T2100,2283A,116.8091,33.9007,淮北市,烈山区政府,,34,34,31,11,13,107,,112,112,13,9,7,6,0.4,0.4
2024-09-21T2100,3330A,116.8873,33.9836,淮北市,杜集区检察院,,32,32,33,10,12,96,,114,114,11,9,8,7,0.4,0.4
2024-09-21T2100,4017A,116.7923,33.9535,淮北市,市博物馆,,34,29,30,7,12,107,,116,116,12,8,7,5,0.6,0.6
2024-09-21T2100,2277A,116.8305,32.7727,淮南市,潘集区政府,,45,45,34,20,17,92,,92,92,18,16,10,9,0.4,0.3
2024-09-21T2100,2278A,117.0067,32.6524,淮南市,师范学院,,39,39,37,20,15,95,,96,96,10,8,6,7,0.4,0.3
2024-09-21T2100,2279A,116.8569,32.5951,淮南市,谢家集区政府,,30,26,31,18,20,96,,88,88,14,14,10,10,0.4,0.4
2024-09-21T2100,2280A,116.8281,32.633,淮南市,八公山区政府,,48,48,41,16,17,94,,90,90,12,12,10,7,0.3,0.3
2024-09-21T2100,2281A,116.6325,32.6201,淮南市,焦岗湖风景区管理处,,30,20,27,13,9,96,,89,89,7,6,4,4,0.0,0
2024-09-21T2100,2894A,117.0566,32.6531,淮南市,经济技术开发区消防队,,38,38,37,8,8,91,,94,94,10,9,5,5,0.2,0.2
2024-09-21T2100,3329A,117.0108,32.5893,淮南市,山南新区,,46,46,39,11,10,103,,98,98,12,11,4,5,0.2,0.2
2024-09-21T2100,2446A,114.9028,30.4742,黄冈市,职工中心,,34,34,39,19,16,82,,74,74,8,8,7,8,0.4,0.4
2024-09-21T2100,2929A,114.8858,30.4519,黄冈市,红卫路,,30,27,31,14,14,95,,79,79,9,10,7,7,0.3,0.4
2024-09-21T2100,3398A,114.9136,30.4445,黄冈市,市林业局,,38,38,37,17,14,77,,78,77,7,6,7,8,0.5,0.4
2024-09-21T2100,2672A,102.0199,35.5102,黄南藏族自治州,同仁县隆务镇,,30,30,22,12,7,55,,87,78,4,6,6,6,0.4,0.4
2024-09-21T2100,2295A,118.2903,29.6963,黄山市,延安路89号,,13,8,19,8,5,39,,45,44,9,7,6,6,0.4,0.4
2024-09-21T2100,2296A,118.327,29.7178,黄山市,黄山东路89号,,12,12,13,7,6,37,,42,41,8,6,4,4,0.5,0.4
2024-09-21T2100,2297A,118.1371,30.2756,黄山市,黄山区政府5号楼,,25,18,13,17,7,62,,43,43,8,7,6,6,0.3,0.4
2024-09-21T2100,2423A,115.0601,30.2313,黄石市,沈家营,,32,32,39,3,6,66,,85,78,7,11,10,7,0.5,0.5
2024-09-21T2100,2424A,115.0817,30.2006,黄石市,陈家湾,,28,28,39,8,9,65,,85,77,7,8,11,18,0.5,0.4
2024-09-21T2100,2426A,114.8988,30.2019,黄石市,铁山,,24,19,36,13,13,74,,83,80,3,6,5,8,0.3,0.5
2024-09-21T2100,2427A,115.0307,30.2092,黄石市,团城山,,31,31,32,6,6,58,,78,72,8,9,6,6,0.5,0.4
2024-09-21T2100,3149A,115.0235,30.1578,黄石市,笔架山北路,,25,25,29,3,4,60,,82,76,5,6,7,7,0.5,0.5
2024-09-21T2100,1392A,114.4183,23.0528,惠州市,河南岸金山湖子站,,15,15,11,6,6,31,,50,45,13,6,6,4,0.5,0.5
2024-09-21T2100,1393A,114.4053,23.0822,惠州市,下埔横江三路子站,,16,16,12,8,8,39,,57,53,12,8,3,3,0.6,0.6
2024-09-21T2100,1394A,114.4103,23.1142,惠州市,江北云山西路子站,,22,22,13,8,4,32,,52,46,11,6,4,4,0.5,0.5
2024-09-21T2100,1395A,114.4645,22.7833,惠州市,惠阳区承修路船湖子站,,13,13,14,6,5,35,,,,16,14,4,4,0.4,0.3
2024-09-21T2100,1396A,114.5317,22.7422,惠州市,大亚湾管委会子站,,15,8,16,3,8,46,,53,52,8,16,6,7,0.4,0.4
2024-09-21T2100,3314A,114.4338,22.8134,惠州市,惠阳秋长,,17,17,12,8,9,31,,50,46,19,16,6,5,0.5,0.5
2024-09-21T2100,3452A,114.6517,22.775,惠州市,大亚湾霞涌,,14,10,14,3,7,42,,52,51,6,6,4,4,0.6,0.5
2024-09-21T2100,2240A,130.9762,45.3001,鸡西市,环保局,,45,45,19,15,6,5,,59,46,41,8,6,6,0.6,0.2
2024-09-21T2100,2243A,130.9429,45.3039,鸡西市,第一中学,,50,50,20,12,6,31,,60,53,22,8,5,4,0.1,0
2024-09-21T2100,3707A,131.0207,45.3073,鸡西市,欧美日汽修厂,,48,47,27,33,11,14,,63,44,34,15,6,5,0.3,0.2
2024-09-21T2100,3709A,130.9967,45.3106,鸡西市,市政设施管理处,细颗粒物(PM2.5),57,62,32,40,10,3,,56,39,40,17,8,6,0.4,0.2
2024-09-21T2100,2367A,114.9754,27.0803,吉安市,红声器材厂,,45,45,33,19,16,74,,84,81,14,13,6,7,0.7,0.6
2024-09-21T2100,2368A,114.9658,27.0999,吉安市,市森林工业局,,42,42,30,19,19,74,,84,82,21,19,8,10,0.6,0.6
2024-09-21T2100,2369A,114.99,27.1312,吉安市,市环境监测站,,35,35,29,11,14,81,,88,86,12,12,15,16,0.7,0.7
2024-09-21T2100,2370A,115.0093,27.0968,吉安市,青原区法院,颗粒物(PM10),58,65,34,15,18,77,,88,86,15,14,9,11,0.6,0.6
2024-09-21T2100,1772A,126.54,43.8622,吉林市,哈达湾,,34,34,19,11,6,32,,56,48,33,17,15,6,0.6,0.5
2024-09-21T2100,1773A,126.5844,43.8358,吉林市,东局子,颗粒物(PM10),57,63,18,16,9,19,,56,49,40,13,5,4,0.7,0.5
2024-09-21T2100,1774A,126.5052,43.8245,吉林市,电力学院,,40,40,22,14,9,33,,52,46,22,15,7,5,0.8,0.6
2024-09-21T2100,1775A,126.6133,43.8972,吉林市,江北,颗粒物(PM10),59,68,22,29,8,28,,56,46,14,8,6,6,0.7,0.6
2024-09-21T2100,1776A,126.555,43.8306,吉林市,江南公园,,50,50,18,17,8,26,,53,46,41,18,8,6,0.7,0.5
2024-09-21T2100,2868A,126.4739,43.953,吉林市,九站,颗粒物(PM10),52,54,42,23,16,10,,47,35,36,20,10,22,0.7,0.7
2024-09-21T2100,1299A,116.9862,36.6114,济南市,科干所,,28,27,18,7,5,87,,105,104,23,18,7,6,0.7,0.6
2024-09-21T2100,1300A,116.9376,36.665,济南市,农科所,,32,32,21,7,3,79,,97,95,32,24,7,5,0.6,0.5
2024-09-21T2100,1301A,117.1265,36.6734,济南市,开发区,,26,24,18,12,8,81,,97,95,24,14,5,5,0.5,0.4
2024-09-21T2100,1303A,117.0624,36.6868,济南市,省种子仓库,,27,27,21,9,5,82,,101,99,18,12,6,5,0.2,0.2
2024-09-21T2100,1304A,116.9489,36.6447,济南市,机床二厂,,27,27,18,3,2,82,,105,102,36,18,6,4,0.7,0.7
2024-09-21T2100,1305A,117.0495,36.663,济南市,市监测站,,27,24,17,12,5,85,,103,101,27,16,6,5,0.6,0.5
2024-09-21T2100,1306A,116.7675,36.5484,济南市,长清党校,,29,24,17,3,6,90,,112,110,29,19,7,6,0.8,0.7
2024-09-21T2100,1616A,117.6795,36.229,济南市,技术学院,,34,34,12,7,5,75,,99,97,13,4,7,6,0.5,0.6
2024-09-21T2100,1961A,117.532,36.6868,济南市,东山小学,,46,46,22,29,6,82,,102,100,31,15,5,4,0.4,0.4
2024-09-21T2100,3059A,117.7161,36.2049,济南市,泰兴公司,,23,19,17,7,6,72,,98,96,15,6,7,6,0.2,0.2
2024-09-21T2100,3064A,117.6867,36.2171,济南市,莱芜战役纪念馆,,46,46,22,3,3,69,,99,96,22,7,4,3,0.3,0.3
2024-09-21T2100,3494A,117.1673,36.9782,济南市,济阳区政府,,30,24,17,12,3,95,,101,101,11,14,7,7,0.5,0.5
2024-09-21T2100,3495A,117.1171,36.63,济南市,锦屏中学,,29,22,13,7,4,92,,103,102,23,19,6,5,0.4,0.4
2024-09-21T2100,3682A,116.9814,36.6819,济南市,济南四建,,34,34,12,15,4,76,,95,93,26,14,4,3,0.6,0.6
2024-09-21T2100,1653A,116.6251,35.4302,济宁市,火炬城,,28,28,19,9,5,81,,102,102,19,11,9,8,0.5,0.5
2024-09-21T2100,3500A,116.5814,35.3707,济宁市,北湖一中,,40,40,23,9,7,89,,105,105,19,13,3,2,0.4,0.4
2024-09-21T2100,3501A,116.8249,35.5593,济宁市,服务中心,,34,34,17,11,4,71,,100,99,24,11,6,5,0.2,0.3
2024-09-21T2100,3678A,116.5907,35.4054,济宁市,市第七中学,,27,26,21,7,5,84,,102,102,16,11,7,7,0.4,0.5
2024-09-21T2100,2255A,130.2751,46.8028,佳木斯市,佳纺,颗粒物(PM10),65,80,24,31,9,13,,61,41,35,16,4,4,0.5,0.4
2024-09-21T2100,2256A,130.3995,46.8307,佳木斯市,发电厂,颗粒物(PM10),62,73,17,24,8,4,,61,38,48,17,9,6,1.0,0.5
2024-09-21T2100,2257A,130.3258,46.7975,佳木斯市,环保局,,46,46,22,20,9,13,,57,40,42,21,8,8,0.5,0.4
2024-09-21T2100,2258A,130.3648,46.8032,佳木斯市,十一中,,48,48,22,23,11,11,,63,43,55,24,7,7,0.8,0.5
2024-09-21T2100,2259A,130.3794,46.7588,佳木斯市,四丰,,20,20,10,3,5,46,,60,55,12,13,1,1,0.2,0.2
2024-09-21T2100,1252A,120.7436,30.778,嘉兴市,清河小学,,31,31,19,10,7,66,,54,54,15,16,4,4,0.6,0.5
2024-09-21T2100,1253A,120.726,30.7478,嘉兴市,嘉兴学院,,23,23,16,14,11,65,,54,54,15,18,2,2,0.5,0.5
2024-09-21T2100,2872A,120.7846,30.7525,嘉兴市,南湖区残联,,30,30,18,13,10,74,,65,65,16,15,4,4,0.4,0.5
2024-09-21T2100,3407A,120.6916,30.7739,嘉兴市,秀洲住建,,,33,16,14,9,,,51,51,,16,4,4,0.6,0.7
2024-09-21T2100,1945A,98.2908,39.7711,嘉峪关市,气象局,颗粒物(PM10),57,63,31,17,10,64,,98,94,27,9,3,3,0.4,0.2
2024-09-21T2100,2884A,98.2672,39.7978,嘉峪关市,酒钢宾馆,颗粒物(PM10),52,53,34,22,13,81,,101,100,25,12,3,9,1.1,0.5
2024-09-21T2100,3248A,98.2643,39.7724,嘉峪关市,雄关区,,46,46,33,21,12,70,,94,92,27,12,8,8,0.5,0.4
2024-09-21T2100,1383A,113.1064,22.6058,江门市,北街,,17,17,15,9,11,21,,51,43,33,21,4,4,0.7,0.7
2024-09-21T2100,1384A,113.0731,22.5835,江门市,西区,,17,12,17,10,11,21,,50,43,33,24,5,5,0.5,0.5
2024-09-21T2100,1385A,113.0219,22.5311,江门市,圭峰西,,14,14,14,9,11,23,,56,48,28,14,2,2,0.7,0.6
2024-09-21T2100,1386A,113.0828,22.5947,江门市,东湖,,25,,16,17,15,19,,46,40,30,20,3,3,0.5,0.6
2024-09-21T2100,3311A,113.1075,22.5647,江门市,江海富民,,22,18,29,15,17,28,,57,46,27,22,6,6,0.6,0.6
2024-09-21T2100,3449A,113.05,22.4667,江门市,新会银湖,,17,11,12,8,13,17,,52,37,34,21,5,5,0.7,0.7
2024-09-21T2100,1828A,113.227,35.2125,焦作市,市环保局,,34,34,22,16,8,56,,73,71,20,12,4,3,0.4,0.3
2024-09-21T2100,3169A,113.2725,35.2067,焦作市,太极体育中心,,46,46,27,14,7,50,,76,73,25,11,4,4,0.6,0.6
2024-09-21T2100,3335A,113.3137,35.2641,焦作市,马村街道办,,39,39,22,15,9,42,,76,70,21,12,3,3,0.8,0.4
2024-09-21T2100,3336A,113.2465,35.2373,焦作市,焦作技师学院,,32,32,18,17,13,39,,75,70,23,12,3,5,0.4,0.3
2024-09-21T2100,3477A,113.1656,35.2539,焦作市,中站许衡医院,,39,39,17,22,18,30,,74,69,44,14,3,3,0.4,0.4
2024-09-21T2100,3981A,113.2449,35.1803,焦作市,原李万街道办,颗粒物(PM10),51,51,25,19,8,54,,73,70,18,9,3,3,0.5,0.5
2024-09-21T2100,1708A,116.3701,23.5345,揭阳市,新兴,,17,17,15,9,10,38,,78,64,18,13,5,8,0.6,0.6
2024-09-21T2100,1709A,116.3264,23.5443,揭阳市,西马,,23,23,16,9,8,44,,83,71,11,6,6,7,0.6,0.5
2024-09-21T2100,1710A,116.3611,23.5626,揭阳市,东兴,,23,23,17,9,8,42,,83,69,14,10,7,7,0.7,0.6
2024-09-21T2100,1711A,116.4151,23.5294,揭阳市,渔湖,,24,24,14,10,6,34,,80,66,21,11,4,6,0.6,0.6
2024-09-21T2100,3320A,116.403,23.5699,揭阳市,曲溪,,21,21,15,13,7,40,,79,66,14,11,2,2,0.5,0.5
2024-09-21T2100,1944A,102.1692,38.5167,金昌市,天庆家园,,37,37,17,19,11,69,,84,81,20,11,13,11,0.7,0.5
2024-09-21T2100,3170A,102.1864,38.5253,金昌市,市委党校,,45,45,22,14,10,83,,81,81,16,13,12,18,1.0,0.6
2024-09-21T2100,4022A,102.1647,38.5371,金昌市,金川区人防中心,颗粒物(PM10),56,61,27,20,12,67,,76,74,22,13,9,14,1.0,0.6
2024-09-21T2100,1262A,119.647,29.077,金华市,十五中,,28,28,21,3,8,46,,53,46,15,18,1,2,0.5,0.5
2024-09-21T2100,1263A,119.686,29.1029,金华市,监测站,,25,25,21,14,10,46,,51,45,15,19,2,2,0.5,0.6
2024-09-21T2100,3659A,119.656,29.1131,金华市,气象局,,26,26,22,12,9,41,,45,39,17,20,4,4,0.3,0.4
2024-09-21T2100,1767A,121.1115,41.0879,锦州市,南山,,18,18,13,8,6,41,,65,61,26,10,9,9,0.8,0.4
2024-09-21T2100,1768A,121.0533,40.8434,锦州市,开发区,,17,15,18,7,8,54,,60,58,14,11,6,6,0.6,0.6
2024-09-21T2100,1769A,121.1836,41.1119,锦州市,百股街道,,25,25,14,12,4,33,,63,55,31,15,12,10,0.8,0.6
2024-09-21T2100,1770A,121.1178,41.1222,锦州市,天安街道,,16,16,12,8,5,46,,63,60,22,10,8,9,0.5,0.4
2024-09-21T2100,1771A,121.1303,41.1386,锦州市,北湖公园,,18,16,11,12,5,47,,70,65,20,10,8,9,0.4,0.2
2024-09-21T2100,2160A,112.85,35.5051,晋城市,自来水公司,,34,34,26,17,12,79,,75,75,17,17,7,8,0.7,1
2024-09-21T2100,2161A,112.8318,35.4936,晋城市,白云商贸,颗粒物(PM10),52,54,34,14,13,80,,72,72,20,19,7,7,0.8,0.9
2024-09-21T2100,2162A,112.8508,35.4887,晋城市,市环保局,,37,37,26,14,15,77,,73,73,22,21,6,7,0.6,1
2024-09-21T2100,3620A,112.8271,35.4828,晋城市,泽州一中,,50,50,28,17,11,77,,70,70,21,22,8,9,0.7,0.8
2024-09-21T2100,2171A,112.7532,37.6945,晋中市,锦纶小区,,39,39,20,7,4,69,,100,95,25,19,8,8,0.3,0.3
2024-09-21T2100,2173A,112.7249,37.7067,晋中市,南都小区,,39,39,20,22,14,73,,102,96,21,15,6,6,0.5,0.5
2024-09-21T2100,2174A,112.6991,37.6982,晋中市,榆次区政府,,39,39,23,16,15,68,,98,93,25,17,7,7,0.2,0.2
2024-09-21T2100,2865A,112.7195,37.6828,晋中市,榆次三中,,31,31,18,7,3,75,,102,97,21,16,8,7,0.4,0.4
2024-09-21T2100,2439A,112.2014,31.0481,荆门市,竹园小学,,38,38,50,10,12,87,,109,106,14,12,9,10,0.5,0.5
2024-09-21T2100,2440A,112.1969,30.9891,荆门市,掇刀,,36,36,42,9,12,92,,110,108,16,13,2,4,0.4,0.5
2024-09-21T2100,2441A,112.2213,31.0386,荆门市,石化一小,颗粒物(PM10),52,54,56,7,10,86,,111,107,9,9,18,12,0.4,0.4
2024-09-21T2100,3012A,112.1849,31.0362,荆门市,西山林语,,35,35,35,8,12,96,,112,110,11,10,8,8,0.6,0.6
2024-09-21T2100,3547A,112.1632,31.0138,荆门市,龙泉中学南校,,41,41,43,10,10,95,,110,108,18,12,12,9,0.5,0.5
2024-09-21T2100,1844A,112.2494,30.3197,荆州市,市图书馆,,50,50,51,26,25,85,,109,106,26,16,12,9,0.6,0.6
2024-09-21T2100,1845A,112.2008,30.3544,荆州市,市委党校,颗粒物(PM10),52,53,53,21,31,82,,114,111,24,15,10,7,0.6,0.6
2024-09-21T2100,3194A,112.2747,30.3122,荆州市,管委会,,37,37,44,12,23,94,,110,108,17,13,9,8,0.5,0.5
2024-09-21T2100,3548A,112.1655,30.3364,荆州市,学苑路,,48,48,60,30,41,87,,117,114,24,22,6,8,0.5,0.6
2024-09-21T2100,2343A,117.2117,29.2933,景德镇市,老干部活动中心,,14,14,13,3,7,39,,47,46,9,7,6,7,0.4,0.3
2024-09-21T2100,2344A,117.1894,29.2789,景德镇市,兽医站,,14,10,15,3,7,42,,50,49,6,5,7,7,0.5,0.5
2024-09-21T2100,2345A,117.1547,29.2617,景德镇市,台达陶瓷,,21,21,15,3,6,41,,47,46,7,7,7,20,0.3,0.3
2024-09-21T2100,2346A,117.2461,29.2956,景德镇市,陶研所,,34,9,14,6,4,106,,57,57,13,9,6,7,0.4,0.3
2024-09-21T2100,1803A,115.9872,29.6815,九江市,十里,,25,25,31,12,14,51,,64,64,12,16,7,11,0.5,0.6
2024-09-21T2100,1804A,115.9584,29.7046,九江市,茅山头,,27,27,28,18,18,40,,53,53,10,22,5,9,0.6,0.6
2024-09-21T2100,1805A,115.9877,29.7295,九江市,西园,,23,23,24,13,12,48,,62,62,11,15,9,10,0.5,0.5
2024-09-21T2100,1806A,116.0172,29.6547,九江市,五七二七厂,,25,25,22,3,7,56,,67,66,12,12,9,7,0.5,0.6
2024-09-21T2100,1808A,115.9114,29.6038,九江市,综合工业园,,18,18,32,8,11,54,,66,66,15,29,9,11,0.5,0.7
2024-09-21T2100,1809A,116.0721,29.7535,九江市,石化总厂,,32,32,28,20,15,51,,61,58,10,18,8,10,0.5,0.6
2024-09-21T2100,1810A,115.9773,29.5698,九江市,庐山气象台,,20,8,12,3,7,64,,69,68,5,4,6,9,1.2,0.9
2024-09-21T2100,3190A,116.0254,29.6994,九江市,外国语学校,,29,22,26,20,13,50,,62,59,12,16,8,11,0.8,0.7
2024-09-21T2100,2658A,98.5061,39.7443,酒泉市,仓门街子站,颗粒物(PM10),59,68,33,22,10,60,,90,88,25,9,18,10,0.6,0.3
2024-09-21T2100,2659A,98.4989,39.7256,酒泉市,油田生活基地,颗粒物(PM10),58,66,34,15,8,64,,92,90,28,10,13,9,0.5,0.2
2024-09-21T2100,2698A,76.0072,39.4467,喀什地区,巡警大队,颗粒物(PM10),118,185,224,50,51,86,,93,93,13,34,4,5,0.5,0.7
2024-09-21T2100,2699A,75.9755,39.4694,喀什地区,吾办,颗粒物(PM10),119,187,209,60,76,76,,89,89,25,35,5,6,0.5,0.7
2024-09-21T2100,4027A,75.9483,39.4689,喀什地区,老干局,颗粒物(PM10),117,183,236,43,54,53,,71,69,28,40,5,5,0.5,0.7
2024-09-21T2100,1824A,114.3389,34.7781,开封市,肿瘤医院,,27,26,13,15,7,84,,96,96,18,9,5,4,0.3,0.3
2024-09-21T2100,1826A,114.2885,34.7965,开封市,世纪星幼儿园,,27,24,14,6,5,84,,95,95,17,6,6,5,0.4,0.4
2024-09-21T2100,3147A,114.3438,34.8106,开封市,龙亭公园,,,,14,,2,,,88,88,26,11,4,3,0.4,0.5
2024-09-21T2100,3210A,114.3644,34.7964,开封市,汴京公园,,23,20,16,10,5,72,,92,92,23,9,4,4,0.5,0.5
2024-09-21T2100,3473A,114.2485,34.8306,开封市,技师学院,颗粒物(PM10),51,51,13,8,6,65,,88,86,30,10,8,7,0.5,0.4
2024-09-21T2100,3592A,114.4644,34.7556,开封市,祥符区生态环境局,,40,40,19,9,4,35,,87,82,59,14,10,6,0.4,0.3
2024-09-21T2100,1951A,84.895,45.6094,克拉玛依市,长征新村,,43,43,52,18,13,73,,84,84,27,20,7,7,0.4,0.3
2024-09-21T2100,1952A,84.8988,45.5893,克拉玛依市,南林小区,,38,38,43,13,17,22,,74,74,57,28,8,9,0.8,0.5
2024-09-21T2100,1954A,84.905,44.3396,克拉玛依市,独山子区,颗粒物(PM10),54,58,54,12,17,112,,138,137,22,16,10,12,0.3,0.4
2024-09-21T2100,1955A,85.6979,46.098,克拉玛依市,乌尔禾区商贸楼,颗粒物(PM10),51,51,38,9,10,80,,86,86,26,19,10,8,0.3,0.3
2024-09-21T2100,3612A,85.1045,45.6899,克拉玛依市,白碱滩区新站,颗粒物(PM10),75,99,47,28,11,75,,87,87,25,21,7,8,0.3,0.3
2024-09-21T2100,2697A,76.1454,39.7142,克孜勒苏柯尔克孜自治州,市人民政府,颗粒物(PM10),121,192,175,70,68,80,,100,100,14,15,3,8,0.4,0.4
2024-09-21T2100,3665A,76.1658,39.7157,克孜勒苏柯尔克孜自治州,克州文化中心,颗粒物(PM10),119,188,176,69,71,84,,97,97,12,18,5,10,0.4,0.4
2024-09-21T2100,1450A,102.8204,24.8886,昆明市,呈贡新区,,31,31,35,12,21,62,,81,74,13,22,6,6,0.5,0.5
2024-09-21T2100,1452A,102.7252,25.0902,昆明市,龙泉镇,,,,29,,17,,,92,85,15,19,8,7,0.6,0.7
2024-09-21T2100,1453A,102.7266,25.0375,昆明市,东风东路,,21,21,28,13,18,55,,85,77,14,16,6,8,0.4,0.4
2024-09-21T2100,1454A,102.6742,25.0669,昆明市,金鼎山,,22,22,30,10,16,63,,90,82,11,12,7,8,0.4,0.4
2024-09-21T2100,1455A,102.6644,25.0401,昆明市,碧鸡广场,,21,21,32,13,18,59,,88,79,13,13,5,6,0.6,0.6
2024-09-21T2100,3179A,102.7494,25.0119,昆明市,官渡区博物馆,,23,23,32,10,15,47,,86,76,26,25,7,8,0.4,0.5
2024-09-21T2100,3375A,102.8017,24.8336,昆明市,青年创业园,,21,14,20,11,16,66,,82,76,10,16,4,5,0.6,0.6
2024-09-21T2100,3550A,102.7997,24.9786,昆明市,昆明学院,,26,26,44,12,24,64,,88,78,14,27,6,7,0.4,0.5
2024-09-21T2100,3551A,102.5967,24.6736,昆明市,晋宁区生态环境分局,,31,31,43,14,26,76,,91,82,8,20,2,3,0.4,0.5
2024-09-21T2100,3552A,102.6678,24.9856,昆明市,云天化总部,,21,21,29,14,21,63,,93,86,14,16,7,7,0.5,0.5
2024-09-21T2100,1456A,91.1319,29.6514,拉萨市,八廓街,,19,10,9,9,6,60,,100,96,31,11,7,7,0.2,0.1
2024-09-21T2100,1457A,91.1221,29.6747,拉萨市,市环保局,,21,21,9,10,7,48,,98,92,30,12,8,8,0.5,0.4
2024-09-21T2100,1458A,91.0874,29.6475,拉萨市,区监测站,,26,23,8,9,6,41,,92,87,51,13,7,6,0.2,0
2024-09-21T2100,1459A,91.1774,29.6541,拉萨市,西藏大学,,23,12,9,3,6,73,,97,95,12,6,8,6,0.4,0.3
2024-09-21T2100,1460A,90.9798,29.6588,拉萨市,区辐射站,,25,25,9,7,6,61,,92,88,37,11,8,8,0.3,0.2
2024-09-21T2100,1461A,91.0834,29.6292,拉萨市,拉萨火车站,,25,9,10,3,5,77,,94,94,8,9,5,5,0.4,0.3
2024-09-21T2100,2520A,109.2203,23.7256,来宾市,来宾技工学校,,16,16,27,6,19,37,,73,56,7,10,4,6,0.6,0.7
2024-09-21T2100,3535A,109.1781,23.7297,来宾市,兴宾区政府,,,13,26,11,18,,,78,64,4,8,5,7,0.7,0.8
2024-09-21T2100,4002A,109.2416,23.7461,来宾市,中南小学,,15,,29,10,19,44,,79,64,6,11,3,4,0.6,0.8
2024-09-21T2100,1476A,103.631,36.1031,兰州市,兰炼宾馆,颗粒物(PM10),52,54,42,27,27,47,,116,110,54,32,7,9,0.5,0.5
2024-09-21T2100,1478A,103.8412,36.0726,兰州市,生物制品所,,41,41,31,24,21,52,,101,97,32,27,8,9,0.4,0.4
2024-09-21T2100,1479A,103.831,36.0464,兰州市,铁路设计院,颗粒物(PM10),54,57,42,31,28,19,,89,77,79,44,7,9,0.7,0.7
2024-09-21T2100,3186A,103.7158,36.1058,兰州市,教育港,颗粒物(PM10),58,66,38,25,22,61,,104,101,30,23,7,6,0.4,0.4
2024-09-21T2100,3241A,103.7439,36.0842,兰州市,百合公园,,46,46,34,19,17,45,,101,97,43,30,6,9,0.4,0.5
2024-09-21T2100,3242A,103.9611,35.998,兰州市,和平,,46,46,32,22,14,41,,94,88,28,20,9,12,0.2,0.4
2024-09-21T2100,3245A,103.6633,36.533,兰州新区,新区管委会,颗粒物(PM10),52,54,44,31,23,76,,113,109,11,19,12,13,0.5,0.5
2024-09-21T2100,3246A,103.6975,36.4789,兰州新区,舟曲中学,,43,43,36,25,18,80,,116,112,14,26,18,25,0.4,0.5
2024-09-21T2100,1067A,116.6708,39.5111,廊坊市,药材公司,,17,14,12,3,4,52,,80,75,18,13,2,2,0.3,0.3
2024-09-21T2100,1068A,116.7214,39.5589,廊坊市,开发区,,18,14,12,7,3,55,,81,77,17,13,1,1,0.3,0.2
2024-09-21T2100,1070A,116.7244,39.5269,廊坊市,北华航天学院,,19,16,14,3,5,58,,82,78,13,11,2,2,0.2,0.2
2024-09-21T2100,2919A,116.7022,39.5453,廊坊市,河北工业大学,,18,12,12,8,6,55,,81,76,15,11,1,1,0.3,0.2
2024-09-21T2100,2535A,103.7723,29.5462,乐山市,花湖湾,颗粒物(PM10),55,60,25,28,11,95,,130,127,25,12,2,3,0.5,0.5
2024-09-21T2100,2536A,103.7627,29.5844,乐山市,牛耳桥,,41,41,21,17,11,75,,122,117,39,19,4,5,0.5,0.5
2024-09-21T2100,2537A,103.7508,29.6006,乐山市,市第三水厂,,45,45,24,16,12,75,,134,128,45,19,4,4,0.5,0.4
2024-09-21T2100,2538A,103.7571,29.5664,乐山市,市监测站,,32,32,22,22,15,94,,122,120,22,13,5,5,0.4,0.4
2024-09-21T2100,3361A,103.7311,29.5628,乐山市,理工大学,,40,40,26,21,15,82,,131,124,31,14,3,3,0.7,0.7
2024-09-21T2100,2599A,100.2497,26.8802,丽江市,丽江古城,,32,30,28,22,19,64,,84,82,11,12,10,10,0.6,0.5
2024-09-21T2100,2600A,100.2203,26.8906,丽江市,市中心,,33,23,20,23,15,68,,84,82,18,7,7,6,0.6,0.6
2024-09-21T2100,1267A,119.914,28.4514,丽水市,监测站大楼,,14,6,18,3,9,43,,68,57,12,13,3,3,0.6,0.6
2024-09-21T2100,1268A,119.93,28.4586,丽水市,莲都小学,,14,6,17,3,8,44,,69,60,12,13,4,4,0.5,0.5
2024-09-21T2100,1269A,119.879,28.4231,丽水市,余庄前,,10,7,21,3,10,30,,60,42,13,9,4,4,0.6,0.5
2024-09-21T2100,1173A,119.176,34.5885,连云港市,市环境监测站,,,,31,9,9,79,,93,90,11,10,5,5,0.5,0.5
2024-09-21T2100,3000A,119.3581,34.6972,连云港市,德源药业,,29,29,28,7,9,80,,93,91,12,11,6,5,0.4,0.5
2024-09-21T2100,3007A,119.178,34.844,连云港市,新城一中,,21,21,13,9,9,62,,86,79,32,23,5,4,0.6,0.6
2024-09-21T2100,3008A,119.3608,34.7519,连云港市,胡沟管理处,,29,29,26,3,6,75,,86,84,16,17,8,8,0.4,0.6
2024-09-21T2100,3009A,119.1478,34.5911,连云港市,矿山设计院,,36,36,31,9,10,78,,94,91,17,10,4,5,0.5,0.5
2024-09-21T2100,3434A,119.2413,34.6539,连云港市,工贸学校,,26,22,17,8,9,81,,94,92,17,20,8,6,0.5,0.5
2024-09-21T2100,3664A,119.4172,34.7341,连云港市,连云街道,,42,42,30,8,8,72,,82,81,21,19,4,4,0.4,0.6
2024-09-21T2100,2571A,102.3431,27.8099,凉山彝族自治州,青龙寺,,27,18,18,17,10,86,,104,100,5,5,4,5,0.4,0.7
2024-09-21T2100,2572A,102.2721,27.8415,凉山彝族自治州,邛海宾馆,,30,30,26,19,16,83,,106,99,10,11,8,8,0.5,0.5
2024-09-21T2100,2573A,102.2625,27.898,凉山彝族自治州,西昌市政府,,25,25,17,17,12,59,,96,89,15,6,7,8,0.4,0.3
2024-09-21T2100,2574A,102.2685,27.8851,凉山彝族自治州,凉山州政府,,30,28,24,21,16,82,,103,98,7,8,6,6,0.7,0.7
2024-09-21T2100,2575A,102.237,27.8914,凉山彝族自治州,长安,,31,31,26,19,18,80,,100,96,7,11,8,9,0.6,0.6
2024-09-21T2100,2212A,123.2,41.1953,辽阳市,宏伟区,,22,22,18,8,7,38,,63,60,21,16,10,10,0.4,0.4
2024-09-21T2100,2213A,123.1683,41.2495,辽阳市,新华园,,23,23,17,3,4,32,,58,54,28,17,10,9,0.4,0.4
2024-09-21T2100,2214A,123.2354,41.2639,辽阳市,滨河路,,33,33,19,16,10,31,,66,60,26,17,10,10,0.3,0.4
2024-09-21T2100,2215A,123.149,41.2991,辽阳市,铁西工业园,,31,31,18,17,8,14,,57,48,33,15,11,12,0.5,0.5
2024-09-21T2100,2227A,125.1358,42.8845,辽源市,环保局,,33,33,21,8,7,11,,48,41,24,12,8,9,0.7,0.6
2024-09-21T2100,3239A,125.0764,42.9078,辽源市,银鹰制药,,39,39,14,18,8,6,,52,41,29,12,5,5,0.8,0.6
2024-09-21T2100,1625A,115.9848,36.4372,聊城市,区政府,,28,24,16,8,5,87,,104,103,26,17,7,7,0.4,0.4
2024-09-21T2100,2878A,116.0072,36.4343,聊城市,聊大东校,,30,22,21,9,11,96,,107,107,21,15,6,7,0.4,0.4
2024-09-21T2100,3200A,115.9819,36.4978,聊城市,监控中心,颗粒物(PM10),51,51,13,17,6,38,,99,86,66,19,7,6,0.2,0.2
2024-09-21T2100,3513A,116.0445,36.4361,聊城市,九州社区,,29,28,21,9,3,92,,106,105,16,8,3,2,0.5,0.5
2024-09-21T2100,4018A,116.0567,36.4608,聊城市,星美广场,,42,42,24,13,5,78,,104,101,23,10,7,6,0.2,0.2
2024-09-21T2100,2632A,94.3681,29.6376,林芝市,林芝监测站,,,12,8,8,6,,,81,81,2,5,9,10,0.2,0.2
2024-09-21T2100,2633A,94.3616,29.6616,林芝市,林芝人民医院,,25,25,10,6,5,68,,79,79,5,6,8,8,0.2,0.2
2024-09-21T2100,2603A,100.0781,23.8982,临沧市,市环保局,细颗粒物(PM2.5),60,59,39,43,25,44,,80,74,22,12,5,8,0.8,0.6
2024-09-21T2100,2604A,100.0894,23.8822,临沧市,市气象局,,50,45,34,35,28,53,,86,78,13,12,5,8,0.6,0.5
2024-09-21T2100,1733A,111.5531,36.0783,临汾市,临钢医院,,,47,26,,27,94,,110,108,15,12,4,4,0.4,0.5
2024-09-21T2100,1734A,111.5028,36.0714,临汾市,技工学校,,33,26,26,19,14,105,,110,110,14,13,5,5,0.6,0.6
2024-09-21T2100,1736A,111.5018,36.0855,临汾市,市委,,34,24,19,3,3,107,,116,116,18,11,6,6,0.3,0.4
2024-09-21T2100,3018A,111.505,36.1014,临汾市,唐尧大酒店,,37,37,22,3,5,103,,108,108,12,11,4,4,0.4,0.4
2024-09-21T2100,3668A,111.5036,36.0414,临汾市,城南,,40,40,28,24,13,106,,110,109,8,12,5,5,0.2,0.4
2024-09-21T2100,2667A,103.2069,35.5993,临夏回族自治州,环保局,,43,43,31,24,15,76,,90,88,15,15,8,7,0.5,0.4
2024-09-21T2100,2668A,103.2417,35.6057,临夏回族自治州,建设大厦,,49,49,36,21,13,79,,94,93,14,12,9,9,0.5,0.4
2024-09-21T2100,1618A,118.3429,35.0532,临沂市,沂河小区,,29,29,21,15,9,81,,98,96,7,5,7,6,0.2,0.2
2024-09-21T2100,1619A,118.295,35.0583,临沂市,鲁南制药厂,,27,22,17,3,3,85,,104,102,17,10,7,4,0.2,0.2
2024-09-21T2100,1620A,118.2794,34.9976,临沂市,新光毛纺厂,,25,24,15,3,2,79,,96,94,20,15,6,4,0.4,0.4
2024-09-21T2100,1621A,118.3956,35.0888,临沂市,河东保险公司,,,29,23,13,5,,,107,106,25,15,7,5,0.3,0.5
2024-09-21T2100,3370A,118.3564,35.0215,临沂市,十里堡居委,,25,22,13,3,5,80,,102,99,15,9,8,7,0.4,0.4
2024-09-21T2100,3496A,118.3604,35.1084,临沂市,南坊新区,,29,29,22,3,3,82,,101,98,14,9,9,7,0.4,0.4
2024-09-21T2100,3860A,118.3920,35.0300,临沂市,皇山花园小区,,27,27,24,10,8,72,,98,93,17,8,7,6,0.1,0.2
2024-09-21T2100,1870A,109.4856,24.3895,柳州市,柳东小学,,15,15,21,9,17,34,,62,52,7,5,7,8,0.6,0.6
2024-09-21T2100,1871A,109.4157,24.3277,柳州市,环保监测站,,18,18,29,7,20,40,,67,55,8,7,8,8,0.9,0.9
2024-09-21T2100,1872A,109.389,24.341,柳州市,河西水厂,,32,27,36,18,22,10,,62,46,37,16,27,14,3.2,1.3
2024-09-21T2100,1873A,109.4311,24.2921,柳州市,市四中,,19,,25,13,18,45,,71,61,7,6,5,6,0.7,0.7
2024-09-21T2100,1874A,109.4006,24.3631,柳州市,市九中,,19,19,34,8,18,37,,66,53,12,10,6,7,0.8,0.8
2024-09-21T2100,1875A,109.4958,24.3134,柳州市,古亭山,,15,15,23,9,17,36,,70,60,8,7,6,7,0.8,0.8
2024-09-21T2100,3402A,109.5422,24.3996,柳州市,市二中,,14,8,22,6,15,43,,66,56,11,9,7,8,0.6,0.6
2024-09-21T2100,2307A,116.5079,31.737,六安市,监测大楼,,36,,25,25,19,58,,54,54,9,7,4,5,0.4,0.4
2024-09-21T2100,2308A,116.4738,31.7643,六安市,皖西学院,,37,37,38,25,20,44,,50,50,10,9,5,5,0.3,0.2
2024-09-21T2100,2309A,116.4996,31.7905,六安市,朝阳厂,,38,31,25,26,17,46,,53,53,13,7,1,2,0.4,0.4
2024-09-21T2100,2310A,116.5567,31.7886,六安市,开发区,,36,36,34,21,15,56,,56,56,16,14,2,4,0.5,0.5
2024-09-21T2100,2577A,104.83,26.5917,六盘水市,黄土坡,,23,17,14,9,13,71,,82,80,5,8,5,7,0.4,0.5
2024-09-21T2100,2578A,104.89,26.5939,六盘水市,水钢,,20,13,23,9,10,64,,85,76,14,15,7,9,0.3,1.5
2024-09-21T2100,2579A,104.8475,26.5894,六盘水市,民中,,21,10,13,7,8,66,,89,78,8,8,6,6,0.3,0.3
2024-09-21T2100,2580A,104.9544,26.5506,六盘水市,双水,,27,27,21,3,8,62,,78,76,11,10,8,11,0.3,0.3
2024-09-21T2100,2336A,117.0217,25.1033,龙岩市,龙岩市监测站,,26,,16,18,12,49,,80,71,15,10,6,7,0.5,0.4
2024-09-21T2100,2337A,117.0258,25.0661,龙岩市,闽西职业技术学院,,26,26,23,15,11,40,,78,67,16,12,5,5,0.6,0.5
2024-09-21T2100,2338A,117.0196,25.0306,龙岩市,龙岩学院,,23,18,19,16,8,47,,77,64,4,13,5,3,0.4,0.5
2024-09-21T2100,2885A,104.9339,33.3826,陇南市,滨江中学,,45,45,32,17,13,70,,88,83,11,12,7,8,0.5,0.6
2024-09-21T2100,3247A,104.955,33.371,陇南市,市总工会,,29,29,27,7,6,80,,89,86,7,5,8,8,0.3,0.3
2024-09-21T2100,2487A,111.9589,27.8901,娄底市,电视发射台,,41,41,42,19,21,99,,89,89,16,15,6,6,0,0
2024-09-21T2100,2488A,111.9975,27.725,娄底市,市监测站,,37,37,36,14,19,95,,90,90,6,9,5,5,0.8,0.8
2024-09-21T2100,2489A,112.0194,27.7314,娄底市,市委党校,,31,31,33,15,22,90,,87,87,7,5,7,7,0.6,0.6
2024-09-21T2100,2490A,111.9561,27.7569,娄底市,涟钢,颗粒物(PM10),55,59,42,23,22,78,,76,76,19,10,9,12,1.6,1.1
2024-09-21T2100,2491A,111.9892,27.7044,娄底市,市政府,,30,25,35,15,15,94,,89,89,11,13,6,6,0.4,0.5
2024-09-21T2100,1893A,105.4324,28.9634,泸州市,九狮山,,47,47,30,28,18,44,,79,75,8,15,6,6,0.5,0.4
2024-09-21T2100,1894A,105.4427,28.9063,泸州市,小市上码头,,24,24,24,9,12,66,,95,95,32,14,6,5,0.5,0.5
2024-09-21T2100,1895A,105.4241,28.8573,泸州市,兰田宪桥,,24,24,25,15,15,46,,86,82,31,13,5,5,0.5,0.4
2024-09-21T2100,1896A,105.4379,28.8833,泸州市,市环监站,,26,24,26,15,17,83,,96,96,22,13,7,7,0.4,0.4
2024-09-21T2100,3490A,105.3617,28.7703,泸州市,纳溪区环保局,,,,32,23,19,19,,88,80,59,21,6,6,0.5,0.4
2024-09-21T2100,2183A,111.1406,37.5211,吕梁市,环保局,,34,34,21,18,11,72,,91,90,13,8,5,4,0.4,0.4
2024-09-21T2100,2185A,111.1297,37.5136,吕梁市,自来水公司,,24,24,19,16,10,62,,90,88,20,11,2,3,0.4,0.3
2024-09-21T2100,2867A,111.1283,37.51,吕梁市,马茂庄小学,,30,30,27,12,12,71,,96,94,18,12,2,2,0.3,0.3
2024-09-21T2100,1812A,112.3931,34.6516,洛阳市,市委党校,,32,32,21,18,14,67,,80,80,22,10,7,5,0.5,0.6
2024-09-21T2100,1814A,112.4657,34.6871,洛阳市,豫西宾馆,,32,32,23,14,9,66,,77,77,19,10,8,7,0.4,0.5
2024-09-21T2100,1815A,112.494,34.6886,洛阳市,河南林校,,30,30,18,13,11,64,,79,79,24,12,5,5,0.5,0.5
2024-09-21T2100,1816A,112.3844,34.623,洛阳市,开发区管委会,,26,26,19,14,13,68,,82,82,19,11,3,2,0.3,0.4
2024-09-21T2100,1817A,112.4267,34.6258,洛阳市,市委新办公区,,27,27,19,11,13,65,,82,82,16,6,3,2,0.5,0.6
2024-09-21T2100,3340A,112.6005,34.6326,洛阳市,伊滨,,26,24,16,18,12,68,,84,84,22,12,7,7,0.5,0.6
2024-09-21T2100,3341A,112.4951,34.6332,洛阳市,中移产业园,,32,32,22,22,12,60,,84,83,24,10,3,2,0.4,0.5
2024-09-21T2100,3593A,112.5736,34.8993,洛阳市,吉利监测站,,25,24,20,7,9,77,,82,82,14,7,5,3,0.2,0.3
2024-09-21T2100,3635A,112.3677,34.662,洛阳市,河科大西苑校区,,25,25,18,10,8,72,,83,83,17,9,4,3,0.5,0.6
2024-09-21T2100,3636A,112.4388,34.6781,洛阳市,英才小学,,30,30,21,14,15,68,,76,76,22,14,3,3,0.4,0.5
2024-09-21T2100,2399A,114.051,33.5699,漯河市,三五一五工厂,,46,46,26,32,10,79,,98,96,19,7,6,5,0.5,0.5
2024-09-21T2100,2400A,114.0055,33.5698,漯河市,漯河大学,,39,39,30,19,8,87,,100,100,20,9,4,4,0.5,0.4
2024-09-21T2100,2401A,114.0138,33.5828,漯河市,市水利局,,39,39,23,19,5,82,,95,94,16,5,5,4,0.6,0.5
2024-09-21T2100,2402A,114.0261,33.5698,漯河市,市广电局,,39,39,24,13,8,83,,98,97,19,6,7,6,0.5,0.4
2024-09-21T2100,3478A,113.9749,33.5664,漯河市,市图书馆,,,33,23,20,7,,,100,100,22,8,3,6,,0.3
2024-09-21T2100,3479A,114.0967,33.5906,漯河市,召陵区卫健委,,46,46,28,22,9,57,,95,90,27,5,5,5,0.6,0.6
2024-09-21T2100,1798A,118.5092,31.6837,马鞍山市,湖东路四小,,34,34,23,19,17,85,,73,73,19,14,9,8,0.6,0.7
2024-09-21T2100,1799A,118.5024,31.6449,马鞍山市,开发区,,35,35,26,13,12,86,,70,70,18,15,8,8,0.7,0.9
2024-09-21T2100,1800A,118.5228,31.7231,马鞍山市,慈湖,,27,27,24,10,11,84,,72,72,14,10,8,8,0.7,0.8
2024-09-21T2100,1802A,118.6245,31.7241,马鞍山市,濮塘,,33,33,20,21,16,75,,73,73,17,14,8,7,0.8,0.7
2024-09-21T2100,3633A,118.4918,31.6809,马鞍山市,雨山,,32,32,25,14,14,86,,69,69,18,16,10,11,0.7,1
2024-09-21T2100,1686A,111.0286,21.4688,茂名市,电白南海,,,24,28,,15,33,,78,60,12,10,16,13,0.8,0.8
2024-09-21T2100,1687A,110.9294,21.6533,茂名市,茂石化七小,,27,27,24,17,16,28,,75,54,14,11,12,13,0.9,0.7
2024-09-21T2100,1688A,110.9107,21.6687,茂名市,健康路,,28,22,21,19,12,25,,80,55,11,8,25,23,0.9,1
2024-09-21T2100,1689A,110.8592,21.6828,茂名市,高岭,,27,27,27,7,17,20,,68,45,13,13,9,14,1.0,0.8
2024-09-21T2100,3450A,111.01,21.5165,茂名市,电白水东,,13,12,20,9,17,32,,74,56,13,9,10,10,0.6,0.6
2024-09-21T2100,2539A,104.0308,30.0478,眉山市,黑龙滩水库,,35,27,26,18,12,112,,141,139,3,8,4,4,0.3,0.3
2024-09-21T2100,2540A,103.8416,30.0874,眉山市,气象局,,46,46,23,22,9,71,,146,135,35,20,7,8,0.4,0.4
2024-09-21T2100,3137A,103.8578,30.0744,眉山市,市委党校,,25,24,19,9,5,79,,140,133,31,18,7,8,0.3,0.3
2024-09-21T2100,3148A,103.8291,30.0564,眉山市,区人社局,,31,21,21,3,4,98,,145,140,24,20,6,7,0.3,0.4
2024-09-21T2100,1690A,116.1231,24.3284,梅州市,梅江月梅,,,22,12,,2,,,65,64,8,3,10,8,0.5,0.4
2024-09-21T2100,1691A,116.0797,24.2719,梅州市,梅县新城,,16,12,11,3,5,51,,62,60,9,6,4,4,0.5,0.4
2024-09-21T2100,1692A,116.1248,24.2654,梅州市,环境监控中心,,20,14,13,8,6,64,,59,59,12,8,5,5,0.5,0.4
2024-09-21T2100,3315A,116.1233,24.2991,梅州市,梅龙,,20,17,8,12,5,62,,64,64,10,4,12,9,0.7,0.6
2024-09-21T2100,1878A,104.7778,31.4741,绵阳市,富乐山,,28,25,17,14,7,88,,103,101,9,7,2,2,0.4,0.3
2024-09-21T2100,1879A,104.7563,31.4535,绵阳市,市人大,,28,27,16,19,6,78,,99,94,22,13,8,9,0.3,0.3
2024-09-21T2100,1880A,104.6697,31.4668,绵阳市,高新区自来水公司,,26,19,16,7,4,81,,104,100,17,8,3,3,0.5,0.5
2024-09-21T2100,1881A,104.7287,31.5075,绵阳市,三水厂,,25,22,14,9,6,78,,103,99,18,11,5,5,0.3,0.3
2024-09-21T2100,3491A,104.69,31.5322,绵阳市,西科大附属小学,,27,27,14,13,8,79,,103,99,16,8,5,4,0.5,0.4
2024-09-21T2100,3492A,104.5648,31.5343,绵阳市,安州区旅游局,,33,33,15,14,11,72,,106,99,20,13,17,8,0.5,0.4
2024-09-21T2100,1784A,129.61,44.561,牡丹江市,环保大楼,,40,40,24,12,14,31,,57,51,22,11,10,7,0.3,0.3
2024-09-21T2100,1785A,129.6115,44.5782,牡丹江市,文化广场,颗粒物(PM10),55,59,32,33,18,29,,50,42,20,14,9,8,0.5,0.3
2024-09-21T2100,1786A,129.5904,44.5963,牡丹江市,第一医院,,43,43,28,26,21,31,,56,49,18,11,9,7,0.4,0.3
2024-09-21T2100,1787A,129.6364,44.6075,牡丹江市,机车工厂,细颗粒物(PM2.5),63,61,36,45,15,28,,56,47,13,9,6,10,0.3,0.3
2024-09-21T2100,1788A,129.6386,44.5462,牡丹江市,第一中学,,36,35,22,25,16,9,,57,44,34,13,6,6,0.4,0.2
2024-09-21T2100,2531A,105.0703,29.61,内江市,市监测站,细颗粒物(PM2.5),59,43,20,42,9,95,,132,130,27,12,4,3,0.6,0.8
2024-09-21T2100,2532A,105.0717,29.5947,内江市,东兴区政府,,50,,18,35,8,93,,126,124,22,16,4,3,0.8,0.5
2024-09-21T2100,2533A,105.0653,29.5817,内江市,内江二中,细颗粒物(PM2.5),59,,21,42,10,93,,124,122,26,14,9,7,0.6,0.4
2024-09-21T2100,2534A,105.0406,29.5822,内江市,内江日报社,细颗粒物(PM2.5),64,,24,46,10,90,,121,119,26,18,7,4,0.6,0.4
2024-09-21T2100,2628A,92.0657,31.4846,那曲市,那曲监测站,,36,36,20,14,28,46,,73,66,7,5,8,6,0.7,0.4
2024-09-21T2100,3128A,92.0506,31.4797,那曲市,那曲会议中心,,32,32,19,17,5,55,,79,72,14,5,4,4,0.9,0.7
2024-09-21T2100,1290A,115.8931,28.6843,南昌市,省外办,,48,48,46,19,18,50,,86,76,17,18,8,9,0.4,0.5
2024-09-21T2100,1291A,115.8886,28.7003,南昌市,省林业公司,颗粒物(PM10),51,51,58,12,14,49,,86,75,10,11,6,6,0.6,0.6
2024-09-21T2100,1292A,115.8126,28.7442,南昌市,林科所,,46,46,34,14,8,55,,88,78,15,13,7,8,0.7,0.5
2024-09-21T2100,1294A,115.8518,28.687,南昌市,建工学校,颗粒物(PM10),57,63,42,17,12,50,,86,75,11,10,8,9,0.4,0.5
2024-09-21T2100,1295A,115.8921,28.6424,南昌市,象湖,颗粒物(PM10),65,80,46,12,13,54,,94,83,8,10,7,8,0.5,0.6
2024-09-21T2100,1296A,115.7423,28.7996,南昌市,武术学校,,31,31,30,9,16,50,,72,69,8,5,2,2,0.7,0.7
2024-09-21T2100,1298A,115.9314,28.6842,南昌市,省站,颗粒物(PM10),56,62,47,12,16,46,,83,72,11,17,8,9,0.5,0.6
2024-09-21T2100,3046A,115.9084,28.6062,南昌市,机电学校,,40,40,60,9,14,49,,88,78,11,10,6,8,0.5,0.5
2024-09-21T2100,3690A,115.9721,28.7031,南昌市,外国语学校,,38,31,59,26,14,47,,81,71,11,13,6,7,0.5,0.5
2024-09-21T2100,1905A,106.056,30.8064,南充市,西山风景区,,35,29,13,24,12,63,,78,75,7,4,19,3,0.7,0.6
2024-09-21T2100,1906A,106.0789,30.8023,南充市,南充市委,,35,31,18,24,12,68,,78,77,13,11,25,4,0.4,0.3
2024-09-21T2100,1907A,106.1031,30.8217,南充市,南充炼油厂,,38,38,28,26,15,70,,78,78,10,8,22,4,0.2,0.1
2024-09-21T2100,1908A,106.1064,30.7856,南充市,高坪区监测站,,31,31,19,20,13,67,,77,77,14,12,21,6,0.4,0.3
2024-09-21T2100,1909A,106.0642,30.7636,南充市,嘉陵区环保局,,28,27,21,19,8,58,,74,72,15,10,13,3,0.4,0.3
2024-09-21T2100,1910A,106.1087,30.8388,南充市,市环境监测站,,42,37,27,29,17,65,,76,75,12,9,19,4,0.2,0.1
2024-09-21T2100,1151A,118.8086,32.1065,南京市,迈皋桥,,,,15,,8,,,76,76,24,11,5,4,0.4,0.3
2024-09-21T2100,1152A,118.7538,32.0551,南京市,草场门,,41,41,21,19,9,69,,71,71,22,13,10,7,0.4,0.4
2024-09-21T2100,1153A,118.7794,32.0745,南京市,山西路,,36,36,24,12,12,74,,72,72,19,14,3,4,0.5,0.6
2024-09-21T2100,1154A,118.7752,32.0023,南京市,中华门,,34,34,20,17,8,59,,62,62,19,11,8,6,0.6,0.5
2024-09-21T2100,1155A,118.8109,32.0309,南京市,瑞金路,,34,34,19,14,9,67,,72,72,21,15,8,7,0.3,0.3
2024-09-21T2100,1156A,118.7997,32.0754,南京市,玄武湖,,34,34,21,10,8,63,,71,71,10,4,6,6,0.9,0.8
2024-09-21T2100,1157A,118.6414,32.0931,南京市,浦口,,43,43,25,15,9,76,,70,70,11,6,4,4,0.4,0.5
2024-09-21T2100,1158A,118.7356,31.9996,南京市,奥体中心,,36,36,23,22,12,76,,76,76,16,9,6,5,0.3,0.5
2024-09-21T2100,1159A,118.9125,32.1028,南京市,仙林大学城,,36,36,23,19,13,66,,74,74,24,12,6,6,0.4,0.5
2024-09-21T2100,3422A,118.8436,31.9198,南京市,江宁彩虹桥,,29,29,16,12,8,80,,76,76,12,5,4,4,0.4,0.4
2024-09-21T2100,3423A,119.0138,31.6494,南京市,溧水永阳,,31,31,15,17,11,78,,70,70,8,12,4,4,0.4,0.4
2024-09-21T2100,3424A,118.879,31.3302,南京市,高淳老职中,,36,36,25,13,10,80,,69,69,12,10,5,4,0.4,0.4
2024-09-21T2100,3427A,118.8554,32.3578,南京市,六合雄州,,36,36,25,13,8,50,,67,66,20,9,7,6,0.3,0.3
2024-09-21T2100,1401A,108.3103,22.7881,南宁市,二十一中,,20,16,30,14,17,39,,80,69,18,16,4,7,0.9,0.9
2024-09-21T2100,1402A,108.3141,22.8528,南宁市,北湖,,25,23,36,17,25,33,,78,65,20,18,4,13,0.7,0.7
2024-09-21T2100,1403A,108.3206,22.8225,南宁市,市监测站,,28,22,46,19,23,34,,75,64,25,22,5,11,0.9,1
2024-09-21T2100,1404A,108.3829,22.8037,南宁市,大自然花园,,25,,29,17,23,42,,76,67,17,14,4,7,0.6,0.6
2024-09-21T2100,1405A,108.4394,22.7904,南宁市,仙葫,,20,18,36,14,24,47,,73,65,12,20,4,5,0.8,0.9
2024-09-21T2100,1406A,108.2397,22.8467,南宁市,区农职院,,16,,38,11,22,40,,73,64,8,14,4,13,0.6,0.7
2024-09-21T2100,1407A,108.3275,22.735,南宁市,英华嘉园,,25,25,39,12,27,39,,80,68,16,22,4,7,0.7,0.8
2024-09-21T2100,1408A,108.2257,22.7757,南宁市,沙井镇街道办,,21,21,43,14,24,32,,75,63,22,22,2,6,0.7,0.7
2024-09-21T2100,3401A,108.4834,22.7618,南宁市,红星社区,,17,17,35,11,24,40,,77,64,18,20,7,8,0.7,0.8
2024-09-21T2100,2332A,118.1681,26.6369,南平市,南平市监测站,,12,8,17,3,9,38,,78,61,8,12,4,4,0.4,0.4
2024-09-21T2100,2333A,118.1825,26.6489,南平市,南平铝业有限公司,,13,,19,3,10,39,,78,62,10,13,5,5,0.5,0.5
2024-09-21T2100,2334A,118.1756,26.6272,南平市,南平七中,,12,,21,3,11,36,,79,61,4,9,2,3,0.5,0.6
2024-09-21T2100,1168A,120.9098,31.9663,南通市,狼山街道,,,31,13,8,4,82,,77,77,,5,7,6,0.4,0.5
2024-09-21T2100,1169A,120.86,32.0005,南通市,虹桥,,24,24,15,9,5,75,,72,72,8,6,6,6,0.4,0.5
2024-09-21T2100,1170A,120.87,32.02,南通市,城中,,31,31,17,10,4,73,,70,70,9,6,6,6,0.5,0.5
2024-09-21T2100,1171A,120.94,31.93,南通市,星湖花园,,33,33,13,9,5,85,,77,77,9,13,5,5,0.5,0.6
2024-09-21T2100,1172A,120.81,32.0417,南通市,紫琅学院,,27,27,13,16,4,79,,74,74,8,8,8,7,0.4,0.4
2024-09-21T2100,3291A,121.067,32.062,南通市,通州监测站,,36,36,15,12,4,82,,79,79,10,9,3,3,0.4,0.6
2024-09-21T2100,3432A,120.9348,31.9883,南通市,环境教育馆,,39,39,20,9,3,83,,77,77,8,9,4,4,0.4,0.5
2024-09-21T2100,2404A,112.5224,33.0122,南阳市,瓦房庄,,40,40,38,18,14,87,,105,104,20,12,4,4,0.4,0.4
2024-09-21T2100,2405A,112.5003,32.9735,南阳市,汉画馆,,36,36,34,23,21,84,,99,98,21,12,6,6,0.3,0.4
2024-09-21T2100,2406A,112.5573,33.027,南阳市,气象站,,44,44,32,7,6,81,,103,101,24,11,7,6,0.5,0.5
2024-09-21T2100,2407A,112.5481,32.9689,南阳市,理工学院,,43,43,35,11,8,88,,100,99,16,11,5,6,0.4,0.4
2024-09-21T2100,4008A,112.5234,32.9922,南阳市,卧龙区政府,,41,41,37,15,14,82,,100,98,25,14,4,5,0.4,0.4
2024-09-21T2100,1234A,121.8358,29.911,宁波市,区环保大楼,,23,18,19,16,11,63,,49,49,11,13,2,3,0.6,0.7
2024-09-21T2100,1235A,121.56,29.82,宁波市,万里学院,,22,15,20,15,14,50,,45,45,14,16,5,6,0.6,0.7
2024-09-21T2100,1236A,121.713,29.9572,宁波市,龙赛医院,,18,13,15,6,8,55,,50,50,18,16,8,8,0.6,0.7
2024-09-21T2100,1239A,121.633,29.7733,宁波市,钱湖水厂,,26,26,20,12,11,50,,47,47,13,12,8,8,0.6,0.7
2024-09-21T2100,1240A,121.5856,29.8635,宁波市,太古小学,,24,24,24,9,11,52,,45,45,15,17,7,7,0.7,0.8
2024-09-21T2100,1241A,121.524,29.8674,宁波市,市环境监测中心,,19,19,18,11,12,50,,43,43,16,16,8,8,0.6,0.7
2024-09-21T2100,2871A,121.6147,29.9017,宁波市,万里国际学校,,18,15,16,9,9,55,,50,50,13,14,7,7,0.5,0.5
2024-09-21T2100,3710A,121.5594,29.8975,宁波市,白沙活动中心,,22,22,21,6,8,54,,47,47,14,14,7,8,0.4,0.4
2024-09-21T2100,2341A,119.5388,26.6612,宁德市,宁德市监测站,,15,9,21,9,12,48,,84,69,10,8,6,6,0.5,0.5
2024-09-21T2100,3209A,119.5231,26.6562,宁德市,宁德一中,,16,11,24,11,11,48,,83,64,6,5,4,5,0.4,0.4
2024-09-21T2100,2618A,98.8601,25.8567,怒江傈僳族自治州,州监测站,,43,43,33,30,23,63,,97,94,16,10,5,5,0.5,0.4
2024-09-21T2100,2619A,98.8546,25.8417,怒江傈僳族自治州,泸水一中,,37,37,32,20,23,54,,87,83,19,15,6,7,0.5,0.5
2024-09-21T2100,1888A,101.6891,26.571,攀枝花市,弄弄坪,颗粒物(PM10),61,72,59,28,28,54,,109,107,51,32,24,23,2.2,1.4
2024-09-21T2100,1889A,101.5769,26.5928,攀枝花市,河门口,"颗粒物(PM10),细颗粒物(PM2.5)",60,69,52,43,32,73,,127,125,34,24,12,15,1.5,1.2
2024-09-21T2100,1890A,101.7169,26.585,攀枝花市,炳草岗,,48,44,59,33,35,55,,98,97,45,44,13,19,1.6,1.4
2024-09-21T2100,1891A,101.7369,26.5008,攀枝花市,仁和,细颗粒物(PM2.5),55,57,42,39,28,55,,110,103,22,20,7,11,0.8,0.9
2024-09-21T2100,2835A,101.7227,26.567,攀枝花市,四十中小,颗粒物(PM10),57,63,60,35,33,53,,101,100,53,46,11,19,1.6,1.4
2024-09-21T2100,1604A,122.0303,41.1489,盘锦市,开发区,,16,13,13,7,5,49,,72,67,19,10,10,15,0.2,0.2
2024-09-21T2100,1605A,122.0485,41.0883,盘锦市,兴隆台,,19,13,13,6,4,58,,74,69,20,14,5,4,0.2,0.2
2024-09-21T2100,1606A,121.8297,41.1028,盘锦市,新生街道,,16,6,12,3,5,37,,68,58,31,14,8,7,0.2,0.2
2024-09-21T2100,1832A,113.3257,33.742,平顶山市,新华旅馆,,37,37,27,24,20,73,,92,88,16,7,5,4,0.4,0.4
2024-09-21T2100,1833A,113.2919,33.737,平顶山市,规划设计院,,29,28,18,15,5,90,,97,95,17,10,6,6,0.5,0.5
2024-09-21T2100,1834A,113.182,33.774,平顶山市,平顶山工学院,,32,32,19,22,4,70,,91,87,19,8,7,6,0.3,0.4
2024-09-21T2100,3204A,113.3025,33.73,平顶山市,规划局,,32,31,21,22,14,80,,93,90,16,9,4,4,0.5,0.5
2024-09-21T2100,3594A,112.8867,33.9116,平顶山市,石龙区,,41,41,34,12,7,72,,86,85,18,13,11,9,0.4,0.5
2024-09-21T2100,2656A,106.6692,35.5461,平凉市,聚贤嘉苑,颗粒物(PM10),51,51,31,21,16,35,,109,94,59,21,9,8,0.5,0.4
2024-09-21T2100,2657A,106.7021,35.5307,平凉市,博物馆,颗粒物(PM10),53,55,41,25,15,55,,113,101,27,12,6,7,0.6,0.3
2024-09-21T2100,2347A,114.0997,27.5002,萍乡市,武功山,,25,25,21,3,4,47,,55,52,7,5,8,9,0.4,0.4
2024-09-21T2100,2348A,113.8385,27.6434,萍乡市,中医院,,45,43,30,31,20,35,,35,35,13,13,6,9,0.8,1
2024-09-21T2100,2349A,113.8493,27.6253,萍乡市,市政府车库,,36,32,31,25,18,37,,35,35,12,13,7,10,0.6,1
2024-09-21T2100,2350A,113.8676,27.6435,萍乡市,市环保局,,29,29,24,13,17,38,,35,35,8,10,6,8,0.6,0.9
2024-09-21T2100,2351A,113.866,27.6198,萍乡市,安源区政府,,32,32,26,11,13,25,,32,32,16,20,4,7,0.5,0.8
2024-09-21T2100,2319A,119.0141,25.4325,莆田市,荔城区仓后路,,35,35,25,23,12,59,,93,80,14,14,8,8,0.2,0.4
2024-09-21T2100,2320A,119.0015,25.4553,莆田市,莆田市监测站,,,,15,10,9,70,,100,86,4,5,7,7,0.3,0.6
2024-09-21T2100,2321A,119.1119,25.4561,莆田市,涵江区六中,,20,17,26,3,12,62,,95,83,5,11,8,9,0.4,0.6
2024-09-21T2100,2322A,119.1013,25.3215,莆田市,秀屿区政府,,35,35,24,11,11,52,,90,74,9,9,6,8,0.5,0.6
2024-09-21T2100,2392A,115.0312,35.7636,濮阳市,环保局,,25,21,11,14,6,77,,99,97,30,14,7,6,0.2,0.1
2024-09-21T2100,2394A,115.0574,35.7609,濮阳市,油田运输公司,,25,25,12,14,7,74,,102,98,25,12,4,3,0.3,0.3
2024-09-21T2100,2395A,115.0866,35.7754,濮阳市,油田物探公司,,35,35,14,13,9,63,,100,94,31,11,4,3,0.2,0.3
2024-09-21T2100,3021A,115,35.7668,濮阳市,濮水河管理处,,24,22,10,10,7,75,,98,96,21,12,6,5,0.2,0.2
2024-09-21T2100,2601A,100.98,22.7633,普洱市,市环保局,,35,34,36,24,21,46,,76,70,12,8,11,11,0.5,0.4
2024-09-21T2100,2602A,100.9817,22.8322,普洱市,普洱第二中学,,43,43,35,16,14,43,,82,73,16,9,8,9,0.6,0.5
2024-09-21T2100,2262A,131.0518,45.8751,七台河市,新一中,,50,50,12,18,15,24,,67,56,14,8,10,9,1.0,1
2024-09-21T2100,3345A,131.0577,45.7879,七台河市,中波台,颗粒物(PM10),53,56,17,16,7,6,,53,40,54,22,6,6,0.7,0.4
2024-09-21T2100,3637A,131.0176,45.7761,七台河市,人民广场,,47,47,23,25,11,15,,52,38,32,18,8,8,0.4,0.3
2024-09-21T2100,3684A,130.8781,45.8222,七台河市,新建矿广场,,23,22,30,16,15,12,,51,39,28,18,6,6,0.6,0.4
2024-09-21T2100,1779A,123.9305,47.3636,齐齐哈尔市,安居小区,,33,33,27,11,12,40,,63,48,28,18,9,8,0.4,0.4
2024-09-21T2100,1780A,123.9488,47.3386,齐齐哈尔市,中心广场,,25,25,21,6,5,54,,58,51,15,19,1,1,0.4,0.4
2024-09-21T2100,1781A,123.9483,47.3227,齐齐哈尔市,农牧车辆厂,,41,41,37,12,10,51,,61,52,15,20,7,8,0.4,0.5
2024-09-21T2100,1783A,123.945,47.2988,齐齐哈尔市,市环境监测站,,39,39,31,17,13,51,,61,54,16,17,8,8,0.3,0.3
2024-09-21T2100,3662A,123.6333,47.2075,齐齐哈尔市,富区青少年活动中心,细颗粒物(PM2.5),77,,30,56,12,51,,62,59,15,17,6,6,0.6,0.6
2024-09-21T2100,2591A,107.9783,26.5747,黔东南苗族侗族自治州,市环境监测站,,22,22,22,14,17,67,,60,60,10,10,4,4,0.5,0.5
2024-09-21T2100,2881A,107.8908,26.5311,黔东南苗族侗族自治州,凯里学院,,22,22,19,14,17,62,,62,58,11,10,2,2,0.6,0.6
2024-09-21T2100,2593A,107.5228,26.2403,黔南布依族苗族自治州,小围寨,,18,14,16,12,10,54,,62,51,3,7,4,4,0.5,0.5
2024-09-21T2100,3538A,107.5175,26.2978,黔南布依族苗族自治州,沙坝,,21,20,21,12,13,67,,64,57,3,5,3,4,0.5,0.5
2024-09-21T2100,2589A,104.9022,25.0925,黔西南布依族苗族自治州,场坝街,,39,38,35,27,23,80,,88,88,10,16,3,17,0.3,0.3
2024-09-21T2100,2590A,104.8811,25.0992,黔西南布依族苗族自治州,坪东大道,,39,39,26,18,20,55,,89,85,10,15,7,8,0.2,0.3
2024-09-21T2100,2502A,108.6236,21.9667,钦州市,市环保站,,17,17,39,3,20,50,,89,80,11,17,6,8,0.6,0.7
2024-09-21T2100,2503A,108.6549,21.9481,钦州市,沙埠小学,,20,,48,14,32,52,,94,84,12,22,4,6,0.7,0.9
2024-09-21T2100,2504A,108.5989,21.7431,钦州市,港区一小,,36,36,59,21,27,48,,98,82,23,30,5,6,0.7,0.7
2024-09-21T2100,3404A,108.5959,21.9633,钦州市,北职校,,22,22,41,13,27,51,,92,82,10,15,5,6,0.7,0.8
2024-09-21T2100,1042A,119.5134,39.8207,秦皇岛市,北戴河环保局,,20,11,14,11,7,61,,72,71,14,10,2,2,0.5,0.4
2024-09-21T2100,1043A,119.7493,40.0116,秦皇岛市,第一关,,35,,15,24,15,34,,68,64,45,13,3,3,0.3,0.2
2024-09-21T2100,1044A,119.5897,39.9499,秦皇岛市,监测站,,37,37,15,23,16,59,,69,66,9,5,3,3,0.4,0.3
2024-09-21T2100,1046A,119.5251,39.9041,秦皇岛市,建设大厦,,28,28,19,14,9,49,,74,68,22,6,2,2,0.4,0.3
2024-09-21T2100,3132A,119.610547,39.943889,秦皇岛市,文明里,,31,31,22,15,10,60,,74,71,16,7,2,2,0.5,0.4
2024-09-21T2100,1307A,120.6659,36.2403,青岛市,仰口,,30,16,23,12,11,93,,96,95,4,5,6,6,0.5,0.4
2024-09-21T2100,1310A,120.4134,36.0658,青岛市,市南区东部子站,,34,34,45,7,10,79,,83,80,18,15,6,6,0.4,0.4
2024-09-21T2100,1311A,120.3664,36.1032,青岛市,四方区子站,,44,44,47,9,9,70,,84,81,20,13,9,9,0.4,0.4
2024-09-21T2100,1312A,120.2994,36.054,青岛市,市南区西部子站,,,,11,7,10,83,,87,86,12,11,8,10,0.5,0.6
2024-09-21T2100,1313A,120.4581,36.0858,青岛市,崂山区子站,,26,17,31,3,4,83,,84,83,12,12,8,8,0.5,0.5
2024-09-21T2100,1314A,120.1983,35.9608,青岛市,黄岛区子站,,24,24,34,7,8,75,,78,77,18,18,9,8,0.3,0.3
2024-09-21T2100,1315A,120.3999,36.3083,青岛市,城阳区子站,,31,31,30,12,8,73,,86,82,20,14,8,7,0.5,0.5
2024-09-21T2100,1966A,120.0405,35.8735,青岛市,黄岛区4号,,24,24,37,3,5,72,,79,77,13,10,6,5,0.4,0.4
2024-09-21T2100,3362A,120.5014,36.4034,青岛市,即墨2号,,27,27,30,9,8,75,,80,78,10,7,7,6,0.4,0.3
2024-09-21T2100,3642A,120.3503,36.0736,青岛市,市北区南部,,38,38,30,3,7,75,,80,78,18,19,6,7,0.4,0.5
2024-09-21T2100,3643A,120.3948,36.1805,青岛市,李沧区北部,,24,24,38,9,10,75,,78,77,18,15,8,8,0.5,0.5
2024-09-21T2100,1702A,113.0426,23.691,清远市,环保大楼,,15,9,17,9,12,47,,70,61,7,10,7,7,0.7,0.8
2024-09-21T2100,1703A,113.0208,23.7106,清远市,凤城街办,,13,12,15,6,11,39,,56,48,7,8,7,7,0.7,0.7
2024-09-21T2100,3025A,113.0477,23.6344,清远市,技师学院,,13,13,18,8,10,38,,59,41,9,13,5,6,0.8,0.8
2024-09-21T2100,3318A,112.9903,23.7403,清远市,清新太和,,15,15,16,7,9,30,,56,44,10,8,2,2,0.7,0.8
2024-09-21T2100,3455A,113.076,23.7198,清远市,清城东城,,13,10,23,3,15,41,,64,53,2,6,2,2,0.7,0.7
2024-09-21T2100,2661A,107.6325,35.7357,庆阳市,庆阳五中,,39,39,25,22,11,96,,108,106,8,5,7,6,0.3,0.3
2024-09-21T2100,2662A,107.6364,35.7067,庆阳市,市环保局,,39,39,26,19,11,86,,109,104,20,8,6,6,0.4,0.3
2024-09-21T2100,1916A,103.7897,25.5035,曲靖市,环境监测站,,36,36,35,15,17,48,,79,74,19,15,6,8,0.7,0.9
2024-09-21T2100,1917A,103.8,25.5364,曲靖市,烟厂办公区,,,32,33,17,18,,,80,78,26,14,4,6,0.7,0.9
2024-09-21T2100,3376A,103.7947,25.462,曲靖市,南苑二区,,26,26,30,16,19,56,,81,77,18,14,13,12,0.8,1
2024-09-21T2100,3377A,103.7444,25.5261,曲靖市,曲靖师范学院,,33,33,27,18,22,48,,83,74,20,14,14,13,0.9,0.9
2024-09-21T2100,1264A,118.8692,28.9398,衢州市,环保大楼,,18,18,19,9,10,44,,57,51,18,19,2,2,0.6,0.6
2024-09-21T2100,1265A,118.8709,28.9666,衢州市,实验学校,,18,16,19,12,10,38,,50,46,10,17,5,5,0.5,0.5
2024-09-21T2100,1266A,118.8621,28.9808,衢州市,衢州学院,,13,9,11,9,11,34,,48,42,15,21,6,5,0.5,0.5
2024-09-21T2100,1611A,118.5819,24.9117,泉州市,涂山街,,,24,21,16,11,,,106,102,11,11,2,2,,0.7
2024-09-21T2100,1612A,118.5972,24.8978,泉州市,津头埔,,26,26,22,18,11,73,,99,92,13,12,4,4,0.5,0.5
2024-09-21T2100,1613A,118.6663,24.9424,泉州市,万安,,26,24,22,18,11,74,,107,99,8,7,2,2,0.7,0.6
2024-09-21T2100,3529A,118.6333,24.9264,泉州市,城华南路,,32,32,19,12,11,58,,100,90,18,7,3,3,0.4,0.4
2024-09-21T2100,2626A,88.8876,29.2718,日喀则市,日喀则监测站,,21,10,8,3,4,67,,86,80,22,9,4,5,0.5,0.4
2024-09-21T2100,3726A,88.8781,29.2426,日喀则市,林业技术推广中心,,18,18,6,11,5,48,,83,77,16,7,6,6,0.7,0.6
2024-09-21T2100,1659A,119.471,35.4209,日照市,监测站,,24,17,22,12,8,74,,82,81,15,10,10,10,0.2,0.3
2024-09-21T2100,1660A,119.523,35.4216,日照市,市政府广场,,27,22,22,3,5,86,,87,87,13,11,10,10,0.5,0.4
2024-09-21T2100,1661A,119.5587,35.4044,日照市,港务局,,28,24,20,11,10,87,,87,87,14,8,10,7,0.4,0.4
2024-09-21T2100,3507A,119.5328,35.4625,日照市,职业技术学院,,27,19,23,3,5,84,,84,84,8,8,9,8,0.4,0.4
2024-09-21T2100,3604A,119.3266,35.1044,日照市,岚山环保分局,,29,29,27,6,8,74,,86,84,18,13,14,14,0.6,0.6
2024-09-21T2100,1835A,111.1922,34.7752,三门峡市,市政府,颗粒物(PM10),51,51,22,8,9,17,,113,104,73,18,14,11,0.6,0.5
2024-09-21T2100,1836A,111.1587,34.7942,三门峡市,开发区,,36,36,22,10,8,80,,101,101,15,12,8,7,0.3,0.3
2024-09-21T2100,3039A,111.1911,34.7829,三门峡市,三门峡市第一小学,,43,43,23,17,9,59,,112,109,40,14,9,8,0.6,0.5
2024-09-21T2100,3598A,111.1,34.7167,三门峡市,富达温泉假日酒店,颗粒物(PM10),54,58,33,20,10,59,,108,105,28,14,8,10,0.5,0.4
2024-09-21T2100,2324A,117.6211,26.2625,三明市,三钢,,29,29,19,7,12,48,,74,62,7,10,5,6,0.5,0.7
2024-09-21T2100,2325A,117.635,26.2714,三明市,三明二中,,18,18,18,9,9,49,,74,62,6,9,2,3,0.4,0.5
2024-09-21T2100,2326A,117.6028,26.2378,三明市,三元区政府,,22,22,26,11,11,50,,71,60,9,15,3,4,0.6,0.7
2024-09-21T2100,1876A,109.5078,18.2489,三亚市,河东子站,,12,11,15,8,8,22,,51,43,14,6,3,3,0.4,0.3
2024-09-21T2100,1877A,109.4964,18.2681,三亚市,河西子站,,12,12,14,7,6,24,,49,41,12,8,3,3,0.4,0.4
2024-09-21T2100,3540A,109.7348,18.3443,三亚市,君悦子站,,9,9,20,3,6,21,,49,41,15,9,2,3,0.4,0.3
2024-09-21T2100,2624A,91.7608,29.2313,山南市,山南监测站,,,,8,4,5,66,,90,88,18,5,8,8,0.3,0.3
2024-09-21T2100,2625A,91.7706,29.2436,山南市,山南人民医院,,24,20,13,7,6,76,,90,90,12,8,8,8,0.3,0.4
2024-09-21T2100,1674A,116.6794,23.3667,汕头市,金平子站,,21,8,15,3,5,66,,75,69,2,3,4,4,0.6,0.7
2024-09-21T2100,1675A,116.7244,23.3633,汕头市,龙湖子站,,20,,12,3,6,62,,67,62,3,2,6,6,0.5,0.5
2024-09-21T2100,1676A,116.7258,23.2775,汕头市,濠江子站,,19,,10,3,4,60,,64,62,6,5,5,6,0.6,0.6
2024-09-21T2100,1677A,116.7519,23.4714,汕头市,澄海子站,,21,6,12,3,6,66,,77,68,7,7,6,5,0.7,0.6
2024-09-21T2100,1678A,116.6092,23.2539,汕头市,潮阳子站,,24,24,10,3,4,61,,70,68,4,2,5,5,0.6,0.6
2024-09-21T2100,3444A,116.454,23.2684,汕头市,潮南峡山,,18,12,7,3,4,57,,71,66,3,2,6,5,0.6,0.6
2024-09-21T2100,3624A,116.4069,23.2533,汕头市,潮南子站,,21,21,15,8,4,54,,68,62,14,9,6,6,0.6,0.6
2024-09-21T2100,1693A,115.3653,22.775,汕尾市,市环保局,,17,6,7,3,5,54,,55,51,5,6,7,7,0.6,0.6
2024-09-21T2100,1694A,115.3706,22.7898,汕尾市,市政府,,14,8,8,6,4,42,,54,50,10,8,7,7,0.4,0.4
2024-09-21T2100,1695A,115.3622,22.7925,汕尾市,新城中学,,,29,14,14,4,,,54,51,12,6,6,6,,0.6
2024-09-21T2100,2645A,109.9154,33.8715,商洛市,监测站,,33,33,18,17,11,58,,86,83,26,11,5,4,0.4,0.4
2024-09-21T2100,3045A,109.9643,33.8471,商洛市,商州区中学,,,,27,6,5,52,,87,84,31,12,5,5,0.6,0.5
2024-09-21T2100,2408A,115.6702,34.4285,商丘市,环境监测站,,31,31,25,13,11,92,,102,102,18,13,4,4,0.2,0.3
2024-09-21T2100,2409A,115.6458,34.4045,商丘市,粮食局,,,26,23,,14,105,,114,114,9,7,8,8,0.4,0.4
2024-09-21T2100,2410A,115.6293,34.3948,商丘市,睢阳区环保局,,32,26,28,12,12,101,,108,108,12,8,7,7,0.3,0.3
2024-09-21T2100,3171A,115.6071,34.4465,商丘市,梁园区档案局,,30,28,25,15,13,93,,110,109,17,9,8,8,0.3,0.3
2024-09-21T2100,1141A,121.4,31.238,上海市,普陀,,37,37,21,12,9,63,,53,53,17,18,5,4,0.6,0.7
2024-09-21T2100,1142A,121.478,31.2036,上海市,十五厂,,33,33,19,14,12,66,,59,59,24,20,8,8,0.4,0.5
2024-09-21T2100,1143A,121.467,31.3008,上海市,虹口,,29,29,16,12,10,68,,58,58,19,17,9,8,0.6,0.7
2024-09-21T2100,1144A,121.412,31.1654,上海市,徐汇上师大,,31,31,18,15,14,69,,58,58,22,22,6,6,0.6,0.7
2024-09-21T2100,1145A,121.536,31.2659,上海市,杨浦四漂,,31,31,18,11,10,78,,64,64,14,17,6,6,0.4,0.6
2024-09-21T2100,1147A,121.425,31.2261,上海市,静安监测站,,38,38,20,12,10,60,,55,55,25,19,6,5,0.4,0.4
2024-09-21T2100,1148A,121.703,31.1907,上海市,浦东川沙,,,,16,,5,,,54,54,18,18,6,6,0.7,0.7
2024-09-21T2100,1149A,121.533,31.2284,上海市,浦东新区监测站,,24,20,18,11,12,74,,57,57,18,20,8,7,0.6,0.7
2024-09-21T2100,1150A,121.577,31.2071,上海市,浦东张江,,23,22,15,13,8,73,,58,58,18,19,5,5,0.5,0.8
2024-09-21T2100,3265A,121.4316,31.3322,上海市,宝山庙行,,33,33,15,11,6,68,,61,61,22,18,7,7,0.6,0.6
2024-09-21T2100,3266A,121.8791,31.4662,上海市,崇明上实东滩,,25,19,13,8,8,80,,68,68,6,11,9,9,0.4,0.6
2024-09-21T2100,3268A,121.3162,31.2838,上海市,嘉定南翔,,28,28,17,10,8,73,,61,61,14,19,6,6,0.7,0.8
2024-09-21T2100,3269A,121.3359,30.7456,上海市,金山新城,,25,25,19,3,11,65,,53,53,15,16,4,5,0.5,0.5
2024-09-21T2100,3270A,121.4996,31.0739,上海市,闵行浦江,,23,23,15,13,8,61,,55,55,25,26,6,5,0.7,0.8
2024-09-21T2100,3271A,121.2886,31.1663,上海市,青浦徐泾,,31,31,18,10,10,73,,62,62,19,19,6,6,0.5,0.5
2024-09-21T2100,3272A,121.2186,31.0378,上海市,松江图书馆,,35,35,19,9,8,72,,58,58,17,17,4,4,0.4,0.5
2024-09-21T2100,3273A,121.3902,31.2059,上海市,长宁仙霞,,,42,20,13,10,,,56,56,19,20,8,7,0.7,0.9
2024-09-21T2100,3274A,121.7965,31.0507,上海市,浦东惠南,,26,26,19,11,9,72,,53,53,20,20,8,8,0.6,0.7
2024-09-21T2100,3544A,121.4891,30.925,上海市,奉贤南桥新城,,29,29,19,13,10,68,,54,54,19,20,8,8,0.5,0.6
2024-09-21T2100,2381A,118.005,28.4572,上饶市,百草园,,23,23,36,12,24,32,,42,40,13,13,2,13,0.9,0.6
2024-09-21T2100,2382A,117.9756,28.4436,上饶市,市监测站,,17,17,40,10,26,39,,49,47,17,16,8,39,0.7,0.7
2024-09-21T2100,2383A,117.9519,28.4628,上饶市,凤凰光学,,16,16,35,6,23,31,,43,41,19,16,4,52,0.8,0.8
2024-09-21T2100,3413A,118.1953,28.4401,上饶市,广丰区教体局,,23,23,20,9,11,44,,55,52,14,12,12,13,1.1,1
2024-09-21T2100,3685A,117.897,28.4315,上饶市,双创科技城,,19,19,36,8,20,33,,45,43,18,20,4,45,0.7,0.6
2024-09-21T2100,1669A,113.5824,24.7733,韶关市,市八中,,13,13,12,9,8,30,,56,50,3,3,10,10,0.6,0.6
2024-09-21T2100,1671A,113.5917,24.7972,韶关市,园林处,,,,14,,10,34,,54,48,2,4,10,9,0.5,0.6
2024-09-21T2100,1672A,113.6735,24.7791,韶关市,韶关学院,,13,13,17,9,12,28,,56,50,11,10,7,8,0.3,0.4
2024-09-21T2100,1673A,113.5971,24.6863,韶关市,曲江监测站,,19,19,17,12,10,28,,62,56,12,11,10,12,0.4,0.6
2024-09-21T2100,3622A,113.5556,24.8082,韶关市,碧湖山庄,,19,19,16,13,9,24,,56,48,6,5,10,10,0.5,0.5
2024-09-21T2100,2462A,111.5239,27.3033,邵阳市,市水土所,,32,32,23,17,18,83,,75,75,5,4,7,6,0.5,0.6
2024-09-21T2100,2463A,111.4733,27.2317,邵阳市,市一中,,31,31,26,13,15,95,,78,78,6,5,6,5,0.6,0.6
2024-09-21T2100,2464A,111.5283,27.2442,邵阳市,市化工厂,,31,29,24,14,16,98,,77,77,7,7,7,6,0.6,0.6
2024-09-21T2100,2465A,111.4503,27.2537,邵阳市,市罐头厂,,28,28,25,10,19,87,,82,82,7,5,6,5,0.5,0.5
2024-09-21T2100,2466A,111.4328,27.2272,邵阳市,市环保局,,29,29,24,11,15,92,,84,84,5,4,4,3,0.6,0.6
2024-09-21T2100,1247A,120.6053,29.9928,绍兴市,城东开发委,,,28,22,11,11,,,49,49,,16,,6,,0.6
2024-09-21T2100,2921A,120.5483,30.0003,绍兴市,树下王站,,16,15,17,3,7,50,,46,46,12,14,4,4,0.6,0.6
2024-09-21T2100,3408A,120.5683,29.9361,绍兴市,绍兴中专,,21,21,27,13,14,56,,54,54,12,18,3,3,0.6,0.6
2024-09-21T2100,3409A,120.4906,30.0861,绍兴市,柯桥区政府,,23,23,17,10,8,56,,53,53,17,17,6,6,0.6,0.7
2024-09-21T2100,3410A,120.8752,30.0249,绍兴市,重华小学,,24,24,25,13,15,56,,50,50,16,22,10,10,0.8,0.8
2024-09-21T2100,3411A,120.8369,30.0137,绍兴市,上虞中学,,24,24,27,14,15,52,,49,49,12,20,5,7,0.7,0.7
2024-09-21T2100,3560A,120.4722,30.0415,绍兴市,柯桥妇保,,26,26,25,9,5,56,,54,54,12,14,7,7,0.5,0.6
2024-09-21T2100,3658A,120.6153,30.0764,绍兴市,袍江中学,,25,25,22,9,9,53,,50,50,17,17,6,5,0.6,0.7
2024-09-21T2100,1356A,114.1063,22.5545,深圳市,通心岭子站,,12,12,13,3,8,32,,40,40,16,18,4,4,0.5,0.6
2024-09-21T2100,1357A,114.117,22.5625,深圳市,洪湖,,19,19,15,8,7,17,,38,36,31,27,7,7,0.5,0.5
2024-09-21T2100,1358A,113.987,22.5417,深圳市,华侨城,,16,16,18,6,4,33,,40,39,13,18,7,7,0.7,0.7
2024-09-21T2100,1359A,113.9181,22.5171,深圳市,南海子站,,18,18,16,6,8,46,,47,46,17,27,7,7,0.5,0.5
2024-09-21T2100,1360A,114.2458,22.5689,深圳市,盐田,,,16,21,3,6,13,,28,24,41,22,8,8,,0.6
2024-09-21T2100,1361A,114.2283,22.7244,深圳市,龙岗,,16,16,23,8,14,30,,47,44,19,24,6,6,0.6,0.6
2024-09-21T2100,1363A,114.494,22.5422,深圳市,南澳,,10,10,12,3,4,27,,54,47,3,8,7,6,0.3,0.3
2024-09-21T2100,1364A,114.41,22.6342,深圳市,葵涌,,10,10,11,3,6,32,,51,46,12,15,7,7,0.5,0.5
2024-09-21T2100,1365A,114.297,22.5978,深圳市,梅沙,,13,13,13,3,2,41,,54,52,4,9,6,6,0.3,0.4
2024-09-21T2100,1366A,114.0678,22.738,深圳市,观澜,,21,21,20,10,9,27,,45,40,25,26,6,6,0.5,0.5
2024-09-21T2100,3305A,114.0731,22.559,深圳市,莲花,,22,22,17,9,9,16,,35,32,17,16,4,4,0.4,0.4
2024-09-21T2100,3306A,114.0261,22.6198,深圳市,民治,,15,15,14,10,7,32,,39,35,22,28,6,6,0.5,0.5
2024-09-21T2100,3307A,114.1871,22.6451,深圳市,横岗,,18,18,17,10,12,30,,43,38,22,38,6,6,0.6,0.7
2024-09-21T2100,3447A,114.3551,22.7151,深圳市,坪山,,11,10,19,6,29,35,,44,42,10,20,6,6,0.6,0.6
2024-09-21T2100,3623A,113.8953,22.5861,深圳市,西乡,,12,12,16,3,6,28,,36,28,19,24,4,5,0.5,0.5
2024-09-21T2100,1099A,123.505,41.7406,沈阳市,浑南东路,,19,19,18,8,7,36,,64,58,34,22,9,9,0.4,0.4
