timepoint,stationcode,longitude,latitude,area,positionname,primarypollutant,aqi,pm10,pm10_24h,pm2_5,pm2_5_24h,o3,o3_24h,o3_8h,o3_8h_24h,no2,no2_24h,so2,so2_24h,co,co_24h
2024-09-21T2200,2566A,102.1879,31.914,阿坝藏族羌族自治州,州农科所,,15,15,12,8,6,25,,48,45,12,10,6,7,0,0
2024-09-21T2200,2568A,102.2502,31.8896,阿坝藏族羌族自治州,马师校,,23,23,22,9,9,11,,42,36,11,6,4,4,0.4,0.4
2024-09-21T2200,3994A,102.2165,31.9024,阿坝藏族羌族自治州,马尔康中学西区,,28,22,17,19,15,13,,46,40,15,8,5,5,0.5,0.5
2024-09-21T2200,2695A,80.292,41.1694,阿克苏地区,电视台,颗粒物(PM10),120,189,152,69,47,40,,120,111,,36,,4,1.0,0.9
2024-09-21T2200,2696A,80.2613,41.1551,阿克苏地区,艺术中心,颗粒物(PM10),108,165,128,46,44,22,,117,106,67,37,3,4,1.6,1.2
2024-09-21T2200,2204A,105.6467,38.8363,阿拉善盟,西城区西花园,,34,31,26,18,16,108,,131,129,16,13,9,9,0.7,0.7
2024-09-21T2200,2205A,105.6985,38.8411,阿拉善盟,蒙二幼,,33,32,23,12,12,105,,113,113,11,9,7,7,0.6,0.5
2024-09-21T2200,2206A,105.724,38.8516,阿拉善盟,环保局新楼,,36,23,23,11,10,113,,115,115,9,7,10,9,0.5,0.4
2024-09-21T2200,2708A,88.1264,47.8517,阿勒泰地区,市站,,49,49,37,12,9,79,,82,56,17,23,7,7,0.3,0.2
2024-09-21T2200,2630A,80.1161,32.5,阿里地区,阿里监测站,,32,6,10,3,5,102,,117,116,25,20,6,7,0.5,0.4
2024-09-21T2200,3192A,80.0903,32.5028,阿里地区,阿里藏医院,,37,12,12,3,3,118,,122,122,8,13,6,7,0.2,0.3
2024-09-21T2200,2642A,109.0318,32.6537,安康市,香溪洞,,25,6,12,3,4,79,,86,84,4,6,8,8,0.2,0.3
2024-09-21T2200,2643A,109.0281,32.6939,安康市,安康市监测站,,41,41,19,9,8,51,,85,78,17,10,8,10,0.5,0.5
2024-09-21T2200,2644A,109.0072,32.6975,安康市,汉滨区检察院,,25,25,16,3,6,42,,88,80,21,11,8,8,0.4,0.4
2024-09-21T2200,2291A,117.0809,30.5177,安庆市,环科院,,29,29,16,18,8,57,,53,53,11,9,7,7,0.5,0.5
2024-09-21T2200,2292A,117.0331,30.5119,安庆市,马山宾馆,,32,30,20,22,12,63,,58,58,10,9,9,9,0.4,0.5
2024-09-21T2200,2294A,116.9896,30.6145,安庆市,安庆大学,,32,32,17,19,10,67,,57,57,9,8,7,8,0.4,0.4
2024-09-21T2200,3173A,117.0598,30.5351,安庆市,市人大,,43,38,21,30,12,50,,51,51,11,8,7,7,0.5,0.7
2024-09-21T2200,3123A,105.9408,26.2431,安顺市,凤凰山,,30,30,42,20,33,59,,92,83,8,9,18,11,0.5,0.5
2024-09-21T2200,3124A,105.9439,26.2564,安顺市,金钟山,,30,30,62,21,38,62,,93,84,6,7,12,12,0.5,0.8
2024-09-21T2200,3125A,105.8983,26.2481,安顺市,娄家坡,,20,19,32,14,27,61,,93,85,6,8,6,9,0.6,0.6
2024-09-21T2200,1819A,114.3551,36.1017,安阳市,红庙街,,25,21,15,9,4,79,,98,95,6,10,4,4,0.4,0.4
2024-09-21T2200,1820A,114.361,36.0681,安阳市,银杏小区,,28,22,12,3,3,87,,100,98,6,10,3,3,0.2,0.3
2024-09-21T2200,3141A,114.3922,36.0878,安阳市,信访局,,26,24,12,3,1,81,,103,99,10,16,3,3,0.4,0.4
2024-09-21T2200,3669A,114.4705,36.0637,安阳市,左辅环卫站,,34,34,21,16,6,64,,94,85,27,16,3,3,0.8,0.7
2024-09-21T2200,3703A,114.2917,36.0949,安阳市,安钢职工学校,,30,30,19,9,8,72,,96,92,14,16,5,6,0.3,0.6
2024-09-21T2200,1748A,123.044,41.1196,鞍山市,深沟寺,,21,21,18,12,9,35,,70,60,18,14,5,4,0.4,0.4
2024-09-21T2200,1749A,123.011,41.0931,鞍山市,太阳城,,22,22,18,12,9,47,,71,65,16,15,10,7,0.5,0.4
2024-09-21T2200,1750A,123.0485,41.1442,鞍山市,太平,,29,29,24,14,11,32,,68,56,31,22,7,7,0.6,0.5
2024-09-21T2200,1751A,122.9642,41.0971,鞍山市,铁西三道街,细颗粒物(PM2.5),57,59,34,40,16,10,,58,37,57,30,65,29,3.4,2.2
2024-09-21T2200,1752A,122.9341,41.0833,鞍山市,铁西工业园区,,26,26,23,13,10,48,,72,61,21,21,11,13,0.6,0.7
2024-09-21T2200,1753A,123.022,41.0821,鞍山市,明达新区,,26,26,18,13,9,41,,63,57,16,14,6,5,0.4,0.4
2024-09-21T2200,2195A,107.4212,40.761,巴彦淖尔市,附二中,,45,36,38,31,19,62,,89,82,23,15,4,8,0.4,0.4
2024-09-21T2200,2196A,107.37,40.7372,巴彦淖尔市,市环保大楼,,35,35,30,7,14,75,,94,86,12,12,4,5,0.3,0.4
2024-09-21T2200,1956A,86.1472,41.7538,巴音郭楞蒙古自治州,孔雀公园,颗粒物(PM10),119,187,109,80,27,,,104,103,93,31,7,10,0.9,0.4
2024-09-21T2200,1957A,86.1972,41.7166,巴音郭楞蒙古自治州,棉纺厂,颗粒物(PM10),140,230,117,68,35,6,,100,87,90,28,6,6,0.8,0.5
2024-09-21T2200,1958A,86.2357,41.7173,巴音郭楞蒙古自治州,经济开发区,颗粒物(PM10),342,453,120,100,34,17,,109,86,71,14,7,7,0.4,0.3
2024-09-21T2200,2914A,106.7677,31.8794,巴中市,苏山坪,,23,10,12,3,4,71,,72,59,5,6,3,3,0.2,0.3
2024-09-21T2200,3182A,106.7656,31.8545,巴中市,丽阳花园,,30,30,18,18,10,11,,68,33,25,15,5,4,0.6,0.5
2024-09-21T2200,3183A,106.7418,31.8654,巴中市,圣泉水务公司,,21,21,13,11,7,3,,76,27,31,15,3,3,0.6,0.5
2024-09-21T2200,3616A,106.7616,31.8344,巴中市,市中心医院,,34,34,15,19,6,6,,64,32,24,13,5,5,0.6,0.5
2024-09-21T2200,2235A,122.7911,45.6077,白城市,洮北区环保局,,23,23,22,15,12,48,,72,57,16,15,5,6,0.2,0.2
2024-09-21T2200,2236A,122.8738,45.5725,白城市,市环保局,,46,46,40,12,9,22,,66,40,37,24,6,7,0.2,0.3
2024-09-21T2200,2231A,126.4219,41.9171,白山市,喜丰,,11,6,8,3,3,35,,68,45,6,6,4,6,0.4,0.4
2024-09-21T2200,2232A,126.4077,41.9419,白山市,环保局,,28,28,21,3,4,34,,62,39,7,7,11,6,0.5,0.5
2024-09-21T2200,2647A,104.1724,36.5446,白银市,第三小学,,37,37,51,24,22,83,,102,99,18,25,36,83,0.7,1
2024-09-21T2200,2648A,104.1465,36.5482,白银市,动力公司,,28,28,34,18,18,77,,103,98,18,22,30,34,0.5,0.8
2024-09-21T2200,2512A,106.6103,23.9011,百色市,市监测站,,20,20,31,14,17,28,,40,38,5,11,5,5,0.5,0.6
2024-09-21T2200,2513A,106.6538,23.8859,百色市,市中心血站,,26,26,41,17,21,17,,44,38,17,18,3,5,0.5,0.6
2024-09-21T2200,3406A,106.6085,23.8798,百色市,祈福高中,,25,25,42,14,18,25,,35,32,8,16,6,4,0.6,0.6
2024-09-21T2200,2270A,117.396,32.939,蚌埠市,工人疗养院,,44,44,31,13,8,99,,109,109,11,7,6,6,0.4,0.3
2024-09-21T2200,2271A,117.3605,32.9427,蚌埠市,百货大楼,,41,41,30,11,7,98,,110,110,11,6,6,6,0.4,0.3
2024-09-21T2200,2273A,117.4185,32.8911,蚌埠市,蚌埠学院,,33,31,23,17,11,103,,114,114,12,6,6,6,0.3,0.3
2024-09-21T2200,2274A,117.3533,32.9673,蚌埠市,淮上区政府,,39,39,27,15,12,87,,99,99,12,9,6,6,0.3,0.2
2024-09-21T2200,2275A,117.3145,32.8977,蚌埠市,高新区,,41,41,26,19,12,97,,107,107,17,10,8,22,0.4,0.3
2024-09-21T2200,3715A,117.3092,32.9314,蚌埠市,蚌埠田家炳中学,,42,42,33,16,10,91,,103,103,12,9,6,5,0.4,0.3
2024-09-21T2200,1585A,109.8756,40.6532,包头市,市环境监测站,,26,26,10,9,6,39,,82,69,46,18,6,5,0.5,0.1
2024-09-21T2200,1587A,109.9991,40.5842,包头市,包头八中,,25,23,15,3,3,26,,80,68,49,18,5,3,0.5,0.4
2024-09-21T2200,1588A,109.8538,40.6821,包头市,青山宾馆,,20,10,7,7,3,62,,80,68,18,13,6,5,0.4,0.5
2024-09-21T2200,1589A,109.8642,40.6288,包头市,惠龙物流,,24,24,13,6,4,56,,81,73,30,15,6,5,0.5,0.4
2024-09-21T2200,1590A,110.0377,40.5546,包头市,东河鸿龙湾,,29,26,11,20,6,33,,76,64,35,15,9,9,0.5,0.4
2024-09-21T2200,3283A,109.9154,40.5685,包头市,滨河大厦,,41,41,14,21,5,39,,81,69,44,20,9,7,0.7,0.5
2024-09-21T2200,3419A,109.9447,40.6261,包头市,包头市委党校,,31,31,13,3,4,35,,79,66,41,17,5,4,0.4,0.4
2024-09-21T2200,3683A,109.8331,40.6576,包头市,昆区政府,,20,16,7,6,2,62,,78,73,22,13,6,4,0.4,0.3
2024-09-21T2200,1930A,107.185,34.3063,宝鸡市,庙沟村,,27,16,14,3,6,84,,106,100,9,6,8,8,0.2,0.3
2024-09-21T2200,1931A,107.0708,34.3017,宝鸡市,竹园沟,,24,24,17,8,6,45,,103,84,15,9,7,7,0.4,0.4
2024-09-21T2200,1932A,107.1906,34.3672,宝鸡市,三陆医院,,23,23,34,3,9,27,,106,85,44,23,7,8,0.5,0.5
2024-09-21T2200,1933A,107.1431,34.3547,宝鸡市,监测站,,25,25,22,7,6,46,,101,80,17,14,6,6,0.6,0.6
2024-09-21T2200,1934A,107.1186,34.3739,宝鸡市,技工学校,,23,19,24,16,11,42,,102,86,23,16,8,8,0.5,0.5
2024-09-21T2200,1935A,107.3906,34.3528,宝鸡市,陈仓区环保局家属楼,,32,32,23,15,12,22,,106,81,52,23,8,10,0.6,0.5
2024-09-21T2200,1936A,107.2058,34.3497,宝鸡市,文理学院,,34,34,23,3,7,42,,104,85,25,17,8,8,0.5,0.4
2024-09-21T2200,1937A,107.2386,34.3622,宝鸡市,三迪小学,,37,37,23,11,13,38,,105,83,38,25,8,8,0.5,0.5
2024-09-21T2200,1051A,115.493,38.8632,保定市,游泳馆,,31,31,19,3,0,61,,104,92,18,10,3,3,0.2,0.2
2024-09-21T2200,1052A,115.5213,38.8959,保定市,华电二区,,29,29,15,16,8,42,,96,79,25,9,3,2,0,0
2024-09-21T2200,1053A,115.4713,38.9108,保定市,接待中心,,22,22,19,9,4,51,,97,83,25,15,2,2,0,0
2024-09-21T2200,1054A,115.4612,38.8416,保定市,地表水厂,,32,32,24,3,3,62,,99,88,18,16,1,2,0,0
2024-09-21T2200,3581A,115.31981,38.95208,保定市,满城区生态环境分局,,41,41,12,3,5,33,,56,,45,17,3,2,0.3,0.2
2024-09-21T2200,3582A,115.47694,38.76408,保定市,清苑区第二中学,,30,30,20,8,8,53,,100,85,22,14,3,3,0.3,0.3
2024-09-21T2200,3583A,115.62909,39.02311,保定市,徐水物探局,,22,22,10,3,0,42,,96,79,27,14,2,2,0.4,0.4
2024-09-21T2200,4004A,115.4202,38.8656,保定市,双鹰农机,,25,25,18,9,7,67,,106,96,16,13,3,2,0.2,0.2
2024-09-21T2200,4034A,115.5150,38.8590,保定市,植保所站,,31,31,17,11,8,59,,104,90,18,9,2,2,0,0
2024-09-21T2200,2594A,99.1678,25.1081,保山市,市环境监测站,,48,48,37,32,20,60,,103,90,11,10,8,8,0.6,0.5
2024-09-21T2200,2595A,99.1711,25.1328,保山市,市环保局,,48,48,40,9,17,75,,108,97,8,8,6,7,0.4,0.3
2024-09-21T2200,1867A,109.1436,21.4086,北海市,海滩公园,,17,17,26,3,13,50,,87,75,8,11,6,5,0.6,0.6
2024-09-21T2200,1868A,109.0981,21.4661,北海市,新市环保局,,20,,23,14,17,53,,92,75,9,10,4,5,0.8,0.8
2024-09-21T2200,1869A,109.1778,21.5233,北海市,北海工业园,,20,20,29,12,18,41,,84,68,14,11,5,8,0.6,0.6
2024-09-21T2200,3400A,109.1911,21.4415,北海市,龙潭自来水厂,,26,24,24,18,20,36,,79,66,8,9,5,5,0.6,0.7
2024-09-21T2200,1001A,116.3621,39.8784,北京市,万寿西宫,,18,6,4,3,1,56,,77,69,16,15,3,3,0.3,0.3
2024-09-21T2200,1002A,116.2202,40.2915,北京市,定陵,,17,6,4,3,2,53,,66,58,3,4,1,2,0.2,0.2
2024-09-21T2200,1004A,116.4072,39.8863,北京市,天坛,,19,6,4,3,1,58,,79,72,16,13,3,2,0.2,0.2
2024-09-21T2200,1005A,116.462,39.9365,北京市,农展馆,,19,6,3,3,1,59,,73,68,10,11,4,3,0.2,0.2
2024-09-21T2200,1006A,116.3392,39.9295,北京市,官园,,16,6,4,3,1,51,,73,64,19,15,5,5,0.3,0.3
2024-09-21T2200,1007A,116.2878,39.9611,北京市,海淀万柳,,19,7,4,3,1,58,,73,67,10,14,3,2,0.1,0.2
2024-09-21T2200,1008A,116.6636,40.135,北京市,顺义新城,,13,6,3,3,1,40,,70,60,16,7,3,3,0.2,0.2
2024-09-21T2200,1009A,116.6275,40.3275,北京市,怀柔镇,,21,6,4,3,2,67,,76,71,5,8,3,3,0.2,0.3
2024-09-21T2200,1010A,116.2296,40.217,北京市,昌平镇,,17,7,5,3,2,54,,69,64,7,12,3,3,0.2,0.3
2024-09-21T2200,1011A,116.3966,39.9821,北京市,奥体中心,,16,8,6,3,1,51,,61,61,16,17,2,2,0.2,0.3
2024-09-21T2200,1012A,116.184,39.9136,北京市,古城,,20,6,5,3,2,64,,72,69,5,13,2,2,0.2,0.3
2024-09-21T2200,3281A,115.9718,40.4529,北京市,延庆夏都,,22,6,3,3,1,68,,79,73,2,5,3,3,0.2,0.2
2024-09-21T2200,3417A,117.0709,40.1465,北京市,平谷新城,,18,9,6,6,3,57,,83,74,8,6,3,3,0.1,0.1
2024-09-21T2200,3418A,116.8336,40.4095,北京市,密云新城,,,,11,2,2,67,,76,73,2,2,3,3,0.2,0.2
2024-09-21T2200,3671A,116.088,39.9726,北京市,门头沟三家店,,12,10,5,3,1,38,,68,59,19,9,5,5,0.1,0.1
2024-09-21T2200,3672A,116.1541,39.8204,北京市,丰台云岗,,17,6,4,3,2,52,,70,62,13,10,3,3,0.3,0.3
2024-09-21T2200,3673A,116.6804,39.9081,北京市,通州东关,,16,10,5,3,1,49,,73,64,25,14,3,3,0.1,0.2
2024-09-21T2200,3674A,115.9577,39.7603,北京市,房山燕山,,20,6,2,3,1,61,,71,67,3,4,3,3,0.1,0.2
2024-09-21T2200,3675A,116.4672,39.7733,北京市,大兴旧宫,,19,6,4,3,1,60,,79,73,10,11,3,3,0.2,0.2
2024-09-21T2200,3694A,115.986,40.4563,北京市,延庆石河营,,21,6,3,3,1,65,,76,70,4,6,3,3,0.2,0.2
2024-09-21T2200,3695A,116.6151,40.3053,北京市,怀柔新城,,16,6,3,3,2,51,,77,70,1,4,3,3,0.1,0.2
2024-09-21T2200,3696A,116.2545,39.8768,北京市,丰台小屯,,19,7,7,3,2,60,,70,66,7,11,3,3,0.3,0.3
2024-09-21T2200,3697A,116.84,40.3844,北京市,密云镇,,20,6,4,3,2,61,,77,72,7,7,2,2,0.3,0.4
2024-09-21T2200,1761A,123.8275,41.3064,本溪市,大峪,,14,14,16,3,4,44,,64,61,12,11,8,8,0.8,0.7
2024-09-21T2200,1762A,123.7567,41.3325,本溪市,溪湖,,17,17,15,9,6,53,,66,64,15,12,7,7,0.6,0.6
2024-09-21T2200,1763A,123.7169,41.3094,本溪市,彩屯,,28,28,22,14,12,22,,55,47,43,25,12,8,1.3,0.9
2024-09-21T2200,1764A,123.7669,41.2864,本溪市,东明,,21,21,18,8,6,42,,63,59,28,16,8,6,0.8,0.6
2024-09-21T2200,1765A,123.7992,41.2664,本溪市,新立屯,,17,17,16,6,4,36,,70,63,16,13,5,5,0.7,0.6
2024-09-21T2200,1766A,123.8142,41.3472,本溪市,威宁,,30,30,18,10,10,19,,64,51,35,16,8,8,0.9,0.8
2024-09-21T2200,2587A,105.2864,27.3125,毕节市,八中,,28,27,16,19,14,36,,88,71,11,7,6,5,0.5,0.4
2024-09-21T2200,2588A,105.31,27.2944,毕节市,师专,,22,19,17,14,13,69,,97,78,11,9,8,6,0.5,0.5
2024-09-21T2200,3537A,105.3631,27.3533,毕节市,长征村,,24,19,17,13,8,75,,100,82,5,4,9,7,0.5,0.5
2024-09-21T2200,1629A,118.0018,37.3617,滨州市,第二水厂,,39,39,15,17,4,51,,96,88,34,12,5,5,0.6,0.3
2024-09-21T2200,1630A,117.9776,37.393,滨州市,北中新校,,29,29,18,12,4,32,,95,81,25,7,6,7,0.7,0.5
2024-09-21T2200,3514A,117.9378,37.3956,滨州市,中海酒店,,37,36,14,14,8,7,,92,75,74,13,5,4,0.7,0.5
2024-09-21T2200,3515A,117.9378,37.3553,滨州市,开发区一中,,45,39,19,19,5,3,,92,78,90,15,8,6,0.7,0.5
2024-09-21T2200,3516A,118.0917,37.694,滨州市,金海六路,,41,41,17,22,3,12,,97,69,75,17,4,3,0.8,0.7
2024-09-21T2200,4028A,117.9956,37.3753,滨州市,滨州市西街道办事处,,34,34,12,19,8,56,,96,90,28,10,7,6,0.9,0.6
2024-09-21T2200,2311A,115.8072,33.8399,亳州市,污水处理厂,,28,26,30,10,7,89,,108,104,17,13,5,3,0.2,0.3
2024-09-21T2200,2312A,115.7789,33.8518,亳州市,三国揽胜宫,,30,28,26,14,14,95,,107,106,10,8,3,3,0.3,0.3
2024-09-21T2200,2693A,82.0485,44.8556,博尔塔拉蒙古自治州,市党校,,33,33,48,20,17,91,,124,120,15,8,4,6,0.3,0.4
2024-09-21T2200,2694A,82.0806,44.8969,博尔塔拉蒙古自治州,市环保局,颗粒物(PM10),56,61,60,19,18,53,,120,110,33,16,6,6,0.6,0.6
2024-09-21T2200,1071A,116.8842,38.2991,沧州市,沧县城建局,,26,26,18,15,9,51,,96,83,31,20,1,2,0.2,0.3
2024-09-21T2200,1072A,116.8584,38.3254,沧州市,电视转播站,,30,30,20,3,5,57,,102,90,36,22,3,4,0.2,0.3
2024-09-21T2200,1073A,116.8709,38.3228,沧州市,市环保局,,26,26,20,16,16,38,,96,79,38,18,1,2,0.2,0.2
2024-09-21T2200,3324A,116.8136,38.3004,沧州市,河北水利电力学院,,27,27,12,18,11,57,,96,87,26,17,1,2,0.4,0.3
2024-09-21T2200,2622A,97.1806,31.1273,昌都市,昌都监测站,,,22,6,11,4,,,66,57,10,5,7,7,0.5,0.8
2024-09-21T2200,3719A,97.1714,31.1406,昌都市,昌都会议中心,,17,11,6,7,5,54,,58,57,5,4,8,8,0.5,0.6
2024-09-21T2200,2690A,88.1236,43.8886,昌吉回族自治州,天山天池,,29,29,23,11,6,80,,112,103,6,5,21,19,0.5,0.5
2024-09-21T2200,2692A,87.2717,44.0297,昌吉回族自治州,新区政务中心,,46,46,62,14,22,86,,120,118,26,30,7,8,0.7,0.7
2024-09-21T2200,3613A,87.3095,44.0142,昌吉回族自治州,亚心广场,颗粒物(PM10),59,68,78,19,14,45,,115,108,75,37,3,6,0.9,0.6
2024-09-21T2200,1119A,125.3325,43.9166,长春市,食品厂,,34,34,18,15,8,17,,55,44,41,16,7,5,0.3,0.2
2024-09-21T2200,1120A,125.2863,43.9027,长春市,客车厂,,20,20,17,14,9,31,,51,46,28,17,7,6,0.3,0.2
2024-09-21T2200,1121A,125.2841,43.8463,长春市,邮电学院,,21,21,17,13,6,31,,52,46,28,15,7,6,0.3,0.2
2024-09-21T2200,1122A,125.3716,43.8772,长春市,劳动公园,,26,26,24,9,8,36,,58,49,29,20,11,8,0.2,0.2
2024-09-21T2200,1123A,125.3297,43.8805,长春市,园林处,,27,27,18,8,7,32,,54,48,33,17,6,5,0.3,0.2
2024-09-21T2200,1124A,125.4605,43.79,长春市,净月潭,,23,23,16,6,5,25,,52,40,27,13,6,6,0.3,0.3
2024-09-21T2200,1126A,125.3863,43.8447,长春市,经开区环卫处,,19,19,20,9,6,28,,52,42,27,19,8,8,0.4,0.3
2024-09-21T2200,1127A,125.245,43.7783,长春市,高新区管委会,,41,41,21,16,7,17,,52,38,42,20,6,6,0.4,0.3
2024-09-21T2200,1128A,125.1761,43.8325,长春市,岱山公园,,46,46,26,11,8,10,,46,29,52,26,12,5,0.4,0.5
2024-09-21T2200,1335A,113.0833,28.2325,长沙市,经开区环保局,,36,36,39,3,14,88,,91,91,11,12,1,2,0.3,0.4
2024-09-21T2200,1336A,112.8872,28.2189,长沙市,高开区环保局,,33,33,50,8,24,99,,94,94,4,8,4,4,0.2,0.4
2024-09-21T2200,1337A,113.0792,28.2053,长沙市,马坡岭,,38,38,42,3,15,93,,97,97,9,12,4,3,0.4,0.6
2024-09-21T2200,1338A,112.9394,28.19,长沙市,湖南师范大学,,33,33,49,6,21,89,,92,92,7,7,5,4,0.3,0.4
2024-09-21T2200,1339A,113.0178,28.1322,长沙市,雨花区环保局,,32,32,40,18,21,88,,90,90,10,13,5,5,0.4,0.5
2024-09-21T2200,1340A,112.9792,28.2597,长沙市,伍家岭,,31,31,46,3,22,87,,87,87,5,9,3,2,0.6,0.7
2024-09-21T2200,1341A,113.0014,28.1944,长沙市,火车新站,,36,36,44,12,22,82,,86,86,6,9,4,4,0.4,0.5
2024-09-21T2200,1342A,112.9844,28.1178,长沙市,天心区环保局,,37,37,47,6,13,82,,84,84,7,10,2,3,0.3,0.4
2024-09-21T2200,1343A,112.8908,28.1308,长沙市,湖南中医药大学,,42,42,61,3,24,101,,98,98,6,9,6,6,0.5,0.7
2024-09-21T2200,1344A,112.9581,28.3611,长沙市,沙坪,,30,18,46,8,15,96,,96,96,12,11,2,2,0.5,0.6
2024-09-21T2200,1727A,113.1147,36.1547,长治市,清华站,,28,28,13,14,7,65,,107,97,14,9,7,8,0.8,0.6
2024-09-21T2200,1728A,113.1031,36.1989,长治市,监测站,,23,21,16,14,6,71,,99,91,14,13,10,10,0.6,0.7
2024-09-21T2200,1730A,113.0886,36.2125,长治市,审计局,,24,24,14,14,8,72,,100,92,14,13,7,8,0.5,0.4
2024-09-21T2200,1731A,113.0844,36.1856,长治市,长治八中,,28,28,16,14,8,67,,99,91,16,11,7,8,0.7,0.6
2024-09-21T2200,2845A,113.1569,36.1911,长治市,德盛苑,,25,24,13,14,6,79,,108,100,8,7,5,5,0.7,0.6
2024-09-21T2200,3568A,113.06,36.0464,长治市,向阳小学,,48,48,32,26,18,63,,109,98,14,10,9,8,1.2,0.4
2024-09-21T2200,3569A,112.8792,36.3144,长治市,屯留一中,,36,36,25,22,14,62,,104,89,20,16,11,11,1.0,0.9
2024-09-21T2200,3570A,113.235,36.3489,长治市,潞城四中,,35,35,17,22,12,80,,105,94,9,8,6,6,0.9,0.7
2024-09-21T2200,1854A,111.6975,28.9703,常德市,市二中,颗粒物(PM10),51,51,66,21,22,98,,114,113,9,10,10,11,0.4,0.5
2024-09-21T2200,3138A,111.7153,29.0289,常德市,武陵区永安,,49,49,56,19,19,94,,111,110,11,9,11,10,0.5,0.6
2024-09-21T2200,3139A,111.6892,28.9881,常德市,鼎城区玉霞,颗粒物(PM10),53,55,65,19,22,99,,115,114,8,10,10,11,0.5,0.6
2024-09-21T2200,3140A,111.6625,29.0531,常德市,武陵区长庚,,45,45,57,15,21,97,,110,109,10,10,10,11,0.4,0.5
2024-09-21T2200,1196A,119.9633,31.762,常州市,市监测站,,,,9,11,10,,,80,80,7,6,6,5,0.3,0.5
2024-09-21T2200,1200A,119.9468,31.7069,常州市,武进监测站,,26,26,17,6,7,78,,77,77,7,4,8,6,0.5,0.6
2024-09-21T2200,1201A,119.9255,31.9087,常州市,安家,,24,24,21,9,9,74,,77,77,15,11,8,7,0.4,0.5
2024-09-21T2200,3002A,119.9805,31.8174,常州市,行政中心,,26,22,23,15,7,82,,79,79,9,9,4,8,0.4,0.4
2024-09-21T2200,3003A,120.0522,31.7748,常州市,经开区,,26,26,23,11,8,78,,78,78,11,9,10,8,0.3,0.3
2024-09-21T2200,3010A,119.9025,31.7964,常州市,钟楼,,21,13,9,8,7,67,,67,67,15,12,9,7,0.0,0.2
2024-09-21T2200,3429A,119.8598,31.7066,常州市,武进经发区,,33,33,23,14,13,73,,72,72,13,9,10,9,0.4,0.4
2024-09-21T2200,3430A,119.5826,31.7245,常州市,金坛城区,,41,41,24,14,13,82,,76,76,16,12,8,8,0.4,0.5
2024-09-21T2200,2220A,120.4318,41.5881,朝阳市,西梁,,48,48,18,26,8,8,,68,45,45,13,12,7,0.5,0.3
2024-09-21T2200,2221A,120.4521,41.5646,朝阳市,河畔小区,,40,40,13,11,6,14,,66,51,41,8,12,8,0.6,0.4
2024-09-21T2200,2222A,120.4176,41.5648,朝阳市,八里堡,颗粒物(PM10),55,59,25,13,9,13,,67,43,44,20,8,8,0.7,0.5
2024-09-21T2200,2223A,120.3806,41.5969,朝阳市,农业园区,,22,22,13,11,6,11,,65,45,35,10,6,6,0.4,0.3
2024-09-21T2200,1705A,116.6367,23.6719,潮州市,西园路,,31,31,17,3,2,34,,56,46,15,8,3,3,0.6,0.5
2024-09-21T2200,3026A,116.6183,23.6608,潮州市,市政府,,16,16,14,8,6,44,,65,55,13,6,9,4,0.7,0.7
2024-09-21T2200,4036A,116.6461,23.6761,潮州市,金山,,27,27,16,12,12,27,,69,56,21,7,7,8,0.7,0.5
2024-09-21T2200,2472A,113.0073,25.9061,郴州市,马头岭,,43,43,43,10,16,61,,57,57,6,9,7,10,0.2,0.2
2024-09-21T2200,2473A,113.0116,25.8226,郴州市,市职中,,39,39,33,26,27,61,,57,57,10,13,4,5,0.5,0.7
2024-09-21T2200,2474A,113.0161,25.8001,郴州市,兴隆步行街,,42,42,38,16,22,62,,55,55,11,11,4,6,0.5,0.7
2024-09-21T2200,2475A,113.0383,25.8071,郴州市,市审计局,,40,40,30,27,24,56,,52,52,14,11,3,7,0.6,0.8
2024-09-21T2200,2476A,113.0348,25.7759,郴州市,市环保局,,41,41,31,24,26,54,,49,49,10,11,4,7,0.6,0.8
2024-09-21T2200,1431A,103.9728,30.7236,成都市,金泉两河,,48,48,20,9,4,56,,136,116,30,12,4,4,0.5,0.4
2024-09-21T2200,1432A,104.176,30.6872,成都市,十里店,,40,40,12,24,5,30,,116,95,62,24,2,2,0.4,0.2
2024-09-21T2200,1433A,104.079,30.5706,成都市,三瓦窑,,24,24,18,12,5,45,,131,110,47,13,3,3,0.4,0.3
2024-09-21T2200,1434A,104.1114,30.63,成都市,沙河铺,,23,22,21,3,6,72,,129,111,24,13,3,4,0.6,0.5
2024-09-21T2200,1437A,104.0786,30.6531,成都市,君平街,,26,22,19,18,7,74,,131,117,20,14,3,4,0.5,0.4
2024-09-21T2200,2880A,104.0239,30.65639,成都市,大石西路,,28,28,20,8,6,78,,131,118,17,14,5,6,0.6,0.5
2024-09-21T2200,3136A,104.2725,30.5589,成都市,龙泉驿区区政府,,30,17,12,17,5,94,,120,109,10,14,4,4,0.4,0.4
2024-09-21T2200,3357A,104.0106,30.6931,成都市,金博路,,31,31,17,3,5,53,,132,113,32,16,3,3,0.5,0.4
2024-09-21T2200,3359A,104.0578,30.5225,成都市,华阳,,29,29,19,9,4,70,,121,107,17,11,3,4,0.4,0.3
2024-09-21T2200,3487A,104.2394,30.5319,成都市,车城东七路,,28,25,15,12,7,87,,121,110,16,13,2,3,0.4,0.4
2024-09-21T2200,3488A,104.3853,30.7453,成都市,青白江技师分院,,27,27,14,3,4,76,,119,104,25,20,2,3,0.5,0.4
2024-09-21T2200,3489A,104.0789,30.4072,成都市,科学城,,30,21,18,10,8,94,,130,119,9,12,4,4,0.4,0.4
2024-09-21T2200,4011A,103.8506,30.6947,成都市,光华大道三段,,33,28,21,23,9,74,,154,134,29,14,3,3,0.5,0.5
2024-09-21T2200,1062A,117.9531,40.9081,承德市,铁路,,17,17,13,8,5,9,,69,43,29,14,7,8,0.3,0.2
2024-09-21T2200,1063A,117.9392,40.9763,承德市,中国银行,,15,15,11,3,3,12,,69,40,17,12,5,5,0.4,0.3
2024-09-21T2200,1064A,117.9503,40.928,承德市,开发区,,27,27,18,17,10,28,,71,50,12,11,6,6,0.2,0.2
2024-09-21T2200,1065A,117.8051,40.9655,承德市,文化中心,,35,35,16,3,5,12,,68,43,30,13,9,7,0.3,0.2
2024-09-21T2200,1066A,117.9268,41.0026,承德市,离宫,,33,,12,23,14,12,,55,32,12,5,3,2,0.3,0.3
2024-09-21T2200,2314A,117.47,30.6618,池州市,池州学院,,24,24,25,11,13,75,,50,50,12,10,6,5,0.4,0.5
2024-09-21T2200,3237A,117.4918,30.6617,池州市,展览馆,,28,28,20,14,10,74,,53,53,8,9,5,5,0.5,0.6
2024-09-21T2200,3333A,117.5627,30.695,池州市,第八中学,,30,30,30,10,10,67,,57,57,10,11,6,4,0.6,0.6
2024-09-21T2200,3334A,117.5038,30.6243,池州市,第十二中学,,31,31,25,14,13,70,,53,53,13,12,6,5,0.6,0.7
2024-09-21T2200,1744A,118.9233,42.2816,赤峰市,松山一中,,15,14,10,6,3,45,,68,58,20,14,10,9,0.2,0.2
2024-09-21T2200,1745A,118.9576,42.2728,赤峰市,哈达街,,17,13,9,9,4,54,,70,62,13,12,9,7,0.3,0.3
2024-09-21T2200,1746A,118.8788,42.2554,赤峰市,天义路,,15,13,19,7,5,22,,64,47,30,14,8,6,0.2,0.1
2024-09-21T2200,3058A,119.2658,42.0353,赤峰市,银河街,,22,22,18,11,9,41,,69,58,20,12,22,13,0.5,0.4
2024-09-21T2200,3286A,118.9359,42.3147,赤峰市,桥北物流园区,,24,24,11,3,7,50,,69,60,19,14,10,7,0.4,0.5
2024-09-21T2200,2521A,107.3476,22.4136,崇左市,市环保局江州分局,,26,26,30,10,18,41,,60,46,6,6,2,2,0.7,0.7
2024-09-21T2200,2522A,107.3702,22.3707,崇左市,城南新区,,17,13,27,11,16,54,,67,55,4,6,2,2,0.7,0.8
2024-09-21T2200,2298A,118.3093,32.3153,滁州市,老年大学,,38,38,26,16,13,80,,91,91,14,7,3,6,0.2,0.2
2024-09-21T2200,2299A,118.3244,32.2786,滁州市,人大宾馆,,39,39,31,11,13,90,,95,95,10,7,8,6,0.4,0.4
2024-09-21T2200,3207A,118.3118,32.3038,滁州市,市政府原办公楼,,37,37,25,19,18,83,,89,89,15,8,6,6,0.3,0.3
2024-09-21T2200,3331A,118.3267,32.2634,滁州市,图书馆,,36,36,26,13,13,91,,94,94,13,6,6,5,0.2,0.2
2024-09-21T2200,2605A,101.5482,25.0441,楚雄彝族自治州,州环境监测站,,48,,30,33,21,43,,92,81,30,23,16,19,0.7,0.7
2024-09-21T2200,2606A,101.538,25.0492,楚雄彝族自治州,市经济开发区,,46,46,31,29,22,59,,92,82,22,21,32,12,0.7,0.7
2024-09-21T2200,2548A,107.5277,31.2827,达州市,达州职业技术学院,,20,20,20,12,6,48,,68,62,19,12,6,9,0.5,0.5
2024-09-21T2200,2549A,107.5086,31.2186,达州市,市环境监测站,,20,15,20,3,1,64,,70,67,11,13,8,9,0.4,0.4
2024-09-21T2200,2550A,107.4988,31.2132,达州市,凤凰小区,,22,14,15,7,3,69,,78,75,12,11,9,9,0.3,0.3
2024-09-21T2200,2551A,107.5082,31.1986,达州市,达县机关宾馆,,20,17,16,3,4,62,,74,70,16,14,6,7,0.3,0.3
2024-09-21T2200,2552A,107.4644,31.2124,达州市,市政中心,,21,21,20,3,4,63,,73,71,14,12,7,6,0.2,0.3
2024-09-21T2200,2614A,100.1542,25.7054,大理白族自治州,大理市环境监测站,,49,49,33,29,22,29,,100,79,37,22,8,8,0.7,0.6
2024-09-21T2200,2615A,100.2171,25.5811,大理白族自治州,大理古城,,29,21,29,20,19,64,,93,81,12,11,8,8,0.6,0.6
2024-09-21T2200,1109A,121.612,38.9741,大连市,甘井子,,20,18,38,3,8,62,,77,75,20,19,7,7,0.5,0.3
2024-09-21T2200,1110A,121.565,38.9511,大连市,周水子,,19,14,12,3,6,58,,72,71,15,14,7,7,0.6,0.6
2024-09-21T2200,1111A,121.5637,38.8845,大连市,星海三站,,19,18,14,6,8,58,,79,75,12,8,6,6,0.2,0.2
2024-09-21T2200,1112A,121.6302,38.9117,大连市,青泥洼桥,,19,15,16,3,7,60,,74,71,14,14,6,6,0.1,0.3
2024-09-21T2200,1113A,121.6251,38.8638,大连市,傅家庄,,20,12,42,3,6,61,,75,73,10,11,6,6,0.1,0.1
2024-09-21T2200,1114A,121.5213,38.8661,大连市,七贤岭,,22,19,16,3,6,68,,84,82,10,9,6,6,0.5,0.5
2024-09-21T2200,1115A,121.2529,38.8061,大连市,旅顺,,,13,15,3,7,73,,85,82,11,9,,4,0.3,0.4
2024-09-21T2200,1116A,121.7485,39.1311,大连市,金州,,19,15,16,3,8,59,,76,72,16,15,7,7,0.4,0.5
2024-09-21T2200,1117A,121.7811,39.0496,大连市,开发区,,20,20,19,3,8,60,,73,71,11,10,6,7,0.4,0.5
2024-09-21T2200,1118A,121.9762,39.0631,大连市,双D港,,21,20,26,6,9,66,,85,82,13,16,7,6,0.5,0.6
2024-09-21T2200,1789A,124.81117,46.03138,大庆市,大同区,细颗粒物(PM2.5),53,52,30,37,20,40,,65,46,26,18,12,4,1.0,0.6
2024-09-21T2200,1790A,125.129,46.533,大庆市,龙凤区,颗粒物(PM10),55,59,35,22,15,37,,62,44,32,24,3,2,0.5,0.4
2024-09-21T2200,1791A,124.902,46.408,大庆市,红岗区,,36,36,35,17,13,48,,68,56,24,23,6,7,0.5,0.4
2024-09-21T2200,1792A,125.153,46.586,大庆市,萨尔图区,,47,47,22,27,9,20,,59,37,53,21,6,5,0.5,0.3
2024-09-21T2200,1793A,124.9042,46.6215,大庆市,让胡路区,颗粒物(PM10),52,54,42,28,17,7,,59,34,50,27,6,5,0.5,0.3
2024-09-21T2200,3481A,125.141,46.634,大庆市,萨区政府监测点,,34,34,16,15,8,24,,61,37,39,17,6,5,0.5,0.4
2024-09-21T2200,1723A,113.2994,40.0758,大同市,云冈宾馆,,47,47,10,14,5,18,,76,64,56,15,8,7,0.7,0.6
2024-09-21T2200,1724A,113.3444,40.0917,大同市,大同大学,,25,25,9,13,5,21,,75,64,47,11,8,10,0.4,0.2
2024-09-21T2200,1725A,113.2661,40.1269,大同市,安家小村,,16,16,12,3,6,51,,74,64,20,11,10,11,0.4,0.4
2024-09-21T2200,1726A,113.2711,40.0844,大同市,教育学院,颗粒物(PM10),52,54,15,10,7,22,,70,56,46,18,7,7,0.5,0.4
2024-09-21T2200,3282A,113.3397,40.0597,大同市,大同市卫生学校,,21,21,9,7,6,48,,76,70,28,9,7,7,0.4,0.4
2024-09-21T2200,3565A,113.1367,40.1122,大同市,云冈站,,29,29,15,10,5,9,,75,56,34,11,13,11,0.5,0.5
2024-09-21T2200,3566A,113.1186,40.2556,大同市,图书馆,,18,18,11,9,6,19,,73,54,10,9,8,9,0.5,0.4
2024-09-21T2200,3567A,113.5931,40.0461,大同市,区一中,,19,6,7,3,3,58,,81,71,7,7,9,8,0.4,0.4
2024-09-21T2200,3676A,113.2802,40.0995,大同市,第二人民医院,,46,46,12,10,7,24,,75,60,44,12,10,10,0.4,0.4
2024-09-21T2200,2269A,124.1069,50.4097,大兴安岭地区,科技局,,27,27,14,15,12,34,,61,50,6,5,5,6,0.3,0.3
2024-09-21T2200,3663A,124.1164,50.4278,大兴安岭地区,红旗社区,,34,34,18,23,11,15,,57,33,27,15,2,2,0.5,0.4
2024-09-21T2200,1600A,124.3303,40.0625,丹东市,江湾东路,,15,6,6,3,2,47,,54,52,6,6,9,8,0.5,0.5
2024-09-21T2200,1601A,124.4256,40.1503,丹东市,临江后街,,18,8,4,3,2,55,,58,56,3,4,5,6,0.4,0.4
2024-09-21T2200,1602A,124.3933,40.1461,丹东市,元宝山,,15,6,4,3,4,48,,51,49,4,4,3,3,0.4,0.4
2024-09-21T2200,1603A,124.3633,40.1092,丹东市,民主桥,,15,12,11,3,3,48,,53,50,8,8,4,4,0.5,0.4
2024-09-21T2200,3541A,109.5726,19.5167,儋州市,第一中学子站,,13,11,15,6,6,39,,59,54,7,4,5,5,0.5,0.5
2024-09-21T2200,3542A,109.5567,19.5187,儋州市,东坡学校子站,,14,12,14,3,6,42,,63,58,5,5,5,4,0.5,0.5
2024-09-21T2200,2616A,98.5842,24.428,德宏傣族景颇族自治州,德宏州监测站,,35,35,45,16,28,74,,113,100,8,12,6,10,0.6,0.6
2024-09-21T2200,3677A,98.5881,24.4368,德宏傣族景颇族自治州,芒市人民政府综合楼,,35,35,40,8,28,79,,115,100,7,10,6,8,0.5,0.6
2024-09-21T2200,1901A,104.4239,31.1208,德阳市,东山公园,,29,29,18,10,6,86,,117,110,11,10,3,2,0.5,0.4
2024-09-21T2200,1902A,104.3826,31.1317,德阳市,西小区,,28,27,20,19,8,78,,114,104,13,11,2,2,0.5,0.4
2024-09-21T2200,1904A,104.3553,31.1091,德阳市,耐火材料厂,,28,24,20,19,8,79,,113,99,12,11,3,3,0.4,0.4
2024-09-21T2200,3639A,104.4019,31.1244,德阳市,市教育局,,27,27,18,15,7,73,,114,103,17,10,2,2,0.4,0.3
2024-09-21T2200,1622A,116.3032,37.4674,德州市,儿童乐园,,36,36,20,9,7,46,,100,84,43,18,12,9,0.5,0.4
2024-09-21T2200,1624A,116.2991,37.4451,德州市,监理站,,24,24,11,9,4,74,,104,98,26,18,11,8,0.5,0.5
2024-09-21T2200,3066A,116.2721,37.4379,德州市,九衢泉纯净水厂,,26,22,13,7,7,81,,105,101,22,15,12,9,0.3,0.3
2024-09-21T2200,3371A,116.3728,37.4403,德州市,开发区人民医院,,41,41,17,9,5,52,,101,90,44,17,9,8,0.5,0.4
2024-09-21T2200,3372A,116.3572,37.4094,德州市,太阳城中学,,31,31,18,7,6,69,,101,94,31,19,12,10,0.4,0.4
2024-09-21T2200,3511A,116.5652,37.3319,德州市,陵城艺术中心,,31,31,15,12,2,54,,95,83,32,18,9,8,0.5,0.5
2024-09-21T2200,2621A,99.7056,27.8317,迪庆藏族自治州,迪庆州站,,33,33,29,16,17,82,,78,78,11,11,7,12,0.3,0.3
2024-09-21T2200,3180A,99.7136,27.8094,迪庆藏族自治州,质量技术监督局,,26,20,23,17,10,83,,78,78,9,11,6,7,0.3,0.3
2024-09-21T2200,2663A,104.6241,35.5734,定西市,东关小学,,45,41,31,31,16,69,,100,94,14,12,5,5,0.3,0.2
2024-09-21T2200,2664A,104.6194,35.5934,定西市,供电公司,,45,45,31,24,20,73,,101,95,11,15,6,6,0.2,0.2
2024-09-21T2200,1389A,113.7547,23.0494,东莞市,莞城梨川,,16,16,17,9,10,30,,48,37,15,18,6,6,0.6,0.6
2024-09-21T2200,1390A,113.7944,23.0128,东莞市,东城石井,,,25,15,9,8,,,46,36,24,20,5,4,0.6,0.6
2024-09-21T2200,1391A,113.7383,22.9658,东莞市,南城西平,,23,23,16,8,6,6,,49,27,40,24,10,8,0.8,0.7
2024-09-21T2200,3319A,113.7338,23.0381,东莞市,万江金泰,,14,14,16,8,9,30,,51,40,17,18,7,8,0.5,0.5
2024-09-21T2200,3626A,113.7533,23.0202,东莞市,南城元岭,,20,20,15,8,8,19,,50,33,24,17,7,6,0.7,0.7
2024-09-21T2200,3627A,113.7875,23.0457,东莞市,东城主山,,15,15,14,8,10,28,,50,36,20,19,6,6,0.5,0.5
2024-09-21T2200,1666A,118.6614,37.4309,东营市,市环保局,,31,31,15,12,6,94,,102,102,26,22,6,5,0.5,0.2
2024-09-21T2200,3036A,118.6904,37.4338,东营市,开发区管委会,,35,35,22,14,6,76,,98,95,28,10,5,3,0.5,0.2
2024-09-21T2200,3365A,118.5719,37.565,东营市,垦利区民丰路,,34,34,14,9,3,64,,82,80,23,12,4,4,0.4,0.1
2024-09-21T2200,3498A,118.5055,37.8612,东营市,河口城区,,36,36,18,15,7,48,,88,82,25,10,6,5,0.6,0.4
2024-09-21T2200,3646A,118.4978,37.4623,东营市,胜利站,,34,34,22,19,4,78,,89,88,20,10,7,6,0.5,0.3
2024-09-21T2200,3734A,118.35,37.26,东营市,理想之城,,31,31,17,19,7,60,,85,81,42,12,3,4,0.4,0.1
2024-09-21T2200,1591A,110.0023,39.8129,鄂尔多斯市,综合楼,,48,48,26,29,9,80,,98,91,26,15,17,12,0.8,0.5
2024-09-21T2200,1592A,109.9486,39.8261,鄂尔多斯市,巴音孟克林场办事处,,46,46,29,24,12,61,,91,86,34,18,8,6,0.7,0.4
2024-09-21T2200,1593A,109.7736,39.5986,鄂尔多斯市,康泽苑,颗粒物(PM10),53,56,20,27,8,32,,102,87,48,11,8,9,0.6,0.4
2024-09-21T2200,1594A,109.8119,39.5989,鄂尔多斯市,华泰汽车城,颗粒物(PM10),59,68,24,31,12,8,,98,74,67,16,9,10,0.8,0.5
2024-09-21T2200,1595A,109.9734,39.7884,鄂尔多斯市,奥林花园,颗粒物(PM10),60,70,31,31,12,31,,87,79,53,19,6,6,1.0,0.6
2024-09-21T2200,2436A,114.8938,30.3994,鄂州市,市政府,,21,18,34,6,9,65,,72,72,10,10,11,11,0.7,0.7
2024-09-21T2200,2437A,114.8989,30.3714,鄂州市,赵家坝,,29,29,39,10,7,63,,74,73,11,9,8,9,0.7,0.7
2024-09-21T2200,3654A,114.8094,30.4089,鄂州市,精准医疗中心,,41,41,37,7,7,92,,78,78,10,9,6,6,0.5,0.5
2024-09-21T2200,2454A,109.4978,30.2981,恩施土家族苗族自治州,湖北民院,,23,22,21,6,16,72,,78,74,11,14,9,9,0.7,0.8
2024-09-21T2200,2455A,109.4707,30.2798,恩施土家族苗族自治州,州电力总公司,,22,12,24,9,16,68,,78,73,14,21,8,8,0.8,0.8
2024-09-21T2200,3549A,109.5061,30.3772,恩施土家族苗族自治州,龙凤新区,,38,29,22,26,17,57,,75,63,10,11,6,6,0.9,0.9
2024-09-21T2200,2499A,108.3411,21.6158,防城港市,沙万,,25,,31,17,21,55,,95,82,9,10,7,9,0.7,0.8
2024-09-21T2200,2500A,108.3514,21.7731,防城港市,防城档案局,,18,13,46,12,25,37,,85,71,15,18,7,7,0.6,0.7
2024-09-21T2200,2501A,108.3506,21.6414,防城港市,大海花园,,22,,31,15,21,52,,90,78,9,10,6,6,0.7,0.8
2024-09-21T2200,1371A,113.1294,23.0067,佛山市,湾梁,,21,19,15,6,7,15,,56,28,41,27,9,7,0.7,0.7
2024-09-21T2200,1372A,113.1083,23.0478,佛山市,华材职中,,20,19,16,10,13,11,,51,29,40,31,6,6,0.5,0.5
2024-09-21T2200,1373A,113.144,23.0453,佛山市,南海气象局,,24,24,16,13,10,8,,43,21,38,21,8,6,0.6,0.6
2024-09-21T2200,1374A,113.2881,22.8094,佛山市,顺德苏岗,,22,21,10,3,5,2,,43,24,43,22,7,7,0.7,0.7
2024-09-21T2200,1376A,112.8383,22.8678,佛山市,高明孔堂,,21,21,21,9,11,14,,50,40,42,23,5,5,0.4,0.4
2024-09-21T2200,1377A,112.8836,23.1588,佛山市,三水监测站,,25,22,16,17,16,3,,61,28,42,30,5,6,0.6,0.6
2024-09-21T2200,1378A,112.867,23.185,佛山市,三水云东海,,24,24,17,9,13,0,,54,22,31,26,7,8,0.6,0.6
2024-09-21T2200,3625A,113.2544,22.7642,佛山市,容桂街道办,,15,12,7,9,10,22,,45,32,30,26,6,6,0.7,0.7
2024-09-21T2200,1282A,119.2681,26.0504,福州市,师大,,24,24,26,6,11,45,,104,78,4,8,2,2,0.3,0.5
2024-09-21T2200,1283A,119.2984,26.1028,福州市,五四北路,,19,19,23,3,11,46,,90,82,3,5,3,4,0.3,0.4
2024-09-21T2200,1284A,119.2648,26.0768,福州市,杨桥西路,,16,16,25,3,14,48,,106,90,4,7,3,4,0.4,0.5
2024-09-21T2200,1285A,119.317,26.0746,福州市,紫阳,,18,18,26,3,12,37,,84,69,9,11,2,2,0,0.1
2024-09-21T2200,3048A,119.5799,26.0936,福州市,九龙,,18,18,20,3,9,41,,90,62,3,3,6,7,0.4,0.5
2024-09-21T2200,3526A,119.5189,25.9664,福州市,吴航,,15,12,21,3,10,46,,89,65,3,5,6,6,0.3,0.4
2024-09-21T2200,1755A,123.7977,41.8491,抚顺市,望花区,,20,20,17,8,9,45,,60,56,16,10,9,7,0.4,0.3
2024-09-21T2200,1756A,123.9161,41.8822,抚顺市,顺城区,,29,29,19,16,10,12,,58,45,43,16,5,5,0.4,0.3
2024-09-21T2200,1757A,124.0436,41.8611,抚顺市,东洲区,,25,19,16,17,9,37,,59,54,15,11,12,8,0.4,0.4
2024-09-21T2200,1758A,123.9247,41.8642,抚顺市,新抚区,,16,16,16,10,9,31,,62,57,29,15,4,4,0.2,0.2
2024-09-21T2200,1759A,124.0972,41.8961,抚顺市,大伙房水库,,17,17,19,8,6,35,,60,53,11,7,6,6,0.2,0.3
2024-09-21T2200,1760A,123.7086,41.8391,抚顺市,沈抚新城,,15,15,16,3,8,41,,66,58,17,13,7,7,0.2,0.2
2024-09-21T2200,2376A,116.2127,28.0814,抚州市,桐源党溪,,36,36,30,19,14,41,,74,68,4,6,5,6,0.7,0.6
2024-09-21T2200,2377A,116.3544,27.9831,抚州市,市站,,28,28,26,11,13,36,,63,57,9,7,1,3,1.0,0.9
2024-09-21T2200,2378A,116.3565,27.963,抚州市,血防站,,24,24,28,11,13,33,,59,53,9,10,2,3,0.7,0.8
2024-09-21T2200,2379A,116.3564,28.0007,抚州市,采茶剧团,,20,20,25,13,13,34,,64,58,5,6,4,6,0.8,0.8
2024-09-21T2200,2380A,116.385,27.9647,抚州市,医学分院,,25,25,24,13,11,36,,60,54,6,7,4,4,1.1,1.1
2024-09-21T2200,2207A,121.6094,41.998,阜新市,工业园区,,38,38,17,3,6,20,,70,50,34,13,6,6,0.5,0.4
2024-09-21T2200,2208A,121.6697,42.0279,阜新市,长青街,,20,20,10,3,2,19,,65,50,28,9,5,5,0.9,0.4
2024-09-21T2200,2209A,121.6673,42.0705,阜新市,农业园区,,13,,9,3,4,39,,63,54,14,8,5,4,0.7,0.3
2024-09-21T2200,2210A,121.6717,42.0224,阜新市,东苑,,24,24,14,10,4,17,,68,53,34,8,8,8,1.2,0.5
2024-09-21T2200,2211A,121.6506,42.0498,阜新市,玉龙新城,,32,32,19,3,4,16,,70,42,36,14,7,7,0.8,0.6
2024-09-21T2200,2301A,115.8277,32.8929,阜阳市,市监测站,,31,28,33,9,16,97,,106,106,15,9,8,7,0.3,0.4
2024-09-21T2200,2303A,115.8554,32.8605,阜阳市,开发区,,40,40,45,13,13,98,,109,109,16,12,7,6,0.5,0.5
2024-09-21T2200,2875A,115.784,32.8892,阜阳市,阜阳职业技术学院,,31,17,33,12,13,97,,110,110,14,9,9,6,0.3,0.3
2024-09-21T2200,3468A,115.7901,32.8613,阜阳市,市规划展馆,,32,20,33,6,16,101,,111,111,18,12,8,7,0.3,0.4
2024-09-21T2200,3469A,115.836,32.9183,阜阳市,枣园社区,,30,26,29,7,14,93,,107,107,18,10,8,8,0.4,0.5
2024-09-21T2200,2669A,102.9099,34.9841,甘南藏族自治州,州政府,,35,35,15,19,14,62,,89,80,10,5,9,9,0.3,0.3
2024-09-21T2200,3380A,102.8914,34.9617,甘南藏族自治州,甘肃民族师范学院,,23,20,11,16,8,66,,87,80,6,8,4,4,0.5,0.5
2024-09-21T2200,2570A,101.9603,30.0475,甘孜藏族自治州,水桥子,,20,9,11,8,6,63,,81,75,11,11,5,5,0.3,0.3
2024-09-21T2200,3065A,101.9533,29.9972,甘孜藏族自治州,州环保局,,,22,16,3,5,,,83,78,13,16,2,2,0.3,0.2
2024-09-21T2200,3414A,115.8347,28.932,赣江新区,桑海产业园,,46,46,45,8,12,46,,73,62,10,11,11,13,0.6,0.3
2024-09-21T2200,2363A,114.9367,25.8664,赣州市,地委,,29,29,28,16,16,61,,56,50,7,6,11,10,0.9,0.9
2024-09-21T2200,2364A,114.9461,25.8481,赣州市,气象台,,31,31,23,14,16,59,,58,50,2,7,3,5,1.0,0.9
2024-09-21T2200,2365A,114.9322,25.8333,赣州市,市图书馆,,46,46,22,27,14,70,,63,55,6,5,4,4,0.7,0.7
2024-09-21T2200,2366A,114.8905,25.8471,赣州市,华坚鞋城,,29,29,21,11,13,63,,54,50,6,6,2,2,0.5,0.5
2024-09-21T2200,3109A,115.0093,25.8613,赣州市,赣县区卫计委,,,32,22,10,13,56,,65,50,,8,,7,0.5,0.7
2024-09-21T2200,2683A,106.2319,36.1417,固原市,马园,颗粒物(PM10),70,89,41,23,13,16,,97,71,47,20,6,6,0.9,0.8
2024-09-21T2200,2684A,106.2792,36.0022,固原市,监测站,颗粒物(PM10),54,58,27,24,18,24,,84,71,41,14,3,4,0.6,0.5
2024-09-21T2200,2685A,106.2375,36.0211,固原市,新区,,48,48,28,21,13,29,,99,84,46,14,6,6,0.5,0.4
2024-09-21T2200,3522A,106.2177,35.9959,固原市,原州区十五小,颗粒物(PM10),53,55,32,24,18,43,,104,90,34,14,4,4,0.6,0.5
2024-09-21T2200,2544A,106.6303,30.4576,广安市,市委,,26,22,14,18,11,75,,105,94,9,9,2,2,0.4,0.3
2024-09-21T2200,2545A,106.6271,30.4663,广安市,友谊中学,,30,30,18,19,12,73,,102,92,12,11,3,3,0.4,0.4
2024-09-21T2200,2547A,106.6388,30.4551,广安市,广电花园,,25,22,18,17,11,76,,105,94,10,9,3,2,0.3,0.3
2024-09-21T2200,2902A,106.6351,30.4865,广安市,北辰小学,,28,28,22,17,12,69,,102,91,12,8,5,4,0.4,0.3
2024-09-21T2200,2523A,105.8945,32.4535,广元市,黑石坡,,29,26,13,8,7,92,,84,84,5,3,8,7,0.3,0.2
2024-09-21T2200,2524A,105.821,32.4444,广元市,老城,,31,18,13,9,7,9,,87,67,62,9,2,2,0.6,0.4
2024-09-21T2200,2526A,105.8628,32.4287,广元市,监测站,,26,26,17,7,7,57,,94,87,21,4,2,2,0.6,0.5
2024-09-21T2200,3617A,105.8047,32.4166,广元市,经开区,,28,21,11,19,6,33,,90,75,42,8,6,4,0.5,0.4
2024-09-21T2200,1345A,113.2347,23.1423,广州市,广雅中学,,14,14,17,7,9,40,,52,40,19,26,5,5,0.7,0.8
2024-09-21T2200,1346A,113.2612,23.105,广州市,市五中,,17,17,16,11,13,28,,55,36,25,20,4,4,0.8,0.7
2024-09-21T2200,1348A,113.3478,23.0916,广州市,广东商学院,,18,18,15,10,11,22,,45,30,32,26,5,4,0.6,0.6
2024-09-21T2200,1349A,113.4332,23.1047,广州市,市八十六中,,16,16,16,8,9,32,,46,34,22,29,4,4,0.6,0.6
2024-09-21T2200,1350A,113.3505,22.9483,广州市,番禺中学,,21,21,14,10,9,23,,52,31,30,23,5,5,0.6,0.6
2024-09-21T2200,1351A,113.2146,23.3916,广州市,花都师范,,,25,18,11,11,,,59,42,32,15,4,4,0.9,0.8
2024-09-21T2200,1352A,113.2597,23.1331,广州市,市监测站,,15,15,15,7,10,32,,47,36,22,23,5,5,0.7,0.7
2024-09-21T2200,1353A,113.5618,23.312,广州市,九龙镇镇龙,,19,19,17,8,10,29,,46,40,19,16,6,6,0.5,0.5
2024-09-21T2200,1354A,113.2765,23.1544,广州市,麓湖,,13,13,17,7,10,35,,47,35,22,27,5,5,0.5,0.6
2024-09-21T2200,1355A,113.443,23.3035,广州市,帽峰山森林公园,,13,7,8,3,7,40,,57,51,13,10,7,7,0.5,0.6
2024-09-21T2200,2846A,113.3221,23.1322,广州市,体育西,,18,18,17,9,11,28,,46,34,23,22,5,5,0.6,0.6
2024-09-21T2200,3298A,113.5717,23.5491,广州市,从化街口,,17,17,15,9,7,24,,48,42,14,11,8,8,0.7,0.6
2024-09-21T2200,3299A,113.3472,23.3692,广州市,白云竹料,,18,18,14,9,10,25,,55,40,25,17,5,4,0.6,0.6
2024-09-21T2200,3300A,113.2981,23.237,广州市,白云嘉禾,,18,18,18,10,13,32,,50,41,28,29,5,6,0.9,0.9
2024-09-21T2200,3301A,113.4256,23.1716,广州市,黄埔科学城,,12,11,15,3,10,38,,53,45,12,14,9,7,0.6,0.6
2024-09-21T2200,3302A,113.3942,23.0483,广州市,番禺大学城,颗粒物(PM10),60,69,29,12,9,21,,43,30,26,22,9,9,0.5,0.5
2024-09-21T2200,3303A,113.4922,22.8168,广州市,南沙黄阁,,20,20,13,11,10,26,,56,38,28,27,5,5,0.6,0.5
2024-09-21T2200,3304A,113.5342,22.7896,广州市,南沙街,,19,19,12,8,8,30,,55,38,19,21,6,7,0.6,0.6
2024-09-21T2200,3443A,113.2902,23.5544,广州市,花都梯面,,18,18,19,9,10,11,,52,29,12,10,6,6,0.6,0.6
2024-09-21T2200,3445A,113.7858,23.7478,广州市,从化良口,,10,10,11,6,7,30,,40,35,8,6,6,6,0.7,0.7
2024-09-21T2200,3446A,113.8051,23.2614,广州市,增城荔城,,17,17,13,8,7,14,,45,35,17,10,5,4,0.6,0.5
2024-09-21T2200,2506A,109.6047,23.0666,贵港市,江南子站,,19,,44,13,23,44,,78,49,8,21,7,9,0.6,0.7
2024-09-21T2200,2507A,109.6014,23.0948,贵港市,贵城子站,,22,18,37,15,24,39,,72,49,10,18,6,7,0.6,0.7
2024-09-21T2200,2508A,109.5669,23.1065,贵港市,荷城子站,,14,14,31,3,13,44,,69,53,6,16,9,10,0.5,0.6
2024-09-21T2200,3405A,109.5886,23.1172,贵港市,新世纪学校,,14,9,28,9,16,42,,70,50,5,12,6,6,0.8,0.8
2024-09-21T2200,1439A,106.6899,26.5998,贵阳市,马鞍山,,19,14,13,7,3,60,,86,69,12,9,3,3,0.2,0.2
2024-09-21T2200,1440A,106.6971,26.5694,贵阳市,市环保站,,22,22,22,15,18,64,,86,76,5,6,3,4,0.4,0.4
2024-09-21T2200,1441A,106.6243,26.6266,贵阳市,鉴湖路,,19,19,24,9,13,56,,76,65,5,5,5,5,0.3,0.4
2024-09-21T2200,1442A,106.7487,26.6343,贵阳市,燕子冲,,20,14,15,9,16,63,,80,69,5,5,5,5,0.4,0.4
2024-09-21T2200,1443A,106.6555,26.4365,贵阳市,碧云窝,,31,31,37,9,12,57,,80,70,8,10,5,5,0.3,0.3
2024-09-21T2200,1444A,106.694,26.5161,贵阳市,中院村,,,24,23,14,13,,,80,72,6,6,5,5,0.4,0.7
2024-09-21T2200,1445A,106.7109,26.6027,贵阳市,红边门,,22,22,24,9,24,59,,79,69,8,9,2,4,0.6,0.6
2024-09-21T2200,1446A,106.7164,26.5699,贵阳市,新华路,,25,,13,17,15,63,,86,76,6,6,4,4,0.3,0.4
2024-09-21T2200,1447A,106.674,26.5424,贵阳市,太慈桥,,19,14,16,12,10,60,,84,70,6,6,5,5,0.4,0.4
2024-09-21T2200,1862A,110.4144,25.3167,桂林市,电子科大尧山校区,,25,,27,10,16,77,,65,65,4,6,3,5,0.7,0.8
2024-09-21T2200,1863A,110.2819,25.2697,桂林市,监测站,,19,15,24,12,21,59,,54,52,9,10,7,8,0.6,0.6
2024-09-21T2200,1864A,110.3089,25.2708,桂林市,龙隐路小学,,20,16,23,13,20,63,,58,57,5,6,6,9,0.6,0.6
2024-09-21T2200,1865A,110.2869,25.2178,桂林市,八中,,,8,23,6,16,62,,57,56,,8,6,7,0.6,0.6
2024-09-21T2200,3403A,110.1764,25.2381,桂林市,创业大厦,,18,14,26,9,23,57,,53,51,5,10,6,18,0.5,0.5
2024-09-21T2200,3531A,110.296,25.1253,桂林市,旅游学院,,20,,19,14,16,62,,63,62,5,7,6,9,0.4,0.4
2024-09-21T2200,2674A,100.2561,34.4714,果洛藏族自治州,玛沁县大武镇,,,,9,20,10,,,94,86,8,3,7,7,0.4,0.5
2024-09-21T2200,1129A,126.5422,45.755,哈尔滨市,岭北,,42,42,23,13,13,16,,79,58,55,26,5,7,1.0,0.6
2024-09-21T2200,1130A,126.561,45.8167,哈尔滨市,松北商大,颗粒物(PM10),58,65,45,21,13,6,,57,31,55,28,9,8,0.8,0.5
2024-09-21T2200,1131A,126.979,45.5419,哈尔滨市,阿城会宁,颗粒物(PM10),88,125,46,22,14,1,,55,29,34,20,12,11,0.5,0.5
2024-09-21T2200,1132A,126.599,45.7222,哈尔滨市,南岗学府路,颗粒物(PM10),58,65,42,26,17,3,,63,43,52,26,6,7,1.0,0.5
2024-09-21T2200,1133A,126.689,45.7733,哈尔滨市,太平宏伟公园,颗粒物(PM10),79,107,51,48,22,3,,52,32,52,31,7,8,0.9,0.7
2024-09-21T2200,1134A,126.635,45.7667,哈尔滨市,道外承德广场,颗粒物(PM10),58,65,49,24,19,6,,52,37,63,40,4,5,0.4,0.6
2024-09-21T2200,1135A,126.685,45.7319,哈尔滨市,香坊红旗大街,颗粒物(PM10),59,68,46,28,17,9,,59,40,58,30,5,8,1.0,0.7
2024-09-21T2200,1136A,126.6411,45.7258,哈尔滨市,动力和平路,颗粒物(PM10),75,99,31,49,14,6,,61,45,61,28,8,8,1.1,0.6
2024-09-21T2200,1137A,126.593,45.7478,哈尔滨市,道里建国路,颗粒物(PM10),52,53,34,26,15,5,,62,41,63,27,7,6,1.0,0.5
2024-09-21T2200,1138A,126.615,45.61,哈尔滨市,平房东轻厂,颗粒物(PM10),82,113,65,27,19,5,,56,30,68,41,10,8,0.8,0.5
2024-09-21T2200,1139A,126.595,45.9855,哈尔滨市,呼兰师专,颗粒物(PM10),52,54,37,26,14,4,,54,38,41,27,8,8,0.8,0.6
2024-09-21T2200,1140A,126.6206,45.6842,哈尔滨市,省农科院,,,221,56,,15,8,,59,36,78,33,8,7,1.4,0.8
2024-09-21T2200,2688A,93.5128,42.8172,哈密市,地区监测站,颗粒物(PM10),55,59,75,24,23,79,,125,106,50,45,8,6,0.5,0.3
2024-09-21T2200,2689A,93.4961,42.8328,哈密市,哈密师范学校,颗粒物(PM10),64,77,64,27,23,72,,123,107,43,38,6,5,0.7,0.6
2024-09-21T2200,2671A,100.9048,36.9639,海北藏族自治州,海晏县西海镇,,40,40,25,22,18,80,,97,94,16,11,14,13,0.7,0.7
2024-09-21T2200,3867A,102.0738,36.5056,海东市,平安区公安北苑,颗粒物(PM10),51,51,31,25,18,75,,97,96,22,19,12,13,0.5,0.4
2024-09-21T2200,1410A,110.3232,20.0574,海口市,海南大学,,36,36,17,24,10,107,,98,98,7,6,6,6,0.5,0.4
2024-09-21T2200,1411A,110.283,20.0053,海口市,秀英海南医院,,28,28,16,14,9,56,,84,81,17,13,5,4,0.2,0.3
2024-09-21T2200,1412A,110.338,19.9969,海口市,海南师范大学,,27,27,15,10,6,49,,85,80,10,6,5,5,0.6,0.5
2024-09-21T2200,1413A,110.33,20.0356,海口市,龙华路环保局宿舍,,,43,15,20,9,96,,91,91,,6,5,4,0.4,0.3
2024-09-21T2200,3539A,110.5111,19.9736,海口市,桂林洋子站,,25,24,15,15,8,78,,90,90,8,6,6,6,0.3,0.3
2024-09-21T2200,2673A,100.6188,36.2866,海南藏族自治州,共和县恰卜恰镇,,34,34,15,8,5,59,,91,81,24,9,15,14,0.6,0.5
2024-09-21T2200,2676A,97.3731,37.3753,海西蒙古族藏族自治州,德令哈市,,,51,41,19,11,,,108,107,12,11,8,9,0.5,0.5
2024-09-21T2200,1048A,114.5302,36.6116,邯郸市,东污水处理厂,,28,28,11,7,2,54,,86,78,30,12,1,1,0.4,0.3
2024-09-21T2200,1049A,114.4918,36.5713,邯郸市,矿院,,27,27,12,7,2,71,,92,88,18,12,2,2,0.1,0
2024-09-21T2200,1050A,114.484,36.6133,邯郸市,丛台公园,,26,26,9,9,2,61,,90,86,23,9,1,2,0.3,0.3
2024-09-21T2200,3458A,114.7895,36.5593,邯郸市,香泉濮院小区,,36,36,23,6,2,56,,91,83,29,8,2,2,0.2,0.2
2024-09-21T2200,3579A,114.50634,36.77178,邯郸市,永年区实验高中,,,,15,,7,,,95,91,,14,,2,,0.3
2024-09-21T2200,3580A,114.20016,36.44293,邯郸市,峰峰矿区临水派出所,,25,14,7,3,1,77,,94,92,14,7,2,2,0.5,0.5
2024-09-21T2200,2634A,106.9893,33.1842,汉中市,汉川机床厂子校,,24,14,24,9,11,74,,92,89,4,7,4,5,0.5,0.6
2024-09-21T2200,2635A,107.0154,33.0706,汉中市,市监测站,,22,19,17,9,10,69,,98,92,8,8,8,8,0.4,0.4
2024-09-21T2200,2636A,107.0089,33.1138,汉中市,鑫源开发区,,28,28,19,13,8,66,,97,90,12,11,10,11,0.4,0.5
2024-09-21T2200,2637A,107.007,33.0323,汉中市,南郑大河坎水厂,,43,43,15,20,8,43,,97,84,32,10,9,8,0.5,0.4
2024-09-21T2200,1223A,120.2072,30.2111,杭州市,滨江,,28,28,20,12,10,51,,51,51,14,13,5,4,0.5,0.6
2024-09-21T2200,1224A,120.0633,30.2747,杭州市,西溪,,20,,12,10,9,63,,56,56,14,16,5,5,0.7,0.7
2024-09-21T2200,1226A,120.3461,30.3153,杭州市,下沙,,29,29,22,10,8,57,,54,54,27,26,6,6,0.6,0.6
2024-09-21T2200,1227A,120.1269,30.2456,杭州市,卧龙桥,,20,20,16,14,11,63,,60,60,14,13,5,5,0.4,0.5
2024-09-21T2200,1228A,120.1903,30.2692,杭州市,浙江农大,,24,24,16,13,12,47,,49,49,23,20,8,7,0.6,0.6
2024-09-21T2200,1230A,120.1197,30.3119,杭州市,和睦小学,,25,25,16,12,8,63,,61,61,13,15,6,6,0.6,0.6
2024-09-21T2200,1231A,120.3019,30.4183,杭州市,临平镇,,26,26,23,3,7,72,,61,61,7,11,4,4,0.6,0.7
2024-09-21T2200,1232A,120.2697,30.1819,杭州市,城厢镇,,24,24,19,14,13,60,,57,57,18,15,5,5,0.5,0.6
2024-09-21T2200,1233A,120.0883,30.1808,杭州市,云栖,,20,18,14,3,4,63,,55,55,10,12,7,7,0.6,0.6
2024-09-21T2200,3557A,119.9464,30.0494,杭州市,镇二中,,20,,8,10,12,64,,53,53,10,15,8,8,0.6,0.7
2024-09-21T2200,3558A,119.7183,30.2367,杭州市,市府大楼,,22,,16,8,10,68,,62,62,9,14,5,6,0.4,0.5
2024-09-21T2200,3656A,120.1556,30.2864,杭州市,消防大队,,28,28,18,13,9,59,,55,55,10,13,8,8,0.7,0.8
2024-09-21T2200,1270A,117.1959,31.7848,合肥市,明珠广场,,31,31,26,19,11,62,,54,54,21,13,5,6,0.7,0.7
2024-09-21T2200,1271A,117.3072,31.8764,合肥市,三里街,,36,36,26,9,8,77,,62,62,14,10,7,7,0.4,0.3
2024-09-21T2200,1272A,117.2588,31.8707,合肥市,琥珀山庄,,36,36,26,19,19,69,,64,64,19,10,8,7,0.4,0.4
2024-09-21T2200,1273A,117.1604,31.9052,合肥市,董铺水库,,34,34,27,17,12,52,,53,53,10,8,3,3,0.5,0.4
2024-09-21T2200,1274A,117.25,31.8571,合肥市,长江中路,,46,46,33,24,15,59,,56,56,27,13,8,8,0.4,0.4
2024-09-21T2200,1275A,117.266,31.9436,合肥市,庐阳区,,31,31,26,14,10,65,,67,67,18,10,4,4,0.5,0.5
2024-09-21T2200,1276A,117.336,31.8586,合肥市,瑶海区,,39,39,26,17,11,72,,62,62,29,16,8,7,0.4,0.4
2024-09-21T2200,1277A,117.3027,31.7964,合肥市,包河区,,34,34,25,7,11,63,,53,53,30,17,3,4,0.4,0.4
2024-09-21T2200,1278A,117.2776,31.7385,合肥市,滨湖新区,,34,34,24,17,12,52,,50,50,33,14,5,6,0.5,0.5
2024-09-21T2200,1279A,117.1318,31.8403,合肥市,高新区,,36,36,30,20,16,50,,51,51,25,13,8,8,0.7,0.7
2024-09-21T2200,3464A,117.3803,31.9147,合肥市,高教基地,,29,29,24,13,10,74,,66,66,10,8,4,4,0.4,0.3
2024-09-21T2200,3614A,79.924,37.0877,和田地区,地区环保局,颗粒物(PM10),246,382,279,111,78,80,,101,97,19,15,9,7,0.7,0.7
2024-09-21T2200,3615A,79.9131,37.113,和田地区,市环保局,颗粒物(PM10),220,364,277,107,81,30,,98,86,68,28,8,7,1.0,0.5
2024-09-21T2200,2516A,108.2011,24.715,河池市,东仁乐园,,16,16,29,10,16,36,,55,49,6,8,5,5,0.6,0.6
2024-09-21T2200,2517A,108.0497,24.6947,河池市,市环保站,,14,,24,6,15,44,,55,53,7,13,8,8,0.6,0.6
2024-09-21T2200,2518A,108.0983,24.6989,河池市,市疾控中心,,17,,26,7,16,54,,57,57,6,15,9,9,0.5,0.6
2024-09-21T2200,1696A,114.6778,23.7569,河源市,源西,,14,7,11,7,8,42,,51,43,10,9,4,4,0.6,0.5
2024-09-21T2200,1697A,114.6944,23.7586,河源市,东埔,,13,,9,9,8,41,,48,40,15,11,2,2,0.7,0.6
2024-09-21T2200,1698A,114.6892,23.7233,河源市,老城,,15,15,16,7,7,38,,47,40,14,10,2,2,0.7,0.6
2024-09-21T2200,1718A,115.4208,35.2464,菏泽市,气象局,,31,27,18,13,8,97,,106,105,24,13,2,2,0.2,0.2
2024-09-21T2200,1719A,115.4747,35.2375,菏泽市,市政协,,30,30,20,13,8,91,,103,102,12,10,3,4,0.1,0.2
2024-09-21T2200,3374A,115.5564,35.0891,菏泽市,定陶老年大学,,29,29,21,9,4,86,,104,103,18,11,6,6,0.1,0.2
2024-09-21T2200,3647A,115.4702,35.2706,菏泽市,菏泽医专,,30,30,18,7,5,83,,101,100,21,12,5,3,0.3,0.3
2024-09-21T2200,2514A,111.5264,24.4172,贺州市,环保小区,,16,16,30,10,16,42,,64,54,10,10,4,5,0.6,0.7
2024-09-21T2200,2515A,111.5608,24.4078,贺州市,政协大楼,,21,21,31,10,18,42,,68,56,11,12,5,5,0.6,0.6
2024-09-21T2200,3534A,111.4744,24.4553,贺州市,西湾,,14,13,25,3,19,43,,56,49,8,10,7,7,0.6,0.6
2024-09-21T2200,2385A,114.17,35.9019,鹤壁市,市监测站,,32,32,18,3,8,68,,100,92,26,12,2,3,0.6,0.6
2024-09-21T2200,2386A,114.2956,35.7511,鹤壁市,市交警支队,,37,37,19,15,4,39,,100,85,50,18,3,3,0.4,0.4
2024-09-21T2200,2387A,114.2878,35.7306,鹤壁市,迎宾馆,,25,25,11,16,8,59,,103,94,44,19,4,3,0.4,0.5
2024-09-21T2200,3474A,114.2617,35.6822,鹤壁市,大新区,,25,15,13,11,9,78,,103,98,21,17,6,6,0.4,0.5
2024-09-21T2200,3596A,114.1572,35.9603,鹤壁市,南山宾馆,,24,22,8,15,11,75,,101,96,16,10,3,2,0.1,0.1
2024-09-21T2200,2244A,130.2537,47.3416,鹤岗市,哈啤分公司,,35,34,20,24,17,32,,58,38,5,4,13,13,0.6,0.6
2024-09-21T2200,2245A,130.2684,47.3086,鹤岗市,斯达机电,,45,39,21,31,16,11,,58,38,25,9,11,11,0.6,0.3
2024-09-21T2200,2246A,130.3114,47.3388,鹤岗市,东山纸板厂,颗粒物(PM10),65,79,41,26,19,7,,57,29,21,13,17,16,1.2,0.6
2024-09-21T2200,2247A,130.1097,47.3382,鹤岗市,五号水库,,15,15,22,9,7,29,,62,44,5,4,16,16,0.4,0.4
2024-09-21T2200,2263A,127.4833,50.2524,黑河市,交通局,,32,32,19,20,13,31,,61,46,14,11,7,6,0.4,0.3
2024-09-21T2200,2264A,127.5144,50.2341,黑河市,环保局,,21,21,15,14,10,24,,68,54,24,8,7,4,0.6,0.4
2024-09-21T2200,2265A,127.5291,50.2472,黑河市,大黑河岛,,33,33,12,10,7,36,,52,49,18,9,2,2,0.1,0.1
2024-09-21T2200,1074A,115.6838,37.7541,衡水市,电机北厂,,42,42,19,24,8,22,,93,80,68,14,5,4,0.3,0.2
2024-09-21T2200,1075A,115.6303,37.7316,衡水市,市监测站,,27,27,19,6,5,67,,97,94,27,14,4,4,0.2,0.2
2024-09-21T2200,3188A,115.6683,37.7217,衡水市,市城管局,,23,23,14,14,8,71,,98,94,28,12,2,2,0.4,0.3
2024-09-21T2200,3459A,115.5989,37.5491,衡水市,地表水厂,,26,26,12,3,3,77,,97,95,11,7,3,3,0.4,0.3
2024-09-21T2200,2456A,112.5003,26.9167,衡阳市,原169医院,,29,21,28,12,20,90,,77,77,7,8,9,11,0.5,0.5
2024-09-21T2200,2457A,112.6194,26.9258,衡阳市,衡阳化工总厂,,,32,37,,,78,,68,68,7,9,7,13,0.5,0.7
2024-09-21T2200,2458A,112.6211,26.8956,衡阳市,珠晖区环保局,,,32,33,,,66,,67,67,19,10,6,7,0.7,0.8
2024-09-21T2200,2459A,112.6197,26.8733,衡阳市,市委党校,,31,31,34,10,18,84,,73,73,8,8,8,8,0.6,0.7
2024-09-21T2200,2460A,112.6006,26.8919,衡阳市,市监测站,,33,33,30,6,18,89,,76,76,6,7,6,10,0.6,0.7
2024-09-21T2200,2461A,112.5664,26.9056,衡阳市,真空机电公司,,35,35,32,12,20,91,,77,77,4,6,7,7,0.6,0.8
2024-09-21T2200,3399A,112.6703,26.882,衡阳市,师范学院,,33,33,36,13,22,72,,63,63,12,10,7,8,0.7,0.7
2024-09-21T2200,2608A,103.3772,23.3993,红河哈尼族彝族自治州,污水处理厂,,43,43,30,30,24,6,,66,43,23,17,6,17,0.6,0.5
2024-09-21T2200,2609A,103.3861,23.35,红河哈尼族彝族自治州,监测站,,49,49,29,32,18,15,,74,49,24,16,12,16,0.5,0.5
2024-09-21T2200,3038A,103.3758,23.368,红河哈尼族彝族自治州,州图书馆,,34,34,31,16,14,11,,70,46,26,16,7,16,0.4,0.4
2024-09-21T2200,1090A,111.6507,40.7517,呼和浩特市,呼市一监,,19,14,7,6,3,60,,79,69,11,4,5,6,0.4,0.3
2024-09-21T2200,1091A,111.6572,40.8033,呼和浩特市,小召,,21,9,5,3,4,65,,80,70,10,8,6,6,0.3,0.3
2024-09-21T2200,1094A,111.7516,40.8369,呼和浩特市,如意水处理厂,,15,8,4,3,2,46,,73,62,21,7,6,6,0.3,0.2
2024-09-21T2200,1095A,111.7276,40.8062,呼和浩特市,二十九中,,19,11,8,3,2,60,,79,70,16,9,4,4,0.4,0.3
2024-09-21T2200,1096A,111.5512,40.7866,呼和浩特市,工大金川校区,,16,16,11,3,2,51,,70,57,18,13,2,2,0.3,0.3
2024-09-21T2200,1097A,111.717,40.7612,呼和浩特市,化肥厂生活区,,18,9,7,3,3,57,,78,67,14,7,7,8,0.4,0.4
2024-09-21T2200,3698A,111.5968,40.8178,呼和浩特市,红旗小学,,17,7,6,3,2,52,,74,60,16,11,2,2,0.3,0.2
2024-09-21T2200,3699A,111.6518,40.8389,呼和浩特市,海东办,,29,19,5,7,2,7,,75,55,58,13,4,4,0.4,0.3
2024-09-21T2200,2192A,119.7594,49.2261,呼伦贝尔市,区环保局,,32,29,24,22,17,32,,61,53,26,17,7,6,0.4,0.4
2024-09-21T2200,3061A,119.7512,49.1577,呼伦贝尔市,国华电力东,,29,29,23,20,13,20,,64,50,20,12,3,4,0.4,0.3
2024-09-21T2200,1250A,120.0751,30.8669,湖州市,城西水厂,,26,24,20,11,11,82,,68,68,10,12,4,4,0.3,0.3
2024-09-21T2200,2873A,120.0875,30.8955,湖州市,仁皇山新区,,25,24,20,12,11,78,,69,69,10,10,6,6,0.4,0.5
2024-09-21T2200,2907A,120.1844,30.8596,湖州市,吴兴区站,,30,30,20,10,10,71,,59,59,7,10,5,5,0.4,0.4
2024-09-21T2200,3562A,120.4148,30.8538,湖州市,南浔区站,,29,29,19,11,10,78,,61,61,9,11,6,5,0.4,0.5
2024-09-21T2200,1607A,120.9092,40.7136,葫芦岛市,龙港区,,49,49,22,19,8,16,,68,46,59,23,29,15,0.9,0.4
2024-09-21T2200,1608A,120.8392,40.7514,葫芦岛市,化工街,颗粒物(PM10),53,56,14,29,5,22,,67,58,46,11,18,15,0.3,0.1
2024-09-21T2200,1609A,120.8341,40.7073,葫芦岛市,新区,,20,17,15,14,5,45,,69,61,32,16,18,14,0.5,0.3
2024-09-21T2200,1610A,120.8695,40.7677,葫芦岛市,东城区,,16,12,18,8,6,51,,65,57,16,8,22,11,0.6,0.3
2024-09-21T2200,2482A,109.5981,27.5721,怀化市,林科所,,26,24,25,8,15,83,,75,75,10,10,11,7,0.3,0.3
2024-09-21T2200,2483A,109.9453,27.5444,怀化市,河西地税局,,32,32,35,13,20,81,,76,76,9,12,8,9,0.6,0.6
2024-09-21T2200,2484A,109.9781,27.5342,怀化市,市四医院,,29,29,36,11,22,85,,79,79,6,7,12,10,0.5,0.6
2024-09-21T2200,2485A,109.9972,27.5578,怀化市,监测楼,,31,31,41,10,20,85,,77,77,7,11,8,6,0.4,0.5
2024-09-21T2200,2486A,110.0394,27.583,怀化市,市委党校,,33,33,40,10,19,87,,78,78,6,9,19,20,0.5,0.7
2024-09-21T2200,1210A,119.036,33.5981,淮安市,钵池山,,34,34,24,12,9,60,,84,80,18,12,8,7,0.5,0.6
2024-09-21T2200,1211A,119.007,33.575,淮安市,北京南路,,36,36,29,6,7,62,,85,82,16,10,7,6,0.2,0.4
2024-09-21T2200,1212A,118.989,33.6067,淮安市,市监测站,,,29,22,,14,70,,93,90,20,19,7,6,0.3,0.2
2024-09-21T2200,1213A,119.135,33.5039,淮安市,楚州区监测站,,46,46,34,17,11,60,,86,82,18,11,7,6,0.9,0.7
2024-09-21T2200,1214A,119.0186,33.6297,淮安市,淮阴区监测站,,34,34,28,14,13,61,,87,82,19,12,4,3,0.4,0.4
2024-09-21T2200,3426A,118.8755,33.2894,淮安市,新华书店,颗粒物(PM10),51,51,32,13,12,70,,98,94,22,15,9,7,0.5,0.5
2024-09-21T2200,2282A,116.8004,33.975,淮北市,监测站,,33,33,21,9,10,83,,108,106,24,10,8,7,0.7,0.5
2024-09-21T2200,2283A,116.8091,33.9007,淮北市,烈山区政府,,38,38,30,17,13,99,,112,111,12,9,6,6,0.4,0.4
2024-09-21T2200,3330A,116.8873,33.9836,淮北市,杜集区检察院,,33,33,32,13,11,86,,114,111,12,9,8,7,0.4,0.4
2024-09-21T2200,4017A,116.7923,33.9535,淮北市,市博物馆,,32,32,29,9,11,91,,116,113,18,9,6,5,0.7,0.6
2024-09-21T2200,2277A,116.8305,32.7727,淮南市,潘集区政府,,37,37,34,17,17,76,,93,93,26,16,6,9,0.3,0.3
2024-09-21T2200,2278A,117.0067,32.6524,淮南市,师范学院,,34,34,37,20,15,87,,98,98,10,8,6,7,0.4,0.4
2024-09-21T2200,2279A,116.8569,32.5951,淮南市,谢家集区政府,,37,37,31,18,20,84,,92,92,14,14,12,10,0.4,0.4
2024-09-21T2200,2280A,116.8281,32.633,淮南市,八公山区政府,,43,43,41,15,17,86,,93,93,13,12,9,8,0.3,0.3
2024-09-21T2200,2281A,116.6325,32.6201,淮南市,焦岗湖风景区管理处,,27,27,27,13,9,86,,93,93,7,6,4,4,0.1,0
2024-09-21T2200,2894A,117.0566,32.6531,淮南市,经济技术开发区消防队,,50,50,38,3,8,87,,96,96,9,9,6,5,0.2,0.2
2024-09-21T2200,3329A,117.0108,32.5893,淮南市,山南新区,,40,40,39,13,10,94,,101,101,13,11,4,5,0.2,0.2
2024-09-21T2200,2446A,114.9028,30.4742,黄冈市,职工中心,,36,34,39,25,16,78,,75,75,8,8,7,8,0.4,0.4
2024-09-21T2200,2929A,114.8858,30.4519,黄冈市,红卫路,,28,24,31,19,14,88,,80,80,10,10,7,7,0.3,0.4
2024-09-21T2200,3398A,114.9136,30.4445,黄冈市,市林业局,,33,31,36,23,14,67,,78,76,9,7,7,8,0.5,0.5
2024-09-21T2200,2672A,102.0199,35.5102,黄南藏族自治州,同仁县隆务镇,,20,20,22,13,7,54,,87,73,9,6,5,6,0.5,0.4
2024-09-21T2200,2295A,118.2903,29.6963,黄山市,延安路89号,,14,11,18,3,5,42,,45,44,8,8,6,6,0.4,0.4
2024-09-21T2200,2296A,118.327,29.7178,黄山市,黄山东路89号,,13,11,14,7,6,39,,42,41,8,7,4,4,0.5,0.4
2024-09-21T2200,2297A,118.1371,30.2756,黄山市,黄山区政府5号楼,,22,21,12,15,7,59,,46,46,8,7,6,6,0.3,0.4
2024-09-21T2200,2423A,115.0601,30.2313,黄石市,沈家营,,28,28,38,6,6,76,,85,75,6,10,7,7,0.5,0.5
2024-09-21T2200,2424A,115.0817,30.2006,黄石市,陈家湾,,21,20,38,9,8,67,,85,74,10,8,8,16,0.5,0.4
2024-09-21T2200,2426A,114.8988,30.2019,黄石市,铁山,,26,20,36,15,13,81,,83,79,5,6,6,8,0.4,0.5
2024-09-21T2200,2427A,115.0307,30.2092,黄石市,团城山,,27,27,32,3,6,71,,78,70,7,9,6,6,0.5,0.4
2024-09-21T2200,3149A,115.0235,30.1578,黄石市,笔架山北路,,22,22,29,3,4,67,,82,73,4,5,7,8,0.5,0.5
2024-09-21T2200,1392A,114.4183,23.0528,惠州市,河南岸金山湖子站,,15,15,12,6,6,32,,50,43,10,6,5,4,0.5,0.5
2024-09-21T2200,1393A,114.4053,23.0822,惠州市,下埔横江三路子站,,15,15,12,8,8,39,,57,50,11,8,3,3,0.6,0.6
2024-09-21T2200,1394A,114.4103,23.1142,惠州市,江北云山西路子站,,17,17,13,8,4,34,,52,44,9,6,4,4,0.5,0.5
2024-09-21T2200,1395A,114.4645,22.7833,惠州市,惠阳区承修路船湖子站,,11,11,13,3,5,34,,,,14,14,4,4,0.4,0.3
2024-09-21T2200,1396A,114.5317,22.7422,惠州市,大亚湾管委会子站,,14,8,16,3,8,44,,53,50,8,16,6,7,0.4,0.4
2024-09-21T2200,3314A,114.4338,22.8134,惠州市,惠阳秋长,,14,14,12,7,9,31,,50,44,18,16,6,5,0.5,0.5
2024-09-21T2200,3452A,114.6517,22.775,惠州市,大亚湾霞涌,,13,11,14,3,7,39,,52,49,7,6,4,4,0.6,0.5
2024-09-21T2200,2240A,130.9762,45.3001,鸡西市,环保局,颗粒物(PM10),57,63,21,22,6,4,,59,39,38,9,7,6,0.7,0.2
2024-09-21T2200,2243A,130.9429,45.3039,鸡西市,第一中学,颗粒物(PM10),52,53,21,13,6,23,,60,48,23,8,5,4,0.1,0
2024-09-21T2200,3707A,131.0207,45.3073,鸡西市,欧美日汽修厂,,50,50,28,27,12,6,,63,37,36,16,6,5,0.3,0.2
2024-09-21T2200,3709A,130.9967,45.3106,鸡西市,市政设施管理处,颗粒物(PM10),63,76,34,35,11,1,,56,31,40,18,6,6,0.3,0.2
2024-09-21T2200,2367A,114.9754,27.0803,吉安市,红声器材厂,,43,43,34,20,16,65,,84,78,14,13,6,7,0.7,0.6
2024-09-21T2200,2368A,114.9658,27.0999,吉安市,市森林工业局,,39,39,31,18,19,66,,84,78,20,19,9,10,0.6,0.6
2024-09-21T2200,2369A,114.99,27.1312,吉安市,市环境监测站,,33,33,30,14,14,72,,88,83,12,12,15,16,0.6,0.7
2024-09-21T2200,2370A,115.0093,27.0968,吉安市,青原区法院,,30,30,34,14,17,68,,88,82,14,14,10,11,0.6,0.6
2024-09-21T2200,1772A,126.54,43.8622,吉林市,哈达湾,,40,40,20,15,6,25,,56,44,35,17,21,7,0.6,0.5
2024-09-21T2200,1773A,126.5844,43.8358,吉林市,东局子,颗粒物(PM10),56,61,19,15,9,6,,56,43,40,14,4,4,0.6,0.5
2024-09-21T2200,1774A,126.5052,43.8245,吉林市,电力学院,,31,31,22,13,9,34,,52,43,19,15,12,5,0.7,0.6
2024-09-21T2200,1775A,126.6133,43.8972,吉林市,江北,颗粒物(PM10),62,73,24,31,9,22,,56,42,18,9,6,6,0.7,0.6
2024-09-21T2200,1776A,126.555,43.8306,吉林市,江南公园,颗粒物(PM10),56,61,20,20,8,24,,53,42,38,18,16,6,0.7,0.5
2024-09-21T2200,2868A,126.4739,43.953,吉林市,九站,,39,39,41,16,16,8,,47,29,37,21,10,21,0.7,0.7
2024-09-21T2200,1299A,116.9862,36.6114,济南市,科干所,,28,19,18,10,5,89,,105,102,23,18,7,6,0.6,0.6
2024-09-21T2200,1300A,116.9376,36.665,济南市,农科所,,34,34,22,10,3,71,,97,92,38,24,7,5,0.6,0.5
2024-09-21T2200,1301A,117.1265,36.6734,济南市,开发区,,27,27,19,10,8,80,,97,93,23,15,6,5,0.5,0.5
2024-09-21T2200,1303A,117.0624,36.6868,济南市,省种子仓库,,31,31,22,9,5,81,,101,97,20,13,7,5,0.3,0.2
2024-09-21T2200,1304A,116.9489,36.6447,济南市,机床二厂,,27,27,19,3,3,84,,105,99,37,20,6,5,0.7,0.7
2024-09-21T2200,1305A,117.0495,36.663,济南市,市监测站,,27,27,17,10,5,79,,103,98,32,17,5,5,0.6,0.5
2024-09-21T2200,1306A,116.7675,36.5484,济南市,长清党校,,28,24,17,3,6,88,,112,107,29,20,7,6,0.8,0.7
2024-09-21T2200,1616A,117.6795,36.229,济南市,技术学院,,34,34,14,12,6,69,,99,93,18,5,7,6,0.5,0.6
2024-09-21T2200,1961A,117.532,36.6868,济南市,东山小学,,39,39,23,12,7,54,,102,94,45,16,8,4,0.5,0.4
2024-09-21T2200,3059A,117.7161,36.2049,济南市,泰兴公司,,22,22,18,9,6,68,,98,92,17,6,8,7,0.2,0.2
2024-09-21T2200,3064A,117.6867,36.2171,济南市,莱芜战役纪念馆,,41,41,23,3,3,68,,99,92,20,7,3,3,0.3,0.3
2024-09-21T2200,3494A,117.1673,36.9782,济南市,济阳区政府,,37,37,18,10,3,76,,101,98,19,14,7,7,0.6,0.5
2024-09-21T2200,3495A,117.1171,36.63,济南市,锦屏中学,,29,12,13,3,4,91,,103,101,22,19,6,5,0.4,0.4
2024-09-21T2200,3682A,116.9814,36.6819,济南市,济南四建,,27,27,13,10,5,73,,95,90,29,15,5,3,0.6,0.6
2024-09-21T2200,1653A,116.6251,35.4302,济宁市,火炬城,,35,35,20,17,6,74,,102,99,20,11,9,8,0.5,0.5
2024-09-21T2200,3500A,116.5814,35.3707,济宁市,北湖一中,,36,36,23,3,7,83,,105,104,20,13,1,1,0.4,0.4
2024-09-21T2200,3501A,116.8249,35.5593,济宁市,服务中心,,31,31,18,6,4,67,,100,96,25,11,6,5,0.2,0.3
2024-09-21T2200,3678A,116.5907,35.4054,济宁市,市第七中学,,30,30,21,7,5,79,,102,100,17,11,8,7,0.5,0.5
2024-09-21T2200,2255A,130.2751,46.8028,佳木斯市,佳纺,颗粒物(PM10),60,70,26,27,10,25,,61,35,21,16,2,3,0.4,0.4
2024-09-21T2200,2256A,130.3995,46.8307,佳木斯市,发电厂,颗粒物(PM10),71,91,20,29,9,3,,61,29,40,18,7,7,0.8,0.5
2024-09-21T2200,2257A,130.3258,46.7975,佳木斯市,环保局,,45,45,22,19,9,15,,57,34,30,21,8,8,0.4,0.4
2024-09-21T2200,2258A,130.3648,46.8032,佳木斯市,十一中,颗粒物(PM10),51,52,23,28,12,11,,63,35,49,25,7,7,0.8,0.5
2024-09-21T2200,2259A,130.3794,46.7588,佳木斯市,四丰,,17,17,10,6,5,46,,60,52,10,13,1,1,0.2,0.2
2024-09-21T2200,1252A,120.7436,30.778,嘉兴市,清河小学,,33,33,20,11,7,68,,56,56,16,16,4,4,0.7,0.5
2024-09-21T2200,1253A,120.726,30.7478,嘉兴市,嘉兴学院,,24,24,16,13,11,69,,56,56,15,18,3,2,0.5,0.5
2024-09-21T2200,2872A,120.7846,30.7525,嘉兴市,南湖区残联,,32,32,18,12,10,81,,67,67,15,15,4,4,0.4,0.5
2024-09-21T2200,3407A,120.6916,30.7739,嘉兴市,秀洲住建,,,35,17,13,9,,,51,51,13,15,4,4,0.6,0.7
2024-09-21T2200,1945A,98.2908,39.7711,嘉峪关市,气象局,,46,46,32,9,10,78,,98,92,17,9,3,3,0.4,0.2
2024-09-21T2200,2884A,98.2672,39.7978,嘉峪关市,酒钢宾馆,颗粒物(PM10),52,53,35,22,13,88,,101,98,16,12,17,9,1.2,0.5
2024-09-21T2200,3248A,98.2643,39.7724,嘉峪关市,雄关区,,48,48,34,20,12,69,,94,89,22,12,8,8,0.6,0.4
2024-09-21T2200,1383A,113.1064,22.6058,江门市,北街,,24,24,15,12,11,19,,51,37,33,22,4,4,0.7,0.7
2024-09-21T2200,1384A,113.0731,22.5835,江门市,西区,,18,18,17,11,10,18,,50,37,33,25,5,5,0.5,0.5
2024-09-21T2200,1385A,113.0219,22.5311,江门市,圭峰西,,14,12,14,9,10,20,,56,40,27,15,3,2,0.6,0.6
2024-09-21T2200,1386A,113.0828,22.5947,江门市,东湖,,32,,16,22,15,17,,46,34,30,21,3,3,0.5,0.6
2024-09-21T2200,3311A,113.1075,22.5647,江门市,江海富民,,26,26,28,16,16,21,,57,40,31,23,6,6,0.6,0.6
2024-09-21T2200,3449A,113.05,22.4667,江门市,新会银湖,,15,,12,7,13,17,,52,31,29,22,4,5,0.6,0.7
2024-09-21T2200,1828A,113.227,35.2125,焦作市,市环保局,,25,25,21,14,9,43,,73,67,19,12,3,3,0.4,0.3
2024-09-21T2200,3169A,113.2725,35.2067,焦作市,太极体育中心,,36,36,27,21,8,46,,76,69,23,11,3,4,0.6,0.6
2024-09-21T2200,3335A,113.3137,35.2641,焦作市,马村街道办,,36,36,22,15,9,44,,76,65,16,12,3,3,0.4,0.4
2024-09-21T2200,3336A,113.2465,35.2373,焦作市,焦作技师学院,,25,24,18,17,13,39,,75,65,17,12,3,5,0.4,0.3
2024-09-21T2200,3477A,113.1656,35.2539,焦作市,中站许衡医院,,37,37,18,18,18,25,,74,62,53,16,3,3,0.5,0.4
2024-09-21T2200,3981A,113.2449,35.1803,焦作市,原李万街道办,,40,40,25,12,8,21,,73,63,39,11,3,3,0.5,0.5
2024-09-21T2200,1708A,116.3701,23.5345,揭阳市,新兴,,16,16,15,10,10,33,,78,57,18,13,5,8,0.6,0.6
2024-09-21T2200,1709A,116.3264,23.5443,揭阳市,西马,,26,26,17,8,8,40,,83,64,12,6,6,7,0.5,0.5
2024-09-21T2200,1710A,116.3611,23.5626,揭阳市,东兴,,21,21,18,8,8,42,,83,63,11,9,7,7,0.7,0.6
2024-09-21T2200,1711A,116.4151,23.5294,揭阳市,渔湖,,19,19,14,12,7,33,,80,58,19,10,6,5,0.6,0.6
2024-09-21T2200,3320A,116.403,23.5699,揭阳市,曲溪,,20,17,15,14,7,35,,79,60,20,11,2,2,0.6,0.5
2024-09-21T2200,1944A,102.1692,38.5167,金昌市,天庆家园,,42,41,18,29,12,70,,84,79,22,12,42,12,0.4,0.5
2024-09-21T2200,3170A,102.1864,38.5253,金昌市,市委党校,,48,48,23,17,10,86,,84,84,14,13,13,18,0.5,0.6
2024-09-21T2200,4022A,102.1647,38.5371,金昌市,金川区人防中心,颗粒物(PM10),55,60,29,18,13,76,,76,74,14,13,10,14,0.7,0.6
2024-09-21T2200,1262A,119.647,29.077,金华市,十五中,,16,16,21,3,7,47,,53,45,11,18,1,2,0.5,0.5
2024-09-21T2200,1263A,119.686,29.1029,金华市,监测站,,15,14,21,8,10,46,,51,45,12,18,2,2,0.5,0.6
2024-09-21T2200,3659A,119.656,29.1131,金华市,气象局,,14,14,22,6,9,40,,45,39,15,20,4,4,0.3,0.4
2024-09-21T2200,1767A,121.1115,41.0879,锦州市,南山,,24,24,13,9,6,33,,65,57,30,11,9,9,0.7,0.5
2024-09-21T2200,1768A,121.0533,40.8434,锦州市,开发区,,30,30,20,14,8,13,,60,52,55,14,8,6,0.8,0.6
2024-09-21T2200,1769A,121.1836,41.1119,锦州市,百股街道,,28,28,15,12,4,28,,63,50,35,16,14,10,0.8,0.6
2024-09-21T2200,1770A,121.1178,41.1222,锦州市,天安街道,,17,17,13,7,5,44,,63,58,22,11,7,9,0.4,0.4
2024-09-21T2200,1771A,121.1303,41.1386,锦州市,北湖公园,,20,16,12,14,6,39,,70,61,24,10,8,9,0.5,0.2
2024-09-21T2200,2160A,112.85,35.5051,晋城市,自来水公司,,29,29,26,12,12,82,,78,78,16,17,7,8,0.7,1
2024-09-21T2200,2161A,112.8318,35.4936,晋城市,白云商贸,颗粒物(PM10),51,51,35,14,13,82,,76,76,18,18,6,7,0.7,0.9
2024-09-21T2200,2162A,112.8508,35.4887,晋城市,市环保局,,25,25,26,14,16,78,,76,76,20,21,6,7,0.6,0.9
2024-09-21T2200,2163A,112.8676,35.4897,晋城市,技术学院,,,,27,,12,,,71,,,20,,9,,1.2
2024-09-21T2200,3620A,112.8271,35.4828,晋城市,泽州一中,,45,45,29,9,11,75,,73,73,22,22,7,9,0.7,0.8
2024-09-21T2200,2171A,112.7532,37.6945,晋中市,锦纶小区,,29,29,21,9,5,67,,100,90,24,20,7,8,0.3,0.3
2024-09-21T2200,2173A,112.7249,37.7067,晋中市,南都小区,,37,37,21,16,14,71,,102,92,21,15,6,6,0.5,0.5
2024-09-21T2200,2174A,112.6991,37.6982,晋中市,榆次区政府,,34,34,24,16,15,65,,98,88,24,17,8,7,0.2,0.2
2024-09-21T2200,2865A,112.7195,37.6828,晋中市,榆次三中,,24,24,19,3,3,74,,102,93,20,16,7,7,0.4,0.4
2024-09-21T2200,2439A,112.2014,31.0481,荆门市,竹园小学,,39,39,50,11,11,80,,109,102,17,11,10,10,0.5,0.5
2024-09-21T2200,2440A,112.1969,30.9891,荆门市,掇刀,,34,34,41,9,11,87,,110,105,17,13,1,4,0.4,0.4
2024-09-21T2200,2441A,112.2213,31.0386,荆门市,石化一小,,47,47,55,3,9,81,,111,103,11,9,14,12,0.4,0.4
2024-09-21T2200,3012A,112.1849,31.0362,荆门市,西山林语,,35,35,35,9,11,89,,112,107,12,10,8,8,0.7,0.5
2024-09-21T2200,3547A,112.1632,31.0138,荆门市,龙泉中学南校,,36,36,43,13,10,92,,110,106,13,12,11,9,0.5,0.5
2024-09-21T2200,1844A,112.2494,30.3197,荆州市,市图书馆,颗粒物(PM10),52,54,52,35,25,70,,109,101,28,16,11,9,0.6,0.6
2024-09-21T2200,1845A,112.2008,30.3544,荆州市,市委党校,颗粒物(PM10),54,58,50,37,30,72,,114,105,23,14,9,7,0.6,0.6
2024-09-21T2200,3194A,112.2747,30.3122,荆州市,管委会,,42,42,43,16,22,80,,110,105,20,13,10,8,0.5,0.5
2024-09-21T2200,3548A,112.1655,30.3364,荆州市,学苑路,颗粒物(PM10),54,58,59,36,38,80,,117,108,23,21,6,8,0.5,0.6
2024-09-21T2200,2343A,117.2117,29.2933,景德镇市,老干部活动中心,,13,13,13,3,6,41,,47,45,8,7,8,7,0.4,0.3
2024-09-21T2200,2344A,117.1894,29.2789,景德镇市,兽医站,,18,18,15,7,7,45,,50,48,5,5,6,7,0.5,0.5
2024-09-21T2200,2345A,117.1547,29.2617,景德镇市,台达陶瓷,,18,18,14,3,6,44,,47,46,6,7,6,20,0.3,0.3
2024-09-21T2200,2346A,117.2461,29.2956,景德镇市,陶研所,,13,10,14,6,4,40,,57,56,10,9,7,7,0.4,0.3
2024-09-21T2200,1803A,115.9872,29.6815,九江市,十里,,26,26,30,11,14,59,,64,62,11,15,8,11,0.5,0.6
2024-09-21T2200,1804A,115.9584,29.7046,九江市,茅山头,,33,,28,23,18,54,,54,54,11,22,7,9,0.6,0.6
2024-09-21T2200,1805A,115.9877,29.7295,九江市,西园,,24,24,25,14,12,63,,62,61,11,15,9,10,0.4,0.5
2024-09-21T2200,1806A,116.0172,29.6547,九江市,五七二七厂,,25,25,22,3,7,60,,67,64,11,12,7,7,0.5,0.6
2024-09-21T2200,1808A,115.9114,29.6038,九江市,综合工业园,,23,23,31,10,10,63,,66,66,14,28,8,11,0.4,0.7
2024-09-21T2200,1809A,116.0721,29.7535,九江市,石化总厂,,30,30,28,20,15,56,,61,55,10,18,8,10,0.5,0.6
2024-09-21T2200,1810A,115.9773,29.5698,九江市,庐山气象台,,21,7,11,3,7,66,,69,68,5,4,7,8,1.2,0.9
2024-09-21T2200,3190A,116.0254,29.6994,九江市,外国语学校,,21,21,25,14,12,55,,62,57,12,16,7,11,0.8,0.7
2024-09-21T2200,2658A,98.5061,39.7443,酒泉市,仓门街子站,,41,41,34,16,10,77,,90,87,12,9,10,10,0.3,0.3
2024-09-21T2200,2659A,98.4989,39.7256,酒泉市,油田生活基地,,48,48,35,13,8,81,,92,89,16,10,12,10,0.3,0.2
2024-09-21T2200,2698A,76.0072,39.4467,喀什地区,巡警大队,颗粒物(PM10),122,194,221,57,51,48,,93,88,47,34,4,5,0.8,0.7
2024-09-21T2200,2699A,75.9755,39.4694,喀什地区,吾办,颗粒物(PM10),125,200,207,76,75,36,,89,83,46,35,5,6,0.9,0.7
2024-09-21T2200,4027A,75.9483,39.4689,喀什地区,老干局,颗粒物(PM10),128,205,234,57,54,42,,71,64,31,40,5,5,0.6,0.7
2024-09-21T2200,1824A,114.3389,34.7781,开封市,肿瘤医院,,31,31,13,15,7,76,,96,94,21,10,5,4,0.3,0.3
2024-09-21T2200,1826A,114.2885,34.7965,开封市,世纪星幼儿园,,25,23,13,6,5,77,,95,94,18,7,5,6,0.4,0.4
2024-09-21T2200,3147A,114.3438,34.8106,开封市,龙亭公园,,,,14,4,2,,,90,90,32,12,4,3,0.4,0.5
2024-09-21T2200,3210A,114.3644,34.7964,开封市,汴京公园,,22,21,16,10,5,68,,92,90,23,10,4,4,0.5,0.5
2024-09-21T2200,3473A,114.2485,34.8306,开封市,技师学院,,32,32,14,11,6,57,,88,83,32,11,24,8,0.5,0.4
2024-09-21T2200,3592A,114.4644,34.7556,开封市,祥符区生态环境局,颗粒物(PM10),55,60,21,20,4,36,,87,77,54,16,12,7,0.4,0.3
2024-09-21T2200,1951A,84.895,45.6094,克拉玛依市,长征新村,,,117,52,,12,5,,84,82,75,20,9,7,1.1,0.3
2024-09-21T2200,1952A,84.8988,45.5893,克拉玛依市,南林小区,颗粒物(PM10),57,64,43,25,17,6,,74,72,74,28,9,9,1.2,0.5
2024-09-21T2200,1954A,84.905,44.3396,克拉玛依市,独山子区,颗粒物(PM10),61,72,54,14,17,87,,138,131,30,14,10,11,0.5,0.4
2024-09-21T2200,1955A,85.6979,46.098,克拉玛依市,乌尔禾区商贸楼,,39,39,38,14,10,79,,90,90,17,19,10,8,0.3,0.3
2024-09-21T2200,3612A,85.1045,45.6899,克拉玛依市,白碱滩区新站,颗粒物(PM10),51,52,47,21,11,76,,94,94,20,21,7,8,0.3,0.3
2024-09-21T2200,2697A,76.1454,39.7142,克孜勒苏柯尔克孜自治州,市人民政府,颗粒物(PM10),132,213,177,75,69,50,,100,94,52,15,3,8,0.5,0.4
2024-09-21T2200,3665A,76.1658,39.7157,克孜勒苏柯尔克孜自治州,克州文化中心,颗粒物(PM10),132,213,177,75,71,63,,97,93,32,18,6,10,0.5,0.4
2024-09-21T2200,1450A,102.8204,24.8886,昆明市,呈贡新区,,32,32,35,11,20,55,,81,70,16,22,7,6,0.5,0.5
2024-09-21T2200,1452A,102.7252,25.0902,昆明市,龙泉镇,,37,37,27,12,17,56,,92,79,14,18,8,7,0.6,0.7
2024-09-21T2200,1453A,102.7266,25.0375,昆明市,东风东路,,19,19,28,12,17,56,,85,72,13,15,7,8,0.4,0.4
2024-09-21T2200,1454A,102.6742,25.0669,昆明市,金鼎山,,20,,29,11,16,61,,90,77,11,12,7,8,0.4,0.4
2024-09-21T2200,1455A,102.6644,25.0401,昆明市,碧鸡广场,,21,21,30,14,17,58,,88,74,11,12,6,6,0.6,0.6
2024-09-21T2200,3179A,102.7494,25.0119,昆明市,官渡区博物馆,,19,18,31,8,14,58,,86,72,16,23,7,8,0.4,0.5
2024-09-21T2200,3375A,102.8017,24.8336,昆明市,青年创业园,,18,15,20,12,16,54,,82,72,16,16,9,5,0.7,0.6
2024-09-21T2200,3550A,102.7997,24.9786,昆明市,昆明学院,,38,38,43,18,23,38,,88,70,34,26,7,7,0.5,0.5
2024-09-21T2200,3551A,102.5967,24.6736,昆明市,晋宁区生态环境分局,,24,15,42,12,25,74,,91,80,8,19,2,3,0.4,0.5
2024-09-21T2200,3552A,102.6678,24.9856,昆明市,云天化总部,,21,19,28,13,20,65,,93,82,12,15,7,7,0.5,0.5
2024-09-21T2200,1456A,91.1319,29.6514,拉萨市,八廓街,,23,23,10,10,6,56,,100,91,32,12,8,7,0.2,0.2
2024-09-21T2200,1457A,91.1221,29.6747,拉萨市,市环保局,,21,21,9,11,7,52,,98,86,24,12,8,8,0.5,0.4
2024-09-21T2200,1458A,91.0874,29.6475,拉萨市,区监测站,,20,18,8,9,6,48,,92,82,39,14,6,6,0.1,0
2024-09-21T2200,1459A,91.1774,29.6541,拉萨市,西藏大学,,20,19,9,3,6,62,,97,91,14,7,7,6,0.4,0.3
2024-09-21T2200,1460A,90.9798,29.6588,拉萨市,区辐射站,,21,21,9,8,6,48,,92,83,37,12,10,8,0.3,0.2
2024-09-21T2200,1461A,91.0834,29.6292,拉萨市,拉萨火车站,,20,9,9,6,5,62,,94,90,19,9,5,5,0.5,0.3
2024-09-21T2200,2520A,109.2203,23.7256,来宾市,来宾技工学校,,11,10,26,6,19,35,,73,51,8,10,4,6,0.6,0.7
2024-09-21T2200,3535A,109.1781,23.7297,来宾市,兴宾区政府,,16,,25,11,18,39,,78,57,4,7,5,7,0.6,0.8
2024-09-21T2200,4002A,109.2416,23.7461,来宾市,中南小学,,17,17,29,9,18,42,,79,58,7,11,3,4,0.7,0.7
2024-09-21T2200,1476A,103.631,36.1031,兰州市,兰炼宾馆,颗粒物(PM10),60,70,44,30,27,18,,116,96,74,33,7,10,0.7,0.5
2024-09-21T2200,1478A,103.8412,36.0726,兰州市,生物制品所,,42,42,32,26,22,58,,101,92,25,27,8,9,0.3,0.4
2024-09-21T2200,1479A,103.831,36.0464,兰州市,铁路设计院,颗粒物(PM10),56,61,43,30,28,2,,89,66,86,45,8,9,0.9,0.7
2024-09-21T2200,3186A,103.7158,36.1058,兰州市,教育港,颗粒物(PM10),51,52,39,29,22,66,,104,96,23,23,7,6,0.3,0.4
2024-09-21T2200,3241A,103.7439,36.0842,兰州市,百合公园,,48,48,35,21,17,45,,101,91,39,30,6,9,0.4,0.5
2024-09-21T2200,3242A,103.9611,35.998,兰州市,和平,,47,47,32,20,14,35,,94,80,35,21,9,12,0.3,0.4
2024-09-21T2200,3245A,103.6633,36.533,兰州新区,新区管委会,,48,48,44,31,24,72,,113,104,12,18,30,14,0.5,0.5
2024-09-21T2200,3246A,103.6975,36.4789,兰州新区,舟曲中学,,39,39,36,23,18,58,,116,105,20,26,9,25,0.4,0.5
2024-09-21T2200,1067A,116.6708,39.5111,廊坊市,药材公司,,18,18,12,3,4,54,,80,71,16,13,2,2,0.3,0.3
2024-09-21T2200,1068A,116.7214,39.5589,廊坊市,开发区,,18,11,12,6,3,55,,81,73,18,13,3,1,0.3,0.2
2024-09-21T2200,1070A,116.7244,39.5269,廊坊市,北华航天学院,,19,19,15,3,5,59,,82,74,12,11,2,2,0.2,0.2
2024-09-21T2200,2919A,116.7022,39.5453,廊坊市,河北工业大学,,17,8,12,6,6,53,,81,72,16,11,1,1,0.3,0.2
2024-09-21T2200,2535A,103.7723,29.5462,乐山市,花湖湾,,44,44,25,23,11,80,,130,121,34,13,3,3,0.6,0.5
2024-09-21T2200,2536A,103.7627,29.5844,乐山市,牛耳桥,颗粒物(PM10),51,52,21,25,11,48,,122,107,43,20,5,5,0.6,0.4
2024-09-21T2200,2537A,103.7508,29.6006,乐山市,市第三水厂,颗粒物(PM10),51,51,24,23,11,66,,134,118,43,20,4,4,0.5,0.4
2024-09-21T2200,2538A,103.7571,29.5664,乐山市,市监测站,,40,40,22,23,14,94,,122,116,20,13,4,5,0.4,0.4
2024-09-21T2200,3361A,103.7311,29.5628,乐山市,理工大学,,45,45,26,25,14,95,,131,118,21,14,3,3,0.6,0.7
2024-09-21T2200,2599A,100.2497,26.8802,丽江市,丽江古城,,32,32,28,22,19,58,,84,79,11,12,10,10,0.6,0.5
2024-09-21T2200,2600A,100.2203,26.8906,丽江市,市中心,,33,23,21,23,16,52,,84,78,18,8,6,6,0.6,0.6
2024-09-21T2200,1267A,119.914,28.4514,丽水市,监测站大楼,,15,6,17,3,9,45,,68,55,10,13,3,3,0.5,0.6
2024-09-21T2200,1268A,119.93,28.4586,丽水市,莲都小学,,15,6,16,3,8,47,,69,58,10,13,4,4,0.5,0.5
2024-09-21T2200,1269A,119.879,28.4231,丽水市,余庄前,,10,6,20,3,9,31,,60,39,13,10,4,4,0.5,0.5
2024-09-21T2200,1173A,119.176,34.5885,连云港市,市环境监测站,,,,32,7,9,76,,93,88,12,10,6,5,0.5,0.5
2024-09-21T2200,3000A,119.3581,34.6972,连云港市,德源药业,,27,22,28,3,9,84,,93,89,9,11,5,5,0.2,0.5
2024-09-21T2200,3007A,119.178,34.844,连云港市,新城一中,,20,20,13,9,9,57,,86,74,35,23,8,4,0.6,0.6
2024-09-21T2200,3008A,119.3608,34.7519,连云港市,胡沟管理处,,25,24,26,3,6,78,,86,83,13,16,7,8,0.2,0.6
2024-09-21T2200,3009A,119.1478,34.5911,连云港市,矿山设计院,,25,22,30,9,10,78,,94,88,16,10,5,5,0.5,0.5
2024-09-21T2200,3434A,119.2413,34.6539,连云港市,工贸学校,,25,22,17,8,9,78,,94,89,18,20,9,6,0.7,0.5
2024-09-21T2200,3664A,119.4172,34.7341,连云港市,连云街道,,39,39,31,8,8,72,,82,79,22,19,5,5,0.4,0.6
2024-09-21T2200,2571A,102.3431,27.8099,凉山彝族自治州,青龙寺,,22,19,18,15,10,70,,104,95,6,5,4,5,0.4,0.7
2024-09-21T2200,2572A,102.2721,27.8415,凉山彝族自治州,邛海宾馆,,27,26,26,18,16,84,,106,95,8,10,8,8,0.4,0.5
2024-09-21T2200,2573A,102.2625,27.898,凉山彝族自治州,西昌市政府,,26,26,18,18,13,63,,96,84,14,6,7,8,0.4,0.3
2024-09-21T2200,2574A,102.2685,27.8851,凉山彝族自治州,凉山州政府,,29,26,24,20,16,79,,103,94,8,8,6,6,0.8,0.7
2024-09-21T2200,2575A,102.237,27.8914,凉山彝族自治州,长安,,26,24,24,17,17,81,,100,93,5,10,7,8,0.6,0.6
2024-09-21T2200,2212A,123.2,41.1953,辽阳市,宏伟区,,24,24,19,8,7,29,,63,55,22,16,11,10,0.4,0.4
2024-09-21T2200,2213A,123.1683,41.2495,辽阳市,新华园,,26,26,18,3,4,27,,58,49,33,18,11,9,0.4,0.4
2024-09-21T2200,2214A,123.2354,41.2639,辽阳市,滨河路,,30,30,20,19,11,20,,66,54,34,17,10,10,0.3,0.4
2024-09-21T2200,2215A,123.149,41.2991,辽阳市,铁西工业园,,23,22,18,16,8,10,,57,42,33,15,11,12,0.5,0.5
2024-09-21T2200,2227A,125.1358,42.8845,辽源市,环保局,,30,30,21,12,7,7,,48,35,28,13,8,9,0.7,0.6
2024-09-21T2200,3239A,125.0764,42.9078,辽源市,银鹰制药,颗粒物(PM10),53,55,16,24,9,5,,52,35,25,13,6,5,0.8,0.6
2024-09-21T2200,1625A,115.9848,36.4372,聊城市,区政府,,29,29,17,12,5,79,,104,100,30,18,7,7,0.4,0.4
2024-09-21T2200,2878A,116.0072,36.4343,聊城市,聊大东校,,28,24,21,13,11,88,,107,104,22,15,6,7,0.4,0.4
2024-09-21T2200,3200A,115.9819,36.4978,聊城市,监控中心,颗粒物(PM10),53,55,15,22,7,29,,99,76,69,22,7,6,0.2,0.2
2024-09-21T2200,4018A,116.0567,36.4608,聊城市,星美广场,,50,50,25,13,6,68,,104,96,27,11,4,6,0.2,0.2
2024-09-21T2200,2632A,94.3681,29.6376,林芝市,林芝监测站,,20,,8,8,6,61,,81,79,2,4,9,10,0.3,0.2
2024-09-21T2200,2633A,94.3616,29.6616,林芝市,林芝人民医院,,24,24,10,6,5,61,,79,77,6,6,8,8,0.2,0.2
2024-09-21T2200,2603A,100.0781,23.8982,临沧市,市环保局,,49,47,39,34,25,46,,80,69,12,12,5,8,0.6,0.6
2024-09-21T2200,2604A,100.0894,23.8822,临沧市,市气象局,,45,35,35,31,28,48,,86,73,12,12,5,8,0.6,0.5
2024-09-21T2200,1733A,111.5531,36.0783,临汾市,临钢医院,,,38,27,,28,87,,110,106,17,13,4,4,0.4,0.5
2024-09-21T2200,1734A,111.5028,36.0714,临汾市,技工学校,,48,48,27,18,14,82,,110,106,25,13,5,5,0.6,0.6
2024-09-21T2200,1736A,111.5018,36.0855,临汾市,市委,,33,25,19,3,3,104,,116,114,17,12,6,6,0.3,0.4
2024-09-21T2200,3018A,111.505,36.1014,临汾市,唐尧大酒店,,34,34,22,3,5,100,,108,107,14,11,4,4,0.4,0.4
2024-09-21T2200,3668A,111.5036,36.0414,临汾市,城南,,38,38,28,22,13,68,,110,104,25,12,6,5,0.3,0.3
2024-09-21T2200,2667A,103.2069,35.5993,临夏回族自治州,环保局,,46,46,32,24,16,89,,90,87,14,14,8,7,0.5,0.4
2024-09-21T2200,2668A,103.2417,35.6057,临夏回族自治州,建设大厦,颗粒物(PM10),56,61,37,26,14,79,,94,91,17,12,9,9,0.6,0.4
2024-09-21T2200,1618A,118.3429,35.0532,临沂市,沂河小区,,25,24,21,14,9,78,,98,94,5,5,7,6,0.2,0.2
2024-09-21T2200,1619A,118.295,35.0583,临沂市,鲁南制药厂,,25,17,17,3,3,80,,104,99,18,10,6,4,0.2,0.2
2024-09-21T2200,1620A,118.2794,34.9976,临沂市,新光毛纺厂,,24,22,15,3,2,76,,96,92,17,15,5,4,0.4,0.4
2024-09-21T2200,1621A,118.3956,35.0888,临沂市,河东保险公司,,26,14,23,9,5,82,,107,103,21,15,6,5,0.5,0.5
2024-09-21T2200,3370A,118.3564,35.0215,临沂市,十里堡居委,,25,14,13,3,5,80,,102,96,11,9,8,7,0.4,0.4
2024-09-21T2200,3496A,118.3604,35.1084,临沂市,南坊新区,,29,29,22,3,3,77,,101,95,14,9,9,7,0.3,0.4
2024-09-21T2200,3860A,118.3920,35.0300,临沂市,皇山花园小区,,24,22,25,8,9,74,,98,90,12,8,7,6,0.1,0.2
2024-09-21T2200,1870A,109.4856,24.3895,柳州市,柳东小学,,13,13,20,8,17,34,,62,48,8,5,7,8,0.6,0.6
2024-09-21T2200,1871A,109.4157,24.3277,柳州市,环保监测站,,13,10,28,7,19,40,,67,50,7,7,8,8,0.9,0.9
2024-09-21T2200,1872A,109.389,24.341,柳州市,河西水厂,,32,32,36,16,22,20,,62,40,26,16,26,15,2.2,1.4
2024-09-21T2200,1873A,109.4311,24.2921,柳州市,市四中,,16,15,24,11,18,46,,71,57,5,6,6,6,0.7,0.7
2024-09-21T2200,1874A,109.4006,24.3631,柳州市,市九中,,18,18,33,8,17,36,,66,49,13,10,6,7,0.8,0.8
2024-09-21T2200,1875A,109.4958,24.3134,柳州市,古亭山,,14,,22,9,17,42,,70,56,8,7,6,6,0.8,0.8
2024-09-21T2200,3402A,109.5422,24.3996,柳州市,市二中,,17,10,21,6,14,53,,66,54,10,9,8,8,0.6,0.6
2024-09-21T2200,2307A,116.5079,31.737,六安市,监测大楼,,32,24,25,22,20,51,,55,55,10,7,5,5,0.5,0.4
2024-09-21T2200,2308A,116.4738,31.7643,六安市,皖西学院,,41,41,38,24,21,44,,50,50,11,9,5,5,0.4,0.3
2024-09-21T2200,2309A,116.4996,31.7905,六安市,朝阳厂,,35,35,26,20,18,44,,54,54,12,7,1,2,0.4,0.4
2024-09-21T2200,2310A,116.5567,31.7886,六安市,开发区,,46,46,34,16,15,51,,56,56,16,14,2,4,0.5,0.5
2024-09-21T2200,2577A,104.83,26.5917,六盘水市,黄土坡,,25,,14,17,13,67,,82,78,5,8,5,7,0.4,0.5
2024-09-21T2200,2578A,104.89,26.5939,六盘水市,水钢,,29,29,23,9,9,69,,85,75,7,14,7,9,0.3,1.5
2024-09-21T2200,2579A,104.8475,26.5894,六盘水市,民中,,22,11,12,7,8,70,,89,77,6,8,6,6,0.3,0.3
2024-09-21T2200,2580A,104.9544,26.5506,六盘水市,双水,,27,27,21,3,8,48,,78,72,21,10,13,12,0.3,0.3
2024-09-21T2200,2336A,117.0217,25.1033,龙岩市,龙岩市监测站,,29,,16,20,12,37,,80,65,19,10,8,7,0.5,0.5
2024-09-21T2200,2337A,117.0258,25.0661,龙岩市,闽西职业技术学院,,38,38,24,21,11,39,,78,62,21,12,11,5,0.5,0.5
2024-09-21T2200,2338A,117.0196,25.0306,龙岩市,龙岩学院,,23,18,19,16,9,41,,77,59,7,12,4,3,0.4,0.5
2024-09-21T2200,2885A,104.9339,33.3826,陇南市,滨江中学,,43,43,33,19,13,70,,88,79,10,12,7,8,0.5,0.6
2024-09-21T2200,3247A,104.955,33.371,陇南市,市总工会,,35,35,28,7,6,67,,89,83,6,5,8,8,0.4,0.3
2024-09-21T2200,2487A,111.9589,27.8901,娄底市,电视发射台,,49,49,42,16,21,94,,92,92,16,15,6,6,0,0
2024-09-21T2200,2488A,111.9975,27.725,娄底市,市监测站,,39,39,36,15,18,100,,93,93,5,8,4,5,0.7,0.8
2024-09-21T2200,2489A,112.0194,27.7314,娄底市,市委党校,,35,35,32,13,21,95,,90,90,6,5,6,7,0.6,0.6
2024-09-21T2200,2490A,111.9561,27.7569,娄底市,涟钢,,47,47,42,13,22,78,,79,79,17,11,9,12,2.0,1.2
2024-09-21T2200,2491A,111.9892,27.7044,娄底市,市政府,,35,35,35,16,15,98,,92,92,9,13,5,6,0.3,0.5
2024-09-21T2200,1893A,105.4324,28.9634,泸州市,九狮山,颗粒物(PM10),52,54,28,31,16,37,,79,69,8,14,6,6,0.5,0.4
2024-09-21T2200,1894A,105.4427,28.9063,泸州市,小市上码头,,23,22,21,13,9,73,,95,93,23,14,6,5,0.5,0.5
2024-09-21T2200,1895A,105.4241,28.8573,泸州市,兰田宪桥,,36,35,24,25,14,39,,86,76,32,13,5,5,0.5,0.4
2024-09-21T2200,1896A,105.4379,28.8833,泸州市,市环监站,,34,34,23,21,15,56,,96,91,34,13,7,7,0.5,0.4
2024-09-21T2200,3490A,105.3617,28.7703,泸州市,纳溪区环保局,,,,30,27,18,20,,88,72,49,20,6,6,0.5,0.4
2024-09-21T2200,2183A,111.1406,37.5211,吕梁市,环保局,,42,42,22,18,12,14,,91,82,47,10,4,4,0.4,0.4
2024-09-21T2200,2185A,111.1297,37.5136,吕梁市,自来水公司,,32,32,20,12,10,43,,90,83,34,12,2,3,0.4,0.3
2024-09-21T2200,2867A,111.1283,37.51,吕梁市,马茂庄小学,,46,46,28,18,13,22,,96,86,48,14,6,2,0.4,0.3
2024-09-21T2200,1812A,112.3931,34.6516,洛阳市,市委党校,,30,30,20,18,14,68,,81,81,20,11,6,5,0.4,0.6
2024-09-21T2200,1814A,112.4657,34.6871,洛阳市,豫西宾馆,,31,31,22,13,9,63,,77,76,20,10,8,7,0.4,0.5
2024-09-21T2200,1815A,112.494,34.6886,洛阳市,河南林校,,32,32,17,13,11,59,,79,78,24,12,5,5,0.5,0.5
2024-09-21T2200,1816A,112.3844,34.623,洛阳市,开发区管委会,,25,25,19,14,13,65,,82,82,21,12,2,2,0.3,0.4
2024-09-21T2200,1817A,112.4267,34.6258,洛阳市,市委新办公区,,26,26,18,14,13,63,,82,81,17,6,3,2,0.5,0.6
2024-09-21T2200,3340A,112.6005,34.6326,洛阳市,伊滨,,30,30,16,19,12,66,,84,82,23,13,7,7,0.5,0.6
2024-09-21T2200,3341A,112.4951,34.6332,洛阳市,中移产业园,,31,31,21,16,12,54,,84,80,27,11,2,2,0.4,0.5
2024-09-21T2200,3593A,112.5736,34.8993,洛阳市,吉利监测站,,25,24,19,8,9,77,,84,84,14,8,6,3,0.2,0.3
2024-09-21T2200,3635A,112.3677,34.662,洛阳市,河科大西苑校区,,25,25,17,10,8,70,,84,84,18,9,4,3,0.4,0.6
2024-09-21T2200,3636A,112.4388,34.6781,洛阳市,英才小学,,28,28,20,15,15,65,,76,76,21,14,3,2,0.4,0.5
2024-09-21T2200,2399A,114.051,33.5699,漯河市,三五一五工厂,,43,42,19,30,10,73,,98,93,20,7,6,5,0.5,0.5
2024-09-21T2200,2400A,114.0055,33.5698,漯河市,漯河大学,,38,38,26,19,8,78,,100,97,22,10,4,4,0.5,0.4
2024-09-21T2200,2401A,114.0138,33.5828,漯河市,市水利局,,31,31,17,14,6,74,,95,92,18,5,5,4,0.6,0.5
2024-09-21T2200,2402A,114.0261,33.5698,漯河市,市广电局,,32,32,17,16,7,81,,98,95,18,7,7,6,0.4,0.4
2024-09-21T2200,3478A,113.9749,33.5664,漯河市,市图书馆,,,31,19,19,7,,,100,100,20,8,5,6,0.4,0.3
2024-09-21T2200,3479A,114.0967,33.5906,漯河市,召陵区卫健委,颗粒物(PM10),53,56,24,32,9,41,,95,83,32,6,5,5,0.6,0.6
2024-09-21T2200,1798A,118.5092,31.6837,马鞍山市,湖东路四小,,39,39,24,18,17,86,,77,77,19,14,9,8,0.6,0.6
2024-09-21T2200,1799A,118.5024,31.6449,马鞍山市,开发区,,34,34,26,13,12,87,,74,74,18,14,8,8,0.8,0.9
2024-09-21T2200,1800A,118.5228,31.7231,马鞍山市,慈湖,,25,24,24,10,11,78,,75,75,18,10,8,8,0.7,0.8
2024-09-21T2200,1802A,118.6245,31.7241,马鞍山市,濮塘,,32,32,21,18,16,68,,74,74,18,14,9,8,0.8,0.7
2024-09-21T2200,3633A,118.4918,31.6809,马鞍山市,雨山,,37,37,26,13,14,83,,73,73,21,15,12,11,0.8,1
2024-09-21T2200,1686A,111.0286,21.4688,茂名市,电白南海,,27,27,28,9,15,33,,78,51,10,10,13,14,0.9,0.8
2024-09-21T2200,1687A,110.9294,21.6533,茂名市,茂石化七小,,27,27,25,17,17,15,,75,44,26,11,9,13,0.9,0.7
2024-09-21T2200,1688A,110.9107,21.6687,茂名市,健康路,,24,24,21,12,12,22,,80,47,12,9,26,23,0.9,1
2024-09-21T2200,1689A,110.8592,21.6828,茂名市,高岭,,28,24,28,19,17,11,,68,36,18,13,7,14,0.9,0.8
2024-09-21T2200,3450A,111.01,21.5165,茂名市,电白水东,,18,14,20,12,17,30,,74,50,15,10,8,10,0.6,0.6
2024-09-21T2200,2539A,104.0308,30.0478,眉山市,黑龙滩水库,,33,26,26,21,12,105,,141,135,2,8,4,4,0.3,0.3
2024-09-21T2200,2540A,103.8416,30.0874,眉山市,气象局,,49,46,23,34,10,52,,146,124,42,21,8,8,0.4,0.4
2024-09-21T2200,3137A,103.8578,30.0744,眉山市,市委党校,,34,34,19,12,5,68,,140,125,35,19,7,8,0.3,0.3
2024-09-21T2200,3148A,103.8291,30.0564,眉山市,区人社局,,28,23,21,7,4,88,,145,133,26,21,6,7,0.4,0.4
2024-09-21T2200,1690A,116.1231,24.3284,梅州市,梅江月梅,,,20,12,,2,,,65,63,22,3,8,8,0.5,0.4
2024-09-21T2200,1691A,116.0797,24.2719,梅州市,梅县新城,,15,15,12,6,5,41,,62,57,10,6,4,4,0.4,0.4
2024-09-21T2200,1692A,116.1248,24.2654,梅州市,环境监控中心,,17,17,13,9,6,40,,59,56,22,9,4,5,0.5,0.4
2024-09-21T2200,3315A,116.1233,24.2991,梅州市,梅龙,,22,22,8,12,5,56,,64,63,11,4,16,9,0.6,0.6
2024-09-21T2200,1878A,104.7778,31.4741,绵阳市,富乐山,,28,28,17,14,7,74,,103,97,8,7,2,2,0.4,0.3
2024-09-21T2200,1879A,104.7563,31.4535,绵阳市,市人大,,27,27,16,16,6,77,,99,91,19,14,10,9,0.4,0.3
2024-09-21T2200,1880A,104.6697,31.4668,绵阳市,高新区自来水公司,,26,22,16,9,4,83,,104,97,15,9,4,3,0.5,0.5
2024-09-21T2200,1881A,104.7287,31.5075,绵阳市,三水厂,,24,21,15,10,6,76,,103,96,15,11,5,5,0.4,0.3
2024-09-21T2200,3491A,104.69,31.5322,绵阳市,西科大附属小学,,24,24,14,16,8,76,,103,95,17,9,4,4,0.5,0.4
2024-09-21T2200,3492A,104.5648,31.5343,绵阳市,安州区旅游局,,33,33,16,19,12,67,,106,93,18,13,8,8,0.5,0.4
2024-09-21T2200,1784A,129.61,44.561,牡丹江市,环保大楼,,38,38,24,23,14,34,,57,47,16,11,8,7,0.3,0.3
2024-09-21T2200,1785A,129.6115,44.5782,牡丹江市,文化广场,,45,45,33,26,18,29,,50,38,18,14,9,9,0.5,0.3
2024-09-21T2200,1786A,129.5904,44.5963,牡丹江市,第一医院,,36,36,28,22,21,32,,56,46,18,11,8,7,0.3,0.3
2024-09-21T2200,1787A,129.6364,44.6075,牡丹江市,机车工厂,,45,44,36,31,16,25,,56,42,15,9,7,10,0.3,0.3
2024-09-21T2200,1788A,129.6386,44.5462,牡丹江市,第一中学,,45,31,22,31,16,24,,57,39,22,14,6,6,0.3,0.2
2024-09-21T2200,2531A,105.0703,29.61,内江市,市监测站,细颗粒物(PM2.5),53,38,20,37,10,81,,132,124,32,13,4,3,0.6,0.8
2024-09-21T2200,2532A,105.0717,29.5947,内江市,东兴区政府,,45,34,18,31,9,90,,126,120,19,16,4,3,0.7,0.6
2024-09-21T2200,2533A,105.0653,29.5817,内江市,内江二中,细颗粒物(PM2.5),58,,21,41,11,92,,124,119,19,14,8,7,0.6,0.4
2024-09-21T2200,2534A,105.0406,29.5822,内江市,内江日报社,细颗粒物(PM2.5),63,,24,45,11,80,,121,115,32,19,8,4,0.6,0.4
2024-09-21T2200,2628A,92.0657,31.4846,那曲市,那曲监测站,,44,44,18,13,26,45,,73,62,5,5,8,6,0.7,0.4
2024-09-21T2200,3128A,92.0506,31.4797,那曲市,那曲会议中心,,21,21,18,10,5,57,,79,70,10,5,4,4,0.8,0.7
2024-09-21T2200,1290A,115.8931,28.6843,南昌市,省外办,,43,43,47,17,19,50,,86,70,16,18,8,9,0.4,0.5
2024-09-21T2200,1291A,115.8886,28.7003,南昌市,省林业公司,颗粒物(PM10),52,53,59,12,13,47,,86,70,10,11,6,6,0.6,0.6
2024-09-21T2200,1292A,115.8126,28.7442,南昌市,林科所,,34,34,35,9,8,57,,88,74,14,13,6,8,0.7,0.6
2024-09-21T2200,1294A,115.8518,28.687,南昌市,建工学校,颗粒物(PM10),54,57,44,18,12,49,,86,70,12,10,8,9,0.4,0.5
2024-09-21T2200,1295A,115.8921,28.6424,南昌市,象湖,颗粒物(PM10),51,51,47,14,13,53,,94,77,9,10,7,8,0.5,0.6
2024-09-21T2200,1296A,115.7423,28.7996,南昌市,武术学校,,36,36,29,21,17,52,,72,67,7,5,1,2,0.7,0.7
2024-09-21T2200,1298A,115.9314,28.6842,南昌市,省站,颗粒物(PM10),51,52,48,12,16,46,,83,66,14,16,8,9,0.5,0.6
2024-09-21T2200,3046A,115.9084,28.6062,南昌市,机电学校,,42,42,60,12,13,50,,88,72,11,10,6,8,0.5,0.5
2024-09-21T2200,3690A,115.9721,28.7031,南昌市,外国语学校,,30,30,60,17,14,48,,81,66,11,12,6,7,0.5,0.5
2024-09-21T2200,1905A,106.056,30.8064,南充市,西山风景区,,32,23,14,22,13,60,,78,73,7,4,5,3,0.7,0.6
2024-09-21T2200,1906A,106.0789,30.8023,南充市,南充市委,,32,28,19,22,13,62,,78,75,15,12,13,5,0.4,0.3
2024-09-21T2200,1907A,106.1031,30.8217,南充市,南充炼油厂,,41,41,28,27,16,64,,78,76,10,9,9,4,0.2,0.1
2024-09-21T2200,1908A,106.1064,30.7856,南充市,高坪区监测站,,34,34,20,23,14,62,,77,76,15,12,16,7,0.4,0.3
2024-09-21T2200,1909A,106.0642,30.7636,南充市,嘉陵区环保局,,28,21,21,19,9,56,,74,70,14,11,16,3,0.4,0.3
2024-09-21T2200,1910A,106.1087,30.8388,南充市,市环境监测站,细颗粒物(PM2.5),53,45,27,37,18,60,,76,73,12,10,10,4,0.2,0.1
2024-09-21T2200,1151A,118.8086,32.1065,南京市,迈皋桥,,,29,16,,8,61,,76,75,24,12,6,4,0.3,0.3
2024-09-21T2200,1152A,118.7538,32.0551,南京市,草场门,,39,39,22,19,10,64,,72,72,25,13,10,7,0.4,0.4
2024-09-21T2200,1153A,118.7794,32.0745,南京市,山西路,,41,41,25,22,12,71,,73,73,16,14,3,4,0.4,0.6
2024-09-21T2200,1154A,118.7752,32.0023,南京市,中华门,,,36,22,14,9,,,62,62,13,11,7,6,0.4,0.5
2024-09-21T2200,1155A,118.8109,32.0309,南京市,瑞金路,,36,36,20,24,10,61,,72,72,25,15,10,7,0.3,0.3
2024-09-21T2200,1156A,118.7997,32.0754,南京市,玄武湖,,34,34,22,11,8,61,,71,71,10,4,7,6,0.9,0.8
2024-09-21T2200,1157A,118.6414,32.0931,南京市,浦口,,37,37,26,16,9,70,,71,71,13,6,4,4,0.5,0.5
2024-09-21T2200,1158A,118.7356,31.9996,南京市,奥体中心,,35,35,24,17,13,72,,77,77,18,10,7,5,0.4,0.5
2024-09-21T2200,1159A,118.9125,32.1028,南京市,仙林大学城,,39,39,24,19,13,72,,75,75,20,12,6,6,0.4,0.5
2024-09-21T2200,3422A,118.8436,31.9198,南京市,江宁彩虹桥,,31,31,16,12,8,78,,78,78,11,6,5,4,0.4,0.4
2024-09-21T2200,3423A,119.0138,31.6494,南京市,溧水永阳,,27,27,16,15,12,78,,72,72,10,11,4,4,0.4,0.4
2024-09-21T2200,3424A,118.879,31.3302,南京市,高淳老职中,,37,37,26,15,11,86,,73,73,10,10,5,4,0.4,0.4
2024-09-21T2200,3427A,118.8554,32.3578,南京市,六合雄州,,31,31,26,7,8,59,,67,64,13,9,7,6,0.2,0.3
2024-09-21T2200,1401A,108.3103,22.7881,南宁市,二十一中,,18,15,29,12,17,32,,80,63,19,16,7,7,0.9,0.9
2024-09-21T2200,1402A,108.3141,22.8528,南宁市,北湖,,22,18,35,15,25,32,,78,60,22,18,25,14,0.6,0.7
2024-09-21T2200,1403A,108.3206,22.8225,南宁市,市监测站,,23,20,44,16,23,31,,75,58,26,22,10,11,0.8,1
2024-09-21T2200,1404A,108.3829,22.8037,南宁市,大自然花园,,25,,28,17,23,32,,76,61,21,15,5,6,0.6,0.6
2024-09-21T2200,1405A,108.4394,22.7904,南宁市,仙葫,,23,23,35,15,24,32,,73,60,23,20,4,5,0.8,0.9
2024-09-21T2200,1406A,108.2397,22.8467,南宁市,区农职院,,15,12,36,10,22,43,,73,62,4,13,3,12,0.6,0.7
2024-09-21T2200,1407A,108.3275,22.735,南宁市,英华嘉园,,22,22,38,14,26,28,,80,61,23,21,4,6,0.7,0.8
2024-09-21T2200,1408A,108.2257,22.7757,南宁市,沙井镇街道办,,19,19,42,12,23,34,,75,58,14,22,2,6,0.6,0.7
2024-09-21T2200,3401A,108.4834,22.7618,南宁市,红星社区,,16,,32,11,24,36,,77,60,14,19,8,8,0.7,0.8
2024-09-21T2200,2332A,118.1681,26.6369,南平市,南平市监测站,,11,7,17,3,9,35,,78,56,8,11,5,4,0.4,0.4
2024-09-21T2200,2333A,118.1825,26.6489,南平市,南平铝业有限公司,,12,10,18,3,9,38,,78,58,8,12,4,5,0.5,0.5
2024-09-21T2200,2334A,118.1756,26.6272,南平市,南平七中,,9,6,20,3,10,28,,79,54,7,8,2,3,0.5,0.6
2024-09-21T2200,1168A,120.9098,31.9663,南通市,狼山街道,,,33,14,9,4,,,79,79,4,4,6,6,0.4,0.5
2024-09-21T2200,1169A,120.86,32.0005,南通市,虹桥,,25,25,14,11,5,72,,73,73,8,6,6,6,0.5,0.5
2024-09-21T2200,1170A,120.87,32.02,南通市,城中,,36,36,19,6,4,70,,71,71,7,6,6,6,0.5,0.5
2024-09-21T2200,1171A,120.94,31.93,南通市,星湖花园,,28,28,14,8,5,78,,79,79,9,12,6,5,0.5,0.6
2024-09-21T2200,1172A,120.81,32.0417,南通市,紫琅学院,,35,35,14,10,4,77,,76,76,7,7,7,7,0.4,0.4
2024-09-21T2200,3291A,121.067,32.062,南通市,通州监测站,,27,27,16,12,5,73,,79,79,9,8,3,3,0.4,0.6
2024-09-21T2200,3432A,120.9348,31.9883,南通市,环境教育馆,,36,36,21,10,3,77,,78,78,9,8,4,4,0.4,0.5
2024-09-21T2200,2404A,112.5224,33.0122,南阳市,瓦房庄,,42,42,38,19,14,85,,105,101,18,12,5,4,0.4,0.4
2024-09-21T2200,2405A,112.5003,32.9735,南阳市,汉画馆,,37,37,33,24,20,77,,99,96,22,12,6,6,0.3,0.3
2024-09-21T2200,2406A,112.5573,33.027,南阳市,气象站,,47,47,32,12,6,78,,103,98,21,11,7,6,0.5,0.5
2024-09-21T2200,2407A,112.5481,32.9689,南阳市,理工学院,,39,39,35,13,8,77,,100,97,19,11,6,6,0.4,0.4
2024-09-21T2200,4008A,112.5234,32.9922,南阳市,卧龙区政府,,45,45,36,16,14,79,,100,96,22,14,5,4,0.4,0.4
2024-09-21T2200,1234A,121.8358,29.911,宁波市,区环保大楼,,29,20,19,20,11,70,,52,52,8,13,3,3,0.6,0.7
2024-09-21T2200,1235A,121.56,29.82,宁波市,万里学院,,20,16,20,14,14,57,,46,46,13,16,5,6,0.6,0.7
2024-09-21T2200,1236A,121.713,29.9572,宁波市,龙赛医院,,20,15,15,7,8,64,,50,50,14,17,8,8,0.6,0.7
2024-09-21T2200,1239A,121.633,29.7733,宁波市,钱湖水厂,,27,27,20,12,11,53,,47,47,13,12,8,8,0.6,0.6
2024-09-21T2200,1240A,121.5856,29.8635,宁波市,太古小学,,25,25,23,10,11,56,,46,46,15,17,7,7,0.7,0.8
2024-09-21T2200,1241A,121.524,29.8674,宁波市,市环境监测中心,,20,20,18,10,12,59,,45,45,13,16,8,8,0.5,0.7
2024-09-21T2200,2871A,121.6147,29.9017,宁波市,万里国际学校,,20,16,16,10,9,61,,51,51,12,14,7,7,0.5,0.5
2024-09-21T2200,3710A,121.5594,29.8975,宁波市,白沙活动中心,,24,24,21,7,8,59,,49,49,12,14,8,8,0.3,0.4
2024-09-21T2200,2341A,119.5388,26.6612,宁德市,宁德市监测站,,15,10,21,10,12,41,,84,62,12,9,6,6,0.5,0.5
2024-09-21T2200,3209A,119.5231,26.6562,宁德市,宁德一中,,18,14,24,12,11,41,,83,58,6,5,4,5,0.4,0.4
2024-09-21T2200,2618A,98.8601,25.8567,怒江傈僳族自治州,州监测站,,48,48,33,30,23,48,,97,88,22,11,5,5,0.5,0.4
2024-09-21T2200,2619A,98.8546,25.8417,怒江傈僳族自治州,泸水一中,,39,31,31,27,22,47,,87,79,18,14,6,7,0.5,0.4
2024-09-21T2200,1888A,101.6891,26.571,攀枝花市,弄弄坪,颗粒物(PM10),59,67,60,30,28,56,,109,102,36,32,19,23,1.3,1.5
2024-09-21T2200,1889A,101.5769,26.5928,攀枝花市,河门口,颗粒物(PM10),52,53,53,33,32,80,,127,121,22,25,11,16,1.4,1.3
2024-09-21T2200,1890A,101.7169,26.585,攀枝花市,炳草岗,,49,49,58,34,35,51,,98,91,44,43,14,19,1.6,1.4
2024-09-21T2200,1891A,101.7369,26.5008,攀枝花市,仁和,"颗粒物(PM10),细颗粒物(PM2.5)",54,57,43,38,28,37,,110,92,29,21,7,11,0.9,0.9
2024-09-21T2200,2835A,101.7227,26.567,攀枝花市,四十中小,颗粒物(PM10),55,60,59,32,33,47,,101,93,44,45,9,19,1.2,1.4
2024-09-21T2200,1604A,122.0303,41.1489,盘锦市,开发区,,21,21,13,9,5,52,,72,64,15,10,10,15,0.2,0.2
2024-09-21T2200,1605A,122.0485,41.0883,盘锦市,兴隆台,,17,9,13,7,5,53,,74,66,23,14,6,4,0.2,0.2
2024-09-21T2200,1606A,121.8297,41.1028,盘锦市,新生街道,,19,16,12,6,5,28,,68,52,37,15,8,7,0.2,0.2
2024-09-21T2200,1832A,113.3257,33.742,平顶山市,新华旅馆,,43,43,25,20,19,75,,92,86,17,8,5,4,0.4,0.4
2024-09-21T2200,1833A,113.2919,33.737,平顶山市,规划设计院,,27,26,16,9,4,85,,97,93,18,10,7,6,0.5,0.5
2024-09-21T2200,1834A,113.182,33.774,平顶山市,平顶山工学院,,35,35,17,12,4,62,,91,83,18,9,7,6,0.3,0.3
2024-09-21T2200,3204A,113.3025,33.73,平顶山市,规划局,,38,27,19,26,14,85,,93,89,14,9,4,4,0.5,0.5
2024-09-21T2200,3594A,112.8867,33.9116,平顶山市,石龙区,,,,34,26,8,8,,86,75,67,16,10,9,0.4,0.5
2024-09-21T2200,2656A,106.6692,35.5461,平凉市,聚贤嘉苑,,50,50,32,16,16,26,,109,83,62,23,7,8,0.5,0.4
2024-09-21T2200,2657A,106.7021,35.5307,平凉市,博物馆,颗粒物(PM10),52,53,42,24,16,32,,113,90,40,13,6,7,0.6,0.3
2024-09-21T2200,2347A,114.0997,27.5002,萍乡市,武功山,,24,24,20,3,4,47,,55,49,7,5,8,9,0.4,0.4
2024-09-21T2200,2348A,113.8385,27.6434,萍乡市,中医院,,35,35,30,18,19,37,,36,36,8,13,5,9,0.7,1
2024-09-21T2200,2349A,113.8493,27.6253,萍乡市,市政府车库,,30,25,29,21,17,37,,36,36,9,13,7,10,0.6,1
2024-09-21T2200,2350A,113.8676,27.6435,萍乡市,市环保局,,26,26,23,13,16,37,,36,36,6,10,5,8,0.6,0.9
2024-09-21T2200,2351A,113.866,27.6198,萍乡市,安源区政府,,29,29,25,8,12,26,,32,32,15,20,3,7,0.5,0.8
2024-09-21T2200,2319A,119.0141,25.4325,莆田市,荔城区仓后路,,16,16,25,7,12,47,,93,72,11,14,8,8,0.1,0.4
2024-09-21T2200,2320A,119.0015,25.4553,莆田市,莆田市监测站,,,,14,7,9,54,,100,79,3,5,6,7,0.3,0.5
2024-09-21T2200,2321A,119.1119,25.4561,莆田市,涵江区六中,,18,18,26,3,12,50,,95,73,4,11,8,9,0.4,0.6
2024-09-21T2200,2322A,119.1013,25.3215,莆田市,秀屿区政府,,28,28,24,3,11,50,,90,65,7,9,6,8,0.5,0.6
2024-09-21T2200,2392A,115.0312,35.7636,濮阳市,环保局,,26,19,11,9,6,81,,99,94,26,15,8,6,0.2,0.1
2024-09-21T2200,2394A,115.0574,35.7609,濮阳市,油田运输公司,,24,24,12,14,7,74,,102,94,25,12,5,4,0.3,0.3
2024-09-21T2200,2395A,115.0866,35.7754,濮阳市,油田物探公司,,31,31,15,18,10,65,,100,89,29,12,4,3,0.2,0.2
2024-09-21T2200,3021A,115,35.7668,濮阳市,濮水河管理处,,25,24,11,17,8,56,,98,90,25,12,5,5,0.2,0.2
2024-09-21T2200,2601A,100.98,22.7633,普洱市,市环保局,,36,36,36,21,20,39,,76,65,9,8,10,10,0.5,0.4
2024-09-21T2200,2602A,100.9817,22.8322,普洱市,普洱第二中学,,46,46,35,15,14,38,,82,68,16,9,9,9,0.7,0.5
2024-09-21T2200,2262A,131.0518,45.8751,七台河市,新一中,,32,32,13,8,13,32,,67,51,6,8,10,9,1.0,1
2024-09-21T2200,3345A,131.0577,45.7879,七台河市,中波台,颗粒物(PM10),51,52,18,16,7,14,,53,35,36,22,6,6,0.5,0.4
2024-09-21T2200,3637A,131.0176,45.7761,七台河市,人民广场,,34,34,23,16,12,14,,52,32,30,19,8,8,0.4,0.3
2024-09-21T2200,3684A,130.8781,45.8222,七台河市,新建矿广场,,27,27,30,18,15,10,,51,33,28,18,7,6,0.7,0.4
2024-09-21T2200,1779A,123.9305,47.3636,齐齐哈尔市,安居小区,,27,27,26,8,11,46,,63,45,19,17,8,8,0.4,0.4
2024-09-21T2200,1780A,123.9488,47.3386,齐齐哈尔市,中心广场,,23,23,21,3,5,51,,58,49,14,18,1,1,0.4,0.4
2024-09-21T2200,1781A,123.9483,47.3227,齐齐哈尔市,农牧车辆厂,,27,27,36,8,10,56,,61,50,8,19,8,8,0.4,0.5
2024-09-21T2200,1783A,123.945,47.2988,齐齐哈尔市,市环境监测站,,36,36,31,16,13,42,,61,51,21,16,8,8,0.3,0.3
2024-09-21T2200,3662A,123.6333,47.2075,齐齐哈尔市,富区青少年活动中心,细颗粒物(PM2.5),78,86,33,57,13,47,,62,56,18,18,17,7,1.2,0.6
2024-09-21T2200,2591A,107.9783,26.5747,黔东南苗族侗族自治州,市环境监测站,,22,22,22,14,17,70,,60,60,8,10,4,4,0.5,0.5
2024-09-21T2200,2881A,107.8908,26.5311,黔东南苗族侗族自治州,凯里学院,,21,14,19,14,17,66,,62,58,10,9,2,2,0.6,0.6
2024-09-21T2200,2593A,107.5228,26.2403,黔南布依族苗族自治州,小围寨,,17,17,15,7,10,52,,62,50,3,6,5,4,0.5,0.5
2024-09-21T2200,3538A,107.5175,26.2978,黔南布依族苗族自治州,沙坝,,22,19,20,9,13,68,,64,58,3,5,3,4,0.5,0.5
2024-09-21T2200,2589A,104.9022,25.0925,黔西南布依族苗族自治州,场坝街,,39,39,34,20,21,64,,88,86,14,15,10,18,0.3,0.3
2024-09-21T2200,2590A,104.8811,25.0992,黔西南布依族苗族自治州,坪东大道,,25,21,25,17,20,41,,89,80,18,14,6,7,0.3,0.3
2024-09-21T2200,2502A,108.6236,21.9667,钦州市,市环保站,,17,17,38,3,20,48,,89,74,8,16,6,8,0.6,0.7
2024-09-21T2200,2503A,108.6549,21.9481,钦州市,沙埠小学,,20,19,47,14,32,43,,94,77,17,22,5,6,1.0,0.9
2024-09-21T2200,2504A,108.5989,21.7431,钦州市,港区一小,,29,29,58,18,27,40,,98,74,23,30,6,6,0.7,0.7
2024-09-21T2200,3404A,108.5959,21.9633,钦州市,北职校,,23,23,40,16,27,44,,92,76,9,14,4,6,0.7,0.8
2024-09-21T2200,1042A,119.5134,39.8207,秦皇岛市,北戴河环保局,,18,,14,12,8,53,,72,68,18,11,2,2,0.5,0.4
2024-09-21T2200,1043A,119.7493,40.0116,秦皇岛市,第一关,,28,,14,19,15,29,,68,59,51,15,3,3,0.3,0.2
2024-09-21T2200,1044A,119.5897,39.9499,秦皇岛市,监测站,,37,37,16,24,16,45,,69,63,18,6,3,3,0.4,0.3
2024-09-21T2200,1046A,119.5251,39.9041,秦皇岛市,建设大厦,,32,,19,22,9,37,,74,63,28,7,2,2,0.3,0.3
2024-09-21T2200,3132A,119.610547,39.943889,秦皇岛市,文明里,,19,18,22,13,10,59,,74,69,15,8,1,2,0.5,0.4
2024-09-21T2200,1307A,120.6659,36.2403,青岛市,仰口,,30,20,23,9,11,94,,96,94,4,4,6,6,0.5,0.4
2024-09-21T2200,1310A,120.4134,36.0658,青岛市,市南区东部子站,,31,31,45,3,10,76,,83,79,18,15,6,6,0.4,0.4
2024-09-21T2200,1311A,120.3664,36.1032,青岛市,四方区子站,,31,31,48,9,10,70,,84,79,20,14,9,9,0.4,0.4
2024-09-21T2200,1312A,120.2994,36.054,青岛市,市南区西部子站,,29,29,15,7,10,83,,87,85,12,11,8,10,0.5,0.5
2024-09-21T2200,1313A,120.4581,36.0858,青岛市,崂山区子站,,27,22,32,3,4,84,,84,82,11,11,8,8,0.4,0.5
2024-09-21T2200,1314A,120.1983,35.9608,青岛市,黄岛区子站,,27,27,34,3,8,73,,78,76,19,18,9,8,0.3,0.3
2024-09-21T2200,1315A,120.3999,36.3083,青岛市,城阳区子站,,27,27,31,7,8,73,,86,80,20,14,8,7,0.5,0.5
2024-09-21T2200,1966A,120.0405,35.8735,青岛市,黄岛区4号,,24,24,37,3,5,73,,79,76,13,10,7,5,0.4,0.4
2024-09-21T2200,3362A,120.5014,36.4034,青岛市,即墨2号,,29,29,31,9,8,69,,80,77,10,7,8,6,0.4,0.3
2024-09-21T2200,3642A,120.3503,36.0736,青岛市,市北区南部,,34,34,30,3,7,73,,80,77,18,19,7,7,0.4,0.5
2024-09-21T2200,3643A,120.3948,36.1805,青岛市,李沧区北部,,23,22,38,12,10,73,,78,77,18,15,9,8,0.5,0.5
2024-09-21T2200,1702A,113.0426,23.691,清远市,环保大楼,,16,,17,11,12,43,,70,56,6,10,7,7,0.8,0.8
2024-09-21T2200,1703A,113.0208,23.7106,清远市,凤城街办,,11,11,15,3,11,35,,56,45,7,8,6,7,0.7,0.7
2024-09-21T2200,3025A,113.0477,23.6344,清远市,技师学院,,14,14,18,8,10,39,,59,37,6,13,5,6,0.7,0.8
2024-09-21T2200,3318A,112.9903,23.7403,清远市,清新太和,,15,15,16,7,9,41,,56,41,8,8,2,2,0.7,0.7
2024-09-21T2200,3455A,113.076,23.7198,清远市,清城东城,,14,9,21,3,14,42,,64,49,1,6,2,2,0.7,0.7
2024-09-21T2200,2661A,107.6325,35.7357,庆阳市,庆阳五中,,34,34,26,17,11,91,,108,104,9,5,8,6,0.3,0.3
2024-09-21T2200,2662A,107.6364,35.7067,庆阳市,市环保局,,41,41,26,16,11,86,,109,101,16,8,6,6,0.3,0.3
2024-09-21T2200,1916A,103.7897,25.5035,曲靖市,环境监测站,,,32,35,12,16,,,79,72,21,16,12,8,1.0,0.9
2024-09-21T2200,1917A,103.8,25.5364,曲靖市,烟厂办公区,,39,39,33,23,18,45,,80,73,27,14,7,6,1.1,0.9
2024-09-21T2200,3376A,103.7947,25.462,曲靖市,南苑二区,,23,23,30,15,18,62,,81,74,13,14,9,12,0.8,1
2024-09-21T2200,3377A,103.7444,25.5261,曲靖市,曲靖师范学院,,34,34,26,15,21,66,,83,72,10,14,9,13,0.6,0.9
2024-09-21T2200,1264A,118.8692,28.9398,衢州市,环保大楼,,15,15,18,7,9,46,,57,50,12,18,2,2,0.6,0.6
2024-09-21T2200,1265A,118.8709,28.9666,衢州市,实验学校,,13,12,18,7,9,39,,50,45,9,16,5,5,0.5,0.5
2024-09-21T2200,1266A,118.8621,28.9808,衢州市,衢州学院,,12,7,10,7,10,38,,48,40,14,20,6,5,0.5,0.5
2024-09-21T2200,1611A,118.5819,24.9117,泉州市,涂山街,,26,26,22,18,12,48,,106,88,14,11,2,2,0.5,0.7
2024-09-21T2200,1612A,118.5972,24.8978,泉州市,津头埔,,29,29,22,19,11,64,,99,82,17,12,4,4,0.6,0.5
2024-09-21T2200,1613A,118.6663,24.9424,泉州市,万安,,35,30,23,24,12,46,,107,86,23,8,2,2,0.7,0.7
2024-09-21T2200,3529A,118.6333,24.9264,泉州市,城华南路,,40,40,20,14,11,45,,100,79,21,7,3,3,0.4,0.4
2024-09-21T2200,2626A,88.8876,29.2718,日喀则市,日喀则监测站,,18,12,8,3,4,57,,86,76,18,9,3,5,0.5,0.4
2024-09-21T2200,3726A,88.8781,29.2426,日喀则市,林业技术推广中心,,19,19,7,11,6,48,,83,72,15,8,6,6,0.6,0.6
2024-09-21T2200,1659A,119.471,35.4209,日照市,监测站,,25,22,23,10,8,77,,82,80,14,10,12,10,0.2,0.3
2024-09-21T2200,1660A,119.523,35.4216,日照市,市政府广场,,28,24,22,7,5,89,,87,87,13,11,11,10,0.4,0.4
2024-09-21T2200,1661A,119.5587,35.4044,日照市,港务局,,29,29,21,9,10,87,,87,87,14,8,10,7,0.4,0.4
2024-09-21T2200,3507A,119.5328,35.4625,日照市,职业技术学院,,26,22,24,3,5,83,,84,84,10,8,10,8,0.4,0.4
2024-09-21T2200,3604A,119.3266,35.1044,日照市,岚山环保分局,,34,34,28,8,8,66,,86,81,27,14,32,15,2.2,0.7
2024-09-21T2200,1835A,111.1922,34.7752,三门峡市,市政府,,50,50,23,9,9,27,,113,93,56,19,11,11,0.6,0.5
2024-09-21T2200,1836A,111.1587,34.7942,三门峡市,开发区,颗粒物(PM10),56,62,24,39,10,72,,101,98,15,12,13,8,0.4,0.3
2024-09-21T2200,3039A,111.1911,34.7829,三门峡市,三门峡市第一小学,,38,38,24,19,9,71,,112,105,18,14,10,8,0.6,0.5
2024-09-21T2200,3598A,111.1,34.7167,三门峡市,富达温泉假日酒店,颗粒物(PM10),51,51,33,19,10,58,,108,99,24,15,8,10,0.4,0.4
2024-09-21T2200,2324A,117.6211,26.2625,三明市,三钢,,14,12,19,7,12,44,,74,58,7,10,6,6,0.5,0.7
2024-09-21T2200,2325A,117.635,26.2714,三明市,三明二中,,15,,17,9,9,45,,74,59,6,8,2,3,0.4,0.5
2024-09-21T2200,2326A,117.6028,26.2378,三明市,三元区政府,,15,15,26,10,11,48,,71,57,8,14,3,4,0.6,0.7
2024-09-21T2200,1876A,109.5078,18.2489,三亚市,河东子站,,10,9,15,7,8,22,,51,38,11,7,3,3,0.3,0.3
2024-09-21T2200,1877A,109.4964,18.2681,三亚市,河西子站,,10,10,14,3,6,27,,49,37,7,8,3,3,0.4,0.4
2024-09-21T2200,3540A,109.7348,18.3443,三亚市,君悦子站,,15,15,19,3,6,26,,49,37,8,9,3,3,0.3,0.3
2024-09-21T2200,2624A,91.7608,29.2313,山南市,山南监测站,,23,6,8,3,6,73,,90,86,6,5,8,8,0.2,0.3
2024-09-21T2200,2625A,91.7706,29.2436,山南市,山南人民医院,,24,18,14,9,6,74,,90,88,11,8,8,8,0.3,0.4
2024-09-21T2200,1674A,116.6794,23.3667,汕头市,金平子站,,20,6,14,3,5,62,,75,67,2,3,4,4,0.7,0.7
2024-09-21T2200,1675A,116.7244,23.3633,汕头市,龙湖子站,,19,,12,3,6,59,,67,62,4,2,6,6,0.5,0.5
2024-09-21T2200,1676A,116.7258,23.2775,汕头市,濠江子站,,17,,10,7,4,52,,64,61,11,5,6,6,0.6,0.6
2024-09-21T2200,1677A,116.7519,23.4714,汕头市,澄海子站,,22,12,12,3,6,70,,77,66,8,7,6,5,0.7,0.6
2024-09-21T2200,1678A,116.6092,23.2539,汕头市,潮阳子站,,18,11,10,3,4,57,,70,67,4,2,5,5,0.6,0.6
2024-09-21T2200,3444A,116.454,23.2684,汕头市,潮南峡山,,18,11,8,3,4,56,,71,65,3,2,6,5,0.6,0.6
2024-09-21T2200,3624A,116.4069,23.2533,汕头市,潮南子站,,22,22,16,9,4,49,,68,59,12,9,7,6,0.6,0.6
2024-09-21T2200,1693A,115.3653,22.775,汕尾市,市环保局,,16,9,8,6,4,51,,55,50,7,5,7,7,0.6,0.6
2024-09-21T2200,1694A,115.3706,22.7898,汕尾市,市政府,,13,9,8,3,4,41,,54,48,9,8,8,7,0.4,0.4
2024-09-21T2200,1695A,115.3622,22.7925,汕尾市,新城中学,,,25,15,12,4,,,54,49,9,6,6,6,0.5,0.6
2024-09-21T2200,2645A,109.9154,33.8715,商洛市,监测站,,32,32,19,14,11,52,,86,79,22,11,5,4,0.4,0.4
2024-09-21T2200,3045A,109.9643,33.8471,商洛市,商州区中学,,33,33,27,9,5,18,,87,76,58,14,5,5,0.6,0.5
2024-09-21T2200,2408A,115.6702,34.4285,商丘市,环境监测站,,30,30,23,14,10,81,,102,99,21,13,4,4,0.3,0.3
2024-09-21T2200,2409A,115.6458,34.4045,商丘市,粮食局,,30,28,22,18,14,95,,114,112,11,7,8,8,0.5,0.4
2024-09-21T2200,2410A,115.6293,34.3948,商丘市,睢阳区环保局,,34,34,26,14,11,91,,108,106,14,8,8,7,0.3,0.3
2024-09-21T2200,3171A,115.6071,34.4465,商丘市,梁园区档案局,,29,29,22,17,12,92,,110,107,16,9,9,8,0.3,0.3
2024-09-21T2200,1141A,121.4,31.238,上海市,普陀,,39,39,21,13,9,67,,57,57,16,17,5,4,0.6,0.7
2024-09-21T2200,1142A,121.478,31.2036,上海市,十五厂,颗粒物(PM10),52,53,21,16,12,64,,61,61,27,20,8,8,0.4,0.5
2024-09-21T2200,1143A,121.467,31.3008,上海市,虹口,,33,33,17,12,10,65,,60,60,21,17,9,9,0.6,0.7
2024-09-21T2200,1144A,121.412,31.1654,上海市,徐汇上师大,,33,33,18,16,13,72,,61,61,20,21,6,6,0.6,0.7
2024-09-21T2200,1145A,121.536,31.2659,上海市,杨浦四漂,,33,33,19,9,10,80,,68,68,14,16,7,6,0.4,0.5
2024-09-21T2200,1147A,121.425,31.2261,上海市,静安监测站,,40,40,20,15,10,65,,57,57,23,19,6,5,0.4,0.4
2024-09-21T2200,1148A,121.703,31.1907,上海市,浦东川沙,,39,39,17,10,5,75,,59,59,18,19,7,6,0.7,0.7
2024-09-21T2200,1149A,121.533,31.2284,上海市,浦东新区监测站,,23,23,18,12,12,72,,61,61,20,20,9,7,0.7,0.7
2024-09-21T2200,1150A,121.577,31.2071,上海市,浦东张江,,24,24,16,12,8,72,,61,61,18,19,5,5,0.5,0.7
2024-09-21T2200,3265A,121.4316,31.3322,上海市,宝山庙行,,36,36,16,17,6,66,,63,63,22,18,8,7,0.6,0.6
2024-09-21T2200,3266A,121.8791,31.4662,上海市,崇明上实东滩,,24,21,13,9,8,74,,71,71,6,11,9,9,0.5,0.6
2024-09-21T2200,3268A,121.3162,31.2838,上海市,嘉定南翔,,30,30,17,10,8,75,,64,64,15,18,6,6,0.7,0.8
2024-09-21T2200,3269A,121.3359,30.7456,上海市,金山新城,,26,26,19,14,11,67,,55,55,15,16,5,5,0.5,0.5
2024-09-21T2200,3270A,121.4996,31.0739,上海市,闵行浦江,,26,26,16,13,8,66,,58,58,22,24,6,5,0.7,0.8
2024-09-21T2200,3271A,121.2886,31.1663,上海市,青浦徐泾,,34,34,19,16,10,75,,65,65,19,19,7,6,0.5,0.5
2024-09-21T2200,3272A,121.2186,31.0378,上海市,松江图书馆,,43,43,21,11,8,75,,61,61,17,16,4,4,0.4,0.5
2024-09-21T2200,3273A,121.3902,31.2059,上海市,长宁仙霞,,41,41,21,15,10,73,,60,60,17,19,8,7,0.7,0.9
2024-09-21T2200,3274A,121.7965,31.0507,上海市,浦东惠南,,27,27,19,12,9,74,,57,57,19,19,8,8,0.6,0.7
2024-09-21T2200,3544A,121.4891,30.925,上海市,奉贤南桥新城,,31,31,19,10,9,69,,57,57,20,19,8,8,0.5,0.6
2024-09-21T2200,2381A,118.005,28.4572,上饶市,百草园,,21,21,34,14,24,32,,42,40,16,12,1,13,0.8,0.6
2024-09-21T2200,2382A,117.9756,28.4436,上饶市,市监测站,,23,23,39,8,25,32,,49,45,20,16,6,39,0.7,0.7
2024-09-21T2200,2383A,117.9519,28.4628,上饶市,凤凰光学,,18,18,34,3,22,32,,43,40,18,16,4,51,0.8,0.8
2024-09-21T2200,3413A,118.1953,28.4401,上饶市,广丰区教体局,,20,20,19,8,10,42,,55,51,12,12,9,13,1.1,1
2024-09-21T2200,3685A,117.897,28.4315,上饶市,双创科技城,,18,18,35,6,19,34,,45,42,16,19,2,40,0.6,0.6
2024-09-21T2200,1669A,113.5824,24.7733,韶关市,市八中,,12,12,12,7,8,28,,56,46,2,3,11,10,0.6,0.6
2024-09-21T2200,1671A,113.5917,24.7972,韶关市,园林处,,25,19,14,17,11,30,,54,44,4,4,9,9,0.5,0.6
2024-09-21T2200,1672A,113.6735,24.7791,韶关市,韶关学院,,15,12,17,10,12,29,,56,46,10,9,7,8,0.3,0.4
2024-09-21T2200,1673A,113.5971,24.6863,韶关市,曲江监测站,,19,19,17,11,10,24,,62,50,13,11,10,12,0.4,0.6
2024-09-21T2200,3622A,113.5556,24.8082,韶关市,碧湖山庄,,13,13,16,8,9,32,,56,44,4,5,10,10,0.4,0.5
2024-09-21T2200,2462A,111.5239,27.3033,邵阳市,市水土所,,28,28,23,18,18,78,,78,78,5,4,7,6,0.5,0.6
2024-09-21T2200,2463A,111.4733,27.2317,邵阳市,市一中,,32,28,25,12,15,100,,84,84,6,5,6,5,0.6,0.6
2024-09-21T2200,2464A,111.5283,27.2442,邵阳市,市化工厂,,31,28,24,12,15,98,,82,82,8,7,6,6,0.6,0.6
2024-09-21T2200,2465A,111.4503,27.2537,邵阳市,市罐头厂,,31,31,25,11,18,92,,86,86,6,5,6,5,0.5,0.5
2024-09-21T2200,2466A,111.4328,27.2272,邵阳市,市环保局,,31,31,24,13,15,98,,88,88,5,4,4,3,0.6,0.6
2024-09-21T2200,1247A,120.6053,29.9928,绍兴市,城东开发委,,,29,23,12,11,,,50,50,,16,,6,,0.6
2024-09-21T2200,2921A,120.5483,30.0003,绍兴市,树下王站,,17,17,17,3,7,54,,48,48,10,14,4,4,0.6,0.6
2024-09-21T2200,3408A,120.5683,29.9361,绍兴市,绍兴中专,,23,23,27,15,14,58,,55,55,11,17,3,3,0.6,0.6
2024-09-21T2200,3409A,120.4906,30.0861,绍兴市,柯桥区政府,,24,24,18,11,8,62,,55,55,13,16,6,6,0.6,0.7
2024-09-21T2200,3410A,120.8752,30.0249,绍兴市,重华小学,,22,22,25,11,14,66,,53,53,14,21,10,10,0.7,0.8
2024-09-21T2200,3411A,120.8369,30.0137,绍兴市,上虞中学,,24,24,27,13,15,58,,51,51,11,19,5,7,0.7,0.7
2024-09-21T2200,3560A,120.4722,30.0415,绍兴市,柯桥妇保,,25,25,26,8,5,64,,56,56,10,14,7,7,0.5,0.6
2024-09-21T2200,3658A,120.6153,30.0764,绍兴市,袍江中学,,28,28,22,10,9,52,,50,50,17,17,6,5,0.6,0.7
2024-09-21T2200,1356A,114.1063,22.5545,深圳市,通心岭子站,,12,12,13,3,7,24,,40,38,20,18,4,4,0.5,0.6
2024-09-21T2200,1357A,114.117,22.5625,深圳市,洪湖,,25,25,15,9,7,4,,38,32,45,28,7,7,0.5,0.5
2024-09-21T2200,1358A,113.987,22.5417,深圳市,华侨城,,16,16,18,3,4,24,,40,36,14,18,7,7,0.7,0.7
2024-09-21T2200,1359A,113.9181,22.5171,深圳市,南海子站,,18,18,16,6,8,38,,47,46,21,26,7,7,0.5,0.5
2024-09-21T2200,1360A,114.2458,22.5689,深圳市,盐田,,,14,21,3,6,,,28,22,31,23,8,8,0.5,0.6
2024-09-21T2200,1361A,114.2283,22.7244,深圳市,龙岗,,14,14,23,6,13,27,,47,40,19,23,6,6,0.6,0.6
2024-09-21T2200,1363A,114.494,22.5422,深圳市,南澳,,11,7,12,3,4,33,,54,45,3,7,6,6,0.3,0.3
2024-09-21T2200,1364A,114.41,22.6342,深圳市,葵涌,,11,8,11,3,6,34,,51,44,8,14,7,7,0.5,0.5
2024-09-21T2200,1365A,114.297,22.5978,深圳市,梅沙,,12,12,13,3,3,32,,54,48,5,9,6,6,0.3,0.4
2024-09-21T2200,1366A,114.0678,22.738,深圳市,观澜,,24,24,20,11,9,24,,45,36,25,26,6,6,0.5,0.5
2024-09-21T2200,3305A,114.0731,22.559,深圳市,莲花,,22,22,17,7,8,12,,35,28,15,16,4,4,0.4,0.4
2024-09-21T2200,3306A,114.0261,22.6198,深圳市,民治,,20,19,14,12,7,12,,39,31,40,28,6,6,0.5,0.5
2024-09-21T2200,3307A,114.1871,22.6451,深圳市,横岗,,12,12,17,8,12,32,,43,36,17,36,6,6,0.6,0.7
2024-09-21T2200,3447A,114.3551,22.7151,深圳市,坪山,,12,7,18,6,27,38,,44,40,7,19,6,6,0.5,0.6
2024-09-21T2200,3623A,113.8953,22.5861,深圳市,西乡,,15,15,17,3,6,20,,36,26,24,24,4,5,0.5,0.5
2024-09-21T2200,1099A,123.505,41.7406,沈阳市,浑南东路,,20,20,18,8,7,33,,64,53,34,22,9,9,0.4,0.4
2024-09-21T2200,1100A,123.4231,41.6989,沈阳市,新秀街,,15,15,17,7,8,44,,62,56,21,16,9,8,0.4,0.4
2024-09-21T2200,1102A,123.5903,41.8411,沈阳市,东陵路,,25,25,17,6,6,17,,61,44,34,21,8,8,0.3,0.3
