timepoint,stationcode,longitude,latitude,area,positionname,primarypollutant,aqi,pm10,pm10_24h,pm2_5,pm2_5_24h,o3,o3_24h,o3_8h,o3_8h_24h,no2,no2_24h,so2,so2_24h,co,co_24h
2023-01-01T21:00:00,1001A,116.3621,39.8784,北京市,万寿西宫,颗粒物(PM10),53,55,33,32,18,48,1,45,28,68,31,3,3,0.8,0.5
2023-01-01T21:00:00,1002A,116.2202,40.2915,北京市,定陵(对照点),,29,29,31,16,18,54,44,54,43,10,13,2,3,0.3,0.3
2023-01-01T21:00:00,1003A,116.4174,39.9289,北京市,东四,颗粒物(PM10),54,58,35,33,17,49,14,44,32,37,24,2,2,0.8,0.4
2023-01-01T21:00:00,1004A,116.4072,39.8863,北京市,天坛,,49,49,33,29,18,51,7,46,33,57,32,2,3,0.8,0.6
2023-01-01T21:00:00,1005A,116.462,39.9365,北京市,农展馆,,40,40,34,18,13,55,19,49,43,48,37,1,2,0.5,0.4
2023-01-01T21:00:00,1006A,116.3392,39.9295,北京市,官园,,34,34,31,19,16,55,18,52,36,47,28,4,4,0.6,0.3
2023-01-01T21:00:00,1007A,116.2878,39.9611,北京市,海淀万柳,,49,49,38,22,17,46,3,40,27,63,44,1,1,0.5,0.4
2023-01-01T21:00:00,1008A,116.6636,40.135,北京市,顺义新城,,36,36,28,24,12,73,25,66,54,41,14,2,2,0.4,0.3
2023-01-01T21:00:00,1009A,116.6275,40.3275,北京市,怀柔镇,,42,42,27,25,15,64,20,56,49,38,16,3,2,0.4,0.2
2023-01-01T21:00:00,1010A,116.2296,40.217,北京市,昌平镇,,31,31,37,18,22,54,27,46,45,26,31,2,3,0.3,0.6
2023-01-01T21:00:00,1011A,116.3966,39.9821,北京市,奥体中心,颗粒物(PM10),61,71,48,14,14,59,18,53,42,49,29,2,3,0.4,0.2
2023-01-01T21:00:00,1012A,116.184,39.9136,北京市,古城,颗粒物(PM10),69,88,54,37,24,55,3,44,30,62,40,5,2,0.9,0.6
2023-01-01T21:00:00,1015A,117.1444,39.1661,天津市,勤俭道,细颗粒物(PM2.5),117,152,122,88,77,35,2,21,18,72,64,15,13,1.5,1.3
2023-01-01T21:00:00,1017A,117.237,39.1082,天津市,大直沽八号路,"颗粒物(PM10),细颗粒物(PM2.5)",89,127,108,66,58,40,2,22,18,76,67,14,14,1.5,1.4
2023-01-01T21:00:00,1018A,117.202,39.0927,天津市,前进道,细颗粒物(PM2.5),82,112,103,60,58,36,7,26,22,75,68,12,14,1.2,1.3
2023-01-01T21:00:00,1019A,117.1837,39.2133,天津市,淮河道,细颗粒物(PM2.5),139,169,119,106,73,37,6,23,18,72,66,16,13,1.7,1.3
2023-01-01T21:00:00,1021A,117.307,39.0877,天津市,跃进路,细颗粒物(PM2.5),129,161,123,98,75,38,1,18,14,68,61,12,15,1.0,1.2
2023-01-01T21:00:00,1023A,117.707,39.0343,天津市,第四大街,细颗粒物(PM2.5),225,276,103,175,57,12,3,8,5,69,66,11,13,0.9,1.1
2023-01-01T21:00:00,1024A,117.457,38.8394,天津市,永明路,细颗粒物(PM2.5),90,114,124,67,83,40,5,25,23,75,71,14,15,0.6,1
2023-01-01T21:00:00,1026A,117.764,39.1587,天津市,汉北路,颗粒物(PM10),83,116,91,58,44,26,1,17,10,62,53,7,11,1.0,1.1
2023-01-01T21:00:00,1027A,117.157,38.9194,天津市,团泊洼(对照点),颗粒物(PM10),61,71,127,40,82,73,0,19,16,71,67,9,16,0.7,1.5
2023-01-01T21:00:00,1029A,114.4422,38.0444,石家庄市,职工医院,细颗粒物(PM2.5),120,143,128,91,77,38,6,28,22,78,65,10,13,1.2,1.3
2023-01-01T21:00:00,1030A,114.6063,38.0266,石家庄市,高新区,细颗粒物(PM2.5),107,131,131,80,86,41,9,30,23,66,62,10,15,0.9,1.1
2023-01-01T21:00:00,1031A,114.4898,38.1328,石家庄市,西北水源,细颗粒物(PM2.5),128,168,131,97,77,34,4,21,15,85,68,15,13,1.2,1.1
2023-01-01T21:00:00,1032A,114.4586,38.0058,石家庄市,西南高教,细颗粒物(PM2.5),119,116,124,90,90,33,4,25,18,74,66,11,15,0.9,1
2023-01-01T21:00:00,1033A,114.5331,38.0178,石家庄市,世纪公园,细颗粒物(PM2.5),107,104,114,80,83,26,5,22,14,71,67,12,15,0.9,1.2
2023-01-01T21:00:00,1034A,114.509,38.0457,石家庄市,人民会堂,细颗粒物(PM2.5),117,133,124,88,85,37,7,28,20,70,65,8,10,0.9,1.1
2023-01-01T21:00:00,1035A,114.3524,37.8911,石家庄市,封龙山(对照点),细颗粒物(PM2.5),138,162,95,105,62,75,17,68,33,102,57,5,9,1.5,1.4
2023-01-01T21:00:00,1037A,118.131,39.6363,唐山市,雷达站,细颗粒物(PM2.5),113,121,81,85,43,48,3,36,23,52,38,10,19,0.9,1.5
2023-01-01T21:00:00,1038A,118.1725,39.6334,唐山市,物资局,细颗粒物(PM2.5),72,87,80,52,40,43,0,26,17,76,60,11,22,0.9,1.6
2023-01-01T21:00:00,1040A,118.1705,39.6506,唐山市,十二中,细颗粒物(PM2.5),107,102,76,80,47,47,2,34,25,74,60,8,18,1.0,1.5
2023-01-01T21:00:00,1041A,118.1869,39.622,唐山市,小山,细颗粒物(PM2.5),84,113,84,62,41,45,0,32,22,75,58,13,25,1.2,1.5
2023-01-01T21:00:00,1042A,119.5134,39.8207,秦皇岛市,北戴河环保局,,,,58,,33,61,34,53,52,28,37,4,14,,0.2
2023-01-01T21:00:00,1043A,119.7493,40.0116,秦皇岛市,第一关,,,44,35,27,30,65,8,56,45,80,39,6,12,0.6,0.5
2023-01-01T21:00:00,1044A,119.5897,39.9499,秦皇岛市,监测站,颗粒物(PM10),67,83,64,46,38,62,5,54,41,58,34,9,14,0.7,0.7
2023-01-01T21:00:00,1046A,119.5251,39.9041,秦皇岛市,建设大厦,颗粒物(PM10),77,103,69,41,24,58,6,51,40,59,41,9,12,1.0,0.8
2023-01-01T21:00:00,1048A,114.5302,36.6116,邯郸市,东污水处理厂,细颗粒物(PM2.5),210,206,172,160,130,48,6,34,28,106,80,22,21,0.6,0.9
2023-01-01T21:00:00,1049A,114.4918,36.5713,邯郸市,矿院,细颗粒物(PM2.5),208,181,162,158,129,43,9,35,33,97,74,20,18,1.6,1.9
2023-01-01T21:00:00,1050A,114.484,36.6133,邯郸市,丛台公园,细颗粒物(PM2.5),210,191,150,160,123,44,4,38,34,94,67,18,20,1.4,1.7
2023-01-01T21:00:00,1051A,115.493,38.8632,保定市,游泳馆,细颗粒物(PM2.5),68,73,76,49,53,37,6,30,17,81,70,10,11,0.9,1
2023-01-01T21:00:00,1052A,115.5213,38.8959,保定市,华电二区,颗粒物(PM10),75,99,78,45,52,34,4,25,15,69,59,13,12,1.0,1
2023-01-01T21:00:00,1053A,115.4713,38.9108,保定市,接待中心,颗粒物(PM10),67,84,81,46,48,32,2,25,13,65,57,8,10,0.8,0.8
2023-01-01T21:00:00,1054A,115.4612,38.8416,保定市,地表水厂,颗粒物(PM10),104,158,113,54,52,36,9,29,16,87,68,10,9,0.9,0.7
2023-01-01T21:00:00,1056A,115.5086,38.8639,保定市,监测站,细颗粒物(PM2.5),70,86,84,51,51,34,6,28,15,72,62,11,10,0.4,0.4
2023-01-01T21:00:00,1057A,114.8883,40.8336,张家口市,人民公园,,22,21,24,4,10,74,69,70,70,4,9,5,8,0.3,0.5
2023-01-01T21:00:00,1059A,114.8687,40.8042,张家口市,五金库,,21,17,17,7,14,68,66,66,66,10,13,11,11,0.2,0.3
2023-01-01T21:00:00,1060A,114.8902,40.762,张家口市,世纪豪园,,26,26,29,8,13,67,66,64,64,11,14,2,3,0.2,0.3
2023-01-01T21:00:00,1061A,114.8916,40.8661,张家口市,北泵房(对照点),,32,27,26,22,18,80,61,73,71,14,9,32,12,0.5,0.5
2023-01-01T21:00:00,1062A,117.9531,40.9081,承德市,铁路,,35,32,41,24,25,53,36,40,39,39,34,8,11,0.4,0.6
2023-01-01T21:00:00,1063A,117.9392,40.9763,承德市,中国银行,,23,23,46,16,26,67,58,54,50,16,33,6,7,0.3,0.6
2023-01-01T21:00:00,1064A,117.9503,40.928,承德市,开发区,,25,25,58,16,34,71,71,64,64,12,35,3,6,0.4,0.7
2023-01-01T21:00:00,1065A,117.8051,40.9655,承德市,文化中心,颗粒物(PM10),59,67,72,40,38,66,19,46,41,44,35,16,16,0.7,0.9
2023-01-01T21:00:00,1066A,117.9268,41.0026,承德市,离宫(对照点),,20,9,25,14,19,68,63,59,59,4,15,7,9,0.2,0.4
2023-01-01T21:00:00,1067A,116.6708,39.5111,廊坊市,药材公司,细颗粒物(PM2.5),178,207,78,134,43,50,8,42,29,77,61,13,11,1.7,1
2023-01-01T21:00:00,1068A,116.7214,39.5589,廊坊市,开发区,细颗粒物(PM2.5),87,101,68,64,43,55,10,46,37,72,63,16,12,1.3,1
2023-01-01T21:00:00,1070A,116.7244,39.5269,廊坊市,北华航天学院,细颗粒物(PM2.5),118,132,76,89,42,52,5,38,30,92,67,16,13,1.8,1
2023-01-01T21:00:00,1071A,116.8842,38.2991,沧州市,沧县城建局,细颗粒物(PM2.5),140,153,197,107,145,46,8,29,23,80,82,22,22,1.8,1.9
2023-01-01T21:00:00,1072A,116.8584,38.3254,沧州市,电视转播站,细颗粒物(PM2.5),99,117,157,74,123,49,10,31,24,75,83,15,17,1.3,1.6
2023-01-01T21:00:00,1073A,116.8709,38.3228,沧州市,市环保局,细颗粒物(PM2.5),102,129,164,76,120,41,5,26,18,83,89,18,19,1.5,1.6
2023-01-01T21:00:00,1074A,115.6838,37.7541,衡水市,电机北厂,细颗粒物(PM2.5),206,205,172,156,126,41,0,27,22,,90,16,24,1.4,1.3
2023-01-01T21:00:00,1075A,115.6303,37.7316,衡水市,市监测站,细颗粒物(PM2.5),192,196,184,144,124,36,3,21,19,94,81,16,19,2.0,2
2023-01-01T21:00:00,1077A,114.4704,37.0886,邢台市,达活泉,细颗粒物(PM2.5),216,219,142,166,103,33,4,26,16,81,55,13,9,1.5,1.2
2023-01-01T21:00:00,1078A,114.5062,37.0349,邢台市,邢师高专,细颗粒物(PM2.5),205,177,120,155,101,34,6,26,18,96,67,16,13,1.3,1
2023-01-01T21:00:00,1079A,114.5237,37.0851,邢台市,路桥公司,细颗粒物(PM2.5),210,187,120,160,100,34,2,26,16,72,56,16,12,1.3,1.1
2023-01-01T21:00:00,1080A,114.4725,37.0719,邢台市,市环保局,细颗粒物(PM2.5),213,218,127,163,95,31,3,25,16,81,59,14,10,1.6,1.3
2023-01-01T21:00:00,1081A,112.522,37.8873,太原市,尖草坪,细颗粒物(PM2.5),74,80,69,54,43,51,7,38,29,81,62,28,21,0.8,0.8
2023-01-01T21:00:00,1083A,112.434,38.0108,太原市,上兰(对照点),,,,,,,,,,,,,,,,
2023-01-01T21:00:00,1084A,112.469,37.7124,太原市,晋源,细颗粒物(PM2.5),77,92,92,56,59,63,5,36,29,75,66,20,20,1.8,1.5
2023-01-01T21:00:00,1085A,112.5583,37.7394,太原市,小店,细颗粒物(PM2.5),87,122,115,64,62,36,3,22,17,90,75,32,27,2.1,1.6
2023-01-01T21:00:00,1086A,112.5369,37.8692,太原市,桃园,细颗粒物(PM2.5),83,105,84,61,48,38,2,26,23,83,68,27,27,1.0,1.1
2023-01-01T21:00:00,1087A,112.57,37.8195,太原市,坞城,细颗粒物(PM2.5),69,77,81,50,50,41,35,29,24,57,74,26,39,0.8,1.7
2023-01-01T21:00:00,1088A,112.549,37.9854,太原市,南寨,细颗粒物(PM2.5),88,103,83,65,44,56,4,36,22,77,56,24,14,0.7,0.7
2023-01-01T21:00:00,1089A,112.4783,37.7778,太原市,金胜(停运211219),,,,,,,,,,,,,,,,
2023-01-01T21:00:00,1090A,111.6507,40.7517,呼和浩特市,呼市一监,,48,48,102,18,80,59,56,48,48,14,47,7,25,0.5,1.2
2023-01-01T21:00:00,1091A,111.6572,40.8033,呼和浩特市,小召,颗粒物(PM10),53,56,89,18,79,45,44,40,40,29,54,21,37,0.4,1.1
2023-01-01T21:00:00,1094A,111.7516,40.8369,呼和浩特市,如意水处理厂,,39,39,85,14,48,78,55,58,58,31,62,13,17,0.4,0.9
2023-01-01T21:00:00,1095A,111.7276,40.8062,呼和浩特市,二十九中,颗粒物(PM10),56,62,80,18,49,67,47,57,54,23,49,12,20,0.5,0.9
2023-01-01T21:00:00,1096A,111.5512,40.7866,呼和浩特市,工大金川校区,颗粒物(PM10),52,54,125,16,64,55,55,41,41,12,48,8,24,0.3,1
2023-01-01T21:00:00,1097A,111.717,40.7612,呼和浩特市,化肥厂生活区,颗粒物(PM10),66,81,107,42,66,55,22,43,36,58,54,18,25,0.8,1.1
2023-01-01T21:00:00,1098A,123.6836,41.9339,沈阳市,森林路(对照点),,,,,,,,,,,,,,,,
2023-01-01T21:00:00,1099A,123.505,41.7406,沈阳市,浑南东路,,35,35,61,17,41,55,28,49,45,35,40,6,10,0.6,1.1
2023-01-01T21:00:00,1100A,123.4231,41.6989,沈阳市,新秀街,颗粒物(PM10),62,74,43,36,21,59,6,51,43,60,34,23,16,1.1,0.7
2023-01-01T21:00:00,1102A,123.5903,41.8411,沈阳市,东陵路,,48,48,72,31,56,55,5,43,24,51,39,10,12,0.7,0.9
2023-01-01T21:00:00,1103A,123.4264,41.8467,沈阳市,陵东街,,36,36,35,13,18,60,33,55,50,32,34,12,11,0.5,0.6
2023-01-01T21:00:00,1104A,123.4114,41.7653,沈阳市,文化路,,44,44,33,20,20,56,14,51,40,54,32,65,34,0.4,0.5
2023-01-01T21:00:00,1105A,123.4678,41.7867,沈阳市,小河沿,,34,34,35,12,20,58,34,51,46,32,27,12,11,0.4,0.6
2023-01-01T21:00:00,1106A,123.4017,41.7972,沈阳市,太原街,颗粒物(PM10),51,52,47,18,20,57,5,47,34,58,34,27,22,0.7,0.7
2023-01-01T21:00:00,1108A,123.3783,41.9228,沈阳市,京沈街,颗粒物(PM10),52,53,46,24,27,60,40,55,52,25,26,14,17,0.7,0.7
2023-01-01T21:00:00,1109A,121.612,38.9741,大连市,甘井子,,32,24,27,22,26,65,58,60,57,18,26,11,14,0.8,0.9
2023-01-01T21:00:00,1110A,121.565,38.9511,大连市,周水子,,27,27,35,18,25,65,38,54,48,37,37,13,17,0.8,1
2023-01-01T21:00:00,1111A,121.5637,38.8845,大连市,星海三站,,,,,,,,,,,,,,,,
2023-01-01T21:00:00,1112A,121.6302,38.9117,大连市,青泥洼桥,,36,36,46,20,22,62,48,53,50,33,40,12,16,0.7,0.8
2023-01-01T21:00:00,1113A,121.6251,38.8638,大连市,傅家庄,,31,31,41,16,17,60,41,53,48,34,37,16,20,1.0,1.1
2023-01-01T21:00:00,1114A,121.5213,38.8661,大连市,七贤岭,,41,41,32,22,20,73,46,65,59,29,25,14,18,0.7,0.7
2023-01-01T21:00:00,1115A,121.2529,38.8061,大连市,旅顺,,33,33,30,23,21,68,60,66,61,16,18,10,12,0.7,1
2023-01-01T21:00:00,1116A,121.7485,39.1311,大连市,金州,细颗粒物(PM2.5),54,54,45,38,31,66,41,59,55,28,30,11,20,0.6,0.5
2023-01-01T21:00:00,1117A,121.7811,39.0496,大连市,开发区,,45,35,46,31,21,66,48,61,58,35,32,15,15,0.7,0.6
2023-01-01T21:00:00,1118A,121.9762,39.0631,大连市,双D港,,46,28,31,32,21,73,55,66,63,21,20,13,12,0.9,0.8
2023-01-01T21:00:00,1119A,125.3325,43.9166,长春市,食品厂,颗粒物(PM10),85,120,52,48,27,57,29,47,38,31,26,6,8,0.5,0.5
2023-01-01T21:00:00,1120A,125.2863,43.9027,长春市,客车厂,颗粒物(PM10),88,126,50,42,27,56,30,48,39,28,26,11,20,0.4,0.3
2023-01-01T21:00:00,1121A,125.2841,43.8463,长春市,邮电学院,颗粒物(PM10),85,119,46,37,21,60,20,51,40,38,27,16,23,0.5,0.4
2023-01-01T21:00:00,1122A,125.3716,43.8772,长春市,劳动公园,颗粒物(PM10),75,99,41,25,20,59,30,51,41,34,26,26,20,0.2,0.2
2023-01-01T21:00:00,1123A,125.3297,43.8805,长春市,园林处,颗粒物(PM10),79,108,45,31,23,52,20,44,33,42,31,29,22,0.5,0.4
2023-01-01T21:00:00,1124A,125.4605,43.79,长春市,净月潭,颗粒物(PM10),73,96,48,37,23,63,21,54,41,35,24,4,5,0.6,0.5
2023-01-01T21:00:00,1125A,125.7194,43.515,长春市,甩湾子(对照点),,,,,,,,,,,,,,,,
2023-01-01T21:00:00,1126A,125.3863,43.8447,长春市,经开区环卫处,颗粒物(PM10),82,114,41,30,19,56,19,48,38,43,30,27,20,0.5,0.4
2023-01-01T21:00:00,1127A,125.245,43.7783,长春市,高新区管委会,颗粒物(PM10),95,139,45,68,26,62,18,56,40,42,21,7,6,0.6,0.4
2023-01-01T21:00:00,1128A,125.1761,43.8325,长春市,岱山公园,颗粒物(PM10),89,127,50,52,28,67,26,58,42,32,19,6,5,0.6,0.4
2023-01-01T21:00:00,1129A,126.5422,45.755,哈尔滨市,岭北(对照点),细颗粒物(PM2.5),74,75,41,54,32,94,46,71,60,26,19,16,13,0.6,0.6
2023-01-01T21:00:00,1130A,126.561,45.8167,哈尔滨市,松北商大,细颗粒物(PM2.5),55,56,36,39,23,57,9,49,32,50,27,6,16,0.9,0.7
2023-01-01T21:00:00,1131A,126.979,45.5419,哈尔滨市,阿城会宁,细颗粒物(PM2.5),127,104,62,96,49,55,11,48,35,49,29,13,17,1.1,0.7
2023-01-01T21:00:00,1132A,126.599,45.7222,哈尔滨市,南岗学府路,细颗粒物(PM2.5),52,39,37,36,23,61,41,55,50,25,19,3,7,0.7,0.8
2023-01-01T21:00:00,1133A,126.689,45.7733,哈尔滨市,太平宏伟公园,,46,41,35,32,22,59,45,54,48,16,15,12,14,0.5,0.4
2023-01-01T21:00:00,1134A,126.635,45.7667,哈尔滨市,道外承德广场,,46,43,27,32,15,62,48,57,50,22,20,14,11,0.4,0.4
2023-01-01T21:00:00,1135A,126.685,45.7319,哈尔滨市,香坊红旗大街,细颗粒物(PM2.5),53,44,34,37,29,61,45,56,51,27,25,20,20,0.6,0.6
2023-01-01T21:00:00,1136A,126.6411,45.7258,哈尔滨市,动力和平路,,43,43,31,25,19,58,45,54,50,24,23,12,9,0.7,0.7
2023-01-01T21:00:00,1137A,126.593,45.7478,哈尔滨市,道里建国路,颗粒物(PM10),51,52,33,33,26,59,46,53,48,22,20,9,9,0.6,0.6
2023-01-01T21:00:00,1138A,126.615,45.61,哈尔滨市,平房东轻厂,细颗粒物(PM2.5),55,58,35,39,27,54,10,45,28,61,34,30,13,0.9,0.7
2023-01-01T21:00:00,1139A,126.595,45.9855,哈尔滨市,呼兰师专,细颗粒物(PM2.5),72,46,43,52,40,57,35,51,41,21,15,14,12,1.4,0.8
2023-01-01T21:00:00,1140A,126.6206,45.6842,哈尔滨市,省农科院,细颗粒物(PM2.5),124,105,51,94,39,56,6,51,33,58,34,55,31,1.6,1
2023-01-01T21:00:00,1141A,121.4,31.238,上海市,普陀,细颗粒物(PM2.5),87,74,80,64,76,43,42,25,24,85,100,9,7,0.8,1
2023-01-01T21:00:00,1142A,121.478,31.2036,上海市,十五厂,细颗粒物(PM2.5),77,59,71,56,75,48,46,28,28,89,102,14,13,0.8,0.9
2023-01-01T21:00:00,1143A,121.467,31.3008,上海市,虹口,细颗粒物(PM2.5),93,88,107,69,80,19,19,8,8,105,112,13,13,0.7,1
2023-01-01T21:00:00,1144A,121.412,31.1654,上海市,徐汇上师大,细颗粒物(PM2.5),62,58,71,44,67,36,36,21,21,82,102,9,8,0.9,0.9
2023-01-01T21:00:00,1145A,121.536,31.2659,上海市,杨浦四漂,细颗粒物(PM2.5),79,90,124,58,93,28,14,14,11,110,115,8,10,0.9,1.1
2023-01-01T21:00:00,1147A,121.425,31.2261,上海市,静安监测站,细颗粒物(PM2.5),73,82,103,53,68,56,40,30,29,88,105,11,10,0.8,0.9
2023-01-01T21:00:00,1148A,121.703,31.1907,上海市,浦东川沙,细颗粒物(PM2.5),104,51,81,78,99,56,34,44,44,74,79,8,7,1.0,1
2023-01-01T21:00:00,1149A,121.533,31.2284,上海市,浦东新区监测站,细颗粒物(PM2.5),73,73,107,53,82,49,8,28,8,109,101,8,8,1.0,1.1
2023-01-01T21:00:00,1150A,121.577,31.2071,上海市,浦东张江,细颗粒物(PM2.5),67,52,78,48,77,45,15,32,27,89,86,7,6,0.8,1
2023-01-01T21:00:00,1151A,118.8086,32.1065,南京市,迈皋桥,细颗粒物(PM2.5),156,170,154,119,95,42,7,24,14,115,93,12,5,1.2,1
2023-01-01T21:00:00,1152A,118.7538,32.0551,南京市,草场门,,,,122,,85,20,,22,,,88,,9,,1.0
2023-01-01T21:00:00,1153A,118.7794,32.0745,南京市,山西路,细颗粒物(PM2.5),156,171,136,119,92,56,10,37,20,115,87,15,8,1.2,1.1
2023-01-01T21:00:00,1154A,118.7752,32.0023,南京市,中华门,细颗粒物(PM2.5),168,173,125,127,84,65,6,47,35,121,75,16,11,1.4,1
2023-01-01T21:00:00,1155A,118.8109,32.0309,南京市,瑞金路,细颗粒物(PM2.5),163,213,140,124,85,61,4,46,31,126,94,13,8,1.2,0.9
2023-01-01T21:00:00,1156A,118.7997,32.0754,南京市,玄武湖,细颗粒物(PM2.5),158,190,137,120,93,48,14,27,15,105,85,15,9,1.0,0.8
2023-01-01T21:00:00,1157A,118.6414,32.0931,南京市,浦口,细颗粒物(PM2.5),170,180,131,129,89,39,11,24,17,109,97,14,10,1.3,1
2023-01-01T21:00:00,1158A,118.7356,31.9996,南京市,奥体中心,细颗粒物(PM2.5),168,202,135,127,84,68,8,52,42,132,97,13,9,1.4,1
2023-01-01T21:00:00,1159A,118.9125,32.1028,南京市,仙林大学城,细颗粒物(PM2.5),153,163,133,117,95,55,6,33,16,117,89,16,10,1.5,1.3
2023-01-01T21:00:00,1160A,120.561,31.2472,苏州市,上方山(对照点),细颗粒物(PM2.5),120,105,123,91,105,52,9,33,19,92,78,14,11,1.1,1
2023-01-01T21:00:00,1162A,120.591,31.3019,苏州市,彩香,细颗粒物(PM2.5),122,120,123,92,99,66,11,47,19,90,76,11,8,1.2,1
2023-01-01T21:00:00,1163A,120.596,31.3264,苏州市,轧钢厂,细颗粒物(PM2.5),114,130,133,86,92,61,5,42,16,101,83,11,9,1.2,1.1
2023-01-01T21:00:00,1164A,120.613,31.2703,苏州市,吴中区,细颗粒物(PM2.5),104,106,131,78,97,61,17,43,23,90,85,11,12,1.0,0.9
2023-01-01T21:00:00,1165A,120.543,31.2994,苏州市,苏州新区,细颗粒物(PM2.5),113,112,122,85,98,54,5,38,19,100,82,12,10,1.4,1.1
2023-01-01T21:00:00,1166A,120.669,31.3097,苏州市,苏州工业园区,细颗粒物(PM2.5),114,111,128,86,98,60,27,46,26,81,79,11,9,1.1,1
2023-01-01T21:00:00,1167A,120.641,31.3708,苏州市,相城区,细颗粒物(PM2.5),130,150,147,99,99,50,5,32,13,98,88,12,10,1.4,1.2
2023-01-01T21:00:00,1168A,120.9098,31.9663,南通市,狼山街道,细颗粒物(PM2.5),202,177,136,152,114,75,40,55,54,54,61,11,10,1.0,0.9
2023-01-01T21:00:00,1169A,120.86,32.0005,南通市,虹桥,细颗粒物(PM2.5),185,174,153,139,114,64,39,42,42,70,86,10,12,1.0,0.9
2023-01-01T21:00:00,1170A,120.87,32.02,南通市,城中,细颗粒物(PM2.5),205,192,151,155,122,83,44,61,60,26,71,12,11,0.9,0.9
2023-01-01T21:00:00,1171A,120.94,31.93,南通市,星湖花园,细颗粒物(PM2.5),175,162,138,132,104,65,31,54,52,67,65,12,11,1.2,1
2023-01-01T21:00:00,1172A,120.81,32.0417,南通市,紫琅学院,细颗粒物(PM2.5),195,216,169,146,112,71,30,44,44,69,76,9,10,1.1,1
2023-01-01T21:00:00,1173A,119.176,34.5885,连云港市,市环境监测站,细颗粒物(PM2.5),100,97,164,75,136,65,48,61,57,44,63,13,15,1.0,1.2
2023-01-01T21:00:00,1177A,117.179,34.2761,徐州市,黄河新村,细颗粒物(PM2.5),278,315,330,228,254,119,26,95,82,86,81,27,22,1.6,2
2023-01-01T21:00:00,1178A,117.1918,34.2384,徐州市,淮塔,细颗粒物(PM2.5),225,224,232,175,185,132,48,105,95,63,70,19,15,1.7,1.7
2023-01-01T21:00:00,1180A,117.256,34.2153,徐州市,新城区,细颗粒物(PM2.5),239,242,235,189,184,124,51,96,90,58,77,24,19,1.9,2
2023-01-01T21:00:00,1181A,117.244,34.2911,徐州市,桃园路,细颗粒物(PM2.5),213,237,257,163,193,126,38,102,90,74,79,17,15,1.3,1.4
2023-01-01T21:00:00,1182A,117.2933,34.2778,徐州市,农科院,细颗粒物(PM2.5),233,246,285,183,216,128,11,90,71,90,69,19,19,1.5,1.6
2023-01-01T21:00:00,1186A,119.389,32.3761,扬州市,邗江监测站,细颗粒物(PM2.5),123,110,167,93,135,44,44,20,20,73,109,12,15,0.9,1.4
2023-01-01T21:00:00,1188A,120.269,31.4867,无锡市,雪浪,细颗粒物(PM2.5),104,107,113,78,75,53,6,33,15,90,75,8,9,1.5,1
2023-01-01T21:00:00,1189A,120.275,31.6219,无锡市,黄巷,细颗粒物(PM2.5),107,126,150,80,92,46,6,38,24,94,88,13,15,2.5,2.2
2023-01-01T21:00:00,1190A,120.294,31.56,无锡市,曹张,细颗粒物(PM2.5),85,112,134,63,76,50,14,38,32,75,76,16,19,2.2,2
2023-01-01T21:00:00,1191A,120.242,31.5031,无锡市,漆塘,细颗粒物(PM2.5),83,78,94,61,68,68,19,43,27,54,75,6,10,1.2,1
2023-01-01T21:00:00,1192A,120.3489,31.5863,无锡市,东亭,细颗粒物(PM2.5),85,83,122,63,91,43,10,33,29,77,82,11,13,1.6,1.5
2023-01-01T21:00:00,1193A,120.354,31.5475,无锡市,旺庄,细颗粒物(PM2.5),100,95,123,75,88,44,17,34,21,75,80,7,9,1.3,1.2
2023-01-01T21:00:00,1194A,120.245,31.5631,无锡市,荣巷,细颗粒物(PM2.5),89,73,98,66,79,56,26,38,37,61,77,10,13,1.4,1.3
2023-01-01T21:00:00,1195A,120.299,31.6817,无锡市,堰桥,细颗粒物(PM2.5),110,107,143,83,103,57,7,42,29,88,83,11,13,1.7,1.7
2023-01-01T21:00:00,1196A,119.9633,31.762,常州市,市监测站,细颗粒物(PM2.5),155,169,161,118,110,44,4,35,22,106,94,12,12,1.6,1.5
2023-01-01T21:00:00,1200A,119.9468,31.7069,常州市,武进监测站,细颗粒物(PM2.5),110,105,127,83,93,56,25,45,34,80,87,17,17,1.1,1.2
2023-01-01T21:00:00,1201A,119.9255,31.9087,常州市,安家,细颗粒物(PM2.5),218,217,170,168,124,52,19,32,20,80,87,15,13,2.0,1.6
2023-01-01T21:00:00,1203A,119.6707,32.1875,镇江市,新区办事处,细颗粒物(PM2.5),188,182,182,141,138,44,30,34,33,86,97,14,16,1.4,1.4
2023-01-01T21:00:00,1204A,119.4974,32.1968,镇江市,职教中心,细颗粒物(PM2.5),62,63,166,44,127,67,67,24,24,31,90,5,12,0.4,1.2
2023-01-01T21:00:00,1205A,119.4303,32.1328,镇江市,丹徒区监测站,细颗粒物(PM2.5),105,107,156,79,121,59,,38,30,70,94,10,12,1.0,1.2
2023-01-01T21:00:00,1206A,119.905,32.4878,泰州市,公园路,细颗粒物(PM2.5),180,175,182,136,146,52,1,29,7,91,80,,15,,1.6
2023-01-01T21:00:00,1207A,119.9189,32.4625,泰州市,莲花,细颗粒物(PM2.5),199,195,193,149,159,71,4,28,11,115,86,15,17,1.8,1.4
2023-01-01T21:00:00,1209A,119.888,32.4639,泰州市,留学生创业园,细颗粒物(PM2.5),195,208,196,146,134,54,2,25,10,104,81,17,18,2.0,1.6
2023-01-01T21:00:00,1210A,119.036,33.5981,淮安市,钵池山,细颗粒物(PM2.5),142,132,150,108,141,99,64,89,87,32,49,11,14,0.9,1.1
2023-01-01T21:00:00,1211A,119.007,33.575,淮安市,北京南路,细颗粒物(PM2.5),148,132,170,113,130,107,71,95,93,29,55,12,14,1.0,1.3
2023-01-01T21:00:00,1212A,118.989,33.6067,淮安市,市监测站,细颗粒物(PM2.5),153,146,165,117,129,104,61,87,85,36,54,11,12,1.2,1.4
2023-01-01T21:00:00,1213A,119.135,33.5039,淮安市,楚州区监测站,细颗粒物(PM2.5),138,115,160,105,132,93,69,84,83,25,53,11,13,0.8,1
2023-01-01T21:00:00,1214A,119.0186,33.6297,淮安市,淮阴区监测站,细颗粒物(PM2.5),201,190,186,151,188,98,50,81,77,39,54,12,15,1.1,1.1
2023-01-01T21:00:00,1215A,120.118,33.4022,盐城市,盐城电厂,细颗粒物(PM2.5),137,156,170,104,114,120,80,108,106,38,45,8,13,1.0,1
2023-01-01T21:00:00,1216A,120.156,33.3942,盐城市,市监测站,细颗粒物(PM2.5),163,164,168,124,126,112,75,102,100,33,53,4,8,0.8,0.9
2023-01-01T21:00:00,1218A,120.2144,33.38,盐城市,开发区管委会,细颗粒物(PM2.5),163,162,165,124,132,121,87,111,108,23,44,5,8,0.9,0.9
2023-01-01T21:00:00,1220A,118.293,33.9528,宿迁市,宿迁学院,细颗粒物(PM2.5),180,165,211,136,171,122,43,90,82,48,55,8,15,0.9,1
2023-01-01T21:00:00,1221A,118.2442,33.9592,宿迁市,宿迁中学,细颗粒物(PM2.5),148,159,205,113,159,120,47,88,80,38,54,9,13,1.0,1.1
2023-01-01T21:00:00,1223A,120.2072,30.2111,杭州市,滨江,细颗粒物(PM2.5),69,70,121,50,82,71,66,46,46,31,66,8,7,0.5,0.8
2023-01-01T21:00:00,1224A,120.0633,30.2747,杭州市,西溪,细颗粒物(PM2.5),195,208,128,146,91,37,6,27,24,80,55,7,7,0.9,0.9
2023-01-01T21:00:00,1226A,120.3461,30.3153,杭州市,下沙,细颗粒物(PM2.5),83,86,149,61,106,72,43,62,61,57,76,7,8,0.7,1.2
2023-01-01T21:00:00,1227A,120.1269,30.2456,杭州市,卧龙桥,细颗粒物(PM2.5),85,75,96,63,80,62,62,43,43,36,49,9,8,0.6,0.9
2023-01-01T21:00:00,1228A,120.1903,30.2692,杭州市,浙江农大,细颗粒物(PM2.5),89,73,122,66,96,64,53,46,46,42,63,9,9,0.6,0.9
2023-01-01T21:00:00,1230A,120.1197,30.3119,杭州市,和睦小学,细颗粒物(PM2.5),172,180,135,130,102,47,2,30,25,100,78,6,6,1.0,1
2023-01-01T21:00:00,1231A,120.3019,30.4183,杭州市,临平镇,细颗粒物(PM2.5),119,136,153,90,104,85,4,61,56,83,67,8,9,0.8,1
2023-01-01T21:00:00,1232A,120.2697,30.1819,杭州市,城厢镇,细颗粒物(PM2.5),89,99,128,66,95,57,57,42,42,44,70,6,7,0.8,1
2023-01-01T21:00:00,1233A,120.0883,30.1808,杭州市,云栖,细颗粒物(PM2.5),74,77,100,54,78,70,70,37,37,36,58,11,10,0.7,0.9
2023-01-01T21:00:00,1234A,121.8358,29.911,宁波市,区环保大楼,细颗粒物(PM2.5),70,57,100,51,88,57,24,45,33,75,66,11,10,0.8,1
2023-01-01T21:00:00,1235A,121.56,29.82,宁波市,万里学院,细颗粒物(PM2.5),87,105,117,64,72,49,34,39,39,70,74,10,10,0.6,0.7
2023-01-01T21:00:00,1236A,121.713,29.9572,宁波市,龙赛医院,颗粒物(PM10),63,76,113,44,79,75,49,66,62,64,79,10,11,0.6,0.9
2023-01-01T21:00:00,1239A,121.633,29.7733,宁波市,钱湖水厂,细颗粒物(PM2.5),137,135,108,104,88,50,5,32,17,92,56,7,6,1.1,1
2023-01-01T21:00:00,1240A,121.5856,29.8635,宁波市,太古小学,细颗粒物(PM2.5),94,80,130,70,88,43,33,35,35,64,82,10,11,0.6,0.9
2023-01-01T21:00:00,1241A,121.524,29.8674,宁波市,市环境监测中心,"颗粒物(PM10),细颗粒物(PM2.5)",52,54,79,36,50,62,38,45,45,47,62,7,7,0.6,0.8
2023-01-01T21:00:00,1242A,120.634,28.0089,温州市,瓯海,颗粒物(PM10),51,52,57,30,35,90,68,82,80,24,40,7,9,0.4,0.4
2023-01-01T21:00:00,1243A,120.6748,27.9939,温州市,南浦,,42,42,43,28,28,92,74,85,84,24,28,5,7,0.3,0.2
2023-01-01T21:00:00,1244A,120.76,27.9747,温州市,龙湾,,34,34,42,19,25,90,72,82,81,30,37,6,7,0.1,0.1
2023-01-01T21:00:00,1245A,120.6709,28.0167,温州市,市站,颗粒物(PM10),52,53,42,28,25,91,74,84,82,22,25,6,6,0.4,0.4
2023-01-01T21:00:00,1247A,120.6053,29.9928,绍兴市,城东开发委,细颗粒物(PM2.5),103,104,114,77,88,60,60,42,42,35,54,5,5,0.7,0.9
2023-01-01T21:00:00,1250A,120.0751,30.8669,湖州市,城西水厂,细颗粒物(PM2.5),112,81,100,84,105,49,30,44,44,60,77,10,11,0.8,1
2023-01-01T21:00:00,1252A,120.7436,30.778,嘉兴市,清河小学,细颗粒物(PM2.5),89,108,134,66,97,67,5,40,29,101,70,8,8,0.7,0.8
2023-01-01T21:00:00,1253A,120.726,30.7478,嘉兴市,嘉兴学院,细颗粒物(PM2.5),89,105,129,66,94,69,6,41,32,108,78,10,10,1.0,1.1
2023-01-01T21:00:00,1255A,121.273,28.6459,台州市,黄岩环保大楼,,44,44,50,29,35,94,65,82,82,31,29,8,9,0.6,0.6
2023-01-01T21:00:00,1256A,121.419,28.6542,台州市,台州环保大楼,"颗粒物(PM10),细颗粒物(PM2.5)",54,57,66,38,44,100,80,92,92,20,31,11,11,0.5,0.6
2023-01-01T21:00:00,1257A,121.377,28.5773,台州市,路桥田洋王,细颗粒物(PM2.5),54,55,62,38,45,94,80,87,87,21,34,8,8,0.5,0.6
2023-01-01T21:00:00,1258A,122.122,30.0203,舟山市,定海檀枫,细颗粒物(PM2.5),59,51,70,42,55,92,79,85,82,28,26,5,5,0.5,0.6
2023-01-01T21:00:00,1259A,122.3094,29.9558,舟山市,普陀东港,细颗粒物(PM2.5),55,51,68,39,52,109,95,101,93,17,19,6,6,0.6,0.6
2023-01-01T21:00:00,1260A,122.19,29.9944,舟山市,临城新区,细颗粒物(PM2.5),55,57,83,39,61,95,84,88,86,26,28,6,6,0.5,0.5
2023-01-01T21:00:00,1262A,119.647,29.077,金华市,十五中,细颗粒物(PM2.5),80,75,84,59,70,55,33,47,44,56,58,5,5,0.7,0.8
2023-01-01T21:00:00,1263A,119.686,29.1029,金华市,监测站,细颗粒物(PM2.5),90,78,78,67,74,56,26,46,42,51,54,5,6,0.7,0.7
2023-01-01T21:00:00,1264A,118.8692,28.9398,衢州市,环保大楼,细颗粒物(PM2.5),94,90,77,70,66,63,22,49,41,58,44,8,9,0.6,0.6
2023-01-01T21:00:00,1265A,118.8709,28.9666,衢州市,实验学校,细颗粒物(PM2.5),88,92,80,65,64,70,15,54,43,64,45,4,7,0.7,0.6
2023-01-01T21:00:00,1266A,118.8621,28.9808,衢州市,衢州学院,细颗粒物(PM2.5),70,80,77,51,55,71,16,56,46,58,37,6,6,0.6,0.6
2023-01-01T21:00:00,1267A,119.914,28.4514,丽水市,监测站大楼,,50,50,45,32,30,44,6,33,30,51,34,8,8,0.8,0.6
2023-01-01T21:00:00,1268A,119.93,28.4586,丽水市,莲都小学,,36,36,44,21,28,66,48,46,46,31,36,8,8,0.7,0.8
2023-01-01T21:00:00,1269A,119.879,28.4231,丽水市,余庄前,,35,35,48,19,32,59,13,38,36,37,25,7,8,0.5,0.6
2023-01-01T21:00:00,1270A,117.1959,31.7848,合肥市,明珠广场,细颗粒物(PM2.5),147,161,145,112,96,42,9,24,20,85,87,15,14,1.2,1.2
2023-01-01T21:00:00,1271A,117.3072,31.8764,合肥市,三里街,细颗粒物(PM2.5),160,144,156,122,118,36,25,25,24,68,89,12,13,1.1,1.3
2023-01-01T21:00:00,1272A,117.2588,31.8707,合肥市,琥珀山庄,细颗粒物(PM2.5),163,178,169,124,113,34,15,21,18,78,87,12,12,1.2,1.4
2023-01-01T21:00:00,1273A,117.1604,31.9052,合肥市,董铺水库(对照点),颗粒物(PM10),114,178,178,,,27,27,27,27,56,56,8,8,0.6,0.6
2023-01-01T21:00:00,1274A,117.25,31.8571,合肥市,长江中路,细颗粒物(PM2.5),163,166,157,124,110,44,17,28,25,73,86,14,14,1.1,1.3
2023-01-01T21:00:00,1275A,117.266,31.9436,合肥市,庐阳区,细颗粒物(PM2.5),149,175,174,114,106,42,36,33,31,59,84,12,12,0.9,1.1
2023-01-01T21:00:00,1276A,117.336,31.8586,合肥市,瑶海区,细颗粒物(PM2.5),152,158,171,116,116,36,19,27,24,77,86,12,12,1.3,1.4
2023-01-01T21:00:00,1277A,117.3027,31.7964,合肥市,包河区,细颗粒物(PM2.5),168,156,165,127,113,30,12,21,17,84,88,11,12,1.0,1.1
2023-01-01T21:00:00,1278A,117.2776,31.7385,合肥市,滨湖新区,细颗粒物(PM2.5),149,156,144,114,98,62,22,24,22,79,86,11,11,1.0,1
2023-01-01T21:00:00,1279A,117.1318,31.8403,合肥市,高新区,细颗粒物(PM2.5),144,149,144,110,101,38,27,32,31,64,86,12,11,1.0,1.1
2023-01-01T21:00:00,1280A,119.3903,26.0543,福州市,鼓山(对照点),,,,,,,,,,,,,,,,
2023-01-01T21:00:00,1282A,119.2681,26.0504,福州市,师大,,48,48,41,30,20,88,64,74,69,20,17,5,5,0.6,0.5
2023-01-01T21:00:00,1283A,119.2984,26.1028,福州市,五四北路,,39,39,36,21,17,89,66,84,73,18,12,3,4,0.6,0.5
2023-01-01T21:00:00,1284A,119.2648,26.0768,福州市,杨桥西路,,43,43,43,19,17,91,57,71,64,24,17,4,4,0.5,0.5
2023-01-01T21:00:00,1285A,119.317,26.0746,福州市,紫阳,,37,37,38,19,15,92,77,88,81,13,11,7,6,0.7,0.6
2023-01-01T21:00:00,1286A,118.1608,24.8169,厦门市,溪东(对照点),,,,,,,,,,,,,,,,
2023-01-01T21:00:00,1287A,118.1514,24.4767,厦门市,洪文,,26,26,24,17,13,86,75,85,75,18,18,1,1,0.5,0.6
2023-01-01T21:00:00,1288A,118.0661,24.4444,厦门市,鼓浪屿,,25,20,21,14,12,90,79,84,81,19,25,2,3,0.5,0.5
2023-01-01T21:00:00,1290A,115.8931,28.6843,南昌市,省外办,细颗粒物(PM2.5),107,116,88,80,62,68,39,61,52,45,49,9,9,0.7,0.7
2023-01-01T21:00:00,1291A,115.8886,28.7003,南昌市,省林业公司,细颗粒物(PM2.5),122,117,80,92,61,62,35,57,49,55,53,8,8,1.0,0.9
2023-01-01T21:00:00,1292A,115.8126,28.7442,南昌市,林科所,细颗粒物(PM2.5),94,88,75,70,59,75,46,65,56,38,40,10,8,0.6,0.6
2023-01-01T21:00:00,1294A,115.8518,28.687,南昌市,建工学校,细颗粒物(PM2.5),120,124,79,91,54,69,39,59,51,43,46,9,8,0.8,0.8
2023-01-01T21:00:00,1295A,115.8921,28.6424,南昌市,象湖,细颗粒物(PM2.5),119,98,71,90,65,65,39,59,51,40,44,9,8,0.6,0.6
2023-01-01T21:00:00,1296A,115.7423,28.7996,南昌市,武术学校(对照点),细颗粒物(PM2.5),88,60,43,65,43,80,53,67,60,29,22,7,6,0.8,0.9
2023-01-01T21:00:00,1298A,115.9314,28.6842,南昌市,省站,细颗粒物(PM2.5),118,123,94,89,64,71,41,62,58,34,37,12,10,0.8,0.8
2023-01-01T21:00:00,1299A,116.9862,36.6114,济南市,科干所,细颗粒物(PM2.5),170,175,166,129,116,55,18,44,37,89,70,33,24,1.0,1
2023-01-01T21:00:00,1300A,116.9376,36.665,济南市,农科所,细颗粒物(PM2.5),192,205,231,144,149,50,14,40,35,106,91,52,40,1.4,1.7
2023-01-01T21:00:00,1301A,117.1265,36.6734,济南市,开发区,细颗粒物(PM2.5),239,254,172,189,119,60,8,47,35,102,72,48,25,1.5,1.2
2023-01-01T21:00:00,1303A,117.0624,36.6868,济南市,省种子仓库,细颗粒物(PM2.5),238,246,207,188,147,46,5,37,29,103,74,49,27,1.5,1.5
2023-01-01T21:00:00,1304A,116.9489,36.6447,济南市,机床二厂,细颗粒物(PM2.5),196,215,235,147,157,52,17,43,38,92,77,47,55,1.4,1.9
2023-01-01T21:00:00,1305A,117.0495,36.663,济南市,市监测站,细颗粒物(PM2.5),192,195,172,144,117,57,14,47,37,103,83,38,24,1.3,1.2
2023-01-01T21:00:00,1306A,116.7675,36.5484,济南市,长清党校,细颗粒物(PM2.5),216,237,175,166,126,53,12,43,36,110,82,59,23,1.5,1.3
2023-01-01T21:00:00,1307A,120.6659,36.2403,青岛市,仰口(对照点),,29,29,107,19,81,107,85,106,87,17,35,2,8,0.3,0.6
2023-01-01T21:00:00,1310A,120.4134,36.0658,青岛市,市南区东部子站,颗粒物(PM10),51,51,149,31,112,86,70,79,79,20,46,8,14,0.5,1.1
2023-01-01T21:00:00,1311A,120.3664,36.1032,青岛市,四方区子站,颗粒物(PM10),52,53,162,31,126,70,47,60,59,29,47,10,17,0.6,1.2
2023-01-01T21:00:00,1312A,120.2994,36.054,青岛市,市南区西部子站,,39,39,175,17,126,93,80,81,81,25,66,9,17,0.5,1.3
2023-01-01T21:00:00,1313A,120.4581,36.0858,青岛市,崂山区子站,,41,41,134,22,93,93,64,86,84,36,47,8,13,0.5,1
2023-01-01T21:00:00,1314A,120.1983,35.9608,青岛市,黄岛区子站,细颗粒物(PM2.5),132,127,188,100,141,77,22,64,61,70,69,11,18,1.2,1.4
2023-01-01T21:00:00,1315A,120.3999,36.3083,青岛市,城阳区子站,颗粒物(PM10),103,156,184,63,107,78,6,65,45,91,74,13,16,1.4,1.5
2023-01-01T21:00:00,1316A,113.69031,34.76122,郑州市,烟厂,细颗粒物(PM2.5),208,180,195,158,180,86,36,67,65,64,71,20,15,1.2,1.2
2023-01-01T21:00:00,1317A,113.65724,34.77134,郑州市,郑纺机,细颗粒物(PM2.5),202,168,186,152,170,92,42,75,72,65,76,24,20,1.7,1.7
2023-01-01T21:00:00,1318A,113.67526,34.80246,郑州市,银行学校,细颗粒物(PM2.5),224,214,203,174,186,90,31,69,66,71,69,27,19,1.8,1.7
2023-01-01T21:00:00,1319A,113.56746,34.81334,郑州市,供水公司,细颗粒物(PM2.5),199,204,185,149,159,72,35,57,56,63,73,17,17,2.6,2
2023-01-01T21:00:00,1320A,113.7329,34.7178,郑州市,经开区管委,细颗粒物(PM2.5),193,180,198,145,186,90,45,70,68,53,73,19,17,1.5,1.5
2023-01-01T21:00:00,1321A,113.73961,34.77172,郑州市,四十七中,细颗粒物(PM2.5),223,209,206,173,192,90,19,68,63,68,61,18,15,1.6,1.5
2023-01-01T21:00:00,1322A,113.60532,34.74838,郑州市,市监测站,细颗粒物(PM2.5),214,206,200,164,166,92,51,73,72,45,63,20,16,1.2,1.1
2023-01-01T21:00:00,1323A,113.64164,34.7525,郑州市,河医大,细颗粒物(PM2.5),206,184,184,156,168,74,38,58,56,60,74,16,13,1.4,1.3
2023-01-01T21:00:00,1324A,113.51488,34.91089,郑州市,岗李水库(对照点),,,,,,,,,,,,,,,,
2023-01-01T21:00:00,1325A,114.3677,30.5584,武汉市,东湖梨园,细颗粒物(PM2.5),170,148,169,129,144,48,37,37,37,64,81,10,9,1.4,1.6
2023-01-01T21:00:00,1326A,114.2529,30.558,武汉市,汉阳月湖,细颗粒物(PM2.5),206,186,181,156,152,42,8,26,22,96,88,8,9,1.5,1.5
2023-01-01T21:00:00,1327A,114.282,30.6189,武汉市,汉口花桥,细颗粒物(PM2.5),206,176,169,156,142,39,16,32,26,83,85,11,12,1.4,1.5
2023-01-01T21:00:00,1328A,114.3025,30.5332,武汉市,武昌紫阳,细颗粒物(PM2.5),143,157,154,109,134,59,48,40,34,57,90,9,10,1.1,1.4
2023-01-01T21:00:00,1329A,114.3646,30.6217,武汉市,青山钢花,细颗粒物(PM2.5),203,132,176,153,149,49,23,30,24,86,94,14,14,1.3,1.5
2023-01-01T21:00:00,1330A,114.1566,30.4825,武汉市,沌口新区,,,,,,,,,,,,,,,,
2023-01-01T21:00:00,1331A,114.3014,30.5944,武汉市,汉口江滩,细颗粒物(PM2.5),202,170,168,152,148,52,32,33,31,67,82,12,12,1.3,1.4
2023-01-01T21:00:00,1333A,114.135,30.6319,武汉市,吴家山,细颗粒物(PM2.5),109,149,180,82,148,66,56,37,37,56,92,10,11,1.0,1.3
2023-01-01T21:00:00,1334A,113.8454,30.2917,武汉市,沉湖七壕(对照点),颗粒物(PM10),102,153,151,54,95,95,82,84,84,17,38,8,10,0.9,1.2
2023-01-01T21:00:00,1335A,113.0833,28.2325,长沙市,经开区环保局,细颗粒物(PM2.5),222,179,140,172,134,56,27,41,36,48,38,10,7,1.1,1
2023-01-01T21:00:00,1336A,112.8872,28.2189,长沙市,高开区环保局,细颗粒物(PM2.5),198,155,124,148,119,69,50,58,56,29,23,7,7,1.0,0.9
2023-01-01T21:00:00,1337A,113.0792,28.2053,长沙市,马坡岭,细颗粒物(PM2.5),224,181,134,174,138,52,24,41,35,49,40,9,8,0.9,0.8
2023-01-01T21:00:00,1338A,112.9394,28.19,长沙市,湖南师范大学,细颗粒物(PM2.5),218,172,134,168,135,61,38,50,45,35,25,5,4,0.9,0.7
2023-01-01T21:00:00,1339A,113.0178,28.1322,长沙市,雨花区环保局,细颗粒物(PM2.5),207,162,124,157,120,60,30,48,44,43,34,4,4,0.7,0.7
2023-01-01T21:00:00,1340A,112.9792,28.2597,长沙市,伍家岭,细颗粒物(PM2.5),207,186,153,157,128,63,36,46,43,38,28,8,7,1.1,0.9
2023-01-01T21:00:00,1341A,113.0014,28.1944,长沙市,火车新站,细颗粒物(PM2.5),211,175,133,161,125,61,34,47,42,43,33,7,7,1.1,1
2023-01-01T21:00:00,1342A,112.9844,28.1178,长沙市,天心区环保局,细颗粒物(PM2.5),201,163,129,151,116,72,38,57,51,46,37,7,7,0.8,0.8
2023-01-01T21:00:00,1343A,112.8908,28.1308,长沙市,湖南中医药大学,细颗粒物(PM2.5),209,161,134,159,131,65,44,50,49,29,28,5,4,1.2,1.1
2023-01-01T21:00:00,1344A,112.9581,28.3611,长沙市,沙坪(对照点),细颗粒物(PM2.5),206,185,143,156,120,44,33,40,38,36,22,13,7,0.9,0.8
2023-01-01T21:00:00,1345A,113.2347,23.1423,广州市,广雅中学,颗粒物(PM10),55,59,48,32,28,80,44,68,64,40,32,6,5,1.2,1.1
2023-01-01T21:00:00,1346A,113.2612,23.105,广州市,市五中,细颗粒物(PM2.5),58,58,44,41,31,98,62,86,84,31,26,6,6,0.9,0.8
2023-01-01T21:00:00,1348A,113.3478,23.0916,广州市,广东商学院,颗粒物(PM10),51,51,35,31,24,97,44,86,81,46,23,7,6,0.8,0.7
2023-01-01T21:00:00,1349A,113.4332,23.1047,广州市,市八十六中,颗粒物(PM10),53,55,43,32,28,87,54,76,74,28,20,4,4,1.0,0.9
2023-01-01T21:00:00,1350A,113.3505,22.9483,广州市,番禺中学,细颗粒物(PM2.5),52,52,41,36,27,96,51,85,82,48,28,8,8,0.9,0.8
2023-01-01T21:00:00,1351A,113.2146,23.3916,广州市,花都师范,,41,41,31,27,22,101,67,88,86,26,16,8,7,0.7,0.6
2023-01-01T21:00:00,1352A,113.2597,23.1331,广州市,市监测站,颗粒物(PM10),53,56,46,34,27,91,56,80,77,33,32,6,6,0.9,0.8
2023-01-01T21:00:00,1353A,113.5618,23.312,广州市,九龙镇镇龙,颗粒物(PM10),53,56,35,35,26,87,37,78,71,46,19,5,4,0.8,0.7
2023-01-01T21:00:00,1354A,113.2765,23.1544,广州市,麓湖,,44,44,40,26,25,91,48,79,73,32,27,6,7,0.8,0.7
2023-01-01T21:00:00,1355A,113.443,23.3035,广州市,帽峰山森林公园(对照点),,43,37,33,30,27,94,61,81,78,16,14,4,4,0.6,0.6
2023-01-01T21:00:00,1356A,114.1063,22.5545,深圳市,通心岭子站,颗粒物(PM10),55,60,48,36,31,46,29,40,36,42,28,3,3,0.9,0.8
2023-01-01T21:00:00,1357A,114.117,22.5625,深圳市,洪湖,颗粒物(PM10),53,55,54,35,32,54,38,46,43,39,28,8,8,0.8,0.8
2023-01-01T21:00:00,1358A,113.987,22.5417,深圳市,华侨城,颗粒物(PM10),53,55,51,34,34,49,38,39,37,37,40,5,5,0.8,0.8
2023-01-01T21:00:00,1359A,113.9181,22.5171,深圳市,南海子站,颗粒物(PM10),64,77,56,45,35,48,16,39,36,58,37,5,5,1.3,1.1
2023-01-01T21:00:00,1360A,114.2458,22.5689,深圳市,盐田,,48,46,33,33,24,64,17,61,48,46,18,6,6,0.8,0.7
2023-01-01T21:00:00,1361A,114.2283,22.7244,深圳市,龙岗,颗粒物(PM10),57,63,48,39,32,52,25,48,42,46,19,4,5,0.9,0.8
2023-01-01T21:00:00,1363A,114.494,22.5422,深圳市,南澳,,36,35,32,25,24,77,53,70,65,18,18,5,4,0.6,0.7
2023-01-01T21:00:00,1364A,114.41,22.6342,深圳市,葵涌,,43,41,40,30,29,55,52,52,52,17,16,8,8,0.8,0.8
2023-01-01T21:00:00,1365A,114.297,22.5978,深圳市,梅沙,,45,45,40,27,25,72,72,67,67,12,14,7,6,0.9,0.9
2023-01-01T21:00:00,1366A,114.0678,22.738,深圳市,观澜,颗粒物(PM10),62,74,63,40,33,55,7,47,37,59,40,7,7,0.8,0.7
2023-01-01T21:00:00,1367A,113.5814,22.2618,珠海市,吉大,细颗粒物(PM2.5),63,64,49,45,29,69,56,63,63,42,30,8,8,0.6,0.5
2023-01-01T21:00:00,1368A,113.4881,22.2335,珠海市,前山,颗粒物(PM10),56,61,42,27,23,62,40,53,53,53,37,4,4,0.7,0.7
2023-01-01T21:00:00,1369A,113.628,22.4251,珠海市,唐家,细颗粒物(PM2.5),65,61,44,47,30,76,52,68,68,37,31,8,9,0.6,0.6
2023-01-01T21:00:00,1370A,113.299,22.2281,珠海市,斗门,细颗粒物(PM2.5),64,69,47,46,30,73,54,63,63,39,33,4,4,0.6,0.6
2023-01-01T21:00:00,1371A,113.1294,23.0067,佛山市,湾梁,,48,48,35,27,24,103,64,89,87,28,19,8,8,0.7,0.6
2023-01-01T21:00:00,1372A,113.1083,23.0478,佛山市,华材职中,,45,44,35,31,31,104,59,88,83,34,27,8,7,0.6,0.5
2023-01-01T21:00:00,1373A,113.144,23.0453,佛山市,南海气象局,颗粒物(PM10),51,51,33,29,24,89,46,75,71,37,25,6,6,0.9,0.9
2023-01-01T21:00:00,1374A,113.2881,22.8094,佛山市,顺德苏岗,颗粒物(PM10),54,58,30,36,21,87,31,72,68,52,29,6,6,1.3,1
2023-01-01T21:00:00,1376A,112.8383,22.8678,佛山市,高明孔堂,,47,47,38,30,25,94,62,82,82,25,18,4,5,0.7,0.7
2023-01-01T21:00:00,1377A,112.8836,23.1588,佛山市,三水监测站,颗粒物(PM10),56,61,38,37,27,95,49,78,74,36,24,8,8,0.7,0.7
2023-01-01T21:00:00,1378A,112.867,23.185,佛山市,三水云东海,,44,44,30,30,26,93,47,78,72,27,21,8,6,0.7,0.6
2023-01-01T21:00:00,1379A,113.3769,22.5211,中山市,华柏园,细颗粒物(PM2.5),62,72,43,44,31,73,18,60,52,53,34,5,6,1.0,0.7
2023-01-01T21:00:00,1380A,113.3881,22.5497,中山市,张溪,颗粒物(PM10),69,87,46,46,32,78,31,64,56,55,35,4,4,0.8,0.6
2023-01-01T21:00:00,1381A,113.4075,22.5111,中山市,紫马岭,细颗粒物(PM2.5),54,53,42,38,28,70,42,57,54,38,34,8,10,0.7,0.6
2023-01-01T21:00:00,1382A,113.4411,22.4853,中山市,长江旅游区(对照点),,,,,,,,,,,,,,,,
2023-01-01T21:00:00,1383A,113.1064,22.6058,江门市,北街,颗粒物(PM10),52,53,38,35,27,107,59,88,86,43,34,9,9,0.9,0.8
2023-01-01T21:00:00,1384A,113.0731,22.5835,江门市,西区,颗粒物(PM10),63,76,47,40,30,104,50,84,81,46,30,8,8,0.7,0.6
2023-01-01T21:00:00,1385A,113.0219,22.5311,江门市,圭峰西,细颗粒物(PM2.5),65,60,36,47,28,90,54,80,79,45,28,6,5,1.0,0.7
2023-01-01T21:00:00,1386A,113.0828,22.5947,江门市,东湖,细颗粒物(PM2.5),58,61,43,41,25,106,58,88,86,37,28,8,8,0.8,0.7
2023-01-01T21:00:00,1389A,113.7547,23.0494,东莞市,莞城梨川,细颗粒物(PM2.5),65,73,38,47,26,86,32,78,70,51,23,8,8,0.7,0.5
2023-01-01T21:00:00,1390A,113.7944,23.0128,东莞市,东城石井,颗粒物(PM10),54,57,37,34,26,90,31,76,69,30,18,11,11,0.9,0.7
2023-01-01T21:00:00,1391A,113.7383,22.9658,东莞市,南城西平,颗粒物(PM10),61,71,42,41,27,88,22,76,68,60,31,10,10,0.8,0.6
2023-01-01T21:00:00,1392A,114.4183,23.0528,惠州市,河南岸金山湖子站,颗粒物(PM10),66,82,44,43,34,66,27,57,52,42,20,7,8,1.1,0.8
2023-01-01T21:00:00,1393A,114.4053,23.0822,惠州市,下埔横江三路子站,颗粒物(PM10),54,58,40,36,31,72,36,62,58,44,21,8,7,0.9,0.7
2023-01-01T21:00:00,1394A,114.4103,23.1142,惠州市,江北云山西路子站,,46,43,40,32,39,70,56,64,64,23,15,5,5,0.8,0.8
2023-01-01T21:00:00,1395A,114.4645,22.7833,惠州市,惠阳区承修路船湖子站,"颗粒物(PM10),细颗粒物(PM2.5)",74,97,54,54,40,61,21,53,46,32,20,5,5,1.1,0.8
2023-01-01T21:00:00,1396A,114.5317,22.7422,惠州市,大亚湾管委会子站,,,63,41,33,30,59,,52,50,34,22,4,4,1.0,0.9
2023-01-01T21:00:00,1397A,112.4267,23.0706,肇庆市,睦岗子站,,45,45,35,30,26,85,61,77,76,40,29,8,8,0.7,0.7
2023-01-01T21:00:00,1398A,112.4645,23.0475,肇庆市,城中子站,,46,46,35,30,25,88,56,77,76,41,19,8,7,0.6,0.6
2023-01-01T21:00:00,1399A,112.5544,23.1522,肇庆市,坑口子站,,45,42,33,31,26,94,47,78,75,45,25,9,8,0.7,0.6
2023-01-01T21:00:00,1400A,112.4753,23.1,肇庆市,七星岩子站(对照点),,41,41,31,26,22,91,64,80,79,23,13,4,2,0.6,0.6
2023-01-01T21:00:00,1401A,108.3103,22.7881,南宁市,二十一中,细颗粒物(PM2.5),74,66,75,54,53,116,68,96,96,32,34,7,8,0.9,0.9
2023-01-01T21:00:00,1402A,108.3141,22.8528,南宁市,北湖,细颗粒物(PM2.5),79,80,76,58,54,119,82,98,98,24,29,10,12,0.9,0.9
2023-01-01T21:00:00,1403A,108.3206,22.8225,南宁市,市监测站,细颗粒物(PM2.5),63,67,73,45,53,116,68,91,91,45,48,13,15,0.9,0.9
2023-01-01T21:00:00,1404A,108.3829,22.8037,南宁市,大自然花园,细颗粒物(PM2.5),75,64,58,55,48,110,68,89,89,40,30,8,10,1.0,0.8
2023-01-01T21:00:00,1405A,108.4394,22.7904,南宁市,仙葫(对照点),细颗粒物(PM2.5),73,64,60,53,48,105,84,93,93,16,24,12,16,0.8,0.7
2023-01-01T21:00:00,1406A,108.2397,22.8467,南宁市,区农职院,细颗粒物(PM2.5),69,61,53,50,34,119,77,100,98,36,30,13,9,0.9,0.9
2023-01-01T21:00:00,1407A,108.3275,22.735,南宁市,英华嘉园,细颗粒物(PM2.5),75,64,69,55,53,109,73,80,80,28,42,8,9,0.9,0.8
2023-01-01T21:00:00,1408A,108.2257,22.7757,南宁市,沙井镇街道办,颗粒物(PM10),98,146,81,60,48,110,21,92,82,92,42,8,10,1.0,0.8
2023-01-01T21:00:00,1409A,110.576,19.9507,海口市,东寨港(对照点),,,12,29,16,27,64,58,59,56,,,2,3,0.6,0.7
2023-01-01T21:00:00,1410A,110.3232,20.0574,海口市,海南大学,,41,41,41,28,31,109,97,102,89,12,13,5,6,0.8,0.7
2023-01-01T21:00:00,1411A,110.283,20.0053,海口市,秀英海南医院,,30,30,41,16,27,109,95,101,88,14,16,5,7,0.8,0.8
2023-01-01T21:00:00,1412A,110.338,19.9969,海口市,海南师范大学,,31,31,41,17,23,104,93,103,85,11,14,5,6,0.8,0.8
2023-01-01T21:00:00,1413A,110.33,20.0356,海口市,龙华路环保局宿舍,,33,26,38,23,28,109,93,104,87,12,12,5,6,0.8,0.8
2023-01-01T21:00:00,1414A,106.3787,29.8279,重庆市,缙云山(对照点),,28,28,39,14,25,67,36,62,38,24,25,5,5,0.6,0.6
2023-01-01T21:00:00,1416A,106.4213,29.8253,重庆市,天生,细颗粒物(PM2.5),68,69,64,49,51,30,15,22,21,29,28,6,6,0.9,0.9
2023-01-01T21:00:00,1417A,106.6263,29.7228,重庆市,两路,细颗粒物(PM2.5),69,59,58,50,45,28,12,20,15,39,47,6,7,1.0,0.9
2023-01-01T21:00:00,1418A,106.2953,29.5983,重庆市,虎溪,细颗粒物(PM2.5),80,68,63,59,55,35,11,30,23,38,33,5,5,0.9,0.8
2023-01-01T21:00:00,1419A,106.5777,29.5102,重庆市,南坪,细颗粒物(PM2.5),75,70,68,55,54,24,10,13,6,39,38,4,5,0.8,0.8
2023-01-01T21:00:00,1420A,106.6556,29.6277,重庆市,唐家沱,细颗粒物(PM2.5),77,65,62,56,54,23,5,16,14,46,49,7,7,0.7,0.7
2023-01-01T21:00:00,1421A,106.6349,29.4906,重庆市,茶园,细颗粒物(PM2.5),80,96,79,59,57,34,15,23,19,50,42,8,8,0.9,0.7
2023-01-01T21:00:00,1422A,106.3754,29.4572,重庆市,白市驿,细颗粒物(PM2.5),67,67,61,48,51,26,4,17,11,53,39,5,6,0.8,0.8
2023-01-01T21:00:00,1425A,106.6205,29.7166,重庆市,空港,细颗粒物(PM2.5),75,74,58,55,50,32,10,23,17,37,40,7,7,1.0,0.9
2023-01-01T21:00:00,1426A,106.4782,29.4875,重庆市,新山村,细颗粒物(PM2.5),100,87,79,75,63,19,5,11,8,63,55,5,7,0.6,0.6
2023-01-01T21:00:00,1427A,106.5616,29.6453,重庆市,礼嘉,颗粒物(PM10),68,85,76,47,50,19,4,14,10,53,50,10,10,0.7,0.6
2023-01-01T21:00:00,1428A,106.4522,29.7091,重庆市,蔡家,细颗粒物(PM2.5),77,56,71,56,51,23,7,21,14,40,32,5,5,1.0,0.9
2023-01-01T21:00:00,1429A,106.5093,29.3917,重庆市,鱼新街,,,86,75,62,58,27,5,18,14,,33,8,11,1.3,1.1
2023-01-01T21:00:00,1431A,103.9728,30.7236,成都市,金泉两河,细颗粒物(PM2.5),59,56,75,42,63,27,23,13,13,25,33,1,2,0.7,0.8
2023-01-01T21:00:00,1432A,104.176,30.6872,成都市,十里店,细颗粒物(PM2.5),69,54,60,50,52,47,38,39,39,20,35,2,2,0.7,0.8
2023-01-01T21:00:00,1433A,104.079,30.5706,成都市,三瓦窑,颗粒物(PM10),53,56,64,31,48,37,35,28,28,19,35,1,1,0.6,0.7
2023-01-01T21:00:00,1434A,104.1114,30.63,成都市,沙河铺,颗粒物(PM10),59,68,66,41,52,35,32,30,30,24,33,2,2,0.6,0.7
2023-01-01T21:00:00,1437A,104.0786,30.6531,成都市,君平街,细颗粒物(PM2.5),59,51,64,42,56,50,50,35,35,21,40,2,5,0.6,0.6
2023-01-01T21:00:00,1438A,103.613,31.0283,成都市,灵岩寺(对照点),细颗粒物(PM2.5),89,73,70,66,70,51,34,41,34,16,20,3,3,0.8,0.9
2023-01-01T21:00:00,1439A,106.6899,26.5998,贵阳市,马鞍山,,35,27,19,24,18,41,24,37,28,17,15,5,5,0.6,0.6
2023-01-01T21:00:00,1440A,106.6971,26.5694,贵阳市,市环保站,,36,19,16,25,21,52,26,48,32,20,19,4,5,0.4,0.4
2023-01-01T21:00:00,1441A,106.6243,26.6266,贵阳市,鉴湖路,,32,29,29,22,18,44,24,43,25,17,18,4,4,0.4,0.4
2023-01-01T21:00:00,1442A,106.7487,26.6343,贵阳市,燕子冲,,45,29,25,31,25,48,19,45,32,14,11,4,6,0.4,0.4
2023-01-01T21:00:00,1443A,106.6555,26.4365,贵阳市,碧云窝,,,,19,,20,35,,34,,,17,,10,,0.5
2023-01-01T21:00:00,1444A,106.694,26.5161,贵阳市,中院村,颗粒物(PM10),52,53,32,31,20,47,24,42,25,27,22,16,10,0.6,0.5
2023-01-01T21:00:00,1445A,106.7109,26.6027,贵阳市,红边门,,32,24,25,22,19,52,22,51,32,21,16,13,11,0.6,0.6
2023-01-01T21:00:00,1446A,106.7164,26.5699,贵阳市,新华路,,32,31,29,22,17,52,32,48,34,12,13,5,6,0.5,0.5
2023-01-01T21:00:00,1447A,106.674,26.5424,贵阳市,太慈桥,,39,39,35,24,18,44,31,40,28,21,23,5,6,0.4,0.4
2023-01-01T21:00:00,1450A,102.8204,24.8886,昆明市,呈贡新区,,38,38,17,17,16,53,39,47,43,23,21,7,7,0.7,0.7
2023-01-01T21:00:00,1451A,102.6251,24.9608,昆明市,西山森林公园(对照点),,15,7,10,8,10,65,45,57,51,13,10,7,7,0.4,0.4
2023-01-01T21:00:00,1452A,102.7252,25.0902,昆明市,龙泉镇,,21,21,26,14,17,55,28,38,34,28,27,8,7,1.0,1.1
2023-01-01T21:00:00,1453A,102.7266,25.0375,昆明市,东风东路,,29,24,24,20,18,54,30,40,32,26,23,7,7,0.8,0.9
2023-01-01T21:00:00,1454A,102.6742,25.0669,昆明市,金鼎山,,22,22,24,15,20,53,34,40,38,19,18,10,8,0.6,0.7
2023-01-01T21:00:00,1455A,102.6644,25.0401,昆明市,碧鸡广场,,28,21,22,19,18,54,26,44,38,29,28,5,4,0.8,0.8
2023-01-01T21:00:00,1456A,91.1319,29.6514,拉萨市,八廓街,颗粒物(PM10),73,96,51,49,15,109,37,93,78,41,19,7,7,1.8,1
2023-01-01T21:00:00,1457A,91.1221,29.6747,拉萨市,市环保局,颗粒物(PM10),64,77,60,41,28,100,62,87,83,43,35,8,7,0.8,1
2023-01-01T21:00:00,1458A,91.0874,29.6475,拉萨市,区监测站,颗粒物(PM10),52,53,51,17,18,103,57,91,87,23,18,7,7,0.6,0.5
2023-01-01T21:00:00,1459A,91.1774,29.6541,拉萨市,西藏大学,,48,48,37,21,12,102,62,92,90,34,15,11,10,0.8,0.7
2023-01-01T21:00:00,1460A,90.9798,29.6588,拉萨市,区辐射站,,,132,67,82,30,91,20,79,68,97,37,26,10,2.6,1
2023-01-01T21:00:00,1461A,91.0834,29.6292,拉萨市,拉萨火车站,,48,48,58,12,17,93,87,83,83,13,26,8,9,0.3,0.5
2023-01-01T21:00:00,1462A,108.882,34.2749,西安市,高压开关厂,细颗粒物(PM2.5),234,204,272,184,221,58,58,50,50,52,86,11,12,1.3,1.7
2023-01-01T21:00:00,1463A,108.993,34.2629,西安市,兴庆小区,细颗粒物(PM2.5),333,270,233,283,218,41,15,22,22,81,82,10,12,1.6,1.6
2023-01-01T21:00:00,1464A,109.06,34.2572,西安市,纺织城,细颗粒物(PM2.5),315,269,217,265,194,21,8,11,11,90,78,11,12,2.0,2
2023-01-01T21:00:00,1465A,108.9356,34.2173,西安市,小寨,细颗粒物(PM2.5),271,275,272,221,217,45,37,39,39,61,86,11,12,1.3,1.6
2023-01-01T21:00:00,1466A,108.954,34.2713,西安市,市人民体育场,细颗粒物(PM2.5),290,223,256,240,221,53,19,38,38,82,87,12,12,1.5,1.6
2023-01-01T21:00:00,1467A,108.8922,34.2322,西安市,高新西区,细颗粒物(PM2.5),235,197,258,185,229,58,58,45,45,48,88,12,12,1.2,1.7
2023-01-01T21:00:00,1468A,108.935,34.3474,西安市,经开区,细颗粒物(PM2.5),176,108,204,133,209,61,37,46,46,61,77,14,14,1.2,1.6
2023-01-01T21:00:00,1469A,108.906,34.1546,西安市,长安区,细颗粒物(PM2.5),314,297,258,264,227,49,24,36,36,65,69,9,11,1.6,1.7
2023-01-01T21:00:00,1471A,109.2186,34.3731,西安市,临潼区,细颗粒物(PM2.5),242,218,249,192,217,29,29,17,17,64,75,13,13,1.8,2.2
2023-01-01T21:00:00,1472A,108.869,34.378,西安市,草滩(对照点),细颗粒物(PM2.5),221,119,196,171,216,63,15,36,34,86,66,15,13,1.6,1.8
2023-01-01T21:00:00,1473A,108.985,34.1978,西安市,曲江文化产业集团,细颗粒物(PM2.5),348,330,333,298,280,44,11,36,36,88,84,11,11,1.6,1.6
2023-01-01T21:00:00,1474A,109.051,34.3213,西安市,广运潭,细颗粒物(PM2.5),326,266,262,276,241,29,10,14,14,87,79,9,14,2.0,2.2
2023-01-01T21:00:00,1476A,103.631,36.1031,兰州市,兰炼宾馆,细颗粒物(PM2.5),92,113,127,68,75,57,13,42,36,78,68,29,49,1.0,1.7
2023-01-01T21:00:00,1477A,104.1373,35.9454,兰州市,榆中兰大校区(对照点),,,,,,,,,,,,,,,,
2023-01-01T21:00:00,1478A,103.8412,36.0726,兰州市,生物制品所,"颗粒物(PM10),细颗粒物(PM2.5)",73,95,115,53,71,55,10,46,44,82,79,28,36,1.2,1.9
2023-01-01T21:00:00,1479A,103.831,36.0464,兰州市,铁路设计院,细颗粒物(PM2.5),80,75,148,59,104,58,35,47,47,68,86,30,46,1.0,2.3
2023-01-01T21:00:00,1483A,101.524,36.6867,西宁市,第五水厂(对照点),,,,,,,,,,,,,,,,
2023-01-01T21:00:00,1484A,105.9512,38.6016,银川市,贺兰山马莲口(对照点),细颗粒物(PM2.5),97,91,63,72,51,70,35,68,40,53,38,46,36,1.8,1.4
2023-01-01T21:00:00,1488A,106.2328,38.4975,银川市,贺兰山东路,细颗粒物(PM2.5),272,289,230,222,179,37,12,28,22,89,74,33,33,2.9,2.4
2023-01-01T21:00:00,1489A,106.1358,38.5036,银川市,学院路,细颗粒物(PM2.5),203,233,196,153,129,30,7,24,20,97,74,69,43,3.0,2.5
2023-01-01T21:00:00,1490A,87.5801,43.8303,乌鲁木齐市,监测站,细颗粒物(PM2.5),249,282,277,199,194,9,0,6,5,104,95,6,5,3.1,2.6
2023-01-01T21:00:00,1491A,87.6046,43.768,乌鲁木齐市,收费所,细颗粒物(PM2.5),264,352,228,214,166,14,4,10,9,99,87,4,3,2.8,2.2
2023-01-01T21:00:00,1492A,87.4754,43.9469,乌鲁木齐市,新疆农科院农场(对照点),细颗粒物(PM2.5),252,141,169,202,214,43,35,34,34,44,62,5,5,2.2,2.4
2023-01-01T21:00:00,1493A,87.5525,43.8711,乌鲁木齐市,铁路局,细颗粒物(PM2.5),268,254,286,218,241,19,5,13,12,102,90,3,2,3.0,2.6
2023-01-01T21:00:00,1494A,87.6432,43.831,乌鲁木齐市,三十一中学,细颗粒物(PM2.5),259,301,259,209,193,19,5,14,12,96,93,5,5,2.8,2.3
2023-01-01T21:00:00,1496A,87.7216,44.1747,乌鲁木齐市,米东区环保局,细颗粒物(PM2.5),218,208,247,168,203,46,15,34,31,80,64,14,13,2.0,2.3
2023-01-01T21:00:00,1508A,112.9433,27.8614,湘潭市,板塘,细颗粒物(PM2.5),203,151,122,153,126,71,43,52,52,35,34,9,7,1.1,1
2023-01-01T21:00:00,1511A,112.9118,27.8403,湘潭市,市监测站,细颗粒物(PM2.5),192,159,131,144,122,65,46,50,50,31,33,7,7,1.2,1.1
2023-01-01T21:00:00,1512A,112.8937,27.8728,湘潭市,江麓,细颗粒物(PM2.5),176,162,127,133,116,77,58,70,70,35,38,12,10,1.1,1
2023-01-01T21:00:00,1513A,112.9227,27.8159,湘潭市,岳塘,细颗粒物(PM2.5),199,147,126,149,120,64,44,51,51,29,31,10,4,0.9,0.8
2023-01-01T21:00:00,1514A,112.9074,27.9119,湘潭市,科大,细颗粒物(PM2.5),195,156,130,146,127,68,51,54,54,34,33,12,11,1.2,1.1
2023-01-01T21:00:00,1515A,113.135,27.8244,株洲市,天台山庄,细颗粒物(PM2.5),212,152,116,162,121,77,21,58,51,,37,5,5,1.3,1
2023-01-01T21:00:00,1518A,113.095,27.8867,株洲市,株冶医院,细颗粒物(PM2.5),204,161,115,154,109,71,24,54,51,50,38,5,5,1.0,0.9
2023-01-01T21:00:00,1519A,113.167,27.8667,株洲市,市四中,细颗粒物(PM2.5),211,166,115,161,114,74,30,56,51,48,37,5,5,0.8,0.7
2023-01-01T21:00:00,1520A,113.143,27.8381,株洲市,火车站,细颗粒物(PM2.5),224,190,133,174,128,70,23,55,50,49,38,5,5,1.3,1.1
2023-01-01T21:00:00,1524A,113.13,27.8528,株洲市,市监测站,细颗粒物(PM2.5),224,175,126,174,126,79,29,61,55,51,40,6,8,1.0,0.8
2023-01-01T21:00:00,1552A,106.805,26.3003,贵阳市,桐木岭(对照点),,,,,,,,,,,,,,,,
2023-01-01T21:00:00,1559A,113.251,27.8336,株洲市,大京风景区(对照点),细颗粒物(PM2.5),193,141,102,145,97,73,37,60,56,29,17,4,4,1.0,0.8
2023-01-01T21:00:00,1562A,113.0048,27.9153,湘潭市,昭山,细颗粒物(PM2.5),204,171,123,154,119,67,38,54,54,34,35,4,2,0.9,0.8
2023-01-01T21:00:00,1564A,112.4876,27.9164,湘潭市,韶山(对照点),细颗粒物(PM2.5),112,67,70,84,67,86,75,76,76,18,14,9,7,1.2,1.2
2023-01-01T21:00:00,1585A,109.8756,40.6532,包头市,市环境监测站,,34,34,63,9,40,67,47,54,51,20,42,10,17,0.8,1.3
2023-01-01T21:00:00,1587A,109.9991,40.5842,包头市,包头八中,,50,50,115,18,67,50,48,37,37,24,61,9,27,0.6,1.8
2023-01-01T21:00:00,1588A,109.8538,40.6821,包头市,青山宾馆,,31,31,70,12,45,69,51,53,52,17,39,4,12,0.4,1
2023-01-01T21:00:00,1589A,109.8642,40.6288,包头市,惠龙物流,,48,48,92,26,55,71,46,50,46,27,53,6,19,0.5,1.5
2023-01-01T21:00:00,1590A,110.0377,40.5546,包头市,东河鸿龙湾,,50,50,134,6,74,41,40,33,33,28,58,11,26,0.5,2
2023-01-01T21:00:00,1591A,110.0023,39.8129,鄂尔多斯市,综合楼,颗粒物(PM10),75,100,70,51,29,68,30,60,41,52,33,27,14,1.2,0.7
2023-01-01T21:00:00,1592A,109.9486,39.8261,鄂尔多斯市,巴音孟克林场办事处,细颗粒物(PM2.5),77,97,54,56,24,74,19,69,39,60,31,24,13,1.6,0.8
2023-01-01T21:00:00,1593A,109.7736,39.5986,鄂尔多斯市,康泽苑,颗粒物(PM10),60,70,39,31,18,57,31,48,45,30,19,11,7,1.2,0.7
2023-01-01T21:00:00,1594A,109.8119,39.5989,鄂尔多斯市,华泰汽车城,颗粒物(PM10),59,68,46,41,27,72,30,57,51,42,33,16,12,1.1,0.7
2023-01-01T21:00:00,1595A,109.9734,39.7884,鄂尔多斯市,奥林花园,细颗粒物(PM2.5),70,88,63,51,28,59,32,52,40,46,44,22,12,1.2,0.8
2023-01-01T21:00:00,1596A,122.2414,40.6592,营口市,学府南路(停运211214),,,,,,,,,,,,,,,,
2023-01-01T21:00:00,1597A,122.2703,40.7094,营口市,大庆路,颗粒物(PM10),55,59,70,37,43,69,18,57,41,50,40,8,18,0.8,1.2
2023-01-01T21:00:00,1598A,122.2150,40.6511,营口市,镜湖西路,颗粒物(PM10),57,64,52,27,22,71,18,60,45,66,33,13,16,0.8,0.8
2023-01-01T21:00:00,1599A,122.1658,40.6789,营口市,西炮台,细颗粒物(PM2.5),176,146,56,133,35,65,3,58,40,71,33,7,12,0.9,0.8
2023-01-01T21:00:00,1600A,124.3303,40.0625,丹东市,江湾东路,,36,36,40,21,29,64,54,60,59,14,20,15,19,0.8,1
2023-01-01T21:00:00,1601A,124.4256,40.1503,丹东市,临江后街,,28,28,48,15,32,63,49,59,57,17,26,11,17,0.6,0.9
2023-01-01T21:00:00,1602A,124.3933,40.1461,丹东市,元宝山,,21,21,36,13,23,60,51,56,55,18,28,23,20,1.0,1.2
2023-01-01T21:00:00,1603A,124.3633,40.1092,丹东市,民主桥,,31,31,41,14,24,61,51,58,56,15,22,14,16,0.6,0.9
2023-01-01T21:00:00,1604A,122.0303,41.1489,盘锦市,开发区,细颗粒物(PM2.5),58,55,36,41,20,68,22,62,52,43,17,11,16,0.9,0.6
2023-01-01T21:00:00,1605A,122.0485,41.0883,盘锦市,兴隆台,颗粒物(PM10),67,84,39,47,20,66,8,60,44,62,22,18,15,1.0,0.5
2023-01-01T21:00:00,1606A,121.8297,41.1028,盘锦市,新生街道,细颗粒物(PM2.5),104,98,46,78,27,69,12,52,40,59,38,40,21,0.9,0.7
2023-01-01T21:00:00,1607A,120.9092,40.7136,葫芦岛市,龙港区,,46,31,71,32,44,59,45,55,54,27,39,41,110,0.9,1
2023-01-01T21:00:00,1608A,120.8392,40.7514,葫芦岛市,化工街,细颗粒物(PM2.5),100,106,72,75,47,55,17,45,36,65,46,40,70,1.6,1.1
2023-01-01T21:00:00,1609A,120.8341,40.7073,葫芦岛市,新区,细颗粒物(PM2.5),83,58,59,61,39,63,10,55,44,64,41,19,30,1.0,0.9
2023-01-01T21:00:00,1610A,120.8695,40.7677,葫芦岛市,东城区,,,305,101,,65,62,15,49,35,56,43,48,46,2.0,1.3
2023-01-01T21:00:00,1611A,118.5819,24.9117,泉州市,涂山街,,25,19,28,12,13,90,80,82,82,8,11,7,7,0.5,0.5
2023-01-01T21:00:00,1612A,118.5972,24.8978,泉州市,津头埔,,24,19,29,12,17,88,76,78,75,13,16,7,7,0.6,0.6
2023-01-01T21:00:00,1613A,118.6663,24.9424,泉州市,万安,,25,19,24,10,13,90,80,86,83,10,9,6,7,0.4,0.4
2023-01-01T21:00:00,1614A,118.6117,24.9604,泉州市,清源山(对照点),,,,,,,,,,,,,,,,
2023-01-01T21:00:00,1616A,117.6795,36.229,济南市,技术学院,细颗粒物(PM2.5),118,161,195,89,138,73,18,58,47,84,70,25,16,1.5,1.6
2023-01-01T21:00:00,1618A,118.3429,35.0532,临沂市,沂河小区,细颗粒物(PM2.5),158,151,193,120,161,82,41,72,63,40,52,15,21,1.1,1.4
2023-01-01T21:00:00,1619A,118.295,35.0583,临沂市,鲁南制药厂,细颗粒物(PM2.5),129,144,181,98,136,82,44,74,66,62,69,21,30,0.9,1.1
2023-01-01T21:00:00,1620A,118.2794,34.9976,临沂市,新光毛纺厂,细颗粒物(PM2.5),122,134,181,92,138,78,53,70,64,47,69,13,23,1.4,1.7
2023-01-01T21:00:00,1621A,118.3956,35.0888,临沂市,河东保险公司,细颗粒物(PM2.5),156,163,199,119,162,85,34,71,58,60,68,24,22,1.5,1.7
2023-01-01T21:00:00,1622A,116.3032,37.4674,德州市,儿童乐园,细颗粒物(PM2.5),122,139,179,92,128,63,6,54,43,92,74,18,20,1.4,1.6
2023-01-01T21:00:00,1624A,116.2991,37.4451,德州市,监理站,细颗粒物(PM2.5),144,163,191,110,141,67,15,56,48,84,71,19,22,1.4,1.5
2023-01-01T21:00:00,1625A,115.9848,36.4372,聊城市,区政府,细颗粒物(PM2.5),168,172,197,127,145,58,39,45,45,54,66,26,18,1.3,1.6
2023-01-01T21:00:00,1628A,118.0062,37.3803,滨州市,市环保局,细颗粒物(PM2.5),92,107,256,68,184,62,23,47,43,63,78,79,36,0.9,1.5
2023-01-01T21:00:00,1629A,118.0018,37.3617,滨州市,第二水厂,细颗粒物(PM2.5),87,100,225,64,169,61,19,48,43,70,83,18,26,0.7,1.5
2023-01-01T21:00:00,1630A,117.9776,37.393,滨州市,北中新校,细颗粒物(PM2.5),94,121,224,70,165,60,5,47,36,74,76,43,21,0.9,1.3
2023-01-01T21:00:00,1631A,118.0414,36.8103,淄博市,人民公园,细颗粒物(PM2.5),172,212,302,130,226,81,6,50,37,88,87,30,28,1.1,1.5
2023-01-01T21:00:00,1633A,117.8525,36.4847,淄博市,双山,细颗粒物(PM2.5),208,210,192,158,145,74,5,61,43,86,69,34,21,1.4,1.4
2023-01-01T21:00:00,1634A,117.9592,36.6331,淄博市,气象站,细颗粒物(PM2.5),233,290,243,183,166,72,2,42,31,83,74,49,32,1.9,1.6
2023-01-01T21:00:00,1635A,118.3092,36.8194,淄博市,莆田园,细颗粒物(PM2.5),201,178,234,151,172,61,11,46,32,64,60,28,26,0.8,2.2
2023-01-01T21:00:00,1637A,117.558,34.8438,枣庄市,市中区政府,细颗粒物(PM2.5),163,205,262,124,186,90,30,80,64,79,70,22,24,1.3,1.7
2023-01-01T21:00:00,1638A,117.2852,34.7837,枣庄市,薛城环保局,细颗粒物(PM2.5),140,161,196,107,147,99,45,76,58,66,73,17,18,1.2,1.3
2023-01-01T21:00:00,1639A,117.5852,34.7745,枣庄市,峄城区政府,细颗粒物(PM2.5),160,173,234,122,163,80,49,71,66,50,59,26,25,1.0,1.1
2023-01-01T21:00:00,1640A,117.7276,34.5578,枣庄市,台儿庄区环保局,细颗粒物(PM2.5),107,119,252,80,193,119,41,91,77,51,67,17,18,1.1,1.7
2023-01-01T21:00:00,1641A,117.4518,35.0992,枣庄市,山亭区环保局,细颗粒物(PM2.5),110,114,179,83,145,96,73,90,84,47,53,26,16,1.2,1.3
2023-01-01T21:00:00,1642A,121.2514,37.5639,烟台市,开发区,,18,9,82,5,72,77,55,60,59,17,40,10,12,0.4,0.9
2023-01-01T21:00:00,1643A,121.3719,37.5433,烟台市,轴承厂,,48,48,83,30,66,75,25,73,62,47,32,22,16,1.1,0.8
2023-01-01T21:00:00,1644A,121.3181,37.5436,烟台市,西郊化工站,,39,39,106,16,82,77,21,66,53,59,36,15,16,0.8,1
2023-01-01T21:00:00,1645A,121.4478,37.4822,烟台市,莱山环保局,,,12,66,,142,92,66,72,69,14,25,8,12,0.6,0.9
2023-01-01T21:00:00,1646A,121.2611,37.4967,烟台市,福山环保局,细颗粒物(PM2.5),125,139,142,95,109,63,1,53,40,71,53,16,10,1.5,1.2
2023-01-01T21:00:00,1650A,119.1437,36.7023,潍坊市,环保局,细颗粒物(PM2.5),70,61,213,51,176,72,47,60,60,36,70,9,17,0.7,1.7
2023-01-01T21:00:00,1653A,116.6251,35.4302,济宁市,火炬城,细颗粒物(PM2.5),185,147,207,139,195,120,49,98,91,50,74,23,17,1.1,1.2
2023-01-01T21:00:00,1655A,116.5491,35.4042,济宁市,电化厂,细颗粒物(PM2.5),192,192,225,144,192,110,47,87,81,54,70,32,20,1.3,1.5
2023-01-01T21:00:00,1656A,117.1437,36.1937,泰安市,监测站,细颗粒物(PM2.5),110,136,145,83,110,72,36,64,54,54,54,26,17,1.3,1.4
2023-01-01T21:00:00,1657A,117.0885,36.2017,泰安市,人口学校,颗粒物(PM10),76,102,116,54,81,65,40,57,53,48,55,23,15,0.8,1
2023-01-01T21:00:00,1658A,117.1089,36.1758,泰安市,电力学校,细颗粒物(PM2.5),107,119,175,80,134,65,30,54,41,46,60,29,25,1.2,1.7
2023-01-01T21:00:00,1659A,119.471,35.4209,日照市,监测站,细颗粒物(PM2.5),89,100,170,66,127,71,23,64,46,76,73,14,17,1.3,1.6
2023-01-01T21:00:00,1660A,119.523,35.4216,日照市,市政府广场,细颗粒物(PM2.5),80,92,144,59,112,73,39,68,63,45,38,9,13,1.1,1.3
2023-01-01T21:00:00,1661A,119.5587,35.4044,日照市,港务局,"颗粒物(PM10),细颗粒物(PM2.5)",57,63,139,40,107,82,60,76,74,34,48,9,14,0.7,1
2023-01-01T21:00:00,1662A,122.1214,37.4236,威海市,华夏技校,,22,9,66,7,50,78,69,74,71,16,24,2,5,0.3,0.6
2023-01-01T21:00:00,1663A,122.0508,37.5236,威海市,山大分校,,24,5,68,2,47,76,75,76,75,3,14,3,6,0.0,0.3
2023-01-01T21:00:00,1664A,122.1067,37.5072,威海市,市监测站,,18,17,68,7,53,76,55,74,68,25,22,1,3,0.3,0.5
2023-01-01T21:00:00,1666A,118.6614,37.4309,东营市,市环保局,细颗粒物(PM2.5),58,53,178,41,148,75,42,67,57,32,52,9,18,0.5,1.2
2023-01-01T21:00:00,1669A,113.5824,24.7733,韶关市,市八中,细颗粒物(PM2.5),52,32,28,36,24,79,40,72,62,11,9,12,9,0.8,0.7
2023-01-01T21:00:00,1671A,113.5917,24.7972,韶关市,园林处,细颗粒物(PM2.5),53,45,28,37,24,79,38,72,62,11,8,10,8,0.8,0.7
2023-01-01T21:00:00,1672A,113.6735,24.7791,韶关市,韶关学院,细颗粒物(PM2.5),57,37,29,40,28,80,22,73,59,34,19,8,6,0.7,0.6
2023-01-01T21:00:00,1673A,113.5971,24.6863,韶关市,曲江监测站,细颗粒物(PM2.5),55,40,30,39,26,83,36,76,63,17,11,16,13,0.7,0.6
2023-01-01T21:00:00,1674A,116.6794,23.3667,汕头市,金平子站,,37,37,36,21,24,87,60,74,72,25,21,10,15,0.6,0.7
2023-01-01T21:00:00,1675A,116.7244,23.3633,汕头市,龙湖子站,,36,36,33,20,19,88,70,79,79,24,21,10,12,0.6,0.6
2023-01-01T21:00:00,1676A,116.7258,23.2775,汕头市,濠江子站,,32,30,29,22,19,91,68,80,80,25,19,8,10,0.5,0.6
2023-01-01T21:00:00,1677A,116.7519,23.4714,汕头市,澄海子站,,34,34,33,22,24,91,68,81,79,24,19,5,5,0.6,0.7
2023-01-01T21:00:00,1678A,116.6092,23.2539,汕头市,潮阳子站,,41,41,37,17,20,82,64,72,72,17,16,6,8,0.4,0.5
2023-01-01T21:00:00,1680A,110.3539,21.2706,湛江市,湛江影剧院,细颗粒物(PM2.5),110,108,65,83,49,108,45,94,88,54,26,22,22,1.0,0.8
2023-01-01T21:00:00,1681A,110.3928,21.2228,湛江市,市环境监测站,细颗粒物(PM2.5),95,97,66,71,48,106,74,84,84,33,25,31,17,0.9,0.7
2023-01-01T21:00:00,1682A,110.4019,21.1997,湛江市,环保局宿舍,细颗粒物(PM2.5),102,112,64,76,54,107,70,82,81,36,27,20,13,1.0,0.9
2023-01-01T21:00:00,1683A,110.4111,21.2028,湛江市,霞山游泳场,细颗粒物(PM2.5),95,104,68,71,50,112,71,88,87,34,23,23,18,0.8,0.8
2023-01-01T21:00:00,1684A,110.3316,21.2679,湛江市,麻章区环保局,细颗粒物(PM2.5),97,101,71,72,54,104,71,92,90,34,28,18,24,0.9,0.8
2023-01-01T21:00:00,1685A,110.4558,21.2567,湛江市,坡头区环保局,细颗粒物(PM2.5),103,82,59,77,53,101,82,91,91,26,23,29,17,1.0,0.9
2023-01-01T21:00:00,1686A,111.0286,21.4688,茂名市,电白南海,颗粒物(PM10),53,56,69,31,38,102,67,93,90,34,22,9,14,0.7,0.7
2023-01-01T21:00:00,1687A,110.9294,21.6533,茂名市,茂石化七小,细颗粒物(PM2.5),79,102,61,58,44,120,51,108,98,46,22,16,21,1.3,1.1
2023-01-01T21:00:00,1688A,110.9107,21.6687,茂名市,健康路,颗粒物(PM10),65,80,62,42,38,125,64,112,105,41,20,18,25,1.3,1.1
2023-01-01T21:00:00,1689A,110.8592,21.6828,茂名市,高岭,细颗粒物(PM2.5),98,107,67,73,49,117,68,100,94,29,27,17,25,1.0,0.9
2023-01-01T21:00:00,1690A,116.1231,24.3284,梅州市,梅江月梅,细颗粒物(PM2.5),54,47,36,38,32,62,24,47,46,34,29,6,6,0.7,0.7
2023-01-01T21:00:00,1691A,116.0797,24.2719,梅州市,梅县新城,,,41,36,56,30,49,10,34,30,50,28,,7,0.9,0.7
2023-01-01T21:00:00,1692A,116.1248,24.2654,梅州市,环境监控中心,细颗粒物(PM2.5),53,39,36,37,31,64,27,48,47,32,27,10,10,0.7,0.7
2023-01-01T21:00:00,1693A,115.3653,22.775,汕尾市,市环保局,,46,43,37,32,28,80,41,67,59,18,12,9,8,0.8,0.7
2023-01-01T21:00:00,1694A,115.3706,22.7898,汕尾市,市政府,,45,29,33,31,30,84,41,69,61,20,13,8,8,0.8,0.7
2023-01-01T21:00:00,1695A,115.3622,22.7925,汕尾市,新城中学,,,,44,22,29,80,42,64,58,18,11,9,9,0.9,0.7
2023-01-01T21:00:00,1696A,114.6778,23.7569,河源市,源西(对照点),颗粒物(PM10),52,54,36,25,31,77,42,64,54,32,19,6,5,0.8,0.8
2023-01-01T21:00:00,1697A,114.6944,23.7586,河源市,东埔,颗粒物(PM10),61,72,43,29,33,78,56,65,64,18,16,10,6,0.9,0.9
2023-01-01T21:00:00,1698A,114.6892,23.7233,河源市,老城,颗粒物(PM10),56,61,48,30,34,78,44,66,62,30,16,8,6,0.9,0.8
2023-01-01T21:00:00,1699A,111.9797,21.8593,阳江市,鸳鸯湖(对照点),细颗粒物(PM2.5),57,42,38,40,32,84,79,82,82,19,21,9,7,0.7,0.6
2023-01-01T21:00:00,1701A,111.9491,21.8658,阳江市,马南垌,颗粒物(PM10),54,58,42,35,28,86,75,80,80,28,26,8,6,0.6,0.6
2023-01-01T21:00:00,1702A,113.0426,23.691,清远市,环保大楼(对照点),,39,29,26,27,23,98,74,86,86,12,7,3,3,0.7,0.7
2023-01-01T21:00:00,1703A,113.0208,23.7106,清远市,凤城街办,,36,35,29,25,22,83,64,72,72,13,8,6,7,0.6,0.5
2023-01-01T21:00:00,1705A,116.6367,23.6719,潮州市,西园路(对照点),细颗粒物(PM2.5),107,100,36,80,33,69,23,56,53,40,16,9,7,1.0,0.7
2023-01-01T21:00:00,1706A,116.6447,23.6706,潮州市,档案局,细颗粒物(PM2.5),92,94,38,68,30,69,11,56,49,46,17,7,6,1.3,0.8
2023-01-01T21:00:00,1708A,116.3701,23.5345,揭阳市,新兴,细颗粒物(PM2.5),69,76,48,50,38,80,38,66,60,41,25,7,8,0.7,0.7
2023-01-01T21:00:00,1709A,116.3264,23.5443,揭阳市,西马,颗粒物(PM10),67,84,55,40,34,79,47,60,58,30,25,9,9,0.9,0.8
2023-01-01T21:00:00,1710A,116.3611,23.5626,揭阳市,东兴,"颗粒物(PM10),细颗粒物(PM2.5)",80,110,55,59,34,77,18,60,49,64,37,9,8,1.5,0.9
2023-01-01T21:00:00,1711A,116.4151,23.5294,揭阳市,渔湖,颗粒物(PM10),65,80,56,46,38,74,40,64,61,39,30,14,11,0.8,0.7
2023-01-01T21:00:00,1712A,112.0392,22.9169,云浮市,新市府(对照点),,36,27,29,25,25,97,56,83,78,18,15,13,14,0.6,0.7
2023-01-01T21:00:00,1714A,112.0539,22.9539,云浮市,牧羊,颗粒物(PM10),52,54,34,33,22,84,13,70,58,62,28,21,27,0.7,0.6
2023-01-01T21:00:00,1715A,102.575,24.3711,玉溪市,东风水库,,32,26,29,22,22,47,38,38,38,13,19,7,5,0.7,0.8
2023-01-01T21:00:00,1718A,115.4208,35.2464,菏泽市,气象局,细颗粒物(PM2.5),211,212,268,161,207,88,53,74,73,58,77,12,13,1.4,1.6
2023-01-01T21:00:00,1719A,115.4747,35.2375,菏泽市,市政协,细颗粒物(PM2.5),213,216,268,163,207,86,41,71,68,77,87,18,18,1.4,1.6
2023-01-01T21:00:00,1721A,113.3819,40.1097,大同市,果树场(对照点),,,,,,,,,,,,,,,,
2023-01-01T21:00:00,1723A,113.2994,40.0758,大同市,云冈宾馆,颗粒物(PM10),68,85,88,37,44,71,16,56,52,50,48,21,25,0.7,1.5
2023-01-01T21:00:00,1724A,113.3444,40.0917,大同市,大同大学,颗粒物(PM10),58,65,68,29,34,68,32,58,54,31,35,46,33,1.0,1.4
2023-01-01T21:00:00,1725A,113.2661,40.1269,大同市,安家小村,,46,46,90,4,32,74,44,63,59,28,43,18,28,0.5,1.9
2023-01-01T21:00:00,1726A,113.2711,40.0844,大同市,教育学院,颗粒物(PM10),56,61,92,35,51,64,27,55,52,42,46,20,33,0.6,1.6
2023-01-01T21:00:00,1727A,113.1147,36.1547,长治市,清华站,细颗粒物(PM2.5),128,112,101,97,71,88,78,72,72,38,56,22,30,1.1,1.3
2023-01-01T21:00:00,1728A,113.1031,36.1989,长治市,监测站,细颗粒物(PM2.5),125,101,97,95,74,75,74,64,64,32,55,24,34,1.1,1.6
2023-01-01T21:00:00,1730A,113.0886,36.2125,长治市,审计局,细颗粒物(PM2.5),140,108,105,107,86,71,59,60,60,40,49,22,32,1.2,1.6
2023-01-01T21:00:00,1731A,113.0844,36.1856,长治市,长治八中,细颗粒物(PM2.5),113,120,132,85,76,80,66,65,65,34,42,23,38,1.1,1.5
2023-01-01T21:00:00,1733A,111.5531,36.0783,临汾市,临钢医院,细颗粒物(PM2.5),172,201,151,130,98,39,6,28,22,72,51,29,25,2.4,2.1
2023-01-01T21:00:00,1734A,111.5028,36.0714,临汾市,技工学校,细颗粒物(PM2.5),193,226,160,145,102,50,4,34,26,88,62,35,32,2.9,1.8
2023-01-01T21:00:00,1736A,111.5018,36.0855,临汾市,市委,细颗粒物(PM2.5),192,224,152,144,96,48,6,34,26,80,54,31,29,3.3,2.1
2023-01-01T21:00:00,1738A,113.5758,37.8572,阳泉市,市中心,细颗粒物(PM2.5),114,121,104,86,54,33,6,22,18,85,74,25,42,1.4,1.1
2023-01-01T21:00:00,1739A,113.4894,37.8731,阳泉市,赛鱼,细颗粒物(PM2.5),97,112,89,72,54,37,8,25,23,65,66,23,31,1.2,1
2023-01-01T21:00:00,1740A,113.5819,37.8486,阳泉市,南庄,细颗粒物(PM2.5),98,138,104,73,57,33,5,24,20,81,73,33,38,1.4,1.2
2023-01-01T21:00:00,1742A,113.5614,37.8703,阳泉市,平坦,细颗粒物(PM2.5),109,128,100,82,56,32,10,24,21,77,73,27,38,1.4,1.1
2023-01-01T21:00:00,1743A,113.5158,37.8392,阳泉市,大阳泉,细颗粒物(PM2.5),83,100,64,61,44,57,18,52,33,70,50,25,29,1.3,0.9
2023-01-01T21:00:00,1744A,118.9233,42.2816,赤峰市,松山一中,,16,10,47,11,33,70,51,61,61,24,34,9,20,0.5,0.9
2023-01-01T21:00:00,1745A,118.9576,42.2728,赤峰市,哈达街,,20,20,43,14,27,67,57,61,61,16,25,16,16,0.5,0.7
2023-01-01T21:00:00,1746A,118.8788,42.2554,赤峰市,天义路,,14,12,42,6,25,70,44,60,58,24,25,22,16,0.5,0.7
2023-01-01T21:00:00,1748A,123.044,41.1196,鞍山市,深沟寺,颗粒物(PM10),55,60,40,33,22,65,28,58,51,34,24,15,16,0.9,0.8
2023-01-01T21:00:00,1749A,123.011,41.0931,鞍山市,太阳城,,50,50,36,31,18,59,43,53,52,19,20,12,18,0.5,0.7
2023-01-01T21:00:00,1750A,123.0485,41.1442,鞍山市,太平,细颗粒物(PM2.5),162,224,69,123,38,57,15,50,40,63,36,20,15,2.6,1.2
2023-01-01T21:00:00,1751A,122.9642,41.0971,鞍山市,铁西三道街,细颗粒物(PM2.5),155,204,52,118,25,62,16,56,48,57,36,27,29,2.0,1.8
2023-01-01T21:00:00,1752A,122.9341,41.0833,鞍山市,铁西工业园区,细颗粒物(PM2.5),228,271,64,178,38,63,20,56,38,76,44,43,24,2.7,1.4
2023-01-01T21:00:00,1753A,123.022,41.0821,鞍山市,明达新区,,42,42,37,22,20,48,38,43,43,20,23,12,15,0.6,0.8
2023-01-01T21:00:00,1754A,123.1289,41.0228,鞍山市,千山(对照点),,,,,,,,,,,,,,,,
2023-01-01T21:00:00,1755A,123.7977,41.8491,抚顺市,望花区,细颗粒物(PM2.5),113,128,109,85,68,67,11,57,46,50,35,6,4,1.1,1.2
2023-01-01T21:00:00,1756A,123.9161,41.8822,抚顺市,顺城区,细颗粒物(PM2.5),138,170,124,105,83,66,7,50,40,55,42,10,7,1.9,1.6
2023-01-01T21:00:00,1757A,124.0436,41.8611,抚顺市,东洲区,细颗粒物(PM2.5),92,122,110,68,75,65,6,52,40,42,31,8,7,1.0,1
2023-01-01T21:00:00,1758A,123.9247,41.8642,抚顺市,新抚区,细颗粒物(PM2.5),98,114,126,73,82,73,20,62,55,55,37,8,6,1.3,1.2
2023-01-01T21:00:00,1759A,124.0972,41.8961,抚顺市,大伙房水库,细颗粒物(PM2.5),62,71,71,44,50,71,36,57,52,19,23,4,6,0.8,0.8
2023-01-01T21:00:00,1760A,123.7086,41.8391,抚顺市,沈抚新城,细颗粒物(PM2.5),78,85,96,57,66,82,26,71,60,55,33,7,8,0.9,1
2023-01-01T21:00:00,1761A,123.8275,41.3064,本溪市,大峪,,46,46,76,20,28,53,26,47,43,28,32,12,13,0.7,0.9
2023-01-01T21:00:00,1762A,123.7567,41.3325,本溪市,溪湖,细颗粒物(PM2.5),97,88,67,72,32,59,11,54,42,48,34,20,10,1.3,1
2023-01-01T21:00:00,1763A,123.7169,41.3094,本溪市,彩屯,细颗粒物(PM2.5),107,114,78,80,48,60,13,52,39,52,37,16,13,1.2,1.2
2023-01-01T21:00:00,1764A,123.7669,41.2864,本溪市,东明,颗粒物(PM10),93,136,82,48,49,59,7,54,43,60,39,17,14,1.0,1.1
2023-01-01T21:00:00,1765A,123.7992,41.2664,本溪市,新立屯,颗粒物(PM10),61,72,45,43,30,59,10,53,34,52,40,10,10,0.8,0.7
2023-01-01T21:00:00,1766A,123.8142,41.3472,本溪市,威宁,颗粒物(PM10),78,105,76,55,47,52,6,43,31,50,36,6,7,1.1,1
2023-01-01T21:00:00,1767A,121.1115,41.0879,锦州市,南山,细颗粒物(PM2.5),246,143,57,196,59,73,21,58,42,75,36,51,26,2.7,1.2
2023-01-01T21:00:00,1768A,121.0533,40.8434,锦州市,开发区,颗粒物(PM10),122,193,94,83,45,75,9,59,40,77,46,36,25,1.0,0.8
2023-01-01T21:00:00,1769A,121.1836,41.1119,锦州市,百股街道,细颗粒物(PM2.5),140,105,60,107,50,74,14,53,41,60,41,27,29,1.6,1.2
2023-01-01T21:00:00,1770A,121.1178,41.1222,锦州市,天安街道,细颗粒物(PM2.5),170,193,82,129,50,65,9,51,34,76,40,96,32,2.2,0.9
2023-01-01T21:00:00,1771A,121.1303,41.1386,锦州市,北湖公园,细颗粒物(PM2.5),148,98,58,113,40,71,20,56,44,71,34,86,29,2.4,1
2023-01-01T21:00:00,1772A,126.54,43.8622,吉林市,哈达湾,,33,33,38,19,27,59,48,55,52,15,19,11,11,0.6,0.7
2023-01-01T21:00:00,1773A,126.5844,43.8358,吉林市,东局子,,44,44,40,26,26,54,37,49,45,25,24,12,11,0.7,0.7
2023-01-01T21:00:00,1774A,126.5052,43.8245,吉林市,电力学院,,,124,56,,32,59,15,54,37,47,26,24,14,2.1,1.1
2023-01-01T21:00:00,1775A,126.6133,43.8972,吉林市,江北,颗粒物(PM10),51,51,37,29,26,61,25,55,48,38,22,11,11,0.7,0.5
2023-01-01T21:00:00,1776A,126.555,43.8306,吉林市,江南公园,,38,38,40,23,28,57,39,52,50,26,22,10,12,0.8,0.7
2023-01-01T21:00:00,1778A,126.7061,43.7133,吉林市,丰满(对照点),,,,,,,,,,,,,,,,
2023-01-01T21:00:00,1779A,123.9305,47.3636,齐齐哈尔市,安居小区,,34,34,22,22,15,55,49,50,49,7,7,6,6,0.4,0.4
2023-01-01T21:00:00,1780A,123.9488,47.3386,齐齐哈尔市,中心广场,,23,23,15,12,5,61,56,56,55,5,4,4,4,0.2,0.1
2023-01-01T21:00:00,1781A,123.9483,47.3227,齐齐哈尔市,农牧车辆厂,,29,29,17,10,9,62,55,57,56,6,7,7,7,0.4,0.3
2023-01-01T21:00:00,1783A,123.945,47.2988,齐齐哈尔市,市环境监测站,,36,18,21,25,19,60,54,55,53,8,8,5,4,0.3,0.2
2023-01-01T21:00:00,1784A,129.61,44.561,牡丹江市,环保大楼,,25,25,33,14,21,70,62,62,60,7,12,4,6,0.3,0.3
2023-01-01T21:00:00,1785A,129.6115,44.5782,牡丹江市,文化广场,,49,34,39,34,33,61,52,52,52,9,12,5,6,0.3,0.4
2023-01-01T21:00:00,1786A,129.5904,44.5963,牡丹江市,第一医院,细颗粒物(PM2.5),54,41,36,38,31,64,60,57,57,5,14,2,4,0.4,0.5
2023-01-01T21:00:00,1787A,129.6364,44.6075,牡丹江市,机车工厂,,37,37,40,20,22,64,60,61,61,10,19,1,3,0.3,0.4
2023-01-01T21:00:00,1788A,129.6386,44.5462,牡丹江市,第一中学,,31,31,31,19,24,60,56,55,55,8,12,4,4,0.3,0.4
2023-01-01T21:00:00,1789A,124.81117,46.03138,大庆市,大同区,,50,42,27,35,16,63,42,57,52,18,9,7,6,0.5,0.4
2023-01-01T21:00:00,1790A,125.129,46.533,大庆市,龙凤区,,35,35,37,13,16,52,37,48,44,24,15,10,13,0.6,0.4
2023-01-01T21:00:00,1791A,124.902,46.408,大庆市,红岗区,,31,31,22,12,13,63,48,56,54,13,8,7,6,0.2,0.1
2023-01-01T21:00:00,1792A,125.153,46.586,大庆市,萨尔图区,,42,42,24,28,14,55,34,50,42,31,15,11,8,0.5,0.2
2023-01-01T21:00:00,1793A,124.9042,46.6215,大庆市,让胡路区,细颗粒物(PM2.5),53,46,28,37,19,60,43,55,50,16,9,10,9,0.3,0.4
2023-01-01T21:00:00,1794A,118.3606,31.3519,芜湖市,监测站,细颗粒物(PM2.5),107,93,122,80,97,52,41,30,27,64,81,7,7,0.7,0.9
2023-01-01T21:00:00,1795A,118.3714,31.4134,芜湖市,科创中心,细颗粒物(PM2.5),119,131,126,90,96,39,28,30,26,71,72,9,9,1.0,1.2
2023-01-01T21:00:00,1796A,118.3673,31.3131,芜湖市,四水厂,细颗粒物(PM2.5),103,110,135,77,98,58,44,34,34,59,77,9,10,1.0,1.1
2023-01-01T21:00:00,1798A,118.5092,31.6837,马鞍山市,湖东路四小,细颗粒物(PM2.5),144,100,92,110,93,44,25,37,36,81,71,11,11,1.1,1.1
2023-01-01T21:00:00,1799A,118.5024,31.6449,马鞍山市,开发区,细颗粒物(PM2.5),142,90,96,108,94,50,32,44,44,72,71,11,10,1.2,1.2
2023-01-01T21:00:00,1800A,118.5228,31.7231,马鞍山市,慈湖,细颗粒物(PM2.5),145,103,108,111,95,59,30,51,50,79,65,13,16,1.2,1.2
2023-01-01T21:00:00,1802A,118.6245,31.7241,马鞍山市,濮塘(对照点),细颗粒物(PM2.5),114,129,121,86,76,55,26,48,46,68,53,10,10,0.9,0.9
2023-01-01T21:00:00,1803A,115.9872,29.6815,九江市,十里,细颗粒物(PM2.5),77,88,107,56,82,68,50,59,58,39,57,11,11,0.8,1
2023-01-01T21:00:00,1804A,115.9584,29.7046,九江市,茅山头,细颗粒物(PM2.5),95,94,112,71,89,66,41,56,54,53,69,11,12,0.9,1
2023-01-01T21:00:00,1805A,115.9877,29.7295,九江市,西园,细颗粒物(PM2.5),108,79,105,81,97,58,35,47,44,44,59,8,9,1.0,1.1
2023-01-01T21:00:00,1806A,116.0172,29.6547,九江市,五七二七厂,细颗粒物(PM2.5),79,81,93,58,71,86,42,51,48,30,38,8,9,0.9,1
2023-01-01T21:00:00,1808A,115.9114,29.6038,九江市,综合工业园,细颗粒物(PM2.5),89,80,101,66,88,51,44,37,37,41,67,9,10,0.8,1
2023-01-01T21:00:00,1809A,116.0721,29.7535,九江市,石化总厂,细颗粒物(PM2.5),82,93,103,60,75,73,34,68,50,50,49,10,12,0.9,1
2023-01-01T21:00:00,1810A,115.9773,29.5698,九江市,庐山气象台(对照点),,29,17,18,20,21,75,61,66,66,18,20,6,6,0.5,0.4
2023-01-01T21:00:00,1812A,112.3931,34.6516,洛阳市,市委党校,细颗粒物(PM2.5),198,203,172,148,119,70,38,54,54,69,68,19,18,1.4,1.2
2023-01-01T21:00:00,1814A,112.4657,34.6871,洛阳市,豫西宾馆,细颗粒物(PM2.5),223,241,183,173,133,66,15,50,45,89,70,19,19,1.7,1.7
2023-01-01T21:00:00,1815A,112.494,34.6886,洛阳市,河南林校,细颗粒物(PM2.5),227,243,184,177,134,75,13,56,49,104,69,14,11,1.6,1.5
2023-01-01T21:00:00,1816A,112.3844,34.623,洛阳市,开发区管委会,细颗粒物(PM2.5),217,213,154,167,119,76,48,64,64,64,55,18,13,1.4,1.1
2023-01-01T21:00:00,1817A,112.4267,34.6258,洛阳市,市委新办公区,细颗粒物(PM2.5),244,246,166,194,131,68,29,55,53,80,54,16,12,1.8,1.3
2023-01-01T21:00:00,1818A,114.4839,36.0621,安阳市,棉研所(对照点),,,,,,,,,,,,,,,,
2023-01-01T21:00:00,1819A,114.3551,36.1017,安阳市,红庙街,细颗粒物(PM2.5),195,183,175,146,138,70,24,55,46,84,73,14,18,1.3,2.1
2023-01-01T21:00:00,1820A,114.361,36.0681,安阳市,银杏小区,细颗粒物(PM2.5),209,180,162,159,141,76,20,61,48,85,69,18,19,1.3,2
2023-01-01T21:00:00,1824A,114.3389,34.7781,开封市,肿瘤医院,细颗粒物(PM2.5),217,248,278,167,197,88,38,73,66,58,67,16,13,1.6,1.6
2023-01-01T21:00:00,1826A,114.2885,34.7965,开封市,世纪星幼儿园,细颗粒物(PM2.5),210,195,221,160,207,100,50,82,76,53,72,17,13,1.2,1.6
2023-01-01T21:00:00,1828A,113.227,35.2125,焦作市,市环保局,细颗粒物(PM2.5),199,212,156,149,114,56,18,50,41,68,49,30,23,1.8,1.6
2023-01-01T21:00:00,1830A,113.1992,35.2590,焦作市,影视城(对照点),,,,,,,,,,,,,,,,
2023-01-01T21:00:00,1832A,113.3257,33.742,平顶山市,新华旅馆,细颗粒物(PM2.5),230,287,233,180,143,64,47,58,56,65,68,14,13,1.1,1
2023-01-01T21:00:00,1833A,113.2919,33.737,平顶山市,规划设计院,细颗粒物(PM2.5),243,221,199,193,165,60,54,45,45,54,64,8,8,0.9,0.9
2023-01-01T21:00:00,1834A,113.182,33.774,平顶山市,平顶山工学院,细颗粒物(PM2.5),252,250,163,202,137,86,28,60,54,82,50,10,12,1.3,1.1
2023-01-01T21:00:00,1835A,111.1922,34.7752,三门峡市,市政府,细颗粒物(PM2.5),237,201,135,187,111,59,19,35,27,79,61,18,16,2.0,1.5
2023-01-01T21:00:00,1836A,111.1587,34.7942,三门峡市,开发区,细颗粒物(PM2.5),231,231,186,181,142,50,17,41,35,68,46,13,9,1.9,1.4
2023-01-01T21:00:00,1838A,111.143,34.7955,三门峡市,风景区(对照点),,,,,,,,,,,,,,,,
2023-01-01T21:00:00,1840A,111.2992,30.6981,宜昌市,白龙岗,细颗粒物(PM2.5),206,163,181,156,167,51,35,42,40,33,47,5,6,1.1,1.2
2023-01-01T21:00:00,1841A,111.3549,30.6465,宜昌市,伍家岗,细颗粒物(PM2.5),180,149,187,136,175,64,35,42,37,37,56,4,5,1.0,1.3
2023-01-01T21:00:00,1842A,111.2628,30.6961,宜昌市,点军区,细颗粒物(PM2.5),245,183,204,195,180,50,9,34,30,31,36,5,5,1.4,1.3
2023-01-01T21:00:00,1843A,111.3275,30.7819,宜昌市,夷陵区,细颗粒物(PM2.5),180,123,168,136,174,64,33,46,43,26,44,5,6,0.9,1.2
2023-01-01T21:00:00,1844A,112.2494,30.3197,荆州市,市图书馆,细颗粒物(PM2.5),99,75,150,74,159,67,59,62,62,26,45,4,8,0.7,1
2023-01-01T21:00:00,1845A,112.2008,30.3544,荆州市,市委党校,细颗粒物(PM2.5),100,67,150,75,153,73,51,63,63,23,36,5,7,0.8,1.1
2023-01-01T21:00:00,1847A,113.1094,29.3578,岳阳市,南湖风景区,细颗粒物(PM2.5),170,145,154,129,138,70,64,56,56,40,55,13,11,1.0,1.4
2023-01-01T21:00:00,1848A,113.1493,29.4251,岳阳市,城陵矶,细颗粒物(PM2.5),160,143,158,122,134,63,63,47,47,43,60,16,13,1.1,1.5
2023-01-01T21:00:00,1849A,113.1497,29.3575,岳阳市,开发区,细颗粒物(PM2.5),160,149,176,122,171,59,59,40,40,32,50,10,11,1.1,1.5
2023-01-01T21:00:00,1850A,113.2621,29.4758,岳阳市,云溪区,细颗粒物(PM2.5),220,156,162,170,183,47,42,39,39,39,49,9,10,1.1,1.3
2023-01-01T21:00:00,1851A,112.9943,29.4402,岳阳市,君山区,细颗粒物(PM2.5),190,152,169,143,165,71,71,62,62,25,39,8,9,0.9,1.2
2023-01-01T21:00:00,1852A,113.2117,29.355,岳阳市,金凤水库(对照点),细颗粒物(PM2.5),185,163,157,139,129,47,47,34,34,36,49,7,8,1.1,1.2
2023-01-01T21:00:00,1854A,111.6975,28.9703,常德市,市二中,细颗粒物(PM2.5),123,92,124,93,119,63,63,45,45,19,28,4,3,0.6,0.9
2023-01-01T21:00:00,1857A,111.7158,29.1456,常德市,白鹤山(对照点),细颗粒物(PM2.5),84,47,93,62,110,72,72,52,52,10,14,3,3,0.5,0.8
2023-01-01T21:00:00,1858A,110.5319,29.1217,张家界市,永定新区,细颗粒物(PM2.5),74,57,109,54,98,58,47,51,51,22,28,4,4,0.9,1.2
2023-01-01T21:00:00,1859A,110.4697,29.1242,张家界市,电业局,细颗粒物(PM2.5),55,36,88,39,86,62,57,56,56,12,21,4,4,0.6,0.9
2023-01-01T21:00:00,1860A,110.5594,29.3547,张家界市,未央路,细颗粒物(PM2.5),57,46,67,40,54,66,59,59,59,4,6,2,2,0.5,0.6
2023-01-01T21:00:00,1861A,110.4417,29.315,张家界市,袁家界(对照点),,27,16,27,7,24,85,84,81,81,3,4,8,8,0.5,0.5
2023-01-01T21:00:00,1862A,110.4144,25.3167,桂林市,电子科大尧山校区(对照点),细颗粒物(PM2.5),72,58,49,52,49,95,68,87,84,5,5,5,5,0.8,0.9
2023-01-01T21:00:00,1863A,110.2819,25.2697,桂林市,监测站,细颗粒物(PM2.5),94,68,70,70,64,96,58,84,80,18,14,7,6,0.8,0.7
2023-01-01T21:00:00,1864A,110.3089,25.2708,桂林市,龙隐路小学,细颗粒物(PM2.5),84,74,61,62,60,94,63,84,81,14,13,9,9,0.8,0.7
2023-01-01T21:00:00,1865A,110.2869,25.2178,桂林市,八中,细颗粒物(PM2.5),89,56,62,66,64,94,54,82,78,18,16,6,7,0.7,0.7
2023-01-01T21:00:00,1866A,109.2262,21.588,北海市,牛尾岭水库(对照点),细颗粒物(PM2.5),99,80,58,74,55,95,75,85,83,19,15,9,8,0.6,0.6
2023-01-01T21:00:00,1867A,109.1436,21.4086,北海市,海滩公园,细颗粒物(PM2.5),92,83,70,68,54,115,96,105,105,16,12,11,8,0.9,0.8
2023-01-01T21:00:00,1868A,109.0981,21.4661,北海市,新市环保局,细颗粒物(PM2.5),100,77,65,75,60,113,91,102,102,24,17,9,8,1.0,0.9
2023-01-01T21:00:00,1869A,109.1778,21.5233,北海市,北海工业园,细颗粒物(PM2.5),110,92,75,83,60,105,89,96,95,28,21,16,14,0.8,0.7
2023-01-01T21:00:00,1870A,109.4856,24.3895,柳州市,柳东小学,细颗粒物(PM2.5),105,76,64,79,60,102,78,93,93,19,10,13,8,0.8,0.7
2023-01-01T21:00:00,1871A,109.4157,24.3277,柳州市,环保监测站,细颗粒物(PM2.5),77,83,65,56,52,100,43,88,83,26,14,7,8,1.0,0.7
2023-01-01T21:00:00,1872A,109.389,24.341,柳州市,河西水厂,细颗粒物(PM2.5),169,246,80,128,59,101,16,86,77,63,27,11,13,1.5,1.2
2023-01-01T21:00:00,1873A,109.4311,24.2921,柳州市,市四中,细颗粒物(PM2.5),92,131,65,68,53,104,24,89,77,67,19,11,11,1.9,0.9
2023-01-01T21:00:00,1874A,109.4006,24.3631,柳州市,市九中,细颗粒物(PM2.5),104,91,68,78,59,92,42,82,74,41,22,11,11,0.9,0.7
2023-01-01T21:00:00,1875A,109.4958,24.3134,柳州市,古亭山,细颗粒物(PM2.5),82,60,56,60,57,104,26,88,80,49,12,10,10,0.9,0.8
2023-01-01T21:00:00,1876A,109.5078,18.2489,三亚市,河东子站,,38,38,31,21,20,102,63,93,75,16,12,3,3,0.7,0.6
2023-01-01T21:00:00,1877A,109.4964,18.2681,三亚市,河西子站,,32,32,29,20,20,88,57,83,68,18,13,3,3,0.6,0.5
2023-01-01T21:00:00,1878A,104.7778,31.4741,绵阳市,富乐山,,19,2,77,5,70,40,15,34,32,37,24,2,3,1.0,0.9
2023-01-01T21:00:00,1879A,104.7563,31.4535,绵阳市,市人大,细颗粒物(PM2.5),112,102,90,84,76,33,1,23,20,60,34,3,4,0.8,0.6
2023-01-01T21:00:00,1880A,104.6697,31.4668,绵阳市,高新区自来水公司,细颗粒物(PM2.5),105,123,102,79,82,32,3,29,18,53,32,6,4,1.0,0.8
2023-01-01T21:00:00,1881A,104.7287,31.5075,绵阳市,三水厂,细颗粒物(PM2.5),130,121,101,99,83,31,2,27,20,53,37,3,3,0.9,0.7
2023-01-01T21:00:00,1882A,104.563,28.793,宜宾市,石马中学(对照点),细颗粒物(PM2.5),84,72,58,62,47,40,26,34,32,19,16,5,5,0.7,0.7
2023-01-01T21:00:00,1883A,104.6201,28.7728,宜宾市,市委,细颗粒物(PM2.5),79,74,67,58,56,44,15,35,33,36,27,8,9,0.5,0.5
2023-01-01T21:00:00,1884A,104.6055,28.793,宜宾市,宜宾四中,细颗粒物(PM2.5),93,84,68,69,62,39,1,29,23,52,31,6,7,0.5,0.4
2023-01-01T21:00:00,1885A,104.639,28.7562,宜宾市,市政府,细颗粒物(PM2.5),85,73,68,63,60,39,23,30,29,38,30,6,7,0.6,0.6
2023-01-01T21:00:00,1886A,104.5742,28.7199,宜宾市,黄金嘴,细颗粒物(PM2.5),85,12,5,63,55,46,31,39,36,33,24,8,8,0.7,0.7
2023-01-01T21:00:00,1888A,101.6891,26.571,攀枝花市,弄弄坪,细颗粒物(PM2.5),70,69,87,51,60,63,27,48,46,34,37,12,19,1.3,2
2023-01-01T21:00:00,1889A,101.5769,26.5928,攀枝花市,河门口,,49,46,66,34,53,70,42,58,58,27,29,23,17,1.3,1.9
2023-01-01T21:00:00,1890A,101.7169,26.585,攀枝花市,炳草岗,细颗粒物(PM2.5),85,96,72,63,55,59,4,40,36,68,40,20,25,2.8,2.2
2023-01-01T21:00:00,1891A,101.7369,26.5008,攀枝花市,仁和,细颗粒物(PM2.5),103,114,85,77,60,64,14,41,37,37,28,18,25,2.4,2.4
2023-01-01T21:00:00,1893A,105.4324,28.9634,泸州市,九狮山(对照点),细颗粒物(PM2.5),75,78,66,55,47,26,8,18,13,15,19,6,7,0.6,0.6
2023-01-01T21:00:00,1894A,105.4427,28.9063,泸州市,小市上码头,细颗粒物(PM2.5),90,94,82,67,62,33,24,24,24,32,32,5,6,0.6,0.6
2023-01-01T21:00:00,1895A,105.4241,28.8573,泸州市,兰田宪桥,细颗粒物(PM2.5),97,90,76,72,63,24,6,20,13,39,29,7,7,0.9,0.8
2023-01-01T21:00:00,1896A,105.4379,28.8833,泸州市,市环监站,细颗粒物(PM2.5),92,93,82,68,58,24,12,17,17,39,30,3,3,0.7,0.6
2023-01-01T21:00:00,1901A,104.4239,31.1208,德阳市,东山公园,细颗粒物(PM2.5),80,68,74,59,67,54,37,47,47,28,25,1,1,0.8,0.9
2023-01-01T21:00:00,1902A,104.3826,31.1317,德阳市,西小区,细颗粒物(PM2.5),70,68,72,51,65,53,23,42,40,40,36,3,2,0.9,0.8
2023-01-01T21:00:00,1904A,104.3553,31.1091,德阳市,耐火材料厂,细颗粒物(PM2.5),70,72,81,51,68,57,32,44,44,25,31,3,2,0.7,0.8
2023-01-01T21:00:00,1905A,106.056,30.8064,南充市,西山风景区(对照点),细颗粒物(PM2.5),68,43,43,49,47,50,47,49,48,11,12,2,2,1.0,1
2023-01-01T21:00:00,1906A,106.0789,30.8023,南充市,南充市委,细颗粒物(PM2.5),65,66,63,47,50,44,25,35,35,29,26,4,4,0.8,0.7
2023-01-01T21:00:00,1907A,106.1031,30.8217,南充市,南充炼油厂,细颗粒物(PM2.5),77,73,62,56,50,51,22,45,43,35,22,6,6,0.7,0.6
2023-01-01T21:00:00,1908A,106.1064,30.7856,南充市,高坪区监测站,细颗粒物(PM2.5),79,86,63,58,54,51,26,44,42,41,28,7,7,0.7,0.6
2023-01-01T21:00:00,1909A,106.0642,30.7636,南充市,嘉陵区环保局,细颗粒物(PM2.5),67,72,62,48,45,38,20,33,32,41,36,6,6,1.0,1
2023-01-01T21:00:00,1910A,106.1087,30.8388,南充市,市环境监测站,细颗粒物(PM2.5),68,72,65,49,54,44,22,38,36,36,21,8,8,0.6,0.5
2023-01-01T21:00:00,1911A,106.9222,27.6869,遵义市,丁字口,细颗粒物(PM2.5),52,46,34,36,32,52,41,50,44,20,19,21,16,0.7,0.7
2023-01-01T21:00:00,1912A,106.9242,27.7019,遵义市,凤凰山,,44,44,35,25,19,55,37,55,40,17,16,8,6,0.7,0.6
2023-01-01T21:00:00,1913A,106.8906,27.6486,遵义市,忠庄,细颗粒物(PM2.5),54,53,37,38,31,47,36,42,38,15,15,4,2,0.4,0.4
2023-01-01T21:00:00,1914A,106.9231,27.6506,遵义市,舟水桥,细颗粒物(PM2.5),55,49,43,39,32,53,37,48,44,11,10,18,13,0.6,0.6
2023-01-01T21:00:00,1915A,106.9178,27.72,遵义市,干田坝,,42,35,33,29,28,46,33,44,36,19,18,7,10,0.7,0.7
2023-01-01T21:00:00,1916A,103.7897,25.5035,曲靖市,环境监测站,,36,21,25,25,25,64,26,50,42,21,14,2,5,0.7,0.8
2023-01-01T21:00:00,1917A,103.8,25.5364,曲靖市,烟厂办公区,,22,22,24,15,17,67,34,52,44,16,11,4,6,0.8,0.8
2023-01-01T21:00:00,1918A,108.7197,34.3956,咸阳市,气象站(对照点),细颗粒物(PM2.5),304,217,204,254,182,79,14,52,48,84,76,13,17,1.8,1.8
2023-01-01T21:00:00,1919A,108.673,34.3155,咸阳市,实验中学,细颗粒物(PM2.5),312,267,253,262,221,78,39,58,58,69,85,10,13,1.3,1.4
2023-01-01T21:00:00,1920A,108.7233,34.3617,咸阳市,师范学院,细颗粒物(PM2.5),319,250,216,269,192,88,44,62,62,52,67,12,13,1.3,1.1
2023-01-01T21:00:00,1922A,109.0656,35.0994,铜川市,党校(对照点),颗粒物(PM10),105,159,85,71,46,78,15,67,53,80,56,18,17,1.6,1.2
2023-01-01T21:00:00,1923A,109.0697,35.0697,铜川市,王益区政府,细颗粒物(PM2.5),153,143,93,117,77,75,12,58,48,64,50,14,13,1.7,1.2
2023-01-01T21:00:00,1924A,108.9344,34.9058,铜川市,新区管委会,细颗粒物(PM2.5),199,170,102,149,86,87,22,74,61,91,40,36,17,1.6,1
2023-01-01T21:00:00,1926A,109.4131,36.6275,延安市,枣园(对照点),细颗粒物(PM2.5),113,103,61,85,47,68,5,50,42,70,45,8,5,1.0,0.6
2023-01-01T21:00:00,1927A,109.4761,36.6028,延安市,延大医附院,细颗粒物(PM2.5),89,101,61,66,45,63,8,43,36,78,51,12,8,1.2,1.3
2023-01-01T21:00:00,1929A,109.5056,36.6106,延安市,百米大道,细颗粒物(PM2.5),128,81,72,97,55,79,21,58,53,74,58,14,11,1.9,1.5
2023-01-01T21:00:00,1930A,107.185,34.3063,宝鸡市,庙沟村(对照点),细颗粒物(PM2.5),248,222,143,198,135,69,17,53,39,64,46,8,10,1.7,1.5
2023-01-01T21:00:00,1931A,107.0708,34.3017,宝鸡市,竹园沟,细颗粒物(PM2.5),262,201,114,212,120,98,32,69,66,42,35,5,6,1.4,1
2023-01-01T21:00:00,1932A,107.1906,34.3672,宝鸡市,三陆医院,细颗粒物(PM2.5),279,233,182,229,170,73,29,50,47,59,54,13,12,1.4,1.4
2023-01-01T21:00:00,1933A,107.1431,34.3547,宝鸡市,监测站,细颗粒物(PM2.5),284,240,138,234,136,76,10,55,49,82,54,8,7,1.6,1.2
2023-01-01T21:00:00,1934A,107.1186,34.3739,宝鸡市,技工学校,细颗粒物(PM2.5),259,212,137,209,136,74,25,58,55,72,47,9,7,1.4,1.1
2023-01-01T21:00:00,1935A,107.3906,34.3528,宝鸡市,陈仓区环保局家属楼,细颗粒物(PM2.5),288,221,193,238,177,70,15,52,46,91,64,14,39,1.7,1.7
2023-01-01T21:00:00,1936A,107.2058,34.3497,宝鸡市,文理学院,细颗粒物(PM2.5),254,214,160,204,144,82,16,58,53,77,54,12,11,1.4,1.2
2023-01-01T21:00:00,1937A,107.2386,34.3622,宝鸡市,三迪小学,细颗粒物(PM2.5),245,201,180,195,158,66,27,50,48,72,58,13,12,1.3,1.3
2023-01-01T21:00:00,1938A,109.5293,34.5101,渭南市,农科所(对照点),细颗粒物(PM2.5),230,263,240,180,190,67,15,52,48,83,63,9,15,1.8,2
2023-01-01T21:00:00,1939A,109.4974,34.4877,渭南市,日报社,细颗粒物(PM2.5),293,290,206,243,172,52,8,32,28,97,71,10,18,1.7,1.6
2023-01-01T21:00:00,1940A,109.4636,34.493,渭南市,体育馆,细颗粒物(PM2.5),274,232,209,224,183,44,9,32,28,89,68,8,14,1.7,1.8
2023-01-01T21:00:00,1941A,109.4259,34.5023,渭南市,高新一小,细颗粒物(PM2.5),283,273,258,233,225,50,4,31,26,101,71,10,16,1.7,2
2023-01-01T21:00:00,1943A,102.1725,38.5339,金昌市,新川苑,"颗粒物(PM10),细颗粒物(PM2.5)",80,110,106,59,47,82,26,74,63,43,34,18,53,1.0,1
2023-01-01T21:00:00,1944A,102.1692,38.5167,金昌市,天庆家园,颗粒物(PM10),69,87,68,47,35,84,24,78,66,55,37,22,51,1.1,0.9
2023-01-01T21:00:00,1945A,98.2908,39.7711,嘉峪关市,气象局,细颗粒物(PM2.5),77,92,52,56,28,83,7,76,62,75,46,10,11,0.5,0.5
2023-01-01T21:00:00,1947A,106.3394,38.817,石嘴山市,沙湖旅游区(对照点),细颗粒物(PM2.5),214,195,395,164,311,23,13,20,18,81,68,102,54,3.1,4.3
2023-01-01T21:00:00,1948A,106.3668,39.0145,石嘴山市,大武口朝阳西街,细颗粒物(PM2.5),107,133,173,80,122,46,12,37,30,86,75,48,52,1.3,1.4
2023-01-01T21:00:00,1949A,106.7704,39.2282,石嘴山市,惠农南大街,颗粒物(PM10),88,126,160,47,97,28,6,16,12,66,67,40,58,1.2,1.7
2023-01-01T21:00:00,1950A,106.7099,39.1325,石嘴山市,红果子镇惠新街,颗粒物(PM10),95,140,167,48,89,34,7,25,19,66,64,40,53,1.6,1.8
2023-01-01T21:00:00,1951A,84.895,45.6094,克拉玛依市,长征新村,细颗粒物(PM2.5),107,117,126,80,97,56,38,42,42,49,57,8,10,1.0,1.2
2023-01-01T21:00:00,1952A,84.8988,45.5893,克拉玛依市,南林小区,细颗粒物(PM2.5),143,124,133,109,116,53,38,42,42,51,53,9,8,1.0,1.1
2023-01-01T21:00:00,1954A,84.905,44.3396,克拉玛依市,独山子区,细颗粒物(PM2.5),238,332,362,188,256,59,8,37,35,108,104,8,9,1.7,1.7
2023-01-01T21:00:00,1955A,85.6979,46.098,克拉玛依市,乌尔禾区商贸楼,细颗粒物(PM2.5),172,147,166,130,134,68,51,57,57,54,56,8,6,1.2,1.5
2023-01-01T21:00:00,1956A,86.1472,41.7538,巴音郭楞州,孔雀公园,颗粒物(PM10),104,157,164,63,71,83,37,62,62,44,31,13,15,0.8,0.7
2023-01-01T21:00:00,1957A,86.1972,41.7166,巴音郭楞州,棉纺厂,颗粒物(PM10),117,184,175,57,63,84,7,74,67,88,50,9,10,0.8,0.8
2023-01-01T21:00:00,1958A,86.2357,41.7173,巴音郭楞州,经济开发区,颗粒物(PM10),89,127,136,48,51,89,41,76,74,49,35,11,12,0.7,0.7
2023-01-01T21:00:00,1961A,117.532,36.6868,济南市,东山小学,细颗粒物(PM2.5),209,222,173,159,121,71,9,58,38,105,70,25,14,1.2,1
2023-01-01T21:00:00,1966A,120.0405,35.8735,青岛市,黄岛区4号,细颗粒物(PM2.5),58,58,164,41,129,67,48,59,58,48,66,11,17,0.7,1.1
2023-01-01T21:00:00,1982A,122.0693,37.2174,威海市,文登开发区,细颗粒物(PM2.5),58,51,106,41,84,75,35,68,56,36,40,5,7,1.0,1.2
2023-01-01T21:00:00,2031A,113.1817,27.9958,株洲市,云田中学,细颗粒物(PM2.5),217,178,127,167,122,67,23,50,40,48,33,5,5,1.3,1.1
2023-01-01T21:00:00,2054A,114.1099,32.1059,信阳市,平桥分局,细颗粒物(PM2.5),230,200,164,180,142,97,54,78,78,51,48,12,11,1.2,1.4
2023-01-01T21:00:00,2064A,113.9956,32.1271,信阳市,南湾水厂,细颗粒物(PM2.5),149,127,142,114,125,104,54,88,85,37,28,8,9,1.2,1.2
2023-01-01T21:00:00,2065A,114.0775,32.1195,信阳市,市酿酒公司,细颗粒物(PM2.5),228,185,159,178,145,98,48,73,73,54,68,10,10,1.3,1.5
2023-01-01T21:00:00,2066A,114.0609,32.1399,信阳市,审计局,细颗粒物(PM2.5),240,196,162,190,144,100,41,70,70,51,60,12,12,1.3,1.3
2023-01-01T21:00:00,2067A,114.6613,33.6128,周口市,市环境监测站,细颗粒物(PM2.5),256,221,204,206,175,112,69,98,95,37,46,11,10,1.3,1.3
2023-01-01T21:00:00,2068A,114.6758,33.6347,周口市,周口师范,细颗粒物(PM2.5),288,253,203,238,195,126,64,107,100,49,48,11,12,1.3,1.1
2023-01-01T21:00:00,2069A,114.6546,33.5979,周口市,市运管处,细颗粒物(PM2.5),262,236,202,212,178,122,81,108,105,42,49,13,12,1.5,1.3
2023-01-01T21:00:00,2070A,114.6369,33.6406,周口市,川汇区环保局,细颗粒物(PM2.5),304,265,213,254,192,113,47,99,89,61,57,11,11,1.5,1.3
2023-01-01T21:00:00,2075A,117.6336,24.4674,漳州市,九湖(对照点),,,,,,,,,,,,,,,,
2023-01-01T21:00:00,2160A,112.85,35.5051,晋城市,自来水公司,细颗粒物(PM2.5),144,146,112,110,82,119,70,99,99,48,51,18,24,0.9,1.2
2023-01-01T21:00:00,2161A,112.8318,35.4936,晋城市,白云商贸,细颗粒物(PM2.5),140,133,107,107,73,106,75,93,93,43,46,16,15,1.6,1.9
2023-01-01T21:00:00,2162A,112.8508,35.4887,晋城市,市环保局,细颗粒物(PM2.5),138,147,115,105,83,109,58,89,89,49,50,19,26,1.4,1.7
2023-01-01T21:00:00,2163A,112.8676,35.4897,晋城市,技术学院,细颗粒物(PM2.5),156,140,114,119,79,101,55,82,82,72,52,12,22,1.5,1.8
2023-01-01T21:00:00,2165A,112.8453,35.546,晋城市,白马寺 (对照点),,,,,,,,,,,,,,,,
2023-01-01T21:00:00,2166A,112.4397,39.3522,朔州市,平朔,细颗粒物(PM2.5),155,171,146,118,66,37,12,28,25,68,62,50,35,1.7,1.2
2023-01-01T21:00:00,2167A,112.4575,39.3617,朔州市,朔唯,细颗粒物(PM2.5),163,190,173,124,78,42,4,26,21,65,62,42,39,1.3,1
2023-01-01T21:00:00,2168A,112.4258,39.3197,朔州市,区政府,细颗粒物(PM2.5),138,163,142,105,73,35,5,24,21,75,59,34,32,1.4,1
2023-01-01T21:00:00,2169A,112.4072,39.3278,朔州市,市环保局,细颗粒物(PM2.5),196,257,147,147,74,35,6,25,21,64,59,40,33,1.8,1.2
2023-01-01T21:00:00,2170A,112.4272,39.3681,朔州市,市二中,颗粒物(PM10),126,202,159,88,67,40,4,27,22,62,58,39,31,0.9,1
2023-01-01T21:00:00,2171A,112.7532,37.6945,晋中市,锦纶小区,细颗粒物(PM2.5),87,115,80,64,47,46,4,35,22,66,50,38,18,1.1,0.8
2023-01-01T21:00:00,2173A,112.7249,37.7067,晋中市,南都小区,细颗粒物(PM2.5),104,134,92,78,46,43,7,33,23,74,56,24,19,1.5,1
2023-01-01T21:00:00,2174A,112.6991,37.6982,晋中市,榆次区政府,颗粒物(PM10),99,147,90,68,47,35,4,28,18,74,52,30,21,1.6,1
2023-01-01T21:00:00,2175A,110.9956,35.0147,运城市,运城中学,细颗粒物(PM2.5),243,224,184,193,157,65,39,55,54,50,47,19,22,2.6,3
2023-01-01T21:00:00,2178A,110.9686,35.0303,运城市,地区技校,细颗粒物(PM2.5),255,212,193,205,162,62,33,50,48,51,57,22,29,2.4,2.9
2023-01-01T21:00:00,2179A,111.0414,35.1147,运城市,空港新区,细颗粒物(PM2.5),262,262,238,212,191,61,22,50,44,70,61,24,28,2.6,3.5
2023-01-01T21:00:00,2181A,112.7383,38.4519,忻州市,开发区,细颗粒物(PM2.5),143,175,111,109,70,24,8,18,14,66,53,31,22,1.4,1.1
2023-01-01T21:00:00,2182A,112.7003,38.4928,忻州市,会展中心,细颗粒物(PM2.5),117,136,114,88,76,27,9,18,15,71,56,25,18,1.0,0.9
2023-01-01T21:00:00,2183A,111.1406,37.5211,吕梁市,环保局,颗粒物(PM10),85,120,92,55,36,31,2,18,12,73,60,12,8,0.8,0.6
2023-01-01T21:00:00,2185A,111.1297,37.5136,吕梁市,自来水公司,颗粒物(PM10),72,93,118,48,45,34,9,19,15,56,53,6,14,0.7,0.7
2023-01-01T21:00:00,2187A,106.8174,39.6973,乌海市,市林业局,细颗粒物(PM2.5),67,74,115,48,64,60,48,44,44,27,54,23,28,0.9,1.4
2023-01-01T21:00:00,2188A,106.7907,39.6667,乌海市,中海勃湾学校,"颗粒物(PM10),细颗粒物(PM2.5)",52,54,98,36,51,65,58,56,56,20,47,14,27,0.5,1.2
2023-01-01T21:00:00,2191A,122.2532,43.6801,通辽市,艺术职业学校,颗粒物(PM10),54,58,38,25,10,62,55,59,57,14,12,6,7,0,0.1
2023-01-01T21:00:00,2192A,119.7594,49.2261,呼伦贝尔市,区环保局,,25,25,22,14,17,60,58,57,56,7,8,5,6,0.3,0.3
2023-01-01T21:00:00,2195A,107.4212,40.761,巴彦淖尔市,附二中,颗粒物(PM10),63,75,110,38,63,66,22,57,48,49,41,9,32,0.6,1
2023-01-01T21:00:00,2196A,107.37,40.7372,巴彦淖尔市,市环保大楼,颗粒物(PM10),56,62,108,36,82,64,35,57,53,35,44,9,12,0.7,1.2
2023-01-01T21:00:00,2197A,113.1306,40.9923,乌兰察布市,集宁新区,,48,48,80,17,48,71,43,59,56,12,32,8,17,0.5,0.6
2023-01-01T21:00:00,2200A,122.0392,46.0656,兴安盟,胜华新制药厂,,22,22,25,12,17,62,58,60,60,16,15,6,5,0.2,0.3
2023-01-01T21:00:00,2201A,121.9504,46.0741,兴安盟,科右前旗环保局,,35,20,22,24,17,67,66,66,66,6,6,2,2,0.3,0.4
2023-01-01T21:00:00,2202A,116.1042,43.9317,锡林郭勒盟,市环保监测站,,22,22,30,12,15,65,56,57,55,6,12,9,10,0.3,0.3
2023-01-01T21:00:00,2203A,116.0781,43.9311,锡林郭勒盟,市政府,,39,33,43,27,22,65,52,57,54,11,15,11,9,0.2,0.2
2023-01-01T21:00:00,2204A,105.6467,38.8363,阿拉善盟,西城区西花园(对照点),颗粒物(PM10),54,57,51,28,29,74,38,64,56,35,24,7,8,0.6,0.5
2023-01-01T21:00:00,2205A,105.6985,38.8411,阿拉善盟,蒙二幼,细颗粒物(PM2.5),54,36,36,38,34,72,57,64,57,20,20,11,12,0.4,0.4
2023-01-01T21:00:00,2206A,105.724,38.8516,阿拉善盟,环保局新楼,,39,39,26,27,22,90,72,84,63,12,10,14,13,0.4,0.4
2023-01-01T21:00:00,2207A,121.6094,41.998,阜新市,工业园区,颗粒物(PM10),87,124,92,32,34,58,30,50,39,28,28,15,15,0.9,1
2023-01-01T21:00:00,2208A,121.6697,42.0279,阜新市,长青街,颗粒物(PM10),55,60,55,26,26,57,32,52,45,24,26,8,8,0.8,0.8
2023-01-01T21:00:00,2209A,121.6673,42.0705,阜新市,农业园区,,48,48,25,11,10,62,51,59,56,7,8,8,8,0.8,0.8
2023-01-01T21:00:00,2210A,121.6717,42.0224,阜新市,东苑,颗粒物(PM10),60,70,59,28,30,66,41,59,54,17,23,10,13,1.0,1.2
2023-01-01T21:00:00,2211A,121.6506,42.0498,阜新市,玉龙新城,,,,55,,23,60,10,53,37,44,28,23,11,1.2,0.8
2023-01-01T21:00:00,2212A,123.2,41.1953,辽阳市,宏伟区,细颗粒物(PM2.5),67,70,44,48,32,62,14,54,44,47,31,23,20,1.2,0.9
2023-01-01T21:00:00,2213A,123.1683,41.2495,辽阳市,新华园,细颗粒物(PM2.5),100,63,44,75,39,57,18,50,44,45,29,54,18,2.0,1.1
2023-01-01T21:00:00,2214A,123.2354,41.2639,辽阳市,滨河路,细颗粒物(PM2.5),57,54,40,40,40,67,23,59,48,34,29,10,8,1.0,0.9
2023-01-01T21:00:00,2215A,123.149,41.2991,辽阳市,铁西工业园,细颗粒物(PM2.5),68,67,49,49,45,60,6,48,28,48,38,9,8,1.1,1.1
2023-01-01T21:00:00,2216A,123.8139,42.3022,铁岭市,汇工街西,细颗粒物(PM2.5),75,83,82,55,70,67,10,56,47,59,40,13,12,1.2,1.3
2023-01-01T21:00:00,2217A,123.8649,42.2923,铁岭市,水上乐园,细颗粒物(PM2.5),85,73,61,63,43,66,30,54,49,36,28,11,10,0.6,0.5
2023-01-01T21:00:00,2218A,123.8486,42.2867,铁岭市,银州路东段,细颗粒物(PM2.5),98,132,83,73,47,68,6,52,42,59,38,14,9,1.1,0.8
2023-01-01T21:00:00,2219A,123.7153,42.2217,铁岭市,金沙江路北,,,,106,211,93,61,10,54,42,66,44,12,8,1.4,1.2
2023-01-01T21:00:00,2220A,120.4318,41.5881,朝阳市,西梁,颗粒物(PM10),90,130,98,59,67,61,12,45,39,50,38,29,26,0.9,1.3
2023-01-01T21:00:00,2221A,120.4521,41.5646,朝阳市,河畔小区,颗粒物(PM10),93,136,98,60,67,57,23,44,41,35,31,24,16,1.1,1.3
2023-01-01T21:00:00,2222A,120.4176,41.5648,朝阳市,八里堡,颗粒物(PM10),70,90,83,44,52,63,18,44,37,46,37,18,17,0.9,1.1
2023-01-01T21:00:00,2223A,120.3806,41.5969,朝阳市,农业园区,颗粒物(PM10),52,53,96,34,57,68,24,44,41,39,39,12,18,0.9,1.6
2023-01-01T21:00:00,2225A,124.4002,43.1713,四平市,一商场,颗粒物(PM10),72,94,47,43,25,57,28,50,41,40,23,8,8,0.8,0.4
2023-01-01T21:00:00,2226A,124.388,43.193,四平市,境园,颗粒物(PM10),64,77,47,30,17,60,43,55,46,16,17,10,7,0.4,0.5
2023-01-01T21:00:00,2227A,125.1358,42.8845,辽源市,环保局,,40,40,32,26,22,64,34,61,56,29,11,9,10,0.8,0.6
2023-01-01T21:00:00,2229A,125.9358,41.7173,通化市,光明,细颗粒物(PM2.5),95,118,106,71,81,59,12,53,41,45,36,36,22,1.0,0.6
2023-01-01T21:00:00,2230A,125.9446,41.7325,通化市,铁路,细颗粒物(PM2.5),83,91,105,61,76,64,20,56,47,36,36,14,16,1.3,1.1
2023-01-01T21:00:00,2231A,126.4219,41.9171,白山市,喜丰,,,48,78,32,50,48,,43,42,40,32,13,14,0.7,0.9
2023-01-01T21:00:00,2232A,126.4077,41.9419,白山市,环保局,细颗粒物(PM2.5),119,130,122,90,86,58,15,49,37,36,33,19,18,1.1,1.3
2023-01-01T21:00:00,2233A,124.8006,45.1214,松原市,江南,,,134,41,72,26,50,,44,34,57,19,42,12,1.7,0.7
2023-01-01T21:00:00,2234A,124.7965,45.1722,松原市,江北,细颗粒物(PM2.5),112,77,30,84,15,56,10,51,43,48,16,4,4,0.7,0.5
2023-01-01T21:00:00,2235A,122.7911,45.6077,白城市,洮北区环保局,,47,47,33,17,14,59,53,55,53,12,10,5,5,0.4,0.4
2023-01-01T21:00:00,2236A,122.8738,45.5725,白城市,市环保局,,33,33,30,8,10,63,63,58,58,8,11,3,4,0.2,0.3
2023-01-01T21:00:00,2237A,129.47,42.8883,延边朝鲜族自治州,妇幼医院,,18,15,33,10,15,63,56,62,53,10,14,16,19,0.5,0.6
2023-01-01T21:00:00,2238A,129.5055,42.9108,延边朝鲜族自治州,延边医院,,20,19,26,14,13,71,60,65,59,8,12,6,9,0.5,0.5
2023-01-01T21:00:00,2239A,129.3964,42.8881,延边朝鲜族自治州,朝阳川镇医院,,19,15,25,9,12,69,58,64,58,4,6,6,7,0.4,0.5
2023-01-01T21:00:00,2240A,130.9762,45.3001,鸡西市,环保局,,22,22,27,14,20,62,57,59,54,8,11,4,5,0.2,0.3
2023-01-01T21:00:00,2243A,130.9429,45.3039,鸡西市,第一中学,,20,20,32,10,22,65,57,60,55,2,4,4,5,0.5,0.5
2023-01-01T21:00:00,2244A,130.2537,47.3416,鹤岗市,哈啤分公司,,23,19,27,16,22,60,56,60,55,4,8,10,13,0.2,0.3
2023-01-01T21:00:00,2245A,130.2684,47.3086,鹤岗市,斯达机电,,31,31,32,17,23,64,54,63,58,8,8,8,7,0.2,0.3
2023-01-01T21:00:00,2246A,130.3114,47.3388,鹤岗市,东山纸板厂,,35,24,39,24,26,62,58,60,60,3,9,8,11,0.4,0.5
2023-01-01T21:00:00,2247A,130.1097,47.3382,鹤岗市,五号水库(对照点),,19,13,24,12,23,68,60,66,63,3,5,7,7,0.5,0.5
2023-01-01T21:00:00,2248A,131.1511,46.6937,双鸭山市,双合村,,18,18,28,9,22,69,55,68,55,7,11,6,8,0.6,0.7
2023-01-01T21:00:00,2249A,131.1652,46.6191,双鸭山市,南小市,,17,9,31,7,20,70,54,63,58,10,11,7,9,0.4,0.5
2023-01-01T21:00:00,2250A,131.1524,46.6554,双鸭山市,环保局,,35,22,37,24,29,76,62,71,65,8,14,5,8,0.5,0.6
2023-01-01T21:00:00,2251A,131.12,46.5656,双鸭山市,苗圃(对照点),,32,30,40,22,34,72,65,68,66,6,9,6,6,0.4,0.4
2023-01-01T21:00:00,2252A,128.5159,47.4311,伊春市,环保局,,22,22,27,12,18,60,49,56,54,7,9,6,6,0.5,0.5
2023-01-01T21:00:00,2253A,128.9102,47.7412,伊春市,电力嘉园,,32,16,31,22,22,64,56,60,58,5,8,5,6,0.5,0.6
2023-01-01T21:00:00,2254A,129.5029,48.471,伊春市,汤旺河国家公园(对照点),,20,20,31,9,22,82,63,76,72,1,3,5,6,0.1,0.2
2023-01-01T21:00:00,2255A,130.2751,46.8028,佳木斯市,佳纺,,38,27,34,26,30,63,45,55,51,10,10,3,4,0.4,0.5
2023-01-01T21:00:00,2256A,130.3995,46.8307,佳木斯市,发电厂,,18,13,23,12,18,67,57,61,56,5,10,2,5,0.2,0.3
2023-01-01T21:00:00,2257A,130.3258,46.7975,佳木斯市,环保局,,21,21,28,11,22,56,43,50,47,16,15,7,7,0.2,0.3
2023-01-01T21:00:00,2258A,130.3648,46.8032,佳木斯市,十一中,,40,40,30,16,21,57,45,52,46,16,16,6,6,0.3,0.4
2023-01-01T21:00:00,2259A,130.3794,46.7588,佳木斯市,四丰(对照点),,22,17,22,13,18,80,70,78,67,3,6,1,1,0.2,0.3
2023-01-01T21:00:00,2262A,131.0518,45.8751,七台河市,新一中(对照点),,28,18,19,19,17,71,60,71,63,7,7,12,12,1.0,0.9
2023-01-01T21:00:00,2263A,127.4833,50.2524,黑河市,交通局,,21,8,14,11,12,69,66,66,65,4,4,7,5,0.4,0.4
2023-01-01T21:00:00,2264A,127.5144,50.2341,黑河市,环保局,,22,11,11,15,15,64,64,62,62,4,4,7,6,0.3,0.3
2023-01-01T21:00:00,2265A,127.5291,50.2472,黑河市,大黑河岛(对照点),,22,22,17,10,8,66,66,61,61,1,2,2,11,0.3,0.3
2023-01-01T21:00:00,2266A,126.9785,46.6365,绥化市,人和东街,细颗粒物(PM2.5),52,43,34,36,28,56,38,51,43,21,15,6,4,0.3,0.2
2023-01-01T21:00:00,2267A,126.964,46.6528,绥化市,党政办公中心,,48,38,29,33,26,57,42,53,50,18,12,8,4,0.2,0.1
2023-01-01T21:00:00,2269A,124.1069,50.4097,大兴安岭地区,科技局,,,16,15,18,14,60,56,58,58,7,5,,125,0.2,0.2
2023-01-01T21:00:00,2270A,117.396,32.939,蚌埠市,工人疗养院,细颗粒物(PM2.5),214,221,217,164,169,73,64,67,67,43,63,10,14,1.1,1.2
2023-01-01T21:00:00,2271A,117.3605,32.9427,蚌埠市,百货大楼,细颗粒物(PM2.5),215,213,251,165,201,79,68,66,66,42,74,14,15,0.9,1.2
2023-01-01T21:00:00,2273A,117.4185,32.8911,蚌埠市,蚌埠学院,细颗粒物(PM2.5),199,212,207,149,146,81,62,64,64,64,72,17,23,1.0,0.9
2023-01-01T21:00:00,2274A,117.3533,32.9673,蚌埠市,淮上区政府,细颗粒物(PM2.5),218,224,261,168,198,85,60,71,71,47,70,12,15,0.9,1
2023-01-01T21:00:00,2275A,117.3145,32.8977,蚌埠市,高新区,细颗粒物(PM2.5),211,202,221,161,181,79,69,61,61,53,73,12,14,0.9,1.1
2023-01-01T21:00:00,2277A,116.8305,32.7727,淮南市,潘集区政府,细颗粒物(PM2.5),276,276,255,226,216,63,49,48,46,44,66,7,10,0.9,1
2023-01-01T21:00:00,2278A,117.0067,32.6524,淮南市,师范学院,细颗粒物(PM2.5),287,329,282,237,204,58,26,35,32,68,80,14,15,1.1,1.4
2023-01-01T21:00:00,2279A,116.8569,32.5951,淮南市,谢家集区政府,细颗粒物(PM2.5),272,289,207,222,162,101,47,94,40,58,61,16,22,1.0,1
2023-01-01T21:00:00,2280A,116.8281,32.633,淮南市,八公山区政府,颗粒物(PM10),150,249,167,,195,103,40,103,40,50,44,14,17,1.1,0.9
2023-01-01T21:00:00,2281A,116.6325,32.6201,淮南市,焦岗湖风景区管理处(对照点),细颗粒物(PM2.5),284,308,256,234,202,73,30,58,42,14,17,19,20,0.9,0.9
2023-01-01T21:00:00,2282A,116.8004,33.975,淮北市,监测站,细颗粒物(PM2.5),256,296,220,206,167,127,69,109,103,56,53,20,14,1.7,1.5
2023-01-01T21:00:00,2283A,116.8091,33.9007,淮北市,烈山区政府,细颗粒物(PM2.5),285,291,214,235,177,138,72,124,116,66,66,13,11,1.6,1.1
2023-01-01T21:00:00,2284A,116.7856,33.9477,淮北市,职业技术学院,细颗粒物(PM2.5),265,277,225,215,182,126,79,111,106,52,61,20,13,1.6,1.2
2023-01-01T21:00:00,2285A,117.8177,30.9412,铜陵市,市第四中学,细颗粒物(PM2.5),115,145,124,87,81,41,12,39,14,88,75,9,8,1.0,1
2023-01-01T21:00:00,2286A,117.8059,30.9273,铜陵市,市公路局,细颗粒物(PM2.5),142,131,112,108,87,38,8,34,9,79,70,2,3,1.0,1
2023-01-01T21:00:00,2287A,117.7807,30.9413,铜陵市,市新民污水厂,细颗粒物(PM2.5),112,124,111,84,69,35,5,35,10,89,72,7,8,0.8,0.8
2023-01-01T21:00:00,2288A,117.7439,30.8792,铜陵市,市第九中学,细颗粒物(PM2.5),135,151,129,103,92,53,12,23,15,80,71,21,19,1.8,1.2
2023-01-01T21:00:00,2289A,117.846,30.9413,铜陵市,车站新区,细颗粒物(PM2.5),134,117,97,102,78,37,13,37,14,73,62,17,16,0.9,0.9
2023-01-01T21:00:00,2290A,117.8483,30.97,铜陵市,市职教基地,细颗粒物(PM2.5),149,143,109,114,85,41,7,38,14,61,49,10,10,0.7,0.7
2023-01-01T21:00:00,2291A,117.0809,30.5177,安庆市,环科院,细颗粒物(PM2.5),127,132,113,96,85,56,19,53,27,59,41,14,12,1.1,0.9
2023-01-01T21:00:00,2292A,117.0331,30.5119,安庆市,马山宾馆,细颗粒物(PM2.5),119,125,112,90,85,60,21,58,26,64,46,14,13,1.1,0.9
2023-01-01T21:00:00,2294A,116.9896,30.6145,安庆市,安庆大学,细颗粒物(PM2.5),137,109,98,104,109,69,33,52,37,57,46,14,13,1.2,1
2023-01-01T21:00:00,2295A,118.2903,29.6963,黄山市,延安路89号,细颗粒物(PM2.5),63,72,40,45,26,67,14,45,41,38,21,6,5,0.5,0.3
2023-01-01T21:00:00,2296A,118.327,29.7178,黄山市,黄山东路89号,细颗粒物(PM2.5),63,59,40,45,30,57,4,41,32,35,21,6,6,1.0,0.6
2023-01-01T21:00:00,2297A,118.1371,30.2756,黄山市,黄山区政府5号楼,细颗粒物(PM2.5),117,111,56,88,34,59,27,47,44,41,21,7,6,1.0,0.7
2023-01-01T21:00:00,2298A,118.3093,32.3153,滁州市,老年大学,细颗粒物(PM2.5),190,166,128,143,99,38,19,24,24,91,72,16,11,1.5,1.1
2023-01-01T21:00:00,2299A,118.3244,32.2786,滁州市,人大宾馆,细颗粒物(PM2.5),155,180,142,118,82,35,12,23,22,102,81,15,12,1.5,1.2
2023-01-01T21:00:00,2301A,115.8277,32.8929,阜阳市,市监测站,细颗粒物(PM2.5),258,249,204,208,179,72,33,62,51,74,64,16,12,1.3,1.2
2023-01-01T21:00:00,2303A,115.8554,32.8605,阜阳市,开发区,细颗粒物(PM2.5),247,282,242,197,170,77,38,65,56,65,63,7,9,1.3,1.2
2023-01-01T21:00:00,2307A,116.5079,31.737,六安市,监测大楼,细颗粒物(PM2.5),170,151,127,129,106,67,16,64,20,74,56,13,11,1.1,0.8
2023-01-01T21:00:00,2308A,116.4738,31.7643,六安市,皖西学院,细颗粒物(PM2.5),192,196,160,144,120,62,14,31,26,73,63,11,8,1.0,0.8
2023-01-01T21:00:00,2309A,116.4996,31.7905,六安市,朝阳厂,细颗粒物(PM2.5),178,157,138,134,119,65,17,43,27,73,66,10,8,1.1,0.9
2023-01-01T21:00:00,2310A,116.5567,31.7886,六安市,开发区,细颗粒物(PM2.5),166,184,157,126,103,55,12,33,22,71,65,11,10,1.1,0.8
2023-01-01T21:00:00,2311A,115.8072,33.8399,亳州市,污水处理厂,细颗粒物(PM2.5),227,212,213,177,179,90,69,75,73,34,51,11,11,1.2,1.1
2023-01-01T21:00:00,2312A,115.7789,33.8518,亳州市,三国揽胜宫,细颗粒物(PM2.5),257,264,264,207,208,99,67,89,85,48,55,14,14,1.3,1.3
2023-01-01T21:00:00,2314A,117.47,30.6618,池州市,池州学院,细颗粒物(PM2.5),139,127,116,106,97,58,29,55,16,46,51,7,10,0.9,1
2023-01-01T21:00:00,2316A,118.7581,30.9454,宣城市,鳌峰子站,细颗粒物(PM2.5),124,117,111,94,86,82,60,63,62,39,58,5,5,0.8,0.9
2023-01-01T21:00:00,2317A,118.7385,30.9743,宣城市,敬亭山子站,细颗粒物(PM2.5),115,115,114,87,82,57,48,49,46,46,58,9,7,0.7,0.8
2023-01-01T21:00:00,2318A,118.7173,30.9427,宣城市,开发区子站,细颗粒物(PM2.5),119,108,108,90,85,85,62,65,65,36,50,7,6,0.7,0.9
2023-01-01T21:00:00,2319A,119.0141,25.4325,莆田市,荔城区仓后路,,28,28,26,16,13,90,78,90,81,10,9,6,6,0.7,0.6
2023-01-01T21:00:00,2320A,119.0015,25.4553,莆田市,莆田市监测站,,27,26,22,13,13,91,84,91,85,5,5,6,6,0.5,0.5
2023-01-01T21:00:00,2321A,119.1119,25.4561,莆田市,涵江区六中,,29,29,29,18,18,92,75,84,78,9,9,4,4,0.5,0.5
2023-01-01T21:00:00,2322A,119.1013,25.3215,莆田市,秀屿区政府,,25,22,29,15,18,91,78,91,79,10,10,6,7,0.5,0.5
2023-01-01T21:00:00,2323A,118.981,25.4792,莆田市,东圳水库(对照点),,,,,,,,,,,,,,,,
2023-01-01T21:00:00,2324A,117.6211,26.2625,三明市,三钢,,42,18,35,29,29,78,26,72,62,43,25,8,7,0.6,0.7
2023-01-01T21:00:00,2325A,117.635,26.2714,三明市,三明二中,,43,30,39,30,27,74,12,70,61,50,21,10,11,0.9,0.8
2023-01-01T21:00:00,2326A,117.6028,26.2378,三明市,三元区政府,颗粒物(PM10),53,56,38,36,26,74,12,68,58,51,26,10,10,1.1,0.9
2023-01-01T21:00:00,2327A,117.7275,26.3108,三明市,洋溪(对照点),,,,,,,,,,,,,,,,
2023-01-01T21:00:00,2331A,118.0966,26.6761,南平市,茫荡山(对照点),,,,,,,,,,,,,,,,
2023-01-01T21:00:00,2332A,118.1681,26.6369,南平市,南平市监测站,细颗粒物(PM2.5),60,54,36,43,30,80,35,70,62,32,25,7,5,0.7,0.6
2023-01-01T21:00:00,2333A,118.1825,26.6489,南平市,南平铝业有限公司,,43,34,40,30,29,73,28,66,60,32,25,9,7,0.7,0.7
2023-01-01T21:00:00,2334A,118.1756,26.6272,南平市,南平七中,细颗粒物(PM2.5),102,72,41,76,22,79,37,75,66,25,19,6,5,0.7,0.7
2023-01-01T21:00:00,2335A,117.0189,25.1181,龙岩市,龙岩师专(对照点),,,,,,,,,,,,,,,,
2023-01-01T21:00:00,2336A,117.0217,25.1033,龙岩市,龙岩市监测站,,27,27,22,16,15,87,65,78,76,16,15,11,12,0.5,0.6
2023-01-01T21:00:00,2337A,117.0258,25.0661,龙岩市,闽西职业技术学院,,35,35,33,24,18,83,28,78,69,38,21,8,20,0.5,0.6
2023-01-01T21:00:00,2338A,117.0196,25.0306,龙岩市,龙岩学院,,24,24,24,15,15,85,46,77,69,14,14,4,5,0.4,0.5
2023-01-01T21:00:00,2339A,119.5001,26.6946,宁德市,金涵水库(对照点),,,,,,,,,,,,,,,,
2023-01-01T21:00:00,2341A,119.5388,26.6612,宁德市,宁德市监测站,细颗粒物(PM2.5),59,66,38,42,24,81,22,63,52,40,24,4,5,0.9,0.6
2023-01-01T21:00:00,2342A,117.3102,29.3867,景德镇市,王港中学(对照点),,,,,,,,,,,,,,,,
2023-01-01T21:00:00,2343A,117.2117,29.2933,景德镇市,老干部活动中心,细颗粒物(PM2.5),110,112,94,83,55,55,6,42,35,41,29,12,10,0.9,0.7
2023-01-01T21:00:00,2344A,117.1894,29.2789,景德镇市,兽医站,细颗粒物(PM2.5),84,91,63,62,47,62,19,46,42,32,29,13,11,0.8,0.7
2023-01-01T21:00:00,2345A,117.1547,29.2617,景德镇市,台达陶瓷,细颗粒物(PM2.5),75,75,55,55,37,58,19,46,40,40,34,21,16,1.0,0.9
2023-01-01T21:00:00,2346A,117.2461,29.2956,景德镇市,陶研所,颗粒物(PM10),65,80,71,44,40,61,6,50,43,42,26,6,5,1.0,0.8
2023-01-01T21:00:00,2347A,114.0997,27.5002,萍乡市,武功山(对照点),细颗粒物(PM2.5),67,55,51,48,44,48,22,44,38,17,15,7,9,1.0,0.9
2023-01-01T21:00:00,2348A,113.8385,27.6434,萍乡市,中医院,细颗粒物(PM2.5),124,124,118,94,90,60,21,49,42,47,40,6,7,1.6,1.5
2023-01-01T21:00:00,2349A,113.8493,27.6253,萍乡市,市政府车库,细颗粒物(PM2.5),152,144,131,116,112,64,6,50,42,57,35,18,12,2.2,1.6
2023-01-01T21:00:00,2350A,113.8676,27.6435,萍乡市,市环保局,细颗粒物(PM2.5),156,146,118,119,102,56,12,45,39,50,35,17,16,1.5,1.1
2023-01-01T21:00:00,2351A,113.866,27.6198,萍乡市,安源区政府,细颗粒物(PM2.5),165,152,120,125,116,58,18,49,44,42,29,19,15,1.8,1.4
2023-01-01T21:00:00,2352A,115.0861,27.9317,新余市,北岗(对照点),,46,37,39,32,32,50,24,44,38,15,12,8,8,0.3,0.3
2023-01-01T21:00:00,2353A,114.9886,27.8431,新余市,飞宇,"颗粒物(PM10),细颗粒物(PM2.5)",58,66,76,41,49,52,31,46,43,29,30,12,17,0.5,0.6
2023-01-01T21:00:00,2354A,114.9231,27.8246,新余市,第二水厂,颗粒物(PM10),66,81,103,43,65,44,14,37,34,48,37,15,15,0.4,0.3
2023-01-01T21:00:00,2355A,114.9308,27.8036,新余市,市气象局,细颗粒物(PM2.5),92,92,93,68,67,43,18,34,33,45,32,13,12,0.6,0.7
2023-01-01T21:00:00,2357A,116.9822,28.1136,鹰潭市,龙虎山(对照点),,45,33,38,31,36,90,71,83,81,11,17,2,6,0.9,0.9
2023-01-01T21:00:00,2358A,117.0564,28.2642,鹰潭市,新监测站,细颗粒物(PM2.5),63,48,47,45,42,82,43,68,65,30,27,3,10,0.4,0.6
2023-01-01T21:00:00,2359A,117.0311,28.2475,鹰潭市,财苑宾馆,,48,43,53,33,45,80,53,72,68,22,27,36,22,0.5,0.6
2023-01-01T21:00:00,2360A,117.0222,28.2264,鹰潭市,体育馆,细颗粒物(PM2.5),75,52,53,55,49,83,53,71,68,21,26,3,9,0.4,0.6
2023-01-01T21:00:00,2361A,117.0017,28.2131,鹰潭市,三川水表,细颗粒物(PM2.5),83,63,53,61,48,85,44,71,67,25,27,4,11,0.4,0.5
2023-01-01T21:00:00,2362A,114.9017,25.9149,赣州市,通天岩(对照点),,39,29,26,27,24,67,57,61,60,9,7,6,6,1.0,1
2023-01-01T21:00:00,2363A,114.9367,25.8664,赣州市,地委,细颗粒物(PM2.5),54,46,48,38,32,64,53,59,59,15,13,14,13,0.8,0.8
2023-01-01T21:00:00,2364A,114.9461,25.8481,赣州市,气象台,,40,36,44,28,35,51,39,45,44,16,14,6,6,0.6,0.6
2023-01-01T21:00:00,2365A,114.9322,25.8333,赣州市,市图书馆,细颗粒物(PM2.5),52,50,51,36,36,60,43,55,54,21,16,13,11,1.0,1
2023-01-01T21:00:00,2366A,114.8905,25.8471,赣州市,华坚鞋城,颗粒物(PM10),52,53,48,34,31,56,53,51,50,11,14,3,1,1.0,1
2023-01-01T21:00:00,2367A,114.9754,27.0803,吉安市,红声器材厂,细颗粒物(PM2.5),64,72,69,46,49,62,40,55,54,34,28,21,10,0.8,0.8
2023-01-01T21:00:00,2368A,114.9658,27.0999,吉安市,市森林工业局,细颗粒物(PM2.5),65,67,63,47,50,66,34,57,54,45,27,21,9,0.8,0.8
2023-01-01T21:00:00,2369A,114.99,27.1312,吉安市,市环境监测站,细颗粒物(PM2.5),67,63,60,48,47,62,35,55,53,34,25,15,8,0.8,0.8
