timepoint,stationcode,longitude,latitude,area,positionname,primarypollutant,aqi,pm10,pm10_24h,pm2_5,pm2_5_24h,o3,o3_24h,o3_8h,o3_8h_24h,no2,no2_24h,so2,so2_24h,co,co_24h
2025-03-13T2200,2566A,102.1879,31.914,阿坝藏族羌族自治州,州农科所,,19,19,17,8,7,59,,82,76,12,10,9,10,0,0
2025-03-13T2200,2568A,102.2502,31.8896,阿坝藏族羌族自治州,马师校,,32,27,13,22,11,55,,95,87,22,12,5,5,0.5,0.4
2025-03-13T2200,3994A,102.2165,31.9024,阿坝藏族羌族自治州,马尔康中学西区,,20,19,11,12,8,61,,100,91,18,9,5,5,0.4,0.4
2025-03-13T2200,2695A,80.292,41.1694,阿克苏地区,电视台,颗粒物(PM10),125,200,269,70,70,52,,110,104,39,25,4,5,0.7,0.8
2025-03-13T2200,2696A,80.2613,41.1551,阿克苏地区,艺术中心,颗粒物(PM10),107,164,294,50,67,41,,108,101,45,33,5,5,0.6,0.8
2025-03-13T2200,2204A,105.6467,38.8363,阿拉善盟,西城区西花园,颗粒物(PM10),58,66,113,17,22,105,,109,108,7,10,7,9,0.8,0.8
2025-03-13T2200,2205A,105.6985,38.8411,阿拉善盟,蒙二幼,颗粒物(PM10),51,51,99,12,22,100,,103,102,7,8,6,6,0.6,0.5
2025-03-13T2200,2206A,105.724,38.8516,阿拉善盟,环保局新楼,颗粒物(PM10),52,54,84,15,22,105,,108,107,3,4,8,8,0.5,0.4
2025-03-13T2200,2708A,88.1264,47.8517,阿勒泰地区,市站,,43,30,18,30,11,54,,77,73,38,25,3,6,0.4,0.4
2025-03-13T2200,2630A,80.1161,32.5,阿里地区,阿里监测站,,38,8,8,8,4,119,,117,117,2,2,6,6,0.5,0.4
2025-03-13T2200,3192A,80.0903,32.5028,阿里地区,阿里藏医院,,34,10,10,3,4,106,,106,106,1,1,6,6,0.3,0.3
2025-03-13T2200,2642A,109.0318,32.6537,安康市,香溪洞,,44,44,36,23,23,64,,64,64,6,8,6,7,0.5,0.5
2025-03-13T2200,2644A,109.0072,32.6975,安康市,汉滨区检察院,,48,48,51,21,26,25,,55,50,20,22,6,7,0.5,0.5
2025-03-13T2200,4054A,109.0325,32.6913,安康市,市邮政管理局,颗粒物(PM10),55,59,59,24,30,26,,55,51,32,23,6,10,0.6,0.5
2025-03-13T2200,2291A,117.0809,30.5177,安庆市,环科院,,44,44,35,28,30,56,,94,58,21,18,6,6,0.7,0.8
2025-03-13T2200,2292A,117.0331,30.5119,安庆市,马山宾馆,,38,36,33,26,27,60,,95,56,14,13,3,2,0.9,0.9
2025-03-13T2200,2294A,116.9896,30.6145,安庆市,安庆大学,,42,42,44,18,28,66,,102,64,14,8,7,6,0.4,0.6
2025-03-13T2200,3173A,117.0598,30.5351,安庆市,市人大,,47,47,36,27,33,57,,94,53,18,16,5,5,0.7,0.7
2025-03-13T2200,3122A,105.9606,26.2611,安顺市,伍家关,,,,49,12,32,37,,69,25,12,15,6,13,0.7,0.8
2025-03-13T2200,3123A,105.9408,26.2431,安顺市,凤凰山,,18,18,51,9,42,34,,69,23,15,17,21,22,0.8,0.9
2025-03-13T2200,3124A,105.9439,26.2564,安顺市,金钟山,,22,22,50,7,41,36,,69,24,12,14,12,19,0.6,0.7
2025-03-13T2200,3125A,105.8983,26.2481,安顺市,娄家坡,,16,16,55,10,42,33,,66,23,13,14,10,15,0.6,0.8
2025-03-13T2200,1818A,114.4839,36.0621,安阳市,棉研所,,,,,,,,,,,,,,,,
2025-03-13T2200,1819A,114.3551,36.1017,安阳市,红庙街,颗粒物(PM10),115,179,230,55,58,54,,102,88,28,30,4,5,0.7,0.7
2025-03-13T2200,1820A,114.361,36.0681,安阳市,银杏小区,颗粒物(PM10),102,154,216,63,70,59,,110,93,31,36,9,4,0.5,0.5
2025-03-13T2200,3141A,114.3922,36.0878,安阳市,信访局,颗粒物(PM10),92,133,221,56,63,75,,114,100,28,37,5,5,0.4,0.4
2025-03-13T2200,3669A,114.4705,36.0637,安阳市,左辅环卫站,颗粒物(PM10),103,155,248,59,76,72,,116,97,26,34,3,4,0.4,0.4
2025-03-13T2200,3703A,114.2917,36.0949,安阳市,安钢职工学校,颗粒物(PM10),112,174,233,62,71,68,,107,94,27,31,4,4,0.5,0.5
2025-03-13T2200,1748A,123.044,41.1196,鞍山市,深沟寺,细颗粒物(PM2.5),58,64,77,41,26,53,,95,82,32,16,13,12,0.6,0.6
2025-03-13T2200,1749A,123.011,41.0931,鞍山市,太阳城,,36,36,94,22,29,55,,104,91,33,14,18,10,0.8,0.8
2025-03-13T2200,1750A,123.0485,41.1442,鞍山市,太平,颗粒物(PM10),63,76,103,36,32,41,,98,82,43,21,11,11,0.7,0.7
2025-03-13T2200,1751A,122.9642,41.0971,鞍山市,铁西三道街,颗粒物(PM10),54,57,83,29,24,60,,93,86,29,27,6,21,0.5,1
2025-03-13T2200,1753A,123.022,41.0821,鞍山市,明达新区,颗粒物(PM10),55,60,72,36,25,54,,94,85,32,14,24,10,0.6,0.7
2025-03-13T2200,1754A,123.1289,41.0228,鞍山市,千山,,,,64,,8,,,64,,,15,,24,,0.4
2025-03-13T2200,4201A,122.9446,41.0826,鞍山市,兴盛南路290号,颗粒物(PM10),54,58,94,27,30,65,,86,82,31,36,12,21,0.5,0.9
2025-03-13T2200,2195A,107.4212,40.761,巴彦淖尔市,附二中,颗粒物(PM10),84,118,123,45,42,53,,76,76,36,32,7,11,0.6,0.8
2025-03-13T2200,2196A,107.37,40.7372,巴彦淖尔市,市环保大楼,颗粒物(PM10),73,95,103,46,42,59,,98,87,41,28,6,6,0.4,0.4
2025-03-13T2200,1956A,86.1472,41.7538,巴音郭楞蒙古自治州,孔雀公园,颗粒物(PM10),149,248,135,55,25,55,,98,92,38,15,5,5,0.5,0.3
2025-03-13T2200,1957A,86.1972,41.7166,巴音郭楞蒙古自治州,棉纺厂,颗粒物(PM10),293,415,163,61,18,64,,96,91,28,14,4,3,0.3,0.3
2025-03-13T2200,1958A,86.2357,41.7173,巴音郭楞蒙古自治州,经济开发区,颗粒物(PM10),283,408,126,51,13,,,99,99,18,7,4,4,0.2,0.2
2025-03-13T2200,2914A,106.7677,31.8794,巴中市,苏山坪,,30,30,17,20,14,72,,67,64,5,6,4,4,0.3,0.4
2025-03-13T2200,3181A,106.7768,31.8526,巴中市,市五中,,32,32,26,19,16,31,,51,49,17,14,4,4,0.6,0.6
2025-03-13T2200,3183A,106.7418,31.8654,巴中市,圣泉水务公司,,35,35,23,21,15,27,,59,52,26,17,7,7,0.6,0.6
2025-03-13T2200,3616A,106.7616,31.8344,巴中市,市中心医院,,40,35,27,28,21,26,,55,49,30,20,6,6,0.6,0.5
2025-03-13T2200,2235A,122.7911,45.6077,白城市,洮北区环保局,细颗粒物(PM2.5),120,,74,91,63,66,,115,107,13,13,4,4,0.4,0.4
2025-03-13T2200,2236A,122.8738,45.5725,白城市,市环保局,,38,36,81,26,69,76,,108,100,7,13,4,4,0.5,0.4
2025-03-13T2200,2231A,126.4219,41.9171,白山市,喜丰,,33,33,66,12,11,90,,87,86,8,8,5,7,0.7,0.7
2025-03-13T2200,2232A,126.4077,41.9419,白山市,环保局,,40,40,66,16,13,78,,92,90,14,5,6,4,0.7,0.6
2025-03-13T2200,2647A,104.1724,36.5446,白银市,第三小学,颗粒物(PM10),100,149,167,36,44,98,,98,98,5,19,8,41,0.7,1
2025-03-13T2200,2648A,104.1465,36.5482,白银市,动力公司,颗粒物(PM10),86,121,136,32,40,102,,100,100,6,13,5,13,0.6,0.9
2025-03-13T2200,2512A,106.6103,23.9011,百色市,市监测站,,32,32,51,16,32,53,,77,74,12,20,13,18,0.8,1
2025-03-13T2200,2513A,106.6538,23.8859,百色市,市中心血站,,27,27,47,17,31,54,,74,72,10,16,11,16,0.7,0.9
2025-03-13T2200,3406A,106.6085,23.8798,百色市,祈福高中,,44,44,57,20,33,43,,75,71,16,22,16,18,0.9,0.9
2025-03-13T2200,2270A,117.396,32.939,蚌埠市,工人疗养院,,49,49,146,22,97,69,,87,77,25,25,6,4,0.4,0.7
2025-03-13T2200,2271A,117.3605,32.9427,蚌埠市,百货大楼,,47,47,145,21,91,63,,77,68,30,29,6,5,0.4,0.6
2025-03-13T2200,2273A,117.4185,32.8911,蚌埠市,蚌埠学院,,41,41,128,21,95,74,,88,76,16,31,3,5,0.3,0.6
2025-03-13T2200,2274A,117.3533,32.9673,蚌埠市,淮上区政府,,44,44,139,23,98,74,,76,69,18,28,5,4,0.4,0.7
2025-03-13T2200,2275A,117.3145,32.8977,蚌埠市,高新区,,44,44,128,27,96,69,,88,75,22,24,4,5,0.3,0.6
2025-03-13T2200,3715A,117.3092,32.9314,蚌埠市,蚌埠田家炳中学,,46,46,143,25,99,76,,88,79,23,28,5,5,0.4,0.7
2025-03-13T2200,1585A,109.8756,40.6532,包头市,市环境监测站,,32,32,70,9,24,59,,82,75,21,42,10,19,0.6,0.9
2025-03-13T2200,1587A,109.9991,40.5842,包头市,包头八中,颗粒物(PM10),56,62,92,15,36,58,,71,71,25,41,17,31,0.4,0.8
2025-03-13T2200,1588A,109.8538,40.6821,包头市,青山宾馆,,42,42,66,11,26,62,,79,74,12,43,8,12,0.6,0.8
2025-03-13T2200,1589A,109.8642,40.6288,包头市,惠龙物流,,40,40,71,18,24,64,,84,79,18,37,7,22,0.6,0.9
2025-03-13T2200,1590A,110.0377,40.5546,包头市,东河鸿龙湾,,44,44,91,10,23,50,,68,64,32,40,11,26,0.4,0.7
2025-03-13T2200,3283A,109.9154,40.5685,包头市,滨河大厦,,34,34,69,13,25,52,,77,76,27,40,11,18,0.6,0.6
2025-03-13T2200,3419A,109.9447,40.6261,包头市,包头市委党校,,40,40,71,18,26,57,,83,76,26,38,11,22,0.5,0.9
2025-03-13T2200,3683A,109.8331,40.6576,包头市,昆区政府,,38,38,71,12,29,64,,77,73,13,42,7,14,0.6,0.8
2025-03-13T2200,1930A,107.185,34.3063,宝鸡市,庙沟村,"颗粒物(PM10),细颗粒物(PM2.5)",72,94,155,52,58,89,,108,103,18,21,7,7,0.5,0.4
2025-03-13T2200,1931A,107.0708,34.3017,宝鸡市,竹园沟,细颗粒物(PM2.5),78,102,151,57,60,45,,104,92,39,24,7,7,0.5,0.5
2025-03-13T2200,1932A,107.1906,34.3672,宝鸡市,三陆医院,颗粒物(PM10),82,114,178,49,67,92,,103,102,19,30,5,6,0.5,0.6
2025-03-13T2200,1933A,107.1431,34.3547,宝鸡市,监测站,颗粒物(PM10),88,126,176,49,60,93,,105,104,20,27,8,9,0.6,0.6
2025-03-13T2200,1934A,107.1186,34.3739,宝鸡市,技工学校,颗粒物(PM10),82,114,176,55,62,91,,103,101,28,27,6,8,0.9,0.9
2025-03-13T2200,1935A,107.3906,34.3528,宝鸡市,陈仓区环保局家属楼,颗粒物(PM10),67,83,171,40,60,87,,104,102,20,37,8,21,0.5,0.5
2025-03-13T2200,1936A,107.2058,34.3497,宝鸡市,文理学院,颗粒物(PM10),84,117,176,47,63,96,,110,108,25,31,6,7,0.3,0.3
2025-03-13T2200,1937A,107.2386,34.3622,宝鸡市,三迪小学,颗粒物(PM10),82,113,177,48,64,87,,102,99,27,33,7,9,0.8,0.8
2025-03-13T2200,1051A,115.493,38.8632,保定市,游泳馆,颗粒物(PM10),83,116,187,43,69,96,,130,127,20,36,9,12,0.3,0.4
2025-03-13T2200,1052A,115.5213,38.8959,保定市,华电二区,颗粒物(PM10),81,111,164,54,69,94,,134,130,18,31,9,11,0.3,0.6
2025-03-13T2200,1053A,115.4713,38.9108,保定市,接待中心,颗粒物(PM10),92,134,185,46,77,97,,127,125,18,35,4,8,0.1,0.5
2025-03-13T2200,1054A,115.4612,38.8416,保定市,地表水厂,颗粒物(PM10),90,130,214,42,70,95,,129,125,25,38,6,8,0.5,0.6
2025-03-13T2200,3581A,115.31981,38.95208,保定市,满城区生态环境分局,颗粒物(PM10),97,144,190,58,77,87,,119,116,25,36,8,10,0.5,0.6
2025-03-13T2200,3582A,115.47694,38.76408,保定市,清苑区第二中学,颗粒物(PM10),109,168,227,53,67,78,,126,119,39,43,9,11,0.4,0.5
2025-03-13T2200,3583A,115.62909,39.02311,保定市,徐水物探局,颗粒物(PM10),119,187,219,66,72,97,,129,124,24,45,10,12,0.3,0.4
2025-03-13T2200,4004A,115.4202,38.8656,保定市,双鹰农机,颗粒物(PM10),83,116,183,48,76,93,,128,124,28,33,4,7,0.5,0.7
2025-03-13T2200,4034A,115.5150,38.8590,保定市,植保所站,颗粒物(PM10),100,150,195,59,78,71,,130,122,45,47,5,8,0.5,0.6
2025-03-13T2200,2594A,99.1678,25.1081,保山市,市环境监测站,细颗粒物(PM2.5),59,65,95,42,65,124,,141,134,8,12,3,4,0.5,0.6
2025-03-13T2200,2595A,99.1711,25.1328,保山市,市环保局,细颗粒物(PM2.5),87,71,96,64,59,120,,145,137,6,9,6,7,0.7,0.8
2025-03-13T2200,1866A,109.2262,21.588,北海市,牛尾岭水库,,,25,22,22,18,32,,56,50,,,6,6,0.5,0.6
2025-03-13T2200,1867A,109.1436,21.4086,北海市,海滩公园,,22,22,25,15,14,54,,80,72,8,7,5,5,0.5,0.5
2025-03-13T2200,1868A,109.0981,21.4661,北海市,新市环保局,,23,23,23,14,16,46,,70,64,11,10,3,3,0.4,0.4
2025-03-13T2200,1869A,109.1778,21.5233,北海市,北海工业园,,42,31,30,29,20,38,,68,56,17,13,7,6,0.4,0.4
2025-03-13T2200,3400A,109.1911,21.4415,北海市,龙潭自来水厂,,25,23,24,17,21,50,,74,65,9,8,6,6,0.4,0.4
2025-03-13T2200,1001A,116.3621,39.8784,北京市,万寿西宫,颗粒物(PM10),97,143,175,43,58,75,,99,97,30,52,8,6,0.5,0.5
2025-03-13T2200,1002A,116.2202,40.2915,北京市,定陵,,,,,,,,,,,,,,,,
2025-03-13T2200,1003A,116.4174,39.9289,北京市,东四,颗粒物(PM10),94,137,169,46,57,72,,86,84,33,53,12,9,0.9,0.7
2025-03-13T2200,1004A,116.4072,39.8863,北京市,天坛,颗粒物(PM10),96,141,160,46,56,70,,82,79,30,47,3,3,1.0,0.8
2025-03-13T2200,1005A,116.462,39.9365,北京市,农展馆,颗粒物(PM10),96,141,173,46,56,80,,85,84,31,53,13,10,0.9,0.7
2025-03-13T2200,1006A,116.3392,39.9295,北京市,官园,颗粒物(PM10),101,151,166,53,52,63,,69,67,27,48,12,9,0.9,0.8
2025-03-13T2200,1007A,116.2878,39.9611,北京市,海淀万柳,颗粒物(PM10),95,140,114,44,40,62,,68,66,33,56,9,6,0.8,0.4
2025-03-13T2200,1008A,116.6636,40.135,北京市,顺义新城,颗粒物(PM10),90,129,114,37,33,92,,86,84,22,44,10,9,0.7,0.6
2025-03-13T2200,1009A,116.6275,40.3275,北京市,怀柔镇,颗粒物(PM10),114,177,93,48,33,51,,77,71,34,28,16,7,1.1,0.8
2025-03-13T2200,1010A,116.2296,40.217,北京市,昌平镇,颗粒物(PM10),109,168,135,47,38,51,,63,63,35,37,6,4,0.9,0.7
2025-03-13T2200,1011A,116.3966,39.9821,北京市,奥体中心,颗粒物(PM10),92,134,155,41,49,73,,78,77,29,53,9,8,0.9,0.8
2025-03-13T2200,3281A,115.9718,40.4529,北京市,延庆夏都,颗粒物(PM10),98,145,110,53,39,69,,79,78,26,25,10,7,0.8,0.5
2025-03-13T2200,3418A,116.8336,40.4095,北京市,密云新城,颗粒物(PM10),113,175,80,50,28,56,,84,78,28,21,8,7,0.9,0.6
2025-03-13T2200,3671A,116.088,39.9726,北京市,门头沟三家店,颗粒物(PM10),103,155,168,57,56,51,,54,53,34,51,7,6,0.7,0.5
2025-03-13T2200,3672A,116.1541,39.8204,北京市,丰台云岗,颗粒物(PM10),98,146,176,46,54,55,,101,94,32,52,9,8,0.9,0.6
2025-03-13T2200,3673A,116.6804,39.9081,北京市,通州东关,颗粒物(PM10),90,129,159,38,50,81,,80,78,20,46,11,11,0.7,0.7
2025-03-13T2200,3674A,115.9577,39.7603,北京市,房山燕山,颗粒物(PM10),99,148,176,56,63,44,,99,95,37,32,4,4,0.9,0.6
2025-03-13T2200,3675A,116.4672,39.7733,北京市,大兴旧宫,颗粒物(PM10),95,140,173,44,58,61,,86,81,25,46,4,3,0.7,0.5
2025-03-13T2200,3694A,115.986,40.4563,北京市,延庆石河营,颗粒物(PM10),98,146,113,50,38,69,,78,77,24,29,8,6,0.8,0.6
2025-03-13T2200,3695A,116.6151,40.3053,北京市,怀柔新城,颗粒物(PM10),109,167,89,48,32,55,,76,71,27,22,16,8,1.1,0.7
2025-03-13T2200,3696A,116.2545,39.8768,北京市,丰台小屯,颗粒物(PM10),98,145,171,45,54,58,,77,73,32,59,6,5,0.7,0.6
2025-03-13T2200,3697A,116.84,40.3844,北京市,密云镇,颗粒物(PM10),116,182,87,45,27,63,,91,86,27,31,9,7,1.0,0.6
2025-03-13T2200,4182A,116.1942,39.9158,北京市,八角北路9号,颗粒物(PM10),102,153,172,46,49,66,,78,76,30,53,6,4,0.8,0.6
2025-03-13T2200,4194A,117.0790,40.1518,北京市,洳河巡河路,颗粒物(PM10),73,95,91,34,34,73,,86,81,19,24,9,8,0.9,0.6
2025-03-13T2200,1761A,123.8275,41.3064,本溪市,大峪,,28,28,58,15,17,74,,90,82,9,8,8,9,0.6,0.6
2025-03-13T2200,1762A,123.7567,41.3325,本溪市,溪湖,,50,50,81,26,18,61,,93,80,29,18,8,8,0.6,0.5
2025-03-13T2200,1763A,123.7169,41.3094,本溪市,彩屯,细颗粒物(PM2.5),97,131,88,72,26,43,,85,70,31,20,8,8,0.9,0.7
2025-03-13T2200,1764A,123.7669,41.2864,本溪市,东明,,44,44,64,28,21,59,,84,73,25,19,9,7,0.5,0.6
2025-03-13T2200,1765A,123.7992,41.2664,本溪市,新立屯,,50,,52,35,25,31,,96,78,51,34,6,6,0.6,0.6
2025-03-13T2200,1766A,123.8142,41.3472,本溪市,威宁,,45,45,84,28,20,21,,91,70,53,26,3,4,0.6,0.5
2025-03-13T2200,2587A,105.2864,27.3125,毕节市,八中,,29,25,49,20,32,38,,67,40,15,13,8,8,0.8,0.7
2025-03-13T2200,2588A,105.31,27.2944,毕节市,师专,,25,24,45,17,30,44,,71,45,14,13,7,7,0.8,0.8
2025-03-13T2200,4263A,105.3688,27.3598,毕节市,工业大道,,28,26,42,19,27,45,,66,46,15,13,8,9,0.6,0.6
2025-03-13T2200,1629A,118.0018,37.3617,滨州市,第二水厂,颗粒物(PM10),73,95,109,41,29,23,,113,78,56,31,11,12,0.2,0.2
2025-03-13T2200,1630A,117.9776,37.393,滨州市,北中新校,颗粒物(PM10),74,97,110,41,29,38,,120,88,61,39,12,13,0.6,0.5
2025-03-13T2200,3514A,117.9378,37.3956,滨州市,中海酒店,颗粒物(PM10),64,78,92,39,32,56,,121,96,42,25,10,12,0.6,0.4
2025-03-13T2200,3515A,117.9378,37.3553,滨州市,开发区一中,颗粒物(PM10),71,92,119,34,31,34,,108,82,62,45,11,14,0.5,0.4
2025-03-13T2200,3516A,118.0917,37.694,滨州市,金海六路,颗粒物(PM10),51,51,94,14,23,55,,123,96,25,25,8,9,0.5,0.6
2025-03-13T2200,4028A,117.9956,37.3753,滨州市,滨州市西街道办事处,颗粒物(PM10),76,102,110,51,37,18,,124,84,69,37,10,12,0.6,0.6
2025-03-13T2200,2311A,115.8072,33.8399,亳州市,污水处理厂,颗粒物(PM10),61,72,146,36,70,73,,112,93,19,17,5,5,0.3,0.5
2025-03-13T2200,2312A,115.7789,33.8518,亳州市,三国揽胜宫,颗粒物(PM10),70,89,158,30,65,70,,103,87,18,15,4,5,0.2,0.4
2025-03-13T2200,3332A,115.7633,33.8034,亳州市,亳州学院,颗粒物(PM10),65,79,151,33,64,71,,107,88,17,17,4,4,0.4,0.6
2025-03-13T2200,2693A,82.0485,44.8556,博尔塔拉蒙古自治州,市党校,,26,26,35,17,18,76,,80,75,11,11,5,6,0.3,0.2
2025-03-13T2200,2694A,82.0806,44.8969,博尔塔拉蒙古自治州,市环保局,,43,43,44,19,14,70,,75,75,17,13,5,5,0.3,0.4
2025-03-13T2200,1071A,116.8842,38.2991,沧州市,沧县城建局,颗粒物(PM10),119,188,155,89,61,14,,123,99,91,32,5,7,0.7,0.5
2025-03-13T2200,1072A,116.8584,38.3254,沧州市,电视转播站,颗粒物(PM10),116,181,147,83,60,27,,123,105,71,32,6,10,0.6,0.5
2025-03-13T2200,1073A,116.8709,38.3228,沧州市,市环保局,颗粒物(PM10),115,179,138,82,55,11,,116,93,89,30,7,11,0.7,0.6
2025-03-13T2200,3324A,116.8136,38.3004,沧州市,河北水利电力学院,颗粒物(PM10),113,175,184,76,57,57,,123,102,46,32,6,11,0.6,0.5
2025-03-13T2200,2622A,97.1806,31.1273,昌都市,昌都监测站,,31,19,15,9,7,98,,83,83,4,6,7,6,0.5,0.5
2025-03-13T2200,3719A,97.1714,31.1406,昌都市,昌都会议中心,,36,12,10,8,7,115,,121,121,1,3,2,2,0.1,0.2
2025-03-13T2200,2690A,88.1236,43.8886,昌吉回族自治州,天山天池,,25,,7,11,4,79,,84,82,4,4,4,5,0.4,0.4
2025-03-13T2200,2692A,87.2717,44.0297,昌吉回族自治州,新区政务中心,,,,21,9,5,84,,87,86,9,10,5,5,0.3,0.3
2025-03-13T2200,3613A,87.3095,44.0142,昌吉回族自治州,亚心广场,,27,24,21,14,12,85,,87,86,15,15,4,5,0.3,0.3
2025-03-13T2200,1119A,125.3325,43.9166,长春市,食品厂,细颗粒物(PM2.5),70,72,47,51,23,13,,90,65,75,23,8,8,0.7,0.4
2025-03-13T2200,1120A,125.2863,43.9027,长春市,客车厂,细颗粒物(PM2.5),90,78,59,67,27,15,,88,62,79,24,6,5,0.9,0.5
2025-03-13T2200,1121A,125.2841,43.8463,长春市,邮电学院,细颗粒物(PM2.5),60,57,42,43,23,34,,96,79,51,9,7,6,0.7,0.3
2025-03-13T2200,1122A,125.3716,43.8772,长春市,劳动公园,,49,43,41,34,21,46,,94,80,34,10,6,6,0.8,0.5
2025-03-13T2200,1123A,125.3297,43.8805,长春市,园林处,细颗粒物(PM2.5),54,38,41,38,19,54,,93,78,30,12,7,7,0.4,0.2
2025-03-13T2200,1124A,125.4605,43.79,长春市,净月潭,,31,31,44,19,19,58,,96,84,16,12,6,6,0.4,0.3
2025-03-13T2200,1125A,125.7194,43.515,长春市,甩湾子,,,,,,,,,,,,,,,,
2025-03-13T2200,1126A,125.3863,43.8447,长春市,经开区环卫处,,42,40,42,29,18,30,,90,71,51,16,17,9,0.5,0.4
2025-03-13T2200,1127A,125.245,43.7783,长春市,高新区管委会,颗粒物(PM10),77,104,102,31,29,15,,,,71,51,7,9,0.7,0.7
2025-03-13T2200,1128A,125.1761,43.8325,长春市,岱山公园,细颗粒物(PM2.5),74,70,45,54,25,16,,98,68,79,20,9,5,0.6,0.3
2025-03-13T2200,1335A,113.0833,28.2325,长沙市,经开区环保局,,40,32,51,28,53,22,,58,26,36,24,4,4,0.7,0.6
2025-03-13T2200,1336A,112.8872,28.2189,长沙市,高开区环保局,,32,24,54,22,54,48,,68,46,11,10,3,4,0.8,0.7
2025-03-13T2200,1337A,113.0792,28.2053,长沙市,马坡岭,,36,36,51,25,45,27,,60,30,26,18,3,3,0.7,0.6
2025-03-13T2200,1338A,112.9394,28.19,长沙市,湖南师范大学,,32,,57,22,49,43,,66,43,12,8,4,3,0.8,0.7
2025-03-13T2200,1339A,113.0178,28.1322,长沙市,雨花区环保局,,40,28,47,28,56,33,,59,34,28,22,4,4,0.8,0.7
2025-03-13T2200,1340A,112.9792,28.2597,长沙市,伍家岭,,,33,65,23,56,,,60,30,19,16,2,2,0.7,0.6
2025-03-13T2200,1341A,113.0014,28.1944,长沙市,火车新站,,32,28,53,22,52,42,,66,38,17,15,5,5,0.7,0.7
2025-03-13T2200,1342A,112.9844,28.1178,长沙市,天心区环保局,,26,24,56,18,40,41,,65,41,26,22,2,2,0.8,0.7
2025-03-13T2200,1343A,112.8908,28.1308,长沙市,湖南中医药大学,,48,,54,33,54,41,,66,43,13,10,2,2,0.5,0.5
2025-03-13T2200,1344A,112.9581,28.3611,长沙市,沙坪,,26,26,59,10,31,38,,60,38,14,11,5,5,1.0,0.9
2025-03-13T2200,1727A,113.1147,36.1547,长治市,清华站,细颗粒物(PM2.5),85,118,115,63,44,98,,116,113,18,20,11,9,1.3,0.9
2025-03-13T2200,1730A,113.0886,36.2125,长治市,审计局,细颗粒物(PM2.5),104,112,116,78,50,101,,121,118,26,24,8,10,0.6,0.7
2025-03-13T2200,1731A,113.0844,36.1856,长治市,长治八中,细颗粒物(PM2.5),105,143,150,79,57,104,,123,121,20,20,8,11,0.5,0.6
2025-03-13T2200,2845A,113.1569,36.1911,长治市,德盛苑,颗粒物(PM10),86,121,113,61,44,102,,119,117,17,14,8,8,0.9,1
2025-03-13T2200,3568A,113.06,36.0464,长治市,向阳小学,细颗粒物(PM2.5),104,144,145,78,56,98,,117,115,18,16,8,11,0.6,0.6
2025-03-13T2200,3569A,112.8792,36.3144,长治市,屯留一中,细颗粒物(PM2.5),107,123,132,80,51,106,,122,118,26,30,9,10,0.4,0.5
2025-03-13T2200,4189A,113.1131,36.19948,长治市,英华南巷50号,"颗粒物(PM10),细颗粒物(PM2.5)",85,120,120,63,46,116,,129,127,16,21,10,15,0.6,0.7
2025-03-13T2200,4190A,113.2367,36.3344,长治市,学府街1号,细颗粒物(PM2.5),97,118,155,72,59,108,,125,122,13,37,4,6,0.7,0.8
2025-03-13T2200,1854A,111.6975,28.9703,常德市,市二中,细颗粒物(PM2.5),85,81,77,63,55,33,,61,56,24,20,3,4,0.9,0.7
2025-03-13T2200,1857A,111.7158,29.1456,常德市,白鹤山,,,,,,,,,,,,,,,,
2025-03-13T2200,3138A,111.7153,29.0289,常德市,武陵区永安,细颗粒物(PM2.5),72,68,81,52,48,57,,65,63,15,16,2,4,0.6,0.6
2025-03-13T2200,3139A,111.6892,28.9881,常德市,鼎城区玉霞,颗粒物(PM10),75,100,95,48,44,38,,57,52,29,25,3,4,0.8,0.7
2025-03-13T2200,3140A,111.6625,29.0531,常德市,武陵区长庚,细颗粒物(PM2.5),65,65,82,47,45,54,,67,66,13,14,3,5,0.7,0.7
2025-03-13T2200,1196A,119.9633,31.762,常州市,市监测站,,33,33,49,20,33,66,,70,64,18,23,8,9,0.4,0.7
2025-03-13T2200,1200A,119.9468,31.7069,常州市,武进监测站,,40,40,51,21,31,58,,66,56,37,34,10,10,0.5,0.8
2025-03-13T2200,1201A,119.9255,31.9087,常州市,安家,,36,36,47,15,28,65,,60,54,28,33,8,9,0.5,0.8
2025-03-13T2200,3002A,119.9805,31.8174,常州市,行政中心,,41,41,46,23,32,40,,64,52,41,29,3,11,0.6,0.6
2025-03-13T2200,3003A,120.0522,31.7748,常州市,经开区,,,47,59,,30,,,71,62,,35,,7,,0.6
2025-03-13T2200,3010A,119.9025,31.7964,常州市,钟楼,,41,41,48,25,30,48,,68,62,38,27,7,7,0.7,0.8
2025-03-13T2200,3429A,119.8598,31.7066,常州市,武进经发区,,41,41,45,16,26,63,,69,59,35,36,7,7,0.5,0.7
2025-03-13T2200,3430A,119.5826,31.7245,常州市,金坛城区,,42,42,45,18,24,45,,70,56,38,27,8,7,0.6,0.7
2025-03-13T2200,2220A,120.4318,41.5881,朝阳市,西梁,细颗粒物(PM2.5),63,52,53,45,32,33,,88,74,39,25,11,9,0.7,0.6
2025-03-13T2200,2221A,120.4521,41.5646,朝阳市,河畔小区,颗粒物(PM10),51,52,36,29,16,69,,91,85,17,25,10,8,0.6,0.6
2025-03-13T2200,2222A,120.4176,41.5648,朝阳市,八里堡,细颗粒物(PM2.5),59,64,52,42,23,39,,87,75,33,30,14,11,0.9,0.7
2025-03-13T2200,2223A,120.3806,41.5969,朝阳市,农业园区,"颗粒物(PM10),细颗粒物(PM2.5)",59,67,46,42,21,35,,90,73,42,26,12,10,0.7,0.5
2025-03-13T2200,1705A,116.6367,23.6719,潮州市,西园路,,39,28,36,27,19,46,,96,88,20,15,5,3,0.3,0.2
2025-03-13T2200,3026A,116.6183,23.6608,潮州市,市政府,,48,34,52,33,30,51,,92,85,21,25,4,8,0.5,0.8
2025-03-13T2200,4036A,116.6461,23.6761,潮州市,金山,细颗粒物(PM2.5),53,,34,37,18,46,,100,89,20,16,8,5,0.6,0.7
2025-03-13T2200,2472A,113.0073,25.9061,郴州市,马头岭,颗粒物(PM10),51,51,44,29,20,36,,48,46,13,11,7,7,1.2,0.8
2025-03-13T2200,2473A,113.0116,25.8226,郴州市,市职中,,40,36,38,28,34,43,,52,51,18,16,4,5,0.9,0.9
2025-03-13T2200,2475A,113.0383,25.8071,郴州市,市审计局,,39,37,36,27,33,46,,55,55,15,13,2,2,0.7,0.8
2025-03-13T2200,2476A,113.0348,25.7759,郴州市,市环保局,颗粒物(PM10),51,51,39,25,35,36,,40,40,14,14,4,4,0.8,0.8
2025-03-13T2200,4252A,113.0138,25.8011,郴州市,好美居路49号,,48,34,39,33,39,46,,50,50,14,15,6,6,0.9,0.9
2025-03-13T2200,1431A,103.9728,30.7236,成都市,金泉两河,颗粒物(PM10),78,105,96,44,29,11,,66,55,58,29,2,2,0.7,0.5
2025-03-13T2200,1432A,104.176,30.6872,成都市,十里店,颗粒物(PM10),72,94,81,49,29,45,,71,62,44,29,3,2,0.7,0.6
2025-03-13T2200,1433A,104.079,30.5706,成都市,三瓦窑,颗粒物(PM10),82,113,80,40,24,32,,64,50,58,35,4,4,0.8,0.6
2025-03-13T2200,1434A,104.1114,30.63,成都市,沙河铺,颗粒物(PM10),74,98,75,37,30,33,,64,54,44,27,5,5,0.8,0.7
2025-03-13T2200,1437A,104.0786,30.6531,成都市,君平街,颗粒物(PM10),75,100,78,50,33,39,,68,58,50,30,6,6,0.7,0.6
2025-03-13T2200,1438A,103.613,31.0283,成都市,灵岩寺,,,,,,,,,,,,,,,,
2025-03-13T2200,2880A,104.0239,30.65639,成都市,大石西路,颗粒物(PM10),81,111,83,36,31,30,,63,51,54,30,5,5,0.8,0.7
2025-03-13T2200,3136A,104.2725,30.5589,成都市,龙泉驿区区政府,颗粒物(PM10),57,63,52,27,21,34,,63,54,34,18,4,4,0.6,0.6
2025-03-13T2200,3357A,104.0106,30.6931,成都市,金博路,颗粒物(PM10),76,101,80,41,24,31,,60,52,41,26,6,6,0.8,0.7
2025-03-13T2200,3359A,104.0578,30.5225,成都市,华阳,颗粒物(PM10),75,100,72,46,32,40,,59,54,45,31,6,5,0.8,0.7
2025-03-13T2200,3488A,104.3853,30.7453,成都市,青白江技师分院,颗粒物(PM10),57,63,54,33,25,54,,77,62,37,27,4,4,0.5,0.4
2025-03-13T2200,3489A,104.0789,30.4072,成都市,科学城,颗粒物(PM10),70,90,73,49,30,28,,69,58,55,24,4,4,0.7,0.6
2025-03-13T2200,4011A,103.8506,30.6947,成都市,光华大道三段,颗粒物(PM10),82,114,92,29,32,38,,71,63,45,30,5,4,0.8,0.6
2025-03-13T2200,4224A,104.2433,30.5353,成都市,鲸龙路1057号,颗粒物(PM10),66,81,73,36,28,41,,67,59,34,25,4,4,0.7,0.6
2025-03-13T2200,1062A,117.9531,40.9081,承德市,铁路,颗粒物(PM10),62,73,66,29,18,71,,85,82,18,26,10,9,0.5,0.5
2025-03-13T2200,1063A,117.9392,40.9763,承德市,中国银行,颗粒物(PM10),60,69,67,27,20,77,,91,87,11,19,7,5,0.5,0.5
2025-03-13T2200,1064A,117.9503,40.928,承德市,开发区,颗粒物(PM10),72,94,64,32,25,74,,94,91,19,30,8,8,0.4,0.6
2025-03-13T2200,1065A,117.8051,40.9655,承德市,文化中心,颗粒物(PM10),80,110,76,25,18,77,,90,88,17,27,9,6,0.6,0.5
2025-03-13T2200,1066A,117.9268,41.0026,承德市,离宫,颗粒物(PM10),64,77,58,39,24,58,,81,77,14,18,6,8,0.5,0.5
2025-03-13T2200,2314A,117.47,30.6618,池州市,池州学院,,43,42,34,30,27,47,,67,60,36,22,9,5,0.6,0.7
2025-03-13T2200,3237A,117.4918,30.6617,池州市,展览馆,,43,40,32,30,26,40,,72,61,34,17,4,4,0.6,0.7
2025-03-13T2200,3333A,117.5627,30.695,池州市,第八中学,,36,35,28,25,23,46,,71,62,29,17,4,4,0.5,0.6
2025-03-13T2200,3334A,117.5038,30.6243,池州市,第十二中学,,38,34,25,26,20,62,,79,64,19,14,3,2,0.5,0.7
2025-03-13T2200,1744A,118.9233,42.2816,赤峰市,松山一中,,49,49,41,18,12,59,,75,60,27,35,8,11,0.8,0.8
2025-03-13T2200,1745A,118.9576,42.2728,赤峰市,哈达街,,39,39,36,20,21,70,,69,66,17,28,12,13,0.6,0.7
2025-03-13T2200,1746A,118.8788,42.2554,赤峰市,天义路,,45,42,34,31,24,35,,62,57,43,29,8,11,0.7,0.7
2025-03-13T2200,3058A,119.2658,42.0353,赤峰市,银河街,颗粒物(PM10),58,66,58,30,33,46,,70,,28,30,22,22,0.6,0.7
2025-03-13T2200,3286A,118.9359,42.3147,赤峰市,桥北物流园区,,40,40,33,23,23,47,,67,57,29,27,10,9,0.5,0.4
2025-03-13T2200,2521A,107.3476,22.4136,崇左市,市环保局江州分局,,27,27,36,15,20,32,,44,40,9,16,5,6,0.5,0.6
2025-03-13T2200,4256A,107.3750,22.3736,崇左市,石景林东路7号,,20,,38,14,22,32,,46,43,12,19,3,4,0.5,0.6
2025-03-13T2200,2298A,118.3093,32.3153,滁州市,老年大学,,43,43,92,27,77,67,,84,67,25,24,7,8,0.4,0.6
2025-03-13T2200,2299A,118.3244,32.2786,滁州市,人大宾馆,,41,41,93,20,73,63,,78,64,29,31,8,8,0.4,0.6
2025-03-13T2200,3207A,118.3118,32.3038,滁州市,市政府原办公楼,,37,37,87,25,73,67,,81,64,20,21,4,5,0.2,0.5
2025-03-13T2200,3331A,118.3267,32.2634,滁州市,图书馆,,45,45,98,20,65,61,,79,66,25,24,5,6,0.3,0.5
2025-03-13T2200,2605A,101.5482,25.0441,楚雄彝族自治州,州环境监测站,细颗粒物(PM2.5),98,79,69,73,57,120,,152,149,23,20,9,8,0.9,0.8
2025-03-13T2200,2606A,101.538,25.0492,楚雄彝族自治州,市经济开发区,细颗粒物(PM2.5),104,106,74,78,58,104,,146,141,31,22,8,8,1.1,0.8
2025-03-13T2200,2548A,107.5277,31.2827,达州市,达州职业技术学院,颗粒物(PM10),52,54,35,23,14,20,,45,42,29,21,14,9,0.3,0.2
2025-03-13T2200,2549A,107.5086,31.2186,达州市,市环境监测站,,44,44,36,22,13,16,,38,37,43,31,12,8,0.6,0.6
2025-03-13T2200,2550A,107.4988,31.2132,达州市,凤凰小区,,48,48,30,24,16,18,,46,43,46,29,14,10,0.5,0.4
2025-03-13T2200,2551A,107.5082,31.1986,达州市,达县机关宾馆,,48,48,31,25,17,13,,46,40,43,29,10,8,0.7,0.7
2025-03-13T2200,2552A,107.4644,31.2124,达州市,市政中心,,,,40,,13,,,22,,,30,,5,,0.5
2025-03-13T2200,2614A,100.1542,25.7054,大理白族自治州,大理市环境监测站,颗粒物(PM10),52,54,74,35,56,125,,144,135,6,9,7,8,0.6,0.7
2025-03-13T2200,2615A,100.2171,25.5811,大理白族自治州,大理古城,,46,46,65,31,52,117,,133,126,6,10,6,7,0.5,0.6
2025-03-13T2200,1109A,121.612,38.9741,大连市,甘井子,颗粒物(PM10),53,56,60,12,18,56,,87,76,40,41,5,8,0.7,0.6
2025-03-13T2200,1110A,121.565,38.9511,大连市,周水子,颗粒物(PM10),51,51,55,14,20,72,,79,73,22,41,9,10,0.4,0.5
2025-03-13T2200,1111A,121.5637,38.8845,大连市,星海三站,,34,34,46,6,15,77,,91,85,7,16,7,8,0.5,0.7
2025-03-13T2200,1112A,121.6302,38.9117,大连市,青泥洼桥,,42,42,39,12,13,73,,91,85,14,18,8,9,0.3,0.3
2025-03-13T2200,1113A,121.6251,38.8638,大连市,傅家庄,,30,30,48,3,11,86,,89,89,6,16,5,9,0.4,0.6
2025-03-13T2200,1114A,121.5213,38.8661,大连市,七贤岭,,43,43,42,14,12,60,,83,80,17,14,7,6,0.7,0.7
2025-03-13T2200,1115A,121.2529,38.8061,大连市,旅顺,,30,30,50,3,19,75,,78,78,14,25,6,6,0.4,0.5
2025-03-13T2200,1116A,121.7485,39.1311,大连市,金州,,37,37,51,6,12,81,,90,84,11,21,7,10,0.4,0.5
2025-03-13T2200,1117A,121.7811,39.0496,大连市,开发区,,48,48,60,15,20,58,,80,75,36,41,8,13,0.6,0.8
2025-03-13T2200,1118A,121.9762,39.0631,大连市,双D港,,38,38,66,10,15,84,,87,85,14,18,12,11,0.7,0.8
2025-03-13T2200,1789A,124.81117,46.03138,大庆市,大同区,细颗粒物(PM2.5),54,56,21,38,18,30,,84,67,50,10,4,3,0.8,0.4
2025-03-13T2200,1790A,125.129,46.533,大庆市,龙凤区,,35,35,29,10,15,46,,81,68,36,14,5,6,0.6,0.4
2025-03-13T2200,1791A,124.902,46.408,大庆市,红岗区,,46,32,21,32,20,57,,96,77,23,8,5,5,0.5,0.4
2025-03-13T2200,1792A,125.153,46.586,大庆市,萨尔图区,,37,37,24,13,10,60,,78,71,27,13,5,6,0.4,0.3
2025-03-13T2200,1793A,124.9042,46.6215,大庆市,让胡路区,,35,26,21,24,20,48,,82,71,34,11,7,7,0.6,0.4
2025-03-13T2200,3481A,125.141,46.634,大庆市,萨区政府监测点,,24,23,22,7,12,75,,87,84,11,7,4,5,0.5,0.4
2025-03-13T2200,1721A,113.3819,40.1097,大同市,果树场,细颗粒物(PM2.5),64,69,96,46,49,55,,89,81,23,36,12,15,0.6,1
2025-03-13T2200,1723A,113.2994,40.0758,大同市,云冈宾馆,颗粒物(PM10),59,68,108,18,37,67,,94,86,19,38,10,15,0.8,1.2
2025-03-13T2200,1724A,113.3444,40.0917,大同市,大同大学,颗粒物(PM10),65,79,97,29,39,60,,88,80,17,32,17,25,0.6,0.9
2025-03-13T2200,1725A,113.2661,40.1269,大同市,安家小村,颗粒物(PM10),65,80,128,18,43,72,,87,84,10,35,9,18,0.5,1.9
2025-03-13T2200,1726A,113.2711,40.0844,大同市,教育学院,颗粒物(PM10),65,80,135,18,50,73,,88,85,16,47,8,16,0.4,1.6
2025-03-13T2200,3282A,113.3397,40.0597,大同市,大同市卫生学校,颗粒物(PM10),65,80,110,31,44,65,,91,84,17,37,14,17,0.6,0.9
2025-03-13T2200,3565A,113.1367,40.1122,大同市,云冈站,颗粒物(PM10),60,69,116,20,39,69,,83,81,11,33,10,26,0.6,0.8
2025-03-13T2200,3566A,113.1186,40.2556,大同市,图书馆,颗粒物(PM10),63,76,88,19,33,67,,83,75,9,15,13,14,0.7,0.7
2025-03-13T2200,3567A,113.5931,40.0461,大同市,区一中,颗粒物(PM10),102,154,138,38,48,76,,98,92,19,22,22,22,0.6,0.6
2025-03-13T2200,4199A,113.2798,40.0997,大同市,魏都大道141号,颗粒物(PM10),67,83,137,24,47,70,,88,84,13,42,13,20,0.6,1.8
2025-03-13T2200,2269A,124.1069,50.4097,大兴安岭地区,科技局,,26,18,22,18,18,78,,81,81,4,3,5,6,0.4,0.4
2025-03-13T2200,3663A,124.1164,50.4278,大兴安岭地区,红旗社区,,23,,7,12,8,73,,84,82,9,4,7,4,0.4,0.3
2025-03-13T2200,1600A,124.3303,40.0625,丹东市,江湾东路,颗粒物(PM10),58,65,98,27,26,73,,93,82,19,17,11,13,0.7,0.9
2025-03-13T2200,1601A,124.4256,40.1503,丹东市,临江后街,细颗粒物(PM2.5),92,120,69,68,18,44,,91,73,44,20,12,10,1.2,0.7
2025-03-13T2200,1602A,124.3933,40.1461,丹东市,元宝山,,44,44,62,18,14,70,,86,81,13,10,10,8,0.8,0.7
2025-03-13T2200,1603A,124.3633,40.1092,丹东市,民主桥,,48,48,79,15,16,76,,83,74,13,19,9,10,0.8,0.9
2025-03-13T2200,3541A,109.5726,19.5167,儋州市,第一中学子站,,36,36,21,22,11,24,,37,35,12,5,4,4,0.8,0.6
2025-03-13T2200,3542A,109.5567,19.5187,儋州市,东坡学校子站,,45,45,23,29,13,24,,42,39,17,7,7,6,0.8,0.5
2025-03-13T2200,2616A,98.5842,24.428,德宏傣族景颇族自治州,德宏州监测站,细颗粒物(PM2.5),94,114,122,70,87,56,,126,114,42,26,8,10,1.2,1
2025-03-13T2200,3677A,98.5881,24.4368,德宏傣族景颇族自治州,芒市人民政府综合楼,"颗粒物(PM10),细颗粒物(PM2.5)",87,123,144,64,87,95,,150,138,17,18,9,11,0.7,0.7
2025-03-13T2200,1901A,104.4239,31.1208,德阳市,东山公园,,50,50,62,27,32,76,,82,77,13,14,3,3,0.7,0.6
2025-03-13T2200,1902A,104.3826,31.1317,德阳市,西小区,颗粒物(PM10),59,68,75,40,35,61,,82,74,26,19,4,4,0.7,0.6
2025-03-13T2200,1904A,104.3553,31.1091,德阳市,耐火材料厂,颗粒物(PM10),58,66,71,38,36,50,,81,73,36,22,6,6,0.5,0.4
2025-03-13T2200,3639A,104.4019,31.1244,德阳市,市教育局,颗粒物(PM10),51,51,65,29,34,48,,83,72,37,19,4,5,0.7,0.6
2025-03-13T2200,1622A,116.3032,37.4674,德州市,儿童乐园,颗粒物(PM10),82,114,188,44,57,79,,118,106,35,34,7,11,0.7,0.8
2025-03-13T2200,1624A,116.2991,37.4451,德州市,监理站,颗粒物(PM10),81,112,183,51,59,76,,116,104,34,32,13,17,0.7,0.7
2025-03-13T2200,3066A,116.2721,37.4379,德州市,九衢泉纯净水厂,颗粒物(PM10),79,107,177,48,55,63,,112,96,46,43,10,13,0.6,0.7
2025-03-13T2200,3371A,116.3728,37.4403,德州市,开发区人民医院,颗粒物(PM10),90,129,185,56,53,82,,122,110,31,35,13,16,0.5,0.6
2025-03-13T2200,3372A,116.3572,37.4094,德州市,太阳城中学,颗粒物(PM10),101,151,168,75,59,65,,116,99,36,41,6,11,0.6,0.6
2025-03-13T2200,3511A,116.5652,37.3319,德州市,陵城艺术中心,颗粒物(PM10),82,114,177,53,56,70,,110,94,39,40,10,14,0.7,0.8
2025-03-13T2200,2621A,99.7056,27.8317,迪庆藏族自治州,迪庆州站,,35,14,37,13,25,109,,112,107,12,12,8,8,0.7,0.6
2025-03-13T2200,3180A,99.7136,27.8094,迪庆藏族自治州,质量技术监督局,,36,15,41,12,27,114,,113,109,9,13,9,8,0.7,0.7
2025-03-13T2200,4257A,104.6092,35.5962,定西市,将台街,颗粒物(PM10),80,109,173,41,46,95,,104,103,12,13,7,10,0.4,0.7
2025-03-13T2200,4309A,104.6159,35.5701,定西市,正龙路62号,,,,186,,51,,,107,107,12,10,6,7,0.4,1.1
2025-03-13T2200,1389A,113.7547,23.0494,东莞市,莞城梨川,,20,20,29,11,16,23,,92,62,25,27,5,5,0.5,0.6
2025-03-13T2200,1390A,113.7944,23.0128,东莞市,东城石井,,27,27,28,12,13,22,,95,62,24,24,5,5,0.5,0.6
2025-03-13T2200,1391A,113.7383,22.9658,东莞市,南城西平,,24,24,27,8,11,26,,79,50,27,32,4,5,0.6,0.6
2025-03-13T2200,3319A,113.7338,23.0381,东莞市,万江金泰,,26,26,36,10,13,26,,104,70,23,23,5,5,0.7,0.7
2025-03-13T2200,3626A,113.7533,23.0202,东莞市,南城元岭,,21,21,29,9,12,19,,82,54,23,24,5,4,0.6,0.7
2025-03-13T2200,3627A,113.7875,23.0457,东莞市,东城主山,,28,28,30,10,12,25,,102,68,31,28,7,7,0.6,0.6
2025-03-13T2200,1666A,118.6614,37.4309,东营市,市环保局,,36,36,58,3,14,62,,99,88,26,30,4,8,0.7,0.8
2025-03-13T2200,3036A,118.6904,37.4338,东营市,开发区管委会,,39,39,60,12,16,64,,98,88,36,33,3,7,0.7,0.7
2025-03-13T2200,3365A,118.5719,37.565,东营市,垦利区民丰路,,39,39,55,12,12,65,,101,90,29,30,7,6,0.5,0.6
2025-03-13T2200,3498A,118.5055,37.8612,东营市,河口城区,,48,48,77,12,21,66,,114,96,27,34,3,5,0.5,0.5
2025-03-13T2200,3646A,118.4978,37.4623,东营市,胜利站,,40,40,67,12,13,59,,98,84,37,42,9,10,0.5,0.6
2025-03-13T2200,3734A,118.35,37.26,东营市,理想之城,,31,31,59,12,18,53,,108,89,34,42,6,9,0.3,0.4
2025-03-13T2200,1591A,110.0023,39.8129,鄂尔多斯市,综合楼,颗粒物(PM10),85,119,101,36,22,45,,88,73,52,28,19,11,1.0,0.5
2025-03-13T2200,1592A,109.9486,39.8261,鄂尔多斯市,巴音孟克林场办事处,颗粒物(PM10),82,114,94,39,25,48,,89,75,50,26,19,12,1.0,0.4
2025-03-13T2200,1593A,109.7736,39.5986,鄂尔多斯市,康泽苑,颗粒物(PM10),78,105,96,31,23,53,,95,82,38,20,8,11,0.6,0.4
2025-03-13T2200,1594A,109.8119,39.5989,鄂尔多斯市,华泰汽车城,颗粒物(PM10),73,95,94,36,27,51,,92,82,40,24,11,7,0.5,0.3
2025-03-13T2200,1595A,109.9734,39.7884,鄂尔多斯市,奥林花园,颗粒物(PM10),82,114,98,36,25,59,,89,82,36,30,16,9,0.9,0.5
2025-03-13T2200,2436A,114.8938,30.3994,鄂州市,市政府,细颗粒物(PM2.5),65,60,63,47,46,47,,66,58,27,24,4,4,0.5,0.6
2025-03-13T2200,2437A,114.8989,30.3714,鄂州市,赵家坝,细颗粒物(PM2.5),63,67,62,45,45,51,,70,65,13,15,5,3,0.9,0.9
2025-03-13T2200,3654A,114.8094,30.4089,鄂州市,精准医疗中心,细颗粒物(PM2.5),70,59,59,51,50,36,,58,51,18,18,5,4,1.0,1.2
2025-03-13T2200,2454A,109.4978,30.2981,恩施土家族苗族自治州,湖北民院,细颗粒物(PM2.5),64,68,53,46,37,7,,44,38,38,25,3,3,0.4,0.5
2025-03-13T2200,2455A,109.4707,30.2798,恩施土家族苗族自治州,州电力总公司,颗粒物(PM10),58,66,55,40,37,11,,38,35,31,23,5,5,0.5,0.2
2025-03-13T2200,3549A,109.5061,30.3772,恩施土家族苗族自治州,龙凤新区,颗粒物(PM10),55,59,48,35,29,17,,60,51,22,13,6,6,0.6,0.5
2025-03-13T2200,2499A,108.3411,21.6158,防城港市,沙万,,34,34,40,20,20,37,,41,40,24,23,7,9,0.6,0.7
2025-03-13T2200,2500A,108.3514,21.7731,防城港市,防城档案局,,40,30,33,28,21,46,,61,61,12,21,7,7,0.3,0.6
2025-03-13T2200,2501A,108.3506,21.6414,防城港市,大海花园,,42,42,36,18,18,61,,56,55,14,18,5,6,0.7,0.9
2025-03-13T2200,1371A,113.1294,23.0067,佛山市,湾梁,,34,34,36,14,14,35,,97,81,23,24,8,7,0.7,0.5
2025-03-13T2200,1372A,113.1083,23.0478,佛山市,华材职中,,31,31,31,18,14,41,,123,105,28,25,6,6,0.7,0.5
2025-03-13T2200,1373A,113.144,23.0453,佛山市,南海气象局,,44,44,36,21,16,35,,110,89,28,23,6,6,0.6,0.5
2025-03-13T2200,1374A,113.2881,22.8094,佛山市,顺德苏岗,颗粒物(PM10),99,147,46,17,15,20,,78,58,26,28,6,5,0.6,0.6
2025-03-13T2200,1376A,112.8383,22.8678,佛山市,高明孔堂,,18,18,29,12,18,46,,78,69,7,10,4,4,0.5,0.5
2025-03-13T2200,1377A,112.8836,23.1588,佛山市,三水监测站,,44,44,32,26,23,14,,86,62,54,41,2,2,0.6,0.5
2025-03-13T2200,1378A,112.867,23.185,佛山市,三水云东海,,47,47,40,19,19,24,,106,84,47,36,1,2,0.6,0.5
2025-03-13T2200,3625A,113.2544,22.7642,佛山市,容桂街道办,,,,,,,,,,,,,,,,
2025-03-13T2200,1280A,119.3903,26.0543,福州市,鼓山,,,,27,,21,,,57,,,13,,2,,0.4
2025-03-13T2200,1282A,119.2681,26.0504,福州市,师大,,28,21,39,8,29,87,,103,98,15,18,3,4,0.3,0.4
2025-03-13T2200,1283A,119.2984,26.1028,福州市,五四北路,,27,12,40,3,30,84,,98,96,16,30,3,4,0.4,0.5
2025-03-13T2200,1284A,119.2648,26.0768,福州市,杨桥西路,,26,20,40,6,28,83,,102,98,19,22,3,4,0.3,0.4
2025-03-13T2200,1285A,119.317,26.0746,福州市,紫阳,,27,6,40,3,21,84,,90,86,20,35,3,4,0.2,0.3
2025-03-13T2200,3048A,119.5799,26.0936,福州市,九龙,,29,13,20,3,14,90,,104,104,8,10,3,3,0.4,0.4
2025-03-13T2200,3526A,119.5189,25.9664,福州市,吴航,,,6,29,3,17,,,109,109,9,16,,4,0.3,0.4
2025-03-13T2200,1755A,123.7977,41.8491,抚顺市,望花区,细颗粒物(PM2.5),97,74,71,72,22,23,,94,81,57,24,4,3,1.1,0.7
2025-03-13T2200,1756A,123.9161,41.8822,抚顺市,顺城区,细颗粒物(PM2.5),98,111,65,73,22,16,,95,70,64,27,9,8,1.0,0.5
2025-03-13T2200,1757A,124.0436,41.8611,抚顺市,东洲区,细颗粒物(PM2.5),132,106,72,100,24,61,,92,78,24,16,8,7,0.8,0.6
2025-03-13T2200,1758A,123.9247,41.8642,抚顺市,新抚区,细颗粒物(PM2.5),77,83,68,56,19,21,,90,73,62,21,6,5,0.9,0.6
2025-03-13T2200,1759A,124.0972,41.8961,抚顺市,大伙房水库,细颗粒物(PM2.5),90,78,64,67,25,64,,102,83,22,14,7,8,0.7,0.5
2025-03-13T2200,1760A,123.7086,41.8391,抚顺市,沈抚新城,细颗粒物(PM2.5),80,65,70,59,22,22,,93,72,65,30,5,6,0.9,0.6
2025-03-13T2200,2376A,116.2127,28.0814,抚州市,桐源党溪,,32,32,35,17,22,40,,60,50,2,3,2,2,0.5,0.6
2025-03-13T2200,2377A,116.3544,27.9831,抚州市,市站,,29,29,28,15,17,33,,55,40,9,14,8,7,1.2,0.9
2025-03-13T2200,2378A,116.3565,27.963,抚州市,血防站,,26,25,32,18,19,43,,57,51,9,10,6,10,0.7,0.7
2025-03-13T2200,2379A,116.3564,28.0007,抚州市,采茶剧团,,25,24,27,17,19,37,,51,44,6,8,5,5,1.0,1
2025-03-13T2200,2380A,116.385,27.9647,抚州市,医学分院,,23,23,26,12,16,35,,50,44,2,2,5,4,0.9,1
2025-03-13T2200,2207A,121.6094,41.998,阜新市,工业园区,细颗粒物(PM2.5),209,200,86,159,39,22,,88,68,58,28,18,11,1.4,0.6
2025-03-13T2200,2208A,121.6697,42.0279,阜新市,长青街,细颗粒物(PM2.5),87,,34,64,22,27,,94,72,47,25,15,7,0.8,0.6
2025-03-13T2200,2209A,121.6673,42.0705,阜新市,农业园区,,49,49,34,24,11,67,,93,80,21,14,119,16,0.3,0.3
2025-03-13T2200,2210A,121.6717,42.0224,阜新市,东苑,细颗粒物(PM2.5),83,65,50,61,21,27,,90,72,53,25,21,15,1.0,0.7
2025-03-13T2200,2211A,121.6506,42.0498,阜新市,玉龙新城,细颗粒物(PM2.5),124,119,59,94,26,13,,88,59,61,31,12,6,1.0,0.5
2025-03-13T2200,2301A,115.8277,32.8929,阜阳市,市监测站,,49,38,132,34,102,64,,86,74,16,19,6,6,0.4,0.7
2025-03-13T2200,2303A,115.8554,32.8605,阜阳市,开发区,颗粒物(PM10),59,68,139,37,98,63,,87,72,20,24,6,6,0.5,0.7
2025-03-13T2200,2875A,115.784,32.8892,阜阳市,阜阳职业技术学院,颗粒物(PM10),52,53,133,32,97,59,,82,70,15,18,6,7,0.5,0.7
2025-03-13T2200,3468A,115.7901,32.8613,阜阳市,市规划展馆,颗粒物(PM10),52,54,127,29,95,67,,95,80,17,18,7,7,0.3,0.6
2025-03-13T2200,3469A,115.836,32.9183,阜阳市,枣园社区,颗粒物(PM10),52,54,146,25,98,69,,91,76,14,18,7,7,0.4,0.6
2025-03-13T2200,2669A,102.9099,34.9841,甘南藏族自治州,州政府,颗粒物(PM10),56,61,48,34,22,77,,86,85,10,11,6,7,0.4,0.4
2025-03-13T2200,3380A,102.8914,34.9617,甘南藏族自治州,甘肃民族师范学院,颗粒物(PM10),74,97,46,25,19,92,,96,95,3,6,8,8,0.4,0.4
2025-03-13T2200,2570A,101.9603,30.0475,甘孜藏族自治州,水桥子,,16,16,19,11,11,48,,65,63,10,15,3,3,0.3,0.5
2025-03-13T2200,3065A,101.9533,29.9972,甘孜藏族自治州,州环保局,,20,20,19,3,7,55,,77,74,11,13,4,4,0.5,0.4
2025-03-13T2200,3414A,115.8347,28.932,赣江新区,桑海产业园,细颗粒物(PM2.5),55,51,48,39,38,27,,77,43,23,17,8,9,0.6,0.5
2025-03-13T2200,2362A,114.9017,25.9149,赣州市,通天岩,,39,39,41,8,8,52,,98,86,12,8,8,10,1.0,0.9
2025-03-13T2200,2363A,114.9367,25.8664,赣州市,地委,,30,30,40,17,26,40,,69,57,10,9,3,3,1.2,1.2
2025-03-13T2200,2364A,114.9461,25.8481,赣州市,气象台,,30,30,45,16,25,38,,79,67,17,13,7,9,0.7,0.8
2025-03-13T2200,2365A,114.9322,25.8333,赣州市,市图书馆,,23,23,39,13,30,42,,73,62,13,13,4,4,1.2,1.2
2025-03-13T2200,2366A,114.8905,25.8471,赣州市,华坚鞋城,,,,44,,29,,,54,,,13,,6,,0.6
2025-03-13T2200,3109A,115.0093,25.8613,赣州市,赣县区卫计委,,23,18,35,16,27,39,,74,63,9,9,4,4,0.8,0.7
2025-03-13T2200,2683A,106.2319,36.1417,固原市,马园,颗粒物(PM10),64,77,133,38,36,61,,99,94,41,22,5,5,0.7,0.6
2025-03-13T2200,2684A,106.2792,36.0022,固原市,监测站,颗粒物(PM10),63,75,107,28,33,108,,115,115,12,12,6,6,0.4,0.4
2025-03-13T2200,2685A,106.2375,36.0211,固原市,新区,颗粒物(PM10),54,58,112,26,31,110,,116,116,7,10,6,6,0.4,0.4
2025-03-13T2200,3522A,106.2177,35.9959,固原市,原州区十五小,颗粒物(PM10),67,83,126,31,35,103,,111,110,14,14,8,7,0.4,0.3
2025-03-13T2200,2543A,106.6308,30.5278,广安市,小平旧居,,,,,,,,,,,,,,,,
2025-03-13T2200,2544A,106.6303,30.4576,广安市,市委,细颗粒物(PM2.5),65,66,46,47,34,44,,55,55,21,13,4,3,0.6,0.5
2025-03-13T2200,2545A,106.6271,30.4663,广安市,友谊中学,细颗粒物(PM2.5),72,70,46,52,34,38,,53,53,26,16,2,3,0.8,0.6
2025-03-13T2200,2547A,106.6388,30.4551,广安市,广电花园,细颗粒物(PM2.5),69,63,42,50,35,30,,50,49,33,17,3,3,0.8,0.6
2025-03-13T2200,2902A,106.6351,30.4865,广安市,北辰小学,细颗粒物(PM2.5),73,59,43,53,37,44,,53,53,20,14,4,4,0.8,0.7
2025-03-13T2200,2523A,105.8945,32.4535,广元市,黑石坡,,43,43,61,16,24,49,,64,61,10,13,8,8,0.5,0.5
2025-03-13T2200,2524A,105.821,32.4444,广元市,老城,,40,40,59,24,22,39,,74,68,28,16,1,2,0.6,0.6
2025-03-13T2200,2526A,105.8628,32.4287,广元市,监测站,,36,35,50,25,24,47,,76,70,22,18,5,5,0.6,0.9
2025-03-13T2200,3617A,105.8047,32.4166,广元市,经开区,,,49,58,32,29,63,,69,68,11,18,,2,0.6,0.6
2025-03-13T2200,1345A,113.2347,23.1423,广州市,广雅中学,颗粒物(PM10),52,54,34,22,14,13,,106,89,55,32,3,3,0.6,0.5
2025-03-13T2200,1346A,113.2612,23.105,广州市,市五中,,,93,48,49,23,,,73,,71,34,2,3,0.4,0.4
2025-03-13T2200,1348A,113.3478,23.0916,广州市,广东商学院,,47,47,33,23,18,2,,100,79,58,35,4,4,0.6,0.6
2025-03-13T2200,1349A,113.4332,23.1047,广州市,市八十六中,,42,42,35,13,12,5,,56,38,66,49,4,4,0.4,0.4
2025-03-13T2200,1350A,113.3505,22.9483,广州市,番禺中学,,44,44,33,17,15,14,,109,82,49,33,8,7,0.6,0.5
2025-03-13T2200,1351A,113.2146,23.3916,广州市,花都师范,,,,43,,21,,,118,,,34,,4,,0.5
2025-03-13T2200,1352A,113.2597,23.1331,广州市,市监测站,,45,45,33,19,14,14,,100,84,55,34,5,6,0.6,0.6
2025-03-13T2200,1353A,113.5618,23.312,广州市,九龙镇镇龙,,38,38,37,15,18,20,,107,86,49,38,6,6,0.5,0.5
2025-03-13T2200,1354A,113.2765,23.1544,广州市,麓湖,,44,44,31,19,14,23,,112,97,48,33,3,4,0.4,0.4
2025-03-13T2200,1355A,113.443,23.3035,广州市,帽峰山森林公园,,37,37,24,16,14,24,,108,92,47,29,5,5,0.7,0.7
2025-03-13T2200,2846A,113.3221,23.1322,广州市,体育西,颗粒物(PM10),53,55,37,24,17,4,,106,79,58,40,4,4,0.6,0.5
2025-03-13T2200,3298A,113.5717,23.5491,广州市,从化街口,颗粒物(PM10),51,51,32,27,17,54,,121,115,40,27,10,7,0.7,0.6
2025-03-13T2200,3299A,113.3472,23.3692,广州市,白云竹料,,50,50,39,21,17,26,,101,93,54,32,8,7,0.7,0.6
2025-03-13T2200,3300A,113.2981,23.237,广州市,白云嘉禾,,49,49,38,20,16,21,,108,93,54,41,3,4,0.5,0.5
2025-03-13T2200,3301A,113.4256,23.1716,广州市,黄埔科学城,,44,44,37,16,16,5,,99,77,56,38,8,6,0.2,0.3
2025-03-13T2200,3302A,113.3942,23.0483,广州市,番禺大学城,,38,38,36,17,14,5,,100,76,60,34,4,5,0.2,0.1
2025-03-13T2200,3303A,113.4922,22.8168,广州市,南沙黄阁,,23,,33,16,14,31,,72,55,29,26,5,5,0.6,0.6
2025-03-13T2200,3304A,113.5342,22.7896,广州市,南沙街,,37,37,31,19,13,39,,64,50,25,27,4,5,0.5,0.5
2025-03-13T2200,3443A,113.2902,23.5544,广州市,花都梯面,颗粒物(PM10),58,66,36,31,18,44,,105,102,53,30,6,4,0.9,0.6
2025-03-13T2200,3445A,113.7858,23.7478,广州市,从化良口,,34,34,29,17,16,80,,94,94,16,20,6,6,0.7,0.7
2025-03-13T2200,3446A,113.8051,23.2614,广州市,增城荔城,,49,49,43,22,19,31,,138,108,32,28,6,7,0.4,0.4
2025-03-13T2200,2505A,109.568,23.1478,贵港市,德智高中,,,,,,,,,,,,,,,,
2025-03-13T2200,2506A,109.6047,23.0666,贵港市,江南子站,,49,46,39,34,29,3,,42,26,43,30,6,6,0.8,0.7
2025-03-13T2200,2507A,109.6014,23.0948,贵港市,贵城子站,细颗粒物(PM2.5),62,54,54,44,34,5,,39,26,42,30,6,6,1.0,0.8
2025-03-13T2200,2508A,109.5669,23.1065,贵港市,荷城子站,,42,31,35,29,25,6,,35,21,43,32,8,8,0.9,0.6
2025-03-13T2200,3405A,109.5886,23.1172,贵港市,新世纪学校,细颗粒物(PM2.5),52,39,40,36,31,2,,34,21,46,37,5,5,0.7,0.6
2025-03-13T2200,1439A,106.6899,26.5998,贵阳市,马鞍山,,13,9,24,3,16,39,,56,50,14,11,3,4,0.4,0.4
2025-03-13T2200,1441A,106.6243,26.6266,贵阳市,鉴湖路,,19,19,32,7,17,38,,44,44,14,13,10,10,0.5,0.5
2025-03-13T2200,1442A,106.7487,26.6343,贵阳市,燕子冲,,25,,24,17,22,57,,64,59,11,11,4,6,0.5,0.5
2025-03-13T2200,1443A,106.6555,26.4365,贵阳市,碧云窝,,19,19,37,12,18,42,,47,45,17,19,8,8,0.6,0.6
2025-03-13T2200,1445A,106.7109,26.6027,贵阳市,红边门,,20,14,31,14,24,53,,58,55,17,17,4,4,0.3,0.4
2025-03-13T2200,1446A,106.7164,26.5699,贵阳市,新华路,,,14,29,9,20,,,62,61,14,13,10,10,0.5,0.5
2025-03-13T2200,1447A,106.674,26.5424,贵阳市,太慈桥,,17,17,29,9,19,48,,56,55,17,17,7,7,0.5,0.5
2025-03-13T2200,1552A,106.805,26.3003,贵阳市,桐木岭,,24,24,27,16,18,39,,40,40,12,11,12,14,0.3,0.5
2025-03-13T2200,4230A,106.6882,26.5695,贵阳市,花果园大街66号,,18,,22,12,23,51,,56,54,13,13,5,5,0.5,0.5
2025-03-13T2200,4231A,106.6873,26.5169,贵阳市,漓江路57号,,15,12,27,9,19,47,,60,55,20,16,9,9,0.6,0.5
2025-03-13T2200,1862A,110.4144,25.3167,桂林市,电子科大尧山校区,,,,,,,,,,,,,,,,
2025-03-13T2200,1864A,110.3089,25.2708,桂林市,龙隐路小学,,30,28,23,21,21,62,,67,62,11,10,7,7,0.8,0.8
2025-03-13T2200,1865A,110.2869,25.2178,桂林市,八中,,30,30,25,19,20,53,,58,51,19,19,7,7,0.7,0.7
2025-03-13T2200,3531A,110.296,25.1253,桂林市,旅游学院,,28,19,20,19,15,36,,53,45,18,16,6,6,0.8,0.8
2025-03-13T2200,4222A,110.1835,25.2444,桂林市,环湖路276号,,23,,16,14,18,71,,68,68,8,10,9,9,0.5,0.8
2025-03-13T2200,4301A,110.2803,25.2773,桂林市,信义路13号,,29,23,23,20,22,65,,66,62,14,13,8,8,0.7,0.7
2025-03-13T2200,2674A,100.2561,34.4714,果洛藏族自治州,玛沁县大武镇,,43,43,39,26,15,101,,115,111,2,2,12,13,0.3,0.4
2025-03-13T2200,1129A,126.5422,45.755,哈尔滨市,岭北,,26,26,19,17,10,78,,94,91,21,9,14,10,0.9,0.8
2025-03-13T2200,1130A,126.561,45.8167,哈尔滨市,松北商大,,32,32,23,17,13,58,,82,76,22,8,7,19,0.5,0.5
2025-03-13T2200,1131A,126.979,45.5419,哈尔滨市,阿城会宁,,32,26,24,22,14,63,,83,77,22,10,11,6,0.6,0.5
2025-03-13T2200,1132A,126.599,45.7222,哈尔滨市,南岗学府路,,30,30,23,14,9,68,,84,75,26,13,18,9,0.6,0.5
2025-03-13T2200,1133A,126.689,45.7733,哈尔滨市,太平宏伟公园,,34,34,24,20,13,69,,84,80,21,12,9,9,0.4,0.4
2025-03-13T2200,1134A,126.635,45.7667,哈尔滨市,道外承德广场,,42,42,37,19,17,74,,84,81,13,8,7,9,0.6,0.5
2025-03-13T2200,1135A,126.685,45.7319,哈尔滨市,香坊红旗大街,,35,29,22,24,16,75,,86,84,15,10,10,8,0.6,0.5
2025-03-13T2200,1136A,126.6411,45.7258,哈尔滨市,动力和平路,,32,32,20,19,12,73,,86,82,14,6,10,7,0.5,0.5
2025-03-13T2200,1137A,126.593,45.7478,哈尔滨市,道里建国路,,26,24,18,18,12,61,,79,74,22,8,4,4,0.5,0.4
2025-03-13T2200,1138A,126.615,45.61,哈尔滨市,平房东轻厂,,38,34,19,26,14,26,,83,67,51,10,8,5,0.8,0.5
2025-03-13T2200,1139A,126.595,45.9855,哈尔滨市,呼兰师专,颗粒物(PM10),81,111,37,26,12,61,,76,70,16,10,11,9,0.5,0.6
2025-03-13T2200,1140A,126.6206,45.6842,哈尔滨市,省农科院,,28,26,23,19,15,77,,85,83,12,6,10,9,0.5,0.5
2025-03-13T2200,2688A,93.5128,42.8172,哈密市,地区监测站,颗粒物(PM10),80,110,67,14,12,78,,78,78,6,9,3,6,0.2,0.3
2025-03-13T2200,2689A,93.4961,42.8328,哈密市,哈密师范学校,颗粒物(PM10),58,65,47,11,13,76,,78,78,12,12,4,5,0.4,0.5
2025-03-13T2200,2671A,100.9048,36.9639,海北藏族自治州,海晏县西海镇,颗粒物(PM10),63,76,82,34,32,77,,97,93,12,8,10,12,0.4,0.3
2025-03-13T2200,3867A,102.0738,36.5056,海东市,平安区公安北苑,颗粒物(PM10),67,83,150,28,56,87,,99,97,4,13,9,20,0.2,0.4
2025-03-13T2200,1409A,110.576,19.9507,海口市,东寨港,,18,13,22,12,11,32,,44,39,5,4,5,4,0.7,0.7
2025-03-13T2200,1410A,110.3232,20.0574,海口市,海南大学,,26,26,30,14,16,27,,54,45,11,10,2,2,0.4,0.4
2025-03-13T2200,1411A,110.283,20.0053,海口市,秀英海南医院,,25,25,21,13,11,28,,45,38,13,11,4,4,0.4,0.4
2025-03-13T2200,1412A,110.338,19.9969,海口市,海南师范大学,,,28,25,12,13,,,52,47,5,6,3,3,0.3,0.4
2025-03-13T2200,1413A,110.33,20.0356,海口市,龙华路环保局宿舍,,30,30,28,12,16,31,,52,46,8,9,3,4,0.3,0.4
2025-03-13T2200,3539A,110.5111,19.9736,海口市,桂林洋子站,,29,29,25,14,11,36,,48,43,6,6,3,3,0.2,0.1
2025-03-13T2200,2673A,100.6188,36.2866,海南藏族自治州,共和县恰卜恰镇,,29,24,62,14,29,92,,97,94,4,14,4,6,0.3,0.5
2025-03-13T2200,2676A,97.3731,37.3753,海西蒙古族藏族自治州,德令哈市,,45,45,38,26,17,102,,99,99,2,7,17,13,0.4,0.5
2025-03-13T2200,1048A,114.5302,36.6116,邯郸市,东污水处理厂,颗粒物(PM10),81,112,189,48,62,73,,103,92,25,39,2,4,0.5,0.5
2025-03-13T2200,1049A,114.4918,36.5713,邯郸市,矿院,颗粒物(PM10),96,142,213,51,61,64,,95,86,22,39,2,6,0.4,0.5
2025-03-13T2200,1050A,114.484,36.6133,邯郸市,丛台公园,颗粒物(PM10),75,100,169,45,57,78,,100,92,17,30,2,5,0.4,0.5
2025-03-13T2200,3458A,114.7895,36.5593,邯郸市,香泉濮院小区,颗粒物(PM10),81,112,197,36,58,80,,114,101,16,19,5,5,0.5,0.5
2025-03-13T2200,3579A,114.50634,36.77178,邯郸市,永年区实验高中,颗粒物(PM10),90,129,211,40,54,95,,115,107,13,31,4,8,0.5,0.6
2025-03-13T2200,3580A,114.20016,36.44293,邯郸市,峰峰矿区临水派出所,颗粒物(PM10),103,155,198,59,63,88,,118,106,4,8,7,11,0.6,0.9
2025-03-13T2200,2634A,106.9893,33.1842,汉中市,汉川机床厂子校,细颗粒物(PM2.5),52,46,43,36,28,84,,89,81,4,4,6,6,0.8,0.8
2025-03-13T2200,2635A,107.0154,33.0706,汉中市,市监测站,"颗粒物(PM10),细颗粒物(PM2.5)",55,60,55,39,32,76,,74,67,12,15,6,5,0.6,0.9
2025-03-13T2200,2636A,107.0089,33.1138,汉中市,鑫源开发区,"颗粒物(PM10),细颗粒物(PM2.5)",52,54,52,36,30,80,,80,75,15,16,5,4,0.7,0.7
2025-03-13T2200,2637A,107.007,33.0323,汉中市,南郑大河坎水厂,,42,40,55,29,32,59,,74,63,15,15,7,7,0.8,0.8
2025-03-13T2200,1223A,120.2072,30.2111,杭州市,滨江,细颗粒物(PM2.5),59,63,31,42,19,37,,77,60,51,31,7,5,0.4,0.5
2025-03-13T2200,1224A,120.0633,30.2747,杭州市,西溪,,43,43,31,11,14,4,,62,46,45,24,6,6,0.6,0.6
2025-03-13T2200,1226A,120.3417,30.3150,杭州市,下沙,,34,34,41,12,24,54,,64,50,40,40,4,4,0.2,0.3
2025-03-13T2200,1227A,120.1269,30.2456,杭州市,卧龙桥,,40,40,30,19,17,20,,66,47,31,31,5,5,0.3,0.3
2025-03-13T2200,1228A,120.1903,30.2692,杭州市,浙江农大,颗粒物(PM10),54,57,31,34,22,30,,65,52,63,42,8,7,0.3,0.3
2025-03-13T2200,1230A,120.1197,30.3119,杭州市,和睦小学,颗粒物(PM10),52,54,37,21,18,24,,63,52,51,30,6,6,0.6,0.6
2025-03-13T2200,1231A,120.3019,30.4183,杭州市,临平镇,,50,50,34,17,25,47,,66,53,40,29,5,5,0.3,0.4
2025-03-13T2200,1232A,120.2753,30.1839,杭州市,城厢镇,,48,48,27,22,19,32,,71,55,63,41,8,6,0.4,0.5
2025-03-13T2200,1233A,120.0883,30.1808,杭州市,云栖,,26,26,25,18,26,14,,77,48,33,24,7,8,0.5,0.5
2025-03-13T2200,3557A,119.9464,30.0494,杭州市,镇二中,,45,45,22,18,13,30,,71,60,42,32,5,5,0.3,0.3
2025-03-13T2200,3558A,119.7183,30.2367,杭州市,市府大楼,,41,41,26,22,16,39,,66,56,30,26,6,6,0.5,0.6
2025-03-13T2200,3656A,120.1556,30.2864,杭州市,消防大队,颗粒物(PM10),54,58,30,28,20,38,,71,59,54,32,6,6,0.6,0.6
2025-03-13T2200,1270A,117.1959,31.7848,合肥市,明珠广场,,41,41,87,24,69,50,,76,59,29,25,6,5,0.6,0.7
2025-03-13T2200,1271A,117.3072,31.8764,合肥市,三里街,,44,44,97,27,64,43,,71,50,30,24,3,3,0.8,0.8
2025-03-13T2200,1272A,117.2588,31.8707,合肥市,琥珀山庄,,39,39,88,26,60,50,,78,59,31,25,2,1,0.7,0.7
2025-03-13T2200,1273A,117.1604,31.9052,合肥市,董铺水库,颗粒物(PM10),51,51,89,22,52,56,,85,66,21,17,2,2,0.5,0.5
2025-03-13T2200,1274A,117.25,31.8571,合肥市,长江中路,,48,48,95,30,79,49,,81,61,31,24,6,6,0.6,0.7
2025-03-13T2200,1275A,117.266,31.9436,合肥市,庐阳区,,44,44,97,29,71,50,,79,57,32,27,5,5,0.5,0.6
2025-03-13T2200,1276A,117.3453,31.8616,合肥市,瑶海区,,41,41,99,22,69,46,,71,51,31,26,6,7,0.6,0.6
2025-03-13T2200,1277A,117.3027,31.7964,合肥市,包河区,,44,44,94,27,72,29,,63,34,48,45,2,5,0.7,0.8
2025-03-13T2200,1278A,117.2776,31.7385,合肥市,滨湖新区,,39,36,95,27,79,50,,73,58,26,23,7,7,0.5,0.6
2025-03-13T2200,1279A,117.1318,31.8403,合肥市,高新区,,46,46,92,29,76,46,,78,59,29,26,2,2,0.7,0.8
2025-03-13T2200,3464A,117.3803,31.9147,合肥市,高教基地,,41,41,94,20,65,53,,80,61,24,21,7,6,0.5,0.5
2025-03-13T2200,3614A,79.924,37.0877,和田地区,地区环保局,颗粒物(PM10),161,271,218,51,54,79,,85,85,2,4,1,2,0.4,0.3
2025-03-13T2200,3615A,79.9131,37.113,和田地区,市环保局,颗粒物(PM10),139,228,217,88,57,84,,94,94,18,19,1,2,0.9,0.9
2025-03-13T2200,2516A,108.2011,24.715,河池市,东仁乐园,,35,35,38,23,15,10,,17,13,13,13,7,7,1.0,1.1
2025-03-13T2200,2517A,108.0497,24.6947,河池市,市环保站,,15,13,25,10,12,18,,24,22,9,10,8,8,0.7,0.8
2025-03-13T2200,2518A,108.0983,24.6989,河池市,市疾控中心,,21,21,24,14,15,13,,22,14,9,10,6,6,0.8,0.9
2025-03-13T2200,1696A,114.6778,23.7569,河源市,源西,颗粒物(PM10),52,54,28,21,15,56,,81,68,36,17,4,4,0.7,0.7
2025-03-13T2200,1697A,114.6944,23.7586,河源市,东埔,,39,39,24,24,17,66,,86,83,29,14,3,4,0.6,0.5
2025-03-13T2200,1698A,114.6892,23.7233,河源市,老城,,44,44,25,25,19,76,,82,77,17,11,4,4,0.6,0.5
2025-03-13T2200,1718A,115.4208,35.2464,菏泽市,气象局,颗粒物(PM10),75,100,166,48,66,82,,114,108,21,27,4,6,0.4,0.5
2025-03-13T2200,3374A,115.5564,35.0891,菏泽市,定陶老年大学,颗粒物(PM10),71,92,164,44,70,80,,120,,23,29,4,5,0.5,0.6
2025-03-13T2200,4184A,115.4797,35.24401,菏泽市,永昌路1号,颗粒物(PM10),83,116,183,47,75,84,,119,111,25,32,7,8,0.4,0.6
2025-03-13T2200,4193A,115.4715,35.2800,菏泽市,长城路999号,颗粒物(PM10),83,116,177,39,67,78,,108,100,25,31,6,7,0.5,0.6
2025-03-13T2200,2514A,111.5264,24.4172,贺州市,环保小区,,26,26,45,11,30,32,,43,38,13,16,7,8,1.0,1
2025-03-13T2200,2515A,111.5608,24.4078,贺州市,政协大楼,,29,29,42,20,26,30,,36,35,15,20,6,8,1.0,0.9
2025-03-13T2200,3534A,111.4744,24.4553,贺州市,西湾,,25,,39,17,28,27,,35,34,17,18,5,6,0.8,0.8
2025-03-13T2200,2385A,114.17,35.9019,鹤壁市,市监测站,颗粒物(PM10),109,168,214,71,59,66,,107,93,26,23,2,3,0.8,0.7
2025-03-13T2200,2386A,114.2956,35.7511,鹤壁市,市交警支队,颗粒物(PM10),106,161,202,58,54,36,,106,90,59,39,5,5,0.5,0.3
2025-03-13T2200,2387A,114.2878,35.7306,鹤壁市,迎宾馆,颗粒物(PM10),108,165,229,55,46,44,,107,92,39,29,3,7,0.6,0.6
2025-03-13T2200,3474A,114.2617,35.6822,鹤壁市,大新区,颗粒物(PM10),87,124,213,59,66,46,,98,81,47,41,5,5,0.6,0.6
2025-03-13T2200,3596A,114.1572,35.9603,鹤壁市,南山宾馆,颗粒物(PM10),126,201,235,69,71,84,,112,99,19,15,4,6,0.4,0.3
2025-03-13T2200,2244A,130.2537,47.3416,鹤岗市,哈啤分公司,,23,23,27,15,20,66,,66,65,2,5,13,14,0.5,0.7
2025-03-13T2200,2245A,130.2684,47.3086,鹤岗市,斯达机电,,30,26,34,21,25,73,,76,74,2,6,12,13,0.3,0.3
2025-03-13T2200,2246A,130.3114,47.3388,鹤岗市,东山纸板厂,,36,30,30,25,23,71,,70,69,4,7,12,13,0.2,0.3
2025-03-13T2200,2247A,130.1097,47.3382,鹤岗市,五号水库,,,,,,,,,,,,,,,,
2025-03-13T2200,2263A,127.4833,50.2524,黑河市,交通局,,25,17,18,14,16,78,,80,79,6,5,6,6,0.5,0.5
2025-03-13T2200,2264A,127.5144,50.2341,黑河市,环保局,,25,18,25,17,16,79,,77,76,5,8,4,5,0.3,0.3
2025-03-13T2200,2265A,127.5291,50.2472,黑河市,大黑河岛,,,,,,,,,,,,,,,,
2025-03-13T2200,1074A,115.6838,37.7541,衡水市,电机北厂,颗粒物(PM10),82,114,183,54,62,101,,127,118,18,20,9,10,0.5,0.4
2025-03-13T2200,1075A,115.6303,37.7316,衡水市,市监测站,颗粒物(PM10),76,102,161,54,54,91,,128,115,22,24,10,11,0.4,0.4
2025-03-13T2200,3188A,115.6683,37.7217,衡水市,市城管局,颗粒物(PM10),81,112,172,54,60,92,,122,113,22,26,9,10,0.6,0.5
2025-03-13T2200,3459A,115.5989,37.5491,衡水市,地表水厂,颗粒物(PM10),78,106,177,48,59,63,,127,106,41,39,8,9,0.4,0.4
2025-03-13T2200,2456A,112.5003,26.9167,衡阳市,原169医院,,43,36,46,30,31,21,,45,35,35,22,8,9,0.6,0.6
2025-03-13T2200,2457A,112.6194,26.9258,衡阳市,衡阳化工总厂,细颗粒物(PM2.5),60,51,54,43,49,53,,59,56,7,13,4,5,0.7,0.8
2025-03-13T2200,2458A,112.6211,26.8956,衡阳市,珠晖区环保局,,49,40,46,34,37,47,,55,52,15,15,5,5,0.8,0.9
2025-03-13T2200,2459A,112.6197,26.8733,衡阳市,市委党校,,46,46,50,28,35,56,,63,62,13,15,6,6,0.9,0.9
2025-03-13T2200,2460A,112.6006,26.8919,衡阳市,市监测站,颗粒物(PM10),51,52,51,35,39,50,,59,56,15,17,6,7,0.9,0.9
2025-03-13T2200,2461A,112.5664,26.9056,衡阳市,真空机电公司,细颗粒物(PM2.5),52,38,49,36,39,45,,53,48,10,16,4,4,0.8,0.8
2025-03-13T2200,3399A,112.6703,26.882,衡阳市,师范学院,细颗粒物(PM2.5),85,,47,63,41,57,,68,65,13,15,6,7,0.8,0.9
2025-03-13T2200,2608A,103.3772,23.3993,红河哈尼族彝族自治州,污水处理厂,细颗粒物(PM2.5),55,46,44,39,35,101,,121,115,7,7,7,8,0.5,0.5
2025-03-13T2200,2609A,103.3861,23.35,红河哈尼族彝族自治州,监测站,颗粒物(PM10),67,83,59,47,34,100,,124,118,9,8,13,10,0.6,0.6
2025-03-13T2200,3038A,103.3758,23.368,红河哈尼族彝族自治州,州图书馆,细颗粒物(PM2.5),52,47,41,36,35,96,,115,111,8,7,6,6,0.5,0.5
2025-03-13T2200,1090A,111.6507,40.7517,呼和浩特市,呼市一监,,34,34,80,21,40,71,,84,82,16,33,8,12,0.6,0.8
2025-03-13T2200,1091A,111.6572,40.8033,呼和浩特市,小召,,46,46,82,14,29,62,,68,67,25,41,5,6,0.5,0.7
2025-03-13T2200,1094A,111.7516,40.8369,呼和浩特市,如意水处理厂,,33,33,79,9,25,62,,66,66,17,49,6,9,0.3,0.6
2025-03-13T2200,1095A,111.7276,40.8062,呼和浩特市,二十九中,,47,47,80,14,31,61,,71,70,20,39,4,7,0.4,0.6
2025-03-13T2200,1096A,111.5512,40.7866,呼和浩特市,工大金川校区,,50,50,83,21,34,60,,65,65,16,40,6,10,0.5,0.7
2025-03-13T2200,1097A,111.717,40.7612,呼和浩特市,化肥厂生活区,,49,49,88,14,31,68,,73,73,20,39,7,10,0.4,0.7
2025-03-13T2200,3698A,111.5968,40.8178,呼和浩特市,红旗小学,,36,36,80,13,30,67,,73,73,17,45,4,9,0.4,0.7
2025-03-13T2200,3699A,111.6518,40.8389,呼和浩特市,海东办,,39,39,75,15,30,54,,66,66,22,45,7,9,0.6,0.9
2025-03-13T2200,2192A,119.7594,49.2261,呼伦贝尔市,区环保局,,38,35,26,26,21,76,,94,90,24,12,6,6,0.3,0.3
2025-03-13T2200,3061A,119.7512,49.1577,呼伦贝尔市,国华电力东,,32,32,32,18,18,92,,101,96,10,10,5,4,0.3,0.3
2025-03-13T2200,1250A,120.0751,30.8669,湖州市,城西水厂,,42,42,30,15,15,38,,70,57,55,28,7,6,0.4,0.4
2025-03-13T2200,2873A,120.0830,30.8929,湖州市,仁皇山新区,,40,40,29,16,16,47,,67,60,41,24,4,3,0.5,0.5
2025-03-13T2200,2907A,120.1844,30.8596,湖州市,吴兴区站,,40,40,36,16,18,37,,62,50,44,24,9,5,0.5,0.4
2025-03-13T2200,3562A,120.4148,30.8538,湖州市,南浔区站,,37,37,37,17,21,44,,71,55,44,30,3,2,0.5,0.6
2025-03-13T2200,1607A,120.9049,40.7211,葫芦岛市,龙港区,颗粒物(PM10),65,80,73,44,35,43,,79,69,54,42,73,79,1.2,1.4
2025-03-13T2200,1608A,120.8392,40.7514,葫芦岛市,化工街,颗粒物(PM10),59,68,82,39,36,43,,85,71,54,42,35,27,0.5,0.8
2025-03-13T2200,1609A,120.8341,40.7073,葫芦岛市,新区,细颗粒物(PM2.5),54,56,55,38,27,48,,92,82,55,46,19,33,0.6,0.9
2025-03-13T2200,1610A,120.8695,40.7677,葫芦岛市,东城区,细颗粒物(PM2.5),58,51,59,41,29,39,,86,67,64,47,33,26,0.7,0.8
2025-03-13T2200,2482A,109.5981,27.5721,怀化市,林科所,,33,33,35,23,26,63,,70,63,7,6,3,4,0.5,0.6
2025-03-13T2200,2483A,109.9453,27.5444,怀化市,河西地税局,细颗粒物(PM2.5),52,49,47,36,35,48,,56,52,15,11,6,7,0.6,0.6
2025-03-13T2200,2484A,109.9781,27.5342,怀化市,市四医院,,,58,63,36,39,39,,54,41,15,12,,4,0.7,0.6
2025-03-13T2200,2485A,109.9972,27.5578,怀化市,监测楼,,36,31,45,25,32,39,,57,44,19,14,7,7,0.5,0.4
2025-03-13T2200,2486A,110.0394,27.583,怀化市,市委党校,,49,43,42,34,31,47,,54,45,11,10,1,1,0.6,0.6
2025-03-13T2200,1210A,119.036,33.5981,淮安市,钵池山,颗粒物(PM10),58,66,94,38,72,65,,88,80,25,19,8,7,0.5,0.7
2025-03-13T2200,1211A,119.007,33.575,淮安市,北京南路,颗粒物(PM10),59,68,91,32,67,67,,85,77,25,21,8,7,0.5,0.7
2025-03-13T2200,1212A,118.989,33.6067,淮安市,市监测站,颗粒物(PM10),54,58,91,34,64,71,,89,82,27,24,8,7,0.5,0.6
2025-03-13T2200,1213A,119.135,33.5039,淮安市,楚州区监测站,颗粒物(PM10),61,71,99,36,75,58,,85,73,34,25,8,7,0.6,0.7
2025-03-13T2200,3426A,118.8755,33.2894,淮安市,新华书店,颗粒物(PM10),56,61,100,32,76,57,,86,78,30,24,8,8,0.6,0.7
2025-03-13T2200,4206A,119.0288,33.6319,淮安市,承德北路606号,颗粒物(PM10),65,80,113,37,72,68,,93,82,30,28,6,6,0.5,0.6
2025-03-13T2200,2282A,116.8004,33.975,淮北市,监测站,颗粒物(PM10),57,63,144,24,60,74,,101,82,19,19,5,5,0.5,0.7
2025-03-13T2200,2283A,116.8091,33.9007,淮北市,烈山区政府,颗粒物(PM10),52,54,144,32,63,78,,114,90,25,21,5,4,0.6,0.7
2025-03-13T2200,3330A,116.8873,33.9836,淮北市,杜集区检察院,颗粒物(PM10),54,57,140,34,61,75,,107,88,21,19,5,5,0.5,0.7
2025-03-13T2200,4017A,116.7923,33.9535,淮北市,市博物馆,颗粒物(PM10),51,51,142,21,62,78,,107,86,16,16,6,6,0.6,0.8
2025-03-13T2200,2277A,116.8305,32.7727,淮南市,潘集区政府,,39,,143,27,109,73,,78,68,13,29,5,4,0.3,0.6
2025-03-13T2200,2279A,116.8569,32.5951,淮南市,谢家集区政府,,39,39,127,24,98,68,,84,68,8,18,6,6,0.3,0.5
2025-03-13T2200,2280A,116.8281,32.633,淮南市,八公山区政府,,27,27,129,17,89,70,,86,72,12,17,4,3,0.2,0.5
2025-03-13T2200,2281A,116.6325,32.6201,淮南市,焦岗湖风景区管理处,,42,42,111,23,72,61,,71,64,9,13,15,15,0.1,0.3
2025-03-13T2200,2894A,117.0566,32.6531,淮南市,经济技术开发区消防队,,32,32,115,15,85,69,,82,71,13,17,4,5,0.2,0.5
2025-03-13T2200,3329A,117.0108,32.5893,淮南市,山南新区,,43,43,113,17,83,73,,91,74,9,11,7,7,0.3,0.6
2025-03-13T2200,4209A,117.0031,32.6445,淮南市,国庆中路369号,,46,37,131,32,93,70,,91,77,18,23,6,7,0.3,0.5
2025-03-13T2200,2446A,114.9028,30.4742,黄冈市,职工中心,细颗粒物(PM2.5),74,63,61,54,52,44,,57,55,24,25,4,4,0.6,0.7
2025-03-13T2200,2929A,114.8858,30.4519,黄冈市,红卫路,细颗粒物(PM2.5),82,67,64,60,59,47,,68,60,23,19,4,6,0.7,0.7
2025-03-13T2200,3398A,114.9136,30.4445,黄冈市,市林业局,细颗粒物(PM2.5),79,70,66,58,54,46,,60,58,18,15,8,9,0.5,0.6
2025-03-13T2200,2672A,102.0199,35.5102,黄南藏族自治州,同仁县隆务镇,细颗粒物(PM2.5),80,,93,59,39,87,,93,93,6,5,15,14,0.6,0.4
2025-03-13T2200,2295A,118.2903,29.6963,黄山市,延安路89号,,19,10,19,3,15,59,,67,53,8,9,3,3,0.2,0.6
2025-03-13T2200,2297A,118.1371,30.2756,黄山市,黄山区政府5号楼,,20,20,30,3,17,43,,66,46,8,9,8,7,0.5,0.6
2025-03-13T2200,4210A,118.3354,29.7203,黄山市,滨江东路7-2号,,18,17,24,3,11,57,,67,51,8,10,4,4,0.5,0.6
2025-03-13T2200,2423A,115.0601,30.2313,黄石市,沈家营,颗粒物(PM10),63,76,64,35,35,40,,76,65,17,18,6,8,0.7,0.7
2025-03-13T2200,2426A,114.8988,30.2019,黄石市,铁山,细颗粒物(PM2.5),68,,49,49,46,48,,74,65,15,15,10,12,0.8,0.9
2025-03-13T2200,2427A,115.0307,30.2092,黄石市,团城山,细颗粒物(PM2.5),59,64,58,42,35,44,,77,64,21,21,6,7,0.7,0.7
2025-03-13T2200,3149A,115.0235,30.1578,黄石市,笔架山北路,细颗粒物(PM2.5),57,55,71,40,50,54,,85,64,8,14,6,6,0.8,1
2025-03-13T2200,4185A,115.0780,30.21118,黄石市,磁湖东路29号,细颗粒物(PM2.5),62,63,66,44,48,56,,88,77,12,16,6,6,0.9,0.8
2025-03-13T2200,1392A,114.4183,23.0528,惠州市,河南岸金山湖子站,,34,34,28,14,15,30,,93,75,29,18,8,8,0.6,0.5
2025-03-13T2200,1393A,114.4053,23.0822,惠州市,下埔横江三路子站,,39,39,29,20,14,33,,102,83,31,17,8,8,0.7,0.6
2025-03-13T2200,1394A,114.4103,23.1142,惠州市,江北云山西路子站,,39,39,26,16,13,36,,105,89,30,15,9,9,0.5,0.5
2025-03-13T2200,1395A,114.4645,22.7833,惠州市,惠阳区承修路船湖子站,,50,50,36,28,15,20,,80,53,50,18,10,8,0.8,0.6
2025-03-13T2200,1396A,114.5317,22.7422,惠州市,大亚湾管委会子站,,45,45,33,20,13,48,,82,65,31,19,8,7,0.5,0.5
2025-03-13T2200,3314A,114.4338,22.8134,惠州市,惠阳秋长,,29,29,30,12,11,26,,91,67,43,17,13,10,0.7,0.6
2025-03-13T2200,3452A,114.6517,22.775,惠州市,大亚湾霞涌,,23,23,26,14,18,54,,84,77,28,21,5,5,0.4,0.5
2025-03-13T2200,2240A,130.9762,45.3001,鸡西市,环保局,,27,20,23,15,13,86,,82,,5,5,4,4,0.3,0.3
2025-03-13T2200,2243A,130.9429,45.3039,鸡西市,第一中学,,28,18,17,17,13,88,,88,88,3,4,5,5,0.3,0.2
2025-03-13T2200,3707A,131.0207,45.3073,鸡西市,欧美日汽修厂,,30,27,23,18,15,93,,92,92,4,7,3,2,0.1,0.1
2025-03-13T2200,3709A,130.9967,45.3106,鸡西市,市政设施管理处,,29,29,27,19,13,78,,80,78,8,7,3,3,0.2,0.3
2025-03-13T2200,2367A,114.9754,27.0803,吉安市,红声器材厂,,23,23,30,10,17,47,,48,48,19,21,7,13,1.0,1
2025-03-13T2200,2368A,114.9658,27.0999,吉安市,市森林工业局,,19,15,23,13,17,48,,49,49,22,26,9,11,0.7,0.7
2025-03-13T2200,2369A,114.99,27.1312,吉安市,市环境监测站,,20,15,24,14,15,49,,46,46,19,22,17,18,0.8,0.7
2025-03-13T2200,2370A,115.0093,27.0968,吉安市,青原区法院,,20,17,29,14,20,57,,49,49,22,26,11,13,0.8,0.9
2025-03-13T2200,1772A,126.54,43.8622,吉林市,哈达湾,,43,43,75,18,17,76,,95,88,16,12,6,6,0.7,0.7
2025-03-13T2200,1773A,126.5844,43.8358,吉林市,东局子,,38,38,25,19,19,68,,92,85,20,12,6,5,0.5,0.4
2025-03-13T2200,1774A,126.5052,43.8245,吉林市,电力学院,,29,29,55,19,20,81,,95,91,8,7,2,2,0.2,0.2
2025-03-13T2200,1775A,126.6133,43.8972,吉林市,江北,颗粒物(PM10),59,67,61,34,21,44,,92,80,52,16,8,7,0.6,0.5
2025-03-13T2200,1776A,126.555,43.8306,吉林市,江南公园,,32,32,55,15,20,75,,92,86,13,10,5,5,0.4,0.4
2025-03-13T2200,1778A,126.7061,43.7133,吉林市,丰满,,31,31,59,17,18,89,,107,103,8,9,6,6,0.7,0.7
2025-03-13T2200,2868A,126.4739,43.953,吉林市,九站,,34,34,60,20,18,60,,90,78,17,9,7,7,0.5,0.5
2025-03-13T2200,1299A,116.9862,36.6114,济南市,科干所,,31,31,109,10,29,79,,113,102,13,14,7,8,0.4,0.5
2025-03-13T2200,1300A,116.9376,36.665,济南市,农科所,,44,44,120,7,27,75,,110,95,19,27,8,8,0.7,0.8
2025-03-13T2200,1301A,117.1265,36.6734,济南市,开发区,,29,29,108,10,32,87,,114,103,20,22,6,7,0.4,0.5
2025-03-13T2200,1303A,117.0624,36.6868,济南市,省种子仓库,,41,41,140,9,36,80,,115,98,21,44,4,5,0.5,0.8
2025-03-13T2200,1304A,116.9489,36.6447,济南市,机床二厂,,34,34,130,12,31,91,,116,106,21,29,9,10,0.7,0.8
2025-03-13T2200,1305A,117.0495,36.663,济南市,市监测站,,34,34,118,15,31,80,,110,99,17,24,9,8,0.4,0.4
2025-03-13T2200,1306A,116.7675,36.5484,济南市,长清党校,颗粒物(PM10),56,61,145,15,42,87,,119,110,24,30,5,6,0.5,0.7
2025-03-13T2200,1616A,117.6795,36.229,济南市,技术学院,,31,31,89,12,25,59,,102,92,43,36,14,11,0.9,0.8
2025-03-13T2200,1961A,117.532,36.6868,济南市,东山小学,,34,34,110,7,25,91,,110,100,14,27,7,10,0.7,0.9
2025-03-13T2200,3059A,117.7161,36.2049,济南市,泰兴公司,,31,31,100,9,31,54,,101,85,37,44,7,10,1.2,0.8
2025-03-13T2200,3064A,117.6867,36.2171,济南市,莱芜战役纪念馆,,34,34,94,9,23,58,,98,89,39,36,9,7,0.8,0.8
2025-03-13T2200,3494A,117.1673,36.9782,济南市,济阳区政府,颗粒物(PM10),70,90,150,20,36,59,,100,83,35,28,13,12,0.5,0.4
2025-03-13T2200,3495A,117.1171,36.63,济南市,锦屏中学,,29,29,105,10,25,83,,112,102,15,16,8,9,0.4,0.4
2025-03-13T2200,3682A,116.9814,36.6819,济南市,济南四建,,41,41,120,15,34,81,,113,101,17,26,5,6,0.2,0.4
2025-03-13T2200,1653A,116.6251,35.4302,济宁市,火炬城,,50,50,127,34,63,76,,117,104,20,22,9,12,0.6,0.8
2025-03-13T2200,1655A,116.5491,35.4042,济宁市,电化厂,颗粒物(PM10),52,54,154,34,62,86,,122,112,13,16,9,11,0.7,0.9
2025-03-13T2200,3500A,116.5814,35.3707,济宁市,北湖一中,,48,48,124,14,49,82,,117,108,20,23,9,11,0.4,0.8
2025-03-13T2200,3501A,116.8249,35.5593,济宁市,服务中心,颗粒物(PM10),57,63,158,27,51,75,,118,105,28,34,6,6,0.6,0.8
2025-03-13T2200,3678A,116.5907,35.4054,济宁市,市第七中学,颗粒物(PM10),54,58,134,29,52,85,,128,115,26,27,4,6,0.6,0.8
2025-03-13T2200,2255A,130.2751,46.8028,佳木斯市,佳纺,,24,17,23,11,14,76,,75,75,5,6,5,5,0.3,0.4
2025-03-13T2200,2256A,130.3995,46.8307,佳木斯市,发电厂,,26,14,19,11,14,82,,82,82,4,6,1,2,0.3,0.3
2025-03-13T2200,2257A,130.3258,46.7975,佳木斯市,环保局,,,18,21,7,13,82,,79,79,,8,2,2,0.2,0.2
2025-03-13T2200,2258A,130.3648,46.8032,佳木斯市,十一中,,25,21,22,11,14,79,,79,78,11,10,6,4,0.4,0.5
2025-03-13T2200,2259A,130.3794,46.7588,佳木斯市,四丰,,24,14,16,7,10,76,,74,74,2,5,1,1,0.6,0.6
2025-03-13T2200,1252A,120.7436,30.778,嘉兴市,清河小学,,38,38,16,14,14,44,,58,47,38,25,4,3,0.5,0.6
2025-03-13T2200,1253A,120.726,30.7478,嘉兴市,嘉兴学院,,39,39,25,15,16,52,,68,57,41,27,7,6,0.5,0.5
2025-03-13T2200,2872A,120.7846,30.7525,嘉兴市,南湖区残联,,42,42,32,13,14,56,,76,65,38,23,8,7,0.4,0.4
2025-03-13T2200,3407A,120.6916,30.7739,嘉兴市,秀洲住建,,36,36,31,18,18,52,,73,54,35,25,5,4,0.5,0.6
2025-03-13T2200,1945A,98.2908,39.7711,嘉峪关市,气象局,颗粒物(PM10),59,68,67,29,19,82,,99,96,12,15,4,24,0.4,0.7
2025-03-13T2200,2884A,98.2672,39.7978,嘉峪关市,酒钢宾馆,颗粒物(PM10),53,56,65,12,18,81,,87,87,12,14,8,31,0.2,0.5
2025-03-13T2200,3248A,98.2643,39.7724,嘉峪关市,雄关区,,45,45,53,29,22,88,,98,97,12,18,5,11,0.3,0.5
2025-03-13T2200,1383A,113.1064,22.6058,江门市,北街,,25,25,30,13,18,30,,86,67,18,17,4,3,0.6,0.5
2025-03-13T2200,1384A,113.0731,22.5835,江门市,西区,,26,26,32,14,15,27,,84,55,24,22,7,6,0.4,0.4
2025-03-13T2200,1385A,113.0219,22.5311,江门市,圭峰西,,,,36,14,16,34,,74,56,21,21,4,5,0.4,0.4
2025-03-13T2200,1386A,113.0828,22.5947,江门市,东湖,,20,20,31,13,18,27,,90,69,17,15,8,7,0.4,0.4
2025-03-13T2200,3311A,113.1075,22.5647,江门市,江海富民,,30,30,45,18,20,31,,88,70,19,15,8,6,0.6,0.4
2025-03-13T2200,3449A,113.05,22.4667,江门市,新会银湖,,48,,32,33,17,39,,74,59,24,22,3,2,0.6,0.4
2025-03-13T2200,1830A,113.1992,35.2590,焦作市,影视城,,,,,,,,,,,,,,,,
2025-03-13T2200,3169A,113.2725,35.2067,焦作市,太极体育中心,颗粒物(PM10),120,189,226,82,94,87,,113,104,26,34,9,10,0.6,0.8
2025-03-13T2200,3335A,113.3137,35.2641,焦作市,马村街道办,细颗粒物(PM2.5),124,182,206,94,87,82,,116,103,31,25,7,8,1.1,0.7
2025-03-13T2200,3336A,113.2465,35.2373,焦作市,焦作技师学院,颗粒物(PM10),121,192,218,70,77,102,,126,118,32,29,5,7,0.9,0.9
2025-03-13T2200,3477A,113.1656,35.2539,焦作市,中站许衡医院,细颗粒物(PM2.5),119,177,213,90,79,113,,133,125,21,24,7,9,0.7,0.7
2025-03-13T2200,3981A,113.2449,35.1803,焦作市,原李万街道办,颗粒物(PM10),132,213,235,75,88,92,,120,114,25,34,12,10,0.6,0.5
2025-03-13T2200,4264A,113.2340,35.2190,焦作市,新安路1731号,颗粒物(PM10),129,208,225,84,91,99,,126,117,24,25,7,9,0.8,0.8
2025-03-13T2200,1708A,116.3701,23.5345,揭阳市,新兴,,49,,60,34,43,35,,80,67,27,28,5,6,0.7,1
2025-03-13T2200,1709A,116.3264,23.5443,揭阳市,西马,,26,24,56,18,26,36,,76,69,19,22,8,8,0.7,0.9
2025-03-13T2200,1710A,116.3611,23.5626,揭阳市,东兴,细颗粒物(PM2.5),52,,66,36,40,42,,85,77,20,22,6,5,0.8,1
2025-03-13T2200,1711A,116.4151,23.5294,揭阳市,渔湖,,25,25,59,14,25,38,,93,80,19,24,4,6,0.7,1
2025-03-13T2200,3320A,116.403,23.5699,揭阳市,曲溪,,30,26,49,21,28,46,,94,84,22,25,3,6,0.5,0.8
2025-03-13T2200,1944A,102.1692,38.5167,金昌市,天庆家园,,27,17,55,10,23,86,,96,87,4,6,7,15,0.5,0.8
2025-03-13T2200,4022A,102.1647,38.5371,金昌市,金川区人防中心,,27,27,71,8,20,84,,88,84,3,6,8,12,0.4,0.6
2025-03-13T2200,4239A,102.1930,38.5319,金昌市,长春路96号,,27,24,39,14,23,85,,85,84,4,8,9,17,0.5,0.6
2025-03-13T2200,1262A,119.647,29.077,金华市,十五中,细颗粒物(PM2.5),53,52,16,37,12,50,,58,56,35,31,5,5,0.5,0.5
2025-03-13T2200,1263A,119.686,29.1029,金华市,监测站,细颗粒物(PM2.5),64,50,17,46,16,43,,55,52,41,35,4,4,0.6,0.5
2025-03-13T2200,3659A,119.656,29.1131,金华市,气象局,"颗粒物(PM10),细颗粒物(PM2.5)",54,58,17,38,7,44,,55,52,37,28,4,4,0.6,0.6
2025-03-13T2200,1767A,121.1115,41.0879,锦州市,南山,细颗粒物(PM2.5),57,,48,40,28,60,,89,83,34,28,11,27,0.6,0.6
2025-03-13T2200,1768A,121.0604,40.8428,锦州市,开发区,细颗粒物(PM2.5),60,50,62,43,33,62,,92,83,34,38,30,28,0.6,0.8
2025-03-13T2200,1769A,121.1836,41.1119,锦州市,百股街道,,49,41,56,34,30,62,,85,78,24,30,10,20,0.6,0.7
2025-03-13T2200,1770A,121.1178,41.1222,锦州市,天安街道,细颗粒物(PM2.5),62,,48,44,23,59,,91,80,34,34,11,20,0.7,0.6
2025-03-13T2200,1771A,121.1303,41.1386,锦州市,北湖公园,细颗粒物(PM2.5),55,43,49,39,26,58,,86,75,28,24,10,18,0.6,0.5
2025-03-13T2200,2160A,112.85,35.5051,晋城市,自来水公司,颗粒物(PM10),111,171,183,73,62,116,,129,127,22,30,6,8,0.7,0.7
2025-03-13T2200,2161A,112.8318,35.4936,晋城市,白云商贸,颗粒物(PM10),121,192,201,83,70,123,,142,138,24,28,6,7,0.8,0.8
2025-03-13T2200,2162A,112.8508,35.4887,晋城市,市环保局,颗粒物(PM10),121,192,198,73,60,115,,131,127,24,34,6,7,0.8,0.7
2025-03-13T2200,2163A,112.8676,35.4897,晋城市,技术学院,颗粒物(PM10),131,212,191,66,54,84,,111,105,40,37,6,8,0.7,0.7
2025-03-13T2200,2165A,112.8453,35.546,晋城市,白马寺,细颗粒物(PM2.5),122,169,166,92,64,129,,138,138,12,12,5,6,0.7,0.6
2025-03-13T2200,3620A,112.8271,35.4828,晋城市,泽州一中,"颗粒物(PM10),细颗粒物(PM2.5)",132,213,205,100,68,120,,137,135,18,26,8,10,0.6,0.7
2025-03-13T2200,2173A,112.7249,37.7067,晋中市,南都小区,颗粒物(PM10),97,143,142,57,44,96,,114,112,21,25,9,11,0.4,0.4
2025-03-13T2200,2174A,112.6991,37.6982,晋中市,榆次区政府,颗粒物(PM10),91,132,146,52,37,87,,114,108,26,32,7,11,1.3,0.6
2025-03-13T2200,2865A,112.7195,37.6828,晋中市,榆次三中,颗粒物(PM10),91,132,147,48,38,94,,114,111,22,29,6,9,0.4,0.5
2025-03-13T2200,4200A,112.7478,37.6954,晋中市,迎宾街26号,颗粒物(PM10),101,151,150,51,44,91,,122,114,30,24,8,8,0.4,0.3
2025-03-13T2200,2439A,112.2014,31.0481,荆门市,竹园小学,细颗粒物(PM2.5),133,140,148,101,75,40,,72,59,29,20,4,6,0.5,0.3
2025-03-13T2200,2440A,112.1969,30.9891,荆门市,掇刀,细颗粒物(PM2.5),130,121,143,99,75,67,,87,74,36,21,5,7,0.6,0.5
2025-03-13T2200,2441A,112.2213,31.0386,荆门市,石化一小,细颗粒物(PM2.5),137,129,146,104,72,41,,67,62,44,26,10,11,0.5,0.3
2025-03-13T2200,3012A,112.1849,31.0362,荆门市,西山林语,细颗粒物(PM2.5),104,98,127,78,64,59,,87,62,21,19,4,6,0.3,0.3
2025-03-13T2200,3547A,112.1632,31.0138,荆门市,龙泉中学南校,细颗粒物(PM2.5),83,97,132,61,70,56,,88,68,18,16,8,8,0.7,0.6
2025-03-13T2200,1844A,112.2494,30.3197,荆州市,市图书馆,细颗粒物(PM2.5),69,71,99,50,67,52,,61,60,28,27,4,5,0.6,0.8
2025-03-13T2200,1845A,112.2008,30.3544,荆州市,市委党校,细颗粒物(PM2.5),77,84,114,56,69,49,,59,57,36,35,6,7,0.6,0.6
2025-03-13T2200,3194A,112.2747,30.3122,荆州市,管委会,细颗粒物(PM2.5),77,83,108,56,65,39,,59,51,34,29,8,10,0.5,0.5
2025-03-13T2200,4268A,112.1722,30.3366,荆州市,学苑路85号,细颗粒物(PM2.5),95,80,106,71,72,45,,62,55,24,23,8,9,0.8,0.8
2025-03-13T2200,2342A,117.3102,29.3867,景德镇市,王港中学,,,,,,,,,,,,,,,,
2025-03-13T2200,2343A,117.2117,29.2933,景德镇市,老干部活动中心,,15,15,11,3,11,41,,46,42,10,12,4,4,0.4,0.6
2025-03-13T2200,2344A,117.1894,29.2789,景德镇市,兽医站,,18,18,17,11,7,55,,56,56,13,15,5,5,0.7,0.8
2025-03-13T2200,2345A,117.1547,29.2617,景德镇市,台达陶瓷,,20,14,17,14,10,41,,40,40,19,24,23,28,0.5,0.7
2025-03-13T2200,2346A,117.2461,29.2956,景德镇市,陶研所,,12,,9,7,10,37,,42,38,11,13,4,5,0.6,0.8
2025-03-13T2200,1803A,115.9872,29.6815,九江市,十里,,43,35,50,30,34,48,,94,53,20,16,1,2,0.7,0.7
2025-03-13T2200,1804A,115.9584,29.7046,九江市,茅山头,,48,35,53,33,33,48,,93,52,21,19,4,5,0.5,0.5
2025-03-13T2200,1805A,115.9877,29.7295,九江市,西园,,40,39,44,28,38,48,,93,52,27,25,7,7,0.9,0.8
2025-03-13T2200,1808A,115.9114,29.6038,九江市,综合工业园,,30,24,42,21,40,51,,97,53,33,26,6,6,0.8,0.8
2025-03-13T2200,1809A,116.0721,29.7535,九江市,石化总厂,颗粒物(PM10),51,52,55,25,48,43,,91,48,28,23,6,6,0.8,0.8
2025-03-13T2200,1810A,115.9773,29.5698,九江市,庐山气象台,,23,12,16,3,15,71,,74,67,5,7,6,6,1.1,1.1
2025-03-13T2200,3190A,116.0254,29.6994,九江市,外国语学校,,40,40,46,28,38,45,,83,46,26,23,6,6,0.5,0.5
2025-03-13T2200,4253A,116.0102,29.6594,九江市,莲花大道8号,细颗粒物(PM2.5),67,,51,48,60,48,,86,49,15,12,7,6,0.7,0.7
2025-03-13T2200,4240A,98.4958,39.7339,酒泉市,玉门东路5号,颗粒物(PM10),51,51,65,24,25,85,,98,96,10,5,14,8,0.3,0.3
2025-03-13T2200,4241A,98.5099,39.7506,酒泉市,北大街108号,,,,60,,21,,,84,81,19,9,10,10,0.5,0.2
2025-03-13T2200,2698A,76.0072,39.4467,喀什地区,巡警大队,颗粒物(PM10),124,198,230,61,53,71,,94,92,31,33,5,4,0.6,0.8
2025-03-13T2200,2699A,75.9755,39.4694,喀什地区,吾办,颗粒物(PM10),130,210,249,59,77,67,,96,93,31,36,2,3,0.5,0.8
2025-03-13T2200,4027A,75.9483,39.4689,喀什地区,老干局,颗粒物(PM10),128,206,268,44,62,79,,102,100,26,37,3,4,0.4,0.9
2025-03-13T2200,1824A,114.3389,34.7781,开封市,肿瘤医院,颗粒物(PM10),90,130,214,59,76,78,,116,103,20,36,6,7,0.8,0.9
2025-03-13T2200,1826A,114.2885,34.7965,开封市,世纪星幼儿园,颗粒物(PM10),86,121,201,63,81,90,,128,117,24,39,7,8,0.8,0.9
2025-03-13T2200,3147A,114.3438,34.8106,开封市,龙亭公园,细颗粒物(PM2.5),92,117,208,68,77,83,,118,109,24,42,3,4,0.6,0.6
2025-03-13T2200,3210A,114.3644,34.7964,开封市,汴京公园,颗粒物(PM10),96,142,228,65,82,75,,120,109,29,39,5,5,0.8,0.8
2025-03-13T2200,3473A,114.2485,34.8306,开封市,技师学院,细颗粒物(PM2.5),93,123,208,69,78,86,,115,110,22,35,7,8,0.9,1
2025-03-13T2200,3592A,114.4644,34.7556,开封市,祥符区生态环境局,细颗粒物(PM2.5),93,134,227,69,79,62,,107,94,36,43,4,5,0.6,0.6
2025-03-13T2200,1951A,84.895,45.6094,克拉玛依市,长征新村,,24,19,14,14,8,76,,93,91,15,3,6,5,0.2,0.2
2025-03-13T2200,1952A,84.8988,45.5893,克拉玛依市,南林小区,,25,17,15,15,9,80,,92,91,7,3,4,4,0.5,0.4
2025-03-13T2200,1954A,84.905,44.3396,克拉玛依市,独山子区,,45,45,59,22,19,72,,76,74,11,8,5,5,0.2,0.2
2025-03-13T2200,1955A,85.6979,46.098,克拉玛依市,乌尔禾区商贸楼,,40,40,21,19,9,75,,93,91,14,5,5,4,0.5,0.3
2025-03-13T2200,3612A,85.1045,45.6899,克拉玛依市,白碱滩区新站,,28,28,17,6,8,76,,91,88,9,3,6,6,0.4,0.5
2025-03-13T2200,2697A,76.1454,39.7142,克孜勒苏柯尔克孜自治州,市人民政府,颗粒物(PM10),147,243,178,,42,76,,108,104,26,7,6,4,0.4,0.2
2025-03-13T2200,3665A,76.1658,39.7157,克孜勒苏柯尔克孜自治州,克州文化中心,颗粒物(PM10),141,232,178,52,45,70,,106,102,39,9,5,4,0.9,0.5
2025-03-13T2200,1450A,102.8204,24.8886,昆明市,呈贡新区,细颗粒物(PM2.5),79,72,64,58,51,135,,139,137,13,33,8,9,0.6,0.7
2025-03-13T2200,1451A,102.6251,24.9608,昆明市,西山森林公园,,,,,,,,,,,,,,,,
2025-03-13T2200,1452A,102.7252,25.0902,昆明市,龙泉镇,细颗粒物(PM2.5),78,90,67,57,48,109,,141,137,27,44,8,7,0.7,0.7
2025-03-13T2200,1453A,102.7266,25.0375,昆明市,东风东路,细颗粒物(PM2.5),73,76,73,53,54,127,,138,137,17,34,9,8,0.6,0.7
2025-03-13T2200,1454A,102.6742,25.0669,昆明市,金鼎山,细颗粒物(PM2.5),82,85,81,60,52,109,,133,131,32,42,8,4,0.8,0.9
2025-03-13T2200,1455A,102.6644,25.0401,昆明市,碧鸡广场,细颗粒物(PM2.5),84,84,72,62,50,111,,139,133,32,40,8,8,0.4,0.5
2025-03-13T2200,3179A,102.7494,25.0119,昆明市,官渡区博物馆,细颗粒物(PM2.5),70,68,72,51,49,125,,144,142,17,28,10,9,0.5,0.6
2025-03-13T2200,3375A,102.8017,24.8336,昆明市,青年创业园,细颗粒物(PM2.5),72,78,64,52,45,139,,147,144,8,19,8,12,0.6,0.6
2025-03-13T2200,3550A,102.7997,24.9786,昆明市,昆明学院,细颗粒物(PM2.5),79,79,68,58,47,127,,145,142,16,19,6,7,0.6,0.6
2025-03-13T2200,3551A,102.5967,24.6736,昆明市,晋宁区生态环境分局,,,63,54,56,46,,,136,135,10,24,9,7,0.5,0.5
2025-03-13T2200,3552A,102.6678,24.9856,昆明市,云天化总部,细颗粒物(PM2.5),70,72,65,51,45,137,,150,149,12,36,8,8,0.4,0.5
2025-03-13T2200,1456A,91.1319,29.6514,拉萨市,八廓街,,34,16,14,6,8,107,,119,116,15,11,6,6,0.6,0.5
2025-03-13T2200,1457A,91.1221,29.6747,拉萨市,市环保局,,31,14,18,12,8,99,,111,108,17,16,8,6,0.5,0.4
2025-03-13T2200,1458A,91.0874,29.6475,拉萨市,区监测站,,32,15,12,9,7,101,,110,108,16,15,5,6,0.2,0.7
2025-03-13T2200,1459A,91.1774,29.6541,拉萨市,西藏大学,,33,14,12,3,6,105,,114,113,11,11,5,4,0.6,0.6
2025-03-13T2200,1460A,90.9798,29.6588,拉萨市,区辐射站,,34,19,20,13,9,107,,114,113,12,20,7,7,0.4,0.5
2025-03-13T2200,1461A,91.0834,29.6292,拉萨市,拉萨火车站,,37,11,11,7,6,117,,118,118,3,11,4,4,0.4,0.5
2025-03-13T2200,2520A,109.2203,23.7256,来宾市,来宾技工学校,,46,37,41,32,29,6,,22,10,27,23,7,9,1.3,1
2025-03-13T2200,3535A,109.1781,23.7297,来宾市,兴宾区政府,,32,30,37,22,26,7,,24,10,20,17,5,10,1.2,0.9
2025-03-13T2200,4002A,109.2416,23.7461,来宾市,中南小学,,45,38,43,31,32,9,,25,13,22,21,8,8,1.2,1
2025-03-13T2200,1477A,104.1373,35.9454,兰州市,榆中兰大校区,,,,,,,,,,,,,,,,
2025-03-13T2200,1479A,103.831,36.0464,兰州市,铁路设计院,颗粒物(PM10),80,110,157,47,57,93,,91,91,20,55,8,14,0.5,0.9
2025-03-13T2200,3241A,103.7439,36.0842,兰州市,百合公园,颗粒物(PM10),87,123,163,45,52,95,,95,95,3,36,5,13,0.6,1
2025-03-13T2200,3242A,103.9611,35.998,兰州市,和平,颗粒物(PM10),118,186,179,47,58,93,,95,93,9,28,10,12,0.4,0.7
2025-03-13T2200,4236A,103.6293,36.0938,兰州市,庄浪东路808号,颗粒物(PM10),88,126,161,43,59,97,,99,99,8,40,7,18,0.3,0.7
2025-03-13T2200,4237A,103.7251,36.1043,兰州市,安宁西路88号,颗粒物(PM10),93,135,180,50,59,103,,106,105,4,37,5,16,0.3,0.7
2025-03-13T2200,4238A,103.8470,36.0676,兰州市,北滨河东路1号,颗粒物(PM10),96,142,164,52,51,94,,97,96,14,46,9,16,0.3,0.7
2025-03-13T2200,3245A,103.6633,36.533,兰州新区,新区管委会,颗粒物(PM10),59,67,115,36,44,88,,102,100,12,11,10,11,0.2,0.2
2025-03-13T2200,3246A,103.6975,36.4789,兰州新区,舟曲中学,颗粒物(PM10),97,144,203,28,48,90,,99,97,8,20,2,18,0.4,0.5
2025-03-13T2200,1067A,116.6708,39.5111,廊坊市,药材公司,颗粒物(PM10),91,132,165,46,68,57,,76,71,33,50,6,7,0.7,0.7
2025-03-13T2200,1068A,116.7214,39.5589,廊坊市,开发区,颗粒物(PM10),93,135,168,49,64,66,,74,70,27,48,7,7,0.7,0.6
2025-03-13T2200,1070A,116.7244,39.5269,廊坊市,北华航天学院,颗粒物(PM10),88,125,156,36,58,59,,72,69,24,45,8,8,0.7,0.6
2025-03-13T2200,2919A,116.7022,39.5453,廊坊市,河北工业大学,颗粒物(PM10),82,114,154,47,64,62,,75,72,28,44,9,10,0.7,0.6
2025-03-13T2200,2535A,103.7723,29.5462,乐山市,花湖湾,颗粒物(PM10),92,133,111,53,42,20,,67,35,43,25,5,5,0.5,0.8
2025-03-13T2200,2536A,103.7627,29.5844,乐山市,牛耳桥,颗粒物(PM10),94,138,110,56,42,26,,53,41,40,31,9,9,0.6,0.6
2025-03-13T2200,2537A,103.7508,29.6006,乐山市,市第三水厂,颗粒物(PM10),90,130,112,46,40,32,,60,44,33,27,4,4,0.6,0.6
2025-03-13T2200,2538A,103.7571,29.5664,乐山市,市监测站,颗粒物(PM10),89,128,103,48,40,24,,60,36,34,23,5,5,0.8,0.7
2025-03-13T2200,3361A,103.7311,29.5628,乐山市,理工大学,颗粒物(PM10),86,122,109,53,45,12,,51,37,44,27,6,7,0.5,0.4
2025-03-13T2200,2598A,100.2143,26.8576,丽江市,西南郊,,34,17,43,12,35,108,,122,112,8,8,5,5,1.1,1.1
2025-03-13T2200,2599A,100.2497,26.8802,丽江市,丽江古城,,30,25,42,21,34,91,,113,104,13,14,8,8,0.8,0.8
2025-03-13T2200,2600A,100.2203,26.8906,丽江市,市中心,,29,,34,20,30,87,,110,96,14,13,6,7,0.9,0.9
2025-03-13T2200,1267A,119.914,28.4514,丽水市,监测站大楼,,12,9,12,3,4,37,,48,42,20,23,3,2,0.5,0.5
2025-03-13T2200,1268A,119.93,28.4586,丽水市,莲都小学,,14,9,10,3,6,42,,51,47,19,22,3,3,0.4,0.5
2025-03-13T2200,1269A,119.879,28.4231,丽水市,余庄前,,12,12,16,6,10,18,,50,36,22,23,3,4,0.4,0.6
2025-03-13T2200,1173A,119.176,34.5885,连云港市,市环境监测站,颗粒物(PM10),60,70,87,22,36,85,,112,99,19,18,14,12,0.8,0.6
2025-03-13T2200,3000A,119.3581,34.6972,连云港市,德源药业,颗粒物(PM10),58,66,94,22,36,72,,103,87,28,21,9,8,0.3,0.6
2025-03-13T2200,3007A,119.178,34.844,连云港市,新城一中,细颗粒物(PM2.5),70,80,100,51,68,64,,86,80,24,36,7,8,0.7,0.9
2025-03-13T2200,3008A,119.3608,34.7519,连云港市,胡沟管理处,,48,48,66,29,38,56,,91,73,42,46,9,11,0.7,0.8
2025-03-13T2200,3009A,119.1478,34.5911,连云港市,矿山设计院,颗粒物(PM10),63,75,94,29,41,82,,110,96,21,22,14,12,0.7,0.6
2025-03-13T2200,3434A,119.2413,34.6539,连云港市,工贸学校,颗粒物(PM10),55,59,86,25,39,69,,107,96,26,19,13,10,0.9,0.8
2025-03-13T2200,3664A,119.4172,34.7341,连云港市,连云街道,,30,23,71,3,28,94,,99,93,10,25,5,7,0.4,0.6
2025-03-13T2200,2571A,102.3431,27.8099,凉山彝族自治州,青龙寺,,41,35,56,14,20,131,,136,136,4,8,4,5,0.8,0.8
2025-03-13T2200,2572A,102.2721,27.8415,凉山彝族自治州,邛海宾馆,,41,38,64,28,41,131,,138,136,7,13,14,14,0.6,0.7
2025-03-13T2200,2573A,102.2625,27.898,凉山彝族自治州,西昌市政府,,39,36,56,27,48,109,,121,118,10,12,9,14,1.0,0.9
2025-03-13T2200,2574A,102.2685,27.8851,凉山彝族自治州,凉山州政府,,39,34,61,26,43,124,,136,133,10,12,8,10,1.0,0.8
2025-03-13T2200,4229A,102.2342,27.8859,凉山彝族自治州,凯乐南路30号,,38,38,69,22,42,116,,126,124,11,24,11,13,0.5,0.7
2025-03-13T2200,2212A,123.2,41.1953,辽阳市,宏伟区,,35,33,71,24,24,76,,103,91,15,14,14,17,0.6,0.6
2025-03-13T2200,2213A,123.1683,41.2495,辽阳市,新华园,细颗粒物(PM2.5),57,52,82,40,30,59,,96,83,31,27,12,13,0.8,0.8
2025-03-13T2200,2214A,123.2354,41.2639,辽阳市,滨河路,细颗粒物(PM2.5),64,54,78,46,35,60,,99,79,25,22,9,11,0.5,0.5
2025-03-13T2200,2215A,123.149,41.2991,辽阳市,铁西工业园,细颗粒物(PM2.5),64,61,84,46,34,49,,105,81,29,29,18,12,0.6,0.6
2025-03-13T2200,2227A,125.1358,42.8845,辽源市,环保局,,50,50,42,29,17,37,,103,83,51,14,4,5,1.0,0.6
2025-03-13T2200,3239A,125.0764,42.9078,辽源市,银鹰制药,细颗粒物(PM2.5),65,64,33,47,16,36,,106,76,48,15,8,7,0.8,0.5
2025-03-13T2200,1625A,115.9848,36.4372,聊城市,区政府,颗粒物(PM10),78,105,168,42,55,91,,111,106,23,24,14,14,0.6,0.7
2025-03-13T2200,2878A,116.0072,36.4343,聊城市,聊大东校,颗粒物(PM10),80,110,179,46,58,90,,106,100,29,31,8,10,0.8,0.9
2025-03-13T2200,3200A,115.9819,36.4978,聊城市,监控中心,颗粒物(PM10),78,105,176,41,56,96,,109,106,23,32,13,13,0.6,0.7
2025-03-13T2200,3513A,116.0445,36.4361,聊城市,九州社区,细颗粒物(PM2.5),78,104,160,57,55,92,,114,104,21,23,11,12,0.6,0.7
2025-03-13T2200,4018A,116.0567,36.4608,聊城市,星美广场,颗粒物(PM10),78,105,163,45,52,96,,111,103,22,28,16,15,0.7,0.8
2025-03-13T2200,2632A,94.3681,29.6376,林芝市,林芝监测站,,30,7,11,7,6,94,,97,95,8,9,4,6,0.3,0.4
2025-03-13T2200,2633A,94.3616,29.6616,林芝市,林芝人民医院,,25,16,14,9,7,77,,99,95,5,6,7,7,0.3,0.3
2025-03-13T2200,2603A,100.0781,23.8982,临沧市,市环保局,细颗粒物(PM2.5),140,141,88,107,58,138,,146,146,15,16,13,11,0.9,0.7
2025-03-13T2200,2604A,100.0894,23.8822,临沧市,市气象局,细颗粒物(PM2.5),100,97,78,75,58,144,,151,150,13,19,9,9,1.1,0.6
2025-03-13T2200,1733A,111.5531,36.0783,临汾市,临钢医院,颗粒物(PM10),103,155,193,44,38,77,,110,107,30,30,,10,0.6,0.7
2025-03-13T2200,1734A,111.5028,36.0714,临汾市,技工学校,颗粒物(PM10),94,137,165,59,46,92,,113,110,24,26,11,11,0.6,0.6
2025-03-13T2200,1736A,111.5018,36.0855,临汾市,市委,颗粒物(PM10),94,137,176,46,39,98,,112,111,20,25,8,10,0.7,0.8
2025-03-13T2200,3018A,111.505,36.1014,临汾市,唐尧大酒店,颗粒物(PM10),88,125,168,52,41,102,,114,113,20,29,8,9,0.6,0.6
2025-03-13T2200,4244A,111.4879,36.0530,临汾市,启星学校,细颗粒物(PM2.5),84,105,139,62,50,90,,109,107,21,27,5,7,0.6,0.7
2025-03-13T2200,4271A,103.2464,35.6123,临夏回族自治州,滨河东路1号,颗粒物(PM10),53,56,80,18,14,74,,107,98,10,21,2,7,0.3,0.6
2025-03-13T2200,4310A,103.2093,35.5995,临夏回族自治州,新华街21号,,41,41,45,19,19,78,,100,97,11,24,8,13,0.3,0.8
2025-03-13T2200,1618A,118.3429,35.0532,临沂市,沂河小区,颗粒物(PM10),59,68,124,33,58,63,,98,84,29,35,12,14,0.6,1
2025-03-13T2200,1619A,118.295,35.0583,临沂市,鲁南制药厂,颗粒物(PM10),60,70,130,29,56,67,,101,86,42,51,12,14,0.3,0.8
2025-03-13T2200,1620A,118.2794,34.9976,临沂市,新光毛纺厂,颗粒物(PM10),58,66,115,35,59,70,,103,88,31,39,9,9,0.7,0.8
2025-03-13T2200,1621A,118.3956,35.0888,临沂市,河东保险公司,颗粒物(PM10),59,68,122,38,56,64,,106,91,44,54,5,8,0.7,1.2
2025-03-13T2200,3370A,118.3564,35.0215,临沂市,十里堡居委,颗粒物(PM10),54,58,112,24,52,62,,106,89,39,39,12,12,0.5,0.9
2025-03-13T2200,3496A,118.3604,35.1084,临沂市,南坊新区,颗粒物(PM10),64,78,112,36,48,67,,107,93,34,42,6,10,0.6,1
2025-03-13T2200,3860A,118.3920,35.0300,临沂市,皇山花园小区,颗粒物(PM10),59,68,129,31,58,62,,107,87,36,41,7,9,0.4,0.8
2025-03-13T2200,1870A,109.4856,24.3895,柳州市,柳东小学,,27,27,30,18,22,13,,17,16,18,18,10,10,0.6,0.6
2025-03-13T2200,1871A,109.4157,24.3277,柳州市,环保监测站,,31,31,39,20,25,14,,16,14,20,27,12,10,0.9,1
2025-03-13T2200,1872A,109.389,24.341,柳州市,河西水厂,,48,48,44,31,28,9,,14,12,23,26,11,8,1.2,1.2
2025-03-13T2200,1873A,109.4311,24.2921,柳州市,市四中,,,,47,18,30,17,,19,19,19,24,10,8,0.7,0.7
2025-03-13T2200,1874A,109.4006,24.3631,柳州市,市九中,,29,29,34,15,19,15,,19,18,16,20,9,8,1.1,1
2025-03-13T2200,1875A,109.4958,24.3134,柳州市,古亭山,,30,30,40,14,20,17,,19,19,9,13,6,6,0.6,0.6
2025-03-13T2200,3402A,109.5422,24.3996,柳州市,市二中,,26,26,27,13,17,10,,24,23,14,19,9,9,0.7,0.7
2025-03-13T2200,2307A,116.5079,31.737,六安市,监测大楼,细颗粒物(PM2.5),58,55,80,41,77,49,,78,63,29,23,3,4,0.7,0.8
2025-03-13T2200,2308A,116.4738,31.7643,六安市,皖西学院,颗粒物(PM10),54,58,92,34,77,52,,80,65,28,20,4,4,0.6,0.7
2025-03-13T2200,2309A,116.4996,31.7905,六安市,朝阳厂,颗粒物(PM10),51,51,84,33,74,50,,77,61,26,24,3,3,0.5,0.7
2025-03-13T2200,2310A,116.5567,31.7886,六安市,开发区,颗粒物(PM10),58,66,93,34,65,53,,82,64,24,18,3,3,0.6,0.7
2025-03-13T2200,2576A,104.8,26.5892,六盘水市,窑上,细颗粒物(PM2.5),133,148,140,101,90,22,,68,57,25,18,6,8,1.3,1
2025-03-13T2200,2577A,104.83,26.5917,六盘水市,黄土坡,细颗粒物(PM2.5),115,143,138,87,75,18,,65,54,34,27,13,15,1.5,1.2
2025-03-13T2200,2578A,104.89,26.5939,六盘水市,水钢,细颗粒物(PM2.5),83,93,129,61,73,16,,72,55,30,22,7,11,0.9,0.8
2025-03-13T2200,2579A,104.8475,26.5894,六盘水市,民中,细颗粒物(PM2.5),110,105,122,83,77,14,,59,48,32,27,10,14,1.1,0.9
2025-03-13T2200,2580A,104.9544,26.5506,六盘水市,双水,细颗粒物(PM2.5),115,127,112,87,66,20,,76,57,29,20,9,12,1.0,0.7
2025-03-13T2200,2335A,117.0189,25.1181,龙岩市,龙岩师专,,,,,,,,,,,,,,,,
2025-03-13T2200,2336A,117.0217,25.1033,龙岩市,龙岩市监测站,,23,23,15,16,11,36,,65,51,24,13,13,5,0.5,0.5
2025-03-13T2200,2337A,117.0258,25.0661,龙岩市,闽西职业技术学院,,39,39,18,17,11,46,,63,50,21,12,20,6,0.4,0.4
2025-03-13T2200,2338A,117.0196,25.0306,龙岩市,龙岩学院,,27,27,17,16,11,24,,66,53,17,7,5,6,0.5,0.4
2025-03-13T2200,2665A,105.0822,33.3261,陇南市,汉王镇固水子,,,,,,,,,,,,,,,,
2025-03-13T2200,2885A,104.9339,33.3826,陇南市,滨江中学,颗粒物(PM10),62,74,158,26,41,69,,74,72,6,9,6,7,0.4,0.5
2025-03-13T2200,3247A,104.955,33.371,陇南市,市总工会,,50,50,148,21,48,75,,80,80,1,4,7,8,0.4,0.4
2025-03-13T2200,2487A,111.9589,27.8901,娄底市,电视发射台,细颗粒物(PM2.5),68,,47,49,39,66,,67,67,11,10,5,5,0.6,0.6
2025-03-13T2200,2488A,111.9975,27.725,娄底市,市监测站,颗粒物(PM10),52,54,54,30,35,57,,48,47,19,24,8,10,0.6,1
2025-03-13T2200,2489A,112.0194,27.7314,娄底市,市委党校,,48,43,49,33,39,74,,61,58,16,21,3,4,0.6,0.9
2025-03-13T2200,2490A,111.9561,27.7569,娄底市,涟钢,,50,37,46,35,34,56,,53,53,15,10,9,11,2.0,0.9
2025-03-13T2200,2491A,111.9892,27.7044,娄底市,市政府,,42,36,43,29,33,65,,54,54,13,11,6,7,0.6,0.7
2025-03-13T2200,1893A,105.4324,28.9634,泸州市,九狮山,,,,,,,,,,,,,,,,
2025-03-13T2200,1894A,105.4427,28.9063,泸州市,小市上码头,细颗粒物(PM2.5),127,179,82,96,48,37,,55,50,30,21,6,7,0.7,0.5
2025-03-13T2200,1895A,105.4241,28.8573,泸州市,兰田宪桥,细颗粒物(PM2.5),122,132,64,92,45,34,,52,47,31,19,6,6,0.6,0.5
2025-03-13T2200,1896A,105.4379,28.8833,泸州市,市环监站,,,,48,,37,,,67,,,19,,8,,0.3
2025-03-13T2200,4272A,105.3689,28.7783,泸州市,纳溪中医医院,细颗粒物(PM2.5),225,253,73,175,54,18,,60,53,42,15,6,5,1.0,0.5
2025-03-13T2200,2183A,111.1406,37.5211,吕梁市,环保局,颗粒物(PM10),66,81,125,34,44,45,,100,93,56,38,2,3,0.3,0.4
2025-03-13T2200,2185A,111.1297,37.5136,吕梁市,自来水公司,颗粒物(PM10),64,77,132,24,33,66,,95,92,29,30,2,4,0.4,0.4
2025-03-13T2200,2867A,111.1283,37.51,吕梁市,马茂庄小学,颗粒物(PM10),70,90,139,29,38,45,,100,89,64,39,3,6,0.3,0.4
2025-03-13T2200,1812A,112.3931,34.6516,洛阳市,市委党校,细颗粒物(PM2.5),189,228,215,142,82,59,,88,85,45,50,7,11,1.0,0.7
2025-03-13T2200,1815A,112.494,34.6886,洛阳市,河南林校,细颗粒物(PM2.5),220,241,248,170,97,55,,90,84,41,39,4,8,1.0,0.8
2025-03-13T2200,1816A,112.3844,34.623,洛阳市,开发区管委会,细颗粒物(PM2.5),228,278,239,178,97,60,,91,87,42,51,7,11,1.0,0.8
2025-03-13T2200,1817A,112.4267,34.6258,洛阳市,市委新办公区,细颗粒物(PM2.5),206,294,239,156,85,61,,87,83,52,51,5,9,0.9,0.7
2025-03-13T2200,3340A,112.6005,34.6326,洛阳市,伊滨,细颗粒物(PM2.5),219,270,233,169,95,51,,80,75,47,54,5,8,1.1,1
2025-03-13T2200,3341A,112.4951,34.6332,洛阳市,中移产业园,细颗粒物(PM2.5),233,291,269,183,107,42,,80,74,60,52,7,10,1.1,0.8
2025-03-13T2200,3593A,112.5736,34.8993,洛阳市,吉利监测站,细颗粒物(PM2.5),150,235,222,115,92,90,,94,94,29,45,5,6,1.0,0.8
2025-03-13T2200,3635A,112.3677,34.662,洛阳市,河科大西苑校区,细颗粒物(PM2.5),196,230,226,147,83,62,,94,91,43,45,8,14,0.9,0.7
2025-03-13T2200,3636A,112.4388,34.6781,洛阳市,英才小学,细颗粒物(PM2.5),165,251,253,125,78,53,,95,88,52,48,8,11,0.9,0.7
2025-03-13T2200,4214A,112.4600,34.6949,洛阳市,春都路1号院,细颗粒物(PM2.5),173,184,233,131,78,66,,95,89,41,47,7,9,1.0,0.8
2025-03-13T2200,2399A,114.051,33.5699,漯河市,三五一五工厂,细颗粒物(PM2.5),70,59,160,51,107,91,,116,105,11,19,3,4,0.5,0.6
2025-03-13T2200,2400A,114.0055,33.5698,漯河市,漯河大学,颗粒物(PM10),64,78,162,41,91,92,,119,107,14,23,5,5,0.5,0.6
2025-03-13T2200,2401A,114.0138,33.5828,漯河市,市水利局,细颗粒物(PM2.5),58,61,159,41,96,92,,120,108,10,20,4,4,0.4,0.6
2025-03-13T2200,2402A,114.0261,33.5698,漯河市,市广电局,细颗粒物(PM2.5),62,61,156,44,98,90,,117,106,13,20,4,4,0.4,0.6
2025-03-13T2200,3478A,113.9749,33.5664,漯河市,市图书馆,细颗粒物(PM2.5),85,92,169,63,97,92,,119,107,15,25,4,4,0.5,0.6
2025-03-13T2200,4250A,114.0892,33.5882,漯河市,韶山路11号,颗粒物(PM10),69,87,183,47,99,95,,123,110,16,30,3,4,0.4,0.6
2025-03-13T2200,1798A,118.5092,31.6837,马鞍山市,湖东路四小,,48,48,54,18,33,60,,76,62,24,23,6,6,0.6,0.7
2025-03-13T2200,1799A,118.5024,31.6449,马鞍山市,开发区,颗粒物(PM10),51,51,58,18,47,57,,74,62,29,24,4,4,0.6,0.6
2025-03-13T2200,1802A,118.6245,31.7241,马鞍山市,濮塘,,44,44,65,30,40,64,,77,63,15,15,8,7,0.7,0.8
2025-03-13T2200,3633A,118.4918,31.6809,马鞍山市,雨山,,50,50,53,15,26,58,,74,60,23,21,6,6,0.7,0.8
2025-03-13T2200,4191A,118.5274,31.72227,马鞍山市,慈湖高新区,,33,33,56,23,46,69,,75,62,19,23,5,6,0.5,0.6
2025-03-13T2200,1686A,111.0286,21.4688,茂名市,电白南海,,20,17,26,14,21,64,,77,76,10,7,3,2,0.7,0.7
2025-03-13T2200,1687A,110.9294,21.6533,茂名市,茂石化七小,,24,24,27,14,16,53,,50,48,5,7,3,3,0.4,0.5
2025-03-13T2200,1688A,110.9107,21.6687,茂名市,健康路,,17,17,24,7,14,51,,50,48,7,9,1,3,0.3,0.4
2025-03-13T2200,1689A,110.8592,21.6828,茂名市,高岭,,34,34,42,17,15,36,,46,42,14,13,2,4,0.4,0.4
2025-03-13T2200,3450A,111.01,21.5165,茂名市,电白水东,,,,17,7,10,65,,68,68,,7,1,2,0.7,0.7
2025-03-13T2200,2539A,104.0308,30.0478,眉山市,黑龙滩水库,细颗粒物(PM2.5),108,,41,81,57,24,,70,50,25,8,3,3,0.7,0.5
2025-03-13T2200,2540A,103.8416,30.0874,眉山市,气象局,颗粒物(PM10),101,152,125,61,43,29,,60,54,32,26,5,6,0.6,0.5
2025-03-13T2200,3137A,103.8578,30.0744,眉山市,市委党校,颗粒物(PM10),96,141,108,56,38,32,,60,53,36,30,8,8,0.7,0.6
2025-03-13T2200,3148A,103.8291,30.0564,眉山市,区人社局,颗粒物(PM10),84,117,90,53,39,31,,64,50,35,32,7,8,0.7,0.6
2025-03-13T2200,1690A,116.1231,24.3284,梅州市,梅江月梅,,39,34,22,27,15,78,,64,60,12,12,14,9,0.6,0.5
2025-03-13T2200,1691A,116.0797,24.2719,梅州市,梅县新城,,41,41,27,24,17,3,,60,40,34,19,6,6,0.8,0.5
2025-03-13T2200,1692A,116.1248,24.2654,梅州市,环境监控中心,颗粒物(PM10),51,51,27,22,14,3,,57,39,36,21,7,6,0.8,0.6
2025-03-13T2200,3315A,116.1233,24.2991,梅州市,梅龙,,30,29,20,21,12,35,,66,52,25,16,9,7,0.9,0.8
2025-03-13T2200,1878A,104.7778,31.4741,绵阳市,富乐山,,28,28,66,18,28,47,,75,68,18,13,2,2,0.5,0.5
2025-03-13T2200,1880A,104.6697,31.4668,绵阳市,高新区自来水公司,,44,44,80,14,28,47,,76,66,24,19,3,3,0.3,0.2
2025-03-13T2200,1881A,104.7287,31.5075,绵阳市,三水厂,,45,45,85,25,34,27,,85,70,38,18,5,5,0.7,0.5
2025-03-13T2200,3491A,104.69,31.5322,绵阳市,西科大附属小学,颗粒物(PM10),51,52,88,24,33,37,,79,65,34,23,6,6,0.5,0.4
2025-03-13T2200,3492A,104.5648,31.5343,绵阳市,安州区旅游局,颗粒物(PM10),51,51,92,14,32,58,,78,70,16,20,10,9,0.5,0.4
2025-03-13T2200,4226A,104.7651,31.4531,绵阳市,绵阳市气象局,,36,36,67,20,24,50,,71,66,16,12,4,4,0.5,0.4
2025-03-13T2200,1784A,129.61,44.561,牡丹江市,环保大楼,,40,28,32,28,23,73,,82,78,12,9,5,5,0.3,0.2
2025-03-13T2200,1785A,129.6115,44.5782,牡丹江市,文化广场,,42,34,30,29,22,78,,85,78,9,8,8,8,0.2,0.2
2025-03-13T2200,1786A,129.5904,44.5963,牡丹江市,第一医院,,36,31,28,25,22,82,,83,80,7,8,9,9,0.1,0.1
2025-03-13T2200,1787A,129.6364,44.6075,牡丹江市,机车工厂,颗粒物(PM10),52,54,38,29,16,80,,84,83,6,6,8,7,0.6,0.4
2025-03-13T2200,1788A,129.6386,44.5462,牡丹江市,第一中学,,30,30,31,21,21,78,,88,84,7,4,6,6,0.3,0.3
2025-03-13T2200,2531A,105.0703,29.61,内江市,市监测站,,,48,46,37,31,22,,65,57,,16,8,5,1.3,0.9
2025-03-13T2200,2532A,105.0717,29.5947,内江市,东兴区政府,颗粒物(PM10),51,51,46,24,24,54,,62,61,22,15,2,3,0.5,0.7
2025-03-13T2200,2533A,105.0653,29.5817,内江市,内江二中,颗粒物(PM10),51,52,55,32,26,54,,65,64,23,16,6,7,0.8,0.7
2025-03-13T2200,2534A,105.0406,29.5822,内江市,内江日报社,颗粒物(PM10),60,70,50,31,26,46,,65,63,26,15,9,9,0.7,0.6
2025-03-13T2200,2628A,92.0657,31.4846,那曲市,那曲监测站,,,78,27,59,15,,,112,,74,16,27,9,3.1,1
2025-03-13T2200,3128A,92.0506,31.4797,那曲市,那曲会议中心,,29,28,30,14,10,91,,112,111,6,8,5,6,0.4,0.6
2025-03-13T2200,1290A,115.8931,28.6843,南昌市,省外办,细颗粒物(PM2.5),58,,43,41,42,32,,74,47,22,17,4,4,0.9,0.9
2025-03-13T2200,1291A,115.8886,28.7003,南昌市,省林业公司,细颗粒物(PM2.5),67,,33,48,40,29,,72,46,24,18,6,6,0.6,0.6
2025-03-13T2200,1292A,115.8126,28.7442,南昌市,林科所,,49,39,29,34,28,43,,82,53,24,20,5,5,0.8,0.7
2025-03-13T2200,1294A,115.8518,28.687,南昌市,建工学校,细颗粒物(PM2.5),67,68,48,48,43,34,,77,47,26,19,8,8,0.7,0.7
2025-03-13T2200,1295A,115.8921,28.6424,南昌市,象湖,细颗粒物(PM2.5),52,,33,36,35,43,,88,59,19,16,6,6,0.8,0.8
2025-03-13T2200,1296A,115.7423,28.7996,南昌市,武术学校,,41,41,34,18,15,36,,76,51,13,10,2,2,0.7,0.6
2025-03-13T2200,3046A,115.9084,28.6062,南昌市,机电学校,细颗粒物(PM2.5),62,,43,44,40,39,,77,53,18,17,4,4,0.7,0.7
2025-03-13T2200,3690A,115.9721,28.7031,南昌市,外国语学校,,46,39,40,32,33,35,,82,51,20,16,3,3,0.5,0.5
2025-03-13T2200,4192A,115.9316,28.68677,南昌市,南京东路235号,细颗粒物(PM2.5),55,42,46,39,37,42,,82,53,26,24,3,4,0.7,0.7
2025-03-13T2200,1905A,106.056,30.8064,南充市,西山风景区,,50,50,27,34,19,51,,58,58,19,9,3,2,0.7,0.6
2025-03-13T2200,1906A,106.0789,30.8023,南充市,南充市委,细颗粒物(PM2.5),58,61,40,41,27,16,,59,50,50,17,3,3,1.0,0.6
2025-03-13T2200,1907A,106.1031,30.8217,南充市,南充炼油厂,细颗粒物(PM2.5),65,62,39,47,26,44,,52,50,22,17,4,4,0.5,0.4
2025-03-13T2200,1909A,106.0642,30.7636,南充市,嘉陵区环保局,颗粒物(PM10),59,68,40,41,24,22,,53,47,44,17,3,3,0.9,0.6
2025-03-13T2200,1910A,106.1087,30.8388,南充市,市环境监测站,,,,31,,22,,,45,,,9,,5,,0.5
2025-03-13T2200,4227A,106.1083,30.7884,南充市,梨树横街98号,,48,48,38,26,17,46,,57,55,26,15,4,4,0.5,0.4
2025-03-13T2200,1151A,118.8086,32.1065,南京市,迈皋桥,,33,33,61,17,45,53,,75,66,29,28,4,4,0.2,0.3
2025-03-13T2200,1152A,118.7538,32.0551,南京市,草场门,,35,34,62,24,45,42,,56,52,35,28,6,6,0.7,0.9
2025-03-13T2200,1153A,118.7794,32.0745,南京市,山西路,,36,36,72,17,47,37,,68,56,29,22,4,4,0.6,0.7
2025-03-13T2200,1154A,118.7752,32.0023,南京市,中华门,,29,29,63,17,40,50,,66,52,36,33,4,5,0.4,0.5
2025-03-13T2200,1155A,118.8109,32.0309,南京市,瑞金路,,31,31,70,14,41,50,,68,55,21,20,7,6,0.8,0.8
2025-03-13T2200,1156A,118.7997,32.0754,南京市,玄武湖,,40,40,69,16,48,27,,60,41,33,27,5,5,0.4,0.5
2025-03-13T2200,1157A,118.6414,32.0931,南京市,浦口,,39,39,74,21,50,38,,66,55,38,25,6,6,0.5,0.6
2025-03-13T2200,1158A,118.7356,31.9996,南京市,奥体中心,,36,36,72,22,48,56,,71,60,28,28,8,14,0.3,0.5
2025-03-13T2200,1159A,118.9125,32.1028,南京市,仙林大学城,,36,36,64,14,45,44,,68,58,30,24,8,8,0.7,0.7
2025-03-13T2200,3422A,118.8436,31.9198,南京市,江宁彩虹桥,,31,31,54,17,39,64,,68,55,16,22,4,4,0.3,0.6
2025-03-13T2200,3423A,119.0138,31.6494,南京市,溧水永阳,,39,34,44,27,29,53,,73,56,28,23,6,4,0.5,0.6
2025-03-13T2200,3427A,118.8554,32.3578,南京市,六合雄州,,23,23,69,8,40,68,,68,62,8,9,4,4,0.1,0.3
2025-03-13T2200,4249A,118.8708,31.3402,南京市,汶溪路181号,颗粒物(PM10),54,58,52,33,30,44,,67,60,38,25,5,4,0.3,0.4
2025-03-13T2200,1401A,108.3103,22.7881,南宁市,二十一中,,23,19,29,16,17,33,,41,38,20,17,4,4,0.5,0.5
2025-03-13T2200,1402A,108.3141,22.8528,南宁市,北湖,,26,26,30,18,20,32,,33,31,17,20,5,5,0.6,0.7
2025-03-13T2200,1403A,108.3206,22.8225,南宁市,市监测站,,22,17,34,15,16,37,,36,35,12,17,5,5,0.5,0.6
2025-03-13T2200,1404A,108.3829,22.8037,南宁市,大自然花园,,27,27,28,14,16,49,,46,46,8,9,11,6,0.6,0.6
2025-03-13T2200,1405A,108.4394,22.7904,南宁市,仙葫,,29,29,28,19,17,43,,42,41,14,13,4,2,0.3,0.4
2025-03-13T2200,1406A,108.2397,22.8467,南宁市,区农职院,,28,28,34,16,18,34,,37,34,15,21,7,7,0.6,0.6
2025-03-13T2200,1407A,108.3275,22.735,南宁市,英华嘉园,,26,26,35,15,20,24,,35,31,24,18,6,6,0.5,0.5
2025-03-13T2200,3401A,108.4834,22.7618,南宁市,红星社区,,44,44,30,16,17,43,,42,41,11,13,10,8,0.6,0.7
2025-03-13T2200,4221A,108.2177,22.7774,南宁市,乐贤路16号,,30,30,30,20,18,31,,39,35,16,20,6,6,0.8,0.7
2025-03-13T2200,2331A,118.0966,26.6761,南平市,茫荡山,,,,,,,,,,,,,,,,
2025-03-13T2200,2332A,118.1681,26.6369,南平市,南平市监测站,,29,29,26,17,24,66,,81,75,8,13,3,4,0.7,0.8
2025-03-13T2200,2333A,118.1825,26.6489,南平市,南平铝业有限公司,,28,24,28,19,21,70,,84,79,10,12,5,6,0.7,0.8
2025-03-13T2200,2334A,118.1756,26.6272,南平市,南平七中,,26,,29,18,24,55,,75,70,6,12,3,3,0.5,0.6
2025-03-13T2200,1168A,120.9098,31.9663,南通市,狼山街道,颗粒物(PM10),56,62,42,14,16,80,,87,83,18,17,6,6,0.2,0.3
2025-03-13T2200,1169A,120.86,32.0005,南通市,虹桥,,48,48,40,15,19,76,,73,72,20,22,5,5,0.3,0.5
2025-03-13T2200,1170A,120.87,32.02,南通市,城中,颗粒物(PM10),57,63,45,14,17,76,,82,79,20,18,6,6,0.4,0.5
2025-03-13T2200,1171A,120.94,31.93,南通市,星湖花园,颗粒物(PM10),54,57,37,11,19,74,,84,79,24,20,5,5,0.4,0.4
2025-03-13T2200,1172A,120.81,32.0417,南通市,紫琅学院,颗粒物(PM10),54,57,35,13,13,71,,81,77,21,17,3,3,0.5,0.6
2025-03-13T2200,3291A,121.067,32.062,南通市,通州监测站,颗粒物(PM10),56,61,40,14,16,88,,91,90,12,11,3,3,0.5,0.6
2025-03-13T2200,3432A,120.9348,31.9883,南通市,环境教育馆,,,56,39,13,17,,,82,,13,10,,4,0.2,0.3
2025-03-13T2200,2404A,112.5224,33.0122,南阳市,瓦房庄,细颗粒物(PM2.5),77,81,173,56,81,85,,104,100,12,18,2,4,0.5,0.7
2025-03-13T2200,2405A,112.5003,32.9735,南阳市,汉画馆,细颗粒物(PM2.5),70,69,155,51,78,82,,100,97,13,18,3,5,0.5,0.6
2025-03-13T2200,2406A,112.5573,33.027,南阳市,气象站,细颗粒物(PM2.5),70,87,194,51,72,80,,102,98,14,16,3,5,0.4,0.5
2025-03-13T2200,2407A,112.5481,32.9689,南阳市,理工学院,细颗粒物(PM2.5),67,72,163,48,73,77,,104,100,20,21,2,5,0.5,0.6
2025-03-13T2200,4008A,112.5234,32.9922,南阳市,卧龙区政府,细颗粒物(PM2.5),70,81,175,51,73,85,,103,101,14,20,5,7,0.5,0.6
2025-03-13T2200,1234A,121.8358,29.911,宁波市,区环保大楼,颗粒物(PM10),60,70,29,31,19,16,,65,48,71,47,8,8,0.6,0.4
2025-03-13T2200,1235A,121.56,29.82,宁波市,万里学院,颗粒物(PM10),57,63,26,31,15,30,,78,62,54,27,5,10,0.5,0.4
2025-03-13T2200,1236A,121.713,29.9572,宁波市,龙赛医院,,,,25,,11,,,58,,,28,,6,,0.4
2025-03-13T2200,1239A,121.633,29.7733,宁波市,钱湖水厂,,49,49,23,20,14,13,,77,54,59,30,6,6,0.6,0.5
2025-03-13T2200,1240A,121.5856,29.8635,宁波市,太古小学,,40,40,23,15,12,48,,86,68,41,27,9,9,0.8,0.8
2025-03-13T2200,1241A,121.524,29.8674,宁波市,市环境监测中心,颗粒物(PM10),56,62,26,26,11,39,,80,64,51,34,7,7,0.6,0.5
2025-03-13T2200,2871A,121.6147,29.9017,宁波市,万里国际学校,,47,47,21,22,13,18,,76,56,70,32,8,7,0.5,0.5
2025-03-13T2200,3710A,121.5594,29.8975,宁波市,白沙活动中心,颗粒物(PM10),52,53,22,24,13,42,,85,65,35,21,6,6,0.5,0.4
2025-03-13T2200,2339A,119.5001,26.6946,宁德市,金涵水库,,,,,,,,,,,,,,,,
2025-03-13T2200,2341A,119.5388,26.6612,宁德市,宁德市监测站,,29,,20,10,28,91,,91,89,12,12,4,4,0.4,0.6
2025-03-13T2200,3209A,119.5231,26.6562,宁德市,宁德一中,,30,9,23,6,25,93,,92,91,10,13,4,4,0.2,0.4
2025-03-13T2200,2618A,98.8601,25.8567,怒江傈僳族自治州,州监测站,,34,34,47,22,35,64,,88,71,6,6,4,4,0.5,0.5
2025-03-13T2200,2619A,98.8546,25.8417,怒江傈僳族自治州,泸水一中,,42,29,39,29,36,35,,79,55,17,11,6,6,0.7,0.6
2025-03-13T2200,1888A,101.6891,26.571,攀枝花市,弄弄坪,细颗粒物(PM2.5),65,76,96,47,60,106,,124,119,17,41,18,45,0.9,2
2025-03-13T2200,1889A,101.5769,26.5928,攀枝花市,河门口,细颗粒物(PM2.5),73,84,97,53,55,90,,123,114,18,29,38,16,0.8,0.9
2025-03-13T2200,1890A,101.7169,26.585,攀枝花市,炳草岗,细颗粒物(PM2.5),74,76,84,54,54,101,,134,126,28,43,25,21,1.4,1.2
2025-03-13T2200,1891A,101.7369,26.5008,攀枝花市,仁和,细颗粒物(PM2.5),77,78,71,56,53,94,,133,124,20,19,6,8,0.8,0.8
2025-03-13T2200,2835A,101.7227,26.567,攀枝花市,四十中小,"颗粒物(PM10),细颗粒物(PM2.5)",65,80,83,47,50,100,,135,127,31,34,26,19,2.3,1.2
2025-03-13T2200,1604A,122.0303,41.1489,盘锦市,开发区,细颗粒物(PM2.5),70,57,52,51,22,66,,98,91,19,14,9,11,0.6,0.4
2025-03-13T2200,1605A,122.0485,41.0883,盘锦市,兴隆台,细颗粒物(PM2.5),77,59,59,56,22,63,,95,88,24,28,7,8,0.7,0.6
2025-03-13T2200,1606A,121.8297,41.1028,盘锦市,新生街道,"颗粒物(PM10),细颗粒物(PM2.5)",52,53,50,36,19,65,,91,83,19,35,18,8,0.6,0.7
2025-03-13T2200,1832A,113.3257,33.742,平顶山市,新华旅馆,"颗粒物(PM10),细颗粒物(PM2.5)",79,108,186,58,82,86,,116,108,24,35,4,5,0.4,0.5
2025-03-13T2200,1833A,113.2919,33.737,平顶山市,规划设计院,细颗粒物(PM2.5),88,96,186,65,86,90,,119,111,18,37,1,3,0.5,0.6
2025-03-13T2200,1834A,113.182,33.774,平顶山市,平顶山工学院,细颗粒物(PM2.5),79,99,208,58,83,98,,109,109,13,31,5,6,0.6,0.7
2025-03-13T2200,3204A,113.3025,33.73,平顶山市,规划局,细颗粒物(PM2.5),143,,181,109,103,,,120,114,25,37,4,5,0.7,0.9
2025-03-13T2200,3594A,112.8867,33.9116,平顶山市,石龙区,细颗粒物(PM2.5),84,103,229,62,85,85,,112,104,16,41,3,6,0.3,0.5
2025-03-13T2200,2656A,106.6692,35.5461,平凉市,聚贤嘉苑,颗粒物(PM10),72,94,131,26,37,100,,108,102,16,27,5,12,0.4,0.4
2025-03-13T2200,2657A,106.7021,35.5307,平凉市,博物馆,颗粒物(PM10),77,103,152,38,40,84,,108,102,31,37,16,18,0.6,0.7
2025-03-13T2200,2347A,114.0997,27.5002,萍乡市,武功山,,28,23,16,19,14,28,,43,39,25,18,6,5,0.8,0.6
2025-03-13T2200,2348A,113.8385,27.6434,萍乡市,中医院,细颗粒物(PM2.5),58,,53,41,43,22,,35,27,29,25,10,10,1.1,1.1
2025-03-13T2200,2349A,113.8493,27.6253,萍乡市,市政府车库,,40,34,42,28,30,26,,36,27,26,22,6,7,0.8,0.9
2025-03-13T2200,2350A,113.8676,27.6435,萍乡市,市环保局,,43,42,39,30,28,23,,36,28,32,26,7,6,0.9,0.9
2025-03-13T2200,2351A,113.866,27.6198,萍乡市,安源区政府,细颗粒物(PM2.5),53,41,38,37,38,22,,36,24,24,20,10,9,1.0,1
2025-03-13T2200,2319A,119.0141,25.4325,莆田市,荔城区仓后路,,25,25,46,3,25,77,,96,85,19,23,2,3,0.5,0.7
2025-03-13T2200,2320A,119.0015,25.4553,莆田市,莆田市监测站,,24,24,36,3,22,72,,100,86,21,17,3,4,0.5,0.6
2025-03-13T2200,2321A,119.1119,25.4561,莆田市,涵江区六中,,26,13,42,3,23,83,,95,89,22,32,2,4,0.2,0.5
2025-03-13T2200,2322A,119.1013,25.3215,莆田市,秀屿区政府,,31,15,32,3,20,98,,98,93,9,22,3,5,0.5,0.6
2025-03-13T2200,2323A,118.981,25.4792,莆田市,东圳水库,,,,,,,,,,,,,,,,
2025-03-13T2200,2392A,115.0312,35.7636,濮阳市,环保局,颗粒物(PM10),67,84,142,43,63,89,,112,104,24,34,5,6,0.6,0.7
2025-03-13T2200,2394A,115.0574,35.7609,濮阳市,油田运输公司,颗粒物(PM10),75,99,164,43,66,96,,118,108,19,32,6,8,0.7,1
2025-03-13T2200,3021A,115,35.7668,濮阳市,濮水河管理处,颗粒物(PM10),75,99,183,36,56,93,,117,109,29,37,6,7,0.6,0.7
2025-03-13T2200,4216A,115.0924,35.7686,濮阳市,任丘路479号,颗粒物(PM10),71,91,168,41,63,101,,122,113,22,37,6,7,0.6,0.8
2025-03-13T2200,2601A,100.98,22.7633,普洱市,市环保局,颗粒物(PM10),64,78,87,45,39,93,,131,116,12,17,6,6,0.6,0.7
2025-03-13T2200,2602A,100.9817,22.8322,普洱市,普洱第二中学,,,91,79,63,45,,,127,116,24,30,6,7,0.8,0.6
2025-03-13T2200,2262A,131.0518,45.8751,七台河市,新一中,,28,19,20,10,11,87,,89,89,6,8,10,10,0.7,0.7
2025-03-13T2200,3345A,131.0577,45.7879,七台河市,中波台,,24,20,22,8,11,75,,77,76,10,12,5,5,0.5,0.5
2025-03-13T2200,3637A,131.0176,45.7761,七台河市,人民广场,,28,22,26,19,18,78,,79,79,7,11,6,6,0.7,0.6
2025-03-13T2200,3684A,130.8781,45.8222,七台河市,新建矿广场,,29,,21,20,20,77,,78,77,8,10,6,6,0.3,0.3
2025-03-13T2200,1779A,123.9305,47.3636,齐齐哈尔市,安居小区,,,29,21,27,9,65,,93,77,24,12,,3,0.3,0.2
2025-03-13T2200,1780A,123.9488,47.3386,齐齐哈尔市,中心广场,,34,34,22,14,12,65,,86,71,22,11,5,4,0.5,0.4
2025-03-13T2200,1781A,123.9483,47.3227,齐齐哈尔市,农牧车辆厂,,24,24,18,15,9,67,,92,81,20,9,5,4,0.3,0.3
2025-03-13T2200,1783A,123.945,47.2988,齐齐哈尔市,市环境监测站,,29,23,20,20,10,60,,87,74,22,9,4,3,0.5,0.3
2025-03-13T2200,3662A,123.6333,47.2075,齐齐哈尔市,富区青少年活动中心,,40,,26,28,11,75,,88,72,7,13,5,6,0.4,0.4
2025-03-13T2200,2591A,107.9783,26.5747,黔东南苗族侗族自治州,市环境监测站,,,,43,,29,,,67,,,8,,2,,0.5
2025-03-13T2200,2881A,107.8908,26.5311,黔东南苗族侗族自治州,凯里学院,,30,29,34,21,27,59,,81,61,9,8,2,2,0.6,0.5
2025-03-13T2200,2593A,107.5228,26.2403,黔南布依族苗族自治州,小围寨,,14,14,13,9,11,42,,60,49,8,7,4,4,0.6,0.5
2025-03-13T2200,3538A,107.5175,26.2978,黔南布依族苗族自治州,沙坝,,,22,18,12,14,47,,72,58,,11,5,4,0.5,0.7
2025-03-13T2200,2589A,104.9022,25.0925,黔西南布依族苗族自治州,场坝街,细颗粒物(PM2.5),70,58,42,51,30,62,,111,106,21,11,3,4,0.7,0.5
2025-03-13T2200,2590A,104.8811,25.0992,黔西南布依族苗族自治州,坪东大道,细颗粒物(PM2.5),59,50,41,42,35,33,,105,96,39,14,4,5,0.6,0.4
2025-03-13T2200,2502A,108.6236,21.9667,钦州市,市环保站,,36,36,32,14,14,39,,48,46,28,23,6,6,0.8,0.8
2025-03-13T2200,2503A,108.6549,21.9481,钦州市,沙埠小学,,38,38,35,21,18,56,,52,52,14,19,5,6,0.8,0.8
2025-03-13T2200,2504A,108.5989,21.7431,钦州市,港区一小,,50,50,54,25,22,40,,56,51,38,30,8,12,0.6,1
2025-03-13T2200,3404A,108.5959,21.9633,钦州市,北职校,,42,42,37,28,26,45,,50,50,26,27,6,6,0.7,0.7
2025-03-13T2200,1043A,119.7493,40.0116,秦皇岛市,第一关,细颗粒物(PM2.5),69,54,59,50,27,73,,79,72,33,37,6,8,0.4,0.4
2025-03-13T2200,1044A,119.5897,39.9499,秦皇岛市,监测站,颗粒物(PM10),54,57,56,34,20,82,,81,78,26,35,4,5,0.5,0.5
2025-03-13T2200,1046A,119.5251,39.9041,秦皇岛市,建设大厦,细颗粒物(PM2.5),54,56,57,38,25,86,,82,82,26,36,5,6,0.4,0.4
2025-03-13T2200,3132A,119.610547,39.943889,秦皇岛市,文明里,颗粒物(PM10),58,65,66,33,17,83,,78,77,15,30,5,6,0.4,0.4
2025-03-13T2200,4198A,119.5090,39.8253,秦皇岛市,北戴河轮滑馆,细颗粒物(PM2.5),63,61,73,45,27,69,,84,83,28,29,6,8,0.4,0.5
2025-03-13T2200,1307A,120.6659,36.2403,青岛市,仰口,,38,38,46,20,22,75,,112,94,13,11,4,4,0.3,0.3
2025-03-13T2200,1310A,120.4134,36.0658,青岛市,市南区东部子站,颗粒物(PM10),53,56,66,14,22,54,,94,79,44,33,10,10,0.5,0.6
2025-03-13T2200,1311A,120.3664,36.1032,青岛市,四方区子站,颗粒物(PM10),53,56,60,9,22,69,,108,92,37,40,6,7,0.6,0.7
2025-03-13T2200,1312A,120.2994,36.054,青岛市,市南区西部子站,,48,48,74,15,26,34,,61,57,69,61,7,9,0.5,0.7
2025-03-13T2200,1313A,120.4581,36.0858,青岛市,崂山区子站,,34,34,54,7,17,76,,99,96,24,27,10,11,0.5,0.6
2025-03-13T2200,1315A,120.3999,36.3083,青岛市,城阳区子站,颗粒物(PM10),51,51,69,12,21,66,,94,84,34,39,6,8,0.6,0.9
2025-03-13T2200,1966A,120.0405,35.8735,青岛市,黄岛区4号,,44,44,66,19,23,84,,107,95,25,27,9,9,0.5,0.6
2025-03-13T2200,3362A,120.5014,36.4034,青岛市,即墨2号,,47,47,59,16,19,72,,103,94,22,18,7,8,0.6,0.7
2025-03-13T2200,3642A,120.3503,36.0736,青岛市,市北区南部,,39,39,65,7,20,57,,92,77,29,25,8,8,0.4,0.5
2025-03-13T2200,3643A,120.3948,36.1805,青岛市,李沧区北部,颗粒物(PM10),57,63,59,12,22,64,,76,71,34,35,7,7,0.6,0.7
2025-03-13T2200,4290A,120.1969,35.9546,青岛市,珠江路669号,颗粒物(PM10),53,56,74,24,30,30,,99,75,72,50,8,9,0.7,0.7
2025-03-13T2200,1702A,113.0426,23.691,清远市,环保大楼,,50,50,36,29,25,79,,144,143,32,22,9,9,0.8,0.7
2025-03-13T2200,1703A,113.0208,23.7106,清远市,凤城街办,颗粒物(PM10),51,52,38,24,20,77,,126,126,41,29,8,8,0.6,0.5
2025-03-13T2200,3025A,113.0477,23.6344,清远市,技师学院,颗粒物(PM10),56,62,41,30,20,63,,144,139,44,29,7,6,0.5,0.5
2025-03-13T2200,3318A,112.9903,23.7403,清远市,清新太和,,,52,40,24,21,89,,143,143,30,20,,11,0.7,0.6
2025-03-13T2200,3455A,113.076,23.7198,清远市,清城东城,颗粒物(PM10),57,63,43,29,23,74,,134,133,35,27,6,7,0.7,0.7
2025-03-13T2200,2661A,107.6325,35.7357,庆阳市,庆阳五中,细颗粒物(PM2.5),84,85,110,62,36,102,,109,108,15,13,3,5,0.5,0.4
2025-03-13T2200,2662A,107.6364,35.7067,庆阳市,市环保局,颗粒物(PM10),66,81,107,46,39,106,,108,108,11,10,5,6,0.5,0.4
2025-03-13T2200,1916A,103.7897,25.5035,曲靖市,环境监测站,细颗粒物(PM2.5),72,76,59,52,35,112,,150,142,25,19,3,6,0.7,0.6
2025-03-13T2200,1917A,103.8,25.5364,曲靖市,烟厂办公区,细颗粒物(PM2.5),62,71,65,44,40,131,,154,150,13,21,4,6,0.5,0.6
2025-03-13T2200,3376A,103.7947,25.462,曲靖市,南苑二区,颗粒物(PM10),63,75,56,43,34,122,,147,142,12,12,6,9,0.5,0.5
2025-03-13T2200,3377A,103.7444,25.5261,曲靖市,曲靖师范学院,细颗粒物(PM2.5),78,88,65,57,45,127,,149,143,18,23,6,13,0.6,0.6
2025-03-13T2200,1264A,118.8692,28.9398,衢州市,环保大楼,,21,21,13,14,9,63,,56,56,16,17,2,2,0.4,0.5
2025-03-13T2200,1265A,118.8709,28.9666,衢州市,实验学校,,,20,12,13,7,53,,50,50,15,16,,3,0.3,0.7
2025-03-13T2200,1266A,118.8621,28.9808,衢州市,衢州学院,,18,17,8,12,6,44,,46,45,23,21,1,3,0.3,0.3
2025-03-13T2200,1611A,118.5819,24.9117,泉州市,涂山街,,25,25,56,14,26,76,,98,91,15,33,4,8,0.7,0.7
2025-03-13T2200,1612A,118.5972,24.8978,泉州市,津头埔,,23,22,48,16,24,66,,92,86,22,34,3,7,0.7,0.6
2025-03-13T2200,1613A,118.6663,24.9424,泉州市,万安,,30,30,43,13,22,74,,112,100,11,22,4,7,0.7,0.6
2025-03-13T2200,1614A,118.6117,24.9604,泉州市,清源山,,,,,,,,,,,,,,,,
2025-03-13T2200,3529A,118.6333,24.9264,泉州市,城华南路,,25,25,48,12,24,70,,106,93,17,34,3,8,0.5,0.5
2025-03-13T2200,2626A,88.8876,29.2718,日喀则市,日喀则监测站,,35,15,21,9,9,111,,125,122,17,11,3,3,0.6,0.5
2025-03-13T2200,3726A,88.8781,29.2426,日喀则市,林业技术推广中心,,38,22,18,3,4,119,,123,119,2,3,7,7,0.2,0.4
