timepoint,stationcode,longitude,latitude,area,positionname,primarypollutant,aqi,pm10,pm10_24h,pm2_5,pm2_5_24h,o3,o3_24h,o3_8h,o3_8h_24h,no2,no2_24h,so2,so2_24h,co,co_24h
2025-03-13T1900,2566A,102.1879,31.914,阿坝藏族羌族自治州,州农科所,,22,15,17,3,8,70,,82,82,12,9,10,10,0,0
2025-03-13T1900,2568A,102.2502,31.8896,阿坝藏族羌族自治州,马师校,,29,9,14,3,10,91,,94,93,6,12,5,5,0.4,0.4
2025-03-13T1900,3994A,102.2165,31.9024,阿坝藏族羌族自治州,马尔康中学西区,,28,18,11,14,8,88,,100,100,8,8,5,5,0.4,0.4
2025-03-13T1900,2695A,80.292,41.1694,阿克苏地区,电视台,颗粒物(PM10),78,105,280,34,71,112,,104,104,2,24,4,6,0.2,0.8
2025-03-13T1900,2696A,80.2613,41.1551,阿克苏地区,艺术中心,颗粒物(PM10),78,105,311,38,69,109,,101,101,5,32,4,5,0.3,0.8
2025-03-13T1900,2204A,105.6467,38.8363,阿拉善盟,西城区西花园,颗粒物(PM10),58,65,113,21,22,106,,108,108,8,11,8,10,0.8,0.8
2025-03-13T1900,2205A,105.6985,38.8411,阿拉善盟,蒙二幼,颗粒物(PM10),67,84,98,16,22,100,,102,102,7,9,6,6,0.6,0.5
2025-03-13T1900,2206A,105.724,38.8516,阿拉善盟,环保局新楼,颗粒物(PM10),62,74,82,17,22,106,,107,107,5,5,8,8,0.4,0.4
2025-03-13T1900,2708A,88.1264,47.8517,阿勒泰地区,市站,,32,27,15,22,8,83,,76,76,28,21,6,6,0.5,0.4
2025-03-13T1900,2630A,80.1161,32.5,阿里地区,阿里监测站,,40,11,8,3,4,125,,110,110,1,2,5,6,0.4,0.4
2025-03-13T1900,3192A,80.0903,32.5028,阿里地区,阿里藏医院,,34,33,10,7,4,108,,105,104,1,1,5,6,0.3,0.3
2025-03-13T1900,2642A,109.0318,32.6537,安康市,香溪洞,,49,49,37,20,24,65,,56,56,5,9,7,7,0.5,0.5
2025-03-13T1900,2644A,109.0072,32.6975,安康市,汉滨区检察院,,44,44,53,20,28,56,,52,52,19,22,7,7,0.5,0.5
2025-03-13T1900,4054A,109.0325,32.6913,安康市,市邮政管理局,颗粒物(PM10),51,51,61,24,31,59,,54,54,19,23,7,12,0.6,0.5
2025-03-13T1900,2291A,117.0809,30.5177,安庆市,环科院,,35,30,36,24,32,57,,94,53,22,18,6,6,0.7,0.8
2025-03-13T1900,2292A,117.0331,30.5119,安庆市,马山宾馆,,35,27,34,24,28,56,,95,52,21,12,2,2,0.9,0.9
2025-03-13T1900,2294A,116.9896,30.6145,安庆市,安庆大学,,35,31,43,24,28,61,,102,64,13,7,6,6,0.6,0.6
2025-03-13T1900,3173A,117.0598,30.5351,安庆市,市人大,,38,29,36,26,34,54,,94,50,25,16,5,5,0.7,0.8
2025-03-13T1900,3122A,105.9606,26.2611,安顺市,伍家关,,,,52,22,35,22,,69,23,18,16,10,16,0.8,0.8
2025-03-13T1900,3123A,105.9408,26.2431,安顺市,凤凰山,,35,33,57,24,49,20,,69,21,23,19,22,24,1.0,0.9
2025-03-13T1900,3124A,105.9439,26.2564,安顺市,金钟山,,33,33,54,21,47,22,,69,23,18,15,16,21,0.8,0.7
2025-03-13T1900,3125A,105.8983,26.2481,安顺市,娄家坡,,30,29,62,21,49,18,,66,22,19,16,10,18,0.7,0.8
2025-03-13T1900,1818A,114.4839,36.0621,安阳市,棉研所,,,,,,,,,,,,,,,,
2025-03-13T1900,1819A,114.3551,36.1017,安阳市,红庙街,颗粒物(PM10),123,195,240,45,59,94,,102,102,12,30,3,5,0.6,0.7
2025-03-13T1900,1820A,114.361,36.0681,安阳市,银杏小区,颗粒物(PM10),121,192,226,51,70,99,,110,110,16,36,1,3,0.4,0.5
2025-03-13T1900,3141A,114.3922,36.0878,安阳市,信访局,颗粒物(PM10),124,197,233,52,63,99,,114,114,20,38,3,5,0.3,0.4
2025-03-13T1900,3669A,114.4705,36.0637,安阳市,左辅环卫站,颗粒物(PM10),125,200,264,50,78,90,,116,115,17,36,3,4,0.4,0.4
2025-03-13T1900,3703A,114.2917,36.0949,安阳市,安钢职工学校,颗粒物(PM10),129,208,241,57,72,97,,107,106,16,32,3,4,0.5,0.5
2025-03-13T1900,1748A,123.044,41.1196,鞍山市,深沟寺,细颗粒物(PM2.5),57,62,87,40,24,78,,95,94,16,15,13,12,0.5,0.6
2025-03-13T1900,1749A,123.011,41.0931,鞍山市,太阳城,颗粒物(PM10),81,112,104,52,27,85,,104,103,15,15,7,11,0.7,0.8
2025-03-13T1900,1750A,123.0485,41.1442,鞍山市,太平,颗粒物(PM10),62,73,115,36,30,80,,98,97,16,19,10,11,0.6,0.7
2025-03-13T1900,1751A,122.9642,41.0971,鞍山市,铁西三道街,颗粒物(PM10),55,59,96,28,25,78,,93,92,23,27,11,23,0.7,1
2025-03-13T1900,1753A,123.022,41.0821,鞍山市,明达新区,颗粒物(PM10),55,59,83,36,24,80,,94,94,16,13,9,9,0.6,0.7
2025-03-13T1900,1754A,123.1289,41.0228,鞍山市,千山,,,,69,,8,,,64,,,14,,22,,0.4
2025-03-13T1900,4201A,122.9446,41.0826,鞍山市,兴盛南路290号,颗粒物(PM10),60,70,109,35,30,72,,86,85,34,36,20,21,0.9,0.9
2025-03-13T1900,2195A,107.4212,40.761,巴彦淖尔市,附二中,,,143,118,,40,84,,64,64,20,32,6,11,0.6,0.8
2025-03-13T1900,2196A,107.37,40.7372,巴彦淖尔市,市环保大楼,颗粒物(PM10),71,91,99,49,39,93,,98,98,21,27,6,6,0.4,0.4
2025-03-13T1900,1956A,86.1472,41.7538,巴音郭楞蒙古自治州,孔雀公园,颗粒物(PM10),166,282,171,35,33,101,,94,94,5,19,5,5,0.2,0.3
2025-03-13T1900,1957A,86.1972,41.7166,巴音郭楞蒙古自治州,棉纺厂,颗粒物(PM10),139,227,180,24,23,98,,93,93,7,18,3,3,0.2,0.3
2025-03-13T1900,1958A,86.2357,41.7173,巴音郭楞蒙古自治州,经济开发区,颗粒物(PM10),131,212,140,6,18,102,,97,97,4,8,4,4,0.2,0.2
2025-03-13T1900,2914A,106.7677,31.8794,巴中市,苏山坪,,26,26,16,17,13,69,,67,56,5,6,4,4,0.3,0.4
2025-03-13T1900,3181A,106.7768,31.8526,巴中市,市五中,,28,28,28,16,16,54,,50,50,14,14,4,4,0.6,0.6
2025-03-13T1900,3183A,106.7418,31.8654,巴中市,圣泉水务公司,,28,28,22,18,14,65,,55,55,13,15,7,7,0.6,0.6
2025-03-13T1900,3616A,106.7616,31.8344,巴中市,市中心医院,,35,35,29,22,22,49,,54,54,26,21,6,6,0.5,0.5
2025-03-13T1900,2235A,122.7911,45.6077,白城市,洮北区环保局,细颗粒物(PM2.5),288,257,57,238,43,119,,114,114,31,10,9,4,1.0,0.4
2025-03-13T1900,2236A,122.8738,45.5725,白城市,市环保局,细颗粒物(PM2.5),289,273,58,239,49,66,,108,105,71,9,7,3,0.9,0.4
2025-03-13T1900,2231A,126.4219,41.9171,白山市,喜丰,,27,27,93,13,12,79,,87,85,13,8,5,7,0.9,0.7
2025-03-13T1900,2232A,126.4077,41.9419,白山市,环保局,,30,13,88,13,14,93,,91,91,5,4,5,4,0.6,0.6
2025-03-13T1900,2647A,104.1724,36.5446,白银市,第三小学,颗粒物(PM10),125,199,158,36,43,95,,95,95,8,20,8,43,0.7,1.1
2025-03-13T1900,2648A,104.1465,36.5482,白银市,动力公司,颗粒物(PM10),101,151,132,35,41,97,,97,97,8,16,4,16,0.6,0.9
2025-03-13T1900,2512A,106.6103,23.9011,百色市,市监测站,颗粒物(PM10),52,54,50,18,31,73,,74,74,14,20,13,18,0.9,1
2025-03-13T1900,2513A,106.6538,23.8859,百色市,市中心血站,颗粒物(PM10),51,51,45,16,31,69,,72,72,11,16,14,16,0.8,0.9
2025-03-13T1900,3406A,106.6085,23.8798,百色市,祈福高中,颗粒物(PM10),53,55,55,12,33,72,,72,72,11,22,12,18,0.8,0.9
2025-03-13T1900,2270A,117.396,32.939,蚌埠市,工人疗养院,颗粒物(PM10),55,59,160,36,109,73,,87,86,19,26,3,4,0.5,0.7
2025-03-13T1900,2271A,117.3605,32.9427,蚌埠市,百货大楼,颗粒物(PM10),55,60,158,28,104,65,,77,77,28,30,4,5,0.4,0.7
2025-03-13T1900,2273A,117.4185,32.8911,蚌埠市,蚌埠学院,颗粒物(PM10),52,53,140,30,108,71,,88,86,24,32,3,5,0.4,0.7
2025-03-13T1900,2274A,117.3533,32.9673,蚌埠市,淮上区政府,颗粒物(PM10),54,58,152,34,111,65,,76,73,28,29,4,4,0.4,0.8
2025-03-13T1900,2275A,117.3145,32.8977,蚌埠市,高新区,,48,48,140,27,109,69,,88,84,30,26,5,5,0.4,0.7
2025-03-13T1900,3715A,117.3092,32.9314,蚌埠市,蚌埠田家炳中学,颗粒物(PM10),54,58,156,35,111,74,,88,87,25,29,5,5,0.5,0.7
2025-03-13T1900,1585A,109.8756,40.6532,包头市,市环境监测站,,50,50,73,11,26,69,,82,82,23,47,13,19,0.6,0.9
2025-03-13T1900,1587A,109.9991,40.5842,包头市,包头八中,颗粒物(PM10),60,70,94,16,38,71,,67,67,19,45,6,30,0.4,0.8
2025-03-13T1900,1588A,109.8538,40.6821,包头市,青山宾馆,,37,37,67,10,28,70,,79,79,16,49,8,12,0.4,0.8
2025-03-13T1900,1589A,109.8642,40.6288,包头市,惠龙物流,,46,46,73,16,25,74,,84,84,20,40,9,22,0.5,0.9
2025-03-13T1900,1590A,110.0377,40.5546,包头市,东河鸿龙湾,颗粒物(PM10),65,80,95,10,25,65,,68,68,22,44,6,26,0.4,0.8
2025-03-13T1900,3283A,109.9154,40.5685,包头市,滨河大厦,,48,48,71,13,26,76,,74,74,13,44,13,18,0.5,0.6
2025-03-13T1900,3419A,109.9447,40.6261,包头市,包头市委党校,,46,46,74,11,27,75,,82,82,14,41,20,22,0.5,0.9
2025-03-13T1900,3683A,109.8331,40.6576,包头市,昆区政府,,40,40,74,12,31,73,,76,76,16,48,6,14,0.4,0.8
2025-03-13T1900,1930A,107.185,34.3063,宝鸡市,庙沟村,细颗粒物(PM2.5),90,109,171,67,61,113,,105,105,16,22,7,7,0.5,0.4
2025-03-13T1900,1931A,107.0708,34.3017,宝鸡市,竹园沟,颗粒物(PM10),87,124,164,63,62,109,,104,104,21,22,8,7,0.5,0.5
2025-03-13T1900,1932A,107.1906,34.3672,宝鸡市,三陆医院,颗粒物(PM10),83,116,195,56,72,104,,100,100,24,31,6,7,0.6,0.6
2025-03-13T1900,1933A,107.1431,34.3547,宝鸡市,监测站,颗粒物(PM10),85,120,194,55,64,107,,102,102,23,28,9,9,0.6,0.6
2025-03-13T1900,1934A,107.1186,34.3739,宝鸡市,技工学校,颗粒物(PM10),85,120,193,50,65,104,,100,100,29,27,7,8,0.9,0.9
2025-03-13T1900,1935A,107.3906,34.3528,宝鸡市,陈仓区环保局家属楼,颗粒物(PM10),84,117,191,54,66,102,,103,103,28,39,9,21,0.4,0.5
2025-03-13T1900,1936A,107.2058,34.3497,宝鸡市,文理学院,颗粒物(PM10),83,116,195,54,67,111,,106,106,27,32,7,7,0.3,0.3
2025-03-13T1900,1937A,107.2386,34.3622,宝鸡市,三迪小学,颗粒物(PM10),87,124,194,52,68,101,,101,101,31,33,8,9,0.8,0.8
2025-03-13T1900,1051A,115.493,38.8632,保定市,游泳馆,颗粒物(PM10),119,188,189,64,69,129,,126,126,16,37,10,12,0.3,0.4
2025-03-13T1900,1052A,115.5213,38.8959,保定市,华电二区,颗粒物(PM10),111,171,164,72,67,133,,130,130,13,32,10,11,0.4,0.6
2025-03-13T1900,1053A,115.4713,38.9108,保定市,接待中心,颗粒物(PM10),117,184,184,80,75,128,,123,123,16,36,4,9,0.2,0.5
2025-03-13T1900,1054A,115.4612,38.8416,保定市,地表水厂,颗粒物(PM10),127,204,218,63,70,126,,127,127,19,39,5,8,0.6,0.6
2025-03-13T1900,3581A,115.31981,38.95208,保定市,满城区生态环境分局,颗粒物(PM10),124,197,186,90,74,117,,115,115,22,37,10,10,0.6,0.6
2025-03-13T1900,3582A,115.47694,38.76408,保定市,清苑区第二中学,颗粒物(PM10),135,219,229,62,68,117,,124,124,24,43,9,11,0.4,0.5
2025-03-13T1900,3583A,115.62909,39.02311,保定市,徐水物探局,颗粒物(PM10),142,234,217,70,69,126,,125,125,22,46,11,12,0.3,0.4
2025-03-13T1900,4004A,115.4202,38.8656,保定市,双鹰农机,颗粒物(PM10),118,186,183,78,74,122,,124,124,17,34,2,7,0.6,0.7
2025-03-13T1900,4034A,115.5150,38.8590,保定市,植保所站,颗粒物(PM10),117,183,195,63,77,128,,126,126,21,47,6,8,0.5,0.6
2025-03-13T1900,2594A,99.1678,25.1081,保山市,市环境监测站,颗粒物(PM10),64,77,99,41,68,128,,141,141,10,12,3,4,0.6,0.6
2025-03-13T1900,2595A,99.1711,25.1328,保山市,市环保局,颗粒物(PM10),68,86,101,43,61,132,,145,145,6,9,6,7,0.6,0.8
2025-03-13T1900,1866A,109.2262,21.588,北海市,牛尾岭水库,,,,22,24,17,50,,56,56,,,6,6,0.6,0.5
2025-03-13T1900,1867A,109.1436,21.4086,北海市,海滩公园,,33,33,25,15,14,71,,80,80,9,7,5,5,0.4,0.5
2025-03-13T1900,1868A,109.0981,21.4661,北海市,新市环保局,,25,23,24,17,15,63,,70,70,14,10,3,3,0.5,0.4
2025-03-13T1900,1869A,109.1778,21.5233,北海市,北海工业园,,31,31,29,20,19,52,,68,68,15,12,7,6,0.4,0.4
2025-03-13T1900,3400A,109.1911,21.4415,北海市,龙潭自来水厂,,23,23,24,15,21,60,,74,74,12,8,6,6,0.4,0.4
2025-03-13T1900,1001A,116.3621,39.8784,北京市,万寿西宫,颗粒物(PM10),135,219,170,89,56,91,,98,98,48,52,10,5,0.6,0.4
2025-03-13T1900,1002A,116.2202,40.2915,北京市,定陵,,,,,,,,,,,,,,,,
2025-03-13T1900,1003A,116.4174,39.9289,北京市,东四,颗粒物(PM10),123,195,165,80,54,82,,86,86,48,52,13,8,0.9,0.7
2025-03-13T1900,1004A,116.4072,39.8863,北京市,天坛,颗粒物(PM10),127,204,157,81,55,81,,81,81,46,45,5,3,1.0,0.8
2025-03-13T1900,1005A,116.462,39.9365,北京市,农展馆,颗粒物(PM10),125,200,166,75,52,78,,83,83,45,53,13,10,0.9,0.7
2025-03-13T1900,1006A,116.3392,39.9295,北京市,官园,颗粒物(PM10),135,220,161,89,48,55,,68,68,55,48,12,9,1.0,0.7
2025-03-13T1900,1007A,116.2878,39.9611,北京市,海淀万柳,,,,99,,35,,,66,66,,57,,6,,0.3
2025-03-13T1900,1008A,116.6636,40.135,北京市,顺义新城,颗粒物(PM10),111,171,97,43,29,60,,86,86,41,46,9,8,0.7,0.6
2025-03-13T1900,1009A,116.6275,40.3275,北京市,怀柔镇,颗粒物(PM10),105,160,75,59,28,64,,76,76,40,29,9,6,1.0,0.7
2025-03-13T1900,1010A,116.2296,40.217,北京市,昌平镇,颗粒物(PM10),134,217,125,80,34,68,,60,60,51,37,7,4,0.9,0.6
2025-03-13T1900,1011A,116.3966,39.9821,北京市,奥体中心,颗粒物(PM10),118,185,150,71,46,67,,77,77,52,52,11,7,1.0,0.8
2025-03-13T1900,3281A,115.9718,40.4529,北京市,延庆夏都,颗粒物(PM10),122,193,97,74,32,81,,78,78,42,25,11,6,0.8,0.5
2025-03-13T1900,3418A,116.8336,40.4095,北京市,密云新城,颗粒物(PM10),95,139,62,50,22,71,,84,84,34,19,9,6,0.9,0.6
2025-03-13T1900,3671A,116.088,39.9726,北京市,门头沟三家店,颗粒物(PM10),128,206,164,85,51,51,,54,54,66,50,9,6,0.6,0.4
2025-03-13T1900,3672A,116.1541,39.8204,北京市,丰台云岗,颗粒物(PM10),125,200,173,78,50,51,,98,98,67,52,9,7,0.8,0.6
2025-03-13T1900,3673A,116.6804,39.9081,北京市,通州东关,颗粒物(PM10),109,168,154,43,47,58,,80,80,31,46,10,10,0.7,0.6
2025-03-13T1900,3674A,115.9577,39.7603,北京市,房山燕山,颗粒物(PM10),143,235,167,100,57,95,,95,95,41,28,5,3,0.8,0.5
2025-03-13T1900,3675A,116.4672,39.7733,北京市,大兴旧宫,颗粒物(PM10),123,196,169,78,55,78,,85,85,39,45,6,3,0.7,0.5
2025-03-13T1900,3694A,115.986,40.4563,北京市,延庆石河营,颗粒物(PM10),119,187,100,72,32,82,,77,77,40,31,11,5,0.8,0.5
2025-03-13T1900,3695A,116.6151,40.3053,北京市,怀柔新城,颗粒物(PM10),100,149,71,59,27,63,,76,76,36,21,10,7,0.9,0.7
2025-03-13T1900,3696A,116.2545,39.8768,北京市,丰台小屯,颗粒物(PM10),125,200,168,76,51,47,,75,75,71,61,7,4,0.7,0.5
2025-03-13T1900,3697A,116.84,40.3844,北京市,密云镇,颗粒物(PM10),96,141,70,49,23,73,,89,89,34,34,10,6,0.9,0.6
2025-03-13T1900,4182A,116.1942,39.9158,北京市,八角北路9号,颗粒物(PM10),132,214,169,82,45,62,,76,76,63,52,7,4,0.8,0.6
2025-03-13T1900,4194A,117.0790,40.1518,北京市,洳河巡河路,颗粒物(PM10),94,137,79,49,30,73,,86,86,30,25,8,7,0.7,0.6
2025-03-13T1900,1761A,123.8275,41.3064,本溪市,大峪,,33,33,78,17,18,79,,90,89,11,8,9,9,0.6,0.6
2025-03-13T1900,1762A,123.7567,41.3325,本溪市,溪湖,,43,43,96,16,17,85,,93,89,15,17,8,8,0.5,0.5
2025-03-13T1900,1763A,123.7169,41.3094,本溪市,彩屯,颗粒物(PM10),51,52,99,22,23,77,,85,80,18,19,8,8,0.7,0.7
2025-03-13T1900,1764A,123.7669,41.2864,本溪市,东明,,39,36,90,27,20,70,,84,79,21,18,8,7,0.5,0.6
2025-03-13T1900,1765A,123.7992,41.2664,本溪市,新立屯,细颗粒物(PM2.5),52,,78,36,23,83,,96,92,18,33,11,6,0.6,0.5
2025-03-13T1900,1766A,123.8142,41.3472,本溪市,威宁,,25,23,113,15,20,78,,91,89,11,24,4,4,0.5,0.5
2025-03-13T1900,2587A,105.2864,27.3125,毕节市,八中,,40,38,51,28,33,31,,67,48,20,12,8,8,0.9,0.7
2025-03-13T1900,2588A,105.31,27.2944,毕节市,师专,,23,22,48,16,32,39,,71,52,18,12,7,7,0.8,0.8
2025-03-13T1900,4263A,105.3688,27.3598,毕节市,工业大道,,25,21,45,17,29,46,,66,50,17,13,8,9,0.7,0.6
2025-03-13T1900,1629A,118.0018,37.3617,滨州市,第二水厂,颗粒物(PM10),59,68,112,19,29,64,,113,109,29,29,14,12,0,0.2
2025-03-13T1900,1630A,117.9776,37.393,滨州市,北中新校,颗粒物(PM10),62,73,113,24,28,74,,120,116,38,37,13,13,0.4,0.5
2025-03-13T1900,3514A,117.9378,37.3956,滨州市,中海酒店,,46,46,95,22,32,86,,121,119,24,23,8,12,0.3,0.4
2025-03-13T1900,3515A,117.9378,37.3553,滨州市,开发区一中,颗粒物(PM10),57,63,123,17,31,74,,108,107,32,43,8,13,0.3,0.4
2025-03-13T1900,3516A,118.0917,37.694,滨州市,金海六路,颗粒物(PM10),62,73,99,17,24,79,,123,121,25,26,6,9,0.5,0.7
2025-03-13T1900,4028A,117.9956,37.3753,滨州市,滨州市西街道办事处,颗粒物(PM10),67,83,113,41,35,73,,124,119,31,34,14,11,0.4,0.7
2025-03-13T1900,2311A,115.8072,33.8399,亳州市,污水处理厂,颗粒物(PM10),67,84,158,33,80,85,,112,107,15,18,4,5,0.3,0.5
2025-03-13T1900,2312A,115.7789,33.8518,亳州市,三国揽胜宫,颗粒物(PM10),74,98,174,35,74,78,,103,99,14,16,4,5,0.2,0.4
2025-03-13T1900,3332A,115.7633,33.8034,亳州市,亳州学院,颗粒物(PM10),69,88,165,39,74,76,,107,99,15,18,4,4,0.4,0.6
2025-03-13T1900,2693A,82.0485,44.8556,博尔塔拉蒙古自治州,市党校,,36,35,37,25,17,74,,80,73,13,11,6,6,0.4,0.2
2025-03-13T1900,2694A,82.0806,44.8969,博尔塔拉蒙古自治州,市环保局,,33,33,43,13,13,74,,73,73,14,13,5,5,0.3,0.4
2025-03-13T1900,1071A,116.8842,38.2991,沧州市,沧县城建局,颗粒物(PM10),99,147,151,57,58,106,,123,123,23,30,4,7,0.4,0.5
2025-03-13T1900,1072A,116.8584,38.3254,沧州市,电视转播站,颗粒物(PM10),82,114,144,56,59,110,,123,123,19,31,6,10,0.4,0.5
2025-03-13T1900,1073A,116.8709,38.3228,沧州市,市环保局,颗粒物(PM10),87,124,135,56,53,99,,116,116,22,28,8,11,0.5,0.5
2025-03-13T1900,3324A,116.8136,38.3004,沧州市,河北水利电力学院,颗粒物(PM10),107,163,185,60,56,,,121,121,,31,5,12,0.5,0.5
2025-03-13T1900,2622A,97.1806,31.1273,昌都市,昌都监测站,,24,24,13,13,7,64,,80,80,14,6,7,6,0.6,0.5
2025-03-13T1900,3719A,97.1714,31.1406,昌都市,昌都会议中心,,,10,9,9,7,120,,117,117,2,3,,2,0.2,0.2
2025-03-13T1900,2690A,88.1236,43.8886,昌吉回族自治州,天山天池,,26,14,7,3,4,83,,84,84,4,4,5,5,0.4,0.4
2025-03-13T1900,2692A,87.2717,44.0297,昌吉回族自治州,新区政务中心,,29,19,19,6,4,90,,87,87,11,9,5,5,0.3,0.3
2025-03-13T1900,3613A,87.3095,44.0142,昌吉回族自治州,亚心广场,,27,19,19,12,11,86,,87,87,20,15,5,5,0.3,0.3
2025-03-13T1900,1119A,125.3325,43.9166,长春市,食品厂,,41,41,73,23,21,59,,90,87,39,17,8,7,0.4,0.3
2025-03-13T1900,1120A,125.2863,43.9027,长春市,客车厂,细颗粒物(PM2.5),77,,89,56,23,65,,88,84,35,17,6,4,0.5,0.4
2025-03-13T1900,1121A,125.2841,43.8463,长春市,邮电学院,,39,33,73,27,22,77,,96,95,15,5,6,6,0.4,0.3
2025-03-13T1900,1122A,125.3716,43.8772,长春市,劳动公园,,43,,73,30,20,80,,94,93,14,7,7,6,0.6,0.5
2025-03-13T1900,1123A,125.3297,43.8805,长春市,园林处,,46,,70,32,16,72,,93,91,21,9,12,7,0.3,0.2
2025-03-13T1900,1124A,125.4605,43.79,长春市,净月潭,,29,26,76,20,20,83,,96,96,14,11,6,6,0.3,0.3
2025-03-13T1900,1125A,125.7194,43.515,长春市,甩湾子,,,,,,,,,,,,,,,,
2025-03-13T1900,1126A,125.3863,43.8447,长春市,经开区环卫处,,30,30,71,19,18,61,,90,87,32,12,20,7,0.4,0.4
2025-03-13T1900,1127A,125.245,43.7783,长春市,高新区管委会,,,,,,,,,,,,,,,,
2025-03-13T1900,1128A,125.1761,43.8325,长春市,岱山公园,细颗粒物(PM2.5),58,55,73,41,21,52,,98,92,47,14,8,5,0.4,0.3
2025-03-13T1900,1335A,113.0833,28.2325,长沙市,经开区环保局,细颗粒物(PM2.5),59,46,56,42,59,17,,58,32,38,24,5,5,0.7,0.6
2025-03-13T1900,1336A,112.8872,28.2189,长沙市,高开区环保局,细颗粒物(PM2.5),58,45,61,41,62,42,,68,47,13,11,3,4,0.8,0.7
2025-03-13T1900,1337A,113.0792,28.2053,长沙市,马坡岭,细颗粒物(PM2.5),55,46,57,39,50,21,,60,36,28,17,3,3,0.8,0.6
2025-03-13T1900,1338A,112.9394,28.19,长沙市,湖南师范大学,细颗粒物(PM2.5),58,45,65,41,54,39,,66,46,13,8,4,3,0.8,0.7
2025-03-13T1900,1339A,113.0178,28.1322,长沙市,雨花区环保局,细颗粒物(PM2.5),60,,52,43,62,25,,59,37,30,22,4,4,0.7,0.7
2025-03-13T1900,1340A,112.9792,28.2597,长沙市,伍家岭,,,54,71,45,62,28,,60,34,,15,2,2,,0.6
2025-03-13T1900,1341A,113.0014,28.1944,长沙市,火车新站,细颗粒物(PM2.5),62,,56,44,57,31,,66,41,23,14,5,5,0.8,0.7
2025-03-13T1900,1342A,112.9844,28.1178,长沙市,天心区环保局,颗粒物(PM10),51,52,62,31,44,33,,65,45,30,22,2,2,0.8,0.7
2025-03-13T1900,1343A,112.8908,28.1308,长沙市,湖南中医药大学,细颗粒物(PM2.5),73,54,60,53,61,40,,66,48,15,10,2,2,0.5,0.5
2025-03-13T1900,1344A,112.9581,28.3611,长沙市,沙坪,,44,44,65,23,35,37,,60,38,16,11,5,5,1.0,0.9
2025-03-13T1900,1727A,113.1147,36.1547,长治市,清华站,细颗粒物(PM2.5),77,89,114,56,40,112,,115,115,18,20,7,10,0.9,0.9
2025-03-13T1900,1730A,113.0886,36.2125,长治市,审计局,,,87,117,58,45,,,119,119,17,24,6,11,0.5,0.6
2025-03-13T1900,1731A,113.0844,36.1856,长治市,长治八中,细颗粒物(PM2.5),90,116,151,67,52,122,,123,123,16,20,7,11,0.4,0.6
2025-03-13T1900,2845A,113.1569,36.1911,长治市,德盛苑,细颗粒物(PM2.5),83,95,112,61,40,118,,119,119,14,15,3,8,0.7,1
2025-03-13T1900,3568A,113.06,36.0464,长治市,向阳小学,细颗粒物(PM2.5),109,127,144,82,52,119,,117,117,14,15,8,12,0.6,0.6
2025-03-13T1900,3569A,112.8792,36.3144,长治市,屯留一中,细颗粒物(PM2.5),99,108,133,74,47,119,,122,122,21,31,8,10,0.2,0.5
2025-03-13T1900,4189A,113.1131,36.19948,长治市,英华南巷50号,细颗粒物(PM2.5),79,94,120,58,43,129,,128,128,19,21,8,16,0.5,0.7
2025-03-13T1900,4190A,113.2367,36.3344,长治市,学府街1号,细颗粒物(PM2.5),90,96,160,67,57,123,,125,125,7,40,2,6,0.6,0.8
2025-03-13T1900,1854A,111.6975,28.9703,常德市,市二中,,,,75,,56,43,,59,59,29,19,4,4,0.8,0.7
2025-03-13T1900,1857A,111.7158,29.1456,常德市,白鹤山,,,,,,,,,,,,,,,,
2025-03-13T1900,3138A,111.7153,29.0289,常德市,武陵区永安,细颗粒物(PM2.5),78,103,79,57,48,60,,62,62,19,15,2,4,0.7,0.6
2025-03-13T1900,3139A,111.6892,28.9881,常德市,鼎城区玉霞,颗粒物(PM10),86,122,92,48,44,38,,57,57,36,23,4,4,0.9,0.7
2025-03-13T1900,3140A,111.6625,29.0531,常德市,武陵区长庚,颗粒物(PM10),72,93,85,47,45,68,,62,62,10,14,4,5,0.7,0.7
2025-03-13T1900,1196A,119.9633,31.762,常州市,市监测站,,41,41,56,25,38,50,,70,68,41,25,9,9,0.5,0.7
2025-03-13T1900,1200A,119.9468,31.7069,常州市,武进监测站,,45,45,56,30,35,40,,66,62,56,33,11,10,0.7,0.8
2025-03-13T1900,1201A,119.9255,31.9087,常州市,安家,,41,41,54,14,34,49,,60,51,47,34,9,9,0.6,0.8
2025-03-13T1900,3002A,119.9805,31.8174,常州市,行政中心,,40,40,50,21,37,42,,64,61,47,29,3,12,0.5,0.6
2025-03-13T1900,3003A,120.0522,31.7748,常州市,经开区,,,51,63,23,33,50,,71,69,50,36,8,7,,0.7
2025-03-13T1900,3010A,119.9025,31.7964,常州市,钟楼,,36,36,53,22,35,63,,68,68,31,26,7,7,0.6,0.8
2025-03-13T1900,3429A,119.8598,31.7066,常州市,武进经发区,,49,49,47,20,29,47,,69,66,55,36,8,7,0.6,0.7
2025-03-13T1900,3430A,119.5826,31.7245,常州市,金坛城区,,43,43,48,18,27,55,,70,68,36,24,7,7,0.6,0.7
2025-03-13T1900,2220A,120.4318,41.5881,朝阳市,西梁,颗粒物(PM10),58,66,53,18,34,70,,88,87,13,27,6,9,0.5,0.6
2025-03-13T1900,2221A,120.4521,41.5646,朝阳市,河畔小区,,46,46,35,16,15,80,,91,91,12,26,7,8,0.5,0.6
2025-03-13T1900,2222A,120.4176,41.5648,朝阳市,八里堡,颗粒物(PM10),73,95,51,25,22,73,,87,85,10,32,9,11,0.6,0.7
2025-03-13T1900,2223A,120.3806,41.5969,朝阳市,农业园区,颗粒物(PM10),63,75,42,28,18,70,,90,89,23,26,8,10,0.5,0.5
2025-03-13T1900,1705A,116.6367,23.6719,潮州市,西园路,细颗粒物(PM2.5),59,56,37,42,20,74,,96,96,22,16,5,3,0.4,0.2
2025-03-13T1900,3026A,116.6183,23.6608,潮州市,市政府,颗粒物(PM10),61,72,55,40,33,84,,92,92,28,28,6,8,0.8,0.9
2025-03-13T1900,4036A,116.6461,23.6761,潮州市,金山,颗粒物(PM10),54,57,38,34,21,76,,100,100,21,18,7,5,0.7,0.8
2025-03-13T1900,2472A,113.0073,25.9061,郴州市,马头岭,,38,37,42,26,19,47,,48,48,14,11,7,7,1.1,0.7
2025-03-13T1900,2473A,113.0116,25.8226,郴州市,市职中,细颗粒物(PM2.5),63,,37,45,34,54,,49,49,19,16,5,5,0.9,0.9
2025-03-13T1900,2475A,113.0383,25.8071,郴州市,市审计局,细颗粒物(PM2.5),54,42,35,38,33,58,,49,49,13,14,2,2,0.8,0.8
2025-03-13T1900,2476A,113.0348,25.7759,郴州市,市环保局,细颗粒物(PM2.5),54,51,38,38,36,44,,35,35,17,15,4,4,0.8,0.8
2025-03-13T1900,4252A,113.0138,25.8011,郴州市,好美居路49号,细颗粒物(PM2.5),52,,38,36,38,55,,46,46,18,15,6,6,0.9,0.9
2025-03-13T1900,1431A,103.9728,30.7236,成都市,金泉两河,颗粒物(PM10),73,96,112,40,32,62,,66,66,29,29,2,2,0.6,0.5
2025-03-13T1900,1432A,104.176,30.6872,成都市,十里店,颗粒物(PM10),70,89,87,48,30,61,,71,71,38,27,3,2,0.7,0.6
2025-03-13T1900,1433A,104.079,30.5706,成都市,三瓦窑,颗粒物(PM10),74,98,86,29,25,49,,64,58,51,31,4,4,0.8,0.6
2025-03-13T1900,1434A,104.1114,30.63,成都市,沙河铺,颗粒物(PM10),70,90,78,39,30,48,,64,63,41,24,5,5,0.8,0.7
2025-03-13T1900,1437A,104.0786,30.6531,成都市,君平街,颗粒物(PM10),72,93,84,42,34,55,,68,67,46,27,5,6,0.7,0.6
2025-03-13T1900,1438A,103.613,31.0283,成都市,灵岩寺,,,,,,,,,,,,,,,,
2025-03-13T1900,2880A,104.0239,30.65639,成都市,大石西路,颗粒物(PM10),76,101,88,41,33,45,,63,62,48,27,5,5,0.8,0.7
2025-03-13T1900,3136A,104.2725,30.5589,成都市,龙泉驿区区政府,颗粒物(PM10),56,61,60,19,22,50,,63,62,28,16,4,4,0.6,0.5
2025-03-13T1900,3357A,104.0106,30.6931,成都市,金博路,颗粒物(PM10),66,82,88,31,24,49,,60,58,34,25,6,6,0.7,0.7
2025-03-13T1900,3359A,104.0578,30.5225,成都市,华阳,颗粒物(PM10),69,88,76,36,33,48,,59,59,46,30,5,5,0.8,0.6
2025-03-13T1900,3488A,104.3853,30.7453,成都市,青白江技师分院,颗粒物(PM10),54,58,63,28,26,55,,77,76,33,26,4,5,0.5,0.4
2025-03-13T1900,3489A,104.0789,30.4072,成都市,科学城,颗粒物(PM10),60,69,76,35,28,60,,69,68,30,21,4,4,0.7,0.6
2025-03-13T1900,4011A,103.8506,30.6947,成都市,光华大道三段,颗粒物(PM10),73,95,100,37,34,63,,71,71,33,30,4,4,0.7,0.6
2025-03-13T1900,4224A,104.2433,30.5353,成都市,鲸龙路1057号,颗粒物(PM10),59,68,82,30,29,56,,67,67,35,23,4,4,0.7,0.6
2025-03-13T1900,1062A,117.9531,40.9081,承德市,铁路,颗粒物(PM10),95,140,57,32,17,77,,83,83,26,25,12,8,0.7,0.5
2025-03-13T1900,1063A,117.9392,40.9763,承德市,中国银行,颗粒物(PM10),97,144,59,35,18,86,,88,88,20,20,9,5,0.8,0.5
2025-03-13T1900,1064A,117.9503,40.928,承德市,开发区,颗粒物(PM10),84,118,55,39,23,92,,92,92,23,31,11,7,0.6,0.6
2025-03-13T1900,1065A,117.8051,40.9655,承德市,文化中心,颗粒物(PM10),99,147,68,35,17,86,,87,87,23,30,10,6,0.7,0.5
2025-03-13T1900,1066A,117.9268,41.0026,承德市,离宫,颗粒物(PM10),84,117,52,41,21,74,,79,79,18,18,10,7,0.8,0.4
2025-03-13T1900,2314A,117.47,30.6618,池州市,池州学院,,28,25,35,19,28,68,,67,61,17,21,4,5,0.6,0.7
2025-03-13T1900,3237A,117.4918,30.6617,池州市,展览馆,,29,25,32,20,28,69,,72,63,14,16,4,4,0.6,0.7
2025-03-13T1900,3333A,117.5627,30.695,池州市,第八中学,,29,26,29,20,23,71,,71,62,14,16,4,4,0.5,0.6
2025-03-13T1900,3334A,117.5038,30.6243,池州市,第十二中学,,22,18,25,15,21,62,,79,61,17,13,2,2,0.6,0.7
2025-03-13T1900,1744A,118.9233,42.2816,赤峰市,松山一中,,,48,39,11,10,61,,75,72,,33,,11,0.9,0.8
2025-03-13T1900,1745A,118.9576,42.2728,赤峰市,哈达街,,46,46,33,31,19,52,,69,69,38,28,11,12,0.8,0.7
2025-03-13T1900,1746A,118.8788,42.2554,赤峰市,天义路,,42,,32,29,22,54,,62,62,30,29,9,11,0.6,0.6
2025-03-13T1900,3058A,119.2658,42.0353,赤峰市,银河街,,,48,54,22,31,,,69,69,23,30,14,22,0.5,0.7
2025-03-13T1900,3286A,118.9359,42.3147,赤峰市,桥北物流园区,,40,40,30,25,21,60,,67,67,19,25,8,9,0.4,0.5
2025-03-13T1900,2521A,107.3476,22.4136,崇左市,市环保局江州分局,,20,20,37,11,21,40,,44,44,9,16,5,6,0.5,0.6
2025-03-13T1900,4256A,107.3750,22.3736,崇左市,石景林东路7号,,20,19,46,14,23,45,,45,45,10,22,3,4,0.4,0.6
2025-03-13T1900,2298A,118.3093,32.3153,滁州市,老年大学,颗粒物(PM10),52,54,102,32,89,60,,84,73,30,24,7,8,0.5,0.7
2025-03-13T1900,2299A,118.3244,32.2786,滁州市,人大宾馆,颗粒物(PM10),51,51,104,25,86,58,,78,70,40,32,7,7,0.5,0.7
2025-03-13T1900,3207A,118.3118,32.3038,滁州市,市政府原办公楼,,46,45,100,32,85,62,,81,70,28,21,4,5,0.4,0.5
2025-03-13T1900,3331A,118.3267,32.2634,滁州市,图书馆,颗粒物(PM10),53,55,108,25,76,61,,79,70,31,25,7,6,0.4,0.5
2025-03-13T1900,2605A,101.5482,25.0441,楚雄彝族自治州,州环境监测站,细颗粒物(PM2.5),92,81,68,68,56,154,,150,150,10,22,7,8,0.8,0.8
2025-03-13T1900,2606A,101.538,25.0492,楚雄彝族自治州,市经济开发区,细颗粒物(PM2.5),93,91,73,69,57,147,,146,146,13,24,6,8,0.8,0.8
2025-03-13T1900,2548A,107.5277,31.2827,达州市,达州职业技术学院,颗粒物(PM10),55,60,33,23,14,47,,45,45,21,19,7,9,0.2,0.2
2025-03-13T1900,2549A,107.5086,31.2186,达州市,市环境监测站,颗粒物(PM10),56,61,34,24,13,46,,34,34,28,31,5,7,0.6,0.6
2025-03-13T1900,2550A,107.4988,31.2132,达州市,凤凰小区,,46,46,28,19,15,50,,43,43,28,29,7,9,0.5,0.4
2025-03-13T1900,2551A,107.5082,31.1986,达州市,达县机关宾馆,细颗粒物(PM2.5),54,56,28,38,16,51,,45,45,24,27,5,8,0.8,0.7
2025-03-13T1900,2552A,107.4644,31.2124,达州市,市政中心,颗粒物(PM10),55,59,39,24,13,43,,39,39,30,29,3,5,0.5,0.5
2025-03-13T1900,2614A,100.1542,25.7054,大理白族自治州,大理市环境监测站,细颗粒物(PM2.5),78,73,75,57,57,138,,144,136,10,9,7,8,0.8,0.7
2025-03-13T1900,2615A,100.2171,25.5811,大理白族自治州,大理古城,细颗粒物(PM2.5),67,60,67,48,56,127,,133,125,10,11,6,7,0.7,0.7
2025-03-13T1900,1109A,121.612,38.9741,大连市,甘井子,颗粒物(PM10),56,61,61,11,20,77,,87,85,23,46,5,9,1.5,0.7
2025-03-13T1900,1110A,121.565,38.9511,大连市,周水子,颗粒物(PM10),54,58,56,14,21,72,,79,77,22,47,10,10,0.4,0.7
2025-03-13T1900,1111A,121.5637,38.8845,大连市,星海三站,,42,42,47,8,17,83,,91,91,7,19,6,9,0.5,0.8
2025-03-13T1900,1112A,121.6302,38.9117,大连市,青泥洼桥,,45,45,36,12,14,83,,91,90,12,22,10,9,0.3,0.4
2025-03-13T1900,1113A,121.6251,38.8638,大连市,傅家庄,,44,44,49,3,12,91,,88,88,9,19,6,10,0.5,0.6
2025-03-13T1900,1114A,121.5213,38.8661,大连市,七贤岭,,40,40,42,10,13,86,,83,83,9,15,6,6,0.6,0.7
2025-03-13T1900,1115A,121.2529,38.8061,大连市,旅顺,,48,48,51,10,21,76,,77,77,20,28,6,7,0.4,0.5
2025-03-13T1900,1116A,121.7485,39.1311,大连市,金州,颗粒物(PM10),58,66,51,17,13,78,,90,89,19,21,9,11,0.4,0.6
2025-03-13T1900,1117A,121.7811,39.0496,大连市,开发区,颗粒物(PM10),51,51,64,10,23,76,,80,80,22,47,9,14,0.6,0.8
2025-03-13T1900,1118A,121.9762,39.0631,大连市,双D港,颗粒物(PM10),51,52,65,10,15,74,,87,86,20,18,10,11,0.7,0.8
2025-03-13T1900,1789A,124.81117,46.03138,大庆市,大同区,,30,30,17,18,16,75,,84,84,14,5,2,3,0.4,0.3
2025-03-13T1900,1790A,125.129,46.533,大庆市,龙凤区,,23,23,30,16,15,68,,81,80,23,10,5,5,0.5,0.4
2025-03-13T1900,1791A,124.902,46.408,大庆市,红岗区,,32,,20,22,18,77,,96,94,19,6,4,4,0.4,0.3
2025-03-13T1900,1792A,125.153,46.586,大庆市,萨尔图区,,36,36,23,11,10,62,,78,77,30,12,5,6,0.3,0.3
2025-03-13T1900,1793A,124.9042,46.6215,大庆市,让胡路区,,36,,21,25,19,74,,82,82,16,8,7,7,0.4,0.4
2025-03-13T1900,3481A,125.141,46.634,大庆市,萨区政府监测点,,27,16,22,14,12,84,,87,87,8,7,4,4,0.4,0.4
2025-03-13T1900,1721A,113.3819,40.1097,大同市,果树场,颗粒物(PM10),60,70,96,21,50,86,,89,89,20,39,13,15,0.5,1.1
2025-03-13T1900,1723A,113.2994,40.0758,大同市,云冈宾馆,颗粒物(PM10),60,69,113,20,39,93,,94,94,22,42,9,14,0.5,1.2
2025-03-13T1900,1724A,113.3444,40.0917,大同市,大同大学,颗粒物(PM10),67,84,94,25,39,81,,88,88,28,35,12,24,0.5,0.9
2025-03-13T1900,1725A,113.2661,40.1269,大同市,安家小村,颗粒物(PM10),71,92,124,10,43,91,,86,86,15,37,10,17,0.5,1.9
2025-03-13T1900,1726A,113.2711,40.0844,大同市,教育学院,颗粒物(PM10),68,85,135,21,52,91,,87,87,24,54,8,16,0.4,1.7
2025-03-13T1900,3282A,113.3397,40.0597,大同市,大同市卫生学校,颗粒物(PM10),67,83,109,21,44,90,,91,91,21,39,12,17,0.6,0.9
2025-03-13T1900,3565A,113.1367,40.1122,大同市,云冈站,颗粒物(PM10),71,92,115,25,38,80,,81,81,20,36,13,27,0.6,0.8
2025-03-13T1900,3566A,113.1186,40.2556,大同市,图书馆,颗粒物(PM10),81,112,84,24,32,74,,83,83,16,15,15,13,0.9,0.6
2025-03-13T1900,3567A,113.5931,40.0461,大同市,区一中,颗粒物(PM10),73,96,137,29,50,93,,98,98,16,23,18,22,0.4,0.7
2025-03-13T1900,4199A,113.2798,40.0997,大同市,魏都大道141号,颗粒物(PM10),72,93,140,24,51,87,,87,87,22,48,13,20,0.5,1.8
2025-03-13T1900,2269A,124.1069,50.4097,大兴安岭地区,科技局,,33,25,23,23,18,82,,80,80,4,3,5,6,0.4,0.4
2025-03-13T1900,3663A,124.1164,50.4278,大兴安岭地区,红旗社区,,27,,8,11,7,84,,84,84,5,4,5,4,0.3,0.3
2025-03-13T1900,1600A,124.3303,40.0625,丹东市,江湾东路,颗粒物(PM10),68,86,96,42,24,69,,93,91,31,16,18,13,0.8,0.9
2025-03-13T1900,1601A,124.4256,40.1503,丹东市,临江后街,颗粒物(PM10),56,61,63,27,13,67,,91,87,29,18,8,10,0.7,0.6
2025-03-13T1900,1602A,124.3933,40.1461,丹东市,元宝山,颗粒物(PM10),52,54,61,18,13,68,,86,84,19,9,7,9,0.8,0.7
2025-03-13T1900,1603A,124.3633,40.1092,丹东市,民主桥,颗粒物(PM10),55,60,80,31,15,55,,83,80,41,21,12,9,1.0,0.9
2025-03-13T1900,3541A,109.5726,19.5167,儋州市,第一中学子站,,34,34,19,17,10,36,,36,36,9,3,4,4,0.6,0.6
2025-03-13T1900,3542A,109.5567,19.5187,儋州市,东坡学校子站,,33,25,22,23,10,43,,42,42,11,5,6,6,0.6,0.5
2025-03-13T1900,2616A,98.5842,24.428,德宏傣族景颇族自治州,德宏州监测站,细颗粒物(PM2.5),98,120,125,73,89,117,,123,123,18,26,8,11,0.8,1
2025-03-13T1900,3677A,98.5881,24.4368,德宏傣族景颇族自治州,芒市人民政府综合楼,细颗粒物(PM2.5),102,143,147,76,89,141,,148,148,14,18,9,11,0.6,0.7
2025-03-13T1900,1901A,104.4239,31.1208,德阳市,东山公园,,45,45,76,29,36,58,,82,81,36,13,3,3,0.7,0.6
2025-03-13T1900,1902A,104.3826,31.1317,德阳市,西小区,颗粒物(PM10),62,73,86,41,37,70,,82,82,30,18,3,4,0.6,0.5
2025-03-13T1900,1904A,104.3553,31.1091,德阳市,耐火材料厂,颗粒物(PM10),70,90,80,41,38,64,,81,80,37,21,6,6,0.5,0.4
2025-03-13T1900,3639A,104.4019,31.1244,德阳市,市教育局,,50,50,76,33,38,57,,83,81,39,18,4,5,0.7,0.6
2025-03-13T1900,1622A,116.3032,37.4674,德州市,儿童乐园,颗粒物(PM10),103,156,196,53,57,102,,118,118,28,34,7,11,0.8,0.8
2025-03-13T1900,1624A,116.2991,37.4451,德州市,监理站,颗粒物(PM10),106,161,190,51,59,100,,116,116,27,32,12,17,0.7,0.7
2025-03-13T1900,3066A,116.2721,37.4379,德州市,九衢泉纯净水厂,颗粒物(PM10),102,153,187,61,56,92,,112,112,34,44,10,13,0.7,0.7
2025-03-13T1900,3371A,116.3728,37.4403,德州市,开发区人民医院,颗粒物(PM10),103,156,191,44,53,107,,122,122,29,36,12,16,0.5,0.6
2025-03-13T1900,3372A,116.3572,37.4094,德州市,太阳城中学,颗粒物(PM10),103,156,178,46,58,,,116,116,28,44,7,11,0.4,0.6
2025-03-13T1900,3511A,116.5652,37.3319,德州市,陵城艺术中心,颗粒物(PM10),102,153,186,53,56,85,,110,107,40,42,15,14,0.8,0.8
2025-03-13T1900,2621A,99.7056,27.8317,迪庆藏族自治州,迪庆州站,,32,28,41,18,27,100,,112,112,14,11,8,8,0.7,0.6
2025-03-13T1900,3180A,99.7136,27.8094,迪庆藏族自治州,质量技术监督局,颗粒物(PM10),97,143,42,31,28,95,,113,112,21,13,8,8,0.8,0.7
2025-03-13T1900,4257A,104.6092,35.5962,定西市,将台街,颗粒物(PM10),73,96,180,32,48,104,,103,103,12,14,8,10,2.5,0.7
2025-03-13T1900,4309A,104.6159,35.5701,定西市,正龙路62号,颗粒物(PM10),161,272,189,102,52,102,,106,106,20,11,9,7,,1
2025-03-13T1900,1389A,113.7547,23.0494,东莞市,莞城梨川,,31,31,30,15,17,57,,92,90,21,31,5,6,0.6,0.6
2025-03-13T1900,1390A,113.7944,23.0128,东莞市,东城石井,,29,29,28,15,13,50,,95,91,22,26,5,5,0.5,0.6
2025-03-13T1900,1391A,113.7383,22.9658,东莞市,南城西平,,24,24,29,12,12,39,,79,77,23,35,5,4,0.6,0.6
2025-03-13T1900,3319A,113.7338,23.0381,东莞市,万江金泰,,30,30,43,13,14,60,,104,104,16,26,5,6,0.7,0.7
2025-03-13T1900,3626A,113.7533,23.0202,东莞市,南城元岭,,27,27,30,12,13,46,,82,81,18,28,4,5,0.6,0.7
2025-03-13T1900,3627A,113.7875,23.0457,东莞市,东城主山,,34,34,31,11,12,60,,102,99,25,32,8,8,0.6,0.6
2025-03-13T1900,1666A,118.6614,37.4309,东营市,市环保局,,44,44,62,9,15,87,,99,97,22,30,3,8,0.6,0.8
2025-03-13T1900,3036A,118.6904,37.4338,东营市,开发区管委会,颗粒物(PM10),53,56,64,14,17,88,,98,98,35,32,3,7,0.6,0.7
2025-03-13T1900,3365A,118.5719,37.565,东营市,垦利区民丰路,颗粒物(PM10),51,51,59,9,13,88,,101,101,30,31,6,6,0.5,0.6
2025-03-13T1900,3498A,118.5055,37.8612,东营市,河口城区,颗粒物(PM10),64,78,80,29,21,83,,114,113,38,34,4,5,0.5,0.5
2025-03-13T1900,3646A,118.4978,37.4623,东营市,胜利站,颗粒物(PM10),55,59,72,14,14,79,,98,98,40,42,7,10,0.6,0.6
2025-03-13T1900,3734A,118.35,37.26,东营市,理想之城,颗粒物(PM10),57,63,64,17,18,81,,108,105,29,43,6,9,0.4,0.5
2025-03-13T1900,1591A,110.0023,39.8129,鄂尔多斯市,综合楼,颗粒物(PM10),76,102,94,24,20,74,,88,88,33,28,12,10,0.7,0.5
2025-03-13T1900,1592A,109.9486,39.8261,鄂尔多斯市,巴音孟克林场办事处,颗粒物(PM10),74,97,89,31,24,68,,89,88,41,29,11,12,0.5,0.4
2025-03-13T1900,1593A,109.7736,39.5986,鄂尔多斯市,康泽苑,颗粒物(PM10),73,95,92,22,22,74,,95,92,25,20,6,10,0.4,0.4
2025-03-13T1900,1594A,109.8119,39.5989,鄂尔多斯市,华泰汽车城,颗粒物(PM10),71,92,92,22,27,77,,92,92,25,25,6,6,0.3,0.3
2025-03-13T1900,1595A,109.9734,39.7884,鄂尔多斯市,奥林花园,颗粒物(PM10),71,92,95,24,23,79,,89,89,28,34,10,9,0.7,0.4
2025-03-13T1900,2436A,114.8938,30.3994,鄂州市,市政府,颗粒物(PM10),53,56,65,34,48,58,,66,63,26,26,3,4,0.5,0.6
2025-03-13T1900,2437A,114.8989,30.3714,鄂州市,赵家坝,细颗粒物(PM2.5),57,58,63,40,47,63,,70,69,16,16,3,3,0.9,0.9
2025-03-13T1900,3654A,114.8094,30.4089,鄂州市,精准医疗中心,细颗粒物(PM2.5),52,51,62,36,52,60,,58,54,3,17,4,4,1.3,1.3
2025-03-13T1900,2454A,109.4978,30.2981,恩施土家族苗族自治州,湖北民院,细颗粒物(PM2.5),64,67,51,46,37,44,,43,43,35,25,3,3,0.4,0.6
2025-03-13T1900,2455A,109.4707,30.2798,恩施土家族苗族自治州,州电力总公司,,,,53,,37,,,36,36,35,23,5,4,,0.2
2025-03-13T1900,3549A,109.5061,30.3772,恩施土家族苗族自治州,龙凤新区,颗粒物(PM10),59,67,47,38,28,43,,59,59,18,14,6,6,0.5,0.5
2025-03-13T1900,2499A,108.3411,21.6158,防城港市,沙万,颗粒物(PM10),61,72,39,24,19,32,,39,39,38,23,9,9,0.6,0.7
2025-03-13T1900,2500A,108.3514,21.7731,防城港市,防城档案局,,,44,33,25,20,125,,57,57,,20,9,7,0.5,0.6
2025-03-13T1900,2501A,108.3506,21.6414,防城港市,大海花园,,50,50,34,19,18,49,,56,56,33,18,7,6,0.7,0.9
2025-03-13T1900,1371A,113.1294,23.0067,佛山市,湾梁,,46,46,34,19,13,88,,97,97,23,24,7,7,0.6,0.5
2025-03-13T1900,1372A,113.1083,23.0478,佛山市,华材职中,,46,46,31,19,14,113,,123,123,25,25,6,6,0.5,0.5
2025-03-13T1900,1373A,113.144,23.0453,佛山市,南海气象局,,40,40,34,20,16,93,,110,110,27,22,6,6,0.5,0.5
2025-03-13T1900,1374A,113.2881,22.8094,佛山市,顺德苏岗,颗粒物(PM10),53,55,40,27,15,61,,78,78,21,28,6,5,0.7,0.6
2025-03-13T1900,1376A,112.8383,22.8678,佛山市,高明孔堂,,25,25,29,16,19,70,,78,78,7,11,4,4,0.5,0.5
2025-03-13T1900,1377A,112.8836,23.1588,佛山市,三水监测站,,46,46,31,20,23,42,,86,86,67,40,2,2,0.5,0.5
2025-03-13T1900,1378A,112.867,23.185,佛山市,三水云东海,,45,45,39,18,19,72,,106,106,40,36,3,2,0.5,0.5
2025-03-13T1900,3625A,113.2544,22.7642,佛山市,容桂街道办,,,,,,,,,,,,,,,,
2025-03-13T1900,1280A,119.3903,26.0543,福州市,鼓山,,,,31,,23,,,71,,,13,,2,,0.4
2025-03-13T1900,1282A,119.2681,26.0504,福州市,师大,,31,17,45,3,33,99,,99,99,12,20,3,4,0.3,0.4
2025-03-13T1900,1283A,119.2984,26.1028,福州市,五四北路,,30,12,46,3,35,95,,94,94,18,33,3,4,0.4,0.6
2025-03-13T1900,1284A,119.2648,26.0768,福州市,杨桥西路,,30,16,47,3,33,96,,99,99,16,23,3,4,0.3,0.4
2025-03-13T1900,1285A,119.317,26.0746,福州市,紫阳,,28,16,47,3,24,89,,87,87,26,36,3,4,0.2,0.3
2025-03-13T1900,3048A,119.5799,26.0936,福州市,九龙,,35,13,23,3,17,112,,100,100,7,12,3,3,0.3,0.4
2025-03-13T1900,3526A,119.5189,25.9664,福州市,吴航,,,6,33,3,19,115,,102,102,12,19,,4,0.2,0.4
2025-03-13T1900,1755A,123.7977,41.8491,抚顺市,望花区,细颗粒物(PM2.5),54,45,94,38,18,86,,94,93,21,23,2,3,0.8,0.7
2025-03-13T1900,1756A,123.9161,41.8822,抚顺市,顺城区,,50,50,83,32,16,80,,95,92,28,22,10,7,0.6,0.4
2025-03-13T1900,1757A,124.0436,41.8611,抚顺市,东洲区,颗粒物(PM10),52,53,94,34,18,77,,92,90,23,15,10,7,0.7,0.5
2025-03-13T1900,1758A,123.9247,41.8642,抚顺市,新抚区,,42,42,89,26,16,84,,90,89,22,18,7,5,0.6,0.5
2025-03-13T1900,1759A,124.0972,41.8961,抚顺市,大伙房水库,细颗粒物(PM2.5),99,88,86,74,20,74,,102,98,35,15,10,8,0.8,0.5
2025-03-13T1900,1760A,123.7086,41.8391,抚顺市,沈抚新城,细颗粒物(PM2.5),84,,93,62,18,64,,93,90,41,28,6,5,0.8,0.6
2025-03-13T1900,2376A,116.2127,28.0814,抚州市,桐源党溪,,36,36,37,20,23,46,,60,56,3,3,2,2,0.6,0.6
2025-03-13T1900,2377A,116.3544,27.9831,抚州市,市站,,20,20,29,14,19,31,,55,48,11,15,6,7,1.2,0.8
2025-03-13T1900,2378A,116.3565,27.963,抚州市,血防站,,,34,34,15,21,,,57,57,13,10,5,11,,0.7
2025-03-13T1900,2379A,116.3564,28.0007,抚州市,采茶剧团,,24,24,29,14,20,44,,51,50,8,8,5,10,1.0,1.1
2025-03-13T1900,2380A,116.385,27.9647,抚州市,医学分院,,27,27,28,14,18,43,,50,48,2,3,8,4,0.9,1
2025-03-13T1900,2207A,121.6094,41.998,阜新市,工业园区,,24,20,86,16,31,74,,88,87,16,27,7,11,0.4,0.5
2025-03-13T1900,2208A,121.6697,42.0279,阜新市,长青街,,30,28,37,21,18,77,,94,93,18,24,6,6,0.5,0.5
2025-03-13T1900,2209A,121.6673,42.0705,阜新市,农业园区,,49,39,38,34,9,75,,93,91,19,13,8,7,0.3,0.2
2025-03-13T1900,2210A,121.6717,42.0224,阜新市,东苑,,42,35,56,29,17,70,,90,88,26,23,10,11,0.6,0.6
2025-03-13T1900,2211A,121.6506,42.0498,阜新市,玉龙新城,,40,37,61,28,19,65,,88,86,24,29,7,6,0.4,0.4
2025-03-13T1900,2301A,115.8277,32.8929,阜阳市,市监测站,颗粒物(PM10),56,62,142,35,110,66,,86,84,22,20,7,6,0.5,0.7
2025-03-13T1900,2303A,115.8554,32.8605,阜阳市,开发区,颗粒物(PM10),62,74,151,32,107,69,,87,83,24,25,6,6,0.5,0.7
2025-03-13T1900,2875A,115.784,32.8892,阜阳市,阜阳职业技术学院,颗粒物(PM10),56,62,143,34,106,67,,82,80,17,18,7,7,0.4,0.7
2025-03-13T1900,3468A,115.7901,32.8613,阜阳市,市规划展馆,,43,43,135,26,104,77,,95,91,19,18,7,7,0.3,0.6
2025-03-13T1900,3469A,115.836,32.9183,阜阳市,枣园社区,颗粒物(PM10),56,61,157,26,108,70,,91,88,19,18,7,7,0.4,0.6
2025-03-13T1900,2669A,102.9099,34.9841,甘南藏族自治州,州政府,颗粒物(PM10),66,81,46,24,21,86,,85,85,9,10,7,7,0.4,0.4
2025-03-13T1900,3380A,102.8914,34.9617,甘南藏族自治州,甘肃民族师范学院,颗粒物(PM10),61,71,44,31,18,89,,95,95,9,5,8,8,0.4,0.3
2025-03-13T1900,2570A,101.9603,30.0475,甘孜藏族自治州,水桥子,,26,26,32,3,14,60,,62,62,15,16,3,3,0.3,0.5
2025-03-13T1900,3065A,101.9533,29.9972,甘孜藏族自治州,州环保局,,30,30,30,11,10,70,,75,75,14,14,4,4,0.5,0.4
2025-03-13T1900,3414A,115.8347,28.932,赣江新区,桑海产业园,细颗粒物(PM2.5),60,68,48,43,39,40,,77,54,24,17,9,9,0.5,0.5
2025-03-13T1900,2362A,114.9017,25.9149,赣州市,通天岩,,38,38,40,3,8,68,,98,98,11,7,10,10,1.0,0.8
2025-03-13T1900,2363A,114.9367,25.8664,赣州市,地委,,31,31,41,17,27,46,,69,69,13,10,1,3,1.3,1.1
2025-03-13T1900,2364A,114.9461,25.8481,赣州市,气象台,,,47,47,16,25,51,,79,79,22,15,7,9,,0.8
2025-03-13T1900,2365A,114.9322,25.8333,赣州市,市图书馆,,36,36,44,23,31,47,,73,73,19,17,4,4,1.4,1.2
2025-03-13T1900,2366A,114.8905,25.8471,赣州市,华坚鞋城,,,,46,,28,,,64,,,15,,6,,0.6
2025-03-13T1900,3109A,115.0093,25.8613,赣州市,赣县区卫计委,,31,31,39,21,28,49,,74,74,10,13,4,4,0.8,0.6
2025-03-13T1900,2683A,106.2319,36.1417,固原市,马园,颗粒物(PM10),76,101,153,49,37,98,,99,99,19,22,5,5,0.6,0.5
2025-03-13T1900,2684A,106.2792,36.0022,固原市,监测站,颗粒物(PM10),68,85,119,24,36,117,,112,112,12,12,6,6,0.4,0.4
2025-03-13T1900,2685A,106.2375,36.0211,固原市,新区,颗粒物(PM10),64,78,122,25,33,116,,113,113,12,11,6,6,0.4,0.4
2025-03-13T1900,3522A,106.2177,35.9959,固原市,原州区十五小,颗粒物(PM10),66,82,139,27,37,113,,107,107,12,14,8,7,0.4,0.3
2025-03-13T1900,2543A,106.6308,30.5278,广安市,小平旧居,,,,,,,,,,,,,,,,
2025-03-13T1900,2544A,106.6303,30.4576,广安市,市委,细颗粒物(PM2.5),67,63,44,48,33,59,,50,50,18,12,4,3,0.6,0.5
2025-03-13T1900,2545A,106.6271,30.4663,广安市,友谊中学,,,63,44,43,33,,,50,50,19,15,2,3,0.7,0.6
2025-03-13T1900,2547A,106.6388,30.4551,广安市,广电花园,细颗粒物(PM2.5),63,54,41,45,34,55,,46,46,22,16,3,3,0.6,0.5
2025-03-13T1900,2902A,106.6351,30.4865,广安市,北辰小学,细颗粒物(PM2.5),67,56,41,48,36,58,,49,49,17,13,5,4,0.8,0.7
2025-03-13T1900,2523A,105.8945,32.4535,广元市,黑石坡,,27,27,69,17,27,61,,63,63,8,14,8,8,0.5,0.4
2025-03-13T1900,2524A,105.821,32.4444,广元市,老城,,45,45,65,20,24,68,,74,74,13,16,1,2,0.6,0.6
2025-03-13T1900,2526A,105.8628,32.4287,广元市,监测站,,32,32,56,19,26,71,,74,74,12,18,4,5,0.5,0.8
2025-03-13T1900,3617A,105.8047,32.4166,广元市,经开区,,33,33,65,23,30,68,,66,66,11,19,2,2,0.6,0.6
2025-03-13T1900,1345A,113.2347,23.1423,广州市,广雅中学,,44,44,31,18,13,90,,106,106,29,30,4,3,0.6,0.5
2025-03-13T1900,1346A,113.2612,23.105,广州市,市五中,,,110,37,66,17,,,73,,,32,1,3,,0.4
2025-03-13T1900,1348A,113.3478,23.0916,广州市,广东商学院,,37,37,30,22,16,69,,100,100,30,33,4,4,0.6,0.6
2025-03-13T1900,1349A,113.4332,23.1047,广州市,市八十六中,,41,41,32,13,11,37,,56,56,48,49,3,4,0.3,0.4
2025-03-13T1900,1350A,113.3505,22.9483,广州市,番禺中学,,44,44,30,16,14,54,,109,109,36,31,7,7,0.6,0.5
2025-03-13T1900,1351A,113.2146,23.3916,广州市,花都师范,,,67,40,39,20,,,108,108,36,33,5,4,,0.5
2025-03-13T1900,1352A,113.2597,23.1331,广州市,市监测站,,44,44,31,19,13,66,,100,100,40,32,6,6,0.6,0.6
2025-03-13T1900,1353A,113.5618,23.312,广州市,九龙镇镇龙,,46,46,35,23,17,96,,107,107,40,38,6,6,0.5,0.5
2025-03-13T1900,1354A,113.2765,23.1544,广州市,麓湖,,40,40,29,19,13,73,,112,112,38,31,3,4,0.3,0.3
2025-03-13T1900,1355A,113.443,23.3035,广州市,帽峰山森林公园,,36,36,22,17,13,107,,104,104,30,29,6,5,0.8,0.6
2025-03-13T1900,2846A,113.3221,23.1322,广州市,体育西,,45,45,34,21,15,61,,106,106,36,38,4,4,0.6,0.5
2025-03-13T1900,3298A,113.5717,23.5491,广州市,从化街口,,43,43,30,24,16,116,,117,117,26,27,7,7,0.6,0.6
2025-03-13T1900,3299A,113.3472,23.3692,广州市,白云竹料,颗粒物(PM10),58,65,36,31,16,105,,96,96,44,31,7,7,0.7,0.6
2025-03-13T1900,3300A,113.2981,23.237,广州市,白云嘉禾,,44,44,36,17,15,84,,106,106,38,40,4,4,0.4,0.5
2025-03-13T1900,3301A,113.4256,23.1716,广州市,黄埔科学城,,47,47,36,19,15,69,,99,99,43,37,7,6,0.3,0.3
2025-03-13T1900,3302A,113.3942,23.0483,广州市,番禺大学城,,34,34,36,15,12,70,,100,100,32,31,5,5,0.2,0.1
2025-03-13T1900,3303A,113.4922,22.8168,广州市,南沙黄阁,颗粒物(PM10),56,62,32,13,14,50,,72,72,24,24,5,5,0.4,0.6
2025-03-13T1900,3304A,113.5342,22.7896,广州市,南沙街,,40,40,29,11,12,42,,64,63,26,26,4,6,0.5,0.5
2025-03-13T1900,3443A,113.2902,23.5544,广州市,花都梯面,颗粒物(PM10),55,59,34,31,16,124,,95,95,35,29,5,4,0.7,0.6
2025-03-13T1900,3445A,113.7858,23.7478,广州市,从化良口,,44,44,30,24,17,121,,87,87,12,21,7,6,0.6,0.7
2025-03-13T1900,3446A,113.8051,23.2614,广州市,增城荔城,,47,47,42,20,19,99,,138,138,23,30,7,7,0.4,0.4
2025-03-13T1900,2505A,109.568,23.1478,贵港市,德智高中,,,,,,,,,,,,,,,,
2025-03-13T1900,2506A,109.6047,23.0666,贵港市,江南子站,,43,39,38,30,29,16,,42,41,41,29,6,6,0.6,0.6
2025-03-13T1900,2507A,109.6014,23.0948,贵港市,贵城子站,,46,44,59,32,35,23,,39,39,29,30,6,6,0.7,0.8
2025-03-13T1900,2508A,109.5669,23.1065,贵港市,荷城子站,,39,36,37,27,26,10,,35,34,45,30,8,8,0.7,0.6
2025-03-13T1900,3405A,109.5886,23.1172,贵港市,新世纪学校,,42,39,41,29,33,12,,34,33,41,36,4,4,0.6,0.6
2025-03-13T1900,1439A,106.6899,26.5998,贵阳市,马鞍山,,20,19,30,14,21,48,,56,56,16,11,3,4,0.4,0.4
2025-03-13T1900,1441A,106.6243,26.6266,贵阳市,鉴湖路,,24,24,38,9,21,45,,42,42,14,13,10,10,0.5,0.5
2025-03-13T1900,1442A,106.7487,26.6343,贵阳市,燕子冲,,35,,31,24,27,53,,64,62,17,11,6,6,0.5,0.5
2025-03-13T1900,1443A,106.6555,26.4365,贵阳市,碧云窝,,41,41,44,19,22,47,,47,47,23,19,8,8,0.5,0.6
2025-03-13T1900,1445A,106.7109,26.6027,贵阳市,红边门,,32,29,38,22,30,48,,58,58,23,17,5,5,0.4,0.4
2025-03-13T1900,1446A,106.7164,26.5699,贵阳市,新华路,,28,22,36,19,24,55,,62,62,16,14,10,10,0.6,0.5
2025-03-13T1900,1447A,106.674,26.5424,贵阳市,太慈桥,,24,24,34,14,23,52,,56,56,20,18,6,7,0.5,0.5
2025-03-13T1900,1552A,106.805,26.3003,贵阳市,桐木岭,,26,26,34,17,23,37,,36,36,13,11,13,15,0.4,0.6
2025-03-13T1900,4230A,106.6882,26.5695,贵阳市,花果园大街66号,,26,,29,18,28,51,,56,55,15,13,5,6,0.5,0.5
2025-03-13T1900,4231A,106.6873,26.5169,贵阳市,漓江路57号,,24,24,35,14,24,55,,60,60,18,15,9,9,0.5,0.5
2025-03-13T1900,1862A,110.4144,25.3167,桂林市,电子科大尧山校区,,,,,,,,,,,,,,,,
2025-03-13T1900,1864A,110.3089,25.2708,桂林市,龙隐路小学,,36,30,22,25,21,58,,67,66,12,11,7,7,0.8,0.8
2025-03-13T1900,1865A,110.2869,25.2178,桂林市,八中,,36,35,26,25,21,44,,58,56,27,21,7,7,0.7,0.7
2025-03-13T1900,3531A,110.296,25.1253,桂林市,旅游学院,,,22,22,22,15,,,53,53,14,19,6,6,0.8,0.8
2025-03-13T1900,4222A,110.1835,25.2444,桂林市,环湖路276号,,21,19,17,14,18,67,,66,66,11,11,9,9,0.5,0.8
2025-03-13T1900,4301A,110.2803,25.2773,桂林市,信义路13号,,29,25,24,20,21,58,,66,65,18,14,9,8,0.7,0.8
2025-03-13T1900,2674A,100.2561,34.4714,果洛藏族自治州,玛沁县大武镇,,36,29,34,13,15,114,,115,115,2,2,12,13,0.3,0.4
2025-03-13T1900,1129A,126.5422,45.755,哈尔滨市,岭北,,31,20,18,12,10,97,,94,94,10,8,9,10,0.8,0.8
2025-03-13T1900,1130A,126.561,45.8167,哈尔滨市,松北商大,,25,21,23,14,12,79,,82,82,12,7,15,19,0.5,0.4
2025-03-13T1900,1131A,126.979,45.5419,哈尔滨市,阿城会宁,,35,28,22,24,13,78,,83,82,16,9,8,5,0.5,0.5
2025-03-13T1900,1132A,126.599,45.7222,哈尔滨市,南岗学府路,,31,31,22,9,8,71,,84,83,22,10,17,7,0.6,0.5
2025-03-13T1900,1133A,126.689,45.7733,哈尔滨市,太平宏伟公园,,29,25,23,20,12,81,,84,84,16,11,9,8,0.4,0.4
2025-03-13T1900,1134A,126.635,45.7667,哈尔滨市,道外承德广场,,37,37,37,19,17,83,,84,84,11,7,16,7,0.5,0.5
2025-03-13T1900,1135A,126.685,45.7319,哈尔滨市,香坊红旗大街,,29,,21,20,14,85,,86,86,13,9,8,8,0.5,0.5
2025-03-13T1900,1136A,126.6411,45.7258,哈尔滨市,动力和平路,,28,22,19,19,11,82,,86,86,11,5,7,6,0.5,0.5
2025-03-13T1900,1137A,126.593,45.7478,哈尔滨市,道里建国路,,25,16,17,14,11,79,,79,79,14,7,5,4,0.4,0.4
2025-03-13T1900,1138A,126.615,45.61,哈尔滨市,平房东轻厂,,29,22,18,20,13,73,,83,82,16,6,6,5,0.6,0.5
2025-03-13T1900,1139A,126.595,45.9855,哈尔滨市,呼兰师专,,,27,34,25,11,78,,76,76,20,10,11,9,,0.5
2025-03-13T1900,1140A,126.6206,45.6842,哈尔滨市,省农科院,,33,33,24,20,15,84,,85,85,10,5,7,10,0.5,0.5
2025-03-13T1900,2688A,93.5128,42.8172,哈密市,地区监测站,颗粒物(PM10),83,115,60,8,13,76,,75,75,7,10,3,6,0.3,0.3
2025-03-13T1900,2689A,93.4961,42.8328,哈密市,哈密师范学校,颗粒物(PM10),59,68,46,8,13,75,,76,76,13,13,5,6,0.4,0.5
2025-03-13T1900,2671A,100.9048,36.9639,海北藏族自治州,海晏县西海镇,颗粒物(PM10),68,85,75,34,28,94,,97,97,10,7,10,12,0.4,0.3
2025-03-13T1900,3867A,102.0738,36.5056,海东市,平安区公安北苑,颗粒物(PM10),96,141,165,49,62,99,,96,96,10,15,12,22,0.3,0.4
2025-03-13T1900,1409A,110.576,19.9507,海口市,东寨港,,18,18,22,7,10,38,,44,44,4,4,6,3,0.7,0.7
2025-03-13T1900,1410A,110.3232,20.0574,海口市,海南大学,,,25,30,12,16,34,,52,52,,10,2,2,0.4,0.4
2025-03-13T1900,1411A,110.283,20.0053,海口市,秀英海南医院,,21,21,21,13,11,34,,45,45,13,11,4,4,0.4,0.3
2025-03-13T1900,1412A,110.338,19.9969,海口市,海南师范大学,,,31,25,15,12,39,,52,52,,6,2,3,0.4,0.4
2025-03-13T1900,1413A,110.33,20.0356,海口市,龙华路环保局宿舍,,30,30,28,13,16,38,,52,52,9,9,4,4,0.3,0.3
2025-03-13T1900,3539A,110.5111,19.9736,海口市,桂林洋子站,,26,26,24,11,11,40,,48,47,8,6,3,3,0.2,0
2025-03-13T1900,2673A,100.6188,36.2866,海南藏族自治州,共和县恰卜恰镇,,47,47,66,23,29,88,,97,97,14,17,8,6,0.6,0.5
2025-03-13T1900,2676A,97.3731,37.3753,海西蒙古族藏族自治州,德令哈市,颗粒物(PM10),52,53,38,13,16,100,,96,96,9,7,15,12,0.6,0.5
2025-03-13T1900,1048A,114.5302,36.6116,邯郸市,东污水处理厂,颗粒物(PM10),100,150,195,44,63,94,,103,103,21,41,2,4,0.5,0.5
2025-03-13T1900,1049A,114.4918,36.5713,邯郸市,矿院,颗粒物(PM10),116,182,222,44,63,85,,95,95,15,41,2,6,0.4,0.5
2025-03-13T1900,1050A,114.484,36.6133,邯郸市,丛台公园,颗粒物(PM10),102,153,175,44,58,92,,100,100,14,31,1,5,0.4,0.5
2025-03-13T1900,3458A,114.7895,36.5593,邯郸市,香泉濮院小区,颗粒物(PM10),105,159,210,33,61,97,,114,114,11,20,2,5,0.4,0.4
2025-03-13T1900,3579A,114.50634,36.77178,邯郸市,永年区实验高中,颗粒物(PM10),120,189,217,40,54,106,,115,115,13,33,4,8,0.4,0.6
2025-03-13T1900,3580A,114.20016,36.44293,邯郸市,峰峰矿区临水派出所,颗粒物(PM10),116,182,206,63,64,,,118,118,6,9,7,11,0.6,0.9
2025-03-13T1900,2634A,106.9893,33.1842,汉中市,汉川机床厂子校,,42,38,49,29,29,66,,89,86,6,5,6,6,0.9,0.8
2025-03-13T1900,2635A,107.0154,33.0706,汉中市,市监测站,,49,37,61,34,33,62,,74,73,12,16,4,5,0.7,0.9
2025-03-13T1900,2636A,107.0089,33.1138,汉中市,鑫源开发区,,35,35,58,20,31,70,,80,80,12,17,4,4,0.7,0.7
2025-03-13T1900,2637A,107.007,33.0323,汉中市,南郑大河坎水厂,,38,30,61,26,34,60,,74,74,18,16,7,7,1.0,0.8
2025-03-13T1900,1223A,120.2072,30.2111,杭州市,滨江,,50,50,29,27,17,50,,77,77,47,30,6,5,0.4,0.6
2025-03-13T1900,1224A,120.0633,30.2747,杭州市,西溪,,37,37,34,12,16,47,,62,62,28,23,6,6,0.6,0.6
2025-03-13T1900,1226A,120.3417,30.3150,杭州市,下沙,颗粒物(PM10),51,51,43,23,28,36,,64,64,54,40,5,4,0.3,0.4
2025-03-13T1900,1227A,120.1269,30.2456,杭州市,卧龙桥,,38,38,33,17,19,36,,66,66,40,32,5,5,0.3,0.3
2025-03-13T1900,1228A,120.1903,30.2692,杭州市,浙江农大,,45,45,30,29,22,49,,64,64,48,42,7,7,0.3,0.3
2025-03-13T1900,1230A,120.1197,30.3119,杭州市,和睦小学,,44,44,39,20,19,48,,63,63,39,29,6,6,0.6,0.6
2025-03-13T1900,1231A,120.3019,30.4183,杭州市,临平镇,颗粒物(PM10),51,51,33,21,28,48,,66,64,38,26,6,5,0.4,0.4
2025-03-13T1900,1232A,120.2753,30.1839,杭州市,城厢镇,,45,45,26,23,20,51,,71,71,52,39,7,6,0.4,0.5
2025-03-13T1900,1233A,120.0883,30.1808,杭州市,云栖,细颗粒物(PM2.5),55,,29,39,29,34,,77,71,32,25,7,8,0.5,0.6
2025-03-13T1900,3557A,119.9464,30.0494,杭州市,镇二中,,32,32,21,13,14,54,,71,70,43,31,6,5,0.3,0.4
2025-03-13T1900,3558A,119.7183,30.2367,杭州市,市府大楼,,33,33,26,20,16,61,,66,62,36,25,6,6,0.5,0.6
2025-03-13T1900,3656A,120.1556,30.2864,杭州市,消防大队,,46,46,29,27,21,49,,70,70,49,30,6,6,0.6,0.6
2025-03-13T1900,1270A,117.1959,31.7848,合肥市,明珠广场,,46,46,92,19,75,56,,76,70,32,25,6,4,0.6,0.7
2025-03-13T1900,1271A,117.3072,31.8764,合肥市,三里街,颗粒物(PM10),53,56,105,27,69,44,,71,62,35,23,3,3,0.7,0.8
2025-03-13T1900,1272A,117.2588,31.8707,合肥市,琥珀山庄,颗粒物(PM10),52,53,93,26,65,54,,78,71,34,24,2,1,0.6,0.8
2025-03-13T1900,1273A,117.1604,31.9052,合肥市,董铺水库,,44,44,94,17,57,62,,85,77,24,17,2,2,0.4,0.5
2025-03-13T1900,1274A,117.25,31.8571,合肥市,长江中路,细颗粒物(PM2.5),55,51,100,39,85,54,,81,73,35,23,6,6,0.6,0.7
2025-03-13T1900,1275A,117.266,31.9436,合肥市,庐阳区,颗粒物(PM10),53,56,104,31,78,52,,79,69,39,26,4,5,0.5,0.6
2025-03-13T1900,1276A,117.3453,31.8616,合肥市,瑶海区,颗粒物(PM10),56,61,106,27,76,44,,71,62,39,25,7,7,0.6,0.6
2025-03-13T1900,1277A,117.3027,31.7964,合肥市,包河区,颗粒物(PM10),52,53,100,29,78,22,,63,49,61,45,5,5,0.7,0.8
2025-03-13T1900,1278A,117.2776,31.7385,合肥市,滨湖新区,颗粒物(PM10),51,51,100,31,85,56,,73,69,28,21,7,7,0.5,0.6
2025-03-13T1900,1279A,117.1318,31.8403,合肥市,高新区,颗粒物(PM10),51,51,97,26,83,54,,78,71,32,25,2,2,0.6,0.8
2025-03-13T1900,3464A,117.3803,31.9147,合肥市,高教基地,颗粒物(PM10),53,55,100,24,72,55,,80,73,26,21,7,6,0.5,0.6
2025-03-13T1900,3614A,79.924,37.0877,和田地区,地区环保局,颗粒物(PM10),370,476,225,62,55,84,,79,79,2,4,1,2,0.2,0.2
2025-03-13T1900,3615A,79.9131,37.113,和田地区,市环保局,颗粒物(PM10),225,367,222,48,58,96,,87,87,9,20,1,2,0.3,1
2025-03-13T1900,2516A,108.2011,24.715,河池市,东仁乐园,,38,32,40,26,11,8,,17,17,18,14,7,6,1.0,1.1
2025-03-13T1900,2517A,108.0497,24.6947,河池市,市环保站,颗粒物(PM10),55,60,26,14,13,15,,24,23,18,11,9,8,0.9,0.9
2025-03-13T1900,2518A,108.0983,24.6989,河池市,市疾控中心,,23,19,25,16,16,7,,22,20,18,11,6,6,0.8,1
2025-03-13T1900,1696A,114.6778,23.7569,河源市,源西,,34,34,22,18,13,70,,81,81,27,14,4,4,0.7,0.7
2025-03-13T1900,1697A,114.6944,23.7586,河源市,东埔,,29,,24,20,17,87,,84,84,18,13,4,4,0.6,0.5
2025-03-13T1900,1698A,114.6892,23.7233,河源市,老城,,35,28,23,24,17,92,,82,82,14,10,5,4,0.6,0.5
2025-03-13T1900,1718A,115.4208,35.2464,菏泽市,气象局,颗粒物(PM10),72,94,184,38,69,110,,114,114,17,34,4,5,0.4,0.5
2025-03-13T1900,3374A,115.5564,35.0891,菏泽市,定陶老年大学,,,102,185,44,75,,,120,,24,33,5,5,0.6,0.7
2025-03-13T1900,4184A,115.4797,35.24401,菏泽市,永昌路1号,颗粒物(PM10),79,107,205,46,79,111,,119,119,22,39,8,8,0.4,0.6
2025-03-13T1900,4193A,115.4715,35.2800,菏泽市,长城路999号,颗粒物(PM10),84,117,196,34,72,96,,108,107,26,36,8,8,0.4,0.6
2025-03-13T1900,2514A,111.5264,24.4172,贺州市,环保小区,,27,27,56,14,33,35,,43,42,13,21,7,8,1.1,1.1
2025-03-13T1900,2515A,111.5608,24.4078,贺州市,政协大楼,,38,38,47,21,28,32,,36,36,18,25,6,8,1.0,0.9
2025-03-13T1900,3534A,111.4744,24.4553,贺州市,西湾,,,28,44,22,31,31,,35,35,,21,6,6,0.9,0.8
2025-03-13T1900,2385A,114.17,35.9019,鹤壁市,市监测站,颗粒物(PM10),121,191,222,57,58,95,,107,105,25,23,4,3,0.7,0.7
2025-03-13T1900,2386A,114.2956,35.7511,鹤壁市,市交警支队,颗粒物(PM10),115,180,212,44,55,94,,106,105,21,42,4,5,0.4,0.3
2025-03-13T1900,2387A,114.2878,35.7306,鹤壁市,迎宾馆,颗粒物(PM10),125,199,243,42,47,93,,107,107,14,31,2,8,0.4,0.6
2025-03-13T1900,3474A,114.2617,35.6822,鹤壁市,大新区,颗粒物(PM10),111,172,236,58,65,71,,98,98,32,46,4,5,0.6,0.6
2025-03-13T1900,3596A,114.1572,35.9603,鹤壁市,南山宾馆,颗粒物(PM10),125,199,246,79,71,101,,112,110,16,15,4,6,0.4,0.3
2025-03-13T1900,2244A,130.2537,47.3416,鹤岗市,哈啤分公司,,34,34,27,19,20,65,,66,66,3,5,13,14,0.6,0.7
2025-03-13T1900,2245A,130.2684,47.3086,鹤岗市,斯达机电,,38,30,35,26,26,74,,76,75,2,7,12,13,0.3,0.4
2025-03-13T1900,2246A,130.3114,47.3388,鹤岗市,东山纸板厂,,36,33,30,25,23,69,,70,70,6,8,12,13,0.3,0.3
2025-03-13T1900,2247A,130.1097,47.3382,鹤岗市,五号水库,,,,,,,,,,,,,,,,
2025-03-13T1900,2263A,127.4833,50.2524,黑河市,交通局,,25,18,18,14,16,79,,79,79,5,5,6,6,0.5,0.5
2025-03-13T1900,2264A,127.5144,50.2341,黑河市,环保局,,32,,26,22,16,77,,77,75,7,7,4,5,0.3,0.3
2025-03-13T1900,2265A,127.5291,50.2472,黑河市,大黑河岛,,,,,,,,,,,,,,,,
2025-03-13T1900,1074A,115.6838,37.7541,衡水市,电机北厂,颗粒物(PM10),82,114,195,43,62,111,,127,127,16,20,8,9,0.4,0.4
2025-03-13T1900,1075A,115.6303,37.7316,衡水市,市监测站,颗粒物(PM10),79,107,173,34,56,109,,128,128,16,24,11,11,0.3,0.4
2025-03-13T1900,3188A,115.6683,37.7217,衡水市,市城管局,颗粒物(PM10),76,102,185,49,61,107,,122,122,17,26,9,10,0.5,0.5
2025-03-13T1900,3459A,115.5989,37.5491,衡水市,地表水厂,颗粒物(PM10),78,105,190,33,61,102,,127,126,19,41,8,9,0.4,0.4
2025-03-13T1900,2456A,112.5003,26.9167,衡阳市,原169医院,,40,34,45,28,31,34,,45,43,29,20,8,9,0.6,0.6
2025-03-13T1900,2457A,112.6194,26.9258,衡阳市,衡阳化工总厂,细颗粒物(PM2.5),58,44,52,41,49,55,,58,58,13,13,4,5,0.8,0.8
2025-03-13T1900,2458A,112.6211,26.8956,衡阳市,珠晖区环保局,,43,43,47,30,37,53,,54,54,15,15,5,5,0.8,0.9
2025-03-13T1900,2459A,112.6197,26.8733,衡阳市,市委党校,,41,41,50,24,35,63,,60,60,14,15,6,6,0.9,1
2025-03-13T1900,2460A,112.6006,26.8919,衡阳市,市监测站,细颗粒物(PM2.5),58,49,50,41,38,56,,59,59,19,17,7,7,1.0,1
2025-03-13T1900,2461A,112.5664,26.9056,衡阳市,真空机电公司,细颗粒物(PM2.5),54,38,49,38,38,45,,53,52,17,17,4,4,0.8,0.8
2025-03-13T1900,3399A,112.6703,26.882,衡阳市,师范学院,细颗粒物(PM2.5),57,46,48,40,38,64,,66,66,14,15,7,7,0.9,0.9
2025-03-13T1900,2608A,103.3772,23.3993,红河哈尼族彝族自治州,污水处理厂,细颗粒物(PM2.5),63,51,42,45,35,117,,121,121,8,7,8,8,0.5,0.6
2025-03-13T1900,2609A,103.3861,23.35,红河哈尼族彝族自治州,监测站,颗粒物(PM10),63,76,59,40,33,119,,124,124,9,8,11,9,0.6,0.6
2025-03-13T1900,3038A,103.3758,23.368,红河哈尼族彝族自治州,州图书馆,细颗粒物(PM2.5),62,46,42,44,35,112,,115,115,8,7,6,6,0.5,0.5
2025-03-13T1900,1090A,111.6507,40.7517,呼和浩特市,呼市一监,颗粒物(PM10),58,66,86,28,44,83,,81,81,13,35,11,12,0.5,0.8
2025-03-13T1900,1091A,111.6572,40.8033,呼和浩特市,小召,颗粒物(PM10),64,78,88,22,32,65,,66,66,25,43,6,6,0.5,0.7
2025-03-13T1900,1094A,111.7516,40.8369,呼和浩特市,如意水处理厂,颗粒物(PM10),56,61,86,18,28,65,,65,65,19,53,9,10,0.4,0.6
2025-03-13T1900,1095A,111.7276,40.8062,呼和浩特市,二十九中,颗粒物(PM10),61,71,83,19,37,73,,69,69,15,42,6,7,0.5,0.6
2025-03-13T1900,1096A,111.5512,40.7866,呼和浩特市,工大金川校区,颗粒物(PM10),63,76,88,20,39,66,,61,61,18,46,8,11,0.5,0.7
2025-03-13T1900,1097A,111.717,40.7612,呼和浩特市,化肥厂生活区,颗粒物(PM10),65,80,97,25,36,65,,69,69,32,43,11,10,0.5,0.7
2025-03-13T1900,3698A,111.5968,40.8178,呼和浩特市,红旗小学,颗粒物(PM10),58,66,87,19,33,79,,68,68,15,51,7,9,0.4,0.7
2025-03-13T1900,3699A,111.6518,40.8389,呼和浩特市,海东办,颗粒物(PM10),56,61,80,20,32,65,,66,66,19,49,9,9,0.6,0.9
2025-03-13T1900,2192A,119.7594,49.2261,呼伦贝尔市,区环保局,,29,29,25,19,21,90,,94,94,13,11,5,6,0.4,0.3
2025-03-13T1900,3061A,119.7512,49.1577,呼伦贝尔市,国华电力东,,33,33,31,15,18,97,,101,100,8,9,4,4,0.3,0.4
2025-03-13T1900,1250A,120.0751,30.8669,湖州市,城西水厂,,39,39,31,15,18,56,,70,68,44,26,6,5,0.3,0.4
2025-03-13T1900,2873A,120.0830,30.8929,湖州市,仁皇山新区,,36,36,31,15,19,58,,67,66,39,21,4,3,0.4,0.5
2025-03-13T1900,2907A,120.1844,30.8596,湖州市,吴兴区站,,38,38,38,15,20,51,,62,58,38,22,6,5,0.4,0.4
2025-03-13T1900,3562A,120.4148,30.8538,湖州市,南浔区站,,44,44,38,19,22,42,,71,67,56,27,3,2,0.5,0.6
2025-03-13T1900,1607A,120.9049,40.7211,葫芦岛市,龙港区,颗粒物(PM10),52,54,72,22,33,64,,79,79,34,42,80,79,0.4,1.5
2025-03-13T1900,1608A,120.8392,40.7514,葫芦岛市,化工街,,46,46,86,24,37,62,,85,83,37,45,10,29,0.4,0.9
2025-03-13T1900,1609A,120.8341,40.7073,葫芦岛市,新区,,44,44,52,23,23,76,,92,92,30,46,68,29,0.5,0.9
2025-03-13T1900,1610A,120.8695,40.7677,葫芦岛市,东城区,细颗粒物(PM2.5),79,,68,58,30,54,,86,84,52,48,10,50,0.7,0.9
2025-03-13T1900,2482A,109.5981,27.5721,怀化市,林科所,,42,42,36,29,27,65,,70,66,6,6,3,4,0.6,0.6
2025-03-13T1900,2483A,109.9453,27.5444,怀化市,河西地税局,颗粒物(PM10),51,52,48,35,36,53,,56,54,13,10,7,7,0.6,0.6
2025-03-13T1900,2484A,109.9781,27.5342,怀化市,市四医院,,,85,64,50,39,33,,54,47,20,12,,4,0.9,0.6
2025-03-13T1900,2485A,109.9972,27.5578,怀化市,监测楼,"颗粒物(PM10),细颗粒物(PM2.5)",58,66,46,41,33,35,,57,52,20,14,8,7,0.5,0.4
2025-03-13T1900,2486A,110.0394,27.583,怀化市,市委党校,细颗粒物(PM2.5),57,49,42,40,31,42,,54,50,13,11,1,1,0.6,0.6
2025-03-13T1900,1210A,119.036,33.5981,淮安市,钵池山,,50,46,109,35,84,77,,88,87,21,20,8,7,0.5,0.7
2025-03-13T1900,1211A,119.007,33.575,淮安市,北京南路,,46,46,105,31,80,75,,85,84,24,21,8,7,0.5,0.7
2025-03-13T1900,1212A,118.989,33.6067,淮安市,市监测站,,48,48,106,29,76,81,,89,88,25,24,8,7,0.4,0.7
2025-03-13T1900,1213A,119.135,33.5039,淮安市,楚州区监测站,颗粒物(PM10),57,63,115,34,90,72,,85,84,28,26,7,7,0.6,0.7
2025-03-13T1900,3426A,118.8755,33.2894,淮安市,新华书店,,44,44,115,17,92,79,,86,86,22,26,7,8,0.6,0.8
2025-03-13T1900,4206A,119.0288,33.6319,淮安市,承德北路606号,颗粒物(PM10),63,75,130,38,82,77,,93,91,29,28,7,7,0.5,0.7
2025-03-13T1900,2282A,116.8004,33.975,淮北市,监测站,颗粒物(PM10),72,94,158,45,73,75,,101,92,27,20,5,5,0.6,0.7
2025-03-13T1900,2283A,116.8091,33.9007,淮北市,烈山区政府,颗粒物(PM10),69,88,158,45,76,90,,114,102,24,22,4,5,0.6,0.8
2025-03-13T1900,3330A,116.8873,33.9836,淮北市,杜集区检察院,颗粒物(PM10),73,96,153,51,75,82,,107,98,24,19,6,5,0.6,0.8
2025-03-13T1900,4017A,116.7923,33.9535,淮北市,市博物馆,颗粒物(PM10),75,99,156,47,75,81,,107,97,21,17,7,6,0.7,0.8
2025-03-13T1900,2277A,116.8305,32.7727,淮南市,潘集区政府,"颗粒物(PM10),细颗粒物(PM2.5)",62,74,156,44,120,64,,78,76,22,30,4,4,0.5,0.7
2025-03-13T1900,2279A,116.8569,32.5951,淮南市,谢家集区政府,颗粒物(PM10),57,64,139,30,108,72,,84,75,11,20,5,6,0.3,0.5
2025-03-13T1900,2280A,116.8281,32.633,淮南市,八公山区政府,颗粒物(PM10),55,59,141,28,98,73,,86,79,14,18,2,3,0.3,0.5
2025-03-13T1900,2281A,116.6325,32.6201,淮南市,焦岗湖风景区管理处,颗粒物(PM10),52,53,120,24,79,54,,71,69,14,14,14,15,0.1,0.3
2025-03-13T1900,2894A,117.0566,32.6531,淮南市,经济技术开发区消防队,颗粒物(PM10),62,73,127,28,97,61,,82,78,22,18,4,5,0.4,0.5
2025-03-13T1900,3329A,117.0108,32.5893,淮南市,山南新区,颗粒物(PM10),54,58,123,26,93,70,,91,81,13,12,7,7,0.3,0.6
2025-03-13T1900,4209A,117.0031,32.6445,淮南市,国庆中路369号,,,68,143,52,100,,,91,87,,24,5,7,0.4,0.5
2025-03-13T1900,2446A,114.9028,30.4742,黄冈市,职工中心,细颗粒物(PM2.5),60,53,65,43,55,60,,56,56,24,26,4,4,0.6,0.7
2025-03-13T1900,2929A,114.8858,30.4519,黄冈市,红卫路,细颗粒物(PM2.5),69,56,68,50,62,66,,68,62,18,20,4,7,0.6,0.7
2025-03-13T1900,3398A,114.9136,30.4445,黄冈市,市林业局,细颗粒物(PM2.5),60,58,69,43,57,63,,58,58,19,15,8,9,0.5,0.7
2025-03-13T1900,2672A,102.0199,35.5102,黄南藏族自治州,同仁县隆务镇,颗粒物(PM10),87,124,100,42,38,99,,92,92,5,4,13,14,0.5,0.4
2025-03-13T1900,2295A,118.2903,29.6963,黄山市,延安路89号,,21,21,20,3,15,48,,67,56,12,10,3,3,0.3,0.7
2025-03-13T1900,2297A,118.1371,30.2756,黄山市,黄山区政府5号楼,,14,14,32,7,17,43,,66,51,12,10,8,7,0.6,0.7
2025-03-13T1900,4210A,118.3354,29.7203,黄山市,滨江东路7-2号,,15,,24,7,11,45,,67,53,11,10,4,4,0.5,0.6
2025-03-13T1900,2423A,115.0601,30.2313,黄石市,沈家营,颗粒物(PM10),58,66,64,34,37,57,,76,74,17,18,7,8,0.7,0.7
2025-03-13T1900,2426A,114.8988,30.2019,黄石市,铁山,细颗粒物(PM2.5),62,55,50,44,47,50,,74,72,22,14,12,12,0.8,0.9
2025-03-13T1900,2427A,115.0307,30.2092,黄石市,团城山,颗粒物(PM10),52,53,59,34,36,50,,77,74,25,22,10,9,0.7,0.7
2025-03-13T1900,3149A,115.0235,30.1578,黄石市,笔架山北路,细颗粒物(PM2.5),62,55,70,44,51,49,,85,77,13,15,6,6,1.0,1
2025-03-13T1900,4185A,115.0780,30.21118,黄石市,磁湖东路29号,细颗粒物(PM2.5),70,68,69,51,50,71,,88,86,16,18,7,6,0.8,0.8
2025-03-13T1900,1392A,114.4183,23.0528,惠州市,河南岸金山湖子站,,35,35,25,18,14,69,,93,93,24,16,8,8,0.5,0.5
2025-03-13T1900,1393A,114.4053,23.0822,惠州市,下埔横江三路子站,,37,37,26,16,13,77,,102,102,25,15,8,7,0.6,0.6
2025-03-13T1900,1394A,114.4103,23.1142,惠州市,江北云山西路子站,,36,36,23,15,12,82,,105,105,24,14,9,9,0.6,0.5
2025-03-13T1900,1395A,114.4645,22.7833,惠州市,惠阳区承修路船湖子站,,,37,33,17,14,,,80,80,,14,9,8,0.6,0.5
2025-03-13T1900,1396A,114.5317,22.7422,惠州市,大亚湾管委会子站,,36,36,30,15,12,61,,82,82,30,17,7,7,0.6,0.5
2025-03-13T1900,3314A,114.4338,22.8134,惠州市,惠阳秋长,,36,36,28,10,11,61,,91,91,32,13,10,10,0.7,0.6
2025-03-13T1900,3452A,114.6517,22.775,惠州市,大亚湾霞涌,,27,27,26,10,17,74,,84,84,19,21,4,5,0.5,0.5
2025-03-13T1900,2240A,130.9762,45.3001,鸡西市,环保局,,,,27,,13,,,76,,,6,,4,,0.3
2025-03-13T1900,2243A,130.9429,45.3039,鸡西市,第一中学,,28,20,21,12,13,87,,87,87,4,5,5,5,0.2,0.2
2025-03-13T1900,3707A,131.0207,45.3073,鸡西市,欧美日汽修厂,,28,19,25,18,15,88,,90,90,7,8,3,2,0.1,0.1
2025-03-13T1900,3709A,130.9967,45.3106,鸡西市,市政设施管理处,,31,31,30,14,13,74,,80,79,12,7,3,3,0.3,0.3
2025-03-13T1900,2367A,114.9754,27.0803,吉安市,红声器材厂,,,30,33,19,21,48,,40,40,19,22,,14,1.0,1
2025-03-13T1900,2368A,114.9658,27.0999,吉安市,市森林工业局,,23,23,26,12,21,52,,42,42,22,26,10,12,0.7,0.7
2025-03-13T1900,2369A,114.99,27.1312,吉安市,市环境监测站,,23,23,28,11,18,49,,40,40,18,22,17,18,0.5,0.7
2025-03-13T1900,2370A,115.0093,27.0968,吉安市,青原区法院,,31,31,32,19,23,48,,41,41,25,27,13,14,0.9,0.9
2025-03-13T1900,1772A,126.54,43.8622,吉林市,哈达湾,颗粒物(PM10),51,52,102,20,18,84,,95,95,17,12,7,6,0.7,0.7
2025-03-13T1900,1773A,126.5844,43.8358,吉林市,东局子,颗粒物(PM10),58,65,43,22,20,81,,92,92,18,11,5,5,0.5,0.4
2025-03-13T1900,1774A,126.5052,43.8245,吉林市,电力学院,颗粒物(PM10),57,64,79,27,21,84,,95,95,13,7,3,2,0.3,0.2
2025-03-13T1900,1775A,126.6133,43.8972,吉林市,江北,颗粒物(PM10),52,54,77,24,20,71,,92,90,28,14,4,7,0.4,0.5
2025-03-13T1900,1776A,126.555,43.8306,吉林市,江南公园,颗粒物(PM10),51,52,78,25,21,78,,92,91,18,10,5,5,0.4,0.4
2025-03-13T1900,1778A,126.7061,43.7133,吉林市,丰满,,43,43,83,23,18,98,,107,107,11,9,6,6,0.7,0.7
2025-03-13T1900,2868A,126.4739,43.953,吉林市,九站,,39,39,79,17,19,78,,90,90,13,8,15,7,0.5,0.4
2025-03-13T1900,1299A,116.9862,36.6114,济南市,科干所,颗粒物(PM10),53,56,122,20,32,106,,113,113,15,16,6,8,0.4,0.5
2025-03-13T1900,1300A,116.9376,36.665,济南市,农科所,颗粒物(PM10),57,63,135,12,30,88,,110,108,26,31,8,8,0.7,0.8
2025-03-13T1900,1301A,117.1265,36.6734,济南市,开发区,颗粒物(PM10),58,66,124,29,36,108,,114,114,24,26,8,7,0.6,0.5
2025-03-13T1900,1303A,117.0624,36.6868,济南市,省种子仓库,颗粒物(PM10),60,70,157,24,40,96,,115,112,25,48,5,5,0.7,0.8
2025-03-13T1900,1304A,116.9489,36.6447,济南市,机床二厂,颗粒物(PM10),58,66,145,22,34,104,,116,115,32,32,11,9,0.7,0.8
2025-03-13T1900,1305A,117.0495,36.663,济南市,市监测站,颗粒物(PM10),59,68,134,24,34,102,,110,110,22,28,9,8,0.4,0.5
2025-03-13T1900,1306A,116.7675,36.5484,济南市,长清党校,颗粒物(PM10),58,66,160,29,44,116,,119,118,26,31,5,6,0.7,0.7
2025-03-13T1900,1616A,117.6795,36.229,济南市,技术学院,颗粒物(PM10),57,63,109,24,30,93,,102,102,28,39,11,11,1.0,0.8
2025-03-13T1900,1961A,117.532,36.6868,济南市,东山小学,颗粒物(PM10),61,71,130,20,29,101,,110,110,24,31,11,10,0.9,0.9
2025-03-13T1900,3059A,117.7161,36.2049,济南市,泰兴公司,颗粒物(PM10),60,70,118,24,37,84,,101,99,34,48,10,10,1.6,0.7
2025-03-13T1900,3064A,117.6867,36.2171,济南市,莱芜战役纪念馆,颗粒物(PM10),54,58,112,22,29,91,,98,98,29,38,7,7,0.8,0.8
2025-03-13T1900,3494A,117.1673,36.9782,济南市,济阳区政府,颗粒物(PM10),67,83,161,20,39,67,,100,98,32,26,11,13,0.3,0.4
2025-03-13T1900,3495A,117.1171,36.63,济南市,锦屏中学,颗粒物(PM10),58,66,118,22,28,108,,112,112,20,18,10,9,0.5,0.4
2025-03-13T1900,3682A,116.9814,36.6819,济南市,济南四建,,48,48,138,20,38,102,,113,113,18,30,5,6,0.3,0.4
2025-03-13T1900,1653A,116.6251,35.4302,济宁市,火炬城,颗粒物(PM10),60,69,147,41,68,101,,117,117,22,24,11,12,0.7,0.8
2025-03-13T1900,1655A,116.5491,35.4042,济宁市,电化厂,颗粒物(PM10),64,77,182,34,68,106,,122,122,15,23,10,12,0.7,1
2025-03-13T1900,3500A,116.5814,35.3707,济宁市,北湖一中,颗粒物(PM10),57,63,143,24,57,99,,117,117,21,25,10,11,0.5,0.8
2025-03-13T1900,3501A,116.8249,35.5593,济宁市,服务中心,颗粒物(PM10),59,68,181,21,58,92,,118,117,29,36,5,6,0.6,0.8
2025-03-13T1900,3678A,116.5907,35.4054,济宁市,市第七中学,颗粒物(PM10),64,77,156,24,58,106,,128,128,27,29,4,6,0.6,0.8
2025-03-13T1900,2255A,130.2751,46.8028,佳木斯市,佳纺,,25,18,24,10,15,78,,74,74,2,7,4,5,0.3,0.4
2025-03-13T1900,2256A,130.3995,46.8307,佳木斯市,发电厂,,26,,22,14,14,82,,80,80,5,6,1,2,0.3,0.4
2025-03-13T1900,2257A,130.3258,46.7975,佳木斯市,环保局,,25,16,22,3,15,79,,77,77,7,8,3,2,0.2,0.3
2025-03-13T1900,2258A,130.3648,46.8032,佳木斯市,十一中,,25,24,22,10,15,77,,78,78,12,10,5,4,0.5,0.5
2025-03-13T1900,2259A,130.3794,46.7588,佳木斯市,四丰,,24,11,17,3,12,74,,74,74,4,6,1,1,0.6,0.6
2025-03-13T1900,1252A,120.7436,30.778,嘉兴市,清河小学,,28,28,14,11,14,42,,58,57,43,21,4,3,0.5,0.6
2025-03-13T1900,1253A,120.726,30.7478,嘉兴市,嘉兴学院,,31,31,24,11,17,53,,68,66,41,24,7,6,0.5,0.5
2025-03-13T1900,2872A,120.7846,30.7525,嘉兴市,南湖区残联,,,40,31,9,16,54,,76,72,41,21,,7,0.4,0.5
2025-03-13T1900,3407A,120.6916,30.7739,嘉兴市,秀洲住建,,20,19,31,14,18,51,,73,70,39,22,4,4,0.5,0.6
2025-03-13T1900,1945A,98.2908,39.7711,嘉峪关市,气象局,颗粒物(PM10),54,58,71,17,19,99,,99,99,9,16,7,24,0.3,0.7
2025-03-13T1900,2884A,98.2672,39.7978,嘉峪关市,酒钢宾馆,颗粒物(PM10),58,66,69,22,19,94,,85,85,12,14,8,30,0.0,0.5
2025-03-13T1900,3248A,98.2643,39.7724,嘉峪关市,雄关区,,47,47,56,21,22,101,,96,96,14,19,4,11,0.2,0.5
2025-03-13T1900,1383A,113.1064,22.6058,江门市,北街,,20,13,32,13,18,61,,86,85,12,17,4,3,0.6,0.5
2025-03-13T1900,1384A,113.0731,22.5835,江门市,西区,,40,40,36,16,16,52,,84,82,19,24,8,6,0.6,0.4
2025-03-13T1900,1385A,113.0219,22.5311,江门市,圭峰西,,24,24,36,10,17,41,,74,72,18,21,5,5,0.3,0.4
2025-03-13T1900,1386A,113.0828,22.5947,江门市,东湖,,26,25,33,18,18,64,,90,90,16,16,10,7,0.6,0.4
2025-03-13T1900,3311A,113.1075,22.5647,江门市,江海富民,,27,27,47,13,22,61,,88,88,10,15,8,6,0.6,0.4
2025-03-13T1900,3449A,113.05,22.4667,江门市,新会银湖,,25,25,33,9,18,40,,74,72,18,23,2,2,0.3,0.4
2025-03-13T1900,1830A,113.1992,35.2590,焦作市,影视城,,,,,,,,,,,,,,,,
2025-03-13T1900,3169A,113.2725,35.2067,焦作市,太极体育中心,颗粒物(PM10),141,231,230,98,92,101,,113,113,33,34,12,11,0.8,0.8
2025-03-13T1900,3335A,113.3137,35.2641,焦作市,马村街道办,颗粒物(PM10),130,210,209,96,84,99,,116,116,29,26,8,9,0.7,0.7
2025-03-13T1900,3336A,113.2465,35.2373,焦作市,焦作技师学院,颗粒物(PM10),144,238,222,100,75,119,,126,126,37,30,6,8,1.0,0.9
2025-03-13T1900,3477A,113.1656,35.2539,焦作市,中站许衡医院,颗粒物(PM10),149,247,213,112,72,117,,133,133,29,24,8,10,0.9,0.7
2025-03-13T1900,3981A,113.2449,35.1803,焦作市,原李万街道办,颗粒物(PM10),137,223,239,88,85,115,,120,120,23,34,9,11,0.5,0.5
2025-03-13T1900,4264A,113.2340,35.2190,焦作市,新安路1731号,细颗粒物(PM2.5),152,236,228,116,88,122,,126,126,24,26,9,9,0.8,0.8
2025-03-13T1900,1708A,116.3701,23.5345,揭阳市,新兴,颗粒物(PM10),66,82,64,28,47,76,,80,80,15,34,4,6,0.8,1.1
2025-03-13T1900,1709A,116.3264,23.5443,揭阳市,西马,颗粒物(PM10),53,56,62,6,28,56,,76,76,5,26,7,8,0.6,1
2025-03-13T1900,1710A,116.3611,23.5626,揭阳市,东兴,颗粒物(PM10),52,53,71,23,46,75,,85,85,12,27,4,5,0.9,1.1
2025-03-13T1900,1711A,116.4151,23.5294,揭阳市,渔湖,颗粒物(PM10),60,70,63,26,26,71,,93,93,4,31,5,6,0.8,1
2025-03-13T1900,3320A,116.403,23.5699,揭阳市,曲溪,颗粒物(PM10),61,71,53,32,28,86,,94,94,15,27,3,6,0.9,0.9
2025-03-13T1900,1944A,102.1692,38.5167,金昌市,天庆家园,,35,35,60,13,24,86,,96,92,4,6,7,15,0.7,0.8
2025-03-13T1900,4022A,102.1647,38.5371,金昌市,金川区人防中心,,39,39,78,10,22,83,,88,86,3,6,8,12,0.5,0.6
2025-03-13T1900,4239A,102.1930,38.5319,金昌市,长春路96号,,28,28,41,16,24,84,,85,85,6,8,10,17,0.5,0.6
2025-03-13T1900,1262A,119.647,29.077,金华市,十五中,,29,28,13,20,10,61,,58,58,37,32,5,5,0.5,0.5
2025-03-13T1900,1263A,119.686,29.1029,金华市,监测站,,46,,14,32,13,57,,55,55,37,37,4,4,0.4,0.5
2025-03-13T1900,3659A,119.656,29.1131,金华市,气象局,,24,24,13,13,4,61,,54,54,32,30,4,4,0.6,0.6
2025-03-13T1900,1767A,121.1115,41.0879,锦州市,南山,细颗粒物(PM2.5),53,38,49,37,25,82,,89,89,23,26,26,23,0.6,0.6
2025-03-13T1900,1768A,121.0604,40.8428,锦州市,开发区,细颗粒物(PM2.5),79,,65,58,30,67,,92,91,40,40,17,24,0.6,0.8
2025-03-13T1900,1769A,121.1836,41.1119,锦州市,百股街道,,49,,56,34,28,68,,85,84,28,29,20,20,0.6,0.7
2025-03-13T1900,1770A,121.1178,41.1222,锦州市,天安街道,,44,44,48,29,19,80,,91,90,28,32,10,20,0.6,0.6
2025-03-13T1900,1771A,121.1303,41.1386,锦州市,北湖公园,细颗粒物(PM2.5),60,50,47,43,22,74,,86,85,30,23,12,17,0.6,0.5
2025-03-13T1900,2160A,112.85,35.5051,晋城市,自来水公司,颗粒物(PM10),134,218,180,95,57,127,,127,127,26,30,8,9,0.8,0.7
2025-03-13T1900,2161A,112.8318,35.4936,晋城市,白云商贸,颗粒物(PM10),141,232,199,105,62,141,,141,141,24,29,8,8,0.9,0.7
2025-03-13T1900,2162A,112.8508,35.4887,晋城市,市环保局,颗粒物(PM10),132,213,196,,53,129,,131,131,23,35,7,8,1.0,0.6
2025-03-13T1900,2163A,112.8676,35.4897,晋城市,技术学院,颗粒物(PM10),130,210,189,85,50,106,,110,110,28,37,8,9,0.8,0.6
2025-03-13T1900,2165A,112.8453,35.546,晋城市,白马寺,颗粒物(PM10),100,149,162,74,58,138,,135,135,14,12,6,7,0.8,0.6
2025-03-13T1900,3620A,112.8271,35.4828,晋城市,泽州一中,,,,201,,64,136,,134,134,21,27,9,10,0.7,0.7
2025-03-13T1900,2173A,112.7249,37.7067,晋中市,南都小区,颗粒物(PM10),105,159,142,45,43,116,,113,113,17,28,14,11,0.4,0.4
2025-03-13T1900,2174A,112.6991,37.6982,晋中市,榆次区政府,颗粒物(PM10),106,161,148,34,37,116,,114,114,23,36,15,11,0.6,0.5
2025-03-13T1900,2865A,112.7195,37.6828,晋中市,榆次三中,颗粒物(PM10),117,183,146,53,37,113,,114,114,20,32,14,9,0.5,0.5
2025-03-13T1900,4200A,112.7478,37.6954,晋中市,迎宾街26号,颗粒物(PM10),111,171,147,53,42,122,,122,122,16,26,12,8,0.4,0.3
2025-03-13T1900,2439A,112.2014,31.0481,荆门市,竹园小学,细颗粒物(PM2.5),117,118,151,88,66,66,,72,70,25,19,5,6,0.4,0.3
2025-03-13T1900,2440A,112.1969,30.9891,荆门市,掇刀,细颗粒物(PM2.5),118,113,146,89,68,78,,87,85,24,19,6,7,0.5,0.5
2025-03-13T1900,2441A,112.2213,31.0386,荆门市,石化一小,细颗粒物(PM2.5),115,109,151,87,66,65,,67,67,24,25,10,11,0.4,0.3
2025-03-13T1900,3012A,112.1849,31.0362,荆门市,西山林语,细颗粒物(PM2.5),93,107,132,69,61,68,,87,76,26,18,6,6,0.4,0.3
2025-03-13T1900,3547A,112.1632,31.0138,荆门市,龙泉中学南校,细颗粒物(PM2.5),92,99,141,68,67,78,,88,77,16,15,8,8,0.6,0.6
2025-03-13T1900,1844A,112.2494,30.3197,荆州市,市图书馆,细颗粒物(PM2.5),82,76,99,60,66,67,,59,59,24,30,4,6,0.7,0.8
2025-03-13T1900,1845A,112.2008,30.3544,荆州市,市委党校,细颗粒物(PM2.5),79,77,114,58,69,59,,57,57,34,36,5,8,0.6,0.6
2025-03-13T1900,3194A,112.2747,30.3122,荆州市,管委会,细颗粒物(PM2.5),73,76,108,53,65,50,,59,55,32,30,8,10,0.6,0.5
2025-03-13T1900,4268A,112.1722,30.3366,荆州市,学苑路85号,细颗粒物(PM2.5),95,74,106,71,72,56,,61,61,22,23,8,9,0.8,0.8
2025-03-13T1900,2342A,117.3102,29.3867,景德镇市,王港中学,,,,,,,,,,,,,,,,
2025-03-13T1900,2343A,117.2117,29.2933,景德镇市,老干部活动中心,,18,18,11,11,11,42,,46,43,13,12,4,4,0.5,0.6
2025-03-13T1900,2344A,117.1894,29.2789,景德镇市,兽医站,,21,21,17,10,6,55,,56,56,18,15,5,4,0.8,0.8
2025-03-13T1900,2345A,117.1547,29.2617,景德镇市,台达陶瓷,,21,21,18,9,10,37,,40,40,19,24,17,26,0.7,0.7
2025-03-13T1900,2346A,117.2461,29.2956,景德镇市,陶研所,,13,,10,9,10,37,,42,39,18,14,5,5,0.7,0.8
2025-03-13T1900,1803A,115.9872,29.6815,九江市,十里,细颗粒物(PM2.5),52,49,51,36,35,50,,94,58,21,15,2,2,0.7,0.7
2025-03-13T1900,1804A,115.9584,29.7046,九江市,茅山头,,42,42,54,27,33,45,,93,58,28,18,5,5,0.6,0.5
2025-03-13T1900,1805A,115.9877,29.7295,九江市,西园,,46,43,45,32,40,43,,93,57,37,24,7,7,0.9,0.9
2025-03-13T1900,1808A,115.9114,29.6038,九江市,综合工业园,细颗粒物(PM2.5),54,45,42,38,42,48,,97,61,35,24,6,6,0.8,0.8
2025-03-13T1900,1809A,116.0721,29.7535,九江市,石化总厂,细颗粒物(PM2.5),67,50,55,48,51,49,,91,52,25,21,6,6,0.8,0.8
2025-03-13T1900,1810A,115.9773,29.5698,九江市,庐山气象台,,18,18,14,12,15,57,,74,64,9,8,6,7,1.5,1.1
2025-03-13T1900,3190A,116.0254,29.6994,九江市,外国语学校,细颗粒物(PM2.5),52,,49,36,38,43,,83,50,29,22,6,6,0.6,0.5
2025-03-13T1900,4253A,116.0102,29.6594,九江市,莲花大道8号,细颗粒物(PM2.5),79,,53,58,62,44,,86,54,18,12,6,6,0.8,0.7
2025-03-13T1900,4240A,98.4958,39.7339,酒泉市,玉门东路5号,颗粒物(PM10),57,63,72,24,26,96,,98,98,6,7,7,8,0.4,0.3
2025-03-13T1900,4241A,98.5099,39.7506,酒泉市,北大街108号,,46,46,65,22,23,82,,84,84,8,9,9,10,0.2,0.2
2025-03-13T1900,2698A,76.0072,39.4467,喀什地区,巡警大队,颗粒物(PM10),147,244,243,56,55,99,,85,85,8,35,3,5,0.3,0.8
2025-03-13T1900,2699A,75.9755,39.4694,喀什地区,吾办,颗粒物(PM10),153,255,257,70,79,101,,88,88,8,38,2,4,0.3,0.9
2025-03-13T1900,4027A,75.9483,39.4689,喀什地区,老干局,颗粒物(PM10),156,261,273,48,64,109,,93,93,8,37,2,4,0.3,0.9
2025-03-13T1900,1824A,114.3389,34.7781,开封市,肿瘤医院,颗粒物(PM10),102,153,228,45,80,93,,116,115,22,38,5,6,0.7,0.9
2025-03-13T1900,1826A,114.2885,34.7965,开封市,世纪星幼儿园,颗粒物(PM10),97,144,216,41,83,110,,128,128,21,42,8,8,0.7,0.9
2025-03-13T1900,3147A,114.3438,34.8106,开封市,龙亭公园,颗粒物(PM10),96,141,227,37,79,102,,118,118,18,46,2,5,0.4,0.6
2025-03-13T1900,3210A,114.3644,34.7964,开封市,汴京公园,颗粒物(PM10),105,160,249,37,86,104,,120,120,19,44,4,5,0.5,0.8
2025-03-13T1900,3473A,114.2485,34.8306,开封市,技师学院,颗粒物(PM10),106,161,223,38,80,107,,115,115,18,40,6,8,0.8,1
2025-03-13T1900,3592A,114.4644,34.7556,开封市,祥符区生态环境局,颗粒物(PM10),100,149,245,39,82,78,,107,106,32,45,4,5,0.4,0.6
2025-03-13T1900,1951A,84.895,45.6094,克拉玛依市,长征新村,,30,,13,19,8,96,,93,93,2,2,6,5,0.2,0.2
2025-03-13T1900,1952A,84.8988,45.5893,克拉玛依市,南林小区,,30,19,14,9,8,95,,92,92,2,3,4,3,0.4,0.3
2025-03-13T1900,1954A,84.905,44.3396,克拉玛依市,独山子区,细颗粒物(PM2.5),59,56,57,42,17,82,,76,73,8,8,5,5,0.2,0.1
2025-03-13T1900,1955A,85.6979,46.098,克拉玛依市,乌尔禾区商贸楼,,30,17,23,3,9,94,,91,91,3,4,4,4,0.3,0.3
2025-03-13T1900,3612A,85.1045,45.6899,克拉玛依市,白碱滩区新站,,29,17,16,12,8,90,,91,91,6,2,6,6,0.3,0.5
2025-03-13T1900,2697A,76.1454,39.7142,克孜勒苏柯尔克孜自治州,市人民政府,,,,219,,54,112,,103,103,,7,,4,0.1,0.1
2025-03-13T1900,3665A,76.1658,39.7157,克孜勒苏柯尔克孜自治州,克州文化中心,颗粒物(PM10),154,257,224,58,55,110,,102,102,1,9,5,5,0.4,0.4
2025-03-13T1900,1450A,102.8204,24.8886,昆明市,呈贡新区,,,76,62,59,49,,,137,137,14,36,7,9,0.5,0.8
2025-03-13T1900,1451A,102.6251,24.9608,昆明市,西山森林公园,,,,,,,,,,,,,,,,
2025-03-13T1900,1452A,102.7252,25.0902,昆明市,龙泉镇,细颗粒物(PM2.5),74,79,66,54,47,140,,139,139,15,47,6,7,0.7,0.7
2025-03-13T1900,1453A,102.7266,25.0375,昆明市,东风东路,细颗粒物(PM2.5),79,82,70,58,52,139,,136,136,16,34,7,8,0.6,0.7
2025-03-13T1900,1454A,102.6742,25.0669,昆明市,金鼎山,颗粒物(PM10),71,91,79,50,50,137,,132,132,16,43,6,3,0.8,0.9
2025-03-13T1900,1455A,102.6644,25.0401,昆明市,碧鸡广场,细颗粒物(PM2.5),67,71,70,48,48,140,,139,139,17,42,6,8,0.4,0.5
2025-03-13T1900,3179A,102.7494,25.0119,昆明市,官渡区博物馆,细颗粒物(PM2.5),73,86,70,53,47,146,,143,143,11,28,8,9,0.4,0.6
2025-03-13T1900,3375A,102.8017,24.8336,昆明市,青年创业园,细颗粒物(PM2.5),75,67,62,55,43,146,,147,147,7,21,7,12,0.5,0.6
2025-03-13T1900,3550A,102.7997,24.9786,昆明市,昆明学院,细颗粒物(PM2.5),75,75,66,55,45,142,,145,145,14,20,5,7,0.6,0.6
2025-03-13T1900,3551A,102.5967,24.6736,昆明市,晋宁区生态环境分局,细颗粒物(PM2.5),62,53,53,44,45,135,,136,136,15,27,9,7,0.4,0.5
2025-03-13T1900,3552A,102.6678,24.9856,昆明市,云天化总部,细颗粒物(PM2.5),64,71,62,46,43,151,,148,148,10,36,6,8,0.5,0.5
2025-03-13T1900,1456A,91.1319,29.6514,拉萨市,八廓街,,38,13,14,10,8,120,,117,117,11,12,7,6,0.5,0.5
2025-03-13T1900,1457A,91.1221,29.6747,拉萨市,市环保局,,35,26,18,7,8,110,,110,110,16,16,7,6,0.4,0.4
2025-03-13T1900,1458A,91.0874,29.6475,拉萨市,区监测站,,35,11,12,8,6,110,,109,109,13,15,6,6,0.2,0.7
2025-03-13T1900,1459A,91.1774,29.6541,拉萨市,西藏大学,,37,15,12,3,6,117,,111,111,10,11,5,4,0.5,0.6
2025-03-13T1900,1460A,90.9798,29.6588,拉萨市,区辐射站,,37,16,20,7,9,117,,111,111,11,19,7,7,0.4,0.5
2025-03-13T1900,1461A,91.0834,29.6292,拉萨市,拉萨火车站,,38,10,11,6,6,121,,113,113,5,12,4,4,0.4,0.5
2025-03-13T1900,2520A,109.2203,23.7256,来宾市,来宾技工学校,,,28,42,19,29,,,22,18,26,22,6,9,1.1,0.9
2025-03-13T1900,3535A,109.1781,23.7297,来宾市,兴宾区政府,,31,31,37,21,26,8,,24,18,20,16,5,10,1.2,0.9
2025-03-13T1900,4002A,109.2416,23.7461,来宾市,中南小学,,35,32,44,24,31,10,,25,19,21,21,6,8,1.1,1
2025-03-13T1900,1477A,104.1373,35.9454,兰州市,榆中兰大校区,,,,,,,,,,,,,,,,
2025-03-13T1900,1479A,103.831,36.0464,兰州市,铁路设计院,颗粒物(PM10),117,184,158,62,59,80,,88,88,32,64,7,15,0.5,1
2025-03-13T1900,3241A,103.7439,36.0842,兰州市,百合公园,颗粒物(PM10),137,224,165,40,54,88,,91,91,7,46,5,14,0.6,1
2025-03-13T1900,3242A,103.9611,35.998,兰州市,和平,颗粒物(PM10),159,268,170,59,59,85,,94,94,12,34,16,12,0.3,0.7
2025-03-13T1900,4236A,103.6293,36.0938,兰州市,庄浪东路808号,颗粒物(PM10),129,207,159,63,61,94,,93,93,12,50,8,19,0.4,0.8
2025-03-13T1900,4237A,103.7251,36.1043,兰州市,安宁西路88号,颗粒物(PM10),135,220,179,51,61,99,,99,99,6,46,6,17,0.3,0.8
2025-03-13T1900,4238A,103.8470,36.0676,兰州市,北滨河东路1号,颗粒物(PM10),124,198,162,50,53,90,,93,93,17,57,8,17,0.3,0.8
2025-03-13T1900,3245A,103.6633,36.533,兰州新区,新区管委会,颗粒物(PM10),87,123,122,41,46,104,,100,100,6,14,9,12,0.1,0.3
2025-03-13T1900,3246A,103.6975,36.4789,兰州新区,舟曲中学,颗粒物(PM10),194,338,199,45,51,98,,98,98,7,26,3,21,0.3,0.5
2025-03-13T1900,1067A,116.6708,39.5111,廊坊市,药材公司,颗粒物(PM10),107,164,165,60,66,65,,76,76,47,50,8,7,0.7,0.7
2025-03-13T1900,1068A,116.7214,39.5589,廊坊市,开发区,颗粒物(PM10),111,171,165,64,62,69,,73,73,43,48,9,7,0.7,0.6
2025-03-13T1900,1070A,116.7244,39.5269,廊坊市,北华航天学院,颗粒物(PM10),100,150,153,56,57,66,,72,72,39,45,10,8,0.7,0.6
2025-03-13T1900,2919A,116.7022,39.5453,廊坊市,河北工业大学,颗粒物(PM10),99,147,154,61,63,69,,74,74,39,43,11,10,0.7,0.6
2025-03-13T1900,2535A,103.7723,29.5462,乐山市,花湖湾,颗粒物(PM10),87,124,112,51,41,46,,67,38,31,26,4,5,0.5,0.8
2025-03-13T1900,2536A,103.7627,29.5844,乐山市,牛耳桥,颗粒物(PM10),89,128,111,47,42,41,,53,39,38,35,9,9,0.6,0.6
2025-03-13T1900,2537A,103.7508,29.6006,乐山市,市第三水厂,颗粒物(PM10),90,130,114,49,40,45,,60,46,34,31,4,4,0.6,0.6
2025-03-13T1900,2538A,103.7571,29.5664,乐山市,市监测站,颗粒物(PM10),82,114,103,42,40,44,,60,38,29,24,4,5,0.8,0.7
2025-03-13T1900,3361A,103.7311,29.5628,乐山市,理工大学,,,121,111,49,45,35,,51,40,38,29,,7,0.5,0.4
2025-03-13T1900,2598A,100.2143,26.8576,丽江市,西南郊,,33,,47,11,38,105,,122,118,16,7,4,5,1.2,1
2025-03-13T1900,2599A,100.2497,26.8802,丽江市,丽江古城,,35,24,45,20,35,109,,113,112,13,14,8,8,0.8,0.8
2025-03-13T1900,2600A,100.2203,26.8906,丽江市,市中心,,29,17,36,17,32,90,,110,106,26,12,7,7,1.1,0.8
2025-03-13T1900,1267A,119.914,28.4514,丽水市,监测站大楼,,13,9,18,3,12,39,,48,47,22,23,3,3,0.5,0.6
2025-03-13T1900,1268A,119.93,28.4586,丽水市,莲都小学,,15,6,18,3,11,47,,51,51,21,22,3,3,0.4,0.5
2025-03-13T1900,1269A,119.879,28.4231,丽水市,余庄前,,10,8,28,3,18,29,,50,48,20,23,4,4,0.5,0.7
2025-03-13T1900,1173A,119.176,34.5885,连云港市,市环境监测站,颗粒物(PM10),59,68,97,29,40,94,,112,110,23,18,13,11,0.6,0.7
2025-03-13T1900,3000A,119.3581,34.6972,连云港市,德源药业,,,,107,,41,,,103,100,,22,8,8,,0.6
2025-03-13T1900,3007A,119.178,34.844,连云港市,新城一中,细颗粒物(PM2.5),72,84,104,52,73,75,,86,86,36,38,8,8,0.8,1
2025-03-13T1900,3008A,119.3608,34.7519,连云港市,胡沟管理处,颗粒物(PM10),53,56,74,27,42,56,,91,84,64,46,12,12,0.7,0.8
2025-03-13T1900,3009A,119.1478,34.5911,连云港市,矿山设计院,颗粒物(PM10),63,75,104,31,44,92,,110,107,26,22,13,11,0.6,0.6
2025-03-13T1900,3434A,119.2413,34.6539,连云港市,工贸学校,颗粒物(PM10),56,62,98,28,43,93,,107,106,21,20,14,9,0.8,0.8
2025-03-13T1900,3664A,119.4172,34.7341,连云港市,连云街道,,37,37,84,14,34,81,,99,96,27,27,9,7,0.5,0.6
2025-03-13T1900,2571A,102.3431,27.8099,凉山彝族自治州,青龙寺,颗粒物(PM10),71,92,58,21,20,140,,136,136,4,9,5,5,0.8,0.8
2025-03-13T1900,2572A,102.2721,27.8415,凉山彝族自治州,邛海宾馆,细颗粒物(PM2.5),54,56,68,38,42,139,,138,138,8,14,14,14,0.7,0.7
2025-03-13T1900,2573A,102.2625,27.898,凉山彝族自治州,西昌市政府,细颗粒物(PM2.5),55,50,58,39,49,117,,121,121,8,12,7,16,0.6,0.9
2025-03-13T1900,2574A,102.2685,27.8851,凉山彝族自治州,凉山州政府,细颗粒物(PM2.5),52,50,64,36,45,136,,136,136,8,12,6,9,0.6,0.8
2025-03-13T1900,4229A,102.2342,27.8859,凉山彝族自治州,凯乐南路30号,颗粒物(PM10),53,56,72,32,44,121,,126,126,11,25,12,13,0.7,0.7
2025-03-13T1900,2212A,123.2,41.1953,辽阳市,宏伟区,细颗粒物(PM2.5),52,,88,36,21,87,,103,102,17,13,14,16,0.7,0.6
2025-03-13T1900,2213A,123.1683,41.2495,辽阳市,新华园,细颗粒物(PM2.5),55,43,100,39,28,76,,96,95,26,26,16,13,0.7,0.8
2025-03-13T1900,2214A,123.2354,41.2639,辽阳市,滨河路,细颗粒物(PM2.5),89,,95,66,30,70,,99,96,31,19,13,11,0.6,0.5
2025-03-13T1900,2215A,123.149,41.2991,辽阳市,铁西工业园,细颗粒物(PM2.5),80,64,99,59,33,67,,105,101,30,29,12,12,0.6,0.6
2025-03-13T1900,2227A,125.1358,42.8845,辽源市,环保局,,28,28,64,18,17,82,,103,101,22,11,6,4,0.7,0.5
2025-03-13T1900,3239A,125.0764,42.9078,辽源市,银鹰制药,,31,31,51,21,14,71,,106,103,29,10,6,7,0.6,0.5
2025-03-13T1900,1625A,115.9848,36.4372,聊城市,区政府,颗粒物(PM10),76,102,181,35,56,104,,111,111,15,25,14,14,0.6,0.7
2025-03-13T1900,2878A,116.0072,36.4343,聊城市,聊大东校,颗粒物(PM10),76,102,193,30,60,101,,106,106,24,33,9,10,0.7,0.9
2025-03-13T1900,3200A,115.9819,36.4978,聊城市,监控中心,颗粒物(PM10),73,96,191,36,58,105,,109,109,20,34,13,13,0.6,0.7
2025-03-13T1900,3513A,116.0445,36.4361,聊城市,九州社区,颗粒物(PM10),72,94,172,31,55,101,,114,114,20,26,9,12,0.5,0.7
2025-03-13T1900,4018A,116.0567,36.4608,聊城市,星美广场,颗粒物(PM10),71,92,178,31,54,104,,111,111,22,31,14,15,0.7,0.8
2025-03-13T1900,2632A,94.3681,29.6376,林芝市,林芝监测站,颗粒物(PM10),57,63,12,9,7,89,,96,96,17,8,4,6,0.3,0.4
2025-03-13T1900,2633A,94.3616,29.6616,林芝市,林芝人民医院,,30,10,16,6,7,95,,97,97,8,5,7,7,0.3,0.3
2025-03-13T1900,2603A,100.0781,23.8982,临沧市,市环保局,细颗粒物(PM2.5),117,107,80,88,53,146,,139,139,11,17,11,11,0.6,0.7
2025-03-13T1900,2604A,100.0894,23.8822,临沧市,市气象局,细颗粒物(PM2.5),80,74,73,59,54,147,,141,141,12,19,8,9,0.8,0.5
2025-03-13T1900,1733A,111.5531,36.0783,临汾市,临钢医院,颗粒物(PM10),86,121,216,30,40,110,,106,106,15,33,7,11,0.5,0.7
2025-03-13T1900,1734A,111.5028,36.0714,临汾市,技工学校,颗粒物(PM10),75,99,184,41,48,113,,109,109,11,29,8,11,0.5,0.6
2025-03-13T1900,1736A,111.5018,36.0855,临汾市,市委,颗粒物(PM10),74,98,196,22,41,111,,108,108,11,27,8,10,0.6,0.8
2025-03-13T1900,3018A,111.505,36.1014,临汾市,唐尧大酒店,颗粒物(PM10),74,98,184,29,42,114,,109,109,14,32,7,9,0.5,0.7
2025-03-13T1900,4244A,111.4879,36.0530,临汾市,启星学校,颗粒物(PM10),66,81,156,35,54,108,,105,105,10,30,5,8,0.6,0.7
2025-03-13T1900,4271A,103.2464,35.6123,临夏回族自治州,滨河东路1号,颗粒物(PM10),72,94,81,20,13,95,,107,107,10,23,9,8,0.4,0.7
2025-03-13T1900,4310A,103.2093,35.5995,临夏回族自治州,新华街21号,细颗粒物(PM2.5),82,,46,60,19,89,,100,100,17,26,15,13,0.4,0.9
2025-03-13T1900,1618A,118.3429,35.0532,临沂市,沂河小区,颗粒物(PM10),54,58,141,22,65,84,,98,97,19,35,12,14,0.5,1
2025-03-13T1900,1619A,118.295,35.0583,临沂市,鲁南制药厂,颗粒物(PM10),54,58,150,22,63,87,,101,99,33,53,9,14,0.3,0.8
2025-03-13T1900,1620A,118.2794,34.9976,临沂市,新光毛纺厂,颗粒物(PM10),53,56,133,26,66,83,,103,101,32,42,7,10,0.6,0.9
2025-03-13T1900,1621A,118.3956,35.0888,临沂市,河东保险公司,,41,41,137,20,62,93,,106,105,28,54,5,9,0.6,1.2
2025-03-13T1900,3370A,118.3564,35.0215,临沂市,十里堡居委,颗粒物(PM10),54,58,129,22,59,84,,106,103,29,40,10,12,0.5,0.9
2025-03-13T1900,3496A,118.3604,35.1084,临沂市,南坊新区,,44,44,129,19,55,95,,107,106,19,42,5,10,0.5,1
2025-03-13T1900,3860A,118.3920,35.0300,临沂市,皇山花园小区,颗粒物(PM10),53,56,146,26,65,84,,107,103,24,42,7,9,0.3,0.8
2025-03-13T1900,1870A,109.4856,24.3895,柳州市,柳东小学,,26,26,31,17,22,12,,17,16,19,20,10,10,0.6,0.6
2025-03-13T1900,1871A,109.4157,24.3277,柳州市,环保监测站,,39,39,43,20,26,7,,16,15,31,30,11,10,1.1,1
2025-03-13T1900,1872A,109.389,24.341,柳州市,河西水厂,,46,41,46,32,29,9,,14,14,27,29,13,7,0.9,1.2
2025-03-13T1900,1873A,109.4311,24.2921,柳州市,市四中,,,42,60,23,33,,,19,19,26,29,7,8,0.8,0.8
2025-03-13T1900,1874A,109.4006,24.3631,柳州市,市九中,,38,38,40,19,21,14,,19,19,20,23,8,8,1.1,1.1
2025-03-13T1900,1875A,109.4958,24.3134,柳州市,古亭山,,22,22,41,14,21,17,,19,18,14,15,6,7,0.6,0.6
2025-03-13T1900,3402A,109.5422,24.3996,柳州市,市二中,,15,15,33,8,20,33,,22,22,15,23,9,10,0.7,0.7
2025-03-13T1900,2307A,116.5079,31.737,六安市,监测大楼,,50,50,84,29,83,60,,78,73,31,22,4,4,0.7,0.8
2025-03-13T1900,2308A,116.4738,31.7643,六安市,皖西学院,,45,45,97,26,84,60,,80,75,31,19,4,4,0.6,0.7
2025-03-13T1900,2309A,116.4996,31.7905,六安市,朝阳厂,,,,88,,81,61,,77,73,29,24,2,3,,0.7
2025-03-13T1900,2310A,116.5567,31.7886,六安市,开发区,颗粒物(PM10),51,52,98,28,69,57,,82,77,32,18,3,4,0.6,0.8
2025-03-13T1900,2576A,104.8,26.5892,六盘水市,窑上,细颗粒物(PM2.5),143,129,132,109,86,52,,68,66,19,17,8,8,1.0,0.9
2025-03-13T1900,2577A,104.83,26.5917,六盘水市,黄土坡,细颗粒物(PM2.5),119,139,135,90,71,46,,65,65,30,26,15,15,1.2,1.2
2025-03-13T1900,2578A,104.89,26.5939,六盘水市,水钢,细颗粒物(PM2.5),132,148,131,100,75,43,,72,72,24,21,9,11,0.8,0.7
2025-03-13T1900,2579A,104.8475,26.5894,六盘水市,民中,细颗粒物(PM2.5),134,130,119,102,75,39,,59,59,30,25,12,14,0.8,0.9
2025-03-13T1900,2580A,104.9544,26.5506,六盘水市,双水,细颗粒物(PM2.5),139,168,109,106,63,57,,76,76,32,19,11,12,0.7,0.6
2025-03-13T1900,2335A,117.0189,25.1181,龙岩市,龙岩师专,,,,,,,,,,,,,,,,
2025-03-13T1900,2336A,117.0217,25.1033,龙岩市,龙岩市监测站,,22,,13,15,9,53,,65,65,15,11,2,4,0.6,0.4
2025-03-13T1900,2337A,117.0258,25.0661,龙岩市,闽西职业技术学院,,21,21,15,11,10,48,,63,63,17,10,3,2,0.4,0.4
2025-03-13T1900,2338A,117.0196,25.0306,龙岩市,龙岩学院,,29,,14,20,8,53,,66,66,6,7,3,7,0.5,0.4
2025-03-13T1900,2665A,105.0822,33.3261,陇南市,汉王镇固水子,,,,,,,,,,,,,,,,
2025-03-13T1900,2885A,104.9339,33.3826,陇南市,滨江中学,颗粒物(PM10),78,105,169,27,43,74,,74,74,5,9,6,7,0.4,0.6
2025-03-13T1900,3247A,104.955,33.371,陇南市,市总工会,颗粒物(PM10),68,85,161,31,52,80,,80,80,2,4,7,8,0.4,0.4
2025-03-13T1900,2487A,111.9589,27.8901,娄底市,电视发射台,,49,43,50,34,41,64,,61,61,12,10,5,5,0.6,0.6
2025-03-13T1900,2488A,111.9975,27.725,娄底市,市监测站,细颗粒物(PM2.5),67,73,56,48,37,50,,48,44,20,26,8,10,0.7,1
2025-03-13T1900,2489A,112.0194,27.7314,娄底市,市委党校,细颗粒物(PM2.5),57,56,52,40,41,54,,61,54,21,21,4,3,0.7,0.9
2025-03-13T1900,2490A,111.9561,27.7569,娄底市,涟钢,细颗粒物(PM2.5),57,58,48,40,35,52,,53,53,21,9,10,11,1.5,0.9
2025-03-13T1900,2491A,111.9892,27.7044,娄底市,市政府,颗粒物(PM10),65,80,45,39,35,45,,54,52,20,11,6,7,0.8,0.7
2025-03-13T1900,1893A,105.4324,28.9634,泸州市,九狮山,,,,,,,,,,,,,,,,
2025-03-13T1900,1894A,105.4427,28.9063,泸州市,小市上码头,,,98,68,56,40,,,55,50,37,19,7,7,0.5,0.5
2025-03-13T1900,1895A,105.4241,28.8573,泸州市,兰田宪桥,细颗粒物(PM2.5),62,67,59,44,42,48,,52,49,28,18,6,6,0.5,0.5
2025-03-13T1900,1896A,105.4379,28.8833,泸州市,市环监站,,,,50,,39,,,80,,,20,,8,,0.3
2025-03-13T1900,4272A,105.3689,28.7783,泸州市,纳溪中医医院,细颗粒物(PM2.5),92,87,59,68,37,65,,58,58,18,13,5,5,0.6,0.5
2025-03-13T1900,2183A,111.1406,37.5211,吕梁市,环保局,颗粒物(PM10),86,121,138,46,47,103,,97,97,16,44,2,3,0.3,0.4
2025-03-13T1900,2185A,111.1297,37.5136,吕梁市,自来水公司,颗粒物(PM10),81,112,142,41,37,98,,91,91,17,33,3,4,0.4,0.5
2025-03-13T1900,2867A,111.1283,37.51,吕梁市,马茂庄小学,颗粒物(PM10),94,137,154,43,42,100,,98,98,21,42,4,7,0.3,0.4
2025-03-13T1900,1812A,112.3931,34.6516,洛阳市,市委党校,颗粒物(PM10),132,214,211,97,72,90,,84,84,40,51,10,11,0.8,0.7
2025-03-13T1900,1815A,112.494,34.6886,洛阳市,河南林校,细颗粒物(PM2.5),204,244,245,154,83,87,,90,90,36,39,7,8,0.9,0.8
2025-03-13T1900,1816A,112.3844,34.623,洛阳市,开发区管委会,细颗粒物(PM2.5),175,257,230,132,83,92,,88,88,42,50,10,11,0.8,0.8
2025-03-13T1900,1817A,112.4267,34.6258,洛阳市,市委新办公区,颗粒物(PM10),158,265,229,100,75,82,,85,85,53,50,8,9,0.8,0.6
2025-03-13T1900,3340A,112.6005,34.6326,洛阳市,伊滨,细颗粒物(PM2.5),190,257,224,143,82,,,77,77,62,53,7,8,1.0,0.9
2025-03-13T1900,3341A,112.4951,34.6332,洛阳市,中移产业园,细颗粒物(PM2.5),196,274,264,147,94,69,,79,79,57,51,9,10,1.0,0.7
2025-03-13T1900,3593A,112.5736,34.8993,洛阳市,吉利监测站,细颗粒物(PM2.5),204,252,217,154,83,89,,91,91,40,46,5,7,1.0,0.8
2025-03-13T1900,3635A,112.3677,34.662,洛阳市,河科大西苑校区,细颗粒物(PM2.5),150,222,224,115,72,93,,90,90,38,45,10,14,0.8,0.6
2025-03-13T1900,3636A,112.4388,34.6781,洛阳市,英才小学,颗粒物(PM10),143,236,252,104,70,94,,91,91,39,49,10,12,0.8,0.7
2025-03-13T1900,4214A,112.4600,34.6949,洛阳市,春都路1号院,细颗粒物(PM2.5),150,206,237,115,68,86,,95,95,49,47,9,10,1.0,0.8
2025-03-13T1900,2399A,114.051,33.5699,漯河市,三五一五工厂,细颗粒物(PM2.5),103,81,185,77,110,96,,116,116,12,21,3,4,0.5,0.6
2025-03-13T1900,2400A,114.0055,33.5698,漯河市,漯河大学,细颗粒物(PM2.5),77,84,182,56,92,100,,119,119,16,24,4,5,0.5,0.6
2025-03-13T1900,2401A,114.0138,33.5828,漯河市,市水利局,细颗粒物(PM2.5),73,70,183,53,97,101,,120,120,11,22,3,4,0.4,0.6
2025-03-13T1900,2402A,114.0261,33.5698,漯河市,市广电局,细颗粒物(PM2.5),83,73,182,61,98,98,,117,117,13,21,3,4,0.4,0.6
2025-03-13T1900,3478A,113.9749,33.5664,漯河市,市图书馆,细颗粒物(PM2.5),83,93,188,61,99,100,,119,119,16,26,4,5,0.5,0.6
2025-03-13T1900,4250A,114.0892,33.5882,漯河市,韶山路11号,细颗粒物(PM2.5),85,104,206,63,102,98,,123,120,20,35,3,4,0.4,0.6
2025-03-13T1900,1798A,118.5092,31.6837,马鞍山市,湖东路四小,颗粒物(PM10),51,52,57,18,39,59,,76,72,32,22,6,6,0.6,0.7
2025-03-13T1900,1799A,118.5024,31.6449,马鞍山市,开发区,颗粒物(PM10),53,56,63,18,59,58,,74,71,34,23,4,4,0.6,0.6
2025-03-13T1900,1802A,118.6245,31.7241,马鞍山市,濮塘,颗粒物(PM10),51,52,72,30,45,64,,77,73,24,13,8,7,0.7,0.8
2025-03-13T1900,3633A,118.4918,31.6809,马鞍山市,雨山,颗粒物(PM10),53,56,54,14,30,58,,74,70,33,19,6,6,0.7,0.8
2025-03-13T1900,4191A,118.5274,31.72227,马鞍山市,慈湖高新区,,,40,64,28,52,,,75,72,29,23,5,6,0.7,0.6
2025-03-13T1900,1686A,111.0286,21.4688,茂名市,电白南海,,28,19,29,19,22,81,,74,74,12,7,3,2,0.7,0.7
2025-03-13T1900,1687A,110.9294,21.6533,茂名市,茂石化七小,,31,31,29,9,16,43,,50,50,8,7,3,3,0.5,0.5
2025-03-13T1900,1688A,110.9107,21.6687,茂名市,健康路,,22,22,24,14,15,44,,50,50,8,9,2,4,0.3,0.4
2025-03-13T1900,1689A,110.8592,21.6828,茂名市,高岭,,31,31,41,12,14,40,,46,46,11,13,2,4,0.4,0.4
2025-03-13T1900,3450A,111.01,21.5165,茂名市,电白水东,,,12,18,7,11,74,,66,66,,7,1,2,,0.7
2025-03-13T1900,2539A,104.0308,30.0478,眉山市,黑龙滩水库,细颗粒物(PM2.5),110,,40,83,58,57,,70,63,16,6,3,3,0.6,0.5
2025-03-13T1900,2540A,103.8416,30.0874,眉山市,气象局,颗粒物(PM10),100,150,126,53,44,53,,58,58,27,28,5,6,0.5,0.5
2025-03-13T1900,3137A,103.8578,30.0744,眉山市,市委党校,,,132,111,48,38,,,60,53,28,34,8,8,0.6,0.6
2025-03-13T1900,3148A,103.8291,30.0564,眉山市,区人社局,颗粒物(PM10),91,132,92,46,39,51,,64,53,31,36,8,8,0.6,0.6
2025-03-13T1900,1690A,116.1231,24.3284,梅州市,梅江月梅,,38,33,19,26,14,51,,64,64,7,12,9,9,0.5,0.5
2025-03-13T1900,1691A,116.0797,24.2719,梅州市,梅县新城,,42,,22,29,14,41,,60,60,18,17,5,6,0.6,0.4
2025-03-13T1900,1692A,116.1248,24.2654,梅州市,环境监控中心,,35,35,25,13,13,44,,57,57,19,19,6,6,0.6,0.6
2025-03-13T1900,3315A,116.1233,24.2991,梅州市,梅龙,,18,,18,12,10,48,,66,66,13,14,6,6,0.8,0.8
2025-03-13T1900,1878A,104.7778,31.4741,绵阳市,富乐山,,27,27,79,16,31,59,,75,73,9,13,1,2,0.4,0.5
2025-03-13T1900,1880A,104.6697,31.4668,绵阳市,高新区自来水公司,,38,38,94,17,31,59,,76,76,26,19,3,3,0.3,0.2
2025-03-13T1900,1881A,104.7287,31.5075,绵阳市,三水厂,,43,43,99,20,37,75,,85,85,15,16,5,5,0.6,0.5
2025-03-13T1900,3491A,104.69,31.5322,绵阳市,西科大附属小学,,40,40,102,17,35,64,,79,79,28,24,5,6,0.5,0.4
2025-03-13T1900,3492A,104.5648,31.5343,绵阳市,安州区旅游局,颗粒物(PM10),66,82,94,29,33,62,,78,78,23,20,9,9,0.4,0.4
2025-03-13T1900,4226A,104.7651,31.4531,绵阳市,绵阳市气象局,,24,24,80,12,26,68,,71,71,10,11,4,5,0.5,0.4
2025-03-13T1900,1784A,129.61,44.561,牡丹江市,环保大楼,,43,39,34,30,22,77,,82,81,10,9,4,5,0.3,0.2
2025-03-13T1900,1785A,129.6115,44.5782,牡丹江市,文化广场,,45,38,31,31,21,77,,85,83,11,8,8,8,0.2,0.2
2025-03-13T1900,1786A,129.5904,44.5963,牡丹江市,第一医院,,46,36,30,32,22,78,,83,82,10,8,8,9,0.1,0.1
2025-03-13T1900,1787A,129.6364,44.6075,牡丹江市,机车工厂,,38,38,39,18,16,81,,84,83,7,7,7,7,0.6,0.4
2025-03-13T1900,1788A,129.6386,44.5462,牡丹江市,第一中学,细颗粒物(PM2.5),52,,35,36,22,84,,88,87,5,5,6,6,0.3,0.3
2025-03-13T1900,2531A,105.0703,29.61,内江市,市监测站,,,34,50,29,31,,,64,64,,15,5,5,1.1,0.9
2025-03-13T1900,2532A,105.0717,29.5947,内江市,东兴区政府,,44,44,48,24,25,63,,61,61,14,15,2,3,0.5,0.7
2025-03-13T1900,2533A,105.0653,29.5817,内江市,内江二中,,46,46,57,28,25,68,,62,62,12,16,6,7,0.7,0.7
2025-03-13T1900,2534A,105.0406,29.5822,内江市,内江日报社,,41,41,52,28,26,64,,63,63,16,15,9,9,0.6,0.6
2025-03-13T1900,2628A,92.0657,31.4846,那曲市,那曲监测站,,,,29,,17,,,112,,6,16,5,9,0.4,1
2025-03-13T1900,3128A,92.0506,31.4797,那曲市,那曲会议中心,,38,25,29,6,11,120,,110,110,1,9,4,6,0.3,0.6
2025-03-13T1900,1290A,115.8931,28.6843,南昌市,省外办,细颗粒物(PM2.5),55,45,43,39,42,45,,74,59,29,16,4,4,0.9,0.9
2025-03-13T1900,1291A,115.8886,28.7003,南昌市,省林业公司,细颗粒物(PM2.5),62,,33,44,40,42,,72,57,23,18,6,6,0.6,0.6
2025-03-13T1900,1292A,115.8126,28.7442,南昌市,林科所,细颗粒物(PM2.5),64,46,28,46,27,49,,82,64,30,19,5,5,0.8,0.7
2025-03-13T1900,1294A,115.8518,28.687,南昌市,建工学校,细颗粒物(PM2.5),62,44,45,44,42,46,,77,59,28,19,8,8,0.8,0.7
2025-03-13T1900,1295A,115.8921,28.6424,南昌市,象湖,,49,34,33,34,36,56,,88,70,22,16,6,6,0.8,0.8
2025-03-13T1900,1296A,115.7423,28.7996,南昌市,武术学校,,44,44,33,11,14,48,,76,62,13,10,2,2,0.6,0.6
2025-03-13T1900,3046A,115.9084,28.6062,南昌市,机电学校,细颗粒物(PM2.5),55,40,42,39,40,53,,77,63,21,17,4,4,0.7,0.7
2025-03-13T1900,3690A,115.9721,28.7031,南昌市,外国语学校,,46,36,41,32,32,49,,82,62,22,15,3,3,0.5,0.5
2025-03-13T1900,4192A,115.9316,28.68677,南昌市,南京东路235号,,49,48,45,34,37,52,,82,62,30,24,4,4,0.7,0.7
2025-03-13T1900,1905A,106.056,30.8064,南充市,西山风景区,,48,48,26,25,18,56,,57,57,11,8,2,2,0.6,0.5
2025-03-13T1900,1906A,106.0789,30.8023,南充市,南充市委,细颗粒物(PM2.5),57,56,38,40,26,60,,58,58,18,14,3,3,0.7,0.6
2025-03-13T1900,1907A,106.1031,30.8217,南充市,南充炼油厂,细颗粒物(PM2.5),57,59,40,40,25,49,,50,50,25,14,4,4,0.5,0.4
2025-03-13T1900,1909A,106.0642,30.7636,南充市,嘉陵区环保局,颗粒物(PM10),59,67,41,34,24,50,,53,53,26,14,3,2,0.8,0.5
2025-03-13T1900,1910A,106.1087,30.8388,南充市,市环境监测站,,,,36,,23,,,48,,,9,,5,,0.5
2025-03-13T1900,4227A,106.1083,30.7884,南充市,梨树横街98号,,40,40,39,27,16,57,,57,57,17,13,4,4,0.5,0.3
2025-03-13T1900,1151A,118.8086,32.1065,南京市,迈皋桥,,36,36,68,22,54,59,,75,74,31,33,4,4,0.3,0.4
2025-03-13T1900,1152A,118.7538,32.0551,南京市,草场门,,46,46,71,22,54,53,,56,56,31,30,6,5,0.8,1
2025-03-13T1900,1153A,118.7794,32.0745,南京市,山西路,,41,41,85,22,58,54,,68,67,22,24,4,4,0.7,0.7
2025-03-13T1900,1154A,118.7752,32.0023,南京市,中华门,,44,44,74,24,49,39,,66,60,56,36,7,5,0.6,0.5
2025-03-13T1900,1155A,118.8109,32.0309,南京市,瑞金路,颗粒物(PM10),51,51,82,24,50,51,,68,63,29,24,7,6,1.0,0.9
2025-03-13T1900,1156A,118.7997,32.0754,南京市,玄武湖,颗粒物(PM10),54,57,78,22,59,31,,60,56,34,27,5,5,0.5,0.5
2025-03-13T1900,1157A,118.6414,32.0931,南京市,浦口,颗粒物(PM10),54,58,77,25,57,46,,66,64,33,26,6,5,0.6,0.6
2025-03-13T1900,1158A,118.7356,31.9996,南京市,奥体中心,颗粒物(PM10),51,51,83,27,57,51,,71,65,39,30,8,14,0.6,0.6
2025-03-13T1900,1159A,118.9125,32.1028,南京市,仙林大学城,,39,36,73,27,56,55,,68,67,25,26,8,7,0.7,0.8
2025-03-13T1900,3422A,118.8436,31.9198,南京市,江宁彩虹桥,颗粒物(PM10),61,71,58,22,47,48,,68,58,39,24,5,4,0.7,0.6
2025-03-13T1900,3423A,119.0138,31.6494,南京市,溧水永阳,,43,41,49,30,30,50,,73,68,38,22,5,4,0.5,0.6
2025-03-13T1900,3427A,118.8554,32.3578,南京市,六合雄州,,36,36,82,25,49,52,,68,65,18,9,5,5,0.2,0.4
2025-03-13T1900,4249A,118.8708,31.3402,南京市,汶溪路181号,颗粒物(PM10),52,53,53,24,32,57,,67,67,33,23,8,4,0.2,0.5
2025-03-13T1900,1401A,108.3103,22.7881,南宁市,二十一中,,30,30,28,20,16,35,,41,41,18,17,4,4,0.5,0.5
2025-03-13T1900,1402A,108.3141,22.8528,南宁市,北湖,,30,26,31,21,19,26,,33,33,23,20,6,5,0.7,0.7
2025-03-13T1900,1403A,108.3206,22.8225,南宁市,市监测站,,45,45,31,20,16,31,,36,36,18,17,5,5,0.6,0.6
2025-03-13T1900,1404A,108.3829,22.8037,南宁市,大自然花园,,33,33,27,17,16,46,,46,46,9,9,5,5,0.6,0.6
2025-03-13T1900,1405A,108.4394,22.7904,南宁市,仙葫,颗粒物(PM10),67,83,27,20,16,44,,42,42,12,13,2,1,0.3,0.4
2025-03-13T1900,1406A,108.2397,22.8467,南宁市,区农职院,,49,49,33,19,18,32,,37,37,19,21,6,7,0.6,0.6
2025-03-13T1900,1407A,108.3275,22.735,南宁市,英华嘉园,,45,45,35,22,20,29,,35,35,20,18,6,6,0.5,0.5
2025-03-13T1900,3401A,108.4834,22.7618,南宁市,红星社区,,32,32,29,17,18,46,,42,42,10,13,8,7,0.6,0.7
2025-03-13T1900,4221A,108.2177,22.7774,南宁市,乐贤路16号,,36,36,29,16,17,34,,39,39,13,20,6,6,0.7,0.7
2025-03-13T1900,2331A,118.0966,26.6761,南平市,茫荡山,,,,,,,,,,,,,,,,
2025-03-13T1900,2332A,118.1681,26.6369,南平市,南平市监测站,,,,29,25,27,45,,81,79,24,16,4,4,1.5,0.9
2025-03-13T1900,2333A,118.1825,26.6489,南平市,南平铝业有限公司,,36,36,33,22,23,63,,82,82,17,15,6,6,0.9,0.8
2025-03-13T1900,2334A,118.1756,26.6272,南平市,南平七中,,29,29,33,19,27,52,,72,72,12,15,3,3,0.7,0.7
2025-03-13T1900,1168A,120.9098,31.9663,南通市,狼山街道,颗粒物(PM10),54,57,36,14,15,84,,87,87,20,17,6,6,0.2,0.3
2025-03-13T1900,1169A,120.86,32.0005,南通市,虹桥,,49,49,36,22,19,77,,73,72,24,21,6,5,0.4,0.5
2025-03-13T1900,1170A,120.87,32.02,南通市,城中,颗粒物(PM10),54,58,40,16,17,83,,82,82,19,17,6,6,0.4,0.5
2025-03-13T1900,1171A,120.94,31.93,南通市,星湖花园,,44,44,32,15,20,82,,84,84,25,20,5,5,0.4,0.4
2025-03-13T1900,1172A,120.81,32.0417,南通市,紫琅学院,,,,30,,14,81,,81,81,18,17,3,3,,0.6
2025-03-13T1900,3291A,121.067,32.062,南通市,通州监测站,颗粒物(PM10),53,56,34,12,16,92,,91,91,13,11,3,3,0.5,0.6
2025-03-13T1900,3432A,120.9348,31.9883,南通市,环境教育馆,,,51,34,15,17,,,82,,15,10,,4,,0.3
2025-03-13T1900,2404A,112.5224,33.0122,南阳市,瓦房庄,细颗粒物(PM2.5),134,106,194,102,83,,,102,102,15,20,2,5,0.6,0.8
2025-03-13T1900,2405A,112.5003,32.9735,南阳市,汉画馆,细颗粒物(PM2.5),94,92,175,70,82,95,,98,98,14,19,3,5,0.6,0.6
2025-03-13T1900,2406A,112.5573,33.027,南阳市,气象站,颗粒物(PM10),81,112,220,56,75,98,,99,99,12,18,3,6,0.5,0.5
2025-03-13T1900,2407A,112.5481,32.9689,南阳市,理工学院,细颗粒物(PM2.5),72,88,185,52,77,97,,101,101,16,22,3,5,0.5,0.6
2025-03-13T1900,4008A,112.5234,32.9922,南阳市,卧龙区政府,细颗粒物(PM2.5),79,105,198,58,77,99,,101,101,16,21,6,7,0.5,0.6
2025-03-13T1900,1234A,121.8358,29.911,宁波市,区环保大楼,,50,50,23,23,17,59,,65,65,42,45,8,8,0.4,0.4
2025-03-13T1900,1235A,121.56,29.82,宁波市,万里学院,,48,48,21,20,13,62,,78,77,35,25,7,11,0.5,0.4
2025-03-13T1900,1236A,121.713,29.9572,宁波市,龙赛医院,,,,25,,11,,,52,,,28,,7,,0.4
2025-03-13T1900,1239A,121.633,29.7733,宁波市,钱湖水厂,,41,41,20,16,13,46,,77,74,41,28,6,6,0.5,0.5
2025-03-13T1900,1240A,121.5856,29.8635,宁波市,太古小学,,35,35,21,12,12,70,,86,84,32,25,9,9,0.8,0.8
2025-03-13T1900,1241A,121.524,29.8674,宁波市,市环境监测中心,颗粒物(PM10),53,55,21,17,9,68,,80,78,39,32,7,7,0.5,0.5
2025-03-13T1900,2871A,121.6147,29.9017,宁波市,万里国际学校,,40,40,18,20,11,65,,76,76,33,28,9,7,0.5,0.5
2025-03-13T1900,3710A,121.5594,29.8975,宁波市,白沙活动中心,,40,40,18,20,12,78,,85,84,20,18,6,6,0.4,0.4
2025-03-13T1900,2339A,119.5001,26.6946,宁德市,金涵水库,,,,,,,,,,,,,,,,
2025-03-13T1900,2341A,119.5388,26.6612,宁德市,宁德市监测站,,30,18,25,15,32,94,,91,91,11,13,3,4,0.4,0.6
2025-03-13T1900,3209A,119.5231,26.6562,宁德市,宁德一中,,30,24,28,13,31,93,,92,92,13,15,4,5,0.3,0.4
2025-03-13T1900,2618A,98.8601,25.8567,怒江傈僳族自治州,州监测站,,42,37,55,29,40,74,,88,71,7,8,4,4,0.6,0.6
2025-03-13T1900,2619A,98.8546,25.8417,怒江傈僳族自治州,泸水一中,,42,34,48,29,41,54,,79,60,16,15,6,6,0.7,0.6
2025-03-13T1900,1888A,101.6891,26.571,攀枝花市,弄弄坪,细颗粒物(PM2.5),70,83,95,51,60,123,,122,122,19,43,33,44,1.4,2
2025-03-13T1900,1889A,101.5769,26.5928,攀枝花市,河门口,细颗粒物(PM2.5),72,82,96,52,54,119,,121,121,18,30,9,15,0.8,0.9
2025-03-13T1900,1890A,101.7169,26.585,攀枝花市,炳草岗,细颗粒物(PM2.5),60,67,84,43,52,134,,127,127,16,46,17,19,0.7,1.2
2025-03-13T1900,1891A,101.7369,26.5008,攀枝花市,仁和,细颗粒物(PM2.5),73,76,70,53,52,120,,133,133,27,19,7,8,0.9,0.8
2025-03-13T1900,2835A,101.7227,26.567,攀枝花市,四十中小,细颗粒物(PM2.5),67,82,81,48,49,136,,129,129,17,36,16,18,0.8,1.2
2025-03-13T1900,1604A,122.0303,41.1489,盘锦市,开发区,,49,48,66,34,20,93,,98,98,17,14,9,11,0.4,0.4
2025-03-13T1900,1605A,122.0485,41.0883,盘锦市,兴隆台,,45,39,72,31,19,93,,95,95,20,28,7,8,0.6,0.6
2025-03-13T1900,1606A,121.8297,41.1028,盘锦市,新生街道,,41,41,57,28,17,79,,91,91,21,36,9,7,0.6,0.7
2025-03-13T1900,1832A,113.3257,33.742,平顶山市,新华旅馆,颗粒物(PM10),86,122,201,56,84,108,,116,116,21,37,4,5,0.4,0.5
2025-03-13T1900,1833A,113.2919,33.737,平顶山市,规划设计院,颗粒物(PM10),79,108,208,50,87,110,,119,119,16,39,1,3,0.5,0.6
2025-03-13T1900,1834A,113.182,33.774,平顶山市,平顶山工学院,细颗粒物(PM2.5),73,94,228,53,85,116,,101,101,13,34,5,6,0.6,0.7
2025-03-13T1900,3204A,113.3025,33.73,平顶山市,规划局,,,90,200,66,103,110,,120,120,16,37,,6,0.7,0.9
2025-03-13T1900,3594A,112.8867,33.9116,平顶山市,石龙区,细颗粒物(PM2.5),130,145,255,99,87,102,,112,112,24,44,4,6,0.5,0.6
2025-03-13T1900,2656A,106.6692,35.5461,平凉市,聚贤嘉苑,颗粒物(PM10),55,59,146,26,38,102,,108,108,17,25,6,12,0.4,0.3
2025-03-13T1900,2657A,106.7021,35.5307,平凉市,博物馆,颗粒物(PM10),56,61,167,25,42,103,,108,108,20,35,13,17,0.3,0.7
2025-03-13T1900,2347A,114.0997,27.5002,萍乡市,武功山,,19,,14,13,14,42,,43,43,19,17,6,5,0.6,0.5
2025-03-13T1900,2348A,113.8385,27.6434,萍乡市,中医院,细颗粒物(PM2.5),54,44,52,38,41,22,,35,32,39,25,10,9,1.4,1.1
2025-03-13T1900,2349A,113.8493,27.6253,萍乡市,市政府车库,,40,34,41,28,29,24,,36,34,37,22,7,6,1.2,0.9
2025-03-13T1900,2350A,113.8676,27.6435,萍乡市,市环保局,,46,42,37,32,27,23,,36,34,42,26,6,5,1.3,0.9
2025-03-13T1900,2351A,113.866,27.6198,萍乡市,安源区政府,,48,38,36,33,36,21,,36,31,33,20,9,9,1.2,1
2025-03-13T1900,2319A,119.0141,25.4325,莆田市,荔城区仓后路,,25,25,53,7,29,73,,96,96,21,26,2,4,0.6,0.8
2025-03-13T1900,2320A,119.0015,25.4553,莆田市,莆田市监测站,,24,17,41,3,25,75,,100,100,24,18,3,4,0.5,0.6
2025-03-13T1900,2321A,119.1119,25.4561,莆田市,涵江区六中,,25,22,48,8,26,79,,95,95,25,36,3,4,0.2,0.5
2025-03-13T1900,2322A,119.1013,25.3215,莆田市,秀屿区政府,,27,19,35,10,23,85,,98,96,16,25,4,5,0.8,0.6
2025-03-13T1900,2323A,118.981,25.4792,莆田市,东圳水库,,,,,,,,,,,,,,,,
2025-03-13T1900,2392A,115.0312,35.7636,濮阳市,环保局,颗粒物(PM10),68,86,155,41,66,100,,112,112,24,37,4,6,0.6,0.7
2025-03-13T1900,2394A,115.0574,35.7609,濮阳市,油田运输公司,颗粒物(PM10),89,127,178,35,68,105,,118,117,23,38,4,9,0.7,1.1
2025-03-13T1900,3021A,115,35.7668,濮阳市,濮水河管理处,颗粒物(PM10),87,124,199,32,59,108,,117,117,28,39,5,7,0.6,0.7
2025-03-13T1900,4216A,115.0924,35.7686,濮阳市,任丘路479号,颗粒物(PM10),83,116,185,40,66,109,,122,122,24,42,5,7,0.6,0.8
2025-03-13T1900,2601A,100.98,22.7633,普洱市,市环保局,颗粒物(PM10),63,75,86,42,38,121,,131,131,12,17,6,6,0.6,0.7
2025-03-13T1900,2602A,100.9817,22.8322,普洱市,普洱第二中学,,,60,78,25,42,108,,127,127,,29,7,7,0.5,0.6
2025-03-13T1900,2262A,131.0518,45.8751,七台河市,新一中,,28,20,22,11,11,89,,88,88,7,9,10,10,0.7,0.7
2025-03-13T1900,3345A,131.0577,45.7879,七台河市,中波台,,23,22,23,12,11,73,,77,77,11,14,4,5,0.5,0.4
2025-03-13T1900,3637A,131.0176,45.7761,七台河市,人民广场,,35,35,27,23,19,77,,78,78,9,13,6,7,0.7,0.6
2025-03-13T1900,3684A,130.8781,45.8222,七台河市,新建矿广场,,38,,22,26,22,76,,78,78,9,12,7,6,0.3,0.3
2025-03-13T1900,1779A,123.9305,47.3636,齐齐哈尔市,安居小区,细颗粒物(PM2.5),53,,20,37,6,75,,93,92,18,8,3,3,0.3,0.2
2025-03-13T1900,1780A,123.9488,47.3386,齐齐哈尔市,中心广场,,33,33,20,11,11,62,,86,82,26,8,4,4,0.6,0.4
2025-03-13T1900,1781A,123.9483,47.3227,齐齐哈尔市,农牧车辆厂,,26,17,17,9,9,82,,92,92,9,7,3,4,0.3,0.2
2025-03-13T1900,1783A,123.945,47.2988,齐齐哈尔市,市环境监测站,,20,18,19,12,9,62,,87,84,21,7,3,3,0.4,0.3
2025-03-13T1900,3662A,123.6333,47.2075,齐齐哈尔市,富区青少年活动中心,,47,47,20,8,9,64,,88,86,25,10,8,6,0.5,0.4
2025-03-13T1900,2591A,107.9783,26.5747,黔东南苗族侗族自治州,市环境监测站,,32,32,43,22,30,58,,76,61,12,8,2,2,0.6,0.5
2025-03-13T1900,2881A,107.8908,26.5311,黔东南苗族侗族自治州,凯里学院,,29,,35,20,27,54,,81,65,16,8,2,2,0.5,0.5
2025-03-13T1900,2593A,107.5228,26.2403,黔南布依族苗族自治州,小围寨,,15,12,17,7,14,48,,60,55,8,7,5,4,0.6,0.5
2025-03-13T1900,3538A,107.5175,26.2978,黔南布依族苗族自治州,沙坝,,19,12,22,9,17,58,,72,66,9,11,5,4,0.8,0.7
2025-03-13T1900,2589A,104.9022,25.0925,黔西南布依族苗族自治州,场坝街,,49,49,41,26,30,111,,108,108,11,10,3,4,0.5,0.5
2025-03-13T1900,2590A,104.8811,25.0992,黔西南布依族苗族自治州,坪东大道,颗粒物(PM10),51,52,44,35,35,96,,104,104,17,14,6,5,0.4,0.4
2025-03-13T1900,2502A,108.6236,21.9667,钦州市,市环保站,,34,34,35,9,14,50,,48,48,16,26,6,6,0.7,0.8
2025-03-13T1900,2503A,108.6549,21.9481,钦州市,沙埠小学,,34,34,37,12,18,51,,50,50,12,22,5,6,0.8,0.9
2025-03-13T1900,2504A,108.5989,21.7431,钦州市,港区一小,颗粒物(PM10),59,67,51,21,21,53,,56,56,32,32,17,11,2.9,1
2025-03-13T1900,3404A,108.5959,21.9633,钦州市,北职校,,38,38,37,21,25,51,,49,49,27,28,8,6,0.7,0.7
2025-03-13T1900,1043A,119.7493,40.0116,秦皇岛市,第一关,,50,48,60,35,24,58,,79,78,46,43,5,8,0.4,0.4
2025-03-13T1900,1044A,119.5897,39.9499,秦皇岛市,监测站,颗粒物(PM10),55,59,54,31,18,71,,81,81,30,38,3,5,0.4,0.5
2025-03-13T1900,1046A,119.5251,39.9041,秦皇岛市,建设大厦,,48,46,56,33,24,77,,82,82,27,38,4,6,0.4,0.4
2025-03-13T1900,3132A,119.610547,39.943889,秦皇岛市,文明里,颗粒物(PM10),59,68,64,21,14,78,,78,78,16,32,5,6,0.3,0.4
2025-03-13T1900,4198A,119.5090,39.8253,秦皇岛市,北戴河轮滑馆,,49,43,73,34,26,102,,83,83,13,29,5,8,0.3,0.5
2025-03-13T1900,1307A,120.6659,36.2403,青岛市,仰口,,46,46,49,29,21,87,,112,109,15,10,4,4,0.3,0.3
2025-03-13T1900,1310A,120.4134,36.0658,青岛市,市南区东部子站,颗粒物(PM10),53,56,75,19,27,68,,94,92,40,36,10,10,0.6,0.6
2025-03-13T1900,1311A,120.3664,36.1032,青岛市,四方区子站,,44,44,68,7,26,83,,108,104,30,45,5,7,0.7,0.7
2025-03-13T1900,1312A,120.2994,36.054,青岛市,市南区西部子站,,48,48,81,15,28,67,,61,61,42,59,9,9,0.6,0.7
2025-03-13T1900,1313A,120.4581,36.0858,青岛市,崂山区子站,,36,36,65,12,20,90,,98,98,22,30,11,10,0.5,0.6
2025-03-13T1900,1315A,120.3999,36.3083,青岛市,城阳区子站,,31,31,73,7,23,87,,94,94,25,39,7,9,0.6,0.9
2025-03-13T1900,1966A,120.0405,35.8735,青岛市,黄岛区4号,颗粒物(PM10),53,56,74,17,24,91,,107,103,33,28,9,8,0.6,0.6
2025-03-13T1900,3362A,120.5014,36.4034,青岛市,即墨2号,颗粒物(PM10),52,53,66,21,19,88,,103,102,20,20,8,8,0.7,0.7
2025-03-13T1900,3642A,120.3503,36.0736,青岛市,市北区南部,,43,43,72,9,23,72,,92,90,22,29,8,9,0.5,0.6
2025-03-13T1900,3643A,120.3948,36.1805,青岛市,李沧区北部,,46,46,65,17,24,57,,76,75,35,34,6,7,0.7,0.7
2025-03-13T1900,4290A,120.1969,35.9546,青岛市,珠江路669号,颗粒物(PM10),54,58,84,29,32,63,,99,96,49,54,8,9,0.7,0.7
2025-03-13T1900,1702A,113.0426,23.691,清远市,环保大楼,,49,42,35,27,25,156,,127,127,29,22,9,9,0.8,0.7
2025-03-13T1900,1703A,113.0208,23.7106,清远市,凤城街办,,44,40,36,25,19,138,,113,113,32,29,8,8,0.6,0.5
2025-03-13T1900,3025A,113.0477,23.6344,清远市,技师学院,颗粒物(PM10),53,55,39,30,19,150,,133,133,32,28,7,7,0.5,0.5
2025-03-13T1900,3318A,112.9903,23.7403,清远市,清新太和,,,38,38,18,20,152,,128,128,24,20,,11,0.7,0.6
2025-03-13T1900,3455A,113.076,23.7198,清远市,清城东城,颗粒物(PM10),52,53,41,30,22,148,,128,128,26,27,7,7,0.7,0.8
2025-03-13T1900,2661A,107.6325,35.7357,庆阳市,庆阳五中,颗粒物(PM10),59,67,126,29,37,109,,107,107,12,14,3,6,0.4,0.4
2025-03-13T1900,2662A,107.6364,35.7067,庆阳市,市环保局,颗粒物(PM10),61,72,121,35,41,107,,107,107,13,11,6,6,0.5,0.4
2025-03-13T1900,1916A,103.7897,25.5035,曲靖市,环境监测站,颗粒物(PM10),62,74,58,39,34,149,,150,150,13,19,2,6,0.6,0.6
2025-03-13T1900,1917A,103.8,25.5364,曲靖市,烟厂办公区,细颗粒物(PM2.5),67,77,63,48,39,157,,153,153,9,21,4,6,0.4,0.6
2025-03-13T1900,3376A,103.7947,25.462,曲靖市,南苑二区,颗粒物(PM10),61,71,54,42,33,145,,146,146,10,12,8,9,0.5,0.5
2025-03-13T1900,3377A,103.7444,25.5261,曲靖市,曲靖师范学院,细颗粒物(PM2.5),72,86,61,52,43,153,,149,149,15,23,6,13,0.6,0.6
2025-03-13T1900,1264A,118.8692,28.9398,衢州市,环保大楼,,16,11,14,8,10,51,,52,52,20,19,2,2,0.5,0.6
2025-03-13T1900,1265A,118.8709,28.9666,衢州市,实验学校,,15,10,14,6,7,46,,47,47,17,17,3,3,0.4,0.7
2025-03-13T1900,1266A,118.8621,28.9808,衢州市,衢州学院,,,6,9,3,7,,,45,45,22,22,3,3,,0.4
2025-03-13T1900,1611A,118.5819,24.9117,泉州市,涂山街,,30,30,58,13,26,92,,98,98,14,34,3,8,0.6,0.7
2025-03-13T1900,1612A,118.5972,24.8978,泉州市,津头埔,,28,24,51,12,23,88,,91,91,18,35,3,7,0.6,0.7
2025-03-13T1900,1613A,118.6663,24.9424,泉州市,万安,,31,27,45,10,21,97,,112,112,6,23,3,7,0.6,0.6
2025-03-13T1900,1614A,118.6117,24.9604,泉州市,清源山,,,,,,,,,,,,,,,,
