timepoint,stationcode,longitude,latitude,area,positionname,primarypollutant,aqi,pm10,pm10_24h,pm2_5,pm2_5_24h,o3,o3_24h,o3_8h,o3_8h_24h,no2,no2_24h,so2,so2_24h,co,co_24h
2025-11-24T1200,2566A,102.1879,31.914,阿坝藏族羌族自治州,州农科所,,,,,,,,,,,,,,,,
2025-11-24T1200,2568A,102.2502,31.8896,阿坝藏族羌族自治州,马师校,,19,17,18,8,13,59,59,46,45,9,9,5,6,0.4,0.4
2025-11-24T1200,3994A,102.2165,31.9024,阿坝藏族羌族自治州,马尔康中学西区,,21,7,13,3,11,65,65,56,53,8,7,5,5,0.4,0.3
2025-11-24T1200,2695A,80.292,41.1694,阿克苏地区,电视台,颗粒物(PM10),132,213,226,74,86,39,39,43,28,41,47,14,10,1.1,1.3
2025-11-24T1200,2696A,80.2613,41.1551,阿克苏地区,艺术中心,颗粒物(PM10),119,187,192,77,78,39,39,42,30,46,52,8,8,1.0,1.1
2025-11-24T1200,2204A,105.6467,38.8363,阿拉善盟,西城区西花园,,,,,,,,,,,,,,,,
2025-11-24T1200,2205A,105.6985,38.8411,阿拉善盟,蒙二幼,颗粒物(PM10),63,76,301,18,53,72,72,70,66,4,5,6,6,0.8,0.7
2025-11-24T1200,2206A,105.724,38.8516,阿拉善盟,环保局新楼,颗粒物(PM10),65,79,261,19,56,72,72,70,67,4,4,8,8,0.6,0.7
2025-11-24T1200,2708A,88.1264,47.8517,阿勒泰地区,市站,,43,31,17,30,8,32,32,48,48,69,41,5,5,0.7,0.5
2025-11-24T1200,2630A,80.1161,32.5,阿里地区,阿里监测站,,21,6,3,3,3,65,65,58,50,5,11,6,9,0.2,0.3
2025-11-24T1200,3192A,80.0903,32.5028,阿里地区,阿里藏医院,,20,15,14,14,7,62,62,60,57,7,6,9,11,0.7,0.6
2025-11-24T1200,2642A,109.0318,32.6537,安康市,香溪洞,,,,,,,,,,,,,,,,
2025-11-24T1200,2644A,109.0072,32.6975,安康市,汉滨区检察院,,42,42,34,23,19,26,26,12,12,22,20,6,5,0.5,0.5
2025-11-24T1200,4054A,109.0325,32.6913,安康市,市邮政管理局,颗粒物(PM10),52,53,41,23,24,33,33,13,13,23,27,5,5,0.7,0.8
2025-11-24T1200,2291A,117.0809,30.5177,安庆市,环科院,细颗粒物(PM2.5),105,102,92,79,78,80,80,40,40,26,43,11,11,0.9,0.8
2025-11-24T1200,2292A,117.0331,30.5119,安庆市,马山宾馆,细颗粒物(PM2.5),102,101,101,76,80,97,97,36,36,24,55,8,9,0.9,0.9
2025-11-24T1200,2294A,116.9896,30.6145,安庆市,安庆大学,细颗粒物(PM2.5),99,104,122,74,92,84,84,35,35,34,46,12,11,0.7,0.7
2025-11-24T1200,3173A,117.0598,30.5351,安庆市,市人大,细颗粒物(PM2.5),100,101,100,75,79,104,104,45,45,18,42,9,10,0.7,0.7
2025-11-24T1200,3122A,105.9606,26.2611,安顺市,伍家关,,,,67,25,40,99,99,71,71,9,13,24,22,0.8,0.9
2025-11-24T1200,3123A,105.9408,26.2431,安顺市,凤凰山,,37,37,60,22,48,81,81,60,60,16,16,14,18,0.5,0.5
2025-11-24T1200,3124A,105.9439,26.2564,安顺市,金钟山,,40,40,59,22,50,87,87,60,60,11,14,18,22,0.5,0.7
2025-11-24T1200,3125A,105.8983,26.2481,安顺市,娄家坡,,33,32,63,23,51,81,81,56,56,10,15,12,17,0.4,0.6
2025-11-24T1200,1818A,114.4839,36.0621,安阳市,棉研所,,,,,,,,,,,,,,,,
2025-11-24T1200,1819A,114.3551,36.1017,安阳市,红庙街,颗粒物(PM10),198,346,118,53,34,69,69,48,48,6,28,1,9,0.3,0.7
2025-11-24T1200,1820A,114.361,36.0681,安阳市,银杏小区,颗粒物(PM10),181,311,115,51,35,71,71,56,56,8,22,8,6,0.5,0.6
2025-11-24T1200,3141A,114.3922,36.0878,安阳市,信访局,颗粒物(PM10),238,376,121,51,37,77,77,58,58,7,23,2,9,0.1,0.5
2025-11-24T1200,3669A,114.4705,36.0637,安阳市,左辅环卫站,颗粒物(PM10),212,358,142,44,36,79,79,64,64,6,28,2,8,0.4,0.7
2025-11-24T1200,3703A,114.2917,36.0949,安阳市,安钢职工学校,颗粒物(PM10),238,376,134,59,40,70,70,53,53,4,18,2,5,0.3,0.5
2025-11-24T1200,1748A,123.044,41.1196,鞍山市,深沟寺,细颗粒物(PM2.5),230,296,176,180,132,4,4,22,7,50,37,7,9,3.1,1.6
2025-11-24T1200,1749A,123.011,41.0931,鞍山市,太阳城,细颗粒物(PM2.5),291,313,174,241,138,3,3,31,8,49,38,10,12,3.3,1.6
2025-11-24T1200,1750A,123.0485,41.1442,鞍山市,太平,细颗粒物(PM2.5),270,300,184,220,135,,,16,7,,42,8,10,2.4,1.8
2025-11-24T1200,1751A,122.9642,41.0971,鞍山市,铁西三道街,细颗粒物(PM2.5),278,338,255,228,176,9,9,11,10,59,63,35,14,5.4,2.7
2025-11-24T1200,1753A,123.022,41.0821,鞍山市,明达新区,细颗粒物(PM2.5),261,277,169,211,132,5,5,20,10,46,36,9,11,2.2,1.6
2025-11-24T1200,1754A,123.1289,41.0228,鞍山市,千山,,,,,,,,,,,,,,,,
2025-11-24T1200,4201A,122.9446,41.0826,鞍山市,兴盛南路290号,细颗粒物(PM2.5),274,306,238,224,164,2,2,3,2,62,67,18,12,3.6,2.1
2025-11-24T1200,2195A,107.4212,40.761,巴彦淖尔市,附二中,,47,47,395,11,83,54,54,54,51,4,4,5,5,0.3,0.3
2025-11-24T1200,2196A,107.37,40.7372,巴彦淖尔市,市环保大楼,颗粒物(PM10),64,77,402,22,79,58,58,56,54,4,4,7,7,0.3,0.3
2025-11-24T1200,1956A,86.1472,41.7538,巴音郭楞蒙古自治州,孔雀公园,颗粒物(PM10),131,212,204,42,50,6,6,2,2,79,65,12,10,1.5,1.2
2025-11-24T1200,1957A,86.1972,41.7166,巴音郭楞蒙古自治州,棉纺厂,颗粒物(PM10),172,293,250,60,52,27,27,18,13,55,44,9,7,1.0,0.9
2025-11-24T1200,1958A,86.2357,41.7173,巴音郭楞蒙古自治州,经济开发区,颗粒物(PM10),143,236,190,49,34,22,22,35,26,50,25,7,6,0.7,0.5
2025-11-24T1200,2914A,106.7677,31.8794,巴中市,苏山坪,,,,,,,,,,,,,,,,
2025-11-24T1200,3181A,106.7768,31.8526,巴中市,市五中,,25,25,46,17,36,66,66,15,15,7,15,8,8,0.4,0.6
2025-11-24T1200,3183A,106.7418,31.8654,巴中市,圣泉水务公司,,25,24,42,17,33,68,68,16,16,5,22,8,9,0.5,0.7
2025-11-24T1200,3616A,106.7616,31.8344,巴中市,市中心医院,细颗粒物(PM2.5),64,,46,46,42,64,64,13,13,8,20,5,5,0.5,1
2025-11-24T1200,2235A,122.7911,45.6077,白城市,洮北区环保局,,19,10,30,7,16,59,59,58,58,5,9,6,4,0.3,0.4
2025-11-24T1200,2236A,122.8738,45.5725,白城市,市环保局,,18,9,42,3,20,56,56,,,3,12,2,5,0.3,0.2
2025-11-24T1200,2231A,126.4219,41.9171,白山市,喜丰,颗粒物(PM10),113,176,133,79,66,9,9,9,6,66,45,14,12,1.6,1.3
2025-11-24T1200,2232A,126.4077,41.9419,白山市,环保局,细颗粒物(PM2.5),105,122,92,79,73,24,24,10,9,46,29,14,11,1.5,1.3
2025-11-24T1200,2647A,104.1724,36.5446,白银市,第三小学,颗粒物(PM10),65,80,269,31,45,66,66,69,66,10,14,6,11,0.5,0.4
2025-11-24T1200,2648A,104.1465,36.5482,白银市,动力公司,颗粒物(PM10),62,74,242,28,47,69,69,69,64,8,12,4,8,0.4,0.4
2025-11-24T1200,2512A,106.6103,23.9011,百色市,市监测站,细颗粒物(PM2.5),62,49,33,44,23,62,62,19,19,7,17,7,6,0.5,0.5
2025-11-24T1200,2513A,106.6538,23.8859,百色市,市中心血站,细颗粒物(PM2.5),72,60,60,52,37,61,61,21,21,10,32,8,7,0.6,0.6
2025-11-24T1200,3406A,106.6085,23.8798,百色市,祈福高中,,46,46,47,30,23,54,54,23,23,10,20,6,6,0.5,0.4
2025-11-24T1200,2270A,117.396,32.939,蚌埠市,工人疗养院,细颗粒物(PM2.5),105,135,122,79,76,57,57,55,52,35,36,8,8,0.5,0.5
2025-11-24T1200,2271A,117.3605,32.9427,蚌埠市,百货大楼,细颗粒物(PM2.5),87,120,107,64,73,62,62,53,50,34,40,12,12,0.6,0.7
2025-11-24T1200,2273A,117.4185,32.8911,蚌埠市,蚌埠学院,细颗粒物(PM2.5),88,114,132,65,85,62,62,38,38,27,44,11,10,0.6,0.6
2025-11-24T1200,2274A,117.3533,32.9673,蚌埠市,淮上区政府,细颗粒物(PM2.5),89,122,114,66,74,70,70,52,52,27,40,10,10,0.4,0.5
2025-11-24T1200,2275A,117.3145,32.8977,蚌埠市,高新区,细颗粒物(PM2.5),99,127,134,74,90,57,57,36,36,27,46,11,8,0.5,0.6
2025-11-24T1200,3715A,117.3092,32.9314,蚌埠市,蚌埠田家炳中学,细颗粒物(PM2.5),89,126,133,66,85,58,58,34,34,31,52,7,11,0.5,0.6
2025-11-24T1200,1585A,109.8756,40.6532,包头市,市环境监测站,,36,36,232,8,42,58,58,59,56,7,14,6,11,0.2,0.5
2025-11-24T1200,1587A,109.9991,40.5842,包头市,包头八中,,30,30,250,3,51,63,63,60,58,6,13,3,8,0.5,0.6
2025-11-24T1200,1588A,109.8538,40.6821,包头市,青山宾馆,,33,33,190,3,40,61,61,59,54,6,13,7,9,0.4,0.8
2025-11-24T1200,1589A,109.8642,40.6288,包头市,惠龙物流,,32,32,233,9,45,66,66,61,61,6,15,6,13,0.4,0.7
2025-11-24T1200,1590A,110.0377,40.5546,包头市,东河鸿龙湾,,,21,238,,56,62,62,59,59,6,11,2,5,0.5,0.6
2025-11-24T1200,3283A,109.9154,40.5685,包头市,滨河大厦,,32,32,241,10,56,65,65,58,58,3,9,8,9,0.6,0.6
2025-11-24T1200,3419A,109.9447,40.6261,包头市,包头市委党校,,29,29,201,3,38,67,67,64,63,3,10,5,11,0.3,0.5
2025-11-24T1200,3683A,109.8331,40.6576,包头市,昆区政府,,32,32,212,3,39,62,62,60,58,10,19,8,13,0.3,0.8
2025-11-24T1200,1930A,107.185,34.3063,宝鸡市,庙沟村,,,,,,,,,,,,,,,,
2025-11-24T1200,1931A,107.0708,34.3017,宝鸡市,竹园沟,,39,39,82,11,22,79,79,72,70,3,10,6,6,0.0,0.1
2025-11-24T1200,1932A,107.1906,34.3672,宝鸡市,三陆医院,颗粒物(PM10),55,60,101,3,28,75,75,68,67,9,30,3,6,0.2,0.4
2025-11-24T1200,1933A,107.1431,34.3547,宝鸡市,监测站,,45,45,94,8,27,75,75,71,68,6,20,4,4,0.5,0.6
2025-11-24T1200,1934A,107.1186,34.3739,宝鸡市,技工学校,颗粒物(PM10),53,55,94,15,30,77,77,70,70,5,18,4,5,0.2,0.3
2025-11-24T1200,1936A,107.2058,34.3497,宝鸡市,文理学院,颗粒物(PM10),54,57,98,11,29,74,74,74,71,8,23,4,5,0.3,0.4
2025-11-24T1200,1937A,107.2386,34.3622,宝鸡市,三迪小学,颗粒物(PM10),58,66,104,10,31,76,76,72,70,10,35,3,4,0.2,0.4
2025-11-24T1200,4308A,107.3898,34.3601,宝鸡市,陈仓区北开路21号,颗粒物(PM10),58,65,129,11,35,77,77,70,70,10,32,5,9,0.1,0.2
2025-11-24T1200,1051A,115.493,38.8632,保定市,游泳馆,颗粒物(PM10),213,359,168,106,61,65,65,63,63,2,30,3,8,0.2,0.4
2025-11-24T1200,1052A,115.5213,38.8959,保定市,华电二区,颗粒物(PM10),166,282,146,68,63,69,69,58,58,10,41,3,4,0.1,0.5
2025-11-24T1200,1053A,115.4713,38.9108,保定市,接待中心,颗粒物(PM10),174,297,152,77,58,64,64,60,60,2,26,3,3,0.1,0.3
2025-11-24T1200,1054A,115.4612,38.8416,保定市,地表水厂,颗粒物(PM10),309,427,190,69,55,67,67,62,62,8,37,2,6,0.1,0.3
2025-11-24T1200,3581A,115.31981,38.95208,保定市,满城区生态环境分局,颗粒物(PM10),282,407,198,73,55,69,69,73,73,7,30,3,6,0.0,0.2
2025-11-24T1200,3582A,115.47694,38.76408,保定市,清苑区第二中学,颗粒物(PM10),438,538,210,68,50,62,62,54,54,2,27,4,12,0.2,0.4
2025-11-24T1200,3583A,115.62909,39.02311,保定市,徐水物探局,颗粒物(PM10),395,496,239,64,80,63,63,27,27,2,49,6,11,0.3,0.6
2025-11-24T1200,4004A,115.4202,38.8656,保定市,双鹰农机,颗粒物(PM10),497,597,198,91,60,70,70,70,70,5,29,3,7,0.2,0.4
2025-11-24T1200,4034A,115.5150,38.8590,保定市,植保所站,颗粒物(PM10),210,357,172,56,58,60,60,49,49,6,46,3,5,0.1,0.5
2025-11-24T1200,2594A,99.1678,25.1081,保山市,市环境监测站,,25,25,16,11,13,75,75,41,41,9,7,7,9,0.4,0.4
2025-11-24T1200,2595A,99.1711,25.1328,保山市,市环保局,,33,27,16,23,16,76,76,51,51,8,4,6,6,0.4,0.3
2025-11-24T1200,1866A,109.2262,21.588,北海市,牛尾岭水库,细颗粒物(PM2.5),58,55,54,41,44,99,99,57,57,10,13,7,6,0.1,0.1
2025-11-24T1200,1867A,109.1436,21.4086,北海市,海滩公园,颗粒物(PM10),57,63,64,29,39,114,114,92,92,14,22,10,10,0.6,0.7
2025-11-24T1200,1868A,109.0981,21.4661,北海市,新市环保局,细颗粒物(PM2.5),52,51,64,36,47,119,119,88,88,12,20,14,10,0.6,0.6
2025-11-24T1200,1869A,109.1778,21.5233,北海市,北海工业园,颗粒物(PM10),61,71,59,42,43,114,114,80,80,17,19,11,10,0.4,0.4
2025-11-24T1200,3400A,109.1911,21.4415,北海市,龙潭自来水厂,细颗粒物(PM2.5),57,61,62,40,47,112,112,69,69,14,19,5,5,0.7,0.6
2025-11-24T1200,1001A,116.3621,39.8784,北京市,万寿西宫,,24,24,116,10,55,60,60,44,44,12,65,2,4,0.2,0.7
2025-11-24T1200,1002A,116.2202,40.2915,北京市,定陵,,,,,,,,,,,,,,,,
2025-11-24T1200,1003A,116.4174,39.9289,北京市,东四,,31,31,124,8,54,57,57,36,36,7,54,3,5,0.3,0.8
2025-11-24T1200,1004A,116.4072,39.8863,北京市,天坛,,32,32,101,7,48,58,58,35,35,7,48,1,2,0.3,0.7
2025-11-24T1200,1005A,116.462,39.9365,北京市,农展馆,,28,28,120,9,53,61,61,29,29,3,57,3,5,0.4,0.8
2025-11-24T1200,1006A,116.3392,39.9295,北京市,官园,,35,35,116,8,50,56,56,44,44,7,58,2,5,0.2,0.6
2025-11-24T1200,1007A,116.2878,39.9611,北京市,海淀万柳,,29,29,116,7,48,50,50,42,42,7,51,3,5,0.3,0.7
2025-11-24T1200,1008A,116.6636,40.135,北京市,顺义新城,,39,39,129,8,51,57,57,26,26,6,54,5,7,0.3,0.6
2025-11-24T1200,1009A,116.6275,40.3275,北京市,怀柔镇,,20,17,98,3,38,62,62,38,38,3,34,5,6,0.4,0.6
2025-11-24T1200,1010A,116.2296,40.217,北京市,昌平镇,,34,34,111,9,42,58,58,40,40,5,32,5,7,0.2,0.4
2025-11-24T1200,1011A,116.3966,39.9821,北京市,奥体中心,,33,33,113,7,51,58,58,34,34,10,64,4,7,0.3,0.8
2025-11-24T1200,3281A,115.9718,40.4529,北京市,延庆夏都,,23,23,111,8,41,61,61,29,29,3,30,3,4,0.3,0.6
2025-11-24T1200,3418A,116.8336,40.4095,北京市,密云新城,,20,19,108,3,34,63,63,30,30,3,28,2,3,0.2,0.4
2025-11-24T1200,3671A,116.088,39.9726,北京市,门头沟三家店,,34,34,110,9,40,54,54,47,47,5,37,1,2,0.3,0.5
2025-11-24T1200,3672A,116.1541,39.8204,北京市,丰台云岗,,36,36,121,8,51,61,61,57,57,5,36,3,5,0.3,0.5
2025-11-24T1200,3673A,116.6804,39.9081,北京市,通州东关,颗粒物(PM10),59,68,138,7,54,56,56,20,20,12,63,6,7,0.3,0.5
2025-11-24T1200,3674A,115.9577,39.7603,北京市,房山燕山,颗粒物(PM10),99,147,122,37,50,58,58,46,46,7,30,3,5,0.2,0.4
2025-11-24T1200,3675A,116.4672,39.7733,北京市,大兴旧宫,,22,22,127,3,51,56,56,30,30,7,54,3,5,0.3,0.6
2025-11-24T1200,3694A,115.986,40.4563,北京市,延庆石河营,,19,18,103,3,38,58,58,25,25,2,26,3,4,0.3,0.6
2025-11-24T1200,3695A,116.6151,40.3053,北京市,怀柔新城,,21,16,96,3,39,65,65,44,44,3,23,5,6,0.2,0.5
2025-11-24T1200,3696A,116.2545,39.8768,北京市,丰台小屯,,25,25,122,7,51,47,47,38,38,10,56,3,5,0.3,0.7
2025-11-24T1200,3697A,116.84,40.3844,北京市,密云镇,,22,22,110,6,37,60,60,22,22,5,42,2,3,0.2,0.5
2025-11-24T1200,4182A,116.1942,39.9158,北京市,八角北路9号,,30,30,121,7,46,46,46,44,44,8,46,3,2,0.2,0.5
2025-11-24T1200,4194A,117.0790,40.1518,北京市,洳河巡河路,,29,29,121,7,51,53,53,22,22,7,34,4,5,0.3,0.7
2025-11-24T1200,1761A,123.8275,41.3064,本溪市,大峪,细颗粒物(PM2.5),245,252,146,195,103,7,7,5,5,52,40,11,10,3.7,1.5
2025-11-24T1200,1762A,123.7567,41.3325,本溪市,溪湖,细颗粒物(PM2.5),271,353,178,221,119,4,4,4,2,60,38,13,13,4.6,1.9
2025-11-24T1200,1763A,123.7169,41.3094,本溪市,彩屯,细颗粒物(PM2.5),325,367,189,275,136,1,1,3,0,62,37,10,11,7.8,2.8
2025-11-24T1200,1764A,123.7669,41.2864,本溪市,东明,细颗粒物(PM2.5),324,346,135,274,128,7,7,4,4,56,44,11,10,4.8,1.7
2025-11-24T1200,1765A,123.7992,41.2664,本溪市,新立屯,细颗粒物(PM2.5),324,393,129,274,122,15,15,8,8,72,52,9,8,5.1,1.2
2025-11-24T1200,1766A,123.8142,41.3472,本溪市,威宁,细颗粒物(PM2.5),170,215,156,129,97,5,5,3,3,38,32,6,7,1.9,1.4
2025-11-24T1200,2587A,105.2864,27.3125,毕节市,八中,,26,26,33,14,21,69,69,37,37,13,12,14,12,0.5,0.5
2025-11-24T1200,2588A,105.31,27.2944,毕节市,师专,,,,30,,20,71,71,42,39,12,13,10,10,0.4,0.6
2025-11-24T1200,4263A,105.3688,27.3598,毕节市,工业大道,,26,18,37,10,24,83,83,37,37,5,14,10,12,0.3,0.6
2025-11-24T1200,1629A,118.0018,37.3617,滨州市,第二水厂,颗粒物(PM10),153,256,158,83,91,,,6,6,43,67,17,23,0.7,0.8
2025-11-24T1200,1630A,117.9776,37.393,滨州市,北中新校,颗粒物(PM10),112,173,140,75,87,38,38,12,12,26,73,15,21,0.4,0.7
2025-11-24T1200,3514A,117.9378,37.3956,滨州市,中海酒店,颗粒物(PM10),120,190,146,85,93,52,52,24,24,38,63,19,22,0.7,1.1
2025-11-24T1200,3515A,117.9378,37.3553,滨州市,开发区一中,颗粒物(PM10),147,244,166,78,95,48,48,17,17,43,71,18,26,0.7,1
2025-11-24T1200,3516A,118.0917,37.694,滨州市,金海六路,颗粒物(PM10),135,220,173,75,92,46,46,18,18,51,78,18,23,0.7,1
2025-11-24T1200,4028A,117.9956,37.3753,滨州市,滨州市西街道办事处,颗粒物(PM10),128,205,158,83,94,41,41,13,13,31,53,17,20,0.8,1.1
2025-11-24T1200,2311A,115.8072,33.8399,亳州市,污水处理厂,颗粒物(PM10),103,156,109,39,43,67,67,29,29,21,37,7,6,0.6,0.6
2025-11-24T1200,2312A,115.7789,33.8518,亳州市,三国揽胜宫,颗粒物(PM10),93,136,109,45,51,72,72,33,33,19,31,6,5,0.5,0.4
2025-11-24T1200,3332A,115.7633,33.8034,亳州市,亳州学院,颗粒物(PM10),84,117,97,46,48,66,66,29,29,22,36,6,5,0.5,0.4
2025-11-24T1200,2693A,82.0485,44.8556,博尔塔拉蒙古自治州,市党校,颗粒物(PM10),57,63,58,20,12,36,36,42,39,20,16,2,3,0.5,0.5
2025-11-24T1200,2694A,82.0806,44.8969,博尔塔拉蒙古自治州,市环保局,,47,47,56,22,16,41,41,46,44,16,13,1,2,0.5,0.4
2025-11-24T1200,1071A,116.8842,38.2991,沧州市,沧县城建局,颗粒物(PM10),120,189,148,76,84,36,36,15,15,43,62,9,12,0.5,0.7
2025-11-24T1200,1072A,116.8584,38.3254,沧州市,电视转播站,颗粒物(PM10),111,172,140,73,81,27,27,9,9,50,63,5,7,0.6,0.8
2025-11-24T1200,1073A,116.8709,38.3228,沧州市,市环保局,颗粒物(PM10),122,193,151,72,91,33,33,10,10,45,54,7,8,,0.8
2025-11-24T1200,3324A,116.8136,38.3004,沧州市,河北水利电力学院,颗粒物(PM10),158,266,164,61,68,32,32,12,12,35,59,6,12,0.4,0.7
2025-11-24T1200,2622A,97.1806,31.1273,昌都市,昌都监测站,,21,21,13,8,9,63,63,59,58,7,5,3,4,0.4,0.4
2025-11-24T1200,3719A,97.1714,31.1406,昌都市,昌都会议中心,,23,14,13,3,7,71,71,60,60,1,1,4,4,0.3,0.3
2025-11-24T1200,2690A,88.1236,43.8886,昌吉回族自治州,天山天池,,,,,,,,,,,,,,,,
2025-11-24T1200,2692A,87.2717,44.0297,昌吉回族自治州,新区政务中心,颗粒物(PM10),52,54,35,33,20,32,32,41,29,23,26,4,5,0.7,0.7
2025-11-24T1200,3613A,87.3095,44.0142,昌吉回族自治州,亚心广场,细颗粒物(PM2.5),67,73,46,48,24,28,28,47,36,28,22,8,8,0.7,0.5
2025-11-24T1200,1120A,125.2863,43.9027,长春市,客车厂,细颗粒物(PM2.5),148,139,205,113,209,,,,,18,59,8,14,0.5,1.2
2025-11-24T1200,1121A,125.2841,43.8463,长春市,邮电学院,细颗粒物(PM2.5),119,153,240,90,232,58,58,78,78,22,57,10,15,0.6,1.1
2025-11-24T1200,1122A,125.3716,43.8772,长春市,劳动公园,颗粒物(PM10),92,134,238,43,199,56,56,71,71,18,56,11,16,0.6,1.3
2025-11-24T1200,1123A,125.3297,43.8805,长春市,园林处,"颗粒物(PM10),细颗粒物(PM2.5)",97,143,212,72,233,43,43,73,71,16,51,8,11,0.6,1.1
2025-11-24T1200,1124A,125.4605,43.79,长春市,净月潭,颗粒物(PM10),104,157,227,44,196,68,68,70,70,16,39,8,9,0.6,1
2025-11-24T1200,1125A,125.7194,43.515,长春市,甩湾子,,,,290,,338,,,59,,,51,,8,,1.8
2025-11-24T1200,1126A,125.3863,43.8447,长春市,经开区环卫处,颗粒物(PM10),71,92,221,44,191,53,53,34,34,18,61,9,12,0.5,1.2
2025-11-24T1200,1127A,125.245,43.7783,长春市,高新区管委会,细颗粒物(PM2.5),114,128,278,86,284,58,58,105,105,19,55,7,10,0.5,1.4
2025-11-24T1200,1128A,125.1761,43.8325,长春市,岱山公园,颗粒物(PM10),124,198,217,60,204,54,54,30,30,21,62,7,12,0.6,1.1
2025-11-24T1200,4281A,125.3346,43.9164,长春市,北亚泰大街1068号,细颗粒物(PM2.5),163,145,212,124,211,60,60,36,36,15,57,8,12,0.7,1.3
2025-11-24T1200,1335A,113.0833,28.2325,长沙市,经开区环保局,,,45,68,29,51,44,44,22,22,,38,6,6,0.4,0.6
2025-11-24T1200,1336A,112.8872,28.2189,长沙市,高开区环保局,颗粒物(PM10),57,64,70,36,59,46,46,11,11,16,37,6,7,0.5,0.6
2025-11-24T1200,1337A,113.0792,28.2053,长沙市,马坡岭,,41,41,72,28,51,52,52,30,30,21,33,7,8,0.5,0.6
2025-11-24T1200,1338A,112.9394,28.19,长沙市,湖南师范大学,颗粒物(PM10),54,58,62,30,42,52,52,30,29,21,35,5,6,0.6,0.7
2025-11-24T1200,1339A,113.0178,28.1322,长沙市,雨花区环保局,,50,50,71,27,50,52,52,17,17,15,44,8,9,0.5,0.6
2025-11-24T1200,1340A,112.9792,28.2597,长沙市,伍家岭,颗粒物(PM10),58,66,80,37,51,44,44,17,17,26,41,8,7,0.3,0.4
2025-11-24T1200,1341A,113.0014,28.1944,长沙市,火车新站,细颗粒物(PM2.5),52,52,76,36,54,51,51,23,23,24,49,7,8,0.4,0.6
2025-11-24T1200,1342A,112.9844,28.1178,长沙市,天心区环保局,颗粒物(PM10),57,64,69,36,49,50,50,17,17,26,48,7,7,0.4,0.5
2025-11-24T1200,1343A,112.8908,28.1308,长沙市,湖南中医药大学,颗粒物(PM10),57,64,75,33,55,50,50,13,13,16,38,8,7,1.0,1
2025-11-24T1200,1344A,112.9581,28.3611,长沙市,沙坪,,,,,,,,,,,,,,,,
2025-11-24T1200,1727A,113.1147,36.1547,长治市,清华站,颗粒物(PM10),122,194,97,29,33,73,73,53,53,7,24,4,7,0.4,0.6
2025-11-24T1200,1730A,113.0886,36.2125,长治市,审计局,颗粒物(PM10),107,163,105,29,37,69,69,58,58,8,24,6,10,0.2,0.4
2025-11-24T1200,1731A,113.0844,36.1856,长治市,长治八中,颗粒物(PM10),132,214,119,50,41,67,67,54,54,3,20,6,11,0.3,0.5
2025-11-24T1200,2845A,113.1569,36.1911,长治市,德盛苑,颗粒物(PM10),126,201,106,39,39,71,71,64,64,10,20,6,11,0.2,0.4
2025-11-24T1200,3568A,113.06,36.0464,长治市,向阳小学,颗粒物(PM10),130,210,129,44,40,78,78,64,64,8,24,10,16,0.3,0.6
2025-11-24T1200,3569A,112.8792,36.3144,长治市,屯留一中,颗粒物(PM10),122,193,119,29,40,72,72,64,64,9,29,6,11,0.7,0.7
2025-11-24T1200,4189A,113.1131,36.19948,长治市,英华南巷50号,颗粒物(PM10),122,194,113,44,42,72,72,61,61,6,20,4,9,0.2,0.5
2025-11-24T1200,4190A,113.2367,36.3344,长治市,学府街1号,颗粒物(PM10),318,434,146,44,44,63,63,51,51,8,23,5,12,0.5,0.9
2025-11-24T1200,1854A,111.6975,28.9703,常德市,市二中,,32,24,29,22,20,58,58,30,30,7,13,5,5,0.5,0.5
2025-11-24T1200,1857A,111.7158,29.1456,常德市,白鹤山,,,,,,,,,,,,,,,,
2025-11-24T1200,3138A,111.7153,29.0289,常德市,武陵区永安,,32,29,28,22,20,48,48,35,35,6,8,6,6,0.4,0.3
2025-11-24T1200,3139A,111.6892,28.9881,常德市,鼎城区玉霞,,32,24,28,22,22,51,51,25,25,4,10,6,5,0.5,0.5
2025-11-24T1200,3140A,111.6625,29.0531,常德市,武陵区长庚,,33,32,34,23,23,47,47,29,28,8,13,4,5,0.2,0.2
2025-11-24T1200,1196A,119.9633,31.762,常州市,市监测站,细颗粒物(PM2.5),94,94,106,70,83,91,91,35,35,35,53,8,10,0.9,0.9
2025-11-24T1200,1200A,119.9468,31.7069,常州市,武进监测站,细颗粒物(PM2.5),99,106,112,74,83,96,96,35,35,30,50,12,12,0.8,0.8
2025-11-24T1200,1201A,119.9255,31.9087,常州市,安家,细颗粒物(PM2.5),89,104,126,66,86,102,102,31,31,24,66,14,18,0.6,0.8
2025-11-24T1200,3002A,119.9805,31.8174,常州市,行政中心,细颗粒物(PM2.5),90,102,107,67,79,101,101,43,43,27,44,10,12,0.8,0.9
2025-11-24T1200,3003A,120.0522,31.7748,常州市,经开区,,,,104,56,72,,,42,42,21,32,,15,1.0,1.1
2025-11-24T1200,3010A,119.9025,31.7964,常州市,钟楼,细颗粒物(PM2.5),89,95,113,66,87,101,101,34,34,27,52,13,16,0.7,0.9
2025-11-24T1200,3429A,119.8598,31.7066,常州市,武进经发区,细颗粒物(PM2.5),113,119,122,85,94,92,92,39,39,29,48,14,16,0.8,0.6
2025-11-24T1200,3430A,119.5826,31.7245,常州市,金坛城区,细颗粒物(PM2.5),82,80,108,60,87,104,104,45,45,15,32,11,12,0.9,1.1
2025-11-24T1200,2220A,120.4318,41.5881,朝阳市,西梁,颗粒物(PM10),88,126,154,39,81,37,37,10,10,29,53,10,14,0.7,1.4
2025-11-24T1200,2221A,120.4521,41.5646,朝阳市,河畔小区,颗粒物(PM10),75,99,121,36,64,46,46,13,13,22,50,11,11,0.5,1.1
2025-11-24T1200,2222A,120.4176,41.5648,朝阳市,八里堡,颗粒物(PM10),82,114,125,39,70,37,37,9,9,30,52,12,12,0.4,1
2025-11-24T1200,2223A,120.3806,41.5969,朝阳市,农业园区,"颗粒物(PM10),细颗粒物(PM2.5)",83,116,100,61,51,34,34,18,18,43,45,10,11,0.8,0.9
2025-11-24T1200,1705A,116.6367,23.6719,潮州市,西园路,,,,,,,,,,,,,,,,
2025-11-24T1200,3026A,116.6183,23.6608,潮州市,市政府,颗粒物(PM10),61,72,71,18,43,96,96,48,48,9,21,8,9,0.4,0.6
2025-11-24T1200,4036A,116.6461,23.6761,潮州市,金山,颗粒物(PM10),53,56,51,18,41,92,92,44,44,10,16,4,3,0.5,0.6
2025-11-24T1200,2472A,113.0073,25.9061,郴州市,马头岭,,,,,,,,,,,,,,,,
2025-11-24T1200,2473A,113.0116,25.8226,郴州市,市职中,细颗粒物(PM2.5),62,61,56,44,44,104,104,29,29,14,28,21,7,0.5,0.6
2025-11-24T1200,2475A,113.0383,25.8071,郴州市,市审计局,细颗粒物(PM2.5),77,76,62,56,46,99,99,28,28,19,33,49,11,0.7,0.6
2025-11-24T1200,2476A,113.0348,25.7759,郴州市,市环保局,细颗粒物(PM2.5),69,74,80,50,45,97,97,26,26,22,38,67,17,0.7,0.6
2025-11-24T1200,4252A,113.0138,25.8011,郴州市,好美居路49号,细颗粒物(PM2.5),70,68,58,51,45,110,110,38,38,17,37,40,11,0.6,0.6
2025-11-24T1200,1431A,103.9728,30.7236,成都市,金泉两河,细颗粒物(PM2.5),119,127,88,90,70,37,37,10,10,33,35,6,10,0.8,0.8
2025-11-24T1200,1432A,104.176,30.6872,成都市,十里店,细颗粒物(PM2.5),149,161,104,114,73,46,46,,,31,36,5,4,0.8,0.7
2025-11-24T1200,1433A,104.079,30.5706,成都市,三瓦窑,细颗粒物(PM2.5),113,141,104,85,70,52,52,42,33,42,37,6,5,0.7,0.6
2025-11-24T1200,1434A,104.1114,30.63,成都市,沙河铺,细颗粒物(PM2.5),168,158,107,127,90,37,37,26,18,48,40,4,3,1.0,0.9
2025-11-24T1200,1437A,104.0786,30.6531,成都市,君平街,细颗粒物(PM2.5),134,135,104,102,88,32,32,40,28,38,28,7,10,0.9,0.7
2025-11-24T1200,1438A,103.613,31.0283,成都市,灵岩寺,,,,,,,,,,,,,,,,
2025-11-24T1200,2880A,104.0239,30.65639,成都市,大石西路,细颗粒物(PM2.5),123,100,83,93,74,34,34,27,23,44,36,5,5,0.9,0.8
2025-11-24T1200,3136A,104.2725,30.5589,成都市,龙泉驿区区政府,细颗粒物(PM2.5),110,117,78,83,60,47,47,51,43,31,20,7,7,0.7,0.6
2025-11-24T1200,3357A,104.0106,30.6931,成都市,金博路,细颗粒物(PM2.5),118,121,89,89,69,33,33,29,18,41,36,7,6,0.8,0.7
2025-11-24T1200,3359A,104.0578,30.5225,成都市,华阳,细颗粒物(PM2.5),117,124,93,88,66,46,46,54,35,46,33,7,6,0.8,0.7
2025-11-24T1200,3488A,104.3880,30.7467,成都市,青石路225号,细颗粒物(PM2.5),97,118,95,72,78,66,66,43,30,16,27,4,5,0.6,0.7
2025-11-24T1200,3489A,104.0789,30.4072,成都市,科学城,细颗粒物(PM2.5),119,112,84,90,66,53,53,32,32,35,21,7,6,0.6,0.5
2025-11-24T1200,4011A,103.8506,30.6947,成都市,光华大道三段,细颗粒物(PM2.5),130,120,98,99,73,47,47,22,16,26,29,,3,0.7,0.6
2025-11-24T1200,4224A,104.2433,30.5353,成都市,鲸龙路1057号,细颗粒物(PM2.5),128,117,80,97,67,46,46,33,26,34,27,7,6,0.9,0.7
2025-11-24T1200,1062A,117.9531,40.9081,承德市,铁路,颗粒物(PM10),91,132,115,54,47,12,12,5,5,40,42,14,13,1.3,1.2
2025-11-24T1200,1063A,117.9392,40.9763,承德市,中国银行,颗粒物(PM10),84,118,112,39,39,19,19,7,7,33,37,4,4,0.5,0.7
2025-11-24T1200,1064A,117.9503,40.928,承德市,开发区,颗粒物(PM10),80,109,114,41,43,23,23,9,9,31,43,9,12,0.7,1
2025-11-24T1200,1066A,117.9268,41.0026,承德市,离宫,,,,,,,,,,,,,,,,
2025-11-24T1200,4274A,117.7994,40.9605,承德市,滨河大街98号,,,132,120,46,44,18,18,7,7,41,34,,10,,0.7
2025-11-24T1200,2314A,117.47,30.6618,池州市,池州学院,细颗粒物(PM2.5),85,86,84,63,67,93,93,65,65,26,31,14,12,0.7,0.8
2025-11-24T1200,3237A,117.4918,30.6617,池州市,展览馆,细颗粒物(PM2.5),75,83,79,55,54,90,90,47,47,28,38,14,9,0.6,0.8
2025-11-24T1200,3333A,117.5627,30.695,池州市,第八中学,细颗粒物(PM2.5),68,73,69,49,48,102,102,57,57,27,36,13,11,0.8,0.9
2025-11-24T1200,3334A,117.5038,30.6243,池州市,第十二中学,细颗粒物(PM2.5),65,76,71,47,46,107,107,52,52,24,42,10,11,0.8,1.4
2025-11-24T1200,1744A,118.9233,42.2816,赤峰市,松山一中,颗粒物(PM10),57,63,94,20,38,36,36,12,12,22,41,8,14,0.5,0.9
2025-11-24T1200,1745A,118.9576,42.2728,赤峰市,哈达街,颗粒物(PM10),56,61,106,21,37,37,37,12,12,23,41,11,16,0.5,0.8
2025-11-24T1200,1746A,118.8788,42.2554,赤峰市,天义路,颗粒物(PM10),51,52,88,28,44,23,23,9,9,31,38,10,10,0.8,0.9
2025-11-24T1200,3058A,119.2658,42.0353,赤峰市,银河街,颗粒物(PM10),52,53,117,28,52,45,45,36,36,13,30,7,8,0.5,0.8
2025-11-24T1200,3286A,118.9359,42.3147,赤峰市,桥北物流园区,颗粒物(PM10),54,58,94,25,42,44,44,15,15,15,39,10,10,0.4,0.5
2025-11-24T1200,2521A,107.3476,22.4136,崇左市,市环保局江州分局,,45,45,55,28,31,68,68,34,34,21,23,11,6,0.1,0.7
2025-11-24T1200,4256A,107.3750,22.3736,崇左市,石景林东路7号,,49,49,41,30,26,80,80,38,38,13,19,9,8,0.5,0.6
2025-11-24T1200,2298A,118.3093,32.3153,滁州市,老年大学,"颗粒物(PM10),细颗粒物(PM2.5)",60,70,84,43,67,93,93,72,72,13,29,10,10,0.4,0.5
2025-11-24T1200,2299A,118.3244,32.2786,滁州市,人大宾馆,颗粒物(PM10),55,59,89,38,68,94,94,65,65,16,30,8,8,0.4,0.5
2025-11-24T1200,3207A,118.3118,32.3038,滁州市,市政府原办公楼,颗粒物(PM10),58,65,84,40,62,98,98,76,76,15,31,8,7,0.5,0.6
2025-11-24T1200,3331A,118.3267,32.2634,滁州市,图书馆,颗粒物(PM10),54,57,82,28,54,93,93,76,76,17,25,8,10,0.4,0.4
2025-11-24T1200,2605A,101.5482,25.0441,楚雄彝族自治州,州环境监测站,,44,44,26,28,20,33,33,8,8,18,17,9,13,0.8,0.8
2025-11-24T1200,2606A,101.538,25.0492,楚雄彝族自治州,市经济开发区,,35,34,25,24,18,38,38,9,9,14,16,10,13,0.7,0.6
2025-11-24T1200,2548A,107.5277,31.2827,达州市,达州职业技术学院,,,,,,,,,,,,,,,,
2025-11-24T1200,2549A,107.5086,31.2186,达州市,市环境监测站,细颗粒物(PM2.5),77,86,60,56,40,20,20,6,6,30,30,6,6,0.7,0.7
2025-11-24T1200,2550A,107.4988,31.2132,达州市,凤凰小区,细颗粒物(PM2.5),89,88,64,66,44,22,22,10,10,31,32,5,5,0.5,0.5
2025-11-24T1200,2551A,107.5082,31.1986,达州市,达县机关宾馆,细颗粒物(PM2.5),73,75,63,53,45,25,25,9,9,30,32,5,4,0.7,0.6
2025-11-24T1200,2552A,107.4644,31.2124,达州市,市政中心,细颗粒物(PM2.5),79,95,81,58,44,17,17,6,6,35,33,6,6,0.8,0.6
2025-11-24T1200,2614A,100.1542,25.7054,大理白族自治州,大理市环境监测站,,36,,12,25,17,47,47,50,45,14,14,6,6,0.7,0.6
2025-11-24T1200,2615A,100.2171,25.5811,大理白族自治州,大理古城,,20,12,16,3,10,61,61,40,40,4,11,7,7,0.5,0.5
2025-11-24T1200,1109A,121.612,38.9741,大连市,甘井子,"颗粒物(PM10),细颗粒物(PM2.5)",75,100,132,55,87,62,62,38,31,37,51,16,18,0.5,0.6
2025-11-24T1200,1110A,121.565,38.9511,大连市,周水子,颗粒物(PM10),72,94,130,49,88,62,62,26,26,34,55,10,14,0.7,0.8
2025-11-24T1200,1111A,121.5637,38.8845,大连市,星海三站,,,88,122,54,92,,,32,24,32,37,12,10,,0.9
2025-11-24T1200,1112A,121.6302,38.9117,大连市,青泥洼桥,,,103,134,49,88,58,58,35,26,39,42,19,15,,1.1
2025-11-24T1200,1113A,121.6251,38.8638,大连市,傅家庄,细颗粒物(PM2.5),112,129,132,84,95,61,61,45,45,34,35,16,17,1.5,1.3
2025-11-24T1200,1114A,121.5213,38.8661,大连市,七贤岭,颗粒物(PM10),63,76,138,30,90,82,82,33,33,17,39,10,9,0.5,1
2025-11-24T1200,1115A,121.2529,38.8061,大连市,旅顺,细颗粒物(PM2.5),109,129,141,82,101,48,48,37,33,,36,16,12,,0.8
2025-11-24T1200,1116A,121.7485,39.1311,大连市,金州,细颗粒物(PM2.5),80,101,145,59,97,52,52,42,41,45,58,17,14,0.8,0.8
2025-11-24T1200,1117A,121.7811,39.0496,大连市,开发区,颗粒物(PM10),83,116,142,58,96,50,50,15,15,39,68,20,13,0.7,0.8
2025-11-24T1200,1118A,121.9762,39.0631,大连市,双D港,细颗粒物(PM2.5),125,124,132,95,83,50,50,45,43,32,32,14,14,1.1,0.9
2025-11-24T1200,1789A,124.81117,46.03138,大庆市,大同区,,,,132,,96,92,92,56,56,69,32,13,9,2.3,1
2025-11-24T1200,1790A,125.129,46.533,大庆市,龙凤区,,30,30,41,21,27,30,30,39,33,18,22,8,8,0.6,0.6
2025-11-24T1200,1791A,124.902,46.408,大庆市,红岗区,,30,30,45,17,27,37,37,45,42,16,16,4,5,0.6,0.6
2025-11-24T1200,1792A,125.153,46.586,大庆市,萨尔图区,,38,38,44,19,28,32,32,30,26,14,27,7,8,0.4,0.5
2025-11-24T1200,1793A,124.9042,46.6215,大庆市,让胡路区,,32,32,49,22,36,36,36,44,40,11,16,7,7,0.4,0.5
2025-11-24T1200,3481A,125.141,46.634,大庆市,萨区政府监测点,,35,35,41,9,16,39,39,35,33,5,14,8,9,0.3,0.4
2025-11-24T1200,1721A,113.3819,40.1097,大同市,果树场,颗粒物(PM10),52,53,197,13,46,66,66,59,59,8,28,7,10,0.4,0.6
2025-11-24T1200,1723A,113.2994,40.0758,大同市,云冈宾馆,,40,40,232,8,39,58,58,55,53,4,13,3,6,0.5,0.6
2025-11-24T1200,1724A,113.3444,40.0917,大同市,大同大学,,,,239,,52,,,61,58,,17,,3,,0.5
2025-11-24T1200,1725A,113.2661,40.1269,大同市,安家小村,,48,48,247,3,47,52,52,53,50,4,11,6,8,0.2,0.3
2025-11-24T1200,1726A,113.2711,40.0844,大同市,教育学院,颗粒物(PM10),63,76,251,3,49,60,60,58,56,7,16,3,5,0.2,0.3
2025-11-24T1200,3282A,113.3397,40.0597,大同市,大同市卫生学校,颗粒物(PM10),53,56,250,10,46,62,62,58,56,6,12,2,5,0.4,0.5
2025-11-24T1200,3565A,113.1367,40.1122,大同市,云冈站,,48,48,237,3,55,62,62,56,56,3,17,3,5,0.3,0.3
2025-11-24T1200,3566A,113.1186,40.2556,大同市,图书馆,颗粒物(PM10),101,151,229,6,55,62,62,60,59,6,10,2,5,0.4,0.4
2025-11-24T1200,3567A,113.5931,40.0461,大同市,区一中,颗粒物(PM10),63,76,263,6,41,69,69,63,63,6,19,3,9,0.3,0.5
2025-11-24T1200,4199A,113.2798,40.0997,大同市,魏都大道141号,颗粒物(PM10),61,72,261,14,42,62,62,57,56,6,17,2,5,0.5,0.6
2025-11-24T1200,2269A,124.1069,50.4097,大兴安岭地区,科技局,,16,10,17,9,15,49,49,44,44,2,3,6,5,0.3,0.3
2025-11-24T1200,3663A,124.1164,50.4278,大兴安岭地区,红旗社区,,17,17,13,3,8,52,52,40,40,6,11,4,5,0.3,0.4
2025-11-24T1200,1600A,124.3303,40.0625,丹东市,江湾东路,细颗粒物(PM2.5),133,130,138,101,83,25,25,16,16,45,35,17,10,2.0,1.7
2025-11-24T1200,1601A,124.4256,40.1503,丹东市,临江后街,细颗粒物(PM2.5),130,145,136,99,79,41,41,20,20,,46,10,10,,1.5
2025-11-24T1200,1602A,124.3933,40.1461,丹东市,元宝山,细颗粒物(PM2.5),123,147,118,93,80,42,42,18,18,33,32,11,13,1.4,1.5
2025-11-24T1200,1603A,124.3633,40.1092,丹东市,民主桥,细颗粒物(PM2.5),130,133,136,99,90,42,42,13,13,52,51,10,9,1.0,1.4
2025-11-24T1200,3541A,109.5726,19.5167,儋州市,第一中学子站,,44,44,55,29,31,121,121,120,111,8,8,9,8,0.5,0.5
2025-11-24T1200,3542A,109.5567,19.5187,儋州市,东坡学校子站,,42,36,51,27,27,133,133,129,123,11,12,3,2,0.5,0.5
2025-11-24T1200,2616A,98.5842,24.428,德宏傣族景颇族自治州,德宏州监测站,,29,28,31,20,23,50,50,16,16,14,17,9,8,0.7,0.7
2025-11-24T1200,3677A,98.5881,24.4368,德宏傣族景颇族自治州,芒市人民政府综合楼,,42,38,32,29,15,46,46,15,15,15,15,8,8,0.8,0.7
2025-11-24T1200,1901A,104.4239,31.1208,德阳市,东山公园,颗粒物(PM10),78,106,82,52,67,55,55,59,42,16,22,2,3,0.8,0.9
2025-11-24T1200,1902A,104.3826,31.1317,德阳市,西小区,细颗粒物(PM2.5),88,116,96,65,67,37,37,10,10,22,39,4,4,0.6,0.6
2025-11-24T1200,1904A,104.3553,31.1091,德阳市,耐火材料厂,细颗粒物(PM2.5),89,122,94,66,76,35,35,13,13,32,41,12,11,0.8,0.8
2025-11-24T1200,3639A,104.4019,31.1244,德阳市,市教育局,颗粒物(PM10),78,105,79,56,65,44,44,13,13,18,39,1,1,0.6,0.7
2025-11-24T1200,1622A,116.3032,37.4674,德州市,儿童乐园,颗粒物(PM10),500,732,219,70,75,65,65,30,30,16,56,8,19,0.5,1
2025-11-24T1200,1624A,116.2991,37.4451,德州市,监理站,颗粒物(PM10),500,798,213,100,79,70,70,39,39,20,59,12,19,0.5,0.8
2025-11-24T1200,3066A,116.2721,37.4379,德州市,九衢泉纯净水厂,颗粒物(PM10),500,661,207,85,79,61,61,30,30,26,74,35,22,0.7,1.1
2025-11-24T1200,3371A,116.3728,37.4403,德州市,开发区人民医院,颗粒物(PM10),500,666,209,80,77,66,66,38,38,16,60,11,23,0.5,0.9
2025-11-24T1200,3511A,116.5652,37.3319,德州市,陵城艺术中心,颗粒物(PM10),500,669,201,85,80,62,62,23,23,29,65,6,22,0.4,1
2025-11-24T1200,4292A,116.3525,37.4209,德州市,新河东路,颗粒物(PM10),500,617,208,75,82,63,63,32,32,28,77,10,19,0.6,1
2025-11-24T1200,2621A,99.7056,27.8317,迪庆藏族自治州,迪庆州站,,34,34,25,8,17,81,81,44,44,4,10,5,6,0.6,0.8
2025-11-24T1200,3180A,99.7136,27.8094,迪庆藏族自治州,质量技术监督局,,38,38,25,8,18,89,89,44,44,7,12,7,7,0.6,0.9
2025-11-24T1200,4257A,104.6092,35.5962,定西市,将台街,颗粒物(PM10),51,52,162,21,45,82,82,82,80,2,11,9,10,0.4,0.5
2025-11-24T1200,4309A,104.6159,35.5701,定西市,正龙路62号,颗粒物(PM10),53,56,175,32,46,79,79,78,77,4,13,6,7,0.3,0.5
2025-11-24T1200,1389A,113.7547,23.0494,东莞市,莞城梨川,颗粒物(PM10),51,51,55,35,32,122,122,55,55,24,40,8,8,0.6,0.7
2025-11-24T1200,1390A,113.7944,23.0128,东莞市,东城石井,颗粒物(PM10),53,55,48,36,32,141,141,54,54,26,34,13,9,0.6,0.7
2025-11-24T1200,1391A,113.7383,22.9658,东莞市,南城西平,颗粒物(PM10),51,51,57,34,34,129,129,33,33,29,62,12,10,0.7,0.8
2025-11-24T1200,3319A,113.7338,23.0381,东莞市,万江金泰,,44,44,53,29,31,116,116,61,61,17,31,8,8,0.8,0.8
2025-11-24T1200,3626A,113.7533,23.0202,东莞市,南城元岭,"颗粒物(PM10),细颗粒物(PM2.5)",52,54,51,36,33,120,120,60,60,20,28,10,10,0.5,0.5
2025-11-24T1200,3627A,113.7875,23.0457,东莞市,东城主山,颗粒物(PM10),61,71,44,43,22,112,112,56,56,38,39,9,8,0.5,0.5
2025-11-24T1200,1666A,118.6614,37.4309,东营市,市环保局,细颗粒物(PM2.5),125,193,161,95,96,40,40,13,13,55,73,24,28,1.1,1.2
2025-11-24T1200,3036A,118.6904,37.4338,东营市,开发区管委会,颗粒物(PM10),127,203,167,95,97,43,43,14,14,59,82,19,27,0.7,0.9
2025-11-24T1200,3365A,118.5719,37.565,东营市,垦利区民丰路,细颗粒物(PM2.5),122,185,170,92,96,47,47,21,21,56,76,13,17,1.2,1.3
2025-11-24T1200,3498A,118.5055,37.8612,东营市,河口城区,颗粒物(PM10),131,212,178,98,101,41,41,15,15,63,67,26,26,1.2,1
2025-11-24T1200,3646A,118.4978,37.4623,东营市,胜利站,颗粒物(PM10),111,172,156,80,98,35,35,10,10,62,86,25,30,1.2,1.5
2025-11-24T1200,3734A,118.35,37.26,东营市,理想之城,颗粒物(PM10),130,210,179,95,101,34,34,10,10,60,80,21,24,1.0,1.2
2025-11-24T1200,1591A,110.0023,39.8129,鄂尔多斯市,综合楼,颗粒物(PM10),58,66,239,3,38,62,62,66,61,4,6,6,6,0.3,0.3
2025-11-24T1200,1592A,109.9486,39.8261,鄂尔多斯市,巴音孟克林场办事处,,27,27,277,3,42,65,65,70,64,6,6,5,5,0.3,0.2
2025-11-24T1200,1593A,109.7736,39.5986,鄂尔多斯市,康泽苑,,34,34,259,7,45,68,68,72,66,4,5,6,6,0.2,0.2
2025-11-24T1200,1594A,109.8119,39.5989,鄂尔多斯市,华泰汽车城,,24,24,260,7,44,67,67,71,66,4,5,6,6,0.2,0.2
2025-11-24T1200,1595A,109.9734,39.7884,鄂尔多斯市,奥林花园,,31,31,276,3,39,67,67,68,65,6,11,5,8,0.2,0.2
2025-11-24T1200,2436A,114.8938,30.3994,鄂州市,市政府,细颗粒物(PM2.5),95,109,109,71,93,42,42,13,13,46,52,13,14,1.0,1.1
2025-11-24T1200,2437A,114.8989,30.3714,鄂州市,赵家坝,颗粒物(PM10),80,109,103,40,77,69,69,20,20,9,32,11,11,0.8,1.1
2025-11-24T1200,3654A,114.8094,30.4089,鄂州市,精准医疗中心,颗粒物(PM10),67,83,101,36,80,69,69,24,24,4,37,6,8,0.8,1.1
2025-11-24T1200,2454A,109.4978,30.2981,恩施土家族苗族自治州,湖北民院,细颗粒物(PM2.5),62,,50,44,46,32,32,15,15,11,14,6,7,0.6,0.7
2025-11-24T1200,2455A,109.4707,30.2798,恩施土家族苗族自治州,州电力总公司,细颗粒物(PM2.5),55,42,57,39,48,24,24,7,7,11,17,6,6,0.6,0.6
2025-11-24T1200,3549A,109.5061,30.3772,恩施土家族苗族自治州,龙凤新区,,49,45,54,34,40,29,29,12,12,15,14,7,7,0.3,0.3
2025-11-24T1200,2499A,108.3411,21.6158,防城港市,沙万,,49,49,51,26,35,100,100,82,82,8,16,8,8,0.4,0.4
2025-11-24T1200,2500A,108.3514,21.7731,防城港市,防城档案局,颗粒物(PM10),61,71,71,33,36,93,93,88,81,10,18,11,10,0.4,0.5
2025-11-24T1200,2501A,108.3506,21.6414,防城港市,大海花园,颗粒物(PM10),55,59,50,26,35,107,107,90,90,9,16,8,9,0.4,0.6
2025-11-24T1200,1371A,113.1294,23.0067,佛山市,湾梁,颗粒物(PM10),57,63,55,34,33,92,92,56,56,40,42,13,11,0.7,0.6
2025-11-24T1200,1372A,113.1083,23.0478,佛山市,华材职中,颗粒物(PM10),59,68,65,40,39,94,94,51,51,30,50,12,9,0.8,0.9
2025-11-24T1200,1373A,113.144,23.0453,佛山市,南海气象局,颗粒物(PM10),58,65,54,35,35,93,93,56,56,35,40,13,11,0.7,0.7
2025-11-24T1200,1374A,113.2881,22.8094,佛山市,顺德苏岗,,41,41,53,24,31,94,94,41,41,28,52,12,11,0.4,0.5
2025-11-24T1200,1376A,112.8383,22.8678,佛山市,高明孔堂,细颗粒物(PM2.5),58,58,62,41,39,101,101,49,49,25,32,13,11,0.4,0.4
2025-11-24T1200,1377A,112.8836,23.1588,佛山市,三水监测站,颗粒物(PM10),53,56,60,34,35,99,99,62,62,19,38,11,12,0.6,0.6
2025-11-24T1200,1378A,112.867,23.185,佛山市,三水云东海,,49,43,50,34,32,110,110,58,58,19,36,10,10,0.6,0.6
2025-11-24T1200,3625A,113.2544,22.7642,佛山市,容桂街道办,,48,48,72,27,37,81,81,33,33,33,68,9,9,0.6,0.7
2025-11-24T1200,1280A,119.3903,26.0543,福州市,鼓山,,,,29,,15,,,93,,,12,,2,,0.6
2025-11-24T1200,1282A,119.2681,26.0504,福州市,师大,,38,38,43,21,23,89,89,52,52,13,19,8,7,0.5,0.5
2025-11-24T1200,1283A,119.2984,26.1028,福州市,五四北路,,36,28,42,25,26,92,92,56,56,16,26,5,5,0.5,0.5
2025-11-24T1200,1284A,119.2648,26.0768,福州市,杨桥西路,,29,21,42,20,24,92,92,51,51,11,22,5,5,0.4,0.4
2025-11-24T1200,1285A,119.317,26.0746,福州市,紫阳,,39,39,52,22,26,80,80,51,51,22,31,8,7,0.5,0.5
2025-11-24T1200,3048A,119.5799,26.0936,福州市,九龙,,30,29,32,10,21,95,95,70,70,6,13,4,4,0.5,0.5
2025-11-24T1200,3526A,119.5189,25.9664,福州市,吴航,,45,45,41,24,22,75,75,32,32,25,27,10,7,0.6,0.6
2025-11-24T1200,1755A,123.7977,41.8491,抚顺市,望花区,细颗粒物(PM2.5),224,256,190,174,146,37,37,9,9,46,50,14,13,1.2,1.4
2025-11-24T1200,1756A,123.9161,41.8822,抚顺市,顺城区,细颗粒物(PM2.5),247,240,215,197,176,37,37,10,10,52,52,13,12,1.6,1.7
2025-11-24T1200,1757A,124.0436,41.8611,抚顺市,东洲区,细颗粒物(PM2.5),229,235,154,179,125,23,23,9,9,60,45,11,11,1.6,1.2
2025-11-24T1200,1758A,123.9247,41.8642,抚顺市,新抚区,细颗粒物(PM2.5),230,247,176,180,138,18,18,6,6,66,45,12,10,1.7,1.4
2025-11-24T1200,1759A,124.0972,41.8961,抚顺市,大伙房水库,细颗粒物(PM2.5),230,220,140,180,119,35,35,15,15,50,38,13,12,2.0,1.4
2025-11-24T1200,1760A,123.7086,41.8391,抚顺市,沈抚新城,细颗粒物(PM2.5),254,269,195,204,160,48,48,15,15,39,41,14,11,1.4,1.5
2025-11-24T1200,2376A,116.2127,28.0814,抚州市,桐源党溪,,,,,,,,,,,,,,,,
2025-11-24T1200,2377A,116.3544,27.9831,抚州市,市站,颗粒物(PM10),60,70,76,39,52,101,101,52,52,18,28,12,11,0.8,0.8
2025-11-24T1200,2378A,116.3565,27.963,抚州市,血防站,,,63,76,38,50,104,104,39,39,19,36,8,9,,1
2025-11-24T1200,2379A,116.3564,28.0007,抚州市,采茶剧团,颗粒物(PM10),61,72,81,40,56,102,102,57,57,12,22,10,8,0.8,0.9
2025-11-24T1200,2380A,116.385,27.9647,抚州市,医学分院,颗粒物(PM10),57,64,82,36,50,101,101,33,33,18,33,7,9,0.8,0.9
2025-11-24T1200,2207A,121.6094,41.998,阜新市,工业园区,细颗粒物(PM2.5),450,,183,425,121,72,72,30,30,28,49,10,19,1.0,1.1
2025-11-24T1200,2208A,121.6697,42.0279,阜新市,长青街,细颗粒物(PM2.5),500,,133,518,109,71,71,29,29,29,44,10,14,1.4,1.8
2025-11-24T1200,2209A,121.6673,42.0705,阜新市,农业园区,细颗粒物(PM2.5),419,,119,378,61,87,87,50,50,28,24,7,12,1.1,0.6
2025-11-24T1200,2210A,121.6717,42.0224,阜新市,东苑,细颗粒物(PM2.5),500,,144,575,104,63,63,25,25,30,52,11,26,,2
2025-11-24T1200,2211A,121.6506,42.0498,阜新市,玉龙新城,细颗粒物(PM2.5),456,,149,434,98,77,77,38,38,29,45,10,15,1.0,1.3
2025-11-24T1200,2301A,115.8277,32.8929,阜阳市,市监测站,颗粒物(PM10),81,112,83,54,58,66,66,57,55,22,20,10,6,0.4,0.4
2025-11-24T1200,2303A,115.8554,32.8605,阜阳市,开发区,颗粒物(PM10),79,108,108,47,55,69,69,52,52,22,26,9,6,0.4,0.4
2025-11-24T1200,2875A,115.784,32.8892,阜阳市,阜阳职业技术学院,颗粒物(PM10),68,86,77,45,53,71,71,54,54,18,19,12,8,0.5,0.5
2025-11-24T1200,3468A,115.7901,32.8613,阜阳市,市规划展馆,颗粒物(PM10),77,104,93,40,64,69,69,51,51,16,17,8,6,0.5,0.5
2025-11-24T1200,3469A,115.836,32.9183,阜阳市,枣园社区,颗粒物(PM10),75,99,85,43,55,70,70,56,55,23,23,9,6,0.3,0.3
2025-11-24T1200,2669A,102.9099,34.9841,甘南藏族自治州,州政府,,31,29,102,12,26,98,98,93,93,2,20,2,6,0.2,0.4
2025-11-24T1200,3380A,102.8914,34.9617,甘南藏族自治州,甘肃民族师范学院,,31,31,114,3,17,88,88,88,88,2,19,3,5,0.4,0.8
2025-11-24T1200,2570A,101.9603,30.0475,甘孜藏族自治州,水桥子,,31,31,9,3,5,91,91,59,59,7,16,8,8,0.4,0.4
2025-11-24T1200,3065A,101.9533,29.9972,甘孜藏族自治州,州环保局,,45,45,11,3,5,95,95,82,82,3,11,5,5,0.3,0.4
2025-11-24T1200,3414A,115.8347,28.932,赣江新区,桑海产业园,,31,31,64,20,36,49,49,23,23,20,40,8,12,0.6,0.8
2025-11-24T1200,2362A,114.9017,25.9149,赣州市,通天岩,颗粒物(PM10),54,58,36,24,21,118,118,65,65,14,9,78,66,1.1,1.1
2025-11-24T1200,2363A,114.9367,25.8664,赣州市,地委,,45,45,52,31,32,112,112,46,46,15,27,11,8,0.8,0.8
2025-11-24T1200,2364A,114.9461,25.8481,赣州市,气象台,,49,49,60,31,29,107,107,43,43,19,42,12,9,0.6,0.7
2025-11-24T1200,2365A,114.9322,25.8333,赣州市,市图书馆,细颗粒物(PM2.5),55,50,52,39,31,114,114,39,39,14,34,10,7,0.7,0.8
2025-11-24T1200,2366A,114.8905,25.8471,赣州市,华坚鞋城,颗粒物(PM10),57,63,72,32,37,99,99,37,37,21,45,10,8,0.5,0.6
2025-11-24T1200,3109A,115.0093,25.8613,赣州市,赣县区卫计委,,50,50,50,31,42,107,107,35,35,15,34,9,8,0.5,0.6
2025-11-24T1200,2683A,106.2319,36.1417,固原市,马园,,,,,,,,,,,,,,,,
2025-11-24T1200,2684A,106.2792,36.0022,固原市,监测站,,,,181,22,32,,,75,75,,12,,6,,0.4
2025-11-24T1200,2685A,106.2375,36.0211,固原市,新区,颗粒物(PM10),57,64,174,13,29,79,79,78,78,2,12,4,5,0.2,0.2
2025-11-24T1200,3522A,106.2177,35.9959,固原市,原州区十五小,颗粒物(PM10),73,95,133,16,28,76,76,73,73,3,7,7,8,0.2,0.3
2025-11-24T1200,2543A,106.6308,30.5278,广安市,小平旧居,,,,,,,,,,,,,,,,
2025-11-24T1200,2544A,106.6303,30.4576,广安市,市委,细颗粒物(PM2.5),75,78,73,55,56,39,39,15,15,19,29,3,3,0.6,0.6
2025-11-24T1200,2545A,106.6271,30.4663,广安市,友谊中学,细颗粒物(PM2.5),73,76,73,53,57,44,44,19,19,16,22,7,6,0.8,0.8
2025-11-24T1200,2547A,106.6388,30.4551,广安市,广电花园,细颗粒物(PM2.5),80,59,52,59,62,36,36,16,16,16,22,2,2,0.7,0.7
2025-11-24T1200,2902A,106.6351,30.4865,广安市,北辰小学,细颗粒物(PM2.5),74,77,67,54,59,42,42,17,17,14,18,9,10,0.7,0.7
2025-11-24T1200,2523A,105.8945,32.4535,广元市,黑石坡,,,,,,,,,,,,,,,,
2025-11-24T1200,2524A,105.821,32.4444,广元市,老城,颗粒物(PM10),51,51,52,10,26,77,77,46,46,7,38,2,8,0.3,0.7
2025-11-24T1200,2526A,105.8628,32.4287,广元市,监测站,颗粒物(PM10),51,52,43,10,27,77,77,42,42,5,28,3,6,0.4,0.7
2025-11-24T1200,3617A,105.8047,32.4166,广元市,经开区,,45,45,53,9,27,72,72,40,40,5,35,2,5,0.3,0.6
2025-11-24T1200,1345A,113.2347,23.1423,广州市,广雅中学,颗粒物(PM10),57,64,65,36,35,81,81,40,40,48,69,13,11,1.0,0.9
2025-11-24T1200,1346A,113.2612,23.105,广州市,市五中,颗粒物(PM10),53,56,67,34,41,110,110,43,43,31,75,14,13,0.7,0.8
2025-11-24T1200,1348A,113.3478,23.0916,广州市,广东商学院,,43,43,53,28,36,99,99,70,70,21,36,10,11,0.3,0.4
2025-11-24T1200,1349A,113.4332,23.1047,广州市,市八十六中,,36,36,47,23,32,84,84,47,47,21,48,10,10,0.2,0.3
2025-11-24T1200,1350A,113.3505,22.9483,广州市,番禺中学,,48,48,58,26,39,95,95,50,50,21,51,7,8,0.4,0.5
2025-11-24T1200,1351A,113.2146,23.3916,广州市,花都师范,,49,49,44,32,27,113,113,82,82,17,27,9,10,0.3,0.4
2025-11-24T1200,1352A,113.2597,23.1331,广州市,市监测站,颗粒物(PM10),56,62,69,33,39,100,100,37,37,32,63,13,11,0.4,0.5
2025-11-24T1200,1353A,113.5618,23.312,广州市,九龙镇镇龙,,48,48,69,26,39,87,87,53,53,17,36,9,10,0.4,0.5
2025-11-24T1200,1354A,113.2765,23.1544,广州市,麓湖,,50,50,52,35,34,96,96,36,36,26,51,13,10,0.6,0.6
2025-11-24T1200,1355A,113.443,23.3035,广州市,帽峰山森林公园,,,,,,,,,,,,,,,,
2025-11-24T1200,2846A,113.3221,23.1322,广州市,体育西,,44,44,54,28,35,102,102,67,67,20,39,13,15,0.6,0.8
2025-11-24T1200,3298A,113.5717,23.5491,广州市,从化街口,,44,44,58,30,38,109,109,53,53,16,39,12,16,0.6,0.8
2025-11-24T1200,3299A,113.3472,23.3692,广州市,白云竹料,,37,37,60,24,37,118,118,58,58,13,36,9,10,0.6,0.8
2025-11-24T1200,3300A,113.2981,23.237,广州市,白云嘉禾,颗粒物(PM10),55,59,68,35,38,111,111,46,46,30,66,14,12,0.7,0.8
2025-11-24T1200,3301A,113.4256,23.1716,广州市,黄埔科学城,,40,40,46,27,30,94,94,67,67,18,23,10,10,0.5,0.6
2025-11-24T1200,3302A,113.3942,23.0483,广州市,番禺大学城,,41,41,51,26,33,100,100,61,61,20,39,14,15,0.4,0.5
2025-11-24T1200,3303A,113.4922,22.8168,广州市,南沙黄阁,颗粒物(PM10),56,61,67,34,36,125,125,49,49,41,63,20,12,0.7,0.9
2025-11-24T1200,3304A,113.5342,22.7896,广州市,南沙街,"颗粒物(PM10),细颗粒物(PM2.5)",54,57,68,38,37,112,112,44,44,33,55,13,12,0.6,0.6
2025-11-24T1200,3443A,113.2902,23.5544,广州市,花都梯面,,40,40,39,27,27,105,105,70,70,12,22,11,10,0.5,0.6
2025-11-24T1200,3445A,113.7858,23.7478,广州市,从化良口,,32,28,25,22,19,93,93,70,70,10,15,8,8,0.7,0.6
2025-11-24T1200,3446A,113.8051,23.2614,广州市,增城荔城,,35,31,41,24,26,103,103,76,76,10,15,10,10,0.5,0.6
2025-11-24T1200,2505A,109.568,23.1478,贵港市,德智高中,,,,,,,,,,,,,,,,
2025-11-24T1200,2506A,109.6047,23.0666,贵港市,江南子站,,46,46,79,26,50,100,100,56,56,12,32,9,8,0.6,0.7
2025-11-24T1200,2508A,109.5669,23.1065,贵港市,荷城子站,,44,44,48,24,27,90,90,71,69,14,18,9,7,0.7,0.6
2025-11-24T1200,3405A,109.5886,23.1172,贵港市,新世纪学校,,46,46,48,27,29,99,99,82,76,9,10,9,8,0.5,0.3
2025-11-24T1200,4260A,109.5933,23.0951,贵港市,中山路155-3号,,,,63,,40,97,97,61,61,,24,9,7,0.4,0.5
2025-11-24T1200,1439A,106.6899,26.5998,贵阳市,马鞍山,,31,31,56,17,40,78,78,30,30,12,17,8,6,0.3,0.5
2025-11-24T1200,1441A,106.6243,26.6266,贵阳市,鉴湖路,,44,44,63,12,34,82,82,49,49,13,19,4,5,0.4,0.5
2025-11-24T1200,1442A,106.7487,26.6343,贵阳市,燕子冲,,39,31,55,27,50,88,88,39,39,11,18,10,9,0.3,0.5
2025-11-24T1200,1443A,106.6555,26.4365,贵阳市,碧云窝,,48,48,69,22,41,69,69,45,45,13,19,7,9,0.2,0.4
2025-11-24T1200,1445A,106.7109,26.6027,贵阳市,红边门,细颗粒物(PM2.5),55,,60,39,46,82,82,45,45,13,20,9,12,0.5,0.8
2025-11-24T1200,1446A,106.7164,26.5699,贵阳市,新华路,,46,46,67,22,45,84,84,49,49,19,22,34,16,0.3,0.3
2025-11-24T1200,1447A,106.674,26.5424,贵阳市,太慈桥,,36,36,54,17,41,77,77,42,42,20,24,9,7,0.2,0.3
2025-11-24T1200,1552A,106.805,26.3003,贵阳市,桐木岭,颗粒物(PM10),51,51,66,31,45,81,81,72,72,13,11,37,27,0.8,1
2025-11-24T1200,4230A,106.6882,26.5695,贵阳市,花果园大街66号,,39,39,56,25,47,75,75,46,46,15,24,7,7,0.2,0.4
2025-11-24T1200,4231A,106.6873,26.5169,贵阳市,漓江路57号,,35,29,48,24,43,69,69,41,41,20,23,14,15,0.4,0.6
2025-11-24T1200,1862A,110.4144,25.3167,桂林市,电子科大尧山校区,,,,,,,,,,,,,,,,
2025-11-24T1200,1864A,110.3089,25.2708,桂林市,龙隐路小学,细颗粒物(PM2.5),64,61,54,46,46,119,119,62,62,15,25,13,13,0.6,0.6
2025-11-24T1200,1865A,110.2869,25.2178,桂林市,八中,细颗粒物(PM2.5),63,59,67,45,49,113,113,39,39,17,40,15,12,0.3,0.4
2025-11-24T1200,3531A,110.296,25.1253,桂林市,旅游学院,颗粒物(PM10),53,56,61,36,39,129,129,43,43,14,35,12,8,0.3,0.3
2025-11-24T1200,4222A,110.1835,25.2444,桂林市,环湖路276号,细颗粒物(PM2.5),62,58,61,44,45,70,70,22,22,27,34,28,26,0.5,0.6
2025-11-24T1200,4301A,110.2803,25.2773,桂林市,信义路13号,颗粒物(PM10),56,62,59,39,37,115,115,67,62,15,28,15,15,0.6,0.6
2025-11-24T1200,2674A,100.2561,34.4714,果洛藏族自治州,玛沁县大武镇,颗粒物(PM10),59,67,66,11,18,91,91,96,93,2,2,6,11,0.4,0.3
2025-11-24T1200,1129A,126.5422,45.755,哈尔滨市,岭北,,,,,,,,,,,,,,,,
2025-11-24T1200,1130A,126.561,45.8167,哈尔滨市,松北商大,细颗粒物(PM2.5),129,119,163,98,136,30,30,27,23,31,38,14,9,1.1,0.9
2025-11-24T1200,1131A,126.979,45.5419,哈尔滨市,阿城会宁,细颗粒物(PM2.5),158,163,254,120,233,35,35,21,21,34,52,17,16,1.5,1.5
2025-11-24T1200,1132A,126.599,45.7222,哈尔滨市,南岗学府路,细颗粒物(PM2.5),133,142,154,101,112,,,34,27,30,28,28,13,1.0,0.9
2025-11-24T1200,1133A,126.689,45.7733,哈尔滨市,太平宏伟公园,细颗粒物(PM2.5),135,115,148,103,137,32,32,39,35,28,27,10,11,1.0,0.9
2025-11-24T1200,1134A,126.635,45.7667,哈尔滨市,道外承德广场,细颗粒物(PM2.5),127,141,190,96,137,33,33,43,35,29,28,12,11,0.5,0.6
2025-11-24T1200,1135A,126.685,45.7319,哈尔滨市,香坊红旗大街,细颗粒物(PM2.5),139,151,153,106,121,35,35,46,37,36,28,16,16,0.9,0.9
2025-11-24T1200,1136A,126.6411,45.7258,哈尔滨市,动力和平路,细颗粒物(PM2.5),142,124,141,108,134,29,29,44,34,35,28,12,12,0.9,0.8
2025-11-24T1200,1137A,126.593,45.7478,哈尔滨市,道里建国路,细颗粒物(PM2.5),156,,149,119,144,,,34,28,33,35,66,27,0.5,0.5
2025-11-24T1200,1138A,126.615,45.61,哈尔滨市,平房东轻厂,细颗粒物(PM2.5),128,138,183,97,162,15,15,14,8,50,56,26,17,0.9,1.1
2025-11-24T1200,1139A,126.595,45.9855,哈尔滨市,呼兰师专,细颗粒物(PM2.5),125,,154,95,138,31,31,28,26,22,30,11,12,0.7,0.9
2025-11-24T1200,1140A,126.6206,45.6842,哈尔滨市,省农科院,细颗粒物(PM2.5),143,134,150,109,125,37,37,47,37,40,39,21,14,0.9,0.8
2025-11-24T1200,2688A,93.5128,42.8172,哈密市,地区监测站,颗粒物(PM10),55,60,91,28,23,60,60,60,57,17,11,6,5,0.2,0.1
2025-11-24T1200,2689A,93.4961,42.8328,哈密市,哈密师范学校,,38,38,53,24,18,51,51,55,44,26,17,13,11,0.3,0.3
2025-11-24T1200,2671A,100.9048,36.9639,海北藏族自治州,海晏县西海镇,,30,30,49,15,19,92,92,86,84,1,1,10,9,0.4,0.3
2025-11-24T1200,3867A,102.0738,36.5056,海东市,平安区公安北苑,颗粒物(PM10),51,51,145,34,35,53,53,59,46,18,10,9,9,0.7,0.6
2025-11-24T1200,1409A,110.576,19.9507,海口市,东寨港,,,,,,,,,,,,,,,,
2025-11-24T1200,1410A,110.3232,20.0574,海口市,海南大学,,50,50,54,34,33,127,127,146,129,11,12,15,8,0.5,0.4
2025-11-24T1200,1411A,110.283,20.0053,海口市,秀英海南医院,,50,49,52,35,33,123,123,126,117,14,14,14,9,0.5,0.4
2025-11-24T1200,1412A,110.338,19.9969,海口市,海南师范大学,细颗粒物(PM2.5),55,49,50,39,35,133,133,135,126,12,13,13,7,0.6,0.5
2025-11-24T1200,1413A,110.33,20.0356,海口市,龙华路环保局宿舍,细颗粒物(PM2.5),52,47,50,36,34,127,127,137,126,15,14,16,9,0.8,0.7
2025-11-24T1200,3539A,110.5111,19.9736,海口市,桂林洋子站,,45,44,55,31,34,128,128,138,131,11,13,14,8,0.5,0.5
2025-11-24T1200,2673A,100.6188,36.2866,海南藏族自治州,共和县恰卜恰镇,,41,41,149,25,46,110,110,115,105,2,2,11,7,0.3,0.4
2025-11-24T1200,2676A,97.3731,37.3753,海西蒙古族藏族自治州,德令哈市,,45,45,69,17,15,90,90,78,78,4,5,12,13,0,0.4
2025-11-24T1200,1048A,114.5302,36.6116,邯郸市,东污水处理厂,颗粒物(PM10),127,203,98,58,44,74,74,61,61,8,24,6,15,0.4,0.9
2025-11-24T1200,1049A,114.4918,36.5713,邯郸市,矿院,颗粒物(PM10),119,188,85,63,43,76,76,66,66,6,21,5,11,0.4,0.7
2025-11-24T1200,1050A,114.484,36.6133,邯郸市,丛台公园,颗粒物(PM10),113,175,89,51,39,75,75,62,62,8,24,4,14,0.3,0.8
2025-11-24T1200,3458A,114.7895,36.5593,邯郸市,香泉濮院小区,颗粒物(PM10),169,287,116,55,42,66,66,45,45,11,32,7,16,0.4,1
2025-11-24T1200,3579A,114.50634,36.77178,邯郸市,永年区实验高中,颗粒物(PM10),149,247,100,31,29,75,75,54,54,4,29,3,29,0.2,1.3
2025-11-24T1200,3580A,114.20016,36.44293,邯郸市,峰峰矿区临水派出所,颗粒物(PM10),133,215,77,66,41,84,84,80,79,10,16,5,10,0.3,0.4
2025-11-24T1200,2634A,106.9893,33.1842,汉中市,汉川机床厂子校,,,,,,,,,,,,,,,,
2025-11-24T1200,2635A,107.0154,33.0706,汉中市,市监测站,,46,46,69,10,40,68,68,39,39,10,31,4,8,0.3,1
2025-11-24T1200,2636A,107.0089,33.1138,汉中市,鑫源开发区,,48,48,62,7,34,77,77,48,48,6,30,4,8,0.4,0.9
2025-11-24T1200,2637A,107.007,33.0323,汉中市,南郑大河坎水厂,颗粒物(PM10),54,58,68,15,43,71,71,38,38,8,23,8,10,0.3,0.9
2025-11-24T1200,1223A,120.2072,30.2111,杭州市,滨江,颗粒物(PM10),69,88,86,45,46,24,24,16,16,70,66,9,8,0.9,0.8
2025-11-24T1200,1224A,120.0633,30.2747,杭州市,西溪,细颗粒物(PM2.5),97,83,59,72,40,25,25,6,6,68,42,10,8,0.5,0.5
2025-11-24T1200,1226A,120.3417,30.3150,杭州市,下沙,,,101,91,66,60,50,50,15,15,,86,9,8,,0.7
2025-11-24T1200,1227A,120.1269,30.2456,杭州市,卧龙桥,细颗粒物(PM2.5),74,73,48,54,36,22,22,10,10,53,35,8,6,0.5,0.4
2025-11-24T1200,1228A,120.1903,30.2692,杭州市,浙江农大,细颗粒物(PM2.5),88,99,99,65,58,31,31,11,11,62,69,9,10,0.9,1
2025-11-24T1200,1230A,120.1197,30.3119,杭州市,和睦小学,细颗粒物(PM2.5),80,96,84,59,54,24,24,11,11,69,65,11,10,1.0,1
2025-11-24T1200,1231A,120.3019,30.4183,杭州市,临平镇,颗粒物(PM10),69,88,104,42,58,56,56,14,14,45,79,8,8,0.6,0.8
2025-11-24T1200,1232A,120.2753,30.1839,杭州市,城厢镇,细颗粒物(PM2.5),79,88,87,58,54,43,43,24,24,57,67,8,8,0.5,0.5
2025-11-24T1200,1233A,120.0883,30.1808,杭州市,云栖,细颗粒物(PM2.5),153,120,90,117,56,25,25,9,8,68,41,8,5,0.7,0.5
2025-11-24T1200,3557A,119.9464,30.0494,杭州市,镇二中,细颗粒物(PM2.5),85,71,61,63,51,33,33,14,14,54,54,12,7,1.1,1
2025-11-24T1200,3558A,119.7183,30.2367,杭州市,市府大楼,细颗粒物(PM2.5),57,56,71,40,44,40,40,24,24,38,40,11,11,1.0,1
2025-11-24T1200,3656A,120.1556,30.2864,杭州市,消防大队,细颗粒物(PM2.5),78,84,80,57,54,42,42,16,16,54,62,10,10,0.6,0.7
2025-11-24T1200,1270A,117.1959,31.7848,合肥市,明珠广场,颗粒物(PM10),60,70,94,22,60,77,77,27,27,21,70,9,9,0.5,0.8
2025-11-24T1200,1271A,117.3072,31.8764,合肥市,三里街,颗粒物(PM10),52,53,105,24,66,73,73,18,18,21,75,6,8,0.6,1.1
2025-11-24T1200,1272A,117.2588,31.8707,合肥市,琥珀山庄,颗粒物(PM10),56,61,91,32,61,75,75,24,24,16,54,7,7,0.4,0.9
2025-11-24T1200,1273A,117.1604,31.9052,合肥市,董铺水库,,,,,,,,,,,,,,,,
2025-11-24T1200,1274A,117.25,31.8571,合肥市,长江中路,颗粒物(PM10),56,61,93,26,63,80,80,27,27,12,53,8,8,0.4,0.9
2025-11-24T1200,1275A,117.266,31.9436,合肥市,庐阳区,,,56,85,,53,80,80,47,47,18,56,6,7,,0.8
2025-11-24T1200,1276A,117.3453,31.8616,合肥市,瑶海区,颗粒物(PM10),51,51,111,22,72,76,76,17,17,21,81,6,7,0.3,0.7
2025-11-24T1200,1277A,117.3027,31.7964,合肥市,包河区,颗粒物(PM10),53,56,94,24,66,69,69,20,20,26,77,8,9,0.6,0.8
2025-11-24T1200,1278A,117.2776,31.7385,合肥市,滨湖新区,颗粒物(PM10),60,70,96,27,67,80,80,23,23,22,72,6,8,0.6,0.8
2025-11-24T1200,1279A,117.1318,31.8403,合肥市,高新区,颗粒物(PM10),54,58,71,23,46,88,88,59,59,18,46,6,6,0.6,0.8
2025-11-24T1200,3464A,117.3803,31.9147,合肥市,高教基地,颗粒物(PM10),60,70,102,26,72,83,83,24,24,28,50,8,7,0.4,0.7
2025-11-24T1200,3614A,79.924,37.0877,和田地区,地区环保局,颗粒物(PM10),106,161,157,60,53,68,68,63,63,21,28,13,13,1.4,1.4
2025-11-24T1200,3615A,79.9131,37.113,和田地区,市环保局,颗粒物(PM10),118,185,164,50,61,73,73,62,62,26,43,6,7,1.3,1.8
2025-11-24T1200,2516A,108.2011,24.715,河池市,东仁乐园,,,,,,,,,,,,,,,,
2025-11-24T1200,2517A,108.0497,24.6947,河池市,市环保站,颗粒物(PM10),52,53,41,35,30,56,56,20,20,10,24,5,4,0.6,0.6
2025-11-24T1200,2518A,108.0983,24.6989,河池市,市疾控中心,细颗粒物(PM2.5),62,62,49,44,35,47,47,17,17,17,31,6,6,0.6,0.6
2025-11-24T1200,1696A,114.6778,23.7569,河源市,源西,,,,,,,,,,,,,,,,
2025-11-24T1200,1697A,114.6944,23.7586,河源市,东埔,,43,43,40,30,28,102,102,74,74,16,19,10,9,0.4,0.4
2025-11-24T1200,1698A,114.6892,23.7233,河源市,老城,,,,44,,27,100,100,72,72,12,19,,9,0.5,0.6
2025-11-24T1200,1718A,115.4208,35.2464,菏泽市,气象局,颗粒物(PM10),104,157,161,45,66,67,67,40,40,24,48,6,8,0.6,0.6
2025-11-24T1200,3374A,115.5564,35.0891,菏泽市,定陶老年大学,颗粒物(PM10),90,129,140,39,59,62,62,27,27,31,50,6,6,0.3,0.3
2025-11-24T1200,4184A,115.4797,35.24401,菏泽市,永昌路1号,颗粒物(PM10),100,149,152,46,63,51,51,35,35,32,50,8,8,0.5,0.6
2025-11-24T1200,4193A,115.4715,35.2800,菏泽市,长城路999号,颗粒物(PM10),108,166,145,36,53,59,59,34,34,33,43,14,11,0.8,0.8
2025-11-24T1200,2514A,111.5264,24.4172,贺州市,环保小区,细颗粒物(PM2.5),65,,56,47,45,118,118,57,57,14,22,10,7,0.6,0.7
2025-11-24T1200,2515A,111.5608,24.4078,贺州市,政协大楼,细颗粒物(PM2.5),65,52,58,47,39,107,107,42,42,13,30,11,8,0.9,1
2025-11-24T1200,3534A,111.4744,24.4553,贺州市,西湾,细颗粒物(PM2.5),54,56,69,38,52,113,113,39,39,12,26,11,7,0.6,1.1
2025-11-24T1200,2385A,114.17,35.9019,鹤壁市,市监测站,颗粒物(PM10),107,164,80,23,28,77,77,65,65,6,15,4,6,0.4,0.4
2025-11-24T1200,2386A,114.2956,35.7511,鹤壁市,市交警支队,颗粒物(PM10),107,163,95,26,29,75,75,56,56,10,27,1,5,0.4,0.6
2025-11-24T1200,2387A,114.2878,35.7306,鹤壁市,迎宾馆,颗粒物(PM10),148,246,110,25,32,77,77,62,62,7,21,2,6,0.5,0.6
2025-11-24T1200,3474A,114.2617,35.6822,鹤壁市,大新区,颗粒物(PM10),127,204,109,33,28,81,81,65,65,6,24,3,5,0.3,0.7
2025-11-24T1200,3596A,114.1572,35.9603,鹤壁市,南山宾馆,颗粒物(PM10),135,220,96,34,27,80,80,81,77,5,10,3,5,0.4,0.4
2025-11-24T1200,2244A,130.2537,47.3416,鹤岗市,哈啤分公司,,21,14,64,7,58,67,67,74,69,4,12,12,14,0.4,0.7
2025-11-24T1200,2245A,130.2684,47.3086,鹤岗市,斯达机电,,21,15,74,14,53,65,65,72,66,6,15,11,14,0.7,0.9
2025-11-24T1200,2246A,130.3114,47.3388,鹤岗市,东山纸板厂,,23,21,101,16,63,69,69,72,69,5,26,14,18,0.8,1.3
2025-11-24T1200,2247A,130.1097,47.3382,鹤岗市,五号水库,,,,,,,,,,,,,,,,
2025-11-24T1200,2263A,127.4833,50.2524,黑河市,交通局,,18,16,20,12,19,57,57,57,52,13,12,4,4,0.5,0.5
2025-11-24T1200,2264A,127.5144,50.2341,黑河市,环保局,,18,18,26,11,19,47,47,50,43,15,18,9,7,0.3,0.4
2025-11-24T1200,2265A,127.5291,50.2472,黑河市,大黑河岛,,,,,,,,,,,,,,,,
2025-11-24T1200,1074A,115.6838,37.7541,衡水市,电机北厂,颗粒物(PM10),500,623,184,109,59,54,54,41,41,10,36,3,10,0.2,0.5
2025-11-24T1200,1075A,115.6303,37.7316,衡水市,市监测站,颗粒物(PM10),285,409,153,70,52,60,60,43,43,12,43,8,13,0.3,0.5
2025-11-24T1200,3188A,115.6683,37.7217,衡水市,市城管局,颗粒物(PM10),469,569,195,81,53,59,59,45,45,13,44,4,9,0.3,0.6
2025-11-24T1200,3459A,115.5989,37.5491,衡水市,地表水厂,颗粒物(PM10),372,477,169,70,54,68,68,52,52,9,44,5,12,0.3,0.4
2025-11-24T1200,2456A,112.5003,26.9167,衡阳市,原169医院,,,,,,,,,,,,,,,,
2025-11-24T1200,2457A,112.6194,26.9258,衡阳市,衡阳化工总厂,,,79,65,48,52,,,37,32,25,28,18,17,1.0,0.9
2025-11-24T1200,2458A,112.6211,26.8956,衡阳市,珠晖区环保局,细颗粒物(PM2.5),62,56,64,44,53,79,79,32,32,19,40,8,11,1.0,1.1
2025-11-24T1200,2459A,112.6197,26.8733,衡阳市,市委党校,细颗粒物(PM2.5),57,60,64,40,52,82,82,41,41,17,24,16,20,0.9,1.1
2025-11-24T1200,2460A,112.6006,26.8919,衡阳市,市监测站,细颗粒物(PM2.5),65,74,87,47,60,75,75,37,37,26,34,10,13,1.0,1.1
2025-11-24T1200,2461A,112.5664,26.9056,衡阳市,真空机电公司,颗粒物(PM10),65,80,74,42,52,76,76,40,40,19,29,20,16,1.0,1
2025-11-24T1200,3399A,112.6703,26.882,衡阳市,师范学院,,,60,69,37,46,86,86,49,49,21,26,,24,0.9,1
2025-11-24T1200,2608A,103.3772,23.3993,红河哈尼族彝族自治州,污水处理厂,,45,41,34,31,27,41,41,37,32,14,12,6,6,0.4,0.3
2025-11-24T1200,2609A,103.3861,23.35,红河哈尼族彝族自治州,监测站,,38,38,33,25,23,44,44,48,40,9,7,7,8,0.3,0.3
2025-11-24T1200,3038A,103.3758,23.368,红河哈尼族彝族自治州,州图书馆,,38,38,23,23,16,38,38,46,40,13,7,7,5,0.4,0.4
2025-11-24T1200,1090A,111.6507,40.7517,呼和浩特市,呼市一监,,,31,143,17,37,,,61,60,2,14,6,12,0.4,0.6
2025-11-24T1200,1091A,111.6572,40.8033,呼和浩特市,小召,,,,141,,36,,,65,64,,27,,10,,0.6
2025-11-24T1200,1094A,111.7516,40.8369,呼和浩特市,如意水处理厂,,21,11,104,3,31,65,65,61,60,4,24,6,9,0.4,0.6
2025-11-24T1200,1095A,111.7276,40.8062,呼和浩特市,二十九中,,21,17,134,3,34,67,67,64,62,4,25,8,12,0.3,0.5
2025-11-24T1200,1096A,111.5512,40.7866,呼和浩特市,工大金川校区,,40,40,129,3,30,71,71,65,65,4,22,5,10,0.2,0.4
2025-11-24T1200,1097A,111.717,40.7612,呼和浩特市,化肥厂生活区,,,,126,,48,68,68,62,62,7,33,,11,0.3,0.6
2025-11-24T1200,3698A,111.5968,40.8178,呼和浩特市,红旗小学,,22,17,116,3,29,70,70,65,65,15,34,7,12,0.1,0.3
2025-11-24T1200,3699A,111.6518,40.8389,呼和浩特市,海东办,,,,126,,33,67,67,71,68,,23,4,7,,0.4
2025-11-24T1200,3061A,119.7512,49.1577,呼伦贝尔市,国华电力东,,15,10,24,9,18,48,48,42,39,7,9,9,8,0.3,0.4
2025-11-24T1200,4279A,119.7569,49.2222,呼伦贝尔市,伊敏大街东7号,,28,28,23,17,18,48,48,49,42,4,6,7,6,0.4,0.5
2025-11-24T1200,1250A,120.0751,30.8669,湖州市,城西水厂,细颗粒物(PM2.5),70,76,71,51,48,80,80,26,26,40,70,12,11,0.6,0.6
2025-11-24T1200,2873A,120.0830,30.8929,湖州市,仁皇山新区,细颗粒物(PM2.5),77,77,72,56,52,102,102,57,57,26,61,12,11,0.6,0.6
2025-11-24T1200,2907A,120.1844,30.8596,湖州市,吴兴区站,细颗粒物(PM2.5),69,69,71,50,48,101,101,44,44,15,49,10,9,1.1,1.1
2025-11-24T1200,3562A,120.4148,30.8538,湖州市,南浔区站,细颗粒物(PM2.5),74,68,86,54,66,84,84,28,28,38,77,10,9,0.8,0.8
2025-11-24T1200,1607A,120.9049,40.7211,葫芦岛市,龙港区,颗粒物(PM10),77,103,168,35,117,41,41,18,18,34,69,24,23,0.7,2.3
2025-11-24T1200,1608A,120.8392,40.7514,葫芦岛市,化工街,颗粒物(PM10),68,85,188,31,102,40,40,16,16,23,68,22,41,0.4,1.5
2025-11-24T1200,1609A,120.8341,40.7073,葫芦岛市,新区,颗粒物(PM10),55,59,135,22,93,42,42,15,15,26,75,20,20,0.7,1.9
2025-11-24T1200,1610A,120.8695,40.7677,葫芦岛市,东城区,,,94,160,21,99,46,46,13,13,22,68,17,33,,1.8
2025-11-24T1200,2482A,109.5981,27.5721,怀化市,林科所,,,,,,,,,,,,,,,,
2025-11-24T1200,2483A,109.9453,27.5444,怀化市,河西地税局,,38,37,32,26,23,58,58,16,16,10,15,6,5,0.3,0.3
2025-11-24T1200,2484A,109.9781,27.5342,怀化市,市四医院,,43,43,39,30,24,64,64,17,17,11,17,10,9,0.5,0.4
2025-11-24T1200,2485A,109.9972,27.5578,怀化市,监测楼,,42,42,37,27,23,66,66,18,18,12,18,4,3,0.1,0.1
2025-11-24T1200,2486A,110.0394,27.583,怀化市,市委党校,,39,39,41,24,28,72,72,21,21,8,18,11,12,0.3,0.3
2025-11-24T1200,1210A,119.036,33.5981,淮安市,钵池山,细颗粒物(PM2.5),100,110,107,75,83,69,69,46,46,22,30,11,14,0.7,1
2025-11-24T1200,1211A,119.007,33.575,淮安市,北京南路,细颗粒物(PM2.5),97,110,111,72,82,62,62,28,28,24,44,10,16,0.6,1.2
2025-11-24T1200,1212A,118.989,33.6067,淮安市,市监测站,细颗粒物(PM2.5),94,117,106,70,76,69,69,41,41,26,36,11,10,0.7,0.7
2025-11-24T1200,1213A,119.135,33.5039,淮安市,楚州区监测站,细颗粒物(PM2.5),94,103,108,70,75,69,69,27,27,22,50,11,10,0.7,0.7
2025-11-24T1200,3426A,118.8755,33.2894,淮安市,新华书店,细颗粒物(PM2.5),108,110,101,81,75,62,62,46,46,26,29,12,11,0.7,0.7
2025-11-24T1200,4206A,119.0288,33.6319,淮安市,承德北路606号,,,127,115,73,80,,,39,,,36,10,10,0.6,0.7
2025-11-24T1200,2282A,116.8004,33.975,淮北市,监测站,颗粒物(PM10),106,161,135,63,69,62,62,29,29,39,49,11,10,0.5,0.5
2025-11-24T1200,2283A,116.8091,33.9007,淮北市,烈山区政府,颗粒物(PM10),93,136,145,64,87,54,54,18,18,44,68,16,12,0.6,0.6
2025-11-24T1200,3330A,116.8873,33.9836,淮北市,杜集区检察院,颗粒物(PM10),102,154,140,67,86,65,65,27,27,35,44,10,9,0.5,0.6
2025-11-24T1200,4017A,116.7923,33.9535,淮北市,市博物馆,颗粒物(PM10),106,161,134,61,70,62,62,26,26,36,44,15,13,0.4,0.3
2025-11-24T1200,2277A,116.8305,32.7727,淮南市,潘集区政府,细颗粒物(PM2.5),92,127,113,68,74,67,67,56,53,22,26,9,8,0.7,0.7
2025-11-24T1200,2279A,116.8569,32.5951,淮南市,谢家集区政府,颗粒物(PM10),75,99,85,53,54,71,71,58,55,25,33,9,10,0.6,0.7
2025-11-24T1200,2280A,116.8281,32.633,淮南市,八公山区政府,颗粒物(PM10),74,97,76,51,49,67,67,76,69,19,16,10,8,0.5,0.5
2025-11-24T1200,2281A,116.6325,32.6201,淮南市,焦岗湖风景区管理处,,,,,,,,,,,,,,,,
2025-11-24T1200,2894A,117.0566,32.6531,淮南市,经济技术开发区消防队,细颗粒物(PM2.5),84,108,99,62,63,69,69,56,51,31,35,17,14,0.4,0.5
2025-11-24T1200,3329A,117.0108,32.5893,淮南市,山南新区,细颗粒物(PM2.5),84,102,103,62,72,72,72,60,55,31,38,7,6,0.5,0.6
2025-11-24T1200,4209A,117.0031,32.6445,淮南市,国庆中路369号,颗粒物(PM10),68,85,90,15,57,66,66,48,46,25,36,7,6,0.5,0.6
2025-11-24T1200,2446A,114.9028,30.4742,黄冈市,职工中心,细颗粒物(PM2.5),93,95,99,69,74,71,71,28,28,32,39,8,8,0.7,0.9
2025-11-24T1200,2929A,114.8858,30.4519,黄冈市,红卫路,颗粒物(PM10),65,79,88,45,80,74,74,28,28,21,36,8,9,0.5,0.9
2025-11-24T1200,3398A,114.9136,30.4445,黄冈市,市林业局,细颗粒物(PM2.5),98,,108,73,83,76,76,26,26,27,38,3,5,0.8,1.1
2025-11-24T1200,2672A,102.0199,35.5102,黄南藏族自治州,同仁县隆务镇,,49,49,117,14,25,100,100,96,96,1,3,8,10,0.4,0.4
2025-11-24T1200,2295A,118.2903,29.6963,黄山市,延安路89号,,46,46,42,26,28,47,47,25,25,19,18,4,4,0.5,0.5
2025-11-24T1200,2297A,118.1371,30.2756,黄山市,黄山区政府5号楼,,,40,45,38,36,,,16,16,9,10,6,6,0.7,0.7
2025-11-24T1200,4210A,118.3354,29.7203,黄山市,滨江东路7-2号,颗粒物(PM10),66,81,64,47,50,31,31,17,17,30,27,5,4,0.4,0.5
2025-11-24T1200,2423A,115.0601,30.2313,黄石市,沈家营,颗粒物(PM10),68,86,100,23,59,80,80,35,35,12,38,6,11,0.8,1.3
2025-11-24T1200,2426A,114.8988,30.2019,黄石市,铁山,,,,78,,45,,,23,22,20,40,7,10,0.6,0.4
2025-11-24T1200,2427A,115.0307,30.2092,黄石市,团城山,颗粒物(PM10),64,78,91,35,63,76,76,32,32,22,38,6,10,0.5,0.9
2025-11-24T1200,3149A,115.0235,30.1578,黄石市,笔架山北路,颗粒物(PM10),76,102,121,44,62,68,68,43,43,24,33,17,15,0.9,1.2
2025-11-24T1200,4185A,115.0780,30.21118,黄石市,磁湖东路29号,细颗粒物(PM2.5),70,75,96,51,68,83,83,41,41,19,35,14,15,0.9,1
2025-11-24T1200,1392A,114.4183,23.0528,惠州市,河南岸金山湖子站,,49,46,51,34,34,82,82,61,61,24,33,10,9,0.5,0.5
2025-11-24T1200,1393A,114.4053,23.0822,惠州市,下埔横江三路子站,,,47,49,30,30,97,97,76,76,,17,9,10,0.6,0.6
2025-11-24T1200,1394A,114.4103,23.1142,惠州市,江北云山西路子站,,49,49,42,32,26,102,102,85,85,19,18,7,7,0.5,0.5
2025-11-24T1200,1395A,114.4645,22.7833,惠州市,惠阳区承修路船湖子站,,50,50,67,32,37,103,103,57,57,18,35,8,7,0.4,0.6
2025-11-24T1200,1396A,114.5317,22.7422,惠州市,大亚湾管委会子站,,,40,55,24,31,91,91,48,48,18,31,,6,0.5,0.6
2025-11-24T1200,3314A,114.4338,22.8134,惠州市,惠阳秋长,,48,48,59,26,37,106,106,71,71,13,28,12,13,0.4,0.5
2025-11-24T1200,3452A,114.6517,22.775,惠州市,大亚湾霞涌,,41,41,50,27,27,101,101,72,72,14,18,8,8,0.6,0.6
2025-11-24T1200,2240A,130.9762,45.3001,鸡西市,环保局,细颗粒物(PM2.5),203,183,109,153,82,63,63,28,28,26,39,9,9,1.1,1.2
2025-11-24T1200,2243A,130.9429,45.3039,鸡西市,第一中学,细颗粒物(PM2.5),201,176,109,151,87,59,59,46,45,,20,8,8,1.2,1
2025-11-24T1200,3707A,131.0207,45.3073,鸡西市,欧美日汽修厂,细颗粒物(PM2.5),178,169,128,134,99,56,56,22,22,28,43,12,14,1.2,1.3
2025-11-24T1200,3709A,130.9967,45.3106,鸡西市,市政设施管理处,细颗粒物(PM2.5),196,191,117,147,90,74,74,43,43,32,48,12,13,1.3,1.3
2025-11-24T1200,2367A,114.9754,27.0803,吉安市,红声器材厂,颗粒物(PM10),58,66,66,34,40,96,96,40,40,27,38,22,10,1.1,0.8
2025-11-24T1200,2368A,114.9658,27.0999,吉安市,市森林工业局,颗粒物(PM10),58,65,64,36,40,98,98,54,54,26,36,17,9,0.8,0.6
2025-11-24T1200,2369A,114.99,27.1312,吉安市,市环境监测站,细颗粒物(PM2.5),62,62,64,44,44,87,87,39,39,35,41,29,17,0.8,0.6
2025-11-24T1200,2370A,115.0093,27.0968,吉安市,青原区法院,细颗粒物(PM2.5),68,72,70,49,44,87,87,28,28,35,48,29,12,0.9,0.8
2025-11-24T1200,1772A,126.54,43.8622,吉林市,哈达湾,细颗粒物(PM2.5),147,130,246,112,186,52,52,42,42,16,46,11,21,0.9,1.6
2025-11-24T1200,1773A,126.5844,43.8358,吉林市,东局子,细颗粒物(PM2.5),189,179,204,142,178,48,48,19,19,15,43,9,11,1.0,1.8
2025-11-24T1200,1774A,126.5052,43.8245,吉林市,电力学院,细颗粒物(PM2.5),204,169,243,154,200,50,50,19,19,25,50,12,15,1.0,1.8
2025-11-24T1200,1775A,126.6133,43.8972,吉林市,江北,细颗粒物(PM2.5),166,155,246,126,203,51,51,25,25,16,45,5,7,0.7,1.5
2025-11-24T1200,1776A,126.555,43.8306,吉林市,江南公园,细颗粒物(PM2.5),185,152,201,139,166,,,15,15,22,48,8,10,0.7,1.3
2025-11-24T1200,1778A,126.7061,43.7133,吉林市,丰满,,,,,,,,,,,,,,,,
2025-11-24T1200,2868A,126.4739,43.953,吉林市,九站,细颗粒物(PM2.5),162,135,325,123,263,40,40,26,26,35,57,32,21,0.9,1.6
2025-11-24T1200,1299A,116.9862,36.6114,济南市,科干所,颗粒物(PM10),129,207,109,32,46,62,62,49,40,23,38,10,16,0.6,0.8
2025-11-24T1200,1300A,116.9376,36.665,济南市,农科所,颗粒物(PM10),158,266,126,29,54,61,61,34,34,16,53,9,15,0.4,0.7
2025-11-24T1200,1301A,117.1265,36.6734,济南市,开发区,,,,96,34,45,61,61,58,47,20,29,6,11,0.6,0.8
2025-11-24T1200,1303A,117.0624,36.6868,济南市,省种子仓库,颗粒物(PM10),157,263,124,29,55,62,62,36,33,15,45,8,15,0.5,0.9
2025-11-24T1200,1304A,116.9489,36.6447,济南市,机床二厂,颗粒物(PM10),171,291,138,44,65,59,59,31,29,21,51,11,20,0.3,0.6
2025-11-24T1200,1305A,117.0495,36.663,济南市,市监测站,颗粒物(PM10),162,274,114,32,48,60,60,51,42,19,32,5,9,0.4,0.5
2025-11-24T1200,1306A,116.7675,36.5484,济南市,长清党校,颗粒物(PM10),150,249,138,27,62,62,62,32,32,18,50,9,16,0.5,0.9
2025-11-24T1200,1616A,117.6795,36.229,济南市,技术学院,细颗粒物(PM2.5),163,210,187,124,120,44,44,9,9,61,74,30,22,1.8,1.6
2025-11-24T1200,1961A,117.532,36.6868,济南市,东山小学,颗粒物(PM10),119,188,123,39,58,67,67,48,48,24,42,12,14,0.5,0.7
2025-11-24T1200,3059A,117.7161,36.2049,济南市,泰兴公司,细颗粒物(PM2.5),170,217,192,129,131,48,48,15,15,60,62,30,16,1.9,1.3
2025-11-24T1200,3064A,117.6867,36.2171,济南市,莱芜战役纪念馆,细颗粒物(PM2.5),175,207,191,132,132,38,38,11,11,68,68,40,28,2.4,1.8
2025-11-24T1200,3494A,117.1673,36.9782,济南市,济阳区政府,颗粒物(PM10),259,391,152,63,67,61,61,32,32,13,53,13,19,0.4,0.8
2025-11-24T1200,3495A,117.1171,36.63,济南市,锦屏中学,颗粒物(PM10),125,200,93,24,36,62,62,64,56,28,30,7,10,0.6,0.6
2025-11-24T1200,3682A,116.9814,36.6819,济南市,济南四建,颗粒物(PM10),209,356,123,37,58,58,58,36,33,17,39,8,15,0.6,0.9
2025-11-24T1200,1653A,116.6251,35.4302,济宁市,火炬城,颗粒物(PM10),101,151,147,75,99,53,53,16,16,41,57,13,10,0.2,0.4
2025-11-24T1200,1655A,116.5491,35.4042,济宁市,电化厂,颗粒物(PM10),140,230,211,61,95,57,57,17,17,40,73,12,11,0.2,0.4
2025-11-24T1200,3500A,116.5814,35.3707,济宁市,北湖一中,颗粒物(PM10),96,141,137,66,89,54,54,15,15,36,54,12,10,0.6,0.6
2025-11-24T1200,3501A,116.8249,35.5593,济宁市,服务中心,颗粒物(PM10),143,235,184,99,100,36,36,10,10,55,55,10,8,0.5,0.5
2025-11-24T1200,3678A,116.5907,35.4054,济宁市,市第七中学,颗粒物(PM10),101,151,147,56,85,58,58,20,20,41,65,14,11,0.5,0.7
2025-11-24T1200,2255A,130.2751,46.8028,佳木斯市,佳纺,,50,50,113,31,84,44,44,33,32,16,33,9,8,0.4,0.8
2025-11-24T1200,2256A,130.3995,46.8307,佳木斯市,发电厂,颗粒物(PM10),51,52,84,14,69,51,51,47,46,8,22,3,5,0.3,0.4
2025-11-24T1200,2257A,130.3258,46.7975,佳木斯市,环保局,,34,34,92,16,74,48,48,44,42,10,31,4,6,0.3,0.7
2025-11-24T1200,2258A,130.3648,46.8032,佳木斯市,十一中,,25,21,92,17,81,51,51,49,49,7,33,7,10,0.4,0.8
2025-11-24T1200,2259A,130.3794,46.7588,佳木斯市,四丰,,,,,,,,,,,,,,,,
2025-11-24T1200,1252A,120.7436,30.778,嘉兴市,清河小学,细颗粒物(PM2.5),75,92,108,55,70,68,68,19,19,39,73,8,6,1.0,0.9
2025-11-24T1200,1253A,120.726,30.7478,嘉兴市,嘉兴学院,细颗粒物(PM2.5),77,83,105,56,68,70,70,23,23,46,76,10,8,0.6,0.7
2025-11-24T1200,2872A,120.7846,30.7525,嘉兴市,南湖区残联,细颗粒物(PM2.5),75,78,105,55,74,83,83,28,28,40,70,12,10,0.4,0.5
2025-11-24T1200,3407A,120.6916,30.7739,嘉兴市,秀洲住建,细颗粒物(PM2.5),85,89,89,63,65,76,76,20,20,38,75,10,8,0.7,0.7
2025-11-24T1200,1945A,98.2908,39.7711,嘉峪关市,气象局,颗粒物(PM10),54,58,128,17,22,76,76,76,59,12,10,10,11,0.7,0.7
2025-11-24T1200,2884A,98.2672,39.7978,嘉峪关市,酒钢宾馆,颗粒物(PM10),67,83,142,24,26,60,60,76,56,22,11,16,19,0.6,0.5
2025-11-24T1200,3248A,98.2643,39.7724,嘉峪关市,雄关区,,38,38,99,19,28,70,70,73,55,18,16,13,17,0.6,0.6
2025-11-24T1200,1383A,113.1064,22.6058,江门市,北街,颗粒物(PM10),70,89,63,45,39,101,101,54,54,46,43,12,12,0.7,0.6
2025-11-24T1200,1384A,113.0731,22.5835,江门市,西区,颗粒物(PM10),53,56,74,36,44,110,110,49,49,34,55,11,12,0.6,0.7
2025-11-24T1200,1385A,113.0219,22.5311,江门市,圭峰西,,,63,67,33,45,,,59,59,22,37,9,10,1.1,0.7
2025-11-24T1200,1386A,113.0828,22.5947,江门市,东湖,,,,69,,42,,,35,35,34,49,14,14,0.5,0.6
2025-11-24T1200,3311A,113.1075,22.5647,江门市,江海富民,颗粒物(PM10),59,68,70,30,30,112,112,56,56,43,47,16,16,0.6,0.6
2025-11-24T1200,3449A,113.05,22.4667,江门市,新会银湖,颗粒物(PM10),57,64,78,37,51,93,93,35,35,31,58,10,9,0.5,0.6
2025-11-24T1200,1830A,113.1992,35.2590,焦作市,影视城,,,,101,,26,,,81,,,20,,13,,0.2
2025-11-24T1200,3335A,113.3137,35.2641,焦作市,马村街道办,颗粒物(PM10),164,277,121,44,38,75,75,70,70,1,14,4,8,0,0.2
2025-11-24T1200,3336A,113.2465,35.2373,焦作市,焦作技师学院,颗粒物(PM10),160,270,134,39,36,73,73,65,65,4,26,3,9,0.2,0.5
2025-11-24T1200,3477A,113.1656,35.2539,焦作市,中站许衡医院,颗粒物(PM10),140,230,127,40,40,74,74,69,69,6,18,2,10,0.2,0.5
2025-11-24T1200,3981A,113.2449,35.1803,焦作市,原李万街道办,颗粒物(PM10),162,274,162,36,32,66,66,61,61,3,22,2,6,0.2,0.4
2025-11-24T1200,4264A,113.2340,35.2190,焦作市,新安路1731号,颗粒物(PM10),170,290,137,49,40,70,70,65,65,8,27,3,9,0.6,0.8
2025-11-24T1200,4295A,113.2722,35.2121,焦作市,人民路3066号,,,,129,,30,,,50,,,29,,7,,0.3
2025-11-24T1200,1708A,116.3701,23.5345,揭阳市,新兴,颗粒物(PM10),65,80,73,41,53,124,124,53,53,18,33,12,12,0.6,0.7
2025-11-24T1200,1709A,116.3264,23.5443,揭阳市,西马,,,116,80,37,54,114,114,44,44,,31,10,7,0.6,0.9
2025-11-24T1200,1710A,116.3611,23.5626,揭阳市,东兴,颗粒物(PM10),62,73,74,36,50,116,116,44,44,15,34,9,11,0.5,0.7
2025-11-24T1200,1711A,116.4151,23.5294,揭阳市,渔湖,颗粒物(PM10),63,76,78,44,40,124,124,45,45,20,32,9,7,0.7,0.8
2025-11-24T1200,3320A,116.403,23.5699,揭阳市,曲溪,细颗粒物(PM2.5),68,58,68,49,43,129,129,56,56,15,29,5,6,0.5,0.7
2025-11-24T1200,1944A,102.1692,38.5167,金昌市,天庆家园,颗粒物(PM10),89,127,255,32,34,59,59,62,56,23,9,111,11,0.9,0.5
2025-11-24T1200,4022A,102.1647,38.5371,金昌市,金川区人防中心,,,113,261,57,48,62,62,63,53,17,8,48,9,,0.6
2025-11-24T1200,4239A,102.1930,38.5319,金昌市,长春路96号,颗粒物(PM10),73,96,235,27,39,72,72,62,53,16,8,40,15,1.0,0.6
2025-11-24T1200,1262A,119.647,29.077,金华市,十五中,"颗粒物(PM10),细颗粒物(PM2.5)",59,67,76,42,48,97,97,40,40,28,47,12,4,0.8,0.7
2025-11-24T1200,1263A,119.686,29.1029,金华市,监测站,"颗粒物(PM10),细颗粒物(PM2.5)",63,76,77,45,45,91,91,42,42,30,45,12,4,0.8,0.5
2025-11-24T1200,3659A,119.656,29.1131,金华市,气象局,细颗粒物(PM2.5),64,72,87,46,54,83,83,28,28,37,67,15,6,0.7,0.6
2025-11-24T1200,1767A,121.1115,41.0879,锦州市,南山,细颗粒物(PM2.5),63,54,127,45,98,56,56,19,19,25,65,16,17,0.8,1.6
2025-11-24T1200,1768A,121.0604,40.8428,锦州市,开发区,颗粒物(PM10),63,75,142,34,95,46,46,27,27,25,70,13,28,0.6,1.7
2025-11-24T1200,1769A,121.1836,41.1119,锦州市,百股街道,细颗粒物(PM2.5),85,115,140,63,100,49,49,20,20,29,64,31,28,1.0,1.6
2025-11-24T1200,1770A,121.1178,41.1222,锦州市,天安街道,细颗粒物(PM2.5),59,54,130,42,98,57,57,21,21,17,58,14,25,0.7,1.7
2025-11-24T1200,1771A,121.1303,41.1386,锦州市,北湖公园,颗粒物(PM10),58,66,134,35,74,58,58,22,22,18,59,14,25,0.7,1.4
2025-11-24T1200,2160A,112.85,35.5051,晋城市,自来水公司,颗粒物(PM10),149,248,139,27,34,73,73,70,69,12,24,4,8,0.3,0.5
2025-11-24T1200,2161A,112.8318,35.4936,晋城市,白云商贸,颗粒物(PM10),151,252,146,34,29,66,66,66,63,11,21,3,3,0.2,0.4
2025-11-24T1200,2162A,112.8508,35.4887,晋城市,市环保局,颗粒物(PM10),155,260,142,39,34,73,73,71,69,8,15,3,5,0.2,0.6
2025-11-24T1200,2163A,112.8676,35.4897,晋城市,技术学院,颗粒物(PM10),147,243,127,36,34,61,61,57,57,9,22,4,7,0.2,0.7
2025-11-24T1200,2165A,112.8453,35.546,晋城市,白马寺,,,,117,,37,,,77,,7,14,6,9,0.2,0.3
2025-11-24T1200,3620A,112.8271,35.4828,晋城市,泽州一中,颗粒物(PM10),195,340,137,51,37,73,73,74,70,8,14,2,5,0.2,0.4
2025-11-24T1200,2173A,112.7249,37.7067,晋中市,南都小区,颗粒物(PM10),129,207,232,40,48,61,61,66,66,8,32,4,11,0.4,0.6
2025-11-24T1200,2174A,112.6991,37.6982,晋中市,榆次区政府,颗粒物(PM10),111,171,224,28,55,60,60,63,63,8,35,6,14,0.7,0.9
2025-11-24T1200,2865A,112.7195,37.6828,晋中市,榆次三中,颗粒物(PM10),136,222,262,19,48,60,60,65,65,6,30,5,14,0.3,0.8
2025-11-24T1200,4200A,112.7478,37.6954,晋中市,迎宾街26号,颗粒物(PM10),137,224,248,31,53,60,60,66,66,9,33,5,14,0.3,0.5
2025-11-24T1200,2439A,112.2014,31.0481,荆门市,竹园小学,颗粒物(PM10),55,60,82,28,56,69,69,16,16,14,30,3,3,0,0.1
2025-11-24T1200,2440A,112.1969,30.9891,荆门市,掇刀,颗粒物(PM10),57,64,87,34,60,77,77,27,27,15,30,1,1,0.3,0.5
2025-11-24T1200,2441A,112.2213,31.0386,荆门市,石化一小,颗粒物(PM10),72,93,101,27,62,62,62,13,13,17,34,2,7,0.3,0.6
2025-11-24T1200,3012A,112.1849,31.0362,荆门市,西山林语,颗粒物(PM10),53,56,64,23,46,71,71,21,21,12,20,5,5,0.6,0.7
2025-11-24T1200,3547A,112.1632,31.0138,荆门市,龙泉中学南校,颗粒物(PM10),53,56,76,27,50,72,72,24,24,15,27,6,7,0.2,0.4
2025-11-24T1200,1844A,112.2494,30.3197,荆州市,市图书馆,细颗粒物(PM2.5),74,58,54,54,46,47,47,19,19,23,25,8,6,0.7,0.7
2025-11-24T1200,1845A,112.2008,30.3544,荆州市,市委党校,细颗粒物(PM2.5),68,58,58,49,46,42,42,12,12,22,31,8,6,0.6,0.7
2025-11-24T1200,3194A,112.2747,30.3122,荆州市,管委会,细颗粒物(PM2.5),67,53,51,48,43,46,46,14,14,20,25,9,7,0.6,0.7
2025-11-24T1200,4268A,112.1722,30.3366,荆州市,学苑路85号,细颗粒物(PM2.5),64,53,59,46,45,55,55,19,19,22,27,1,1,0.7,0.7
2025-11-24T1200,2342A,117.3102,29.3867,景德镇市,王港中学,,,,,,,,,,,,,,,,
2025-11-24T1200,2343A,117.2117,29.2933,景德镇市,老干部活动中心,细颗粒物(PM2.5),79,92,60,58,48,16,16,7,7,41,28,16,9,1.0,0.7
2025-11-24T1200,2344A,117.1894,29.2789,景德镇市,兽医站,颗粒物(PM10),72,93,71,51,41,34,34,9,9,52,43,22,14,0.9,0.6
2025-11-24T1200,2346A,117.2461,29.2956,景德镇市,陶研所,细颗粒物(PM2.5),90,87,55,67,45,14,14,7,7,49,32,6,4,1.1,0.8
2025-11-24T1200,4289A,117.1542,29.2566,景德镇市,青少年活动中心,细颗粒物(PM2.5),78,98,72,57,45,68,68,12,12,32,44,22,26,0.9,0.8
2025-11-24T1200,1803A,115.9872,29.6815,九江市,十里,,,57,80,38,60,76,76,58,58,30,57,14,10,,1.4
2025-11-24T1200,1804A,115.9584,29.7046,九江市,茅山头,细颗粒物(PM2.5),73,,73,53,57,56,56,32,32,29,46,9,6,1.1,1.1
2025-11-24T1200,1805A,115.9877,29.7295,九江市,西园,,,,81,,57,78,78,68,68,42,61,13,12,1.1,1
2025-11-24T1200,1808A,115.9114,29.6038,九江市,综合工业园,,36,34,69,25,54,78,78,39,39,28,66,8,6,0.7,0.7
2025-11-24T1200,1809A,116.0721,29.7535,九江市,石化总厂,颗粒物(PM10),62,73,92,36,63,74,74,70,70,33,47,12,13,0.9,0.8
2025-11-24T1200,1810A,115.9773,29.5698,九江市,庐山气象台,,,,,,,,,,,,,,,,
2025-11-24T1200,3190A,116.0254,29.6994,九江市,外国语学校,颗粒物(PM10),53,56,76,36,52,67,67,56,56,31,53,12,10,1.1,1.1
2025-11-24T1200,4253A,116.0102,29.6594,九江市,莲花大道8号,,38,38,66,24,42,74,74,68,68,27,28,11,7,0.8,0.7
2025-11-24T1200,4240A,98.4958,39.7339,酒泉市,玉门东路5号,颗粒物(PM10),76,102,158,15,24,74,74,75,66,17,5,9,8,0.4,0.3
2025-11-24T1200,4241A,98.5099,39.7506,酒泉市,北大街108号,颗粒物(PM10),70,90,159,10,22,75,75,71,65,11,5,10,9,0.4,0.2
2025-11-24T1200,2698A,76.0072,39.4467,喀什地区,巡警大队,颗粒物(PM10),156,262,311,91,117,19,19,9,9,70,74,7,10,1.7,2.3
2025-11-24T1200,2699A,75.9755,39.4694,喀什地区,吾办,颗粒物(PM10),168,285,298,118,134,17,17,9,9,75,75,15,11,2.0,2.2
2025-11-24T1200,4027A,75.9483,39.4689,喀什地区,老干局,颗粒物(PM10),174,298,292,120,104,17,17,28,28,72,65,9,7,2.5,2.1
2025-11-24T1200,1824A,114.3389,34.7781,开封市,肿瘤医院,颗粒物(PM10),220,364,134,36,34,69,69,60,60,14,32,11,14,0.3,0.5
2025-11-24T1200,1826A,114.2885,34.7965,开封市,世纪星幼儿园,颗粒物(PM10),182,313,119,43,36,68,68,57,57,13,27,8,11,0.5,0.6
2025-11-24T1200,3147A,114.3438,34.8106,开封市,龙亭公园,颗粒物(PM10),205,353,129,34,30,68,68,57,57,12,26,10,12,0.7,0.8
2025-11-24T1200,3210A,114.3644,34.7964,开封市,汴京公园,颗粒物(PM10),170,290,128,42,33,63,63,54,54,19,33,10,12,0.3,0.4
2025-11-24T1200,3473A,114.2485,34.8306,开封市,技师学院,颗粒物(PM10),165,280,109,41,32,66,66,52,52,13,28,8,10,0.6,0.7
2025-11-24T1200,3592A,114.4644,34.7556,开封市,祥符区生态环境局,颗粒物(PM10),178,306,123,46,37,69,69,55,55,20,42,7,10,0.3,0.4
2025-11-24T1200,1951A,84.895,45.6094,克拉玛依市,长征新村,,39,39,31,21,13,31,31,47,34,29,17,6,5,0.4,0.4
2025-11-24T1200,1952A,84.8988,45.5893,克拉玛依市,南林小区,,43,43,34,12,8,29,29,44,32,22,13,3,2,0.3,0.3
2025-11-24T1200,1954A,84.905,44.3396,克拉玛依市,独山子区,颗粒物(PM10),62,74,66,35,33,20,20,11,10,23,23,5,6,0.6,0.6
2025-11-24T1200,1955A,85.6979,46.098,克拉玛依市,乌尔禾区商贸楼,颗粒物(PM10),59,68,38,36,13,9,9,22,10,36,17,7,6,0.6,0.3
2025-11-24T1200,3612A,85.1045,45.6899,克拉玛依市,白碱滩区新站,,34,34,23,11,12,35,35,48,40,26,11,6,5,0.2,0.2
2025-11-24T1200,2697A,76.1454,39.7142,克孜勒苏柯尔克孜自治州,市人民政府,颗粒物(PM10),85,120,192,46,79,59,59,80,70,14,19,7,12,0.2,0.4
2025-11-24T1200,3665A,76.1658,39.7157,克孜勒苏柯尔克孜自治州,克州文化中心,颗粒物(PM10),105,160,202,58,72,58,58,81,68,21,23,10,12,0.7,0.8
2025-11-24T1200,1450A,102.8204,24.8886,昆明市,呈贡新区,细颗粒物(PM2.5),94,,34,70,42,26,26,9,9,15,25,4,4,0.6,0.5
2025-11-24T1200,1451A,102.6251,24.9608,昆明市,西山森林公园,,,,,,,,,,,,,,,,
2025-11-24T1200,1452A,102.7252,25.0902,昆明市,龙泉镇,,42,32,28,29,22,34,34,23,23,12,19,4,3,0.5,0.4
2025-11-24T1200,1453A,102.7266,25.0375,昆明市,东风东路,,,56,33,37,23,27,27,13,13,,22,3,4,,0.5
2025-11-24T1200,1454A,102.6742,25.0669,昆明市,金鼎山,,42,42,30,29,21,34,34,24,24,13,16,3,3,0.5,0.5
2025-11-24T1200,1455A,102.6644,25.0401,昆明市,碧鸡广场,,46,46,34,30,20,27,27,19,19,19,23,4,4,0.5,0.5
2025-11-24T1200,3179A,102.7494,25.0119,昆明市,官渡区博物馆,颗粒物(PM10),51,52,31,32,20,26,26,10,10,23,27,3,3,0.3,0.3
2025-11-24T1200,3375A,102.8017,24.8336,昆明市,青年创业园,细颗粒物(PM2.5),65,63,33,47,21,27,27,9,9,12,20,2,3,0.4,0.3
2025-11-24T1200,3550A,102.7997,24.9786,昆明市,昆明学院,细颗粒物(PM2.5),69,78,41,50,26,22,22,15,15,26,22,2,2,0.4,0.3
2025-11-24T1200,3551A,102.5967,24.6736,昆明市,晋宁区生态环境分局,细颗粒物(PM2.5),52,,31,36,20,41,41,20,20,16,16,2,2,0.6,0.5
2025-11-24T1200,3552A,102.6678,24.9856,昆明市,云天化总部,"颗粒物(PM10),细颗粒物(PM2.5)",54,57,31,38,19,22,22,13,13,26,25,5,6,0.7,0.5
2025-11-24T1200,1456A,91.1319,29.6514,拉萨市,八廓街,,27,25,15,9,7,84,84,86,77,9,5,16,6,0.2,0.2
2025-11-24T1200,1457A,91.1221,29.6747,拉萨市,市环保局,,29,29,16,10,7,76,76,80,70,11,10,17,7,0.5,0.5
2025-11-24T1200,1458A,91.0874,29.6475,拉萨市,区监测站,,28,15,10,9,6,88,88,85,75,12,10,10,5,0.4,0.3
2025-11-24T1200,1459A,91.1774,29.6541,拉萨市,西藏大学,,27,13,12,8,6,85,85,80,71,9,9,12,4,0,0.1
2025-11-24T1200,1460A,90.9798,29.6588,拉萨市,区辐射站,,25,15,16,13,8,80,80,64,64,14,17,6,5,0.4,0.4
2025-11-24T1200,1461A,91.0834,29.6292,拉萨市,拉萨火车站,,34,34,16,8,7,83,83,89,79,10,6,11,7,0.5,0.5
2025-11-24T1200,2520A,109.2203,23.7256,来宾市,来宾技工学校,,36,36,52,23,34,82,82,44,44,8,15,5,9,0.3,0.6
2025-11-24T1200,3535A,109.1781,23.7297,来宾市,兴宾区政府,,38,34,43,26,31,86,86,54,54,7,10,6,7,0.3,0.4
2025-11-24T1200,4002A,109.2416,23.7461,来宾市,中南小学,,38,38,51,24,33,85,85,39,39,6,22,4,8,0.4,0.7
2025-11-24T1200,1477A,104.1373,35.9454,兰州市,榆中兰大校区,,,,,,,,,,,,,,,,
2025-11-24T1200,1479A,103.831,36.0464,兰州市,铁路设计院,,,,,,,,,,,,,,,,
2025-11-24T1200,3241A,103.7439,36.0842,兰州市,百合公园,,,92,195,33,61,56,56,69,62,17,29,8,12,,0.4
2025-11-24T1200,3242A,103.9611,35.998,兰州市,和平,颗粒物(PM10),65,79,198,23,60,76,76,66,66,7,20,4,7,0.4,0.7
2025-11-24T1200,4236A,103.6293,36.0938,兰州市,庄浪东路808号,颗粒物(PM10),67,84,232,31,75,78,78,71,67,27,44,7,13,0.4,0.6
2025-11-24T1200,4237A,103.7251,36.1043,兰州市,安宁西路88号,颗粒物(PM10),61,71,244,37,65,66,66,74,70,21,32,1,9,0.4,0.6
2025-11-24T1200,4238A,103.8470,36.0676,兰州市,北滨河东路1号,颗粒物(PM10),51,52,223,29,60,60,60,72,65,24,40,7,10,0.8,0.8
2025-11-24T1200,3245A,103.6633,36.533,兰州新区,新区管委会,颗粒物(PM10),52,53,171,23,52,78,78,76,72,7,10,1,12,0.6,0.6
2025-11-24T1200,3246A,103.6975,36.4789,兰州新区,舟曲中学,颗粒物(PM10),69,88,179,24,38,82,82,81,80,5,9,3,7,0.2,0.2
2025-11-24T1200,1067A,116.6708,39.5111,廊坊市,药材公司,,50,50,154,6,73,58,58,17,17,13,59,2,13,0.2,0.6
2025-11-24T1200,1068A,116.7214,39.5589,廊坊市,开发区,颗粒物(PM10),51,51,162,9,73,58,58,17,17,13,65,1,6,0.2,0.7
2025-11-24T1200,1070A,116.7244,39.5269,廊坊市,北华航天学院,颗粒物(PM10),63,75,166,8,76,57,57,20,20,8,69,1,9,0.2,0.7
2025-11-24T1200,2919A,116.7022,39.5453,廊坊市,河北工业大学,颗粒物(PM10),59,67,166,7,71,56,56,17,17,9,59,3,10,0.2,0.7
2025-11-24T1200,2535A,103.7723,29.5462,乐山市,花湖湾,,,,,,,,,,,,,,,,
2025-11-24T1200,2536A,103.7627,29.5844,乐山市,牛耳桥,细颗粒物(PM2.5),104,90,91,78,76,34,34,10,10,23,29,9,7,0.8,0.8
2025-11-24T1200,2537A,103.7508,29.6006,乐山市,市第三水厂,细颗粒物(PM2.5),85,85,89,63,63,31,31,8,8,28,33,7,6,1.0,1
2025-11-24T1200,2538A,103.7571,29.5664,乐山市,市监测站,细颗粒物(PM2.5),102,92,88,76,73,38,38,14,12,20,24,7,7,0.8,0.8
2025-11-24T1200,3361A,103.7311,29.5628,乐山市,理工大学,细颗粒物(PM2.5),94,81,87,70,70,17,17,12,8,28,24,8,8,0.8,0.7
2025-11-24T1200,2598A,100.2143,26.8576,丽江市,西南郊,,32,32,16,11,6,57,57,49,38,7,5,5,6,0.7,0.7
2025-11-24T1200,2599A,100.2497,26.8802,丽江市,丽江古城,,32,32,22,17,9,49,49,44,36,18,14,10,9,0.6,0.5
2025-11-24T1200,2600A,100.2203,26.8906,丽江市,市中心,,21,21,13,14,9,50,50,39,32,16,14,7,8,0.5,0.5
2025-11-24T1200,1267A,119.914,28.4514,丽水市,监测站大楼,颗粒物(PM10),53,56,50,33,35,68,68,22,22,29,36,8,6,0.6,0.7
2025-11-24T1200,1268A,119.93,28.4586,丽水市,莲都小学,,,57,47,,22,73,73,7,,,38,7,5,0.6,0.5
2025-11-24T1200,1269A,119.879,28.4231,丽水市,余庄前,细颗粒物(PM2.5),74,73,45,54,34,86,86,21,21,33,23,6,4,0.5,0.3
2025-11-24T1200,1173A,119.176,34.5885,连云港市,市环境监测站,细颗粒物(PM2.5),122,173,138,92,91,42,42,18,18,51,48,17,14,1.1,1
2025-11-24T1200,3000A,119.3581,34.6972,连云港市,德源药业,颗粒物(PM10),107,163,133,66,78,59,59,20,20,39,52,12,10,0.6,0.6
2025-11-24T1200,3007A,119.178,34.844,连云港市,新城一中,细颗粒物(PM2.5),147,163,156,112,116,55,55,16,16,49,57,20,15,0.8,0.8
2025-11-24T1200,3008A,119.3608,34.7519,连云港市,胡沟管理处,细颗粒物(PM2.5),110,163,132,83,77,49,49,28,28,53,52,24,23,0.7,0.6
2025-11-24T1200,3009A,119.1478,34.5911,连云港市,矿山设计院,细颗粒物(PM2.5),122,183,151,92,90,43,43,20,20,28,24,12,11,0.7,0.6
2025-11-24T1200,3434A,119.2413,34.6539,连云港市,工贸学校,细颗粒物(PM2.5),120,147,121,91,80,62,62,51,49,41,26,19,15,1.0,0.9
2025-11-24T1200,3664A,119.4172,34.7341,连云港市,连云街道,颗粒物(PM10),71,92,93,38,51,87,87,70,65,21,24,9,9,0.5,0.5
2025-11-24T1200,2571A,102.3431,27.8099,凉山彝族自治州,青龙寺,,,,,,,,,,,,,,,,
2025-11-24T1200,2572A,102.2721,27.8415,凉山彝族自治州,邛海宾馆,,38,32,30,26,25,47,47,26,26,14,12,6,6,0.7,0.7
2025-11-24T1200,2573A,102.2625,27.898,凉山彝族自治州,西昌市政府,,,39,29,39,26,,,24,20,20,13,8,6,0.8,0.6
2025-11-24T1200,2574A,102.2685,27.8851,凉山彝族自治州,凉山州政府,,49,49,38,31,28,40,40,24,23,18,13,9,8,0.9,0.8
2025-11-24T1200,4229A,102.2342,27.8859,凉山彝族自治州,凯乐南路30号,,38,38,51,26,39,42,42,12,12,28,37,7,6,0.7,0.9
2025-11-24T1200,2212A,123.2,41.1953,辽阳市,宏伟区,细颗粒物(PM2.5),252,292,145,202,132,10,10,17,7,39,28,6,6,2.0,1.3
2025-11-24T1200,2213A,123.1683,41.2495,辽阳市,新华园,细颗粒物(PM2.5),254,282,154,204,136,6,6,10,5,48,39,3,4,1.5,1.1
2025-11-24T1200,2214A,123.2354,41.2639,辽阳市,滨河路,细颗粒物(PM2.5),226,237,158,176,133,4,4,16,3,39,36,5,6,1.8,1.3
2025-11-24T1200,2215A,123.149,41.2991,辽阳市,铁西工业园,细颗粒物(PM2.5),232,272,169,182,135,1,1,0,0,47,42,7,8,1.8,1.6
2025-11-24T1200,2227A,125.1358,42.8845,辽源市,环保局,细颗粒物(PM2.5),301,318,227,251,155,41,41,10,10,,49,7,5,1.6,1.7
2025-11-24T1200,3239A,125.0764,42.9078,辽源市,银鹰制药,细颗粒物(PM2.5),317,296,184,267,150,46,46,15,15,40,49,9,9,1.4,1.5
2025-11-24T1200,1625A,115.9848,36.4372,聊城市,区政府,颗粒物(PM10),180,310,176,40,81,,,13,13,16,61,9,16,0.4,1
2025-11-24T1200,2878A,116.0072,36.4343,聊城市,聊大东校,颗粒物(PM10),180,310,188,52,92,63,63,24,24,12,61,10,15,0.6,1
2025-11-24T1200,3200A,115.9819,36.4978,聊城市,监控中心,颗粒物(PM10),249,384,180,53,81,68,68,33,33,11,54,9,18,0.7,1.1
2025-11-24T1200,3513A,116.0445,36.4361,聊城市,九州社区,颗粒物(PM10),183,315,179,42,84,75,75,37,37,2,51,1,11,0.5,0.9
2025-11-24T1200,4018A,116.0567,36.4608,聊城市,星美广场,颗粒物(PM10),160,270,179,38,84,68,68,34,34,11,50,2,8,0.2,0.7
2025-11-24T1200,2632A,94.3681,29.6376,林芝市,林芝监测站,,20,8,8,3,5,61,61,51,50,4,4,2,3,0.2,0.2
2025-11-24T1200,2633A,94.3616,29.6616,林芝市,林芝人民医院,,19,10,12,3,6,59,59,48,47,4,4,2,2,0.3,0.3
2025-11-24T1200,2603A,100.0781,23.8982,临沧市,市环保局,,28,25,18,19,27,50,50,19,19,8,7,6,6,0.7,0.6
2025-11-24T1200,2604A,100.0894,23.8822,临沧市,市气象局,,29,29,19,14,14,50,50,22,22,14,10,10,10,0.5,0.5
2025-11-24T1200,1733A,111.5531,36.0783,临汾市,临钢医院,颗粒物(PM10),180,309,273,36,80,58,58,58,58,9,40,1,8,0.3,1.3
2025-11-24T1200,1734A,111.5028,36.0714,临汾市,技工学校,颗粒物(PM10),139,227,199,28,92,59,59,59,59,9,49,3,14,0.3,1.4
2025-11-24T1200,1736A,111.5018,36.0855,临汾市,市委,颗粒物(PM10),182,314,278,27,86,63,63,64,64,5,44,5,16,0.5,1.6
2025-11-24T1200,3018A,111.505,36.1014,临汾市,唐尧大酒店,颗粒物(PM10),164,278,254,31,87,64,64,65,65,7,48,1,10,0.3,1.4
2025-11-24T1200,4244A,111.4879,36.0530,临汾市,启星学校,颗粒物(PM10),169,287,253,27,84,63,63,62,62,14,58,4,13,0.2,1.3
2025-11-24T1200,4271A,103.2464,35.6123,临夏回族自治州,滨河东路1号,,45,45,185,23,43,60,60,52,52,3,10,3,5,0.5,0.6
2025-11-24T1200,4310A,103.2093,35.5995,临夏回族自治州,新华街21号,颗粒物(PM10),51,52,200,34,58,59,59,55,52,9,16,6,6,0.4,0.5
2025-11-24T1200,1618A,118.3429,35.0532,临沂市,沂河小区,,,,,,,,,,,,,,,,
2025-11-24T1200,1619A,118.295,35.0583,临沂市,鲁南制药厂,细颗粒物(PM2.5),175,271,215,132,140,63,63,16,16,103,83,23,21,1.0,1.2
2025-11-24T1200,1620A,118.2794,34.9976,临沂市,新光毛纺厂,细颗粒物(PM2.5),134,195,194,102,133,43,43,15,15,80,76,20,21,1.1,1.2
2025-11-24T1200,1621A,118.3956,35.0888,临沂市,河东保险公司,细颗粒物(PM2.5),168,227,178,127,119,44,44,16,16,116,71,22,13,0.9,1
2025-11-24T1200,3370A,118.3564,35.0215,临沂市,十里堡居委,细颗粒物(PM2.5),132,212,207,100,126,54,54,15,15,93,79,22,28,1.2,1.3
2025-11-24T1200,3496A,118.3604,35.1084,临沂市,南坊新区,细颗粒物(PM2.5),168,229,176,127,120,52,52,13,13,105,73,35,17,1.1,1.2
2025-11-24T1200,3860A,118.3920,35.0300,临沂市,皇山花园小区,细颗粒物(PM2.5),148,215,203,113,123,56,56,21,21,100,77,26,26,1.2,1.1
2025-11-24T1200,1870A,109.4856,24.3895,柳州市,柳东小学,,45,38,44,31,32,80,80,72,72,7,10,11,15,0.3,0.3
2025-11-24T1200,1871A,109.4157,24.3277,柳州市,环保监测站,,35,33,57,24,36,76,76,59,59,10,24,14,16,0.6,0.7
2025-11-24T1200,1872A,109.389,24.341,柳州市,河西水厂,,,,,,,,,,,,,,,,
2025-11-24T1200,1873A,109.4311,24.2921,柳州市,市四中,,46,46,53,26,34,73,73,58,58,18,31,16,18,0.7,0.8
2025-11-24T1200,1874A,109.4006,24.3631,柳州市,市九中,,43,39,61,30,39,76,76,52,52,12,32,14,23,0.6,0.8
2025-11-24T1200,1875A,109.4958,24.3134,柳州市,古亭山,,38,38,40,19,26,79,79,53,53,6,31,10,10,0.5,0.5
2025-11-24T1200,3402A,109.5422,24.3996,柳州市,市二中,,39,33,43,27,31,81,81,,,9,19,11,11,0.4,0.4
2025-11-24T1200,2307A,116.5079,31.737,六安市,监测大楼,颗粒物(PM10),55,59,59,26,42,88,88,57,57,16,37,5,5,0.3,0.5
2025-11-24T1200,2308A,116.4738,31.7643,六安市,皖西学院,颗粒物(PM10),55,60,77,22,52,93,93,56,56,11,36,4,4,0.4,0.6
2025-11-24T1200,2309A,116.4996,31.7905,六安市,朝阳厂,颗粒物(PM10),52,53,57,18,40,90,90,78,75,15,32,5,6,0.3,0.5
2025-11-24T1200,2310A,116.5567,31.7886,六安市,开发区,颗粒物(PM10),57,64,73,28,46,85,85,40,40,16,44,4,5,0.3,0.5
2025-11-24T1200,2576A,104.8,26.5892,六盘水市,窑上,,,,32,19,20,86,86,54,54,5,9,8,7,0.3,0.4
2025-11-24T1200,2577A,104.83,26.5917,六盘水市,黄土坡,,25,12,33,12,20,79,79,58,58,10,14,9,8,0.3,0.5
2025-11-24T1200,2578A,104.89,26.5939,六盘水市,水钢,,25,22,38,8,23,78,78,51,51,8,20,9,14,0.3,1
2025-11-24T1200,2579A,104.8475,26.5894,六盘水市,民中,,23,21,34,7,18,72,72,53,53,15,16,7,6,0.3,0.4
2025-11-24T1200,2580A,104.9544,26.5506,六盘水市,双水,,24,19,40,9,23,75,75,44,44,14,19,8,11,0.5,0.6
2025-11-24T1200,2335A,117.0189,25.1181,龙岩市,龙岩师专,,,,,,,,,,,,,,,,
2025-11-24T1200,2336A,117.0217,25.1033,龙岩市,龙岩市监测站,,50,50,40,18,29,96,96,44,44,11,30,18,12,0.5,0.6
2025-11-24T1200,2337A,117.0258,25.0661,龙岩市,闽西职业技术学院,,40,40,48,24,25,98,98,33,33,10,34,14,14,0.6,0.5
2025-11-24T1200,2338A,117.0196,25.0306,龙岩市,龙岩学院,,50,50,39,26,25,93,93,39,39,18,21,12,7,0.6,0.4
2025-11-24T1200,2665A,105.0822,33.3261,陇南市,汉王镇固水子,,,,,,,,,,,,,,,,
2025-11-24T1200,2885A,104.9339,33.3826,陇南市,滨江中学,颗粒物(PM10),54,57,87,22,48,68,68,42,42,8,38,6,12,0.7,1.6
2025-11-24T1200,3247A,104.955,33.371,陇南市,市总工会,颗粒物(PM10),63,76,82,21,41,67,67,46,46,12,30,5,6,0.6,0.9
2025-11-24T1200,2487A,111.9589,27.8901,娄底市,电视发射台,,,,,,,,,,,,,,,,
2025-11-24T1200,2488A,111.9975,27.725,娄底市,市监测站,细颗粒物(PM2.5),70,84,65,51,46,57,57,23,23,36,32,41,23,1.6,1
2025-11-24T1200,2489A,112.0194,27.7314,娄底市,市委党校,细颗粒物(PM2.5),73,81,66,53,47,51,51,29,29,39,26,28,13,1.5,0.8
2025-11-24T1200,2490A,111.9561,27.7569,娄底市,涟钢,,22,20,59,12,40,68,68,37,37,8,18,7,9,0.7,1.1
2025-11-24T1200,2491A,111.9892,27.7044,娄底市,市政府,颗粒物(PM10),57,64,69,34,52,54,54,26,26,25,23,18,15,1.1,1.1
2025-11-24T1200,1893A,105.4324,28.9634,泸州市,九狮山,,,,,,,,,,,,,,,,
2025-11-24T1200,1894A,105.4427,28.9063,泸州市,小市上码头,,50,40,42,35,33,33,33,16,16,8,15,10,10,0.5,0.5
2025-11-24T1200,1895A,105.4241,28.8573,泸州市,兰田宪桥,细颗粒物(PM2.5),54,44,45,38,39,28,28,13,10,13,16,9,8,0.5,0.5
2025-11-24T1200,1896A,105.4379,28.8833,泸州市,市环监站,,46,37,43,32,31,25,25,13,12,15,22,8,8,0.7,0.6
2025-11-24T1200,4272A,105.3689,28.7783,泸州市,纳溪中医医院,细颗粒物(PM2.5),64,60,52,46,37,22,22,6,6,17,19,8,7,0.6,0.6
2025-11-24T1200,2183A,111.1406,37.5211,吕梁市,环保局,颗粒物(PM10),89,128,238,19,44,60,60,63,62,6,33,5,7,0.4,0.5
2025-11-24T1200,2185A,111.1297,37.5136,吕梁市,自来水公司,颗粒物(PM10),86,121,228,3,46,61,61,62,62,6,31,2,7,0.3,0.5
2025-11-24T1200,2867A,111.1283,37.51,吕梁市,马茂庄小学,颗粒物(PM10),98,146,256,8,46,61,61,62,62,4,31,4,7,0.3,0.4
2025-11-24T1200,1812A,112.3931,34.6516,洛阳市,市委党校,颗粒物(PM10),187,323,113,65,45,59,59,47,47,18,29,8,9,0.4,0.4
2025-11-24T1200,1815A,112.494,34.6886,洛阳市,河南林校,颗粒物(PM10),325,440,141,69,42,67,67,39,39,10,35,8,11,0.4,0.6
2025-11-24T1200,1816A,112.3844,34.623,洛阳市,开发区管委会,颗粒物(PM10),199,347,105,3,38,63,63,47,47,,27,9,12,0.5,0.4
2025-11-24T1200,1817A,112.4267,34.6258,洛阳市,市委新办公区,颗粒物(PM10),184,318,111,64,37,66,66,50,50,14,26,8,10,0.3,0.4
2025-11-24T1200,3340A,112.6005,34.6326,洛阳市,伊滨,颗粒物(PM10),283,408,112,70,35,65,65,44,44,7,21,8,9,0.3,0.3
2025-11-24T1200,3341A,112.4951,34.6332,洛阳市,中移产业园,颗粒物(PM10),329,443,126,62,38,60,60,40,40,10,25,7,9,0.4,0.4
2025-11-24T1200,3593A,112.5736,34.8993,洛阳市,吉利监测站,颗粒物(PM10),299,419,122,56,31,70,70,53,53,12,27,6,8,0.4,0.4
2025-11-24T1200,3635A,112.3677,34.662,洛阳市,河科大西苑校区,颗粒物(PM10),239,377,132,61,38,63,63,47,47,13,28,7,10,0.5,0.6
2025-11-24T1200,3636A,112.4388,34.6781,洛阳市,英才小学,颗粒物(PM10),324,439,148,84,52,60,60,34,34,15,45,8,14,0.5,0.7
2025-11-24T1200,4214A,112.4600,34.6949,洛阳市,春都路1号院,颗粒物(PM10),385,488,170,68,39,57,57,31,31,12,39,9,15,0.4,0.6
2025-11-24T1200,2399A,114.051,33.5699,漯河市,三五一五工厂,颗粒物(PM10),111,171,98,32,38,70,70,44,44,12,22,8,8,0.3,0.4
2025-11-24T1200,2400A,114.0055,33.5698,漯河市,漯河大学,颗粒物(PM10),146,241,106,36,38,75,75,45,45,14,27,7,8,0.3,0.4
2025-11-24T1200,2401A,114.0138,33.5828,漯河市,市水利局,颗粒物(PM10),155,259,95,36,36,68,68,41,41,15,25,8,9,0.2,0.3
2025-11-24T1200,2402A,114.0261,33.5698,漯河市,市广电局,颗粒物(PM10),153,256,102,26,30,72,72,45,45,10,21,7,8,0.3,0.4
2025-11-24T1200,3478A,113.9749,33.5664,漯河市,市图书馆,颗粒物(PM10),119,188,98,33,38,65,65,40,40,13,25,5,6,0.3,0.4
2025-11-24T1200,4250A,114.0892,33.5882,漯河市,韶山路11号,颗粒物(PM10),119,188,93,30,32,71,71,46,46,14,23,8,10,0.2,0.3
2025-11-24T1200,1798A,118.5092,31.6837,马鞍山市,湖东路四小,颗粒物(PM10),65,80,141,34,99,93,93,36,36,18,55,8,8,0.7,0.9
2025-11-24T1200,1799A,118.5024,31.6449,马鞍山市,开发区,颗粒物(PM10),68,86,145,45,98,95,95,30,30,16,63,7,7,0.7,1
2025-11-24T1200,1802A,118.6245,31.7241,马鞍山市,濮塘,,,,,,,,,,,,,,,,
2025-11-24T1200,3633A,118.4918,31.6809,马鞍山市,雨山,,,,143,,106,98,98,29,29,15,59,,10,0.5,0.8
2025-11-24T1200,4191A,118.5274,31.72227,马鞍山市,慈湖高新区,细颗粒物(PM2.5),64,72,147,46,117,85,85,27,27,25,59,13,11,1.0,1.1
2025-11-24T1200,1686A,111.0286,21.4688,茂名市,电白南海,细颗粒物(PM2.5),62,66,77,44,40,117,117,66,66,14,23,19,20,1.2,1.3
2025-11-24T1200,1687A,110.9294,21.6533,茂名市,茂石化七小,颗粒物(PM10),62,73,73,36,43,98,98,63,63,25,26,18,21,0.5,0.6
2025-11-24T1200,1688A,110.9107,21.6687,茂名市,健康路,颗粒物(PM10),53,56,76,29,41,122,122,61,61,18,32,18,26,1.0,1.2
2025-11-24T1200,1689A,110.8592,21.6828,茂名市,高岭,颗粒物(PM10),59,68,101,29,47,109,109,44,44,23,38,31,24,0.8,0.9
2025-11-24T1200,3450A,111.01,21.5165,茂名市,电白水东,颗粒物(PM10),57,63,62,36,37,93,93,67,67,22,20,16,20,0.7,0.7
2025-11-24T1200,2539A,104.0308,30.0478,眉山市,黑龙滩水库,,,,,,,,,,,,,,,,
2025-11-24T1200,2540A,103.8416,30.0874,眉山市,气象局,细颗粒物(PM2.5),98,92,99,73,78,65,65,13,13,21,28,12,12,0.6,0.7
2025-11-24T1200,3137A,103.8578,30.0744,眉山市,市委党校,,,107,88,70,69,62,62,26,26,,28,,6,0.6,0.7
2025-11-24T1200,3148A,103.8291,30.0564,眉山市,区人社局,细颗粒物(PM2.5),107,102,100,80,81,64,64,21,21,18,25,8,9,1.0,1
2025-11-24T1200,1690A,116.1231,24.3284,梅州市,梅江月梅,,49,49,47,28,30,84,84,27,27,19,27,7,7,0.5,0.6
2025-11-24T1200,1691A,116.0797,24.2719,梅州市,梅县新城,,50,50,58,30,37,78,78,29,29,23,40,9,8,0.5,0.6
2025-11-24T1200,1692A,116.1248,24.2654,梅州市,环境监控中心,,49,49,50,30,36,72,72,28,28,25,40,9,15,0.7,0.7
2025-11-24T1200,3315A,116.1233,24.2991,梅州市,梅龙,颗粒物(PM10),51,51,54,29,35,76,76,32,32,21,28,10,11,0.6,0.7
2025-11-24T1200,1878A,104.7778,31.4741,绵阳市,富乐山,,,96,70,48,56,63,63,24,24,,20,9,10,0.2,0.4
2025-11-24T1200,1880A,104.6697,31.4668,绵阳市,高新区自来水公司,颗粒物(PM10),60,69,83,39,56,54,54,13,13,11,37,9,10,0.5,0.8
2025-11-24T1200,1881A,104.7287,31.5075,绵阳市,三水厂,细颗粒物(PM2.5),74,81,81,54,60,58,58,12,12,11,36,12,12,0.3,0.7
2025-11-24T1200,3491A,104.69,31.5322,绵阳市,西科大附属小学,颗粒物(PM10),61,71,81,26,51,53,53,13,13,14,39,8,8,0.3,0.5
2025-11-24T1200,3492A,104.5648,31.5343,绵阳市,安州区旅游局,,,,64,,54,,,20,20,19,29,,9,0.4,0.7
2025-11-24T1200,4226A,104.7651,31.4531,绵阳市,绵阳市气象局,颗粒物(PM10),75,100,75,11,50,60,60,21,21,8,29,7,9,0.3,0.6
2025-11-24T1200,1784A,129.61,44.561,牡丹江市,环保大楼,细颗粒物(PM2.5),231,231,99,181,74,46,46,15,15,44,42,14,11,1.1,0.9
2025-11-24T1200,1785A,129.6115,44.5782,牡丹江市,文化广场,细颗粒物(PM2.5),216,226,120,166,86,49,49,17,17,45,52,14,10,1.1,1.3
2025-11-24T1200,1786A,129.5904,44.5963,牡丹江市,第一医院,细颗粒物(PM2.5),234,203,122,184,111,45,45,12,12,42,45,13,6,1.0,1.1
2025-11-24T1200,1787A,129.6364,44.6075,牡丹江市,机车工厂,细颗粒物(PM2.5),202,211,138,152,96,42,42,12,12,38,48,16,28,1.0,1.1
2025-11-24T1200,1788A,129.6386,44.5462,牡丹江市,第一中学,细颗粒物(PM2.5),176,176,87,133,64,37,37,12,12,40,43,9,6,0.9,0.9
2025-11-24T1200,2531A,105.0703,29.61,内江市,市监测站,细颗粒物(PM2.5),64,,59,46,54,75,75,24,24,10,19,3,3,0.6,0.7
2025-11-24T1200,2532A,105.0717,29.5947,内江市,东兴区政府,细颗粒物(PM2.5),60,,59,43,50,58,58,16,15,17,22,4,3,0.4,0.5
2025-11-24T1200,2533A,105.0653,29.5817,内江市,内江二中,细颗粒物(PM2.5),63,59,75,45,50,60,60,15,15,17,25,5,5,0.7,0.8
2025-11-24T1200,2534A,105.0406,29.5822,内江市,内江日报社,细颗粒物(PM2.5),59,60,63,42,48,65,65,18,18,14,29,4,4,0.4,0.5
2025-11-24T1200,2628A,92.0657,31.4846,那曲市,那曲监测站,,50,50,38,24,20,90,90,75,60,8,17,6,9,0.6,1
2025-11-24T1200,4243A,92.0515,31.4787,那曲市,那曲市委宣传部,,28,28,19,9,10,71,71,68,57,6,6,4,4,0.7,0.6
2025-11-24T1200,1290A,115.8931,28.6843,南昌市,省外办,,46,46,65,29,51,52,52,50,50,37,40,4,4,0.9,1.1
2025-11-24T1200,1291A,115.8886,28.7003,南昌市,省林业公司,细颗粒物(PM2.5),55,51,65,39,45,56,56,55,54,36,39,6,7,0.9,1
2025-11-24T1200,1292A,115.8126,28.7442,南昌市,林科所,,,112,60,39,35,44,44,36,16,48,40,,6,0.9,0.8
2025-11-24T1200,1294A,115.8518,28.687,南昌市,建工学校,,,67,73,42,45,,,48,45,53,46,,13,,0.8
2025-11-24T1200,1295A,115.8921,28.6424,南昌市,象湖,颗粒物(PM10),89,128,68,36,46,54,54,50,50,44,49,16,12,0.8,0.9
2025-11-24T1200,1296A,115.7423,28.7996,南昌市,武术学校,,,,,,,,,,,,,,,,
2025-11-24T1200,3046A,115.9084,28.6062,南昌市,机电学校,颗粒物(PM10),67,84,91,44,56,57,57,35,35,42,64,12,11,0.6,0.8
2025-11-24T1200,3690A,115.9721,28.7031,南昌市,外国语学校,,50,43,72,35,49,64,64,52,52,31,45,11,12,0.5,0.7
2025-11-24T1200,4192A,115.9316,28.68677,南昌市,南京东路235号,,50,50,73,24,47,65,65,59,59,37,47,7,9,0.7,0.8
2025-11-24T1200,1905A,106.056,30.8064,南充市,西山风景区,,,,,,,,,,,,,,,,
2025-11-24T1200,1906A,106.0789,30.8023,南充市,南充市委,,,78,76,56,57,35,35,17,7,,30,6,4,0.5,0.6
2025-11-24T1200,1907A,106.1031,30.8217,南充市,南充炼油厂,细颗粒物(PM2.5),85,102,89,63,70,37,37,15,12,15,25,7,6,0.5,0.6
2025-11-24T1200,4227A,106.1083,30.7884,南充市,梨树横街98号,细颗粒物(PM2.5),74,68,72,54,61,40,40,23,18,16,21,6,6,0.5,0.5
2025-11-24T1200,4304A,106.1172,30.843,南充市,清泉寺北路188号,颗粒物(PM10),62,74,68,39,50,44,44,14,14,11,22,5,5,0.5,0.5
2025-11-24T1200,4305A,106.067,30.7616,南充市,同庆路1号,颗粒物(PM10),73,96,79,46,58,41,41,21,15,14,21,8,6,0.5,0.5
2025-11-24T1200,1151A,118.8086,32.1065,南京市,迈皋桥,"颗粒物(PM10),细颗粒物(PM2.5)",62,73,111,44,78,87,87,43,43,27,42,4,5,0.5,0.8
2025-11-24T1200,1152A,118.7538,32.0551,南京市,草场门,,,75,116,41,80,,,36,36,24,57,5,10,0.5,0.8
2025-11-24T1200,1153A,118.7794,32.0745,南京市,山西路,颗粒物(PM10),65,80,121,39,80,93,93,53,53,30,53,5,4,0.5,0.8
2025-11-24T1200,1154A,118.7752,32.0023,南京市,中华门,,,70,125,46,97,90,90,32,32,20,56,5,4,,1
2025-11-24T1200,1155A,118.8109,32.0309,南京市,瑞金路,细颗粒物(PM2.5),64,75,114,46,85,83,83,25,25,31,76,4,4,0.2,0.7
2025-11-24T1200,1156A,118.7997,32.0754,南京市,玄武湖,颗粒物(PM10),67,83,110,46,83,84,84,36,36,28,33,4,4,0.6,1
2025-11-24T1200,1157A,118.6414,32.0931,南京市,浦口,颗粒物(PM10),61,71,109,38,70,95,95,59,59,18,32,9,10,0.5,0.7
2025-11-24T1200,1158A,118.7356,31.9996,南京市,奥体中心,,,71,128,36,94,,,17,17,25,69,9,11,0.4,0.9
2025-11-24T1200,1159A,118.9125,32.1028,南京市,仙林大学城,,,,122,,87,,,18,18,29,61,9,11,0.6,1.1
2025-11-24T1200,3422A,118.8436,31.9198,南京市,江宁彩虹桥,颗粒物(PM10),66,81,115,44,80,101,101,34,34,21,64,10,9,0.6,1
2025-11-24T1200,3427A,118.8554,32.3578,南京市,六合雄州,细颗粒物(PM2.5),78,88,101,57,79,92,92,55,55,24,34,11,13,0.6,0.7
2025-11-24T1200,4249A,118.8708,31.3402,南京市,汶溪路181号,细颗粒物(PM2.5),79,64,89,58,86,96,96,50,50,28,50,9,9,0.8,0.9
2025-11-24T1200,4312A,119.019,31.6512,南京市,中山西路1号,细颗粒物(PM2.5),77,70,107,56,90,79,79,34,34,26,36,6,6,0.8,1.1
2025-11-24T1200,1401A,108.3103,22.7881,南宁市,二十一中,颗粒物(PM10),59,68,70,39,50,69,69,20,20,17,46,7,9,0.4,0.6
2025-11-24T1200,1402A,108.3141,22.8528,南宁市,北湖,,49,48,67,34,47,85,85,39,39,19,53,12,13,0.6,0.7
2025-11-24T1200,1403A,108.3206,22.8225,南宁市,市监测站,颗粒物(PM10),54,58,70,37,44,68,68,20,20,23,48,12,13,0.6,0.7
2025-11-24T1200,1404A,108.3829,22.8037,南宁市,大自然花园,细颗粒物(PM2.5),58,59,59,41,38,84,84,33,30,20,33,12,9,0.5,0.6
2025-11-24T1200,1405A,108.4394,22.7904,南宁市,仙葫,,,,,,,,,,,,,,,,
2025-11-24T1200,1406A,108.2397,22.8467,南宁市,区农职院,细颗粒物(PM2.5),53,49,55,37,37,73,73,30,30,14,28,9,13,0.7,0.7
2025-11-24T1200,1407A,108.3275,22.735,南宁市,英华嘉园,颗粒物(PM10),59,67,72,34,50,73,73,33,33,22,47,8,6,0.8,0.9
2025-11-24T1200,3401A,108.4834,22.7618,南宁市,红星社区,细颗粒物(PM2.5),52,44,50,36,39,93,93,36,36,17,34,10,8,0.5,0.6
2025-11-24T1200,4221A,108.2177,22.7774,南宁市,乐贤路16号,颗粒物(PM10),55,59,74,37,40,73,73,29,29,16,40,16,7,0.4,0.5
2025-11-24T1200,2331A,118.0966,26.6761,南平市,茫荡山,,,,24,,16,,,134,,,,,1,,0.3
2025-11-24T1200,2332A,118.1681,26.6369,南平市,南平市监测站,,30,26,35,20,28,93,93,36,36,11,28,5,4,0.5,0.6
2025-11-24T1200,2333A,118.1825,26.6489,南平市,南平铝业有限公司,,32,32,35,17,27,93,93,31,31,9,30,5,5,0.4,0.6
2025-11-24T1200,2334A,118.1756,26.6272,南平市,南平七中,,39,39,35,18,26,98,98,30,30,8,23,6,5,0.4,0.5
2025-11-24T1200,1168A,120.9098,31.9663,南通市,狼山街道,颗粒物(PM10),85,120,107,61,76,71,71,24,24,56,68,10,7,0.7,1
2025-11-24T1200,1169A,120.86,32.0005,南通市,虹桥,细颗粒物(PM2.5),103,112,122,77,92,62,62,20,20,69,86,13,12,1.2,1.4
2025-11-24T1200,1170A,120.87,32.02,南通市,城中,细颗粒物(PM2.5),93,133,137,69,87,73,73,23,23,52,79,13,12,0.9,1.2
2025-11-24T1200,1171A,120.94,31.93,南通市,星湖花园,细颗粒物(PM2.5),108,136,114,81,80,75,75,35,35,69,67,22,12,1.9,1
2025-11-24T1200,1172A,120.81,32.0417,南通市,紫琅学院,颗粒物(PM10),93,135,132,64,88,100,100,34,34,38,90,10,11,0.8,1.1
2025-11-24T1200,3291A,121.067,32.062,南通市,通州监测站,细颗粒物(PM2.5),83,100,103,61,83,104,104,36,36,38,76,11,8,0.7,0.9
2025-11-24T1200,3432A,120.9348,31.9883,南通市,环境教育馆,细颗粒物(PM2.5),90,105,100,67,81,72,72,24,24,61,69,13,9,0.6,0.8
2025-11-24T1200,2404A,112.5224,33.0122,南阳市,瓦房庄,颗粒物(PM10),76,101,90,52,45,36,36,11,11,39,41,8,7,0.5,0.7
2025-11-24T1200,2405A,112.5003,32.9735,南阳市,汉画馆,细颗粒物(PM2.5),72,89,84,52,41,51,51,11,11,27,40,8,7,0.5,0.6
2025-11-24T1200,2406A,112.5573,33.027,南阳市,气象站,颗粒物(PM10),90,130,98,63,40,33,33,15,15,52,46,9,9,0.7,0.6
2025-11-24T1200,2407A,112.5481,32.9689,南阳市,理工学院,颗粒物(PM10),71,91,88,40,39,42,42,10,10,32,46,7,7,0.6,0.7
2025-11-24T1200,4008A,112.5234,32.9922,南阳市,卧龙区政府,细颗粒物(PM2.5),72,92,89,52,44,36,36,9,9,37,44,7,6,0.6,0.7
2025-11-24T1200,1234A,121.8358,29.911,宁波市,区环保大楼,细颗粒物(PM2.5),103,120,63,77,38,139,139,51,51,62,57,19,8,0.8,0.8
2025-11-24T1200,1235A,121.56,29.82,宁波市,万里学院,细颗粒物(PM2.5),93,92,85,69,58,105,105,34,34,33,57,10,8,0.6,0.7
2025-11-24T1200,1236A,121.713,29.9572,宁波市,龙赛医院,细颗粒物(PM2.5),130,144,97,99,61,105,105,22,22,60,69,13,5,1.0,0.9
2025-11-24T1200,1239A,121.633,29.7733,宁波市,钱湖水厂,细颗粒物(PM2.5),92,93,56,68,42,96,96,47,47,46,27,10,7,0.8,0.7
2025-11-24T1200,1240A,121.5856,29.8635,宁波市,太古小学,细颗粒物(PM2.5),100,102,86,75,55,103,103,30,30,30,58,7,5,0.8,0.9
2025-11-24T1200,1241A,121.524,29.8674,宁波市,市环境监测中心,细颗粒物(PM2.5),83,95,80,61,57,96,96,27,27,33,62,11,9,0.8,0.9
2025-11-24T1200,2871A,121.6147,29.9017,宁波市,万里国际学校,细颗粒物(PM2.5),117,112,89,88,58,108,108,35,35,42,71,9,6,1.0,1
2025-11-24T1200,3710A,121.5594,29.8975,宁波市,白沙活动中心,细颗粒物(PM2.5),92,91,86,68,58,98,98,36,36,41,63,9,7,0.7,0.8
2025-11-24T1200,2339A,119.5001,26.6946,宁德市,金涵水库,,,,25,,16,,,57,,,10,,2,,0.4
2025-11-24T1200,2341A,119.5388,26.6612,宁德市,宁德市监测站,,,59,33,21,21,79,79,42,42,18,18,7,7,,0.7
2025-11-24T1200,3209A,119.5231,26.6562,宁德市,宁德一中,,,36,31,26,24,89,89,51,51,13,13,8,7,,1.1
2025-11-24T1200,2618A,98.8601,25.8567,怒江傈僳族自治州,州监测站,,17,17,22,10,15,40,40,28,25,5,8,7,7,0.3,0.3
2025-11-24T1200,2619A,98.8546,25.8417,怒江傈僳族自治州,泸水一中,,29,26,20,20,16,18,18,7,6,9,15,6,6,0.4,0.5
2025-11-24T1200,1888A,101.6891,26.571,攀枝花市,弄弄坪,,33,32,32,23,18,29,29,37,30,24,15,32,12,0.8,0.7
2025-11-24T1200,1889A,101.5769,26.5928,攀枝花市,河门口,,46,46,32,26,18,24,24,31,22,30,21,35,25,2.0,1.4
2025-11-24T1200,1890A,101.7169,26.585,攀枝花市,炳草岗,,36,36,35,23,15,24,24,34,27,30,19,56,14,1.0,0.7
2025-11-24T1200,1891A,101.7369,26.5008,攀枝花市,仁和,,,45,35,32,22,,,17,17,13,18,31,13,0.8,0.9
2025-11-24T1200,2835A,101.7227,26.567,攀枝花市,四十中小,,28,28,34,19,20,36,36,44,38,17,11,30,13,1.0,0.8
2025-11-24T1200,1604A,122.0303,41.1489,盘锦市,开发区,细颗粒物(PM2.5),79,90,84,58,81,54,54,31,31,18,47,6,7,0.5,1.3
2025-11-24T1200,1605A,122.0485,41.0883,盘锦市,兴隆台,细颗粒物(PM2.5),72,87,90,52,83,48,48,26,26,29,54,10,9,0.5,1.2
2025-11-24T1200,1606A,121.8297,41.1028,盘锦市,新生街道,颗粒物(PM10),70,90,76,47,70,51,51,17,17,28,67,10,9,0.4,1.3
2025-11-24T1200,1832A,113.3257,33.742,平顶山市,新华旅馆,颗粒物(PM10),188,325,118,41,35,84,84,59,59,10,24,8,8,0.4,0.4
2025-11-24T1200,1833A,113.2919,33.737,平顶山市,规划设计院,颗粒物(PM10),159,267,113,54,44,71,71,51,51,8,28,6,7,0.4,0.5
2025-11-24T1200,1834A,113.182,33.774,平顶山市,平顶山工学院,颗粒物(PM10),138,225,95,46,35,72,72,59,59,13,27,7,8,0.5,0.5
2025-11-24T1200,3204A,113.3025,33.73,平顶山市,规划局,颗粒物(PM10),223,366,126,40,40,71,71,55,55,11,29,8,8,0.5,0.5
2025-11-24T1200,3594A,112.8867,33.9116,平顶山市,石龙区,颗粒物(PM10),229,370,149,64,37,72,72,68,68,13,41,6,7,0.2,0.2
2025-11-24T1200,2656A,106.6692,35.5461,平凉市,聚贤嘉苑,,40,40,146,14,33,87,87,82,82,4,11,3,4,0.5,0.5
2025-11-24T1200,2657A,106.7021,35.5307,平凉市,博物馆,颗粒物(PM10),51,51,126,16,36,84,84,82,80,4,10,9,11,0.5,0.6
2025-11-24T1200,2347A,114.0997,27.5002,萍乡市,武功山,,,,,,,,,,,,,,,,
2025-11-24T1200,2348A,113.8385,27.6434,萍乡市,中医院,颗粒物(PM10),64,78,74,40,38,72,72,34,34,32,39,22,12,1.8,1.1
2025-11-24T1200,2349A,113.8493,27.6253,萍乡市,市政府车库,细颗粒物(PM2.5),58,59,57,41,47,71,71,39,39,30,32,22,11,1.0,0.9
2025-11-24T1200,2350A,113.8676,27.6435,萍乡市,市环保局,"颗粒物(PM10),细颗粒物(PM2.5)",58,66,60,41,41,82,82,46,46,24,23,22,15,1.1,0.7
2025-11-24T1200,2351A,113.866,27.6198,萍乡市,安源区政府,细颗粒物(PM2.5),59,46,54,42,47,74,74,42,42,21,24,20,12,0.8,0.8
2025-11-24T1200,2319A,119.0141,25.4325,莆田市,荔城区仓后路,颗粒物(PM10),51,51,46,20,26,97,97,56,56,14,19,3,4,0.5,0.6
2025-11-24T1200,2320A,119.0015,25.4553,莆田市,莆田市监测站,颗粒物(PM10),53,55,33,18,19,99,99,79,79,14,14,4,4,0.5,0.6
2025-11-24T1200,2321A,119.1119,25.4561,莆田市,涵江区六中,,47,47,35,16,18,96,96,63,63,10,17,3,4,0.4,0.5
2025-11-24T1200,2322A,119.1013,25.3215,莆田市,秀屿区政府,,44,44,36,16,22,95,95,75,75,9,14,4,4,0.2,0.4
2025-11-24T1200,2323A,118.981,25.4792,莆田市,东圳水库,,,,27,,22,,,100,,,12,,4,,0.9
2025-11-24T1200,2392A,115.0312,35.7636,濮阳市,环保局,颗粒物(PM10),131,212,116,24,44,67,67,45,45,8,39,9,11,0.6,0.8
2025-11-24T1200,2394A,115.0574,35.7609,濮阳市,油田运输公司,颗粒物(PM10),113,176,117,24,46,70,70,44,44,13,44,11,13,0.3,0.6
2025-11-24T1200,3021A,115,35.7668,濮阳市,濮水河管理处,颗粒物(PM10),152,254,130,30,55,70,70,37,37,8,39,8,10,0.1,0.3
2025-11-24T1200,4216A,115.0924,35.7686,濮阳市,任丘路479号,颗粒物(PM10),144,237,127,27,45,66,66,46,46,16,40,8,10,0.5,0.7
2025-11-24T1200,2601A,100.98,22.7633,普洱市,市环保局,,38,38,32,10,19,62,62,22,22,7,8,4,4,0.3,0.3
2025-11-24T1200,2602A,100.9817,22.8322,普洱市,普洱第二中学,,30,30,26,7,18,64,64,17,17,7,11,4,4,0.2,0.3
2025-11-24T1200,2262A,131.0518,45.8751,七台河市,新一中,,,,,,,,,,,,,,,,
2025-11-24T1200,3345A,131.0577,45.7879,七台河市,中波台,细颗粒物(PM2.5),202,186,123,152,102,39,39,39,28,36,30,15,10,0.8,0.8
2025-11-24T1200,3637A,131.0176,45.7761,七台河市,人民广场,细颗粒物(PM2.5),158,213,146,120,112,39,39,37,27,33,30,14,10,0.8,0.8
2025-11-24T1200,3684A,130.8781,45.8222,七台河市,新建矿广场,"颗粒物(PM10),细颗粒物(PM2.5)",57,63,131,40,86,51,51,27,27,13,26,11,10,0.5,0.8
2025-11-24T1200,1779A,123.9305,47.3636,齐齐哈尔市,安居小区,,31,31,44,16,26,48,48,45,44,10,16,6,8,0.3,0.3
2025-11-24T1200,1780A,123.9488,47.3386,齐齐哈尔市,中心广场,,23,23,33,9,19,48,48,55,50,15,17,6,7,0.3,0.3
2025-11-24T1200,1781A,123.9483,47.3227,齐齐哈尔市,农牧车辆厂,,24,24,36,16,17,42,42,46,42,10,12,4,5,0.4,0.4
2025-11-24T1200,1783A,123.945,47.2988,齐齐哈尔市,市环境监测站,,28,28,37,9,20,48,48,54,48,12,12,6,6,0.5,0.5
2025-11-24T1200,3662A,123.6333,47.2075,齐齐哈尔市,富区青少年活动中心,,,,44,,22,54,54,46,43,,16,4,6,0.5,0.6
2025-11-24T1200,2591A,107.9783,26.5747,黔东南苗族侗族自治州,市环境监测站,,46,37,56,32,48,68,68,44,44,11,11,9,7,0.6,0.6
2025-11-24T1200,2881A,107.8908,26.5311,黔东南苗族侗族自治州,凯里学院,细颗粒物(PM2.5),53,46,56,37,50,72,72,43,43,12,13,10,6,0.5,0.5
2025-11-24T1200,2593A,107.5228,26.2403,黔南布依族苗族自治州,小围寨,,35,31,43,24,34,66,66,47,47,7,8,8,11,0.5,0.6
2025-11-24T1200,3538A,107.5175,26.2978,黔南布依族苗族自治州,沙坝,,31,31,46,19,37,70,70,47,47,9,11,6,9,0.6,0.7
2025-11-24T1200,2589A,104.9022,25.0925,黔西南布依族苗族自治州,场坝街,细颗粒物(PM2.5),59,42,62,42,49,35,35,40,36,21,15,24,10,0.6,0.5
2025-11-24T1200,2590A,104.8811,25.0992,黔西南布依族苗族自治州,坪东大道,颗粒物(PM10),51,52,59,35,45,35,35,39,34,20,15,26,11,0.6,0.5
2025-11-24T1200,2502A,108.6236,21.9667,钦州市,市环保站,颗粒物(PM10),59,68,85,31,44,102,102,62,62,15,31,7,7,1.0,1.4
2025-11-24T1200,2503A,108.6549,21.9481,钦州市,沙埠小学,颗粒物(PM10),63,76,74,39,47,103,103,71,71,17,23,8,13,0.6,0.8
2025-11-24T1200,2504A,108.5989,21.7431,钦州市,港区一小,颗粒物(PM10),63,76,79,41,43,93,93,58,58,26,39,11,11,0.7,1.1
2025-11-24T1200,3404A,108.5959,21.9633,钦州市,北职校,细颗粒物(PM2.5),53,45,68,37,44,99,99,65,65,10,20,12,10,0.7,1.1
2025-11-24T1200,1043A,119.7493,40.0116,秦皇岛市,第一关,颗粒物(PM10),75,100,118,33,52,61,61,33,33,23,63,13,15,0.4,0.6
2025-11-24T1200,1044A,119.5897,39.9499,秦皇岛市,监测站,颗粒物(PM10),79,108,130,37,53,50,50,24,24,41,72,15,16,0.6,1.1
2025-11-24T1200,1046A,119.5251,39.9041,秦皇岛市,建设大厦,颗粒物(PM10),78,105,133,27,54,54,54,23,23,35,67,13,15,0.5,1
2025-11-24T1200,3132A,119.610547,39.943889,秦皇岛市,文明里,,,,134,,49,49,49,18,18,30,63,,18,,0.8
2025-11-24T1200,4198A,119.5090,39.8253,秦皇岛市,北戴河轮滑馆,颗粒物(PM10),69,88,147,30,60,56,56,28,28,21,61,13,14,0.4,1.3
2025-11-24T1200,1307A,120.6659,36.2403,青岛市,仰口,,,,,,,,,,,,,,,,
2025-11-24T1200,1310A,120.4134,36.0658,青岛市,市南区东部子站,颗粒物(PM10),90,129,149,63,83,51,51,22,22,60,71,21,17,0.8,1.1
2025-11-24T1200,1311A,120.3664,36.1032,青岛市,四方区子站,细颗粒物(PM2.5),134,166,159,102,101,36,36,17,17,75,75,19,13,0.8,1.2
