timepoint,stationcode,longitude,latitude,area,positionname,primarypollutant,aqi,pm10,pm10_24h,pm2_5,pm2_5_24h,o3,o3_24h,o3_8h,o3_8h_24h,no2,no2_24h,so2,so2_24h,co,co_24h
2023-04-15T15:00:00,1001A,116.3621,39.8784,北京市,万寿西宫,颗粒物(PM10),66,81,112,16,28,94,85,74,74,6,23,1,2,0.2,0.2
2023-04-15T15:00:00,1002A,116.2202,40.2915,北京市,定陵,颗粒物(PM10),56,61,125,30,46,104,93,88,88,6,6,3,3,0.1,0.1
2023-04-15T15:00:00,1003A,116.4174,39.9289,北京市,东四,颗粒物(PM10),67,83,131,42,46,106,91,86,86,13,17,3,3,0.1,0.2
2023-04-15T15:00:00,1004A,116.4072,39.8863,北京市,天坛,颗粒物(PM10),66,81,115,23,31,101,91,80,80,10,17,3,3,0.1,0.1
2023-04-15T15:00:00,1005A,116.462,39.9365,北京市,农展馆,颗粒物(PM10),66,82,125,33,40,93,84,76,76,12,24,3,2,0.2,0.2
2023-04-15T15:00:00,1006A,116.3392,39.9295,北京市,官园,颗粒物(PM10),66,81,128,18,29,94,83,75,75,8,21,2,1,0.2,0.2
2023-04-15T15:00:00,1007A,116.2878,39.9611,北京市,海淀万柳,颗粒物(PM10),65,80,110,18,33,83,76,66,66,11,23,3,3,0.2,0.2
2023-04-15T15:00:00,1008A,116.6636,40.135,北京市,顺义新城,颗粒物(PM10),68,86,170,19,31,101,85,81,81,7,9,3,3,0.2,0.2
2023-04-15T15:00:00,1009A,116.6275,40.3275,北京市,怀柔镇,颗粒物(PM10),69,87,141,22,38,95,86,78,78,13,15,3,3,0.2,0.2
2023-04-15T15:00:00,1010A,116.2296,40.217,北京市,昌平镇,颗粒物(PM10),61,72,137,18,26,96,88,83,83,6,9,2,2,0.1,0.1
2023-04-15T15:00:00,1011A,116.3966,39.9821,北京市,奥体中心,颗粒物(PM10),64,77,123,26,27,91,83,74,74,9,24,4,4,0.2,0.2
2023-04-15T15:00:00,1012A,116.184,39.9136,北京市,古城,颗粒物(PM10),71,91,112,15,16,101,91,74,74,9,16,3,3,0.1,0
2023-04-15T15:00:00,1015A,117.1444,39.1661,天津市,勤俭道,颗粒物(PM10),143,235,163,51,38,103,89,74,74,15,39,5,6,0.3,0.3
2023-04-15T15:00:00,1017A,117.237,39.1082,天津市,大直沽八号路,颗粒物(PM10),162,273,160,58,47,96,80,71,71,16,38,7,6,0.2,0.2
2023-04-15T15:00:00,1018A,117.202,39.0927,天津市,前进道,颗粒物(PM10),145,240,148,57,41,100,82,73,73,17,42,5,3,0.2,0.2
2023-04-15T15:00:00,1019A,117.1837,39.2133,天津市,淮河道,颗粒物(PM10),133,216,169,50,37,99,88,72,72,14,39,4,4,0,0
2023-04-15T15:00:00,1021A,117.307,39.0877,天津市,跃进路,颗粒物(PM10),143,236,155,53,45,97,78,63,63,17,41,7,5,0.2,0.3
2023-04-15T15:00:00,1023A,117.707,39.0343,天津市,第四大街,颗粒物(PM10),164,277,181,44,37,94,61,51,51,36,52,11,8,0.7,0.5
2023-04-15T15:00:00,1024A,117.457,38.8394,天津市,永明路,颗粒物(PM10),157,263,161,84,54,97,72,51,51,28,64,8,8,0.7,0.7
2023-04-15T15:00:00,1026A,117.764,39.1587,天津市,汉北路,颗粒物(PM10),205,353,199,75,50,97,71,53,53,25,51,10,12,0.6,0.4
2023-04-15T15:00:00,1027A,117.157,38.9194,天津市,团泊洼,颗粒物(PM10),117,184,164,35,45,99,72,60,60,36,49,9,7,0.4,0.3
2023-04-15T15:00:00,1029A,114.4422,38.0444,石家庄市,职工医院,颗粒物(PM10),52,53,455,21,87,110,110,72,72,7,41,5,10,0.3,0.7
2023-04-15T15:00:00,1030A,114.6063,38.0266,石家庄市,高新区,细颗粒物(PM2.5),69,58,487,50,114,104,104,71,71,3,35,4,7,0.4,0.8
2023-04-15T15:00:00,1031A,114.4898,38.1328,石家庄市,西北水源,颗粒物(PM10),86,122,480,37,101,104,104,64,64,1,37,2,4,0.3,0.7
2023-04-15T15:00:00,1032A,114.4586,38.0058,石家庄市,西南高教,颗粒物(PM10),52,54,463,14,111,107,107,71,71,9,43,5,9,0.2,0.6
2023-04-15T15:00:00,1033A,114.5331,38.0178,石家庄市,世纪公园,颗粒物(PM10),55,59,440,21,95,102,102,64,64,7,33,6,9,0.4,0.7
2023-04-15T15:00:00,1034A,114.509,38.0457,石家庄市,人民会堂,颗粒物(PM10),53,55,463,31,93,105,105,68,68,10,34,5,8,0.4,0.7
2023-04-15T15:00:00,1035A,114.3524,37.8911,石家庄市,封龙山,颗粒物(PM10),72,93,336,15,62,110,102,98,98,7,11,7,7,0.6,0.7
2023-04-15T15:00:00,1037A,118.131,39.6363,唐山市,雷达站,颗粒物(PM10),114,178,197,61,82,102,88,68,68,15,39,3,3,0.3,0.4
2023-04-15T15:00:00,1038A,118.1725,39.6334,唐山市,物资局,颗粒物(PM10),121,192,218,41,43,95,84,66,66,13,28,4,4,0.4,0.3
2023-04-15T15:00:00,1040A,118.1705,39.6506,唐山市,十二中,颗粒物(PM10),116,182,215,45,52,104,91,74,74,2,18,3,4,0.3,0.3
2023-04-15T15:00:00,1041A,118.1869,39.622,唐山市,小山,颗粒物(PM10),129,208,230,48,111,107,94,75,75,5,27,4,3,0.3,0.3
2023-04-15T15:00:00,1042A,119.5134,39.8207,秦皇岛市,北戴河环保局,颗粒物(PM10),188,325,266,59,57,114,89,78,78,,29,2,3,0.3,0.9
2023-04-15T15:00:00,1043A,119.7493,40.0116,秦皇岛市,第一关,颗粒物(PM10),307,425,310,48,61,102,81,79,79,7,35,2,4,0.5,0.6
2023-04-15T15:00:00,1044A,119.5897,39.9499,秦皇岛市,监测站,颗粒物(PM10),187,323,255,51,61,111,86,77,77,4,43,2,5,0.4,0.6
2023-04-15T15:00:00,1046A,119.5251,39.9041,秦皇岛市,建设大厦,颗粒物(PM10),190,330,282,39,52,113,92,83,83,2,39,5,8,0.3,0.6
2023-04-15T15:00:00,1048A,114.5302,36.6116,邯郸市,东污水处理厂,细颗粒物(PM2.5),139,141,440,106,143,90,90,57,57,10,36,8,12,0.3,0.6
2023-04-15T15:00:00,1049A,114.4918,36.5713,邯郸市,矿院,颗粒物(PM10),89,128,434,41,145,94,94,59,59,6,36,4,8,0.4,0.7
2023-04-15T15:00:00,1050A,114.484,36.6133,邯郸市,丛台公园,颗粒物(PM10),85,119,493,33,137,89,89,61,61,13,30,5,13,0.3,0.7
2023-04-15T15:00:00,1051A,115.493,38.8632,保定市,游泳馆,颗粒物(PM10),105,159,409,70,128,95,72,55,55,17,36,6,7,0.2,0.4
2023-04-15T15:00:00,1052A,115.5213,38.8959,保定市,华电二区,颗粒物(PM10),94,138,434,28,111,90,69,50,50,12,35,5,7,0.3,1
2023-04-15T15:00:00,1053A,115.4713,38.9108,保定市,接待中心,颗粒物(PM10),86,122,400,47,119,90,66,48,48,13,33,7,8,0.2,0.5
2023-04-15T15:00:00,1054A,115.4612,38.8416,保定市,地表水厂,颗粒物(PM10),120,189,516,29,74,84,65,51,51,21,46,6,8,0.2,0.5
2023-04-15T15:00:00,1056A,115.5086,38.8639,保定市,监测站,颗粒物(PM10),117,183,486,31,123,96,72,55,55,17,38,5,10,0,0.2
2023-04-15T15:00:00,1057A,114.8883,40.8336,张家口市,人民公园,,31,23,100,4,18,103,99,87,87,2,4,4,3,0.4,0.3
2023-04-15T15:00:00,1059A,114.8687,40.8042,张家口市,五金库,,31,24,86,8,21,97,97,82,82,5,10,3,2,0.2,0.3
2023-04-15T15:00:00,1060A,114.8902,40.762,张家口市,世纪豪园,,,,100,,29,99,97,83,83,2,7,2,2,0.3,0.2
2023-04-15T15:00:00,1061A,114.8916,40.8661,张家口市,北泵房,,33,13,84,2,20,110,105,94,94,3,6,9,8,0.4,0.3
2023-04-15T15:00:00,1062A,117.9531,40.9081,承德市,铁路,,29,15,375,7,66,106,92,90,83,4,9,9,8,0.2,0.2
2023-04-15T15:00:00,1063A,117.9392,40.9763,承德市,中国银行,,38,38,347,1,73,105,96,85,85,3,8,7,6,0.2,0.2
2023-04-15T15:00:00,1064A,117.9503,40.928,承德市,开发区,,32,29,327,6,62,113,101,94,89,4,10,7,6,0.2,0.2
2023-04-15T15:00:00,1065A,117.8051,40.9655,承德市,文化中心,,30,27,356,8,81,109,96,88,88,2,8,6,6,0.2,0.2
2023-04-15T15:00:00,1066A,117.9268,41.0026,承德市,离宫,,32,4,258,7,60,115,102,96,96,2,5,2,2,0.2,0.2
2023-04-15T15:00:00,1067A,116.6708,39.5111,廊坊市,药材公司,细颗粒物(PM2.5),115,85,119,87,48,102,90,79,79,17,31,2,1,0.3,0.3
2023-04-15T15:00:00,1068A,116.7214,39.5589,廊坊市,开发区,细颗粒物(PM2.5),74,90,120,54,59,107,95,80,80,14,28,6,5,0.4,0.4
2023-04-15T15:00:00,1070A,116.7244,39.5269,廊坊市,北华航天学院,颗粒物(PM10),74,97,123,37,42,104,89,76,76,9,27,5,4,0.3,0.4
2023-04-15T15:00:00,1071A,116.8842,38.2991,沧州市,沧县城建局,颗粒物(PM10),282,407,344,151,87,104,104,52,52,25,59,12,10,0.6,0.7
2023-04-15T15:00:00,1072A,116.8584,38.3254,沧州市,电视转播站,颗粒物(PM10),208,355,271,92,67,99,97,48,48,35,56,12,7,0.6,0.7
2023-04-15T15:00:00,1073A,116.8709,38.3228,沧州市,市环保局,颗粒物(PM10),199,348,271,,56,108,106,52,52,30,52,7,4,0.5,0.4
2023-04-15T15:00:00,1074A,115.6838,37.7541,衡水市,电机北厂,颗粒物(PM10),151,252,412,47,103,108,98,74,74,11,25,1,5,0.2,0.5
2023-04-15T15:00:00,1075A,115.6303,37.7316,衡水市,市监测站,颗粒物(PM10),418,518,422,32,83,103,94,68,68,3,23,6,8,0.4,0.7
2023-04-15T15:00:00,1077A,114.4704,37.0886,邢台市,达活泉,细颗粒物(PM2.5),124,95,590,94,187,106,100,65,65,2,31,9,9,0.2,0.5
2023-04-15T15:00:00,1078A,114.5062,37.0349,邢台市,邢师高专,细颗粒物(PM2.5),79,68,504,58,137,100,97,61,61,6,35,2,3,0.3,0.6
2023-04-15T15:00:00,1079A,114.5237,37.0851,邢台市,路桥公司,颗粒物(PM10),73,95,484,19,102,100,97,65,65,2,23,5,9,0.4,1
2023-04-15T15:00:00,1080A,114.4725,37.0719,邢台市,市环保局,细颗粒物(PM2.5),85,102,613,63,154,109,107,71,71,2,25,3,5,0.2,0.5
2023-04-15T15:00:00,1081A,112.522,37.8873,太原市,尖草坪,颗粒物(PM10),92,133,266,21,71,117,117,92,92,6,36,4,6,0.2,0.4
2023-04-15T15:00:00,1083A,112.434,38.0108,太原市,上兰,,,,,,,,,,,,,,,,
2023-04-15T15:00:00,1084A,112.469,37.7124,太原市,晋源,颗粒物(PM10),68,86,231,16,61,115,115,77,77,5,40,5,6,0.3,0.4
2023-04-15T15:00:00,1085A,112.5583,37.7394,太原市,小店,颗粒物(PM10),81,112,306,18,93,111,111,75,75,11,49,2,7,0.3,0.5
2023-04-15T15:00:00,1086A,112.5369,37.8692,太原市,桃园,颗粒物(PM10),85,119,248,19,76,114,114,89,89,8,39,3,6,0.2,0.4
2023-04-15T15:00:00,1087A,112.57,37.8195,太原市,坞城,颗粒物(PM10),81,111,293,42,104,114,114,89,89,7,38,6,10,0.3,0.6
2023-04-15T15:00:00,1088A,112.549,37.9854,太原市,南寨,颗粒物(PM10),74,98,266,25,76,110,110,87,87,11,36,4,4,0.3,0.4
2023-04-15T15:00:00,1090A,111.6507,40.7517,呼和浩特市,呼市一监,,46,46,99,9,33,104,97,89,89,40,17,4,7,0.3,0.3
2023-04-15T15:00:00,1091A,111.6572,40.8033,呼和浩特市,小召,颗粒物(PM10),58,66,97,9,25,95,94,89,89,9,17,7,9,0.3,0.3
2023-04-15T15:00:00,1094A,111.7516,40.8369,呼和浩特市,如意水处理厂,,37,37,96,7,24,98,95,92,92,3,14,5,6,0.4,0.4
2023-04-15T15:00:00,1095A,111.7276,40.8062,呼和浩特市,二十九中,,50,50,98,9,24,100,99,93,93,5,15,6,7,0.3,0.3
2023-04-15T15:00:00,1096A,111.5512,40.7866,呼和浩特市,工大金川校区,,41,41,99,10,21,98,93,90,83,4,14,6,7,0.4,0.4
2023-04-15T15:00:00,1097A,111.717,40.7612,呼和浩特市,化肥厂生活区,颗粒物(PM10),60,70,112,11,25,85,74,78,78,28,23,6,7,0.2,0.3
2023-04-15T15:00:00,1098A,123.6836,41.9339,沈阳市,森林路,,,,,,,,,,,,,,,,
2023-04-15T15:00:00,1099A,123.505,41.7406,沈阳市,浑南东路,颗粒物(PM10),113,175,236,33,75,105,105,75,75,10,46,9,14,0.4,0.9
2023-04-15T15:00:00,1100A,123.4231,41.6989,沈阳市,新秀街,颗粒物(PM10),117,184,219,25,47,98,98,74,74,7,42,5,11,0.3,0.8
2023-04-15T15:00:00,1102A,123.5903,41.8411,沈阳市,东陵路,颗粒物(PM10),113,175,193,34,63,101,101,72,72,11,36,8,11,0.3,0.8
2023-04-15T15:00:00,1103A,123.4264,41.8467,沈阳市,陵东街,颗粒物(PM10),71,92,213,16,55,104,104,80,80,8,41,8,10,0.4,0.9
2023-04-15T15:00:00,1104A,123.4114,41.7653,沈阳市,文化路,颗粒物(PM10),95,140,228,34,79,102,102,74,74,9,48,6,11,0.4,1
2023-04-15T15:00:00,1105A,123.4678,41.7867,沈阳市,小河沿,颗粒物(PM10),85,120,242,26,72,97,97,72,72,14,52,8,11,0.4,0.9
2023-04-15T15:00:00,1106A,123.4017,41.7972,沈阳市,太原街,颗粒物(PM10),95,140,240,43,89,98,98,72,72,13,50,9,12,0.4,1
2023-04-15T15:00:00,1108A,123.3783,41.9228,沈阳市,京沈街,颗粒物(PM10),84,118,258,25,78,108,103,80,80,8,43,10,16,0.4,0.8
2023-04-15T15:00:00,1109A,121.612,38.9741,大连市,甘井子,颗粒物(PM10),151,252,223,66,79,104,101,87,87,10,33,4,5,0.5,0.6
2023-04-15T15:00:00,1110A,121.565,38.9511,大连市,周水子,颗粒物(PM10),137,224,184,51,49,99,98,83,83,13,39,2,6,0.3,0.8
2023-04-15T15:00:00,1111A,121.5637,38.8845,大连市,星海三站,颗粒物(PM10),198,345,189,82,51,100,95,78,78,22,32,6,9,0.4,0.5
2023-04-15T15:00:00,1112A,121.6302,38.9117,大连市,青泥洼桥,颗粒物(PM10),249,384,207,81,55,108,108,85,85,12,34,5,7,0.5,0.8
2023-04-15T15:00:00,1113A,121.6251,38.8638,大连市,傅家庄,颗粒物(PM10),184,317,171,69,50,102,94,77,77,21,18,8,8,0.6,0.6
2023-04-15T15:00:00,1114A,121.5213,38.8661,大连市,七贤岭,颗粒物(PM10),178,305,179,76,51,106,103,94,94,12,21,5,7,0.5,0.5
2023-04-15T15:00:00,1115A,121.2529,38.8061,大连市,旅顺,颗粒物(PM10),169,287,170,68,46,96,91,86,86,14,24,6,8,0.4,0.5
2023-04-15T15:00:00,1116A,121.7485,39.1311,大连市,金州,颗粒物(PM10),151,251,204,68,54,108,93,75,75,10,30,5,8,0.5,0.7
2023-04-15T15:00:00,1117A,121.7811,39.0496,大连市,开发区,颗粒物(PM10),144,237,157,71,51,89,85,73,73,16,28,6,8,0.4,0.5
2023-04-15T15:00:00,1118A,121.9762,39.0631,大连市,双D港,颗粒物(PM10),215,360,195,77,47,105,105,92,92,26,19,11,6,0.5,0.4
2023-04-15T15:00:00,1119A,125.3325,43.9166,长春市,食品厂,颗粒物(PM10),129,207,132,65,68,137,121,101,101,17,50,4,9,0.4,0.7
2023-04-15T15:00:00,1120A,125.2863,43.9027,长春市,客车厂,颗粒物(PM10),123,196,110,49,59,141,133,98,98,18,55,6,11,0.4,0.6
2023-04-15T15:00:00,1121A,125.2841,43.8463,长春市,邮电学院,颗粒物(PM10),136,222,94,58,46,133,127,99,99,17,38,8,10,0.5,0.6
2023-04-15T15:00:00,1122A,125.3716,43.8772,长春市,劳动公园,颗粒物(PM10),125,199,112,55,49,138,132,98,98,11,43,6,11,0.4,0.6
2023-04-15T15:00:00,1123A,125.3297,43.8805,长春市,园林处,颗粒物(PM10),124,197,99,56,52,131,124,96,96,,45,7,13,0.5,0.7
2023-04-15T15:00:00,1124A,125.4605,43.79,长春市,净月潭,颗粒物(PM10),129,208,86,60,40,139,139,114,114,8,10,5,7,0.5,0.5
2023-04-15T15:00:00,1125A,125.7194,43.515,长春市,甩湾子,,,,,,,,,,,,,,,,
2023-04-15T15:00:00,1126A,125.3863,43.8447,长春市,经开区环卫处,颗粒物(PM10),139,228,111,58,48,137,124,99,99,17,54,8,10,0.4,0.5
2023-04-15T15:00:00,1127A,125.245,43.7783,长春市,高新区管委会,颗粒物(PM10),122,193,111,64,62,135,129,102,102,15,42,9,9,0.5,0.5
2023-04-15T15:00:00,1128A,125.1761,43.8325,长春市,岱山公园,颗粒物(PM10),112,174,89,57,43,131,125,96,96,16,40,7,8,0.4,0.4
2023-04-15T15:00:00,1129A,126.5422,45.755,哈尔滨市,岭北,颗粒物(PM10),54,58,85,32,57,136,136,107,107,12,20,15,17,0.5,0.7
2023-04-15T15:00:00,1130A,126.561,45.8167,哈尔滨市,松北商大,颗粒物(PM10),52,54,75,29,48,134,134,107,107,13,25,24,11,0.4,0.5
2023-04-15T15:00:00,1131A,126.979,45.5419,哈尔滨市,阿城会宁,颗粒物(PM10),66,81,100,33,54,125,125,100,100,12,27,17,15,0.3,0.4
2023-04-15T15:00:00,1132A,126.599,45.7222,哈尔滨市,南岗学府路,颗粒物(PM10),62,73,83,40,49,125,125,96,96,16,30,8,10,0.5,0.6
2023-04-15T15:00:00,1133A,126.689,45.7733,哈尔滨市,太平宏伟公园,颗粒物(PM10),69,88,106,39,67,122,122,97,97,24,38,6,6,0.4,0.6
2023-04-15T15:00:00,1134A,126.635,45.7667,哈尔滨市,道外承德广场,颗粒物(PM10),61,71,91,38,57,120,120,89,89,20,32,8,15,0.5,0.8
2023-04-15T15:00:00,1135A,126.685,45.7319,哈尔滨市,香坊红旗大街,颗粒物(PM10),69,87,90,44,64,124,124,96,96,21,36,16,22,0.4,0.6
2023-04-15T15:00:00,1136A,126.6411,45.7258,哈尔滨市,动力和平路,颗粒物(PM10),66,82,76,42,48,126,126,98,98,20,30,12,15,0.6,0.9
2023-04-15T15:00:00,1137A,126.593,45.7478,哈尔滨市,道里建国路,细颗粒物(PM2.5),69,76,81,50,54,128,128,102,102,16,29,13,16,0.4,0.5
2023-04-15T15:00:00,1138A,126.615,45.61,哈尔滨市,平房东轻厂,颗粒物(PM10),60,70,100,38,69,122,122,99,99,14,38,9,13,0.5,0.7
2023-04-15T15:00:00,1139A,126.595,45.9855,哈尔滨市,呼兰师专,颗粒物(PM10),60,69,75,32,48,126,126,102,102,15,22,10,11,0.6,0.7
2023-04-15T15:00:00,1140A,126.6206,45.6842,哈尔滨市,省农科院,颗粒物(PM10),69,88,92,44,44,130,130,102,102,22,38,12,15,0.5,0.7
2023-04-15T15:00:00,1141A,121.4,31.238,上海市,普陀,颗粒物(PM10),66,81,67,29,38,125,125,103,92,25,38,4,5,0.6,0.9
2023-04-15T15:00:00,1142A,121.478,31.2036,上海市,十五厂,颗粒物(PM10),57,63,64,34,37,118,118,98,90,22,40,7,8,0.8,1
2023-04-15T15:00:00,1143A,121.467,31.3008,上海市,虹口,颗粒物(PM10),65,80,65,32,38,117,117,92,88,21,36,6,7,0.6,0.7
2023-04-15T15:00:00,1144A,121.412,31.1654,上海市,徐汇上师大,颗粒物(PM10),53,56,65,28,47,128,128,100,97,27,41,8,8,0.6,0.8
2023-04-15T15:00:00,1145A,121.536,31.2659,上海市,杨浦四漂,颗粒物(PM10),65,80,71,35,39,118,118,98,90,24,40,8,10,0.6,0.7
2023-04-15T15:00:00,1147A,121.425,31.2261,上海市,静安监测站,颗粒物(PM10),57,64,85,36,44,122,122,102,90,26,41,5,6,0.6,0.9
2023-04-15T15:00:00,1148A,121.703,31.1907,上海市,浦东川沙,颗粒物(PM10),69,87,63,32,40,96,95,90,79,28,32,5,7,0.8,0.8
2023-04-15T15:00:00,1149A,121.533,31.2284,上海市,浦东新区监测站,,,76,80,,38,102,,100,86,,42,,9,,0.8
2023-04-15T15:00:00,1150A,121.577,31.2071,上海市,浦东张江,颗粒物(PM10),69,88,58,29,32,114,114,102,92,22,35,4,5,0.9,0.9
2023-04-15T15:00:00,1151A,118.8086,32.1065,南京市,迈皋桥,,,,104,63,39,159,155,123,123,10,23,7,7,0.4,0.5
2023-04-15T15:00:00,1152A,118.7538,32.0551,南京市,草场门,颗粒物(PM10),145,239,117,58,40,153,148,118,116,11,22,6,7,0.7,0.9
2023-04-15T15:00:00,1153A,118.7794,32.0745,南京市,山西路,颗粒物(PM10),153,256,123,53,41,156,151,118,118,6,22,5,6,0.4,0.5
2023-04-15T15:00:00,1154A,118.7752,32.0023,南京市,中华门,颗粒物(PM10),135,219,116,88,38,150,149,119,119,14,31,6,5,1.0,0.9
2023-04-15T15:00:00,1155A,118.8109,32.0309,南京市,瑞金路,颗粒物(PM10),138,225,108,53,41,153,153,121,118,8,14,7,8,0.8,0.6
2023-04-15T15:00:00,1156A,118.7997,32.0754,南京市,玄武湖,颗粒物(PM10),127,204,107,51,45,150,145,112,112,5,19,8,9,0.4,0.6
2023-04-15T15:00:00,1157A,118.6414,32.0931,南京市,浦口,颗粒物(PM10),151,251,126,63,40,154,138,115,115,12,17,6,6,0.7,0.8
2023-04-15T15:00:00,1158A,118.7356,31.9996,南京市,奥体中心,颗粒物(PM10),129,208,109,56,43,152,146,120,118,11,22,8,8,0.6,0.6
2023-04-15T15:00:00,1159A,118.9125,32.1028,南京市,仙林大学城,颗粒物(PM10),156,261,124,66,44,143,143,108,108,15,27,10,9,0.7,0.8
2023-04-15T15:00:00,1160A,120.561,31.2472,苏州市,上方山,颗粒物(PM10),66,82,80,33,44,127,127,85,85,10,27,7,8,0.4,0.6
2023-04-15T15:00:00,1162A,120.591,31.3019,苏州市,彩香,颗粒物(PM10),74,97,91,46,44,160,160,107,107,8,28,6,6,0.6,0.7
2023-04-15T15:00:00,1163A,120.596,31.3264,苏州市,轧钢厂,颗粒物(PM10),82,113,101,50,41,152,152,103,103,6,26,8,8,0.7,0.8
2023-04-15T15:00:00,1164A,120.613,31.2703,苏州市,吴中区,颗粒物(PM10),65,80,86,36,41,158,158,107,107,13,30,8,8,0.6,0.8
2023-04-15T15:00:00,1165A,120.543,31.2994,苏州市,苏州新区,颗粒物(PM10),73,95,91,45,45,160,160,105,105,9,26,6,6,0.6,0.8
2023-04-15T15:00:00,1166A,120.669,31.3097,苏州市,苏州工业园区,颗粒物(PM10),76,101,91,50,43,149,149,99,99,11,30,9,9,0.6,0.7
2023-04-15T15:00:00,1167A,120.641,31.3708,苏州市,相城区,颗粒物(PM10),73,95,82,50,38,156,156,108,108,5,20,6,8,0.7,0.7
2023-04-15T15:00:00,1168A,120.9098,31.9663,南通市,狼山街道,颗粒物(PM10),69,88,57,39,28,178,132,102,102,25,11,19,7,1.3,0.7
2023-04-15T15:00:00,1169A,120.86,32.0005,南通市,虹桥,颗粒物(PM10),79,108,62,37,30,185,141,104,104,27,17,13,6,0.9,0.5
2023-04-15T15:00:00,1170A,120.87,32.02,南通市,城中,颗粒物(PM10),73,96,70,32,31,181,139,106,106,22,12,18,8,1.0,0.5
2023-04-15T15:00:00,1171A,120.94,31.93,南通市,星湖花园,颗粒物(PM10),71,91,59,39,32,160,130,96,96,24,18,12,7,0.8,0.6
2023-04-15T15:00:00,1172A,120.81,32.0417,南通市,紫琅学院,颗粒物(PM10),74,97,53,39,28,163,132,96,96,19,16,6,5,0.4,0.4
2023-04-15T15:00:00,1173A,119.176,34.5885,连云港市,市环境监测站,颗粒物(PM10),158,266,142,53,38,151,119,79,79,8,25,7,6,0.4,0.6
2023-04-15T15:00:00,1177A,117.179,34.2761,徐州市,黄河新村,颗粒物(PM10),324,439,207,91,66,132,132,100,100,12,24,9,8,0.7,0.8
2023-04-15T15:00:00,1178A,117.1918,34.2384,徐州市,淮塔,颗粒物(PM10),266,396,178,95,63,143,131,109,109,,18,11,9,0.2,0.7
2023-04-15T15:00:00,1180A,117.256,34.2153,徐州市,新城区,颗粒物(PM10),252,386,169,75,60,136,129,97,97,12,21,11,10,0.7,0.7
2023-04-15T15:00:00,1181A,117.244,34.2911,徐州市,桃园路,颗粒物(PM10),293,415,196,85,64,137,136,105,105,11,24,10,8,0.6,0.8
2023-04-15T15:00:00,1182A,117.2933,34.2778,徐州市,农科院,颗粒物(PM10),293,415,177,73,56,146,136,102,102,8,20,9,8,0.8,0.9
2023-04-15T15:00:00,1186A,119.389,32.3761,扬州市,邗江监测站,颗粒物(PM10),165,280,113,40,39,158,145,109,108,16,16,9,10,0.6,0.8
2023-04-15T15:00:00,1188A,120.269,31.4867,无锡市,雪浪,颗粒物(PM10),90,129,87,41,39,157,157,106,106,11,24,9,9,0.7,0.8
2023-04-15T15:00:00,1189A,120.275,31.6219,无锡市,黄巷,颗粒物(PM10),119,188,103,66,43,152,152,102,102,15,33,6,7,0.7,0.8
2023-04-15T15:00:00,1190A,120.294,31.56,无锡市,曹张,颗粒物(PM10),86,122,83,46,40,147,147,95,95,15,31,5,6,0.4,0.6
2023-04-15T15:00:00,1191A,120.242,31.5031,无锡市,漆塘,颗粒物(PM10),86,122,82,44,38,145,145,101,101,5,17,7,7,0.7,0.7
2023-04-15T15:00:00,1192A,120.3489,31.5863,无锡市,东亭,颗粒物(PM10),106,161,92,51,40,156,156,106,106,17,31,10,10,0.9,1
2023-04-15T15:00:00,1193A,120.354,31.5475,无锡市,旺庄,颗粒物(PM10),95,139,83,46,36,153,153,101,101,15,26,10,10,0.7,0.9
2023-04-15T15:00:00,1194A,120.245,31.5631,无锡市,荣巷,颗粒物(PM10),100,149,80,53,38,152,152,103,103,13,21,12,12,0.6,0.6
2023-04-15T15:00:00,1195A,120.299,31.6817,无锡市,堰桥,颗粒物(PM10),118,185,92,51,37,152,152,110,110,19,26,7,8,0.5,0.5
2023-04-15T15:00:00,1196A,119.9633,31.762,常州市,市监测站,细颗粒物(PM2.5),78,103,118,57,45,149,149,102,102,11,24,6,6,0.6,0.7
2023-04-15T15:00:00,1200A,119.9468,31.7069,常州市,武进监测站,颗粒物(PM10),71,92,120,44,44,151,151,110,108,12,25,10,13,0.6,0.7
2023-04-15T15:00:00,1201A,119.9255,31.9087,常州市,安家,细颗粒物(PM2.5),88,118,114,65,47,143,143,108,108,11,23,7,10,0.5,0.7
2023-04-15T15:00:00,1203A,119.6707,32.1875,镇江市,新区办事处,颗粒物(PM10),90,130,98,29,43,148,148,98,98,7,37,4,5,0.4,0.8
2023-04-15T15:00:00,1204A,119.4974,32.1968,镇江市,职教中心,颗粒物(PM10),98,145,96,34,52,155,155,114,107,13,21,5,5,0.4,0.6
2023-04-15T15:00:00,1205A,119.4303,32.1328,镇江市,丹徒区监测站,颗粒物(PM10),117,183,122,43,46,165,165,113,111,11,25,5,4,0.5,0.5
2023-04-15T15:00:00,1206A,119.905,32.4878,泰州市,公园路,颗粒物(PM10),98,146,82,39,38,139,139,109,109,12,15,8,14,0.3,0.5
2023-04-15T15:00:00,1207A,119.9189,32.4625,泰州市,莲花,颗粒物(PM10),100,149,87,39,37,149,149,114,114,18,17,8,10,0.3,0.4
2023-04-15T15:00:00,1209A,119.888,32.4639,泰州市,留学生创业园,颗粒物(PM10),77,104,88,46,33,133,133,104,104,24,22,9,12,0.2,0.4
2023-04-15T15:00:00,1210A,119.036,33.5981,淮安市,钵池山,颗粒物(PM10),181,312,155,41,57,149,112,89,89,11,19,8,9,0.5,0.9
2023-04-15T15:00:00,1211A,119.007,33.575,淮安市,北京南路,颗粒物(PM10),167,283,162,35,57,155,118,84,84,16,24,10,11,0.4,0.8
2023-04-15T15:00:00,1212A,118.989,33.6067,淮安市,市监测站,,,,163,,51,162,120,89,89,14,23,8,8,,1
2023-04-15T15:00:00,1213A,119.135,33.5039,淮安市,楚州区监测站,颗粒物(PM10),203,352,172,52,55,150,116,87,87,10,21,8,9,0.4,0.8
2023-04-15T15:00:00,1214A,119.0186,33.6297,淮安市,淮阴区监测站,颗粒物(PM10),192,333,168,45,53,152,106,85,85,20,24,10,10,0.7,0.7
2023-04-15T15:00:00,1215A,120.118,33.4022,盐城市,盐城电厂,颗粒物(PM10),120,190,106,39,32,171,138,107,107,11,11,10,9,0.4,0.4
2023-04-15T15:00:00,1216A,120.156,33.3942,盐城市,市监测站,颗粒物(PM10),118,185,100,33,30,141,125,98,98,9,12,9,7,0.4,0.2
2023-04-15T15:00:00,1218A,120.2144,33.38,盐城市,开发区管委会,颗粒物(PM10),116,182,94,29,26,134,133,106,106,12,10,6,5,0.4,0.3
2023-04-15T15:00:00,1220A,118.293,33.9528,宿迁市,宿迁学院,颗粒物(PM10),177,304,171,81,55,176,129,97,87,10,18,8,7,0.6,0.7
2023-04-15T15:00:00,1221A,118.2442,33.9592,宿迁市,宿迁中学,颗粒物(PM10),243,380,178,,47,186,136,105,90,11,19,,7,0.6,0.6
2023-04-15T15:00:00,1223A,120.2072,30.2111,杭州市,滨江,,,76,91,29,38,158,158,135,135,,23,6,7,,0.8
2023-04-15T15:00:00,1224A,120.0633,30.2747,杭州市,西溪,颗粒物(PM10),65,79,87,27,40,139,139,121,121,17,21,8,8,0.7,0.8
2023-04-15T15:00:00,1226A,120.3461,30.3153,杭州市,下沙,颗粒物(PM10),70,90,98,34,48,161,161,122,122,15,29,6,7,0.5,0.7
2023-04-15T15:00:00,1227A,120.1269,30.2456,杭州市,卧龙桥,颗粒物(PM10),59,67,68,30,38,154,154,128,128,13,17,6,6,0.6,0.8
2023-04-15T15:00:00,1228A,120.1903,30.2692,杭州市,浙江农大,颗粒物(PM10),63,75,75,29,40,152,152,128,128,14,22,4,4,0.8,0.9
2023-04-15T15:00:00,1230A,120.1197,30.3119,杭州市,和睦小学,颗粒物(PM10),69,87,82,32,41,136,136,114,114,17,26,5,6,0.8,0.9
2023-04-15T15:00:00,1231A,120.3019,30.4183,杭州市,临平镇,颗粒物(PM10),70,89,112,30,48,173,173,130,130,15,23,5,6,0.6,0.8
2023-04-15T15:00:00,1232A,120.2697,30.1819,杭州市,城厢镇,颗粒物(PM10),70,89,85,33,43,161,161,130,130,24,25,7,7,0.7,0.8
2023-04-15T15:00:00,1233A,120.0883,30.1808,杭州市,云栖,颗粒物(PM10),59,67,65,23,32,153,153,124,124,18,19,5,5,0.6,0.7
2023-04-15T15:00:00,1234A,121.8358,29.911,宁波市,区环保大楼,,36,35,70,25,47,102,102,83,83,30,59,8,6,0.8,1
2023-04-15T15:00:00,1235A,121.56,29.82,宁波市,万里学院,颗粒物(PM10),54,57,81,27,49,150,150,97,97,14,36,5,6,0.7,1
2023-04-15T15:00:00,1236A,121.713,29.9572,宁波市,龙赛医院,,37,37,84,18,41,107,107,82,82,25,56,7,9,0.5,0.7
2023-04-15T15:00:00,1239A,121.633,29.7733,宁波市,钱湖水厂,,47,47,76,24,42,146,146,95,95,12,26,4,4,0.6,0.8
2023-04-15T15:00:00,1240A,121.5856,29.8635,宁波市,太古小学,,50,42,76,23,47,160,160,102,102,11,38,6,7,0.6,0.9
2023-04-15T15:00:00,1241A,121.524,29.8674,宁波市,市环境监测中心,颗粒物(PM10),55,60,82,22,42,147,147,90,90,11,37,6,6,0.4,0.7
2023-04-15T15:00:00,1242A,120.634,28.0089,温州市,瓯海,颗粒物(PM10),54,58,81,28,42,129,129,96,96,11,41,6,7,0.6,0.8
2023-04-15T15:00:00,1243A,120.6748,27.9939,温州市,南浦,,,52,82,26,42,140,140,106,106,,39,4,5,0.5,0.7
2023-04-15T15:00:00,1244A,120.76,27.9747,温州市,龙湾,,50,50,83,22,37,138,138,96,96,21,53,6,6,0.5,0.7
2023-04-15T15:00:00,1245A,120.6709,28.0167,温州市,市站,颗粒物(PM10),53,56,86,25,49,133,133,101,101,12,48,5,5,0.6,0.9
2023-04-15T15:00:00,1247A,120.6053,29.9928,绍兴市,城东开发委,臭氧1小时,67,77,91,31,48,173,173,126,126,14,24,6,6,0.8,1.1
2023-04-15T15:00:00,1250A,120.0751,30.8669,湖州市,城西水厂,颗粒物(PM10),70,89,112,29,50,135,135,102,102,29,40,8,8,0.6,0.7
2023-04-15T15:00:00,1252A,120.7436,30.778,嘉兴市,清河小学,颗粒物(PM10),61,72,80,29,42,145,145,95,95,15,25,4,5,0.5,0.7
2023-04-15T15:00:00,1253A,120.726,30.7478,嘉兴市,嘉兴学院,,,66,80,28,44,155,155,99,99,13,22,,6,0.5,0.7
2023-04-15T15:00:00,1255A,121.273,28.6459,台州市,黄岩环保大楼,颗粒物(PM10),56,62,74,25,38,137,137,122,122,10,26,6,5,0.2,0.4
2023-04-15T15:00:00,1256A,121.419,28.6542,台州市,台州环保大楼,,,109,86,59,51,153,,132,132,16,25,6,5,,0.7
2023-04-15T15:00:00,1257A,121.377,28.5773,台州市,路桥田洋王,颗粒物(PM10),89,127,87,59,50,158,158,132,132,17,28,6,7,0.6,0.7
2023-04-15T15:00:00,1258A,122.122,30.0203,舟山市,定海檀枫,,,64,78,22,34,106,106,75,75,16,34,,7,0.4,0.7
2023-04-15T15:00:00,1259A,122.3094,29.9558,舟山市,普陀东港,,36,36,91,14,37,86,86,77,77,14,34,5,6,0.3,0.5
2023-04-15T15:00:00,1260A,122.19,29.9944,舟山市,临城新区,,34,26,67,15,36,106,106,79,79,13,45,4,5,0.5,0.6
2023-04-15T15:00:00,1262A,119.647,29.077,金华市,十五中,细颗粒物(PM2.5),59,57,67,42,62,158,158,110,110,14,32,8,9,0.6,0.9
2023-04-15T15:00:00,1263A,119.686,29.1029,金华市,监测站,颗粒物(PM10),63,75,57,32,38,156,156,114,114,11,27,11,10,1.0,1.2
2023-04-15T15:00:00,1264A,118.8692,28.9398,衢州市,环保大楼,,47,47,39,20,24,130,130,97,97,9,18,4,6,0.5,0.7
2023-04-15T15:00:00,1265A,118.8709,28.9666,衢州市,实验学校,,40,40,35,12,27,126,122,96,96,8,18,3,4,0.6,0.8
2023-04-15T15:00:00,1266A,118.8621,28.9808,衢州市,衢州学院,,49,49,35,22,23,129,119,97,97,11,22,2,4,0.4,0.6
2023-04-15T15:00:00,1267A,119.914,28.4514,丽水市,监测站大楼,颗粒物(PM10),62,73,56,30,34,133,133,104,104,8,22,5,6,0.5,0.7
2023-04-15T15:00:00,1268A,119.93,28.4586,丽水市,莲都小学,颗粒物(PM10),55,60,58,21,34,141,140,116,116,11,20,5,5,0.5,0.6
2023-04-15T15:00:00,1269A,119.879,28.4231,丽水市,余庄前,颗粒物(PM10),53,55,50,30,33,140,140,104,104,7,15,5,5,0.6,0.7
2023-04-15T15:00:00,1270A,117.1959,31.7848,合肥市,明珠广场,颗粒物(PM10),164,278,126,70,49,144,135,116,113,19,20,5,4,0.6,0.8
2023-04-15T15:00:00,1271A,117.3072,31.8764,合肥市,三里街,颗粒物(PM10),158,266,117,80,54,137,134,133,115,22,24,6,5,0.7,0.8
2023-04-15T15:00:00,1272A,117.2588,31.8707,合肥市,琥珀山庄,颗粒物(PM10),170,289,121,78,53,149,144,132,120,14,22,5,4,0.7,0.8
2023-04-15T15:00:00,1273A,117.1604,31.9052,合肥市,董铺水库,颗粒物(PM10),209,356,121,78,48,152,122,141,112,4,10,4,4,0.3,0.5
2023-04-15T15:00:00,1274A,117.25,31.8571,合肥市,长江中路,颗粒物(PM10),168,285,125,78,51,142,133,131,118,14,17,10,10,0.5,0.7
2023-04-15T15:00:00,1275A,117.266,31.9436,合肥市,庐阳区,颗粒物(PM10),174,298,119,75,48,143,126,130,106,7,13,7,8,0.5,0.7
2023-04-15T15:00:00,1276A,117.336,31.8586,合肥市,瑶海区,颗粒物(PM10),152,254,117,71,47,129,128,129,113,14,25,8,8,0.7,0.9
2023-04-15T15:00:00,1277A,117.3027,31.7964,合肥市,包河区,颗粒物(PM10),165,280,120,92,55,132,132,119,115,14,32,6,6,0.5,0.7
2023-04-15T15:00:00,1278A,117.2776,31.7385,合肥市,滨湖新区,颗粒物(PM10),175,300,124,75,47,132,127,109,108,13,28,6,6,0.7,0.8
2023-04-15T15:00:00,1279A,117.1318,31.8403,合肥市,高新区,颗粒物(PM10),179,307,128,75,52,145,127,115,110,12,21,9,8,0.5,0.7
2023-04-15T15:00:00,1280A,119.3903,26.0543,福州市,鼓山,,,,,,,,,,,,,,,,
2023-04-15T15:00:00,1282A,119.2681,26.0504,福州市,师大,细颗粒物(PM2.5),57,58,48,40,39,172,138,93,93,17,14,6,5,0.6,0.5
2023-04-15T15:00:00,1283A,119.2984,26.1028,福州市,五四北路,颗粒物(PM10),57,64,50,28,40,166,126,90,90,15,19,4,3,0.6,0.6
2023-04-15T15:00:00,1284A,119.2648,26.0768,福州市,杨桥西路,颗粒物(PM10),70,90,48,39,38,156,127,85,85,17,15,5,4,0.7,0.6
2023-04-15T15:00:00,1285A,119.317,26.0746,福州市,紫阳,细颗粒物(PM2.5),54,55,49,38,39,156,133,89,89,11,19,4,3,0.8,0.7
2023-04-15T15:00:00,1286A,118.1608,24.8169,厦门市,溪东,,,,,,,,,,,,,,,,
2023-04-15T15:00:00,1287A,118.1514,24.4767,厦门市,洪文,,,,58,,35,187,,85,85,4,25,,3,0.6,0.6
2023-04-15T15:00:00,1288A,118.0661,24.4444,厦门市,鼓浪屿,细颗粒物(PM2.5),75,76,68,55,42,97,97,50,50,20,38,5,8,0.5,0.4
2023-04-15T15:00:00,1290A,115.8931,28.6843,南昌市,省外办,颗粒物(PM10),106,161,82,51,32,141,141,109,109,5,21,5,5,0.4,0.5
2023-04-15T15:00:00,1291A,115.8886,28.7003,南昌市,省林业公司,颗粒物(PM10),120,190,78,56,39,137,137,105,105,6,30,6,6,0.4,0.4
2023-04-15T15:00:00,1292A,115.8126,28.7442,南昌市,林科所,颗粒物(PM10),104,158,77,41,28,145,145,118,118,8,14,9,8,0.4,0.6
2023-04-15T15:00:00,1294A,115.8518,28.687,南昌市,建工学校,颗粒物(PM10),102,154,80,39,30,147,146,114,114,11,24,7,6,0.4,0.6
2023-04-15T15:00:00,1295A,115.8921,28.6424,南昌市,象湖,颗粒物(PM10),86,122,71,38,33,150,150,116,116,12,24,6,5,0.5,0.7
2023-04-15T15:00:00,1296A,115.7423,28.7996,南昌市,武术学校,颗粒物(PM10),68,86,51,39,25,118,118,95,95,2,2,10,10,0.3,0.5
2023-04-15T15:00:00,1298A,115.9314,28.6842,南昌市,省站,颗粒物(PM10),123,195,91,56,37,138,138,112,112,8,15,7,7,0.4,0.8
2023-04-15T15:00:00,1299A,116.9862,36.6114,济南市,科干所,细颗粒物(PM2.5),135,166,381,103,90,114,103,101,101,21,31,8,9,0.3,0.4
2023-04-15T15:00:00,1300A,116.9376,36.665,济南市,农科所,颗粒物(PM10),140,230,364,54,75,104,85,75,75,14,40,4,5,0.3,0.4
2023-04-15T15:00:00,1301A,117.1265,36.6734,济南市,开发区,颗粒物(PM10),95,139,368,43,82,108,97,94,94,19,39,8,9,0.6,0.7
2023-04-15T15:00:00,1303A,117.0624,36.6868,济南市,省种子仓库,颗粒物(PM10),102,153,380,46,85,114,105,88,88,14,48,8,10,0.5,0.7
2023-04-15T15:00:00,1304A,116.9489,36.6447,济南市,机床二厂,细颗粒物(PM2.5),199,227,426,149,90,110,106,89,89,17,43,5,5,0.4,0.6
2023-04-15T15:00:00,1305A,117.0495,36.663,济南市,市监测站,颗粒物(PM10),106,161,395,42,77,113,107,92,92,16,46,8,9,0.4,0.6
2023-04-15T15:00:00,1306A,116.7675,36.5484,济南市,长清党校,颗粒物(PM10),347,457,413,107,86,117,117,93,93,20,41,13,10,0.8,0.7
2023-04-15T15:00:00,1307A,120.6659,36.2403,青岛市,仰口,颗粒物(PM10),115,180,157,34,35,115,113,102,102,21,18,11,10,0.4,0.3
2023-04-15T15:00:00,1310A,120.4134,36.0658,青岛市,市南区东部子站,颗粒物(PM10),150,249,180,44,36,98,96,79,79,37,39,9,10,0.7,0.6
2023-04-15T15:00:00,1311A,120.3664,36.1032,青岛市,四方区子站,颗粒物(PM10),137,224,168,46,37,98,96,72,72,34,48,6,10,0.8,0.8
2023-04-15T15:00:00,1312A,120.2994,36.054,青岛市,市南区西部子站,颗粒物(PM10),145,239,178,44,38,109,91,74,74,45,45,10,11,0.7,0.6
2023-04-15T15:00:00,1313A,120.4581,36.0858,青岛市,崂山区子站,颗粒物(PM10),147,244,192,56,43,108,80,81,81,40,31,9,10,0.6,0.5
2023-04-15T15:00:00,1314A,120.1983,35.9608,青岛市,黄岛区子站,颗粒物(PM10),137,224,187,39,41,115,115,84,84,20,32,10,9,0.9,0.6
2023-04-15T15:00:00,1315A,120.3999,36.3083,青岛市,城阳区子站,颗粒物(PM10),131,212,178,32,35,123,110,93,93,28,43,6,9,0.4,0.5
2023-04-15T15:00:00,1316A,113.69031,34.76122,郑州市,烟厂,颗粒物(PM10),320,436,472,114,116,119,119,96,96,12,34,5,8,0.6,0.8
2023-04-15T15:00:00,1317A,113.65724,34.77134,郑州市,郑纺机,颗粒物(PM10),268,397,430,47,109,127,127,100,100,12,38,4,5,0.2,0.6
2023-04-15T15:00:00,1318A,113.67526,34.80246,郑州市,银行学校,颗粒物(PM10),191,332,432,46,80,116,115,97,97,7,29,5,7,0.4,0.5
2023-04-15T15:00:00,1319A,113.56746,34.81334,郑州市,供水公司,颗粒物(PM10),249,384,355,126,75,116,116,97,97,8,36,7,9,0.6,0.2
2023-04-15T15:00:00,1320A,113.7329,34.7178,郑州市,经开区管委,颗粒物(PM10),330,444,417,58,111,123,123,95,95,5,33,2,5,0.3,0.5
2023-04-15T15:00:00,1321A,113.73961,34.77172,郑州市,四十七中,颗粒物(PM10),151,252,463,36,78,125,125,102,102,7,29,4,6,0.4,0.6
2023-04-15T15:00:00,1322A,113.60532,34.74838,郑州市,市监测站,颗粒物(PM10),276,403,414,100,100,118,118,90,90,9,44,5,8,0.4,0.7
2023-04-15T15:00:00,1323A,113.64164,34.7525,郑州市,河医大,颗粒物(PM10),365,472,429,101,111,113,113,81,81,14,44,6,8,0.6,0.8
2023-04-15T15:00:00,1324A,113.51488,34.91089,郑州市,岗李水库,,,,,,,,,,,,,,,,
2023-04-15T15:00:00,1325A,114.3677,30.5584,武汉市,东湖梨园,颗粒物(PM10),73,96,143,27,49,130,128,96,87,10,23,10,9,0.2,0.5
2023-04-15T15:00:00,1326A,114.2529,30.558,武汉市,汉阳月湖,颗粒物(PM10),92,134,163,31,44,140,125,88,80,16,33,9,8,0.3,0.6
2023-04-15T15:00:00,1327A,114.282,30.6189,武汉市,汉口花桥,颗粒物(PM10),93,135,153,32,43,135,124,87,87,14,26,9,9,0.5,0.7
2023-04-15T15:00:00,1328A,114.3025,30.5332,武汉市,武昌紫阳,颗粒物(PM10),84,118,144,39,42,131,126,85,81,16,32,11,10,0.6,0.9
2023-04-15T15:00:00,1329A,114.3646,30.6217,武汉市,青山钢花,颗粒物(PM10),93,135,160,51,59,148,148,92,92,13,28,10,9,0.4,0.7
2023-04-15T15:00:00,1330A,114.1566,30.4825,武汉市,沌口新区,颗粒物(PM10),97,143,152,39,46,109,109,102,73,15,29,10,9,0.6,0.7
2023-04-15T15:00:00,1331A,114.3014,30.5944,武汉市,汉口江滩,颗粒物(PM10),102,154,159,42,41,131,105,75,75,43,40,10,8,0.8,1
2023-04-15T15:00:00,1333A,114.135,30.6319,武汉市,吴家山,颗粒物(PM10),81,111,125,37,43,128,128,78,78,14,37,8,7,0.4,0.7
2023-04-15T15:00:00,1334A,113.8454,30.2917,武汉市,沉湖七壕,颗粒物(PM10),95,140,116,43,37,127,121,88,83,11,10,14,13,0.5,0.6
2023-04-15T15:00:00,1335A,113.0833,28.2325,长沙市,经开区环保局,颗粒物(PM10),98,145,99,36,36,130,130,78,78,14,18,5,4,0.4,0.5
2023-04-15T15:00:00,1336A,112.8872,28.2189,长沙市,高开区环保局,颗粒物(PM10),102,153,106,34,32,135,135,90,90,7,11,9,8,0.4,0.3
2023-04-15T15:00:00,1337A,113.0792,28.2053,长沙市,马坡岭,颗粒物(PM10),99,148,107,25,26,138,138,85,85,18,22,4,3,0.3,0.4
2023-04-15T15:00:00,1338A,112.9394,28.19,长沙市,湖南师范大学,颗粒物(PM10),118,185,125,40,47,143,143,90,90,14,12,8,8,0.8,0.7
2023-04-15T15:00:00,1339A,113.0178,28.1322,长沙市,雨花区环保局,颗粒物(PM10),101,151,108,46,39,146,146,95,95,6,8,7,6,0.5,0.6
2023-04-15T15:00:00,1340A,112.9792,28.2597,长沙市,伍家岭,颗粒物(PM10),100,149,92,30,30,137,137,86,86,10,12,9,6,0.7,0.7
2023-04-15T15:00:00,1341A,113.0014,28.1944,长沙市,火车新站,颗粒物(PM10),99,147,108,44,45,134,134,92,92,11,14,8,8,0.4,0.5
2023-04-15T15:00:00,1342A,112.9844,28.1178,长沙市,天心区环保局,颗粒物(PM10),97,144,109,36,35,142,142,93,93,12,13,4,3,0.4,0.4
2023-04-15T15:00:00,1343A,112.8908,28.1308,长沙市,湖南中医药大学,,,,95,,39,143,143,89,89,,15,6,5,,0.8
2023-04-15T15:00:00,1344A,112.9581,28.3611,长沙市,沙坪,颗粒物(PM10),80,109,88,28,37,139,139,83,83,11,10,8,4,0.4,0.5
2023-04-15T15:00:00,1345A,113.2347,23.1423,广州市,广雅中学,,34,34,73,14,38,116,102,73,73,22,49,5,7,1.0,1
2023-04-15T15:00:00,1346A,113.2612,23.105,广州市,市五中,,39,34,72,19,37,139,124,89,89,16,41,8,8,0.8,0.8
2023-04-15T15:00:00,1348A,113.3478,23.0916,广州市,广东商学院,,37,33,73,15,36,125,118,83,83,13,43,5,5,1.0,1
2023-04-15T15:00:00,1349A,113.4332,23.1047,广州市,市八十六中,,37,32,88,18,38,124,118,85,85,8,48,4,5,0.8,0.8
2023-04-15T15:00:00,1350A,113.3505,22.9483,广州市,番禺中学,,45,37,72,20,39,152,141,98,98,15,43,7,7,0.8,0.9
2023-04-15T15:00:00,1351A,113.2146,23.3916,广州市,花都师范,,37,25,66,16,37,119,118,92,92,12,36,7,8,0.7,0.8
2023-04-15T15:00:00,1352A,113.2597,23.1331,广州市,市监测站,,37,30,72,18,37,132,118,85,85,17,47,7,7,0.9,0.9
2023-04-15T15:00:00,1353A,113.5618,23.312,广州市,九龙镇镇龙,,35,23,75,15,38,111,110,79,79,8,44,5,6,0.7,0.7
2023-04-15T15:00:00,1354A,113.2765,23.1544,广州市,麓湖,,38,27,62,17,33,136,121,89,89,11,29,5,5,0.7,0.7
2023-04-15T15:00:00,1355A,113.443,23.3035,广州市,帽峰山森林公园,,37,22,61,13,31,124,118,91,91,7,28,6,6,0.7,0.6
2023-04-15T15:00:00,1356A,114.1063,22.5545,深圳市,通心岭子站,,40,31,57,16,27,140,126,88,88,10,27,4,4,0.7,0.6
2023-04-15T15:00:00,1357A,114.117,22.5625,深圳市,洪湖,,45,35,72,17,30,161,142,101,101,15,35,8,9,0.7,0.7
2023-04-15T15:00:00,1358A,113.987,22.5417,深圳市,华侨城,,45,25,67,14,32,158,143,89,89,10,40,5,5,0.7,0.6
2023-04-15T15:00:00,1359A,113.9181,22.5171,深圳市,南海子站,,50,50,94,22,33,156,156,92,92,19,47,5,5,0.8,0.7
2023-04-15T15:00:00,1360A,114.2458,22.5689,深圳市,盐田,,48,30,66,18,34,160,153,107,107,13,49,6,6,0.8,0.7
2023-04-15T15:00:00,1361A,114.2283,22.7244,深圳市,龙岗,,41,25,75,11,31,153,129,99,99,5,49,3,3,0.7,0.6
2023-04-15T15:00:00,1363A,114.494,22.5422,深圳市,南澳,,42,25,50,14,25,135,133,102,102,8,15,6,6,0.7,0.6
2023-04-15T15:00:00,1364A,114.41,22.6342,深圳市,葵涌,,42,25,61,13,28,136,132,99,99,8,19,5,6,0.8,0.6
2023-04-15T15:00:00,1365A,114.297,22.5978,深圳市,梅沙,,50,35,71,16,31,165,157,111,111,12,25,5,5,0.9,0.8
2023-04-15T15:00:00,1366A,114.0678,22.738,深圳市,观澜,,46,31,92,14,35,147,145,102,102,14,40,9,9,0.7,0.6
2023-04-15T15:00:00,1367A,113.5814,22.2618,珠海市,吉大,臭氧1小时,87,66,81,24,43,214,189,110,110,27,25,7,7,0.6,0.5
2023-04-15T15:00:00,1368A,113.4881,22.2335,珠海市,前山,,,,,,,,,,,,,,,,
2023-04-15T15:00:00,1369A,113.628,22.4251,珠海市,唐家,臭氧1小时,84,71,82,48,42,187,187,168,168,16,16,6,4,1.6,0.7
2023-04-15T15:00:00,1370A,113.299,22.2281,珠海市,斗门,臭氧1小时,85,50,89,31,41,188,188,97,97,24,34,5,6,0.7,0.7
2023-04-15T15:00:00,1371A,113.1294,23.0067,佛山市,湾梁,,44,31,71,21,32,146,138,96,96,10,38,8,9,0.7,0.7
2023-04-15T15:00:00,1372A,113.1083,23.0478,佛山市,华材职中,,40,29,67,14,37,135,127,89,89,16,42,9,9,0.6,0.6
2023-04-15T15:00:00,1373A,113.144,23.0453,佛山市,南海气象局,,35,28,64,18,37,120,111,77,77,14,38,6,6,0.6,0.6
2023-04-15T15:00:00,1374A,113.2881,22.8094,佛山市,顺德苏岗,,43,22,59,17,36,135,135,75,75,11,35,9,9,0.8,0.8
2023-04-15T15:00:00,1376A,112.8383,22.8678,佛山市,高明孔堂,,40,40,56,14,27,125,118,83,83,16,23,6,5,0.8,0.7
2023-04-15T15:00:00,1377A,112.8836,23.1588,佛山市,三水监测站,,33,19,63,20,36,114,103,88,88,9,46,5,7,0.7,0.8
2023-04-15T15:00:00,1378A,112.867,23.185,佛山市,三水云东海,,32,28,50,14,31,116,101,84,84,12,30,4,5,0.5,0.5
2023-04-15T15:00:00,1379A,113.3769,22.5211,中山市,华柏园,臭氧1小时,85,60,76,20,39,188,188,100,100,14,29,5,6,0.6,0.6
2023-04-15T15:00:00,1380A,113.3881,22.5497,中山市,张溪,臭氧1小时,80,48,81,28,44,184,184,100,100,14,31,6,7,0.6,0.6
2023-04-15T15:00:00,1381A,113.4075,22.5111,中山市,紫马岭,臭氧1小时,78,65,68,24,36,182,182,98,98,14,21,8,8,0.6,0.5
2023-04-15T15:00:00,1382A,113.4411,22.4853,中山市,长江旅游区,细颗粒物(PM2.5),104,56,51,78,35,171,171,91,91,14,15,13,12,0.7,0.5
2023-04-15T15:00:00,1383A,113.1064,22.6058,江门市,北街,臭氧1小时,80,47,66,18,29,184,184,107,107,15,31,7,6,0.6,0.7
2023-04-15T15:00:00,1384A,113.0731,22.5835,江门市,西区,臭氧1小时,75,38,69,23,36,180,180,105,105,17,39,6,7,0.7,0.7
2023-04-15T15:00:00,1385A,113.0219,22.5311,江门市,圭峰西,臭氧1小时,70,43,63,19,35,179,176,111,111,17,25,8,8,0.7,0.6
2023-04-15T15:00:00,1386A,113.0828,22.5947,江门市,东湖,臭氧1小时,77,33,73,21,33,181,181,108,108,14,31,7,7,0.7,0.7
2023-04-15T15:00:00,1389A,113.7547,23.0494,东莞市,莞城梨川,,38,20,80,12,38,131,121,91,91,9,41,8,12,0.7,0.7
2023-04-15T15:00:00,1390A,113.7944,23.0128,东莞市,东城石井,,42,16,65,13,31,137,133,97,97,6,29,8,10,0.7,0.7
2023-04-15T15:00:00,1391A,113.7383,22.9658,东莞市,南城西平,,38,25,71,24,30,128,121,91,91,12,40,9,9,0.8,0.8
2023-04-15T15:00:00,1392A,114.4183,23.0528,惠州市,河南岸金山湖子站,,39,39,81,15,33,114,111,92,92,10,36,5,5,0.6,0.7
2023-04-15T15:00:00,1393A,114.4053,23.0822,惠州市,下埔横江三路子站,,,,70,,32,128,120,101,101,7,32,,6,0.6,0.6
2023-04-15T15:00:00,1394A,114.4103,23.1142,惠州市,江北云山西路子站,颗粒物(PM10),62,74,73,13,34,129,122,102,102,4,30,5,9,0.6,0.6
2023-04-15T15:00:00,1395A,114.4645,22.7833,惠州市,惠阳区承修路船湖子站,,35,33,76,17,30,120,112,90,90,12,40,4,5,0.8,0.9
2023-04-15T15:00:00,1396A,114.5317,22.7422,惠州市,大亚湾管委会子站,,39,39,71,20,29,115,112,87,87,9,33,8,8,1.0,1
2023-04-15T15:00:00,1397A,112.4267,23.0706,肇庆市,睦岗子站,,25,20,48,10,25,95,78,69,69,14,28,8,8,0.6,0.6
2023-04-15T15:00:00,1398A,112.4645,23.0475,肇庆市,城中子站,,22,17,52,11,29,81,70,59,59,16,32,9,9,0.8,0.8
2023-04-15T15:00:00,1399A,112.5544,23.1522,肇庆市,坑口子站,,26,19,40,12,25,103,82,79,79,18,23,5,5,0.5,0.5
2023-04-15T15:00:00,1400A,112.4753,23.1,肇庆市,七星岩子站,,,,,,,,,,,,,,,,
2023-04-15T15:00:00,1401A,108.3103,22.7881,南宁市,二十一中,,33,30,52,18,30,104,104,74,74,14,23,5,5,0.9,0.9
2023-04-15T15:00:00,1402A,108.3141,22.8528,南宁市,北湖,,32,24,58,14,33,100,100,64,64,8,20,8,9,0.9,1
2023-04-15T15:00:00,1403A,108.3206,22.8225,南宁市,市监测站,,33,33,49,18,31,85,85,60,60,28,28,7,7,0.8,0.8
2023-04-15T15:00:00,1404A,108.3829,22.8037,南宁市,大自然花园,,30,29,46,20,29,93,93,66,66,9,14,6,6,0.8,0.8
2023-04-15T15:00:00,1405A,108.4394,22.7904,南宁市,仙葫,,35,35,52,22,30,85,85,72,72,11,21,6,6,0.6,0.6
2023-04-15T15:00:00,1406A,108.2397,22.8467,南宁市,区农职院,,31,28,61,17,34,98,98,56,56,12,30,9,8,0.8,0.8
2023-04-15T15:00:00,1407A,108.3275,22.735,南宁市,英华嘉园,,30,29,51,17,31,94,94,68,68,12,22,6,6,0.8,0.9
2023-04-15T15:00:00,1408A,108.2257,22.7757,南宁市,沙井镇街道办,,31,26,67,20,34,98,98,52,52,17,35,5,5,0.7,0.7
2023-04-15T15:00:00,1409A,110.576,19.9507,海口市,东寨港,,,,,,,,,,,,,,,,
2023-04-15T15:00:00,1410A,110.3232,20.0574,海口市,海南大学,,23,23,36,12,16,60,54,40,36,7,10,6,6,0.3,0.3
2023-04-15T15:00:00,1411A,110.283,20.0053,海口市,秀英海南医院,,19,18,32,13,18,50,46,36,32,11,13,4,4,0.3,0.4
2023-04-15T15:00:00,1412A,110.338,19.9969,海口市,海南师范大学,,23,23,32,13,17,53,45,32,32,8,10,4,4,0.3,0.3
2023-04-15T15:00:00,1413A,110.33,20.0356,海口市,龙华路环保局宿舍,,26,26,31,13,16,57,48,36,34,8,10,5,4,0.2,0.3
2023-04-15T15:00:00,1414A,106.3787,29.8279,重庆市,缙云山,颗粒物(PM10),51,51,49,12,20,151,151,98,98,14,18,8,9,0.3,0.5
2023-04-15T15:00:00,1416A,106.4213,29.8253,重庆市,天生,,50,46,65,16,33,159,159,92,92,14,35,6,9,0.4,0.9
2023-04-15T15:00:00,1417A,106.6263,29.7228,重庆市,两路,,,54,63,20,29,154,154,92,92,22,54,,8,0.8,1.2
2023-04-15T15:00:00,1418A,106.2953,29.5983,重庆市,虎溪,臭氧1小时,77,70,69,34,42,181,181,94,94,12,49,9,6,0.7,1.1
2023-04-15T15:00:00,1419A,106.5777,29.5102,重庆市,南坪,颗粒物(PM10),52,54,63,23,33,160,160,96,96,7,23,5,6,0.4,0.6
2023-04-15T15:00:00,1420A,106.6556,29.6277,重庆市,唐家沱,颗粒物(PM10),58,65,66,24,35,152,152,85,85,19,40,6,8,0.6,1
2023-04-15T15:00:00,1421A,106.6349,29.4906,重庆市,茶园,颗粒物(PM10),53,55,81,24,39,157,150,80,80,3,47,6,7,0.7,1
2023-04-15T15:00:00,1422A,106.3754,29.4572,重庆市,白市驿,,,,64,18,34,168,149,100,100,15,26,13,11,0.6,0.9
2023-04-15T15:00:00,1425A,106.6205,29.7166,重庆市,空港,颗粒物(PM10),65,79,66,21,34,160,160,99,99,16,49,7,9,0.5,0.9
2023-04-15T15:00:00,1426A,106.4782,29.4875,重庆市,新山村,颗粒物(PM10),55,59,69,24,35,135,129,75,75,19,55,10,11,0.5,0.8
2023-04-15T15:00:00,1427A,106.5616,29.6453,重庆市,礼嘉,,,68,76,14,37,166,166,85,85,23,64,7,9,,1
2023-04-15T15:00:00,1428A,106.4522,29.7091,重庆市,蔡家,颗粒物(PM10),76,101,70,27,35,166,166,91,91,14,37,7,8,0.6,0.9
2023-04-15T15:00:00,1429A,106.5093,29.3917,重庆市,鱼新街,,45,45,68,21,35,166,138,78,78,25,48,6,9,0.5,0.9
2023-04-15T15:00:00,1431A,103.9728,30.7236,成都市,金泉两河,,,64,74,12,32,173,,87,87,8,32,3,3,0.3,0.4
2023-04-15T15:00:00,1432A,104.176,30.6872,成都市,十里店,臭氧1小时,84,92,93,34,40,187,187,95,95,13,45,2,4,0.4,0.6
2023-04-15T15:00:00,1433A,104.079,30.5706,成都市,三瓦窑,臭氧1小时,75,62,83,22,30,180,180,89,89,14,41,3,3,0.5,0.6
2023-04-15T15:00:00,1434A,104.1114,30.63,成都市,沙河铺,臭氧1小时,80,50,78,12,35,184,184,88,88,10,40,4,3,0.3,0.5
2023-04-15T15:00:00,1437A,104.0786,30.6531,成都市,君平街,,,60,87,20,39,199,199,104,104,,48,3,5,0.4,0.6
2023-04-15T15:00:00,1438A,103.613,31.0283,成都市,灵岩寺,,,,,,,,,,,,,,,,
2023-04-15T15:00:00,1439A,106.6899,26.5998,贵阳市,马鞍山,颗粒物(PM10),52,53,35,22,23,127,127,91,91,7,10,5,5,0.2,0.3
2023-04-15T15:00:00,1440A,106.6971,26.5694,贵阳市,市环保站,颗粒物(PM10),52,53,38,21,19,128,128,99,99,9,14,4,4,0.1,0.2
2023-04-15T15:00:00,1441A,106.6243,26.6266,贵阳市,鉴湖路,颗粒物(PM10),63,75,41,22,19,132,132,94,94,7,8,4,4,0.2,0.3
2023-04-15T15:00:00,1442A,106.7487,26.6343,贵阳市,燕子冲,颗粒物(PM10),57,63,43,31,29,120,120,93,93,8,11,5,7,0.4,0.4
2023-04-15T15:00:00,1443A,106.6555,26.4365,贵阳市,碧云窝,颗粒物(PM10),67,83,44,22,19,142,142,95,95,8,14,4,4,0.3,0.4
2023-04-15T15:00:00,1444A,106.694,26.5161,贵阳市,中院村,颗粒物(PM10),58,66,45,22,22,140,140,102,102,11,15,7,7,0.5,0.6
2023-04-15T15:00:00,1445A,106.7109,26.6027,贵阳市,红边门,颗粒物(PM10),54,58,42,27,26,128,128,99,99,10,11,4,5,0.4,0.5
2023-04-15T15:00:00,1446A,106.7164,26.5699,贵阳市,新华路,颗粒物(PM10),53,56,40,29,24,122,122,94,94,5,10,5,3,0.3,0.4
2023-04-15T15:00:00,1447A,106.674,26.5424,贵阳市,太慈桥,颗粒物(PM10),58,66,45,14,17,127,127,88,88,6,11,4,4,0.3,0.4
2023-04-15T15:00:00,1450A,102.8204,24.8886,昆明市,呈贡新区,,45,36,58,23,43,208,143,128,112,6,11,5,8,0.5,0.6
2023-04-15T15:00:00,1451A,102.6251,24.9608,昆明市,西山森林公园,臭氧1小时,88,42,60,34,37,249,190,167,149,9,13,5,7,0.8,0.9
2023-04-15T15:00:00,1452A,102.7252,25.0902,昆明市,龙泉镇,,49,46,74,34,55,203,152,117,117,12,21,7,8,0.6,0.7
2023-04-15T15:00:00,1453A,102.7266,25.0375,昆明市,东风东路,,50,50,60,35,41,196,151,122,114,12,16,8,9,0.7,0.9
2023-04-15T15:00:00,1454A,102.6742,25.0669,昆明市,金鼎山,,50,49,65,35,39,207,158,130,120,11,16,5,7,0.6,0.7
2023-04-15T15:00:00,1455A,102.6644,25.0401,昆明市,碧鸡广场,,50,47,63,22,44,214,158,139,125,14,20,6,7,0.7,0.8
2023-04-15T15:00:00,1456A,91.1319,29.6514,拉萨市,八廓街,颗粒物(PM10),74,98,69,30,19,123,123,91,91,10,16,6,7,0.2,0.2
2023-04-15T15:00:00,1457A,91.1221,29.6747,拉萨市,市环保局,颗粒物(PM10),63,76,62,23,24,126,126,90,90,10,20,5,6,0.4,0.4
2023-04-15T15:00:00,1458A,91.0874,29.6475,拉萨市,区监测站,颗粒物(PM10),60,69,62,22,19,120,120,83,83,13,16,7,8,0.2,0.2
2023-04-15T15:00:00,1459A,91.1774,29.6541,拉萨市,西藏大学,颗粒物(PM10),69,87,64,31,21,125,124,91,91,9,14,7,7,0.5,0.4
2023-04-15T15:00:00,1460A,90.9798,29.6588,拉萨市,区辐射站,颗粒物(PM10),57,63,61,22,21,122,122,83,79,7,18,8,8,0.3,0.3
2023-04-15T15:00:00,1461A,91.0834,29.6292,拉萨市,拉萨火车站,颗粒物(PM10),64,77,63,21,15,118,118,80,80,12,17,8,8,0.3,0.5
2023-04-15T15:00:00,1462A,108.882,34.2749,西安市,高压开关厂,颗粒物(PM10),66,81,70,13,17,120,120,75,75,10,37,7,8,0.2,0.3
2023-04-15T15:00:00,1463A,108.993,34.2629,西安市,兴庆小区,颗粒物(PM10),74,98,70,23,28,112,112,62,62,13,36,4,5,0.7,0.5
2023-04-15T15:00:00,1464A,109.06,34.2572,西安市,纺织城,颗粒物(PM10),82,114,89,26,22,119,119,64,64,6,39,5,5,0.3,0.4
2023-04-15T15:00:00,1465A,108.9356,34.2173,西安市,小寨,颗粒物(PM10),64,78,68,17,18,117,117,65,65,8,37,7,7,0.3,0.4
2023-04-15T15:00:00,1466A,108.954,34.2713,西安市,市人民体育场,颗粒物(PM10),72,93,70,19,20,114,114,68,68,11,37,6,6,0.2,0.3
2023-04-15T15:00:00,1467A,108.8922,34.2322,西安市,高新西区,颗粒物(PM10),63,76,69,15,22,123,123,75,75,9,37,6,6,0.3,0.4
2023-04-15T15:00:00,1468A,108.935,34.3474,西安市,经开区,颗粒物(PM10),71,91,73,18,16,117,117,76,76,10,35,3,4,0.1,0.2
2023-04-15T15:00:00,1469A,108.906,34.1546,西安市,长安区,颗粒物(PM10),72,93,74,18,20,121,121,69,69,16,38,5,5,0.1,0.2
2023-04-15T15:00:00,1471A,109.2186,34.3731,西安市,临潼区,颗粒物(PM10),83,115,80,22,26,123,123,110,92,13,18,6,7,0.1,0.1
2023-04-15T15:00:00,1472A,108.869,34.378,西安市,草滩,颗粒物(PM10),69,87,84,14,21,108,108,67,67,9,50,10,10,0.2,0.3
2023-04-15T15:00:00,1473A,108.985,34.1978,西安市,曲江文化产业集团,颗粒物(PM10),70,89,77,16,18,126,126,67,67,9,43,4,5,0.2,0.3
2023-04-15T15:00:00,1474A,109.051,34.3213,西安市,广运潭,颗粒物(PM10),69,88,76,20,20,117,117,68,68,10,38,5,9,0.3,0.4
2023-04-15T15:00:00,1476A,103.631,36.1031,兰州市,兰炼宾馆,,50,50,58,24,30,140,134,76,76,27,37,16,18,0.6,0.6
2023-04-15T15:00:00,1477A,104.1373,35.9454,兰州市,榆中兰大校区,,,,,,,,,,,,,,,,
2023-04-15T15:00:00,1478A,103.8412,36.0726,兰州市,生物制品所,,44,44,65,30,32,114,103,53,53,22,44,16,16,0.6,0.6
2023-04-15T15:00:00,1479A,103.831,36.0464,兰州市,铁路设计院,细颗粒物(PM2.5),53,43,64,37,36,113,95,52,52,34,45,11,11,0.4,0.5
2023-04-15T15:00:00,1483A,101.524,36.6867,西宁市,第五水厂,,,,,,,,,,,,,,,,
2023-04-15T15:00:00,1484A,105.9512,38.6016,银川市,贺兰山马莲口,颗粒物(PM10),90,130,75,27,16,121,111,117,116,9,6,8,8,0.4,0.4
2023-04-15T15:00:00,1488A,106.2328,38.4975,银川市,贺兰山东路,颗粒物(PM10),87,123,109,26,23,116,109,113,110,12,13,4,3,0.2,0.4
2023-04-15T15:00:00,1489A,106.1358,38.5036,银川市,学院路,颗粒物(PM10),95,139,101,26,19,103,95,102,96,13,13,4,4,0.4,0.4
2023-04-15T15:00:00,1490A,87.5801,43.8303,乌鲁木齐市,监测站,颗粒物(PM10),113,176,97,59,27,122,90,77,77,71,43,9,6,0.7,0.4
2023-04-15T15:00:00,1491A,87.6046,43.768,乌鲁木齐市,收费所,颗粒物(PM10),144,237,147,80,34,120,107,105,91,70,29,4,4,0.7,0.3
2023-04-15T15:00:00,1492A,87.4754,43.9469,乌鲁木齐市,新疆农科院农场,颗粒物(PM10),100,150,127,67,50,92,86,35,35,30,50,14,10,1.1,1
2023-04-15T15:00:00,1493A,87.5525,43.8711,乌鲁木齐市,铁路局,颗粒物(PM10),107,164,91,66,28,121,99,63,63,53,56,6,5,0.7,0.6
2023-04-15T15:00:00,1494A,87.6432,43.831,乌鲁木齐市,三十一中学,颗粒物(PM10),117,183,92,60,25,120,120,94,94,38,25,16,10,1.0,0.7
2023-04-15T15:00:00,1496A,87.7216,44.1747,乌鲁木齐市,米东区环保局,,,,76,,18,55,,59,,,21,,10,,0.3
2023-04-15T15:00:00,1508A,112.9433,27.8614,湘潭市,板塘,颗粒物(PM10),97,144,96,36,36,148,148,88,88,6,8,8,7,0.3,0.3
2023-04-15T15:00:00,1511A,112.9118,27.8403,湘潭市,市监测站,,,,96,33,32,145,145,82,82,,13,10,8,0.4,0.6
2023-04-15T15:00:00,1512A,112.8937,27.8728,湘潭市,江麓,颗粒物(PM10),105,160,107,39,40,154,154,103,103,6,9,10,9,0.3,0.2
2023-04-15T15:00:00,1513A,112.9227,27.8159,湘潭市,岳塘,颗粒物(PM10),126,201,107,36,35,130,130,86,86,17,14,26,17,0.9,0.6
2023-04-15T15:00:00,1514A,112.9074,27.9119,湘潭市,科大,颗粒物(PM10),97,144,115,22,35,153,153,101,101,9,17,7,6,0.4,0.4
2023-04-15T15:00:00,1515A,113.135,27.8244,株洲市,天台山庄,颗粒物(PM10),103,156,101,32,35,162,162,96,96,15,17,8,7,0.7,0.8
2023-04-15T15:00:00,1518A,113.095,27.8867,株洲市,株冶医院,颗粒物(PM10),114,178,104,35,36,130,,71,71,16,25,8,6,0.6,0.7
2023-04-15T15:00:00,1519A,113.167,27.8667,株洲市,市四中,颗粒物(PM10),102,154,95,30,38,157,157,83,83,14,17,10,8,0.6,0.7
2023-04-15T15:00:00,1520A,113.143,27.8381,株洲市,火车站,颗粒物(PM10),103,156,110,37,35,157,157,96,96,16,19,9,8,0.5,0.6
2023-04-15T15:00:00,1524A,113.13,27.8528,株洲市,市监测站,颗粒物(PM10),106,161,103,43,48,158,158,95,95,17,19,6,8,0.7,0.8
2023-04-15T15:00:00,1552A,106.805,26.3003,贵阳市,桐木岭,,,,,,,,,,,,,,,,
2023-04-15T15:00:00,1559A,113.251,27.8336,株洲市,大京风景区,颗粒物(PM10),97,144,83,31,29,139,139,86,86,11,12,6,4,0.4,0.3
2023-04-15T15:00:00,1562A,113.0048,27.9153,湘潭市,昭山,,,,104,,36,146,,87,87,12,16,4,3,0.5,0.6
2023-04-15T15:00:00,1564A,112.4876,27.9164,湘潭市,韶山,颗粒物(PM10),91,132,121,32,30,133,133,107,107,18,13,6,6,0.3,0.5
2023-04-15T15:00:00,1585A,109.8756,40.6532,包头市,市环境监测站,颗粒物(PM10),55,60,102,30,34,110,109,101,90,3,12,9,10,0.5,0.6
2023-04-15T15:00:00,1587A,109.9991,40.5842,包头市,包头八中,颗粒物(PM10),58,66,124,13,29,116,116,101,90,6,20,6,10,0.2,0.4
2023-04-15T15:00:00,1588A,109.8538,40.6821,包头市,青山宾馆,颗粒物(PM10),52,53,95,28,35,106,104,96,85,4,15,6,8,0.3,0.4
2023-04-15T15:00:00,1589A,109.8642,40.6288,包头市,惠龙物流,颗粒物(PM10),53,56,104,12,24,107,107,98,86,5,15,5,8,0.5,0.6
2023-04-15T15:00:00,1590A,110.0377,40.5546,包头市,东河鸿龙湾,颗粒物(PM10),61,72,114,15,20,107,106,95,90,3,12,9,15,0.3,0.4
2023-04-15T15:00:00,1591A,110.0023,39.8129,鄂尔多斯市,综合楼,颗粒物(PM10),117,183,132,27,30,101,101,96,96,8,12,5,6,0.4,0.4
2023-04-15T15:00:00,1592A,109.9486,39.8261,鄂尔多斯市,巴音孟克林场办事处,颗粒物(PM10),100,149,117,53,32,104,104,97,97,4,9,6,6,0.5,0.5
2023-04-15T15:00:00,1593A,109.7736,39.5986,鄂尔多斯市,康泽苑,颗粒物(PM10),78,105,102,18,25,100,100,93,93,9,12,6,7,0.4,0.5
2023-04-15T15:00:00,1594A,109.8119,39.5989,鄂尔多斯市,华泰汽车城,颗粒物(PM10),78,105,104,19,24,105,105,97,97,6,9,7,15,0.4,0.3
2023-04-15T15:00:00,1595A,109.9734,39.7884,鄂尔多斯市,奥林花园,颗粒物(PM10),95,139,141,17,22,104,104,92,92,7,22,6,10,0.4,0.5
2023-04-15T15:00:00,1597A,122.2703,40.7094,营口市,大庆路,颗粒物(PM10),176,302,238,82,75,122,101,85,85,12,27,7,10,0.4,0.9
2023-04-15T15:00:00,1598A,122.2150,40.6511,营口市,镜湖西路,颗粒物(PM10),206,354,265,69,64,118,105,91,91,12,23,9,11,0.3,0.8
2023-04-15T15:00:00,1599A,122.1658,40.6789,营口市,西炮台,颗粒物(PM10),409,509,235,109,66,94,94,81,80,17,35,9,11,0.4,1
2023-04-15T15:00:00,1600A,124.3303,40.0625,丹东市,江湾东路,颗粒物(PM10),279,405,132,78,38,119,106,98,98,12,18,10,11,0.4,0.5
2023-04-15T15:00:00,1601A,124.4256,40.1503,丹东市,临江后街,颗粒物(PM10),137,223,129,41,32,114,103,96,96,8,17,10,13,0.6,0.8
2023-04-15T15:00:00,1602A,124.3933,40.1461,丹东市,元宝山,颗粒物(PM10),185,320,129,60,35,107,98,85,85,12,19,8,10,0.8,0.9
2023-04-15T15:00:00,1603A,124.3633,40.1092,丹东市,民主桥,颗粒物(PM10),173,296,124,55,31,110,102,92,90,9,17,5,9,0.6,0.8
2023-04-15T15:00:00,1604A,122.0303,41.1489,盘锦市,开发区,,,,288,,57,121,101,85,85,9,30,6,11,0.4,0.8
2023-04-15T15:00:00,1605A,122.0485,41.0883,盘锦市,兴隆台,颗粒物(PM10),170,289,267,64,51,126,95,76,76,16,41,8,9,0.5,0.9
2023-04-15T15:00:00,1606A,121.8297,41.1028,盘锦市,新生街道,颗粒物(PM10),134,218,288,21,63,120,97,88,88,15,41,7,13,0.5,0.9
2023-04-15T15:00:00,1607A,120.9092,40.7136,葫芦岛市,龙港区,颗粒物(PM10),309,427,376,90,100,119,85,77,77,6,26,7,14,0.5,0.9
2023-04-15T15:00:00,1608A,120.8392,40.7514,葫芦岛市,化工街,颗粒物(PM10),324,439,392,58,72,123,87,77,77,6,41,6,11,0.6,1
2023-04-15T15:00:00,1609A,120.8341,40.7073,葫芦岛市,新区,颗粒物(PM10),250,385,325,72,83,110,82,77,77,14,39,10,16,0.4,0.9
2023-04-15T15:00:00,1610A,120.8695,40.7677,葫芦岛市,东城区,颗粒物(PM10),188,326,329,43,58,124,93,82,82,11,45,6,14,0.5,1
2023-04-15T15:00:00,1611A,118.5819,24.9117,泉州市,涂山街,颗粒物(PM10),52,54,92,33,47,187,157,121,121,16,48,9,13,0.9,0.9
2023-04-15T15:00:00,1612A,118.5972,24.8978,泉州市,津头埔,细颗粒物(PM2.5),55,55,90,39,52,188,154,120,120,17,50,10,12,0.7,0.8
2023-04-15T15:00:00,1613A,118.6663,24.9424,泉州市,万安,细颗粒物(PM2.5),60,49,77,43,54,206,167,122,122,13,39,11,11,0.8,0.8
2023-04-15T15:00:00,1614A,118.6117,24.9604,泉州市,清源山,,,,,,,,,,,,,,,,
2023-04-15T15:00:00,1616A,117.6795,36.229,济南市,技术学院,颗粒物(PM10),276,403,374,90,71,126,114,84,84,21,46,9,11,0.5,0.7
2023-04-15T15:00:00,1618A,118.3429,35.0532,临沂市,沂河小区,颗粒物(PM10),162,273,277,84,68,126,113,85,85,10,30,7,9,0.3,0.4
2023-04-15T15:00:00,1619A,118.295,35.0583,临沂市,鲁南制药厂,颗粒物(PM10),144,237,293,56,69,134,122,93,93,14,39,11,13,0.4,0.6
2023-04-15T15:00:00,1620A,118.2794,34.9976,临沂市,新光毛纺厂,颗粒物(PM10),145,239,259,54,54,136,117,90,90,10,33,7,8,0.4,0.6
2023-04-15T15:00:00,1621A,118.3956,35.0888,临沂市,河东保险公司,颗粒物(PM10),147,244,249,59,55,129,120,94,94,15,38,10,10,0.5,0.7
2023-04-15T15:00:00,1622A,116.3032,37.4674,德州市,儿童乐园,颗粒物(PM10),167,283,416,56,74,105,105,69,69,11,35,7,9,0.5,0.8
2023-04-15T15:00:00,1624A,116.2991,37.4451,德州市,监理站,颗粒物(PM10),155,259,398,41,72,113,113,72,72,13,42,14,14,0.5,0.7
2023-04-15T15:00:00,1625A,115.9848,36.4372,聊城市,区政府,颗粒物(PM10),355,464,447,169,105,112,101,82,82,19,40,16,11,0.9,0.9
2023-04-15T15:00:00,1628A,118.0062,37.3803,滨州市,市环保局,颗粒物(PM10),317,433,350,85,77,110,99,75,75,13,40,8,23,0.4,0.8
2023-04-15T15:00:00,1629A,118.0018,37.3617,滨州市,第二水厂,颗粒物(PM10),289,412,336,,80,111,96,72,72,18,45,5,18,0.2,0.6
2023-04-15T15:00:00,1630A,117.9776,37.393,滨州市,北中新校,细颗粒物(PM2.5),239,349,288,189,72,117,99,74,74,14,40,8,17,0.2,0.6
2023-04-15T15:00:00,1631A,118.0414,36.8103,淄博市,人民公园,,,,263,,65,38,,46,,,57,,16,,0.7
2023-04-15T15:00:00,1633A,117.8525,36.4847,淄博市,双山,颗粒物(PM10),96,141,303,39,73,107,101,88,88,17,31,8,14,0.1,0.4
2023-04-15T15:00:00,1634A,117.9592,36.6331,淄博市,气象站,颗粒物(PM10),140,229,318,58,68,110,110,87,87,10,42,13,17,0.2,0.4
2023-04-15T15:00:00,1635A,118.3092,36.8194,淄博市,莆田园,颗粒物(PM10),405,505,315,119,84,112,112,97,97,17,42,12,20,0.4,0.8
2023-04-15T15:00:00,1637A,117.558,34.8438,枣庄市,市中区政府,颗粒物(PM10),370,476,236,102,66,134,134,101,101,19,35,9,9,0.5,0.6
2023-04-15T15:00:00,1638A,117.2852,34.7837,枣庄市,薛城环保局,颗粒物(PM10),500,691,306,117,72,138,131,95,95,15,37,19,18,0.3,0.6
2023-04-15T15:00:00,1639A,117.5852,34.7745,枣庄市,峄城区政府,颗粒物(PM10),364,471,204,95,54,136,130,95,95,19,26,13,11,0.6,0.6
2023-04-15T15:00:00,1640A,117.7276,34.5578,枣庄市,台儿庄区环保局,颗粒物(PM10),185,320,126,80,49,169,128,90,90,24,32,12,11,0.7,1
2023-04-15T15:00:00,1641A,117.4518,35.0992,枣庄市,山亭区环保局,颗粒物(PM10),339,451,321,95,72,126,122,97,97,17,23,9,8,0.2,0.3
2023-04-15T15:00:00,1642A,121.2514,37.5639,烟台市,开发区,颗粒物(PM10),137,224,152,41,38,89,86,73,73,48,40,12,10,0.6,0.6
2023-04-15T15:00:00,1643A,121.3719,37.5433,烟台市,轴承厂,颗粒物(PM10),157,263,163,46,44,103,103,90,90,,36,7,10,0.5,0.6
2023-04-15T15:00:00,1644A,121.3181,37.5436,烟台市,西郊化工站,颗粒物(PM10),200,349,177,43,41,104,104,87,87,15,39,11,12,0.4,0.5
2023-04-15T15:00:00,1645A,121.4478,37.4822,烟台市,莱山环保局,颗粒物(PM10),128,205,143,44,36,89,75,77,77,37,44,13,11,0.6,0.4
2023-04-15T15:00:00,1646A,121.2611,37.4967,烟台市,福山环保局,颗粒物(PM10),173,295,185,44,36,104,100,82,82,28,45,15,11,0.8,0.7
2023-04-15T15:00:00,1650A,119.1437,36.7023,潍坊市,环保局,颗粒物(PM10),500,635,247,70,48,112,111,94,94,17,35,11,17,0.4,0.7
2023-04-15T15:00:00,1653A,116.6251,35.4302,济宁市,火炬城,颗粒物(PM10),175,300,374,48,84,134,108,78,78,10,30,12,14,0.6,0.9
2023-04-15T15:00:00,1655A,116.5491,35.4042,济宁市,电化厂,颗粒物(PM10),174,298,453,53,91,133,114,82,82,12,35,9,11,0.5,0.9
2023-04-15T15:00:00,1656A,117.1437,36.1937,泰安市,监测站,颗粒物(PM10),293,415,403,93,91,142,113,76,76,10,24,8,7,0.5,0.6
2023-04-15T15:00:00,1657A,117.0885,36.2017,泰安市,人口学校,颗粒物(PM10),245,381,429,82,90,139,114,80,80,13,22,9,7,,0.5
2023-04-15T15:00:00,1658A,117.1089,36.1758,泰安市,电力学校,颗粒物(PM10),279,405,434,83,88,149,120,80,80,14,41,11,11,0.4,0.5
2023-04-15T15:00:00,1659A,119.471,35.4209,日照市,监测站,颗粒物(PM10),145,239,180,42,37,115,115,82,82,25,32,6,4,0.7,0.5
2023-04-15T15:00:00,1660A,119.523,35.4216,日照市,市政府广场,颗粒物(PM10),141,232,185,43,40,113,113,80,80,17,22,7,6,0.4,0.5
2023-04-15T15:00:00,1661A,119.5587,35.4044,日照市,港务局,颗粒物(PM10),169,288,192,42,39,110,106,80,74,31,34,8,8,0.3,0.4
2023-04-15T15:00:00,1662A,122.1214,37.4236,威海市,华夏技校,颗粒物(PM10),136,222,153,51,43,116,108,94,94,23,33,6,6,0.3,0.4
2023-04-15T15:00:00,1663A,122.0508,37.5236,威海市,山大分校,颗粒物(PM10),163,276,153,42,32,142,142,83,83,10,35,10,5,0.6,0.4
2023-04-15T15:00:00,1664A,122.1067,37.5072,威海市,市监测站,颗粒物(PM10),180,310,159,49,39,116,109,86,86,18,41,8,8,0.5,0.6
2023-04-15T15:00:00,1666A,118.6614,37.4309,东营市,市环保局,颗粒物(PM10),161,271,269,44,51,131,118,97,97,25,37,14,15,0.7,0.7
2023-04-15T15:00:00,1669A,113.5824,24.7733,韶关市,市八中,,33,10,37,14,20,105,105,67,67,6,18,10,13,0.7,0.7
2023-04-15T15:00:00,1671A,113.5917,24.7972,韶关市,园林处,,33,31,36,18,22,104,104,68,68,3,15,11,14,0.7,0.8
2023-04-15T15:00:00,1672A,113.6735,24.7791,韶关市,韶关学院,,36,28,43,16,30,114,114,61,61,10,24,10,13,0.5,0.7
2023-04-15T15:00:00,1673A,113.5971,24.6863,韶关市,曲江监测站,,36,22,47,11,23,115,115,64,64,6,26,11,12,0.8,0.8
2023-04-15T15:00:00,1674A,116.6794,23.3667,汕头市,金平子站,,43,42,52,20,30,138,137,115,115,11,22,6,7,0.8,0.8
2023-04-15T15:00:00,1675A,116.7244,23.3633,汕头市,龙湖子站,,45,32,49,20,27,153,142,127,127,11,22,3,4,0.8,0.8
2023-04-15T15:00:00,1676A,116.7258,23.2775,汕头市,濠江子站,,46,45,54,17,33,158,145,122,122,18,23,9,9,0.8,0.9
2023-04-15T15:00:00,1677A,116.7519,23.4714,汕头市,澄海子站,,41,25,60,15,34,142,130,119,119,11,34,5,13,0.6,0.8
2023-04-15T15:00:00,1678A,116.6092,23.2539,汕头市,潮阳子站,,44,28,56,16,25,139,139,109,109,9,16,10,10,0.7,0.7
2023-04-15T15:00:00,1680A,110.3539,21.2706,湛江市,湛江影剧院,细颗粒物(PM2.5),57,58,62,40,26,74,74,60,48,9,11,9,13,0.6,0.5
2023-04-15T15:00:00,1681A,110.3928,21.2228,湛江市,市环境监测站,,,,58,,31,55,,58,,,10,,10,,0.5
2023-04-15T15:00:00,1682A,110.4019,21.1997,湛江市,环保局宿舍,颗粒物(PM10),54,58,58,31,27,72,58,64,42,17,14,14,8,0.6,0.5
2023-04-15T15:00:00,1683A,110.4111,21.2028,湛江市,霞山游泳场,颗粒物(PM10),54,58,67,33,31,79,55,66,37,19,14,16,11,0.7,0.6
2023-04-15T15:00:00,1684A,110.3316,21.2679,湛江市,麻章区环保局,颗粒物(PM10),59,68,63,36,33,72,72,61,43,16,16,7,12,0.7,0.6
2023-04-15T15:00:00,1685A,110.4558,21.2567,湛江市,坡头区环保局,细颗粒物(PM2.5),52,50,61,36,30,80,54,63,40,23,12,17,13,0.7,0.6
2023-04-15T15:00:00,1686A,111.0286,21.4688,茂名市,电白南海,颗粒物(PM10),52,53,67,29,33,81,60,42,41,11,15,8,9,0.5,0.6
2023-04-15T15:00:00,1687A,110.9294,21.6533,茂名市,茂石化七小,细颗粒物(PM2.5),55,47,53,39,30,95,89,61,61,13,14,12,9,0.6,0.5
2023-04-15T15:00:00,1688A,110.9107,21.6687,茂名市,健康路,,41,41,50,28,23,101,101,60,60,5,14,12,11,0.7,0.6
2023-04-15T15:00:00,1689A,110.8592,21.6828,茂名市,高岭,,39,39,61,27,35,95,95,58,58,4,16,10,15,0.6,0.6
2023-04-15T15:00:00,1690A,116.1231,24.3284,梅州市,梅江月梅,,36,9,33,4,23,114,114,87,87,7,21,5,5,0.5,0.5
2023-04-15T15:00:00,1691A,116.0797,24.2719,梅州市,梅县新城,,35,14,29,8,22,110,110,91,91,6,18,6,4,0.6,0.6
2023-04-15T15:00:00,1692A,116.1248,24.2654,梅州市,环境监控中心,,38,11,31,5,20,119,119,95,95,6,24,7,8,0.6,0.6
2023-04-15T15:00:00,1693A,115.3653,22.775,汕尾市,市环保局,,50,41,55,24,24,159,159,104,104,8,8,8,9,0.7,0.7
2023-04-15T15:00:00,1694A,115.3706,22.7898,汕尾市,市政府,,48,28,48,31,30,152,152,100,100,8,10,9,9,0.8,0.7
2023-04-15T15:00:00,1695A,115.3622,22.7925,汕尾市,新城中学,,,,59,,28,78,,77,,,8,,6,,0.7
2023-04-15T15:00:00,1696A,114.6778,23.7569,河源市,源西,,32,24,38,9,26,108,101,90,90,10,22,5,6,0.7,0.7
2023-04-15T15:00:00,1697A,114.6944,23.7586,河源市,东埔,,36,6,36,11,24,115,114,97,97,5,14,5,6,0.7,0.7
2023-04-15T15:00:00,1698A,114.6892,23.7233,河源市,老城,,36,28,46,8,24,116,113,98,98,5,14,5,5,0.8,0.8
2023-04-15T15:00:00,1699A,111.9797,21.8593,阳江市,鸳鸯湖,,33,33,71,23,33,92,92,56,46,5,10,6,6,0.7,0.6
2023-04-15T15:00:00,1701A,111.9491,21.8658,阳江市,马南垌,,42,42,74,19,34,102,102,46,46,8,16,6,6,0.7,0.7
2023-04-15T15:00:00,1702A,113.0426,23.691,清远市,环保大楼,,29,16,67,15,33,93,92,85,85,1,33,4,6,0.8,1
2023-04-15T15:00:00,1703A,113.0208,23.7106,清远市,凤城街办,,,17,73,10,39,84,82,79,79,2,31,4,7,,0.7
2023-04-15T15:00:00,1705A,116.6367,23.6719,潮州市,西园路,,45,16,64,31,34,122,78,76,76,6,18,5,7,0.5,0.6
2023-04-15T15:00:00,1706A,116.6447,23.6706,潮州市,档案局,,35,23,57,8,35,142,110,102,102,1,16,6,10,0.6,0.7
2023-04-15T15:00:00,1708A,116.3701,23.5345,揭阳市,新兴,,38,17,60,16,33,121,121,108,108,5,19,6,8,0.6,0.7
2023-04-15T15:00:00,1709A,116.3264,23.5443,揭阳市,西马,,37,27,59,12,27,118,118,102,102,7,18,5,7,0.7,0.7
2023-04-15T15:00:00,1710A,116.3611,23.5626,揭阳市,东兴,,37,37,63,13,32,120,116,101,101,8,14,3,5,0.8,0.9
2023-04-15T15:00:00,1711A,116.4151,23.5294,揭阳市,渔湖,,42,42,63,13,31,128,114,104,104,2,11,7,8,0.7,0.8
2023-04-15T15:00:00,1712A,112.0392,22.9169,云浮市,新市府,,37,37,33,15,22,92,61,74,74,20,12,8,6,0.8,0.7
2023-04-15T15:00:00,1714A,112.0539,22.9539,云浮市,牧羊,,32,32,43,17,23,82,44,64,64,31,24,13,14,0.6,0.6
2023-04-15T15:00:00,1715A,102.575,24.3711,玉溪市,东风水库,细颗粒物(PM2.5),57,52,126,40,107,177,146,107,107,9,27,4,10,1.0,2
2023-04-15T15:00:00,1718A,115.4208,35.2464,菏泽市,气象局,颗粒物(PM10),139,227,517,33,90,135,107,83,83,16,42,8,10,0.3,0.6
2023-04-15T15:00:00,1719A,115.4747,35.2375,菏泽市,市政协,颗粒物(PM10),149,248,497,40,78,135,107,84,84,13,33,6,8,0.4,0.7
2023-04-15T15:00:00,1721A,113.3819,40.1097,大同市,果树场,,,,,,,,,,,,,,,,
2023-04-15T15:00:00,1723A,113.2994,40.0758,大同市,云冈宾馆,颗粒物(PM10),84,117,113,20,22,114,104,85,85,5,18,8,13,0.5,0.7
2023-04-15T15:00:00,1724A,113.3444,40.0917,大同市,大同大学,颗粒物(PM10),109,168,106,17,34,108,90,80,80,100,21,7,12,0.5,0.6
2023-04-15T15:00:00,1725A,113.2661,40.1269,大同市,安家小村,颗粒物(PM10),81,111,169,16,36,106,98,82,82,4,15,6,10,0.3,0.5
2023-04-15T15:00:00,1726A,113.2711,40.0844,大同市,教育学院,颗粒物(PM10),82,113,110,18,47,101,95,78,78,9,21,8,12,0.4,0.6
2023-04-15T15:00:00,1727A,113.1147,36.1547,长治市,清华站,颗粒物(PM10),89,127,172,41,55,120,120,104,104,4,17,6,9,0.2,0.3
2023-04-15T15:00:00,1728A,113.1031,36.1989,长治市,监测站,颗粒物(PM10),75,99,158,19,46,116,116,98,98,5,22,5,8,0.3,0.5
2023-04-15T15:00:00,1730A,113.0886,36.2125,长治市,审计局,颗粒物(PM10),94,138,160,19,47,115,115,96,96,4,25,7,13,0.2,0.4
2023-04-15T15:00:00,1731A,113.0844,36.1856,长治市,长治八中,颗粒物(PM10),80,109,167,9,43,115,115,99,99,2,18,4,7,0.3,0.4
2023-04-15T15:00:00,1733A,111.5531,36.0783,临汾市,临钢医院,颗粒物(PM10),87,124,176,30,60,115,115,72,72,11,20,2,10,0.3,0.8
2023-04-15T15:00:00,1734A,111.5028,36.0714,临汾市,技工学校,颗粒物(PM10),80,109,157,19,44,120,120,75,75,10,36,4,6,0.4,0.6
2023-04-15T15:00:00,1736A,111.5018,36.0855,临汾市,市委,颗粒物(PM10),93,135,195,16,47,128,128,79,79,5,33,4,12,0.4,0.7
2023-04-15T15:00:00,1738A,113.5758,37.8572,阳泉市,市中心,颗粒物(PM10),65,80,300,9,60,106,106,78,78,12,42,8,16,0.5,0.6
2023-04-15T15:00:00,1739A,113.4894,37.8731,阳泉市,赛鱼,细颗粒物(PM2.5),150,121,300,115,102,105,105,77,77,15,48,7,10,0.6,0.5
2023-04-15T15:00:00,1740A,113.5819,37.8486,阳泉市,南庄,颗粒物(PM10),80,109,308,29,74,110,110,79,79,15,44,8,20,0.4,0.5
2023-04-15T15:00:00,1742A,113.5614,37.8703,阳泉市,平坦,颗粒物(PM10),96,141,309,24,77,106,106,78,78,8,46,7,11,0.5,0.6
2023-04-15T15:00:00,1743A,113.5158,37.8392,阳泉市,大阳泉,颗粒物(PM10),72,94,272,22,62,110,110,88,88,11,30,5,8,0.5,0.6
2023-04-15T15:00:00,1744A,118.9233,42.2816,赤峰市,松山一中,颗粒物(PM10),64,78,204,10,48,103,75,89,78,13,14,9,8,0.5,0.5
2023-04-15T15:00:00,1745A,118.9576,42.2728,赤峰市,哈达街,颗粒物(PM10),68,85,250,19,49,101,70,91,74,16,14,9,10,0.4,0.3
2023-04-15T15:00:00,1746A,118.8788,42.2554,赤峰市,天义路,颗粒物(PM10),58,65,238,10,50,115,74,93,80,13,11,10,11,0.5,0.4
2023-04-15T15:00:00,1748A,123.044,41.1196,鞍山市,深沟寺,颗粒物(PM10),134,217,292,50,90,106,105,83,77,11,34,12,20,0.8,1.8
2023-04-15T15:00:00,1749A,123.011,41.0931,鞍山市,太阳城,颗粒物(PM10),125,200,268,43,74,115,105,79,79,12,35,10,18,0.4,1.8
2023-04-15T15:00:00,1750A,123.0485,41.1442,鞍山市,太平,颗粒物(PM10),114,177,307,43,90,103,101,72,72,14,40,13,25,0.8,2
2023-04-15T15:00:00,1751A,122.9642,41.0971,鞍山市,铁西三道街,颗粒物(PM10),137,223,297,56,92,106,102,78,78,15,40,6,16,0.5,1.5
2023-04-15T15:00:00,1752A,122.9341,41.0833,鞍山市,铁西工业园区,颗粒物(PM10),125,200,288,56,97,114,106,83,83,12,37,9,20,0.4,1.6
2023-04-15T15:00:00,1753A,123.022,41.0821,鞍山市,明达新区,颗粒物(PM10),141,232,266,45,74,112,108,83,82,11,36,8,17,0.5,1.5
2023-04-15T15:00:00,1754A,123.1289,41.0228,鞍山市,千山,,,,,,,,,,,,,,,,
2023-04-15T15:00:00,1755A,123.7977,41.8491,抚顺市,望花区,颗粒物(PM10),173,296,260,37,79,115,115,83,83,11,39,10,22,1.0,1.4
2023-04-15T15:00:00,1756A,123.9161,41.8822,抚顺市,顺城区,颗粒物(PM10),158,265,247,32,68,113,113,81,81,14,45,6,12,0.4,0.9
2023-04-15T15:00:00,1757A,124.0436,41.8611,抚顺市,东洲区,颗粒物(PM10),181,311,263,45,71,111,111,78,78,7,31,4,9,,1
2023-04-15T15:00:00,1758A,123.9247,41.8642,抚顺市,新抚区,颗粒物(PM10),173,295,264,39,77,109,109,80,80,12,38,8,13,0.3,1
2023-04-15T15:00:00,1759A,124.0972,41.8961,抚顺市,大伙房水库,颗粒物(PM10),197,343,260,44,64,118,118,86,86,8,26,7,9,0.3,0.7
2023-04-15T15:00:00,1760A,123.7086,41.8391,抚顺市,沈抚新城,颗粒物(PM10),161,271,250,27,68,116,116,91,91,7,37,8,14,0.2,0.7
2023-04-15T15:00:00,1761A,123.8275,41.3064,本溪市,大峪,颗粒物(PM10),448,548,285,94,74,91,85,67,67,14,37,6,9,0.9,1.7
2023-04-15T15:00:00,1762A,123.7567,41.3325,本溪市,溪湖,颗粒物(PM10),340,452,273,91,70,105,101,85,85,14,34,11,16,0.5,1
2023-04-15T15:00:00,1763A,123.7169,41.3094,本溪市,彩屯,颗粒物(PM10),320,436,262,82,72,110,99,83,83,14,32,11,16,1.1,1.5
2023-04-15T15:00:00,1764A,123.7669,41.2864,本溪市,东明,颗粒物(PM10),437,537,313,107,91,110,89,76,76,26,52,15,21,1.0,1.7
2023-04-15T15:00:00,1765A,123.7992,41.2664,本溪市,新立屯,颗粒物(PM10),473,573,313,111,68,109,90,74,74,24,47,21,17,1.0,1.3
2023-04-15T15:00:00,1766A,123.8142,41.3472,本溪市,威宁,颗粒物(PM10),428,528,290,124,95,96,94,75,75,16,42,8,8,0.7,1.1
2023-04-15T15:00:00,1767A,121.1115,41.0879,锦州市,南山,颗粒物(PM10),58,66,371,16,92,125,102,90,90,12,27,5,12,0.4,0.7
2023-04-15T15:00:00,1768A,121.0533,40.8434,锦州市,开发区,颗粒物(PM10),475,575,480,97,112,107,74,75,75,26,56,8,30,0.4,0.8
2023-04-15T15:00:00,1769A,121.1836,41.1119,锦州市,百股街道,颗粒物(PM10),59,67,338,12,93,124,103,89,89,8,40,5,11,0.4,0.9
2023-04-15T15:00:00,1770A,121.1178,41.1222,锦州市,天安街道,颗粒物(PM10),59,68,386,7,82,122,107,96,96,5,25,9,17,0.5,0.8
2023-04-15T15:00:00,1771A,121.1303,41.1386,锦州市,北湖公园,颗粒物(PM10),62,74,347,17,77,121,102,94,94,6,22,8,19,0.4,0.7
2023-04-15T15:00:00,1772A,126.54,43.8622,吉林市,哈达湾,,,,94,,63,148,141,137,137,11,32,7,8,0.4,0.7
2023-04-15T15:00:00,1773A,126.5844,43.8358,吉林市,东局子,,,,100,,65,62,,74,,,40,,8,,0.9
2023-04-15T15:00:00,1774A,126.5052,43.8245,吉林市,电力学院,颗粒物(PM10),68,85,106,36,68,139,136,105,105,9,32,7,12,0.6,0.9
2023-04-15T15:00:00,1775A,126.6133,43.8972,吉林市,江北,颗粒物(PM10),69,87,94,34,54,150,142,117,117,10,31,9,10,0.5,0.7
2023-04-15T15:00:00,1776A,126.555,43.8306,吉林市,江南公园,颗粒物(PM10),69,88,96,36,61,127,127,100,100,14,42,5,7,0.5,0.8
2023-04-15T15:00:00,1778A,126.7061,43.7133,吉林市,丰满,,,,,,,,,,,,,,,,
2023-04-15T15:00:00,1779A,123.9305,47.3636,齐齐哈尔市,安居小区,,37,37,49,17,30,96,96,81,81,15,21,2,3,0.2,0.3
2023-04-15T15:00:00,1780A,123.9488,47.3386,齐齐哈尔市,中心广场,,32,32,42,3,16,95,95,78,78,11,19,6,6,0.4,0.4
2023-04-15T15:00:00,1781A,123.9483,47.3227,齐齐哈尔市,农牧车辆厂,,36,36,53,11,19,100,100,81,81,7,22,5,5,0.3,0.4
2023-04-15T15:00:00,1783A,123.945,47.2988,齐齐哈尔市,市环境监测站,,37,37,53,12,29,100,100,81,81,5,22,4,8,0.2,0.4
2023-04-15T15:00:00,1784A,129.61,44.561,牡丹江市,环保大楼,颗粒物(PM10),71,92,169,42,133,114,111,92,92,16,44,5,13,0.4,1.1
2023-04-15T15:00:00,1785A,129.6115,44.5782,牡丹江市,文化广场,颗粒物(PM10),75,100,176,45,122,104,100,85,85,26,48,4,11,0.5,1.1
2023-04-15T15:00:00,1786A,129.5904,44.5963,牡丹江市,第一医院,颗粒物(PM10),75,100,113,53,89,111,108,90,90,20,30,4,8,0.5,0.8
2023-04-15T15:00:00,1787A,129.6364,44.6075,牡丹江市,机车工厂,颗粒物(PM10),119,187,187,51,132,120,120,95,95,23,38,8,9,0.7,1.2
2023-04-15T15:00:00,1788A,129.6386,44.5462,牡丹江市,第一中学,颗粒物(PM10),67,84,161,41,124,114,113,94,94,15,40,3,6,0.5,1.1
2023-04-15T15:00:00,1789A,124.81117,46.03138,大庆市,大同区,,39,39,47,13,20,103,102,88,88,5,9,3,4,0.5,0.5
2023-04-15T15:00:00,1790A,125.129,46.533,大庆市,龙凤区,,30,21,26,8,15,95,95,83,83,6,10,2,3,0.4,0.4
2023-04-15T15:00:00,1791A,124.902,46.408,大庆市,红岗区,,33,25,32,15,19,103,103,92,92,6,15,5,6,0.6,0.6
2023-04-15T15:00:00,1792A,125.153,46.586,大庆市,萨尔图区,,30,26,28,6,15,95,95,83,83,2,5,6,6,0.2,0.2
2023-04-15T15:00:00,1793A,124.9042,46.6215,大庆市,让胡路区,,,,27,9,20,87,86,75,75,3,13,5,5,0.3,0.4
2023-04-15T15:00:00,1794A,118.3606,31.3519,芜湖市,监测站,颗粒物(PM10),117,184,87,46,39,146,145,109,109,16,49,8,7,0.8,0.9
2023-04-15T15:00:00,1795A,118.3714,31.4134,芜湖市,科创中心,颗粒物(PM10),107,164,89,46,40,149,149,114,114,16,45,4,6,1.0,1.1
2023-04-15T15:00:00,1796A,118.3673,31.3131,芜湖市,四水厂,颗粒物(PM10),112,173,92,54,40,152,152,103,103,31,64,14,9,1.3,1
2023-04-15T15:00:00,1798A,118.5092,31.6837,马鞍山市,湖东路四小,颗粒物(PM10),119,188,105,39,43,154,154,112,112,12,36,11,14,0.7,1.2
2023-04-15T15:00:00,1799A,118.5024,31.6449,马鞍山市,开发区,颗粒物(PM10),122,194,113,39,39,155,154,115,115,6,26,10,10,0.8,1.2
2023-04-15T15:00:00,1800A,118.5228,31.7231,马鞍山市,慈湖,颗粒物(PM10),127,204,127,50,47,153,153,111,111,15,54,11,12,0.8,1.1
2023-04-15T15:00:00,1802A,118.6245,31.7241,马鞍山市,濮塘,颗粒物(PM10),126,202,106,67,49,152,149,114,114,10,23,10,10,1.1,1.3
2023-04-15T15:00:00,1803A,115.9872,29.6815,九江市,十里,颗粒物(PM10),147,243,118,63,41,136,136,108,108,18,29,11,11,0.7,0.9
2023-04-15T15:00:00,1804A,115.9584,29.7046,九江市,茅山头,颗粒物(PM10),139,228,114,47,43,140,140,104,104,11,23,16,12,0.8,0.9
2023-04-15T15:00:00,1805A,115.9877,29.7295,九江市,西园,颗粒物(PM10),151,252,125,62,46,129,129,102,102,30,36,15,13,0.8,0.8
2023-04-15T15:00:00,1806A,116.0172,29.6547,九江市,五七二七厂,颗粒物(PM10),146,241,116,48,38,137,137,116,116,8,16,9,9,0.3,0.6
2023-04-15T15:00:00,1808A,115.9114,29.6038,九江市,综合工业园,颗粒物(PM10),154,258,127,68,50,135,135,113,113,18,32,11,12,0.6,1
2023-04-15T15:00:00,1809A,116.0721,29.7535,九江市,石化总厂,颗粒物(PM10),178,306,140,57,44,126,126,100,100,27,33,15,11,0.7,0.8
2023-04-15T15:00:00,1810A,115.9773,29.5698,九江市,庐山气象台,颗粒物(PM10),131,212,59,51,28,115,110,112,106,6,11,6,6,0.8,1
2023-04-15T15:00:00,1812A,112.3931,34.6516,洛阳市,市委党校,颗粒物(PM10),107,163,100,41,31,113,113,86,86,4,11,6,8,0.5,0.6
2023-04-15T15:00:00,1814A,112.4657,34.6871,洛阳市,豫西宾馆,颗粒物(PM10),148,246,128,27,34,120,120,92,92,4,17,3,6,0,0.3
2023-04-15T15:00:00,1815A,112.494,34.6886,洛阳市,河南林校,颗粒物(PM10),133,215,124,38,37,123,123,93,93,6,18,5,8,0.1,0.2
2023-04-15T15:00:00,1816A,112.3844,34.623,洛阳市,开发区管委会,颗粒物(PM10),111,171,95,33,31,125,125,92,92,1,10,3,4,0.1,0.2
2023-04-15T15:00:00,1817A,112.4267,34.6258,洛阳市,市委新办公区,颗粒物(PM10),107,164,99,29,33,121,121,92,92,7,13,4,5,0.3,0.4
2023-04-15T15:00:00,1818A,114.4839,36.0621,安阳市,棉研所,,,,,,,,,,,,,,,,
2023-04-15T15:00:00,1819A,114.3551,36.1017,安阳市,红庙街,颗粒物(PM10),115,179,607,21,135,114,114,80,80,9,37,10,16,0.5,0.7
2023-04-15T15:00:00,1820A,114.361,36.0681,安阳市,银杏小区,颗粒物(PM10),103,156,563,58,120,115,115,85,85,10,36,11,17,0.4,0.6
2023-04-15T15:00:00,1824A,114.3389,34.7781,开封市,肿瘤医院,颗粒物(PM10),127,204,579,27,111,119,119,87,87,7,30,7,7,0.4,0.6
2023-04-15T15:00:00,1826A,114.2885,34.7965,开封市,世纪星幼儿园,颗粒物(PM10),127,203,551,41,114,114,114,80,80,5,30,5,5,0.5,0.7
2023-04-15T15:00:00,1828A,113.227,35.2125,焦作市,市环保局,颗粒物(PM10),132,213,388,29,70,120,120,78,78,5,24,5,11,0.3,0.5
2023-04-15T15:00:00,1830A,113.1992,35.2590,焦作市,影视城,,,,,,,,,,,,,,,,
2023-04-15T15:00:00,1832A,113.3257,33.742,平顶山市,新华旅馆,细颗粒物(PM2.5),160,70,111,122,48,120,120,91,91,5,18,3,7,0.4,0.4
2023-04-15T15:00:00,1833A,113.2919,33.737,平顶山市,规划设计院,颗粒物(PM10),71,91,115,24,36,125,125,93,93,3,20,4,8,0.3,0.4
2023-04-15T15:00:00,1834A,113.182,33.774,平顶山市,平顶山工学院,颗粒物(PM10),69,88,112,19,29,120,120,95,95,7,18,3,7,0.2,0.3
2023-04-15T15:00:00,1835A,111.1922,34.7752,三门峡市,市政府,颗粒物(PM10),125,200,102,39,31,128,128,74,74,8,39,7,10,0.2,0.3
2023-04-15T15:00:00,1836A,111.1587,34.7942,三门峡市,开发区,颗粒物(PM10),105,160,108,31,39,126,126,73,73,5,25,4,6,0.3,0.4
2023-04-15T15:00:00,1838A,111.143,34.7955,三门峡市,风景区,,,,,,,,,,,,,,,,
2023-04-15T15:00:00,1840A,111.2992,30.6981,宜昌市,白龙岗,颗粒物(PM10),60,70,69,24,30,110,110,55,55,15,29,4,4,0.5,0.6
2023-04-15T15:00:00,1841A,111.3549,30.6465,宜昌市,伍家岗,颗粒物(PM10),56,62,73,22,32,110,110,56,56,12,31,7,6,0.6,0.7
2023-04-15T15:00:00,1842A,111.2628,30.6961,宜昌市,点军区,颗粒物(PM10),62,73,70,19,25,109,109,55,55,22,20,7,6,0.6,0.6
2023-04-15T15:00:00,1843A,111.3275,30.7819,宜昌市,夷陵区,颗粒物(PM10),53,56,63,12,28,116,116,57,57,16,26,6,6,0.4,0.5
2023-04-15T15:00:00,1844A,112.2494,30.3197,荆州市,市图书馆,颗粒物(PM10),88,126,105,41,41,133,133,81,72,12,31,8,9,0.5,0.5
2023-04-15T15:00:00,1845A,112.2008,30.3544,荆州市,市委党校,颗粒物(PM10),90,130,101,36,37,130,130,76,76,11,26,8,10,0.5,0.6
2023-04-15T15:00:00,1847A,113.1094,29.3578,岳阳市,南湖风景区,颗粒物(PM10),111,172,118,40,41,126,126,86,83,8,18,11,10,0.4,0.5
2023-04-15T15:00:00,1848A,113.1493,29.4251,岳阳市,城陵矶,颗粒物(PM10),105,159,131,31,39,125,125,75,69,11,40,14,7,0.6,0.8
2023-04-15T15:00:00,1849A,113.1497,29.3575,岳阳市,开发区,颗粒物(PM10),89,128,111,37,40,128,128,80,80,8,24,12,11,0.4,0.6
2023-04-15T15:00:00,1850A,113.2621,29.4758,岳阳市,云溪区,颗粒物(PM10),107,163,127,40,41,135,135,98,73,8,21,9,10,0.6,0.9
2023-04-15T15:00:00,1851A,112.9943,29.4402,岳阳市,君山区,颗粒物(PM10),109,168,114,46,41,131,131,84,79,9,27,12,9,0.5,0.6
2023-04-15T15:00:00,1852A,113.2117,29.355,岳阳市,金凤水库,颗粒物(PM10),105,159,130,31,41,116,116,99,71,13,21,9,7,0.6,0.7
2023-04-15T15:00:00,1854A,111.6975,28.9703,常德市,市二中,颗粒物(PM10),93,135,74,31,33,124,124,55,55,2,12,7,5,0.4,0.6
2023-04-15T15:00:00,1857A,111.7158,29.1456,常德市,白鹤山,颗粒物(PM10),63,76,84,28,34,124,124,73,73,2,3,7,7,0.3,0.4
2023-04-15T15:00:00,1858A,110.5319,29.1217,张家界市,永定新区,颗粒物(PM10),59,68,70,20,29,108,108,61,61,4,9,3,3,0.1,0.2
2023-04-15T15:00:00,1859A,110.4697,29.1242,张家界市,电业局,颗粒物(PM10),57,63,72,28,36,105,105,57,57,8,19,8,8,0.2,0.4
2023-04-15T15:00:00,1860A,110.5594,29.3547,张家界市,未央路,颗粒物(PM10),66,81,71,24,28,96,96,54,54,4,13,6,6,0.3,0.4
2023-04-15T15:00:00,1861A,110.4417,29.315,张家界市,袁家界,颗粒物(PM10),56,62,70,34,28,101,100,90,90,6,8,6,6,0.6,0.8
2023-04-15T15:00:00,1862A,110.4144,25.3167,桂林市,电子科大尧山校区,颗粒物(PM10),81,111,67,34,28,121,121,107,97,11,10,6,4,0.5,0.7
2023-04-15T15:00:00,1863A,110.2819,25.2697,桂林市,监测站,颗粒物(PM10),82,113,66,30,20,133,133,110,97,11,15,8,6,0.5,0.7
2023-04-15T15:00:00,1864A,110.3089,25.2708,桂林市,龙隐路小学,颗粒物(PM10),79,107,63,32,27,136,136,108,104,6,9,8,8,0.5,0.7
2023-04-15T15:00:00,1865A,110.2869,25.2178,桂林市,八中,颗粒物(PM10),81,112,61,35,27,130,130,104,95,11,16,6,5,0.5,0.6
2023-04-15T15:00:00,1866A,109.2262,21.588,北海市,牛尾岭水库,,26,26,42,18,21,180,83,47,47,6,5,7,8,0.7,0.7
2023-04-15T15:00:00,1867A,109.1436,21.4086,北海市,海滩公园,,30,27,47,15,21,95,94,53,53,7,10,2,4,0.8,0.7
2023-04-15T15:00:00,1868A,109.0981,21.4661,北海市,新市环保局,,34,34,53,22,26,94,94,53,53,6,16,3,5,0.7,0.6
2023-04-15T15:00:00,1869A,109.1778,21.5233,北海市,北海工业园,细颗粒物(PM2.5),53,40,59,37,32,95,95,52,52,9,18,6,10,0.7,0.6
2023-04-15T15:00:00,1870A,109.4856,24.3895,柳州市,柳东小学,颗粒物(PM10),76,102,48,39,30,128,123,86,86,4,7,9,6,0.6,0.7
2023-04-15T15:00:00,1871A,109.4157,24.3277,柳州市,环保监测站,颗粒物(PM10),62,73,50,33,25,113,109,75,75,11,15,7,5,0.8,0.8
2023-04-15T15:00:00,1872A,109.389,24.341,柳州市,河西水厂,颗粒物(PM10),67,84,55,42,30,107,103,65,65,9,20,6,6,0.7,1
2023-04-15T15:00:00,1873A,109.4311,24.2921,柳州市,市四中,颗粒物(PM10),69,88,52,26,24,117,116,81,81,8,13,10,8,0.7,0.8
2023-04-15T15:00:00,1874A,109.4006,24.3631,柳州市,市九中,颗粒物(PM10),82,113,59,37,28,114,82,71,71,32,18,28,8,2.0,0.9
2023-04-15T15:00:00,1875A,109.4958,24.3134,柳州市,古亭山,颗粒物(PM10),84,118,53,39,28,121,121,85,85,5,10,4,3,0.7,0.8
2023-04-15T15:00:00,1876A,109.5078,18.2489,三亚市,河东子站,,28,26,32,19,21,70,64,60,60,8,7,2,2,0.5,0.5
2023-04-15T15:00:00,1877A,109.4964,18.2681,三亚市,河西子站,,30,29,34,21,20,68,62,52,52,5,7,2,2,0.4,0.5
2023-04-15T15:00:00,1878A,104.7778,31.4741,绵阳市,富乐山,臭氧1小时,95,62,68,32,32,196,196,111,111,12,23,6,4,0.5,0.5
2023-04-15T15:00:00,1879A,104.7563,31.4535,绵阳市,市人大,臭氧1小时,75,77,83,41,36,180,180,102,102,14,46,9,7,0.6,0.6
2023-04-15T15:00:00,1880A,104.6697,31.4668,绵阳市,高新区自来水公司,"颗粒物(PM10),臭氧1小时",60,70,78,19,29,173,168,101,101,5,34,6,7,0.4,0.5
2023-04-15T15:00:00,1881A,104.7287,31.5075,绵阳市,三水厂,臭氧1小时,67,73,84,29,35,173,173,95,95,13,42,6,5,0.5,0.6
2023-04-15T15:00:00,1882A,104.563,28.793,宜宾市,石马中学,,46,28,29,19,20,147,147,95,95,9,15,5,5,0.4,0.5
2023-04-15T15:00:00,1883A,104.6201,28.7728,宜宾市,市委,,48,36,38,20,20,152,152,88,88,9,27,8,7,0.5,0.6
2023-04-15T15:00:00,1884A,104.6055,28.793,宜宾市,宜宾四中,,48,36,37,18,20,152,152,94,94,8,21,9,9,0.4,0.5
2023-04-15T15:00:00,1885A,104.639,28.7562,宜宾市,市政府,,48,46,37,19,20,153,153,94,94,13,28,8,7,0.5,0.6
2023-04-15T15:00:00,1886A,104.5742,28.7199,宜宾市,黄金嘴,,45,31,35,17,18,142,142,98,98,10,21,10,9,0.3,0.3
2023-04-15T15:00:00,1888A,101.6891,26.571,攀枝花市,弄弄坪,细颗粒物(PM2.5),77,54,72,56,40,204,180,130,130,12,19,11,12,0.7,0.8
2023-04-15T15:00:00,1889A,101.5769,26.5928,攀枝花市,河门口,臭氧1小时,92,89,74,53,44,240,193,135,135,18,22,27,23,1.8,1.5
2023-04-15T15:00:00,1890A,101.7169,26.585,攀枝花市,炳草岗,臭氧1小时,72,64,72,42,33,198,177,125,125,10,31,14,13,0.8,1
2023-04-15T15:00:00,1891A,101.7369,26.5008,攀枝花市,仁和,颗粒物(PM10),64,78,60,42,38,192,170,123,123,10,16,11,9,1.0,0.9
2023-04-15T15:00:00,1893A,105.4324,28.9634,泸州市,九狮山,,43,25,30,14,19,137,137,88,88,8,17,6,10,0.5,0.6
2023-04-15T15:00:00,1894A,105.4427,28.9063,泸州市,小市上码头,颗粒物(PM10),63,76,71,24,30,135,135,91,91,6,19,9,16,0.4,0.6
2023-04-15T15:00:00,1895A,105.4241,28.8573,泸州市,兰田宪桥,,44,38,49,25,32,139,139,88,88,3,15,6,11,0.6,0.7
2023-04-15T15:00:00,1896A,105.4379,28.8833,泸州市,市环监站,,41,34,43,17,25,129,129,83,83,10,23,5,10,0.4,0.6
2023-04-15T15:00:00,1901A,104.4239,31.1208,德阳市,东山公园,臭氧1小时,95,86,81,35,36,196,196,113,113,18,30,4,5,0.5,0.5
2023-04-15T15:00:00,1902A,104.3826,31.1317,德阳市,西小区,臭氧1小时,88,92,86,35,39,190,190,100,100,20,38,4,7,0.5,0.5
2023-04-15T15:00:00,1904A,104.3553,31.1091,德阳市,耐火材料厂,臭氧1小时,104,101,95,34,45,207,207,108,108,13,30,3,9,0.5,0.5
2023-04-15T15:00:00,1905A,106.056,30.8064,南充市,西山风景区,颗粒物(PM10),58,65,55,32,30,153,153,98,98,9,18,7,12,0.6,0.6
2023-04-15T15:00:00,1906A,106.0789,30.8023,南充市,南充市委,颗粒物(PM10),69,88,77,28,29,150,150,92,92,13,36,11,11,0.4,0.6
2023-04-15T15:00:00,1907A,106.1031,30.8217,南充市,南充炼油厂,颗粒物(PM10),71,91,82,29,31,151,151,95,95,11,35,12,11,0.5,0.6
2023-04-15T15:00:00,1908A,106.1064,30.7856,南充市,高坪区监测站,颗粒物(PM10),65,79,74,28,32,153,153,95,95,15,38,14,17,0.4,0.6
2023-04-15T15:00:00,1909A,106.0642,30.7636,南充市,嘉陵区环保局,颗粒物(PM10),63,76,77,31,36,153,149,96,96,12,38,12,32,0.6,0.7
2023-04-15T15:00:00,1910A,106.1087,30.8388,南充市,市环境监测站,颗粒物(PM10),72,94,76,31,35,149,149,91,91,14,33,13,13,0.5,0.6
2023-04-15T15:00:00,1911A,106.9222,27.6869,遵义市,丁字口,,46,46,28,15,18,138,138,106,106,8,14,6,6,0.6,0.7
2023-04-15T15:00:00,1912A,106.9242,27.7019,遵义市,凤凰山,颗粒物(PM10),54,58,35,21,21,135,135,106,106,10,12,5,5,0.4,0.5
2023-04-15T15:00:00,1913A,106.8906,27.6486,遵义市,忠庄,颗粒物(PM10),53,55,36,17,16,133,133,104,104,14,12,2,2,0.5,0.6
2023-04-15T15:00:00,1914A,106.9231,27.6506,遵义市,舟水桥,,49,49,30,15,18,128,128,101,101,8,11,3,2,0.1,0.2
2023-04-15T15:00:00,1915A,106.9178,27.72,遵义市,干田坝,,42,42,31,21,16,131,131,102,102,6,13,5,5,0.2,0.5
2023-04-15T15:00:00,1916A,103.7897,25.5035,曲靖市,环境监测站,颗粒物(PM10),55,60,51,22,28,196,147,111,103,7,11,6,8,0.5,0.6
2023-04-15T15:00:00,1917A,103.8,25.5364,曲靖市,烟厂办公区,颗粒物(PM10),51,51,47,19,28,205,156,120,111,7,11,3,5,0.5,0.6
2023-04-15T15:00:00,1918A,108.7197,34.3956,咸阳市,气象站,颗粒物(PM10),63,76,70,14,21,116,116,84,84,7,30,2,3,0.3,0.4
2023-04-15T15:00:00,1919A,108.673,34.3155,咸阳市,实验中学,颗粒物(PM10),64,78,73,25,28,118,118,79,79,14,33,4,5,0.7,0.7
2023-04-15T15:00:00,1920A,108.7233,34.3617,咸阳市,师范学院,颗粒物(PM10),67,84,74,20,23,112,112,79,79,11,29,5,6,0.4,0.5
2023-04-15T15:00:00,1922A,109.0656,35.0994,铜川市,党校,颗粒物(PM10),108,166,95,21,23,74,74,36,36,7,39,11,10,0.4,0.6
2023-04-15T15:00:00,1923A,109.0697,35.0697,铜川市,王益区政府,颗粒物(PM10),93,136,76,22,21,118,118,77,77,5,28,4,10,0.3,0.5
2023-04-15T15:00:00,1924A,108.9344,34.9058,铜川市,新区管委会,颗粒物(PM10),90,130,71,24,21,132,132,98,98,3,14,6,7,0.3,0.4
2023-04-15T15:00:00,1926A,109.4131,36.6275,延安市,枣园,颗粒物(PM10),143,236,112,26,25,108,108,66,66,9,32,7,7,0.5,0.6
2023-04-15T15:00:00,1927A,109.4761,36.6028,延安市,延大医附院,颗粒物(PM10),164,278,122,53,33,120,115,80,80,6,33,4,4,0.4,0.5
2023-04-15T15:00:00,1929A,109.5056,36.6106,延安市,百米大道,颗粒物(PM10),166,282,130,42,35,119,111,77,77,9,41,6,7,0.4,0.5
2023-04-15T15:00:00,1930A,107.185,34.3063,宝鸡市,庙沟村,颗粒物(PM10),72,93,37,18,14,111,110,82,82,4,16,6,6,0.3,0.4
2023-04-15T15:00:00,1931A,107.0708,34.3017,宝鸡市,竹园沟,颗粒物(PM10),83,115,46,28,15,112,112,89,89,11,17,7,6,0.3,0.8
2023-04-15T15:00:00,1932A,107.1906,34.3672,宝鸡市,三陆医院,颗粒物(PM10),94,137,58,38,22,115,109,74,74,12,29,6,9,0.4,0.5
2023-04-15T15:00:00,1933A,107.1431,34.3547,宝鸡市,监测站,颗粒物(PM10),100,149,51,24,17,109,105,79,79,8,19,4,5,0.3,0.3
2023-04-15T15:00:00,1934A,107.1186,34.3739,宝鸡市,技工学校,颗粒物(PM10),99,148,56,21,18,108,107,85,85,11,17,5,5,0.3,0.3
2023-04-15T15:00:00,1935A,107.3906,34.3528,宝鸡市,陈仓区环保局家属楼,颗粒物(PM10),62,73,60,20,29,114,109,75,75,11,30,4,15,0.4,0.5
2023-04-15T15:00:00,1936A,107.2058,34.3497,宝鸡市,文理学院,颗粒物(PM10),90,129,57,24,12,110,107,77,77,12,26,7,9,0.2,0.3
2023-04-15T15:00:00,1937A,107.2386,34.3622,宝鸡市,三迪小学,颗粒物(PM10),87,124,59,33,23,111,107,76,76,13,30,8,10,0.2,0.3
2023-04-15T15:00:00,1938A,109.5293,34.5101,渭南市,农科所,颗粒物(PM10),92,134,81,29,24,118,118,86,83,11,22,8,10,0.3,0.3
2023-04-15T15:00:00,1939A,109.4974,34.4877,渭南市,日报社,,,139,87,27,24,116,116,81,70,,32,5,7,0.3,0.3
2023-04-15T15:00:00,1940A,109.4636,34.493,渭南市,体育馆,颗粒物(PM10),86,122,82,25,24,120,120,81,81,13,28,6,10,0.4,0.4
2023-04-15T15:00:00,1941A,109.4259,34.5023,渭南市,高新一小,颗粒物(PM10),72,94,76,23,25,119,119,78,78,11,28,3,6,0.4,0.5
2023-04-15T15:00:00,1943A,102.1725,38.5339,金昌市,新川苑,颗粒物(PM10),500,972,318,95,36,110,110,104,104,8,10,6,7,0.4,0.4
2023-04-15T15:00:00,1944A,102.1692,38.5167,金昌市,天庆家园,颗粒物(PM10),500,608,228,57,32,111,111,107,106,6,7,6,5,0.7,0.5
2023-04-15T15:00:00,1945A,98.2908,39.7711,嘉峪关市,气象局,颗粒物(PM10),54,58,190,22,29,120,111,93,93,3,10,7,5,0.4,0.3
2023-04-15T15:00:00,1947A,106.3394,38.817,石嘴山市,沙湖旅游区,颗粒物(PM10),84,118,128,21,22,116,116,109,108,7,15,11,10,0.3,0.3
2023-04-15T15:00:00,1948A,106.3668,39.0145,石嘴山市,大武口朝阳西街,颗粒物(PM10),107,163,104,24,18,111,107,109,106,5,6,5,5,0.2,0.2
2023-04-15T15:00:00,1949A,106.7704,39.2282,石嘴山市,惠农南大街,颗粒物(PM10),102,153,120,29,26,109,108,105,105,7,10,10,14,0.3,0.4
2023-04-15T15:00:00,1950A,106.7099,39.1325,石嘴山市,红果子镇惠新街,颗粒物(PM10),88,126,122,24,30,108,108,103,103,4,6,13,8,0.3,0.3
2023-04-15T15:00:00,1951A,84.895,45.6094,克拉玛依市,长征新村,,45,45,36,3,5,104,103,66,66,14,21,9,8,0.3,0.4
2023-04-15T15:00:00,1952A,84.8988,45.5893,克拉玛依市,南林小区,颗粒物(PM10),53,55,36,13,11,101,101,58,58,11,27,3,2,0.3,0.4
2023-04-15T15:00:00,1954A,84.905,44.3396,克拉玛依市,独山子区,颗粒物(PM10),66,82,70,15,16,130,123,100,100,16,15,21,9,0.6,0.5
2023-04-15T15:00:00,1955A,85.6979,46.098,克拉玛依市,乌尔禾区商贸楼,,32,28,29,17,8,103,102,61,56,4,16,14,12,0.3,0.3
2023-04-15T15:00:00,1956A,86.1472,41.7538,巴音郭楞州,孔雀公园,颗粒物(PM10),387,489,357,83,70,106,104,70,70,2,20,4,4,0.1,0.3
2023-04-15T15:00:00,1957A,86.1972,41.7166,巴音郭楞州,棉纺厂,颗粒物(PM10),380,484,410,107,98,103,95,70,70,4,11,4,3,0.2,0.2
2023-04-15T15:00:00,1958A,86.2357,41.7173,巴音郭楞州,经济开发区,颗粒物(PM10),395,496,368,76,77,103,103,83,83,6,12,7,6,0.2,0.2
2023-04-15T15:00:00,1961A,117.532,36.6868,济南市,东山小学,颗粒物(PM10),133,215,339,54,66,107,92,82,82,17,38,5,7,0.4,0.6
2023-04-15T15:00:00,1966A,120.0405,35.8735,青岛市,黄岛区4号,颗粒物(PM10),128,205,184,36,43,103,94,82,82,35,29,11,9,1.2,0.7
2023-04-15T15:00:00,1982A,122.0693,37.2174,威海市,文登开发区,颗粒物(PM10),111,171,126,29,35,109,107,92,92,7,21,4,5,0.1,0.3
2023-04-15T15:00:00,2031A,113.1817,27.9958,株洲市,云田中学,颗粒物(PM10),100,149,102,41,36,154,154,93,93,11,18,10,8,0.3,0.6
2023-04-15T15:00:00,2054A,114.1099,32.1059,信阳市,平桥分局,颗粒物(PM10),72,93,138,28,48,128,127,88,88,8,23,11,11,0.3,0.4
2023-04-15T15:00:00,2064A,113.9956,32.1271,信阳市,南湾水厂,颗粒物(PM10),58,66,118,27,35,134,134,92,92,6,10,9,10,0.3,0.4
2023-04-15T15:00:00,2065A,114.0775,32.1195,信阳市,市酿酒公司,颗粒物(PM10),63,76,109,31,44,130,129,89,89,11,28,7,8,0.3,0.5
2023-04-15T15:00:00,2066A,114.0609,32.1399,信阳市,审计局,颗粒物(PM10),65,80,125,46,54,134,134,97,97,10,27,9,10,0.2,0.4
2023-04-15T15:00:00,2067A,114.6613,33.6128,周口市,市环境监测站,颗粒物(PM10),96,142,388,30,86,124,124,92,92,7,18,9,12,0.4,0.7
2023-04-15T15:00:00,2068A,114.6758,33.6347,周口市,周口师范,颗粒物(PM10),98,146,382,29,85,118,118,91,91,11,21,10,12,0.4,0.7
2023-04-15T15:00:00,2069A,114.6546,33.5979,周口市,市运管处,颗粒物(PM10),101,151,380,24,79,125,125,91,91,5,24,7,9,0.1,0.5
2023-04-15T15:00:00,2070A,114.6369,33.6406,周口市,川汇区环保局,颗粒物(PM10),95,139,387,24,80,119,119,89,89,12,24,8,10,0.4,0.6
2023-04-15T15:00:00,2075A,117.6336,24.4674,漳州市,九湖,,,,,,,,,,,,,,,,
2023-04-15T15:00:00,2160A,112.85,35.5051,晋城市,自来水公司,,,114,146,22,37,121,121,87,87,12,25,,6,0.1,0.3
2023-04-15T15:00:00,2161A,112.8318,35.4936,晋城市,白云商贸,颗粒物(PM10),93,136,155,22,41,125,125,91,91,7,18,7,6,0.5,0.6
2023-04-15T15:00:00,2162A,112.8508,35.4887,晋城市,市环保局,,,85,144,,44,119,119,84,84,5,20,9,8,0.4,0.5
2023-04-15T15:00:00,2163A,112.8676,35.4897,晋城市,技术学院,细颗粒物(PM2.5),213,102,150,163,64,117,117,86,86,8,23,8,8,0.4,0.4
2023-04-15T15:00:00,2165A,112.8453,35.546,晋城市,白马寺,,,,,,,,,,,,,,,,
2023-04-15T15:00:00,2166A,112.4397,39.3522,朔州市,平朔,颗粒物(PM10),92,134,134,22,34,99,99,85,85,3,13,4,5,0.2,0.3
2023-04-15T15:00:00,2167A,112.4575,39.3617,朔州市,朔唯,颗粒物(PM10),81,112,142,21,34,105,105,85,85,4,19,6,8,0.6,0.6
2023-04-15T15:00:00,2168A,112.4258,39.3197,朔州市,区政府,颗粒物(PM10),84,118,138,17,24,101,101,92,92,3,9,3,4,0.3,0.4
2023-04-15T15:00:00,2169A,112.4072,39.3278,朔州市,市环保局,颗粒物(PM10),111,171,144,30,32,96,90,82,82,14,17,4,4,0.4,0.4
2023-04-15T15:00:00,2170A,112.4272,39.3681,朔州市,市二中,颗粒物(PM10),79,107,134,19,32,104,103,85,85,2,16,4,5,0.2,0.3
2023-04-15T15:00:00,2171A,112.7532,37.6945,晋中市,锦纶小区,,,,332,,103,115,,70,70,,39,,10,,0.4
2023-04-15T15:00:00,2173A,112.7249,37.7067,晋中市,南都小区,颗粒物(PM10),81,112,325,20,63,114,114,73,73,10,40,4,10,0.5,0.7
2023-04-15T15:00:00,2174A,112.6991,37.6982,晋中市,榆次区政府,颗粒物(PM10),73,96,318,22,64,112,112,72,72,11,38,6,10,0.3,0.4
2023-04-15T15:00:00,2175A,110.9956,35.0147,运城市,运城中学,颗粒物(PM10),77,103,89,14,25,123,123,84,84,6,17,5,8,0.4,0.5
2023-04-15T15:00:00,2178A,110.9686,35.0303,运城市,地区技校,颗粒物(PM10),79,108,91,26,23,124,124,82,82,8,18,4,8,0.3,0.4
2023-04-15T15:00:00,2179A,111.0414,35.1147,运城市,空港新区,颗粒物(PM10),91,132,107,20,30,122,122,82,82,10,22,6,9,0.4,0.5
2023-04-15T15:00:00,2181A,112.7383,38.4519,忻州市,开发区,颗粒物(PM10),76,102,188,15,36,108,108,98,98,8,24,3,4,0.3,0.3
2023-04-15T15:00:00,2182A,112.7003,38.4928,忻州市,会展中心,颗粒物(PM10),68,85,169,18,37,99,95,89,89,5,21,3,3,0.2,0.2
2023-04-15T15:00:00,2183A,111.1406,37.5211,吕梁市,环保局,颗粒物(PM10),113,176,201,20,51,117,117,62,62,5,42,6,8,0.3,0.4
2023-04-15T15:00:00,2185A,111.1297,37.5136,吕梁市,自来水公司,颗粒物(PM10),116,181,208,9,30,114,114,62,62,8,37,5,7,0.3,0.4
2023-04-15T15:00:00,2187A,106.8174,39.6973,乌海市,市林业局,颗粒物(PM10),58,65,106,21,29,115,114,104,104,3,4,8,8,0.5,0.5
2023-04-15T15:00:00,2188A,106.7907,39.6667,乌海市,中海勃湾学校,颗粒物(PM10),53,56,114,24,32,118,118,112,112,4,4,8,7,0.2,0.3
2023-04-15T15:00:00,2191A,122.2532,43.6801,通辽市,艺术职业学校,细颗粒物(PM2.5),119,166,121,90,50,133,133,95,95,19,18,6,6,0.7,0.5
2023-04-15T15:00:00,2192A,119.7594,49.2261,呼伦贝尔市,区环保局,,32,32,40,9,20,101,101,85,85,5,13,5,5,0.1,0.2
2023-04-15T15:00:00,2195A,107.4212,40.761,巴彦淖尔市,附二中,,47,47,110,7,19,112,111,96,96,6,9,4,3,0.4,0.4
2023-04-15T15:00:00,2196A,107.37,40.7372,巴彦淖尔市,市环保大楼,,,,115,7,35,114,112,96,96,5,8,3,4,0.3,0.3
2023-04-15T15:00:00,2197A,113.1306,40.9923,乌兰察布市,集宁新区,,41,41,61,13,16,102,101,77,74,2,13,5,11,0.3,0.4
2023-04-15T15:00:00,2200A,122.0392,46.0656,兴安盟,胜华新制药厂,,36,36,47,12,31,100,100,88,88,11,15,2,4,0.3,0.5
2023-04-15T15:00:00,2201A,121.9504,46.0741,兴安盟,科右前旗环保局,,40,40,54,18,29,92,92,82,82,12,16,3,4,0.2,0.3
2023-04-15T15:00:00,2202A,116.1042,43.9317,锡林郭勒盟,市环保监测站,,45,45,118,4,14,92,92,76,73,3,4,6,6,0.2,0.2
2023-04-15T15:00:00,2203A,116.0781,43.9311,锡林郭勒盟,市政府,颗粒物(PM10),52,53,129,4,10,90,90,74,72,4,6,4,7,0.2,0.2
2023-04-15T15:00:00,2204A,105.6467,38.8363,阿拉善盟,西城区西花园,颗粒物(PM10),110,170,151,40,35,105,94,102,91,10,9,7,6,0.5,0.5
2023-04-15T15:00:00,2205A,105.6985,38.8411,阿拉善盟,蒙二幼,颗粒物(PM10),146,242,174,47,40,113,100,113,98,11,8,7,6,0.3,0.3
2023-04-15T15:00:00,2206A,105.724,38.8516,阿拉善盟,环保局新楼,,,145,108,45,36,112,102,112,98,7,6,7,6,,0.2
2023-04-15T15:00:00,2207A,121.6094,41.998,阜新市,工业园区,颗粒物(PM10),77,104,265,22,78,153,107,95,95,5,22,8,15,0.3,0.6
2023-04-15T15:00:00,2208A,121.6697,42.0279,阜新市,长青街,颗粒物(PM10),117,184,228,15,49,136,101,91,91,6,17,6,8,0.6,0.6
2023-04-15T15:00:00,2209A,121.6673,42.0705,阜新市,农业园区,颗粒物(PM10),65,80,242,22,47,126,100,87,87,6,10,7,8,0.2,0.2
2023-04-15T15:00:00,2210A,121.6717,42.0224,阜新市,东苑,颗粒物(PM10),67,84,278,19,59,125,92,81,81,5,14,6,7,0.7,0.7
2023-04-15T15:00:00,2211A,121.6506,42.0498,阜新市,玉龙新城,颗粒物(PM10),63,75,232,25,49,123,95,84,84,5,24,5,7,0.4,0.5
2023-04-15T15:00:00,2212A,123.2,41.1953,辽阳市,宏伟区,颗粒物(PM10),130,209,305,45,83,122,122,95,95,10,35,13,24,0.5,1.3
2023-04-15T15:00:00,2213A,123.1683,41.2495,辽阳市,新华园,颗粒物(PM10),123,196,305,34,72,104,104,79,79,8,45,10,22,0.4,1.4
2023-04-15T15:00:00,2214A,123.2354,41.2639,辽阳市,滨河路,颗粒物(PM10),164,278,320,30,77,101,101,75,75,8,39,6,15,0.6,1.5
2023-04-15T15:00:00,2215A,123.149,41.2991,辽阳市,铁西工业园,颗粒物(PM10),147,244,321,40,87,102,102,76,76,11,37,9,19,0.4,1.5
2023-04-15T15:00:00,2216A,123.8139,42.3022,铁岭市,汇工街西,颗粒物(PM10),101,151,251,19,91,130,104,80,80,10,44,9,35,0.3,0.7
2023-04-15T15:00:00,2217A,123.8649,42.2923,铁岭市,水上乐园,颗粒物(PM10),103,156,230,19,72,123,102,77,77,6,31,5,8,0.3,0.7
2023-04-15T15:00:00,2218A,123.8486,42.2867,铁岭市,银州路东段,,,,248,23,72,121,95,74,74,11,42,6,8,0.4,0.7
2023-04-15T15:00:00,2219A,123.7153,42.2217,铁岭市,金沙江路北,颗粒物(PM10),98,145,247,17,94,122,98,77,77,16,52,10,10,0.2,0.6
2023-04-15T15:00:00,2220A,120.4318,41.5881,朝阳市,西梁,,,,339,9,110,113,95,93,93,8,15,8,9,0.5,0.5
2023-04-15T15:00:00,2221A,120.4521,41.5646,朝阳市,河畔小区,颗粒物(PM10),55,60,336,13,78,111,93,90,90,7,11,6,6,0.5,0.5
2023-04-15T15:00:00,2222A,120.4176,41.5648,朝阳市,八里堡,颗粒物(PM10),54,58,346,4,76,119,99,96,96,6,12,7,8,0.5,0.4
2023-04-15T15:00:00,2223A,120.3806,41.5969,朝阳市,农业园区,,40,40,358,9,73,107,90,88,88,2,8,7,7,0.5,0.4
2023-04-15T15:00:00,2225A,124.4002,43.1713,四平市,一商场,颗粒物(PM10),289,412,125,62,44,122,104,104,92,7,23,4,8,0.2,0.3
2023-04-15T15:00:00,2226A,124.388,43.193,四平市,境园,颗粒物(PM10),239,377,117,90,57,115,97,86,86,7,23,2,5,0.1,0.3
2023-04-15T15:00:00,2227A,125.1358,42.8845,辽源市,环保局,细颗粒物(PM2.5),168,158,87,127,71,151,109,91,91,8,37,9,13,0.4,0.7
2023-04-15T15:00:00,2229A,125.9358,41.7173,通化市,光明,,,99,164,28,85,116,93,72,72,21,39,11,14,,0.5
2023-04-15T15:00:00,2230A,125.9446,41.7325,通化市,铁路,,32,32,164,17,104,118,95,75,75,20,40,8,14,0.3,0.8
2023-04-15T15:00:00,2231A,126.4219,41.9171,白山市,喜丰,颗粒物(PM10),137,223,165,37,50,98,94,74,74,15,33,12,16,1.1,1.3
2023-04-15T15:00:00,2232A,126.4077,41.9419,白山市,环保局,颗粒物(PM10),89,128,155,35,56,110,95,84,84,11,30,11,12,0.7,0.8
2023-04-15T15:00:00,2233A,124.8006,45.1214,松原市,江南,细颗粒物(PM2.5),54,56,81,38,47,122,122,100,100,9,14,6,6,0.3,0.4
2023-04-15T15:00:00,2234A,124.7965,45.1722,松原市,江北,颗粒物(PM10),55,60,76,34,46,124,124,102,102,10,16,9,6,0.5,0.5
2023-04-15T15:00:00,2235A,122.7911,45.6077,白城市,洮北区环保局,颗粒物(PM10),56,61,45,13,26,111,111,94,94,10,13,6,6,0.0,0.1
2023-04-15T15:00:00,2236A,122.8738,45.5725,白城市,市环保局,,50,50,50,12,23,106,106,92,92,5,9,4,4,0.2,0.3
2023-04-15T15:00:00,2237A,129.47,42.8883,延边朝鲜族自治州,妇幼医院,,30,25,72,4,34,124,94,104,104,16,16,7,8,0.6,0.6
2023-04-15T15:00:00,2238A,129.5055,42.9108,延边朝鲜族自治州,延边医院,,30,12,69,6,29,121,96,111,102,16,17,9,10,0.6,0.6
2023-04-15T15:00:00,2239A,129.3964,42.8881,延边朝鲜族自治州,朝阳川镇医院,,31,24,73,8,32,122,98,105,104,13,16,9,10,0.5,0.5
2023-04-15T15:00:00,2240A,130.9762,45.3001,鸡西市,环保局,细颗粒物(PM2.5),78,98,151,57,119,107,89,85,85,23,42,7,9,0.6,0.9
2023-04-15T15:00:00,2243A,130.9429,45.3039,鸡西市,第一中学,颗粒物(PM10),70,89,137,44,103,114,94,85,85,12,30,6,9,0.4,0.7
2023-04-15T15:00:00,2244A,130.2537,47.3416,鹤岗市,哈啤分公司,,30,21,17,5,9,93,93,84,84,7,8,9,8,0.2,0.2
2023-04-15T15:00:00,2245A,130.2684,47.3086,鹤岗市,斯达机电,,30,27,23,17,16,93,93,85,85,5,11,7,6,0.1,0.2
2023-04-15T15:00:00,2246A,130.3114,47.3388,鹤岗市,东山纸板厂,,26,24,44,11,13,82,81,76,76,8,14,9,9,0.1,0.3
2023-04-15T15:00:00,2247A,130.1097,47.3382,鹤岗市,五号水库,,33,20,12,12,11,104,104,93,93,6,6,9,8,0.5,0.5
2023-04-15T15:00:00,2248A,131.1511,46.6937,双鸭山市,双合村,细颗粒物(PM2.5),67,76,117,48,68,116,114,95,95,14,24,6,17,0.7,1.4
2023-04-15T15:00:00,2249A,131.1652,46.6191,双鸭山市,南小市,细颗粒物(PM2.5),63,73,75,45,51,116,115,96,96,14,19,6,8,0.6,0.7
2023-04-15T15:00:00,2250A,131.1524,46.6554,双鸭山市,环保局,细颗粒物(PM2.5),75,55,74,55,57,122,120,99,99,10,25,6,9,0.5,0.8
2023-04-15T15:00:00,2251A,131.12,46.5656,双鸭山市,苗圃,细颗粒物(PM2.5),52,50,38,36,30,129,129,108,108,12,12,5,5,0.2,0.2
2023-04-15T15:00:00,2252A,128.5159,47.4311,伊春市,环保局,,,9,10,,4,94,94,83,83,5,11,3,5,0.3,0.4
2023-04-15T15:00:00,2253A,128.9102,47.7412,伊春市,电力嘉园,,29,13,15,4,13,90,90,77,77,3,9,6,5,0.6,0.7
2023-04-15T15:00:00,2254A,129.5029,48.471,伊春市,汤旺河国家公园,,30,14,14,15,14,97,96,88,88,2,2,6,6,0.1,0.2
2023-04-15T15:00:00,2255A,130.2751,46.8028,佳木斯市,佳纺,,42,42,102,25,90,112,112,88,88,15,36,4,6,0.5,0.8
2023-04-15T15:00:00,2256A,130.3995,46.8307,佳木斯市,发电厂,颗粒物(PM10),59,68,93,26,86,106,106,86,86,17,30,11,9,0.5,0.8
2023-04-15T15:00:00,2257A,130.3258,46.7975,佳木斯市,环保局,,45,45,93,31,86,100,100,76,76,22,33,6,8,0.5,0.7
2023-04-15T15:00:00,2258A,130.3648,46.8032,佳木斯市,十一中,,43,40,84,30,86,108,108,82,82,16,32,8,8,0.5,0.7
2023-04-15T15:00:00,2259A,130.3794,46.7588,佳木斯市,四丰,细颗粒物(PM2.5),54,46,101,38,97,153,153,117,117,15,25,1,1,0.5,0.7
2023-04-15T15:00:00,2262A,131.0518,45.8751,七台河市,新一中,细颗粒物(PM2.5),79,89,64,58,51,130,130,101,101,10,15,9,11,0.7,0.8
2023-04-15T15:00:00,2263A,127.4833,50.2524,黑河市,交通局,,31,8,21,8,9,97,97,81,81,5,15,3,6,0.2,0.2
2023-04-15T15:00:00,2264A,127.5144,50.2341,黑河市,环保局,,30,8,18,6,10,96,96,83,83,8,11,3,4,0.2,0.2
2023-04-15T15:00:00,2265A,127.5291,50.2472,黑河市,大黑河岛,,32,3,19,8,8,102,102,89,89,1,3,1,2,0.3,0.3
2023-04-15T15:00:00,2266A,126.9785,46.6365,绥化市,人和东街,,40,40,48,24,27,116,116,96,96,9,16,4,5,0.4,0.4
2023-04-15T15:00:00,2267A,126.964,46.6528,绥化市,党政办公中心,,40,38,55,22,27,128,128,108,108,6,14,4,4,0.2,0.2
2023-04-15T15:00:00,2269A,124.1069,50.4097,大兴安岭地区,科技局,,30,6,13,11,10,96,96,85,85,3,7,6,8,0.2,0.2
2023-04-15T15:00:00,2270A,117.396,32.939,蚌埠市,工人疗养院,颗粒物(PM10),182,313,153,79,45,144,141,109,109,19,25,9,9,0.5,0.4
2023-04-15T15:00:00,2271A,117.3605,32.9427,蚌埠市,百货大楼,颗粒物(PM10),157,263,132,70,43,150,140,114,114,15,17,5,5,0.6,0.6
2023-04-15T15:00:00,2273A,117.4185,32.8911,蚌埠市,蚌埠学院,颗粒物(PM10),226,368,157,75,41,155,142,110,110,10,14,11,10,0.6,0.7
2023-04-15T15:00:00,2274A,117.3533,32.9673,蚌埠市,淮上区政府,颗粒物(PM10),248,383,150,73,43,149,144,110,110,12,17,6,6,0.5,0.6
2023-04-15T15:00:00,2275A,117.3145,32.8977,蚌埠市,高新区,颗粒物(PM10),245,381,155,83,50,146,134,106,106,10,19,6,6,0.6,0.6
2023-04-15T15:00:00,2277A,116.8305,32.7727,淮南市,潘集区政府,颗粒物(PM10),218,362,149,86,58,140,135,109,109,7,15,6,7,0.3,0.4
2023-04-15T15:00:00,2278A,117.0067,32.6524,淮南市,师范学院,颗粒物(PM10),230,371,162,74,56,149,139,116,116,10,16,9,9,0.4,0.5
2023-04-15T15:00:00,2279A,116.8569,32.5951,淮南市,谢家集区政府,颗粒物(PM10),188,325,154,68,50,152,135,112,112,14,20,5,6,0.3,0.5
2023-04-15T15:00:00,2280A,116.8281,32.633,淮南市,八公山区政府,颗粒物(PM10),181,311,157,72,49,140,127,109,109,6,10,4,4,0.3,0.5
2023-04-15T15:00:00,2281A,116.6325,32.6201,淮南市,焦岗湖风景区管理处,颗粒物(PM10),167,284,122,111,64,125,124,91,91,5,10,8,7,0.3,0.5
2023-04-15T15:00:00,2282A,116.8004,33.975,淮北市,监测站,,,,112,75,58,140,137,105,105,8,16,5,6,0.6,0.9
2023-04-15T15:00:00,2283A,116.8091,33.9007,淮北市,烈山区政府,颗粒物(PM10),304,423,204,98,76,133,127,101,101,12,23,6,6,0.5,0.8
2023-04-15T15:00:00,2284A,116.7856,33.9477,淮北市,职业技术学院,颗粒物(PM10),272,400,218,86,62,135,129,101,101,10,19,6,6,0.7,1
2023-04-15T15:00:00,2285A,117.8177,30.9412,铜陵市,市第四中学,颗粒物(PM10),154,257,120,71,57,133,133,120,120,16,28,12,13,0.6,0.5
2023-04-15T15:00:00,2286A,117.8059,30.9273,铜陵市,市公路局,颗粒物(PM10),174,298,134,73,49,142,142,117,117,13,19,10,9,0.8,0.9
2023-04-15T15:00:00,2287A,117.7807,30.9413,铜陵市,市新民污水厂,颗粒物(PM10),156,262,128,58,44,145,145,112,112,14,28,8,6,0.5,0.6
2023-04-15T15:00:00,2288A,117.7439,30.8792,铜陵市,市第九中学,颗粒物(PM10),184,318,154,88,52,136,130,103,103,23,38,11,8,0.6,0.8
2023-04-15T15:00:00,2289A,117.846,30.9413,铜陵市,车站新区,颗粒物(PM10),141,231,120,67,55,135,135,109,109,14,34,9,6,0.5,0.7
2023-04-15T15:00:00,2290A,117.8483,30.97,铜陵市,市职教基地,颗粒物(PM10),154,258,111,78,53,129,129,107,107,13,22,7,4,0.7,0.5
2023-04-15T15:00:00,2291A,117.0809,30.5177,安庆市,环科院,颗粒物(PM10),135,220,129,58,57,148,138,106,106,13,26,10,8,0.6,0.8
2023-04-15T15:00:00,2292A,117.0331,30.5119,安庆市,马山宾馆,颗粒物(PM10),122,194,131,52,57,137,120,96,96,16,26,8,12,0.7,1
2023-04-15T15:00:00,2294A,116.9896,30.6145,安庆市,安庆大学,颗粒物(PM10),210,357,146,46,56,143,129,107,107,12,17,9,7,0.6,0.8
2023-04-15T15:00:00,2295A,118.2903,29.6963,黄山市,延安路89号,细颗粒物(PM2.5),115,107,54,87,33,124,122,95,95,6,9,6,6,0.4,0.6
2023-04-15T15:00:00,2296A,118.327,29.7178,黄山市,黄山东路89号,颗粒物(PM10),71,92,40,44,22,120,116,93,93,6,10,6,6,0.6,0.8
2023-04-15T15:00:00,2297A,118.1371,30.2756,黄山市,黄山区政府5号楼,颗粒物(PM10),110,170,88,51,38,136,128,116,116,10,12,5,5,0.4,0.7
2023-04-15T15:00:00,2298A,118.3093,32.3153,滁州市,老年大学,颗粒物(PM10),156,262,107,73,46,152,141,123,123,10,14,10,10,0.5,0.6
2023-04-15T15:00:00,2299A,118.3244,32.2786,滁州市,人大宾馆,颗粒物(PM10),171,291,122,82,56,150,148,123,123,13,19,3,8,0.6,0.6
2023-04-15T15:00:00,2301A,115.8277,32.8929,阜阳市,市监测站,颗粒物(PM10),103,155,298,52,87,125,122,108,108,8,17,6,7,0.3,0.7
2023-04-15T15:00:00,2303A,115.8554,32.8605,阜阳市,开发区,颗粒物(PM10),134,218,357,51,71,136,129,112,112,11,19,8,9,0.4,0.7
2023-04-15T15:00:00,2307A,116.5079,31.737,六安市,监测大楼,颗粒物(PM10),120,190,204,75,75,139,120,105,105,14,14,4,5,0.3,0.5
2023-04-15T15:00:00,2308A,116.4738,31.7643,六安市,皖西学院,颗粒物(PM10),127,204,204,49,55,141,133,111,111,5,10,4,5,0.2,0.5
2023-04-15T15:00:00,2309A,116.4996,31.7905,六安市,朝阳厂,颗粒物(PM10),116,181,175,60,64,152,134,116,116,11,14,5,5,0.4,0.6
2023-04-15T15:00:00,2310A,116.5567,31.7886,六安市,开发区,颗粒物(PM10),153,256,242,57,66,141,134,111,111,5,11,8,8,0.4,0.7
2023-04-15T15:00:00,2311A,115.8072,33.8399,亳州市,污水处理厂,颗粒物(PM10),125,200,394,41,91,145,125,106,106,4,15,9,10,0.2,0.5
2023-04-15T15:00:00,2312A,115.7789,33.8518,亳州市,三国揽胜宫,颗粒物(PM10),129,207,392,55,95,134,115,99,99,4,15,6,7,0.3,0.7
2023-04-15T15:00:00,2314A,117.47,30.6618,池州市,池州学院,颗粒物(PM10),132,213,134,58,53,150,150,116,116,9,12,8,4,0.7,0.7
2023-04-15T15:00:00,2316A,118.7581,30.9454,宣城市,鳌峰子站,颗粒物(PM10),99,148,78,49,41,119,114,100,100,16,18,2,5,0.6,0.8
2023-04-15T15:00:00,2317A,118.7385,30.9743,宣城市,敬亭山子站,颗粒物(PM10),97,144,80,44,42,121,116,97,97,11,19,6,8,0.5,0.8
2023-04-15T15:00:00,2318A,118.7173,30.9427,宣城市,开发区子站,颗粒物(PM10),95,140,75,42,40,119,115,96,96,9,24,6,6,0.7,0.8
2023-04-15T15:00:00,2319A,119.0141,25.4325,莆田市,荔城区仓后路,颗粒物(PM10),59,68,74,37,43,143,142,99,99,11,26,6,5,1.0,1
2023-04-15T15:00:00,2320A,119.0015,25.4553,莆田市,莆田市监测站,颗粒物(PM10),54,58,60,35,35,154,153,105,105,11,18,8,8,0.8,0.8
2023-04-15T15:00:00,2321A,119.1119,25.4561,莆田市,涵江区六中,细颗粒物(PM2.5),79,62,72,58,59,151,141,104,104,12,26,7,7,0.9,0.8
2023-04-15T15:00:00,2322A,119.1013,25.3215,莆田市,秀屿区政府,细颗粒物(PM2.5),54,53,55,38,53,146,146,92,92,6,21,7,7,0.8,0.7
2023-04-15T15:00:00,2323A,118.981,25.4792,莆田市,东圳水库,,,,,,,,,,,,,,,,
2023-04-15T15:00:00,2324A,117.6211,26.2625,三明市,三钢,,36,21,35,18,31,115,114,86,86,13,18,15,16,1.4,1
2023-04-15T15:00:00,2325A,117.635,26.2714,三明市,三明二中,,37,37,31,17,29,114,114,89,89,11,16,4,8,0.7,0.9
2023-04-15T15:00:00,2326A,117.6028,26.2378,三明市,三元区政府,,35,25,36,5,30,111,111,83,83,7,18,6,11,0.6,0.9
2023-04-15T15:00:00,2327A,117.7275,26.3108,三明市,洋溪,,,,,,,,,,,,,,,,
2023-04-15T15:00:00,2331A,118.0966,26.6761,南平市,茫荡山,,,,,,,,,,,,,,,,
2023-04-15T15:00:00,2332A,118.1681,26.6369,南平市,南平市监测站,,33,15,37,16,28,104,104,82,82,7,13,3,4,0.7,0.9
2023-04-15T15:00:00,2333A,118.1825,26.6489,南平市,南平铝业有限公司,,32,23,45,14,27,100,100,78,78,11,12,4,6,0.8,1
2023-04-15T15:00:00,2334A,118.1756,26.6272,南平市,南平七中,,,16,36,11,27,108,107,88,88,3,10,,4,0.5,0.7
2023-04-15T15:00:00,2335A,117.0189,25.1181,龙岩市,龙岩师专,,,,,,,,,,,,,,,,
2023-04-15T15:00:00,2336A,117.0217,25.1033,龙岩市,龙岩市监测站,,38,22,29,6,19,120,120,97,97,6,14,6,7,0.5,0.6
2023-04-15T15:00:00,2337A,117.0258,25.0661,龙岩市,闽西职业技术学院,,38,19,31,9,20,121,121,97,97,5,12,6,7,0.4,0.5
2023-04-15T15:00:00,2338A,117.0196,25.0306,龙岩市,龙岩学院,,40,2,28,6,17,125,125,99,99,7,12,3,3,0.6,0.6
2023-04-15T15:00:00,2339A,119.5001,26.6946,宁德市,金涵水库,,,,,,,,,,,,,,,,
2023-04-15T15:00:00,2341A,119.5388,26.6612,宁德市,宁德市监测站,,43,35,57,24,35,135,135,84,84,9,23,6,4,0.8,0.9
2023-04-15T15:00:00,2342A,117.3102,29.3867,景德镇市,王港中学,颗粒物(PM10),97,143,49,54,25,129,129,89,89,9,11,4,4,0.4,0.5
2023-04-15T15:00:00,2343A,117.2117,29.2933,景德镇市,老干部活动中心,颗粒物(PM10),112,173,96,53,39,118,118,94,94,6,18,5,10,0.5,0.6
2023-04-15T15:00:00,2344A,117.1894,29.2789,景德镇市,兽医站,颗粒物(PM10),98,146,59,50,32,132,132,104,104,6,20,6,12,0.6,0.6
2023-04-15T15:00:00,2345A,117.1547,29.2617,景德镇市,台达陶瓷,颗粒物(PM10),110,170,58,50,29,111,109,88,88,32,25,71,30,0.8,0.9
2023-04-15T15:00:00,2346A,117.2461,29.2956,景德镇市,陶研所,颗粒物(PM10),101,151,67,54,33,124,117,94,94,5,17,5,8,0.6,0.7
2023-04-15T15:00:00,2347A,114.0997,27.5002,萍乡市,武功山,颗粒物(PM10),57,64,26,27,16,129,129,102,102,6,7,8,9,0.8,0.9
2023-04-15T15:00:00,2348A,113.8385,27.6434,萍乡市,中医院,颗粒物(PM10),68,85,72,37,42,136,136,86,86,10,14,10,9,0.9,1.1
2023-04-15T15:00:00,2349A,113.8493,27.6253,萍乡市,市政府车库,颗粒物(PM10),72,94,76,42,43,134,134,83,83,5,15,18,18,0.6,0.9
2023-04-15T15:00:00,2350A,113.8676,27.6435,萍乡市,市环保局,细颗粒物(PM2.5),75,96,72,55,37,117,117,72,72,9,16,12,12,0.8,1
2023-04-15T15:00:00,2351A,113.866,27.6198,萍乡市,安源区政府,颗粒物(PM10),72,94,77,14,34,120,120,78,78,7,14,21,18,0.7,1
2023-04-15T15:00:00,2352A,115.0861,27.9317,新余市,北岗,,50,50,27,31,22,120,120,85,85,5,8,10,8,0.7,0.8
2023-04-15T15:00:00,2353A,114.9886,27.8431,新余市,飞宇,颗粒物(PM10),57,64,45,32,25,129,129,100,100,9,17,4,5,0.5,0.7
2023-04-15T15:00:00,2354A,114.9231,27.8246,新余市,第二水厂,颗粒物(PM10),61,71,42,32,23,129,129,105,105,5,15,6,6,0.3,0.5
2023-04-15T15:00:00,2355A,114.9308,27.8036,新余市,市气象局,颗粒物(PM10),62,74,45,35,29,131,129,101,101,5,15,8,8,0.5,0.9
2023-04-15T15:00:00,2357A,116.9822,28.1136,鹰潭市,龙虎山,颗粒物(PM10),103,155,60,50,33,151,140,121,121,4,10,2,2,0.4,0.7
2023-04-15T15:00:00,2358A,117.0564,28.2642,鹰潭市,新监测站,颗粒物(PM10),97,143,57,38,28,147,141,120,120,2,9,13,12,0.6,0.7
2023-04-15T15:00:00,2359A,117.0311,28.2475,鹰潭市,财苑宾馆,颗粒物(PM10),99,148,61,41,28,148,140,121,121,4,11,6,11,0.4,0.6
2023-04-15T15:00:00,2360A,117.0222,28.2264,鹰潭市,体育馆,颗粒物(PM10),89,128,61,45,29,147,135,118,118,4,14,2,7,0.3,0.5
2023-04-15T15:00:00,2361A,117.0017,28.2131,鹰潭市,三川水表,颗粒物(PM10),90,129,64,50,33,144,132,114,114,6,18,2,7,0.1,0.5
2023-04-15T15:00:00,2362A,114.9017,25.9149,赣州市,通天岩,,45,45,28,20,11,128,128,109,109,5,6,6,6,1.3,1.4
2023-04-15T15:00:00,2363A,114.9367,25.8664,赣州市,地委,,50,50,29,18,15,131,131,109,109,5,9,2,3,0.9,0.9
2023-04-15T15:00:00,2364A,114.9461,25.8481,赣州市,气象台,,43,43,24,20,17,108,108,90,90,7,12,3,4,0.7,0.8
2023-04-15T15:00:00,2365A,114.9322,25.8333,赣州市,市图书馆,,42,35,29,24,16,133,133,112,112,6,11,11,13,0.9,1.1
2023-04-15T15:00:00,2366A,114.8905,25.8471,赣州市,华坚鞋城,,42,42,31,24,15,122,122,103,103,4,8,5,6,0.7,0.8
2023-04-15T15:00:00,2367A,114.9754,27.0803,吉安市,红声器材厂,细颗粒物(PM2.5),57,57,46,40,26,131,131,106,106,6,14,5,6,0.5,0.6
2023-04-15T15:00:00,2368A,114.9658,27.0999,吉安市,市森林工业局,颗粒物(PM10),57,64,38,34,26,129,129,107,107,4,12,4,5,0.6,0.8
2023-04-15T15:00:00,2369A,114.99,27.1312,吉安市,市环境监测站,颗粒物(PM10),57,63,37,30,23,129,129,104,104,8,16,5,7,0.5,0.7
2023-04-15T15:00:00,2370A,115.0093,27.0968,吉安市,青原区法院,颗粒物(PM10),56,62,34,38,25,134,134,106,106,9,14,7,9,0.7,0.9
2023-04-15T15:00:00,2371A,114.3408,27.8064,宜春市,槟榔水业,颗粒物(PM10),68,85,48,39,29,96,96,71,71,4,8,6,7,0.6,0.7
2023-04-15T15:00:00,2373A,114.3956,27.7844,宜春市,市石油公司,颗粒物(PM10),66,82,51,33,28,134,134,100,100,6,10,7,7,0.6,1
2023-04-15T15:00:00,2374A,114.3703,27.7914,宜春市,市气象局,颗粒物(PM10),68,85,49,31,28,134,133,104,104,15,16,6,6,0.4,0.8
2023-04-15T15:00:00,2375A,114.4013,27.8074,宜春市,市广电局,颗粒物(PM10),69,87,49,34,32,140,140,106,106,9,12,11,10,0.7,0.7
2023-04-15T15:00:00,2376A,116.2127,28.0814,抚州市,桐源党溪,颗粒物(PM10),71,92,47,32,24,156,156,123,123,4,4,2,2,1.0,1
2023-04-15T15:00:00,2377A,116.3544,27.9831,抚州市,市站,颗粒物(PM10),112,174,60,59,32,137,137,107,107,8,11,5,10,,1.3
2023-04-15T15:00:00,2378A,116.3565,27.963,抚州市,血防站,颗粒物(PM10),80,110,62,44,32,140,140,114,114,6,12,5,8,0.6,0.7
2023-04-15T15:00:00,2379A,116.3564,28.0007,抚州市,采茶剧团,颗粒物(PM10),80,109,58,40,32,138,138,110,110,12,14,6,8,0.7,0.9
2023-04-15T15:00:00,2380A,116.385,27.9647,抚州市,医学分院,颗粒物(PM10),82,114,60,41,29,131,131,106,106,4,9,3,4,0.7,0.7
2023-04-15T15:00:00,2381A,118.005,28.4572,上饶市,百草园,细颗粒物(PM2.5),57,57,43,40,24,108,108,64,64,2,8,2,1,0.7,0.5
