timepoint,stationcode,longitude,latitude,area,positionname,primarypollutant,aqi,pm10,pm10_24h,pm2_5,pm2_5_24h,o3,o3_24h,o3_8h,o3_8h_24h,no2,no2_24h,so2,so2_24h,co,co_24h
2026-02-02T0100,2568A,102.2503,31.8896,阿坝藏族羌族自治州,马师校,,25,25,17,3,11,24,,,,19,14,4,4,0.4,0.5
2026-02-02T0100,3994A,102.2174,31.9016,阿坝藏族羌族自治州,马尔康中学西区,,23,23,16,7,11,33,,,,17,12,7,7,0.5,0.6
2026-02-02T0100,2695A,80.2899,41.1684,阿克苏地区,电视台,细颗粒物(PM2.5),202,323,184,152,77,10,,,,86,35,15,10,3.7,1.5
2026-02-02T0100,2696A,80.2592,41.1541,阿克苏地区,艺术中心,颗粒物(PM10),126,201,169,78,71,35,,,,54,35,5,5,0.7,0.7
2026-02-02T0100,2205A,105.699,38.8409,阿拉善盟,蒙二幼,,30,30,27,6,5,74,,,,7,7,12,9,0.5,0.5
2026-02-02T0100,2206A,105.7198,38.8508,阿拉善盟,环保局新楼,,30,30,21,7,6,74,,,,5,5,7,7,0.4,0.3
2026-02-02T0100,2708A,88.1266,47.8515,阿勒泰地区,市站,,22,17,9,3,3,68,,,,13,18,3,5,0.3,0.3
2026-02-02T0100,4166A,88.1198,47.7931,阿勒泰地区,阿勒泰路33号,,26,10,7,3,2,83,,,,5,8,4,6,0.3,0.3
2026-02-02T0100,2630A,80.1171,32.4999,阿里地区,阿里监测站,,27,,3,3,1,84,,,,1,2,7,7,0.3,0.2
2026-02-02T0100,3192A,80.0906,32.5029,阿里地区,阿里藏医院,,29,11,10,3,4,90,,,,2,5,8,11,0.2,0.3
2026-02-02T0100,2644A,109.0088,32.6974,安康市,汉滨区检察院,颗粒物(PM10),69,88,80,44,46,29,,,,25,21,7,8,1.1,1.1
2026-02-02T0100,4054A,109.0324,32.6913,安康市,市邮政管理局,颗粒物(PM10),73,95,96,46,50,34,,,,27,29,8,7,0.8,1
2026-02-02T0100,2291A,117.0806,30.5181,安庆市,环科院,,43,43,43,30,27,15,,,,34,20,5,5,0.6,0.5
2026-02-02T0100,2292A,117.0331,30.5118,安庆市,马山宾馆,,46,46,42,32,28,34,,,,16,18,4,4,0.7,0.7
2026-02-02T0100,2294A,116.9897,30.6146,安庆市,安庆大学,,35,31,36,24,22,7,,,,41,20,3,3,0.6,0.5
2026-02-02T0100,3173A,117.0598,30.5351,安庆市,市人大,颗粒物(PM10),52,53,45,30,28,43,,,,10,17,5,5,0.4,0.4
2026-02-02T0100,3123A,105.9408,26.2431,安顺市,凤凰山,,32,24,25,22,23,42,,,,9,13,8,12,0.8,0.8
2026-02-02T0100,3124A,105.9443,26.2567,安顺市,金钟山,,36,,23,25,23,39,,,,8,12,9,11,0.8,0.8
2026-02-02T0100,3125A,105.8983,26.248,安顺市,娄家坡,,29,20,21,20,19,41,,,,9,13,15,14,0.9,0.9
2026-02-02T0100,1819A,114.3552,36.1017,安阳市,红庙街,细颗粒物(PM2.5),165,154,141,125,109,10,,,,70,36,4,6,1.2,1.3
2026-02-02T0100,1820A,114.361,36.0681,安阳市,银杏小区,细颗粒物(PM2.5),138,163,132,105,95,18,,,,58,32,6,7,1.2,1.2
2026-02-02T0100,3141A,114.3921,36.0879,安阳市,信访局,细颗粒物(PM2.5),159,165,149,121,116,12,,,,64,28,7,6,1.2,1.2
2026-02-02T0100,3669A,114.4706,36.0634,安阳市,左辅环卫站,细颗粒物(PM2.5),192,191,144,144,109,27,,,,57,35,6,4,1.1,1
2026-02-02T0100,4117A,114.2918,36.0769,安阳市,钢三路198号,细颗粒物(PM2.5),180,191,142,136,106,27,,,,49,34,7,4,1.1,1.2
2026-02-02T0100,1748A,123.0441,41.1201,鞍山市,深沟寺,,38,38,71,15,51,68,,,,14,35,6,16,0.5,1.3
2026-02-02T0100,1749A,123.011,41.0931,鞍山市,太阳城,,42,42,80,17,63,50,,,,32,41,48,29,2.6,2
2026-02-02T0100,1750A,123.0483,41.1445,鞍山市,太平,,33,33,99,16,63,62,,,,13,44,11,18,0.8,1.3
2026-02-02T0100,1751A,122.964,41.0968,鞍山市,铁西三道街,,24,22,98,9,69,74,,,,10,52,4,22,0.2,1.5
2026-02-02T0100,1753A,123.0219,41.0822,鞍山市,明达新区,,33,33,82,15,63,56,,,,27,39,39,26,2.1,2
2026-02-02T0100,4201A,122.944647,41.082639,鞍山市,兴盛南路290号,,41,41,127,12,76,55,,,,24,60,26,26,1.6,1.9
2026-02-02T0100,2195A,107.4206,40.7609,巴彦淖尔市,附二中,,46,46,41,22,20,42,,,,27,21,9,10,0.4,0.4
2026-02-02T0100,2196A,107.37,40.7372,巴彦淖尔市,市环保大楼,,48,48,43,19,16,42,,,,31,26,5,5,0.5,0.6
2026-02-02T0100,1956A,86.1476,41.7529,巴音郭楞蒙古自治州,孔雀公园,颗粒物(PM10),93,135,98,55,35,0,,,,76,22,8,8,1.1,0.6
2026-02-02T0100,1957A,86.1971,41.7166,巴音郭楞蒙古自治州,棉纺厂,颗粒物(PM10),98,145,123,34,35,6,,,,54,36,/,/,/,/
2026-02-02T0100,1958A,86.236,41.7172,巴音郭楞蒙古自治州,经济开发区,颗粒物(PM10),66,81,90,6,18,38,,,,9,15,5,5,0.5,0.5
2026-02-02T0100,3181A,106.776805,31.852614,巴中市,市五中,细颗粒物(PM2.5),63,63,54,45,39,11,,,,25,24,5,6,1.0,1
2026-02-02T0100,3183A,106.7419,31.8654,巴中市,圣泉水务公司,细颗粒物(PM2.5),70,72,68,51,55,5,,,,41,30,5,6,1.2,1.3
2026-02-02T0100,3616A,106.7617,31.8343,巴中市,市中心医院,细颗粒物(PM2.5),85,88,59,63,43,1,,,,36,26,5,5,1.1,1
2026-02-02T0100,2235A,122.7909,45.608,白城市,洮北区环保局,细颗粒物(PM2.5),103,,61,77,51,30,,,,25,27,8,6,0.5,0.7
2026-02-02T0100,2236A,122.8741,45.5725,白城市,市环保局,颗粒物(PM10),65,80,53,46,28,38,,,,25,34,6,7,0.6,0.4
2026-02-02T0100,2231A,126.4219,41.9172,白山市,喜丰,细颗粒物(PM2.5),70,80,72,51,39,10,,,,75,43,16,17,1.5,1.3
2026-02-02T0100,2232A,126.4082,41.9416,白山市,环保局,细颗粒物(PM2.5),58,51,49,41,35,37,,,,27,25,11,15,1.1,1.1
2026-02-02T0100,2647A,104.1727,36.5448,白银市,第三小学,颗粒物(PM10),88,126,167,51,73,35,,,,32,33,34,37,1.0,1.1
2026-02-02T0100,2648A,104.1467,36.5482,白银市,动力公司,颗粒物(PM10),78,105,162,40,64,42,,,,18,24,7,28,0.5,0.8
2026-02-02T0100,2512A,106.6102,23.901,百色市,市监测站,,33,30,32,23,17,48,,,,9,14,7,11,0.8,0.8
2026-02-02T0100,2513A,106.6524,23.8842,百色市,市中心血站,,42,42,29,23,20,49,,,,5,10,7,11,0.7,0.8
2026-02-02T0100,4133A,106.6273,23.8798,百色市,龙景西路,,40,40,32,23,21,45,,,,9,13,8,12,0.6,0.6
2026-02-02T0100,2270A,117.396,32.9389,蚌埠市,工人疗养院,细颗粒物(PM2.5),62,57,73,44,51,68,,,,18,19,3,3,0.5,0.5
2026-02-02T0100,2271A,117.3606,32.9428,蚌埠市,百货大楼,细颗粒物(PM2.5),68,60,71,49,48,59,,,,18,15,6,7,0.6,0.5
2026-02-02T0100,2273A,117.4183,32.8909,蚌埠市,蚌埠学院,细颗粒物(PM2.5),88,88,73,65,54,43,,,,35,25,4,4,1.2,0.7
2026-02-02T0100,2274A,117.3534,32.9672,蚌埠市,淮上区政府,细颗粒物(PM2.5),72,53,69,52,53,67,,,,17,20,4,4,0.5,0.4
2026-02-02T0100,2275A,117.3143,32.8977,蚌埠市,高新区,细颗粒物(PM2.5),78,73,65,57,53,35,,,,30,18,5,5,0.5,0.5
2026-02-02T0100,3715A,117.3091,32.9314,蚌埠市,蚌埠田家炳中学,细颗粒物(PM2.5),74,70,77,54,50,47,,,,25,23,11,5,0.5,0.4
2026-02-02T0100,1585A,109.8761,40.6533,包头市,市环境监测站,,36,36,35,23,13,44,,,,27,18,8,7,0.4,0.4
2026-02-02T0100,1587A,109.9992,40.5843,包头市,包头八中,,38,38,39,16,14,32,,,,38,21,3,5,0.7,0.5
2026-02-02T0100,1589A,109.8641,40.6288,包头市,惠龙物流,,22,21,29,13,10,69,,,,13,18,12,10,0.4,0.6
2026-02-02T0100,1590A,110.0376,40.5546,包头市,东河鸿龙湾,,33,24,46,7,21,18,,,,65,38,9,12,0.7,0.8
2026-02-02T0100,3283A,109.9154,40.5684,包头市,滨河大厦,,26,21,52,14,25,28,,,,51,35,8,18,0.7,1
2026-02-02T0100,3419A,109.9449,40.6259,包头市,包头市委党校,,24,24,29,3,12,56,,,,22,21,8,9,0.5,0.6
2026-02-02T0100,3683A,109.8332,40.6577,包头市,昆区政府,,25,25,28,13,12,57,,,,21,19,17,10,0.5,0.6
2026-02-02T0100,1931A,107.0802,34.3129,宝鸡市,竹园沟,颗粒物(PM10),81,112,126,29,49,37,,,,16,18,6,6,0.5,0.6
2026-02-02T0100,1933A,107.1429,34.3549,宝鸡市,监测站,颗粒物(PM10),92,134,154,49,73,19,,,,33,28,4,5,0.7,0.7
2026-02-02T0100,1934A,107.1172,34.3759,宝鸡市,技工学校,颗粒物(PM10),98,146,155,63,69,32,,,,23,26,3,4,0.7,0.8
2026-02-02T0100,1936A,107.2025,34.3518,宝鸡市,文理学院,颗粒物(PM10),101,151,156,64,70,30,,,,29,29,4,4,0.6,0.7
2026-02-02T0100,1937A,107.2396,34.3626,宝鸡市,三迪小学,颗粒物(PM10),104,158,163,65,73,23,,,,40,39,3,3,0.7,0.8
2026-02-02T0100,4155A,107.1721,34.3558,宝鸡市,滨河北路,颗粒物(PM10),110,169,148,70,70,30,,,,17,22,5,6,0.8,0.8
2026-02-02T0100,4308A,107.3898,34.3601,宝鸡市,陈仓区北开路21号,颗粒物(PM10),126,202,176,81,85,12,,,,55,33,6,6,0.8,0.5
2026-02-02T0100,1051A,115.4803,38.8568,保定市,游泳馆,细颗粒物(PM2.5),153,120,150,117,155,12,,,,74,52,5,6,0.9,1
2026-02-02T0100,1052A,115.509,38.8895,保定市,华电二区,细颗粒物(PM2.5),138,107,136,105,138,0,,,,68,43,2,3,1.2,1.2
2026-02-02T0100,1053A,115.4588,38.9037,保定市,接待中心,细颗粒物(PM2.5),172,140,154,130,141,9,,,,62,40,2,2,0.8,0.8
2026-02-02T0100,1054A,115.4484,38.8344,保定市,地表水厂,细颗粒物(PM2.5),163,155,176,124,132,8,,,,70,50,6,6,0.9,1
2026-02-02T0100,3581A,115.3136,38.9511,保定市,满城区生态环境分局,细颗粒物(PM2.5),127,127,159,96,122,25,,,,50,49,4,4,0.9,1
2026-02-02T0100,3582A,115.4709,38.7628,保定市,清苑区第二中学,细颗粒物(PM2.5),155,160,189,118,142,8,,,,69,46,7,7,1.0,1.1
2026-02-02T0100,3583A,115.6231,39.0223,保定市,徐水物探局,细颗粒物(PM2.5),176,187,183,133,141,2,,,,68,46,6,6,1.1,1.1
2026-02-02T0100,4004A,115.4199,38.8665,保定市,双鹰农机,细颗粒物(PM2.5),170,192,196,129,155,20,,,,60,45,8,7,1.0,1
2026-02-02T0100,4034A,115.515,38.8589,保定市,植保所站,细颗粒物(PM2.5),142,119,155,108,142,1,,,,84,52,1,3,1.2,1.2
2026-02-02T0100,2594A,99.1589,25.1137,保山市,市环境监测站,,22,22,25,15,14,65,,,,6,8,4,6,0.2,0.3
2026-02-02T0100,2595A,99.1616,25.1381,保山市,市环保局,,24,14,27,11,13,76,,,,3,5,4,3,0.4,0.4
2026-02-02T0100,1867A,109.1435,21.4085,北海市,海滩公园,颗粒物(PM10),54,58,43,26,23,76,,,,16,14,12,8,0.9,0.9
2026-02-02T0100,1868A,109.0983,21.466,北海市,新市环保局,细颗粒物(PM2.5),53,47,37,37,22,74,,,,20,14,9,8,0.8,0.8
2026-02-02T0100,1869A,109.1775,21.5232,北海市,北海工业园,"颗粒物(PM10),细颗粒物(PM2.5)",53,56,41,37,24,66,,,,17,14,8,8,0.8,0.8
2026-02-02T0100,3400A,109.1844,21.4396,北海市,龙潭自来水厂,细颗粒物(PM2.5),79,73,42,58,30,58,,,,18,12,16,11,1.0,1
2026-02-02T0100,1001A,116.3611,39.8786,北京市,万寿西宫,,18,9,35,3,21,57,,,,21,30,1,1,0.3,0.5
2026-02-02T0100,1003A,116.4174,39.9289,北京市,东四,,16,9,31,3,18,49,,,,23,25,4,4,0.3,0.4
2026-02-02T0100,1004A,116.4073,39.8858,北京市,天坛,,18,10,35,3,21,56,,,,22,29,1,2,0.3,0.5
2026-02-02T0100,1005A,116.4622,39.9364,北京市,农展馆,,18,8,33,3,19,57,,,,18,26,3,3,0.3,0.4
2026-02-02T0100,1006A,116.3399,39.9293,北京市,官园,,19,9,32,3,18,60,,,,17,31,2,3,0.3,0.5
2026-02-02T0100,1007A,116.2879,39.9613,北京市,海淀万柳,,30,17,35,3,22,17,,,,60,42,2,3,0.3,0.4
2026-02-02T0100,1008A,116.6635,40.1349,北京市,顺义新城,,22,9,24,3,11,70,,,,10,20,4,4,0.3,0.4
2026-02-02T0100,1009A,116.6275,40.327,北京市,怀柔镇,,21,8,21,3,12,65,,,,6,7,3,3,0.3,0.3
2026-02-02T0100,1010A,116.2295,40.217,北京市,昌平镇,,22,6,25,3,14,70,,,,8,25,1,2,0.3,0.4
2026-02-02T0100,1011A,116.3968,39.982,北京市,奥体中心,,17,8,29,3,16,53,,,,28,36,4,4,0.2,0.3
2026-02-02T0100,3418A,116.8336,40.4095,北京市,密云新城,,23,7,14,3,8,73,,,,4,9,3,3,0.1,0.2
2026-02-02T0100,3671A,116.0879,39.9725,北京市,门头沟三家店,,20,7,39,3,24,63,,,,17,20,2,3,0.3,0.5
2026-02-02T0100,3672A,116.1507,39.8246,北京市,丰台云岗,,,,53,,34,,,81,,,33,,3,,0.4
2026-02-02T0100,3674A,115.9578,39.7602,北京市,房山燕山,,23,6,74,3,57,71,,,,8,27,5,5,0.2,0.7
2026-02-02T0100,3675A,116.4669,39.7734,北京市,大兴旧宫,,17,11,50,3,28,45,,,,33,35,3,3,0.4,0.6
2026-02-02T0100,3694A,115.9859,40.4562,北京市,延庆石河营,,20,8,19,3,10,62,,,,13,26,3,3,0.4,0.5
2026-02-02T0100,3695A,116.6151,40.3052,北京市,怀柔新城,,21,9,21,3,14,65,,,,10,12,4,4,0.3,0.3
2026-02-02T0100,3696A,116.2542,39.8764,北京市,丰台小屯,,15,10,40,3,22,47,,,,24,36,3,3,0.4,0.5
2026-02-02T0100,3697A,116.8399,40.3843,北京市,密云镇,,22,8,21,3,11,70,,,,10,21,3,2,0.3,0.3
2026-02-02T0100,4057A,115.9423,40.4431,北京市,延庆百泉,,20,7,15,3,8,64,,,,10,15,2,2,0.3,0.4
2026-02-02T0100,4058A,116.6598,39.9164,北京市,通州新华,,17,10,39,3,20,54,,,,21,41,2,3,0.3,0.5
2026-02-02T0100,4182A,116.1942,39.9158,北京市,石景山八角,,15,11,37,3,21,45,,,,30,33,2,3,0.2,0.3
2026-02-02T0100,4194A,117.078628,40.151726,北京市,平谷新城,,23,6,34,3,25,72,,,,4,16,3,3,0.3,0.5
2026-02-02T0100,1761A,123.8274146,41.31234549,本溪市,大峪,细颗粒物(PM2.5),84,95,106,62,70,8,,,,54,42,6,9,1.2,1.8
2026-02-02T0100,1763A,123.7169,41.3094,本溪市,彩屯,细颗粒物(PM2.5),109,122,133,82,89,12,,,,50,45,8,10,1.8,2.6
2026-02-02T0100,1764A,123.7672166,41.28649327,本溪市,东明,细颗粒物(PM2.5),113,86,93,85,85,7,,,,68,54,7,10,1.8,1.9
2026-02-02T0100,1765A,123.799345,41.266614,本溪市,新立屯,细颗粒物(PM2.5),64,57,72,46,54,11,,,,65,52,12,14,2.4,2.2
2026-02-02T0100,1766A,123.829144,41.336777,本溪市,威宁,细颗粒物(PM2.5),80,101,104,59,62,2,,,,54,47,5,8,1.4,1.7
2026-02-02T0100,2587A,105.287,27.3133,毕节市,八中,,18,,17,12,15,51,,,,9,13,8,8,0.9,1
2026-02-02T0100,2588A,105.3079,27.2987,毕节市,师专,,17,6,18,6,13,54,,,,10,14,7,7,0.8,0.8
2026-02-02T0100,4263A,105.3688,27.3598,毕节市,工业大道,,17,,18,8,13,52,,,,10,12,9,9,/,/
2026-02-02T0100,1629A,117.9961,37.3604,滨州市,第二水厂,细颗粒物(PM2.5),216,244,200,166,164,0,,,,60,47,7,8,1.4,1.1
2026-02-02T0100,1630A,117.9789,37.3931,滨州市,北中新校,细颗粒物(PM2.5),241,256,220,191,177,0,,,,53,42,5,5,1.7,1.4
2026-02-02T0100,3514A,117.9379,37.3959,滨州市,中海酒店,细颗粒物(PM2.5),258,256,207,208,173,6,,,,64,46,10,8,2.1,1.6
2026-02-02T0100,3515A,117.9381509,37.35547456,滨州市,开发区一中,细颗粒物(PM2.5),232,271,217,182,170,0,,,,60,45,10,10,1.7,1.4
2026-02-02T0100,3516A,118.0914,37.6938,滨州市,金海六路,细颗粒物(PM2.5),147,117,210,112,176,4,,,,58,54,4,5,1.6,1.4
2026-02-02T0100,4028A,117.9955,37.3752,滨州市,滨州市西街道办事处,细颗粒物(PM2.5),238,241,205,188,169,,,,,51,41,7,8,1.8,1.4
2026-02-02T0100,2311A,115.8071,33.8399,亳州市,污水处理厂,细颗粒物(PM2.5),100,127,100,75,62,59,,,,25,30,4,4,0.6,0.5
2026-02-02T0100,2312A,115.7789,33.8519,亳州市,三国揽胜宫,细颗粒物(PM2.5),108,161,115,81,67,66,,,,23,23,4,4,0.7,0.6
2026-02-02T0100,3332A,115.7631,33.803,亳州市,亳州学院,细颗粒物(PM2.5),113,139,104,85,64,63,,,,22,20,4,3,0.8,0.6
2026-02-02T0100,2693A,82.0482,44.8553,博尔塔拉蒙古自治州,市党校,细颗粒物(PM2.5),107,128,130,80,81,48,,,,33,27,2,3,0.8,0.8
2026-02-02T0100,2694A,82.0805,44.8966,博尔塔拉蒙古自治州,市环保局,细颗粒物(PM2.5),132,151,152,100,100,45,,,,36,30,4,5,1.2,1.2
2026-02-02T0100,1071A,116.8733,38.2922,沧州市,沧县城建局,细颗粒物(PM2.5),189,189,182,142,155,12,,,,67,49,2,3,1.1,1.1
2026-02-02T0100,1072A,116.8462,38.3189,沧州市,电视转播站,细颗粒物(PM2.5),216,,178,166,178,3,,,,69,40,4,3,1.3,1.2
2026-02-02T0100,1073A,116.8588,38.3161,沧州市,市环保局,细颗粒物(PM2.5),166,161,177,126,142,9,,,,63,40,5,5,1.2,1.2
2026-02-02T0100,3324A,116.8011,38.294,沧州市,河北水利电力学院,细颗粒物(PM2.5),226,188,193,176,178,3,,,,79,44,4,3,1.4,1.1
2026-02-02T0100,2622A,97.1813,31.1289,昌都市,昌都监测站,颗粒物(PM10),52,54,31,32,18,17,,,,31,21,3,3,0.7,0.5
2026-02-02T0100,3719A,97.1707,31.1428,昌都市,昌都会议中心,,16,16,12,11,8,36,,,,7,5,4,5,0.3,0.2
2026-02-02T0100,2692A,87.2722,44.0298,昌吉回族自治州,新区政务中心,细颗粒物(PM2.5),115,110,118,87,80,7,,,,76,49,7,10,1.2,1.3
2026-02-02T0100,3613A,87.3069,44.0093,昌吉回族自治州,亚心广场,细颗粒物(PM2.5),172,168,152,130,111,5,,,,70,31,7,9,1.4,1.3
2026-02-02T0100,4164A,87.2057,43.9289,昌吉回族自治州,财政所,,39,35,66,27,45,72,,,,9,9,4,5,0.5,0.7
2026-02-02T0100,1120A,125.2874,43.9024,长春市,客车厂,细颗粒物(PM2.5),83,70,62,61,51,21,,,,63,44,14,12,0.8,0.7
2026-02-02T0100,1121A,125.2943,43.8508,长春市,邮电学院,细颗粒物(PM2.5),83,68,62,61,52,16,,,,69,40,14,12,1.0,0.8
2026-02-02T0100,1122A,125.3648,43.8745,长春市,劳动公园,细颗粒物(PM2.5),89,89,70,66,46,21,,,,57,35,6,7,1.3,1
2026-02-02T0100,1123A,125.3233,43.8781,长春市,园林处,细颗粒物(PM2.5),77,,63,56,50,32,,,,46,35,15,16,0.7,0.7
2026-02-02T0100,1124A,125.4604,43.7904,长春市,净月潭,细颗粒物(PM2.5),68,57,60,49,47,49,,,,26,22,5,6,0.8,0.6
2026-02-02T0100,1126A,125.38,43.8422,长春市,经开区环卫处,细颗粒物(PM2.5),92,86,65,68,51,4,,,,72,50,5,6,1.1,0.8
2026-02-02T0100,1127A,125.234,43.7761,长春市,高新区管委会,细颗粒物(PM2.5),149,,77,114,64,14,,,,64,45,6,7,1.7,0.9
2026-02-02T0100,1128A,125.1695,43.83,长春市,岱山公园,细颗粒物(PM2.5),84,70,68,62,56,6,,,,75,47,9,8,0.7,0.6
2026-02-02T0100,4281A,125.334645,43.916281,长春市,北亚泰大街1068号,细颗粒物(PM2.5),77,,68,56,55,8,,,,72,44,14,12,0.8,0.7
2026-02-02T0100,1335A,113.082,28.2421,长沙市,经开区环保局,颗粒物(PM10),54,57,43,37,28,15,,,,55,28,3,2,0.7,0.5
2026-02-02T0100,1336A,112.8873,28.2202,长沙市,高开区环保局,细颗粒物(PM2.5),69,64,45,50,36,25,,,,46,26,4,4,0.8,0.7
2026-02-02T0100,1337A,113.0785,28.2012,长沙市,马坡岭,细颗粒物(PM2.5),60,59,46,43,34,21,,,,50,30,4,4,0.8,0.8
2026-02-02T0100,1338A,112.9448,28.1894,长沙市,湖南师范大学,颗粒物(PM10),53,55,45,32,27,29,,,,33,25,3,3,0.7,0.7
2026-02-02T0100,1339A,113.0177,28.1322,长沙市,雨花区环保局,"颗粒物(PM10),细颗粒物(PM2.5)",52,53,43,36,30,21,,,,42,29,8,7,0.7,0.6
2026-02-02T0100,1340A,112.9795,28.2593,长沙市,伍家岭,"颗粒物(PM10),细颗粒物(PM2.5)",58,65,48,41,33,28,,,,41,25,5,4,0.8,0.8
2026-02-02T0100,1341A,113.002,28.1944,长沙市,火车新站,细颗粒物(PM2.5),57,56,44,40,33,14,,,,62,26,2,2,0.9,0.8
2026-02-02T0100,1342A,112.9846,28.1177,长沙市,天心区环保局,细颗粒物(PM2.5),89,,41,66,32,15,,,,54,32,5,5,0.6,0.5
2026-02-02T0100,1343A,112.8906,28.1307,长沙市,湖南中医药大学,颗粒物(PM10),53,56,45,35,29,7,,,,57,32,6,6,0.8,0.7
2026-02-02T0100,1727A,113.1146,36.1547,长治市,清华站,颗粒物(PM10),53,56,78,35,59,31,,,,33,30,11,11,0.8,0.9
2026-02-02T0100,1730A,113.0887,36.2126,长治市,审计局,细颗粒物(PM2.5),53,54,76,37,64,43,,,,29,30,10,10,0.6,0.8
2026-02-02T0100,1731A,113.0845,36.1856,长治市,长治八中,细颗粒物(PM2.5),63,67,89,45,68,26,,,,32,23,12,10,0.8,0.9
2026-02-02T0100,2845A,113.1561,36.1912,长治市,德盛苑,细颗粒物(PM2.5),54,42,73,38,65,55,,,,18,18,10,8,0.6,1
2026-02-02T0100,3568A,113.0603,36.0464,长治市,向阳小学,"颗粒物(PM10),细颗粒物(PM2.5)",69,87,101,50,61,46,,,,38,32,10,9,0.8,0.9
2026-02-02T0100,3569A,112.8788,36.315,长治市,屯留一中,,,54,83,35,69,28,,,,50,29,9,4,,1.1
2026-02-02T0100,4189A,113.113092,36.199482,长治市,英华南巷50号,细颗粒物(PM2.5),60,60,82,43,63,30,,,,30,24,7,8,0.7,0.9
2026-02-02T0100,4190A,113.23666,36.33435,长治市,学府街1号,细颗粒物(PM2.5),73,74,90,53,66,4,,,,67,29,13,10,1.0,1.1
2026-02-02T0100,1854A,111.696,28.9725,常德市,市二中,细颗粒物(PM2.5),73,77,64,53,47,60,,,,23,19,5,5,1.0,1
2026-02-02T0100,3138A,111.7152,29.0288,常德市,武陵区永安,细颗粒物(PM2.5),70,64,65,51,46,65,,,,17,21,4,4,0.9,0.9
2026-02-02T0100,3139A,111.6891,28.9881,常德市,鼎城区玉霞,细颗粒物(PM2.5),64,72,62,46,45,55,,,,24,23,6,7,0.9,0.9
2026-02-02T0100,3140A,111.6651,29.0526,常德市,武陵区长庚,细颗粒物(PM2.5),69,72,63,50,46,61,,,,20,18,4,4,0.7,0.7
2026-02-02T0100,1196A,119.9524,31.7586,常州市,市监测站,颗粒物(PM10),56,61,74,39,47,21,,,,53,43,6,7,0.6,0.6
2026-02-02T0100,1200A,119.9351,31.703,常州市,武进监测站,细颗粒物(PM2.5),60,60,68,43,47,32,,,,32,36,4,5,0.4,0.5
2026-02-02T0100,3002A,119.9701,31.813,常州市,行政中心,细颗粒物(PM2.5),64,63,70,46,49,43,,,,32,38,4,5,0.7,0.7
2026-02-02T0100,3003A,120.0434,31.7726,常州市,经开区,颗粒物(PM10),64,77,86,41,46,48,,,,29,34,12,12,0.6,0.7
2026-02-02T0100,3010A,119.8919,31.7892,常州市,钟楼,,,74,78,50,54,,,,,31,37,6,7,0.7,0.8
2026-02-02T0100,3429A,119.8595,31.706,常州市,武进经发区,细颗粒物(PM2.5),72,66,67,52,50,45,,,,25,30,4,5,0.9,0.9
2026-02-02T0100,3430A,119.5812,31.7256,常州市,金坛城区,细颗粒物(PM2.5),59,53,62,42,47,57,,,,17,24,6,6,0.4,0.6
2026-02-02T0100,4089A,119.9551,31.863,常州市,崇义南街5-H号,细颗粒物(PM2.5),69,66,70,50,54,40,,,,36,39,4,5,0.7,0.7
2026-02-02T0100,2220A,120.4318,41.588,朝阳市,西梁,,23,22,70,3,37,71,,,,10,28,5,11,0.3,0.8
2026-02-02T0100,2221A,120.452,41.565,朝阳市,河畔小区,,22,6,58,6,29,70,,,,10,24,7,12,0.4,0.9
2026-02-02T0100,2222A,120.4176,41.5648,朝阳市,八里堡,,23,,65,15,38,71,,,,8,27,8,12,0.3,0.8
2026-02-02T0100,3026A,116.6179,23.6608,潮州市,市政府,,17,17,22,11,15,41,,,,6,8,3,2,0.5,0.6
2026-02-02T0100,4036A,116.646,23.676,潮州市,金山,,18,,18,12,14,36,,,,9,11,2,2,0.6,0.7
2026-02-02T0100,2473A,113.0116,25.8228,郴州市,市职中,,,40,38,37,36,24,,,,,12,4,4,0.5,0.5
2026-02-02T0100,2475A,113.0381,25.8074,郴州市,市审计局,,48,38,36,33,33,17,,,,25,16,3,3,/,/
2026-02-02T0100,2476A,113.0348,25.7757,郴州市,市环保局,,46,46,42,30,33,22,,,,26,18,4,4,0.5,0.5
2026-02-02T0100,4252A,113.0138,25.8011,郴州市,好美居路49号,,49,38,41,34,34,32,,,,19,12,4,5,/,/
2026-02-02T0100,1431A,103.9727,30.7242,成都市,金泉两河,颗粒物(PM10),66,81,114,46,65,4,,,,76,46,2,2,1.0,0.6
2026-02-02T0100,1432A,104.1423,30.6765,成都市,十里店,颗粒物(PM10),65,79,103,43,53,26,,,,52,43,3,4,0.9,0.8
2026-02-02T0100,1433A,104.0594,30.5765,成都市,三瓦窑,颗粒物(PM10),59,68,108,41,60,18,,,,68,47,3,5,0.9,0.9
2026-02-02T0100,1434A,104.1122,30.6306,成都市,沙河铺,颗粒物(PM10),64,78,95,45,53,21,,,,51,40,4,4,0.8,0.8
2026-02-02T0100,2880A,104.0219,30.6561,成都市,大石西路,细颗粒物(PM2.5),64,70,108,46,67,16,,,,57,34,4,4,0.8,0.7
2026-02-02T0100,3136A,104.2724,30.559,成都市,龙泉驿区区政府,颗粒物(PM10),53,56,80,36,51,57,,,,13,21,6,6,0.8,0.8
2026-02-02T0100,3357A,104.0028,30.6891,成都市,金博路,颗粒物(PM10),60,69,100,37,61,20,,,,62,41,4,4,1.0,0.9
2026-02-02T0100,3359A,104.056,30.5228,成都市,华阳,颗粒物(PM10),56,61,96,38,61,33,,,,45,36,3,3,1.0,0.8
2026-02-02T0100,3488A,104.387954,30.746684,成都市,青石路225号,"颗粒物(PM10),细颗粒物(PM2.5)",63,76,101,45,57,5,,,,68,38,4,5,0.9,0.9
2026-02-02T0100,3489A,104.0788,30.4054,成都市,科学城,颗粒物(PM10),57,64,94,35,58,6,,,,42,23,6,6,0.9,0.9
2026-02-02T0100,4011A,103.8505,30.6946,成都市,光华大道三段,细颗粒物(PM2.5),114,136,126,86,64,18,,,,62,46,3,3,1.1,0.9
2026-02-02T0100,4144A,104.3257,30.6406,成都市,八角井街185号,颗粒物(PM10),64,77,99,35,51,53,,,,19,27,3,4,0.8,0.9
2026-02-02T0100,4224A,104.2433276,30.53529463,成都市,鲸龙路1057号,颗粒物(PM10),62,73,97,36,50,17,,,,47,30,5,5,0.7,0.7
2026-02-02T0100,1062A,117.9531,40.908,承德市,铁路,,33,33,33,3,15,76,,,,3,17,1,2,0.2,0.5
2026-02-02T0100,1063A,117.9397,40.9763,承德市,中国银行,,32,32,33,6,14,75,,,,2,14,1,2,0.2,0.4
2026-02-02T0100,4073A,117.9462,40.95,承德市,杏林街1号,,25,16,30,8,19,78,,,,1,17,3,3,0.2,0.4
2026-02-02T0100,4274A,117.7994,40.9605,承德市,滨河大街98号,,21,10,37,3,14,65,,,,10,21,2,3,0.2,0.3
2026-02-02T0100,2314A,117.4698,30.6617,池州市,池州学院,,43,36,32,30,27,35,,,,29,19,3,3,0.8,0.8
2026-02-02T0100,3237A,117.4918,30.6617,池州市,展览馆,,39,37,32,27,23,18,,,,32,20,2,2,0.9,0.7
2026-02-02T0100,3333A,117.5626,30.695,池州市,第八中学,,35,35,30,23,23,28,,,,25,20,2,3,1.0,0.6
2026-02-02T0100,3334A,117.5037,30.6242,池州市,第十二中学,,34,34,35,22,25,13,,,,40,32,2,2,1.9,0.9
2026-02-02T0100,1744A,118.9229,42.2816,赤峰市,松山一中,,28,28,25,11,11,51,,,,20,18,4,6,0.7,0.7
2026-02-02T0100,1745A,118.9588,42.2733,赤峰市,哈达街,,19,15,24,8,9,58,,,,12,14,7,7,0.5,0.5
2026-02-02T0100,1746A,118.8792,42.2551,赤峰市,天义路,,19,8,14,3,7,58,,,,6,9,5,6,0.4,0.4
2026-02-02T0100,3058A,119.2656,42.0356,赤峰市,银河街,,22,,20,12,12,69,,,,2,5,8,13,0.6,0.7
2026-02-02T0100,3286A,118.9359,42.3146,赤峰市,桥北物流园区,,21,,16,12,9,65,,,,11,10,4,4,0.5,0.5
2026-02-02T0100,2521A,107.3473,22.4137,崇左市,市环保局江州分局,,49,48,45,34,31,58,,,,11,16,8,8,0.8,0.9
2026-02-02T0100,4256A,107.375,22.3736,崇左市,石景林东路7号,细颗粒物(PM2.5),57,50,40,40,30,56,,,,19,19,9,8,0.8,0.8
2026-02-02T0100,3207A,118.31131,32.3033,滁州市,市政府原办公楼,细颗粒物(PM2.5),68,57,57,49,45,42,,,,26,22,4,4,0.4,0.4
2026-02-02T0100,3331A,118.3268,32.2633,滁州市,图书馆,细颗粒物(PM2.5),53,51,50,37,36,61,,,,14,16,6,6,0.4,0.4
2026-02-02T0100,4101A,118.3196,32.3335,滁州市,银山路666号,细颗粒物(PM2.5),72,,46,52,46,36,,,,21,18,6,6,0.4,0.4
2026-02-02T0100,4102A,118.3426,32.2979,滁州市,黄山路555号,细颗粒物(PM2.5),70,62,62,51,48,58,,,,18,20,4,4,0.4,0.4
2026-02-02T0100,2606A,101.5379,25.0492,楚雄彝族自治州,市经济开发区,,38,38,27,25,16,40,,,,24,18,4,3,0.9,0.7
2026-02-02T0100,4153A,101.5536,25.0343,楚雄彝族自治州,团结路562号,,20,14,23,14,14,62,,,,5,12,4,4,0.4,0.4
2026-02-02T0100,2549A,107.5087,31.2186,达州市,市环境监测站,颗粒物(PM10),56,62,62,35,36,2,,,,31,36,5,8,0.9,0.9
2026-02-02T0100,2550A,107.4988,31.2132,达州市,凤凰小区,细颗粒物(PM2.5),62,66,61,44,35,3,,,,35,37,5,7,0.7,0.6
2026-02-02T0100,2551A,107.5081,31.1987,达州市,达县机关宾馆,细颗粒物(PM2.5),73,70,66,53,38,3,,,,36,39,5,7,0.9,0.9
2026-02-02T0100,2552A,107.4644,31.2124,达州市,市政中心,颗粒物(PM10),65,79,69,44,32,8,,,,43,42,7,8,1.0,0.9
2026-02-02T0100,2614A,100.2168,25.5818,大理白族自治州,大理市环境监测站,,22,17,21,12,13,69,,,,9,8,7,7,0.4,0.4
2026-02-02T0100,2615A,100.1542,25.7055,大理白族自治州,大理古城,,22,19,23,15,15,56,,,,14,10,8,8,0.6,0.5
2026-02-02T0100,1109A,121.6119,38.974,大连市,甘井子,,36,36,58,21,41,71,,,,16,26,5,9,0.5,0.4
2026-02-02T0100,1110A,121.565,38.9509,大连市,周水子,,34,34,60,19,40,56,,,,22,31,4,6,0.4,0.7
2026-02-02T0100,1111A,121.5637,38.8849,大连市,星海三站,,31,31,58,8,40,65,,,,16,22,7,10,0.5,0.7
2026-02-02T0100,1112A,121.6301,38.9117,大连市,青泥洼桥,,29,28,54,20,43,65,,,,21,26,9,12,0.3,0.6
2026-02-02T0100,1113A,121.6248,38.8643,大连市,傅家庄,,25,25,58,17,42,53,,,,22,22,8,11,0.7,0.9
2026-02-02T0100,1114A,121.5117,38.8636,大连市,七贤岭,,29,29,61,9,40,75,,,,9,17,7,9,0.5,0.8
2026-02-02T0100,1116A,121.7507,39.1339,大连市,金州,,32,30,60,22,49,65,,,,20,26,10,13,0.5,0.7
2026-02-02T0100,1117A,121.7811,39.0495,大连市,开发区,,36,36,64,18,44,74,,,,9,23,11,12,0.5,0.7
2026-02-02T0100,1118A,121.9762,39.0631,大连市,双D港,,31,31,54,21,41,66,,,,17,24,10,11,0.6,0.8
2026-02-02T0100,4082A,121.2548,38.8188,大连市,旅顺,,43,39,72,30,53,49,,,,20,21,8,9,0.8,0.8
2026-02-02T0100,1789A,124.8085,46.0381,大庆市,大同区,细颗粒物(PM2.5),67,72,50,48,30,19,,,,55,24,10,9,1.0,0.8
2026-02-02T0100,1790A,125.1166,46.5255,大庆市,龙凤区,,44,44,39,24,21,38,,,,35,26,12,10,0.6,0.6
2026-02-02T0100,1791A,124.8894,46.4007,大庆市,红岗区,,35,35,30,21,18,13,,,,48,22,5,5,0.8,0.7
2026-02-02T0100,1792A,125.1391,46.578,大庆市,萨尔图区,,36,36,34,21,15,42,,,,25,24,9,10,0.5,0.5
2026-02-02T0100,1793A,124.9026,46.6217,大庆市,让胡路区,,33,33,28,20,18,53,,,,12,11,8,7,0.4,0.4
2026-02-02T0100,3481A,125.127,46.6277,大庆市,萨区政府监测点,,34,34,27,19,11,39,,,,28,20,8,9,0.9,0.7
2026-02-02T0100,1723A,113.2926,40.0759,大同市,云冈宾馆,,22,21,35,15,13,47,,,,20,21,8,8,0.7,0.6
2026-02-02T0100,1724A,113.3437,40.0921,大同市,大同大学,,35,35,39,6,14,56,,,,14,18,7,12,0.5,0.7
2026-02-02T0100,1725A,113.2637,40.129,大同市,安家小村,颗粒物(PM10),55,60,51,20,19,29,,,,38,28,15,12,1.4,1.3
2026-02-02T0100,3282A,113.3399,40.0586,大同市,大同市卫生学校,,28,28,36,3,12,65,,,,14,21,5,7,0.6,0.7
2026-02-02T0100,3565A,113.1371,40.1122,大同市,云冈站,颗粒物(PM10),53,55,32,21,13,2,,,,51,25,18,7,0.6,0.5
2026-02-02T0100,3566A,113.1186,40.2556,大同市,图书馆,,30,30,32,21,17,27,,,,18,13,5,5,0.9,0.6
2026-02-02T0100,3567A,113.5931,40.0459,大同市,区一中,,20,,39,10,21,64,,,,14,23,6,11,0.1,0.5
2026-02-02T0100,4199A,113.2798248,40.09972476,大同市,魏都大道141号,,45,45,52,21,22,31,,,,43,29,8,7,1.4,1
2026-02-02T0100,2269A,124.1068,50.4091,大兴安岭地区,科技局,,23,23,22,15,11,55,,,,4,4,5,5,0.3,0.2
2026-02-02T0100,3663A,124.117,50.4279,大兴安岭地区,红旗社区,,22,,22,15,17,45,,,,31,14,7,6,0.4,0.4
2026-02-02T0100,1600A,124.33,40.0625,丹东市,江湾东路,细颗粒物(PM2.5),55,58,85,39,54,57,,,,20,27,9,22,1.0,1.5
2026-02-02T0100,1601A,124.4242,40.1513,丹东市,临江后街,细颗粒物(PM2.5),54,50,57,38,44,51,,,,24,27,11,17,0.8,0.9
2026-02-02T0100,1602A,124.3935,40.1461,丹东市,元宝山,,41,41,55,26,42,67,,,,11,26,10,17,0.7,1
2026-02-02T0100,1603A,124.3634,40.1093,丹东市,民主桥,颗粒物(PM10),51,52,73,35,49,43,,,,32,34,10,18,0.8,1.1
2026-02-02T0100,3541A,109.5726195,19.51688767,儋州市,第一中学子站,,25,25,28,15,18,60,,,,5,7,4,4,0.8,0.8
2026-02-02T0100,3542A,109.5567,19.5187,儋州市,东坡学校子站,,24,20,30,13,15,74,,,,6,8,3,3,0.7,0.8
2026-02-02T0100,2616A,98.5611,24.4273,德宏傣族景颇族自治州,德宏州监测站,颗粒物(PM10),55,60,55,30,37,35,,,,28,26,6,6,1.0,0.9
2026-02-02T0100,3677A,98.5887,24.4366,德宏傣族景颇族自治州,芒市人民政府综合楼,,40,40,50,16,27,46,,,,9,14,4,4,0.6,0.7
2026-02-02T0100,1901A,104.424,31.1209,德阳市,东山公园,细颗粒物(PM2.5),80,79,102,59,75,55,,,,15,27,2,2,0.8,0.8
2026-02-02T0100,1902A,104.3827,31.1318,德阳市,西小区,细颗粒物(PM2.5),98,116,131,73,92,4,,,,74,44,4,5,1.2,1.2
2026-02-02T0100,1904A,104.3553,31.1091,德阳市,耐火材料厂,细颗粒物(PM2.5),107,110,124,80,93,5,,,,78,44,3,3,1.1,1
2026-02-02T0100,4145A,104.4144,31.1495,德阳市,市林业局,细颗粒物(PM2.5),88,91,117,65,79,2,,,,79,50,4,4,0.9,0.9
2026-02-02T0100,1622A,116.3034,37.4675,德州市,儿童乐园,细颗粒物(PM2.5),269,251,219,219,182,29,,,,54,44,13,10,1.8,1.7
2026-02-02T0100,1624A,116.2992,37.4449,德州市,监理站,细颗粒物(PM2.5),249,239,219,199,176,39,,,,54,47,10,9,1.5,1.4
2026-02-02T0100,3066A,116.2722,37.438,德州市,九衢泉纯净水厂,细颗粒物(PM2.5),257,234,209,207,175,22,,,,63,47,5,5,2.1,1.9
2026-02-02T0100,3371A,116.3693,37.44,德州市,开发区人民医院,细颗粒物(PM2.5),262,251,220,212,175,14,,,,65,42,14,10,1.5,1.4
2026-02-02T0100,3511A,116.5687,37.3331,德州市,陵城艺术中心,细颗粒物(PM2.5),301,266,219,251,191,19,,,,54,50,28,16,1.8,1.5
2026-02-02T0100,4292A,116.352738,37.420875,德州市,新河东路,细颗粒物(PM2.5),230,232,207,180,197,17,,,,71,49,10,10,1.8,1.5
2026-02-02T0100,2621A,99.7054,27.8319,迪庆藏族自治州,迪庆州站,,38,38,25,19,14,50,,,,12,8,6,5,0.7,0.6
2026-02-02T0100,3180A,99.7122,27.8129,迪庆藏族自治州,质量技术监督局,,28,26,24,19,14,59,,,,9,9,6,5,0.6,0.4
2026-02-02T0100,4257A,104.6092,35.5962,定西市,将台街,细颗粒物(PM2.5),73,83,114,53,55,26,,,,31,22,12,11,0.8,0.8
2026-02-02T0100,4309A,104.6159,35.5701,定西市,正龙路62号,颗粒物(PM10),75,100,114,46,47,40,,,,13,11,4,7,0.7,0.8
2026-02-02T0100,1390A,113.7943,23.0132,东莞市,东城石井,,25,24,20,17,15,52,,,,14,17,6,6,0.7,0.8
2026-02-02T0100,1391A,113.7384,22.9659,东莞市,南城西平,,22,22,19,14,13,40,,,,26,25,7,6,0.7,0.8
2026-02-02T0100,3319A,113.7283,23.041,东莞市,万江金泰,,22,21,24,15,17,47,,,,18,14,5,4,0.8,0.9
2026-02-02T0100,4129A,113.8666,23.1062,东莞市,裕兴路,,24,24,19,14,11,47,,,,16,14,5,5,0.9,0.9
2026-02-02T0100,4130A,114.0076,22.9739,东莞市,教育路1号,,27,27,25,15,15,47,,,,19,19,7,4,0.7,0.8
2026-02-02T0100,4131A,113.7981,22.8124,东莞市,长怡路1号,,29,29,29,15,16,35,,,,26,21,6,6,0.9,0.9
2026-02-02T0100,1666A,118.6612,37.4313,东营市,市环保局,细颗粒物(PM2.5),224,212,192,174,168,4,,,,55,53,9,12,1.4,1.4
2026-02-02T0100,3036A,118.6903,37.4337,东营市,开发区管委会,细颗粒物(PM2.5),216,206,190,166,161,2,,,,60,55,8,10,1.2,1.2
2026-02-02T0100,3365A,118.5721,37.5654,东营市,垦利区民丰路,细颗粒物(PM2.5),232,219,186,182,180,3,,,,57,52,8,9,1.6,1.2
2026-02-02T0100,3498A,118.5063,37.8606,东营市,河口城区,细颗粒物(PM2.5),150,127,209,115,164,13,,,,46,50,3,5,1.6,1.5
2026-02-02T0100,3646A,118.4979,37.4623,东营市,胜利站,细颗粒物(PM2.5),216,230,202,166,156,5,,,,57,56,9,10,1.7,1.5
2026-02-02T0100,3734A,118.5753,37.4405,东营市,理想之城,细颗粒物(PM2.5),211,219,191,161,147,2,,,,53,56,6,7,1.6,1.4
2026-02-02T0100,1591A,110.0024,39.8127,鄂尔多斯市,综合楼,,31,31,33,12,7,59,,,,22,13,9,6,0.3,0.3
2026-02-02T0100,1592A,109.9485,39.8259,鄂尔多斯市,巴音孟克林场办事处,,36,36,27,9,8,44,,,,31,12,6,5,0.4,0.3
2026-02-02T0100,1593A,109.7734,39.5987,鄂尔多斯市,康泽苑,,24,24,24,8,7,61,,,,13,9,3,3,0.3,0.3
2026-02-02T0100,1594A,109.8121,39.5987,鄂尔多斯市,华泰汽车城,,22,22,25,10,10,58,,,,19,11,5,5,0.3,0.3
2026-02-02T0100,1595A,109.9734,39.7884,鄂尔多斯市,奥林花园,,39,39,32,3,6,54,,,,25,13,9,6,0.4,0.3
2026-02-02T0100,2436A,114.894,30.3989,鄂州市,市政府,颗粒物(PM10),53,55,51,34,36,17,,,,45,35,5,6,1.0,0.8
2026-02-02T0100,2437A,114.8986,30.3714,鄂州市,赵家坝,颗粒物(PM10),58,65,53,39,40,10,,,,46,31,8,9,0.7,0.7
2026-02-02T0100,3654A,114.8093,30.4091,鄂州市,精准医疗中心,细颗粒物(PM2.5),67,76,58,48,38,22,,,,43,33,18,9,0.9,0.4
2026-02-02T0100,2454A,109.4978,30.2979,恩施土家族苗族自治州,湖北民院,细颗粒物(PM2.5),85,64,44,63,36,3,,,,24,19,6,6,1.3,1.1
2026-02-02T0100,3549A,109.5061,30.3771,恩施土家族苗族自治州,龙凤新区,细颗粒物(PM2.5),53,50,37,37,26,1,,,,14,13,7,7,0.9,0.8
2026-02-02T0100,2499A,108.3411,21.6159,防城港市,沙万,细颗粒物(PM2.5),54,50,39,38,26,62,,,,16,16,7,6,1.0,1
2026-02-02T0100,2500A,108.3515,21.7733,防城港市,防城档案局,细颗粒物(PM2.5),59,54,45,42,30,63,,,,14,14,6,6,0.8,0.8
2026-02-02T0100,2501A,108.3506,21.6414,防城港市,大海花园,细颗粒物(PM2.5),60,,33,43,29,67,,,,14,14,8,7,0.9,0.9
2026-02-02T0100,1371A,113.1293,23.0065,佛山市,湾梁,,34,34,25,20,11,30,,,,38,24,/,/,/,/
2026-02-02T0100,1372A,113.1082,23.0477,佛山市,华材职中,,32,29,28,22,20,40,,,,27,24,6,6,0.8,0.9
2026-02-02T0100,1373A,113.1439,23.045,佛山市,南海气象局,,28,28,24,19,16,27,,,,41,29,/,/,/,/
2026-02-02T0100,1374A,113.2879,22.8094,佛山市,顺德苏岗,,29,29,24,14,15,39,,,,38,34,/,/,1.1,1.1
2026-02-02T0100,1376A,112.8384,22.8678,佛山市,高明孔堂,,29,28,30,20,19,47,,,,27,22,/,/,/,/
2026-02-02T0100,1377A,112.8835,23.1584,佛山市,三水监测站,,26,22,28,18,18,42,,,,25,22,4,4,0.6,0.6
2026-02-02T0100,1378A,112.8668,23.185,佛山市,三水云东海,,23,23,30,16,17,42,,,,25,25,/,/,/,/
2026-02-02T0100,3625A,113.2568,22.7629,佛山市,容桂街道办,,29,29,27,16,15,40,,,,36,31,/,/,/,/
2026-02-02T0100,1282A,119.2681,26.0506,福州市,师大,,35,25,21,24,14,39,,,,16,18,3,3,0.7,0.6
2026-02-02T0100,1283A,119.2983,26.1028,福州市,五四北路,,40,,19,28,13,40,,,,16,16,4,4,0.8,0.5
2026-02-02T0100,1284A,119.2648,26.0769,福州市,杨桥西路,,33,25,19,23,13,39,,,,16,15,4,4,/,/
2026-02-02T0100,3048A,119.5799,26.0937,福州市,九龙,,20,19,12,14,7,44,,,,17,13,4,4,0.5,0.4
2026-02-02T0100,3526A,119.5188,25.9666,福州市,吴航,,30,30,16,20,9,51,,,,18,13,6,5,0.5,0.5
2026-02-02T0100,4104A,119.3106,26.0648,福州市,路通桥巷6号,,46,,21,32,18,41,,,,14,14,/,/,/,/
2026-02-02T0100,1755A,123.7974,41.8494,抚顺市,望花区,细颗粒物(PM2.5),127,138,113,96,78,4,,,,70,56,10,12,1.5,1.5
2026-02-02T0100,1756A,123.9161,41.8827,抚顺市,顺城区,细颗粒物(PM2.5),110,109,102,83,84,7,,,,68,58,11,13,1.6,1.6
2026-02-02T0100,1757A,124.0437,41.8615,抚顺市,东洲区,细颗粒物(PM2.5),115,102,93,87,71,21,,,,39,36,14,21,1.2,1.1
2026-02-02T0100,1758A,123.9246,41.8638,抚顺市,新抚区,细颗粒物(PM2.5),108,96,89,81,72,8,,,,63,57,5,7,1.3,1.3
2026-02-02T0100,1759A,124.0972,41.8961,抚顺市,大伙房水库,细颗粒物(PM2.5),64,57,69,46,50,23,,,,47,39,9,12,1.0,1.1
2026-02-02T0100,1760A,123.708,41.8386,抚顺市,沈抚新城,细颗粒物(PM2.5),87,98,102,64,70,10,,,,70,59,6,11,1.2,1.3
2026-02-02T0100,2377A,116.3544,27.9833,抚州市,市站,,48,42,41,33,37,32,,,,17,16,6,6,1.0,1.1
2026-02-02T0100,2378A,116.3562,27.9631,抚州市,血防站,,50,50,47,34,38,22,,,,26,24,4,4,1.3,1.3
2026-02-02T0100,2379A,116.3561,28.0007,抚州市,采茶剧团,,49,40,42,34,38,23,,,,13,10,4,4,0.8,0.8
2026-02-02T0100,2380A,116.3854,27.9648,抚州市,医学分院,颗粒物(PM10),51,52,49,35,34,23,,,,27,16,4,5,1.0,1
2026-02-02T0100,2207A,121.6095,41.9978,阜新市,工业园区,,33,33,64,6,33,65,,,,8,28,8,16,0.4,0.7
2026-02-02T0100,2208A,121.6567,42.0188,阜新市,长青街,,20,13,29,7,17,64,,,,9,17,6,9,0.3,0.4
2026-02-02T0100,2209A,121.6672,42.07,阜新市,农业园区,,36,28,37,25,10,66,,,,7,11,16,11,0.4,0.4
2026-02-02T0100,2211A,121.6343,42.0455,阜新市,玉龙新城,,25,25,47,9,16,54,,,,16,23,7,9,0.5,0.5
2026-02-02T0100,2301A,115.8276,32.8929,阜阳市,市监测站,细颗粒物(PM2.5),88,119,91,65,54,76,,,,21,23,4,4,0.7,0.6
2026-02-02T0100,2303A,115.8551,32.8606,阜阳市,开发区,细颗粒物(PM2.5),103,119,86,77,56,56,,,,32,24,5,5,0.6,0.5
2026-02-02T0100,2875A,115.783962,32.889217,阜阳市,阜阳职业技术学院,细颗粒物(PM2.5),83,105,78,61,51,75,,,,23,18,6,5,0.6,0.5
2026-02-02T0100,3468A,115.79,32.8614,阜阳市,市规划展馆,细颗粒物(PM2.5),89,98,80,66,53,77,,,,23,15,6,5,0.8,0.6
2026-02-02T0100,3469A,115.835101,32.918568,阜阳市,枣园社区,"颗粒物(PM10),细颗粒物(PM2.5)",89,128,87,66,56,66,,,,27,21,6,5,0.7,0.6
2026-02-02T0100,2669A,102.9097,34.9841,甘南藏族自治州,州政府,细颗粒物(PM2.5),100,101,82,75,65,22,,,,38,21,5,6,0.9,0.7
2026-02-02T0100,3380A,102.8915,34.9618,甘南藏族自治州,甘肃民族师范学院,颗粒物(PM10),81,111,87,54,38,21,,,,47,25,7,8,0.6,0.5
2026-02-02T0100,2570A,101.96,30.048,甘孜藏族自治州,水桥子,,18,6,12,3,5,55,,,,8,9,6,6,0.7,0.7
2026-02-02T0100,3065A,101.9534,29.9976,甘孜藏族自治州,州环保局,,20,13,13,8,10,61,,,,9,11,6,6,0.6,0.6
2026-02-02T0100,2363A,114.9368,25.8663,赣州市,地委,,33,33,29,13,12,64,,,,11,11,7,7,0.6,0.7
2026-02-02T0100,2364A,114.946,25.8483,赣州市,气象台,,38,38,31,24,13,64,,,,11,15,4,5,0.3,0.4
2026-02-02T0100,2365A,114.932,25.8332,赣州市,市图书馆,,31,31,19,20,14,57,,,,13,15,4,4,0.6,0.7
2026-02-02T0100,2366A,114.8905,25.8472,赣州市,华坚鞋城,,31,31,25,14,13,57,,,,14,14,5,4,0.3,0.4
2026-02-02T0100,3109A,115.0094,25.8614,赣州市,赣县区卫计委,,24,24,17,16,11,69,,,,5,6,7,7,0.6,0.7
2026-02-02T0100,2684A,106.2753,36.0057,固原市,监测站,颗粒物(PM10),61,71,143,37,50,45,,,,23,23,12,10,1.2,1.1
2026-02-02T0100,2685A,106.2384,36.0189,固原市,新区,颗粒物(PM10),62,74,134,35,44,4,,,,60,35,7,8,1.5,1
2026-02-02T0100,2544A,106.6307,30.4577,广安市,市委,细颗粒物(PM2.5),103,95,66,77,53,18,,,,32,26,5,6,1.1,1
2026-02-02T0100,2545A,106.6266,30.4662,广安市,友谊中学,细颗粒物(PM2.5),82,88,61,60,45,21,,,,24,26,6,6,1.1,1.1
2026-02-02T0100,2547A,106.6386,30.4551,广安市,广电花园,细颗粒物(PM2.5),109,83,55,82,55,20,,,,22,23,6,6,1.0,0.9
2026-02-02T0100,2902A,106.6347,30.4868,广安市,北辰小学,细颗粒物(PM2.5),97,75,60,72,53,21,,,,16,17,4,5,1.0,1
2026-02-02T0100,2524A,105.8211,32.4444,广元市,老城,颗粒物(PM10),69,87,92,45,49,6,,,,59,48,3,6,0.9,1.1
2026-02-02T0100,2526A,105.8629,32.429,广元市,监测站,细颗粒物(PM2.5),67,75,82,48,45,30,,,,26,29,5,7,1.0,1.1
2026-02-02T0100,3617A,105.8047,32.4167,广元市,经开区,颗粒物(PM10),76,102,97,52,51,1,,,,56,40,3,8,1.0,1
2026-02-02T0100,1345A,113.2346,23.1423,广州市,广雅中学,,32,32,20,22,16,41,,,,22,24,3,3,0.8,0.8
2026-02-02T0100,1346A,113.2611,23.105,广州市,市五中,,31,31,24,19,15,47,,,,24,21,8,7,/,/
2026-02-02T0100,1348A,113.3477,23.0916,广州市,广东商学院,,26,26,21,18,12,45,,,,22,20,4,5,0.7,1.3
2026-02-02T0100,1349A,113.4332,23.105,广州市,市八十六中,,23,23,18,16,14,38,,,,34,26,7,7,/,/
2026-02-02T0100,1350A,113.3506,22.9488,广州市,番禺中学,,35,35,28,18,16,36,,,,36,26,3,3,0.8,0.8
2026-02-02T0100,1351A,113.2147,23.3918,广州市,花都师范,,29,29,23,17,12,49,,,,16,20,5,6,0.7,0.8
2026-02-02T0100,1352A,113.2599,23.1329,广州市,市监测站,,39,39,28,24,17,35,,,,28,19,3,3,/,/
2026-02-02T0100,1353A,113.5618,23.3119,广州市,九龙镇镇龙,,22,21,16,15,11,48,,,,12,13,4,5,0.7,0.7
2026-02-02T0100,1354A,113.2764,23.1544,广州市,麓湖,,30,29,23,21,15,28,,,,36,25,10,9,0.8,0.8
2026-02-02T0100,2846A,113.3209,23.1323,广州市,体育西,,30,28,24,21,18,44,,,,20,20,6,7,0.8,0.9
2026-02-02T0100,3298A,113.5718,23.5493,广州市,从化街口,,19,17,14,13,10,58,,,,9,12,6,6,0.6,0.7
2026-02-02T0100,3299A,113.3463,23.369,广州市,白云竹料,,20,19,19,14,14,52,,,,16,17,4,4,0.6,0.6
2026-02-02T0100,3300A,113.2981,23.2365,广州市,白云嘉禾,,33,33,26,18,14,44,,,,26,27,5,6,/,/
2026-02-02T0100,3301A,113.4256,23.1716,广州市,黄埔科学城,,26,24,19,18,13,50,,,,18,17,2,2,0.8,0.9
2026-02-02T0100,3302A,113.3942,23.0485,广州市,番禺大学城,,30,30,24,16,12,45,,,,30,21,6,5,0.7,0.7
2026-02-02T0100,3303A,113.4923,22.8169,广州市,南沙黄阁,,47,47,35,26,21,14,,,,48,34,9,6,/,/
2026-02-02T0100,3304A,113.534,22.7893,广州市,南沙街,,39,39,33,20,18,34,,,,40,34,5,6,0.8,0.9
2026-02-02T0100,3443A,113.2905,23.5541,广州市,花都梯面,,26,26,20,18,12,46,,,,8,10,4,6,/,/
2026-02-02T0100,3445A,113.786,23.7479,广州市,从化良口,,18,16,12,12,10,50,,,,9,8,8,7,/,/
2026-02-02T0100,3446A,113.805,23.2614,广州市,增城荔城,,19,19,14,13,9,51,,,,12,13,6,5,0.8,0.9
2026-02-02T0100,2506A,109.604387,23.066791,贵港市,江南子站,细颗粒物(PM2.5),58,58,39,41,23,58,,,,11,9,5,4,0.8,0.7
2026-02-02T0100,2508A,109.5669,23.1065,贵港市,荷城子站,细颗粒物(PM2.5),60,66,38,43,22,49,,,,19,14,7,5,1.0,0.9
2026-02-02T0100,3405A,109.5886,23.1172,贵港市,新世纪学校,细颗粒物(PM2.5),69,68,42,50,29,49,,,,18,14,/,/,0.7,0.6
2026-02-02T0100,4260A,109.5933,23.095,贵港市,中山路155-3号,细颗粒物(PM2.5),64,60,34,46,27,59,,,,17,13,/,/,0.8,0.7
2026-02-02T0100,1439A,106.6863,26.6035,贵阳市,马鞍山,,39,,26,27,20,38,,,,8,13,5,6,/,/
2026-02-02T0100,1441A,106.6241,26.6266,贵阳市,鉴湖路,,31,31,38,20,24,47,,,,10,16,2,3,0.7,0.7
2026-02-02T0100,1442A,106.7468,26.6344,贵阳市,燕子冲,,33,27,28,23,22,50,,,,10,11,9,8,0.7,0.7
2026-02-02T0100,1443A,106.6556,26.4362,贵阳市,碧云窝,,46,46,41,31,22,40,,,,13,16,12,10,/,/
2026-02-02T0100,1445A,106.6963,26.6063,贵阳市,红边门,,49,36,31,34,24,43,,,,12,14,10,10,/,/
2026-02-02T0100,1446A,106.7162383,26.56964667,贵阳市,新华路,,46,41,35,32,21,44,,,,13,17,8,7,0.7,0.6
2026-02-02T0100,1447A,106.6742,26.542,贵阳市,太慈桥,,39,39,30,27,21,45,,,,16,18,5,4,/,/
2026-02-02T0100,4230A,106.688212,26.56952,贵阳市,花果园大街66号,,46,,26,32,22,38,,,,13,15,2,3,/,/
2026-02-02T0100,4231A,106.687268,26.516892,贵阳市,漓江路57号,,46,34,31,32,22,38,,,,14,16,8,8,0.7,0.7
2026-02-02T0100,1864A,110.3091,25.2705,桂林市,龙隐路小学,细颗粒物(PM2.5),74,,43,54,49,55,,,,12,12,3,4,0.6,0.6
2026-02-02T0100,1865A,110.2849361,25.22909545,桂林市,八中,,43,43,42,27,25,52,,,,14,14,3,3,0.7,0.8
2026-02-02T0100,3531A,110.296,25.1254,桂林市,旅游学院,颗粒物(PM10),55,60,54,37,37,70,,,,14,12,4,4,0.5,0.5
2026-02-02T0100,4222A,110.1835,25.2444,桂林市,环湖路276号,细颗粒物(PM2.5),54,53,49,38,34,62,,,,11,12,5,6,1.1,1.1
2026-02-02T0100,4301A,110.2803,25.2773,桂林市,信义路13号,细颗粒物(PM2.5),69,,41,50,37,58,,,,15,15,5,6,0.9,0.9
2026-02-02T0100,2674A,100.2262,34.4854,果洛藏族自治州,玛沁县大武镇,细颗粒物(PM2.5),55,45,47,39,37,40,,,,9,6,17,17,0.5,0.5
2026-02-02T0100,1130A,126.5557,45.8109,哈尔滨市,松北商大,细颗粒物(PM2.5),84,67,69,62,61,33,,,,31,35,7,9,1.0,0.9
2026-02-02T0100,1132A,126.6162,45.719,哈尔滨市,南岗学府路,细颗粒物(PM2.5),83,97,99,61,71,21,,,,37,37,13,10,1.1,1.1
2026-02-02T0100,1133A,126.6894,45.7733,哈尔滨市,太平宏伟公园,细颗粒物(PM2.5),114,98,84,86,64,28,,,,62,33,16,15,1.6,0.9
2026-02-02T0100,1134A,126.6361,45.7672,哈尔滨市,道外承德广场,细颗粒物(PM2.5),102,122,95,76,59,11,,,,75,41,16,14,0.9,0.5
2026-02-02T0100,1136A,126.644,45.7261,哈尔滨市,动力和平路,细颗粒物(PM2.5),92,100,91,68,69,18,,,,51,42,16,16,1.3,1.2
2026-02-02T0100,1137A,126.5933,45.7479,哈尔滨市,道里建国路,细颗粒物(PM2.5),109,120,82,82,66,11,,,,70,45,23,22,1.0,0.6
2026-02-02T0100,1138A,126.6127,45.6119,哈尔滨市,平房东轻厂,细颗粒物(PM2.5),67,71,92,48,76,6,,,,78,52,13,11,1.1,1.1
2026-02-02T0100,1139A,126.5875,45.9827,哈尔滨市,呼兰师专,细颗粒物(PM2.5),125,111,75,95,78,9,,,,65,46,21,17,1.5,1.2
2026-02-02T0100,1140A,126.6299,45.6799,哈尔滨市,省农科院,细颗粒物(PM2.5),98,94,106,73,86,6,,,,63,51,17,17,1.4,1.2
2026-02-02T0100,4282A,126.6769,45.7379,哈尔滨市,华山路1号,细颗粒物(PM2.5),79,100,85,58,58,13,,,,66,42,14,18,1.2,0.9
2026-02-02T0100,4283A,126.9717,45.5356,哈尔滨市,解放大街52号,细颗粒物(PM2.5),117,112,97,88,72,26,,,,32,27,14,12,1.2,1
2026-02-02T0100,2688A,93.5124,42.8176,哈密市,地区监测站,,35,35,45,18,25,29,,,,34,26,9,9,0.5,0.4
2026-02-02T0100,2689A,93.5014,42.8312,哈密市,哈密师范学校,,29,29,58,8,20,29,,,,34,28,6,6,0.5,0.7
2026-02-02T0100,2671A,100.9016,36.9464,海北藏族自治州,海晏县西海镇,细颗粒物(PM2.5),77,72,68,56,44,50,,,,15,10,13,10,0.8,0.7
2026-02-02T0100,3867A,102.074,36.5056,海东市,平安区公安局北苑,细颗粒物(PM2.5),82,88,107,60,63,54,,,,5,15,10,13,0.8,0.9
2026-02-02T0100,4163A,102.0984,36.5119,海东市,滨河路,细颗粒物(PM2.5),70,83,105,51,59,47,,,,29,36,9,15,0.7,0.8
2026-02-02T0100,1410A,110.3189,20.0596,海口市,海南大学,,26,17,26,11,17,83,,,,9,10,5,6,0.5,0.6
2026-02-02T0100,1411A,110.2827,20.0051,海口市,秀英海南医院,,26,26,29,14,17,82,,,,10,10,7,7,0.5,0.6
2026-02-02T0100,1412A,110.3391,19.9979,海口市,海南师范大学,,26,20,28,12,15,83,,,,8,8,5,5,0.6,0.7
2026-02-02T0100,1413A,110.3303,20.0359,海口市,龙华路环保局宿舍,,28,21,27,13,17,88,,,,8,9,/,/,0.7,0.8
2026-02-02T0100,3539A,110.5111,19.9737,海口市,桂林洋子站,,26,19,25,13,16,83,,,,8,9,/,/,/,/
2026-02-02T0100,4134A,110.1952,20.0451,海口市,长滨二路9号,,26,15,24,11,17,83,,,,11,9,/,/,/,/
2026-02-02T0100,2673A,100.6158,36.2985,海南藏族自治州,共和县恰卜恰镇,,40,40,45,28,32,25,,,,29,18,10,11,0.5,0.6
2026-02-02T0100,2676A,97.373,37.376,海西蒙古族藏族自治州,德令哈市,,26,17,23,7,9,82,,,,3,5,13,14,0.4,0.5
2026-02-02T0100,1049A,114.492,36.5712,邯郸市,矿院,细颗粒物(PM2.5),172,140,147,130,137,4,,,,62,31,4,3,1.4,1.7
2026-02-02T0100,1050A,114.4839,36.6136,邯郸市,丛台公园,细颗粒物(PM2.5),201,184,178,151,148,7,,,,68,41,6,6,1.4,1.9
2026-02-02T0100,3458A,114.7893,36.5592,邯郸市,香泉濮院小区,细颗粒物(PM2.5),166,212,163,126,111,4,,,,68,40,7,5,1.6,1.5
2026-02-02T0100,3580A,114.1998,36.4439,邯郸市,峰峰矿区临水派出所,细颗粒物(PM2.5),113,106,95,85,73,56,,,,23,15,10,10,1.1,1.2
2026-02-02T0100,4068A,114.5209,36.7697,邯郸市,建安街268号,细颗粒物(PM2.5),180,160,156,136,148,1,,,,77,54,5,5,1.2,1.8
2026-02-02T0100,4069A,114.5488,36.6177,邯郸市,丛台东路558号,细颗粒物(PM2.5),216,167,162,166,154,1,,,,76,35,5,3,1.6,2
2026-02-02T0100,2635A,107.0155,33.0707,汉中市,市监测站,细颗粒物(PM2.5),150,142,100,115,68,20,,,,39,34,5,6,1.7,1.3
2026-02-02T0100,2636A,107.0083,33.114,汉中市,鑫源开发区,细颗粒物(PM2.5),144,145,102,110,71,6,,,,59,40,5,6,1.5,1.1
2026-02-02T0100,2637A,107.0072,33.0323,汉中市,南郑大河坎水厂,细颗粒物(PM2.5),104,149,107,78,63,15,,,,40,31,6,7,1.4,1.2
2026-02-02T0100,1223A,120.2073,30.2111,杭州市,滨江,,37,37,40,22,28,9,,,,49,30,6,6,0.7,0.6
2026-02-02T0100,1224A,120.0625,30.2737,杭州市,西溪,,34,34,39,21,21,0,,,,42,26,8,8,1.0,1
2026-02-02T0100,1226A,120.3417,30.315,杭州市,下沙,,40,40,48,22,36,30,,,,32,32,7,7,0.4,1.2
2026-02-02T0100,1227A,120.1252,30.2465,杭州市,卧龙桥,,26,26,36,14,24,8,,,,13,11,9,9,0.3,0.4
2026-02-02T0100,1228A,120.1902,30.2691,杭州市,浙江农大,,35,35,42,18,27,13,,,,47,38,5,5,0.7,0.7
2026-02-02T0100,1230A,120.1195,30.3121,杭州市,和睦小学,,41,41,44,27,31,13,,,,38,23,5,5,0.9,0.9
2026-02-02T0100,1231A,120.3076,30.4146,杭州市,临平镇,颗粒物(PM10),52,53,55,31,38,6,,,,50,28,6,6,0.7,0.7
2026-02-02T0100,1232A,120.2753,30.1839,杭州市,城厢镇,,43,43,46,24,29,16,,,,37,27,6,7,0.4,0.5
2026-02-02T0100,1233A,120.0883,30.1808,杭州市,云栖,,26,26,29,14,17,9,,,,14,15,3,4,0.7,0.7
2026-02-02T0100,3557A,119.9463,30.0496,杭州市,镇二中,,43,35,27,30,24,3,,,,43,28,4,4,0.8,0.7
2026-02-02T0100,3558A,119.7184,30.2367,杭州市,市府大楼,,20,20,26,13,23,16,,,,16,15,10,10,0.8,0.7
2026-02-02T0100,3656A,120.1554,30.2863,杭州市,消防大队,,32,32,39,22,29,20,,,,32,26,5,6,0.5,0.5
2026-02-02T0100,1270A,117.1957,31.7845,合肥市,明珠广场,,41,41,42,27,26,25,,,,43,25,5,5,0.5,0.5
2026-02-02T0100,1271A,117.307,31.8765,合肥市,三里街,,46,46,47,29,29,2,,,,71,35,6,5,0.8,0.6
2026-02-02T0100,1272A,117.2587,31.8703,合肥市,琥珀山庄,细颗粒物(PM2.5),52,51,45,36,33,10,,,,75,27,7,7,1.1,0.7
2026-02-02T0100,1275A,117.2593,31.9376,合肥市,庐阳区,,44,44,45,27,26,34,,,,51,33,2,2,0.8,0.7
2026-02-02T0100,1276A,117.345251,31.861615,合肥市,瑶海区,,36,31,51,25,30,23,,,,60,48,4,4,0.5,0.5
2026-02-02T0100,1277A,117.3033,31.7967,合肥市,包河区,,39,39,45,23,26,13,,,,68,29,6,5,0.7,0.6
2026-02-02T0100,1278A,117.278,31.7392,合肥市,滨湖新区,,39,39,43,21,25,1,,,,75,24,2,2,0.6,0.5
2026-02-02T0100,1279A,117.1324,31.8395,合肥市,高新区,,39,36,38,27,23,33,,,,44,27,3,3,0.6,0.6
2026-02-02T0100,3464A,117.3802,31.9148,合肥市,高教基地,,31,31,46,16,26,21,,,,31,30,5,5,0.5,0.5
2026-02-02T0100,4098A,117.2518,31.8404,合肥市,中国科学技术大学,,44,44,38,25,23,27,,,,43,20,8,7,0.8,0.6
2026-02-02T0100,3614A,79.9241,37.0878,和田地区,地区环保局,颗粒物(PM10),213,359,482,120,118,37,,,,31,22,10,5,0.5,0.4
2026-02-02T0100,3615A,79.9132,37.1137,和田地区,市环保局,颗粒物(PM10),195,340,488,80,89,57,,,,24,19,4,4,0.3,0.5
2026-02-02T0100,2517A,108.0496,24.6957,河池市,市环保站,,48,,23,33,20,45,,,,11,10,19,5,0.9,0.8
2026-02-02T0100,4302A,108.0901,24.6945,河池市,上任中路54号,,46,40,26,32,18,42,,,,12,10,18,6,1.0,1
2026-02-02T0100,1697A,114.6962,23.7538,河源市,东埔,,23,22,14,16,14,53,,,,14,15,6,5,0.6,0.6
2026-02-02T0100,1698A,114.6895,23.7232,河源市,老城,,25,20,16,17,13,53,,,,10,11,6,6,0.8,0.9
2026-02-02T0100,3374A,115.5562,35.089,菏泽市,定陶老年大学,细颗粒物(PM2.5),175,175,128,132,95,21,,,,49,21,4,4,0.8,0.7
2026-02-02T0100,4114A,115.4239,35.2593,菏泽市,黄河路600号,细颗粒物(PM2.5),149,173,136,114,98,56,,,,35,34,4,4,1.0,0.9
2026-02-02T0100,4115A,115.5025,35.2727,菏泽市,菏泽市人社局,细颗粒物(PM2.5),193,197,135,145,99,7,,,,72,32,10,8,1.5,0.9
2026-02-02T0100,4184A,115.479691,35.244011,菏泽市,永昌路1号,细颗粒物(PM2.5),169,189,134,128,91,12,,,,72,37,4,4,1.1,0.8
2026-02-02T0100,4193A,115.471542,35.280012,菏泽市,长城路999号,细颗粒物(PM2.5),172,184,129,130,95,12,,,,71,30,4,5,1.5,1
2026-02-02T0100,2514A,111.5264,24.4178,贺州市,环保小区,,48,40,37,33,27,65,,,,13,13,4,3,0.5,0.5
2026-02-02T0100,2515A,111.561,24.4074,贺州市,政协大楼,,50,50,38,34,28,61,,,,12,11,10,11,0.6,0.6
2026-02-02T0100,3534A,111.4744,24.455,贺州市,西湾,,48,48,38,33,27,59,,,,16,17,9,9,0.8,0.7
2026-02-02T0100,2385A,114.17,35.9019,鹤壁市,市监测站,细颗粒物(PM2.5),142,143,133,108,104,45,,,,32,28,7,3,1.6,1.3
2026-02-02T0100,2386A,114.2953,35.7512,鹤壁市,市交警支队,细颗粒物(PM2.5),137,158,150,104,103,30,,,,34,40,4,5,1.4,1.1
2026-02-02T0100,2387A,114.2877,35.7302,鹤壁市,迎宾馆,细颗粒物(PM2.5),127,151,145,96,109,32,,,,34,42,9,4,1.5,1.2
2026-02-02T0100,3474A,114.2616,35.6824,鹤壁市,大新区,细颗粒物(PM2.5),139,143,137,106,112,46,,,,32,42,11,7,1.5,1.3
2026-02-02T0100,3596A,114.1573,35.9607,鹤壁市,南山宾馆,细颗粒物(PM2.5),132,161,118,100,85,42,,,,35,25,13,6,1.7,1.1
2026-02-02T0100,2244A,130.2537,47.3416,鹤岗市,哈啤分公司,,25,18,28,17,23,76,,,,5,7,6,6,0.5,0.6
2026-02-02T0100,2245A,130.2683,47.3087,鹤岗市,斯达机电,,28,28,32,15,19,69,,,,7,9,5,5,0.6,0.6
2026-02-02T0100,2246A,130.3114,47.3388,鹤岗市,东山纸板厂,,,,27,39,23,14,,,,53,14,13,7,1.2,0.5
2026-02-02T0100,2263A,127.4832,50.2524,黑河市,交通局,,22,16,22,15,15,62,,,,7,10,4,6,0.3,0.4
2026-02-02T0100,2264A,127.5146,50.2339,黑河市,环保局,,42,42,26,23,16,27,,,,36,22,6,8,0.8,0.5
2026-02-02T0100,1074A,115.6839,37.754,衡水市,电机北厂,细颗粒物(PM2.5),221,199,186,171,159,0,,,,92,48,9,6,1.4,1.4
2026-02-02T0100,1075A,115.6303,37.7318,衡水市,市监测站,细颗粒物(PM2.5),220,183,168,170,152,20,,,,61,39,6,6,1.4,1.4
2026-02-02T0100,3188A,115.6684,37.7216,衡水市,市城管局,细颗粒物(PM2.5),204,187,166,154,134,1,,,,84,45,8,8,1.4,1.5
2026-02-02T0100,3459A,115.599,37.5491,衡水市,地表水厂,细颗粒物(PM2.5),240,,170,190,166,5,,,,67,46,6,5,1.3,1.3
2026-02-02T0100,2457A,112.6209,26.9268,衡阳市,衡阳化工总厂,细颗粒物(PM2.5),55,,39,39,34,31,,,,20,16,13,9,1.0,0.9
2026-02-02T0100,2458A,112.621,26.8957,衡阳市,珠晖区环保局,细颗粒物(PM2.5),55,46,38,39,34,29,,,,32,22,7,6,1.1,1
2026-02-02T0100,2459A,112.628,26.8654,衡阳市,市委党校,,49,35,36,34,30,40,,,,16,12,9,11,1.1,1.1
2026-02-02T0100,2460A,112.6007,26.8977,衡阳市,市监测站,颗粒物(PM10),63,75,59,40,32,37,,,,22,16,16,8,1.1,1
2026-02-02T0100,2461A,112.5658,26.9013,衡阳市,真空机电公司,细颗粒物(PM2.5),67,57,54,48,39,32,,,,30,22,50,13,1.3,1
2026-02-02T0100,3399A,112.6703,26.8817,衡阳市,师范学院,,49,45,42,34,31,35,,,,28,21,3,3,0.7,0.6
2026-02-02T0100,3038A,103.3757,23.3679,红河哈尼族彝族自治州,州图书馆,,24,24,23,16,18,63,,,,6,7,7,6,0.6,0.6
2026-02-02T0100,4154A,103.401,23.3561,红河哈尼族彝族自治州,蒙自市朝阳路,,20,20,16,13,17,54,,,,4,4,6,6,0.5,0.5
2026-02-02T0100,1090A,111.6506,40.7517,呼和浩特市,呼市一监,,24,6,40,3,26,75,,,,5,22,7,7,0.3,0.6
2026-02-02T0100,1094A,111.7516,40.8369,呼和浩特市,如意水处理厂,,23,6,38,3,22,71,,,,5,21,7,8,0,0.3
2026-02-02T0100,1095A,111.727798,40.806187,呼和浩特市,二十九中,,19,12,37,3,19,58,,,,10,17,9,10,0.3,0.5
2026-02-02T0100,1097A,111.717,40.7617,呼和浩特市,化肥厂生活区,,20,10,37,3,20,64,,,,10,21,4,5,0.2,0.4
2026-02-02T0100,3699A,111.6519,40.8389,呼和浩特市,海东办,,21,7,28,3,15,67,,,,10,21,3,3,0.4,0.5
2026-02-02T0100,4275A,111.591512,40.827312,呼和浩特市,成吉思汗西街8号,,20,7,34,3,16,62,,,,8,24,4,5,0.3,0.5
2026-02-02T0100,4276A,111.6597,40.8077,呼和浩特市,公园东路75号,,21,7,37,3,20,67,,,,11,27,5,5,0.3,0.6
2026-02-02T0100,4277A,111.5427,40.7846,呼和浩特市,金海路35号,,15,9,43,3,24,42,,,,30,27,5,7,0.4,0.7
2026-02-02T0100,3061A,119.7511,49.1576,呼伦贝尔市,国华电力东,,28,26,25,19,20,69,,,,16,21,7,6,0.3,0.4
2026-02-02T0100,4279A,119.7569,49.2222,呼伦贝尔市,伊敏大街东7号,,28,27,36,19,27,69,,,,3,20,7,6,0.2,0.4
2026-02-02T0100,1250A,120.075,30.867,湖州市,城西水厂,细颗粒物(PM2.5),65,66,54,47,41,11,,,,66,38,6,6,0.6,0.5
2026-02-02T0100,2873A,120.083,30.8929,湖州市,仁皇山新区,细颗粒物(PM2.5),62,58,56,44,42,7,,,,70,35,7,6,0.7,0.7
2026-02-02T0100,2907A,120.1846,30.8592,湖州市,吴兴区站,细颗粒物(PM2.5),87,70,57,64,55,2,,,,68,28,4,5,0.6,0.5
2026-02-02T0100,3562A,120.4146,30.8538,湖州市,南浔区站,细颗粒物(PM2.5),74,71,65,54,47,35,,,,37,35,6,7,0.7,0.6
2026-02-02T0100,1607A,120.904878,40.721091,葫芦岛市,龙港区,,22,22,84,13,59,68,,,,11,43,23,23,0.6,1.1
2026-02-02T0100,1608A,120.8382,40.7521,葫芦岛市,化工街,,22,22,73,3,45,54,,,,24,45,18,39,0.3,0.6
2026-02-02T0100,1609A,120.8339,40.7078,葫芦岛市,新区,,33,33,60,12,49,60,,,,20,45,12,21,0.5,0.9
2026-02-02T0100,1610A,120.8697,40.7679,葫芦岛市,东城区,,20,,67,13,51,62,,,,22,45,9,21,0.6,1.1
2026-02-02T0100,2483A,109.9297,27.5383,怀化市,河西地税局,,50,50,59,34,37,58,,,,14,22,1,1,/,/
2026-02-02T0100,2484A,109.9783,27.5342,怀化市,市四医院,细颗粒物(PM2.5),82,94,71,60,44,6,,,,35,17,8,8,0.7,0.7
2026-02-02T0100,2485A,109.9971,27.5579,怀化市,监测楼,细颗粒物(PM2.5),87,97,64,64,44,4,,,,38,22,3,4,0.7,0.4
2026-02-02T0100,1210A,119.0566,33.5991,淮安市,钵池山,细颗粒物(PM2.5),74,66,69,54,54,48,,,,23,18,7,7,0.5,0.5
2026-02-02T0100,1211A,119.0083,33.578,淮安市,北京南路,细颗粒物(PM2.5),73,73,72,53,52,39,,,,30,34,6,7,0.5,0.7
2026-02-02T0100,1212A,118.9938,33.6083,淮安市,市监测站,细颗粒物(PM2.5),74,58,56,54,53,51,,,,24,27,8,8,0.7,0.7
2026-02-02T0100,1213A,119.135,33.5038,淮安市,楚州区监测站,细颗粒物(PM2.5),77,73,68,56,50,1,,,,69,37,6,8,0.6,0.6
2026-02-02T0100,3426A,118.8757,33.2897,淮安市,新华书店,颗粒物(PM10),62,74,67,41,45,1,,,,76,28,7,7,0.5,0.8
2026-02-02T0100,4092A,119.119691,33.550006,淮安市,枚皋中路89号,细颗粒物(PM2.5),104,,72,78,60,24,,,,42,30,8,8,0.9,0.8
2026-02-02T0100,4206A,119.028838,33.631911,淮安市,承德北路606号,细颗粒物(PM2.5),77,78,80,56,54,51,,,,17,20,6,6,0.6,0.6
2026-02-02T0100,2282A,116.8005,33.9749,淮北市,监测站,细颗粒物(PM2.5),115,140,110,87,76,25,,,,41,25,5,4,1.0,0.8
2026-02-02T0100,2283A,116.8094,33.9008,淮北市,烈山区政府,细颗粒物(PM2.5),124,140,117,94,75,12,,,,66,41,4,4,0.7,0.6
2026-02-02T0100,4017A,116.7926,33.9534,淮北市,市博物馆,细颗粒物(PM2.5),117,145,115,88,84,9,,,,50,25,4,6,1.2,1
2026-02-02T0100,4100A,116.8322,33.9884,淮北市,杜集区第一实验学校,细颗粒物(PM2.5),138,151,111,105,79,21,,,,43,26,3,3,0.9,0.8
2026-02-02T0100,2277A,116.8304,32.7726,淮南市,潘集区政府,细颗粒物(PM2.5),69,79,73,50,42,45,,,,28,16,5,4,0.5,0.5
2026-02-02T0100,2279A,116.8569,32.5949,淮南市,谢家集区政府,细颗粒物(PM2.5),57,,53,40,37,52,,,,21,18,6,5,0.6,0.5
2026-02-02T0100,2280A,116.8279,32.6333,淮南市,八公山区政府,细颗粒物(PM2.5),57,45,52,40,42,62,,,,17,13,2,2,0.6,0.6
2026-02-02T0100,2894A,117.0561,32.6536,淮南市,经济技术开发区消防队,颗粒物(PM10),53,55,61,33,40,62,,,,18,16,4,4,0.3,0.3
2026-02-02T0100,3329A,117.011,32.5891,淮南市,山南新区,,,36,48,,40,53,,,,27,22,6,6,0.4,0.4
2026-02-02T0100,4209A,117.003137,32.644456,淮南市,国庆中路369号,,49,44,58,34,38,54,,,,13,16,9,9,0.4,0.4
2026-02-02T0100,2446A,114.9021,30.474,黄冈市,职工中心,细颗粒物(PM2.5),62,53,49,44,40,9,,,,44,33,4,4,1.0,0.8
2026-02-02T0100,2929A,114.8858,30.4519,黄冈市,红卫路,细颗粒物(PM2.5),55,50,45,39,38,19,,,,51,32,6,5,0.9,0.6
2026-02-02T0100,3398A,114.9134,30.4446,黄冈市,市林业局,细颗粒物(PM2.5),55,58,50,39,41,17,,,,39,29,5,4,0.8,0.6
2026-02-02T0100,2672A,102.02,35.5101,黄南藏族自治州,同仁县隆务镇,颗粒物(PM10),60,69,73,40,43,60,,,,3,4,7,8,0.5,0.6
2026-02-02T0100,2295A,118.2905,29.6965,黄山市,延安路89号,,17,17,18,11,14,11,,,,16,12,4,4,0.7,0.6
2026-02-02T0100,2297A,118.1369,30.2755,黄山市,黄山区政府5号楼,,11,11,22,3,10,11,,,,8,9,2,2,0.6,0.6
2026-02-02T0100,4210A,118.335445,29.720283,黄山市,滨江东路7-2号,,29,29,34,11,14,20,,,,13,13,/,/,/,/
2026-02-02T0100,2423A,115.0547,30.2332,黄石市,沈家营,颗粒物(PM10),54,58,57,36,37,31,,,,16,18,5,6,1.1,0.9
2026-02-02T0100,2426A,114.899,30.211,黄石市,铁山,颗粒物(PM10),51,51,44,32,35,9,,,,28,25,5,5,1.2,1
2026-02-02T0100,2427A,115.0259,30.2108,黄石市,团城山,细颗粒物(PM2.5),68,65,53,49,42,25,,,,22,22,6,6,1.0,0.9
2026-02-02T0100,3149A,115.0174,30.1591,黄石市,笔架山北路,颗粒物(PM10),62,73,71,43,48,36,,,,12,22,6,7,0.9,0.9
2026-02-02T0100,4185A,115.078022,30.21118,黄石市,磁湖东路29号,细颗粒物(PM2.5),70,63,53,51,47,19,,,,20,15,6,7,1.2,1
2026-02-02T0100,1392A,114.4181,23.0528,惠州市,河南岸金山湖子站,,20,20,17,13,11,49,,,,14,14,3,4,0.8,0.9
2026-02-02T0100,1393A,114.4055,23.0824,惠州市,下埔横江三路子站,,20,20,17,14,12,52,,,,13,13,6,6,0.7,0.8
2026-02-02T0100,1395A,114.4645,22.7832,惠州市,惠阳区承修路船湖子站,,22,21,20,15,13,46,,,,13,15,6,6,0.7,0.8
2026-02-02T0100,1396A,114.5316,22.7423,惠州市,大亚湾管委会子站,,18,18,19,12,12,47,,,,8,11,6,6,0.7,0.7
2026-02-02T0100,3314A,114.4334,22.8134,惠州市,惠阳秋长,,19,,18,13,14,56,,,,10,13,/,/,/,/
2026-02-02T0100,3452A,114.6521,22.7755,惠州市,大亚湾霞涌,,24,24,21,14,12,49,,,,13,14,/,/,/,/
2026-02-02T0100,4300A,114.4089,23.1147,惠州市,文华一路1号,,21,21,17,14,12,52,,,,14,14,/,/,/,/
2026-02-02T0100,2240A,130.9618,45.2926,鸡西市,环保局,,26,24,34,18,25,72,,,,6,8,6,6,0.3,0.3
2026-02-02T0100,2243A,130.9294,45.2959,鸡西市,第一中学,,23,17,31,15,23,71,,,,7,8,3,3,0.4,0.4
2026-02-02T0100,3707A,131.0069,45.2988,鸡西市,欧美日汽修厂,,38,,38,26,27,62,,,,12,11,7,8,0.5,0.5
2026-02-02T0100,2367A,114.9753,27.0803,吉安市,红声器材厂,,37,37,33,23,22,25,,,,24,19,11,8,0.5,0.4
2026-02-02T0100,2369A,114.9903,27.1313,吉安市,市环境监测站,,40,38,30,28,24,21,,,,18,14,9,9,/,/
2026-02-02T0100,2370A,115.009527,27.096792,吉安市,青原区法院,,40,32,29,28,23,27,,,,20,18,12,9,0.7,0.7
2026-02-02T0100,1772A,126.54,43.8622,吉林市,哈达湾,细颗粒物(PM2.5),74,65,55,54,44,58,,,,30,24,7,9,1.1,1
2026-02-02T0100,1773A,126.5843,43.8358,吉林市,东局子,细颗粒物(PM2.5),68,64,53,49,38,45,,,,23,22,4,6,1.2,1
2026-02-02T0100,1774A,126.5051,43.8243,吉林市,电力学院,细颗粒物(PM2.5),84,73,88,62,69,42,,,,34,33,6,9,1.3,1.3
2026-02-02T0100,1775A,126.6133,43.8971,吉林市,江北,细颗粒物(PM2.5),60,56,58,43,47,46,,,,21,23,8,10,1.4,1.2
2026-02-02T0100,1776A,126.5549,43.8304,吉林市,江南公园,细颗粒物(PM2.5),85,71,52,63,43,35,,,,35,21,7,8,0.9,0.6
2026-02-02T0100,2868A,126.4737,43.953,吉林市,九站,细颗粒物(PM2.5),90,81,69,67,61,13,,,,70,43,25,9,1.3,1
2026-02-02T0100,1299A,116.9866,36.6118,济南市,科干所,细颗粒物(PM2.5),168,166,145,127,111,16,,,,50,29,10,8,1.1,1
2026-02-02T0100,1300A,116.9379,36.6652,济南市,农科所,细颗粒物(PM2.5),225,198,156,175,138,13,,,,51,39,4,7,1.3,1.1
2026-02-02T0100,1301A,117.1265,36.6736,济南市,开发区,细颗粒物(PM2.5),203,173,144,153,128,14,,,,63,39,4,4,1.3,1.2
2026-02-02T0100,1303A,117.0616,36.6865,济南市,省种子仓库,细颗粒物(PM2.5),208,188,161,158,131,10,,,,60,42,6,7,1.1,1.1
2026-02-02T0100,1304A,116.9495185,36.644937,济南市,机床二厂,细颗粒物(PM2.5),208,178,151,158,134,15,,,,55,38,7,9,1.0,0.8
2026-02-02T0100,1305A,117.0496,36.6629,济南市,市监测站,细颗粒物(PM2.5),213,181,148,163,130,33,,,,35,34,5,5,1.2,1.1
2026-02-02T0100,1306A,116.7674,36.5458,济南市,长清党校,细颗粒物(PM2.5),188,178,153,141,125,2,,,,84,44,9,4,1.4,1.1
2026-02-02T0100,1961A,117.5323,36.6865,济南市,东山小学,细颗粒物(PM2.5),199,188,154,149,120,6,,,,65,37,3,4,1.0,0.8
2026-02-02T0100,3059A,117.7181,36.205,济南市,泰兴公司,细颗粒物(PM2.5),193,190,168,145,131,8,,,,62,47,7,6,1.5,1.4
2026-02-02T0100,3064A,117.6861,36.2172,济南市,莱芜战役纪念馆,细颗粒物(PM2.5),200,195,163,150,129,3,,,,68,43,9,9,1.5,1.3
2026-02-02T0100,3494A,117.1673,36.9782,济南市,济阳区政府,细颗粒物(PM2.5),260,237,183,210,160,27,,,,36,40,6,5,1.4,1.2
2026-02-02T0100,3495A,117.1168,36.6299,济南市,锦屏中学,细颗粒物(PM2.5),186,164,130,140,115,31,,,,32,26,2,4,0.9,0.8
2026-02-02T0100,4108A,117.7107,36.2385,济南市,山财大街5号,细颗粒物(PM2.5),198,193,150,148,121,7,,,,77,54,8,8,1.5,1.5
2026-02-02T0100,4109A,116.9744,36.6889,济南市,无影山路12号,细颗粒物(PM2.5),223,202,159,173,134,13,,,,48,35,9,8,1.5,1.3
2026-02-02T0100,1653A,116.6229,35.4288,济宁市,火炬城,细颗粒物(PM2.5),182,173,123,137,102,17,,,,58,29,3,3,1.3,0.9
2026-02-02T0100,3500A,116.5808,35.3703,济宁市,北湖一中,细颗粒物(PM2.5),186,174,118,140,97,12,,,,67,35,5,5,1.2,0.9
2026-02-02T0100,3501A,116.8251,35.5592,济宁市,服务中心,细颗粒物(PM2.5),232,237,167,182,123,1,,,,71,39,12,5,1.4,0.9
2026-02-02T0100,3678A,116.5907,35.4054,济宁市,市第七中学,细颗粒物(PM2.5),204,197,122,154,106,10,,,,63,31,9,9,1.5,0.9
2026-02-02T0100,4111A,116.6075,35.4566,济宁市,任和路,细颗粒物(PM2.5),185,216,146,139,100,10,,,,65,34,6,5,1.2,0.8
2026-02-02T0100,4112A,116.5648,35.3921,济宁市,文体南路1号,细颗粒物(PM2.5),223,246,156,173,109,11,,,,74,40,5,5,1.4,0.9
2026-02-02T0100,2255A,130.2749,46.8028,佳木斯市,佳纺,,38,34,53,26,43,56,,,,15,18,7,9,0.5,0.5
2026-02-02T0100,2257A,130.3258,46.7975,佳木斯市,环保局,,32,31,41,22,38,63,,,,13,17,8,8,0.2,0.3
2026-02-02T0100,4285A,130.363,46.806,佳木斯市,顺和街,,35,34,41,24,38,57,,,,16,20,10,11,0.4,0.5
2026-02-02T0100,4286A,130.3952,46.8268,佳木斯市,长安路196号,,29,29,39,19,35,63,,,,14,16,6,6,0.6,0.6
2026-02-02T0100,1252A,120.7439,30.778,嘉兴市,清河小学,细颗粒物(PM2.5),92,98,78,68,51,17,,,,53,39,6,6,0.7,0.5
2026-02-02T0100,1253A,120.7261,30.7477,嘉兴市,嘉兴学院,细颗粒物(PM2.5),87,95,77,64,52,9,,,,60,39,5,5,0.9,0.7
2026-02-02T0100,2872A,120.7845,30.7524,嘉兴市,南湖区残联,细颗粒物(PM2.5),92,79,68,68,58,31,,,,45,37,4,4,0.6,0.5
2026-02-02T0100,3407A,120.6915,30.7741,嘉兴市,秀洲住建,细颗粒物(PM2.5),77,85,74,56,48,1,,,,63,41,6,6,0.6,0.6
2026-02-02T0100,1945A,98.291,39.7705,嘉峪关市,气象局,颗粒物(PM10),70,90,108,36,38,6,,,,60,26,4,8,0.4,0.5
2026-02-02T0100,2884A,98.2672,39.7978,嘉峪关市,酒钢宾馆,颗粒物(PM10),73,95,116,32,36,39,,,,34,19,12,14,0.7,0.5
2026-02-02T0100,3248A,98.2644,39.7723,嘉峪关市,雄关区,颗粒物(PM10),65,80,86,33,34,8,,,,59,31,14,14,0.4,0.4
2026-02-02T0100,1383A,113.1063,22.6058,江门市,北街,,45,45,33,25,21,15,,,,78,40,/,/,/,/
2026-02-02T0100,1384A,113.073,22.5835,江门市,西区,颗粒物(PM10),60,70,42,25,22,29,,,,53,35,/,/,/,/
2026-02-02T0100,1385A,113.0218,22.531,江门市,圭峰西,,39,39,30,23,21,32,,,,49,25,/,/,/,/
2026-02-02T0100,1386A,113.0826,22.5947,江门市,东湖,,36,36,32,24,21,23,,,,57,31,8,8,0.8,0.7
2026-02-02T0100,3311A,113.1077,22.5647,江门市,江海富民,颗粒物(PM10),61,71,38,27,23,16,,,,79,39,/,/,0.8,0.8
2026-02-02T0100,3449A,113.0496,22.4669,江门市,新会银湖,细颗粒物(PM2.5),54,50,32,38,25,4,,,,53,25,7,7,0.9,0.8
2026-02-02T0100,3335A,113.3137,35.2643,焦作市,马村街道办,颗粒物(PM10),64,77,121,43,76,43,,,,27,24,6,5,0.7,1
2026-02-02T0100,3336A,113.2464,35.2374,焦作市,焦作技师学院,颗粒物(PM10),64,78,116,43,71,39,,,,30,24,7,9,0.8,1.2
2026-02-02T0100,3477A,113.1656,35.2536,焦作市,中站许衡医院,颗粒物(PM10),54,57,98,36,56,52,,,,25,23,12,9,0.7,0.9
2026-02-02T0100,3981A,113.2456,35.18,焦作市,原李万街道办,细颗粒物(PM2.5),65,78,106,47,65,33,,,,31,22,5,5,0.6,0.7
2026-02-02T0100,4264A,113.234,35.219,焦作市,新安路1731号,,,73,119,43,69,40,,,,29,20,,10,0.9,1
2026-02-02T0100,4295A,113.2722,35.2121,焦作市,人民路3066号,颗粒物(PM10),63,75,115,42,75,47,,,,24,23,8,6,0.7,1
2026-02-02T0100,1708A,116.3701,23.5345,揭阳市,新兴,,28,28,30,17,19,30,,,,22,21,8,8,0.8,0.8
2026-02-02T0100,1709A,116.3261,23.5442,揭阳市,西马,,35,35,28,15,18,37,,,,13,17,4,5,0.7,0.7
2026-02-02T0100,1710A,116.361,23.5627,揭阳市,东兴,,34,34,30,20,21,28,,,,23,22,8,9,/,/
2026-02-02T0100,1711A,116.4151,23.5295,揭阳市,渔湖,,35,35,28,18,21,27,,,,25,22,6,5,/,/
2026-02-02T0100,3320A,116.4028,23.5699,揭阳市,曲溪,,27,27,32,18,20,26,,,,27,21,6,7,0.8,0.8
2026-02-02T0100,1944A,102.1691,38.5166,金昌市,天庆家园,颗粒物(PM10),56,61,140,14,50,68,,,,13,13,5,18,0.7,0.9
2026-02-02T0100,4022A,102.1648,38.5369,金昌市,金川区人防中心,颗粒物(PM10),66,81,142,23,49,77,,,,9,13,8,15,0.4,0.7
2026-02-02T0100,4239A,102.193042,38.531887,金昌市,长春路96号,二氧化硫(SO2),64,62,121,23,37,69,,,,14,11,246,22,0.7,0.7
2026-02-02T0100,1262A,119.6478,29.0773,金华市,十五中,,35,35,41,23,31,23,,,,50,37,3,3,0.4,0.4
2026-02-02T0100,1263A,119.6859,29.1032,金华市,监测站,,37,37,41,22,32,10,,,,48,38,2,2,0.3,0.3
2026-02-02T0100,3659A,119.656,29.1132,金华市,气象局,,38,38,43,25,31,4,,,,58,40,3,3,0.5,0.5
2026-02-02T0100,1767A,121.1114,41.0879,锦州市,南山,,25,14,56,11,44,78,,,,7,24,18,14,0.6,1
2026-02-02T0100,1768A,121.060361,40.842794,锦州市,开发区,,37,37,90,13,59,67,,,,15,48,13,33,0.8,0.9
2026-02-02T0100,1769A,121.1836,41.1118,锦州市,百股街道,,25,22,63,11,51,78,,,,7,29,7,12,0.5,0.9
2026-02-02T0100,1770A,121.1176,41.1224,锦州市,天安街道,,29,21,57,8,43,90,,,,6,22,34,11,0.5,0.9
2026-02-02T0100,1771A,121.1303,41.1385,锦州市,北湖公园,,29,29,54,11,36,78,,,,4,19,17,13,0.5,0.8
2026-02-02T0100,2160A,112.8496,35.5051,晋城市,自来水公司,,45,45,94,11,42,59,,,,17,17,6,5,0.6,0.9
2026-02-02T0100,2162A,112.8509,35.4886,晋城市,市环保局,,39,36,95,27,50,57,,,,19,18,4,4,0.3,0.7
2026-02-02T0100,3620A,112.8258,35.4804,晋城市,泽州一中,,44,44,95,22,44,69,,,,9,13,4,4,0.5,0.5
2026-02-02T0100,4078A,112.8246,35.5152,晋城市,前书院路,,42,42,96,23,41,57,,,,17,15,5,5,0.4,0.7
2026-02-02T0100,4079A,112.8864,35.4773,晋城市,祥云街666号,,50,40,95,35,60,60,,,,16,17,5,6,0.3,0.6
2026-02-02T0100,2174A,112.6992,37.6984,晋中市,榆次区政府,颗粒物(PM10),59,68,106,33,57,3,,,,56,41,11,15,0.6,0.8
2026-02-02T0100,2865A,112.7195,37.683,晋中市,榆次三中,颗粒物(PM10),56,61,102,19,53,8,,,,52,37,12,15,0.4,0.9
2026-02-02T0100,4080A,112.7375,37.7215,晋中市,广安街188号,颗粒物(PM10),77,104,116,24,56,0,,,,65,44,14,13,0.6,0.8
2026-02-02T0100,4200A,112.7478,37.6954,晋中市,迎宾街26号,颗粒物(PM10),53,56,102,23,58,24,,,,35,37,11,15,0.5,0.9
2026-02-02T0100,2439A,112.2012,31.048,荆门市,竹园小学,细颗粒物(PM2.5),115,96,92,87,71,72,,,,20,29,1,1,0.5,0.6
2026-02-02T0100,2440A,112.1968,30.9892,荆门市,掇刀,细颗粒物(PM2.5),120,120,95,91,77,54,,,,26,24,5,4,0.6,0.6
2026-02-02T0100,3012A,112.1849,31.0361,荆门市,西山林语,细颗粒物(PM2.5),94,97,87,70,64,72,,,,18,24,2,2,0.9,0.9
2026-02-02T0100,3547A,112.1631,31.0134,荆门市,龙泉中学南校,细颗粒物(PM2.5),114,110,96,86,68,64,,,,18,20,4,3,0.2,0.3
2026-02-02T0100,4124A,112.2213,31.0654,荆门市,新台西路6号,细颗粒物(PM2.5),118,93,100,89,77,76,,,,19,32,7,8,0.9,1.1
2026-02-02T0100,1844A,112.2493,30.3198,荆州市,市图书馆,,,78,52,68,53,,,,,25,21,7,6,0.9,0.8
2026-02-02T0100,1845A,112.2009,30.3543,荆州市,市委党校,细颗粒物(PM2.5),104,84,61,78,58,,,,,38,27,7,6,1.0,0.9
2026-02-02T0100,3194A,112.2749,30.3124,荆州市,管委会,细颗粒物(PM2.5),105,87,56,79,57,,,,,34,24,6,6,0.8,0.7
2026-02-02T0100,4268A,112.1722,30.3366,荆州市,学苑路85号,,,76,64,72,55,,,,,26,18,9,8,0.7,0.7
2026-02-02T0100,2343A,117.2114,29.2931,景德镇市,老干部活动中心,,33,28,21,23,13,34,,,,12,12,4,5,0.5,0.5
2026-02-02T0100,2344A,117.1893,29.2789,景德镇市,兽医站,,39,38,26,27,12,37,,,,17,16,4,4,0.5,0.5
2026-02-02T0100,2346A,117.246,29.2958,景德镇市,陶研所,,43,30,13,30,14,16,,,,22,15,4,3,0.8,0.6
2026-02-02T0100,4289A,117.154766,29.256967,景德镇市,青少年活动中心,,39,33,18,27,14,25,,,,15,13,4,5,/,/
2026-02-02T0100,1803A,115.9873,29.6816,九江市,十里,细颗粒物(PM2.5),59,65,41,42,33,8,,,,58,30,5,4,1.3,0.9
2026-02-02T0100,1804A,115.9583,29.7047,九江市,茅山头,细颗粒物(PM2.5),64,64,43,46,30,6,,,,52,27,4,4,0.8,0.6
2026-02-02T0100,1805A,115.9877,29.7295,九江市,西园,细颗粒物(PM2.5),74,63,43,54,38,17,,,,56,30,4,4,1.0,0.7
2026-02-02T0100,1808A,115.9112,29.6038,九江市,综合工业园,,35,32,43,24,34,50,,,,20,32,2,2,0.5,1.3
2026-02-02T0100,3190A,116.0254,29.6995,九江市,外国语学校,细颗粒物(PM2.5),64,69,38,46,33,4,,,,62,32,5,5,0.9,0.6
2026-02-02T0100,4253A,116.010205,29.659402,九江市,莲花大道8号,,39,39,43,24,30,42,,,,8,16,3,3,0.6,0.6
2026-02-02T0100,4240A,98.495752,39.733935,酒泉市,玉门东路5号,细颗粒物(PM2.5),82,110,111,60,54,19,,,,31,19,10,11,0.8,0.6
2026-02-02T0100,4241A,98.5099,39.7506,酒泉市,北大街108号,细颗粒物(PM2.5),93,124,115,69,55,13,,,,39,20,9,11,1.0,0.8
2026-02-02T0100,2698A,76.0071,39.466,喀什地区,巡警大队,细颗粒物(PM2.5),218,310,238,168,98,2,,,,80,38,12,7,3.8,1.6
2026-02-02T0100,2699A,75.9756,39.4693,喀什地区,吾办,细颗粒物(PM2.5),204,288,225,154,98,4,,,,93,44,11,9,3.0,1.5
2026-02-02T0100,4027A,75.9485,39.4688,喀什地区,老干局,颗粒物(PM10),147,243,251,103,92,15,,,,62,36,7,5,2.1,1.8
2026-02-02T0100,1824A,114.3389,34.778,开封市,肿瘤医院,细颗粒物(PM2.5),102,138,121,76,80,23,,,,57,40,10,10,1.1,1.1
2026-02-02T0100,1826A,114.2884,34.7966,开封市,世纪星幼儿园,细颗粒物(PM2.5),90,118,112,67,83,37,,,,42,41,6,5,0.8,0.9
2026-02-02T0100,3147A,114.3434,34.8101,开封市,龙亭公园,细颗粒物(PM2.5),82,106,123,60,78,40,,,,46,43,8,8,0.9,1.1
2026-02-02T0100,3210A,114.3645,34.7955,开封市,汴京公园,细颗粒物(PM2.5),92,125,124,68,75,28,,,,51,42,4,5,0.7,0.8
2026-02-02T0100,3473A,114.2485,34.8306,开封市,技师学院,细颗粒物(PM2.5),75,77,104,55,78,43,,,,38,34,8,8,0.8,1
2026-02-02T0100,3592A,114.4518,34.7503,开封市,祥符区生态环境局,颗粒物(PM10),100,150,133,74,74,22,,,,57,41,8,8,1.2,1.2
2026-02-02T0100,1951A,84.886,45.6029,克拉玛依市,长征新村,细颗粒物(PM2.5),138,143,112,105,76,30,,,,46,42,5,5,1.3,1.1
2026-02-02T0100,1952A,84.8894,45.5827,克拉玛依市,南林小区,细颗粒物(PM2.5),134,131,117,102,86,32,,,,32,26,2,2,1.3,1.1
2026-02-02T0100,1954A,84.896,44.3328,克拉玛依市,独山子区,细颗粒物(PM2.5),98,107,119,73,77,44,,,,33,35,2,3,1.0,0.9
2026-02-02T0100,1955A,85.6888,46.0909,克拉玛依市,乌尔禾区商贸楼,细颗粒物(PM2.5),122,119,105,92,80,30,,,,37,36,7,7,1.1,1.3
2026-02-02T0100,3612A,85.1045,45.6895,克拉玛依市,白碱滩区新站,细颗粒物(PM2.5),160,151,123,122,94,30,,,,38,35,8,9,1.2,1.1
2026-02-02T0100,2697A,76.1457,39.7143,克孜勒苏柯尔克孜自治州,市人民政府,颗粒物(PM10),125,200,229,68,72,48,,,,21,14,4,4,0.5,0.4
2026-02-02T0100,3665A,76.1654,39.7157,克孜勒苏柯尔克孜自治州,克州文化中心,颗粒物(PM10),115,180,229,65,68,57,,,,14,17,4,4,0.6,0.8
2026-02-02T0100,1450A,102.8203,24.889,昆明市,呈贡新区,,30,27,35,21,21,45,,,,30,21,3,4,0.5,0.3
2026-02-02T0100,1452A,102.7253,25.0904,昆明市,龙泉镇,颗粒物(PM10),70,89,41,35,22,0,,,,66,30,3,3,0.5,0.4
2026-02-02T0100,1453A,102.7267,25.0378,昆明市,东风东路,,38,38,38,26,21,52,,,,21,23,6,6,0.3,0.3
2026-02-02T0100,1454A,102.6744,25.0671,昆明市,金鼎山,颗粒物(PM10),57,63,47,28,14,24,,,,45,20,3,4,0.6,0.6
2026-02-02T0100,1455A,102.6643,25.0401,昆明市,碧鸡广场,颗粒物(PM10),57,64,42,35,23,22,,,,47,33,3,4,0.5,0.4
2026-02-02T0100,3179A,102.7491,25.012,昆明市,官渡区博物馆,,45,45,44,16,24,44,,,,28,26,3,3,0.7,0.8
2026-02-02T0100,3375A,102.8016,24.8336,昆明市,青年创业园,,35,35,30,18,18,15,,,,54,26,7,7,0.6,0.5
2026-02-02T0100,3550A,102.8,24.9787,昆明市,昆明学院,,35,35,31,19,21,60,,,,23,21,4,4,0.6,0.7
2026-02-02T0100,3551A,102.5969,24.6738,昆明市,晋宁区生态环境分局,,38,37,31,26,23,68,,,,11,16,1,2,0.4,0.4
2026-02-02T0100,3552A,102.6673,24.9861,昆明市,云天化总部,,42,42,37,28,18,40,,,,25,24,6,6,0.4,0.4
2026-02-02T0100,1456A,91.132,29.6515,拉萨市,八廓街,,33,31,24,23,15,22,,,,44,23,8,8,0.9,0.7
2026-02-02T0100,1457A,91.1221,29.6748,拉萨市,市环保局,细颗粒物(PM2.5),78,72,43,57,25,9,,,,58,33,12,10,2.7,1.3
2026-02-02T0100,1458A,91.0874,29.6476,拉萨市,区监测站,,30,24,19,10,9,21,,,,60,31,6,5,1.5,1.1
2026-02-02T0100,1459A,91.1774,29.6541,拉萨市,西藏大学,,43,43,18,30,11,20,,,,62,20,8,5,1.7,0.8
2026-02-02T0100,1460A,90.9798,29.6586,拉萨市,区辐射站,颗粒物(PM10),51,51,35,28,23,25,,,,41,31,4,5,1.0,0.9
2026-02-02T0100,1461A,91.0831,29.6292,拉萨市,拉萨火车站,,26,21,15,18,10,49,,,,28,21,5,4,0.7,0.5
2026-02-02T0100,2520A,109.2203,23.7252,来宾市,来宾技工学校,颗粒物(PM10),60,69,40,36,27,36,,,,14,12,12,12,0.8,0.8
2026-02-02T0100,3535A,109.1781,23.7293,来宾市,兴宾区政府,颗粒物(PM10),52,53,37,33,25,44,,,,7,7,7,7,0.8,0.8
2026-02-02T0100,4002A,109.2312,23.7428,来宾市,中南小学,"颗粒物(PM10),细颗粒物(PM2.5)",54,58,39,38,30,35,,,,15,13,7,7,1.0,1
2026-02-02T0100,1479A,103.8309,36.0467,兰州市,铁路设计院,,,,,,,,,,,,,,,,
2026-02-02T0100,3241A,103.7439,36.0841,兰州市,百合公园,颗粒物(PM10),79,108,127,56,67,20,,,,49,48,9,12,1.1,1.2
2026-02-02T0100,3242A,103.9613,35.9985,兰州市,和平,颗粒物(PM10),67,84,121,40,53,50,,,,27,27,8,12,0.8,1.1
2026-02-02T0100,4236A,103.629272,36.093822,兰州市,庄浪东路808号,颗粒物(PM10),74,97,133,47,63,50,,,,33,47,9,14,0.6,0.9
2026-02-02T0100,4237A,103.7251,36.104344,兰州市,安宁西路88号,颗粒物(PM10),91,131,150,55,65,46,,,,34,43,8,12,0.5,0.8
2026-02-02T0100,4238A,103.846982,36.067567,兰州市,北滨河东路1号,颗粒物(PM10),94,137,135,53,63,4,,,,81,54,8,10,1.0,1.2
2026-02-02T0100,1067A,116.6712,39.5109,廊坊市,药材公司,,19,16,97,3,74,58,,,,19,30,3,2,0.3,0.7
2026-02-02T0100,1068A,116.7215,39.5592,廊坊市,开发区,,16,,86,3,59,49,,,,26,33,3,2,0.2,0.6
2026-02-02T0100,1070A,116.7246,39.5273,廊坊市,北华航天学院,,25,25,97,3,65,45,,,,34,31,3,3,0.4,0.7
2026-02-02T0100,2919A,116.7022,39.5454,廊坊市,河北工业大学,,18,12,98,3,62,55,,,,19,26,3,3,0.2,0.6
2026-02-02T0100,2536A,103.7629,29.5844,乐山市,牛耳桥,细颗粒物(PM2.5),99,118,97,74,63,15,,,,45,30,5,5,1.1,1
2026-02-02T0100,2537A,103.7501,29.6002,乐山市,市第三水厂,细颗粒物(PM2.5),103,119,105,77,67,6,,,,56,34,6,6,1.2,1.1
2026-02-02T0100,2538A,103.7571,29.5664,乐山市,市监测站,细颗粒物(PM2.5),100,125,98,75,61,27,,,,36,23,7,7,1.0,0.8
2026-02-02T0100,3361A,103.7313,29.563,乐山市,理工大学,细颗粒物(PM2.5),99,130,97,74,59,19,,,,41,23,2,2,1.0,0.9
2026-02-02T0100,2599A,100.2497,26.8802,丽江市,丽江古城,,29,29,26,16,16,78,,,,8,10,9,10,0.5,0.5
2026-02-02T0100,2600A,100.2203,26.8906,丽江市,市中心,,25,14,18,8,12,77,,,,8,10,6,6,0.4,0.4
2026-02-02T0100,1267A,119.9141,28.4513,丽水市,监测站大楼,,39,30,22,27,24,34,,,,22,19,4,4,0.5,0.5
2026-02-02T0100,1268A,119.93,28.4589,丽水市,莲都小学,,36,36,29,24,21,37,,,,24,21,/,/,/,/
2026-02-02T0100,1269A,119.8794,28.4232,丽水市,余庄前,,42,36,28,29,21,11,,,,23,19,4,4,0.3,0.3
2026-02-02T0100,1173A,119.1759,34.5885,连云港市,市环境监测站,细颗粒物(PM2.5),85,66,97,63,83,59,,,,16,28,8,10,0.5,0.6
2026-02-02T0100,3000A,119.3577,34.6971,连云港市,德源药业,细颗粒物(PM2.5),73,75,115,53,84,36,,,,36,33,5,6,1.0,1.1
2026-02-02T0100,3007A,119.178,34.8442,连云港市,新城一中,细颗粒物(PM2.5),108,110,134,81,109,36,,,,41,46,8,9,1.0,1.1
2026-02-02T0100,3008A,119.3607,34.7519,连云港市,胡沟管理处,细颗粒物(PM2.5),85,78,107,63,84,33,,,,42,39,6,7,0.8,1
2026-02-02T0100,3009A,119.1478,34.5913,连云港市,矿山设计院,细颗粒物(PM2.5),77,83,104,56,77,60,,,,18,30,7,9,0.8,0.9
2026-02-02T0100,3434A,119.2414,34.6539,连云港市,工贸学校,细颗粒物(PM2.5),80,75,106,59,86,60,,,,19,25,9,11,0.5,0.6
2026-02-02T0100,3664A,119.4171,34.734,连云港市,连云街道,细颗粒物(PM2.5),93,86,102,69,81,83,,,,16,21,3,6,0.8,0.8
2026-02-02T0100,2573A,102.2629,27.8981,凉山彝族自治州,西昌市政府,,29,29,31,18,24,67,,,,6,13,5,8,0.7,0.7
2026-02-02T0100,2574A,102.2686,27.885,凉山彝族自治州,凉山州政府,,28,28,37,17,24,56,,,,8,16,6,8,0.8,0.8
2026-02-02T0100,4229A,102.2342,27.8859,凉山彝族自治州,凯乐南路30号,,34,34,41,17,22,54,,,,14,19,10,10,0.8,0.8
2026-02-02T0100,2212A,123.1978,41.2036,辽阳市,宏伟区,颗粒物(PM10),55,59,87,22,66,52,,,,12,30,7,14,0.6,1.3
2026-02-02T0100,2213A,123.1684,41.2497,辽阳市,新华园,颗粒物(PM10),56,61,89,21,72,52,,,,20,47,7,19,0.4,1.3
2026-02-02T0100,2214A,123.2355,41.2663,辽阳市,滨河路,颗粒物(PM10),54,58,82,13,59,64,,,,8,39,6,17,0.4,1.2
2026-02-02T0100,4083A,123.153,41.2874,辽阳市,铁西路150号,颗粒物(PM10),58,65,98,20,78,46,,,,19,46,10,23,0.7,1.8
2026-02-02T0100,2227A,125.1359,42.8845,辽源市,环保局,细颗粒物(PM2.5),95,94,79,71,62,11,,,,64,45,3,6,1.4,1.3
2026-02-02T0100,4085A,125.0998,42.9134,辽源市,安宁大街333号,细颗粒物(PM2.5),119,92,82,90,65,10,,,,44,34,3,7,1.2,1.1
2026-02-02T0100,1625A,115.9789,36.4372,聊城市,区政府,细颗粒物(PM2.5),208,188,157,158,132,6,,,,72,45,11,10,1.4,1.4
2026-02-02T0100,3200A,115.9772,36.4986,聊城市,监控中心,细颗粒物(PM2.5),216,202,158,166,136,8,,,,81,50,10,8,1.5,1.4
2026-02-02T0100,3513A,116.0443,36.436,聊城市,九州社区,细颗粒物(PM2.5),221,205,158,171,135,18,,,,64,31,8,3,1.4,1.1
2026-02-02T0100,4018A,116.0564,36.4609,聊城市,星美广场,细颗粒物(PM2.5),233,203,167,183,145,16,,,,57,34,3,3,1.4,1.3
2026-02-02T0100,4113A,116.0091,36.4495,聊城市,利民路,细颗粒物(PM2.5),213,208,171,163,130,7,,,,73,44,9,8,1.4,1.3
2026-02-02T0100,2632A,94.3683,29.6373,林芝市,林芝监测站,,26,,19,14,12,82,,,,1,2,5,5,0.4,0.4
2026-02-02T0100,2633A,94.3616,29.6634,林芝市,林芝人民医院,,26,14,19,3,10,81,,,,1,2,4,4,0.2,0.3
2026-02-02T0100,2603A,100.0779,23.8981,临沧市,市环保局,,38,38,33,17,20,44,,,,15,13,8,8,0.6,0.5
2026-02-02T0100,2604A,100.0894,23.882,临沧市,市气象局,,41,41,48,23,23,39,,,,11,11,9,9,0.6,0.5
2026-02-02T0100,1733A,111.5552,36.0791,临汾市,临钢医院,颗粒物(PM10),81,111,151,56,95,14,,,,48,37,10,6,1.1,1.5
2026-02-02T0100,1734A,111.4984,36.0734,临汾市,技工学校,细颗粒物(PM2.5),89,98,141,66,109,9,,,,50,38,21,8,1.6,1.9
2026-02-02T0100,1736A,111.5017,36.0857,临汾市,市委,颗粒物(PM10),90,130,157,64,99,9,,,,62,38,16,9,1.0,1.3
2026-02-02T0100,3018A,111.5048,36.1015,临汾市,唐尧大酒店,细颗粒物(PM2.5),110,155,142,83,89,4,,,,60,37,5,3,1.7,1.7
2026-02-02T0100,4244A,111.4879,36.053,临汾市,启星学校,细颗粒物(PM2.5),84,90,138,62,92,5,,,,70,47,10,7,0.9,1.3
2026-02-02T0100,4271A,103.2464,35.6123,临夏回族自治州,滨河东路1号,细颗粒物(PM2.5),155,231,183,118,96,20,,,,33,29,4,6,1.6,1.4
2026-02-02T0100,4310A,103.207136,35.599807,临夏回族自治州,新华街21号,细颗粒物(PM2.5),178,196,174,134,99,28,,,,30,26,6,6,2.0,1.3
2026-02-02T0100,1618A,118.3429,35.0532,临沂市,沂河小区,细颗粒物(PM2.5),170,178,150,129,113,16,,,,61,42,14,13,1.4,1.1
2026-02-02T0100,1619A,118.2962,35.0568,临沂市,鲁南制药厂,细颗粒物(PM2.5),200,190,162,150,130,2,,,,87,54,18,16,1.4,1.1
2026-02-02T0100,1620A,118.2793,34.9976,临沂市,新光毛纺厂,细颗粒物(PM2.5),193,168,142,145,120,2,,,,80,50,13,14,1.3,1
2026-02-02T0100,1621A,118.3955,35.0889,临沂市,河东保险公司,细颗粒物(PM2.5),173,151,138,131,120,36,,,,43,41,8,10,1.1,1
2026-02-02T0100,3370A,118.3563,35.0215,临沂市,十里堡居委,细颗粒物(PM2.5),182,175,146,137,116,6,,,,76,51,19,17,1.4,1.1
2026-02-02T0100,3496A,118.359,35.1067,临沂市,南坊新区,细颗粒物(PM2.5),156,161,136,119,113,37,,,,48,45,9,9,1.2,1.1
2026-02-02T0100,3860A,118.3915,35.0297,临沂市,皇山花园小区,细颗粒物(PM2.5),195,163,141,146,126,12,,,,69,49,18,15,1.4,1.1
2026-02-02T0100,1870A,109.4854,24.3898,柳州市,柳东小学,细颗粒物(PM2.5),55,53,34,39,26,36,,,,13,8,11,9,0.8,0.8
2026-02-02T0100,1871A,109.4109,24.3304,柳州市,环保监测站,,43,31,33,30,24,42,,,,13,15,4,5,0.8,0.9
2026-02-02T0100,1872A,109.3886,24.3408,柳州市,河西水厂,,42,42,36,29,24,42,,,,14,12,7,7,0.8,0.8
2026-02-02T0100,1873A,109.4263,24.2951,柳州市,市四中,,40,34,31,28,22,41,,,,10,13,6,7,0.9,0.9
2026-02-02T0100,1874A,109.396,24.3658,柳州市,市九中,,42,37,34,29,25,41,,,,12,14,8,10,0.8,1
2026-02-02T0100,1875A,109.4912,24.3164,柳州市,古亭山,细颗粒物(PM2.5),58,41,32,41,29,47,,,,13,10,10,7,0.5,0.5
2026-02-02T0100,3402A,109.5422,24.3994,柳州市,市二中,细颗粒物(PM2.5),52,45,31,36,27,50,,,,15,13,12,10,0.7,0.7
2026-02-02T0100,2307A,116.5078,31.7369,六安市,监测大楼,,25,25,33,17,23,43,,,,21,18,2,2,0.4,0.3
2026-02-02T0100,2308A,116.4738,31.7642,六安市,皖西学院,,41,41,42,22,26,30,,,,28,18,4,4,0.4,0.4
2026-02-02T0100,2309A,116.4997,31.7904,六安市,朝阳厂,,23,17,38,16,28,51,,,,19,16,7,5,0.4,0.4
2026-02-02T0100,2310A,116.5566,31.7885,六安市,开发区,,42,42,35,27,38,36,,,,34,24,4,4,0.6,0.5
2026-02-02T0100,2577A,104.8293,26.592,六盘水市,黄土坡,,14,12,11,7,9,42,,,,12,17,5,8,0.9,1
2026-02-02T0100,2579A,104.8481,26.5898,六盘水市,民中,,16,14,17,11,9,41,,,,12,16,3,4,0.9,0.9
2026-02-02T0100,2580A,104.9541,26.5506,六盘水市,双水,,15,12,11,8,6,45,,,,11,12,3,4,0.9,0.9
2026-02-02T0100,4151A,104.8899,26.5685,六盘水市,钟山大道中段564号,,15,10,16,10,10,36,,,,12,14,6,8,1.1,1.2
2026-02-02T0100,2336A,117.022,25.1031,龙岩市,龙岩市监测站,,26,18,19,18,17,29,,,,18,15,8,10,0.7,0.7
2026-02-02T0100,2337A,117.0257,25.0662,龙岩市,闽西职业技术学院,,23,17,19,16,14,33,,,,14,12,7,7,0.7,0.7
2026-02-02T0100,2338A,117.0195,25.0306,龙岩市,龙岩学院,,28,,20,19,15,32,,,,13,12,7,7,/,/
2026-02-02T0100,2885A,104.9344,33.3827,陇南市,滨江中学,"颗粒物(PM10),细颗粒物(PM2.5)",88,125,116,65,59,23,,,,34,25,7,7,1.6,1.2
2026-02-02T0100,3247A,104.9551,33.3709,陇南市,市总工会,颗粒物(PM10),77,103,109,50,52,39,,,,19,20,2,3,1.0,1
2026-02-02T0100,2488A,111.9984,27.7346,娄底市,市监测站,细颗粒物(PM2.5),57,46,49,40,42,45,,,,27,17,6,8,0.8,1
2026-02-02T0100,2491A,111.9888,27.7035,娄底市,市政府,,42,42,44,27,33,37,,,,22,21,3,3,0.3,0.4
2026-02-02T0100,4127A,111.9812,27.7591,娄底市,涟钢职大,细颗粒物(PM2.5),53,44,47,37,34,56,,,,16,14,5,4,0.5,0.8
2026-02-02T0100,4128A,112.0303,27.7457,娄底市,娄底体校,细颗粒物(PM2.5),52,41,42,36,38,39,,,,13,12,2,2,0.4,0.4
2026-02-02T0100,1894A,105.4427,28.9063,泸州市,小市上码头,细颗粒物(PM2.5),83,84,62,61,43,1,,,,63,14,5,5,1.4,1.1
2026-02-02T0100,1895A,105.4241,28.8573,泸州市,兰田宪桥,细颗粒物(PM2.5),74,86,62,54,38,9,,,,37,20,7,7,1.0,0.8
2026-02-02T0100,1896A,105.4378,28.8833,泸州市,市环监站,细颗粒物(PM2.5),95,94,70,71,52,21,,,,39,22,9,9,0.9,0.7
2026-02-02T0100,4272A,105.3689,28.7783,泸州市,纳溪中医医院,细颗粒物(PM2.5),98,99,82,73,55,6,,,,30,22,8,8,1.1,1
2026-02-02T0100,2183A,111.1447,37.5212,吕梁市,环保局,颗粒物(PM10),78,106,107,25,48,0,,,,54,44,4,5,0.5,0.6
2026-02-02T0100,2185A,111.1285,37.5338,吕梁市,自来水公司,颗粒物(PM10),72,94,111,34,55,1,,,,47,38,12,6,0.6,0.7
2026-02-02T0100,2867A,111.1225,37.5093,吕梁市,马茂庄小学,颗粒物(PM10),86,121,115,33,47,2,,,,54,46,5,6,0.5,0.6
2026-02-02T0100,1812A,112.3934,34.6517,洛阳市,市委党校,颗粒物(PM10),67,84,106,45,75,69,,,,22,23,9,9,0.8,1
2026-02-02T0100,1815A,112.494,34.6883,洛阳市,河南林校,细颗粒物(PM2.5),79,99,113,58,80,55,,,,32,29,9,10,0.8,1
2026-02-02T0100,1816A,112.3843,34.623,洛阳市,开发区管委会,颗粒物(PM10),73,96,120,50,82,74,,,,16,21,10,9,0.7,0.9
2026-02-02T0100,1817A,112.4263,34.6249,洛阳市,市委新办公区,颗粒物(PM10),74,98,120,50,84,69,,,,24,26,9,9,0.5,0.7
2026-02-02T0100,3340A,112.6005,34.6323,洛阳市,伊滨,颗粒物(PM10),81,112,119,50,72,59,,,,28,26,7,8,0.6,0.7
2026-02-02T0100,3341A,112.495,34.6338,洛阳市,中移产业园,细颗粒物(PM2.5),77,89,108,56,80,45,,,,36,25,9,8,0.8,0.9
2026-02-02T0100,3593A,112.5736,34.8993,洛阳市,吉利监测站,颗粒物(PM10),53,55,92,31,64,42,,,,31,30,7,8,0.7,0.8
2026-02-02T0100,3635A,112.3678,34.6623,洛阳市,河科大西苑校区,颗粒物(PM10),75,99,115,52,72,64,,,,29,26,9,9,0.7,0.9
2026-02-02T0100,3636A,112.4387,34.678,洛阳市,英才小学,细颗粒物(PM2.5),78,102,130,57,86,63,,,,36,31,10,9,0.8,1
2026-02-02T0100,4214A,112.460027,34.694929,洛阳市,春都路1号院,细颗粒物(PM2.5),85,112,135,63,85,58,,,,18,24,9,9,0.7,0.9
2026-02-02T0100,2399A,114.051,33.5721,漯河市,三五一五工厂,细颗粒物(PM2.5),105,131,119,79,73,54,,,,18,21,4,6,0.8,0.8
2026-02-02T0100,2400A,114.0055,33.5698,漯河市,漯河大学,细颗粒物(PM2.5),102,103,100,76,68,49,,,,20,19,5,6,0.8,0.8
2026-02-02T0100,2401A,114.0134,33.5826,漯河市,市水利局,细颗粒物(PM2.5),103,114,105,77,65,42,,,,20,20,5,5,0.7,0.7
2026-02-02T0100,2402A,114.0261,33.5697,漯河市,市广电局,细颗粒物(PM2.5),115,115,106,87,74,52,,,,12,14,6,7,0.5,0.5
2026-02-02T0100,3478A,113.9691,33.568,漯河市,市图书馆,细颗粒物(PM2.5),104,121,116,78,68,51,,,,18,24,5,7,0.7,0.6
2026-02-02T0100,4250A,114.089259,33.588274,漯河市,韶山路11号,细颗粒物(PM2.5),94,95,114,70,68,57,,,,17,21,6,6,0.6,0.6
2026-02-02T0100,1798A,118.5084,31.6838,马鞍山市,湖东路四小,细颗粒物(PM2.5),63,67,72,45,51,27,,,,48,36,4,3,0.7,0.8
2026-02-02T0100,1799A,118.5019,31.6449,马鞍山市,开发区,细颗粒物(PM2.5),60,62,70,43,47,2,,,,67,43,3,3,0.6,0.6
2026-02-02T0100,3633A,118.4914,31.681,马鞍山市,雨山,细颗粒物(PM2.5),60,65,73,43,47,12,,,,64,38,4,4,0.6,0.6
2026-02-02T0100,4191A,118.527362,31.722269,马鞍山市,慈湖高新区,"颗粒物(PM10),细颗粒物(PM2.5)",58,66,84,41,55,27,,,,48,41,4,6,0.7,0.9
2026-02-02T0100,1686A,111.0285,21.469,茂名市,电白南海,细颗粒物(PM2.5),57,58,44,40,23,88,,,,17,16,13,10,1.1,1.1
2026-02-02T0100,1687A,110.9294,21.6533,茂名市,茂石化七小,,49,46,45,34,25,88,,,,19,19,11,10,0.7,0.7
2026-02-02T0100,1688A,110.9108,21.6688,茂名市,健康路,颗粒物(PM10),51,51,41,34,25,95,,,,18,16,50,14,1.0,1
2026-02-02T0100,1689A,110.8592,21.6826,茂名市,高岭,颗粒物(PM10),54,58,57,37,28,61,,,,14,17,14,17,/,/
2026-02-02T0100,3450A,111.0101,21.5165,茂名市,电白水东,细颗粒物(PM2.5),53,51,37,37,24,98,,,,20,20,14,10,/,/
2026-02-02T0100,2540A,103.8414,30.0871,眉山市,气象局,颗粒物(PM10),53,56,101,32,54,65,,,,18,24,8,10,0.8,0.8
2026-02-02T0100,3148A,103.829,30.0563,眉山市,区人社局,颗粒物(PM10),64,78,96,45,59,49,,,,23,25,7,8,0.7,0.8
2026-02-02T0100,4148A,103.8836,30.0695,眉山市,眉职院,颗粒物(PM10),60,70,106,36,57,60,,,,11,22,4,5,0.7,0.8
2026-02-02T0100,1690A,116.1248,24.3307,梅州市,梅江月梅,,15,11,14,10,10,40,,,,14,14,/,/,/,/
2026-02-02T0100,1691A,116.0798,24.2719,梅州市,梅县新城,,18,,14,12,11,44,,,,12,14,7,7,0.6,0.6
2026-02-02T0100,3315A,116.1234,24.2994,梅州市,梅龙,,18,12,16,12,12,42,,,,9,12,7,8,0.6,0.6
2026-02-02T0100,1878A,104.7775,31.4741,绵阳市,富乐山,细颗粒物(PM2.5),80,94,99,59,62,33,,,,27,27,8,8,0.9,0.8
2026-02-02T0100,1880A,104.6698,31.4668,绵阳市,高新区自来水公司,颗粒物(PM10),106,161,127,78,73,0,,,,68,41,10,9,1.2,1.1
2026-02-02T0100,3491A,104.6899,31.5324,绵阳市,西科大附属小学,细颗粒物(PM2.5),93,132,126,69,73,0,,,,63,39,10,9,0.9,0.8
2026-02-02T0100,3492A,104.5647,31.5343,绵阳市,安州区旅游局,细颗粒物(PM2.5),90,111,109,67,59,3,,,,43,27,10,12,1.3,1.1
2026-02-02T0100,4146A,104.7092,31.4972,绵阳市,科技城新区公安局,颗粒物(PM10),87,123,119,60,62,2,,,,85,44,7,7,1.0,1
2026-02-02T0100,4226A,104.765114,31.453094,绵阳市,绵阳市气象局,细颗粒物(PM2.5),93,119,112,69,69,1,,,,64,34,9,8,1.1,0.9
2026-02-02T0100,1784A,129.61,44.561,牡丹江市,环保大楼,,49,39,43,34,29,64,,,,15,20,2,5,0.3,0.4
2026-02-02T0100,1787A,129.6364,44.6075,牡丹江市,机车工厂,,47,47,49,32,32,48,,,,30,24,6,7,0.4,0.5
2026-02-02T0100,1788A,129.6386,44.5462,牡丹江市,第一中学,细颗粒物(PM2.5),52,40,32,36,27,41,,,,26,20,7,6,0.5,0.4
2026-02-02T0100,4287A,129.5992,44.5964,牡丹江市,东晓云街98号,颗粒物(PM10),51,51,52,31,31,70,,,,12,25,4,6,0.2,0.4
2026-02-02T0100,2531A,105.0703,29.61,内江市,市监测站,细颗粒物(PM2.5),63,47,69,45,47,40,,,,33,26,4,4,1.0,0.9
2026-02-02T0100,2533A,105.0657,29.5807,内江市,内江二中,细颗粒物(PM2.5),63,59,71,45,48,54,,,,21,25,7,7,0.6,0.6
2026-02-02T0100,2534A,105.0407,29.5828,内江市,内江日报社,细颗粒物(PM2.5),62,49,61,44,44,59,,,,25,31,4,4,0.8,0.8
2026-02-02T0100,4147A,105.0433,29.6105,内江市,玉峰路西段888号,细颗粒物(PM2.5),62,57,66,44,45,44,,,,28,29,2,3,0.8,0.8
2026-02-02T0100,2628A,92.0653,31.4846,那曲市,那曲监测站,细颗粒物(PM2.5),54,53,37,38,30,22,,,,30,26,7,9,1.5,1.4
2026-02-02T0100,4243A,92.0515,31.4787,那曲市,那曲市委宣传部,细颗粒物(PM2.5),59,,19,42,20,14,,,,40,14,13,7,2.3,0.8
2026-02-02T0100,1291A,115.8887,28.7006,南昌市,省林业公司,,45,,27,31,25,35,,,,28,17,2,3,0.4,0.3
2026-02-02T0100,1292A,115.813,28.7443,南昌市,林科所,,19,17,24,13,18,34,,,,17,16,3,3,0.3,0.4
2026-02-02T0100,1294A,115.8518,28.687,南昌市,建工学校,,41,41,36,24,21,37,,,,18,17,8,7,0.8,0.7
2026-02-02T0100,1295A,115.8926,28.6425,南昌市,象湖,,45,32,32,31,27,37,,,,25,17,7,8,0.7,0.7
2026-02-02T0100,3046A,115.9084,28.6062,南昌市,机电学校,,41,41,40,25,27,37,,,,36,25,4,4,0.4,0.5
2026-02-02T0100,3690A,115.9718,28.7032,南昌市,外国语学校,,49,49,39,34,29,26,,,,38,22,11,12,0.7,0.7
2026-02-02T0100,4106A,115.7923,28.6873,南昌市,工业二路,,42,42,36,27,22,38,,,,25,15,3,3,0.6,0.5
2026-02-02T0100,4192A,115.931587,28.686774,南昌市,南京东路235号,,43,35,34,30,23,40,,,,27,22,5,6,0.2,0.2
2026-02-02T0100,1906A,106.0791,30.8022,南充市,南充市委,细颗粒物(PM2.5),65,66,61,47,43,6,,,,33,35,4,5,0.8,0.8
2026-02-02T0100,1907A,106.1038,30.8215,南充市,南充炼油厂,,,,66,,39,,,38,,,31,,7,,0.9
2026-02-02T0100,4227A,106.108336,30.788436,南充市,梨树横街98号,细颗粒物(PM2.5),79,83,66,58,46,4,,,,54,38,7,7,1.0,0.8
2026-02-02T0100,4304A,106.1172,30.843,南充市,清泉寺北路188号,"颗粒物(PM10),细颗粒物(PM2.5)",60,69,52,43,38,5,,,,44,25,7,8,0.8,0.7
2026-02-02T0100,4305A,106.067,30.7616,南充市,同庆路1号,细颗粒物(PM2.5),62,54,53,44,40,0,,,,45,33,7,8,0.9,0.8
2026-02-02T0100,1151A,118.8033,32.1085,南京市,迈皋桥,,46,46,50,29,34,18,,,,42,35,5,6,0.4,0.5
2026-02-02T0100,1152A,118.7487,32.057,南京市,草场门,,49,41,53,34,34,34,,,,64,38,4,5,0.7,0.8
2026-02-02T0100,1154A,118.770105,32.004342,南京市,中华门,细颗粒物(PM2.5),59,63,60,42,42,20,,,,36,33,4,4,0.5,0.6
2026-02-02T0100,1155A,118.8059,32.0329,南京市,瑞金路,细颗粒物(PM2.5),53,53,57,37,37,10,,,,37,21,3,4,1.1,0.9
2026-02-02T0100,1156A,118.7946,32.0774,南京市,玄武湖,颗粒物(PM10),56,61,57,36,35,18,,,,49,35,4,4,0.7,0.7
2026-02-02T0100,1157A,118.6415,32.0964,南京市,浦口,颗粒物(PM10),55,60,57,37,33,50,,,,18,22,4,4,0.4,0.4
2026-02-02T0100,1158A,118.730129,32.000956,南京市,奥体中心,细颗粒物(PM2.5),58,64,63,41,40,6,,,,64,35,4,5,0.6,0.5
2026-02-02T0100,1159A,118.9072,32.1047,南京市,仙林大学城,细颗粒物(PM2.5),54,56,59,38,38,6,,,,62,40,4,6,0.6,0.7
2026-02-02T0100,3422A,118.8443,31.919,南京市,江宁彩虹桥,细颗粒物(PM2.5),67,82,73,48,44,1,,,,78,49,3,4,0.7,0.9
2026-02-02T0100,3427A,118.8497,32.3599,南京市,六合雄州,细颗粒物(PM2.5),55,58,63,39,37,49,,,,33,31,9,9,0.6,0.6
2026-02-02T0100,4086A,118.7641,32.0841,南京市,新模范马路66号,"颗粒物(PM10),细颗粒物(PM2.5)",57,63,60,40,36,27,,,,62,42,4,4,0.9,0.9
2026-02-02T0100,4249A,118.8707617,31.34017673,南京市,汶溪路181号,,47,47,43,24,23,43,,,,20,21,5,6,0.8,0.7
2026-02-02T0100,4312A,119.019,31.6512,南京市,中山西路1号,,39,39,47,25,33,30,,,,21,23,4,4,0.7,0.8
2026-02-02T0100,1401A,108.3098,22.788,南宁市,二十一中,细颗粒物(PM2.5),52,46,29,36,25,40,,,,27,21,9,6,0.7,0.7
2026-02-02T0100,1402A,108.3135,22.8529,南宁市,北湖,,,,25,,23,,,66,,,17,,6,,0.5
2026-02-02T0100,1403A,108.3205,22.8222,南宁市,市监测站,细颗粒物(PM2.5),52,46,31,36,23,35,,,,28,21,7,8,0.8,0.8
2026-02-02T0100,1404A,108.3828,22.8038,南宁市,大自然花园,,45,40,34,31,22,53,,,,10,11,7,6,0.7,0.7
2026-02-02T0100,1406A,108.2397,22.8462,南宁市,区农职院,,50,50,33,30,26,19,,,,34,21,5,8,1.1,1.1
2026-02-02T0100,1407A,108.3285,22.7356,南宁市,英华嘉园,,48,,30,33,22,50,,,,13,13,4,4,0.6,0.6
2026-02-02T0100,3401A,108.4829,22.762,南宁市,红星社区,细颗粒物(PM2.5),52,46,29,36,24,51,,,,16,13,8,7,0.8,0.8
2026-02-02T0100,4132A,108.2927,23.1477,南宁市,起凤路9号,,46,35,33,32,28,46,,,,18,14,2,2,0.6,0.5
2026-02-02T0100,4221A,108.2177,22.7774,南宁市,乐贤路16号,细颗粒物(PM2.5),67,72,42,48,27,16,,,,40,22,6,4,1.0,0.9
2026-02-02T0100,2332A,118.1682,26.6371,南平市,南平市监测站,,19,18,13,13,9,10,,,,20,12,3,3,0.5,0.4
2026-02-02T0100,2334A,118.1757,26.6276,南平市,南平七中,,19,15,15,13,10,10,,,,16,12,2,4,0.6,0.6
2026-02-02T0100,1168A,120.9056,31.9669,南通市,狼山街道,细颗粒物(PM2.5),97,94,75,72,55,31,,,,39,38,5,5,0.8,0.7
2026-02-02T0100,1170A,120.8635,32.0231,南通市,城中,细颗粒物(PM2.5),90,88,80,67,49,43,,,,35,44,6,6,0.7,0.6
2026-02-02T0100,1171A,120.9376,31.9301,南通市,星湖花园,细颗粒物(PM2.5),98,90,75,73,58,37,,,,45,43,6,6,0.9,0.8
2026-02-02T0100,1172A,120.8053,32.046,南通市,紫琅学院,细颗粒物(PM2.5),72,89,78,52,51,56,,,,28,38,4,4,1.0,0.8
2026-02-02T0100,3291A,121.0631,32.0644,南通市,通州监测站,细颗粒物(PM2.5),84,95,71,62,47,30,,,,61,52,4,4,0.7,0.6
2026-02-02T0100,3432A,120.9348,31.9874,南通市,环境教育馆,细颗粒物(PM2.5),93,92,71,69,53,45,,,,31,43,5,5,0.9,0.8
2026-02-02T0100,4091A,120.8692,31.9885,南通市,洪江路,细颗粒物(PM2.5),85,91,71,63,54,36,,,,43,48,4,5,0.4,0.4
2026-02-02T0100,2404A,112.5338,33.0086,南阳市,瓦房庄,细颗粒物(PM2.5),97,126,105,72,66,29,,,,31,23,4,4,1.0,1
2026-02-02T0100,2405A,112.5002,32.9734,南阳市,汉画馆,,,,109,,94,,,80,,,33,,7,,1.0
2026-02-02T0100,2406A,112.5778,33.0144,南阳市,气象站,细颗粒物(PM2.5),107,142,121,80,66,29,,,,37,26,5,5,1.0,0.9
2026-02-02T0100,2407A,112.548,32.9687,南阳市,理工学院,细颗粒物(PM2.5),122,125,106,92,78,31,,,,39,29,8,5,0.9,0.9
2026-02-02T0100,4008A,112.5233,32.9921,南阳市,卧龙区政府,细颗粒物(PM2.5),122,149,120,92,74,28,,,,34,30,5,6,1.0,1
2026-02-02T0100,1234A,121.8352,29.9111,宁波市,区环保大楼,细颗粒物(PM2.5),138,139,92,105,59,12,,,,62,41,5,5,0.8,0.6
2026-02-02T0100,1235A,121.5595,29.8208,宁波市,万里学院,细颗粒物(PM2.5),104,109,76,78,56,31,,,,42,30,2,3,0.8,0.8
2026-02-02T0100,1236A,121.713,29.9564,宁波市,龙赛医院,细颗粒物(PM2.5),105,103,75,79,52,18,,,,59,33,3,3,0.7,0.6
2026-02-02T0100,1240A,121.5855,29.8635,宁波市,太古小学,细颗粒物(PM2.5),110,118,83,83,59,26,,,,36,26,,3,0.7,0.7
2026-02-02T0100,1241A,121.5239,29.8673,宁波市,市环境监测中心,细颗粒物(PM2.5),102,107,77,76,54,15,,,,41,26,6,6,0.6,0.6
2026-02-02T0100,2871A,121.6156,29.9015,宁波市,万里国际学校,细颗粒物(PM2.5),110,111,69,83,57,,,,,59,35,3,4,0.6,0.5
2026-02-02T0100,3710A,121.5593,29.8976,宁波市,白沙活动中心,细颗粒物(PM2.5),114,90,59,86,60,13,,,,46,29,3,4,0.5,0.4
2026-02-02T0100,4095A,121.8962,29.7529,宁波市,中科路88号,细颗粒物(PM2.5),102,89,61,76,49,50,,,,26,30,4,5,0.5,0.5
2026-02-02T0100,2341A,119.5387,26.6611,宁德市,宁德市监测站,,29,29,19,19,13,35,,,,18,19,4,4,0.6,0.5
2026-02-02T0100,3209A,119.5231,26.6562,宁德市,宁德一中,,32,31,20,22,17,32,,,,15,15,3,4,0.5,0.4
2026-02-02T0100,2618A,98.859,25.8541,怒江傈僳族自治州,州监测站,,46,46,39,28,23,36,,,,21,12,5,6,0.4,0.4
2026-02-02T0100,2619A,98.8607,25.8168,怒江傈僳族自治州,泸水一中,,40,,33,28,24,26,,,,23,19,4,4,0.7,0.6
2026-02-02T0100,1888A,101.6891,26.571,攀枝花市,弄弄坪,颗粒物(PM10),65,80,80,39,40,10,,,,68,43,20,29,1.5,1.6
2026-02-02T0100,1889A,101.577,26.5914,攀枝花市,河门口,,49,49,50,25,31,25,,,,26,23,34,31,0.9,1.2
2026-02-02T0100,1891A,101.7365,26.4986,攀枝花市,仁和,,30,30,48,17,32,37,,,,15,23,8,18,0.5,1.2
2026-02-02T0100,2835A,101.7222,26.567,攀枝花市,四十中小,颗粒物(PM10),57,64,71,31,42,30,,,,47,48,20,23,1.0,1.3
2026-02-02T0100,1604A,122.0303,41.1489,盘锦市,开发区,,34,34,54,15,47,55,,,,18,28,8,8,0.8,1
2026-02-02T0100,1605A,122.0486,41.0883,盘锦市,兴隆台,,31,31,46,12,38,59,,,,16,33,7,9,0.3,0.6
2026-02-02T0100,1606A,121.8297,41.1026,盘锦市,新生街道,,39,39,50,16,37,6,,,,64,48,8,10,0.2,0.6
2026-02-02T0100,1832A,113.3257,33.7423,平顶山市,新华旅馆,颗粒物(PM10),80,109,109,34,67,75,,,,18,23,7,6,0.4,0.7
2026-02-02T0100,1833A,113.2917,33.737,平顶山市,规划设计院,颗粒物(PM10),76,101,132,38,73,62,,,,19,24,7,6,0.5,0.8
2026-02-02T0100,1834A,113.182,33.7738,平顶山市,平顶山工学院,颗粒物(PM10),82,113,105,46,73,71,,,,15,14,8,7,0.6,0.7
2026-02-02T0100,3594A,112.8736,33.9068,平顶山市,石龙区,颗粒物(PM10),68,85,114,21,60,73,,,,18,23,7,6,0.4,0.7
2026-02-02T0100,4116A,113.284,33.7139,平顶山市,姚电大道23号,细颗粒物(PM2.5),98,133,128,73,83,50,,,,39,27,8,7,0.7,0.8
2026-02-02T0100,2656A,106.6633,35.5338,平凉市,聚贤嘉苑,颗粒物(PM10),75,99,125,43,40,44,,,,24,23,10,9,0.8,0.7
2026-02-02T0100,2657A,106.7021,35.5307,平凉市,博物馆,"颗粒物(PM10),细颗粒物(PM2.5)",73,95,133,53,62,41,,,,25,25,10,10,0.7,0.7
2026-02-02T0100,2348A,113.8384,27.6436,萍乡市,中医院,细颗粒物(PM2.5),95,109,73,71,46,3,,,,33,27,4,5,1.3,1
2026-02-02T0100,2350A,113.8677,27.6438,萍乡市,市环保局,细颗粒物(PM2.5),92,78,57,68,49,2,,,,29,25,12,12,1.1,1.2
2026-02-02T0100,2351A,113.8663,27.6202,萍乡市,安源区政府,细颗粒物(PM2.5),83,96,64,61,46,0,,,,29,24,3,4,1.1,0.8
2026-02-02T0100,4107A,113.8686,27.6668,萍乡市,联洪村委会,细颗粒物(PM2.5),84,70,66,62,48,7,,,,24,30,1,3,0.8,0.8
2026-02-02T0100,2319A,119.0142,25.4324,莆田市,荔城区仓后路,,30,27,21,21,10,31,,,,28,15,/,/,/,/
2026-02-02T0100,2320A,119.0016,25.4553,莆田市,莆田市监测站,,30,29,19,21,11,32,,,,20,12,3,2,0.6,0.4
2026-02-02T0100,2321A,119.112,25.4561,莆田市,涵江区六中,,28,22,18,19,9,42,,,,15,10,/,/,0.5,0.5
2026-02-02T0100,2322A,119.1014,25.3215,莆田市,秀屿区政府,,25,17,18,17,6,55,,,,10,9,2,2,0.6,0.5
2026-02-02T0100,2392A,115.0312,35.7636,濮阳市,环保局,细颗粒物(PM2.5),172,147,98,130,83,21,,,,63,31,8,6,1.5,1.2
2026-02-02T0100,3021A,115,35.7667,濮阳市,濮水河管理处,细颗粒物(PM2.5),156,163,116,119,88,21,,,,51,32,5,6,1.4,1.2
2026-02-02T0100,4118A,115.0552,35.7816,濮阳市,中原东路68号,细颗粒物(PM2.5),169,194,134,128,84,3,,,,82,36,8,5,1.5,1.2
2026-02-02T0100,4216A,115.0923632,35.76857718,濮阳市,任丘路479号,颗粒物(PM10),119,187,129,66,81,3,,,,91,42,8,6,1.2,0.9
2026-02-02T0100,2601A,100.9801,22.7634,普洱市,市环保局,颗粒物(PM10),57,63,60,30,26,42,,,,8,12,4,4,0.5,0.5
2026-02-02T0100,2602A,100.9763,22.8237,普洱市,普洱第二中学,颗粒物(PM10),55,60,53,37,28,3,,,,49,29,5,5,0.5,0.4
2026-02-02T0100,3345A,131.0413,45.7795,七台河市,中波台,细颗粒物(PM2.5),52,45,42,36,29,64,,,,12,11,9,9,0.7,0.5
2026-02-02T0100,3637A,131.0136,45.7688,七台河市,人民广场,细颗粒物(PM2.5),67,57,48,48,31,56,,,,28,19,14,9,0.7,0.6
2026-02-02T0100,3684A,130.8639,45.8144,七台河市,新建矿广场,细颗粒物(PM2.5),72,61,51,52,34,56,,,,13,14,6,6,0.7,0.6
2026-02-02T0100,1779A,123.9307,47.3641,齐齐哈尔市,安居小区,,29,29,29,19,17,52,,,,17,17,10,10,0.5,0.4
2026-02-02T0100,1780A,123.9497,47.3389,齐齐哈尔市,中心广场,,28,23,22,19,14,60,,,,11,14,6,6,0.5,0.6
2026-02-02T0100,1781A,123.9483,47.3229,齐齐哈尔市,农牧车辆厂,,22,22,27,12,14,59,,,,8,12,6,6,0.3,0.3
2026-02-02T0100,1783A,123.9442,47.2994,齐齐哈尔市,市环境监测站,,29,29,30,14,11,44,,,,20,16,3,5,0.5,0.4
2026-02-02T0100,3662A,123.6341,47.2079,齐齐哈尔市,富区青少年活动中心,,21,21,38,3,14,64,,,,9,13,5,6,0.4,0.5
2026-02-02T0100,2591A,107.9765,26.5724,黔东南苗族侗族自治州,市环境监测站,细颗粒物(PM2.5),64,49,42,46,36,64,,,,9,10,7,5,0.8,0.8
2026-02-02T0100,2881A,107.8909,26.531,黔东南苗族侗族自治州,凯里学院,细颗粒物(PM2.5),54,46,44,38,35,60,,,,14,15,4,3,0.8,0.8
2026-02-02T0100,2593A,107.5223,26.2371,黔南布依族苗族自治州,小围寨,,38,36,28,26,25,40,,,,8,7,4,4,0.9,0.9
2026-02-02T0100,3538A,107.5175,26.2977,黔南布依族苗族自治州,沙坝,,36,36,36,25,27,48,,,,9,10,5,5,0.9,0.8
2026-02-02T0100,2589A,104.9022,25.0943,黔西南布依族苗族自治州,场坝街,,19,19,31,11,16,31,,,,11,10,3,3,0.8,0.8
2026-02-02T0100,2590A,104.8812,25.0994,黔西南布依族苗族自治州,坪东大道,,19,19,25,6,16,33,,,,10,9,5,4,1.0,1
2026-02-02T0100,2502A,108.6238,21.9667,钦州市,市环保站,细颗粒物(PM2.5),63,61,48,45,25,54,,,,18,15,5,4,1.2,0.8
2026-02-02T0100,2503A,108.655,21.9481,钦州市,沙埠小学,,46,46,43,21,20,65,,,,16,16,5,5,0.5,0.5
2026-02-02T0100,2504A,108.5989,21.7435,钦州市,港区一小,颗粒物(PM10),55,60,47,31,24,58,,,,20,21,3,3,0.7,0.7
2026-02-02T0100,3404A,108.5959,21.9634,钦州市,北职校,颗粒物(PM10),52,54,37,32,21,60,,,,12,12,4,4,0.8,0.8
2026-02-02T0100,1046A,119.5247,39.9346,秦皇岛市,建设大厦,颗粒物(PM10),61,72,82,40,54,12,,,,62,41,8,10,0.9,0.9
2026-02-02T0100,3132A,119.5979,39.938,秦皇岛市,文明里,,31,31,79,3,48,65,,,,14,42,9,13,0.3,0.6
2026-02-02T0100,4066A,119.7458,39.9952,秦皇岛市,南园路157号,细颗粒物(PM2.5),88,97,80,65,57,4,,,,77,55,11,12,1.1,0.9
2026-02-02T0100,4067A,119.5131,39.8858,秦皇岛市,翠岛大街1号,颗粒物(PM10),76,101,85,54,60,2,,,,97,55,11,13,0.9,0.9
2026-02-02T0100,4198A,119.509013,39.825305,秦皇岛市,北戴河轮滑馆,细颗粒物(PM2.5),68,68,82,49,53,7,,,,66,44,4,9,1.4,0.9
2026-02-02T0100,1310A,120.404,36.0625,青岛市,市南区东部子站,细颗粒物(PM2.5),241,227,156,191,131,23,,,,44,40,8,10,1.4,1.1
2026-02-02T0100,1311A,120.362344,36.10282,青岛市,四方区子站,细颗粒物(PM2.5),242,202,142,192,134,16,,,,47,48,4,6,1.7,1.4
2026-02-02T0100,1312A,120.294373,36.054183,青岛市,市南区西部子站,细颗粒物(PM2.5),247,202,147,197,138,34,,,,38,47,3,5,1.4,1.2
2026-02-02T0100,1313A,120.4581,36.0858,青岛市,崂山区子站,细颗粒物(PM2.5),231,212,156,181,128,25,,,,50,42,10,11,1.5,1.1
2026-02-02T0100,1315A,120.3945,36.3083,青岛市,城阳区子站,细颗粒物(PM2.5),265,241,171,215,149,21,,,,49,53,7,9,1.6,1.3
2026-02-02T0100,3642A,120.3454,36.0735,青岛市,市北区南部,细颗粒物(PM2.5),240,207,150,190,131,16,,,,45,41,2,4,1.4,1.1
2026-02-02T0100,3643A,120.3897,36.18,青岛市,李沧区北部,细颗粒物(PM2.5),247,217,154,197,138,14,,,,51,55,8,11,1.4,1.2
2026-02-02T0100,4110A,120.5222,36.4089,青岛市,盟旺路653号,细颗粒物(PM2.5),202,182,172,152,130,52,,,,28,46,2,8,1.3,1.3
2026-02-02T0100,4290A,120.196923,35.954556,青岛市,珠江路669号,细颗粒物(PM2.5),243,217,145,193,124,24,,,,48,54,4,6,1.3,1.1
2026-02-02T0100,4291A,120.0424,35.8656,青岛市,黄岛区人民政府广场,细颗粒物(PM2.5),228,232,183,178,141,31,,,,42,55,7,9,1.6,1.7
2026-02-02T0100,1703A,113.0218,23.7086,清远市,凤城街办,,22,22,20,13,13,48,,,,17,17,/,/,/,/
2026-02-02T0100,3025A,113.0479,23.6343,清远市,技师学院,,23,23,22,13,12,41,,,,23,22,7,6,0.7,0.7
2026-02-02T0100,3318A,112.9898,23.7403,清远市,清新太和,,20,20,21,12,14,54,,,,16,16,9,8,0.8,0.7
2026-02-02T0100,3455A,113.076,23.72,清远市,清城东城,,24,24,19,12,11,45,,,,16,14,/,/,/,/
2026-02-02T0100,2661A,107.6325,35.7357,庆阳市,庆阳五中,颗粒物(PM10),54,57,122,21,48,80,,,,13,16,7,8,1.0,0.6
2026-02-02T0100,2662A,107.6361,35.7067,庆阳市,市环保局,颗粒物(PM10),53,56,121,15,43,74,,,,18,16,7,6,0.5,0.6
2026-02-02T0100,1916A,103.7897,25.5036,曲靖市,环境监测站,颗粒物(PM10),54,57,43,28,26,24,,,,22,18,10,5,1.2,0.8
2026-02-02T0100,1917A,103.8013,25.5357,曲靖市,烟厂办公区,,49,49,42,26,25,22,,,,22,15,12,5,1.1,0.7
2026-02-02T0100,3376A,103.7926,25.4651,曲靖市,南苑二区,,42,42,35,19,25,40,,,,13,10,6,4,0.9,0.7
2026-02-02T0100,3377A,103.7442,25.5259,曲靖市,曲靖师范学院,颗粒物(PM10),57,63,44,32,30,26,,,,17,19,5,5,1.0,0.5
2026-02-02T0100,1264A,118.8694,28.94,衢州市,环保大楼,,45,35,36,31,33,5,,,,43,32,/,/,/,/
2026-02-02T0100,1266A,118.8622,28.9809,衢州市,衢州学院,,36,33,33,25,30,0,,,,39,27,4,4,0.4,0.4
2026-02-02T0100,4097A,118.9646,28.9832,衢州市,衢州三中,,35,33,34,24,27,0,,,,48,36,5,4,0.3,0.3
2026-02-02T0100,1611A,118.5818,24.9116,泉州市,涂山街,,26,20,20,18,13,40,,,,19,16,3,3,0.5,0.5
2026-02-02T0100,1612A,118.597,24.8976,泉州市,津头埔,,28,22,20,19,14,40,,,,18,15,3,3,0.5,0.5
2026-02-02T0100,1613A,118.6669,24.9422,泉州市,万安,,25,23,22,17,13,42,,,,16,15,3,3,0.8,0.7
2026-02-02T0100,4105A,118.6355,24.9148,泉州市,霞新路6号,,30,29,20,21,14,38,,,,20,18,/,/,0.6,0.5
2026-02-02T0100,2626A,88.8873,29.2723,日喀则市,日喀则监测站,,26,,15,12,9,81,,,,2,8,6,8,0.3,0.4
2026-02-02T0100,3726A,88.8775,29.2425,日喀则市,林业技术推广中心,,25,14,14,3,2,77,,,,4,5,5,5,0.5,0.5
2026-02-02T0100,1659A,119.4711,35.421,日照市,监测站,细颗粒物(PM2.5),226,210,157,176,126,30,,,,44,53,8,10,1.5,1.2
2026-02-02T0100,1660A,119.523,35.4216,日照市,市政府广场,细颗粒物(PM2.5),224,215,153,174,127,45,,,,38,48,7,9,1.2,0.9
2026-02-02T0100,1661A,119.5511,35.4113,日照市,港务局,细颗粒物(PM2.5),212,202,169,162,126,44,,,,40,56,7,9,1.4,1.1
2026-02-02T0100,3507A,119.5326,35.4627,日照市,职业技术学院,细颗粒物(PM2.5),224,207,147,174,122,46,,,,39,44,7,8,1.6,1.3
2026-02-02T0100,3604A,119.3267,35.1043,日照市,岚山环保分局,细颗粒物(PM2.5),150,171,168,115,125,20,,,,54,48,15,23,1.9,1.6
2026-02-02T0100,1835A,111.1922,34.7752,三门峡市,市政府,细颗粒物(PM2.5),99,128,119,74,91,1,,,,74,45,11,10,1.0,0.9
2026-02-02T0100,1836A,111.1588,34.794,三门峡市,开发区,"颗粒物(PM10),细颗粒物(PM2.5)",97,143,154,72,107,2,,,,75,44,7,6,0.9,0.9
2026-02-02T0100,3039A,111.1911,34.7829,三门峡市,三门峡市第一小学,细颗粒物(PM2.5),107,140,135,80,99,1,,,,74,40,7,7,1.1,1
2026-02-02T0100,3598A,111.1031,34.719,三门峡市,富达温泉假日酒店,细颗粒物(PM2.5),113,149,149,85,100,28,,,,43,41,6,9,0.8,1.1
2026-02-02T0100,2324A,117.621,26.2626,三明市,三钢,,28,20,16,19,14,23,,,,13,9,7,5,0.8,0.8
2026-02-02T0100,2325A,117.6352,26.2714,三明市,三明二中,,23,23,14,13,10,26,,,,10,10,4,2,0.7,0.8
2026-02-02T0100,2326A,117.6028,26.2377,三明市,三元区政府,,23,19,13,16,10,29,,,,13,12,5,4,0.9,0.8
2026-02-02T0100,1877A,109.4962,18.2682,三亚市,河西子站,,25,25,21,10,10,69,,,,6,13,1,2,0.5,0.5
2026-02-02T0100,3540A,109.7348,18.3443,三亚市,君悦子站,,19,19,18,11,10,60,,,,10,7,5,5,0.3,0.4
2026-02-02T0100,4135A,109.1714,18.3739,三亚市,城东小学站,,28,19,19,19,12,77,,,,16,10,/,/,/,/
2026-02-02T0100,2624A,91.7592,29.234,山南市,山南监测站,,25,9,20,3,13,79,,,,1,6,5,5,0.5,0.5
2026-02-02T0100,2625A,91.7701,29.2436,山南市,山南人民医院,,21,12,21,10,14,67,,,,2,10,8,8,0.5,0.6
2026-02-02T0100,1674A,116.6795,23.3666,汕头市,金平子站,,38,32,27,26,20,57,,,,17,16,5,5,0.9,1
2026-02-02T0100,1675A,116.7248,23.3632,汕头市,龙湖子站,,32,30,26,22,22,66,,,,14,15,10,10,/,/
2026-02-02T0100,1676A,116.7257,23.2774,汕头市,濠江子站,,33,33,26,12,20,65,,,,18,19,8,7,/,/
2026-02-02T0100,1677A,116.7518,23.4712,汕头市,澄海子站,,45,42,29,31,21,54,,,,13,12,6,6,0.8,0.8
2026-02-02T0100,1678A,116.6088,23.2539,汕头市,潮阳子站,,29,25,24,20,20,62,,,,11,15,6,6,0.6,0.7
2026-02-02T0100,3444A,116.4539,23.2684,汕头市,潮南峡山,,33,33,28,22,20,52,,,,16,15,6,6,0.7,0.8
2026-02-02T0100,3624A,116.4069,23.2533,汕头市,潮南子站,颗粒物(PM10),53,55,37,32,23,32,,,,25,18,6,6,/,/
2026-02-02T0100,1693A,115.3653,22.7751,汕尾市,市环保局,,19,17,20,13,14,51,,,,10,10,8,7,0.8,0.8
2026-02-02T0100,1695A,115.362,22.7926,汕尾市,新城中学,,22,22,17,12,13,54,,,,8,9,6,5,0.7,0.7
2026-02-02T0100,2645A,109.9155,33.8714,商洛市,监测站,颗粒物(PM10),95,140,106,41,49,37,,,,26,18,4,4,0.7,0.7
2026-02-02T0100,3045A,109.9647,33.8486,商洛市,商州区中学,颗粒物(PM10),89,128,123,44,43,16,,,,49,27,4,4,0.7,0.6
2026-02-02T0100,2408A,115.6701,34.4283,商丘市,环境监测站,细颗粒物(PM2.5),125,143,106,95,88,55,,,,30,18,3,2,0.7,0.7
2026-02-02T0100,2409A,115.6458,34.4047,商丘市,粮食局,细颗粒物(PM2.5),118,143,103,89,82,61,,,,30,20,3,3,0.7,0.5
2026-02-02T0100,3171A,115.6069,34.4465,商丘市,梁园区档案局,细颗粒物(PM2.5),117,139,96,88,77,60,,,,27,20,3,2,0.6,0.6
2026-02-02T0100,4119A,115.6701,34.3767,商丘市,北海东路185号,细颗粒物(PM2.5),142,185,113,108,80,6,,,,78,32,2,2,0.8,0.7
2026-02-02T0100,4120A,115.6172,34.3704,商丘市,中山大街3号,细颗粒物(PM2.5),147,191,127,112,87,22,,,,64,35,3,5,0.7,0.7
2026-02-02T0100,1141A,121.401,31.2382,上海市,普陀,细颗粒物(PM2.5),94,90,75,70,53,13,,,,70,55,6,6,0.7,0.7
2026-02-02T0100,1142A,121.4774,31.2043,上海市,十五厂,细颗粒物(PM2.5),84,83,84,62,53,30,,,,55,46,7,7,0.5,0.5
2026-02-02T0100,1143A,121.4673,31.3011,上海市,虹口,细颗粒物(PM2.5),89,95,78,66,52,9,,,,67,55,7,8,0.8,0.4
2026-02-02T0100,1147A,121.4253,31.226,上海市,静安监测站,细颗粒物(PM2.5),79,83,72,58,49,27,,,,64,52,7,8,0.8,0.8
2026-02-02T0100,1148A,121.7029,31.1905,上海市,浦东川沙,细颗粒物(PM2.5),112,113,90,84,66,2,,,,77,67,7,10,0.9,0.9
2026-02-02T0100,1149A,121.5339,31.229,上海市,浦东新区监测站,细颗粒物(PM2.5),94,89,78,70,58,29,,,,55,47,6,7,0.8,0.9
2026-02-02T0100,1150A,121.5776,31.2038,上海市,浦东张江,细颗粒物(PM2.5),97,98,84,72,56,18,,,,64,59,6,8,0.6,0.6
2026-02-02T0100,3265A,121.4242,31.3303,上海市,宝山庙行,细颗粒物(PM2.5),89,98,83,66,54,2,,,,77,58,8,9,0.7,0.7
2026-02-02T0100,3266A,121.8789,31.4662,上海市,崇明上实东滩,细颗粒物(PM2.5),75,67,61,55,47,40,,,,10,10,4,5,0.4,0.2
2026-02-02T0100,3268A,121.316,31.2839,上海市,嘉定南翔,细颗粒物(PM2.5),83,86,75,61,54,2,,,,74,57,5,5,0.5,0.4
2026-02-02T0100,3269A,121.3357,30.7455,上海市,金山新城,细颗粒物(PM2.5),97,84,66,72,57,40,,,,34,35,8,9,0.9,0.8
2026-02-02T0100,3270A,121.4996,31.0741,上海市,闵行浦江,细颗粒物(PM2.5),83,81,73,61,53,13,,,,59,49,6,7,0.7,0.7
2026-02-02T0100,3271A,121.2886,31.1663,上海市,青浦徐泾,细颗粒物(PM2.5),95,99,77,71,54,8,,,,69,57,4,5,0.7,0.7
2026-02-02T0100,3272A,121.2193,31.0382,上海市,松江图书馆,细颗粒物(PM2.5),84,83,67,62,47,25,,,,53,38,6,6,0.6,0.6
2026-02-02T0100,3273A,121.3904,31.206,上海市,长宁仙霞,细颗粒物(PM2.5),82,78,73,60,49,2,,,,79,57,7,8,0.7,0.7
2026-02-02T0100,3274A,121.7964,31.0507,上海市,浦东惠南,细颗粒物(PM2.5),98,104,82,73,59,25,,,,55,58,4,5,0.7,0.7
2026-02-02T0100,3544A,121.4891,30.925,上海市,奉贤南桥新城,细颗粒物(PM2.5),90,82,74,67,54,34,,,,51,44,1,3,0.8,0.8
2026-02-02T0100,4183A,121.417401,31.16637,上海市,冠生园路458号,细颗粒物(PM2.5),83,78,68,61,54,25,,,,57,46,4,5,0.7,0.6
2026-02-02T0100,4205A,121.541914,31.268301,上海市,宁武路151号,细颗粒物(PM2.5),99,98,78,74,45,35,,,,51,48,5,6,0.7,0.8
2026-02-02T0100,2382A,117.9758,28.4439,上饶市,市监测站,,31,31,26,19,19,16,,,,29,20,12,7,/,/
2026-02-02T0100,2383A,117.9521,28.4637,上饶市,凤凰光学,,31,31,27,21,19,10,,,,27,24,10,9,0.9,0.8
2026-02-02T0100,3685A,117.897,28.4316,上饶市,双创科技城,,33,33,25,22,18,13,,,,39,28,9,6,1.0,0.9
2026-02-02T0100,4211A,118.190438,28.444845,上饶市,裕丰大道,,40,40,33,26,25,13,,,,33,28,41,12,0.8,0.7
2026-02-02T0100,1669A,113.5821,24.7733,韶关市,市八中,,28,28,17,18,12,45,,,,14,14,7,7,0.6,0.7
2026-02-02T0100,1671A,113.5916,24.7973,韶关市,园林处,,29,25,15,20,12,46,,,,13,13,6,6,/,/
2026-02-02T0100,1673A,113.5971,24.6864,韶关市,曲江监测站,,29,26,16,20,11,44,,,,13,14,5,6,0.6,0.6
2026-02-02T0100,2809A,113.6668,24.7756,韶关市,大学路288号,,25,22,15,17,12,33,,,,18,15,2,3,/,/
2026-02-02T0100,3622A,113.5556,24.8082,韶关市,碧湖山庄,,29,27,18,20,13,44,,,,14,13,6,7,0.7,0.7
2026-02-02T0100,2464A,111.5277,27.2442,邵阳市,市化工厂,,43,40,57,30,43,55,,,,15,14,2,3,0.6,0.7
2026-02-02T0100,2466A,111.4327,27.2276,邵阳市,市环保局,,43,,40,30,44,65,,,,18,17,7,8,0.8,0.9
2026-02-02T0100,4218A,111.446,27.2472,邵阳市,北塔二期4-26地块,,49,,45,34,43,63,,,,11,13,6,6,0.9,1
2026-02-02T0100,4219A,111.4739,27.2282,邵阳市,邵水西路287号,,41,41,41,28,42,64,,,,12,13,8,8,0.8,0.9
2026-02-02T0100,1247A,120.6053,29.9927,绍兴市,城东开发委,,42,40,51,29,39,17,,,,33,30,6,7,0.6,0.6
2026-02-02T0100,2921A,120.5482,30.0003,绍兴市,树下王站,,39,37,45,27,34,19,,,,27,28,6,6,0.3,0.3
2026-02-02T0100,3408A,120.5685,29.936,绍兴市,绍兴中专,,29,28,43,20,34,6,,,,30,23,7,7,0.3,0.4
2026-02-02T0100,3409A,120.4905,30.086,绍兴市,柯桥区政府,,41,41,51,28,38,27,,,,41,38,5,6,0.6,0.6
2026-02-02T0100,3410A,120.8751,30.0249,绍兴市,重华小学,,46,42,59,32,48,26,,,,32,35,6,7,0.4,0.5
2026-02-02T0100,3411A,120.837,30.0137,绍兴市,上虞中学,,49,49,63,34,48,7,,,,43,36,7,8,0.6,0.6
2026-02-02T0100,3560A,120.4715,30.0414,绍兴市,柯桥妇保,,38,35,43,26,34,16,,,,24,24,5,5,0.4,0.5
2026-02-02T0100,3658A,120.6156,30.0762,绍兴市,袍江中学,,43,40,63,30,46,33,,,,23,29,6,6,0.4,0.5
2026-02-02T0100,1356A,114.0948,22.5506,深圳市,通心岭子站,,23,23,27,11,14,49,,,,12,17,7,7,0.8,0.9
2026-02-02T0100,1357A,114.1153,22.5713,深圳市,洪湖,,22,22,26,11,14,48,,,,14,22,5,5,1.0,1.1
2026-02-02T0100,1358A,113.9823,22.5398,深圳市,华侨城,,21,21,25,12,16,46,,,,26,27,/,/,/,/
2026-02-02T0100,1359A,113.9181,22.517,深圳市,南海子站,,32,32,35,17,20,46,,,,28,29,6,6,1.0,1.1
2026-02-02T0100,1360A,114.2345,22.565,深圳市,盐田,,18,18,18,10,9,54,,,,12,18,8,8,0.8,0.8
2026-02-02T0100,1363A,114.4911,22.5381,深圳市,南澳,,21,21,16,13,9,51,,,,11,12,/,/,/,/
2026-02-02T0100,1364A,114.41,22.6346,深圳市,葵涌,,22,21,19,15,12,48,,,,11,14,8,8,0.8,0.8
2026-02-02T0100,1365A,114.2967,22.5978,深圳市,梅沙,,18,18,18,9,9,53,,,,11,14,/,/,/,/
2026-02-02T0100,1366A,114.0563,22.7353,深圳市,观澜,,22,22,34,10,17,59,,,,13,23,7,7,0.9,1
2026-02-02T0100,3305A,114.0614,22.556,深圳市,莲花,,19,19,23,12,15,49,,,,17,23,/,/,/,/
2026-02-02T0100,3306A,114.0144,22.6163,深圳市,民治,,19,19,28,13,19,46,,,,22,25,/,/,/,/
2026-02-02T0100,3307A,114.1756,22.6421,深圳市,横岗,,21,21,26,14,17,50,,,,12,18,/,/,/,/
2026-02-02T0100,3447A,114.344,22.7115,深圳市,坪山,,25,25,23,14,14,43,,,,19,20,8,8,0.9,1
2026-02-02T0100,3623A,113.8952,22.586,深圳市,西乡,,30,30,29,17,16,45,,,,26,22,5,5,0.9,0.9
2026-02-02T0100,4220A,114.214113,22.713717,深圳市,黄阁路,,20,20,20,12,13,51,,,,16,19,8,7,0.9,1
2026-02-02T0100,1099A,123.5058,41.7084,沈阳市,浑南东路,颗粒物(PM10),53,56,108,18,85,47,,,,39,77,15,22,0.4,1.4
2026-02-02T0100,1100A,123.4238,41.6992,沈阳市,新秀街,颗粒物(PM10),63,75,103,20,71,50,,,,31,63,12,15,0.6,1.5
2026-02-02T0100,1102A,123.5903,41.8412,沈阳市,东陵路,细颗粒物(PM2.5),92,87,90,68,72,12,,,,67,52,11,13,1.1,1.4
2026-02-02T0100,1103A,123.4267,41.8466,沈阳市,陵东街,颗粒物(PM10),56,62,84,14,61,53,,,,15,53,10,14,0.6,1.3
2026-02-02T0100,1104A,123.4116,41.7654,沈阳市,文化路,,41,41,99,15,70,44,,,,30,56,15,21,0.6,1.2
2026-02-02T0100,1105A,123.4673,41.787,沈阳市,小河沿,颗粒物(PM10),53,56,119,27,93,54,,,,30,61,13,17,0.7,1.4
2026-02-02T0100,1106A,123.4019,41.7978,沈阳市,太原街,,34,34,89,15,63,46,,,,27,52,11,23,0.1,0.7
2026-02-02T0100,1108A,123.3778,41.9233,沈阳市,京沈街,颗粒物(PM10),58,65,75,18,62,55,,,,21,52,8,18,0.6,1
2026-02-02T0100,2897A,123.2429,41.7341,沈阳市,沈辽西路,,44,44,110,12,80,52,,,,24,57,9,14,0.5,1.5
2026-02-02T0100,2900A,123.5951,41.9085,沈阳市,裕农路,细颗粒物(PM2.5),58,63,80,41,62,23,,,,59,48,7,10,0.9,1.2
2026-02-02T0100,2429A,110.78,32.6494,十堰市,滨河新村,颗粒物(PM10),75,100,95,51,58,19,,,,37,37,/,/,1.0,1.2
2026-02-02T0100,2430A,110.7305,32.6408,十堰市,刘家沟,颗粒物(PM10),71,91,92,35,45,31,,,,12,13,/,/,/,/
2026-02-02T0100,2431A,110.8843,32.5712,十堰市,铁二处,颗粒物(PM10),77,103,92,54,57,12,,,,33,28,7,7,1.0,1.2
2026-02-02T0100,3545A,110.8053,32.8401,十堰市,郧阳区金沙路,颗粒物(PM10),71,92,82,40,51,39,,,,13,21,6,6,0.8,1.1
2026-02-02T0100,2709A,86.0391,44.298,石河子市,艾青诗歌馆,细颗粒物(PM2.5),293,297,212,243,163,8,,,,86,60,8,9,2.3,1.9
2026-02-02T0100,3442A,86.047,44.2331,石河子市,南区管委会,细颗粒物(PM2.5),145,176,178,111,133,87,,,,18,29,8,10,1.5,1.8
2026-02-02T0100,4051A,86.0791,44.3018,石河子市,世纪广场,细颗粒物(PM2.5),310,330,222,260,158,5,,,,93,74,11,9,2.4,2.1
2026-02-02T0100,4167A,86.0126,44.2349,石河子市,城南景苑小区,细颗粒物(PM2.5),133,168,208,101,135,83,,,,17,28,4,5,1.2,1.3
