timepoint,stationcode,longitude,latitude,area,positionname,primarypollutant,aqi,pm10,pm10_24h,pm2_5,pm2_5_24h,o3,o3_24h,o3_8h,o3_8h_24h,no2,no2_24h,so2,so2_24h,co,co_24h
2023-08-28T07:00:00,1001A,116.3621,39.8784,北京市,万寿西宫,,18,18,36,9,21,138,43,62,47,35,27,1,1,0.4,0.5
2023-08-28T07:00:00,1002A,116.2202,40.2915,北京市,定陵,,18,17,24,9,14,119,57,51,51,11,7,3,3,0.4,0.5
2023-08-28T07:00:00,1003A,116.4174,39.9289,北京市,东四,,21,21,35,10,20,136,39,50,44,39,22,1,1,0.6,0.5
2023-08-28T07:00:00,1004A,116.4072,39.8863,北京市,天坛,,27,27,32,16,21,126,25,26,26,44,23,3,3,0.5,0.6
2023-08-28T07:00:00,1005A,116.462,39.9365,北京市,农展馆,,18,18,32,9,16,129,41,43,43,30,24,3,2,0.4,0.6
2023-08-28T07:00:00,1006A,116.3392,39.9295,北京市,官园,,22,22,36,10,21,151,48,55,46,28,26,4,4,0.4,0.5
2023-08-28T07:00:00,1007A,116.2878,39.9611,北京市,海淀万柳,,30,30,38,13,20,119,16,32,22,53,33,3,3,0.5,0.6
2023-08-28T07:00:00,1008A,116.6636,40.135,北京市,顺义新城,,24,24,30,12,14,121,28,32,32,23,15,1,2,0.4,0.5
2023-08-28T07:00:00,1009A,116.6275,40.3275,北京市,怀柔镇,,19,19,22,11,14,112,34,45,43,13,8,3,3,0.4,0.4
2023-08-28T07:00:00,1010A,116.2296,40.217,北京市,昌平镇,,15,14,19,10,16,128,32,58,45,27,18,3,3,0.3,0.4
2023-08-28T07:00:00,1011A,116.3966,39.9821,北京市,奥体中心,,23,23,33,10,19,121,26,37,27,42,32,1,2,0.4,0.6
2023-08-28T07:00:00,1012A,116.184,39.9136,北京市,古城,,18,15,43,7,26,131,56,62,45,9,16,3,3,0.4,0.6
2023-08-28T07:00:00,1015A,117.1444,39.1661,天津市,勤俭道,"颗粒物(PM10),细颗粒物(PM2.5)",54,58,48,38,29,127,27,26,26,37,30,9,9,1.0,1
2023-08-28T07:00:00,1017A,117.237,39.1082,天津市,大直沽八号路,,43,43,46,24,23,109,29,42,37,41,32,9,8,0.8,0.9
2023-08-28T07:00:00,1018A,117.202,39.0927,天津市,前进道,,42,42,41,24,22,109,34,58,51,37,29,10,9,0.7,0.7
2023-08-28T07:00:00,1019A,117.1837,39.2133,天津市,淮河道,颗粒物(PM10),57,63,48,38,27,119,18,20,19,41,38,6,7,0.9,0.9
2023-08-28T07:00:00,1021A,117.307,39.0877,天津市,跃进路,,,,43,,20,51,,46,,,41,,9,,0.8
2023-08-28T07:00:00,1023A,117.707,39.0343,天津市,第四大街,,31,31,32,14,16,95,24,35,33,43,33,9,7,1.0,0.9
2023-08-28T07:00:00,1024A,117.457,38.8394,天津市,永明路,颗粒物(PM10),53,56,42,26,19,111,19,26,24,42,36,13,11,1.3,0.9
2023-08-28T07:00:00,1026A,117.764,39.1587,天津市,汉北路,,28,28,28,11,14,100,38,33,33,31,26,10,9,0.8,0.9
2023-08-28T07:00:00,1027A,117.157,38.9194,天津市,团泊洼,颗粒物(PM10),56,61,35,34,22,92,29,30,30,37,34,5,4,1.0,0.9
2023-08-28T07:00:00,1029A,114.4422,38.0444,石家庄市,职工医院,,25,24,15,17,12,87,27,32,26,26,19,5,2,0.7,0.4
2023-08-28T07:00:00,1030A,114.6063,38.0266,石家庄市,高新区,,30,30,19,10,10,86,27,45,33,34,19,1,1,0.6,0.4
2023-08-28T07:00:00,1031A,114.4898,38.1328,石家庄市,西北水源,,22,18,10,15,11,85,27,56,35,32,14,3,3,0.5,0.4
2023-08-28T07:00:00,1032A,114.4586,38.0058,石家庄市,西南高教,,24,24,15,8,8,85,36,45,40,18,11,4,2,0.7,0.4
2023-08-28T07:00:00,1033A,114.5331,38.0178,石家庄市,世纪公园,,28,28,24,16,12,80,28,39,33,26,16,3,2,0.6,0.4
2023-08-28T07:00:00,1034A,114.509,38.0457,石家庄市,人民会堂,,22,22,17,12,6,89,26,42,30,30,19,6,4,0.7,0.4
2023-08-28T07:00:00,1035A,114.3524,37.8911,石家庄市,封龙山,,31,19,13,12,12,117,97,95,95,6,6,1,3,0.8,0.6
2023-08-28T07:00:00,1037A,118.131,39.6363,唐山市,雷达站,,32,32,42,22,18,108,44,47,47,22,24,4,6,0.4,0.7
2023-08-28T07:00:00,1038A,118.1725,39.6334,唐山市,物资局,,40,40,51,13,20,94,33,58,39,32,25,8,9,0.8,0.9
2023-08-28T07:00:00,1040A,118.1705,39.6506,唐山市,十二中,,,,37,,20,61,,57,,,25,,7,,1.0
2023-08-28T07:00:00,1041A,118.1869,39.622,唐山市,小山,,34,34,41,11,13,95,28,55,36,36,25,7,7,0.5,0.9
2023-08-28T07:00:00,1042A,119.5134,39.8207,秦皇岛市,北戴河环保局,,27,27,27,6,5,88,83,82,82,17,21,11,11,0.2,0.1
2023-08-28T07:00:00,1043A,119.7493,40.0116,秦皇岛市,第一关,,,,17,,11,60,,51,,,27,,10,,0.2
2023-08-28T07:00:00,1044A,119.5897,39.9499,秦皇岛市,监测站,,28,28,28,9,10,80,64,80,71,22,22,7,7,0.3,0.3
2023-08-28T07:00:00,1046A,119.5251,39.9041,秦皇岛市,建设大厦,,41,41,34,8,8,67,52,57,56,21,23,5,3,0.3,0.4
2023-08-28T07:00:00,1048A,114.5302,36.6116,邯郸市,东污水处理厂,,34,34,23,17,12,92,82,69,69,8,12,4,4,0.5,0.4
2023-08-28T07:00:00,1049A,114.4918,36.5713,邯郸市,矿院,,28,22,16,19,11,93,77,64,64,10,10,1,3,0.6,0.4
2023-08-28T07:00:00,1050A,114.484,36.6133,邯郸市,丛台公园,,25,12,11,7,6,91,78,63,63,8,10,2,2,0.3,0.3
2023-08-28T07:00:00,1051A,115.493,38.8632,保定市,游泳馆,,,,18,,11,65,,71,,,21,,4,,0.1
2023-08-28T07:00:00,1052A,115.5213,38.8959,保定市,华电二区,,27,27,20,11,8,107,5,36,18,42,20,4,5,0.3,0.3
2023-08-28T07:00:00,1053A,115.4713,38.9108,保定市,接待中心,,28,28,24,6,7,101,38,39,38,20,16,10,10,0.3,0.3
2023-08-28T07:00:00,1054A,115.4612,38.8416,保定市,地表水厂,,37,37,34,14,13,97,18,31,22,54,31,8,8,0.1,0
2023-08-28T07:00:00,1056A,115.5086,38.8639,保定市,监测站,,19,16,17,12,13,111,32,51,38,37,20,6,5,0.4,0.3
2023-08-28T07:00:00,1057A,114.8883,40.8336,张家口市,人民公园,,20,20,24,3,6,121,27,51,37,8,10,2,3,0.2,0.2
2023-08-28T07:00:00,1059A,114.8687,40.8042,张家口市,五金库,,26,23,30,18,13,117,30,60,45,11,11,4,4,0.4,0.4
2023-08-28T07:00:00,1060A,114.8902,40.762,张家口市,世纪豪园,,23,21,27,16,15,118,32,49,42,12,15,4,7,0.1,0.1
2023-08-28T07:00:00,1061A,114.8916,40.8661,张家口市,北泵房,,20,20,19,8,9,127,28,46,37,6,7,6,6,0.2,0.3
2023-08-28T07:00:00,1062A,117.9531,40.9081,承德市,铁路,,29,29,22,13,6,90,4,10,8,36,27,8,8,0.3,0.3
2023-08-28T07:00:00,1063A,117.9392,40.9763,承德市,中国银行,,40,40,20,8,8,100,13,20,19,20,17,7,8,0.4,0.4
2023-08-28T07:00:00,1064A,117.9503,40.928,承德市,开发区,,27,27,27,16,11,103,19,26,25,28,21,6,6,0.3,0.3
2023-08-28T07:00:00,1065A,117.8051,40.9655,承德市,文化中心,,44,44,28,13,6,99,6,8,6,37,30,4,5,0.4,0.4
2023-08-28T07:00:00,1066A,117.9268,41.0026,承德市,离宫,,28,26,19,19,16,92,12,16,15,11,15,2,2,0.3,0.3
2023-08-28T07:00:00,1067A,116.6708,39.5111,廊坊市,药材公司,颗粒物(PM10),53,55,57,25,33,118,6,50,20,53,37,1,2,0.6,0.8
2023-08-28T07:00:00,1068A,116.7214,39.5589,廊坊市,开发区,颗粒物(PM10),52,53,49,33,32,122,4,26,9,54,32,1,2,0.6,0.6
2023-08-28T07:00:00,1070A,116.7244,39.5269,廊坊市,北华航天学院,颗粒物(PM10),56,62,63,26,33,121,8,63,21,49,32,2,3,0.5,0.7
2023-08-28T07:00:00,1071A,116.8842,38.2991,沧州市,沧县城建局,颗粒物(PM10),51,51,36,28,23,96,30,27,27,36,23,6,4,0.9,0.7
2023-08-28T07:00:00,1072A,116.8584,38.3254,沧州市,电视转播站,细颗粒物(PM2.5),62,72,42,44,30,83,28,21,21,32,26,2,3,0.7,0.6
2023-08-28T07:00:00,1073A,116.8709,38.3228,沧州市,市环保局,颗粒物(PM10),53,55,41,32,28,90,23,19,19,42,33,2,4,0.6,0.4
2023-08-28T07:00:00,1074A,115.6838,37.7541,衡水市,电机北厂,,39,39,21,16,15,98,15,34,23,19,12,5,4,0.5,0.4
2023-08-28T07:00:00,1075A,115.6303,37.7316,衡水市,市监测站,,36,36,20,10,7,101,17,40,27,21,14,3,3,0.4,0.4
2023-08-28T07:00:00,1077A,114.4704,37.0886,邢台市,达活泉,,30,19,14,11,5,102,93,81,81,3,4,2,2,0.4,0.3
2023-08-28T07:00:00,1078A,114.5062,37.0349,邢台市,邢师高专,,29,27,16,16,8,97,91,76,76,4,6,6,5,0.4,0.3
2023-08-28T07:00:00,1079A,114.5237,37.0851,邢台市,路桥公司,,25,24,16,4,4,94,78,69,69,4,7,10,9,0.5,0.4
2023-08-28T07:00:00,1080A,114.4725,37.0719,邢台市,市环保局,,29,26,15,13,7,97,92,81,81,2,4,5,4,0.5,0.4
2023-08-28T07:00:00,1081A,112.522,37.8873,太原市,尖草坪,,13,11,14,9,10,92,33,34,33,24,20,4,4,0.5,0.6
2023-08-28T07:00:00,1083A,112.434,38.0108,太原市,上兰,,,,,,,,,,,,,,,,
2023-08-28T07:00:00,1084A,112.469,37.7124,太原市,晋源,,16,14,12,7,9,89,22,53,45,31,23,1,3,0.5,0.7
2023-08-28T07:00:00,1085A,112.5583,37.7394,太原市,小店,,25,25,18,14,13,78,22,59,26,38,29,5,4,0.6,0.7
2023-08-28T07:00:00,1086A,112.5369,37.8692,太原市,桃园,,14,9,17,9,11,83,28,46,30,28,23,5,4,0.7,0.7
2023-08-28T07:00:00,1087A,112.57,37.8195,太原市,坞城,,15,13,15,10,11,81,35,59,42,25,20,7,6,0.7,0.6
2023-08-28T07:00:00,1088A,112.549,37.9854,太原市,南寨,,20,20,12,6,7,92,8,16,10,31,21,3,3,0.5,0.5
2023-08-28T07:00:00,1090A,111.6507,40.7517,呼和浩特市,呼市一监,,31,31,26,20,14,120,15,56,40,19,15,5,6,0.5,0.5
2023-08-28T07:00:00,1091A,111.6572,40.8033,呼和浩特市,小召,,41,41,28,17,13,125,30,75,56,39,20,6,6,0.7,0.7
2023-08-28T07:00:00,1094A,111.7516,40.8369,呼和浩特市,如意水处理厂,颗粒物(PM10),53,55,28,25,11,118,22,57,22,30,23,6,6,0.5,0.5
2023-08-28T07:00:00,1095A,111.7276,40.8062,呼和浩特市,二十九中,,38,38,28,24,13,121,11,82,34,44,21,6,7,0.6,0.6
2023-08-28T07:00:00,1096A,111.5512,40.7866,呼和浩特市,工大金川校区,,43,41,36,30,15,127,15,63,45,41,20,6,7,0.6,0.4
2023-08-28T07:00:00,1097A,111.717,40.7612,呼和浩特市,化肥厂生活区,,48,48,38,16,12,126,13,73,42,38,21,6,6,0.5,0.5
2023-08-28T07:00:00,1098A,123.6836,41.9339,沈阳市,森林路,,,,,,,,,,,,,,,,
2023-08-28T07:00:00,1099A,123.505,41.7406,沈阳市,浑南东路,,19,19,24,8,11,94,44,64,54,25,16,10,11,0.5,0.5
2023-08-28T07:00:00,1100A,123.4231,41.6989,沈阳市,新秀街,,19,19,22,5,9,95,49,66,58,22,14,9,8,0.7,0.7
2023-08-28T07:00:00,1102A,123.5903,41.8411,沈阳市,东陵路,,22,22,19,10,7,83,28,38,32,16,14,6,6,0.4,0.3
2023-08-28T07:00:00,1103A,123.4264,41.8467,沈阳市,陵东街,,31,31,25,18,11,100,16,24,17,39,30,6,6,0.5,0.4
2023-08-28T07:00:00,1104A,123.4114,41.7653,沈阳市,文化路,,36,36,27,18,9,105,40,62,52,31,20,8,7,0.5,0.4
2023-08-28T07:00:00,1105A,123.4678,41.7867,沈阳市,小河沿,,23,23,23,9,7,99,40,57,48,31,22,6,5,0.6,0.5
2023-08-28T07:00:00,1106A,123.4017,41.7972,沈阳市,太原街,,31,31,28,21,15,99,29,45,31,35,25,8,7,0.6,0.5
2023-08-28T07:00:00,1108A,123.3783,41.9228,沈阳市,京沈街,,29,29,27,18,12,104,43,61,51,21,18,9,8,0.5,0.5
2023-08-28T07:00:00,1109A,121.612,38.9741,大连市,甘井子,,23,20,25,16,13,109,63,65,61,21,18,4,5,0.6,0.6
2023-08-28T07:00:00,1110A,121.565,38.9511,大连市,周水子,,23,19,27,16,18,107,37,47,42,35,26,10,12,0.5,0.5
2023-08-28T07:00:00,1111A,121.5637,38.8845,大连市,星海三站,,23,18,23,16,14,106,44,80,63,24,18,6,8,0.3,0.4
2023-08-28T07:00:00,1112A,121.6302,38.9117,大连市,青泥洼桥,,23,19,23,16,15,103,38,53,35,34,18,5,6,0.7,0.7
2023-08-28T07:00:00,1113A,121.6251,38.8638,大连市,傅家庄,,23,20,20,16,14,112,59,89,74,18,10,9,10,0.8,0.8
2023-08-28T07:00:00,1114A,121.5213,38.8661,大连市,七贤岭,,19,7,20,13,14,122,49,91,65,17,15,6,6,0.5,0.5
2023-08-28T07:00:00,1115A,121.2529,38.8061,大连市,旅顺,,27,16,26,7,15,118,85,87,87,9,11,4,6,0.5,0.7
2023-08-28T07:00:00,1116A,121.7485,39.1311,大连市,金州,,,,21,,14,81,,76,,,13,,7,,0.6
2023-08-28T07:00:00,1117A,121.7811,39.0496,大连市,开发区,,27,17,21,9,14,104,84,69,69,16,16,5,7,0.5,0.5
2023-08-28T07:00:00,1118A,121.9762,39.0631,大连市,双D港,,26,19,19,18,13,110,46,53,52,13,13,7,7,0.5,0.4
2023-08-28T07:00:00,1119A,125.3325,43.9166,长春市,食品厂,,44,44,31,15,14,78,38,32,29,25,23,4,5,0.5,0.4
2023-08-28T07:00:00,1120A,125.2863,43.9027,长春市,客车厂,,31,31,26,12,11,80,34,30,26,34,26,5,5,0.5,0.4
2023-08-28T07:00:00,1121A,125.2841,43.8463,长春市,邮电学院,,19,19,22,6,7,84,43,33,33,21,15,5,5,0.4,0.3
2023-08-28T07:00:00,1122A,125.3716,43.8772,长春市,劳动公园,,49,49,35,11,9,86,25,22,18,37,28,8,8,0.3,0.2
2023-08-28T07:00:00,1123A,125.3297,43.8805,长春市,园林处,,33,33,25,4,7,83,41,33,33,27,21,6,6,0.5,0.4
2023-08-28T07:00:00,1124A,125.4605,43.79,长春市,净月潭,,15,14,11,5,2,91,46,55,45,10,9,5,7,0.3,0.2
2023-08-28T07:00:00,1125A,125.7194,43.515,长春市,甩湾子,,,,,,,,,,,,,,,,
2023-08-28T07:00:00,1126A,125.3863,43.8447,长春市,经开区环卫处,,24,24,29,9,9,86,31,10,10,27,28,5,6,0.4,0.4
2023-08-28T07:00:00,1127A,125.245,43.7783,长春市,高新区管委会,,42,42,29,9,10,81,32,24,24,30,25,5,5,0.5,0.5
2023-08-28T07:00:00,1128A,125.1761,43.8325,长春市,岱山公园,颗粒物(PM10),53,55,73,4,28,25,22,20,15,45,50,4,4,0.8,0.8
2023-08-28T07:00:00,1129A,126.5422,45.755,哈尔滨市,岭北,,28,28,17,17,10,77,15,12,9,26,20,14,12,0.4,0.4
2023-08-28T07:00:00,1130A,126.561,45.8167,哈尔滨市,松北商大,,32,32,23,10,8,56,5,4,4,33,26,6,6,0.7,0.6
2023-08-28T07:00:00,1131A,126.979,45.5419,哈尔滨市,阿城会宁,,33,33,36,17,12,84,6,5,5,18,17,5,6,0.6,0.6
2023-08-28T07:00:00,1132A,126.599,45.7222,哈尔滨市,南岗学府路,颗粒物(PM10),51,52,36,14,12,74,4,3,2,45,25,5,5,1.0,0.8
2023-08-28T07:00:00,1133A,126.689,45.7733,哈尔滨市,太平宏伟公园,颗粒物(PM10),60,69,56,24,19,70,5,5,5,45,29,9,8,0.7,0.6
2023-08-28T07:00:00,1134A,126.635,45.7667,哈尔滨市,道外承德广场,,39,35,25,27,12,69,6,22,10,42,24,7,6,0.5,0.5
2023-08-28T07:00:00,1135A,126.685,45.7319,哈尔滨市,香坊红旗大街,颗粒物(PM10),71,91,62,36,25,77,6,8,6,43,31,25,13,1.1,0.8
2023-08-28T07:00:00,1136A,126.6411,45.7258,哈尔滨市,动力和平路,,,69,32,,,74,5,29,11,49,29,8,7,0.8,0.5
2023-08-28T07:00:00,1137A,126.593,45.7478,哈尔滨市,道里建国路,,50,50,33,14,12,70,14,10,9,39,26,7,5,0.6,0.5
2023-08-28T07:00:00,1138A,126.615,45.61,哈尔滨市,平房东轻厂,颗粒物(PM10),53,56,42,24,16,79,6,6,6,22,26,7,6,0.6,0.4
2023-08-28T07:00:00,1139A,126.595,45.9855,哈尔滨市,呼兰师专,,24,24,19,6,11,52,19,26,23,16,16,7,7,0.5,0.4
2023-08-28T07:00:00,1140A,126.6206,45.6842,哈尔滨市,省农科院,颗粒物(PM10),88,125,62,34,18,84,7,7,7,46,31,17,11,1.1,0.7
2023-08-28T07:00:00,1141A,121.4,31.238,上海市,普陀,,12,12,15,2,6,79,15,28,21,14,12,6,4,0.5,0.5
2023-08-28T07:00:00,1142A,121.478,31.2036,上海市,十五厂,,18,18,23,7,11,70,18,29,23,18,18,11,10,0.3,0.3
2023-08-28T07:00:00,1143A,121.467,31.3008,上海市,虹口,,12,12,16,7,7,75,18,27,23,19,19,6,6,0.4,0.4
2023-08-28T07:00:00,1144A,121.412,31.1654,上海市,徐汇上师大,,20,16,17,14,13,85,16,30,20,20,15,9,6,0.8,0.6
2023-08-28T07:00:00,1145A,121.536,31.2659,上海市,杨浦四漂,,14,14,18,4,7,75,19,33,26,13,15,5,5,0.6,0.6
2023-08-28T07:00:00,1147A,121.425,31.2261,上海市,静安监测站,,,,17,,8,56,,60,,,13,,2,,0.4
2023-08-28T07:00:00,1148A,121.703,31.1907,上海市,浦东川沙,,15,15,16,2,8,74,28,35,31,12,12,6,6,0.4,0.4
2023-08-28T07:00:00,1149A,121.533,31.2284,上海市,浦东新区监测站,,15,15,16,3,5,70,18,30,25,13,11,5,5,0.3,0.4
2023-08-28T07:00:00,1150A,121.577,31.2071,上海市,浦东张江,,14,14,16,4,6,67,20,31,25,15,11,5,5,0.5,0.5
2023-08-28T07:00:00,1151A,118.8086,32.1065,南京市,迈皋桥,,17,4,14,2,6,111,54,49,46,6,8,3,3,0.3,0.2
2023-08-28T07:00:00,1152A,118.7538,32.0551,南京市,草场门,,18,1,14,0,7,121,55,52,48,11,13,2,2,0.5,0.5
2023-08-28T07:00:00,1153A,118.7794,32.0745,南京市,山西路,,20,2,15,0,5,130,61,57,53,6,9,4,4,0.2,0.3
2023-08-28T07:00:00,1154A,118.7752,32.0023,南京市,中华门,,17,0,12,0,6,115,54,43,43,6,10,4,4,0.7,0.8
2023-08-28T07:00:00,1155A,118.8109,32.0309,南京市,瑞金路,,18,2,16,0,7,119,56,48,47,4,7,9,8,0.2,0.2
2023-08-28T07:00:00,1156A,118.7997,32.0754,南京市,玄武湖,,,,17,,5,68,,71,,,8,,5,,0.8
2023-08-28T07:00:00,1157A,118.6414,32.0931,南京市,浦口,,,,23,,9,65,,69,,,14,,6,,0.5
2023-08-28T07:00:00,1158A,118.7356,31.9996,南京市,奥体中心,,18,0,13,2,11,117,56,46,46,8,11,4,4,0.4,0.4
2023-08-28T07:00:00,1159A,118.9125,32.1028,南京市,仙林大学城,,19,7,13,5,7,129,60,48,46,9,9,8,8,0.7,0.6
2023-08-28T07:00:00,1160A,120.561,31.2472,苏州市,上方山,,13,13,18,6,12,106,21,30,25,8,7,7,7,0.3,0.3
2023-08-28T07:00:00,1162A,120.591,31.3019,苏州市,彩香,,13,13,19,6,10,112,15,25,18,13,8,8,7,0.6,0.6
2023-08-28T07:00:00,1163A,120.596,31.3264,苏州市,轧钢厂,,18,18,22,8,9,113,14,28,18,11,4,11,10,0.6,0.5
2023-08-28T07:00:00,1164A,120.613,31.2703,苏州市,吴中区,,19,19,22,7,9,113,13,26,16,19,10,12,9,0.5,0.4
2023-08-28T07:00:00,1165A,120.543,31.2994,苏州市,苏州新区,,15,15,19,6,8,111,23,31,26,8,7,8,8,0.6,0.6
2023-08-28T07:00:00,1166A,120.669,31.3097,苏州市,苏州工业园区,,18,18,19,7,9,110,15,28,20,11,6,9,8,0.5,0.4
2023-08-28T07:00:00,1167A,120.641,31.3708,苏州市,相城区,,,,22,,9,63,,64,,,10,,8,,0.5
2023-08-28T07:00:00,1168A,120.9098,31.9663,南通市,狼山街道,,12,7,11,2,1,102,14,21,12,23,18,11,9,0.4,0.4
2023-08-28T07:00:00,1169A,120.86,32.0005,南通市,虹桥,,8,7,16,4,8,101,17,27,20,16,15,6,6,0.5,0.5
2023-08-28T07:00:00,1170A,120.87,32.02,南通市,城中,,,,15,,5,64,,72,,,8,,6,,0.4
2023-08-28T07:00:00,1171A,120.94,31.93,南通市,星湖花园,,10,5,12,0,3,94,13,27,17,19,14,9,6,0.4,0.4
2023-08-28T07:00:00,1172A,120.81,32.0417,南通市,紫琅学院,,9,8,15,0,2,99,16,26,18,18,15,6,6,0.5,0.5
2023-08-28T07:00:00,1173A,119.176,34.5885,连云港市,市环境监测站,,27,0,7,2,3,108,86,107,97,11,8,7,6,0.5,0.4
2023-08-28T07:00:00,1177A,117.179,34.2761,徐州市,黄河新村,,20,17,11,14,10,101,63,79,70,17,14,8,8,0.4,0.3
2023-08-28T07:00:00,1178A,117.1918,34.2384,徐州市,淮塔,,21,15,9,13,8,104,67,77,73,10,9,8,7,0.8,0.6
2023-08-28T07:00:00,1180A,117.256,34.2153,徐州市,新城区,,24,19,13,16,8,111,75,83,80,9,8,4,4,0.6,0.5
2023-08-28T07:00:00,1181A,117.244,34.2911,徐州市,桃园路,,22,19,10,13,9,106,69,77,74,13,11,8,7,0.6,0.5
2023-08-28T07:00:00,1182A,117.2933,34.2778,徐州市,农科院,,25,14,8,17,18,108,72,80,77,11,12,6,6,0.5,0.3
2023-08-28T07:00:00,1186A,119.389,32.3761,扬州市,邗江监测站,,19,7,24,12,14,126,60,36,36,5,12,2,2,0.6,0.6
2023-08-28T07:00:00,1188A,120.269,31.4867,无锡市,雪浪,,17,17,26,7,6,120,22,37,30,11,7,6,4,0.5,0.4
2023-08-28T07:00:00,1189A,120.275,31.6219,无锡市,黄巷,,,,32,,9,70,,71,,,20,,6,,0.7
2023-08-28T07:00:00,1190A,120.294,31.56,无锡市,曹张,,20,20,23,5,8,103,15,30,22,18,15,8,7,0.6,0.6
2023-08-28T07:00:00,1191A,120.242,31.5031,无锡市,漆塘,,,,16,,9,76,,75,,,14,,6,,0.3
2023-08-28T07:00:00,1192A,120.3489,31.5863,无锡市,东亭,,,,24,,11,69,,72,,,19,,6,,0.4
2023-08-28T07:00:00,1193A,120.354,31.5475,无锡市,旺庄,,,,22,,10,69,,71,,,12,,9,,0.7
2023-08-28T07:00:00,1194A,120.245,31.5631,无锡市,荣巷,,10,9,17,7,8,117,20,36,29,10,8,10,10,0.6,0.6
2023-08-28T07:00:00,1195A,120.299,31.6817,无锡市,堰桥,,12,12,16,5,6,98,17,31,25,19,13,5,5,0.7,0.7
2023-08-28T07:00:00,1196A,119.9633,31.762,常州市,市监测站,,18,18,28,8,10,122,30,34,30,16,16,7,7,0.6,0.4
2023-08-28T07:00:00,1200A,119.9468,31.7069,常州市,武进监测站,,19,19,25,8,9,128,33,39,33,12,7,7,6,0.6,0.4
2023-08-28T07:00:00,1201A,119.9255,31.9087,常州市,安家,,15,5,24,10,15,130,40,40,35,13,14,4,5,0.6,0.6
2023-08-28T07:00:00,1203A,119.6707,32.1875,镇江市,新区办事处,,15,11,25,10,15,128,27,42,34,22,20,2,3,0.8,0.5
2023-08-28T07:00:00,1204A,119.4974,32.1968,镇江市,职教中心,,14,14,24,8,11,126,36,51,39,10,14,5,5,0.6,0.6
2023-08-28T07:00:00,1205A,119.4303,32.1328,镇江市,丹徒区监测站,,19,9,18,13,13,126,31,51,42,13,10,3,2,0.7,0.6
2023-08-28T07:00:00,1206A,119.905,32.4878,泰州市,公园路,,12,0,14,5,12,111,36,51,48,11,10,5,6,0.7,0.7
2023-08-28T07:00:00,1207A,119.9189,32.4625,泰州市,莲花,,13,2,15,0,8,106,39,51,49,9,9,3,3,0.7,0.6
2023-08-28T07:00:00,1209A,119.888,32.4639,泰州市,留学生创业园,,10,8,23,5,11,109,32,50,47,15,11,5,5,0.7,0.7
2023-08-28T07:00:00,1210A,119.036,33.5981,淮安市,钵池山,,,,8,,9,88,,88,,,11,,6,,0.6
2023-08-28T07:00:00,1211A,119.007,33.575,淮安市,北京南路,,,,6,,7,87,,87,,,10,,7,,0.6
2023-08-28T07:00:00,1212A,118.989,33.6067,淮安市,市监测站,,27,5,8,2,5,103,85,96,89,13,10,5,5,1.0,1
2023-08-28T07:00:00,1213A,119.135,33.5039,淮安市,楚州区监测站,,24,2,8,6,8,88,76,79,78,8,10,7,7,0.9,0.8
2023-08-28T07:00:00,1214A,119.0186,33.6297,淮安市,淮阴区监测站,,,,6,,10,88,,87,,,8,,6,,0.7
2023-08-28T07:00:00,1215A,120.118,33.4022,盐城市,盐城电厂,,22,12,15,5,7,112,70,67,63,3,4,7,7,0.6,0.5
2023-08-28T07:00:00,1216A,120.156,33.3942,盐城市,市监测站,,26,5,11,18,12,120,70,69,65,4,5,8,7,0.4,0.3
2023-08-28T07:00:00,1218A,120.2144,33.38,盐城市,开发区管委会,,,,16,,8,84,,89,,,7,,5,,0.4
2023-08-28T07:00:00,1220A,118.293,33.9528,宿迁市,宿迁学院,,30,7,9,7,7,108,96,97,91,7,7,8,9,0.4,0.5
2023-08-28T07:00:00,1221A,118.2442,33.9592,宿迁市,宿迁中学,,,8,9,6,7,107,98,95,89,,4,4,4,0.6,0.5
2023-08-28T07:00:00,1223A,120.2072,30.2111,杭州市,滨江,,21,21,18,7,9,105,16,39,23,18,10,7,6,0.5,0.5
2023-08-28T07:00:00,1224A,120.0633,30.2747,杭州市,西溪,,22,20,23,15,13,93,19,18,13,16,14,3,4,0.7,0.7
2023-08-28T07:00:00,1226A,120.3461,30.3153,杭州市,下沙,,20,20,21,6,10,102,14,27,17,25,18,6,5,0.5,0.4
2023-08-28T07:00:00,1227A,120.1269,30.2456,杭州市,卧龙桥,,19,19,20,12,11,106,11,24,10,21,15,4,4,0.7,0.5
2023-08-28T07:00:00,1228A,120.1903,30.2692,杭州市,浙江农大,,14,14,16,9,11,98,24,42,28,16,11,8,8,0.5,0.4
2023-08-28T07:00:00,1230A,120.1197,30.3119,杭州市,和睦小学,,18,18,22,9,14,115,26,43,32,25,18,8,7,0.8,0.6
2023-08-28T07:00:00,1231A,120.3019,30.4183,杭州市,临平镇,,18,18,18,9,9,112,14,32,22,23,15,5,4,0.5,0.5
2023-08-28T07:00:00,1232A,120.2697,30.1819,杭州市,城厢镇,,19,19,20,8,11,83,17,26,19,24,18,6,5,0.5,0.5
2023-08-28T07:00:00,1233A,120.0883,30.1808,杭州市,云栖,,,,22,,10,48,,46,,,14,,6,,0.8
2023-08-28T07:00:00,1234A,121.8358,29.911,宁波市,区环保大楼,,,,10,,7,38,,34,,,7,,3,,0.6
2023-08-28T07:00:00,1235A,121.56,29.82,宁波市,万里学院,,,,88,5,5,70,8,18,12,19,12,5,5,0.6,0.6
2023-08-28T07:00:00,1236A,121.713,29.9572,宁波市,龙赛医院,,7,7,8,3,5,57,19,28,23,10,6,6,6,0.4,0.4
2023-08-28T07:00:00,1239A,121.633,29.7733,宁波市,钱湖水厂,,7,7,8,3,5,66,13,18,16,4,3,5,5,0.6,0.6
2023-08-28T07:00:00,1240A,121.5856,29.8635,宁波市,太古小学,,9,8,12,3,6,67,14,22,19,17,11,6,5,0.7,0.6
2023-08-28T07:00:00,1241A,121.524,29.8674,宁波市,市环境监测中心,,13,13,12,3,5,77,17,24,20,9,7,6,5,0.3,0.3
2023-08-28T07:00:00,1242A,120.634,28.0089,温州市,瓯海,,30,30,16,10,9,51,5,9,5,23,18,6,6,0.6,0.4
2023-08-28T07:00:00,1243A,120.6748,27.9939,温州市,南浦,,24,24,18,9,9,50,8,15,7,22,18,5,5,0.5,0.5
2023-08-28T07:00:00,1244A,120.76,27.9747,温州市,龙湾,,27,27,17,10,7,47,7,5,5,24,20,8,6,0.5,0.4
2023-08-28T07:00:00,1245A,120.6709,28.0167,温州市,市站,,,,18,,6,24,,22,,,16,,5,,0.4
2023-08-28T07:00:00,1247A,120.6053,29.9928,绍兴市,城东开发委,,13,13,13,6,7,74,20,36,28,15,9,5,5,0.2,0.2
2023-08-28T07:00:00,1250A,120.0751,30.8669,湖州市,城西水厂,,,,28,,17,77,,73,,,18,,3,,0.4
2023-08-28T07:00:00,1252A,120.7436,30.778,嘉兴市,清河小学,,15,15,16,5,8,111,30,33,30,13,10,7,6,0.6,0.5
2023-08-28T07:00:00,1253A,120.726,30.7478,嘉兴市,嘉兴学院,,15,15,16,9,9,128,22,30,25,14,11,6,4,0.4,0.4
2023-08-28T07:00:00,1255A,121.273,28.6459,台州市,黄岩环保大楼,,38,38,26,17,11,86,4,1,1,10,15,5,4,0.7,0.6
2023-08-28T07:00:00,1256A,121.419,28.6542,台州市,台州环保大楼,,22,22,18,11,8,60,12,16,12,16,10,5,5,0.6,0.4
2023-08-28T07:00:00,1257A,121.377,28.5773,台州市,路桥田洋王,,27,27,18,16,12,71,4,10,3,18,14,3,3,0.6,0.4
2023-08-28T07:00:00,1258A,122.122,30.0203,舟山市,定海檀枫,,13,13,13,5,6,52,17,28,24,14,9,6,6,0.4,0.4
2023-08-28T07:00:00,1259A,122.3094,29.9558,舟山市,普陀东港,,7,7,8,4,5,54,17,32,26,8,6,4,4,0.4,0.4
2023-08-28T07:00:00,1260A,122.19,29.9944,舟山市,临城新区,,7,6,9,2,4,54,21,34,28,7,7,6,7,0.4,0.4
2023-08-28T07:00:00,1262A,119.647,29.077,金华市,十五中,,26,26,16,12,9,72,10,22,17,29,20,3,3,0.4,0.4
2023-08-28T07:00:00,1263A,119.686,29.1029,金华市,监测站,,,,27,,11,37,,36,,,22,,4,,0.6
2023-08-28T07:00:00,1264A,118.8692,28.9398,衢州市,环保大楼,,26,26,26,15,15,129,2,14,7,27,21,3,3,0.5,0.5
2023-08-28T07:00:00,1265A,118.8709,28.9666,衢州市,实验学校,,,,28,,19,51,,50,,,18,,7,,0.3
2023-08-28T07:00:00,1266A,118.8621,28.9808,衢州市,衢州学院,,17,17,24,8,15,132,5,15,6,22,23,3,5,0.4,0.4
2023-08-28T07:00:00,1267A,119.914,28.4514,丽水市,监测站大楼,,10,10,16,6,7,73,14,26,15,14,10,5,6,0.3,0.3
2023-08-28T07:00:00,1268A,119.93,28.4586,丽水市,莲都小学,,13,13,17,2,5,72,9,33,10,14,11,5,5,0.3,0.3
2023-08-28T07:00:00,1269A,119.879,28.4231,丽水市,余庄前,,29,29,20,10,7,87,6,13,6,13,10,5,5,0.4,0.3
2023-08-28T07:00:00,1270A,117.1959,31.7848,合肥市,明珠广场,,22,2,20,0,12,78,68,64,64,8,11,5,6,0.6,0.6
2023-08-28T07:00:00,1271A,117.3072,31.8764,合肥市,三里街,,20,0,20,5,16,82,64,60,60,12,14,4,4,0.3,0.4
2023-08-28T07:00:00,1272A,117.2588,31.8707,合肥市,琥珀山庄,,23,2,19,2,10,90,72,67,67,7,10,4,4,0.5,0.6
2023-08-28T07:00:00,1273A,117.1604,31.9052,合肥市,董铺水库,,23,0,14,0,8,88,71,70,70,5,8,3,4,0.3,0.4
2023-08-28T07:00:00,1274A,117.25,31.8571,合肥市,长江中路,,22,7,23,3,14,84,69,62,62,6,8,6,6,0.4,0.5
2023-08-28T07:00:00,1275A,117.266,31.9436,合肥市,庐阳区,,22,2,24,7,16,85,69,66,66,6,11,4,5,0.4,0.5
2023-08-28T07:00:00,1276A,117.336,31.8586,合肥市,瑶海区,,20,7,23,1,13,85,63,58,58,8,9,4,4,0.6,0.6
2023-08-28T07:00:00,1277A,117.3027,31.7964,合肥市,包河区,,20,2,22,2,13,92,61,59,59,14,14,8,9,0.4,0.5
2023-08-28T07:00:00,1278A,117.2776,31.7385,合肥市,滨湖新区,,20,2,20,5,12,84,61,57,57,12,10,5,6,0.4,0.5
2023-08-28T07:00:00,1279A,117.1318,31.8403,合肥市,高新区,,24,5,20,6,14,86,74,71,71,8,9,7,9,0.5,0.6
2023-08-28T07:00:00,1280A,119.3903,26.0543,福州市,鼓山,,,,,,,,,,,,,,,,
2023-08-28T07:00:00,1282A,119.2681,26.0504,福州市,师大,,31,31,21,9,7,111,24,39,28,8,6,4,4,0.3,0.3
2023-08-28T07:00:00,1283A,119.2984,26.1028,福州市,五四北路,,31,31,22,10,7,95,18,53,23,13,10,2,2,0.4,0.3
2023-08-28T07:00:00,1284A,119.2648,26.0768,福州市,杨桥西路,,30,30,23,9,8,105,17,36,18,12,10,3,3,0.4,0.3
2023-08-28T07:00:00,1285A,119.317,26.0746,福州市,紫阳,,33,33,23,10,7,94,15,45,24,15,9,3,3,0.4,0.3
2023-08-28T07:00:00,1286A,118.1608,24.8169,厦门市,溪东,,,,,,,,,,,,,,,,
2023-08-28T07:00:00,1287A,118.1514,24.4767,厦门市,洪文,,,,29,,15,46,,40,,,8,,2,,0.2
2023-08-28T07:00:00,1288A,118.0661,24.4444,厦门市,鼓浪屿,,35,34,29,24,20,96,12,37,19,27,19,10,4,0.4,0.4
2023-08-28T07:00:00,1290A,115.8931,28.6843,南昌市,省外办,,17,10,21,2,12,106,53,39,39,6,9,3,4,0.6,0.5
2023-08-28T07:00:00,1291A,115.8886,28.7003,南昌市,省林业公司,,16,0,14,5,11,109,50,38,38,16,18,3,5,0.6,0.5
2023-08-28T07:00:00,1292A,115.8126,28.7442,南昌市,林科所,,,,16,,10,116,57,45,45,3,12,4,7,0.6,0.8
2023-08-28T07:00:00,1294A,115.8518,28.687,南昌市,建工学校,,20,9,17,10,8,120,62,48,48,2,7,8,9,0.6,0.5
2023-08-28T07:00:00,1295A,115.8921,28.6424,南昌市,象湖,,,,11,,13,64,,59,,,13,,5,,0.5
2023-08-28T07:00:00,1296A,115.7423,28.7996,南昌市,武术学校,,,,19,,21,62,,49,,,9,,13,,0.4
2023-08-28T07:00:00,1298A,115.9314,28.6842,南昌市,省站,,20,2,20,1,10,113,61,48,48,4,7,6,6,0.7,0.6
2023-08-28T07:00:00,1299A,116.9862,36.6114,济南市,科干所,,31,31,19,20,15,73,47,46,44,23,24,9,7,0.6,0.5
2023-08-28T07:00:00,1300A,116.9376,36.665,济南市,农科所,,34,34,16,17,10,73,38,55,43,24,25,8,6,0.4,0.4
2023-08-28T07:00:00,1301A,117.1265,36.6734,济南市,开发区,,24,24,15,12,8,75,49,43,43,22,22,7,5,0.7,0.5
2023-08-28T07:00:00,1303A,117.0624,36.6868,济南市,省种子仓库,,27,27,20,17,11,72,45,38,38,19,19,7,5,0.6,0.5
2023-08-28T07:00:00,1304A,116.9489,36.6447,济南市,机床二厂,,22,22,14,12,8,73,44,52,49,24,24,10,7,0.7,0.6
2023-08-28T07:00:00,1305A,117.0495,36.663,济南市,市监测站,,29,24,17,20,12,71,55,44,44,22,27,4,2,0.5,0.4
2023-08-28T07:00:00,1306A,116.7675,36.5484,济南市,长清党校,,35,32,20,24,16,73,47,50,50,18,22,10,6,0.4,0.4
2023-08-28T07:00:00,1307A,120.6659,36.2403,青岛市,仰口,,24,0,6,7,9,85,74,79,75,3,4,6,6,0.2,0.3
2023-08-28T07:00:00,1310A,120.4134,36.0658,青岛市,市南区东部子站,,32,2,8,0,6,113,101,113,107,9,17,5,5,0.4,0.5
2023-08-28T07:00:00,1311A,120.3664,36.1032,青岛市,四方区子站,,30,0,10,0,6,108,96,106,105,10,19,5,5,0.4,0.5
2023-08-28T07:00:00,1312A,120.2994,36.054,青岛市,市南区西部子站,,30,5,12,2,5,102,96,96,96,11,19,4,6,0.4,0.5
2023-08-28T07:00:00,1313A,120.4581,36.0858,青岛市,崂山区子站,,35,0,8,2,6,115,110,115,109,8,17,7,7,0.2,0.3
2023-08-28T07:00:00,1314A,120.1983,35.9608,青岛市,黄岛区子站,,31,5,7,5,8,98,98,97,96,18,37,5,6,0.4,0.5
2023-08-28T07:00:00,1315A,120.3999,36.3083,青岛市,城阳区子站,,32,7,15,2,9,111,102,106,105,9,14,5,5,0.3,0.4
2023-08-28T07:00:00,1316A,113.69031,34.76122,郑州市,烟厂,,21,21,13,14,6,84,48,76,64,20,13,3,2,0.6,0.5
2023-08-28T07:00:00,1317A,113.65724,34.77134,郑州市,郑纺机,,,22,13,,,88,48,78,62,18,9,3,2,0.8,0.7
2023-08-28T07:00:00,1318A,113.67526,34.80246,郑州市,银行学校,,35,21,11,24,11,86,45,74,61,14,9,4,3,0.8,0.5
2023-08-28T07:00:00,1319A,113.56746,34.81334,郑州市,供水公司,,23,23,13,12,5,87,49,72,59,19,14,3,2,0.7,0.5
2023-08-28T07:00:00,1320A,113.7329,34.7178,郑州市,经开区管委,,22,20,12,15,8,86,49,71,62,14,9,4,4,0.6,0.5
2023-08-28T07:00:00,1321A,113.73961,34.77172,郑州市,四十七中,,,,,,,,,,,,,,,,
2023-08-28T07:00:00,1322A,113.60532,34.74838,郑州市,市监测站,,34,34,16,16,6,86,48,77,60,16,9,8,3,0.9,0.7
2023-08-28T07:00:00,1323A,113.64164,34.7525,郑州市,河医大,,29,29,14,11,6,76,39,60,50,27,17,6,4,0.8,0.7
2023-08-28T07:00:00,1324A,113.51488,34.91089,郑州市,岗李水库,,,,,,,,,,,,,,,,
2023-08-28T07:00:00,1325A,114.3677,30.5584,武汉市,东湖梨园,,21,5,12,2,6,84,66,81,75,10,12,6,6,0.5,0.6
2023-08-28T07:00:00,1326A,114.2529,30.558,武汉市,汉阳月湖,,18,7,11,5,4,72,56,64,63,12,14,5,6,0.4,0.5
2023-08-28T07:00:00,1327A,114.282,30.6189,武汉市,汉口花桥,,,,15,,7,62,,58,,,13,,5,,0.6
2023-08-28T07:00:00,1328A,114.3025,30.5332,武汉市,武昌紫阳,,21,7,12,2,8,86,65,82,75,9,11,7,7,0.4,0.5
2023-08-28T07:00:00,1329A,114.3646,30.6217,武汉市,青山钢花,,19,11,12,7,10,84,60,81,73,10,11,8,8,0.4,0.5
2023-08-28T07:00:00,1330A,114.1566,30.4825,武汉市,沌口新区,,22,12,13,4,10,86,68,79,75,10,12,7,6,0.5,0.6
2023-08-28T07:00:00,1331A,114.3014,30.5944,武汉市,汉口江滩,,20,2,11,1,5,84,62,76,70,6,8,6,6,0.4,0.5
2023-08-28T07:00:00,1333A,114.135,30.6319,武汉市,吴家山,,21,12,11,2,4,82,65,78,72,8,11,7,7,0.5,0.6
2023-08-28T07:00:00,1334A,113.8454,30.2917,武汉市,沉湖七壕,,,,10,,7,66,,58,,,12,,4,,0.7
2023-08-28T07:00:00,1335A,113.0833,28.2325,长沙市,经开区环保局,,,,17,,9,59,,54,,,9,,7,,0.4
2023-08-28T07:00:00,1336A,112.8872,28.2189,长沙市,高开区环保局,,22,7,12,6,11,82,68,76,72,2,4,5,7,0.5,0.6
2023-08-28T07:00:00,1337A,113.0792,28.2053,长沙市,马坡岭,,22,7,17,1,8,99,70,70,68,6,10,4,6,0.6,0.7
2023-08-28T07:00:00,1338A,112.9394,28.19,长沙市,湖南师范大学,,21,7,16,12,14,82,66,76,71,6,6,3,4,0.6,0.6
2023-08-28T07:00:00,1339A,113.0178,28.1322,长沙市,雨花区环保局,,20,4,15,6,10,93,62,70,65,7,8,5,6,0.3,0.4
2023-08-28T07:00:00,1340A,112.9792,28.2597,长沙市,伍家岭,,19,1,13,2,11,91,60,73,66,10,9,2,4,0.6,0.6
2023-08-28T07:00:00,1341A,113.0014,28.1944,长沙市,火车新站,,19,8,10,2,7,87,60,71,65,5,7,5,6,0.6,0.6
2023-08-28T07:00:00,1342A,112.9844,28.1178,长沙市,天心区环保局,,,,13,,8,63,,55,,,7,,5,,0.5
2023-08-28T07:00:00,1343A,112.8908,28.1308,长沙市,湖南中医药大学,,21,10,20,1,8,87,66,78,72,2,5,2,3,0.7,0.8
2023-08-28T07:00:00,1344A,112.9581,28.3611,长沙市,沙坪,,37,37,35,2,8,75,67,73,68,4,7,6,7,0.5,0.5
2023-08-28T07:00:00,1345A,113.2347,23.1423,广州市,广雅中学,,13,13,21,1,8,134,27,39,33,22,19,5,5,0.7,0.7
2023-08-28T07:00:00,1346A,113.2612,23.105,广州市,市五中,,13,11,22,8,11,147,39,38,33,8,14,5,5,0.7,0.8
2023-08-28T07:00:00,1348A,113.3478,23.0916,广州市,广东商学院,,23,23,24,8,12,131,29,23,17,15,19,3,3,0.5,0.5
2023-08-28T07:00:00,1349A,113.4332,23.1047,广州市,市八十六中,,28,28,23,13,10,106,7,20,8,32,24,5,5,0.6,0.5
2023-08-28T07:00:00,1350A,113.3505,22.9483,广州市,番禺中学,,13,13,17,8,10,139,22,34,27,22,18,5,4,0.6,0.7
2023-08-28T07:00:00,1351A,113.2146,23.3916,广州市,花都师范,,19,16,31,8,15,132,7,30,16,38,25,6,6,0.8,0.7
2023-08-28T07:00:00,1352A,113.2597,23.1331,广州市,市监测站,,10,8,23,5,11,134,29,45,36,18,19,6,6,0.7,0.7
2023-08-28T07:00:00,1353A,113.5618,23.312,广州市,九龙镇镇龙,,32,32,33,13,16,138,6,12,9,20,26,6,6,0.4,0.4
2023-08-28T07:00:00,1354A,113.2765,23.1544,广州市,麓湖,,19,19,20,8,10,134,10,37,25,31,16,5,5,0.8,0.7
2023-08-28T07:00:00,1355A,113.443,23.3035,广州市,帽峰山森林公园,,25,25,20,12,13,132,7,18,9,19,21,7,7,0.4,0.4
2023-08-28T07:00:00,1356A,114.1063,22.5545,深圳市,通心岭子站,,16,16,15,6,6,61,12,27,20,18,13,4,4,0.6,0.6
2023-08-28T07:00:00,1357A,114.117,22.5625,深圳市,洪湖,,27,27,20,7,7,58,3,30,17,23,13,5,5,0.6,0.5
2023-08-28T07:00:00,1358A,113.987,22.5417,深圳市,华侨城,,18,15,15,12,10,58,20,28,20,14,13,6,6,0.6,0.7
2023-08-28T07:00:00,1359A,113.9181,22.5171,深圳市,南海子站,,,,32,,10,38,,36,,,17,,5,,0.7
2023-08-28T07:00:00,1360A,114.2458,22.5689,深圳市,盐田,,20,20,17,6,4,54,9,12,11,25,18,4,4,0.7,0.7
2023-08-28T07:00:00,1361A,114.2283,22.7244,深圳市,龙岗,,35,35,19,18,7,64,6,40,23,28,14,8,7,0.9,0.8
2023-08-28T07:00:00,1363A,114.494,22.5422,深圳市,南澳,,15,15,15,7,7,67,21,22,21,10,9,5,5,0.6,0.7
2023-08-28T07:00:00,1364A,114.41,22.6342,深圳市,葵涌,,22,22,19,8,6,62,16,14,14,8,10,4,4,0.5,0.5
2023-08-28T07:00:00,1365A,114.297,22.5978,深圳市,梅沙,,19,19,17,6,6,60,15,21,18,9,9,5,5,0.6,0.5
2023-08-28T07:00:00,1366A,114.0678,22.738,深圳市,观澜,,39,39,29,18,11,82,4,4,3,24,24,8,8,0.7,0.6
2023-08-28T07:00:00,1367A,113.5814,22.2618,珠海市,吉大,,12,11,11,4,8,66,37,50,45,7,8,4,4,0.6,0.6
2023-08-28T07:00:00,1368A,113.4881,22.2335,珠海市,前山,,14,11,12,3,6,63,10,37,27,28,13,7,7,0.4,0.3
2023-08-28T07:00:00,1369A,113.628,22.4251,珠海市,唐家,,13,11,12,8,6,66,41,39,37,3,5,4,4,0.4,0.4
2023-08-28T07:00:00,1370A,113.299,22.2281,珠海市,斗门,,12,12,15,6,8,62,31,45,37,16,6,6,5,0.5,0.5
2023-08-28T07:00:00,1371A,113.1294,23.0067,佛山市,湾梁,,14,7,13,8,11,127,14,36,30,27,13,5,6,0.5,0.5
2023-08-28T07:00:00,1372A,113.1083,23.0478,佛山市,华材职中,,16,9,16,11,12,125,14,33,28,26,14,7,7,0.3,0.3
2023-08-28T07:00:00,1373A,113.144,23.0453,佛山市,南海气象局,,,,23,9,12,110,11,14,9,17,17,5,5,0.5,0.5
2023-08-28T07:00:00,1374A,113.2881,22.8094,佛山市,顺德苏岗,,12,2,4,7,10,116,36,20,20,6,14,5,6,0.6,0.7
2023-08-28T07:00:00,1376A,112.8383,22.8678,佛山市,高明孔堂,,,,22,,10,56,,50,,,9,,5,,0.5
2023-08-28T07:00:00,1377A,112.8836,23.1588,佛山市,三水监测站,,,,25,,16,58,,53,,,22,,4,,0.6
2023-08-28T07:00:00,1378A,112.867,23.185,佛山市,三水云东海,,32,32,22,16,13,122,4,18,10,25,21,6,6,0.6,0.5
2023-08-28T07:00:00,1379A,113.3769,22.5211,中山市,华柏园,,,,18,,10,50,,48,,,9,,4,,0.5
2023-08-28T07:00:00,1380A,113.3881,22.5497,中山市,张溪,,23,23,20,0,0,93,21,49,31,11,7,3,3,0.4,0.4
2023-08-28T07:00:00,1381A,113.4075,22.5111,中山市,紫马岭,,,20,14,8,10,86,17,32,18,,7,5,4,0.3,0.3
2023-08-28T07:00:00,1382A,113.4411,22.4853,中山市,长江旅游区,,,,,,,,,,,,,,,,
2023-08-28T07:00:00,1383A,113.1064,22.6058,江门市,北街,,21,21,19,11,10,84,15,30,24,15,10,5,5,0.4,0.4
2023-08-28T07:00:00,1384A,113.0731,22.5835,江门市,西区,,30,30,21,10,13,98,5,35,17,30,17,6,8,0.7,0.6
2023-08-28T07:00:00,1385A,113.0219,22.5311,江门市,圭峰西,,24,24,22,10,10,83,19,30,22,12,12,3,3,0.4,0.5
2023-08-28T07:00:00,1386A,113.0828,22.5947,江门市,东湖,,29,29,22,9,10,106,5,38,22,21,11,6,7,0.7,0.6
2023-08-28T07:00:00,1389A,113.7547,23.0494,东莞市,莞城梨川,,33,33,22,16,9,90,15,32,23,26,19,10,9,0.7,0.6
2023-08-28T07:00:00,1390A,113.7944,23.0128,东莞市,东城石井,,,,19,,9,45,,43,,,20,,6,,0.7
2023-08-28T07:00:00,1391A,113.7383,22.9658,东莞市,南城西平,,,,20,,9,42,,40,,,19,,4,,0.7
2023-08-28T07:00:00,1392A,114.4183,23.0528,惠州市,河南岸金山湖子站,,24,24,21,5,10,81,19,35,26,13,12,7,4,0.4,0.4
2023-08-28T07:00:00,1393A,114.4053,23.0822,惠州市,下埔横江三路子站,,21,21,19,10,10,89,25,37,32,12,10,4,5,0.4,0.4
2023-08-28T07:00:00,1394A,114.4103,23.1142,惠州市,江北云山西路子站,,32,32,18,14,9,96,10,35,25,17,7,6,6,0.4,0.3
2023-08-28T07:00:00,1395A,114.4645,22.7833,惠州市,惠阳区承修路船湖子站,,40,40,21,15,8,64,4,30,14,21,15,3,3,0.7,0.6
2023-08-28T07:00:00,1396A,114.5317,22.7422,惠州市,大亚湾管委会子站,,20,20,19,8,10,70,16,34,20,24,18,4,5,0.8,0.7
2023-08-28T07:00:00,1397A,112.4267,23.0706,肇庆市,睦岗子站,,42,42,28,23,17,105,7,29,18,24,16,41,20,0.4,0.3
2023-08-28T07:00:00,1398A,112.4645,23.0475,肇庆市,城中子站,,33,33,25,22,14,102,12,31,23,25,17,18,14,0.5,0.5
2023-08-28T07:00:00,1399A,112.5544,23.1522,肇庆市,坑口子站,,27,27,24,17,15,102,12,34,19,18,18,8,7,0.2,0.3
2023-08-28T07:00:00,1400A,112.4753,23.1,肇庆市,七星岩子站,,,,,,,,,,,,,,,,
2023-08-28T07:00:00,1401A,108.3103,22.7881,南宁市,二十一中,,,,25,,10,67,,63,,,12,,4,,0.9
2023-08-28T07:00:00,1402A,108.3141,22.8528,南宁市,北湖,,28,28,20,10,12,106,37,45,44,12,9,6,5,0.6,0.6
2023-08-28T07:00:00,1403A,108.3206,22.8225,南宁市,市监测站,,18,0,20,12,11,105,32,46,43,20,13,8,8,0.7,0.7
2023-08-28T07:00:00,1404A,108.3829,22.8037,南宁市,大自然花园,颗粒物(PM10),56,61,22,11,13,82,38,39,39,13,10,12,6,0.7,0.7
2023-08-28T07:00:00,1405A,108.4394,22.7904,南宁市,仙葫,,12,6,22,7,13,74,37,33,33,16,14,8,6,0.6,0.6
2023-08-28T07:00:00,1406A,108.2397,22.8467,南宁市,区农职院,,16,16,22,8,9,103,37,44,40,12,16,7,7,0.5,0.6
2023-08-28T07:00:00,1407A,108.3275,22.735,南宁市,英华嘉园,,16,16,23,8,14,75,31,40,32,20,15,6,6,0.7,0.7
2023-08-28T07:00:00,1408A,108.2257,22.7757,南宁市,沙井镇街道办,,25,25,26,11,13,77,35,42,41,13,14,7,5,0.7,0.7
2023-08-28T07:00:00,1409A,110.576,19.9507,海口市,东寨港,,,,,,,,,,,,,,,,
2023-08-28T07:00:00,1410A,110.3232,20.0574,海口市,海南大学,,16,16,23,6,8,106,43,50,47,13,11,6,7,0.4,0.4
2023-08-28T07:00:00,1411A,110.283,20.0053,海口市,秀英海南医院,,,,24,,11,65,,59,,,13,,6,,0.5
2023-08-28T07:00:00,1412A,110.338,19.9969,海口市,海南师范大学,,15,14,24,10,12,113,24,44,31,21,11,7,7,0.4,0.4
2023-08-28T07:00:00,1413A,110.33,20.0356,海口市,龙华路环保局宿舍,,14,14,21,9,11,102,32,45,41,17,11,7,7,0.3,0.3
2023-08-28T07:00:00,1414A,106.3787,29.8279,重庆市,缙云山,,23,12,11,6,6,94,73,81,75,8,7,9,8,0.4,0.2
2023-08-28T07:00:00,1416A,106.4213,29.8253,重庆市,天生,,19,16,16,13,10,102,10,31,25,23,15,5,5,0.7,0.6
2023-08-28T07:00:00,1417A,106.6263,29.7228,重庆市,两路,,29,23,16,20,12,112,6,25,17,40,30,10,7,1.3,0.8
2023-08-28T07:00:00,1418A,106.2953,29.5983,重庆市,虎溪,,26,26,21,9,11,101,10,32,20,32,20,5,5,0.8,0.7
2023-08-28T07:00:00,1419A,106.5777,29.5102,重庆市,南坪,,25,25,29,16,16,125,24,49,40,28,18,6,6,0.8,0.7
2023-08-28T07:00:00,1420A,106.6556,29.6277,重庆市,唐家沱,,26,26,19,14,13,111,6,14,10,22,26,6,6,0.8,0.6
2023-08-28T07:00:00,1421A,106.6349,29.4906,重庆市,茶园,,32,32,26,16,13,123,6,18,14,40,29,5,5,0.9,0.8
2023-08-28T07:00:00,1422A,106.3754,29.4572,重庆市,白市驿,,20,20,17,12,14,118,18,42,25,34,22,6,6,0.8,0.6
2023-08-28T07:00:00,1425A,106.6205,29.7166,重庆市,空港,,36,36,20,19,14,116,14,36,28,41,25,8,5,1.1,0.6
2023-08-28T07:00:00,1426A,106.4782,29.4875,重庆市,新山村,,31,31,25,16,12,113,18,49,35,45,28,8,8,0.6,0.5
2023-08-28T07:00:00,1427A,106.5616,29.6453,重庆市,礼嘉,,23,23,22,9,16,118,12,24,21,41,28,8,8,1.0,0.8
2023-08-28T07:00:00,1428A,106.4522,29.7091,重庆市,蔡家,,35,35,27,15,11,108,14,25,23,25,17,6,6,1.0,0.8
2023-08-28T07:00:00,1429A,106.5093,29.3917,重庆市,鱼新街,,24,24,24,14,16,100,19,32,25,33,23,5,5,1.0,0.9
2023-08-28T07:00:00,1431A,103.9728,30.7236,成都市,金泉两河,细颗粒物(PM2.5),105,78,32,79,18,143,20,3,3,26,25,10,5,0.6,0.6
2023-08-28T07:00:00,1432A,104.176,30.6872,成都市,十里店,,,46,32,16,15,199,0,20,17,54,31,,4,0.7,0.5
2023-08-28T07:00:00,1433A,104.079,30.5706,成都市,三瓦窑,细颗粒物(PM2.5),72,65,39,52,22,169,0,1,1,42,41,4,5,0.8,0.5
2023-08-28T07:00:00,1434A,104.1114,30.63,成都市,沙河铺,颗粒物(PM10),57,64,35,28,18,165,1,2,2,58,37,3,3,0.8,0.7
2023-08-28T07:00:00,1437A,104.0786,30.6531,成都市,君平街,细颗粒物(PM2.5),70,83,47,51,28,185,6,12,3,48,40,4,3,0.9,0.8
2023-08-28T07:00:00,1438A,103.613,31.0283,成都市,灵岩寺,,27,16,15,11,9,136,85,77,74,8,7,12,13,0.8,0.8
2023-08-28T07:00:00,1439A,106.6899,26.5998,贵阳市,马鞍山,,22,22,13,12,3,61,35,38,38,7,9,4,5,0.8,0.7
2023-08-28T07:00:00,1440A,106.6971,26.5694,贵阳市,市环保站,,23,14,10,11,9,82,71,74,73,11,16,4,3,0.3,0.3
2023-08-28T07:00:00,1441A,106.6243,26.6266,贵阳市,鉴湖路,,23,17,13,5,3,80,71,74,72,6,8,3,3,0.4,0.4
2023-08-28T07:00:00,1442A,106.7487,26.6343,贵阳市,燕子冲,,20,12,12,9,10,66,61,51,51,6,10,5,5,0.5,0.5
2023-08-28T07:00:00,1443A,106.6555,26.4365,贵阳市,碧云窝,,,,19,,5,54,,58,,,14,,4,,0.3
2023-08-28T07:00:00,1444A,106.694,26.5161,贵阳市,中院村,,,,16,,7,54,,57,,,16,,5,,0.4
2023-08-28T07:00:00,1445A,106.7109,26.6027,贵阳市,红边门,,25,9,15,17,11,85,75,71,70,6,11,4,5,0.3,0.5
2023-08-28T07:00:00,1446A,106.7164,26.5699,贵阳市,新华路,,25,19,15,14,9,83,77,69,69,6,10,6,5,0.3,0.4
2023-08-28T07:00:00,1447A,106.674,26.5424,贵阳市,太慈桥,,18,14,8,12,5,70,54,64,62,11,14,4,3,0.5,0.5
2023-08-28T07:00:00,1450A,102.8204,24.8886,昆明市,呈贡新区,,26,20,22,9,9,83,83,79,76,10,14,15,9,0.6,0.6
2023-08-28T07:00:00,1451A,102.6251,24.9608,昆明市,西山森林公园,,,,10,,7,68,,59,,,11,,8,,0.7
2023-08-28T07:00:00,1452A,102.7252,25.0902,昆明市,龙泉镇,,,,21,,8,40,,33,,,21,,9,,0.6
2023-08-28T07:00:00,1453A,102.7266,25.0375,昆明市,东风东路,,21,17,21,10,8,73,65,55,55,17,18,16,13,0.3,0.4
2023-08-28T07:00:00,1454A,102.6742,25.0669,昆明市,金鼎山,,34,34,26,15,8,81,21,45,29,41,30,58,32,0.7,0.5
2023-08-28T07:00:00,1455A,102.6644,25.0401,昆明市,碧鸡广场,,,,27,,10,50,,42,,,12,,14,,0.6
2023-08-28T07:00:00,1456A,91.1319,29.6514,拉萨市,八廓街,,18,5,9,7,6,126,55,71,61,8,9,7,9,0.2,0.3
2023-08-28T07:00:00,1457A,91.1221,29.6747,拉萨市,市环保局,,15,10,11,5,7,116,46,60,56,13,12,6,8,0.2,0.2
2023-08-28T07:00:00,1458A,91.0874,29.6475,拉萨市,区监测站,,16,3,6,5,6,111,51,65,59,11,11,8,9,0.2,0.2
2023-08-28T07:00:00,1459A,91.1774,29.6541,拉萨市,西藏大学,,17,0,5,5,6,121,52,63,58,7,8,9,10,0.4,0.2
2023-08-28T07:00:00,1460A,90.9798,29.6588,拉萨市,区辐射站,,16,7,12,5,6,95,51,66,62,11,14,9,10,0.2,0.2
2023-08-28T07:00:00,1461A,91.0834,29.6292,拉萨市,拉萨火车站,,17,6,9,5,5,107,52,69,60,5,8,7,8,0.3,0.3
2023-08-28T07:00:00,1462A,108.882,34.2749,西安市,高压开关厂,,35,35,21,21,11,86,16,55,36,34,21,7,7,0.8,0.8
2023-08-28T07:00:00,1463A,108.993,34.2629,西安市,兴庆小区,,31,31,19,13,9,82,12,36,27,25,17,6,6,0.8,0.7
2023-08-28T07:00:00,1464A,109.06,34.2572,西安市,纺织城,,29,25,21,20,12,83,3,4,2,35,28,3,3,0.9,0.9
2023-08-28T07:00:00,1465A,108.9356,34.2173,西安市,小寨,,29,29,17,17,10,71,14,28,23,20,15,6,6,0.9,0.8
2023-08-28T07:00:00,1466A,108.954,34.2713,西安市,市人民体育场,,26,26,19,15,10,79,14,37,24,20,19,6,6,0.7,0.7
2023-08-28T07:00:00,1467A,108.8922,34.2322,西安市,高新西区,,25,25,19,17,11,76,32,49,45,21,18,7,7,0.8,0.8
2023-08-28T07:00:00,1468A,108.935,34.3474,西安市,经开区,,25,20,18,17,9,81,18,47,34,27,15,2,2,0.7,0.8
2023-08-28T07:00:00,1469A,108.906,34.1546,西安市,长安区,,32,32,20,16,11,85,14,28,22,21,14,6,6,0.6,0.5
2023-08-28T07:00:00,1471A,109.2186,34.3731,西安市,临潼区,,32,32,17,13,8,95,11,59,39,27,15,4,4,0.7,0.7
2023-08-28T07:00:00,1472A,108.869,34.378,西安市,草滩,,34,34,18,13,7,94,47,60,55,20,16,8,9,0.8,0.8
2023-08-28T07:00:00,1473A,108.985,34.1978,西安市,曲江文化产业集团,,30,30,19,20,10,78,16,28,19,25,22,5,4,0.9,0.8
2023-08-28T07:00:00,1474A,109.051,34.3213,西安市,广运潭,,27,27,18,13,9,78,1,24,12,32,18,7,6,0.7,0.8
2023-08-28T07:00:00,1476A,103.631,36.1031,兰州市,兰炼宾馆,颗粒物(PM10),61,71,44,28,24,154,33,70,60,42,26,6,7,0.7,0.5
2023-08-28T07:00:00,1477A,104.1373,35.9454,兰州市,榆中兰大校区,,,,,,,,,,,,,,,,
2023-08-28T07:00:00,1478A,103.8412,36.0726,兰州市,生物制品所,颗粒物(PM10),51,52,41,35,31,134,22,62,39,62,34,5,9,1.0,1
2023-08-28T07:00:00,1479A,103.831,36.0464,兰州市,铁路设计院,颗粒物(PM10),55,59,45,33,26,137,25,72,52,64,37,23,16,1.6,1
2023-08-28T07:00:00,1483A,101.524,36.6867,西宁市,第五水厂,,,,,,,,,,,,,,,,
2023-08-28T07:00:00,1484A,105.9512,38.6016,银川市,贺兰山马莲口,,32,5,26,9,20,159,101,113,106,6,9,3,9,0.2,0.5
2023-08-28T07:00:00,1488A,106.2328,38.4975,银川市,贺兰山东路,,39,39,45,23,28,142,56,44,44,30,32,10,11,0.7,0.7
2023-08-28T07:00:00,1489A,106.1358,38.5036,银川市,学院路,,,,49,,29,86,,77,,,28,,11,,0.6
2023-08-28T07:00:00,1490A,87.5801,43.8303,乌鲁木齐市,监测站,,43,43,42,16,10,134,25,45,39,57,39,6,5,0.9,0.5
2023-08-28T07:00:00,1491A,87.6046,43.768,乌鲁木齐市,收费所,,32,32,28,13,8,134,44,76,71,34,19,3,3,0.2,0.3
2023-08-28T07:00:00,1492A,87.4754,43.9469,乌鲁木齐市,新疆农科院农场,,,,114,,21,76,,68,,,36,,4,,0.9
2023-08-28T07:00:00,1493A,87.5525,43.8711,乌鲁木齐市,铁路局,颗粒物(PM10),51,52,58,23,18,138,28,86,40,52,39,6,5,0.7,0.5
2023-08-28T07:00:00,1494A,87.6432,43.831,乌鲁木齐市,三十一中学,,43,43,39,17,10,136,99,88,88,8,10,12,7,0.7,0.6
2023-08-28T07:00:00,1496A,87.7216,44.1747,乌鲁木齐市,米东区环保局,颗粒物(PM10),57,64,59,21,22,158,67,76,67,26,22,13,12,0.6,0.5
2023-08-28T07:00:00,1508A,112.9433,27.8614,湘潭市,板塘,,20,8,20,7,12,79,63,70,67,6,8,5,6,0.4,0.3
2023-08-28T07:00:00,1511A,112.9118,27.8403,湘潭市,市监测站,,21,10,17,2,10,78,65,76,71,5,6,3,6,0.6,0.7
2023-08-28T07:00:00,1512A,112.8937,27.8728,湘潭市,江麓,,20,9,18,2,11,78,61,72,67,9,17,7,10,0.2,0.3
2023-08-28T07:00:00,1513A,112.9227,27.8159,湘潭市,岳塘,,,,21,,12,61,,53,,,10,,6,,0.3
2023-08-28T07:00:00,1514A,112.9074,27.9119,湘潭市,科大,,19,12,25,2,10,79,59,68,65,4,7,4,7,0.7,0.7
2023-08-28T07:00:00,1515A,113.135,27.8244,株洲市,天台山庄,,19,7,18,0,8,94,58,66,64,7,9,4,5,0.6,0.5
2023-08-28T07:00:00,1518A,113.095,27.8867,株洲市,株冶医院,,17,8,19,0,7,88,52,59,56,9,10,4,4,0.5,0.5
2023-08-28T07:00:00,1519A,113.167,27.8667,株洲市,市四中,,,,21,,11,62,,56,,,9,,7,,0.5
2023-08-28T07:00:00,1520A,113.143,27.8381,株洲市,火车站,,20,6,18,1,10,98,62,64,64,9,10,6,7,0.5,0.4
2023-08-28T07:00:00,1524A,113.13,27.8528,株洲市,市监测站,,19,6,20,2,12,99,59,64,62,8,8,6,7,0.7,0.7
2023-08-28T07:00:00,1552A,106.805,26.3003,贵阳市,桐木岭,,,,,,,,,,,,,,,,
2023-08-28T07:00:00,1559A,113.251,27.8336,株洲市,大京风景区,,,,20,,11,58,,51,,,5,,6,,0.5
2023-08-28T07:00:00,1562A,113.0048,27.9153,湘潭市,昭山,,22,7,21,7,12,89,69,69,67,4,8,4,4,0.5,0.5
2023-08-28T07:00:00,1564A,112.4876,27.9164,湘潭市,韶山,,23,8,15,5,5,81,72,79,74,5,7,6,7,0.2,0.2
2023-08-28T07:00:00,1585A,109.8756,40.6532,包头市,市环境监测站,,23,22,35,16,15,145,43,57,46,29,32,10,14,0.7,0.7
2023-08-28T07:00:00,1587A,109.9991,40.5842,包头市,包头八中,,30,27,36,21,15,139,59,64,63,27,24,24,18,0.7,0.7
2023-08-28T07:00:00,1588A,109.8538,40.6821,包头市,青山宾馆,细颗粒物(PM2.5),53,42,36,37,17,146,7,44,23,54,36,8,10,1.0,0.8
2023-08-28T07:00:00,1589A,109.8642,40.6288,包头市,惠龙物流,,28,28,36,15,16,149,44,58,50,28,28,9,14,0.5,0.5
2023-08-28T07:00:00,1590A,110.0377,40.5546,包头市,东河鸿龙湾,,21,21,28,5,14,137,49,50,48,21,24,16,17,1.0,0.9
2023-08-28T07:00:00,1591A,110.0023,39.8129,鄂尔多斯市,综合楼,,36,36,43,19,19,126,29,66,44,37,26,4,14,0.9,0.7
2023-08-28T07:00:00,1592A,109.9486,39.8261,鄂尔多斯市,巴音孟克林场办事处,,39,39,43,24,18,138,54,90,70,36,22,16,21,0.9,0.7
2023-08-28T07:00:00,1593A,109.7736,39.5986,鄂尔多斯市,康泽苑,,,,27,,12,82,,79,,,18,,9,,0.5
2023-08-28T07:00:00,1594A,109.8119,39.5989,鄂尔多斯市,华泰汽车城,,,,30,,17,74,,71,,,20,,7,,0.4
2023-08-28T07:00:00,1595A,109.9734,39.7884,鄂尔多斯市,奥林花园,,,,42,,20,80,,79,,,21,,9,,0.9
2023-08-28T07:00:00,1597A,122.2703,40.7094,营口市,大庆路,,32,32,31,15,15,119,34,50,38,20,15,5,4,0.6,0.6
2023-08-28T07:00:00,1598A,122.2150,40.6511,营口市,镜湖西路,,31,31,31,15,13,112,27,45,32,28,21,8,7,0.5,0.6
2023-08-28T07:00:00,1599A,122.1658,40.6789,营口市,西炮台,,,,28,,13,72,,66,,,17,,6,,0.4
2023-08-28T07:00:00,1600A,124.3303,40.0625,丹东市,江湾东路,,,,27,,13,65,,67,,,10,,6,,0.7
2023-08-28T07:00:00,1601A,124.4256,40.1503,丹东市,临江后街,,25,25,20,14,10,89,21,40,37,19,12,6,6,0.6,0.5
2023-08-28T07:00:00,1602A,124.3933,40.1461,丹东市,元宝山,,30,30,21,17,13,76,29,20,20,14,12,8,8,0.8,0.6
2023-08-28T07:00:00,1603A,124.3633,40.1092,丹东市,民主桥,,26,26,22,14,11,93,47,48,48,21,6,4,5,0.7,0.6
2023-08-28T07:00:00,1604A,122.0303,41.1489,盘锦市,开发区,,23,23,22,16,11,107,56,61,60,15,15,5,4,0.6,0.6
2023-08-28T07:00:00,1605A,122.0485,41.0883,盘锦市,兴隆台,,,,25,,10,80,,75,,,18,,7,,0.4
2023-08-28T07:00:00,1606A,121.8297,41.1028,盘锦市,新生街道,,19,15,17,13,8,89,55,55,55,20,20,6,6,0.5,0.5
2023-08-28T07:00:00,1607A,120.9092,40.7136,葫芦岛市,龙港区,颗粒物(PM10),51,51,49,34,23,106,46,48,48,30,31,51,56,0.6,0.5
2023-08-28T07:00:00,1608A,120.8392,40.7514,葫芦岛市,化工街,,34,34,28,10,11,98,65,72,69,14,16,16,12,0.1,0.2
2023-08-28T07:00:00,1609A,120.8341,40.7073,葫芦岛市,新区,,23,23,30,10,13,95,68,70,68,12,16,12,11,0.4,0.4
2023-08-28T07:00:00,1610A,120.8695,40.7677,葫芦岛市,东城区,,23,23,30,7,12,100,68,73,72,20,29,23,15,0.4,0.5
2023-08-28T07:00:00,1611A,118.5819,24.9117,泉州市,涂山街,,40,40,33,13,14,132,36,37,37,13,15,5,6,0.7,0.7
2023-08-28T07:00:00,1612A,118.5972,24.8978,泉州市,津头埔,,29,29,32,16,17,122,35,36,35,18,19,4,5,0.6,0.6
2023-08-28T07:00:00,1613A,118.6663,24.9424,泉州市,万安,,41,41,35,28,17,125,17,28,21,22,16,3,3,0.6,0.5
2023-08-28T07:00:00,1614A,118.6117,24.9604,泉州市,清源山,,,,,,,,,,,,,,,,
2023-08-28T07:00:00,1616A,117.6795,36.229,济南市,技术学院,,31,5,10,6,9,97,97,80,80,7,12,5,5,0.6,0.7
2023-08-28T07:00:00,1618A,118.3429,35.0532,临沂市,沂河小区,,33,7,12,8,11,105,105,95,95,8,11,4,4,0.2,0.2
2023-08-28T07:00:00,1619A,118.295,35.0583,临沂市,鲁南制药厂,,,,4,,7,99,,102,,,6,,2,,0.2
2023-08-28T07:00:00,1620A,118.2794,34.9976,临沂市,新光毛纺厂,,29,2,1,4,6,97,91,87,87,14,15,5,4,0.4,0.4
2023-08-28T07:00:00,1621A,118.3956,35.0888,临沂市,河东保险公司,,30,2,6,7,7,95,95,86,86,4,7,2,2,0.3,0.3
2023-08-28T07:00:00,1622A,116.3032,37.4674,德州市,儿童乐园,颗粒物(PM10),51,51,25,27,15,78,48,42,40,17,14,8,8,0.9,0.7
2023-08-28T07:00:00,1624A,116.2991,37.4451,德州市,监理站,,46,46,19,22,14,72,44,42,38,23,20,9,6,0.8,0.6
2023-08-28T07:00:00,1625A,115.9848,36.4372,聊城市,区政府,,40,39,16,28,17,80,38,74,53,12,8,4,2,0.4,0.3
2023-08-28T07:00:00,1628A,118.0062,37.3803,滨州市,市环保局,,31,31,19,14,12,69,62,63,63,13,16,12,6,0.7,0.5
2023-08-28T07:00:00,1629A,118.0018,37.3617,滨州市,第二水厂,,31,31,21,17,14,78,64,67,67,15,16,10,4,0.6,0.5
2023-08-28T07:00:00,1630A,117.9776,37.393,滨州市,北中新校,,36,36,27,14,15,67,41,50,47,20,20,5,5,0.5,0.4
2023-08-28T07:00:00,1631A,118.0414,36.8103,淄博市,人民公园,,,,19,,16,58,,60,,,25,,6,,0.3
2023-08-28T07:00:00,1633A,117.8525,36.4847,淄博市,双山,,26,12,16,11,12,86,81,66,66,11,20,3,5,0.1,0.2
2023-08-28T07:00:00,1634A,117.9592,36.6331,淄博市,气象站,,22,7,17,9,17,81,69,57,57,16,25,4,4,0.1,0.3
2023-08-28T07:00:00,1635A,118.3092,36.8194,淄博市,莆田园,,26,7,17,12,18,94,82,73,73,14,30,8,9,0.6,0.7
2023-08-28T07:00:00,1637A,117.558,34.8438,枣庄市,市中区政府,,25,12,6,14,6,119,78,99,88,15,11,5,5,0.3,0.2
2023-08-28T07:00:00,1638A,117.2852,34.7837,枣庄市,薛城环保局,,28,24,15,19,10,116,70,77,75,13,14,13,11,0.7,0.5
2023-08-28T07:00:00,1639A,117.5852,34.7745,枣庄市,峄城区政府,,22,22,9,5,3,116,69,93,81,11,9,7,8,0.5,0.4
2023-08-28T07:00:00,1640A,117.7276,34.5578,枣庄市,台儿庄区环保局,,23,12,9,9,5,111,72,106,89,14,12,8,7,0.5,0.5
2023-08-28T07:00:00,1641A,117.4518,35.0992,枣庄市,山亭区环保局,,29,17,6,20,8,124,78,93,89,11,9,7,6,0.5,0.2
2023-08-28T07:00:00,1642A,121.2514,37.5639,烟台市,开发区,,36,2,15,2,9,118,113,89,89,1,9,3,3,0.6,0.7
2023-08-28T07:00:00,1643A,121.3719,37.5433,烟台市,轴承厂,,37,9,17,8,12,120,117,103,103,5,9,5,6,0.3,0.4
2023-08-28T07:00:00,1644A,121.3181,37.5436,烟台市,西郊化工站,,33,5,15,6,12,115,103,84,84,13,9,7,8,0.5,0.6
2023-08-28T07:00:00,1645A,121.4478,37.4822,烟台市,莱山环保局,,37,9,9,3,7,123,117,107,107,2,6,4,5,0.3,0.4
2023-08-28T07:00:00,1646A,121.2611,37.4967,烟台市,福山环保局,,30,7,17,0,4,111,94,76,76,17,16,6,7,0.5,0.6
2023-08-28T07:00:00,1650A,119.1437,36.7023,潍坊市,环保局,,32,5,21,7,17,102,101,90,90,7,17,7,8,0.4,0.5
2023-08-28T07:00:00,1653A,116.6251,35.4302,济宁市,火炬城,,42,42,18,19,11,91,53,51,51,10,9,7,6,0.6,0.6
2023-08-28T07:00:00,1655A,116.5491,35.4042,济宁市,电化厂,,,,21,,12,68,,72,,,11,,7,,0.5
2023-08-28T07:00:00,1656A,117.1437,36.1937,泰安市,监测站,,29,24,13,16,13,102,92,91,91,2,2,7,7,0.4,0.4
2023-08-28T07:00:00,1657A,117.0885,36.2017,泰安市,人口学校,,29,9,8,6,7,101,90,70,70,6,5,3,3,0.3,0.3
2023-08-28T07:00:00,1658A,117.1089,36.1758,泰安市,电力学校,,31,22,12,11,10,105,97,96,90,1,2,7,7,0.3,0.3
2023-08-28T07:00:00,1659A,119.471,35.4209,日照市,监测站,,31,0,8,1,7,111,99,99,99,10,12,6,6,0.5,0.5
2023-08-28T07:00:00,1660A,119.523,35.4216,日照市,市政府广场,,33,0,6,1,5,112,103,101,101,4,6,2,2,0.4,0.4
2023-08-28T07:00:00,1661A,119.5587,35.4044,日照市,港务局,,34,0,8,2,6,111,107,102,102,4,8,5,5,0.2,0.3
2023-08-28T07:00:00,1662A,122.1214,37.4236,威海市,华夏技校,,37,7,10,7,8,118,118,100,100,6,12,4,4,0.3,0.4
2023-08-28T07:00:00,1663A,122.0508,37.5236,威海市,山大分校,,39,15,11,2,8,124,124,115,115,2,7,7,8,0.3,0.5
2023-08-28T07:00:00,1664A,122.1067,37.5072,威海市,市监测站,,36,2,11,10,10,115,115,107,107,4,8,8,8,0.4,0.5
2023-08-28T07:00:00,1666A,118.6614,37.4309,东营市,市环保局,,24,5,12,5,9,93,76,85,83,4,7,4,5,0.5,0.5
2023-08-28T07:00:00,1669A,113.5824,24.7733,韶关市,市八中,,34,34,26,10,11,99,36,76,60,19,13,16,14,0.6,0.5
2023-08-28T07:00:00,1671A,113.5917,24.7972,韶关市,园林处,,25,25,24,15,13,97,32,70,54,17,10,16,12,0.7,0.7
2023-08-28T07:00:00,1672A,113.6735,24.7791,韶关市,韶关学院,,36,36,26,14,15,85,36,71,52,7,7,7,8,0.4,0.5
2023-08-28T07:00:00,1673A,113.5971,24.6863,韶关市,曲江监测站,,27,27,26,10,11,94,37,71,53,11,10,8,9,0.5,0.5
2023-08-28T07:00:00,1674A,116.6794,23.3667,汕头市,金平子站,,46,39,23,32,16,101,7,42,26,34,18,14,8,1.0,0.7
2023-08-28T07:00:00,1675A,116.7244,23.3633,汕头市,龙湖子站,,31,31,22,19,13,105,26,54,40,24,13,11,7,0.9,0.7
2023-08-28T07:00:00,1676A,116.7258,23.2775,汕头市,濠江子站,,29,29,19,13,12,84,20,39,31,18,13,9,9,0.7,0.5
2023-08-28T07:00:00,1677A,116.7519,23.4714,汕头市,澄海子站,,,,27,,18,70,,70,,,14,,10,,0.6
2023-08-28T07:00:00,1678A,116.6092,23.2539,汕头市,潮阳子站,,32,26,26,22,13,103,18,38,27,15,12,8,9,0.8,0.6
2023-08-28T07:00:00,1680A,110.3539,21.2706,湛江市,湛江影剧院,,33,33,26,13,11,92,35,47,40,18,13,6,9,0.7,0.7
2023-08-28T07:00:00,1681A,110.3928,21.2228,湛江市,市环境监测站,,21,21,24,12,15,92,27,50,43,24,12,6,12,0.5,0.5
2023-08-28T07:00:00,1682A,110.4019,21.1997,湛江市,环保局宿舍,,38,36,25,26,15,94,32,46,39,21,16,4,6,0.6,0.6
2023-08-28T07:00:00,1683A,110.4111,21.2028,湛江市,霞山游泳场,,25,24,19,17,12,93,27,51,43,27,12,7,6,0.5,0.5
2023-08-28T07:00:00,1684A,110.3316,21.2679,湛江市,麻章区环保局,,23,22,34,16,15,84,36,33,30,14,16,11,8,0.7,0.7
2023-08-28T07:00:00,1685A,110.4558,21.2567,湛江市,坡头区环保局,,16,16,20,9,9,109,44,62,49,8,10,5,6,0.4,0.4
2023-08-28T07:00:00,1686A,111.0286,21.4688,茂名市,电白南海,,,,24,,14,86,,82,,,7,,5,,0.8
2023-08-28T07:00:00,1687A,110.9294,21.6533,茂名市,茂石化七小,,28,27,25,19,16,99,32,48,43,10,9,10,6,0.6,0.6
2023-08-28T07:00:00,1688A,110.9107,21.6687,茂名市,健康路,,19,19,19,7,7,113,34,52,45,8,6,5,4,0.5,0.5
2023-08-28T07:00:00,1689A,110.8592,21.6828,茂名市,高岭,,25,24,24,17,16,147,30,38,37,8,9,6,3,0.6,0.6
2023-08-28T07:00:00,1690A,116.1231,24.3284,梅州市,梅江月梅,,33,33,21,10,7,104,14,10,9,12,16,1,1,0.5,0.5
2023-08-28T07:00:00,1691A,116.0797,24.2719,梅州市,梅县新城,,28,28,21,10,9,94,13,26,17,17,13,6,6,0.6,0.6
2023-08-28T07:00:00,1692A,116.1248,24.2654,梅州市,环境监控中心,,23,23,20,14,10,104,19,23,22,15,13,6,7,0.5,0.5
2023-08-28T07:00:00,1693A,115.3653,22.775,汕尾市,市环保局,,23,23,16,14,8,58,32,47,38,10,11,5,5,0.8,0.7
2023-08-28T07:00:00,1694A,115.3706,22.7898,汕尾市,市政府,,40,40,16,20,6,62,32,50,37,7,10,5,5,0.6,0.6
2023-08-28T07:00:00,1695A,115.3622,22.7925,汕尾市,新城中学,,31,31,19,14,9,55,27,37,33,8,8,6,7,0.7,0.7
2023-08-28T07:00:00,1696A,114.6778,23.7569,河源市,源西,,32,32,25,13,12,80,7,22,6,14,13,5,4,0.7,0.7
2023-08-28T07:00:00,1697A,114.6944,23.7586,河源市,东埔,,29,29,25,8,11,77,9,29,20,14,11,5,5,0.6,0.6
2023-08-28T07:00:00,1698A,114.6892,23.7233,河源市,老城,,20,20,29,2,20,80,8,24,16,14,11,8,5,0.6,0.5
2023-08-28T07:00:00,1699A,111.9797,21.8593,阳江市,鸳鸯湖,,,,17,,10,54,,51,,,5,,4,,0.6
2023-08-28T07:00:00,1701A,111.9491,21.8658,阳江市,马南垌,,17,17,17,8,9,69,13,54,34,24,6,5,5,0.6,0.5
2023-08-28T07:00:00,1702A,113.0426,23.691,清远市,环保大楼,,22,22,18,9,16,130,13,53,30,16,11,6,6,0.6,0.6
2023-08-28T07:00:00,1703A,113.0208,23.7106,清远市,凤城街办,,21,21,24,11,15,114,13,45,24,18,13,5,5,0.5,0.5
2023-08-28T07:00:00,1705A,116.6367,23.6719,潮州市,西园路,,28,28,33,13,18,131,18,26,21,8,12,3,4,0.2,0.3
2023-08-28T07:00:00,1706A,116.6447,23.6706,潮州市,档案局,,26,26,32,17,19,131,21,23,21,6,10,5,7,0.5,0.6
2023-08-28T07:00:00,1708A,116.3701,23.5345,揭阳市,新兴,,33,33,37,18,17,106,20,16,13,11,12,10,8,0.7,0.8
2023-08-28T07:00:00,1709A,116.3264,23.5443,揭阳市,西马,,36,36,38,25,19,118,13,17,13,15,14,8,8,0.8,0.9
2023-08-28T07:00:00,1710A,116.3611,23.5626,揭阳市,东兴,,50,50,41,20,19,121,8,14,11,24,20,6,6,1.1,1
2023-08-28T07:00:00,1711A,116.4151,23.5294,揭阳市,渔湖,颗粒物(PM10),54,58,45,24,19,122,8,26,12,24,18,7,6,0.9,0.7
2023-08-28T07:00:00,1712A,112.0392,22.9169,云浮市,新市府,,,,19,,7,40,,38,,,4,,4,,0.7
2023-08-28T07:00:00,1714A,112.0539,22.9539,云浮市,牧羊,,28,28,30,11,11,70,5,12,7,15,18,5,11,0.6,0.6
2023-08-28T07:00:00,1715A,102.575,24.3711,玉溪市,东风水库,,,,15,,8,51,,43,,,9,,6,,0.8
2023-08-28T07:00:00,1718A,115.4208,35.2464,菏泽市,气象局,,32,32,17,22,12,99,43,72,60,13,9,5,3,0.4,0.4
2023-08-28T07:00:00,1719A,115.4747,35.2375,菏泽市,市政协,,32,28,13,22,13,101,53,77,68,7,5,4,3,0.5,0.4
2023-08-28T07:00:00,1721A,113.3819,40.1097,大同市,果树场,,,,,,,,,,,,,,,,
2023-08-28T07:00:00,1723A,113.2994,40.0758,大同市,云冈宾馆,,,,26,,12,70,,76,,,24,,8,,0.5
2023-08-28T07:00:00,1724A,113.3444,40.0917,大同市,大同大学,,,,23,,9,73,,76,,,20,,7,,0.4
2023-08-28T07:00:00,1725A,113.2661,40.1269,大同市,安家小村,,,,26,,10,76,,74,,,14,,10,,0.4
2023-08-28T07:00:00,1726A,113.2711,40.0844,大同市,教育学院,,,,24,,12,75,,79,,,23,,6,,0.5
2023-08-28T07:00:00,1727A,113.1147,36.1547,长治市,清华站,,43,43,13,27,6,107,14,74,31,29,14,11,8,2.1,1
2023-08-28T07:00:00,1728A,113.1031,36.1989,长治市,监测站,,29,29,15,12,9,111,11,61,24,30,18,6,5,1.3,0.8
2023-08-28T07:00:00,1730A,113.0886,36.2125,长治市,审计局,,,,8,,6,80,,86,,,11,,7,,0.8
2023-08-28T07:00:00,1731A,113.0844,36.1856,长治市,长治八中,,36,36,14,22,9,109,12,64,25,30,16,13,10,1.5,0.9
2023-08-28T07:00:00,1733A,111.5531,36.0783,临汾市,临钢医院,,45,45,30,17,17,69,26,43,34,17,16,7,7,0.8,0.7
2023-08-28T07:00:00,1734A,111.5028,36.0714,临汾市,技工学校,,,,29,,11,65,,65,,,18,,7,,1.1
2023-08-28T07:00:00,1736A,111.5018,36.0855,临汾市,市委,,32,32,31,22,14,80,35,50,42,15,15,11,7,1.1,1
2023-08-28T07:00:00,1738A,113.5758,37.8572,阳泉市,市中心,,30,30,17,18,8,102,5,3,3,46,30,8,8,0.7,0.7
2023-08-28T07:00:00,1739A,113.4894,37.8731,阳泉市,赛鱼,,37,37,21,16,9,97,5,7,5,47,34,7,6,0.7,0.6
2023-08-28T07:00:00,1740A,113.5819,37.8486,阳泉市,南庄,,,,24,,12,68,,76,,,19,,9,,0.7
2023-08-28T07:00:00,1742A,113.5614,37.8703,阳泉市,平坦,,28,26,17,13,8,100,7,4,4,56,36,9,8,0.5,0.5
2023-08-28T07:00:00,1743A,113.5158,37.8392,阳泉市,大阳泉,,25,8,7,17,12,107,65,75,70,26,17,8,7,0.4,0.5
2023-08-28T07:00:00,1744A,118.9233,42.2816,赤峰市,松山一中,,14,12,17,8,8,101,38,34,34,27,27,10,10,0.4,0.4
2023-08-28T07:00:00,1745A,118.9576,42.2728,赤峰市,哈达街,,20,20,20,13,10,103,20,24,24,29,30,13,17,0.2,0.2
2023-08-28T07:00:00,1746A,118.8788,42.2554,赤峰市,天义路,,23,19,16,16,11,105,40,52,44,25,23,9,11,0.3,0.3
2023-08-28T07:00:00,1748A,123.044,41.1196,鞍山市,深沟寺,,42,42,38,26,17,106,18,20,19,27,23,14,10,1.0,0.8
2023-08-28T07:00:00,1749A,123.011,41.0931,鞍山市,太阳城,,48,48,36,29,20,111,15,22,17,34,27,18,14,0.9,0.8
2023-08-28T07:00:00,1750A,123.0485,41.1442,鞍山市,太平,,,,39,,18,61,,54,,,26,,17,,0.6
2023-08-28T07:00:00,1751A,122.9642,41.0971,鞍山市,铁西三道街,颗粒物(PM10),57,64,52,32,24,110,12,34,26,45,32,53,30,1.3,1.2
2023-08-28T07:00:00,1752A,122.9341,41.0833,鞍山市,铁西工业园区,,,,54,,22,53,,48,,,38,,32,,1.9
2023-08-28T07:00:00,1753A,123.022,41.0821,鞍山市,明达新区,,50,50,40,25,19,108,10,19,11,44,33,26,17,1.0,0.7
2023-08-28T07:00:00,1754A,123.1289,41.0228,鞍山市,千山,,,,,,,,,,,,,,,,
2023-08-28T07:00:00,1755A,123.7977,41.8491,抚顺市,望花区,,20,20,20,13,11,88,53,69,63,16,11,11,8,0.5,0.3
2023-08-28T07:00:00,1756A,123.9161,41.8822,抚顺市,顺城区,,26,26,22,12,8,86,53,66,62,11,8,6,5,0.5,0.3
2023-08-28T07:00:00,1757A,124.0436,41.8611,抚顺市,东洲区,,20,20,20,11,10,91,54,49,49,11,12,8,10,0.4,0.4
2023-08-28T07:00:00,1758A,123.9247,41.8642,抚顺市,新抚区,,21,21,18,9,7,91,47,64,58,16,9,8,6,0.6,0.4
2023-08-28T07:00:00,1759A,124.0972,41.8961,抚顺市,大伙房水库,,,,19,,8,63,,54,,,10,,6,,0.3
2023-08-28T07:00:00,1760A,123.7086,41.8391,抚顺市,沈抚新城,,,,17,,8,60,,51,,,9,,5,,0.3
2023-08-28T07:00:00,1761A,123.8275,41.3064,本溪市,大峪,,45,45,30,10,11,92,21,20,20,35,25,5,5,0.6,0.6
2023-08-28T07:00:00,1762A,123.7567,41.3325,本溪市,溪湖,,44,44,33,15,11,96,10,15,11,31,19,7,7,0.8,0.8
2023-08-28T07:00:00,1763A,123.7169,41.3094,本溪市,彩屯,,,,35,,19,47,,43,,,27,,8,,0.8
2023-08-28T07:00:00,1764A,123.7669,41.2864,本溪市,东明,,39,39,39,16,16,86,22,20,19,33,29,8,8,0.8,0.8
2023-08-28T07:00:00,1765A,123.7992,41.2664,本溪市,新立屯,,16,14,26,11,12,89,14,32,15,17,9,7,8,0.9,1
2023-08-28T07:00:00,1766A,123.8142,41.3472,本溪市,威宁,,40,40,38,21,19,83,10,11,9,21,19,6,6,0.7,0.7
2023-08-28T07:00:00,1767A,121.1115,41.0879,锦州市,南山,,20,17,22,8,11,94,63,66,66,17,17,10,9,0.7,0.6
2023-08-28T07:00:00,1768A,121.0533,40.8434,锦州市,开发区,,28,28,27,14,12,102,27,56,38,39,17,10,8,0.8,0.8
2023-08-28T07:00:00,1769A,121.1836,41.1119,锦州市,百股街道,,25,25,27,17,14,97,52,47,47,16,14,23,15,0.9,0.8
2023-08-28T07:00:00,1770A,121.1178,41.1222,锦州市,天安街道,,21,21,29,10,13,96,63,70,68,18,17,12,10,0.5,0.4
2023-08-28T07:00:00,1771A,121.1303,41.1386,锦州市,北湖公园,,24,24,25,12,13,99,64,66,66,14,12,14,12,0.6,0.5
2023-08-28T07:00:00,1772A,126.54,43.8622,吉林市,哈达湾,,41,41,33,14,15,97,23,15,15,24,23,9,12,0.8,0.8
2023-08-28T07:00:00,1773A,126.5844,43.8358,吉林市,东局子,,42,42,27,18,13,98,12,8,7,23,20,7,8,0.7,0.7
2023-08-28T07:00:00,1774A,126.5052,43.8245,吉林市,电力学院,,42,42,31,18,15,100,20,10,10,24,19,14,11,1.2,0.8
2023-08-28T07:00:00,1775A,126.6133,43.8972,吉林市,江北,,47,47,29,22,13,89,20,27,22,11,12,8,9,0.6,0.6
2023-08-28T07:00:00,1776A,126.555,43.8306,吉林市,江南公园,,36,36,29,20,17,96,11,10,6,25,24,4,5,0.8,0.8
2023-08-28T07:00:00,1778A,126.7061,43.7133,吉林市,丰满,,,,,,,,,,,,,,,,
2023-08-28T07:00:00,1779A,123.9305,47.3636,齐齐哈尔市,安居小区,颗粒物(PM10),86,121,57,21,27,73,6,5,4,38,24,6,5,0.5,0.5
2023-08-28T07:00:00,1780A,123.9488,47.3386,齐齐哈尔市,中心广场,,,,38,,30,40,,43,,,25,,6,,0.7
2023-08-28T07:00:00,1781A,123.9483,47.3227,齐齐哈尔市,农牧车辆厂,颗粒物(PM10),76,102,52,43,18,72,7,4,4,39,26,8,7,0.7,0.7
2023-08-28T07:00:00,1783A,123.945,47.2988,齐齐哈尔市,市环境监测站,,,,44,,23,39,,42,,,22,,9,,0.5
2023-08-28T07:00:00,1784A,129.61,44.561,牡丹江市,环保大楼,,28,20,19,19,14,74,15,22,14,9,10,5,5,0.4,0.4
2023-08-28T07:00:00,1785A,129.6115,44.5782,牡丹江市,文化广场,,,,18,,15,38,,38,,,13,,6,,0.4
2023-08-28T07:00:00,1786A,129.5904,44.5963,牡丹江市,第一医院,,,,22,,16,37,,36,,,10,,5,,0.3
2023-08-28T07:00:00,1787A,129.6364,44.6075,牡丹江市,机车工厂,,31,31,26,12,9,71,12,7,7,5,7,3,3,0.4,0.5
2023-08-28T07:00:00,1788A,129.6386,44.5462,牡丹江市,第一中学,,14,14,19,4,10,75,13,9,9,8,9,5,5,0.2,0.2
2023-08-28T07:00:00,1789A,124.81117,46.03138,大庆市,大同区,,49,49,21,23,15,67,11,29,15,29,15,6,5,0.3,0.2
2023-08-28T07:00:00,1790A,125.129,46.533,大庆市,龙凤区,,,,23,,15,47,,48,,,15,,3,,0.3
2023-08-28T07:00:00,1791A,124.902,46.408,大庆市,红岗区,,,,23,,15,43,,43,,,19,,3,,0.5
2023-08-28T07:00:00,1792A,125.153,46.586,大庆市,萨尔图区,,16,16,19,6,8,64,40,52,43,7,10,5,5,0.5,0.4
2023-08-28T07:00:00,1793A,124.9042,46.6215,大庆市,让胡路区,,,,20,,9,43,,43,,,14,,5,,0.4
2023-08-28T07:00:00,1794A,118.3606,31.3519,芜湖市,监测站,,16,2,16,1,10,107,50,36,36,9,14,4,5,0.5,0.5
2023-08-28T07:00:00,1795A,118.3714,31.4134,芜湖市,科创中心,,17,2,19,3,11,110,52,35,35,17,23,6,6,0.4,0.4
2023-08-28T07:00:00,1796A,118.3673,31.3131,芜湖市,四水厂,,15,8,19,5,10,104,45,40,36,12,14,3,3,0.6,0.6
2023-08-28T07:00:00,1798A,118.5092,31.6837,马鞍山市,湖东路四小,,,,20,,15,61,,63,,,13,,8,,0.5
2023-08-28T07:00:00,1799A,118.5024,31.6449,马鞍山市,开发区,,16,6,10,3,11,112,51,45,41,5,7,6,6,0.6,0.6
2023-08-28T07:00:00,1800A,118.5228,31.7231,马鞍山市,慈湖,,13,9,25,9,16,111,38,34,33,22,20,16,10,1.2,0.9
2023-08-28T07:00:00,1802A,118.6245,31.7241,马鞍山市,濮塘,,,,10,,13,58,,62,,,5,,3,,0.6
2023-08-28T07:00:00,1803A,115.9872,29.6815,九江市,十里,,,,28,,18,55,,52,,,15,,8,,0.7
2023-08-28T07:00:00,1804A,115.9584,29.7046,九江市,茅山头,,,,27,,19,53,,49,,,21,,9,,0.9
2023-08-28T07:00:00,1805A,115.9877,29.7295,九江市,西园,,30,17,19,21,23,86,51,51,50,17,18,10,10,0.6,0.6
2023-08-28T07:00:00,1806A,116.0172,29.6547,九江市,五七二七厂,,,,18,,12,51,,46,,,9,,8,,0.6
2023-08-28T07:00:00,1808A,115.9114,29.6038,九江市,综合工业园,,,,27,,14,50,,45,,,25,,12,,0.8
2023-08-28T07:00:00,1809A,116.0721,29.7535,九江市,石化总厂,,,,27,,13,59,,55,,,13,,10,,0.7
2023-08-28T07:00:00,1810A,115.9773,29.5698,九江市,庐山气象台,,,,14,,10,55,,49,,,181,,8,,0.7
2023-08-28T07:00:00,1812A,112.3931,34.6516,洛阳市,市委党校,,33,17,12,23,15,80,32,34,30,11,12,5,4,0.6,0.6
2023-08-28T07:00:00,1814A,112.4657,34.6871,洛阳市,豫西宾馆,,33,28,17,23,13,79,11,40,18,29,19,4,2,1.2,0.9
2023-08-28T07:00:00,1815A,112.494,34.6886,洛阳市,河南林校,,25,22,11,17,11,81,8,38,17,28,19,4,4,0.7,0.5
2023-08-28T07:00:00,1816A,112.3844,34.623,洛阳市,开发区管委会,,19,18,13,13,9,87,20,49,35,11,10,3,3,0.4,0.5
2023-08-28T07:00:00,1817A,112.4267,34.6258,洛阳市,市委新办公区,,21,21,13,14,9,82,22,63,37,6,6,3,3,0.5,0.5
2023-08-28T07:00:00,1818A,114.4839,36.0621,安阳市,棉研所,,,,,,,,,,,,,,,,
2023-08-28T07:00:00,1819A,114.3551,36.1017,安阳市,红庙街,,26,26,13,13,6,81,64,60,58,10,8,4,3,0.9,0.6
2023-08-28T07:00:00,1820A,114.361,36.0681,安阳市,银杏小区,,25,19,16,17,9,86,73,63,63,8,6,6,5,0.7,0.7
2023-08-28T07:00:00,1824A,114.3389,34.7781,开封市,肿瘤医院,,26,19,13,18,11,84,59,68,66,9,5,7,4,0.8,0.5
2023-08-28T07:00:00,1826A,114.2885,34.7965,开封市,世纪星幼儿园,,20,20,16,10,7,83,59,66,63,17,13,12,8,1.2,0.8
2023-08-28T07:00:00,1828A,113.227,35.2125,焦作市,市环保局,,32,32,20,18,11,95,19,24,19,18,15,6,6,0.5,0.5
2023-08-28T07:00:00,1830A,113.1992,35.2590,焦作市,影视城,,,,,,,,,,,,,,,,
2023-08-28T07:00:00,1832A,113.3257,33.742,平顶山市,新华旅馆,,,,6,,15,87,,92,,,9,,2,,0.5
2023-08-28T07:00:00,1833A,113.2919,33.737,平顶山市,规划设计院,,24,24,12,15,8,91,56,72,66,8,5,6,6,0.7,0.6
2023-08-28T07:00:00,1834A,113.182,33.774,平顶山市,平顶山工学院,,46,46,21,19,6,89,46,84,62,20,11,10,5,0.6,0.4
2023-08-28T07:00:00,1835A,111.1922,34.7752,三门峡市,市政府,,26,26,17,15,12,94,43,70,55,16,16,17,6,0.9,1.1
2023-08-28T07:00:00,1836A,111.1587,34.7942,三门峡市,开发区,,41,41,21,18,15,91,41,72,59,1,4,10,6,0.8,1
2023-08-28T07:00:00,1838A,111.143,34.7955,三门峡市,风景区,,,,,,,,,,,,,,,,
2023-08-28T07:00:00,1840A,111.2992,30.6981,宜昌市,白龙岗,,17,17,12,2,1,106,51,75,67,23,18,2,2,0.5,0.5
2023-08-28T07:00:00,1841A,111.3549,30.6465,宜昌市,伍家岗,,17,17,10,9,3,106,45,66,63,24,16,3,4,0.5,0.4
2023-08-28T07:00:00,1842A,111.2628,30.6961,宜昌市,点军区,,26,26,17,5,5,110,20,34,27,13,14,6,6,0.5,0.5
2023-08-28T07:00:00,1843A,111.3275,30.7819,宜昌市,夷陵区,,17,12,9,0,0,95,53,74,69,10,13,4,4,0.4,0.5
2023-08-28T07:00:00,1844A,112.2494,30.3197,荆州市,市图书馆,,24,24,13,14,7,95,73,83,77,6,6,8,8,0.7,0.7
2023-08-28T07:00:00,1845A,112.2008,30.3544,荆州市,市委党校,,23,17,11,9,6,97,73,81,77,8,7,9,8,0.6,0.7
2023-08-28T07:00:00,1847A,113.1094,29.3578,岳阳市,南湖风景区,,21,8,12,7,11,74,66,69,68,4,6,5,6,0.6,0.6
2023-08-28T07:00:00,1848A,113.1493,29.4251,岳阳市,城陵矶,,19,9,12,3,8,69,58,62,60,9,10,6,7,0.9,0.9
2023-08-28T07:00:00,1849A,113.1497,29.3575,岳阳市,开发区,,19,8,15,4,9,70,60,67,64,8,8,9,7,0.6,0.6
2023-08-28T07:00:00,1850A,113.2621,29.4758,岳阳市,云溪区,,21,8,10,2,7,73,67,64,64,5,10,6,6,0.6,0.7
2023-08-28T07:00:00,1851A,112.9943,29.4402,岳阳市,君山区,,19,12,12,11,14,72,58,63,63,15,14,7,8,0.5,0.5
2023-08-28T07:00:00,1852A,113.2117,29.355,岳阳市,金凤水库,,25,7,14,2,9,83,79,74,74,1,5,2,2,0.6,0.7
2023-08-28T07:00:00,1854A,111.6975,28.9703,常德市,市二中,,26,11,11,4,5,89,82,82,82,2,4,4,4,0.5,0.6
2023-08-28T07:00:00,1857A,111.7158,29.1456,常德市,白鹤山,,25,6,3,4,6,91,77,82,81,3,3,7,7,0.4,0.5
2023-08-28T07:00:00,1858A,110.5319,29.1217,张家界市,永定新区,,21,21,13,12,12,88,29,57,42,12,10,6,6,0.3,0.4
2023-08-28T07:00:00,1859A,110.4697,29.1242,张家界市,电业局,,13,12,9,9,10,88,39,64,53,8,10,4,4,0.4,0.4
2023-08-28T07:00:00,1860A,110.5594,29.3547,张家界市,未央路,,17,17,11,8,7,83,28,44,32,5,6,3,3,0.4,0.3
2023-08-28T07:00:00,1861A,110.4417,29.315,张家界市,袁家界,,,,8,,4,86,73,71,69,2,4,7,7,0.7,0.7
2023-08-28T07:00:00,1862A,110.4144,25.3167,桂林市,电子科大尧山校区,,,,32,7,16,72,57,47,47,5,6,4,4,0.7,0.6
2023-08-28T07:00:00,1863A,110.2819,25.2697,桂林市,监测站,,23,9,22,16,14,76,55,51,51,6,10,6,7,0.6,0.5
2023-08-28T07:00:00,1864A,110.3089,25.2708,桂林市,龙隐路小学,,18,6,23,6,12,85,56,47,47,5,8,6,8,0.8,0.7
2023-08-28T07:00:00,1865A,110.2869,25.2178,桂林市,八中,,18,4,20,0,5,77,55,49,49,7,10,4,5,0.6,0.5
2023-08-28T07:00:00,1866A,109.2262,21.588,北海市,牛尾岭水库,,27,27,18,11,7,52,15,22,18,10,8,7,5,0.5,0.5
2023-08-28T07:00:00,1867A,109.1436,21.4086,北海市,海滩公园,,33,33,36,5,5,67,57,64,61,4,4,3,3,0.5,0.5
2023-08-28T07:00:00,1868A,109.0981,21.4661,北海市,新市环保局,,16,14,18,7,6,70,50,61,58,9,4,3,3,0.4,0.4
2023-08-28T07:00:00,1869A,109.1778,21.5233,北海市,北海工业园,,25,25,27,12,11,66,12,46,25,16,9,6,4,0.5,0.5
2023-08-28T07:00:00,1870A,109.4856,24.3895,柳州市,柳东小学,,6,6,18,4,16,86,18,19,18,5,6,5,6,0.4,0.4
2023-08-28T07:00:00,1871A,109.4157,24.3277,柳州市,环保监测站,,9,9,22,0,12,78,24,33,28,14,9,4,4,0.7,0.5
2023-08-28T07:00:00,1872A,109.389,24.341,柳州市,河西水厂,,10,5,20,2,11,86,32,32,30,7,11,4,4,0.6,0.6
2023-08-28T07:00:00,1873A,109.4311,24.2921,柳州市,市四中,,10,8,19,5,8,84,31,42,32,14,11,6,6,0.7,0.7
2023-08-28T07:00:00,1874A,109.4006,24.3631,柳州市,市九中,,,,28,,16,52,,50,,,10,,7,,1.0
2023-08-28T07:00:00,1875A,109.4958,24.3134,柳州市,古亭山,,12,7,20,5,11,86,37,42,38,5,10,6,6,0.5,0.6
2023-08-28T07:00:00,1876A,109.5078,18.2489,三亚市,河东子站,,21,21,20,13,7,75,47,40,39,5,7,3,3,0.4,0.3
2023-08-28T07:00:00,1877A,109.4964,18.2681,三亚市,河西子站,,15,15,17,9,7,74,45,40,37,5,5,2,2,0.4,0.3
2023-08-28T07:00:00,1878A,104.7778,31.4741,绵阳市,富乐山,,,,27,,15,83,,73,,,10,,4,,0.5
2023-08-28T07:00:00,1879A,104.7563,31.4535,绵阳市,市人大,,20,18,28,14,16,145,39,45,44,19,26,8,7,0.4,0.4
2023-08-28T07:00:00,1880A,104.6697,31.4668,绵阳市,高新区自来水公司,,,,35,,17,78,,73,,,30,,8,,0.4
2023-08-28T07:00:00,1881A,104.7287,31.5075,绵阳市,三水厂,,,,37,,21,66,,63,,,33,,7,,0.6
2023-08-28T07:00:00,1882A,104.563,28.793,宜宾市,石马中学,,,,,,,,,,,,,,,,
2023-08-28T07:00:00,1883A,104.6201,28.7728,宜宾市,市委,,46,46,31,21,16,128,16,19,18,36,27,12,9,0.6,0.5
2023-08-28T07:00:00,1884A,104.6055,28.793,宜宾市,宜宾四中,颗粒物(PM10),51,52,34,25,17,128,17,24,21,36,28,14,10,0.6,0.6
2023-08-28T07:00:00,1885A,104.639,28.7562,宜宾市,市政府,,34,34,31,17,16,128,43,30,27,22,31,11,9,0.5,0.6
2023-08-28T07:00:00,1886A,104.5742,28.7199,宜宾市,黄金嘴,,26,26,22,14,14,138,26,36,32,27,22,10,8,0.4,0.4
2023-08-28T07:00:00,1888A,101.6891,26.571,攀枝花市,弄弄坪,,38,38,27,12,10,56,24,45,31,14,15,10,10,1.0,0.9
2023-08-28T07:00:00,1889A,101.5769,26.5928,攀枝花市,河门口,,24,24,25,11,12,58,15,29,24,15,21,8,17,0.9,1.5
2023-08-28T07:00:00,1890A,101.7169,26.585,攀枝花市,炳草岗,颗粒物(PM10),52,54,32,21,13,67,7,21,13,29,27,23,17,1.3,1.2
2023-08-28T07:00:00,1891A,101.7369,26.5008,攀枝花市,仁和,,24,24,22,15,14,76,7,14,13,20,22,10,16,1.4,1.5
2023-08-28T07:00:00,1893A,105.4324,28.9634,泸州市,九狮山,,29,29,16,13,9,98,25,36,27,18,15,5,5,0.5,0.4
2023-08-28T07:00:00,1894A,105.4427,28.9063,泸州市,小市上码头,,41,41,26,16,8,121,55,65,63,9,9,6,6,0.6,0.5
2023-08-28T07:00:00,1895A,105.4241,28.8573,泸州市,兰田宪桥,,33,33,25,12,12,124,45,60,47,15,12,6,6,0.6,0.6
2023-08-28T07:00:00,1896A,105.4379,28.8833,泸州市,市环监站,,34,34,21,9,6,112,45,61,53,10,12,15,9,0.5,0.5
2023-08-28T07:00:00,1901A,104.4239,31.1208,德阳市,东山公园,,48,48,41,23,14,199,37,132,75,19,16,2,2,0.6,0.5
2023-08-28T07:00:00,1902A,104.3826,31.1317,德阳市,西小区,,46,46,49,22,24,194,32,69,38,24,30,2,2,0.6,0.7
2023-08-28T07:00:00,1904A,104.3553,31.1091,德阳市,耐火材料厂,,46,46,58,21,24,197,27,44,25,22,27,1,3,0.6,0.7
2023-08-28T07:00:00,1905A,106.056,30.8064,南充市,西山风景区,,,,12,,8,82,,80,,,6,,4,,0.4
2023-08-28T07:00:00,1906A,106.0789,30.8023,南充市,南充市委,,40,40,22,22,11,110,11,40,25,20,15,8,10,0.5,0.4
2023-08-28T07:00:00,1907A,106.1031,30.8217,南充市,南充炼油厂,,43,43,26,16,9,109,5,57,29,21,15,8,10,0.6,0.4
2023-08-28T07:00:00,1908A,106.1064,30.7856,南充市,高坪区监测站,,,,21,,12,69,,67,,,17,,10,,0.4
2023-08-28T07:00:00,1909A,106.0642,30.7636,南充市,嘉陵区环保局,,33,33,24,17,12,112,11,44,24,25,17,9,10,0.4,0.4
2023-08-28T07:00:00,1910A,106.1087,30.8388,南充市,市环境监测站,,44,44,24,17,16,101,5,50,22,20,15,6,8,0.5,0.4
2023-08-28T07:00:00,1911A,106.9222,27.6869,遵义市,丁字口,,20,15,14,7,7,92,64,74,72,10,11,3,4,0.6,0.6
2023-08-28T07:00:00,1912A,106.9242,27.7019,遵义市,凤凰山,,,,17,,12,81,,78,,,6,,6,,0.5
2023-08-28T07:00:00,1913A,106.8906,27.6486,遵义市,忠庄,,20,20,18,7,10,93,62,66,64,10,10,1,2,0.5,0.4
2023-08-28T07:00:00,1914A,106.9231,27.6506,遵义市,舟水桥,,,,18,,9,69,,75,,,14,,2,,0.5
2023-08-28T07:00:00,1915A,106.9178,27.72,遵义市,干田坝,,19,19,19,10,10,88,51,47,47,9,14,4,4,0.6,0.6
2023-08-28T07:00:00,1916A,103.7897,25.5035,曲靖市,环境监测站,,25,16,15,7,8,96,77,93,80,16,14,9,8,0.7,0.6
2023-08-28T07:00:00,1917A,103.8,25.5364,曲靖市,烟厂办公区,,22,22,16,9,6,98,66,91,76,19,10,4,6,0.5,0.4
2023-08-28T07:00:00,1918A,108.7197,34.3956,咸阳市,气象站,,,,,,,,,,,,,,,,
2023-08-28T07:00:00,1919A,108.673,34.3155,咸阳市,实验中学,,25,23,21,17,13,79,38,51,48,10,11,5,4,0.9,0.9
2023-08-28T07:00:00,1920A,108.7233,34.3617,咸阳市,师范学院,,26,24,16,18,10,88,51,55,53,16,17,6,6,0.9,0.9
2023-08-28T07:00:00,1922A,109.0656,35.0994,铜川市,党校,,11,11,24,7,17,75,18,22,21,7,19,8,8,0.8,1
2023-08-28T07:00:00,1923A,109.0697,35.0697,铜川市,王益区政府,,22,22,27,10,16,89,25,38,31,10,16,6,5,0.7,0.8
2023-08-28T07:00:00,1924A,108.9344,34.9058,铜川市,新区管委会,,41,41,30,18,14,86,41,44,31,12,18,6,5,0.8,0.9
2023-08-28T07:00:00,1926A,109.4131,36.6275,延安市,枣园,,22,22,13,9,8,117,17,28,25,20,16,6,6,0.7,0.7
2023-08-28T07:00:00,1927A,109.4761,36.6028,延安市,延大医附院,,20,20,14,11,5,116,24,28,28,19,17,4,4,0.5,0.6
2023-08-28T07:00:00,1929A,109.5056,36.6106,延安市,百米大道,,22,22,19,14,12,115,30,35,35,20,17,6,4,0.9,0.8
2023-08-28T07:00:00,1930A,107.185,34.3063,宝鸡市,庙沟村,,29,29,17,11,8,96,15,30,22,16,13,4,4,0.3,0.3
2023-08-28T07:00:00,1931A,107.0708,34.3017,宝鸡市,竹园沟,,17,17,15,10,6,114,14,28,24,15,12,5,5,0.6,0.6
2023-08-28T07:00:00,1932A,107.1906,34.3672,宝鸡市,三陆医院,,25,25,24,11,12,117,26,60,45,23,18,6,7,0.6,0.6
2023-08-28T07:00:00,1933A,107.1431,34.3547,宝鸡市,监测站,,26,26,22,10,10,107,22,33,27,25,23,5,6,0.5,0.5
2023-08-28T07:00:00,1934A,107.1186,34.3739,宝鸡市,技工学校,,17,17,22,11,13,117,20,31,25,22,18,6,7,0.5,0.5
2023-08-28T07:00:00,1935A,107.3906,34.3528,宝鸡市,陈仓区环保局家属楼,,,,27,,12,71,,66,,,17,,7,,0.5
2023-08-28T07:00:00,1936A,107.2058,34.3497,宝鸡市,文理学院,,,,23,,9,69,,64,,,16,,6,,0.6
2023-08-28T07:00:00,1937A,107.2386,34.3622,宝鸡市,三迪小学,,28,28,25,14,10,117,29,54,37,18,15,6,6,0.5,0.5
2023-08-28T07:00:00,1938A,109.5293,34.5101,渭南市,农科所,,,,14,,11,62,,62,,,16,,4,,0.6
2023-08-28T07:00:00,1939A,109.4974,34.4877,渭南市,日报社,,27,27,15,17,12,97,18,61,23,39,25,4,4,0.8,0.7
2023-08-28T07:00:00,1940A,109.4636,34.493,渭南市,体育馆,,26,22,15,15,8,102,8,70,29,52,18,4,2,0.7,0.7
2023-08-28T07:00:00,1941A,109.4259,34.5023,渭南市,高新一小,,,,18,,8,83,,77,,,11,,5,,0.7
2023-08-28T07:00:00,1943A,102.1725,38.5339,金昌市,新川苑,,36,33,32,18,9,138,113,119,117,14,15,10,13,0.6,0.6
2023-08-28T07:00:00,1944A,102.1692,38.5167,金昌市,天庆家园,,,,32,,12,116,,114,,,20,,39,,0.6
2023-08-28T07:00:00,1945A,98.2908,39.7711,嘉峪关市,气象局,颗粒物(PM10),65,80,59,24,17,134,96,124,108,8,11,6,7,0.3,0.3
2023-08-28T07:00:00,1947A,106.3394,38.817,石嘴山市,沙湖旅游区,细颗粒物(PM2.5),59,26,48,42,42,169,21,39,29,27,24,14,18,0.7,0.9
2023-08-28T07:00:00,1948A,106.3668,39.0145,石嘴山市,大武口朝阳西街,细颗粒物(PM2.5),73,64,54,53,35,170,15,38,17,52,41,3,14,0.8,0.7
2023-08-28T07:00:00,1949A,106.7704,39.2282,石嘴山市,惠农南大街,,23,22,35,16,17,148,22,48,36,30,31,11,24,0.6,0.7
2023-08-28T07:00:00,1950A,106.7099,39.1325,石嘴山市,红果子镇惠新街,,20,11,28,14,16,154,16,58,38,27,23,7,13,0.4,0.5
2023-08-28T07:00:00,1951A,84.895,45.6094,克拉玛依市,长征新村,颗粒物(PM10),55,60,38,3,7,140,101,110,105,2,14,10,11,0.2,0.2
2023-08-28T07:00:00,1952A,84.8988,45.5893,克拉玛依市,南林小区,颗粒物(PM10),56,62,41,13,12,134,101,78,78,2,28,6,7,0.2,0.4
2023-08-28T07:00:00,1954A,84.905,44.3396,克拉玛依市,独山子区,颗粒物(PM10),52,53,23,12,13,152,101,116,112,1,7,8,9,0.3,0.4
2023-08-28T07:00:00,1955A,85.6979,46.098,克拉玛依市,乌尔禾区商贸楼,,,,29,29,8,119,87,99,91,2,10,9,10,0.2,0.3
2023-08-28T07:00:00,1956A,86.1472,41.7538,巴音郭楞州,孔雀公园,,38,38,44,2,13,126,109,101,101,5,19,9,9,0.2,0.3
2023-08-28T07:00:00,1957A,86.1972,41.7166,巴音郭楞州,棉纺厂,,28,28,40,17,18,123,87,81,81,15,23,10,7,0.4,0.3
2023-08-28T07:00:00,1958A,86.2357,41.7173,巴音郭楞州,经济开发区,,33,29,35,6,11,127,103,106,103,5,9,10,9,0.2,0.3
2023-08-28T07:00:00,1961A,117.532,36.6868,济南市,东山小学,,,,23,,16,57,,59,,,28,,5,,0.6
2023-08-28T07:00:00,1966A,120.0405,35.8735,青岛市,黄岛区4号,,,,10,,6,98,,94,,,15,,5,,0.4
2023-08-28T07:00:00,1982A,122.0693,37.2174,威海市,文登开发区,,,,17,,8,80,,80,,,17,,6,,0.7
2023-08-28T07:00:00,2031A,113.1817,27.9958,株洲市,云田中学,,20,4,15,0,10,93,63,66,64,6,9,5,6,0.8,0.8
2023-08-28T07:00:00,2054A,114.1099,32.1059,信阳市,平桥分局,,,,8,,3,80,,81,,,6,,1,,0.5
2023-08-28T07:00:00,2064A,113.9956,32.1271,信阳市,南湾水厂,,,,16,,4,81,,81,,,6,,2,,0.6
2023-08-28T07:00:00,2065A,114.0775,32.1195,信阳市,市酿酒公司,,,,15,,6,79,,80,,,11,,2,,0.5
2023-08-28T07:00:00,2066A,114.0609,32.1399,信阳市,审计局,,,,14,,10,84,,86,,,8,,2,,0.6
2023-08-28T07:00:00,2067A,114.6613,33.6128,周口市,市环境监测站,,,,13,,9,93,,98,,,6,,6,,0.3
2023-08-28T07:00:00,2068A,114.6758,33.6347,周口市,周口师范,,,,10,,8,87,,91,,,7,,2,,0.5
2023-08-28T07:00:00,2069A,114.6546,33.5979,周口市,市运管处,,20,17,12,9,6,105,64,69,68,13,10,7,6,0.6,0.5
2023-08-28T07:00:00,2070A,114.6369,33.6406,周口市,川汇区环保局,,,,9,,3,87,,90,,,5,,4,,0.5
2023-08-28T07:00:00,2075A,117.6336,24.4674,漳州市,九湖,,,,,,,,,,,,,,,,
2023-08-28T07:00:00,2160A,112.85,35.5051,晋城市,自来水公司,,,,24,,8,87,,88,,,18,,10,,1.4
2023-08-28T07:00:00,2161A,112.8318,35.4936,晋城市,白云商贸,,,,29,,4,85,,86,,,17,,9,,1.2
2023-08-28T07:00:00,2162A,112.8508,35.4887,晋城市,市环保局,,,,29,,7,79,,79,,,16,,10,,1.1
2023-08-28T07:00:00,2163A,112.8676,35.4897,晋城市,技术学院,,,,25,,5,82,,84,,,18,,9,,1.3
2023-08-28T07:00:00,2165A,112.8453,35.546,晋城市,白马寺,,,,,,,,,,,,,,,,
2023-08-28T07:00:00,2166A,112.4397,39.3522,朔州市,平朔,,43,43,28,23,14,107,5,6,6,28,17,6,5,0.7,0.6
2023-08-28T07:00:00,2167A,112.4575,39.3617,朔州市,朔唯,颗粒物(PM10),58,65,34,35,14,106,2,19,5,36,21,13,6,0.9,0.6
2023-08-28T07:00:00,2168A,112.4258,39.3197,朔州市,区政府,,42,42,25,10,7,106,15,16,16,29,17,8,5,0.7,0.6
2023-08-28T07:00:00,2169A,112.4072,39.3278,朔州市,市环保局,,43,35,27,30,11,116,18,19,19,21,18,11,7,0.6,0.5
2023-08-28T07:00:00,2170A,112.4272,39.3681,朔州市,市二中,颗粒物(PM10),54,58,35,28,16,99,3,3,3,30,20,5,6,0.9,0.6
2023-08-28T07:00:00,2171A,112.7532,37.6945,晋中市,锦纶小区,,16,5,8,11,9,98,25,34,19,23,24,8,8,0.3,0.4
2023-08-28T07:00:00,2173A,112.7249,37.7067,晋中市,南都小区,,20,19,13,14,11,94,20,38,22,20,24,5,5,0.5,0.5
2023-08-28T07:00:00,2174A,112.6991,37.6982,晋中市,榆次区政府,,22,22,14,14,11,94,23,36,23,23,25,7,7,0.4,0.4
2023-08-28T07:00:00,2175A,110.9956,35.0147,运城市,运城中学,,,,25,,16,71,,67,,,12,,5,,1.3
2023-08-28T07:00:00,2178A,110.9686,35.0303,运城市,地区技校,,,,22,,14,66,,65,,,12,,4,,1.1
2023-08-28T07:00:00,2179A,111.0414,35.1147,运城市,空港新区,,,,23,,20,68,,68,,,14,,4,,1.1
2023-08-28T07:00:00,2181A,112.7383,38.4519,忻州市,开发区,,25,23,22,17,16,88,26,14,13,23,22,6,7,0.7,0.6
2023-08-28T07:00:00,2182A,112.7003,38.4928,忻州市,会展中心,,,,20,,15,54,,57,,,24,,8,,0.5
2023-08-28T07:00:00,2183A,111.1406,37.5211,吕梁市,环保局,,,,21,,6,55,,59,,,26,,2,,0.5
2023-08-28T07:00:00,2185A,111.1297,37.5136,吕梁市,自来水公司,,,,20,,7,61,,61,,,28,,4,,0.7
2023-08-28T07:00:00,2187A,106.8174,39.6973,乌海市,市林业局,颗粒物(PM10),53,56,53,27,24,155,45,67,44,31,25,25,25,1.6,1
2023-08-28T07:00:00,2188A,106.7907,39.6667,乌海市,中海勃湾学校,,45,45,45,29,22,150,50,42,42,28,33,23,22,1.6,0.9
2023-08-28T07:00:00,2191A,122.2532,43.6801,通辽市,艺术职业学校,,,,26,,10,66,,59,,,15,,5,,0.3
2023-08-28T07:00:00,2192A,119.7594,49.2261,呼伦贝尔市,区环保局,,36,36,45,22,22,80,7,6,5,20,27,6,6,0.4,0.6
2023-08-28T07:00:00,2195A,107.4212,40.761,巴彦淖尔市,附二中,颗粒物(PM10),57,64,55,23,19,147,36,46,43,39,26,12,13,0.7,0.6
2023-08-28T07:00:00,2196A,107.37,40.7372,巴彦淖尔市,市环保大楼,,41,41,46,6,18,148,30,66,49,37,18,7,7,0.6,0.6
2023-08-28T07:00:00,2197A,113.1306,40.9923,乌兰察布市,集宁新区,,,,26,,16,90,,83,,,15,,13,,0.4
2023-08-28T07:00:00,2200A,122.0392,46.0656,兴安盟,胜华新制药厂,,,,34,,14,44,,41,,,14,,2,,0.4
2023-08-28T07:00:00,2201A,121.9504,46.0741,兴安盟,科右前旗环保局,,,,26,,19,44,,41,,,13,,2,,0.4
2023-08-28T07:00:00,2202A,116.1042,43.9317,锡林郭勒盟,市环保监测站,,,,15,,7,78,,73,,,5,,10,,0.2
2023-08-28T07:00:00,2203A,116.0781,43.9311,锡林郭勒盟,市政府,,,,12,,3,84,,79,,,7,,12,,0.2
2023-08-28T07:00:00,2204A,105.6467,38.8363,阿拉善盟,西城区西花园,,34,34,39,20,22,155,68,98,75,17,13,7,9,0.7,0.7
2023-08-28T07:00:00,2205A,105.6985,38.8411,阿拉善盟,蒙二幼,,24,24,28,12,14,154,72,96,80,14,9,8,8,0.3,0.3
2023-08-28T07:00:00,2206A,105.724,38.8516,阿拉善盟,环保局新楼,,30,18,26,7,11,153,95,100,95,6,7,8,9,0.3,0.4
2023-08-28T07:00:00,2207A,121.6094,41.998,阜新市,工业园区,,24,24,38,10,13,96,52,58,43,18,18,8,24,0.9,1
2023-08-28T07:00:00,2208A,121.6697,42.0279,阜新市,长青街,,,,42,,16,61,,53,,,19,,42,,0.6
2023-08-28T07:00:00,2209A,121.6673,42.0705,阜新市,农业园区,,34,34,23,11,10,86,54,64,53,15,12,8,27,1.6,0.6
2023-08-28T07:00:00,2210A,121.6717,42.0224,阜新市,东苑,,,,46,,21,62,,54,,,15,,48,,0.5
2023-08-28T07:00:00,2211A,121.6506,42.0498,阜新市,玉龙新城,,,,35,,11,56,,49,,,21,,26,,0.7
2023-08-28T07:00:00,2212A,123.2,41.1953,辽阳市,宏伟区,,,,38,,16,56,,50,,,24,,35,,0.7
2023-08-28T07:00:00,2213A,123.1683,41.2495,辽阳市,新华园,,,,40,,16,53,,47,,,21,,39,,0.6
2023-08-28T07:00:00,2214A,123.2354,41.2639,辽阳市,滨河路,,39,39,39,21,16,103,16,26,24,28,24,29,27,1.0,0.8
2023-08-28T07:00:00,2215A,123.149,41.2991,辽阳市,铁西工业园,,,,32,,14,54,,49,,,23,,20,,0.8
2023-08-28T07:00:00,2216A,123.8139,42.3022,铁岭市,汇工街西,,,,24,,9,58,,52,,,19,,27,,0.4
2023-08-28T07:00:00,2217A,123.8649,42.2923,铁岭市,水上乐园,,37,37,29,17,9,85,13,10,10,37,36,2,2,0.6,0.5
2023-08-28T07:00:00,2218A,123.8486,42.2867,铁岭市,银州路东段,,,,25,,6,42,,40,,,32,,6,,0.4
2023-08-28T07:00:00,2219A,123.7153,42.2217,铁岭市,金沙江路北,,,,27,,10,60,,53,,,18,,7,,0.5
2023-08-28T07:00:00,2220A,120.4318,41.5881,朝阳市,西梁,,48,48,29,24,12,99,16,32,28,36,20,11,9,0.6,0.5
2023-08-28T07:00:00,2221A,120.4521,41.5646,朝阳市,河畔小区,,37,37,30,18,16,98,58,56,56,12,12,15,11,0.7,0.6
2023-08-28T07:00:00,2222A,120.4176,41.5648,朝阳市,八里堡,,43,43,36,16,13,100,25,39,37,40,22,11,10,0.7,0.7
2023-08-28T07:00:00,2223A,120.3806,41.5969,朝阳市,农业园区,,,,28,,13,46,,45,,,22,,6,,0.6
2023-08-28T07:00:00,2225A,124.4002,43.1713,四平市,一商场,,,,26,,11,54,,51,,,21,,7,,0.2
2023-08-28T07:00:00,2226A,124.388,43.193,四平市,境园,,,,24,,9,48,,45,,,18,,5,,0.2
2023-08-28T07:00:00,2227A,125.1358,42.8845,辽源市,环保局,,,,14,,9,62,,53,,,14,,8,,0.5
2023-08-28T07:00:00,2229A,125.9358,41.7173,通化市,光明,,,,37,,20,42,,37,,,19,,27,,0.8
2023-08-28T07:00:00,2230A,125.9446,41.7325,通化市,铁路,,,,33,,21,48,,41,,,17,,25,,1.0
2023-08-28T07:00:00,2231A,126.4219,41.9171,白山市,喜丰,,,,46,,9,57,,52,,,13,,24,,0.5
2023-08-28T07:00:00,2232A,126.4077,41.9419,白山市,环保局,,,,25,,8,56,,50,,,9,,9,,0.6
2023-08-28T07:00:00,2233A,124.8006,45.1214,松原市,江南,,,,19,,11,50,,45,,,16,,6,,0.5
2023-08-28T07:00:00,2234A,124.7965,45.1722,松原市,江北,,,,19,,10,46,,44,,,16,,3,,0.4
2023-08-28T07:00:00,2235A,122.7911,45.6077,白城市,洮北区环保局,,,,26,,12,53,,52,,,17,,7,,0.2
2023-08-28T07:00:00,2236A,122.8738,45.5725,白城市,市环保局,,,,23,,8,62,,59,,,13,,8,,0.2
2023-08-28T07:00:00,2237A,129.47,42.8883,延边朝鲜族自治州,妇幼医院,,,,19,,9,47,,45,,,11,,8,,0.5
2023-08-28T07:00:00,2238A,129.5055,42.9108,延边朝鲜族自治州,延边医院,,,,27,,12,51,,51,,,19,,8,,0.6
2023-08-28T07:00:00,2239A,129.3964,42.8881,延边朝鲜族自治州,朝阳川镇医院,,,,19,,4,50,,48,,,7,,8,,0.5
2023-08-28T07:00:00,2240A,130.9762,45.3001,鸡西市,环保局,,,,30,,13,32,,34,,,18,,5,,0.4
2023-08-28T07:00:00,2243A,130.9429,45.3039,鸡西市,第一中学,,,,25,,5,71,,54,,,5,,6,,0.2
2023-08-28T07:00:00,2244A,130.2537,47.3416,鹤岗市,哈啤分公司,,,,10,,6,31,,32,,,6,,10,,0.2
2023-08-28T07:00:00,2245A,130.2684,47.3086,鹤岗市,斯达机电,,,,11,,7,28,,30,,,7,,7,,0.4
2023-08-28T07:00:00,2246A,130.3114,47.3388,鹤岗市,东山纸板厂,,,,19,,9,26,,29,,,6,,10,,0.3
2023-08-28T07:00:00,2247A,130.1097,47.3382,鹤岗市,五号水库,,,,8,,8,33,,32,,,5,,11,,0.1
2023-08-28T07:00:00,2248A,131.1511,46.6937,双鸭山市,双合村,,,,20,,7,40,,39,,,6,,6,,0.1
2023-08-28T07:00:00,2249A,131.1652,46.6191,双鸭山市,南小市,,,,20,,10,45,,45,,,7,,6,,0.2
2023-08-28T07:00:00,2250A,131.1524,46.6554,双鸭山市,环保局,,16,12,16,11,13,70,30,22,22,8,9,8,9,0.2,0.3
2023-08-28T07:00:00,2251A,131.12,46.5656,双鸭山市,苗圃,,,,13,,16,49,,51,,,5,,3,,0.3
2023-08-28T07:00:00,2252A,128.5159,47.4311,伊春市,环保局,,17,17,13,6,6,55,13,23,15,5,8,6,5,0.3,0.3
2023-08-28T07:00:00,2253A,128.9102,47.7412,伊春市,电力嘉园,,10,6,10,7,8,65,15,24,17,5,8,5,5,0.5,0.5
2023-08-28T07:00:00,2254A,129.5029,48.471,伊春市,汤旺河国家公园,,22,22,22,15,11,58,23,16,16,1,1,13,14,0.1,0.1
2023-08-28T07:00:00,2255A,130.2751,46.8028,佳木斯市,佳纺,,,,16,,7,41,,40,,,8,,3,,0.4
2023-08-28T07:00:00,2256A,130.3995,46.8307,佳木斯市,发电厂,,,,15,,9,45,,43,,,7,,5,,0.4
2023-08-28T07:00:00,2257A,130.3258,46.7975,佳木斯市,环保局,,,,17,,7,41,,40,,,14,,4,,0.4
2023-08-28T07:00:00,2258A,130.3648,46.8032,佳木斯市,十一中,,,,14,,9,44,,42,,,10,,6,,0.4
2023-08-28T07:00:00,2259A,130.3794,46.7588,佳木斯市,四丰,,,,12,,8,44,,46,,,11,,1,,0.3
2023-08-28T07:00:00,2262A,131.0518,45.8751,七台河市,新一中,,16,16,16,11,8,76,17,13,12,5,6,8,7,0.7,0.7
2023-08-28T07:00:00,2263A,127.4833,50.2524,黑河市,交通局,,,,11,,4,17,,18,,,11,,4,,0.5
2023-08-28T07:00:00,2264A,127.5144,50.2341,黑河市,环保局,,,,16,,10,25,,25,,,7,,3,,0.3
2023-08-28T07:00:00,2265A,127.5291,50.2472,黑河市,大黑河岛,,,,7,,8,,,,,,,,,,
2023-08-28T07:00:00,2266A,126.9785,46.6365,绥化市,人和东街,,,,29,,14,38,,34,,,18,,4,,0.3
2023-08-28T07:00:00,2267A,126.964,46.6528,绥化市,党政办公中心,,,,16,,7,38,,34,,,14,,5,,0.3
2023-08-28T07:00:00,2269A,124.1069,50.4097,大兴安岭地区,科技局,,16,16,16,10,10,60,11,22,15,2,4,4,4,0.2,0.2
2023-08-28T07:00:00,2270A,117.396,32.939,蚌埠市,工人疗养院,,,,10,,2,71,,70,,,7,,2,,0.4
2023-08-28T07:00:00,2271A,117.3605,32.9427,蚌埠市,百货大楼,,,,11,,2,71,,70,,,6,,4,,0.3
2023-08-28T07:00:00,2273A,117.4185,32.8911,蚌埠市,蚌埠学院,,,,8,,8,68,,67,,,7,,3,,0.3
2023-08-28T07:00:00,2274A,117.3533,32.9673,蚌埠市,淮上区政府,,,,7,,6,74,,74,,,6,,4,,0.3
2023-08-28T07:00:00,2275A,117.3145,32.8977,蚌埠市,高新区,,,,9,,5,71,,70,,,10,,4,,0.3
2023-08-28T07:00:00,2277A,116.8305,32.7727,淮南市,潘集区政府,,,,10,,9,65,,63,,,12,,5,,0.2
2023-08-28T07:00:00,2278A,117.0067,32.6524,淮南市,师范学院,,,,16,,11,61,,60,,,9,,7,,0.4
2023-08-28T07:00:00,2279A,116.8569,32.5951,淮南市,谢家集区政府,,,,11,,6,60,,60,,,13,,9,,0.3
2023-08-28T07:00:00,2280A,116.8281,32.633,淮南市,八公山区政府,,,,19,,14,58,,57,,,9,,5,,0.3
2023-08-28T07:00:00,2281A,116.6325,32.6201,淮南市,焦岗湖风景区管理处,,,,15,,5,48,,44,,,8,,5,,0.7
2023-08-28T07:00:00,2282A,116.8004,33.975,淮北市,监测站,,,,5,,4,86,,86,,,9,,4,,0.7
2023-08-28T07:00:00,2283A,116.8091,33.9007,淮北市,烈山区政府,,,,14,,7,74,,72,,,5,,3,,0.4
2023-08-28T07:00:00,2285A,117.8177,30.9412,铜陵市,市第四中学,,,,34,,15,47,,45,,,19,,10,,0.4
2023-08-28T07:00:00,2286A,117.8059,30.9273,铜陵市,市公路局,,,,32,,19,55,,54,,,19,,13,,0.6
2023-08-28T07:00:00,2287A,117.7807,30.9413,铜陵市,市新民污水厂,,,,42,,17,48,,49,,,24,,6,,0.6
2023-08-28T07:00:00,2288A,117.7439,30.8792,铜陵市,市第九中学,,,,44,,14,44,,43,,,29,,4,,0.7
2023-08-28T07:00:00,2289A,117.846,30.9413,铜陵市,车站新区,,,,27,,17,41,,39,,,20,,5,,0.4
2023-08-28T07:00:00,2290A,117.8483,30.97,铜陵市,市职教基地,,,,21,,8,46,,49,,,10,,6,,0.6
2023-08-28T07:00:00,2291A,117.0809,30.5177,安庆市,环科院,,,,21,,13,52,,55,,,19,,6,,0.8
2023-08-28T07:00:00,2292A,117.0331,30.5119,安庆市,马山宾馆,,,,21,,13,59,,62,,,14,,4,,0.8
2023-08-28T07:00:00,2294A,116.9896,30.6145,安庆市,安庆大学,,,,26,,14,52,,55,,,16,,4,,0.6
2023-08-28T07:00:00,2295A,118.2903,29.6963,黄山市,延安路89号,,,,29,,7,38,,37,,,6,,3,,0.5
2023-08-28T07:00:00,2296A,118.327,29.7178,黄山市,黄山东路89号,,,,18,,7,39,,44,,,9,,4,,0.5
2023-08-28T07:00:00,2297A,118.1371,30.2756,黄山市,黄山区政府5号楼,,,,23,,6,34,,36,,,6,,6,,0.4
2023-08-28T07:00:00,2298A,118.3093,32.3153,滁州市,老年大学,,,,18,,9,67,,67,,,13,,7,,0.3
2023-08-28T07:00:00,2299A,118.3244,32.2786,滁州市,人大宾馆,,,,17,,10,73,,72,,,8,,7,,0.4
2023-08-28T07:00:00,2301A,115.8277,32.8929,阜阳市,市监测站,,,,7,,5,72,,68,,,11,,5,,0.5
2023-08-28T07:00:00,2303A,115.8554,32.8605,阜阳市,开发区,,,,6,,11,72,,68,,,10,,6,,0.4
2023-08-28T07:00:00,2307A,116.5079,31.737,六安市,监测大楼,,,,15,,6,64,,68,,,5,,4,,0.4
2023-08-28T07:00:00,2308A,116.4738,31.7643,六安市,皖西学院,,,,17,,8,65,,71,,,8,,6,,0.3
2023-08-28T07:00:00,2309A,116.4996,31.7905,六安市,朝阳厂,,,,10,,9,66,,71,,,4,,7,,0.5
2023-08-28T07:00:00,2310A,116.5567,31.7886,六安市,开发区,,,,16,,13,60,,63,,,7,,7,,0.6
2023-08-28T07:00:00,2311A,115.8072,33.8399,亳州市,污水处理厂,,,,17,,5,86,,89,,,4,,4,,0.4
2023-08-28T07:00:00,2312A,115.7789,33.8518,亳州市,三国揽胜宫,,,,8,,6,85,,88,,,11,,5,,0.5
2023-08-28T07:00:00,2314A,117.47,30.6618,池州市,池州学院,,,,21,,14,50,,52,,,10,,4,,0.6
2023-08-28T07:00:00,2316A,118.7581,30.9454,宣城市,鳌峰子站,,,,22,,10,53,,57,,,16,,4,,0.4
2023-08-28T07:00:00,2317A,118.7385,30.9743,宣城市,敬亭山子站,,,,23,,10,43,,46,,,18,,7,,0.5
2023-08-28T07:00:00,2318A,118.7173,30.9427,宣城市,开发区子站,,,,22,,10,41,,46,,,14,,6,,0.4
2023-08-28T07:00:00,2319A,119.0141,25.4325,莆田市,荔城区仓后路,,,,23,,10,55,,52,,,9,,8,,0.8
2023-08-28T07:00:00,2320A,119.0015,25.4553,莆田市,莆田市监测站,,,,21,,4,53,,50,,,4,,6,,0.5
2023-08-28T07:00:00,2321A,119.1119,25.4561,莆田市,涵江区六中,,,,22,,7,52,,48,,,10,,7,,0.6
2023-08-28T07:00:00,2322A,119.1013,25.3215,莆田市,秀屿区政府,,,,29,,11,52,,50,,,11,,8,,0.7
2023-08-28T07:00:00,2323A,118.981,25.4792,莆田市,东圳水库,,,,,,,,,,,,,,,,
2023-08-28T07:00:00,2324A,117.6211,26.2625,三明市,三钢,,,,28,,16,47,,48,,,15,,8,,0.7
2023-08-28T07:00:00,2325A,117.635,26.2714,三明市,三明二中,,,,26,,12,50,,52,,,15,,4,,0.8
2023-08-28T07:00:00,2326A,117.6028,26.2378,三明市,三元区政府,,,,29,,15,46,,48,,,15,,9,,1.0
2023-08-28T07:00:00,2327A,117.7275,26.3108,三明市,洋溪,,,,,,,,,,,,,,,,
2023-08-28T07:00:00,2331A,118.0966,26.6761,南平市,茫荡山,,,,,,,,,,,,,,,,
2023-08-28T07:00:00,2332A,118.1681,26.6369,南平市,南平市监测站,,,,21,,11,43,,47,,,8,,5,,0.7
2023-08-28T07:00:00,2333A,118.1825,26.6489,南平市,南平铝业有限公司,,,,21,,12,40,,46,,,11,,5,,0.6
2023-08-28T07:00:00,2334A,118.1756,26.6272,南平市,南平七中,,,,21,,9,44,,47,,,7,,4,,0.6
2023-08-28T07:00:00,2335A,117.0189,25.1181,龙岩市,龙岩师专,,,,,,,,,,,,,,,,
2023-08-28T07:00:00,2336A,117.0217,25.1033,龙岩市,龙岩市监测站,,,,22,,9,46,,42,,,15,,3,,0.5
2023-08-28T07:00:00,2337A,117.0258,25.0661,龙岩市,闽西职业技术学院,,,,23,,9,40,,37,,,12,,5,,0.3
2023-08-28T07:00:00,2338A,117.0196,25.0306,龙岩市,龙岩学院,,,,20,,7,39,,37,,,7,,4,,0.3
2023-08-28T07:00:00,2339A,119.5001,26.6946,宁德市,金涵水库,,,,,,,,,,,,,,,,
2023-08-28T07:00:00,2341A,119.5388,26.6612,宁德市,宁德市监测站,,,,16,,6,45,,41,,,6,,3,,0.4
2023-08-28T07:00:00,2342A,117.3102,29.3867,景德镇市,王港中学,,,,15,,9,34,,33,,,3,,4,,0.5
2023-08-28T07:00:00,2343A,117.2117,29.2933,景德镇市,老干部活动中心,,,,22,,13,49,,47,,,9,,4,,0.3
2023-08-28T07:00:00,2344A,117.1894,29.2789,景德镇市,兽医站,,,,17,,28,53,,51,,,8,,6,,0.4
2023-08-28T07:00:00,2345A,117.1547,29.2617,景德镇市,台达陶瓷,,,,24,,13,49,,47,,,3,,24,,0.3
2023-08-28T07:00:00,2346A,117.2461,29.2956,景德镇市,陶研所,,,,30,,9,49,,47,,,7,,6,,0.4
2023-08-28T07:00:00,2347A,114.0997,27.5002,萍乡市,武功山,,,,5,,7,45,,40,,,4,,11,,0.5
2023-08-28T07:00:00,2348A,113.8385,27.6434,萍乡市,中医院,,,,21,,16,48,,45,,,9,,18,,0.8
2023-08-28T07:00:00,2349A,113.8493,27.6253,萍乡市,市政府车库,,,,24,,15,52,,45,,,11,,20,,0.5
2023-08-28T07:00:00,2350A,113.8676,27.6435,萍乡市,市环保局,,,,22,,12,56,,51,,,10,,15,,0.6
2023-08-28T07:00:00,2351A,113.866,27.6198,萍乡市,安源区政府,,,,19,,11,52,,46,,,8,,16,,0.4
2023-08-28T07:00:00,2352A,115.0861,27.9317,新余市,北岗,,11,5,16,4,11,81,33,24,24,6,5,8,9,0.7,0.7
2023-08-28T07:00:00,2353A,114.9886,27.8431,新余市,飞宇,,17,17,36,5,17,81,36,32,32,8,10,6,4,0.5,0.5
2023-08-28T07:00:00,2354A,114.9231,27.8246,新余市,第二水厂,,17,17,35,2,14,82,42,36,36,8,12,8,10,0.3,0.6
2023-08-28T07:00:00,2355A,114.9308,27.8036,新余市,市气象局,,14,11,29,8,16,85,42,35,35,4,9,5,7,0.8,0.9
2023-08-28T07:00:00,2357A,116.9822,28.1136,鹰潭市,龙虎山,,,,17,,12,41,,37,,,2,,3,,0.5
2023-08-28T07:00:00,2358A,117.0564,28.2642,鹰潭市,新监测站,,,,24,,10,51,,46,,,5,,4,,0.4
2023-08-28T07:00:00,2359A,117.0311,28.2475,鹰潭市,财苑宾馆,,,,21,,8,53,,48,,,5,,2,,0.3
2023-08-28T07:00:00,2360A,117.0222,28.2264,鹰潭市,体育馆,,,,27,,9,52,,47,,,7,,3,,0.4
2023-08-28T07:00:00,2361A,117.0017,28.2131,鹰潭市,三川水表,,,,32,,12,55,,49,,,2,,2,,0.4
2023-08-28T07:00:00,2362A,114.9017,25.9149,赣州市,通天岩,,,,,,,,,,,,,,,,
2023-08-28T07:00:00,2363A,114.9367,25.8664,赣州市,地委,,,,18,,10,62,,64,,,6,,8,,0.8
2023-08-28T07:00:00,2364A,114.9461,25.8481,赣州市,气象台,,19,14,12,13,8,96,49,54,52,7,7,7,7,0.7,0.6
2023-08-28T07:00:00,2365A,114.9322,25.8333,赣州市,市图书馆,,,,18,,9,59,,61,,,10,,9,,0.6
2023-08-28T07:00:00,2366A,114.8905,25.8471,赣州市,华坚鞋城,,21,21,22,14,11,84,39,44,41,5,5,3,4,0.4,0.4
2023-08-28T07:00:00,2367A,114.9754,27.0803,吉安市,红声器材厂,,,,32,,18,54,,54,,,12,,6,,0.7
2023-08-28T07:00:00,2368A,114.9658,27.0999,吉安市,市森林工业局,,,,31,,17,56,,55,,,9,,9,,0.5
2023-08-28T07:00:00,2369A,114.99,27.1312,吉安市,市环境监测站,,,,29,,14,55,,55,,,13,,9,,0.7
2023-08-28T07:00:00,2370A,115.0093,27.0968,吉安市,青原区法院,,,,29,,18,59,,58,,,12,,14,,0.6
2023-08-28T07:00:00,2371A,114.3408,27.8064,宜春市,槟榔水业,,13,12,20,2,10,81,40,38,33,14,14,3,3,0.2,0.4
2023-08-28T07:00:00,2373A,114.3956,27.7844,宜春市,市石油公司,,,,25,,12,44,,40,,,10,,6,,0.8
2023-08-28T07:00:00,2374A,114.3703,27.7914,宜春市,市气象局,,,,27,,16,46,,41,,,12,,5,,0.8
2023-08-28T07:00:00,2375A,114.4013,27.8074,宜春市,市广电局,,,,25,,15,48,,47,,,10,,7,,0.7
2023-08-28T07:00:00,2376A,116.2127,28.0814,抚州市,桐源党溪,,,,24,,12,39,,41,,,4,,2,,0.4
2023-08-28T07:00:00,2377A,116.3544,27.9831,抚州市,市站,,,,26,,13,61,,58,,,7,,1,,0.9
2023-08-28T07:00:00,2378A,116.3565,27.963,抚州市,血防站,,,,27,,9,58,,54,,,4,,2,,1.0
2023-08-28T07:00:00,2379A,116.3564,28.0007,抚州市,采茶剧团,,,,27,,13,56,,55,,,8,,4,,0.7
2023-08-28T07:00:00,2380A,116.385,27.9647,抚州市,医学分院,,,,32,,14,54,,51,,,11,,6,,1.0
2023-08-28T07:00:00,2381A,118.005,28.4572,上饶市,百草园,颗粒物(PM10),51,52,25,22,8,70,3,25,7,26,14,37,17,1.0,0.8
2023-08-28T07:00:00,2382A,117.9756,28.4436,上饶市,市监测站,,,,24,,10,54,,52,,,10,,8,,0.5
2023-08-28T07:00:00,2383A,117.9519,28.4628,上饶市,凤凰光学,,,,25,,11,49,,47,,,12,,13,,0.4
2023-08-28T07:00:00,2385A,114.17,35.9019,鹤壁市,市监测站,,,,19,,13,74,,77,,,14,,6,,0.6
2023-08-28T07:00:00,2386A,114.2956,35.7511,鹤壁市,市交警支队,,,,17,,10,74,,76,,,14,,7,,0.6
2023-08-28T07:00:00,2387A,114.2878,35.7306,鹤壁市,迎宾馆,,,,13,,10,74,,77,,,18,,10,,0.7
2023-08-28T07:00:00,2389A,113.836,35.311,新乡市,环保西院,,36,36,20,14,6,86,17,67,46,23,11,7,7,0.9,0.7
2023-08-28T07:00:00,2390A,113.884,35.272,新乡市,开发区,,29,29,12,19,6,89,19,64,50,24,20,5,4,1.0,0.7
2023-08-28T07:00:00,2391A,113.883,35.303,新乡市,环保东院,,38,38,25,16,12,85,22,58,46,32,14,7,5,0.9,0.5
2023-08-28T07:00:00,2392A,115.0312,35.7636,濮阳市,环保局,,,,10,,12,70,,73,,,11,,6,,0.6
2023-08-28T07:00:00,2394A,115.0574,35.7609,濮阳市,油田运输公司,,,,17,,14,69,,72,,,10,,6,,0.6
2023-08-28T07:00:00,2395A,115.0866,35.7754,濮阳市,油田物探公司,,,,18,,13,67,,70,,,9,,4,,0.5
2023-08-28T07:00:00,2396A,113.8276,34.0159,许昌市,监测站,,,,11,,12,77,,81,,,11,,4,,0.4
2023-08-28T07:00:00,2398A,113.7906,33.9953,许昌市,开发区,,,,9,,5,82,,85,,,7,,2,,0.5
2023-08-28T07:00:00,2399A,114.051,33.5699,漯河市,三五一五工厂,,25,22,8,17,9,112,58,72,67,11,4,10,8,0.7,0.5
2023-08-28T07:00:00,2400A,114.0055,33.5698,漯河市,漯河大学,,,,9,,9,92,,98,,,4,,3,,0.4
2023-08-28T07:00:00,2401A,114.0138,33.5828,漯河市,市水利局,,,,7,,5,88,,94,,,11,,6,,0.5
2023-08-28T07:00:00,2402A,114.0261,33.5698,漯河市,市广电局,,,,10,,9,88,,95,,,9,,4,,0.4
2023-08-28T07:00:00,2404A,112.5224,33.0122,南阳市,瓦房庄,,,,12,,7,88,,89,,,9,,5,,0.5
2023-08-28T07:00:00,2405A,112.5003,32.9735,南阳市,汉画馆,,,,11,,6,92,,93,,,7,,7,,0.6
2023-08-28T07:00:00,2406A,112.5573,33.027,南阳市,气象站,,,,7,,5,87,,89,,,8,,6,,0.4
2023-08-28T07:00:00,2407A,112.5481,32.9689,南阳市,理工学院,,,,11,,6,93,,94,,,9,,7,,0.4
2023-08-28T07:00:00,2408A,115.6702,34.4285,商丘市,环境监测站,,,,10,,7,76,,81,,,6,,5,,0.5
2023-08-28T07:00:00,2409A,115.6458,34.4045,商丘市,粮食局,,,,,,7,78,,85,,,7,,2,,0.5
2023-08-28T07:00:00,2410A,115.6293,34.3948,商丘市,睢阳区环保局,,,,9,,6,82,,88,,,6,,5,,0.4
2023-08-28T07:00:00,2420A,114.0189,32.9656,驻马店市,市一纸厂,,,,11,,7,88,,92,,,6,,4,,0.3
2023-08-28T07:00:00,2421A,114.0114,33.015,驻马店市,市彩印厂,,,,10,,10,86,,90,,,6,,5,,0.3
2023-08-28T07:00:00,2422A,113.9976,32.9771,驻马店市,天方二分厂,,,,7,,13,86,,91,,,5,,4,,0.4
2023-08-28T07:00:00,2423A,115.0601,30.2313,黄石市,沈家营,,,,48,,13,55,,51,,,14,,9,,0.6
2023-08-28T07:00:00,2424A,115.0817,30.2006,黄石市,陈家湾,,,,40,,13,54,,53,,,10,,7,,0.7
2023-08-28T07:00:00,2426A,114.8988,30.2019,黄石市,铁山,,,,21,,10,63,,60,,,12,,6,,0.7
2023-08-28T07:00:00,2427A,115.0307,30.2092,黄石市,团城山,,,,34,,7,65,,64,,,9,,7,,0.7
2023-08-28T07:00:00,2428A,111.0419,32.395,十堰市,武当山,,18,13,8,3,3,90,55,55,55,5,5,9,9,0.7,0.7
2023-08-28T07:00:00,2429A,110.78,32.6494,十堰市,滨河新村,,,,21,,10,50,,57,,,11,,6,,0.9
2023-08-28T07:00:00,2430A,110.7258,32.6389,十堰市,刘家沟,,,,12,,6,49,,56,,,3,,5,,0.7
2023-08-28T07:00:00,2431A,110.8839,32.5714,十堰市,铁二处,,,,13,,5,58,,69,,,3,,5,,0.7
2023-08-28T07:00:00,2432A,112.155,32.0197,襄阳市,襄城运动路,,,,8,,5,85,,87,,,16,,6,,0.7
2023-08-28T07:00:00,2433A,112.1392,32.0564,襄阳市,樊城新华路,,,,9,,4,83,,86,,,14,,8,,0.5
2023-08-28T07:00:00,2434A,112.1825,32.1142,襄阳市,高新管委会,,,,18,,7,83,,86,,,12,,6,,0.8
2023-08-28T07:00:00,2435A,112.2106,32.0903,襄阳市,襄州航空路,,,,7,,6,90,,92,,,9,,6,,0.8
2023-08-28T07:00:00,2436A,114.8938,30.3994,鄂州市,市政府,,,,21,,7,54,,53,,,10,,3,,0.8
2023-08-28T07:00:00,2437A,114.8989,30.3714,鄂州市,赵家坝,,20,10,28,0,7,74,62,70,67,7,15,3,8,0.4,0.7
2023-08-28T07:00:00,2439A,112.2014,31.0481,荆门市,竹园小学,,23,20,11,12,6,105,72,86,81,12,8,7,7,0.5,0.6
2023-08-28T07:00:00,2440A,112.1969,30.9891,荆门市,掇刀,,23,18,11,9,25,99,71,82,79,9,7,2,2,0.5,0.5
2023-08-28T07:00:00,2441A,112.2213,31.0386,荆门市,石化一小,,25,17,10,10,53,104,77,87,84,7,7,3,4,0.3,0.4
2023-08-28T07:00:00,2443A,113.9153,30.9285,孝感市,文化路,,,,11,,3,71,,65,,,6,,7,,0.7
2023-08-28T07:00:00,2444A,113.942,30.9075,孝感市,东城区,,,,8,,6,72,,67,,,6,,7,,0.8
2023-08-28T07:00:00,2446A,114.9028,30.4742,黄冈市,职工中心,,,,18,,11,63,,61,,,4,,9,,0.7
2023-08-28T07:00:00,2447A,114.3175,29.8142,咸宁市,森林公园,,,,12,,11,56,,52,,,4,,5,,0.7
2023-08-28T07:00:00,2448A,114.3107,29.8454,咸宁市,市发改委,,,,14,,14,68,,64,,,4,,7,,0.6
2023-08-28T07:00:00,2449A,114.2936,29.8566,咸宁市,咸安区政府,,,,12,,8,60,,56,,,9,,8,,0.5
2023-08-28T07:00:00,2451A,113.3583,31.7275,随州市,市委党校,,,,8,,5,81,,79,,,3,,7,,0.6
2023-08-28T07:00:00,2452A,113.3833,31.6908,随州市,市林业局,,,,5,,5,81,,80,,,6,,4,,0.6
2023-08-28T07:00:00,2453A,113.3983,31.7308,随州市,市立交桥水厂,,,,4,,3,76,,75,,,4,,8,,0.7
2023-08-28T07:00:00,2454A,109.4978,30.2981,恩施土家族苗族自治州,湖北民院,,,,39,,8,45,,37,,,6,,9,,0.5
2023-08-28T07:00:00,2455A,109.4707,30.2798,恩施土家族苗族自治州,州电力总公司,,,,14,,11,31,,29,,,15,,8,,0.8
2023-08-28T07:00:00,2456A,112.5003,26.9167,衡阳市,原169医院,,,,19,,11,54,,47,,,10,,7,,0.4
2023-08-28T07:00:00,2457A,112.6194,26.9258,衡阳市,衡阳化工总厂,,,,24,,12,66,,60,,,6,,8,,0.6
2023-08-28T07:00:00,2458A,112.6211,26.8956,衡阳市,珠晖区环保局,,,,19,,,65,,59,,,7,,6,,0.5
2023-08-28T07:00:00,2459A,112.6197,26.8733,衡阳市,市委党校,,,,21,,9,68,,61,,,7,,7,,0.7
2023-08-28T07:00:00,2460A,112.6006,26.8919,衡阳市,市监测站,,,,18,,10,67,,60,,,7,,8,,0.7
2023-08-28T07:00:00,2461A,112.5664,26.9056,衡阳市,真空机电公司,,,,18,,11,66,,57,,,7,,11,,0.8
2023-08-28T07:00:00,2462A,111.5239,27.3033,邵阳市,市水土所,,23,2,21,9,22,82,73,73,73,3,5,5,7,0.6,0.7
2023-08-28T07:00:00,2463A,111.4733,27.2317,邵阳市,市一中,,,,43,,13,69,,61,,,8,,4,,0.3
2023-08-28T07:00:00,2464A,111.5283,27.2442,邵阳市,市化工厂,,,,25,,15,67,,57,,,8,,3,,0.7
2023-08-28T07:00:00,2465A,111.4503,27.2537,邵阳市,市罐头厂,,,,40,,19,59,,50,,,9,,4,,0.5
2023-08-28T07:00:00,2466A,111.4328,27.2272,邵阳市,市环保局,,,,25,,13,64,,58,,,6,,7,,0.4
2023-08-28T07:00:00,2467A,112.4067,28.6428,益阳市,甘溪港,,,,16,,7,53,,46,,,5,,4,,0.5
2023-08-28T07:00:00,2468A,112.3458,28.5808,益阳市,市环保局,,,,14,,8,64,,58,,,9,,5,,0.9
2023-08-28T07:00:00,2469A,112.3437,28.5531,益阳市,市特殊教育学校,,,,22,,12,63,,56,,,8,,3,,0.8
2023-08-28T07:00:00,2470A,112.3347,28.6047,益阳市,资阳区政务中心,,,,15,,9,61,,56,,,7,,3,,0.9
2023-08-28T07:00:00,2471A,112.3744,28.5819,益阳市,赫山环保分局,,,,20,,8,62,,56,,,7,,6,,0.7
2023-08-28T07:00:00,2472A,113.0073,25.9061,郴州市,马头岭,,,,20,,10,49,,54,,,11,,4,,0.4
2023-08-28T07:00:00,2473A,113.0116,25.8226,郴州市,市职中,,,,13,,10,57,,63,,,10,,6,,0.4
2023-08-28T07:00:00,2474A,113.0161,25.8001,郴州市,兴隆步行街,,18,0,15,0,7,79,55,53,53,8,10,3,4,0.7,0.6
2023-08-28T07:00:00,2475A,113.0383,25.8071,郴州市,市审计局,,,,15,,10,54,,59,,,11,,4,,0.4
2023-08-28T07:00:00,2476A,113.0348,25.7759,郴州市,市环保局,,,,17,,11,56,,62,,,11,,3,,0.5
2023-08-28T07:00:00,2477A,111.6217,26.2081,永州市,零陵南津渡,,,,16,,9,59,,57,,,5,,9,,0.1
2023-08-28T07:00:00,2478A,111.6156,26.4214,永州市,市环境监测站,,,,10,,10,61,,58,,,6,,10,,0.7
2023-08-28T07:00:00,2479A,111.6236,26.2331,永州市,零陵区环保局,,23,9,17,4,9,74,71,70,70,7,8,12,12,0.6,0.5
2023-08-28T07:00:00,2480A,111.5992,26.4364,永州市,永州市环保局,,,,16,,9,58,,55,,,7,,8,,0.5
2023-08-28T07:00:00,2481A,111.5989,26.4519,永州市,冷水滩区环保局,,23,12,19,6,10,72,71,70,70,6,8,6,9,0.8,0.6
2023-08-28T07:00:00,2482A,109.5981,27.5721,怀化市,林科所,,,,11,,7,54,,50,,,3,,7,,0.6
2023-08-28T07:00:00,2483A,109.9453,27.5444,怀化市,河西地税局,,,,12,,5,49,,48,,,8,,7,,0.7
2023-08-28T07:00:00,2484A,109.9781,27.5342,怀化市,市四医院,,,,13,,9,54,,50,,,5,,5,,0.9
2023-08-28T07:00:00,2485A,109.9972,27.5578,怀化市,监测楼,,19,13,15,6,7,79,59,72,67,5,6,9,4,0.6,0.6
2023-08-28T07:00:00,2486A,110.0394,27.583,怀化市,市委党校,,,,13,,7,51,,47,,,5,,5,,0.6
2023-08-28T07:00:00,2487A,111.9589,27.8901,娄底市,电视发射台,,,,28,,12,47,,37,,,6,,7,,1.2
2023-08-28T07:00:00,2488A,111.9975,27.725,娄底市,市监测站,,,,20,,12,61,,56,,,10,,11,,0.4
2023-08-28T07:00:00,2489A,112.0194,27.7314,娄底市,市委党校,,,,28,,13,57,,51,,,4,,7,,0.6
2023-08-28T07:00:00,2490A,111.9561,27.7569,娄底市,涟钢,,,,28,,15,49,,44,,,13,,9,,1.0
2023-08-28T07:00:00,2491A,111.9892,27.7044,娄底市,市政府,,,,21,,18,66,,59,,,5,,9,,0.7
2023-08-28T07:00:00,2492A,109.6414,28.2558,湘西州,跃进水库,,,,8,,4,24,,19,,,2,,5,,0.9
2023-08-28T07:00:00,2493A,109.7325,28.3169,湘西州,州政府,,,,10,,6,57,,46,,,6,,5,,0.6
2023-08-28T07:00:00,2494A,109.6958,28.2675,湘西州,吉首市计生局,,,,12,,9,53,,42,,,8,,8,,0.6
2023-08-28T07:00:00,2495A,111.3014,23.4832,梧州市,市逸夫小学,,44,44,28,15,13,106,1,4,1,15,19,16,8,0.9,0.8
2023-08-28T07:00:00,2496A,111.3239,23.4794,梧州市,市十一中,,,,27,,15,37,,36,,,12,,7,,0.8
2023-08-28T07:00:00,2497A,111.247,23.4189,梧州市,龙圩,,,,32,,16,39,,37,,,18,,8,,0.7
2023-08-28T07:00:00,2498A,111.2711,23.4835,梧州市,龙新,,,,30,,13,35,,35,,,18,,7,,0.5
2023-08-28T07:00:00,2499A,108.3411,21.6158,防城港市,沙万,,,,21,,8,42,,42,,,21,,5,,0.6
2023-08-28T07:00:00,2500A,108.3514,21.7731,防城港市,防城档案局,,,,24,,11,33,,31,,,16,,8,,0.5
2023-08-28T07:00:00,2501A,108.3506,21.6414,防城港市,大海花园,,,,17,,7,52,,48,,,14,,7,,0.5
2023-08-28T07:00:00,2502A,108.6236,21.9667,钦州市,市环保站,,,,21,,7,34,,34,,,16,,6,,0.8
2023-08-28T07:00:00,2503A,108.6549,21.9481,钦州市,沙埠小学,,,,25,,8,28,,26,,,20,,4,,0.5
2023-08-28T07:00:00,2504A,108.5989,21.7431,钦州市,港区一小,,,,33,,10,43,,44,,,22,,9,,0.7
2023-08-28T07:00:00,2505A,109.568,23.1478,贵港市,德智高中,,28,28,33,19,14,82,11,38,22,20,15,6,6,0.6,0.5
2023-08-28T07:00:00,2506A,109.6047,23.0666,贵港市,江南子站,,,,32,,17,50,,45,,,13,,7,,0.5
2023-08-28T07:00:00,2507A,109.6014,23.0948,贵港市,贵城子站,,,,26,,16,47,,42,,,10,,7,,0.7
2023-08-28T07:00:00,2508A,109.5669,23.1065,贵港市,荷城子站,,,,28,,12,47,,44,,,12,,11,,0.6
2023-08-28T07:00:00,2509A,110.1106,22.7019,玉林市,寒山水库,,43,43,44,16,16,70,20,18,16,9,10,9,9,0.6,0.5
2023-08-28T07:00:00,2510A,110.1675,22.6411,玉林市,市监测站,,,,29,,16,47,,47,,,9,,12,,0.6
2023-08-28T07:00:00,2511A,110.1433,22.6164,玉林市,南江一中,,,,39,,17,47,,47,,,12,,23,,0.6
2023-08-28T07:00:00,2512A,106.6103,23.9011,百色市,市监测站,,,,32,,16,45,,42,,,14,,13,,0.9
2023-08-28T07:00:00,2513A,106.6538,23.8859,百色市,市中心血站,,,,33,,18,50,,51,,,14,,17,,1.0
2023-08-28T07:00:00,2514A,111.5264,24.4172,贺州市,环保小区,,,,27,,17,54,,52,,,15,,12,,0.7
2023-08-28T07:00:00,2515A,111.5608,24.4078,贺州市,政协大楼,,,,24,,14,57,,55,,,13,,10,,0.7
2023-08-28T07:00:00,2516A,108.2011,24.715,河池市,东仁乐园,,31,31,24,13,16,55,21,36,31,2,4,5,7,0.4,0.4
2023-08-28T07:00:00,2517A,108.0497,24.6947,河池市,市环保站,,,,24,,10,40,,42,,,10,,6,,0.6
2023-08-28T07:00:00,2518A,108.0983,24.6989,河池市,市疾控中心,,,,22,,10,42,,42,,,11,,6,,0.5
2023-08-28T07:00:00,2520A,109.2203,23.7256,来宾市,来宾技工学校,,,,21,,14,56,,51,,,6,,6,,0.5
2023-08-28T07:00:00,2521A,107.3476,22.4136,崇左市,市环保局江州分局,,,,23,,12,58,,56,,,6,,4,,0.4
2023-08-28T07:00:00,2522A,107.3702,22.3707,崇左市,城南新区,,,,22,,11,57,,53,,,8,,3,,0.5
2023-08-28T07:00:00,2523A,105.8945,32.4535,广元市,黑石坡,,14,14,22,8,8,116,31,68,55,17,10,6,6,0.5,0.4
2023-08-28T07:00:00,2524A,105.821,32.4444,广元市,老城,,,,16,,10,65,,66,,,24,,3,,0.6
2023-08-28T07:00:00,2526A,105.8628,32.4287,广元市,监测站,,,,18,,7,74,,71,,,13,,4,,0.3
2023-08-28T07:00:00,2527A,105.5453,30.5678,遂宁市,石溪浩,,,,20,,8,81,,74,,,7,,7,,0.7
2023-08-28T07:00:00,2528A,105.5582,30.5232,遂宁市,市监测站,,,,16,,5,87,,78,,,13,,9,,0.4
2023-08-28T07:00:00,2529A,105.5861,30.5366,遂宁市,行政中心,,,,21,,11,87,,80,,,12,,9,,0.4
2023-08-28T07:00:00,2530A,105.5918,30.4728,遂宁市,美宁食品公司,,,,19,,7,80,,76,,,18,,10,,0.2
2023-08-28T07:00:00,2531A,105.0703,29.61,内江市,市监测站,,,,12,,13,90,,88,,,15,,9,,0.4
2023-08-28T07:00:00,2532A,105.0717,29.5947,内江市,东兴区政府,,,,14,,12,100,,97,,,12,,6,,0.3
2023-08-28T07:00:00,2533A,105.0653,29.5817,内江市,内江二中,,,,18,,9,94,,90,,,10,,8,,0.4
2023-08-28T07:00:00,2534A,105.0406,29.5822,内江市,内江日报社,,,,20,,14,91,,87,,,17,,4,,0.3
2023-08-28T07:00:00,2535A,103.7723,29.5462,乐山市,花湖湾,,,,28,,17,76,,73,,,19,,11,,0.8
2023-08-28T07:00:00,2536A,103.7627,29.5844,乐山市,牛耳桥,,,,32,,18,69,,72,,,25,,9,,0.7
2023-08-28T07:00:00,2537A,103.7508,29.6006,乐山市,市第三水厂,,,,30,,17,80,,82,,,27,,4,,0.6
2023-08-28T07:00:00,2538A,103.7571,29.5664,乐山市,市监测站,,,,35,,17,79,,79,,,22,,16,,1.1
2023-08-28T07:00:00,2539A,104.0308,30.0478,眉山市,黑龙滩水库,,,,14,,11,93,,92,,,9,,2,,0.4
2023-08-28T07:00:00,2540A,103.8416,30.0874,眉山市,气象局,,,,40,,19,66,,69,,,34,,10,,0.5
2023-08-28T07:00:00,2543A,106.6308,30.5278,广安市,小平旧居,,,,,,,,,,,,,,,,
2023-08-28T07:00:00,2544A,106.6303,30.4576,广安市,市委,,,,26,,13,63,,63,,,16,,8,,0.5
2023-08-28T07:00:00,2545A,106.6271,30.4663,广安市,友谊中学,,,,29,,12,64,,64,,,17,,9,,0.4
2023-08-28T07:00:00,2547A,106.6388,30.4551,广安市,广电花园,,,,26,,11,61,,60,,,17,,8,,0.5
2023-08-28T07:00:00,2548A,107.5277,31.2827,达州市,达州职业技术学院,,,,27,,9,36,,37,,,23,,8,,0.9
2023-08-28T07:00:00,2549A,107.5086,31.2186,达州市,市环境监测站,,,,28,,5,35,,38,,,29,,9,,0.8
2023-08-28T07:00:00,2550A,107.4988,31.2132,达州市,凤凰小区,,,,24,,7,39,,42,,,26,,11,,0.8
2023-08-28T07:00:00,2551A,107.5082,31.1986,达州市,达县机关宾馆,,,,27,,9,31,,34,,,35,,10,,0.6
2023-08-28T07:00:00,2552A,107.4644,31.2124,达州市,市政中心,,,,36,,9,35,,38,,,34,,17,,1.2
2023-08-28T07:00:00,2554A,103.0475,30.02,雅安市,建安厂,,,,,,,,,,,,,,,,
2023-08-28T07:00:00,2555A,103.0111,29.9833,雅安市,市政府,,,,22,,11,72,,71,,,11,,4,,0.5
2023-08-28T07:00:00,2556A,102.9905,29.9775,雅安市,川农大,,,,19,,11,68,,63,,,10,,8,,0.4
2023-08-28T07:00:00,2561A,104.6617,30.1372,资阳市,莲花山,,,,13,,8,98,,94,,,10,,5,,0.9
2023-08-28T07:00:00,2562A,104.6356,30.1506,资阳市,资阳中学,,,,18,,6,96,,94,,,9,,8,,0.4
2023-08-28T07:00:00,2563A,104.6295,30.1383,资阳市,四三一厂,,,,17,,9,96,,94,,,9,,9,,0.4
2023-08-28T07:00:00,2564A,104.6463,30.1146,资阳市,师范校,,,,21,,12,90,,90,,,18,,7,,0.4
2023-08-28T07:00:00,2565A,104.6296,30.1256,资阳市,区法院,,,,20,,10,92,,91,,,13,,9,,0.5
2023-08-28T07:00:00,2566A,102.1879,31.914,阿坝藏族羌族自治州,州农科所,,,,23,,12,36,,33,,,12,,3,,0.5
2023-08-28T07:00:00,2568A,102.2502,31.8896,阿坝藏族羌族自治州,马师校,,16,11,15,11,10,96,9,16,12,6,8,5,5,0.4,0.4
2023-08-28T07:00:00,2570A,101.9603,30.0475,甘孜藏族自治州,水桥子,,,,6,,7,55,,58,,,12,,5,,0.3
2023-08-28T07:00:00,2571A,102.3431,27.8099,凉山彝族自治州,青龙寺,,,,10,,8,66,,63,,,4,,6,,0.6
2023-08-28T07:00:00,2572A,102.2721,27.8415,凉山彝族自治州,邛海宾馆,,,,14,,6,85,,79,,,7,,9,,0.6
2023-08-28T07:00:00,2573A,102.2625,27.898,凉山彝族自治州,西昌市政府,,,,10,,7,66,,67,,,7,,15,,0.6
2023-08-28T07:00:00,2574A,102.2685,27.8851,凉山彝族自治州,凉山州政府,,,,12,,8,65,,65,,,8,,12,,0.7
2023-08-28T07:00:00,2575A,102.237,27.8914,凉山彝族自治州,长安,,,,13,,7,81,,76,,,11,,15,,0.7
2023-08-28T07:00:00,2576A,104.8,26.5892,六盘水市,窑上,,,,,,,,,,,,,,,,
2023-08-28T07:00:00,2577A,104.83,26.5917,六盘水市,黄土坡,,,,9,,9,87,,87,,,10,,6,,0.5
2023-08-28T07:00:00,2578A,104.89,26.5939,六盘水市,水钢,,,,21,,12,82,,76,,,19,,18,,1.6
