timepoint,stationcode,longitude,latitude,area,positionname,primarypollutant,aqi,pm10,pm10_24h,pm2_5,pm2_5_24h,o3,o3_24h,o3_8h,o3_8h_24h,no2,no2_24h,so2,so2_24h,co,co_24h
2026-04-19T1300,2568A,102.2503,31.8896,阿坝藏族羌族自治州,马师校,,32,19,18,10,10,102,102,63,63,4,9,6,6,0.2,0.2
2026-04-19T1300,3994A,102.2174,31.9016,阿坝藏族羌族自治州,马尔康中学西区,NA,NA,NA,23,9,11,99,99,68,68,NA,8,4,3,0.1,0.2
2026-04-19T1300,2695A,80.2899,41.1684,阿克苏地区,电视台,细颗粒物(PM2.5),292,329,749,242,302,82,82,84,82,6,6,2,2,0.8,0.7
2026-04-19T1300,2696A,80.2592,41.1541,阿克苏地区,艺术中心,细颗粒物(PM2.5),246,282,629,196,323,91,91,89,88,5,7,5,4,0.4,0.4
2026-04-19T1300,2205A,105.699,38.8409,阿拉善盟,蒙二幼,颗粒物(PM10),323,438,819,94,255,96,96,100,95,6,4,8,8,0.3,0.3
2026-04-19T1300,2206A,105.7198,38.8508,阿拉善盟,环保局新楼,颗粒物(PM10),328,442,630,97,261,93,93,98,91,3,4,8,8,0.5,0.5
2026-04-19T1300,2708A,88.1266,47.8515,阿勒泰地区,市站,,25,16,15,3,2,80,80,80,79,7,8,6,7,0.1,0
2026-04-19T1300,4166A,88.1198,47.7931,阿勒泰地区,阿勒泰路33号,,25,16,21,3,3,79,79,72,72,3,6,6,6,0.2,0.2
2026-04-19T1300,2630A,80.1171,32.4999,阿里地区,阿里监测站,,35,7,13,3,5,112,112,108,99,1,3,6,6,0.3,0.3
2026-04-19T1300,3192A,80.0906,32.5029,阿里地区,阿里藏医院,,36,8,13,3,3,113,113,109,108,1,2,7,7,0.3,0.3
2026-04-19T1300,2644A,109.0088,32.6974,安康市,汉滨区检察院,颗粒物(PM10),62,66,53,35,23,81,81,38,38,16,12,6,6,0.5,0.4
2026-04-19T1300,4054A,109.0324,32.6913,安康市,市邮政管理局,颗粒物(PM10),70,77,60,35,26,92,92,43,43,16,17,6,7,0.6,0.6
2026-04-19T1300,2291A,117.0806,30.5181,安庆市,环科院,臭氧1小时(O3_1h),85,49,44,27,31,188,188,111,111,23,17,12,8,0.9,0.6
2026-04-19T1300,2292A,117.0331,30.5118,安庆市,马山宾馆,臭氧1小时(O3_1h),73,55,48,28,32,178,178,109,109,15,16,8,7,0.6,0.6
2026-04-19T1300,2294A,116.9897,30.6146,安庆市,安庆大学,臭氧1小时(O3_1h),75,39,42,21,25,180,180,106,106,9,15,6,4,0.5,0.5
2026-04-19T1300,3173A,117.0598,30.5351,安庆市,市人大,臭氧1小时(O3_1h),80,51,48,25,30,184,184,103,103,16,17,7,5,0.7,0.6
2026-04-19T1300,3123A,105.9408,26.2431,安顺市,凤凰山,细颗粒物(PM2.5),68,54,33,44,22,98,98,82,82,6,7,5,5,0.8,0.6
2026-04-19T1300,3124A,105.9443,26.2567,安顺市,金钟山,细颗粒物(PM2.5),74,56,31,47,22,86,86,73,73,5,6,6,6,0.8,0.6
2026-04-19T1300,3125A,105.8983,26.248,安顺市,娄家坡,细颗粒物(PM2.5),56,46,28,38,22,85,85,80,80,5,4,2,2,0.8,0.6
2026-04-19T1300,1819A,114.3552,36.1017,安阳市,红庙街,颗粒物(PM10),76,86,80,35,28,131,131,100,100,8,13,5,5,0.3,0.3
2026-04-19T1300,1820A,114.361,36.0681,安阳市,银杏小区,颗粒物(PM10),83,96,94,36,30,134,134,100,100,4,7,6,6,0.2,0.2
2026-04-19T1300,3141A,114.3921,36.0879,安阳市,信访局,颗粒物(PM10),73,81,76,37,31,138,138,104,104,6,10,3,3,0.5,0.5
2026-04-19T1300,3669A,114.4706,36.0634,安阳市,左辅环卫站,颗粒物(PM10),84,97,77,39,31,125,125,90,90,10,14,3,2,0.3,0.4
2026-04-19T1300,4117A,114.2918,36.0769,安阳市,钢三路198号,颗粒物(PM10),75,85,85,34,30,133,133,105,105,8,10,4,4,0.4,0.4
2026-04-19T1300,1748A,123.0441,41.1201,鞍山市,深沟寺,颗粒物(PM10),59,62,77,23,43,164,164,140,140,17,19,13,12,0.8,0.8
2026-04-19T1300,1749A,123.011,41.0931,鞍山市,太阳城,颗粒物(PM10),60,63,85,25,49,156,156,138,138,10,14,10,9,0.8,0.9
2026-04-19T1300,1750A,123.0483,41.1445,鞍山市,太平,颗粒物(PM10),62,66,88,25,46,158,158,137,137,14,17,11,11,0.6,0.7
2026-04-19T1300,1751A,122.964,41.0968,鞍山市,铁西三道街,颗粒物(PM10),65,70,109,28,59,156,156,124,124,13,29,10,9,0.8,1.1
2026-04-19T1300,1753A,123.0219,41.0822,鞍山市,明达新区,颗粒物(PM10),58,61,86,24,43,156,156,139,139,12,16,10,10,0.6,0.8
2026-04-19T1300,4201A,122.944647,41.082639,鞍山市,兴盛南路290号,颗粒物(PM10),66,72,112,30,64,163,163,134,134,14,26,12,11,0.7,1.1
2026-04-19T1300,2195A,107.4206,40.7609,巴彦淖尔市,附二中,颗粒物(PM10),184,317,807,56,217,93,93,90,90,2,4,9,10,0.3,0.4
2026-04-19T1300,2196A,107.37,40.7372,巴彦淖尔市,市环保大楼,颗粒物(PM10),152,253,693,53,195,96,96,92,92,4,5,6,7,0.3,0.3
2026-04-19T1300,1956A,86.1476,41.7529,巴音郭楞蒙古自治州,孔雀公园,,48,48,64,3,16,83,83,68,64,8,10,11,10,0.3,0.3
2026-04-19T1300,1957A,86.1971,41.7166,巴音郭楞蒙古自治州,棉纺厂,颗粒物(PM10),58,60,80,21,27,92,92,72,68,1,6,/,/,/,/
2026-04-19T1300,1958A,86.236,41.7172,巴音郭楞蒙古自治州,经济开发区,,45,45,60,3,20,89,89,69,69,2,4,7,8,0.3,0.3
2026-04-19T1300,3181A,106.776805,31.852614,巴中市,市五中,颗粒物(PM10),56,58,55,36,31,39,39,33,21,15,20,10,9,0.7,0.7
2026-04-19T1300,3183A,106.7419,31.8654,巴中市,圣泉水务公司,,38,38,50,25,27,59,59,46,45,10,21,9,9,0.7,0.7
2026-04-19T1300,3616A,106.7617,31.8343,巴中市,市中心医院,颗粒物(PM10),55,57,56,36,34,45,45,24,24,17,22,9,9,0.8,0.7
2026-04-19T1300,2235A,122.7909,45.608,白城市,洮北区环保局,颗粒物(PM10),75,85,51,41,31,71,71,81,69,7,8,4,4,0.0,0
2026-04-19T1300,2236A,122.8741,45.5725,白城市,市环保局,颗粒物(PM10),72,80,54,35,31,69,69,65,64,16,19,5,4,0.2,0.2
2026-04-19T1300,2231A,126.4219,41.9172,白山市,喜丰,颗粒物(PM10),104,129,85,13,30,121,121,70,70,4,20,11,10,0.8,1.1
2026-04-19T1300,2232A,126.4082,41.9416,白山市,环保局,颗粒物(PM10),75,85,60,14,25,126,126,71,71,7,17,9,10,0.6,0.7
2026-04-19T1300,2647A,104.1727,36.5448,白银市,第三小学,颗粒物(PM10),108,140,373,54,126,84,84,93,89,2,4,4,7,0.3,0.3
2026-04-19T1300,2648A,104.1467,36.5482,白银市,动力公司,颗粒物(PM10),111,147,319,36,99,87,87,93,90,2,7,4,7,0.1,0.1
2026-04-19T1300,2512A,106.6102,23.901,百色市,市监测站,,44,44,32,26,23,95,95,75,75,8,10,14,16,1.0,1
2026-04-19T1300,2513A,106.6524,23.8842,百色市,市中心血站,颗粒物(PM10),52,52,37,14,27,97,97,79,79,10,12,13,16,0.8,0.8
2026-04-19T1300,4133A,106.6273,23.8798,百色市,龙景西路,,50,47,36,35,29,103,103,79,79,10,12,17,18,0.8,0.8
2026-04-19T1300,2270A,117.396,32.9389,蚌埠市,工人疗养院,,50,50,63,15,20,158,158,95,95,17,30,5,6,0.4,0.4
2026-04-19T1300,2271A,117.3606,32.9428,蚌埠市,百货大楼,,49,43,54,12,18,155,155,102,102,7,17,7,7,0.4,0.4
2026-04-19T1300,2273A,117.4183,32.8909,蚌埠市,蚌埠学院,,48,41,52,16,20,153,153,100,100,10,22,6,6,0.5,0.4
2026-04-19T1300,2274A,117.3534,32.9672,蚌埠市,淮上区政府,,49,44,61,13,22,156,156,90,90,16,34,6,7,0.3,0.3
2026-04-19T1300,2275A,117.3143,32.8977,蚌埠市,高新区,,49,48,50,16,17,154,154,102,102,9,18,8,8,0.5,0.4
2026-04-19T1300,3715A,117.3091,32.9314,蚌埠市,蚌埠田家炳中学,臭氧1小时(O3_1h),53,47,56,13,18,162,162,112,112,11,14,7,6,0.4,0.3
2026-04-19T1300,1585A,109.8761,40.6533,包头市,市环境监测站,颗粒物(PM10),340,452,435,31,116,99,99,105,90,5,10,4,6,0.4,0.4
2026-04-19T1300,1587A,109.9992,40.5843,包头市,包头八中,颗粒物(PM10),248,383,476,43,126,91,91,95,83,3,8,5,6,0.4,0.4
2026-04-19T1300,1589A,109.8641,40.6288,包头市,惠龙物流,颗粒物(PM10),192,333,451,35,129,94,94,98,85,3,7,4,6,0.4,0.4
2026-04-19T1300,1590A,110.0376,40.5546,包头市,东河鸿龙湾,颗粒物(PM10),219,363,386,34,105,93,93,98,84,5,10,9,11,0.4,0.4
2026-04-19T1300,3283A,109.9154,40.5684,包头市,滨河大厦,颗粒物(PM10),194,338,457,36,120,94,94,98,86,3,8,8,9,0.5,0.5
2026-04-19T1300,3419A,109.9449,40.6259,包头市,包头市委党校,颗粒物(PM10),259,391,458,70,111,94,94,98,84,3,8,5,6,0.2,0.3
2026-04-19T1300,3683A,109.8332,40.6577,包头市,昆区政府,颗粒物(PM10),193,336,452,36,113,104,104,97,87,6,12,2,6,0.4,0.5
2026-04-19T1300,1931A,107.0802,34.3129,宝鸡市,竹园沟,颗粒物(PM10),486,586,168,116,42,61,61,70,62,7,13,7,8,0.4,0.4
2026-04-19T1300,1933A,107.1429,34.3549,宝鸡市,监测站,颗粒物(PM10),500,737,159,172,49,74,74,66,57,14,17,6,7,0.5,0.5
2026-04-19T1300,1934A,107.1172,34.3759,宝鸡市,技工学校,颗粒物(PM10),500,656,134,170,47,64,64,69,54,20,17,4,6,0.5,0.6
2026-04-19T1300,1936A,107.2025,34.3518,宝鸡市,文理学院,颗粒物(PM10),500,734,148,189,50,76,76,69,55,15,21,5,6,0.3,0.5
2026-04-19T1300,1937A,107.2396,34.3626,宝鸡市,三迪小学,颗粒物(PM10),500,870,154,242,55,82,82,65,56,13,26,5,6,0.3,0.5
2026-04-19T1300,4155A,107.1721,34.3558,宝鸡市,滨河北路,颗粒物(PM10),500,645,140,209,53,72,72,60,50,15,19,7,8,0.4,0.6
2026-04-19T1300,4308A,107.3898,34.3601,宝鸡市,陈仓区北开路21号,颗粒物(PM10),500,1018,229,253,71,75,75,60,60,12,21,7,9,0.2,0.4
2026-04-19T1300,1051A,115.4803,38.8568,保定市,游泳馆,颗粒物(PM10),67,73,78,40,38,121,121,85,85,13,18,9,4,0.3,0.1
2026-04-19T1300,1052A,115.509,38.8895,保定市,华电二区,颗粒物(PM10),63,67,67,40,31,126,126,84,84,10,13,5,3,0.6,0.4
2026-04-19T1300,1053A,115.4588,38.9037,保定市,接待中心,颗粒物(PM10),68,74,73,42,35,116,116,83,83,10,12,5,3,0.4,0.1
2026-04-19T1300,1054A,115.4484,38.8344,保定市,地表水厂,颗粒物(PM10),78,89,79,38,32,117,117,81,81,11,17,8,4,0.6,0.4
2026-04-19T1300,3581A,115.3136,38.9511,保定市,满城区生态环境分局,颗粒物(PM10),95,112,97,43,32,103,103,71,71,17,17,6,4,0.5,0.3
2026-04-19T1300,3582A,115.4709,38.7628,保定市,清苑区第二中学,颗粒物(PM10),80,91,92,38,33,123,123,78,78,10,19,10,6,0.6,0.3
2026-04-19T1300,3583A,115.6231,39.0223,保定市,徐水物探局,颗粒物(PM10),104,128,112,47,46,115,115,78,78,15,20,5,3,0.6,0.4
2026-04-19T1300,4004A,115.4199,38.8665,保定市,双鹰农机,颗粒物(PM10),74,83,89,42,37,114,114,80,80,11,15,8,5,0.5,0.3
2026-04-19T1300,4034A,115.515,38.8589,保定市,植保所站,颗粒物(PM10),88,102,95,40,34,127,127,79,79,12,21,6,3,0.5,0.3
2026-04-19T1300,2594A,99.1589,25.1137,保山市,市环境监测站,颗粒物(PM10),54,55,61,34,41,136,136,108,108,7,9,7,7,0.3,0.4
2026-04-19T1300,2595A,99.1616,25.1381,保山市,市环保局,颗粒物(PM10),61,65,67,37,43,139,139,114,114,6,7,7,7,0.4,0.4
2026-04-19T1300,1867A,109.1435,21.4085,北海市,海滩公园,,50,49,38,35,31,80,80,60,52,7,9,9,9,0.7,0.7
2026-04-19T1300,1868A,109.0983,21.466,北海市,新市环保局,,40,31,33,28,25,78,78,45,44,7,11,9,3,1.0,1.2
2026-04-19T1300,1869A,109.1775,21.5232,北海市,北海工业园,,42,NA,51,29,33,80,80,44,44,4,15,8,12,0.5,0.6
2026-04-19T1300,3400A,109.1844,21.4396,北海市,龙潭自来水厂,,37,37,37,23,27,73,73,36,36,5,13,11,10,1.0,1.1
2026-04-19T1300,1001A,116.3611,39.8786,北京市,万寿西宫,颗粒物(PM10),112,151,87,51,44,93,93,76,76,21,21,4,4,0.5,0.5
2026-04-19T1300,1003A,116.4174,39.9289,北京市,东四,颗粒物(PM10),117,162,88,57,51,104,104,94,94,21,20,3,3,0.1,0.2
2026-04-19T1300,1004A,116.4073,39.8858,北京市,天坛,颗粒物(PM10),119,168,78,55,41,91,91,72,72,22,19,5,5,0.5,0.6
2026-04-19T1300,1005A,116.4622,39.9364,北京市,农展馆,颗粒物(PM10),109,142,82,51,42,93,93,83,83,19,18,3,4,0.5,0.6
2026-04-19T1300,1006A,116.3399,39.9293,北京市,官园,颗粒物(PM10),118,166,90,60,49,84,84,79,74,24,22,2,2,0.4,0.5
2026-04-19T1300,1007A,116.2879,39.9613,北京市,海淀万柳,颗粒物(PM10),113,152,91,51,51,72,72,59,57,22,24,5,5,0.4,0.6
2026-04-19T1300,1008A,116.6635,40.1349,北京市,顺义新城,颗粒物(PM10),90,105,85,45,47,104,104,74,74,6,8,6,6,0.4,0.5
2026-04-19T1300,1009A,116.6275,40.327,北京市,怀柔镇,颗粒物(PM10),109,141,97,53,58,93,93,72,72,17,18,5,5,0.7,0.9
2026-04-19T1300,1010A,116.2295,40.217,北京市,昌平镇,颗粒物(PM10),135,210,97,58,50,75,75,74,71,19,24,3,4,0.3,0.6
2026-04-19T1300,1011A,116.3968,39.982,北京市,奥体中心,颗粒物(PM10),116,160,86,52,41,87,87,78,78,19,20,4,4,0.5,0.6
2026-04-19T1300,3418A,116.8336,40.4095,北京市,密云新城,颗粒物(PM10),82,94,85,38,41,103,103,88,83,11,16,6,6,0.4,0.5
2026-04-19T1300,3671A,116.0879,39.9725,北京市,门头沟三家店,颗粒物(PM10),163,275,101,88,53,82,82,50,50,3,28,2,3,0.2,0.5
2026-04-19T1300,3672A,116.1507,39.8246,北京市,丰台云岗,颗粒物(PM10),130,197,99,71,54,83,83,64,64,15,25,3,3,0.4,0.6
2026-04-19T1300,3674A,115.9578,39.7602,北京市,房山燕山,颗粒物(PM10),150,250,95,77,45,80,80,65,60,14,18,3,3,0.4,0.6
2026-04-19T1300,3675A,116.4669,39.7734,北京市,大兴旧宫,颗粒物(PM10),103,126,78,50,38,111,111,89,89,16,16,2,2,0.6,0.6
2026-04-19T1300,3694A,115.9859,40.4562,北京市,延庆石河营,颗粒物(PM10),134,206,98,65,60,87,87,88,79,2,11,3,1,0.5,0.6
2026-04-19T1300,3695A,116.6151,40.3052,北京市,怀柔新城,颗粒物(PM10),92,108,92,41,54,93,93,66,66,17,18,5,4,0.6,0.8
2026-04-19T1300,3696A,116.2542,39.8764,北京市,丰台小屯,颗粒物(PM10),122,175,90,59,50,83,83,66,66,18,25,3,3,0.3,0.5
2026-04-19T1300,3697A,116.8399,40.3843,北京市,密云镇,颗粒物(PM10),80,92,85,42,47,107,107,96,90,14,15,9,9,0.5,0.5
2026-04-19T1300,4057A,115.9423,40.4431,北京市,延庆百泉,颗粒物(PM10),96,114,90,38,50,84,84,76,76,5,13,1,1,0.4,0.7
2026-04-19T1300,4058A,116.6598,39.9164,北京市,通州新华,颗粒物(PM10),97,115,82,47,42,105,105,86,86,23,22,4,4,0.5,0.5
2026-04-19T1300,4182A,116.1942,39.9158,北京市,石景山八角,颗粒物(PM10),185,320,113,86,54,72,72,59,59,12,29,5,4,0.3,0.6
2026-04-19T1300,4194A,117.078628,40.151726,北京市,平谷新城,颗粒物(PM10),92,108,91,49,42,131,131,109,109,13,16,4,4,0.5,0.6
2026-04-19T1300,1761A,123.8274146,41.31234549,本溪市,大峪,颗粒物(PM10),51,51,66,15,29,145,145,132,132,4,9,7,7,0.6,0.7
2026-04-19T1300,1763A,123.7169,41.3094,本溪市,彩屯,臭氧1小时(O3_1h),57,57,78,22,44,165,165,135,135,7,21,13,15,0.8,2.2
2026-04-19T1300,1764A,123.7672166,41.28649327,本溪市,东明,颗粒物(PM10),74,83,73,15,31,146,146,144,143,11,11,8,5,0.8,0.5
2026-04-19T1300,1765A,123.799345,41.266614,本溪市,新立屯,颗粒物(PM10),63,68,67,14,29,137,137,148,143,14,13,8,8,0.7,0.7
2026-04-19T1300,1766A,123.829144,41.336777,本溪市,威宁,颗粒物(PM10),69,76,78,19,30,146,146,118,118,10,19,8,7,0.7,0.7
2026-04-19T1300,2587A,105.287,27.3133,毕节市,八中,细颗粒物(PM2.5),68,52,47,44,31,115,115,68,68,7,14,8,10,0.7,0.6
2026-04-19T1300,2588A,105.3079,27.2987,毕节市,师专,细颗粒物(PM2.5),52,48,46,36,29,103,103,68,68,6,11,10,11,0.6,0.6
2026-04-19T1300,4263A,105.3688,27.3598,毕节市,工业大道,细颗粒物(PM2.5),62,60,48,41,27,118,118,80,80,6,9,11,11,/,/
2026-04-19T1300,1629A,117.9961,37.3604,滨州市,第二水厂,颗粒物(PM10),98,117,120,25,52,135,135,102,102,11,26,9,11,0.7,0.9
2026-04-19T1300,1630A,117.9789,37.3931,滨州市,北中新校,颗粒物(PM10),88,102,101,27,46,145,145,109,109,13,25,13,17,0.5,0.6
2026-04-19T1300,3514A,117.9379,37.3959,滨州市,中海酒店,NA,NA,107,99,26,44,154,154,118,118,NA,28,17,18,1.2,1
2026-04-19T1300,3515A,117.9381509,37.35547456,滨州市,开发区一中,颗粒物(PM10),108,139,126,29,55,140,140,101,101,16,33,14,16,0.9,1
2026-04-19T1300,3516A,118.0914,37.6938,滨州市,金海六路,颗粒物(PM10),91,107,106,36,48,158,158,101,101,10,29,14,11,0.5,0.6
2026-04-19T1300,4028A,117.9955,37.3752,滨州市,滨州市西街道办事处,颗粒物(PM10),101,122,125,26,47,142,142,106,106,13,23,9,10,0.5,0.7
2026-04-19T1300,2311A,115.8071,33.8399,亳州市,污水处理厂,,46,46,63,7,27,136,136,97,97,9,14,5,6,0.1,0.2
2026-04-19T1300,2312A,115.7789,33.8519,亳州市,三国揽胜宫,颗粒物(PM10),59,62,56,9,20,128,128,101,101,6,9,8,8,0.2,0.2
2026-04-19T1300,3332A,115.7631,33.803,亳州市,亳州学院,,40,38,54,10,22,126,126,100,100,5,9,6,7,0.3,0.3
2026-04-19T1300,2693A,82.0482,44.8553,博尔塔拉蒙古自治州,市党校,颗粒物(PM10),53,54,82,10,15,79,79,69,69,1,2,3,2,0.5,0.5
2026-04-19T1300,2694A,82.0805,44.8966,博尔塔拉蒙古自治州,市环保局,颗粒物(PM10),59,62,82,3,12,75,75,63,63,6,8,6,4,0.3,0.3
2026-04-19T1300,1071A,116.8733,38.2922,沧州市,沧县城建局,颗粒物(PM10),69,76,80,42,39,139,139,101,101,11,17,6,6,0.8,0.7
2026-04-19T1300,1072A,116.8462,38.3189,沧州市,电视转播站,颗粒物(PM10),87,101,88,44,41,148,148,109,109,11,14,12,9,0.4,0.3
2026-04-19T1300,1073A,116.8588,38.3161,沧州市,市环保局,颗粒物(PM10),81,93,89,34,32,145,145,105,105,9,13,8,8,0.7,0.6
2026-04-19T1300,3324A,116.8011,38.294,沧州市,河北水利电力学院,颗粒物(PM10),86,100,90,51,44,136,136,101,101,9,16,10,10,0.5,0.4
2026-04-19T1300,2622A,97.1813,31.1289,昌都市,昌都监测站,,30,9,14,3,5,93,93,69,68,5,9,9,9,0.2,0.2
2026-04-19T1300,3719A,97.1707,31.1428,昌都市,昌都会议中心,,32,6,13,3,5,101,101,73,73,4,5,6,6,0.3,0.3
2026-04-19T1300,2692A,87.2722,44.0298,昌吉回族自治州,新区政务中心,,36,36,26,15,13,75,75,45,45,14,18,7,5,0.4,0.4
2026-04-19T1300,3613A,87.3069,44.0093,昌吉回族自治州,亚心广场,,36,36,38,20,11,80,80,46,46,10,21,8,6,0.4,0.4
2026-04-19T1300,4164A,87.2057,43.9289,昌吉回族自治州,财政所,NA,NA,48,61,NA,37,65,65,36,36,17,14,8,7,0.4,0.4
2026-04-19T1300,1120A,125.2874,43.9024,长春市,客车厂,颗粒物(PM10),500,624,110,34,36,139,139,123,123,11,19,8,9,0.5,0.5
2026-04-19T1300,1121A,125.2943,43.8508,长春市,邮电学院,颗粒物(PM10),382,485,100,38,37,154,154,132,132,7,12,8,9,0.6,0.5
2026-04-19T1300,1122A,125.3648,43.8745,长春市,劳动公园,颗粒物(PM10),191,332,80,37,36,152,152,128,128,11,19,8,9,0.6,0.6
2026-04-19T1300,1123A,125.3233,43.8781,长春市,园林处,颗粒物(PM10),290,413,87,35,37,157,157,136,136,9,16,8,9,0.3,0.3
2026-04-19T1300,1124A,125.4604,43.7904,长春市,净月潭,颗粒物(PM10),177,304,61,32,31,155,155,129,129,10,12,8,8,0.5,0.5
2026-04-19T1300,1126A,125.38,43.8422,长春市,经开区环卫处,颗粒物(PM10),266,396,89,32,27,154,154,128,128,9,19,8,8,0.7,0.6
2026-04-19T1300,1127A,125.234,43.7761,长春市,高新区管委会,颗粒物(PM10),282,407,94,35,34,150,150,128,128,7,15,10,9,0.6,0.4
2026-04-19T1300,1128A,125.1695,43.83,长春市,岱山公园,颗粒物(PM10),415,515,97,35,36,154,154,137,137,8,19,5,6,0.4,0.5
2026-04-19T1300,4281A,125.334645,43.916281,长春市,北亚泰大街1068号,颗粒物(PM10),477,577,106,38,37,149,149,127,127,12,19,7,7,0.4,0.3
2026-04-19T1300,1335A,113.082,28.2421,长沙市,经开区环保局,颗粒物(PM10),53,54,58,22,30,137,137,82,82,7,26,6,7,0.6,0.7
2026-04-19T1300,1336A,112.8873,28.2202,长沙市,高开区环保局,NA,NA,47,62,30,39,120,120,73,73,NA,35,6,6,0.8,0.9
2026-04-19T1300,1337A,113.0785,28.2012,长沙市,马坡岭,,49,49,71,19,37,136,136,82,82,6,29,8,7,0.7,0.8
2026-04-19T1300,1338A,112.9448,28.1894,长沙市,湖南师范大学,颗粒物(PM10),53,54,51,27,26,139,139,81,81,8,16,7,7,0.8,0.9
2026-04-19T1300,1339A,113.0177,28.1322,长沙市,雨花区环保局,,42,42,52,19,29,128,128,91,91,2,22,5,5,0.8,0.9
2026-04-19T1300,1340A,112.9795,28.2593,长沙市,伍家岭,,47,47,74,24,41,137,137,69,69,6,29,5,4,0.6,0.7
2026-04-19T1300,1341A,113.002,28.1944,长沙市,火车新站,,50,50,67,22,40,123,123,81,81,3,31,5,5,0.5,0.8
2026-04-19T1300,1342A,112.9846,28.1177,长沙市,天心区环保局,颗粒物(PM10),51,51,59,20,34,133,133,83,83,3,25,7,7,0.8,1
2026-04-19T1300,1343A,112.8906,28.1307,长沙市,湖南中医药大学,颗粒物(PM10),53,53,61,22,34,149,149,71,71,8,32,10,7,0.9,0.9
2026-04-19T1300,1727A,113.1146,36.1547,长治市,清华站,颗粒物(PM10),52,52,49,23,23,135,135,113,113,13,13,10,9,0.6,0.5
2026-04-19T1300,1730A,113.0887,36.2126,长治市,审计局,颗粒物(PM10),66,72,59,35,26,136,136,108,108,9,10,10,9,0.5,0.4
2026-04-19T1300,1731A,113.0845,36.1856,长治市,长治八中,颗粒物(PM10),53,53,66,30,24,132,132,105,105,10,14,11,10,0.8,0.6
2026-04-19T1300,2845A,113.1561,36.1912,长治市,德盛苑,颗粒物(PM10),53,54,49,27,24,136,136,122,122,13,12,10,9,0.7,0.5
2026-04-19T1300,3568A,113.0603,36.0464,长治市,向阳小学,颗粒物(PM10),77,87,91,33,24,137,137,120,120,12,17,9,8,0.8,0.6
2026-04-19T1300,3569A,112.8788,36.315,长治市,屯留一中,颗粒物(PM10),58,61,61,21,27,119,119,84,84,11,13,8,9,0.5,0.5
2026-04-19T1300,4189A,113.113092,36.199482,长治市,英华南巷50号,颗粒物(PM10),58,60,58,27,25,140,140,114,114,8,9,4,4,0.7,0.5
2026-04-19T1300,4190A,113.23666,36.33435,长治市,学府街1号,颗粒物(PM10),63,67,69,31,23,138,138,97,97,8,15,6,5,0.8,0.8
2026-04-19T1300,1854A,111.696,28.9725,常德市,市二中,颗粒物(PM10),56,58,51,26,33,147,147,76,76,8,12,10,10,0.8,0.8
2026-04-19T1300,3138A,111.7152,29.0288,常德市,武陵区永安,,45,45,54,19,35,131,131,70,70,3,12,7,7,0.6,0.7
2026-04-19T1300,3139A,111.6891,28.9881,常德市,鼎城区玉霞,,48,48,51,22,32,132,132,66,66,3,9,10,10,0.8,0.8
2026-04-19T1300,3140A,111.6651,29.0526,常德市,武陵区长庚,,46,46,52,26,34,124,124,66,66,2,7,9,10,0.8,0.8
2026-04-19T1300,1196A,119.9524,31.7586,常州市,市监测站,,43,13,48,3,20,136,136,87,87,6,26,8,7,0.5,0.7
2026-04-19T1300,1200A,119.9351,31.703,常州市,武进监测站,,42,13,47,3,24,133,133,82,82,6,28,3,8,0.4,0.7
2026-04-19T1300,3002A,119.9701,31.813,常州市,行政中心,,42,30,47,11,18,132,132,81,81,14,29,10,9,0.2,0.6
2026-04-19T1300,3003A,120.0434,31.7726,常州市,经开区,,40,21,51,6,20,128,128,77,77,2,34,2,3,0.7,0.9
2026-04-19T1300,3010A,119.8919,31.7892,常州市,钟楼,,43,23,41,3,17,135,135,86,86,12,31,10,10,0.2,0.5
2026-04-19T1300,3429A,119.8595,31.706,常州市,武进经发区,,46,24,52,11,26,145,145,78,78,15,44,7,9,0.3,0.7
2026-04-19T1300,3430A,119.5812,31.7256,常州市,金坛城区,,47,23,51,13,28,149,149,89,89,4,23,10,12,0.5,0.8
2026-04-19T1300,4089A,119.9551,31.863,常州市,崇义南街5-H号,,43,30,50,9,16,135,135,87,87,10,32,19,10,0.5,0.6
2026-04-19T1300,2220A,120.4318,41.588,朝阳市,西梁,颗粒物(PM10),55,57,82,18,57,145,145,132,132,12,15,7,8,0.4,0.7
2026-04-19T1300,2221A,120.452,41.565,朝阳市,河畔小区,颗粒物(PM10),63,68,68,16,54,157,157,148,147,13,14,10,11,0.6,0.7
2026-04-19T1300,2222A,120.4176,41.5648,朝阳市,八里堡,颗粒物(PM10),65,71,73,21,63,143,143,131,131,16,16,12,9,0.8,0.9
2026-04-19T1300,3026A,116.6179,23.6608,潮州市,市政府,颗粒物(PM10),55,57,45,28,35,156,156,105,105,7,11,4,5,0.6,0.6
2026-04-19T1300,4036A,116.646,23.676,潮州市,金山,,47,47,42,28,34,150,150,101,101,6,9,4,3,0.5,0.5
2026-04-19T1300,2473A,113.0116,25.8228,郴州市,市职中,,33,20,34,13,21,103,103,40,40,12,18,8,9,0.7,0.8
2026-04-19T1300,2475A,113.0381,25.8074,郴州市,市审计局,,35,29,35,14,20,110,110,50,50,9,18,4,4,/,/
2026-04-19T1300,2476A,113.0348,25.7757,郴州市,市环保局,,39,39,37,16,20,112,112,45,45,10,22,9,8,0.7,0.8
2026-04-19T1300,4252A,113.0138,25.8011,郴州市,好美居路49号,,36,24,33,12,21,115,115,46,46,8,18,8,7,/,/
2026-04-19T1300,1431A,103.9727,30.7242,成都市,金泉两河,颗粒物(PM10),70,77,73,34,45,174,174,77,77,14,27,7,5,0.4,0.6
2026-04-19T1300,1432A,104.1423,30.6765,成都市,十里店,颗粒物(PM10),62,66,74,30,46,159,159,80,80,8,23,7,8,0.6,0.6
2026-04-19T1300,1433A,104.0594,30.5765,成都市,三瓦窑,臭氧1小时(O3_1h),59,56,67,37,42,167,167,71,71,6,33,6,6,0.6,0.7
2026-04-19T1300,1434A,104.1122,30.6306,成都市,沙河铺,颗粒物(PM10),62,66,76,33,43,137,137,63,63,16,33,5,4,0.2,0.4
2026-04-19T1300,2880A,104.0219,30.6561,成都市,大石西路,颗粒物(PM10),65,71,74,40,48,150,150,72,72,14,25,8,6,0.6,0.7
2026-04-19T1300,3136A,104.2724,30.559,成都市,龙泉驿区区政府,,42,41,47,24,31,134,134,86,86,4,11,8,8,0.5,0.5
2026-04-19T1300,3357A,104.0028,30.6891,成都市,金博路,细颗粒物(PM2.5),66,60,66,43,46,166,166,74,74,18,33,11,9,0.5,0.6
2026-04-19T1300,3359A,104.056,30.5228,成都市,华阳,臭氧1小时(O3_1h),59,58,64,33,43,167,167,68,68,12,36,8,7,0.3,0.5
2026-04-19T1300,3488A,104.387954,30.746684,成都市,青石路225号,,47,42,54,27,34,148,148,68,68,6,29,9,8,0.6,0.7
2026-04-19T1300,3489A,104.0788,30.4054,成都市,科学城,,47,31,56,8,33,149,149,64,64,5,19,6,6,0.9,0.7
2026-04-19T1300,4011A,103.8505,30.6946,成都市,光华大道三段,臭氧1小时(O3_1h),79,72,74,38,41,183,183,92,92,16,28,10,6,0.6,0.7
2026-04-19T1300,4144A,104.3257,30.6406,成都市,八角井街185号,细颗粒物(PM2.5),64,55,58,42,33,141,141,74,74,11,15,8,6,0.5,0.4
2026-04-19T1300,4224A,104.2433276,30.53529463,成都市,鲸龙路1057号,颗粒物(PM10),55,56,62,20,34,144,144,76,76,6,26,8,8,0.6,0.7
2026-04-19T1300,1062A,117.9531,40.908,承德市,铁路,颗粒物(PM10),379,483,104,144,38,93,93,114,111,8,18,4,4,0.2,0.4
2026-04-19T1300,1063A,117.9397,40.9763,承德市,中国银行,颗粒物(PM10),369,475,106,147,43,83,83,80,75,8,16,3,3,0.2,0.4
2026-04-19T1300,4073A,117.9462,40.95,承德市,杏林街1号,颗粒物(PM10),179,308,98,111,42,91,91,126,117,5,8,2,3,0.2,0.4
2026-04-19T1300,4274A,117.7994,40.9605,承德市,滨河大街98号,颗粒物(PM10),293,415,96,122,43,87,87,78,78,4,16,2,4,0.2,0.4
2026-04-19T1300,2314A,117.4698,30.6617,池州市,池州学院,臭氧1小时(O3_1h),69,49,44,28,30,175,175,104,104,24,25,6,5,1.0,1
2026-04-19T1300,3237A,117.4918,30.6617,池州市,展览馆,臭氧1小时(O3_1h),77,48,41,32,28,181,181,100,100,19,20,6,3,0.7,0.7
2026-04-19T1300,3333A,117.5626,30.695,池州市,第八中学,臭氧1小时(O3_1h),57,33,42,21,27,165,165,104,104,28,25,4,4,0.5,0.7
2026-04-19T1300,3334A,117.5037,30.6242,池州市,第十二中学,臭氧1小时(O3_1h),55,40,44,24,28,164,164,93,93,21,32,4,4,0.6,0.9
2026-04-19T1300,1744A,118.9229,42.2816,赤峰市,松山一中,颗粒物(PM10),187,323,92,38,38,84,84,134,108,12,15,7,8,0.4,0.6
2026-04-19T1300,1745A,118.9588,42.2733,赤峰市,哈达街,颗粒物(PM10),187,323,96,36,36,79,79,116,98,5,6,9,10,0.5,0.7
2026-04-19T1300,1746A,118.8792,42.2551,赤峰市,天义路,颗粒物(PM10),162,274,72,47,39,84,84,131,107,6,10,5,6,0,0.1
2026-04-19T1300,3058A,119.2656,42.0356,赤峰市,银河街,颗粒物(PM10),174,297,101,52,45,93,93,120,115,4,11,7,13,0.3,0.6
2026-04-19T1300,3286A,118.9359,42.3146,赤峰市,桥北物流园区,颗粒物(PM10),171,291,93,51,39,84,84,126,104,3,9,4,4,0.3,0.6
2026-04-19T1300,2521A,107.3473,22.4137,崇左市,市环保局江州分局,,35,35,42,21,28,89,89,52,52,5,11,3,5,0.7,0.8
2026-04-19T1300,4256A,107.375,22.3736,崇左市,石景林东路7号,NA,NA,24,42,21,26,88,88,56,56,NA,13,3,2,1.0,1
2026-04-19T1300,3207A,118.31131,32.3033,滁州市,市政府原办公楼,臭氧1小时(O3_1h),58,55,41,37,28,166,166,86,86,20,23,13,6,1.0,0.5
2026-04-19T1300,3331A,118.3268,32.2633,滁州市,图书馆,"颗粒物(PM10),臭氧1小时(O3_1h)",55,57,39,19,18,164,164,87,87,17,21,12,11,0.8,0.3
2026-04-19T1300,4101A,118.3196,32.3335,滁州市,银山路666号,臭氧1小时(O3_1h),82,49,46,25,20,185,185,92,92,17,21,13,8,0.6,0.3
2026-04-19T1300,4102A,118.3426,32.2979,滁州市,黄山路555号,臭氧1小时(O3_1h),68,63,56,30,23,174,174,90,90,16,25,14,8,1.2,0.6
2026-04-19T1300,2606A,101.5379,25.0492,楚雄彝族自治州,市经济开发区,,42,42,58,25,39,128,128,85,85,5,14,2,3,0.5,0.6
2026-04-19T1300,4153A,101.5536,25.0343,楚雄彝族自治州,团结路562号,NA,NA,NA,46,NA,30,NA,NA,131,NA,NA,7,NA,4,NA,0.4
2026-04-19T1300,2549A,107.5087,31.2186,达州市,市环境监测站,,47,47,55,21,25,70,70,31,31,19,34,8,7,0.3,0.3
2026-04-19T1300,2550A,107.4988,31.2132,达州市,凤凰小区,颗粒物(PM10),58,61,57,26,28,70,70,34,34,22,32,8,7,0.3,0.3
2026-04-19T1300,2551A,107.5081,31.1987,达州市,达县机关宾馆,颗粒物(PM10),55,56,60,17,29,77,77,40,40,19,40,8,6,0.3,0.4
2026-04-19T1300,2552A,107.4644,31.2124,达州市,市政中心,颗粒物(PM10),61,65,60,26,25,60,60,29,29,36,39,8,7,0.6,0.5
2026-04-19T1300,2614A,100.2168,25.5818,大理白族自治州,大理市环境监测站,细颗粒物(PM2.5),58,50,52,39,36,105,105,99,97,11,11,4,4,0.6,0.5
2026-04-19T1300,2615A,100.1542,25.7055,大理白族自治州,大理古城,,50,50,51,30,32,117,117,102,100,6,8,4,4,0.5,0.5
2026-04-19T1300,1109A,121.6119,38.974,大连市,甘井子,,42,42,36,20,17,115,115,65,65,27,20,10,9,0.6,0.6
2026-04-19T1300,1110A,121.565,38.9509,大连市,周水子,,48,48,46,22,23,113,113,61,61,30,31,11,7,0.6,0.6
2026-04-19T1300,1111A,121.5637,38.8849,大连市,星海三站,,38,38,45,23,28,112,112,52,52,21,23,6,5,0.4,0.4
2026-04-19T1300,1112A,121.6301,38.9117,大连市,青泥洼桥,颗粒物(PM10),52,52,49,18,23,158,158,92,92,14,21,9,6,0.7,0.7
2026-04-19T1300,1113A,121.6248,38.8643,大连市,傅家庄,NA,NA,40,40,22,21,101,101,55,55,18,18,9,9,NA,0.4
2026-04-19T1300,1114A,121.5117,38.8636,大连市,七贤岭,,33,33,48,17,22,98,98,52,52,29,25,9,7,0.5,0.5
2026-04-19T1300,1116A,121.7507,39.1339,大连市,金州,颗粒物(PM10),51,51,44,30,29,142,142,84,84,18,16,9,6,0.4,0.4
2026-04-19T1300,1117A,121.7811,39.0495,大连市,开发区,,41,35,47,16,19,129,129,60,60,19,22,12,7,0.4,0.3
2026-04-19T1300,1118A,121.9762,39.0631,大连市,双D港,,39,39,21,24,11,60,60,52,52,23,16,4,5,0.6,0.6
2026-04-19T1300,4082A,121.2548,38.8188,大连市,旅顺,,38,38,41,18,23,94,94,68,68,23,21,10,8,0.4,0.4
2026-04-19T1300,1789A,124.8085,46.0381,大庆市,大同区,颗粒物(PM10),93,110,48,56,27,112,112,92,92,14,14,7,3,0.7,0.5
2026-04-19T1300,1790A,125.1166,46.5255,大庆市,龙凤区,颗粒物(PM10),53,54,41,25,22,66,66,61,61,10,12,4,5,0.3,0.2
2026-04-19T1300,1791A,124.8894,46.4007,大庆市,红岗区,颗粒物(PM10),52,52,34,35,23,78,78,73,71,11,6,14,9,0.5,0.5
2026-04-19T1300,1792A,125.1391,46.578,大庆市,萨尔图区,颗粒物(PM10),60,63,52,14,14,78,78,72,72,8,10,7,6,0.3,0.2
2026-04-19T1300,1793A,124.9026,46.6217,大庆市,让胡路区,,48,48,42,21,20,58,58,69,60,14,14,1,2,0.4,0.3
2026-04-19T1300,3481A,125.127,46.6277,大庆市,萨区政府监测点,,38,38,27,19,13,63,63,67,66,7,4,10,9,0.3,0.3
2026-04-19T1300,1723A,113.2926,40.0759,大同市,云冈宾馆,颗粒物(PM10),500,786,193,169,70,75,75,91,79,13,19,4,6,0.1,0.2
2026-04-19T1300,1724A,113.3437,40.0921,大同市,大同大学,细颗粒物(PM2.5),173,163,73,131,66,75,75,98,78,13,22,1,3,0.4,0.5
2026-04-19T1300,1725A,113.2637,40.129,大同市,安家小村,颗粒物(PM10),500,722,269,188,74,66,66,96,77,17,18,4,6,0.5,0.4
2026-04-19T1300,3282A,113.3399,40.0586,大同市,大同市卫生学校,颗粒物(PM10),500,667,266,112,63,80,80,102,86,11,17,4,6,0.4,0.5
2026-04-19T1300,3565A,113.1371,40.1122,大同市,云冈站,颗粒物(PM10),500,666,277,166,70,63,63,88,67,14,16,4,7,0.3,0.4
2026-04-19T1300,3566A,113.1186,40.2556,大同市,图书馆,颗粒物(PM10),500,816,228,210,76,69,69,95,76,13,16,5,9,0.6,0.7
2026-04-19T1300,3567A,113.5931,40.0459,大同市,区一中,颗粒物(PM10),491,591,189,132,56,85,85,98,84,11,14,6,8,0.6,0.8
2026-04-19T1300,4199A,113.2798248,40.09972476,大同市,魏都大道141号,颗粒物(PM10),500,731,260,176,73,69,69,90,77,14,17,7,9,0.6,0.6
2026-04-19T1300,2269A,124.1068,50.4091,大兴安岭地区,科技局,,22,19,42,3,25,68,68,60,60,3,6,8,9,0.4,0.4
2026-04-19T1300,3663A,124.117,50.4279,大兴安岭地区,红旗社区,,24,9,29,6,25,75,75,68,68,5,10,9,10,0.2,0.3
2026-04-19T1300,1600A,124.33,40.0625,丹东市,江湾东路,NA,NA,87,45,50,27,170,170,69,69,NA,12,8,8,NA,0.6
2026-04-19T1300,1601A,124.4242,40.1513,丹东市,临江后街,细颗粒物(PM2.5),82,83,55,51,32,160,160,77,77,8,16,7,8,0.5,0.6
2026-04-19T1300,1602A,124.3935,40.1461,丹东市,元宝山,细颗粒物(PM2.5),78,69,44,49,33,157,157,73,73,9,17,7,8,0.7,0.8
2026-04-19T1300,1603A,124.3634,40.1093,丹东市,民主桥,细颗粒物(PM2.5),107,116,68,67,34,162,162,78,78,8,19,7,9,0.6,0.7
2026-04-19T1300,3541A,109.5726195,19.51688767,儋州市,第一中学子站,,33,28,38,23,26,80,80,48,48,2,7,5,5,0.8,0.9
2026-04-19T1300,3542A,109.5567,19.5187,儋州市,东坡学校子站,,35,33,34,24,25,90,90,51,51,4,9,4,5,0.5,0.6
2026-04-19T1300,2616A,98.5611,24.4273,德宏傣族景颇族自治州,德宏州监测站,细颗粒物(PM2.5),114,NA,79,75,73,132,132,73,73,NA,19,7,7,0.6,0.6
2026-04-19T1300,3677A,98.5887,24.4366,德宏傣族景颇族自治州,芒市人民政府综合楼,细颗粒物(PM2.5),107,110,119,67,67,124,124,71,71,15,17,5,5,0.6,0.6
2026-04-19T1300,1901A,104.424,31.1209,德阳市,东山公园,,42,42,52,26,38,127,127,79,79,4,13,5,5,0.5,0.5
2026-04-19T1300,1902A,104.3827,31.1318,德阳市,西小区,颗粒物(PM10),53,53,70,23,43,121,121,64,64,8,26,4,5,0.5,0.6
2026-04-19T1300,1904A,104.3553,31.1091,德阳市,耐火材料厂,,47,47,71,17,48,140,140,76,76,10,21,3,6,0.4,0.4
2026-04-19T1300,4145A,104.4144,31.1495,德阳市,市林业局,,48,48,56,21,38,142,142,69,69,1,35,3,3,0.3,0.4
2026-04-19T1300,1622A,116.3034,37.4675,德州市,儿童乐园,颗粒物(PM10),102,124,108,23,36,147,147,114,114,8,15,9,9,0.5,0.6
2026-04-19T1300,1624A,116.2992,37.4449,德州市,监理站,颗粒物(PM10),112,149,104,19,32,150,150,115,115,14,22,12,12,0.5,0.5
2026-04-19T1300,3066A,116.2722,37.438,德州市,九衢泉纯净水厂,颗粒物(PM10),83,95,96,21,32,138,138,105,105,12,22,7,6,0.6,0.7
2026-04-19T1300,3371A,116.3693,37.44,德州市,开发区人民医院,颗粒物(PM10),104,129,110,33,36,144,144,98,98,12,20,14,12,0.7,0.6
2026-04-19T1300,3511A,116.5687,37.3331,德州市,陵城艺术中心,颗粒物(PM10),80,92,91,24,36,130,130,98,98,7,13,6,8,0.8,0.9
2026-04-19T1300,4292A,116.352738,37.420875,德州市,新河东路,颗粒物(PM10),88,102,93,31,33,139,139,96,96,9,16,13,10,0.8,0.8
2026-04-19T1300,2621A,99.7054,27.8319,迪庆藏族自治州,迪庆州站,,35,11,22,9,12,111,111,104,104,8,9,8,8,0.4,0.4
2026-04-19T1300,3180A,99.7122,27.8129,迪庆藏族自治州,质量技术监督局,,37,14,19,3,11,118,118,109,109,7,8,8,8,0.3,0.4
2026-04-19T1300,4257A,104.6092,35.5962,定西市,将台街,颗粒物(PM10),151,251,335,70,122,97,97,100,94,4,7,5,5,0.0,0.1
2026-04-19T1300,4309A,104.6159,35.5701,定西市,正龙路62号,颗粒物(PM10),168,285,364,63,104,98,98,100,95,6,7,3,3,0.2,0.2
2026-04-19T1300,4071A,114.9883,38.5232,定州市,交通局,颗粒物(PM10),97,115,97,48,29,120,120,73,73,16,17,14,9,0.7,0.4
2026-04-19T1300,4072A,115.0045,38.5136,定州市,第五中学,颗粒物(PM10),93,110,103,41,29,120,120,73,73,18,23,9,5,0.7,0.4
2026-04-19T1300,1390A,113.7943,23.0132,东莞市,东城石井,臭氧1小时(O3_1h),104,38,54,25,39,208,208,121,121,21,33,6,6,0.7,0.8
2026-04-19T1300,1391A,113.7384,22.9659,东莞市,南城西平,臭氧1小时(O3_1h),104,36,64,26,50,208,208,109,109,16,32,6,7,0.8,0.9
2026-04-19T1300,3319A,113.7283,23.041,东莞市,万江金泰,臭氧1小时(O3_1h),107,56,62,46,46,213,213,118,118,19,37,8,10,0.8,1
2026-04-19T1300,4129A,113.8666,23.1062,东莞市,裕兴路,,49,35,54,19,33,154,154,105,105,9,25,7,8,1.0,1.1
2026-04-19T1300,4130A,114.0076,22.9739,东莞市,教育路1号,臭氧1小时(O3_1h),68,34,92,18,61,174,174,100,100,13,48,8,8,0.8,0.9
2026-04-19T1300,4131A,113.7981,22.8124,东莞市,长怡路1号,臭氧1小时(O3_1h),101,42,71,24,44,201,201,104,104,14,33,7,7,0.9,0.9
2026-04-19T1300,1666A,118.6612,37.4313,东营市,市环保局,颗粒物(PM10),100,119,108,43,49,165,165,98,98,14,21,14,18,0.6,0.7
2026-04-19T1300,3036A,118.6903,37.4337,东营市,开发区管委会,颗粒物(PM10),99,118,105,59,69,170,170,110,110,20,26,13,15,0.9,1.1
2026-04-19T1300,3365A,118.5721,37.5654,东营市,垦利区民丰路,颗粒物(PM10),91,107,100,38,45,181,181,81,NA,16,21,12,11,0.6,0.7
2026-04-19T1300,3498A,118.5063,37.8606,东营市,河口城区,臭氧1小时(O3_1h),87,95,105,30,48,189,189,124,124,12,19,16,17,1.0,1.2
2026-04-19T1300,3646A,118.4979,37.4623,东营市,胜利站,颗粒物(PM10),90,105,98,48,49,169,169,99,99,19,23,10,10,0.8,0.9
2026-04-19T1300,3734A,118.5753,37.4405,东营市,理想之城,颗粒物(PM10),98,117,107,49,61,164,164,91,91,22,30,13,10,0.7,0.8
2026-04-19T1300,1591A,110.0024,39.8127,鄂尔多斯市,综合楼,颗粒物(PM10),500,1108,584,152,108,84,84,100,85,8,11,5,6,0.2,0.3
2026-04-19T1300,1592A,109.9485,39.8259,鄂尔多斯市,巴音孟克林场办事处,颗粒物(PM10),500,945,510,133,94,89,89,106,92,5,9,4,5,0.3,0.3
2026-04-19T1300,1593A,109.7734,39.5987,鄂尔多斯市,康泽苑,细颗粒物(PM2.5),209,NA,207,159,89,89,89,102,93,4,8,8,9,0.2,0.2
2026-04-19T1300,1594A,109.8121,39.5987,鄂尔多斯市,华泰汽车城,颗粒物(PM10),500,998,332,150,86,85,85,99,88,4,8,6,8,0.2,0.3
2026-04-19T1300,1595A,109.9734,39.7884,鄂尔多斯市,奥林花园,颗粒物(PM10),500,962,504,106,66,88,88,100,89,8,13,3,5,0.2,0.3
2026-04-19T1300,2436A,114.894,30.3989,鄂州市,市政府,臭氧1小时(O3_1h),95,58,68,37,41,196,196,133,133,14,22,15,14,0.7,0.7
2026-04-19T1300,2437A,114.8986,30.3714,鄂州市,赵家坝,NA,NA,61,69,NA,39,192,192,126,126,11,19,13,12,0.8,0.9
2026-04-19T1300,3654A,114.8093,30.4091,鄂州市,精准医疗中心,,50,50,65,21,43,151,151,115,115,4,24,5,13,0.6,1.4
2026-04-19T1300,2454A,109.4978,30.2979,恩施土家族苗族自治州,湖北民院,,39,39,41,12,22,102,102,40,40,9,13,8,8,0.1,0.1
2026-04-19T1300,3549A,109.5061,30.3771,恩施土家族苗族自治州,龙凤新区,,37,37,37,16,20,94,94,37,37,9,14,7,7,0.4,0.4
2026-04-19T1300,2499A,108.3411,21.6159,防城港市,沙万,细颗粒物(PM2.5),72,78,42,46,29,71,71,80,75,27,16,8,8,1.1,0.9
2026-04-19T1300,2500A,108.3515,21.7733,防城港市,防城档案局,颗粒物(PM10),51,51,45,33,33,102,102,65,65,8,9,9,8,0.8,0.8
2026-04-19T1300,2501A,108.3506,21.6414,防城港市,大海花园,细颗粒物(PM2.5),90,66,36,55,31,84,84,89,82,19,12,11,11,1.0,1
2026-04-19T1300,1371A,113.1293,23.0065,佛山市,湾梁,臭氧1小时(O3_1h),106,68,55,40,41,211,211,85,85,17,35,/,/,/,/
2026-04-19T1300,1372A,113.1082,23.0477,佛山市,华材职中,臭氧1小时(O3_1h),102,53,74,35,55,203,203,79,79,18,49,6,6,0.6,0.7
2026-04-19T1300,1373A,113.1439,23.045,佛山市,南海气象局,臭氧1小时(O3_1h),97,80,59,34,43,197,197,82,82,20,37,/,/,/,/
2026-04-19T1300,1374A,113.2879,22.8094,佛山市,顺德苏岗,臭氧1小时(O3_1h),106,45,41,41,41,211,211,96,96,15,30,/,/,0.7,0.7
2026-04-19T1300,1376A,112.8384,22.8678,佛山市,高明孔堂,臭氧1小时(O3_1h),102,43,35,30,24,203,203,81,81,17,16,/,/,/,/
2026-04-19T1300,1377A,112.8835,23.1584,佛山市,三水监测站,臭氧1小时(O3_1h),59,51,46,29,32,167,167,67,67,18,41,7,8,0.6,0.6
2026-04-19T1300,1378A,112.8668,23.185,佛山市,三水云东海,臭氧1小时(O3_1h),64,56,56,28,28,171,171,69,69,14,31,/,/,/,/
2026-04-19T1300,3625A,113.2568,22.7629,佛山市,容桂街道办,臭氧1小时(O3_1h),99,41,47,32,39,199,199,93,93,16,39,/,/,/,/
2026-04-19T1300,1282A,119.2681,26.0506,福州市,师大,,39,28,28,7,24,124,124,89,89,11,17,4,4,0.7,0.7
2026-04-19T1300,1283A,119.2983,26.1028,福州市,五四北路,,42,25,26,12,25,133,133,91,91,16,21,4,4,0.5,0.5
2026-04-19T1300,1284A,119.2648,26.0769,福州市,杨桥西路,,38,15,25,7,24,121,121,92,92,7,14,4,4,/,/
2026-04-19T1300,3048A,119.5799,26.0937,福州市,九龙,,42,20,28,19,22,132,132,80,80,11,13,5,5,0.5,0.5
2026-04-19T1300,3526A,119.5188,25.9666,福州市,吴航,,45,32,31,20,24,141,141,78,78,13,18,6,5,0.6,0.6
2026-04-19T1300,4104A,119.3106,26.0648,福州市,路通桥巷6号,,41,20,31,13,26,129,129,91,91,10,16,/,/,/,/
2026-04-19T1300,1755A,123.7974,41.8494,抚顺市,望花区,颗粒物(PM10),107,137,119,23,58,170,170,150,150,16,26,13,15,0.7,0.8
2026-04-19T1300,1756A,123.9161,41.8827,抚顺市,顺城区,颗粒物(PM10),91,107,106,21,65,157,157,104,104,14,36,15,13,0.7,1
2026-04-19T1300,1757A,124.0437,41.8615,抚顺市,东洲区,颗粒物(PM10),96,114,108,22,53,163,163,134,134,10,18,10,11,0.7,0.8
2026-04-19T1300,1758A,123.9246,41.8638,抚顺市,新抚区,颗粒物(PM10),100,119,96,26,62,172,172,116,116,12,29,12,10,0.8,1
2026-04-19T1300,1759A,124.0972,41.8961,抚顺市,大伙房水库,颗粒物(PM10),83,95,75,18,42,178,178,144,144,10,13,11,9,0.6,0.7
2026-04-19T1300,1760A,123.708,41.8386,抚顺市,沈抚新城,颗粒物(PM10),99,118,120,21,63,165,165,142,142,13,28,12,11,0.8,1.1
2026-04-19T1300,2377A,116.3544,27.9833,抚州市,市站,,46,38,43,22,27,147,147,81,81,7,13,5,5,1.0,1.1
2026-04-19T1300,2378A,116.3562,27.9631,抚州市,血防站,,44,37,38,27,26,140,140,75,75,8,15,7,8,0.8,0.9
2026-04-19T1300,2379A,116.3561,28.0007,抚州市,采茶剧团,,44,43,43,26,24,139,139,71,71,7,18,13,16,0.7,0.7
2026-04-19T1300,2380A,116.3854,27.9648,抚州市,医学分院,,42,41,47,15,24,134,134,72,72,4,15,7,21,0.8,0.9
2026-04-19T1300,2207A,121.6095,41.9978,阜新市,工业园区,颗粒物(PM10),70,77,74,25,62,140,140,120,108,11,14,4,6,0.6,0.7
2026-04-19T1300,2208A,121.6567,42.0188,阜新市,长青街,颗粒物(PM10),70,77,90,30,64,136,136,128,112,15,16,12,10,0.6,0.7
2026-04-19T1300,2209A,121.6672,42.07,阜新市,农业园区,颗粒物(PM10),63,68,100,30,62,142,142,136,121,15,15,8,7,0.6,0.7
2026-04-19T1300,2211A,121.6343,42.0455,阜新市,玉龙新城,颗粒物(PM10),70,77,81,22,56,140,140,127,113,14,16,10,9,0.6,0.7
2026-04-19T1300,2301A,115.8276,32.8929,阜阳市,市监测站,颗粒物(PM10),55,56,58,19,21,160,160,103,103,8,19,7,7,0.5,0.4
2026-04-19T1300,2303A,115.8551,32.8606,阜阳市,开发区,颗粒物(PM10),68,74,75,16,24,158,158,111,111,9,14,6,6,0.6,0.5
2026-04-19T1300,2875A,115.783962,32.889217,阜阳市,阜阳职业技术学院,颗粒物(PM10),54,55,47,22,20,161,161,NA,NA,6,12,8,8,0.6,0.5
2026-04-19T1300,3468A,115.79,32.8614,阜阳市,市规划展馆,颗粒物(PM10),64,69,58,17,23,154,154,111,111,10,17,9,9,0.5,0.4
2026-04-19T1300,3469A,115.835101,32.918568,阜阳市,枣园社区,颗粒物(PM10),58,60,71,18,24,153,153,107,107,11,16,6,7,0.4,0.4
2026-04-19T1300,2669A,102.9097,34.9841,甘南藏族自治州,州政府,颗粒物(PM10),314,431,126,188,52,80,80,75,75,5,24,1,3,0.3,0.4
2026-04-19T1300,3380A,102.8915,34.9618,甘南藏族自治州,甘肃民族师范学院,颗粒物(PM10),475,575,162,160,45,91,91,68,68,7,32,1,3,0.1,0.2
2026-04-19T1300,2570A,101.96,30.048,甘孜藏族自治州,水桥子,,29,14,20,3,6,90,90,37,37,3,20,6,6,0.1,0.1
2026-04-19T1300,3065A,101.9534,29.9976,甘孜藏族自治州,州环保局,,30,16,20,3,9,96,96,63,63,8,15,4,5,0.2,0.2
2026-04-19T1300,2363A,114.9368,25.8663,赣州市,地委,,45,39,36,28,22,143,143,63,63,6,14,3,2,1.0,1
2026-04-19T1300,2364A,114.946,25.8483,赣州市,气象台,,45,NA,36,31,25,138,138,66,66,9,19,5,6,0.6,0.8
2026-04-19T1300,2365A,114.932,25.8332,赣州市,市图书馆,,43,41,36,30,25,136,136,65,65,7,19,3,4,0.8,0.9
2026-04-19T1300,2366A,114.8905,25.8472,赣州市,华坚鞋城,,37,37,38,22,23,118,118,60,60,8,19,7,6,0.8,0.9
2026-04-19T1300,3109A,115.0094,25.8614,赣州市,赣县区卫计委,颗粒物(PM10),61,65,28,18,18,109,109,52,52,6,17,4,4,0.9,0.9
2026-04-19T1300,2684A,106.2753,36.0057,固原市,监测站,颗粒物(PM10),127,188,576,59,148,92,92,92,92,7,11,6,6,0.3,0.4
2026-04-19T1300,2685A,106.2384,36.0189,固原市,新区,颗粒物(PM10),130,196,528,53,150,90,90,90,90,7,12,5,6,0.5,0.5
2026-04-19T1300,2544A,106.6307,30.4577,广安市,市委,,48,48,48,31,33,78,78,53,53,10,20,8,8,0.4,0.5
2026-04-19T1300,2545A,106.6266,30.4662,广安市,友谊中学,,41,41,41,28,27,75,75,51,50,8,13,8,8,0.5,0.5
2026-04-19T1300,2547A,106.6386,30.4551,广安市,广电花园,,46,46,47,32,35,73,73,47,46,10,19,7,6,0.4,0.5
2026-04-19T1300,2902A,106.6347,30.4868,广安市,北辰小学,颗粒物(PM10),51,51,50,32,32,76,76,51,51,10,15,9,8,0.5,0.5
2026-04-19T1300,2524A,105.8211,32.4444,广元市,老城,颗粒物(PM10),63,67,53,18,26,106,106,32,32,9,37,2,4,0.5,0.6
2026-04-19T1300,2526A,105.8629,32.429,广元市,监测站,颗粒物(PM10),56,58,50,26,24,89,89,48,37,20,22,5,6,0.6,0.5
2026-04-19T1300,3617A,105.8047,32.4167,广元市,经开区,,49,49,53,22,28,102,102,36,36,11,25,3,6,0.5,0.5
2026-04-19T1300,1345A,113.2346,23.1423,广州市,广雅中学,臭氧1小时(O3_1h),72,46,54,29,34,177,177,71,71,16,47,3,4,0.9,1
2026-04-19T1300,1346A,113.2611,23.105,广州市,市五中,臭氧1小时(O3_1h),105,46,53,31,36,209,209,88,88,19,44,5,6,/,/
2026-04-19T1300,1348A,113.3477,23.0916,广州市,广东商学院,臭氧1小时(O3_1h),109,53,59,40,41,217,217,78,78,20,63,10,7,1.2,1.2
2026-04-19T1300,1349A,113.4332,23.105,广州市,市八十六中,臭氧1小时(O3_1h),103,41,50,27,35,205,205,77,77,22,64,12,8,/,/
2026-04-19T1300,1350A,113.3506,22.9488,广州市,番禺中学,臭氧1小时(O3_1h),103,50,59,28,38,206,206,91,91,18,40,7,7,0.7,0.9
2026-04-19T1300,1351A,113.2147,23.3918,广州市,花都师范,,47,34,46,26,28,150,150,67,67,10,38,6,7,0.9,1
2026-04-19T1300,1352A,113.2599,23.1329,广州市,市监测站,臭氧1小时(O3_1h),80,54,56,28,33,184,184,74,74,12,43,4,5,/,/
2026-04-19T1300,1353A,113.5618,23.3119,广州市,九龙镇镇龙,,41,36,42,23,26,131,131,60,60,10,30,6,6,0.5,0.6
2026-04-19T1300,1354A,113.2764,23.1544,广州市,麓湖,NA,NA,40,44,24,24,NA,NA,NA,NA,14,42,6,7,0.8,0.9
2026-04-19T1300,2846A,113.3209,23.1323,广州市,体育西,臭氧1小时(O3_1h),77,48,50,29,33,181,181,75,75,19,50,6,7,0.7,0.8
2026-04-19T1300,3298A,113.5718,23.5493,广州市,从化街口,,35,29,38,22,25,112,112,67,67,5,20,8,8,0.7,0.8
2026-04-19T1300,3299A,113.3463,23.369,广州市,白云竹料,,45,35,53,21,31,142,142,71,71,9,36,3,3,0.7,0.9
2026-04-19T1300,3300A,113.2981,23.2365,广州市,白云嘉禾,臭氧1小时(O3_1h),62,38,59,21,35,169,169,76,76,12,47,6,6,/,/
2026-04-19T1300,3301A,113.4256,23.1716,广州市,黄埔科学城,臭氧1小时(O3_1h),77,37,41,30,31,181,181,87,87,15,24,5,4,0.7,0.8
2026-04-19T1300,3302A,113.3942,23.0485,广州市,番禺大学城,臭氧1小时(O3_1h),117,71,66,42,45,233,233,79,79,26,52,11,5,0.9,0.9
2026-04-19T1300,3303A,113.4923,22.8169,广州市,南沙黄阁,臭氧1小时(O3_1h),114,68,64,49,44,227,227,98,98,20,46,9,8,/,/
2026-04-19T1300,3304A,113.534,22.7893,广州市,南沙街,臭氧1小时(O3_1h),94,59,62,27,46,195,195,102,102,18,34,8,7,0.6,0.7
2026-04-19T1300,3443A,113.2905,23.5541,广州市,花都梯面,,28,27,24,18,18,89,89,46,46,7,21,8,8,/,/
2026-04-19T1300,3445A,113.786,23.7479,广州市,从化良口,,34,28,23,21,18,106,106,55,55,7,11,5,4,/,/
2026-04-19T1300,3446A,113.805,23.2614,广州市,增城荔城,臭氧1小时(O3_1h),52,38,35,31,25,161,161,90,90,10,19,6,6,0.7,0.8
2026-04-19T1300,2506A,109.604387,23.066791,贵港市,江南子站,细颗粒物(PM2.5),64,66,63,42,37,125,125,57,57,9,27,10,9,0.8,0.9
2026-04-19T1300,2508A,109.5669,23.1065,贵港市,荷城子站,细颗粒物(PM2.5),56,46,45,38,33,120,120,66,66,10,20,14,11,0.9,0.9
2026-04-19T1300,3405A,109.5886,23.1172,贵港市,新世纪学校,颗粒物(PM10),56,58,44,34,34,124,124,64,64,17,23,/,/,0.9,0.7
2026-04-19T1300,4260A,109.5933,23.095,贵港市,中山路155-3号,细颗粒物(PM2.5),101,81,56,61,36,131,131,62,62,10,19,/,/,1.1,1.1
2026-04-19T1300,1439A,106.6863,26.6035,贵阳市,马鞍山,,42,39,24,29,16,84,84,76,76,10,10,5,5,/,/
2026-04-19T1300,1441A,106.6241,26.6266,贵阳市,鉴湖路,,48,48,38,33,16,89,89,82,82,10,10,6,7,0.9,0.8
2026-04-19T1300,1442A,106.7468,26.6344,贵阳市,燕子冲,,49,46,34,34,16,91,91,77,77,9,11,5,5,1.1,1
2026-04-19T1300,1443A,106.6556,26.4362,贵阳市,碧云窝,颗粒物(PM10),51,51,38,30,16,82,82,76,76,6,7,5,7,/,/
2026-04-19T1300,1445A,106.6963,26.6063,贵阳市,红边门,颗粒物(PM10),53,53,25,36,20,89,89,76,76,9,13,8,8,/,/
2026-04-19T1300,1446A,106.7162383,26.56964667,贵阳市,新华路,,48,48,35,29,15,70,70,58,58,13,15,2,2,0.6,0.4
2026-04-19T1300,1447A,106.6742,26.542,贵阳市,太慈桥,细颗粒物(PM2.5),56,39,31,38,18,83,83,71,71,8,13,4,5,/,/
2026-04-19T1300,4230A,106.688212,26.56952,贵阳市,花果园大街66号,,46,36,16,32,17,88,88,78,78,8,11,1,3,/,/
2026-04-19T1300,4231A,106.687268,26.516892,贵阳市,漓江路57号,,45,44,25,31,20,72,72,68,68,9,12,5,7,0.8,0.6
2026-04-19T1300,1864A,110.3091,25.2705,桂林市,龙隐路小学,,40,40,44,20,28,102,102,51,51,7,17,4,7,0.5,0.6
2026-04-19T1300,1865A,110.2849361,25.22909545,桂林市,八中,,47,47,45,9,16,88,88,44,44,8,17,4,6,0.7,0.7
2026-04-19T1300,3531A,110.296,25.1254,桂林市,旅游学院,,38,38,42,21,29,101,101,47,47,5,19,9,7,0.7,0.7
2026-04-19T1300,4222A,110.1835,25.2444,桂林市,环湖路276号,,30,24,41,12,28,95,95,38,38,5,32,4,8,0.5,0.6
2026-04-19T1300,4301A,110.2803,25.2773,桂林市,信义路13号,颗粒物(PM10),53,53,47,10,24,96,96,50,50,9,24,5,11,0.7,0.8
2026-04-19T1300,2674A,100.2262,34.4854,果洛藏族自治州,玛沁县大武镇,,32,23,30,7,10,100,100,63,63,2,4,13,18,0.3,0.4
2026-04-19T1300,1130A,126.5557,45.8109,哈尔滨市,松北商大,颗粒物(PM10),77,87,31,47,22,118,118,82,82,16,13,10,7,0.7,0.5
2026-04-19T1300,1132A,126.6162,45.719,哈尔滨市,南岗学府路,颗粒物(PM10),102,125,43,39,16,141,141,91,91,16,16,7,3,0.6,0.5
2026-04-19T1300,1133A,126.6894,45.7733,哈尔滨市,太平宏伟公园,颗粒物(PM10),91,107,41,44,20,134,134,82,82,20,25,9,6,0.5,0.4
2026-04-19T1300,1134A,126.6361,45.7672,哈尔滨市,道外承德广场,颗粒物(PM10),78,88,51,38,20,120,120,74,74,23,26,13,8,0.3,0.3
2026-04-19T1300,1136A,126.644,45.7261,哈尔滨市,动力和平路,颗粒物(PM10),89,104,41,33,17,133,133,84,84,18,19,9,6,0.5,0.4
2026-04-19T1300,1137A,126.5933,45.7479,哈尔滨市,道里建国路,颗粒物(PM10),99,118,36,41,18,126,126,83,83,32,27,8,6,0.1,0.2
2026-04-19T1300,1138A,126.6127,45.6119,哈尔滨市,平房东轻厂,颗粒物(PM10),66,72,37,35,26,142,142,90,90,14,24,15,12,0.7,0.6
2026-04-19T1300,1139A,126.5875,45.9827,哈尔滨市,呼兰师专,NA,NA,NA,NA,NA,NA,NA,NA,NA,NA,NA,NA,NA,NA,NA,NA
2026-04-19T1300,1140A,126.6299,45.6799,哈尔滨市,省农科院,颗粒物(PM10),113,152,61,49,22,120,120,76,76,21,17,10,7,0.4,0.3
2026-04-19T1300,4282A,126.6769,45.7379,哈尔滨市,华山路1号,细颗粒物(PM2.5),120,161,41,81,19,138,138,89,89,15,12,11,8,0.3,0.2
2026-04-19T1300,4283A,126.9717,45.5356,哈尔滨市,解放大街52号,颗粒物(PM10),98,116,48,22,14,156,156,113,113,12,16,7,4,0.6,0.5
2026-04-19T1300,2688A,93.5124,42.8176,哈密市,地区监测站,细颗粒物(PM2.5),110,NA,52,70,19,85,85,82,76,5,5,9,8,0.3,0.2
2026-04-19T1300,2689A,93.5014,42.8312,哈密市,哈密师范学校,颗粒物(PM10),51,51,49,6,14,86,86,87,81,7,5,7,7,0.1,0.1
2026-04-19T1300,2671A,100.9016,36.9464,海北藏族自治州,海晏县西海镇,颗粒物(PM10),156,261,101,99,38,107,107,102,102,1,3,9,9,0.3,0.4
2026-04-19T1300,3867A,102.074,36.5056,海东市,平安区公安局北苑,颗粒物(PM10),220,364,201,134,73,89,89,97,88,10,11,14,13,0.5,0.5
2026-04-19T1300,4163A,102.0984,36.5119,海东市,滨河路,颗粒物(PM10),252,386,222,116,65,69,69,80,74,17,18,14,13,0.6,0.6
2026-04-19T1300,1410A,110.3189,20.0596,海口市,海南大学,,29,23,29,18,20,91,91,70,70,4,8,6,5,0.4,0.4
2026-04-19T1300,1411A,110.2827,20.0051,海口市,秀英海南医院,,28,26,27,15,22,87,87,51,51,6,15,8,8,0.2,0.3
2026-04-19T1300,1412A,110.3391,19.9979,海口市,海南师范大学,,29,27,29,18,22,91,91,63,63,4,9,7,6,0.4,0.5
2026-04-19T1300,1413A,110.3303,20.0359,海口市,龙华路环保局宿舍,,30,30,29,19,22,96,96,70,70,6,10,/,/,0.4,0.7
2026-04-19T1300,3539A,110.5111,19.9737,海口市,桂林洋子站,,25,18,34,15,21,80,80,54,54,6,12,/,/,/,/
2026-04-19T1300,4134A,110.1952,20.0451,海口市,长滨二路9号,,28,28,27,19,14,84,84,57,57,3,10,/,/,/,/
2026-04-19T1300,2673A,100.6158,36.2985,海南藏族自治州,共和县恰卜恰镇,细颗粒物(PM2.5),120,153,59,82,26,107,107,93,93,2,10,12,13,0.2,0.3
2026-04-19T1300,2676A,97.373,37.376,海西蒙古族藏族自治州,德令哈市,颗粒物(PM10),109,143,59,55,26,124,124,122,113,3,5,16,16,0.3,0.3
2026-04-19T1300,1049A,114.492,36.5712,邯郸市,矿院,颗粒物(PM10),56,58,61,28,23,137,137,98,98,2,6,6,6,0.4,0.4
2026-04-19T1300,1050A,114.4839,36.6136,邯郸市,丛台公园,细颗粒物(PM2.5),64,56,57,42,26,142,142,104,104,7,10,4,5,0.4,0.4
2026-04-19T1300,3458A,114.7893,36.5592,邯郸市,香泉濮院小区,颗粒物(PM10),58,61,72,34,31,132,132,104,104,9,10,3,2,0.5,0.4
2026-04-19T1300,3580A,114.1998,36.4439,邯郸市,峰峰矿区临水派出所,颗粒物(PM10),60,63,61,33,29,151,151,114,114,11,14,7,6,0.5,0.5
2026-04-19T1300,4068A,114.5209,36.7697,邯郸市,建安街268号,颗粒物(PM10),61,65,74,31,25,146,146,105,105,6,9,3,3,0.4,0.4
2026-04-19T1300,4069A,114.5488,36.6177,邯郸市,丛台东路558号,颗粒物(PM10),59,62,70,26,31,135,135,96,96,3,9,3,3,0.5,0.4
2026-04-19T1300,2635A,107.0155,33.0707,汉中市,市监测站,细颗粒物(PM2.5),64,66,58,42,34,60,60,46,37,24,17,11,5,0.6,0.4
2026-04-19T1300,2636A,107.0083,33.114,汉中市,鑫源开发区,细颗粒物(PM2.5),82,74,57,51,36,74,74,39,39,19,21,16,6,0.7,0.4
2026-04-19T1300,2637A,107.0072,33.0323,汉中市,南郑大河坎水厂,颗粒物(PM10),65,70,56,33,31,49,49,40,23,25,17,8,4,0.5,0.3
2026-04-19T1300,1223A,120.2073,30.2111,杭州市,滨江,臭氧1小时(O3_1h),55,35,64,23,39,164,164,84,84,11,28,8,8,0.7,0.8
2026-04-19T1300,1224A,120.0625,30.2737,杭州市,西溪,,50,37,40,19,27,158,158,84,84,13,23,5,4,0.8,0.8
2026-04-19T1300,1226A,120.3417,30.315,杭州市,下沙,,46,34,87,21,41,145,145,74,74,6,46,8,8,0.6,0.7
2026-04-19T1300,1227A,120.1252,30.2465,杭州市,卧龙桥,臭氧1小时(O3_1h),54,25,41,16,29,163,163,83,83,16,25,9,8,0.5,0.6
2026-04-19T1300,1228A,120.1902,30.2691,杭州市,浙江农大,,47,24,49,18,35,149,149,76,76,24,47,8,8,0.5,0.6
2026-04-19T1300,1230A,120.1195,30.3121,杭州市,和睦小学,,50,30,42,25,35,160,160,84,84,12,28,8,6,0.6,0.7
2026-04-19T1300,1231A,120.3076,30.4146,杭州市,临平镇,,50,35,61,23,37,160,160,88,88,9,31,7,8,0.4,0.6
2026-04-19T1300,1232A,120.2753,30.1839,杭州市,城厢镇,,47,37,52,27,41,148,148,74,74,16,33,6,6,0.5,0.6
2026-04-19T1300,1233A,120.0883,30.1808,杭州市,云栖,,50,30,46,18,30,159,159,76,76,18,28,7,6,0.7,0.8
2026-04-19T1300,3557A,119.9463,30.0496,杭州市,镇二中,,49,34,43,26,38,156,156,81,81,13,23,5,5,0.5,0.5
2026-04-19T1300,3558A,119.7184,30.2367,杭州市,市府大楼,,45,25,26,19,24,141,141,81,81,12,17,7,6,0.6,0.7
2026-04-19T1300,3656A,120.1554,30.2863,杭州市,消防大队,,47,29,57,24,35,148,148,79,79,9,30,6,6,0.4,1.3
2026-04-19T1300,1270A,117.1957,31.7845,合肥市,明珠广场,臭氧1小时(O3_1h),64,48,63,15,26,171,171,111,111,11,26,8,8,0.6,0.6
2026-04-19T1300,1271A,117.307,31.8765,合肥市,三里街,颗粒物(PM10),56,58,63,20,26,151,151,92,92,22,34,8,7,0.6,0.6
2026-04-19T1300,1272A,117.2587,31.8703,合肥市,琥珀山庄,颗粒物(PM10),63,68,65,19,25,165,165,114,114,17,26,8,8,0.8,0.8
2026-04-19T1300,1275A,117.2593,31.9376,合肥市,庐阳区,臭氧1小时(O3_1h),58,56,61,20,21,166,166,95,95,16,34,7,6,0.7,0.6
2026-04-19T1300,1276A,117.345251,31.861615,合肥市,瑶海区,颗粒物(PM10),63,68,70,24,25,168,168,104,104,14,32,9,8,0.7,0.6
2026-04-19T1300,1277A,117.3033,31.7967,合肥市,包河区,颗粒物(PM10),58,61,70,18,24,159,159,95,95,9,60,11,11,0.7,0.6
2026-04-19T1300,1278A,117.278,31.7392,合肥市,滨湖新区,颗粒物(PM10),51,51,64,16,24,154,154,112,112,4,11,7,6,0.6,0.6
2026-04-19T1300,1279A,117.1324,31.8395,合肥市,高新区,臭氧1小时(O3_1h),60,56,65,16,23,168,168,113,113,8,20,7,6,0.7,0.6
2026-04-19T1300,3464A,117.3802,31.9148,合肥市,高教基地,臭氧1小时(O3_1h),75,68,55,25,19,180,180,98,98,16,25,11,9,0.7,0.5
2026-04-19T1300,4098A,117.2518,31.8404,合肥市,中国科学技术大学,臭氧1小时(O3_1h),65,61,63,19,24,172,172,117,117,9,18,8,7,0.8,0.7
2026-04-19T1300,3614A,79.9241,37.0878,和田地区,地区环保局,"颗粒物(PM10),细颗粒物(PM2.5)",500,5262,2023,1583,659,81,81,79,77,5,10,3,2,0.4,0.4
2026-04-19T1300,3615A,79.9132,37.1137,和田地区,市环保局,"颗粒物(PM10),细颗粒物(PM2.5)",500,5039,1725,1527,566,89,89,85,84,2,10,3,2,0.9,0.6
2026-04-19T1300,2517A,108.0496,24.6957,河池市,市环保站,,47,47,33,29,20,89,89,41,41,3,6,17,7,0.8,0.7
2026-04-19T1300,4302A,108.0901,24.6945,河池市,上任中路54号,,39,39,37,20,21,97,97,40,40,5,16,15,10,0.9,0.8
2026-04-19T1300,1697A,114.6962,23.7538,河源市,东埔,NA,NA,20,25,20,21,102,102,64,64,5,14,NA,6,0.4,0.5
2026-04-19T1300,1698A,114.6895,23.7232,河源市,老城,,31,NA,19,15,19,99,99,58,58,2,12,6,6,0.6,0.6
2026-04-19T1300,3374A,115.5562,35.089,菏泽市,定陶老年大学,颗粒物(PM10),74,83,84,8,30,128,128,104,104,7,10,5,6,0.3,0.4
2026-04-19T1300,4114A,115.4239,35.2593,菏泽市,黄河路600号,颗粒物(PM10),74,83,93,14,29,139,139,109,109,8,11,4,3,0.3,0.4
2026-04-19T1300,4115A,115.5025,35.2727,菏泽市,菏泽市人社局,颗粒物(PM10),68,75,84,14,27,137,137,112,112,5,7,6,6,0.3,0.3
2026-04-19T1300,4184A,115.479691,35.244011,菏泽市,永昌路1号,颗粒物(PM10),71,79,84,14,27,153,153,122,122,13,14,3,3,0.6,0.6
2026-04-19T1300,4193A,115.471542,35.280012,菏泽市,长城路999号,颗粒物(PM10),70,77,83,14,22,150,150,126,126,10,10,7,7,0.2,0.2
2026-04-19T1300,2514A,111.5264,24.4178,贺州市,环保小区,,33,17,33,9,20,104,104,50,50,5,13,6,6,0.5,0.5
2026-04-19T1300,2515A,111.561,24.4074,贺州市,政协大楼,,34,33,31,8,22,106,106,10,NA,6,22,9,9,0.6,0.6
2026-04-19T1300,3534A,111.4744,24.455,贺州市,西湾,,33,29,38,12,19,104,104,46,46,6,18,8,8,0.6,0.7
2026-04-19T1300,2385A,114.17,35.9019,鹤壁市,市监测站,颗粒物(PM10),91,107,60,44,36,130,130,120,114,14,12,12,7,0.6,0.5
2026-04-19T1300,2386A,114.2953,35.7512,鹤壁市,市交警支队,细颗粒物(PM2.5),68,70,75,44,28,123,123,94,94,16,18,10,9,0.8,0.5
2026-04-19T1300,2387A,114.2877,35.7302,鹤壁市,迎宾馆,颗粒物(PM10),83,96,90,47,35,128,128,92,92,11,14,9,6,0.7,0.6
2026-04-19T1300,3474A,114.2616,35.6824,鹤壁市,大新区,颗粒物(PM10),80,91,91,40,38,124,124,85,85,7,14,11,10,0.8,0.6
2026-04-19T1300,3596A,114.1573,35.9607,鹤壁市,南山宾馆,颗粒物(PM10),81,93,77,39,34,128,128,118,114,14,11,10,8,0.6,0.4
2026-04-19T1300,2244A,130.2537,47.3416,鹤岗市,哈啤分公司,,20,17,22,12,10,62,62,59,59,17,10,9,10,0.3,0.3
2026-04-19T1300,2245A,130.2683,47.3087,鹤岗市,斯达机电,,23,22,26,3,8,72,72,75,75,9,7,10,10,0.3,0.3
2026-04-19T1300,2246A,130.3114,47.3388,鹤岗市,东山纸板厂,,41,41,40,9,21,71,71,59,59,18,20,7,13,0.4,0.7
2026-04-19T1300,2263A,127.4832,50.2524,黑河市,交通局,,26,20,32,10,17,83,83,59,59,8,14,4,6,0.2,0.2
2026-04-19T1300,2264A,127.5146,50.2339,黑河市,环保局,,26,19,31,3,19,83,83,66,66,7,15,5,7,0.2,0.3
2026-04-19T1300,1074A,115.6839,37.754,衡水市,电机北厂,颗粒物(PM10),79,90,84,24,32,147,147,124,124,12,15,8,7,0.5,0.3
2026-04-19T1300,1075A,115.6303,37.7318,衡水市,市监测站,颗粒物(PM10),73,81,87,21,28,147,147,119,119,11,14,9,6,0.4,0.4
2026-04-19T1300,3188A,115.6684,37.7216,衡水市,市城管局,NA,NA,90,91,23,31,148,148,121,121,9,11,3,3,NA,0.3
2026-04-19T1300,3459A,115.599,37.5491,衡水市,地表水厂,颗粒物(PM10),86,100,94,23,32,148,148,114,114,6,13,5,5,0.4,0.4
2026-04-19T1300,2457A,112.6209,26.9268,衡阳市,衡阳化工总厂,颗粒物(PM10),57,59,54,26,31,103,103,51,51,3,20,17,10,0.7,0.8
2026-04-19T1300,2458A,112.621,26.8957,衡阳市,珠晖区环保局,,42,42,54,17,30,100,100,51,51,2,23,14,11,0.9,1.1
2026-04-19T1300,2459A,112.628,26.8654,衡阳市,市委党校,,45,45,53,20,35,102,102,52,52,2,19,16,12,0.9,1.1
2026-04-19T1300,2460A,112.6007,26.8977,衡阳市,市监测站,颗粒物(PM10),53,53,61,34,40,96,96,60,60,6,27,14,10,0.8,1
2026-04-19T1300,2461A,112.5658,26.9013,衡阳市,真空机电公司,,43,43,51,26,36,117,117,59,59,6,29,19,10,1.1,1.3
2026-04-19T1300,3399A,112.6703,26.8817,衡阳市,师范学院,,49,49,52,22,30,104,104,57,57,2,12,13,11,0.7,0.8
2026-04-19T1300,3038A,103.3757,23.3679,红河哈尼族彝族自治州,州图书馆,细颗粒物(PM2.5),92,59,70,56,60,114,114,108,104,6,7,4,4,0.7,0.7
2026-04-19T1300,4154A,103.401,23.3561,红河哈尼族彝族自治州,蒙自市朝阳路,细颗粒物(PM2.5),90,NA,53,55,56,116,116,102,101,6,8,4,4,0.7,0.7
2026-04-19T1300,1090A,111.6506,40.7517,呼和浩特市,呼市一监,NA,NA,NA,99,43,118,84,84,88,86,4,12,5,8,0.2,0.3
2026-04-19T1300,1094A,111.7516,40.8369,呼和浩特市,如意水处理厂,颗粒物(PM10),171,292,350,29,112,85,85,101,85,4,8,6,7,0.2,0.2
2026-04-19T1300,1095A,111.727798,40.806187,呼和浩特市,二十九中,颗粒物(PM10),177,304,462,36,100,77,77,91,80,1,6,7,9,0.3,0.3
2026-04-19T1300,1097A,111.717,40.7617,呼和浩特市,化肥厂生活区,颗粒物(PM10),168,285,347,36,137,80,80,86,83,5,13,6,8,0.3,0.4
2026-04-19T1300,3699A,111.6519,40.8389,呼和浩特市,海东办,颗粒物(PM10),159,268,154,32,85,83,83,98,84,4,9,4,5,0.2,0.2
2026-04-19T1300,4275A,111.591512,40.827312,呼和浩特市,成吉思汗西街8号,颗粒物(PM10),165,280,175,34,84,79,79,94,77,5,14,4,6,0.3,0.3
2026-04-19T1300,4276A,111.6597,40.8077,呼和浩特市,公园东路75号,颗粒物(PM10),169,288,198,38,90,79,79,90,79,7,12,4,6,0.2,0.3
2026-04-19T1300,4277A,111.5427,40.7846,呼和浩特市,金海路35号,颗粒物(PM10),150,249,481,37,84,77,77,90,77,6,14,3,6,0.2,0.3
2026-04-19T1300,3061A,119.7511,49.1576,呼伦贝尔市,国华电力东,颗粒物(PM10),101,121,50,19,15,79,79,92,90,7,8,5,5,0.3,0.3
2026-04-19T1300,4279A,119.7569,49.2222,呼伦贝尔市,伊敏大街东7号,颗粒物(PM10),76,86,55,23,17,80,80,91,88,6,8,5,5,0.5,0.5
2026-04-19T1300,1250A,120.075,30.867,湖州市,城西水厂,臭氧1小时(O3_1h),53,29,43,18,29,162,162,79,79,15,40,8,6,0.6,0.6
2026-04-19T1300,2873A,120.083,30.8929,湖州市,仁皇山新区,,49,30,35,22,24,155,155,87,87,13,26,8,6,0.7,0.6
2026-04-19T1300,2907A,120.1846,30.8592,湖州市,吴兴区站,,50,39,44,20,26,159,159,87,87,17,29,9,7,0.4,0.3
2026-04-19T1300,3562A,120.4146,30.8538,湖州市,南浔区站,,49,35,42,22,27,154,154,102,102,12,20,8,7,0.8,0.7
2026-04-19T1300,1607A,120.904878,40.721091,葫芦岛市,龙港区,"颗粒物(PM10),细颗粒物(PM2.5)",80,91,70,50,50,144,144,100,100,16,14,12,12,0.9,0.7
2026-04-19T1300,1608A,120.8382,40.7521,葫芦岛市,化工街,细颗粒物(PM2.5),109,122,103,69,70,123,123,83,83,20,23,14,13,0.6,0.6
2026-04-19T1300,1609A,120.8339,40.7078,葫芦岛市,新区,细颗粒物(PM2.5),113,103,65,74,65,120,120,85,85,15,17,10,9,0.8,0.7
2026-04-19T1300,1610A,120.8697,40.7679,葫芦岛市,东城区,细颗粒物(PM2.5),111,83,68,72,69,122,122,84,82,20,22,11,11,0.9,0.7
2026-04-19T1300,2483A,109.9297,27.5383,怀化市,河西地税局,,33,28,40,18,19,103,103,42,42,6,13,7,6,/,/
2026-04-19T1300,2484A,109.9783,27.5342,怀化市,市四医院,,37,37,52,7,24,104,104,50,50,6,17,6,5,0.4,0.5
2026-04-19T1300,2485A,109.9971,27.5579,怀化市,监测楼,,40,40,46,17,27,104,104,47,47,5,17,4,4,0.5,0.6
2026-04-19T1300,1210A,119.0566,33.5991,淮安市,钵池山,,34,22,32,10,14,106,106,81,81,8,20,8,8,0.4,0.4
2026-04-19T1300,1211A,119.0083,33.578,淮安市,北京南路,,32,17,31,7,12,100,100,88,88,4,16,7,8,0.2,0.2
2026-04-19T1300,1212A,118.9938,33.6083,淮安市,市监测站,,35,7,24,6,11,111,111,93,93,5,14,5,6,0.4,0.5
2026-04-19T1300,1213A,119.135,33.5038,淮安市,楚州区监测站,,33,12,29,3,14,105,105,77,77,4,18,6,6,0.3,0.4
2026-04-19T1300,3426A,118.8757,33.2897,淮安市,新华书店,,36,17,35,6,13,113,113,82,82,2,19,7,7,0.4,0.4
2026-04-19T1300,4092A,119.119691,33.550006,淮安市,枚皋中路89号,,34,18,27,3,13,107,107,71,71,3,16,6,6,0.5,0.4
2026-04-19T1300,4206A,119.028838,33.631911,淮安市,承德北路606号,,33,17,35,7,13,104,104,70,70,5,19,8,8,0.4,0.4
2026-04-19T1300,2282A,116.8005,33.9749,淮北市,监测站,颗粒物(PM10),51,51,58,12,27,144,144,106,106,12,14,8,8,0.3,0.4
2026-04-19T1300,2283A,116.8094,33.9008,淮北市,烈山区政府,,44,43,71,10,33,139,139,102,102,10,14,8,9,0.3,0.4
2026-04-19T1300,4017A,116.7926,33.9534,淮北市,市博物馆,,44,44,57,15,28,140,140,101,101,9,12,7,7,0.4,0.5
2026-04-19T1300,4100A,116.8322,33.9884,淮北市,杜集区第一实验学校,,45,44,78,7,29,141,141,104,104,12,14,9,9,0.4,0.5
2026-04-19T1300,2277A,116.8304,32.7726,淮南市,潘集区政府,颗粒物(PM10),60,63,60,21,24,156,156,95,95,12,19,9,8,0.6,0.5
2026-04-19T1300,2279A,116.8569,32.5949,淮南市,谢家集区政府,,47,43,49,24,24,149,149,104,104,8,16,10,10,0.4,0.3
2026-04-19T1300,2280A,116.8279,32.6333,淮南市,八公山区政府,颗粒物(PM10),53,54,61,20,25,150,150,107,107,7,11,8,9,0.4,0.4
2026-04-19T1300,2894A,117.0561,32.6536,淮南市,经济技术开发区消防队,,44,42,53,24,22,140,140,91,91,10,17,9,8,0.3,0.2
2026-04-19T1300,3329A,117.011,32.5891,淮南市,山南新区,,49,49,55,22,20,155,155,105,105,13,18,10,9,0.5,0.4
2026-04-19T1300,4209A,117.003137,32.644456,淮南市,国庆中路369号,,45,45,47,22,20,132,132,NA,NA,9,7,9,8,0.4,0.4
2026-04-19T1300,2446A,114.9021,30.474,黄冈市,职工中心,臭氧1小时(O3_1h),89,49,58,33,46,191,191,127,127,11,16,14,11,0.7,0.5
2026-04-19T1300,2929A,114.8858,30.4519,黄冈市,红卫路,臭氧1小时(O3_1h),99,50,55,39,42,199,199,147,147,7,12,12,8,0.7,0.6
2026-04-19T1300,3398A,114.9134,30.4446,黄冈市,市林业局,臭氧1小时(O3_1h),98,67,72,42,46,198,198,138,138,9,17,3,4,0.6,0.5
2026-04-19T1300,2672A,102.02,35.5101,黄南藏族自治州,同仁县隆务镇,颗粒物(PM10),199,348,120,138,46,112,112,103,103,4,3,10,10,0.2,0.2
2026-04-19T1300,2295A,118.2905,29.6965,黄山市,延安路89号,,45,36,34,23,21,142,142,71,71,6,10,5,5,0.3,0.3
2026-04-19T1300,2297A,118.1369,30.2755,黄山市,黄山区政府5号楼,NA,NA,NA,33,14,20,120,120,62,62,8,8,3,3,0.3,0.4
2026-04-19T1300,4210A,118.335445,29.720283,黄山市,滨江东路7-2号,颗粒物(PM10),54,55,48,22,23,150,150,65,65,6,10,/,/,/,/
2026-04-19T1300,2423A,115.0547,30.2332,黄石市,沈家营,臭氧1小时(O3_1h),69,74,66,31,37,175,175,116,116,13,22,5,5,1.3,1
2026-04-19T1300,2426A,114.899,30.211,黄石市,铁山,臭氧1小时(O3_1h),55,50,58,24,35,164,164,137,137,5,10,10,9,0.1,0.1
2026-04-19T1300,2427A,115.0259,30.2108,黄石市,团城山,,48,48,55,30,34,149,149,125,125,8,8,7,7,0.8,0.7
2026-04-19T1300,3149A,115.0174,30.1591,黄石市,笔架山北路,臭氧1小时(O3_1h),57,58,70,23,31,165,165,134,134,5,7,10,11,0.8,0.8
2026-04-19T1300,4185A,115.078022,30.21118,黄石市,磁湖东路29号,NA,NA,NA,64,NA,39,NA,NA,168,NA,NA,21,NA,7,NA,0.9
2026-04-19T1300,1392A,114.4181,23.0528,惠州市,河南岸金山湖子站,,44,36,55,28,37,139,139,80,80,12,23,7,8,0.6,0.7
2026-04-19T1300,1393A,114.4055,23.0824,惠州市,下埔横江三路子站,,46,32,57,19,36,146,146,90,90,7,17,6,7,0.8,0.8
2026-04-19T1300,1395A,114.4645,22.7832,惠州市,惠阳区承修路船湖子站,臭氧1小时(O3_1h),53,44,80,31,52,162,162,117,117,10,25,7,7,0.7,0.8
2026-04-19T1300,1396A,114.5316,22.7423,惠州市,大亚湾管委会子站,,47,40,77,26,49,148,148,121,121,6,28,6,6,0.7,0.9
2026-04-19T1300,3314A,114.4334,22.8134,惠州市,惠阳秋长,臭氧1小时(O3_1h),62,48,84,22,50,169,169,112,112,10,33,/,/,/,/
2026-04-19T1300,3452A,114.6521,22.7755,惠州市,大亚湾霞涌,颗粒物(PM10),53,54,51,13,26,144,144,121,121,12,16,/,/,/,/
2026-04-19T1300,4300A,114.4089,23.1147,惠州市,文华一路1号,,45,27,48,19,32,142,142,84,84,7,19,/,/,/,/
2026-04-19T1300,2240A,130.9618,45.2926,鸡西市,环保局,,41,41,40,10,18,88,88,62,62,4,15,7,8,0.2,0.3
2026-04-19T1300,2243A,130.9294,45.2959,鸡西市,第一中学,,26,25,32,8,17,83,83,66,66,5,10,5,6,0.3,0.2
2026-04-19T1300,3707A,131.0069,45.2988,鸡西市,欧美日汽修厂,,31,31,44,3,19,84,84,56,56,1,15,3,3,0.3,0.5
2026-04-19T1300,2367A,114.9753,27.0803,吉安市,红声器材厂,,46,44,56,32,32,135,135,78,78,7,16,8,7,0.5,0.5
2026-04-19T1300,2369A,114.9903,27.1313,吉安市,市环境监测站,,50,50,51,26,36,138,138,74,74,8,21,11,12,/,/
2026-04-19T1300,2370A,115.009527,27.096792,吉安市,青原区法院,NA,NA,45,48,26,28,132,132,76,76,10,20,10,8,NA,0.8
2026-04-19T1300,1772A,126.54,43.8622,吉林市,哈达湾,颗粒物(PM10),68,75,46,25,28,155,155,125,125,6,16,7,9,0.4,0.4
2026-04-19T1300,1773A,126.5843,43.8358,吉林市,东局子,颗粒物(PM10),63,68,42,25,28,148,148,121,121,7,13,5,5,0.9,0.9
2026-04-19T1300,1774A,126.5051,43.8243,吉林市,电力学院,颗粒物(PM10),61,65,59,26,41,162,162,116,116,8,25,6,8,0.7,0.9
2026-04-19T1300,1775A,126.6133,43.8971,吉林市,江北,颗粒物(PM10),69,76,49,26,32,161,161,126,126,7,13,10,12,0.6,0.6
2026-04-19T1300,1776A,126.5549,43.8304,吉林市,江南公园,颗粒物(PM10),69,76,49,27,33,149,149,124,124,10,23,7,8,0.5,0.6
2026-04-19T1300,2868A,126.4737,43.953,吉林市,九站,颗粒物(PM10),105,133,50,30,29,157,157,127,127,7,17,9,14,0.4,0.4
2026-04-19T1300,1299A,116.9866,36.6118,济南市,科干所,颗粒物(PM10),65,70,83,8,22,137,137,133,130,8,10,6,6,0.5,0.6
2026-04-19T1300,1300A,116.9379,36.6652,济南市,农科所,NA,NA,88,90,10,29,124,124,120,117,10,14,NA,6,0.2,0.3
2026-04-19T1300,1301A,117.1265,36.6736,济南市,开发区,颗粒物(PM10),65,71,87,12,25,138,138,126,126,10,24,5,4,0.3,0.4
2026-04-19T1300,1303A,117.0616,36.6865,济南市,省种子仓库,颗粒物(PM10),105,132,102,7,25,130,130,133,124,6,11,4,5,0.3,0.4
2026-04-19T1300,1304A,116.9495185,36.644937,济南市,机床二厂,颗粒物(PM10),101,122,105,12,30,136,136,123,123,11,17,6,5,0.4,0.5
2026-04-19T1300,1305A,117.0496,36.6629,济南市,市监测站,颗粒物(PM10),57,59,87,3,24,126,126,134,122,9,13,4,4,0.4,0.5
2026-04-19T1300,1306A,116.7674,36.5458,济南市,长清党校,颗粒物(PM10),74,83,95,8,32,127,127,119,119,6,10,5,6,0.6,0.7
2026-04-19T1300,1961A,117.5323,36.6865,济南市,东山小学,颗粒物(PM10),81,93,108,10,34,122,122,114,114,4,17,4,5,0.3,0.5
2026-04-19T1300,3059A,117.7181,36.205,济南市,泰兴公司,颗粒物(PM10),84,97,116,11,45,130,130,89,89,13,30,19,15,0.3,0.6
2026-04-19T1300,3064A,117.6861,36.2172,济南市,莱芜战役纪念馆,颗粒物(PM10),78,88,112,8,42,126,126,96,96,16,22,17,12,0.4,0.7
2026-04-19T1300,3494A,117.1673,36.9782,济南市,济阳区政府,颗粒物(PM10),73,81,117,9,31,123,123,91,91,14,38,5,6,0.4,0.6
2026-04-19T1300,3495A,117.1168,36.6299,济南市,锦屏中学,颗粒物(PM10),60,63,75,12,24,130,130,117,117,12,13,5,4,0.3,0.3
2026-04-19T1300,4108A,117.7107,36.2385,济南市,山财大街5号,颗粒物(PM10),84,97,112,8,44,124,124,94,94,9,24,11,9,0.4,0.8
2026-04-19T1300,4109A,116.9744,36.6889,济南市,无影山路12号,颗粒物(PM10),70,78,83,10,30,126,126,117,117,7,11,4,5,0.3,0.4
2026-04-19T1300,1653A,116.6229,35.4288,济宁市,火炬城,颗粒物(PM10),55,57,73,6,38,121,121,87,87,5,9,4,4,0.4,0.6
2026-04-19T1300,3500A,116.5808,35.3703,济宁市,北湖一中,,49,49,69,11,35,137,137,107,107,9,12,10,9,0.3,0.4
2026-04-19T1300,3501A,116.8251,35.5592,济宁市,服务中心,颗粒物(PM10),65,71,75,9,42,119,119,92,92,6,12,2,4,0.4,0.6
2026-04-19T1300,3678A,116.5907,35.4054,济宁市,市第七中学,颗粒物(PM10),91,107,85,8,39,139,139,103,103,8,12,7,7,0.2,0.4
2026-04-19T1300,4111A,116.6075,35.4566,济宁市,任和路,颗粒物(PM10),76,86,96,3,34,132,132,103,103,6,10,8,7,0.3,0.5
2026-04-19T1300,4112A,116.5648,35.3921,济宁市,文体南路1号,颗粒物(PM10),69,76,90,7,39,136,136,101,101,3,7,8,6,0.5,0.7
2026-04-19T1300,4122A,112.6071,35.1015,济源市,市委党校,颗粒物(PM10),73,82,85,44,34,139,139,86,86,12,17,9,11,0.5,0.6
2026-04-19T1300,4123A,112.596,35.0702,济源市,沁园中路1号,颗粒物(PM10),52,52,75,26,31,135,135,78,78,6,19,5,7,0.5,0.7
2026-04-19T1300,2255A,130.2749,46.8028,佳木斯市,佳纺,,26,8,35,3,15,81,81,64,64,11,23,4,4,0.3,0.3
2026-04-19T1300,2257A,130.3258,46.7975,佳木斯市,环保局,,18,9,24,3,14,57,57,48,48,16,19,3,3,0.3,0.3
2026-04-19T1300,4285A,130.363,46.806,佳木斯市,顺和街,,26,10,23,9,13,81,81,66,66,9,18,2,3,0.2,0.3
2026-04-19T1300,4286A,130.3952,46.8268,佳木斯市,长安路196号,,27,8,22,7,11,84,84,71,71,7,14,2,2,0.3,0.4
2026-04-19T1300,1252A,120.7439,30.778,嘉兴市,清河小学,,47,33,37,9,19,150,150,94,94,11,23,8,8,0.5,0.4
2026-04-19T1300,1253A,120.7261,30.7477,嘉兴市,嘉兴学院,,48,25,33,16,24,153,153,98,98,13,24,8,7,0.7,0.7
2026-04-19T1300,2872A,120.7845,30.7524,嘉兴市,南湖区残联,臭氧1小时(O3_1h),62,29,38,17,25,169,169,102,102,7,21,6,5,0.6,0.5
2026-04-19T1300,3407A,120.6915,30.7741,嘉兴市,秀洲住建,臭氧1小时(O3_1h),55,32,41,15,20,164,164,96,96,8,30,8,6,0.7,0.6
2026-04-19T1300,1945A,98.291,39.7705,嘉峪关市,气象局,,48,48,66,14,16,102,102,96,96,3,9,9,13,0.7,1.1
2026-04-19T1300,2884A,98.2672,39.7978,嘉峪关市,酒钢宾馆,颗粒物(PM10),55,56,68,10,17,103,103,96,96,1,7,10,26,0.4,0.7
2026-04-19T1300,3248A,98.2644,39.7723,嘉峪关市,雄关区,,46,46,65,3,14,102,102,96,96,6,11,7,15,0.4,0.6
2026-04-19T1300,1383A,113.1063,22.6058,江门市,北街,臭氧1小时(O3_1h),123,72,51,39,35,246,246,110,110,27,31,/,/,/,/
2026-04-19T1300,1384A,113.073,22.5835,江门市,西区,臭氧1小时(O3_1h),122,57,50,49,36,244,244,102,102,22,34,/,/,/,/
2026-04-19T1300,1385A,113.0218,22.531,江门市,圭峰西,臭氧1小时(O3_1h),85,43,44,32,34,188,188,99,99,15,15,/,/,/,/
2026-04-19T1300,1386A,113.0826,22.5947,江门市,东湖,臭氧1小时(O3_1h),117,61,44,35,33,234,234,105,105,21,29,11,8,0.7,0.7
2026-04-19T1300,3311A,113.1077,22.5647,江门市,江海富民,臭氧1小时(O3_1h),119,79,59,46,40,238,238,111,111,21,30,/,/,0.5,0.6
2026-04-19T1300,3449A,113.0496,22.4669,江门市,新会银湖,臭氧1小时(O3_1h),75,51,58,38,41,180,180,81,81,13,28,10,9,0.9,0.9
2026-04-19T1300,3335A,113.3137,35.2643,焦作市,马村街道办,颗粒物(PM10),58,61,69,29,27,143,143,97,97,6,13,12,10,0.4,0.5
2026-04-19T1300,3336A,113.2464,35.2374,焦作市,焦作技师学院,颗粒物(PM10),70,77,74,32,27,147,147,100,100,8,12,12,10,0.8,0.9
2026-04-19T1300,3477A,113.1656,35.2536,焦作市,中站许衡医院,细颗粒物(PM2.5),52,51,56,36,24,145,145,112,112,10,11,14,10,0.6,0.5
2026-04-19T1300,3981A,113.2456,35.18,焦作市,原李万街道办,颗粒物(PM10),119,169,78,28,27,132,132,97,97,9,11,9,10,0.3,0.3
2026-04-19T1300,4264A,113.234,35.219,焦作市,新安路1731号,NA,NA,50,64,31,27,152,152,NA,NA,NA,NA,13,11,1.0,0.8
2026-04-19T1300,4295A,113.2722,35.2121,焦作市,人民路3066号,颗粒物(PM10),62,66,76,25,27,131,131,93,93,11,13,6,7,0.4,0.5
2026-04-19T1300,1708A,116.3701,23.5345,揭阳市,新兴,,49,49,55,18,38,132,132,102,102,10,14,8,8,0.7,0.8
2026-04-19T1300,1709A,116.3261,23.5442,揭阳市,西马,,44,41,59,20,40,138,138,105,105,7,12,5,7,0.7,0.8
2026-04-19T1300,1710A,116.361,23.5627,揭阳市,东兴,颗粒物(PM10),56,58,49,21,42,138,138,101,101,11,14,4,6,/,/
2026-04-19T1300,1711A,116.4151,23.5295,揭阳市,渔湖,,47,47,59,21,38,150,150,109,109,9,13,2,2,/,/
2026-04-19T1300,3320A,116.4028,23.5699,揭阳市,曲溪,,49,34,44,19,38,156,156,108,108,4,9,10,11,0.7,0.7
2026-04-19T1300,1944A,102.1691,38.5166,金昌市,天庆家园,,34,27,239,7,60,107,107,105,105,2,2,9,7,0.4,0.5
2026-04-19T1300,4022A,102.1648,38.5369,金昌市,金川区人防中心,,34,27,186,6,67,108,108,105,105,3,4,5,5,0.4,0.4
2026-04-19T1300,4239A,102.193042,38.531887,金昌市,长春路96号,,46,46,240,6,76,103,103,99,99,1,2,5,6,0.2,0.3
2026-04-19T1300,1262A,119.6478,29.0773,金华市,十五中,臭氧1小时(O3_1h),57,45,56,33,40,165,165,90,90,13,21,5,3,0.7,0.7
2026-04-19T1300,1263A,119.6859,29.1032,金华市,监测站,臭氧1小时(O3_1h),72,40,57,32,36,177,177,94,94,13,30,5,4,0.5,0.5
2026-04-19T1300,3659A,119.656,29.1132,金华市,气象局,NA,NA,45,61,28,45,163,163,87,87,NA,39,5,4,0.5,0.6
2026-04-19T1300,1767A,121.1114,41.0879,锦州市,南山,细颗粒物(PM2.5),106,98,68,66,69,124,124,95,91,21,22,13,13,0.7,0.7
2026-04-19T1300,1768A,121.060361,40.842794,锦州市,开发区,细颗粒物(PM2.5),108,111,79,68,63,134,134,89,89,14,24,7,13,0.8,0.7
2026-04-19T1300,1769A,121.1836,41.1118,锦州市,百股街道,细颗粒物(PM2.5),107,103,71,67,68,131,131,102,93,19,19,11,10,0.7,0.6
2026-04-19T1300,1770A,121.1176,41.1224,锦州市,天安街道,细颗粒物(PM2.5),105,90,76,65,70,114,114,94,86,24,21,9,9,0.9,0.9
2026-04-19T1300,1771A,121.1303,41.1385,锦州市,北湖公园,细颗粒物(PM2.5),100,83,78,60,69,121,121,101,91,21,19,12,11,0.6,0.5
2026-04-19T1300,2160A,112.8496,35.5051,晋城市,自来水公司,颗粒物(PM10),66,72,74,20,18,136,136,93,93,7,12,6,5,0.3,0.3
2026-04-19T1300,2162A,112.8509,35.4886,晋城市,市环保局,颗粒物(PM10),75,84,72,15,17,127,127,81,81,4,11,9,7,0.3,0.4
2026-04-19T1300,3620A,112.8258,35.4804,晋城市,泽州一中,颗粒物(PM10),59,62,64,18,20,135,135,89,89,7,12,4,4,0.6,0.6
2026-04-19T1300,4078A,112.8246,35.5152,晋城市,前书院路,,50,50,64,15,14,133,133,86,86,6,20,7,7,0.6,0.7
2026-04-19T1300,4079A,112.8864,35.4773,晋城市,祥云街666号,颗粒物(PM10),54,55,60,22,22,132,132,82,82,6,12,9,8,0.4,0.4
2026-04-19T1300,2174A,112.6992,37.6984,晋中市,榆次区政府,颗粒物(PM10),140,222,79,58,32,98,98,106,106,27,19,21,8,0.9,0.8
2026-04-19T1300,2865A,112.7195,37.683,晋中市,榆次三中,颗粒物(PM10),138,217,86,49,29,106,106,108,108,23,16,22,9,0.5,0.3
2026-04-19T1300,4080A,112.7375,37.7215,晋中市,广安街188号,NA,NA,NA,71,54,30,105,105,102,102,25,17,17,6,0.6,0.3
2026-04-19T1300,4200A,112.7478,37.6954,晋中市,迎宾街26号,颗粒物(PM10),140,222,83,56,30,108,108,112,111,25,16,25,8,0.6,0.4
2026-04-19T1300,2439A,112.2012,31.048,荆门市,竹园小学,"颗粒物(PM10),细颗粒物(PM2.5)",56,58,72,38,39,129,129,89,89,10,19,1,4,0.3,0.5
2026-04-19T1300,2440A,112.1968,30.9892,荆门市,掇刀,细颗粒物(PM2.5),64,58,70,42,42,132,132,89,89,7,14,9,10,0.6,0.6
2026-04-19T1300,3012A,112.1849,31.0361,荆门市,西山林语,,50,47,63,35,33,131,131,91,91,7,10,7,7,0.5,0.5
2026-04-19T1300,3547A,112.1631,31.0134,荆门市,龙泉中学南校,,48,48,71,18,30,138,138,98,98,7,11,6,6,0.4,0.5
2026-04-19T1300,4124A,112.2213,31.0654,荆门市,新台西路6号,"颗粒物(PM10),细颗粒物(PM2.5)",58,61,73,39,45,130,130,80,80,8,20,11,10,0.6,0.6
2026-04-19T1300,1844A,112.2493,30.3198,荆州市,市图书馆,,41,36,47,27,36,129,129,88,88,6,20,8,10,0.7,0.6
2026-04-19T1300,1845A,112.2009,30.3543,荆州市,市委党校,细颗粒物(PM2.5),62,51,52,41,35,112,112,77,77,6,15,9,10,0.6,0.6
2026-04-19T1300,3194A,112.2749,30.3124,荆州市,管委会,细颗粒物(PM2.5),52,47,47,36,35,122,122,83,83,7,14,11,10,0.6,0.5
2026-04-19T1300,4268A,112.1722,30.3366,荆州市,学苑路85号,,48,48,48,33,36,129,129,76,76,1,16,2,2,0.8,0.8
2026-04-19T1300,2343A,117.2114,29.2931,景德镇市,老干部活动中心,细颗粒物(PM2.5),60,NA,40,40,33,154,154,73,73,6,14,10,9,0.7,0.7
2026-04-19T1300,2344A,117.1893,29.2789,景德镇市,兽医站,臭氧1小时(O3_1h),55,53,51,27,28,164,164,86,86,8,20,4,4,0.5,0.6
2026-04-19T1300,2346A,117.246,29.2958,景德镇市,陶研所,臭氧1小时(O3_1h),63,46,49,32,32,170,170,71,71,7,15,8,4,0.9,0.7
2026-04-19T1300,4289A,117.154766,29.256967,景德镇市,青少年活动中心,,47,47,47,26,32,149,149,73,73,8,20,13,20,/,/
2026-04-19T1300,1803A,115.9873,29.6816,九江市,十里,臭氧1小时(O3_1h),97,62,64,27,36,197,197,111,111,21,30,16,11,1.2,0.9
2026-04-19T1300,1804A,115.9583,29.7047,九江市,茅山头,臭氧1小时(O3_1h),87,46,54,39,37,189,189,92,92,21,28,9,4,1.1,0.8
2026-04-19T1300,1805A,115.9877,29.7295,九江市,西园,臭氧1小时(O3_1h),94,63,57,35,38,195,195,106,106,30,35,15,7,1.1,0.8
2026-04-19T1300,1808A,115.9112,29.6038,九江市,综合工业园,,47,39,50,16,24,149,149,76,76,15,35,9,9,0.7,0.6
2026-04-19T1300,3190A,116.0254,29.6995,九江市,外国语学校,臭氧1小时(O3_1h),75,56,56,31,40,180,180,104,104,13,30,14,12,1.1,1
2026-04-19T1300,4253A,116.010205,29.659402,九江市,莲花大道8号,臭氧1小时(O3_1h),64,56,55,26,32,171,171,106,106,12,9,16,11,1.0,0.9
2026-04-19T1300,4240A,98.495752,39.733935,酒泉市,玉门东路5号,颗粒物(PM10),67,73,76,15,18,89,89,84,84,5,4,5,5,0.2,0.2
2026-04-19T1300,4241A,98.5099,39.7506,酒泉市,北大街108号,颗粒物(PM10),68,75,74,16,24,86,86,81,81,3,4,5,6,0.1,0.2
2026-04-19T1300,2698A,76.0071,39.466,喀什地区,巡警大队,颗粒物(PM10),500,994,162,495,81,86,86,96,96,9,10,3,4,0.2,0.2
2026-04-19T1300,2699A,75.9756,39.4693,喀什地区,吾办,颗粒物(PM10),500,969,204,407,91,81,81,90,90,9,14,3,4,0.6,0.6
2026-04-19T1300,4027A,75.9485,39.4688,喀什地区,老干局,颗粒物(PM10),500,930,159,419,64,87,87,95,95,6,14,2,3,0.3,0.3
2026-04-19T1300,1824A,114.3389,34.778,开封市,肿瘤医院,颗粒物(PM10),68,75,71,32,34,146,146,100,100,10,15,8,8,0.7,0.6
2026-04-19T1300,1826A,114.2884,34.7966,开封市,世纪星幼儿园,NA,NA,NA,75,NA,33,132,132,96,96,NA,22,NA,8,0.6,0.5
2026-04-19T1300,3147A,114.3434,34.8101,开封市,龙亭公园,颗粒物(PM10),64,69,71,33,33,150,150,106,106,14,19,8,9,0.7,0.6
2026-04-19T1300,3210A,114.3645,34.7955,开封市,汴京公园,颗粒物(PM10),73,81,77,25,33,158,158,106,106,11,21,6,6,0.4,0.4
2026-04-19T1300,3473A,114.2485,34.8306,开封市,技师学院,颗粒物(PM10),75,84,86,37,32,154,154,110,110,10,13,6,6,0.6,0.5
2026-04-19T1300,3592A,114.4518,34.7503,开封市,祥符区生态环境局,,49,33,48,33,39,154,154,100,100,16,24,8,8,0.6,0.6
2026-04-19T1300,1951A,84.886,45.6029,克拉玛依市,长征新村,,28,9,12,3,5,87,87,81,81,4,4,6,5,0.4,0.4
2026-04-19T1300,1952A,84.8894,45.5827,克拉玛依市,南林小区,,29,24,17,3,1,90,90,87,87,2,3,5,5,0.2,0.2
2026-04-19T1300,1954A,84.896,44.3328,克拉玛依市,独山子区,颗粒物(PM10),55,57,23,11,3,63,63,46,44,12,9,7,6,0.6,0.4
2026-04-19T1300,1955A,85.6888,46.0909,克拉玛依市,乌尔禾区商贸楼,,29,24,27,3,8,90,90,71,71,6,8,2,2,0.2,0.1
2026-04-19T1300,3612A,85.1045,45.6895,克拉玛依市,白碱滩区新站,,31,21,21,3,5,97,97,94,94,1,3,5,5,0.2,0.2
2026-04-19T1300,2697A,76.1457,39.7143,克孜勒苏柯尔克孜自治州,市人民政府,颗粒物(PM10),500,954,147,279,57,100,100,104,104,4,11,4,4,0.1,0.1
2026-04-19T1300,3665A,76.1654,39.7157,克孜勒苏柯尔克孜自治州,克州文化中心,颗粒物(PM10),500,722,169,293,60,98,98,101,101,1,7,2,3,0.1,0.2
2026-04-19T1300,1450A,102.8203,24.889,昆明市,呈贡新区,细颗粒物(PM2.5),64,51,55,42,44,146,146,129,129,6,15,4,5,0.7,0.7
2026-04-19T1300,1452A,102.7253,25.0904,昆明市,龙泉镇,,45,41,63,31,42,135,135,80,80,7,24,7,6,0.6,0.7
2026-04-19T1300,1453A,102.7267,25.0378,昆明市,东风东路,细颗粒物(PM2.5),54,53,62,37,41,141,141,121,121,11,14,5,4,0.6,0.6
2026-04-19T1300,1454A,102.6744,25.0671,昆明市,金鼎山,颗粒物(PM10),53,53,71,33,40,134,134,112,112,8,14,6,5,0.7,0.7
2026-04-19T1300,1455A,102.6643,25.0401,昆明市,碧鸡广场,细颗粒物(PM2.5),58,42,65,39,42,129,129,103,103,11,19,8,7,0.6,0.6
2026-04-19T1300,3179A,102.7491,25.012,昆明市,官渡区博物馆,细颗粒物(PM2.5),56,49,67,38,42,140,140,118,118,9,16,5,5,0.5,0.6
2026-04-19T1300,3375A,102.8016,24.8336,昆明市,青年创业园,,50,50,63,33,40,142,142,131,131,3,10,5,6,0.5,0.5
2026-04-19T1300,3550A,102.8,24.9787,昆明市,昆明学院,颗粒物(PM10),52,52,64,28,37,138,138,114,114,9,13,6,6,0.4,0.5
2026-04-19T1300,3551A,102.5969,24.6738,昆明市,晋宁区生态环境分局,细颗粒物(PM2.5),52,43,57,36,42,133,133,124,124,3,6,4,4,0.4,0.5
2026-04-19T1300,3552A,102.6673,24.9861,昆明市,云天化总部,,45,42,58,29,36,144,144,103,103,8,15,7,6,0.6,0.6
2026-04-19T1300,1456A,91.132,29.6515,拉萨市,八廓街,,35,23,24,10,14,112,112,83,83,5,7,6,8,0.2,0.2
2026-04-19T1300,1457A,91.1221,29.6748,拉萨市,市环保局,,32,25,27,10,14,102,102,69,69,7,13,5,7,0.4,0.3
2026-04-19T1300,1458A,91.0874,29.6476,拉萨市,区监测站,,33,19,19,7,13,104,104,79,79,10,13,7,9,0.3,0.3
2026-04-19T1300,1459A,91.1774,29.6541,拉萨市,西藏大学,,34,29,22,9,12,108,108,74,74,11,11,6,7,0.2,0.2
2026-04-19T1300,1460A,90.9798,29.6586,拉萨市,区辐射站,,30,26,25,7,11,95,95,51,51,13,25,8,8,0.3,0.4
2026-04-19T1300,1461A,91.0831,29.6292,拉萨市,拉萨火车站,,32,26,20,16,12,100,100,69,69,14,13,7,6,0.3,0.3
2026-04-19T1300,2520A,109.2203,23.7252,来宾市,来宾技工学校,,49,49,47,28,31,118,118,57,57,3,19,7,9,0.7,0.7
2026-04-19T1300,3535A,109.1781,23.7293,来宾市,兴宾区政府,颗粒物(PM10),60,63,62,28,32,123,123,66,66,4,14,8,9,0.7,0.7
2026-04-19T1300,4002A,109.2312,23.7428,来宾市,中南小学,,42,42,47,29,32,127,127,62,62,7,24,7,7,0.7,0.6
2026-04-19T1300,1479A,103.8309,36.0467,兰州市,铁路设计院,颗粒物(PM10),121,174,290,69,111,91,91,97,89,10,22,3,5,0.5,0.6
2026-04-19T1300,3241A,103.7439,36.0841,兰州市,百合公园,颗粒物(PM10),116,161,276,48,105,95,95,97,92,3,13,7,5,0.7,0.4
2026-04-19T1300,3242A,103.9613,35.9985,兰州市,和平,颗粒物(PM10),143,231,315,39,82,101,101,106,101,3,7,7,8,0.2,0.2
2026-04-19T1300,4236A,103.629272,36.093822,兰州市,庄浪东路808号,颗粒物(PM10),120,172,280,45,93,99,99,102,97,1,16,5,9,0.2,0.3
2026-04-19T1300,4237A,103.7251,36.104344,兰州市,安宁西路88号,颗粒物(PM10),133,205,316,49,103,103,103,107,100,7,11,6,8,0.2,0.2
2026-04-19T1300,4238A,103.846982,36.067567,兰州市,北滨河东路1号,颗粒物(PM10),115,159,280,45,101,95,95,99,93,7,16,8,9,0.4,0.4
2026-04-19T1300,1067A,116.6712,39.5109,廊坊市,药材公司,颗粒物(PM10),85,98,91,51,45,128,128,100,100,15,17,5,3,0.5,0.5
2026-04-19T1300,1068A,116.7215,39.5592,廊坊市,开发区,"颗粒物(PM10),细颗粒物(PM2.5)",88,103,96,54,44,136,136,108,108,6,8,4,3,0.5,0.4
2026-04-19T1300,1070A,116.7246,39.5273,廊坊市,北华航天学院,细颗粒物(PM2.5),82,92,96,51,34,137,137,109,109,11,13,5,4,0.5,0.4
2026-04-19T1300,2919A,116.7022,39.5454,廊坊市,河北工业大学,颗粒物(PM10),71,79,87,41,40,136,136,110,110,11,13,5,4,0.5,0.4
2026-04-19T1300,2536A,103.7629,29.5844,乐山市,牛耳桥,颗粒物(PM10),55,56,59,28,35,161,161,62,62,15,30,7,6,0.5,0.7
2026-04-19T1300,2537A,103.7501,29.6002,乐山市,市第三水厂,颗粒物(PM10),62,66,58,33,35,160,160,63,63,15,31,8,6,0.6,0.7
2026-04-19T1300,2538A,103.7571,29.5664,乐山市,市监测站,颗粒物(PM10),56,58,62,24,30,147,147,64,64,9,17,6,5,0.8,0.9
2026-04-19T1300,3361A,103.7313,29.563,乐山市,理工大学,颗粒物(PM10),55,56,55,21,33,154,154,66,66,11,20,6,5,0.5,0.6
2026-04-19T1300,2599A,100.2497,26.8802,丽江市,丽江古城,,36,28,39,3,20,114,114,101,101,5,9,7,8,0.7,0.8
2026-04-19T1300,2600A,100.2203,26.8906,丽江市,市中心,,36,20,30,10,21,114,114,99,99,7,15,6,6,0.5,0.6
2026-04-19T1300,1267A,119.9141,28.4513,丽水市,监测站大楼,,36,36,35,15,20,113,113,49,49,10,15,5,4,0.5,0.4
2026-04-19T1300,1268A,119.93,28.4589,丽水市,莲都小学,,36,27,34,16,19,113,113,50,50,8,15,/,/,/,/
2026-04-19T1300,1269A,119.8794,28.4232,丽水市,余庄前,,33,30,46,14,17,104,104,35,35,10,12,5,4,0.5,0.4
2026-04-19T1300,1173A,119.1759,34.5885,连云港市,市环境监测站,,35,17,32,3,16,109,109,95,95,9,14,9,9,0.3,0.5
2026-04-19T1300,3000A,119.3577,34.6971,连云港市,德源药业,,40,24,55,9,16,125,125,80,80,13,24,6,6,0.2,0.4
2026-04-19T1300,3007A,119.178,34.8442,连云港市,新城一中,,35,35,40,15,15,110,110,58,58,17,31,5,5,0.5,0.5
2026-04-19T1300,3008A,119.3607,34.7519,连云港市,胡沟管理处,,40,22,22,17,14,125,125,64,64,14,38,14,16,0.2,0.2
2026-04-19T1300,3009A,119.1478,34.5913,连云港市,矿山设计院,,35,17,34,7,17,111,111,93,93,7,14,21,21,0.5,0.6
2026-04-19T1300,3434A,119.2414,34.6539,连云港市,工贸学校,,34,7,24,3,15,107,107,104,104,5,10,5,6,0.3,0.3
2026-04-19T1300,3664A,119.4171,34.734,连云港市,连云街道,,41,41,39,18,16,108,108,48,48,19,27,21,16,0.5,0.5
2026-04-19T1300,2573A,102.2629,27.8981,凉山彝族自治州,西昌市政府,,38,NA,25,23,19,121,121,88,85,6,9,12,9,0.5,0.5
2026-04-19T1300,2574A,102.2686,27.885,凉山彝族自治州,凉山州政府,,32,24,27,22,18,100,100,75,74,5,9,4,4,0.7,0.6
2026-04-19T1300,4229A,102.2342,27.8859,凉山彝族自治州,凯乐南路30号,,33,23,30,14,13,105,105,82,75,9,14,2,4,0.5,0.6
2026-04-19T1300,2212A,123.1978,41.2036,辽阳市,宏伟区,颗粒物(PM10),107,136,78,21,35,169,169,143,143,7,8,7,7,0.5,0.6
2026-04-19T1300,2213A,123.1684,41.2497,辽阳市,新华园,颗粒物(PM10),109,141,92,22,40,172,172,145,145,14,14,13,8,0.8,0.6
2026-04-19T1300,2214A,123.2355,41.2663,辽阳市,滨河路,颗粒物(PM10),98,117,73,20,40,163,163,127,127,10,18,10,8,0.7,0.7
2026-04-19T1300,4083A,123.153,41.2874,辽阳市,铁西路150号,颗粒物(PM10),114,154,92,24,44,146,146,126,126,11,14,11,10,0.8,0.8
2026-04-19T1300,2227A,125.1359,42.8845,辽源市,环保局,颗粒物(PM10),90,106,68,20,39,140,140,132,132,5,19,8,8,0.5,0.5
2026-04-19T1300,4085A,125.0998,42.9134,辽源市,安宁大街333号,颗粒物(PM10),124,180,86,22,40,146,146,134,134,6,15,7,7,0.4,0.5
2026-04-19T1300,1625A,115.9789,36.4372,聊城市,区政府,颗粒物(PM10),78,88,93,13,27,137,137,109,109,9,14,7,7,0.6,0.7
2026-04-19T1300,3200A,115.9772,36.4986,聊城市,监控中心,颗粒物(PM10),80,92,81,15,28,142,142,119,119,10,14,8,8,0.4,0.4
2026-04-19T1300,3513A,116.0443,36.436,聊城市,九州社区,NA,NA,NA,94,NA,32,NA,NA,108,NA,NA,17,NA,10,NA,0.5
2026-04-19T1300,4018A,116.0564,36.4609,聊城市,星美广场,NA,NA,104,92,17,30,127,127,106,106,12,18,13,11,NA,0.4
2026-04-19T1300,4113A,116.0091,36.4495,聊城市,利民路,颗粒物(PM10),63,68,76,17,31,145,145,119,119,8,14,9,10,0.3,0.4
2026-04-19T1300,2632A,94.3683,29.6373,林芝市,林芝监测站,,26,7,7,3,4,83,83,44,44,4,8,4,4,0.4,0.5
2026-04-19T1300,2633A,94.3616,29.6634,林芝市,林芝人民医院,,26,8,9,3,6,83,83,45,45,3,5,4,4,0.5,0.5
2026-04-19T1300,2603A,100.0779,23.8981,临沧市,市环保局,,40,40,71,23,54,127,127,93,93,6,9,5,7,0.8,0.8
2026-04-19T1300,2604A,100.0894,23.882,临沧市,市气象局,NA,NA,NA,70,25,61,77,77,64,64,NA,27,7,7,0.5,0.7
2026-04-19T1300,1733A,111.5552,36.0791,临汾市,临钢医院,颗粒物(PM10),85,98,79,25,25,116,116,82,82,14,16,9,8,0.7,0.6
2026-04-19T1300,1734A,111.4984,36.0734,临汾市,技工学校,颗粒物(PM10),80,91,73,44,29,110,110,83,83,14,15,10,8,0.8,0.7
2026-04-19T1300,1736A,111.5017,36.0857,临汾市,市委,颗粒物(PM10),76,86,75,30,26,112,112,92,92,15,14,11,9,0.9,0.7
2026-04-19T1300,3018A,111.5048,36.1015,临汾市,唐尧大酒店,颗粒物(PM10),76,86,86,33,29,114,114,89,89,15,16,11,8,0.8,0.7
2026-04-19T1300,4244A,111.4879,36.053,临汾市,启星学校,颗粒物(PM10),66,72,76,32,27,102,102,58,58,17,22,11,8,0.8,0.6
2026-04-19T1300,4271A,103.2464,35.6123,临夏回族自治州,滨河东路1号,颗粒物(PM10),325,440,266,115,91,85,85,88,87,4,23,8,10,0.2,0.3
2026-04-19T1300,4310A,103.207136,35.599807,临夏回族自治州,新华街21号,颗粒物(PM10),286,410,281,113,86,70,70,71,67,4,16,6,7,0.1,0.3
2026-04-19T1300,1618A,118.3429,35.0532,临沂市,沂河小区,颗粒物(PM10),51,51,74,12,32,123,123,81,81,6,16,15,16,0.3,0.5
2026-04-19T1300,1619A,118.2962,35.0568,临沂市,鲁南制药厂,,42,41,72,9,31,132,132,88,88,7,24,14,19,0.0,0.2
2026-04-19T1300,1620A,118.2793,34.9976,临沂市,新光毛纺厂,,48,48,66,11,33,129,129,76,76,10,23,14,19,0.2,0.3
2026-04-19T1300,1621A,118.3955,35.0889,临沂市,河东保险公司,颗粒物(PM10),53,53,74,13,36,130,130,80,80,6,26,28,14,0.2,0.4
2026-04-19T1300,3370A,118.3563,35.0215,临沂市,十里堡居委,,41,39,66,12,35,129,129,85,85,9,25,12,15,0.4,0.6
2026-04-19T1300,3496A,118.359,35.1067,临沂市,南坊新区,颗粒物(PM10),55,56,73,21,39,129,129,84,84,8,22,22,16,0.2,0.3
2026-04-19T1300,3860A,118.3915,35.0297,临沂市,皇山花园小区,,48,48,69,12,35,133,133,91,91,9,25,22,17,0.4,0.7
2026-04-19T1300,1870A,109.4854,24.3898,柳州市,柳东小学,,42,40,47,29,28,123,123,66,66,6,14,5,9,0.8,0.8
2026-04-19T1300,1871A,109.4109,24.3304,柳州市,环保监测站,颗粒物(PM10),54,55,50,28,32,114,114,57,57,13,27,6,7,0.9,1
2026-04-19T1300,1872A,109.3886,24.3408,柳州市,河西水厂,,45,38,64,31,38,130,130,62,62,9,27,10,13,0.8,0.9
2026-04-19T1300,1873A,109.4263,24.2951,柳州市,市四中,颗粒物(PM10),53,54,52,28,33,112,112,57,57,7,24,7,10,0.8,0.9
2026-04-19T1300,1874A,109.396,24.3658,柳州市,市九中,,48,48,64,30,36,119,119,59,59,8,24,6,9,0.6,0.8
2026-04-19T1300,1875A,109.4912,24.3164,柳州市,古亭山,颗粒物(PM10),56,58,35,21,22,114,114,54,54,8,27,5,6,0.7,0.7
2026-04-19T1300,3402A,109.5422,24.3994,柳州市,市二中,颗粒物(PM10),55,57,40,28,28,122,122,63,63,9,19,10,11,0.7,0.7
2026-04-19T1300,2307A,116.5078,31.7369,六安市,监测大楼,,47,40,40,17,25,150,150,108,108,7,14,5,5,0.4,0.4
2026-04-19T1300,2308A,116.4738,31.7642,六安市,皖西学院,颗粒物(PM10),52,52,49,20,23,156,156,115,115,6,12,6,6,0.5,0.5
2026-04-19T1300,2309A,116.4997,31.7904,六安市,朝阳厂,,48,40,41,17,25,152,152,115,115,8,13,7,7,0.4,0.4
2026-04-19T1300,2310A,116.5566,31.7885,六安市,开发区,臭氧1小时(O3_1h),58,49,45,18,28,166,166,108,108,11,18,6,6,0.5,0.5
2026-04-19T1300,2577A,104.8293,26.592,六盘水市,黄土坡,细颗粒物(PM2.5),66,52,41,43,32,108,108,87,87,9,10,5,5,0.2,0.2
2026-04-19T1300,2579A,104.8481,26.5898,六盘水市,民中,细颗粒物(PM2.5),66,46,38,43,32,106,106,86,86,8,8,4,3,0.7,0.6
2026-04-19T1300,2580A,104.9541,26.5506,六盘水市,双水,细颗粒物(PM2.5),76,58,37,48,29,98,98,81,81,7,7,4,3,0.4,0.3
2026-04-19T1300,4151A,104.8899,26.5685,六盘水市,钟山大道中段564号,"颗粒物(PM10),细颗粒物(PM2.5)",68,74,49,44,31,102,102,83,83,6,6,2,2,0.9,0.8
2026-04-19T1300,2336A,117.022,25.1031,龙岩市,龙岩市监测站,,39,25,20,14,15,123,123,67,67,7,11,5,8,0.5,0.5
2026-04-19T1300,2337A,117.0257,25.0662,龙岩市,闽西职业技术学院,,36,23,24,15,15,115,115,62,62,3,8,6,6,0.7,0.7
2026-04-19T1300,2338A,117.0195,25.0306,龙岩市,龙岩学院,,39,29,22,13,14,122,122,63,63,3,6,5,4,/,/
2026-04-19T1300,2885A,104.9344,33.3827,陇南市,滨江中学,颗粒物(PM10),343,454,92,195,40,73,73,76,66,8,10,8,8,0.6,0.6
2026-04-19T1300,3247A,104.9551,33.3709,陇南市,市总工会,颗粒物(PM10),408,508,76,182,32,78,78,84,69,6,8,8,8,0.5,0.5
2026-04-19T1300,2488A,111.9984,27.7346,娄底市,市监测站,,37,37,52,21,33,92,92,53,53,5,26,7,6,0.5,0.6
2026-04-19T1300,2491A,111.9888,27.7035,娄底市,市政府,,34,32,44,18,27,107,107,52,52,6,12,5,4,0.5,0.5
2026-04-19T1300,4127A,111.9812,27.7591,娄底市,涟钢职大,,40,30,50,10,30,125,125,65,65,6,21,6,8,0.5,0.8
2026-04-19T1300,4128A,112.0303,27.7457,娄底市,娄底体校,,36,36,45,17,27,99,99,47,47,2,8,8,5,0.0,0.1
2026-04-19T1300,1894A,105.4427,28.9063,泸州市,小市上码头,,45,38,64,31,52,116,116,54,54,13,26,9,8,0.7,0.8
2026-04-19T1300,1895A,105.4241,28.8573,泸州市,兰田宪桥,NA,NA,44,56,29,36,136,136,61,61,13,21,9,8,NA,0.7
2026-04-19T1300,1896A,105.4378,28.8833,泸州市,市环监站,,44,44,67,23,47,122,122,62,62,18,17,12,12,0.9,0.9
2026-04-19T1300,4272A,105.3689,28.7783,泸州市,纳溪中医医院,颗粒物(PM10),67,73,60,34,41,142,142,58,58,11,19,6,6,0.9,0.9
2026-04-19T1300,2183A,111.1447,37.5212,吕梁市,环保局,颗粒物(PM10),289,412,84,228,37,83,83,65,65,9,27,3,4,0.1,0.3
2026-04-19T1300,2185A,111.1285,37.5338,吕梁市,自来水公司,颗粒物(PM10),500,603,130,NA,36,79,79,53,53,10,31,2,4,0.3,0.5
2026-04-19T1300,2867A,111.1225,37.5093,吕梁市,马茂庄小学,颗粒物(PM10),481,581,115,175,35,84,84,62,62,8,34,8,8,0.3,0.5
2026-04-19T1300,1812A,112.3934,34.6517,洛阳市,市委党校,颗粒物(PM10),60,64,66,30,28,139,139,82,82,13,20,12,10,0.7,0.6
2026-04-19T1300,1815A,112.494,34.6883,洛阳市,河南林校,颗粒物(PM10),68,74,74,29,28,156,156,102,102,14,20,18,13,0.7,0.6
2026-04-19T1300,1816A,112.3843,34.623,洛阳市,开发区管委会,颗粒物(PM10),61,65,68,26,31,148,148,89,89,12,15,13,13,0.7,0.7
2026-04-19T1300,1817A,112.4263,34.6249,洛阳市,市委新办公区,NA,NA,59,65,28,28,146,146,80,80,14,18,NA,11,0.6,0.5
2026-04-19T1300,3340A,112.6005,34.6323,洛阳市,伊滨,NA,NA,63,74,38,29,127,127,82,82,15,16,15,10,NA,0.7
2026-04-19T1300,3341A,112.495,34.6338,洛阳市,中移产业园,颗粒物(PM10),60,63,72,33,33,147,147,91,91,14,20,15,12,0.5,0.5
2026-04-19T1300,3593A,112.5736,34.8993,洛阳市,吉利监测站,颗粒物(PM10),65,70,78,31,31,148,148,77,77,12,20,12,11,0.5,0.5
2026-04-19T1300,3635A,112.3678,34.6623,洛阳市,河科大西苑校区,颗粒物(PM10),62,66,71,35,30,148,148,89,89,10,16,15,11,0.5,0.5
2026-04-19T1300,3636A,112.4387,34.678,洛阳市,英才小学,颗粒物(PM10),70,78,80,30,30,150,150,87,87,12,19,18,12,0.6,0.5
2026-04-19T1300,4214A,112.460027,34.694929,洛阳市,春都路1号院,颗粒物(PM10),75,84,80,37,30,165,165,99,99,15,19,14,10,0.6,0.5
2026-04-19T1300,2399A,114.051,33.5721,漯河市,三五一五工厂,颗粒物(PM10),60,64,69,35,31,148,148,108,108,12,20,6,6,0.3,0.3
2026-04-19T1300,2400A,114.0055,33.5698,漯河市,漯河大学,颗粒物(PM10),51,51,60,29,31,146,146,108,108,13,21,6,6,0.6,0.5
2026-04-19T1300,2401A,114.0134,33.5826,漯河市,市水利局,颗粒物(PM10),51,51,65,31,30,149,149,111,111,9,15,5,5,0.7,0.6
2026-04-19T1300,2402A,114.0261,33.5697,漯河市,市广电局,颗粒物(PM10),51,51,63,28,31,156,156,110,110,13,20,5,5,0.5,0.4
2026-04-19T1300,3478A,113.9691,33.568,漯河市,市图书馆,NA,NA,64,64,NA,28,145,145,107,107,11,19,7,8,0.5,0.4
2026-04-19T1300,4250A,114.089259,33.588274,漯河市,韶山路11号,NA,NA,NA,64,25,28,144,144,93,93,10,21,7,6,0.6,0.4
2026-04-19T1300,1798A,118.5084,31.6838,马鞍山市,湖东路四小,臭氧1小时(O3_1h),67,53,49,23,22,173,173,94,94,16,22,11,7,0.6,0.5
2026-04-19T1300,1799A,118.5019,31.6449,马鞍山市,开发区,臭氧1小时(O3_1h),68,50,58,27,27,174,174,89,89,14,27,8,8,0.6,0.6
2026-04-19T1300,3633A,118.4914,31.681,马鞍山市,雨山,臭氧1小时(O3_1h),73,45,46,32,24,178,178,96,96,19,23,13,8,0.7,0.6
2026-04-19T1300,4191A,118.527362,31.722269,马鞍山市,慈湖高新区,臭氧1小时(O3_1h),67,55,48,27,22,173,173,92,92,18,22,13,7,0.7,0.5
2026-04-19T1300,1686A,111.0285,21.469,茂名市,电白南海,,27,27,36,9,19,68,68,46,46,5,13,5,8,0.7,0.8
2026-04-19T1300,1687A,110.9294,21.6533,茂名市,茂石化七小,,29,29,38,18,23,66,66,42,42,11,15,6,10,0.5,0.6
2026-04-19T1300,1688A,110.9108,21.6688,茂名市,健康路,,27,27,32,18,24,66,66,43,43,9,17,4,19,0.7,0.8
2026-04-19T1300,1689A,110.8592,21.6826,茂名市,高岭,,31,31,44,18,24,70,70,41,41,5,16,3,11,/,/
2026-04-19T1300,3450A,111.0101,21.5165,茂名市,电白水东,,20,14,26,11,22,63,63,47,47,5,14,2,4,/,/
2026-04-19T1300,2540A,103.8414,30.0871,眉山市,气象局,颗粒物(PM10),53,53,70,24,33,161,161,67,67,14,36,8,8,0.7,0.7
2026-04-19T1300,3148A,103.829,30.0563,眉山市,区人社局,,48,48,73,26,36,148,148,71,71,18,41,10,12,0.8,0.8
2026-04-19T1300,4148A,103.8836,30.0695,眉山市,眉职院,颗粒物(PM10),52,52,69,23,31,156,156,64,64,10,27,11,9,0.8,0.8
2026-04-19T1300,1690A,116.1248,24.3307,梅州市,梅江月梅,,34,20,30,12,18,107,107,52,52,6,14,/,/,/,/
2026-04-19T1300,1691A,116.0798,24.2719,梅州市,梅县新城,,33,24,28,12,17,104,104,52,52,7,16,8,8,0.5,0.6
2026-04-19T1300,3315A,116.1234,24.2994,梅州市,梅龙,,36,17,28,14,19,115,115,62,62,6,13,6,7,0.7,0.8
2026-04-19T1300,1878A,104.7775,31.4741,绵阳市,富乐山,,46,46,56,20,35,119,119,60,60,8,18,8,7,0.6,0.7
2026-04-19T1300,1880A,104.6698,31.4668,绵阳市,高新区自来水公司,,39,39,63,18,31,120,120,67,67,4,20,7,7,0.7,0.7
2026-04-19T1300,3491A,104.6899,31.5324,绵阳市,西科大附属小学,,43,43,67,24,34,127,127,67,67,5,24,6,6,0.5,0.6
2026-04-19T1300,3492A,104.5647,31.5343,绵阳市,安州区旅游局,,42,37,58,17,29,134,134,70,70,4,12,5,6,0.4,0.4
2026-04-19T1300,4146A,104.7092,31.4972,绵阳市,科技城新区公安局,颗粒物(PM10),53,53,70,18,31,114,114,60,60,5,21,8,8,0.5,0.6
2026-04-19T1300,4226A,104.765114,31.453094,绵阳市,绵阳市气象局,,32,26,66,18,34,102,102,44,44,6,28,10,8,0.3,0.4
2026-04-19T1300,1784A,129.61,44.561,牡丹江市,环保大楼,,40,37,32,22,22,125,125,80,80,16,18,4,3,0.4,0.4
2026-04-19T1300,1787A,129.6364,44.6075,牡丹江市,机车工厂,颗粒物(PM10),53,53,46,30,26,121,121,73,73,15,18,9,12,0.3,0.3
2026-04-19T1300,1788A,129.6386,44.5462,牡丹江市,第一中学,颗粒物(PM10),63,67,31,31,21,126,126,79,79,12,13,9,7,0.5,0.4
2026-04-19T1300,4287A,129.5992,44.5964,牡丹江市,东晓云街98号,,49,49,43,30,23,124,124,76,76,14,14,4,5,0.3,0.3
2026-04-19T1300,2531A,105.0703,29.61,内江市,市监测站,,43,43,46,22,27,122,122,61,58,8,19,12,10,0.4,0.5
2026-04-19T1300,2533A,105.0657,29.5807,内江市,内江二中,,40,30,43,28,33,116,116,59,59,12,22,10,8,0.4,0.4
2026-04-19T1300,2534A,105.0407,29.5828,内江市,内江日报社,,46,38,36,32,34,120,120,58,58,10,25,11,10,0.4,0.5
2026-04-19T1300,4147A,105.0433,29.6105,内江市,玉峰路西段888号,,43,30,46,30,36,116,116,60,57,11,25,10,9,0.6,0.7
2026-04-19T1300,2628A,92.0653,31.4846,那曲市,那曲监测站,,32,24,36,9,21,100,100,60,60,8,18,6,8,0.5,0.9
2026-04-19T1300,4243A,92.0515,31.4787,那曲市,那曲市委宣传部,,35,NA,21,10,13,109,109,66,66,2,9,7,8,0.4,0.7
2026-04-19T1300,1291A,115.8887,28.7006,南昌市,省林业公司,臭氧1小时(O3_1h),94,73,59,46,34,195,195,107,107,13,30,6,5,0.5,0.4
2026-04-19T1300,1292A,115.813,28.7443,南昌市,林科所,臭氧1小时(O3_1h),82,58,44,30,26,185,185,113,113,6,28,9,9,0.6,0.6
2026-04-19T1300,1294A,115.8518,28.687,南昌市,建工学校,臭氧1小时(O3_1h),79,79,68,40,34,183,183,100,100,17,36,11,10,0.8,0.8
2026-04-19T1300,1295A,115.8926,28.6425,南昌市,象湖,细颗粒物(PM2.5),88,67,58,54,42,188,188,105,105,10,37,10,9,1.0,1
2026-04-19T1300,3046A,115.9084,28.6062,南昌市,机电学校,臭氧1小时(O3_1h),82,75,70,39,37,185,185,106,106,10,39,7,5,0.7,0.7
2026-04-19T1300,3690A,115.9718,28.7032,南昌市,外国语学校,臭氧1小时(O3_1h),64,60,55,24,24,171,171,99,99,14,35,13,10,1.2,0.7
2026-04-19T1300,4106A,115.7923,28.6873,南昌市,工业二路,臭氧1小时(O3_1h),60,61,65,26,32,168,168,90,90,10,32,6,5,0.7,0.7
2026-04-19T1300,4192A,115.931587,28.686774,南昌市,南京东路235号,臭氧1小时(O3_1h),93,82,70,34,35,194,194,124,124,9,24,8,6,0.7,0.6
2026-04-19T1300,1906A,106.0791,30.8022,南充市,南充市委,细颗粒物(PM2.5),70,70,47,45,29,40,40,31,20,22,23,7,7,0.4,0.3
2026-04-19T1300,1907A,106.1038,30.8215,南充市,南充炼油厂,细颗粒物(PM2.5),62,64,55,41,30,42,42,36,27,18,23,5,6,0.4,0.3
2026-04-19T1300,4227A,106.108336,30.788436,南充市,梨树横街98号,细颗粒物(PM2.5),76,66,55,48,35,42,42,25,25,17,28,7,7,0.4,0.4
2026-04-19T1300,4304A,106.1172,30.843,南充市,清泉寺北路188号,细颗粒物(PM2.5),84,NA,48,52,32,42,42,50,35,13,12,6,7,0.5,0.4
2026-04-19T1300,4305A,106.067,30.7616,南充市,同庆路1号,"颗粒物(PM10),细颗粒物(PM2.5)",58,60,49,39,27,48,48,35,29,22,28,7,7,0.5,0.4
2026-04-19T1300,1151A,118.8033,32.1085,南京市,迈皋桥,臭氧1小时(O3_1h),62,34,36,8,10,169,169,92,92,9,26,7,7,0.7,0.7
2026-04-19T1300,1152A,118.7487,32.057,南京市,草场门,臭氧1小时(O3_1h),60,39,37,11,8,168,168,103,103,18,26,6,6,0.4,0.4
2026-04-19T1300,1154A,118.770105,32.004342,南京市,中华门,臭氧1小时(O3_1h),63,41,43,8,11,170,170,102,102,11,23,10,9,0.5,0.5
2026-04-19T1300,1155A,118.8059,32.0329,南京市,瑞金路,臭氧1小时(O3_1h),55,36,40,6,11,164,164,103,103,13,23,7,7,0.6,0.6
2026-04-19T1300,1156A,118.7946,32.0774,南京市,玄武湖,,49,35,37,3,9,155,155,91,91,2,18,5,5,0.4,0.4
2026-04-19T1300,1157A,118.6415,32.0964,南京市,浦口,,50,32,45,10,9,158,158,91,91,20,29,6,5,0.6,0.5
2026-04-19T1300,1158A,118.730129,32.000956,南京市,奥体中心,颗粒物(PM10),53,53,49,11,11,144,144,82,82,16,31,9,9,0.4,0.4
2026-04-19T1300,1159A,118.9072,32.1047,南京市,仙林大学城,,49,39,42,3,9,156,156,96,96,10,23,10,11,0.6,0.6
2026-04-19T1300,3422A,118.8443,31.919,南京市,江宁彩虹桥,,50,47,46,8,14,157,157,99,99,12,28,4,4,0.6,0.5
2026-04-19T1300,3427A,118.8497,32.3599,南京市,六合雄州,,47,31,33,9,11,148,148,78,78,24,36,4,4,0.7,0.6
2026-04-19T1300,4086A,118.7641,32.0841,南京市,新模范马路66号,臭氧1小时(O3_1h),60,39,40,8,8,168,168,101,101,11,20,5,4,0.5,0.4
2026-04-19T1300,4249A,118.8707617,31.34017673,南京市,汶溪路181号,臭氧1小时(O3_1h),72,68,56,17,26,177,177,101,101,14,23,7,7,0.2,0.5
2026-04-19T1300,4312A,119.019,31.6512,南京市,中山西路1号,,48,39,45,9,20,151,151,82,82,10,23,4,4,0.6,0.7
2026-04-19T1300,1401A,108.3098,22.788,南宁市,二十一中,细颗粒物(PM2.5),56,53,43,38,33,84,84,67,63,9,12,3,2,0.6,0.7
2026-04-19T1300,1402A,108.3135,22.8529,南宁市,北湖,细颗粒物(PM2.5),76,NA,43,48,39,91,91,67,67,9,13,3,3,0.9,0.8
2026-04-19T1300,1403A,108.3205,22.8222,南宁市,市监测站,细颗粒物(PM2.5),58,52,44,39,32,94,94,69,65,8,12,3,3,0.6,0.6
2026-04-19T1300,1404A,108.3828,22.8038,南宁市,大自然花园,细颗粒物(PM2.5),56,44,42,38,33,92,92,58,58,8,14,6,6,0.8,0.8
2026-04-19T1300,1406A,108.2397,22.8462,南宁市,区农职院,,50,50,46,27,30,85,85,56,56,5,12,3,3,0.8,0.8
2026-04-19T1300,1407A,108.3285,22.7356,南宁市,英华嘉园,,48,47,44,33,33,99,99,72,72,7,12,4,4,0.6,0.5
2026-04-19T1300,3401A,108.4829,22.762,南宁市,红星社区,颗粒物(PM10),58,60,47,34,34,102,102,67,67,4,11,5,5,0.7,0.7
2026-04-19T1300,4132A,108.2927,23.1477,南宁市,起凤路9号,细颗粒物(PM2.5),84,62,50,52,39,103,103,66,66,8,14,6,5,0.8,0.7
2026-04-19T1300,4221A,108.2177,22.7774,南宁市,乐贤路16号,细颗粒物(PM2.5),52,NA,46,36,33,97,97,64,64,8,21,5,6,0.7,0.6
2026-04-19T1300,2332A,118.1682,26.6371,南平市,南平市监测站,,33,26,29,14,18,103,103,54,54,4,12,4,4,0.4,0.6
2026-04-19T1300,2334A,118.1757,26.6276,南平市,南平七中,,33,25,30,10,18,105,105,51,51,4,11,2,2,0.5,0.7
2026-04-19T1300,1168A,120.9056,31.9669,南通市,狼山街道,,29,14,33,6,14,91,91,93,84,6,12,3,4,0.4,0.4
2026-04-19T1300,1170A,120.8635,32.0231,南通市,城中,,27,23,41,6,17,85,85,94,82,7,12,3,5,0.2,0.3
2026-04-19T1300,1171A,120.9376,31.9301,南通市,星湖花园,,29,15,32,6,14,91,91,96,86,6,11,3,4,0.4,0.4
2026-04-19T1300,1172A,120.8053,32.046,南通市,紫琅学院,,30,14,34,9,17,96,96,93,90,8,19,4,7,0.6,0.6
2026-04-19T1300,3291A,121.0631,32.0644,南通市,通州监测站,,30,19,38,3,16,95,95,89,85,7,11,4,4,0.5,0.4
2026-04-19T1300,3432A,120.9348,31.9874,南通市,环境教育馆,,29,19,37,3,16,90,90,92,83,9,15,4,5,0.4,0.4
2026-04-19T1300,4091A,120.8692,31.9885,南通市,洪江路,,27,24,37,8,14,84,84,98,83,12,14,4,5,0.7,0.7
2026-04-19T1300,2404A,112.5338,33.0086,南阳市,瓦房庄,颗粒物(PM10),54,55,61,36,23,133,133,98,98,13,15,7,5,0.5,0.5
2026-04-19T1300,2405A,112.5002,32.9734,南阳市,汉画馆,颗粒物(PM10),65,70,64,36,25,132,132,97,97,9,15,10,7,0.6,0.6
2026-04-19T1300,2406A,112.5778,33.0144,南阳市,气象站,颗粒物(PM10),60,64,67,32,24,143,143,97,97,6,13,9,6,0.5,0.4
2026-04-19T1300,2407A,112.548,32.9687,南阳市,理工学院,颗粒物(PM10),60,63,64,34,26,138,138,100,100,7,14,9,6,0.5,0.5
2026-04-19T1300,4008A,112.5233,32.9921,南阳市,卧龙区政府,颗粒物(PM10),68,74,73,32,26,131,131,98,98,6,12,9,7,0.7,0.6
2026-04-19T1300,1234A,121.8352,29.9111,宁波市,区环保大楼,臭氧1小时(O3_1h),68,50,56,27,30,174,174,93,93,17,39,9,7,0.5,0.5
2026-04-19T1300,1235A,121.5595,29.8208,宁波市,万里学院,,47,30,38,13,26,149,149,88,88,9,29,9,9,0.5,0.6
2026-04-19T1300,1236A,121.713,29.9564,宁波市,龙赛医院,颗粒物(PM10),56,58,57,28,28,161,161,83,83,21,34,8,7,0.6,0.5
2026-04-19T1300,1240A,121.5855,29.8635,宁波市,太古小学,,49,32,47,17,26,154,154,90,90,10,29,4,4,0.4,0.4
2026-04-19T1300,1241A,121.5239,29.8673,宁波市,市环境监测中心,,45,37,38,17,28,144,144,88,88,13,26,4,4,0.4,0.4
2026-04-19T1300,2871A,121.6156,29.9015,宁波市,万里国际学校,臭氧1小时(O3_1h),79,46,41,27,27,183,183,91,91,18,34,7,6,0.6,0.5
2026-04-19T1300,3710A,121.5593,29.8976,宁波市,白沙活动中心,臭氧1小时(O3_1h),53,34,34,22,26,162,162,94,94,13,27,6,6,0.5,0.5
2026-04-19T1300,4095A,121.8962,29.7529,宁波市,中科路88号,臭氧1小时(O3_1h),69,47,48,32,26,175,175,85,85,15,33,8,8,0.5,0.5
2026-04-19T1300,2341A,119.5387,26.6611,宁德市,宁德市监测站,,38,38,26,9,22,109,109,66,66,15,21,7,7,0.7,0.7
2026-04-19T1300,3209A,119.5231,26.6562,宁德市,宁德一中,NA,NA,32,25,14,22,113,113,72,72,13,13,5,6,NA,0.5
2026-04-19T1300,2618A,98.859,25.8541,怒江傈僳族自治州,州监测站,,29,29,42,20,30,60,60,69,65,8,12,6,6,0.2,0.3
2026-04-19T1300,2619A,98.8607,25.8168,怒江傈僳族自治州,泸水一中,,32,30,42,22,32,58,58,53,53,10,18,5,6,0.5,0.5
2026-04-19T1300,1888A,101.6891,26.571,攀枝花市,弄弄坪,,46,46,53,31,29,132,132,97,97,10,14,15,14,0.7,0.6
2026-04-19T1300,1889A,101.577,26.5914,攀枝花市,河门口,"颗粒物(PM10),细颗粒物(PM2.5)",58,60,69,39,39,124,124,73,73,8,16,8,21,0.6,0.8
2026-04-19T1300,1891A,101.7365,26.4986,攀枝花市,仁和,NA,NA,NA,NA,NA,NA,NA,NA,NA,NA,NA,NA,NA,NA,NA,NA
2026-04-19T1300,2835A,101.7222,26.567,攀枝花市,四十中小,,48,48,47,33,30,131,131,105,105,9,14,11,12,0.7,0.8
2026-04-19T1300,1604A,122.0303,41.1489,盘锦市,开发区,细颗粒物(PM2.5),100,92,58,60,49,185,185,131,131,13,13,10,8,0.6,0.5
2026-04-19T1300,1605A,122.0486,41.0883,盘锦市,兴隆台,细颗粒物(PM2.5),84,91,52,52,62,163,163,122,122,16,14,12,9,0.7,0.6
2026-04-19T1300,1606A,121.8297,41.1026,盘锦市,新生街道,细颗粒物(PM2.5),84,67,48,52,83,171,171,118,118,19,19,8,6,0.8,0.6
2026-04-19T1300,1832A,113.3257,33.7423,平顶山市,新华旅馆,颗粒物(PM10),58,61,83,28,32,139,139,89,89,6,19,5,7,0.5,0.5
2026-04-19T1300,1833A,113.2917,33.737,平顶山市,规划设计院,,49,49,70,25,31,138,138,96,96,6,16,8,8,0.5,0.5
2026-04-19T1300,1834A,113.182,33.7738,平顶山市,平顶山工学院,,46,46,61,21,29,135,135,102,102,6,14,9,10,0.5,0.5
2026-04-19T1300,3594A,112.8736,33.9068,平顶山市,石龙区,,47,47,94,28,37,117,117,71,71,5,18,9,10,0.6,0.6
2026-04-19T1300,4116A,113.284,33.7139,平顶山市,姚电大道23号,颗粒物(PM10),58,60,83,26,31,143,143,102,102,10,19,6,7,0.4,0.4
2026-04-19T1300,2656A,106.6633,35.5338,平凉市,聚贤嘉苑,颗粒物(PM10),171,292,374,84,71,97,97,94,94,22,14,3,6,0.2,0.3
2026-04-19T1300,2657A,106.7021,35.5307,平凉市,博物馆,颗粒物(PM10),150,250,364,NA,26,98,98,96,96,5,13,9,9,0.2,0.3
2026-04-19T1300,2348A,113.8384,27.6436,萍乡市,中医院,,47,47,41,27,29,139,139,68,68,9,21,7,7,0.8,0.8
2026-04-19T1300,2350A,113.8677,27.6438,萍乡市,市环保局,,43,33,45,23,34,135,135,70,70,9,23,13,13,0.8,0.8
2026-04-19T1300,2351A,113.8663,27.6202,萍乡市,安源区政府,,42,35,49,29,35,116,116,52,52,5,12,9,9,0.8,1.1
2026-04-19T1300,4107A,113.8686,27.6668,萍乡市,联洪村委会,,42,42,45,25,27,124,124,61,61,2,16,4,4,0.5,0.5
2026-04-19T1300,2319A,119.0142,25.4324,莆田市,荔城区仓后路,,46,40,26,18,16,145,145,89,89,11,17,/,/,/,/
2026-04-19T1300,2320A,119.0016,25.4553,莆田市,莆田市监测站,,46,43,29,16,13,145,145,83,83,12,15,3,2,0.5,0.5
2026-04-19T1300,2321A,119.112,25.4561,莆田市,涵江区六中,,46,32,23,21,12,145,145,82,82,9,11,/,/,0.4,0.5
2026-04-19T1300,2322A,119.1014,25.3215,莆田市,秀屿区政府,,46,32,29,17,18,146,146,117,117,7,9,5,4,0.5,0.7
2026-04-19T1300,2392A,115.0312,35.7636,濮阳市,环保局,颗粒物(PM10),69,76,72,26,28,144,144,109,109,15,22,4,5,0.5,0.5
2026-04-19T1300,3021A,115,35.7667,濮阳市,濮水河管理处,颗粒物(PM10),58,61,75,22,30,137,137,99,99,12,16,4,5,0.6,0.6
2026-04-19T1300,4118A,115.0552,35.7816,濮阳市,中原东路68号,颗粒物(PM10),64,69,82,20,27,143,143,108,108,8,12,4,5,0.6,0.6
2026-04-19T1300,4216A,115.0923632,35.76857718,濮阳市,任丘路479号,颗粒物(PM10),68,74,77,22,32,141,141,101,101,10,16,4,5,0.4,0.4
2026-04-19T1300,2601A,100.9801,22.7634,普洱市,市环保局,,40,40,98,24,51,126,126,82,82,10,13,4,5,0.9,1
2026-04-19T1300,2602A,100.9763,22.8237,普洱市,普洱第二中学,,42,42,88,19,55,118,118,68,68,9,24,6,7,0.8,0.9
2026-04-19T1300,3345A,131.0413,45.7795,七台河市,中波台,,27,18,23,10,14,85,85,63,63,7,13,3,4,0.4,0.5
2026-04-19T1300,3637A,131.0136,45.7688,七台河市,人民广场,,29,27,39,6,14,90,90,73,73,10,21,10,12,0.5,0.6
2026-04-19T1300,3684A,130.8639,45.8144,七台河市,新建矿广场,,36,36,40,6,13,77,77,57,57,9,19,8,10,0.0,0.2
2026-04-19T1300,1779A,123.9307,47.3641,齐齐哈尔市,安居小区,,28,28,28,3,8,73,73,72,72,10,9,6,5,0.4,0.4
2026-04-19T1300,1780A,123.9497,47.3389,齐齐哈尔市,中心广场,,21,20,22,3,7,65,65,65,63,10,7,6,5,0.4,0.3
2026-04-19T1300,1781A,123.9483,47.3229,齐齐哈尔市,农牧车辆厂,,25,24,26,3,7,77,77,75,75,8,7,5,5,0.2,0.3
2026-04-19T1300,1783A,123.9442,47.2994,齐齐哈尔市,市环境监测站,,26,26,24,9,11,68,68,68,68,10,10,2,3,0.6,0.5
2026-04-19T1300,3662A,123.6341,47.2079,齐齐哈尔市,富区青少年活动中心,,27,27,23,8,9,65,65,66,66,7,6,4,3,0.6,0.5
2026-04-19T1300,2591A,107.9765,26.5724,黔东南苗族侗族自治州,市环境监测站,,46,36,26,32,20,91,91,69,69,4,13,2,2,0.7,0.7
2026-04-19T1300,2881A,107.8909,26.531,黔东南苗族侗族自治州,凯里学院,,38,34,21,26,19,97,97,80,80,3,9,1,2,0.6,0.5
2026-04-19T1300,2593A,107.5223,26.2371,黔南布依族苗族自治州,小围寨,,38,29,16,26,13,79,79,68,68,5,5,5,5,0.6,0.4
2026-04-19T1300,3538A,107.5175,26.2977,黔南布依族苗族自治州,沙坝,,40,34,20,28,13,65,65,60,60,5,7,4,4,1.0,0.8
2026-04-19T1300,2589A,104.9022,25.0943,黔西南布依族苗族自治州,场坝街,细颗粒物(PM2.5),62,NA,29,41,25,96,96,74,74,5,4,7,6,0.6,0.5
2026-04-19T1300,2590A,104.8812,25.0994,黔西南布依族苗族自治州,坪东大道,细颗粒物(PM2.5),70,NA,34,45,27,98,98,74,74,6,5,3,3,0.6,0.5
2026-04-19T1300,2502A,108.6238,21.9667,钦州市,市环保站,,46,46,44,27,28,87,87,57,55,9,14,2,3,0.7,0.8
2026-04-19T1300,2503A,108.655,21.9481,钦州市,沙埠小学,颗粒物(PM10),51,51,49,32,33,84,84,50,50,8,17,3,4,0.8,0.9
2026-04-19T1300,2504A,108.5989,21.7435,钦州市,港区一小,,50,47,63,35,37,90,90,55,48,16,17,4,6,0.6,0.7
2026-04-19T1300,3404A,108.5959,21.9634,钦州市,北职校,,42,42,40,25,31,83,83,43,43,6,16,3,3,0.6,0.7
2026-04-19T1300,1046A,119.5247,39.9346,秦皇岛市,建设大厦,颗粒物(PM10),102,123,101,42,70,154,154,83,83,18,34,10,8,0.5,0.5
2026-04-19T1300,3132A,119.5979,39.938,秦皇岛市,文明里,细颗粒物(PM2.5),118,142,106,79,69,149,149,73,73,41,40,16,10,0.9,0.5
2026-04-19T1300,4066A,119.7458,39.9952,秦皇岛市,南园路157号,细颗粒物(PM2.5),119,142,97,80,75,140,140,73,73,31,36,14,9,0.8,0.4
2026-04-19T1300,4067A,119.5131,39.8858,秦皇岛市,翠岛大街1号,细颗粒物(PM2.5),105,117,87,65,67,147,147,78,78,26,30,12,9,0.7,0.4
2026-04-19T1300,4198A,119.509013,39.825305,秦皇岛市,北戴河轮滑馆,细颗粒物(PM2.5),128,129,85,90,58,130,130,78,78,32,31,10,8,0.8,0.4
2026-04-19T1300,1310A,120.404,36.0625,青岛市,市南区东部子站,,25,12,10,12,7,78,78,80,79,4,9,4,4,0.3,0.3
2026-04-19T1300,1311A,120.362344,36.10282,青岛市,四方区子站,,33,24,19,17,10,103,103,96,96,11,19,6,5,0.6,0.5
2026-04-19T1300,1312A,120.294373,36.054183,青岛市,市南区西部子站,,25,19,9,15,6,80,80,83,82,14,19,3,3,0.5,0.4
2026-04-19T1300,1313A,120.4581,36.0858,青岛市,崂山区子站,,29,14,9,12,8,92,92,87,87,4,12,7,7,0.3,0.3
2026-04-19T1300,1315A,120.3945,36.3083,青岛市,城阳区子站,,36,27,44,3,15,114,114,79,79,11,22,6,6,0.6,0.6
2026-04-19T1300,3642A,120.3454,36.0735,青岛市,市北区南部,,30,23,11,13,6,93,93,94,94,7,9,3,2,0.5,0.5
2026-04-19T1300,3643A,120.3897,36.18,青岛市,李沧区北部,,32,29,29,12,10,102,102,71,71,12,20,9,8,0.5,0.5
2026-04-19T1300,4110A,120.5222,36.4089,青岛市,盟旺路653号,,34,22,29,3,12,108,108,80,80,5,13,4,4,0.6,0.6
2026-04-19T1300,4290A,120.196923,35.954556,青岛市,珠江路669号,,28,27,11,8,6,89,89,90,90,9,10,4,4,0.6,0.5
2026-04-19T1300,4291A,120.0424,35.8656,青岛市,黄岛区人民政府广场,,38,36,12,26,7,86,86,84,84,14,11,8,7,0.5,0.5
2026-04-19T1300,1703A,113.0218,23.7086,清远市,凤城街办,,39,27,28,20,16,124,124,63,63,8,20,/,/,/,/
2026-04-19T1300,3025A,113.0479,23.6343,清远市,技师学院,,43,22,28,15,16,137,137,63,63,9,23,6,7,0.6,0.7
2026-04-19T1300,3318A,112.9898,23.7403,清远市,清新太和,,43,28,24,18,15,136,136,70,70,8,12,6,7,0.5,0.5
2026-04-19T1300,3455A,113.076,23.72,清远市,清城东城,,40,29,26,17,14,126,126,62,62,6,12,/,/,/,/
2026-04-19T1300,2661A,107.6325,35.7357,庆阳市,庆阳五中,颗粒物(PM10),500,828,494,238,158,78,78,92,76,8,12,2,3,0.2,0.3
2026-04-19T1300,2662A,107.6361,35.7067,庆阳市,市环保局,颗粒物(PM10),500,815,466,249,157,75,75,89,72,9,12,4,6,0.5,0.5
2026-04-19T1300,1916A,103.7897,25.5036,曲靖市,环境监测站,细颗粒物(PM2.5),72,70,80,46,52,143,143,98,98,8,14,6,7,0.7,0.8
2026-04-19T1300,1917A,103.8013,25.5357,曲靖市,烟厂办公区,细颗粒物(PM2.5),68,63,66,44,45,141,141,97,97,6,10,7,8,0.6,0.7
2026-04-19T1300,3376A,103.7926,25.4651,曲靖市,南苑二区,细颗粒物(PM2.5),68,51,69,44,50,134,134,93,93,5,10,4,4,0.7,0.8
2026-04-19T1300,3377A,103.7442,25.5259,曲靖市,曲靖师范学院,细颗粒物(PM2.5),68,58,64,44,51,149,149,92,92,8,10,6,4,0.5,0.6
2026-04-19T1300,1264A,118.8694,28.94,衢州市,环保大楼,,49,39,42,26,31,156,156,76,76,10,19,/,/,/,/
2026-04-19T1300,1266A,118.8622,28.9809,衢州市,衢州学院,臭氧1小时(O3_1h),53,39,49,25,32,162,162,74,74,16,35,7,6,0.5,0.5
2026-04-19T1300,4097A,118.9646,28.9832,衢州市,衢州三中,,50,26,50,19,35,158,158,76,76,9,29,10,8,0.5,0.5
2026-04-19T1300,1611A,118.5818,24.9116,泉州市,涂山街,,46,38,26,28,17,145,145,90,90,17,18,4,4,0.9,0.9
2026-04-19T1300,1612A,118.597,24.8976,泉州市,津头埔,,48,40,27,20,17,151,151,93,93,16,16,4,4,0.7,0.8
2026-04-19T1300,1613A,118.6669,24.9422,泉州市,万安,,39,29,25,15,18,122,122,87,87,11,15,4,4,0.7,0.7
2026-04-19T1300,4105A,118.6355,24.9148,泉州市,霞新路6号,,40,23,22,16,17,127,127,86,86,10,16,/,/,0.7,0.7
2026-04-19T1300,2626A,88.8873,29.2723,日喀则市,日喀则监测站,,35,14,47,3,14,109,109,84,84,4,11,10,10,0.5,0.5
2026-04-19T1300,3726A,88.8775,29.2425,日喀则市,林业技术推广中心,,35,21,26,10,5,110,110,91,91,4,6,10,10,0.4,0.4
2026-04-19T1300,1659A,119.4711,35.421,日照市,监测站,,41,41,40,9,19,98,98,42,42,31,40,12,10,0.6,0.8
2026-04-19T1300,1660A,119.523,35.4216,日照市,市政府广场,,44,44,29,12,15,109,109,46,46,23,26,9,7,0.6,0.7
2026-04-19T1300,1661A,119.5511,35.4113,日照市,港务局,颗粒物(PM10),51,51,13,13,7,73,73,48,48,25,20,7,4,0.5,0.5
2026-04-19T1300,3507A,119.5326,35.4627,日照市,职业技术学院,,30,27,23,8,12,94,94,50,50,25,22,10,7,0.6,0.6
2026-04-19T1300,3604A,119.3267,35.1043,日照市,岚山环保分局,颗粒物(PM10),56,58,48,21,17,122,122,55,55,29,27,14,12,0.7,1.1
2026-04-19T1300,1835A,111.1922,34.7752,三门峡市,市政府,细颗粒物(PM2.5),106,66,70,66,34,130,130,88,88,9,12,14,12,0.5,0.5
2026-04-19T1300,1836A,111.1588,34.794,三门峡市,开发区,"颗粒物(PM10),细颗粒物(PM2.5)",64,69,86,42,33,131,131,95,95,11,13,15,13,0.5,0.5
2026-04-19T1300,3039A,111.1911,34.7829,三门峡市,三门峡市第一小学,颗粒物(PM10),74,83,74,36,30,131,131,92,92,9,12,17,14,0.4,0.5
2026-04-19T1300,3598A,111.1031,34.719,三门峡市,富达温泉假日酒店,颗粒物(PM10),77,87,75,30,29,132,132,95,95,17,13,22,15,0.7,0.5
2026-04-19T1300,2324A,117.621,26.2626,三明市,三钢,,43,26,30,14,14,137,137,58,58,8,14,9,5,1.2,1
2026-04-19T1300,2325A,117.6352,26.2714,三明市,三明二中,,41,32,29,20,18,130,130,56,56,10,12,9,3,1.5,0.7
2026-04-19T1300,2326A,117.6028,26.2377,三明市,三元区政府,,42,35,38,20,26,132,132,54,54,8,19,7,9,1.1,1.3
2026-04-19T1300,1877A,109.4962,18.2682,三亚市,河西子站,,24,16,25,13,19,74,74,58,58,3,7,5,5,0.4,0.4
2026-04-19T1300,3540A,109.7348,18.3443,三亚市,君悦子站,,39,39,27,9,13,77,77,54,54,4,8,4,4,0.6,0.5
2026-04-19T1300,4135A,109.1714,18.3739,三亚市,城东小学站,,32,32,27,12,17,73,73,55,55,3,8,/,/,/,/
2026-04-19T1300,2624A,91.7592,29.234,山南市,山南监测站,,35,13,13,3,2,110,110,81,74,3,6,13,13,0.2,0.2
2026-04-19T1300,2625A,91.7701,29.2436,山南市,山南人民医院,,34,12,16,3,4,107,107,85,80,2,3,11,10,0.1,0.2
2026-04-19T1300,1674A,116.6795,23.3666,汕头市,金平子站,,43,38,33,21,27,135,135,116,115,7,10,6,5,0.8,0.8
2026-04-19T1300,1675A,116.7248,23.3632,汕头市,龙湖子站,,40,38,32,21,28,125,125,109,109,4,6,5,6,/,/
2026-04-19T1300,1676A,116.7257,23.2774,汕头市,濠江子站,,37,27,34,15,25,118,118,105,105,8,11,7,8,/,/
2026-04-19T1300,1677A,116.7518,23.4712,汕头市,澄海子站,颗粒物(PM10),51,51,38,21,28,136,136,114,114,9,9,6,7,0.8,0.8
2026-04-19T1300,1678A,116.6088,23.2539,汕头市,潮阳子站,,42,22,32,16,29,132,132,114,114,8,9,6,7,0.7,0.8
2026-04-19T1300,3444A,116.4539,23.2684,汕头市,潮南峡山,,43,36,54,27,39,137,137,113,113,4,10,6,7,0.8,0.8
