timepoint,stationcode,longitude,latitude,area,positionname,primarypollutant,aqi,pm10,pm10_24h,pm2_5,pm2_5_24h,o3,o3_24h,o3_8h,o3_8h_24h,no2,no2_24h,so2,so2_24h,co,co_24h
2026-04-19T1500,2568A,102.2503,31.8896,阿坝藏族羌族自治州,马师校,,36,15,19,8,10,114,114,78,78,3,8,6,6,0.1,0.2
2026-04-19T1500,3994A,102.2174,31.9016,阿坝藏族羌族自治州,马尔康中学西区,,38,38,24,10,11,110,110,88,88,6,8,3,3,0.2,0.2
2026-04-19T1500,2695A,80.2899,41.1684,阿克苏地区,电视台,细颗粒物(PM2.5),204,248,765,154,314,90,90,84,82,4,6,2,2,0.8,0.7
2026-04-19T1500,2696A,80.2592,41.1541,阿克苏地区,艺术中心,细颗粒物(PM2.5),203,198,642,153,335,96,96,89,88,4,7,4,4,0.4,0.4
2026-04-19T1500,2205A,105.699,38.8409,阿拉善盟,蒙二幼,颗粒物(PM10),288,411,850,81,260,102,102,100,94,6,4,8,8,0.3,0.3
2026-04-19T1500,2206A,105.7198,38.8508,阿拉善盟,环保局新楼,颗粒物(PM10),238,376,659,83,267,97,97,98,90,3,3,8,8,0.5,0.5
2026-04-19T1500,2708A,88.1266,47.8515,阿勒泰地区,市站,,29,16,15,3,2,92,92,80,79,5,8,5,7,0.0,0
2026-04-19T1500,4166A,88.1198,47.7931,阿勒泰地区,阿勒泰路33号,,28,14,21,3,2,87,87,77,77,3,6,6,6,0.2,0.2
2026-04-19T1500,2630A,80.1171,32.4999,阿里地区,阿里监测站,,34,10,13,3,5,106,106,108,99,1,3,5,6,0.3,0.3
2026-04-19T1500,3192A,80.0906,32.5029,阿里地区,阿里藏医院,,34,11,13,3,3,106,106,109,108,2,2,7,7,0.3,0.3
2026-04-19T1500,2644A,109.0088,32.6974,安康市,汉滨区检察院,颗粒物(PM10),65,70,54,31,24,71,71,50,50,16,12,6,6,0.5,0.4
2026-04-19T1500,4054A,109.0324,32.6913,安康市,市邮政管理局,颗粒物(PM10),68,74,62,34,27,70,70,56,56,20,18,5,7,0.6,0.6
2026-04-19T1500,2291A,117.0806,30.5181,安庆市,环科院,臭氧1小时(O3_1h),82,53,46,15,30,185,185,142,142,12,18,7,8,0.5,0.6
2026-04-19T1500,2292A,117.0331,30.5118,安庆市,马山宾馆,臭氧1小时(O3_1h),72,43,48,19,31,177,177,138,138,7,16,6,7,0.6,0.6
2026-04-19T1500,2294A,116.9897,30.6146,安庆市,安庆大学,臭氧1小时(O3_1h),84,57,44,16,26,187,187,140,140,9,15,8,4,0.4,0.5
2026-04-19T1500,3173A,117.0598,30.5351,安庆市,市人大,臭氧1小时(O3_1h),63,51,49,12,30,170,170,134,134,5,18,4,5,0.4,0.6
2026-04-19T1500,3123A,105.9408,26.2431,安顺市,凤凰山,,49,47,36,34,24,113,113,93,93,6,7,5,5,0.7,0.6
2026-04-19T1500,3124A,105.9443,26.2567,安顺市,金钟山,细颗粒物(PM2.5),66,47,34,43,24,102,102,82,82,5,6,6,6,0.7,0.6
2026-04-19T1500,3125A,105.8983,26.248,安顺市,娄家坡,细颗粒物(PM2.5),70,NA,31,45,25,104,104,85,85,4,4,2,2,0.7,0.6
2026-04-19T1500,1819A,114.3552,36.1017,安阳市,红庙街,颗粒物(PM10),60,63,78,39,29,139,139,116,116,8,13,6,5,0.4,0.3
2026-04-19T1500,1820A,114.361,36.0681,安阳市,银杏小区,颗粒物(PM10),75,85,90,46,31,143,143,119,119,5,7,7,7,0.3,0.2
2026-04-19T1500,3141A,114.3921,36.0879,安阳市,信访局,颗粒物(PM10),71,79,74,42,32,142,142,121,121,8,10,3,3,0.5,0.5
2026-04-19T1500,3669A,114.4706,36.0634,安阳市,左辅环卫站,颗粒物(PM10),72,80,77,32,30,130,130,108,108,9,14,1,2,0.2,0.4
2026-04-19T1500,4117A,114.2918,36.0769,安阳市,钢三路198号,颗粒物(PM10),79,90,85,37,30,137,137,117,117,9,10,5,4,0.4,0.4
2026-04-19T1500,1748A,123.0441,41.1201,鞍山市,深沟寺,颗粒物(PM10),65,70,74,26,40,168,168,153,153,18,19,14,12,0.8,0.8
2026-04-19T1500,1749A,123.011,41.0931,鞍山市,太阳城,颗粒物(PM10),66,72,82,29,46,161,161,148,148,12,14,11,10,0.9,0.9
2026-04-19T1500,1750A,123.0483,41.1445,鞍山市,太平,颗粒物(PM10),69,76,84,28,43,158,158,150,150,16,17,14,11,1.0,0.7
2026-04-19T1500,1751A,122.964,41.0968,鞍山市,铁西三道街,颗粒物(PM10),69,76,105,32,56,160,160,144,144,14,28,11,9,0.8,1.1
2026-04-19T1500,1753A,123.0219,41.0822,鞍山市,明达新区,颗粒物(PM10),65,71,83,27,40,159,159,148,148,14,15,11,10,0.7,0.7
2026-04-19T1500,4201A,122.944647,41.082639,鞍山市,兴盛南路290号,颗粒物(PM10),75,84,109,35,60,164,164,149,149,16,25,13,11,0.7,1.1
2026-04-19T1500,2195A,107.4206,40.7609,巴彦淖尔市,附二中,颗粒物(PM10),120,170,813,23,207,98,98,92,92,2,4,8,10,0.3,0.3
2026-04-19T1500,2196A,107.37,40.7372,巴彦淖尔市,市环保大楼,颗粒物(PM10),99,118,698,27,195,97,97,93,93,3,4,5,6,0.3,0.3
2026-04-19T1500,1956A,86.1476,41.7529,巴音郭楞蒙古自治州,孔雀公园,颗粒物(PM10),58,60,59,3,15,100,100,73,73,4,11,9,10,0.3,0.3
2026-04-19T1500,1957A,86.1971,41.7166,巴音郭楞蒙古自治州,棉纺厂,颗粒物(PM10),69,76,72,25,27,103,103,76,76,2,6,/,/,/,/
2026-04-19T1500,1958A,86.236,41.7172,巴音郭楞蒙古自治州,经济开发区,,33,33,52,3,18,96,96,76,76,2,4,7,8,0.3,0.3
2026-04-19T1500,3181A,106.776805,31.852614,巴中市,市五中,,36,36,55,19,32,64,64,33,28,8,20,9,9,0.6,0.7
2026-04-19T1500,3183A,106.7419,31.8654,巴中市,圣泉水务公司,,28,28,50,19,27,63,63,47,47,9,21,9,9,0.7,0.7
2026-04-19T1500,3616A,106.7617,31.8343,巴中市,市中心医院,,32,32,56,18,34,72,72,38,38,8,22,9,9,0.6,0.7
2026-04-19T1500,2235A,122.7909,45.608,白城市,洮北区环保局,颗粒物(PM10),76,86,55,46,33,73,73,81,68,10,8,4,5,0.1,0
2026-04-19T1500,2236A,122.8741,45.5725,白城市,市环保局,颗粒物(PM10),83,95,58,45,33,70,70,69,69,20,20,5,5,0.3,0.2
2026-04-19T1500,2231A,126.4219,41.9172,白山市,喜丰,颗粒物(PM10),85,99,90,14,30,125,125,96,96,6,20,8,10,0.8,1.1
2026-04-19T1500,2232A,126.4082,41.9416,白山市,环保局,颗粒物(PM10),68,74,63,15,25,130,130,99,99,7,17,9,10,0.7,0.7
2026-04-19T1500,2647A,104.1727,36.5448,白银市,第三小学,细颗粒物(PM2.5),76,NA,366,48,130,86,86,93,87,2,4,4,7,0.3,0.3
2026-04-19T1500,2648A,104.1467,36.5482,白银市,动力公司,,41,41,322,14,99,89,89,93,90,3,6,5,6,0.1,0.1
2026-04-19T1500,2512A,106.6102,23.901,百色市,市监测站,,44,44,34,26,24,111,111,86,86,8,10,15,16,1.0,1
2026-04-19T1500,2513A,106.6524,23.8842,百色市,市中心血站,,46,46,39,10,26,109,109,88,88,10,12,13,16,0.8,0.8
2026-04-19T1500,4133A,106.6273,23.8798,百色市,龙景西路,,45,45,38,29,31,118,118,90,90,9,12,16,18,0.8,0.8
2026-04-19T1500,2270A,117.396,32.9389,蚌埠市,工人疗养院,臭氧1小时(O3_1h),58,55,60,12,18,166,166,124,124,16,30,5,6,0.4,0.4
2026-04-19T1500,2271A,117.3606,32.9428,蚌埠市,百货大楼,臭氧1小时(O3_1h),65,54,52,11,16,172,172,132,132,8,17,7,7,0.4,0.4
2026-04-19T1500,2273A,117.4183,32.8909,蚌埠市,蚌埠学院,,50,46,49,11,19,160,160,124,124,8,21,6,6,0.5,0.4
2026-04-19T1500,2274A,117.3534,32.9672,蚌埠市,淮上区政府,臭氧1小时(O3_1h),67,48,58,12,20,173,173,120,120,15,34,6,7,0.3,0.3
2026-04-19T1500,2275A,117.3143,32.8977,蚌埠市,高新区,臭氧1小时(O3_1h),63,61,48,16,16,170,170,131,131,10,18,9,8,0.6,0.5
2026-04-19T1500,3715A,117.3091,32.9314,蚌埠市,蚌埠田家炳中学,臭氧1小时(O3_1h),72,73,54,15,17,177,177,140,140,23,15,8,6,0.5,0.3
2026-04-19T1500,1585A,109.8761,40.6533,包头市,市环境监测站,颗粒物(PM10),154,258,472,21,116,102,102,105,92,4,10,5,6,0.4,0.4
2026-04-19T1500,1587A,109.9992,40.5843,包头市,包头八中,NA,NA,NA,503,31,126,94,94,95,85,2,8,5,6,0.4,0.4
2026-04-19T1500,1589A,109.8641,40.6288,包头市,惠龙物流,颗粒物(PM10),140,224,465,37,132,97,97,98,87,3,7,4,6,0.4,0.4
2026-04-19T1500,1590A,110.0376,40.5546,包头市,东河鸿龙湾,颗粒物(PM10),130,198,400,26,106,97,97,98,87,3,10,9,11,0.4,0.4
2026-04-19T1500,3283A,109.9154,40.5684,包头市,滨河大厦,颗粒物(PM10),136,212,470,26,121,99,99,98,88,3,8,8,9,0.5,0.5
2026-04-19T1500,3419A,109.9449,40.6259,包头市,包头市委党校,颗粒物(PM10),133,205,474,41,113,95,95,98,87,3,8,5,6,0.2,0.3
2026-04-19T1500,3683A,109.8332,40.6577,包头市,昆区政府,颗粒物(PM10),142,228,466,45,113,103,103,97,90,5,12,2,5,0.4,0.5
2026-04-19T1500,1931A,107.0802,34.3129,宝鸡市,竹园沟,颗粒物(PM10),440,540,208,67,48,93,93,70,66,5,12,6,7,0.3,0.4
2026-04-19T1500,1933A,107.1429,34.3549,宝鸡市,监测站,颗粒物(PM10),420,520,202,107,58,90,90,66,64,3,17,5,6,0.5,0.5
2026-04-19T1500,1934A,107.1172,34.3759,宝鸡市,技工学校,颗粒物(PM10),417,517,174,102,55,92,92,69,62,6,16,3,6,0.3,0.6
2026-04-19T1500,1936A,107.2025,34.3518,宝鸡市,文理学院,颗粒物(PM10),482,582,196,122,60,87,87,69,60,9,21,5,6,0.3,0.5
2026-04-19T1500,1937A,107.2396,34.3626,宝鸡市,三迪小学,颗粒物(PM10),500,623,206,171,70,89,89,65,62,10,26,5,6,0.3,0.5
2026-04-19T1500,4155A,107.1721,34.3558,宝鸡市,滨河北路,颗粒物(PM10),354,463,178,142,65,82,82,60,56,12,19,6,8,0.3,0.6
2026-04-19T1500,4308A,107.3898,34.3601,宝鸡市,陈仓区北开路21号,颗粒物(PM10),500,821,301,180,87,80,80,67,67,8,21,6,8,0.2,0.4
2026-04-19T1500,1051A,115.4803,38.8568,保定市,游泳馆,颗粒物(PM10),77,87,75,41,36,106,106,99,99,14,18,4,4,0.2,0.1
2026-04-19T1500,1052A,115.509,38.8895,保定市,华电二区,细颗粒物(PM2.5),84,85,67,52,31,104,104,98,98,11,13,3,2,0.5,0.4
2026-04-19T1500,1053A,115.4588,38.9037,保定市,接待中心,颗粒物(PM10),89,104,72,49,34,98,98,93,93,12,12,2,3,0.2,0.1
2026-04-19T1500,1054A,115.4484,38.8344,保定市,地表水厂,细颗粒物(PM2.5),88,97,79,54,32,108,108,96,96,14,17,5,4,0.5,0.4
2026-04-19T1500,3581A,115.3136,38.9511,保定市,满城区生态环境分局,颗粒物(PM10),134,207,99,20,30,95,95,83,83,9,18,3,3,0.2,0.3
2026-04-19T1500,3582A,115.4709,38.7628,保定市,清苑区第二中学,颗粒物(PM10),110,145,92,52,34,111,111,95,95,14,20,7,6,0.5,0.3
2026-04-19T1500,3583A,115.6231,39.0223,保定市,徐水物探局,颗粒物(PM10),99,118,109,40,42,91,91,88,88,17,20,3,3,0.5,0.4
2026-04-19T1500,4004A,115.4199,38.8665,保定市,双鹰农机,颗粒物(PM10),86,100,87,52,36,106,106,93,93,12,15,5,5,0.3,0.2
2026-04-19T1500,4034A,115.515,38.8589,保定市,植保所站,颗粒物(PM10),106,135,96,58,35,109,109,96,96,13,21,3,3,0.3,0.3
2026-04-19T1500,2594A,99.1589,25.1137,保山市,市环境监测站,细颗粒物(PM2.5),60,52,61,40,42,135,135,118,118,8,9,6,6,0.3,0.4
2026-04-19T1500,2595A,99.1616,25.1381,保山市,市环保局,颗粒物(PM10),65,70,67,39,43,136,136,120,120,8,7,7,7,0.5,0.4
2026-04-19T1500,1867A,109.1435,21.4085,北海市,海滩公园,,45,42,38,31,31,86,86,63,63,7,9,7,9,0.9,0.7
2026-04-19T1500,1868A,109.0983,21.466,北海市,新市环保局,,36,35,33,25,26,81,81,57,57,8,11,9,4,1.0,1.1
2026-04-19T1500,1869A,109.1775,21.5232,北海市,北海工业园,,47,47,52,21,33,88,88,61,61,4,15,7,12,0.4,0.6
2026-04-19T1500,3400A,109.1844,21.4396,北海市,龙潭自来水厂,,32,32,37,19,27,82,82,55,55,5,13,8,10,0.9,1.1
2026-04-19T1500,1001A,116.3611,39.8786,北京市,万寿西宫,颗粒物(PM10),83,96,88,27,39,86,86,82,82,4,20,2,4,0.2,0.5
2026-04-19T1500,1003A,116.4174,39.9289,北京市,东四,颗粒物(PM10),85,99,86,23,44,92,92,97,97,5,19,1,3,0,0.2
2026-04-19T1500,1004A,116.4073,39.8858,北京市,天坛,颗粒物(PM10),90,106,80,24,36,80,80,81,81,8,18,4,5,0.3,0.5
2026-04-19T1500,1005A,116.4622,39.9364,北京市,农展馆,颗粒物(PM10),94,111,82,27,37,83,83,88,88,4,17,2,4,0.3,0.5
2026-04-19T1500,1006A,116.3399,39.9293,北京市,官园,颗粒物(PM10),79,90,89,29,44,78,78,79,78,8,21,1,2,0.2,0.5
2026-04-19T1500,1007A,116.2879,39.9613,北京市,海淀万柳,颗粒物(PM10),76,86,90,26,46,75,75,65,65,4,23,4,5,0.2,0.5
2026-04-19T1500,1008A,116.6635,40.1349,北京市,顺义新城,颗粒物(PM10),56,58,86,19,42,88,88,84,84,2,8,4,6,0.2,0.4
2026-04-19T1500,1009A,116.6275,40.327,北京市,怀柔镇,颗粒物(PM10),77,87,95,20,52,87,87,81,81,1,18,4,5,0.5,0.8
2026-04-19T1500,1010A,116.2295,40.217,北京市,昌平镇,颗粒物(PM10),110,145,97,35,45,72,72,76,76,11,23,2,3,0.3,0.5
2026-04-19T1500,1011A,116.3968,39.982,北京市,奥体中心,颗粒物(PM10),80,92,84,24,36,78,78,81,81,8,19,3,4,0.3,0.6
2026-04-19T1500,3418A,116.8336,40.4095,北京市,密云新城,颗粒物(PM10),55,56,84,16,36,80,80,88,88,1,16,4,6,0.2,0.5
2026-04-19T1500,3671A,116.0879,39.9725,北京市,门头沟三家店,颗粒物(PM10),90,105,99,28,47,88,88,68,68,3,27,2,2,0.2,0.4
2026-04-19T1500,3672A,116.1507,39.8246,北京市,丰台云岗,颗粒物(PM10),68,74,97,19,47,88,88,75,75,6,24,2,3,0.3,0.5
2026-04-19T1500,3674A,115.9578,39.7602,北京市,房山燕山,,42,42,94,12,41,89,89,70,70,4,16,3,3,0.3,0.6
2026-04-19T1500,3675A,116.4669,39.7734,北京市,大兴旧宫,颗粒物(PM10),83,96,82,29,35,90,90,91,91,4,15,3,2,0.3,0.6
2026-04-19T1500,3694A,115.9859,40.4562,北京市,延庆石河营,颗粒物(PM10),115,159,97,52,56,70,70,88,79,3,10,3,1,0.3,0.6
2026-04-19T1500,3695A,116.6151,40.3052,北京市,怀柔新城,颗粒物(PM10),58,60,88,16,48,86,86,78,78,3,17,3,4,0.4,0.7
2026-04-19T1500,3696A,116.2542,39.8764,北京市,丰台小屯,颗粒物(PM10),68,75,89,21,44,84,84,74,74,6,25,2,3,0.1,0.4
2026-04-19T1500,3697A,116.8399,40.3843,北京市,密云镇,颗粒物(PM10),65,70,84,17,42,84,84,96,93,4,14,6,9,0.3,0.5
2026-04-19T1500,4057A,115.9423,40.4431,北京市,延庆百泉,颗粒物(PM10),107,136,88,44,47,63,63,76,75,5,12,3,2,0.4,0.6
2026-04-19T1500,4058A,116.6598,39.9164,北京市,通州新华,颗粒物(PM10),116,160,89,35,37,72,72,86,86,13,21,3,4,0.3,0.5
2026-04-19T1500,4182A,116.1942,39.9158,北京市,石景山八角,颗粒物(PM10),88,103,112,23,48,81,81,70,70,8,29,5,4,0.2,0.5
2026-04-19T1500,4194A,117.078628,40.151726,北京市,平谷新城,颗粒物(PM10),119,169,92,54,39,89,89,110,108,6,16,1,4,0.3,0.5
2026-04-19T1500,1761A,123.8274146,41.31234549,本溪市,大峪,颗粒物(PM10),51,51,65,14,27,144,144,144,144,3,9,7,7,0.6,0.7
2026-04-19T1500,1763A,123.7169,41.3094,本溪市,彩屯,,48,48,77,12,42,150,150,143,143,5,21,10,15,0.8,2.1
2026-04-19T1500,1764A,123.7672166,41.28649327,本溪市,东明,颗粒物(PM10),69,76,75,12,30,143,143,144,142,8,11,5,5,0.4,0.5
2026-04-19T1500,1765A,123.799345,41.266614,本溪市,新立屯,颗粒物(PM10),69,76,68,11,28,147,147,148,142,4,13,8,8,0.6,0.7
2026-04-19T1500,1766A,123.829144,41.336777,本溪市,威宁,颗粒物(PM10),75,84,78,15,29,139,139,134,134,9,19,8,7,0.5,0.7
2026-04-19T1500,2587A,105.287,27.3133,毕节市,八中,细颗粒物(PM2.5),60,52,50,40,33,118,118,88,88,8,14,8,9,0.6,0.7
2026-04-19T1500,2588A,105.3079,27.2987,毕节市,师专,细颗粒物(PM2.5),62,46,48,41,32,106,106,81,81,7,11,11,11,0.5,0.6
2026-04-19T1500,4263A,105.3688,27.3598,毕节市,工业大道,颗粒物(PM10),56,58,51,32,29,121,121,94,94,6,9,10,11,/,/
2026-04-19T1500,1629A,117.9961,37.3604,滨州市,第二水厂,颗粒物(PM10),83,95,121,12,50,135,135,120,120,8,26,8,11,0.5,0.8
2026-04-19T1500,1630A,117.9789,37.3931,滨州市,北中新校,颗粒物(PM10),68,75,100,7,45,142,142,129,129,11,25,14,17,0.2,0.6
2026-04-19T1500,3514A,117.9379,37.3959,滨州市,中海酒店,NA,NA,66,99,3,41,142,142,135,135,12,29,12,18,NA,1
2026-04-19T1500,3515A,117.9381509,37.35547456,滨州市,开发区一中,颗粒物(PM10),67,73,125,6,53,132,132,121,121,9,33,10,16,0.6,1
2026-04-19T1500,3516A,118.0914,37.6938,滨州市,金海六路,颗粒物(PM10),88,102,108,16,47,163,163,130,130,11,29,10,11,0.5,0.6
2026-04-19T1500,4028A,117.9955,37.3752,滨州市,滨州市西街道办事处,颗粒物(PM10),105,132,128,9,46,138,138,124,124,12,23,7,10,0.3,0.6
2026-04-19T1500,2311A,115.8071,33.8399,亳州市,污水处理厂,,47,47,61,11,26,150,150,117,117,10,14,5,6,0.2,0.2
2026-04-19T1500,2312A,115.7789,33.8519,亳州市,三国揽胜宫,颗粒物(PM10),52,52,55,12,20,141,141,115,115,6,9,8,8,0.2,0.2
2026-04-19T1500,3332A,115.7631,33.803,亳州市,亳州学院,,45,40,54,14,22,141,141,115,115,5,9,6,7,0.3,0.3
2026-04-19T1500,2693A,82.0482,44.8553,博尔塔拉蒙古自治州,市党校,颗粒物(PM10),60,63,84,9,15,87,87,76,76,2,2,4,2,0.5,0.5
2026-04-19T1500,2694A,82.0805,44.8966,博尔塔拉蒙古自治州,市环保局,颗粒物(PM10),60,64,85,3,12,81,81,70,70,6,8,6,4,0.3,0.3
2026-04-19T1500,1071A,116.8733,38.2922,沧州市,沧县城建局,颗粒物(PM10),70,78,80,37,40,147,147,118,118,11,17,6,6,0.8,0.7
2026-04-19T1500,1072A,116.8462,38.3189,沧州市,电视转播站,颗粒物(PM10),72,80,88,44,41,157,157,127,127,11,14,10,10,0.3,0.3
2026-04-19T1500,1073A,116.8588,38.3161,沧州市,市环保局,颗粒物(PM10),76,86,89,23,32,154,154,125,125,8,14,7,8,0.6,0.6
2026-04-19T1500,3324A,116.8011,38.294,沧州市,河北水利电力学院,颗粒物(PM10),72,80,90,42,45,141,141,117,117,9,16,8,10,0.4,0.4
2026-04-19T1500,2622A,97.1813,31.1289,昌都市,昌都监测站,,31,6,13,3,5,97,97,77,77,6,9,9,9,0.2,0.2
2026-04-19T1500,3719A,97.1707,31.1428,昌都市,昌都会议中心,,33,7,13,3,4,105,105,82,82,4,5,6,6,0.3,0.3
2026-04-19T1500,2692A,87.2722,44.0298,昌吉回族自治州,新区政务中心,,31,28,27,6,13,98,98,63,63,7,19,4,5,0.2,0.4
2026-04-19T1500,3613A,87.3069,44.0093,昌吉回族自治州,亚心广场,,33,24,39,9,12,103,103,67,67,2,21,6,6,0.3,0.4
2026-04-19T1500,4164A,87.2057,43.9289,昌吉回族自治州,财政所,NA,NA,44,65,NA,41,96,96,50,50,11,15,8,7,0.2,0.4
2026-04-19T1500,1120A,125.2874,43.9024,长春市,客车厂,颗粒物(PM10),131,199,132,27,36,136,136,136,136,12,19,8,9,0.5,0.5
2026-04-19T1500,1121A,125.2943,43.8508,长春市,邮电学院,颗粒物(PM10),118,166,122,28,38,146,146,148,148,7,12,8,9,0.5,0.5
2026-04-19T1500,1122A,125.3648,43.8745,长春市,劳动公园,颗粒物(PM10),128,192,98,29,37,144,144,144,144,11,19,8,9,0.5,0.6
2026-04-19T1500,1123A,125.3233,43.8781,长春市,园林处,颗粒物(PM10),127,188,107,26,37,148,148,151,151,10,16,7,9,0.2,0.3
2026-04-19T1500,1124A,125.4604,43.7904,长春市,净月潭,颗粒物(PM10),115,157,76,28,32,145,145,144,144,9,12,7,8,0.5,0.5
2026-04-19T1500,1126A,125.38,43.8422,长春市,经开区环卫处,颗粒物(PM10),119,167,108,24,28,144,144,144,144,9,19,7,8,0.6,0.6
2026-04-19T1500,1127A,125.234,43.7761,长春市,高新区管委会,颗粒物(PM10),113,153,111,26,35,143,143,145,145,7,15,9,10,0.4,0.4
2026-04-19T1500,1128A,125.1695,43.83,长春市,岱山公园,颗粒物(PM10),114,156,114,27,37,148,148,151,151,9,18,5,6,0.3,0.5
2026-04-19T1500,4281A,125.334645,43.916281,长春市,北亚泰大街1068号,颗粒物(PM10),135,211,128,29,38,140,140,142,142,13,19,6,7,0.3,0.3
2026-04-19T1500,1335A,113.082,28.2421,长沙市,经开区环保局,,45,45,57,22,29,143,143,104,104,7,25,6,7,0.6,0.7
2026-04-19T1500,1336A,112.8873,28.2202,长沙市,高开区环保局,,32,27,62,22,40,89,89,92,92,6,37,6,6,0.7,0.9
2026-04-19T1500,1337A,113.0785,28.2012,长沙市,马坡岭,,48,46,71,20,37,153,153,109,109,7,29,8,7,0.8,0.8
2026-04-19T1500,1338A,112.9448,28.1894,长沙市,湖南师范大学,,47,47,51,21,27,147,147,110,110,5,16,8,7,0.9,0.9
2026-04-19T1500,1339A,113.0177,28.1322,长沙市,雨花区环保局,,42,39,52,18,29,134,134,109,109,1,22,6,5,0.8,0.9
2026-04-19T1500,1340A,112.9795,28.2593,长沙市,伍家岭,,46,46,74,21,41,145,145,105,105,7,29,6,5,0.6,0.7
2026-04-19T1500,1341A,113.002,28.1944,长沙市,火车新站,,43,41,67,21,40,135,135,104,104,3,31,6,5,0.7,0.8
2026-04-19T1500,1342A,112.9846,28.1177,长沙市,天心区环保局,,45,41,58,19,33,141,141,112,112,4,25,8,7,0.9,1
2026-04-19T1500,1343A,112.8906,28.1307,长沙市,湖南中医药大学,,42,41,62,18,34,133,133,106,106,5,32,7,7,0.6,1
2026-04-19T1500,1727A,113.1146,36.1547,长治市,清华站,颗粒物(PM10),51,51,48,22,23,116,116,122,122,14,14,8,9,0.5,0.5
2026-04-19T1500,1730A,113.0887,36.2126,长治市,审计局,颗粒物(PM10),66,72,55,30,27,116,116,117,117,9,10,8,9,0.4,0.4
2026-04-19T1500,1731A,113.0845,36.1856,长治市,长治八中,颗粒物(PM10),67,73,66,21,25,115,115,116,116,10,14,9,10,0.6,0.6
2026-04-19T1500,2845A,113.1561,36.1912,长治市,德盛苑,颗粒物(PM10),56,58,49,31,25,119,119,126,126,12,12,9,9,0.5,0.5
2026-04-19T1500,3568A,113.0603,36.0464,长治市,向阳小学,颗粒物(PM10),71,79,87,37,25,121,121,124,124,14,17,7,8,0.6,0.6
2026-04-19T1500,3569A,112.8788,36.315,长治市,屯留一中,颗粒物(PM10),83,96,62,29,27,111,111,101,101,14,13,10,9,0.6,0.5
2026-04-19T1500,4189A,113.113092,36.199482,长治市,英华南巷50号,颗粒物(PM10),55,57,58,27,26,120,120,124,124,8,9,3,4,0.5,0.6
2026-04-19T1500,4190A,113.23666,36.33435,长治市,学府街1号,颗粒物(PM10),75,84,68,26,24,112,112,112,112,12,15,8,6,0.8,0.8
2026-04-19T1500,1854A,111.696,28.9725,常德市,市二中,,40,38,51,16,33,126,126,102,102,4,12,9,10,0.8,0.9
2026-04-19T1500,3138A,111.7152,29.0288,常德市,武陵区永安,,42,41,53,18,36,134,134,101,101,3,12,7,7,0.6,0.7
2026-04-19T1500,3139A,111.6891,28.9881,常德市,鼎城区玉霞,,41,38,51,17,33,130,130,97,97,3,10,11,11,0.8,0.8
2026-04-19T1500,3140A,111.6651,29.0526,常德市,武陵区长庚,,42,36,51,21,34,133,133,92,92,2,8,9,10,0.8,0.8
2026-04-19T1500,1196A,119.9524,31.7586,常州市,市监测站,,43,23,46,3,19,136,136,116,116,6,26,6,7,0.5,0.7
2026-04-19T1500,1200A,119.9351,31.703,常州市,武进监测站,,47,27,45,9,22,149,149,114,114,10,27,2,8,0.5,0.7
2026-04-19T1500,3002A,119.9701,31.813,常州市,行政中心,,35,22,45,3,18,111,111,109,109,9,28,6,9,0.4,0.6
2026-04-19T1500,3003A,120.0434,31.7726,常州市,经开区,,38,18,48,3,19,119,119,106,106,2,33,3,3,0.7,0.9
2026-04-19T1500,3010A,119.8919,31.7892,常州市,钟楼,臭氧1小时(O3_1h),57,32,40,7,16,165,165,122,122,14,30,14,10,0.2,0.5
2026-04-19T1500,3429A,119.8595,31.706,常州市,武进经发区,,50,20,50,9,24,159,159,115,115,13,43,8,9,0.3,0.6
2026-04-19T1500,3430A,119.5812,31.7256,常州市,金坛城区,,46,11,49,6,26,146,146,122,122,2,23,8,12,0.5,0.8
2026-04-19T1500,4089A,119.9551,31.863,常州市,崇义南街5-H号,,36,20,49,3,15,114,114,113,113,1,31,7,10,0.4,0.5
2026-04-19T1500,2220A,120.4318,41.588,朝阳市,西梁,颗粒物(PM10),93,110,84,51,56,107,107,135,134,11,15,6,8,0.3,0.7
2026-04-19T1500,2221A,120.452,41.565,朝阳市,河畔小区,颗粒物(PM10),83,96,70,36,52,126,126,149,147,12,14,9,11,0.5,0.7
2026-04-19T1500,2222A,120.4176,41.5648,朝阳市,八里堡,颗粒物(PM10),112,150,78,43,62,113,113,135,134,13,17,8,9,0.4,0.9
2026-04-19T1500,3026A,116.6179,23.6608,潮州市,市政府,,49,49,46,20,35,156,156,124,124,6,10,2,4,0.6,0.6
2026-04-19T1500,4036A,116.646,23.676,潮州市,金山,,47,32,42,19,34,148,148,119,119,5,9,3,3,0.4,0.5
2026-04-19T1500,2473A,113.0116,25.8228,郴州市,市职中,,34,16,33,11,20,108,108,66,66,12,18,8,8,0.6,0.8
2026-04-19T1500,2475A,113.0381,25.8074,郴州市,市审计局,,36,17,34,12,20,114,114,72,72,7,18,3,3,/,/
2026-04-19T1500,2476A,113.0348,25.7757,郴州市,市环保局,颗粒物(PM10),58,60,39,13,19,106,106,71,71,18,22,8,8,0.6,0.8
2026-04-19T1500,4252A,113.0138,25.8011,郴州市,好美居路49号,,37,23,32,3,20,116,116,74,74,6,18,9,7,/,/
2026-04-19T1500,1431A,103.9727,30.7242,成都市,金泉两河,颗粒物(PM10),58,60,74,32,45,145,145,115,115,11,27,4,5,0.4,0.5
2026-04-19T1500,1432A,104.1423,30.6765,成都市,十里店,颗粒物(PM10),59,62,76,35,47,109,109,103,103,24,24,5,8,0.6,0.6
2026-04-19T1500,1433A,104.0594,30.5765,成都市,三瓦窑,颗粒物(PM10),58,60,69,30,43,158,158,112,112,4,33,4,6,0.6,0.7
2026-04-19T1500,1434A,104.1122,30.6306,成都市,沙河铺,颗粒物(PM10),53,54,76,31,44,114,114,88,88,19,33,5,4,0.2,0.4
2026-04-19T1500,2880A,104.0219,30.6561,成都市,大石西路,颗粒物(PM10),93,109,77,52,50,113,113,102,102,16,25,5,6,0.7,0.7
2026-04-19T1500,3136A,104.2724,30.559,成都市,龙泉驿区区政府,,40,36,46,20,32,128,128,103,103,4,11,8,8,0.4,0.5
2026-04-19T1500,3357A,104.0028,30.6891,成都市,金博路,颗粒物(PM10),70,78,69,37,46,132,132,110,110,16,33,7,9,0.5,0.6
2026-04-19T1500,3359A,104.056,30.5228,成都市,华阳,,46,44,64,26,44,146,146,105,105,10,36,6,7,0.3,0.5
2026-04-19T1500,3488A,104.387954,30.746684,成都市,青石路225号,,43,40,54,19,34,135,135,99,99,5,29,7,8,0.5,0.7
2026-04-19T1500,3489A,104.0788,30.4054,成都市,科学城,,45,32,55,6,33,144,144,97,97,4,19,5,6,0.9,0.8
2026-04-19T1500,4011A,103.8505,30.6946,成都市,光华大道三段,颗粒物(PM10),60,64,75,32,42,162,162,126,126,13,27,5,6,0.6,0.7
2026-04-19T1500,4144A,104.3257,30.6406,成都市,八角井街185号,,48,48,59,22,33,123,123,93,93,8,15,6,6,0.4,0.4
2026-04-19T1500,4224A,104.2433276,30.53529463,成都市,鲸龙路1057号,,48,48,62,17,34,134,134,105,105,5,26,7,8,0.6,0.7
2026-04-19T1500,1062A,117.9531,40.908,承德市,铁路,颗粒物(PM10),94,111,108,38,38,78,78,114,103,5,17,2,4,0.1,0.4
2026-04-19T1500,1063A,117.9397,40.9763,承德市,中国银行,颗粒物(PM10),103,127,110,42,42,72,72,82,82,8,15,1,3,0.1,0.4
2026-04-19T1500,4073A,117.9462,40.95,承德市,杏林街1号,颗粒物(PM10),113,153,104,42,41,81,81,126,110,3,8,1,3,0.1,0.4
2026-04-19T1500,4274A,117.7994,40.9605,承德市,滨河大街98号,颗粒物(PM10),69,76,98,36,43,77,77,85,85,6,16,1,4,0.2,0.4
2026-04-19T1500,2314A,117.4698,30.6617,池州市,池州学院,臭氧1小时(O3_1h),63,36,45,21,30,170,170,136,136,17,25,4,5,0.9,1.1
2026-04-19T1500,3237A,117.4918,30.6617,池州市,展览馆,臭氧1小时(O3_1h),68,33,42,20,28,174,174,138,138,12,20,3,3,0.5,0.7
2026-04-19T1500,3333A,117.5626,30.695,池州市,第八中学,,49,32,42,19,27,156,156,131,131,33,25,5,4,0.4,0.7
2026-04-19T1500,3334A,117.5037,30.6242,池州市,第十二中学,臭氧1小时(O3_1h),58,43,45,24,29,166,166,130,130,21,32,4,4,0.5,0.9
2026-04-19T1500,1744A,118.9229,42.2816,赤峰市,松山一中,颗粒物(PM10),79,90,98,23,39,66,66,134,93,18,15,6,8,0.4,0.6
2026-04-19T1500,1745A,118.9588,42.2733,赤峰市,哈达街,颗粒物(PM10),78,88,102,20,36,69,69,116,87,3,6,9,10,0.6,0.7
2026-04-19T1500,1746A,118.8792,42.2551,赤峰市,天义路,颗粒物(PM10),71,79,77,30,40,77,77,131,96,6,10,5,6,0,0.1
2026-04-19T1500,3058A,119.2656,42.0356,赤峰市,银河街,颗粒物(PM10),108,139,113,30,44,86,86,120,110,6,10,6,12,0.3,0.5
2026-04-19T1500,3286A,118.9359,42.3146,赤峰市,桥北物流园区,颗粒物(PM10),79,90,99,23,40,67,67,126,91,7,9,3,3,0.4,0.5
2026-04-19T1500,2521A,107.3473,22.4137,崇左市,市环保局江州分局,,37,37,42,24,28,87,87,66,66,5,10,2,4,0.7,0.8
2026-04-19T1500,4256A,107.375,22.3736,崇左市,石景林东路7号,,39,30,41,27,26,90,90,76,76,6,13,3,2,1.0,1
2026-04-19T1500,3207A,118.31131,32.3033,滁州市,市政府原办公楼,臭氧1小时(O3_1h),82,50,42,27,29,185,185,127,127,16,24,10,7,0.7,0.5
2026-04-19T1500,3331A,118.3268,32.2633,滁州市,图书馆,臭氧1小时(O3_1h),78,49,41,11,18,182,182,128,128,12,21,11,11,0.5,0.4
2026-04-19T1500,4101A,118.3196,32.3335,滁州市,银山路666号,臭氧1小时(O3_1h),104,52,48,24,21,207,207,140,140,15,22,13,9,0.6,0.3
2026-04-19T1500,4102A,118.3426,32.2979,滁州市,黄山路555号,臭氧1小时(O3_1h),94,57,58,19,23,195,195,134,134,13,26,11,8,0.9,0.6
2026-04-19T1500,2606A,101.5379,25.0492,楚雄彝族自治州,市经济开发区,,41,41,58,27,39,128,128,106,106,5,14,1,3,0.5,0.6
2026-04-19T1500,4153A,101.5536,25.0343,楚雄彝族自治州,团结路562号,,42,37,45,25,31,134,134,NA,NA,4,7,3,4,0.4,0.4
2026-04-19T1500,2549A,107.5087,31.2186,达州市,市环境监测站,,45,45,54,18,24,85,85,43,43,19,34,9,7,0.2,0.3
2026-04-19T1500,2550A,107.4988,31.2132,达州市,凤凰小区,,41,41,55,17,26,90,90,47,47,12,32,8,7,0.2,0.3
2026-04-19T1500,2551A,107.5081,31.1987,达州市,达县机关宾馆,,44,44,58,12,29,94,94,53,53,17,40,7,6,0.3,0.4
2026-04-19T1500,2552A,107.4644,31.2124,达州市,市政中心,,39,39,60,13,24,93,93,44,44,13,39,7,7,0.3,0.5
2026-04-19T1500,2614A,100.2168,25.5818,大理白族自治州,大理市环境监测站,,48,40,53,33,37,109,109,101,101,10,11,4,4,0.5,0.5
2026-04-19T1500,2615A,100.1542,25.7055,大理白族自治州,大理古城,,35,30,51,20,32,112,112,104,104,4,8,4,4,0.5,0.5
2026-04-19T1500,1109A,121.6119,38.974,大连市,甘井子,,47,41,34,16,16,148,148,91,91,24,21,10,9,0.6,0.6
2026-04-19T1500,1110A,121.565,38.9509,大连市,周水子,颗粒物(PM10),51,51,45,20,22,114,114,84,84,29,31,16,8,0.6,0.6
2026-04-19T1500,1111A,121.5637,38.8849,大连市,星海三站,,40,40,43,22,26,98,98,67,67,29,24,6,5,0.4,0.4
2026-04-19T1500,1112A,121.6301,38.9117,大连市,青泥洼桥,,50,50,48,14,21,156,156,120,120,14,21,8,6,0.6,0.7
2026-04-19T1500,1113A,121.6248,38.8643,大连市,傅家庄,,36,36,38,16,20,91,91,67,67,31,20,10,9,0.5,0.4
2026-04-19T1500,1114A,121.5117,38.8636,大连市,七贤岭,,37,37,46,19,21,94,94,68,68,37,26,8,7,0.4,0.5
2026-04-19T1500,1116A,121.7507,39.1339,大连市,金州,,49,49,44,24,28,129,129,107,107,28,17,8,6,0.4,0.4
2026-04-19T1500,1117A,121.7811,39.0495,大连市,开发区,,41,41,44,17,18,104,104,75,75,30,23,14,8,0.4,0.3
2026-04-19T1500,1118A,121.9762,39.0631,大连市,双D港,,40,40,22,24,12,51,51,56,56,33,17,5,5,0.6,0.6
2026-04-19T1500,4082A,121.2548,38.8188,大连市,旅顺,,38,38,40,17,22,105,105,83,83,25,22,10,9,0.4,0.4
2026-04-19T1500,1789A,124.8085,46.0381,大庆市,大同区,细颗粒物(PM2.5),110,119,57,70,31,101,101,100,100,16,15,7,4,0.8,0.5
2026-04-19T1500,1790A,125.1166,46.5255,大庆市,龙凤区,,47,47,42,23,23,66,66,62,62,12,13,6,5,0.2,0.3
2026-04-19T1500,1791A,124.8894,46.4007,大庆市,红岗区,细颗粒物(PM2.5),64,54,35,42,24,74,74,73,72,14,6,30,11,0.5,0.5
2026-04-19T1500,1792A,125.1391,46.578,大庆市,萨尔图区,颗粒物(PM10),84,97,56,20,15,77,77,73,73,11,10,8,6,0.3,0.2
2026-04-19T1500,1793A,124.9026,46.6217,大庆市,让胡路区,,44,44,39,23,20,54,54,69,57,21,15,2,2,0.4,0.3
2026-04-19T1500,3481A,125.127,46.6277,大庆市,萨区政府监测点,,40,40,29,19,13,64,64,67,65,9,5,10,9,0.3,0.3
2026-04-19T1500,1723A,113.2926,40.0759,大同市,云冈宾馆,颗粒物(PM10),500,613,244,150,82,72,72,91,74,17,20,5,6,0.1,0.2
2026-04-19T1500,1724A,113.3437,40.0921,大同市,大同大学,细颗粒物(PM2.5),134,160,83,97,75,81,81,98,74,14,21,1,3,0.4,0.5
2026-04-19T1500,1725A,113.2637,40.129,大同市,安家小村,颗粒物(PM10),500,663,324,105,86,79,79,96,72,9,18,4,6,0.3,0.4
2026-04-19T1500,3282A,113.3399,40.0586,大同市,大同市卫生学校,颗粒物(PM10),469,569,314,126,73,81,81,102,80,14,18,6,6,0.5,0.5
2026-04-19T1500,3565A,113.1371,40.1122,大同市,云冈站,颗粒物(PM10),500,636,328,84,80,81,81,88,66,5,16,3,7,0.3,0.4
2026-04-19T1500,3566A,113.1186,40.2556,大同市,图书馆,颗粒物(PM10),500,679,282,61,82,89,89,95,75,4,15,4,9,0.5,0.7
2026-04-19T1500,3567A,113.5931,40.0459,大同市,区一中,颗粒物(PM10),337,449,227,95,64,100,100,98,87,8,14,8,8,0.6,0.8
2026-04-19T1500,4199A,113.2798248,40.09972476,大同市,魏都大道141号,颗粒物(PM10),500,748,320,122,84,75,75,90,73,12,18,7,9,0.5,0.6
2026-04-19T1500,2269A,124.1068,50.4091,大兴安岭地区,科技局,,23,21,42,10,26,72,72,67,67,5,6,8,9,0.4,0.4
2026-04-19T1500,3663A,124.117,50.4279,大兴安岭地区,红旗社区,,28,17,30,11,26,88,88,76,76,4,10,9,10,0.2,0.3
2026-04-19T1500,1600A,124.33,40.0625,丹东市,江湾东路,颗粒物(PM10),80,91,50,45,30,168,168,113,113,10,12,6,8,0.5,0.6
2026-04-19T1500,1601A,124.4242,40.1513,丹东市,临江后街,颗粒物(PM10),65,70,59,39,34,145,145,113,113,8,16,8,8,0.4,0.6
2026-04-19T1500,1602A,124.3935,40.1461,丹东市,元宝山,颗粒物(PM10),54,55,47,34,35,146,146,108,108,10,17,7,8,0.6,0.9
2026-04-19T1500,1603A,124.3634,40.1093,丹东市,民主桥,细颗粒物(PM2.5),86,98,73,53,37,157,157,113,113,8,19,7,9,0.5,0.7
2026-04-19T1500,3541A,109.5726195,19.51688767,儋州市,第一中学子站,,45,45,39,25,26,84,84,62,62,5,7,4,5,0.9,0.9
2026-04-19T1500,3542A,109.5567,19.5187,儋州市,东坡学校子站,,36,34,34,25,26,92,92,67,67,6,9,4,5,0.5,0.6
2026-04-19T1500,2616A,98.5611,24.4273,德宏傣族景颇族自治州,德宏州监测站,NA,NA,NA,78,52,73,119,119,91,91,7,19,NA,7,0.5,0.6
2026-04-19T1500,3677A,98.5887,24.4366,德宏傣族景颇族自治州,芒市人民政府综合楼,颗粒物(PM10),73,82,117,45,66,112,112,88,88,11,17,4,5,0.4,0.6
2026-04-19T1500,1901A,104.424,31.1209,德阳市,东山公园,,37,35,52,22,38,116,116,97,97,2,12,5,5,0.4,0.5
2026-04-19T1500,1902A,104.3827,31.1318,德阳市,西小区,,46,46,70,20,43,113,113,87,87,7,26,4,5,0.5,0.6
2026-04-19T1500,1904A,104.3553,31.1091,德阳市,耐火材料厂,,45,45,71,20,48,126,126,101,101,13,22,3,6,0.3,0.4
2026-04-19T1500,4145A,104.4144,31.1495,德阳市,市林业局,,41,39,55,20,38,130,130,99,99,2,35,3,3,0.3,0.4
2026-04-19T1500,1622A,116.3034,37.4675,德州市,儿童乐园,颗粒物(PM10),91,107,108,16,36,153,153,129,129,10,15,8,9,0.5,0.6
2026-04-19T1500,1624A,116.2992,37.4449,德州市,监理站,颗粒物(PM10),84,97,104,14,32,154,154,130,130,15,21,10,12,0.3,0.5
2026-04-19T1500,3066A,116.2722,37.438,德州市,九衢泉纯净水厂,颗粒物(PM10),86,100,96,16,32,140,140,120,120,12,22,6,6,0.6,0.7
2026-04-19T1500,3371A,116.3693,37.44,德州市,开发区人民医院,颗粒物(PM10),103,127,110,11,35,149,149,119,119,10,20,10,12,0.5,0.6
2026-04-19T1500,3511A,116.5687,37.3331,德州市,陵城艺术中心,颗粒物(PM10),68,75,91,13,36,133,133,114,114,7,13,5,8,0.7,0.9
2026-04-19T1500,4292A,116.352738,37.420875,德州市,新河东路,NA,NA,97,94,NA,34,140,140,116,116,12,16,10,10,0.7,0.8
2026-04-19T1500,2621A,99.7054,27.8319,迪庆藏族自治州,迪庆州站,,34,25,22,11,11,108,108,106,106,7,9,8,8,0.4,0.4
2026-04-19T1500,3180A,99.7122,27.8129,迪庆藏族自治州,质量技术监督局,,36,23,19,10,11,114,114,111,111,7,8,8,8,0.3,0.4
2026-04-19T1500,4257A,104.6092,35.5962,定西市,将台街,颗粒物(PM10),133,204,353,44,126,96,96,100,95,4,6,4,5,0.0,0.1
2026-04-19T1500,4309A,104.6159,35.5701,定西市,正龙路62号,颗粒物(PM10),141,226,384,47,108,95,95,100,95,6,7,3,3,0.2,0.2
2026-04-19T1500,4071A,114.9883,38.5232,定州市,交通局,颗粒物(PM10),490,590,116,80,32,88,88,88,88,12,18,9,9,0.7,0.5
2026-04-19T1500,4072A,115.0045,38.5136,定州市,第五中学,颗粒物(PM10),439,539,122,77,32,98,98,90,90,12,23,5,5,0.6,0.4
2026-04-19T1500,1390A,113.7943,23.0132,东莞市,东城石井,臭氧1小时(O3_1h),114,38,54,24,39,227,227,170,170,22,33,5,6,0.7,0.8
2026-04-19T1500,1391A,113.7384,22.9659,东莞市,南城西平,臭氧1小时(O3_1h),123,42,64,31,50,245,245,163,163,18,32,7,7,0.8,0.9
2026-04-19T1500,3319A,113.7283,23.041,东莞市,万江金泰,臭氧1小时(O3_1h),108,39,63,32,46,215,215,164,164,16,37,6,10,0.7,1
2026-04-19T1500,4129A,113.8666,23.1062,东莞市,裕兴路,臭氧1小时(O3_1h),78,37,56,19,34,182,182,137,137,9,26,6,8,0.9,1.1
2026-04-19T1500,4130A,114.0076,22.9739,东莞市,教育路1号,臭氧1小时(O3_1h),88,32,91,17,61,190,190,144,144,13,47,7,8,0.7,0.9
2026-04-19T1500,4131A,113.7981,22.8124,东莞市,长怡路1号,臭氧1小时(O3_1h),136,59,74,35,46,272,272,175,175,22,33,8,8,0.9,0.9
2026-04-19T1500,1666A,118.6612,37.4313,东营市,市环保局,NA,NA,112,109,NA,51,186,186,132,132,12,21,12,17,0.4,0.7
2026-04-19T1500,3036A,118.6903,37.4337,东营市,开发区管委会,颗粒物(PM10),93,110,106,37,66,184,184,141,141,18,26,10,14,0.7,1
2026-04-19T1500,3365A,118.5721,37.5654,东营市,垦利区民丰路,颗粒物(PM10),84,97,97,19,44,175,175,162,162,13,21,11,11,0.5,0.7
2026-04-19T1500,3498A,118.5063,37.8606,东营市,河口城区,颗粒物(PM10),65,70,103,12,47,163,163,150,150,8,18,16,17,0.8,1.2
2026-04-19T1500,3646A,118.4979,37.4623,东营市,胜利站,颗粒物(PM10),78,89,101,12,53,142,142,127,127,13,23,6,10,0.4,0.9
2026-04-19T1500,3734A,118.5753,37.4405,东营市,理想之城,颗粒物(PM10),84,97,108,20,60,161,161,126,126,20,30,10,10,0.5,0.8
2026-04-19T1500,1591A,110.0024,39.8127,鄂尔多斯市,综合楼,颗粒物(PM10),500,701,642,69,114,91,91,100,83,8,11,6,6,0.2,0.3
2026-04-19T1500,1592A,109.9485,39.8259,鄂尔多斯市,巴音孟克林场办事处,颗粒物(PM10),408,508,555,66,99,98,98,106,90,5,8,4,5,0.3,0.3
2026-04-19T1500,1593A,109.7734,39.5987,鄂尔多斯市,康泽苑,颗粒物(PM10),425,525,267,62,94,94,94,102,90,4,8,8,9,0.2,0.2
2026-04-19T1500,1594A,109.8121,39.5987,鄂尔多斯市,华泰汽车城,颗粒物(PM10),412,512,353,54,90,90,90,99,86,4,7,7,8,0.2,0.3
2026-04-19T1500,1595A,109.9734,39.7884,鄂尔多斯市,奥林花园,颗粒物(PM10),434,534,553,54,75,93,93,100,87,9,12,3,4,0.2,0.3
2026-04-19T1500,2436A,114.894,30.3989,鄂州市,市政府,臭氧1小时(O3_1h),99,52,68,30,40,199,199,160,160,12,22,13,14,0.6,0.7
2026-04-19T1500,2437A,114.8986,30.3714,鄂州市,赵家坝,臭氧1小时(O3_1h),94,58,70,28,39,195,195,154,154,6,19,10,12,0.7,0.9
2026-04-19T1500,3654A,114.8093,30.4091,鄂州市,精准医疗中心,臭氧1小时(O3_1h),57,33,64,19,41,165,165,133,133,2,24,7,13,0.6,1.4
2026-04-19T1500,2454A,109.4978,30.2979,恩施土家族苗族自治州,湖北民院,,37,29,40,23,23,117,117,65,65,8,13,9,8,0.1,0.1
2026-04-19T1500,3549A,109.5061,30.3771,恩施土家族苗族自治州,龙凤新区,,37,37,37,20,19,118,118,64,64,11,14,7,7,0.4,0.4
2026-04-19T1500,2499A,108.3411,21.6159,防城港市,沙万,颗粒物(PM10),51,51,45,29,30,102,102,80,79,14,16,8,8,0.8,0.9
2026-04-19T1500,2500A,108.3515,21.7733,防城港市,防城档案局,细颗粒物(PM2.5),54,46,47,37,35,107,107,80,80,9,9,9,8,0.8,0.8
2026-04-19T1500,2501A,108.3506,21.6414,防城港市,大海花园,细颗粒物(PM2.5),56,43,39,38,34,112,112,89,86,10,13,9,11,0.8,1
2026-04-19T1500,1371A,113.1293,23.0065,佛山市,湾梁,臭氧1小时(O3_1h),118,51,57,34,42,236,236,141,141,14,36,/,/,/,/
2026-04-19T1500,1372A,113.1082,23.0477,佛山市,华材职中,臭氧1小时(O3_1h),117,51,76,36,56,233,233,136,136,17,49,5,6,0.6,0.7
2026-04-19T1500,1373A,113.1439,23.045,佛山市,南海气象局,臭氧1小时(O3_1h),118,93,63,39,44,235,235,140,140,19,38,/,/,/,/
2026-04-19T1500,1374A,113.2879,22.8094,佛山市,顺德苏岗,臭氧1小时(O3_1h),122,NA,41,46,42,244,244,148,148,16,30,/,/,0.7,0.7
2026-04-19T1500,1376A,112.8384,22.8678,佛山市,高明孔堂,臭氧1小时(O3_1h),102,37,36,26,25,204,204,125,125,15,16,/,/,/,/
2026-04-19T1500,1377A,112.8835,23.1584,佛山市,三水监测站,臭氧1小时(O3_1h),108,53,49,41,34,216,216,118,118,24,42,4,8,0.6,0.6
2026-04-19T1500,1378A,112.8668,23.185,佛山市,三水云东海,臭氧1小时(O3_1h),108,55,58,29,29,216,216,120,120,15,31,/,/,/,/
2026-04-19T1500,3625A,113.2568,22.7629,佛山市,容桂街道办,臭氧1小时(O3_1h),113,51,48,41,40,225,225,147,147,18,39,/,/,/,/
2026-04-19T1500,1282A,119.2681,26.0506,福州市,师大,,44,33,30,7,24,138,138,105,105,12,16,4,4,0.6,0.7
2026-04-19T1500,1283A,119.2983,26.1028,福州市,五四北路,,46,25,27,10,25,145,145,105,105,15,20,4,4,0.4,0.5
2026-04-19T1500,1284A,119.2648,26.0769,福州市,杨桥西路,,45,39,26,10,24,142,142,108,108,9,13,4,4,/,/
2026-04-19T1500,3048A,119.5799,26.0937,福州市,九龙,,44,19,27,14,21,140,140,106,106,11,12,6,5,0.5,0.5
2026-04-19T1500,3526A,119.5188,25.9666,福州市,吴航,,47,24,32,14,24,149,149,105,105,12,18,7,5,0.7,0.6
2026-04-19T1500,4104A,119.3106,26.0648,福州市,路通桥巷6号,,45,22,32,12,26,144,144,109,109,11,15,/,/,/,/
2026-04-19T1500,1755A,123.7974,41.8494,抚顺市,望花区,颗粒物(PM10),105,131,122,25,55,169,169,161,161,18,26,15,15,0.7,0.8
2026-04-19T1500,1756A,123.9161,41.8827,抚顺市,顺城区,颗粒物(PM10),93,109,108,23,62,156,156,141,141,15,36,15,14,0.7,1
2026-04-19T1500,1757A,124.0437,41.8615,抚顺市,东洲区,颗粒物(PM10),104,129,110,27,50,161,161,155,155,14,18,12,11,0.7,0.8
2026-04-19T1500,1758A,123.9246,41.8638,抚顺市,新抚区,颗粒物(PM10),94,111,100,28,58,171,171,155,155,13,29,12,10,0.8,0.9
2026-04-19T1500,1759A,124.0972,41.8961,抚顺市,大伙房水库,颗粒物(PM10),96,114,78,22,40,179,179,167,167,12,13,13,10,0.6,0.7
2026-04-19T1500,1760A,123.708,41.8386,抚顺市,沈抚新城,颗粒物(PM10),93,110,120,24,59,165,165,155,155,15,27,13,12,0.8,1
2026-04-19T1500,2377A,116.3544,27.9833,抚州市,市站,,50,32,42,22,26,159,159,111,111,6,13,8,6,0.6,1.1
2026-04-19T1500,2378A,116.3562,27.9631,抚州市,血防站,,47,40,39,15,25,150,150,103,103,5,15,7,8,0.8,0.9
2026-04-19T1500,2379A,116.3561,28.0007,抚州市,采茶剧团,,46,37,44,17,25,145,145,101,101,8,18,12,16,0.6,0.7
2026-04-19T1500,2380A,116.3854,27.9648,抚州市,医学分院,,46,39,46,12,24,145,145,102,102,2,15,6,21,0.8,0.9
2026-04-19T1500,2207A,121.6095,41.9978,阜新市,工业园区,颗粒物(PM10),83,96,75,30,59,150,150,120,120,15,14,6,6,0.6,0.7
2026-04-19T1500,2208A,121.6567,42.0188,阜新市,长青街,颗粒物(PM10),70,78,89,32,60,148,148,128,121,15,16,10,10,0.6,0.7
2026-04-19T1500,2209A,121.6672,42.07,阜新市,农业园区,颗粒物(PM10),78,88,98,33,59,151,151,136,129,16,15,9,7,0.6,0.7
2026-04-19T1500,2211A,121.6343,42.0455,阜新市,玉龙新城,颗粒物(PM10),77,87,80,29,53,147,147,127,123,18,16,10,9,0.6,0.7
2026-04-19T1500,2301A,115.8276,32.8929,阜阳市,市监测站,臭氧1小时(O3_1h),52,48,59,15,21,161,161,131,131,8,19,7,7,0.5,0.4
2026-04-19T1500,2303A,115.8551,32.8606,阜阳市,开发区,颗粒物(PM10),60,64,75,12,24,160,160,132,132,8,14,5,6,0.5,0.5
2026-04-19T1500,2875A,115.783962,32.889217,阜阳市,阜阳职业技术学院,,50,37,47,15,21,159,159,146,146,5,12,8,8,0.5,0.5
2026-04-19T1500,3468A,115.79,32.8614,阜阳市,市规划展馆,颗粒物(PM10),55,57,58,14,23,158,158,131,131,10,17,8,9,0.5,0.4
2026-04-19T1500,3469A,115.835101,32.918568,阜阳市,枣园社区,颗粒物(PM10),58,61,72,17,25,165,165,130,130,9,16,6,7,0.4,0.4
2026-04-19T1500,2669A,102.9097,34.9841,甘南藏族自治州,州政府,颗粒物(PM10),404,504,164,210,68,79,79,80,80,5,24,1,3,0.2,0.4
2026-04-19T1500,3380A,102.8915,34.9618,甘南藏族自治州,甘肃民族师范学院,颗粒物(PM10),500,644,213,184,59,83,83,82,82,14,32,9,3,0.1,0.2
2026-04-19T1500,2570A,101.96,30.048,甘孜藏族自治州,水桥子,,31,12,20,3,6,99,99,57,57,2,20,6,6,0.1,0.1
2026-04-19T1500,3065A,101.9534,29.9976,甘孜藏族自治州,州环保局,,33,12,20,3,9,104,104,76,76,7,15,5,5,0.2,0.2
2026-04-19T1500,2363A,114.9368,25.8663,赣州市,地委,,40,28,37,10,21,125,125,90,90,2,14,2,2,1.0,1
2026-04-19T1500,2364A,114.946,25.8483,赣州市,气象台,,41,19,36,16,25,131,131,95,95,8,19,5,6,0.4,0.8
2026-04-19T1500,2365A,114.932,25.8332,赣州市,市图书馆,,40,24,37,11,25,128,128,93,93,5,19,4,4,0.8,0.9
2026-04-19T1500,2366A,114.8905,25.8472,赣州市,华坚鞋城,,36,26,38,7,23,114,114,83,83,7,19,7,6,0.7,0.9
2026-04-19T1500,3109A,115.0094,25.8614,赣州市,赣县区卫计委,颗粒物(PM10),59,62,33,20,19,133,133,81,81,6,17,3,4,0.9,0.9
2026-04-19T1500,2684A,106.2753,36.0057,固原市,监测站,颗粒物(PM10),53,53,580,24,149,91,91,93,93,9,11,5,6,0.3,0.4
2026-04-19T1500,2685A,106.2384,36.0189,固原市,新区,颗粒物(PM10),51,51,531,23,150,91,91,91,91,5,11,4,5,0.5,0.5
2026-04-19T1500,2544A,106.6307,30.4577,广安市,市委,,47,47,50,25,34,90,90,65,65,8,20,8,8,0.4,0.5
2026-04-19T1500,2545A,106.6266,30.4662,广安市,友谊中学,,42,42,42,23,28,85,85,62,62,8,13,8,8,0.5,0.5
2026-04-19T1500,2547A,106.6386,30.4551,广安市,广电花园,,42,42,46,27,36,83,83,57,57,14,19,7,6,0.4,0.5
2026-04-19T1500,2902A,106.6347,30.4868,广安市,北辰小学,,49,49,51,30,34,86,86,64,64,9,15,8,8,0.5,0.5
2026-04-19T1500,2524A,105.8211,32.4444,广元市,老城,颗粒物(PM10),135,211,63,95,30,87,87,51,51,5,37,3,4,0.4,0.6
2026-04-19T1500,2526A,105.8629,32.429,广元市,监测站,颗粒物(PM10),140,224,62,85,27,83,83,51,51,7,21,2,6,0.3,0.5
2026-04-19T1500,3617A,105.8047,32.4167,广元市,经开区,颗粒物(PM10),139,221,62,79,31,82,82,50,50,7,25,2,6,0.3,0.5
2026-04-19T1500,1345A,113.2346,23.1423,广州市,广雅中学,臭氧1小时(O3_1h),113,57,56,35,36,226,226,125,125,17,48,3,4,1.0,1
2026-04-19T1500,1346A,113.2611,23.105,广州市,市五中,臭氧1小时(O3_1h),137,49,55,36,38,273,273,152,152,19,45,5,6,/,/
2026-04-19T1500,1348A,113.3477,23.0916,广州市,广东商学院,臭氧1小时(O3_1h),112,41,60,30,42,223,223,134,134,15,64,7,7,1.0,1.2
2026-04-19T1500,1349A,113.4332,23.105,广州市,市八十六中,臭氧1小时(O3_1h),107,35,52,NA,35,214,214,131,131,17,64,8,9,/,/
2026-04-19T1500,1350A,113.3506,22.9488,广州市,番禺中学,臭氧1小时(O3_1h),118,53,60,33,39,235,235,149,149,18,40,6,7,0.7,0.9
2026-04-19T1500,1351A,113.2147,23.3918,广州市,花都师范,臭氧1小时(O3_1h),93,38,47,28,29,194,194,109,109,12,38,6,7,0.9,1
2026-04-19T1500,1352A,113.2599,23.1329,广州市,市监测站,臭氧1小时(O3_1h),121,65,59,35,34,241,241,131,131,14,43,5,5,/,/
2026-04-19T1500,1353A,113.5618,23.3119,广州市,九龙镇镇龙,,49,36,43,26,27,154,154,97,97,13,30,6,6,0.5,0.6
2026-04-19T1500,1354A,113.2764,23.1544,广州市,麓湖,NA,NA,57,47,34,27,NA,NA,NA,NA,16,43,7,7,0.8,0.9
2026-04-19T1500,2846A,113.3209,23.1323,广州市,体育西,臭氧1小时(O3_1h),121,59,53,35,34,242,242,132,132,19,50,8,7,0.8,0.8
2026-04-19T1500,3298A,113.5718,23.5493,广州市,从化街口,,38,27,38,21,26,121,121,90,90,6,20,8,8,0.6,0.8
2026-04-19T1500,3299A,113.3463,23.369,广州市,白云竹料,臭氧1小时(O3_1h),82,44,54,24,31,185,185,110,110,10,35,3,3,0.7,0.9
2026-04-19T1500,3300A,113.2981,23.2365,广州市,白云嘉禾,臭氧1小时(O3_1h),120,71,62,37,36,239,239,133,133,20,47,7,6,/,/
2026-04-19T1500,3301A,113.4256,23.1716,广州市,黄埔科学城,臭氧1小时(O3_1h),116,45,43,36,33,231,231,139,139,15,25,8,5,0.7,0.8
2026-04-19T1500,3302A,113.3942,23.0485,广州市,番禺大学城,臭氧1小时(O3_1h),117,42,68,24,46,233,233,152,152,16,52,6,6,0.7,0.9
2026-04-19T1500,3303A,113.4923,22.8169,广州市,南沙黄阁,臭氧1小时(O3_1h),99,39,64,24,43,199,199,144,144,14,46,7,8,/,/
2026-04-19T1500,3304A,113.534,22.7893,广州市,南沙街,臭氧1小时(O3_1h),97,21,61,20,46,197,197,142,142,16,34,6,7,0.6,0.7
2026-04-19T1500,3443A,113.2905,23.5541,广州市,花都梯面,,33,29,26,18,18,105,105,72,72,9,21,7,8,/,/
2026-04-19T1500,3445A,113.786,23.7479,广州市,从化良口,,33,30,24,23,17,105,105,78,78,7,11,5,4,/,/
2026-04-19T1500,3446A,113.805,23.2614,广州市,增城荔城,臭氧1小时(O3_1h),54,35,36,28,26,163,163,122,122,9,19,6,6,0.7,0.8
2026-04-19T1500,2506A,109.604387,23.066791,贵港市,江南子站,NA,NA,41,63,30,38,136,136,88,88,NA,28,8,9,0.8,0.9
2026-04-19T1500,2508A,109.5669,23.1065,贵港市,荷城子站,,40,36,44,25,33,128,128,88,88,10,20,10,11,0.8,0.9
2026-04-19T1500,3405A,109.5886,23.1172,贵港市,新世纪学校,细颗粒物(PM2.5),52,36,43,36,34,132,132,89,89,15,23,/,/,0.7,0.7
2026-04-19T1500,4260A,109.5933,23.095,贵港市,中山路155-3号,细颗粒物(PM2.5),62,49,56,41,37,140,140,91,91,8,19,/,/,0.9,1.1
2026-04-19T1500,1439A,106.6863,26.6035,贵阳市,马鞍山,,46,41,26,32,18,87,87,78,78,11,10,5,5,/,/
2026-04-19T1500,1441A,106.6241,26.6266,贵阳市,鉴湖路,颗粒物(PM10),55,56,40,30,18,95,95,85,85,10,10,6,7,0.9,0.8
2026-04-19T1500,1442A,106.7468,26.6344,贵阳市,燕子冲,颗粒物(PM10),51,51,36,32,18,89,89,82,82,10,11,4,5,1.1,1
2026-04-19T1500,1443A,106.6556,26.4362,贵阳市,碧云窝,颗粒物(PM10),53,53,40,27,18,82,82,79,79,7,7,5,7,/,/
2026-04-19T1500,1445A,106.6963,26.6063,贵阳市,红边门,细颗粒物(PM2.5),52,NA,26,36,22,85,85,79,79,12,13,8,8,/,/
2026-04-19T1500,1446A,106.7162383,26.56964667,贵阳市,新华路,颗粒物(PM10),51,51,37,29,17,66,66,62,62,14,15,1,2,0.6,0.4
2026-04-19T1500,1447A,106.6742,26.542,贵阳市,太慈桥,,50,46,32,35,19,82,82,75,75,9,13,3,5,/,/
2026-04-19T1500,4230A,106.688212,26.56952,贵阳市,花果园大街66号,,49,39,19,34,19,87,87,80,80,9,11,1,2,/,/
2026-04-19T1500,4231A,106.687268,26.516892,贵阳市,漓江路57号,,48,41,28,33,22,70,70,70,70,10,12,5,7,0.8,0.6
2026-04-19T1500,1864A,110.3091,25.2705,桂林市,龙隐路小学,,34,30,44,21,28,106,106,72,72,6,16,4,7,0.5,0.6
2026-04-19T1500,1865A,110.2849361,25.22909545,桂林市,八中,,30,29,44,7,16,96,96,65,65,8,17,4,6,0.7,0.7
2026-04-19T1500,3531A,110.296,25.1254,桂林市,旅游学院,,37,26,41,21,30,118,118,74,74,4,19,7,7,0.7,0.7
2026-04-19T1500,4222A,110.1835,25.2444,桂林市,环湖路276号,,36,27,40,11,28,115,115,66,66,4,31,4,7,0.5,0.6
2026-04-19T1500,4301A,110.2803,25.2773,桂林市,信义路13号,,32,26,46,7,24,101,101,70,70,6,24,4,11,0.7,0.8
2026-04-19T1500,2674A,100.2262,34.4854,果洛藏族自治州,玛沁县大武镇,颗粒物(PM10),80,91,35,27,11,94,94,77,77,1,4,12,17,0.3,0.4
2026-04-19T1500,1130A,126.5557,45.8109,哈尔滨市,松北商大,颗粒物(PM10),73,82,36,31,24,64,64,82,80,17,14,18,8,0.5,0.5
2026-04-19T1500,1132A,126.6162,45.719,哈尔滨市,南岗学府路,颗粒物(PM10),126,186,56,59,20,92,92,102,102,30,18,7,4,0.6,0.5
2026-04-19T1500,1133A,126.6894,45.7733,哈尔滨市,太平宏伟公园,颗粒物(PM10),85,98,48,33,22,60,60,86,85,33,27,6,6,0.4,0.4
2026-04-19T1500,1134A,126.6361,45.7672,哈尔滨市,道外承德广场,颗粒物(PM10),86,100,56,29,22,52,52,78,78,37,27,10,8,0.1,0.3
2026-04-19T1500,1136A,126.644,45.7261,哈尔滨市,动力和平路,颗粒物(PM10),130,197,65,41,20,91,91,95,95,29,20,8,6,0.5,0.4
2026-04-19T1500,1137A,126.5933,45.7479,哈尔滨市,道里建国路,NA,NA,NA,35,40,20,74,74,90,90,NA,28,6,6,0,0.2
2026-04-19T1500,1138A,126.6127,45.6119,哈尔滨市,平房东轻厂,颗粒物(PM10),89,104,44,43,30,118,118,110,110,17,25,15,12,0.6,0.6
2026-04-19T1500,1139A,126.5875,45.9827,哈尔滨市,呼兰师专,NA,NA,NA,NA,NA,NA,NA,NA,NA,NA,NA,NA,NA,NA,NA,NA
2026-04-19T1500,1140A,126.6299,45.6799,哈尔滨市,省农科院,颗粒物(PM10),160,269,80,51,25,69,69,84,84,59,20,9,7,0.3,0.3
2026-04-19T1500,4282A,126.6769,45.7379,哈尔滨市,华山路1号,颗粒物(PM10),101,122,56,45,23,74,74,98,98,33,13,9,9,0.3,0.2
2026-04-19T1500,4283A,126.9717,45.5356,哈尔滨市,解放大街52号,颗粒物(PM10),126,187,59,30,16,140,140,128,128,13,16,5,4,0.5,0.5
2026-04-19T1500,2688A,93.5124,42.8176,哈密市,地区监测站,"颗粒物(PM10),细颗粒物(PM2.5)",110,145,63,71,24,98,98,82,81,3,5,8,8,0.3,0.2
2026-04-19T1500,2689A,93.5014,42.8312,哈密市,哈密师范学校,颗粒物(PM10),107,137,60,24,15,102,102,87,85,3,5,7,7,0.1,0.1
2026-04-19T1500,2671A,100.9016,36.9464,海北藏族自治州,海晏县西海镇,颗粒物(PM10),148,244,120,93,45,110,110,104,104,1,3,10,9,0.5,0.4
2026-04-19T1500,3867A,102.074,36.5056,海东市,平安区公安局北苑,颗粒物(PM10),141,226,218,77,80,92,92,97,87,9,11,13,14,0.5,0.5
2026-04-19T1500,4163A,102.0984,36.5119,海东市,滨河路,颗粒物(PM10),155,260,245,66,71,73,73,80,72,15,19,13,14,0.6,0.6
2026-04-19T1500,1410A,110.3189,20.0596,海口市,海南大学,,28,24,28,19,20,80,80,76,76,4,7,5,6,0.3,0.4
2026-04-19T1500,1411A,110.2827,20.0051,海口市,秀英海南医院,,27,24,27,16,22,85,85,66,66,7,15,8,8,0.2,0.3
2026-04-19T1500,1412A,110.3391,19.9979,海口市,海南师范大学,,28,27,29,17,22,89,89,74,74,4,9,6,6,0.4,0.5
2026-04-19T1500,1413A,110.3303,20.0359,海口市,龙华路环保局宿舍,,29,29,29,20,22,86,86,79,79,5,10,/,/,0.5,0.6
2026-04-19T1500,3539A,110.5111,19.9737,海口市,桂林洋子站,,23,18,33,15,21,71,71,65,65,5,12,/,/,/,/
2026-04-19T1500,4134A,110.1952,20.0451,海口市,长滨二路9号,,30,24,27,21,16,78,78,67,67,5,9,/,/,/,/
2026-04-19T1500,2673A,100.6158,36.2985,海南藏族自治州,共和县恰卜恰镇,颗粒物(PM10),116,161,71,75,31,111,111,98,98,3,10,11,13,0.3,0.3
2026-04-19T1500,2676A,97.373,37.376,海西蒙古族藏族自治州,德令哈市,颗粒物(PM10),77,87,64,31,28,129,129,122,115,4,4,17,16,0.3,0.3
2026-04-19T1500,1049A,114.492,36.5712,邯郸市,矿院,颗粒物(PM10),58,61,59,34,24,129,129,113,113,2,6,5,6,0.4,0.4
2026-04-19T1500,1050A,114.4839,36.6136,邯郸市,丛台公园,"颗粒物(PM10),细颗粒物(PM2.5)",58,61,56,39,27,131,131,117,117,6,10,3,5,0.4,0.4
2026-04-19T1500,3458A,114.7893,36.5592,邯郸市,香泉濮院小区,颗粒物(PM10),55,56,70,29,31,126,126,115,115,6,10,3,2,0.5,0.4
2026-04-19T1500,3580A,114.1998,36.4439,邯郸市,峰峰矿区临水派出所,颗粒物(PM10),61,65,60,29,28,142,142,124,124,10,14,6,6,0.4,0.5
2026-04-19T1500,4068A,114.5209,36.7697,邯郸市,建安街268号,颗粒物(PM10),62,66,71,35,26,131,131,120,120,7,9,3,3,0.4,0.4
2026-04-19T1500,4069A,114.5488,36.6177,邯郸市,丛台东路558号,颗粒物(PM10),58,60,69,33,31,129,129,112,112,2,9,2,3,0.5,0.4
2026-04-19T1500,2635A,107.0155,33.0707,汉中市,市监测站,颗粒物(PM10),500,645,92,168,45,79,79,47,47,12,18,4,5,0.3,0.4
2026-04-19T1500,2636A,107.0083,33.114,汉中市,鑫源开发区,颗粒物(PM10),478,578,94,166,44,80,80,51,51,9,21,5,6,0.3,0.4
2026-04-19T1500,2637A,107.0072,33.0323,汉中市,南郑大河坎水厂,颗粒物(PM10),500,605,86,158,42,77,77,40,38,8,17,3,4,0.2,0.3
2026-04-19T1500,1223A,120.2073,30.2111,杭州市,滨江,臭氧1小时(O3_1h),77,28,62,18,38,181,181,122,122,10,28,9,8,0.7,0.8
2026-04-19T1500,1224A,120.0625,30.2737,杭州市,西溪,臭氧1小时(O3_1h),67,29,39,15,26,173,173,116,116,13,23,5,4,0.7,0.8
2026-04-19T1500,1226A,120.3417,30.315,杭州市,下沙,臭氧1小时(O3_1h),53,34,84,22,41,162,162,112,112,7,45,8,8,0.6,0.7
2026-04-19T1500,1227A,120.1252,30.2465,杭州市,卧龙桥,臭氧1小时(O3_1h),80,24,40,16,28,184,184,126,126,19,24,9,8,0.4,0.5
2026-04-19T1500,1228A,120.1902,30.2691,杭州市,浙江农大,臭氧1小时(O3_1h),68,28,48,17,34,174,174,115,115,27,47,8,8,0.4,0.6
2026-04-19T1500,1230A,120.1195,30.3121,杭州市,和睦小学,臭氧1小时(O3_1h),78,30,43,22,35,182,182,122,122,13,28,7,7,0.6,0.7
2026-04-19T1500,1231A,120.3076,30.4146,杭州市,临平镇,臭氧1小时(O3_1h),70,34,61,20,37,176,176,127,127,10,31,8,8,0.4,0.6
2026-04-19T1500,1232A,120.2753,30.1839,杭州市,城厢镇,臭氧1小时(O3_1h),53,26,51,17,40,162,162,111,111,16,33,6,6,0.4,0.6
2026-04-19T1500,1233A,120.0883,30.1808,杭州市,云栖,臭氧1小时(O3_1h),63,21,44,12,29,170,170,117,117,21,28,7,6,0.6,0.7
2026-04-19T1500,3557A,119.9463,30.0496,杭州市,镇二中,臭氧1小时(O3_1h),57,25,42,17,36,165,165,117,117,12,23,5,5,0.4,0.5
2026-04-19T1500,3558A,119.7184,30.2367,杭州市,市府大楼,,48,22,26,16,23,152,152,113,113,12,17,6,6,0.6,0.6
2026-04-19T1500,3656A,120.1554,30.2863,杭州市,消防大队,臭氧1小时(O3_1h),59,30,55,21,34,167,167,113,113,9,28,6,6,0.3,1.2
2026-04-19T1500,1270A,117.1957,31.7845,合肥市,明珠广场,臭氧1小时(O3_1h),65,46,63,9,26,172,172,142,142,11,26,8,8,0.5,0.6
2026-04-19T1500,1271A,117.307,31.8765,合肥市,三里街,臭氧1小时(O3_1h),59,58,63,15,26,167,167,126,126,23,35,7,7,0.6,0.6
2026-04-19T1500,1272A,117.2587,31.8703,合肥市,琥珀山庄,臭氧1小时(O3_1h),68,58,65,13,25,174,174,138,138,16,26,8,8,0.8,0.8
2026-04-19T1500,1275A,117.2593,31.9376,合肥市,庐阳区,NA,NA,NA,61,NA,21,NA,NA,142,127,NA,35,NA,6,NA,0.6
2026-04-19T1500,1276A,117.345251,31.861615,合肥市,瑶海区,臭氧1小时(O3_1h),67,61,70,13,25,173,173,137,137,14,33,7,8,0.6,0.7
2026-04-19T1500,1277A,117.3033,31.7967,合肥市,包河区,颗粒物(PM10),53,53,70,10,24,156,156,133,133,11,59,10,11,0.6,0.6
2026-04-19T1500,1278A,117.278,31.7392,合肥市,滨湖新区,,43,39,63,3,24,136,136,129,129,3,11,6,6,0.5,0.6
2026-04-19T1500,1279A,117.1324,31.8395,合肥市,高新区,臭氧1小时(O3_1h),63,56,65,11,23,170,170,139,139,8,20,6,6,0.5,0.6
2026-04-19T1500,3464A,117.3802,31.9148,合肥市,高教基地,臭氧1小时(O3_1h),88,66,56,17,20,190,190,139,139,14,25,10,9,0.7,0.5
2026-04-19T1500,4098A,117.2518,31.8404,合肥市,中国科学技术大学,臭氧1小时(O3_1h),73,51,63,12,24,178,178,143,143,10,18,7,7,0.7,0.7
2026-04-19T1500,3614A,79.9241,37.0878,和田地区,地区环保局,"颗粒物(PM10),细颗粒物(PM2.5)",500,3186,2291,928,737,84,84,79,79,5,10,1,2,0.4,0.4
2026-04-19T1500,3615A,79.9132,37.1137,和田地区,市环保局,"颗粒物(PM10),细颗粒物(PM2.5)",500,3194,1990,905,640,91,91,87,87,4,10,1,2,0.5,0.6
2026-04-19T1500,2517A,108.0496,24.6957,河池市,市环保站,,45,45,35,26,22,82,82,59,59,3,6,11,8,0.8,0.7
2026-04-19T1500,4302A,108.0901,24.6945,河池市,上任中路54号,,40,36,39,28,23,91,91,62,62,5,15,14,11,0.8,0.8
2026-04-19T1500,1697A,114.6962,23.7538,河源市,东埔,,38,NA,25,26,21,116,116,86,86,5,14,6,6,0.3,0.5
2026-04-19T1500,1698A,114.6895,23.7232,河源市,老城,,35,NA,18,19,18,112,112,81,81,3,12,6,6,0.5,0.6
2026-04-19T1500,3374A,115.5562,35.089,菏泽市,定陶老年大学,颗粒物(PM10),70,78,83,8,29,139,139,115,115,8,10,5,6,0.3,0.4
2026-04-19T1500,4114A,115.4239,35.2593,菏泽市,黄河路600号,颗粒物(PM10),71,79,93,15,30,143,143,121,121,8,11,4,3,0.4,0.4
2026-04-19T1500,4115A,115.5025,35.2727,菏泽市,菏泽市人社局,颗粒物(PM10),67,73,83,10,27,139,139,122,122,4,7,6,6,0.2,0.3
2026-04-19T1500,4184A,115.479691,35.244011,菏泽市,永昌路1号,颗粒物(PM10),74,83,85,11,27,156,156,134,134,14,14,3,3,0.6,0.6
2026-04-19T1500,4193A,115.471542,35.280012,菏泽市,长城路999号,颗粒物(PM10),70,78,83,12,23,152,152,135,135,8,10,7,7,0.2,0.2
2026-04-19T1500,2514A,111.5264,24.4178,贺州市,环保小区,,35,8,32,8,20,111,111,75,75,4,13,6,6,0.4,0.5
2026-04-19T1500,2515A,111.561,24.4074,贺州市,政协大楼,,39,12,31,10,21,124,124,10,NA,4,22,10,9,0.6,0.6
2026-04-19T1500,3534A,111.4744,24.455,贺州市,西湾,,34,18,38,10,19,108,108,72,72,5,18,9,9,0.6,0.7
2026-04-19T1500,2385A,114.17,35.9019,鹤壁市,市监测站,细颗粒物(PM2.5),98,85,60,59,39,136,136,120,117,15,13,6,7,0.6,0.5
2026-04-19T1500,2386A,114.2953,35.7512,鹤壁市,市交警支队,颗粒物(PM10),73,82,75,46,30,141,141,108,108,16,18,10,10,0.7,0.5
2026-04-19T1500,2387A,114.2877,35.7302,鹤壁市,迎宾馆,颗粒物(PM10),88,102,90,52,37,146,146,109,109,12,14,8,6,0.7,0.6
2026-04-19T1500,3474A,114.2616,35.6824,鹤壁市,大新区,颗粒物(PM10),87,101,87,51,39,132,132,104,104,10,14,11,10,0.8,0.7
2026-04-19T1500,3596A,114.1573,35.9607,鹤壁市,南山宾馆,颗粒物(PM10),77,87,76,46,35,131,131,118,117,15,12,10,8,0.6,0.5
2026-04-19T1500,2244A,130.2537,47.3416,鹤岗市,哈啤分公司,,22,20,22,3,10,69,69,67,67,14,10,8,10,0.2,0.3
2026-04-19T1500,2245A,130.2683,47.3087,鹤岗市,斯达机电,,24,21,26,3,8,75,75,77,77,8,7,10,10,0.3,0.3
2026-04-19T1500,2246A,130.3114,47.3388,鹤岗市,东山纸板厂,,27,27,41,3,21,75,75,71,71,17,21,8,13,0.3,0.7
2026-04-19T1500,2263A,127.4832,50.2524,黑河市,交通局,,25,20,32,10,17,80,80,72,72,9,14,5,6,0.2,0.2
2026-04-19T1500,2264A,127.5146,50.2339,黑河市,环保局,,26,17,30,3,18,81,81,75,75,7,15,5,7,0.2,0.3
2026-04-19T1500,1074A,115.6839,37.754,衡水市,电机北厂,颗粒物(PM10),80,92,84,40,33,154,154,133,133,12,15,8,7,0.4,0.3
2026-04-19T1500,1075A,115.6303,37.7318,衡水市,市监测站,颗粒物(PM10),76,86,86,32,28,148,148,128,128,12,14,8,7,0.4,0.4
2026-04-19T1500,3188A,115.6684,37.7216,衡水市,市城管局,颗粒物(PM10),79,90,89,35,32,152,152,131,131,10,11,3,3,0.3,0.3
2026-04-19T1500,3459A,115.599,37.5491,衡水市,地表水厂,颗粒物(PM10),70,77,88,29,32,146,146,126,126,8,14,5,5,0.4,0.4
2026-04-19T1500,2457A,112.6209,26.9268,衡阳市,衡阳化工总厂,,41,41,54,19,30,111,111,78,78,4,20,9,10,0.6,0.8
2026-04-19T1500,2458A,112.621,26.8957,衡阳市,珠晖区环保局,,37,37,54,15,30,118,118,79,79,2,23,10,11,0.8,1.1
2026-04-19T1500,2459A,112.628,26.8654,衡阳市,市委党校,,38,38,53,15,35,116,116,79,79,3,18,12,12,0.9,1
2026-04-19T1500,2460A,112.6007,26.8977,衡阳市,市监测站,,40,40,60,28,40,109,109,77,77,7,27,10,10,0.7,1
2026-04-19T1500,2461A,112.5658,26.9013,衡阳市,真空机电公司,,39,32,51,16,36,122,122,89,89,6,28,12,10,1.2,1.3
2026-04-19T1500,3399A,112.6703,26.8817,衡阳市,师范学院,,43,43,52,12,30,113,113,82,82,3,12,9,11,0.6,0.8
2026-04-19T1500,3038A,103.3757,23.3679,红河哈尼族彝族自治州,州图书馆,,45,NA,68,31,59,118,118,108,107,9,7,4,4,0.4,0.7
2026-04-19T1500,4154A,103.401,23.3561,红河哈尼族彝族自治州,蒙自市朝阳路,,44,44,52,29,54,114,114,105,105,9,8,4,4,0.5,0.7
2026-04-19T1500,1090A,111.6506,40.7517,呼和浩特市,呼市一监,颗粒物(PM10),132,202,118,34,120,93,93,88,86,4,12,5,8,0.2,0.3
2026-04-19T1500,1094A,111.7516,40.8369,呼和浩特市,如意水处理厂,颗粒物(PM10),120,172,362,32,106,95,95,101,85,2,8,6,7,0.1,0.2
2026-04-19T1500,1095A,111.727798,40.806187,呼和浩特市,二十九中,颗粒物(PM10),135,211,475,16,93,85,85,91,80,2,6,7,8,0.3,0.3
2026-04-19T1500,1097A,111.717,40.7617,呼和浩特市,化肥厂生活区,颗粒物(PM10),124,182,359,24,135,92,92,86,82,3,13,6,8,0.3,0.4
2026-04-19T1500,3699A,111.6519,40.8389,呼和浩特市,海东办,颗粒物(PM10),130,197,169,31,79,93,93,98,84,3,9,3,5,0.2,0.2
2026-04-19T1500,4275A,111.591512,40.827312,呼和浩特市,成吉思汗西街8号,颗粒物(PM10),135,210,187,18,84,90,90,94,78,3,13,4,6,0.2,0.3
2026-04-19T1500,4276A,111.6597,40.8077,呼和浩特市,公园东路75号,NA,NA,NA,212,20,91,87,87,90,80,6,11,4,5,0.1,0.3
2026-04-19T1500,4277A,111.5427,40.7846,呼和浩特市,金海路35号,颗粒物(PM10),130,197,491,21,84,89,89,90,78,6,13,4,6,0.2,0.3
2026-04-19T1500,3061A,119.7511,49.1576,呼伦贝尔市,国华电力东,颗粒物(PM10),63,68,55,17,16,76,76,92,86,6,8,4,5,0.3,0.3
2026-04-19T1500,4279A,119.7569,49.2222,呼伦贝尔市,伊敏大街东7号,,45,45,58,15,17,77,77,91,85,5,8,5,5,0.4,0.5
2026-04-19T1500,1250A,120.075,30.867,湖州市,城西水厂,臭氧1小时(O3_1h),87,32,45,20,29,189,189,121,121,14,40,8,7,0.6,0.6
2026-04-19T1500,2873A,120.083,30.8929,湖州市,仁皇山新区,臭氧1小时(O3_1h),82,34,36,26,25,185,185,128,128,17,26,8,6,0.6,0.6
2026-04-19T1500,2907A,120.1846,30.8592,湖州市,吴兴区站,,50,27,44,10,25,158,158,123,123,17,29,6,7,0.2,0.3
2026-04-19T1500,3562A,120.4146,30.8538,湖州市,南浔区站,,46,20,41,8,26,145,145,125,125,11,20,6,7,0.5,0.7
2026-04-19T1500,1607A,120.904878,40.721091,葫芦岛市,龙港区,颗粒物(PM10),75,85,64,36,47,170,170,122,122,15,14,13,11,0.9,0.7
2026-04-19T1500,1608A,120.8382,40.7521,葫芦岛市,化工街,颗粒物(PM10),91,107,98,54,66,142,142,101,101,21,23,16,13,0.7,0.5
2026-04-19T1500,1609A,120.8339,40.7078,葫芦岛市,新区,细颗粒物(PM2.5),104,85,62,64,63,134,134,101,101,15,17,10,9,0.8,0.7
2026-04-19T1500,1610A,120.8697,40.7679,葫芦岛市,东城区,细颗粒物(PM2.5),94,64,61,57,65,139,139,100,100,20,22,12,10,0.9,0.7
2026-04-19T1500,2483A,109.9297,27.5383,怀化市,河西地税局,,33,27,39,20,20,105,105,67,67,4,13,7,6,/,/
2026-04-19T1500,2484A,109.9783,27.5342,怀化市,市四医院,,35,35,51,7,24,110,110,75,75,7,17,5,5,0.4,0.5
2026-04-19T1500,2485A,109.9971,27.5579,怀化市,监测楼,,36,30,45,23,27,114,114,74,74,6,17,4,4,0.5,0.6
2026-04-19T1500,1210A,119.0566,33.5991,淮安市,钵池山,,37,17,31,8,13,118,118,98,98,6,20,7,8,0.4,0.4
2026-04-19T1500,1211A,119.0083,33.578,淮安市,北京南路,,33,17,29,3,11,104,104,99,99,5,16,7,8,0.2,0.2
2026-04-19T1500,1212A,118.9938,33.6083,淮安市,市监测站,,37,7,22,3,10,117,117,105,105,5,13,6,6,0.6,0.5
2026-04-19T1500,1213A,119.135,33.5038,淮安市,楚州区监测站,,40,27,29,10,14,126,126,100,100,6,19,6,6,0.4,0.4
2026-04-19T1500,3426A,118.8757,33.2897,淮安市,新华书店,,41,25,35,8,13,130,130,104,104,2,19,7,7,0.4,0.4
2026-04-19T1500,4092A,119.119691,33.550006,淮安市,枚皋中路89号,,38,16,27,11,12,119,119,97,97,5,16,7,6,0.6,0.4
2026-04-19T1500,4206A,119.028838,33.631911,淮安市,承德北路606号,,35,17,35,3,13,109,109,92,92,4,19,8,8,0.3,0.4
2026-04-19T1500,2282A,116.8005,33.9749,淮北市,监测站,臭氧1小时(O3_1h),54,42,56,13,26,163,163,125,125,13,15,8,8,0.3,0.4
2026-04-19T1500,2283A,116.8094,33.9008,淮北市,烈山区政府,,49,39,68,11,31,154,154,123,123,11,14,8,9,0.4,0.4
2026-04-19T1500,4017A,116.7926,33.9534,淮北市,市博物馆,,50,46,56,17,26,157,157,121,121,10,12,8,7,0.4,0.5
2026-04-19T1500,4100A,116.8322,33.9884,淮北市,杜集区第一实验学校,,50,46,74,9,28,158,158,122,122,12,14,8,9,0.4,0.5
2026-04-19T1500,2277A,116.8304,32.7726,淮南市,潘集区政府,臭氧1小时(O3_1h),53,50,59,13,24,162,162,125,125,12,20,8,8,0.5,0.5
2026-04-19T1500,2279A,116.8569,32.5949,淮南市,谢家集区政府,,50,47,48,12,23,158,158,125,125,8,16,9,10,0.3,0.3
2026-04-19T1500,2280A,116.8279,32.6333,淮南市,八公山区政府,,48,46,59,10,24,151,151,127,127,6,11,6,9,0.3,0.4
2026-04-19T1500,2894A,117.0561,32.6536,淮南市,经济技术开发区消防队,,47,33,51,17,22,149,149,116,116,10,17,9,8,0.2,0.2
2026-04-19T1500,3329A,117.011,32.5891,淮南市,山南新区,臭氧1小时(O3_1h),53,42,54,13,20,162,162,128,128,13,17,9,9,0.4,0.4
2026-04-19T1500,4209A,117.003137,32.644456,淮南市,国庆中路369号,,45,43,47,13,19,141,141,NA,NA,8,8,9,9,0.3,0.4
2026-04-19T1500,2446A,114.9021,30.474,黄冈市,职工中心,臭氧1小时(O3_1h),99,43,57,32,44,199,199,155,155,7,15,12,11,0.6,0.5
2026-04-19T1500,2929A,114.8858,30.4519,黄冈市,红卫路,臭氧1小时(O3_1h),101,45,54,37,42,201,201,166,166,6,12,10,8,0.6,0.6
2026-04-19T1500,3398A,114.9134,30.4446,黄冈市,市林业局,臭氧1小时(O3_1h),103,59,72,37,45,205,205,167,167,7,17,4,4,0.5,0.5
2026-04-19T1500,2672A,102.02,35.5101,黄南藏族自治州,同仁县隆务镇,颗粒物(PM10),198,346,146,140,57,109,109,108,108,6,4,10,10,0.2,0.2
2026-04-19T1500,2295A,118.2905,29.6965,黄山市,延安路89号,,44,35,35,17,21,138,138,103,103,4,10,5,5,0.2,0.3
2026-04-19T1500,2297A,118.1369,30.2755,黄山市,黄山区政府5号楼,,42,42,33,12,20,130,130,81,81,4,8,3,3,0.3,0.4
2026-04-19T1500,4210A,118.335445,29.720283,黄山市,滨江东路7-2号,颗粒物(PM10),52,52,49,16,23,140,140,98,98,5,10,/,/,/,/
2026-04-19T1500,2423A,115.0547,30.2332,黄石市,沈家营,臭氧1小时(O3_1h),73,69,67,26,36,178,178,140,140,11,23,4,5,1.3,1
2026-04-19T1500,2426A,114.899,30.211,黄石市,铁山,臭氧1小时(O3_1h),80,52,58,21,34,184,184,153,153,4,9,13,10,0.1,0.1
2026-04-19T1500,2427A,115.0259,30.2108,黄石市,团城山,臭氧1小时(O3_1h),57,52,56,30,33,165,165,138,138,11,8,9,7,0.8,0.7
2026-04-19T1500,3149A,115.0174,30.1591,黄石市,笔架山北路,臭氧1小时(O3_1h),54,40,69,19,31,163,163,148,148,6,7,9,11,0.7,0.8
2026-04-19T1500,4185A,115.078022,30.21118,黄石市,磁湖东路29号,NA,NA,NA,64,NA,40,NA,NA,168,NA,NA,22,NA,7,NA,0.9
2026-04-19T1500,1392A,114.4181,23.0528,惠州市,河南岸金山湖子站,,49,40,55,33,37,156,156,109,109,9,23,6,8,0.5,0.7
2026-04-19T1500,1393A,114.4055,23.0824,惠州市,下埔横江三路子站,,49,28,57,16,36,155,155,116,116,6,17,5,7,0.7,0.8
2026-04-19T1500,1395A,114.4645,22.7832,惠州市,惠阳区承修路船湖子站,,43,31,79,21,51,136,136,136,136,7,25,6,7,0.6,0.8
2026-04-19T1500,1396A,114.5316,22.7423,惠州市,大亚湾管委会子站,,45,35,77,22,49,144,144,139,139,5,27,5,6,0.7,0.9
2026-04-19T1500,3314A,114.4334,22.8134,惠州市,惠阳秋长,,45,36,82,17,49,144,144,139,139,7,32,/,/,/,/
2026-04-19T1500,3452A,114.6521,22.7755,惠州市,大亚湾霞涌,,46,42,51,11,25,146,146,132,132,7,16,/,/,/,/
2026-04-19T1500,4300A,114.4089,23.1147,惠州市,文华一路1号,,49,25,48,18,32,155,155,111,111,7,19,/,/,/,/
2026-04-19T1500,2240A,130.9618,45.2926,鸡西市,环保局,颗粒物(PM10),51,51,41,10,17,85,85,74,74,6,15,7,8,0.2,0.3
2026-04-19T1500,2243A,130.9294,45.2959,鸡西市,第一中学,,46,46,33,10,16,81,81,74,74,7,11,5,6,0.1,0.2
2026-04-19T1500,3707A,131.0069,45.2988,鸡西市,欧美日汽修厂,,49,49,46,3,18,79,79,69,69,3,15,1,3,0.3,0.5
2026-04-19T1500,2367A,114.9753,27.0803,吉安市,红声器材厂,,44,36,56,22,32,138,138,104,104,6,16,7,7,0.4,0.5
2026-04-19T1500,2369A,114.9903,27.1313,吉安市,市环境监测站,,42,36,51,15,36,134,134,105,105,9,21,11,12,/,/
2026-04-19T1500,2370A,115.009527,27.096792,吉安市,青原区法院,,40,26,47,17,28,126,126,101,101,7,20,7,8,0.6,0.8
2026-04-19T1500,1772A,126.54,43.8622,吉林市,哈达湾,颗粒物(PM10),83,95,50,23,27,151,151,141,141,7,15,7,8,0.4,0.4
2026-04-19T1500,1773A,126.5843,43.8358,吉林市,东局子,颗粒物(PM10),72,80,46,22,27,146,146,134,134,7,13,5,5,0.9,0.9
2026-04-19T1500,1774A,126.5051,43.8243,吉林市,电力学院,颗粒物(PM10),75,85,62,25,40,159,159,146,146,7,25,6,7,0.7,0.9
2026-04-19T1500,1775A,126.6133,43.8971,吉林市,江北,颗粒物(PM10),85,99,53,26,31,156,156,148,148,9,13,11,11,0.7,0.6
2026-04-19T1500,1776A,126.5549,43.8304,吉林市,江南公园,NA,NA,NA,51,24,32,144,144,137,137,NA,23,8,8,0.5,0.6
2026-04-19T1500,2868A,126.4737,43.953,吉林市,九站,NA,NA,NA,57,30,30,150,150,144,144,8,16,8,13,0.4,0.4
2026-04-19T1500,1299A,116.9866,36.6118,济南市,科干所,颗粒物(PM10),58,61,82,3,22,144,144,133,133,7,10,6,6,0.5,0.6
2026-04-19T1500,1300A,116.9379,36.6652,济南市,农科所,颗粒物(PM10),69,76,88,6,29,131,131,121,121,11,15,6,6,0.2,0.3
2026-04-19T1500,1301A,117.1265,36.6736,济南市,开发区,颗粒物(PM10),58,61,85,9,25,145,145,131,131,10,24,5,4,0.3,0.4
2026-04-19T1500,1303A,117.0616,36.6865,济南市,省种子仓库,颗粒物(PM10),83,95,96,8,24,141,141,133,127,7,11,5,5,0.4,0.4
2026-04-19T1500,1304A,116.9495185,36.644937,济南市,机床二厂,颗粒物(PM10),100,120,105,8,30,141,141,128,128,13,17,6,6,0.4,0.5
2026-04-19T1500,1305A,117.0496,36.6629,济南市,市监测站,颗粒物(PM10),73,81,86,6,24,136,136,134,124,12,13,4,4,0.4,0.5
2026-04-19T1500,1306A,116.7674,36.5458,济南市,长清党校,颗粒物(PM10),69,76,95,3,32,140,140,124,124,6,10,4,6,0.6,0.7
2026-04-19T1500,1961A,117.5323,36.6865,济南市,东山小学,颗粒物(PM10),69,76,105,11,34,145,145,124,124,8,17,4,5,0.3,0.5
2026-04-19T1500,3059A,117.7181,36.205,济南市,泰兴公司,颗粒物(PM10),62,66,112,7,44,142,142,111,111,11,30,9,15,0.2,0.6
2026-04-19T1500,3064A,117.6861,36.2172,济南市,莱芜战役纪念馆,颗粒物(PM10),62,66,109,6,42,137,137,115,115,21,23,15,13,0.3,0.7
2026-04-19T1500,3494A,117.1673,36.9782,济南市,济阳区政府,颗粒物(PM10),79,90,117,11,31,132,132,109,109,17,38,6,6,0.5,0.5
2026-04-19T1500,3495A,117.1168,36.6299,济南市,锦屏中学,颗粒物(PM10),55,56,73,8,24,132,132,123,123,11,13,4,4,0.3,0.3
2026-04-19T1500,4108A,117.7107,36.2385,济南市,山财大街5号,颗粒物(PM10),63,68,109,7,44,138,138,112,112,9,25,5,9,0.4,0.8
2026-04-19T1500,4109A,116.9744,36.6889,济南市,无影山路12号,颗粒物(PM10),60,63,81,7,30,131,131,121,121,8,11,4,5,0.3,0.4
2026-04-19T1500,1653A,116.6229,35.4288,济宁市,火炬城,颗粒物(PM10),70,77,74,7,37,131,131,102,102,5,9,4,4,0.4,0.6
2026-04-19T1500,3500A,116.5808,35.3703,济宁市,北湖一中,颗粒物(PM10),65,71,68,7,33,145,145,118,118,10,12,8,9,0.3,0.4
2026-04-19T1500,3501A,116.8251,35.5592,济宁市,服务中心,颗粒物(PM10),70,78,76,8,41,129,129,107,107,7,12,4,4,0.4,0.6
2026-04-19T1500,3678A,116.5907,35.4054,济宁市,市第七中学,颗粒物(PM10),90,105,86,8,37,151,151,121,121,10,13,6,7,0.2,0.4
2026-04-19T1500,4111A,116.6075,35.4566,济宁市,任和路,颗粒物(PM10),74,83,100,7,33,145,145,116,116,9,10,8,7,0.3,0.5
2026-04-19T1500,4112A,116.5648,35.3921,济宁市,文体南路1号,颗粒物(PM10),66,72,90,3,37,145,145,114,114,7,7,7,6,0.5,0.6
2026-04-19T1500,4122A,112.6071,35.1015,济源市,市委党校,颗粒物(PM10),68,74,86,27,34,142,142,113,113,11,17,8,11,0.6,0.6
2026-04-19T1500,4123A,112.596,35.0702,济源市,沁园中路1号,颗粒物(PM10),54,55,74,22,31,137,137,109,109,5,19,5,7,0.5,0.7
2026-04-19T1500,2255A,130.2749,46.8028,佳木斯市,佳纺,,24,7,34,3,15,76,76,77,77,15,24,4,4,0.3,0.3
2026-04-19T1500,2257A,130.3258,46.7975,佳木斯市,环保局,,20,NA,24,14,15,56,56,58,58,18,20,3,3,0.3,0.3
2026-04-19T1500,4285A,130.363,46.806,佳木斯市,顺和街,,24,6,22,3,13,75,75,77,77,14,18,3,3,0.3,0.3
2026-04-19T1500,4286A,130.3952,46.8268,佳木斯市,长安路196号,,27,6,22,3,12,84,84,83,83,7,14,1,2,0.3,0.4
2026-04-19T1500,1252A,120.7439,30.778,嘉兴市,清河小学,,47,20,37,3,18,148,148,119,119,10,24,7,8,0.4,0.4
2026-04-19T1500,1253A,120.7261,30.7477,嘉兴市,嘉兴学院,,49,18,33,11,23,155,155,125,125,13,24,7,7,0.7,0.7
2026-04-19T1500,2872A,120.7845,30.7524,嘉兴市,南湖区残联,臭氧1小时(O3_1h),55,15,36,9,24,164,164,132,132,5,21,5,5,0.5,0.5
2026-04-19T1500,3407A,120.6915,30.7741,嘉兴市,秀洲住建,,50,22,40,8,19,160,160,131,131,8,30,7,7,0.6,0.6
2026-04-19T1500,1945A,98.291,39.7705,嘉峪关市,气象局,,41,41,58,10,15,105,105,99,99,3,9,8,13,0.7,1.1
2026-04-19T1500,2884A,98.2672,39.7978,嘉峪关市,酒钢宾馆,颗粒物(PM10),53,53,62,16,15,104,104,99,99,2,7,10,25,0.4,0.7
2026-04-19T1500,3248A,98.2644,39.7723,嘉峪关市,雄关区,,49,49,60,12,12,106,106,100,100,6,11,7,14,0.4,0.6
2026-04-19T1500,1383A,113.1063,22.6058,江门市,北街,臭氧1小时(O3_1h),109,54,53,32,35,217,217,157,157,20,32,/,/,/,/
2026-04-19T1500,1384A,113.073,22.5835,江门市,西区,臭氧1小时(O3_1h),108,57,53,31,37,216,216,156,156,15,34,/,/,/,/
2026-04-19T1500,1385A,113.0218,22.531,江门市,圭峰西,臭氧1小时(O3_1h),83,51,45,26,34,186,186,134,134,13,15,/,/,/,/
2026-04-19T1500,1386A,113.0826,22.5947,江门市,东湖,臭氧1小时(O3_1h),107,52,46,27,34,214,214,154,154,15,29,9,8,0.7,0.7
2026-04-19T1500,3311A,113.1077,22.5647,江门市,江海富民,臭氧1小时(O3_1h),108,77,63,31,41,215,215,158,158,15,30,/,/,0.5,0.6
2026-04-19T1500,3449A,113.0496,22.4669,江门市,新会银湖,臭氧1小时(O3_1h),72,40,57,20,41,177,177,125,125,9,28,8,9,0.8,0.9
2026-04-19T1500,3335A,113.3137,35.2643,焦作市,马村街道办,颗粒物(PM10),63,67,68,32,27,146,146,116,116,6,13,10,10,0.4,0.5
2026-04-19T1500,3336A,113.2464,35.2374,焦作市,焦作技师学院,细颗粒物(PM2.5),60,59,72,40,28,150,150,120,120,9,12,10,10,0.8,0.9
2026-04-19T1500,3477A,113.1656,35.2536,焦作市,中站许衡医院,颗粒物(PM10),65,70,57,29,25,145,145,124,124,11,11,15,10,0.6,0.5
2026-04-19T1500,3981A,113.2456,35.18,焦作市,原李万街道办,颗粒物(PM10),67,73,76,29,27,139,139,113,113,6,11,9,10,0.3,0.3
2026-04-19T1500,4264A,113.234,35.219,焦作市,新安路1731号,颗粒物(PM10),70,78,65,27,28,156,156,NA,NA,13,12,11,11,0.9,0.9
2026-04-19T1500,4295A,113.2722,35.2121,焦作市,人民路3066号,颗粒物(PM10),122,176,80,25,27,136,136,110,110,12,14,6,7,0.5,0.5
2026-04-19T1500,1708A,116.3701,23.5345,揭阳市,新兴,,43,43,56,16,38,132,132,112,112,9,14,8,8,0.7,0.8
2026-04-19T1500,1709A,116.3261,23.5442,揭阳市,西马,,45,43,58,17,40,141,141,117,117,8,12,4,7,0.7,0.8
2026-04-19T1500,1710A,116.361,23.5627,揭阳市,东兴,颗粒物(PM10),52,52,50,18,41,141,141,115,115,8,14,3,6,/,/
2026-04-19T1500,1711A,116.4151,23.5295,揭阳市,渔湖,,45,45,58,17,38,144,144,122,122,8,13,2,2,/,/
2026-04-19T1500,3320A,116.4028,23.5699,揭阳市,曲溪,,49,34,43,16,37,156,156,126,126,4,9,10,11,0.7,0.7
2026-04-19T1500,1944A,102.1691,38.5166,金昌市,天庆家园,,36,36,234,13,60,104,104,105,105,2,2,9,7,0.4,0.5
2026-04-19T1500,4022A,102.1648,38.5369,金昌市,金川区人防中心,,39,39,180,13,66,104,104,106,106,4,4,5,5,0.4,0.4
2026-04-19T1500,4239A,102.193042,38.531887,金昌市,长春路96号,颗粒物(PM10),59,62,238,18,76,99,99,100,100,1,2,5,6,0.2,0.3
2026-04-19T1500,1262A,119.6478,29.0773,金华市,十五中,,48,24,55,14,38,151,151,124,124,10,21,4,4,0.5,0.7
2026-04-19T1500,1263A,119.6859,29.1032,金华市,监测站,臭氧1小时(O3_1h),60,24,55,16,35,168,168,130,130,11,30,4,4,0.4,0.5
2026-04-19T1500,3659A,119.656,29.1132,金华市,气象局,,49,26,60,13,44,154,154,124,124,12,41,4,4,0.4,0.6
2026-04-19T1500,1767A,121.1114,41.0879,锦州市,南山,"颗粒物(PM10),细颗粒物(PM2.5)",78,88,67,49,65,154,154,109,109,21,22,21,14,0.7,0.7
2026-04-19T1500,1768A,121.060361,40.842794,锦州市,开发区,颗粒物(PM10),109,141,82,66,61,141,141,108,108,23,25,8,13,0.9,0.7
2026-04-19T1500,1769A,121.1836,41.1118,锦州市,百股街道,细颗粒物(PM2.5),80,78,70,50,65,146,146,109,109,22,20,11,10,0.7,0.6
2026-04-19T1500,1770A,121.1176,41.1224,锦州市,天安街道,颗粒物(PM10),85,98,75,45,67,144,144,102,102,19,21,14,9,0.9,0.9
2026-04-19T1500,1771A,121.1303,41.1385,锦州市,北湖公园,细颗粒物(PM2.5),68,72,77,44,66,149,149,107,107,17,19,15,11,0.6,0.5
2026-04-19T1500,2160A,112.8496,35.5051,晋城市,自来水公司,颗粒物(PM10),60,64,73,3,18,125,125,110,110,12,13,4,5,0.2,0.3
2026-04-19T1500,2162A,112.8509,35.4886,晋城市,市环保局,颗粒物(PM10),70,77,71,3,17,121,121,101,101,6,11,7,7,0.3,0.4
2026-04-19T1500,3620A,112.8258,35.4804,晋城市,泽州一中,颗粒物(PM10),53,54,63,19,20,130,130,108,108,8,13,4,4,0.6,0.6
2026-04-19T1500,4078A,112.8246,35.5152,晋城市,前书院路,颗粒物(PM10),63,68,65,3,15,133,133,108,108,13,20,8,7,0.6,0.7
2026-04-19T1500,4079A,112.8864,35.4773,晋城市,祥云街666号,颗粒物(PM10),53,54,59,3,22,129,129,101,101,7,12,9,8,0.5,0.5
2026-04-19T1500,2174A,112.6992,37.6984,晋中市,榆次区政府,颗粒物(PM10),130,197,99,81,37,78,78,106,102,11,19,2,8,0.5,0.8
2026-04-19T1500,2865A,112.7195,37.683,晋中市,榆次三中,颗粒物(PM10),123,178,103,54,32,87,87,108,107,8,16,3,8,0.1,0.3
2026-04-19T1500,4080A,112.7375,37.7215,晋中市,广安街188号,颗粒物(PM10),123,179,94,57,33,82,82,104,104,10,17,2,6,0.0,0.3
2026-04-19T1500,4200A,112.7478,37.6954,晋中市,迎宾街26号,颗粒物(PM10),138,217,105,79,35,85,85,112,108,10,17,2,8,0.2,0.4
2026-04-19T1500,2439A,112.2012,31.048,荆门市,竹园小学,颗粒物(PM10),53,53,70,29,39,138,138,111,111,9,19,8,4,0.5,0.5
2026-04-19T1500,2440A,112.1968,30.9892,荆门市,掇刀,细颗粒物(PM2.5),60,56,68,40,42,147,147,113,113,6,14,8,10,0.6,0.6
2026-04-19T1500,3012A,112.1849,31.0361,荆门市,西山林语,颗粒物(PM10),59,62,62,30,32,145,145,113,113,7,10,7,7,0.5,0.5
2026-04-19T1500,3547A,112.1631,31.0134,荆门市,龙泉中学南校,颗粒物(PM10),60,63,69,26,31,154,154,118,118,8,11,6,6,0.4,0.5
2026-04-19T1500,4124A,112.2213,31.0654,荆门市,新台西路6号,颗粒物(PM10),55,56,72,31,44,150,150,111,111,7,20,9,10,0.7,0.6
2026-04-19T1500,1844A,112.2493,30.3198,荆州市,市图书馆,,43,34,46,24,35,135,135,107,107,6,19,7,10,0.7,0.6
2026-04-19T1500,1845A,112.2009,30.3543,荆州市,市委党校,,49,38,51,34,36,122,122,94,94,5,15,9,10,0.7,0.6
2026-04-19T1500,3194A,112.2749,30.3124,荆州市,管委会,,40,NA,46,28,35,124,124,102,102,6,14,10,10,0.6,0.6
2026-04-19T1500,4268A,112.1722,30.3366,荆州市,学苑路85号,,43,33,47,24,35,136,136,103,103,2,16,1,2,0.8,0.7
2026-04-19T1500,2343A,117.2114,29.2931,景德镇市,老干部活动中心,,43,37,40,22,33,137,137,106,106,2,14,7,9,0.6,0.7
2026-04-19T1500,2344A,117.1893,29.2789,景德镇市,兽医站,,47,38,51,18,28,149,149,119,119,5,20,4,4,0.5,0.6
2026-04-19T1500,2346A,117.246,29.2958,景德镇市,陶研所,,45,37,50,28,33,142,142,106,106,5,15,4,4,0.8,0.7
2026-04-19T1500,4289A,117.154766,29.256967,景德镇市,青少年活动中心,,44,40,48,24,33,140,140,106,106,9,20,15,20,/,/
2026-04-19T1500,1803A,115.9873,29.6816,九江市,十里,臭氧1小时(O3_1h),78,56,64,15,36,182,182,147,147,12,30,12,12,0.8,1
2026-04-19T1500,1804A,115.9583,29.7047,九江市,茅山头,臭氧1小时(O3_1h),82,49,54,19,37,185,185,134,134,15,28,6,4,0.8,0.8
2026-04-19T1500,1805A,115.9877,29.7295,九江市,西园,臭氧1小时(O3_1h),82,56,58,15,38,185,185,140,140,24,36,10,7,0.8,0.8
2026-04-19T1500,1808A,115.9112,29.6038,九江市,综合工业园,臭氧1小时(O3_1h),67,50,50,20,23,173,173,107,107,19,35,10,9,0.6,0.6
2026-04-19T1500,3190A,116.0254,29.6995,九江市,外国语学校,臭氧1小时(O3_1h),67,42,56,16,40,173,173,133,133,13,30,13,13,0.9,1
2026-04-19T1500,4253A,116.010205,29.659402,九江市,莲花大道8号,颗粒物(PM10),55,56,56,13,32,162,162,131,131,2,9,9,12,0.7,0.9
2026-04-19T1500,4240A,98.495752,39.733935,酒泉市,玉门东路5号,颗粒物(PM10),51,51,72,16,17,90,90,85,85,5,4,5,5,0.2,0.2
2026-04-19T1500,4241A,98.5099,39.7506,酒泉市,北大街108号,颗粒物(PM10),58,61,72,10,21,88,88,83,83,2,4,5,6,0.2,0.1
2026-04-19T1500,2698A,76.0071,39.466,喀什地区,巡警大队,"颗粒物(PM10),细颗粒物(PM2.5)",500,979,237,561,126,83,83,97,94,8,10,3,4,0.2,0.2
2026-04-19T1500,2699A,75.9756,39.4693,喀什地区,吾办,颗粒物(PM10),500,940,288,388,124,80,80,91,88,8,14,3,4,0.6,0.6
2026-04-19T1500,4027A,75.9485,39.4688,喀什地区,老干局,颗粒物(PM10),500,851,228,331,94,83,83,96,94,6,14,2,3,0.3,0.3
2026-04-19T1500,1824A,114.3389,34.778,开封市,肿瘤医院,颗粒物(PM10),56,58,70,35,36,148,148,119,119,9,15,7,8,0.7,0.6
2026-04-19T1500,1826A,114.2884,34.7966,开封市,世纪星幼儿园,颗粒物(PM10),61,65,74,34,34,143,143,119,119,13,21,6,8,0.5,0.5
2026-04-19T1500,3147A,114.3434,34.8101,开封市,龙亭公园,颗粒物(PM10),56,58,70,27,33,154,154,125,125,12,19,7,9,0.7,0.7
2026-04-19T1500,3210A,114.3645,34.7955,开封市,汴京公园,颗粒物(PM10),63,68,75,30,34,162,162,130,130,10,21,5,6,0.4,0.4
2026-04-19T1500,3473A,114.2485,34.8306,开封市,技师学院,颗粒物(PM10),76,86,83,30,33,159,159,127,127,9,13,6,6,0.6,0.5
2026-04-19T1500,3592A,114.4518,34.7503,开封市,祥符区生态环境局,,49,NA,45,34,38,152,152,122,122,15,24,7,8,0.6,0.6
2026-04-19T1500,1951A,84.886,45.6029,克拉玛依市,长征新村,,30,16,13,3,5,95,95,85,85,2,5,5,5,0.4,0.4
2026-04-19T1500,1952A,84.8894,45.5827,克拉玛依市,南林小区,,31,21,18,3,1,97,97,90,90,2,3,5,5,0.2,0.2
2026-04-19T1500,1954A,84.896,44.3328,克拉玛依市,独山子区,,34,34,25,3,3,96,96,55,55,9,9,7,6,0.4,0.4
2026-04-19T1500,1955A,85.6888,46.0909,克拉玛依市,乌尔禾区商贸楼,,31,26,27,3,8,97,97,80,80,6,8,2,2,0.2,0.1
2026-04-19T1500,3612A,85.1045,45.6895,克拉玛依市,白碱滩区新站,,33,15,20,3,5,104,104,96,96,2,3,5,5,0.2,0.2
2026-04-19T1500,2697A,76.1457,39.7143,克孜勒苏柯尔克孜自治州,市人民政府,颗粒物(PM10),500,810,209,291,83,85,85,104,101,9,12,4,4,0.2,0.1
2026-04-19T1500,3665A,76.1654,39.7157,克孜勒苏柯尔克孜自治州,克州文化中心,颗粒物(PM10),500,775,231,318,85,91,91,102,100,3,7,2,3,0.2,0.2
2026-04-19T1500,1450A,102.8203,24.889,昆明市,呈贡新区,,46,42,55,32,44,143,143,137,137,7,15,4,5,0.7,0.7
2026-04-19T1500,1452A,102.7253,25.0904,昆明市,龙泉镇,,41,34,62,28,42,130,130,107,107,6,23,6,6,0.6,0.7
2026-04-19T1500,1453A,102.7267,25.0378,昆明市,东风东路,,46,46,62,23,41,137,137,128,128,11,14,4,4,0.5,0.6
2026-04-19T1500,1454A,102.6744,25.0671,昆明市,金鼎山,,47,47,70,28,41,131,131,120,120,8,14,4,5,0.6,0.7
2026-04-19T1500,1455A,102.6643,25.0401,昆明市,碧鸡广场,,41,41,66,28,42,127,127,115,115,9,19,6,7,0.6,0.6
2026-04-19T1500,3179A,102.7491,25.012,昆明市,官渡区博物馆,,48,48,67,29,41,136,136,125,125,9,16,4,5,0.4,0.6
2026-04-19T1500,3375A,102.8016,24.8336,昆明市,青年创业园,NA,NA,NA,65,NA,41,NA,NA,153,135,NA,10,NA,6,NA,0.5
2026-04-19T1500,3550A,102.8,24.9787,昆明市,昆明学院,,45,45,64,26,37,137,137,126,126,8,13,5,6,0.4,0.5
2026-04-19T1500,3551A,102.5969,24.6738,昆明市,晋宁区生态环境分局,细颗粒物(PM2.5),60,46,59,40,43,139,139,129,129,3,6,4,4,0.5,0.5
2026-04-19T1500,3552A,102.6673,24.9861,昆明市,云天化总部,,44,38,58,24,36,139,139,121,121,9,15,5,6,0.6,0.6
2026-04-19T1500,1456A,91.132,29.6515,拉萨市,八廓街,,39,24,25,6,14,124,124,94,94,5,7,5,8,0.2,0.2
2026-04-19T1500,1457A,91.1221,29.6748,拉萨市,市环保局,,36,22,28,6,14,115,115,82,82,8,13,6,7,0.4,0.3
2026-04-19T1500,1458A,91.0874,29.6476,拉萨市,区监测站,,38,13,19,3,13,120,120,89,89,7,13,5,9,0.3,0.3
2026-04-19T1500,1459A,91.1774,29.6541,拉萨市,西藏大学,,38,19,22,8,13,119,119,87,87,12,11,6,8,0.2,0.2
2026-04-19T1500,1460A,90.9798,29.6586,拉萨市,区辐射站,,33,19,25,3,11,105,105,69,69,9,25,6,8,0.3,0.4
2026-04-19T1500,1461A,91.0831,29.6292,拉萨市,拉萨火车站,,37,22,21,3,12,118,118,83,83,8,13,4,6,0.2,0.3
2026-04-19T1500,2520A,109.2203,23.7252,来宾市,来宾技工学校,颗粒物(PM10),52,52,49,34,32,136,136,87,87,4,19,7,9,0.8,0.7
2026-04-19T1500,3535A,109.1781,23.7293,来宾市,兴宾区政府,颗粒物(PM10),55,56,63,30,33,143,143,92,92,5,14,8,9,0.8,0.7
2026-04-19T1500,4002A,109.2312,23.7428,来宾市,中南小学,,48,48,49,30,34,144,144,92,92,6,24,7,7,0.7,0.6
2026-04-19T1500,1479A,103.8309,36.0467,兰州市,铁路设计院,颗粒物(PM10),110,145,298,58,114,90,90,97,89,11,20,4,4,0.5,0.6
2026-04-19T1500,3241A,103.7439,36.0841,兰州市,百合公园,颗粒物(PM10),109,141,285,38,106,93,93,97,92,4,11,9,5,0.3,0.4
2026-04-19T1500,3242A,103.9613,35.9985,兰州市,和平,颗粒物(PM10),124,181,316,31,81,98,98,106,101,3,7,5,8,0.2,0.2
2026-04-19T1500,4236A,103.629272,36.093822,兰州市,庄浪东路808号,颗粒物(PM10),111,147,286,53,95,99,99,102,97,2,15,6,8,0.2,0.3
2026-04-19T1500,4237A,103.7251,36.104344,兰州市,安宁西路88号,颗粒物(PM10),119,168,327,74,106,102,102,107,101,7,9,7,7,0.2,0.2
2026-04-19T1500,4238A,103.846982,36.067567,兰州市,北滨河东路1号,颗粒物(PM10),119,169,294,58,103,94,94,99,93,8,15,9,9,0.4,0.4
2026-04-19T1500,1067A,116.6712,39.5109,廊坊市,药材公司,颗粒物(PM10),180,310,99,72,44,93,93,105,105,5,16,3,3,0.2,0.4
2026-04-19T1500,1068A,116.7215,39.5592,廊坊市,开发区,颗粒物(PM10),144,234,105,58,45,96,96,112,112,2,7,3,2,0.2,0.4
2026-04-19T1500,1070A,116.7246,39.5273,廊坊市,北华航天学院,颗粒物(PM10),196,341,104,38,33,94,94,112,112,2,13,1,3,0.2,0.4
2026-04-19T1500,2919A,116.7022,39.5454,廊坊市,河北工业大学,颗粒物(PM10),178,305,94,47,39,98,98,114,114,4,12,1,4,0.2,0.4
2026-04-19T1500,2536A,103.7629,29.5844,乐山市,牛耳桥,臭氧1小时(O3_1h),52,43,60,19,35,161,161,98,98,10,30,5,6,0.5,0.7
2026-04-19T1500,2537A,103.7501,29.6002,乐山市,市第三水厂,,50,42,59,19,35,157,157,98,98,10,31,5,6,0.6,0.7
2026-04-19T1500,2538A,103.7571,29.5664,乐山市,市监测站,,50,50,63,18,31,153,153,96,96,8,18,5,5,0.8,0.9
2026-04-19T1500,3361A,103.7313,29.563,乐山市,理工大学,臭氧1小时(O3_1h),78,50,56,19,34,182,182,106,106,9,21,5,5,0.5,0.6
2026-04-19T1500,2599A,100.2497,26.8802,丽江市,丽江古城,,36,30,39,6,20,114,114,106,106,4,9,9,8,0.7,0.8
2026-04-19T1500,2600A,100.2203,26.8906,丽江市,市中心,,36,25,30,13,21,113,113,104,104,7,15,6,6,0.5,0.6
2026-04-19T1500,1267A,119.9141,28.4513,丽水市,监测站大楼,,43,32,36,13,20,137,137,78,78,8,15,5,4,0.4,0.4
2026-04-19T1500,1268A,119.93,28.4589,丽水市,莲都小学,,43,27,34,12,19,136,136,78,78,6,15,/,/,/,/
2026-04-19T1500,1269A,119.8794,28.4232,丽水市,余庄前,,40,28,46,12,18,128,128,65,65,6,12,5,4,0.5,0.5
2026-04-19T1500,1173A,119.1759,34.5885,连云港市,市环境监测站,,37,19,29,7,14,118,118,106,106,8,14,9,9,0.3,0.5
2026-04-19T1500,3000A,119.3577,34.6971,连云港市,德源药业,颗粒物(PM10),51,51,53,22,15,116,116,103,103,16,24,7,6,0.4,0.3
2026-04-19T1500,3007A,119.178,34.8442,连云港市,新城一中,,43,38,39,17,15,137,137,82,82,14,31,5,5,0.6,0.5
2026-04-19T1500,3008A,119.3607,34.7519,连云港市,胡沟管理处,,34,19,21,17,13,107,107,80,80,20,38,15,16,0.2,0.2
2026-04-19T1500,3009A,119.1478,34.5913,连云港市,矿山设计院,,36,19,31,3,14,114,114,105,105,8,14,21,21,0.5,0.6
2026-04-19T1500,3434A,119.2414,34.6539,连云港市,工贸学校,,37,16,19,9,12,118,118,110,110,6,9,6,6,0.3,0.3
2026-04-19T1500,3664A,119.4171,34.734,连云港市,连云街道,颗粒物(PM10),51,51,38,21,15,104,104,62,62,26,27,22,18,0.7,0.5
2026-04-19T1500,2573A,102.2629,27.8981,凉山彝族自治州,西昌市政府,NA,NA,NA,25,34,20,143,143,98,98,6,8,NA,9,0.6,0.5
2026-04-19T1500,2574A,102.2686,27.885,凉山彝族自治州,凉山州政府,,40,34,28,28,18,116,116,84,84,7,9,6,4,0.7,0.6
2026-04-19T1500,4229A,102.2342,27.8859,凉山彝族自治州,凯乐南路30号,,40,33,30,23,13,126,126,88,88,10,14,5,4,0.7,0.6
2026-04-19T1500,2212A,123.1978,41.2036,辽阳市,宏伟区,颗粒物(PM10),91,107,80,22,33,170,170,155,155,8,8,8,7,0.6,0.6
2026-04-19T1500,2213A,123.1684,41.2497,辽阳市,新华园,颗粒物(PM10),90,106,93,25,37,175,175,159,159,17,14,16,9,1.1,0.6
2026-04-19T1500,2214A,123.2355,41.2663,辽阳市,滨河路,颗粒物(PM10),84,97,74,22,37,165,165,142,142,12,18,11,8,0.9,0.7
2026-04-19T1500,4083A,123.153,41.2874,辽阳市,铁西路150号,颗粒物(PM10),88,103,94,25,40,151,151,137,137,11,14,12,10,0.8,0.8
2026-04-19T1500,2227A,125.1359,42.8845,辽源市,环保局,颗粒物(PM10),73,82,74,18,40,137,137,141,141,6,19,8,8,0.5,0.6
2026-04-19T1500,4085A,125.0998,42.9134,辽源市,安宁大街333号,颗粒物(PM10),95,112,94,19,41,136,136,142,142,9,15,6,7,0.4,0.5
2026-04-19T1500,1625A,115.9789,36.4372,聊城市,区政府,NA,NA,95,94,NA,27,139,139,120,120,9,14,6,7,0.6,0.7
2026-04-19T1500,3200A,115.9772,36.4986,聊城市,监控中心,颗粒物(PM10),78,89,81,10,27,146,146,128,128,10,15,8,8,0.4,0.4
2026-04-19T1500,3513A,116.0443,36.436,聊城市,九州社区,颗粒物(PM10),75,85,93,6,31,145,145,108,NA,11,17,25,11,0.1,0.4
2026-04-19T1500,4018A,116.0564,36.4609,聊城市,星美广场,NA,NA,90,91,9,29,128,128,114,114,10,19,8,11,NA,0.4
2026-04-19T1500,4113A,116.0091,36.4495,聊城市,利民路,颗粒物(PM10),59,62,75,9,30,146,146,129,129,9,14,9,10,0.3,0.4
2026-04-19T1500,2632A,94.3683,29.6373,林芝市,林芝监测站,,29,6,7,3,4,92,92,60,60,4,7,4,4,0.4,0.5
2026-04-19T1500,2633A,94.3616,29.6634,林芝市,林芝人民医院,,29,6,8,3,6,91,91,60,60,2,5,4,4,0.4,0.5
2026-04-19T1500,2603A,100.0779,23.8981,临沧市,市环保局,,42,38,66,22,52,133,133,109,109,5,9,7,7,0.7,0.8
2026-04-19T1500,2604A,100.0894,23.882,临沧市,市气象局,,35,32,68,24,61,65,65,68,68,28,27,8,7,0.5,0.7
2026-04-19T1500,1733A,111.5552,36.0791,临汾市,临钢医院,颗粒物(PM10),420,520,99,103,30,93,93,92,92,10,16,6,8,0.5,0.6
2026-04-19T1500,1734A,111.4984,36.0734,临汾市,技工学校,颗粒物(PM10),500,634,98,124,34,89,89,87,87,7,16,5,8,0.4,0.6
2026-04-19T1500,1736A,111.5017,36.0857,临汾市,市委,颗粒物(PM10),479,579,98,131,31,94,94,96,96,5,14,6,9,0.5,0.7
2026-04-19T1500,3018A,111.5048,36.1015,临汾市,唐尧大酒店,颗粒物(PM10),441,541,106,146,35,91,91,93,93,7,16,6,8,0.4,0.7
2026-04-19T1500,4244A,111.4879,36.053,临汾市,启星学校,颗粒物(PM10),410,510,96,104,31,87,87,77,77,8,23,5,8,0.4,0.6
2026-04-19T1500,4271A,103.2464,35.6123,临夏回族自治州,滨河东路1号,颗粒物(PM10),191,331,291,83,97,88,88,88,86,6,23,9,10,0.2,0.3
2026-04-19T1500,4310A,103.207136,35.599807,临夏回族自治州,新华街21号,颗粒物(PM10),185,320,307,76,93,68,68,71,68,3,15,7,7,0.2,0.3
2026-04-19T1500,1618A,118.3429,35.0532,临沂市,沂河小区,,48,48,71,10,30,138,138,106,106,6,16,12,16,0.2,0.4
2026-04-19T1500,1619A,118.2962,35.0568,临沂市,鲁南制药厂,,48,44,69,10,29,151,151,114,114,10,24,15,19,0.0,0.2
2026-04-19T1500,1620A,118.2793,34.9976,临沂市,新光毛纺厂,,46,39,63,13,31,145,145,105,105,11,23,14,18,0.2,0.3
2026-04-19T1500,1621A,118.3955,35.0889,临沂市,河东保险公司,,45,39,70,7,33,142,142,109,109,6,25,14,14,0.2,0.3
2026-04-19T1500,3370A,118.3563,35.0215,临沂市,十里堡居委,,45,44,64,14,32,144,144,109,109,9,24,10,15,0.4,0.6
2026-04-19T1500,3496A,118.359,35.1067,临沂市,南坊新区,,46,46,69,10,35,141,141,111,111,6,22,13,16,0.1,0.3
2026-04-19T1500,3860A,118.3915,35.0297,临沂市,皇山花园小区,,46,41,65,12,32,145,145,116,116,10,24,11,16,0.4,0.6
2026-04-19T1500,1870A,109.4854,24.3898,柳州市,柳东小学,NA,NA,36,46,25,29,130,130,90,90,6,14,NA,9,0.8,0.8
2026-04-19T1500,1871A,109.4109,24.3304,柳州市,环保监测站,,39,38,49,27,33,124,124,83,83,11,27,5,7,0.9,1
2026-04-19T1500,1872A,109.3886,24.3408,柳州市,河西水厂,,46,36,65,31,39,145,145,94,94,10,28,9,12,0.7,0.9
2026-04-19T1500,1873A,109.4263,24.2951,柳州市,市四中,,47,47,53,31,34,131,131,84,84,7,24,6,10,0.8,0.9
2026-04-19T1500,1874A,109.396,24.3658,柳州市,市九中,,44,44,66,29,37,133,133,88,88,7,24,5,9,0.6,0.8
2026-04-19T1500,1875A,109.4912,24.3164,柳州市,古亭山,,49,49,36,20,23,128,128,82,82,7,27,5,6,0.7,0.7
2026-04-19T1500,3402A,109.5422,24.3994,柳州市,市二中,,43,43,41,23,29,124,124,90,90,7,19,8,11,0.7,0.7
2026-04-19T1500,2307A,116.5078,31.7369,六安市,监测大楼,,49,35,39,12,25,156,156,131,131,6,14,4,5,0.4,0.4
2026-04-19T1500,2308A,116.4738,31.7642,六安市,皖西学院,臭氧1小时(O3_1h),57,50,49,15,23,165,165,139,139,5,11,5,6,0.4,0.5
2026-04-19T1500,2309A,116.4997,31.7904,六安市,朝阳厂,,50,42,40,13,25,159,159,133,133,7,13,6,7,0.3,0.4
2026-04-19T1500,2310A,116.5566,31.7885,六安市,开发区,臭氧1小时(O3_1h),63,37,44,15,27,170,170,135,135,10,17,5,6,0.5,0.5
2026-04-19T1500,2577A,104.8293,26.592,六盘水市,黄土坡,细颗粒物(PM2.5),68,54,44,44,34,112,112,94,94,10,10,4,5,0.2,0.2
2026-04-19T1500,2579A,104.8481,26.5898,六盘水市,民中,细颗粒物(PM2.5),68,54,41,44,35,109,109,93,93,10,8,4,3,0.7,0.6
2026-04-19T1500,2580A,104.9541,26.5506,六盘水市,双水,细颗粒物(PM2.5),72,53,41,46,32,107,107,88,88,9,8,4,3,0.4,0.3
2026-04-19T1500,4151A,104.8899,26.5685,六盘水市,钟山大道中段564号,细颗粒物(PM2.5),68,71,53,44,34,107,107,89,89,7,6,2,2,0.9,0.8
2026-04-19T1500,2336A,117.022,25.1031,龙岩市,龙岩市监测站,,40,26,20,15,15,125,125,94,94,6,11,5,8,0.4,0.5
2026-04-19T1500,2337A,117.0257,25.0662,龙岩市,闽西职业技术学院,,35,21,24,15,15,112,112,86,86,2,8,6,6,0.6,0.7
2026-04-19T1500,2338A,117.0195,25.0306,龙岩市,龙岩学院,,37,16,22,12,15,116,116,87,87,3,6,5,4,/,/
2026-04-19T1500,2885A,104.9344,33.3827,陇南市,滨江中学,颗粒物(PM10),500,872,160,365,66,79,79,76,68,4,10,8,8,0.6,0.6
2026-04-19T1500,3247A,104.9551,33.3709,陇南市,市总工会,颗粒物(PM10),500,783,135,312,55,80,80,84,71,5,8,8,8,0.4,0.5
2026-04-19T1500,2488A,111.9984,27.7346,娄底市,市监测站,,38,38,52,16,33,91,91,69,69,3,26,5,6,0.4,0.6
2026-04-19T1500,2491A,111.9888,27.7035,娄底市,市政府,,34,29,43,15,27,108,108,77,77,5,12,4,4,0.5,0.5
2026-04-19T1500,4127A,111.9812,27.7591,娄底市,涟钢职大,,39,9,49,3,30,122,122,90,90,4,20,4,8,0.4,0.7
2026-04-19T1500,4128A,112.0303,27.7457,娄底市,娄底体校,,32,22,45,13,27,100,100,72,72,2,8,6,5,0,0.1
2026-04-19T1500,1894A,105.4427,28.9063,泸州市,小市上码头,,38,33,65,24,53,121,121,77,77,9,26,8,8,0.6,0.8
2026-04-19T1500,1895A,105.4241,28.8573,泸州市,兰田宪桥,,40,33,58,21,37,127,127,84,84,8,22,8,8,0.4,0.7
2026-04-19T1500,1896A,105.4378,28.8833,泸州市,市环监站,,39,37,69,20,48,122,122,78,78,12,17,12,12,0.8,0.9
2026-04-19T1500,4272A,105.3689,28.7783,泸州市,纳溪中医医院,颗粒物(PM10),60,63,63,32,43,152,152,88,88,8,19,6,6,0.9,0.9
2026-04-19T1500,2183A,111.1447,37.5212,吕梁市,环保局,颗粒物(PM10),149,245,113,99,47,92,92,76,76,7,27,3,4,0.1,0.3
2026-04-19T1500,2185A,111.1285,37.5338,吕梁市,自来水公司,颗粒物(PM10),338,450,174,125,53,86,86,70,70,10,32,2,4,0.3,0.5
2026-04-19T1500,2867A,111.1225,37.5093,吕梁市,马茂庄小学,颗粒物(PM10),315,432,159,84,43,92,92,78,78,7,34,8,8,0.3,0.5
2026-04-19T1500,1812A,112.3934,34.6517,洛阳市,市委党校,颗粒物(PM10),58,61,65,29,28,142,142,108,108,15,20,12,10,0.7,0.6
2026-04-19T1500,1815A,112.494,34.6883,洛阳市,河南林校,颗粒物(PM10),64,69,74,30,28,162,162,127,127,13,20,15,13,0.7,0.6
2026-04-19T1500,1816A,112.3843,34.623,洛阳市,开发区管委会,颗粒物(PM10),62,66,67,31,30,146,146,117,117,9,15,15,13,0.7,0.7
2026-04-19T1500,1817A,112.4263,34.6249,洛阳市,市委新办公区,颗粒物(PM10),60,63,65,25,29,151,151,116,116,11,18,13,11,0.6,0.6
2026-04-19T1500,3340A,112.6005,34.6323,洛阳市,伊滨,颗粒物(PM10),65,70,74,34,30,154,154,113,113,15,16,11,10,0.7,0.7
2026-04-19T1500,3341A,112.495,34.6338,洛阳市,中移产业园,细颗粒物(PM2.5),66,66,71,43,34,155,155,116,116,14,20,12,12,0.6,0.5
2026-04-19T1500,3593A,112.5736,34.8993,洛阳市,吉利监测站,颗粒物(PM10),61,65,76,22,31,136,136,107,107,8,20,10,11,0.5,0.5
2026-04-19T1500,3635A,112.3678,34.6623,洛阳市,河科大西苑校区,颗粒物(PM10),61,65,70,27,30,155,155,116,116,10,16,14,11,0.5,0.5
2026-04-19T1500,3636A,112.4387,34.678,洛阳市,英才小学,颗粒物(PM10),68,75,80,28,31,156,156,113,113,9,18,16,12,0.5,0.5
2026-04-19T1500,4214A,112.460027,34.694929,洛阳市,春都路1号院,颗粒物(PM10),74,83,80,36,31,169,169,127,127,12,19,14,10,0.6,0.5
2026-04-19T1500,2399A,114.051,33.5721,漯河市,三五一五工厂,颗粒物(PM10),58,60,69,36,32,154,154,126,126,11,20,6,6,0.3,0.3
2026-04-19T1500,2400A,114.0055,33.5698,漯河市,漯河大学,细颗粒物(PM2.5),56,43,58,38,31,141,141,122,122,12,21,5,6,0.6,0.5
2026-04-19T1500,2401A,114.0134,33.5826,漯河市,市水利局,,46,46,62,25,30,144,144,125,125,8,15,5,5,0.7,0.6
2026-04-19T1500,2402A,114.0261,33.5697,漯河市,市广电局,颗粒物(PM10),57,59,62,25,30,154,154,128,128,12,20,5,5,0.5,0.4
2026-04-19T1500,3478A,113.9691,33.568,漯河市,市图书馆,颗粒物(PM10),53,54,63,29,28,138,138,119,119,12,19,6,8,0.5,0.4
2026-04-19T1500,4250A,114.089259,33.588274,漯河市,韶山路11号,颗粒物(PM10),76,86,65,29,28,150,150,116,116,11,21,6,6,0.6,0.5
2026-04-19T1500,1798A,118.5084,31.6838,马鞍山市,湖东路四小,臭氧1小时(O3_1h),90,60,51,22,23,192,192,134,134,16,22,8,8,0.6,0.5
2026-04-19T1500,1799A,118.5019,31.6449,马鞍山市,开发区,臭氧1小时(O3_1h),90,49,59,22,28,192,192,132,132,18,28,8,8,0.6,0.6
2026-04-19T1500,3633A,118.4914,31.681,马鞍山市,雨山,臭氧1小时(O3_1h),89,50,49,28,25,191,191,136,136,21,24,9,9,0.6,0.6
2026-04-19T1500,4191A,118.527362,31.722269,马鞍山市,慈湖高新区,臭氧1小时(O3_1h),83,73,53,37,24,186,186,132,132,42,25,34,9,2.7,0.6
2026-04-19T1500,1686A,111.0285,21.469,茂名市,电白南海,,22,22,34,11,18,70,70,58,58,5,12,5,8,0.8,0.8
2026-04-19T1500,1687A,110.9294,21.6533,茂名市,茂石化七小,,21,17,36,14,22,66,66,53,53,8,15,6,9,0.4,0.6
2026-04-19T1500,1688A,110.9108,21.6688,茂名市,健康路,,20,19,30,12,23,64,64,52,52,6,16,4,18,0.6,0.8
2026-04-19T1500,1689A,110.8592,21.6826,茂名市,高岭,,34,34,43,13,24,64,64,53,53,6,15,2,9,/,/
2026-04-19T1500,3450A,111.0101,21.5165,茂名市,电白水东,,19,14,24,9,21,60,60,55,55,5,13,2,4,/,/
2026-04-19T1500,2540A,103.8414,30.0871,眉山市,气象局,,48,45,70,11,33,153,153,106,106,6,36,8,8,0.7,0.7
2026-04-19T1500,3148A,103.829,30.0563,眉山市,区人社局,,45,42,73,15,36,142,142,103,103,12,41,8,12,0.7,0.8
2026-04-19T1500,4148A,103.8836,30.0695,眉山市,眉职院,,48,35,69,13,31,151,151,101,101,7,27,9,9,0.7,0.8
2026-04-19T1500,1690A,116.1248,24.3307,梅州市,梅江月梅,,36,17,30,10,17,115,115,79,79,6,14,/,/,/,/
2026-04-19T1500,1691A,116.0798,24.2719,梅州市,梅县新城,,33,20,28,10,16,105,105,76,76,9,16,8,8,0.5,0.6
2026-04-19T1500,3315A,116.1234,24.2994,梅州市,梅龙,,38,12,27,9,19,120,120,87,87,5,13,6,7,0.6,0.8
2026-04-19T1500,1878A,104.7775,31.4741,绵阳市,富乐山,,42,42,56,22,35,114,114,83,83,8,18,8,7,0.6,0.7
2026-04-19T1500,1880A,104.6698,31.4668,绵阳市,高新区自来水公司,,37,37,62,19,31,115,115,88,88,6,20,7,7,0.7,0.7
2026-04-19T1500,3491A,104.6899,31.5324,绵阳市,西科大附属小学,,45,45,67,23,34,119,119,89,89,9,24,6,6,0.5,0.6
2026-04-19T1500,3492A,104.5647,31.5343,绵阳市,安州区旅游局,,43,43,58,18,29,125,125,99,99,4,12,6,6,0.3,0.4
2026-04-19T1500,4146A,104.7092,31.4972,绵阳市,科技城新区公安局,,39,39,69,18,31,110,110,78,78,6,21,7,8,0.5,0.6
2026-04-19T1500,4226A,104.765114,31.453094,绵阳市,绵阳市气象局,,37,37,65,19,33,100,100,66,66,6,28,6,8,0.3,0.4
2026-04-19T1500,1784A,129.61,44.561,牡丹江市,环保大楼,颗粒物(PM10),56,58,35,26,23,136,136,101,101,16,18,6,4,0.5,0.4
2026-04-19T1500,1787A,129.6364,44.6075,牡丹江市,机车工厂,颗粒物(PM10),75,84,49,36,28,123,123,96,96,24,19,10,12,0.3,0.4
2026-04-19T1500,1788A,129.6386,44.5462,牡丹江市,第一中学,颗粒物(PM10),59,62,34,23,22,137,137,102,102,11,13,9,7,0.5,0.4
2026-04-19T1500,4287A,129.5992,44.5964,牡丹江市,东晓云街98号,颗粒物(PM10),75,84,47,30,24,134,134,101,101,11,14,4,5,0.3,0.3
2026-04-19T1500,2531A,105.0703,29.61,内江市,市监测站,,45,45,47,18,28,143,143,84,84,8,19,12,11,0.4,0.5
2026-04-19T1500,2533A,105.0657,29.5807,内江市,内江二中,,44,23,42,22,33,138,138,82,82,10,22,10,8,0.4,0.4
2026-04-19T1500,2534A,105.0407,29.5828,内江市,内江日报社,,43,NA,36,23,34,137,137,81,81,8,25,11,11,0.4,0.5
2026-04-19T1500,4147A,105.0433,29.6105,内江市,玉峰路西段888号,,43,36,44,20,34,136,136,78,78,12,23,10,9,0.5,0.7
2026-04-19T1500,2628A,92.0653,31.4846,那曲市,那曲监测站,,33,17,35,12,21,103,103,76,76,9,18,6,8,0.6,0.9
2026-04-19T1500,4243A,92.0515,31.4787,那曲市,那曲市委宣传部,,35,6,21,3,13,112,112,83,83,2,9,7,8,0.5,0.7
2026-04-19T1500,1291A,115.8887,28.7006,南昌市,省林业公司,臭氧1小时(O3_1h),52,51,61,19,34,161,161,138,138,5,30,5,5,0.3,0.4
2026-04-19T1500,1292A,115.813,28.7443,南昌市,林科所,臭氧1小时(O3_1h),60,44,45,20,26,168,168,146,146,7,27,8,9,0.4,0.6
2026-04-19T1500,1294A,115.8518,28.687,南昌市,建工学校,颗粒物(PM10),57,59,71,26,35,159,159,137,137,9,36,11,10,0.7,0.8
2026-04-19T1500,1295A,115.8926,28.6425,南昌市,象湖,臭氧1小时(O3_1h),53,48,60,27,44,162,162,141,141,6,38,9,9,0.8,1
2026-04-19T1500,3046A,115.9084,28.6062,南昌市,机电学校,臭氧1小时(O3_1h),64,53,71,18,38,171,171,142,142,5,39,6,6,0.5,0.7
2026-04-19T1500,3690A,115.9718,28.7032,南昌市,外国语学校,臭氧1小时(O3_1h),62,59,57,18,24,169,169,136,136,13,35,12,10,0.9,0.8
2026-04-19T1500,4106A,115.7923,28.6873,南昌市,工业二路,颗粒物(PM10),53,54,66,19,32,152,152,124,124,10,32,6,5,0.6,0.7
2026-04-19T1500,4192A,115.931587,28.686774,南昌市,南京东路235号,臭氧1小时(O3_1h),82,79,74,24,36,185,185,156,156,5,24,8,6,0.5,0.7
2026-04-19T1500,1906A,106.0791,30.8022,南充市,南充市委,颗粒物(PM10),58,60,50,36,31,47,47,31,27,17,24,7,7,0.3,0.3
2026-04-19T1500,1907A,106.1038,30.8215,南充市,南充炼油厂,颗粒物(PM10),60,64,57,36,32,49,49,36,30,16,24,5,5,0.3,0.3
2026-04-19T1500,4227A,106.108336,30.788436,南充市,梨树横街98号,颗粒物(PM10),55,56,57,37,37,52,52,32,32,18,29,7,7,0.4,0.4
2026-04-19T1500,4304A,106.1172,30.843,南充市,清泉寺北路188号,细颗粒物(PM2.5),66,56,51,43,35,51,51,50,37,12,12,6,7,0.5,0.4
2026-04-19T1500,4305A,106.067,30.7616,南充市,同庆路1号,颗粒物(PM10),60,63,51,35,29,54,54,35,34,17,29,7,7,0.4,0.4
2026-04-19T1500,1151A,118.8033,32.1085,南京市,迈皋桥,臭氧1小时(O3_1h),89,40,37,8,10,191,191,131,131,15,26,7,7,0.7,0.7
2026-04-19T1500,1152A,118.7487,32.057,南京市,草场门,臭氧1小时(O3_1h),83,39,38,7,8,186,186,137,137,21,26,6,6,0.4,0.4
2026-04-19T1500,1154A,118.770105,32.004342,南京市,中华门,臭氧1小时(O3_1h),97,44,43,7,11,197,197,133,133,11,23,8,9,0.5,0.5
2026-04-19T1500,1155A,118.8059,32.0329,南京市,瑞金路,臭氧1小时(O3_1h),89,39,40,6,11,191,191,137,137,15,22,7,7,0.6,0.6
2026-04-19T1500,1156A,118.7946,32.0774,南京市,玄武湖,臭氧1小时(O3_1h),84,49,38,10,9,187,187,126,126,6,17,4,5,0.4,0.4
2026-04-19T1500,1157A,118.6415,32.0964,南京市,浦口,臭氧1小时(O3_1h),74,40,46,7,10,179,179,119,119,30,30,5,5,0.7,0.5
2026-04-19T1500,1158A,118.730129,32.000956,南京市,奥体中心,臭氧1小时(O3_1h),53,49,50,8,11,162,162,111,111,18,31,9,9,0.4,0.4
2026-04-19T1500,1159A,118.9072,32.1047,南京市,仙林大学城,臭氧1小时(O3_1h),68,48,43,7,9,174,174,129,129,15,23,11,11,0.6,0.6
2026-04-19T1500,3422A,118.8443,31.919,南京市,江宁彩虹桥,臭氧1小时(O3_1h),58,41,46,3,14,166,166,129,129,12,28,4,4,0.5,0.5
2026-04-19T1500,3427A,118.8497,32.3599,南京市,六合雄州,臭氧1小时(O3_1h),53,20,34,3,11,162,162,114,114,24,36,4,4,0.6,0.6
2026-04-19T1500,4086A,118.7641,32.0841,南京市,新模范马路66号,臭氧1小时(O3_1h),102,66,42,10,9,203,203,138,138,12,20,4,4,0.5,0.4
2026-04-19T1500,4249A,118.8707617,31.34017673,南京市,汶溪路181号,臭氧1小时(O3_1h),74,64,56,10,26,179,179,139,139,12,23,8,7,0.2,0.4
2026-04-19T1500,4312A,119.019,31.6512,南京市,中山西路1号,,47,31,45,3,19,148,148,116,116,9,23,4,4,0.5,0.7
2026-04-19T1500,1401A,108.3098,22.788,南宁市,二十一中,颗粒物(PM10),54,55,43,34,34,94,94,73,73,8,12,3,2,0.7,0.7
2026-04-19T1500,1402A,108.3135,22.8529,南宁市,北湖,细颗粒物(PM2.5),56,47,45,38,40,97,97,77,77,9,13,2,3,1.0,0.8
2026-04-19T1500,1403A,108.3205,22.8222,南宁市,市监测站,颗粒物(PM10),55,57,45,32,33,100,100,77,77,7,12,2,3,0.7,0.6
2026-04-19T1500,1404A,108.3828,22.8038,南宁市,大自然花园,细颗粒物(PM2.5),58,51,44,39,35,88,88,73,73,9,14,5,5,0.9,0.9
2026-04-19T1500,1406A,108.2397,22.8462,南宁市,区农职院,,43,43,47,23,30,95,95,72,72,4,11,2,3,0.8,0.8
2026-04-19T1500,1407A,108.3285,22.7356,南宁市,英华嘉园,"颗粒物(PM10),细颗粒物(PM2.5)",58,61,46,39,35,85,85,79,79,8,12,4,4,0.7,0.5
2026-04-19T1500,3401A,108.4829,22.762,南宁市,红星社区,细颗粒物(PM2.5),52,51,49,36,36,104,104,80,80,7,11,4,5,0.8,0.7
2026-04-19T1500,4132A,108.2927,23.1477,南宁市,起凤路9号,细颗粒物(PM2.5),74,58,51,47,40,111,111,82,82,8,14,5,5,0.8,0.7
2026-04-19T1500,4221A,108.2177,22.7774,南宁市,乐贤路16号,,42,42,46,25,33,102,102,81,81,6,20,4,6,0.6,0.6
2026-04-19T1500,2332A,118.1682,26.6371,南平市,南平市监测站,,35,26,29,12,18,109,109,77,77,3,12,3,4,0.3,0.6
2026-04-19T1500,2334A,118.1757,26.6276,南平市,南平七中,,35,30,31,9,17,109,109,74,74,4,10,2,2,0.4,0.7
2026-04-19T1500,1168A,120.9056,31.9669,南通市,狼山街道,,30,10,31,3,14,95,95,93,86,5,12,3,4,0.3,0.4
2026-04-19T1500,1170A,120.8635,32.0231,南通市,城中,,29,15,39,3,16,92,92,94,83,4,12,3,5,0.2,0.3
2026-04-19T1500,1171A,120.9376,31.9301,南通市,星湖花园,,30,14,30,3,14,94,94,96,86,5,11,3,4,0.4,0.4
2026-04-19T1500,1172A,120.8053,32.046,南通市,紫琅学院,,32,8,33,3,17,101,101,93,93,6,19,4,7,0.6,0.6
2026-04-19T1500,3291A,121.0631,32.0644,南通市,通州监测站,,33,19,37,3,16,105,105,90,90,5,11,4,4,0.4,0.5
2026-04-19T1500,3432A,120.9348,31.9874,南通市,环境教育馆,,31,17,36,3,15,99,99,92,85,9,15,4,5,0.4,0.4
2026-04-19T1500,4091A,120.8692,31.9885,南通市,洪江路,,26,15,36,3,14,83,83,98,81,14,14,4,5,0.7,0.7
2026-04-19T1500,2404A,112.5338,33.0086,南阳市,瓦房庄,颗粒物(PM10),55,57,59,35,24,132,132,115,115,10,15,6,5,0.5,0.5
2026-04-19T1500,2405A,112.5002,32.9734,南阳市,汉画馆,颗粒物(PM10),63,67,64,31,26,135,135,116,116,9,15,8,7,0.6,0.6
2026-04-19T1500,2406A,112.5778,33.0144,南阳市,气象站,颗粒物(PM10),58,60,66,30,25,148,148,118,118,5,14,8,6,0.4,0.5
2026-04-19T1500,2407A,112.548,32.9687,南阳市,理工学院,颗粒物(PM10),58,60,63,37,27,141,141,117,117,7,14,8,7,0.5,0.5
2026-04-19T1500,4008A,112.5233,32.9921,南阳市,卧龙区政府,颗粒物(PM10),61,65,72,37,27,135,135,116,116,6,12,9,7,0.6,0.6
2026-04-19T1500,1234A,121.8352,29.9111,宁波市,区环保大楼,臭氧1小时(O3_1h),88,39,58,18,31,190,190,137,137,20,39,8,7,0.5,0.5
2026-04-19T1500,1235A,121.5595,29.8208,宁波市,万里学院,臭氧1小时(O3_1h),54,31,39,10,26,163,163,123,123,11,29,9,9,0.5,0.6
2026-04-19T1500,1236A,121.713,29.9564,宁波市,龙赛医院,臭氧1小时(O3_1h),84,58,60,24,30,187,187,126,126,22,35,8,7,0.5,0.5
2026-04-19T1500,1240A,121.5855,29.8635,宁波市,太古小学,臭氧1小时(O3_1h),59,31,47,15,26,167,167,126,126,10,29,4,4,0.4,0.4
2026-04-19T1500,1241A,121.5239,29.8673,宁波市,市环境监测中心,,50,37,39,15,28,160,160,122,122,15,26,5,4,0.4,0.4
2026-04-19T1500,2871A,121.6156,29.9015,宁波市,万里国际学校,臭氧1小时(O3_1h),107,54,43,34,29,214,214,142,142,26,35,9,6,0.6,0.5
2026-04-19T1500,3710A,121.5593,29.8976,宁波市,白沙活动中心,臭氧1小时(O3_1h),60,32,35,16,26,168,168,130,130,11,27,6,6,0.5,0.5
2026-04-19T1500,4095A,121.8962,29.7529,宁波市,中科路88号,臭氧1小时(O3_1h),107,55,50,38,28,213,213,131,131,19,34,8,8,0.5,0.5
2026-04-19T1500,2341A,119.5387,26.6611,宁德市,宁德市监测站,,50,39,28,20,21,157,157,90,90,19,21,8,7,1.1,0.7
2026-04-19T1500,3209A,119.5231,26.6562,宁德市,宁德一中,,48,31,25,16,20,152,152,102,102,11,13,7,6,0.9,0.5
2026-04-19T1500,2618A,98.859,25.8541,怒江傈僳族自治州,州监测站,,27,24,40,18,30,85,85,69,66,8,12,6,6,0.2,0.3
2026-04-19T1500,2619A,98.8607,25.8168,怒江傈僳族自治州,泸水一中,,30,25,39,21,31,78,78,61,61,10,18,5,6,0.5,0.6
2026-04-19T1500,1888A,101.6891,26.571,攀枝花市,弄弄坪,,41,30,52,25,29,129,129,113,113,8,14,12,14,0.6,0.6
2026-04-19T1500,1889A,101.577,26.5914,攀枝花市,河门口,,49,45,68,34,39,122,122,93,93,7,16,6,20,0.5,0.7
2026-04-19T1500,1891A,101.7365,26.4986,攀枝花市,仁和,细颗粒物(PM2.5),56,54,54,38,38,123,123,NA,NA,6,6,4,4,0.4,0.4
2026-04-19T1500,2835A,101.7222,26.567,攀枝花市,四十中小,,44,44,48,26,30,128,128,116,116,7,14,8,11,0.8,0.8
2026-04-19T1500,1604A,122.0303,41.1489,盘锦市,开发区,细颗粒物(PM2.5),100,94,61,60,45,196,196,158,158,14,13,10,8,0.6,0.5
2026-04-19T1500,1605A,122.0486,41.0883,盘锦市,兴隆台,细颗粒物(PM2.5),100,105,57,60,60,182,182,146,146,12,14,12,10,0.8,0.6
2026-04-19T1500,1606A,121.8297,41.1026,盘锦市,新生街道,细颗粒物(PM2.5),88,90,50,54,77,189,189,146,146,19,19,9,6,0.8,0.6
2026-04-19T1500,1832A,113.3257,33.7423,平顶山市,新华旅馆,颗粒物(PM10),58,61,83,29,32,141,141,109,109,6,18,4,6,0.5,0.5
2026-04-19T1500,1833A,113.2917,33.737,平顶山市,规划设计院,颗粒物(PM10),53,54,68,32,31,137,137,114,114,6,16,8,8,0.5,0.5
2026-04-19T1500,1834A,113.182,33.7738,平顶山市,平顶山工学院,,44,44,59,24,28,137,137,118,118,7,14,9,10,0.5,0.5
2026-04-19T1500,3594A,112.8736,33.9068,平顶山市,石龙区,,42,42,90,22,37,120,120,96,96,6,18,8,10,0.6,0.6
2026-04-19T1500,4116A,113.284,33.7139,平顶山市,姚电大道23号,颗粒物(PM10),58,61,82,33,31,142,142,119,119,11,19,6,7,0.4,0.4
2026-04-19T1500,2656A,106.6633,35.5338,平凉市,聚贤嘉苑,颗粒物(PM10),88,103,380,35,73,100,100,96,96,14,14,3,5,0.3,0.3
2026-04-19T1500,2657A,106.7021,35.5307,平凉市,博物馆,NA,NA,100,367,NA,27,102,102,98,98,5,12,10,9,0.2,0.3
2026-04-19T1500,2348A,113.8384,27.6436,萍乡市,中医院,,38,34,41,23,28,119,119,99,99,10,21,8,7,0.8,0.8
2026-04-19T1500,2350A,113.8677,27.6438,萍乡市,市环保局,,43,40,45,20,34,136,136,101,101,8,23,21,13,0.7,0.8
2026-04-19T1500,2351A,113.8663,27.6202,萍乡市,安源区政府,,40,35,48,28,34,118,118,81,81,4,12,9,9,0.6,1.1
2026-04-19T1500,4107A,113.8686,27.6668,萍乡市,联洪村委会,,44,34,45,23,26,140,140,93,93,2,16,6,4,0.6,0.5
2026-04-19T1500,2319A,119.0142,25.4324,莆田市,荔城区仓后路,,47,37,28,16,17,150,150,112,112,12,17,/,/,/,/
2026-04-19T1500,2320A,119.0016,25.4553,莆田市,莆田市监测站,,47,45,31,14,14,150,150,111,111,15,15,4,3,0.4,0.5
2026-04-19T1500,2321A,119.112,25.4561,莆田市,涵江区六中,NA,NA,26,24,NA,13,125,125,105,105,7,11,/,/,0.3,0.5
2026-04-19T1500,2322A,119.1014,25.3215,莆田市,秀屿区政府,,50,24,28,20,19,159,159,138,138,8,9,4,4,0.4,0.6
2026-04-19T1500,2392A,115.0312,35.7636,濮阳市,环保局,颗粒物(PM10),63,67,71,20,28,146,146,123,123,14,22,4,5,0.5,0.5
2026-04-19T1500,3021A,115,35.7667,濮阳市,濮水河管理处,颗粒物(PM10),58,61,74,35,30,140,140,117,117,10,16,4,5,0.6,0.6
2026-04-19T1500,4118A,115.0552,35.7816,濮阳市,中原东路68号,颗粒物(PM10),65,71,80,23,28,150,150,124,124,8,12,4,5,0.5,0.6
2026-04-19T1500,4216A,115.0923632,35.76857718,濮阳市,任丘路479号,颗粒物(PM10),60,63,76,29,32,149,149,119,119,12,16,3,5,0.4,0.4
2026-04-19T1500,2601A,100.9801,22.7634,普洱市,市环保局,,42,41,92,21,48,132,132,102,102,8,13,5,5,0.9,1
2026-04-19T1500,2602A,100.9763,22.8237,普洱市,普洱第二中学,,38,37,81,21,52,120,120,90,90,10,24,6,6,0.7,0.9
2026-04-19T1500,3345A,131.0413,45.7795,七台河市,中波台,,26,16,24,3,15,82,82,76,76,7,13,3,4,0.4,0.5
2026-04-19T1500,3637A,131.0136,45.7688,七台河市,人民广场,,32,32,39,3,14,89,89,80,80,10,21,10,12,0.5,0.6
2026-04-19T1500,3684A,130.8639,45.8144,七台河市,新建矿广场,NA,NA,NA,40,NA,14,73,73,70,70,10,19,9,10,0.1,0.2
2026-04-19T1500,1779A,123.9307,47.3641,齐齐哈尔市,安居小区,,20,19,29,8,8,63,63,72,71,15,10,6,5,0.5,0.4
2026-04-19T1500,1780A,123.9497,47.3389,齐齐哈尔市,中心广场,,29,29,23,10,7,58,58,65,62,12,7,6,5,0.4,0.3
2026-04-19T1500,1781A,123.9483,47.3229,齐齐哈尔市,农牧车辆厂,颗粒物(PM10),60,63,28,14,7,67,67,75,74,11,8,5,5,0.2,0.3
2026-04-19T1500,1783A,123.9442,47.2994,齐齐哈尔市,市环境监测站,,23,23,24,16,11,60,60,68,66,11,10,2,3,0.6,0.5
2026-04-19T1500,3662A,123.6341,47.2079,齐齐哈尔市,富区青少年活动中心,,36,36,23,12,10,57,57,66,64,12,7,5,4,0.6,0.5
2026-04-19T1500,2591A,107.9765,26.5724,黔东南苗族侗族自治州,市环境监测站,,46,34,27,32,22,83,83,76,76,6,13,2,2,0.7,0.7
2026-04-19T1500,2881A,107.8909,26.531,黔东南苗族侗族自治州,凯里学院,,40,34,23,28,21,90,90,83,83,3,9,1,2,0.6,0.5
2026-04-19T1500,2593A,107.5223,26.2371,黔南布依族苗族自治州,小围寨,,38,31,18,26,15,69,69,70,70,6,5,6,5,0.6,0.4
2026-04-19T1500,3538A,107.5175,26.2977,黔南布依族苗族自治州,沙坝,,43,36,22,30,15,61,61,62,62,5,8,4,4,1.0,0.8
2026-04-19T1500,2589A,104.9022,25.0943,黔西南布依族苗族自治州,场坝街,细颗粒物(PM2.5),64,NA,31,42,28,108,108,84,84,5,4,6,6,0.6,0.5
2026-04-19T1500,2590A,104.8812,25.0994,黔西南布依族苗族自治州,坪东大道,细颗粒物(PM2.5),64,51,37,42,29,107,107,84,84,6,5,3,3,0.6,0.5
2026-04-19T1500,2502A,108.6238,21.9667,钦州市,市环保站,,44,44,46,25,30,99,99,69,69,10,14,1,3,0.7,0.8
2026-04-19T1500,2503A,108.655,21.9481,钦州市,沙埠小学,颗粒物(PM10),58,61,51,33,34,91,91,64,64,9,17,2,4,0.9,0.9
2026-04-19T1500,2504A,108.5989,21.7435,钦州市,港区一小,细颗粒物(PM2.5),62,43,65,41,40,95,95,60,60,11,17,3,5,0.8,0.7
2026-04-19T1500,3404A,108.5959,21.9634,钦州市,北职校,,46,39,41,32,31,92,92,62,62,6,16,1,3,0.6,0.7
2026-04-19T1500,1046A,119.5247,39.9346,秦皇岛市,建设大厦,颗粒物(PM10),104,128,102,63,68,177,177,117,117,20,35,11,8,0.7,0.5
2026-04-19T1500,3132A,119.5979,39.938,秦皇岛市,文明里,细颗粒物(PM2.5),118,141,108,79,69,154,154,101,101,32,41,14,11,0.8,0.5
2026-04-19T1500,4066A,119.7458,39.9952,秦皇岛市,南园路157号,细颗粒物(PM2.5),125,114,96,87,74,148,148,99,99,34,37,12,9,0.8,0.5
2026-04-19T1500,4067A,119.5131,39.8858,秦皇岛市,翠岛大街1号,细颗粒物(PM2.5),117,118,90,78,68,166,166,108,108,23,31,13,9,0.8,0.5
2026-04-19T1500,4198A,119.509013,39.825305,秦皇岛市,北戴河轮滑馆,细颗粒物(PM2.5),129,117,90,91,62,142,142,104,104,28,32,9,8,0.8,0.4
2026-04-19T1500,1310A,120.404,36.0625,青岛市,市南区东部子站,,23,17,10,6,6,72,72,80,78,16,10,6,4,0.3,0.3
2026-04-19T1500,1311A,120.362344,36.10282,青岛市,四方区子站,,30,14,19,10,10,94,94,103,103,15,19,6,5,0.6,0.5
2026-04-19T1500,1312A,120.294373,36.054183,青岛市,市南区西部子站,,20,14,9,7,6,63,63,83,77,26,19,3,3,0.5,0.4
2026-04-19T1500,1313A,120.4581,36.0858,青岛市,崂山区子站,,25,17,9,6,8,77,77,87,87,15,12,8,7,0.3,0.3
2026-04-19T1500,1315A,120.3945,36.3083,青岛市,城阳区子站,,32,22,42,3,14,102,102,99,99,10,22,6,6,0.6,0.6
2026-04-19T1500,3642A,120.3454,36.0735,青岛市,市北区南部,,28,19,12,3,6,89,89,94,93,9,9,3,2,0.5,0.5
2026-04-19T1500,3643A,120.3897,36.18,青岛市,李沧区北部,,31,31,29,7,10,98,98,85,85,11,20,9,8,0.5,0.5
2026-04-19T1500,4110A,120.5222,36.4089,青岛市,盟旺路653号,,35,18,27,3,11,110,110,95,95,5,12,4,4,0.6,0.6
2026-04-19T1500,4290A,120.196923,35.954556,青岛市,珠江路669号,,34,34,13,6,6,87,87,90,89,13,10,4,4,0.5,0.5
2026-04-19T1500,4291A,120.0424,35.8656,青岛市,黄岛区人民政府广场,,27,27,13,12,7,83,83,85,85,17,12,8,7,0.5,0.5
2026-04-19T1500,1703A,113.0218,23.7086,清远市,凤城街办,,48,34,29,32,17,153,153,89,89,10,20,/,/,/,/
2026-04-19T1500,3025A,113.0479,23.6343,清远市,技师学院,臭氧1小时(O3_1h),64,29,30,22,17,171,171,96,96,10,24,5,7,0.6,0.7
2026-04-19T1500,3318A,112.9898,23.7403,清远市,清新太和,,50,33,25,20,15,159,159,98,98,9,12,6,6,0.5,0.5
2026-04-19T1500,3455A,113.076,23.72,清远市,清城东城,臭氧1小时(O3_1h),57,40,28,28,15,165,165,95,95,8,12,/,/,/,/
2026-04-19T1500,2661A,107.6325,35.7357,庆阳市,庆阳五中,颗粒物(PM10),199,347,527,97,167,77,77,92,77,9,12,2,3,0.2,0.3
2026-04-19T1500,2662A,107.6361,35.7067,庆阳市,市环保局,颗粒物(PM10),195,339,499,91,165,76,76,89,74,9,12,4,6,0.4,0.5
2026-04-19T1500,1916A,103.7897,25.5036,曲靖市,环境监测站,颗粒物(PM10),63,68,81,36,53,156,156,118,118,8,14,7,7,0.5,0.8
2026-04-19T1500,1917A,103.8013,25.5357,曲靖市,烟厂办公区,颗粒物(PM10),51,51,66,28,46,155,155,118,118,5,10,7,8,0.5,0.7
2026-04-19T1500,3376A,103.7926,25.4651,曲靖市,南苑二区,,47,36,69,25,50,148,148,112,112,5,10,4,4,0.6,0.8
2026-04-19T1500,3377A,103.7442,25.5259,曲靖市,曲靖师范学院,,50,37,65,33,52,159,159,119,119,7,10,5,4,0.4,0.6
2026-04-19T1500,1264A,118.8694,28.94,衢州市,环保大楼,,49,32,43,19,31,154,154,112,112,9,19,/,/,/,/
2026-04-19T1500,1266A,118.8622,28.9809,衢州市,衢州学院,,48,28,48,16,32,153,153,112,112,12,35,6,6,0.4,0.5
2026-04-19T1500,4097A,118.9646,28.9832,衢州市,衢州三中,臭氧1小时(O3_1h),63,26,49,16,35,170,170,114,114,9,29,9,8,0.4,0.5
2026-04-19T1500,1611A,118.5818,24.9116,泉州市,涂山街,,41,28,26,18,17,130,130,107,107,13,18,3,4,0.8,0.8
2026-04-19T1500,1612A,118.597,24.8976,泉州市,津头埔,NA,NA,26,27,10,17,127,127,110,110,12,16,NA,4,0.6,0.7
2026-04-19T1500,1613A,118.6669,24.9422,泉州市,万安,,37,29,25,11,18,118,118,100,100,11,14,3,4,0.6,0.7
2026-04-19T1500,4105A,118.6355,24.9148,泉州市,霞新路6号,,37,18,21,12,16,118,118,100,100,11,16,/,/,0.6,0.7
2026-04-19T1500,2626A,88.8873,29.2723,日喀则市,日喀则监测站,,35,16,47,3,14,111,111,93,93,4,11,11,11,0.4,0.5
2026-04-19T1500,3726A,88.8775,29.2425,日喀则市,林业技术推广中心,,36,12,26,3,6,114,114,98,98,3,6,9,10,0.4,0.4
2026-04-19T1500,1659A,119.4711,35.421,日照市,监测站,,48,48,38,13,17,133,133,75,75,28,39,19,11,1.0,0.8
2026-04-19T1500,1660A,119.523,35.4216,日照市,市政府广场,颗粒物(PM10),70,78,31,18,14,122,122,68,68,35,27,12,7,0.8,0.7
2026-04-19T1500,1661A,119.5511,35.4113,日照市,港务局,颗粒物(PM10),51,51,16,23,7,98,98,64,64,28,22,7,4,0.6,0.5
2026-04-19T1500,3507A,119.5326,35.4627,日照市,职业技术学院,,46,46,23,15,11,130,130,75,75,26,23,11,7,0.7,0.6
2026-04-19T1500,3604A,119.3267,35.1043,日照市,岚山环保分局,颗粒物(PM10),75,85,48,26,17,116,116,83,83,51,29,19,12,0.8,1.1
2026-04-19T1500,1835A,111.1922,34.7752,三门峡市,市政府,细颗粒物(PM2.5),244,NA,75,194,42,104,104,101,101,10,12,11,12,0.6,0.5
2026-04-19T1500,1836A,111.1588,34.794,三门峡市,开发区,细颗粒物(PM2.5),122,140,90,84,36,102,102,106,106,16,13,12,13,0.5,0.5
2026-04-19T1500,3039A,111.1911,34.7829,三门峡市,三门峡市第一小学,颗粒物(PM10),124,180,77,61,33,104,104,104,104,11,12,13,14,0.5,0.5
2026-04-19T1500,3598A,111.1031,34.719,三门峡市,富达温泉假日酒店,颗粒物(PM10),117,162,81,40,30,114,114,104,104,15,14,17,15,0.7,0.5
2026-04-19T1500,2324A,117.621,26.2626,三明市,三钢,,42,37,31,14,14,132,132,90,90,5,13,6,5,0.9,1
2026-04-19T1500,2325A,117.6352,26.2714,三明市,三明二中,,44,27,30,19,19,139,139,88,88,7,13,8,4,1.0,0.8
2026-04-19T1500,2326A,117.6028,26.2377,三明市,三元区政府,,40,32,39,16,26,127,127,83,83,5,19,5,8,0.6,1.2
2026-04-19T1500,1877A,109.4962,18.2682,三亚市,河西子站,,23,22,25,13,18,71,71,67,67,2,7,5,5,0.4,0.4
2026-04-19T1500,3540A,109.7348,18.3443,三亚市,君悦子站,,23,12,27,9,13,73,73,65,65,3,8,4,4,0.5,0.5
2026-04-19T1500,4135A,109.1714,18.3739,三亚市,城东小学站,,24,24,27,12,17,71,71,66,66,5,8,/,/,/,/
2026-04-19T1500,2624A,91.7592,29.234,山南市,山南监测站,,36,10,14,3,2,115,115,86,86,4,6,13,13,0.2,0.2
2026-04-19T1500,2625A,91.7701,29.2436,山南市,山南人民医院,,36,9,16,3,5,115,115,89,89,1,3,11,10,0.1,0.2
2026-04-19T1500,1674A,116.6795,23.3666,汕头市,金平子站,,43,29,32,16,27,135,135,122,122,8,10,6,5,0.8,0.8
2026-04-19T1500,1675A,116.7248,23.3632,汕头市,龙湖子站,,41,36,32,16,27,129,129,116,116,4,6,5,6,/,/
2026-04-19T1500,1676A,116.7257,23.2774,汕头市,濠江子站,,40,27,32,15,24,126,126,111,111,8,11,7,8,/,/
2026-04-19T1500,1677A,116.7518,23.4712,汕头市,澄海子站,,46,46,38,18,28,140,140,123,123,7,9,7,7,0.8,0.8
